timepoint,stationcode,longitude,latitude,area,positionname,primarypollutant,aqi,pm10,pm10_24h,pm2_5,pm2_5_24h,o3,o3_24h,o3_8h,o3_8h_24h,no2,no2_24h,so2,so2_24h,co,co_24h
2026-01-15T1100,2568A,102.2503,31.8896,阿坝藏族羌族自治州,马师校,,30,28,36,21,20,35,,31,28,16,17,4,4,0.6,0.5
2026-01-15T1100,3994A,102.2174,31.9016,阿坝藏族羌族自治州,马尔康中学西区,,13,,22,3,11,41,,36,36,10,14,5,5,0.6,0.5
2026-01-15T1100,2695A,80.2899,41.1684,阿克苏地区,电视台,颗粒物(PM10),85,120,129,32,63,16,,25,25,51,46,3,4,1.4,1.7
2026-01-15T1100,2696A,80.2592,41.1541,阿克苏地区,艺术中心,颗粒物(PM10),85,119,120,45,67,24,,32,32,38,49,5,6,1.0,1.1
2026-01-15T1100,2205A,105.699,38.8409,阿拉善盟,蒙二幼,,,106,153,,46,79,,84,82,12,7,11,10,0.7,0.6
2026-01-15T1100,2206A,105.7198,38.8508,阿拉善盟,环保局新楼,颗粒物(PM10),68,85,157,21,39,73,,85,79,11,6,8,9,0.5,0.5
2026-01-15T1100,2708A,88.1266,47.8515,阿勒泰地区,市站,细颗粒物(PM2.5),53,50,44,37,34,21,,33,33,55,45,5,5,0.8,0.8
2026-01-15T1100,4166A,88.1198,47.7931,阿勒泰地区,阿勒泰路33号,细颗粒物(PM2.5),58,45,56,41,44,27,,46,44,50,31,3,3,1.0,0.8
2026-01-15T1100,2630A,80.1171,32.4999,阿里地区,阿里监测站,,,,3,,3,,,70,55,,9,,7,,0.5
2026-01-15T1100,3192A,80.0906,32.5029,阿里地区,阿里藏医院,,39,39,16,27,10,40,,59,54,26,11,16,13,1.2,0.7
2026-01-15T1100,2644A,109.0088,32.6974,安康市,汉滨区检察院,细颗粒物(PM2.5),87,74,74,64,57,12,,10,9,22,26,4,5,0.9,0.8
2026-01-15T1100,4054A,109.0324,32.6913,安康市,市邮政管理局,细颗粒物(PM2.5),93,92,92,69,69,10,,7,7,26,34,5,6,0.9,1.1
2026-01-15T1100,2291A,117.0806,30.5181,安庆市,环科院,细颗粒物(PM2.5),97,91,82,72,61,18,,4,4,74,60,14,10,0.8,0.6
2026-01-15T1100,2292A,117.0331,30.5118,安庆市,马山宾馆,细颗粒物(PM2.5),89,89,78,66,59,50,,12,12,45,69,10,9,0.7,0.7
2026-01-15T1100,2294A,116.9897,30.6146,安庆市,安庆大学,细颗粒物(PM2.5),112,114,59,84,43,35,,32,29,78,34,15,7,0.8,0.6
2026-01-15T1100,3173A,117.0598,30.5351,安庆市,市人大,细颗粒物(PM2.5),92,94,79,68,58,39,,7,7,61,61,12,14,0.6,0.6
2026-01-15T1100,3123A,105.9408,26.2431,安顺市,凤凰山,细颗粒物(PM2.5),90,85,82,67,70,48,,48,31,44,30,34,34,0.8,0.8
2026-01-15T1100,3124A,105.9443,26.2567,安顺市,金钟山,细颗粒物(PM2.5),99,76,73,74,72,57,,56,43,39,20,45,36,0.8,0.8
2026-01-15T1100,3125A,105.8983,26.248,安顺市,娄家坡,,,67,74,61,68,,,69,62,27,19,23,19,0.9,0.9
2026-01-15T1100,1819A,114.3552,36.1017,安阳市,红庙街,颗粒物(PM10),104,157,156,47,92,33,,7,7,44,57,7,9,1.5,1.6
2026-01-15T1100,1820A,114.361,36.0681,安阳市,银杏小区,颗粒物(PM10),105,160,150,65,97,40,,12,12,78,54,6,8,1.2,1.4
2026-01-15T1100,3141A,114.3921,36.0879,安阳市,信访局,颗粒物(PM10),112,174,156,78,98,14,,7,7,59,59,15,11,1.9,1.6
2026-01-15T1100,3669A,114.4706,36.0634,安阳市,左辅环卫站,细颗粒物(PM2.5),148,166,180,113,159,22,,12,12,43,59,7,12,1.1,1.4
2026-01-15T1100,4117A,114.2918,36.0769,安阳市,钢三路198号,颗粒物(PM10),96,142,163,41,80,28,,15,15,33,50,4,9,0.7,1.2
2026-01-15T1100,1748A,123.0441,41.1201,鞍山市,深沟寺,细颗粒物(PM2.5),98,94,56,73,40,18,,34,24,34,20,7,6,1.6,1
2026-01-15T1100,1749A,123.011,41.0931,鞍山市,太阳城,细颗粒物(PM2.5),99,107,94,74,40,22,,21,19,33,25,15,12,1.8,1.4
2026-01-15T1100,1750A,123.0483,41.1445,鞍山市,太平,细颗粒物(PM2.5),93,101,67,69,38,19,,25,24,32,26,9,9,1.4,0.9
2026-01-15T1100,1751A,122.964,41.0968,鞍山市,铁西三道街,细颗粒物(PM2.5),112,114,91,84,57,16,,9,9,38,49,12,20,1.4,1.3
2026-01-15T1100,1753A,123.0219,41.0822,鞍山市,明达新区,细颗粒物(PM2.5),104,102,63,78,45,20,,23,17,29,23,12,12,1.3,0.9
2026-01-15T1100,4201A,122.944647,41.082639,鞍山市,兴盛南路290号,细颗粒物(PM2.5),114,123,96,86,59,14,,6,6,,41,18,13,,1.3
2026-01-15T1100,2195A,107.4206,40.7609,巴彦淖尔市,附二中,颗粒物(PM10),78,105,152,36,38,49,,61,58,17,8,3,3,0.4,0.4
2026-01-15T1100,2196A,107.37,40.7372,巴彦淖尔市,市环保大楼,颗粒物(PM10),74,97,154,23,34,52,,54,51,15,10,5,4,0.4,0.4
2026-01-15T1100,1956A,86.1476,41.7529,巴音郭楞蒙古自治州,孔雀公园,颗粒物(PM10),69,88,101,48,40,33,,26,26,39,48,8,9,0.8,0.9
2026-01-15T1100,1957A,86.1971,41.7166,巴音郭楞蒙古自治州,棉纺厂,颗粒物(PM10),83,115,140,42,33,38,,30,30,36,38,/,/,/,/
2026-01-15T1100,1958A,86.236,41.7172,巴音郭楞蒙古自治州,经济开发区,颗粒物(PM10),63,75,97,25,27,49,,36,36,17,28,6,6,0.5,0.5
2026-01-15T1100,3181A,106.776805,31.852614,巴中市,市五中,细颗粒物(PM2.5),114,116,95,86,69,10,,5,4,28,30,6,5,1.2,0.9
2026-01-15T1100,3183A,106.7419,31.8654,巴中市,圣泉水务公司,细颗粒物(PM2.5),67,66,76,48,58,13,,7,7,26,38,5,5,0.6,0.8
2026-01-15T1100,3616A,106.7617,31.8343,巴中市,市中心医院,细颗粒物(PM2.5),92,90,89,68,65,8,,2,2,35,34,8,7,1.1,1
2026-01-15T1100,2235A,122.7909,45.608,白城市,洮北区环保局,细颗粒物(PM2.5),53,40,33,37,25,41,,30,29,16,20,6,6,0.4,0.4
2026-01-15T1100,2236A,122.8741,45.5725,白城市,市环保局,,43,39,34,30,23,41,,30,29,13,18,6,7,0.4,0.4
2026-01-15T1100,2231A,126.4219,41.9172,白山市,喜丰,细颗粒物(PM2.5),67,75,56,48,31,36,,23,22,35,49,29,34,1.1,1.1
2026-01-15T1100,2232A,126.4082,41.9416,白山市,环保局,,,53,40,52,35,24,,15,11,49,40,,14,,1.2
2026-01-15T1100,2647A,104.1727,36.5448,白银市,第三小学,,,,143,,40,33,,43,29,,37,212,29,1.6,0.7
2026-01-15T1100,2648A,104.1467,36.5482,白银市,动力公司,细颗粒物(PM2.5),100,127,132,75,37,40,,44,36,62,26,103,17,1.7,0.8
2026-01-15T1100,2512A,106.6102,23.901,百色市,市监测站,细颗粒物(PM2.5),77,61,92,56,72,47,,53,53,17,24,7,11,0.8,0.9
2026-01-15T1100,2513A,106.6524,23.8842,百色市,市中心血站,细颗粒物(PM2.5),88,74,110,65,89,48,,51,51,22,41,7,13,1.0,1.2
2026-01-15T1100,4133A,106.6273,23.8798,百色市,龙景西路,细颗粒物(PM2.5),85,78,129,63,88,38,,45,45,21,35,7,14,0.7,0.9
2026-01-15T1100,2270A,117.396,32.9389,蚌埠市,工人疗养院,细颗粒物(PM2.5),119,160,128,90,76,42,,35,30,58,52,9,9,0.9,0.9
2026-01-15T1100,2271A,117.3606,32.9428,蚌埠市,百货大楼,细颗粒物(PM2.5),117,166,125,88,78,44,,36,30,55,52,11,9,0.7,0.7
2026-01-15T1100,2273A,117.4183,32.8909,蚌埠市,蚌埠学院,细颗粒物(PM2.5),112,129,124,84,86,52,,30,30,43,53,12,9,0.7,0.7
2026-01-15T1100,2274A,117.3534,32.9672,蚌埠市,淮上区政府,细颗粒物(PM2.5),118,151,120,89,80,,,44,38,58,52,,6,0.8,0.8
2026-01-15T1100,2275A,117.3143,32.8977,蚌埠市,高新区,细颗粒物(PM2.5),125,136,130,95,92,54,,26,26,35,57,13,10,0.5,0.6
2026-01-15T1100,3715A,117.3091,32.9314,蚌埠市,蚌埠田家炳中学,细颗粒物(PM2.5),128,138,137,97,91,43,,19,19,53,65,9,16,0.7,0.7
2026-01-15T1100,1585A,109.8761,40.6533,包头市,市环境监测站,颗粒物(PM10),107,164,282,39,46,15,,6,6,56,46,18,7,1.6,0.8
2026-01-15T1100,1587A,109.9992,40.5843,包头市,包头八中,颗粒物(PM10),120,189,266,81,69,18,,8,8,,45,48,10,,1.2
2026-01-15T1100,1589A,109.8641,40.6288,包头市,惠龙物流,颗粒物(PM10),112,173,264,64,53,18,,10,9,55,45,42,14,2.4,1.3
2026-01-15T1100,1590A,110.0376,40.5546,包头市,东河鸿龙湾,颗粒物(PM10),105,159,279,39,45,25,,10,10,48,49,24,11,1.1,1.3
2026-01-15T1100,3283A,109.9154,40.5684,包头市,滨河大厦,颗粒物(PM10),106,161,283,58,55,26,,8,8,39,37,19,10,0.9,0.9
2026-01-15T1100,3419A,109.9449,40.6259,包头市,包头市委党校,颗粒物(PM10),112,173,261,67,49,17,,15,10,58,45,30,11,2.2,1.3
2026-01-15T1100,3683A,109.8332,40.6577,包头市,昆区政府,颗粒物(PM10),111,172,255,74,56,19,,6,6,57,57,29,11,2.0,1.4
2026-01-15T1100,1931A,107.0802,34.3129,宝鸡市,竹园沟,颗粒物(PM10),74,98,88,30,31,30,,25,25,32,20,7,6,0.4,0.3
2026-01-15T1100,1933A,107.1429,34.3549,宝鸡市,监测站,颗粒物(PM10),89,128,107,36,40,15,,15,12,41,32,8,5,1.0,0.6
2026-01-15T1100,1934A,107.1172,34.3759,宝鸡市,技工学校,颗粒物(PM10),98,146,111,50,42,18,,19,14,38,28,17,8,1.3,0.8
2026-01-15T1100,1936A,107.2025,34.3518,宝鸡市,文理学院,颗粒物(PM10),83,116,102,39,38,20,,14,11,35,35,6,4,0.9,0.5
2026-01-15T1100,1937A,107.2396,34.3626,宝鸡市,三迪小学,颗粒物(PM10),87,124,113,50,49,13,,9,8,46,42,4,4,1.0,0.7
2026-01-15T1100,4155A,107.1721,34.3558,宝鸡市,滨河北路,颗粒物(PM10),86,121,98,36,34,19,,16,12,35,31,6,5,0.8,0.6
2026-01-15T1100,4308A,107.3898,34.3601,宝鸡市,陈仓区北开路21号,,,107,115,51,49,48,,28,28,,42,102,34,0.9,0.6
2026-01-15T1100,1051A,115.4803,38.8568,保定市,游泳馆,,,,115,,83,,,6,6,49,58,14,8,1.2,0.8
2026-01-15T1100,1052A,115.509,38.8895,保定市,华电二区,细颗粒物(PM2.5),173,140,102,131,86,14,,5,5,55,51,12,5,1.3,0.7
2026-01-15T1100,1053A,115.4588,38.9037,保定市,接待中心,细颗粒物(PM2.5),156,148,118,119,85,19,,5,5,50,54,10,3,1.5,0.8
2026-01-15T1100,1054A,115.4484,38.8344,保定市,地表水厂,细颗粒物(PM2.5),170,181,147,129,94,11,,4,4,61,60,11,6,1.2,0.8
2026-01-15T1100,3581A,115.3136,38.9511,保定市,满城区生态环境分局,细颗粒物(PM2.5),211,237,153,161,100,10,,4,4,42,59,4,4,1.7,1.1
2026-01-15T1100,3582A,115.4709,38.7628,保定市,清苑区第二中学,细颗粒物(PM2.5),158,203,153,120,91,13,,6,6,52,57,8,5,1.1,0.8
2026-01-15T1100,3583A,115.6231,39.0223,保定市,徐水物探局,细颗粒物(PM2.5),162,196,142,123,87,8,,3,3,59,50,7,6,1.2,0.9
2026-01-15T1100,4004A,115.4199,38.8665,保定市,双鹰农机,细颗粒物(PM2.5),138,192,152,105,90,20,,11,11,54,57,12,7,1.5,0.9
2026-01-15T1100,4034A,115.515,38.8589,保定市,植保所站,细颗粒物(PM2.5),135,145,113,103,89,15,,3,3,53,59,10,3,1.3,1
2026-01-15T1100,2594A,99.1589,25.1137,保山市,市环境监测站,,,48,26,36,20,,,46,36,26,10,4,3,0.8,0.3
2026-01-15T1100,2595A,99.1616,25.1381,保山市,市环保局,,36,36,30,17,22,40,,57,47,16,6,4,4,0.5,0.4
2026-01-15T1100,1867A,109.1435,21.4085,北海市,海滩公园,,,57,64,34,40,,,97,89,10,14,,13,0.9,0.9
2026-01-15T1100,1868A,109.0983,21.466,北海市,新市环保局,细颗粒物(PM2.5),58,53,60,41,43,95,,100,85,19,24,9,9,0.7,0.6
2026-01-15T1100,1869A,109.1775,21.5232,北海市,北海工业园,颗粒物(PM10),65,79,70,39,42,82,,87,68,23,24,12,11,0.8,0.8
2026-01-15T1100,3400A,109.1844,21.4396,北海市,龙潭自来水厂,,44,44,60,28,43,96,,88,77,12,16,18,14,0.6,0.6
2026-01-15T1100,1001A,116.3611,39.8786,北京市,万寿西宫,细颗粒物(PM2.5),123,140,103,93,62,14,,4,4,64,69,3,3,1.0,0.8
2026-01-15T1100,1003A,116.4174,39.9289,北京市,东四,细颗粒物(PM2.5),112,138,95,84,55,15,,6,6,66,66,6,5,1.2,1.1
2026-01-15T1100,1004A,116.4073,39.8858,北京市,天坛,细颗粒物(PM2.5),122,125,87,92,54,13,,4,4,65,57,3,2,1.0,0.9
2026-01-15T1100,1005A,116.4622,39.9364,北京市,农展馆,细颗粒物(PM2.5),103,120,90,77,53,8,,3,3,68,60,6,5,1.3,1.2
2026-01-15T1100,1006A,116.3399,39.9293,北京市,官园,细颗粒物(PM2.5),108,133,104,81,61,10,,3,3,63,62,7,6,1.3,0.9
2026-01-15T1100,1007A,116.2879,39.9613,北京市,海淀万柳,细颗粒物(PM2.5),95,109,91,71,56,5,,2,2,72,66,4,4,1.2,1
2026-01-15T1100,1008A,116.6635,40.1349,北京市,顺义新城,细颗粒物(PM2.5),73,84,83,53,52,14,,6,6,40,45,4,4,0.8,0.6
2026-01-15T1100,1009A,116.6275,40.327,北京市,怀柔镇,细颗粒物(PM2.5),70,84,70,51,47,24,,19,18,40,35,5,4,0.7,0.6
2026-01-15T1100,1010A,116.2295,40.217,北京市,昌平镇,细颗粒物(PM2.5),93,103,86,69,52,11,,5,5,60,52,5,5,1.3,1
2026-01-15T1100,1011A,116.3968,39.982,北京市,奥体中心,细颗粒物(PM2.5),84,93,92,62,54,14,,4,4,63,76,3,4,1.1,1.2
2026-01-15T1100,3418A,116.8336,40.4095,北京市,密云新城,细颗粒物(PM2.5),64,71,70,46,44,21,,11,11,34,32,5,4,0.7,0.6
2026-01-15T1100,3671A,116.0879,39.9725,北京市,门头沟三家店,颗粒物(PM10),88,125,90,58,44,11,,4,4,59,48,4,4,1.0,0.8
2026-01-15T1100,3672A,116.1507,39.8246,北京市,丰台云岗,细颗粒物(PM2.5),104,133,107,78,57,13,,4,4,62,61,4,3,1.0,0.8
2026-01-15T1100,3674A,115.9578,39.7602,北京市,房山燕山,颗粒物(PM10),102,154,97,61,47,14,,12,12,61,52,4,4,0.8,0.7
2026-01-15T1100,3675A,116.4669,39.7734,北京市,大兴旧宫,细颗粒物(PM2.5),117,145,92,88,51,12,,3,3,56,50,4,3,1.0,0.9
2026-01-15T1100,3694A,115.9859,40.4562,北京市,延庆石河营,颗粒物(PM10),110,169,114,40,36,49,,50,34,21,32,4,4,0.6,0.6
2026-01-15T1100,3695A,116.6151,40.3052,北京市,怀柔新城,细颗粒物(PM2.5),78,79,94,57,51,26,,22,22,26,22,5,4,0.7,0.6
2026-01-15T1100,3696A,116.2542,39.8764,北京市,丰台小屯,细颗粒物(PM2.5),123,144,104,93,60,11,,4,4,65,69,4,4,1.0,1
2026-01-15T1100,3697A,116.8399,40.3843,北京市,密云镇,颗粒物(PM10),59,68,73,40,44,21,,6,6,32,40,2,2,0.7,0.6
2026-01-15T1100,4057A,115.9423,40.4431,北京市,延庆百泉,颗粒物(PM10),119,188,128,40,38,41,,50,39,23,29,4,3,0.5,0.5
2026-01-15T1100,4058A,116.6598,39.9164,北京市,通州新华,细颗粒物(PM2.5),95,112,88,71,47,6,,2,2,69,63,4,4,1.2,0.9
2026-01-15T1100,4182A,116.1942,39.9158,北京市,石景山八角,,,,93,,50,,,21,6,,61,,1,,0.7
2026-01-15T1100,4194A,117.078628,40.151726,北京市,平谷新城,细颗粒物(PM2.5),93,95,70,69,45,17,,10,9,40,29,3,2,0.9,0.8
2026-01-15T1100,1761A,123.8274146,41.31234549,本溪市,大峪,细颗粒物(PM2.5),97,98,58,72,33,12,,28,15,45,31,8,10,1.1,0.8
2026-01-15T1100,1763A,123.7169,41.3094,本溪市,彩屯,细颗粒物(PM2.5),117,89,52,88,36,20,,39,29,29,29,7,14,1.0,2.1
2026-01-15T1100,1764A,123.7672166,41.28649327,本溪市,东明,细颗粒物(PM2.5),102,98,43,76,32,15,,28,18,39,23,9,9,1.9,1.1
2026-01-15T1100,1765A,123.799345,41.266614,本溪市,新立屯,细颗粒物(PM2.5),89,,37,66,27,19,,38,26,32,20,8,9,1.1,0.7
2026-01-15T1100,1766A,123.829144,41.336777,本溪市,威宁,细颗粒物(PM2.5),89,98,53,66,35,18,,22,12,31,29,7,9,1.0,1
2026-01-15T1100,2587A,105.287,27.3133,毕节市,八中,细颗粒物(PM2.5),110,101,104,83,92,30,,14,14,38,24,13,12,1.3,1.1
2026-01-15T1100,2588A,105.3079,27.2987,毕节市,师专,细颗粒物(PM2.5),100,91,92,75,75,38,,15,15,34,34,10,8,1.0,1
2026-01-15T1100,4263A,105.3688,27.3598,毕节市,工业大道,细颗粒物(PM2.5),119,122,100,90,75,37,,20,20,31,28,12,11,/,/
2026-01-15T1100,1629A,117.9961,37.3604,滨州市,第二水厂,细颗粒物(PM2.5),208,254,211,158,134,20,,4,4,68,75,26,21,1.6,1.6
2026-01-15T1100,1630A,117.9789,37.3931,滨州市,北中新校,细颗粒物(PM2.5),185,224,199,139,137,21,,4,4,67,78,20,18,1.4,1.5
2026-01-15T1100,3514A,117.9379,37.3959,滨州市,中海酒店,细颗粒物(PM2.5),175,229,214,132,147,29,,15,15,56,72,27,18,1.1,1.4
2026-01-15T1100,3515A,117.9381509,37.35547456,滨州市,开发区一中,细颗粒物(PM2.5),213,259,215,163,146,26,,7,7,58,72,34,27,1.4,1.3
2026-01-15T1100,3516A,118.0914,37.6938,滨州市,金海六路,细颗粒物(PM2.5),153,222,204,117,125,24,,9,9,,72,,14,1.3,1.5
2026-01-15T1100,4028A,117.9955,37.3752,滨州市,滨州市西街道办事处,细颗粒物(PM2.5),201,249,211,151,143,25,,6,6,56,64,27,18,1.4,1.4
2026-01-15T1100,2311A,115.8071,33.8399,亳州市,污水处理厂,细颗粒物(PM2.5),93,119,147,69,99,51,,32,32,36,38,5,6,0.8,0.7
2026-01-15T1100,2312A,115.7789,33.8519,亳州市,三国揽胜宫,细颗粒物(PM2.5),108,136,162,81,110,50,,34,34,35,38,5,6,0.8,0.8
2026-01-15T1100,3332A,115.7631,33.803,亳州市,亳州学院,细颗粒物(PM2.5),120,127,148,91,107,50,,39,39,29,34,4,5,0.8,0.8
2026-01-15T1100,2693A,82.0482,44.8553,博尔塔拉蒙古自治州,市党校,颗粒物(PM10),69,88,80,42,41,54,,56,45,27,26,3,3,0.6,0.5
2026-01-15T1100,2694A,82.0805,44.8966,博尔塔拉蒙古自治州,市环保局,颗粒物(PM10),57,64,79,32,41,53,,65,58,20,17,6,6,0.9,0.8
2026-01-15T1100,1071A,116.8733,38.2922,沧州市,沧县城建局,细颗粒物(PM2.5),200,212,123,150,84,24,,10,10,61,62,13,7,1.3,0.8
2026-01-15T1100,1072A,116.8462,38.3189,沧州市,电视转播站,细颗粒物(PM2.5),195,199,121,146,87,19,,4,4,59,60,9,4,1.3,0.8
2026-01-15T1100,1073A,116.8588,38.3161,沧州市,市环保局,细颗粒物(PM2.5),189,219,126,142,86,19,,6,6,53,53,14,8,1.4,0.8
2026-01-15T1100,3324A,116.8011,38.294,沧州市,河北水利电力学院,细颗粒物(PM2.5),185,276,142,139,80,17,,5,5,62,61,13,7,1.4,0.9
2026-01-15T1100,2622A,97.1813,31.1289,昌都市,昌都监测站,,39,39,60,27,26,40,,45,44,19,22,1,3,0.9,0.8
2026-01-15T1100,3719A,97.1707,31.1428,昌都市,昌都会议中心,,28,28,30,19,21,43,,48,45,8,4,1,2,0.5,0.4
2026-01-15T1100,2692A,87.2722,44.0298,昌吉回族自治州,新区政务中心,,29,29,68,18,53,41,,60,54,32,22,8,9,0.6,0.9
2026-01-15T1100,3613A,87.3069,44.0093,昌吉回族自治州,亚心广场,,34,34,71,17,58,54,,63,60,11,12,7,8,0.5,0.7
2026-01-15T1100,4164A,87.2057,43.9289,昌吉回族自治州,财政所,,28,28,98,17,77,50,,54,54,14,16,6,6,0.3,0.7
2026-01-15T1100,1120A,125.2874,43.9024,长春市,客车厂,细颗粒物(PM2.5),57,,46,40,47,42,,34,34,29,37,17,12,0.6,0.7
2026-01-15T1100,1121A,125.2943,43.8508,长春市,邮电学院,细颗粒物(PM2.5),52,,45,36,38,44,,42,42,28,29,15,12,0.7,0.7
2026-01-15T1100,1122A,125.3648,43.8745,长春市,劳动公园,细颗粒物(PM2.5),52,44,52,36,39,44,,40,40,30,30,16,12,0.6,0.6
2026-01-15T1100,1123A,125.3233,43.8781,长春市,园林处,细颗粒物(PM2.5),62,52,47,44,44,45,,41,41,24,29,15,12,0.7,0.7
2026-01-15T1100,1124A,125.4604,43.7904,长春市,净月潭,,40,31,41,28,29,55,,46,46,14,15,8,8,0.5,0.6
2026-01-15T1100,1126A,125.38,43.8422,长春市,经开区环卫处,细颗粒物(PM2.5),53,38,49,37,39,46,,39,39,30,34,13,8,0.6,0.6
2026-01-15T1100,1127A,125.234,43.7761,长春市,高新区管委会,细颗粒物(PM2.5),55,,44,39,38,45,,38,38,30,29,13,9,0.5,0.5
2026-01-15T1100,1128A,125.1695,43.83,长春市,岱山公园,细颗粒物(PM2.5),67,54,49,48,42,43,,25,25,31,44,14,11,0.8,0.7
2026-01-15T1100,4281A,125.334645,43.916281,长春市,北亚泰大街1068号,,,58,46,44,40,,,45,45,32,34,14,10,0.8,0.9
2026-01-15T1100,1335A,113.082,28.2421,长沙市,经开区环保局,细颗粒物(PM2.5),108,112,81,81,61,,,46,38,31,40,8,8,0.6,0.7
2026-01-15T1100,1336A,112.8873,28.2202,长沙市,高开区环保局,细颗粒物(PM2.5),132,105,83,100,70,55,,56,52,23,28,11,10,0.7,0.8
2026-01-15T1100,1337A,113.0785,28.2012,长沙市,马坡岭,细颗粒物(PM2.5),110,103,91,83,67,70,,44,36,25,46,8,9,0.6,0.8
2026-01-15T1100,1338A,112.9448,28.1894,长沙市,湖南师范大学,细颗粒物(PM2.5),97,111,79,72,54,71,,65,65,26,33,9,9,0.7,0.8
2026-01-15T1100,1339A,113.0177,28.1322,长沙市,雨花区环保局,细颗粒物(PM2.5),98,104,82,73,59,62,,48,48,31,46,10,12,0.8,0.9
2026-01-15T1100,1340A,112.9795,28.2593,长沙市,伍家岭,细颗粒物(PM2.5),107,110,104,80,69,62,,50,50,30,57,10,9,0.6,0.8
2026-01-15T1100,1341A,113.002,28.1944,长沙市,火车新站,细颗粒物(PM2.5),100,111,104,75,66,61,,52,52,35,56,12,13,0.8,1
2026-01-15T1100,1342A,112.9846,28.1177,长沙市,天心区环保局,细颗粒物(PM2.5),98,96,80,73,63,64,,56,56,28,42,9,10,0.6,0.8
2026-01-15T1100,1343A,112.8906,28.1307,长沙市,湖南中医药大学,细颗粒物(PM2.5),110,100,92,83,65,67,,61,61,30,50,10,10,0.7,0.9
2026-01-15T1100,1727A,113.1146,36.1547,长治市,清华站,颗粒物(PM10),77,104,84,27,32,75,,35,29,10,24,11,13,0.4,0.6
2026-01-15T1100,1730A,113.0887,36.2126,长治市,审计局,颗粒物(PM10),77,104,74,31,29,56,,46,36,25,23,8,12,0.6,0.7
2026-01-15T1100,1731A,113.0845,36.1856,长治市,长治八中,颗粒物(PM10),91,132,110,45,39,67,,42,33,14,23,9,12,0.5,0.7
2026-01-15T1100,2845A,113.1561,36.1912,长治市,德盛苑,,,75,72,27,28,83,,73,73,,15,,11,0.4,0.6
2026-01-15T1100,3568A,113.0603,36.0464,长治市,向阳小学,颗粒物(PM10),79,108,98,28,28,75,,62,62,15,17,11,13,0.4,0.5
2026-01-15T1100,3569A,112.8788,36.315,长治市,屯留一中,颗粒物(PM10),72,94,85,27,36,49,,26,18,26,28,15,12,0.8,0.9
2026-01-15T1100,4189A,113.113092,36.199482,长治市,英华南巷50号,颗粒物(PM10),81,112,90,34,31,65,,51,46,23,24,7,10,0.7,0.8
2026-01-15T1100,4190A,113.23666,36.33435,长治市,学府街1号,颗粒物(PM10),89,128,89,42,41,54,,38,31,30,27,17,13,1.0,1.2
2026-01-15T1100,1854A,111.696,28.9725,常德市,市二中,细颗粒物(PM2.5),150,148,114,115,93,48,,67,59,31,21,6,7,1.3,1.1
2026-01-15T1100,3138A,111.7152,29.0288,常德市,武陵区永安,细颗粒物(PM2.5),148,144,119,113,95,71,,56,50,22,20,6,6,1.1,1
2026-01-15T1100,3139A,111.6891,28.9881,常德市,鼎城区玉霞,细颗粒物(PM2.5),166,134,112,126,101,56,,33,27,27,27,8,8,0.9,0.8
2026-01-15T1100,3140A,111.6651,29.0526,常德市,武陵区长庚,细颗粒物(PM2.5),145,151,124,111,100,57,,45,36,34,26,6,6,1.1,1
2026-01-15T1100,1196A,119.9524,31.7586,常州市,市监测站,细颗粒物(PM2.5),104,113,104,78,71,43,,10,10,54,77,11,10,1.1,1.1
2026-01-15T1100,1200A,119.9351,31.703,常州市,武进监测站,细颗粒物(PM2.5),100,112,96,75,68,43,,15,10,53,62,16,18,0.7,0.5
2026-01-15T1100,3002A,119.9701,31.813,常州市,行政中心,,,126,96,72,62,,,14,13,51,63,12,10,0.9,0.8
2026-01-15T1100,3003A,120.0434,31.7726,常州市,经开区,细颗粒物(PM2.5),92,118,128,68,75,51,,17,17,52,86,21,14,0.9,0.9
2026-01-15T1100,3010A,119.8919,31.7892,常州市,钟楼,细颗粒物(PM2.5),95,113,100,71,66,49,,15,15,48,73,13,12,0.7,0.7
2026-01-15T1100,3429A,119.8595,31.706,常州市,武进经发区,细颗粒物(PM2.5),109,124,104,82,74,53,,17,17,,73,7,8,1.0,0.8
2026-01-15T1100,3430A,119.5812,31.7256,常州市,金坛城区,细颗粒物(PM2.5),124,,53,94,73,47,,26,26,41,49,14,14,1.0,0.9
2026-01-15T1100,4089A,119.9551,31.863,常州市,崇义南街5-H号,细颗粒物(PM2.5),110,124,93,83,64,48,,14,14,60,78,17,10,1.1,1
2026-01-15T1100,2220A,120.4318,41.588,朝阳市,西梁,颗粒物(PM10),64,77,127,45,84,46,,31,31,17,34,10,16,0.8,1.6
2026-01-15T1100,2221A,120.452,41.565,朝阳市,河畔小区,细颗粒物(PM2.5),63,67,95,45,70,47,,33,33,15,39,9,14,0.9,1.5
2026-01-15T1100,2222A,120.4176,41.5648,朝阳市,八里堡,细颗粒物(PM2.5),59,62,100,42,68,45,,31,31,21,48,7,11,0.9,1.5
2026-01-15T1100,3026A,116.6179,23.6608,潮州市,市政府,颗粒物(PM10),78,106,78,46,40,82,,58,58,37,30,11,14,0.7,0.5
2026-01-15T1100,4036A,116.646,23.676,潮州市,金山,颗粒物(PM10),61,72,57,35,37,90,,62,62,15,17,6,5,0.5,0.5
2026-01-15T1100,2473A,113.0116,25.8228,郴州市,市职中,细颗粒物(PM2.5),74,72,62,54,44,48,,22,22,35,37,12,6,0.8,0.7
2026-01-15T1100,2475A,113.0381,25.8074,郴州市,市审计局,细颗粒物(PM2.5),73,71,63,53,46,50,,8,8,41,38,13,3,/,/
2026-01-15T1100,2476A,113.0348,25.7757,郴州市,市环保局,细颗粒物(PM2.5),72,86,60,52,41,50,,41,41,47,29,13,5,0.6,0.4
2026-01-15T1100,4252A,113.0138,25.8011,郴州市,好美居路49号,细颗粒物(PM2.5),69,65,58,50,45,66,,16,16,37,45,9,5,/,/
2026-01-15T1100,1431A,103.9727,30.7242,成都市,金泉两河,颗粒物(PM10),86,121,93,54,65,23,,5,5,62,59,13,3,1.2,1.3
2026-01-15T1100,1432A,104.1423,30.6765,成都市,十里店,细颗粒物(PM2.5),109,130,107,82,69,8,,6,6,80,67,6,4,1.7,1.3
2026-01-15T1100,1433A,104.0594,30.5765,成都市,三瓦窑,细颗粒物(PM2.5),90,112,97,67,72,6,,4,4,83,67,6,5,1.6,1.1
2026-01-15T1100,1434A,104.1122,30.6306,成都市,沙河铺,细颗粒物(PM2.5),114,119,104,86,87,2,,1,1,105,74,4,4,1.8,1.3
2026-01-15T1100,2880A,104.0219,30.6561,成都市,大石西路,,,111,103,63,71,8,,2,2,,62,8,6,1.8,1.7
2026-01-15T1100,3136A,104.2724,30.559,成都市,龙泉驿区区政府,颗粒物(PM10),68,85,64,48,46,36,,63,56,51,23,7,6,1.0,0.6
2026-01-15T1100,3357A,104.0028,30.6891,成都市,金博路,细颗粒物(PM2.5),93,99,90,69,62,18,,4,4,64,62,16,6,1.3,1.3
2026-01-15T1100,3359A,104.056,30.5228,成都市,华阳,细颗粒物(PM2.5),94,114,100,70,75,6,,2,2,90,66,4,4,1.3,1.2
2026-01-15T1100,3488A,104.387954,30.746684,成都市,青石路225号,细颗粒物(PM2.5),78,83,85,57,63,25,,18,17,53,59,2,3,0.9,0.8
2026-01-15T1100,3489A,104.0788,30.4054,成都市,科学城,,,,75,,59,,,7,4,38,41,6,6,0.4,0.3
2026-01-15T1100,4011A,103.8505,30.6946,成都市,光华大道三段,细颗粒物(PM2.5),103,120,98,77,68,24,,9,9,59,50,11,4,0.6,0.7
2026-01-15T1100,4144A,104.3257,30.6406,成都市,八角井街185号,,,79,87,63,54,,,38,28,51,36,4,3,0.9,0.7
2026-01-15T1100,4224A,104.2433276,30.53529463,成都市,鲸龙路1057号,细颗粒物(PM2.5),83,83,76,61,62,44,,10,10,46,52,6,6,0.8,0.8
2026-01-15T1100,1062A,117.9531,40.908,承德市,铁路,颗粒物(PM10),83,115,85,57,50,14,,5,5,37,40,6,7,1.4,1.3
2026-01-15T1100,1063A,117.9397,40.9763,承德市,中国银行,"颗粒物(PM10),细颗粒物(PM2.5)",63,76,75,45,41,23,,9,9,22,33,4,6,0.9,1.1
2026-01-15T1100,4073A,117.9462,40.95,承德市,杏林街1号,细颗粒物(PM2.5),80,96,73,59,49,21,,7,7,28,32,5,7,1.2,1.2
2026-01-15T1100,4274A,117.7994,40.9605,承德市,滨河大街98号,颗粒物(PM10),55,60,65,35,48,20,,7,7,35,37,6,9,1.2,1.1
2026-01-15T1100,2314A,117.4698,30.6617,池州市,池州学院,细颗粒物(PM2.5),65,73,73,47,51,34,,36,23,46,39,6,10,1.8,1.1
2026-01-15T1100,3237A,117.4918,30.6617,池州市,展览馆,,,81,75,49,49,35,,16,16,,50,4,5,2.0,1.3
2026-01-15T1100,3333A,117.5626,30.695,池州市,第八中学,细颗粒物(PM2.5),84,90,72,62,48,32,,23,17,56,45,9,13,1.2,1.1
2026-01-15T1100,3334A,117.5037,30.6242,池州市,第十二中学,颗粒物(PM10),72,93,75,48,47,29,,20,18,62,52,8,8,1.8,1.3
2026-01-15T1100,1744A,118.9229,42.2816,赤峰市,松山一中,颗粒物(PM10),58,65,77,34,34,26,,19,19,33,45,24,56,0.9,1.3
2026-01-15T1100,1745A,118.9588,42.2733,赤峰市,哈达街,颗粒物(PM10),51,52,82,34,39,33,,23,23,30,46,17,109,1.0,1.3
2026-01-15T1100,1746A,118.8792,42.2551,赤峰市,天义路,细颗粒物(PM2.5),53,42,57,37,41,30,,,,28,42,37,76,0.9,1.1
2026-01-15T1100,3058A,119.2656,42.0356,赤峰市,银河街,颗粒物(PM10),53,55,67,25,33,51,,47,47,8,15,12,17,0.6,0.8
2026-01-15T1100,3286A,118.9359,42.3146,赤峰市,桥北物流园区,细颗粒物(PM2.5),59,56,68,42,44,39,,30,30,27,33,26,24,0.8,1
2026-01-15T1100,2521A,107.3473,22.4137,崇左市,市环保局江州分局,细颗粒物(PM2.5),94,109,105,70,70,71,,20,20,30,34,13,10,1.0,0.9
2026-01-15T1100,4256A,107.375,22.3736,崇左市,石景林东路7号,细颗粒物(PM2.5),117,,82,88,74,76,,44,40,34,30,12,10,1.0,0.8
2026-01-15T1100,3207A,118.31131,32.3033,滁州市,市政府原办公楼,,,,73,,48,,,,,,50,,8,,0.6
2026-01-15T1100,3331A,118.3268,32.2633,滁州市,图书馆,细颗粒物(PM2.5),88,116,68,65,44,66,,75,66,35,29,14,12,0.6,0.6
2026-01-15T1100,4101A,118.3196,32.3335,滁州市,银山路666号,细颗粒物(PM2.5),128,110,78,97,66,63,,44,44,27,36,7,10,0.6,0.5
2026-01-15T1100,4102A,118.3426,32.2979,滁州市,黄山路555号,细颗粒物(PM2.5),124,121,88,94,65,80,,53,53,30,52,16,13,0.9,0.9
2026-01-15T1100,2606A,101.5379,25.0492,楚雄彝族自治州,市经济开发区,,46,46,32,24,18,18,,7,7,28,24,8,3,0.6,0.6
2026-01-15T1100,4153A,101.5536,25.0343,楚雄彝族自治州,团结路562号,,34,34,28,20,19,23,,9,9,23,20,14,4,0.6,0.5
2026-01-15T1100,2549A,107.5087,31.2186,达州市,市环境监测站,细颗粒物(PM2.5),147,123,158,112,132,10,,6,6,31,47,6,7,0.9,1.1
2026-01-15T1100,2550A,107.4988,31.2132,达州市,凤凰小区,细颗粒物(PM2.5),153,144,179,117,137,7,,4,4,27,44,5,5,1.0,1.2
2026-01-15T1100,2551A,107.5081,31.1987,达州市,达县机关宾馆,细颗粒物(PM2.5),142,136,172,108,128,10,,4,4,34,48,4,4,1.1,1.2
2026-01-15T1100,2552A,107.4644,31.2124,达州市,市政中心,细颗粒物(PM2.5),160,146,186,122,136,3,,3,3,38,47,7,7,1.1,1.2
2026-01-15T1100,2614A,100.2168,25.5818,大理白族自治州,大理市环境监测站,,40,,26,28,21,57,,70,64,12,9,6,6,0.8,0.7
2026-01-15T1100,2615A,100.1542,25.7055,大理白族自治州,大理古城,,21,21,27,6,19,63,,58,50,8,14,8,8,0.6,0.6
2026-01-15T1100,1109A,121.6119,38.974,大连市,甘井子,,,78,72,65,43,42,,12,12,,35,11,8,0.8,0.5
2026-01-15T1100,1110A,121.565,38.9509,大连市,周水子,细颗粒物(PM2.5),83,88,73,61,44,42,,13,13,25,34,9,9,1.1,0.6
2026-01-15T1100,1111A,121.5637,38.8849,大连市,星海三站,颗粒物(PM10),62,73,72,41,46,48,,24,24,24,30,11,6,0.9,0.7
2026-01-15T1100,1112A,121.6301,38.9117,大连市,青泥洼桥,细颗粒物(PM2.5),84,87,78,62,45,23,,11,8,49,32,14,7,1.7,1
2026-01-15T1100,1113A,121.6248,38.8643,大连市,傅家庄,细颗粒物(PM2.5),68,74,79,49,42,37,,26,24,33,26,15,10,1.0,0.6
2026-01-15T1100,1114A,121.5117,38.8636,大连市,七贤岭,颗粒物(PM10),59,67,68,37,40,56,,36,36,15,29,10,11,0.8,0.7
2026-01-15T1100,1116A,121.7507,39.1339,大连市,金州,细颗粒物(PM2.5),99,,78,74,44,33,,25,22,32,23,11,8,1.1,0.7
2026-01-15T1100,1117A,121.7811,39.0495,大连市,开发区,细颗粒物(PM2.5),94,105,82,70,49,30,,11,11,32,29,9,7,1.4,0.9
2026-01-15T1100,1118A,121.9762,39.0631,大连市,双D港,细颗粒物(PM2.5),140,121,68,107,50,,,34,27,29,18,6,6,,0.7
2026-01-15T1100,4082A,121.2548,38.8188,大连市,旅顺,细颗粒物(PM2.5),90,115,84,67,50,35,,16,16,21,21,9,7,1.0,0.7
2026-01-15T1100,1789A,124.8085,46.0381,大庆市,大同区,细颗粒物(PM2.5),84,69,92,62,75,47,,26,26,21,36,7,10,0.8,1
2026-01-15T1100,1790A,125.1166,46.5255,大庆市,龙凤区,,42,,64,29,46,48,,,,20,39,12,11,0.2,0.9
2026-01-15T1100,1791A,124.8894,46.4007,大庆市,红岗区,细颗粒物(PM2.5),55,43,82,39,60,34,,12,12,26,40,11,12,0.6,0.9
2026-01-15T1100,1792A,125.1391,46.578,大庆市,萨尔图区,,45,33,63,31,44,48,,31,31,13,28,8,9,0.4,0.6
2026-01-15T1100,1793A,124.9026,46.6217,大庆市,让胡路区,细颗粒物(PM2.5),69,57,54,50,48,48,,25,25,21,37,8,8,0.7,1
2026-01-15T1100,3481A,125.127,46.6277,大庆市,萨区政府监测点,,,52,62,27,41,,,27,27,10,25,10,9,0.5,0.7
2026-01-15T1100,1723A,113.2926,40.0759,大同市,云冈宾馆,颗粒物(PM10),155,260,284,94,43,22,,30,17,54,23,18,7,2.2,0.8
2026-01-15T1100,1724A,113.3437,40.0921,大同市,大同大学,颗粒物(PM10),128,206,261,47,71,45,,42,32,33,19,19,6,0.9,0.5
2026-01-15T1100,1725A,113.2637,40.129,大同市,安家小村,颗粒物(PM10),142,234,291,87,53,32,,50,36,48,18,25,8,2.4,0.6
2026-01-15T1100,3282A,113.3399,40.0586,大同市,大同市卫生学校,颗粒物(PM10),130,210,264,51,56,30,,38,24,44,24,24,7,1.0,0.5
2026-01-15T1100,3565A,113.1371,40.1122,大同市,云冈站,颗粒物(PM10),122,193,250,54,53,31,,29,15,29,18,13,6,0.6,0.6
2026-01-15T1100,3566A,113.1186,40.2556,大同市,图书馆,细颗粒物(PM2.5),148,204,241,113,54,29,,44,35,46,13,73,8,1.4,0.5
2026-01-15T1100,3567A,113.5931,40.0459,大同市,区一中,,,,115,,19,,,,,,15,,7,,0.3
2026-01-15T1100,4199A,113.2798248,40.09972476,大同市,魏都大道141号,颗粒物(PM10),179,308,303,88,49,18,,25,15,64,31,15,7,2.7,1
2026-01-15T1100,2269A,124.1068,50.4091,大兴安岭地区,科技局,,,13,21,12,15,,,43,43,3,5,5,5,0.4,0.3
2026-01-15T1100,3663A,124.117,50.4279,大兴安岭地区,红旗社区,,14,14,36,9,28,40,,22,22,14,29,8,10,0.4,0.5
2026-01-15T1100,1600A,124.33,40.0625,丹东市,江湾东路,,,92,49,48,30,44,,46,42,24,20,,7,0.9,0.6
2026-01-15T1100,1601A,124.4242,40.1513,丹东市,临江后街,颗粒物(PM10),66,81,46,36,27,43,,38,35,19,19,17,10,0.7,0.7
2026-01-15T1100,1602A,124.3935,40.1461,丹东市,元宝山,颗粒物(PM10),64,77,44,40,27,39,,42,40,23,20,13,13,0.7,0.6
2026-01-15T1100,1603A,124.3634,40.1093,丹东市,民主桥,颗粒物(PM10),72,94,53,41,26,41,,42,39,23,23,10,11,0.8,0.8
2026-01-15T1100,3541A,109.5726195,19.51688767,儋州市,第一中学子站,,,31,44,16,24,,,78,66,3,5,4,5,0.6,0.6
2026-01-15T1100,3542A,109.5567,19.5187,儋州市,东坡学校子站,,39,39,39,18,27,79,,87,74,5,6,7,6,0.5,0.5
2026-01-15T1100,2616A,98.5611,24.4273,德宏傣族景颇族自治州,德宏州监测站,"颗粒物(PM10),细颗粒物(PM2.5)",58,66,46,41,33,20,,10,7,26,24,11,7,0.8,0.7
2026-01-15T1100,3677A,98.5887,24.4366,德宏傣族景颇族自治州,芒市人民政府综合楼,"颗粒物(PM10),细颗粒物(PM2.5)",55,60,51,39,30,24,,16,10,20,17,8,5,0.8,0.7
2026-01-15T1100,1901A,104.424,31.1209,德阳市,东山公园,细颗粒物(PM2.5),94,93,84,70,65,34,,59,38,35,28,6,6,0.8,0.7
2026-01-15T1100,1902A,104.3827,31.1318,德阳市,西小区,细颗粒物(PM2.5),85,117,120,63,73,21,,5,5,46,58,4,6,1.0,1.3
2026-01-15T1100,1904A,104.3553,31.1091,德阳市,耐火材料厂,细颗粒物(PM2.5),94,111,111,70,83,17,,6,6,62,62,4,4,1.1,1
2026-01-15T1100,4145A,104.4144,31.1495,德阳市,市林业局,细颗粒物(PM2.5),120,96,88,91,70,31,,11,11,40,57,3,3,0.7,0.7
2026-01-15T1100,1622A,116.3034,37.4675,德州市,儿童乐园,细颗粒物(PM2.5),199,295,225,149,134,29,,8,8,61,68,24,20,1.7,1.5
2026-01-15T1100,1624A,116.2992,37.4449,德州市,监理站,细颗粒物(PM2.5),221,288,223,171,138,32,,17,17,66,71,26,22,1.7,1.5
2026-01-15T1100,3066A,116.2722,37.438,德州市,九衢泉纯净水厂,细颗粒物(PM2.5),243,300,222,193,144,18,,5,5,78,74,21,14,1.7,1.5
2026-01-15T1100,3371A,116.3693,37.44,德州市,开发区人民医院,细颗粒物(PM2.5),221,290,229,171,137,29,,13,13,69,77,25,21,1.5,1.3
2026-01-15T1100,3511A,116.5687,37.3331,德州市,陵城艺术中心,细颗粒物(PM2.5),208,254,233,158,148,19,,3,3,65,76,25,22,1.6,1.5
2026-01-15T1100,4292A,116.352738,37.420875,德州市,新河东路,细颗粒物(PM2.5),230,288,224,180,146,19,,7,7,76,83,24,20,1.7,1.6
2026-01-15T1100,2621A,99.7054,27.8319,迪庆藏族自治州,迪庆州站,细颗粒物(PM2.5),53,48,29,37,16,64,,52,52,15,9,5,4,0.6,0.4
2026-01-15T1100,3180A,99.7122,27.8129,迪庆藏族自治州,质量技术监督局,颗粒物(PM10),59,68,26,33,17,59,,58,49,27,12,5,4,0.7,0.4
2026-01-15T1100,4257A,104.6092,35.5962,定西市,将台街,细颗粒物(PM2.5),92,130,114,68,42,30,,17,17,33,30,33,16,1.4,0.8
2026-01-15T1100,4309A,104.6159,35.5701,定西市,正龙路62号,颗粒物(PM10),81,112,123,43,41,32,,27,24,14,12,28,14,1.0,0.8
2026-01-15T1100,1390A,113.7943,23.0132,东莞市,东城石井,细颗粒物(PM2.5),104,117,67,78,38,102,,25,25,85,61,20,7,0.8,0.6
2026-01-15T1100,1391A,113.7384,22.9659,东莞市,南城西平,细颗粒物(PM2.5),100,118,86,75,49,57,,12,12,99,84,8,8,1.0,0.8
2026-01-15T1100,3319A,113.7283,23.041,东莞市,万江金泰,细颗粒物(PM2.5),97,119,89,72,49,100,,33,33,70,68,9,6,1.0,1
2026-01-15T1100,4129A,113.8666,23.1062,东莞市,裕兴路,颗粒物(PM10),73,96,98,46,48,94,,39,39,47,63,20,9,0.8,0.8
2026-01-15T1100,4130A,114.0076,22.9739,东莞市,教育路1号,细颗粒物(PM2.5),105,133,93,79,47,92,,19,19,83,71,9,6,0.8,0.7
2026-01-15T1100,4131A,113.7981,22.8124,东莞市,长怡路1号,细颗粒物(PM2.5),109,144,84,82,41,27,,7,7,,80,11,9,,0.8
2026-01-15T1100,1666A,118.6612,37.4313,东营市,市环保局,细颗粒物(PM2.5),199,241,204,149,131,23,,7,7,78,79,34,41,1.6,1.5
2026-01-15T1100,3036A,118.6903,37.4337,东营市,开发区管委会,细颗粒物(PM2.5),225,259,214,175,134,19,,6,6,78,80,10,9,1.4,1.2
2026-01-15T1100,3365A,118.5721,37.5654,东营市,垦利区民丰路,细颗粒物(PM2.5),175,232,205,132,129,28,,6,6,68,75,28,14,1.2,1.5
2026-01-15T1100,3498A,118.5063,37.8606,东营市,河口城区,细颗粒物(PM2.5),150,219,185,115,112,33,,10,10,55,66,14,14,1.5,1.6
2026-01-15T1100,3646A,118.4979,37.4623,东营市,胜利站,细颗粒物(PM2.5),195,266,208,146,143,21,,4,4,86,86,39,36,1.7,1.8
2026-01-15T1100,3734A,118.5753,37.4405,东营市,理想之城,细颗粒物(PM2.5),211,,199,161,133,19,,4,4,84,80,31,25,2.0,1.7
2026-01-15T1100,1591A,110.0024,39.8127,鄂尔多斯市,综合楼,颗粒物(PM10),95,139,297,34,42,36,,50,40,32,19,13,8,0.6,0.4
2026-01-15T1100,1592A,109.9485,39.8259,鄂尔多斯市,巴音孟克林场办事处,颗粒物(PM10),81,112,264,29,48,54,,61,54,22,11,11,7,0.4,0.2
2026-01-15T1100,1593A,109.7734,39.5987,鄂尔多斯市,康泽苑,颗粒物(PM10),106,161,250,39,43,,,32,21,,14,,5,,0.4
2026-01-15T1100,1594A,109.8121,39.5987,鄂尔多斯市,华泰汽车城,颗粒物(PM10),103,156,250,39,41,,,29,14,31,18,8,4,0.5,0.4
2026-01-15T1100,1595A,109.9734,39.7884,鄂尔多斯市,奥林花园,颗粒物(PM10),90,129,281,27,45,35,,31,23,33,33,10,12,0.4,0.4
2026-01-15T1100,2436A,114.894,30.3989,鄂州市,市政府,,,,104,,73,36,,15,15,,52,24,11,1.9,1.3
2026-01-15T1100,2437A,114.8986,30.3714,鄂州市,赵家坝,细颗粒物(PM2.5),140,133,105,107,74,56,,20,20,24,59,11,11,0.8,0.9
2026-01-15T1100,3654A,114.8093,30.4091,鄂州市,精准医疗中心,细颗粒物(PM2.5),155,,94,118,69,57,,22,22,29,50,20,24,0.8,0.9
2026-01-15T1100,2454A,109.4978,30.2979,恩施土家族苗族自治州,湖北民院,细颗粒物(PM2.5),180,,130,136,147,4,,3,3,17,24,6,6,1.1,1.4
2026-01-15T1100,3549A,109.5061,30.3771,恩施土家族苗族自治州,龙凤新区,细颗粒物(PM2.5),155,135,149,118,126,3,,0,0,17,23,7,7,1.0,1
2026-01-15T1100,2499A,108.3411,21.6159,防城港市,沙万,"颗粒物(PM10),细颗粒物(PM2.5)",69,88,80,50,46,60,,82,73,32,31,9,13,0.9,1
2026-01-15T1100,2500A,108.3515,21.7733,防城港市,防城档案局,细颗粒物(PM2.5),95,119,99,71,48,57,,28,28,38,32,8,7,0.8,0.8
2026-01-15T1100,2501A,108.3506,21.6414,防城港市,大海花园,,,92,71,43,46,,,72,66,38,25,10,15,1.1,1.1
2026-01-15T1100,1371A,113.1293,23.0065,佛山市,湾梁,细颗粒物(PM2.5),115,129,73,87,41,32,,6,6,123,80,/,/,/,/
2026-01-15T1100,1372A,113.1082,23.0477,佛山市,华材职中,细颗粒物(PM2.5),110,146,90,83,48,47,,17,17,128,74,10,7,1.0,0.8
2026-01-15T1100,1373A,113.1439,23.045,佛山市,南海气象局,颗粒物(PM10),99,147,82,66,46,25,,5,5,128,80,/,/,/,/
2026-01-15T1100,1374A,113.2879,22.8094,佛山市,顺德苏岗,细颗粒物(PM2.5),89,98,61,66,36,40,,8,8,109,64,/,/,1.0,0.8
2026-01-15T1100,1376A,112.8384,22.8678,佛山市,高明孔堂,细颗粒物(PM2.5),128,147,62,97,46,57,,51,40,94,35,/,/,/,/
2026-01-15T1100,1377A,112.8835,23.1584,佛山市,三水监测站,细颗粒物(PM2.5),156,188,126,119,76,52,,18,18,94,90,30,10,1.1,1
2026-01-15T1100,1378A,112.8668,23.185,佛山市,三水云东海,细颗粒物(PM2.5),163,154,108,124,72,54,,13,13,101,78,/,/,/,/
2026-01-15T1100,3625A,113.2568,22.7629,佛山市,容桂街道办,细颗粒物(PM2.5),79,102,69,58,41,47,,15,15,107,70,/,/,/,/
2026-01-15T1100,1282A,119.2681,26.0506,福州市,师大,,,,49,24,22,,,65,61,27,27,,5,0.5,0.5
2026-01-15T1100,1283A,119.2983,26.1028,福州市,五四北路,,38,37,44,26,24,70,,48,47,26,30,6,5,0.7,0.7
2026-01-15T1100,1284A,119.2648,26.0769,福州市,杨桥西路,,37,37,44,21,23,79,,54,52,14,21,7,5,/,/
2026-01-15T1100,3048A,119.5799,26.0937,福州市,九龙,,38,38,41,25,20,82,,51,51,18,23,5,6,0.7,0.7
2026-01-15T1100,3526A,119.5188,25.9666,福州市,吴航,颗粒物(PM10),52,53,45,26,20,66,,48,48,31,33,6,6,0.7,0.7
2026-01-15T1100,4104A,119.3106,26.0648,福州市,路通桥巷6号,颗粒物(PM10),51,52,48,29,27,67,,54,50,22,23,/,/,/,/
2026-01-15T1100,1755A,123.7974,41.8494,抚顺市,望花区,细颗粒物(PM2.5),112,104,54,84,37,24,,13,11,30,39,11,9,1.1,0.8
2026-01-15T1100,1756A,123.9161,41.8827,抚顺市,顺城区,细颗粒物(PM2.5),93,86,44,69,30,28,,24,21,32,35,8,8,1.2,0.8
2026-01-15T1100,1757A,124.0437,41.8615,抚顺市,东洲区,细颗粒物(PM2.5),107,105,42,80,26,18,,38,25,36,20,5,6,1.2,0.7
2026-01-15T1100,1758A,123.9246,41.8638,抚顺市,新抚区,细颗粒物(PM2.5),103,100,42,77,30,24,,22,16,37,36,7,7,1.3,0.8
2026-01-15T1100,1759A,124.0972,41.8961,抚顺市,大伙房水库,细颗粒物(PM2.5),97,86,35,72,28,25,,46,34,28,15,10,10,1.3,0.8
2026-01-15T1100,1760A,123.708,41.8386,抚顺市,沈抚新城,细颗粒物(PM2.5),109,100,73,82,56,29,,16,16,33,49,8,14,1.7,2.1
2026-01-15T1100,2377A,116.3544,27.9833,抚州市,市站,颗粒物(PM10),60,69,59,36,38,38,,35,28,33,27,10,9,0.7,0.6
2026-01-15T1100,2378A,116.3562,27.9631,抚州市,血防站,颗粒物(PM10),53,56,55,28,35,58,,33,31,32,33,10,8,0.9,0.8
2026-01-15T1100,2379A,116.3561,28.0007,抚州市,采茶剧团,颗粒物(PM10),59,67,58,40,38,33,,22,18,37,27,7,7,1.2,1.1
2026-01-15T1100,2380A,116.3854,27.9648,抚州市,医学分院,颗粒物(PM10),58,65,58,29,32,49,,39,39,25,21,9,11,0.8,0.7
2026-01-15T1100,2207A,121.6095,41.9978,阜新市,工业园区,细颗粒物(PM2.5),62,55,83,44,50,46,,30,30,15,28,9,14,0.7,0.8
2026-01-15T1100,2208A,121.6567,42.0188,阜新市,长青街,细颗粒物(PM2.5),55,51,80,39,52,47,,30,30,16,34,8,12,0.7,0.9
2026-01-15T1100,2209A,121.6672,42.07,阜新市,农业园区,细颗粒物(PM2.5),67,55,87,48,58,47,,32,32,15,32,7,11,0.6,0.8
2026-01-15T1100,2211A,121.6343,42.0455,阜新市,玉龙新城,细颗粒物(PM2.5),60,49,93,43,53,46,,32,32,15,38,9,14,0.6,0.9
2026-01-15T1100,2301A,115.8276,32.8929,阜阳市,市监测站,细颗粒物(PM2.5),105,119,120,79,84,68,,48,48,34,37,7,6,0.7,0.7
2026-01-15T1100,2303A,115.8551,32.8606,阜阳市,开发区,细颗粒物(PM2.5),127,134,119,96,78,,,32,30,36,37,9,7,0.7,0.7
2026-01-15T1100,2875A,115.783962,32.889217,阜阳市,阜阳职业技术学院,细颗粒物(PM2.5),92,94,117,68,79,70,,46,46,21,31,10,9,0.7,0.7
2026-01-15T1100,3468A,115.79,32.8614,阜阳市,市规划展馆,细颗粒物(PM2.5),119,143,120,90,88,67,,55,55,31,30,8,8,0.9,0.9
2026-01-15T1100,3469A,115.835101,32.918568,阜阳市,枣园社区,细颗粒物(PM2.5),115,121,124,87,92,71,,44,44,28,38,7,8,0.8,0.8
2026-01-15T1100,2669A,102.9097,34.9841,甘南藏族自治州,州政府,细颗粒物(PM2.5),75,96,67,55,29,27,,12,12,45,33,23,9,1.7,0.9
2026-01-15T1100,3380A,102.8915,34.9618,甘南藏族自治州,甘肃民族师范学院,颗粒物(PM10),67,83,74,37,14,42,,27,24,34,29,29,12,0.9,0.6
2026-01-15T1100,2570A,101.96,30.048,甘孜藏族自治州,水桥子,,25,25,29,10,15,47,,45,36,26,18,5,6,0.8,0.7
2026-01-15T1100,3065A,101.9534,29.9976,甘孜藏族自治州,州环保局,,29,29,28,6,12,59,,61,57,17,12,6,6,0.6,0.6
2026-01-15T1100,2363A,114.9368,25.8663,赣州市,地委,细颗粒物(PM2.5),55,53,59,39,38,44,,13,13,45,49,12,9,0.9,0.9
2026-01-15T1100,2364A,114.946,25.8483,赣州市,气象台,颗粒物(PM10),60,70,81,36,37,48,,15,15,60,68,10,5,0.7,0.7
2026-01-15T1100,2365A,114.932,25.8332,赣州市,市图书馆,细颗粒物(PM2.5),73,85,79,53,42,26,,10,10,61,63,9,6,1.0,1.1
2026-01-15T1100,2366A,114.8905,25.8472,赣州市,华坚鞋城,,,86,83,44,43,39,,13,13,,64,,11,0.8,0.8
2026-01-15T1100,3109A,115.0094,25.8614,赣州市,赣县区卫计委,细颗粒物(PM2.5),70,72,67,51,49,34,,21,18,44,43,8,7,0.7,0.8
2026-01-15T1100,2684A,106.2753,36.0057,固原市,监测站,颗粒物(PM10),57,63,117,28,32,79,,83,82,10,14,6,6,0.4,0.5
2026-01-15T1100,2685A,106.2384,36.0189,固原市,新区,颗粒物(PM10),57,63,111,19,24,85,,86,85,3,8,1,3,0.2,0.2
2026-01-15T1100,2544A,106.6307,30.4577,广安市,市委,细颗粒物(PM2.5),148,132,150,113,139,34,,20,20,21,35,9,9,1.2,1.2
2026-01-15T1100,2545A,106.6266,30.4662,广安市,友谊中学,细颗粒物(PM2.5),140,119,142,107,127,28,,18,18,20,31,6,6,1.3,1.3
2026-01-15T1100,2547A,106.6386,30.4551,广安市,广电花园,细颗粒物(PM2.5),138,117,139,105,126,26,,12,12,18,29,8,9,0.9,1
2026-01-15T1100,2902A,106.6347,30.4868,广安市,北辰小学,细颗粒物(PM2.5),144,126,134,110,120,20,,17,17,20,21,5,5,1.3,1.1
2026-01-15T1100,2524A,105.8211,32.4444,广元市,老城,颗粒物(PM10),71,91,71,39,21,10,,6,6,50,43,25,18,1.2,0.7
2026-01-15T1100,2526A,105.8629,32.429,广元市,监测站,颗粒物(PM10),61,71,74,38,25,21,,19,17,33,27,9,2,1.2,0.8
2026-01-15T1100,3617A,105.8047,32.4167,广元市,经开区,颗粒物(PM10),87,123,77,56,27,7,,2,2,46,40,14,4,1.3,0.8
2026-01-15T1100,1345A,113.2346,23.1423,广州市,广雅中学,细颗粒物(PM2.5),92,128,88,68,49,20,,4,4,109,77,7,4,1.4,1.2
2026-01-15T1100,1346A,113.2611,23.105,广州市,市五中,细颗粒物(PM2.5),88,101,71,65,45,43,,10,10,120,93,12,9,/,/
2026-01-15T1100,1348A,113.3477,23.0916,广州市,广东商学院,细颗粒物(PM2.5),99,116,86,74,52,15,,3,3,112,81,8,7,0.7,0.7
2026-01-15T1100,1349A,113.4332,23.105,广州市,市八十六中,颗粒物(PM10),79,107,78,54,44,33,,6,6,104,99,13,11,/,/
2026-01-15T1100,1350A,113.3506,22.9488,广州市,番禺中学,细颗粒物(PM2.5),107,139,78,80,45,54,,13,13,109,73,15,6,1.0,0.9
2026-01-15T1100,1351A,113.2147,23.3918,广州市,花都师范,细颗粒物(PM2.5),107,134,107,80,57,42,,12,12,133,106,10,7,1.0,0.8
2026-01-15T1100,1352A,113.2599,23.1329,广州市,市监测站,细颗粒物(PM2.5),93,113,77,69,46,33,,7,7,109,80,6,5,/,/
2026-01-15T1100,1353A,113.5618,23.3119,广州市,九龙镇镇龙,细颗粒物(PM2.5),90,113,118,67,65,89,,16,16,46,73,6,6,0.6,0.7
2026-01-15T1100,1354A,113.2764,23.1544,广州市,麓湖,细颗粒物(PM2.5),84,100,70,62,42,33,,7,7,92,80,12,10,0.7,0.7
2026-01-15T1100,2846A,113.3209,23.1323,广州市,体育西,颗粒物(PM10),78,105,86,56,47,28,,5,5,91,89,9,7,0.9,0.9
2026-01-15T1100,3298A,113.5718,23.5493,广州市,从化街口,,,77,83,51,55,78,,24,24,40,55,,9,0.8,0.8
2026-01-15T1100,3299A,113.3463,23.369,广州市,白云竹料,细颗粒物(PM2.5),82,104,112,60,63,70,,25,25,72,87,5,4,0.8,0.8
2026-01-15T1100,3300A,113.2981,23.2365,广州市,白云嘉禾,"颗粒物(PM10),细颗粒物(PM2.5)",82,113,83,60,43,42,,9,9,91,86,9,7,/,/
2026-01-15T1100,3301A,113.4256,23.1716,广州市,黄埔科学城,细颗粒物(PM2.5),67,82,73,48,41,68,,14,14,56,67,7,7,0.8,0.8
2026-01-15T1100,3302A,113.3942,23.0485,广州市,番禺大学城,"颗粒物(PM10),细颗粒物(PM2.5)",75,99,84,55,43,58,,10,10,83,77,16,13,0.7,0.7
2026-01-15T1100,3303A,113.4923,22.8169,广州市,南沙黄阁,细颗粒物(PM2.5),95,120,66,71,33,52,,12,12,106,72,12,8,/,/
2026-01-15T1100,3304A,113.534,22.7893,广州市,南沙街,细颗粒物(PM2.5),84,100,67,62,33,65,,14,14,77,62,10,6,0.7,0.6
2026-01-15T1100,3443A,113.2905,23.5541,广州市,花都梯面,颗粒物(PM10),64,78,57,43,33,122,,23,23,29,54,12,6,/,/
2026-01-15T1100,3445A,113.786,23.7479,广州市,从化良口,,43,41,39,30,28,60,,50,48,28,23,8,9,/,/
2026-01-15T1100,3446A,113.805,23.2614,广州市,增城荔城,细颗粒物(PM2.5),69,66,77,50,51,95,,56,56,31,36,11,8,0.6,0.6
2026-01-15T1100,2506A,109.604387,23.066791,贵港市,江南子站,细颗粒物(PM2.5),190,241,135,143,92,37,,32,22,88,49,18,11,2.6,1.1
2026-01-15T1100,2508A,109.5669,23.1065,贵港市,荷城子站,细颗粒物(PM2.5),110,119,103,83,71,38,,50,35,,43,11,12,,1.2
2026-01-15T1100,3405A,109.5886,23.1172,贵港市,新世纪学校,细颗粒物(PM2.5),122,136,103,92,68,55,,47,38,63,39,/,/,1.2,0.8
2026-01-15T1100,4260A,109.5933,23.095,贵港市,中山路155-3号,细颗粒物(PM2.5),143,157,103,109,75,52,,54,34,69,44,/,/,1.7,0.9
2026-01-15T1100,1439A,106.6863,26.6035,贵阳市,马鞍山,细颗粒物(PM2.5),128,122,103,97,91,11,,6,6,39,23,12,6,/,/
2026-01-15T1100,1441A,106.6241,26.6266,贵阳市,鉴湖路,细颗粒物(PM2.5),107,114,102,80,70,56,,61,52,43,27,19,8,0.8,0.8
2026-01-15T1100,1442A,106.7468,26.6344,贵阳市,燕子冲,细颗粒物(PM2.5),156,129,105,119,97,12,,11,5,34,29,24,9,1.4,1
2026-01-15T1100,1443A,106.6556,26.4362,贵阳市,碧云窝,细颗粒物(PM2.5),144,146,124,110,99,18,,7,7,39,28,28,11,/,/
2026-01-15T1100,1445A,106.6963,26.6063,贵阳市,红边门,细颗粒物(PM2.5),153,132,112,117,94,11,,11,5,50,38,37,19,/,/
2026-01-15T1100,1446A,106.7162383,26.56964667,贵阳市,新华路,细颗粒物(PM2.5),140,183,123,107,94,8,,10,9,47,38,,11,1.5,1
2026-01-15T1100,1447A,106.6742,26.542,贵阳市,太慈桥,细颗粒物(PM2.5),156,149,107,119,89,26,,24,23,56,35,12,5,/,/
2026-01-15T1100,4230A,106.688212,26.56952,贵阳市,花果园大街66号,细颗粒物(PM2.5),175,139,113,132,117,10,,7,3,58,41,21,12,/,/
2026-01-15T1100,4231A,106.687268,26.516892,贵阳市,漓江路57号,细颗粒物(PM2.5),170,156,122,129,102,18,,3,3,47,44,38,22,1.6,1.4
2026-01-15T1100,1864A,110.3091,25.2705,桂林市,龙隐路小学,细颗粒物(PM2.5),114,109,96,86,80,34,,20,20,42,39,16,10,1.1,1
2026-01-15T1100,1865A,110.2849361,25.22909545,桂林市,八中,细颗粒物(PM2.5),105,87,101,79,82,35,,26,24,40,43,20,13,0.8,0.8
2026-01-15T1100,3531A,110.296,25.1254,桂林市,旅游学院,,,,85,,67,47,,11,11,38,34,10,7,,0.5
2026-01-15T1100,4222A,110.1835,25.2444,桂林市,环湖路276号,细颗粒物(PM2.5),125,146,110,95,77,14,,5,5,55,48,14,11,0.7,0.7
2026-01-15T1100,4301A,110.2803,25.2773,桂林市,信义路13号,细颗粒物(PM2.5),110,95,95,83,70,40,,35,30,39,40,20,11,1.2,1.2
2026-01-15T1100,2674A,100.2262,34.4854,果洛藏族自治州,玛沁县大武镇,颗粒物(PM10),81,111,60,12,16,50,,48,42,21,6,27,17,1.2,0.4
2026-01-15T1100,1130A,126.5557,45.8109,哈尔滨市,松北商大,细颗粒物(PM2.5),87,110,92,64,73,37,,16,16,31,47,12,8,0.9,1.1
2026-01-15T1100,1132A,126.6162,45.719,哈尔滨市,南岗学府路,细颗粒物(PM2.5),88,78,78,65,60,39,,26,26,28,39,10,11,1.1,1.1
2026-01-15T1100,1133A,126.6894,45.7733,哈尔滨市,太平宏伟公园,细颗粒物(PM2.5),119,120,91,90,74,37,,22,22,32,44,15,15,1.2,1.1
2026-01-15T1100,1134A,126.6361,45.7672,哈尔滨市,道外承德广场,细颗粒物(PM2.5),122,123,105,92,70,32,,18,18,39,53,16,20,1.1,1
2026-01-15T1100,1136A,126.644,45.7261,哈尔滨市,动力和平路,细颗粒物(PM2.5),114,110,81,86,65,32,,24,24,37,42,25,17,1.1,0.9
2026-01-15T1100,1137A,126.5933,45.7479,哈尔滨市,道里建国路,细颗粒物(PM2.5),119,107,78,90,72,36,,21,21,37,50,21,22,1.1,1.1
2026-01-15T1100,1138A,126.6127,45.6119,哈尔滨市,平房东轻厂,,,45,80,44,76,,,12,12,34,51,10,14,0.9,1.3
2026-01-15T1100,1139A,126.5875,45.9827,哈尔滨市,呼兰师专,细颗粒物(PM2.5),132,108,95,100,95,35,,18,18,26,40,16,11,1.2,1.2
2026-01-15T1100,1140A,126.6299,45.6799,哈尔滨市,省农科院,细颗粒物(PM2.5),69,77,88,50,74,40,,26,26,33,52,18,15,0.8,0.9
2026-01-15T1100,4282A,126.6769,45.7379,哈尔滨市,华山路1号,细颗粒物(PM2.5),113,97,85,85,67,34,,22,21,37,46,20,24,1.1,1
2026-01-15T1100,4283A,126.9717,45.5356,哈尔滨市,解放大街52号,细颗粒物(PM2.5),112,86,67,84,60,46,,34,34,25,33,20,15,1.5,1.2
2026-01-15T1100,2688A,93.5124,42.8176,哈密市,地区监测站,颗粒物(PM10),500,684,684,122,127,10,,14,11,30,26,1,2,1.0,0.8
2026-01-15T1100,2689A,93.5014,42.8312,哈密市,哈密师范学校,颗粒物(PM10),500,635,673,118,145,7,,17,16,46,35,3,2,1.5,1.1
2026-01-15T1100,2671A,100.9016,36.9464,海北藏族自治州,海晏县西海镇,,36,36,41,11,15,65,,67,65,8,2,7,7,0.4,0.4
2026-01-15T1100,3867A,102.074,36.5056,海东市,平安区公安局北苑,颗粒物(PM10),63,75,83,38,29,27,,28,20,43,25,42,13,2.6,0.9
2026-01-15T1100,4163A,102.0984,36.5119,海东市,滨河路,颗粒物(PM10),63,76,86,39,29,44,,28,26,41,39,40,12,2.3,0.9
2026-01-15T1100,1410A,110.3189,20.0596,海口市,海南大学,,44,44,46,22,27,118,,114,114,10,13,6,6,0.3,0.3
2026-01-15T1100,1411A,110.2827,20.0051,海口市,秀英海南医院,,,,46,,25,,,87,85,11,12,7,7,0.4,0.4
2026-01-15T1100,1412A,110.3391,19.9979,海口市,海南师范大学,,43,43,52,21,28,103,,97,96,12,13,6,6,0.7,0.7
2026-01-15T1100,1413A,110.3303,20.0359,海口市,龙华路环保局宿舍,,43,43,46,23,29,106,,101,101,10,11,/,/,0.7,0.7
2026-01-15T1100,3539A,110.5111,19.9737,海口市,桂林洋子站,,30,29,42,17,26,96,,75,75,8,11,/,/,/,/
2026-01-15T1100,4134A,110.1952,20.0451,海口市,长滨二路9号,,39,39,38,22,26,103,,100,100,8,11,/,/,/,/
2026-01-15T1100,2673A,100.6158,36.2985,海南藏族自治州,共和县恰卜恰镇,颗粒物(PM10),66,82,48,33,25,38,,37,36,35,21,15,13,0.9,0.5
2026-01-15T1100,2676A,97.373,37.376,海西蒙古族藏族自治州,德令哈市,,,41,71,8,15,,,79,79,1,3,12,12,0.4,0.5
2026-01-15T1100,1049A,114.492,36.5712,邯郸市,矿院,细颗粒物(PM2.5),201,172,151,151,127,12,,5,5,77,67,10,10,1.7,1.6
2026-01-15T1100,1050A,114.4839,36.6136,邯郸市,丛台公园,细颗粒物(PM2.5),188,197,161,141,116,17,,9,9,75,63,11,11,1.9,1.7
2026-01-15T1100,3458A,114.7893,36.5592,邯郸市,香泉濮院小区,细颗粒物(PM2.5),155,192,164,118,112,25,,10,10,51,56,18,16,1.4,1.4
2026-01-15T1100,3580A,114.1998,36.4439,邯郸市,峰峰矿区临水派出所,,,,111,,71,68,,74,74,,27,7,17,0.7,1.2
2026-01-15T1100,4068A,114.5209,36.7697,邯郸市,建安街268号,细颗粒物(PM2.5),178,197,164,134,117,11,,3,3,74,63,,15,1.5,1.6
2026-01-15T1100,4069A,114.5488,36.6177,邯郸市,丛台东路558号,细颗粒物(PM2.5),160,188,171,122,123,19,,7,7,60,64,12,15,1.5,1.7
2026-01-15T1100,2635A,107.0155,33.0707,汉中市,市监测站,,,,107,58,80,24,,8,6,,42,,6,1.1,1.2
2026-01-15T1100,2636A,107.0083,33.114,汉中市,鑫源开发区,颗粒物(PM10),75,99,108,46,82,29,,10,10,32,46,15,8,0.8,1
2026-01-15T1100,2637A,107.0072,33.0323,汉中市,南郑大河坎水厂,细颗粒物(PM2.5),69,85,107,50,73,24,,14,11,28,32,7,6,0.9,0.9
2026-01-15T1100,1223A,120.2073,30.2111,杭州市,滨江,"颗粒物(PM10),细颗粒物(PM2.5)",64,77,81,46,63,37,,,,54,63,9,9,0.7,0.6
2026-01-15T1100,1224A,120.0625,30.2737,杭州市,西溪,颗粒物(PM10),61,72,91,40,39,28,,5,5,56,42,10,9,0.8,1
2026-01-15T1100,1226A,120.3417,30.315,杭州市,下沙,细颗粒物(PM2.5),64,74,98,46,61,52,,22,22,47,85,10,10,0.9,0.8
2026-01-15T1100,1227A,120.1252,30.2465,杭州市,卧龙桥,细颗粒物(PM2.5),64,63,58,46,38,34,,10,10,53,45,10,9,0.5,0.4
2026-01-15T1100,1228A,120.1902,30.2691,杭州市,浙江农大,细颗粒物(PM2.5),69,79,112,50,62,43,,11,11,59,80,7,7,0.7,0.9
2026-01-15T1100,1230A,120.1195,30.3121,杭州市,和睦小学,细颗粒物(PM2.5),64,71,92,46,55,31,,9,9,54,69,8,7,0.9,0.9
2026-01-15T1100,1231A,120.3076,30.4146,杭州市,临平镇,颗粒物(PM10),67,84,103,44,59,16,,6,6,77,79,9,9,0.7,0.7
2026-01-15T1100,1232A,120.2753,30.1839,杭州市,城厢镇,细颗粒物(PM2.5),72,77,80,52,50,38,,28,28,57,66,10,9,1.0,0.8
2026-01-15T1100,1233A,120.0883,30.1808,杭州市,云栖,,,78,79,58,40,,,6,6,72,48,5,4,0.9,0.6
2026-01-15T1100,3557A,119.9463,30.0496,杭州市,镇二中,细颗粒物(PM2.5),70,58,65,51,48,34,,9,9,55,62,8,6,0.9,0.9
2026-01-15T1100,3558A,119.7184,30.2367,杭州市,市府大楼,颗粒物(PM10),51,51,61,33,36,41,,28,28,29,35,13,12,0.8,0.8
2026-01-15T1100,3656A,120.1554,30.2863,杭州市,消防大队,,,79,88,53,58,,,4,4,58,75,8,7,0.9,0.7
2026-01-15T1100,1270A,117.1957,31.7845,合肥市,明珠广场,颗粒物(PM10),68,85,91,48,56,43,,15,15,65,83,10,9,0.7,0.7
2026-01-15T1100,1271A,117.307,31.8765,合肥市,三里街,细颗粒物(PM2.5),100,144,107,75,64,12,,13,13,92,76,8,7,1.1,1.1
2026-01-15T1100,1272A,117.2587,31.8703,合肥市,琥珀山庄,细颗粒物(PM2.5),104,122,101,78,66,48,,19,19,63,72,10,9,1.0,1.2
2026-01-15T1100,1275A,117.2593,31.9376,合肥市,庐阳区,颗粒物(PM10),74,97,101,53,60,76,,40,40,42,66,7,6,0.8,0.8
2026-01-15T1100,1276A,117.345251,31.861615,合肥市,瑶海区,细颗粒物(PM2.5),104,139,94,78,58,19,,28,28,92,70,8,8,0.9,0.8
2026-01-15T1100,1277A,117.3033,31.7967,合肥市,包河区,细颗粒物(PM2.5),94,102,90,70,62,53,,25,25,62,89,11,12,1.0,1
2026-01-15T1100,1278A,117.278,31.7392,合肥市,滨湖新区,细颗粒物(PM2.5),73,80,90,53,63,51,,15,15,58,75,7,8,0.8,0.9
2026-01-15T1100,1279A,117.1324,31.8395,合肥市,高新区,细颗粒物(PM2.5),84,100,89,62,60,55,,51,51,62,59,7,7,0.8,0.7
2026-01-15T1100,3464A,117.3802,31.9148,合肥市,高教基地,细颗粒物(PM2.5),109,129,98,82,68,32,,12,12,72,60,12,10,1.0,0.8
2026-01-15T1100,4098A,117.2518,31.8404,合肥市,中国科学技术大学,细颗粒物(PM2.5),92,88,87,68,57,68,,38,38,49,68,11,10,0.9,0.9
2026-01-15T1100,3614A,79.9241,37.0878,和田地区,地区环保局,颗粒物(PM10),500,837,224,52,32,43,,45,44,16,22,5,4,0.0,0.2
2026-01-15T1100,3615A,79.9132,37.1137,和田地区,市环保局,颗粒物(PM10),455,555,182,38,36,22,,18,18,45,48,4,5,1.3,1.4
2026-01-15T1100,2517A,108.0496,24.6957,河池市,市环保站,细颗粒物(PM2.5),97,108,101,72,77,22,,16,16,39,35,4,5,1.1,1
2026-01-15T1100,4302A,108.0901,24.6945,河池市,上任中路54号,细颗粒物(PM2.5),102,105,109,76,84,18,,22,22,39,43,5,6,1.1,1.1
2026-01-15T1100,1697A,114.6962,23.7538,河源市,东埔,颗粒物(PM10),57,64,61,38,40,74,,21,21,33,50,14,7,1.0,1
2026-01-15T1100,1698A,114.6895,23.7232,河源市,老城,颗粒物(PM10),59,67,49,33,29,75,,35,35,29,34,15,7,0.9,0.6
2026-01-15T1100,3374A,115.5562,35.089,菏泽市,定陶老年大学,,,,177,,105,,,25,24,30,40,6,6,0.6,0.8
2026-01-15T1100,4114A,115.4239,35.2593,菏泽市,黄河路600号,颗粒物(PM10),125,199,188,69,105,44,,30,30,41,59,7,8,0.6,0.8
2026-01-15T1100,4115A,115.5025,35.2727,菏泽市,菏泽市人社局,颗粒物(PM10),115,179,173,68,98,27,,23,19,41,41,8,9,0.4,0.5
2026-01-15T1100,4184A,115.479691,35.244011,菏泽市,永昌路1号,,,,185,,106,40,,33,29,,53,8,7,,0.7
2026-01-15T1100,4193A,115.471542,35.280012,菏泽市,长城路999号,颗粒物(PM10),119,188,181,62,100,48,,30,30,35,58,10,10,0.6,0.9
2026-01-15T1100,2514A,111.5264,24.4178,贺州市,环保小区,细颗粒物(PM2.5),85,82,88,63,60,64,,35,33,36,41,10,10,0.5,0.6
2026-01-15T1100,2515A,111.561,24.4074,贺州市,政协大楼,颗粒物(PM10),60,69,77,40,53,69,,55,50,31,35,13,18,0.9,1
2026-01-15T1100,3534A,111.4744,24.455,贺州市,西湾,细颗粒物(PM2.5),70,77,88,51,55,50,,27,27,42,46,12,9,0.7,0.8
2026-01-15T1100,2385A,114.17,35.9019,鹤壁市,市监测站,颗粒物(PM10),75,99,129,47,74,46,,44,41,29,37,7,8,0.8,1
2026-01-15T1100,2386A,114.2953,35.7512,鹤壁市,市交警支队,颗粒物(PM10),102,154,133,62,70,7,,9,2,61,55,8,9,1.1,1.2
2026-01-15T1100,2387A,114.2877,35.7302,鹤壁市,迎宾馆,颗粒物(PM10),106,161,138,48,68,19,,6,4,54,55,9,10,1.1,1.2
2026-01-15T1100,3474A,114.2616,35.6824,鹤壁市,大新区,颗粒物(PM10),111,172,133,41,61,27,,9,9,46,58,9,12,0.9,1.2
2026-01-15T1100,3596A,114.1573,35.9607,鹤壁市,南山宾馆,颗粒物(PM10),83,116,141,32,58,68,,72,69,12,26,6,13,0.5,0.9
2026-01-15T1100,2244A,130.2537,47.3416,鹤岗市,哈啤分公司,,,21,26,12,21,67,,58,58,,6,,6,0.4,0.5
2026-01-15T1100,2245A,130.2683,47.3087,鹤岗市,斯达机电,,33,,27,23,21,54,,53,50,9,8,6,6,0.5,0.4
2026-01-15T1100,2246A,130.3114,47.3388,鹤岗市,东山纸板厂,,18,,35,11,32,55,,39,39,8,18,13,11,0.5,1.2
2026-01-15T1100,2263A,127.4832,50.2524,黑河市,交通局,,22,22,25,12,29,42,,45,41,14,13,6,6,0.8,0.6
2026-01-15T1100,2264A,127.5146,50.2339,黑河市,环保局,,,,21,19,23,,,46,44,,20,4,6,0.3,0.4
2026-01-15T1100,1074A,115.6839,37.754,衡水市,电机北厂,颗粒物(PM10),146,241,148,99,89,29,,5,5,43,52,19,12,1.2,0.9
2026-01-15T1100,1075A,115.6303,37.7318,衡水市,市监测站,细颗粒物(PM2.5),150,232,141,115,89,25,,6,6,53,57,17,11,1.4,1
2026-01-15T1100,3188A,115.6684,37.7216,衡水市,市城管局,颗粒物(PM10),151,252,143,114,87,19,,4,4,61,61,20,12,1.5,1
2026-01-15T1100,3459A,115.599,37.5491,衡水市,地表水厂,细颗粒物(PM2.5),216,241,136,166,99,23,,6,6,55,56,15,12,1.5,0.9
2026-01-15T1100,2457A,112.6209,26.9268,衡阳市,衡阳化工总厂,细颗粒物(PM2.5),99,95,98,74,72,49,,27,27,26,43,18,51,1.0,1.1
2026-01-15T1100,2458A,112.621,26.8957,衡阳市,珠晖区环保局,细颗粒物(PM2.5),98,88,94,73,73,52,,20,20,28,60,14,20,1.0,1.2
2026-01-15T1100,2459A,112.628,26.8654,衡阳市,市委党校,细颗粒物(PM2.5),90,87,86,67,66,53,,36,36,28,39,18,19,1.1,1.2
2026-01-15T1100,2460A,112.6007,26.8977,衡阳市,市监测站,细颗粒物(PM2.5),88,99,129,65,83,50,,19,19,23,50,17,17,1.0,1.8
2026-01-15T1100,2461A,112.5658,26.9013,衡阳市,真空机电公司,细颗粒物(PM2.5),105,116,107,79,76,47,,18,18,41,60,22,22,1.4,1.5
2026-01-15T1100,3399A,112.6703,26.8817,衡阳市,师范学院,细颗粒物(PM2.5),85,86,88,63,62,59,,40,40,27,41,10,11,1.0,1.1
2026-01-15T1100,3038A,103.3757,23.3679,红河哈尼族彝族自治州,州图书馆,细颗粒物(PM2.5),57,53,50,40,36,72,,62,62,9,9,6,6,0.7,0.6
2026-01-15T1100,4154A,103.401,23.3561,红河哈尼族彝族自治州,蒙自市朝阳路,细颗粒物(PM2.5),74,,35,54,38,70,,55,55,8,7,5,6,0.8,0.6
2026-01-15T1100,1090A,111.6506,40.7517,呼和浩特市,呼市一监,颗粒物(PM10),131,212,223,40,39,28,,20,16,40,29,9,9,0.8,0.5
2026-01-15T1100,1094A,111.7516,40.8369,呼和浩特市,如意水处理厂,颗粒物(PM10),112,174,182,44,41,25,,11,11,43,38,13,11,0.7,0.5
2026-01-15T1100,1095A,111.727798,40.806187,呼和浩特市,二十九中,颗粒物(PM10),108,166,198,48,44,26,,15,15,44,33,13,13,0.8,0.6
2026-01-15T1100,1097A,111.717,40.7617,呼和浩特市,化肥厂生活区,颗粒物(PM10),134,217,222,45,44,27,,18,15,37,32,7,6,0.6,0.5
2026-01-15T1100,3699A,111.6519,40.8389,呼和浩特市,海东办,颗粒物(PM10),124,197,192,43,36,20,,9,9,43,39,8,6,1.0,0.7
2026-01-15T1100,4275A,111.591512,40.827312,呼和浩特市,成吉思汗西街8号,颗粒物(PM10),133,215,199,43,36,20,,20,20,38,39,11,8,0.6,0.5
2026-01-15T1100,4276A,111.6597,40.8077,呼和浩特市,公园东路75号,颗粒物(PM10),131,212,235,55,43,33,,18,17,41,38,8,8,,0.6
2026-01-15T1100,4277A,111.5427,40.7846,呼和浩特市,金海路35号,颗粒物(PM10),116,181,200,45,40,29,,17,17,36,39,13,13,0.7,0.6
2026-01-15T1100,3061A,119.7511,49.1576,呼伦贝尔市,国华电力东,,26,26,34,16,26,42,,40,40,28,26,5,7,0.4,0.5
2026-01-15T1100,4279A,119.7569,49.2222,呼伦贝尔市,伊敏大街东7号,,,46,44,35,36,17,,20,17,,38,9,7,,1.1
2026-01-15T1100,1250A,120.075,30.867,湖州市,城西水厂,细颗粒物(PM2.5),74,76,88,54,60,52,,19,19,58,76,13,10,0.6,0.6
2026-01-15T1100,2873A,120.083,30.8929,湖州市,仁皇山新区,细颗粒物(PM2.5),78,82,85,57,59,67,,27,27,55,84,16,10,0.8,0.8
2026-01-15T1100,2907A,120.1846,30.8592,湖州市,吴兴区站,,,,88,,58,,,76,,,71,,10,,0.9
2026-01-15T1100,3562A,120.4146,30.8538,湖州市,南浔区站,细颗粒物(PM2.5),84,88,98,62,65,44,,10,10,60,73,14,10,1.1,0.9
2026-01-15T1100,1607A,120.904878,40.721091,葫芦岛市,龙港区,颗粒物(PM10),72,93,69,51,48,44,,23,23,19,30,12,12,1.0,0.9
2026-01-15T1100,1608A,120.8382,40.7521,葫芦岛市,化工街,细颗粒物(PM2.5),83,100,84,61,53,38,,22,22,20,37,29,28,0.9,0.8
2026-01-15T1100,1609A,120.8339,40.7078,葫芦岛市,新区,细颗粒物(PM2.5),72,87,65,52,48,40,,20,20,23,38,17,13,1.1,0.8
2026-01-15T1100,1610A,120.8697,40.7679,葫芦岛市,东城区,细颗粒物(PM2.5),72,87,65,52,53,42,,23,23,20,37,15,16,1.0,1
2026-01-15T1100,2483A,109.9297,27.5383,怀化市,河西地税局,细颗粒物(PM2.5),118,98,80,89,75,,,8,8,,28,5,3,/,/
2026-01-15T1100,2484A,109.9783,27.5342,怀化市,市四医院,细颗粒物(PM2.5),134,135,100,102,80,3,,0,0,39,34,7,7,0.9,0.9
2026-01-15T1100,2485A,109.9971,27.5579,怀化市,监测楼,细颗粒物(PM2.5),122,115,89,92,77,14,,2,2,34,28,5,4,0.4,0.4
2026-01-15T1100,1210A,119.0566,33.5991,淮安市,钵池山,细颗粒物(PM2.5),172,175,134,130,109,48,,49,41,40,42,12,13,0.9,1.1
2026-01-15T1100,1211A,119.0083,33.578,淮安市,北京南路,细颗粒物(PM2.5),190,178,142,143,113,40,,14,13,44,66,14,12,0.9,1.1
2026-01-15T1100,1212A,118.9938,33.6083,淮安市,市监测站,细颗粒物(PM2.5),185,175,126,139,101,41,,42,33,44,48,13,13,1.1,1
2026-01-15T1100,1213A,119.135,33.5038,淮安市,楚州区监测站,细颗粒物(PM2.5),201,195,150,151,119,34,,14,14,48,65,12,12,1.2,1
2026-01-15T1100,3426A,118.8757,33.2897,淮安市,新华书店,,,,119,,93,47,,36,29,32,42,13,11,,1.5
2026-01-15T1100,4092A,119.119691,33.550006,淮安市,枚皋中路89号,细颗粒物(PM2.5),206,188,143,156,113,38,,30,25,52,50,15,12,1.1,0.9
2026-01-15T1100,4206A,119.028838,33.631911,淮安市,承德北路606号,细颗粒物(PM2.5),178,207,152,134,109,43,,44,31,47,55,13,12,1.0,1.1
2026-01-15T1100,2282A,116.8005,33.9749,淮北市,监测站,细颗粒物(PM2.5),159,240,197,121,133,69,,29,29,46,55,13,12,0.9,1
2026-01-15T1100,2283A,116.8094,33.9008,淮北市,烈山区政府,细颗粒物(PM2.5),178,198,189,134,143,35,,21,21,48,51,16,14,0.8,0.8
2026-01-15T1100,4017A,116.7926,33.9534,淮北市,市博物馆,细颗粒物(PM2.5),166,222,215,126,147,48,,26,26,47,57,8,7,1.1,1.1
2026-01-15T1100,4100A,116.8322,33.9884,淮北市,杜集区第一实验学校,细颗粒物(PM2.5),172,206,190,130,137,53,,27,27,43,48,13,12,0.9,0.9
2026-01-15T1100,2277A,116.8304,32.7726,淮南市,潘集区政府,细颗粒物(PM2.5),120,135,116,91,82,68,,48,48,24,34,11,9,0.8,0.8
2026-01-15T1100,2279A,116.8569,32.5949,淮南市,谢家集区政府,细颗粒物(PM2.5),98,103,95,73,62,68,,56,54,31,34,15,11,1.0,0.7
2026-01-15T1100,2280A,116.8279,32.6333,淮南市,八公山区政府,细颗粒物(PM2.5),85,100,84,63,55,78,,73,69,22,19,10,11,0.7,0.6
2026-01-15T1100,2894A,117.0561,32.6536,淮南市,经济技术开发区消防队,细颗粒物(PM2.5),122,141,119,92,72,34,,58,44,54,48,8,9,,0.8
2026-01-15T1100,3329A,117.011,32.5891,淮南市,山南新区,细颗粒物(PM2.5),113,142,118,85,73,72,,51,50,33,40,10,7,1.1,0.8
2026-01-15T1100,4209A,117.003137,32.644456,淮南市,国庆中路369号,细颗粒物(PM2.5),108,95,110,81,80,52,,40,37,39,49,15,13,0.9,1
2026-01-15T1100,2446A,114.9021,30.474,黄冈市,职工中心,细颗粒物(PM2.5),113,115,87,85,64,59,,27,27,30,46,10,13,1.0,1.2
2026-01-15T1100,2929A,114.8858,30.4519,黄冈市,红卫路,,,,77,,66,52,,21,21,,46,11,13,,0.9
2026-01-15T1100,3398A,114.9134,30.4446,黄冈市,市林业局,细颗粒物(PM2.5),129,112,95,98,71,61,,24,24,36,53,7,9,0.8,1
2026-01-15T1100,2672A,102.02,35.5101,黄南藏族自治州,同仁县隆务镇,,31,31,42,15,15,62,,60,60,1,3,9,10,0.2,0.3
2026-01-15T1100,2295A,118.2905,29.6965,黄山市,延安路89号,,38,38,32,17,25,41,,13,13,13,18,4,4,0.6,0.5
2026-01-15T1100,2297A,118.1369,30.2755,黄山市,黄山区政府5号楼,,33,30,38,23,26,53,,20,20,10,11,3,3,0.4,0.5
2026-01-15T1100,4210A,118.335445,29.720283,黄山市,滨江东路7-2号,颗粒物(PM10),56,62,59,33,36,34,,14,14,29,28,/,/,/,/
2026-01-15T1100,2423A,115.0547,30.2332,黄石市,沈家营,细颗粒物(PM2.5),124,140,105,94,66,32,,31,25,69,46,7,9,1.6,1.5
2026-01-15T1100,2426A,114.899,30.211,黄石市,铁山,,,,80,,62,,,101,,,38,,10,,0.6
2026-01-15T1100,2427A,115.0259,30.2108,黄石市,团城山,细颗粒物(PM2.5),137,133,103,104,69,43,,38,32,58,44,8,9,1.6,1.2
2026-01-15T1100,3149A,115.0174,30.1591,黄石市,笔架山北路,细颗粒物(PM2.5),173,216,130,131,74,44,,35,28,76,40,19,14,2.3,1.6
2026-01-15T1100,4185A,115.078022,30.21118,黄石市,磁湖东路29号,细颗粒物(PM2.5),148,146,106,113,76,42,,25,24,60,51,13,11,1.7,1.5
2026-01-15T1100,1392A,114.4181,23.0528,惠州市,河南岸金山湖子站,细颗粒物(PM2.5),74,89,60,54,34,60,,31,30,46,31,8,5,0.8,0.7
2026-01-15T1100,1393A,114.4055,23.0824,惠州市,下埔横江三路子站,颗粒物(PM10),76,101,67,51,35,70,,18,18,44,42,11,8,0.8,0.7
2026-01-15T1100,1395A,114.4645,22.7832,惠州市,惠阳区承修路船湖子站,颗粒物(PM10),59,68,60,39,30,108,,68,68,28,33,10,8,0.6,0.5
2026-01-15T1100,1396A,114.5316,22.7423,惠州市,大亚湾管委会子站,颗粒物(PM10),58,65,58,33,29,89,,43,43,38,38,8,6,0.7,0.6
2026-01-15T1100,3314A,114.4334,22.8134,惠州市,惠阳秋长,细颗粒物(PM2.5),67,80,62,48,31,130,,54,54,31,37,/,/,/,/
2026-01-15T1100,3452A,114.6521,22.7755,惠州市,大亚湾霞涌,颗粒物(PM10),56,62,47,37,24,91,,75,75,27,22,/,/,/,/
2026-01-15T1100,4300A,114.4089,23.1147,惠州市,文华一路1号,细颗粒物(PM2.5),72,90,69,52,38,91,,16,16,37,52,/,/,/,/
2026-01-15T1100,2240A,130.9618,45.2926,鸡西市,环保局,细颗粒物(PM2.5),115,109,63,87,47,36,,9,9,32,34,11,13,0.5,0.9
2026-01-15T1100,2243A,130.9294,45.2959,鸡西市,第一中学,颗粒物(PM10),53,56,36,36,26,36,,28,28,25,23,7,6,0.7,0.6
2026-01-15T1100,3707A,131.0069,45.2988,鸡西市,欧美日汽修厂,细颗粒物(PM2.5),84,102,72,62,50,33,,13,13,30,32,20,26,0.7,0.8
2026-01-15T1100,2367A,114.9753,27.0803,吉安市,红声器材厂,细颗粒物(PM2.5),64,74,66,46,36,30,,11,11,40,48,11,10,0.7,0.8
2026-01-15T1100,2369A,114.9903,27.1313,吉安市,市环境监测站,细颗粒物(PM2.5),68,72,66,49,40,26,,8,8,52,50,11,9,/,/
2026-01-15T1100,2370A,115.009527,27.096792,吉安市,青原区法院,颗粒物(PM10),65,80,67,45,38,15,,3,3,48,49,12,11,0.8,0.7
2026-01-15T1100,1772A,126.54,43.8622,吉林市,哈达湾,细颗粒物(PM2.5),73,80,42,53,29,52,,36,36,22,23,13,10,1.5,1.2
2026-01-15T1100,1773A,126.5843,43.8358,吉林市,东局子,细颗粒物(PM2.5),87,71,53,64,34,33,,23,22,35,26,8,5,1.4,1
2026-01-15T1100,1774A,126.5051,43.8243,吉林市,电力学院,细颗粒物(PM2.5),82,77,53,60,37,49,,32,32,26,26,32,19,1.3,0.9
2026-01-15T1100,1775A,126.6133,43.8971,吉林市,江北,细颗粒物(PM2.5),77,67,47,56,34,48,,38,38,24,19,12,12,1.2,1.1
2026-01-15T1100,1776A,126.5549,43.8304,吉林市,江南公园,细颗粒物(PM2.5),94,91,45,70,33,39,,29,29,30,24,12,9,1.3,0.8
2026-01-15T1100,2868A,126.4737,43.953,吉林市,九站,细颗粒物(PM2.5),87,83,59,64,37,46,,33,33,31,32,6,12,0.9,0.8
2026-01-15T1100,1299A,116.9866,36.6118,济南市,科干所,颗粒物(PM10),157,263,160,66,77,35,,15,15,47,44,29,16,0.9,0.9
2026-01-15T1100,1300A,116.9379,36.6652,济南市,农科所,颗粒物(PM10),152,254,186,68,97,22,,5,5,62,71,21,14,1.0,1.2
2026-01-15T1100,1301A,117.1265,36.6736,济南市,开发区,颗粒物(PM10),123,195,188,49,88,16,,12,12,69,74,7,11,1.1,1.2
2026-01-15T1100,1303A,117.0616,36.6865,济南市,省种子仓库,颗粒物(PM10),162,273,218,110,117,11,,7,7,94,74,19,17,2.0,1.6
2026-01-15T1100,1304A,116.9495185,36.644937,济南市,机床二厂,颗粒物(PM10),150,249,182,105,119,26,,7,7,,61,,22,1.0,1.1
2026-01-15T1100,1305A,117.0496,36.6629,济南市,市监测站,细颗粒物(PM2.5),168,222,180,127,109,,,3,3,69,60,,11,1.5,1.2
2026-01-15T1100,1306A,116.7674,36.5458,济南市,长清党校,颗粒物(PM10),162,274,181,100,105,43,,12,12,40,53,11,11,0.9,1
2026-01-15T1100,1961A,117.5323,36.6865,济南市,东山小学,颗粒物(PM10),134,217,181,42,91,37,,16,16,46,53,7,9,0.3,0.6
2026-01-15T1100,3059A,117.7181,36.205,济南市,泰兴公司,细颗粒物(PM2.5),233,278,223,183,162,17,,8,8,75,73,18,15,1.9,2.1
2026-01-15T1100,3064A,117.6861,36.2172,济南市,莱芜战役纪念馆,细颗粒物(PM2.5),228,263,222,178,158,18,,6,6,75,79,16,14,1.6,2
2026-01-15T1100,3494A,117.1673,36.9782,济南市,济阳区政府,颗粒物(PM10),155,259,215,95,128,33,,13,13,54,73,21,17,1.1,1.3
2026-01-15T1100,3495A,117.1168,36.6299,济南市,锦屏中学,颗粒物(PM10),136,222,150,34,63,55,,48,48,30,42,4,7,0.6,0.9
2026-01-15T1100,4108A,117.7107,36.2385,济南市,山财大街5号,细颗粒物(PM2.5),190,256,202,143,134,28,,10,10,70,83,23,16,1.9,1.8
2026-01-15T1100,4109A,116.9744,36.6889,济南市,无影山路12号,颗粒物(PM10),142,234,192,83,132,18,,5,5,69,67,23,18,1.5,1.4
2026-01-15T1100,1653A,116.6229,35.4288,济宁市,火炬城,细颗粒物(PM2.5),203,172,190,153,153,28,,8,8,50,54,,5,1.0,1.1
2026-01-15T1100,3500A,116.5808,35.3703,济宁市,北湖一中,细颗粒物(PM2.5),168,162,191,127,148,34,,8,8,42,54,15,10,1.0,1.1
2026-01-15T1100,3501A,116.8251,35.5592,济宁市,服务中心,细颗粒物(PM2.5),211,240,209,161,144,25,,6,6,68,65,15,14,1.5,1.4
2026-01-15T1100,3678A,116.5907,35.4054,济宁市,市第七中学,细颗粒物(PM2.5),156,192,194,119,139,36,,10,10,50,57,20,12,1.1,1.2
2026-01-15T1100,4111A,116.6075,35.4566,济宁市,任和路,细颗粒物(PM2.5),183,230,221,138,146,31,,7,7,51,56,12,8,1.2,1.2
2026-01-15T1100,4112A,116.5648,35.3921,济宁市,文体南路1号,细颗粒物(PM2.5),160,220,216,122,150,,,3,3,47,58,13,9,1.0,1
2026-01-15T1100,2255A,130.2749,46.8028,佳木斯市,佳纺,细颗粒物(PM2.5),142,174,62,108,46,31,,,,37,22,12,10,0.8,0.6
2026-01-15T1100,2257A,130.3258,46.7975,佳木斯市,环保局,细颗粒物(PM2.5),135,,39,103,36,21,,,,55,28,15,10,1.3,0.7
2026-01-15T1100,4285A,130.363,46.806,佳木斯市,顺和街,细颗粒物(PM2.5),77,69,34,56,25,39,,19,14,18,30,13,12,0.4,0.6
2026-01-15T1100,4286A,130.3952,46.8268,佳木斯市,长安路196号,细颗粒物(PM2.5),55,47,30,39,23,38,,27,23,26,24,14,6,0.7,0.6
2026-01-15T1100,1252A,120.7439,30.778,嘉兴市,清河小学,细颗粒物(PM2.5),87,105,102,64,61,40,,19,10,64,66,11,8,0.9,0.6
2026-01-15T1100,1253A,120.7261,30.7477,嘉兴市,嘉兴学院,细颗粒物(PM2.5),87,108,101,64,57,38,,11,8,68,64,17,10,0.9,0.8
2026-01-15T1100,2872A,120.7845,30.7524,嘉兴市,南湖区残联,细颗粒物(PM2.5),84,95,94,62,59,54,,36,20,60,56,10,7,0.9,0.7
2026-01-15T1100,3407A,120.6915,30.7741,嘉兴市,秀洲住建,细颗粒物(PM2.5),100,117,103,75,64,32,,11,8,78,72,12,9,0.8,0.7
2026-01-15T1100,1945A,98.291,39.7705,嘉峪关市,气象局,颗粒物(PM10),113,175,137,36,26,56,,53,40,26,23,30,17,1.0,0.5
2026-01-15T1100,2884A,98.2672,39.7978,嘉峪关市,酒钢宾馆,颗粒物(PM10),100,149,134,36,26,50,,58,52,27,16,32,26,0.9,0.6
2026-01-15T1100,3248A,98.2644,39.7723,嘉峪关市,雄关区,颗粒物(PM10),93,136,96,37,25,39,,47,33,37,25,28,19,1.0,0.5
2026-01-15T1100,1383A,113.1063,22.6058,江门市,北街,细颗粒物(PM2.5),94,105,61,70,35,71,,33,28,76,41,/,/,/,/
2026-01-15T1100,1384A,113.073,22.5835,江门市,西区,细颗粒物(PM2.5),94,105,66,70,35,74,,21,21,63,50,/,/,/,/
2026-01-15T1100,1385A,113.0218,22.531,江门市,圭峰西,细颗粒物(PM2.5),99,107,53,74,33,80,,61,45,46,22,/,/,/,/
2026-01-15T1100,1386A,113.0826,22.5947,江门市,东湖,颗粒物(PM10),78,105,55,51,37,83,,25,25,67,48,14,9,0.8,0.7
2026-01-15T1100,3311A,113.1077,22.5647,江门市,江海富民,,,111,82,48,38,96,,35,30,,48,/,/,0.9,0.9
2026-01-15T1100,3449A,113.0496,22.4669,江门市,新会银湖,细颗粒物(PM2.5),127,120,67,96,47,63,,14,14,68,39,12,7,0.8,0.5
2026-01-15T1100,3335A,113.3137,35.2643,焦作市,马村街道办,,,,125,,72,,,29,27,,41,17,17,0.9,1
2026-01-15T1100,3336A,113.2464,35.2374,焦作市,焦作技师学院,颗粒物(PM10),101,152,142,58,64,36,,27,23,42,49,21,19,1.1,1.1
2026-01-15T1100,3477A,113.1656,35.2536,焦作市,中站许衡医院,颗粒物(PM10),110,170,134,43,64,37,,50,50,45,47,19,25,1.1,1
2026-01-15T1100,3981A,113.2456,35.18,焦作市,原李万街道办,颗粒物(PM10),112,173,152,61,64,47,,31,30,32,48,23,15,0.9,0.8
2026-01-15T1100,4264A,113.234,35.219,焦作市,新安路1731号,颗粒物(PM10),115,180,146,71,69,38,,28,27,37,48,22,16,0.9,0.9
2026-01-15T1100,4295A,113.2722,35.2121,焦作市,人民路3066号,颗粒物(PM10),98,146,145,62,59,40,,31,28,36,48,21,14,1.0,1
2026-01-15T1100,1708A,116.3701,23.5345,揭阳市,新兴,细颗粒物(PM2.5),92,106,70,68,42,68,,60,42,50,39,14,12,0.8,0.8
2026-01-15T1100,1709A,116.3261,23.5442,揭阳市,西马,细颗粒物(PM2.5),93,108,77,69,41,62,,46,29,44,32,12,8,0.8,0.7
2026-01-15T1100,1710A,116.361,23.5627,揭阳市,东兴,,,99,73,54,37,,,44,20,29,34,,13,/,/
2026-01-15T1100,1711A,116.4151,23.5295,揭阳市,渔湖,细颗粒物(PM2.5),82,105,65,60,30,57,,66,48,55,31,13,8,/,/
2026-01-15T1100,3320A,116.4028,23.5699,揭阳市,曲溪,细颗粒物(PM2.5),80,98,74,59,38,73,,46,38,36,34,8,6,0.8,0.7
2026-01-15T1100,1944A,102.1691,38.5166,金昌市,天庆家园,颗粒物(PM10),102,153,109,23,34,79,,51,51,20,24,18,30,0.6,0.8
2026-01-15T1100,4022A,102.1648,38.5369,金昌市,金川区人防中心,,,,107,,39,,,83,54,,19,,37,,0.7
2026-01-15T1100,4239A,102.193042,38.531887,金昌市,长春路96号,颗粒物(PM10),67,84,115,26,32,68,,49,49,11,24,9,67,0.7,0.8
2026-01-15T1100,1262A,119.6478,29.0773,金华市,十五中,细颗粒物(PM2.5),77,90,91,56,58,52,,18,18,56,62,7,5,0.8,0.8
2026-01-15T1100,1263A,119.6859,29.1032,金华市,监测站,细颗粒物(PM2.5),84,97,93,62,55,28,,6,6,59,67,6,4,0.7,0.6
2026-01-15T1100,3659A,119.656,29.1132,金华市,气象局,细颗粒物(PM2.5),90,96,97,67,59,46,,13,13,60,80,6,5,0.7,0.7
2026-01-15T1100,1767A,121.1114,41.0879,锦州市,南山,细颗粒物(PM2.5),65,52,60,47,55,45,,30,30,19,37,10,11,0.9,0.7
2026-01-15T1100,1768A,121.060361,40.842794,锦州市,开发区,细颗粒物(PM2.5),74,73,71,54,51,38,,17,17,22,45,10,12,1.1,1
2026-01-15T1100,1769A,121.1836,41.1118,锦州市,百股街道,细颗粒物(PM2.5),89,70,58,66,45,42,,26,26,21,30,17,10,1.0,0.9
2026-01-15T1100,1770A,121.1176,41.1224,锦州市,天安街道,,,,50,,33,,,50,,,27,,12,,0.8
2026-01-15T1100,1771A,121.1303,41.1385,锦州市,北湖公园,细颗粒物(PM2.5),64,69,62,46,47,42,,29,29,16,31,10,10,0.8,0.7
2026-01-15T1100,2160A,112.8496,35.5051,晋城市,自来水公司,,,150,101,68,42,29,,29,23,41,30,19,10,,1.2
2026-01-15T1100,2162A,112.8509,35.4886,晋城市,市环保局,颗粒物(PM10),112,173,106,63,39,35,,28,22,39,35,16,8,2.1,1.1
2026-01-15T1100,3620A,112.8258,35.4804,晋城市,泽州一中,颗粒物(PM10),110,169,107,80,39,40,,41,34,39,24,14,7,2.3,0.8
2026-01-15T1100,4078A,112.8246,35.5152,晋城市,前书院路,颗粒物(PM10),125,200,121,55,34,23,,33,22,50,30,14,8,2.3,0.9
2026-01-15T1100,4079A,112.8864,35.4773,晋城市,祥云街666号,颗粒物(PM10),91,132,105,45,41,27,,44,29,23,14,10,6,1.3,0.7
2026-01-15T1100,2174A,112.6992,37.6984,晋中市,榆次区政府,颗粒物(PM10),125,200,244,67,78,34,,10,10,42,41,47,24,1.3,1.1
2026-01-15T1100,2865A,112.7195,37.683,晋中市,榆次三中,颗粒物(PM10),139,227,261,73,64,19,,5,5,47,40,35,22,1.4,1.2
2026-01-15T1100,4080A,112.7375,37.7215,晋中市,广安街188号,颗粒物(PM10),110,170,249,57,73,40,,8,8,43,41,56,25,1.0,1
2026-01-15T1100,4200A,112.7478,37.6954,晋中市,迎宾街26号,颗粒物(PM10),125,200,250,68,70,30,,10,10,38,36,42,26,1.4,1.3
2026-01-15T1100,2439A,112.2012,31.048,荆门市,竹园小学,细颗粒物(PM2.5),145,158,136,111,107,28,,24,18,70,40,4,2,2.5,1.7
2026-01-15T1100,2440A,112.1968,30.9892,荆门市,掇刀,细颗粒物(PM2.5),127,176,143,96,107,38,,43,23,53,36,7,7,0.7,0.7
2026-01-15T1100,3012A,112.1849,31.0361,荆门市,西山林语,细颗粒物(PM2.5),104,110,118,78,91,34,,54,36,48,29,7,8,0.7,0.7
2026-01-15T1100,3547A,112.1631,31.0134,荆门市,龙泉中学南校,细颗粒物(PM2.5),130,143,136,99,103,39,,55,39,43,22,5,7,1.0,1
2026-01-15T1100,4124A,112.2213,31.0654,荆门市,新台西路6号,细颗粒物(PM2.5),212,218,147,162,123,25,,11,11,66,41,12,11,1.3,0.9
2026-01-15T1100,1844A,112.2493,30.3198,荆州市,市图书馆,细颗粒物(PM2.5),170,,104,129,103,40,,36,28,43,41,8,9,1.1,1.1
2026-01-15T1100,1845A,112.2009,30.3543,荆州市,市委党校,细颗粒物(PM2.5),179,140,132,135,112,38,,16,16,42,45,4,5,1.0,1
2026-01-15T1100,3194A,112.2749,30.3124,荆州市,管委会,细颗粒物(PM2.5),188,260,113,141,102,51,,30,26,36,44,7,8,1.1,1.2
2026-01-15T1100,4268A,112.1722,30.3366,荆州市,学苑路85号,细颗粒物(PM2.5),142,133,128,108,112,50,,23,23,28,39,10,11,1.0,1.1
2026-01-15T1100,2343A,117.2114,29.2931,景德镇市,老干部活动中心,颗粒物(PM10),54,58,57,36,38,22,,5,5,32,35,9,9,0.7,0.8
2026-01-15T1100,2344A,117.1893,29.2789,景德镇市,兽医站,颗粒物(PM10),53,55,62,32,34,34,,12,12,28,38,7,9,0.8,0.8
2026-01-15T1100,2346A,117.246,29.2958,景德镇市,陶研所,,46,46,46,29,36,29,,6,6,30,31,4,4,0.3,0.4
2026-01-15T1100,4289A,117.154766,29.256967,景德镇市,青少年活动中心,颗粒物(PM10),53,56,71,31,41,33,,8,8,25,46,5,11,/,/
2026-01-15T1100,1803A,115.9873,29.6816,九江市,十里,细颗粒物(PM2.5),85,85,69,63,48,58,,,,55,44,10,10,1.1,1
2026-01-15T1100,1804A,115.9583,29.7047,九江市,茅山头,细颗粒物(PM2.5),73,76,66,53,46,34,,18,18,39,57,13,11,1.0,1
2026-01-15T1100,1805A,115.9877,29.7295,九江市,西园,细颗粒物(PM2.5),79,87,75,58,48,35,,45,44,93,79,9,7,1.1,1.1
2026-01-15T1100,1808A,115.9112,29.6038,九江市,综合工业园,细颗粒物(PM2.5),90,93,65,67,49,41,,33,31,67,58,9,7,0.6,0.7
2026-01-15T1100,3190A,116.0254,29.6995,九江市,外国语学校,细颗粒物(PM2.5),70,88,61,51,42,52,,,,54,54,9,9,1.2,0.9
2026-01-15T1100,4253A,116.010205,29.659402,九江市,莲花大道8号,细颗粒物(PM2.5),89,88,56,66,38,50,,59,53,52,21,7,6,0.8,0.6
2026-01-15T1100,4240A,98.495752,39.733935,酒泉市,玉门东路5号,颗粒物(PM10),109,168,136,30,24,44,,49,39,23,14,17,13,0.7,0.4
2026-01-15T1100,4241A,98.5099,39.7506,酒泉市,北大街108号,颗粒物(PM10),104,158,125,30,24,48,,40,31,26,18,16,13,0.6,0.5
2026-01-15T1100,2698A,76.0071,39.466,喀什地区,巡警大队,颗粒物(PM10),111,171,160,75,82,3,,3,3,59,57,11,11,5.2,3
2026-01-15T1100,2699A,75.9756,39.4693,喀什地区,吾办,细颗粒物(PM2.5),110,121,145,83,88,7,,7,6,50,63,12,9,3.3,2.9
2026-01-15T1100,4027A,75.9485,39.4688,喀什地区,老干局,细颗粒物(PM2.5),125,167,180,95,80,3,,1,1,41,53,7,11,4.0,3.3
2026-01-15T1100,1824A,114.3389,34.778,开封市,肿瘤医院,颗粒物(PM10),112,174,163,47,75,39,,28,22,47,62,10,11,0.7,0.9
2026-01-15T1100,1826A,114.2884,34.7966,开封市,世纪星幼儿园,颗粒物(PM10),110,169,150,63,86,36,,32,27,52,61,10,11,0.5,0.7
2026-01-15T1100,3147A,114.3434,34.8101,开封市,龙亭公园,颗粒物(PM10),105,159,158,30,71,53,,42,36,34,54,9,12,0.7,1
2026-01-15T1100,3210A,114.3645,34.7955,开封市,汴京公园,颗粒物(PM10),106,162,166,44,78,43,,35,29,46,61,9,9,0.7,0.9
2026-01-15T1100,3473A,114.2485,34.8306,开封市,技师学院,颗粒物(PM10),104,157,140,48,59,42,,43,41,40,49,8,11,0.6,0.9
2026-01-15T1100,3592A,114.4518,34.7503,开封市,祥符区生态环境局,颗粒物(PM10),113,175,174,53,79,45,,24,24,48,65,15,10,0.7,0.9
2026-01-15T1100,1951A,84.886,45.6029,克拉玛依市,长征新村,,23,23,43,15,26,57,,61,58,11,16,5,6,0.2,0.4
2026-01-15T1100,1952A,84.8894,45.5827,克拉玛依市,南林小区,,19,19,40,9,20,60,,64,61,10,12,2,3,0.5,0.6
2026-01-15T1100,1954A,84.896,44.3328,克拉玛依市,独山子区,细颗粒物(PM2.5),80,84,107,59,68,40,,50,44,35,26,6,6,0.8,0.8
2026-01-15T1100,1955A,85.6888,46.0909,克拉玛依市,乌尔禾区商贸楼,,,,42,,18,,,65,62,,24,,8,,0.5
2026-01-15T1100,3612A,85.1045,45.6895,克拉玛依市,白碱滩区新站,,28,28,43,13,25,56,,62,61,16,24,8,10,0.3,0.4
2026-01-15T1100,2697A,76.1457,39.7143,克孜勒苏柯尔克孜自治州,市人民政府,,28,22,90,7,35,87,,67,67,3,15,4,4,0,0.3
2026-01-15T1100,3665A,76.1654,39.7157,克孜勒苏柯尔克孜自治州,克州文化中心,,40,40,82,14,35,81,,51,51,2,18,4,6,0.2,0.8
2026-01-15T1100,1450A,102.8203,24.889,昆明市,呈贡新区,细颗粒物(PM2.5),70,83,52,51,42,31,,28,28,40,25,4,4,1.2,0.9
2026-01-15T1100,1452A,102.7253,25.0904,昆明市,龙泉镇,细颗粒物(PM2.5),73,68,51,53,34,46,,72,64,30,26,6,4,0.6,0.5
2026-01-15T1100,1453A,102.7267,25.0378,昆明市,东风东路,细颗粒物(PM2.5),84,103,47,62,34,39,,62,57,38,20,7,9,0.7,0.5
2026-01-15T1100,1454A,102.6744,25.0671,昆明市,金鼎山,细颗粒物(PM2.5),77,65,46,56,33,38,,69,63,41,18,3,4,1.0,0.7
2026-01-15T1100,1455A,102.6643,25.0401,昆明市,碧鸡广场,细颗粒物(PM2.5),70,74,46,51,31,38,,68,59,40,21,4,6,0.7,0.5
2026-01-15T1100,3179A,102.7491,25.012,昆明市,官渡区博物馆,细颗粒物(PM2.5),84,116,50,62,33,31,,47,47,52,28,5,7,0.5,0.3
2026-01-15T1100,3375A,102.8016,24.8336,昆明市,青年创业园,细颗粒物(PM2.5),77,76,48,56,33,41,,40,40,18,19,6,5,0.8,0.6
2026-01-15T1100,3550A,102.8,24.9787,昆明市,昆明学院,,,,54,,33,,,89,60,,23,,5,,0.4
2026-01-15T1100,3551A,102.5969,24.6738,昆明市,晋宁区生态环境分局,,,68,53,39,33,47,,25,25,,22,4,3,0.7,0.6
2026-01-15T1100,3552A,102.6673,24.9861,昆明市,云天化总部,"颗粒物(PM10),细颗粒物(PM2.5)",69,87,46,50,30,45,,54,54,40,21,6,10,0.6,0.4
2026-01-15T1100,1456A,91.132,29.6515,拉萨市,八廓街,,27,27,32,17,19,59,,50,50,14,25,7,8,0.4,0.5
2026-01-15T1100,1457A,91.1221,29.6748,拉萨市,市环保局,,26,26,60,18,28,42,,24,24,25,39,8,11,0.8,1.6
2026-01-15T1100,1458A,91.0874,29.6476,拉萨市,区监测站,,25,25,28,13,15,51,,34,34,23,41,4,5,0.9,1
2026-01-15T1100,1459A,91.1774,29.6541,拉萨市,西藏大学,,20,20,28,8,14,51,,49,49,17,24,5,6,0.4,0.5
2026-01-15T1100,1460A,90.9798,29.6586,拉萨市,区辐射站,颗粒物(PM10),54,57,55,36,24,41,,37,37,38,42,6,6,0.9,1
2026-01-15T1100,1461A,91.0831,29.6292,拉萨市,拉萨火车站,颗粒物(PM10),52,53,29,25,17,17,,21,20,58,34,6,5,1.4,0.9
2026-01-15T1100,2520A,109.2203,23.7252,来宾市,来宾技工学校,细颗粒物(PM2.5),143,128,124,109,92,66,,20,20,19,37,12,13,1.1,1.1
2026-01-15T1100,3535A,109.1781,23.7293,来宾市,兴宾区政府,细颗粒物(PM2.5),145,129,135,111,106,68,,52,49,19,23,11,12,1.0,0.9
2026-01-15T1100,4002A,109.2312,23.7428,来宾市,中南小学,细颗粒物(PM2.5),130,119,125,99,84,64,,15,15,21,46,8,8,1.1,1
2026-01-15T1100,1479A,103.8309,36.0467,兰州市,铁路设计院,,,,,,,,,,,,,,,,
2026-01-15T1100,3241A,103.7439,36.0841,兰州市,百合公园,颗粒物(PM10),81,112,125,38,40,15,,6,6,61,62,18,15,1.4,1.4
2026-01-15T1100,3242A,103.9613,35.9985,兰州市,和平,,,148,121,73,34,,,34,21,53,23,30,12,2.5,1
2026-01-15T1100,4236A,103.629272,36.093822,兰州市,庄浪东路808号,颗粒物(PM10),85,119,138,47,49,28,,13,13,48,65,35,23,1.3,1.1
2026-01-15T1100,4237A,103.7251,36.104344,兰州市,安宁西路88号,颗粒物(PM10),82,114,140,43,38,32,,7,7,54,64,29,15,1.0,0.9
2026-01-15T1100,4238A,103.846982,36.067567,兰州市,北滨河东路1号,颗粒物(PM10),91,132,144,44,43,12,,4,4,66,68,21,14,2.6,1.6
2026-01-15T1100,1067A,116.6712,39.5109,廊坊市,药材公司,细颗粒物(PM2.5),134,138,90,102,64,16,,4,4,55,54,5,5,1.1,1.1
2026-01-15T1100,1068A,116.7215,39.5592,廊坊市,开发区,细颗粒物(PM2.5),139,160,94,106,64,9,,2,2,68,57,4,4,1.1,0.9
2026-01-15T1100,1070A,116.7246,39.5273,廊坊市,北华航天学院,细颗粒物(PM2.5),144,154,100,110,65,22,,6,6,51,55,7,5,0.9,1
2026-01-15T1100,2919A,116.7022,39.5454,廊坊市,河北工业大学,,,,97,,63,20,,4,4,,56,4,5,0.9,0.9
2026-01-15T1100,2536A,103.7629,29.5844,乐山市,牛耳桥,细颗粒物(PM2.5),99,89,88,74,72,3,,2,2,38,47,5,6,1.1,0.9
2026-01-15T1100,2537A,103.7501,29.6002,乐山市,市第三水厂,细颗粒物(PM2.5),88,87,88,65,67,6,,3,3,49,54,7,7,0.9,0.9
2026-01-15T1100,2538A,103.7571,29.5664,乐山市,市监测站,细颗粒物(PM2.5),100,95,85,75,70,5,,3,3,41,37,6,8,1.2,1
2026-01-15T1100,3361A,103.7313,29.563,乐山市,理工大学,细颗粒物(PM2.5),149,142,83,114,63,5,,5,2,49,39,7,6,1.0,0.6
2026-01-15T1100,2599A,100.2497,26.8802,丽江市,丽江古城,,,,34,,18,,,52,44,30,16,,10,0.7,0.5
2026-01-15T1100,2600A,100.2203,26.8906,丽江市,市中心,,36,36,38,14,16,63,,52,44,20,18,7,7,0.5,0.5
2026-01-15T1100,1267A,119.9141,28.4513,丽水市,监测站大楼,,,63,54,33,37,52,,12,12,,44,6,7,0.6,0.6
2026-01-15T1100,1268A,119.93,28.4589,丽水市,莲都小学,颗粒物(PM10),51,52,59,26,28,59,,16,16,30,51,/,/,/,/
2026-01-15T1100,1269A,119.8794,28.4232,丽水市,余庄前,细颗粒物(PM2.5),58,62,61,41,36,44,,10,10,46,37,8,5,0.5,0.4
2026-01-15T1100,1173A,119.1759,34.5885,连云港市,市环境监测站,细颗粒物(PM2.5),233,237,210,183,169,40,,11,11,51,60,24,17,1.3,1
2026-01-15T1100,3000A,119.3577,34.6971,连云港市,德源药业,细颗粒物(PM2.5),228,244,207,178,149,24,,10,8,73,64,13,9,1.6,1.3
2026-01-15T1100,3007A,119.178,34.8442,连云港市,新城一中,细颗粒物(PM2.5),249,235,219,199,188,36,,9,9,72,85,22,15,1.6,1.4
2026-01-15T1100,3008A,119.3607,34.7519,连云港市,胡沟管理处,细颗粒物(PM2.5),223,234,187,173,135,40,,27,27,76,72,30,17,1.8,1.2
2026-01-15T1100,3009A,119.1478,34.5913,连云港市,矿山设计院,细颗粒物(PM2.5),233,246,221,183,159,31,,10,10,65,67,17,16,1.5,1.4
2026-01-15T1100,3434A,119.2414,34.6539,连云港市,工贸学校,细颗粒物(PM2.5),267,265,211,217,168,25,,21,17,73,51,19,16,1.7,1.4
2026-01-15T1100,3664A,119.4171,34.734,连云港市,连云街道,细颗粒物(PM2.5),235,257,183,185,118,6,,52,26,110,63,18,12,1.6,1.1
2026-01-15T1100,2573A,102.2629,27.8981,凉山彝族自治州,西昌市政府,,42,42,41,29,27,70,,66,64,12,11,9,7,0.6,0.5
2026-01-15T1100,2574A,102.2686,27.885,凉山彝族自治州,凉山州政府,,44,44,41,26,29,66,,65,64,15,13,11,8,0.7,0.5
2026-01-15T1100,4229A,102.2342,27.8859,凉山彝族自治州,凯乐南路30号,,,56,50,34,29,,,61,61,19,20,,8,0.7,0.5
2026-01-15T1100,2212A,123.1978,41.2036,辽阳市,宏伟区,细颗粒物(PM2.5),92,82,52,68,32,32,,49,35,20,11,5,5,1.1,0.7
2026-01-15T1100,2213A,123.1684,41.2497,辽阳市,新华园,细颗粒物(PM2.5),97,80,52,72,40,29,,40,26,24,20,5,8,0.9,0.5
2026-01-15T1100,2214A,123.2355,41.2663,辽阳市,滨河路,细颗粒物(PM2.5),90,84,47,67,31,22,,33,20,22,16,5,11,0.6,0.2
2026-01-15T1100,4083A,123.153,41.2874,辽阳市,铁西路150号,细颗粒物(PM2.5),93,73,48,69,35,30,,32,22,21,19,9,9,1.1,0.8
2026-01-15T1100,2227A,125.1359,42.8845,辽源市,环保局,颗粒物(PM10),55,59,43,38,28,51,,37,35,22,30,9,9,0.7,0.6
2026-01-15T1100,4085A,125.0998,42.9134,辽源市,安宁大街333号,,,59,41,46,29,49,,45,43,,16,2,10,0.7,0.6
2026-01-15T1100,1625A,115.9789,36.4372,聊城市,区政府,细颗粒物(PM2.5),203,256,226,153,141,30,,13,13,63,69,20,17,1.5,1.5
2026-01-15T1100,3200A,115.9772,36.4986,聊城市,监控中心,细颗粒物(PM2.5),206,273,228,156,154,37,,17,17,56,67,13,12,1.4,1.5
2026-01-15T1100,3513A,116.0443,36.436,聊城市,九州社区,细颗粒物(PM2.5),219,264,218,169,145,32,,19,19,53,53,12,10,1.2,1.1
2026-01-15T1100,4018A,116.0564,36.4609,聊城市,星美广场,细颗粒物(PM2.5),211,288,230,161,138,27,,14,14,70,60,10,10,1.4,1.3
2026-01-15T1100,4113A,116.0091,36.4495,聊城市,利民路,细颗粒物(PM2.5),220,258,215,170,147,20,,6,6,65,67,17,15,1.5,1.4
2026-01-15T1100,2632A,94.3683,29.6373,林芝市,林芝监测站,,17,,11,11,6,54,,64,55,16,5,4,4,0.5,0.3
2026-01-15T1100,2633A,94.3616,29.6634,林芝市,林芝人民医院,,25,25,18,12,7,47,,63,55,19,7,3,2,0.6,0.4
2026-01-15T1100,2603A,100.0779,23.8981,临沧市,市环保局,细颗粒物(PM2.5),59,54,38,42,41,18,,30,21,20,12,6,6,0.8,0.6
2026-01-15T1100,2604A,100.0894,23.882,临沧市,市气象局,细颗粒物(PM2.5),62,69,53,44,36,15,,21,13,22,13,6,6,0.7,0.5
2026-01-15T1100,1733A,111.5552,36.0791,临汾市,临钢医院,颗粒物(PM10),124,198,191,92,94,19,,8,8,36,46,9,14,1.5,1.9
2026-01-15T1100,1734A,111.4984,36.0734,临汾市,技工学校,颗粒物(PM10),121,192,196,76,100,20,,4,4,45,54,11,18,1.3,2
2026-01-15T1100,1736A,111.5017,36.0857,临汾市,市委,颗粒物(PM10),123,195,198,80,99,19,,5,5,41,54,13,20,1.6,2
2026-01-15T1100,3018A,111.5048,36.1015,临汾市,唐尧大酒店,,,,194,,105,,,2,2,,57,9,15,1.7,2.3
2026-01-15T1100,4244A,111.4879,36.053,临汾市,启星学校,颗粒物(PM10),116,181,178,69,95,21,,4,4,45,60,14,17,1.6,2.2
2026-01-15T1100,4271A,103.2464,35.6123,临夏回族自治州,滨河东路1号,颗粒物(PM10),119,188,158,45,56,25,,13,12,33,35,11,8,1.5,1.2
2026-01-15T1100,4310A,103.207136,35.599807,临夏回族自治州,新华街21号,细颗粒物(PM2.5),105,156,137,79,61,25,,12,12,60,39,20,12,2.4,1.5
2026-01-15T1100,1618A,118.3429,35.0532,临沂市,沂河小区,细颗粒物(PM2.5),240,249,228,190,183,33,,10,10,75,75,19,23,1.7,1.6
2026-01-15T1100,1619A,118.2962,35.0568,临沂市,鲁南制药厂,细颗粒物(PM2.5),241,263,259,191,202,,,3,2,90,92,25,29,2.2,2.1
2026-01-15T1100,1620A,118.2793,34.9976,临沂市,新光毛纺厂,细颗粒物(PM2.5),249,256,227,199,183,31,,10,10,96,85,24,23,1.9,1.7
2026-01-15T1100,1621A,118.3955,35.0889,临沂市,河东保险公司,细颗粒物(PM2.5),243,263,221,193,161,23,,10,10,84,68,23,18,1.8,1.5
2026-01-15T1100,3370A,118.3563,35.0215,临沂市,十里堡居委,细颗粒物(PM2.5),218,249,242,168,169,31,,8,8,78,79,19,26,1.7,1.7
2026-01-15T1100,3496A,118.359,35.1067,临沂市,南坊新区,细颗粒物(PM2.5),201,210,202,151,151,38,,16,16,64,73,17,18,1.3,1.5
2026-01-15T1100,3860A,118.3915,35.0297,临沂市,皇山花园小区,细颗粒物(PM2.5),234,278,236,184,161,33,,15,15,88,72,23,24,1.9,1.7
2026-01-15T1100,1870A,109.4854,24.3898,柳州市,柳东小学,细颗粒物(PM2.5),210,166,112,160,98,82,,88,83,19,25,34,25,1.1,0.9
2026-01-15T1100,1871A,109.4109,24.3304,柳州市,环保监测站,细颗粒物(PM2.5),186,200,140,140,101,46,,20,20,49,55,32,14,1.7,1.4
2026-01-15T1100,1872A,109.3886,24.3408,柳州市,河西水厂,细颗粒物(PM2.5),207,295,182,157,104,38,,12,12,55,57,22,14,1.5,1.2
2026-01-15T1100,1873A,109.4263,24.2951,柳州市,市四中,细颗粒物(PM2.5),186,190,144,140,100,2,,0,0,63,72,24,14,1.6,1.5
2026-01-15T1100,1874A,109.396,24.3658,柳州市,市九中,细颗粒物(PM2.5),195,194,145,146,103,45,,23,23,51,53,30,20,1.5,1.3
2026-01-15T1100,1875A,109.4912,24.3164,柳州市,古亭山,细颗粒物(PM2.5),166,,91,126,65,32,,6,6,65,61,26,14,2.0,0.8
2026-01-15T1100,3402A,109.5422,24.3994,柳州市,市二中,细颗粒物(PM2.5),176,,104,133,83,53,,20,20,32,44,17,15,1.1,0.9
2026-01-15T1100,2307A,116.5078,31.7369,六安市,监测大楼,颗粒物(PM10),61,71,63,38,50,54,,46,44,44,40,7,5,0.4,0.4
2026-01-15T1100,2308A,116.4738,31.7642,六安市,皖西学院,颗粒物(PM10),70,90,70,38,48,54,,34,34,48,38,6,6,0.6,0.5
2026-01-15T1100,2309A,116.4997,31.7904,六安市,朝阳厂,颗粒物(PM10),61,71,67,41,49,49,,54,50,48,36,7,7,0.8,0.5
2026-01-15T1100,2310A,116.5566,31.7885,六安市,开发区,颗粒物(PM10),62,73,89,43,56,43,,31,28,58,56,7,6,0.5,0.5
2026-01-15T1100,2577A,104.8293,26.592,六盘水市,黄土坡,颗粒物(PM10),65,80,63,46,49,52,,53,52,47,24,21,19,1.2,0.9
2026-01-15T1100,2579A,104.8481,26.5898,六盘水市,民中,细颗粒物(PM2.5),70,74,60,51,51,59,,58,54,35,29,16,12,0.9,0.7
2026-01-15T1100,2580A,104.9541,26.5506,六盘水市,双水,细颗粒物(PM2.5),63,63,71,45,49,68,,64,55,17,16,7,8,0.5,0.7
2026-01-15T1100,4151A,104.8899,26.5685,六盘水市,钟山大道中段564号,,,67,81,41,54,,,50,39,22,26,16,17,0.8,1.5
2026-01-15T1100,2336A,117.022,25.1031,龙岩市,龙岩市监测站,,44,44,42,28,25,67,,27,27,28,39,17,22,0.6,0.6
2026-01-15T1100,2337A,117.0257,25.0662,龙岩市,闽西职业技术学院,颗粒物(PM10),54,58,44,32,20,69,,32,32,28,30,13,16,0.8,0.5
2026-01-15T1100,2338A,117.0195,25.0306,龙岩市,龙岩学院,颗粒物(PM10),51,51,38,21,22,67,,40,39,25,18,15,10,/,/
2026-01-15T1100,2885A,104.9344,33.3827,陇南市,滨江中学,,,83,105,26,34,,,20,17,26,38,16,14,1.0,1.4
2026-01-15T1100,3247A,104.9551,33.3709,陇南市,市总工会,颗粒物(PM10),82,113,85,49,32,24,,32,23,37,27,16,11,1.2,0.8
2026-01-15T1100,2488A,111.9984,27.7346,娄底市,市监测站,细颗粒物(PM2.5),102,101,101,76,75,52,,55,46,48,45,11,16,1.3,1.2
2026-01-15T1100,2491A,111.9888,27.7035,娄底市,市政府,细颗粒物(PM2.5),124,129,101,94,77,42,,20,20,29,36,9,10,1.0,1.1
2026-01-15T1100,4127A,111.9812,27.7591,娄底市,涟钢职大,细颗粒物(PM2.5),94,109,95,70,65,26,,57,47,60,39,11,13,1.3,1
2026-01-15T1100,4128A,112.0303,27.7457,娄底市,娄底体校,细颗粒物(PM2.5),94,85,103,70,78,50,,22,22,32,36,8,6,0.7,1.2
2026-01-15T1100,1894A,105.4427,28.9063,泸州市,小市上码头,细颗粒物(PM2.5),117,110,156,88,116,45,,34,34,17,33,10,11,1.3,1.4
2026-01-15T1100,1895A,105.4241,28.8573,泸州市,兰田宪桥,细颗粒物(PM2.5),133,142,179,101,125,36,,24,24,16,22,9,8,1.3,1.4
2026-01-15T1100,1896A,105.4378,28.8833,泸州市,市环监站,细颗粒物(PM2.5),120,116,151,91,115,40,,32,32,22,30,9,9,1.1,1.3
2026-01-15T1100,4272A,105.3689,28.7783,泸州市,纳溪中医医院,细颗粒物(PM2.5),156,130,142,119,130,16,,18,14,23,23,8,8,1.3,1.2
2026-01-15T1100,2183A,111.1447,37.5212,吕梁市,环保局,颗粒物(PM10),159,268,247,78,64,19,,,,28,26,13,10,,0.5
2026-01-15T1100,2185A,111.1285,37.5338,吕梁市,自来水公司,颗粒物(PM10),195,339,382,74,82,16,,5,5,27,37,16,9,1.0,0.9
2026-01-15T1100,2867A,111.1225,37.5093,吕梁市,马茂庄小学,颗粒物(PM10),195,340,428,92,96,17,,5,5,30,45,17,10,0.5,0.4
2026-01-15T1100,1812A,112.3934,34.6517,洛阳市,市委党校,颗粒物(PM10),93,135,109,46,52,36,,15,15,37,43,10,12,0.7,0.9
2026-01-15T1100,1815A,112.494,34.6883,洛阳市,河南林校,,,,123,,56,36,,10,8,41,51,,15,0.9,1
2026-01-15T1100,1816A,112.3843,34.623,洛阳市,开发区管委会,颗粒物(PM10),91,131,115,40,51,40,,22,22,28,34,11,12,0.7,0.8
2026-01-15T1100,1817A,112.4263,34.6249,洛阳市,市委新办公区,颗粒物(PM10),87,123,104,51,49,41,,25,25,30,36,11,12,0.4,0.5
2026-01-15T1100,3340A,112.6005,34.6323,洛阳市,伊滨,颗粒物(PM10),76,101,109,53,58,50,,19,19,19,37,12,10,0.5,0.6
2026-01-15T1100,3341A,112.495,34.6338,洛阳市,中移产业园,颗粒物(PM10),86,121,98,39,46,41,,28,28,23,29,11,12,0.5,0.6
2026-01-15T1100,3593A,112.5736,34.8993,洛阳市,吉利监测站,颗粒物(PM10),109,168,114,47,43,40,,27,18,31,34,10,10,0.6,0.7
2026-01-15T1100,3635A,112.3678,34.6623,洛阳市,河科大西苑校区,颗粒物(PM10),117,183,127,52,48,32,,9,9,45,43,14,13,0.9,0.9
2026-01-15T1100,3636A,112.4387,34.678,洛阳市,英才小学,,,,138,,64,25,,6,6,,54,18,16,,1
2026-01-15T1100,4214A,112.460027,34.694929,洛阳市,春都路1号院,颗粒物(PM10),119,187,144,65,54,29,,10,10,39,43,14,13,1.0,1
2026-01-15T1100,2399A,114.051,33.5721,漯河市,三五一五工厂,细颗粒物(PM2.5),107,152,172,80,123,52,,30,22,28,49,8,11,0.6,0.9
2026-01-15T1100,2400A,114.0055,33.5698,漯河市,漯河大学,颗粒物(PM10),85,120,149,61,107,51,,29,26,22,42,7,10,0.9,1.1
2026-01-15T1100,2401A,114.0134,33.5826,漯河市,市水利局,细颗粒物(PM2.5),92,114,150,68,110,47,,22,21,22,40,8,10,0.8,1
2026-01-15T1100,2402A,114.0261,33.5697,漯河市,市广电局,细颗粒物(PM2.5),92,127,150,68,109,52,,40,34,29,42,9,10,0.8,1
2026-01-15T1100,3478A,113.9691,33.568,漯河市,市图书馆,细颗粒物(PM2.5),115,137,175,87,126,48,,30,28,20,38,6,8,0.8,0.9
2026-01-15T1100,4250A,114.089259,33.588274,漯河市,韶山路11号,细颗粒物(PM2.5),104,128,161,78,109,52,,40,30,27,42,8,11,0.7,1
2026-01-15T1100,1798A,118.5084,31.6838,马鞍山市,湖东路四小,细颗粒物(PM2.5),103,150,107,77,64,27,,6,6,72,74,9,9,0.8,1.1
2026-01-15T1100,1799A,118.5019,31.6449,马鞍山市,开发区,细颗粒物(PM2.5),117,142,118,88,77,,,1,1,65,77,8,10,0.8,1
2026-01-15T1100,3633A,118.4914,31.681,马鞍山市,雨山,细颗粒物(PM2.5),123,147,106,93,69,37,,10,10,67,77,12,11,0.8,1.1
2026-01-15T1100,4191A,118.527362,31.722269,马鞍山市,慈湖高新区,细颗粒物(PM2.5),123,155,116,93,73,48,,11,11,63,74,16,11,1.9,1
2026-01-15T1100,1686A,111.0285,21.469,茂名市,电白南海,颗粒物(PM10),67,83,64,46,37,56,,61,53,31,23,23,14,1.3,1.2
2026-01-15T1100,1687A,110.9294,21.6533,茂名市,茂石化七小,颗粒物(PM10),69,88,69,36,32,67,,78,59,32,22,15,9,0.6,0.6
2026-01-15T1100,1688A,110.9108,21.6688,茂名市,健康路,细颗粒物(PM2.5),85,112,60,63,33,35,,73,47,56,23,33,19,1.6,0.9
2026-01-15T1100,1689A,110.8592,21.6826,茂名市,高岭,颗粒物(PM10),97,144,84,56,31,18,,52,28,62,26,30,19,/,/
2026-01-15T1100,3450A,111.0101,21.5165,茂名市,电白水东,颗粒物(PM10),71,92,54,41,29,49,,77,64,41,17,33,13,/,/
2026-01-15T1100,2540A,103.8414,30.0871,眉山市,气象局,细颗粒物(PM2.5),128,110,96,97,75,7,,6,5,47,39,14,12,0.9,0.7
2026-01-15T1100,3148A,103.829,30.0563,眉山市,区人社局,细颗粒物(PM2.5),110,138,94,83,68,4,,4,2,55,50,13,10,1.4,0.9
2026-01-15T1100,4148A,103.8836,30.0695,眉山市,眉职院,细颗粒物(PM2.5),82,100,86,60,56,11,,3,3,30,37,2,1,0.8,0.8
2026-01-15T1100,1690A,116.1248,24.3307,梅州市,梅江月梅,颗粒物(PM10),57,63,60,36,35,65,,24,24,28,42,/,/,/,/
2026-01-15T1100,1691A,116.0798,24.2719,梅州市,梅县新城,颗粒物(PM10),58,66,58,40,37,62,,25,25,39,46,12,8,0.8,0.7
2026-01-15T1100,3315A,116.1234,24.2994,梅州市,梅龙,颗粒物(PM10),58,66,61,36,35,55,,27,27,32,41,12,11,0.9,0.9
2026-01-15T1100,1878A,104.7775,31.4741,绵阳市,富乐山,细颗粒物(PM2.5),69,71,76,50,50,35,,12,12,22,42,8,8,0.5,0.6
2026-01-15T1100,1880A,104.6698,31.4668,绵阳市,高新区自来水公司,颗粒物(PM10),89,127,104,63,67,33,,4,4,30,48,9,9,0.9,0.9
2026-01-15T1100,3491A,104.6899,31.5324,绵阳市,西科大附属小学,颗粒物(PM10),74,98,91,44,55,20,,4,4,39,49,9,9,0.8,0.6
2026-01-15T1100,3492A,104.5647,31.5343,绵阳市,安州区旅游局,细颗粒物(PM2.5),92,80,91,68,64,41,,12,12,26,42,12,11,0.5,0.7
2026-01-15T1100,4146A,104.7092,31.4972,绵阳市,科技城新区公安局,颗粒物(PM10),94,137,132,61,53,16,,4,4,44,54,10,10,0.9,0.7
2026-01-15T1100,4226A,104.765114,31.453094,绵阳市,绵阳市气象局,,,,89,,55,,,1,1,41,56,,9,0.9,0.9
2026-01-15T1100,1784A,129.61,44.561,牡丹江市,环保大楼,,30,28,49,21,35,54,,46,46,18,34,10,9,0.4,0.6
2026-01-15T1100,1787A,129.6364,44.6075,牡丹江市,机车工厂,,46,46,55,15,32,50,,36,36,17,32,9,7,0.4,0.6
2026-01-15T1100,1788A,129.6386,44.5462,牡丹江市,第一中学,,,27,37,16,30,53,,44,44,,28,,6,0.4,0.5
2026-01-15T1100,4287A,129.5992,44.5964,牡丹江市,东晓云街98号,细颗粒物(PM2.5),54,40,55,38,47,47,,34,34,20,30,28,15,0.6,0.9
2026-01-15T1100,2531A,105.0703,29.61,内江市,市监测站,细颗粒物(PM2.5),175,,89,132,86,18,,17,16,36,32,8,7,1.4,1.1
2026-01-15T1100,2533A,105.0657,29.5807,内江市,内江二中,细颗粒物(PM2.5),185,159,106,139,91,22,,10,10,41,44,5,5,1.2,1.1
2026-01-15T1100,2534A,105.0407,29.5828,内江市,内江日报社,细颗粒物(PM2.5),158,121,94,120,84,6,,5,5,46,53,3,3,1.1,0.9
2026-01-15T1100,4147A,105.0433,29.6105,内江市,玉峰路西段888号,细颗粒物(PM2.5),160,,89,122,83,6,,4,3,39,46,2,2,1.2,1
2026-01-15T1100,2628A,92.0653,31.4846,那曲市,那曲监测站,细颗粒物(PM2.5),94,111,58,70,32,26,,24,21,38,26,20,10,1.8,1.2
2026-01-15T1100,4243A,92.0515,31.4787,那曲市,那曲市委宣传部,细颗粒物(PM2.5),104,116,52,78,27,19,,21,18,35,25,16,8,2.4,1.5
2026-01-15T1100,1291A,115.8887,28.7006,南昌市,省林业公司,细颗粒物(PM2.5),79,80,88,58,60,32,,12,12,56,74,8,9,1.1,1.3
2026-01-15T1100,1292A,115.813,28.7443,南昌市,林科所,颗粒物(PM10),65,80,66,46,43,63,,21,21,47,74,12,11,0.4,0.4
2026-01-15T1100,1294A,115.8518,28.687,南昌市,建工学校,细颗粒物(PM2.5),78,82,104,57,65,42,,16,16,52,79,18,17,1.0,1.2
2026-01-15T1100,1295A,115.8926,28.6425,南昌市,象湖,细颗粒物(PM2.5),79,86,106,58,63,50,,11,11,40,71,13,12,0.7,1.1
2026-01-15T1100,3046A,115.9084,28.6062,南昌市,机电学校,,,,114,,75,81,,15,15,52,72,12,10,0.7,0.9
2026-01-15T1100,3690A,115.9718,28.7032,南昌市,外国语学校,细颗粒物(PM2.5),88,93,95,65,69,43,,17,17,32,65,16,17,0.7,0.9
2026-01-15T1100,4106A,115.7923,28.6873,南昌市,工业二路,细颗粒物(PM2.5),88,75,74,65,57,47,,9,9,48,66,10,8,1.3,1
2026-01-15T1100,4192A,115.931587,28.686774,南昌市,南京东路235号,细颗粒物(PM2.5),89,89,118,66,79,54,,16,16,39,74,10,10,1.0,1.3
2026-01-15T1100,1906A,106.0791,30.8022,南充市,南充市委,细颗粒物(PM2.5),139,121,123,106,104,6,,2,2,34,41,4,4,1.2,1.2
2026-01-15T1100,1907A,106.1038,30.8215,南充市,南充炼油厂,细颗粒物(PM2.5),134,115,128,102,108,8,,6,4,28,35,6,6,1.2,1.1
2026-01-15T1100,4227A,106.108336,30.788436,南充市,梨树横街98号,细颗粒物(PM2.5),140,125,125,107,101,20,,10,10,29,39,6,6,1.0,0.9
2026-01-15T1100,4304A,106.1172,30.843,南充市,清泉寺北路188号,细颗粒物(PM2.5),117,95,105,88,107,20,,23,18,14,23,6,6,0.7,0.7
2026-01-15T1100,4305A,106.067,30.7616,南充市,同庆路1号,细颗粒物(PM2.5),149,147,115,114,97,7,,2,2,41,40,6,7,1.3,1.1
2026-01-15T1100,1151A,118.8033,32.1085,南京市,迈皋桥,细颗粒物(PM2.5),79,106,73,58,45,63,,29,29,47,68,8,7,0.7,0.8
2026-01-15T1100,1152A,118.7487,32.057,南京市,草场门,细颗粒物(PM2.5),94,122,86,70,51,45,,18,18,52,77,11,12,0.7,1
2026-01-15T1100,1154A,118.770105,32.004342,南京市,中华门,细颗粒物(PM2.5),83,112,75,61,47,54,,12,12,50,63,6,9,0.6,0.9
2026-01-15T1100,1155A,118.8059,32.0329,南京市,瑞金路,细颗粒物(PM2.5),89,114,82,66,53,45,,9,9,48,76,4,5,0.9,1.4
2026-01-15T1100,1156A,118.7946,32.0774,南京市,玄武湖,细颗粒物(PM2.5),89,115,70,66,41,48,,14,14,20,16,4,4,0.9,1.1
2026-01-15T1100,1157A,118.6415,32.0964,南京市,浦口,细颗粒物(PM2.5),99,134,84,74,50,47,,54,52,44,40,12,12,0.7,0.6
2026-01-15T1100,1158A,118.730129,32.000956,南京市,奥体中心,,,114,92,68,54,,,23,23,48,69,13,15,0.7,1.2
2026-01-15T1100,1159A,118.9072,32.1047,南京市,仙林大学城,细颗粒物(PM2.5),83,114,79,61,43,58,,12,12,36,71,14,13,1.0,1.2
2026-01-15T1100,3422A,118.8443,31.919,南京市,江宁彩虹桥,颗粒物(PM10),84,118,74,51,45,58,,12,12,34,71,9,7,0.7,0.8
2026-01-15T1100,3427A,118.8497,32.3599,南京市,六合雄州,细颗粒物(PM2.5),113,121,98,85,67,,,24,24,31,65,,17,1.0,1.3
2026-01-15T1100,4086A,118.7641,32.0841,南京市,新模范马路66号,细颗粒物(PM2.5),109,129,97,82,50,62,,30,30,,79,4,5,1.0,1.4
2026-01-15T1100,4249A,118.8707617,31.34017673,南京市,汶溪路181号,细颗粒物(PM2.5),95,,63,71,55,68,,25,25,34,45,15,9,1.3,0.9
2026-01-15T1100,4312A,119.019,31.6512,南京市,中山西路1号,细颗粒物(PM2.5),105,100,63,79,47,40,,24,24,44,43,6,4,1.1,0.8
2026-01-15T1100,1401A,108.3098,22.788,南宁市,二十一中,细颗粒物(PM2.5),79,73,72,58,55,69,,45,45,34,33,9,8,0.8,0.7
2026-01-15T1100,1402A,108.3135,22.8529,南宁市,北湖,细颗粒物(PM2.5),104,112,89,78,65,17,,3,3,,64,10,6,,1.1
2026-01-15T1100,1403A,108.3205,22.8222,南宁市,市监测站,细颗粒物(PM2.5),74,78,79,54,57,59,,47,47,53,45,15,14,0.8,0.8
2026-01-15T1100,1404A,108.3828,22.8038,南宁市,大自然花园,细颗粒物(PM2.5),75,91,75,55,56,74,,51,51,41,31,11,9,0.8,0.8
2026-01-15T1100,1406A,108.2397,22.8462,南宁市,区农职院,细颗粒物(PM2.5),78,86,77,57,52,34,,28,28,65,44,26,14,1.0,1
2026-01-15T1100,1407A,108.3285,22.7356,南宁市,英华嘉园,细颗粒物(PM2.5),87,90,87,64,58,60,,35,35,45,56,6,6,0.9,0.9
2026-01-15T1100,3401A,108.4829,22.762,南宁市,红星社区,细颗粒物(PM2.5),90,89,88,67,64,31,,20,16,56,47,7,7,1.0,1
2026-01-15T1100,4132A,108.2927,23.1477,南宁市,起凤路9号,细颗粒物(PM2.5),143,140,104,109,78,16,,14,6,52,39,9,4,1.0,0.8
2026-01-15T1100,4221A,108.2177,22.7774,南宁市,乐贤路16号,细颗粒物(PM2.5),90,94,94,67,55,16,,4,3,62,60,7,4,0.8,0.7
2026-01-15T1100,2332A,118.1682,26.6371,南平市,南平市监测站,,46,46,42,28,28,60,,25,25,17,27,8,7,0.4,0.5
2026-01-15T1100,2334A,118.1757,26.6276,南平市,南平七中,,41,41,37,28,24,56,,20,20,18,25,9,7,0.7,0.7
2026-01-15T1100,1168A,120.9056,31.9669,南通市,狼山街道,细颗粒物(PM2.5),133,145,97,101,64,25,,6,6,108,85,20,6,1.2,0.6
2026-01-15T1100,1170A,120.8635,32.0231,南通市,城中,细颗粒物(PM2.5),129,152,113,98,65,38,,10,10,93,100,15,9,1.2,1
2026-01-15T1100,1171A,120.9376,31.9301,南通市,星湖花园,细颗粒物(PM2.5),130,146,112,99,68,32,,12,12,111,102,21,10,1.3,0.7
2026-01-15T1100,1172A,120.8053,32.046,南通市,紫琅学院,细颗粒物(PM2.5),142,163,129,108,71,,,2,2,85,114,15,12,1.2,0.8
2026-01-15T1100,3291A,121.0631,32.0644,南通市,通州监测站,细颗粒物(PM2.5),134,129,103,102,63,53,,13,13,91,90,19,9,1.1,1
2026-01-15T1100,3432A,120.9348,31.9874,南通市,环境教育馆,细颗粒物(PM2.5),132,134,104,100,66,33,,8,8,103,91,19,10,1.2,1
2026-01-15T1100,4091A,120.8692,31.9885,南通市,洪江路,细颗粒物(PM2.5),142,140,97,108,68,15,,4,4,108,96,20,8,1.4,0.9
2026-01-15T1100,2404A,112.5338,33.0086,南阳市,瓦房庄,颗粒物(PM10),83,115,115,53,93,35,,10,10,25,37,9,8,1.3,1.2
2026-01-15T1100,2405A,112.5002,32.9734,南阳市,汉画馆,颗粒物(PM10),89,128,123,60,88,35,,10,10,27,42,9,7,1.2,1.1
2026-01-15T1100,2406A,112.5778,33.0144,南阳市,气象站,颗粒物(PM10),98,145,144,48,90,37,,11,11,25,43,8,8,1.3,1.2
2026-01-15T1100,2407A,112.548,32.9687,南阳市,理工学院,颗粒物(PM10),86,122,126,48,82,37,,12,12,26,46,8,8,1.2,1.1
2026-01-15T1100,4008A,112.5233,32.9921,南阳市,卧龙区政府,细颗粒物(PM2.5),73,86,140,53,91,34,,11,11,33,47,9,8,1.2,1.1
2026-01-15T1100,1234A,121.8352,29.9111,宁波市,区环保大楼,颗粒物(PM10),52,53,49,18,23,66,,80,58,41,37,7,6,0.5,0.5
2026-01-15T1100,1235A,121.5595,29.8208,宁波市,万里学院,,37,37,48,20,22,63,,66,56,47,37,6,5,0.6,0.6
2026-01-15T1100,1236A,121.713,29.9564,宁波市,龙赛医院,,47,47,46,22,20,56,,73,60,41,27,3,3,0.6,0.6
2026-01-15T1100,1240A,121.5855,29.8635,宁波市,太古小学,,,28,44,16,25,,,76,63,,26,,4,,0.6
2026-01-15T1100,1241A,121.5239,29.8673,宁波市,市环境监测中心,,47,47,57,18,22,54,,67,57,45,31,7,8,0.5,0.5
2026-01-15T1100,2871A,121.6156,29.9015,宁波市,万里国际学校,,38,38,43,23,19,58,,88,70,50,29,5,5,0.5,0.4
2026-01-15T1100,3710A,121.5593,29.8976,宁波市,白沙活动中心,,40,40,49,18,23,54,,66,49,42,32,5,5,0.7,0.6
2026-01-15T1100,4095A,121.8962,29.7529,宁波市,中科路88号,,29,29,39,14,19,92,,90,82,20,17,6,6,0.2,0.2
2026-01-15T1100,2341A,119.5387,26.6611,宁德市,宁德市监测站,,34,34,39,22,21,60,,33,33,25,25,3,5,0.5,0.6
2026-01-15T1100,3209A,119.5231,26.6562,宁德市,宁德一中,,37,37,36,23,24,59,,44,41,27,18,6,6,0.4,0.4
2026-01-15T1100,2618A,98.859,25.8541,怒江傈僳族自治州,州监测站,,47,47,40,32,26,28,,23,22,18,16,6,6,0.6,0.4
2026-01-15T1100,2619A,98.8607,25.8168,怒江傈僳族自治州,泸水一中,,45,36,34,31,25,16,,20,16,24,20,6,6,0.8,0.8
2026-01-15T1100,1888A,101.6891,26.571,攀枝花市,弄弄坪,细颗粒物(PM2.5),75,89,69,55,43,25,,15,15,43,35,63,21,3.7,1.5
2026-01-15T1100,1889A,101.577,26.5914,攀枝花市,河门口,细颗粒物(PM2.5),82,90,59,60,41,34,,17,17,29,25,22,21,1.4,1.5
2026-01-15T1100,1891A,101.7365,26.4986,攀枝花市,仁和,,41,41,48,25,31,32,,22,17,26,23,8,13,0.7,1
2026-01-15T1100,2835A,101.7222,26.567,攀枝花市,四十中小,,,82,70,48,43,18,,28,18,,33,28,24,2.4,1.4
2026-01-15T1100,1604A,122.0303,41.1489,盘锦市,开发区,细颗粒物(PM2.5),88,70,55,65,46,45,,32,29,13,18,6,5,1.2,1
2026-01-15T1100,1605A,122.0486,41.0883,盘锦市,兴隆台,细颗粒物(PM2.5),83,65,52,61,40,38,,29,26,26,32,6,6,1.0,0.8
2026-01-15T1100,1606A,121.8297,41.1026,盘锦市,新生街道,细颗粒物(PM2.5),92,76,52,68,38,41,,32,26,24,20,7,5,1.1,0.7
2026-01-15T1100,1832A,113.3257,33.7423,平顶山市,新华旅馆,细颗粒物(PM2.5),92,129,132,68,73,55,,13,13,31,54,7,8,0.6,0.7
2026-01-15T1100,1833A,113.2917,33.737,平顶山市,规划设计院,细颗粒物(PM2.5),110,143,155,83,83,53,,14,14,26,52,8,9,0.8,1
2026-01-15T1100,1834A,113.182,33.7738,平顶山市,平顶山工学院,细颗粒物(PM2.5),98,114,107,73,61,33,,44,36,46,33,11,11,0.6,0.5
2026-01-15T1100,3594A,112.8736,33.9068,平顶山市,石龙区,"颗粒物(PM10),细颗粒物(PM2.5)",79,108,112,58,45,68,,26,26,19,50,10,9,0.6,0.5
2026-01-15T1100,4116A,113.284,33.7139,平顶山市,姚电大道23号,细颗粒物(PM2.5),109,148,160,82,83,54,,21,21,29,50,9,10,0.7,0.8
2026-01-15T1100,2656A,106.6633,35.5338,平凉市,聚贤嘉苑,颗粒物(PM10),70,89,102,26,26,58,,37,37,20,25,15,17,0.5,0.6
2026-01-15T1100,2657A,106.7021,35.5307,平凉市,博物馆,颗粒物(PM10),67,84,107,31,30,55,,22,22,22,30,12,12,0.6,0.7
2026-01-15T1100,2348A,113.8384,27.6436,萍乡市,中医院,细颗粒物(PM2.5),129,163,120,98,71,35,,12,12,64,49,41,11,3.5,1.8
2026-01-15T1100,2350A,113.8677,27.6438,萍乡市,市环保局,细颗粒物(PM2.5),119,118,88,90,65,41,,13,13,57,47,44,18,2.2,1.3
2026-01-15T1100,2351A,113.8663,27.6202,萍乡市,安源区政府,细颗粒物(PM2.5),117,96,94,88,86,29,,15,15,38,35,21,14,1.5,1.6
2026-01-15T1100,4107A,113.8686,27.6668,萍乡市,联洪村委会,细颗粒物(PM2.5),134,,99,102,63,32,,15,15,65,45,13,6,2.6,1.1
2026-01-15T1100,2319A,119.0142,25.4324,莆田市,荔城区仓后路,颗粒物(PM10),61,72,45,27,22,74,,60,57,24,18,/,/,/,/
2026-01-15T1100,2320A,119.0016,25.4553,莆田市,莆田市监测站,,36,36,32,11,15,84,,82,72,15,10,2,3,0.5,0.5
2026-01-15T1100,2321A,119.112,25.4561,莆田市,涵江区六中,,48,48,37,15,17,86,,77,70,14,13,/,/,0.6,0.5
2026-01-15T1100,2322A,119.1014,25.3215,莆田市,秀屿区政府,颗粒物(PM10),83,115,49,45,27,67,,76,56,31,16,5,3,0.6,0.5
2026-01-15T1100,2392A,115.0312,35.7636,濮阳市,环保局,颗粒物(PM10),103,155,133,51,70,45,,23,23,35,55,12,11,0.6,0.8
2026-01-15T1100,3021A,115,35.7667,濮阳市,濮水河管理处,颗粒物(PM10),114,177,148,55,73,45,,20,20,29,55,9,9,0.7,1.1
2026-01-15T1100,4118A,115.0552,35.7816,濮阳市,中原东路68号,颗粒物(PM10),110,170,152,46,69,45,,25,25,32,56,9,10,0.5,0.8
2026-01-15T1100,4216A,115.0923632,35.76857718,濮阳市,任丘路479号,颗粒物(PM10),104,157,152,66,80,34,,11,11,41,61,9,11,0.8,1.1
2026-01-15T1100,2601A,100.9801,22.7634,普洱市,市环保局,颗粒物(PM10),66,81,53,15,16,21,,31,26,35,13,5,5,0.7,0.4
2026-01-15T1100,2602A,100.9763,22.8237,普洱市,普洱第二中学,颗粒物(PM10),57,64,48,33,20,34,,25,25,24,19,5,5,0.4,0.4
2026-01-15T1100,3345A,131.0413,45.7795,七台河市,中波台,细颗粒物(PM2.5),72,88,37,52,26,29,,21,21,27,24,13,9,0.7,0.6
2026-01-15T1100,3637A,131.0136,45.7688,七台河市,人民广场,细颗粒物(PM2.5),70,70,42,51,33,36,,17,17,31,34,10,7,0.7,0.7
2026-01-15T1100,3684A,130.8639,45.8144,七台河市,新建矿广场,,,66,36,21,26,,,31,26,21,20,17,7,0.6,0.3
2026-01-15T1100,1779A,123.9307,47.3641,齐齐哈尔市,安居小区,颗粒物(PM10),62,73,42,43,31,40,,23,23,24,31,10,9,0.7,0.6
2026-01-15T1100,1780A,123.9497,47.3389,齐齐哈尔市,中心广场,细颗粒物(PM2.5),140,,31,107,27,31,,26,26,31,26,17,9,1.0,0.8
2026-01-15T1100,1781A,123.9483,47.3229,齐齐哈尔市,农牧车辆厂,,,,37,,22,,,25,23,26,15,12,8,0.7,0.5
2026-01-15T1100,1783A,123.9442,47.2994,齐齐哈尔市,市环境监测站,细颗粒物(PM2.5),84,81,45,62,28,28,,17,14,35,30,10,9,1.0,0.8
2026-01-15T1100,3662A,123.6341,47.2079,齐齐哈尔市,富区青少年活动中心,细颗粒物(PM2.5),70,61,48,51,30,48,,30,30,15,19,9,6,0.7,0.6
2026-01-15T1100,2591A,107.9765,26.5724,黔东南苗族侗族自治州,市环境监测站,细颗粒物(PM2.5),149,127,117,114,100,6,,9,6,28,36,5,7,1.0,1
2026-01-15T1100,2881A,107.8909,26.531,黔东南苗族侗族自治州,凯里学院,细颗粒物(PM2.5),118,105,95,89,85,10,,5,4,19,28,2,3,1.0,0.8
2026-01-15T1100,2593A,107.5223,26.2371,黔南布依族苗族自治州,小围寨,,,92,79,70,72,,,22,22,10,12,7,6,0.9,0.9
2026-01-15T1100,3538A,107.5175,26.2977,黔南布依族苗族自治州,沙坝,细颗粒物(PM2.5),94,100,91,70,72,12,,10,7,28,20,9,7,1.1,1.1
2026-01-15T1100,2589A,104.9022,25.0943,黔西南布依族苗族自治州,场坝街,细颗粒物(PM2.5),93,73,70,69,61,59,,60,60,16,14,7,7,0.8,0.7
2026-01-15T1100,2590A,104.8812,25.0994,黔西南布依族苗族自治州,坪东大道,,,81,68,64,59,,,50,50,14,16,10,7,0.8,0.8
2026-01-15T1100,2502A,108.6238,21.9667,钦州市,市环保站,颗粒物(PM10),87,124,119,58,58,56,,26,26,53,50,6,7,0.7,0.7
2026-01-15T1100,2503A,108.655,21.9481,钦州市,沙埠小学,细颗粒物(PM2.5),112,131,108,84,59,71,,28,28,35,52,12,10,0.7,0.6
2026-01-15T1100,2504A,108.5989,21.7435,钦州市,港区一小,细颗粒物(PM2.5),70,88,91,51,52,52,,70,47,45,46,10,9,0.8,0.8
2026-01-15T1100,3404A,108.5959,21.9634,钦州市,北职校,颗粒物(PM10),110,170,93,76,55,44,,24,24,55,43,11,10,1.0,0.8
2026-01-15T1100,1046A,119.5247,39.9346,秦皇岛市,建设大厦,细颗粒物(PM2.5),90,116,98,67,61,24,,19,16,28,39,12,18,0.9,1.3
2026-01-15T1100,3132A,119.5979,39.938,秦皇岛市,文明里,颗粒物(PM10),94,138,96,51,50,27,,18,14,32,46,15,19,0.5,1.1
2026-01-15T1100,4066A,119.7458,39.9952,秦皇岛市,南园路157号,细颗粒物(PM2.5),97,106,102,72,59,27,,8,8,30,55,16,13,0.9,1.1
2026-01-15T1100,4067A,119.5131,39.8858,秦皇岛市,翠岛大街1号,细颗粒物(PM2.5),90,115,94,67,68,28,,11,11,18,38,16,21,0.9,1.4
2026-01-15T1100,4198A,119.509013,39.825305,秦皇岛市,北戴河轮滑馆,细颗粒物(PM2.5),89,122,106,66,64,25,,13,13,31,46,11,12,0.7,1.5
2026-01-15T1100,1310A,120.404,36.0625,青岛市,市南区东部子站,细颗粒物(PM2.5),180,246,162,136,94,32,,11,11,69,51,27,14,1.6,1.2
2026-01-15T1100,1311A,120.362344,36.10282,青岛市,四方区子站,细颗粒物(PM2.5),201,234,169,151,114,34,,12,12,58,46,22,8,1.7,1.4
2026-01-15T1100,1312A,120.294373,36.054183,青岛市,市南区西部子站,细颗粒物(PM2.5),196,241,156,147,95,36,,12,12,73,66,25,13,2.1,1.7
2026-01-15T1100,1313A,120.4581,36.0858,青岛市,崂山区子站,颗粒物(PM10),119,188,154,80,83,54,,17,17,40,41,21,13,1.0,0.9
2026-01-15T1100,1315A,120.3945,36.3083,青岛市,城阳区子站,细颗粒物(PM2.5),170,244,173,129,89,45,,18,18,79,62,26,14,1.8,1.6
2026-01-15T1100,3642A,120.3454,36.0735,青岛市,市北区南部,细颗粒物(PM2.5),199,234,155,149,102,22,,7,7,71,47,28,5,1.7,1.3
2026-01-15T1100,3643A,120.3897,36.18,青岛市,李沧区北部,细颗粒物(PM2.5),208,244,169,158,118,34,,11,11,71,59,29,15,1.8,1.5
2026-01-15T1100,4110A,120.5222,36.4089,青岛市,盟旺路653号,细颗粒物(PM2.5),224,287,179,174,108,34,,13,13,76,59,22,10,2.0,1.3
2026-01-15T1100,4290A,120.196923,35.954556,青岛市,珠江路669号,细颗粒物(PM2.5),170,217,149,129,104,33,,26,18,79,53,24,14,1.7,1.3
2026-01-15T1100,4291A,120.0424,35.8656,青岛市,黄岛区人民政府广场,细颗粒物(PM2.5),168,222,163,127,97,41,,20,19,66,60,23,13,1.6,1.5
2026-01-15T1100,1703A,113.0218,23.7086,清远市,凤城街办,细颗粒物(PM2.5),90,92,82,67,53,65,,62,58,56,53,/,/,/,/
2026-01-15T1100,3025A,113.0479,23.6343,清远市,技师学院,"颗粒物(PM10),细颗粒物(PM2.5)",68,85,92,49,53,104,,28,28,40,71,24,10,0.6,0.7
2026-01-15T1100,3318A,112.9898,23.7403,清远市,清新太和,细颗粒物(PM2.5),69,82,77,50,48,68,,58,40,56,41,9,6,0.8,0.6
2026-01-15T1100,3455A,113.076,23.72,清远市,清城东城,,,78,74,51,43,,,58,47,51,40,/,/,/,/
2026-01-15T1100,2661A,107.6325,35.7357,庆阳市,庆阳五中,颗粒物(PM10),79,107,153,35,43,78,,82,78,15,14,14,7,0.3,0.4
2026-01-15T1100,2662A,107.6361,35.7067,庆阳市,市环保局,颗粒物(PM10),95,139,148,49,36,80,,77,77,12,12,7,7,0.4,0.5
2026-01-15T1100,1916A,103.7897,25.5036,曲靖市,环境监测站,颗粒物(PM10),77,104,73,52,39,55,,72,66,24,16,9,11,0.8,0.6
2026-01-15T1100,1917A,103.8013,25.5357,曲靖市,烟厂办公区,颗粒物(PM10),79,107,64,51,34,55,,73,66,21,14,6,9,0.8,0.6
2026-01-15T1100,3376A,103.7926,25.4651,曲靖市,南苑二区,颗粒物(PM10),83,115,63,59,37,56,,70,65,19,12,6,10,0.7,0.6
2026-01-15T1100,3377A,103.7442,25.5259,曲靖市,曲靖师范学院,细颗粒物(PM2.5),82,96,57,60,42,63,,78,74,18,14,7,6,0.7,0.5
2026-01-15T1100,1264A,118.8694,28.94,衢州市,环保大楼,细颗粒物(PM2.5),64,75,78,46,48,29,,6,6,59,62,/,/,/,/
2026-01-15T1100,1266A,118.8622,28.9809,衢州市,衢州学院,颗粒物(PM10),52,54,63,32,39,26,,6,6,48,62,7,7,0.6,0.7
2026-01-15T1100,4097A,118.9646,28.9832,衢州市,衢州三中,颗粒物(PM10),59,67,77,41,49,24,,3,3,55,54,11,7,1.1,0.9
2026-01-15T1100,1611A,118.5818,24.9116,泉州市,涂山街,颗粒物(PM10),60,70,57,33,31,71,,49,49,28,25,4,4,0.5,0.6
2026-01-15T1100,1612A,118.597,24.8976,泉州市,津头埔,颗粒物(PM10),59,67,58,35,32,70,,49,49,30,28,6,5,0.6,0.7
2026-01-15T1100,1613A,118.6669,24.9422,泉州市,万安,颗粒物(PM10),58,65,52,28,39,74,,59,55,26,24,3,3,0.6,0.5
2026-01-15T1100,4105A,118.6355,24.9148,泉州市,霞新路6号,颗粒物(PM10),56,61,51,36,30,70,,50,50,27,33,/,/,0.6,0.5
2026-01-15T1100,2626A,88.8873,29.2723,日喀则市,日喀则监测站,,40,40,51,20,32,45,,30,30,15,30,17,23,0.5,1
2026-01-15T1100,3726A,88.8775,29.2425,日喀则市,林业技术推广中心,,42,42,23,16,13,51,,53,52,11,8,11,10,0.7,0.4
2026-01-15T1100,1659A,119.4711,35.421,日照市,监测站,细颗粒物(PM2.5),182,224,196,137,124,23,,15,10,78,75,24,20,1.5,1.6
2026-01-15T1100,1660A,119.523,35.4216,日照市,市政府广场,细颗粒物(PM2.5),132,193,182,100,115,39,,22,15,59,73,17,20,1.1,1.3
2026-01-15T1100,1661A,119.5511,35.4113,日照市,港务局,细颗粒物(PM2.5),193,219,198,145,126,31,,16,14,66,77,17,15,1.3,1.3
2026-01-15T1100,3507A,119.5326,35.4627,日照市,职业技术学院,细颗粒物(PM2.5),138,217,194,105,109,31,,24,14,73,77,18,16,1.5,1.7
2026-01-15T1100,3604A,119.3267,35.1043,日照市,岚山环保分局,细颗粒物(PM2.5),223,337,213,173,142,10,,18,15,103,79,30,20,2.2,1.7
2026-01-15T1100,1835A,111.1922,34.7752,三门峡市,市政府,颗粒物(PM10),99,147,140,47,72,41,,9,9,23,56,12,18,0.6,1.3
2026-01-15T1100,1836A,111.1588,34.794,三门峡市,开发区,颗粒物(PM10),102,153,155,43,74,33,,16,16,22,50,9,8,0.5,1
2026-01-15T1100,3039A,111.1911,34.7829,三门峡市,三门峡市第一小学,颗粒物(PM10),106,162,160,41,74,38,,20,20,20,47,10,12,0.5,1
2026-01-15T1100,3598A,111.1031,34.719,三门峡市,富达温泉假日酒店,颗粒物(PM10),106,162,155,58,74,13,,13,13,55,60,19,16,1.2,1.1
2026-01-15T1100,2324A,117.621,26.2626,三明市,三钢,,,66,45,41,34,45,,14,14,,35,22,8,,1
2026-01-15T1100,2325A,117.6352,26.2714,三明市,三明二中,细颗粒物(PM2.5),64,76,42,46,30,44,,15,15,36,32,24,7,2.3,1.1
2026-01-15T1100,2326A,117.6028,26.2377,三明市,三元区政府,颗粒物(PM10),55,59,48,36,31,48,,17,17,31,38,24,10,1.0,0.9
2026-01-15T1100,1877A,109.4962,18.2682,三亚市,河西子站,颗粒物(PM10),51,51,43,16,24,96,,94,73,14,17,3,2,0.3,0.4
2026-01-15T1100,3540A,109.7348,18.3443,三亚市,君悦子站,,,,45,17,28,95,,64,64,11,15,5,5,0.5,0.5
2026-01-15T1100,4135A,109.1714,18.3739,三亚市,城东小学站,,46,46,46,29,35,105,,62,62,10,14,/,/,/,/
2026-01-15T1100,2624A,91.7592,29.234,山南市,山南监测站,,48,48,21,27,16,43,,69,50,24,12,7,5,0.7,0.5
2026-01-15T1100,2625A,91.7701,29.2436,山南市,山南人民医院,,31,31,20,17,10,48,,61,55,15,13,8,8,0.5,0.4
2026-01-15T1100,1674A,116.6795,23.3666,汕头市,金平子站,细颗粒物(PM2.5),87,95,45,64,31,73,,71,57,45,22,19,7,0.9,0.7
2026-01-15T1100,1675A,116.7248,23.3632,汕头市,龙湖子站,颗粒物(PM10),71,92,51,43,28,62,,74,56,44,19,22,13,/,/
2026-01-15T1100,1676A,116.7257,23.2774,汕头市,濠江子站,细颗粒物(PM2.5),65,74,41,47,29,66,,81,63,35,18,16,9,/,/
2026-01-15T1100,1677A,116.7518,23.4712,汕头市,澄海子站,颗粒物(PM10),69,87,57,49,37,85,,71,56,33,23,24,11,0.8,0.7
2026-01-15T1100,1678A,116.6088,23.2539,汕头市,潮阳子站,细颗粒物(PM2.5),65,64,38,47,22,59,,88,74,35,13,11,7,1.0,0.6
2026-01-15T1100,3444A,116.4539,23.2684,汕头市,潮南峡山,细颗粒物(PM2.5),73,75,53,53,33,70,,71,61,29,19,14,10,1.0,0.7
2026-01-15T1100,3624A,116.4069,23.2533,汕头市,潮南子站,细颗粒物(PM2.5),68,76,62,49,33,71,,69,58,28,20,11,8,/,/
2026-01-15T1100,1693A,115.3653,22.7751,汕尾市,市环保局,细颗粒物(PM2.5),62,64,46,44,35,79,,78,70,22,18,8,7,0.8,0.6
2026-01-15T1100,1695A,115.362,22.7926,汕尾市,新城中学,细颗粒物(PM2.5),65,74,49,47,33,81,,82,66,22,18,6,5,0.6,0.5
2026-01-15T1100,2645A,109.9155,33.8714,商洛市,监测站,颗粒物(PM10),91,131,139,34,41,41,,25,25,18,27,4,4,0.5,0.5
2026-01-15T1100,3045A,109.9647,33.8486,商洛市,商州区中学,颗粒物(PM10),104,158,135,44,37,26,,10,10,30,31,7,5,0.8,0.6
