timepoint,stationcode,longitude,latitude,area,positionname,primarypollutant,aqi,pm10,pm10_24h,pm2_5,pm2_5_24h,o3,o3_24h,o3_8h,o3_8h_24h,no2,no2_24h,so2,so2_24h,co,co_24h
2026-01-15T1900,2568A,102.2503,31.8896,阿坝藏族羌族自治州,马师校,颗粒物(PM10),59,67,34,35,21,41,,62,62,27,18,4,4,0.7,0.5
2026-01-15T1900,3994A,102.2174,31.9016,阿坝藏族羌族自治州,马尔康中学西区,,,53,19,,10,,,66,66,40,15,6,5,0.6,0.5
2026-01-15T1900,2695A,80.2899,41.1684,阿克苏地区,电视台,颗粒物(PM10),81,111,125,37,60,87,,70,70,19,45,4,4,0.7,1.7
2026-01-15T1900,2696A,80.2592,41.1541,阿克苏地区,艺术中心,颗粒物(PM10),72,94,127,44,64,86,,59,59,14,50,6,6,0.6,1.1
2026-01-15T1900,2205A,105.699,38.8409,阿拉善盟,蒙二幼,颗粒物(PM10),79,107,104,32,28,69,,84,79,14,8,10,11,0.5,0.6
2026-01-15T1900,2206A,105.7198,38.8508,阿拉善盟,环保局新楼,颗粒物(PM10),77,104,97,31,26,70,,85,74,9,6,10,10,0.5,0.5
2026-01-15T1900,2708A,88.1266,47.8515,阿勒泰地区,市站,,34,34,45,23,32,42,,45,45,33,43,12,8,0.5,0.7
2026-01-15T1900,4166A,88.1198,47.7931,阿勒泰地区,阿勒泰路33号,,50,49,45,35,35,42,,53,53,36,30,10,6,0.6,0.7
2026-01-15T1900,2630A,80.1171,32.4999,阿里地区,阿里监测站,,22,6,4,3,3,69,,55,,2,11,5,8,0.4,0.5
2026-01-15T1900,3192A,80.0906,32.5029,阿里地区,阿里藏医院,,27,9,16,3,10,86,,79,79,1,10,9,14,0.5,0.7
2026-01-15T1900,2644A,109.0088,32.6974,安康市,汉滨区检察院,细颗粒物(PM2.5),102,115,74,76,57,13,,54,54,75,28,5,5,1.4,0.8
2026-01-15T1900,4054A,109.0324,32.6913,安康市,市邮政管理局,细颗粒物(PM2.5),93,108,90,69,65,5,,45,44,81,35,7,6,2.6,1.1
2026-01-15T1900,2291A,117.0806,30.5181,安庆市,环科院,细颗粒物(PM2.5),100,113,89,75,67,7,,84,83,122,67,9,10,0.9,0.7
2026-01-15T1900,2292A,117.0331,30.5118,安庆市,马山宾馆,细颗粒物(PM2.5),114,106,87,86,68,50,,84,84,96,75,10,10,0.9,0.8
2026-01-15T1900,2294A,116.9897,30.6146,安庆市,安庆大学,细颗粒物(PM2.5),89,108,70,66,52,39,,90,90,92,45,8,9,0.7,0.6
2026-01-15T1900,3173A,117.0598,30.5351,安庆市,市人大,细颗粒物(PM2.5),95,96,86,71,66,81,,109,109,51,65,10,13,0.7,0.6
2026-01-15T1900,3123A,105.9408,26.2431,安顺市,凤凰山,细颗粒物(PM2.5),65,61,77,47,63,107,,105,105,19,30,16,32,0.6,0.7
2026-01-15T1900,3124A,105.9443,26.2567,安顺市,金钟山,细颗粒物(PM2.5),68,59,71,49,67,101,,100,100,14,20,18,35,0.5,0.7
2026-01-15T1900,3125A,105.8983,26.248,安顺市,娄家坡,细颗粒物(PM2.5),69,58,70,50,64,104,,102,102,13,17,11,18,0.6,0.9
2026-01-15T1900,1819A,114.3552,36.1017,安阳市,红庙街,颗粒物(PM10),73,96,152,29,73,61,,62,62,25,47,3,6,0.4,1.3
2026-01-15T1900,1820A,114.361,36.0681,安阳市,银杏小区,颗粒物(PM10),73,95,141,36,76,59,,64,64,27,44,4,6,0.4,1.1
2026-01-15T1900,3141A,114.3921,36.0879,安阳市,信访局,颗粒物(PM10),70,89,148,41,82,70,,67,67,24,48,4,8,0.5,1.4
2026-01-15T1900,3669A,114.4706,36.0634,安阳市,左辅环卫站,,,117,168,43,134,48,,61,61,,54,4,9,0.3,1.1
2026-01-15T1900,4117A,114.2918,36.0769,安阳市,钢三路198号,颗粒物(PM10),72,94,146,32,60,60,,63,63,28,40,4,6,0.2,0.9
2026-01-15T1900,1748A,123.0441,41.1201,鞍山市,深沟寺,细颗粒物(PM2.5),67,65,73,48,55,46,,44,44,33,26,9,7,0.9,1.1
2026-01-15T1900,1749A,123.011,41.0931,鞍山市,太阳城,细颗粒物(PM2.5),65,64,94,47,57,50,,50,50,34,29,13,12,1.0,1.4
2026-01-15T1900,1750A,123.0483,41.1445,鞍山市,太平,细颗粒物(PM2.5),72,68,82,52,53,45,,45,45,34,30,11,9,0.8,1
2026-01-15T1900,1751A,122.964,41.0968,鞍山市,铁西三道街,细颗粒物(PM2.5),72,70,105,52,71,32,,36,36,52,49,19,17,1.2,1.5
2026-01-15T1900,1753A,123.0219,41.0822,鞍山市,明达新区,细颗粒物(PM2.5),65,60,81,47,60,45,,43,43,30,27,12,11,0.6,1
2026-01-15T1900,4201A,122.944647,41.082639,鞍山市,兴盛南路290号,细颗粒物(PM2.5),73,75,109,53,74,32,,38,38,48,45,19,13,1.2,1.5
2026-01-15T1900,2195A,107.4206,40.7609,巴彦淖尔市,附二中,颗粒物(PM10),59,68,112,24,37,69,,67,67,8,8,3,3,0.4,0.4
2026-01-15T1900,2196A,107.37,40.7372,巴彦淖尔市,市环保大楼,颗粒物(PM10),57,63,110,28,31,74,,77,77,8,10,5,4,0.4,0.4
2026-01-15T1900,1956A,86.1476,41.7529,巴音郭楞蒙古自治州,孔雀公园,颗粒物(PM10),69,88,103,34,41,69,,63,63,27,45,10,9,0.6,0.8
2026-01-15T1900,1957A,86.1971,41.7166,巴音郭楞蒙古自治州,棉纺厂,颗粒物(PM10),80,110,137,32,38,62,,64,64,18,36,/,/,/,/
2026-01-15T1900,1958A,86.236,41.7172,巴音郭楞蒙古自治州,经济开发区,颗粒物(PM10),65,79,96,18,29,76,,67,67,15,26,6,6,0.5,0.5
2026-01-15T1900,3181A,106.776805,31.852614,巴中市,市五中,细颗粒物(PM2.5),104,104,104,78,76,61,,72,72,28,29,6,6,0.9,0.9
2026-01-15T1900,3183A,106.7419,31.8654,巴中市,圣泉水务公司,细颗粒物(PM2.5),109,99,87,82,67,31,,72,72,55,35,6,6,1.0,0.8
2026-01-15T1900,3616A,106.7617,31.8343,巴中市,市中心医院,细颗粒物(PM2.5),128,127,104,97,76,16,,67,67,70,35,7,7,1.4,1
2026-01-15T1900,2235A,122.7909,45.608,白城市,洮北区环保局,细颗粒物(PM2.5),60,44,34,43,26,31,,50,49,37,19,9,6,0.6,0.4
2026-01-15T1900,2236A,122.8741,45.5725,白城市,市环保局,,38,36,31,26,24,6,,49,44,55,18,10,7,0.4,0.4
2026-01-15T1900,2231A,126.4219,41.9172,白山市,喜丰,颗粒物(PM10),54,57,54,36,34,58,,48,48,20,40,15,23,0.9,1.1
2026-01-15T1900,2232A,126.4082,41.9416,白山市,环保局,细颗粒物(PM2.5),69,,41,50,39,61,,42,42,16,36,14,15,0.7,1.1
2026-01-15T1900,2647A,104.1727,36.5448,白银市,第三小学,颗粒物(PM10),142,234,112,32,36,79,,68,68,14,39,2,35,0.2,0.7
2026-01-15T1900,2648A,104.1467,36.5482,白银市,动力公司,颗粒物(PM10),148,245,105,33,33,80,,73,73,10,28,2,21,0.4,0.8
2026-01-15T1900,2512A,106.6102,23.901,百色市,市监测站,细颗粒物(PM2.5),58,58,71,41,57,58,,71,71,23,18,7,8,0.8,0.8
2026-01-15T1900,2513A,106.6524,23.8842,百色市,市中心血站,,,62,92,45,74,43,,70,70,41,38,8,8,,1.1
2026-01-15T1900,4133A,106.6273,23.8798,百色市,龙景西路,细颗粒物(PM2.5),62,65,101,44,72,72,,78,78,22,28,7,8,0.8,0.8
2026-01-15T1900,2270A,117.396,32.9389,蚌埠市,工人疗养院,颗粒物(PM10),96,142,139,51,73,71,,89,89,48,52,7,8,0.6,0.8
2026-01-15T1900,2271A,117.3606,32.9428,蚌埠市,百货大楼,颗粒物(PM10),90,130,136,56,76,15,,84,81,100,52,8,9,0.6,0.7
2026-01-15T1900,2273A,117.4183,32.8909,蚌埠市,蚌埠学院,颗粒物(PM10),97,144,134,50,80,54,,92,92,58,50,7,8,0.4,0.7
2026-01-15T1900,2274A,117.3534,32.9672,蚌埠市,淮上区政府,颗粒物(PM10),91,132,131,48,76,79,,97,94,48,52,5,6,0.4,0.7
2026-01-15T1900,2275A,117.3143,32.8977,蚌埠市,高新区,颗粒物(PM10),93,136,138,58,86,16,,83,78,79,54,9,10,0.4,0.5
2026-01-15T1900,3715A,117.3091,32.9314,蚌埠市,蚌埠田家炳中学,颗粒物(PM10),91,131,146,59,87,74,,90,90,40,61,7,13,0.6,0.7
2026-01-15T1900,1585A,109.8761,40.6533,包头市,市环境监测站,颗粒物(PM10),87,123,150,40,37,61,,48,48,27,53,5,14,0.3,1.1
2026-01-15T1900,1587A,109.9992,40.5843,包头市,包头八中,颗粒物(PM10),104,158,166,55,65,35,,45,43,49,55,6,18,0.7,1.5
2026-01-15T1900,1589A,109.8641,40.6288,包头市,惠龙物流,颗粒物(PM10),92,133,148,54,49,52,,45,45,39,56,11,24,0.8,1.8
2026-01-15T1900,1590A,110.0376,40.5546,包头市,东河鸿龙湾,,,128,153,35,39,,,54,54,52,58,13,16,0.6,1.5
2026-01-15T1900,3283A,109.9154,40.5684,包头市,滨河大厦,颗粒物(PM10),93,136,149,56,42,45,,53,53,63,46,21,15,1.4,1.1
2026-01-15T1900,3419A,109.9449,40.6259,包头市,包头市委党校,颗粒物(PM10),75,100,151,25,44,59,,49,49,28,53,9,16,0.5,1.6
2026-01-15T1900,3683A,109.8332,40.6577,包头市,昆区政府,颗粒物(PM10),95,140,150,35,53,48,,38,38,46,67,9,19,0.8,1.7
2026-01-15T1900,1931A,107.0802,34.3129,宝鸡市,竹园沟,细颗粒物(PM2.5),87,114,101,64,35,43,,60,60,31,23,7,7,0.4,0.3
2026-01-15T1900,1933A,107.1429,34.3549,宝鸡市,监测站,颗粒物(PM10),101,151,118,52,39,39,,56,56,53,34,6,6,0.9,0.6
2026-01-15T1900,1934A,107.1172,34.3759,宝鸡市,技工学校,颗粒物(PM10),87,123,121,43,44,49,,58,58,48,33,5,9,0.8,0.8
2026-01-15T1900,1936A,107.2025,34.3518,宝鸡市,文理学院,颗粒物(PM10),86,122,112,50,40,56,,61,61,38,36,6,6,0.4,0.5
2026-01-15T1900,1937A,107.2396,34.3626,宝鸡市,三迪小学,颗粒物(PM10),100,149,125,63,50,43,,57,57,56,46,5,5,0.6,0.7
2026-01-15T1900,4155A,107.1721,34.3558,宝鸡市,滨河北路,颗粒物(PM10),96,141,116,46,37,43,,60,60,51,33,6,6,0.5,0.6
2026-01-15T1900,4308A,107.3898,34.3601,宝鸡市,陈仓区北开路21号,细颗粒物(PM2.5),123,181,120,93,50,56,,66,66,42,38,8,36,0.6,0.7
2026-01-15T1900,1051A,115.4803,38.8568,保定市,游泳馆,细颗粒物(PM2.5),160,209,146,122,102,19,,43,39,84,64,10,10,1.2,0.9
2026-01-15T1900,1052A,115.509,38.8895,保定市,华电二区,颗粒物(PM10),124,198,137,3,107,2,,29,27,100,62,6,6,1.2,0.9
2026-01-15T1900,1053A,115.4588,38.9037,保定市,接待中心,细颗粒物(PM2.5),172,200,145,130,102,13,,35,34,86,58,5,4,1.1,1
2026-01-15T1900,1054A,115.4484,38.8344,保定市,地表水厂,细颗粒物(PM2.5),159,224,178,121,110,18,,36,36,82,62,9,8,0.9,0.9
2026-01-15T1900,3581A,115.3136,38.9511,保定市,满城区生态环境分局,细颗粒物(PM2.5),199,310,199,149,118,4,,31,30,99,63,9,5,1.2,1.2
2026-01-15T1900,3582A,115.4709,38.7628,保定市,清苑区第二中学,颗粒物(PM10),156,262,185,115,105,11,,35,34,92,61,6,6,1.0,1
2026-01-15T1900,3583A,115.6231,39.0223,保定市,徐水物探局,细颗粒物(PM2.5),169,282,191,128,107,7,,21,21,77,59,10,8,1.1,1
2026-01-15T1900,4004A,115.4199,38.8665,保定市,双鹰农机,细颗粒物(PM2.5),172,257,188,130,93,25,,46,46,83,59,11,9,1.0,1
2026-01-15T1900,4034A,115.515,38.8589,保定市,植保所站,细颗粒物(PM2.5),176,195,145,133,106,12,,32,32,93,66,8,5,1.1,1.1
2026-01-15T1900,2594A,99.1589,25.1137,保山市,市环境监测站,,30,30,26,21,20,72,,80,80,8,10,4,4,0.3,0.3
2026-01-15T1900,2595A,99.1616,25.1381,保山市,市环保局,,40,35,30,28,22,78,,81,81,3,6,4,4,0.4,0.4
2026-01-15T1900,1867A,109.1435,21.4085,北海市,海滩公园,"颗粒物(PM10),细颗粒物(PM2.5)",59,67,63,42,38,114,,132,130,27,15,8,12,1.0,0.9
2026-01-15T1900,1868A,109.0983,21.466,北海市,新市环保局,细颗粒物(PM2.5),62,61,56,44,39,117,,120,120,20,19,6,8,0.7,0.7
2026-01-15T1900,1869A,109.1775,21.5232,北海市,北海工业园,细颗粒物(PM2.5),59,62,69,42,40,113,,120,120,25,20,9,11,0.8,0.8
2026-01-15T1900,3400A,109.1844,21.4396,北海市,龙潭自来水厂,颗粒物(PM10),55,59,54,36,38,116,,115,115,16,12,13,15,0.6,0.6
2026-01-15T1900,1001A,116.3611,39.8786,北京市,万寿西宫,细颗粒物(PM2.5),150,220,136,115,82,10,,22,21,85,74,3,3,0.8,0.9
2026-01-15T1900,1003A,116.4174,39.9289,北京市,东四,细颗粒物(PM2.5),134,213,130,102,72,12,,22,22,84,71,6,6,1.1,1.1
2026-01-15T1900,1004A,116.4073,39.8858,北京市,天坛,细颗粒物(PM2.5),143,208,122,109,73,8,,19,19,83,63,3,3,1.0,1
2026-01-15T1900,1005A,116.4622,39.9364,北京市,农展馆,细颗粒物(PM2.5),137,197,120,104,72,9,,17,17,71,67,4,5,1.0,1.2
2026-01-15T1900,1006A,116.3399,39.9293,北京市,官园,细颗粒物(PM2.5),142,201,135,108,78,1,,17,16,91,67,6,6,1.4,1
2026-01-15T1900,1007A,116.2879,39.9613,北京市,海淀万柳,细颗粒物(PM2.5),134,175,112,102,69,1,,7,6,105,78,4,4,1.4,1.1
2026-01-15T1900,1008A,116.6635,40.1349,北京市,顺义新城,细颗粒物(PM2.5),130,203,108,99,64,20,,22,22,60,52,4,4,0.9,0.7
2026-01-15T1900,1009A,116.6275,40.327,北京市,怀柔镇,颗粒物(PM10),115,180,92,81,53,7,,25,21,80,44,4,4,1.0,0.7
2026-01-15T1900,1010A,116.2295,40.217,北京市,昌平镇,颗粒物(PM10),110,169,104,82,61,4,,19,18,89,57,3,4,1.1,1.1
2026-01-15T1900,1011A,116.3968,39.982,北京市,奥体中心,细颗粒物(PM2.5),128,181,114,97,69,1,,11,8,2,79,4,4,1.4,1.3
2026-01-15T1900,3418A,116.8336,40.4095,北京市,密云新城,颗粒物(PM10),126,202,95,79,51,3,,33,31,79,40,6,5,0.9,0.7
2026-01-15T1900,3671A,116.0879,39.9725,北京市,门头沟三家店,颗粒物(PM10),116,182,119,84,57,2,,14,12,84,59,3,3,1.1,0.9
2026-01-15T1900,3672A,116.1507,39.8246,北京市,丰台云岗,细颗粒物(PM2.5),132,177,135,100,75,1,,19,16,89,68,3,3,1.2,0.9
2026-01-15T1900,3674A,115.9578,39.7602,北京市,房山燕山,"颗粒物(PM10),细颗粒物(PM2.5)",129,207,133,98,63,4,,22,20,83,60,5,4,0.8,0.7
2026-01-15T1900,3675A,116.4669,39.7734,北京市,大兴旧宫,细颗粒物(PM2.5),129,202,130,98,72,17,,25,25,66,56,4,3,0.9,1
2026-01-15T1900,3694A,115.9859,40.4562,北京市,延庆石河营,颗粒物(PM10),117,184,151,66,40,34,,56,54,44,26,3,3,0.7,0.6
2026-01-15T1900,3695A,116.6151,40.3052,北京市,怀柔新城,颗粒物(PM10),113,175,99,76,57,11,,26,22,68,32,5,4,0.8,0.7
2026-01-15T1900,3696A,116.2542,39.8764,北京市,丰台小屯,细颗粒物(PM2.5),129,192,135,98,77,2,,17,16,106,76,4,4,1.3,1
2026-01-15T1900,3697A,116.8399,40.3843,北京市,密云镇,颗粒物(PM10),128,205,92,84,51,3,,29,25,78,47,2,2,1.3,0.7
2026-01-15T1900,4057A,115.9423,40.4431,北京市,延庆百泉,颗粒物(PM10),116,182,161,65,40,7,,50,42,67,24,2,3,0.6,0.4
2026-01-15T1900,4058A,116.6598,39.9164,北京市,通州新华,颗粒物(PM10),127,204,123,78,63,11,,17,17,78,70,4,3,0.8,0.9
2026-01-15T1900,4182A,116.1942,39.9158,北京市,石景山八角,,,,120,,70,,,20,20,,68,,1,,0.8
2026-01-15T1900,4194A,117.078628,40.151726,北京市,平谷新城,颗粒物(PM10),117,183,95,79,56,34,,46,46,45,35,6,3,0.8,0.8
2026-01-15T1900,1761A,123.8274146,41.31234549,本溪市,大峪,细颗粒物(PM2.5),64,67,76,46,51,57,,30,30,25,36,9,9,0.7,0.9
2026-01-15T1900,1763A,123.7169,41.3094,本溪市,彩屯,细颗粒物(PM2.5),68,61,68,49,58,56,,39,37,27,30,8,10,0.8,1.7
2026-01-15T1900,1764A,123.7672166,41.28649327,本溪市,东明,,,53,63,,57,50,,28,28,26,32,4,8,1.1,1.4
2026-01-15T1900,1765A,123.799345,41.266614,本溪市,新立屯,细颗粒物(PM2.5),62,54,59,44,50,49,,38,28,28,30,10,9,0.7,1
2026-01-15T1900,1766A,123.829144,41.336777,本溪市,威宁,细颗粒物(PM2.5),62,60,66,44,49,58,,32,32,19,32,4,8,0.7,1
2026-01-15T1900,2587A,105.287,27.3133,毕节市,八中,细颗粒物(PM2.5),79,64,98,58,87,90,,87,87,23,26,15,13,0.9,1.1
2026-01-15T1900,2588A,105.3079,27.2987,毕节市,师专,细颗粒物(PM2.5),77,72,88,56,71,92,,93,93,25,36,13,10,0.8,1
2026-01-15T1900,4263A,105.3688,27.3598,毕节市,工业大道,细颗粒物(PM2.5),83,91,98,61,74,105,,102,102,21,28,12,12,/,/
2026-01-15T1900,1629A,117.9961,37.3604,滨州市,第二水厂,颗粒物(PM10),147,244,226,68,116,28,,57,57,52,62,18,18,0.8,1.3
2026-01-15T1900,1630A,117.9789,37.3931,滨州市,北中新校,颗粒物(PM10),120,190,201,66,116,38,,62,62,47,66,16,14,0.7,1.2
2026-01-15T1900,3514A,117.9379,37.3959,滨州市,中海酒店,颗粒物(PM10),140,229,218,68,123,40,,57,57,43,57,18,14,0.8,1.1
2026-01-15T1900,3515A,117.9381509,37.35547456,滨州市,开发区一中,颗粒物(PM10),151,251,233,63,126,35,,64,64,44,58,23,23,0.6,1.1
2026-01-15T1900,3516A,118.0914,37.6938,滨州市,金海六路,颗粒物(PM10),123,195,221,58,111,47,,70,70,44,60,7,11,0.6,1.3
2026-01-15T1900,4028A,117.9955,37.3752,滨州市,滨州市西街道办事处,颗粒物(PM10),144,237,223,73,123,31,,63,63,44,52,18,15,0.7,1.2
2026-01-15T1900,2311A,115.8071,33.8399,亳州市,污水处理厂,颗粒物(PM10),80,109,131,33,78,72,,86,86,36,35,4,5,0.3,0.5
2026-01-15T1900,2312A,115.7789,33.8519,亳州市,三国揽胜宫,颗粒物(PM10),75,100,142,37,89,61,,84,84,40,34,3,4,0.5,0.6
2026-01-15T1900,3332A,115.7631,33.803,亳州市,亳州学院,,,,135,27,85,73,,87,87,23,29,,4,0.4,0.6
2026-01-15T1900,2693A,82.0482,44.8553,博尔塔拉蒙古自治州,市党校,,35,35,66,16,29,65,,61,61,17,24,3,3,0.3,0.4
2026-01-15T1900,2694A,82.0805,44.8966,博尔塔拉蒙古自治州,市环保局,,,44,61,19,30,58,,65,61,15,13,,6,0.4,0.6
2026-01-15T1900,1071A,116.8733,38.2922,沧州市,沧县城建局,颗粒物(PM10),154,258,163,109,94,10,,51,49,83,59,12,7,0.9,0.9
2026-01-15T1900,1072A,116.8462,38.3189,沧州市,电视转播站,颗粒物(PM10),154,257,162,117,100,6,,51,49,81,57,6,5,1.0,0.9
2026-01-15T1900,1073A,116.8588,38.3161,沧州市,市环保局,细颗粒物(PM2.5),189,287,172,142,99,8,,47,46,74,51,9,9,1.1,0.9
2026-01-15T1900,3324A,116.8011,38.294,沧州市,河北水利电力学院,颗粒物(PM10),167,283,193,72,89,28,,51,51,62,58,10,8,0.8,0.9
2026-01-15T1900,2622A,97.1813,31.1289,昌都市,昌都监测站,,42,,55,29,24,45,,66,66,45,22,3,3,1.4,0.8
2026-01-15T1900,3719A,97.1707,31.1428,昌都市,昌都会议中心,,22,18,24,10,18,69,,60,60,2,5,1,1,0.3,0.4
2026-01-15T1900,2692A,87.2722,44.0298,昌吉回族自治州,新区政务中心,颗粒物(PM10),52,53,48,15,33,60,,61,61,18,19,10,9,0.3,0.7
2026-01-15T1900,3613A,87.3069,44.0093,昌吉回族自治州,亚心广场,颗粒物(PM10),58,66,60,14,35,63,,65,65,14,11,8,8,0.5,0.7
2026-01-15T1900,4164A,87.2057,43.9289,昌吉回族自治州,财政所,颗粒物(PM10),59,68,79,30,59,41,,54,48,31,18,6,6,0.5,0.6
2026-01-15T1900,1120A,125.2874,43.9024,长春市,客车厂,细颗粒物(PM2.5),62,,40,44,44,34,,47,46,35,36,9,12,0.6,0.6
2026-01-15T1900,1121A,125.2943,43.8508,长春市,邮电学院,细颗粒物(PM2.5),67,53,41,48,39,40,,50,48,28,28,14,12,0.9,0.7
2026-01-15T1900,1122A,125.3648,43.8745,长春市,劳动公园,,49,,47,34,37,46,,51,51,25,29,10,11,0.5,0.6
2026-01-15T1900,1123A,125.3233,43.8781,长春市,园林处,,48,34,42,33,40,47,,50,50,19,27,10,12,0.5,0.6
2026-01-15T1900,1124A,125.4604,43.7904,长春市,净月潭,,50,44,39,35,30,33,,54,49,31,17,8,8,0.5,0.5
2026-01-15T1900,1126A,125.38,43.8422,长春市,经开区环卫处,细颗粒物(PM2.5),60,,43,43,38,48,,52,52,22,33,6,8,0.5,0.6
2026-01-15T1900,1127A,125.234,43.7761,长春市,高新区管委会,细颗粒物(PM2.5),62,46,38,44,37,30,,50,45,42,32,11,10,0.5,0.5
2026-01-15T1900,1128A,125.1695,43.83,长春市,岱山公园,细颗粒物(PM2.5),90,70,46,67,44,12,,46,40,62,45,11,11,0.9,0.7
2026-01-15T1900,4281A,125.334645,43.916281,长春市,北亚泰大街1068号,细颗粒物(PM2.5),64,,44,46,42,40,,50,49,27,31,11,10,0.6,0.7
2026-01-15T1900,1335A,113.082,28.2421,长沙市,经开区环保局,细颗粒物(PM2.5),99,94,92,74,72,76,,100,96,51,44,8,8,0.7,0.7
2026-01-15T1900,1336A,112.8873,28.2202,长沙市,高开区环保局,细颗粒物(PM2.5),125,98,89,95,79,79,,96,96,38,28,7,9,0.8,0.7
2026-01-15T1900,1337A,113.0785,28.2012,长沙市,马坡岭,细颗粒物(PM2.5),89,97,102,66,75,62,,99,98,57,48,6,9,0.8,0.8
2026-01-15T1900,1338A,112.9448,28.1894,长沙市,湖南师范大学,,,92,89,56,61,,,108,108,30,34,6,8,,0.8
2026-01-15T1900,1339A,113.0177,28.1322,长沙市,雨花区环保局,细颗粒物(PM2.5),73,73,88,53,65,75,,96,96,52,48,9,11,0.8,0.8
2026-01-15T1900,1340A,112.9795,28.2593,长沙市,伍家岭,细颗粒物(PM2.5),108,113,113,81,79,26,,94,90,106,56,6,9,1.3,0.8
2026-01-15T1900,1341A,113.002,28.1944,长沙市,火车新站,细颗粒物(PM2.5),98,103,110,73,74,60,,96,96,67,55,10,12,0.9,1
2026-01-15T1900,1342A,112.9846,28.1177,长沙市,天心区环保局,细颗粒物(PM2.5),87,83,84,64,65,79,,101,101,54,42,6,9,1.2,0.7
2026-01-15T1900,1343A,112.8906,28.1307,长沙市,湖南中医药大学,细颗粒物(PM2.5),82,80,95,60,69,6,,102,94,109,48,7,9,0.9,0.8
2026-01-15T1900,1727A,113.1146,36.1547,长治市,清华站,,36,36,79,9,27,84,,89,89,5,21,11,12,0.5,0.6
2026-01-15T1900,1730A,113.0887,36.2126,长治市,审计局,,39,39,72,7,27,81,,84,84,11,21,6,11,0.4,0.6
2026-01-15T1900,1731A,113.0845,36.1856,长治市,长治八中,,49,49,101,13,34,83,,86,86,7,19,8,11,0.4,0.6
2026-01-15T1900,2845A,113.1561,36.1912,长治市,德盛苑,,35,35,73,9,26,88,,92,92,4,10,6,9,0.3,0.5
2026-01-15T1900,3568A,113.0603,36.0464,长治市,向阳小学,,48,48,94,23,26,88,,92,92,12,13,10,12,0.2,0.4
2026-01-15T1900,3569A,112.8788,36.315,长治市,屯留一中,颗粒物(PM10),52,54,84,32,34,58,,74,74,22,28,21,13,0.6,1
2026-01-15T1900,4189A,113.113092,36.199482,长治市,英华南巷50号,,42,42,88,7,28,85,,87,87,11,21,5,9,0.5,0.8
2026-01-15T1900,4190A,113.23666,36.33435,长治市,学府街1号,,38,38,88,11,36,84,,84,84,7,24,5,11,0.4,1.1
2026-01-15T1900,1854A,111.696,28.9725,常德市,市二中,细颗粒物(PM2.5),75,81,121,55,93,94,,107,107,24,21,8,7,0.7,1
2026-01-15T1900,3138A,111.7152,29.0288,常德市,武陵区永安,细颗粒物(PM2.5),92,105,129,68,99,94,,110,110,22,20,8,6,0.8,1
2026-01-15T1900,3139A,111.6891,28.9881,常德市,鼎城区玉霞,,,90,116,61,102,88,,106,106,23,27,,9,0.6,0.7
2026-01-15T1900,3140A,111.6651,29.0526,常德市,武陵区长庚,细颗粒物(PM2.5),93,94,130,69,102,107,,114,114,19,23,7,7,0.7,0.9
2026-01-15T1900,1196A,119.9524,31.7586,常州市,市监测站,细颗粒物(PM2.5),110,131,116,83,77,21,,90,87,91,74,7,9,1.4,1.2
2026-01-15T1900,1200A,119.9351,31.703,常州市,武进监测站,细颗粒物(PM2.5),109,118,111,82,76,,,88,88,60,62,13,16,0.8,0.6
2026-01-15T1900,3002A,119.9701,31.813,常州市,行政中心,细颗粒物(PM2.5),107,131,110,80,70,60,,103,97,72,65,10,10,0.9,0.9
2026-01-15T1900,3003A,120.0434,31.7726,常州市,经开区,细颗粒物(PM2.5),95,132,133,71,76,37,,94,93,97,76,14,16,0.6,0.9
2026-01-15T1900,3010A,119.8919,31.7892,常州市,钟楼,细颗粒物(PM2.5),93,121,108,69,70,45,,87,87,65,65,10,11,0.8,0.7
2026-01-15T1900,3429A,119.8595,31.706,常州市,武进经发区,细颗粒物(PM2.5),103,112,115,77,82,71,,92,92,72,72,6,8,0.9,0.9
2026-01-15T1900,3430A,119.5812,31.7256,常州市,金坛城区,细颗粒物(PM2.5),92,,57,68,80,97,,97,97,33,45,13,12,1.0,1
2026-01-15T1900,4089A,119.9551,31.863,常州市,崇义南街5-H号,细颗粒物(PM2.5),102,138,109,76,74,21,,88,85,105,78,10,11,1.1,1.1
2026-01-15T1900,2220A,120.4318,41.588,朝阳市,西梁,细颗粒物(PM2.5),57,52,104,40,66,55,,60,60,16,25,13,14,0.8,1.3
2026-01-15T1900,2221A,120.452,41.565,朝阳市,河畔小区,,45,31,87,31,64,58,,62,62,15,32,11,13,0.6,1.3
2026-01-15T1900,2222A,120.4176,41.5648,朝阳市,八里堡,,48,42,86,33,55,57,,61,61,21,36,10,10,0.6,1.2
2026-01-15T1900,3026A,116.6179,23.6608,潮州市,市政府,细颗粒物(PM2.5),63,57,84,45,46,102,,132,132,23,32,7,14,0.6,0.6
2026-01-15T1900,4036A,116.646,23.676,潮州市,金山,细颗粒物(PM2.5),67,68,65,48,42,116,,138,138,23,20,6,6,0.6,0.5
2026-01-15T1900,2473A,113.0116,25.8228,郴州市,市职中,,,76,66,56,48,60,,122,122,,39,,7,1.0,0.8
2026-01-15T1900,2475A,113.0381,25.8074,郴州市,市审计局,细颗粒物(PM2.5),77,80,77,56,51,84,,130,130,46,40,4,4,/,/
2026-01-15T1900,2476A,113.0348,25.7757,郴州市,市环保局,细颗粒物(PM2.5),69,74,68,50,45,66,,116,116,56,33,6,6,0.6,0.5
2026-01-15T1900,4252A,113.0138,25.8011,郴州市,好美居路49号,细颗粒物(PM2.5),63,52,61,45,49,128,,137,137,26,48,7,6,/,/
2026-01-15T1900,1431A,103.9727,30.7242,成都市,金泉两河,细颗粒物(PM2.5),115,97,100,87,70,87,,79,79,44,64,4,4,0.9,1.3
2026-01-15T1900,1432A,104.1423,30.6765,成都市,十里店,细颗粒物(PM2.5),127,133,113,96,73,82,,72,72,53,76,5,5,0.8,1.3
2026-01-15T1900,1433A,104.0594,30.5765,成都市,三瓦窑,,,,99,,70,84,,80,80,43,75,4,5,0.7,1.2
2026-01-15T1900,1434A,104.1122,30.6306,成都市,沙河铺,细颗粒物(PM2.5),135,122,103,103,85,58,,49,49,81,89,4,4,0.8,1.3
2026-01-15T1900,2880A,104.0219,30.6561,成都市,大石西路,,,,108,,72,59,,63,63,,71,5,6,,1.9
2026-01-15T1900,3136A,104.2724,30.559,成都市,龙泉驿区区政府,细颗粒物(PM2.5),83,80,61,61,43,106,,90,90,15,26,6,6,0.7,0.6
2026-01-15T1900,3357A,104.0028,30.6891,成都市,金博路,细颗粒物(PM2.5),122,113,96,92,66,75,,74,74,53,71,7,7,1.0,1.4
2026-01-15T1900,3359A,104.056,30.5228,成都市,华阳,细颗粒物(PM2.5),70,68,90,51,66,85,,79,79,38,70,3,4,0.6,1.2
2026-01-15T1900,3488A,104.387954,30.746684,成都市,青石路225号,细颗粒物(PM2.5),153,133,80,117,60,94,,92,92,33,59,2,3,0.8,0.7
2026-01-15T1900,3489A,104.0788,30.4054,成都市,科学城,"颗粒物(PM10),细颗粒物(PM2.5)",84,117,68,62,44,98,,95,95,24,44,7,6,0.6,0.3
2026-01-15T1900,4011A,103.8505,30.6946,成都市,光华大道三段,细颗粒物(PM2.5),127,128,101,96,68,,,85,85,49,57,5,5,0.5,0.8
2026-01-15T1900,4144A,104.3257,30.6406,成都市,八角井街185号,细颗粒物(PM2.5),119,125,85,90,52,97,,84,84,16,40,4,3,0.5,0.7
2026-01-15T1900,4224A,104.2433276,30.53529463,成都市,鲸龙路1057号,细颗粒物(PM2.5),97,94,73,72,55,100,,93,93,20,53,6,6,0.6,0.8
2026-01-15T1900,1062A,117.9531,40.908,承德市,铁路,细颗粒物(PM2.5),117,158,105,88,62,4,,20,18,58,43,11,8,1.7,1.5
2026-01-15T1900,1063A,117.9397,40.9763,承德市,中国银行,颗粒物(PM10),89,127,99,50,54,6,,28,25,52,37,4,6,1.3,1.3
2026-01-15T1900,4073A,117.9462,40.95,承德市,杏林街1号,细颗粒物(PM2.5),103,128,92,77,58,7,,30,28,58,36,9,8,1.4,1.3
2026-01-15T1900,4274A,117.7994,40.9605,承德市,滨河大街98号,细颗粒物(PM2.5),78,104,80,57,58,12,,26,25,50,41,5,8,1.0,1.2
2026-01-15T1900,2314A,117.4698,30.6617,池州市,池州学院,细颗粒物(PM2.5),84,89,76,62,54,85,,94,94,60,43,9,9,0.8,1
2026-01-15T1900,3237A,117.4918,30.6617,池州市,展览馆,细颗粒物(PM2.5),69,72,80,50,52,47,,85,85,56,49,2,4,1.0,1.2
2026-01-15T1900,3333A,117.5626,30.695,池州市,第八中学,细颗粒物(PM2.5),80,90,80,59,54,75,,92,92,51,51,8,13,0.9,1
2026-01-15T1900,3334A,117.5037,30.6242,池州市,第十二中学,细颗粒物(PM2.5),85,108,80,63,48,38,,87,87,97,55,6,7,0.9,1.4
2026-01-15T1900,1744A,118.9229,42.2816,赤峰市,松山一中,,39,39,60,23,28,44,,47,47,22,36,7,45,0.8,1.1
2026-01-15T1900,1745A,118.9588,42.2733,赤峰市,哈达街,,,47,62,27,32,,,48,48,30,37,10,88,0.9,1
2026-01-15T1900,1746A,118.8792,42.2551,赤峰市,天义路,,50,43,48,35,38,38,,42,41,32,37,16,73,1.4,1.1
2026-01-15T1900,3058A,119.2656,42.0356,赤峰市,银河街,,43,43,53,19,28,52,,60,60,13,10,9,12,0.7,0.7
2026-01-15T1900,3286A,118.9359,42.3146,赤峰市,桥北物流园区,,46,35,50,32,33,53,,60,60,20,23,8,11,0.6,0.7
2026-01-15T1900,2521A,107.3473,22.4137,崇左市,市环保局江州分局,,,103,103,71,69,,,131,131,19,34,10,9,0.9,0.9
2026-01-15T1900,4256A,107.375,22.3736,崇左市,石景林东路7号,细颗粒物(PM2.5),74,69,81,54,73,123,,139,139,19,29,9,10,0.7,0.8
2026-01-15T1900,3207A,118.31131,32.3033,滁州市,市政府原办公楼,颗粒物(PM10),106,161,110,79,60,35,,112,95,89,52,7,7,1.0,0.6
2026-01-15T1900,3331A,118.3268,32.2633,滁州市,图书馆,细颗粒物(PM2.5),92,122,88,68,57,62,,103,102,58,32,10,12,0.7,0.6
2026-01-15T1900,4101A,118.3196,32.3335,滁州市,银山路666号,细颗粒物(PM2.5),150,174,94,115,75,26,,92,88,97,39,18,8,0.7,0.5
2026-01-15T1900,4102A,118.3426,32.2979,滁州市,黄山路555号,细颗粒物(PM2.5),124,179,109,94,75,,,116,116,106,54,17,14,0.9,0.9
2026-01-15T1900,2606A,101.5379,25.0492,楚雄彝族自治州,市经济开发区,,,,35,,18,,,68,67,,25,,3,,0.6
2026-01-15T1900,4153A,101.5536,25.0343,楚雄彝族自治州,团结路562号,,24,20,29,15,19,76,,69,69,5,19,4,5,0.3,0.4
2026-01-15T1900,2549A,107.5087,31.2186,达州市,市环境监测站,细颗粒物(PM2.5),185,172,149,139,126,8,,58,58,102,43,8,6,1.8,1
2026-01-15T1900,2550A,107.4988,31.2132,达州市,凤凰小区,细颗粒物(PM2.5),188,219,167,141,131,6,,52,52,91,39,8,5,2.8,1.2
2026-01-15T1900,2551A,107.5081,31.1987,达州市,达县机关宾馆,细颗粒物(PM2.5),176,212,167,133,127,3,,39,38,91,44,10,4,2.6,1.3
2026-01-15T1900,2552A,107.4644,31.2124,达州市,市政中心,细颗粒物(PM2.5),168,196,179,127,132,5,,6,6,101,47,8,7,2.1,1.2
2026-01-15T1900,2614A,100.2168,25.5818,大理白族自治州,大理市环境监测站,,,27,25,20,20,70,,72,72,14,8,6,6,,0.7
2026-01-15T1900,2615A,100.1542,25.7055,大理白族自治州,大理古城,,35,35,27,12,17,83,,87,87,7,12,8,8,0.6,0.6
2026-01-15T1900,1109A,121.6119,38.974,大连市,甘井子,细颗粒物(PM2.5),142,150,98,108,65,4,,38,29,62,40,6,7,0.8,0.7
2026-01-15T1900,1110A,121.565,38.9509,大连市,周水子,细颗粒物(PM2.5),138,141,101,105,67,6,,32,24,51,37,11,10,1.1,0.9
2026-01-15T1900,1111A,121.5637,38.8849,大连市,星海三站,细颗粒物(PM2.5),147,139,98,112,66,2,,36,27,48,34,7,7,1.5,1.1
2026-01-15T1900,1112A,121.6301,38.9117,大连市,青泥洼桥,细颗粒物(PM2.5),162,170,105,123,68,3,,25,20,64,41,10,8,1.6,1.3
2026-01-15T1900,1113A,121.6248,38.8643,大连市,傅家庄,细颗粒物(PM2.5),140,157,101,107,63,1,,32,23,70,37,11,11,1.4,0.9
2026-01-15T1900,1114A,121.5117,38.8636,大连市,七贤岭,细颗粒物(PM2.5),135,158,93,103,57,12,,49,35,52,33,10,11,1.2,0.9
2026-01-15T1900,1116A,121.7507,39.1339,大连市,金州,细颗粒物(PM2.5),143,134,97,109,68,9,,31,26,54,30,13,8,1.1,0.9
2026-01-15T1900,1117A,121.7811,39.0495,大连市,开发区,细颗粒物(PM2.5),158,163,113,120,74,4,,25,19,59,36,9,7,1.5,1.2
2026-01-15T1900,1118A,121.9762,39.0631,大连市,双D港,细颗粒物(PM2.5),135,124,96,103,76,24,,34,29,35,24,9,7,1.0,0.9
2026-01-15T1900,4082A,121.2548,38.8188,大连市,旅顺,细颗粒物(PM2.5),142,155,110,108,71,15,,32,30,31,23,6,7,1.1,1
2026-01-15T1900,1789A,124.8085,46.0381,大庆市,大同区,颗粒物(PM10),51,52,85,33,71,42,,52,52,26,32,6,10,0.7,1
2026-01-15T1900,1790A,125.1166,46.5255,大庆市,龙凤区,,,37,56,31,45,,,53,51,,36,8,10,0.3,0.7
2026-01-15T1900,1791A,124.8894,46.4007,大庆市,红岗区,,45,40,83,31,58,31,,43,43,29,38,6,13,0.5,0.9
2026-01-15T1900,1792A,125.1391,46.578,大庆市,萨尔图区,,,57,66,34,45,20,,45,,35,25,,9,0.6,0.6
2026-01-15T1900,1793A,124.9026,46.6217,大庆市,让胡路区,细颗粒物(PM2.5),53,39,58,37,52,48,,62,62,24,34,8,8,0.6,1
2026-01-15T1900,3481A,125.127,46.6277,大庆市,萨区政府监测点,,46,46,76,29,46,42,,54,52,22,24,9,9,0.6,0.7
2026-01-15T1900,1723A,113.2926,40.0759,大同市,云冈宾馆,颗粒物(PM10),81,112,234,24,40,54,,62,62,27,26,7,9,0.7,0.9
2026-01-15T1900,1724A,113.3437,40.0921,大同市,大同大学,颗粒物(PM10),75,99,212,39,61,65,,71,71,22,22,4,9,0.5,0.6
2026-01-15T1900,1725A,113.2637,40.129,大同市,安家小村,颗粒物(PM10),80,109,226,27,48,56,,66,66,24,20,10,11,0.4,0.6
2026-01-15T1900,3282A,113.3399,40.0586,大同市,大同市卫生学校,颗粒物(PM10),77,103,226,31,49,60,,61,61,28,28,6,9,0.4,0.5
2026-01-15T1900,3565A,113.1371,40.1122,大同市,云冈站,颗粒物(PM10),73,95,187,20,42,24,,66,65,50,20,8,7,0.5,0.5
2026-01-15T1900,3566A,113.1186,40.2556,大同市,图书馆,颗粒物(PM10),72,94,199,34,49,59,,72,72,20,14,6,9,0.5,0.6
2026-01-15T1900,3567A,113.5931,40.0459,大同市,区一中,颗粒物(PM10),74,97,112,27,20,76,,85,83,15,16,1,4,0.4,0.3
2026-01-15T1900,4199A,113.2798248,40.09972476,大同市,魏都大道141号,颗粒物(PM10),80,109,250,25,46,53,,61,61,30,33,7,9,0.7,1
2026-01-15T1900,2269A,124.1068,50.4091,大兴安岭地区,科技局,,28,26,23,19,15,44,,51,50,7,4,6,5,0.3,0.3
2026-01-15T1900,3663A,124.117,50.4279,大兴安岭地区,红旗社区,,36,31,31,25,25,36,,50,50,21,26,11,9,0.5,0.5
2026-01-15T1900,1600A,124.33,40.0625,丹东市,江湾东路,细颗粒物(PM2.5),144,144,73,110,47,7,,48,37,66,25,10,7,2.0,0.8
2026-01-15T1900,1601A,124.4242,40.1513,丹东市,临江后街,细颗粒物(PM2.5),87,92,60,64,35,31,,50,46,37,22,9,10,1.2,0.7
2026-01-15T1900,1602A,124.3935,40.1461,丹东市,元宝山,细颗粒物(PM2.5),79,81,56,58,34,36,,52,52,30,17,11,11,0.9,0.6
2026-01-15T1900,1603A,124.3634,40.1093,丹东市,民主桥,细颗粒物(PM2.5),114,136,71,86,36,14,,45,37,51,23,9,9,1.6,0.8
2026-01-15T1900,3541A,109.5726195,19.51688767,儋州市,第一中学子站,,38,38,42,23,24,71,,78,77,7,6,3,5,0.6,0.6
2026-01-15T1900,3542A,109.5567,19.5187,儋州市,东坡学校子站,,,,37,,24,,,113,88,,5,,6,,0.5
2026-01-15T1900,2616A,98.5611,24.4273,德宏傣族景颇族自治州,德宏州监测站,颗粒物(PM10),52,53,47,26,32,66,,72,72,23,24,6,7,0.6,0.7
2026-01-15T1900,3677A,98.5887,24.4366,德宏傣族景颇族自治州,芒市人民政府综合楼,,50,50,48,18,27,63,,69,69,18,17,5,5,0.7,0.7
2026-01-15T1900,1901A,104.424,31.1209,德阳市,东山公园,细颗粒物(PM2.5),123,,79,93,66,110,,95,95,13,25,6,6,0.7,0.7
2026-01-15T1900,1902A,104.3827,31.1318,德阳市,西小区,细颗粒物(PM2.5),118,113,115,89,73,77,,83,83,40,54,4,6,1.1,1.3
2026-01-15T1900,1904A,104.3553,31.1091,德阳市,耐火材料厂,细颗粒物(PM2.5),115,87,107,87,81,,,85,85,34,62,3,4,0.8,1
2026-01-15T1900,4145A,104.4144,31.1495,德阳市,市林业局,细颗粒物(PM2.5),122,110,86,92,71,65,,85,85,54,50,3,3,0.7,0.6
2026-01-15T1900,1622A,116.3034,37.4675,德州市,儿童乐园,颗粒物(PM10),155,259,245,112,128,52,,61,61,52,63,17,19,1.2,1.5
2026-01-15T1900,1624A,116.2992,37.4449,德州市,监理站,颗粒物(PM10),151,251,243,112,132,59,,69,69,52,65,21,21,1.2,1.4
2026-01-15T1900,3066A,116.2722,37.438,德州市,九衢泉纯净水厂,细颗粒物(PM2.5),153,249,238,117,137,47,,60,60,60,69,12,13,1.2,1.5
2026-01-15T1900,3371A,116.3693,37.44,德州市,开发区人民医院,细颗粒物(PM2.5),156,249,250,119,135,52,,64,64,63,72,18,20,1.1,1.3
2026-01-15T1900,3511A,116.5687,37.3331,德州市,陵城艺术中心,颗粒物(PM10),144,237,252,97,140,55,,64,64,49,68,17,20,1.1,1.5
2026-01-15T1900,4292A,116.352738,37.420875,德州市,新河东路,细颗粒物(PM2.5),156,241,244,119,140,39,,58,58,84,78,18,20,1.4,1.6
2026-01-15T1900,2621A,99.7054,27.8319,迪庆藏族自治州,迪庆州站,,25,24,30,14,18,79,,85,85,5,9,4,4,0.3,0.4
2026-01-15T1900,3180A,99.7122,27.8129,迪庆藏族自治州,质量技术监督局,,27,27,28,11,18,80,,87,87,8,12,4,4,0.3,0.4
2026-01-15T1900,4257A,104.6092,35.5962,定西市,将台街,颗粒物(PM10),74,97,99,37,43,71,,79,79,20,30,11,17,0.4,0.8
2026-01-15T1900,4309A,104.6159,35.5701,定西市,正龙路62号,颗粒物(PM10),77,104,107,38,41,74,,79,79,7,12,13,14,0.4,0.7
2026-01-15T1900,1390A,113.7943,23.0132,东莞市,东城石井,,48,48,72,28,42,150,,178,178,24,61,6,8,0.5,0.6
2026-01-15T1900,1391A,113.7384,22.9659,东莞市,南城西平,细颗粒物(PM2.5),75,79,94,55,55,170,,177,177,46,83,8,8,0.7,0.8
2026-01-15T1900,3319A,113.7283,23.041,东莞市,万江金泰,细颗粒物(PM2.5),94,124,92,70,52,131,,174,174,74,68,9,7,1.3,1
2026-01-15T1900,4129A,113.8666,23.1062,东莞市,裕兴路,颗粒物(PM10),62,74,101,28,49,87,,181,180,71,63,5,9,1.0,0.8
2026-01-15T1900,4130A,114.0076,22.9739,东莞市,教育路1号,颗粒物(PM10),72,94,107,48,54,175,,218,218,50,76,5,6,0.8,0.8
2026-01-15T1900,4131A,113.7981,22.8124,东莞市,长怡路1号,,,,107,59,53,112,,150,150,102,90,8,9,0.9,0.9
2026-01-15T1900,1666A,118.6612,37.4313,东营市,市环保局,颗粒物(PM10),126,202,208,63,118,52,,66,66,46,67,16,38,0.8,1.4
2026-01-15T1900,3036A,118.6903,37.4337,东营市,开发区管委会,颗粒物(PM10),138,225,219,66,118,22,,63,63,40,65,8,9,0.7,1.1
2026-01-15T1900,3365A,118.5721,37.5654,东营市,垦利区民丰路,颗粒物(PM10),118,185,201,70,109,49,,66,66,51,62,10,13,0.8,1.2
2026-01-15T1900,3498A,118.5063,37.8606,东营市,河口城区,颗粒物(PM10),106,161,192,59,97,69,,77,77,35,55,9,11,0.9,1.4
2026-01-15T1900,3646A,118.4979,37.4623,东营市,胜利站,颗粒物(PM10),98,145,202,63,119,40,,57,57,60,71,26,30,0.9,1.5
2026-01-15T1900,3734A,118.5753,37.4405,东营市,理想之城,,,,200,,118,,,67,67,,66,,20,,1.5
2026-01-15T1900,1591A,110.0024,39.8127,鄂尔多斯市,综合楼,,,136,180,39,34,,,54,54,29,24,8,10,0.5,0.5
2026-01-15T1900,1592A,109.9485,39.8259,鄂尔多斯市,巴音孟克林场办事处,颗粒物(PM10),91,132,155,36,33,34,,63,59,37,16,10,8,0.5,0.3
2026-01-15T1900,1593A,109.7734,39.5987,鄂尔多斯市,康泽苑,颗粒物(PM10),73,95,158,24,38,88,,83,83,8,17,6,6,0.3,0.4
2026-01-15T1900,1594A,109.8121,39.5987,鄂尔多斯市,华泰汽车城,颗粒物(PM10),75,100,161,24,34,75,,71,71,14,21,5,5,0.2,0.4
2026-01-15T1900,1595A,109.9734,39.7884,鄂尔多斯市,奥林花园,颗粒物(PM10),92,134,158,29,32,43,,56,56,31,33,7,8,0.5,0.4
2026-01-15T1900,2436A,114.894,30.3989,鄂州市,市政府,细颗粒物(PM2.5),166,127,122,126,90,77,,98,98,66,55,11,12,,1.6
2026-01-15T1900,2437A,114.8986,30.3714,鄂州市,赵家坝,细颗粒物(PM2.5),120,93,110,91,80,106,,119,119,38,47,12,12,1.1,0.9
2026-01-15T1900,3654A,114.8093,30.4091,鄂州市,精准医疗中心,细颗粒物(PM2.5),128,104,106,97,83,94,,121,121,67,48,5,15,0.9,0.7
2026-01-15T1900,2454A,109.4978,30.2979,恩施土家族苗族自治州,湖北民院,细颗粒物(PM2.5),148,,137,113,155,41,,50,50,42,21,6,6,1.0,1.2
2026-01-15T1900,3549A,109.5061,30.3771,恩施土家族苗族自治州,龙凤新区,细颗粒物(PM2.5),173,147,156,131,133,32,,42,42,34,20,7,7,1.1,1.1
2026-01-15T1900,2499A,108.3411,21.6159,防城港市,沙万,颗粒物(PM10),66,82,82,38,46,65,,84,84,69,36,10,11,0.7,0.9
2026-01-15T1900,2500A,108.3515,21.7733,防城港市,防城档案局,颗粒物(PM10),58,66,103,36,52,107,,115,115,16,32,6,7,0.5,0.8
2026-01-15T1900,2501A,108.3506,21.6414,防城港市,大海花园,颗粒物(PM10),61,72,76,32,44,89,,101,99,45,30,9,14,0.5,1
2026-01-15T1900,1371A,113.1293,23.0065,佛山市,湾梁,颗粒物(PM10),64,78,91,37,54,166,,165,165,34,87,/,/,/,/
2026-01-15T1900,1372A,113.1082,23.0477,佛山市,华材职中,颗粒物(PM10),80,110,110,49,57,132,,158,158,43,83,6,8,0.6,0.9
2026-01-15T1900,1373A,113.1439,23.045,佛山市,南海气象局,细颗粒物(PM2.5),64,51,92,46,52,168,,165,165,35,86,/,/,/,/
2026-01-15T1900,1374A,113.2879,22.8094,佛山市,顺德苏岗,细颗粒物(PM2.5),119,126,77,90,51,128,,127,127,76,81,/,/,1.1,0.9
2026-01-15T1900,1376A,112.8384,22.8678,佛山市,高明孔堂,颗粒物(PM10),70,89,65,45,47,148,,166,166,27,31,/,/,/,/
2026-01-15T1900,1377A,112.8835,23.1584,佛山市,三水监测站,二氧化氮(NO2),78,100,129,46,75,10,,122,116,155,91,5,12,0.9,1
2026-01-15T1900,1378A,112.8668,23.185,佛山市,三水云东海,颗粒物(PM10),65,80,107,32,70,108,,134,134,35,70,/,/,/,/
2026-01-15T1900,3625A,113.2568,22.7629,佛山市,容桂街道办,细颗粒物(PM2.5),100,129,96,75,58,172,,157,157,56,89,/,/,/,/
2026-01-15T1900,1282A,119.2681,26.0506,福州市,师大,颗粒物(PM10),59,68,47,27,21,84,,108,105,42,29,6,5,0.6,0.5
2026-01-15T1900,1283A,119.2983,26.1028,福州市,五四北路,颗粒物(PM10),71,91,45,31,25,74,,96,96,43,34,6,5,0.8,0.7
2026-01-15T1900,1284A,119.2648,26.0769,福州市,杨桥西路,颗粒物(PM10),57,63,43,28,23,86,,104,104,26,21,6,5,/,/
2026-01-15T1900,3048A,119.5799,26.0937,福州市,九龙,,36,29,40,9,21,113,,109,109,11,24,5,5,0.6,0.7
2026-01-15T1900,3526A,119.5188,25.9666,福州市,吴航,颗粒物(PM10),51,52,47,21,20,92,,108,108,28,35,5,6,0.7,0.7
2026-01-15T1900,4104A,119.3106,26.0648,福州市,路通桥巷6号,,45,45,47,25,26,92,,98,98,23,24,/,/,/,/
2026-01-15T1900,1755A,123.7974,41.8494,抚顺市,望花区,细颗粒物(PM2.5),52,49,56,36,40,54,,59,59,23,36,8,9,0.7,0.8
2026-01-15T1900,1756A,123.9161,41.8827,抚顺市,顺城区,细颗粒物(PM2.5),62,50,52,44,39,52,,57,57,28,34,8,8,0.8,0.8
2026-01-15T1900,1757A,124.0437,41.8615,抚顺市,东洲区,细颗粒物(PM2.5),67,54,55,48,42,48,,45,45,24,25,4,6,0.8,0.8
2026-01-15T1900,1758A,123.9246,41.8638,抚顺市,新抚区,细颗粒物(PM2.5),60,51,54,43,41,51,,56,56,36,38,7,7,0.8,0.9
2026-01-15T1900,1759A,124.0972,41.8961,抚顺市,大伙房水库,,,60,51,44,40,48,,50,50,29,21,,10,0.9,0.9
2026-01-15T1900,1760A,123.708,41.8386,抚顺市,沈抚新城,颗粒物(PM10),52,53,61,33,49,58,,65,65,22,37,7,9,1.1,1.5
2026-01-15T1900,2377A,116.3544,27.9833,抚州市,市站,细颗粒物(PM2.5),73,79,66,53,43,84,,116,116,39,28,12,12,1.0,0.7
2026-01-15T1900,2378A,116.3562,27.9631,抚州市,血防站,细颗粒物(PM2.5),65,69,60,47,39,114,,119,119,35,35,12,11,1.1,0.9
2026-01-15T1900,2379A,116.3561,28.0007,抚州市,采茶剧团,细颗粒物(PM2.5),68,65,65,49,45,114,,126,126,26,29,12,9,1.3,1.2
2026-01-15T1900,2380A,116.3854,27.9648,抚州市,医学分院,细颗粒物(PM2.5),69,77,65,50,38,108,,119,119,18,22,16,13,0.9,0.8
2026-01-15T1900,2207A,121.6095,41.9978,阜新市,工业园区,,43,43,75,23,46,57,,61,61,17,24,8,11,0.4,0.7
2026-01-15T1900,2208A,121.6567,42.0188,阜新市,长青街,,39,33,72,27,49,57,,62,62,18,28,8,10,0.5,0.8
2026-01-15T1900,2209A,121.6672,42.07,阜新市,农业园区,,32,32,73,19,52,56,,60,60,16,26,5,8,0.4,0.7
2026-01-15T1900,2211A,121.6343,42.0455,阜新市,玉龙新城,,43,36,74,30,48,51,,59,59,21,29,9,10,0.5,0.7
2026-01-15T1900,2301A,115.8276,32.8929,阜阳市,市监测站,颗粒物(PM10),82,114,122,43,78,36,,91,87,83,38,6,6,0.6,0.7
2026-01-15T1900,2303A,115.8551,32.8606,阜阳市,开发区,颗粒物(PM10),78,105,125,33,76,65,,90,87,51,37,6,7,0.6,0.7
2026-01-15T1900,2875A,115.783962,32.889217,阜阳市,阜阳职业技术学院,颗粒物(PM10),75,100,122,42,75,60,,96,94,41,28,8,8,0.8,0.7
2026-01-15T1900,3468A,115.79,32.8614,阜阳市,市规划展馆,,,,125,,83,,,106,106,32,28,7,8,0.6,0.8
2026-01-15T1900,3469A,115.835101,32.918568,阜阳市,枣园社区,颗粒物(PM10),69,87,123,41,83,72,,94,94,42,36,5,7,0.6,0.7
2026-01-15T1900,2669A,102.9097,34.9841,甘南藏族自治州,州政府,,32,32,55,15,27,74,,83,83,16,34,11,12,0.5,0.9
2026-01-15T1900,3380A,102.8915,34.9618,甘南藏族自治州,甘肃民族师范学院,,,36,64,9,12,,,85,85,12,32,7,14,0.1,0.6
2026-01-15T1900,2570A,101.96,30.048,甘孜藏族自治州,水桥子,,29,24,25,19,13,91,,86,86,7,19,6,6,0.8,0.7
2026-01-15T1900,3065A,101.9534,29.9976,甘孜藏族自治州,州环保局,,28,28,24,10,10,75,,85,85,17,12,6,6,0.6,0.6
2026-01-15T1900,2363A,114.9368,25.8663,赣州市,地委,细颗粒物(PM2.5),59,55,61,42,41,66,,124,124,63,51,9,9,1.2,0.9
2026-01-15T1900,2364A,114.946,25.8483,赣州市,气象台,颗粒物(PM10),72,94,85,36,39,21,,124,120,139,71,4,5,1.0,0.7
2026-01-15T1900,2365A,114.932,25.8332,赣州市,市图书馆,颗粒物(PM10),79,107,85,41,44,10,,84,82,120,68,6,6,1.7,1.1
2026-01-15T1900,2366A,114.8905,25.8472,赣州市,华坚鞋城,颗粒物(PM10),63,76,92,34,46,41,,100,100,94,67,9,11,0.9,0.8
2026-01-15T1900,3109A,115.0094,25.8614,赣州市,赣县区卫计委,细颗粒物(PM2.5),59,52,65,42,50,70,,120,120,43,39,7,7,0.8,0.8
2026-01-15T1900,2684A,106.2753,36.0057,固原市,监测站,颗粒物(PM10),76,101,103,37,32,64,,87,85,29,15,6,5,0.6,0.5
2026-01-15T1900,2685A,106.2384,36.0189,固原市,新区,颗粒物(PM10),66,81,98,47,27,64,,88,85,27,9,4,2,0.4,0.3
2026-01-15T1900,2544A,106.6307,30.4577,广安市,市委,细颗粒物(PM2.5),192,160,147,144,138,51,,79,79,67,34,11,10,1.6,1.3
2026-01-15T1900,2545A,106.6266,30.4662,广安市,友谊中学,,,,141,,125,,,77,77,,27,,6,,1.3
2026-01-15T1900,2547A,106.6386,30.4551,广安市,广电花园,细颗粒物(PM2.5),176,,134,133,126,51,,72,72,56,27,11,9,1.4,1
2026-01-15T1900,2902A,106.6347,30.4868,广安市,北辰小学,细颗粒物(PM2.5),178,134,131,134,122,78,,75,75,29,20,9,7,1.3,1.1
2026-01-15T1900,2524A,105.8211,32.4444,广元市,老城,细颗粒物(PM2.5),99,110,81,74,40,33,,55,55,71,51,26,23,1.5,1
2026-01-15T1900,2526A,105.8629,32.429,广元市,监测站,,,80,78,55,38,,,57,57,23,33,8,5,0.8,1
2026-01-15T1900,3617A,105.8047,32.4167,广元市,经开区,细颗粒物(PM2.5),85,90,102,63,47,72,,57,57,25,45,4,11,0.8,1.1
2026-01-15T1900,1345A,113.2346,23.1423,广州市,广雅中学,"颗粒物(PM10),细颗粒物(PM2.5)",75,99,108,55,59,87,,148,148,85,88,4,4,1.4,1.3
2026-01-15T1900,1346A,113.2611,23.105,广州市,市五中,颗粒物(PM10),75,100,87,54,54,131,,175,175,73,103,10,10,/,/
2026-01-15T1900,1348A,113.3477,23.0916,广州市,广东商学院,细颗粒物(PM2.5),90,100,96,67,59,166,,155,155,47,87,8,7,0.6,0.8
2026-01-15T1900,1349A,113.4332,23.105,广州市,市八十六中,细颗粒物(PM2.5),92,111,84,68,45,134,,143,143,114,104,9,10,/,/
2026-01-15T1900,1350A,113.3506,22.9488,广州市,番禺中学,细颗粒物(PM2.5),107,135,95,80,57,148,,153,153,74,83,5,6,1.0,0.9
2026-01-15T1900,1351A,113.2147,23.3918,广州市,花都师范,颗粒物(PM10),70,90,116,47,62,129,,162,162,67,110,9,7,0.7,0.9
2026-01-15T1900,1352A,113.2599,23.1329,广州市,市监测站,,,92,95,54,56,121,,155,155,,92,,5,/,/
2026-01-15T1900,1353A,113.5618,23.3119,广州市,九龙镇镇龙,颗粒物(PM10),73,96,108,51,59,77,,137,136,110,72,6,5,0.7,0.7
2026-01-15T1900,1354A,113.2764,23.1544,广州市,麓湖,细颗粒物(PM2.5),68,78,83,49,50,110,,154,154,81,88,10,10,0.5,0.7
2026-01-15T1900,2846A,113.3209,23.1323,广州市,体育西,细颗粒物(PM2.5),105,130,100,79,55,149,,151,151,59,92,9,8,1.2,1
2026-01-15T1900,3298A,113.5718,23.5493,广州市,从化街口,细颗粒物(PM2.5),64,71,82,46,54,115,,150,150,36,55,11,9,0.8,0.8
2026-01-15T1900,3299A,113.3463,23.369,广州市,白云竹料,,,103,119,58,68,129,,170,170,,92,,5,0.8,0.9
2026-01-15T1900,3300A,113.2981,23.2365,广州市,白云嘉禾,颗粒物(PM10),86,121,94,59,49,60,,164,164,141,90,7,7,/,/
2026-01-15T1900,3301A,113.4256,23.1716,广州市,黄埔科学城,"颗粒物(PM10),细颗粒物(PM2.5)",65,79,71,47,40,154,,162,162,54,68,7,6,0.7,0.8
2026-01-15T1900,3302A,113.3942,23.0485,广州市,番禺大学城,臭氧1小时(O3_1h),92,105,97,52,50,193,,175,175,43,86,9,12,0.6,0.7
2026-01-15T1900,3303A,113.4923,22.8169,广州市,南沙黄阁,细颗粒物(PM2.5),82,109,82,60,47,127,,152,152,90,84,8,9,/,/
2026-01-15T1900,3304A,113.534,22.7893,广州市,南沙街,颗粒物(PM10),91,131,82,60,44,152,,156,156,67,71,7,7,0.7,0.6
2026-01-15T1900,3443A,113.2905,23.5541,广州市,花都梯面,颗粒物(PM10),79,108,62,51,36,34,,159,148,102,52,5,6,/,/
2026-01-15T1900,3445A,113.786,23.7479,广州市,从化良口,细颗粒物(PM2.5),60,51,41,43,30,109,,128,128,16,25,8,8,/,/
2026-01-15T1900,3446A,113.805,23.2614,广州市,增城荔城,,42,42,69,25,47,86,,137,136,37,33,5,7,0.6,0.6
2026-01-15T1900,2506A,109.604387,23.066791,贵港市,江南子站,颗粒物(PM10),69,88,138,42,92,124,,137,137,18,48,6,10,0.7,1.2
2026-01-15T1900,2508A,109.5669,23.1065,贵港市,荷城子站,颗粒物(PM10),69,88,102,44,69,90,,121,121,38,44,6,10,1.0,1.2
2026-01-15T1900,3405A,109.5886,23.1172,贵港市,新世纪学校,,,78,101,41,66,110,,137,137,21,41,/,/,,0.8
2026-01-15T1900,4260A,109.5933,23.095,贵港市,中山路155-3号,颗粒物(PM10),56,62,104,36,75,126,,141,141,19,44,/,/,0.5,0.9
2026-01-15T1900,1439A,106.6863,26.6035,贵阳市,马鞍山,细颗粒物(PM2.5),85,70,103,63,89,84,,93,93,26,25,15,10,/,/
2026-01-15T1900,1441A,106.6241,26.6266,贵阳市,鉴湖路,"颗粒物(PM10),细颗粒物(PM2.5)",70,90,101,51,69,82,,104,104,29,26,15,11,0.6,0.8
2026-01-15T1900,1442A,106.7468,26.6344,贵阳市,燕子冲,细颗粒物(PM2.5),79,75,100,58,92,85,,96,96,28,28,10,11,0.6,1
2026-01-15T1900,1443A,106.6556,26.4362,贵阳市,碧云窝,细颗粒物(PM2.5),62,68,121,44,95,92,,95,95,23,27,11,13,/,/
2026-01-15T1900,1445A,106.6963,26.6063,贵阳市,红边门,细颗粒物(PM2.5),89,90,112,66,92,68,,90,90,42,37,16,22,/,/
2026-01-15T1900,1446A,106.7162383,26.56964667,贵阳市,新华路,细颗粒物(PM2.5),83,83,120,61,91,65,,68,68,39,39,20,14,0.8,1
2026-01-15T1900,1447A,106.6742,26.542,贵阳市,太慈桥,细颗粒物(PM2.5),79,75,107,58,86,73,,79,79,30,35,9,7,/,/
2026-01-15T1900,4230A,106.688212,26.56952,贵阳市,花果园大街66号,细颗粒物(PM2.5),85,63,112,63,111,67,,81,81,40,41,12,15,/,/
2026-01-15T1900,4231A,106.687268,26.516892,贵阳市,漓江路57号,细颗粒物(PM2.5),89,78,121,66,100,77,,91,91,34,42,28,25,1.1,1.4
2026-01-15T1900,1864A,110.3091,25.2705,桂林市,龙隐路小学,细颗粒物(PM2.5),85,94,101,63,81,64,,118,118,48,41,8,10,1.1,1
2026-01-15T1900,1865A,110.2849361,25.22909545,桂林市,八中,细颗粒物(PM2.5),99,108,101,74,81,84,,98,98,39,41,10,13,0.8,0.8
2026-01-15T1900,3531A,110.296,25.1254,桂林市,旅游学院,细颗粒物(PM2.5),117,,90,88,78,119,,128,128,32,35,7,7,0.4,0.5
2026-01-15T1900,4222A,110.1835,25.2444,桂林市,环湖路276号,细颗粒物(PM2.5),83,88,116,61,80,111,,110,110,22,49,9,11,0.5,0.7
2026-01-15T1900,4301A,110.2803,25.2773,桂林市,信义路13号,细颗粒物(PM2.5),84,90,100,62,73,95,,121,121,39,41,8,12,1.2,1.2
2026-01-15T1900,2674A,100.2262,34.4854,果洛藏族自治州,玛沁县大武镇,,31,31,62,20,15,98,,92,92,1,7,8,17,0.2,0.4
2026-01-15T1900,1130A,126.5557,45.8109,哈尔滨市,松北商大,细颗粒物(PM2.5),54,49,96,38,78,31,,46,46,38,45,10,9,0.7,1.1
2026-01-15T1900,1132A,126.6162,45.719,哈尔滨市,南岗学府路,,45,38,73,31,55,41,,49,49,22,35,9,12,0.8,1
2026-01-15T1900,1133A,126.6894,45.7733,哈尔滨市,太平宏伟公园,细颗粒物(PM2.5),58,,89,41,73,40,,53,53,26,40,13,13,0.8,1.1
2026-01-15T1900,1134A,126.6361,45.7672,哈尔滨市,道外承德广场,颗粒物(PM10),52,53,106,32,69,45,,52,52,26,47,14,19,0.7,1
2026-01-15T1900,1136A,126.644,45.7261,哈尔滨市,动力和平路,,46,40,78,32,61,41,,50,50,24,38,26,19,0.6,0.9
2026-01-15T1900,1137A,126.5933,45.7479,哈尔滨市,道里建国路,细颗粒物(PM2.5),57,,76,40,70,33,,45,44,37,46,14,23,0.6,1
2026-01-15T1900,1138A,126.6127,45.6119,哈尔滨市,平房东轻厂,细颗粒物(PM2.5),133,126,77,101,71,9,,37,33,67,52,17,16,1.3,1.3
2026-01-15T1900,1139A,126.5875,45.9827,哈尔滨市,呼兰师专,细颗粒物(PM2.5),90,,107,67,106,18,,46,44,47,40,14,12,0.9,1.3
2026-01-15T1900,1140A,126.6299,45.6799,哈尔滨市,省农科院,,45,36,76,31,64,45,,47,47,25,46,12,16,0.5,0.9
2026-01-15T1900,4282A,126.6769,45.7379,哈尔滨市,华山路1号,,45,39,76,31,63,44,,48,48,22,40,10,23,0.7,1
2026-01-15T1900,4283A,126.9717,45.5356,哈尔滨市,解放大街52号,细颗粒物(PM2.5),102,88,70,76,62,38,,51,50,37,34,16,15,1.1,1.3
2026-01-15T1900,2688A,93.5124,42.8176,哈密市,地区监测站,颗粒物(PM10),110,170,440,60,98,51,,50,50,21,26,2,2,0.5,0.8
2026-01-15T1900,2689A,93.5014,42.8312,哈密市,哈密师范学校,颗粒物(PM10),102,154,419,46,98,50,,51,51,31,36,2,2,0.7,1.1
2026-01-15T1900,2671A,100.9016,36.9464,海北藏族自治州,海晏县西海镇,,37,37,32,16,13,77,,86,86,6,3,9,7,0.4,0.4
2026-01-15T1900,3867A,102.074,36.5056,海东市,平安区公安局北苑,颗粒物(PM10),76,101,63,52,28,46,,61,61,20,28,11,17,0.8,1.1
2026-01-15T1900,4163A,102.0984,36.5119,海东市,滨河路,颗粒物(PM10),78,106,61,39,26,20,,74,71,77,43,16,16,1.2,1.1
2026-01-15T1900,1410A,110.3189,20.0596,海口市,海南大学,,43,43,43,24,23,127,,127,127,9,11,6,6,0.3,0.3
2026-01-15T1900,1411A,110.2827,20.0051,海口市,秀英海南医院,,40,40,42,17,21,100,,106,105,10,11,7,7,0.4,0.4
2026-01-15T1900,1412A,110.3391,19.9979,海口市,海南师范大学,,37,37,45,22,24,107,,109,109,10,12,5,6,0.7,0.7
2026-01-15T1900,1413A,110.3303,20.0359,海口市,龙华路环保局宿舍,,39,39,43,24,25,111,,114,114,10,10,/,/,0.7,0.7
2026-01-15T1900,3539A,110.5111,19.9737,海口市,桂林洋子站,,42,42,38,23,23,105,,106,106,12,10,/,/,/,/
2026-01-15T1900,4134A,110.1952,20.0451,海口市,长滨二路9号,,40,40,36,21,22,106,,110,110,8,9,/,/,/,/
2026-01-15T1900,2673A,100.6158,36.2985,海南藏族自治州,共和县恰卜恰镇,颗粒物(PM10),52,53,47,26,22,65,,82,82,25,22,13,13,0.6,0.5
2026-01-15T1900,2676A,97.373,37.376,海西蒙古族藏族自治州,德令哈市,颗粒物(PM10),60,69,54,19,13,86,,91,90,19,4,8,11,0.8,0.5
2026-01-15T1900,1049A,114.492,36.5712,邯郸市,矿院,颗粒物(PM10),65,80,151,34,119,68,,61,61,31,61,3,9,0.3,1.5
2026-01-15T1900,1050A,114.4839,36.6136,邯郸市,丛台公园,颗粒物(PM10),60,70,163,31,110,72,,61,61,18,57,3,10,0.3,1.5
2026-01-15T1900,3458A,114.7893,36.5592,邯郸市,香泉濮院小区,颗粒物(PM10),81,111,173,55,109,58,,67,67,24,51,5,16,0.4,1.4
2026-01-15T1900,3580A,114.1998,36.4439,邯郸市,峰峰矿区临水派出所,颗粒物(PM10),62,73,101,34,46,80,,77,77,9,14,9,11,0.4,0.6
2026-01-15T1900,4068A,114.5209,36.7697,邯郸市,建安街268号,,,115,173,,123,69,,52,52,12,55,4,12,0.2,1.5
2026-01-15T1900,4069A,114.5488,36.6177,邯郸市,丛台东路558号,颗粒物(PM10),69,87,167,33,114,69,,63,63,20,57,5,11,0.4,1.5
2026-01-15T1900,2635A,107.0155,33.0707,汉中市,市监测站,颗粒物(PM10),75,99,103,49,69,13,,55,53,86,44,7,6,1.7,1.1
2026-01-15T1900,2636A,107.0083,33.114,汉中市,鑫源开发区,细颗粒物(PM2.5),62,66,98,44,68,43,,67,67,56,44,6,9,0.8,0.9
2026-01-15T1900,2637A,107.0072,33.0323,汉中市,南郑大河坎水厂,细颗粒物(PM2.5),77,96,99,56,62,19,,64,63,75,32,8,7,1.3,0.9
2026-01-15T1900,1223A,120.2073,30.2111,杭州市,滨江,细颗粒物(PM2.5),83,93,86,61,64,62,,88,88,66,58,8,9,0.7,0.6
2026-01-15T1900,1224A,120.0625,30.2737,杭州市,西溪,颗粒物(PM10),55,60,77,32,39,45,,99,99,32,38,8,9,1.1,1
2026-01-15T1900,1226A,120.3417,30.315,杭州市,下沙,细颗粒物(PM2.5),77,84,97,56,61,9,,86,81,137,83,10,10,0.8,0.8
2026-01-15T1900,1227A,120.1252,30.2465,杭州市,卧龙桥,颗粒物(PM10),51,52,59,35,41,36,,91,91,52,45,9,9,0.5,0.4
2026-01-15T1900,1228A,120.1902,30.2691,杭州市,浙江农大,细颗粒物(PM2.5),129,138,121,98,71,8,,89,85,121,83,6,7,0.9,0.9
2026-01-15T1900,1230A,120.1195,30.3121,杭州市,和睦小学,颗粒物(PM10),76,102,91,54,56,43,,93,93,79,65,7,7,1.0,0.9
2026-01-15T1900,1231A,120.3076,30.4146,杭州市,临平镇,细颗粒物(PM2.5),95,112,104,71,61,52,,94,94,73,76,11,9,0.8,0.7
2026-01-15T1900,1232A,120.2753,30.1839,杭州市,城厢镇,细颗粒物(PM2.5),78,89,80,57,50,46,,90,90,85,56,11,9,0.9,0.8
2026-01-15T1900,1233A,120.0883,30.1808,杭州市,云栖,颗粒物(PM10),66,82,80,32,42,69,,94,91,30,46,4,4,0.7,0.7
2026-01-15T1900,3557A,119.9463,30.0496,杭州市,镇二中,细颗粒物(PM2.5),63,72,62,45,48,65,,87,87,61,57,6,6,0.8,0.9
2026-01-15T1900,3558A,119.7184,30.2367,杭州市,市府大楼,颗粒物(PM10),76,102,64,50,38,63,,102,102,50,33,12,12,1.0,0.8
2026-01-15T1900,3656A,120.1554,30.2863,杭州市,消防大队,细颗粒物(PM2.5),94,99,90,70,59,50,,97,92,76,70,8,8,1.0,0.8
2026-01-15T1900,1270A,117.1957,31.7845,合肥市,明珠广场,颗粒物(PM10),75,100,92,44,53,42,,77,77,78,76,7,8,0.5,0.7
2026-01-15T1900,1271A,117.307,31.8765,合肥市,三里街,颗粒物(PM10),64,78,112,34,65,24,,70,70,86,75,7,7,0.9,1.1
2026-01-15T1900,1272A,117.2587,31.8703,合肥市,琥珀山庄,颗粒物(PM10),70,90,101,27,63,34,,88,86,68,67,8,9,1.0,1.1
2026-01-15T1900,1275A,117.2593,31.9376,合肥市,庐阳区,颗粒物(PM10),84,117,103,39,58,15,,93,84,116,63,6,6,0.8,0.8
2026-01-15T1900,1276A,117.345251,31.861615,合肥市,瑶海区,颗粒物(PM10),63,75,103,32,60,54,,81,81,69,73,7,7,0.7,0.8
2026-01-15T1900,1277A,117.3033,31.7967,合肥市,包河区,颗粒物(PM10),75,100,95,53,61,19,,80,76,121,86,13,12,1.0,1
2026-01-15T1900,1278A,117.278,31.7392,合肥市,滨湖新区,,,75,93,44,62,,,93,93,36,75,6,8,,0.9
2026-01-15T1900,1279A,117.1324,31.8395,合肥市,高新区,颗粒物(PM10),56,61,88,16,53,62,,94,94,51,51,5,7,0.5,0.7
2026-01-15T1900,3464A,117.3802,31.9148,合肥市,高教基地,颗粒物(PM10),78,105,110,35,69,19,,71,70,77,64,9,10,0.7,0.8
2026-01-15T1900,4098A,117.2518,31.8404,合肥市,中国科学技术大学,,,68,88,22,55,,,99,99,58,64,9,10,0.8,0.9
2026-01-15T1900,3614A,79.9241,37.0878,和田地区,地区环保局,,,92,315,18,41,,,69,69,15,28,1,4,0.1,0.3
2026-01-15T1900,3615A,79.9132,37.1137,和田地区,市环保局,颗粒物(PM10),86,121,265,37,50,87,,73,73,28,58,2,6,0.2,1.7
2026-01-15T1900,2517A,108.0496,24.6957,河池市,市环保站,细颗粒物(PM2.5),93,89,97,69,78,71,,80,80,26,34,3,4,0.9,1
2026-01-15T1900,4302A,108.0901,24.6945,河池市,上任中路54号,细颗粒物(PM2.5),112,103,103,84,84,28,,72,72,60,39,6,5,1.0,1.1
2026-01-15T1900,1697A,114.6962,23.7538,河源市,东埔,,,,65,,44,,,114,,,61,,7,,1.1
2026-01-15T1900,1698A,114.6895,23.7232,河源市,老城,颗粒物(PM10),51,51,48,26,27,95,,127,127,17,33,6,7,0.5,0.6
2026-01-15T1900,3374A,115.5562,35.089,菏泽市,定陶老年大学,颗粒物(PM10),93,136,145,44,72,68,,83,81,25,32,3,5,0.2,0.6
2026-01-15T1900,4114A,115.4239,35.2593,菏泽市,黄河路600号,颗粒物(PM10),92,134,156,46,69,85,,86,86,28,45,3,6,0.4,0.6
2026-01-15T1900,4115A,115.5025,35.2727,菏泽市,菏泽市人社局,颗粒物(PM10),90,129,144,47,66,76,,76,76,17,27,3,7,0.1,0.3
2026-01-15T1900,4184A,115.479691,35.244011,菏泽市,永昌路1号,颗粒物(PM10),98,145,151,46,71,86,,84,84,23,39,4,6,0.2,0.5
2026-01-15T1900,4193A,115.471542,35.280012,菏泽市,长城路999号,颗粒物(PM10),102,153,154,42,68,93,,89,89,21,43,6,9,0.4,0.7
2026-01-15T1900,2514A,111.5264,24.4178,贺州市,环保小区,颗粒物(PM10),70,90,87,48,58,117,,142,142,53,43,10,10,0.9,0.6
2026-01-15T1900,2515A,111.561,24.4074,贺州市,政协大楼,细颗粒物(PM2.5),64,74,75,46,52,98,,140,140,52,36,14,18,1.3,1.1
2026-01-15T1900,3534A,111.4744,24.455,贺州市,西湾,"颗粒物(PM10),细颗粒物(PM2.5)",62,73,89,44,54,124,,138,138,38,45,10,9,0.7,0.7
2026-01-15T1900,2385A,114.17,35.9019,鹤壁市,市监测站,颗粒物(PM10),60,69,100,24,46,67,,71,71,44,28,4,4,0.4,0.7
2026-01-15T1900,2386A,114.2953,35.7512,鹤壁市,市交警支队,颗粒物(PM10),82,114,113,43,45,55,,62,62,32,42,4,5,0.5,0.8
2026-01-15T1900,2387A,114.2877,35.7302,鹤壁市,迎宾馆,颗粒物(PM10),91,131,121,55,47,60,,71,71,54,47,4,6,0.6,0.9
2026-01-15T1900,3474A,114.2616,35.6824,鹤壁市,大新区,细颗粒物(PM2.5),82,98,124,60,38,49,,65,65,42,46,5,9,0.6,0.8
2026-01-15T1900,3596A,114.1573,35.9607,鹤壁市,南山宾馆,颗粒物(PM10),58,66,109,18,32,73,,80,80,16,12,6,8,0.5,0.5
2026-01-15T1900,2244A,130.2537,47.3416,鹤岗市,哈啤分公司,细颗粒物(PM2.5),77,63,35,56,25,42,,61,49,24,12,10,7,0.7,0.5
2026-01-15T1900,2245A,130.2683,47.3087,鹤岗市,斯达机电,颗粒物(PM10),76,102,29,51,23,20,,53,42,41,13,15,6,0.7,0.5
2026-01-15T1900,2246A,130.3114,47.3388,鹤岗市,东山纸板厂,,48,40,35,33,30,15,,53,42,46,24,11,12,0.9,1.2
2026-01-15T1900,2263A,127.4832,50.2524,黑河市,交通局,,21,21,21,7,21,43,,50,50,17,12,7,6,0.3,0.7
2026-01-15T1900,2264A,127.5146,50.2339,黑河市,环保局,,34,34,23,19,23,42,,50,49,21,20,5,6,0.4,0.4
2026-01-15T1900,1074A,115.6839,37.754,衡水市,电机北厂,细颗粒物(PM2.5),170,251,187,129,103,2,,53,49,87,53,10,11,1.0,1
2026-01-15T1900,1075A,115.6303,37.7318,衡水市,市监测站,细颗粒物(PM2.5),130,197,174,99,104,16,,50,48,78,59,10,11,1.3,1.1
2026-01-15T1900,3188A,115.6684,37.7216,衡水市,市城管局,细颗粒物(PM2.5),144,211,181,110,97,32,,53,53,,62,10,11,1.0,1
2026-01-15T1900,3459A,115.599,37.5491,衡水市,地表水厂,"颗粒物(PM10),细颗粒物(PM2.5)",119,188,167,90,109,32,,55,55,69,56,10,11,0.7,1
2026-01-15T1900,2457A,112.6209,26.9268,衡阳市,衡阳化工总厂,细颗粒物(PM2.5),117,110,104,88,80,47,,78,78,61,47,14,51,1.5,1.2
2026-01-15T1900,2458A,112.621,26.8957,衡阳市,珠晖区环保局,细颗粒物(PM2.5),114,115,98,86,79,32,,82,80,84,61,10,19,1.4,1.3
2026-01-15T1900,2459A,112.628,26.8654,衡阳市,市委党校,细颗粒物(PM2.5),117,97,95,88,75,71,,93,93,47,43,16,17,1.2,1.2
2026-01-15T1900,2460A,112.6007,26.8977,衡阳市,市监测站,细颗粒物(PM2.5),107,138,135,80,87,23,,80,77,62,49,10,18,1.8,1.8
2026-01-15T1900,2461A,112.5658,26.9013,衡阳市,真空机电公司,细颗粒物(PM2.5),104,98,108,78,79,39,,82,81,76,57,12,20,1.6,1.5
2026-01-15T1900,3399A,112.6703,26.8817,衡阳市,师范学院,细颗粒物(PM2.5),117,123,96,88,67,68,,97,97,41,42,8,10,1.3,1.1
2026-01-15T1900,3038A,103.3757,23.3679,红河哈尼族彝族自治州,州图书馆,细颗粒物(PM2.5),55,49,50,39,38,79,,89,89,10,9,6,6,0.7,0.7
2026-01-15T1900,4154A,103.401,23.3561,红河哈尼族彝族自治州,蒙自市朝阳路,细颗粒物(PM2.5),57,,37,40,39,76,,88,88,8,8,6,5,0.7,0.7
2026-01-15T1900,1090A,111.6506,40.7517,呼和浩特市,呼市一监,颗粒物(PM10),82,114,185,42,36,48,,53,53,29,32,10,9,0.5,0.5
2026-01-15T1900,1094A,111.7516,40.8369,呼和浩特市,如意水处理厂,颗粒物(PM10),125,199,174,55,38,0,,41,38,79,43,15,12,1.2,0.6
2026-01-15T1900,1095A,111.727798,40.806187,呼和浩特市,二十九中,颗粒物(PM10),92,133,176,44,40,16,,43,42,63,37,15,13,0.7,0.6
2026-01-15T1900,1097A,111.717,40.7617,呼和浩特市,化肥厂生活区,颗粒物(PM10),109,167,202,51,41,11,,43,41,65,36,9,7,0.7,0.5
2026-01-15T1900,3699A,111.6519,40.8389,呼和浩特市,海东办,颗粒物(PM10),113,175,176,48,36,12,,45,44,60,41,13,8,0.8,0.7
2026-01-15T1900,4275A,111.591512,40.827312,呼和浩特市,成吉思汗西街8号,颗粒物(PM10),129,207,186,62,36,6,,40,38,62,40,14,10,0.6,0.5
2026-01-15T1900,4276A,111.6597,40.8077,呼和浩特市,公园东路75号,颗粒物(PM10),103,156,196,43,42,28,,44,44,52,40,12,10,0.5,0.6
2026-01-15T1900,4277A,111.5427,40.7846,呼和浩特市,金海路35号,颗粒物(PM10),108,165,176,66,37,4,,42,39,62,40,15,15,1.1,0.7
2026-01-15T1900,3061A,119.7511,49.1576,呼伦贝尔市,国华电力东,,32,32,34,19,25,44,,50,50,23,28,4,6,0.5,0.5
2026-01-15T1900,4279A,119.7569,49.2222,呼伦贝尔市,伊敏大街东7号,,39,35,45,27,34,28,,31,31,31,35,7,7,0.4,0.8
2026-01-15T1900,1250A,120.075,30.867,湖州市,城西水厂,细颗粒物(PM2.5),95,104,92,71,64,92,,104,104,37,67,10,10,0.7,0.7
2026-01-15T1900,2873A,120.083,30.8929,湖州市,仁皇山新区,细颗粒物(PM2.5),89,98,91,66,63,66,,105,105,70,74,9,11,0.8,0.8
2026-01-15T1900,2907A,120.1846,30.8592,湖州市,吴兴区站,,,,99,,66,,,72,,,88,,11,,0.9
2026-01-15T1900,3562A,120.4146,30.8538,湖州市,南浔区站,细颗粒物(PM2.5),90,111,102,67,69,71,,98,98,56,69,12,11,1.0,0.9
2026-01-15T1900,1607A,120.904878,40.721091,葫芦岛市,龙港区,细颗粒物(PM2.5),77,87,78,56,53,52,,54,54,32,32,70,16,1.9,1
2026-01-15T1900,1608A,120.8382,40.7521,葫芦岛市,化工街,细颗粒物(PM2.5),73,90,90,53,58,32,,46,46,42,36,28,29,0.8,0.9
2026-01-15T1900,1609A,120.8339,40.7078,葫芦岛市,新区,细颗粒物(PM2.5),75,82,74,55,54,41,,48,48,32,38,12,15,0.8,0.9
2026-01-15T1900,1610A,120.8697,40.7679,葫芦岛市,东城区,细颗粒物(PM2.5),82,77,73,60,58,38,,50,49,39,37,16,17,0.9,1
2026-01-15T1900,2483A,109.9297,27.5383,怀化市,河西地税局,细颗粒物(PM2.5),105,102,90,79,81,34,,55,52,35,28,2,2,/,/
2026-01-15T1900,2484A,109.9783,27.5342,怀化市,市四医院,,,,109,,86,,,71,47,,35,,6,,1.0
2026-01-15T1900,2485A,109.9971,27.5579,怀化市,监测楼,,,,99,,85,,,50,,,31,,4,,0.4
2026-01-15T1900,1210A,119.0566,33.5991,淮安市,钵池山,细颗粒物(PM2.5),213,232,157,163,121,46,,80,80,68,43,12,12,1.3,0.9
2026-01-15T1900,1211A,119.0083,33.578,淮安市,北京南路,细颗粒物(PM2.5),207,241,161,157,126,4,,66,62,98,64,10,11,1.7,1
2026-01-15T1900,1212A,118.9938,33.6083,淮安市,市监测站,细颗粒物(PM2.5),195,207,151,146,119,11,,70,67,89,49,11,13,1.7,1.1
2026-01-15T1900,1213A,119.135,33.5038,淮安市,楚州区监测站,细颗粒物(PM2.5),215,230,165,165,128,30,,66,66,83,62,11,11,1.4,1.1
2026-01-15T1900,3426A,118.8757,33.2897,淮安市,新华书店,细颗粒物(PM2.5),182,204,142,137,108,32,,75,73,84,41,18,12,1.0,1.2
2026-01-15T1900,4092A,119.119691,33.550006,淮安市,枚皋中路89号,细颗粒物(PM2.5),215,217,167,165,128,49,,76,76,49,52,10,12,0.9,1
2026-01-15T1900,4206A,119.028838,33.631911,淮安市,承德北路606号,细颗粒物(PM2.5),209,298,178,159,120,3,,70,63,112,53,9,11,2.1,1
2026-01-15T1900,2282A,116.8005,33.9749,淮北市,监测站,颗粒物(PM10),106,162,187,61,105,43,,87,84,64,46,10,11,0.8,0.8
2026-01-15T1900,2283A,116.8094,33.9008,淮北市,烈山区政府,颗粒物(PM10),114,177,179,56,117,78,,88,88,27,42,8,12,,0.7
2026-01-15T1900,4017A,116.7926,33.9534,淮北市,市博物馆,颗粒物(PM10),110,170,193,55,117,68,,92,92,40,46,5,6,0.8,1
2026-01-15T1900,4100A,116.8322,33.9884,淮北市,杜集区第一实验学校,颗粒物(PM10),119,187,181,65,111,80,,102,102,28,37,10,11,0.6,0.8
2026-01-15T1900,2277A,116.8304,32.7726,淮南市,潘集区政府,颗粒物(PM10),122,194,133,80,82,,,91,91,65,34,10,9,0.8,0.8
2026-01-15T1900,2279A,116.8569,32.5949,淮南市,谢家集区政府,颗粒物(PM10),96,142,105,57,62,82,,100,100,42,31,12,11,0.6,0.7
2026-01-15T1900,2280A,116.8279,32.6333,淮南市,八公山区政府,颗粒物(PM10),97,144,99,61,55,88,,100,100,27,18,6,9,0.6,0.6
2026-01-15T1900,2894A,117.0561,32.6536,淮南市,经济技术开发区消防队,颗粒物(PM10),95,140,128,62,70,58,,85,85,62,45,8,8,0.7,0.8
2026-01-15T1900,3329A,117.011,32.5891,淮南市,山南新区,颗粒物(PM10),99,148,137,39,72,91,,101,101,27,37,5,6,0.6,0.8
2026-01-15T1900,4209A,117.003137,32.644456,淮南市,国庆中路369号,颗粒物(PM10),97,143,114,57,72,46,,79,78,57,42,13,13,1.0,0.9
2026-01-15T1900,2446A,114.9021,30.474,黄冈市,职工中心,细颗粒物(PM2.5),102,101,100,76,75,94,,114,114,40,45,10,12,1.2,1.3
2026-01-15T1900,2929A,114.8858,30.4519,黄冈市,红卫路,细颗粒物(PM2.5),122,96,91,92,76,104,,116,116,37,46,13,12,0.8,0.9
2026-01-15T1900,3398A,114.9134,30.4446,黄冈市,市林业局,细颗粒物(PM2.5),117,134,103,88,81,110,,116,116,46,53,6,8,1.1,1.1
2026-01-15T1900,2672A,102.02,35.5101,黄南藏族自治州,同仁县隆务镇,颗粒物(PM10),56,62,38,22,14,60,,72,72,6,4,11,10,0.4,0.3
2026-01-15T1900,2295A,118.2905,29.6965,黄山市,延安路89号,颗粒物(PM10),57,63,35,37,26,87,,107,107,23,18,6,4,0.7,0.5
2026-01-15T1900,2297A,118.1369,30.2755,黄山市,黄山区政府5号楼,细颗粒物(PM2.5),70,82,44,51,31,67,,106,106,23,13,4,3,0.8,0.5
2026-01-15T1900,4210A,118.335445,29.720283,黄山市,滨江东路7-2号,颗粒物(PM10),87,124,58,58,37,29,,91,90,57,26,/,/,/,/
2026-01-15T1900,2423A,115.0547,30.2332,黄石市,沈家营,细颗粒物(PM2.5),122,107,119,92,78,86,,96,96,49,49,7,6,1.3,1.4
2026-01-15T1900,2426A,114.899,30.211,黄石市,铁山,,,,94,,74,,,92,,,46,,9,,0.6
2026-01-15T1900,2427A,115.0259,30.2108,黄石市,团城山,细颗粒物(PM2.5),107,102,112,80,82,108,,98,98,42,47,6,8,0.9,1.2
2026-01-15T1900,3149A,115.0174,30.1591,黄石市,笔架山北路,细颗粒物(PM2.5),122,142,152,92,86,105,,111,111,23,44,14,14,1.3,1.7
2026-01-15T1900,4185A,115.078022,30.21118,黄石市,磁湖东路29号,细颗粒物(PM2.5),175,171,120,132,90,43,,87,87,92,53,9,10,2.1,1.5
2026-01-15T1900,1392A,114.4181,23.0528,惠州市,河南岸金山湖子站,,50,50,62,26,34,119,,130,130,26,33,4,5,0.6,0.7
2026-01-15T1900,1393A,114.4055,23.0824,惠州市,下埔横江三路子站,颗粒物(PM10),59,67,70,35,36,94,,148,148,55,45,7,8,0.9,0.7
2026-01-15T1900,1395A,114.4645,22.7832,惠州市,惠阳区承修路船湖子站,颗粒物(PM10),55,60,66,30,34,117,,157,157,44,35,8,8,0.6,0.6
2026-01-15T1900,1396A,114.5316,22.7423,惠州市,大亚湾管委会子站,颗粒物(PM10),54,57,66,30,33,142,,162,162,25,43,7,6,0.6,0.6
2026-01-15T1900,3314A,114.4334,22.8134,惠州市,惠阳秋长,,,,67,28,34,147,,190,190,35,40,/,/,/,/
2026-01-15T1900,3452A,114.6521,22.7755,惠州市,大亚湾霞涌,,45,45,50,27,26,134,,151,151,29,25,/,/,/,/
2026-01-15T1900,4300A,114.4089,23.1147,惠州市,文华一路1号,颗粒物(PM10),53,56,73,31,40,126,,163,163,49,55,/,/,/,/
2026-01-15T1900,2240A,130.9618,45.2926,鸡西市,环保局,,49,49,71,32,53,19,,43,41,35,36,11,15,0.6,0.8
2026-01-15T1900,2243A,130.9294,45.2959,鸡西市,第一中学,颗粒物(PM10),53,55,46,33,31,12,,40,38,47,28,7,10,0.5,0.7
2026-01-15T1900,3707A,131.0069,45.2988,鸡西市,欧美日汽修厂,细颗粒物(PM2.5),104,93,84,78,59,39,,49,49,26,34,19,27,0.6,0.9
2026-01-15T1900,2367A,114.9753,27.0803,吉安市,红声器材厂,,,59,72,34,43,,,100,100,35,50,14,10,,0.8
2026-01-15T1900,2369A,114.9903,27.1313,吉安市,市环境监测站,细颗粒物(PM2.5),62,60,67,44,43,100,,104,104,33,51,15,10,/,/
2026-01-15T1900,2370A,115.009527,27.096792,吉安市,青原区法院,颗粒物(PM10),55,59,71,37,41,90,,92,92,35,49,14,11,0.7,0.8
2026-01-15T1900,1772A,126.54,43.8622,吉林市,哈达湾,颗粒物(PM10),55,60,53,38,36,50,,57,56,26,27,15,12,1.0,1.3
2026-01-15T1900,1773A,126.5843,43.8358,吉林市,东局子,细颗粒物(PM2.5),58,58,62,41,44,40,,40,40,28,31,8,6,1.0,1.2
2026-01-15T1900,1774A,126.5051,43.8243,吉林市,电力学院,细颗粒物(PM2.5),60,57,58,43,43,44,,54,54,29,29,33,23,0.7,0.9
2026-01-15T1900,1775A,126.6133,43.8971,吉林市,江北,,,106,59,46,43,,,54,54,24,21,11,15,0.9,1.1
2026-01-15T1900,1776A,126.5549,43.8304,吉林市,江南公园,细颗粒物(PM2.5),59,52,54,42,40,40,,48,48,30,28,13,10,0.8,0.9
2026-01-15T1900,2868A,126.4737,43.953,吉林市,九站,细颗粒物(PM2.5),100,103,64,75,47,36,,49,48,49,35,9,12,0.8,0.8
2026-01-15T1900,1299A,116.9866,36.6118,济南市,科干所,颗粒物(PM10),100,149,183,46,71,90,,90,90,18,39,9,15,0.5,0.8
2026-01-15T1900,1300A,116.9379,36.6652,济南市,农科所,颗粒物(PM10),113,176,210,51,88,76,,77,77,33,58,11,11,0.7,1.1
2026-01-15T1900,1301A,117.1265,36.6736,济南市,开发区,颗粒物(PM10),90,129,180,46,68,87,,77,77,27,53,5,7,0.6,0.9
2026-01-15T1900,1303A,117.0616,36.6865,济南市,省种子仓库,颗粒物(PM10),100,149,218,41,100,91,,76,76,20,59,6,13,0.6,1.4
2026-01-15T1900,1304A,116.9495185,36.644937,济南市,机床二厂,颗粒物(PM10),112,173,206,81,117,86,,85,85,28,50,13,19,0.4,1
2026-01-15T1900,1305A,117.0496,36.6629,济南市,市监测站,颗粒物(PM10),95,139,181,44,95,93,,83,83,19,44,5,8,0.5,1
2026-01-15T1900,1306A,116.7674,36.5458,济南市,长清党校,颗粒物(PM10),119,188,216,73,98,86,,84,84,29,47,9,10,0.6,0.9
2026-01-15T1900,1961A,117.5323,36.6865,济南市,东山小学,颗粒物(PM10),149,247,215,85,86,99,,96,96,24,44,8,7,0.5,0.6
2026-01-15T1900,3059A,117.7181,36.205,济南市,泰兴公司,颗粒物(PM10),153,256,246,110,157,27,,54,54,88,67,16,14,1.2,1.7
2026-01-15T1900,3064A,117.6861,36.2172,济南市,莱芜战役纪念馆,颗粒物(PM10),146,241,238,107,149,50,,66,66,69,68,14,13,0.8,1.5
2026-01-15T1900,3494A,117.1673,36.9782,济南市,济阳区政府,颗粒物(PM10),158,266,233,83,113,56,,62,62,58,62,14,15,0.9,1.1
2026-01-15T1900,3495A,117.1168,36.6299,济南市,锦屏中学,颗粒物(PM10),90,129,162,32,48,94,,95,95,18,24,4,5,0.6,0.7
2026-01-15T1900,4108A,117.7107,36.2385,济南市,山财大街5号,颗粒物(PM10),151,251,233,80,127,62,,73,73,89,78,20,16,0.9,1.4
2026-01-15T1900,4109A,116.9744,36.6889,济南市,无影山路12号,颗粒物(PM10),103,156,207,50,111,79,,76,76,21,51,9,14,0.7,1.3
2026-01-15T1900,1653A,116.6229,35.4288,济宁市,火炬城,细颗粒物(PM2.5),110,157,190,83,143,76,,78,78,34,50,6,6,0.6,1
2026-01-15T1900,3500A,116.5808,35.3703,济宁市,北湖一中,颗粒物(PM10),103,155,184,72,134,89,,81,81,23,48,11,11,0.5,1
2026-01-15T1900,3501A,116.8251,35.5592,济宁市,服务中心,细颗粒物(PM2.5),120,186,223,91,138,61,,68,68,47,62,13,14,,1.4
2026-01-15T1900,3678A,116.5907,35.4054,济宁市,市第七中学,颗粒物(PM10),111,172,193,66,125,80,,83,83,36,52,11,12,0.8,1.1
2026-01-15T1900,4111A,116.6075,35.4566,济宁市,任和路,颗粒物(PM10),122,194,217,62,131,82,,80,80,32,49,8,8,0.7,1.1
2026-01-15T1900,4112A,116.5648,35.3921,济宁市,文体南路1号,颗粒物(PM10),118,186,215,47,133,91,,90,90,23,52,7,8,0.4,0.9
2026-01-15T1900,2255A,130.2749,46.8028,佳木斯市,佳纺,细颗粒物(PM2.5),90,94,107,67,72,21,,34,30,41,38,12,13,0.8,0.8
2026-01-15T1900,2257A,130.3258,46.7975,佳木斯市,环保局,细颗粒物(PM2.5),58,53,57,41,57,12,,32,31,55,41,14,13,0.8,0.8
2026-01-15T1900,4285A,130.363,46.806,佳木斯市,顺和街,,,,38,,30,,,41,30,,34,,13,,0.6
2026-01-15T1900,4286A,130.3952,46.8268,佳木斯市,长安路196号,细颗粒物(PM2.5),67,70,37,48,29,8,,41,34,58,29,11,8,0.7,0.6
2026-01-15T1900,1252A,120.7439,30.778,嘉兴市,清河小学,细颗粒物(PM2.5),88,102,103,65,63,63,,91,91,57,63,12,9,1.0,0.8
2026-01-15T1900,1253A,120.7261,30.7477,嘉兴市,嘉兴学院,细颗粒物(PM2.5),92,126,104,68,58,57,,100,100,67,63,8,10,1.1,0.9
2026-01-15T1900,2872A,120.7845,30.7524,嘉兴市,南湖区残联,细颗粒物(PM2.5),74,85,96,54,60,86,,104,104,46,55,7,8,0.7,0.8
2026-01-15T1900,3407A,120.6915,30.7741,嘉兴市,秀洲住建,细颗粒物(PM2.5),80,92,103,59,65,10,,90,88,128,73,10,9,0.7,0.7
2026-01-15T1900,1945A,98.291,39.7705,嘉峪关市,气象局,颗粒物(PM10),107,163,162,41,30,68,,76,76,15,23,14,21,0.5,0.6
2026-01-15T1900,2884A,98.2672,39.7978,嘉峪关市,酒钢宾馆,颗粒物(PM10),107,163,165,31,31,61,,63,63,22,18,15,30,0.4,0.8
2026-01-15T1900,3248A,98.2644,39.7723,嘉峪关市,雄关区,颗粒物(PM10),83,116,113,33,28,76,,77,77,11,25,16,21,0.5,0.6
2026-01-15T1900,1383A,113.1063,22.6058,江门市,北街,细颗粒物(PM2.5),80,99,72,59,44,174,,178,178,52,48,/,/,/,/
2026-01-15T1900,1384A,113.073,22.5835,江门市,西区,细颗粒物(PM2.5),84,105,80,62,46,168,,169,169,55,56,/,/,/,/
2026-01-15T1900,1385A,113.0218,22.531,江门市,圭峰西,细颗粒物(PM2.5),69,77,64,50,42,160,,171,171,33,26,/,/,/,/
2026-01-15T1900,1386A,113.0826,22.5947,江门市,东湖,臭氧1小时(O3_1h),70,85,70,45,40,176,,180,180,48,55,12,10,0.7,0.7
2026-01-15T1900,3311A,113.1077,22.5647,江门市,江海富民,"颗粒物(PM10),臭氧1小时(O3_1h)",72,94,83,47,40,177,,183,183,55,54,/,/,0.7,0.9
2026-01-15T1900,3449A,113.0496,22.4669,江门市,新会银湖,"颗粒物(PM10),细颗粒物(PM2.5)",72,93,78,52,58,160,,175,175,26,43,9,8,0.6,0.5
2026-01-15T1900,3335A,113.3137,35.2643,焦作市,马村街道办,颗粒物(PM10),76,101,115,36,53,58,,77,74,35,29,12,14,0.7,0.7
2026-01-15T1900,3336A,113.2464,35.2374,焦作市,焦作技师学院,颗粒物(PM10),77,104,126,29,46,54,,73,73,38,36,12,15,0.6,0.8
2026-01-15T1900,3477A,113.1656,35.2536,焦作市,中站许衡医院,颗粒物(PM10),67,83,107,32,43,72,,75,75,30,32,7,15,0.4,0.7
2026-01-15T1900,3981A,113.2456,35.18,焦作市,原李万街道办,颗粒物(PM10),82,114,140,27,48,65,,74,74,27,37,9,12,0.4,0.6
2026-01-15T1900,4264A,113.234,35.219,焦作市,新安路1731号,颗粒物(PM10),82,114,133,36,52,57,,72,72,32,34,10,12,0.5,0.6
2026-01-15T1900,4295A,113.2722,35.2121,焦作市,人民路3066号,颗粒物(PM10),83,115,136,33,46,48,,68,68,37,35,13,11,0.6,0.8
2026-01-15T1900,1708A,116.3701,23.5345,揭阳市,新兴,颗粒物(PM10),63,76,77,33,48,93,,139,139,62,44,11,12,1.1,0.8
2026-01-15T1900,1709A,116.3261,23.5442,揭阳市,西马,颗粒物(PM10),67,83,81,33,44,110,,142,142,29,33,7,8,0.7,0.7
2026-01-15T1900,1710A,116.361,23.5627,揭阳市,东兴,颗粒物(PM10),62,73,79,32,41,104,,139,134,30,36,12,13,/,/
2026-01-15T1900,1711A,116.4151,23.5295,揭阳市,渔湖,颗粒物(PM10),67,84,76,38,36,103,,140,140,33,36,8,8,/,/
2026-01-15T1900,3320A,116.4028,23.5699,揭阳市,曲溪,颗粒物(PM10),75,99,82,50,43,112,,149,149,39,38,6,8,2.5,0.8
2026-01-15T1900,1944A,102.1691,38.5166,金昌市,天庆家园,颗粒物(PM10),113,175,119,32,31,75,,81,80,10,22,5,14,0.5,0.7
2026-01-15T1900,4022A,102.1648,38.5369,金昌市,金川区人防中心,颗粒物(PM10),112,174,94,48,39,76,,56,,10,20,3,22,0.7,0.7
2026-01-15T1900,4239A,102.193042,38.531887,金昌市,长春路96号,,,,113,,33,,,80,80,6,22,6,54,0.6,0.8
2026-01-15T1900,1262A,119.6478,29.0773,金华市,十五中,细颗粒物(PM2.5),99,105,87,74,55,41,,104,102,105,59,5,5,1.5,0.8
2026-01-15T1900,1263A,119.6859,29.1032,金华市,监测站,颗粒物(PM10),76,102,90,52,52,14,,81,80,123,65,7,5,0.8,0.6
2026-01-15T1900,3659A,119.656,29.1132,金华市,气象局,"颗粒物(PM10),细颗粒物(PM2.5)",70,89,92,51,58,5,,90,85,134,81,4,5,0.7,0.7
2026-01-15T1900,1767A,121.1114,41.0879,锦州市,南山,细颗粒物(PM2.5),77,62,65,56,57,54,,58,58,25,33,10,12,0.7,0.8
2026-01-15T1900,1768A,121.060361,40.842794,锦州市,开发区,细颗粒物(PM2.5),70,63,76,51,58,57,,53,53,17,39,6,13,0.8,1.1
2026-01-15T1900,1769A,121.1836,41.1118,锦州市,百股街道,细颗粒物(PM2.5),79,74,68,58,56,54,,55,55,24,29,7,12,0.9,0.9
2026-01-15T1900,1770A,121.1176,41.1224,锦州市,天安街道,细颗粒物(PM2.5),82,62,65,60,47,52,,63,61,27,19,10,12,1.0,0.9
2026-01-15T1900,1771A,121.1303,41.1385,锦州市,北湖公园,细颗粒物(PM2.5),78,72,68,57,52,48,,56,56,25,27,9,10,0.8,0.8
2026-01-15T1900,2160A,112.8496,35.5051,晋城市,自来水公司,,49,49,93,20,37,75,,73,73,18,28,5,9,0.3,1
2026-01-15T1900,2162A,112.8509,35.4886,晋城市,市环保局,,36,36,99,14,34,64,,80,80,36,34,4,7,0.6,1
2026-01-15T1900,3620A,112.8258,35.4804,晋城市,泽州一中,,,,112,,39,80,,82,82,14,22,,6,,0.8
2026-01-15T1900,4078A,112.8246,35.5152,晋城市,前书院路,颗粒物(PM10),52,54,115,21,31,67,,73,73,22,29,5,7,0.4,0.9
2026-01-15T1900,4079A,112.8864,35.4773,晋城市,祥云街666号,,47,47,102,23,35,88,,74,74,6,13,3,5,0.1,0.6
2026-01-15T1900,2174A,112.6992,37.6984,晋中市,榆次区政府,颗粒物(PM10),112,173,231,58,80,54,,70,70,42,44,21,27,0.8,1.2
2026-01-15T1900,2865A,112.7195,37.683,晋中市,榆次三中,颗粒物(PM10),122,193,237,51,65,36,,66,66,54,42,16,24,1.2,1.3
2026-01-15T1900,4080A,112.7375,37.7215,晋中市,广安街188号,颗粒物(PM10),140,230,239,78,77,19,,71,68,76,46,25,27,0.7,1.1
2026-01-15T1900,4200A,112.7478,37.6954,晋中市,迎宾街26号,,,,240,,74,,,74,74,,38,,28,,1.4
2026-01-15T1900,2439A,112.2012,31.048,荆门市,竹园小学,,,111,119,73,90,99,,97,97,,38,4,2,1.3,1.6
2026-01-15T1900,2440A,112.1968,30.9892,荆门市,掇刀,细颗粒物(PM2.5),100,95,129,75,96,90,,97,97,32,34,6,5,0.6,0.6
2026-01-15T1900,3012A,112.1849,31.0361,荆门市,西山林语,细颗粒物(PM2.5),79,93,100,58,78,99,,102,102,26,25,6,7,0.5,0.6
2026-01-15T1900,3547A,112.1631,31.0134,荆门市,龙泉中学南校,细颗粒物(PM2.5),85,113,120,63,88,108,,106,106,17,20,7,6,0.9,0.9
2026-01-15T1900,4124A,112.2213,31.0654,荆门市,新台西路6号,细颗粒物(PM2.5),110,128,134,83,107,90,,102,102,31,40,14,10,0.7,0.8
2026-01-15T1900,1844A,112.2493,30.3198,荆州市,市图书馆,,,,108,,112,99,,107,107,30,42,,9,1.0,1.1
2026-01-15T1900,1845A,112.2009,30.3543,荆州市,市委党校,细颗粒物(PM2.5),103,116,130,77,114,86,,94,94,38,45,6,4,0.9,1
2026-01-15T1900,3194A,112.2749,30.3124,荆州市,管委会,细颗粒物(PM2.5),109,86,122,82,110,85,,99,99,40,45,16,8,0.9,1.1
2026-01-15T1900,4268A,112.1722,30.3366,荆州市,学苑路85号,细颗粒物(PM2.5),97,87,127,72,111,88,,109,109,37,35,11,10,0.9,1
2026-01-15T1900,2343A,117.2114,29.2931,景德镇市,老干部活动中心,细颗粒物(PM2.5),89,88,66,66,48,56,,82,82,52,42,27,14,1.1,0.9
2026-01-15T1900,2344A,117.1893,29.2789,景德镇市,兽医站,"颗粒物(PM10),细颗粒物(PM2.5)",72,94,68,52,40,55,,92,92,58,44,18,12,1.1,0.9
2026-01-15T1900,2346A,117.246,29.2958,景德镇市,陶研所,细颗粒物(PM2.5),100,93,54,75,44,43,,83,83,52,37,12,6,1.0,0.5
2026-01-15T1900,4289A,117.154766,29.256967,景德镇市,青少年活动中心,颗粒物(PM10),84,117,78,58,45,25,,78,77,99,50,31,12,/,/
2026-01-15T1900,1803A,115.9873,29.6816,九江市,十里,细颗粒物(PM2.5),105,102,83,79,62,49,,99,97,90,49,7,9,1.5,1.2
2026-01-15T1900,1804A,115.9583,29.7047,九江市,茅山头,细颗粒物(PM2.5),90,112,76,67,53,72,,111,111,64,52,12,12,1.5,1
2026-01-15T1900,1805A,115.9877,29.7295,九江市,西园,细颗粒物(PM2.5),83,96,84,61,55,89,,120,120,86,78,5,7,1.3,1.1
2026-01-15T1900,1808A,115.9112,29.6038,九江市,综合工业园,细颗粒物(PM2.5),105,141,77,79,59,,,109,109,103,61,4,7,0.8,0.6
2026-01-15T1900,3190A,116.0254,29.6995,九江市,外国语学校,细颗粒物(PM2.5),94,109,77,70,52,56,,94,93,92,61,9,9,1.2,1
2026-01-15T1900,4253A,116.010205,29.659402,九江市,莲花大道8号,细颗粒物(PM2.5),93,99,68,69,50,69,,117,117,32,20,7,6,0.9,0.6
2026-01-15T1900,4240A,98.495752,39.733935,酒泉市,玉门东路5号,颗粒物(PM10),92,134,141,29,24,79,,81,81,7,11,10,12,0.4,0.4
2026-01-15T1900,4241A,98.5099,39.7506,酒泉市,北大街108号,,,,131,,23,69,,76,76,13,17,11,13,0.4,0.5
2026-01-15T1900,2698A,76.0071,39.466,喀什地区,巡警大队,颗粒物(PM10),52,53,170,15,88,75,,48,48,12,62,3,11,0.4,3.2
2026-01-15T1900,2699A,75.9756,39.4693,喀什地区,吾办,,45,45,145,7,87,71,,46,46,17,64,6,11,0.4,2.8
2026-01-15T1900,4027A,75.9485,39.4688,喀什地区,老干局,颗粒物(PM10),54,58,175,3,77,73,,50,50,9,52,4,11,0.3,3.2
2026-01-15T1900,1824A,114.3389,34.778,开封市,肿瘤医院,,,,151,,54,,,80,80,,50,,9,,0.7
2026-01-15T1900,1826A,114.2884,34.7966,开封市,世纪星幼儿园,细颗粒物(PM2.5),84,112,134,62,62,70,,80,80,30,45,7,9,0.4,0.5
2026-01-15T1900,3147A,114.3434,34.8101,开封市,龙亭公园,,,106,143,63,48,75,,82,82,,42,7,9,0.6,0.8
2026-01-15T1900,3210A,114.3645,34.7955,开封市,汴京公园,颗粒物(PM10),86,122,148,54,56,63,,75,75,40,47,5,7,0.6,0.7
2026-01-15T1900,3473A,114.2485,34.8306,开封市,技师学院,颗粒物(PM10),76,102,123,48,42,75,,80,80,27,34,6,8,0.6,0.7
2026-01-15T1900,3592A,114.4518,34.7503,开封市,祥符区生态环境局,颗粒物(PM10),91,132,155,44,60,55,,76,76,45,53,4,8,0.5,0.7
2026-01-15T1900,1951A,84.886,45.6029,克拉玛依市,长征新村,,24,24,31,12,16,58,,61,60,10,10,6,7,0.2,0.3
2026-01-15T1900,1952A,84.8894,45.5827,克拉玛依市,南林小区,,23,23,31,12,14,60,,64,61,8,10,3,3,0.5,0.5
2026-01-15T1900,1954A,84.896,44.3328,克拉玛依市,独山子区,细颗粒物(PM2.5),110,163,118,83,75,,,50,43,30,30,6,6,0.6,0.8
2026-01-15T1900,1955A,85.6888,46.0909,克拉玛依市,乌尔禾区商贸楼,,30,30,35,7,9,62,,65,61,13,18,7,8,0.4,0.4
2026-01-15T1900,3612A,85.1045,45.6895,克拉玛依市,白碱滩区新站,,,35,34,13,16,58,,62,58,,20,10,20,0.2,0.3
2026-01-15T1900,2697A,76.1457,39.7143,克孜勒苏柯尔克孜自治州,市人民政府,,32,32,65,8,24,75,,78,77,14,12,5,4,0.1,0.2
2026-01-15T1900,3665A,76.1654,39.7157,克孜勒苏柯尔克孜自治州,克州文化中心,,27,18,52,3,23,84,,85,85,4,14,7,6,0.3,0.6
2026-01-15T1900,1450A,102.8203,24.889,昆明市,呈贡新区,,44,44,56,11,38,66,,69,69,23,26,4,4,0.6,0.9
2026-01-15T1900,1452A,102.7253,25.0904,昆明市,龙泉镇,,,33,50,13,36,76,,72,72,,27,5,4,0.5,0.5
2026-01-15T1900,1453A,102.7267,25.0378,昆明市,东风东路,,30,30,55,21,39,75,,71,71,17,23,15,6,0.3,0.5
2026-01-15T1900,1454A,102.6744,25.0671,昆明市,金鼎山,,41,41,55,15,38,69,,70,70,19,20,5,4,0.7,0.7
2026-01-15T1900,1455A,102.6643,25.0401,昆明市,碧鸡广场,,28,25,52,19,34,73,,71,71,16,23,12,5,0.4,0.5
2026-01-15T1900,3179A,102.7491,25.012,昆明市,官渡区博物馆,,34,34,55,14,38,73,,74,74,19,31,10,4,0.2,0.3
2026-01-15T1900,3375A,102.8016,24.8336,昆明市,青年创业园,,29,24,53,17,37,90,,83,83,4,19,4,5,0.5,0.7
2026-01-15T1900,3550A,102.8,24.9787,昆明市,昆明学院,,26,25,64,14,38,81,,79,79,15,26,3,4,0.3,0.4
2026-01-15T1900,3551A,102.5969,24.6738,昆明市,晋宁区生态环境分局,,33,33,52,17,34,76,,78,78,7,23,3,3,0.5,0.6
2026-01-15T1900,3552A,102.6673,24.9861,昆明市,云天化总部,,26,21,49,10,33,81,,83,83,12,23,16,7,0.2,0.4
2026-01-15T1900,1456A,91.132,29.6515,拉萨市,八廓街,,26,17,30,11,19,81,,87,87,20,25,8,8,0.3,0.6
2026-01-15T1900,1457A,91.1221,29.6748,拉萨市,市环保局,,35,,58,24,27,80,,80,80,22,38,9,11,0.8,1.6
2026-01-15T1900,1458A,91.0874,29.6476,拉萨市,区监测站,,22,15,26,6,14,69,,79,79,32,41,4,5,0.7,1
2026-01-15T1900,1459A,91.1774,29.6541,拉萨市,西藏大学,,29,29,26,19,14,82,,81,81,21,25,7,6,0.6,0.6
2026-01-15T1900,1460A,90.9798,29.6586,拉萨市,区辐射站,,23,17,52,15,24,71,,75,75,36,42,4,6,0.7,0.9
2026-01-15T1900,1461A,91.0831,29.6292,拉萨市,拉萨火车站,颗粒物(PM10),61,72,30,3,18,74,,74,74,23,36,4,5,0.5,1
2026-01-15T1900,2520A,109.2203,23.7252,来宾市,来宾技工学校,颗粒物(PM10),62,74,117,43,87,102,,118,118,15,33,13,12,0.8,1
2026-01-15T1900,3535A,109.1781,23.7293,来宾市,兴宾区政府,细颗粒物(PM2.5),72,77,123,52,95,134,,132,132,11,20,7,9,0.6,0.9
2026-01-15T1900,4002A,109.2312,23.7428,来宾市,中南小学,颗粒物(PM10),64,78,115,42,79,90,,125,125,33,43,8,7,0.9,1
2026-01-15T1900,1479A,103.8309,36.0467,兰州市,铁路设计院,,,,,,,,,,,,,,,,
2026-01-15T1900,3241A,103.7439,36.0841,兰州市,百合公园,颗粒物(PM10),111,172,115,70,43,4,,32,30,121,74,20,16,2.4,1.6
2026-01-15T1900,3242A,103.9613,35.9985,兰州市,和平,颗粒物(PM10),82,113,89,45,31,53,,69,67,37,29,12,12,0.8,1.1
2026-01-15T1900,4236A,103.629272,36.093822,兰州市,庄浪东路808号,颗粒物(PM10),78,106,108,47,44,34,,76,76,75,62,15,22,0.9,1.1
2026-01-15T1900,4237A,103.7251,36.104344,兰州市,安宁西路88号,颗粒物(PM10),142,233,118,51,38,34,,60,60,95,71,20,16,1.2,1
2026-01-15T1900,4238A,103.846982,36.067567,兰州市,北滨河东路1号,颗粒物(PM10),107,163,125,58,46,32,,41,41,,77,13,14,1.4,1.7
2026-01-15T1900,1067A,116.6712,39.5109,廊坊市,药材公司,细颗粒物(PM2.5),137,201,128,104,85,5,,26,24,88,63,7,5,1.2,1.1
2026-01-15T1900,1068A,116.7215,39.5592,廊坊市,开发区,细颗粒物(PM2.5),145,217,137,111,83,3,,28,27,90,64,10,4,0.9,1
2026-01-15T1900,1070A,116.7246,39.5273,廊坊市,北华航天学院,细颗粒物(PM2.5),147,219,140,112,86,4,,28,25,87,63,6,5,1.0,1
2026-01-15T1900,2919A,116.7022,39.5454,廊坊市,河北工业大学,细颗粒物(PM2.5),148,225,140,113,87,5,,28,25,82,63,4,5,0.9,0.9
2026-01-15T1900,2536A,103.7629,29.5844,乐山市,牛耳桥,细颗粒物(PM2.5),85,80,90,63,72,60,,64,64,46,45,5,5,0.8,0.9
2026-01-15T1900,2537A,103.7501,29.6002,乐山市,市第三水厂,细颗粒物(PM2.5),87,89,91,64,67,63,,69,69,46,52,7,7,0.8,0.9
2026-01-15T1900,2538A,103.7571,29.5664,乐山市,市监测站,细颗粒物(PM2.5),88,74,86,65,68,73,,67,67,25,36,7,8,0.7,1
2026-01-15T1900,3361A,103.7313,29.563,乐山市,理工大学,细颗粒物(PM2.5),75,68,88,55,68,90,,75,75,18,40,6,6,0.4,0.6
2026-01-15T1900,2599A,100.2497,26.8802,丽江市,丽江古城,,39,39,38,16,23,87,,92,91,16,17,10,10,0.5,0.5
2026-01-15T1900,2600A,100.2203,26.8906,丽江市,市中心,,27,25,28,14,16,86,,93,93,15,17,7,7,0.4,0.5
2026-01-15T1900,1267A,119.9141,28.4513,丽水市,监测站大楼,细颗粒物(PM2.5),100,106,50,75,34,14,,89,78,73,43,6,7,1.8,0.6
2026-01-15T1900,1268A,119.93,28.4589,丽水市,莲都小学,颗粒物(PM10),56,61,55,29,26,60,,90,90,52,51,/,/,/,/
2026-01-15T1900,1269A,119.8794,28.4232,丽水市,余庄前,,36,36,54,20,33,56,,84,84,18,31,5,5,0.4,0.4
2026-01-15T1900,1173A,119.1759,34.5885,连云港市,市环境监测站,细颗粒物(PM2.5),195,222,225,146,178,59,,78,78,56,57,17,18,1.1,1.1
2026-01-15T1900,3000A,119.3577,34.6971,连云港市,德源药业,细颗粒物(PM2.5),163,232,221,124,149,40,,58,58,80,66,10,10,1.3,1.3
2026-01-15T1900,3007A,119.178,34.8442,连云港市,新城一中,细颗粒物(PM2.5),215,224,235,165,193,18,,66,64,131,85,17,16,1.5,1.4
2026-01-15T1900,3008A,119.3607,34.7519,连云港市,胡沟管理处,细颗粒物(PM2.5),178,234,207,134,149,25,,68,64,121,68,26,19,1.5,1.4
2026-01-15T1900,3009A,119.1478,34.5913,连云港市,矿山设计院,细颗粒物(PM2.5),192,241,238,144,168,51,,78,78,70,64,13,15,1.5,1.5
2026-01-15T1900,3434A,119.2414,34.6539,连云港市,工贸学校,细颗粒物(PM2.5),209,230,225,159,180,81,,76,76,44,52,18,17,1.5,1.5
2026-01-15T1900,3664A,119.4171,34.734,连云港市,连云街道,细颗粒物(PM2.5),209,271,193,159,129,59,,52,40,82,59,11,12,1.3,1.2
2026-01-15T1900,2573A,102.2629,27.8981,凉山彝族自治州,西昌市政府,细颗粒物(PM2.5),60,51,39,43,27,82,,82,82,18,10,13,8,0.8,0.5
2026-01-15T1900,2574A,102.2686,27.885,凉山彝族自治州,凉山州政府,颗粒物(PM10),54,57,41,34,27,84,,82,82,15,11,13,10,0.7,0.5
2026-01-15T1900,4229A,102.2342,27.8859,凉山彝族自治州,凯乐南路30号,颗粒物(PM10),57,64,50,37,30,90,,80,80,12,17,10,10,0.5,0.6
2026-01-15T1900,2212A,123.1978,41.2036,辽阳市,宏伟区,细颗粒物(PM2.5),79,,62,58,48,51,,53,53,24,15,8,6,0.8,0.8
2026-01-15T1900,2213A,123.1684,41.2497,辽阳市,新华园,细颗粒物(PM2.5),65,50,62,47,54,47,,52,52,34,24,8,7,0.6,0.7
2026-01-15T1900,2214A,123.2355,41.2663,辽阳市,滨河路,细颗粒物(PM2.5),67,56,61,48,45,45,,44,44,26,20,6,9,0.3,0.3
2026-01-15T1900,4083A,123.153,41.2874,辽阳市,铁西路150号,细颗粒物(PM2.5),64,,54,46,47,44,,52,52,34,23,9,9,0.8,0.8
2026-01-15T1900,2227A,125.1359,42.8845,辽源市,环保局,细颗粒物(PM2.5),60,65,46,43,30,51,,56,56,27,30,6,9,0.6,0.6
2026-01-15T1900,4085A,125.0998,42.9134,辽源市,安宁大街333号,细颗粒物(PM2.5),62,62,45,44,31,54,,58,58,19,17,6,6,0.6,0.6
2026-01-15T1900,1625A,115.9789,36.4372,聊城市,区政府,颗粒物(PM10),128,206,229,63,128,64,,67,67,48,66,14,17,0.8,1.4
2026-01-15T1900,3200A,115.9772,36.4986,聊城市,监控中心,颗粒物(PM10),138,226,235,78,141,76,,76,76,40,60,10,12,0.8,1.4
2026-01-15T1900,3513A,116.0443,36.436,聊城市,九州社区,颗粒物(PM10),120,190,223,70,132,81,,79,79,20,49,8,11,0.5,1
2026-01-15T1900,4018A,116.0564,36.4609,聊城市,星美广场,颗粒物(PM10),124,197,237,59,127,71,,69,69,26,58,8,10,0.5,1.2
2026-01-15T1900,4113A,116.0091,36.4495,聊城市,利民路,颗粒物(PM10),114,178,212,59,132,62,,59,59,45,67,12,15,0.8,1.4
2026-01-15T1900,2632A,94.3683,29.6373,林芝市,林芝监测站,,,24,9,9,6,74,,78,78,,4,4,3,,0.3
2026-01-15T1900,2633A,94.3616,29.6634,林芝市,林芝人民医院,,33,33,17,11,7,86,,84,84,3,7,2,2,0.3,0.4
2026-01-15T1900,2603A,100.0779,23.8981,临沧市,市环保局,细颗粒物(PM2.5),97,,42,72,45,82,,73,73,7,12,6,6,0.5,0.6
2026-01-15T1900,2604A,100.0894,23.882,临沧市,市气象局,,,44,50,38,37,,,66,66,10,15,7,6,0.4,0.6
2026-01-15T1900,1733A,111.5552,36.0791,临汾市,临钢医院,颗粒物(PM10),139,228,194,66,82,19,,57,57,62,40,7,8,1.2,1.5
2026-01-15T1900,1734A,111.4984,36.0734,临汾市,技工学校,颗粒物(PM10),140,230,211,79,91,19,,54,54,53,49,8,11,1.4,1.5
2026-01-15T1900,1736A,111.5017,36.0857,临汾市,市委,颗粒物(PM10),127,204,197,56,85,36,,62,62,62,48,10,13,1.5,1.8
2026-01-15T1900,3018A,111.5048,36.1015,临汾市,唐尧大酒店,颗粒物(PM10),120,190,191,53,93,44,,63,60,60,52,6,8,1.1,1.9
2026-01-15T1900,4244A,111.4879,36.053,临汾市,启星学校,颗粒物(PM10),120,190,176,67,82,43,,62,62,72,56,11,10,1.2,1.7
2026-01-15T1900,4271A,103.2464,35.6123,临夏回族自治州,滨河东路1号,,,103,152,63,56,,,67,67,41,35,12,9,0.9,1.2
2026-01-15T1900,4310A,103.207136,35.599807,临夏回族自治州,新华街21号,颗粒物(PM10),75,100,122,43,55,34,,61,61,54,37,13,12,1.2,1.4
2026-01-15T1900,1618A,118.3429,35.0532,临沂市,沂河小区,细颗粒物(PM2.5),214,280,247,164,190,62,,74,74,59,69,28,21,1.2,1.5
2026-01-15T1900,1619A,118.2962,35.0568,临沂市,鲁南制药厂,细颗粒物(PM2.5),195,290,267,146,197,56,,77,73,68,75,32,25,1.2,1.8
2026-01-15T1900,1620A,118.2793,34.9976,临沂市,新光毛纺厂,细颗粒物(PM2.5),168,256,243,127,184,70,,80,80,60,79,29,22,1.2,1.6
2026-01-15T1900,1621A,118.3955,35.0889,临沂市,河东保险公司,细颗粒物(PM2.5),208,290,240,158,166,46,,73,73,82,64,22,18,1.2,1.4
2026-01-15T1900,3370A,118.3563,35.0215,临沂市,十里堡居委,细颗粒物(PM2.5),203,290,255,153,169,,,79,79,67,76,34,23,1.2,1.6
2026-01-15T1900,3496A,118.359,35.1067,临沂市,南坊新区,细颗粒物(PM2.5),201,273,223,151,159,73,,80,80,60,66,26,18,1.2,1.3
2026-01-15T1900,3860A,118.3915,35.0297,临沂市,皇山花园小区,细颗粒物(PM2.5),179,261,249,135,160,74,,89,89,56,69,26,23,1.2,1.6
2026-01-15T1900,1870A,109.4854,24.3898,柳州市,柳东小学,细颗粒物(PM2.5),139,120,125,106,113,161,,135,135,20,27,22,29,1.4,1.2
2026-01-15T1900,1871A,109.4109,24.3304,柳州市,环保监测站,细颗粒物(PM2.5),117,117,148,88,108,121,,128,128,37,56,11,17,1.3,1.5
2026-01-15T1900,1872A,109.3886,24.3408,柳州市,河西水厂,细颗粒物(PM2.5),103,139,211,77,111,125,,130,130,36,57,12,16,1.2,1.3
2026-01-15T1900,1873A,109.4263,24.2951,柳州市,市四中,细颗粒物(PM2.5),119,128,149,90,105,33,,38,38,59,70,14,15,1.3,1.5
2026-01-15T1900,1874A,109.396,24.3658,柳州市,市九中,细颗粒物(PM2.5),122,147,157,92,114,126,,126,126,36,53,22,24,1.7,1.5
2026-01-15T1900,1875A,109.4912,24.3164,柳州市,古亭山,颗粒物(PM10),183,316,111,81,78,89,,114,114,27,63,15,18,1.1,1.2
2026-01-15T1900,3402A,109.5422,24.3994,柳州市,市二中,细颗粒物(PM2.5),102,108,117,76,95,110,,125,125,38,45,21,16,1.1,1.1
2026-01-15T1900,2307A,116.5078,31.7369,六安市,监测大楼,颗粒物(PM10),68,86,67,45,49,72,,95,95,43,38,8,5,0.4,0.4
2026-01-15T1900,2308A,116.4738,31.7642,六安市,皖西学院,,,98,74,47,46,,,111,111,41,37,8,6,0.5,0.5
2026-01-15T1900,2309A,116.4997,31.7904,六安市,朝阳厂,颗粒物(PM10),75,99,66,51,48,44,,91,91,79,33,9,7,0.6,0.5
2026-01-15T1900,2310A,116.5566,31.7885,六安市,开发区,颗粒物(PM10),73,96,90,46,56,55,,94,94,56,51,7,6,0.4,0.5
2026-01-15T1900,2577A,104.8293,26.592,六盘水市,黄土坡,细颗粒物(PM2.5),88,100,63,65,48,87,,92,92,34,25,13,17,0.9,0.9
2026-01-15T1900,2579A,104.8481,26.5898,六盘水市,民中,细颗粒物(PM2.5),98,85,61,73,51,96,,97,97,25,29,9,12,0.8,0.7
2026-01-15T1900,2580A,104.9541,26.5506,六盘水市,双水,细颗粒物(PM2.5),78,83,71,57,50,108,,100,100,18,17,8,9,0.5,0.7
2026-01-15T1900,4151A,104.8899,26.5685,六盘水市,钟山大道中段564号,细颗粒物(PM2.5),90,98,82,67,52,100,,96,96,17,24,8,16,0.8,1.2
2026-01-15T1900,2336A,117.022,25.1031,龙岩市,龙岩市监测站,,49,44,43,34,27,97,,118,118,31,38,12,22,0.7,0.6
2026-01-15T1900,2337A,117.0257,25.0662,龙岩市,闽西职业技术学院,,46,46,44,32,23,100,,120,120,24,29,12,16,0.6,0.6
2026-01-15T1900,2338A,117.0195,25.0306,龙岩市,龙岩学院,,48,43,37,33,23,98,,120,120,19,18,12,10,/,/
2026-01-15T1900,2885A,104.9344,33.3827,陇南市,滨江中学,细颗粒物(PM2.5),156,243,115,119,44,7,,58,51,101,41,50,18,5.4,1.7
2026-01-15T1900,3247A,104.9551,33.3709,陇南市,市总工会,颗粒物(PM10),99,147,92,54,34,8,,54,52,75,31,11,11,1.3,0.9
2026-01-15T1900,2488A,111.9984,27.7346,娄底市,市监测站,细颗粒物(PM2.5),77,79,96,56,70,70,,96,96,46,46,10,13,1.1,1.2
2026-01-15T1900,2491A,111.9888,27.7035,娄底市,市政府,细颗粒物(PM2.5),74,62,97,54,74,76,,90,90,36,36,9,8,1.0,1.1
2026-01-15T1900,4127A,111.9812,27.7591,娄底市,涟钢职大,细颗粒物(PM2.5),77,87,91,56,60,75,,93,93,34,37,6,9,0.6,0.9
2026-01-15T1900,4128A,112.0303,27.7457,娄底市,娄底体校,细颗粒物(PM2.5),97,126,99,72,73,41,,79,78,46,33,4,3,1.0,1.1
2026-01-15T1900,1894A,105.4427,28.9063,泸州市,小市上码头,细颗粒物(PM2.5),147,139,141,112,108,79,,93,93,36,30,8,10,1.3,1.4
2026-01-15T1900,1895A,105.4241,28.8573,泸州市,兰田宪桥,细颗粒物(PM2.5),135,152,169,103,118,84,,83,83,23,18,8,8,1.3,1.3
2026-01-15T1900,1896A,105.4378,28.8833,泸州市,市环监站,细颗粒物(PM2.5),134,128,137,102,105,75,,87,87,46,29,10,9,1.3,1.2
2026-01-15T1900,4272A,105.3689,28.7783,泸州市,纳溪中医医院,细颗粒物(PM2.5),183,148,133,138,123,82,,78,78,26,21,8,8,1.3,1.2
2026-01-15T1900,2183A,111.1447,37.5212,吕梁市,环保局,颗粒物(PM10),121,191,190,48,70,7,,50,44,69,34,5,7,0.6,0.6
2026-01-15T1900,2185A,111.1285,37.5338,吕梁市,自来水公司,颗粒物(PM10),106,161,341,50,72,14,,47,47,56,37,4,8,1.1,0.8
2026-01-15T1900,2867A,111.1225,37.5093,吕梁市,马茂庄小学,颗粒物(PM10),115,180,364,56,84,3,,42,40,72,43,10,9,0.6,0.4
2026-01-15T1900,1812A,112.3934,34.6517,洛阳市,市委党校,,,,109,,49,,,66,66,,41,,11,,0.8
2026-01-15T1900,1815A,112.494,34.6883,洛阳市,河南林校,颗粒物(PM10),92,134,122,52,50,44,,63,63,53,46,18,13,0.7,0.8
2026-01-15T1900,1816A,112.3843,34.623,洛阳市,开发区管委会,颗粒物(PM10),77,103,118,37,46,44,,65,65,48,34,12,12,0.8,0.7
2026-01-15T1900,1817A,112.4263,34.6249,洛阳市,市委新办公区,颗粒物(PM10),78,106,104,38,46,17,,64,61,80,38,11,12,0.8,0.5
2026-01-15T1900,3340A,112.6005,34.6323,洛阳市,伊滨,颗粒物(PM10),73,96,105,43,54,28,,67,64,62,35,8,10,0.4,0.5
2026-01-15T1900,3341A,112.495,34.6338,洛阳市,中移产业园,颗粒物(PM10),79,108,98,46,41,43,,60,60,45,28,12,12,0.5,0.5
2026-01-15T1900,3593A,112.5736,34.8993,洛阳市,吉利监测站,颗粒物(PM10),92,134,132,47,43,25,,64,62,72,37,10,10,0.7,0.6
2026-01-15T1900,3635A,112.3678,34.6623,洛阳市,河科大西苑校区,颗粒物(PM10),89,128,129,38,44,42,,65,65,58,42,13,12,0.9,0.8
2026-01-15T1900,3636A,112.4387,34.678,洛阳市,英才小学,颗粒物(PM10),96,141,139,60,62,33,,7,,68,56,15,15,0.8,0.9
2026-01-15T1900,4214A,112.460027,34.694929,洛阳市,春都路1号院,颗粒物(PM10),101,152,142,43,51,35,,64,64,51,41,12,12,0.8,0.9
2026-01-15T1900,2399A,114.051,33.5721,漯河市,三五一五工厂,颗粒物(PM10),61,72,128,33,82,60,,80,80,34,32,7,8,0.4,0.7
2026-01-15T1900,2400A,114.0055,33.5698,漯河市,漯河大学,,,69,114,24,76,77,,86,86,14,25,5,7,,0.9
2026-01-15T1900,2401A,114.0134,33.5826,漯河市,市水利局,颗粒物(PM10),59,68,110,27,76,67,,71,71,14,23,7,8,0.5,0.8
2026-01-15T1900,2402A,114.0261,33.5697,漯河市,市广电局,颗粒物(PM10),64,78,110,20,72,73,,87,87,22,25,6,8,0.5,0.8
2026-01-15T1900,3478A,113.9691,33.568,漯河市,市图书馆,颗粒物(PM10),67,83,128,23,85,66,,75,75,19,22,5,6,0.5,0.7
2026-01-15T1900,4250A,114.089259,33.588274,漯河市,韶山路11号,,,47,122,18,74,,,80,80,21,27,7,8,0.5,0.8
2026-01-15T1900,1798A,118.5084,31.6838,马鞍山市,湖东路四小,颗粒物(PM10),79,107,117,57,68,31,,84,84,85,70,7,8,0.9,1.1
2026-01-15T1900,1799A,118.5019,31.6449,马鞍山市,开发区,细颗粒物(PM2.5),108,139,128,81,85,20,,93,84,104,75,7,8,0.7,0.9
2026-01-15T1900,3633A,118.4914,31.681,马鞍山市,雨山,细颗粒物(PM2.5),83,106,114,61,74,61,,95,95,66,72,9,10,0.9,1.1
2026-01-15T1900,4191A,118.527362,31.722269,马鞍山市,慈湖高新区,颗粒物(PM10),84,118,126,60,77,50,,76,76,70,70,9,14,0.6,1.3
2026-01-15T1900,1686A,111.0285,21.469,茂名市,电白南海,颗粒物(PM10),54,58,61,34,36,118,,114,114,16,20,13,15,0.7,1.1
2026-01-15T1900,1687A,110.9294,21.6533,茂名市,茂石化七小,颗粒物(PM10),56,61,68,24,32,88,,116,116,27,23,7,10,0.6,0.5
2026-01-15T1900,1688A,110.9108,21.6688,茂名市,健康路,,44,44,62,19,35,105,,122,122,20,25,8,21,0.8,1
2026-01-15T1900,1689A,110.8592,21.6826,茂名市,高岭,颗粒物(PM10),59,68,83,29,34,104,,118,118,19,27,18,21,/,/
2026-01-15T1900,3450A,111.0101,21.5165,茂名市,电白水东,,44,44,54,29,29,112,,109,109,11,17,10,14,/,/
2026-01-15T1900,2540A,103.8414,30.0871,眉山市,气象局,细颗粒物(PM2.5),98,101,97,73,77,90,,78,78,31,39,13,13,0.8,0.8
2026-01-15T1900,3148A,103.829,30.0563,眉山市,区人社局,细颗粒物(PM2.5),94,98,95,70,69,69,,72,72,51,51,12,11,0.9,0.9
2026-01-15T1900,4148A,103.8836,30.0695,眉山市,眉职院,细颗粒物(PM2.5),82,95,88,60,54,80,,78,78,26,35,2,2,0.7,0.8
2026-01-15T1900,1690A,116.1248,24.3307,梅州市,梅江月梅,,45,40,58,31,34,117,,130,130,15,40,/,/,/,/
2026-01-15T1900,1691A,116.0798,24.2719,梅州市,梅县新城,细颗粒物(PM2.5),100,,60,75,38,22,,116,110,81,47,8,8,1.2,0.7
2026-01-15T1900,3315A,116.1234,24.2994,梅州市,梅龙,颗粒物(PM10),67,83,60,36,34,57,,115,115,57,41,8,11,1.4,0.9
2026-01-15T1900,1878A,104.7775,31.4741,绵阳市,富乐山,细颗粒物(PM2.5),80,64,74,59,51,88,,86,86,12,37,8,8,0.5,0.6
2026-01-15T1900,1880A,104.6698,31.4668,绵阳市,高新区自来水公司,细颗粒物(PM2.5),79,76,106,58,66,56,,72,72,46,45,8,9,0.8,0.9
2026-01-15T1900,3491A,104.6899,31.5324,绵阳市,西科大附属小学,细颗粒物(PM2.5),99,97,103,74,63,58,,81,81,57,48,9,9,0.4,0.6
2026-01-15T1900,3492A,104.5647,31.5343,绵阳市,安州区旅游局,细颗粒物(PM2.5),85,73,88,63,64,55,,82,82,61,42,11,11,0.8,0.7
2026-01-15T1900,4146A,104.7092,31.4972,绵阳市,科技城新区公安局,细颗粒物(PM2.5),78,76,130,57,57,89,,91,91,33,49,10,10,0.6,0.7
2026-01-15T1900,4226A,104.765114,31.453094,绵阳市,绵阳市气象局,细颗粒物(PM2.5),89,82,87,66,57,88,,75,75,19,51,7,9,0.7,0.9
2026-01-15T1900,1784A,129.61,44.561,牡丹江市,环保大楼,颗粒物(PM10),69,87,55,46,34,16,,52,44,63,35,12,10,0.8,0.6
2026-01-15T1900,1787A,129.6364,44.6075,牡丹江市,机车工厂,细颗粒物(PM2.5),58,58,57,41,33,16,,49,40,48,32,10,8,0.7,0.6
2026-01-15T1900,1788A,129.6386,44.5462,牡丹江市,第一中学,细颗粒物(PM2.5),105,84,42,79,38,11,,54,41,50,26,10,7,1.0,0.5
2026-01-15T1900,4287A,129.5992,44.5964,牡丹江市,东晓云街98号,细颗粒物(PM2.5),125,95,58,95,52,20,,50,41,49,31,16,18,1.1,0.9
2026-01-15T1900,2531A,105.0703,29.61,内江市,市监测站,,,150,102,,97,,,93,93,,33,8,7,1.0,1.1
2026-01-15T1900,2533A,105.0657,29.5807,内江市,内江二中,细颗粒物(PM2.5),134,128,116,102,99,96,,89,89,29,43,6,5,1.1,1.2
2026-01-15T1900,2534A,105.0407,29.5828,内江市,内江日报社,细颗粒物(PM2.5),129,110,100,98,96,93,,83,83,34,54,3,3,1.0,1
2026-01-15T1900,4147A,105.0433,29.6105,内江市,玉峰路西段888号,细颗粒物(PM2.5),132,109,98,100,95,81,,78,78,41,45,3,2,1.0,1
2026-01-15T1900,2628A,92.0653,31.4846,那曲市,那曲监测站,,23,18,58,8,32,73,,62,62,10,25,6,10,0.7,1.2
2026-01-15T1900,4243A,92.0515,31.4787,那曲市,那曲市委宣传部,,27,8,43,3,23,84,,72,72,1,22,3,8,0.4,1.4
2026-01-15T1900,1291A,115.8887,28.7006,南昌市,省林业公司,细颗粒物(PM2.5),89,92,91,66,63,109,,111,111,30,66,7,8,1.2,1.3
2026-01-15T1900,1292A,115.813,28.7443,南昌市,林科所,细颗粒物(PM2.5),70,73,69,51,45,101,,124,124,35,65,10,11,0.4,0.4
2026-01-15T1900,1294A,115.8518,28.687,南昌市,建工学校,细颗粒物(PM2.5),98,104,105,73,67,89,,109,109,57,69,16,17,1.2,1.2
2026-01-15T1900,1295A,115.8926,28.6425,南昌市,象湖,细颗粒物(PM2.5),100,98,109,75,68,90,,111,111,48,65,11,12,0.8,1.2
2026-01-15T1900,3046A,115.9084,28.6062,南昌市,机电学校,细颗粒物(PM2.5),110,131,121,83,81,58,,120,117,80,66,9,10,0.9,0.9
2026-01-15T1900,3690A,115.9718,28.7032,南昌市,外国语学校,细颗粒物(PM2.5),92,127,102,68,73,55,,109,109,78,61,15,17,0.9,0.9
2026-01-15T1900,4106A,115.7923,28.6873,南昌市,工业二路,细颗粒物(PM2.5),93,107,79,69,60,77,,116,116,51,59,7,8,2.0,1.2
2026-01-15T1900,4192A,115.931587,28.686774,南昌市,南京东路235号,细颗粒物(PM2.5),107,118,120,80,85,84,,116,116,57,68,8,9,0.9,1.3
2026-01-15T1900,1906A,106.0791,30.8022,南充市,南充市委,细颗粒物(PM2.5),170,153,136,129,115,,,61,61,121,46,4,4,1.9,1.3
2026-01-15T1900,1907A,106.1038,30.8215,南充市,南充炼油厂,细颗粒物(PM2.5),169,148,136,128,117,53,,72,72,66,36,7,6,1.3,1.1
2026-01-15T1900,4227A,106.108336,30.788436,南充市,梨树横街98号,细颗粒物(PM2.5),140,132,134,107,110,97,,84,84,52,41,6,6,0.9,1
2026-01-15T1900,4304A,106.1172,30.843,南充市,清泉寺北路188号,细颗粒物(PM2.5),172,,110,130,118,112,,90,90,28,23,7,7,0.8,0.8
2026-01-15T1900,4305A,106.067,30.7616,南充市,同庆路1号,细颗粒物(PM2.5),170,156,127,129,108,7,,66,66,112,45,7,6,2.1,1.2
2026-01-15T1900,1151A,118.8033,32.1085,南京市,迈皋桥,颗粒物(PM10),73,95,81,48,47,17,,85,80,93,64,5,6,0.6,0.7
2026-01-15T1900,1152A,118.7487,32.057,南京市,草场门,颗粒物(PM10),89,127,100,46,55,63,,87,87,54,73,8,10,0.7,0.9
2026-01-15T1900,1154A,118.770105,32.004342,南京市,中华门,颗粒物(PM10),73,95,87,46,52,75,,93,93,41,59,6,7,0.6,0.7
2026-01-15T1900,1155A,118.8059,32.0329,南京市,瑞金路,细颗粒物(PM2.5),113,168,97,85,57,8,,70,64,120,71,4,4,1.7,1.3
2026-01-15T1900,1156A,118.7946,32.0774,南京市,玄武湖,颗粒物(PM10),74,98,83,44,48,9,,79,74,22,16,4,4,1.1,1
2026-01-15T1900,1157A,118.6415,32.0964,南京市,浦口,颗粒物(PM10),86,122,98,44,57,88,,87,87,28,34,9,11,0.8,0.6
2026-01-15T1900,1158A,118.730129,32.000956,南京市,奥体中心,颗粒物(PM10),90,129,103,66,61,29,,113,101,101,69,9,11,1.1,0.9
2026-01-15T1900,1159A,118.9072,32.1047,南京市,仙林大学城,,,114,91,53,48,53,,78,78,71,68,,11,1.1,1.1
2026-01-15T1900,3422A,118.8443,31.919,南京市,江宁彩虹桥,颗粒物(PM10),73,96,84,48,49,6,,85,78,110,68,4,6,0.7,0.7
2026-01-15T1900,3427A,118.8497,32.3599,南京市,六合雄州,细颗粒物(PM2.5),104,119,106,78,74,72,,98,95,50,62,7,14,0.8,1.1
2026-01-15T1900,4086A,118.7641,32.0841,南京市,新模范马路66号,颗粒物(PM10),84,117,108,24,54,41,,106,103,68,72,4,4,0.9,1.4
2026-01-15T1900,4249A,118.8707617,31.34017673,南京市,汶溪路181号,细颗粒物(PM2.5),90,102,74,67,63,80,,106,106,49,47,10,11,1.1,1
2026-01-15T1900,4312A,119.019,31.6512,南京市,中山西路1号,细颗粒物(PM2.5),88,95,72,65,57,35,,79,78,64,46,4,4,1.2,0.9
2026-01-15T1900,1401A,108.3098,22.788,南宁市,二十一中,细颗粒物(PM2.5),87,91,73,64,56,120,,118,118,29,36,4,7,0.7,0.7
2026-01-15T1900,1402A,108.3135,22.8529,南宁市,北湖,细颗粒物(PM2.5),99,98,89,74,67,99,,113,113,52,67,4,6,0.9,1
2026-01-15T1900,1403A,108.3205,22.8222,南宁市,市监测站,细颗粒物(PM2.5),82,84,80,60,57,112,,116,116,43,49,7,13,0.9,0.8
2026-01-15T1900,1404A,108.3828,22.8038,南宁市,大自然花园,细颗粒物(PM2.5),74,93,78,54,55,74,,118,118,49,34,6,8,1.0,0.8
2026-01-15T1900,1406A,108.2397,22.8462,南宁市,区农职院,颗粒物(PM10),74,97,80,53,52,69,,107,107,71,47,10,15,1.0,0.9
2026-01-15T1900,1407A,108.3285,22.7356,南宁市,英华嘉园,细颗粒物(PM2.5),93,94,88,69,59,88,,113,113,52,56,4,5,1.1,0.9
2026-01-15T1900,3401A,108.4829,22.762,南宁市,红星社区,细颗粒物(PM2.5),73,76,87,53,63,109,,126,126,24,49,4,6,0.7,1
2026-01-15T1900,4132A,108.2927,23.1477,南宁市,起凤路9号,细颗粒物(PM2.5),72,88,109,52,79,88,,110,110,45,40,3,4,0.7,0.8
2026-01-15T1900,4221A,108.2177,22.7774,南宁市,乐贤路16号,细颗粒物(PM2.5),80,87,98,59,57,89,,107,107,51,63,3,4,0.9,0.7
2026-01-15T1900,2332A,118.1682,26.6371,南平市,南平市监测站,细颗粒物(PM2.5),59,53,42,42,28,67,,94,94,26,26,6,8,0.6,0.5
2026-01-15T1900,2334A,118.1757,26.6276,南平市,南平七中,,45,32,38,31,25,77,,92,92,19,24,8,9,0.7,0.7
2026-01-15T1900,1168A,120.9056,31.9669,南通市,狼山街道,细颗粒物(PM2.5),200,191,122,150,85,58,,70,70,73,92,6,7,0.8,0.7
2026-01-15T1900,1170A,120.8635,32.0231,南通市,城中,细颗粒物(PM2.5),211,218,139,161,85,76,,59,59,66,110,9,10,1.3,1
2026-01-15T1900,1171A,120.9376,31.9301,南通市,星湖花园,细颗粒物(PM2.5),189,206,136,142,88,61,,77,77,84,110,8,12,1.0,0.9
2026-01-15T1900,1172A,120.8053,32.046,南通市,紫琅学院,细颗粒物(PM2.5),203,229,148,153,84,64,,91,87,76,104,8,11,1.0,0.8
2026-01-15T1900,3291A,121.0631,32.0644,南通市,通州监测站,细颗粒物(PM2.5),208,197,126,158,85,111,,122,122,43,85,6,9,1.3,1
2026-01-15T1900,3432A,120.9348,31.9874,南通市,环境教育馆,细颗粒物(PM2.5),207,193,126,157,88,50,,79,79,,100,8,11,1.0,1
2026-01-15T1900,4091A,120.8692,31.9885,南通市,洪江路,细颗粒物(PM2.5),201,178,123,151,91,45,,48,48,87,106,7,9,1.3,1
2026-01-15T1900,2404A,112.5338,33.0086,南阳市,瓦房庄,,,89,107,42,78,,,79,79,37,33,7,8,0.9,1.1
2026-01-15T1900,2405A,112.5002,32.9734,南阳市,汉画馆,颗粒物(PM10),72,94,110,41,73,40,,75,75,41,36,7,7,0.6,1
2026-01-15T1900,2406A,112.5778,33.0144,南阳市,气象站,颗粒物(PM10),75,99,130,39,74,65,,80,80,33,36,6,7,0.8,1
2026-01-15T1900,2407A,112.548,32.9687,南阳市,理工学院,颗粒物(PM10),71,92,114,36,69,74,,79,79,27,38,7,7,0.6,1
2026-01-15T1900,4008A,112.5233,32.9921,南阳市,卧龙区政府,颗粒物(PM10),73,96,119,40,76,55,,72,72,37,42,6,7,0.6,0.9
2026-01-15T1900,1234A,121.8352,29.9111,宁波市,区环保大楼,细颗粒物(PM2.5),88,119,63,65,28,24,,98,93,126,46,9,8,1.1,0.5
2026-01-15T1900,1235A,121.5595,29.8208,宁波市,万里学院,细颗粒物(PM2.5),109,115,55,82,31,,,118,118,69,39,8,6,0.9,0.6
2026-01-15T1900,1236A,121.713,29.9564,宁波市,龙赛医院,细颗粒物(PM2.5),124,137,59,94,33,44,,90,88,116,38,16,4,1.0,0.6
2026-01-15T1900,1240A,121.5855,29.8635,宁波市,太古小学,细颗粒物(PM2.5),100,109,52,75,31,83,,115,111,59,32,8,5,0.6,0.6
2026-01-15T1900,1241A,121.5239,29.8673,宁波市,市环境监测中心,细颗粒物(PM2.5),107,94,57,80,29,69,,109,109,74,33,10,8,0.9,0.5
2026-01-15T1900,2871A,121.6156,29.9015,宁波市,万里国际学校,细颗粒物(PM2.5),124,109,49,94,31,64,,102,102,83,38,8,5,0.7,0.4
2026-01-15T1900,3710A,121.5593,29.8976,宁波市,白沙活动中心,细颗粒物(PM2.5),87,78,48,64,27,50,,104,104,87,36,6,5,1.0,0.6
2026-01-15T1900,4095A,121.8962,29.7529,宁波市,中科路88号,细颗粒物(PM2.5),68,63,42,49,24,100,,110,110,52,26,9,7,0.5,0.2
2026-01-15T1900,2341A,119.5387,26.6611,宁德市,宁德市监测站,细颗粒物(PM2.5),62,,35,44,19,46,,81,79,50,26,3,3,1.4,0.6
2026-01-15T1900,3209A,119.5231,26.6562,宁德市,宁德一中,,37,37,32,23,20,78,,78,78,17,19,6,6,0.5,0.4
2026-01-15T1900,2618A,98.859,25.8541,怒江傈僳族自治州,州监测站,,40,40,39,22,27,68,,74,74,11,15,5,6,0.4,0.4
2026-01-15T1900,2619A,98.8607,25.8168,怒江傈僳族自治州,泸水一中,,,38,33,3,25,,,66,66,24,20,6,6,0.4,0.7
2026-01-15T1900,1888A,101.6891,26.571,攀枝花市,弄弄坪,,48,48,67,30,41,60,,68,68,30,34,10,22,1.2,1.6
2026-01-15T1900,1889A,101.577,26.5914,攀枝花市,河门口,,,32,56,19,38,,,73,73,14,24,10,18,0.5,1.3
2026-01-15T1900,1891A,101.7365,26.4986,攀枝花市,仁和,颗粒物(PM10),55,60,48,32,30,44,,69,69,35,23,8,13,0.9,1.1
2026-01-15T1900,2835A,101.7222,26.567,攀枝花市,四十中小,颗粒物(PM10),51,52,68,33,42,17,,58,58,65,35,12,24,1.7,1.4
2026-01-15T1900,1604A,122.0303,41.1489,盘锦市,开发区,,42,42,68,27,53,66,,62,62,9,16,3,5,0.8,1.1
2026-01-15T1900,1605A,122.0486,41.0883,盘锦市,兴隆台,,48,43,65,33,49,59,,54,54,22,29,5,5,0.7,0.9
2026-01-15T1900,1606A,121.8297,41.1026,盘锦市,新生街道,,42,42,66,29,48,61,,62,62,18,21,5,6,0.6,0.8
2026-01-15T1900,1832A,113.3257,33.7423,平顶山市,新华旅馆,颗粒物(PM10),65,79,118,26,63,72,,74,74,23,46,5,7,0.2,0.6
2026-01-15T1900,1833A,113.2917,33.737,平顶山市,规划设计院,颗粒物(PM10),61,72,139,35,73,75,,78,78,17,42,6,7,0.4,0.8
2026-01-15T1900,1834A,113.182,33.7738,平顶山市,平顶山工学院,,,68,95,31,52,,,81,81,,29,7,9,0.3,0.4
2026-01-15T1900,3594A,112.8736,33.9068,平顶山市,石龙区,颗粒物(PM10),66,81,110,37,43,84,,91,91,13,42,7,9,0.3,0.4
2026-01-15T1900,4116A,113.284,33.7139,平顶山市,姚电大道23号,细颗粒物(PM2.5),68,83,131,49,70,67,,74,74,26,40,7,9,0.4,0.7
2026-01-15T1900,2656A,106.6633,35.5338,平凉市,聚贤嘉苑,颗粒物(PM10),61,72,98,28,28,34,,70,68,54,30,15,19,0.5,0.5
2026-01-15T1900,2657A,106.7021,35.5307,平凉市,博物馆,颗粒物(PM10),67,84,103,31,33,41,,70,68,51,36,18,13,0.6,0.8
2026-01-15T1900,2348A,113.8384,27.6436,萍乡市,中医院,细颗粒物(PM2.5),123,141,136,93,81,66,,95,95,59,55,10,15,1.9,2.1
2026-01-15T1900,2350A,113.8677,27.6438,萍乡市,市环保局,细颗粒物(PM2.5),89,89,102,66,76,98,,105,105,44,51,20,22,1.2,1.6
2026-01-15T1900,2351A,113.8663,27.6202,萍乡市,安源区政府,细颗粒物(PM2.5),123,118,111,93,98,34,,84,84,66,39,15,15,1.8,1.6
2026-01-15T1900,4107A,113.8686,27.6668,萍乡市,联洪村委会,细颗粒物(PM2.5),100,111,114,75,75,80,,92,92,43,50,5,6,1.3,1.4
2026-01-15T1900,2319A,119.0142,25.4324,莆田市,荔城区仓后路,颗粒物(PM10),63,76,48,38,26,95,,112,112,28,20,/,/,/,/
2026-01-15T1900,2320A,119.0016,25.4553,莆田市,莆田市监测站,,50,50,36,31,17,77,,114,113,28,13,4,3,0.7,0.5
2026-01-15T1900,2321A,119.112,25.4561,莆田市,涵江区六中,颗粒物(PM10),51,52,37,17,16,104,,111,111,18,14,/,/,0.6,0.5
2026-01-15T1900,2322A,119.1014,25.3215,莆田市,秀屿区政府,细颗粒物(PM2.5),72,87,50,52,32,88,,119,119,22,17,3,3,0.8,0.5
2026-01-15T1900,2392A,115.0312,35.7636,濮阳市,环保局,颗粒物(PM10),78,105,129,48,55,78,,74,74,30,43,9,9,0.2,0.6
2026-01-15T1900,3021A,115,35.7667,濮阳市,濮水河管理处,颗粒物(PM10),87,123,139,28,57,80,,77,77,27,42,8,8,0.4,0.9
2026-01-15T1900,4118A,115.0552,35.7816,濮阳市,中原东路68号,颗粒物(PM10),86,121,140,58,52,81,,78,78,31,43,6,8,0.1,0.5
2026-01-15T1900,4216A,115.0923632,35.76857718,濮阳市,任丘路479号,,,,140,,61,,,73,73,34,49,6,9,0.3,0.8
2026-01-15T1900,2601A,100.9801,22.7634,普洱市,市环保局,颗粒物(PM10),56,62,54,16,17,63,,74,74,17,14,5,5,0.5,0.4
2026-01-15T1900,2602A,100.9763,22.8237,普洱市,普洱第二中学,细颗粒物(PM2.5),85,67,49,63,25,65,,76,76,18,19,6,5,0.6,0.4
2026-01-15T1900,3345A,131.0413,45.7795,七台河市,中波台,,,44,46,27,33,,,45,45,30,27,,11,0.5,0.6
2026-01-15T1900,3637A,131.0136,45.7688,七台河市,人民广场,颗粒物(PM10),55,60,51,37,39,27,,43,42,39,35,12,9,0.6,0.7
2026-01-15T1900,3684A,130.8639,45.8144,七台河市,新建矿广场,细颗粒物(PM2.5),57,48,39,40,29,34,,46,45,16,22,6,7,0.5,0.4
2026-01-15T1900,1779A,123.9307,47.3641,齐齐哈尔市,安居小区,,48,41,39,33,32,52,,54,54,16,28,6,8,0.5,0.5
2026-01-15T1900,1780A,123.9497,47.3389,齐齐哈尔市,中心广场,,47,47,40,29,30,46,,46,46,20,26,7,9,0.8,0.8
2026-01-15T1900,1781A,123.9483,47.3229,齐齐哈尔市,农牧车辆厂,,38,36,39,26,24,52,,51,51,12,16,5,8,0.4,0.5
2026-01-15T1900,1783A,123.9442,47.2994,齐齐哈尔市,市环境监测站,,28,28,46,16,31,50,,50,50,16,30,6,9,0.7,0.8
2026-01-15T1900,3662A,123.6341,47.2079,齐齐哈尔市,富区青少年活动中心,细颗粒物(PM2.5),79,78,51,58,37,23,,52,48,46,21,9,6,0.9,0.7
2026-01-15T1900,2591A,107.9765,26.5724,黔东南苗族侗族自治州,市环境监测站,细颗粒物(PM2.5),104,90,114,78,102,61,,67,67,42,33,6,6,0.9,0.9
2026-01-15T1900,2881A,107.8909,26.531,黔东南苗族侗族自治州,凯里学院,细颗粒物(PM2.5),67,68,93,48,79,92,,80,80,18,23,3,3,0.6,0.8
2026-01-15T1900,2593A,107.5223,26.2371,黔南布依族苗族自治州,小围寨,,45,36,75,31,68,94,,87,87,6,11,5,6,0.9,0.9
2026-01-15T1900,3538A,107.5175,26.2977,黔南布依族苗族自治州,沙坝,细颗粒物(PM2.5),52,44,86,36,68,89,,84,84,10,19,4,6,0.9,1
2026-01-15T1900,2589A,104.9022,25.0943,黔西南布依族苗族自治州,场坝街,细颗粒物(PM2.5),77,67,72,56,64,75,,80,80,13,14,4,7,0.7,0.7
2026-01-15T1900,2590A,104.8812,25.0994,黔西南布依族苗族自治州,坪东大道,细颗粒物(PM2.5),82,69,69,60,62,73,,83,81,14,16,6,8,0.8,0.8
2026-01-15T1900,2502A,108.6238,21.9667,钦州市,市环保站,颗粒物(PM10),63,75,116,31,56,108,,125,125,32,50,8,7,0.5,0.7
2026-01-15T1900,2503A,108.655,21.9481,钦州市,沙埠小学,细颗粒物(PM2.5),78,90,107,57,61,100,,129,129,41,53,13,10,0.5,0.7
2026-01-15T1900,2504A,108.5989,21.7435,钦州市,港区一小,颗粒物(PM10),71,92,89,39,48,98,,104,104,24,42,4,7,0.7,0.8
2026-01-15T1900,3404A,108.5959,21.9634,钦州市,北职校,细颗粒物(PM2.5),72,72,91,52,55,101,,122,122,33,42,13,10,1.0,0.9
2026-01-15T1900,1046A,119.5247,39.9346,秦皇岛市,建设大厦,细颗粒物(PM2.5),92,107,98,68,66,38,,46,46,27,34,12,19,0.8,1.3
2026-01-15T1900,3132A,119.5979,39.938,秦皇岛市,文明里,颗粒物(PM10),85,119,103,55,54,36,,46,46,36,41,15,20,0.5,1
2026-01-15T1900,4066A,119.7458,39.9952,秦皇岛市,南园路157号,颗粒物(PM10),135,220,114,72,67,18,,43,42,50,52,14,15,0.9,1.2
2026-01-15T1900,4067A,119.5131,39.8858,秦皇岛市,翠岛大街1号,颗粒物(PM10),96,142,101,64,67,35,,50,50,26,31,16,22,0.9,1.4
2026-01-15T1900,4198A,119.509013,39.825305,秦皇岛市,北戴河轮滑馆,细颗粒物(PM2.5),85,98,105,63,66,47,,53,53,25,39,9,13,0.6,1.4
2026-01-15T1900,1310A,120.404,36.0625,青岛市,市南区东部子站,细颗粒物(PM2.5),132,212,209,100,120,35,,51,51,82,72,14,16,1.1,1.4
2026-01-15T1900,1311A,120.362344,36.10282,青岛市,四方区子站,颗粒物(PM10),107,163,192,58,119,68,,66,66,28,48,4,11,0.8,1.4
2026-01-15T1900,1312A,120.294373,36.054183,青岛市,市南区西部子站,细颗粒物(PM2.5),192,232,200,144,121,20,,51,49,120,81,13,15,1.8,1.9
2026-01-15T1900,1313A,120.4581,36.0858,青岛市,崂山区子站,颗粒物(PM10),111,171,186,68,102,54,,56,56,,53,12,15,0.5,1.1
2026-01-15T1900,1315A,120.3945,36.3083,青岛市,城阳区子站,颗粒物(PM10),124,197,202,46,94,44,,63,62,69,68,8,15,1.1,1.6
2026-01-15T1900,3642A,120.3454,36.0735,青岛市,市北区南部,细颗粒物(PM2.5),163,219,194,124,118,35,,53,53,80,59,6,8,1.3,1.4
2026-01-15T1900,3643A,120.3897,36.18,青岛市,李沧区北部,颗粒物(PM10),104,158,198,46,126,54,,52,52,45,66,9,17,0.9,1.6
2026-01-15T1900,4110A,120.5222,36.4089,青岛市,盟旺路653号,,,,203,,114,76,,72,72,,57,5,11,0.6,1.4
2026-01-15T1900,4290A,120.196923,35.954556,青岛市,珠江路669号,细颗粒物(PM2.5),175,210,186,132,123,62,,64,64,51,61,11,15,1.2,1.4
2026-01-15T1900,4291A,120.0424,35.8656,青岛市,黄岛区人民政府广场,细颗粒物(PM2.5),175,224,198,132,115,34,,60,60,88,68,9,14,1.4,1.6
2026-01-15T1900,1703A,113.0218,23.7086,清远市,凤城街办,细颗粒物(PM2.5),78,96,84,57,55,82,,143,143,90,53,/,/,/,/
2026-01-15T1900,3025A,113.0479,23.6343,清远市,技师学院,颗粒物(PM10),59,67,92,38,52,91,,156,155,64,70,6,10,0.7,0.7
2026-01-15T1900,3318A,112.9898,23.7403,清远市,清新太和,,46,46,78,26,47,144,,160,160,22,43,5,6,0.5,0.7
2026-01-15T1900,3455A,113.076,23.72,清远市,清城东城,颗粒物(PM10),63,75,71,43,43,99,,160,153,68,39,/,/,/,/
2026-01-15T1900,2661A,107.6325,35.7357,庆阳市,庆阳五中,颗粒物(PM10),76,102,105,47,36,78,,88,88,25,15,9,8,0.8,0.4
2026-01-15T1900,2662A,107.6361,35.7067,庆阳市,市环保局,颗粒物(PM10),71,92,103,37,35,84,,90,90,18,13,5,9,0.4,0.5
2026-01-15T1900,1916A,103.7897,25.5036,曲靖市,环境监测站,,50,50,81,27,45,87,,81,81,20,16,6,10,0.7,0.7
2026-01-15T1900,1917A,103.8013,25.5357,曲靖市,烟厂办公区,,39,39,80,16,43,93,,80,80,12,15,4,9,0.4,0.7
2026-01-15T1900,3376A,103.7926,25.4651,曲靖市,南苑二区,,35,34,77,24,46,93,,85,85,12,14,3,9,0.4,0.6
2026-01-15T1900,3377A,103.7442,25.5259,曲靖市,曲靖师范学院,,44,44,68,15,49,93,,84,84,12,15,3,5,0.3,0.5
2026-01-15T1900,1264A,118.8694,28.94,衢州市,环保大楼,细颗粒物(PM2.5),90,106,75,67,47,54,,94,94,81,62,/,/,/,/
2026-01-15T1900,1266A,118.8622,28.9809,衢州市,衢州学院,颗粒物(PM10),61,72,60,43,36,65,,91,91,57,59,8,7,0.7,0.7
2026-01-15T1900,4097A,118.9646,28.9832,衢州市,衢州三中,颗粒物(PM10),74,98,78,52,48,34,,80,80,90,59,9,9,1.0,1
2026-01-15T1900,1611A,118.5818,24.9116,泉州市,涂山街,颗粒物(PM10),55,59,61,26,33,74,,114,114,39,29,3,3,0.6,0.6
2026-01-15T1900,1612A,118.597,24.8976,泉州市,津头埔,,,64,61,30,34,74,,111,111,,31,5,5,,0.7
2026-01-15T1900,1613A,118.6669,24.9422,泉州市,万安,颗粒物(PM10),58,66,57,17,34,75,,102,102,28,27,3,3,0.6,0.6
2026-01-15T1900,4105A,118.6355,24.9148,泉州市,霞新路6号,,47,47,55,24,32,81,,108,108,34,37,/,/,0.5,0.5
2026-01-15T1900,2626A,88.8873,29.2723,日喀则市,日喀则监测站,,29,13,49,3,31,92,,86,86,4,28,18,23,0.3,1
2026-01-15T1900,3726A,88.8775,29.2425,日喀则市,林业技术推广中心,,,80,24,3,9,,,88,88,2,7,9,10,0.2,0.4
2026-01-15T1900,1659A,119.4711,35.421,日照市,监测站,颗粒物(PM10),141,232,220,84,116,25,,55,55,87,67,13,17,1.0,1.4
2026-01-15T1900,1660A,119.523,35.4216,日照市,市政府广场,颗粒物(PM10),128,205,205,66,106,71,,75,75,50,57,13,16,0.6,1
2026-01-15T1900,1661A,119.5511,35.4113,日照市,港务局,细颗粒物(PM2.5),179,246,221,135,130,58,,65,65,75,68,14,14,1.1,1.1
2026-01-15T1900,3507A,119.5326,35.4627,日照市,职业技术学院,颗粒物(PM10),134,217,210,85,99,70,,74,74,55,62,13,14,1.1,1.4
2026-01-15T1900,3604A,119.3267,35.1043,日照市,岚山环保分局,颗粒物(PM10),139,227,234,102,142,90,,70,70,55,72,19,20,1.1,1.6
2026-01-15T1900,1835A,111.1922,34.7752,三门峡市,市政府,颗粒物(PM10),73,95,131,44,53,13,,71,67,78,46,14,15,1.6,1.1
2026-01-15T1900,1836A,111.1588,34.794,三门峡市,开发区,颗粒物(PM10),85,120,140,36,54,42,,65,65,51,38,8,8,0.4,0.7
2026-01-15T1900,3039A,111.1911,34.7829,三门峡市,三门峡市第一小学,颗粒物(PM10),76,102,149,40,51,31,,65,64,66,36,11,10,0.9,0.8
2026-01-15T1900,3598A,111.1031,34.719,三门峡市,富达温泉假日酒店,,,138,145,40,56,,,58,58,53,51,15,14,0.6,0.9
2026-01-15T1900,2324A,117.621,26.2626,三明市,三钢,细颗粒物(PM2.5),62,60,49,44,36,61,,96,96,52,39,11,11,1.1,1.3
2026-01-15T1900,2325A,117.6352,26.2714,三明市,三明二中,细颗粒物(PM2.5),62,,47,44,34,84,,96,96,22,35,7,9,0.8,1.4
2026-01-15T1900,2326A,117.6028,26.2377,三明市,三元区政府,细颗粒物(PM2.5),64,53,49,46,34,54,,98,98,54,38,6,11,1.2,1
2026-01-15T1900,1877A,109.4962,18.2682,三亚市,河西子站,,32,32,38,12,20,68,,94,87,35,18,3,2,0.3,0.4
2026-01-15T1900,3540A,109.7348,18.3443,三亚市,君悦子站,颗粒物(PM10),52,54,42,15,22,89,,96,96,7,14,5,5,0.3,0.5
2026-01-15T1900,4135A,109.1714,18.3739,三亚市,城东小学站,,33,33,44,10,31,83,,120,118,8,13,/,/,/,/
2026-01-15T1900,2624A,91.7592,29.234,山南市,山南监测站,,30,24,20,9,15,94,,86,86,3,11,5,5,0.4,0.4
2026-01-15T1900,2625A,91.7701,29.2436,山南市,山南人民医院,,37,37,21,12,10,86,,83,83,10,13,8,8,0.4,0.4
2026-01-15T1900,1674A,116.6795,23.3666,汕头市,金平子站,,37,36,48,22,33,118,,124,124,16,23,4,7,0.6,0.7
2026-01-15T1900,1675A,116.7248,23.3632,汕头市,龙湖子站,,43,43,53,26,28,99,,114,114,24,21,10,13,/,/
2026-01-15T1900,1676A,116.7257,23.2774,汕头市,濠江子站,,46,45,41,32,29,97,,112,112,34,20,8,9,/,/
2026-01-15T1900,1677A,116.7518,23.4712,汕头市,澄海子站,,50,50,59,34,39,106,,119,119,26,24,7,12,0.7,0.7
2026-01-15T1900,1678A,116.6088,23.2539,汕头市,潮阳子站,,42,42,39,20,23,122,,122,122,11,13,7,7,0.6,0.6
2026-01-15T1900,3444A,116.4539,23.2684,汕头市,潮南峡山,,44,44,55,30,36,113,,133,133,19,20,9,10,0.6,0.8
2026-01-15T1900,3624A,116.4069,23.2533,汕头市,潮南子站,颗粒物(PM10),53,56,67,27,36,105,,126,126,19,21,7,8,/,/
2026-01-15T1900,1693A,115.3653,22.7751,汕尾市,市环保局,细颗粒物(PM2.5),52,50,49,36,38,138,,127,127,26,18,8,7,0.8,0.7
2026-01-15T1900,1695A,115.362,22.7926,汕尾市,新城中学,颗粒物(PM10),61,71,52,38,37,132,,130,130,22,19,5,5,0.6,0.5
2026-01-15T1900,2645A,109.9155,33.8714,商洛市,监测站,颗粒物(PM10),78,106,144,45,45,45,,60,60,52,32,19,7,1.0,0.6
2026-01-15T1900,3045A,109.9647,33.8486,商洛市,商州区中学,颗粒物(PM10),68,86,132,39,39,50,,62,62,39,36,36,8,0.7,0.6
2026-01-15T1900,2408A,115.6701,34.4283,商丘市,环境监测站,颗粒物(PM10),79,108,143,34,98,76,,89,89,24,33,3,5,0.3,0.6
