timepoint,stationcode,longitude,latitude,area,positionname,primarypollutant,aqi,pm10,pm10_24h,pm2_5,pm2_5_24h,o3,o3_24h,o3_8h,o3_8h_24h,no2,no2_24h,so2,so2_24h,co,co_24h
2026-04-17T1200,2568A,102.2503,31.8896,阿坝藏族羌族自治州,马师校,,35,28,26,21,10,110,110,48,48,5,5,6,6,0.3,0.3
2026-04-17T1200,3994A,102.2174,31.9016,阿坝藏族羌族自治州,马尔康中学西区,NA,NA,21,20,18,12,98,98,51,51,NA,6,3,3,0.2,0.2
2026-04-17T1200,2695A,80.2899,41.1684,阿克苏地区,电视台,颗粒物(PM10),95,112,97,37,45,55,55,62,59,30,23,3,3,0.6,0.7
2026-04-17T1200,2696A,80.2592,41.1541,阿克苏地区,艺术中心,颗粒物(PM10),89,104,107,30,38,42,42,61,57,47,39,4,4,0.6,0.7
2026-04-17T1200,2205A,105.699,38.8409,阿拉善盟,蒙二幼,颗粒物(PM10),54,55,61,3,9,123,123,NA,NA,4,3,9,9,0.3,0.3
2026-04-17T1200,2206A,105.7198,38.8508,阿拉善盟,环保局新楼,,37,35,48,9,16,118,118,112,112,4,4,8,8,0.5,0.5
2026-04-17T1200,2708A,88.1266,47.8515,阿勒泰地区,市站,,19,19,20,3,2,59,59,83,64,11,7,6,5,0.5,0.3
2026-04-17T1200,4166A,88.1198,47.7931,阿勒泰地区,阿勒泰路33号,,18,18,23,3,3,54,54,83,64,7,8,6,6,0.2,0.2
2026-04-17T1200,2630A,80.1171,32.4999,阿里地区,阿里监测站,,35,NA,20,19,9,111,111,100,95,2,7,5,6,0.3,0.4
2026-04-17T1200,3192A,80.0906,32.5029,阿里地区,阿里藏医院,,35,13,18,3,4,112,112,107,99,1,2,5,7,0.4,0.4
2026-04-17T1200,2644A,109.0088,32.6974,安康市,汉滨区检察院,,46,46,38,23,16,70,70,34,34,9,9,6,5,0.5,0.4
2026-04-17T1200,4054A,109.0324,32.6913,安康市,市邮政管理局,颗粒物(PM10),60,64,46,28,18,72,72,38,38,12,12,5,8,0.6,0.6
2026-04-17T1200,2291A,117.0806,30.5181,安庆市,环科院,,46,36,36,32,35,111,111,48,48,5,22,6,6,0.6,0.8
2026-04-17T1200,2292A,117.0331,30.5118,安庆市,马山宾馆,细颗粒物(PM2.5),54,42,33,37,37,104,104,49,49,4,19,4,5,0.7,0.9
2026-04-17T1200,2294A,116.9897,30.6146,安庆市,安庆大学,,38,38,31,24,26,103,103,52,52,3,13,3,3,0.5,0.7
2026-04-17T1200,3173A,117.0598,30.5351,安庆市,市人大,NA,NA,NA,33,NA,31,109,109,45,45,4,17,4,7,NA,0.8
2026-04-17T1200,3123A,105.9408,26.2431,安顺市,凤凰山,,29,NA,19,13,17,90,90,83,83,8,8,7,7,0.5,0.5
2026-04-17T1200,3124A,105.9443,26.2567,安顺市,金钟山,NA,NA,9,16,8,15,NA,NA,73,73,6,6,NA,6,0.4,0.5
2026-04-17T1200,3125A,105.8983,26.248,安顺市,娄家坡,,27,NA,21,16,18,85,85,76,76,7,7,26,25,0.5,0.5
2026-04-17T1200,1819A,114.3552,36.1017,安阳市,红庙街,细颗粒物(PM2.5),111,83,62,72,72,94,94,48,48,14,15,4,3,0.5,0.4
2026-04-17T1200,1820A,114.361,36.0681,安阳市,银杏小区,细颗粒物(PM2.5),120,102,66,81,79,93,93,41,41,11,18,5,3,0.5,0.5
2026-04-17T1200,3141A,114.3921,36.0879,安阳市,信访局,细颗粒物(PM2.5),111,88,58,72,72,101,101,48,48,10,14,2,2,0.7,0.6
2026-04-17T1200,3669A,114.4706,36.0634,安阳市,左辅环卫站,细颗粒物(PM2.5),94,104,78,57,48,87,87,38,38,12,16,3,3,0.6,0.5
2026-04-17T1200,4117A,114.2918,36.0769,安阳市,钢三路198号,细颗粒物(PM2.5),103,NA,60,63,70,100,100,51,51,11,14,2,2,0.7,0.6
2026-04-17T1200,1748A,123.0441,41.1201,鞍山市,深沟寺,,39,28,62,18,34,124,124,110,110,16,19,11,12,0.7,0.9
2026-04-17T1200,1749A,123.011,41.0931,鞍山市,太阳城,,37,26,67,18,38,118,118,102,102,10,12,9,9,0.7,0.8
2026-04-17T1200,1750A,123.0483,41.1445,鞍山市,太平,NA,NA,32,69,19,37,116,116,106,106,NA,15,10,12,NA,0.8
2026-04-17T1200,1751A,122.964,41.0968,鞍山市,铁西三道街,,38,38,80,20,42,115,115,95,95,13,19,8,8,0.7,0.9
2026-04-17T1200,1753A,123.0219,41.0822,鞍山市,明达新区,,38,27,63,16,35,119,119,106,106,12,15,10,10,0.6,0.7
2026-04-17T1200,4201A,122.944647,41.082639,鞍山市,兴盛南路290号,NA,NA,NA,79,NA,43,119,119,100,100,13,19,9,10,0.5,0.8
2026-04-17T1200,2195A,107.4206,40.7609,巴彦淖尔市,附二中,颗粒物(PM10),73,81,114,37,31,113,113,95,95,6,6,12,10,0.4,0.3
2026-04-17T1200,2196A,107.37,40.7372,巴彦淖尔市,市环保大楼,颗粒物(PM10),70,77,108,21,26,117,117,95,95,6,7,8,6,0.4,0.3
2026-04-17T1200,1956A,86.1476,41.7529,巴音郭楞蒙古自治州,孔雀公园,NA,NA,85,129,NA,55,90,90,24,24,11,40,11,10,0.2,0.3
2026-04-17T1200,1957A,86.1971,41.7166,巴音郭楞蒙古自治州,棉纺厂,颗粒物(PM10),85,99,151,20,47,107,107,46,46,2,30,/,/,/,/
2026-04-17T1200,1958A,86.236,41.7172,巴音郭楞蒙古自治州,经济开发区,颗粒物(PM10),68,74,117,20,44,102,102,78,78,2,9,8,8,0.2,0.2
2026-04-17T1200,3181A,106.776805,31.852614,巴中市,市五中,,44,44,37,21,20,78,78,31,31,15,16,9,8,0.6,0.6
2026-04-17T1200,3183A,106.7419,31.8654,巴中市,圣泉水务公司,颗粒物(PM10),53,53,32,21,18,89,89,48,48,11,16,10,9,0.6,0.5
2026-04-17T1200,3616A,106.7617,31.8343,巴中市,市中心医院,,45,45,36,24,18,88,88,36,36,6,12,10,9,0.4,0.4
2026-04-17T1200,2235A,122.7909,45.608,白城市,洮北区环保局,,35,35,35,16,18,75,75,54,54,7,9,4,4,0.1,0.1
2026-04-17T1200,2236A,122.8741,45.5725,白城市,市环保局,,39,39,33,12,15,71,71,47,47,18,33,6,4,0.3,0.2
2026-04-17T1200,2231A,126.4219,41.9172,白山市,喜丰,,46,46,62,16,25,114,114,108,108,11,17,8,11,0.9,0.9
2026-04-17T1200,2232A,126.4082,41.9416,白山市,环保局,,37,36,53,9,24,117,117,103,103,13,18,8,11,0.6,0.7
2026-04-17T1200,2647A,104.1727,36.5448,白银市,第三小学,,42,42,46,12,22,97,97,43,43,10,26,6,8,0.3,0.5
2026-04-17T1200,2648A,104.1467,36.5482,白银市,动力公司,,33,33,45,10,19,100,100,51,51,5,28,7,8,0.2,0.3
2026-04-17T1200,2512A,106.6102,23.901,百色市,市监测站,,27,27,49,18,42,64,64,64,54,9,11,10,13,1.0,1
2026-04-17T1200,2513A,106.6524,23.8842,百色市,市中心血站,,45,45,53,28,44,76,76,65,54,15,10,9,13,0.8,1.1
2026-04-17T1200,4133A,106.6273,23.8798,百色市,龙景西路,,42,42,78,26,43,70,70,69,56,13,14,12,15,0.3,0.5
2026-04-17T1200,2270A,117.396,32.9389,蚌埠市,工人疗养院,细颗粒物(PM2.5),72,79,97,46,58,149,149,60,60,15,40,6,5,0.6,0.7
2026-04-17T1200,2271A,117.3606,32.9428,蚌埠市,百货大楼,颗粒物(PM10),60,63,83,35,52,148,148,71,71,8,34,8,7,0.5,0.7
2026-04-17T1200,2273A,117.4183,32.8909,蚌埠市,蚌埠学院,颗粒物(PM10),53,53,64,31,48,148,148,46,46,9,34,6,5,0.6,0.8
2026-04-17T1200,2274A,117.3534,32.9672,蚌埠市,淮上区政府,颗粒物(PM10),56,58,78,32,48,149,149,75,75,12,36,6,6,0.4,0.6
2026-04-17T1200,2275A,117.3143,32.8977,蚌埠市,高新区,细颗粒物(PM2.5),54,53,73,37,54,140,140,58,58,8,36,9,9,0.6,0.8
2026-04-17T1200,3715A,117.3091,32.9314,蚌埠市,蚌埠田家炳中学,颗粒物(PM10),57,59,94,36,58,150,150,68,68,11,42,8,7,0.5,0.7
2026-04-17T1200,1585A,109.8761,40.6533,包头市,市环境监测站,颗粒物(PM10),87,101,116,21,34,127,127,64,64,16,36,16,23,0.6,0.9
2026-04-17T1200,1587A,109.9992,40.5843,包头市,包头八中,颗粒物(PM10),75,84,113,40,36,108,108,41,41,9,28,11,13,0.4,0.6
2026-04-17T1200,1589A,109.8641,40.6288,包头市,惠龙物流,颗粒物(PM10),71,79,105,22,39,109,109,63,63,16,26,10,17,0.5,0.8
2026-04-17T1200,1590A,110.0376,40.5546,包头市,东河鸿龙湾,颗粒物(PM10),59,62,95,16,27,115,115,48,48,9,26,14,12,0.5,0.5
2026-04-17T1200,3283A,109.9154,40.5684,包头市,滨河大厦,颗粒物(PM10),67,73,91,19,28,115,115,51,51,8,23,13,12,0.4,0.4
2026-04-17T1200,3419A,109.9449,40.6259,包头市,包头市委党校,颗粒物(PM10),66,72,96,32,30,118,118,55,55,12,27,17,18,0.5,0.8
2026-04-17T1200,3683A,109.8332,40.6577,包头市,昆区政府,颗粒物(PM10),78,88,117,25,43,113,113,52,52,19,45,11,27,0.8,1.3
2026-04-17T1200,1931A,107.0802,34.3129,宝鸡市,竹园沟,颗粒物(PM10),52,52,67,13,16,97,97,51,51,10,13,7,7,0.3,0.3
2026-04-17T1200,1933A,107.1429,34.3549,宝鸡市,监测站,颗粒物(PM10),61,65,74,20,23,90,90,49,49,9,12,6,6,0.4,0.4
2026-04-17T1200,1934A,107.1172,34.3759,宝鸡市,技工学校,颗粒物(PM10),72,80,77,23,25,85,85,57,57,12,10,4,4,0.4,0.4
2026-04-17T1200,1936A,107.2025,34.3518,宝鸡市,文理学院,颗粒物(PM10),59,62,75,20,22,90,90,51,51,12,15,5,5,0.4,0.4
2026-04-17T1200,1937A,107.2396,34.3626,宝鸡市,三迪小学,颗粒物(PM10),68,74,82,34,28,84,84,52,52,19,20,6,5,0.4,0.4
2026-04-17T1200,4155A,107.1721,34.3558,宝鸡市,滨河北路,颗粒物(PM10),53,54,74,25,27,85,85,48,48,12,15,6,6,0.4,0.4
2026-04-17T1200,4308A,107.3898,34.3601,宝鸡市,陈仓区北开路21号,颗粒物(PM10),66,72,87,25,28,83,83,40,40,12,18,8,8,0.2,0.3
2026-04-17T1200,1051A,115.4803,38.8568,保定市,游泳馆,细颗粒物(PM2.5),111,NA,55,72,38,87,87,49,49,11,17,3,2,0.3,0.2
2026-04-17T1200,1052A,115.509,38.8895,保定市,华电二区,细颗粒物(PM2.5),124,NA,43,86,47,77,77,52,52,11,13,2,3,0.6,0.4
2026-04-17T1200,1053A,115.4588,38.9037,保定市,接待中心,细颗粒物(PM2.5),120,81,64,81,48,73,73,48,45,10,11,3,3,0.3,0.2
2026-04-17T1200,1054A,115.4484,38.8344,保定市,地表水厂,细颗粒物(PM2.5),113,74,59,74,49,93,93,40,40,9,21,3,2,0.6,0.4
2026-04-17T1200,3581A,115.3136,38.9511,保定市,满城区生态环境分局,细颗粒物(PM2.5),105,90,52,65,42,83,83,60,54,8,9,1,2,0.6,0.3
2026-04-17T1200,3582A,115.4709,38.7628,保定市,清苑区第二中学,细颗粒物(PM2.5),116,96,72,77,46,84,84,39,39,10,21,4,4,0.4,0.3
2026-04-17T1200,3583A,115.6231,39.0223,保定市,徐水物探局,细颗粒物(PM2.5),119,110,63,80,35,79,79,51,51,14,20,NA,2,0.6,0.4
2026-04-17T1200,4004A,115.4199,38.8665,保定市,双鹰农机,细颗粒物(PM2.5),125,NA,38,87,52,84,84,45,45,9,15,2,2,0.5,0.3
2026-04-17T1200,4034A,115.515,38.8589,保定市,植保所站,细颗粒物(PM2.5),110,110,82,70,48,80,80,54,54,12,17,5,3,0.5,0.2
2026-04-17T1200,2594A,99.1589,25.1137,保山市,市环境监测站,颗粒物(PM10),58,60,44,29,30,121,121,76,76,12,10,5,6,0.3,0.3
2026-04-17T1200,2595A,99.1616,25.1381,保山市,市环保局,颗粒物(PM10),58,61,46,30,30,126,126,89,87,10,7,7,6,0.4,0.4
2026-04-17T1200,1867A,109.1435,21.4085,北海市,海滩公园,,26,26,32,18,18,56,56,49,49,7,7,6,6,0.5,0.5
2026-04-17T1200,1868A,109.0983,21.466,北海市,新市环保局,,26,26,32,14,19,48,48,44,44,9,8,1,2,0.8,0.7
2026-04-17T1200,1869A,109.1775,21.5232,北海市,北海工业园,,50,42,40,35,24,31,31,35,35,18,12,8,8,0.5,0.5
2026-04-17T1200,3400A,109.1844,21.4396,北海市,龙潭自来水厂,,29,29,29,14,13,48,48,42,42,6,6,12,8,0.8,0.7
2026-04-17T1200,1001A,116.3611,39.8786,北京市,万寿西宫,细颗粒物(PM2.5),72,54,50,46,40,85,85,50,50,12,19,3,2,0.5,0.5
2026-04-17T1200,1003A,116.4174,39.9289,北京市,东四,细颗粒物(PM2.5),74,53,54,47,45,90,90,59,59,15,20,2,1,0.3,0.3
2026-04-17T1200,1004A,116.4073,39.8858,北京市,天坛,细颗粒物(PM2.5),60,44,43,40,36,65,65,33,33,17,19,4,4,0.6,0.5
2026-04-17T1200,1005A,116.4622,39.9364,北京市,农展馆,细颗粒物(PM2.5),74,50,50,47,44,81,81,48,48,11,16,3,2,0.5,0.6
2026-04-17T1200,1006A,116.3399,39.9293,北京市,官园,细颗粒物(PM2.5),78,57,49,49,41,72,72,49,49,18,22,1,1,0.5,0.5
2026-04-17T1200,1007A,116.2879,39.9613,北京市,海淀万柳,细颗粒物(PM2.5),56,43,46,38,36,67,67,34,34,17,25,4,4,0.5,0.5
2026-04-17T1200,1008A,116.6635,40.1349,北京市,顺义新城,细颗粒物(PM2.5),100,64,51,60,42,71,71,58,57,7,6,5,4,0.5,0.4
2026-04-17T1200,1009A,116.6275,40.327,北京市,怀柔镇,细颗粒物(PM2.5),76,58,53,48,42,71,71,61,61,12,11,4,4,0.7,0.7
2026-04-17T1200,1010A,116.2295,40.217,北京市,昌平镇,,30,26,56,21,49,90,90,35,35,16,27,2,2,0.4,0.6
2026-04-17T1200,1011A,116.3968,39.982,北京市,奥体中心,细颗粒物(PM2.5),78,61,51,49,39,75,75,34,34,16,23,3,3,0.6,0.6
2026-04-17T1200,3418A,116.8336,40.4095,北京市,密云新城,细颗粒物(PM2.5),64,49,47,42,34,79,79,51,51,8,8,4,4,0.4,0.5
2026-04-17T1200,3671A,116.0879,39.9725,北京市,门头沟三家店,,38,38,35,26,25,83,83,46,46,9,21,2,2,0.4,0.4
2026-04-17T1200,3672A,116.1507,39.8246,北京市,丰台云岗,细颗粒物(PM2.5),64,52,41,42,27,70,70,36,36,15,19,2,2,0.5,0.5
2026-04-17T1200,3674A,115.9578,39.7602,北京市,房山燕山,,50,48,35,35,26,61,61,39,39,14,13,2,3,0.5,0.5
2026-04-17T1200,3675A,116.4669,39.7734,北京市,大兴旧宫,细颗粒物(PM2.5),52,46,47,36,36,89,89,55,55,8,15,3,2,0.6,0.5
2026-04-17T1200,3694A,115.9859,40.4562,北京市,延庆石河营,,32,25,31,22,27,80,80,42,42,5,15,1,1,0.4,0.5
2026-04-17T1200,3695A,116.6151,40.3052,北京市,怀柔新城,细颗粒物(PM2.5),76,55,53,48,44,69,69,52,52,14,14,4,4,0.6,0.6
2026-04-17T1200,3696A,116.2542,39.8764,北京市,丰台小屯,细颗粒物(PM2.5),62,51,42,41,28,68,68,27,27,13,27,3,2,0.4,0.5
2026-04-17T1200,3697A,116.8399,40.3843,北京市,密云镇,细颗粒物(PM2.5),106,NA,54,66,48,84,84,47,47,9,15,5,5,0.5,0.5
2026-04-17T1200,4057A,115.9423,40.4431,北京市,延庆百泉,,33,26,33,23,25,76,76,31,31,5,16,1,2,0.5,0.5
2026-04-17T1200,4058A,116.6598,39.9164,北京市,通州新华,细颗粒物(PM2.5),76,50,49,48,47,89,89,58,58,15,17,2,2,0.5,0.5
2026-04-17T1200,4182A,116.1942,39.9158,北京市,石景山八角,细颗粒物(PM2.5),62,51,43,41,30,75,75,45,45,17,27,3,2,0.4,0.4
2026-04-17T1200,4194A,117.078628,40.151726,北京市,平谷新城,细颗粒物(PM2.5),86,64,59,53,44,102,102,86,86,10,10,3,3,0.5,0.6
2026-04-17T1200,1761A,123.8274146,41.31234549,本溪市,大峪,,40,21,53,11,23,127,127,111,111,5,10,6,8,0.5,0.7
2026-04-17T1200,1763A,123.7169,41.3094,本溪市,彩屯,,41,32,65,10,33,130,130,108,108,6,16,11,15,0.7,1.2
2026-04-17T1200,1764A,123.7672166,41.28649327,本溪市,东明,,39,36,57,11,28,123,123,111,111,9,14,5,7,0.4,0.5
2026-04-17T1200,1765A,123.799345,41.266614,本溪市,新立屯,,40,18,48,12,23,128,128,109,109,5,17,7,8,0.6,0.7
2026-04-17T1200,1766A,123.829144,41.336777,本溪市,威宁,,38,31,64,11,30,120,120,91,91,1,19,8,8,0.5,0.6
2026-04-17T1200,2587A,105.287,27.3133,毕节市,八中,NA,NA,NA,12,14,13,96,96,92,92,9,5,8,7,0.5,0.5
2026-04-17T1200,2588A,105.3079,27.2987,毕节市,师专,,28,14,17,9,12,87,87,84,84,9,5,13,9,0.4,0.5
2026-04-17T1200,4263A,105.3688,27.3598,毕节市,工业大道,,31,17,16,3,10,97,97,96,96,5,4,10,10,/,/
2026-04-17T1200,1629A,117.9961,37.3604,滨州市,第二水厂,细颗粒物(PM2.5),88,68,79,54,51,127,127,68,68,9,25,9,8,0.7,0.7
2026-04-17T1200,1630A,117.9789,37.3931,滨州市,北中新校,NA,NA,63,72,52,46,131,131,68,68,13,26,14,15,NA,0.7
2026-04-17T1200,3514A,117.9379,37.3959,滨州市,中海酒店,NA,NA,NA,51,NA,26,NA,NA,NA,NA,NA,26,NA,10,NA,0.5
2026-04-17T1200,3515A,117.9381509,37.35547456,滨州市,开发区一中,细颗粒物(PM2.5),86,70,82,53,52,126,126,67,67,12,29,13,11,0.8,0.9
2026-04-17T1200,3516A,118.0914,37.6938,滨州市,金海六路,细颗粒物(PM2.5),66,49,60,43,44,142,142,87,87,6,16,13,9,0.5,0.4
2026-04-17T1200,4028A,117.9955,37.3752,滨州市,滨州市西街道办事处,细颗粒物(PM2.5),82,63,75,51,46,132,132,73,73,11,21,11,7,0.5,0.5
2026-04-17T1200,2311A,115.8071,33.8399,亳州市,污水处理厂,细颗粒物(PM2.5),66,70,80,43,53,129,129,51,51,12,23,6,9,0.3,0.3
2026-04-17T1200,2312A,115.7789,33.8519,亳州市,三国揽胜宫,细颗粒物(PM2.5),74,65,60,47,48,125,125,57,57,15,23,7,8,0.2,0.3
2026-04-17T1200,3332A,115.7631,33.803,亳州市,亳州学院,细颗粒物(PM2.5),56,56,98,38,54,120,120,61,61,4,12,7,8,0.6,0.5
2026-04-17T1200,2693A,82.0482,44.8553,博尔塔拉蒙古自治州,市党校,,32,32,108,6,17,99,99,87,86,5,2,3,2,0.3,0.4
2026-04-17T1200,2694A,82.0805,44.8966,博尔塔拉蒙古自治州,市环保局,NA,NA,33,109,6,14,90,90,84,79,10,8,NA,2,0.2,0.2
2026-04-17T1200,1071A,116.8733,38.2922,沧州市,沧县城建局,细颗粒物(PM2.5),80,60,64,50,51,118,118,63,63,12,21,2,4,0.7,0.6
2026-04-17T1200,1072A,116.8462,38.3189,沧州市,电视转播站,细颗粒物(PM2.5),86,63,63,53,45,115,115,70,70,10,16,6,6,0.3,0.3
2026-04-17T1200,1073A,116.8588,38.3161,沧州市,市环保局,细颗粒物(PM2.5),80,81,71,50,44,120,120,69,69,10,16,4,5,0.6,0.6
2026-04-17T1200,3324A,116.8011,38.294,沧州市,河北水利电力学院,细颗粒物(PM2.5),94,68,58,57,42,109,109,70,70,9,20,6,6,0.5,0.4
2026-04-17T1200,2622A,97.1813,31.1289,昌都市,昌都监测站,,29,29,33,3,10,92,92,68,68,6,14,7,8,0.5,0.6
2026-04-17T1200,3719A,97.1707,31.1428,昌都市,昌都会议中心,NA,NA,NA,18,14,8,91,91,75,75,NA,6,6,5,0.1,0.1
2026-04-17T1200,2692A,87.2722,44.0298,昌吉回族自治州,新区政务中心,颗粒物(PM10),116,161,74,22,20,84,84,67,66,8,11,7,6,0.3,0.3
2026-04-17T1200,3613A,87.3069,44.0093,昌吉回族自治州,亚心广场,颗粒物(PM10),129,193,100,23,18,84,84,72,70,6,10,9,8,0.2,0.3
2026-04-17T1200,4164A,87.2057,43.9289,昌吉回族自治州,财政所,颗粒物(PM10),92,108,114,8,17,79,79,64,64,11,15,8,8,0.3,0.3
2026-04-17T1200,1120A,125.2874,43.9024,长春市,客车厂,,36,25,44,19,33,114,114,83,83,11,27,8,8,0.5,0.5
2026-04-17T1200,1121A,125.2943,43.8508,长春市,邮电学院,,38,23,47,22,36,120,120,86,86,5,16,8,8,0.5,0.5
2026-04-17T1200,1122A,125.3648,43.8745,长春市,劳动公园,,38,25,47,22,36,120,120,82,82,9,24,7,7,0.5,0.5
2026-04-17T1200,1123A,125.3233,43.8781,长春市,园林处,,40,25,43,22,33,126,126,98,98,8,19,6,7,0.4,0.4
2026-04-17T1200,1124A,125.4604,43.7904,长春市,净月潭,,40,29,51,28,38,116,116,78,78,8,16,7,7,0.5,0.5
2026-04-17T1200,1126A,125.38,43.8422,长春市,经开区环卫处,,37,28,51,18,37,118,118,74,74,7,24,5,6,0.6,0.6
2026-04-17T1200,1127A,125.234,43.7761,长春市,高新区管委会,,37,NA,48,22,38,116,116,78,78,5,20,8,8,0.5,0.5
2026-04-17T1200,1128A,125.1695,43.83,长春市,岱山公园,NA,NA,31,48,25,38,123,123,75,75,12,30,5,6,NA,0.5
2026-04-17T1200,4281A,125.334645,43.916281,长春市,北亚泰大街1068号,,37,26,53,23,38,118,118,87,87,11,27,6,7,0.5,0.5
2026-04-17T1200,1335A,113.082,28.2421,长沙市,经开区环保局,,42,42,36,24,26,95,95,54,54,13,20,5,4,0.6,0.6
2026-04-17T1200,1336A,112.8873,28.2202,长沙市,高开区环保局,细颗粒物(PM2.5),54,45,33,37,26,92,92,34,34,8,19,7,6,0.6,0.7
2026-04-17T1200,1337A,113.0785,28.2012,长沙市,马坡岭,,45,45,38,29,31,93,93,54,54,11,18,6,5,0.9,0.9
2026-04-17T1200,1338A,112.9448,28.1894,长沙市,湖南师范大学,,46,43,35,32,25,98,98,53,53,9,15,6,5,0.8,0.8
2026-04-17T1200,1339A,113.0177,28.1322,长沙市,雨花区环保局,,45,45,36,21,28,100,100,65,65,8,16,4,4,0.8,0.8
2026-04-17T1200,1340A,112.9795,28.2593,长沙市,伍家岭,,48,46,39,33,26,90,90,39,39,10,25,5,4,0.6,0.6
2026-04-17T1200,1341A,113.002,28.1944,长沙市,火车新站,NA,NA,NA,37,NA,31,92,92,50,50,NA,21,5,4,0.6,0.6
2026-04-17T1200,1342A,112.9846,28.1177,长沙市,天心区环保局,,44,44,38,30,32,102,102,59,59,8,19,6,5,0.8,0.8
2026-04-17T1200,1343A,112.8906,28.1307,长沙市,湖南中医药大学,颗粒物(PM10),55,56,31,33,21,102,102,40,40,12,23,6,5,0.7,0.8
2026-04-17T1200,1727A,113.1146,36.1547,长治市,清华站,,48,48,61,12,23,114,114,50,50,14,29,8,8,0.3,0.5
2026-04-17T1200,1730A,113.0887,36.2126,长治市,审计局,颗粒物(PM10),57,59,67,18,28,113,113,56,56,11,19,9,9,0.2,0.4
2026-04-17T1200,1731A,113.0845,36.1856,长治市,长治八中,颗粒物(PM10),62,66,79,8,27,112,112,54,54,11,20,10,10,0.4,0.6
2026-04-17T1200,2845A,113.1561,36.1912,长治市,德盛苑,,43,43,55,6,24,118,118,89,89,13,16,8,12,0.3,0.7
2026-04-17T1200,3568A,113.0603,36.0464,长治市,向阳小学,颗粒物(PM10),71,79,86,10,23,126,126,71,71,13,27,6,8,0.4,0.6
2026-04-17T1200,3569A,112.8788,36.315,长治市,屯留一中,颗粒物(PM10),51,51,58,11,19,116,116,55,55,12,25,6,8,0.0,0.2
2026-04-17T1200,4189A,113.113092,36.199482,长治市,英华南巷50号,NA,NA,79,75,7,30,115,115,61,61,11,18,9,9,NA,1
2026-04-17T1200,4190A,113.23666,36.33435,长治市,学府街1号,颗粒物(PM10),68,75,77,13,26,109,109,43,43,16,26,9,9,0.8,0.7
2026-04-17T1200,1854A,111.696,28.9725,常德市,市二中,,33,30,32,21,23,104,104,36,36,2,13,9,9,0.8,0.8
2026-04-17T1200,3138A,111.7152,29.0288,常德市,武陵区永安,,39,39,40,21,28,102,102,41,41,4,15,7,7,0.6,0.7
2026-04-17T1200,3139A,111.6891,28.9881,常德市,鼎城区玉霞,,32,31,34,21,23,101,101,34,34,4,13,10,10,0.7,0.8
2026-04-17T1200,3140A,111.6651,29.0526,常德市,武陵区长庚,,37,37,40,24,29,96,96,34,34,2,16,10,10,0.8,0.9
2026-04-17T1200,1196A,119.9524,31.7586,常州市,市监测站,细颗粒物(PM2.5),104,99,74,64,40,98,98,56,56,19,26,10,10,0.8,0.8
2026-04-17T1200,1200A,119.9351,31.703,常州市,武进监测站,颗粒物(PM10),100,120,87,56,38,100,100,51,51,20,25,7,7,0.7,0.7
2026-04-17T1200,3002A,119.9701,31.813,常州市,行政中心,细颗粒物(PM2.5),101,73,56,61,36,85,85,45,45,22,29,5,6,0.8,0.6
2026-04-17T1200,3003A,120.0434,31.7726,常州市,经开区,细颗粒物(PM2.5),90,99,88,55,38,96,96,50,50,13,25,3,3,1.1,0.9
2026-04-17T1200,3010A,119.8919,31.7892,常州市,钟楼,细颗粒物(PM2.5),106,NA,55,66,40,93,93,45,45,22,30,8,8,0.5,0.6
2026-04-17T1200,3429A,119.8595,31.706,常州市,武进经发区,颗粒物(PM10),79,90,68,32,27,104,104,52,52,17,28,6,6,0.6,0.5
2026-04-17T1200,3430A,119.5812,31.7256,常州市,金坛城区,,49,46,41,34,26,107,107,59,59,7,11,9,9,0.7,0.6
2026-04-17T1200,4089A,119.9551,31.863,常州市,崇义南街5-H号,细颗粒物(PM2.5),92,96,65,56,33,86,86,36,36,21,27,6,6,0.8,0.6
2026-04-17T1200,2220A,120.4318,41.588,朝阳市,西梁,,35,28,36,24,39,112,112,98,98,10,15,6,11,0.6,0.6
2026-04-17T1200,2221A,120.452,41.565,朝阳市,河畔小区,,38,36,31,19,38,121,121,111,111,10,13,7,7,0.6,0.7
2026-04-17T1200,2222A,120.4176,41.5648,朝阳市,八里堡,,42,42,34,16,41,112,112,98,98,13,18,7,6,0.9,0.8
2026-04-17T1200,3026A,116.6179,23.6608,潮州市,市政府,,24,23,37,14,21,76,76,84,84,10,10,2,4,0.6,0.5
2026-04-17T1200,4036A,116.646,23.676,潮州市,金山,,27,27,32,15,20,69,69,70,70,9,8,2,3,0.5,0.4
2026-04-17T1200,2473A,113.0116,25.8228,郴州市,市职中,,31,31,20,19,15,49,49,36,36,11,13,7,7,0.7,0.8
2026-04-17T1200,2475A,113.0381,25.8074,郴州市,市审计局,NA,NA,32,20,28,15,NA,NA,66,66,12,12,3,4,/,/
2026-04-17T1200,2476A,113.0348,25.7757,郴州市,市环保局,,48,NA,23,33,18,36,36,38,37,19,16,6,7,0.8,0.7
2026-04-17T1200,4252A,113.0138,25.8011,郴州市,好美居路49号,,35,31,20,24,14,50,50,44,44,11,12,5,6,/,/
2026-04-17T1200,1431A,103.9727,30.7242,成都市,金泉两河,,26,NA,30,15,19,83,83,44,44,20,15,4,3,0.3,0.3
2026-04-17T1200,1432A,104.1423,30.6765,成都市,十里店,,31,29,35,19,21,98,98,59,59,12,14,8,5,0.5,0.5
2026-04-17T1200,1433A,104.0594,30.5765,成都市,三瓦窑,,29,28,35,17,20,92,92,52,52,8,10,6,5,0.5,0.5
2026-04-17T1200,1434A,104.1122,30.6306,成都市,沙河铺,,27,21,40,13,19,86,86,38,38,15,16,4,2,0.3,0.3
2026-04-17T1200,2880A,104.0219,30.6561,成都市,大石西路,,29,25,37,20,20,80,80,42,42,19,18,8,5,0.5,0.5
2026-04-17T1200,3136A,104.2724,30.559,成都市,龙泉驿区区政府,,30,17,29,13,19,93,93,65,65,10,11,7,12,0.5,0.4
2026-04-17T1200,3357A,104.0028,30.6891,成都市,金博路,,26,NA,23,14,17,81,81,43,43,21,19,8,6,0.4,0.4
2026-04-17T1200,3359A,104.056,30.5228,成都市,华阳,,31,24,32,13,19,98,98,59,59,9,13,7,5,0.3,0.3
2026-04-17T1200,3488A,104.387954,30.746684,成都市,青石路225号,,33,16,38,15,20,104,104,53,53,11,14,9,7,0.5,0.5
2026-04-17T1200,3489A,104.0788,30.4054,成都市,科学城,,34,13,29,3,16,107,107,65,65,5,10,5,5,0.4,0.4
2026-04-17T1200,4011A,103.8505,30.6946,成都市,光华大道三段,,36,27,33,17,19,113,113,50,50,18,18,4,4,0.5,0.5
2026-04-17T1200,4144A,104.3257,30.6406,成都市,八角井街185号,,30,21,38,11,18,95,95,59,59,10,12,6,5,0.4,0.4
2026-04-17T1200,4224A,104.2433276,30.53529463,成都市,鲸龙路1057号,,31,19,33,16,9,97,97,65,65,8,11,6,6,0.6,0.5
2026-04-17T1200,1062A,117.9531,40.908,承德市,铁路,,43,43,41,13,22,98,98,59,59,10,19,4,3,0.4,0.4
2026-04-17T1200,1063A,117.9397,40.9763,承德市,中国银行,颗粒物(PM10),62,66,39,22,22,98,98,54,54,8,15,10,3,0.3,0.4
2026-04-17T1200,4073A,117.9462,40.95,承德市,杏林街1号,颗粒物(PM10),59,62,38,34,37,98,98,66,66,10,11,14,3,0.7,0.4
2026-04-17T1200,4274A,117.7994,40.9605,承德市,滨河大街98号,,38,38,26,8,20,106,106,60,60,10,10,27,6,0.3,0.4
2026-04-17T1200,2314A,117.4698,30.6617,池州市,池州学院,,39,39,34,27,22,99,99,53,53,14,28,3,3,0.8,0.9
2026-04-17T1200,3237A,117.4918,30.6617,池州市,展览馆,,46,38,36,32,20,102,102,52,52,15,25,3,3,0.5,0.7
2026-04-17T1200,3333A,117.5626,30.695,池州市,第八中学,,35,30,34,24,22,108,108,54,54,14,29,4,5,0.6,0.8
2026-04-17T1200,3334A,117.5037,30.6242,池州市,第十二中学,,49,44,31,34,22,111,111,50,50,17,29,4,3,0.8,1
2026-04-17T1200,1744A,118.9229,42.2816,赤峰市,松山一中,颗粒物(PM10),56,58,30,10,21,97,97,57,57,15,23,6,7,0.5,0.7
2026-04-17T1200,1745A,118.9588,42.2733,赤峰市,哈达街,颗粒物(PM10),63,67,33,14,21,74,74,45,45,4,13,9,10,0.6,0.7
2026-04-17T1200,1746A,118.8792,42.2551,赤峰市,天义路,,47,47,17,12,14,96,96,73,73,8,14,5,5,0.0,0.1
2026-04-17T1200,3058A,119.2656,42.0356,赤峰市,银河街,,50,50,34,17,24,110,110,90,90,6,12,14,13,0.4,0.5
2026-04-17T1200,3286A,118.9359,42.3146,赤峰市,桥北物流园区,,30,NA,26,10,23,94,94,54,54,6,20,5,4,0.4,0.8
2026-04-17T1200,2521A,107.3473,22.4137,崇左市,市环保局江州分局,,27,23,62,15,47,85,85,53,53,8,11,1,2,0.7,0.8
2026-04-17T1200,4256A,107.375,22.3736,崇左市,石景林东路7号,,28,22,53,13,44,89,89,53,53,9,13,2,3,1.0,0.9
2026-04-17T1200,3207A,118.31131,32.3033,滁州市,市政府原办公楼,,40,33,36,28,42,111,111,66,66,6,15,5,4,0.4,0.5
2026-04-17T1200,3331A,118.3268,32.2633,滁州市,图书馆,颗粒物(PM10),65,70,57,17,32,116,116,71,71,6,14,9,9,0.4,0.4
2026-04-17T1200,4101A,118.3196,32.3335,滁州市,银山路666号,,39,39,55,20,37,117,117,67,67,7,18,8,7,0.2,0.3
2026-04-17T1200,4102A,118.3426,32.2979,滁州市,黄山路555号,,45,45,66,23,39,114,114,62,62,3,17,6,6,0.5,0.6
2026-04-17T1200,2606A,101.5379,25.0492,楚雄彝族自治州,市经济开发区,,46,46,45,29,29,135,135,82,82,9,13,4,3,0.5,0.5
2026-04-17T1200,4153A,101.5536,25.0343,楚雄彝族自治州,团结路562号,,47,47,39,26,26,140,140,80,76,8,10,5,6,0.4,0.4
2026-04-17T1200,2549A,107.5087,31.2186,达州市,市环境监测站,颗粒物(PM10),61,65,42,26,12,71,71,23,23,23,28,9,6,0.3,0.3
2026-04-17T1200,2550A,107.4988,31.2132,达州市,凤凰小区,NA,NA,68,46,24,15,70,70,26,26,18,31,9,6,NA,0.4
2026-04-17T1200,2551A,107.5081,31.1987,达州市,达县机关宾馆,颗粒物(PM10),72,80,50,19,19,78,78,26,26,25,34,9,6,0.3,0.4
2026-04-17T1200,2552A,107.4644,31.2124,达州市,市政中心,颗粒物(PM10),60,64,47,23,14,80,80,25,25,16,32,8,5,0.3,0.5
2026-04-17T1200,2614A,100.2168,25.5818,大理白族自治州,大理市环境监测站,,35,29,35,24,26,103,103,90,86,11,12,4,4,0.3,0.3
2026-04-17T1200,2615A,100.1542,25.7055,大理白族自治州,大理古城,,38,31,34,25,24,119,119,86,86,7,10,4,3,0.4,0.4
2026-04-17T1200,1109A,121.6119,38.974,大连市,甘井子,,43,33,64,22,36,136,136,110,110,9,20,8,9,0.5,0.6
2026-04-17T1200,1110A,121.565,38.9509,大连市,周水子,颗粒物(PM10),54,55,73,31,42,118,118,94,94,13,28,9,7,0.6,0.6
2026-04-17T1200,1111A,121.5637,38.8849,大连市,星海三站,细颗粒物(PM2.5),106,68,69,66,49,95,95,84,83,14,24,5,5,0.5,0.5
2026-04-17T1200,1112A,121.6301,38.9117,大连市,青泥洼桥,,50,50,71,35,44,118,118,105,105,10,20,5,5,0.7,0.7
2026-04-17T1200,1113A,121.6248,38.8643,大连市,傅家庄,细颗粒物(PM2.5),64,60,61,42,34,92,92,97,90,10,15,8,8,0.6,0.5
2026-04-17T1200,1114A,121.5117,38.8636,大连市,七贤岭,颗粒物(PM10),53,53,63,34,33,112,112,100,100,12,21,6,7,0.5,0.5
2026-04-17T1200,1116A,121.7507,39.1339,大连市,金州,,41,31,60,25,34,129,129,126,126,11,17,6,5,0.5,0.6
2026-04-17T1200,1117A,121.7811,39.0495,大连市,开发区,颗粒物(PM10),53,53,74,23,39,115,115,88,88,14,30,9,9,0.5,0.6
2026-04-17T1200,1118A,121.9762,39.0631,大连市,双D港,NA,NA,NA,59,33,44,109,109,72,72,13,18,6,6,0.8,0.8
2026-04-17T1200,4082A,121.2548,38.8188,大连市,旅顺,细颗粒物(PM2.5),60,60,62,40,38,87,87,98,93,17,18,6,6,0.5,0.4
2026-04-17T1200,1789A,124.8085,46.0381,大庆市,大同区,,44,44,52,26,30,92,92,60,60,14,23,8,4,0.6,0.5
2026-04-17T1200,1790A,125.1166,46.5255,大庆市,龙凤区,,41,41,53,20,29,77,77,52,52,12,18,12,6,0.3,0.3
2026-04-17T1200,1791A,124.8894,46.4007,大庆市,红岗区,,36,36,43,21,25,90,90,56,56,4,14,12,7,0.2,0.3
2026-04-17T1200,1792A,125.1391,46.578,大庆市,萨尔图区,NA,NA,67,54,33,23,96,96,58,58,9,20,NA,8,0.6,0.6
2026-04-17T1200,1793A,124.9026,46.6217,大庆市,让胡路区,,46,46,48,17,26,89,89,52,52,8,18,11,9,0.5,0.5
2026-04-17T1200,3481A,125.127,46.6277,大庆市,萨区政府监测点,,41,41,46,19,19,92,92,57,57,5,13,12,10,0.4,0.4
2026-04-17T1200,1723A,113.2926,40.0759,大同市,云冈宾馆,颗粒物(PM10),78,88,58,22,23,86,86,35,35,26,32,15,9,0.3,0.4
2026-04-17T1200,1724A,113.3437,40.0921,大同市,大同大学,颗粒物(PM10),77,87,64,22,23,93,93,47,47,25,31,10,5,0.5,0.6
2026-04-17T1200,1725A,113.2637,40.129,大同市,安家小村,颗粒物(PM10),86,100,69,30,23,90,90,40,40,25,29,13,7,0.4,0.9
2026-04-17T1200,3282A,113.3399,40.0586,大同市,大同市卫生学校,NA,NA,82,70,NA,36,93,93,43,43,25,33,13,8,0.5,0.6
2026-04-17T1200,3565A,113.1371,40.1122,大同市,云冈站,颗粒物(PM10),58,60,64,16,21,102,102,56,56,8,29,5,5,0.3,0.4
2026-04-17T1200,3566A,113.1186,40.2556,大同市,图书馆,颗粒物(PM10),73,82,56,17,16,104,104,57,57,8,11,6,5,0.4,0.5
2026-04-17T1200,3567A,113.5931,40.0459,大同市,区一中,颗粒物(PM10),81,93,53,19,23,103,103,62,62,17,15,11,9,0.7,0.8
2026-04-17T1200,4199A,113.2798248,40.09972476,大同市,魏都大道141号,颗粒物(PM10),90,106,73,17,23,87,87,36,36,24,29,17,11,0.7,0.8
2026-04-17T1200,2269A,124.1068,50.4091,大兴安岭地区,科技局,,27,17,20,3,6,84,84,60,60,1,3,7,8,0.3,0.2
2026-04-17T1200,3663A,124.117,50.4279,大兴安岭地区,红旗社区,,29,9,16,6,8,92,92,56,56,4,9,7,9,0.1,0.1
2026-04-17T1200,1600A,124.33,40.0625,丹东市,江湾东路,颗粒物(PM10),52,52,64,29,35,110,110,88,88,12,16,6,10,0.4,0.5
2026-04-17T1200,1601A,124.4242,40.1513,丹东市,临江后街,颗粒物(PM10),66,72,66,42,38,108,108,92,92,13,12,12,11,0.7,0.7
2026-04-17T1200,1602A,124.3935,40.1461,丹东市,元宝山,"颗粒物(PM10),细颗粒物(PM2.5)",66,72,64,43,37,99,99,88,87,20,15,14,10,1.0,0.7
2026-04-17T1200,1603A,124.3634,40.1093,丹东市,民主桥,颗粒物(PM10),60,64,67,34,37,111,111,94,94,16,16,10,8,0.5,0.3
2026-04-17T1200,3541A,109.5726195,19.51688767,儋州市,第一中学子站,,36,34,44,25,27,84,84,58,58,3,6,5,5,0.7,0.6
2026-04-17T1200,3542A,109.5567,19.5187,儋州市,东坡学校子站,,39,39,44,19,27,87,87,61,61,4,7,2,5,0.5,0.5
2026-04-17T1200,2616A,98.5611,24.4273,德宏傣族景颇族自治州,德宏州监测站,NA,NA,66,60,50,54,108,108,50,50,15,19,NA,7,0.5,0.4
2026-04-17T1200,3677A,98.5887,24.4366,德宏傣族景颇族自治州,芒市人民政府综合楼,细颗粒物(PM2.5),92,85,83,56,50,97,97,57,55,19,16,4,4,0.7,0.6
2026-04-17T1200,1901A,104.424,31.1209,德阳市,东山公园,,45,34,26,31,20,78,78,48,48,17,12,5,4,0.5,0.4
2026-04-17T1200,1902A,104.3827,31.1318,德阳市,西小区,,44,44,41,30,21,67,67,40,40,29,21,4,4,0.6,0.4
2026-04-17T1200,1904A,104.3553,31.1091,德阳市,耐火材料厂,,43,43,39,25,22,88,88,41,41,22,20,3,2,0.4,0.3
2026-04-17T1200,4145A,104.4144,31.1495,德阳市,市林业局,,45,45,32,31,22,88,88,40,40,16,16,4,3,0.3,0.3
2026-04-17T1200,1622A,116.3034,37.4675,德州市,儿童乐园,细颗粒物(PM2.5),113,92,79,74,53,126,126,64,64,9,31,8,9,0.8,0.8
2026-04-17T1200,1624A,116.2992,37.4449,德州市,监理站,细颗粒物(PM2.5),110,90,77,70,46,128,128,72,72,13,30,10,12,0.7,0.7
2026-04-17T1200,3066A,116.2722,37.438,德州市,九衢泉纯净水厂,NA,NA,NA,73,NA,46,114,114,34,34,12,41,NA,7,0.9,0.8
2026-04-17T1200,3371A,116.3693,37.44,德州市,开发区人民医院,细颗粒物(PM2.5),111,95,77,72,50,120,120,56,56,14,33,12,11,0.7,0.6
2026-04-17T1200,3511A,116.5687,37.3331,德州市,陵城艺术中心,细颗粒物(PM2.5),115,80,63,76,48,127,127,63,63,10,16,12,8,0.9,0.8
2026-04-17T1200,4292A,116.352738,37.420875,德州市,新河东路,细颗粒物(PM2.5),105,92,69,65,42,116,116,52,52,10,28,10,9,0.8,0.9
2026-04-17T1200,2621A,99.7054,27.8319,迪庆藏族自治州,迪庆州站,,30,22,19,7,9,94,94,81,76,11,10,8,8,0.4,0.4
2026-04-17T1200,3180A,99.7122,27.8129,迪庆藏族自治州,质量技术监督局,,32,21,16,6,8,102,102,NA,NA,13,13,8,8,0.4,0.4
2026-04-17T1200,4257A,104.6092,35.5962,定西市,将台街,,35,32,53,3,22,111,111,53,53,7,21,6,6,0.0,0.1
2026-04-17T1200,4309A,104.6159,35.5701,定西市,正龙路62号,,43,43,56,7,20,114,114,60,60,6,12,3,4,0.2,0.3
2026-04-17T1200,4071A,114.9883,38.5232,定州市,交通局,细颗粒物(PM2.5),121,126,70,83,63,97,97,56,56,14,18,7,6,0.6,0.5
2026-04-17T1200,4072A,115.0045,38.5136,定州市,第五中学,细颗粒物(PM2.5),119,122,72,80,54,93,93,59,59,14,19,NA,2,0.6,0.4
2026-04-17T1200,1390A,113.7943,23.0132,东莞市,东城石井,,37,37,20,25,12,89,89,63,63,32,19,5,5,0.8,0.5
2026-04-17T1200,1391A,113.7384,22.9659,东莞市,南城西平,,40,40,23,25,11,81,81,60,60,37,16,9,5,0.8,0.6
2026-04-17T1200,3319A,113.7283,23.041,东莞市,万江金泰,,44,44,22,26,12,78,78,72,72,37,16,7,6,1.0,0.6
2026-04-17T1200,4129A,113.8666,23.1062,东莞市,裕兴路,,30,27,25,15,11,93,93,64,64,18,21,6,6,0.9,0.7
2026-04-17T1200,4130A,114.0076,22.9739,东莞市,教育路1号,,45,45,33,23,15,125,125,62,62,32,32,7,7,0.7,0.6
2026-04-17T1200,4131A,113.7981,22.8124,东莞市,长怡路1号,,46,46,25,26,12,102,102,65,65,24,16,6,6,0.8,0.6
2026-04-17T1200,1666A,118.6612,37.4313,东营市,市环保局,颗粒物(PM10),55,56,60,34,38,155,155,93,93,14,16,11,11,0.4,0.4
2026-04-17T1200,3036A,118.6903,37.4337,东营市,开发区管委会,细颗粒物(PM2.5),78,61,58,49,47,157,157,99,99,20,22,8,9,0.7,0.7
2026-04-17T1200,3365A,118.5721,37.5654,东营市,垦利区民丰路,细颗粒物(PM2.5),80,51,52,50,40,183,183,116,116,16,20,10,8,0.8,0.8
2026-04-17T1200,3498A,118.5063,37.8606,东营市,河口城区,NA,NA,NA,60,42,33,149,149,103,103,8,11,13,11,0.9,0.8
2026-04-17T1200,3646A,118.4979,37.4623,东营市,胜利站,颗粒物(PM10),85,98,69,42,41,142,142,86,86,12,19,11,10,0.7,0.7
2026-04-17T1200,3734A,118.5753,37.4405,东营市,理想之城,细颗粒物(PM2.5),70,58,68,45,49,148,148,82,82,20,24,9,8,0.6,0.6
2026-04-17T1200,1591A,110.0024,39.8127,鄂尔多斯市,综合楼,颗粒物(PM10),78,88,79,31,20,111,111,74,74,8,16,8,7,0.3,0.3
2026-04-17T1200,1592A,109.9485,39.8259,鄂尔多斯市,巴音孟克林场办事处,颗粒物(PM10),74,83,67,18,14,117,117,96,96,6,9,5,6,0.3,0.3
2026-04-17T1200,1593A,109.7734,39.5987,鄂尔多斯市,康泽苑,颗粒物(PM10),58,61,62,14,15,116,116,74,74,6,10,8,8,0.2,0.3
2026-04-17T1200,1594A,109.8121,39.5987,鄂尔多斯市,华泰汽车城,颗粒物(PM10),62,66,68,11,16,111,111,56,56,6,15,7,6,0.2,0.3
2026-04-17T1200,1595A,109.9734,39.7884,鄂尔多斯市,奥林花园,颗粒物(PM10),65,70,75,9,14,113,113,57,57,8,29,3,7,0.2,0.3
2026-04-17T1200,2436A,114.894,30.3989,鄂州市,市政府,颗粒物(PM10),55,56,59,31,29,94,94,44,44,12,22,8,13,0.7,1
2026-04-17T1200,2437A,114.8986,30.3714,鄂州市,赵家坝,颗粒物(PM10),70,77,53,38,23,97,97,53,53,10,12,7,8,0.9,0.7
2026-04-17T1200,3654A,114.8093,30.4091,鄂州市,精准医疗中心,细颗粒物(PM2.5),68,66,39,44,22,88,88,46,46,15,16,4,4,1.0,0.7
2026-04-17T1200,2454A,109.4978,30.2979,恩施土家族苗族自治州,湖北民院,,30,30,25,10,15,21,21,16,15,16,12,8,7,0.4,0.3
2026-04-17T1200,3549A,109.5061,30.3771,恩施土家族苗族自治州,龙凤新区,,26,26,19,9,10,16,16,11,11,26,10,6,7,0.5,0.4
2026-04-17T1200,2499A,108.3411,21.6159,防城港市,沙万,,42,42,44,26,20,24,24,26,23,21,16,6,6,0.7,0.6
2026-04-17T1200,2500A,108.3515,21.7733,防城港市,防城档案局,细颗粒物(PM2.5),52,46,49,36,24,28,28,24,20,11,9,8,8,0.5,0.5
2026-04-17T1200,2501A,108.3506,21.6414,防城港市,大海花园,细颗粒物(PM2.5),56,56,37,38,25,25,25,31,25,21,11,9,11,0.7,0.6
2026-04-17T1200,1371A,113.1293,23.0065,佛山市,湾梁,,29,NA,22,16,14,92,92,73,73,17,14,/,/,/,/
2026-04-17T1200,1372A,113.1082,23.0477,佛山市,华材职中,,31,NA,21,10,14,98,98,68,68,16,17,3,4,0.5,0.3
2026-04-17T1200,1373A,113.1439,23.045,佛山市,南海气象局,,30,14,23,12,14,93,93,68,68,16,17,/,/,/,/
2026-04-17T1200,1374A,113.2879,22.8094,佛山市,顺德苏岗,,28,18,23,17,13,87,87,52,52,27,14,/,/,0.6,0.5
2026-04-17T1200,1376A,112.8384,22.8678,佛山市,高明孔堂,,43,30,22,30,14,93,93,42,42,21,12,/,/,/,/
2026-04-17T1200,1377A,112.8835,23.1584,佛山市,三水监测站,,31,NA,21,18,17,97,97,68,68,17,26,3,4,0.5,0.4
2026-04-17T1200,1378A,112.8668,23.185,佛山市,三水云东海,,30,22,40,15,15,94,94,64,64,18,22,/,/,/,/
2026-04-17T1200,3625A,113.2568,22.7629,佛山市,容桂街道办,,31,27,20,18,14,97,97,46,46,24,17,/,/,/,/
2026-04-17T1200,1282A,119.2681,26.0506,福州市,师大,,38,38,28,15,25,77,77,39,39,19,25,4,3,0.8,0.7
2026-04-17T1200,1283A,119.2983,26.1028,福州市,五四北路,,43,43,25,19,30,70,70,42,42,24,26,4,4,0.7,0.6
2026-04-17T1200,1284A,119.2648,26.0769,福州市,杨桥西路,,37,37,27,13,23,73,73,40,40,16,23,4,4,/,/
2026-04-17T1200,3048A,119.5799,26.0937,福州市,九龙,,26,NA,26,14,23,81,81,32,32,12,20,5,5,0.7,0.6
2026-04-17T1200,3526A,119.5188,25.9666,福州市,吴航,,43,40,33,30,23,50,50,35,35,22,22,5,5,0.8,0.7
2026-04-17T1200,4104A,119.3106,26.0648,福州市,路通桥巷6号,,27,27,36,18,26,70,70,40,40,19,24,/,/,/,/
2026-04-17T1200,1755A,123.7974,41.8494,抚顺市,望花区,,43,36,76,10,36,136,136,108,108,9,23,10,11,0.5,0.7
2026-04-17T1200,1756A,123.9161,41.8827,抚顺市,顺城区,NA,NA,22,64,10,35,NA,NA,92,92,9,25,11,12,0.6,0.8
2026-04-17T1200,1757A,124.0437,41.8615,抚顺市,东洲区,,42,23,80,10,44,132,132,103,103,9,23,8,11,0.5,0.7
2026-04-17T1200,1758A,123.9246,41.8638,抚顺市,新抚区,,42,34,71,13,38,133,133,102,102,9,19,8,10,0.6,0.7
2026-04-17T1200,1759A,124.0972,41.8961,抚顺市,大伙房水库,,45,31,62,10,34,141,141,110,110,8,15,9,10,0.5,0.6
2026-04-17T1200,1760A,123.708,41.8386,抚顺市,沈抚新城,,40,34,73,11,36,128,128,100,100,13,29,9,12,0.6,0.7
2026-04-17T1200,2377A,116.3544,27.9833,抚州市,市站,细颗粒物(PM2.5),52,39,29,36,24,77,77,59,59,8,11,13,9,1.1,1.2
2026-04-17T1200,2378A,116.3562,27.9631,抚州市,血防站,,43,41,33,30,24,72,72,56,56,8,11,11,10,0.9,0.9
2026-04-17T1200,2379A,116.3561,28.0007,抚州市,采茶剧团,,46,38,32,32,20,74,74,54,54,6,9,18,14,1.0,1
2026-04-17T1200,2380A,116.3854,27.9648,抚州市,医学分院,,38,38,42,23,16,77,77,60,60,6,9,6,8,1.0,1.1
2026-04-17T1200,2207A,121.6095,41.9978,阜新市,工业园区,,50,NA,48,35,41,119,119,103,103,10,18,4,6,0.6,0.7
2026-04-17T1200,2208A,121.6567,42.0188,阜新市,长青街,细颗粒物(PM2.5),52,42,52,36,43,116,116,105,105,13,18,9,9,0.6,0.7
2026-04-17T1200,2209A,121.6672,42.07,阜新市,农业园区,,50,45,61,35,38,118,118,107,107,13,17,4,6,0.6,0.7
2026-04-17T1200,2211A,121.6343,42.0455,阜新市,玉龙新城,,45,NA,48,31,34,118,118,100,100,12,18,9,8,0.6,0.6
2026-04-17T1200,2301A,115.8276,32.8929,阜阳市,市监测站,,49,49,79,32,56,136,136,71,71,12,23,6,6,0.4,0.7
2026-04-17T1200,2303A,115.8551,32.8606,阜阳市,开发区,NA,NA,61,95,32,62,125,125,59,59,NA,17,8,6,0.5,0.7
2026-04-17T1200,2875A,115.783962,32.889217,阜阳市,阜阳职业技术学院,,41,32,70,21,50,130,130,75,75,4,13,7,7,0.4,0.6
2026-04-17T1200,3468A,115.79,32.8614,阜阳市,市规划展馆,颗粒物(PM10),58,60,88,27,67,125,125,62,62,8,19,8,9,0.4,0.7
2026-04-17T1200,3469A,115.835101,32.918568,阜阳市,枣园社区,,42,36,89,29,67,133,133,65,65,9,22,7,8,0.4,0.7
2026-04-17T1200,2669A,102.9097,34.9841,甘南藏族自治州,州政府,,37,24,58,3,24,118,118,46,46,5,18,1,2,0.2,0.3
2026-04-17T1200,3380A,102.8915,34.9618,甘南藏族自治州,甘肃民族师范学院,,38,11,71,3,23,120,120,51,51,7,27,1,2,0.1,0.2
2026-04-17T1200,2570A,101.96,30.048,甘孜藏族自治州,水桥子,,26,15,11,3,3,81,81,59,52,5,10,5,6,0.2,0.2
2026-04-17T1200,3065A,101.9534,29.9976,甘孜藏族自治州,州环保局,,29,23,14,3,4,92,92,61,61,10,14,4,4,0.1,0.2
2026-04-17T1200,2363A,114.9368,25.8663,赣州市,地委,,22,22,27,12,15,66,66,50,45,7,11,2,2,1.1,1.1
2026-04-17T1200,2364A,114.946,25.8483,赣州市,气象台,,22,19,31,15,20,66,66,52,48,9,12,5,5,0.9,1
2026-04-17T1200,2365A,114.932,25.8332,赣州市,市图书馆,,25,20,25,10,17,77,77,65,62,6,11,3,4,0.9,0.9
2026-04-17T1200,2366A,114.8905,25.8472,赣州市,华坚鞋城,,24,24,28,10,17,64,64,57,51,12,13,6,6,1.0,1
2026-04-17T1200,3109A,115.0094,25.8614,赣州市,赣县区卫计委,NA,NA,45,30,3,18,63,63,45,45,NA,14,5,4,NA,1
2026-04-17T1200,2684A,106.2753,36.0057,固原市,监测站,,36,16,37,3,13,114,114,80,80,6,14,7,7,0.3,0.4
2026-04-17T1200,2685A,106.2384,36.0189,固原市,新区,,39,39,42,9,15,111,111,71,71,8,20,5,5,0.4,0.5
2026-04-17T1200,2544A,106.6307,30.4577,广安市,市委,,38,38,42,18,23,100,100,68,68,8,13,8,7,0.3,0.4
2026-04-17T1200,2545A,106.6266,30.4662,广安市,友谊中学,,37,37,38,20,20,97,97,65,65,6,12,9,7,0.3,0.4
2026-04-17T1200,2547A,106.6386,30.4551,广安市,广电花园,颗粒物(PM10),65,70,53,24,24,93,93,59,59,10,17,7,6,0.3,0.4
2026-04-17T1200,2902A,106.6347,30.4868,广安市,北辰小学,,47,47,44,25,23,94,94,67,67,10,13,12,8,0.3,0.4
2026-04-17T1200,2524A,105.8211,32.4444,广元市,老城,颗粒物(PM10),58,61,69,25,26,68,68,34,34,18,24,8,6,0.5,0.4
2026-04-17T1200,2526A,105.8629,32.429,广元市,监测站,,48,48,64,30,23,69,69,43,40,20,14,3,3,0.4,0.3
2026-04-17T1200,3617A,105.8047,32.4167,广元市,经开区,颗粒物(PM10),51,51,68,24,26,66,66,30,30,19,21,11,6,0.4,0.3
2026-04-17T1200,1345A,113.2346,23.1423,广州市,广雅中学,,24,23,28,12,14,76,76,65,65,30,22,1,2,0.5,0.5
2026-04-17T1200,1346A,113.2611,23.105,广州市,市五中,,28,21,25,17,18,87,87,81,81,24,20,2,3,/,/
2026-04-17T1200,1348A,113.3477,23.0916,广州市,广东商学院,,28,28,26,15,15,77,77,61,61,24,26,4,5,0.9,0.7
2026-04-17T1200,1349A,113.4332,23.105,广州市,市八十六中,,30,28,23,21,13,74,74,48,48,28,35,6,6,/,/
2026-04-17T1200,1350A,113.3506,22.9488,广州市,番禺中学,,29,29,26,9,17,84,84,68,68,31,22,4,4,0.7,0.6
2026-04-17T1200,1351A,113.2147,23.3918,广州市,花都师范,,29,20,28,13,17,92,92,65,65,21,28,5,6,0.9,0.8
2026-04-17T1200,1352A,113.2599,23.1329,广州市,市监测站,,25,22,28,15,16,78,78,64,64,18,16,2,3,/,/
2026-04-17T1200,1353A,113.5618,23.3119,广州市,九龙镇镇龙,,31,31,29,18,15,73,73,57,57,23,29,5,6,0.6,0.5
2026-04-17T1200,1354A,113.2764,23.1544,广州市,麓湖,,25,25,27,14,15,76,76,62,62,20,19,4,4,0.7,0.6
2026-04-17T1200,2846A,113.3209,23.1323,广州市,体育西,,27,27,28,16,15,72,72,64,64,30,26,4,5,0.7,0.6
2026-04-17T1200,3298A,113.5718,23.5493,广州市,从化街口,,30,14,24,9,15,95,95,87,87,12,18,7,7,0.7,0.6
2026-04-17T1200,3299A,113.3463,23.369,广州市,白云竹料,,35,35,32,19,16,77,77,68,68,30,25,2,3,0.8,0.6
2026-04-17T1200,3300A,113.2981,23.2365,广州市,白云嘉禾,,27,22,30,13,16,84,84,66,66,26,28,4,5,/,/
2026-04-17T1200,3301A,113.4256,23.1716,广州市,黄埔科学城,,32,32,31,20,16,76,76,55,55,20,25,3,4,0.8,0.6
2026-04-17T1200,3302A,113.3942,23.0485,广州市,番禺大学城,,27,26,24,17,13,86,86,71,71,26,22,3,3,0.7,0.6
2026-04-17T1200,3303A,113.4923,22.8169,广州市,南沙黄阁,,38,33,23,26,13,93,93,60,60,35,19,6,6,/,/
2026-04-17T1200,3304A,113.534,22.7893,广州市,南沙街,,42,42,23,23,13,79,79,55,55,35,19,6,5,0.5,0.3
2026-04-17T1200,3443A,113.2905,23.5541,广州市,花都梯面,,21,12,22,7,13,66,66,76,76,12,21,7,8,/,/
2026-04-17T1200,3445A,113.786,23.7479,广州市,从化良口,NA,NA,NA,23,NA,15,98,98,87,87,10,16,4,4,/,/
2026-04-17T1200,3446A,113.805,23.2614,广州市,增城荔城,,27,19,23,12,14,85,85,56,56,12,18,5,6,0.6,0.4
2026-04-17T1200,2506A,109.604387,23.066791,贵港市,江南子站,,36,36,44,13,24,65,65,69,69,26,17,8,10,0.8,0.7
2026-04-17T1200,2508A,109.5669,23.1065,贵港市,荷城子站,,24,7,34,7,23,75,75,71,71,15,15,8,12,0.9,0.8
2026-04-17T1200,3405A,109.5886,23.1172,贵港市,新世纪学校,,25,7,34,3,23,78,78,73,73,20,18,/,/,0.6,0.6
2026-04-17T1200,4260A,109.5933,23.095,贵港市,中山路155-3号,,23,11,39,7,21,72,72,74,74,19,14,/,/,1.1,0.9
2026-04-17T1200,1439A,106.6863,26.6035,贵阳市,马鞍山,,22,22,22,14,16,56,56,54,54,9,10,2,3,/,/
2026-04-17T1200,1441A,106.6241,26.6266,贵阳市,鉴湖路,,34,34,34,13,15,83,83,77,77,7,10,6,6,0.7,0.7
2026-04-17T1200,1442A,106.7468,26.6344,贵阳市,燕子冲,,24,24,31,15,16,61,61,60,60,10,9,6,5,0.9,0.8
2026-04-17T1200,1443A,106.6556,26.4362,贵阳市,碧云窝,NA,NA,46,37,18,16,74,74,71,71,14,11,NA,4,/,/
2026-04-17T1200,1445A,106.6963,26.6063,贵阳市,红边门,NA,NA,NA,30,15,16,69,69,70,70,15,13,10,7,/,/
2026-04-17T1200,1446A,106.7162383,26.56964667,贵阳市,新华路,,34,34,31,10,15,60,60,56,56,16,13,1,1,0.5,0.4
2026-04-17T1200,1447A,106.6742,26.542,贵阳市,太慈桥,,29,29,26,15,15,65,65,60,60,11,12,5,4,/,/
2026-04-17T1200,4230A,106.688212,26.56952,贵阳市,花果园大街66号,,26,NA,15,18,15,71,71,72,72,11,11,3,3,/,/
2026-04-17T1200,4231A,106.687268,26.516892,贵阳市,漓江路57号,,24,24,17,16,15,60,60,57,57,12,11,5,5,1.1,1
2026-04-17T1200,1864A,110.3091,25.2705,桂林市,龙隐路小学,,33,33,17,17,11,59,59,53,53,10,11,13,4,0.6,0.6
2026-04-17T1200,1865A,110.2849361,25.22909545,桂林市,八中,,35,35,19,10,7,49,49,44,44,15,16,10,4,0.9,0.8
2026-04-17T1200,3531A,110.296,25.1254,桂林市,旅游学院,,33,33,26,18,14,57,57,45,45,10,15,9,6,0.8,0.8
2026-04-17T1200,4222A,110.1835,25.2444,桂林市,环湖路276号,,20,14,15,14,11,61,61,61,61,5,11,4,6,0.6,0.6
2026-04-17T1200,4301A,110.2803,25.2773,桂林市,信义路13号,,29,29,20,18,10,60,60,59,57,10,14,7,5,0.8,0.8
2026-04-17T1200,2674A,100.2262,34.4854,果洛藏族自治州,玛沁县大武镇,,35,26,35,7,14,110,110,80,80,5,3,26,20,0.5,0.4
2026-04-17T1200,1130A,126.5557,45.8109,哈尔滨市,松北商大,NA,NA,NA,53,31,35,67,67,42,42,NA,22,18,13,NA,0.5
2026-04-17T1200,1132A,126.6162,45.719,哈尔滨市,南岗学府路,,48,48,62,26,34,82,82,48,48,15,26,5,5,0.5,0.4
2026-04-17T1200,1133A,126.6894,45.7733,哈尔滨市,太平宏伟公园,,42,29,51,29,30,74,74,46,46,15,27,8,7,0.4,0.4
2026-04-17T1200,1134A,126.6361,45.7672,哈尔滨市,道外承德广场,颗粒物(PM10),55,57,73,28,27,58,58,35,35,23,29,13,10,0.6,0.6
2026-04-17T1200,1136A,126.644,45.7261,哈尔滨市,动力和平路,,42,33,53,29,29,70,70,43,43,19,27,12,8,0.6,0.5
2026-04-17T1200,1137A,126.5933,45.7479,哈尔滨市,道里建国路,,36,32,47,25,28,66,66,44,44,24,35,6,4,0.6,0.5
2026-04-17T1200,1138A,126.6127,45.6119,哈尔滨市,平房东轻厂,NA,NA,39,48,27,28,NA,NA,54,54,11,23,20,14,0.6,0.6
2026-04-17T1200,1139A,126.5875,45.9827,哈尔滨市,呼兰师专,NA,NA,NA,NA,NA,NA,NA,NA,NA,NA,NA,NA,NA,NA,NA,NA
2026-04-17T1200,1140A,126.6299,45.6799,哈尔滨市,省农科院,细颗粒物(PM2.5),88,63,79,54,37,55,55,25,25,22,30,12,9,0.3,0.2
2026-04-17T1200,4282A,126.6769,45.7379,哈尔滨市,华山路1号,,40,29,48,28,32,75,75,47,47,11,23,14,11,0.1,0.2
2026-04-17T1200,4283A,126.9717,45.5356,哈尔滨市,解放大街52号,颗粒物(PM10),59,62,75,36,50,64,64,56,56,12,16,10,9,0.6,0.6
2026-04-17T1200,2688A,93.5124,42.8176,哈密市,地区监测站,颗粒物(PM10),65,71,88,28,43,94,94,80,77,10,16,15,11,0.3,0.2
2026-04-17T1200,2689A,93.5014,42.8312,哈密市,哈密师范学校,颗粒物(PM10),76,86,100,10,27,96,96,66,66,12,22,8,8,0.2,0.2
2026-04-17T1200,2671A,100.9016,36.9464,海北藏族自治州,海晏县西海镇,,37,14,27,7,10,117,117,67,67,1,3,10,8,0.4,0.4
2026-04-17T1200,3867A,102.074,36.5056,海东市,平安区公安局北苑,,37,35,35,10,16,116,116,58,58,8,12,14,8,0.6,0.6
2026-04-17T1200,4163A,102.0984,36.5119,海东市,滨河路,,30,20,28,6,17,94,94,43,43,12,25,11,6,0.8,0.7
2026-04-17T1200,1410A,110.3189,20.0596,海口市,海南大学,,32,NA,11,22,16,73,73,48,48,6,5,6,5,0.4,0.3
2026-04-17T1200,1411A,110.2827,20.0051,海口市,秀英海南医院,,32,24,22,22,16,69,69,36,36,7,15,8,7,0.3,0.3
2026-04-17T1200,1412A,110.3391,19.9979,海口市,海南师范大学,,30,27,24,21,15,74,74,46,46,4,5,6,6,0.4,0.4
2026-04-17T1200,1413A,110.3303,20.0359,海口市,龙华路环保局宿舍,,32,28,24,22,16,76,76,49,49,7,6,/,/,0.6,0.6
2026-04-17T1200,3539A,110.5111,19.9737,海口市,桂林洋子站,,29,29,23,16,13,65,65,44,44,5,6,/,/,/,/
2026-04-17T1200,4134A,110.1952,20.0451,海口市,长滨二路9号,,35,34,25,24,16,73,73,45,45,6,7,/,/,/,/
2026-04-17T1200,2673A,100.6158,36.2985,海南藏族自治州,共和县恰卜恰镇,细颗粒物(PM2.5),54,NA,37,37,20,125,125,86,86,1,9,8,8,0.4,0.3
2026-04-17T1200,2676A,97.373,37.376,海西蒙古族藏族自治州,德令哈市,,46,28,19,7,8,145,145,130,130,2,3,14,15,0.3,0.3
2026-04-17T1200,1049A,114.492,36.5712,邯郸市,矿院,细颗粒物(PM2.5),108,88,76,68,63,93,93,37,37,10,15,7,3,0.9,0.5
2026-04-17T1200,1050A,114.4839,36.6136,邯郸市,丛台公园,细颗粒物(PM2.5),72,69,85,46,75,108,108,46,46,12,14,6,4,0.8,0.6
2026-04-17T1200,3458A,114.7893,36.5592,邯郸市,香泉濮院小区,细颗粒物(PM2.5),144,122,76,108,71,97,97,NA,NA,12,15,1,2,0.8,0.6
2026-04-17T1200,3580A,114.1998,36.4439,邯郸市,峰峰矿区临水派出所,"颗粒物(PM10),细颗粒物(PM2.5)",70,77,74,45,78,103,103,54,54,17,15,8,4,1.0,0.6
2026-04-17T1200,4068A,114.5209,36.7697,邯郸市,建安街268号,细颗粒物(PM2.5),102,84,66,62,66,97,97,39,39,13,22,2,2,0.9,0.5
2026-04-17T1200,4069A,114.5488,36.6177,邯郸市,丛台东路558号,细颗粒物(PM2.5),130,108,82,93,70,99,99,39,39,15,14,6,2,1.0,0.6
2026-04-17T1200,2635A,107.0155,33.0707,汉中市,市监测站,颗粒物(PM10),76,86,71,34,31,90,90,63,63,11,15,6,6,0.4,0.4
2026-04-17T1200,2636A,107.0083,33.114,汉中市,鑫源开发区,NA,NA,86,69,28,30,89,89,62,62,NA,16,4,6,0.3,0.3
2026-04-17T1200,2637A,107.0072,33.0323,汉中市,南郑大河坎水厂,颗粒物(PM10),73,82,59,26,26,89,89,48,48,10,12,5,4,0.5,0.3
2026-04-17T1200,1223A,120.2073,30.2111,杭州市,滨江,颗粒物(PM10),53,54,65,35,41,80,80,42,42,19,30,7,7,0.8,0.7
2026-04-17T1200,1224A,120.0625,30.2737,杭州市,西溪,细颗粒物(PM2.5),58,NA,50,39,41,71,71,35,35,18,28,4,4,1.0,0.9
2026-04-17T1200,1226A,120.3417,30.315,杭州市,下沙,颗粒物(PM10),65,71,89,38,42,94,94,44,44,9,27,7,7,0.8,0.7
2026-04-17T1200,1227A,120.1252,30.2465,杭州市,卧龙桥,,45,35,50,31,40,86,86,45,45,21,30,8,8,0.7,0.6
2026-04-17T1200,1228A,120.1902,30.2691,杭州市,浙江农大,细颗粒物(PM2.5),58,NA,39,39,42,82,82,41,41,26,40,7,7,0.7,0.6
2026-04-17T1200,1230A,120.1195,30.3121,杭州市,和睦小学,细颗粒物(PM2.5),54,NA,43,37,45,88,88,45,45,17,32,6,6,0.7,0.7
2026-04-17T1200,1231A,120.3076,30.4146,杭州市,临平镇,细颗粒物(PM2.5),62,58,58,41,40,91,91,49,49,17,24,6,6,0.6,0.5
2026-04-17T1200,1232A,120.2753,30.1839,杭州市,城厢镇,细颗粒物(PM2.5),52,36,46,36,43,84,84,39,39,15,30,5,5,0.7,0.7
2026-04-17T1200,1233A,120.0883,30.1808,杭州市,云栖,,39,32,43,27,36,85,85,27,27,15,32,6,7,0.8,0.8
2026-04-17T1200,3557A,119.9463,30.0496,杭州市,镇二中,细颗粒物(PM2.5),56,NA,50,38,51,62,62,NA,NA,14,31,5,4,0.6,1.1
2026-04-17T1200,3558A,119.7184,30.2367,杭州市,市府大楼,,46,NA,39,32,46,62,62,27,27,16,23,7,6,0.8,0.8
2026-04-17T1200,3656A,120.1554,30.2863,杭州市,消防大队,颗粒物(PM10),63,68,80,31,36,81,81,43,43,17,31,5,5,0.9,0.8
2026-04-17T1200,1270A,117.1957,31.7845,合肥市,明珠广场,"颗粒物(PM10),细颗粒物(PM2.5)",60,63,79,40,45,137,137,45,45,10,38,7,7,0.6,0.8
2026-04-17T1200,1271A,117.307,31.8765,合肥市,三里街,颗粒物(PM10),65,70,96,39,50,136,136,76,76,15,32,6,7,0.7,0.8
2026-04-17T1200,1272A,117.2587,31.8703,合肥市,琥珀山庄,颗粒物(PM10),70,78,82,44,47,98,98,47,47,22,32,7,7,0.8,0.9
2026-04-17T1200,1275A,117.2593,31.9376,合肥市,庐阳区,"颗粒物(PM10),细颗粒物(PM2.5)",72,80,92,46,44,141,141,72,72,17,30,6,7,0.8,0.9
2026-04-17T1200,1276A,117.345251,31.861615,合肥市,瑶海区,颗粒物(PM10),63,68,99,39,45,145,145,76,76,14,37,6,7,0.7,0.8
2026-04-17T1200,1277A,117.3033,31.7967,合肥市,包河区,颗粒物(PM10),67,73,79,41,35,136,136,40,40,17,43,9,10,0.7,0.8
2026-04-17T1200,1278A,117.278,31.7392,合肥市,滨湖新区,细颗粒物(PM2.5),92,92,73,56,31,108,108,37,37,22,41,5,5,0.8,0.8
2026-04-17T1200,1279A,117.1324,31.8395,合肥市,高新区,颗粒物(PM10),60,63,96,30,42,131,131,94,94,7,22,5,6,0.6,0.8
2026-04-17T1200,3464A,117.3802,31.9148,合肥市,高教基地,颗粒物(PM10),60,63,77,33,33,144,144,67,67,12,22,8,9,0.7,0.8
2026-04-17T1200,4098A,117.2518,31.8404,合肥市,中国科学技术大学,颗粒物(PM10),62,66,91,35,47,148,148,92,92,7,20,6,6,0.7,0.9
2026-04-17T1200,3614A,79.9241,37.0878,和田地区,地区环保局,颗粒物(PM10),162,273,311,36,59,89,89,82,82,8,8,5,4,0.4,0.4
2026-04-17T1200,3615A,79.9132,37.1137,和田地区,市环保局,颗粒物(PM10),171,292,261,51,54,80,80,66,66,9,11,2,4,0.4,0.6
2026-04-17T1200,2517A,108.0496,24.6957,河池市,市环保站,,22,22,23,3,14,62,62,29,29,1,5,5,5,0.7,0.8
2026-04-17T1200,4302A,108.0901,24.6945,河池市,上任中路54号,,20,18,24,7,13,62,62,32,32,3,11,6,6,0.7,0.8
2026-04-17T1200,1697A,114.6962,23.7538,河源市,东埔,,31,13,22,9,15,99,99,67,67,10,10,5,6,0.5,0.4
2026-04-17T1200,1698A,114.6895,23.7232,河源市,老城,,31,NA,23,8,16,97,97,65,65,6,11,6,7,0.6,0.5
2026-04-17T1200,3374A,115.5562,35.089,菏泽市,定陶老年大学,NA,NA,NA,97,NA,59,136,136,63,63,12,25,NA,7,NA,0.6
2026-04-17T1200,4114A,115.4239,35.2593,菏泽市,黄河路600号,细颗粒物(PM2.5),88,82,107,54,65,127,127,71,71,8,18,4,5,0.5,0.6
2026-04-17T1200,4115A,115.5025,35.2727,菏泽市,菏泽市人社局,细颗粒物(PM2.5),101,80,103,61,64,132,132,66,66,7,21,8,9,0.4,0.5
2026-04-17T1200,4184A,115.479691,35.244011,菏泽市,永昌路1号,细颗粒物(PM2.5),88,78,105,54,65,139,139,75,75,12,28,4,5,0.7,0.7
2026-04-17T1200,4193A,115.471542,35.280012,菏泽市,长城路999号,细颗粒物(PM2.5),100,73,97,60,60,134,134,64,64,11,25,8,8,0.4,0.5
2026-04-17T1200,2514A,111.5264,24.4178,贺州市,环保小区,,16,14,31,9,16,51,51,63,48,10,16,6,7,0.6,0.5
2026-04-17T1200,2515A,111.561,24.4074,贺州市,政协大楼,,19,19,23,9,17,49,49,67,55,11,15,8,10,0.7,0.6
2026-04-17T1200,3534A,111.4744,24.455,贺州市,西湾,,23,NA,33,16,16,43,43,46,35,12,15,6,9,0.7,0.6
2026-04-17T1200,2385A,114.17,35.9019,鹤壁市,市监测站,细颗粒物(PM2.5),86,71,96,53,80,110,110,62,62,11,16,8,6,0.5,0.7
2026-04-17T1200,2386A,114.2953,35.7512,鹤壁市,市交警支队,细颗粒物(PM2.5),82,68,84,51,65,101,101,59,59,15,23,4,6,0.5,0.7
2026-04-17T1200,2387A,114.2877,35.7302,鹤壁市,迎宾馆,颗粒物(PM10),83,95,114,39,79,99,99,56,56,11,18,4,4,0.8,0.8
2026-04-17T1200,3474A,114.2616,35.6824,鹤壁市,大新区,细颗粒物(PM2.5),110,79,79,70,80,92,92,58,58,20,27,9,8,1.0,0.9
2026-04-17T1200,3596A,114.1573,35.9607,鹤壁市,南山宾馆,细颗粒物(PM2.5),80,83,93,50,74,106,106,62,62,13,17,9,8,0.5,0.7
2026-04-17T1200,2244A,130.2537,47.3416,鹤岗市,哈啤分公司,,47,47,56,20,44,85,85,85,79,24,17,19,12,0.3,0.4
2026-04-17T1200,2245A,130.2683,47.3087,鹤岗市,斯达机电,,39,39,62,20,40,100,100,99,91,9,14,10,11,0.3,0.4
2026-04-17T1200,2246A,130.3114,47.3388,鹤岗市,东山纸板厂,颗粒物(PM10),59,62,97,32,48,100,100,58,58,14,23,10,11,0.5,0.9
2026-04-17T1200,2263A,127.4832,50.2524,黑河市,交通局,NA,NA,17,22,6,14,81,81,64,64,NA,10,6,5,0.3,0.3
2026-04-17T1200,2264A,127.5146,50.2339,黑河市,环保局,,25,18,17,7,7,79,79,69,68,10,11,8,7,0.3,0.2
2026-04-17T1200,1074A,115.6839,37.754,衡水市,电机北厂,细颗粒物(PM2.5),110,94,77,70,60,99,99,47,47,12,34,4,4,0.6,0.5
2026-04-17T1200,1075A,115.6303,37.7318,衡水市,市监测站,细颗粒物(PM2.5),106,90,76,66,53,101,101,50,50,12,24,5,5,0.6,0.5
2026-04-17T1200,3188A,115.6684,37.7216,衡水市,市城管局,细颗粒物(PM2.5),84,93,70,52,55,104,104,53,53,10,26,2,4,0.6,0.5
2026-04-17T1200,3459A,115.599,37.5491,衡水市,地表水厂,NA,NA,84,70,44,35,107,107,39,39,8,32,NA,4,0.5,0.4
2026-04-17T1200,2457A,112.6209,26.9268,衡阳市,衡阳化工总厂,,44,44,27,25,18,59,59,25,25,8,13,5,6,0.7,0.7
2026-04-17T1200,2458A,112.621,26.8957,衡阳市,珠晖区环保局,,35,35,28,23,16,61,61,25,25,5,16,7,8,1.0,1
2026-04-17T1200,2459A,112.628,26.8654,衡阳市,市委党校,,40,30,26,28,19,61,61,31,31,4,8,9,10,1.0,1.1
2026-04-17T1200,2460A,112.6007,26.8977,衡阳市,市监测站,,36,32,27,25,20,60,60,32,32,9,15,8,8,0.9,0.9
2026-04-17T1200,2461A,112.5658,26.9013,衡阳市,真空机电公司,,30,22,21,21,18,72,72,37,37,8,13,7,8,1.0,1
2026-04-17T1200,3399A,112.6703,26.8817,衡阳市,师范学院,,39,37,28,27,18,59,59,34,34,9,12,6,7,0.8,0.8
2026-04-17T1200,3038A,103.3757,23.3679,红河哈尼族彝族自治州,州图书馆,细颗粒物(PM2.5),104,65,72,64,62,140,140,105,105,7,9,6,6,0.5,0.6
2026-04-17T1200,4154A,103.401,23.3561,红河哈尼族彝族自治州,蒙自市朝阳路,细颗粒物(PM2.5),88,62,63,54,57,138,138,98,98,8,13,4,5,0.5,0.6
2026-04-17T1200,1090A,111.6506,40.7517,呼和浩特市,呼市一监,颗粒物(PM10),96,114,93,24,25,76,76,46,46,24,21,14,9,0.5,0.4
2026-04-17T1200,1094A,111.7516,40.8369,呼和浩特市,如意水处理厂,颗粒物(PM10),101,122,84,34,47,73,73,46,46,23,29,15,9,0.4,0.3
2026-04-17T1200,1095A,111.727798,40.806187,呼和浩特市,二十九中,颗粒物(PM10),95,113,94,31,27,70,70,42,42,21,22,17,11,0.5,0.5
2026-04-17T1200,1097A,111.717,40.7617,呼和浩特市,化肥厂生活区,颗粒物(PM10),98,117,94,36,36,70,70,36,36,24,24,14,9,0.5,0.4
2026-04-17T1200,3699A,111.6519,40.8389,呼和浩特市,海东办,NA,NA,NA,101,NA,23,63,63,42,42,22,26,14,7,NA,0.4
2026-04-17T1200,4275A,111.591512,40.827312,呼和浩特市,成吉思汗西街8号,颗粒物(PM10),110,144,112,42,25,64,64,36,36,29,39,15,7,0.5,0.4
2026-04-17T1200,4276A,111.6597,40.8077,呼和浩特市,公园东路75号,颗粒物(PM10),107,136,109,39,28,67,67,49,49,24,23,12,10,0.4,0.3
2026-04-17T1200,4277A,111.5427,40.7846,呼和浩特市,金海路35号,颗粒物(PM10),109,141,105,41,26,66,66,46,46,26,29,19,7,0.5,0.3
2026-04-17T1200,3061A,119.7511,49.1576,呼伦贝尔市,国华电力东,,33,33,21,14,9,90,90,85,85,9,9,8,5,0.3,0.3
2026-04-17T1200,4279A,119.7569,49.2222,呼伦贝尔市,伊敏大街东7号,,32,32,26,15,8,86,86,83,83,8,9,5,5,0.5,0.4
2026-04-17T1200,1250A,120.075,30.867,湖州市,城西水厂,细颗粒物(PM2.5),72,58,44,46,35,62,62,55,50,27,26,6,5,0.7,0.5
2026-04-17T1200,2873A,120.083,30.8929,湖州市,仁皇山新区,细颗粒物(PM2.5),98,65,44,59,37,59,59,55,49,23,26,7,5,0.7,0.6
2026-04-17T1200,2907A,120.1846,30.8592,湖州市,吴兴区站,细颗粒物(PM2.5),74,62,39,47,31,54,54,54,48,28,23,9,6,0.5,0.4
2026-04-17T1200,3562A,120.4146,30.8538,湖州市,南浔区站,细颗粒物(PM2.5),92,NA,39,56,35,88,88,60,60,13,17,7,6,0.9,0.7
2026-04-17T1200,1607A,120.904878,40.721091,葫芦岛市,龙港区,细颗粒物(PM2.5),56,NA,45,38,43,135,135,130,130,6,15,9,10,0.5,0.6
2026-04-17T1200,1608A,120.8382,40.7521,葫芦岛市,化工街,,45,41,67,31,51,122,122,108,108,15,28,11,12,0.4,0.5
2026-04-17T1200,1609A,120.8339,40.7078,葫芦岛市,新区,,48,NA,44,33,48,127,127,118,118,10,20,8,9,0.5,0.6
2026-04-17T1200,1610A,120.8697,40.7679,葫芦岛市,东城区,,40,30,41,24,50,126,126,112,112,13,27,9,11,0.6,0.6
2026-04-17T1200,2483A,109.9297,27.5383,怀化市,河西地税局,,23,20,23,16,12,46,46,15,15,9,12,7,5,/,/
2026-04-17T1200,2484A,109.9783,27.5342,怀化市,市四医院,,29,29,21,15,12,53,53,26,26,6,10,5,4,0.4,0.4
2026-04-17T1200,2485A,109.9971,27.5579,怀化市,监测楼,,28,28,22,19,14,47,47,22,22,7,11,8,4,0.5,0.5
2026-04-17T1200,1210A,119.0566,33.5991,淮安市,钵池山,细颗粒物(PM2.5),76,70,57,48,39,115,115,61,61,10,17,7,7,0.7,0.6
2026-04-17T1200,1211A,119.0083,33.578,淮安市,北京南路,细颗粒物(PM2.5),84,68,52,52,45,110,110,58,58,9,15,9,8,0.5,0.4
2026-04-17T1200,1212A,118.9938,33.6083,淮安市,市监测站,细颗粒物(PM2.5),96,73,52,58,47,123,123,66,66,9,14,9,6,0.7,0.6
2026-04-17T1200,1213A,119.135,33.5038,淮安市,楚州区监测站,细颗粒物(PM2.5),88,73,55,54,42,119,119,61,61,10,16,6,6,0.6,0.5
2026-04-17T1200,3426A,118.8757,33.2897,淮安市,新华书店,颗粒物(PM10),84,97,75,28,23,105,105,62,62,7,16,7,7,0.5,0.5
2026-04-17T1200,4092A,119.119691,33.550006,淮安市,枚皋中路89号,细颗粒物(PM2.5),70,56,48,45,35,116,116,63,63,10,14,7,6,0.7,0.6
2026-04-17T1200,4206A,119.028838,33.631911,淮安市,承德北路606号,细颗粒物(PM2.5),74,70,60,47,41,109,109,60,60,6,15,8,8,0.6,0.5
2026-04-17T1200,2282A,116.8005,33.9749,淮北市,监测站,细颗粒物(PM2.5),86,78,48,53,32,151,151,71,71,14,16,8,7,0.7,0.6
2026-04-17T1200,2283A,116.8094,33.9008,淮北市,烈山区政府,细颗粒物(PM2.5),66,63,62,43,38,148,148,NA,NA,7,18,8,7,0.5,0.6
2026-04-17T1200,4017A,116.7926,33.9534,淮北市,市博物馆,细颗粒物(PM2.5),78,68,48,49,32,147,147,70,70,11,15,6,6,0.8,0.7
2026-04-17T1200,4100A,116.8322,33.9884,淮北市,杜集区第一实验学校,颗粒物(PM10),74,83,70,43,33,146,146,68,68,9,17,8,7,0.7,0.6
2026-04-17T1200,2277A,116.8304,32.7726,淮南市,潘集区政府,,50,49,83,35,52,133,133,52,52,14,37,6,7,0.6,0.7
2026-04-17T1200,2279A,116.8569,32.5949,淮南市,谢家集区政府,细颗粒物(PM2.5),72,NA,92,46,64,143,143,74,74,15,25,12,13,0.5,0.6
2026-04-17T1200,2280A,116.8279,32.6333,淮南市,八公山区政府,细颗粒物(PM2.5),72,53,79,46,69,140,140,77,77,9,16,11,11,0.5,0.6
2026-04-17T1200,2894A,117.0561,32.6536,淮南市,经济技术开发区消防队,细颗粒物(PM2.5),92,59,81,56,77,123,123,57,57,10,30,8,9,0.3,0.5
2026-04-17T1200,3329A,117.011,32.5891,淮南市,山南新区,细颗粒物(PM2.5),56,49,90,38,61,146,146,86,86,11,25,8,9,0.5,0.7
2026-04-17T1200,4209A,117.003137,32.644456,淮南市,国庆中路369号,细颗粒物(PM2.5),70,53,107,45,70,118,118,54,54,8,27,8,10,0.3,0.6
2026-04-17T1200,2446A,114.9021,30.474,黄冈市,职工中心,颗粒物(PM10),55,57,52,35,26,86,86,41,41,10,14,6,7,0.5,0.6
2026-04-17T1200,2929A,114.8858,30.4519,黄冈市,红卫路,颗粒物(PM10),55,57,45,34,24,90,90,47,47,9,14,5,5,0.7,0.7
2026-04-17T1200,3398A,114.9134,30.4446,黄冈市,市林业局,颗粒物(PM10),54,55,48,33,25,84,84,49,49,11,14,4,4,0.5,0.4
2026-04-17T1200,2672A,102.02,35.5101,黄南藏族自治州,同仁县隆务镇,,38,30,32,9,13,120,120,99,99,5,3,9,9,0.3,0.2
2026-04-17T1200,2295A,118.2905,29.6965,黄山市,延安路89号,,46,38,33,32,25,89,89,45,45,7,11,5,4,0.5,0.6
2026-04-17T1200,2297A,118.1369,30.2755,黄山市,黄山区政府5号楼,,43,43,33,26,22,99,99,51,51,9,10,2,2,0.4,0.6
2026-04-17T1200,4210A,118.335445,29.720283,黄山市,滨江东路7-2号,,45,39,43,31,31,102,102,46,46,6,10,/,/,/,/
2026-04-17T1200,2423A,115.0547,30.2332,黄石市,沈家营,细颗粒物(PM2.5),90,91,60,55,27,76,76,44,44,10,11,4,4,1.4,1.2
2026-04-17T1200,2426A,114.899,30.211,黄石市,铁山,NA,NA,56,45,43,24,80,80,48,48,NA,17,NA,7,0.4,1
2026-04-17T1200,2427A,115.0259,30.2108,黄石市,团城山,细颗粒物(PM2.5),72,72,51,46,28,63,63,33,33,10,15,4,6,1.0,1
2026-04-17T1200,3149A,115.0174,30.1591,黄石市,笔架山北路,颗粒物(PM10),72,80,84,36,34,89,89,39,39,4,23,7,10,0.9,1.1
2026-04-17T1200,4185A,115.078022,30.21118,黄石市,磁湖东路29号,颗粒物(PM10),81,93,63,50,28,94,94,56,56,7,15,3,4,1.0,0.9
2026-04-17T1200,1392A,114.4181,23.0528,惠州市,河南岸金山湖子站,,32,26,25,14,15,102,102,56,56,19,16,6,6,0.7,0.5
2026-04-17T1200,1393A,114.4055,23.0824,惠州市,下埔横江三路子站,,34,27,28,14,14,106,106,66,66,16,12,5,6,0.8,0.6
2026-04-17T1200,1395A,114.4645,22.7832,惠州市,惠阳区承修路船湖子站,,39,39,31,20,15,63,63,28,28,20,13,6,6,0.5,0.4
2026-04-17T1200,1396A,114.5316,22.7423,惠州市,大亚湾管委会子站,,37,37,25,24,15,39,39,17,17,23,12,5,4,0.5,0.5
2026-04-17T1200,3314A,114.4334,22.8134,惠州市,惠阳秋长,,46,46,26,19,14,106,106,46,46,21,16,/,/,/,/
2026-04-17T1200,3452A,114.6521,22.7755,惠州市,大亚湾霞涌,,20,16,18,14,12,64,64,31,31,11,9,/,/,/,/
2026-04-17T1200,4300A,114.4089,23.1147,惠州市,文华一路1号,,32,26,24,21,15,101,101,63,63,15,14,/,/,/,/
2026-04-17T1200,2240A,130.9618,45.2926,鸡西市,环保局,颗粒物(PM10),71,79,83,35,39,91,91,59,59,12,15,9,9,0.4,0.4
2026-04-17T1200,2243A,130.9294,45.2959,鸡西市,第一中学,颗粒物(PM10),63,68,71,41,37,88,88,59,59,12,13,8,6,0.3,0.3
2026-04-17T1200,3707A,131.0069,45.2988,鸡西市,欧美日汽修厂,颗粒物(PM10),66,72,92,38,40,84,84,57,57,12,13,7,4,0.5,0.5
2026-04-17T1200,2367A,114.9753,27.0803,吉安市,红声器材厂,,42,42,32,20,15,45,45,34,34,16,16,11,8,0.8,0.9
2026-04-17T1200,2369A,114.9903,27.1313,吉安市,市环境监测站,,39,39,26,20,13,48,48,35,35,17,17,18,12,/,/
2026-04-17T1200,2370A,115.009527,27.096792,吉安市,青原区法院,NA,NA,NA,26,NA,13,50,50,37,37,NA,18,14,9,1.1,0.9
2026-04-17T1200,1772A,126.54,43.8622,吉林市,哈达湾,,39,39,117,17,75,110,110,76,76,5,24,7,13,0.3,0.6
2026-04-17T1200,1773A,126.5843,43.8358,吉林市,东局子,,33,26,118,15,76,105,105,68,68,6,26,7,8,0.8,1.1
2026-04-17T1200,1774A,126.5051,43.8243,吉林市,电力学院,,37,24,122,21,79,117,117,75,75,7,27,7,12,0.6,1
2026-04-17T1200,1775A,126.6133,43.8971,吉林市,江北,,35,34,125,17,85,109,109,68,68,8,28,12,14,0.7,1.1
2026-04-17T1200,1776A,126.5549,43.8304,吉林市,江南公园,,35,28,108,15,72,109,109,77,77,6,26,8,12,0.5,0.8
2026-04-17T1200,2868A,126.4737,43.953,吉林市,九站,,38,38,118,23,81,108,108,64,64,8,35,10,15,0.3,0.6
2026-04-17T1200,1299A,116.9866,36.6118,济南市,科干所,细颗粒物(PM2.5),74,80,57,47,33,137,137,94,94,13,18,8,7,0.8,0.7
2026-04-17T1200,1300A,116.9379,36.6652,济南市,农科所,细颗粒物(PM2.5),90,71,61,55,37,129,129,63,63,13,34,9,6,0.4,0.4
2026-04-17T1200,1301A,117.1265,36.6736,济南市,开发区,细颗粒物(PM2.5),64,63,55,42,30,141,141,86,86,13,20,6,6,0.6,0.5
2026-04-17T1200,1303A,117.0616,36.6865,济南市,省种子仓库,颗粒物(PM10),74,83,68,42,32,139,139,66,66,5,27,6,6,0.7,0.7
2026-04-17T1200,1304A,116.9495185,36.644937,济南市,机床二厂,细颗粒物(PM2.5),94,85,68,57,40,133,133,73,73,14,29,8,6,0.7,0.6
2026-04-17T1200,1305A,117.0496,36.6629,济南市,市监测站,颗粒物(PM10),67,73,60,43,32,135,135,77,77,14,26,6,5,0.7,0.8
2026-04-17T1200,1306A,116.7674,36.5458,济南市,长清党校,细颗粒物(PM2.5),100,100,71,60,38,124,124,81,81,12,30,7,6,0.9,0.7
2026-04-17T1200,1961A,117.5323,36.6865,济南市,东山小学,颗粒物(PM10),67,73,59,41,32,136,136,98,98,12,28,6,6,0.5,0.5
2026-04-17T1200,3059A,117.7181,36.205,济南市,泰兴公司,细颗粒物(PM2.5),110,112,76,70,45,151,151,57,57,20,36,21,12,2.1,0.8
2026-04-17T1200,3064A,117.6861,36.2172,济南市,莱芜战役纪念馆,细颗粒物(PM2.5),113,114,81,74,48,142,142,79,79,20,25,20,8,1.8,1
2026-04-17T1200,3494A,117.1673,36.9782,济南市,济阳区政府,细颗粒物(PM2.5),108,98,68,68,42,118,118,52,52,23,42,12,8,0.8,0.6
2026-04-17T1200,3495A,117.1168,36.6299,济南市,锦屏中学,颗粒物(PM10),53,54,44,30,31,132,132,84,84,14,15,6,4,0.4,0.4
2026-04-17T1200,4108A,117.7107,36.2385,济南市,山财大街5号,细颗粒物(PM2.5),103,88,73,63,48,143,143,73,73,20,33,15,8,1.4,1
2026-04-17T1200,4109A,116.9744,36.6889,济南市,无影山路12号,细颗粒物(PM2.5),102,63,59,62,41,126,126,62,62,11,36,7,5,0.6,0.8
2026-04-17T1200,1653A,116.6229,35.4288,济宁市,火炬城,细颗粒物(PM2.5),103,76,77,63,54,128,128,70,70,12,22,5,7,0.7,0.7
2026-04-17T1200,3500A,116.5808,35.3703,济宁市,北湖一中,细颗粒物(PM2.5),106,NA,71,66,52,140,140,66,66,15,32,11,9,0.5,0.5
2026-04-17T1200,3501A,116.8251,35.5592,济宁市,服务中心,细颗粒物(PM2.5),119,88,73,80,61,139,139,66,66,17,37,5,4,0.8,0.7
2026-04-17T1200,3678A,116.5907,35.4054,济宁市,市第七中学,细颗粒物(PM2.5),104,78,83,64,51,155,155,80,80,14,29,8,8,0.5,0.5
2026-04-17T1200,4111A,116.6075,35.4566,济宁市,任和路,细颗粒物(PM2.5),102,105,102,62,53,146,146,81,81,11,27,9,8,0.6,0.6
2026-04-17T1200,4112A,116.5648,35.3921,济宁市,文体南路1号,颗粒物(PM10),87,101,105,51,52,132,132,62,62,7,26,10,7,0.8,0.8
2026-04-17T1200,4122A,112.6071,35.1015,济源市,市委党校,细颗粒物(PM2.5),84,92,78,52,37,106,106,58,58,31,24,34,14,2.3,0.9
2026-04-17T1200,4123A,112.596,35.0702,济源市,沁园中路1号,,44,44,76,18,35,94,94,48,48,14,28,14,13,1.0,1.1
2026-04-17T1200,2255A,130.2749,46.8028,佳木斯市,佳纺,,47,47,75,32,43,77,77,58,58,18,19,6,6,0.4,0.4
2026-04-17T1200,2257A,130.3258,46.7975,佳木斯市,环保局,细颗粒物(PM2.5),80,NA,69,50,44,61,61,49,49,12,22,5,4,0.4,0.4
2026-04-17T1200,4285A,130.363,46.806,佳木斯市,顺和街,细颗粒物(PM2.5),60,46,65,40,42,80,80,61,61,19,23,3,4,0.4,0.4
2026-04-17T1200,4286A,130.3952,46.8268,佳木斯市,长安路196号,NA,NA,42,63,37,39,90,90,64,64,NA,19,6,6,0.5,0.5
2026-04-17T1200,1252A,120.7439,30.778,嘉兴市,清河小学,细颗粒物(PM2.5),58,42,35,39,25,98,98,65,65,12,20,8,7,0.8,0.6
2026-04-17T1200,1253A,120.7261,30.7477,嘉兴市,嘉兴学院,细颗粒物(PM2.5),60,NA,28,40,27,98,98,67,64,13,23,7,6,0.8,0.5
2026-04-17T1200,2872A,120.7845,30.7524,嘉兴市,南湖区残联,,46,34,31,32,26,109,109,76,75,6,15,4,4,0.7,0.5
2026-04-17T1200,3407A,120.6915,30.7741,嘉兴市,秀洲住建,NA,NA,53,31,45,26,102,102,67,67,6,16,6,6,NA,0.4
2026-04-17T1200,1945A,98.291,39.7705,嘉峪关市,气象局,,40,7,21,6,7,125,125,94,94,4,16,8,10,0.6,0.7
2026-04-17T1200,2884A,98.2672,39.7978,嘉峪关市,酒钢宾馆,,40,14,31,3,8,128,128,91,91,2,11,11,14,0.3,0.5
2026-04-17T1200,3248A,98.2644,39.7723,嘉峪关市,雄关区,,40,29,33,3,7,125,125,93,93,4,17,7,8,0.5,0.5
2026-04-17T1200,1383A,113.1063,22.6058,江门市,北街,,34,34,21,18,14,81,81,38,38,25,14,/,/,/,/
2026-04-17T1200,1384A,113.073,22.5835,江门市,西区,,29,27,21,20,13,65,65,39,39,28,13,/,/,/,/
2026-04-17T1200,1385A,113.0218,22.531,江门市,圭峰西,,33,33,21,19,13,51,51,33,33,23,14,/,/,/,/
2026-04-17T1200,1386A,113.0826,22.5947,江门市,东湖,,35,35,19,20,12,70,70,38,38,24,12,7,6,0.5,0.4
2026-04-17T1200,3311A,113.1077,22.5647,江门市,江海富民,NA,NA,NA,33,14,14,69,69,35,35,24,16,/,/,0.4,0.4
2026-04-17T1200,3449A,113.0496,22.4669,江门市,新会银湖,,32,32,24,18,13,49,49,21,21,21,20,7,6,0.6,0.6
2026-04-17T1200,3335A,113.3137,35.2643,焦作市,马村街道办,颗粒物(PM10),56,58,80,18,44,93,93,59,59,17,15,16,10,0.6,0.8
2026-04-17T1200,3336A,113.2464,35.2374,焦作市,焦作技师学院,颗粒物(PM10),60,64,72,26,41,90,90,51,51,14,16,17,10,1.1,1.2
2026-04-17T1200,3477A,113.1656,35.2536,焦作市,中站许衡医院,颗粒物(PM10),53,53,59,16,30,102,102,66,66,20,16,20,13,0.6,0.7
2026-04-17T1200,3981A,113.2456,35.18,焦作市,原李万街道办,颗粒物(PM10),58,61,78,20,52,97,97,46,46,10,17,11,8,0.4,0.5
2026-04-17T1200,4264A,113.234,35.219,焦作市,新安路1731号,颗粒物(PM10),63,68,76,19,42,98,98,53,53,23,28,17,11,0.9,1
2026-04-17T1200,4295A,113.2722,35.2121,焦作市,人民路3066号,颗粒物(PM10),66,72,72,19,46,93,93,46,46,12,17,10,6,0.6,0.7
2026-04-17T1200,1708A,116.3701,23.5345,揭阳市,新兴,颗粒物(PM10),60,63,40,20,21,56,56,52,52,22,14,6,9,0.8,0.6
2026-04-17T1200,1709A,116.3261,23.5442,揭阳市,西马,,33,33,47,17,23,55,55,41,41,16,14,5,6,0.7,0.6
2026-04-17T1200,1710A,116.361,23.5627,揭阳市,东兴,NA,NA,NA,38,NA,24,65,65,48,48,14,14,3,6,/,/
2026-04-17T1200,1711A,116.4151,23.5295,揭阳市,渔湖,,35,35,39,20,21,60,60,65,65,26,13,4,3,/,/
2026-04-17T1200,3320A,116.4028,23.5699,揭阳市,曲溪,,26,26,32,13,22,65,65,55,55,16,10,9,12,0.6,0.7
2026-04-17T1200,1944A,102.1691,38.5166,金昌市,天庆家园,,41,12,44,8,16,131,131,70,70,3,17,11,14,0.8,0.8
2026-04-17T1200,4022A,102.1648,38.5369,金昌市,金川区人防中心,,40,NA,49,8,16,126,126,70,70,5,19,6,13,0.4,0.5
2026-04-17T1200,4239A,102.193042,38.531887,金昌市,长春路96号,,38,16,55,3,23,120,120,68,68,4,20,14,62,0.3,0.5
2026-04-17T1200,1262A,119.6478,29.0773,金华市,十五中,细颗粒物(PM2.5),58,46,70,39,57,47,47,22,22,18,35,4,3,1.0,0.9
2026-04-17T1200,1263A,119.6859,29.1032,金华市,监测站,,35,28,52,24,40,52,52,23,23,19,35,4,4,0.8,0.8
2026-04-17T1200,3659A,119.656,29.1132,金华市,气象局,NA,NA,37,56,30,51,43,43,36,36,NA,38,4,3,NA,0.9
2026-04-17T1200,1767A,121.1114,41.0879,锦州市,南山,,50,NA,51,35,56,129,129,111,111,14,25,13,12,0.6,0.7
2026-04-17T1200,1768A,121.060361,40.842794,锦州市,开发区,颗粒物(PM10),52,52,69,32,51,133,133,118,118,11,31,6,11,0.5,0.6
2026-04-17T1200,1769A,121.1836,41.1118,锦州市,百股街道,,43,NA,51,30,56,131,131,117,117,12,26,8,9,0.5,0.6
2026-04-17T1200,1770A,121.1176,41.1224,锦州市,天安街道,,43,NA,57,30,58,120,120,108,108,17,24,8,9,0.9,1
2026-04-17T1200,1771A,121.1303,41.1385,锦州市,北湖公园,,48,NA,56,33,58,127,127,114,114,13,20,10,11,0.4,0.6
2026-04-17T1200,2160A,112.8496,35.5051,晋城市,自来水公司,颗粒物(PM10),53,54,73,3,17,120,120,51,51,8,18,4,4,0.1,0.4
2026-04-17T1200,2162A,112.8509,35.4886,晋城市,市环保局,颗粒物(PM10),65,71,65,3,21,124,124,50,50,7,15,6,6,0.2,0.4
2026-04-17T1200,3620A,112.8258,35.4804,晋城市,泽州一中,颗粒物(PM10),58,60,68,12,16,121,121,65,65,7,14,4,4,0.4,0.5
2026-04-17T1200,4078A,112.8246,35.5152,晋城市,前书院路,,45,45,64,3,14,117,117,53,53,3,19,7,6,0.3,0.4
2026-04-17T1200,4079A,112.8864,35.4773,晋城市,祥云街666号,颗粒物(PM10),55,56,61,6,25,114,114,47,47,5,15,7,7,0.2,0.5
2026-04-17T1200,2174A,112.6992,37.6984,晋中市,榆次区政府,颗粒物(PM10),74,83,82,30,31,104,104,45,45,24,32,20,11,0.6,0.6
2026-04-17T1200,2865A,112.7195,37.683,晋中市,榆次三中,颗粒物(PM10),80,92,89,15,23,112,112,44,44,21,31,18,9,0.4,0.4
2026-04-17T1200,4080A,112.7375,37.7215,晋中市,广安街188号,颗粒物(PM10),65,71,89,24,27,107,107,44,44,21,33,20,8,0.4,0.4
2026-04-17T1200,4200A,112.7478,37.6954,晋中市,迎宾街26号,颗粒物(PM10),74,83,87,21,26,113,113,48,48,19,29,18,8,0.7,0.4
2026-04-17T1200,2439A,112.2012,31.048,荆门市,竹园小学,,50,50,60,32,33,98,98,45,45,13,18,1,4,0,0.2
2026-04-17T1200,2440A,112.1968,30.9892,荆门市,掇刀,颗粒物(PM10),55,56,63,32,34,113,113,61,61,8,20,11,9,0.2,0.6
2026-04-17T1200,3012A,112.1849,31.0361,荆门市,西山林语,颗粒物(PM10),54,55,59,28,30,107,107,56,56,9,11,6,6,0.3,0.5
2026-04-17T1200,3547A,112.1631,31.0134,荆门市,龙泉中学南校,颗粒物(PM10),51,51,58,26,28,117,117,67,67,9,12,5,5,0.3,0.3
2026-04-17T1200,4124A,112.2213,31.0654,荆门市,新台西路6号,颗粒物(PM10),61,65,56,39,37,102,102,38,38,8,21,9,8,0.4,0.5
2026-04-17T1200,1844A,112.2493,30.3198,荆州市,市图书馆,,49,NA,33,34,29,106,106,46,46,17,23,8,7,0.5,0.6
2026-04-17T1200,1845A,112.2009,30.3543,荆州市,市委党校,,49,42,44,34,30,102,102,47,47,11,22,9,8,0.5,0.6
2026-04-17T1200,3194A,112.2749,30.3124,荆州市,管委会,细颗粒物(PM2.5),56,45,42,38,33,99,99,49,49,12,18,9,7,0.5,0.6
2026-04-17T1200,4268A,112.1722,30.3366,荆州市,学苑路85号,细颗粒物(PM2.5),58,46,36,39,29,115,115,45,45,6,17,1,1,0.9,0.9
2026-04-17T1200,2343A,117.2114,29.2931,景德镇市,老干部活动中心,,38,NA,28,26,26,78,78,43,43,2,9,4,7,0.8,0.9
2026-04-17T1200,2344A,117.1893,29.2789,景德镇市,兽医站,,26,24,36,18,23,79,79,39,39,6,13,4,4,0.8,0.9
2026-04-17T1200,2346A,117.246,29.2958,景德镇市,陶研所,,24,17,29,16,24,76,76,40,40,8,17,4,6,0.8,0.9
2026-04-17T1200,4289A,117.154766,29.256967,景德镇市,青少年活动中心,,25,17,32,17,27,75,75,36,36,6,15,5,14,/,/
2026-04-17T1200,1803A,115.9873,29.6816,九江市,十里,颗粒物(PM10),63,67,60,33,34,83,83,51,51,16,26,8,9,0.9,1.1
2026-04-17T1200,1804A,115.9583,29.7047,九江市,茅山头,细颗粒物(PM2.5),70,54,53,45,38,91,91,49,49,15,25,3,4,0.8,0.9
2026-04-17T1200,1805A,115.9877,29.7295,九江市,西园,细颗粒物(PM2.5),70,64,60,45,39,82,82,42,42,30,45,6,6,0.8,1
2026-04-17T1200,1808A,115.9112,29.6038,九江市,综合工业园,细颗粒物(PM2.5),58,53,48,39,31,84,84,47,47,23,30,7,7,0.8,0.9
2026-04-17T1200,3190A,116.0254,29.6995,九江市,外国语学校,细颗粒物(PM2.5),68,50,50,44,42,78,78,46,46,12,21,9,10,1.0,1.2
2026-04-17T1200,4253A,116.010205,29.659402,九江市,莲花大道8号,细颗粒物(PM2.5),62,60,56,41,36,76,76,49,49,17,17,5,6,0.8,1
2026-04-17T1200,4240A,98.495752,39.733935,酒泉市,玉门东路5号,颗粒物(PM10),51,51,31,19,12,97,97,73,73,10,11,6,7,0.2,0.3
2026-04-17T1200,4241A,98.5099,39.7506,酒泉市,北大街108号,颗粒物(PM10),62,66,32,16,18,92,92,65,65,10,13,8,9,0.3,0.4
2026-04-17T1200,2698A,76.0071,39.466,喀什地区,巡警大队,颗粒物(PM10),105,132,157,26,40,79,79,52,52,22,31,4,4,0.2,0.3
2026-04-17T1200,2699A,75.9756,39.4693,喀什地区,吾办,颗粒物(PM10),98,116,143,24,39,90,90,58,58,8,23,4,4,0.3,0.5
2026-04-17T1200,4027A,75.9485,39.4688,喀什地区,老干局,颗粒物(PM10),75,85,128,3,34,92,92,61,61,4,20,3,3,0.2,0.3
2026-04-17T1200,1824A,114.3389,34.778,开封市,肿瘤医院,颗粒物(PM10),103,127,66,48,66,127,127,52,52,14,22,NA,7,0.8,0.7
2026-04-17T1200,1826A,114.2884,34.7966,开封市,世纪星幼儿园,颗粒物(PM10),62,66,65,38,61,119,119,52,52,16,22,9,7,0.6,0.6
2026-04-17T1200,3147A,114.3434,34.8101,开封市,龙亭公园,细颗粒物(PM2.5),80,80,66,50,65,115,115,52,52,19,24,10,8,0.9,0.8
2026-04-17T1200,3210A,114.3645,34.7955,开封市,汴京公园,细颗粒物(PM2.5),102,83,74,62,61,120,120,51,51,18,23,NA,4,0.5,0.5
2026-04-17T1200,3473A,114.2485,34.8306,开封市,技师学院,细颗粒物(PM2.5),76,81,73,48,54,112,112,44,44,15,19,7,5,0.7,0.7
2026-04-17T1200,3592A,114.4518,34.7503,开封市,祥符区生态环境局,细颗粒物(PM2.5),133,NA,61,96,69,95,95,44,44,31,37,19,8,1.0,0.7
2026-04-17T1200,1951A,84.886,45.6029,克拉玛依市,长征新村,NA,NA,21,31,3,9,84,84,91,89,NA,3,6,6,0.4,0.4
2026-04-17T1200,1952A,84.8894,45.5827,克拉玛依市,南林小区,,27,23,37,9,7,86,86,98,94,4,3,4,3,0.1,0.1
2026-04-17T1200,1954A,84.896,44.3328,克拉玛依市,独山子区,,46,46,130,8,19,95,95,85,84,8,9,6,6,0.4,0.4
2026-04-17T1200,1955A,85.6888,46.0909,克拉玛依市,乌尔禾区商贸楼,,27,26,36,3,11,86,86,87,87,7,6,3,3,0.1,0.1
2026-04-17T1200,3612A,85.1045,45.6895,克拉玛依市,白碱滩区新站,,38,33,37,26,12,95,95,100,99,3,3,7,8,0.2,0.2
2026-04-17T1200,2697A,76.1457,39.7143,克孜勒苏柯尔克孜自治州,市人民政府,,45,45,110,26,37,104,104,97,96,4,12,6,11,0.1,0.1
2026-04-17T1200,3665A,76.1654,39.7157,克孜勒苏柯尔克孜自治州,克州文化中心,NA,NA,56,107,16,32,NA,NA,92,92,1,8,NA,14,0.1,0.2
2026-04-17T1200,1450A,102.8203,24.889,昆明市,呈贡新区,细颗粒物(PM2.5),92,NA,50,56,39,149,149,77,77,9,19,4,5,0.7,0.7
2026-04-17T1200,1452A,102.7253,25.0904,昆明市,龙泉镇,细颗粒物(PM2.5),54,37,51,37,32,128,128,69,69,11,29,5,5,0.7,0.7
2026-04-17T1200,1453A,102.7267,25.0378,昆明市,东风东路,颗粒物(PM10),59,62,55,36,32,137,137,77,77,16,19,4,4,0.6,0.6
2026-04-17T1200,1454A,102.6744,25.0671,昆明市,金鼎山,细颗粒物(PM2.5),72,59,55,46,33,133,133,81,81,13,22,4,4,0.7,0.7
2026-04-17T1200,1455A,102.6643,25.0401,昆明市,碧鸡广场,颗粒物(PM10),58,60,54,33,30,132,132,83,83,16,20,6,6,0.7,0.6
2026-04-17T1200,3179A,102.7491,25.012,昆明市,官渡区博物馆,细颗粒物(PM2.5),62,64,62,41,35,135,135,59,59,13,28,4,4,0.5,0.5
2026-04-17T1200,3375A,102.8016,24.8336,昆明市,青年创业园,"颗粒物(PM10),细颗粒物(PM2.5)",54,55,61,37,39,136,136,73,73,6,19,6,7,0.6,0.5
2026-04-17T1200,3550A,102.8,24.9787,昆明市,昆明学院,颗粒物(PM10),70,78,67,43,35,124,124,60,60,17,22,6,6,0.8,0.7
2026-04-17T1200,3551A,102.5969,24.6738,昆明市,晋宁区生态环境分局,细颗粒物(PM2.5),64,56,55,42,41,147,147,92,92,15,11,5,4,0.4,0.4
2026-04-17T1200,3552A,102.6673,24.9861,昆明市,云天化总部,颗粒物(PM10),57,59,55,31,29,146,146,82,82,13,20,5,6,0.6,0.6
2026-04-17T1200,1456A,91.132,29.6515,拉萨市,八廓街,NA,NA,23,24,9,10,NA,NA,87,81,9,9,NA,6,0.6,0.7
2026-04-17T1200,1457A,91.1221,29.6748,拉萨市,市环保局,,32,31,21,17,11,101,101,72,72,11,12,6,6,0.4,0.4
2026-04-17T1200,1458A,91.0874,29.6476,拉萨市,区监测站,,34,23,19,12,10,106,106,86,84,10,13,6,7,0.3,0.2
2026-04-17T1200,1459A,91.1774,29.6541,拉萨市,西藏大学,,34,27,21,13,10,106,106,79,79,12,12,6,6,0.2,0.2
2026-04-17T1200,1460A,90.9798,29.6586,拉萨市,区辐射站,,31,26,22,7,9,98,98,64,58,12,23,6,7,0.3,0.3
2026-04-17T1200,1461A,91.0831,29.6292,拉萨市,拉萨火车站,,34,28,20,16,10,106,106,81,81,12,12,5,5,0.3,0.2
2026-04-17T1200,2520A,109.2203,23.7252,来宾市,来宾技工学校,,19,NA,29,13,19,49,49,68,50,6,8,6,6,0.8,0.7
2026-04-17T1200,3535A,109.1781,23.7293,来宾市,兴宾区政府,,23,22,34,16,21,54,54,70,50,5,7,8,8,0.8,0.7
2026-04-17T1200,4002A,109.2312,23.7428,来宾市,中南小学,,25,NA,31,17,21,50,50,68,48,9,11,6,7,0.7,0.6
2026-04-17T1200,1479A,103.8309,36.0467,兰州市,铁路设计院,NA,NA,NA,58,NA,27,81,81,28,28,NA,41,14,9,1.1,0.9
2026-04-17T1200,3241A,103.7439,36.0841,兰州市,百合公园,颗粒物(PM10),55,57,53,34,26,144,144,51,51,30,33,16,7,0.9,0.5
2026-04-17T1200,3242A,103.9613,35.9985,兰州市,和平,,44,44,36,15,16,99,99,65,65,13,16,9,8,0.4,0.4
2026-04-17T1200,4236A,103.629272,36.093822,兰州市,庄浪东路808号,臭氧1小时(O3_1h),154,88,62,45,26,308,308,99,99,37,32,23,12,0.7,0.5
2026-04-17T1200,4237A,103.7251,36.104344,兰州市,安宁西路88号,臭氧1小时(O3_1h),82,81,52,35,25,185,185,68,68,32,28,17,9,0.5,0.3
2026-04-17T1200,4238A,103.846982,36.067567,兰州市,北滨河东路1号,,50,50,48,28,26,109,109,33,33,39,44,16,10,0.9,0.7
2026-04-17T1200,1067A,116.6712,39.5109,廊坊市,药材公司,细颗粒物(PM2.5),66,59,57,43,48,88,88,50,50,13,20,2,3,0.5,0.5
2026-04-17T1200,1068A,116.7215,39.5592,廊坊市,开发区,细颗粒物(PM2.5),92,72,52,56,41,98,98,47,47,6,12,3,3,0.3,0.3
2026-04-17T1200,1070A,116.7246,39.5273,廊坊市,北华航天学院,,50,NA,32,35,35,95,95,52,52,11,18,2,1,0.4,0.4
2026-04-17T1200,2919A,116.7022,39.5454,廊坊市,河北工业大学,NA,NA,NA,25,49,43,91,91,52,52,NA,16,NA,1,0.4,0.3
2026-04-17T1200,2536A,103.7629,29.5844,乐山市,牛耳桥,,32,9,26,3,10,100,100,65,65,11,19,4,4,0.4,0.6
2026-04-17T1200,2537A,103.7501,29.6002,乐山市,市第三水厂,,30,8,22,3,9,96,96,64,64,13,17,3,4,0.5,0.7
2026-04-17T1200,2538A,103.7571,29.5664,乐山市,市监测站,,29,12,23,3,10,90,90,62,62,10,16,3,4,0.6,0.7
2026-04-17T1200,3361A,103.7313,29.563,乐山市,理工大学,,30,15,23,3,11,95,95,66,66,13,15,6,4,0.4,0.6
2026-04-17T1200,2599A,100.2497,26.8802,丽江市,丽江古城,,38,29,31,3,16,121,121,104,100,6,8,7,9,0.6,0.7
2026-04-17T1200,2600A,100.2203,26.8906,丽江市,市中心,,39,22,24,3,16,122,122,91,85,7,13,6,6,0.5,0.6
2026-04-17T1200,1267A,119.9141,28.4513,丽水市,监测站大楼,,25,10,14,7,5,78,78,42,42,9,16,4,4,0.6,0.6
2026-04-17T1200,1268A,119.93,28.4589,丽水市,莲都小学,,24,19,16,7,4,74,74,35,35,8,21,/,/,/,/
2026-04-17T1200,1269A,119.8794,28.4232,丽水市,余庄前,,27,16,13,8,4,86,86,34,34,10,14,5,5,0.6,0.6
2026-04-17T1200,1173A,119.1759,34.5885,连云港市,市环境监测站,细颗粒物(PM2.5),86,68,59,53,48,107,107,NA,NA,23,19,10,9,0.5,0.5
2026-04-17T1200,3000A,119.3577,34.6971,连云港市,德源药业,颗粒物(PM10),58,61,54,36,36,123,123,84,84,14,18,7,6,0.4,0.4
2026-04-17T1200,3007A,119.178,34.8442,连云港市,新城一中,颗粒物(PM10),66,72,65,37,37,120,120,80,80,14,25,7,5,0.7,0.6
2026-04-17T1200,3008A,119.3607,34.7519,连云港市,胡沟管理处,,39,31,27,27,26,117,117,81,81,7,28,13,14,0.5,0.5
2026-04-17T1200,3009A,119.1478,34.5913,连云港市,矿山设计院,细颗粒物(PM2.5),86,75,65,53,45,115,115,78,78,17,17,21,20,0.7,0.6
2026-04-17T1200,3434A,119.2414,34.6539,连云港市,工贸学校,细颗粒物(PM2.5),70,59,55,45,41,135,135,88,88,10,14,7,10,0.4,0.4
2026-04-17T1200,3664A,119.4171,34.734,连云港市,连云街道,颗粒物(PM10),53,53,51,30,33,103,103,80,74,16,14,2,2,0.4,0.4
2026-04-17T1200,2573A,102.2629,27.8981,凉山彝族自治州,西昌市政府,,33,12,22,3,12,104,104,82,82,6,5,4,4,0.4,0.4
2026-04-17T1200,2574A,102.2686,27.885,凉山彝族自治州,凉山州政府,,28,12,22,3,12,87,87,64,64,8,6,3,3,0.6,0.5
2026-04-17T1200,4229A,102.2342,27.8859,凉山彝族自治州,凯乐南路30号,,30,13,23,3,9,94,94,61,61,9,10,3,2,0.4,0.4
2026-04-17T1200,2212A,123.1978,41.2036,辽阳市,宏伟区,,40,34,57,12,35,125,125,108,108,7,10,6,7,0.5,0.6
2026-04-17T1200,2213A,123.1684,41.2497,辽阳市,新华园,,40,25,66,16,38,128,128,111,111,11,15,10,9,0.5,0.6
2026-04-17T1200,2214A,123.2355,41.2663,辽阳市,滨河路,,39,30,52,15,37,122,122,96,96,10,18,8,8,0.7,0.8
2026-04-17T1200,4083A,123.153,41.2874,辽阳市,铁西路150号,,35,26,68,18,39,109,109,98,98,10,15,9,9,0.6,0.7
2026-04-17T1200,2227A,125.1359,42.8845,辽源市,环保局,,42,42,52,22,35,120,120,94,94,7,14,7,7,0.6,0.7
2026-04-17T1200,4085A,125.0998,42.9134,辽源市,安宁大街333号,,44,44,54,22,37,115,115,95,95,11,15,5,6,0.5,0.5
2026-04-17T1200,1625A,115.9789,36.4372,聊城市,区政府,细颗粒物(PM2.5),98,95,83,59,45,119,119,60,60,11,25,9,8,0.9,0.8
2026-04-17T1200,3200A,115.9772,36.4986,聊城市,监控中心,细颗粒物(PM2.5),92,80,72,56,43,131,131,NA,NA,14,34,10,10,0.6,0.5
2026-04-17T1200,3513A,116.0443,36.436,聊城市,九州社区,细颗粒物(PM2.5),100,104,86,60,52,131,131,69,69,12,28,10,10,0.5,0.5
2026-04-17T1200,4018A,116.0564,36.4609,聊城市,星美广场,细颗粒物(PM2.5),107,118,90,67,55,118,118,47,47,NA,28,29,12,0.8,0.7
2026-04-17T1200,4113A,116.0091,36.4495,聊城市,利民路,细颗粒物(PM2.5),105,67,71,65,56,130,130,68,68,10,26,10,11,0.5,0.6
2026-04-17T1200,2632A,94.3683,29.6373,林芝市,林芝监测站,,25,13,11,3,6,80,80,65,54,6,6,4,4,0.4,0.4
2026-04-17T1200,2633A,94.3616,29.6634,林芝市,林芝人民医院,NA,NA,NA,13,NA,8,NA,NA,67,50,NA,3,5,4,0.4,0.4
2026-04-17T1200,2603A,100.0779,23.8981,临沧市,市环保局,颗粒物(PM10),75,85,60,38,41,135,135,74,74,7,10,7,7,0.7,0.7
2026-04-17T1200,2604A,100.0894,23.882,临沧市,市气象局,细颗粒物(PM2.5),76,76,61,48,46,99,99,56,56,21,23,7,7,0.7,0.7
2026-04-17T1200,1733A,111.5552,36.0791,临汾市,临钢医院,颗粒物(PM10),79,90,92,23,23,94,94,49,49,20,18,15,7,1.0,0.8
2026-04-17T1200,1734A,111.4984,36.0734,临汾市,技工学校,颗粒物(PM10),75,85,83,27,25,92,92,46,46,19,16,18,7,1.3,0.6
2026-04-17T1200,1736A,111.5017,36.0857,临汾市,市委,颗粒物(PM10),69,76,84,25,23,95,95,49,49,21,16,18,7,1.5,0.6
2026-04-17T1200,3018A,111.5048,36.1015,临汾市,唐尧大酒店,颗粒物(PM10),80,92,94,35,31,96,96,46,46,20,19,19,8,1.4,0.6
2026-04-17T1200,4244A,111.4879,36.053,临汾市,启星学校,颗粒物(PM10),74,83,79,24,23,86,86,39,39,22,20,17,7,1.3,0.5
2026-04-17T1200,4271A,103.2464,35.6123,临夏回族自治州,滨河东路1号,颗粒物(PM10),53,54,61,13,27,89,89,44,44,15,26,9,8,0.2,0.4
2026-04-17T1200,4310A,103.207136,35.599807,临夏回族自治州,新华街21号,,45,45,65,22,33,78,78,34,34,12,20,7,6,0.3,0.5
2026-04-17T1200,1618A,118.3429,35.0532,临沂市,沂河小区,细颗粒物(PM2.5),84,78,91,52,63,148,148,92,92,13,15,11,11,0.4,0.4
2026-04-17T1200,1619A,118.2962,35.0568,临沂市,鲁南制药厂,NA,NA,78,93,NA,67,151,151,86,86,NA,19,NA,12,0.1,0.2
2026-04-17T1200,1620A,118.2793,34.9976,临沂市,新光毛纺厂,细颗粒物(PM2.5),115,107,90,76,73,148,148,79,79,30,24,15,11,0.5,0.4
2026-04-17T1200,1621A,118.3955,35.0889,临沂市,河东保险公司,细颗粒物(PM2.5),102,88,85,62,63,156,156,90,90,16,20,13,12,0.4,0.4
2026-04-17T1200,3370A,118.3563,35.0215,临沂市,十里堡居委,细颗粒物(PM2.5),84,68,77,52,67,153,153,90,90,15,21,9,10,0.6,0.6
2026-04-17T1200,3496A,118.359,35.1067,临沂市,南坊新区,细颗粒物(PM2.5),106,100,80,66,69,148,148,92,92,20,21,12,12,0.3,0.3
2026-04-17T1200,3860A,118.3915,35.0297,临沂市,皇山花园小区,"颗粒物(PM10),细颗粒物(PM2.5)",84,97,75,52,58,158,158,94,94,19,24,10,10,0.6,0.6
2026-04-17T1200,1870A,109.4854,24.3898,柳州市,柳东小学,NA,NA,NA,35,NA,21,NA,NA,58,34,NA,11,NA,5,NA,0.8
2026-04-17T1200,1871A,109.4109,24.3304,柳州市,环保监测站,,36,36,32,22,22,25,25,34,26,17,17,24,9,1.1,0.9
2026-04-17T1200,1872A,109.3886,24.3408,柳州市,河西水厂,,39,39,35,18,21,24,24,30,22,13,16,23,13,0.9,1
2026-04-17T1200,1873A,109.4263,24.2951,柳州市,市四中,,38,35,32,26,21,25,25,38,32,19,14,16,9,1.0,0.9
2026-04-17T1200,1874A,109.396,24.3658,柳州市,市九中,,34,34,35,20,23,29,29,31,24,14,14,20,9,1.0,0.8
2026-04-17T1200,1875A,109.4912,24.3164,柳州市,古亭山,,18,14,29,12,19,40,40,44,43,6,10,4,5,0.8,0.8
2026-04-17T1200,3402A,109.5422,24.3994,柳州市,市二中,,18,18,26,12,18,39,39,40,40,8,12,7,8,0.7,0.7
2026-04-17T1200,2307A,116.5078,31.7369,六安市,监测大楼,,43,30,42,30,42,118,118,55,55,7,15,3,4,0.4,0.5
2026-04-17T1200,2308A,116.4738,31.7642,六安市,皖西学院,NA,NA,42,49,NA,39,120,120,NA,NA,5,10,NA,5,0.5,0.5
2026-04-17T1200,2309A,116.4997,31.7904,六安市,朝阳厂,,43,32,41,30,42,120,120,51,51,6,16,6,6,0.3,0.5
2026-04-17T1200,2310A,116.5566,31.7885,六安市,开发区,,46,NA,47,32,43,125,125,60,60,11,21,5,5,0.5,0.7
2026-04-17T1200,2577A,104.8293,26.592,六盘水市,黄土坡,,44,20,21,6,13,140,140,108,108,7,9,7,6,0.2,0.3
2026-04-17T1200,2579A,104.8481,26.5898,六盘水市,民中,,30,10,22,9,14,94,94,87,87,6,8,4,4,0.4,0.5
2026-04-17T1200,2580A,104.9541,26.5506,六盘水市,双水,,28,14,18,3,13,89,89,84,84,6,7,3,3,0.4,0.3
2026-04-17T1200,4151A,104.8899,26.5685,六盘水市,钟山大道中段564号,NA,NA,22,27,7,14,91,91,78,78,9,9,NA,3,NA,0.8
2026-04-17T1200,2336A,117.022,25.1031,龙岩市,龙岩市监测站,,29,29,31,12,29,83,83,55,55,7,10,5,6,0.5,0.5
2026-04-17T1200,2337A,117.0257,25.0662,龙岩市,闽西职业技术学院,,28,28,34,10,27,81,81,51,51,3,7,5,5,0.6,0.6
2026-04-17T1200,2338A,117.0195,25.0306,龙岩市,龙岩学院,,29,20,32,10,23,90,90,62,62,4,6,4,3,/,/
2026-04-17T1200,2885A,104.9344,33.3827,陇南市,滨江中学,,44,44,65,26,25,74,74,45,45,8,11,7,8,0.6,0.6
2026-04-17T1200,3247A,104.9551,33.3709,陇南市,市总工会,NA,NA,NA,60,NA,21,NA,NA,54,49,NA,7,8,7,0.4,0.4
2026-04-17T1200,2488A,111.9984,27.7346,娄底市,市监测站,,44,44,35,20,21,75,75,21,21,8,20,4,5,0.4,0.8
2026-04-17T1200,2491A,111.9888,27.7035,娄底市,市政府,颗粒物(PM10),96,114,37,22,21,84,84,22,22,9,13,5,3,0.7,0.8
2026-04-17T1200,4127A,111.9812,27.7591,娄底市,涟钢职大,,26,19,30,3,15,82,82,25,25,7,15,4,3,1.3,1
2026-04-17T1200,4128A,112.0303,27.7457,娄底市,娄底体校,,29,29,26,19,15,74,74,21,21,4,9,7,4,0.2,0.4
2026-04-17T1200,1894A,105.4427,28.9063,泸州市,小市上码头,,27,20,21,10,19,86,86,64,64,12,12,6,6,0.4,0.5
2026-04-17T1200,1895A,105.4241,28.8573,泸州市,兰田宪桥,,27,17,29,8,16,84,84,55,55,7,10,5,5,0.5,0.6
2026-04-17T1200,1896A,105.4378,28.8833,泸州市,市环监站,NA,NA,23,35,11,18,92,92,62,62,8,14,6,8,NA,0.8
2026-04-17T1200,4272A,105.3689,28.7783,泸州市,纳溪中医医院,,43,43,39,9,22,90,90,63,63,11,13,5,5,0.6,0.8
2026-04-17T1200,2183A,111.1447,37.5212,吕梁市,环保局,颗粒物(PM10),57,59,68,3,14,98,98,50,50,19,23,5,5,0.4,0.3
2026-04-17T1200,2185A,111.1285,37.5338,吕梁市,自来水公司,颗粒物(PM10),58,61,95,3,18,95,95,37,37,20,26,5,6,0.6,0.4
2026-04-17T1200,2867A,111.1225,37.5093,吕梁市,马茂庄小学,NA,NA,65,74,3,12,NA,NA,28,NA,20,26,8,8,0.6,0.3
2026-04-17T1200,1812A,112.3934,34.6517,洛阳市,市委党校,NA,NA,57,58,19,25,NA,NA,50,44,23,22,8,9,0.5,0.6
2026-04-17T1200,1815A,112.494,34.6883,洛阳市,河南林校,颗粒物(PM10),70,77,73,24,28,102,102,55,55,22,27,15,14,0.7,0.7
2026-04-17T1200,1816A,112.3843,34.623,洛阳市,开发区管委会,颗粒物(PM10),59,62,58,10,24,102,102,59,59,15,17,11,10,0.6,0.6
2026-04-17T1200,1817A,112.4263,34.6249,洛阳市,市委新办公区,,49,49,60,14,25,102,102,64,64,14,17,9,9,0.4,0.4
2026-04-17T1200,3340A,112.6005,34.6323,洛阳市,伊滨,颗粒物(PM10),68,75,65,16,26,98,98,67,67,16,17,9,8,0.5,0.6
2026-04-17T1200,3341A,112.495,34.6338,洛阳市,中移产业园,颗粒物(PM10),57,59,60,18,25,107,107,67,67,17,19,10,10,0.3,0.5
2026-04-17T1200,3593A,112.5736,34.8993,洛阳市,吉利监测站,NA,NA,105,57,15,20,94,94,58,58,11,16,9,9,NA,0.5
2026-04-17T1200,3635A,112.3678,34.6623,洛阳市,河科大西苑校区,颗粒物(PM10),55,56,58,16,25,110,110,56,56,10,17,10,11,0.4,0.5
2026-04-17T1200,3636A,112.4387,34.678,洛阳市,英才小学,颗粒物(PM10),65,71,82,15,32,96,96,41,41,19,32,12,16,0.5,0.7
2026-04-17T1200,4214A,112.460027,34.694929,洛阳市,春都路1号院,颗粒物(PM10),81,93,79,3,29,106,106,48,48,22,28,14,14,0.6,0.8
2026-04-17T1200,2399A,114.051,33.5721,漯河市,三五一五工厂,颗粒物(PM10),78,88,60,22,42,127,127,73,73,14,31,10,6,0.3,0.4
2026-04-17T1200,2400A,114.0055,33.5698,漯河市,漯河大学,颗粒物(PM10),80,92,50,34,48,118,118,63,63,16,22,11,6,0.5,0.5
2026-04-17T1200,2401A,114.0134,33.5826,漯河市,市水利局,颗粒物(PM10),83,95,59,32,38,119,119,66,66,12,19,10,4,0.6,0.7
2026-04-17T1200,2402A,114.0261,33.5697,漯河市,市广电局,颗粒物(PM10),78,88,61,39,43,130,130,74,74,16,25,10,6,0.4,0.5
2026-04-17T1200,3478A,113.9691,33.568,漯河市,市图书馆,颗粒物(PM10),80,92,51,31,37,120,120,67,67,13,18,10,6,0.4,0.5
2026-04-17T1200,4250A,114.089259,33.588274,漯河市,韶山路11号,颗粒物(PM10),75,84,70,31,41,114,114,65,65,13,28,12,7,0.5,0.7
2026-04-17T1200,1798A,118.5084,31.6838,马鞍山市,湖东路四小,细颗粒物(PM2.5),96,62,53,58,45,113,113,58,58,22,23,14,9,1.4,0.9
2026-04-17T1200,1799A,118.5019,31.6449,马鞍山市,开发区,细颗粒物(PM2.5),68,54,53,44,37,123,123,54,54,22,30,17,8,1.6,0.8
2026-04-17T1200,3633A,118.4914,31.681,马鞍山市,雨山,细颗粒物(PM2.5),62,58,44,41,28,113,113,55,55,25,26,18,9,1.8,1
2026-04-17T1200,4191A,118.527362,31.722269,马鞍山市,慈湖高新区,细颗粒物(PM2.5),62,57,61,41,39,123,123,60,60,12,20,7,8,0.6,0.5
2026-04-17T1200,1686A,111.0285,21.469,茂名市,电白南海,,19,14,22,7,8,59,59,52,52,5,6,4,5,0.6,0.6
2026-04-17T1200,1687A,110.9294,21.6533,茂名市,茂石化七小,,29,29,23,12,12,52,52,42,42,9,10,6,6,0.5,0.5
2026-04-17T1200,1688A,110.9108,21.6688,茂名市,健康路,,19,19,16,12,11,53,53,44,44,8,9,4,4,0.5,0.6
2026-04-17T1200,1689A,110.8592,21.6826,茂名市,高岭,NA,NA,51,34,15,12,49,49,44,44,14,13,NA,6,/,/
2026-04-17T1200,3450A,111.0101,21.5165,茂名市,电白水东,,18,9,13,8,10,56,56,50,50,7,7,2,2,/,/
2026-04-17T1200,2540A,103.8414,30.0871,眉山市,气象局,NA,NA,30,44,NA,13,102,102,65,65,9,14,7,8,0.6,0.6
2026-04-17T1200,3148A,103.829,30.0563,眉山市,区人社局,,31,25,43,3,14,98,98,60,60,12,17,8,10,0.5,0.6
2026-04-17T1200,4148A,103.8836,30.0695,眉山市,眉职院,,31,11,36,3,12,98,98,51,51,6,12,8,10,0.6,0.7
2026-04-17T1200,1690A,116.1248,24.3307,梅州市,梅江月梅,,26,NA,27,13,22,82,82,60,60,10,12,/,/,/,/
2026-04-17T1200,1691A,116.0798,24.2719,梅州市,梅县新城,,27,NA,28,15,20,85,85,66,66,13,13,8,8,0.5,0.4
2026-04-17T1200,3315A,116.1234,24.2994,梅州市,梅龙,,30,NA,26,15,19,93,93,79,79,10,10,6,7,0.7,0.7
2026-04-17T1200,1878A,104.7775,31.4741,绵阳市,富乐山,,39,39,35,24,21,70,70,30,30,20,14,8,7,0.7,0.6
2026-04-17T1200,1880A,104.6698,31.4668,绵阳市,高新区自来水公司,,47,47,38,19,20,66,66,31,31,16,16,7,7,0.7,0.7
2026-04-17T1200,3491A,104.6899,31.5324,绵阳市,西科大附属小学,,29,29,36,17,18,71,71,33,33,15,19,6,6,0.5,0.5
2026-04-17T1200,3492A,104.5647,31.5343,绵阳市,安州区旅游局,,37,37,32,19,17,62,62,30,30,11,10,6,5,0.4,0.4
2026-04-17T1200,4146A,104.7092,31.4972,绵阳市,科技城新区公安局,,38,38,35,22,17,63,63,33,33,20,14,8,7,0.6,0.5
2026-04-17T1200,4226A,104.765114,31.453094,绵阳市,绵阳市气象局,,45,45,38,23,19,61,61,28,28,20,17,10,10,0.4,0.4
2026-04-17T1200,1784A,129.61,44.561,牡丹江市,环保大楼,细颗粒物(PM2.5),54,44,57,37,38,65,65,63,59,16,16,3,3,0.5,0.5
2026-04-17T1200,1787A,129.6364,44.6075,牡丹江市,机车工厂,细颗粒物(PM2.5),76,59,70,48,42,58,58,48,47,20,19,8,7,0.3,0.7
2026-04-17T1200,1788A,129.6386,44.5462,牡丹江市,第一中学,细颗粒物(PM2.5),54,49,60,37,36,69,69,55,55,12,15,8,7,0.5,0.5
2026-04-17T1200,4287A,129.5992,44.5964,牡丹江市,东晓云街98号,颗粒物(PM10),55,57,67,29,34,64,64,63,56,17,14,4,4,0.4,0.4
2026-04-17T1200,2531A,105.0703,29.61,内江市,市监测站,,32,32,36,10,17,91,91,63,63,8,10,8,8,0.2,0.4
2026-04-17T1200,2533A,105.0657,29.5807,内江市,内江二中,,34,30,44,12,20,107,107,72,72,6,12,7,7,0.2,0.3
2026-04-17T1200,2534A,105.0407,29.5828,内江市,内江日报社,,37,18,37,12,20,116,116,76,76,7,11,6,6,0.3,0.4
2026-04-17T1200,4147A,105.0433,29.6105,内江市,玉峰路西段888号,,35,28,41,13,23,110,110,75,75,10,13,6,5,0.4,0.4
2026-04-17T1200,2628A,92.0653,31.4846,那曲市,那曲监测站,,30,29,38,18,27,94,94,53,53,13,18,13,8,0.5,0.9
2026-04-17T1200,4243A,92.0515,31.4787,那曲市,那曲市委宣传部,NA,NA,22,30,3,19,84,84,43,43,7,13,8,10,NA,0.8
2026-04-17T1200,1291A,115.8887,28.7006,南昌市,省林业公司,,27,27,18,17,14,75,75,47,47,6,15,5,4,0.5,0.5
2026-04-17T1200,1292A,115.813,28.7443,南昌市,林科所,,29,19,15,15,13,90,90,60,60,6,17,8,7,0.7,0.9
2026-04-17T1200,1294A,115.8518,28.687,南昌市,建工学校,,34,34,26,21,14,79,79,51,51,11,19,9,9,0.8,1
2026-04-17T1200,1295A,115.8926,28.6425,南昌市,象湖,,40,NA,16,28,22,79,79,51,51,7,18,8,8,0.9,1.1
2026-04-17T1200,3046A,115.9084,28.6062,南昌市,机电学校,,39,39,30,21,20,85,85,49,49,7,22,5,4,0.7,0.9
2026-04-17T1200,3690A,115.9718,28.7032,南昌市,外国语学校,,36,35,23,25,20,78,78,49,49,10,21,10,8,0.7,0.8
2026-04-17T1200,4106A,115.7923,28.6873,南昌市,工业二路,,32,32,26,17,14,81,81,52,52,9,19,5,5,0.7,0.8
2026-04-17T1200,4192A,115.931587,28.686774,南昌市,南京东路235号,,41,41,28,23,18,83,83,53,53,4,11,6,5,0.5,0.5
2026-04-17T1200,1906A,106.0791,30.8022,南充市,南充市委,,49,49,43,25,21,85,85,65,61,11,12,9,7,0.3,0.3
2026-04-17T1200,1907A,106.1038,30.8215,南充市,南充炼油厂,颗粒物(PM10),53,54,50,25,20,88,88,69,64,10,10,7,5,0.2,0.2
2026-04-17T1200,4227A,106.108336,30.788436,南充市,梨树横街98号,,46,46,43,26,21,94,94,73,70,9,10,8,6,0.2,0.1
2026-04-17T1200,4304A,106.1172,30.843,南充市,清泉寺北路188号,,42,40,47,29,23,89,89,70,64,12,10,7,6,0.4,0.3
2026-04-17T1200,4305A,106.067,30.7616,南充市,同庆路1号,,47,47,44,21,20,89,89,69,64,10,11,9,6,0.2,0.2
2026-04-17T1200,1151A,118.8033,32.1085,南京市,迈皋桥,,47,47,42,27,31,132,132,75,75,9,14,11,5,0.7,0.7
2026-04-17T1200,1152A,118.7487,32.057,南京市,草场门,,41,41,40,24,29,119,119,67,67,18,20,7,4,0.8,0.5
2026-04-17T1200,1154A,118.770105,32.004342,南京市,中华门,颗粒物(PM10),55,56,54,32,32,121,121,65,65,17,18,10,7,1.3,0.8
2026-04-17T1200,1155A,118.8059,32.0329,南京市,瑞金路,NA,NA,58,59,26,33,131,131,69,69,18,17,10,5,NA,0.6
2026-04-17T1200,1156A,118.7946,32.0774,南京市,玄武湖,,40,40,42,26,26,118,118,65,65,8,7,8,5,0.5,0.4
2026-04-17T1200,1157A,118.6415,32.0964,南京市,浦口,,33,33,32,19,28,105,105,65,65,9,18,4,4,0.3,0.4
2026-04-17T1200,1158A,118.730129,32.000956,南京市,奥体中心,,43,43,53,18,28,105,105,57,57,14,20,7,7,0.4,0.4
2026-04-17T1200,1159A,118.9072,32.1047,南京市,仙林大学城,,39,39,51,20,31,114,114,61,61,14,20,8,8,0.6,0.6
2026-04-17T1200,3422A,118.8443,31.919,南京市,江宁彩虹桥,,50,50,41,24,28,128,128,80,80,17,21,3,4,0.7,0.7
2026-04-17T1200,3427A,118.8497,32.3599,南京市,六合雄州,,42,38,53,29,35,104,104,56,56,16,28,4,4,0.8,0.8
2026-04-17T1200,4086A,118.7641,32.0841,南京市,新模范马路66号,,48,48,49,22,27,124,124,68,68,14,15,3,4,0.8,0.5
2026-04-17T1200,4249A,118.8707617,31.34017673,南京市,汶溪路181号,颗粒物(PM10),53,53,37,35,31,140,140,73,73,12,18,5,5,0.7,0.6
2026-04-17T1200,4312A,119.019,31.6512,南京市,中山西路1号,细颗粒物(PM2.5),54,46,47,37,33,104,104,62,62,15,16,4,4,0.8,0.6
2026-04-17T1200,1401A,108.3098,22.788,南宁市,二十一中,,27,14,38,11,26,84,84,68,68,16,12,1,4,0.6,0.5
2026-04-17T1200,1402A,108.3135,22.8529,南宁市,北湖,,27,15,38,14,29,85,85,84,84,17,11,1,3,0.8,0.7
2026-04-17T1200,1403A,108.3205,22.8222,南宁市,市监测站,,28,15,41,12,25,87,87,77,77,18,10,1,3,0.5,0.5
2026-04-17T1200,1404A,108.3828,22.8038,南宁市,大自然花园,,26,12,39,11,25,81,81,74,74,16,11,4,6,0.8,0.8
2026-04-17T1200,1406A,108.2397,22.8462,南宁市,区农职院,NA,NA,NA,40,NA,22,55,55,67,67,19,11,4,4,NA,0.5
2026-04-17T1200,1407A,108.3285,22.7356,南宁市,英华嘉园,,25,17,45,14,26,78,78,69,69,20,14,3,5,0.5,0.5
2026-04-17T1200,3401A,108.4829,22.762,南宁市,红星社区,,30,22,43,9,25,94,94,75,75,9,10,4,5,0.6,0.7
2026-04-17T1200,4132A,108.2927,23.1477,南宁市,起凤路9号,,25,25,42,16,27,71,71,84,83,12,9,6,5,0.6,0.6
2026-04-17T1200,4221A,108.2177,22.7774,南宁市,乐贤路16号,,26,23,41,18,25,62,62,59,59,26,16,8,8,0.6,0.6
2026-04-17T1200,2332A,118.1682,26.6371,南平市,南平市监测站,,24,24,19,15,12,63,63,30,30,8,9,7,4,0.7,0.6
2026-04-17T1200,2334A,118.1757,26.6276,南平市,南平七中,NA,NA,NA,18,15,10,57,57,27,27,NA,7,4,2,0.7,0.6
2026-04-17T1200,1168A,120.9056,31.9669,南通市,狼山街道,细颗粒物(PM2.5),62,43,32,41,17,85,85,63,62,15,15,4,4,0.6,0.4
2026-04-17T1200,1170A,120.8635,32.0231,南通市,城中,细颗粒物(PM2.5),68,67,43,44,17,84,84,65,60,10,15,4,4,0.5,0.3
2026-04-17T1200,1171A,120.9376,31.9301,南通市,星湖花园,细颗粒物(PM2.5),70,68,35,45,20,59,59,61,51,43,21,4,4,0.6,0.5
2026-04-17T1200,1172A,120.8053,32.046,南通市,紫琅学院,细颗粒物(PM2.5),78,59,31,49,17,95,95,69,66,18,20,4,5,0.8,0.7
2026-04-17T1200,3291A,121.0631,32.0644,南通市,通州监测站,NA,NA,61,40,NA,14,74,74,74,64,10,9,3,3,0.7,0.5
2026-04-17T1200,3432A,120.9348,31.9874,南通市,环境教育馆,细颗粒物(PM2.5),68,56,37,44,18,85,85,56,56,14,20,5,4,0.6,0.5
2026-04-17T1200,4091A,120.8692,31.9885,南通市,洪江路,细颗粒物(PM2.5),64,56,38,42,18,85,85,68,62,12,17,5,5,1.0,0.8
2026-04-17T1200,2404A,112.5338,33.0086,南阳市,瓦房庄,颗粒物(PM10),58,60,55,7,32,109,109,41,41,16,27,5,5,0.4,0.7
2026-04-17T1200,2405A,112.5002,32.9734,南阳市,汉画馆,颗粒物(PM10),68,74,58,11,28,97,97,30,30,26,30,7,7,0.6,0.7
2026-04-17T1200,2406A,112.5778,33.0144,南阳市,气象站,颗粒物(PM10),63,67,55,13,30,105,105,43,43,12,27,4,5,0.4,0.6
2026-04-17T1200,2407A,112.548,32.9687,南阳市,理工学院,颗粒物(PM10),53,54,54,9,32,109,109,33,33,12,27,6,6,0.4,0.6
2026-04-17T1200,4008A,112.5233,32.9921,南阳市,卧龙区政府,NA,NA,NA,47,11,31,109,109,42,42,23,29,8,7,0.5,0.7
2026-04-17T1200,1234A,121.8352,29.9111,宁波市,区环保大楼,NA,NA,42,39,18,22,102,102,62,61,15,34,NA,6,0.5,0.5
2026-04-17T1200,1235A,121.5595,29.8208,宁波市,万里学院,细颗粒物(PM2.5),66,NA,33,43,25,86,86,55,54,11,13,8,8,0.8,0.6
2026-04-17T1200,1236A,121.713,29.9564,宁波市,龙赛医院,,34,34,43,21,23,96,96,64,58,17,23,6,6,0.5,0.4
2026-04-17T1200,1240A,121.5855,29.8635,宁波市,太古小学,细颗粒物(PM2.5),72,59,37,46,24,89,89,66,60,15,16,4,4,0.7,0.6
2026-04-17T1200,1241A,121.5239,29.8673,宁波市,市环境监测中心,细颗粒物(PM2.5),78,NA,35,49,29,98,98,60,56,13,18,4,4,0.6,0.5
2026-04-17T1200,2871A,121.6156,29.9015,宁波市,万里国际学校,,46,34,35,32,26,110,110,67,64,15,17,4,5,0.6,0.5
2026-04-17T1200,3710A,121.5593,29.8976,宁波市,白沙活动中心,,46,NA,24,32,22,96,96,69,60,13,15,6,5,0.6,0.5
2026-04-17T1200,4095A,121.8962,29.7529,宁波市,中科路88号,,43,32,32,30,23,91,91,89,72,17,20,8,7,0.6,0.5
2026-04-17T1200,2341A,119.5387,26.6611,宁德市,宁德市监测站,,42,42,24,21,17,63,63,27,27,23,28,8,7,1.0,0.8
2026-04-17T1200,3209A,119.5231,26.6562,宁德市,宁德一中,,38,NA,25,26,17,66,66,31,31,19,18,6,6,0.9,0.7
2026-04-17T1200,2618A,98.859,25.8541,怒江傈僳族自治州,州监测站,,29,29,28,18,19,75,75,57,57,9,10,6,6,0.2,0.2
2026-04-17T1200,2619A,98.8607,25.8168,怒江傈僳族自治州,泸水一中,,39,39,30,18,23,70,70,46,41,9,18,5,6,0.4,0.5
2026-04-17T1200,1888A,101.6891,26.571,攀枝花市,弄弄坪,,38,37,39,16,21,120,120,89,89,8,13,9,13,0.4,0.6
2026-04-17T1200,1889A,101.577,26.5914,攀枝花市,河门口,,43,43,56,24,34,125,125,66,66,10,16,10,13,0.9,0.7
2026-04-17T1200,1891A,101.7365,26.4986,攀枝花市,仁和,NA,NA,NA,NA,NA,NA,NA,NA,NA,NA,NA,NA,NA,NA,NA,NA
2026-04-17T1200,2835A,101.7222,26.567,攀枝花市,四十中小,,36,32,43,14,20,114,114,94,94,7,13,7,10,0.6,0.7
2026-04-17T1200,1604A,122.0303,41.1489,盘锦市,开发区,,46,32,52,21,56,147,147,126,126,6,12,6,7,0.3,0.4
2026-04-17T1200,1605A,122.0486,41.0883,盘锦市,兴隆台,,42,19,40,18,56,134,134,111,111,4,13,9,9,0.4,0.5
2026-04-17T1200,1606A,121.8297,41.1026,盘锦市,新生街道,,47,NA,43,29,71,148,148,131,131,6,19,5,7,0.4,0.5
2026-04-17T1200,1832A,113.3257,33.7423,平顶山市,新华旅馆,颗粒物(PM10),68,74,72,17,29,119,119,66,66,12,24,8,6,0.5,0.6
2026-04-17T1200,1833A,113.2917,33.737,平顶山市,规划设计院,颗粒物(PM10),65,71,59,15,28,116,116,60,60,8,21,11,8,0.4,0.5
2026-04-17T1200,1834A,113.182,33.7738,平顶山市,平顶山工学院,颗粒物(PM10),55,56,48,13,23,110,110,66,66,11,15,11,9,0.5,0.6
2026-04-17T1200,3594A,112.8736,33.9068,平顶山市,石龙区,,44,44,65,3,23,109,109,70,70,3,23,8,8,0.3,0.5
2026-04-17T1200,4116A,113.284,33.7139,平顶山市,姚电大道23号,颗粒物(PM10),62,66,55,12,27,117,117,58,58,13,25,10,7,0.4,0.5
2026-04-17T1200,2656A,106.6633,35.5338,平凉市,聚贤嘉苑,,45,45,50,16,18,98,98,64,64,12,19,6,6,0.3,0.3
2026-04-17T1200,2657A,106.7021,35.5307,平凉市,博物馆,颗粒物(PM10),56,58,51,18,17,100,100,61,61,11,17,11,8,0.3,0.3
2026-04-17T1200,2348A,113.8384,27.6436,萍乡市,中医院,,43,38,35,30,24,56,56,22,22,18,20,10,10,1.3,1.2
2026-04-17T1200,2350A,113.8677,27.6438,萍乡市,市环保局,NA,NA,47,34,NA,26,55,55,23,23,22,20,8,7,1.1,0.9
2026-04-17T1200,2351A,113.8663,27.6202,萍乡市,安源区政府,细颗粒物(PM2.5),52,44,29,36,20,49,49,17,17,13,11,11,7,1.6,0.7
2026-04-17T1200,4107A,113.8686,27.6668,萍乡市,联洪村委会,,36,34,35,25,21,49,49,22,22,17,20,4,4,0.7,0.7
2026-04-17T1200,2319A,119.0142,25.4324,莆田市,荔城区仓后路,NA,NA,NA,31,50,26,70,70,46,36,19,17,/,/,/,/
2026-04-17T1200,2320A,119.0016,25.4553,莆田市,莆田市监测站,细颗粒物(PM2.5),52,51,30,36,22,78,78,42,38,21,15,3,2,0.6,0.6
2026-04-17T1200,2321A,119.112,25.4561,莆田市,涵江区六中,,40,36,31,28,27,93,93,45,41,16,20,/,/,0.9,1
2026-04-17T1200,2322A,119.1014,25.3215,莆田市,秀屿区政府,,49,41,31,34,27,98,98,61,52,9,10,4,3,0.6,0.7
2026-04-17T1200,2392A,115.0312,35.7636,濮阳市,环保局,细颗粒物(PM2.5),60,59,65,40,57,114,114,57,57,8,19,4,3,0.7,0.8
2026-04-17T1200,3021A,115,35.7667,濮阳市,濮水河管理处,颗粒物(PM10),80,91,73,45,54,115,115,50,50,18,23,6,4,0.8,0.8
2026-04-17T1200,4118A,115.0552,35.7816,濮阳市,中原东路68号,颗粒物(PM10),77,87,98,34,55,125,125,60,60,9,18,5,4,0.7,0.7
2026-04-17T1200,4216A,115.0923632,35.76857718,濮阳市,任丘路479号,颗粒物(PM10),69,76,101,44,66,123,123,58,58,10,19,5,6,0.6,0.8
2026-04-17T1200,2601A,100.9801,22.7634,普洱市,市环保局,颗粒物(PM10),93,109,107,48,55,144,144,82,82,8,13,5,4,0.9,1
2026-04-17T1200,2602A,100.9763,22.8237,普洱市,普洱第二中学,颗粒物(PM10),90,105,103,50,61,139,139,70,70,10,25,7,6,0.6,0.8
2026-04-17T1200,3345A,131.0413,45.7795,七台河市,中波台,,49,35,65,34,42,78,78,61,57,15,18,6,5,0.6,0.5
2026-04-17T1200,3637A,131.0136,45.7688,七台河市,人民广场,,48,48,70,28,43,84,84,58,58,14,24,13,12,0.8,0.8
2026-04-17T1200,3684A,130.8639,45.8144,七台河市,新建矿广场,,39,39,72,3,42,66,66,34,NA,15,20,15,11,0.0,0.6
2026-04-17T1200,1779A,123.9307,47.3641,齐齐哈尔市,安居小区,,43,43,49,28,21,80,80,63,63,17,20,7,6,0.5,0.4
2026-04-17T1200,1780A,123.9497,47.3389,齐齐哈尔市,中心广场,颗粒物(PM10),55,57,57,24,25,71,71,59,59,18,23,6,6,0.4,0.4
2026-04-17T1200,1781A,123.9483,47.3229,齐齐哈尔市,农牧车辆厂,颗粒物(PM10),51,51,51,25,25,78,78,66,66,18,19,5,5,0.4,0.5
2026-04-17T1200,1783A,123.9442,47.2994,齐齐哈尔市,市环境监测站,颗粒物(PM10),51,51,53,28,28,73,73,61,61,17,19,3,4,0.6,0.6
2026-04-17T1200,3662A,123.6341,47.2079,齐齐哈尔市,富区青少年活动中心,,37,37,52,16,21,55,55,54,54,23,14,5,4,0.9,0.6
2026-04-17T1200,2591A,107.9765,26.5724,黔东南苗族侗族自治州,市环境监测站,NA,NA,NA,19,NA,12,65,65,46,46,6,8,NA,3,0.6,0.7
2026-04-17T1200,2881A,107.8909,26.531,黔东南苗族侗族自治州,凯里学院,,24,NA,16,14,12,76,76,57,57,4,9,2,2,0.5,0.5
2026-04-17T1200,2593A,107.5223,26.2371,黔南布依族苗族自治州,小围寨,,30,NA,13,21,11,63,63,40,40,5,6,6,6,0.4,0.4
2026-04-17T1200,3538A,107.5175,26.2977,黔南布依族苗族自治州,沙坝,,22,22,19,11,12,60,60,42,42,5,7,4,4,0.7,0.7
2026-04-17T1200,2589A,104.9022,25.0943,黔西南布依族苗族自治州,场坝街,,30,16,45,14,35,94,94,77,75,9,10,7,8,0.4,0.5
2026-04-17T1200,2590A,104.8812,25.0994,黔西南布依族苗族自治州,坪东大道,,29,NA,48,18,40,90,90,71,70,7,10,4,5,0.4,0.5
2026-04-17T1200,2502A,108.6238,21.9667,钦州市,市环保站,,40,NA,41,28,22,79,79,40,40,16,12,3,5,1.4,0.6
2026-04-17T1200,2503A,108.655,21.9481,钦州市,沙埠小学,,30,NA,43,21,25,86,86,40,40,8,14,1,5,0.8,0.9
2026-04-17T1200,2504A,108.5989,21.7435,钦州市,港区一小,NA,NA,NA,52,NA,26,22,22,28,24,26,17,NA,5,0.5,0.6
2026-04-17T1200,3404A,108.5959,21.9634,钦州市,北职校,,34,34,40,21,22,83,83,39,39,8,10,1,3,0.9,0.5
2026-04-17T1200,1046A,119.5247,39.9346,秦皇岛市,建设大厦,细颗粒物(PM2.5),54,50,61,37,34,104,104,106,106,17,23,6,6,0.4,0.4
2026-04-17T1200,3132A,119.5979,39.938,秦皇岛市,文明里,,50,50,62,34,34,106,106,107,107,18,33,8,9,0.3,0.4
2026-04-17T1200,4066A,119.7458,39.9952,秦皇岛市,南园路157号,NA,NA,52,57,34,37,94,94,97,95,NA,26,7,8,0.3,0.3
2026-04-17T1200,4067A,119.5131,39.8858,秦皇岛市,翠岛大街1号,细颗粒物(PM2.5),52,45,50,36,30,105,105,107,107,16,25,8,8,0.3,0.4
2026-04-17T1200,4198A,119.509013,39.825305,秦皇岛市,北戴河轮滑馆,颗粒物(PM10),55,56,48,31,27,108,108,111,111,17,20,8,8,0.3,0.4
2026-04-17T1200,1310A,120.404,36.0625,青岛市,市南区东部子站,NA,NA,31,53,NA,31,NA,NA,88,65,11,16,6,6,NA,0.4
2026-04-17T1200,1311A,120.362344,36.10282,青岛市,四方区子站,,36,36,50,21,33,114,114,102,87,11,16,6,6,0.6,0.6
2026-04-17T1200,1312A,120.294373,36.054183,青岛市,市南区西部子站,,41,41,53,10,27,79,79,92,65,23,25,5,4,0.5,0.6
2026-04-17T1200,1313A,120.4581,36.0858,青岛市,崂山区子站,,48,48,52,9,32,81,81,98,76,15,17,10,9,0.3,0.4
2026-04-17T1200,1315A,120.3945,36.3083,青岛市,城阳区子站,NA,NA,56,52,33,29,112,112,98,86,NA,18,6,6,0.7,0.7
2026-04-17T1200,3642A,120.3454,36.0735,青岛市,市北区南部,,36,36,46,13,26,112,112,100,83,3,12,2,3,0.6,0.6
2026-04-17T1200,3643A,120.3897,36.18,青岛市,李沧区北部,,48,48,52,30,27,94,94,92,78,16,17,9,9,0.5,0.5
2026-04-17T1200,4110A,120.5222,36.4089,青岛市,盟旺路653号,,46,NA,49,32,31,112,112,96,92,16,10,4,4,0.7,0.7
2026-04-17T1200,4290A,120.196923,35.954556,青岛市,珠江路669号,,34,31,62,15,22,108,108,97,84,7,19,5,5,0.6,0.7
2026-04-17T1200,4291A,120.0424,35.8656,青岛市,黄岛区人民政府广场,,31,31,51,8,26,92,92,107,89,11,19,8,9,0.5,0.6
2026-04-17T1200,1703A,113.0218,23.7086,清远市,凤城街办,,24,20,30,11,17,76,76,81,81,22,23,/,/,/,/
2026-04-17T1200,3025A,113.0479,23.6343,清远市,技师学院,,24,20,30,11,16,75,75,82,82,23,22,4,5,0.6,0.5
2026-04-17T1200,3318A,112.9898,23.7403,清远市,清新太和,,24,18,29,9,18,75,75,85,85,19,21,7,7,0.6,0.6
2026-04-17T1200,3455A,113.076,23.72,清远市,清城东城,,24,18,30,9,16,75,75,84,84,16,17,/,/,/,/
2026-04-17T1200,2661A,107.6325,35.7357,庆阳市,庆阳五中,颗粒物(PM10),60,64,55,20,20,105,105,89,88,10,14,4,2,0.2,0.2
2026-04-17T1200,2662A,107.6361,35.7067,庆阳市,市环保局,颗粒物(PM10),52,52,50,20,18,108,108,94,90,10,12,7,5,0.3,0.3
2026-04-17T1200,1916A,103.7897,25.5036,曲靖市,环境监测站,,31,24,49,14,32,99,99,71,71,10,14,10,9,0.7,0.7
2026-04-17T1200,1917A,103.8013,25.5357,曲靖市,烟厂办公区,,27,23,46,10,26,85,85,67,67,8,11,9,9,0.6,0.6
2026-04-17T1200,3376A,103.7926,25.4651,曲靖市,南苑二区,NA,NA,NA,49,NA,32,NA,NA,148,70,NA,11,NA,4,NA,0.6
2026-04-17T1200,3377A,103.7442,25.5259,曲靖市,曲靖师范学院,,31,16,45,8,32,97,97,71,71,10,18,8,7,0.5,0.5
2026-04-17T1200,1264A,118.8694,28.94,衢州市,环保大楼,,24,15,38,11,28,76,76,37,37,10,22,/,/,/,/
2026-04-17T1200,1266A,118.8622,28.9809,衢州市,衢州学院,,23,14,31,11,27,72,72,33,33,14,32,6,6,0.5,0.5
2026-04-17T1200,4097A,118.9646,28.9832,衢州市,衢州三中,,25,22,40,17,30,68,68,NA,NA,12,27,8,7,0.7,0.6
2026-04-17T1200,1611A,118.5818,24.9116,泉州市,涂山街,细颗粒物(PM2.5),106,96,39,66,32,72,72,46,41,37,21,7,3,1.1,0.9
2026-04-17T1200,1612A,118.597,24.8976,泉州市,津头埔,细颗粒物(PM2.5),106,90,41,66,36,63,63,45,34,32,20,6,3,1.0,0.8
2026-04-17T1200,1613A,118.6669,24.9422,泉州市,万安,细颗粒物(PM2.5),74,64,37,47,34,66,66,42,35,24,17,3,3,0.9,0.7
2026-04-17T1200,4105A,118.6355,24.9148,泉州市,霞新路6号,细颗粒物(PM2.5),104,67,37,64,33,71,71,36,30,29,23,/,/,0.9,0.7
2026-04-17T1200,2626A,88.8873,29.2723,日喀则市,日喀则监测站,,32,23,24,14,11,102,102,89,79,6,7,11,10,0.5,0.5
2026-04-17T1200,3726A,88.8775,29.2425,日喀则市,林业技术推广中心,,33,25,24,12,7,103,103,92,91,5,5,9,9,0.5,0.4
2026-04-17T1200,1659A,119.4711,35.421,日照市,监测站,颗粒物(PM10),55,56,44,22,32,100,100,91,82,24,25,8,9,0.5,0.6
2026-04-17T1200,1660A,119.523,35.4216,日照市,市政府广场,颗粒物(PM10),53,53,51,33,33,117,117,94,93,11,22,6,7,0.7,0.6
2026-04-17T1200,1661A,119.5511,35.4113,日照市,港务局,,39,39,45,12,23,104,104,93,86,9,25,5,6,0.5,0.6
2026-04-17T1200,3507A,119.5326,35.4627,日照市,职业技术学院,,44,44,47,24,30,120,120,99,98,16,24,8,8,0.7,0.6
2026-04-17T1200,3604A,119.3267,35.1043,日照市,岚山环保分局,颗粒物(PM10),80,92,60,39,34,110,110,72,72,22,26,18,11,1.4,0.7
2026-04-17T1200,1835A,111.1922,34.7752,三门峡市,市政府,颗粒物(PM10),66,72,67,12,23,98,98,40,40,12,28,13,10,0.4,0.4
2026-04-17T1200,1836A,111.1588,34.794,三门峡市,开发区,颗粒物(PM10),56,58,58,13,27,89,89,41,41,13,21,20,11,0.4,0.4
2026-04-17T1200,3039A,111.1911,34.7829,三门峡市,三门峡市第一小学,颗粒物(PM10),90,105,79,25,25,101,101,45,45,12,23,18,15,0.3,0.4
2026-04-17T1200,3598A,111.1031,34.719,三门峡市,富达温泉假日酒店,颗粒物(PM10),73,82,83,34,24,66,66,29,29,29,21,36,18,0.7,0.5
2026-04-17T1200,2324A,117.621,26.2626,三明市,三钢,,21,17,31,10,21,66,66,35,35,8,18,4,8,0.6,1.1
2026-04-17T1200,2325A,117.6352,26.2714,三明市,三明二中,,20,15,29,10,20,63,63,34,34,6,15,3,4,0.6,0.9
2026-04-17T1200,2326A,117.6028,26.2377,三明市,三元区政府,,23,21,30,11,23,71,71,32,32,6,16,6,7,0.8,0.9
2026-04-17T1200,1877A,109.4962,18.2682,三亚市,河西子站,,21,21,20,14,13,62,62,48,48,5,4,4,4,0.4,0.3
2026-04-17T1200,3540A,109.7348,18.3443,三亚市,君悦子站,NA,NA,NA,22,NA,12,NA,NA,36,36,3,5,NA,3,0.5,0.4
2026-04-17T1200,4135A,109.1714,18.3739,三亚市,城东小学站,,26,26,23,10,12,64,64,46,46,3,6,/,/,/,/
2026-04-17T1200,2624A,91.7592,29.234,山南市,山南监测站,,35,19,16,3,5,109,109,95,90,3,4,12,12,0.2,0.2
2026-04-17T1200,2625A,91.7701,29.2436,山南市,山南人民医院,,33,15,16,3,6,105,105,90,88,3,3,9,9,0.2,0.2
2026-04-17T1200,1674A,116.6795,23.3666,汕头市,金平子站,,47,47,24,16,17,91,91,77,77,16,11,5,5,0.8,0.8
2026-04-17T1200,1675A,116.7248,23.3632,汕头市,龙湖子站,,43,43,26,20,18,88,88,69,69,16,7,7,6,/,/
2026-04-17T1200,1676A,116.7257,23.2774,汕头市,濠江子站,,43,43,26,22,18,85,85,53,53,20,14,10,8,/,/
2026-04-17T1200,1677A,116.7518,23.4712,汕头市,澄海子站,,48,48,32,16,20,94,94,70,69,18,11,7,7,0.9,0.8
2026-04-17T1200,1678A,116.6088,23.2539,汕头市,潮阳子站,"颗粒物(PM10),细颗粒物(PM2.5)",52,52,26,36,21,68,68,44,44,16,9,6,7,0.8,0.7
2026-04-17T1200,3444A,116.4539,23.2684,汕头市,潮南峡山,,25,6,29,3,18,80,80,47,47,6,8,6,7,0.7,0.6
2026-04-17T1200,3624A,116.4069,23.2533,汕头市,潮南子站,,22,15,29,6,15,68,68,40,40,8,5,5,6,/,/
2026-04-17T1200,1693A,115.3653,22.7751,汕尾市,市环保局,,22,18,16,15,14,54,54,45,41,9,5,6,5,0.5,0.4
2026-04-17T1200,1695A,115.362,22.7926,汕尾市,新城中学,NA,NA,35,14,13,11,62,62,43,43,10,8,7,6,NA,0.2
2026-04-17T1200,2645A,109.9155,33.8714,商洛市,监测站,NA,NA,47,56,19,22,110,110,54,54,NA,17,6,9,NA,0.4
2026-04-17T1200,3045A,109.9647,33.8486,商洛市,商州区中学,,43,43,69,16,23,110,110,54,54,10,18,6,5,0.3,0.4
2026-04-17T1200,2408A,115.6701,34.4283,商丘市,环境监测站,细颗粒物(PM2.5),82,78,88,51,61,134,134,63,63,6,17,3,4,0.6,0.6
2026-04-17T1200,2409A,115.6458,34.4047,商丘市,粮食局,细颗粒物(PM2.5),92,64,70,56,65,128,128,79,79,12,19,5,6,0.5,0.6
2026-04-17T1200,3171A,115.6069,34.4465,商丘市,梁园区档案局,细颗粒物(PM2.5),70,56,78,45,64,132,132,88,88,10,17,5,5,0.5,0.6
2026-04-17T1200,4119A,115.6701,34.3767,商丘市,北海东路185号,颗粒物(PM10),57,59,81,34,57,131,131,66,66,6,23,6,6,0.5,0.5
2026-04-17T1200,4120A,115.6172,34.3704,商丘市,中山大街3号,NA,NA,78,92,NA,59,125,125,63,63,7,20,7,8,0.4,0.5
2026-04-17T1200,1141A,121.401,31.2382,上海市,普陀,颗粒物(PM10),55,56,37,37,25,87,87,77,66,29,22,6,5,0.8,0.4
2026-04-17T1200,1142A,121.4774,31.2043,上海市,十五厂,细颗粒物(PM2.5),62,58,40,41,26,90,90,82,72,30,25,5,5,0.8,0.5
2026-04-17T1200,1143A,121.4673,31.3011,上海市,虹口,细颗粒物(PM2.5),86,63,39,53,27,73,73,68,58,26,21,4,4,0.8,0.5
2026-04-17T1200,1147A,121.4253,31.226,上海市,静安监测站,细颗粒物(PM2.5),66,63,36,43,23,89,89,81,70,28,23,8,8,1.0,0.7
2026-04-17T1200,1148A,121.7029,31.1905,上海市,浦东川沙,细颗粒物(PM2.5),70,69,38,45,23,66,66,64,58,41,33,8,8,0.9,0.6
2026-04-17T1200,1149A,121.5339,31.229,上海市,浦东新区监测站,细颗粒物(PM2.5),70,61,35,45,22,70,70,77,66,29,20,6,5,0.7,0.5
2026-04-17T1200,1150A,121.5776,31.2038,上海市,浦东张江,细颗粒物(PM2.5),60,54,34,40,21,80,80,76,68,32,25,7,6,0.5,0.2
2026-04-17T1200,3265A,121.4242,31.3303,上海市,宝山庙行,细颗粒物(PM2.5),70,70,42,45,26,75,75,56,50,27,27,6,6,0.6,0.4
2026-04-17T1200,3266A,121.8789,31.4662,上海市,崇明上实东滩,细颗粒物(PM2.5),66,54,31,43,18,83,83,72,72,6,9,6,5,0.2,0.2
2026-04-17T1200,3268A,121.316,31.2839,上海市,嘉定南翔,细颗粒物(PM2.5),56,51,35,38,24,81,81,54,54,13,15,4,4,0.8,0.5
2026-04-17T1200,3269A,121.3357,30.7455,上海市,金山新城,细颗粒物(PM2.5),60,46,32,40,24,105,105,83,78,9,10,4,4,0.7,0.6
2026-04-17T1200,3270A,121.4996,31.0741,上海市,闵行浦江,,47,47,36,32,24,88,88,61,60,24,21,6,6,0.6,0.3
2026-04-17T1200,3271A,121.2886,31.1663,上海市,青浦徐泾,细颗粒物(PM2.5),56,50,36,38,24,98,98,71,71,20,18,6,5,0.8,0.5
2026-04-17T1200,3272A,121.2193,31.0382,上海市,松江图书馆,细颗粒物(PM2.5),80,70,40,50,27,96,96,84,81,9,11,7,7,0.8,0.6
2026-04-17T1200,3273A,121.3904,31.206,上海市,长宁仙霞,细颗粒物(PM2.5),62,55,36,41,23,85,85,68,63,25,20,6,5,0.6,0.3
2026-04-17T1200,3274A,121.7964,31.0507,上海市,浦东惠南,细颗粒物(PM2.5),60,49,32,40,23,71,71,65,60,29,19,6,6,0.9,0.7
