timepoint,stationcode,longitude,latitude,area,positionname,primarypollutant,aqi,pm10,pm10_24h,pm2_5,pm2_5_24h,o3,o3_24h,o3_8h,o3_8h_24h,no2,no2_24h,so2,so2_24h,co,co_24h
2026-04-17T1900,2568A,102.2503,31.8896,阿坝藏族羌族自治州,马师校,,31,31,25,11,11,99,99,114,114,8,5,6,6,0.3,0.3
2026-04-17T1900,3994A,102.2174,31.9016,阿坝藏族羌族自治州,马尔康中学西区,,31,25,20,12,14,99,99,105,105,5,6,3,3,0.2,0.2
2026-04-17T1900,2695A,80.2899,41.1684,阿克苏地区,电视台,NA,NA,NA,100,39,45,NA,NA,71,NA,14,28,5,3,0.6,0.7
2026-04-17T1900,2696A,80.2592,41.1541,阿克苏地区,艺术中心,颗粒物(PM10),67,73,104,33,40,71,71,76,76,43,43,4,4,0.6,0.7
2026-04-17T1900,2205A,105.699,38.8409,阿拉善盟,蒙二幼,,42,39,43,8,6,133,133,130,130,7,5,10,10,0.3,0.3
2026-04-17T1900,2206A,105.7198,38.8508,阿拉善盟,环保局新楼,,41,39,41,20,14,130,130,124,124,6,5,9,8,0.5,0.5
2026-04-17T1900,2708A,88.1266,47.8515,阿勒泰地区,市站,,23,17,20,12,3,73,73,83,71,9,6,6,6,0.2,0.3
2026-04-17T1900,4166A,88.1198,47.7931,阿勒泰地区,阿勒泰路33号,,24,18,22,3,3,76,76,83,73,7,7,6,6,0.2,0.2
2026-04-17T1900,2630A,80.1171,32.4999,阿里地区,阿里监测站,,45,45,22,17,9,108,108,110,110,6,6,5,6,0.4,0.4
2026-04-17T1900,3192A,80.0906,32.5029,阿里地区,阿里藏医院,NA,NA,46,21,3,4,110,110,111,111,NA,2,6,7,0.4,0.4
2026-04-17T1900,2644A,109.0088,32.6974,安康市,汉滨区检察院,颗粒物(PM10),60,64,45,24,18,105,105,109,109,14,9,7,6,0.4,0.4
2026-04-17T1900,4054A,109.0324,32.6913,安康市,市邮政管理局,颗粒物(PM10),78,88,54,38,21,98,98,108,108,19,12,7,8,0.8,0.6
2026-04-17T1900,2291A,117.0806,30.5181,安庆市,环科院,,39,39,32,19,28,110,110,122,122,14,17,6,6,0.6,0.7
2026-04-17T1900,2292A,117.0331,30.5118,安庆市,马山宾馆,,43,43,32,21,31,95,95,115,115,17,13,4,5,0.5,0.7
2026-04-17T1900,2294A,116.9897,30.6146,安庆市,安庆大学,,46,46,31,25,24,110,110,119,119,14,13,3,3,0.5,0.6
2026-04-17T1900,3173A,117.0598,30.5351,安庆市,市人大,,38,38,32,20,27,106,106,122,122,13,13,3,6,0.6,0.7
2026-04-17T1900,3123A,105.9408,26.2431,安顺市,凤凰山,,33,13,15,9,14,105,105,100,100,9,8,6,7,0.5,0.5
2026-04-17T1900,3124A,105.9443,26.2567,安顺市,金钟山,,30,NA,13,16,12,95,95,93,93,7,6,8,6,0.5,0.5
2026-04-17T1900,3125A,105.8983,26.248,安顺市,娄家坡,NA,NA,NA,16,20,15,98,98,94,94,9,7,NA,26,0.5,0.5
2026-04-17T1900,1819A,114.3552,36.1017,安阳市,红庙街,颗粒物(PM10),81,93,68,33,65,138,138,132,132,17,15,7,4,0.4,0.4
2026-04-17T1900,1820A,114.361,36.0681,安阳市,银杏小区,NA,NA,95,72,39,70,NA,NA,135,135,13,17,7,5,0.3,0.5
2026-04-17T1900,3141A,114.3921,36.0879,安阳市,信访局,颗粒物(PM10),78,89,65,38,65,143,143,138,138,14,13,4,3,0.5,0.6
2026-04-17T1900,3669A,114.4706,36.0634,安阳市,左辅环卫站,颗粒物(PM10),74,83,80,40,46,107,107,117,117,18,16,1,2,0.5,0.5
2026-04-17T1900,4117A,114.2918,36.0769,安阳市,钢三路198号,细颗粒物(PM2.5),70,51,58,45,62,137,137,132,132,14,12,6,2,0.4,0.5
2026-04-17T1900,1748A,123.0441,41.1201,鞍山市,深沟寺,颗粒物(PM10),52,52,60,31,35,121,121,131,131,22,20,13,13,0.8,0.9
2026-04-17T1900,1749A,123.011,41.0931,鞍山市,太阳城,"颗粒物(PM10),细颗粒物(PM2.5)",60,64,65,40,39,113,113,124,124,16,13,11,9,0.9,0.9
2026-04-17T1900,1750A,123.0483,41.1445,鞍山市,太平,颗粒物(PM10),60,63,68,35,39,116,116,124,124,18,16,13,12,0.7,0.9
2026-04-17T1900,1751A,122.964,41.0968,鞍山市,铁西三道街,颗粒物(PM10),57,59,76,37,42,111,111,121,121,20,18,10,8,0.8,0.9
2026-04-17T1900,1753A,123.0219,41.0822,鞍山市,明达新区,颗粒物(PM10),53,54,61,31,36,116,116,124,124,17,16,11,10,0.6,0.8
2026-04-17T1900,4201A,122.944647,41.082639,鞍山市,兴盛南路290号,细颗粒物(PM2.5),64,66,77,42,43,115,115,126,125,20,20,11,10,0.7,0.8
2026-04-17T1900,2195A,107.4206,40.7609,巴彦淖尔市,附二中,颗粒物(PM10),56,58,88,34,32,136,136,127,127,9,7,12,11,0.4,0.4
2026-04-17T1900,2196A,107.37,40.7372,巴彦淖尔市,市环保大楼,颗粒物(PM10),55,57,82,19,23,139,139,130,130,8,8,9,7,0.4,0.3
2026-04-17T1900,1956A,86.1476,41.7529,巴音郭楞蒙古自治州,孔雀公园,颗粒物(PM10),100,120,123,28,49,104,104,99,99,2,42,11,10,0.1,0.3
2026-04-17T1900,1957A,86.1971,41.7166,巴音郭楞蒙古自治州,棉纺厂,颗粒物(PM10),103,127,145,20,46,107,107,106,106,2,28,/,/,/,/
2026-04-17T1900,1958A,86.236,41.7172,巴音郭楞蒙古自治州,经济开发区,颗粒物(PM10),101,121,117,38,44,95,95,98,97,7,10,8,8,0.3,0.2
2026-04-17T1900,3181A,106.776805,31.852614,巴中市,市五中,,45,45,44,18,23,110,110,105,105,11,16,9,9,0.4,0.6
2026-04-17T1900,3183A,106.7419,31.8654,巴中市,圣泉水务公司,,39,39,39,19,20,116,116,110,110,8,16,9,9,0.4,0.5
2026-04-17T1900,3616A,106.7617,31.8343,巴中市,市中心医院,,40,40,43,18,21,107,107,107,107,10,12,8,9,0.4,0.4
2026-04-17T1900,2235A,122.7909,45.608,白城市,洮北区环保局,细颗粒物(PM2.5),62,60,46,41,25,90,90,87,87,9,10,4,4,0.1,0.1
2026-04-17T1900,2236A,122.8741,45.5725,白城市,市环保局,细颗粒物(PM2.5),72,51,43,46,22,84,84,84,84,16,32,5,4,0.2,0.2
2026-04-17T1900,2231A,126.4219,41.9172,白山市,喜丰,,35,35,53,11,21,111,111,117,117,8,14,8,9,0.9,0.9
2026-04-17T1900,2232A,126.4082,41.9416,白山市,环保局,,35,28,46,15,22,111,111,120,119,13,18,10,10,0.7,0.7
2026-04-17T1900,2647A,104.1727,36.5448,白银市,第三小学,,37,28,47,14,21,117,117,122,122,14,27,4,7,0.4,0.5
2026-04-17T1900,2648A,104.1467,36.5482,白银市,动力公司,,40,28,39,13,17,126,126,125,125,6,24,5,7,0.1,0.3
2026-04-17T1900,2512A,106.6102,23.901,百色市,市监测站,,38,37,30,26,26,112,112,92,92,13,10,19,11,0.9,0.9
2026-04-17T1900,2513A,106.6524,23.8842,百色市,市中心血站,,42,42,37,20,28,114,114,100,100,18,10,19,11,0.8,0.9
2026-04-17T1900,4133A,106.6273,23.8798,百色市,龙景西路,,43,43,56,21,26,120,120,100,100,14,12,20,13,0.3,0.4
2026-04-17T1900,2270A,117.396,32.9389,蚌埠市,工人疗养院,颗粒物(PM10),67,73,91,29,53,108,108,148,148,27,34,4,5,0.5,0.7
2026-04-17T1900,2271A,117.3606,32.9428,蚌埠市,百货大楼,颗粒物(PM10),55,57,79,21,48,125,125,150,150,10,28,5,6,0.5,0.7
2026-04-17T1900,2273A,117.4183,32.8909,蚌埠市,蚌埠学院,颗粒物(PM10),56,58,62,24,42,118,118,145,145,18,29,6,5,0.6,0.7
2026-04-17T1900,2274A,117.3534,32.9672,蚌埠市,淮上区政府,颗粒物(PM10),55,56,73,17,43,125,125,152,152,13,31,5,5,0.3,0.5
2026-04-17T1900,2275A,117.3143,32.8977,蚌埠市,高新区,颗粒物(PM10),60,63,69,33,48,129,129,139,139,15,31,7,9,0.6,0.7
2026-04-17T1900,3715A,117.3091,32.9314,蚌埠市,蚌埠田家炳中学,颗粒物(PM10),61,65,87,27,50,137,137,147,147,12,36,6,7,0.5,0.6
2026-04-17T1900,1585A,109.8761,40.6533,包头市,市环境监测站,颗粒物(PM10),57,59,116,26,38,122,122,130,128,13,36,5,23,0.4,0.9
2026-04-17T1900,1587A,109.9992,40.5843,包头市,包头八中,颗粒物(PM10),56,58,112,22,39,108,108,115,115,15,30,5,12,0.3,0.6
2026-04-17T1900,1589A,109.8641,40.6288,包头市,惠龙物流,颗粒物(PM10),54,55,103,26,42,116,116,118,118,9,26,6,18,0.4,0.8
2026-04-17T1900,1590A,110.0376,40.5546,包头市,东河鸿龙湾,颗粒物(PM10),55,57,93,20,28,120,120,124,124,9,26,10,12,0.4,0.5
2026-04-17T1900,3283A,109.9154,40.5684,包头市,滨河大厦,,46,46,89,18,29,118,118,123,123,8,22,8,11,0.4,0.4
2026-04-17T1900,3419A,109.9449,40.6259,包头市,包头市委党校,,49,49,100,17,33,119,119,123,123,10,28,5,19,0.2,0.7
2026-04-17T1900,3683A,109.8332,40.6577,包头市,昆区政府,颗粒物(PM10),52,52,108,23,43,116,116,121,121,19,44,7,26,0.7,1.2
2026-04-17T1900,1931A,107.0802,34.3129,宝鸡市,竹园沟,颗粒物(PM10),67,73,56,13,13,129,129,121,121,13,13,7,7,0.3,0.3
2026-04-17T1900,1933A,107.1429,34.3549,宝鸡市,监测站,颗粒物(PM10),68,75,68,22,21,137,137,118,118,13,13,6,6,0.5,0.4
2026-04-17T1900,1934A,107.1172,34.3759,宝鸡市,技工学校,,47,47,67,21,24,138,138,120,120,16,12,4,4,0.4,0.4
2026-04-17T1900,1936A,107.2025,34.3518,宝鸡市,文理学院,NA,NA,NA,69,22,22,NA,NA,116,116,15,16,5,5,0.3,0.4
2026-04-17T1900,1937A,107.2396,34.3626,宝鸡市,三迪小学,颗粒物(PM10),62,66,74,33,28,140,140,121,121,22,21,6,5,0.4,0.4
2026-04-17T1900,4155A,107.1721,34.3558,宝鸡市,滨河北路,颗粒物(PM10),64,69,69,28,28,133,133,114,114,15,16,7,6,0.4,0.4
2026-04-17T1900,4308A,107.3898,34.3601,宝鸡市,陈仓区北开路21号,颗粒物(PM10),70,77,79,18,27,134,134,114,114,11,19,8,8,0.2,0.3
2026-04-17T1900,1051A,115.4803,38.8568,保定市,游泳馆,细颗粒物(PM2.5),122,104,68,84,55,116,116,123,123,17,18,1,2,0.2,0.2
2026-04-17T1900,1052A,115.509,38.8895,保定市,华电二区,细颗粒物(PM2.5),115,98,56,76,60,107,107,119,119,19,13,3,2,0.6,0.5
2026-04-17T1900,1053A,115.4588,38.9037,保定市,接待中心,细颗粒物(PM2.5),124,110,75,86,63,123,123,121,121,14,11,3,3,0.4,0.2
2026-04-17T1900,1054A,115.4484,38.8344,保定市,地表水厂,细颗粒物(PM2.5),125,110,72,87,63,117,117,125,125,16,21,3,2,0.6,0.5
2026-04-17T1900,3581A,115.3136,38.9511,保定市,满城区生态环境分局,细颗粒物(PM2.5),96,90,71,58,52,121,121,120,120,13,10,2,2,0.4,0.4
2026-04-17T1900,3582A,115.4709,38.7628,保定市,清苑区第二中学,细颗粒物(PM2.5),123,121,80,85,61,103,103,119,119,17,22,4,4,0.5,0.4
2026-04-17T1900,3583A,115.6231,39.0223,保定市,徐水物探局,细颗粒物(PM2.5),127,136,89,89,52,116,116,116,116,23,21,2,2,0.4,0.5
2026-04-17T1900,4004A,115.4199,38.8665,保定市,双鹰农机,细颗粒物(PM2.5),128,NA,55,90,68,123,123,126,126,17,15,3,3,0.5,0.4
2026-04-17T1900,4034A,115.515,38.8589,保定市,植保所站,细颗粒物(PM2.5),120,145,101,82,62,118,118,122,122,15,17,4,3,0.4,0.3
2026-04-17T1900,2594A,99.1589,25.1137,保山市,市环境监测站,颗粒物(PM10),52,52,42,35,28,134,134,130,130,7,10,6,6,0.3,0.3
2026-04-17T1900,2595A,99.1616,25.1381,保山市,市环保局,颗粒物(PM10),54,55,45,30,29,139,139,135,135,4,7,7,6,0.3,0.4
2026-04-17T1900,1867A,109.1435,21.4085,北海市,海滩公园,,28,20,26,19,19,85,85,85,85,15,8,7,6,0.7,0.6
2026-04-17T1900,1868A,109.0983,21.466,北海市,新市环保局,,36,NA,27,25,17,82,82,80,80,13,9,1,2,1.1,0.8
2026-04-17T1900,1869A,109.1775,21.5232,北海市,北海工业园,,25,22,31,16,21,77,77,74,74,15,13,7,7,0.6,0.5
2026-04-17T1900,3400A,109.1844,21.4396,北海市,龙潭自来水厂,,23,18,28,13,14,73,73,77,77,12,7,8,8,1.0,0.8
2026-04-17T1900,1001A,116.3611,39.8786,北京市,万寿西宫,细颗粒物(PM2.5),98,96,56,59,44,102,102,100,100,18,17,3,2,0.6,0.5
2026-04-17T1900,1003A,116.4174,39.9289,北京市,东四,细颗粒物(PM2.5),105,91,60,65,50,119,119,116,116,17,18,1,1,0.4,0.3
2026-04-17T1900,1004A,116.4073,39.8858,北京市,天坛,细颗粒物(PM2.5),80,73,47,50,39,72,72,89,89,13,19,3,4,0.6,0.5
2026-04-17T1900,1005A,116.4622,39.9364,北京市,农展馆,细颗粒物(PM2.5),90,82,54,55,46,104,104,104,104,14,15,3,2,0.6,0.5
2026-04-17T1900,1006A,116.3399,39.9293,北京市,官园,细颗粒物(PM2.5),98,85,53,59,44,99,99,96,96,19,20,1,1,0.5,0.5
2026-04-17T1900,1007A,116.2879,39.9613,北京市,海淀万柳,细颗粒物(PM2.5),78,75,44,49,35,83,83,87,87,22,22,4,4,0.5,0.5
2026-04-17T1900,1008A,116.6635,40.1349,北京市,顺义新城,细颗粒物(PM2.5),78,59,47,49,40,116,116,109,109,6,5,4,4,0.4,0.4
2026-04-17T1900,1009A,116.6275,40.327,北京市,怀柔镇,细颗粒物(PM2.5),62,54,47,41,38,113,113,108,108,15,10,4,4,0.7,0.7
2026-04-17T1900,1010A,116.2295,40.217,北京市,昌平镇,细颗粒物(PM2.5),76,74,35,48,28,109,109,112,112,22,22,2,2,0.5,0.5
2026-04-17T1900,1011A,116.3968,39.982,北京市,奥体中心,细颗粒物(PM2.5),78,80,54,49,41,101,101,100,100,16,21,3,3,0.6,0.6
2026-04-17T1900,3418A,116.8336,40.4095,北京市,密云新城,颗粒物(PM10),51,51,41,32,31,110,110,107,107,13,8,4,4,0.4,0.4
2026-04-17T1900,3671A,116.0879,39.9725,北京市,门头沟三家店,细颗粒物(PM2.5),86,83,35,53,24,91,91,92,92,22,20,2,2,0.5,0.4
2026-04-17T1900,3672A,116.1507,39.8246,北京市,丰台云岗,细颗粒物(PM2.5),106,84,49,66,36,89,89,94,94,18,18,2,2,0.6,0.5
2026-04-17T1900,3674A,115.9578,39.7602,北京市,房山燕山,细颗粒物(PM2.5),88,84,41,54,29,87,87,87,87,15,12,3,3,0.6,0.5
2026-04-17T1900,3675A,116.4669,39.7734,北京市,大兴旧宫,细颗粒物(PM2.5),90,83,55,55,41,102,102,109,109,12,14,3,3,0.7,0.6
2026-04-17T1900,3694A,115.9859,40.4562,北京市,延庆石河营,细颗粒物(PM2.5),62,55,24,41,19,111,111,100,100,11,13,1,1,0.5,0.4
2026-04-17T1900,3695A,116.6151,40.3052,北京市,怀柔新城,颗粒物(PM10),58,60,47,37,38,95,95,104,104,16,13,3,3,0.7,0.6
2026-04-17T1900,3696A,116.2542,39.8764,北京市,丰台小屯,细颗粒物(PM2.5),82,79,46,51,31,87,87,92,92,19,26,2,2,0.5,0.5
2026-04-17T1900,3697A,116.8399,40.3843,北京市,密云镇,细颗粒物(PM2.5),68,61,50,44,46,112,112,110,110,14,14,6,5,0.5,0.5
2026-04-17T1900,4057A,115.9423,40.4431,北京市,延庆百泉,细颗粒物(PM2.5),60,57,26,40,18,104,104,95,95,12,14,1,2,0.5,0.5
2026-04-17T1900,4058A,116.6598,39.9164,北京市,通州新华,细颗粒物(PM2.5),94,82,51,57,47,113,113,107,107,16,16,2,2,0.6,0.5
2026-04-17T1900,4182A,116.1942,39.9158,北京市,石景山八角,细颗粒物(PM2.5),84,81,48,52,34,98,98,93,93,20,25,3,2,0.5,0.4
2026-04-17T1900,4194A,117.078628,40.151726,北京市,平谷新城,颗粒物(PM10),58,60,46,38,35,130,130,126,126,10,8,1,2,0.5,0.5
2026-04-17T1900,1761A,123.8274146,41.31234549,本溪市,大峪,NA,NA,37,46,18,23,NA,NA,127,125,19,11,9,8,1.4,0.8
2026-04-17T1900,1763A,123.7169,41.3094,本溪市,彩屯,,39,38,59,27,33,121,121,130,129,11,14,10,13,0.7,1
2026-04-17T1900,1764A,123.7672166,41.28649327,本溪市,东明,颗粒物(PM10),51,51,48,22,26,100,100,122,118,27,14,9,8,1.2,0.9
2026-04-17T1900,1765A,123.799345,41.266614,本溪市,新立屯,,36,36,37,22,21,81,81,129,123,27,16,9,8,0.7,0.7
2026-04-17T1900,1766A,123.829144,41.336777,本溪市,威宁,,38,38,56,18,28,108,108,119,118,16,19,8,8,0.7,0.7
2026-04-17T1900,2587A,105.287,27.3133,毕节市,八中,,32,32,19,15,12,100,100,102,102,12,6,11,8,0.5,0.5
2026-04-17T1900,2588A,105.3079,27.2987,毕节市,师专,,30,22,17,21,12,92,92,90,90,9,7,9,10,0.4,0.4
2026-04-17T1900,4263A,105.3688,27.3598,毕节市,工业大道,,34,18,16,8,8,107,107,105,105,11,5,10,10,/,/
2026-04-17T1900,1629A,117.9961,37.3604,滨州市,第二水厂,细颗粒物(PM2.5),106,95,90,66,65,153,153,144,144,12,22,7,8,0.8,0.7
2026-04-17T1900,1630A,117.9789,37.3931,滨州市,北中新校,细颗粒物(PM2.5),78,80,80,49,57,165,165,155,155,14,23,13,16,0.5,0.7
2026-04-17T1900,3514A,117.9379,37.3959,滨州市,中海酒店,细颗粒物(PM2.5),98,80,65,59,47,160,160,159,159,18,23,13,13,0.3,0.6
2026-04-17T1900,3515A,117.9381509,37.35547456,滨州市,开发区一中,细颗粒物(PM2.5),106,100,90,66,66,147,147,144,144,20,26,11,11,1.0,0.9
2026-04-17T1900,3516A,118.0914,37.6938,滨州市,金海六路,细颗粒物(PM2.5),100,88,64,60,52,134,134,148,148,17,15,7,9,0.6,0.5
2026-04-17T1900,4028A,117.9955,37.3752,滨州市,滨州市西街道办事处,细颗粒物(PM2.5),96,90,82,58,58,153,153,150,150,14,19,7,8,0.6,0.5
2026-04-17T1900,2311A,115.8071,33.8399,亳州市,污水处理厂,颗粒物(PM10),58,60,74,22,47,126,126,141,141,13,22,5,8,0.2,0.3
2026-04-17T1900,2312A,115.7789,33.8519,亳州市,三国揽胜宫,,40,30,57,20,44,125,125,132,132,12,21,6,8,0.3,0.3
2026-04-17T1900,3332A,115.7631,33.803,亳州市,亳州学院,颗粒物(PM10),53,54,86,21,48,122,122,128,127,6,10,5,7,0.4,0.4
2026-04-17T1900,2693A,82.0482,44.8553,博尔塔拉蒙古自治州,市党校,NA,NA,NA,95,NA,16,NA,NA,103,NA,NA,2,NA,2,NA,0.3
2026-04-17T1900,2694A,82.0805,44.8966,博尔塔拉蒙古自治州,市环保局,,29,29,95,3,13,80,80,84,NA,9,8,5,3,0.3,0.2
2026-04-17T1900,1071A,116.8733,38.2922,沧州市,沧县城建局,细颗粒物(PM2.5),119,112,70,80,57,120,120,126,126,22,21,2,3,0.8,0.6
2026-04-17T1900,1072A,116.8462,38.3189,沧州市,电视转播站,细颗粒物(PM2.5),110,105,75,71,52,129,129,129,129,15,16,5,5,0.4,0.3
2026-04-17T1900,1073A,116.8588,38.3161,沧州市,市环保局,细颗粒物(PM2.5),111,108,80,72,50,130,130,132,132,14,16,4,5,0.8,0.7
2026-04-17T1900,3324A,116.8011,38.294,沧州市,河北水利电力学院,细颗粒物(PM2.5),110,92,67,71,53,120,120,120,120,18,19,7,6,0.5,0.5
2026-04-17T1900,2622A,97.1813,31.1289,昌都市,昌都监测站,,31,20,27,3,7,99,99,102,102,9,14,8,8,0.6,0.6
2026-04-17T1900,3719A,97.1707,31.1428,昌都市,昌都会议中心,,35,18,20,3,7,111,111,107,107,3,6,6,6,0.2,0.1
2026-04-17T1900,2692A,87.2722,44.0298,昌吉回族自治州,新区政务中心,颗粒物(PM10),59,62,73,20,20,104,104,101,101,8,10,6,6,0.2,0.2
2026-04-17T1900,3613A,87.3069,44.0093,昌吉回族自治州,亚心广场,颗粒物(PM10),75,85,97,14,18,108,108,103,103,6,9,7,8,0.3,0.3
2026-04-17T1900,4164A,87.2057,43.9289,昌吉回族自治州,财政所,NA,NA,118,122,NA,19,98,98,98,98,11,14,7,7,0.2,0.3
2026-04-17T1900,1120A,125.2874,43.9024,长春市,客车厂,颗粒物(PM10),53,53,38,24,28,103,103,115,114,14,23,8,8,0.5,0.5
2026-04-17T1900,1121A,125.2943,43.8508,长春市,邮电学院,颗粒物(PM10),60,63,38,25,29,111,111,122,121,10,14,8,8,0.5,0.5
2026-04-17T1900,1122A,125.3648,43.8745,长春市,劳动公园,NA,NA,46,38,23,29,NA,NA,121,121,14,20,7,7,0.5,0.5
2026-04-17T1900,1123A,125.3233,43.8781,长春市,园林处,,50,50,36,24,28,114,114,127,125,12,17,7,7,0.4,0.4
2026-04-17T1900,1124A,125.4604,43.7904,长春市,净月潭,,49,49,38,23,31,110,110,119,119,11,13,7,6,0.4,0.5
2026-04-17T1900,1126A,125.38,43.8422,长春市,经开区环卫处,颗粒物(PM10),55,56,42,22,29,108,108,119,118,14,22,6,6,0.6,0.6
2026-04-17T1900,1127A,125.234,43.7761,长春市,高新区管委会,,48,48,38,24,31,107,107,118,117,10,17,8,8,0.5,0.5
2026-04-17T1900,1128A,125.1695,43.83,长春市,岱山公园,,49,49,40,26,33,114,114,128,126,11,27,5,6,0.4,0.5
2026-04-17T1900,4281A,125.334645,43.916281,长春市,北亚泰大街1068号,颗粒物(PM10),55,57,40,23,32,107,107,118,116,15,24,6,6,0.5,0.5
2026-04-17T1900,1335A,113.082,28.2421,长沙市,经开区环保局,,45,45,39,15,26,98,98,110,110,17,21,4,5,0.5,0.6
2026-04-17T1900,1336A,112.8873,28.2202,长沙市,高开区环保局,,34,33,37,16,27,106,106,108,108,10,20,7,6,0.5,0.7
2026-04-17T1900,1337A,113.0785,28.2012,长沙市,马坡岭,,43,43,42,18,30,100,100,113,113,15,19,6,6,0.7,0.9
2026-04-17T1900,1338A,112.9448,28.1894,长沙市,湖南师范大学,,35,34,38,17,25,110,110,113,113,8,15,6,6,0.7,0.8
2026-04-17T1900,1339A,113.0177,28.1322,长沙市,雨花区环保局,,48,48,40,21,29,90,90,106,106,16,17,4,4,0.7,0.8
2026-04-17T1900,1340A,112.9795,28.2593,长沙市,伍家岭,,32,32,40,18,25,102,102,106,106,11,25,4,4,0.5,0.6
2026-04-17T1900,1341A,113.002,28.1944,长沙市,火车新站,,35,35,39,20,31,102,102,106,106,10,21,4,5,0.5,0.6
2026-04-17T1900,1342A,112.9846,28.1177,长沙市,天心区环保局,,35,NA,42,24,34,85,85,106,106,18,20,6,5,0.8,0.9
2026-04-17T1900,1343A,112.8906,28.1307,长沙市,湖南中医药大学,,35,35,36,15,23,107,107,106,106,13,25,6,6,0.6,0.8
2026-04-17T1900,1727A,113.1146,36.1547,长治市,清华站,颗粒物(PM10),52,52,65,26,23,130,130,128,128,13,28,8,8,0.4,0.4
2026-04-17T1900,1730A,113.0887,36.2126,长治市,审计局,颗粒物(PM10),63,68,71,25,26,129,129,127,127,11,20,8,9,0.3,0.3
2026-04-17T1900,1731A,113.0845,36.1856,长治市,长治八中,颗粒物(PM10),73,81,87,17,24,128,128,125,125,14,20,9,10,0.5,0.6
2026-04-17T1900,2845A,113.1561,36.1912,长治市,德盛苑,颗粒物(PM10),55,56,58,22,22,134,134,130,130,14,15,9,12,0.4,0.6
2026-04-17T1900,3568A,113.0603,36.0464,长治市,向阳小学,颗粒物(PM10),100,120,93,26,20,130,130,132,132,20,27,8,8,0.5,0.5
2026-04-17T1900,3569A,112.8788,36.315,长治市,屯留一中,颗粒物(PM10),62,66,62,22,16,122,122,127,127,11,24,7,7,0,0.1
2026-04-17T1900,4189A,113.113092,36.199482,长治市,英华南巷50号,颗粒物(PM10),62,66,82,29,27,129,129,128,128,14,19,6,8,0.4,0.9
2026-04-17T1900,4190A,113.23666,36.33435,长治市,学府街1号,颗粒物(PM10),54,55,84,14,22,123,123,122,122,14,26,3,9,0.4,0.7
2026-04-17T1900,1854A,111.696,28.9725,常德市,市二中,颗粒物(PM10),58,61,36,24,22,99,99,109,109,18,13,8,9,0.8,0.8
2026-04-17T1900,3138A,111.7152,29.0288,常德市,武陵区永安,颗粒物(PM10),52,52,41,17,25,96,96,112,112,18,16,7,7,0.7,0.7
2026-04-17T1900,3139A,111.6891,28.9881,常德市,鼎城区玉霞,颗粒物(PM10),56,58,36,33,22,72,72,103,103,24,13,10,10,0.8,0.8
2026-04-17T1900,3140A,111.6651,29.0526,常德市,武陵区长庚,颗粒物(PM10),53,53,41,20,27,81,81,103,103,13,16,8,10,0.8,0.9
2026-04-17T1900,1196A,119.9524,31.7586,常州市,市监测站,颗粒物(PM10),84,97,90,46,50,104,104,120,120,21,24,10,10,0.8,0.8
2026-04-17T1900,1200A,119.9351,31.703,常州市,武进监测站,颗粒物(PM10),86,100,105,40,47,105,105,118,118,27,25,7,7,0.8,0.8
2026-04-17T1900,3002A,119.9701,31.813,常州市,行政中心,细颗粒物(PM2.5),76,66,64,48,46,94,94,110,110,25,27,6,7,0.8,0.7
2026-04-17T1900,3003A,120.0434,31.7726,常州市,经开区,颗粒物(PM10),86,100,104,46,47,96,96,116,116,19,24,2,3,0.9,0.9
2026-04-17T1900,3010A,119.8919,31.7892,常州市,钟楼,细颗粒物(PM2.5),66,57,62,43,50,122,122,123,123,22,28,8,8,0.5,0.5
2026-04-17T1900,3429A,119.8595,31.706,常州市,武进经发区,颗粒物(PM10),53,53,75,26,31,99,99,122,122,44,28,7,6,0.6,0.6
2026-04-17T1900,3430A,119.5812,31.7256,常州市,金坛城区,,41,30,44,24,30,130,130,131,131,12,10,8,9,0.9,0.7
2026-04-17T1900,4089A,119.9551,31.863,常州市,崇义南街5-H号,颗粒物(PM10),75,85,77,42,42,101,101,115,115,19,25,6,7,0.7,0.7
2026-04-17T1900,2220A,120.4318,41.588,朝阳市,西梁,颗粒物(PM10),94,111,44,15,29,101,101,115,114,16,14,5,9,0.5,0.7
2026-04-17T1900,2221A,120.452,41.565,朝阳市,河畔小区,颗粒物(PM10),90,105,41,28,30,110,110,126,124,19,12,7,7,0.7,0.6
2026-04-17T1900,2222A,120.4176,41.5648,朝阳市,八里堡,颗粒物(PM10),104,129,42,33,33,95,95,115,112,24,17,6,6,0.8,0.8
2026-04-17T1900,3026A,116.6179,23.6608,潮州市,市政府,,42,42,38,17,22,93,93,96,96,11,11,4,6,0.8,0.6
2026-04-17T1900,4036A,116.646,23.676,潮州市,金山,,35,35,34,16,22,76,76,88,87,13,10,2,4,0.6,0.5
2026-04-17T1900,2473A,113.0116,25.8228,郴州市,市职中,,42,35,26,29,19,34,34,45,45,21,13,7,6,0.8,0.8
2026-04-17T1900,2475A,113.0381,25.8074,郴州市,市审计局,NA,NA,37,24,28,20,26,26,66,37,NA,10,3,2,/,/
2026-04-17T1900,2476A,113.0348,25.7757,郴州市,市环保局,,38,28,26,26,22,39,39,38,38,19,15,6,6,0.8,0.7
2026-04-17T1900,4252A,113.0138,25.8011,郴州市,好美居路49号,细颗粒物(PM2.5),52,38,22,36,17,47,47,49,49,15,11,6,6,/,/
2026-04-17T1900,1431A,103.9727,30.7242,成都市,金泉两河,,37,25,27,10,16,118,118,116,116,12,15,2,3,0.3,0.3
2026-04-17T1900,1432A,104.1423,30.6765,成都市,十里店,,40,40,32,16,19,121,121,119,119,11,13,4,5,0.4,0.5
2026-04-17T1900,1433A,104.0594,30.5765,成都市,三瓦窑,,39,21,28,13,17,122,122,118,118,4,8,3,4,0.5,0.5
2026-04-17T1900,1434A,104.1122,30.6306,成都市,沙河铺,,42,42,36,13,16,95,95,105,105,14,15,2,3,0.2,0.3
2026-04-17T1900,2880A,104.0219,30.6561,成都市,大石西路,,41,41,32,12,17,113,113,109,109,13,16,4,5,0.4,0.5
2026-04-17T1900,3136A,104.2724,30.559,成都市,龙泉驿区区政府,,38,31,25,18,17,119,119,114,114,8,10,5,11,0.3,0.4
2026-04-17T1900,3357A,104.0028,30.6891,成都市,金博路,,37,17,18,10,15,118,118,114,114,15,17,6,7,0.3,0.4
2026-04-17T1900,3359A,104.056,30.5228,成都市,华阳,,39,36,28,14,16,122,122,120,120,9,11,4,5,0.2,0.3
2026-04-17T1900,3488A,104.387954,30.746684,成都市,青石路225号,,44,44,34,16,18,128,128,126,126,14,14,7,7,0.4,0.5
2026-04-17T1900,3489A,104.0788,30.4054,成都市,科学城,,40,34,25,21,13,126,126,120,120,4,8,6,5,0.4,0.4
2026-04-17T1900,4011A,103.8505,30.6946,成都市,光华大道三段,,40,22,28,10,16,125,125,125,125,13,17,3,4,0.4,0.5
2026-04-17T1900,4144A,104.3257,30.6406,成都市,八角井街185号,,50,50,33,16,17,117,117,115,115,8,11,5,5,0.3,0.3
2026-04-17T1900,4224A,104.2433276,30.53529463,成都市,鲸龙路1057号,NA,NA,30,30,NA,8,126,126,120,120,7,10,6,6,NA,0.6
2026-04-17T1900,1062A,117.9531,40.908,承德市,铁路,颗粒物(PM10),73,81,40,29,16,99,99,109,109,20,18,3,3,0.3,0.3
2026-04-17T1900,1063A,117.9397,40.9763,承德市,中国银行,颗粒物(PM10),79,90,38,29,15,99,99,112,112,20,13,4,4,0.3,0.3
2026-04-17T1900,4073A,117.9462,40.95,承德市,杏林街1号,颗粒物(PM10),56,58,41,32,27,113,113,118,118,10,10,2,3,0.2,0.3
2026-04-17T1900,4274A,117.7994,40.9605,承德市,滨河大街98号,颗粒物(PM10),70,78,31,30,16,91,91,114,114,12,10,6,11,0.2,0.4
2026-04-17T1900,2314A,117.4698,30.6617,池州市,池州学院,,48,36,33,33,23,124,124,125,125,24,21,4,3,0.9,0.8
2026-04-17T1900,3237A,117.4918,30.6617,池州市,展览馆,,39,29,30,27,22,120,120,128,128,18,17,2,3,0.5,0.6
2026-04-17T1900,3333A,117.5626,30.695,池州市,第八中学,,38,30,30,26,21,121,121,125,125,23,21,4,5,0.5,0.7
2026-04-17T1900,3334A,117.5037,30.6242,池州市,第十二中学,,41,38,31,28,22,129,129,128,128,28,23,4,3,0.7,0.9
2026-04-17T1900,1744A,118.9229,42.2816,赤峰市,松山一中,颗粒物(PM10),53,53,37,14,17,84,84,96,93,21,22,6,6,0.5,0.7
2026-04-17T1900,1745A,118.9588,42.2733,赤峰市,哈达街,颗粒物(PM10),58,60,40,20,15,60,60,74,72,24,12,15,10,0.9,0.7
2026-04-17T1900,1746A,118.8792,42.2551,赤峰市,天义路,,48,48,27,21,14,71,71,96,91,30,14,27,6,0.3,0.1
2026-04-17T1900,3058A,119.2656,42.0356,赤峰市,银河街,颗粒物(PM10),60,63,44,16,20,88,88,108,106,13,9,6,12,0.3,0.5
2026-04-17T1900,3286A,118.9359,42.3146,赤峰市,桥北物流园区,颗粒物(PM10),56,58,28,9,17,85,85,93,91,16,17,4,4,0.2,0.6
2026-04-17T1900,2521A,107.3473,22.4137,崇左市,市环保局江州分局,,30,27,56,12,40,95,95,98,98,8,10,5,3,0.7,0.8
2026-04-17T1900,4256A,107.375,22.3736,崇左市,石景林东路7号,,32,20,42,13,35,102,102,105,105,8,12,3,2,0.9,0.9
2026-04-17T1900,3207A,118.31131,32.3033,滁州市,市政府原办公楼,细颗粒物(PM2.5),64,48,36,42,39,119,119,120,120,16,13,5,4,0.5,0.5
2026-04-17T1900,3331A,118.3268,32.2633,滁州市,图书馆,,40,39,54,28,30,124,124,123,123,11,12,9,9,0.4,0.4
2026-04-17T1900,4101A,118.3196,32.3335,滁州市,银山路666号,颗粒物(PM10),55,57,54,33,34,132,132,129,129,13,15,6,7,0.3,0.3
2026-04-17T1900,4102A,118.3426,32.2979,滁州市,黄山路555号,颗粒物(PM10),68,75,65,35,37,127,127,125,125,13,14,5,6,0.6,0.6
2026-04-17T1900,2606A,101.5379,25.0492,楚雄彝族自治州,市经济开发区,,38,33,46,24,29,120,120,128,128,11,13,2,3,0.5,0.5
2026-04-17T1900,4153A,101.5536,25.0343,楚雄彝族自治州,团结路562号,,41,37,41,21,26,131,131,134,134,5,10,3,6,0.3,0.4
2026-04-17T1900,2549A,107.5087,31.2186,达州市,市环境监测站,颗粒物(PM10),65,70,52,28,17,88,88,103,103,30,28,5,6,0.2,0.3
2026-04-17T1900,2550A,107.4988,31.2132,达州市,凤凰小区,颗粒物(PM10),68,75,58,28,20,91,91,99,99,21,29,5,6,0.2,0.3
2026-04-17T1900,2551A,107.5081,31.1987,达州市,达县机关宾馆,NA,NA,90,63,NA,24,53,53,103,102,58,33,4,6,0.5,0.4
2026-04-17T1900,2552A,107.4644,31.2124,达州市,市政中心,颗粒物(PM10),63,67,58,21,19,110,110,108,108,12,30,5,6,0.3,0.5
2026-04-17T1900,2614A,100.2168,25.5818,大理白族自治州,大理市环境监测站,,46,NA,33,32,26,111,111,104,104,12,12,4,4,0.4,0.3
2026-04-17T1900,2615A,100.1542,25.7055,大理白族自治州,大理古城,,38,38,33,26,23,116,116,115,115,11,10,4,3,0.4,0.4
2026-04-17T1900,1109A,121.6119,38.974,大连市,甘井子,颗粒物(PM10),70,78,64,43,36,120,120,133,130,26,19,9,9,0.7,0.6
2026-04-17T1900,1110A,121.565,38.9509,大连市,周水子,细颗粒物(PM2.5),78,82,70,49,41,90,90,121,116,39,23,6,6,0.7,0.6
2026-04-17T1900,1111A,121.5637,38.8849,大连市,星海三站,细颗粒物(PM2.5),88,65,66,54,48,96,96,106,106,32,20,6,5,0.4,0.5
2026-04-17T1900,1112A,121.6301,38.9117,大连市,青泥洼桥,颗粒物(PM10),69,76,66,44,41,106,106,126,122,24,17,5,5,0.7,0.7
2026-04-17T1900,1113A,121.6248,38.8643,大连市,傅家庄,颗粒物(PM10),55,56,58,28,35,83,83,102,100,31,14,9,8,0.5,0.5
2026-04-17T1900,1114A,121.5117,38.8636,大连市,七贤岭,颗粒物(PM10),72,80,60,40,32,100,100,121,119,34,17,6,6,0.5,0.5
2026-04-17T1900,1116A,121.7507,39.1339,大连市,金州,颗粒物(PM10),63,67,58,40,34,98,98,129,124,32,16,5,5,0.6,0.6
2026-04-17T1900,1117A,121.7811,39.0495,大连市,开发区,颗粒物(PM10),60,64,72,27,36,104,104,121,114,23,28,7,8,0.3,0.5
2026-04-17T1900,1118A,121.9762,39.0631,大连市,双D港,颗粒物(PM10),116,161,62,32,42,77,77,104,103,40,21,9,7,0.8,0.9
2026-04-17T1900,4082A,121.2548,38.8188,大连市,旅顺,颗粒物(PM10),64,69,58,41,34,76,76,102,98,41,16,7,6,0.4,0.4
2026-04-17T1900,1789A,124.8085,46.0381,大庆市,大同区,,37,37,58,25,36,83,83,86,85,9,22,3,6,0.5,0.6
2026-04-17T1900,1790A,125.1166,46.5255,大庆市,龙凤区,细颗粒物(PM2.5),68,47,55,44,35,81,81,70,69,14,18,4,8,0.3,0.3
2026-04-17T1900,1791A,124.8894,46.4007,大庆市,红岗区,细颗粒物(PM2.5),68,54,48,44,30,86,86,83,82,6,13,7,8,0.4,0.3
2026-04-17T1900,1792A,125.1391,46.578,大庆市,萨尔图区,颗粒物(PM10),78,88,61,44,28,93,93,81,81,15,21,7,9,0.4,0.5
2026-04-17T1900,1793A,124.9026,46.6217,大庆市,让胡路区,细颗粒物(PM2.5),102,84,52,62,32,84,84,74,74,11,19,5,11,0.6,0.6
2026-04-17T1900,3481A,125.127,46.6277,大庆市,萨区政府监测点,细颗粒物(PM2.5),101,65,51,61,26,81,81,73,72,7,13,9,10,0.5,0.4
2026-04-17T1900,1723A,113.2926,40.0759,大同市,云冈宾馆,颗粒物(PM10),74,83,65,26,21,99,99,104,104,23,31,6,9,0.2,0.3
2026-04-17T1900,1724A,113.3437,40.0921,大同市,大同大学,颗粒物(PM10),73,82,70,24,21,104,104,109,109,21,30,2,5,0.4,0.5
2026-04-17T1900,1725A,113.2637,40.129,大同市,安家小村,颗粒物(PM10),79,90,76,26,20,106,106,108,108,19,28,5,7,0.2,0.9
2026-04-17T1900,3282A,113.3399,40.0586,大同市,大同市卫生学校,颗粒物(PM10),85,98,75,27,27,109,109,115,115,19,33,5,8,0.5,0.5
2026-04-17T1900,3565A,113.1371,40.1122,大同市,云冈站,颗粒物(PM10),70,78,66,24,19,107,107,110,110,8,28,4,5,0.3,0.4
2026-04-17T1900,3566A,113.1186,40.2556,大同市,图书馆,颗粒物(PM10),68,74,62,23,15,102,102,109,109,15,12,5,5,0.5,0.5
2026-04-17T1900,3567A,113.5931,40.0459,大同市,区一中,颗粒物(PM10),69,76,65,29,22,97,97,116,116,28,16,7,9,0.6,0.7
2026-04-17T1900,4199A,113.2798248,40.09972476,大同市,魏都大道141号,颗粒物(PM10),72,80,78,25,19,106,106,108,108,15,28,7,10,0.5,0.7
2026-04-17T1900,2269A,124.1068,50.4091,大兴安岭地区,科技局,,26,22,20,10,7,82,82,83,83,4,3,8,8,0.3,0.3
2026-04-17T1900,3663A,124.117,50.4279,大兴安岭地区,红旗社区,,27,NA,15,6,8,86,86,89,88,4,10,7,9,0.2,0.2
2026-04-17T1900,1600A,124.33,40.0625,丹东市,江湾东路,NA,NA,NA,63,NA,35,114,114,121,121,NA,16,5,10,NA,0.5
2026-04-17T1900,1601A,124.4242,40.1513,丹东市,临江后街,,39,39,64,20,36,115,115,117,117,10,12,6,10,0.3,0.6
2026-04-17T1900,1602A,124.3935,40.1461,丹东市,元宝山,颗粒物(PM10),70,77,69,20,36,120,120,115,115,10,14,6,9,0.5,0.7
2026-04-17T1900,1603A,124.3634,40.1093,丹东市,民主桥,,46,46,64,25,35,114,114,118,118,16,15,5,7,0.2,0.3
2026-04-17T1900,3541A,109.5726195,19.51688767,儋州市,第一中学子站,,30,23,42,9,25,95,95,89,89,5,6,4,5,0.7,0.6
2026-04-17T1900,3542A,109.5567,19.5187,儋州市,东坡学校子站,颗粒物(PM10),53,53,42,9,24,99,99,95,95,7,7,2,4,0.6,0.5
2026-04-17T1900,2616A,98.5611,24.4273,德宏傣族景颇族自治州,德宏州监测站,NA,NA,NA,58,45,51,129,129,129,129,13,19,6,6,0.3,0.4
2026-04-17T1900,3677A,98.5887,24.4366,德宏傣族景颇族自治州,芒市人民政府综合楼,颗粒物(PM10),81,93,77,43,46,118,118,120,120,14,15,4,4,0.4,0.6
2026-04-17T1900,1901A,104.424,31.1209,德阳市,东山公园,,39,26,28,9,20,122,122,115,115,8,12,3,4,0.3,0.4
2026-04-17T1900,1902A,104.3827,31.1318,德阳市,西小区,,34,34,43,10,21,107,107,104,104,20,22,3,3,0.4,0.4
2026-04-17T1900,1904A,104.3553,31.1091,德阳市,耐火材料厂,,39,35,40,11,21,123,123,126,126,15,20,2,2,0.3,0.3
2026-04-17T1900,4145A,104.4144,31.1495,德阳市,市林业局,,42,32,35,7,22,132,132,128,128,5,17,2,3,0.2,0.3
2026-04-17T1900,1622A,116.3034,37.4675,德州市,儿童乐园,颗粒物(PM10),91,107,85,54,55,141,141,145,145,16,28,8,9,0.8,0.8
2026-04-17T1900,1624A,116.2992,37.4449,德州市,监理站,颗粒物(PM10),88,102,83,48,49,143,143,146,146,21,27,11,11,0.6,0.7
2026-04-17T1900,3066A,116.2722,37.438,德州市,九衢泉纯净水厂,颗粒物(PM10),84,97,77,50,49,125,125,133,132,22,38,6,6,0.8,0.8
2026-04-17T1900,3371A,116.3693,37.44,德州市,开发区人民医院,颗粒物(PM10),83,95,84,47,53,133,133,139,139,20,31,11,11,0.7,0.7
2026-04-17T1900,3511A,116.5687,37.3331,德州市,陵城艺术中心,细颗粒物(PM2.5),78,85,73,49,56,138,138,144,144,12,15,8,8,0.9,0.8
2026-04-17T1900,4292A,116.352738,37.420875,德州市,新河东路,颗粒物(PM10),83,95,73,45,44,128,128,134,134,15,26,9,9,0.8,0.8
2026-04-17T1900,2621A,99.7054,27.8319,迪庆藏族自治州,迪庆州站,,34,33,20,14,9,106,106,105,105,8,10,8,8,0.4,0.4
2026-04-17T1900,3180A,99.7122,27.8129,迪庆藏族自治州,质量技术监督局,,35,25,17,10,8,109,109,112,112,8,10,7,7,0.3,0.3
2026-04-17T1900,4257A,104.6092,35.5962,定西市,将台街,,44,27,47,18,19,139,139,131,131,6,21,6,6,0.1,0.1
2026-04-17T1900,4309A,104.6159,35.5701,定西市,正龙路62号,,44,26,50,12,18,139,139,133,133,6,11,3,3,0.3,0.3
2026-04-17T1900,4071A,114.9883,38.5232,定州市,交通局,细颗粒物(PM2.5),126,133,91,88,66,109,109,126,126,17,18,7,6,0.7,0.5
2026-04-17T1900,4072A,115.0045,38.5136,定州市,第五中学,细颗粒物(PM2.5),113,138,92,74,61,98,98,121,121,NA,20,4,3,0.7,0.5
2026-04-17T1900,1390A,113.7943,23.0132,东莞市,东城石井,,41,41,26,26,16,83,83,101,98,47,25,5,5,0.8,0.6
2026-04-17T1900,1391A,113.7384,22.9659,东莞市,南城西平,,50,50,30,26,16,82,82,89,88,40,24,6,6,0.8,0.7
2026-04-17T1900,3319A,113.7283,23.041,东莞市,万江金泰,,41,41,27,26,15,88,88,105,101,46,23,7,7,0.9,0.7
2026-04-17T1900,4129A,113.8666,23.1062,东莞市,裕兴路,,43,43,29,27,15,84,84,110,107,46,24,6,6,1.0,0.8
2026-04-17T1900,4130A,114.0076,22.9739,东莞市,教育路1号,颗粒物(PM10),59,62,41,37,21,76,76,127,122,58,37,7,7,0.8,0.7
2026-04-17T1900,4131A,113.7981,22.8124,东莞市,长怡路1号,,46,46,34,27,18,94,94,95,90,38,24,6,6,0.9,0.7
2026-04-17T1900,1666A,118.6612,37.4313,东营市,市环保局,颗粒物(PM10),78,88,67,42,42,174,174,166,166,18,15,12,11,0.6,0.4
2026-04-17T1900,3036A,118.6903,37.4337,东营市,开发区管委会,细颗粒物(PM2.5),98,79,63,59,54,182,182,171,171,23,21,10,9,0.9,0.7
2026-04-17T1900,3365A,118.5721,37.5654,东营市,垦利区民丰路,"颗粒物(PM10),细颗粒物(PM2.5)",68,75,57,44,47,171,171,192,192,28,19,8,8,0.9,0.8
2026-04-17T1900,3498A,118.5063,37.8606,东营市,河口城区,NA,NA,NA,61,39,39,152,152,166,166,13,10,15,11,1.0,0.9
2026-04-17T1900,3646A,118.4979,37.4623,东营市,胜利站,细颗粒物(PM2.5),72,77,81,46,50,148,148,157,157,26,18,9,10,0.8,0.7
2026-04-17T1900,3734A,118.5753,37.4405,东营市,理想之城,颗粒物(PM10),63,68,70,40,55,128,128,151,150,30,24,7,8,0.6,0.6
2026-04-17T1900,1591A,110.0024,39.8127,鄂尔多斯市,综合楼,颗粒物(PM10),56,58,80,24,23,126,126,121,121,14,17,10,7,0.3,0.3
2026-04-17T1900,1592A,109.9485,39.8259,鄂尔多斯市,巴音孟克林场办事处,颗粒物(PM10),53,53,69,17,17,132,132,128,128,15,10,9,6,0.3,0.3
2026-04-17T1900,1593A,109.7734,39.5987,鄂尔多斯市,康泽苑,颗粒物(PM10),53,53,65,17,17,131,131,127,127,9,11,9,8,0.2,0.2
2026-04-17T1900,1594A,109.8121,39.5987,鄂尔多斯市,华泰汽车城,,48,48,69,20,18,124,124,121,121,10,16,8,6,0.2,0.3
2026-04-17T1900,1595A,109.9734,39.7884,鄂尔多斯市,奥林花园,颗粒物(PM10),58,61,77,21,17,124,124,122,122,17,29,5,6,0.2,0.3
2026-04-17T1900,2436A,114.894,30.3989,鄂州市,市政府,细颗粒物(PM2.5),64,61,60,42,32,133,133,125,125,16,19,10,13,0.7,1
2026-04-17T1900,2437A,114.8986,30.3714,鄂州市,赵家坝,细颗粒物(PM2.5),52,46,54,36,27,130,130,131,131,10,10,7,7,0.8,0.8
2026-04-17T1900,3654A,114.8093,30.4091,鄂州市,精准医疗中心,细颗粒物(PM2.5),64,48,44,42,28,133,133,133,133,11,15,4,4,0.8,0.8
2026-04-17T1900,2454A,109.4978,30.2979,恩施土家族苗族自治州,湖北民院,,42,34,28,29,16,88,88,80,80,11,12,8,8,0.2,0.3
2026-04-17T1900,3549A,109.5061,30.3771,恩施土家族苗族自治州,龙凤新区,,35,35,23,18,11,66,66,68,68,14,11,7,7,0.3,0.4
2026-04-17T1900,2499A,108.3411,21.6159,防城港市,沙万,,28,26,41,13,22,88,88,68,68,10,17,6,6,0.7,0.7
2026-04-17T1900,2500A,108.3515,21.7733,防城港市,防城档案局,,27,23,49,16,26,86,86,72,72,6,10,6,8,0.6,0.5
2026-04-17T1900,2501A,108.3506,21.6414,防城港市,大海花园,,31,23,31,18,26,98,98,73,73,8,13,7,11,0.8,0.7
2026-04-17T1900,1371A,113.1293,23.0065,佛山市,湾梁,,39,31,22,27,17,71,71,99,91,36,20,/,/,/,/
2026-04-17T1900,1372A,113.1082,23.0477,佛山市,华材职中,,45,31,21,31,17,60,60,91,87,43,24,4,4,0.6,0.4
2026-04-17T1900,1373A,113.1439,23.045,佛山市,南海气象局,,45,32,22,31,16,64,64,92,88,32,21,/,/,/,/
2026-04-17T1900,1374A,113.2879,22.8094,佛山市,顺德苏岗,,49,NA,21,34,16,63,63,90,89,42,21,/,/,0.9,0.6
2026-04-17T1900,1376A,112.8384,22.8678,佛山市,高明孔堂,,32,32,26,22,18,60,60,92,90,19,15,/,/,/,/
2026-04-17T1900,1377A,112.8835,23.1584,佛山市,三水监测站,,32,24,19,22,18,61,61,91,84,34,28,4,4,0.5,0.4
2026-04-17T1900,1378A,112.8668,23.185,佛山市,三水云东海,,48,48,38,22,16,40,40,84,75,28,23,/,/,/,/
2026-04-17T1900,3625A,113.2568,22.7629,佛山市,容桂街道办,,49,NA,19,34,17,69,69,87,87,36,23,/,/,/,/
2026-04-17T1900,1282A,119.2681,26.0506,福州市,师大,,33,25,29,23,24,76,76,83,83,26,24,4,4,0.9,0.7
2026-04-17T1900,1283A,119.2983,26.1028,福州市,五四北路,,24,14,25,7,27,75,75,83,83,22,25,4,4,0.6,0.6
2026-04-17T1900,1284A,119.2648,26.0769,福州市,杨桥西路,,29,22,27,20,23,76,76,86,86,24,22,4,4,/,/
2026-04-17T1900,3048A,119.5799,26.0937,福州市,九龙,,29,24,24,20,21,84,84,92,92,14,18,4,5,0.8,0.6
2026-04-17T1900,3526A,119.5188,25.9666,福州市,吴航,,30,30,32,20,23,84,84,84,84,20,20,5,5,0.8,0.7
2026-04-17T1900,4104A,119.3106,26.0648,福州市,路通桥巷6号,,39,32,33,27,25,66,66,73,73,28,22,/,/,/,/
2026-04-17T1900,1755A,123.7974,41.8494,抚顺市,望花区,颗粒物(PM10),68,74,69,34,36,111,111,132,128,32,24,16,12,0.9,0.7
2026-04-17T1900,1756A,123.9161,41.8827,抚顺市,顺城区,颗粒物(PM10),52,52,56,30,36,115,115,121,120,20,24,16,13,0.8,0.8
2026-04-17T1900,1757A,124.0437,41.8615,抚顺市,东洲区,细颗粒物(PM2.5),80,68,75,50,46,118,118,128,126,23,23,11,11,0.8,0.8
2026-04-17T1900,1758A,123.9246,41.8638,抚顺市,新抚区,细颗粒物(PM2.5),62,52,62,41,40,128,128,131,130,16,19,11,10,1.0,0.8
2026-04-17T1900,1759A,124.0972,41.8961,抚顺市,大伙房水库,颗粒物(PM10),53,53,54,30,35,129,129,136,135,16,15,11,10,0.6,0.6
2026-04-17T1900,1760A,123.708,41.8386,抚顺市,沈抚新城,颗粒物(PM10),53,54,62,28,35,119,119,128,127,20,28,11,12,0.8,0.8
2026-04-17T1900,2377A,116.3544,27.9833,抚州市,市站,,36,30,33,25,27,106,106,95,95,7,10,4,9,1.0,1.2
2026-04-17T1900,2378A,116.3562,27.9631,抚州市,血防站,,36,34,33,25,26,98,98,90,90,8,10,7,10,0.9,0.9
2026-04-17T1900,2379A,116.3561,28.0007,抚州市,采茶剧团,NA,NA,39,34,30,25,99,99,90,90,6,9,12,14,NA,1
2026-04-17T1900,2380A,116.3854,27.9648,抚州市,医学分院,NA,NA,39,36,26,21,101,101,92,92,NA,8,NA,8,0.9,1.1
2026-04-17T1900,2207A,121.6095,41.9978,阜新市,工业园区,细颗粒物(PM2.5),68,59,39,44,40,118,118,130,130,21,16,9,6,0.7,0.6
2026-04-17T1900,2208A,121.6567,42.0188,阜新市,长青街,细颗粒物(PM2.5),64,67,49,42,41,117,117,128,128,22,17,10,9,0.7,0.6
2026-04-17T1900,2209A,121.6672,42.07,阜新市,农业园区,颗粒物(PM10),64,69,56,37,38,123,123,132,132,19,16,7,6,0.6,0.7
2026-04-17T1900,2211A,121.6343,42.0455,阜新市,玉龙新城,颗粒物(PM10),58,60,43,38,33,119,119,130,130,19,17,9,8,0.6,0.6
2026-04-17T1900,2301A,115.8276,32.8929,阜阳市,市监测站,NA,NA,63,75,27,51,120,120,139,139,NA,21,5,6,0.5,0.6
2026-04-17T1900,2303A,115.8551,32.8606,阜阳市,开发区,颗粒物(PM10),68,75,90,41,58,128,128,132,132,11,17,5,6,0.6,0.7
2026-04-17T1900,2875A,115.783962,32.889217,阜阳市,阜阳职业技术学院,颗粒物(PM10),52,52,69,28,46,129,129,140,140,10,13,7,7,0.5,0.6
2026-04-17T1900,3468A,115.79,32.8614,阜阳市,市规划展馆,细颗粒物(PM2.5),76,71,82,48,61,125,125,137,137,15,18,8,8,0.5,0.6
2026-04-17T1900,3469A,115.835101,32.918568,阜阳市,枣园社区,颗粒物(PM10),60,63,84,31,59,116,116,135,134,13,21,6,7,0.5,0.6
2026-04-17T1900,2669A,102.9097,34.9841,甘南藏族自治州,州政府,,40,25,49,14,21,128,128,128,128,4,17,2,2,0.2,0.3
2026-04-17T1900,3380A,102.8915,34.9618,甘南藏族自治州,甘肃民族师范学院,,43,21,59,3,19,136,136,131,131,4,25,1,2,0.1,0.2
2026-04-17T1900,2570A,101.96,30.048,甘孜藏族自治州,水桥子,,28,22,13,10,3,89,89,94,94,6,10,6,6,0.2,0.2
2026-04-17T1900,3065A,101.9534,29.9976,甘孜藏族自治州,州环保局,,29,25,17,12,6,92,92,98,98,13,14,5,4,0.2,0.2
2026-04-17T1900,2363A,114.9368,25.8663,赣州市,地委,,27,27,23,17,11,53,53,58,58,8,8,2,2,1.2,1.1
2026-04-17T1900,2364A,114.946,25.8483,赣州市,气象台,,36,33,27,25,16,44,44,59,57,16,10,7,5,1.1,1
2026-04-17T1900,2365A,114.932,25.8332,赣州市,市图书馆,,35,25,20,24,14,64,64,72,72,12,9,4,4,1.1,1
2026-04-17T1900,2366A,114.8905,25.8472,赣州市,华坚鞋城,,32,32,23,18,13,59,59,58,58,15,12,5,6,1.1,1
2026-04-17T1900,3109A,115.0094,25.8614,赣州市,赣县区卫计委,,37,37,22,15,13,46,46,54,52,18,15,4,4,1.0,1
2026-04-17T1900,2684A,106.2753,36.0057,固原市,监测站,,43,43,35,19,14,123,123,125,125,8,14,7,7,0.4,0.4
2026-04-17T1900,2685A,106.2384,36.0189,固原市,新区,,45,45,41,16,14,116,116,121,121,14,19,5,5,0.4,0.5
2026-04-17T1900,2544A,106.6307,30.4577,广安市,市委,,40,37,45,14,24,126,126,121,121,8,13,7,7,0.3,0.4
2026-04-17T1900,2545A,106.6266,30.4662,广安市,友谊中学,,38,34,42,18,22,119,119,116,116,10,12,7,8,0.3,0.4
2026-04-17T1900,2547A,106.6386,30.4551,广安市,广电花园,颗粒物(PM10),65,70,60,20,27,111,111,114,114,14,17,6,6,0.3,0.4
2026-04-17T1900,2902A,106.6347,30.4868,广安市,北辰小学,,38,37,48,20,25,119,119,116,116,12,13,6,9,0.4,0.4
2026-04-17T1900,2524A,105.8211,32.4444,广元市,老城,,39,20,53,8,23,123,123,109,109,6,23,3,7,0.4,0.4
2026-04-17T1900,2526A,105.8629,32.429,广元市,监测站,,36,30,54,9,21,113,113,105,105,10,14,2,4,0.3,0.4
2026-04-17T1900,3617A,105.8047,32.4167,广元市,经开区,,37,28,57,11,24,118,118,104,104,8,20,2,9,0.3,0.4
2026-04-17T1900,1345A,113.2346,23.1423,广州市,广雅中学,NA,NA,41,29,23,15,69,69,89,89,52,28,NA,2,0.6,0.5
2026-04-17T1900,1346A,113.2611,23.105,广州市,市五中,,39,39,26,27,18,81,81,107,104,46,25,3,3,/,/
2026-04-17T1900,1348A,113.3477,23.0916,广州市,广东商学院,,36,35,28,25,16,80,80,87,86,40,31,5,5,0.9,0.8
2026-04-17T1900,1349A,113.4332,23.105,广州市,市八十六中,,39,33,26,27,18,72,72,78,78,48,42,6,6,/,/
2026-04-17T1900,1350A,113.3506,22.9488,广州市,番禺中学,,38,38,26,20,15,80,80,98,93,38,26,6,5,0.8,0.6
2026-04-17T1900,1351A,113.2147,23.3918,广州市,花都师范,,37,37,25,21,15,85,85,104,104,29,26,6,6,1.0,0.8
2026-04-17T1900,1352A,113.2599,23.1329,广州市,市监测站,,38,38,28,23,17,65,65,88,87,44,21,3,3,/,/
2026-04-17T1900,1353A,113.5618,23.3119,广州市,九龙镇镇龙,,35,31,29,24,16,84,84,98,98,33,29,6,6,0.7,0.5
2026-04-17T1900,1354A,113.2764,23.1544,广州市,麓湖,,42,42,29,26,18,48,48,84,82,33,22,7,5,0.8,0.6
2026-04-17T1900,2846A,113.3209,23.1323,广州市,体育西,,35,35,29,24,17,86,86,93,93,37,29,5,5,0.7,0.6
2026-04-17T1900,3298A,113.5718,23.5493,广州市,从化街口,,38,38,22,24,14,66,66,99,93,24,18,7,7,0.8,0.6
2026-04-17T1900,3299A,113.3463,23.369,广州市,白云竹料,,40,40,32,21,17,86,86,106,106,27,26,3,3,0.8,0.6
2026-04-17T1900,3300A,113.2981,23.2365,广州市,白云嘉禾,,38,38,31,22,17,73,73,97,97,50,32,5,5,/,/
2026-04-17T1900,3301A,113.4256,23.1716,广州市,黄埔科学城,NA,NA,34,32,25,19,62,62,94,93,NA,26,4,4,NA,0.7
2026-04-17T1900,3302A,113.3942,23.0485,广州市,番禺大学城,,39,35,24,27,15,76,76,98,98,44,26,3,3,0.8,0.6
2026-04-17T1900,3303A,113.4923,22.8169,广州市,南沙黄阁,,40,38,27,28,17,75,75,95,86,46,30,6,6,/,/
2026-04-17T1900,3304A,113.534,22.7893,广州市,南沙街,,42,39,27,29,18,72,72,85,78,43,29,6,6,0.6,0.4
2026-04-17T1900,3443A,113.2905,23.5541,广州市,花都梯面,,24,24,16,15,10,53,53,84,80,19,19,7,8,/,/
2026-04-17T1900,3445A,113.786,23.7479,广州市,从化良口,,21,16,16,12,10,67,67,90,82,18,14,4,4,/,/
2026-04-17T1900,3446A,113.805,23.2614,广州市,增城荔城,,34,34,24,21,15,99,99,110,110,27,18,5,6,0.7,0.5
2026-04-17T1900,2506A,109.604387,23.066791,贵港市,江南子站,,28,NA,37,19,23,87,87,79,79,14,19,10,11,0.8,0.8
2026-04-17T1900,2508A,109.5669,23.1065,贵港市,荷城子站,,35,NA,27,24,21,74,74,74,74,17,17,11,11,0.8,0.8
2026-04-17T1900,3405A,109.5886,23.1172,贵港市,新世纪学校,,24,24,27,12,19,74,74,78,78,17,19,/,/,0.7,0.6
2026-04-17T1900,4260A,109.5933,23.095,贵港市,中山路155-3号,,35,32,34,24,20,83,83,80,80,14,16,/,/,0.9,1
2026-04-17T1900,1439A,106.6863,26.6035,贵阳市,马鞍山,,20,14,20,12,14,63,63,72,72,10,10,2,3,/,/
2026-04-17T1900,1441A,106.6241,26.6266,贵阳市,鉴湖路,,31,31,33,14,13,76,76,89,89,12,10,5,6,0.8,0.7
2026-04-17T1900,1442A,106.7468,26.6344,贵阳市,燕子冲,,29,29,28,12,14,75,75,76,76,7,9,4,5,0.8,0.8
2026-04-17T1900,1443A,106.6556,26.4362,贵阳市,碧云窝,,29,29,35,8,15,76,76,85,84,13,11,3,4,/,/
2026-04-17T1900,1445A,106.6963,26.6063,贵阳市,红边门,,23,22,26,11,14,72,72,79,79,16,13,8,7,/,/
2026-04-17T1900,1446A,106.7162383,26.56964667,贵阳市,新华路,,27,27,30,12,13,67,67,65,65,12,13,2,1,0.4,0.4
2026-04-17T1900,1447A,106.6742,26.542,贵阳市,太慈桥,,25,24,24,3,14,79,79,78,78,11,12,6,4,/,/
2026-04-17T1900,4230A,106.688212,26.56952,贵阳市,花果园大街66号,,26,14,13,12,13,81,81,80,80,13,11,3,3,/,/
2026-04-17T1900,4231A,106.687268,26.516892,贵阳市,漓江路57号,NA,NA,19,17,13,13,NA,NA,71,71,13,11,5,5,0.6,0.9
2026-04-17T1900,1864A,110.3091,25.2705,桂林市,龙隐路小学,,30,NA,19,21,12,73,73,71,71,6,9,4,4,0.5,0.6
2026-04-17T1900,1865A,110.2849361,25.22909545,桂林市,八中,,22,22,21,8,8,63,63,60,60,11,14,3,4,0.7,0.8
2026-04-17T1900,3531A,110.296,25.1254,桂林市,旅游学院,,27,27,25,11,13,74,74,70,70,4,12,6,6,0.7,0.8
2026-04-17T1900,4222A,110.1835,25.2444,桂林市,环湖路276号,,23,17,13,13,11,72,72,70,70,6,8,3,5,0.5,0.6
2026-04-17T1900,4301A,110.2803,25.2773,桂林市,信义路13号,,21,21,20,13,11,61,61,69,69,18,11,4,5,0.7,0.7
2026-04-17T1900,2674A,100.2262,34.4854,果洛藏族自治州,玛沁县大武镇,,40,20,33,6,13,126,126,124,124,2,3,17,20,0.3,0.4
2026-04-17T1900,1130A,126.5557,45.8109,哈尔滨市,松北商大,细颗粒物(PM2.5),54,NA,50,37,39,63,63,76,76,11,23,9,13,0.5,0.5
2026-04-17T1900,1132A,126.6162,45.719,哈尔滨市,南岗学府路,,43,43,62,23,40,76,76,91,91,11,26,4,5,0.4,0.5
2026-04-17T1900,1133A,126.6894,45.7733,哈尔滨市,太平宏伟公园,,43,37,48,30,33,70,70,81,81,13,28,7,8,0.4,0.4
2026-04-17T1900,1134A,126.6361,45.7672,哈尔滨市,道外承德广场,,48,48,72,21,30,61,61,66,66,11,30,10,11,0.5,0.6
2026-04-17T1900,1136A,126.644,45.7261,哈尔滨市,动力和平路,,47,47,53,24,32,68,68,78,78,16,28,8,10,0.4,0.6
2026-04-17T1900,1137A,126.5933,45.7479,哈尔滨市,道里建国路,,40,40,48,16,30,69,69,81,81,18,35,4,5,0.1,0.6
2026-04-17T1900,1138A,126.6127,45.6119,哈尔滨市,平房东轻厂,,38,NA,46,26,28,68,68,83,83,17,20,16,17,0.6,0.6
2026-04-17T1900,1139A,126.5875,45.9827,哈尔滨市,呼兰师专,NA,NA,NA,NA,NA,NA,NA,NA,NA,NA,NA,NA,NA,NA,NA,NA
2026-04-17T1900,1140A,126.6299,45.6799,哈尔滨市,省农科院,,36,36,81,24,40,60,60,63,63,14,33,8,10,0.2,0.3
2026-04-17T1900,4282A,126.6769,45.7379,哈尔滨市,华山路1号,,33,24,43,23,32,72,72,83,83,12,24,12,12,0.1,0.2
2026-04-17T1900,4283A,126.9717,45.5356,哈尔滨市,解放大街52号,,35,35,60,12,46,89,89,88,88,12,15,6,9,0.5,0.6
2026-04-17T1900,2688A,93.5124,42.8176,哈密市,地区监测站,颗粒物(PM10),79,90,85,32,41,109,109,108,108,7,17,13,12,0.1,0.2
2026-04-17T1900,2689A,93.5014,42.8312,哈密市,哈密师范学校,颗粒物(PM10),73,81,93,24,26,103,103,108,108,12,23,9,9,0.2,0.3
2026-04-17T1900,2671A,100.9016,36.9464,海北藏族自治州,海晏县西海镇,NA,NA,NA,24,NA,7,129,129,126,126,1,3,7,8,NA,0.4
2026-04-17T1900,3867A,102.074,36.5056,海东市,平安区公安局北苑,,41,32,36,15,15,129,129,136,136,9,13,7,10,0.4,0.6
2026-04-17T1900,4163A,102.0984,36.5119,海东市,滨河路,,37,27,28,13,16,117,117,119,119,11,25,4,8,0.5,0.7
2026-04-17T1900,1410A,110.3189,20.0596,海口市,海南大学,,37,23,13,11,15,116,116,77,77,6,4,5,5,0.6,0.3
2026-04-17T1900,1411A,110.2827,20.0051,海口市,秀英海南医院,,34,26,21,12,16,108,108,74,74,7,13,7,7,0.5,0.3
2026-04-17T1900,1412A,110.3391,19.9979,海口市,海南师范大学,,37,24,23,10,15,116,116,78,78,6,5,6,6,0.6,0.4
2026-04-17T1900,1413A,110.3303,20.0359,海口市,龙华路环保局宿舍,,38,24,24,12,15,121,121,80,80,8,6,/,/,0.9,0.6
2026-04-17T1900,3539A,110.5111,19.9737,海口市,桂林洋子站,,37,27,22,10,13,116,116,70,70,6,6,/,/,/,/
2026-04-17T1900,4134A,110.1952,20.0451,海口市,长滨二路9号,NA,NA,NA,23,NA,15,116,116,77,77,4,5,/,/,/,/
2026-04-17T1900,2673A,100.6158,36.2985,海南藏族自治州,共和县恰卜恰镇,颗粒物(PM10),51,51,35,27,27,137,137,135,135,4,9,8,8,0.3,0.3
2026-04-17T1900,2676A,97.373,37.376,海西蒙古族藏族自治州,德令哈市,,46,22,20,13,9,146,146,149,149,10,4,16,16,0.3,0.3
2026-04-17T1900,1049A,114.492,36.5712,邯郸市,矿院,颗粒物(PM10),70,78,73,40,57,122,122,123,123,6,14,5,4,0.4,0.5
2026-04-17T1900,1050A,114.4839,36.6136,邯郸市,丛台公园,细颗粒物(PM2.5),74,76,80,47,66,128,128,128,128,12,13,8,6,0.4,0.5
2026-04-17T1900,3458A,114.7893,36.5592,邯郸市,香泉濮院小区,颗粒物(PM10),73,81,84,35,66,113,113,121,121,12,14,1,2,0.2,0.5
2026-04-17T1900,3580A,114.1998,36.4439,邯郸市,峰峰矿区临水派出所,颗粒物(PM10),68,75,74,38,69,148,148,136,136,13,14,5,4,0.4,0.6
2026-04-17T1900,4068A,114.5209,36.7697,邯郸市,建安街268号,颗粒物(PM10),63,67,70,41,59,123,123,131,131,10,21,1,2,0.4,0.5
2026-04-17T1900,4069A,114.5488,36.6177,邯郸市,丛台东路558号,细颗粒物(PM2.5),82,77,79,51,65,115,115,124,124,9,14,3,3,0.4,0.6
2026-04-17T1900,2635A,107.0155,33.0707,汉中市,市监测站,颗粒物(PM10),72,80,77,29,34,123,123,116,116,8,15,4,6,0.3,0.5
2026-04-17T1900,2636A,107.0083,33.114,汉中市,鑫源开发区,颗粒物(PM10),68,74,75,33,33,119,119,115,115,9,16,5,6,0.3,0.4
2026-04-17T1900,2637A,107.0072,33.0323,汉中市,南郑大河坎水厂,颗粒物(PM10),70,77,69,29,28,120,120,116,116,8,12,5,4,0.2,0.3
2026-04-17T1900,1223A,120.2073,30.2111,杭州市,滨江,"颗粒物(PM10),细颗粒物(PM2.5)",62,66,65,41,42,120,120,116,116,16,22,8,7,0.9,0.7
2026-04-17T1900,1224A,120.0625,30.2737,杭州市,西溪,细颗粒物(PM2.5),58,49,45,39,39,113,113,106,106,18,20,4,4,1.1,0.9
2026-04-17T1900,1226A,120.3417,30.315,杭州市,下沙,颗粒物(PM10),68,75,100,35,47,106,106,110,110,15,22,7,7,0.7,0.7
2026-04-17T1900,1227A,120.1252,30.2465,杭州市,卧龙桥,细颗粒物(PM2.5),52,49,47,36,38,124,124,116,116,23,23,9,8,0.7,0.7
2026-04-17T1900,1228A,120.1902,30.2691,杭州市,浙江农大,细颗粒物(PM2.5),56,47,40,38,44,111,111,109,109,27,31,8,7,0.7,0.6
2026-04-17T1900,1230A,120.1195,30.3121,杭州市,和睦小学,细颗粒物(PM2.5),64,46,39,42,46,116,116,111,111,17,23,6,6,0.8,0.7
2026-04-17T1900,1231A,120.3076,30.4146,杭州市,临平镇,,49,48,64,34,45,118,118,119,119,17,20,7,6,0.6,0.6
2026-04-17T1900,1232A,120.2753,30.1839,杭州市,城厢镇,NA,NA,46,48,45,46,100,100,104,104,23,24,6,5,NA,0.7
2026-04-17T1900,1233A,120.0883,30.1808,杭州市,云栖,颗粒物(PM10),55,56,43,37,33,105,105,107,107,28,26,6,6,0.9,0.8
2026-04-17T1900,3557A,119.9463,30.0496,杭州市,镇二中,,48,43,43,33,45,98,98,97,97,30,24,4,4,0.7,0.9
2026-04-17T1900,3558A,119.7184,30.2367,杭州市,市府大楼,细颗粒物(PM2.5),84,NA,34,52,40,103,103,98,98,22,20,6,6,0.8,0.8
2026-04-17T1900,3656A,120.1554,30.2863,杭州市,消防大队,颗粒物(PM10),73,81,82,42,37,110,110,106,106,18,22,5,5,1.0,0.9
2026-04-17T1900,1270A,117.1957,31.7845,合肥市,明珠广场,颗粒物(PM10),65,70,73,33,41,151,151,157,157,20,33,6,7,0.6,0.8
2026-04-17T1900,1271A,117.307,31.8765,合肥市,三里街,颗粒物(PM10),65,70,88,25,45,134,134,144,144,24,26,6,6,0.7,0.7
2026-04-17T1900,1272A,117.2587,31.8703,合肥市,琥珀山庄,颗粒物(PM10),65,70,74,22,41,128,128,128,128,23,27,7,7,0.8,0.9
2026-04-17T1900,1275A,117.2593,31.9376,合肥市,庐阳区,颗粒物(PM10),72,80,85,26,41,140,140,152,152,25,27,6,6,0.8,0.9
2026-04-17T1900,1276A,117.345251,31.861615,合肥市,瑶海区,颗粒物(PM10),68,75,91,23,41,136,136,150,150,21,30,6,7,0.8,0.8
2026-04-17T1900,1277A,117.3033,31.7967,合肥市,包河区,颗粒物(PM10),79,90,76,33,32,149,149,142,142,28,40,10,9,0.7,0.8
2026-04-17T1900,1278A,117.278,31.7392,合肥市,滨湖新区,颗粒物(PM10),80,92,75,39,32,177,177,152,152,11,36,5,5,0.7,0.8
2026-04-17T1900,1279A,117.1324,31.8395,合肥市,高新区,颗粒物(PM10),56,58,85,18,35,141,141,144,144,15,17,5,6,0.6,0.7
2026-04-17T1900,3464A,117.3802,31.9148,合肥市,高教基地,颗粒物(PM10),65,70,73,19,31,126,126,147,147,12,19,8,8,0.7,0.7
2026-04-17T1900,4098A,117.2518,31.8404,合肥市,中国科学技术大学,颗粒物(PM10),60,63,82,21,41,154,154,162,162,12,15,6,6,0.7,0.8
2026-04-17T1900,3614A,79.9241,37.0878,和田地区,地区环保局,颗粒物(PM10),420,520,365,116,80,110,110,106,106,8,9,1,4,0.4,0.4
2026-04-17T1900,3615A,79.9132,37.1137,和田地区,市环保局,颗粒物(PM10),347,457,313,108,69,104,104,99,99,5,11,3,4,0.3,0.6
2026-04-17T1900,2517A,108.0496,24.6957,河池市,市环保站,,32,32,20,19,8,83,83,80,80,2,4,13,5,0.7,0.8
2026-04-17T1900,4302A,108.0901,24.6945,河池市,上任中路54号,,32,32,20,22,8,83,83,82,82,3,9,9,6,0.8,0.8
2026-04-17T1900,1697A,114.6962,23.7538,河源市,东埔,,31,16,19,13,13,99,99,107,107,10,10,5,6,0.5,0.4
2026-04-17T1900,1698A,114.6895,23.7232,河源市,老城,,28,28,19,13,14,89,89,105,105,11,11,6,7,0.7,0.5
2026-04-17T1900,3374A,115.5562,35.089,菏泽市,定陶老年大学,颗粒物(PM10),65,70,93,21,54,144,144,142,142,13,24,6,6,0.5,0.6
2026-04-17T1900,4114A,115.4239,35.2593,菏泽市,黄河路600号,颗粒物(PM10),65,71,105,17,60,132,132,136,136,9,16,3,4,0.5,0.6
2026-04-17T1900,4115A,115.5025,35.2727,菏泽市,菏泽市人社局,颗粒物(PM10),65,70,100,31,60,128,128,137,137,7,18,7,8,0.4,0.5
2026-04-17T1900,4184A,115.479691,35.244011,菏泽市,永昌路1号,颗粒物(PM10),72,80,101,29,60,134,134,148,148,17,25,3,5,0.7,0.8
2026-04-17T1900,4193A,115.471542,35.280012,菏泽市,长城路999号,颗粒物(PM10),62,66,94,23,56,142,142,145,145,9,23,7,8,0.3,0.5
2026-04-17T1900,2514A,111.5264,24.4178,贺州市,环保小区,,23,23,23,10,12,68,68,63,63,9,12,5,6,0.6,0.5
2026-04-17T1900,2515A,111.561,24.4074,贺州市,政协大楼,,23,22,21,10,13,71,71,67,62,11,14,8,9,0.6,0.6
2026-04-17T1900,3534A,111.4744,24.455,贺州市,西湾,,22,22,28,9,12,60,60,57,57,10,12,9,8,0.7,0.7
2026-04-17T1900,2385A,114.17,35.9019,鹤壁市,市监测站,颗粒物(PM10),68,74,86,41,72,131,131,133,133,17,16,8,7,0.5,0.7
2026-04-17T1900,2386A,114.2953,35.7512,鹤壁市,市交警支队,颗粒物(PM10),75,84,88,28,62,112,112,130,130,20,23,11,8,0.4,0.6
2026-04-17T1900,2387A,114.2877,35.7302,鹤壁市,迎宾馆,颗粒物(PM10),75,84,117,33,72,113,113,131,131,14,18,5,5,0.5,0.8
2026-04-17T1900,3474A,114.2616,35.6824,鹤壁市,大新区,颗粒物(PM10),66,72,87,34,75,105,105,127,127,23,26,9,9,0.6,0.9
2026-04-17T1900,3596A,114.1573,35.9607,鹤壁市,南山宾馆,NA,NA,94,91,36,67,NA,NA,130,130,19,16,10,8,0.5,0.7
2026-04-17T1900,2244A,130.2537,47.3416,鹤岗市,哈啤分公司,细颗粒物(PM2.5),70,57,55,45,44,70,70,88,84,18,17,12,12,0.4,0.4
2026-04-17T1900,2245A,130.2683,47.3087,鹤岗市,斯达机电,细颗粒物(PM2.5),56,55,60,38,40,71,71,99,88,16,13,12,11,0.5,0.4
2026-04-17T1900,2246A,130.3114,47.3388,鹤岗市,东山纸板厂,细颗粒物(PM2.5),72,77,94,46,48,68,68,90,86,20,24,10,11,0.6,0.9
2026-04-17T1900,2263A,127.4832,50.2524,黑河市,交通局,,44,44,26,14,13,77,77,81,81,18,12,5,6,0.3,0.3
2026-04-17T1900,2264A,127.5146,50.2339,黑河市,环保局,,39,39,18,9,8,82,82,81,81,15,12,7,7,0.3,0.3
2026-04-17T1900,1074A,115.6839,37.754,衡水市,电机北厂,颗粒物(PM10),95,112,90,51,65,124,124,130,130,16,33,6,5,0.5,0.5
2026-04-17T1900,1075A,115.6303,37.7318,衡水市,市监测站,"颗粒物(PM10),细颗粒物(PM2.5)",86,100,86,53,59,118,118,130,130,21,24,8,6,0.5,0.5
2026-04-17T1900,3188A,115.6684,37.7216,衡水市,市城管局,"颗粒物(PM10),细颗粒物(PM2.5)",84,97,81,52,59,114,114,132,132,17,25,3,3,0.6,0.6
2026-04-17T1900,3459A,115.599,37.5491,衡水市,地表水厂,颗粒物(PM10),95,113,85,49,41,106,106,135,131,21,35,4,5,0.4,0.4
2026-04-17T1900,2457A,112.6209,26.9268,衡阳市,衡阳化工总厂,细颗粒物(PM2.5),56,53,35,38,25,63,63,70,70,18,13,6,6,0.9,0.7
2026-04-17T1900,2458A,112.621,26.8957,衡阳市,珠晖区环保局,,50,50,34,33,23,65,65,64,64,17,16,8,8,1.2,1.1
2026-04-17T1900,2459A,112.628,26.8654,衡阳市,市委党校,NA,NA,52,34,35,26,64,64,65,65,NA,8,10,10,1.1,1.2
2026-04-17T1900,2460A,112.6007,26.8977,衡阳市,市监测站,细颗粒物(PM2.5),60,57,33,40,24,59,59,64,64,19,15,7,8,1.1,0.9
2026-04-17T1900,2461A,112.5658,26.9013,衡阳市,真空机电公司,细颗粒物(PM2.5),60,49,28,40,25,51,51,68,68,33,16,6,8,1.3,1
2026-04-17T1900,3399A,112.6703,26.8817,衡阳市,师范学院,,50,49,33,35,23,67,67,73,73,14,12,7,7,1.0,0.9
2026-04-17T1900,3038A,103.3757,23.3679,红河哈尼族彝族自治州,州图书馆,细颗粒物(PM2.5),84,78,76,52,62,136,136,141,141,8,9,5,6,0.6,0.6
2026-04-17T1900,4154A,103.401,23.3561,红河哈尼族彝族自治州,蒙自市朝阳路,细颗粒物(PM2.5),82,54,63,51,57,138,138,141,141,8,12,5,5,0.6,0.6
2026-04-17T1900,1090A,111.6506,40.7517,呼和浩特市,呼市一监,颗粒物(PM10),79,90,105,44,27,124,124,121,121,12,22,6,9,0.3,0.4
2026-04-17T1900,1094A,111.7516,40.8369,呼和浩特市,如意水处理厂,颗粒物(PM10),75,84,98,36,38,131,131,118,118,9,30,7,10,0.2,0.3
2026-04-17T1900,1095A,111.727798,40.806187,呼和浩特市,二十九中,颗粒物(PM10),76,86,106,27,29,124,124,113,113,10,23,9,12,0.3,0.4
2026-04-17T1900,1097A,111.717,40.7617,呼和浩特市,化肥厂生活区,颗粒物(PM10),82,94,108,47,40,120,120,117,117,17,24,7,10,0.3,0.4
2026-04-17T1900,3699A,111.6519,40.8389,呼和浩特市,海东办,颗粒物(PM10),83,95,118,26,26,124,124,110,110,13,27,6,7,0.3,0.3
2026-04-17T1900,4275A,111.591512,40.827312,呼和浩特市,成吉思汗西街8号,颗粒物(PM10),86,100,128,27,27,119,119,109,109,17,40,8,7,0.3,0.4
2026-04-17T1900,4276A,111.6597,40.8077,呼和浩特市,公园东路75号,颗粒物(PM10),80,92,124,30,30,124,124,107,107,12,23,5,10,0.2,0.3
2026-04-17T1900,4277A,111.5427,40.7846,呼和浩特市,金海路35号,颗粒物(PM10),88,102,121,26,29,111,111,106,106,20,30,14,8,0.3,0.3
2026-04-17T1900,3061A,119.7511,49.1576,呼伦贝尔市,国华电力东,,33,33,24,12,10,85,85,89,89,11,9,6,5,0.3,0.3
2026-04-17T1900,4279A,119.7569,49.2222,呼伦贝尔市,伊敏大街东7号,,45,31,28,31,10,77,77,88,87,16,10,5,5,0.5,0.5
2026-04-17T1900,1250A,120.075,30.867,湖州市,城西水厂,,45,41,51,31,42,138,138,121,121,16,24,5,6,0.5,0.6
2026-04-17T1900,2873A,120.083,30.8929,湖州市,仁皇山新区,细颗粒物(PM2.5),52,42,53,36,45,132,132,122,122,16,23,5,5,0.6,0.6
2026-04-17T1900,2907A,120.1846,30.8592,湖州市,吴兴区站,颗粒物(PM10),53,53,50,33,38,134,134,124,124,16,20,8,6,0.3,0.4
2026-04-17T1900,3562A,120.4146,30.8538,湖州市,南浔区站,细颗粒物(PM2.5),64,57,45,42,39,133,133,120,120,15,14,6,6,0.9,0.7
2026-04-17T1900,1607A,120.904878,40.721091,葫芦岛市,龙港区,细颗粒物(PM2.5),101,NA,35,61,41,124,124,133,131,17,13,10,9,0.6,0.6
2026-04-17T1900,1608A,120.8382,40.7521,葫芦岛市,化工街,细颗粒物(PM2.5),111,85,59,72,49,106,106,119,117,28,25,13,11,0.6,0.5
2026-04-17T1900,1609A,120.8339,40.7078,葫芦岛市,新区,细颗粒物(PM2.5),101,NA,37,61,44,108,108,122,117,20,17,8,8,0.6,0.6
2026-04-17T1900,1610A,120.8697,40.7679,葫芦岛市,东城区,细颗粒物(PM2.5),107,NA,38,67,49,105,105,119,116,29,25,10,10,0.8,0.6
2026-04-17T1900,2483A,109.9297,27.5383,怀化市,河西地税局,NA,NA,NA,24,12,14,76,76,75,75,9,12,6,5,/,/
2026-04-17T1900,2484A,109.9783,27.5342,怀化市,市四医院,,33,33,26,12,13,75,75,76,76,8,9,4,4,0.4,0.4
2026-04-17T1900,2485A,109.9971,27.5579,怀化市,监测楼,,28,28,24,13,16,73,73,74,74,7,11,3,4,0.5,0.5
2026-04-17T1900,1210A,119.0566,33.5991,淮安市,钵池山,颗粒物(PM10),63,68,65,38,43,123,123,129,129,12,16,7,7,0.6,0.6
2026-04-17T1900,1211A,119.0083,33.578,淮安市,北京南路,细颗粒物(PM2.5),68,70,61,44,50,117,117,124,124,14,14,7,9,0.5,0.4
2026-04-17T1900,1212A,118.9938,33.6083,淮安市,市监测站,细颗粒物(PM2.5),66,68,62,43,52,135,135,141,141,13,14,5,7,0.7,0.7
2026-04-17T1900,1213A,119.135,33.5038,淮安市,楚州区监测站,细颗粒物(PM2.5),74,81,63,47,47,101,101,128,127,20,15,5,6,0.6,0.5
2026-04-17T1900,3426A,118.8757,33.2897,淮安市,新华书店,颗粒物(PM10),82,94,87,33,25,126,126,128,128,14,13,6,7,0.6,0.6
2026-04-17T1900,4092A,119.119691,33.550006,淮安市,枚皋中路89号,颗粒物(PM10),68,74,52,38,39,120,120,130,130,11,13,6,6,0.6,0.6
2026-04-17T1900,4206A,119.028838,33.631911,淮安市,承德北路606号,颗粒物(PM10),67,73,69,38,45,115,115,122,122,12,13,7,8,0.6,0.5
2026-04-17T1900,2282A,116.8005,33.9749,淮北市,监测站,颗粒物(PM10),63,67,56,29,35,128,128,156,156,15,16,7,7,0.5,0.6
2026-04-17T1900,2283A,116.8094,33.9008,淮北市,烈山区政府,颗粒物(PM10),75,85,71,37,43,127,127,156,149,14,19,6,7,0.5,0.6
2026-04-17T1900,4017A,116.7926,33.9534,淮北市,市博物馆,颗粒物(PM10),67,73,58,34,37,142,142,155,155,12,15,4,5,0.6,0.7
2026-04-17T1900,4100A,116.8322,33.9884,淮北市,杜集区第一实验学校,颗粒物(PM10),75,84,82,31,38,140,140,160,160,14,17,8,7,0.6,0.7
2026-04-17T1900,2277A,116.8304,32.7726,淮南市,潘集区政府,颗粒物(PM10),55,56,73,29,44,115,115,133,133,16,32,6,6,0.5,0.7
2026-04-17T1900,2279A,116.8569,32.5949,淮南市,谢家集区政府,颗粒物(PM10),55,56,82,27,55,130,130,149,149,16,22,8,13,0.3,0.5
2026-04-17T1900,2280A,116.8279,32.6333,淮南市,八公山区政府,颗粒物(PM10),68,75,72,30,59,126,126,144,144,10,13,9,10,0.4,0.6
2026-04-17T1900,2894A,117.0561,32.6536,淮南市,经济技术开发区消防队,,48,40,71,33,68,122,122,130,130,12,26,7,8,0.2,0.4
2026-04-17T1900,3329A,117.011,32.5891,淮南市,山南新区,颗粒物(PM10),55,57,81,25,52,138,138,149,149,15,23,10,9,0.5,0.6
2026-04-17T1900,4209A,117.003137,32.644456,淮南市,国庆中路369号,颗粒物(PM10),65,71,94,25,59,123,123,124,124,10,23,7,9,0.3,0.5
2026-04-17T1900,2446A,114.9021,30.474,黄冈市,职工中心,细颗粒物(PM2.5),62,49,53,41,30,140,140,124,124,10,13,9,7,0.5,0.6
2026-04-17T1900,2929A,114.8858,30.4519,黄冈市,红卫路,,49,49,50,32,28,135,135,132,132,12,13,7,6,0.6,0.7
2026-04-17T1900,3398A,114.9134,30.4446,黄冈市,市林业局,细颗粒物(PM2.5),68,57,54,44,29,147,147,131,131,9,13,3,4,0.4,0.5
2026-04-17T1900,2672A,102.02,35.5101,黄南藏族自治州,同仁县隆务镇,,46,22,26,12,11,147,147,140,140,2,3,10,9,0.2,0.2
2026-04-17T1900,2295A,118.2905,29.6965,黄山市,延安路89号,,30,30,27,17,19,85,85,98,98,20,10,5,5,0.4,0.5
2026-04-17T1900,2297A,118.1369,30.2755,黄山市,黄山区政府5号楼,,34,34,33,12,20,77,77,98,96,10,9,3,3,0.5,0.6
2026-04-17T1900,4210A,118.335445,29.720283,黄山市,滨江东路7-2号,颗粒物(PM10),53,53,40,17,22,68,68,100,99,12,8,/,/,/,/
2026-04-17T1900,2423A,115.0547,30.2332,黄石市,沈家营,,45,45,61,16,30,109,109,117,117,7,10,4,4,1.5,1.3
2026-04-17T1900,2426A,114.899,30.211,黄石市,铁山,颗粒物(PM10),58,61,46,36,29,120,120,122,122,10,14,8,7,0.4,0.9
2026-04-17T1900,2427A,115.0259,30.2108,黄石市,团城山,,45,39,52,31,32,108,108,104,104,5,12,4,6,0.6,1
2026-04-17T1900,3149A,115.0174,30.1591,黄石市,笔架山北路,颗粒物(PM10),51,51,77,33,34,110,110,117,117,11,19,7,9,0.7,1
2026-04-17T1900,4185A,115.078022,30.21118,黄石市,磁湖东路29号,颗粒物(PM10),51,51,63,33,31,114,114,133,133,15,12,3,4,0.8,0.9
2026-04-17T1900,1392A,114.4181,23.0528,惠州市,河南岸金山湖子站,颗粒物(PM10),52,52,30,32,18,130,130,134,134,27,18,6,7,0.7,0.5
2026-04-17T1900,1393A,114.4055,23.0824,惠州市,下埔横江三路子站,,45,45,31,25,16,129,129,136,136,26,14,6,6,0.8,0.7
2026-04-17T1900,1395A,114.4645,22.7832,惠州市,惠阳区承修路船湖子站,颗粒物(PM10),57,59,39,30,19,88,88,120,120,36,18,6,6,0.6,0.5
2026-04-17T1900,1396A,114.5316,22.7423,惠州市,大亚湾管委会子站,,49,49,32,29,19,92,92,99,99,32,18,4,4,0.6,0.5
2026-04-17T1900,3314A,114.4334,22.8134,惠州市,惠阳秋长,颗粒物(PM10),83,95,38,35,20,92,92,130,130,50,23,/,/,/,/
2026-04-17T1900,3452A,114.6521,22.7755,惠州市,大亚湾霞涌,,33,33,20,22,14,98,98,71,71,26,12,/,/,/,/
2026-04-17T1900,4300A,114.4089,23.1147,惠州市,文华一路1号,,49,44,28,34,19,128,128,132,132,26,15,/,/,/,/
2026-04-17T1900,2240A,130.9618,45.2926,鸡西市,环保局,细颗粒物(PM2.5),64,51,77,42,40,99,99,86,86,14,16,9,9,0.5,0.4
2026-04-17T1900,2243A,130.9294,45.2959,鸡西市,第一中学,,50,41,62,35,37,92,92,82,81,10,14,6,7,0.3,0.3
2026-04-17T1900,3707A,131.0069,45.2988,鸡西市,欧美日汽修厂,细颗粒物(PM2.5),88,58,85,54,41,31,31,79,65,37,16,8,5,0.7,0.5
2026-04-17T1900,2367A,114.9753,27.0803,吉安市,红声器材厂,,31,31,33,20,16,56,56,62,62,22,16,6,8,0.7,0.8
2026-04-17T1900,2369A,114.9903,27.1313,吉安市,市环境监测站,,36,36,30,24,16,56,56,58,58,21,18,17,13,/,/
2026-04-17T1900,2370A,115.009527,27.096792,吉安市,青原区法院,,37,37,30,25,16,58,58,62,62,24,18,10,9,1.0,1
2026-04-17T1900,1772A,126.54,43.8622,吉林市,哈达湾,NA,NA,40,87,18,56,NA,NA,117,117,8,18,6,10,0.3,0.5
2026-04-17T1900,1773A,126.5843,43.8358,吉林市,东局子,,35,35,80,20,56,89,89,108,107,19,21,5,7,0.9,1
2026-04-17T1900,1774A,126.5051,43.8243,吉林市,电力学院,NA,NA,48,89,29,63,108,108,121,121,14,22,6,9,NA,0.9
2026-04-17T1900,1775A,126.6133,43.8971,吉林市,江北,,41,41,94,20,60,89,89,113,112,15,22,12,12,0.7,0.9
2026-04-17T1900,1776A,126.5549,43.8304,吉林市,江南公园,,39,39,77,22,55,99,99,112,112,14,20,7,10,0.6,0.7
2026-04-17T1900,2868A,126.4737,43.953,吉林市,九站,,42,42,81,21,59,94,94,113,112,16,26,10,11,0.3,0.5
2026-04-17T1900,1299A,116.9866,36.6118,济南市,科干所,颗粒物(PM10),90,105,71,50,39,170,170,160,160,14,18,10,8,0.9,0.8
2026-04-17T1900,1300A,116.9379,36.6652,济南市,农科所,颗粒物(PM10),74,83,73,42,42,124,124,142,142,22,34,7,7,0.5,0.5
2026-04-17T1900,1301A,117.1265,36.6736,济南市,开发区,颗粒物(PM10),85,98,66,40,36,156,156,162,162,21,20,8,6,0.7,0.6
2026-04-17T1900,1303A,117.0616,36.6865,济南市,省种子仓库,颗粒物(PM10),98,117,81,44,37,150,150,156,156,17,26,7,6,0.8,0.7
2026-04-17T1900,1304A,116.9495185,36.644937,济南市,机床二厂,颗粒物(PM10),88,103,82,46,46,140,140,150,150,23,29,8,7,0.7,0.7
2026-04-17T1900,1305A,117.0496,36.6629,济南市,市监测站,颗粒物(PM10),91,107,74,52,38,154,154,154,154,21,25,8,6,0.9,0.8
2026-04-17T1900,1306A,116.7674,36.5458,济南市,长清党校,颗粒物(PM10),90,105,84,54,43,134,134,140,140,14,28,6,6,0.8,0.8
2026-04-17T1900,1961A,117.5323,36.6865,济南市,东山小学,颗粒物(PM10),88,103,74,38,40,160,160,166,166,20,26,5,6,0.6,0.5
2026-04-17T1900,3059A,117.7181,36.205,济南市,泰兴公司,颗粒物(PM10),91,107,85,44,52,146,146,156,155,21,34,10,11,0.6,0.9
2026-04-17T1900,3064A,117.6861,36.2172,济南市,莱芜战役纪念馆,颗粒物(PM10),96,114,90,45,54,146,146,155,155,19,24,14,10,2.4,1.2
2026-04-17T1900,3494A,117.1673,36.9782,济南市,济阳区政府,颗粒物(PM10),86,100,78,40,49,137,137,143,143,22,39,8,9,0.8,0.7
2026-04-17T1900,3495A,117.1168,36.6299,济南市,锦屏中学,颗粒物(PM10),81,93,55,49,35,137,137,150,150,19,16,8,6,0.5,0.4
2026-04-17T1900,4108A,117.7107,36.2385,济南市,山财大街5号,颗粒物(PM10),96,114,80,56,53,145,145,152,152,25,31,8,8,0.9,1
2026-04-17T1900,4109A,116.9744,36.6889,济南市,无影山路12号,颗粒物(PM10),80,92,71,47,48,126,126,138,138,20,36,7,6,0.7,0.7
2026-04-17T1900,1653A,116.6229,35.4288,济宁市,火炬城,细颗粒物(PM2.5),72,72,83,46,58,111,111,133,133,9,18,3,5,0.6,0.7
2026-04-17T1900,3500A,116.5808,35.3703,济宁市,北湖一中,NA,NA,NA,77,NA,58,NA,NA,153,153,NA,30,NA,8,NA,0.5
2026-04-17T1900,3501A,116.8251,35.5592,济宁市,服务中心,细颗粒物(PM2.5),82,69,81,51,69,130,130,150,150,12,34,2,4,0.7,0.7
2026-04-17T1900,3678A,116.5907,35.4054,济宁市,市第七中学,颗粒物(PM10),62,66,89,37,56,139,139,164,164,14,27,5,7,0.4,0.5
2026-04-17T1900,4111A,116.6075,35.4566,济宁市,任和路,颗粒物(PM10),87,101,108,40,56,152,152,162,162,10,24,6,8,0.5,0.6
2026-04-17T1900,4112A,116.5648,35.3921,济宁市,文体南路1号,颗粒物(PM10),83,95,108,35,53,130,130,146,146,10,24,5,7,0.7,0.8
2026-04-17T1900,4122A,112.6071,35.1015,济源市,市委党校,颗粒物(PM10),76,86,87,40,39,111,111,115,115,14,22,6,13,0.1,0.6
2026-04-17T1900,4123A,112.596,35.0702,济源市,沁园中路1号,颗粒物(PM10),71,79,84,17,33,120,120,116,116,7,23,2,12,0.3,1
2026-04-17T1900,2255A,130.2749,46.8028,佳木斯市,佳纺,细颗粒物(PM2.5),52,42,66,36,42,58,58,82,76,24,20,6,6,0.5,0.4
2026-04-17T1900,2257A,130.3258,46.7975,佳木斯市,环保局,,45,36,58,31,41,55,55,63,59,14,22,6,4,0.4,0.4
2026-04-17T1900,4285A,130.363,46.806,佳木斯市,顺和街,,39,27,54,27,40,66,66,83,79,20,23,4,4,0.5,0.4
2026-04-17T1900,4286A,130.3952,46.8268,佳木斯市,长安路196号,,50,36,53,35,37,58,58,84,79,20,19,3,5,0.6,0.5
2026-04-17T1900,1252A,120.7439,30.778,嘉兴市,清河小学,细颗粒物(PM2.5),78,64,38,49,30,96,96,113,113,38,19,7,7,0.8,0.6
2026-04-17T1900,1253A,120.7261,30.7477,嘉兴市,嘉兴学院,细颗粒物(PM2.5),72,54,31,46,31,103,103,116,116,35,20,6,6,0.9,0.6
2026-04-17T1900,2872A,120.7845,30.7524,嘉兴市,南湖区残联,细颗粒物(PM2.5),72,59,35,46,30,98,98,122,122,36,13,4,4,0.8,0.6
2026-04-17T1900,3407A,120.6915,30.7741,嘉兴市,秀洲住建,颗粒物(PM10),67,73,41,39,29,101,101,121,121,34,13,6,6,0.8,0.5
2026-04-17T1900,1945A,98.291,39.7705,嘉峪关市,气象局,,42,36,23,13,8,132,132,132,132,8,17,10,9,0.8,0.7
2026-04-17T1900,2884A,98.2672,39.7978,嘉峪关市,酒钢宾馆,,46,46,34,13,9,129,129,133,133,9,11,19,15,0.7,0.4
2026-04-17T1900,3248A,98.2644,39.7723,嘉峪关市,雄关区,,41,39,34,12,8,130,130,130,130,11,17,9,8,0.7,0.5
2026-04-17T1900,1383A,113.1063,22.6058,江门市,北街,,33,29,24,23,19,69,69,82,82,25,21,/,/,/,/
2026-04-17T1900,1384A,113.073,22.5835,江门市,西区,,32,28,24,22,18,74,74,84,84,28,19,/,/,/,/
2026-04-17T1900,1385A,113.0218,22.531,江门市,圭峰西,,29,25,25,20,18,84,84,74,74,18,20,/,/,/,/
2026-04-17T1900,1386A,113.0826,22.5947,江门市,东湖,,33,25,23,23,19,71,71,81,81,24,17,6,6,0.7,0.5
2026-04-17T1900,3311A,113.1077,22.5647,江门市,江海富民,,32,30,36,22,19,74,74,82,82,25,22,/,/,0.6,0.4
2026-04-17T1900,3449A,113.0496,22.4669,江门市,新会银湖,,23,20,27,16,18,71,71,66,66,25,28,7,7,0.8,0.7
2026-04-17T1900,3335A,113.3137,35.2643,焦作市,马村街道办,颗粒物(PM10),82,94,77,26,37,115,115,117,117,12,17,8,10,0.1,0.7
2026-04-17T1900,3336A,113.2464,35.2374,焦作市,焦作技师学院,颗粒物(PM10),71,79,77,23,35,116,116,113,113,10,16,7,10,0.5,1.1
2026-04-17T1900,3477A,113.1656,35.2536,焦作市,中站许衡医院,颗粒物(PM10),70,78,61,27,24,109,109,119,119,16,16,8,12,0.3,0.6
2026-04-17T1900,3981A,113.2456,35.18,焦作市,原李万街道办,颗粒物(PM10),69,76,81,21,47,125,125,117,117,6,17,5,8,0.1,0.5
2026-04-17T1900,4264A,113.234,35.219,焦作市,新安路1731号,颗粒物(PM10),76,86,76,19,36,129,129,123,123,14,28,8,11,0.6,0.9
2026-04-17T1900,4295A,113.2722,35.2121,焦作市,人民路3066号,颗粒物(PM10),61,65,73,20,40,119,119,116,116,9,16,3,6,0.3,0.7
2026-04-17T1900,1708A,116.3701,23.5345,揭阳市,新兴,,43,43,37,15,21,75,75,77,76,23,16,6,8,1.0,0.7
2026-04-17T1900,1709A,116.3261,23.5442,揭阳市,西马,,42,42,38,18,23,64,64,73,72,29,16,5,6,1.0,0.7
2026-04-17T1900,1710A,116.361,23.5627,揭阳市,东兴,,31,31,36,12,24,84,84,80,80,14,16,3,5,/,/
2026-04-17T1900,1711A,116.4151,23.5295,揭阳市,渔湖,,41,41,34,13,21,78,78,87,86,25,15,2,3,/,/
2026-04-17T1900,3320A,116.4028,23.5699,揭阳市,曲溪,,32,32,31,15,22,84,84,85,85,20,13,8,12,0.8,0.7
2026-04-17T1900,1944A,102.1691,38.5166,金昌市,天庆家园,,43,39,47,14,17,136,136,141,141,9,18,50,20,0.8,0.9
2026-04-17T1900,4022A,102.1648,38.5369,金昌市,金川区人防中心,,41,22,45,19,16,130,130,134,134,11,19,6,14,0.4,0.5
2026-04-17T1900,4239A,102.193042,38.531887,金昌市,长春路96号,,40,37,55,7,23,128,128,129,129,5,19,8,60,0.4,0.5
2026-04-17T1900,1262A,119.6478,29.0773,金华市,十五中,细颗粒物(PM2.5),60,58,64,40,53,52,52,62,62,36,31,4,3,0.9,0.9
2026-04-17T1900,1263A,119.6859,29.1032,金华市,监测站,,44,44,48,28,38,74,74,74,74,28,30,4,4,0.7,0.8
2026-04-17T1900,3659A,119.656,29.1132,金华市,气象局,,49,49,53,34,47,71,71,69,63,26,32,3,3,0.8,0.9
2026-04-17T1900,1767A,121.1114,41.0879,锦州市,南山,细颗粒物(PM2.5),106,NA,46,66,54,120,120,133,133,28,24,15,12,0.8,0.7
2026-04-17T1900,1768A,121.060361,40.842794,锦州市,开发区,细颗粒物(PM2.5),101,NA,54,61,45,115,115,128,125,24,25,6,9,0.7,0.6
2026-04-17T1900,1769A,121.1836,41.1118,锦州市,百股街道,细颗粒物(PM2.5),113,NA,43,74,53,122,122,132,132,27,24,10,8,0.7,0.6
2026-04-17T1900,1770A,121.1176,41.1224,锦州市,天安街道,细颗粒物(PM2.5),109,70,51,69,54,112,112,126,125,29,23,11,8,1.0,1
2026-04-17T1900,1771A,121.1303,41.1385,锦州市,北湖公园,细颗粒物(PM2.5),111,76,50,72,54,118,118,133,132,26,19,12,10,0.6,0.6
2026-04-17T1900,2160A,112.8496,35.5051,晋城市,自来水公司,颗粒物(PM10),73,82,79,3,13,124,124,130,130,11,17,4,4,0.1,0.3
2026-04-17T1900,2162A,112.8509,35.4886,晋城市,市环保局,颗粒物(PM10),72,80,73,17,18,125,125,132,132,8,15,6,6,0.1,0.4
2026-04-17T1900,3620A,112.8258,35.4804,晋城市,泽州一中,颗粒物(PM10),60,63,72,15,15,122,122,130,130,10,13,3,4,0.4,0.4
2026-04-17T1900,4078A,112.8246,35.5152,晋城市,前书院路,NA,NA,77,72,20,12,112,112,121,121,NA,18,7,7,NA,0.4
2026-04-17T1900,4079A,112.8864,35.4773,晋城市,祥云街666号,颗粒物(PM10),72,80,70,25,21,117,117,123,123,8,14,8,7,0.2,0.4
2026-04-17T1900,2174A,112.6992,37.6984,晋中市,榆次区政府,颗粒物(PM10),72,80,86,36,33,129,129,124,124,16,32,5,11,0.4,0.6
2026-04-17T1900,2865A,112.7195,37.683,晋中市,榆次三中,颗粒物(PM10),84,97,93,34,24,133,133,129,129,10,30,5,9,0.6,0.4
2026-04-17T1900,4080A,112.7375,37.7215,晋中市,广安街188号,颗粒物(PM10),73,82,90,30,27,129,129,124,124,11,32,4,8,0.1,0.3
2026-04-17T1900,4200A,112.7478,37.6954,晋中市,迎宾街26号,颗粒物(PM10),80,92,93,24,26,136,136,129,129,11,28,5,9,0.5,0.4
2026-04-17T1900,2439A,112.2012,31.048,荆门市,竹园小学,NA,NA,NA,64,NA,32,115,115,114,114,NA,20,3,5,0.3,0.2
2026-04-17T1900,2440A,112.1968,30.9892,荆门市,掇刀,颗粒物(PM10),70,78,68,29,34,118,118,122,122,14,21,9,9,0.4,0.6
2026-04-17T1900,3012A,112.1849,31.0361,荆门市,西山林语,颗粒物(PM10),75,85,66,34,30,116,116,120,120,11,12,6,6,0.4,0.5
2026-04-17T1900,3547A,112.1631,31.0134,荆门市,龙泉中学南校,颗粒物(PM10),65,70,64,26,28,125,125,131,131,15,14,5,5,0.3,0.3
2026-04-17T1900,4124A,112.2213,31.0654,荆门市,新台西路6号,颗粒物(PM10),69,76,64,37,38,118,118,120,120,12,22,8,8,0.5,0.5
2026-04-17T1900,1844A,112.2493,30.3198,荆州市,市图书馆,,46,45,38,32,31,89,89,113,113,37,25,6,7,0.6,0.6
2026-04-17T1900,1845A,112.2009,30.3543,荆州市,市委党校,颗粒物(PM10),59,62,50,36,32,96,96,110,110,14,22,8,8,0.6,0.6
2026-04-17T1900,3194A,112.2749,30.3124,荆州市,管委会,细颗粒物(PM2.5),56,47,47,38,37,92,92,110,110,19,20,7,8,0.6,0.6
2026-04-17T1900,4268A,112.1722,30.3366,荆州市,学苑路85号,,41,41,43,26,33,104,104,123,123,3,17,1,1,0.9,0.9
2026-04-17T1900,2343A,117.2114,29.2931,景德镇市,老干部活动中心,,28,28,29,15,23,74,74,89,89,11,7,7,7,0.7,0.9
2026-04-17T1900,2344A,117.1893,29.2789,景德镇市,兽医站,,25,24,31,17,22,75,75,88,88,10,12,3,4,0.7,0.8
2026-04-17T1900,2346A,117.246,29.2958,景德镇市,陶研所,,29,26,28,20,24,64,64,80,80,10,13,4,6,0.7,0.9
2026-04-17T1900,4289A,117.154766,29.256967,景德镇市,青少年活动中心,,38,37,31,26,25,74,74,82,82,10,13,12,12,/,/
2026-04-17T1900,1803A,115.9873,29.6816,九江市,十里,,44,44,56,21,29,103,103,106,106,20,22,8,9,0.8,1
2026-04-17T1900,1804A,115.9583,29.7047,九江市,茅山头,,43,43,50,22,33,121,121,116,116,13,19,3,4,0.7,0.9
2026-04-17T1900,1805A,115.9877,29.7295,九江市,西园,NA,NA,40,56,23,34,118,118,114,114,NA,37,3,6,0.7,0.9
2026-04-17T1900,1808A,115.9112,29.6038,九江市,综合工业园,,41,41,46,17,27,71,71,101,101,54,27,7,7,0.6,0.8
2026-04-17T1900,3190A,116.0254,29.6995,九江市,外国语学校,,42,42,46,26,36,98,98,102,102,31,18,9,10,0.9,1.1
2026-04-17T1900,4253A,116.010205,29.659402,九江市,莲花大道8号,,27,25,52,13,30,86,86,100,100,2,13,5,6,0.7,0.9
2026-04-17T1900,4240A,98.495752,39.733935,酒泉市,玉门东路5号,,38,29,34,11,12,121,121,116,116,8,11,9,6,0.3,0.2
2026-04-17T1900,4241A,98.5099,39.7506,酒泉市,北大街108号,,37,24,36,18,15,118,118,112,112,9,12,11,8,0.3,0.4
2026-04-17T1900,2698A,76.0071,39.466,喀什地区,巡警大队,颗粒物(PM10),52,52,132,15,38,102,102,106,106,5,30,4,4,0.1,0.3
2026-04-17T1900,2699A,75.9756,39.4693,喀什地区,吾办,NA,NA,NA,125,NA,37,NA,NA,115,105,NA,23,NA,4,NA,0.5
2026-04-17T1900,4027A,75.9485,39.4688,喀什地区,老干局,,44,44,105,12,27,101,101,106,106,3,19,3,3,0.2,0.3
2026-04-17T1900,1824A,114.3389,34.778,开封市,肿瘤医院,颗粒物(PM10),80,92,75,47,61,137,137,161,161,16,23,7,7,0.7,0.7
2026-04-17T1900,1826A,114.2884,34.7966,开封市,世纪星幼儿园,颗粒物(PM10),63,68,71,40,57,136,136,152,152,21,22,7,7,0.5,0.6
2026-04-17T1900,3147A,114.3434,34.8101,开封市,龙亭公园,颗粒物(PM10),67,73,71,40,62,143,143,164,164,19,25,9,8,0.7,0.8
2026-04-17T1900,3210A,114.3645,34.7955,开封市,汴京公园,颗粒物(PM10),75,85,79,40,59,142,142,171,171,21,24,6,5,0.4,0.5
2026-04-17T1900,3473A,114.2485,34.8306,开封市,技师学院,颗粒物(PM10),64,69,75,24,50,147,147,152,152,14,19,4,5,0.4,0.6
2026-04-17T1900,3592A,114.4518,34.7503,开封市,祥符区生态环境局,细颗粒物(PM2.5),68,60,59,44,66,121,121,138,138,27,37,8,8,0.6,0.7
2026-04-17T1900,1951A,84.886,45.6029,克拉玛依市,长征新村,,30,NA,24,3,8,93,93,91,90,4,3,6,6,0.4,0.4
2026-04-17T1900,1952A,84.8894,45.5827,克拉玛依市,南林小区,NA,NA,NA,27,0,7,98,98,98,96,3,3,4,3,0.1,0.1
2026-04-17T1900,1954A,84.896,44.3328,克拉玛依市,独山子区,NA,NA,NA,102,27,17,76,76,104,102,8,8,5,5,0.4,0.4
2026-04-17T1900,1955A,85.6888,46.0909,克拉玛依市,乌尔禾区商贸楼,颗粒物(PM10),53,54,38,6,14,92,92,91,91,6,6,2,3,0.1,0.1
2026-04-17T1900,3612A,85.1045,45.6895,克拉玛依市,白碱滩区新站,NA,NA,NA,37,18,13,94,94,102,101,NA,3,7,7,0.2,0.2
2026-04-17T1900,2697A,76.1457,39.7143,克孜勒苏柯尔克孜自治州,市人民政府,颗粒物(PM10),77,87,96,24,32,110,110,110,110,5,11,12,11,0.1,0.1
2026-04-17T1900,3665A,76.1654,39.7157,克孜勒苏柯尔克孜自治州,克州文化中心,颗粒物(PM10),64,69,97,22,29,104,104,102,102,2,8,4,13,0.1,0.2
2026-04-17T1900,1450A,102.8203,24.889,昆明市,呈贡新区,细颗粒物(PM2.5),54,44,51,37,43,162,162,163,163,10,20,6,5,0.6,0.7
2026-04-17T1900,1452A,102.7253,25.0904,昆明市,龙泉镇,细颗粒物(PM2.5),60,49,55,40,34,138,138,150,150,11,29,5,5,0.6,0.7
2026-04-17T1900,1453A,102.7267,25.0378,昆明市,东风东路,细颗粒物(PM2.5),62,55,57,41,35,148,148,156,156,18,19,1,4,0.6,0.6
2026-04-17T1900,1454A,102.6744,25.0671,昆明市,金鼎山,"颗粒物(PM10),细颗粒物(PM2.5)",64,69,61,42,37,146,146,155,155,16,22,3,4,0.7,0.7
2026-04-17T1900,1455A,102.6643,25.0401,昆明市,碧鸡广场,细颗粒物(PM2.5),66,44,54,43,33,144,144,150,150,19,21,5,6,0.7,0.7
2026-04-17T1900,3179A,102.7491,25.012,昆明市,官渡区博物馆,细颗粒物(PM2.5),66,60,66,43,38,151,151,153,153,12,28,4,4,0.5,0.6
2026-04-17T1900,3375A,102.8016,24.8336,昆明市,青年创业园,细颗粒物(PM2.5),52,39,61,36,41,132,132,134,134,7,19,6,7,0.5,0.6
2026-04-17T1900,3550A,102.8,24.9787,昆明市,昆明学院,NA,NA,50,69,32,37,NA,NA,148,148,13,22,5,6,0.7,0.7
2026-04-17T1900,3551A,102.5969,24.6738,昆明市,晋宁区生态环境分局,,46,44,59,32,43,145,145,162,162,11,12,5,4,0.5,0.4
2026-04-17T1900,3552A,102.6673,24.9861,昆明市,云天化总部,细颗粒物(PM2.5),54,50,56,37,32,160,160,159,159,12,21,5,6,0.6,0.6
2026-04-17T1900,1456A,91.132,29.6515,拉萨市,八廓街,,38,18,25,6,11,121,121,121,121,6,9,4,6,0.1,0.6
2026-04-17T1900,1457A,91.1221,29.6748,拉萨市,市环保局,,33,20,21,7,11,105,105,108,108,13,14,4,6,0.4,0.4
2026-04-17T1900,1458A,91.0874,29.6476,拉萨市,区监测站,,37,17,18,6,9,117,117,117,117,10,13,5,6,0.2,0.2
2026-04-17T1900,1459A,91.1774,29.6541,拉萨市,西藏大学,,37,13,20,3,9,117,117,114,114,9,12,4,6,0.2,0.2
2026-04-17T1900,1460A,90.9798,29.6586,拉萨市,区辐射站,,29,24,21,8,9,92,92,102,102,25,24,4,7,0.4,0.4
2026-04-17T1900,1461A,91.0831,29.6292,拉萨市,拉萨火车站,,37,21,20,7,10,118,118,118,118,8,12,4,5,0.2,0.2
2026-04-17T1900,2520A,109.2203,23.7252,来宾市,来宾技工学校,,39,39,21,17,14,78,78,72,72,5,8,7,6,0.7,0.7
2026-04-17T1900,3535A,109.1781,23.7293,来宾市,兴宾区政府,NA,NA,NA,29,NA,17,83,83,76,76,NA,6,8,7,NA,0.7
2026-04-17T1900,4002A,109.2312,23.7428,来宾市,中南小学,,32,32,24,18,18,80,80,74,74,8,10,7,7,0.6,0.6
2026-04-17T1900,1479A,103.8309,36.0467,兰州市,铁路设计院,NA,NA,NA,57,34,29,NA,NA,115,115,24,44,3,9,0.5,0.9
2026-04-17T1900,3241A,103.7439,36.0841,兰州市,百合公园,,41,25,50,14,23,130,130,147,147,9,33,2,7,0.1,0.5
2026-04-17T1900,3242A,103.9613,35.9985,兰州市,和平,,42,22,31,16,15,133,133,126,126,8,16,5,8,0.2,0.4
2026-04-17T1900,4236A,103.629272,36.093822,兰州市,庄浪东路808号,,41,38,60,10,24,130,130,182,172,7,33,7,12,0.3,0.5
2026-04-17T1900,4237A,103.7251,36.104344,兰州市,安宁西路88号,,46,33,50,22,25,145,145,171,171,10,29,7,9,0.2,0.3
2026-04-17T1900,4238A,103.846982,36.067567,兰州市,北滨河东路1号,,41,27,47,26,24,129,129,128,128,13,45,7,10,0.4,0.7
2026-04-17T1900,1067A,116.6712,39.5109,廊坊市,药材公司,细颗粒物(PM2.5),124,106,70,86,58,116,116,112,112,16,19,3,3,0.6,0.5
2026-04-17T1900,1068A,116.7215,39.5592,廊坊市,开发区,细颗粒物(PM2.5),114,116,70,75,50,120,120,119,119,13,12,3,3,0.4,0.3
2026-04-17T1900,1070A,116.7246,39.5273,廊坊市,北华航天学院,细颗粒物(PM2.5),98,82,42,59,41,133,133,122,122,14,17,2,2,0.5,0.4
2026-04-17T1900,2919A,116.7022,39.5454,廊坊市,河北工业大学,细颗粒物(PM2.5),112,73,39,73,52,127,127,118,118,14,16,1,1,0.5,0.4
2026-04-17T1900,2536A,103.7629,29.5844,乐山市,牛耳桥,,35,24,22,8,7,112,112,113,113,15,16,4,4,0.4,0.5
2026-04-17T1900,2537A,103.7501,29.6002,乐山市,市第三水厂,,34,23,20,6,7,107,107,109,109,18,15,4,4,0.5,0.6
2026-04-17T1900,2538A,103.7571,29.5664,乐山市,市监测站,,34,20,21,3,7,107,107,104,104,8,12,3,4,0.6,0.7
2026-04-17T1900,3361A,103.7313,29.563,乐山市,理工大学,,37,22,22,3,8,116,116,114,114,10,12,3,4,0.4,0.5
2026-04-17T1900,2599A,100.2497,26.8802,丽江市,丽江古城,,40,40,33,22,16,118,118,124,124,8,7,8,9,0.7,0.6
2026-04-17T1900,2600A,100.2203,26.8906,丽江市,市中心,,37,37,26,22,15,112,112,126,126,16,12,6,7,0.5,0.6
2026-04-17T1900,1267A,119.9141,28.4513,丽水市,监测站大楼,,33,30,17,23,8,77,77,84,82,14,16,4,4,0.7,0.6
2026-04-17T1900,1268A,119.93,28.4589,丽水市,莲都小学,,40,40,20,26,8,82,82,83,83,15,20,/,/,/,/
2026-04-17T1900,1269A,119.8794,28.4232,丽水市,余庄前,,31,31,17,17,7,40,40,81,76,11,13,4,5,0.7,0.6
2026-04-17T1900,1173A,119.1759,34.5885,连云港市,市环境监测站,细颗粒物(PM2.5),92,73,55,56,45,124,124,132,132,24,17,12,8,0.6,0.5
2026-04-17T1900,3000A,119.3577,34.6971,连云港市,德源药业,颗粒物(PM10),53,53,49,29,30,95,95,131,129,27,17,7,6,0.5,0.4
2026-04-17T1900,3007A,119.178,34.8442,连云港市,新城一中,颗粒物(PM10),58,60,67,22,31,94,94,140,138,31,22,5,6,0.6,0.6
2026-04-17T1900,3008A,119.3607,34.7519,连云港市,胡沟管理处,NA,NA,NA,24,19,22,51,51,118,107,59,23,17,14,0.6,0.5
2026-04-17T1900,3009A,119.1478,34.5913,连云港市,矿山设计院,细颗粒物(PM2.5),82,88,62,51,43,123,123,139,139,25,15,23,20,0.8,0.6
2026-04-17T1900,3434A,119.2414,34.6539,连云港市,工贸学校,颗粒物(PM10),63,68,46,33,35,138,138,153,153,19,12,12,9,0.5,0.4
2026-04-17T1900,3664A,119.4171,34.734,连云港市,连云街道,颗粒物(PM10),54,55,42,26,25,76,76,110,106,28,18,1,3,0.5,0.4
2026-04-17T1900,2573A,102.2629,27.8981,凉山彝族自治州,西昌市政府,,37,18,17,17,8,117,117,126,126,8,5,6,4,0.5,0.4
2026-04-17T1900,2574A,102.2686,27.885,凉山彝族自治州,凉山州政府,,33,33,17,15,8,102,102,109,109,10,6,5,4,0.5,0.5
2026-04-17T1900,4229A,102.2342,27.8859,凉山彝族自治州,凯乐南路30号,,32,30,19,13,6,101,101,113,113,16,11,3,3,0.6,0.4
2026-04-17T1900,2212A,123.1978,41.2036,辽阳市,宏伟区,颗粒物(PM10),53,53,51,31,36,124,124,130,130,13,11,8,7,0.8,0.7
2026-04-17T1900,2213A,123.1684,41.2497,辽阳市,新华园,,50,46,59,35,41,128,128,135,135,18,16,10,10,0.7,0.7
2026-04-17T1900,2214A,123.2355,41.2663,辽阳市,滨河路,,48,44,48,33,38,124,124,129,129,18,17,10,8,0.9,0.8
2026-04-17T1900,4083A,123.153,41.2874,辽阳市,铁西路150号,细颗粒物(PM2.5),66,55,59,43,41,98,98,115,113,23,16,12,10,1.0,0.8
2026-04-17T1900,2227A,125.1359,42.8845,辽源市,环保局,,37,37,44,13,31,115,115,125,125,7,13,6,6,0.6,0.7
2026-04-17T1900,4085A,125.0998,42.9134,辽源市,安宁大街333号,,36,36,45,12,33,110,110,121,121,9,14,5,6,0.4,0.5
2026-04-17T1900,1625A,115.9789,36.4372,聊城市,区政府,颗粒物(PM10),83,95,89,44,49,142,142,143,143,12,23,8,8,0.9,0.9
2026-04-17T1900,3200A,115.9772,36.4986,聊城市,监控中心,颗粒物(PM10),72,80,80,36,49,152,152,157,157,18,34,9,10,0.6,0.6
2026-04-17T1900,3513A,116.0443,36.436,聊城市,九州社区,颗粒物(PM10),96,114,97,48,56,153,153,158,158,16,26,10,10,0.5,0.6
2026-04-17T1900,4018A,116.0564,36.4609,聊城市,星美广场,颗粒物(PM10),89,104,101,53,62,145,145,146,146,15,27,12,12,0.8,0.8
2026-04-17T1900,4113A,116.0091,36.4495,聊城市,利民路,细颗粒物(PM2.5),100,97,77,60,60,158,158,160,160,15,24,9,11,0.5,0.6
2026-04-17T1900,2632A,94.3683,29.6373,林芝市,林芝监测站,,31,25,12,14,7,98,98,100,100,4,6,4,4,0.4,0.4
2026-04-17T1900,2633A,94.3616,29.6634,林芝市,林芝人民医院,,32,32,14,10,7,97,97,99,99,1,3,4,4,0.4,0.4
2026-04-17T1900,2603A,100.0779,23.8981,临沧市,市环保局,细颗粒物(PM2.5),68,72,61,44,41,149,149,145,145,5,9,8,7,0.5,0.7
2026-04-17T1900,2604A,100.0894,23.882,临沧市,市气象局,细颗粒物(PM2.5),82,56,59,51,47,81,81,88,88,32,23,7,7,0.4,0.7
2026-04-17T1900,1733A,111.5552,36.0791,临汾市,临钢医院,颗粒物(PM10),86,100,99,25,24,145,145,135,135,15,19,10,8,0.6,0.8
2026-04-17T1900,1734A,111.4984,36.0734,临汾市,技工学校,颗粒物(PM10),75,84,88,30,26,148,148,133,133,14,18,10,9,0.6,0.7
2026-04-17T1900,1736A,111.5017,36.0857,临汾市,市委,颗粒物(PM10),68,74,88,21,24,153,153,137,137,16,18,11,9,0.7,0.7
2026-04-17T1900,3018A,111.5048,36.1015,临汾市,唐尧大酒店,颗粒物(PM10),84,97,96,35,32,152,152,136,136,16,20,10,9,0.6,0.7
2026-04-17T1900,4244A,111.4879,36.053,临汾市,启星学校,颗粒物(PM10),69,76,84,28,24,138,138,127,127,18,22,10,8,0.6,0.6
2026-04-17T1900,4271A,103.2464,35.6123,临夏回族自治州,滨河东路1号,,37,26,57,11,24,116,116,114,114,17,25,11,9,0.0,0.3
2026-04-17T1900,4310A,103.207136,35.599807,临夏回族自治州,新华街21号,NA,NA,26,65,13,34,NA,NA,100,100,14,21,8,6,0.2,0.5
2026-04-17T1900,1618A,118.3429,35.0532,临沂市,沂河小区,颗粒物(PM10),84,97,99,49,66,131,131,168,168,17,16,11,11,0.5,0.4
2026-04-17T1900,1619A,118.2962,35.0568,临沂市,鲁南制药厂,细颗粒物(PM2.5),92,95,101,56,72,135,135,181,175,16,19,13,12,0.3,0.2
2026-04-17T1900,1620A,118.2793,34.9976,临沂市,新光毛纺厂,细颗粒物(PM2.5),86,78,100,53,80,134,134,168,168,16,24,11,12,0.4,0.4
2026-04-17T1900,1621A,118.3955,35.0889,临沂市,河东保险公司,颗粒物(PM10),86,100,92,50,64,145,145,184,184,22,21,14,12,0.5,0.4
2026-04-17T1900,3370A,118.3563,35.0215,临沂市,十里堡居委,颗粒物(PM10),84,97,85,50,68,133,133,169,169,21,20,14,10,0.7,0.6
2026-04-17T1900,3496A,118.359,35.1067,临沂市,南坊新区,细颗粒物(PM2.5),100,90,88,60,74,135,135,172,172,19,21,13,12,0.4,0.3
2026-04-17T1900,3860A,118.3915,35.0297,临沂市,皇山花园小区,颗粒物(PM10),86,100,83,44,60,138,138,177,177,26,23,14,10,0.7,0.6
2026-04-17T1900,1870A,109.4854,24.3898,柳州市,柳东小学,,21,15,24,8,11,66,66,40,NA,4,7,4,4,0.8,0.7
2026-04-17T1900,1871A,109.4109,24.3304,柳州市,环保监测站,,19,19,24,7,16,55,55,48,48,10,12,4,8,0.9,0.9
2026-04-17T1900,1872A,109.3886,24.3408,柳州市,河西水厂,,20,NA,24,8,14,61,61,50,50,7,11,9,13,0.7,0.9
2026-04-17T1900,1873A,109.4263,24.2951,柳州市,市四中,,20,20,24,9,15,58,58,51,51,8,10,6,8,0.8,0.8
2026-04-17T1900,1874A,109.396,24.3658,柳州市,市九中,,28,28,25,8,16,57,57,51,51,6,11,5,9,0.7,0.8
2026-04-17T1900,1875A,109.4912,24.3164,柳州市,古亭山,,29,29,17,9,11,65,65,54,54,5,7,4,4,0.7,0.8
2026-04-17T1900,3402A,109.5422,24.3994,柳州市,市二中,,21,20,18,10,12,67,67,54,54,7,9,7,7,0.6,0.7
2026-04-17T1900,2307A,116.5078,31.7369,六安市,监测大楼,,43,43,37,24,33,129,129,134,134,12,13,4,4,0.4,0.5
2026-04-17T1900,2308A,116.4738,31.7642,六安市,皖西学院,颗粒物(PM10),51,51,43,18,29,136,136,136,136,7,10,5,5,0.5,0.5
2026-04-17T1900,2309A,116.4997,31.7904,六安市,朝阳厂,,42,41,36,24,34,132,132,136,136,15,14,6,6,0.3,0.4
2026-04-17T1900,2310A,116.5566,31.7885,六安市,开发区,,45,32,40,31,36,141,141,141,141,14,19,5,5,0.5,0.6
2026-04-17T1900,2577A,104.8293,26.592,六盘水市,黄土坡,,34,19,17,17,11,106,106,128,126,12,9,6,6,0.2,0.3
2026-04-17T1900,2579A,104.8481,26.5898,六盘水市,民中,,31,18,18,16,13,99,99,102,102,10,8,4,5,0.6,0.5
2026-04-17T1900,2580A,104.9541,26.5506,六盘水市,双水,,30,14,14,11,10,93,93,99,99,11,8,3,4,0.3,0.3
2026-04-17T1900,4151A,104.8899,26.5685,六盘水市,钟山大道中段564号,,32,24,24,11,11,102,102,103,103,6,9,2,3,0.6,0.8
2026-04-17T1900,2336A,117.022,25.1031,龙岩市,龙岩市监测站,,34,NA,26,16,24,108,108,106,106,9,10,6,6,0.6,0.5
2026-04-17T1900,2337A,117.0257,25.0662,龙岩市,闽西职业技术学院,,32,18,29,16,22,100,100,100,100,5,7,6,5,0.7,0.6
2026-04-17T1900,2338A,117.0195,25.0306,龙岩市,龙岩学院,,27,22,27,15,19,86,86,106,106,6,6,4,3,/,/
2026-04-17T1900,2885A,104.9344,33.3827,陇南市,滨江中学,颗粒物(PM10),64,69,52,17,19,95,95,97,97,6,11,7,8,0.6,0.6
2026-04-17T1900,3247A,104.9551,33.3709,陇南市,市总工会,,50,50,46,23,18,100,100,103,103,4,7,7,7,0.4,0.4
2026-04-17T1900,2488A,111.9984,27.7346,娄底市,市监测站,,27,27,35,15,23,80,80,76,76,11,20,3,5,0.6,0.7
2026-04-17T1900,2491A,111.9888,27.7035,娄底市,市政府,,28,28,39,17,23,84,84,89,89,10,13,3,3,0.6,0.8
2026-04-17T1900,4127A,111.9812,27.7591,娄底市,涟钢职大,颗粒物(PM10),53,54,33,34,17,74,74,84,84,11,15,4,4,3.1,1.2
2026-04-17T1900,4128A,112.0303,27.7457,娄底市,娄底体校,,45,45,28,19,17,78,78,82,82,3,8,4,4,0.3,0.3
2026-04-17T1900,1894A,105.4427,28.9063,泸州市,小市上码头,,33,20,20,7,12,104,104,104,104,8,12,6,6,0.4,0.4
2026-04-17T1900,1895A,105.4241,28.8573,泸州市,兰田宪桥,,31,20,24,8,11,98,98,102,102,16,9,5,5,0.5,0.5
2026-04-17T1900,1896A,105.4378,28.8833,泸州市,市环监站,,32,20,27,8,12,102,102,104,104,13,13,7,8,0.5,0.7
2026-04-17T1900,4272A,105.3689,28.7783,泸州市,纳溪中医医院,,35,35,37,10,15,111,111,106,106,10,11,4,4,0.6,0.7
2026-04-17T1900,2183A,111.1447,37.5212,吕梁市,环保局,,38,31,54,10,9,120,120,121,121,13,24,3,4,0.2,0.2
2026-04-17T1900,2185A,111.1285,37.5338,吕梁市,自来水公司,NA,NA,NA,85,NA,15,NA,NA,117,117,NA,28,NA,6,NA,0.4
2026-04-17T1900,2867A,111.1225,37.5093,吕梁市,马茂庄小学,,39,39,62,14,8,106,106,125,122,25,27,5,7,0.3,0.3
2026-04-17T1900,1812A,112.3934,34.6517,洛阳市,市委党校,,50,50,61,23,23,128,128,50,NA,16,24,11,9,0.4,0.5
2026-04-17T1900,1815A,112.494,34.6883,洛阳市,河南林校,颗粒物(PM10),56,58,77,21,27,122,122,125,125,24,27,12,14,0.5,0.6
2026-04-17T1900,1816A,112.3843,34.623,洛阳市,开发区管委会,颗粒物(PM10),63,67,62,29,20,121,121,128,128,18,18,13,10,0.5,0.6
2026-04-17T1900,1817A,112.4263,34.6249,洛阳市,市委新办公区,颗粒物(PM10),52,52,62,19,21,127,127,129,129,22,18,15,9,0.3,0.4
2026-04-17T1900,3340A,112.6005,34.6323,洛阳市,伊滨,颗粒物(PM10),52,52,68,26,22,118,118,122,122,18,17,8,8,0.5,0.5
2026-04-17T1900,3341A,112.495,34.6338,洛阳市,中移产业园,颗粒物(PM10),56,58,62,30,22,124,124,128,128,24,19,16,10,0.2,0.3
2026-04-17T1900,3593A,112.5736,34.8993,洛阳市,吉利监测站,颗粒物(PM10),66,72,67,26,18,116,116,118,118,19,15,8,9,0.3,0.4
2026-04-17T1900,3635A,112.3678,34.6623,洛阳市,河科大西苑校区,颗粒物(PM10),51,51,62,16,22,135,135,131,131,13,18,11,11,0.4,0.5
2026-04-17T1900,3636A,112.4387,34.678,洛阳市,英才小学,颗粒物(PM10),56,58,84,24,29,126,126,123,123,22,33,15,15,0.4,0.6
2026-04-17T1900,4214A,112.460027,34.694929,洛阳市,春都路1号院,颗粒物(PM10),62,66,87,18,27,133,133,132,132,20,26,13,13,0.4,0.7
2026-04-17T1900,2399A,114.051,33.5721,漯河市,三五一五工厂,颗粒物(PM10),79,90,72,40,43,148,148,151,151,16,32,7,7,0.4,0.4
2026-04-17T1900,2400A,114.0055,33.5698,漯河市,漯河大学,细颗粒物(PM2.5),88,84,66,54,49,142,142,145,145,20,23,8,7,0.6,0.5
2026-04-17T1900,2401A,114.0134,33.5826,漯河市,市水利局,颗粒物(PM10),80,92,73,36,40,143,143,145,145,14,19,6,6,0.7,0.7
2026-04-17T1900,2402A,114.0261,33.5697,漯河市,市广电局,颗粒物(PM10),81,93,74,50,45,152,152,155,155,18,26,7,6,0.5,0.5
2026-04-17T1900,3478A,113.9691,33.568,漯河市,市图书馆,颗粒物(PM10),77,87,66,39,37,143,143,146,146,17,19,8,7,0.5,0.5
2026-04-17T1900,4250A,114.089259,33.588274,漯河市,韶山路11号,颗粒物(PM10),80,92,80,45,43,131,131,138,138,19,29,8,8,0.6,0.6
2026-04-17T1900,1798A,118.5084,31.6838,马鞍山市,湖东路四小,颗粒物(PM10),52,52,54,16,44,111,111,130,130,24,23,6,10,0.7,1
2026-04-17T1900,1799A,118.5019,31.6449,马鞍山市,开发区,颗粒物(PM10),55,56,54,15,36,128,128,137,137,20,29,8,9,0.7,0.9
2026-04-17T1900,3633A,118.4914,31.681,马鞍山市,雨山,,48,48,48,21,29,115,115,131,131,24,26,8,10,0.8,1.1
2026-04-17T1900,4191A,118.527362,31.722269,马鞍山市,慈湖高新区,,41,24,57,13,37,130,130,136,136,13,19,6,8,0.5,0.5
2026-04-17T1900,1686A,111.0285,21.469,茂名市,电白南海,,35,29,23,24,11,96,96,78,78,17,8,5,5,0.9,0.7
2026-04-17T1900,1687A,110.9294,21.6533,茂名市,茂石化七小,,32,NA,23,22,14,77,77,71,71,23,12,5,7,0.8,0.5
2026-04-17T1900,1688A,110.9108,21.6688,茂名市,健康路,,30,NA,15,21,13,87,87,73,73,18,11,4,5,0.9,0.6
2026-04-17T1900,1689A,110.8592,21.6826,茂名市,高岭,,38,29,29,26,14,86,86,68,68,20,15,4,6,/,/
2026-04-17T1900,3450A,111.0101,21.5165,茂名市,电白水东,,33,22,14,22,13,105,105,80,80,12,9,2,2,/,/
2026-04-17T1900,2540A,103.8414,30.0871,眉山市,气象局,,37,27,37,3,6,118,118,115,115,10,12,6,8,0.5,0.6
2026-04-17T1900,3148A,103.829,30.0563,眉山市,区人社局,,34,31,34,3,8,108,108,107,107,19,16,6,8,0.4,0.5
2026-04-17T1900,4148A,103.8836,30.0695,眉山市,眉职院,,38,19,24,3,6,120,120,112,112,9,11,7,8,0.5,0.6
2026-04-17T1900,1690A,116.1248,24.3307,梅州市,梅江月梅,,25,21,22,14,16,77,77,97,97,13,13,/,/,/,/
2026-04-17T1900,1691A,116.0798,24.2719,梅州市,梅县新城,,27,16,23,14,16,86,86,102,102,10,13,7,8,0.5,0.5
2026-04-17T1900,3315A,116.1234,24.2994,梅州市,梅龙,,30,19,21,18,16,93,93,108,108,9,10,6,7,0.8,0.7
2026-04-17T1900,1878A,104.7775,31.4741,绵阳市,富乐山,,35,32,35,13,19,109,109,113,113,12,15,7,7,0.5,0.6
2026-04-17T1900,1880A,104.6698,31.4668,绵阳市,高新区自来水公司,,40,31,38,13,20,128,128,119,119,15,16,6,7,0.6,0.7
2026-04-17T1900,3491A,104.6899,31.5324,绵阳市,西科大附属小学,,45,33,36,18,19,142,142,125,125,16,19,7,6,0.5,0.5
2026-04-17T1900,3492A,104.5647,31.5343,绵阳市,安州区旅游局,,47,42,32,12,16,150,150,130,130,15,10,6,5,0.4,0.4
2026-04-17T1900,4146A,104.7092,31.4972,绵阳市,科技城新区公安局,,39,37,37,10,17,124,124,113,113,10,15,7,7,0.5,0.5
2026-04-17T1900,4226A,104.765114,31.453094,绵阳市,绵阳市气象局,,35,29,35,10,19,109,109,102,102,10,16,9,10,0.3,0.4
2026-04-17T1900,1784A,129.61,44.561,牡丹江市,环保大楼,,38,33,44,26,31,98,98,88,88,12,15,4,3,0.4,0.5
2026-04-17T1900,1787A,129.6364,44.6075,牡丹江市,机车工厂,颗粒物(PM10),51,51,58,33,35,89,89,77,77,14,20,10,8,0.3,0.5
2026-04-17T1900,1788A,129.6386,44.5462,牡丹江市,第一中学,,41,41,45,24,29,92,92,91,91,13,14,8,7,0.6,0.5
2026-04-17T1900,4287A,129.5992,44.5964,牡丹江市,东晓云街98号,颗粒物(PM10),67,73,54,30,27,83,83,80,80,21,17,4,4,0.4,0.4
2026-04-17T1900,2531A,105.0703,29.61,内江市,市监测站,,35,35,34,11,14,105,105,103,103,11,9,8,8,0.3,0.3
2026-04-17T1900,2533A,105.0657,29.5807,内江市,内江二中,,41,41,40,15,17,129,129,122,122,8,10,6,6,0.2,0.3
2026-04-17T1900,2534A,105.0407,29.5828,内江市,内江日报社,,42,36,34,17,17,134,134,130,130,12,10,7,5,0.3,0.4
2026-04-17T1900,4147A,105.0433,29.6105,内江市,玉峰路西段888号,,41,41,39,17,20,125,125,124,124,13,11,6,5,0.4,0.4
2026-04-17T1900,2628A,92.0653,31.4846,那曲市,那曲监测站,,38,37,40,26,25,98,98,100,100,10,18,7,8,0.6,0.8
2026-04-17T1900,4243A,92.0515,31.4787,那曲市,那曲市委宣传部,,33,33,31,7,18,85,85,87,87,8,13,8,10,0.5,0.8
2026-04-17T1900,1291A,115.8887,28.7006,南昌市,省林业公司,,36,36,23,22,16,112,112,98,98,10,12,4,4,0.5,0.5
2026-04-17T1900,1292A,115.813,28.7443,南昌市,林科所,,32,27,18,22,15,102,102,106,106,18,15,8,7,0.7,0.7
2026-04-17T1900,1294A,115.8518,28.687,南昌市,建工学校,颗粒物(PM10),53,54,30,23,18,113,113,98,98,15,17,9,9,0.8,0.9
2026-04-17T1900,1295A,115.8926,28.6425,南昌市,象湖,,39,27,18,27,24,119,119,101,101,10,14,8,8,0.9,1
2026-04-17T1900,3046A,115.9084,28.6062,南昌市,机电学校,,37,37,31,21,20,115,115,106,106,14,17,5,4,0.7,0.7
2026-04-17T1900,3690A,115.9718,28.7032,南昌市,外国语学校,,38,38,27,24,21,118,118,100,100,11,17,8,8,0.7,0.7
2026-04-17T1900,4106A,115.7923,28.6873,南昌市,工业二路,NA,NA,46,31,24,17,108,108,101,101,NA,16,5,5,0.8,0.8
2026-04-17T1900,4192A,115.931587,28.686774,南昌市,南京东路235号,,39,38,33,25,20,122,122,106,106,9,9,6,5,0.5,0.5
2026-04-17T1900,1906A,106.0791,30.8022,南充市,南充市委,,41,41,46,18,22,116,116,111,111,12,12,8,7,0.3,0.3
2026-04-17T1900,1907A,106.1038,30.8215,南充市,南充炼油厂,,46,46,53,18,22,121,121,114,114,10,11,6,5,0.2,0.2
2026-04-17T1900,4227A,106.108336,30.788436,南充市,梨树横街98号,,48,48,47,16,23,125,125,118,118,9,9,7,7,0.3,0.2
2026-04-17T1900,4304A,106.1172,30.843,南充市,清泉寺北路188号,,40,40,48,17,25,125,125,118,118,11,11,7,6,0.4,0.3
2026-04-17T1900,4305A,106.067,30.7616,南充市,同庆路1号,,37,36,47,21,22,117,117,113,113,13,11,7,7,0.2,0.2
2026-04-17T1900,1151A,118.8033,32.1085,南京市,迈皋桥,,47,47,47,19,32,121,121,137,137,20,14,4,6,0.7,0.7
2026-04-17T1900,1152A,118.7487,32.057,南京市,草场门,,48,48,45,12,29,129,129,134,134,21,20,5,5,0.4,0.5
2026-04-17T1900,1154A,118.770105,32.004342,南京市,中华门,,48,48,58,14,32,118,118,136,136,22,18,9,8,0.8,0.9
2026-04-17T1900,1155A,118.8059,32.0329,南京市,瑞金路,,48,48,66,12,33,122,122,137,137,24,18,4,6,0.6,0.6
2026-04-17T1900,1156A,118.7946,32.0774,南京市,玄武湖,,42,42,47,10,28,117,117,126,126,9,8,4,5,0.4,0.5
2026-04-17T1900,1157A,118.6415,32.0964,南京市,浦口,颗粒物(PM10),60,64,36,13,26,113,113,116,116,16,16,4,4,0.4,0.4
2026-04-17T1900,1158A,118.730129,32.000956,南京市,奥体中心,,49,49,56,13,27,111,111,114,114,20,20,9,7,0.4,0.4
2026-04-17T1900,1159A,118.9072,32.1047,南京市,仙林大学城,颗粒物(PM10),58,61,57,26,33,109,109,129,129,36,21,8,8,0.6,0.6
2026-04-17T1900,3422A,118.8443,31.919,南京市,江宁彩虹桥,,49,49,47,14,28,124,124,140,140,26,19,4,4,0.4,0.7
2026-04-17T1900,3427A,118.8497,32.3599,南京市,六合雄州,细颗粒物(PM2.5),70,63,54,45,38,116,116,118,118,25,26,4,4,0.9,0.8
2026-04-17T1900,4086A,118.7641,32.0841,南京市,新模范马路66号,,41,41,55,12,28,129,129,138,138,13,15,5,4,0.4,0.5
2026-04-17T1900,4249A,118.8707617,31.34017673,南京市,汶溪路181号,颗粒物(PM10),53,54,44,18,32,142,142,155,155,25,17,3,4,0.6,0.6
2026-04-17T1900,4312A,119.019,31.6512,南京市,中山西路1号,颗粒物(PM10),51,51,53,18,35,114,114,128,128,17,15,4,4,0.7,0.7
2026-04-17T1900,1401A,108.3098,22.788,南宁市,二十一中,NA,NA,NA,30,11,23,71,71,84,79,9,13,2,2,0.6,0.6
2026-04-17T1900,1402A,108.3135,22.8529,南宁市,北湖,,23,22,31,15,26,71,71,90,84,11,12,2,3,0.8,0.7
2026-04-17T1900,1403A,108.3205,22.8222,南宁市,市监测站,,23,17,32,12,22,72,72,90,85,11,12,2,3,0.5,0.5
2026-04-17T1900,1404A,108.3828,22.8038,南宁市,大自然花园,,22,18,31,11,22,69,69,87,80,11,12,5,5,0.8,0.8
2026-04-17T1900,1406A,108.2397,22.8462,南宁市,区农职院,,26,26,33,6,18,58,58,68,62,6,11,2,4,0.7,0.6
2026-04-17T1900,1407A,108.3285,22.7356,南宁市,英华嘉园,,25,18,37,12,24,77,77,87,81,10,15,3,4,0.5,0.5
2026-04-17T1900,3401A,108.4829,22.762,南宁市,红星社区,,22,18,33,14,22,69,69,94,84,9,10,4,4,0.7,0.7
2026-04-17T1900,4132A,108.2927,23.1477,南宁市,起凤路9号,,22,22,35,14,22,64,64,84,80,7,9,5,5,0.6,0.6
2026-04-17T1900,4221A,108.2177,22.7774,南宁市,乐贤路16号,,23,23,35,12,23,65,65,77,76,20,19,4,7,0.6,0.6
2026-04-17T1900,2332A,118.1682,26.6371,南平市,南平市监测站,,29,29,23,16,14,40,40,58,58,17,9,5,5,0.8,0.6
2026-04-17T1900,2334A,118.1757,26.6276,南平市,南平七中,NA,NA,NA,22,15,12,39,39,59,59,18,8,2,2,0.8,0.6
2026-04-17T1900,1168A,120.9056,31.9669,南通市,狼山街道,,43,43,35,21,22,83,83,92,92,14,13,3,4,0.6,0.5
2026-04-17T1900,1170A,120.8635,32.0231,南通市,城中,颗粒物(PM10),51,51,49,22,23,83,83,89,89,12,13,3,4,0.4,0.3
2026-04-17T1900,1171A,120.9376,31.9301,南通市,星湖花园,颗粒物(PM10),53,53,41,21,24,84,84,89,89,17,20,3,4,0.6,0.5
2026-04-17T1900,1172A,120.8053,32.046,南通市,紫琅学院,,44,44,35,19,22,88,88,100,100,20,17,5,5,0.8,0.7
2026-04-17T1900,3291A,121.0631,32.0644,南通市,通州监测站,,41,41,39,23,21,90,90,87,87,10,8,3,3,0.6,0.5
2026-04-17T1900,3432A,120.9348,31.9874,南通市,环境教育馆,,44,44,41,23,22,84,84,92,92,15,16,4,4,0.6,0.5
2026-04-17T1900,4091A,120.8692,31.9885,南通市,洪江路,NA,NA,52,43,20,23,75,75,90,90,23,15,NA,4,1.0,0.8
2026-04-17T1900,2404A,112.5338,33.0086,南阳市,瓦房庄,颗粒物(PM10),54,55,60,22,28,116,116,120,120,14,27,5,5,0.5,0.6
2026-04-17T1900,2405A,112.5002,32.9734,南阳市,汉画馆,颗粒物(PM10),55,57,63,24,28,108,108,122,122,22,31,7,6,0.5,0.6
2026-04-17T1900,2406A,112.5778,33.0144,南阳市,气象站,颗粒物(PM10),63,67,62,22,28,117,117,126,126,18,26,5,5,0.4,0.5
2026-04-17T1900,2407A,112.548,32.9687,南阳市,理工学院,颗粒物(PM10),55,57,59,17,29,120,120,127,127,18,28,6,6,0.4,0.5
2026-04-17T1900,4008A,112.5233,32.9921,南阳市,卧龙区政府,NA,NA,45,52,30,29,112,112,125,125,NA,35,8,7,0.3,0.6
2026-04-17T1900,1234A,121.8352,29.9111,宁波市,区环保大楼,颗粒物(PM10),85,99,56,47,28,110,110,130,130,52,35,7,7,0.7,0.5
2026-04-17T1900,1235A,121.5595,29.8208,宁波市,万里学院,细颗粒物(PM2.5),76,58,38,48,34,101,101,107,107,40,16,10,8,0.8,0.7
2026-04-17T1900,1236A,121.713,29.9564,宁波市,龙赛医院,颗粒物(PM10),68,74,52,41,29,118,118,129,129,38,26,6,6,0.5,0.5
2026-04-17T1900,1240A,121.5855,29.8635,宁波市,太古小学,细颗粒物(PM2.5),72,71,51,46,35,128,128,122,122,33,21,6,4,0.7,0.6
2026-04-17T1900,1241A,121.5239,29.8673,宁波市,市环境监测中心,细颗粒物(PM2.5),80,50,41,50,40,122,122,121,121,36,20,5,4,0.7,0.5
2026-04-17T1900,2871A,121.6156,29.9015,宁波市,万里国际学校,细颗粒物(PM2.5),68,50,41,44,36,137,137,132,132,31,22,6,5,0.7,0.6
2026-04-17T1900,3710A,121.5593,29.8976,宁波市,白沙活动中心,细颗粒物(PM2.5),62,42,30,41,31,134,134,129,129,28,19,7,6,0.7,0.5
2026-04-17T1900,4095A,121.8962,29.7529,宁波市,中科路88号,细颗粒物(PM2.5),64,50,36,42,29,126,126,125,125,30,22,10,8,0.8,0.5
2026-04-17T1900,2341A,119.5387,26.6611,宁德市,宁德市监测站,,26,24,28,14,19,82,82,78,78,21,29,7,7,1.0,1
2026-04-17T1900,3209A,119.5231,26.6562,宁德市,宁德一中,,29,24,28,12,20,92,92,78,78,10,19,5,6,0.7,0.9
2026-04-17T1900,2618A,98.859,25.8541,怒江傈僳族自治州,州监测站,NA,NA,46,32,27,21,NA,NA,111,111,16,11,8,6,0.4,0.3
2026-04-17T1900,2619A,98.8607,25.8168,怒江傈僳族自治州,泸水一中,细颗粒物(PM2.5),60,44,33,40,25,92,92,94,94,38,20,7,6,0.6,0.5
2026-04-17T1900,1888A,101.6891,26.571,攀枝花市,弄弄坪,,47,47,40,22,21,133,133,137,137,11,13,15,13,0.6,0.6
2026-04-17T1900,1889A,101.577,26.5914,攀枝花市,河门口,颗粒物(PM10),55,57,60,34,32,141,141,143,143,12,16,14,15,0.8,0.7
2026-04-17T1900,1891A,101.7365,26.4986,攀枝花市,仁和,NA,NA,NA,NA,NA,NA,NA,NA,NA,NA,NA,NA,NA,NA,NA,NA
2026-04-17T1900,2835A,101.7222,26.567,攀枝花市,四十中小,,39,33,38,22,20,123,123,132,132,11,13,9,10,0.6,0.7
2026-04-17T1900,1604A,122.0303,41.1489,盘锦市,开发区,细颗粒物(PM2.5),101,NA,40,61,49,130,130,142,140,9,10,6,6,0.4,0.3
2026-04-17T1900,1605A,122.0486,41.0883,盘锦市,兴隆台,细颗粒物(PM2.5),74,NA,34,47,49,113,113,128,126,9,12,8,9,0.5,0.5
2026-04-17T1900,1606A,121.8297,41.1026,盘锦市,新生街道,细颗粒物(PM2.5),115,NA,32,76,61,137,137,143,142,11,15,4,6,0.5,0.5
2026-04-17T1900,1832A,113.3257,33.7423,平顶山市,新华旅馆,颗粒物(PM10),85,98,78,35,29,132,132,141,141,16,26,8,7,0.4,0.6
2026-04-17T1900,1833A,113.2917,33.737,平顶山市,规划设计院,颗粒物(PM10),85,98,70,39,27,121,121,140,140,15,22,11,9,0.6,0.5
2026-04-17T1900,1834A,113.182,33.7738,平顶山市,平顶山工学院,颗粒物(PM10),70,78,55,30,21,141,141,136,136,14,15,10,9,0.5,0.5
2026-04-17T1900,3594A,112.8736,33.9068,平顶山市,石龙区,颗粒物(PM10),68,74,73,23,23,122,122,122,122,7,22,10,9,0.3,0.4
2026-04-17T1900,4116A,113.284,33.7139,平顶山市,姚电大道23号,颗粒物(PM10),88,102,64,46,27,127,127,140,140,21,24,8,7,0.4,0.4
2026-04-17T1900,2656A,106.6633,35.5338,平凉市,聚贤嘉苑,,44,44,48,19,17,116,116,116,116,10,19,8,6,0.3,0.3
2026-04-17T1900,2657A,106.7021,35.5307,平凉市,博物馆,,45,45,49,24,16,121,121,122,122,9,17,10,9,0.3,0.3
2026-04-17T1900,2348A,113.8384,27.6436,萍乡市,中医院,,30,28,40,21,26,71,71,74,74,17,18,5,8,1.2,1.1
2026-04-17T1900,2350A,113.8677,27.6438,萍乡市,市环保局,,40,NA,33,28,27,71,71,75,75,20,19,4,6,0.9,0.8
2026-04-17T1900,2351A,113.8663,27.6202,萍乡市,安源区政府,,38,30,31,26,23,66,66,63,63,10,10,6,6,0.8,0.8
2026-04-17T1900,4107A,113.8686,27.6668,萍乡市,联洪村委会,,35,35,34,20,21,73,73,70,70,8,17,2,3,0.5,0.6
2026-04-17T1900,2319A,119.0142,25.4324,莆田市,荔城区仓后路,,39,32,36,27,29,106,106,113,113,14,16,/,/,/,/
2026-04-17T1900,2320A,119.0016,25.4553,莆田市,莆田市监测站,,35,25,32,24,24,105,105,119,119,17,14,4,3,0.5,0.6
2026-04-17T1900,2321A,119.112,25.4561,莆田市,涵江区六中,NA,NA,28,31,NA,28,92,92,112,112,20,18,/,/,0.5,0.9
2026-04-17T1900,2322A,119.1014,25.3215,莆田市,秀屿区政府,,43,NA,31,30,28,110,110,112,112,8,8,3,3,0.6,0.6
2026-04-17T1900,2392A,115.0312,35.7636,濮阳市,环保局,颗粒物(PM10),75,85,73,29,54,128,128,126,126,17,18,4,4,0.5,0.8
2026-04-17T1900,3021A,115,35.7667,濮阳市,濮水河管理处,"颗粒物(PM10),细颗粒物(PM2.5)",58,60,79,39,51,119,119,127,127,17,22,5,4,0.6,0.8
2026-04-17T1900,4118A,115.0552,35.7816,濮阳市,中原东路68号,颗粒物(PM10),63,68,100,28,54,136,136,136,136,12,17,3,5,0.6,0.7
2026-04-17T1900,4216A,115.0923632,35.76857718,濮阳市,任丘路479号,颗粒物(PM10),62,66,97,34,61,126,126,133,133,20,21,4,6,0.4,0.7
2026-04-17T1900,2601A,100.9801,22.7634,普洱市,市环保局,颗粒物(PM10),72,80,97,41,50,151,151,147,147,10,12,5,4,0.7,0.9
2026-04-17T1900,2602A,100.9763,22.8237,普洱市,普洱第二中学,颗粒物(PM10),77,87,93,43,53,145,145,142,142,18,25,7,6,0.4,0.7
2026-04-17T1900,3345A,131.0413,45.7795,七台河市,中波台,NA,NA,NA,51,38,42,NA,NA,76,75,28,19,6,6,0.7,0.6
2026-04-17T1900,3637A,131.0136,45.7688,七台河市,人民广场,,49,48,64,34,39,63,63,79,74,27,24,13,13,0.8,0.8
2026-04-17T1900,3684A,130.8639,45.8144,七台河市,新建矿广场,细颗粒物(PM2.5),64,48,56,42,42,30,30,59,52,38,24,25,12,0.0,0.4
2026-04-17T1900,1779A,123.9307,47.3641,齐齐哈尔市,安居小区,细颗粒物(PM2.5),133,NA,58,96,33,84,84,83,83,14,21,5,6,0.6,0.5
2026-04-17T1900,1780A,123.9497,47.3389,齐齐哈尔市,中心广场,细颗粒物(PM2.5),137,121,67,100,36,81,81,77,77,16,24,6,6,0.6,0.5
2026-04-17T1900,1781A,123.9483,47.3229,齐齐哈尔市,农牧车辆厂,细颗粒物(PM2.5),140,NA,57,104,36,90,90,85,85,16,21,5,5,0.5,0.4
2026-04-17T1900,1783A,123.9442,47.2994,齐齐哈尔市,市环境监测站,细颗粒物(PM2.5),148,NA,56,112,38,85,85,80,80,14,20,3,3,0.8,0.6
2026-04-17T1900,3662A,123.6341,47.2079,齐齐哈尔市,富区青少年活动中心,细颗粒物(PM2.5),131,NA,61,94,35,80,80,74,74,14,16,4,4,0.8,0.7
2026-04-17T1900,2591A,107.9765,26.5724,黔东南苗族侗族自治州,市环境监测站,,24,20,20,16,13,76,76,77,76,8,8,3,3,0.6,0.6
2026-04-17T1900,2881A,107.8909,26.531,黔东南苗族侗族自治州,凯里学院,,27,NA,15,13,13,84,84,87,87,8,9,2,2,0.4,0.5
2026-04-17T1900,2593A,107.5223,26.2371,黔南布依族苗族自治州,小围寨,,23,NA,14,11,11,72,72,74,74,6,7,6,6,0.4,0.4
2026-04-17T1900,3538A,107.5175,26.2977,黔南布依族苗族自治州,沙坝,,23,9,16,9,11,72,72,75,75,6,6,4,4,0.7,0.7
2026-04-17T1900,2589A,104.9022,25.0943,黔西南布依族苗族自治州,场坝街,,37,NA,28,25,23,116,116,110,110,8,8,8,8,0.4,0.4
2026-04-17T1900,2590A,104.8812,25.0994,黔西南布依族苗族自治州,坪东大道,,35,25,30,24,27,108,108,108,108,9,9,5,5,0.4,0.4
2026-04-17T1900,2502A,108.6238,21.9667,钦州市,市环保站,,28,24,32,12,17,89,89,84,84,10,12,3,4,0.6,0.7
2026-04-17T1900,2503A,108.655,21.9481,钦州市,沙埠小学,,27,17,32,15,21,86,86,83,83,9,13,2,3,0.9,0.9
2026-04-17T1900,2504A,108.5989,21.7435,钦州市,港区一小,,31,31,41,17,27,86,86,76,76,14,19,4,6,0.6,0.6
2026-04-17T1900,3404A,108.5959,21.9634,钦州市,北职校,,27,15,34,13,18,86,86,84,84,10,9,3,3,0.6,0.5
2026-04-17T1900,1046A,119.5247,39.9346,秦皇岛市,建设大厦,细颗粒物(PM2.5),117,126,69,78,40,138,138,129,129,24,20,9,7,0.6,0.5
2026-04-17T1900,3132A,119.5979,39.938,秦皇岛市,文明里,细颗粒物(PM2.5),112,102,68,73,41,125,125,128,128,36,29,11,9,0.6,0.4
2026-04-17T1900,4066A,119.7458,39.9952,秦皇岛市,南园路157号,细颗粒物(PM2.5),123,113,61,85,45,128,128,116,116,26,25,10,8,0.5,0.3
2026-04-17T1900,4067A,119.5131,39.8858,秦皇岛市,翠岛大街1号,细颗粒物(PM2.5),114,80,55,75,38,127,127,128,128,28,21,10,8,0.6,0.4
2026-04-17T1900,4198A,119.509013,39.825305,秦皇岛市,北戴河轮滑馆,细颗粒物(PM2.5),127,101,55,89,37,127,127,125,125,31,18,8,8,0.6,0.4
2026-04-17T1900,1310A,120.404,36.0625,青岛市,市南区东部子站,,34,34,39,10,16,67,67,88,74,14,14,5,6,0.3,0.3
2026-04-17T1900,1311A,120.362344,36.10282,青岛市,四方区子站,,36,36,37,14,21,90,90,109,107,19,13,5,6,0.6,0.5
2026-04-17T1900,1312A,120.294373,36.054183,青岛市,市南区西部子站,,24,24,40,7,14,70,70,92,76,20,23,3,4,0.5,0.5
2026-04-17T1900,1313A,120.4581,36.0858,青岛市,崂山区子站,,36,36,39,9,15,85,85,98,83,12,15,8,9,0.3,0.3
2026-04-17T1900,1315A,120.3945,36.3083,青岛市,城阳区子站,,44,44,48,11,24,93,93,122,122,24,17,6,6,0.6,0.6
2026-04-17T1900,3642A,120.3454,36.0735,青岛市,市北区南部,,27,27,35,11,15,84,84,101,100,17,10,2,2,0.5,0.6
2026-04-17T1900,3643A,120.3897,36.18,青岛市,李沧区北部,NA,NA,56,49,18,24,NA,NA,98,98,NA,16,8,9,NA,0.5
2026-04-17T1900,4110A,120.5222,36.4089,青岛市,盟旺路653号,,35,35,42,14,25,111,111,127,127,10,9,4,4,0.7,0.7
2026-04-17T1900,4290A,120.196923,35.954556,青岛市,珠江路669号,,36,36,44,13,16,85,85,100,99,19,13,4,4,0.6,0.6
2026-04-17T1900,4291A,120.0424,35.8656,青岛市,黄岛区人民政府广场,,29,29,42,9,19,84,84,107,91,20,15,8,8,0.5,0.6
2026-04-17T1900,1703A,113.0218,23.7086,清远市,凤城街办,,31,31,23,20,14,80,80,84,77,29,21,/,/,/,/
2026-04-17T1900,3025A,113.0479,23.6343,清远市,技师学院,,25,24,26,16,14,80,80,87,86,21,20,4,5,0.6,0.5
2026-04-17T1900,3318A,112.9898,23.7403,清远市,清新太和,NA,NA,21,24,15,14,81,81,89,86,NA,20,7,7,0.7,0.6
2026-04-17T1900,3455A,113.076,23.72,清远市,清城东城,,32,32,23,22,12,72,72,84,76,16,14,/,/,/,/
2026-04-17T1900,2661A,107.6325,35.7357,庆阳市,庆阳五中,,43,43,53,16,17,124,124,120,120,13,15,5,2,0.2,0.3
2026-04-17T1900,2662A,107.6361,35.7067,庆阳市,市环保局,,40,40,47,18,17,127,127,124,124,13,12,5,5,0.3,0.3
2026-04-17T1900,1916A,103.7897,25.5036,曲靖市,环境监测站,颗粒物(PM10),63,68,48,41,32,128,128,134,134,15,14,6,9,0.8,0.8
2026-04-17T1900,1917A,103.8013,25.5357,曲靖市,烟厂办公区,,50,NA,42,35,26,122,122,123,123,9,12,5,8,0.5,0.6
2026-04-17T1900,3376A,103.7926,25.4651,曲靖市,南苑二区,细颗粒物(PM2.5),74,52,50,47,33,126,126,125,125,12,12,3,4,0.6,0.6
2026-04-17T1900,3377A,103.7442,25.5259,曲靖市,曲靖师范学院,颗粒物(PM10),65,71,45,38,32,134,134,135,135,10,19,3,7,0.5,0.5
2026-04-17T1900,1264A,118.8694,28.94,衢州市,环保大楼,,17,12,29,7,21,53,53,68,67,17,18,/,/,/,/
2026-04-17T1900,1266A,118.8622,28.9809,衢州市,衢州学院,,14,13,23,8,19,44,44,62,60,20,27,4,5,0.6,0.6
2026-04-17T1900,4097A,118.9646,28.9832,衢州市,衢州三中,,15,9,26,6,19,48,48,67,67,19,21,7,7,0.6,0.7
2026-04-17T1900,1611A,118.5818,24.9116,泉州市,涂山街,,45,35,47,31,39,68,68,74,74,27,23,3,4,0.8,0.9
2026-04-17T1900,1612A,118.597,24.8976,泉州市,津头埔,,46,36,49,32,41,68,68,75,75,21,22,3,4,0.7,0.8
2026-04-17T1900,1613A,118.6669,24.9422,泉州市,万安,,43,34,42,30,39,70,70,77,77,16,18,4,4,0.6,0.7
2026-04-17T1900,4105A,118.6355,24.9148,泉州市,霞新路6号,,43,31,42,30,39,70,70,75,75,21,24,/,/,0.6,0.7
2026-04-17T1900,2626A,88.8873,29.2723,日喀则市,日喀则监测站,,34,11,24,3,11,107,107,109,109,6,8,10,10,0.4,0.5
2026-04-17T1900,3726A,88.8775,29.2425,日喀则市,林业技术推广中心,,35,13,24,3,8,110,110,112,112,4,5,8,9,0.3,0.4
2026-04-17T1900,1659A,119.4711,35.421,日照市,监测站,颗粒物(PM10),67,73,50,41,26,119,119,125,125,31,23,9,9,1.1,0.7
2026-04-17T1900,1660A,119.523,35.4216,日照市,市政府广场,颗粒物(PM10),60,63,46,33,25,114,114,116,NA,24,18,8,7,1.0,0.7
2026-04-17T1900,1661A,119.5511,35.4113,日照市,港务局,,34,34,40,11,18,78,78,113,112,27,19,6,6,0.6,0.6
2026-04-17T1900,3507A,119.5326,35.4627,日照市,职业技术学院,颗粒物(PM10),56,58,42,30,24,121,121,135,135,22,19,8,8,0.9,0.7
2026-04-17T1900,3604A,119.3267,35.1043,日照市,岚山环保分局,颗粒物(PM10),65,70,63,34,32,121,121,138,138,30,24,12,13,0.9,0.9
2026-04-17T1900,1835A,111.1922,34.7752,三门峡市,市政府,颗粒物(PM10),55,56,64,20,20,111,111,117,117,11,28,8,10,0.2,0.4
2026-04-17T1900,1836A,111.1588,34.794,三门峡市,开发区,颗粒物(PM10),58,61,64,12,24,113,113,116,116,18,22,9,12,0.3,0.4
2026-04-17T1900,3039A,111.1911,34.7829,三门峡市,三门峡市第一小学,颗粒物(PM10),60,64,77,14,22,111,111,116,116,14,23,12,15,0.2,0.3
2026-04-17T1900,3598A,111.1031,34.719,三门峡市,富达温泉假日酒店,颗粒物(PM10),65,71,81,15,25,115,115,115,115,16,22,10,18,0.3,0.4
2026-04-17T1900,2324A,117.621,26.2626,三明市,三钢,,26,26,27,14,18,64,64,76,76,14,14,4,5,0.8,0.7
2026-04-17T1900,2325A,117.6352,26.2714,三明市,三明二中,,22,21,25,15,17,61,61,72,72,11,12,3,3,0.7,0.7
2026-04-17T1900,2326A,117.6028,26.2377,三明市,三元区政府,,23,23,27,13,20,57,57,74,74,19,15,9,7,1.5,0.9
2026-04-17T1900,1877A,109.4962,18.2682,三亚市,河西子站,,28,28,21,12,13,61,61,62,62,6,4,5,4,0.4,0.3
2026-04-17T1900,3540A,109.7348,18.3443,三亚市,君悦子站,,30,30,29,10,11,65,65,66,66,3,5,3,3,0.4,0.5
2026-04-17T1900,4135A,109.1714,18.3739,三亚市,城东小学站,,29,29,22,11,13,58,58,62,62,5,6,/,/,/,/
2026-04-17T1900,2624A,91.7592,29.234,山南市,山南监测站,,37,36,22,11,7,117,117,116,116,5,4,12,12,0.2,0.2
2026-04-17T1900,2625A,91.7701,29.2436,山南市,山南人民医院,,35,23,24,14,8,111,111,113,113,6,3,11,9,0.2,0.2
2026-04-17T1900,1674A,116.6795,23.3666,汕头市,金平子站,,34,23,23,12,17,108,108,112,112,14,11,4,5,0.9,0.8
2026-04-17T1900,1675A,116.7248,23.3632,汕头市,龙湖子站,,34,32,23,17,17,106,106,110,110,16,8,6,6,/,/
2026-04-17T1900,1676A,116.7257,23.2774,汕头市,濠江子站,,29,29,25,17,18,80,80,98,98,16,16,8,8,/,/
2026-04-17T1900,1677A,116.7518,23.4712,汕头市,澄海子站,,36,36,33,14,20,104,104,110,110,19,13,7,7,0.9,0.8
2026-04-17T1900,1678A,116.6088,23.2539,汕头市,潮阳子站,,33,33,24,20,20,104,104,102,102,16,10,7,6,1.1,0.7
2026-04-17T1900,3444A,116.4539,23.2684,汕头市,潮南峡山,,30,27,26,15,16,95,95,100,100,12,9,7,7,0.8,0.7
2026-04-17T1900,3624A,116.4069,23.2533,汕头市,潮南子站,,36,36,27,16,15,78,78,89,89,17,8,6,6,/,/
2026-04-17T1900,1693A,115.3653,22.7751,汕尾市,市环保局,,24,18,18,13,15,75,75,78,78,7,7,6,5,0.3,0.4
2026-04-17T1900,1695A,115.362,22.7926,汕尾市,新城中学,,24,12,16,10,13,76,76,82,82,8,8,7,7,0.4,0.3
2026-04-17T1900,2645A,109.9155,33.8714,商洛市,监测站,,35,35,55,17,21,111,111,123,123,17,18,5,9,0.3,0.4
2026-04-17T1900,3045A,109.9647,33.8486,商洛市,商州区中学,,39,39,59,13,21,95,95,121,121,25,18,2,5,0.3,0.3
2026-04-17T1900,2408A,115.6701,34.4283,商丘市,环境监测站,颗粒物(PM10),71,79,84,44,58,135,135,139,139,6,15,3,4,0.5,0.6
2026-04-17T1900,2409A,115.6458,34.4047,商丘市,粮食局,细颗粒物(PM2.5),62,55,68,41,62,130,130,134,134,9,16,5,5,0.4,0.5
