timepoint,stationcode,longitude,latitude,area,positionname,primarypollutant,aqi,pm10,pm10_24h,pm2_5,pm2_5_24h,o3,o3_24h,o3_8h,o3_8h_24h,no2,no2_24h,so2,so2_24h,co,co_24h
2024-03-20T1200,2566A,102.1879,31.914,阿坝藏族羌族自治州,州农科所,颗粒物(PM10),51,52,30,7,9,22,,15,14,17,8,3,3,0.2,0.2
2024-03-20T1200,2568A,102.2502,31.8896,阿坝藏族羌族自治州,马师校,,23,11,17,4,9,71,,44,44,6,6,4,4,0.5,0.5
2024-03-20T1200,3994A,102.2165,31.9024,阿坝藏族羌族自治州,马尔康中学西区,,25,6,13,6,8,80,,51,49,5,6,4,4,0.4,0.4
2024-03-20T1200,2695A,80.292,41.1694,阿克苏地区,电视台,颗粒物(PM10),219,363,367,70,74,50,,58,47,20,17,8,6,0.8,0.8
2024-03-20T1200,2696A,80.2613,41.1551,阿克苏地区,艺术中心,颗粒物(PM10),184,318,362,59,69,53,,49,42,30,27,6,5,1.3,1.2
2024-03-20T1200,2204A,105.6467,38.8363,阿拉善盟,西城区西花园,,42,42,37,17,12,100,,100,98,6,6,9,8,0.9,0.8
2024-03-20T1200,2205A,105.6985,38.8411,阿拉善盟,蒙二幼,颗粒物(PM10),55,59,42,14,12,98,,92,91,7,7,6,5,0.3,0.4
2024-03-20T1200,2206A,105.724,38.8516,阿拉善盟,环保局新楼,颗粒物(PM10),55,59,38,17,11,103,,102,101,6,6,6,6,0.4,0.3
2024-03-20T1200,2708A,88.1264,47.8517,阿勒泰地区,市站,,27,,11,13,4,84,,87,81,8,8,6,6,0.2,0.1
2024-03-20T1200,2630A,80.1161,32.5,阿里地区,阿里监测站,,27,11,8,7,4,86,,81,75,8,5,17,11,0.5,0.5
2024-03-20T1200,3192A,80.0903,32.5028,阿里地区,阿里藏医院,,28,19,11,8,4,87,,86,79,9,5,11,9,0.5,0.4
2024-03-20T1200,2642A,109.0318,32.6537,安康市,香溪洞,颗粒物(PM10),68,86,85,27,25,48,,47,38,17,13,10,11,0.7,0.6
2024-03-20T1200,2643A,109.0281,32.6939,安康市,安康市监测站,颗粒物(PM10),65,80,83,27,28,59,,28,28,13,20,16,10,0.6,0.6
2024-03-20T1200,2644A,109.0072,32.6975,安康市,汉滨区检察院,颗粒物(PM10),64,77,80,25,26,56,,27,27,16,18,18,12,0.6,0.5
2024-03-20T1200,2291A,117.0809,30.5177,安庆市,环科院,颗粒物(PM10),93,135,112,31,35,108,,32,32,14,53,8,8,0.5,0.7
2024-03-20T1200,2292A,117.0331,30.5119,安庆市,马山宾馆,颗粒物(PM10),88,126,111,26,34,107,,35,35,12,37,8,9,0.2,0.4
2024-03-20T1200,2294A,116.9896,30.6145,安庆市,安庆大学,颗粒物(PM10),104,157,113,36,30,106,,38,38,24,36,14,9,0.2,0.3
2024-03-20T1200,3173A,117.0598,30.5351,安庆市,市人大,颗粒物(PM10),95,140,122,30,39,111,,34,34,10,42,8,7,0.6,0.8
2024-03-20T1200,3122A,105.9606,26.2611,安顺市,伍家关,,,,,,,,,,,,,,,,
2024-03-20T1200,3123A,105.9408,26.2431,安顺市,凤凰山,,,55,38,19,24,69,,61,61,14,16,21,23,,0.8
2024-03-20T1200,3124A,105.9439,26.2564,安顺市,金钟山,,50,50,41,15,26,73,,61,61,13,13,17,19,0.5,0.6
2024-03-20T1200,3125A,105.8983,26.2481,安顺市,娄家坡,颗粒物(PM10),53,55,42,23,25,68,,60,60,17,14,22,20,0.7,0.7
2024-03-20T1200,1818A,114.4839,36.0621,安阳市,棉研所,,,,,,,,,,,,,,,,
2024-03-20T1200,1819A,114.3551,36.1017,安阳市,红庙街,颗粒物(PM10),62,74,105,6,18,85,,63,63,6,25,2,3,0.5,0.6
2024-03-20T1200,1820A,114.361,36.0681,安阳市,银杏小区,颗粒物(PM10),66,81,107,24,24,84,,62,62,2,22,5,6,0.3,0.4
2024-03-20T1200,3141A,114.3922,36.0878,安阳市,信访局,颗粒物(PM10),67,83,111,10,22,84,,63,63,2,22,3,4,0.2,0.3
2024-03-20T1200,3669A,114.4705,36.0637,安阳市,左辅环卫站,颗粒物(PM10),67,83,120,20,25,79,,60,60,6,20,5,5,0.4,0.4
2024-03-20T1200,3703A,114.2917,36.0949,安阳市,安钢职工学校,颗粒物(PM10),69,88,113,12,23,82,,63,63,10,29,5,10,0.3,0.6
2024-03-20T1200,1748A,123.044,41.1196,鞍山市,深沟寺,,38,38,31,18,16,82,,75,75,20,17,18,10,1.2,0.5
2024-03-20T1200,1749A,123.011,41.0931,鞍山市,太阳城,,33,33,37,18,17,95,,76,76,9,25,9,21,0.4,1.6
2024-03-20T1200,1750A,123.0485,41.1442,鞍山市,太平,,38,38,31,19,16,85,,72,72,16,18,14,8,0.9,0.5
2024-03-20T1200,1751A,122.9642,41.0971,鞍山市,铁西三道街,,41,41,36,20,17,94,,80,80,14,21,4,9,0.3,0.6
2024-03-20T1200,1752A,122.9341,41.0833,鞍山市,铁西工业园区,,33,33,38,14,18,94,,71,71,9,19,4,7,0.4,0.6
2024-03-20T1200,1753A,123.022,41.0821,鞍山市,明达新区,,37,37,38,19,18,87,,67,67,11,26,10,19,0.5,1.3
2024-03-20T1200,1754A,123.1289,41.0228,鞍山市,千山,,,,,,,,,,,,,,,,
2024-03-20T1200,2195A,107.4212,40.761,巴彦淖尔市,附二中,颗粒物(PM10),79,108,68,39,28,59,,40,39,34,18,16,32,0.7,0.5
2024-03-20T1200,2196A,107.37,40.7372,巴彦淖尔市,市环保大楼,颗粒物(PM10),72,94,51,19,22,73,,51,45,20,14,10,12,0.6,0.4
2024-03-20T1200,1956A,86.1472,41.7538,巴音郭楞蒙古自治州,孔雀公园,颗粒物(PM10),330,444,391,95,81,62,,25,25,18,31,8,6,0.3,0.5
2024-03-20T1200,1957A,86.1972,41.7166,巴音郭楞蒙古自治州,棉纺厂,颗粒物(PM10),406,506,512,95,99,68,,64,64,10,16,4,3,0.2,0.4
2024-03-20T1200,1958A,86.2357,41.7173,巴音郭楞蒙古自治州,经济开发区,颗粒物(PM10),278,404,436,80,90,75,,55,50,8,20,5,6,0.3,0.4
2024-03-20T1200,2914A,106.7677,31.8794,巴中市,苏山坪,颗粒物(PM10),71,92,81,32,26,53,,80,69,24,10,4,4,0.6,0.4
2024-03-20T1200,3182A,106.7656,31.8545,巴中市,丽阳花园,颗粒物(PM10),74,97,78,40,31,36,,15,15,37,33,5,4,0.7,0.5
2024-03-20T1200,3183A,106.7418,31.8654,巴中市,圣泉水务公司,颗粒物(PM10),62,74,72,33,28,46,,26,26,29,32,5,5,0.6,0.5
2024-03-20T1200,3616A,106.7616,31.8344,巴中市,市中心医院,颗粒物(PM10),69,88,79,38,31,35,,11,11,27,29,6,6,0.6,0.5
2024-03-20T1200,2235A,122.7911,45.6077,白城市,洮北区环保局,颗粒物(PM10),52,54,40,26,25,100,,89,89,11,12,5,6,0.4,0.4
2024-03-20T1200,2236A,122.8738,45.5725,白城市,市环保局,,44,44,45,18,24,97,,74,74,5,14,5,4,0.5,0.6
2024-03-20T1200,2231A,126.4219,41.9171,白山市,喜丰,,27,25,35,10,15,86,,76,76,13,12,8,10,0.6,0.7
2024-03-20T1200,2232A,126.4077,41.9419,白山市,环保局,,35,35,44,12,19,88,,67,67,3,6,7,8,0.6,0.7
2024-03-20T1200,2647A,104.1724,36.5446,白银市,第三小学,颗粒物(PM10),59,67,80,27,27,81,,54,54,13,20,19,55,0.7,0.8
2024-03-20T1200,2648A,104.1465,36.5482,白银市,动力公司,颗粒物(PM10),54,58,60,26,22,86,,59,59,16,18,19,32,0.6,0.8
2024-03-20T1200,2512A,106.6103,23.9011,百色市,市监测站,颗粒物(PM10),62,74,34,22,13,78,,44,44,19,22,16,15,0.5,0.6
2024-03-20T1200,2513A,106.6538,23.8859,百色市,市中心血站,颗粒物(PM10),63,75,42,26,18,86,,62,59,14,19,9,14,0.5,0.7
2024-03-20T1200,3406A,106.6085,23.8798,百色市,祈福高中,颗粒物(PM10),59,68,44,28,20,82,,32,32,15,26,11,9,0.5,0.7
2024-03-20T1200,2270A,117.396,32.939,蚌埠市,工人疗养院,颗粒物(PM10),101,151,162,34,29,73,,58,57,26,31,13,8,0.5,0.5
2024-03-20T1200,2271A,117.3605,32.9427,蚌埠市,百货大楼,颗粒物(PM10),107,164,174,32,29,70,,53,53,26,31,9,5,0.6,0.5
2024-03-20T1200,2273A,117.4185,32.8911,蚌埠市,蚌埠学院,颗粒物(PM10),117,183,191,34,31,78,,52,52,20,28,10,11,0.5,0.5
2024-03-20T1200,2274A,117.3533,32.9673,蚌埠市,淮上区政府,颗粒物(PM10),100,149,186,34,32,75,,50,50,21,30,9,7,0.5,0.4
2024-03-20T1200,2275A,117.3145,32.8977,蚌埠市,高新区,颗粒物(PM10),120,190,196,44,39,67,,46,46,32,41,16,7,0.5,0.5
2024-03-20T1200,3715A,117.3092,32.9314,蚌埠市,蚌埠田家炳中学,颗粒物(PM10),117,183,196,39,35,70,,48,48,28,39,14,17,0.5,0.4
2024-03-20T1200,1585A,109.8756,40.6532,包头市,市环境监测站,颗粒物(PM10),52,54,40,14,13,77,,32,32,14,26,12,12,0.5,0.6
2024-03-20T1200,1587A,109.9991,40.5842,包头市,包头八中,颗粒物(PM10),54,58,46,24,19,77,,33,33,15,24,16,15,0.5,0.6
2024-03-20T1200,1588A,109.8538,40.6821,包头市,青山宾馆,,47,47,38,17,14,75,,24,24,16,35,13,12,0.5,0.8
2024-03-20T1200,1589A,109.8642,40.6288,包头市,惠龙物流,,41,41,36,15,14,74,,32,32,15,26,11,11,0.6,0.6
2024-03-20T1200,1590A,110.0377,40.5546,包头市,东河鸿龙湾,,,71,48,,21,80,,40,40,15,25,14,23,0.6,0.7
2024-03-20T1200,3283A,109.9154,40.5685,包头市,滨河大厦,,41,41,36,17,17,79,,40,40,15,21,11,13,0.6,0.6
2024-03-20T1200,3419A,109.9447,40.6261,包头市,包头市委党校,颗粒物(PM10),54,58,37,16,13,78,,36,36,20,29,16,16,0.4,0.7
2024-03-20T1200,3683A,109.8331,40.6576,包头市,昆区政府,,42,42,37,21,16,71,,29,29,18,28,12,13,0.7,0.8
2024-03-20T1200,1930A,107.185,34.3063,宝鸡市,庙沟村,颗粒物(PM10),109,168,168,66,57,56,,41,41,20,20,11,8,0.4,0.3
2024-03-20T1200,1931A,107.0708,34.3017,宝鸡市,竹园沟,,,,155,,52,,,71,,,27,,5,,0.5
2024-03-20T1200,1932A,107.1906,34.3672,宝鸡市,三陆医院,颗粒物(PM10),132,213,190,59,66,72,,29,29,33,37,11,14,0.1,0.1
2024-03-20T1200,1933A,107.1431,34.3547,宝鸡市,监测站,颗粒物(PM10),118,185,170,61,56,74,,31,31,23,27,10,6,0.4,0.4
2024-03-20T1200,1934A,107.1186,34.3739,宝鸡市,技工学校,颗粒物(PM10),119,187,176,59,56,67,,37,37,28,21,8,6,0.2,0.2
2024-03-20T1200,1935A,107.3906,34.3528,宝鸡市,陈仓区环保局家属楼,颗粒物(PM10),106,162,196,42,61,78,,34,34,,39,10,26,0.1,0.2
2024-03-20T1200,1936A,107.2058,34.3497,宝鸡市,文理学院,颗粒物(PM10),117,184,189,55,55,77,,32,32,21,28,9,8,0.2,0.2
2024-03-20T1200,1937A,107.2386,34.3622,宝鸡市,三迪小学,颗粒物(PM10),125,200,192,69,66,69,,26,26,33,39,11,8,0.5,0.5
2024-03-20T1200,1051A,115.493,38.8632,保定市,游泳馆,颗粒物(PM10),73,96,80,11,11,86,,57,57,4,12,2,2,0.2,0.2
2024-03-20T1200,1052A,115.5213,38.8959,保定市,华电二区,颗粒物(PM10),51,52,64,7,16,82,,60,60,3,10,3,4,0.3,0.3
2024-03-20T1200,1053A,115.4713,38.9108,保定市,接待中心,颗粒物(PM10),58,66,68,7,8,81,,55,55,3,12,4,3,0.3,0.2
2024-03-20T1200,1054A,115.4612,38.8416,保定市,地表水厂,颗粒物(PM10),79,107,110,3,14,86,,46,46,3,18,4,3,0.6,0.5
2024-03-20T1200,3581A,115.31981,38.95208,保定市,满城区生态环境分局,颗粒物(PM10),86,122,93,12,12,79,,53,53,7,11,1,3,0,0
2024-03-20T1200,3582A,115.47694,38.76408,保定市,清苑区第二中学,颗粒物(PM10),62,73,93,2,9,84,,52,52,7,15,2,2,0.3,0.3
2024-03-20T1200,3583A,115.62909,39.02311,保定市,徐水物探局,颗粒物(PM10),78,105,103,5,7,82,,49,49,3,12,3,2,0.2,0.3
2024-03-20T1200,4004A,115.4202,38.8656,保定市,双鹰农机,颗粒物(PM10),56,61,71,6,21,82,,49,49,6,13,2,2,0.4,0.3
2024-03-20T1200,4034A,115.5150,38.8590,保定市,植保所站,颗粒物(PM10),63,76,70,13,17,89,,62,62,5,11,1,2,0.3,0.4
2024-03-20T1200,2594A,99.1678,25.1081,保山市,市环境监测站,颗粒物(PM10),66,81,72,46,48,88,,72,66,25,14,11,7,0.8,0.7
2024-03-20T1200,2595A,99.1711,25.1328,保山市,市环保局,细颗粒物(PM2.5),62,69,72,44,43,93,,87,77,18,9,10,6,0.6,0.6
2024-03-20T1200,1866A,109.2262,21.588,北海市,牛尾岭水库,,,,,,,,,,,,,,,,
2024-03-20T1200,1867A,109.1436,21.4086,北海市,海滩公园,,,67,36,29,15,63,,76,64,,12,12,10,0.4,0.4
2024-03-20T1200,1868A,109.0981,21.4661,北海市,新市环保局,颗粒物(PM10),63,76,37,31,21,72,,76,69,12,12,13,9,0.3,0.4
2024-03-20T1200,1869A,109.1778,21.5233,北海市,北海工业园,颗粒物(PM10),68,85,43,27,20,65,,67,58,17,16,12,14,0.4,0.5
2024-03-20T1200,3400A,109.1911,21.4415,北海市,龙潭自来水厂,颗粒物(PM10),62,73,36,32,21,65,,69,59,13,10,12,11,0.5,0.6
2024-03-20T1200,1001A,116.3621,39.8784,北京市,万寿西宫,颗粒物(PM10),60,69,59,15,9,65,,48,48,11,14,1,2,0.2,0.2
2024-03-20T1200,1002A,116.2202,40.2915,北京市,定陵,,,,,,,,,,,,,,,,
2024-03-20T1200,1003A,116.4174,39.9289,北京市,东四,颗粒物(PM10),53,56,60,13,9,70,,54,54,9,12,1,2,0.4,0.3
2024-03-20T1200,1004A,116.4072,39.8863,北京市,天坛,颗粒物(PM10),54,58,58,11,9,66,,47,47,10,12,1,3,0.2,0.2
2024-03-20T1200,1005A,116.462,39.9365,北京市,农展馆,颗粒物(PM10),52,54,44,11,8,69,,51,51,9,18,3,3,0.2,0.1
2024-03-20T1200,1006A,116.3392,39.9295,北京市,官园,颗粒物(PM10),59,68,64,12,9,76,,61,61,9,11,2,2,0.1,0.1
2024-03-20T1200,1007A,116.2878,39.9611,北京市,海淀万柳,颗粒物(PM10),57,64,68,20,10,72,,50,50,9,18,1,1,0.3,0.3
2024-03-20T1200,1008A,116.6636,40.135,北京市,顺义新城,,49,49,63,10,7,68,,53,52,11,9,2,1,0.2,0.2
2024-03-20T1200,1009A,116.6275,40.3275,北京市,怀柔镇,,37,37,50,12,11,68,,59,59,10,6,2,2,0.2,0.2
2024-03-20T1200,1010A,116.2296,40.217,北京市,昌平镇,,45,45,60,10,8,60,,59,52,16,7,1,3,0.3,0.2
2024-03-20T1200,1011A,116.3966,39.9821,北京市,奥体中心,颗粒物(PM10),51,52,55,13,11,66,,51,51,9,13,4,3,0.2,0.2
2024-03-20T1200,1012A,116.184,39.9136,北京市,古城,颗粒物(PM10),59,68,70,13,10,77,,57,57,12,17,3,3,0.3,0.2
2024-03-20T1200,3281A,115.9718,40.4529,北京市,延庆夏都,,37,37,59,14,16,71,,44,44,5,9,2,3,0.2,0.2
2024-03-20T1200,3417A,117.0709,40.1465,北京市,平谷新城,,35,35,47,9,6,72,,62,62,19,12,1,3,0.2,0.2
2024-03-20T1200,3418A,116.8336,40.4095,北京市,密云新城,,36,36,52,16,9,74,,71,68,6,3,1,2,0.2,0.2
2024-03-20T1200,3671A,116.088,39.9726,北京市,门头沟三家店,,,,,,,,,,,,,,,,
2024-03-20T1200,3672A,116.1541,39.8204,北京市,丰台云岗,颗粒物(PM10),62,73,73,14,10,72,,46,46,6,14,3,3,0.2,0.2
2024-03-20T1200,3673A,116.6804,39.9081,北京市,通州东关,,48,48,63,10,8,75,,53,53,3,12,1,2,0.2,0.2
2024-03-20T1200,3674A,115.9577,39.7603,北京市,房山燕山,,48,48,46,9,9,76,,56,56,15,12,1,2,0.2,0.2
2024-03-20T1200,3675A,116.4672,39.7733,北京市,大兴旧宫,颗粒物(PM10),56,62,65,12,9,74,,44,44,6,14,3,3,0.2,0.2
2024-03-20T1200,3694A,115.986,40.4563,北京市,延庆石河营,,39,39,63,16,11,76,,40,40,8,14,1,3,0.2,0.1
2024-03-20T1200,3695A,116.6151,40.3053,北京市,怀柔新城,,40,40,56,10,8,68,,64,63,14,8,3,3,0.1,0
2024-03-20T1200,3696A,116.2545,39.8768,北京市,丰台小屯,颗粒物(PM10),64,78,73,15,10,69,,41,41,6,13,3,3,0.2,0.2
2024-03-20T1200,3697A,116.84,40.3844,北京市,密云镇,,28,28,50,8,7,69,,55,52,8,8,1,2,0.2,0.2
2024-03-20T1200,1761A,123.8275,41.3064,本溪市,大峪,细颗粒物(PM2.5),65,,48,47,53,78,,,,19,35,15,11,0.9,1.4
2024-03-20T1200,1762A,123.7567,41.3325,本溪市,溪湖,,35,35,43,16,22,84,,65,65,10,23,7,6,0.3,0.5
2024-03-20T1200,1763A,123.7169,41.3094,本溪市,彩屯,,28,28,39,15,25,84,,62,62,14,22,7,7,0.4,0.4
2024-03-20T1200,1764A,123.7669,41.2864,本溪市,东明,,,61,55,23,30,77,,56,56,,36,,12,0.9,1.3
2024-03-20T1200,1765A,123.7992,41.2664,本溪市,新立屯,,,50,49,28,36,76,,61,61,20,32,30,14,,1.6
2024-03-20T1200,1766A,123.8142,41.3472,本溪市,威宁,,50,50,50,20,28,79,,59,59,13,30,7,6,0.5,0.7
2024-03-20T1200,2587A,105.2864,27.3125,毕节市,八中,,,,36,,29,64,,49,49,,16,23,10,0.5,0.7
2024-03-20T1200,2588A,105.31,27.2944,毕节市,师专,,38,38,37,21,30,67,,50,50,21,18,28,11,0.4,0.6
2024-03-20T1200,3537A,105.3631,27.3533,毕节市,长征村,颗粒物(PM10),55,60,55,33,42,79,,53,53,17,15,20,12,0.5,0.6
2024-03-20T1200,1629A,118.0018,37.3617,滨州市,第二水厂,,29,29,76,12,12,92,,66,66,14,21,8,12,0.5,0.5
2024-03-20T1200,1630A,117.9776,37.393,滨州市,北中新校,,31,31,63,5,10,89,,66,66,10,18,11,11,0.5,0.5
2024-03-20T1200,3514A,117.9378,37.3956,滨州市,中海酒店,,27,19,59,14,14,85,,66,66,14,19,10,12,0.6,0.6
2024-03-20T1200,3515A,117.9378,37.3553,滨州市,开发区一中,,39,39,73,12,12,102,,70,70,14,20,12,16,0.4,0.4
2024-03-20T1200,3516A,118.0917,37.694,滨州市,金海六路,,29,27,66,5,12,92,,73,73,7,12,12,9,0.7,0.5
2024-03-20T1200,4028A,117.9956,37.3753,滨州市,滨州市西街道办事处,,29,27,65,12,18,91,,65,65,14,20,12,16,0.6,0.6
2024-03-20T1200,2311A,115.8072,33.8399,亳州市,污水处理厂,,,,182,,23,80,,69,62,,17,12,9,,0.3
2024-03-20T1200,2312A,115.7789,33.8518,亳州市,三国揽胜宫,颗粒物(PM10),101,151,170,24,23,77,,64,58,11,12,10,9,0.6,0.5
2024-03-20T1200,3332A,115.7633,33.8034,亳州市,亳州学院,颗粒物(PM10),102,153,177,30,25,76,,65,60,13,14,10,11,0.5,0.4
2024-03-20T1200,2693A,82.0485,44.8556,博尔塔拉蒙古自治州,市党校,,42,42,62,12,22,46,,58,53,10,11,6,8,0.4,0.4
2024-03-20T1200,2694A,82.0806,44.8969,博尔塔拉蒙古自治州,市环保局,,50,50,84,18,22,35,,39,34,33,20,9,10,0.7,0.6
2024-03-20T1200,1071A,116.8842,38.2991,沧州市,沧县城建局,颗粒物(PM10),51,51,84,10,22,85,,59,59,12,20,6,6,0.3,0.3
2024-03-20T1200,1072A,116.8584,38.3254,沧州市,电视转播站,,,41,81,12,16,,,53,53,8,16,11,6,0.3,0.3
2024-03-20T1200,1073A,116.8709,38.3228,沧州市,市环保局,,49,49,86,12,25,84,,60,60,10,17,7,6,0.3,0.3
2024-03-20T1200,3324A,116.8136,38.3004,沧州市,河北水利电力学院,颗粒物(PM10),53,56,105,7,20,86,,55,55,10,16,10,8,0.1,0.3
2024-03-20T1200,2622A,97.1806,31.1273,昌都市,昌都监测站,,22,,16,12,12,68,,68,60,15,6,6,6,0.6,0.5
2024-03-20T1200,3719A,97.1714,31.1406,昌都市,昌都会议中心,,27,,10,11,12,86,,74,69,7,3,6,6,0.5,0.4
2024-03-20T1200,2690A,88.1236,43.8886,昌吉回族自治州,天山天池,,27,14,5,1,2,84,,71,71,9,5,9,7,0.7,0.5
2024-03-20T1200,2692A,87.2717,44.0297,昌吉回族自治州,新区政务中心,颗粒物(PM10),54,58,55,26,28,82,,50,50,14,32,16,10,0.7,0.8
2024-03-20T1200,3613A,87.3095,44.0142,昌吉回族自治州,亚心广场,颗粒物(PM10),54,58,64,27,28,78,,51,51,18,34,15,9,0.8,1
2024-03-20T1200,1119A,125.3325,43.9166,长春市,食品厂,,,39,39,26,26,78,,40,40,14,27,6,7,,0.4
2024-03-20T1200,1120A,125.2863,43.9027,长春市,客车厂,,33,33,34,22,26,79,,43,43,12,27,5,7,0.4,0.5
2024-03-20T1200,1121A,125.2841,43.8463,长春市,邮电学院,,31,31,38,21,27,81,,43,43,11,24,7,9,0.3,0.4
2024-03-20T1200,1122A,125.3716,43.8772,长春市,劳动公园,,35,35,35,21,22,85,,52,52,10,21,3,7,0.3,0.6
2024-03-20T1200,1123A,125.3297,43.8805,长春市,园林处,,36,36,31,20,18,79,,44,44,12,24,6,12,0.3,0.4
2024-03-20T1200,1124A,125.4605,43.79,长春市,净月潭,,30,30,29,16,21,80,,42,42,8,15,7,7,0.3,0.4
2024-03-20T1200,1125A,125.7194,43.515,长春市,甩湾子,,,,,,,,,,,,,,,,
2024-03-20T1200,1126A,125.3863,43.8447,长春市,经开区环卫处,,40,40,41,22,22,78,,41,41,12,22,5,7,0.4,0.5
2024-03-20T1200,1127A,125.245,43.7783,长春市,高新区管委会,,32,32,38,20,26,86,,42,42,8,25,9,8,0.4,0.5
2024-03-20T1200,1128A,125.1761,43.8325,长春市,岱山公园,,35,27,34,24,29,79,,43,43,9,21,6,6,0.3,0.4
2024-03-20T1200,1335A,113.0833,28.2325,长沙市,经开区环保局,颗粒物(PM10),83,116,86,22,25,80,,27,27,21,35,6,6,0.4,0.4
2024-03-20T1200,1336A,112.8872,28.2189,长沙市,高开区环保局,,,135,89,30,30,86,,17,17,,40,4,5,0.6,0.8
2024-03-20T1200,1337A,113.0792,28.2053,长沙市,马坡岭,颗粒物(PM10),82,113,90,36,34,64,,22,22,14,28,11,7,0.5,0.6
2024-03-20T1200,1338A,112.9394,28.19,长沙市,湖南师范大学,颗粒物(PM10),89,128,86,26,26,82,,30,30,20,29,3,3,0.6,0.6
2024-03-20T1200,1339A,113.0178,28.1322,长沙市,雨花区环保局,颗粒物(PM10),80,109,94,29,33,81,,23,23,8,37,6,6,0.3,0.5
2024-03-20T1200,1340A,112.9792,28.2597,长沙市,伍家岭,颗粒物(PM10),92,133,97,28,31,72,,19,19,26,35,6,6,0.6,0.7
2024-03-20T1200,1341A,113.0014,28.1944,长沙市,火车新站,颗粒物(PM10),86,122,92,34,36,73,,24,24,20,36,6,4,0.6,0.7
2024-03-20T1200,1342A,112.9844,28.1178,长沙市,天心区环保局,颗粒物(PM10),81,111,88,26,33,78,,24,24,10,36,4,3,0.7,0.8
2024-03-20T1200,1343A,112.8908,28.1308,长沙市,湖南中医药大学,颗粒物(PM10),85,120,84,33,29,72,,17,17,21,35,5,4,0.7,0.7
2024-03-20T1200,1344A,112.9581,28.3611,长沙市,沙坪,颗粒物(PM10),60,69,46,28,21,53,,28,28,11,11,5,5,0.6,0.5
2024-03-20T1200,1727A,113.1147,36.1547,长治市,清华站,颗粒物(PM10),69,88,65,19,19,98,,48,48,16,26,18,11,0.7,0.7
2024-03-20T1200,1728A,113.1031,36.1989,长治市,监测站,颗粒物(PM10),71,91,69,31,26,100,,48,48,22,31,21,14,0.7,0.7
2024-03-20T1200,1730A,113.0886,36.2125,长治市,审计局,,,69,61,34,23,94,,43,43,22,31,21,14,,0.4
2024-03-20T1200,1731A,113.0844,36.1856,长治市,长治八中,颗粒物(PM10),78,105,84,40,26,102,,37,37,22,37,15,9,0.7,0.6
2024-03-20T1200,2845A,113.1569,36.1911,长治市,德盛苑,颗粒物(PM10),55,60,48,31,19,96,,54,54,18,20,20,13,0.8,0.7
2024-03-20T1200,3568A,113.06,36.0464,长治市,向阳小学,颗粒物(PM10),60,70,83,20,33,104,,53,53,17,26,20,14,0.7,0.6
2024-03-20T1200,3569A,112.8792,36.3144,长治市,屯留一中,,,58,52,46,18,97,,41,41,18,29,,8,0.7,0.6
2024-03-20T1200,3570A,113.235,36.3489,长治市,潞城四中,,,,,,,,,,,,,,,,
2024-03-20T1200,1854A,111.6975,28.9703,常德市,市二中,颗粒物(PM10),76,102,84,42,24,78,,31,31,29,21,18,8,0.6,0.5
2024-03-20T1200,1857A,111.7158,29.1456,常德市,白鹤山,颗粒物(PM10),93,135,91,25,19,60,,42,32,5,4,4,5,0.5,0.4
2024-03-20T1200,3138A,111.7153,29.0289,常德市,武陵区永安,颗粒物(PM10),82,113,87,30,22,85,,31,31,20,25,10,7,0.5,0.6
2024-03-20T1200,3139A,111.6892,28.9881,常德市,鼎城区玉霞,颗粒物(PM10),82,113,84,36,22,74,,23,23,34,32,18,9,0.5,0.5
2024-03-20T1200,3140A,111.6625,29.0531,常德市,武陵区长庚,颗粒物(PM10),82,113,88,33,24,86,,31,31,19,25,8,7,0.6,0.6
2024-03-20T1200,1196A,119.9633,31.762,常州市,市监测站,颗粒物(PM10),88,125,119,33,35,99,,40,40,26,48,12,9,0.2,0.3
2024-03-20T1200,1200A,119.9468,31.7069,常州市,武进监测站,,,,105,,35,96,,34,34,28,43,11,8,,0.7
2024-03-20T1200,1201A,119.9255,31.9087,常州市,安家,颗粒物(PM10),65,80,122,33,44,89,,37,37,24,54,12,13,0.5,0.7
2024-03-20T1200,3002A,119.9805,31.8174,常州市,行政中心,颗粒物(PM10),68,86,90,24,32,88,,49,49,27,40,10,8,0.8,0.8
2024-03-20T1200,3003A,120.0522,31.7748,常州市,经开区,,,,67,,25,,,49,,,22,,7,,0.6
2024-03-20T1200,3010A,119.9025,31.7964,常州市,钟楼,颗粒物(PM10),77,103,109,31,37,93,,40,40,24,46,12,10,0.7,0.7
2024-03-20T1200,3429A,119.8598,31.7066,常州市,武进经发区,颗粒物(PM10),108,165,144,32,44,103,,47,47,23,46,11,9,0.6,0.7
2024-03-20T1200,3430A,119.5826,31.7245,常州市,金坛城区,颗粒物(PM10),108,165,129,31,32,100,,54,54,22,28,14,9,0.6,0.6
2024-03-20T1200,2220A,120.4318,41.5881,朝阳市,西梁,,,,18,10,11,97,,87,87,,10,,11,0.4,0.5
2024-03-20T1200,2221A,120.4521,41.5646,朝阳市,河畔小区,,29,19,21,6,8,91,,79,79,6,10,6,6,0.4,0.5
2024-03-20T1200,2222A,120.4176,41.5648,朝阳市,八里堡,,26,13,20,7,9,82,,71,71,6,10,8,8,0.5,0.5
2024-03-20T1200,2223A,120.3806,41.5969,朝阳市,农业园区,,30,,17,8,10,94,,82,82,2,5,4,5,0.4,0.4
2024-03-20T1200,1705A,116.6367,23.6719,潮州市,西园路,颗粒物(PM10),56,61,52,22,40,103,,48,48,12,17,12,7,0.3,0.3
2024-03-20T1200,3026A,116.6183,23.6608,潮州市,市政府,,,66,53,22,37,,,49,49,11,21,15,12,0.6,0.8
2024-03-20T1200,4036A,116.6461,23.6761,潮州市,金山,颗粒物(PM10),64,78,48,21,38,105,,45,45,13,19,14,9,0.6,0.7
2024-03-20T1200,2472A,113.0073,25.9061,郴州市,马头岭,颗粒物(PM10),69,88,40,11,12,63,,25,25,15,16,7,5,0.8,0.7
2024-03-20T1200,2473A,113.0116,25.8226,郴州市,市职中,颗粒物(PM10),52,54,38,21,25,113,,,,35,22,13,7,1.1,0.8
2024-03-20T1200,2474A,113.0161,25.8001,郴州市,兴隆步行街,,,,50,,28,78,,28,28,,17,7,4,0.8,0.8
2024-03-20T1200,2475A,113.0383,25.8071,郴州市,市审计局,,49,49,41,23,24,78,,24,24,14,19,9,6,0.7,1
2024-03-20T1200,2476A,113.0348,25.7759,郴州市,市环保局,颗粒物(PM10),57,63,45,25,28,77,,24,24,13,20,7,4,0.7,0.7
2024-03-20T1200,1431A,103.9728,30.7236,成都市,金泉两河,颗粒物(PM10),71,92,74,47,38,72,,26,26,29,28,8,3,0.6,0.5
2024-03-20T1200,1432A,104.176,30.6872,成都市,十里店,颗粒物(PM10),80,109,81,54,39,70,,43,38,26,31,10,3,0.7,0.6
2024-03-20T1200,1433A,104.079,30.5706,成都市,三瓦窑,颗粒物(PM10),61,72,79,42,40,73,,25,25,32,44,7,5,0.5,0.5
2024-03-20T1200,1434A,104.1114,30.63,成都市,沙河铺,细颗粒物(PM2.5),75,96,77,55,38,61,,36,36,33,35,10,5,0.7,0.7
2024-03-20T1200,1437A,104.0786,30.6531,成都市,君平街,颗粒物(PM10),65,80,80,37,39,87,,37,37,24,40,11,7,0.5,0.5
2024-03-20T1200,1438A,103.613,31.0283,成都市,灵岩寺,,50,50,55,22,25,76,,66,66,13,13,6,9,0.4,0.4
2024-03-20T1200,2880A,104.0239,30.65639,成都市,大石西路,颗粒物(PM10),76,101,81,26,38,82,,34,34,25,36,9,5,0.6,0.6
2024-03-20T1200,3136A,104.2725,30.5589,成都市,龙泉驿区区政府,颗粒物(PM10),65,80,61,44,30,73,,59,56,25,17,6,3,0.8,0.7
2024-03-20T1200,3357A,104.0106,30.6931,成都市,金博路,颗粒物(PM10),71,92,77,38,38,70,,31,31,26,28,8,3,0.7,0.6
2024-03-20T1200,3359A,104.0578,30.5225,成都市,华阳,颗粒物(PM10),67,83,79,39,45,89,,38,38,15,28,7,4,0.5,0.6
2024-03-20T1200,3487A,104.2394,30.5319,成都市,车城东七路,,,87,72,49,38,,,61,53,22,19,,4,0.5,0.5
2024-03-20T1200,3488A,104.3853,30.7453,成都市,青白江技师分院,颗粒物(PM10),66,82,73,37,30,45,,34,33,41,31,11,5,0.6,0.4
2024-03-20T1200,3489A,104.0789,30.4072,成都市,科学城,颗粒物(PM10),61,72,70,40,40,99,,44,44,12,27,9,4,0.5,0.5
2024-03-20T1200,4011A,103.8506,30.6947,成都市,光华大道三段,颗粒物(PM10),64,78,73,40,36,99,,34,34,10,20,2,2,0.5,0.5
2024-03-20T1200,1062A,117.9531,40.9081,承德市,铁路,,26,2,43,2,9,83,,53,53,5,12,7,7,0.2,0.2
2024-03-20T1200,1063A,117.9392,40.9763,承德市,中国银行,,27,12,39,3,7,85,,55,55,6,12,8,8,0.3,0.3
2024-03-20T1200,1064A,117.9503,40.928,承德市,开发区,,,,47,,16,,,60,52,4,10,5,6,0.3,0.3
2024-03-20T1200,1065A,117.8051,40.9655,承德市,文化中心,,28,3,54,3,10,87,,48,48,3,15,5,5,0.2,0.3
2024-03-20T1200,1066A,117.9268,41.0026,承德市,离宫,,27,,26,6,15,84,,65,65,3,5,2,2,0.2,0.2
2024-03-20T1200,2314A,117.47,30.6618,池州市,池州学院,颗粒物(PM10),86,121,100,31,32,105,,46,46,16,27,11,4,0.8,0.8
2024-03-20T1200,3237A,117.4918,30.6617,池州市,展览馆,颗粒物(PM10),81,112,89,22,23,108,,47,47,16,27,7,3,0.6,0.8
2024-03-20T1200,3333A,117.5627,30.695,池州市,第八中学,颗粒物(PM10),90,129,83,31,30,112,,44,44,14,22,6,5,0.3,0.4
2024-03-20T1200,3334A,117.5038,30.6243,池州市,第十二中学,,,126,106,26,29,110,,38,38,,34,,4,0.4,0.8
2024-03-20T1200,1744A,118.9233,42.2816,赤峰市,松山一中,,28,28,38,10,10,83,,57,54,8,15,8,8,0.5,0.5
2024-03-20T1200,1745A,118.9576,42.2728,赤峰市,哈达街,,,23,27,12,8,74,,64,57,16,15,,10,,0.5
2024-03-20T1200,1746A,118.8788,42.2554,赤峰市,天义路,,24,9,27,2,8,76,,60,60,11,13,5,6,0.4,0.5
2024-03-20T1200,3058A,119.2658,42.0353,赤峰市,银河街,,34,34,27,23,15,81,,57,54,15,15,18,15,0.6,0.5
2024-03-20T1200,3286A,118.9359,42.3147,赤峰市,桥北物流园区,,27,14,19,9,9,86,,57,57,10,15,7,6,0.4,0.6
2024-03-20T1200,2521A,107.3476,22.4136,崇左市,市环保局江州分局,,,65,40,26,19,74,,49,49,11,15,,8,0.6,0.7
2024-03-20T1200,2522A,107.3702,22.3707,崇左市,城南新区,颗粒物(PM10),67,84,36,18,14,72,,53,53,18,17,10,8,0.6,0.6
2024-03-20T1200,2298A,118.3093,32.3153,滁州市,老年大学,颗粒物(PM10),103,155,129,35,27,88,,42,42,24,26,12,8,0.5,0.4
2024-03-20T1200,2299A,118.3244,32.2786,滁州市,人大宾馆,颗粒物(PM10),107,164,152,35,25,88,,47,47,46,36,10,9,0.6,0.6
2024-03-20T1200,3207A,118.3118,32.3038,滁州市,市政府原办公楼,颗粒物(PM10),93,136,125,33,27,90,,44,44,24,31,9,6,0.5,0.5
2024-03-20T1200,3331A,118.3267,32.2634,滁州市,图书馆,颗粒物(PM10),107,164,132,30,24,90,,52,52,,26,11,9,0.6,0.6
2024-03-20T1200,2605A,101.5482,25.0441,楚雄彝族自治州,州环境监测站,细颗粒物(PM2.5),74,58,58,54,45,88,,82,82,8,14,7,9,0.8,0.7
2024-03-20T1200,2606A,101.538,25.0492,楚雄彝族自治州,市经济开发区,细颗粒物(PM2.5),79,70,63,58,45,78,,71,71,10,17,6,8,0.8,0.8
2024-03-20T1200,2548A,107.5277,31.2827,达州市,达州职业技术学院,颗粒物(PM10),85,119,90,29,27,48,,19,19,25,39,13,9,0.7,0.8
2024-03-20T1200,2549A,107.5086,31.2186,达州市,市环境监测站,颗粒物(PM10),72,93,85,31,27,35,,15,15,43,45,13,8,0.9,0.8
2024-03-20T1200,2550A,107.4988,31.2132,达州市,凤凰小区,颗粒物(PM10),80,110,90,34,32,33,,20,20,46,44,14,8,0.9,0.8
2024-03-20T1200,2551A,107.5082,31.1986,达州市,达县机关宾馆,颗粒物(PM10),76,102,88,31,32,37,,18,18,44,50,9,6,0.7,0.7
2024-03-20T1200,2552A,107.4644,31.2124,达州市,市政中心,颗粒物(PM10),79,107,85,41,34,19,,12,12,64,55,18,12,1.2,0.9
2024-03-20T1200,2614A,100.1542,25.7054,大理白族自治州,大理市环境监测站,,49,,43,34,33,97,,84,80,12,13,7,7,0.6,0.6
2024-03-20T1200,2615A,100.2171,25.5811,大理白族自治州,大理古城,,36,36,49,24,37,98,,71,69,14,16,7,7,0.6,0.7
2024-03-20T1200,1109A,121.612,38.9741,大连市,甘井子,,32,20,23,11,9,100,,89,89,8,11,6,5,0.6,0.6
2024-03-20T1200,1110A,121.565,38.9511,大连市,周水子,,31,20,24,10,10,98,,83,83,9,14,4,5,0.5,0.6
2024-03-20T1200,1111A,121.5637,38.8845,大连市,星海三站,,29,19,24,10,10,92,,79,79,10,14,4,7,0.4,0.5
2024-03-20T1200,1112A,121.6302,38.9117,大连市,青泥洼桥,,31,23,22,12,9,98,,86,86,9,12,10,10,0.5,0.6
2024-03-20T1200,1113A,121.6251,38.8638,大连市,傅家庄,,31,20,23,10,9,98,,88,88,10,12,9,10,0.5,0.5
2024-03-20T1200,1114A,121.5213,38.8661,大连市,七贤岭,,36,19,21,9,8,114,,101,101,13,12,9,11,0.6,0.5
2024-03-20T1200,1115A,121.2529,38.8061,大连市,旅顺,,29,17,23,10,11,92,,78,78,4,9,8,8,0.6,0.6
2024-03-20T1200,1116A,121.7485,39.1311,大连市,金州,,31,22,25,11,11,98,,89,89,7,9,9,10,0.5,0.6
2024-03-20T1200,1117A,121.7811,39.0496,大连市,开发区,,29,22,30,11,10,91,,82,82,9,12,5,5,0.4,0.4
2024-03-20T1200,1118A,121.9762,39.0631,大连市,双D港,,31,21,22,10,9,99,,91,91,7,9,8,8,0.4,0.4
2024-03-20T1200,1789A,124.81117,46.03138,大庆市,大同区,,32,,24,22,24,80,,62,62,4,8,6,6,0.4,0.4
2024-03-20T1200,1790A,125.129,46.533,大庆市,龙凤区,,42,42,38,18,25,79,,62,62,13,20,6,6,0.5,0.5
2024-03-20T1200,1791A,124.902,46.408,大庆市,红岗区,,28,13,25,12,17,87,,69,69,4,8,5,6,0.3,0.3
2024-03-20T1200,1792A,125.153,46.586,大庆市,萨尔图区,,,,29,,19,,,61,60,12,17,9,9,0.4,0.5
2024-03-20T1200,1793A,124.9042,46.6215,大庆市,让胡路区,,27,22,30,15,21,85,,69,69,5,9,8,7,0.4,0.4
2024-03-20T1200,3481A,125.141,46.634,大庆市,萨区政府监测点,,36,29,27,25,21,72,,55,55,24,20,9,8,0.5,0.5
2024-03-20T1200,1721A,113.3819,40.1097,大同市,果树场,,,,,,,,,,,,,,,,
2024-03-20T1200,1723A,113.2994,40.0758,大同市,云冈宾馆,颗粒物(PM10),65,80,41,45,12,88,,42,42,20,14,16,11,0.6,0.7
2024-03-20T1200,1724A,113.3444,40.0917,大同市,大同大学,细颗粒物(PM2.5),54,44,35,38,14,77,,42,42,15,16,17,18,0.6,0.5
2024-03-20T1200,1725A,113.2661,40.1269,大同市,安家小村,细颗粒物(PM2.5),77,76,44,56,13,87,,36,36,22,14,22,17,0.6,0.9
2024-03-20T1200,1726A,113.2711,40.0844,大同市,教育学院,细颗粒物(PM2.5),74,77,48,54,16,88,,33,33,22,21,16,13,0.6,0.7
2024-03-20T1200,3282A,113.3397,40.0597,大同市,大同市卫生学校,颗粒物(PM10),53,56,37,34,13,84,,46,46,16,13,13,13,0.6,0.7
2024-03-20T1200,3565A,113.1367,40.1122,大同市,云冈站,颗粒物(PM10),63,76,44,35,15,84,,31,31,23,25,20,23,0.6,0.5
2024-03-20T1200,3566A,113.1186,40.2556,大同市,图书馆,,29,29,33,13,17,67,,35,35,19,13,20,17,0.7,0.8
2024-03-20T1200,3567A,113.5931,40.0461,大同市,区一中,,,36,34,21,10,77,,40,40,,9,,7,0.5,0.5
2024-03-20T1200,3676A,113.2802,40.0995,大同市,第二人民医院,细颗粒物(PM2.5),62,72,46,44,13,92,,37,37,21,19,16,12,0.7,0.9
2024-03-20T1200,2269A,124.1069,50.4097,大兴安岭地区,科技局,,24,11,17,9,18,74,,65,65,8,5,10,7,0.5,0.5
2024-03-20T1200,3663A,124.1164,50.4278,大兴安岭地区,红旗社区,,26,12,14,4,10,82,,57,57,5,13,8,9,0.4,0.5
2024-03-20T1200,1600A,124.3303,40.0625,丹东市,江湾东路,,30,30,32,16,21,94,,80,80,9,15,6,7,0.5,0.6
2024-03-20T1200,1601A,124.4256,40.1503,丹东市,临江后街,,34,34,33,16,18,88,,69,69,10,16,9,9,0.5,0.6
2024-03-20T1200,1602A,124.3933,40.1461,丹东市,元宝山,,28,28,28,16,17,86,,71,71,7,12,7,8,0.6,0.6
2024-03-20T1200,1603A,124.3633,40.1092,丹东市,民主桥,,35,35,35,15,19,84,,67,67,12,19,9,9,0.4,0.4
2024-03-20T1200,3541A,109.5726,19.5167,儋州市,第一中学子站,,26,26,24,12,12,79,,72,72,13,9,8,7,0.7,0.8
2024-03-20T1200,3542A,109.5567,19.5187,儋州市,东坡学校子站,,26,26,23,10,12,80,,72,72,10,7,8,8,0.7,0.7
2024-03-20T1200,2616A,98.5842,24.428,德宏傣族景颇族自治州,德宏州监测站,颗粒物(PM10),81,112,99,57,59,88,,24,24,29,42,20,20,1.0,1
2024-03-20T1200,3677A,98.5881,24.4368,德宏傣族景颇族自治州,芒市人民政府综合楼,细颗粒物(PM2.5),99,102,84,74,61,98,,56,53,21,25,15,8,0.8,0.9
2024-03-20T1200,1901A,104.4239,31.1208,德阳市,东山公园,颗粒物(PM10),76,101,77,54,35,67,,46,42,35,24,6,3,0.6,0.5
2024-03-20T1200,1902A,104.3826,31.1317,德阳市,西小区,颗粒物(PM10),88,125,88,63,46,61,,31,24,45,38,8,3,0.6,0.6
2024-03-20T1200,1904A,104.3553,31.1091,德阳市,耐火材料厂,细颗粒物(PM2.5),83,108,85,61,38,67,,24,24,38,33,8,4,0.6,0.5
2024-03-20T1200,3639A,104.4019,31.1244,德阳市,市教育局,细颗粒物(PM2.5),85,112,77,63,37,51,,36,30,50,30,9,3,0.6,0.5
2024-03-20T1200,1622A,116.3032,37.4674,德州市,儿童乐园,,48,48,106,7,12,84,,66,66,10,14,9,8,0.5,0.4
2024-03-20T1200,1624A,116.2991,37.4451,德州市,监理站,,44,44,109,7,9,88,,71,71,8,12,8,8,0.4,0.4
2024-03-20T1200,3066A,116.2721,37.4379,德州市,九衢泉纯净水厂,,48,48,106,12,20,88,,70,70,12,16,6,6,0.5,0.4
2024-03-20T1200,3371A,116.3728,37.4403,德州市,开发区人民医院,,46,46,98,5,9,89,,68,68,5,10,10,8,0.5,0.4
2024-03-20T1200,3372A,116.3572,37.4094,德州市,太阳城中学,,,48,110,14,16,85,,58,58,,17,7,7,0.4,0.4
2024-03-20T1200,3511A,116.5652,37.3319,德州市,陵城艺术中心,,48,48,91,2,9,87,,64,64,11,16,8,8,0.5,0.5
2024-03-20T1200,2621A,99.7056,27.8317,迪庆藏族自治州,迪庆州站,,40,40,40,25,27,107,,77,77,11,12,7,9,0.3,0.3
2024-03-20T1200,3180A,99.7136,27.8094,迪庆藏族自治州,质量技术监督局,,32,30,31,12,18,101,,80,78,11,11,6,6,0.3,0.3
2024-03-20T1200,2663A,104.6241,35.5734,定西市,东关小学,颗粒物(PM10),57,64,95,19,30,95,,28,28,7,18,12,12,0.4,0.6
2024-03-20T1200,2664A,104.6194,35.5934,定西市,供电公司,颗粒物(PM10),57,64,85,33,36,90,,22,22,7,24,11,14,0,0
2024-03-20T1200,1389A,113.7547,23.0494,东莞市,莞城梨川,,,109,40,25,12,,,82,82,15,21,9,8,,0.6
2024-03-20T1200,1390A,113.7944,23.0128,东莞市,东城石井,颗粒物(PM10),80,110,39,26,12,111,,80,80,16,18,10,9,0.6,0.7
2024-03-20T1200,1391A,113.7383,22.9658,东莞市,南城西平,颗粒物(PM10),82,114,42,22,11,110,,62,62,15,34,10,9,0.6,0.7
2024-03-20T1200,3319A,113.7338,23.0381,东莞市,万江金泰,颗粒物(PM10),79,107,65,24,12,102,,74,74,17,17,10,10,0.5,0.6
2024-03-20T1200,3626A,113.7533,23.0202,东莞市,南城元岭,颗粒物(PM10),83,116,40,24,11,111,,84,84,12,15,11,10,0.6,0.7
2024-03-20T1200,3627A,113.7875,23.0457,东莞市,东城主山,颗粒物(PM10),81,112,38,26,12,112,,80,80,13,20,9,9,0.6,0.6
2024-03-20T1200,1666A,118.6614,37.4309,东营市,市环保局,,,24,51,7,10,,,74,68,13,15,7,7,0.3,0.2
2024-03-20T1200,3036A,118.6904,37.4338,东营市,开发区管委会,,41,41,53,5,8,87,,71,71,10,12,2,2,0.5,0.4
2024-03-20T1200,3365A,118.5719,37.565,东营市,垦利区民丰路,,29,22,50,5,6,91,,68,68,10,14,10,9,0.5,0.7
2024-03-20T1200,3498A,118.5055,37.8612,东营市,河口城区,,29,29,61,10,12,88,,67,67,9,12,6,5,0.6,0.5
2024-03-20T1200,3646A,118.4978,37.4623,东营市,胜利站,,35,35,56,7,8,91,,66,65,12,17,9,8,0.4,0.4
2024-03-20T1200,3734A,118.35,37.26,东营市,理想之城,,31,31,54,7,9,89,,59,59,13,15,5,4,0.5,0.4
2024-03-20T1200,1591A,110.0023,39.8129,鄂尔多斯市,综合楼,颗粒物(PM10),60,70,52,9,10,85,,46,46,20,33,12,11,0.5,0.6
2024-03-20T1200,1592A,109.9486,39.8261,鄂尔多斯市,巴音孟克林场办事处,颗粒物(PM10),53,56,47,12,14,85,,52,52,15,28,14,13,0.5,0.5
2024-03-20T1200,1593A,109.7736,39.5986,鄂尔多斯市,康泽苑,,46,46,30,9,8,97,,51,51,12,13,10,6,0.5,0.4
2024-03-20T1200,1594A,109.8119,39.5989,鄂尔多斯市,华泰汽车城,,,41,33,14,13,92,,30,30,12,21,,5,0.3,0.4
2024-03-20T1200,1595A,109.9734,39.7884,鄂尔多斯市,奥林花园,颗粒物(PM10),56,61,56,12,13,85,,34,34,15,36,12,9,0.5,0.6
2024-03-20T1200,2436A,114.8938,30.3994,鄂州市,市政府,颗粒物(PM10),93,136,114,32,36,88,,32,32,27,37,16,13,0.2,0.8
2024-03-20T1200,2437A,114.8989,30.3714,鄂州市,赵家坝,颗粒物(PM10),93,135,109,30,36,113,,43,43,13,27,6,7,0.6,0.6
2024-03-20T1200,3654A,114.8094,30.4089,鄂州市,精准医疗中心,颗粒物(PM10),110,170,148,34,40,105,,37,37,19,30,16,7,1.3,0.7
2024-03-20T1200,2454A,109.4978,30.2981,恩施土家族苗族自治州,湖北民院,,,58,61,20,22,32,,23,19,31,22,8,8,,1
2024-03-20T1200,2455A,109.4707,30.2798,恩施土家族苗族自治州,州电力总公司,颗粒物(PM10),56,62,60,24,23,33,,13,13,25,25,7,7,0.9,0.8
2024-03-20T1200,3549A,109.5061,30.3772,恩施土家族苗族自治州,龙凤新区,,50,50,53,19,18,25,,34,28,29,19,7,6,0.7,0.7
2024-03-20T1200,2499A,108.3411,21.6158,防城港市,沙万,颗粒物(PM10),68,86,46,10,10,68,,74,66,19,14,7,6,0.5,0.5
2024-03-20T1200,2500A,108.3514,21.7731,防城港市,防城档案局,颗粒物(PM10),71,91,60,19,18,72,,68,62,19,19,8,7,0.7,0.8
2024-03-20T1200,2501A,108.3506,21.6414,防城港市,大海花园,颗粒物(PM10),61,72,46,12,6,68,,74,66,13,12,7,6,0.4,0.5
2024-03-20T1200,1371A,113.1294,23.0067,佛山市,湾梁,颗粒物(PM10),80,110,57,11,10,86,,65,65,20,22,8,9,0.5,0.6
2024-03-20T1200,1372A,113.1083,23.0478,佛山市,华材职中,颗粒物(PM10),82,114,68,25,18,84,,50,50,18,36,8,11,0.5,0.6
2024-03-20T1200,1373A,113.144,23.0453,佛山市,南海气象局,颗粒物(PM10),82,114,52,23,15,84,,58,58,24,27,8,10,0.4,0.5
2024-03-20T1200,1374A,113.2881,22.8094,佛山市,顺德苏岗,颗粒物(PM10),74,98,46,24,13,93,,64,64,19,26,6,4,0.4,0.5
2024-03-20T1200,1376A,112.8383,22.8678,佛山市,高明孔堂,,,,54,,7,82,,66,66,,25,8,8,0.5,0.6
2024-03-20T1200,1377A,112.8836,23.1588,佛山市,三水监测站,颗粒物(PM10),95,139,62,26,14,89,,55,55,15,20,8,8,0.5,0.7
2024-03-20T1200,1378A,112.867,23.185,佛山市,三水云东海,颗粒物(PM10),82,114,49,24,14,96,,54,54,20,25,7,6,0.3,0.5
2024-03-20T1200,3625A,113.2544,22.7642,佛山市,容桂街道办,颗粒物(PM10),80,110,50,24,13,93,,68,68,23,29,8,6,0.4,0.5
2024-03-20T1200,1280A,119.3903,26.0543,福州市,鼓山,,,,,,,,,,,,,,,,
2024-03-20T1200,1282A,119.2681,26.0504,福州市,师大,颗粒物(PM10),64,77,37,33,25,141,,71,71,22,21,5,4,0.4,0.4
2024-03-20T1200,1283A,119.2984,26.1028,福州市,五四北路,颗粒物(PM10),59,68,32,27,26,134,,85,85,15,19,6,4,0.6,0.7
2024-03-20T1200,1284A,119.2648,26.0768,福州市,杨桥西路,颗粒物(PM10),64,77,38,36,24,140,,72,72,17,18,5,4,0.4,0.4
2024-03-20T1200,1285A,119.317,26.0746,福州市,紫阳,颗粒物(PM10),65,79,39,26,23,139,,83,83,16,21,6,4,0.5,0.6
2024-03-20T1200,3048A,119.5799,26.0936,福州市,九龙,颗粒物(PM10),71,91,31,44,21,146,,89,89,14,16,4,3,0.4,0.4
2024-03-20T1200,3526A,119.5189,25.9664,福州市,吴航,颗粒物(PM10),74,97,38,44,21,140,,88,88,13,19,5,4,0.4,0.4
2024-03-20T1200,1755A,123.7977,41.8491,抚顺市,望花区,,47,47,59,25,36,82,,68,68,21,20,8,7,0.7,0.6
2024-03-20T1200,1756A,123.9161,41.8822,抚顺市,顺城区,,45,45,60,20,31,88,,72,72,19,19,8,7,0.5,0.5
2024-03-20T1200,1757A,124.0436,41.8611,抚顺市,东洲区,颗粒物(PM10),55,60,58,20,31,79,,60,60,16,18,12,9,0.6,0.5
2024-03-20T1200,1758A,123.9247,41.8642,抚顺市,新抚区,颗粒物(PM10),51,52,60,21,32,83,,67,67,19,16,7,6,0.7,0.5
2024-03-20T1200,1759A,124.0972,41.8961,抚顺市,大伙房水库,颗粒物(PM10),58,66,50,24,31,85,,73,73,15,13,10,6,0.7,0.4
2024-03-20T1200,1760A,123.7086,41.8391,抚顺市,沈抚新城,,50,50,61,22,32,84,,71,71,15,18,7,6,0.4,0.4
2024-03-20T1200,2376A,116.2127,28.0814,抚州市,桐源党溪,颗粒物(PM10),63,76,52,24,20,89,,40,40,17,17,13,8,0.7,0.7
2024-03-20T1200,2377A,116.3544,27.9831,抚州市,市站,,,97,69,36,28,96,,40,40,14,23,,7,0.5,0.7
2024-03-20T1200,2378A,116.3565,27.963,抚州市,血防站,颗粒物(PM10),69,88,69,30,27,108,,51,51,17,28,9,8,0.4,0.5
2024-03-20T1200,2379A,116.3564,28.0007,抚州市,采茶剧团,颗粒物(PM10),75,99,71,28,28,101,,38,38,18,32,14,7,0.8,0.8
2024-03-20T1200,2380A,116.385,27.9647,抚州市,医学分院,颗粒物(PM10),76,101,72,22,24,94,,39,39,19,29,14,11,0.6,0.6
2024-03-20T1200,2207A,121.6094,41.998,阜新市,工业园区,,29,18,25,6,9,92,,81,79,6,8,6,6,0.4,0.5
2024-03-20T1200,2208A,121.6697,42.0279,阜新市,长青街,,29,14,18,6,10,91,,84,81,7,8,4,4,0.4,0.4
2024-03-20T1200,2209A,121.6673,42.0705,阜新市,农业园区,,45,45,24,2,9,91,,88,86,7,8,5,6,0.5,0.4
2024-03-20T1200,2210A,121.6717,42.0224,阜新市,东苑,,28,24,20,5,9,87,,84,79,8,9,7,8,0.3,0.3
2024-03-20T1200,2211A,121.6506,42.0498,阜新市,玉龙新城,,,23,17,4,5,88,,78,76,,8,6,6,0.2,0.2
2024-03-20T1200,2301A,115.8277,32.8929,阜阳市,市监测站,颗粒物(PM10),115,180,151,50,40,89,,76,76,18,25,10,7,0.5,0.4
2024-03-20T1200,2303A,115.8554,32.8605,阜阳市,开发区,颗粒物(PM10),138,225,215,37,35,90,,63,63,21,30,8,7,0.5,0.5
2024-03-20T1200,2875A,115.784,32.8892,阜阳市,阜阳职业技术学院,颗粒物(PM10),110,170,176,42,35,93,,74,74,17,28,8,6,0.5,0.4
2024-03-20T1200,3468A,115.7901,32.8613,阜阳市,市规划展馆,颗粒物(PM10),117,184,163,43,29,94,,76,75,20,24,7,6,0.5,0.3
2024-03-20T1200,3469A,115.836,32.9183,阜阳市,枣园社区,颗粒物(PM10),127,203,163,48,27,88,,78,78,20,30,11,7,0.4,0.4
2024-03-20T1200,2669A,102.9099,34.9841,甘南藏族自治州,州政府,颗粒物(PM10),56,62,89,18,36,84,,30,30,6,23,9,10,0.4,0.6
2024-03-20T1200,3380A,102.8914,34.9617,甘南藏族自治州,甘肃民族师范学院,,,,99,,29,79,,28,28,8,29,15,11,0.4,0.6
2024-03-20T1200,2570A,101.9603,30.0475,甘孜藏族自治州,水桥子,,47,47,73,20,27,63,,60,48,16,16,11,10,0.3,0.3
2024-03-20T1200,3065A,101.9533,29.9972,甘孜藏族自治州,州环保局,,36,36,70,8,15,70,,56,52,12,16,8,8,0.3,0.3
2024-03-20T1200,3414A,115.8347,28.932,赣江新区,桑海产业园,颗粒物(PM10),114,178,124,30,23,101,,34,34,20,34,8,6,0.4,0.4
2024-03-20T1200,2362A,114.9017,25.9149,赣州市,通天岩,,,,,,,,,,,,,,,,
2024-03-20T1200,2363A,114.9367,25.8664,赣州市,地委,颗粒物(PM10),78,106,56,25,22,91,,44,44,6,7,8,6,0.4,0.5
2024-03-20T1200,2364A,114.9461,25.8481,赣州市,气象台,颗粒物(PM10),75,99,51,26,22,95,,43,43,20,19,11,9,0.5,0.6
2024-03-20T1200,2365A,114.9322,25.8333,赣州市,市图书馆,颗粒物(PM10),79,107,57,30,21,89,,40,40,12,16,22,12,0.6,0.5
2024-03-20T1200,2366A,114.8905,25.8471,赣州市,华坚鞋城,,,102,58,24,20,98,,51,51,,12,7,6,0.5,0.5
2024-03-20T1200,3109A,115.0093,25.8613,赣州市,赣县区卫计委,,,125,52,19,20,88,,42,42,9,17,,8,0.4,0.5
2024-03-20T1200,2683A,106.2319,36.1417,固原市,马园,,,73,110,17,30,101,,39,39,12,33,,4,0.1,0.2
2024-03-20T1200,2684A,106.2792,36.0022,固原市,监测站,颗粒物(PM10),62,74,80,24,31,85,,52,52,19,24,6,7,0.3,0.5
2024-03-20T1200,2685A,106.2375,36.0211,固原市,新区,颗粒物(PM10),62,74,86,21,32,90,,39,39,22,28,6,7,0.2,0.4
2024-03-20T1200,3522A,106.2177,35.9959,固原市,原州区十五小,颗粒物(PM10),61,71,84,21,27,108,,90,90,7,15,7,7,0.2,0.3
2024-03-20T1200,2543A,106.6308,30.5278,广安市,小平旧居,,,,,,,,,,,,,,,,
2024-03-20T1200,2544A,106.6303,30.4576,广安市,市委,颗粒物(PM10),78,106,71,43,36,51,,22,20,36,33,14,8,0.9,0.8
2024-03-20T1200,2545A,106.6271,30.4663,广安市,友谊中学,颗粒物(PM10),64,77,57,26,34,54,,23,22,38,37,14,8,0.9,0.9
2024-03-20T1200,2547A,106.6388,30.4551,广安市,广电花园,颗粒物(PM10),78,105,62,41,34,35,,22,18,44,32,12,9,1.0,0.8
2024-03-20T1200,2902A,106.6351,30.4865,广安市,北辰小学,颗粒物(PM10),67,84,64,40,37,47,,23,17,37,28,17,9,0.9,0.8
2024-03-20T1200,2523A,105.8945,32.4535,广元市,黑石坡,颗粒物(PM10),57,63,61,20,22,94,,80,75,16,11,7,5,0.5,0.3
2024-03-20T1200,2524A,105.821,32.4444,广元市,老城,颗粒物(PM10),71,91,81,42,24,53,,17,17,37,44,26,5,1.2,0.5
2024-03-20T1200,2526A,105.8628,32.4287,广元市,监测站,颗粒物(PM10),59,67,63,14,22,60,,44,40,34,18,16,5,0.9,0.5
2024-03-20T1200,3617A,105.8047,32.4166,广元市,经开区,,,135,92,70,35,55,,18,18,,33,55,11,1.5,0.6
2024-03-20T1200,1345A,113.2347,23.1423,广州市,广雅中学,颗粒物(PM10),78,105,59,24,14,84,,58,58,25,36,6,6,0.5,0.7
2024-03-20T1200,1346A,113.2612,23.105,广州市,市五中,颗粒物(PM10),76,101,53,22,14,91,,75,75,16,24,6,7,0.6,0.7
2024-03-20T1200,1348A,113.3478,23.0916,广州市,广东商学院,颗粒物(PM10),76,102,48,23,11,92,,79,79,16,20,6,6,0.2,0.4
2024-03-20T1200,1349A,113.4332,23.1047,广州市,市八十六中,,,115,49,26,12,92,,67,65,,22,,5,0.4,0.5
2024-03-20T1200,1350A,113.3505,22.9483,广州市,番禺中学,颗粒物(PM10),79,107,49,15,5,98,,74,74,25,26,8,6,0.7,0.8
2024-03-20T1200,1351A,113.2146,23.3916,广州市,花都师范,颗粒物(PM10),90,129,49,26,12,105,,83,83,14,17,6,8,0.6,0.6
2024-03-20T1200,1352A,113.2597,23.1331,广州市,市监测站,颗粒物(PM10),76,102,49,25,16,88,,68,68,22,32,5,6,0.3,0.4
2024-03-20T1200,1353A,113.5618,23.312,广州市,九龙镇镇龙,颗粒物(PM10),76,101,40,27,13,92,,69,68,11,11,7,6,0.6,0.6
2024-03-20T1200,1354A,113.2765,23.1544,广州市,麓湖,,,88,51,26,14,89,,63,63,14,23,,6,,0.6
2024-03-20T1200,1355A,113.443,23.3035,广州市,帽峰山森林公园,颗粒物(PM10),63,75,34,23,10,109,,87,87,9,11,8,7,0.7,0.8
2024-03-20T1200,2846A,113.3221,23.1322,广州市,体育西,颗粒物(PM10),77,104,52,24,13,96,,73,73,11,21,8,8,0.6,0.7
2024-03-20T1200,3298A,113.5717,23.5491,广州市,从化街口,颗粒物(PM10),78,105,42,28,12,104,,88,88,7,10,6,6,0.5,0.6
2024-03-20T1200,3299A,113.3472,23.3692,广州市,白云竹料,颗粒物(PM10),83,115,49,26,15,102,,76,76,12,16,6,7,0.4,0.5
2024-03-20T1200,3300A,113.2981,23.237,广州市,白云嘉禾,颗粒物(PM10),82,113,58,25,14,93,,60,60,30,38,8,8,0.4,0.6
2024-03-20T1200,3301A,113.4256,23.1716,广州市,黄埔科学城,颗粒物(PM10),77,104,40,24,10,98,,78,78,14,14,7,6,0.6,0.7
2024-03-20T1200,3302A,113.3942,23.0483,广州市,番禺大学城,颗粒物(PM10),63,76,35,24,12,95,,68,68,22,27,5,4,0.0,0.3
2024-03-20T1200,3303A,113.4922,22.8168,广州市,南沙黄阁,颗粒物(PM10),92,134,54,33,11,108,,68,68,31,39,8,8,0.7,0.8
2024-03-20T1200,3304A,113.5342,22.7896,广州市,南沙街,,,111,54,25,13,110,,61,61,22,34,,9,0.6,0.7
2024-03-20T1200,3443A,113.2902,23.5544,广州市,花都梯面,颗粒物(PM10),74,98,42,27,14,113,,88,88,10,15,8,9,0.5,0.6
2024-03-20T1200,3445A,113.7858,23.7478,广州市,从化良口,颗粒物(PM10),67,84,38,22,12,98,,76,75,6,7,5,4,0.5,0.6
2024-03-20T1200,3446A,113.8051,23.2614,广州市,增城荔城,颗粒物(PM10),76,101,34,23,10,99,,84,84,6,10,8,7,0.5,0.5
2024-03-20T1200,2505A,109.568,23.1478,贵港市,德智高中,颗粒物(PM10),59,67,61,28,22,63,,55,43,11,15,6,7,0.6,0.6
2024-03-20T1200,2506A,109.6047,23.0666,贵港市,江南子站,,,119,76,42,25,65,,54,54,,20,11,8,,0.7
2024-03-20T1200,2507A,109.6014,23.0948,贵港市,贵城子站,,,,44,33,25,57,,48,48,22,18,13,10,0.8,0.7
2024-03-20T1200,2508A,109.5669,23.1065,贵港市,荷城子站,颗粒物(PM10),75,100,67,29,23,60,,49,47,16,14,13,12,0.4,0.4
2024-03-20T1200,3405A,109.5886,23.1172,贵港市,新世纪学校,颗粒物(PM10),82,114,72,38,28,57,,47,47,19,14,11,9,0.8,0.7
2024-03-20T1200,1439A,106.6899,26.5998,贵阳市,马鞍山,颗粒物(PM10),64,78,65,12,14,72,,66,66,19,11,8,8,0.4,0.3
2024-03-20T1200,1440A,106.6971,26.5694,贵阳市,市环保站,,,,90,,23,60,,85,73,,17,,6,0.5,0.4
2024-03-20T1200,1441A,106.6243,26.6266,贵阳市,鉴湖路,颗粒物(PM10),70,90,84,12,15,76,,83,80,19,11,7,4,0.4,0.3
2024-03-20T1200,1442A,106.7487,26.6343,贵阳市,燕子冲,颗粒物(PM10),60,70,72,24,18,84,,74,74,11,9,7,8,0.4,0.4
2024-03-20T1200,1443A,106.6555,26.4365,贵阳市,碧云窝,颗粒物(PM10),68,85,88,22,19,82,,73,73,15,16,12,13,0.3,0.4
2024-03-20T1200,1444A,106.694,26.5161,贵阳市,中院村,颗粒物(PM10),60,70,74,19,21,68,,78,73,23,15,11,11,0.4,0.4
2024-03-20T1200,1445A,106.7109,26.6027,贵阳市,红边门,颗粒物(PM10),63,75,81,22,21,70,,75,70,19,12,9,8,0.3,0.3
2024-03-20T1200,1446A,106.7164,26.5699,贵阳市,新华路,颗粒物(PM10),64,78,78,19,19,71,,84,80,21,11,10,8,0.3,0.3
2024-03-20T1200,1447A,106.674,26.5424,贵阳市,太慈桥,颗粒物(PM10),60,70,67,19,19,70,,80,74,24,14,11,8,0.4,0.3
2024-03-20T1200,1552A,106.805,26.3003,贵阳市,桐木岭,,,,,,,,,,,,,,,,
2024-03-20T1200,1862A,110.4144,25.3167,桂林市,电子科大尧山校区,颗粒物(PM10),77,104,93,28,21,103,,85,85,7,6,6,11,0.5,0.4
2024-03-20T1200,1863A,110.2819,25.2697,桂林市,监测站,颗粒物(PM10),75,99,92,30,23,83,,73,66,13,14,9,9,0.5,0.4
2024-03-20T1200,1864A,110.3089,25.2708,桂林市,龙隐路小学,颗粒物(PM10),68,85,81,30,23,87,,74,72,9,10,7,6,0.5,0.4
2024-03-20T1200,1865A,110.2869,25.2178,桂林市,八中,颗粒物(PM10),71,91,82,29,26,85,,72,68,12,15,6,6,0.4,0.4
2024-03-20T1200,3403A,110.1764,25.2381,桂林市,创业大厦,颗粒物(PM10),78,105,109,31,33,92,,59,59,10,14,8,14,0.4,0.5
2024-03-20T1200,3531A,110.296,25.1253,桂林市,旅游学院,颗粒物(PM10),79,107,90,29,24,88,,71,71,12,11,11,8,0.5,0.5
2024-03-20T1200,2674A,100.2561,34.4714,果洛藏族自治州,玛沁县大武镇,,46,46,60,11,21,86,,58,58,18,15,18,10,0.6,0.4
2024-03-20T1200,1129A,126.5422,45.755,哈尔滨市,岭北,,29,16,25,15,23,92,,78,78,7,18,15,14,1.0,1
2024-03-20T1200,1130A,126.561,45.8167,哈尔滨市,松北商大,,,,28,,19,86,,58,58,,19,,7,0.4,0.4
2024-03-20T1200,1131A,126.979,45.5419,哈尔滨市,阿城会宁,,29,26,37,13,27,90,,63,63,10,21,11,8,0.4,0.6
2024-03-20T1200,1132A,126.599,45.7222,哈尔滨市,南岗学府路,,36,36,36,12,16,87,,63,63,7,19,7,11,0.3,0.3
2024-03-20T1200,1133A,126.689,45.7733,哈尔滨市,太平宏伟公园,,35,35,27,16,20,90,,69,69,8,19,7,16,0.5,0.4
2024-03-20T1200,1134A,126.635,45.7667,哈尔滨市,道外承德广场,,,26,28,10,19,,,60,60,19,22,7,11,0.3,0.5
2024-03-20T1200,1135A,126.685,45.7319,哈尔滨市,香坊红旗大街,,,,27,16,21,85,,66,66,12,17,10,9,0.5,0.5
2024-03-20T1200,1136A,126.6411,45.7258,哈尔滨市,动力和平路,,29,27,28,15,20,90,,68,68,8,16,6,9,0.4,0.5
2024-03-20T1200,1137A,126.593,45.7478,哈尔滨市,道里建国路,,,50,27,18,22,79,,60,60,15,22,7,8,,0.3
2024-03-20T1200,1138A,126.615,45.61,哈尔滨市,平房东轻厂,,31,31,33,16,24,84,,54,54,6,31,6,6,0.1,0.3
2024-03-20T1200,1139A,126.595,45.9855,哈尔滨市,呼兰师专,,36,36,30,22,25,83,,65,65,11,16,10,10,0.5,0.6
2024-03-20T1200,1140A,126.6206,45.6842,哈尔滨市,省农科院,,30,,33,20,28,93,,71,71,5,19,9,12,0.3,0.4
2024-03-20T1200,2688A,93.5128,42.8172,哈密市,地区监测站,颗粒物(PM10),189,327,265,64,61,72,,51,51,12,30,4,4,0.2,0.4
2024-03-20T1200,2689A,93.4961,42.8328,哈密市,哈密师范学校,颗粒物(PM10),194,337,277,61,65,66,,36,36,18,40,8,7,0.2,0.5
2024-03-20T1200,2671A,100.9048,36.9639,海北藏族自治州,海晏县西海镇,,47,47,40,14,14,88,,58,58,8,9,19,11,0.5,0.4
2024-03-20T1200,3867A,102.0738,36.5056,海东市,平安区公安北苑,颗粒物(PM10),51,52,64,22,21,89,,68,60,12,14,24,12,0.8,0.6
2024-03-20T1200,1409A,110.576,19.9507,海口市,东寨港,,,,,,,,,,,,,,,,
2024-03-20T1200,1410A,110.3232,20.0574,海口市,海南大学,,,59,30,21,11,,,86,82,15,11,10,8,0.3,0.5
2024-03-20T1200,1411A,110.283,20.0053,海口市,秀英海南医院,颗粒物(PM10),54,57,27,20,12,84,,87,83,12,10,11,10,0.4,0.5
2024-03-20T1200,1412A,110.338,19.9969,海口市,海南师范大学,颗粒物(PM10),53,56,24,20,12,83,,89,83,11,10,10,9,0.5,0.6
2024-03-20T1200,1413A,110.33,20.0356,海口市,龙华路环保局宿舍,颗粒物(PM10),53,55,28,18,10,81,,83,78,12,10,10,9,0.5,0.6
2024-03-20T1200,3539A,110.5111,19.9736,海口市,桂林洋子站,,,,26,24,15,80,,90,83,11,9,9,8,0.4,0.5
2024-03-20T1200,2673A,100.6188,36.2866,海南藏族自治州,共和县恰卜恰镇,细颗粒物(PM2.5),53,45,48,37,21,82,,65,54,8,17,12,13,0.5,0.6
2024-03-20T1200,2676A,97.3731,37.3753,海西蒙古族藏族自治州,德令哈市,,36,36,54,19,12,97,,72,72,10,12,12,10,0.5,0.6
2024-03-20T1200,1048A,114.5302,36.6116,邯郸市,东污水处理厂,颗粒物(PM10),57,64,102,5,20,78,,58,58,3,19,2,3,0.3,0.3
2024-03-20T1200,1049A,114.4918,36.5713,邯郸市,矿院,,,,82,,12,71,,58,58,7,20,2,3,,0.5
2024-03-20T1200,1050A,114.484,36.6133,邯郸市,丛台公园,,48,48,73,6,15,80,,60,60,4,17,3,2,0.2,0.2
2024-03-20T1200,3458A,114.7895,36.5593,邯郸市,香泉濮院小区,颗粒物(PM10),56,62,118,3,20,84,,55,55,2,10,4,6,0.2,0.3
2024-03-20T1200,3579A,114.50634,36.77178,邯郸市,永年区实验高中,颗粒物(PM10),62,73,108,6,23,83,,62,62,7,22,3,4,0.3,0.4
2024-03-20T1200,3580A,114.20016,36.44293,邯郸市,峰峰矿区临水派出所,,39,39,61,5,11,87,,68,68,4,12,3,6,0.2,0.4
2024-03-20T1200,2634A,106.9893,33.1842,汉中市,汉川机床厂子校,,,80,67,31,25,75,,47,47,11,12,,4,0.6,0.6
2024-03-20T1200,2635A,107.0154,33.0706,汉中市,市监测站,颗粒物(PM10),65,80,81,32,32,77,,28,28,16,27,12,8,0.7,0.8
2024-03-20T1200,2636A,107.0089,33.1138,汉中市,鑫源开发区,颗粒物(PM10),65,80,88,37,34,75,,38,38,18,33,12,14,0.6,0.7
2024-03-20T1200,2637A,107.007,33.0323,汉中市,南郑大河坎水厂,颗粒物(PM10),69,87,83,35,34,76,,27,27,17,25,13,9,0.6,0.6
2024-03-20T1200,1223A,120.2072,30.2111,杭州市,滨江,颗粒物(PM10),81,112,104,22,23,95,,41,41,24,35,6,4,0.6,0.6
2024-03-20T1200,1224A,120.0633,30.2747,杭州市,西溪,颗粒物(PM10),70,89,74,20,18,102,,38,38,17,38,8,7,0.5,0.6
2024-03-20T1200,1226A,120.3461,30.3153,杭州市,下沙,颗粒物(PM10),83,116,143,21,30,94,,43,43,19,42,8,7,0.4,0.5
2024-03-20T1200,1227A,120.1269,30.2456,杭州市,卧龙桥,颗粒物(PM10),66,82,69,23,20,106,,48,48,17,24,6,5,0.4,0.4
2024-03-20T1200,1228A,120.1903,30.2692,杭州市,浙江农大,颗粒物(PM10),67,84,89,17,23,95,,38,38,18,34,7,6,0.3,0.5
2024-03-20T1200,1230A,120.1197,30.3119,杭州市,和睦小学,,,87,83,18,24,97,,33,33,13,36,,7,0.5,0.6
2024-03-20T1200,1231A,120.3019,30.4183,杭州市,临平镇,颗粒物(PM10),87,124,148,15,30,102,,43,43,12,33,7,6,0.3,0.5
2024-03-20T1200,1232A,120.2697,30.1819,杭州市,城厢镇,颗粒物(PM10),80,109,95,29,24,93,,44,44,25,32,9,8,0.5,0.6
2024-03-20T1200,1233A,120.0883,30.1808,杭州市,云栖,颗粒物(PM10),72,93,64,22,18,94,,44,44,21,22,9,8,0.6,0.5
2024-03-20T1200,3557A,119.9464,30.0494,杭州市,镇二中,颗粒物(PM10),67,83,54,27,16,103,,41,41,21,36,12,11,0.4,0.6
2024-03-20T1200,3558A,119.7183,30.2367,杭州市,市府大楼,,,,75,,22,,,38,37,21,28,,6,0.4,0.6
2024-03-20T1200,3656A,120.1556,30.2864,杭州市,消防大队,颗粒物(PM10),68,86,92,19,24,110,,48,48,16,36,10,9,0.5,0.6
2024-03-20T1200,1270A,117.1959,31.7848,合肥市,明珠广场,颗粒物(PM10),95,139,155,19,27,98,,48,48,19,43,6,4,0.6,0.6
2024-03-20T1200,1271A,117.3072,31.8764,合肥市,三里街,颗粒物(PM10),103,156,174,27,39,53,,11,11,47,59,7,7,0.7,1
2024-03-20T1200,1272A,117.2588,31.8707,合肥市,琥珀山庄,颗粒物(PM10),107,163,152,22,33,92,,41,41,31,52,5,5,0.3,0.7
2024-03-20T1200,1273A,117.1604,31.9052,合肥市,董铺水库,颗粒物(PM10),115,180,176,36,24,93,,48,48,,34,3,3,0.3,0.3
2024-03-20T1200,1274A,117.25,31.8571,合肥市,长江中路,颗粒物(PM10),106,161,167,31,37,91,,41,41,20,49,7,7,0.5,0.8
2024-03-20T1200,1275A,117.266,31.9436,合肥市,庐阳区,颗粒物(PM10),103,156,175,22,25,85,,42,42,15,39,3,3,0.4,0.5
2024-03-20T1200,1276A,117.336,31.8586,合肥市,瑶海区,颗粒物(PM10),109,168,193,27,32,74,,23,23,33,59,7,7,0.5,0.7
2024-03-20T1200,1277A,117.3027,31.7964,合肥市,包河区,颗粒物(PM10),101,151,172,24,28,83,,32,32,26,61,5,7,0.2,0.3
2024-03-20T1200,1278A,117.2776,31.7385,合肥市,滨湖新区,颗粒物(PM10),106,161,178,29,30,74,,31,31,25,56,6,7,0.5,0.6
2024-03-20T1200,1279A,117.1318,31.8403,合肥市,高新区,颗粒物(PM10),108,166,165,23,25,87,,59,59,,42,5,5,0.4,0.5
2024-03-20T1200,3464A,117.3803,31.9147,合肥市,高教基地,颗粒物(PM10),112,173,168,25,26,90,,34,34,29,47,4,4,0.4,0.5
2024-03-20T1200,3614A,79.924,37.0877,和田地区,地区环保局,颗粒物(PM10),339,451,365,109,88,79,,52,52,7,16,8,9,0.9,1
2024-03-20T1200,3615A,79.9131,37.113,和田地区,市环保局,颗粒物(PM10),337,449,348,84,79,76,,46,46,8,14,8,7,0.8,0.8
2024-03-20T1200,2516A,108.2011,24.715,河池市,东仁乐园,颗粒物(PM10),77,104,65,31,19,29,,16,16,19,13,9,9,0.6,0.7
2024-03-20T1200,2517A,108.0497,24.6947,河池市,市环保站,颗粒物(PM10),59,67,44,21,19,58,,28,28,14,24,8,7,0.5,0.5
2024-03-20T1200,2518A,108.0983,24.6989,河池市,市疾控中心,颗粒物(PM10),61,71,57,27,28,63,,26,26,18,29,11,10,0.5,0.5
2024-03-20T1200,1696A,114.6778,23.7569,河源市,源西,颗粒物(PM10),87,124,62,21,17,98,,25,25,23,24,5,6,0.5,0.5
2024-03-20T1200,1697A,114.6944,23.7586,河源市,东埔,颗粒物(PM10),97,144,61,22,16,100,,76,76,6,9,8,8,0.5,0.5
2024-03-20T1200,1698A,114.6892,23.7233,河源市,老城,颗粒物(PM10),82,114,54,22,14,100,,74,74,5,8,6,7,0.5,0.5
2024-03-20T1200,1718A,115.4208,35.2464,菏泽市,气象局,颗粒物(PM10),92,134,151,24,30,88,,55,55,19,29,13,7,0.5,0.5
2024-03-20T1200,1719A,115.4747,35.2375,菏泽市,市政协,颗粒物(PM10),92,134,151,23,27,85,,48,48,14,26,10,6,0.5,0.4
2024-03-20T1200,3374A,115.5564,35.0891,菏泽市,定陶老年大学,颗粒物(PM10),92,134,140,27,24,85,,49,49,22,26,17,9,0.5,0.3
2024-03-20T1200,3647A,115.4702,35.2706,菏泽市,菏泽医专,颗粒物(PM10),86,121,152,19,22,85,,48,48,15,27,7,6,0.4,0.4
2024-03-20T1200,2514A,111.5264,24.4172,贺州市,环保小区,颗粒物(PM10),65,80,58,29,24,84,,36,36,11,16,8,8,0.5,0.5
2024-03-20T1200,2515A,111.5608,24.4078,贺州市,政协大楼,颗粒物(PM10),64,77,56,21,21,81,,34,34,17,21,9,7,0.5,0.5
2024-03-20T1200,3534A,111.4744,24.4553,贺州市,西湾,,,95,55,27,20,74,,,,,9,11,9,,0.4
2024-03-20T1200,2385A,114.17,35.9019,鹤壁市,市监测站,颗粒物(PM10),61,72,94,18,31,85,,60,60,5,18,9,10,0.4,0.5
2024-03-20T1200,2386A,114.2956,35.7511,鹤壁市,市交警支队,颗粒物(PM10),61,72,91,1,23,78,,58,58,16,32,8,10,0.3,0.4
2024-03-20T1200,2387A,114.2878,35.7306,鹤壁市,迎宾馆,颗粒物(PM10),57,63,88,19,17,76,,55,55,6,30,9,9,0.4,0.6
2024-03-20T1200,3474A,114.2617,35.6822,鹤壁市,大新区,颗粒物(PM10),76,102,114,17,24,79,,58,58,11,35,8,9,0.2,0.3
2024-03-20T1200,3596A,114.1572,35.9603,鹤壁市,南山宾馆,颗粒物(PM10),65,79,103,8,22,83,,61,61,10,18,3,4,0.4,0.5
2024-03-20T1200,2244A,130.2537,47.3416,鹤岗市,哈啤分公司,,26,19,25,12,16,82,,77,77,4,7,12,13,0.5,0.8
2024-03-20T1200,2245A,130.2684,47.3086,鹤岗市,斯达机电,,27,24,26,12,20,84,,78,77,4,11,9,13,0.3,0.3
2024-03-20T1200,2246A,130.3114,47.3388,鹤岗市,东山纸板厂,,29,11,45,5,20,90,,77,77,4,12,13,15,0.3,0.4
2024-03-20T1200,2247A,130.1097,47.3382,鹤岗市,五号水库,,30,17,19,6,13,93,,83,83,4,5,9,8,0.1,0.1
2024-03-20T1200,2263A,127.4833,50.2524,黑河市,交通局,,26,18,19,15,16,81,,69,69,4,8,6,6,0.3,0.3
2024-03-20T1200,2264A,127.5144,50.2341,黑河市,环保局,,,,24,17,20,82,,73,72,,12,5,7,0.3,0.3
2024-03-20T1200,2265A,127.5291,50.2472,黑河市,大黑河岛,,,,,,,,,,,,,,,,
2024-03-20T1200,1074A,115.6838,37.7541,衡水市,电机北厂,,49,49,94,1,15,82,,58,58,6,12,2,2,0.3,0.3
2024-03-20T1200,1075A,115.6303,37.7316,衡水市,市监测站,,45,45,84,5,11,82,,56,56,8,14,8,8,0.3,0.3
2024-03-20T1200,3188A,115.6683,37.7217,衡水市,市城管局,,,70,95,9,14,77,,55,55,,16,,4,0.4,0.3
2024-03-20T1200,3459A,115.5989,37.5491,衡水市,地表水厂,,48,48,97,8,21,83,,54,54,2,12,3,3,0.3,0.3
2024-03-20T1200,2456A,112.5003,26.9167,衡阳市,原169医院,,,89,59,29,24,,,14,14,29,28,,13,1.0,0.6
2024-03-20T1200,2457A,112.6194,26.9258,衡阳市,衡阳化工总厂,,,96,78,35,40,82,,26,26,18,33,,8,0.8,0.7
2024-03-20T1200,2458A,112.6211,26.8956,衡阳市,珠晖区环保局,颗粒物(PM10),71,92,78,37,40,81,,33,33,15,27,16,14,0.8,1
2024-03-20T1200,2459A,112.6197,26.8733,衡阳市,市委党校,,,,70,,34,83,,31,31,,30,16,11,,0.8
2024-03-20T1200,2460A,112.6006,26.8919,衡阳市,市监测站,颗粒物(PM10),72,93,82,47,46,81,,37,37,18,30,18,22,0.8,1
2024-03-20T1200,2461A,112.5664,26.9056,衡阳市,真空机电公司,颗粒物(PM10),79,107,78,43,36,72,,27,27,25,34,21,34,0.9,1.1
2024-03-20T1200,3399A,112.6703,26.882,衡阳市,师范学院,颗粒物(PM10),63,75,74,27,36,76,,32,32,14,20,14,10,0.7,0.7
2024-03-20T1200,2608A,103.3772,23.3993,红河哈尼族彝族自治州,污水处理厂,,,37,54,22,38,52,,60,59,,10,5,6,0.7,0.7
2024-03-20T1200,2609A,103.3861,23.35,红河哈尼族彝族自治州,监测站,,44,44,54,27,39,53,,63,60,12,9,7,7,0.8,0.8
2024-03-20T1200,3038A,103.3758,23.368,红河哈尼族彝族自治州,州图书馆,,24,24,45,13,30,51,,58,56,10,9,5,5,0.7,0.7
2024-03-20T1200,1090A,111.6507,40.7517,呼和浩特市,呼市一监,,29,29,18,17,6,89,,53,53,11,17,10,8,0.4,0.4
2024-03-20T1200,1091A,111.6572,40.8033,呼和浩特市,小召,,,63,23,13,7,81,,40,40,,26,,7,0.3,0.3
2024-03-20T1200,1094A,111.7516,40.8369,呼和浩特市,如意水处理厂,,25,25,10,9,7,73,,41,41,12,25,9,8,0.4,0.4
2024-03-20T1200,1095A,111.7276,40.8062,呼和浩特市,二十九中,,24,17,22,9,6,76,,41,41,12,23,10,9,0.5,0.5
2024-03-20T1200,1096A,111.5512,40.7866,呼和浩特市,工大金川校区,,31,31,22,13,6,71,,37,37,14,22,15,5,0.5,0.4
2024-03-20T1200,1097A,111.717,40.7612,呼和浩特市,化肥厂生活区,,31,31,21,20,8,79,,49,49,14,19,9,8,0.4,0.5
2024-03-20T1200,3698A,111.5968,40.8178,呼和浩特市,红旗小学,,39,39,19,13,6,62,,29,29,16,24,9,6,0.4,0.4
2024-03-20T1200,3699A,111.6518,40.8389,呼和浩特市,海东办,,31,31,22,9,6,73,,32,32,15,31,11,9,0.4,0.3
2024-03-20T1200,2192A,119.7594,49.2261,呼伦贝尔市,区环保局,,,,29,,25,86,,79,79,10,17,4,4,0.4,0.6
2024-03-20T1200,3061A,119.7512,49.1577,呼伦贝尔市,国华电力东,,28,11,28,10,20,87,,84,83,4,8,4,3,0.2,0.2
2024-03-20T1200,1250A,120.0751,30.8669,湖州市,城西水厂,颗粒物(PM10),77,104,113,18,33,110,,41,41,17,58,7,6,0.4,0.5
2024-03-20T1200,2873A,120.0875,30.8955,湖州市,仁皇山新区,颗粒物(PM10),80,109,107,19,32,109,,39,39,18,51,9,8,0.4,0.6
2024-03-20T1200,2907A,120.1844,30.8596,湖州市,吴兴区站,颗粒物(PM10),76,102,103,18,30,108,,38,38,10,45,8,8,0.6,0.7
2024-03-20T1200,3562A,120.4148,30.8538,湖州市,南浔区站,颗粒物(PM10),80,109,129,14,29,120,,57,57,8,31,10,9,0.4,0.6
2024-03-20T1200,1607A,120.9092,40.7136,葫芦岛市,龙港区,,28,22,25,6,10,89,,75,75,3,9,4,7,0.3,0.4
2024-03-20T1200,1608A,120.8392,40.7514,葫芦岛市,化工街,,27,12,22,2,9,86,,73,73,8,14,9,9,0.8,0.8
2024-03-20T1200,1609A,120.8341,40.7073,葫芦岛市,新区,,29,,22,16,9,90,,80,80,6,14,7,9,0.4,0.4
2024-03-20T1200,1610A,120.8695,40.7677,葫芦岛市,东城区,,31,31,20,9,8,90,,76,76,9,14,6,7,0.5,0.5
2024-03-20T1200,2482A,109.5981,27.5721,怀化市,林科所,,,127,65,26,17,71,,33,27,,4,21,10,0.6,0.6
2024-03-20T1200,2483A,109.9453,27.5444,怀化市,河西地税局,颗粒物(PM10),80,109,75,34,28,63,,21,21,14,16,13,6,0.7,0.7
2024-03-20T1200,2484A,109.9781,27.5342,怀化市,市四医院,颗粒物(PM10),82,114,94,36,31,50,,18,18,19,26,19,9,0.8,0.7
2024-03-20T1200,2485A,109.9972,27.5578,怀化市,监测楼,颗粒物(PM10),79,107,84,38,30,57,,18,18,13,22,17,10,0.5,0.5
2024-03-20T1200,2486A,110.0394,27.583,怀化市,市委党校,,,105,93,28,31,59,,14,14,9,23,17,16,,0.7
2024-03-20T1200,1210A,119.036,33.5981,淮安市,钵池山,,,48,129,16,24,85,,58,58,11,23,8,9,,0.6
2024-03-20T1200,1211A,119.007,33.575,淮安市,北京南路,颗粒物(PM10),54,58,138,20,29,88,,62,62,11,35,6,8,0.5,0.6
2024-03-20T1200,1212A,118.989,33.6067,淮安市,市监测站,颗粒物(PM10),51,51,136,12,24,90,,62,62,12,31,7,9,0.4,0.5
2024-03-20T1200,1213A,119.135,33.5039,淮安市,楚州区监测站,颗粒物(PM10),53,56,141,18,27,87,,62,62,13,33,6,8,0.6,0.6
2024-03-20T1200,1214A,119.0186,33.6297,淮安市,淮阴区监测站,,48,48,139,20,28,86,,57,57,16,34,4,7,0.3,0.4
2024-03-20T1200,3426A,118.8755,33.2894,淮安市,新华书店,颗粒物(PM10),56,62,133,13,22,82,,61,61,19,26,6,6,0.5,0.5
2024-03-20T1200,2282A,116.8004,33.975,淮北市,监测站,颗粒物(PM10),73,95,151,17,25,84,,53,53,10,25,8,8,0.4,0.5
2024-03-20T1200,2283A,116.8091,33.9007,淮北市,烈山区政府,,,,188,,27,80,,52,52,10,37,6,8,,0.3
2024-03-20T1200,3330A,116.8873,33.9836,淮北市,杜集区检察院,颗粒物(PM10),78,106,175,16,35,87,,62,62,9,22,8,9,0.4,0.5
2024-03-20T1200,4017A,116.7923,33.9535,淮北市,市博物馆,颗粒物(PM10),68,86,163,16,29,84,,57,57,6,25,7,9,0.3,0.4
2024-03-20T1200,2277A,116.8305,32.7727,淮南市,潘集区政府,颗粒物(PM10),121,191,202,43,42,90,,63,63,19,25,6,4,0.3,0.3
2024-03-20T1200,2278A,117.0067,32.6524,淮南市,师范学院,颗粒物(PM10),118,185,189,52,40,101,,65,65,23,31,10,7,0.4,0.5
2024-03-20T1200,2279A,116.8569,32.5951,淮南市,谢家集区政府,颗粒物(PM10),115,179,187,45,29,85,,70,68,28,20,8,5,0.4,0.3
2024-03-20T1200,2280A,116.8281,32.633,淮南市,八公山区政府,颗粒物(PM10),121,192,187,34,25,95,,78,75,24,19,7,4,0.4,0.3
2024-03-20T1200,2281A,116.6325,32.6201,淮南市,焦岗湖风景区管理处,,,137,127,30,23,,,52,48,26,27,2,2,,0
2024-03-20T1200,2894A,117.0566,32.6531,淮南市,经济技术开发区消防队,颗粒物(PM10),120,189,193,44,31,99,,58,58,19,27,8,5,0.5,0.4
2024-03-20T1200,3329A,117.0108,32.5893,淮南市,山南新区,颗粒物(PM10),137,223,216,37,30,108,,66,66,20,24,6,4,0.5,0.4
2024-03-20T1200,2446A,114.9028,30.4742,黄冈市,职工中心,颗粒物(PM10),111,171,124,38,41,116,,51,51,9,18,10,9,0.5,0.5
2024-03-20T1200,2929A,114.8858,30.4519,黄冈市,红卫路,颗粒物(PM10),108,166,119,45,41,110,,50,50,25,25,10,7,0.6,0.5
2024-03-20T1200,3398A,114.9136,30.4445,黄冈市,市林业局,颗粒物(PM10),98,146,115,36,37,114,,47,47,15,23,6,7,0.9,0.7
2024-03-20T1200,2672A,102.0199,35.5102,黄南藏族自治州,同仁县隆务镇,颗粒物(PM10),65,80,58,43,23,78,,62,61,6,4,11,10,0.8,0.7
2024-03-20T1200,2295A,118.2903,29.6963,黄山市,延安路89号,颗粒物(PM10),90,129,74,40,30,109,,38,38,9,11,7,5,0.4,0.4
2024-03-20T1200,2296A,118.327,29.7178,黄山市,黄山东路89号,颗粒物(PM10),85,119,81,21,21,97,,33,33,12,15,6,5,0.4,0.4
2024-03-20T1200,2297A,118.1371,30.2756,黄山市,黄山区政府5号楼,颗粒物(PM10),80,110,103,28,27,108,,40,40,9,12,5,4,0.3,0.3
2024-03-20T1200,2423A,115.0601,30.2313,黄石市,沈家营,颗粒物(PM10),95,139,105,39,32,121,,43,43,19,28,18,10,0.9,0.7
2024-03-20T1200,2424A,115.0817,30.2006,黄石市,陈家湾,颗粒物(PM10),101,152,112,50,41,102,,47,46,37,23,21,11,0.8,0.7
2024-03-20T1200,2426A,114.8988,30.2019,黄石市,铁山,颗粒物(PM10),97,144,116,31,35,118,,49,49,22,31,12,7,0.7,0.6
2024-03-20T1200,2427A,115.0307,30.2092,黄石市,团城山,颗粒物(PM10),87,124,110,34,32,104,,49,49,29,26,21,10,1.0,0.6
2024-03-20T1200,3149A,115.0235,30.1578,黄石市,笔架山北路,,,,102,,36,,,53,53,,29,,12,,0.6
2024-03-20T1200,1392A,114.4183,23.0528,惠州市,河南岸金山湖子站,颗粒物(PM10),68,85,44,23,14,88,,76,76,10,12,6,7,0.5,0.6
2024-03-20T1200,1393A,114.4053,23.0822,惠州市,下埔横江三路子站,颗粒物(PM10),70,90,43,23,14,107,,85,85,8,11,7,7,0.5,0.5
2024-03-20T1200,1394A,114.4103,23.1142,惠州市,江北云山西路子站,颗粒物(PM10),70,90,46,24,18,103,,84,84,5,9,9,9,0.4,0.4
2024-03-20T1200,1395A,114.4645,22.7833,惠州市,惠阳区承修路船湖子站,颗粒物(PM10),57,63,38,20,13,94,,67,67,13,14,9,9,0.5,0.6
2024-03-20T1200,1396A,114.5317,22.7422,惠州市,大亚湾管委会子站,颗粒物(PM10),53,56,38,19,12,100,,77,77,17,15,9,8,0.6,0.6
2024-03-20T1200,3314A,114.4338,22.8134,惠州市,惠阳秋长,颗粒物(PM10),59,68,47,22,12,111,,86,86,13,13,9,8,0.5,0.5
2024-03-20T1200,3452A,114.6517,22.775,惠州市,大亚湾霞涌,颗粒物(PM10),58,65,41,21,19,97,,79,79,8,9,8,9,0.6,0.6
2024-03-20T1200,2240A,130.9762,45.3001,鸡西市,环保局,,30,30,34,13,18,63,,54,54,4,15,5,7,0.2,0.4
2024-03-20T1200,2243A,130.9429,45.3039,鸡西市,第一中学,,,,28,,16,91,,76,76,5,11,7,9,0.1,0.2
2024-03-20T1200,3707A,131.0207,45.3073,鸡西市,欧美日汽修厂,,23,20,52,12,32,73,,62,62,6,19,2,11,0.3,1.1
2024-03-20T1200,3709A,130.9967,45.3106,鸡西市,市政设施管理处,,32,32,35,15,20,91,,68,68,7,20,3,4,0.2,0.4
2024-03-20T1200,2367A,114.9754,27.0803,吉安市,红声器材厂,颗粒物(PM10),74,97,66,26,22,96,,33,33,16,24,12,9,0.5,0.5
2024-03-20T1200,2368A,114.9658,27.0999,吉安市,市森林工业局,颗粒物(PM10),62,73,57,28,23,98,,53,53,12,17,10,10,0.2,0.4
2024-03-20T1200,2369A,114.99,27.1312,吉安市,市环境监测站,颗粒物(PM10),68,86,62,23,21,98,,52,52,17,23,9,7,0.5,0.5
2024-03-20T1200,2370A,115.0093,27.0968,吉安市,青原区法院,颗粒物(PM10),74,97,59,28,23,102,,38,38,17,28,16,14,0.6,0.6
2024-03-20T1200,1772A,126.54,43.8622,吉林市,哈达湾,,29,20,30,13,17,90,,75,75,5,15,4,8,0.4,0.6
2024-03-20T1200,1773A,126.5844,43.8358,吉林市,东局子,,28,28,36,18,23,86,,67,67,11,22,7,12,0.3,0.5
2024-03-20T1200,1774A,126.5052,43.8245,吉林市,电力学院,,,24,32,8,19,93,,79,79,5,12,,10,,0.6
2024-03-20T1200,1775A,126.6133,43.8972,吉林市,江北,,29,25,43,13,24,92,,70,70,11,34,14,11,0.6,0.6
2024-03-20T1200,1776A,126.555,43.8306,吉林市,江南公园,,29,26,30,20,21,88,,71,71,8,17,6,7,0.4,0.7
2024-03-20T1200,1778A,126.7061,43.7133,吉林市,丰满,,,,,,,,,,,,,,,,
2024-03-20T1200,2868A,126.4739,43.953,吉林市,九站,,31,23,37,11,22,97,,70,70,6,27,9,14,0.4,0.5
2024-03-20T1200,1299A,116.9862,36.6114,济南市,科干所,,31,31,89,2,9,86,,82,82,10,12,4,5,0.5,0.5
2024-03-20T1200,1300A,116.9376,36.665,济南市,农科所,,34,34,94,2,10,82,,74,74,14,20,4,5,0.6,0.6
2024-03-20T1200,1301A,117.1265,36.6734,济南市,开发区,,34,34,95,2,10,87,,79,79,8,15,5,6,0.4,0.4
2024-03-20T1200,1303A,117.0624,36.6868,济南市,省种子仓库,,36,36,111,7,11,86,,73,73,9,14,3,4,0.3,0.3
2024-03-20T1200,1304A,116.9489,36.6447,济南市,机床二厂,,34,34,107,2,10,92,,82,82,7,14,4,5,0.5,0.5
2024-03-20T1200,1305A,117.0495,36.663,济南市,市监测站,,32,32,91,12,11,91,,82,82,16,21,7,8,0.5,0.5
2024-03-20T1200,1306A,116.7675,36.5484,济南市,长清党校,,32,32,99,5,10,92,,86,86,10,13,2,4,0.4,0.5
2024-03-20T1200,1616A,117.6795,36.229,济南市,技术学院,,29,29,87,7,17,90,,67,67,9,19,7,9,0.6,1
2024-03-20T1200,1961A,117.532,36.6868,济南市,东山小学,,34,34,90,5,10,90,,61,61,14,25,7,7,0.3,0.4
2024-03-20T1200,3059A,117.7161,36.2049,济南市,泰兴公司,,29,22,82,7,17,90,,61,61,6,25,7,8,0.4,0.5
2024-03-20T1200,3064A,117.6867,36.2171,济南市,莱芜战役纪念馆,,31,31,82,7,14,92,,61,61,8,19,5,7,0.4,0.6
2024-03-20T1200,3494A,117.1673,36.9782,济南市,济阳区政府,,42,42,87,7,14,89,,70,70,9,16,9,8,0.5,0.5
2024-03-20T1200,3495A,117.1171,36.63,济南市,锦屏中学,,29,29,80,2,7,92,,87,87,6,8,5,6,0.3,0.3
2024-03-20T1200,3682A,116.9814,36.6819,济南市,济南四建,,31,31,91,7,11,80,,72,72,14,17,6,7,0.4,0.5
2024-03-20T1200,1653A,116.6251,35.4302,济宁市,火炬城,,38,38,96,0,11,82,,60,60,5,20,1,4,0.4,0.5
2024-03-20T1200,1655A,116.5491,35.4042,济宁市,电化厂,颗粒物(PM10),55,59,126,5,15,81,,62,62,5,19,2,6,0.4,0.4
2024-03-20T1200,3500A,116.5814,35.3707,济宁市,北湖一中,颗粒物(PM10),51,51,101,0,14,80,,58,58,9,21,4,7,0.6,0.6
2024-03-20T1200,3501A,116.8249,35.5593,济宁市,服务中心,,49,49,104,3,11,86,,67,67,8,26,2,4,0.3,0.5
2024-03-20T1200,3678A,116.5907,35.4054,济宁市,市第七中学,颗粒物(PM10),57,63,117,0,12,84,,62,62,6,19,1,4,0.5,0.6
2024-03-20T1200,2255A,130.2751,46.8028,佳木斯市,佳纺,,,29,32,17,21,89,,59,59,4,19,,6,1.3,0.5
2024-03-20T1200,2256A,130.3995,46.8307,佳木斯市,发电厂,,45,45,34,11,17,88,,75,75,5,14,4,4,0.6,0.6
2024-03-20T1200,2257A,130.3258,46.7975,佳木斯市,环保局,,28,21,31,13,19,87,,63,63,6,20,4,4,0.5,0.6
2024-03-20T1200,2258A,130.3648,46.8032,佳木斯市,十一中,,26,14,27,10,17,82,,76,76,7,19,5,6,0.3,0.5
2024-03-20T1200,2259A,130.3794,46.7588,佳木斯市,四丰,,30,19,22,13,14,96,,76,76,5,12,1,1,0.4,0.5
2024-03-20T1200,1252A,120.7436,30.778,嘉兴市,清河小学,颗粒物(PM10),95,139,148,17,28,101,,59,59,15,31,9,8,0.2,0.3
2024-03-20T1200,1253A,120.726,30.7478,嘉兴市,嘉兴学院,颗粒物(PM10),85,119,124,25,30,108,,48,48,13,31,9,7,0.4,0.5
2024-03-20T1200,2872A,120.7846,30.7525,嘉兴市,南湖区残联,颗粒物(PM10),93,136,125,27,31,108,,64,64,13,26,10,8,0.5,0.5
2024-03-20T1200,3407A,120.6916,30.7739,嘉兴市,秀洲住建,颗粒物(PM10),89,128,143,26,36,101,,46,46,14,36,9,8,0.3,0.5
2024-03-20T1200,1945A,98.2908,39.7711,嘉峪关市,气象局,颗粒物(PM10),76,102,102,29,25,95,,54,50,10,21,9,7,0.6,0.4
2024-03-20T1200,2884A,98.2672,39.7978,嘉峪关市,酒钢宾馆,颗粒物(PM10),75,100,103,29,25,92,,54,54,13,18,10,12,0.5,0.5
2024-03-20T1200,3248A,98.2643,39.7724,嘉峪关市,雄关区,,,81,79,17,20,87,,49,46,12,21,148,14,,0.4
2024-03-20T1200,1383A,113.1064,22.6058,江门市,北街,颗粒物(PM10),79,108,51,22,14,85,,60,60,34,34,11,9,0.5,0.6
2024-03-20T1200,1384A,113.0731,22.5835,江门市,西区,颗粒物(PM10),79,108,53,15,7,89,,63,63,29,34,9,8,0.4,0.5
2024-03-20T1200,1385A,113.0219,22.5311,江门市,圭峰西,颗粒物(PM10),73,96,47,21,12,80,,61,61,28,27,8,8,0.4,0.5
2024-03-20T1200,1386A,113.0828,22.5947,江门市,东湖,颗粒物(PM10),69,88,39,24,14,88,,63,63,29,29,10,9,0.5,0.5
2024-03-20T1200,3311A,113.1075,22.5647,江门市,江海富民,颗粒物(PM10),70,89,51,32,18,86,,59,59,37,36,9,8,0.5,0.5
2024-03-20T1200,3449A,113.05,22.4667,江门市,新会银湖,,,102,49,26,15,82,,54,54,29,33,8,12,,0.6
2024-03-20T1200,1828A,113.227,35.2125,焦作市,市环保局,,,75,88,18,26,,,54,54,9,20,,12,0.5,0.6
2024-03-20T1200,1830A,113.1992,35.2590,焦作市,影视城,,,,,,,,,,,,,,,,
2024-03-20T1200,3169A,113.2725,35.2067,焦作市,太极体育中心,,,87,99,14,24,80,,57,57,10,26,4,10,,0.6
2024-03-20T1200,3335A,113.3137,35.2641,焦作市,马村街道办,颗粒物(PM10),67,84,93,19,22,80,,59,59,15,24,8,11,0.2,0.4
2024-03-20T1200,3336A,113.2465,35.2373,焦作市,焦作技师学院,颗粒物(PM10),70,90,78,19,20,77,,58,58,16,22,8,4,0.4,0.4
2024-03-20T1200,3477A,113.1656,35.2539,焦作市,中站许衡医院,颗粒物(PM10),77,103,78,17,21,81,,60,60,8,15,8,6,0.3,0.3
2024-03-20T1200,3981A,113.2449,35.1803,焦作市,原李万街道办,颗粒物(PM10),73,95,91,12,24,80,,55,55,5,24,8,12,0.2,0.3
2024-03-20T1200,1708A,116.3701,23.5345,揭阳市,新兴,颗粒物(PM10),59,68,48,26,31,113,,68,68,16,22,17,13,0.7,0.8
2024-03-20T1200,1709A,116.3264,23.5443,揭阳市,西马,,,,46,,26,,,68,66,11,18,15,11,0.6,0.7
2024-03-20T1200,1710A,116.3611,23.5626,揭阳市,东兴,颗粒物(PM10),58,65,53,22,31,113,,62,62,12,20,18,15,0.6,0.7
2024-03-20T1200,1711A,116.4151,23.5294,揭阳市,渔湖,颗粒物(PM10),59,68,48,14,18,112,,60,60,15,21,16,11,0.5,0.6
2024-03-20T1200,3320A,116.403,23.5699,揭阳市,曲溪,颗粒物(PM10),60,70,54,37,28,118,,61,61,14,21,19,10,0.5,0.6
2024-03-20T1200,1944A,102.1692,38.5167,金昌市,天庆家园,颗粒物(PM10),83,115,81,45,22,109,,55,55,31,27,95,19,0.4,0.4
2024-03-20T1200,3170A,102.1864,38.5253,金昌市,市委党校,颗粒物(PM10),111,171,98,76,36,113,,58,58,21,22,84,18,0.4,0.5
2024-03-20T1200,4022A,102.1647,38.5371,金昌市,金川区人防中心,,,137,92,59,27,,,64,58,21,15,92,22,0.2,0.3
2024-03-20T1200,1262A,119.647,29.077,金华市,十五中,颗粒物(PM10),79,107,68,27,25,112,,38,38,20,40,6,6,0.4,0.6
2024-03-20T1200,1263A,119.686,29.1029,金华市,监测站,,,49,35,29,22,,,29,29,21,40,5,3,0.4,0.7
2024-03-20T1200,3659A,119.656,29.1131,金华市,气象局,颗粒物(PM10),75,100,65,28,21,101,,31,31,24,45,5,4,0.5,0.5
2024-03-20T1200,1767A,121.1115,41.0879,锦州市,南山,,30,19,18,7,8,95,,83,83,6,9,7,15,0.6,0.6
2024-03-20T1200,1768A,121.0533,40.8434,锦州市,开发区,,27,20,36,9,15,86,,47,47,11,40,11,30,0.5,0.7
2024-03-20T1200,1769A,121.1836,41.1119,锦州市,百股街道,,31,15,18,9,11,98,,79,79,6,11,6,9,0.1,0.1
2024-03-20T1200,1770A,121.1178,41.1222,锦州市,天安街道,,29,17,18,5,7,91,,81,81,7,9,7,12,0.2,0.2
2024-03-20T1200,1771A,121.1303,41.1386,锦州市,北湖公园,,28,18,16,6,8,87,,78,78,7,10,10,13,0.4,0.4
2024-03-20T1200,2160A,112.85,35.5051,晋城市,自来水公司,颗粒物(PM10),68,85,62,14,17,88,,39,39,12,29,6,7,0.6,0.8
2024-03-20T1200,2161A,112.8318,35.4936,晋城市,白云商贸,颗粒物(PM10),69,87,78,14,14,85,,42,42,16,29,6,6,0.4,0.6
2024-03-20T1200,2162A,112.8508,35.4887,晋城市,市环保局,颗粒物(PM10),64,78,66,12,16,85,,36,36,17,32,5,5,0.7,0.9
2024-03-20T1200,2163A,112.8676,35.4897,晋城市,技术学院,颗粒物(PM10),65,80,68,7,18,86,,35,35,15,35,4,5,0.5,0.7
2024-03-20T1200,2165A,112.8453,35.546,晋城市,白马寺,,,,,,,,,,,,,,,,
2024-03-20T1200,3620A,112.8271,35.4828,晋城市,泽州一中,颗粒物(PM10),66,82,59,12,9,86,,45,44,14,23,7,7,0.6,0.7
2024-03-20T1200,2171A,112.7532,37.6945,晋中市,锦纶小区,颗粒物(PM10),69,88,74,34,23,84,,42,42,22,30,18,10,0.8,0.6
2024-03-20T1200,2173A,112.7249,37.7067,晋中市,南都小区,颗粒物(PM10),61,71,71,33,28,80,,39,39,23,30,17,10,0.8,0.5
2024-03-20T1200,2174A,112.6991,37.6982,晋中市,榆次区政府,颗粒物(PM10),56,62,59,28,27,85,,40,40,21,28,14,7,0.7,0.4
2024-03-20T1200,2865A,112.7195,37.6828,晋中市,榆次三中,颗粒物(PM10),71,92,78,44,23,82,,36,36,22,31,18,10,1.2,0.6
2024-03-20T1200,2439A,112.2014,31.0481,荆门市,竹园小学,颗粒物(PM10),120,190,190,37,38,98,,62,49,17,22,10,9,0.5,0.5
2024-03-20T1200,2440A,112.1969,30.9891,荆门市,掇刀,颗粒物(PM10),118,186,190,38,40,98,,41,41,11,22,12,12,0.3,0.5
2024-03-20T1200,2441A,112.2213,31.0386,荆门市,石化一小,颗粒物(PM10),121,192,192,38,43,110,,48,42,12,27,13,15,0.4,0.5
2024-03-20T1200,3012A,112.1849,31.0362,荆门市,西山林语,颗粒物(PM10),109,167,160,29,33,105,,68,66,15,16,13,12,0.3,0.5
2024-03-20T1200,3547A,112.1632,31.0138,荆门市,龙泉中学南校,颗粒物(PM10),118,185,192,43,40,103,,56,56,11,18,8,10,0.4,0.4
2024-03-20T1200,1844A,112.2494,30.3197,荆州市,市图书馆,颗粒物(PM10),95,140,132,52,36,94,,49,49,19,36,8,8,0.6,0.6
2024-03-20T1200,1845A,112.2008,30.3544,荆州市,市委党校,,,135,121,34,35,,,42,42,16,28,7,7,,0.6
2024-03-20T1200,3194A,112.2747,30.3122,荆州市,管委会,颗粒物(PM10),80,110,114,47,38,96,,53,53,20,27,12,11,0.7,0.7
2024-03-20T1200,3548A,112.1655,30.3364,荆州市,学苑路,颗粒物(PM10),93,136,117,44,35,92,,45,45,15,32,6,7,0.7,0.6
2024-03-20T1200,2342A,117.3102,29.3867,景德镇市,王港中学,颗粒物(PM10),60,69,47,22,22,119,,44,44,93,9,5,5,0.2,0.4
2024-03-20T1200,2343A,117.2117,29.2933,景德镇市,老干部活动中心,颗粒物(PM10),64,78,64,21,29,101,,32,32,10,22,3,6,0.3,0.5
2024-03-20T1200,2344A,117.1894,29.2789,景德镇市,兽医站,,40,37,63,28,22,103,,32,32,14,23,13,10,0.4,0.6
2024-03-20T1200,2345A,117.1547,29.2617,景德镇市,台达陶瓷,颗粒物(PM10),73,96,80,15,31,103,,44,44,17,32,11,24,0.5,0.7
2024-03-20T1200,2346A,117.2461,29.2956,景德镇市,陶研所,颗粒物(PM10),60,70,53,22,22,100,,28,28,12,20,3,6,0.4,0.6
2024-03-20T1200,1803A,115.9872,29.6815,九江市,十里,颗粒物(PM10),93,136,118,27,27,91,,34,34,30,44,15,12,0.9,0.8
2024-03-20T1200,1804A,115.9584,29.7046,九江市,茅山头,颗粒物(PM10),89,127,107,28,26,96,,41,41,30,43,15,12,0.8,0.7
2024-03-20T1200,1805A,115.9877,29.7295,九江市,西园,颗粒物(PM10),85,120,106,30,30,87,,40,40,35,39,15,11,0.9,0.5
2024-03-20T1200,1806A,116.0172,29.6547,九江市,五七二七厂,颗粒物(PM10),94,137,143,32,29,84,,68,61,29,20,15,12,0.7,0.7
2024-03-20T1200,1808A,115.9114,29.6038,九江市,综合工业园,,,132,123,37,34,102,,43,43,31,51,17,14,,0.4
2024-03-20T1200,1809A,116.0721,29.7535,九江市,石化总厂,颗粒物(PM10),97,143,136,22,31,89,,25,25,27,50,15,14,0.9,0.9
2024-03-20T1200,1810A,115.9773,29.5698,九江市,庐山气象台,颗粒物(PM10),74,97,121,34,28,94,,98,94,10,5,6,13,1.0,0.8
2024-03-20T1200,3190A,116.0254,29.6994,九江市,外国语学校,颗粒物(PM10),79,107,106,33,32,91,,35,35,33,54,10,13,0.6,0.6
2024-03-20T1200,2658A,98.5061,39.7443,酒泉市,仓门街子站,颗粒物(PM10),98,146,125,41,32,87,,54,50,17,19,14,12,0.5,0.5
2024-03-20T1200,2659A,98.4989,39.7256,酒泉市,油田生活基地,颗粒物(PM10),107,163,134,42,33,93,,49,49,15,19,16,12,0.5,0.4
2024-03-20T1200,2698A,76.0072,39.4467,喀什地区,巡警大队,颗粒物(PM10),401,501,478,104,103,39,,26,22,60,48,5,4,0.9,0.8
2024-03-20T1200,2699A,75.9755,39.4694,喀什地区,吾办,颗粒物(PM10),407,507,460,139,130,36,,42,42,56,39,8,6,1.2,0.9
2024-03-20T1200,4027A,75.9483,39.4689,喀什地区,老干局,颗粒物(PM10),398,498,504,96,105,61,,48,48,34,38,4,3,0.9,0.9
2024-03-20T1200,1824A,114.3389,34.7781,开封市,肿瘤医院,颗粒物(PM10),87,124,116,24,26,72,,43,43,17,27,10,6,0.5,0.4
2024-03-20T1200,1826A,114.2885,34.7965,开封市,世纪星幼儿园,颗粒物(PM10),81,112,98,26,24,79,,47,47,20,32,7,4,0.5,0.4
2024-03-20T1200,3147A,114.3438,34.8106,开封市,龙亭公园,颗粒物(PM10),93,136,104,28,27,71,,40,40,15,27,9,5,0.8,0.6
2024-03-20T1200,3210A,114.3644,34.7964,开封市,汴京公园,颗粒物(PM10),83,115,111,32,26,73,,45,45,13,23,8,4,0.4,0.3
2024-03-20T1200,3473A,114.2485,34.8306,开封市,技师学院,颗粒物(PM10),93,135,92,24,23,73,,44,44,14,28,13,7,0.4,0.3
2024-03-20T1200,3592A,114.4644,34.7556,开封市,祥符区生态环境局,细颗粒物(PM2.5),58,50,73,41,30,69,,37,37,20,31,8,6,0.4,0.3
2024-03-20T1200,1951A,84.895,45.6094,克拉玛依市,长征新村,,46,46,31,5,12,25,,59,38,38,19,10,10,0.4,0.3
2024-03-20T1200,1952A,84.8988,45.5893,克拉玛依市,南林小区,,44,44,32,18,17,27,,46,29,40,28,7,7,0.5,0.5
2024-03-20T1200,1954A,84.905,44.3396,克拉玛依市,独山子区,细颗粒物(PM2.5),63,66,45,45,34,98,,67,66,12,14,10,8,0.5,0.5
2024-03-20T1200,1955A,85.6979,46.098,克拉玛依市,乌尔禾区商贸楼,,41,41,30,19,16,44,,60,45,35,18,10,9,0.5,0.4
2024-03-20T1200,3612A,85.1045,45.6899,克拉玛依市,白碱滩区新站,,48,48,32,26,21,23,,58,29,35,18,9,9,0.4,0.3
2024-03-20T1200,2697A,76.1454,39.7142,克孜勒苏柯尔克孜自治州,市人民政府,颗粒物(PM10),314,431,432,110,112,54,,73,67,25,16,6,6,0.5,0.7
2024-03-20T1200,3665A,76.1658,39.7157,克孜勒苏柯尔克孜自治州,克州文化中心,颗粒物(PM10),333,446,444,130,126,73,,83,72,24,17,7,6,0.7,0.6
2024-03-20T1200,1450A,102.8204,24.8886,昆明市,呈贡新区,细颗粒物(PM2.5),80,66,49,59,40,75,,52,48,22,19,8,9,1.1,0.9
2024-03-20T1200,1451A,102.6251,24.9608,昆明市,西山森林公园,颗粒物(PM10),56,61,55,35,34,76,,75,64,13,14,9,10,1.4,1.4
2024-03-20T1200,1452A,102.7252,25.0902,昆明市,龙泉镇,细颗粒物(PM2.5),73,57,52,53,37,51,,58,44,39,21,9,6,1.1,0.8
2024-03-20T1200,1453A,102.7266,25.0375,昆明市,东风东路,细颗粒物(PM2.5),77,90,66,56,40,64,,52,40,26,27,10,9,0.9,0.6
2024-03-20T1200,1454A,102.6742,25.0669,昆明市,金鼎山,颗粒物(PM10),61,72,59,30,33,69,,60,48,22,25,3,4,1.0,0.8
2024-03-20T1200,1455A,102.6644,25.0401,昆明市,碧鸡广场,细颗粒物(PM2.5),74,78,62,54,40,71,,51,50,16,26,8,10,0.8,0.8
2024-03-20T1200,3179A,102.7494,25.0119,昆明市,官渡区博物馆,,,88,64,54,38,69,,48,42,23,30,11,11,,0.8
2024-03-20T1200,3375A,102.8017,24.8336,昆明市,青年创业园,细颗粒物(PM2.5),72,71,58,52,37,95,,55,55,11,18,11,9,0.8,0.7
2024-03-20T1200,3550A,102.7997,24.9786,昆明市,昆明学院,细颗粒物(PM2.5),73,84,63,53,37,68,,51,45,22,22,10,12,1.0,0.8
2024-03-20T1200,3551A,102.5967,24.6736,昆明市,晋宁区生态环境分局,细颗粒物(PM2.5),64,58,62,46,41,94,,68,65,12,14,4,5,1.0,0.9
2024-03-20T1200,3552A,102.6678,24.9856,昆明市,云天化总部,,,,61,,36,73,,59,56,16,21,,6,0.9,0.8
2024-03-20T1200,1456A,91.1319,29.6514,拉萨市,八廓街,,40,37,34,28,23,100,,100,88,16,15,6,6,0.5,0.5
2024-03-20T1200,1457A,91.1221,29.6747,拉萨市,市环保局,,39,36,32,27,24,99,,100,88,15,12,6,6,0.5,0.6
2024-03-20T1200,1458A,91.0874,29.6475,拉萨市,区监测站,,38,34,28,26,20,94,,100,87,15,12,4,5,0.5,0.5
2024-03-20T1200,1459A,91.1774,29.6541,拉萨市,西藏大学,,36,33,30,25,21,100,,98,90,10,8,3,4,0.4,0.3
2024-03-20T1200,1460A,90.9798,29.6588,拉萨市,区辐射站,细颗粒物(PM2.5),52,47,38,36,24,89,,105,85,26,16,6,5,0.6,0.5
2024-03-20T1200,1461A,91.0834,29.6292,拉萨市,拉萨火车站,,,137,41,,26,87,,102,93,26,8,3,2,0.6,0.4
2024-03-20T1200,2520A,109.2203,23.7256,来宾市,来宾技工学校,颗粒物(PM10),101,152,96,37,21,88,,74,74,22,18,18,10,0.9,0.7
2024-03-20T1200,3535A,109.1781,23.7297,来宾市,兴宾区政府,颗粒物(PM10),94,137,87,39,31,89,,79,79,19,15,11,6,0.7,0.6
2024-03-20T1200,4002A,109.2416,23.7461,来宾市,中南小学,颗粒物(PM10),103,155,100,54,29,90,,69,69,27,24,21,14,0.8,0.6
2024-03-20T1200,1476A,103.631,36.1031,兰州市,兰炼宾馆,颗粒物(PM10),62,74,95,39,42,72,,30,30,42,43,55,28,0.9,0.7
2024-03-20T1200,1477A,104.1373,35.9454,兰州市,榆中兰大校区,,,,,,,,,,,,,,,,
2024-03-20T1200,1478A,103.8412,36.0726,兰州市,生物制品所,颗粒物(PM10),65,79,105,42,40,55,,17,17,48,50,46,16,1.0,0.6
2024-03-20T1200,1479A,103.831,36.0464,兰州市,铁路设计院,颗粒物(PM10),70,90,114,47,47,49,,15,15,56,61,38,16,1.0,1.1
2024-03-20T1200,3186A,103.7158,36.1058,兰州市,教育港,颗粒物(PM10),70,90,93,34,37,65,,26,26,38,41,53,18,0.9,0.7
2024-03-20T1200,3241A,103.7439,36.0842,兰州市,百合公园,颗粒物(PM10),60,70,88,28,30,67,,24,24,42,45,41,13,1.5,0.8
2024-03-20T1200,3242A,103.9611,35.998,兰州市,和平,颗粒物(PM10),83,115,104,46,38,74,,66,55,25,27,36,14,0.7,0.5
2024-03-20T1200,3245A,103.6633,36.533,兰州新区,新区管委会,颗粒物(PM10),55,60,71,21,28,82,,41,41,12,14,26,15,0.6,0.5
2024-03-20T1200,3246A,103.6975,36.4789,兰州新区,舟曲中学,颗粒物(PM10),59,67,79,20,26,84,,42,42,11,16,18,15,0.6,0.6
2024-03-20T1200,1067A,116.6708,39.5111,廊坊市,药材公司,颗粒物(PM10),51,51,77,15,10,76,,54,54,9,14,3,3,0.4,0.4
2024-03-20T1200,1068A,116.7214,39.5589,廊坊市,开发区,颗粒物(PM10),54,58,75,8,10,77,,57,57,12,14,1,2,0.3,0.3
2024-03-20T1200,1070A,116.7244,39.5269,廊坊市,北华航天学院,,48,48,72,3,4,80,,60,60,12,19,1,3,0.3,0.3
2024-03-20T1200,2919A,116.7022,39.5453,廊坊市,河北工业大学,,48,48,71,15,11,77,,63,63,8,10,2,2,0.3,0.3
2024-03-20T1200,2535A,103.7723,29.5462,乐山市,花湖湾,"颗粒物(PM10),细颗粒物(PM2.5)",54,58,87,38,50,74,,23,20,2,2,11,6,0.6,0.5
2024-03-20T1200,2536A,103.7627,29.5844,乐山市,牛耳桥,细颗粒物(PM2.5),64,72,80,46,55,83,,28,28,20,34,9,6,0.6,0.6
2024-03-20T1200,2537A,103.7508,29.6006,乐山市,市第三水厂,颗粒物(PM10),61,72,73,42,48,88,,28,28,20,37,7,5,0.6,0.6
2024-03-20T1200,2538A,103.7571,29.5664,乐山市,市监测站,细颗粒物(PM2.5),70,81,73,51,40,88,,29,29,18,30,12,7,0.7,0.6
2024-03-20T1200,3361A,103.7311,29.5628,乐山市,理工大学,颗粒物(PM10),63,75,75,43,44,97,,29,29,13,28,11,6,0.6,0.6
2024-03-20T1200,2598A,100.2143,26.8576,丽江市,西南郊,,,,,,,,,,,,,,,,
2024-03-20T1200,2599A,100.2497,26.8802,丽江市,丽江古城,颗粒物(PM10),55,59,41,35,24,98,,90,88,14,10,10,9,0.8,0.8
2024-03-20T1200,2600A,100.2203,26.8906,丽江市,市中心,颗粒物(PM10),52,53,28,16,15,99,,88,83,12,12,9,9,0.8,0.8
2024-03-20T1200,1267A,119.914,28.4514,丽水市,监测站大楼,颗粒物(PM10),74,98,61,27,16,102,,34,34,18,26,6,5,0.3,0.3
2024-03-20T1200,1268A,119.93,28.4586,丽水市,莲都小学,颗粒物(PM10),73,96,55,31,15,98,,34,34,16,19,5,3,0.3,0.3
2024-03-20T1200,1269A,119.879,28.4231,丽水市,余庄前,颗粒物(PM10),70,90,47,30,18,102,,32,32,18,14,6,4,0.3,0.3
2024-03-20T1200,1173A,119.176,34.5885,连云港市,市环境监测站,,39,39,105,7,20,84,,68,68,8,34,6,10,0.5,0.5
2024-03-20T1200,3000A,119.3581,34.6972,连云港市,德源药业,,41,41,97,7,17,81,,69,69,9,29,4,6,0.4,0.4
2024-03-20T1200,3007A,119.178,34.844,连云港市,新城一中,颗粒物(PM10),55,59,94,13,23,95,,67,67,20,37,9,11,0.7,0.9
2024-03-20T1200,3008A,119.3608,34.7519,连云港市,胡沟管理处,,36,36,86,9,13,81,,75,75,12,24,8,9,0.5,0.5
2024-03-20T1200,3009A,119.1478,34.5911,连云港市,矿山设计院,,39,39,106,2,19,88,,68,68,12,34,4,7,0.5,0.5
2024-03-20T1200,3434A,119.2413,34.6539,连云港市,工贸学校,,38,38,92,8,19,97,,79,79,10,21,8,11,0.5,0.6
2024-03-20T1200,3664A,119.4172,34.7341,连云港市,连云街道,,42,42,88,12,17,91,,71,71,18,29,3,4,0.4,0.4
2024-03-20T1200,2571A,102.3431,27.8099,凉山彝族自治州,青龙寺,颗粒物(PM10),60,69,58,13,11,98,,76,76,6,7,5,5,0.8,0.8
2024-03-20T1200,2572A,102.2721,27.8415,凉山彝族自治州,邛海宾馆,细颗粒物(PM2.5),64,73,62,46,26,90,,77,76,8,10,10,10,0.5,0.5
2024-03-20T1200,2573A,102.2625,27.898,凉山彝族自治州,西昌市政府,颗粒物(PM10),64,77,63,32,28,92,,79,77,8,8,10,9,0.7,0.7
2024-03-20T1200,2574A,102.2685,27.8851,凉山彝族自治州,凉山州政府,颗粒物(PM10),60,70,60,29,25,91,,76,76,8,8,8,7,0.4,0.6
2024-03-20T1200,2575A,102.237,27.8914,凉山彝族自治州,长安,,,79,65,32,28,96,,78,78,10,11,,16,,0.7
2024-03-20T1200,2212A,123.2,41.1953,辽阳市,宏伟区,,50,50,29,15,19,81,,67,67,10,13,13,10,0.6,0.6
2024-03-20T1200,2213A,123.1683,41.2495,辽阳市,新华园,,41,41,31,18,24,84,,68,68,8,17,7,7,0.4,0.5
2024-03-20T1200,2214A,123.2354,41.2639,辽阳市,滨河路,,33,33,29,19,22,80,,68,68,8,12,7,7,0.6,0.6
2024-03-20T1200,2215A,123.149,41.2991,辽阳市,铁西工业园,,28,28,30,14,17,88,,65,65,10,17,11,10,0.5,0.6
2024-03-20T1200,2227A,125.1358,42.8845,辽源市,环保局,,28,24,32,16,24,89,,67,67,10,15,10,10,0.5,0.5
2024-03-20T1200,3239A,125.0764,42.9078,辽源市,银鹰制药,,,26,35,16,27,79,,51,51,,19,7,9,0.4,0.6
2024-03-20T1200,1625A,115.9848,36.4372,聊城市,区政府,颗粒物(PM10),51,52,111,5,10,85,,68,68,4,11,2,4,0.3,0.4
2024-03-20T1200,2878A,116.0072,36.4343,聊城市,聊大东校,,40,40,103,12,15,92,,71,71,8,17,4,5,0.4,0.4
2024-03-20T1200,3200A,115.9819,36.4978,聊城市,监控中心,,45,45,120,2,13,85,,52,52,3,21,4,6,0.4,0.7
2024-03-20T1200,3513A,116.0445,36.4361,聊城市,九州社区,,47,47,119,0,12,88,,63,63,4,12,5,6,0.6,0.6
2024-03-20T1200,4018A,116.0567,36.4608,聊城市,星美广场,,48,48,121,0,12,87,,64,64,8,19,1,5,0.5,0.5
2024-03-20T1200,2632A,94.3681,29.6376,林芝市,林芝监测站,,34,24,23,18,18,108,,94,83,6,5,5,5,0.6,0.6
2024-03-20T1200,2633A,94.3616,29.6616,林芝市,林芝人民医院,,32,25,24,18,19,100,,91,85,10,6,6,6,0.7,0.6
2024-03-20T1200,2603A,100.0781,23.8982,临沧市,市环保局,,,77,65,51,54,100,,75,,,16,6,10,0.7,0.6
2024-03-20T1200,2604A,100.0894,23.8822,临沧市,市气象局,细颗粒物(PM2.5),102,110,80,76,55,110,,72,66,12,18,6,10,0.8,0.6
2024-03-20T1200,1733A,111.5531,36.0783,临汾市,临钢医院,颗粒物(PM10),57,64,76,24,20,73,,38,38,22,24,8,5,0.7,0.5
2024-03-20T1200,1734A,111.5028,36.0714,临汾市,技工学校,,,66,77,20,24,66,,34,34,,33,14,8,1.0,0.5
2024-03-20T1200,1736A,111.5018,36.0855,临汾市,市委,颗粒物(PM10),60,69,76,21,21,65,,31,31,26,31,13,6,1.0,0.5
2024-03-20T1200,3018A,111.505,36.1014,临汾市,唐尧大酒店,颗粒物(PM10),56,61,77,19,21,72,,28,28,23,31,14,7,1.0,0.5
2024-03-20T1200,3668A,111.5036,36.0414,临汾市,城南,颗粒物(PM10),58,65,84,19,29,65,,26,26,26,32,13,8,0.8,0.5
2024-03-20T1200,2667A,103.2069,35.5993,临夏回族自治州,环保局,,,,122,32,47,65,,20,20,17,22,8,6,,0.9
2024-03-20T1200,2668A,103.2417,35.6057,临夏回族自治州,建设大厦,颗粒物(PM10),73,96,108,33,42,77,,37,37,16,22,6,3,0.5,0.6
2024-03-20T1200,1618A,118.3429,35.0532,临沂市,沂河小区,,41,41,91,10,24,85,,73,73,11,24,5,6,0.5,0.6
2024-03-20T1200,1619A,118.295,35.0583,临沂市,鲁南制药厂,,36,36,97,12,18,93,,80,80,8,25,4,6,0.3,0.4
2024-03-20T1200,1620A,118.2794,34.9976,临沂市,新光毛纺厂,,41,41,85,11,17,85,,75,75,10,21,4,5,0.6,0.7
2024-03-20T1200,1621A,118.3956,35.0888,临沂市,河东保险公司,,34,34,76,5,12,88,,70,70,13,25,5,4,0.5,0.6
2024-03-20T1200,3370A,118.3564,35.0215,临沂市,十里堡居委,,34,34,90,7,12,90,,75,75,11,23,3,4,0.4,0.5
2024-03-20T1200,3496A,118.3604,35.1084,临沂市,南坊新区,,36,36,86,5,12,87,,72,72,12,24,6,7,0.4,0.5
2024-03-20T1200,3860A,118.3920,35.0300,临沂市,皇山花园小区,,44,44,94,13,15,91,,72,72,6,19,7,7,0.5,0.6
2024-03-20T1200,1870A,109.4856,24.3895,柳州市,柳东小学,颗粒物(PM10),92,134,97,56,34,85,,86,85,16,10,12,10,0.5,0.4
2024-03-20T1200,1871A,109.4157,24.3277,柳州市,环保监测站,颗粒物(PM10),85,119,84,41,30,69,,68,49,20,14,16,10,0.7,0.6
2024-03-20T1200,1872A,109.389,24.341,柳州市,河西水厂,颗粒物(PM10),106,162,101,55,33,54,,42,28,32,21,26,11,0.9,0.7
2024-03-20T1200,1873A,109.4311,24.2921,柳州市,市四中,颗粒物(PM10),78,106,83,24,22,72,,78,66,20,17,13,9,0.6,0.5
2024-03-20T1200,1874A,109.4006,24.3631,柳州市,市九中,颗粒物(PM10),104,157,113,50,31,78,,54,44,20,23,19,11,0.5,0.6
2024-03-20T1200,1875A,109.4958,24.3134,柳州市,古亭山,颗粒物(PM10),83,116,89,40,18,79,,94,86,17,11,10,8,0.6,0.4
2024-03-20T1200,3402A,109.5422,24.3996,柳州市,市二中,颗粒物(PM10),87,123,89,46,30,78,,68,57,20,17,12,9,0.6,0.5
2024-03-20T1200,2307A,116.5079,31.737,六安市,监测大楼,颗粒物(PM10),98,146,152,20,29,104,,64,64,15,30,5,6,0.4,0.5
2024-03-20T1200,2308A,116.4738,31.7643,六安市,皖西学院,颗粒物(PM10),98,146,151,19,29,106,,60,60,12,30,4,4,0.4,0.5
2024-03-20T1200,2309A,116.4996,31.7905,六安市,朝阳厂,颗粒物(PM10),91,132,138,23,30,99,,69,69,12,24,6,5,0.5,0.5
2024-03-20T1200,2310A,116.5567,31.7886,六安市,开发区,颗粒物(PM10),109,167,182,38,35,97,,44,44,12,31,5,4,0.4,0.5
2024-03-20T1200,2576A,104.8,26.5892,六盘水市,窑上,,,,,,,,,,,,,,,,
2024-03-20T1200,2577A,104.83,26.5917,六盘水市,黄土坡,,20,18,32,14,20,53,,63,55,22,17,7,7,1.0,0.9
2024-03-20T1200,2578A,104.89,26.5939,六盘水市,水钢,,,,36,,25,,,68,64,12,15,,8,0.8,0.8
2024-03-20T1200,2579A,104.8475,26.5894,六盘水市,民中,,22,22,32,14,20,53,,63,55,20,16,7,7,0.9,0.9
2024-03-20T1200,2580A,104.9544,26.5506,六盘水市,双水,,29,29,33,12,20,78,,72,69,13,11,6,6,0.7,0.7
2024-03-20T1200,2335A,117.0189,25.1181,龙岩市,龙岩师专,,,,,,,,,,,,,,,,
2024-03-20T1200,2336A,117.0217,25.1033,龙岩市,龙岩市监测站,颗粒物(PM10),58,65,43,19,17,98,,71,71,7,12,5,10,0.3,0.4
2024-03-20T1200,2337A,117.0258,25.0661,龙岩市,闽西职业技术学院,颗粒物(PM10),55,60,45,17,15,100,,62,62,6,16,5,10,0.4,0.5
2024-03-20T1200,2338A,117.0196,25.0306,龙岩市,龙岩学院,颗粒物(PM10),60,70,41,16,15,99,,57,57,8,10,6,6,0.5,0.5
2024-03-20T1200,2665A,105.0822,33.3261,陇南市,汉王镇固水子,,,,,,,,,,,,,,,,
2024-03-20T1200,2885A,104.9339,33.3826,陇南市,滨江中学,颗粒物(PM10),61,71,96,25,31,81,,42,42,9,16,8,10,0.7,0.9
2024-03-20T1200,3247A,104.955,33.371,陇南市,市总工会,颗粒物(PM10),59,67,78,29,24,80,,48,48,11,13,10,8,0.6,0.6
2024-03-20T1200,2487A,111.9589,27.8901,娄底市,电视发射台,颗粒物(PM10),81,111,75,32,20,97,,56,56,9,5,7,5,0.6,0.4
2024-03-20T1200,2488A,111.9975,27.725,娄底市,市监测站,细颗粒物(PM2.5),149,202,108,114,51,55,,14,14,51,38,41,16,3.0,1.4
2024-03-20T1200,2489A,112.0194,27.7314,娄底市,市委党校,,,134,91,64,38,48,,12,12,,31,34,9,1.9,1
2024-03-20T1200,2490A,111.9561,27.7569,娄底市,涟钢,颗粒物(PM10),106,162,90,74,34,46,,26,26,69,31,47,15,3.8,0.9
2024-03-20T1200,2491A,111.9892,27.7044,娄底市,市政府,细颗粒物(PM2.5),173,209,82,131,37,48,,17,17,69,25,28,6,3.5,0.9
2024-03-20T1200,1893A,105.4324,28.9634,泸州市,九狮山,细颗粒物(PM2.5),59,60,52,42,32,62,,16,16,29,24,10,7,0.6,0.6
2024-03-20T1200,1894A,105.4427,28.9063,泸州市,小市上码头,细颗粒物(PM2.5),84,76,60,62,45,52,,25,25,31,26,13,11,0.7,0.6
2024-03-20T1200,1895A,105.4241,28.8573,泸州市,兰田宪桥,,,95,61,68,46,46,,24,22,,23,12,10,0.7,0.6
2024-03-20T1200,1896A,105.4379,28.8833,泸州市,市环监站,细颗粒物(PM2.5),73,70,57,53,42,59,,28,28,25,22,13,11,0.6,0.6
2024-03-20T1200,3490A,105.3617,28.7703,泸州市,纳溪区环保局,细颗粒物(PM2.5),70,70,58,51,42,59,,21,21,25,30,14,7,0.9,0.8
2024-03-20T1200,2183A,111.1406,37.5211,吕梁市,环保局,颗粒物(PM10),69,87,72,39,23,62,,22,22,33,36,8,4,0.9,0.4
2024-03-20T1200,2185A,111.1297,37.5136,吕梁市,自来水公司,颗粒物(PM10),58,65,88,25,26,66,,25,25,28,30,5,4,0.6,0.3
2024-03-20T1200,2867A,111.1283,37.51,吕梁市,马茂庄小学,颗粒物(PM10),64,77,86,25,23,64,,23,23,35,36,6,4,1.2,0.6
2024-03-20T1200,1812A,112.3931,34.6516,洛阳市,市委党校,颗粒物(PM10),81,112,118,19,33,74,,30,30,18,34,5,6,0.3,0.4
2024-03-20T1200,1814A,112.4657,34.6871,洛阳市,豫西宾馆,,,,138,,38,77,,30,30,15,38,8,12,0.3,0.4
2024-03-20T1200,1815A,112.494,34.6886,洛阳市,河南林校,颗粒物(PM10),81,112,117,22,36,76,,32,32,16,35,7,7,0.3,0.3
2024-03-20T1200,1816A,112.3844,34.623,洛阳市,开发区管委会,颗粒物(PM10),87,124,112,30,37,78,,37,37,11,19,5,4,0.3,0.3
2024-03-20T1200,1817A,112.4267,34.6258,洛阳市,市委新办公区,,,99,104,25,32,70,,34,34,22,32,7,5,,0.4
2024-03-20T1200,3340A,112.6005,34.6326,洛阳市,伊滨,颗粒物(PM10),81,111,114,18,30,74,,31,31,22,32,8,4,0.4,0.3
2024-03-20T1200,3341A,112.4951,34.6332,洛阳市,中移产业园,,,125,102,17,26,72,,29,29,,26,7,5,,0.2
2024-03-20T1200,3593A,112.5736,34.8993,洛阳市,吉利监测站,颗粒物(PM10),86,121,92,24,22,78,,43,43,21,36,10,6,0.3,0.3
2024-03-20T1200,3635A,112.3677,34.662,洛阳市,河科大西苑校区,颗粒物(PM10),88,125,132,27,47,77,,31,31,14,34,4,8,0.3,0.4
2024-03-20T1200,3636A,112.4388,34.6781,洛阳市,英才小学,,,113,127,20,38,72,,26,26,,43,6,10,0.4,0.5
2024-03-20T1200,2399A,114.051,33.5699,漯河市,三五一五工厂,颗粒物(PM10),114,178,184,59,36,77,,50,50,21,22,11,10,0.5,0.4
2024-03-20T1200,2400A,114.0055,33.5698,漯河市,漯河大学,颗粒物(PM10),108,165,171,56,38,79,,52,52,20,19,11,8,0.5,0.4
2024-03-20T1200,2401A,114.0138,33.5828,漯河市,市水利局,颗粒物(PM10),112,173,176,58,38,79,,54,54,23,22,11,8,0.5,0.4
2024-03-20T1200,2402A,114.0261,33.5698,漯河市,市广电局,颗粒物(PM10),113,176,173,57,35,80,,54,54,18,18,8,5,0.5,0.4
2024-03-20T1200,3478A,113.9749,33.5664,漯河市,市图书馆,颗粒物(PM10),109,168,159,66,39,83,,59,58,22,18,15,12,0.6,0.4
2024-03-20T1200,3479A,114.0967,33.5906,漯河市,召陵区卫健委,,,,161,,35,,,49,44,20,22,7,6,,0.4
2024-03-20T1200,1798A,118.5092,31.6837,马鞍山市,湖东路四小,颗粒物(PM10),107,164,161,26,26,84,,32,32,37,50,28,14,1.6,0.9
2024-03-20T1200,1799A,118.5024,31.6449,马鞍山市,开发区,颗粒物(PM10),96,142,131,36,33,86,,28,28,37,47,23,9,1.2,0.8
2024-03-20T1200,1800A,118.5228,31.7231,马鞍山市,慈湖,颗粒物(PM10),93,136,166,31,46,97,,30,30,28,54,16,15,1.1,1
2024-03-20T1200,1802A,118.6245,31.7241,马鞍山市,濮塘,颗粒物(PM10),107,163,151,33,36,87,,58,58,24,20,13,7,0.8,0.5
2024-03-20T1200,3633A,118.4918,31.6809,马鞍山市,雨山,颗粒物(PM10),106,162,150,32,28,84,,32,32,39,48,28,20,1.3,0.8
2024-03-20T1200,1686A,111.0286,21.4688,茂名市,电白南海,颗粒物(PM10),58,66,40,22,17,93,,60,60,12,19,10,11,0.7,0.9
2024-03-20T1200,1687A,110.9294,21.6533,茂名市,茂石化七小,颗粒物(PM10),60,70,36,27,19,104,,75,75,13,17,8,12,0.6,0.8
2024-03-20T1200,1688A,110.9107,21.6687,茂名市,健康路,颗粒物(PM10),54,58,28,24,18,102,,68,68,10,15,11,22,0.5,0.8
2024-03-20T1200,1689A,110.8592,21.6828,茂名市,高岭,,,,37,,18,100,,63,63,12,19,14,17,,0.9
2024-03-20T1200,3450A,111.01,21.5165,茂名市,电白水东,颗粒物(PM10),57,63,28,22,16,102,,71,71,10,16,7,11,0.4,0.6
2024-03-20T1200,2539A,104.0308,30.0478,眉山市,黑龙滩水库,"颗粒物(PM10),细颗粒物(PM2.5)",53,55,53,37,30,106,,58,58,5,7,6,4,0.7,0.4
2024-03-20T1200,2540A,103.8416,30.0874,眉山市,气象局,颗粒物(PM10),55,60,72,29,36,101,,34,34,15,33,10,8,0.5,0.5
2024-03-20T1200,3137A,103.8578,30.0744,眉山市,市委党校,,,,70,,38,,,32,32,17,32,7,7,0.4,0.5
2024-03-20T1200,3148A,103.8291,30.0564,眉山市,区人社局,颗粒物(PM10),54,57,69,36,41,101,,43,43,18,34,10,8,0.6,0.6
2024-03-20T1200,1690A,116.1231,24.3284,梅州市,梅江月梅,,,68,41,16,11,95,,63,63,7,17,11,10,,0.4
2024-03-20T1200,1691A,116.0797,24.2719,梅州市,梅县新城,颗粒物(PM10),59,68,43,20,12,103,,39,39,10,19,8,6,0.4,0.5
2024-03-20T1200,1692A,116.1248,24.2654,梅州市,环境监控中心,颗粒物(PM10),58,66,40,14,12,103,,49,49,10,23,10,8,0.4,0.4
2024-03-20T1200,3315A,116.1233,24.2991,梅州市,梅龙,颗粒物(PM10),54,58,42,16,15,103,,56,56,5,11,10,21,0.4,0.5
2024-03-20T1200,1878A,104.7778,31.4741,绵阳市,富乐山,颗粒物(PM10),72,93,72,51,34,41,,48,29,53,22,10,8,0.9,0.7
2024-03-20T1200,1879A,104.7563,31.4535,绵阳市,市人大,颗粒物(PM10),81,111,89,50,37,53,,40,24,47,30,11,5,0.7,0.6
2024-03-20T1200,1880A,104.6697,31.4668,绵阳市,高新区自来水公司,颗粒物(PM10),87,124,101,61,45,74,,22,18,32,34,10,9,0.6,0.6
2024-03-20T1200,1881A,104.7287,31.5075,绵阳市,三水厂,颗粒物(PM10),85,120,87,58,42,60,,22,11,46,36,7,6,0.7,0.6
2024-03-20T1200,3491A,104.69,31.5322,绵阳市,西科大附属小学,细颗粒物(PM2.5),87,122,96,64,42,70,,17,17,40,39,11,9,0.9,0.8
2024-03-20T1200,3492A,104.5648,31.5343,绵阳市,安州区旅游局,颗粒物(PM10),85,120,100,50,39,81,,23,23,20,24,17,10,0.4,0.4
2024-03-20T1200,1784A,129.61,44.561,牡丹江市,环保大楼,,38,38,31,22,23,88,,72,72,12,15,10,9,0.4,0.4
2024-03-20T1200,1785A,129.6115,44.5782,牡丹江市,文化广场,,49,45,36,34,31,80,,63,63,14,19,11,11,0.6,0.6
2024-03-20T1200,1786A,129.5904,44.5963,牡丹江市,第一医院,,48,48,40,30,32,84,,64,64,9,16,8,9,0.5,0.6
2024-03-20T1200,1787A,129.6364,44.6075,牡丹江市,机车工厂,,46,46,47,18,26,86,,65,65,9,14,12,13,0.3,0.4
2024-03-20T1200,1788A,129.6386,44.5462,牡丹江市,第一中学,,36,36,30,24,25,87,,74,74,9,11,9,9,0.5,0.5
2024-03-20T1200,2531A,105.0703,29.61,内江市,市监测站,,,55,59,,47,49,,23,23,31,39,10,9,0.5,0.5
2024-03-20T1200,2532A,105.0717,29.5947,内江市,东兴区政府,颗粒物(PM10),67,84,68,32,40,59,,31,30,26,32,11,9,0.6,0.5
2024-03-20T1200,2533A,105.0653,29.5817,内江市,内江二中,,46,46,58,29,41,71,,36,35,21,33,8,6,0.7,0.7
2024-03-20T1200,2534A,105.0406,29.5822,内江市,内江日报社,,45,39,54,31,39,59,,27,27,28,40,9,8,0.8,0.7
2024-03-20T1200,2628A,92.0657,31.4846,那曲市,那曲监测站,,40,40,35,22,22,85,,62,60,9,9,8,7,0.9,1
2024-03-20T1200,3128A,92.0506,31.4797,那曲市,那曲会议中心,颗粒物(PM10),62,73,44,32,21,87,,70,66,12,11,8,7,0.6,0.6
2024-03-20T1200,1290A,115.8931,28.6843,南昌市,省外办,颗粒物(PM10),98,146,106,34,36,96,,29,29,20,39,9,7,0.6,0.8
2024-03-20T1200,1291A,115.8886,28.7003,南昌市,省林业公司,颗粒物(PM10),112,173,124,31,29,93,,26,26,25,49,7,6,0.5,0.7
2024-03-20T1200,1292A,115.8126,28.7442,南昌市,林科所,颗粒物(PM10),98,146,110,27,24,112,,48,48,16,41,8,7,0.7,0.7
2024-03-20T1200,1294A,115.8518,28.687,南昌市,建工学校,颗粒物(PM10),110,169,109,19,29,94,,30,30,15,44,9,5,0.5,0.7
2024-03-20T1200,1295A,115.8921,28.6424,南昌市,象湖,颗粒物(PM10),101,151,108,32,31,108,,30,30,13,47,8,6,0.7,0.9
2024-03-20T1200,1296A,115.7423,28.7996,南昌市,武术学校,,,,53,,23,,,71,,,2,,6,,0.2
2024-03-20T1200,1298A,115.9314,28.6842,南昌市,省站,颗粒物(PM10),112,174,118,36,38,100,,31,31,20,40,11,10,0.6,0.8
2024-03-20T1200,3046A,115.9084,28.6062,南昌市,机电学校,颗粒物(PM10),110,170,120,34,34,104,,34,34,20,47,9,8,0.6,0.7
2024-03-20T1200,3690A,115.9721,28.7031,南昌市,外国语学校,颗粒物(PM10),109,167,108,32,32,103,,32,32,14,39,6,6,0.5,0.6
2024-03-20T1200,1905A,106.056,30.8064,南充市,西山风景区,细颗粒物(PM2.5),65,69,46,47,26,17,,68,39,37,15,9,19,0.4,0.5
2024-03-20T1200,1906A,106.0789,30.8023,南充市,南充市委,颗粒物(PM10),77,103,65,41,19,28,,27,20,46,32,26,13,0.7,0.6
2024-03-20T1200,1907A,106.1031,30.8217,南充市,南充炼油厂,颗粒物(PM10),73,96,71,51,36,38,,34,25,39,30,22,18,0.6,0.5
2024-03-20T1200,1908A,106.1064,30.7856,南充市,高坪区监测站,细颗粒物(PM2.5),78,102,60,57,33,28,,25,20,36,32,38,18,0.4,0.3
2024-03-20T1200,1909A,106.0642,30.7636,南充市,嘉陵区环保局,颗粒物(PM10),70,90,69,46,31,35,,25,20,33,32,25,21,0.4,0.4
2024-03-20T1200,1910A,106.1087,30.8388,南充市,市环境监测站,颗粒物(PM10),79,107,68,51,34,20,,38,26,58,33,16,16,0.8,0.5
2024-03-20T1200,1151A,118.8086,32.1065,南京市,迈皋桥,颗粒物(PM10),110,169,138,31,22,99,,36,36,20,39,23,7,0.5,0.4
2024-03-20T1200,1152A,118.7538,32.0551,南京市,草场门,颗粒物(PM10),108,166,149,29,22,111,,38,38,26,49,15,4,0.6,0.4
2024-03-20T1200,1153A,118.7794,32.0745,南京市,山西路,颗粒物(PM10),118,185,156,29,27,114,,42,42,22,45,29,6,0.7,0.4
2024-03-20T1200,1154A,118.7752,32.0023,南京市,中华门,颗粒物(PM10),108,166,148,31,28,115,,35,35,25,51,25,9,1.0,0.7
2024-03-20T1200,1155A,118.8109,32.0309,南京市,瑞金路,颗粒物(PM10),115,180,131,27,25,99,,34,34,,47,17,9,,0.4
2024-03-20T1200,1156A,118.7997,32.0754,南京市,玄武湖,颗粒物(PM10),106,162,131,27,21,104,,37,37,24,44,29,12,0.7,0.5
2024-03-20T1200,1157A,118.6414,32.0931,南京市,浦口,颗粒物(PM10),106,161,142,17,14,84,,60,60,15,19,7,6,0.6,0.5
2024-03-20T1200,1158A,118.7356,31.9996,南京市,奥体中心,颗粒物(PM10),105,160,144,22,25,,,19,19,18,48,17,10,0.6,0.5
2024-03-20T1200,1159A,118.9125,32.1028,南京市,仙林大学城,颗粒物(PM10),112,173,138,27,21,90,,34,34,19,49,10,9,0.5,0.6
2024-03-20T1200,3422A,118.8436,31.9198,南京市,江宁彩虹桥,颗粒物(PM10),107,163,139,19,22,117,,32,32,16,43,13,5,0.3,0.3
2024-03-20T1200,3423A,119.0138,31.6494,南京市,溧水永阳,颗粒物(PM10),96,141,136,30,29,100,,47,47,16,25,4,4,0.6,0.6
2024-03-20T1200,3424A,118.879,31.3302,南京市,高淳老职中,颗粒物(PM10),88,125,128,29,34,107,,60,60,8,19,9,8,0.4,0.5
2024-03-20T1200,3427A,118.8554,32.3578,南京市,六合雄州,颗粒物(PM10),150,250,139,27,28,80,,29,29,,33,7,8,0.3,0.4
2024-03-20T1200,1401A,108.3103,22.7881,南宁市,二十一中,颗粒物(PM10),80,109,55,22,12,72,,81,78,30,20,6,6,0.7,0.7
2024-03-20T1200,1402A,108.3141,22.8528,南宁市,北湖,颗粒物(PM10),81,111,57,14,17,85,,68,68,17,22,6,8,0.6,0.7
2024-03-20T1200,1403A,108.3206,22.8225,南宁市,市监测站,,,129,58,36,21,76,,72,69,25,24,,9,,0.7
2024-03-20T1200,1404A,108.3829,22.8037,南宁市,大自然花园,颗粒物(PM10),76,102,55,12,11,74,,80,77,23,18,8,7,0.5,0.5
2024-03-20T1200,1405A,108.4394,22.7904,南宁市,仙葫,颗粒物(PM10),81,112,58,21,11,82,,85,82,21,18,14,10,0.4,0.4
2024-03-20T1200,1406A,108.2397,22.8467,南宁市,区农职院,颗粒物(PM10),78,106,55,29,19,81,,50,50,24,31,18,11,0.6,0.7
2024-03-20T1200,1407A,108.3275,22.735,南宁市,英华嘉园,颗粒物(PM10),76,102,55,16,20,75,,76,75,23,20,8,7,0.5,0.6
2024-03-20T1200,1408A,108.2257,22.7757,南宁市,沙井镇街道办,颗粒物(PM10),80,110,67,29,23,70,,37,37,30,36,8,8,0.5,0.5
2024-03-20T1200,3401A,108.4834,22.7618,南宁市,红星社区,,,,44,30,20,95,,88,88,12,13,13,10,0.6,0.7
2024-03-20T1200,2331A,118.0966,26.6761,南平市,茫荡山,,,,,,,,,,,,,,,,
2024-03-20T1200,2332A,118.1681,26.6369,南平市,南平市监测站,颗粒物(PM10),54,58,37,16,20,94,,35,35,7,24,5,4,0.4,0.5
2024-03-20T1200,2333A,118.1825,26.6489,南平市,南平铝业有限公司,,,,49,22,17,82,,32,32,,27,,6,0.3,0.4
2024-03-20T1200,2334A,118.1756,26.6272,南平市,南平七中,颗粒物(PM10),62,74,45,18,16,97,,39,39,7,16,6,4,0.4,0.4
2024-03-20T1200,1168A,120.9098,31.9663,南通市,狼山街道,颗粒物(PM10),81,111,192,18,39,96,,42,42,15,34,10,10,0.4,0.5
2024-03-20T1200,1169A,120.86,32.0005,南通市,虹桥,,,,190,,45,85,,32,32,,39,,8,0.4,0.6
2024-03-20T1200,1170A,120.87,32.02,南通市,城中,颗粒物(PM10),83,115,225,13,38,88,,42,42,12,36,7,9,0.5,0.7
2024-03-20T1200,1171A,120.94,31.93,南通市,星湖花园,颗粒物(PM10),82,114,211,26,41,87,,39,39,18,49,8,8,0.6,0.7
2024-03-20T1200,1172A,120.81,32.0417,南通市,紫琅学院,颗粒物(PM10),81,111,215,19,34,93,,39,39,16,42,9,10,0.5,0.6
2024-03-20T1200,3291A,121.067,32.062,南通市,通州监测站,颗粒物(PM10),73,95,222,14,42,91,,42,42,8,28,7,9,0.3,0.5
2024-03-20T1200,3432A,120.9348,31.9883,南通市,环境教育馆,颗粒物(PM10),76,102,212,22,45,93,,42,42,17,43,9,10,0.4,0.5
2024-03-20T1200,2404A,112.5224,33.0122,南阳市,瓦房庄,颗粒物(PM10),123,196,200,43,45,87,,51,51,19,32,8,6,0.5,0.5
2024-03-20T1200,2405A,112.5003,32.9735,南阳市,汉画馆,,,,212,,55,,,20,20,30,36,8,6,0.5,0.4
2024-03-20T1200,2406A,112.5573,33.027,南阳市,气象站,颗粒物(PM10),124,198,210,34,35,89,,52,52,17,31,8,6,0.6,0.6
2024-03-20T1200,2407A,112.5481,32.9689,南阳市,理工学院,颗粒物(PM10),119,188,197,47,50,78,,32,32,24,36,6,4,0.3,0.3
2024-03-20T1200,4008A,112.5234,32.9922,南阳市,卧龙区政府,颗粒物(PM10),140,229,217,49,50,81,,34,34,21,34,7,5,0.5,0.5
2024-03-20T1200,1234A,121.8358,29.911,宁波市,区环保大楼,颗粒物(PM10),106,162,136,29,34,93,,48,48,33,47,13,8,0.6,0.7
2024-03-20T1200,1235A,121.56,29.82,宁波市,万里学院,颗粒物(PM10),79,108,126,27,26,106,,50,50,17,32,9,9,0.5,0.5
2024-03-20T1200,1236A,121.713,29.9572,宁波市,龙赛医院,颗粒物(PM10),108,165,134,53,26,,,27,18,26,42,,7,0.4,0.4
2024-03-20T1200,1239A,121.633,29.7733,宁波市,钱湖水厂,颗粒物(PM10),83,115,121,24,33,102,,56,56,19,28,8,7,0.6,0.6
2024-03-20T1200,1240A,121.5856,29.8635,宁波市,太古小学,颗粒物(PM10),61,72,100,26,28,105,,49,49,12,25,10,9,0.5,0.7
2024-03-20T1200,1241A,121.524,29.8674,宁波市,市环境监测中心,颗粒物(PM10),71,92,102,23,25,110,,49,49,18,33,8,8,0.5,0.6
2024-03-20T1200,2871A,121.6147,29.9017,宁波市,万里国际学校,颗粒物(PM10),75,100,108,23,35,107,,51,51,21,38,10,9,0.5,0.6
2024-03-20T1200,3710A,121.5594,29.8975,宁波市,白沙活动中心,颗粒物(PM10),71,91,128,22,26,108,,50,50,16,29,9,8,0.4,0.4
2024-03-20T1200,2339A,119.5001,26.6946,宁德市,金涵水库,,,,,,,,,,,,,,,,
2024-03-20T1200,2341A,119.5388,26.6612,宁德市,宁德市监测站,颗粒物(PM10),63,76,34,35,24,127,,63,63,14,14,10,7,0.5,0.5
2024-03-20T1200,3209A,119.5231,26.6562,宁德市,宁德一中,颗粒物(PM10),63,76,36,29,20,140,,67,67,19,16,9,7,0.5,0.5
2024-03-20T1200,2618A,98.8601,25.8567,怒江傈僳族自治州,州监测站,,,,53,41,41,48,,59,52,6,9,,9,0.5,0.5
2024-03-20T1200,2619A,98.8546,25.8417,怒江傈僳族自治州,泸水一中,,38,29,44,26,37,48,,51,44,10,13,6,7,0.5,0.6
2024-03-20T1200,1888A,101.6891,26.571,攀枝花市,弄弄坪,,,,65,,38,46,,49,29,,33,18,26,0.7,1.3
2024-03-20T1200,1889A,101.5769,26.5928,攀枝花市,河门口,颗粒物(PM10),70,90,61,50,36,25,,48,28,59,26,29,13,2.0,0.9
2024-03-20T1200,1890A,101.7169,26.585,攀枝花市,炳草岗,,,82,56,45,32,47,,39,23,,30,14,24,0.9,1.2
2024-03-20T1200,1891A,101.7369,26.5008,攀枝花市,仁和,颗粒物(PM10),60,69,62,42,36,84,,63,55,27,19,15,10,1.1,1.1
2024-03-20T1200,2835A,101.7227,26.567,攀枝花市,四十中小,颗粒物(PM10),64,77,66,34,29,83,,43,42,28,32,18,29,0.9,1.4
2024-03-20T1200,1604A,122.0303,41.1489,盘锦市,开发区,,,28,24,12,13,,,80,78,8,13,6,9,0.3,0.7
2024-03-20T1200,1605A,122.0485,41.0883,盘锦市,兴隆台,,30,15,19,12,10,93,,80,80,10,14,7,8,0.5,0.5
2024-03-20T1200,1606A,121.8297,41.1028,盘锦市,新生街道,,30,30,16,10,9,96,,67,67,13,28,15,9,0.6,0.6
2024-03-20T1200,1832A,113.3257,33.742,平顶山市,新华旅馆,颗粒物(PM10),96,142,171,39,34,84,,58,57,22,21,12,9,0.5,0.5
2024-03-20T1200,1833A,113.2919,33.737,平顶山市,规划设计院,颗粒物(PM10),78,105,152,34,36,79,,42,42,17,27,10,6,0.5,0.5
2024-03-20T1200,1834A,113.182,33.774,平顶山市,平顶山工学院,颗粒物(PM10),87,124,154,36,32,81,,54,52,14,11,9,6,0.5,0.4
2024-03-20T1200,3204A,113.3025,33.73,平顶山市,规划局,颗粒物(PM10),97,144,185,32,39,81,,49,49,18,23,12,8,0.3,0.3
2024-03-20T1200,3594A,112.8867,33.9116,平顶山市,石龙区,颗粒物(PM10),95,140,202,38,41,89,,40,40,17,36,13,10,0.5,0.4
2024-03-20T1200,2656A,106.6692,35.5461,平凉市,聚贤嘉苑,,,,111,,28,78,,55,55,28,30,13,10,0.5,0.4
2024-03-20T1200,2657A,106.7021,35.5307,平凉市,博物馆,颗粒物(PM10),92,133,120,28,30,81,,57,56,32,33,14,11,0.4,0.4
2024-03-20T1200,2347A,114.0997,27.5002,萍乡市,武功山,颗粒物(PM10),61,71,46,28,19,91,,44,44,6,8,5,4,0.5,0.7
2024-03-20T1200,2348A,113.8385,27.6434,萍乡市,中医院,颗粒物(PM10),91,132,76,32,28,78,,28,28,24,27,17,5,1.0,0.7
2024-03-20T1200,2349A,113.8493,27.6253,萍乡市,市政府车库,细颗粒物(PM2.5),72,92,71,52,32,75,,31,31,26,22,24,7,1.6,0.9
2024-03-20T1200,2350A,113.8676,27.6435,萍乡市,市环保局,颗粒物(PM10),81,112,73,40,33,70,,27,27,23,24,24,10,0.9,0.8
2024-03-20T1200,2351A,113.866,27.6198,萍乡市,安源区政府,颗粒物(PM10),89,127,66,38,29,70,,27,27,27,15,22,6,1.9,0.9
2024-03-20T1200,2319A,119.0141,25.4325,莆田市,荔城区仓后路,颗粒物(PM10),65,79,40,29,22,140,,108,108,15,16,5,4,0.6,0.7
2024-03-20T1200,2320A,119.0015,25.4553,莆田市,莆田市监测站,颗粒物(PM10),61,72,39,24,21,131,,104,104,13,18,7,6,0.5,0.6
2024-03-20T1200,2321A,119.1119,25.4561,莆田市,涵江区六中,颗粒物(PM10),66,82,41,32,18,144,,117,117,18,17,7,6,0.6,0.7
2024-03-20T1200,2322A,119.1013,25.3215,莆田市,秀屿区政府,颗粒物(PM10),68,86,38,46,21,147,,118,118,23,19,10,8,0.7,0.6
2024-03-20T1200,2323A,118.981,25.4792,莆田市,东圳水库,,,,,,,,,,,,,,,,
2024-03-20T1200,2392A,115.0312,35.7636,濮阳市,环保局,颗粒物(PM10),67,84,94,18,20,98,,62,62,15,22,16,10,0.4,0.3
2024-03-20T1200,2394A,115.0574,35.7609,濮阳市,油田运输公司,颗粒物(PM10),70,89,108,18,20,104,,63,63,16,25,17,11,0.3,0.4
2024-03-20T1200,2395A,115.0866,35.7754,濮阳市,油田物探公司,颗粒物(PM10),86,122,114,15,17,101,,57,57,15,22,16,9,0.3,0.3
2024-03-20T1200,3021A,115,35.7668,濮阳市,濮水河管理处,,,,94,12,18,89,,54,54,13,22,13,9,,0.2
2024-03-20T1200,2601A,100.98,22.7633,普洱市,市环保局,,45,41,62,31,42,79,,94,83,9,11,8,9,0.2,0.3
2024-03-20T1200,2602A,100.9817,22.8322,普洱市,普洱第二中学,,,33,63,,42,85,,96,90,10,21,7,7,0.7,0.7
2024-03-20T1200,2262A,131.0518,45.8751,七台河市,新一中,,34,20,22,18,17,107,,88,88,6,9,9,10,0.5,0.6
2024-03-20T1200,3345A,131.0577,45.7879,七台河市,中波台,,36,36,41,22,28,100,,63,63,13,30,6,8,0.7,0.9
2024-03-20T1200,3637A,131.0176,45.7761,七台河市,人民广场,,44,44,49,22,33,100,,69,69,11,27,8,9,0.6,0.8
2024-03-20T1200,3684A,130.8781,45.8222,七台河市,新建矿广场,,33,,33,23,32,101,,75,75,16,20,9,10,0.6,0.7
2024-03-20T1200,1779A,123.9305,47.3636,齐齐哈尔市,安居小区,,29,23,27,15,16,92,,75,75,6,14,7,7,0.3,0.3
2024-03-20T1200,1780A,123.9488,47.3386,齐齐哈尔市,中心广场,,31,31,28,10,12,80,,68,68,10,13,6,6,0.2,0.3
2024-03-20T1200,1781A,123.9483,47.3227,齐齐哈尔市,农牧车辆厂,,31,31,30,8,14,82,,71,71,9,12,7,8,0.3,0.4
2024-03-20T1200,1783A,123.945,47.2988,齐齐哈尔市,市环境监测站,,29,29,29,14,16,85,,72,72,7,11,4,4,0.2,0.3
2024-03-20T1200,3662A,123.6333,47.2075,齐齐哈尔市,富区青少年活动中心,,29,29,27,2,8,88,,72,72,1,8,6,8,0.3,0.4
2024-03-20T1200,2591A,107.9783,26.5747,黔东南苗族侗族自治州,市环境监测站,颗粒物(PM10),63,76,63,28,21,25,,40,28,39,29,10,6,0.8,0.6
2024-03-20T1200,2881A,107.8908,26.5311,黔东南苗族侗族自治州,凯里学院,颗粒物(PM10),54,58,48,22,16,28,,42,30,27,15,5,4,0.8,0.6
2024-03-20T1200,2593A,107.5228,26.2403,黔南布依族苗族自治州,小围寨,颗粒物(PM10),57,63,53,22,21,86,,65,65,14,11,8,6,0.6,0.5
2024-03-20T1200,3538A,107.5175,26.2978,黔南布依族苗族自治州,沙坝,颗粒物(PM10),58,66,62,24,21,73,,39,39,11,13,7,6,0.4,0.4
2024-03-20T1200,2589A,104.9022,25.0925,黔西南布依族苗族自治州,场坝街,,38,,28,26,20,73,,61,61,11,14,2,6,0.3,0.4
2024-03-20T1200,2590A,104.8811,25.0992,黔西南布依族苗族自治州,坪东大道,,37,37,33,17,21,69,,59,57,13,13,3,4,0.5,0.5
2024-03-20T1200,2502A,108.6236,21.9667,钦州市,市环保站,颗粒物(PM10),85,119,78,24,24,79,,59,59,20,26,10,17,0.6,1.3
2024-03-20T1200,2503A,108.6549,21.9481,钦州市,沙埠小学,颗粒物(PM10),69,88,55,21,19,82,,66,66,17,24,8,7,0.5,0.5
2024-03-20T1200,2504A,108.5989,21.7431,钦州市,港区一小,颗粒物(PM10),92,134,95,33,25,55,,57,50,20,21,12,11,0.6,0.8
2024-03-20T1200,3404A,108.5959,21.9633,钦州市,北职校,颗粒物(PM10),87,124,68,30,24,86,,69,64,12,17,12,10,0.8,1.1
2024-03-20T1200,1042A,119.5134,39.8207,秦皇岛市,北戴河环保局,,44,44,44,12,10,70,,64,64,23,21,10,7,0.4,0.3
2024-03-20T1200,1043A,119.7493,40.0116,秦皇岛市,第一关,,27,21,46,16,20,85,,50,50,10,28,6,7,0.3,0.3
2024-03-20T1200,1044A,119.5897,39.9499,秦皇岛市,监测站,,,,49,,16,81,,49,37,,22,5,5,0.3,0.3
2024-03-20T1200,1046A,119.5251,39.9041,秦皇岛市,建设大厦,,28,10,57,5,17,87,,48,48,6,23,1,3,0.2,0.3
2024-03-20T1200,3132A,119.610547,39.943889,秦皇岛市,文明里,,28,28,51,8,13,80,,54,48,12,17,6,4,0.5,0.4
2024-03-20T1200,1307A,120.6659,36.2403,青岛市,仰口,,31,31,41,12,11,80,,74,74,8,8,3,3,0.1,0.1
2024-03-20T1200,1310A,120.4134,36.0658,青岛市,市南区东部子站,,46,46,54,12,10,79,,72,71,10,18,8,8,0.4,0.4
2024-03-20T1200,1311A,120.3664,36.1032,青岛市,四方区子站,,36,36,54,12,14,81,,68,68,17,33,7,6,0.5,0.6
2024-03-20T1200,1312A,120.2994,36.054,青岛市,市南区西部子站,,34,34,52,10,10,83,,68,68,10,29,7,7,0.6,0.6
2024-03-20T1200,1313A,120.4581,36.0858,青岛市,崂山区子站,,27,27,45,7,7,78,,76,76,13,19,6,6,0.4,0.5
2024-03-20T1200,1314A,120.1983,35.9608,青岛市,黄岛区子站,,,,53,0,12,66,,49,49,,29,9,8,0.6,0.6
2024-03-20T1200,1315A,120.3999,36.3083,青岛市,城阳区子站,,29,29,47,10,12,87,,70,70,7,24,8,8,0.6,0.7
2024-03-20T1200,1966A,120.0405,35.8735,青岛市,黄岛区4号,,31,31,53,7,9,77,,67,67,18,24,8,8,0.4,0.5
2024-03-20T1200,3362A,120.5014,36.4034,青岛市,即墨2号,,30,30,56,10,15,84,,67,67,11,26,6,6,0.4,0.5
2024-03-20T1200,3642A,120.3503,36.0736,青岛市,市北区南部,,38,38,66,12,10,86,,70,70,16,30,6,6,0.5,0.5
2024-03-20T1200,3643A,120.3948,36.1805,青岛市,李沧区北部,,36,36,57,14,22,89,,74,74,14,29,8,8,0.6,0.6
2024-03-20T1200,1702A,113.0426,23.691,清远市,环保大楼,颗粒物(PM10),81,112,53,14,8,89,,73,73,10,9,5,5,0.7,0.7
2024-03-20T1200,1703A,113.0208,23.7106,清远市,凤城街办,颗粒物(PM10),90,129,53,20,9,103,,85,85,15,13,5,4,0.3,0.4
2024-03-20T1200,3025A,113.0477,23.6344,清远市,技师学院,颗粒物(PM10),83,116,53,22,12,102,,78,78,12,17,5,4,0.7,0.8
2024-03-20T1200,3318A,112.9903,23.7403,清远市,清新太和,颗粒物(PM10),86,121,54,23,11,107,,86,86,11,10,7,7,0.4,0.5
2024-03-20T1200,3455A,113.076,23.7198,清远市,清城东城,颗粒物(PM10),96,141,55,26,11,87,,73,73,14,13,6,6,0.4,0.5
2024-03-20T1200,2661A,107.6325,35.7357,庆阳市,庆阳五中,颗粒物(PM10),111,171,135,69,49,104,,76,76,14,18,6,7,0.5,0.5
2024-03-20T1200,2662A,107.6364,35.7067,庆阳市,市环保局,颗粒物(PM10),107,164,124,69,39,107,,86,84,15,11,8,8,0.5,0.4
2024-03-20T1200,1916A,103.7897,25.5035,曲靖市,环境监测站,颗粒物(PM10),57,63,52,34,25,49,,60,53,21,14,15,13,1.4,1.1
2024-03-20T1200,1917A,103.8,25.5364,曲靖市,烟厂办公区,颗粒物(PM10),54,58,49,28,24,55,,68,59,18,11,5,4,0.8,0.7
2024-03-20T1200,3376A,103.7947,25.462,曲靖市,南苑二区,颗粒物(PM10),69,88,59,44,29,44,,58,51,24,16,13,13,0.8,0.7
2024-03-20T1200,3377A,103.7444,25.5261,曲靖市,曲靖师范学院,,,98,52,58,36,47,,58,52,20,17,6,8,,0.7
2024-03-20T1200,1264A,118.8692,28.9398,衢州市,环保大楼,颗粒物(PM10),70,90,56,25,21,109,,39,39,15,26,8,8,0.3,0.5
2024-03-20T1200,1265A,118.8709,28.9666,衢州市,实验学校,,,,57,,21,104,,32,32,,24,9,6,0.2,0.4
2024-03-20T1200,1266A,118.8621,28.9808,衢州市,衢州学院,颗粒物(PM10),67,83,56,21,17,102,,32,32,18,35,8,6,0.4,0.4
2024-03-20T1200,1611A,118.5819,24.9117,泉州市,涂山街,颗粒物(PM10),73,96,47,31,21,150,,120,120,16,18,5,4,0.5,0.5
2024-03-20T1200,1612A,118.5972,24.8978,泉州市,津头埔,颗粒物(PM10),69,88,40,25,20,146,,120,120,21,20,6,5,0.7,0.7
2024-03-20T1200,1613A,118.6663,24.9424,泉州市,万安,颗粒物(PM10),75,100,48,26,20,159,,131,131,18,17,5,5,0.6,0.6
2024-03-20T1200,1614A,118.6117,24.9604,泉州市,清源山,,,,,,,,,,,,,,,,
2024-03-20T1200,3529A,118.6333,24.9264,泉州市,城华南路,颗粒物(PM10),70,89,43,27,21,151,,121,121,21,22,6,4,0.5,0.5
2024-03-20T1200,2626A,88.8876,29.2718,日喀则市,日喀则监测站,"颗粒物(PM10),细颗粒物(PM2.5)",58,65,32,41,20,90,,81,67,8,11,4,4,0.6,0.5
