timepoint,stationcode,longitude,latitude,area,positionname,primarypollutant,aqi,pm10,pm10_24h,pm2_5,pm2_5_24h,o3,o3_24h,o3_8h,o3_8h_24h,no2,no2_24h,so2,so2_24h,co,co_24h
2025-05-21T2300,2566A,102.1879,31.914,阿坝藏族羌族自治州,州农科所,,11,10,26,3,11,33,,69,57,10,11,11,12,0.8,0.8
2025-05-21T2300,2568A,102.2502,31.8896,阿坝藏族羌族自治州,马师校,,29,24,19,20,18,11,,70,50,16,12,5,5,0.6,0.6
2025-05-21T2300,3994A,102.2165,31.9024,阿坝藏族羌族自治州,马尔康中学西区,,40,,22,28,16,18,,79,59,11,9,4,5,0.6,0.5
2025-05-21T2300,2695A,80.292,41.1694,阿克苏地区,电视台,颗粒物(PM10),500,796,616,224,159,79,,116,108,27,14,6,5,0.5,0.3
2025-05-21T2300,2696A,80.2613,41.1551,阿克苏地区,艺术中心,颗粒物(PM10),500,860,685,239,267,79,,108,101,18,8,4,4,0.4,0.3
2025-05-21T2300,2204A,105.6467,38.8363,阿拉善盟,西城区西花园,"颗粒物(PM10),细颗粒物(PM2.5)",500,5744,823,1403,241,98,,120,111,7,10,5,6,0.7,0.7
2025-05-21T2300,2205A,105.6985,38.8411,阿拉善盟,蒙二幼,"颗粒物(PM10),细颗粒物(PM2.5)",500,3234,537,1053,178,84,,104,90,4,6,8,9,0.6,0.5
2025-05-21T2300,2206A,105.724,38.8516,阿拉善盟,环保局新楼,"颗粒物(PM10),细颗粒物(PM2.5)",500,2767,447,1003,170,84,,113,96,4,5,8,9,0.6,0.5
2025-05-21T2300,2708A,88.1264,47.8517,阿勒泰地区,市站,,26,20,14,8,4,83,,94,91,10,7,2,2,0.2,0.3
2025-05-21T2300,2630A,80.1161,32.5,阿里地区,阿里监测站,,37,23,12,3,6,117,,120,116,4,6,5,6,0.4,0.4
2025-05-21T2300,3192A,80.0903,32.5028,阿里地区,阿里藏医院,颗粒物(PM10),69,87,21,9,6,121,,124,120,3,3,6,6,0.4,0.4
2025-05-21T2300,2642A,109.0318,32.6537,安康市,香溪洞,颗粒物(PM10),61,71,63,34,39,161,,147,146,6,9,12,13,0.3,0.4
2025-05-21T2300,2644A,109.0072,32.6975,安康市,汉滨区检察院,颗粒物(PM10),66,81,65,40,40,80,,144,122,22,12,12,13,0.7,0.6
2025-05-21T2300,4054A,109.0325,32.6913,安康市,市邮政管理局,细颗粒物(PM2.5),70,76,68,51,43,126,,129,118,17,15,11,12,0.6,0.6
2025-05-21T2300,2291A,117.0809,30.5177,安庆市,环科院,,42,42,22,23,12,24,,88,69,29,12,2,2,0.5,0.5
2025-05-21T2300,2292A,117.0331,30.5119,安庆市,马山宾馆,,36,36,18,25,13,16,,77,47,27,21,6,4,0.9,0.8
2025-05-21T2300,2294A,116.9896,30.6145,安庆市,安庆大学,,41,41,20,28,13,20,,90,68,33,13,4,4,0.5,0.4
2025-05-21T2300,3173A,117.0598,30.5351,安庆市,市人大,,31,31,18,18,10,35,,98,75,16,10,8,8,0.5,0.4
2025-05-21T2300,3122A,105.9606,26.2611,安顺市,伍家关,,22,20,25,15,16,40,,60,56,7,9,2,2,0.3,0.3
2025-05-21T2300,3123A,105.9408,26.2431,安顺市,凤凰山,,35,31,27,24,22,81,,106,98,5,7,6,6,0.4,0.5
2025-05-21T2300,3124A,105.9439,26.2564,安顺市,金钟山,,30,30,24,21,19,77,,97,91,4,5,4,4,0.3,0.3
2025-05-21T2300,3125A,105.8983,26.2481,安顺市,娄家坡,,25,18,18,17,17,76,,97,92,3,3,6,6,0.4,0.4
2025-05-21T2300,1818A,114.4839,36.0621,安阳市,棉研所,,,,,,,,,,,,,,,,
2025-05-21T2300,1819A,114.3551,36.1017,安阳市,红庙街,颗粒物(PM10),65,80,115,25,42,121,,168,153,2,5,3,4,0.4,0.6
2025-05-21T2300,1820A,114.361,36.0681,安阳市,银杏小区,颗粒物(PM10),70,90,97,18,51,120,,158,147,2,7,2,3,0.5,0.7
2025-05-21T2300,3141A,114.3922,36.0878,安阳市,信访局,颗粒物(PM10),63,75,102,29,44,122,,170,157,6,10,2,3,0.6,0.7
2025-05-21T2300,3669A,114.4705,36.0637,安阳市,左辅环卫站,颗粒物(PM10),65,80,108,20,48,133,,182,169,14,19,3,5,0.6,0.8
2025-05-21T2300,3703A,114.2917,36.0949,安阳市,安钢职工学校,颗粒物(PM10),71,92,110,22,61,120,,163,146,6,14,3,6,0.6,0.9
2025-05-21T2300,1748A,123.044,41.1196,鞍山市,深沟寺,细颗粒物(PM2.5),78,95,58,57,35,71,,127,111,34,25,9,8,0.7,0.7
2025-05-21T2300,1749A,123.011,41.0931,鞍山市,太阳城,细颗粒物(PM2.5),77,88,55,56,37,90,,136,125,26,22,12,10,0.6,0.6
2025-05-21T2300,1750A,123.0485,41.1442,鞍山市,太平,颗粒物(PM10),78,106,80,55,38,77,,128,114,32,28,17,12,0.7,0.7
2025-05-21T2300,1751A,122.9642,41.0971,鞍山市,铁西三道街,细颗粒物(PM2.5),119,149,91,90,53,61,,99,71,24,36,8,24,0.6,1.7
2025-05-21T2300,1753A,123.022,41.0821,鞍山市,明达新区,细颗粒物(PM2.5),67,69,55,48,36,86,,123,112,20,20,8,9,0.4,0.5
2025-05-21T2300,1754A,123.1289,41.0228,鞍山市,千山,,,,43,,22,,,70,,,20,,8,,0.6
2025-05-21T2300,4201A,122.9446,41.0826,鞍山市,兴盛南路290号,细颗粒物(PM2.5),68,78,72,49,38,91,,118,106,30,40,18,34,0.8,1.8
2025-05-21T2300,2195A,107.4212,40.761,巴彦淖尔市,附二中,颗粒物(PM10),70,90,62,22,17,72,,96,86,5,8,4,7,0.3,0.4
2025-05-21T2300,2196A,107.37,40.7372,巴彦淖尔市,市环保大楼,颗粒物(PM10),66,81,53,24,20,78,,104,92,8,11,5,7,0.2,0.2
2025-05-21T2300,1956A,86.1472,41.7538,巴音郭楞蒙古自治州,孔雀公园,颗粒物(PM10),239,377,175,94,36,38,,108,91,57,14,8,7,0.3,0.2
2025-05-21T2300,1957A,86.1972,41.7166,巴音郭楞蒙古自治州,棉纺厂,颗粒物(PM10),253,387,190,74,40,67,,111,100,22,14,3,3,0.2,0.2
2025-05-21T2300,1958A,86.2357,41.7173,巴音郭楞蒙古自治州,经济开发区,颗粒物(PM10),143,236,177,49,31,82,,108,98,10,9,7,8,0.2,0.2
2025-05-21T2300,2914A,106.7677,31.8794,巴中市,苏山坪,,39,38,58,27,42,98,,148,121,6,9,4,5,0.4,0.5
2025-05-21T2300,3181A,106.7768,31.8526,巴中市,市五中,细颗粒物(PM2.5),58,43,70,41,47,63,,154,116,6,18,6,7,0.6,0.8
2025-05-21T2300,3183A,106.7418,31.8654,巴中市,圣泉水务公司,颗粒物(PM10),53,56,64,35,43,72,,159,122,9,14,4,6,0.6,0.6
2025-05-21T2300,3616A,106.7616,31.8344,巴中市,市中心医院,,36,36,68,16,50,63,,148,110,8,21,5,6,0.7,0.8
2025-05-21T2300,2235A,122.7911,45.6077,白城市,洮北区环保局,,34,34,29,10,17,71,,85,79,10,12,4,4,0.3,0.3
2025-05-21T2300,2236A,122.8738,45.5725,白城市,市环保局,,27,27,26,16,19,35,,85,67,27,10,6,4,0.4,0.4
2025-05-21T2300,2231A,126.4219,41.9171,白山市,喜丰,颗粒物(PM10),69,88,49,48,25,12,,108,84,76,24,6,6,0.8,0.7
2025-05-21T2300,2232A,126.4077,41.9419,白山市,环保局,颗粒物(PM10),60,70,37,42,22,65,,109,101,15,12,8,9,0.6,0.6
2025-05-21T2300,2647A,104.1724,36.5446,白银市,第三小学,,31,6,150,3,52,98,,116,87,3,25,8,46,0.6,1.1
2025-05-21T2300,2648A,104.1465,36.5482,白银市,动力公司,,29,,109,8,38,90,,114,83,6,19,8,23,0.3,0.9
2025-05-21T2300,2512A,106.6103,23.9011,百色市,市监测站,,38,38,33,21,20,60,,84,,15,11,17,12,0.7,0.7
2025-05-21T2300,2513A,106.6538,23.8859,百色市,市中心血站,,36,36,37,20,20,62,,91,82,12,11,12,9,0.6,0.6
2025-05-21T2300,3406A,106.6085,23.8798,百色市,祈福高中,,41,41,43,24,19,53,,88,78,14,12,12,13,0.5,0.6
2025-05-21T2300,2270A,117.396,32.939,蚌埠市,工人疗养院,,44,44,50,20,20,93,,144,107,12,13,6,5,0.4,0.4
2025-05-21T2300,2271A,117.3605,32.9427,蚌埠市,百货大楼,,38,38,46,21,21,72,,142,112,15,16,7,7,0.4,0.4
2025-05-21T2300,2273A,117.4185,32.8911,蚌埠市,蚌埠学院,,44,44,45,26,25,74,,137,106,20,13,5,4,0.5,0.5
2025-05-21T2300,2274A,117.3533,32.9673,蚌埠市,淮上区政府,,39,39,48,20,25,75,,148,102,36,18,7,7,0.6,0.6
2025-05-21T2300,2275A,117.3145,32.8977,蚌埠市,高新区,颗粒物(PM10),51,51,43,32,24,84,,136,110,23,17,6,6,0.6,0.5
2025-05-21T2300,3715A,117.3092,32.9314,蚌埠市,蚌埠田家炳中学,,48,41,47,33,27,90,,137,116,9,9,7,7,0.5,0.5
2025-05-21T2300,1585A,109.8756,40.6532,包头市,市环境监测站,,41,41,32,8,12,85,,107,96,8,14,8,10,0.5,0.6
2025-05-21T2300,1587A,109.9991,40.5842,包头市,包头八中,颗粒物(PM10),53,55,88,10,17,88,,106,96,11,21,10,16,0.6,0.9
2025-05-21T2300,1588A,109.8538,40.6821,包头市,青山宾馆,,36,36,27,14,12,88,,101,88,8,14,9,10,0.4,0.4
2025-05-21T2300,1589A,109.8642,40.6288,包头市,惠龙物流,,28,28,31,3,10,89,,113,100,10,15,6,9,0.3,0.5
2025-05-21T2300,1590A,110.0377,40.5546,包头市,东河鸿龙湾,,43,43,42,3,13,84,,107,97,12,21,8,8,0.4,0.5
2025-05-21T2300,3283A,109.9154,40.5685,包头市,滨河大厦,,41,41,35,11,12,91,,117,104,7,18,7,10,0.4,0.5
2025-05-21T2300,3419A,109.9447,40.6261,包头市,包头市委党校,,31,31,35,13,13,86,,106,96,6,18,7,12,0.3,0.5
2025-05-21T2300,3683A,109.8331,40.6576,包头市,昆区政府,,36,34,26,25,20,88,,106,94,9,13,7,8,0.4,0.5
2025-05-21T2300,1930A,107.185,34.3063,宝鸡市,庙沟村,,47,47,53,31,31,147,,201,180,13,12,8,8,0.6,0.6
2025-05-21T2300,1931A,107.0708,34.3017,宝鸡市,竹园沟,颗粒物(PM10),55,60,59,35,36,86,,187,148,24,15,4,5,0.4,0.5
2025-05-21T2300,1932A,107.1906,34.3672,宝鸡市,三陆医院,"颗粒物(PM10),细颗粒物(PM2.5)",57,63,74,40,40,114,,207,169,29,28,10,11,0.6,0.5
2025-05-21T2300,1933A,107.1431,34.3547,宝鸡市,监测站,颗粒物(PM10),58,66,72,40,38,98,,197,154,27,20,6,7,0.4,0.4
2025-05-21T2300,1934A,107.1186,34.3739,宝鸡市,技工学校,,,68,84,45,41,,,92,,18,12,7,8,0.6,0.6
2025-05-21T2300,1935A,107.3906,34.3528,宝鸡市,陈仓区环保局家属楼,细颗粒物(PM2.5),67,80,76,48,39,86,,217,180,50,26,6,29,0.5,0.4
2025-05-21T2300,1936A,107.2058,34.3497,宝鸡市,文理学院,颗粒物(PM10),62,73,71,33,42,101,,208,167,30,20,8,10,0.6,0.6
2025-05-21T2300,1937A,107.2386,34.3622,宝鸡市,三迪小学,细颗粒物(PM2.5),67,75,76,48,46,96,,206,167,36,26,8,10,0.5,0.6
2025-05-21T2300,1051A,115.493,38.8632,保定市,游泳馆,颗粒物(PM10),56,61,124,28,55,108,,187,151,23,14,5,5,0.3,0.5
2025-05-21T2300,1052A,115.5213,38.8959,保定市,华电二区,细颗粒物(PM2.5),67,63,91,48,59,98,,190,154,14,8,2,4,0.2,0.7
2025-05-21T2300,1053A,115.4713,38.9108,保定市,接待中心,颗粒物(PM10),53,56,87,26,52,122,,194,165,14,11,2,2,0.5,0.9
2025-05-21T2300,1054A,115.4612,38.8416,保定市,地表水厂,颗粒物(PM10),61,71,112,22,40,103,,190,152,24,14,3,3,0.2,0.7
2025-05-21T2300,3581A,115.31981,38.95208,保定市,满城区生态环境分局,颗粒物(PM10),67,83,106,27,48,109,,203,169,14,11,1,4,0.2,0.6
2025-05-21T2300,3582A,115.47694,38.76408,保定市,清苑区第二中学,,,87,118,46,54,,,190,158,19,12,3,5,0.4,0.7
2025-05-21T2300,3583A,115.62909,39.02311,保定市,徐水物探局,颗粒物(PM10),65,79,112,14,46,96,,195,154,16,12,6,5,0.2,0.7
2025-05-21T2300,4004A,115.4202,38.8656,保定市,双鹰农机,颗粒物(PM10),57,64,84,39,45,76,,190,153,36,11,4,4,0.4,0.7
2025-05-21T2300,4034A,115.5150,38.8590,保定市,植保所站,颗粒物(PM10),56,62,101,30,45,102,,187,146,17,11,6,5,0.6,0.9
2025-05-21T2300,2594A,99.1678,25.1081,保山市,市环境监测站,,38,29,31,26,28,90,,94,92,6,7,8,8,0.4,0.5
2025-05-21T2300,2595A,99.1711,25.1328,保山市,市环保局,,35,35,32,23,16,93,,99,96,4,6,7,6,0.4,0.4
2025-05-21T2300,1866A,109.2262,21.588,北海市,牛尾岭水库,,,,,,,,,,,,,,,,
2025-05-21T2300,1867A,109.1436,21.4086,北海市,海滩公园,,41,41,31,3,6,54,,58,58,3,4,5,5,0.7,0.7
2025-05-21T2300,1868A,109.0981,21.4661,北海市,新市环保局,,19,14,21,7,9,59,,63,63,8,7,3,3,0.4,0.4
2025-05-21T2300,1869A,109.1778,21.5233,北海市,北海工业园,,32,,24,22,12,36,,60,56,25,11,8,7,0.7,0.5
2025-05-21T2300,3400A,109.1911,21.4415,北海市,龙潭自来水厂,,18,13,16,9,9,56,,59,59,8,6,3,3,0.3,0.3
2025-05-21T2300,1001A,116.3621,39.8784,北京市,万寿西宫,颗粒物(PM10),75,99,99,37,48,125,,195,176,32,17,6,6,0.8,0.9
2025-05-21T2300,1002A,116.2202,40.2915,北京市,定陵,,,,,,,,,,,,,,,,
2025-05-21T2300,1003A,116.4174,39.9289,北京市,东四,颗粒物(PM10),70,89,98,34,42,131,,186,173,24,17,6,6,0.7,0.8
2025-05-21T2300,1004A,116.4072,39.8863,北京市,天坛,,,,92,,46,,,157,,,15,,4,,0.9
2025-05-21T2300,1005A,116.462,39.9365,北京市,农展馆,颗粒物(PM10),67,83,93,33,43,121,,168,157,25,15,6,6,1.0,1.1
2025-05-21T2300,1006A,116.3392,39.9295,北京市,官园,颗粒物(PM10),69,88,97,40,48,141,,184,175,22,15,8,8,0.7,0.8
2025-05-21T2300,1007A,116.2878,39.9611,北京市,海淀万柳,颗粒物(PM10),72,94,95,39,46,136,,179,169,27,19,5,5,0.7,0.9
2025-05-21T2300,1008A,116.6636,40.135,北京市,顺义新城,颗粒物(PM10),73,95,100,44,49,67,,159,140,29,15,5,7,0.7,0.9
2025-05-21T2300,1009A,116.6275,40.3275,北京市,怀柔镇,颗粒物(PM10),68,86,92,45,47,116,,158,151,16,14,2,4,0.8,1.1
2025-05-21T2300,1010A,116.2296,40.217,北京市,昌平镇,颗粒物(PM10),67,84,100,45,52,125,,174,161,21,24,4,6,0.6,0.9
2025-05-21T2300,1011A,116.3966,39.9821,北京市,奥体中心,颗粒物(PM10),68,86,94,40,48,126,,163,157,26,18,5,5,1.0,0.9
2025-05-21T2300,3281A,115.9718,40.4529,北京市,延庆夏都,颗粒物(PM10),84,118,100,58,54,149,,173,167,17,14,4,5,0.9,1
2025-05-21T2300,3418A,116.8336,40.4095,北京市,密云新城,颗粒物(PM10),67,84,92,47,49,84,,150,138,19,13,2,4,0.6,0.8
2025-05-21T2300,3671A,116.088,39.9726,北京市,门头沟三家店,颗粒物(PM10),84,117,116,59,62,94,,199,173,30,27,1,2,0.7,0.9
2025-05-21T2300,3672A,116.1541,39.8204,北京市,丰台云岗,颗粒物(PM10),74,97,100,42,52,138,,206,181,20,14,5,5,0.7,0.9
2025-05-21T2300,3673A,116.6804,39.9081,北京市,通州东关,颗粒物(PM10),66,81,104,30,46,102,,184,172,31,16,8,5,1.0,1.1
2025-05-21T2300,3674A,115.9577,39.7603,北京市,房山燕山,颗粒物(PM10),82,113,102,56,55,145,,200,176,17,15,2,4,1.0,1
2025-05-21T2300,3675A,116.4672,39.7733,北京市,大兴旧宫,颗粒物(PM10),58,65,96,26,47,103,,175,153,23,18,8,3,0.7,1
2025-05-21T2300,3694A,115.986,40.4563,北京市,延庆石河营,细颗粒物(PM2.5),88,122,101,65,55,146,,166,160,17,13,2,3,0.8,0.9
2025-05-21T2300,3695A,116.6151,40.3053,北京市,怀柔新城,颗粒物(PM10),66,81,91,41,47,115,,158,151,18,15,1,3,0.8,1
2025-05-21T2300,3696A,116.2545,39.8768,北京市,丰台小屯,颗粒物(PM10),70,90,93,17,37,112,,181,162,32,15,4,4,0.8,1
2025-05-21T2300,3697A,116.84,40.3844,北京市,密云镇,颗粒物(PM10),70,90,94,38,46,74,,153,140,39,15,7,9,0.6,0.8
2025-05-21T2300,4182A,116.1942,39.9158,北京市,八角北路9号,颗粒物(PM10),77,103,104,43,50,123,,186,168,34,20,5,5,0.7,0.9
2025-05-21T2300,4194A,117.0790,40.1518,北京市,洳河巡河路,颗粒物(PM10),65,80,140,41,69,82,,161,125,17,15,4,3,0.6,1
2025-05-21T2300,1761A,123.8275,41.3064,本溪市,大峪,颗粒物(PM10),55,59,59,36,33,88,,137,119,14,17,5,6,0.7,0.8
2025-05-21T2300,1762A,123.7567,41.3325,本溪市,溪湖,颗粒物(PM10),56,62,71,39,35,111,,141,131,12,19,6,6,0.6,0.8
2025-05-21T2300,1763A,123.7169,41.3094,本溪市,彩屯,细颗粒物(PM2.5),65,76,64,47,36,72,,138,114,38,29,13,11,1.0,0.9
2025-05-21T2300,1764A,123.7669,41.2864,本溪市,东明,颗粒物(PM10),56,61,61,38,30,70,,135,118,35,20,7,7,0.9,0.9
2025-05-21T2300,1765A,123.7992,41.2664,本溪市,新立屯,细颗粒物(PM2.5),54,53,55,38,38,35,,134,100,59,24,5,5,0.7,0.8
2025-05-21T2300,1766A,123.8142,41.3472,本溪市,威宁,细颗粒物(PM2.5),73,84,72,53,40,42,,136,109,58,31,5,6,0.7,0.8
2025-05-21T2300,2587A,105.2864,27.3125,毕节市,八中,,49,44,37,34,32,51,,101,84,19,11,6,7,0.7,0.6
2025-05-21T2300,2588A,105.31,27.2944,毕节市,师专,颗粒物(PM10),51,52,43,32,27,78,,100,93,13,14,7,8,0.4,0.5
2025-05-21T2300,4263A,105.3688,27.3598,毕节市,工业大道,,42,42,38,28,27,50,,97,81,15,17,6,6,0.8,0.8
2025-05-21T2300,1629A,118.0018,37.3617,滨州市,第二水厂,颗粒物(PM10),51,51,84,27,27,116,,135,119,14,28,7,8,0.2,0.5
2025-05-21T2300,1630A,117.9776,37.393,滨州市,北中新校,颗粒物(PM10),51,51,61,31,29,113,,133,116,13,23,5,24,0.5,0.5
2025-05-21T2300,3514A,117.9378,37.3956,滨州市,中海酒店,细颗粒物(PM2.5),62,48,70,44,36,131,,150,135,10,19,8,9,0.6,0.7
2025-05-21T2300,3515A,117.9378,37.3553,滨州市,开发区一中,颗粒物(PM10),65,80,69,29,35,100,,130,106,24,28,3,8,0.5,0.7
2025-05-21T2300,3516A,118.0917,37.694,滨州市,金海六路,"颗粒物(PM10),细颗粒物(PM2.5)",62,73,56,44,28,128,,146,132,16,15,5,10,0.6,0.4
2025-05-21T2300,4028A,117.9956,37.3753,滨州市,滨州市西街道办事处,细颗粒物(PM2.5),58,51,65,41,35,127,,152,130,14,20,6,7,0.3,0.4
2025-05-21T2300,2311A,115.8072,33.8399,亳州市,污水处理厂,颗粒物(PM10),53,56,48,35,30,105,,160,130,7,8,2,3,0.5,0.6
2025-05-21T2300,2312A,115.7789,33.8518,亳州市,三国揽胜宫,颗粒物(PM10),51,51,51,3,32,126,,161,141,11,9,5,5,0.4,0.4
2025-05-21T2300,3332A,115.7633,33.8034,亳州市,亳州学院,,46,46,40,31,29,121,,162,145,10,9,3,2,0.4,0.5
2025-05-21T2300,2693A,82.0485,44.8556,博尔塔拉蒙古自治州,市党校,,,26,22,16,11,91,,113,110,17,7,,10,0.2,0.4
2025-05-21T2300,2694A,82.0806,44.8969,博尔塔拉蒙古自治州,市环保局,颗粒物(PM10),55,59,34,17,11,64,,111,106,26,10,9,8,0.6,0.5
2025-05-21T2300,1071A,116.8842,38.2991,沧州市,沧县城建局,细颗粒物(PM2.5),78,86,78,57,36,86,,122,114,36,17,2,4,0.3,0.3
2025-05-21T2300,1072A,116.8584,38.3254,沧州市,电视转播站,细颗粒物(PM2.5),70,86,71,51,34,65,,125,112,45,17,5,5,0.4,0.4
2025-05-21T2300,1073A,116.8709,38.3228,沧州市,市环保局,细颗粒物(PM2.5),79,86,84,58,42,93,,132,121,29,14,2,2,0.7,0.4
2025-05-21T2300,3324A,116.8136,38.3004,沧州市,河北水利电力学院,细颗粒物(PM2.5),67,80,79,48,32,100,,131,128,38,18,7,7,0.6,0.4
2025-05-21T2300,2622A,97.1806,31.1273,昌都市,昌都监测站,,,,10,,7,,,82,,,5,,4,,0.2
2025-05-21T2300,3719A,97.1714,31.1406,昌都市,昌都会议中心,,26,18,12,13,8,81,,118,106,5,5,4,4,0.2,0.2
2025-05-21T2300,2690A,88.1236,43.8886,昌吉回族自治州,天山天池,,22,22,7,6,4,48,,89,70,5,5,5,6,0.5,0.5
2025-05-21T2300,2692A,87.2717,44.0297,昌吉回族自治州,新区政务中心,,31,15,12,3,5,97,,126,123,21,7,8,7,0.5,0.3
2025-05-21T2300,3613A,87.3095,44.0142,昌吉回族自治州,亚心广场,,34,34,17,12,3,79,,120,116,33,12,8,8,0.4,0.3
2025-05-21T2300,1119A,125.3325,43.9166,长春市,食品厂,,50,50,47,32,31,18,,90,64,59,42,7,5,0.5,0.5
2025-05-21T2300,1120A,125.2863,43.9027,长春市,客车厂,细颗粒物(PM2.5),54,43,46,38,32,10,,92,62,63,42,6,5,0.6,0.5
2025-05-21T2300,1121A,125.2841,43.8463,长春市,邮电学院,,48,42,36,33,30,30,,98,78,41,26,6,6,0.4,0.4
2025-05-21T2300,1122A,125.3716,43.8772,长春市,劳动公园,,,,44,36,30,24,,96,79,36,31,7,6,0.4,0.4
2025-05-21T2300,1123A,125.3297,43.8805,长春市,园林处,,33,33,43,17,28,37,,95,76,31,32,7,8,0.4,0.5
2025-05-21T2300,1124A,125.4605,43.79,长春市,净月潭,,31,31,32,20,23,45,,103,85,20,10,6,6,0.4,0.3
2025-05-21T2300,1125A,125.7194,43.515,长春市,甩湾子,,,,,,,,,,,,,,,,
2025-05-21T2300,1126A,125.3863,43.8447,长春市,经开区环卫处,颗粒物(PM10),55,59,57,23,24,37,,95,76,26,28,6,6,0.3,0.4
2025-05-21T2300,1127A,125.245,43.7783,长春市,高新区管委会,颗粒物(PM10),54,57,42,31,28,37,,100,80,36,30,7,6,0.4,0.4
2025-05-21T2300,1128A,125.1761,43.8325,长春市,岱山公园,,43,43,42,26,32,14,,104,76,64,38,5,5,0.6,0.4
2025-05-21T2300,1335A,113.0833,28.2325,长沙市,经开区环保局,,29,29,24,13,14,47,,103,80,15,14,5,5,0.6,0.6
2025-05-21T2300,1336A,112.8872,28.2189,长沙市,高开区环保局,,33,31,22,23,13,50,,87,80,8,5,5,4,0.6,0.6
2025-05-21T2300,1337A,113.0792,28.2053,长沙市,马坡岭,,31,31,25,16,14,47,,99,78,14,10,5,4,0.4,0.4
2025-05-21T2300,1338A,112.9394,28.19,长沙市,湖南师范大学,,31,31,28,14,11,50,,88,75,11,8,7,6,0.3,0.3
2025-05-21T2300,1339A,113.0178,28.1322,长沙市,雨花区环保局,,23,23,23,11,10,53,,94,77,7,6,5,6,0.8,0.8
2025-05-21T2300,1340A,112.9792,28.2597,长沙市,伍家岭,,29,29,27,16,12,48,,90,75,13,12,3,3,0.6,0.6
2025-05-21T2300,1341A,113.0014,28.1944,长沙市,火车新站,,29,29,26,9,11,47,,86,70,11,11,7,7,0.5,0.5
2025-05-21T2300,1342A,112.9844,28.1178,长沙市,天心区环保局,,,,23,,11,,,92,82,11,10,3,3,0.5,0.6
2025-05-21T2300,1343A,112.8908,28.1308,长沙市,湖南中医药大学,,33,33,28,12,14,34,,83,65,24,11,3,3,0.4,0.6
2025-05-21T2300,1344A,112.9581,28.3611,长沙市,沙坪,,25,25,22,3,9,53,,100,85,13,10,3,3,0.6,0.5
2025-05-21T2300,1727A,113.1147,36.1547,长治市,清华站,细颗粒物(PM2.5),70,83,87,51,38,161,,206,180,13,20,6,11,0.9,0.9
2025-05-21T2300,1730A,113.0886,36.2125,长治市,审计局,细颗粒物(PM2.5),73,79,76,53,62,164,,213,182,12,24,10,13,0.8,0.8
2025-05-21T2300,1731A,113.0844,36.1856,长治市,长治八中,细颗粒物(PM2.5),97,104,101,72,58,170,,184,182,12,23,10,14,0.9,0.8
2025-05-21T2300,2845A,113.1569,36.1911,长治市,德盛苑,细颗粒物(PM2.5),67,78,76,48,43,156,,189,170,10,15,6,11,1.0,1.4
2025-05-21T2300,3568A,113.06,36.0464,长治市,向阳小学,细颗粒物(PM2.5),104,117,110,78,53,130,,201,165,18,18,5,9,1.8,0.9
2025-05-21T2300,3569A,112.8792,36.3144,长治市,屯留一中,细颗粒物(PM2.5),98,81,63,73,43,138,,209,182,22,24,13,14,0.5,0.5
2025-05-21T2300,4189A,113.1131,36.19948,长治市,英华南巷50号,细颗粒物(PM2.5),77,85,89,56,43,158,,200,175,9,19,6,13,1.1,1.3
2025-05-21T2300,4190A,113.2367,36.3344,长治市,学府街1号,细颗粒物(PM2.5),93,106,116,69,57,161,,232,198,19,46,4,11,1.0,1.2
2025-05-21T2300,1854A,111.6975,28.9703,常德市,市二中,,22,22,23,15,16,62,,73,67,8,9,5,5,1.0,1
2025-05-21T2300,1857A,111.7158,29.1456,常德市,白鹤山,,,,,,,,,,,,,,,,
2025-05-21T2300,3138A,111.7153,29.0289,常德市,武陵区永安,,23,23,24,16,17,57,,76,67,10,8,6,6,0.6,0.6
2025-05-21T2300,3139A,111.6892,28.9881,常德市,鼎城区玉霞,,20,20,25,12,14,61,,77,69,8,10,3,4,0.4,0.4
2025-05-21T2300,3140A,111.6625,29.0531,常德市,武陵区长庚,,21,21,24,13,16,66,,79,73,6,7,8,8,0.6,0.7
2025-05-21T2300,1196A,119.9633,31.762,常州市,市监测站,颗粒物(PM10),51,52,29,26,15,73,,108,99,26,20,8,8,1.3,0.9
2025-05-21T2300,1200A,119.9468,31.7069,常州市,武进监测站,颗粒物(PM10),55,60,31,28,11,54,,122,113,29,20,15,8,0.9,0.8
2025-05-21T2300,1201A,119.9255,31.9087,常州市,安家,颗粒物(PM10),59,68,28,32,14,28,,96,71,73,24,12,13,0.5,0.3
2025-05-21T2300,3002A,119.9805,31.8174,常州市,行政中心,,39,38,23,27,12,49,,103,91,46,21,9,10,0.9,0.5
2025-05-21T2300,3003A,120.0522,31.7748,常州市,经开区,,35,33,26,24,13,51,,114,100,46,24,7,5,0.6,0.6
2025-05-21T2300,3010A,119.9025,31.7964,常州市,钟楼,颗粒物(PM10),52,54,24,23,12,72,,93,,26,17,8,6,0.9,0.7
2025-05-21T2300,3429A,119.8598,31.7066,常州市,武进经发区,颗粒物(PM10),52,54,24,30,11,47,,111,98,42,18,12,8,0.9,0.8
2025-05-21T2300,3430A,119.5826,31.7245,常州市,金坛城区,颗粒物(PM10),60,70,33,22,15,97,,122,119,16,15,8,9,0.5,0.5
2025-05-21T2300,2220A,120.4318,41.5881,朝阳市,西梁,细颗粒物(PM2.5),82,89,60,60,39,43,,132,107,57,21,12,10,0.6,0.4
2025-05-21T2300,2221A,120.4521,41.5646,朝阳市,河畔小区,细颗粒物(PM2.5),78,78,51,57,33,61,,132,113,38,16,10,11,0.6,0.5
2025-05-21T2300,2222A,120.4176,41.5648,朝阳市,八里堡,颗粒物(PM10),82,114,75,57,32,55,,128,105,37,18,11,9,0.6,0.5
2025-05-21T2300,2223A,120.3806,41.5969,朝阳市,农业园区,细颗粒物(PM2.5),94,70,55,70,41,62,,129,106,31,20,8,9,0.4,0.4
2025-05-21T2300,1705A,116.6367,23.6719,潮州市,西园路,,35,35,40,18,27,19,,56,43,22,22,7,5,0.7,0.4
2025-05-21T2300,3026A,116.6183,23.6608,潮州市,市政府,,44,44,32,17,15,21,,74,49,20,14,9,6,0.8,0.7
2025-05-21T2300,4036A,116.6461,23.6761,潮州市,金山,,39,39,33,26,17,20,,78,50,21,12,10,7,0.9,0.7
2025-05-21T2300,2472A,113.0073,25.9061,郴州市,马头岭,,,13,18,3,8,33,,50,39,,5,7,9,0.2,0.2
2025-05-21T2300,2473A,113.0116,25.8226,郴州市,市职中,,18,13,16,12,11,44,,55,47,5,5,3,6,0.5,0.5
2025-05-21T2300,2475A,113.0383,25.8071,郴州市,市审计局,,13,13,14,6,8,35,,58,50,11,5,14,4,0.4,0.4
2025-05-21T2300,2476A,113.0348,25.7759,郴州市,市环保局,,20,20,16,10,12,42,,57,50,10,5,11,5,0.4,0.4
2025-05-21T2300,4252A,113.0138,25.8011,郴州市,好美居路49号,,14,6,17,3,11,44,,60,48,6,5,6,8,0.5,0.4
2025-05-21T2300,1431A,103.9728,30.7236,成都市,金泉两河,细颗粒物(PM2.5),73,75,94,53,64,62,,193,122,32,32,8,9,0.6,0.7
2025-05-21T2300,1432A,104.176,30.6872,成都市,十里店,细颗粒物(PM2.5),74,90,97,54,58,81,,234,167,31,42,13,7,0.7,0.8
2025-05-21T2300,1433A,104.079,30.5706,成都市,三瓦窑,细颗粒物(PM2.5),73,82,92,53,59,60,,193,136,48,51,6,7,0.9,0.9
2025-05-21T2300,1434A,104.1114,30.63,成都市,沙河铺,颗粒物(PM10),54,58,84,36,54,63,,188,137,40,43,8,8,1.0,1.1
2025-05-21T2300,1437A,104.0786,30.6531,成都市,君平街,细颗粒物(PM2.5),77,86,97,56,65,61,,174,122,41,42,12,10,0.9,0.9
2025-05-21T2300,1438A,103.613,31.0283,成都市,灵岩寺,,,,,,,,,,,,,,,,
2025-05-21T2300,2880A,104.0239,30.65639,成都市,大石西路,细颗粒物(PM2.5),74,89,96,54,64,62,,183,125,47,47,8,6,0.8,0.9
2025-05-21T2300,3136A,104.2725,30.5589,成都市,龙泉驿区区政府,细颗粒物(PM2.5),70,88,70,51,42,126,,212,187,24,23,8,6,0.8,0.7
2025-05-21T2300,3357A,104.0106,30.6931,成都市,金博路,细颗粒物(PM2.5),77,71,93,56,59,56,,188,118,45,51,12,11,0.7,0.8
2025-05-21T2300,3359A,104.0578,30.5225,成都市,华阳,细颗粒物(PM2.5),73,85,81,53,56,74,,181,143,33,39,8,8,0.8,0.7
2025-05-21T2300,3488A,104.3853,30.7453,成都市,青白江技师分院,细颗粒物(PM2.5),92,118,93,68,55,42,,248,162,102,49,15,8,0.8,0.8
2025-05-21T2300,3489A,104.0789,30.4072,成都市,科学城,细颗粒物(PM2.5),65,78,72,47,47,87,,197,164,26,30,7,6,0.8,0.8
2025-05-21T2300,4011A,103.8506,30.6947,成都市,光华大道三段,细颗粒物(PM2.5),133,,87,101,66,61,,157,113,28,25,16,8,1.0,0.9
2025-05-21T2300,4224A,104.2433,30.5353,成都市,鲸龙路1057号,细颗粒物(PM2.5),88,109,81,65,50,97,,209,178,69,44,10,8,0.9,0.8
2025-05-21T2300,1062A,117.9531,40.9081,承德市,铁路,细颗粒物(PM2.5),59,54,65,42,33,84,,134,120,17,12,3,4,0.2,0.3
2025-05-21T2300,1063A,117.9392,40.9763,承德市,中国银行,细颗粒物(PM2.5),62,51,59,44,32,63,,132,111,15,7,3,2,0.2,0.3
2025-05-21T2300,1064A,117.9503,40.928,承德市,开发区,细颗粒物(PM2.5),64,48,65,46,38,87,,136,123,12,10,1,2,0.4,0.5
2025-05-21T2300,1065A,117.8051,40.9655,承德市,文化中心,颗粒物(PM10),60,70,69,29,30,64,,133,111,33,12,5,2,0.3,0.3
2025-05-21T2300,1066A,117.9268,41.0026,承德市,离宫,细颗粒物(PM2.5),72,54,59,52,43,69,,126,104,12,7,2,2,0.3,0.3
2025-05-21T2300,2314A,117.47,30.6618,池州市,池州学院,,29,26,20,20,12,28,,90,74,15,6,4,6,0.7,0.7
2025-05-21T2300,3237A,117.4918,30.6617,池州市,展览馆,,28,28,20,16,10,21,,88,70,13,7,4,4,0.6,0.6
2025-05-21T2300,3333A,117.5627,30.695,池州市,第八中学,,27,27,19,15,10,28,,96,78,19,6,4,6,0.4,0.5
2025-05-21T2300,3334A,117.5038,30.6243,池州市,第十二中学,,25,25,20,17,13,23,,94,67,15,9,2,3,0.8,0.7
2025-05-21T2300,1744A,118.9233,42.2816,赤峰市,松山一中,细颗粒物(PM2.5),90,93,43,67,35,61,,130,104,42,24,8,8,0.7,0.5
2025-05-21T2300,1745A,118.9576,42.2728,赤峰市,哈达街,细颗粒物(PM2.5),110,115,48,83,33,62,,109,88,38,29,7,7,0.6,0.4
2025-05-21T2300,1746A,118.8788,42.2554,赤峰市,天义路,细颗粒物(PM2.5),99,,29,74,35,58,,130,113,45,17,7,8,0.8,0.5
2025-05-21T2300,3058A,119.2658,42.0353,赤峰市,银河街,细颗粒物(PM2.5),99,110,79,74,47,77,,116,105,15,12,15,18,0.6,0.5
2025-05-21T2300,3286A,118.9359,42.3147,赤峰市,桥北物流园区,细颗粒物(PM2.5),94,91,48,70,43,45,,118,99,64,21,7,8,0.7,0.5
2025-05-21T2300,2521A,107.3476,22.4136,崇左市,市环保局江州分局,,20,20,35,10,16,23,,80,57,16,10,5,6,0.3,0.3
2025-05-21T2300,4256A,107.3750,22.3736,崇左市,石景林东路7号,,16,15,30,11,15,35,,84,62,10,10,3,2,0.5,0.5
2025-05-21T2300,2298A,118.3093,32.3153,滁州市,老年大学,细颗粒物(PM2.5),62,57,36,44,21,16,,89,44,33,16,2,2,0.8,0.4
2025-05-21T2300,2299A,118.3244,32.2786,滁州市,人大宾馆,细颗粒物(PM2.5),78,,24,57,23,33,,97,56,30,15,9,9,1.0,0.4
2025-05-21T2300,3207A,118.3118,32.3038,滁州市,市政府原办公楼,细颗粒物(PM2.5),74,58,28,54,26,22,,102,46,32,10,4,4,1.2,0.5
2025-05-21T2300,3331A,118.3267,32.2634,滁州市,图书馆,颗粒物(PM10),60,70,29,39,20,39,,94,53,24,11,8,8,0.9,0.4
2025-05-21T2300,2605A,101.5482,25.0441,楚雄彝族自治州,州环境监测站,,32,16,24,14,15,101,,120,109,8,9,7,7,0.4,0.4
2025-05-21T2300,2606A,101.538,25.0492,楚雄彝族自治州,市经济开发区,,47,47,26,16,16,96,,116,104,9,9,6,6,0.4,0.4
2025-05-21T2300,2548A,107.5277,31.2827,达州市,达州职业技术学院,颗粒物(PM10),59,67,84,31,45,21,,143,87,50,26,7,11,0.9,0.8
2025-05-21T2300,2549A,107.5086,31.2186,达州市,市环境监测站,颗粒物(PM10),59,67,75,34,41,38,,145,98,44,32,7,10,0.5,0.6
2025-05-21T2300,2550A,107.4988,31.2132,达州市,凤凰小区,细颗粒物(PM2.5),58,58,75,41,46,41,,143,96,40,28,8,11,0.6,0.6
2025-05-21T2300,2551A,107.5082,31.1986,达州市,达县机关宾馆,颗粒物(PM10),62,73,78,28,37,24,,144,85,56,34,6,9,0.5,0.5
2025-05-21T2300,2552A,107.4644,31.2124,达州市,市政中心,颗粒物(PM10),60,69,83,34,45,30,,135,89,47,31,4,5,0.6,0.7
2025-05-21T2300,2614A,100.1542,25.7054,大理白族自治州,大理市环境监测站,,38,,21,26,21,89,,96,94,7,7,7,7,0.3,0.3
2025-05-21T2300,2615A,100.2171,25.5811,大理白族自治州,大理古城,,42,,23,29,15,85,,109,90,13,9,8,8,0.6,0.6
2025-05-21T2300,1109A,121.612,38.9741,大连市,甘井子,细颗粒物(PM2.5),60,60,40,43,24,113,,116,100,30,26,2,2,0.3,0.4
2025-05-21T2300,1110A,121.565,38.9511,大连市,周水子,颗粒物(PM10),66,82,52,45,27,90,,120,101,33,21,10,7,0.5,0.5
2025-05-21T2300,1111A,121.5637,38.8845,大连市,星海三站,细颗粒物(PM2.5),63,63,75,45,26,95,,100,83,20,15,6,3,0.6,0.5
2025-05-21T2300,1112A,121.6302,38.9117,大连市,青泥洼桥,细颗粒物(PM2.5),65,70,45,47,27,105,,118,92,32,25,10,7,0.5,0.6
2025-05-21T2300,1113A,121.6251,38.8638,大连市,傅家庄,,,81,35,42,21,110,,107,95,24,17,,8,0.4,0.2
2025-05-21T2300,1114A,121.5213,38.8661,大连市,七贤岭,颗粒物(PM10),68,85,50,46,26,117,,113,96,17,19,6,6,0.7,0.6
2025-05-21T2300,1115A,121.2529,38.8061,大连市,旅顺,细颗粒物(PM2.5),62,45,32,44,26,123,,129,129,16,12,9,10,0.4,0.3
2025-05-21T2300,1116A,121.7485,39.1311,大连市,金州,细颗粒物(PM2.5),63,65,42,45,29,120,,124,120,17,17,8,7,0.4,0.4
2025-05-21T2300,1117A,121.7811,39.0496,大连市,开发区,细颗粒物(PM2.5),59,53,39,42,24,124,,102,92,14,20,10,7,0.6,0.6
2025-05-21T2300,1118A,121.9762,39.0631,大连市,双D港,颗粒物(PM10),70,90,23,43,16,122,,103,87,12,8,10,7,0.4,0.3
2025-05-21T2300,1789A,124.81117,46.03138,大庆市,大同区,,27,27,28,17,24,45,,72,63,16,10,4,4,0.3,0.4
2025-05-21T2300,1790A,125.129,46.533,大庆市,龙凤区,,48,48,41,26,26,19,,69,47,46,20,6,6,0.5,0.4
2025-05-21T2300,1791A,124.902,46.408,大庆市,红岗区,,33,27,29,23,20,51,,78,65,10,9,6,7,0.2,0.3
2025-05-21T2300,1792A,125.153,46.586,大庆市,萨尔图区,,39,39,45,14,21,24,,59,41,36,22,6,6,0.5,0.4
2025-05-21T2300,1793A,124.9042,46.6215,大庆市,让胡路区,,42,31,34,29,29,26,,65,49,29,17,7,6,0.3,0.3
2025-05-21T2300,3481A,125.141,46.634,大庆市,萨区政府监测点,,31,31,34,3,9,23,,69,54,30,13,5,5,0.6,0.5
2025-05-21T2300,1721A,113.3819,40.1097,大同市,果树场,,,,,,,,,,,,,,,,
2025-05-21T2300,1723A,113.2994,40.0758,大同市,云冈宾馆,,30,26,40,3,12,93,,137,119,16,14,4,8,0.3,0.6
2025-05-21T2300,1724A,113.3444,40.0917,大同市,大同大学,,29,21,40,3,13,92,,137,119,16,20,6,11,0.3,0.8
2025-05-21T2300,1725A,113.2661,40.1269,大同市,安家小村,,27,26,57,3,18,84,,126,110,12,13,6,10,0.4,0.7
2025-05-21T2300,1726A,113.2711,40.0844,大同市,教育学院,,30,25,52,3,17,96,,132,116,10,13,6,9,0.0,0.3
2025-05-21T2300,3282A,113.3397,40.0597,大同市,大同市卫生学校,,,29,46,3,13,,,122,112,,13,8,11,0.3,0.9
2025-05-21T2300,3565A,113.1367,40.1122,大同市,云冈站,,25,21,51,11,25,79,,122,106,9,12,8,9,0.4,0.5
2025-05-21T2300,3566A,113.1186,40.2556,大同市,图书馆,,24,19,41,10,14,74,,113,99,11,8,11,9,0.9,1
2025-05-21T2300,3567A,113.5931,40.0461,大同市,区一中,,31,15,50,9,18,99,,127,116,8,12,10,11,0.4,0.5
2025-05-21T2300,4199A,113.2798,40.0997,大同市,魏都大道141号,,30,21,72,6,15,94,,125,111,8,15,5,9,0.5,0.7
2025-05-21T2300,2269A,124.1069,50.4097,大兴安岭地区,科技局,,25,18,18,17,11,53,,67,63,3,3,6,6,0.2,0.1
2025-05-21T2300,3663A,124.1164,50.4278,大兴安岭地区,红旗社区,,15,12,6,10,5,32,,67,57,10,4,3,2,0.4,0.3
2025-05-21T2300,1600A,124.3303,40.0625,丹东市,江湾东路,细颗粒物(PM2.5),65,49,25,47,14,110,,85,74,9,11,6,6,0.5,0.6
2025-05-21T2300,1601A,124.4256,40.1503,丹东市,临江后街,细颗粒物(PM2.5),60,56,22,43,9,102,,77,77,11,15,7,7,0.6,0.7
2025-05-21T2300,1602A,124.3933,40.1461,丹东市,元宝山,颗粒物(PM10),59,68,22,37,12,105,,73,71,6,9,7,8,0.4,0.4
2025-05-21T2300,1603A,124.3633,40.1092,丹东市,民主桥,细颗粒物(PM2.5),54,49,25,38,14,105,,83,62,11,16,6,7,0.6,0.7
2025-05-21T2300,3541A,109.5726,19.5167,儋州市,第一中学子站,,29,29,18,15,11,44,,58,58,10,4,13,7,0.7,0.6
2025-05-21T2300,3542A,109.5567,19.5187,儋州市,东坡学校子站,,32,32,16,14,9,45,,60,60,6,4,4,5,0.5,0.4
2025-05-21T2300,2616A,98.5842,24.428,德宏傣族景颇族自治州,德宏州监测站,,47,47,40,30,28,44,,82,72,16,15,6,8,0.8,0.7
2025-05-21T2300,3677A,98.5881,24.4368,德宏傣族景颇族自治州,芒市人民政府综合楼,,50,50,47,25,26,45,,95,82,15,13,6,7,0.7,0.6
2025-05-21T2300,1901A,104.4239,31.1208,德阳市,东山公园,"颗粒物(PM10),细颗粒物(PM2.5)",62,74,94,44,56,126,,198,160,12,22,5,11,1.0,1.1
2025-05-21T2300,1902A,104.3826,31.1317,德阳市,西小区,颗粒物(PM10),67,83,112,30,37,133,,222,170,18,41,6,10,0.9,1.1
2025-05-21T2300,1904A,104.3553,31.1091,德阳市,耐火材料厂,细颗粒物(PM2.5),67,82,123,48,68,114,,209,153,22,44,11,14,0.6,0.8
2025-05-21T2300,3639A,104.4019,31.1244,德阳市,市教育局,,,80,97,65,57,128,,218,173,2,33,,11,0.8,0.9
2025-05-21T2300,1622A,116.3032,37.4674,德州市,儿童乐园,颗粒物(PM10),54,58,77,29,35,106,,143,125,12,12,9,9,0.3,0.7
2025-05-21T2300,1624A,116.2991,37.4451,德州市,监理站,颗粒物(PM10),59,68,75,29,32,116,,152,133,10,11,9,9,0.2,0.4
2025-05-21T2300,3066A,116.2721,37.4379,德州市,九衢泉纯净水厂,,46,46,78,27,33,112,,141,128,12,15,9,7,0.4,0.7
2025-05-21T2300,3371A,116.3728,37.4403,德州市,开发区人民医院,,48,48,74,29,31,103,,153,129,18,13,11,9,0.5,0.8
2025-05-21T2300,3372A,116.3572,37.4094,德州市,太阳城中学,颗粒物(PM10),56,61,80,14,34,112,,149,131,14,18,8,7,0.2,0.6
2025-05-21T2300,3511A,116.5652,37.3319,德州市,陵城艺术中心,,48,48,80,19,29,106,,150,131,9,11,6,10,0.4,0.6
2025-05-21T2300,2621A,99.7056,27.8317,迪庆藏族自治州,迪庆州站,,31,29,18,17,12,97,,116,108,8,7,5,5,0.7,0.6
2025-05-21T2300,3180A,99.7136,27.8094,迪庆藏族自治州,质量技术监督局,,31,20,19,16,8,97,,114,106,8,8,5,4,0.5,0.5
2025-05-21T2300,4257A,104.6092,35.5962,定西市,将台街,颗粒物(PM10),59,68,74,38,34,93,,146,118,5,31,5,5,0.0,0.1
2025-05-21T2300,4309A,104.6159,35.5701,定西市,正龙路62号,细颗粒物(PM2.5),53,42,74,37,31,91,,139,110,7,13,6,8,0.2,0.3
2025-05-21T2300,1389A,113.7547,23.0494,东莞市,莞城梨川,,25,25,19,12,12,42,,75,51,9,9,7,7,0.4,0.4
2025-05-21T2300,1390A,113.7944,23.0128,东莞市,东城石井,,18,18,18,9,9,30,,65,44,14,11,2,2,0.4,0.4
2025-05-21T2300,1391A,113.7383,22.9658,东莞市,南城西平,,20,20,18,8,10,42,,75,50,10,10,1,1,0.4,0.5
2025-05-21T2300,3319A,113.7338,23.0381,东莞市,万江金泰,,,26,17,10,6,,,65,44,11,10,2,2,0.7,0.7
2025-05-21T2300,3626A,113.7533,23.0202,东莞市,南城元岭,,18,15,17,12,11,38,,70,47,12,11,4,4,0.5,0.5
2025-05-21T2300,3627A,113.7875,23.0457,东莞市,东城主山,,23,23,21,11,10,31,,71,43,11,8,5,5,0.5,0.5
2025-05-21T2300,1666A,118.6614,37.4309,东营市,市环保局,细颗粒物(PM2.5),58,58,63,41,30,138,,141,139,13,38,5,11,0.4,0.5
2025-05-21T2300,3036A,118.6904,37.4338,东营市,开发区管委会,颗粒物(PM10),63,76,75,34,28,153,,154,153,14,12,5,8,0.5,0.6
2025-05-21T2300,3365A,118.5719,37.565,东营市,垦利区民丰路,细颗粒物(PM2.5),58,58,67,41,29,144,,140,140,17,21,6,7,0.7,0.8
2025-05-21T2300,3498A,118.5055,37.8612,东营市,河口城区,细颗粒物(PM2.5),64,66,59,46,26,128,,134,132,16,19,8,9,1.0,0.9
2025-05-21T2300,3646A,118.4978,37.4623,东营市,胜利站,颗粒物(PM10),53,56,72,36,30,144,,139,138,14,20,8,9,0.6,0.8
2025-05-21T2300,3734A,118.35,37.26,东营市,理想之城,细颗粒物(PM2.5),55,56,70,39,33,145,,144,142,28,24,4,5,0.5,0.6
2025-05-21T2300,1591A,110.0023,39.8129,鄂尔多斯市,综合楼,颗粒物(PM10),95,139,86,63,28,84,,129,115,16,18,10,10,0.2,0.2
2025-05-21T2300,1592A,109.9486,39.8261,鄂尔多斯市,巴音孟克林场办事处,颗粒物(PM10),152,254,96,31,19,86,,134,120,17,17,7,8,0.4,0.4
2025-05-21T2300,1593A,109.7736,39.5986,鄂尔多斯市,康泽苑,颗粒物(PM10),71,92,68,44,29,100,,134,123,12,14,12,12,0.2,0.3
2025-05-21T2300,1594A,109.8119,39.5989,鄂尔多斯市,华泰汽车城,颗粒物(PM10),74,97,76,14,20,96,,127,117,12,18,6,5,0.3,0.3
2025-05-21T2300,1595A,109.9734,39.7884,鄂尔多斯市,奥林花园,颗粒物(PM10),74,97,73,36,22,92,,132,120,16,16,8,8,0.6,0.6
2025-05-21T2300,2436A,114.8938,30.3994,鄂州市,市政府,,38,38,27,26,14,83,,139,125,24,15,10,9,0.3,0.2
2025-05-21T2300,2437A,114.8989,30.3714,鄂州市,赵家坝,,42,42,26,19,9,75,,128,115,26,14,8,7,0.9,0.7
2025-05-21T2300,3654A,114.8094,30.4089,鄂州市,精准医疗中心,,30,30,26,16,9,73,,120,112,14,14,7,11,0.9,1.1
2025-05-21T2300,2454A,109.4978,30.2981,恩施土家族苗族自治州,湖北民院,颗粒物(PM10),53,56,45,36,32,38,,115,85,19,9,7,6,0.3,0.7
2025-05-21T2300,2455A,109.4707,30.2798,恩施土家族苗族自治州,州电力总公司,细颗粒物(PM2.5),58,50,38,41,31,28,,104,68,24,12,8,7,0.5,0.5
2025-05-21T2300,3549A,109.5061,30.3772,恩施土家族苗族自治州,龙凤新区,颗粒物(PM10),53,56,47,23,30,21,,110,60,12,10,6,6,0.4,0.4
2025-05-21T2300,2499A,108.3411,21.6158,防城港市,沙万,,24,24,33,10,11,20,,49,37,16,10,1,1,0.4,0.9
2025-05-21T2300,2500A,108.3514,21.7731,防城港市,防城档案局,,26,26,22,3,10,23,,45,38,7,5,2,2,0.5,0.5
2025-05-21T2300,2501A,108.3506,21.6414,防城港市,大海花园,,26,26,22,7,9,26,,56,44,10,6,2,2,0.5,0.4
2025-05-21T2300,1371A,113.1294,23.0067,佛山市,湾梁,,24,24,21,9,10,23,,68,30,16,17,7,7,0.5,0.5
2025-05-21T2300,1372A,113.1083,23.0478,佛山市,华材职中,,17,17,22,11,11,31,,80,34,16,17,5,5,0.3,0.3
2025-05-21T2300,1373A,113.144,23.0453,佛山市,南海气象局,,30,30,31,13,14,26,,74,31,13,16,2,1,0.4,0.5
2025-05-21T2300,1374A,113.2881,22.8094,佛山市,顺德苏岗,,23,23,23,12,10,26,,61,36,13,11,6,6,0.6,0.6
2025-05-21T2300,1376A,112.8383,22.8678,佛山市,高明孔堂,,24,24,24,14,13,29,,55,31,7,6,5,5,0.5,0.6
2025-05-21T2300,1377A,112.8836,23.1588,佛山市,三水监测站,颗粒物(PM10),53,56,30,17,16,0,,43,10,55,31,4,2,0.8,0.6
2025-05-21T2300,1378A,112.867,23.185,佛山市,三水云东海,颗粒物(PM10),51,52,39,30,17,0,,61,11,44,28,3,2,0.7,0.5
2025-05-21T2300,3625A,113.2544,22.7642,佛山市,容桂街道办,,25,17,17,17,14,28,,55,34,15,14,5,5,0.7,0.7
2025-05-21T2300,1280A,119.3903,26.0543,福州市,鼓山,,,,23,,13,,,71,,,5,,3,,0.2
2025-05-21T2300,1282A,119.2681,26.0504,福州市,师大,,13,13,27,8,11,34,,92,74,14,12,3,4,0.2,0.3
2025-05-21T2300,1283A,119.2984,26.1028,福州市,五四北路,,13,6,28,3,17,40,,96,76,14,18,3,4,0.3,0.5
2025-05-21T2300,1284A,119.2648,26.0768,福州市,杨桥西路,,14,12,35,3,15,42,,95,75,12,14,3,3,0.2,0.3
2025-05-21T2300,1285A,119.317,26.0746,福州市,紫阳,,16,10,31,8,14,28,,88,71,32,19,4,4,0.3,0.3
2025-05-21T2300,3048A,119.5799,26.0936,福州市,九龙,,15,14,30,3,17,47,,112,91,9,13,4,5,0.2,0.3
2025-05-21T2300,3526A,119.5189,25.9664,福州市,吴航,,17,8,24,3,15,52,,118,93,13,12,5,5,0.3,0.3
2025-05-21T2300,1755A,123.7977,41.8491,抚顺市,望花区,细颗粒物(PM2.5),85,82,48,63,35,36,,138,114,49,20,5,4,0.6,0.5
2025-05-21T2300,1756A,123.9161,41.8822,抚顺市,顺城区,颗粒物(PM10),77,104,56,53,34,7,,126,78,85,34,7,7,0.7,0.6
2025-05-21T2300,1757A,124.0436,41.8611,抚顺市,东洲区,细颗粒物(PM2.5),72,78,48,52,30,35,,128,98,58,20,8,7,0.5,0.5
2025-05-21T2300,1758A,123.9247,41.8642,抚顺市,新抚区,,,81,52,48,36,,,123,107,59,19,6,7,0.7,0.5
2025-05-21T2300,1759A,124.0972,41.8961,抚顺市,大伙房水库,细颗粒物(PM2.5),75,81,42,55,31,59,,132,113,46,19,8,9,0.6,0.6
2025-05-21T2300,1760A,123.7086,41.8391,抚顺市,沈抚新城,细颗粒物(PM2.5),75,66,44,55,36,36,,130,102,54,21,5,6,0.6,0.6
2025-05-21T2300,2376A,116.2127,28.0814,抚州市,桐源党溪,,36,33,29,25,13,23,,50,40,2,2,8,5,0.7,0.7
2025-05-21T2300,2377A,116.3544,27.9831,抚州市,市站,,22,22,21,14,10,30,,48,42,9,6,2,1,0.5,0.5
2025-05-21T2300,2378A,116.3565,27.963,抚州市,血防站,,29,29,24,17,10,27,,47,40,7,5,2,2,0.5,0.5
2025-05-21T2300,2379A,116.3564,28.0007,抚州市,采茶剧团,,22,22,21,11,9,33,,46,44,4,3,1,1,0.3,0.3
2025-05-21T2300,2380A,116.385,27.9647,抚州市,医学分院,,25,25,22,12,8,31,,53,47,4,3,4,4,0.4,0.4
2025-05-21T2300,2207A,121.6094,41.998,阜新市,工业园区,颗粒物(PM10),98,145,154,64,42,26,,134,107,58,19,9,11,0.6,0.6
2025-05-21T2300,2208A,121.6697,42.0279,阜新市,长青街,细颗粒物(PM2.5),95,78,66,71,44,39,,124,99,40,21,12,12,2.5,0.8
2025-05-21T2300,2209A,121.6673,42.0705,阜新市,农业园区,,,,,,,,,,,,,,,,
2025-05-21T2300,2210A,121.6717,42.0224,阜新市,东苑,细颗粒物(PM2.5),97,90,74,72,48,45,,134,104,46,19,16,14,2.4,0.8
2025-05-21T2300,2211A,121.6506,42.0498,阜新市,玉龙新城,颗粒物(PM10),138,226,119,56,41,49,,125,96,41,24,14,9,1.2,0.5
2025-05-21T2300,2301A,115.8277,32.8929,阜阳市,市监测站,颗粒物(PM10),67,83,47,40,24,90,,146,128,23,10,8,8,0.5,0.5
2025-05-21T2300,2303A,115.8554,32.8605,阜阳市,开发区,颗粒物(PM10),76,101,54,35,25,106,,101,,15,18,6,6,0.3,0.3
2025-05-21T2300,2875A,115.784,32.8892,阜阳市,阜阳职业技术学院,颗粒物(PM10),61,71,45,34,24,108,,155,142,16,7,5,5,0.4,0.4
2025-05-21T2300,3468A,115.7901,32.8613,阜阳市,市规划展馆,颗粒物(PM10),72,94,53,34,29,100,,143,127,17,8,7,6,0.4,0.4
2025-05-21T2300,3469A,115.836,32.9183,阜阳市,枣园社区,颗粒物(PM10),65,80,53,28,29,102,,146,130,16,9,6,4,0.3,0.3
2025-05-21T2300,2669A,102.9099,34.9841,甘南藏族自治州,州政府,,32,29,51,22,24,27,,88,70,31,27,1,6,0.4,0.4
2025-05-21T2300,3380A,102.8914,34.9617,甘南藏族自治州,甘肃民族师范学院,,37,37,51,14,19,9,,96,72,48,31,8,8,0.4,0.5
2025-05-21T2300,2570A,101.9603,30.0475,甘孜藏族自治州,水桥子,,23,,20,16,13,42,,117,93,35,22,4,4,0.4,0.4
2025-05-21T2300,3065A,101.9533,29.9972,甘孜藏族自治州,州环保局,,25,22,25,17,9,37,,112,88,46,25,1,1,0.5,0.4
2025-05-21T2300,3414A,115.8347,28.932,赣江新区,桑海产业园,,23,12,14,3,7,71,,108,99,16,14,6,7,0.5,0.5
2025-05-21T2300,2362A,114.9017,25.9149,赣州市,通天岩,,17,17,21,3,5,49,,50,48,5,4,5,4,0.5,0.5
2025-05-21T2300,2363A,114.9367,25.8664,赣州市,地委,,36,36,42,16,11,38,,56,43,14,11,1,1,0.5,0.5
2025-05-21T2300,2364A,114.9461,25.8481,赣州市,气象台,,24,24,24,10,9,49,,56,49,10,9,8,7,0.4,0.4
2025-05-21T2300,2365A,114.9322,25.8333,赣州市,市图书馆,,17,17,19,10,12,40,,44,39,9,8,4,4,0.5,0.5
2025-05-21T2300,2366A,114.8905,25.8471,赣州市,华坚鞋城,,30,30,24,13,11,48,,55,47,10,9,5,5,0.2,0.2
2025-05-21T2300,3109A,115.0093,25.8613,赣州市,赣县区卫计委,,25,25,23,14,12,11,,35,24,26,15,3,3,0.5,0.4
2025-05-21T2300,2683A,106.2319,36.1417,固原市,马园,颗粒物(PM10),500,724,110,221,45,58,,142,105,17,34,6,6,0.3,0.3
2025-05-21T2300,2684A,106.2792,36.0022,固原市,监测站,颗粒物(PM10),500,699,98,232,40,76,,147,114,7,19,6,7,0.1,0.3
2025-05-21T2300,2685A,106.2375,36.0211,固原市,新区,颗粒物(PM10),500,708,97,214,42,,,138,112,6,30,7,8,0.3,0.3
2025-05-21T2300,3522A,106.2177,35.9959,固原市,原州区十五小,颗粒物(PM10),309,427,85,197,46,79,,148,114,5,13,10,10,0.3,0.4
2025-05-21T2300,2543A,106.6308,30.5278,广安市,小平旧居,,,,,,,,,,,,,,,,
2025-05-21T2300,2544A,106.6303,30.4576,广安市,市委,细颗粒物(PM2.5),73,55,68,53,44,117,,150,134,15,19,4,3,0.6,0.6
2025-05-21T2300,2545A,106.6271,30.4663,广安市,友谊中学,,50,48,56,35,35,93,,161,123,16,18,5,6,1.0,0.9
2025-05-21T2300,2547A,106.6388,30.4551,广安市,广电花园,,,48,59,33,38,,,158,121,14,20,7,8,0.7,0.7
2025-05-21T2300,2902A,106.6351,30.4865,广安市,北辰小学,细颗粒物(PM2.5),54,46,63,38,37,91,,162,124,15,18,12,13,0.7,0.7
2025-05-21T2300,2523A,105.8945,32.4535,广元市,黑石坡,细颗粒物(PM2.5),85,107,87,63,42,106,,148,129,18,17,7,6,0.6,0.6
2025-05-21T2300,2524A,105.821,32.4444,广元市,老城,细颗粒物(PM2.5),82,95,75,60,44,120,,145,138,7,28,1,5,0.5,0.8
2025-05-21T2300,2526A,105.8628,32.4287,广元市,监测站,细颗粒物(PM2.5),78,69,61,57,46,111,,160,146,8,13,4,5,0.7,0.7
2025-05-21T2300,3617A,105.8047,32.4166,广元市,经开区,细颗粒物(PM2.5),60,61,89,43,59,125,,175,155,10,30,4,7,0.8,1
2025-05-21T2300,1345A,113.2347,23.1423,广州市,广雅中学,,27,27,27,16,16,7,,78,20,38,24,2,2,0.5,0.6
2025-05-21T2300,1346A,113.2612,23.105,广州市,市五中,,28,28,29,16,17,15,,77,28,26,20,3,3,0.2,0.1
2025-05-21T2300,1348A,113.3478,23.0916,广州市,广东商学院,,33,33,29,14,16,11,,84,42,41,26,4,5,0.6,0.5
2025-05-21T2300,1349A,113.4332,23.1047,广州市,市八十六中,,30,30,28,9,10,4,,57,16,45,35,3,3,0.6,0.5
2025-05-21T2300,1350A,113.3505,22.9483,广州市,番禺中学,,28,28,27,13,14,18,,78,38,24,18,6,6,0.4,0.4
2025-05-21T2300,1351A,113.2146,23.3916,广州市,花都师范,,26,23,30,14,18,4,,90,33,51,24,4,4,0.7,0.5
2025-05-21T2300,1352A,113.2597,23.1331,广州市,市监测站,,24,24,27,14,14,18,,76,24,24,24,5,5,0.5,0.5
2025-05-21T2300,1353A,113.5618,23.312,广州市,九龙镇镇龙,,26,26,26,17,15,10,,82,40,31,24,5,6,0.4,0.4
2025-05-21T2300,1354A,113.2765,23.1544,广州市,麓湖,,32,32,26,18,14,3,,72,18,29,14,4,4,0.6,0.5
2025-05-21T2300,1355A,113.443,23.3035,广州市,帽峰山森林公园,,22,22,17,3,7,8,,77,37,40,17,6,6,0.6,0.6
2025-05-21T2300,2846A,113.3221,23.1322,广州市,体育西,,30,30,29,16,17,2,,76,22,43,27,4,4,0.5,0.4
2025-05-21T2300,3298A,113.5717,23.5491,广州市,从化街口,,29,29,24,17,14,4,,80,43,44,23,6,7,0.4,0.3
2025-05-21T2300,3299A,113.3472,23.3692,广州市,白云竹料,,29,29,30,15,15,14,,94,44,37,22,2,2,0.6,0.5
2025-05-21T2300,3300A,113.2981,23.237,广州市,白云嘉禾,,40,40,27,26,16,0,,81,24,40,25,6,6,0.9,0.8
2025-05-21T2300,3301A,113.4256,23.1716,广州市,黄埔科学城,,31,31,26,13,12,0,,62,22,36,21,4,3,0.5,0.5
2025-05-21T2300,3302A,113.3942,23.0483,广州市,番禺大学城,,27,27,26,12,12,16,,79,31,31,23,4,4,0.4,0.4
2025-05-21T2300,3303A,113.4922,22.8168,广州市,南沙黄阁,,30,30,27,12,14,24,,65,36,19,14,5,4,0.7,0.5
2025-05-21T2300,3304A,113.5342,22.7896,广州市,南沙街,,23,23,24,11,10,23,,57,37,13,10,2,2,0.5,0.5
2025-05-21T2300,3443A,113.2902,23.5544,广州市,花都梯面,,15,15,25,6,12,13,,82,48,15,19,4,4,0.6,0.6
2025-05-21T2300,3445A,113.7858,23.7478,广州市,从化良口,,18,18,24,9,13,27,,77,55,13,11,6,6,0.7,0.7
2025-05-21T2300,3446A,113.8051,23.2614,广州市,增城荔城,,30,30,25,18,15,7,,77,37,21,15,7,8,0.4,0.3
2025-05-21T2300,2505A,109.568,23.1478,贵港市,德智高中,,,,,,,,,,,,,,,,
2025-05-21T2300,2506A,109.6047,23.0666,贵港市,江南子站,,24,24,30,16,20,40,,81,61,11,16,4,4,0.6,0.7
2025-05-21T2300,2508A,109.5669,23.1065,贵港市,荷城子站,,22,22,15,14,13,38,,79,63,20,16,7,6,0.3,0.2
2025-05-21T2300,3405A,109.5886,23.1172,贵港市,新世纪学校,,44,44,31,25,19,32,,82,63,24,16,6,5,0.8,0.6
2025-05-21T2300,4260A,109.5933,23.0951,贵港市,中山路155-3号,,39,39,38,20,22,21,,87,60,22,18,6,5,0.6,0.5
2025-05-21T2300,1439A,106.6899,26.5998,贵阳市,马鞍山,,27,27,21,7,4,54,,89,76,10,8,4,4,0.3,0.3
2025-05-21T2300,1441A,106.6243,26.6266,贵阳市,鉴湖路,,31,31,27,17,11,62,,87,77,12,15,7,7,0.4,0.4
2025-05-21T2300,1442A,106.7487,26.6343,贵阳市,燕子冲,,28,27,21,19,17,71,,99,87,10,11,2,4,0.5,0.4
2025-05-21T2300,1443A,106.6555,26.4365,贵阳市,碧云窝,,31,31,27,14,11,73,,91,82,11,14,4,4,0.3,0.3
2025-05-21T2300,1445A,106.7109,26.6027,贵阳市,红边门,,27,27,22,17,19,57,,96,85,9,8,3,5,0.3,0.3
2025-05-21T2300,1446A,106.7164,26.5699,贵阳市,新华路,,25,24,18,17,11,64,,88,75,10,11,17,21,0.3,0.4
2025-05-21T2300,1447A,106.674,26.5424,贵阳市,太慈桥,,,27,18,14,9,,,89,,12,14,5,6,0.1,0.1
2025-05-21T2300,1552A,106.805,26.3003,贵阳市,桐木岭,,34,34,37,22,23,76,,80,80,2,2,1,2,0.9,0.8
2025-05-21T2300,4230A,106.6882,26.5695,贵阳市,花果园大街66号,,29,24,17,20,14,52,,77,68,12,12,3,3,0.2,0.2
2025-05-21T2300,4231A,106.6873,26.5169,贵阳市,漓江路57号,,25,24,21,17,12,61,,88,76,9,10,2,2,0.3,0.3
2025-05-21T2300,1862A,110.4144,25.3167,桂林市,电子科大尧山校区,,,,,,,,,,,,,,,,
2025-05-21T2300,1864A,110.3089,25.2708,桂林市,龙隐路小学,,25,25,25,16,13,26,,64,48,9,7,7,8,0.7,0.6
2025-05-21T2300,1865A,110.2869,25.2178,桂林市,八中,,23,23,22,3,29,29,,60,48,15,12,3,1,0.5,0.5
2025-05-21T2300,3531A,110.296,25.1253,桂林市,旅游学院,,14,14,14,9,8,31,,58,49,8,6,1,2,0.3,0.2
2025-05-21T2300,4222A,110.1835,25.2444,桂林市,环湖路276号,,27,27,21,14,13,25,,55,45,19,7,2,2,0.4,0.4
2025-05-21T2300,4301A,110.2803,25.2773,桂林市,信义路13号,,39,,23,27,14,17,,66,51,25,10,1,2,0.6,0.4
2025-05-21T2300,2674A,100.2561,34.4714,果洛藏族自治州,玛沁县大武镇,颗粒物(PM10),86,122,40,38,17,96,,111,110,5,2,18,19,0.4,0.3
2025-05-21T2300,1129A,126.5422,45.755,哈尔滨市,岭北,,15,7,28,6,23,48,,87,61,22,22,13,12,0.4,0.4
2025-05-21T2300,1130A,126.561,45.8167,哈尔滨市,松北商大,,22,22,31,6,18,26,,82,56,29,20,6,6,0.3,0.5
2025-05-21T2300,1131A,126.979,45.5419,哈尔滨市,阿城会宁,颗粒物(PM10),55,60,48,20,28,5,,93,55,47,19,9,11,0.7,0.8
2025-05-21T2300,1132A,126.599,45.7222,哈尔滨市,南岗学府路,,26,26,41,3,18,39,,86,59,25,24,6,7,0.4,0.4
2025-05-21T2300,1133A,126.689,45.7733,哈尔滨市,太平宏伟公园,,33,33,39,22,28,38,,87,62,22,25,5,5,0.5,0.5
2025-05-21T2300,1134A,126.635,45.7667,哈尔滨市,道外承德广场,,19,13,38,13,27,44,,79,58,19,25,5,6,0.3,0.5
2025-05-21T2300,1135A,126.685,45.7319,哈尔滨市,香坊红旗大街,,22,22,46,12,25,39,,85,59,28,29,4,6,0.5,0.6
2025-05-21T2300,1136A,126.6411,45.7258,哈尔滨市,动力和平路,,26,26,41,9,24,40,,80,57,26,30,5,7,0.4,0.5
2025-05-21T2300,1137A,126.593,45.7478,哈尔滨市,道里建国路,,24,24,36,13,22,22,,84,46,38,28,6,6,0.6,0.7
2025-05-21T2300,1138A,126.615,45.61,哈尔滨市,平房东轻厂,,35,35,33,15,24,5,,89,40,58,25,9,9,0.5,0.5
2025-05-21T2300,1139A,126.595,45.9855,哈尔滨市,呼兰师专,,34,34,45,11,22,24,,77,48,30,25,5,6,0.4,0.5
2025-05-21T2300,1140A,126.6206,45.6842,哈尔滨市,省农科院,颗粒物(PM10),51,52,50,13,26,26,,84,50,34,30,8,10,0.4,0.5
2025-05-21T2300,2688A,93.5128,42.8172,哈密市,地区监测站,颗粒物(PM10),74,97,29,34,28,19,,83,75,68,14,1,4,0.1,0
2025-05-21T2300,2689A,93.4961,42.8328,哈密市,哈密师范学校,颗粒物(PM10),68,86,34,20,19,34,,82,76,31,14,5,5,0.8,0.5
2025-05-21T2300,2671A,100.9048,36.9639,海北藏族自治州,海晏县西海镇,,25,19,28,9,15,77,,107,91,7,8,7,10,0.3,0.4
2025-05-21T2300,3867A,102.0738,36.5056,海东市,平安区公安北苑,,28,22,40,19,21,70,,102,80,3,12,5,8,0.6,0.9
2025-05-21T2300,1409A,110.576,19.9507,海口市,东寨港,,10,8,14,7,10,24,,37,31,3,3,1,5,0.4,0.3
2025-05-21T2300,1410A,110.3232,20.0574,海口市,海南大学,,19,19,18,10,10,27,,54,41,5,4,3,3,0.4,0.3
2025-05-21T2300,1411A,110.283,20.0053,海口市,秀英海南医院,,23,23,19,11,10,22,,51,38,12,7,5,4,0.3,0.2
2025-05-21T2300,1412A,110.338,19.9969,海口市,海南师范大学,,21,21,20,12,11,27,,56,41,5,5,4,4,0.4,0.4
2025-05-21T2300,1413A,110.33,20.0356,海口市,龙华路环保局宿舍,,24,24,24,10,11,27,,53,40,6,6,4,4,0.4,0.3
2025-05-21T2300,3539A,110.5111,19.9736,海口市,桂林洋子站,,17,17,20,8,10,26,,45,34,6,6,4,4,0.2,0.2
2025-05-21T2300,2673A,100.6188,36.2866,海南藏族自治州,共和县恰卜恰镇,,35,22,38,3,14,111,,114,113,3,11,16,15,0.3,0.3
2025-05-21T2300,2676A,97.3731,37.3753,海西蒙古族藏族自治州,德令哈市,颗粒物(PM10),128,205,380,59,104,98,,128,120,8,2,10,10,0.6,0.7
2025-05-21T2300,1048A,114.5302,36.6116,邯郸市,东污水处理厂,颗粒物(PM10),59,68,91,12,30,97,,139,130,10,14,5,5,0.4,0.6
2025-05-21T2300,1049A,114.4918,36.5713,邯郸市,矿院,,,,82,,36,103,,140,131,,14,6,6,0.4,0.6
2025-05-21T2300,1050A,114.484,36.6133,邯郸市,丛台公园,颗粒物(PM10),51,52,90,11,37,98,,140,131,13,16,8,7,0.3,0.5
2025-05-21T2300,3458A,114.7895,36.5593,邯郸市,香泉濮院小区,颗粒物(PM10),63,75,108,8,25,99,,140,128,11,12,3,3,0.2,0.4
2025-05-21T2300,3579A,114.50634,36.77178,邯郸市,永年区实验高中,颗粒物(PM10),59,67,103,29,58,101,,147,134,12,17,3,4,0.4,0.7
2025-05-21T2300,3580A,114.20016,36.44293,邯郸市,峰峰矿区临水派出所,颗粒物(PM10),58,65,84,20,40,118,,172,158,8,10,6,9,0.5,1
2025-05-21T2300,2634A,106.9893,33.1842,汉中市,汉川机床厂子校,细颗粒物(PM2.5),250,,94,200,70,74,,166,131,39,16,17,9,1.3,0.7
2025-05-21T2300,2635A,107.0154,33.0706,汉中市,市监测站,颗粒物(PM10),91,131,95,64,62,94,,167,132,20,17,11,8,1.1,1
2025-05-21T2300,2636A,107.0089,33.1138,汉中市,鑫源开发区,颗粒物(PM10),80,109,98,57,70,93,,168,128,25,22,8,8,0.8,0.8
2025-05-21T2300,2637A,107.007,33.0323,汉中市,南郑大河坎水厂,细颗粒物(PM2.5),109,136,87,82,62,79,,162,126,23,18,11,8,1.0,0.8
2025-05-21T2300,1223A,120.2072,30.2111,杭州市,滨江,,37,37,14,14,7,37,,91,67,38,21,5,5,0.5,0.4
2025-05-21T2300,1224A,120.0633,30.2747,杭州市,西溪,,19,19,12,10,6,19,,75,53,9,8,4,4,0.4,0.4
2025-05-21T2300,1226A,120.3417,30.3150,杭州市,下沙,细颗粒物(PM2.5),70,60,18,51,11,33,,98,71,64,22,6,5,0.7,0.5
2025-05-21T2300,1227A,120.1269,30.2456,杭州市,卧龙桥,,22,22,12,14,7,4,,84,47,18,10,6,6,0.6,0.4
2025-05-21T2300,1228A,120.1903,30.2692,杭州市,浙江农大,,38,38,13,25,9,34,,73,56,42,21,8,8,0.6,0.4
2025-05-21T2300,1230A,120.1197,30.3119,杭州市,和睦小学,,30,30,14,14,9,38,,91,74,28,11,7,7,0.5,0.4
2025-05-21T2300,1231A,120.3019,30.4183,杭州市,临平镇,颗粒物(PM10),70,90,20,35,10,36,,102,77,50,18,6,5,0.8,0.6
2025-05-21T2300,1232A,120.2753,30.1839,杭州市,城厢镇,,29,29,13,19,8,25,,86,56,37,21,6,6,0.6,0.5
2025-05-21T2300,1233A,120.0883,30.1808,杭州市,云栖,,30,30,17,8,6,0,,75,32,16,13,6,6,0.5,0.4
2025-05-21T2300,3557A,119.9464,30.0494,杭州市,镇二中,,34,34,14,18,7,24,,81,58,30,16,3,3,0.5,0.5
2025-05-21T2300,3558A,119.7183,30.2367,杭州市,市府大楼,,30,30,15,18,7,13,,73,52,24,13,7,7,0.7,0.6
2025-05-21T2300,3656A,120.1556,30.2864,杭州市,消防大队,,,27,17,20,6,32,,88,67,32,15,,3,0.8,0.7
2025-05-21T2300,1270A,117.1959,31.7848,合肥市,明珠广场,,41,41,24,19,11,85,,123,101,17,15,5,4,0.5,0.4
2025-05-21T2300,1271A,117.3072,31.8764,合肥市,三里街,,46,46,27,31,11,66,,112,88,23,15,4,4,0.6,0.5
2025-05-21T2300,1272A,117.2588,31.8707,合肥市,琥珀山庄,,35,27,25,24,17,92,,128,104,13,13,4,4,0.5,0.5
2025-05-21T2300,1273A,117.1604,31.9052,合肥市,董铺水库,,29,29,24,14,11,88,,140,114,7,6,2,1,0.3,0.3
2025-05-21T2300,1274A,117.25,31.8571,合肥市,长江中路,,36,36,26,20,15,88,,127,102,12,11,5,5,0.4,0.5
2025-05-21T2300,1275A,117.266,31.9436,合肥市,庐阳区,,36,36,26,19,13,78,,135,107,15,9,7,7,0.4,0.3
2025-05-21T2300,1276A,117.3453,31.8616,合肥市,瑶海区,,48,48,26,27,13,49,,107,80,34,16,7,6,0.6,0.5
2025-05-21T2300,1277A,117.3027,31.7964,合肥市,包河区,,45,41,19,31,11,84,,111,100,9,5,6,6,0.5,0.5
2025-05-21T2300,1278A,117.2776,31.7385,合肥市,滨湖新区,,42,41,19,29,14,71,,103,89,13,8,6,9,0.5,0.4
2025-05-21T2300,1279A,117.1318,31.8403,合肥市,高新区,,31,31,26,17,13,86,,132,107,12,12,6,6,0.5,0.5
2025-05-21T2300,3464A,117.3803,31.9147,合肥市,高教基地,,44,44,22,23,13,58,,128,104,21,9,5,6,0.4,0.3
2025-05-21T2300,3614A,79.924,37.0877,和田地区,地区环保局,颗粒物(PM10),158,266,702,64,152,72,,86,83,15,13,3,2,0.5,0.5
2025-05-21T2300,3615A,79.9131,37.113,和田地区,市环保局,颗粒物(PM10),150,249,658,69,200,17,,87,74,44,14,1,3,0.8,0.3
2025-05-21T2300,2516A,108.2011,24.715,河池市,东仁乐园,,,,,,,,,,,,,,,,
2025-05-21T2300,2517A,108.0497,24.6947,河池市,市环保站,,23,21,24,16,15,54,,72,68,8,5,7,8,0.5,0.5
2025-05-21T2300,2518A,108.0983,24.6989,河池市,市疾控中心,,29,29,23,17,16,47,,74,70,21,11,6,5,0.6,0.6
2025-05-21T2300,1696A,114.6778,23.7569,河源市,源西,,29,,23,20,18,33,,98,74,27,20,4,4,0.5,0.5
2025-05-21T2300,1697A,114.6944,23.7586,河源市,东埔,,32,29,21,22,15,32,,99,77,28,16,4,4,0.5,0.5
2025-05-21T2300,1698A,114.6892,23.7233,河源市,老城,,35,29,23,24,18,39,,90,69,16,14,4,4,0.3,0.4
2025-05-21T2300,1718A,115.4208,35.2464,菏泽市,气象局,颗粒物(PM10),68,85,85,34,43,126,,196,174,11,13,4,3,0.6,0.6
2025-05-21T2300,3374A,115.5564,35.0891,菏泽市,定陶老年大学,颗粒物(PM10),68,85,76,29,34,135,,170,163,15,15,5,4,0.8,0.8
2025-05-21T2300,4184A,115.4797,35.24401,菏泽市,永昌路1号,颗粒物(PM10),66,81,83,44,48,124,,197,175,12,15,9,11,0.4,0.4
2025-05-21T2300,4193A,115.4715,35.2800,菏泽市,长城路999号,颗粒物(PM10),62,74,75,38,39,118,,190,167,15,16,10,9,0.5,0.5
2025-05-21T2300,2514A,111.5264,24.4172,贺州市,环保小区,,36,36,34,22,13,18,,45,39,17,13,9,8,1.1,1.1
2025-05-21T2300,2515A,111.5608,24.4078,贺州市,政协大楼,,26,,21,18,16,35,,48,42,15,11,8,10,0.8,0.8
2025-05-21T2300,3534A,111.4744,24.4553,贺州市,西湾,,38,,21,26,17,18,,44,35,19,15,4,4,0.6,0.6
2025-05-21T2300,2385A,114.17,35.9019,鹤壁市,市监测站,颗粒物(PM10),79,107,112,50,61,136,,171,154,16,20,7,5,0.7,1
2025-05-21T2300,2386A,114.2956,35.7511,鹤壁市,市交警支队,颗粒物(PM10),76,101,91,36,53,134,,169,154,10,20,2,5,0.8,0.9
2025-05-21T2300,2387A,114.2878,35.7306,鹤壁市,迎宾馆,细颗粒物(PM2.5),85,103,116,63,55,137,,179,160,13,22,6,4,0.7,0.8
2025-05-21T2300,3474A,114.2617,35.6822,鹤壁市,大新区,颗粒物(PM10),68,85,78,27,53,139,,183,164,10,24,6,6,0.7,0.9
2025-05-21T2300,3596A,114.1572,35.9603,鹤壁市,南山宾馆,颗粒物(PM10),86,121,127,47,62,139,,183,162,9,12,7,6,0.8,1
2025-05-21T2300,2244A,130.2537,47.3416,鹤岗市,哈啤分公司,,30,25,14,21,20,36,,65,57,14,4,11,12,0.2,0.1
2025-05-21T2300,2245A,130.2684,47.3086,鹤岗市,斯达机电,,43,31,24,30,18,42,,65,58,13,7,11,11,0.3,0.3
2025-05-21T2300,2246A,130.3114,47.3388,鹤岗市,东山纸板厂,,41,41,28,13,11,15,,63,48,21,9,13,13,0.6,0.3
2025-05-21T2300,2247A,130.1097,47.3382,鹤岗市,五号水库,,,,,,,,,,,,,,,,
2025-05-21T2300,2263A,127.4833,50.2524,黑河市,交通局,,19,16,14,13,12,51,,52,49,5,6,7,7,0.3,0.2
2025-05-21T2300,2264A,127.5144,50.2341,黑河市,环保局,,24,14,20,14,10,74,,68,68,4,5,6,5,0.3,0.4
2025-05-21T2300,2265A,127.5291,50.2472,黑河市,大黑河岛,,25,11,17,8,10,78,,74,74,3,6,2,4,0.3,0.2
2025-05-21T2300,1074A,115.6838,37.7541,衡水市,电机北厂,颗粒物(PM10),62,74,87,38,41,108,,146,125,14,14,3,6,0.4,0.5
2025-05-21T2300,1075A,115.6303,37.7316,衡水市,市监测站,颗粒物(PM10),60,70,92,32,39,111,,146,133,10,11,5,8,0.3,0.4
2025-05-21T2300,3188A,115.6683,37.7217,衡水市,市城管局,颗粒物(PM10),75,100,87,51,38,108,,150,129,15,14,1,3,0.4,0.4
2025-05-21T2300,3459A,115.5989,37.5491,衡水市,地表水厂,颗粒物(PM10),56,61,88,31,30,96,,148,124,18,16,8,8,0.3,0.5
2025-05-21T2300,2456A,112.5003,26.9167,衡阳市,原169医院,,18,18,22,11,11,46,,81,66,9,10,12,8,0.5,0.5
2025-05-21T2300,2457A,112.6194,26.9258,衡阳市,衡阳化工总厂,,17,17,23,10,11,39,,76,55,6,5,6,7,0.3,0.4
2025-05-21T2300,2458A,112.6211,26.8956,衡阳市,珠晖区环保局,,,10,19,,,44,,75,54,5,6,5,7,0.5,0.5
2025-05-21T2300,2459A,112.6197,26.8733,衡阳市,市委党校,,,19,21,,8,41,,92,,8,5,7,5,0.4,0.4
2025-05-21T2300,2460A,112.6006,26.8919,衡阳市,市监测站,,15,13,22,10,15,44,,71,55,5,6,9,11,0.3,0.3
2025-05-21T2300,2461A,112.5664,26.9056,衡阳市,真空机电公司,,36,36,26,11,10,39,,72,54,6,6,8,8,0.8,0.8
2025-05-21T2300,3399A,112.6703,26.882,衡阳市,师范学院,,15,15,25,8,11,39,,70,49,6,7,6,8,0.7,0.7
2025-05-21T2300,2608A,103.3772,23.3993,红河哈尼族彝族自治州,污水处理厂,,41,41,37,22,15,70,,99,81,5,5,6,6,0.5,0.5
2025-05-21T2300,2609A,103.3861,23.35,红河哈尼族彝族自治州,监测站,,47,47,31,29,14,72,,91,81,3,5,7,8,0.2,0.2
2025-05-21T2300,3038A,103.3758,23.368,红河哈尼族彝族自治州,州图书馆,,43,39,25,30,16,80,,100,86,6,6,3,3,0.3,0.2
2025-05-21T2300,1090A,111.6507,40.7517,呼和浩特市,呼市一监,,42,,31,29,15,100,,116,107,2,4,8,8,0.3,0.4
2025-05-21T2300,1091A,111.6572,40.8033,呼和浩特市,小召,,32,22,26,14,10,100,,119,108,11,13,6,6,0.5,0.6
2025-05-21T2300,1094A,111.7516,40.8369,呼和浩特市,如意水处理厂,,37,37,36,15,18,84,,106,91,13,17,5,5,0.3,0.4
2025-05-21T2300,1095A,111.7276,40.8062,呼和浩特市,二十九中,,29,28,29,14,11,92,,110,100,6,7,4,4,0.3,0.4
2025-05-21T2300,1096A,111.5512,40.7866,呼和浩特市,工大金川校区,,24,19,26,3,14,75,,112,98,25,18,5,6,0.4,0.5
2025-05-21T2300,1097A,111.717,40.7612,呼和浩特市,化肥厂生活区,,48,48,37,24,12,98,,119,107,8,11,6,6,0.4,0.4
2025-05-21T2300,3698A,111.5968,40.8178,呼和浩特市,红旗小学,,32,24,25,15,13,100,,119,108,10,13,3,4,0.3,0.4
2025-05-21T2300,3699A,111.6518,40.8389,呼和浩特市,海东办,,29,22,25,16,17,92,,107,97,6,12,7,7,0.3,0.4
2025-05-21T2300,2192A,119.7594,49.2261,呼伦贝尔市,区环保局,,32,26,34,22,26,47,,67,53,10,18,5,6,0.2,0.3
2025-05-21T2300,3061A,119.7512,49.1577,呼伦贝尔市,国华电力东,,29,27,35,20,22,48,,72,60,9,11,5,4,0.2,0.2
2025-05-21T2300,1250A,120.0751,30.8669,湖州市,城西水厂,颗粒物(PM10),54,57,19,36,11,61,,97,91,35,30,6,5,0.6,0.4
2025-05-21T2300,2873A,120.0830,30.8929,湖州市,仁皇山新区,,46,46,18,28,9,46,,100,92,31,25,5,4,0.8,0.7
2025-05-21T2300,2907A,120.1844,30.8596,湖州市,吴兴区站,,43,,16,30,9,61,,100,93,29,16,6,6,0.5,0.3
2025-05-21T2300,3562A,120.4148,30.8538,湖州市,南浔区站,,42,33,18,29,10,80,,120,113,24,15,3,3,0.6,0.5
2025-05-21T2300,1607A,120.9049,40.7211,葫芦岛市,龙港区,细颗粒物(PM2.5),95,111,85,71,35,15,,138,99,90,29,12,43,0.5,0.6
2025-05-21T2300,1608A,120.8392,40.7514,葫芦岛市,化工街,细颗粒物(PM2.5),79,83,56,58,32,80,,130,111,40,22,10,14,0.5,0.5
2025-05-21T2300,1609A,120.8341,40.7073,葫芦岛市,新区,细颗粒物(PM2.5),83,75,53,61,35,57,,133,103,60,24,9,16,0.7,0.7
2025-05-21T2300,1610A,120.8695,40.7677,葫芦岛市,东城区,细颗粒物(PM2.5),100,,59,75,37,67,,129,100,50,24,8,10,0.6,0.6
2025-05-21T2300,2482A,109.5981,27.5721,怀化市,林科所,,28,28,23,9,8,45,,58,49,10,7,5,4,0.5,0.4
2025-05-21T2300,2483A,109.9453,27.5444,怀化市,河西地税局,,26,25,20,18,15,49,,58,50,7,6,1,2,0.6,0.5
2025-05-21T2300,2484A,109.9781,27.5342,怀化市,市四医院,,44,44,32,3,16,38,,66,56,11,9,2,6,0.7,0.9
2025-05-21T2300,2485A,109.9972,27.5578,怀化市,监测楼,,28,28,30,16,16,53,,67,58,6,4,2,4,0.2,0.3
2025-05-21T2300,2486A,110.0394,27.583,怀化市,市委党校,,33,33,20,19,15,7,,60,46,32,5,3,3,0.6,0.6
2025-05-21T2300,1210A,119.036,33.5981,淮安市,钵池山,,45,36,32,31,26,122,,155,143,15,13,6,8,0.9,1.1
2025-05-21T2300,1211A,119.007,33.575,淮安市,北京南路,,41,41,37,27,24,120,,161,144,9,12,8,10,0.6,0.8
2025-05-21T2300,1212A,118.989,33.6067,淮安市,市监测站,,44,44,37,27,25,118,,151,140,11,13,8,8,0.6,0.7
2025-05-21T2300,1213A,119.135,33.5039,淮安市,楚州区监测站,,46,46,46,28,22,68,,131,109,25,13,6,6,0.8,0.8
2025-05-21T2300,3426A,118.8755,33.2894,淮安市,新华书店,细颗粒物(PM2.5),52,40,30,36,23,96,,146,131,25,18,8,8,0.6,0.5
2025-05-21T2300,4206A,119.0288,33.6319,淮安市,承德北路606号,,46,46,41,24,24,126,,150,139,8,11,5,7,0.6,0.5
2025-05-21T2300,2282A,116.8004,33.975,淮北市,监测站,颗粒物(PM10),55,59,57,27,34,128,,164,153,11,12,6,6,0.9,0.6
2025-05-21T2300,2283A,116.8091,33.9007,淮北市,烈山区政府,,46,46,47,32,35,121,,167,152,27,22,7,7,0.9,0.9
2025-05-21T2300,3330A,116.8873,33.9836,淮北市,杜集区检察院,颗粒物(PM10),52,54,63,31,39,135,,158,150,10,14,7,8,1.0,0.9
2025-05-21T2300,4017A,116.7923,33.9535,淮北市,市博物馆,颗粒物(PM10),55,59,53,28,39,124,,166,154,14,13,6,6,0.8,0.8
2025-05-21T2300,2277A,116.8305,32.7727,淮南市,潘集区政府,颗粒物(PM10),56,62,54,31,24,64,,126,104,23,14,2,4,1.2,0.6
2025-05-21T2300,2279A,116.8569,32.5951,淮南市,谢家集区政府,,40,35,41,28,24,87,,118,108,11,12,5,6,0.1,0.1
2025-05-21T2300,2280A,116.8281,32.633,淮南市,八公山区政府,颗粒物(PM10),53,55,53,30,24,91,,120,111,10,10,5,5,0.4,0.4
2025-05-21T2300,2281A,116.6325,32.6201,淮南市,焦岗湖风景区管理处,,,,,,,,,,,,,,,,
2025-05-21T2300,2894A,117.0566,32.6531,淮南市,经济技术开发区消防队,,48,,38,33,29,61,,117,,18,12,6,6,0.4,0.4
2025-05-21T2300,3329A,117.0108,32.5893,淮南市,山南新区,,48,46,52,33,29,92,,126,115,11,12,9,9,0.4,0.5
2025-05-21T2300,4209A,117.0031,32.6445,淮南市,国庆中路369号,,,66,41,11,25,73,,122,108,9,10,,12,,0.1
2025-05-21T2300,2446A,114.9028,30.4742,黄冈市,职工中心,,40,31,24,28,17,100,,139,125,10,8,8,9,0.6,0.6
2025-05-21T2300,2929A,114.8858,30.4519,黄冈市,红卫路,,35,35,23,23,13,83,,141,121,6,5,8,8,0.7,0.7
2025-05-21T2300,3398A,114.9136,30.4445,黄冈市,市林业局,,38,37,26,26,10,66,,126,109,12,9,7,8,0.7,0.8
2025-05-21T2300,2672A,102.0199,35.5102,黄南藏族自治州,同仁县隆务镇,,22,22,36,3,16,56,,85,74,2,6,3,4,0.3,0.3
2025-05-21T2300,2295A,118.2903,29.6963,黄山市,延安路89号,,27,27,13,15,9,16,,76,50,8,5,5,5,0.5,0.4
2025-05-21T2300,2297A,118.1371,30.2756,黄山市,黄山区政府5号楼,,16,,14,11,8,14,,63,46,6,3,3,3,0.3,0.1
2025-05-21T2300,4210A,118.3354,29.7203,黄山市,滨江东路7-2号,,32,32,18,3,5,10,,72,46,9,5,4,4,0.2,0.2
2025-05-21T2300,2423A,115.0601,30.2313,黄石市,沈家营,颗粒物(PM10),52,53,43,19,12,62,,129,106,16,18,8,8,0.6,0.9
2025-05-21T2300,2426A,114.8988,30.2019,黄石市,铁山,颗粒物(PM10),54,58,31,24,11,62,,132,112,12,9,4,5,0.6,0.7
2025-05-21T2300,2427A,115.0307,30.2092,黄石市,团城山,颗粒物(PM10),55,59,37,22,11,77,,142,121,9,19,9,9,0.5,0.7
2025-05-21T2300,3149A,115.0235,30.1578,黄石市,笔架山北路,颗粒物(PM10),51,52,29,22,8,58,,130,103,10,4,7,8,0.9,0.9
2025-05-21T2300,4185A,115.0780,30.21118,黄石市,磁湖东路29号,颗粒物(PM10),59,67,45,22,15,64,,126,108,13,23,6,10,0.7,0.9
2025-05-21T2300,1392A,114.4183,23.0528,惠州市,河南岸金山湖子站,,20,20,21,10,12,25,,79,54,18,13,7,6,0.2,0.2
2025-05-21T2300,1393A,114.4053,23.0822,惠州市,下埔横江三路子站,,21,21,21,3,7,29,,91,59,15,11,5,4,0.3,0.3
2025-05-21T2300,1394A,114.4103,23.1142,惠州市,江北云山西路子站,,24,24,23,13,12,32,,99,68,16,13,6,6,0.4,0.4
2025-05-21T2300,1395A,114.4645,22.7833,惠州市,惠阳区承修路船湖子站,,20,20,20,12,12,32,,71,49,8,9,7,7,0.4,0.4
2025-05-21T2300,1396A,114.5317,22.7422,惠州市,大亚湾管委会子站,,14,14,14,7,9,40,,63,52,7,9,8,8,0.5,0.4
2025-05-21T2300,3314A,114.4338,22.8134,惠州市,惠阳秋长,,19,19,19,9,12,34,,82,58,14,11,14,13,0.4,0.4
2025-05-21T2300,3452A,114.6517,22.775,惠州市,大亚湾霞涌,,16,6,15,3,8,49,,62,53,7,7,4,4,0.7,0.6
2025-05-21T2300,2240A,130.9762,45.3001,鸡西市,环保局,,36,36,26,12,15,63,,72,58,13,12,6,6,0.3,0.4
2025-05-21T2300,2243A,130.9429,45.3039,鸡西市,第一中学,,23,13,24,3,14,72,,70,62,5,8,6,6,0.2,0.3
2025-05-21T2300,3707A,131.0207,45.3073,鸡西市,欧美日汽修厂,,21,12,28,3,17,65,,70,54,4,10,5,5,0.3,0.3
2025-05-21T2300,3709A,130.9967,45.3106,鸡西市,市政设施管理处,,29,29,38,8,16,66,,66,52,1,7,4,5,0.3,0.4
2025-05-21T2300,2367A,114.9754,27.0803,吉安市,红声器材厂,,24,24,22,14,10,35,,66,47,8,8,10,11,0.5,0.5
2025-05-21T2300,2368A,114.9658,27.0999,吉安市,市森林工业局,,28,25,23,19,13,39,,69,51,10,7,8,9,0.5,0.4
2025-05-21T2300,2369A,114.99,27.1312,吉安市,市环境监测站,,35,35,22,10,8,36,,67,53,8,3,12,11,0.6,0.5
2025-05-21T2300,2370A,115.0093,27.0968,吉安市,青原区法院,,29,29,21,17,12,22,,63,42,12,6,11,11,0.4,0.2
2025-05-21T2300,1772A,126.54,43.8622,吉林市,哈达湾,,32,32,49,20,27,54,,106,81,20,19,22,11,0.3,0.4
2025-05-21T2300,1773A,126.5844,43.8358,吉林市,东局子,,48,47,32,33,30,27,,114,76,42,20,6,8,0.7,0.8
2025-05-21T2300,1774A,126.5052,43.8245,吉林市,电力学院,细颗粒物(PM2.5),88,85,51,65,30,31,,107,82,28,21,13,8,0.5,0.5
2025-05-21T2300,1775A,126.6133,43.8972,吉林市,江北,,48,48,42,27,28,40,,118,84,19,17,7,8,0.5,0.4
2025-05-21T2300,1776A,126.555,43.8306,吉林市,江南公园,细颗粒物(PM2.5),72,78,43,52,35,8,,104,74,66,21,6,8,0.9,0.4
2025-05-21T2300,1778A,126.7061,43.7133,吉林市,丰满,,,,,,,,,,,,,,,,
2025-05-21T2300,2868A,126.4739,43.953,吉林市,九站,,38,34,47,26,34,42,,107,79,34,28,12,13,0.3,0.4
2025-05-21T2300,1299A,116.9862,36.6114,济南市,科干所,颗粒物(PM10),54,58,73,15,36,136,,187,158,12,17,5,6,0.4,0.5
2025-05-21T2300,1300A,116.9376,36.665,济南市,农科所,颗粒物(PM10),64,78,86,20,32,120,,192,150,23,24,9,8,0.3,0.4
2025-05-21T2300,1301A,117.1265,36.6734,济南市,开发区,颗粒物(PM10),56,61,79,20,37,119,,186,146,13,17,10,9,0.7,0.9
2025-05-21T2300,1303A,117.0624,36.6868,济南市,省种子仓库,颗粒物(PM10),69,88,98,39,50,124,,191,150,13,23,8,7,0.4,0.7
2025-05-21T2300,1304A,116.9489,36.6447,济南市,机床二厂,颗粒物(PM10),77,103,89,24,34,118,,180,140,22,20,10,10,0.5,0.6
2025-05-21T2300,1305A,117.0495,36.663,济南市,市监测站,颗粒物(PM10),62,73,82,17,39,116,,186,144,23,25,10,10,0.7,0.8
2025-05-21T2300,1306A,116.7675,36.5484,济南市,长清党校,颗粒物(PM10),67,83,75,22,36,153,,185,163,17,18,6,6,0.6,0.9
2025-05-21T2300,1616A,117.6795,36.229,济南市,技术学院,颗粒物(PM10),62,73,79,34,38,157,,204,170,18,27,10,14,0.7,0.8
2025-05-21T2300,1961A,117.532,36.6868,济南市,东山小学,颗粒物(PM10),61,71,88,20,37,102,,200,142,23,22,6,6,0.4,0.6
2025-05-21T2300,3059A,117.7161,36.2049,济南市,泰兴公司,颗粒物(PM10),65,80,75,46,40,155,,198,173,12,28,7,13,0.6,0.7
2025-05-21T2300,3064A,117.6867,36.2171,济南市,莱芜战役纪念馆,颗粒物(PM10),65,80,78,39,35,160,,205,172,15,25,7,10,1.1,1.1
2025-05-21T2300,3494A,117.1673,36.9782,济南市,济阳区政府,颗粒物(PM10),53,56,93,10,34,114,,171,144,9,21,8,7,0.4,0.5
2025-05-21T2300,3495A,117.1171,36.63,济南市,锦屏中学,颗粒物(PM10),53,56,69,15,31,131,,188,155,10,15,12,11,0.4,0.6
2025-05-21T2300,3682A,116.9814,36.6819,济南市,济南四建,,,85,81,24,40,,,152,,14,16,7,5,0.5,0.7
2025-05-21T2300,1653A,116.6251,35.4302,济宁市,火炬城,颗粒物(PM10),63,76,67,41,38,119,,163,151,14,9,8,7,0.8,0.7
2025-05-21T2300,1655A,116.5491,35.4042,济宁市,电化厂,颗粒物(PM10),67,84,69,39,35,118,,161,146,10,7,2,3,1.0,0.9
2025-05-21T2300,3500A,116.5814,35.3707,济宁市,北湖一中,细颗粒物(PM2.5),74,76,68,54,46,118,,151,143,13,10,5,6,0.7,0.6
2025-05-21T2300,3501A,116.8249,35.5593,济宁市,服务中心,颗粒物(PM10),64,78,70,31,35,122,,165,153,17,18,2,2,0.8,0.6
2025-05-21T2300,3678A,116.5907,35.4054,济宁市,市第七中学,颗粒物(PM10),61,71,67,41,41,111,,158,145,14,9,6,8,0.7,0.7
2025-05-21T2300,2255A,130.2751,46.8028,佳木斯市,佳纺,,23,20,24,16,12,20,,63,49,35,14,3,2,0.4,0.3
2025-05-21T2300,2256A,130.3995,46.8307,佳木斯市,发电厂,,24,24,26,10,8,36,,62,56,11,9,5,9,0.4,0.2
2025-05-21T2300,2257A,130.3258,46.7975,佳木斯市,环保局,,41,41,21,10,9,27,,61,46,30,16,6,5,0.4,0.3
2025-05-21T2300,2258A,130.3648,46.8032,佳木斯市,十一中,,26,26,18,10,9,38,,64,54,24,12,3,3,0.4,0.3
2025-05-21T2300,2259A,130.3794,46.7588,佳木斯市,四丰,,,22,30,7,9,,,,,10,14,1,1,0.3,0.3
2025-05-21T2300,1252A,120.7436,30.778,嘉兴市,清河小学,,34,34,17,17,9,71,,111,104,26,20,6,6,0.7,0.7
2025-05-21T2300,1253A,120.726,30.7478,嘉兴市,嘉兴学院,,28,28,21,18,11,80,,108,102,15,15,5,5,0.3,0.3
2025-05-21T2300,2872A,120.7846,30.7525,嘉兴市,南湖区残联,,,,9,19,9,81,,120,113,20,13,5,5,0.5,0.6
2025-05-21T2300,3407A,120.6916,30.7739,嘉兴市,秀洲住建,颗粒物(PM10),51,52,19,16,9,50,,115,98,38,15,6,6,0.7,0.6
2025-05-21T2300,1945A,98.2908,39.7711,嘉峪关市,气象局,颗粒物(PM10),68,85,80,24,30,90,,97,96,14,10,3,3,0.0,0.1
2025-05-21T2300,2884A,98.2672,39.7978,嘉峪关市,酒钢宾馆,颗粒物(PM10),87,124,86,51,38,94,,90,90,10,12,14,18,0.4,0.7
2025-05-21T2300,3248A,98.2643,39.7724,嘉峪关市,雄关区,颗粒物(PM10),63,75,75,25,30,85,,90,90,19,15,14,12,0.4,0.6
2025-05-21T2300,1383A,113.1064,22.6058,江门市,北街,,13,13,24,3,12,32,,51,36,7,7,3,3,0.3,0.3
2025-05-21T2300,1384A,113.0731,22.5835,江门市,西区,,24,24,24,12,14,36,,54,40,8,10,6,6,0.3,0.4
2025-05-21T2300,1385A,113.0219,22.5311,江门市,圭峰西,,24,24,24,12,13,33,,54,40,10,8,3,4,0.4,0.4
2025-05-21T2300,1386A,113.0828,22.5947,江门市,东湖,,22,22,22,11,13,34,,53,40,10,9,8,8,0.5,0.5
2025-05-21T2300,3311A,113.1075,22.5647,江门市,江海富民,,28,24,26,19,15,32,,56,40,8,7,8,8,0.3,0.3
2025-05-21T2300,3449A,113.05,22.4667,江门市,新会银湖,,20,18,26,14,14,34,,48,37,7,8,2,2,0.3,0.3
2025-05-21T2300,1830A,113.1992,35.2590,焦作市,影视城,,,,55,,35,,,,,,28,,7,,0.3
2025-05-21T2300,3169A,113.2725,35.2067,焦作市,太极体育中心,,,,102,,32,,,200,184,14,17,4,9,0.5,0.6
2025-05-21T2300,3335A,113.3137,35.2641,焦作市,马村街道办,颗粒物(PM10),91,131,107,60,57,151,,211,181,11,14,11,13,1.0,0.9
2025-05-21T2300,3336A,113.2465,35.2373,焦作市,焦作技师学院,颗粒物(PM10),82,113,110,46,41,134,,198,170,12,12,6,7,1.2,0.9
2025-05-21T2300,3477A,113.1656,35.2539,焦作市,中站许衡医院,颗粒物(PM10),84,117,100,56,41,136,,197,170,15,21,7,8,1.0,0.8
2025-05-21T2300,3981A,113.2449,35.1803,焦作市,原李万街道办,颗粒物(PM10),84,117,98,48,40,124,,191,158,15,18,14,20,0,0.1
2025-05-21T2300,4264A,113.2340,35.2190,焦作市,新安路1731号,颗粒物(PM10),96,141,101,56,47,133,,192,165,11,13,7,8,0.8,0.6
2025-05-21T2300,1708A,116.3701,23.5345,揭阳市,新兴,,23,23,26,16,15,31,,60,46,4,5,6,6,0.5,0.5
2025-05-21T2300,1709A,116.3264,23.5443,揭阳市,西马,,26,26,27,13,14,25,,60,42,16,10,6,7,0.6,0.5
2025-05-21T2300,1710A,116.3611,23.5626,揭阳市,东兴,,,30,31,14,11,,,69,55,7,5,3,3,0.6,0.6
2025-05-21T2300,1711A,116.4151,23.5294,揭阳市,渔湖,,36,36,31,21,13,26,,68,45,16,14,4,5,0.6,0.5
2025-05-21T2300,3320A,116.403,23.5699,揭阳市,曲溪,,24,24,28,12,13,40,,70,53,6,9,4,6,0.4,0.4
2025-05-21T2300,1944A,102.1692,38.5167,金昌市,天庆家园,颗粒物(PM10),84,117,131,53,34,117,,117,116,2,2,7,7,0.8,0.6
2025-05-21T2300,4022A,102.1647,38.5371,金昌市,金川区人防中心,颗粒物(PM10),123,195,176,49,39,118,,118,118,3,4,7,7,0.4,0.4
2025-05-21T2300,4239A,102.1930,38.5319,金昌市,长春路96号,颗粒物(PM10),89,127,140,51,39,112,,112,112,2,2,5,5,0.9,0.8
2025-05-21T2300,1262A,119.647,29.077,金华市,十五中,,20,20,19,6,11,32,,94,62,12,14,3,2,0.4,0.5
2025-05-21T2300,1263A,119.686,29.1029,金华市,监测站,,20,20,17,14,11,32,,107,72,14,16,2,3,0.4,0.5
2025-05-21T2300,3659A,119.656,29.1131,金华市,气象局,,19,19,18,9,8,29,,87,61,12,17,2,3,0.5,0.5
2025-05-21T2300,1767A,121.1115,41.0879,锦州市,南山,细颗粒物(PM2.5),82,75,51,60,38,83,,130,115,25,17,8,8,0.7,0.7
2025-05-21T2300,1768A,121.0604,40.8428,锦州市,开发区,细颗粒物(PM2.5),79,67,59,58,33,91,,142,118,36,23,22,11,0.7,0.7
2025-05-21T2300,1769A,121.1836,41.1119,锦州市,百股街道,细颗粒物(PM2.5),79,84,63,58,38,86,,134,115,25,18,13,13,0.6,0.8
2025-05-21T2300,1770A,121.1178,41.1222,锦州市,天安街道,细颗粒物(PM2.5),78,98,67,57,34,62,,125,110,39,15,7,7,0.7,0.6
2025-05-21T2300,1771A,121.1303,41.1386,锦州市,北湖公园,细颗粒物(PM2.5),79,82,68,58,34,89,,132,120,18,14,7,8,0.7,0.7
2025-05-21T2300,2160A,112.85,35.5051,晋城市,自来水公司,颗粒物(PM10),75,99,99,31,42,177,,227,208,11,22,7,11,0.4,0.8
2025-05-21T2300,2161A,112.8318,35.4936,晋城市,白云商贸,颗粒物(PM10),54,58,102,34,37,149,,207,187,19,22,8,11,0.8,1.1
2025-05-21T2300,2162A,112.8508,35.4887,晋城市,市环保局,颗粒物(PM10),67,83,110,39,43,132,,185,165,15,23,6,9,0.7,0.8
2025-05-21T2300,2163A,112.8676,35.4897,晋城市,技术学院,颗粒物(PM10),65,80,98,27,35,170,,218,201,13,27,7,12,0.8,1.1
2025-05-21T2300,2165A,112.8453,35.546,晋城市,白马寺,臭氧1小时,80,80,70,39,45,184,,226,210,8,11,5,9,0.6,1
2025-05-21T2300,3620A,112.8271,35.4828,晋城市,泽州一中,颗粒物(PM10),68,86,100,36,47,159,,223,203,20,20,9,9,0.7,1
2025-05-21T2300,2173A,112.7249,37.7067,晋中市,南都小区,颗粒物(PM10),80,110,103,55,37,157,,190,172,9,25,5,8,0.7,0.6
2025-05-21T2300,2174A,112.6991,37.6982,晋中市,榆次区政府,颗粒物(PM10),81,112,106,42,31,143,,168,154,9,26,6,9,0.7,0.6
2025-05-21T2300,2865A,112.7195,37.6828,晋中市,榆次三中,颗粒物(PM10),82,114,119,51,36,158,,188,172,6,22,3,5,0.8,0.8
2025-05-21T2300,4200A,112.7478,37.6954,晋中市,迎宾街26号,颗粒物(PM10),81,112,117,51,34,157,,185,170,8,19,4,6,0.6,0.5
2025-05-21T2300,2439A,112.2014,31.0481,荆门市,竹园小学,细颗粒物(PM2.5),77,86,50,56,34,70,,152,138,25,16,5,8,0.7,0.5
2025-05-21T2300,2440A,112.1969,30.9891,荆门市,掇刀,颗粒物(PM10),64,78,45,38,31,81,,172,158,17,11,1,6,0.5,0.5
2025-05-21T2300,2441A,112.2213,31.0386,荆门市,石化一小,细颗粒物(PM2.5),75,85,53,55,40,60,,146,130,20,18,6,10,0.8,0.5
2025-05-21T2300,3012A,112.1849,31.0362,荆门市,西山林语,颗粒物(PM10),67,83,50,42,33,77,,140,130,12,9,10,9,0.6,0.5
2025-05-21T2300,3547A,112.1632,31.0138,荆门市,龙泉中学南校,,45,45,39,30,31,78,,148,136,12,11,6,5,0.8,0.8
2025-05-21T2300,1844A,112.2494,30.3197,荆州市,市图书馆,,46,40,23,32,20,71,,133,109,17,13,4,4,0.3,0.4
2025-05-21T2300,1845A,112.2008,30.3544,荆州市,市委党校,,45,32,26,31,21,71,,123,103,17,13,6,7,0.5,0.3
2025-05-21T2300,3194A,112.2747,30.3122,荆州市,管委会,,40,33,34,28,23,67,,124,100,10,9,11,9,0.7,0.7
2025-05-21T2300,4268A,112.1722,30.3366,荆州市,学苑路85号,,39,,24,27,23,48,,130,91,1,4,2,3,0.8,0.7
2025-05-21T2300,2342A,117.3102,29.3867,景德镇市,王港中学,,,,,,,,,,,,,,,,
2025-05-21T2300,2343A,117.2117,29.2933,景德镇市,老干部活动中心,,32,32,20,16,7,41,,72,61,13,10,10,9,0.5,0.4
2025-05-21T2300,2344A,117.1894,29.2789,景德镇市,兽医站,,35,35,24,21,11,36,,64,56,9,8,7,4,0.6,0.4
2025-05-21T2300,2345A,117.1547,29.2617,景德镇市,台达陶瓷,,38,38,30,23,17,44,,71,60,13,14,36,34,0.6,0.4
2025-05-21T2300,2346A,117.2461,29.2956,景德镇市,陶研所,,,31,19,17,11,,,49,46,,37,1,3,0.2,0.5
2025-05-21T2300,1803A,115.9872,29.6815,九江市,十里,,22,22,17,15,13,42,,86,79,23,8,3,4,0.6,0.6
2025-05-21T2300,1804A,115.9584,29.7046,九江市,茅山头,,35,25,18,24,12,39,,98,86,31,8,3,4,0.5,0.5
2025-05-21T2300,1805A,115.9877,29.7295,九江市,西园,,23,17,15,16,8,61,,106,99,42,24,3,6,0.7,0.7
2025-05-21T2300,1808A,115.9114,29.6038,九江市,综合工业园,,26,12,17,8,10,81,,87,66,12,17,5,6,0.7,0.8
2025-05-21T2300,1809A,116.0721,29.7535,九江市,石化总厂,,32,25,24,22,18,96,,100,94,3,8,6,8,0.6,0.6
2025-05-21T2300,1810A,115.9773,29.5698,九江市,庐山气象台,,28,14,10,10,9,87,,76,76,4,4,7,8,0.5,0.7
2025-05-21T2300,3190A,116.0254,29.6994,九江市,外国语学校,,26,23,13,13,10,82,,88,87,7,10,7,9,0.5,0.6
2025-05-21T2300,4253A,116.0102,29.6594,九江市,莲花大道8号,,22,17,9,9,9,69,,83,83,2,4,3,4,0.5,0.5
2025-05-21T2300,4240A,98.4958,39.7339,酒泉市,玉门东路5号,颗粒物(PM10),76,102,91,41,42,98,,100,100,8,6,6,8,0.0,0.2
2025-05-21T2300,4241A,98.5099,39.7506,酒泉市,北大街108号,颗粒物(PM10),73,95,78,25,34,103,,108,108,12,8,8,11,0.1,0.2
2025-05-21T2300,2698A,76.0072,39.4467,喀什地区,巡警大队,颗粒物(PM10),450,550,256,149,63,75,,120,114,38,13,4,4,0.4,0.2
2025-05-21T2300,2699A,75.9755,39.4694,喀什地区,吾办,颗粒物(PM10),437,537,262,182,87,76,,117,109,31,18,11,7,0.6,0.4
2025-05-21T2300,4027A,75.9483,39.4689,喀什地区,老干局,颗粒物(PM10),329,443,249,133,58,71,,119,111,34,11,4,4,0.5,0.5
2025-05-21T2300,1824A,114.3389,34.7781,开封市,肿瘤医院,颗粒物(PM10),63,75,118,39,43,126,,202,164,8,14,7,7,0.8,0.8
2025-05-21T2300,1826A,114.2885,34.7965,开封市,世纪星幼儿园,颗粒物(PM10),68,86,100,30,47,142,,218,180,14,19,7,7,0.8,0.7
2025-05-21T2300,3147A,114.3438,34.8106,开封市,龙亭公园,颗粒物(PM10),72,93,100,33,44,129,,189,156,11,14,1,2,0.8,0.9
2025-05-21T2300,3210A,114.3644,34.7964,开封市,汴京公园,颗粒物(PM10),71,91,114,39,53,126,,193,157,9,16,6,7,0.7,0.7
2025-05-21T2300,3473A,114.2485,34.8306,开封市,技师学院,细颗粒物(PM2.5),84,76,91,62,65,124,,217,149,8,10,5,4,1.0,1
2025-05-21T2300,3592A,114.4644,34.7556,开封市,祥符区生态环境局,颗粒物(PM10),71,92,103,31,48,125,,198,165,17,26,9,9,0.8,0.7
2025-05-21T2300,1951A,84.895,45.6094,克拉玛依市,长征新村,,21,21,10,10,5,61,,95,90,24,6,5,5,0.3,0.2
2025-05-21T2300,1952A,84.8988,45.5893,克拉玛依市,南林小区,,32,28,12,21,6,17,,99,86,63,5,6,5,1.2,0.2
2025-05-21T2300,1954A,84.905,44.3396,克拉玛依市,独山子区,,30,15,17,3,7,96,,121,117,13,9,6,9,0.2,0.3
2025-05-21T2300,1955A,85.6979,46.098,克拉玛依市,乌尔禾区商贸楼,,25,22,15,8,5,78,,97,92,9,5,9,9,0.5,0.5
2025-05-21T2300,3612A,85.1045,45.6899,克拉玛依市,白碱滩区新站,,,50,30,17,17,,,109,109,19,4,12,11,0.3,0.2
2025-05-21T2300,2697A,76.1454,39.7142,克孜勒苏柯尔克孜自治州,市人民政府,颗粒物(PM10),189,328,239,105,75,80,,128,120,33,6,2,2,0.5,0.3
2025-05-21T2300,3665A,76.1658,39.7157,克孜勒苏柯尔克孜自治州,克州文化中心,颗粒物(PM10),169,287,244,97,70,102,,127,123,16,4,4,3,0.5,0.3
2025-05-21T2300,1450A,102.8204,24.8886,昆明市,呈贡新区,颗粒物(PM10),67,84,39,25,21,85,,144,122,18,12,6,6,0.5,0.5
2025-05-21T2300,1451A,102.6251,24.9608,昆明市,西山森林公园,,,,,,,,,,,,,,,,
2025-05-21T2300,1452A,102.7252,25.0902,昆明市,龙泉镇,,45,45,33,12,15,50,,116,95,31,28,2,2,0.3,0.4
2025-05-21T2300,1453A,102.7266,25.0375,昆明市,东风东路,,29,29,35,18,22,87,,126,110,16,16,6,8,0.3,0.4
2025-05-21T2300,1454A,102.6742,25.0669,昆明市,金鼎山,,28,28,33,12,18,82,,111,97,14,19,5,4,0.3,0.4
2025-05-21T2300,1455A,102.6644,25.0401,昆明市,碧鸡广场,,42,42,35,25,19,62,,114,95,32,21,7,7,0.3,0.4
2025-05-21T2300,3179A,102.7494,25.0119,昆明市,官渡区博物馆,,28,25,35,14,20,89,,132,113,12,11,9,8,0.4,0.5
2025-05-21T2300,3375A,102.8017,24.8336,昆明市,青年创业园,,28,28,31,19,18,78,,144,120,24,14,10,9,0.2,0.2
2025-05-21T2300,3550A,102.7997,24.9786,昆明市,昆明学院,,42,42,34,24,20,82,,136,116,17,12,5,6,0.2,0.3
2025-05-21T2300,3551A,102.5967,24.6736,昆明市,晋宁区生态环境分局,颗粒物(PM10),51,52,25,24,19,89,,118,105,9,8,5,7,0.5,0.5
2025-05-21T2300,3552A,102.6678,24.9856,昆明市,云天化总部,,29,16,28,8,17,91,,125,110,8,14,2,5,0.1,0.4
2025-05-21T2300,1456A,91.1319,29.6514,拉萨市,八廓街,,35,35,23,21,14,104,,126,119,14,9,6,6,0.3,0.3
2025-05-21T2300,1457A,91.1221,29.6747,拉萨市,市环保局,颗粒物(PM10),51,52,28,25,14,80,,112,102,21,15,4,4,0.3,0.2
2025-05-21T2300,1458A,91.0874,29.6475,拉萨市,区监测站,,37,37,20,22,12,86,,122,114,33,15,6,5,0.3,0.2
2025-05-21T2300,1459A,91.1774,29.6541,拉萨市,西藏大学,,34,34,17,19,10,91,,124,115,20,8,5,4,0.3,0.3
2025-05-21T2300,1460A,90.9798,29.6588,拉萨市,区辐射站,,40,40,23,22,14,89,,121,111,22,15,6,5,0.3,0.3
2025-05-21T2300,1461A,91.0834,29.6292,拉萨市,拉萨火车站,,35,30,18,17,10,112,,127,124,8,8,2,3,0.0,0.1
2025-05-21T2300,2520A,109.2203,23.7256,来宾市,来宾技工学校,,24,24,30,15,16,59,,89,79,13,9,6,7,0.7,0.6
2025-05-21T2300,3535A,109.1781,23.7297,来宾市,兴宾区政府,,27,27,23,16,16,46,,77,70,16,9,4,4,0.6,0.6
2025-05-21T2300,4002A,109.2416,23.7461,来宾市,中南小学,,23,23,28,14,16,62,,88,81,12,9,1,6,0.6,0.5
2025-05-21T2300,1477A,104.1373,35.9454,兰州市,榆中兰大校区,,,,,,,,,,,,,,,,
2025-05-21T2300,1479A,103.831,36.0464,兰州市,铁路设计院,,50,46,77,35,36,76,,111,77,21,55,9,15,0.4,0.8
2025-05-21T2300,3241A,103.7439,36.0842,兰州市,百合公园,颗粒物(PM10),53,55,70,30,30,60,,112,84,13,42,4,6,0.2,0.5
2025-05-21T2300,3242A,103.9611,35.998,兰州市,和平,,41,41,84,26,33,84,,124,95,7,17,9,8,0.6,0.4
2025-05-21T2300,4236A,103.6293,36.0938,兰州市,庄浪东路808号,,49,46,76,34,33,46,,106,75,31,42,9,12,0.4,0.5
2025-05-21T2300,4237A,103.7251,36.1043,兰州市,安宁西路88号,细颗粒物(PM2.5),67,75,87,48,39,67,,124,90,15,35,5,7,0.3,0.4
2025-05-21T2300,4238A,103.8470,36.0676,兰州市,北滨河东路1号,,43,41,78,30,34,79,,121,83,13,47,9,12,0.6,0.9
2025-05-21T2300,3245A,103.6633,36.533,兰州新区,新区管委会,,30,26,74,19,38,96,,126,104,6,12,2,12,0.2,0.4
2025-05-21T2300,3246A,103.6975,36.4789,兰州新区,舟曲中学,,29,6,107,3,37,91,,132,102,16,28,4,22,0.2,0.4
2025-05-21T2300,1067A,116.6708,39.5111,廊坊市,药材公司,颗粒物(PM10),63,76,97,29,52,86,,175,150,24,13,5,4,0.5,0.8
2025-05-21T2300,1068A,116.7214,39.5589,廊坊市,开发区,颗粒物(PM10),58,65,104,29,44,112,,170,152,23,17,5,4,0.4,0.6
2025-05-21T2300,1070A,116.7244,39.5269,廊坊市,北华航天学院,颗粒物(PM10),63,76,106,25,57,107,,162,146,20,15,7,5,0.4,0.7
2025-05-21T2300,2919A,116.7022,39.5453,廊坊市,河北工业大学,颗粒物(PM10),67,83,113,32,49,104,,174,162,24,15,7,6,0.3,0.6
2025-05-21T2300,2535A,103.7723,29.5462,乐山市,花湖湾,颗粒物(PM10),52,54,69,34,45,112,,192,163,15,22,4,11,0.6,0.8
2025-05-21T2300,2536A,103.7627,29.5844,乐山市,牛耳桥,颗粒物(PM10),52,54,72,35,46,122,,176,150,12,25,7,11,0.8,1
2025-05-21T2300,2537A,103.7508,29.6006,乐山市,市第三水厂,颗粒物(PM10),51,52,82,35,42,130,,180,155,18,37,5,9,0.8,1
2025-05-21T2300,2538A,103.7571,29.5664,乐山市,市监测站,细颗粒物(PM2.5),54,56,69,38,46,108,,167,144,14,23,6,10,1.1,1.3
2025-05-21T2300,3361A,103.7311,29.5628,乐山市,理工大学,,50,44,64,35,46,118,,175,145,15,24,5,11,0.9,1.1
2025-05-21T2300,2598A,100.2143,26.8576,丽江市,西南郊,,35,23,11,8,5,110,,121,114,2,2,5,5,0.8,0.8
2025-05-21T2300,2599A,100.2497,26.8802,丽江市,丽江古城,,,22,16,,10,93,,110,101,,10,9,9,0.5,0.4
2025-05-21T2300,2600A,100.2203,26.8906,丽江市,市中心,,28,,11,8,7,88,,109,99,12,10,7,8,0.6,0.6
2025-05-21T2300,1267A,119.914,28.4514,丽水市,监测站大楼,,27,27,19,10,9,0,,86,33,24,18,2,3,0.7,0.7
2025-05-21T2300,1268A,119.93,28.4586,丽水市,莲都小学,,33,33,22,7,7,2,,91,35,26,18,3,3,0.5,0.4
2025-05-21T2300,1269A,119.879,28.4231,丽水市,余庄前,,31,31,27,7,9,0,,73,24,7,10,3,3,0.5,0.5
2025-05-21T2300,1173A,119.176,34.5885,连云港市,市环境监测站,细颗粒物(PM2.5),79,63,62,58,44,52,,162,141,36,18,6,6,0.5,0.5
2025-05-21T2300,3000A,119.3581,34.6972,连云港市,德源药业,,,66,57,56,39,,,170,,37,24,,9,0.9,0.7
2025-05-21T2300,3007A,119.178,34.844,连云港市,新城一中,,35,33,52,14,28,112,,128,111,11,17,6,7,0.8,0.9
2025-05-21T2300,3008A,119.3608,34.7519,连云港市,胡沟管理处,,42,29,37,29,29,108,,126,114,20,18,6,9,0.7,0.8
2025-05-21T2300,3009A,119.1478,34.5911,连云港市,矿山设计院,颗粒物(PM10),58,66,64,39,37,63,,158,132,30,15,4,5,0.7,0.7
2025-05-21T2300,3434A,119.2413,34.6539,连云港市,工贸学校,细颗粒物(PM2.5),69,,40,50,35,55,,158,122,39,11,8,9,0.8,0.8
2025-05-21T2300,3664A,119.4172,34.7341,连云港市,连云街道,颗粒物(PM10),70,90,75,34,38,85,,99,60,50,60,10,19,0.6,0.8
2025-05-21T2300,2571A,102.3431,27.8099,凉山彝族自治州,青龙寺,,32,32,24,8,8,63,,128,102,21,11,5,5,0.5,0.6
2025-05-21T2300,2572A,102.2721,27.8415,凉山彝族自治州,邛海宾馆,,24,24,26,15,16,58,,121,98,35,17,6,7,0.6,0.7
2025-05-21T2300,2573A,102.2625,27.898,凉山彝族自治州,西昌市政府,,,37,27,22,18,84,,128,107,,11,11,10,1.2,0.8
2025-05-21T2300,2574A,102.2685,27.8851,凉山彝族自治州,凉山州政府,,25,25,28,14,18,76,,128,104,12,14,7,7,0.8,0.8
2025-05-21T2300,4229A,102.2342,27.8859,凉山彝族自治州,凯乐南路30号,,36,36,31,21,18,61,,122,98,27,21,7,8,0.5,0.5
2025-05-21T2300,2212A,123.2,41.1953,辽阳市,宏伟区,颗粒物(PM10),57,64,57,38,29,84,,137,119,26,22,57,19,0.5,0.6
2025-05-21T2300,2213A,123.1683,41.2495,辽阳市,新华园,细颗粒物(PM2.5),82,92,70,60,38,87,,144,127,27,23,17,16,0.6,0.6
2025-05-21T2300,2214A,123.2354,41.2639,辽阳市,滨河路,细颗粒物(PM2.5),84,64,65,62,41,67,,122,103,30,27,99,19,0.5,0.5
2025-05-21T2300,2215A,123.149,41.2991,辽阳市,铁西工业园,细颗粒物(PM2.5),94,77,60,70,39,43,,124,99,39,25,5,7,0.6,0.5
2025-05-21T2300,2227A,125.1358,42.8845,辽源市,环保局,颗粒物(PM10),70,90,51,46,27,30,,128,96,42,24,3,3,0.6,0.6
2025-05-21T2300,3239A,125.0764,42.9078,辽源市,银鹰制药,细颗粒物(PM2.5),58,61,39,41,28,12,,125,85,53,26,4,6,0.6,0.5
2025-05-21T2300,1625A,115.9848,36.4372,聊城市,区政府,颗粒物(PM10),65,80,79,30,38,120,,157,141,16,12,11,8,1.0,1
2025-05-21T2300,2878A,116.0072,36.4343,聊城市,聊大东校,颗粒物(PM10),70,90,85,40,51,115,,164,138,20,10,5,5,0.5,0.5
2025-05-21T2300,3200A,115.9819,36.4978,聊城市,监控中心,颗粒物(PM10),60,69,82,29,33,119,,163,142,12,11,9,7,0.7,0.8
2025-05-21T2300,3513A,116.0445,36.4361,聊城市,九州社区,颗粒物(PM10),66,81,82,31,39,118,,147,,10,10,11,6,0.6,0.6
2025-05-21T2300,4018A,116.0567,36.4608,聊城市,星美广场,颗粒物(PM10),66,82,87,25,36,113,,167,136,14,9,9,9,0.8,0.9
2025-05-21T2300,2632A,94.3681,29.6376,林芝市,林芝监测站,,29,,7,8,5,90,,108,103,4,5,6,6,0.3,0.3
2025-05-21T2300,2633A,94.3616,29.6616,林芝市,林芝人民医院,,28,16,9,9,5,88,,110,105,2,3,6,6,0.2,0.3
2025-05-21T2300,2603A,100.0781,23.8982,临沧市,市环保局,细颗粒物(PM2.5),53,,32,37,25,43,,71,63,9,9,6,5,0.3,0.4
2025-05-21T2300,2604A,100.0894,23.8822,临沧市,市气象局,,35,32,51,24,21,38,,78,66,14,11,10,9,0.6,0.5
2025-05-21T2300,1733A,111.5531,36.0783,临汾市,临钢医院,颗粒物(PM10),78,106,86,41,36,163,,201,179,26,24,7,8,0.6,0.8
2025-05-21T2300,1734A,111.5028,36.0714,临汾市,技工学校,臭氧1小时,94,103,89,53,37,195,,208,189,9,18,6,8,0.7,0.6
2025-05-21T2300,1736A,111.5018,36.0855,临汾市,市委,臭氧1小时,92,96,93,33,26,193,,205,186,14,25,7,9,0.9,0.8
2025-05-21T2300,3018A,111.505,36.1014,临汾市,唐尧大酒店,颗粒物(PM10),79,108,90,38,35,182,,195,179,14,23,6,8,0.7,0.7
2025-05-21T2300,4244A,111.4879,36.0530,临汾市,启星学校,臭氧1小时,84,112,89,44,37,187,,198,179,14,22,6,7,0.7,0.7
2025-05-21T2300,4271A,103.2464,35.6123,临夏回族自治州,滨河东路1号,,40,32,77,28,40,43,,89,77,19,21,5,8,0.4,0.4
2025-05-21T2300,4310A,103.2093,35.5995,临夏回族自治州,新华街21号,,34,34,62,23,31,88,,99,97,7,19,5,8,0.3,0.4
2025-05-21T2300,1618A,118.3429,35.0532,临沂市,沂河小区,颗粒物(PM10),69,88,81,40,50,105,,178,145,12,15,8,11,0.6,0.6
2025-05-21T2300,1619A,118.295,35.0583,临沂市,鲁南制药厂,颗粒物(PM10),65,80,82,35,51,113,,190,158,17,19,9,12,1.0,0.8
2025-05-21T2300,1620A,118.2794,34.9976,临沂市,新光毛纺厂,颗粒物(PM10),57,63,71,35,45,105,,184,148,17,25,11,12,0.7,0.5
2025-05-21T2300,1621A,118.3956,35.0888,临沂市,河东保险公司,颗粒物(PM10),68,85,80,31,39,110,,177,146,15,17,8,8,0.6,0.6
2025-05-21T2300,3370A,118.3564,35.0215,临沂市,十里堡居委,颗粒物(PM10),68,85,80,36,49,119,,195,158,18,19,8,10,0.7,0.8
2025-05-21T2300,3496A,118.3604,35.1084,临沂市,南坊新区,颗粒物(PM10),65,80,83,29,39,104,,177,147,17,18,9,10,0.5,0.5
2025-05-21T2300,3860A,118.3920,35.0300,临沂市,皇山花园小区,颗粒物(PM10),74,97,81,36,46,116,,187,149,20,26,10,12,1.0,1
2025-05-21T2300,1870A,109.4856,24.3895,柳州市,柳东小学,,25,24,24,15,15,79,,88,86,8,8,10,10,0.4,0.4
2025-05-21T2300,1871A,109.4157,24.3277,柳州市,环保监测站,,34,34,25,14,18,65,,84,80,16,10,4,4,0.4,0.4
2025-05-21T2300,1872A,109.389,24.341,柳州市,河西水厂,,34,34,27,19,13,69,,85,82,13,9,4,4,0.6,0.5
2025-05-21T2300,1873A,109.4311,24.2921,柳州市,市四中,,29,27,30,20,16,62,,84,79,20,12,8,7,0.4,0.4
2025-05-21T2300,1874A,109.4006,24.3631,柳州市,市九中,,35,31,27,24,14,65,,82,79,13,8,8,8,0.6,0.5
2025-05-21T2300,1875A,109.4958,24.3134,柳州市,古亭山,,23,19,27,14,16,73,,84,82,7,7,5,4,0.5,0.5
2025-05-21T2300,3402A,109.5422,24.3996,柳州市,市二中,,,32,31,19,17,71,,83,78,,12,10,11,0.5,0.6
2025-05-21T2300,2307A,116.5079,31.737,六安市,监测大楼,,42,42,25,27,17,49,,107,93,11,6,3,4,0.5,0.3
2025-05-21T2300,2308A,116.4738,31.7643,六安市,皖西学院,,47,47,24,24,14,70,,125,111,9,4,5,5,0.4,0.3
2025-05-21T2300,2309A,116.4996,31.7905,六安市,朝阳厂,,30,30,18,21,15,46,,96,84,14,11,4,4,0.3,0.2
2025-05-21T2300,2310A,116.5567,31.7886,六安市,开发区,,48,48,28,28,21,65,,119,103,10,14,5,5,0.5,0.5
2025-05-21T2300,2576A,104.8,26.5892,六盘水市,窑上,,42,35,40,29,26,33,,87,78,4,6,3,4,0.5,0.5
2025-05-21T2300,2577A,104.83,26.5917,六盘水市,黄土坡,,30,30,30,19,16,82,,106,101,8,10,11,11,0.3,0.9
2025-05-21T2300,2578A,104.89,26.5939,六盘水市,水钢,,31,31,33,20,15,77,,109,101,6,7,10,10,0.3,0.4
2025-05-21T2300,2579A,104.8475,26.5894,六盘水市,民中,,32,31,27,22,18,87,,110,105,10,11,9,9,0.6,0.5
2025-05-21T2300,2580A,104.9544,26.5506,六盘水市,双水,,24,24,22,9,10,76,,106,97,8,9,10,10,0.3,0.2
2025-05-21T2300,2335A,117.0189,25.1181,龙岩市,龙岩师专,,,,,,,,,,,,,,,,
2025-05-21T2300,2336A,117.0217,25.1033,龙岩市,龙岩市监测站,,22,22,21,15,12,6,,60,31,25,15,3,4,0.6,0.5
2025-05-21T2300,2337A,117.0258,25.0661,龙岩市,闽西职业技术学院,,50,50,27,16,12,9,,56,33,26,14,44,12,0.4,0.4
2025-05-21T2300,2338A,117.0196,25.0306,龙岩市,龙岩学院,,23,23,19,10,9,17,,58,40,12,6,5,5,0.4,0.4
2025-05-21T2300,2665A,105.0822,33.3261,陇南市,汉王镇固水子,,,,,,,,,,,,,,,,
2025-05-21T2300,2885A,104.9339,33.3826,陇南市,滨江中学,细颗粒物(PM2.5),53,44,54,37,28,118,,154,151,8,8,8,8,0.5,0.5
2025-05-21T2300,3247A,104.955,33.371,陇南市,市总工会,,42,42,49,28,24,128,,157,154,5,7,7,7,0.6,0.6
2025-05-21T2300,2487A,111.9589,27.8901,娄底市,电视发射台,,38,38,49,16,11,3,,54,18,6,3,5,5,0.8,0.4
2025-05-21T2300,2488A,111.9975,27.725,娄底市,市监测站,,27,27,26,6,16,46,,70,57,14,15,10,10,0.6,0.6
2025-05-21T2300,2489A,112.0194,27.7314,娄底市,市委党校,,33,33,25,15,14,34,,67,51,7,4,4,4,0.5,0.4
2025-05-21T2300,2490A,111.9561,27.7569,娄底市,涟钢,,29,29,32,14,17,20,,66,44,13,14,8,17,0.3,0.4
2025-05-21T2300,2491A,111.9892,27.7044,娄底市,市政府,,34,34,21,16,12,35,,76,52,11,6,4,4,0.5,0.4
2025-05-21T2300,1893A,105.4324,28.9634,泸州市,九狮山,,38,27,36,26,29,30,,128,89,28,21,5,4,0.8,0.5
2025-05-21T2300,1894A,105.4427,28.9063,泸州市,小市上码头,,28,28,31,18,16,31,,114,97,51,18,3,3,0.7,0.5
2025-05-21T2300,1895A,105.4241,28.8573,泸州市,兰田宪桥,,38,38,34,21,18,56,,120,104,24,16,8,8,0.6,0.6
2025-05-21T2300,1896A,105.4379,28.8833,泸州市,市环监站,,32,32,30,19,20,52,,126,113,43,19,9,9,0.4,0.3
2025-05-21T2300,4272A,105.3689,28.7783,泸州市,纳溪中医医院,颗粒物(PM10),51,51,37,22,21,47,,112,91,42,25,7,7,0.7,0.7
2025-05-21T2300,2183A,111.1406,37.5211,吕梁市,环保局,细颗粒物(PM2.5),122,112,102,92,36,182,,182,180,13,22,6,7,0.7,0.5
2025-05-21T2300,2185A,111.1297,37.5136,吕梁市,自来水公司,颗粒物(PM10),79,107,126,50,40,173,,174,172,26,38,7,9,0.8,0.5
2025-05-21T2300,2867A,111.1283,37.51,吕梁市,马茂庄小学,,,112,119,48,42,,,171,170,20,39,5,10,0.9,0.6
2025-05-21T2300,1812A,112.3931,34.6516,洛阳市,市委党校,颗粒物(PM10),81,112,106,54,52,127,,198,166,15,25,7,9,0.9,0.8
2025-05-21T2300,1815A,112.494,34.6886,洛阳市,河南林校,颗粒物(PM10),90,129,115,60,53,148,,230,191,16,24,13,14,1.0,0.8
2025-05-21T2300,1816A,112.3844,34.623,洛阳市,开发区管委会,颗粒物(PM10),79,108,91,56,48,137,,228,188,12,16,8,10,0.8,0.7
2025-05-21T2300,1817A,112.4267,34.6258,洛阳市,市委新办公区,颗粒物(PM10),83,116,100,54,48,145,,223,189,13,18,9,11,0.7,0.5
2025-05-21T2300,3340A,112.6005,34.6326,洛阳市,伊滨,颗粒物(PM10),118,185,127,56,50,155,,233,197,14,23,4,6,0.7,0.6
2025-05-21T2300,3341A,112.4951,34.6332,洛阳市,中移产业园,颗粒物(PM10),83,115,116,58,48,127,,224,184,14,26,4,9,0.9,0.8
2025-05-21T2300,3593A,112.5736,34.8993,洛阳市,吉利监测站,细颗粒物(PM2.5),97,128,114,72,53,151,,218,188,12,19,8,11,0.5,0.5
2025-05-21T2300,3635A,112.3677,34.662,洛阳市,河科大西苑校区,颗粒物(PM10),88,126,115,47,44,142,,231,193,15,30,10,13,0.9,0.8
2025-05-21T2300,3636A,112.4388,34.6781,洛阳市,英才小学,颗粒物(PM10),91,131,116,51,52,117,,221,160,14,24,8,10,0.8,0.7
2025-05-21T2300,4214A,112.4600,34.6949,洛阳市,春都路1号院,颗粒物(PM10),88,125,114,58,49,144,,231,181,16,30,4,6,0.7,0.6
2025-05-21T2300,2399A,114.051,33.5699,漯河市,三五一五工厂,细颗粒物(PM2.5),83,114,82,61,47,139,,185,147,15,16,4,5,0.8,0.7
2025-05-21T2300,2400A,114.0055,33.5698,漯河市,漯河大学,颗粒物(PM10),93,136,84,48,43,142,,187,158,13,12,3,4,0.7,0.5
2025-05-21T2300,2401A,114.0138,33.5828,漯河市,市水利局,颗粒物(PM10),101,151,85,53,43,138,,183,153,12,12,4,5,1.0,0.8
2025-05-21T2300,2402A,114.0261,33.5698,漯河市,市广电局,细颗粒物(PM2.5),114,144,80,86,48,111,,147,140,13,16,2,3,1.0,0.8
2025-05-21T2300,3478A,113.9749,33.5664,漯河市,市图书馆,颗粒物(PM10),81,111,80,52,46,132,,176,152,13,16,3,4,0.8,0.6
2025-05-21T2300,4250A,114.0892,33.5882,漯河市,韶山路11号,颗粒物(PM10),82,114,84,48,47,124,,173,136,15,16,4,4,1.1,1
2025-05-21T2300,1798A,118.5092,31.6837,马鞍山市,湖东路四小,细颗粒物(PM2.5),58,48,31,41,17,83,,135,113,14,9,6,6,0.7,0.6
2025-05-21T2300,1799A,118.5024,31.6449,马鞍山市,开发区,颗粒物(PM10),56,62,30,33,14,65,,137,115,28,15,5,6,0.7,0.6
2025-05-21T2300,1802A,118.6245,31.7241,马鞍山市,濮塘,,36,36,27,15,10,85,,140,127,8,6,7,7,0.7,0.7
2025-05-21T2300,3633A,118.4918,31.6809,马鞍山市,雨山,颗粒物(PM10),53,56,28,28,14,64,,127,105,14,8,5,6,1.0,0.8
2025-05-21T2300,4191A,118.5274,31.72227,马鞍山市,慈湖高新区,,50,50,33,33,17,84,,139,114,17,15,6,8,0.7,0.6
2025-05-21T2300,1686A,111.0286,21.4688,茂名市,电白南海,,19,19,24,9,17,32,,38,37,5,4,2,2,0.6,0.6
2025-05-21T2300,1687A,110.9294,21.6533,茂名市,茂石化七小,,24,24,25,7,13,23,,43,30,8,6,1,1,0.4,0.4
2025-05-21T2300,1688A,110.9107,21.6687,茂名市,健康路,,19,19,21,9,13,27,,46,35,9,6,3,3,0.3,0.3
2025-05-21T2300,1689A,110.8592,21.6828,茂名市,高岭,,,17,32,,11,,,36,,11,8,,4,0.5,0.4
2025-05-21T2300,3450A,111.01,21.5165,茂名市,电白水东,,12,12,17,7,7,35,,46,,2,6,2,3,0.4,0.4
2025-05-21T2300,2539A,104.0308,30.0478,眉山市,黑龙滩水库,细颗粒物(PM2.5),54,56,43,38,32,90,,199,172,26,15,1,2,0.5,0.6
2025-05-21T2300,2540A,103.8416,30.0874,眉山市,气象局,颗粒物(PM10),70,89,65,34,39,107,,198,169,23,42,3,3,0.5,0.6
2025-05-21T2300,3137A,103.8578,30.0744,眉山市,市委党校,颗粒物(PM10),57,63,63,31,37,106,,183,160,23,34,9,12,0.4,0.6
2025-05-21T2300,3148A,103.8291,30.0564,眉山市,区人社局,颗粒物(PM10),60,69,52,31,34,106,,186,159,27,40,12,16,0.6,0.6
2025-05-21T2300,1690A,116.1231,24.3284,梅州市,梅江月梅,,23,23,24,15,13,13,,53,41,20,10,6,5,0.7,0.6
2025-05-21T2300,1691A,116.0797,24.2719,梅州市,梅县新城,,43,43,26,7,12,7,,55,43,30,14,11,7,0.5,0.6
2025-05-21T2300,1692A,116.1248,24.2654,梅州市,环境监控中心,,16,12,33,11,18,13,,50,33,24,16,8,18,0.6,0.6
2025-05-21T2300,3315A,116.1233,24.2991,梅州市,梅龙,,29,29,26,10,15,37,,57,47,16,9,40,12,0.6,0.6
2025-05-21T2300,1878A,104.7778,31.4741,绵阳市,富乐山,细颗粒物(PM2.5),69,73,96,50,72,128,,164,154,17,23,8,10,0.7,0.8
2025-05-21T2300,1880A,104.6697,31.4668,绵阳市,高新区自来水公司,细颗粒物(PM2.5),62,67,93,44,50,117,,170,147,18,38,4,5,0.7,0.8
2025-05-21T2300,1881A,104.7287,31.5075,绵阳市,三水厂,细颗粒物(PM2.5),73,79,97,53,64,121,,162,147,18,43,8,10,0.6,0.8
2025-05-21T2300,3491A,104.69,31.5322,绵阳市,西科大附属小学,颗粒物(PM10),58,65,95,40,56,132,,172,156,13,27,8,9,0.5,0.6
2025-05-21T2300,3492A,104.5648,31.5343,绵阳市,安州区旅游局,细颗粒物(PM2.5),64,73,85,46,47,96,,176,147,22,19,2,4,0.8,0.8
2025-05-21T2300,4226A,104.7651,31.4531,绵阳市,绵阳市气象局,细颗粒物(PM2.5),63,68,95,45,64,122,,168,155,22,32,5,6,0.9,1.1
2025-05-21T2300,1784A,129.61,44.561,牡丹江市,环保大楼,颗粒物(PM10),52,53,32,35,20,48,,95,80,22,12,6,6,0.5,0.3
2025-05-21T2300,1785A,129.6115,44.5782,牡丹江市,文化广场,细颗粒物(PM2.5),68,79,38,49,27,39,,94,76,38,18,14,10,0.7,0.4
2025-05-21T2300,1786A,129.5904,44.5963,牡丹江市,第一医院,,45,43,33,31,26,52,,91,77,22,16,5,5,0.6,0.5
2025-05-21T2300,1787A,129.6364,44.6075,牡丹江市,机车工厂,颗粒物(PM10),66,82,46,42,23,29,,92,69,29,18,26,9,0.5,0.4
2025-05-21T2300,1788A,129.6386,44.5462,牡丹江市,第一中学,,,48,35,28,22,46,,104,77,23,14,3,3,,0.2
2025-05-21T2300,2531A,105.0703,29.61,内江市,市监测站,,,,40,29,36,46,,163,127,,19,4,7,0.8,1
2025-05-21T2300,2532A,105.0717,29.5947,内江市,东兴区政府,,27,26,36,11,27,86,,156,132,28,21,14,14,0.7,0.7
2025-05-21T2300,2533A,105.0653,29.5817,内江市,内江二中,,34,34,43,20,36,77,,157,135,16,18,8,8,0.6,0.6
2025-05-21T2300,2534A,105.0406,29.5822,内江市,内江日报社,,33,32,44,19,37,32,,159,126,66,25,3,11,0.8,0.8
2025-05-21T2300,2628A,92.0657,31.4846,那曲市,那曲监测站,颗粒物(PM10),75,99,41,42,20,86,,114,102,17,13,7,7,0.6,0.5
2025-05-21T2300,4243A,92.0515,31.4787,那曲市,那曲市委宣传部,颗粒物(PM10),55,60,34,31,20,91,,121,113,16,5,6,4,0.7,0.3
2025-05-21T2300,1290A,115.8931,28.6843,南昌市,省外办,,23,12,19,7,13,72,,87,76,11,16,3,5,0.5,0.9
2025-05-21T2300,1291A,115.8886,28.7003,南昌市,省林业公司,,26,9,13,9,10,81,,94,83,6,10,7,10,0.7,0.7
2025-05-21T2300,1292A,115.8126,28.7442,南昌市,林科所,,24,,10,3,8,74,,98,87,6,6,4,6,0.2,0.3
2025-05-21T2300,1294A,115.8518,28.687,南昌市,建工学校,,22,7,14,3,6,68,,99,84,9,12,3,6,0.4,0.4
2025-05-21T2300,1295A,115.8921,28.6424,南昌市,象湖,,20,,12,7,7,64,,89,75,7,10,6,9,0.5,0.5
2025-05-21T2300,1296A,115.7423,28.7996,南昌市,武术学校,,43,,22,30,25,54,,84,76,4,4,9,9,0.5,0.6
2025-05-21T2300,3046A,115.9084,28.6062,南昌市,机电学校,,16,16,20,9,8,50,,91,74,16,12,3,5,0.4,0.4
2025-05-21T2300,3690A,115.9721,28.7031,南昌市,外国语学校,,22,22,19,12,11,60,,94,83,9,10,7,8,0.6,0.6
2025-05-21T2300,4192A,115.9316,28.68677,南昌市,南京东路235号,,26,26,24,8,8,59,,93,78,12,8,3,6,0.8,0.8
2025-05-21T2300,1905A,106.056,30.8064,南充市,西山风景区,,,,,,,,,,,,,,,,
2025-05-21T2300,1906A,106.0789,30.8023,南充市,南充市委,细颗粒物(PM2.5),67,68,87,48,62,102,,192,158,17,25,6,7,0.7,0.7
2025-05-21T2300,1907A,106.1031,30.8217,南充市,南充炼油厂,细颗粒物(PM2.5),77,71,88,56,65,94,,185,150,13,22,6,7,0.6,0.7
2025-05-21T2300,4227A,106.1083,30.7884,南充市,梨树横街98号,细颗粒物(PM2.5),78,81,89,57,52,102,,181,154,12,23,5,5,0.5,0.6
2025-05-21T2300,4304A,106.1172,30.843,南充市,清泉寺北路188号,细颗粒物(PM2.5),88,73,91,65,61,99,,180,150,11,19,5,6,0.5,0.6
2025-05-21T2300,4305A,106.067,30.7616,南充市,同庆路1号,细颗粒物(PM2.5),79,72,79,58,60,92,,169,141,17,24,3,3,0.5,0.6
2025-05-21T2300,1151A,118.8086,32.1065,南京市,迈皋桥,,40,40,31,27,14,59,,116,104,37,17,4,4,0.6,0.5
2025-05-21T2300,1152A,118.7538,32.0551,南京市,草场门,,34,34,25,19,15,86,,138,118,23,18,1,2,0.6,0.6
2025-05-21T2300,1153A,118.7794,32.0745,南京市,山西路,,38,34,33,14,11,120,,143,136,3,14,3,4,0.4,0.5
2025-05-21T2300,1154A,118.7752,32.0023,南京市,中华门,,36,36,23,22,14,88,,133,121,26,14,4,4,0.6,0.7
2025-05-21T2300,1155A,118.8109,32.0309,南京市,瑞金路,,39,34,26,27,17,63,,117,93,22,19,7,6,0.2,0.3
2025-05-21T2300,1156A,118.7997,32.0754,南京市,玄武湖,,40,40,27,14,8,89,,121,110,10,12,4,4,0.6,0.7
2025-05-21T2300,1157A,118.6414,32.0931,南京市,浦口,,40,40,26,20,11,36,,111,82,39,21,2,3,0.8,0.5
2025-05-21T2300,1158A,118.7356,31.9996,南京市,奥体中心,,43,43,28,24,16,94,,150,134,22,18,3,6,0.5,0.7
2025-05-21T2300,1159A,118.9125,32.1028,南京市,仙林大学城,,34,34,29,17,10,81,,121,106,34,34,12,12,0.7,0.8
2025-05-21T2300,3422A,118.8436,31.9198,南京市,江宁彩虹桥,,,,26,,12,,,74,,,17,,3,,0.6
2025-05-21T2300,3427A,118.8554,32.3578,南京市,六合雄州,颗粒物(PM10),59,67,35,33,17,21,,111,72,76,35,7,7,0.9,0.9
2025-05-21T2300,4249A,118.8708,31.3402,南京市,汶溪路181号,,27,27,15,15,10,65,,116,105,16,10,2,3,0.4,0.4
2025-05-21T2300,4312A,119.019,31.6512,南京市,中山西路1号,,35,29,19,24,12,82,,133,120,23,12,8,7,0.6,0.6
2025-05-21T2300,1401A,108.3103,22.7881,南宁市,二十一中,,16,14,22,11,10,46,,60,58,9,8,1,1,0.6,0.6
2025-05-21T2300,1402A,108.3141,22.8528,南宁市,北湖,,26,24,23,18,13,46,,58,54,11,9,4,4,0.6,0.5
2025-05-21T2300,1403A,108.3206,22.8225,南宁市,市监测站,,20,14,22,14,11,41,,50,47,4,4,2,1,0.4,0.4
2025-05-21T2300,1404A,108.3829,22.8037,南宁市,大自然花园,,23,23,22,12,12,46,,64,60,6,4,5,4,0.6,0.5
2025-05-21T2300,1405A,108.4394,22.7904,南宁市,仙葫,,25,25,23,9,12,44,,61,58,6,6,4,3,0.6,0.6
2025-05-21T2300,1406A,108.2397,22.8467,南宁市,区农职院,,22,,27,15,12,42,,53,49,14,13,3,3,0.5,0.3
2025-05-21T2300,1407A,108.3275,22.735,南宁市,英华嘉园,,21,21,23,13,12,33,,55,49,18,11,8,7,0.4,0.3
2025-05-21T2300,3401A,108.4834,22.7618,南宁市,红星社区,,22,22,25,7,14,44,,70,65,6,4,9,8,0.5,0.4
2025-05-21T2300,4221A,108.2177,22.7774,南宁市,乐贤路16号,,21,21,25,11,12,33,,46,41,14,16,2,2,0.4,0.4
2025-05-21T2300,2331A,118.0966,26.6761,南平市,茫荡山,,,,,,,,,,,,,,,,
2025-05-21T2300,2332A,118.1681,26.6369,南平市,南平市监测站,,20,20,23,9,11,9,,61,39,16,11,4,4,0.9,0.8
2025-05-21T2300,2333A,118.1825,26.6489,南平市,南平铝业有限公司,,25,25,29,9,7,17,,63,41,11,10,2,3,0.8,0.7
2025-05-21T2300,2334A,118.1756,26.6272,南平市,南平七中,,16,16,25,7,8,11,,59,35,12,8,4,4,0.6,0.6
2025-05-21T2300,1168A,120.9098,31.9663,南通市,狼山街道,,28,25,18,19,13,18,,87,68,30,28,3,5,1.5,1.4
2025-05-21T2300,1169A,120.86,32.0005,南通市,虹桥,,32,28,25,22,17,75,,91,78,38,48,3,5,0.8,0.7
2025-05-21T2300,1170A,120.87,32.02,南通市,城中,,29,29,22,18,12,71,,102,91,31,31,5,5,1.0,0.8
2025-05-21T2300,1171A,120.94,31.93,南通市,星湖花园,,28,19,14,19,13,34,,86,78,41,38,3,6,0.6,0.7
2025-05-21T2300,1172A,120.81,32.0417,南通市,紫琅学院,颗粒物(PM10),51,51,26,26,13,32,,100,81,65,43,7,6,1.2,0.7
2025-05-21T2300,3291A,121.067,32.062,南通市,通州监测站,,25,24,20,17,10,75,,109,103,17,17,5,5,0.9,0.8
2025-05-21T2300,3432A,120.9348,31.9883,南通市,环境教育馆,,39,39,24,19,12,4,,104,81,68,28,4,4,0.9,0.7
2025-05-21T2300,2404A,112.5224,33.0122,南阳市,瓦房庄,颗粒物(PM10),67,83,72,25,32,114,,184,163,17,12,6,6,0.3,0.4
2025-05-21T2300,2405A,112.5003,32.9735,南阳市,汉画馆,颗粒物(PM10),65,80,74,29,34,114,,176,154,20,15,6,6,0.5,0.6
2025-05-21T2300,2406A,112.5573,33.027,南阳市,气象站,颗粒物(PM10),87,124,85,36,39,104,,184,160,19,10,5,5,0.5,0.5
2025-05-21T2300,2407A,112.5481,32.9689,南阳市,理工学院,颗粒物(PM10),69,88,74,32,39,101,,171,156,18,10,4,4,0.6,0.6
2025-05-21T2300,4008A,112.5234,32.9922,南阳市,卧龙区政府,颗粒物(PM10),68,86,70,46,42,102,,187,163,23,14,4,3,0.5,0.4
2025-05-21T2300,1234A,121.8358,29.911,宁波市,区环保大楼,颗粒物(PM10),51,51,27,22,15,8,,114,58,70,41,10,9,0.6,0.5
2025-05-21T2300,1235A,121.56,29.82,宁波市,万里学院,,34,30,19,21,11,26,,101,74,67,20,5,4,0.6,0.5
2025-05-21T2300,1236A,121.713,29.9572,宁波市,龙赛医院,颗粒物(PM10),54,58,22,9,12,2,,110,67,77,28,8,7,0.7,0.6
2025-05-21T2300,1239A,121.633,29.7733,宁波市,钱湖水厂,,19,19,15,10,5,59,,98,68,19,12,8,8,0.6,0.6
2025-05-21T2300,1240A,121.5856,29.8635,宁波市,太古小学,,50,50,20,17,12,8,,97,68,76,18,6,6,0.9,0.7
2025-05-21T2300,1241A,121.524,29.8674,宁波市,市环境监测中心,,44,44,20,17,9,24,,99,75,44,19,7,7,0.8,0.6
2025-05-21T2300,2871A,121.6147,29.9017,宁波市,万里国际学校,,30,29,14,17,12,28,,110,72,60,20,9,7,0.6,0.4
2025-05-21T2300,3710A,121.5594,29.8975,宁波市,白沙活动中心,,31,31,24,16,9,19,,101,68,52,13,9,8,0.8,0.6
2025-05-21T2300,2339A,119.5001,26.6946,宁德市,金涵水库,,,,,,,,,,,,,,,,
2025-05-21T2300,2341A,119.5388,26.6612,宁德市,宁德市监测站,,23,17,29,16,16,24,,47,32,9,18,4,4,0.4,0.5
2025-05-21T2300,3209A,119.5231,26.6562,宁德市,宁德一中,,22,20,31,15,16,22,,50,36,3,7,2,2,0.4,0.5
2025-05-21T2300,2618A,98.8601,25.8567,怒江傈僳族自治州,州监测站,,36,36,32,20,17,81,,102,94,8,8,8,7,0.4,0.4
2025-05-21T2300,2619A,98.8546,25.8417,怒江傈僳族自治州,泸水一中,,25,24,31,17,20,61,,81,66,12,16,7,7,0.3,0.5
2025-05-21T2300,1888A,101.6891,26.571,攀枝花市,弄弄坪,,32,32,30,16,16,84,,120,110,13,12,6,6,0.6,0.6
2025-05-21T2300,1889A,101.5769,26.5928,攀枝花市,河门口,,38,38,33,18,16,61,,128,105,23,20,7,10,0.4,0.7
2025-05-21T2300,1890A,101.7169,26.585,攀枝花市,炳草岗,,47,47,34,19,17,47,,126,99,43,26,8,8,0.9,0.7
2025-05-21T2300,1891A,101.7369,26.5008,攀枝花市,仁和,,26,26,26,17,16,56,,118,96,22,14,9,10,0.7,0.6
2025-05-21T2300,2835A,101.7227,26.567,攀枝花市,四十中小,,30,29,29,21,17,93,,128,104,15,20,7,9,0.6,0.8
2025-05-21T2300,1604A,122.0303,41.1489,盘锦市,开发区,细颗粒物(PM2.5),74,56,46,54,33,108,,148,140,17,13,10,10,0.6,0.5
2025-05-21T2300,1605A,122.0485,41.0883,盘锦市,兴隆台,细颗粒物(PM2.5),69,58,44,50,31,109,,143,134,22,17,13,9,0.6,0.5
2025-05-21T2300,1606A,121.8297,41.1028,盘锦市,新生街道,细颗粒物(PM2.5),75,58,40,55,29,86,,144,129,38,23,8,9,0.5,0.3
2025-05-21T2300,1832A,113.3257,33.742,平顶山市,新华旅馆,颗粒物(PM10),93,135,114,41,44,143,,185,164,18,16,6,6,0.7,0.6
2025-05-21T2300,1833A,113.2919,33.737,平顶山市,规划设计院,颗粒物(PM10),95,139,101,70,53,146,,183,160,26,19,8,6,1.1,0.7
2025-05-21T2300,1834A,113.182,33.774,平顶山市,平顶山工学院,颗粒物(PM10),87,124,90,63,54,146,,191,174,14,11,4,3,0.5,0.4
2025-05-21T2300,3204A,113.3025,33.73,平顶山市,规划局,颗粒物(PM10),101,151,113,53,44,150,,186,169,13,10,6,6,0.6,0.4
2025-05-21T2300,3594A,112.8867,33.9116,平顶山市,石龙区,颗粒物(PM10),98,145,133,68,50,144,,196,173,20,34,8,10,0.9,0.6
2025-05-21T2300,2656A,106.6692,35.5461,平凉市,聚贤嘉苑,颗粒物(PM10),156,262,72,101,30,87,,150,127,5,19,19,11,0.4,0.6
2025-05-21T2300,2657A,106.7021,35.5307,平凉市,博物馆,颗粒物(PM10),164,278,75,99,28,90,,153,131,5,18,13,13,0.5,0.6
2025-05-21T2300,2347A,114.0997,27.5002,萍乡市,武功山,,7,6,3,3,3,21,,58,40,5,3,9,10,0.6,0.6
2025-05-21T2300,2348A,113.8385,27.6434,萍乡市,中医院,,23,19,22,16,13,42,,66,58,7,6,9,15,0.6,0.6
2025-05-21T2300,2349A,113.8493,27.6253,萍乡市,市政府车库,,,,18,,13,,,56,54,10,11,9,16,0.4,0.6
2025-05-21T2300,2350A,113.8676,27.6435,萍乡市,市环保局,,30,22,22,21,12,29,,68,58,15,7,6,11,0.6,0.6
2025-05-21T2300,2351A,113.866,27.6198,萍乡市,安源区政府,,27,27,23,12,10,28,,60,53,9,12,5,7,0.4,0.9
2025-05-21T2300,2319A,119.0141,25.4325,莆田市,荔城区仓后路,,46,46,41,14,16,2,,90,47,33,20,6,6,0.6,0.5
2025-05-21T2300,2320A,119.0015,25.4553,莆田市,莆田市监测站,,35,35,41,10,14,8,,97,54,26,12,4,4,0.4,0.4
2025-05-21T2300,2321A,119.1119,25.4561,莆田市,涵江区六中,,29,29,40,10,20,6,,99,43,34,26,3,3,0.3,0.4
2025-05-21T2300,2322A,119.1013,25.3215,莆田市,秀屿区政府,,33,33,28,6,12,16,,88,38,24,18,6,8,0.4,0.4
2025-05-21T2300,2323A,118.981,25.4792,莆田市,东圳水库,,,,,,,,,,,,,,,,
2025-05-21T2300,2392A,115.0312,35.7636,濮阳市,环保局,颗粒物(PM10),61,71,78,37,44,122,,176,156,14,15,7,6,0.9,0.9
2025-05-21T2300,2394A,115.0574,35.7609,濮阳市,油田运输公司,颗粒物(PM10),70,89,96,35,41,129,,174,153,10,15,7,6,1.1,1
2025-05-21T2300,3021A,115,35.7668,濮阳市,濮水河管理处,颗粒物(PM10),66,82,84,38,46,118,,170,149,14,15,6,5,0.8,0.9
2025-05-21T2300,4216A,115.0924,35.7686,濮阳市,任丘路479号,颗粒物(PM10),74,97,98,44,49,134,,180,160,16,19,7,7,1.1,1.1
2025-05-21T2300,2601A,100.98,22.7633,普洱市,市环保局,,39,39,44,22,22,36,,78,70,10,8,4,6,0.6,0.5
2025-05-21T2300,2602A,100.9817,22.8322,普洱市,普洱第二中学,,29,24,31,20,13,40,,83,64,12,13,5,5,0.5,0.5
2025-05-21T2300,2262A,131.0518,45.8751,七台河市,新一中,,,16,13,6,8,,,,,13,7,10,9,0.8,0.6
2025-05-21T2300,3345A,131.0577,45.7879,七台河市,中波台,,,,16,,6,,,54,,,12,,8,,0.4
2025-05-21T2300,3637A,131.0176,45.7761,七台河市,人民广场,,18,13,22,6,14,55,,62,56,10,12,11,11,0.4,0.4
2025-05-21T2300,3684A,130.8781,45.8222,七台河市,新建矿广场,颗粒物(PM10),70,90,31,16,13,42,,67,56,20,14,15,10,0.5,0.3
2025-05-21T2300,1779A,123.9305,47.3636,齐齐哈尔市,安居小区,,45,39,31,31,14,26,,67,46,31,15,3,3,0.5,0.4
2025-05-21T2300,1780A,123.9488,47.3386,齐齐哈尔市,中心广场,,44,44,28,14,8,46,,67,54,20,13,4,3,0.4,0.3
2025-05-21T2300,1781A,123.9483,47.3227,齐齐哈尔市,农牧车辆厂,,29,27,22,20,10,46,,64,55,14,10,4,4,0.3,0.2
2025-05-21T2300,1783A,123.945,47.2988,齐齐哈尔市,市环境监测站,,29,29,21,18,8,47,,69,58,14,9,3,3,0.3,0.2
2025-05-21T2300,3662A,123.6333,47.2075,齐齐哈尔市,富区青少年活动中心,颗粒物(PM10),68,86,35,44,17,19,,71,47,42,13,2,2,0.7,0.3
2025-05-21T2300,2591A,107.9783,26.5747,黔东南苗族侗族自治州,市环境监测站,,26,26,22,17,13,55,,70,56,7,10,3,3,0.5,0.7
2025-05-21T2300,2881A,107.8908,26.5311,黔东南苗族侗族自治州,凯里学院,,23,17,13,13,11,72,,71,70,1,5,1,2,0.2,0.2
2025-05-21T2300,2593A,107.5228,26.2403,黔南布依族苗族自治州,小围寨,,20,17,16,14,9,58,,62,59,4,5,2,3,0.3,0.3
2025-05-21T2300,3538A,107.5175,26.2978,黔南布依族苗族自治州,沙坝,,24,24,21,14,10,48,,58,50,4,5,4,4,0.6,0.6
2025-05-21T2300,2589A,104.9022,25.0925,黔西南布依族苗族自治州,场坝街,颗粒物(PM10),52,53,25,29,13,98,,110,109,5,5,2,2,0.3,0.3
2025-05-21T2300,2590A,104.8811,25.0992,黔西南布依族苗族自治州,坪东大道,,26,24,26,18,12,80,,93,91,8,8,2,2,0.4,0.3
2025-05-21T2300,2502A,108.6236,21.9667,钦州市,市环保站,,19,19,19,3,6,25,,63,45,14,9,4,4,0.5,0.6
2025-05-21T2300,2503A,108.6549,21.9481,钦州市,沙埠小学,,33,33,35,10,13,14,,64,48,22,13,12,7,0.4,0.4
2025-05-21T2300,2504A,108.5989,21.7431,钦州市,港区一小,,34,34,34,9,12,27,,62,40,15,15,7,8,0.4,0.4
2025-05-21T2300,3404A,108.5959,21.9633,钦州市,北职校,,35,35,24,11,8,18,,58,43,13,7,9,7,0.7,0.4
2025-05-21T2300,1043A,119.7493,40.0116,秦皇岛市,第一关,"颗粒物(PM10),细颗粒物(PM2.5)",60,70,69,43,35,94,,131,117,51,24,5,6,0.3,0.3
2025-05-21T2300,1044A,119.5897,39.9499,秦皇岛市,监测站,颗粒物(PM10),68,86,73,45,27,95,,136,124,42,20,5,5,0.4,0.4
2025-05-21T2300,1046A,119.5251,39.9041,秦皇岛市,建设大厦,颗粒物(PM10),74,98,78,32,28,62,,134,116,60,19,8,5,0.4,0.4
2025-05-21T2300,3132A,119.610547,39.943889,秦皇岛市,文明里,颗粒物(PM10),72,94,76,39,24,77,,137,126,53,14,5,5,0.4,0.2
2025-05-21T2300,4198A,119.5090,39.8253,秦皇岛市,北戴河轮滑馆,细颗粒物(PM2.5),67,74,59,48,31,81,,131,122,42,21,4,5,0.4,0.3
2025-05-21T2300,1307A,120.6659,36.2403,青岛市,仰口,,26,19,17,18,18,76,,123,104,7,6,7,7,0.5,0.5
2025-05-21T2300,1310A,120.4134,36.0658,青岛市,市南区东部子站,,22,,15,9,11,39,,133,115,44,6,8,7,0.3,0.4
2025-05-21T2300,1311A,120.3664,36.1032,青岛市,四方区子站,,34,34,40,17,24,69,,159,120,40,22,11,9,0.9,0.9
2025-05-21T2300,1312A,120.2994,36.054,青岛市,市南区西部子站,,35,17,11,7,13,16,,121,80,70,13,7,7,0.7,0.7
2025-05-21T2300,1313A,120.4581,36.0858,青岛市,崂山区子站,,22,19,10,7,7,68,,127,115,18,6,6,7,0.3,0.4
2025-05-21T2300,1315A,120.3999,36.3083,青岛市,城阳区子站,,39,27,49,15,23,123,,176,144,12,21,4,5,0.6,0.7
2025-05-21T2300,1966A,120.0405,35.8735,青岛市,黄岛区4号,,29,9,19,9,10,92,,138,134,17,14,8,8,0.7,0.8
2025-05-21T2300,3362A,120.5014,36.4034,青岛市,即墨2号,细颗粒物(PM2.5),55,,29,39,37,106,,138,131,10,10,7,8,0.7,0.7
2025-05-21T2300,3642A,120.3503,36.0736,青岛市,市北区南部,,28,21,22,3,14,14,,125,100,55,6,8,6,0.5,0.6
2025-05-21T2300,3643A,120.3948,36.1805,青岛市,李沧区北部,,34,34,52,22,32,73,,142,112,31,26,9,10,0.6,0.7
2025-05-21T2300,4290A,120.1969,35.9546,青岛市,珠江路669号,,21,,15,12,12,67,,117,106,27,13,7,6,0.5,0.6
2025-05-21T2300,1702A,113.0426,23.691,清远市,环保大楼,,15,11,16,7,15,47,,84,53,11,16,8,7,0.6,0.7
2025-05-21T2300,1703A,113.0208,23.7106,清远市,凤城街办,,,13,23,3,13,,,79,55,14,20,9,7,0.4,0.4
2025-05-21T2300,3025A,113.0477,23.6344,清远市,技师学院,,32,32,24,17,11,28,,81,41,16,19,8,7,0.5,0.5
2025-05-21T2300,3318A,112.9903,23.7403,清远市,清新太和,,26,26,28,15,16,11,,77,41,20,17,7,9,0.5,0.4
2025-05-21T2300,3455A,113.076,23.7198,清远市,清城东城,,16,16,28,8,14,43,,77,54,9,13,9,7,0.6,0.7
2025-05-21T2300,2661A,107.6325,35.7357,庆阳市,庆阳五中,颗粒物(PM10),66,82,68,28,31,82,,156,125,6,10,5,6,0.6,0.6
2025-05-21T2300,2662A,107.6364,35.7067,庆阳市,市环保局,,,,56,,26,,,148,,,6,,10,,0.6
2025-05-21T2300,1916A,103.7897,25.5035,曲靖市,环境监测站,,39,39,36,20,16,93,,141,130,20,14,5,3,0.4,0.5
2025-05-21T2300,1917A,103.8,25.5364,曲靖市,烟厂办公区,,38,38,32,15,14,97,,145,133,13,9,4,4,0.5,0.5
2025-05-21T2300,3376A,103.7947,25.462,曲靖市,南苑二区,,40,40,31,13,14,104,,148,137,12,9,5,4,0.4,0.4
2025-05-21T2300,3377A,103.7444,25.5261,曲靖市,曲靖师范学院,,35,35,32,22,19,108,,147,138,8,9,8,7,0.4,0.4
2025-05-21T2300,1264A,118.8692,28.9398,衢州市,环保大楼,,19,19,17,7,7,23,,88,63,10,8,3,3,0.3,0.3
2025-05-21T2300,1265A,118.8709,28.9666,衢州市,实验学校,,16,16,16,7,8,29,,88,66,7,10,3,2,0.2,0.2
2025-05-21T2300,1266A,118.8621,28.9808,衢州市,衢州学院,,16,16,15,8,8,28,,81,58,11,15,4,3,0.4,0.4
2025-05-21T2300,1611A,118.5819,24.9117,泉州市,涂山街,,35,35,35,16,16,18,,92,51,40,25,7,7,0.5,0.5
2025-05-21T2300,1612A,118.5972,24.8978,泉州市,津头埔,,34,34,31,13,14,21,,86,49,34,22,3,4,0.6,0.6
2025-05-21T2300,1613A,118.6663,24.9424,泉州市,万安,,26,26,30,10,13,21,,95,52,22,18,4,5,0.5,0.6
2025-05-21T2300,1614A,118.6117,24.9604,泉州市,清源山,,,,,,,,,,,,,,,,
2025-05-21T2300,3529A,118.6333,24.9264,泉州市,城华南路,,,21,26,15,14,,,86,,28,21,4,5,0.4,0.5
2025-05-21T2300,2626A,88.8876,29.2718,日喀则市,日喀则监测站,,40,24,19,12,9,125,,127,125,5,9,4,4,0.2,0.2
2025-05-21T2300,3726A,88.8781,29.2426,日喀则市,林业技术推广中心,,40,37,24,16,8,127,,125,125,2,4,7,8,0.2,0.3
2025-05-21T2300,1659A,119.471,35.4209,日照市,监测站,颗粒物(PM10),60,70,47,34,36,122,,146,128,18,21,6,7,0.6,0.6
2025-05-21T2300,1660A,119.523,35.4216,日照市,市政府广场,颗粒物(PM10),54,58,32,32,21,111,,112,106,12,11,6,5,0.8,0.7
2025-05-21T2300,1661A,119.5587,35.4044,日照市,港务局,颗粒物(PM10),54,58,24,37,24,122,,130,123,14,9,8,7,0.7,0.6
2025-05-21T2300,3507A,119.5328,35.4625,日照市,职业技术学院,颗粒物(PM10),58,66,41,27,23,127,,129,119,22,23,6,5,0.8,0.8
2025-05-21T2300,3604A,119.3266,35.1044,日照市,岚山环保分局,颗粒物(PM10),63,75,69,33,41,90,,185,171,40,26,49,21,3.8,2.5
2025-05-21T2300,1835A,111.1922,34.7752,三门峡市,市政府,颗粒物(PM10),96,142,93,50,42,167,,214,205,11,20,4,8,0.8,0.7
2025-05-21T2300,1836A,111.1587,34.7942,三门峡市,开发区,颗粒物(PM10),102,153,93,74,48,179,,216,210,15,17,8,9,0.7,0.5
