timepoint,stationcode,longitude,latitude,area,positionname,primarypollutant,aqi,pm10,pm10_24h,pm2_5,pm2_5_24h,o3,o3_24h,o3_8h,o3_8h_24h,no2,no2_24h,so2,so2_24h,co,co_24h
2025-11-23T1900,1121A,125.2841,43.8463,长春市,邮电学院,细颗粒物(PM2.5),99,120,115,74,89,29,29,70,62,60,35,9,14,0.9,0.9
2025-11-23T1900,1122A,125.3716,43.8772,长春市,劳动公园,"颗粒物(PM10),细颗粒物(PM2.5)",88,126,137,65,96,26,26,73,66,66,37,14,15,1.1,1
2025-11-23T1900,1123A,125.3297,43.8805,长春市,园林处,细颗粒物(PM2.5),112,114,102,84,91,26,26,72,62,58,32,9,13,1.0,0.9
2025-11-23T1900,1124A,125.4605,43.79,长春市,净月潭,颗粒物(PM10),74,97,132,36,98,56,56,83,78,29,27,7,10,0.7,0.9
2025-11-23T1900,1125A,125.7194,43.515,长春市,甩湾子,,,,95,,93,28,28,84,76,60,26,6,9,2.3,0.8
2025-11-23T1900,1126A,125.3863,43.8447,长春市,经开区环卫处,颗粒物(PM10),85,119,132,59,109,4,4,66,57,82,44,9,11,1.0,0.9
2025-11-23T1900,1127A,125.245,43.7783,长春市,高新区管委会,细颗粒物(PM2.5),200,158,102,150,93,22,22,74,62,81,33,11,10,1.4,0.8
2025-11-23T1900,1128A,125.1761,43.8325,长春市,岱山公园,细颗粒物(PM2.5),159,160,110,121,101,8,8,64,52,103,47,14,13,1.0,0.9
2025-11-23T1900,4281A,125.3346,43.9164,长春市,北亚泰大街1068号,细颗粒物(PM2.5),147,131,106,112,99,4,4,63,51,85,40,11,13,1.5,1
2025-11-23T1900,1335A,113.0833,28.2325,长沙市,经开区环保局,颗粒物(PM10),55,59,74,37,56,83,83,96,96,25,42,6,10,0.6,0.6
2025-11-23T1900,1336A,112.8872,28.2189,长沙市,高开区环保局,细颗粒物(PM2.5),68,51,92,49,74,91,91,106,106,18,56,8,7,0.5,0.8
2025-11-23T1900,1337A,113.0792,28.2053,长沙市,马坡岭,细颗粒物(PM2.5),59,56,83,42,55,80,80,104,104,23,42,6,7,0.6,0.7
2025-11-23T1900,1338A,112.9394,28.19,长沙市,湖南师范大学,颗粒物(PM10),57,64,74,31,48,85,85,101,101,25,49,6,6,0.6,0.8
2025-11-23T1900,1339A,113.0178,28.1322,长沙市,雨花区环保局,颗粒物(PM10),52,53,76,35,50,82,82,105,105,29,54,9,10,0.5,0.7
2025-11-23T1900,1340A,112.9792,28.2597,长沙市,伍家岭,细颗粒物(PM2.5),52,49,94,36,57,59,59,93,93,43,53,7,6,0.4,0.6
2025-11-23T1900,1341A,113.0014,28.1944,长沙市,火车新站,,,52,88,41,60,81,81,99,99,31,67,,7,0.5,0.7
2025-11-23T1900,1342A,112.9844,28.1178,长沙市,天心区环保局,,50,45,77,35,50,90,90,110,110,30,57,6,7,0.4,0.6
2025-11-23T1900,1343A,112.8908,28.1308,长沙市,湖南中医药大学,细颗粒物(PM2.5),53,52,84,37,56,78,78,103,103,29,50,7,7,0.9,1.1
2025-11-23T1900,1344A,112.9581,28.3611,长沙市,沙坪,,,,,,,,,,,,,,,,
2025-11-23T1900,1727A,113.1147,36.1547,长治市,清华站,颗粒物(PM10),71,92,61,39,32,72,72,82,82,23,28,6,10,0.6,0.8
2025-11-23T1900,1730A,113.0886,36.2125,长治市,审计局,颗粒物(PM10),78,105,64,39,36,70,70,79,79,24,30,9,14,0.4,0.6
2025-11-23T1900,1731A,113.0844,36.1856,长治市,长治八中,颗粒物(PM10),83,116,77,36,40,69,69,77,77,18,26,13,14,0.4,0.6
2025-11-23T1900,2845A,113.1569,36.1911,长治市,德盛苑,颗粒物(PM10),71,91,58,41,35,81,81,84,84,21,25,10,14,0.4,0.5
2025-11-23T1900,3568A,113.06,36.0464,长治市,向阳小学,颗粒物(PM10),100,149,88,44,34,78,78,89,89,29,31,15,20,0.5,0.7
2025-11-23T1900,3569A,112.8792,36.3144,长治市,屯留一中,颗粒物(PM10),77,103,79,34,48,63,63,89,89,38,32,10,16,0.5,0.9
2025-11-23T1900,4189A,113.1131,36.19948,长治市,英华南巷50号,颗粒物(PM10),76,102,69,44,38,75,75,86,86,19,27,8,12,0.4,0.6
2025-11-23T1900,4190A,113.2367,36.3344,长治市,学府街1号,颗粒物(PM10),83,116,75,36,44,64,64,77,77,26,25,10,14,0.8,1
2025-11-23T1900,1854A,111.6975,28.9703,常德市,市二中,,33,33,63,19,45,54,54,53,53,15,24,4,7,0.5,0.7
2025-11-23T1900,1857A,111.7158,29.1456,常德市,白鹤山,,,,,,,,,,,,,,,,
2025-11-23T1900,4260A,109.5933,23.0951,贵港市,中山路155-3号,颗粒物(PM10),56,62,58,34,39,112,112,120,120,21,29,6,10,0.5,0.5
2025-11-23T1900,1439A,106.6899,26.5998,贵阳市,马鞍山,细颗粒物(PM2.5),64,63,58,46,41,46,46,62,60,18,15,5,7,0.4,0.4
2025-11-23T1900,1441A,106.6243,26.6266,贵阳市,鉴湖路,颗粒物(PM10),63,75,66,39,35,52,52,64,62,20,18,6,6,0.5,0.5
2025-11-23T1900,1442A,106.7487,26.6343,贵阳市,燕子冲,细颗粒物(PM2.5),92,80,57,68,52,54,54,67,66,17,16,7,9,0.5,0.4
2025-11-23T1900,1443A,106.6555,26.4365,贵阳市,碧云窝,细颗粒物(PM2.5),77,90,70,56,43,41,41,59,57,25,18,9,10,0.5,0.5
2025-11-23T1900,1445A,106.7109,26.6027,贵阳市,红边门,细颗粒物(PM2.5),70,73,64,51,45,53,53,63,63,18,15,12,12,0.9,0.7
2025-11-23T1900,1446A,106.7164,26.5699,贵阳市,新华路,细颗粒物(PM2.5),79,73,69,58,48,56,56,65,65,21,18,14,15,0.2,0.2
2025-11-23T1900,1447A,106.674,26.5424,贵阳市,太慈桥,细颗粒物(PM2.5),64,61,59,46,43,52,52,65,64,25,19,5,7,0.3,0.3
2025-11-23T1900,1552A,106.805,26.3003,贵阳市,桐木岭,颗粒物(PM10),63,75,71,44,49,67,67,68,68,14,11,27,20,1.0,1
2025-11-23T1900,4230A,106.6882,26.5695,贵阳市,花果园大街66号,细颗粒物(PM2.5),77,68,60,56,52,49,49,59,59,26,19,5,7,0.4,0.4
2025-11-23T1900,4231A,106.6873,26.5169,贵阳市,漓江路57号,细颗粒物(PM2.5),62,66,52,44,43,49,49,58,58,24,19,11,16,0.5,0.5
2025-11-23T1900,1862A,110.4144,25.3167,桂林市,电子科大尧山校区,,,,,,,,,,,,,,,,
2025-11-23T1900,1864A,110.3089,25.2708,桂林市,龙隐路小学,细颗粒物(PM2.5),59,48,45,42,39,69,69,113,112,35,21,9,11,0.6,0.6
2025-11-23T1900,1865A,110.2869,25.2178,桂林市,八中,细颗粒物(PM2.5),102,90,55,76,41,52,52,111,109,70,34,10,11,0.5,0.3
2025-11-23T1900,3531A,110.296,25.1253,桂林市,旅游学院,颗粒物(PM10),62,73,58,41,37,76,76,128,128,59,41,6,9,0.4,0.3
2025-11-23T1900,4222A,110.1835,25.2444,桂林市,环湖路276号,细颗粒物(PM2.5),62,68,58,44,45,73,73,108,108,32,28,11,32,0.7,0.5
2025-11-23T1900,4301A,110.2803,25.2773,桂林市,信义路13号,细颗粒物(PM2.5),63,68,52,45,35,73,73,119,118,46,24,12,14,0.7,0.5
2025-11-23T1900,2674A,100.2561,34.4714,果洛藏族自治州,玛沁县大武镇,,31,27,27,13,9,99,99,100,100,1,3,9,15,0.3,0.3
2025-11-23T1900,1129A,126.5422,45.755,哈尔滨市,岭北,,,,,,,,,,,,,,,,
2025-11-23T1900,1130A,126.561,45.8167,哈尔滨市,松北商大,细颗粒物(PM2.5),226,204,208,176,160,39,39,48,47,56,39,12,10,1.1,1.1
2025-11-23T1900,1131A,126.979,45.5419,哈尔滨市,阿城会宁,细颗粒物(PM2.5),214,193,229,164,208,22,22,76,71,71,39,13,17,1.3,1.2
2025-11-23T1900,1132A,126.599,45.7222,哈尔滨市,南岗学府路,细颗粒物(PM2.5),188,181,194,141,132,44,44,55,54,37,32,15,12,1.0,1.1
2025-11-23T1900,1133A,126.689,45.7733,哈尔滨市,太平宏伟公园,细颗粒物(PM2.5),208,191,181,158,131,48,48,62,62,43,34,20,13,1.3,1
2025-11-23T1900,1134A,126.635,45.7667,哈尔滨市,道外承德广场,细颗粒物(PM2.5),186,208,219,140,131,56,56,60,60,38,38,17,14,0.7,0.8
2025-11-23T1900,1135A,126.685,45.7319,哈尔滨市,香坊红旗大街,细颗粒物(PM2.5),166,197,193,126,149,60,60,62,62,37,41,28,20,1.0,1.2
2025-11-23T1900,1136A,126.6411,45.7258,哈尔滨市,动力和平路,细颗粒物(PM2.5),182,175,190,137,144,53,53,56,56,38,36,11,12,1.0,1.1
2025-11-23T1900,1137A,126.593,45.7478,哈尔滨市,道里建国路,细颗粒物(PM2.5),183,170,187,138,145,39,39,52,52,50,39,17,26,0.6,1.1
2025-11-23T1900,2566A,102.1879,31.914,阿坝藏族羌族自治州,州农科所,,,,,,,,,,,,,,,,
2025-11-23T1900,2568A,102.2502,31.8896,阿坝藏族羌族自治州,马师校,,25,18,19,17,15,61,61,74,74,12,7,6,6,0.4,0.4
2025-11-23T1900,3994A,102.2165,31.9024,阿坝藏族羌族自治州,马尔康中学西区,,26,19,16,18,10,76,76,82,82,9,5,5,6,0.4,0.4
2025-11-23T1900,2695A,80.292,41.1694,阿克苏地区,电视台,颗粒物(PM10),138,225,256,91,93,77,77,62,62,39,51,9,10,0.9,1.4
2025-11-23T1900,2696A,80.2613,41.1551,阿克苏地区,艺术中心,颗粒物(PM10),120,189,216,64,82,108,108,63,63,34,51,7,9,0.8,1.1
2025-11-23T1900,2204A,105.6467,38.8363,阿拉善盟,西城区西花园,,,,,,,,,,,,,,,,
2025-11-23T1900,2205A,105.6985,38.8411,阿拉善盟,蒙二幼,颗粒物(PM10),170,290,155,26,31,75,75,91,89,5,7,7,7,0.8,0.8
2025-11-23T1900,2206A,105.724,38.8516,阿拉善盟,环保局新楼,颗粒物(PM10),95,140,131,28,35,80,80,90,90,4,5,8,9,0.8,0.7
2025-11-23T1900,2708A,88.1264,47.8517,阿勒泰地区,市站,,16,16,17,6,8,41,41,41,41,29,37,4,5,0.3,0.4
2025-11-23T1900,2630A,80.1161,32.5,阿里地区,阿里监测站,,26,6,3,3,3,83,83,76,76,4,14,7,9,0.3,0.4
2025-11-23T1900,3192A,80.0903,32.5028,阿里地区,阿里藏医院,,27,12,10,3,5,86,86,81,81,2,5,8,10,0.5,0.5
2025-11-23T1900,2642A,109.0318,32.6537,安康市,香溪洞,,,,,,,,,,,,,,,,
2025-11-23T1900,2644A,109.0072,32.6975,安康市,汉滨区检察院,,50,50,47,23,28,16,16,43,43,45,26,6,6,0.6,0.6
2025-11-23T1900,4054A,109.0325,32.6913,安康市,市邮政管理局,颗粒物(PM10),57,63,51,35,29,9,9,45,40,58,32,6,5,1.4,0.8
2025-11-23T1900,2291A,117.0809,30.5177,安庆市,环科院,细颗粒物(PM2.5),100,88,81,75,65,75,75,86,86,39,57,9,7,0.8,0.8
2025-11-23T1900,2292A,117.0331,30.5119,安庆市,马山宾馆,细颗粒物(PM2.5),104,115,88,78,67,30,30,83,82,90,62,8,8,0.9,0.8
2025-11-23T1900,2294A,116.9896,30.6145,安庆市,安庆大学,细颗粒物(PM2.5),175,159,89,132,62,68,68,90,90,60,56,13,10,0.8,0.8
2025-11-23T1900,3173A,117.0598,30.5351,安庆市,市人大,细颗粒物(PM2.5),99,106,88,74,64,66,66,94,94,50,57,9,9,0.7,0.7
2025-11-23T1900,3122A,105.9606,26.2611,安顺市,伍家关,颗粒物(PM10),70,90,63,44,37,81,81,82,82,14,14,14,24,1.0,1
2025-11-23T1900,3123A,105.9408,26.2431,安顺市,凤凰山,细颗粒物(PM2.5),89,75,57,66,49,65,65,70,70,18,17,13,24,0.6,0.5
2025-11-23T1900,3124A,105.9439,26.2564,安顺市,金钟山,细颗粒物(PM2.5),89,70,52,66,46,67,67,73,73,16,13,17,26,0.7,0.6
2025-11-23T1900,3125A,105.8983,26.2481,安顺市,娄家坡,细颗粒物(PM2.5),90,81,56,67,48,62,62,68,68,18,16,20,21,0.7,0.6
2025-11-23T1900,1818A,114.4839,36.0621,安阳市,棉研所,,,,,,,,,,,,,,,,
2025-11-23T1900,1819A,114.3551,36.1017,安阳市,红庙街,颗粒物(PM10),77,103,76,40,37,42,42,76,74,45,33,4,8,0.6,0.7
2025-11-23T1900,1820A,114.361,36.0681,安阳市,银杏小区,颗粒物(PM10),79,108,76,49,38,36,36,80,76,51,30,5,6,0.6,0.6
2025-11-23T1900,3141A,114.3922,36.0878,安阳市,信访局,颗粒物(PM10),73,95,74,39,40,60,60,83,83,33,28,5,8,0.4,0.5
2025-11-23T1900,3669A,114.4705,36.0637,安阳市,左辅环卫站,颗粒物(PM10),96,142,111,52,52,42,42,77,77,37,38,5,7,0.7,0.7
2025-11-23T1900,3703A,114.2917,36.0949,安阳市,安钢职工学校,颗粒物(PM10),74,98,87,48,42,60,60,77,77,27,28,6,7,0.5,0.7
2025-11-23T1900,1748A,123.044,41.1196,鞍山市,深沟寺,细颗粒物(PM2.5),166,162,109,126,78,59,59,69,66,33,28,9,13,1.2,1.1
2025-11-23T1900,1749A,123.011,41.0931,鞍山市,太阳城,细颗粒物(PM2.5),153,150,106,117,76,50,50,68,60,33,28,11,16,1.2,1.2
2025-11-23T1900,1750A,123.0485,41.1442,鞍山市,太平,细颗粒物(PM2.5),155,162,115,118,75,61,61,77,69,36,31,10,15,1.3,1.1
2025-11-23T1900,1751A,122.9642,41.0971,鞍山市,铁西三道街,细颗粒物(PM2.5),189,205,147,142,91,22,22,57,47,74,47,13,19,1.7,1.5
2025-11-23T1900,1753A,123.022,41.0821,鞍山市,明达新区,细颗粒物(PM2.5),162,156,102,123,73,52,52,73,67,34,24,12,15,1.1,0.8
2025-11-23T1900,1754A,123.1289,41.0228,鞍山市,千山,,,,,,,,,,,,,,,,
2025-11-23T1900,4201A,122.9446,41.0826,鞍山市,兴盛南路290号,细颗粒物(PM2.5),169,183,140,128,91,31,31,58,48,65,47,13,16,1.2,1.1
2025-11-23T1900,2195A,107.4212,40.761,巴彦淖尔市,附二中,颗粒物(PM10),500,730,251,143,67,56,56,71,70,8,6,5,5,0.4,0.3
2025-11-23T1900,2196A,107.37,40.7372,巴彦淖尔市,市环保大楼,颗粒物(PM10),500,979,248,160,60,64,64,78,77,6,6,8,8,0.4,0.3
2025-11-23T1900,1956A,86.1472,41.7538,巴音郭楞蒙古自治州,孔雀公园,颗粒物(PM10),124,197,219,51,54,50,50,62,62,31,32,8,10,0.4,0.6
2025-11-23T1900,1957A,86.1972,41.7166,巴音郭楞蒙古自治州,棉纺厂,颗粒物(PM10),142,234,276,50,63,68,68,69,69,14,30,8,7,0.5,0.7
2025-11-23T1900,1958A,86.2357,41.7173,巴音郭楞蒙古自治州,经济开发区,颗粒物(PM10),123,196,222,37,41,60,60,64,64,15,20,8,7,0.4,0.5
2025-11-23T1900,2914A,106.7677,31.8794,巴中市,苏山坪,,,,,,,,,,,,,,,,
2025-11-23T1900,3181A,106.7768,31.8526,巴中市,市五中,细颗粒物(PM2.5),57,50,60,40,48,37,37,54,54,25,17,8,8,0.7,0.8
2025-11-23T1900,3183A,106.7418,31.8654,巴中市,圣泉水务公司,细颗粒物(PM2.5),53,48,46,37,38,11,11,50,50,47,20,9,9,0.9,0.8
2025-11-23T1900,3616A,106.7616,31.8344,巴中市,市中心医院,细颗粒物(PM2.5),53,48,53,37,50,23,23,52,52,37,17,5,5,1.2,1
2025-11-23T1900,2235A,122.7911,45.6077,白城市,洮北区环保局,颗粒物(PM10),53,56,47,34,25,38,38,57,54,21,13,5,5,0.4,0.4
2025-11-23T1900,2236A,122.8738,45.5725,白城市,市环保局,细颗粒物(PM2.5),75,95,49,55,23,33,33,58,53,28,18,8,6,0.1,0.2
2025-11-23T1900,2231A,126.4219,41.9171,白山市,喜丰,细颗粒物(PM2.5),87,120,103,64,39,10,10,82,76,83,37,10,12,1.3,1.1
2025-11-23T1900,2232A,126.4077,41.9419,白山市,环保局,细颗粒物(PM2.5),132,139,66,100,48,7,7,78,74,64,28,11,11,1.9,1.1
2025-11-23T1900,2647A,104.1724,36.5446,白银市,第三小学,颗粒物(PM10),167,283,81,119,53,80,80,80,80,19,44,11,38,0.4,0.9
2025-11-23T1900,2648A,104.1465,36.5482,白银市,动力公司,细颗粒物(PM2.5),168,272,75,127,48,80,80,82,82,14,33,7,23,0.3,0.8
2025-11-23T1900,2512A,106.6103,23.9011,百色市,市监测站,,43,43,29,22,18,50,50,81,81,18,15,6,6,0.6,0.4
2025-11-23T1900,2513A,106.6538,23.8859,百色市,市中心血站,颗粒物(PM10),77,104,51,51,29,43,43,88,88,62,32,13,7,0.9,0.6
2025-11-23T1900,3406A,106.6085,23.8798,百色市,祈福高中,颗粒物(PM10),77,103,45,26,20,39,39,70,70,43,22,6,6,0.5,0.4
2025-11-23T1900,2270A,117.396,32.939,蚌埠市,工人疗养院,细颗粒物(PM2.5),107,137,116,80,68,70,70,96,92,46,37,8,10,0.6,0.5
2025-11-23T1900,2271A,117.3605,32.9427,蚌埠市,百货大楼,细颗粒物(PM2.5),108,129,101,81,70,68,68,95,91,53,42,12,13,0.8,0.6
2025-11-23T1900,2273A,117.4185,32.8911,蚌埠市,蚌埠学院,细颗粒物(PM2.5),107,129,115,80,77,52,52,91,86,52,44,17,11,0.8,0.6
2025-11-23T1900,2274A,117.3533,32.9673,蚌埠市,淮上区政府,细颗粒物(PM2.5),113,134,109,85,71,71,71,94,92,47,38,10,10,0.6,0.4
2025-11-23T1900,2275A,117.3145,32.8977,蚌埠市,高新区,细颗粒物(PM2.5),124,151,135,94,89,52,52,80,76,50,52,9,10,0.7,0.6
2025-11-23T1900,3715A,117.3092,32.9314,蚌埠市,蚌埠田家炳中学,细颗粒物(PM2.5),130,166,137,99,86,30,30,82,76,73,50,19,21,0.7,0.6
2025-11-23T1900,1585A,109.8756,40.6532,包头市,市环境监测站,颗粒物(PM10),122,193,213,37,55,76,76,70,70,10,52,7,18,0.2,0.9
2025-11-23T1900,1587A,109.9991,40.5842,包头市,包头八中,颗粒物(PM10),113,175,211,38,71,76,76,73,73,15,47,4,15,0.5,1.2
2025-11-23T1900,1588A,109.8538,40.6821,包头市,青山宾馆,颗粒物(PM10),103,156,186,38,66,74,74,68,68,12,53,7,14,0.7,1.5
2025-11-23T1900,1589A,109.8642,40.6288,包头市,惠龙物流,颗粒物(PM10),107,163,195,37,61,77,77,75,75,15,50,7,23,0.5,1.2
2025-11-23T1900,1590A,110.0377,40.5546,包头市,东河鸿龙湾,颗粒物(PM10),97,144,180,27,54,72,72,78,78,17,50,5,9,0.6,1.2
2025-11-23T1900,3283A,109.9154,40.5685,包头市,滨河大厦,颗粒物(PM10),91,131,172,40,53,74,74,77,77,14,38,10,10,0.6,0.8
2025-11-23T1900,3419A,109.9447,40.6261,包头市,包头市委党校,颗粒物(PM10),99,148,189,31,55,83,83,80,80,8,49,6,18,0.3,1
2025-11-23T1900,3683A,109.8331,40.6576,包头市,昆区政府,颗粒物(PM10),105,159,201,35,64,76,76,66,66,14,60,8,19,0.4,1.3
2025-11-23T1900,1930A,107.185,34.3063,宝鸡市,庙沟村,,,,,,,,,,,,,,,,
2025-11-23T1900,1931A,107.0708,34.3017,宝鸡市,竹园沟,细颗粒物(PM2.5),70,51,32,51,19,51,51,77,77,18,14,7,7,0.2,0.2
2025-11-23T1900,1932A,107.1906,34.3672,宝鸡市,三陆医院,颗粒物(PM10),51,52,57,35,33,7,7,75,72,89,40,6,6,0.7,0.5
2025-11-23T1900,1933A,107.1431,34.3547,宝鸡市,监测站,细颗粒物(PM2.5),62,56,46,44,27,45,45,71,71,29,29,4,5,0.6,0.6
2025-11-23T1900,1934A,107.1186,34.3739,宝鸡市,技工学校,颗粒物(PM10),51,52,49,22,28,40,40,82,79,47,22,5,7,0.5,0.4
2025-11-23T1900,1936A,107.2058,34.3497,宝鸡市,文理学院,颗粒物(PM10),60,69,50,28,29,22,22,74,74,58,32,4,6,0.6,0.5
2025-11-23T1900,1937A,107.2386,34.3622,宝鸡市,三迪小学,颗粒物(PM10),55,59,57,27,32,25,25,72,71,77,48,5,5,0.5,0.5
2025-11-23T1900,4308A,107.3898,34.3601,宝鸡市,陈仓区北开路21号,细颗粒物(PM2.5),69,82,73,50,47,10,10,71,65,88,41,7,66,0.4,0.6
2025-11-23T1900,1051A,115.493,38.8632,保定市,游泳馆,颗粒物(PM10),87,124,112,49,68,58,58,69,69,31,46,12,13,0.4,0.6
2025-11-23T1900,1052A,115.5213,38.8959,保定市,华电二区,颗粒物(PM10),77,103,94,55,69,49,49,73,73,45,52,6,7,0.5,0.6
2025-11-23T1900,1053A,115.4713,38.9108,保定市,接待中心,颗粒物(PM10),77,104,103,51,67,58,58,68,68,26,43,5,6,0.4,0.5
2025-11-23T1900,1054A,115.4612,38.8416,保定市,地表水厂,颗粒物(PM10),89,128,121,43,61,63,63,70,70,35,54,10,11,0.3,0.5
2025-11-23T1900,3581A,115.31981,38.95208,保定市,满城区生态环境分局,颗粒物(PM10),91,132,122,48,55,66,66,73,73,32,43,9,9,0.2,0.3
2025-11-23T1900,3582A,115.47694,38.76408,保定市,清苑区第二中学,颗粒物(PM10),106,162,132,44,55,44,44,66,66,40,41,18,17,0.4,0.6
2025-11-23T1900,3583A,115.62909,39.02311,保定市,徐水物探局,颗粒物(PM10),117,184,152,61,77,36,36,42,42,47,54,13,11,0.6,0.7
2025-11-23T1900,4004A,115.4202,38.8656,保定市,双鹰农机,颗粒物(PM10),94,137,132,50,60,62,62,72,72,35,51,10,11,0.4,0.6
2025-11-23T1900,4034A,115.5150,38.8590,保定市,植保所站,颗粒物(PM10),90,130,119,52,68,26,26,60,60,66,56,6,7,0.5,0.5
2025-11-23T1900,2594A,99.1678,25.1081,保山市,市环境监测站,,22,17,13,15,9,58,58,74,74,6,6,8,8,0.4,0.4
2025-11-23T1900,2595A,99.1711,25.1328,保山市,市环保局,,20,20,16,12,16,63,63,74,74,3,4,5,6,0.3,0.3
2025-11-23T1900,1866A,109.2262,21.588,北海市,牛尾岭水库,细颗粒物(PM2.5),55,58,51,39,40,87,87,101,101,23,13,6,6,0.3,0.1
2025-11-23T1900,1867A,109.1436,21.4086,北海市,海滩公园,细颗粒物(PM2.5),59,62,66,42,40,118,118,128,128,42,22,9,13,1.0,0.7
2025-11-23T1900,1868A,109.0981,21.4661,北海市,新市环保局,细颗粒物(PM2.5),62,66,63,44,45,115,115,135,135,33,21,9,11,0.7,0.6
2025-11-23T1900,1869A,109.1778,21.5233,北海市,北海工业园,细颗粒物(PM2.5),62,66,57,44,40,108,108,122,122,36,21,9,13,0.6,0.4
2025-11-23T1900,3400A,109.1911,21.4415,北海市,龙潭自来水厂,,,50,65,32,48,102,102,125,125,28,22,4,6,,0.6
2025-11-23T1900,1001A,116.3621,39.8784,北京市,万寿西宫,颗粒物(PM10),98,145,115,72,64,15,15,46,45,96,78,5,6,0.8,0.8
2025-11-23T1900,1002A,116.2202,40.2915,北京市,定陵,,,,,,,,,,,,,,,,
2025-11-23T1900,1003A,116.4174,39.9289,北京市,东四,颗粒物(PM10),100,149,119,67,61,30,30,49,48,62,66,5,6,0.9,0.9
2025-11-23T1900,1004A,116.4072,39.8863,北京市,天坛,颗粒物(PM10),83,115,103,57,56,16,16,40,40,46,61,1,3,0.6,0.8
2025-11-23T1900,1005A,116.462,39.9365,北京市,农展馆,颗粒物(PM10),97,144,114,66,58,23,23,49,47,71,65,5,6,0.9,0.9
2025-11-23T1900,1006A,116.3392,39.9295,北京市,官园,颗粒物(PM10),98,146,111,71,57,24,24,46,46,78,71,5,7,0.7,0.6
2025-11-23T1900,1007A,116.2878,39.9611,北京市,海淀万柳,颗粒物(PM10),98,146,108,61,53,6,6,45,42,86,64,5,6,1.0,0.8
2025-11-23T1900,1008A,116.6636,40.135,北京市,顺义新城,颗粒物(PM10),118,186,108,81,50,5,5,42,40,110,61,11,8,0.8,0.6
2025-11-23T1900,1009A,116.6275,40.3275,北京市,怀柔镇,颗粒物(PM10),106,162,83,70,42,7,7,45,43,97,46,8,6,1.0,0.6
2025-11-23T1900,1010A,116.2296,40.217,北京市,昌平镇,颗粒物(PM10),106,162,109,73,44,17,17,68,58,78,33,8,8,0.9,0.4
2025-11-23T1900,1011A,116.3966,39.9821,北京市,奥体中心,颗粒物(PM10),93,135,106,65,53,30,30,48,47,69,71,7,7,0.9,0.8
2025-11-23T1900,3281A,115.9718,40.4529,北京市,延庆夏都,颗粒物(PM10),100,150,95,55,41,24,24,66,65,55,30,6,5,0.7,0.6
2025-11-23T1900,3418A,116.8336,40.4095,北京市,密云新城,颗粒物(PM10),95,140,90,39,38,29,29,52,52,39,42,3,4,0.5,0.5
2025-11-23T1900,3671A,116.088,39.9726,北京市,门头沟三家店,颗粒物(PM10),100,150,105,61,42,7,7,47,43,77,48,2,3,0.7,0.5
2025-11-23T1900,3672A,116.1541,39.8204,北京市,丰台云岗,颗粒物(PM10),113,176,113,81,55,5,5,52,50,97,54,6,5,0.6,0.6
2025-11-23T1900,3673A,116.6804,39.9081,北京市,通州东关,颗粒物(PM10),103,156,134,69,63,42,42,45,45,54,73,7,8,0.5,0.6
2025-11-23T1900,3674A,115.9577,39.7603,北京市,房山燕山,颗粒物(PM10),90,129,90,56,46,38,38,52,52,42,35,6,6,0.4,0.4
2025-11-23T1900,3675A,116.4672,39.7733,北京市,大兴旧宫,颗粒物(PM10),103,156,134,63,67,25,25,48,48,59,66,4,5,0.6,0.8
2025-11-23T1900,3694A,115.986,40.4563,北京市,延庆石河营,颗粒物(PM10),95,140,88,49,38,22,22,61,60,55,29,4,4,0.6,0.6
2025-11-23T1900,3695A,116.6151,40.3053,北京市,怀柔新城,颗粒物(PM10),102,154,84,67,43,14,14,48,47,74,34,7,6,0.8,0.6
2025-11-23T1900,3696A,116.2545,39.8768,北京市,丰台小屯,颗粒物(PM10),106,162,118,65,58,1,1,40,38,111,68,6,6,0.7,0.8
2025-11-23T1900,3697A,116.84,40.3844,北京市,密云镇,颗粒物(PM10),104,157,95,50,41,7,7,48,46,71,46,3,3,0.8,0.6
2025-11-23T1900,4182A,116.1942,39.9158,北京市,八角北路9号,颗粒物(PM10),115,179,120,75,55,4,4,39,38,96,62,2,2,0.8,0.6
2025-11-23T1900,4194A,117.0790,40.1518,北京市,洳河巡河路,颗粒物(PM10),110,169,100,63,51,19,19,44,44,65,38,8,6,0.8,0.7
2025-11-23T1900,1761A,123.8275,41.3064,本溪市,大峪,细颗粒物(PM2.5),119,118,101,90,72,53,53,79,78,38,28,10,12,1.2,1
2025-11-23T1900,1762A,123.7567,41.3325,本溪市,溪湖,细颗粒物(PM2.5),144,143,112,110,82,58,58,72,72,40,32,16,17,1.5,1
2025-11-23T1900,1763A,123.7169,41.3094,本溪市,彩屯,细颗粒物(PM2.5),152,157,133,116,92,51,51,54,54,33,38,12,15,2.2,2.6
2025-11-23T1900,1764A,123.7669,41.2864,本溪市,东明,细颗粒物(PM2.5),135,,77,103,82,70,70,77,77,25,23,12,13,1.1,0.9
2025-11-23T1900,1765A,123.7992,41.2664,本溪市,新立屯,细颗粒物(PM2.5),117,,75,88,71,75,75,84,84,42,33,10,10,0.5,0.4
2025-11-23T1900,1766A,123.8142,41.3472,本溪市,威宁,细颗粒物(PM2.5),119,142,115,90,77,30,30,62,62,37,28,6,9,1.3,1.1
2025-11-23T1900,2587A,105.2864,27.3125,毕节市,八中,,38,38,42,24,29,62,62,70,69,13,7,11,8,0.5,0.4
2025-11-23T1900,2588A,105.31,27.2944,毕节市,师专,,42,42,40,27,28,68,68,73,72,11,8,10,8,0.7,0.6
2025-11-23T1900,4263A,105.3688,27.3598,毕节市,工业大道,,45,45,44,31,30,71,71,76,76,7,9,11,10,0.5,0.5
2025-11-23T1900,1629A,118.0018,37.3617,滨州市,第二水厂,细颗粒物(PM2.5),110,136,128,83,82,21,21,36,36,66,54,18,21,0.7,0.6
2025-11-23T1900,1630A,117.9776,37.393,滨州市,北中新校,细颗粒物(PM2.5),125,149,113,95,74,16,16,48,41,86,55,21,18,1.1,0.4
2025-11-23T1900,3514A,117.9378,37.3956,滨州市,中海酒店,细颗粒物(PM2.5),117,139,125,88,85,14,14,53,51,84,50,23,21,1.2,1
2025-11-23T1900,3515A,117.9378,37.3553,滨州市,开发区一中,细颗粒物(PM2.5),113,146,137,85,86,23,23,44,44,72,57,21,22,0.8,0.8
2025-11-23T1900,3516A,118.0917,37.694,滨州市,金海六路,细颗粒物(PM2.5),125,168,155,95,87,23,23,46,45,85,78,18,20,0.9,0.8
2025-11-23T1900,4028A,117.9956,37.3753,滨州市,滨州市西街道办事处,细颗粒物(PM2.5),119,161,127,90,83,3,3,39,36,65,38,16,18,1.5,0.8
2025-11-23T1900,2311A,115.8072,33.8399,亳州市,污水处理厂,颗粒物(PM10),83,115,92,33,49,37,37,68,66,53,32,5,7,0.6,0.6
2025-11-23T1900,2312A,115.7789,33.8518,亳州市,三国揽胜宫,,,99,96,43,56,,,76,76,40,27,5,6,0.4,0.4
2025-11-23T1900,3332A,115.7633,33.8034,亳州市,亳州学院,颗粒物(PM10),74,97,83,33,51,44,44,75,73,48,35,5,6,0.3,0.4
2025-11-23T1900,2693A,82.0485,44.8556,博尔塔拉蒙古自治州,市党校,颗粒物(PM10),61,72,61,8,7,52,52,47,47,15,13,3,3,0.3,0.4
2025-11-23T1900,2694A,82.0806,44.8969,博尔塔拉蒙古自治州,市环保局,颗粒物(PM10),62,74,73,12,16,49,49,39,39,15,21,2,5,0.4,0.5
2025-11-23T1900,1071A,116.8842,38.2991,沧州市,沧县城建局,细颗粒物(PM2.5),117,170,133,88,89,8,8,55,54,95,62,9,11,1.0,0.8
2025-11-23T1900,1072A,116.8584,38.3254,沧州市,电视转播站,细颗粒物(PM2.5),107,162,122,80,85,9,9,62,61,90,49,8,9,1.1,0.9
2025-11-23T1900,1073A,116.8709,38.3228,沧州市,市环保局,细颗粒物(PM2.5),115,173,130,87,92,5,5,59,56,85,45,4,8,1.0,0.8
2025-11-23T1900,3324A,116.8136,38.3004,沧州市,河北水利电力学院,颗粒物(PM10),98,146,140,52,71,25,25,57,57,77,59,8,13,0.6,0.7
2025-11-23T1900,2622A,97.1806,31.1273,昌都市,昌都监测站,,26,20,11,18,8,59,59,71,70,17,5,5,4,0.6,0.3
2025-11-23T1900,3719A,97.1714,31.1406,昌都市,昌都会议中心,,25,20,12,10,6,78,78,81,81,1,2,4,4,0.3,0.3
2025-11-23T1900,2690A,88.1236,43.8886,昌吉回族自治州,天山天池,,,,,,,,,,,,,,,,
2025-11-23T1900,2692A,87.2717,44.0297,昌吉回族自治州,新区政务中心,,37,37,45,21,27,44,44,49,49,27,36,4,4,0.6,1
2025-11-23T1900,3613A,87.3095,44.0142,昌吉回族自治州,亚心广场,,44,44,53,22,29,42,42,48,48,27,28,8,8,0.4,0.6
2025-11-23T1900,1120A,125.2863,43.9027,长春市,客车厂,细颗粒物(PM2.5),128,124,104,97,104,18,18,74,61,91,39,14,14,1.4,1
2025-11-23T1900,3138A,111.7153,29.0289,常德市,武陵区永安,,31,31,67,21,47,46,46,56,56,9,19,6,8,0.4,0.5
2025-11-23T1900,3139A,111.6892,28.9881,常德市,鼎城区玉霞,,35,35,62,23,48,40,40,52,52,13,21,5,6,0.5,0.7
2025-11-23T1900,3140A,111.6625,29.0531,常德市,武陵区长庚,,35,32,75,24,52,37,37,46,46,16,27,3,5,0.3,0.4
2025-11-23T1900,1196A,119.9633,31.762,常州市,市监测站,细颗粒物(PM2.5),93,84,131,69,100,61,61,108,104,61,61,19,11,0.9,0.9
2025-11-23T1900,1200A,119.9468,31.7069,常州市,武进监测站,细颗粒物(PM2.5),115,100,123,87,92,60,60,114,111,63,44,21,16,0.8,0.7
2025-11-23T1900,1201A,119.9255,31.9087,常州市,安家,细颗粒物(PM2.5),99,108,124,74,87,19,19,94,86,94,68,27,17,0.7,0.8
2025-11-23T1900,3002A,119.9805,31.8174,常州市,行政中心,细颗粒物(PM2.5),82,94,123,60,91,69,69,107,104,52,47,23,15,0.8,0.9
2025-11-23T1900,3003A,120.0522,31.7748,常州市,经开区,细颗粒物(PM2.5),87,87,138,64,92,79,79,115,113,38,52,19,16,1.0,1.2
2025-11-23T1900,3010A,119.9025,31.7964,常州市,钟楼,细颗粒物(PM2.5),93,87,121,69,94,47,47,95,92,67,50,29,20,0.8,0.8
2025-11-23T1900,3429A,119.8598,31.7066,常州市,武进经发区,细颗粒物(PM2.5),92,87,138,68,108,68,68,109,107,50,54,24,19,0.4,0.5
2025-11-23T1900,3430A,119.5826,31.7245,常州市,金坛城区,细颗粒物(PM2.5),94,95,133,70,104,95,95,99,99,29,36,12,12,1.0,1.1
2025-11-23T1900,2220A,120.4318,41.5881,朝阳市,西梁,细颗粒物(PM2.5),209,227,95,159,58,6,6,50,46,87,43,21,13,2.0,1.2
2025-11-23T1900,2221A,120.4521,41.5646,朝阳市,河畔小区,细颗粒物(PM2.5),137,171,75,104,43,7,7,53,47,80,40,12,12,1.4,1
2025-11-23T1900,2222A,120.4176,41.5648,朝阳市,八里堡,细颗粒物(PM2.5),201,198,80,151,46,9,9,48,44,85,50,17,13,1.7,0.9
2025-11-23T1900,2223A,120.3806,41.5969,朝阳市,农业园区,细颗粒物(PM2.5),83,99,77,61,50,33,33,56,56,52,36,11,13,0.8,1.1
2025-11-23T1900,1705A,116.6367,23.6719,潮州市,西园路,,,,,,,,,,,,,,,,
2025-11-23T1900,3026A,116.6183,23.6608,潮州市,市政府,细颗粒物(PM2.5),79,,67,58,34,123,123,134,134,16,21,8,9,0.5,0.5
2025-11-23T1900,4036A,116.6461,23.6761,潮州市,金山,细颗粒物(PM2.5),110,,46,83,36,118,118,128,128,20,16,5,3,0.6,0.5
2025-11-23T1900,2472A,113.0073,25.9061,郴州市,马头岭,,,,,,,,,,,,,,,,
2025-11-23T1900,2473A,113.0116,25.8226,郴州市,市职中,细颗粒物(PM2.5),72,71,56,52,43,52,52,104,100,44,30,7,6,0.7,0.6
2025-11-23T1900,2475A,113.0383,25.8071,郴州市,市审计局,细颗粒物(PM2.5),64,62,55,46,40,61,61,104,104,38,33,9,7,0.7,0.6
2025-11-23T1900,2476A,113.0348,25.7759,郴州市,市环保局,,44,44,75,26,40,81,81,100,100,23,39,12,11,0.5,0.5
2025-11-23T1900,4252A,113.0138,25.8011,郴州市,好美居路49号,"颗粒物(PM10),细颗粒物(PM2.5)",54,58,54,38,41,93,93,112,112,32,37,16,8,0.6,0.5
2025-11-23T1900,1431A,103.9728,30.7236,成都市,金泉两河,细颗粒物(PM2.5),77,56,93,56,78,78,78,92,92,31,43,3,4,0.7,0.8
2025-11-23T1900,1432A,104.176,30.6872,成都市,十里店,细颗粒物(PM2.5),89,109,125,66,95,62,62,96,96,57,46,4,4,0.7,0.8
2025-11-23T1900,1433A,104.079,30.5706,成都市,三瓦窑,细颗粒物(PM2.5),89,79,116,66,80,106,106,104,104,30,49,4,5,0.4,0.7
2025-11-23T1900,1434A,104.1114,30.63,成都市,沙河铺,细颗粒物(PM2.5),83,84,115,61,99,65,65,83,83,39,49,3,3,0.8,0.9
2025-11-23T1900,1437A,104.0786,30.6531,成都市,君平街,细颗粒物(PM2.5),74,70,104,54,86,92,92,90,90,23,39,5,5,0.5,0.7
2025-11-23T1900,1438A,103.613,31.0283,成都市,灵岩寺,,,,,,,,,,,,,,,,
2025-11-23T1900,2880A,104.0239,30.65639,成都市,大石西路,细颗粒物(PM2.5),83,74,83,61,76,93,93,93,93,32,45,4,3,0.6,0.8
2025-11-23T1900,3136A,104.2725,30.5589,成都市,龙泉驿区区政府,细颗粒物(PM2.5),67,63,94,48,72,79,79,99,99,25,25,7,7,0.5,0.6
2025-11-23T1900,3357A,104.0106,30.6931,成都市,金博路,细颗粒物(PM2.5),72,62,91,52,69,93,93,96,96,30,44,5,5,0.6,0.7
2025-11-23T1900,3359A,104.0578,30.5225,成都市,华阳,细颗粒物(PM2.5),70,73,111,51,79,88,88,91,91,35,42,6,6,0.6,0.7
2025-11-23T1900,3488A,104.3880,30.7467,成都市,青石路225号,细颗粒物(PM2.5),69,70,97,50,78,87,87,99,99,27,36,5,6,0.5,0.7
2025-11-23T1900,3489A,104.0789,30.4072,成都市,科学城,细颗粒物(PM2.5),97,86,105,72,84,96,96,96,96,17,28,6,6,0.4,0.6
2025-11-23T1900,4011A,103.8506,30.6947,成都市,光华大道三段,细颗粒物(PM2.5),64,76,102,46,78,75,75,94,94,35,37,2,3,0.5,0.7
2025-11-23T1900,4224A,104.2433,30.5353,成都市,鲸龙路1057号,细颗粒物(PM2.5),70,66,96,51,80,96,96,102,102,23,25,7,6,0.6,0.8
2025-11-23T1900,1062A,117.9531,40.9081,承德市,铁路,颗粒物(PM10),95,139,82,61,40,9,9,23,21,56,41,15,13,1.4,1.2
2025-11-23T1900,1063A,117.9392,40.9763,承德市,中国银行,颗粒物(PM10),87,124,81,43,34,18,18,37,37,41,36,3,5,0.6,0.9
2025-11-23T1900,1064A,117.9503,40.928,承德市,开发区,颗粒物(PM10),97,143,82,52,38,5,5,31,28,58,42,16,13,1.4,1
2025-11-23T1900,1066A,117.9268,41.0026,承德市,离宫,,,,,,,,,,,,,,,,
2025-11-23T1900,4274A,117.7994,40.9605,承德市,滨河大街98号,颗粒物(PM10),85,120,79,43,38,30,30,48,48,31,34,9,16,0.4,0.9
2025-11-23T1900,2314A,117.47,30.6618,池州市,池州学院,细颗粒物(PM2.5),155,138,72,118,55,72,72,91,91,48,36,18,9,1.3,1.1
2025-11-23T1900,3237A,117.4918,30.6617,池州市,展览馆,细颗粒物(PM2.5),93,104,63,69,43,60,60,89,89,52,36,10,8,0.9,0.9
2025-11-23T1900,3333A,117.5627,30.695,池州市,第八中学,细颗粒物(PM2.5),75,77,69,55,46,63,63,91,91,52,39,10,10,0.9,0.9
2025-11-23T1900,3334A,117.5038,30.6243,池州市,第十二中学,细颗粒物(PM2.5),98,109,72,73,45,41,41,84,83,77,49,10,10,1.1,1.3
2025-11-23T1900,1744A,118.9233,42.2816,赤峰市,松山一中,颗粒物(PM10),82,114,73,47,31,30,30,73,66,57,37,19,11,1.0,0.8
2025-11-23T1900,1745A,118.9576,42.2728,赤峰市,哈达街,颗粒物(PM10),88,126,77,41,25,17,17,68,58,56,29,15,11,1.0,0.6
2025-11-23T1900,1746A,118.8788,42.2554,赤峰市,天义路,颗粒物(PM10),68,85,64,41,29,44,44,67,63,34,22,6,6,0.7,0.7
2025-11-23T1900,3058A,119.2658,42.0353,赤峰市,银河街,颗粒物(PM10),108,166,85,71,51,19,19,64,61,64,32,7,7,1.5,1
2025-11-23T1900,3286A,118.9359,42.3147,赤峰市,桥北物流园区,颗粒物(PM10),82,113,77,49,37,22,22,61,55,56,39,11,10,0.6,0.6
2025-11-23T1900,2521A,107.3476,22.4136,崇左市,市环保局江州分局,,,60,57,32,30,61,61,118,110,51,25,8,8,,1.1
2025-11-23T1900,4256A,107.3750,22.3736,崇左市,石景林东路7号,,35,34,43,24,29,100,100,130,130,26,17,9,8,0.7,0.6
2025-11-23T1900,2298A,118.3093,32.3153,滁州市,老年大学,细颗粒物(PM2.5),102,98,90,76,71,80,80,104,104,34,36,10,10,0.6,0.6
2025-11-23T1900,2299A,118.3244,32.2786,滁州市,人大宾馆,细颗粒物(PM2.5),105,115,106,79,82,69,69,100,98,46,51,8,8,0.5,0.7
2025-11-23T1900,3207A,118.3118,32.3038,滁州市,市政府原办公楼,细颗粒物(PM2.5),92,96,97,68,73,78,78,105,104,44,44,7,7,0.6,0.7
2025-11-23T1900,3331A,118.3267,32.2634,滁州市,图书馆,细颗粒物(PM2.5),85,80,99,63,69,74,74,103,102,46,47,10,11,0.5,0.7
2025-11-23T1900,2605A,101.5482,25.0441,楚雄彝族自治州,州环境监测站,,18,18,15,11,12,36,36,34,33,5,7,5,5,0.7,0.7
2025-11-23T1900,2606A,101.538,25.0492,楚雄彝族自治州,市经济开发区,,16,15,18,10,14,49,49,57,57,9,9,6,6,0.6,0.6
2025-11-23T1900,2548A,107.5277,31.2827,达州市,达州职业技术学院,,,,,,,,,,,,,,,,
2025-11-23T1900,2549A,107.5086,31.2186,达州市,市环境监测站,"颗粒物(PM10),细颗粒物(PM2.5)",62,73,79,44,58,33,33,49,49,46,32,7,9,0.7,0.8
2025-11-23T1900,2550A,107.4988,31.2132,达州市,凤凰小区,细颗粒物(PM2.5),73,75,80,53,62,28,28,49,49,53,33,6,8,0.6,0.6
2025-11-23T1900,2551A,107.5082,31.1986,达州市,达县机关宾馆,细颗粒物(PM2.5),75,97,82,55,62,8,8,45,43,65,34,5,5,0.9,0.7
2025-11-23T1900,2552A,107.4644,31.2124,达州市,市政中心,颗粒物(PM10),70,89,90,46,59,26,26,51,51,52,30,8,9,0.6,0.6
2025-11-23T1900,2614A,100.1542,25.7054,大理白族自治州,大理市环境监测站,,26,19,11,18,18,35,35,52,52,25,10,6,6,0.8,0.6
2025-11-23T1900,2615A,100.2171,25.5811,大理白族自治州,大理古城,,22,22,16,15,11,34,34,58,57,28,10,7,7,0.6,0.5
2025-11-23T1900,1109A,121.612,38.9741,大连市,甘井子,细颗粒物(PM2.5),140,148,132,107,95,46,46,78,77,71,51,20,20,0.9,0.5
2025-11-23T1900,1110A,121.565,38.9511,大连市,周水子,细颗粒物(PM2.5),137,139,117,104,89,39,39,77,74,70,44,16,15,1.1,0.8
2025-11-23T1900,1111A,121.5637,38.8845,大连市,星海三站,细颗粒物(PM2.5),143,133,115,109,94,52,52,78,76,47,34,11,12,0.9,0.7
2025-11-23T1900,1112A,121.6302,38.9117,大连市,青泥洼桥,细颗粒物(PM2.5),133,137,109,101,97,64,64,81,80,46,35,17,15,1.0,0.9
2025-11-23T1900,1113A,121.6251,38.8638,大连市,傅家庄,细颗粒物(PM2.5),142,138,125,108,96,66,66,81,80,38,32,16,14,1.1,1
2025-11-23T1900,1114A,121.5213,38.8661,大连市,七贤岭,细颗粒物(PM2.5),143,158,128,109,90,53,53,78,76,58,44,10,11,1.0,0.9
2025-11-23T1900,1115A,121.2529,38.8061,大连市,旅顺,细颗粒物(PM2.5),153,154,127,117,97,52,52,70,67,46,34,11,11,0.8,0.7
2025-11-23T1900,1116A,121.7485,39.1311,大连市,金州,细颗粒物(PM2.5),168,191,143,127,104,15,15,60,53,109,65,12,14,1.5,0.8
2025-11-23T1900,1117A,121.7811,39.0496,大连市,开发区,细颗粒物(PM2.5),134,144,126,102,91,26,26,69,63,78,46,9,15,0.5,0.7
2025-11-23T1900,1118A,121.9762,39.0631,大连市,双D港,细颗粒物(PM2.5),130,130,116,99,89,53,53,79,78,38,32,14,14,0.9,0.9
2025-11-23T1900,1789A,124.81117,46.03138,大庆市,大同区,,,,94,,42,52,52,58,58,60,24,12,10,1.5,0.7
2025-11-23T1900,1790A,125.129,46.533,大庆市,龙凤区,细颗粒物(PM2.5),57,56,120,40,80,27,27,41,41,45,43,9,10,0.7,1.1
2025-11-23T1900,1791A,124.902,46.408,大庆市,红岗区,,50,50,72,23,46,48,48,56,56,19,24,6,6,0.6,0.8
2025-11-23T1900,1792A,125.153,46.586,大庆市,萨尔图区,颗粒物(PM10),61,72,115,39,61,17,17,32,32,54,42,9,12,0.7,0.8
2025-11-23T1900,1793A,124.9042,46.6215,大庆市,让胡路区,细颗粒物(PM2.5),125,119,61,95,41,42,42,56,56,28,20,9,9,0.6,0.5
2025-11-23T1900,3481A,125.141,46.634,大庆市,萨区政府监测点,颗粒物(PM10),55,60,77,24,36,33,33,50,50,28,24,9,11,0.5,0.6
2025-11-23T1900,1721A,113.3819,40.1097,大同市,果树场,颗粒物(PM10),62,73,138,32,48,40,40,72,72,56,44,10,15,0.6,0.9
2025-11-23T1900,1723A,113.2994,40.0758,大同市,云冈宾馆,颗粒物(PM10),92,133,168,26,38,55,55,71,71,30,32,7,13,0.7,0.8
2025-11-23T1900,1724A,113.3444,40.0917,大同市,大同大学,颗粒物(PM10),75,100,154,34,42,67,67,78,78,26,35,3,9,0.6,0.7
2025-11-23T1900,1725A,113.2661,40.1269,大同市,安家小村,颗粒物(PM10),72,93,158,26,39,68,68,77,77,18,18,8,11,0.3,0.4
2025-11-23T1900,1726A,113.2711,40.0844,大同市,教育学院,颗粒物(PM10),85,119,168,37,42,51,51,72,72,36,30,8,9,0.4,0.4
2025-11-23T1900,3282A,113.3397,40.0597,大同市,大同市卫生学校,,,118,159,38,43,56,56,72,72,,43,6,17,0.6,0.5
2025-11-23T1900,3565A,113.1367,40.1122,大同市,云冈站,颗粒物(PM10),79,108,148,31,42,31,31,76,72,50,20,10,7,0.4,0.4
2025-11-23T1900,3566A,113.1186,40.2556,大同市,图书馆,颗粒物(PM10),87,124,160,34,46,59,59,80,79,15,13,7,7,0.5,0.4
2025-11-23T1900,3567A,113.5931,40.0461,大同市,区一中,颗粒物(PM10),78,106,172,28,54,71,71,79,79,20,35,9,25,0.5,0.7
2025-11-23T1900,4199A,113.2798,40.0997,大同市,魏都大道141号,颗粒物(PM10),90,129,178,46,43,43,43,74,72,43,33,6,7,0.7,0.7
2025-11-23T1900,2269A,124.1069,50.4097,大兴安岭地区,科技局,,25,25,26,15,17,49,49,55,55,6,5,5,4,0.3,0.3
2025-11-23T1900,3663A,124.1164,50.4278,大兴安岭地区,红旗社区,,40,,15,28,11,43,43,56,56,14,17,7,10,0.5,0.3
2025-11-23T1900,1600A,124.3303,40.0625,丹东市,江湾东路,细颗粒物(PM2.5),142,184,112,108,68,66,66,81,80,27,24,8,9,1.5,1.4
2025-11-23T1900,1601A,124.4256,40.1503,丹东市,临江后街,细颗粒物(PM2.5),132,176,120,100,65,28,28,70,70,73,43,10,12,1.5,1.5
2025-11-23T1900,1602A,124.3933,40.1461,丹东市,元宝山,细颗粒物(PM2.5),132,144,103,100,69,75,75,80,80,32,30,12,16,1.4,1.5
2025-11-23T1900,1603A,124.3633,40.1092,丹东市,民主桥,细颗粒物(PM2.5),203,218,116,153,78,19,19,77,72,80,44,10,10,2.2,1.3
2025-11-23T1900,3541A,109.5726,19.5167,儋州市,第一中学子站,颗粒物(PM10),55,59,48,32,26,103,103,103,103,11,8,8,7,0.5,0.5
2025-11-23T1900,3542A,109.5567,19.5187,儋州市,东坡学校子站,,47,47,45,29,24,116,116,116,116,15,12,1,2,0.5,0.4
2025-11-23T1900,2616A,98.5842,24.428,德宏傣族景颇族自治州,德宏州监测站,,26,26,28,18,21,58,58,69,69,21,16,10,8,0.6,0.7
2025-11-23T1900,3677A,98.5881,24.4368,德宏傣族景颇族自治州,芒市人民政府综合楼,,24,24,27,6,14,53,53,61,61,17,14,10,7,0.7,0.7
2025-11-23T1900,1901A,104.4239,31.1208,德阳市,东山公园,细颗粒物(PM2.5),63,57,57,45,70,83,83,91,91,21,28,3,3,0.8,0.9
2025-11-23T1900,1902A,104.3826,31.1317,德阳市,西小区,细颗粒物(PM2.5),68,72,111,49,78,69,69,81,81,33,40,5,6,0.5,0.6
2025-11-23T1900,1904A,104.3553,31.1091,德阳市,耐火材料厂,细颗粒物(PM2.5),83,83,112,61,90,60,60,84,84,45,44,10,10,0.8,0.9
2025-11-23T1900,3639A,104.4019,31.1244,德阳市,市教育局,细颗粒物(PM2.5),65,60,85,47,68,62,62,83,83,39,41,1,2,0.7,0.7
2025-11-23T1900,1622A,116.3032,37.4674,德州市,儿童乐园,颗粒物(PM10),106,161,159,68,85,44,44,58,58,60,59,18,20,1.0,1.1
2025-11-23T1900,1624A,116.2991,37.4451,德州市,监理站,颗粒物(PM10),100,149,148,70,88,55,55,65,65,60,63,19,20,0.8,0.9
2025-11-23T1900,3066A,116.2721,37.4379,德州市,九衢泉纯净水厂,颗粒物(PM10),102,153,157,73,88,40,40,50,50,81,81,18,19,1.1,1.2
2025-11-23T1900,3371A,116.3728,37.4403,德州市,开发区人民医院,颗粒物(PM10),107,163,157,75,86,50,50,64,64,62,64,22,23,1.0,1.1
2025-11-23T1900,3511A,116.5652,37.3319,德州市,陵城艺术中心,颗粒物(PM10),112,173,156,80,88,32,32,52,52,74,68,22,26,1.0,1
2025-11-23T1900,4292A,116.3525,37.4209,德州市,新河东路,颗粒物(PM10),113,175,163,78,96,27,27,52,52,98,87,18,19,1.0,1.1
2025-11-23T1900,2621A,99.7056,27.8317,迪庆藏族自治州,迪庆州站,,26,26,16,15,12,66,66,63,62,10,6,6,6,0.8,0.7
2025-11-23T1900,3180A,99.7136,27.8094,迪庆藏族自治州,质量技术监督局,,22,21,16,12,9,70,70,67,63,9,7,7,7,0.7,0.6
2025-11-23T1900,4257A,104.6092,35.5962,定西市,将台街,细颗粒物(PM2.5),84,82,66,62,39,55,55,84,84,37,30,20,14,0.9,0.7
2025-11-23T1900,4309A,104.6159,35.5701,定西市,正龙路62号,颗粒物(PM10),89,128,72,65,39,49,49,84,84,43,18,8,7,1.2,0.7
2025-11-23T1900,1389A,113.7547,23.0494,东莞市,莞城梨川,颗粒物(PM10),59,67,55,33,33,78,78,121,121,55,41,8,8,0.7,0.6
2025-11-23T1900,1390A,113.7944,23.0128,东莞市,东城石井,颗粒物(PM10),51,51,49,29,32,96,96,131,131,31,37,9,9,0.7,0.7
2025-11-23T1900,1391A,113.7383,22.9658,东莞市,南城西平,,46,46,65,32,40,95,95,135,135,43,67,10,10,0.7,0.8
2025-11-23T1900,3319A,113.7338,23.0381,东莞市,万江金泰,颗粒物(PM10),55,59,56,31,32,97,97,121,121,30,35,8,7,0.8,0.8
2025-11-23T1900,3626A,113.7533,23.0202,东莞市,南城元岭,颗粒物(PM10),52,53,53,34,33,104,104,147,139,28,31,10,9,0.5,0.5
2025-11-23T1900,3627A,113.7875,23.0457,东莞市,东城主山,,36,36,17,10,8,88,88,137,136,40,42,8,8,0.6,0.5
2025-11-23T1900,1666A,118.6614,37.4309,东营市,市环保局,细颗粒物(PM2.5),128,163,139,97,83,4,4,35,33,90,72,21,24,1.2,1
2025-11-23T1900,3036A,118.6904,37.4338,东营市,开发区管委会,细颗粒物(PM2.5),134,165,146,102,86,7,7,38,36,100,79,,32,0.8,0.7
2025-11-23T1900,3365A,118.5719,37.565,东营市,垦利区民丰路,细颗粒物(PM2.5),128,175,148,97,86,13,13,48,44,91,80,11,12,1.2,1.1
2025-11-23T1900,3498A,118.5055,37.8612,东营市,河口城区,细颗粒物(PM2.5),125,171,157,95,93,42,42,56,56,55,68,20,23,0.9,1
2025-11-23T1900,3646A,118.4978,37.4623,东营市,胜利站,细颗粒物(PM2.5),134,144,134,102,88,4,4,32,27,104,83,22,54,1.6,1.2
2025-11-23T1900,3734A,118.35,37.26,东营市,理想之城,细颗粒物(PM2.5),128,168,147,97,86,1,1,30,29,96,83,15,17,1.1,1
2025-11-23T1900,1591A,110.0023,39.8129,鄂尔多斯市,综合楼,颗粒物(PM10),75,100,140,24,36,81,81,87,87,11,14,8,10,0.3,0.3
2025-11-23T1900,1592A,109.9486,39.8261,鄂尔多斯市,巴音孟克林场办事处,颗粒物(PM10),100,149,185,27,40,88,88,93,93,9,8,6,7,0.3,0.3
2025-11-23T1900,1593A,109.7736,39.5986,鄂尔多斯市,康泽苑,颗粒物(PM10),84,117,133,31,35,89,89,97,96,8,13,6,8,0.3,0.3
2025-11-23T1900,1594A,109.8119,39.5989,鄂尔多斯市,华泰汽车城,颗粒物(PM10),82,114,133,34,36,83,83,95,95,13,12,6,8,0.2,0.2
2025-11-23T1900,1595A,109.9734,39.7884,鄂尔多斯市,奥林花园,颗粒物(PM10),95,139,167,22,34,84,84,83,83,14,20,9,11,0.2,0.3
2025-11-23T1900,2436A,114.8938,30.3994,鄂州市,市政府,细颗粒物(PM2.5),102,89,107,76,85,66,66,59,59,40,63,13,15,0.8,1
2025-11-23T1900,2437A,114.8989,30.3714,鄂州市,赵家坝,细颗粒物(PM2.5),87,90,104,64,80,85,85,77,77,20,40,12,12,0.9,1
2025-11-23T1900,3654A,114.8094,30.4089,鄂州市,精准医疗中心,细颗粒物(PM2.5),95,99,116,71,88,84,84,76,76,18,63,4,13,0.9,1.1
2025-11-23T1900,2454A,109.4978,30.2981,恩施土家族苗族自治州,湖北民院,细颗粒物(PM2.5),75,59,71,55,67,14,14,32,32,29,19,7,7,0.9,0.8
2025-11-23T1900,2455A,109.4707,30.2798,恩施土家族苗族自治州,州电力总公司,细颗粒物(PM2.5),69,59,77,50,66,12,12,23,23,34,22,6,6,0.7,0.7
2025-11-23T1900,3549A,109.5061,30.3772,恩施土家族苗族自治州,龙凤新区,细颗粒物(PM2.5),57,58,87,40,64,14,14,27,27,18,23,6,7,0.4,0.5
2025-11-23T1900,2499A,108.3411,21.6158,防城港市,沙万,颗粒物(PM10),55,60,52,37,31,120,120,126,126,12,14,7,8,0.3,0.3
2025-11-23T1900,2500A,108.3514,21.7731,防城港市,防城档案局,颗粒物(PM10),64,77,72,45,39,86,86,110,109,34,19,9,9,0.7,0.5
2025-11-23T1900,2501A,108.3506,21.6414,防城港市,大海花园,颗粒物(PM10),52,53,52,34,31,132,132,135,135,14,14,6,9,0.5,0.5
2025-11-23T1900,1371A,113.1294,23.0067,佛山市,湾梁,颗粒物(PM10),51,51,57,25,39,105,105,129,129,32,55,8,10,0.5,0.6
2025-11-23T1900,1372A,113.1083,23.0478,佛山市,华材职中,颗粒物(PM10),60,70,70,36,41,88,88,127,127,45,58,7,8,0.8,0.9
2025-11-23T1900,1373A,113.144,23.0453,佛山市,南海气象局,,50,50,57,34,37,104,104,130,130,33,49,8,10,0.6,0.7
2025-11-23T1900,1374A,113.2881,22.8094,佛山市,顺德苏岗,颗粒物(PM10),55,59,52,36,31,94,94,124,124,52,62,9,10,0.6,0.5
2025-11-23T1900,1376A,112.8383,22.8678,佛山市,高明孔堂,颗粒物(PM10),52,53,63,32,37,98,98,114,114,25,35,7,11,0.4,0.5
2025-11-23T1900,1377A,112.8836,23.1588,佛山市,三水监测站,颗粒物(PM10),64,78,70,41,44,69,69,101,101,57,50,9,15,0.7,0.7
2025-11-23T1900,1378A,112.867,23.185,佛山市,三水云东海,,44,44,62,27,40,82,82,110,110,31,47,8,10,0.6,0.6
2025-11-23T1900,3625A,113.2544,22.7642,佛山市,容桂街道办,颗粒物(PM10),76,102,70,41,39,74,74,108,108,71,72,8,8,0.7,0.7
2025-11-23T1900,1280A,119.3903,26.0543,福州市,鼓山,,,,31,,17,,,109,,,12,,2,,0.6
2025-11-23T1900,1282A,119.2681,26.0504,福州市,师大,颗粒物(PM10),53,55,45,25,25,100,100,115,115,21,17,7,7,0.5,0.6
2025-11-23T1900,1283A,119.2984,26.1028,福州市,五四北路,,49,49,40,25,26,93,93,113,112,30,21,5,5,0.5,0.5
2025-11-23T1900,1284A,119.2648,26.0768,福州市,杨桥西路,颗粒物(PM10),53,55,43,24,25,90,90,116,115,26,17,4,5,0.4,0.4
2025-11-23T1900,1285A,119.317,26.0746,福州市,紫阳,颗粒物(PM10),60,70,49,31,25,64,64,87,83,40,25,7,7,0.6,0.5
2025-11-23T1900,3048A,119.5799,26.0936,福州市,九龙,,34,34,34,19,21,106,106,127,126,13,11,3,5,0.3,0.4
2025-11-23T1900,3526A,119.5189,25.9664,福州市,吴航,,32,32,38,17,22,95,95,109,109,16,20,6,8,0.6,0.5
2025-11-23T1900,1755A,123.7977,41.8491,抚顺市,望花区,细颗粒物(PM2.5),162,158,120,123,88,68,68,66,66,31,39,16,16,1.2,1.1
2025-11-23T1900,1756A,123.9161,41.8822,抚顺市,顺城区,细颗粒物(PM2.5),172,145,148,130,104,41,41,65,65,59,50,16,12,1.4,1.5
2025-11-23T1900,1757A,124.0436,41.8611,抚顺市,东洲区,细颗粒物(PM2.5),137,119,96,104,76,74,74,76,76,28,31,25,13,1.1,1
2025-11-23T1900,1758A,123.9247,41.8642,抚顺市,新抚区,细颗粒物(PM2.5),153,141,121,117,87,54,54,64,64,32,46,12,10,1.2,1.3
2025-11-23T1900,1759A,124.0972,41.8961,抚顺市,大伙房水库,细颗粒物(PM2.5),139,116,86,106,70,78,78,88,88,23,19,14,14,1.3,1.1
2025-11-23T1900,1760A,123.7086,41.8391,抚顺市,沈抚新城,细颗粒物(PM2.5),228,207,124,178,98,47,47,74,72,46,30,14,14,1.5,1.2
2025-11-23T1900,2376A,116.2127,28.0814,抚州市,桐源党溪,,,,,,,,,,,,,,,,
2025-11-23T1900,2377A,116.3544,27.9831,抚州市,市站,细颗粒物(PM2.5),68,77,67,49,44,69,69,118,117,37,26,11,11,1.1,0.8
2025-11-23T1900,2378A,116.3565,27.963,抚州市,血防站,细颗粒物(PM2.5),64,73,68,46,42,101,101,122,122,28,31,13,11,0.9,0.9
2025-11-23T1900,2379A,116.3564,28.0007,抚州市,采茶剧团,细颗粒物(PM2.5),80,85,72,59,49,97,97,121,121,24,24,8,8,0.9,0.8
2025-11-23T1900,2380A,116.385,27.9647,抚州市,医学分院,细颗粒物(PM2.5),67,80,72,48,43,108,108,130,130,24,28,12,10,0.8,0.8
2025-11-23T1900,2207A,121.6094,41.998,阜新市,工业园区,细颗粒物(PM2.5),301,364,168,251,110,19,19,55,52,86,55,46,27,2.6,1.4
2025-11-23T1900,2208A,121.6697,42.0279,阜新市,长青街,细颗粒物(PM2.5),128,138,126,97,88,3,3,58,50,71,58,14,18,1.3,1.4
2025-11-23T1900,2209A,121.6673,42.0705,阜新市,农业园区,细颗粒物(PM2.5),113,142,132,85,74,32,32,61,58,52,54,28,40,1.4,1.1
2025-11-23T1900,2210A,121.6717,42.0224,阜新市,东苑,细颗粒物(PM2.5),166,199,125,126,85,4,4,50,46,88,64,34,35,1.6,1.5
2025-11-23T1900,2211A,121.6506,42.0498,阜新市,玉龙新城,细颗粒物(PM2.5),166,232,151,126,87,10,10,50,47,75,56,24,22,1.6,1.4
2025-11-23T1900,2301A,115.8277,32.8929,阜阳市,市监测站,细颗粒物(PM2.5),70,85,71,51,49,81,81,94,94,29,22,6,6,0.4,0.4
2025-11-23T1900,2303A,115.8554,32.8605,阜阳市,开发区,颗粒物(PM10),93,136,98,41,47,60,60,96,93,43,31,6,6,0.4,0.4
2025-11-23T1900,2875A,115.784,32.8892,阜阳市,阜阳职业技术学院,颗粒物(PM10),64,78,57,39,38,74,74,100,99,34,19,8,8,0.5,0.5
2025-11-23T1900,3468A,115.7901,32.8613,阜阳市,市规划展馆,,,90,74,63,50,,,107,107,,21,,7,,0.4
2025-11-23T1900,3469A,115.836,32.9183,阜阳市,枣园社区,颗粒物(PM10),71,91,73,48,48,84,84,94,94,29,33,5,5,0.3,0.3
2025-11-23T1900,2669A,102.9099,34.9841,甘南藏族自治州,州政府,,30,30,44,21,25,70,70,87,87,20,32,6,6,0.3,0.7
2025-11-23T1900,3380A,102.8914,34.9617,甘南藏族自治州,甘肃民族师范学院,,43,43,54,11,16,65,65,79,79,14,30,4,7,1.1,1.1
2025-11-23T1900,2570A,101.9603,30.0475,甘孜藏族自治州,水桥子,,18,10,11,3,5,55,55,72,61,16,13,8,8,0.4,0.4
2025-11-23T1900,3065A,101.9533,29.9972,甘孜藏族自治州,州环保局,,16,,13,8,6,51,51,67,62,21,11,5,5,0.4,0.3
2025-11-23T1900,3414A,115.8347,28.932,赣江新区,桑海产业园,颗粒物(PM10),57,63,50,32,28,102,102,114,114,27,45,15,10,0.7,0.7
2025-11-23T1900,2362A,114.9017,25.9149,赣州市,通天岩,,,,,,,,,,,,,,,,
2025-11-23T1900,2363A,114.9367,25.8664,赣州市,地委,颗粒物(PM10),52,54,53,30,32,77,77,115,114,35,29,12,10,0.8,0.8
2025-11-23T1900,2364A,114.9461,25.8481,赣州市,气象台,颗粒物(PM10),68,85,62,28,28,47,47,103,100,82,42,16,9,0.9,0.7
2025-11-23T1900,2365A,114.9322,25.8333,赣州市,市图书馆,颗粒物(PM10),64,77,55,32,32,47,47,106,105,69,37,11,7,1.0,0.8
2025-11-23T1900,2366A,114.8905,25.8471,赣州市,华坚鞋城,颗粒物(PM10),62,73,67,35,36,36,36,92,90,79,43,9,8,0.8,0.6
2025-11-23T1900,3109A,115.0093,25.8613,赣州市,赣县区卫计委,细颗粒物(PM2.5),69,70,54,50,43,31,31,101,97,59,34,8,8,0.8,0.6
2025-11-23T1900,2683A,106.2319,36.1417,固原市,马园,,,,,,,,,,,,,,,,
2025-11-23T1900,2684A,106.2792,36.0022,固原市,监测站,细颗粒物(PM2.5),83,84,44,61,24,42,42,97,91,60,29,15,8,1.2,0.6
2025-11-23T1900,2685A,106.2375,36.0211,固原市,新区,细颗粒物(PM2.5),64,70,39,46,17,8,8,98,87,88,20,7,8,0.9,0.3
2025-11-23T1900,3522A,106.2177,35.9959,固原市,原州区十五小,颗粒物(PM10),62,74,37,43,16,59,59,92,86,28,13,13,8,0.7,0.3
2025-11-23T1900,2543A,106.6308,30.5278,广安市,小平旧居,,,,,,,,,,,,,,,,
2025-11-23T1900,2544A,106.6303,30.4576,广安市,市委,细颗粒物(PM2.5),89,86,89,66,72,40,40,69,69,58,26,3,3,0.8,0.7
2025-11-23T1900,2545A,106.6271,30.4663,广安市,友谊中学,细颗粒物(PM2.5),80,77,92,59,72,57,57,74,74,40,22,7,7,0.9,0.8
2025-11-23T1900,2547A,106.6388,30.4551,广安市,广电花园,细颗粒物(PM2.5),84,,66,62,76,42,42,68,68,45,21,2,2,0.9,0.7
2025-11-23T1900,2902A,106.6351,30.4865,广安市,北辰小学,细颗粒物(PM2.5),75,72,83,55,73,55,55,71,71,31,18,12,10,0.8,0.7
2025-11-23T1900,2523A,105.8945,32.4535,广元市,黑石坡,,,,,,,,,,,,,,,,
2025-11-23T1900,2524A,105.821,32.4444,广元市,老城,颗粒物(PM10),59,67,39,27,27,7,7,49,47,70,39,7,8,0.8,0.8
2025-11-23T1900,2526A,105.8628,32.4287,广元市,监测站,,48,48,30,22,27,35,35,47,47,33,29,5,6,0.7,0.8
2025-11-23T1900,3617A,105.8047,32.4166,广元市,经开区,颗粒物(PM10),54,58,50,27,29,3,3,43,42,60,36,4,5,0.8,0.7
2025-11-23T1900,1345A,113.2347,23.1423,广州市,广雅中学,颗粒物(PM10),58,65,65,36,36,65,65,101,101,74,71,9,11,1.0,0.8
2025-11-23T1900,1346A,113.2612,23.105,广州市,市五中,颗粒物(PM10),58,65,53,38,34,68,68,122,120,66,56,10,14,0.9,0.7
2025-11-23T1900,1348A,113.3478,23.0916,广州市,广东商学院,颗粒物(PM10),51,52,52,35,35,94,94,118,118,37,38,8,10,0.4,0.4
2025-11-23T1900,1349A,113.4332,23.1047,广州市,市八十六中,细颗粒物(PM2.5),58,55,45,41,31,61,61,112,111,56,49,8,9,0.3,0.3
2025-11-23T1900,1350A,113.3505,22.9483,广州市,番禺中学,颗粒物(PM10),53,56,54,35,41,92,92,120,120,48,47,7,7,0.5,0.4
2025-11-23T1900,1351A,113.2146,23.3916,广州市,花都师范,,,46,44,30,26,,,114,114,47,30,8,10,0.3,0.3
2025-11-23T1900,1352A,113.2597,23.1331,广州市,市监测站,颗粒物(PM10),57,64,57,34,31,79,79,114,114,54,53,8,11,0.5,0.4
2025-11-23T1900,1353A,113.5618,23.312,广州市,九龙镇镇龙,颗粒物(PM10),73,96,63,52,36,60,60,99,99,49,38,8,9,0.5,0.5
2025-11-23T1900,1354A,113.2765,23.1544,广州市,麓湖,,41,41,43,24,29,75,75,101,101,37,46,8,10,0.5,0.5
2025-11-23T1900,1355A,113.443,23.3035,广州市,帽峰山森林公园,,,,,,,,,,,,,,,,
2025-11-23T1900,2846A,113.3221,23.1322,广州市,体育西,颗粒物(PM10),60,69,52,42,34,96,96,114,114,39,38,10,13,0.9,0.7
2025-11-23T1900,3298A,113.5717,23.5491,广州市,从化街口,细颗粒物(PM2.5),85,93,55,63,36,62,62,102,102,47,42,11,14,1.0,0.7
2025-11-23T1900,3299A,113.3472,23.3692,广州市,白云竹料,细颗粒物(PM2.5),79,93,56,58,33,103,103,119,119,26,35,8,10,0.7,0.7
2025-11-23T1900,3300A,113.2981,23.237,广州市,白云嘉禾,颗粒物(PM10),62,73,63,37,34,60,60,113,110,80,61,10,11,1.0,0.7
2025-11-23T1900,3301A,113.4256,23.1716,广州市,黄埔科学城,,50,50,41,28,27,82,82,125,124,28,21,7,8,0.5,0.6
2025-11-23T1900,3302A,113.3942,23.0483,广州市,番禺大学城,颗粒物(PM10),52,54,50,35,33,113,113,132,132,27,52,12,12,0.5,0.5
2025-11-23T1900,3303A,113.4922,22.8168,广州市,南沙黄阁,颗粒物(PM10),61,72,72,34,39,94,94,134,130,53,70,11,15,0.8,0.9
2025-11-23T1900,3304A,113.5342,22.7896,广州市,南沙街,颗粒物(PM10),59,68,67,29,39,92,92,146,146,45,54,9,12,0.6,0.7
2025-11-23T1900,3443A,113.2902,23.5544,广州市,花都梯面,,45,44,35,31,24,103,103,112,112,22,28,8,9,0.5,0.5
2025-11-23T1900,3445A,113.7858,23.7478,广州市,从化良口,,29,27,28,20,20,68,68,91,91,16,17,7,8,0.7,0.6
2025-11-23T1900,3446A,113.8051,23.2614,广州市,增城荔城,颗粒物(PM10),58,66,42,39,28,65,65,110,108,29,18,8,10,0.8,0.6
2025-11-23T1900,2505A,109.568,23.1478,贵港市,德智高中,,,,,,,,,,,,,,,,
2025-11-23T1900,2506A,109.6047,23.0666,贵港市,江南子站,颗粒物(PM10),63,75,74,41,50,116,116,116,116,19,35,8,10,0.7,0.8
2025-11-23T1900,2508A,109.5669,23.1065,贵港市,荷城子站,颗粒物(PM10),54,58,48,29,28,87,87,106,106,28,26,5,7,0.7,0.6
2025-11-23T1900,3405A,109.5886,23.1172,贵港市,新世纪学校,颗粒物(PM10),65,80,47,37,30,90,90,114,114,24,16,8,7,0.5,0.3
2025-11-23T1900,1138A,126.615,45.61,哈尔滨市,平房东轻厂,细颗粒物(PM2.5),238,199,236,188,171,9,9,47,38,87,43,26,13,1.5,1.2
2025-11-23T1900,1139A,126.595,45.9855,哈尔滨市,呼兰师专,细颗粒物(PM2.5),189,216,205,142,164,42,42,53,53,40,34,16,15,0.9,1.3
2025-11-23T1900,1140A,126.6206,45.6842,哈尔滨市,省农科院,细颗粒物(PM2.5),176,194,211,133,155,49,49,48,47,46,47,14,12,1.0,1.1
2025-11-23T1900,2688A,93.5128,42.8172,哈密市,地区监测站,颗粒物(PM10),59,68,146,16,44,66,66,70,70,9,21,5,6,0.1,0.2
2025-11-23T1900,2689A,93.4961,42.8328,哈密市,哈密师范学校,,33,33,81,11,32,58,58,67,67,14,23,11,13,0.1,0.3
2025-11-23T1900,2671A,100.9048,36.9639,海北藏族自治州,海晏县西海镇,颗粒物(PM10),56,61,24,21,16,96,96,96,96,1,3,10,10,0.3,0.3
2025-11-23T1900,3867A,102.0738,36.5056,海东市,平安区公安北苑,颗粒物(PM10),60,70,67,8,51,68,68,74,74,22,26,6,18,0.6,1
2025-11-23T1900,1409A,110.576,19.9507,海口市,东寨港,,,,,,,,,,,,,,,,
2025-11-23T1900,1410A,110.3232,20.0574,海口市,海南大学,臭氧1小时,65,56,47,34,26,172,172,162,162,10,10,8,7,0.4,0.4
2025-11-23T1900,1411A,110.283,20.0053,海口市,秀英海南医院,臭氧1小时,57,53,45,32,26,165,165,154,154,10,11,9,9,0.4,0.3
2025-11-23T1900,1412A,110.338,19.9969,海口市,海南师范大学,臭氧1小时,67,51,44,36,27,173,173,164,164,12,11,7,7,0.5,0.4
2025-11-23T1900,1413A,110.33,20.0356,海口市,龙华路环保局宿舍,臭氧1小时,62,50,43,35,25,169,169,163,163,13,12,9,9,0.7,0.6
2025-11-23T1900,3539A,110.5111,19.9736,海口市,桂林洋子站,臭氧1小时,58,61,46,38,26,166,166,160,160,13,11,8,8,0.5,0.4
2025-11-23T1900,2673A,100.6188,36.2866,海南藏族自治州,共和县恰卜恰镇,颗粒物(PM10),51,52,44,29,12,121,121,120,120,2,10,7,7,0.2,0.4
2025-11-23T1900,2676A,97.3731,37.3753,海西蒙古族藏族自治州,德令哈市,颗粒物(PM10),55,60,33,17,11,96,96,97,97,7,6,12,14,0.3,0.4
2025-11-23T1900,1048A,114.5302,36.6116,邯郸市,东污水处理厂,颗粒物(PM10),74,98,68,47,46,58,58,80,80,36,29,11,19,0.7,1
2025-11-23T1900,1049A,114.4918,36.5713,邯郸市,矿院,细颗粒物(PM2.5),64,73,57,46,47,56,56,84,84,38,37,8,13,0.6,0.8
2025-11-23T1900,1050A,114.484,36.6133,邯郸市,丛台公园,颗粒物(PM10),68,85,65,48,45,64,64,82,82,32,32,10,19,0.6,1
2025-11-23T1900,3458A,114.7895,36.5593,邯郸市,香泉濮院小区,颗粒物(PM10),72,94,94,44,54,56,56,76,76,28,34,9,21,1.2,1.2
2025-11-23T1900,3579A,114.50634,36.77178,邯郸市,永年区实验高中,颗粒物(PM10),70,89,80,32,34,66,66,84,84,33,40,11,27,0.6,1.4
2025-11-23T1900,3580A,114.20016,36.44293,邯郸市,峰峰矿区临水派出所,细颗粒物(PM2.5),62,67,47,44,38,96,96,100,100,20,19,10,13,0.5,0.6
2025-11-23T1900,2634A,106.9893,33.1842,汉中市,汉川机床厂子校,,,,,,,,,,,,,,,,
2025-11-23T1900,2635A,107.0154,33.0706,汉中市,市监测站,颗粒物(PM10),62,74,49,38,36,33,33,68,67,53,29,8,8,1.4,0.9
2025-11-23T1900,2636A,107.0089,33.1138,汉中市,鑫源开发区,细颗粒物(PM2.5),63,49,63,45,40,38,38,64,63,40,35,7,9,0.8,1.1
2025-11-23T1900,2637A,107.007,33.0323,汉中市,南郑大河坎水厂,细颗粒物(PM2.5),75,79,42,55,28,13,13,65,63,67,23,13,10,1.5,0.8
2025-11-23T1900,1223A,120.2072,30.2111,杭州市,滨江,颗粒物(PM10),61,71,97,41,60,83,83,102,102,48,63,8,9,0.6,0.8
2025-11-23T1900,1224A,120.0633,30.2747,杭州市,西溪,颗粒物(PM10),53,56,73,24,43,39,39,84,82,36,42,8,8,0.7,0.6
2025-11-23T1900,1226A,120.3417,30.3150,杭州市,下沙,二氧化氮,65,67,101,45,74,11,11,97,84,130,76,8,10,0.5,0.7
2025-11-23T1900,1227A,120.1269,30.2456,杭州市,卧龙桥,,37,37,77,24,55,29,29,85,81,34,34,5,6,0.4,0.5
2025-11-23T1900,1228A,120.1903,30.2692,杭州市,浙江农大,细颗粒物(PM2.5),78,85,103,57,74,3,3,85,73,114,71,11,9,1.8,0.9
2025-11-23T1900,1230A,120.1197,30.3119,杭州市,和睦小学,细颗粒物(PM2.5),72,85,104,52,71,41,41,89,87,76,62,9,10,1.1,1
2025-11-23T1900,1231A,120.3019,30.4183,杭州市,临平镇,细颗粒物(PM2.5),90,113,115,67,72,20,20,82,76,106,73,9,9,0.9,0.8
2025-11-23T1900,1232A,120.2753,30.1839,杭州市,城厢镇,颗粒物(PM10),62,73,105,42,68,42,42,113,108,86,70,8,9,0.4,0.4
2025-11-23T1900,1233A,120.0883,30.1808,杭州市,云栖,颗粒物(PM10),66,81,111,36,63,45,45,94,92,47,38,4,5,0.5,0.7
2025-11-23T1900,3557A,119.9464,30.0494,杭州市,镇二中,细颗粒物(PM2.5),60,62,66,43,58,42,42,88,86,62,51,6,7,1.0,1
2025-11-23T1900,3558A,119.7183,30.2367,杭州市,市府大楼,颗粒物(PM10),74,98,71,53,48,16,16,104,97,79,34,12,10,1.4,1
2025-11-23T1900,3656A,120.1556,30.2864,杭州市,消防大队,细颗粒物(PM2.5),72,78,103,52,76,26,26,86,81,90,63,9,10,0.9,0.7
2025-11-23T1900,1270A,117.1959,31.7848,合肥市,明珠广场,细颗粒物(PM2.5),94,119,99,70,66,20,20,64,60,82,74,10,10,0.8,0.8
2025-11-23T1900,1271A,117.3072,31.8764,合肥市,三里街,细颗粒物(PM2.5),89,102,108,66,72,26,26,61,60,90,85,7,8,0.9,0.9
2025-11-23T1900,1272A,117.2588,31.8707,合肥市,琥珀山庄,细颗粒物(PM2.5),85,102,94,63,66,37,37,71,69,67,68,6,7,0.7,0.9
2025-11-23T1900,1273A,117.1604,31.9052,合肥市,董铺水库,,,,,,,,,,,,,,,,
2025-11-23T1900,1274A,117.25,31.8571,合肥市,长江中路,细颗粒物(PM2.5),89,102,101,66,75,53,53,74,74,54,62,8,8,0.6,0.8
2025-11-23T1900,1275A,117.266,31.9436,合肥市,庐阳区,细颗粒物(PM2.5),79,97,90,58,54,53,53,81,81,62,80,10,7,0.8,0.8
2025-11-23T1900,1276A,117.3453,31.8616,合肥市,瑶海区,细颗粒物(PM2.5),110,124,108,83,73,30,30,66,64,93,73,6,6,0.6,0.5
2025-11-23T1900,1277A,117.3027,31.7964,合肥市,包河区,细颗粒物(PM2.5),83,88,95,61,71,57,57,83,81,54,80,8,9,0.7,0.8
2025-11-23T1900,1278A,117.2776,31.7385,合肥市,滨湖新区,细颗粒物(PM2.5),89,100,90,66,71,55,55,84,82,57,60,6,8,0.7,0.8
2025-11-23T1900,1279A,117.1318,31.8403,合肥市,高新区,细颗粒物(PM2.5),92,102,83,68,57,45,45,87,84,66,58,6,6,0.8,0.7
2025-11-23T1900,3464A,117.3803,31.9147,合肥市,高教基地,细颗粒物(PM2.5),120,129,102,91,73,64,64,76,76,46,60,8,7,0.6,0.6
2025-11-23T1900,3614A,79.924,37.0877,和田地区,地区环保局,颗粒物(PM10),74,97,140,30,53,88,88,79,79,10,27,6,10,0.8,1.3
2025-11-23T1900,3615A,79.9131,37.113,和田地区,市环保局,颗粒物(PM10),76,101,162,40,75,94,94,82,82,15,54,2,8,0.8,2.1
2025-11-23T1900,2516A,108.2011,24.715,河池市,东仁乐园,,,,,,,,,,,,,,,,
2025-11-23T1900,2517A,108.0497,24.6947,河池市,市环保站,,33,26,34,23,22,68,68,84,84,17,25,5,4,0.6,0.5
2025-11-23T1900,2518A,108.0983,24.6989,河池市,市疾控中心,颗粒物(PM10),52,54,46,34,27,38,38,82,81,46,31,6,6,0.6,0.6
2025-11-23T1900,1696A,114.6778,23.7569,河源市,源西,,,,,,,,,,,,,,,,
2025-11-23T1900,1697A,114.6944,23.7586,河源市,东埔,,44,44,40,28,28,80,80,104,103,23,24,7,8,0.5,0.4
2025-11-23T1900,1698A,114.6892,23.7233,河源市,老城,细颗粒物(PM2.5),107,84,45,80,26,63,63,103,101,23,25,6,7,0.7,0.6
2025-11-23T1900,1718A,115.4208,35.2464,菏泽市,气象局,颗粒物(PM10),111,171,132,73,66,37,37,53,53,61,48,7,7,0.7,0.6
2025-11-23T1900,3374A,115.5564,35.0891,菏泽市,定陶老年大学,细颗粒物(PM2.5),107,151,117,80,59,45,45,54,54,57,49,7,6,0.4,0.2
2025-11-23T1900,4184A,115.4797,35.24401,菏泽市,永昌路1号,颗粒物(PM10),106,161,124,75,65,17,17,40,38,77,49,5,7,0.6,0.5
2025-11-23T1900,4193A,115.4715,35.2800,菏泽市,长城路999号,颗粒物(PM10),100,150,113,58,53,42,42,48,48,52,43,9,10,0.9,0.8
2025-11-23T1900,2514A,111.5264,24.4172,贺州市,环保小区,颗粒物(PM10),68,86,49,36,38,68,68,110,110,41,22,10,7,0.9,0.6
2025-11-23T1900,2515A,111.5608,24.4078,贺州市,政协大楼,颗粒物(PM10),68,86,51,45,36,45,45,98,95,50,30,9,8,1.2,0.8
2025-11-23T1900,3534A,111.4744,24.4553,贺州市,西湾,颗粒物(PM10),52,53,50,33,35,51,51,104,101,45,23,6,6,1.7,0.7
2025-11-23T1900,2385A,114.17,35.9019,鹤壁市,市监测站,颗粒物(PM10),65,79,50,35,25,36,36,80,77,37,19,4,7,0.7,0.5
2025-11-23T1900,2386A,114.2956,35.7511,鹤壁市,市交警支队,颗粒物(PM10),84,117,93,41,45,46,46,49,49,42,50,9,6,0.7,0.9
2025-11-23T1900,2387A,114.2878,35.7306,鹤壁市,迎宾馆,颗粒物(PM10),88,125,106,44,49,50,50,49,49,37,52,12,9,0.7,1
2025-11-23T1900,3474A,114.2617,35.6822,鹤壁市,大新区,颗粒物(PM10),71,92,107,38,51,35,35,39,39,42,48,6,6,0.8,1
2025-11-23T1900,3596A,114.1572,35.9603,鹤壁市,南山宾馆,颗粒物(PM10),60,70,50,33,24,86,86,90,90,12,14,6,8,0.4,0.4
2025-11-23T1900,2244A,130.2537,47.3416,鹤岗市,哈啤分公司,细颗粒物(PM2.5),104,,126,78,125,84,84,75,75,14,27,15,17,0.8,1
2025-11-23T1900,2245A,130.2684,47.3086,鹤岗市,斯达机电,细颗粒物(PM2.5),103,113,148,77,104,70,70,73,73,28,28,15,17,1.2,1.2
2025-11-23T1900,2246A,130.3114,47.3388,鹤岗市,东山纸板厂,"颗粒物(PM10),细颗粒物(PM2.5)",127,203,184,96,116,11,11,42,38,56,47,24,22,2.0,2.5
2025-11-23T1900,2247A,130.1097,47.3382,鹤岗市,五号水库,,,,,,,,,,,,,,,,
2025-11-23T1900,2263A,127.4833,50.2524,黑河市,交通局,,26,,43,18,31,61,61,50,50,5,27,4,4,0.5,0.7
2025-11-23T1900,2264A,127.5144,50.2341,黑河市,环保局,,32,32,58,22,36,53,53,38,38,10,38,4,8,0.4,0.8
2025-11-23T1900,2265A,127.5291,50.2472,黑河市,大黑河岛,,,,,,,,,,,,,,,,
2025-11-23T1900,1074A,115.6838,37.7541,衡水市,电机北厂,颗粒物(PM10),122,194,126,71,65,11,11,67,64,69,43,9,13,0.7,0.7
2025-11-23T1900,1075A,115.6303,37.7316,衡水市,市监测站,颗粒物(PM10),101,151,115,46,63,39,39,70,70,56,53,10,15,0.4,0.7
2025-11-23T1900,3188A,115.6683,37.7217,衡水市,市城管局,颗粒物(PM10),111,171,131,60,61,21,21,69,69,70,53,7,11,0.6,0.8
2025-11-23T1900,3459A,115.5989,37.5491,衡水市,地表水厂,颗粒物(PM10),123,196,143,51,77,4,4,73,72,92,62,10,14,0.3,0.7
2025-11-23T1900,2456A,112.5003,26.9167,衡阳市,原169医院,,,,,,,,,,,,,,,,
2025-11-23T1900,2457A,112.6194,26.9258,衡阳市,衡阳化工总厂,细颗粒物(PM2.5),68,59,63,49,48,115,115,135,135,26,37,12,19,0.9,0.9
2025-11-23T1900,2458A,112.6211,26.8956,衡阳市,珠晖区环保局,细颗粒物(PM2.5),78,78,70,57,53,58,58,124,123,81,47,8,16,1.1,1.1
2025-11-23T1900,2459A,112.6197,26.8733,衡阳市,市委党校,细颗粒物(PM2.5),68,56,70,49,53,116,116,132,132,24,32,16,18,0.9,1.2
2025-11-23T1900,2460A,112.6006,26.8919,衡阳市,市监测站,"颗粒物(PM10),细颗粒物(PM2.5)",84,118,95,62,64,85,85,126,126,51,49,10,13,1.5,1.3
2025-11-23T1900,2461A,112.5664,26.9056,衡阳市,真空机电公司,细颗粒物(PM2.5),72,71,81,52,58,103,103,126,126,37,37,12,15,1.0,1
2025-11-23T1900,3399A,112.6703,26.882,衡阳市,师范学院,细颗粒物(PM2.5),63,59,68,45,45,101,101,134,134,31,29,13,15,1.0,0.9
2025-11-23T1900,2608A,103.3772,23.3993,红河哈尼族彝族自治州,污水处理厂,,40,33,35,28,27,58,58,71,70,10,11,5,7,0.3,0.3
2025-11-23T1900,2609A,103.3861,23.35,红河哈尼族彝族自治州,监测站,,38,38,33,20,24,62,62,70,70,6,4,6,6,0.3,0.3
2025-11-23T1900,3038A,103.3758,23.368,红河哈尼族彝族自治州,州图书馆,,28,,21,19,16,61,61,69,68,6,5,4,4,0.3,0.4
2025-11-23T1900,1090A,111.6507,40.7517,呼和浩特市,呼市一监,颗粒物(PM10),151,251,200,84,67,26,26,52,50,42,42,18,11,1.1,1
2025-11-23T1900,1091A,111.6572,40.8033,呼和浩特市,小召,颗粒物(PM10),159,268,186,86,62,13,13,46,42,78,57,15,11,1.4,0.9
2025-11-23T1900,1094A,111.7516,40.8369,呼和浩特市,如意水处理厂,颗粒物(PM10),152,253,156,81,57,0,0,52,40,89,59,14,12,,0.8
2025-11-23T1900,1095A,111.7276,40.8062,呼和浩特市,二十九中,颗粒物(PM10),145,239,176,78,60,9,9,48,46,82,55,18,15,1.1,0.8
2025-11-23T1900,1096A,111.5512,40.7866,呼和浩特市,工大金川校区,颗粒物(PM10),142,234,176,64,59,16,16,50,48,74,54,15,12,1.0,0.7
2025-11-23T1900,1097A,111.717,40.7612,呼和浩特市,化肥厂生活区,颗粒物(PM10),132,214,142,92,67,7,7,53,49,91,58,16,11,1.3,0.9
2025-11-23T1900,3698A,111.5968,40.8178,呼和浩特市,红旗小学,颗粒物(PM10),134,217,172,67,60,5,5,41,37,89,66,15,14,0.7,0.7
2025-11-23T1900,3699A,111.6518,40.8389,呼和浩特市,海东办,颗粒物(PM10),146,241,172,82,61,7,7,49,45,75,51,10,10,1.0,0.8
2025-11-23T1900,3061A,119.7512,49.1577,呼伦贝尔市,国华电力东,,28,28,24,19,17,61,61,64,64,8,11,7,8,0.5,0.5
2025-11-23T1900,4279A,119.7569,49.2222,呼伦贝尔市,伊敏大街东7号,,32,23,28,22,23,58,58,61,61,5,14,6,7,0.5,0.5
2025-11-23T1900,1250A,120.0751,30.8669,湖州市,城西水厂,细颗粒物(PM2.5),79,84,96,58,72,23,23,79,75,106,72,11,11,0.7,0.6
2025-11-23T1900,2873A,120.0830,30.8929,湖州市,仁皇山新区,细颗粒物(PM2.5),74,75,93,54,73,58,58,90,89,61,62,8,10,0.7,0.6
2025-11-23T1900,2907A,120.1844,30.8596,湖州市,吴兴区站,细颗粒物(PM2.5),72,79,109,52,82,78,78,101,101,50,60,8,11,1.1,1.1
2025-11-23T1900,3562A,120.4148,30.8538,湖州市,南浔区站,细颗粒物(PM2.5),93,94,128,69,96,55,55,106,103,83,74,8,12,0.8,0.8
2025-11-23T1900,1607A,120.9049,40.7211,葫芦岛市,龙港区,细颗粒物(PM2.5),255,,127,205,95,7,7,32,30,109,70,16,25,2.8,1.4
2025-11-23T1900,1608A,120.8392,40.7514,葫芦岛市,化工街,细颗粒物(PM2.5),206,224,164,156,100,5,5,26,25,111,76,26,27,2.6,1.3
2025-11-23T1900,1609A,120.8341,40.7073,葫芦岛市,新区,细颗粒物(PM2.5),169,140,104,128,87,4,4,27,25,112,74,11,13,2.7,1.5
2025-11-23T1900,1610A,120.8695,40.7677,葫芦岛市,东城区,细颗粒物(PM2.5),222,176,144,172,105,7,7,28,26,111,78,18,31,3.3,1.7
2025-11-23T1900,2482A,109.5981,27.5721,怀化市,林科所,,,,,,,,,,,,,,,,
2025-11-23T1900,2483A,109.9453,27.5444,怀化市,河西地税局,,34,34,32,23,22,52,52,66,66,17,18,4,4,0.3,0.3
2025-11-23T1900,2484A,109.9781,27.5342,怀化市,市四医院,,32,32,43,17,27,66,66,76,76,9,22,8,10,0.4,0.5
2025-11-23T1900,2485A,109.9972,27.5578,怀化市,监测楼,,29,26,39,20,24,59,59,73,73,11,20,2,3,0.0,0.1
2025-11-23T1900,2486A,110.0394,27.583,怀化市,市委党校,,35,35,50,22,32,58,58,79,77,13,22,9,14,0.2,0.2
2025-11-23T1900,1210A,119.036,33.5981,淮安市,钵池山,细颗粒物(PM2.5),122,122,120,92,99,71,71,90,88,38,34,15,15,1.0,0.9
2025-11-23T1900,1211A,119.007,33.575,淮安市,北京南路,细颗粒物(PM2.5),120,132,124,91,97,43,43,71,66,60,52,21,15,1.0,0.9
2025-11-23T1900,1212A,118.989,33.6067,淮安市,市监测站,细颗粒物(PM2.5),113,119,127,85,92,68,68,82,82,45,45,10,19,0.8,1.4
2025-11-23T1900,1213A,119.135,33.5039,淮安市,楚州区监测站,细颗粒物(PM2.5),127,149,141,96,101,30,30,80,77,80,66,10,13,0.8,1
2025-11-23T1900,3426A,118.8755,33.2894,淮安市,新华书店,细颗粒物(PM2.5),99,107,122,74,95,71,71,90,89,35,46,11,14,0.7,0.7
2025-11-23T1900,4206A,119.0288,33.6319,淮安市,承德北路606号,细颗粒物(PM2.5),114,124,129,86,94,64,64,74,74,46,43,10,17,0.7,1.4
2025-11-23T1900,2282A,116.8004,33.975,淮北市,监测站,,,,108,,67,47,47,68,68,61,44,9,10,0.6,0.6
2025-11-23T1900,2283A,116.8091,33.9007,淮北市,烈山区政府,细颗粒物(PM2.5),108,,108,81,72,17,17,71,68,103,55,13,12,0.5,0.5
2025-11-23T1900,3330A,116.8873,33.9836,淮北市,杜集区检察院,"颗粒物(PM10),细颗粒物(PM2.5)",87,124,107,64,70,59,59,78,78,42,32,8,8,0.5,0.4
2025-11-23T1900,4017A,116.7923,33.9535,淮北市,市博物馆,颗粒物(PM10),85,119,107,62,66,62,62,72,72,45,38,13,14,0.3,0.4
2025-11-23T1900,2277A,116.8305,32.7727,淮南市,潘集区政府,细颗粒物(PM2.5),88,106,104,65,66,67,67,94,92,36,30,7,11,0.6,0.7
2025-11-23T1900,2279A,116.8569,32.5951,淮南市,谢家集区政府,细颗粒物(PM2.5),69,80,87,50,57,69,69,90,90,41,38,9,9,0.7,0.6
2025-11-23T1900,2280A,116.8281,32.633,淮南市,八公山区政府,颗粒物(PM10),66,82,79,46,53,89,89,100,100,22,21,7,6,0.6,0.5
2025-11-23T1900,2281A,116.6325,32.6201,淮南市,焦岗湖风景区管理处,,,,,,,,,,,,,,,,
2025-11-23T1900,2894A,117.0566,32.6531,淮南市,经济技术开发区消防队,颗粒物(PM10),77,103,94,53,62,83,83,95,94,35,41,13,14,0.5,0.5
2025-11-23T1900,3329A,117.0108,32.5893,淮南市,山南新区,细颗粒物(PM2.5),89,92,102,66,70,73,73,89,88,40,43,6,7,0.5,0.5
2025-11-23T1900,4209A,117.0031,32.6445,淮南市,国庆中路369号,细颗粒物(PM2.5),74,88,81,54,55,56,56,82,80,51,36,6,5,0.7,0.5
2025-11-23T1900,2446A,114.9028,30.4742,黄冈市,职工中心,细颗粒物(PM2.5),80,82,84,59,65,85,85,71,71,32,41,8,8,0.7,0.8
2025-11-23T1900,2929A,114.8858,30.4519,黄冈市,红卫路,细颗粒物(PM2.5),84,71,82,62,75,85,85,71,71,27,44,9,10,0.6,0.8
2025-11-23T1900,3398A,114.9136,30.4445,黄冈市,市林业局,细颗粒物(PM2.5),88,95,94,65,69,76,76,74,74,33,30,6,5,1.1,1
2025-11-23T1900,2672A,102.0199,35.5102,黄南藏族自治州,同仁县隆务镇,颗粒物(PM10),65,80,41,7,17,73,73,88,88,10,7,14,11,0.6,0.4
2025-11-23T1900,2295A,118.2903,29.6963,黄山市,延安路89号,细颗粒物(PM2.5),73,74,38,53,26,77,77,103,103,22,18,5,4,0.6,0.4
2025-11-23T1900,2297A,118.1371,30.2756,黄山市,黄山区政府5号楼,颗粒物(PM10),58,65,48,29,35,27,27,74,72,25,10,6,5,0.9,0.7
2025-11-23T1900,4210A,118.3354,29.7203,黄山市,滨江东路7-2号,细颗粒物(PM2.5),100,105,58,75,46,20,20,76,75,59,22,6,4,0.7,0.4
2025-11-23T1900,2423A,115.0601,30.2313,黄石市,沈家营,细颗粒物(PM2.5),78,83,101,57,65,75,75,83,83,23,49,7,13,1.2,1.2
2025-11-23T1900,2426A,114.8988,30.2019,黄石市,铁山,细颗粒物(PM2.5),70,87,91,51,53,42,42,81,78,62,52,9,14,0.4,0.6
2025-11-23T1900,2427A,115.0307,30.2092,黄石市,团城山,细颗粒物(PM2.5),89,82,96,66,68,85,85,88,88,32,42,8,11,0.8,0.7
2025-11-23T1900,3149A,115.0235,30.1578,黄石市,笔架山北路,细颗粒物(PM2.5),89,124,137,66,72,69,69,88,88,29,35,11,15,0.9,1.1
2025-11-23T1900,4185A,115.0780,30.21118,黄石市,磁湖东路29号,细颗粒物(PM2.5),98,101,102,73,72,82,82,82,82,19,45,15,16,0.9,0.9
2025-11-23T1900,1392A,114.4183,23.0528,惠州市,河南岸金山湖子站,颗粒物(PM10),57,63,62,37,37,84,84,107,107,47,34,9,8,0.7,0.6
2025-11-23T1900,1393A,114.4053,23.0822,惠州市,下埔横江三路子站,颗粒物(PM10),55,60,54,35,32,111,111,126,126,22,23,9,10,0.7,0.6
2025-11-23T1900,1394A,114.4103,23.1142,惠州市,江北云山西路子站,颗粒物(PM10),51,52,49,30,30,132,132,135,135,21,27,8,8,0.6,0.6
2025-11-23T1900,1395A,114.4645,22.7833,惠州市,惠阳区承修路船湖子站,颗粒物(PM10),66,81,64,44,36,70,70,122,120,53,33,7,8,0.9,0.6
2025-11-23T1900,1396A,114.5317,22.7422,惠州市,大亚湾管委会子站,,46,46,57,23,33,114,114,124,124,20,37,7,6,0.5,0.6
2025-11-23T1900,3314A,114.4338,22.8134,惠州市,惠阳秋长,,,100,64,59,41,,,131,131,37,36,10,17,0.7,0.5
2025-11-23T1900,3452A,114.6517,22.775,惠州市,大亚湾霞涌,,47,47,43,25,25,122,122,123,123,17,16,8,7,0.6,0.6
2025-11-23T1900,2240A,130.9762,45.3001,鸡西市,环保局,细颗粒物(PM2.5),68,81,46,49,30,55,55,73,71,35,17,9,8,1.1,0.8
2025-11-23T1900,2243A,130.9429,45.3039,鸡西市,第一中学,细颗粒物(PM2.5),85,85,44,63,31,75,75,79,79,16,10,9,7,0.9,0.7
2025-11-23T1900,3707A,131.0207,45.3073,鸡西市,欧美日汽修厂,细颗粒物(PM2.5),124,132,57,94,40,22,22,65,60,58,26,22,13,1.3,0.9
2025-11-23T1900,3709A,130.9967,45.3106,鸡西市,市政设施管理处,细颗粒物(PM2.5),135,,53,103,37,28,28,84,74,77,31,14,12,1.7,0.9
2025-11-23T1900,2367A,114.9754,27.0803,吉安市,红声器材厂,颗粒物(PM10),54,58,64,31,37,96,96,124,124,39,35,11,9,0.8,0.7
2025-11-23T1900,2368A,114.9658,27.0999,吉安市,市森林工业局,颗粒物(PM10),56,61,62,39,38,92,92,112,112,38,37,10,8,0.7,0.6
2025-11-23T1900,2369A,114.99,27.1312,吉安市,市环境监测站,颗粒物(PM10),55,60,56,38,37,86,86,120,120,42,35,20,15,0.6,0.6
2025-11-23T1900,2370A,115.0093,27.0968,吉安市,青原区法院,颗粒物(PM10),61,72,63,43,40,58,58,107,106,62,45,13,11,0.9,0.7
2025-11-23T1900,1772A,126.54,43.8622,吉林市,哈达湾,细颗粒物(PM2.5),155,167,89,118,65,81,81,95,95,41,20,15,12,1.4,0.9
2025-11-23T1900,1773A,126.5844,43.8358,吉林市,东局子,细颗粒物(PM2.5),172,145,84,130,72,40,40,73,68,47,19,13,12,1.7,1
2025-11-23T1900,1774A,126.5052,43.8245,吉林市,电力学院,细颗粒物(PM2.5),315,328,114,265,86,18,18,81,69,96,28,20,12,2.4,1
2025-11-23T1900,1775A,126.6133,43.8972,吉林市,江北,细颗粒物(PM2.5),213,198,102,163,80,35,35,77,68,57,24,8,8,1.7,0.7
2025-11-23T1900,1776A,126.555,43.8306,吉林市,江南公园,细颗粒物(PM2.5),178,162,100,134,82,43,43,61,,57,25,14,11,1.3,0.8
2025-11-23T1900,1778A,126.7061,43.7133,吉林市,丰满,,,,51,,50,,,66,,,10,,12,,0.6
2025-11-23T1900,2868A,126.4739,43.953,吉林市,九站,细颗粒物(PM2.5),252,264,118,202,80,60,60,90,86,59,27,13,7,1.5,0.9
2025-11-23T1900,1299A,116.9862,36.6114,济南市,科干所,颗粒物(PM10),76,102,90,49,44,58,58,66,66,42,36,17,16,0.9,0.8
2025-11-23T1900,1300A,116.9376,36.665,济南市,农科所,细颗粒物(PM2.5),92,127,110,68,54,27,27,48,47,75,50,18,15,0.9,0.6
2025-11-23T1900,1301A,117.1265,36.6734,济南市,开发区,细颗粒物(PM2.5),85,103,81,63,48,55,55,70,70,40,28,11,11,0.9,0.8
2025-11-23T1900,1303A,117.0624,36.6868,济南市,省种子仓库,细颗粒物(PM2.5),85,110,102,63,54,40,40,60,59,57,38,14,14,0.9,0.8
2025-11-23T1900,1304A,116.9489,36.6447,济南市,机床二厂,细颗粒物(PM2.5),98,127,120,73,67,38,38,48,48,61,48,23,19,0.7,0.5
2025-11-23T1900,1305A,117.0495,36.663,济南市,市监测站,颗粒物(PM10),75,100,92,54,50,58,58,64,64,36,31,10,9,0.6,0.5
2025-11-23T1900,1306A,116.7675,36.5484,济南市,长清党校,细颗粒物(PM2.5),80,107,113,59,59,47,47,56,56,50,47,20,16,0.9,0.8
2025-11-23T1900,1616A,117.6795,36.229,济南市,技术学院,细颗粒物(PM2.5),203,239,151,153,95,6,6,44,39,106,82,23,23,1.7,1.3
2025-11-23T1900,1961A,117.532,36.6868,济南市,东山小学,细颗粒物(PM2.5),119,142,106,90,58,48,48,82,73,57,31,16,14,0.8,0.7
2025-11-23T1900,3059A,117.7161,36.2049,济南市,泰兴公司,细颗粒物(PM2.5),208,256,158,158,107,8,8,41,36,90,74,14,16,1.6,1.1
2025-11-23T1900,3064A,117.6867,36.2171,济南市,莱芜战役纪念馆,细颗粒物(PM2.5),217,254,155,167,106,7,7,40,37,102,78,29,29,2.1,1.5
2025-11-23T1900,3494A,117.1673,36.9782,济南市,济阳区政府,细颗粒物(PM2.5),113,151,123,85,64,30,30,63,61,70,53,20,17,0.8,0.7
2025-11-23T1900,3495A,117.1171,36.63,济南市,锦屏中学,颗粒物(PM10),81,112,74,59,38,54,54,79,77,49,29,11,10,0.8,0.6
2025-11-23T1900,3682A,116.9814,36.6819,济南市,济南四建,细颗粒物(PM2.5),89,110,98,66,56,47,47,54,54,44,36,15,14,1.0,0.9
2025-11-23T1900,1653A,116.6251,35.4302,济宁市,火炬城,细颗粒物(PM2.5),149,143,107,114,76,30,30,46,44,66,41,10,10,0.5,0.2
2025-11-23T1900,1655A,116.5491,35.4042,济宁市,电化厂,细颗粒物(PM2.5),144,234,163,110,78,5,5,42,38,112,62,12,10,0.5,0.2
2025-11-23T1900,3500A,116.5814,35.3707,济宁市,北湖一中,细颗粒物(PM2.5),132,150,108,100,75,23,23,44,43,70,45,11,10,0.7,0.5
2025-11-23T1900,3501A,116.8249,35.5593,济宁市,服务中心,细颗粒物(PM2.5),119,153,137,90,70,20,20,33,32,58,49,8,8,0.4,0.3
2025-11-23T1900,3678A,116.5907,35.4054,济宁市,市第七中学,细颗粒物(PM2.5),125,161,110,95,62,24,24,48,46,87,51,11,11,0.8,0.4
2025-11-23T1900,2255A,130.2751,46.8028,佳木斯市,佳纺,细颗粒物(PM2.5),105,124,124,79,102,39,39,71,64,46,21,11,9,0.9,0.8
2025-11-23T1900,2256A,130.3995,46.8307,佳木斯市,发电厂,细颗粒物(PM2.5),102,92,106,76,98,56,56,75,74,29,21,6,8,0.5,1
2025-11-23T1900,2257A,130.3258,46.7975,佳木斯市,环保局,细颗粒物(PM2.5),100,105,119,75,103,47,47,74,71,40,20,6,7,0.8,0.7
2025-11-23T1900,2258A,130.3648,46.8032,佳木斯市,十一中,细颗粒物(PM2.5),119,113,116,90,105,46,46,71,68,49,24,10,11,1.0,0.9
2025-11-23T1900,2259A,130.3794,46.7588,佳木斯市,四丰,,,,,,,,,,,,,,,,
2025-11-23T1900,1252A,120.7436,30.778,嘉兴市,清河小学,细颗粒物(PM2.5),85,96,138,63,145,23,23,91,85,96,64,5,6,0.9,0.2
2025-11-23T1900,1253A,120.726,30.7478,嘉兴市,嘉兴学院,细颗粒物(PM2.5),117,136,142,88,98,56,56,99,98,74,55,7,9,1.1,0.7
2025-11-23T1900,2872A,120.7846,30.7525,嘉兴市,南湖区残联,细颗粒物(PM2.5),78,82,127,57,93,49,49,105,101,82,55,8,11,0.7,0.5
2025-11-23T1900,3407A,120.6916,30.7739,嘉兴市,秀洲住建,二氧化氮,53,53,127,36,103,8,8,103,96,105,63,7,8,0.5,0.8
2025-11-23T1900,1945A,98.2908,39.7711,嘉峪关市,气象局,颗粒物(PM10),100,149,159,17,31,84,84,87,79,3,14,5,12,0.5,0.6
2025-11-23T1900,2884A,98.2672,39.7978,嘉峪关市,酒钢宾馆,颗粒物(PM10),157,263,194,19,34,82,82,81,75,1,16,10,24,0.4,0.5
2025-11-23T1900,3248A,98.2643,39.7724,嘉峪关市,雄关区,颗粒物(PM10),87,124,153,28,34,77,77,83,79,13,21,13,15,0.5,0.5
2025-11-23T1900,1383A,113.1064,22.6058,江门市,北街,颗粒物(PM10),55,59,63,31,43,138,138,155,155,30,48,10,12,0.6,0.6
2025-11-23T1900,1384A,113.0731,22.5835,江门市,西区,颗粒物(PM10),67,84,73,45,48,111,111,150,150,58,61,9,12,0.8,0.7
2025-11-23T1900,1385A,113.0219,22.5311,江门市,圭峰西,细颗粒物(PM2.5),64,61,76,46,56,143,143,149,149,33,45,9,8,0.6,0.6
2025-11-23T1900,1386A,113.0828,22.5947,江门市,东湖,颗粒物(PM10),58,65,68,39,40,122,122,151,151,41,50,11,13,0.6,0.6
2025-11-23T1900,3311A,113.1075,22.5647,江门市,江海富民,颗粒物(PM10),61,71,69,32,34,141,141,161,161,40,52,14,15,0.6,0.6
2025-11-23T1900,3449A,113.05,22.4667,江门市,新会银湖,细颗粒物(PM2.5),73,88,79,53,51,101,101,135,135,46,49,8,7,0.6,0.6
2025-11-23T1900,1830A,113.1992,35.2590,焦作市,影视城,,,,61,,26,,,73,,,25,,19,,0.4
2025-11-23T1900,3335A,113.3137,35.2641,焦作市,马村街道办,颗粒物(PM10),77,104,83,36,41,52,52,76,75,21,20,8,11,0.2,0.3
2025-11-23T1900,3336A,113.2465,35.2373,焦作市,焦作技师学院,颗粒物(PM10),81,111,81,34,39,36,36,69,68,50,30,9,11,0.6,0.6
2025-11-23T1900,3477A,113.1656,35.2539,焦作市,中站许衡医院,颗粒物(PM10),73,95,82,45,43,66,66,79,78,29,26,8,18,0.5,0.7
2025-11-23T1900,3981A,113.2449,35.1803,焦作市,原李万街道办,颗粒物(PM10),95,139,103,19,37,40,40,55,55,28,26,4,6,0.3,0.4
2025-11-23T1900,4264A,113.2340,35.2190,焦作市,新安路1731号,颗粒物(PM10),86,121,90,31,42,47,47,69,69,37,28,6,10,0.7,0.8
2025-11-23T1900,4295A,113.2722,35.2121,焦作市,人民路3066号,颗粒物(PM10),72,93,83,25,32,49,49,62,62,35,33,4,7,0.2,0.4
2025-11-23T1900,1708A,116.3701,23.5345,揭阳市,新兴,细颗粒物(PM2.5),72,87,71,52,46,97,97,138,138,40,34,14,12,1.4,0.7
2025-11-23T1900,1709A,116.3264,23.5443,揭阳市,西马,颗粒物(PM10),104,158,78,51,43,102,102,132,132,34,33,9,8,1.2,0.8
2025-11-23T1900,1710A,116.3611,23.5626,揭阳市,东兴,细颗粒物(PM2.5),83,83,74,61,43,103,103,140,140,36,39,11,10,1.3,0.7
2025-11-23T1900,1711A,116.4151,23.5294,揭阳市,渔湖,颗粒物(PM10),75,99,76,40,42,97,97,139,139,33,34,8,7,1.2,0.8
2025-11-23T1900,3320A,116.403,23.5699,揭阳市,曲溪,颗粒物(PM10),86,122,75,46,46,112,112,150,150,27,35,5,5,0.9,0.7
2025-11-23T1900,1944A,102.1692,38.5167,金昌市,天庆家园,颗粒物(PM10),136,222,279,47,36,65,65,69,68,6,14,3,9,0.4,0.5
2025-11-23T1900,4022A,102.1647,38.5371,金昌市,金川区人防中心,颗粒物(PM10),126,202,272,81,49,72,72,74,74,4,12,2,6,0.5,0.6
2025-11-23T1900,4239A,102.1930,38.5319,金昌市,长春路96号,颗粒物(PM10),197,343,225,55,36,69,69,74,74,4,13,7,13,0.4,0.5
2025-11-23T1900,1262A,119.647,29.077,金华市,十五中,细颗粒物(PM2.5),107,123,88,80,53,39,39,112,108,88,56,4,4,1.2,0.6
2025-11-23T1900,1263A,119.686,29.1029,金华市,监测站,颗粒物(PM10),77,104,91,35,50,36,36,106,102,83,66,4,4,0.6,0.4
2025-11-23T1900,3659A,119.656,29.1131,金华市,气象局,细颗粒物(PM2.5),97,113,97,72,62,15,15,103,98,122,69,5,5,0.7,0.5
2025-11-23T1900,1767A,121.1115,41.0879,锦州市,南山,细颗粒物(PM2.5),148,114,120,113,105,5,5,29,23,90,75,13,13,1.7,1.6
2025-11-23T1900,1768A,121.0604,40.8428,锦州市,开发区,细颗粒物(PM2.5),192,144,148,144,102,4,4,20,18,113,84,17,32,2.5,1.5
2025-11-23T1900,1769A,121.1836,41.1119,锦州市,百股街道,细颗粒物(PM2.5),188,156,118,141,96,4,4,23,20,94,75,19,17,2.4,1.6
2025-11-23T1900,1770A,121.1178,41.1222,锦州市,天安街道,细颗粒物(PM2.5),182,151,121,137,105,4,4,34,28,83,65,17,19,2.4,1.9
2025-11-23T1900,1771A,121.1303,41.1386,锦州市,北湖公园,,,,131,153,98,5,5,26,25,82,74,20,18,2.5,1.7
2025-11-23T1900,2160A,112.85,35.5051,晋城市,自来水公司,颗粒物(PM10),93,136,91,29,39,68,68,81,81,41,27,7,10,0.6,0.6
2025-11-23T1900,2161A,112.8318,35.4936,晋城市,白云商贸,颗粒物(PM10),89,127,91,34,32,63,63,79,79,39,23,2,5,0.5,0.6
2025-11-23T1900,2162A,112.8508,35.4887,晋城市,市环保局,颗粒物(PM10),87,123,90,27,37,70,70,84,84,30,20,4,7,0.7,0.8
2025-11-23T1900,2163A,112.8676,35.4897,晋城市,技术学院,颗粒物(PM10),82,113,84,31,37,60,60,72,72,36,25,6,9,0.7,0.8
2025-11-23T1900,2165A,112.8453,35.546,晋城市,白马寺,颗粒物(PM10),73,95,71,33,35,98,98,96,96,14,16,8,10,0.4,0.4
2025-11-23T1900,3620A,112.8271,35.4828,晋城市,泽州一中,颗粒物(PM10),79,108,78,29,37,89,89,89,89,18,17,4,6,0.4,0.5
2025-11-23T1900,2173A,112.7249,37.7067,晋中市,南都小区,颗粒物(PM10),84,118,128,34,52,51,51,73,73,48,49,9,25,0.6,1.2
2025-11-23T1900,2174A,112.6991,37.6982,晋中市,榆次区政府,颗粒物(PM10),84,117,134,33,62,54,54,73,73,45,52,10,25,0.9,1.6
2025-11-23T1900,2865A,112.7195,37.6828,晋中市,榆次三中,颗粒物(PM10),100,149,144,48,54,60,60,76,76,37,45,11,25,0.6,1.4
2025-11-23T1900,4200A,112.7478,37.6954,晋中市,迎宾街26号,颗粒物(PM10),81,112,134,31,57,63,63,77,77,33,45,10,26,0.4,1
2025-11-23T1900,2439A,112.2014,31.0481,荆门市,竹园小学,细颗粒物(PM2.5),77,78,69,56,46,45,45,69,69,35,33,2,4,0.0,0.1
2025-11-23T1900,2440A,112.1969,30.9891,荆门市,掇刀,,,88,75,75,50,27,27,73,71,53,29,,1,0.7,0.4
2025-11-23T1900,2441A,112.2213,31.0386,荆门市,石化一小,细颗粒物(PM2.5),93,90,80,69,51,36,36,67,67,41,34,7,9,0.5,0.4
2025-11-23T1900,3012A,112.1849,31.0362,荆门市,西山林语,细颗粒物(PM2.5),63,70,57,45,41,39,39,70,70,26,19,4,5,0.8,0.6
2025-11-23T1900,3547A,112.1632,31.0138,荆门市,龙泉中学南校,细颗粒物(PM2.5),80,94,73,59,45,18,18,63,62,54,23,8,8,0.3,0.2
2025-11-23T1900,1844A,112.2494,30.3197,荆州市,市图书馆,,,64,70,50,60,40,40,60,60,,49,6,7,0.8,1
2025-11-23T1900,1845A,112.2008,30.3544,荆州市,市委党校,细颗粒物(PM2.5),63,59,74,45,59,28,28,48,48,38,50,5,7,0.7,0.9
2025-11-23T1900,3194A,112.2747,30.3122,荆州市,管委会,细颗粒物(PM2.5),68,59,66,49,61,45,45,58,58,22,50,7,8,0.6,0.9
2025-11-23T1900,4268A,112.1722,30.3366,荆州市,学苑路85号,细颗粒物(PM2.5),62,63,76,44,58,30,30,63,63,38,36,2,1,0.7,0.7
2025-11-23T1900,2342A,117.3102,29.3867,景德镇市,王港中学,,,,,,,,,,,,,,,,
2025-11-23T1900,2343A,117.2117,29.2933,景德镇市,老干部活动中心,细颗粒物(PM2.5),89,,46,66,36,65,65,97,93,38,24,17,7,0.9,0.7
2025-11-23T1900,2344A,117.1894,29.2789,景德镇市,兽医站,二氧化氮,54,55,59,34,29,32,32,107,96,107,34,18,10,0.5,0.5
2025-11-23T1900,2346A,117.2461,29.2956,景德镇市,陶研所,细颗粒物(PM2.5),59,47,41,42,34,64,64,92,92,14,22,3,4,0.8,0.6
2025-11-23T1900,4289A,117.1542,29.2566,景德镇市,青少年活动中心,细颗粒物(PM2.5),69,83,60,50,34,78,78,102,102,40,36,28,18,0.7,0.6
2025-11-23T1900,1803A,115.9872,29.6815,九江市,十里,细颗粒物(PM2.5),89,90,77,66,63,74,74,99,99,53,59,10,7,1.6,1.2
2025-11-23T1900,1804A,115.9584,29.7046,九江市,茅山头,细颗粒物(PM2.5),87,87,70,64,56,68,68,76,76,40,60,9,5,1.2,0.9
2025-11-23T1900,1805A,115.9877,29.7295,九江市,西园,细颗粒物(PM2.5),89,82,76,66,55,77,77,98,98,69,76,16,7,1.2,0.8
2025-11-23T1900,1808A,115.9114,29.6038,九江市,综合工业园,细颗粒物(PM2.5),93,85,64,69,54,82,82,97,97,43,55,9,4,1.0,0.6
2025-11-23T1900,1809A,116.0721,29.7535,九江市,石化总厂,细颗粒物(PM2.5),94,84,91,70,70,74,74,91,91,51,64,10,8,0.8,0.6
2025-11-23T1900,1810A,115.9773,29.5698,九江市,庐山气象台,,,,,,,,,,,,,,,,
2025-11-23T1900,3190A,116.0254,29.6994,九江市,外国语学校,细颗粒物(PM2.5),77,83,74,56,51,55,55,86,86,64,67,9,6,1.2,0.9
2025-11-23T1900,4253A,116.0102,29.6594,九江市,莲花大道8号,细颗粒物(PM2.5),74,81,57,54,43,55,55,84,84,55,31,6,5,1.0,0.5
2025-11-23T1900,4240A,98.4958,39.7339,酒泉市,玉门东路5号,颗粒物(PM10),118,185,251,23,40,81,81,83,83,2,15,6,9,0.2,0.4
2025-11-23T1900,4241A,98.5099,39.7506,酒泉市,北大街108号,颗粒物(PM10),117,183,256,27,37,74,74,75,75,2,15,7,10,0.1,0.4
2025-11-23T1900,2698A,76.0072,39.4467,喀什地区,巡警大队,颗粒物(PM10),135,219,342,75,124,113,113,70,70,22,71,6,10,0.8,2.3
2025-11-23T1900,2699A,75.9755,39.4694,喀什地区,吾办,颗粒物(PM10),158,265,322,100,138,94,94,63,63,39,76,10,10,0.9,2.3
2025-11-23T1900,4027A,75.9483,39.4689,喀什地区,老干局,颗粒物(PM10),140,230,338,65,120,99,99,70,70,30,69,8,8,0.9,3
2025-11-23T1900,1824A,114.3389,34.7781,开封市,肿瘤医院,颗粒物(PM10),77,104,87,34,37,47,47,71,70,51,34,12,15,0.5,0.5
2025-11-23T1900,1826A,114.2885,34.7965,开封市,世纪星幼儿园,颗粒物(PM10),76,102,81,32,45,51,51,67,67,41,34,10,11,0.7,0.7
2025-11-23T1900,3147A,114.3438,34.8106,开封市,龙亭公园,颗粒物(PM10),72,94,84,28,42,59,59,72,72,37,33,11,13,0.8,0.8
2025-11-23T1900,3210A,114.3644,34.7964,开封市,汴京公园,颗粒物(PM10),77,104,88,31,40,53,53,65,65,44,38,11,12,0.4,0.4
2025-11-23T1900,3473A,114.2485,34.8306,开封市,技师学院,颗粒物(PM10),66,82,74,25,37,72,72,72,72,25,34,9,11,0.6,0.7
2025-11-23T1900,3592A,114.4644,34.7556,开封市,祥符区生态环境局,颗粒物(PM10),83,116,94,37,44,41,41,66,66,66,45,16,10,0.5,0.4
2025-11-23T1900,1951A,84.895,45.6094,克拉玛依市,长征新村,,33,33,35,11,12,44,44,66,45,18,18,5,6,0.4,0.3
2025-11-23T1900,1952A,84.8988,45.5893,克拉玛依市,南林小区,,37,37,37,9,9,46,46,66,45,14,12,2,2,0.1,0.1
2025-11-23T1900,1954A,84.905,44.3396,克拉玛依市,独山子区,颗粒物(PM10),58,65,47,24,10,29,29,48,46,25,15,6,6,0.9,0.3
2025-11-23T1900,1955A,85.6979,46.098,克拉玛依市,乌尔禾区商贸楼,,46,46,76,3,13,54,54,50,50,11,15,6,6,0.2,0.3
2025-11-23T1900,3612A,85.1045,45.6899,克拉玛依市,白碱滩区新站,,40,40,30,10,12,59,59,69,55,9,11,4,5,0.2,0.2
2025-11-23T1900,2697A,76.1454,39.7142,克孜勒苏柯尔克孜自治州,市人民政府,颗粒物(PM10),132,214,233,89,94,112,112,96,96,20,24,10,26,0.5,0.5
2025-11-23T1900,3665A,76.1658,39.7157,克孜勒苏柯尔克孜自治州,克州文化中心,颗粒物(PM10),146,242,248,75,94,109,109,93,93,17,26,12,27,0.7,1
2025-11-23T1900,1450A,102.8204,24.8886,昆明市,呈贡新区,,23,21,26,16,23,64,64,74,74,13,23,4,4,0.3,0.5
2025-11-23T1900,1451A,102.6251,24.9608,昆明市,西山森林公园,,,,,,,,,,,,,,,,
2025-11-23T1900,1452A,102.7252,25.0902,昆明市,龙泉镇,,22,22,27,3,13,54,54,70,70,17,24,3,3,0.4,0.5
2025-11-23T1900,1453A,102.7266,25.0375,昆明市,东风东路,,20,17,22,13,16,61,61,72,72,17,22,2,3,0.4,0.5
2025-11-23T1900,1454A,102.6742,25.0669,昆明市,金鼎山,,25,25,35,13,16,62,62,72,72,14,23,2,3,0.4,0.5
2025-11-23T1900,1455A,102.6644,25.0401,昆明市,碧鸡广场,,18,17,24,12,16,56,56,68,68,18,26,3,4,0.4,0.5
2025-11-23T1900,3179A,102.7494,25.0119,昆明市,官渡区博物馆,,22,22,29,11,17,63,63,72,72,15,26,2,3,0.1,0.3
2025-11-23T1900,3375A,102.8017,24.8336,昆明市,青年创业园,,26,,13,18,13,67,67,76,76,6,16,2,3,0.1,0.3
2025-11-23T1900,3550A,102.7997,24.9786,昆明市,昆明学院,,21,14,31,6,18,65,65,74,74,12,21,2,2,0.2,0.4
2025-11-23T1900,3551A,102.5967,24.6736,昆明市,晋宁区生态环境分局,,,,24,,13,,,49,,,14,,2,,0.5
2025-11-23T1900,3552A,102.6678,24.9856,昆明市,云天化总部,,21,11,17,6,10,66,66,74,74,11,24,5,5,0.4,0.5
2025-11-23T1900,1456A,91.1319,29.6514,拉萨市,八廓街,,33,20,18,9,9,104,104,103,103,6,10,6,7,0.2,0.3
2025-11-23T1900,1457A,91.1221,29.6747,拉萨市,市环保局,,30,18,19,7,9,93,93,88,88,10,15,5,8,0.5,0.7
2025-11-23T1900,1458A,91.0874,29.6475,拉萨市,区监测站,,31,17,14,6,7,99,99,100,100,12,17,4,6,0.3,0.4
2025-11-23T1900,1459A,91.1774,29.6541,拉萨市,西藏大学,,30,13,15,6,7,94,94,96,96,10,14,4,6,0.1,0.2
2025-11-23T1900,1460A,90.9798,29.6588,拉萨市,区辐射站,,27,18,24,6,12,86,86,89,89,17,23,4,6,0.4,0.5
2025-11-23T1900,1461A,91.0834,29.6292,拉萨市,拉萨火车站,,30,24,21,10,8,96,96,96,96,6,14,5,6,0.5,0.6
2025-11-23T1900,2520A,109.2203,23.7256,来宾市,来宾技工学校,,48,39,56,33,39,124,124,118,118,7,22,11,9,0.7,0.6
2025-11-23T1900,3535A,109.1781,23.7297,来宾市,兴宾区政府,,45,42,42,31,28,116,116,123,123,21,12,12,8,0.7,0.5
2025-11-23T1900,4002A,109.2416,23.7461,来宾市,中南小学,细颗粒物(PM2.5),53,50,56,37,37,119,119,120,120,21,30,11,8,0.8,0.7
2025-11-23T1900,1477A,104.1373,35.9454,兰州市,榆中兰大校区,,,,,,,,,,,,,,,,
2025-11-23T1900,1479A,103.831,36.0464,兰州市,铁路设计院,,,,,,,,,,,,,,,,
2025-11-23T1900,3241A,103.7439,36.0842,兰州市,百合公园,细颗粒物(PM2.5),127,163,103,96,65,3,3,60,57,130,68,23,25,2.1,1
2025-11-23T1900,3242A,103.9611,35.998,兰州市,和平,细颗粒物(PM2.5),92,121,93,68,60,27,27,60,60,69,46,13,11,1.2,1.1
2025-11-23T1900,4236A,103.6293,36.0938,兰州市,庄浪东路808号,颗粒物(PM10),64,78,102,39,62,16,16,69,68,104,80,14,22,0.8,1.1
2025-11-23T1900,4237A,103.7251,36.1043,兰州市,安宁西路88号,细颗粒物(PM2.5),128,176,125,97,70,5,5,76,72,145,78,31,22,1.9,1.2
2025-11-23T1900,4238A,103.8470,36.0676,兰州市,北滨河东路1号,颗粒物(PM10),100,149,113,70,66,4,4,44,43,123,79,17,18,1.6,1.7
2025-11-23T1900,3245A,103.6633,36.533,兰州新区,新区管委会,颗粒物(PM10),114,177,70,45,43,84,84,92,91,16,22,26,23,0.7,0.8
2025-11-23T1900,3246A,103.6975,36.4789,兰州新区,舟曲中学,颗粒物(PM10),75,100,74,41,41,88,88,99,99,24,33,21,21,0.4,0.5
2025-11-23T1900,1067A,116.6708,39.5111,廊坊市,药材公司,颗粒物(PM10),111,171,175,74,109,48,48,54,54,53,74,9,12,0.6,0.9
2025-11-23T1900,1068A,116.7214,39.5589,廊坊市,开发区,颗粒物(PM10),123,195,190,90,114,20,20,51,51,85,78,5,8,0.8,1
2025-11-23T1900,1070A,116.7244,39.5269,廊坊市,北华航天学院,颗粒物(PM10),121,192,198,80,120,23,23,51,51,84,81,10,13,0.8,1
2025-11-23T1900,2919A,116.7022,39.5453,廊坊市,河北工业大学,颗粒物(PM10),120,190,187,82,109,38,38,54,54,64,75,10,12,0.8,1
2025-11-23T1900,2535A,103.7723,29.5462,乐山市,花湖湾,,,,,,,,,,,,,,,,
2025-11-23T1900,2536A,103.7627,29.5844,乐山市,牛耳桥,细颗粒物(PM2.5),95,95,99,71,84,58,58,65,65,30,29,8,8,0.8,0.9
2025-11-23T1900,2537A,103.7508,29.6006,乐山市,市第三水厂,细颗粒物(PM2.5),74,90,98,54,66,58,58,63,63,32,35,7,8,0.9,1.1
2025-11-23T1900,2538A,103.7571,29.5664,乐山市,市监测站,细颗粒物(PM2.5),93,83,95,69,77,66,66,66,66,23,29,7,7,0.8,0.9
2025-11-23T1900,3361A,103.7311,29.5628,乐山市,理工大学,细颗粒物(PM2.5),97,92,90,72,71,69,69,73,73,22,26,8,9,0.6,0.8
2025-11-23T1900,2598A,100.2143,26.8576,丽江市,西南郊,,19,18,15,8,8,60,60,71,71,8,9,6,6,0.8,0.8
2025-11-23T1900,2599A,100.2497,26.8802,丽江市,丽江古城,,28,28,23,9,11,54,54,67,66,20,13,9,9,0.6,0.6
2025-11-23T1900,2600A,100.2203,26.8906,丽江市,市中心,,18,11,12,11,7,56,56,70,70,20,14,8,8,0.6,0.5
2025-11-23T1900,1267A,119.914,28.4514,丽水市,监测站大楼,颗粒物(PM10),71,92,48,44,35,7,7,84,78,70,35,5,5,1.2,0.6
2025-11-23T1900,1268A,119.93,28.4586,丽水市,莲都小学,颗粒物(PM10),53,56,45,25,24,22,22,88,85,60,36,4,5,0.5,0.4
2025-11-23T1900,1269A,119.879,28.4231,丽水市,余庄前,,33,33,42,21,32,34,34,82,81,20,24,4,4,0.3,0.3
2025-11-23T1900,1173A,119.176,34.5885,连云港市,市环境监测站,细颗粒物(PM2.5),107,119,118,80,80,66,66,78,75,34,33,11,12,0.9,0.9
2025-11-23T1900,3000A,119.3581,34.6972,连云港市,德源药业,细颗粒物(PM2.5),107,114,113,80,67,32,32,75,70,57,35,7,8,0.6,0.5
2025-11-23T1900,3007A,119.178,34.844,连云港市,新城一中,细颗粒物(PM2.5),132,141,133,100,93,38,38,78,75,57,41,12,12,0.8,0.7
2025-11-23T1900,3008A,119.3608,34.7519,连云港市,胡沟管理处,细颗粒物(PM2.5),104,136,95,78,54,38,38,82,62,66,36,11,11,0.6,0.6
2025-11-23T1900,3009A,119.1478,34.5911,连云港市,矿山设计院,细颗粒物(PM2.5),107,141,114,80,67,65,65,92,76,21,16,8,8,0.5,0.5
2025-11-23T1900,3434A,119.2413,34.6539,连云港市,工贸学校,细颗粒物(PM2.5),103,126,110,77,77,78,78,90,87,26,23,12,13,0.8,0.8
2025-11-23T1900,3664A,119.4172,34.7341,连云港市,连云街道,细颗粒物(PM2.5),82,104,85,60,47,92,92,108,92,23,20,9,9,0.6,0.5
2025-11-23T1900,2571A,102.3431,27.8099,凉山彝族自治州,青龙寺,,,,,,,,,,,,,,,,
2025-11-23T1900,2572A,102.2721,27.8415,凉山彝族自治州,邛海宾馆,,,31,28,23,22,,,58,53,12,11,6,7,0.7,0.7
2025-11-23T1900,2573A,102.2625,27.898,凉山彝族自治州,西昌市政府,细颗粒物(PM2.5),62,,45,44,38,36,36,48,44,16,19,6,8,0.7,0.8
2025-11-23T1900,2574A,102.2685,27.8851,凉山彝族自治州,凉山州政府,颗粒物(PM10),52,54,40,30,32,34,34,51,47,17,15,8,9,1.0,0.9
2025-11-23T1900,4229A,102.2342,27.8859,凉山彝族自治州,凯乐南路30号,细颗粒物(PM2.5),55,49,34,39,23,29,29,56,48,32,22,6,8,0.8,0.8
2025-11-23T1900,2212A,123.2,41.1953,辽阳市,宏伟区,细颗粒物(PM2.5),148,127,92,113,70,68,68,72,72,21,20,8,10,1.1,0.9
2025-11-23T1900,2213A,123.1683,41.2495,辽阳市,新华园,细颗粒物(PM2.5),158,134,90,120,77,54,54,61,61,33,29,4,7,0.7,0.5
2025-11-23T1900,2214A,123.2354,41.2639,辽阳市,滨河路,细颗粒物(PM2.5),182,156,108,137,82,49,49,60,59,35,27,8,9,1.1,0.8
2025-11-23T1900,2215A,123.149,41.2991,辽阳市,铁西工业园,细颗粒物(PM2.5),178,152,117,134,89,50,50,60,57,34,30,10,13,1.2,1
2025-11-23T1900,2227A,125.1358,42.8845,辽源市,环保局,细颗粒物(PM2.5),220,253,119,170,66,16,16,82,69,91,40,7,4,2.4,1.1
2025-11-23T1900,3239A,125.0764,42.9078,辽源市,银鹰制药,细颗粒物(PM2.5),166,166,90,126,66,9,9,82,67,82,46,11,13,1.5,0.9
2025-11-23T1900,1625A,115.9848,36.4372,聊城市,区政府,颗粒物(PM10),102,153,141,73,84,31,31,50,50,67,58,16,18,1.0,0.9
2025-11-23T1900,2878A,116.0072,36.4343,聊城市,聊大东校,细颗粒物(PM2.5),133,185,153,101,94,17,17,46,44,80,60,14,17,1.2,1
2025-11-23T1900,3200A,115.9819,36.4978,聊城市,监控中心,细颗粒物(PM2.5),104,156,138,78,81,44,44,58,58,60,53,17,18,1.2,1.1
2025-11-23T1900,3513A,116.0445,36.4361,聊城市,九州社区,细颗粒物(PM2.5),139,186,152,106,87,29,29,57,55,58,53,12,13,1.0,0.9
2025-11-23T1900,4018A,116.0567,36.4608,聊城市,星美广场,细颗粒物(PM2.5),132,189,154,100,85,26,26,55,53,60,47,11,10,0.8,0.7
2025-11-23T1900,2632A,94.3681,29.6376,林芝市,林芝监测站,,23,11,7,8,5,73,73,76,75,7,4,3,3,0.3,0.2
2025-11-23T1900,2633A,94.3616,29.6616,林芝市,林芝人民医院,,23,17,10,7,5,71,71,72,72,4,4,2,2,0.2,0.2
2025-11-23T1900,2603A,100.0781,23.8982,临沧市,市环保局,,48,,18,33,27,59,59,69,69,7,8,7,6,0.5,0.6
2025-11-23T1900,2604A,100.0894,23.8822,临沧市,市气象局,,20,15,19,12,12,63,63,71,71,7,9,9,10,0.5,0.5
2025-11-23T1900,1733A,111.5531,36.0783,临汾市,临钢医院,颗粒物(PM10),154,258,171,100,90,8,8,46,46,80,46,11,12,2.2,1.8
2025-11-23T1900,1734A,111.5028,36.0714,临汾市,技工学校,细颗粒物(PM2.5),160,177,146,122,110,14,14,43,43,86,60,20,21,2.6,2.2
2025-11-23T1900,1736A,111.5018,36.0855,临汾市,市委,颗粒物(PM10),145,240,216,110,110,17,17,47,47,80,54,25,25,2.8,2.4
2025-11-23T1900,3018A,111.505,36.1014,临汾市,唐尧大酒店,颗粒物(PM10),142,234,193,103,109,10,10,49,48,88,56,15,16,2.6,2.2
2025-11-23T1900,4244A,111.4879,36.0530,临汾市,启星学校,细颗粒物(PM2.5),163,225,193,124,104,18,18,46,46,97,69,21,18,2.2,2.1
2025-11-23T1900,4271A,103.2464,35.6123,临夏回族自治州,滨河东路1号,细颗粒物(PM2.5),58,56,131,41,84,7,7,58,56,39,16,7,6,1.0,1.2
2025-11-23T1900,4310A,103.2093,35.5995,临夏回族自治州,新华街21号,,35,35,129,22,90,19,19,63,63,52,29,10,9,1.0,1.3
2025-11-23T1900,1618A,118.3429,35.0532,临沂市,沂河小区,,,,,,,,,,,,,,,,
2025-11-23T1900,1619A,118.295,35.0583,临沂市,鲁南制药厂,细颗粒物(PM2.5),149,180,146,114,101,43,43,63,63,72,58,17,23,0.8,0.6
2025-11-23T1900,1620A,118.2794,34.9976,临沂市,新光毛纺厂,细颗粒物(PM2.5),137,156,148,104,101,41,41,62,62,71,60,18,26,1.0,0.8
2025-11-23T1900,1621A,118.3956,35.0888,临沂市,河东保险公司,细颗粒物(PM2.5),123,134,142,93,94,62,62,71,71,54,62,13,17,0.7,0.6
2025-11-23T1900,3370A,118.3564,35.0215,临沂市,十里堡居委,细颗粒物(PM2.5),147,202,164,112,98,28,28,59,58,84,63,35,31,1.1,0.9
2025-11-23T1900,3496A,118.3604,35.1084,临沂市,南坊新区,细颗粒物(PM2.5),117,141,133,88,89,59,59,66,66,54,50,15,18,1.0,0.9
2025-11-23T1900,3860A,118.3920,35.0300,临沂市,皇山花园小区,细颗粒物(PM2.5),142,188,155,108,93,43,43,66,66,67,55,23,27,1.0,0.8
2025-11-23T1900,1870A,109.4856,24.3895,柳州市,柳东小学,,45,43,46,31,34,104,104,113,113,18,14,13,15,0.4,0.3
2025-11-23T1900,1871A,109.4157,24.3277,柳州市,环保监测站,颗粒物(PM10),54,57,73,24,47,82,82,105,105,26,34,14,19,0.6,0.7
2025-11-23T1900,1872A,109.389,24.341,柳州市,河西水厂,,,,97,,54,,,61,,,43,,23,,0.6
2025-11-23T1900,1873A,109.4311,24.2921,柳州市,市四中,,48,44,70,33,41,93,93,111,111,24,40,14,17,0.5,0.8
2025-11-23T1900,1874A,109.4006,24.3631,柳州市,市九中,颗粒物(PM10),57,64,82,26,50,80,80,107,107,36,40,30,23,0.7,0.6
2025-11-23T1900,1875A,109.4958,24.3134,柳州市,古亭山,细颗粒物(PM2.5),69,53,45,50,35,59,59,110,107,37,40,10,14,0.6,0.5
2025-11-23T1900,3402A,109.5422,24.3996,柳州市,市二中,,40,31,53,28,32,103,103,112,112,15,29,11,12,0.3,0.4
2025-11-23T1900,2307A,116.5079,31.737,六安市,监测大楼,细颗粒物(PM2.5),67,77,63,48,47,55,55,90,89,61,36,7,5,0.6,0.5
2025-11-23T1900,2308A,116.4738,31.7643,六安市,皖西学院,细颗粒物(PM2.5),87,91,69,64,45,55,55,99,96,61,36,5,4,0.9,0.5
2025-11-23T1900,2309A,116.4996,31.7905,六安市,朝阳厂,颗粒物(PM10),67,84,60,42,42,39,39,90,87,89,37,6,5,0.8,0.5
2025-11-23T1900,2310A,116.5567,31.7886,六安市,开发区,细颗粒物(PM2.5),88,101,93,65,62,25,25,82,75,88,54,6,3,0.6,0.5
2025-11-23T1900,2576A,104.8,26.5892,六盘水市,窑上,,46,42,57,32,43,58,58,67,66,13,10,8,7,0.5,0.5
2025-11-23T1900,2577A,104.83,26.5917,六盘水市,黄土坡,颗粒物(PM10),54,58,50,32,36,50,50,61,58,21,14,14,8,0.5,0.6
2025-11-23T1900,2578A,104.89,26.5939,六盘水市,水钢,颗粒物(PM10),52,53,54,33,41,53,53,51,51,12,16,9,6,0.4,0.6
2025-11-23T1900,2579A,104.8475,26.5894,六盘水市,民中,,49,42,52,34,36,49,49,55,51,18,17,7,5,0.6,0.5
2025-11-23T1900,2580A,104.9544,26.5506,六盘水市,双水,,46,46,46,29,35,63,63,60,58,9,14,4,6,0.4,0.5
2025-11-23T1900,2335A,117.0189,25.1181,龙岩市,龙岩师专,,,,,,,,,,,,,,,,
2025-11-23T1900,2336A,117.0217,25.1033,龙岩市,龙岩市监测站,细颗粒物(PM2.5),69,56,36,50,27,39,39,112,108,67,26,9,11,1.5,0.6
2025-11-23T1900,2337A,117.0258,25.0661,龙岩市,闽西职业技术学院,颗粒物(PM10),54,57,46,26,23,48,48,115,111,45,31,7,15,0.6,0.4
2025-11-23T1900,2338A,117.0196,25.0306,龙岩市,龙岩学院,,38,30,31,26,22,88,88,116,116,14,18,6,7,0.3,0.3
2025-11-23T1900,2665A,105.0822,33.3261,陇南市,汉王镇固水子,,,,,,,,,,,,,,,,
2025-11-23T1900,2885A,104.9339,33.3826,陇南市,滨江中学,细颗粒物(PM2.5),122,156,74,92,38,7,7,31,29,73,40,22,12,3.3,1.4
2025-11-23T1900,3247A,104.955,33.371,陇南市,市总工会,颗粒物(PM10),83,115,81,55,40,22,22,35,35,45,37,6,7,0.9,0.9
2025-11-23T1900,2487A,111.9589,27.8901,娄底市,电视发射台,,,,,,,,,,,,,,,,
2025-11-23T1900,2488A,111.9975,27.725,娄底市,市监测站,颗粒物(PM10),52,54,77,25,56,103,103,133,133,21,37,12,19,0.6,1
2025-11-23T1900,2489A,112.0194,27.7314,娄底市,市委党校,颗粒物(PM10),52,53,80,27,57,95,95,121,121,20,32,10,12,0.6,0.9
2025-11-23T1900,2490A,111.9561,27.7569,娄底市,涟钢,细颗粒物(PM2.5),67,80,77,48,54,80,80,110,110,30,23,9,10,1.5,1.2
2025-11-23T1900,2491A,111.9892,27.7044,娄底市,市政府,颗粒物(PM10),54,57,78,35,62,95,95,114,114,18,24,12,16,0.8,1.2
2025-11-23T1900,1893A,105.4324,28.9634,泸州市,九狮山,,,,,,,,,,,,,,,,
2025-11-23T1900,1894A,105.4427,28.9063,泸州市,小市上码头,细颗粒物(PM2.5),57,43,42,40,38,39,39,44,44,20,14,14,9,0.5,0.5
2025-11-23T1900,1895A,105.4241,28.8573,泸州市,兰田宪桥,细颗粒物(PM2.5),58,46,41,41,37,15,15,40,37,27,10,6,6,0.7,0.4
2025-11-23T1900,1896A,105.4379,28.8833,泸州市,市环监站,,42,40,40,29,30,28,28,52,44,28,17,7,7,0.6,0.5
2025-11-23T1900,4272A,105.3689,28.7783,泸州市,纳溪中医医院,颗粒物(PM10),56,62,49,39,36,5,5,38,35,42,18,7,8,0.8,0.5
2025-11-23T1900,2183A,111.1406,37.5211,吕梁市,环保局,颗粒物(PM10),142,233,122,51,37,5,5,46,45,76,52,9,9,0.8,0.6
2025-11-23T1900,2185A,111.1297,37.5136,吕梁市,自来水公司,颗粒物(PM10),117,183,158,57,44,11,11,46,45,70,50,9,15,1.0,0.7
2025-11-23T1900,2867A,111.1283,37.51,吕梁市,马茂庄小学,颗粒物(PM10),134,218,138,62,40,5,5,47,45,76,51,13,11,0.7,0.6
2025-11-23T1900,1812A,112.3931,34.6516,洛阳市,市委党校,,,94,87,39,54,72,72,75,75,,38,8,10,0.4,0.5
2025-11-23T1900,1815A,112.494,34.6886,洛阳市,河南林校,颗粒物(PM10),80,110,109,37,56,63,63,71,71,38,44,10,16,0.7,0.9
2025-11-23T1900,1816A,112.3844,34.623,洛阳市,开发区管委会,颗粒物(PM10),76,102,92,36,52,87,87,84,84,21,31,11,12,0.4,0.5
2025-11-23T1900,1817A,112.4267,34.6258,洛阳市,市委新办公区,颗粒物(PM10),79,108,94,32,45,76,76,82,82,26,32,9,11,0.3,0.5
2025-11-23T1900,3340A,112.6005,34.6326,洛阳市,伊滨,颗粒物(PM10),82,114,96,31,46,68,68,73,73,25,28,8,10,0.3,0.4
2025-11-23T1900,3341A,112.4951,34.6332,洛阳市,中移产业园,颗粒物(PM10),74,97,91,34,48,74,74,76,76,23,31,9,10,0.4,0.5
2025-11-23T1900,3593A,112.5736,34.8993,洛阳市,吉利监测站,颗粒物(PM10),87,124,83,36,42,58,58,80,80,38,28,10,9,0.4,0.5
2025-11-23T1900,3635A,112.3677,34.662,洛阳市,河科大西苑校区,颗粒物(PM10),79,107,94,34,42,80,80,81,81,20,29,8,11,0.5,0.6
2025-11-23T1900,3636A,112.4388,34.6781,洛阳市,英才小学,颗粒物(PM10),78,105,113,38,62,71,71,70,70,29,43,10,16,0.5,0.8
2025-11-23T1900,4214A,112.4600,34.6949,洛阳市,春都路1号院,颗粒物(PM10),89,128,129,32,49,59,59,62,62,30,40,11,18,0.5,0.7
2025-11-23T1900,2399A,114.051,33.5699,漯河市,三五一五工厂,颗粒物(PM10),80,109,106,36,52,63,63,81,81,28,25,7,9,0.3,0.4
2025-11-23T1900,2400A,114.0055,33.5698,漯河市,漯河大学,颗粒物(PM10),88,125,106,39,54,56,56,85,84,34,31,7,8,0.3,0.4
2025-11-23T1900,2401A,114.0138,33.5828,漯河市,市水利局,颗粒物(PM10),78,105,93,34,48,65,65,78,78,28,27,8,10,0.2,0.3
2025-11-23T1900,2402A,114.0261,33.5698,漯河市,市广电局,颗粒物(PM10),78,105,102,22,47,61,61,83,83,28,24,7,8,0.3,0.4
2025-11-23T1900,3478A,113.9749,33.5664,漯河市,市图书馆,颗粒物(PM10),83,116,106,33,52,58,58,72,72,33,28,6,7,0.3,0.3
2025-11-23T1900,4250A,114.0892,33.5882,漯河市,韶山路11号,颗粒物(PM10),82,114,96,30,47,64,64,80,80,28,27,8,10,0.2,0.4
2025-11-23T1900,1798A,118.5092,31.6837,马鞍山市,湖东路四小,细颗粒物(PM2.5),135,151,128,103,83,58,58,83,83,59,63,9,8,1.0,1.1
2025-11-23T1900,1799A,118.5024,31.6449,马鞍山市,开发区,细颗粒物(PM2.5),133,148,142,101,101,44,44,76,75,72,64,7,7,0.9,1.1
2025-11-23T1900,1802A,118.6245,31.7241,马鞍山市,濮塘,,,,,,,,,,,,,,,,
2025-11-23T1900,3633A,118.4918,31.6809,马鞍山市,雨山,细颗粒物(PM2.5),143,154,129,109,93,48,48,85,84,67,54,11,9,0.9,1
2025-11-23T1900,4191A,118.5274,31.72227,马鞍山市,慈湖高新区,细颗粒物(PM2.5),163,156,131,124,99,62,62,79,79,58,56,9,9,1.0,0.9
2025-11-23T1900,1686A,111.0286,21.4688,茂名市,电白南海,颗粒物(PM10),69,88,66,31,28,138,138,139,139,27,21,11,15,1.3,1.1
2025-11-23T1900,1687A,110.9294,21.6533,茂名市,茂石化七小,细颗粒物(PM2.5),70,78,61,51,34,97,97,128,128,33,26,21,20,0.8,0.6
2025-11-23T1900,1688A,110.9107,21.6687,茂名市,健康路,颗粒物(PM10),63,75,61,44,34,96,96,130,130,29,26,12,26,1.1,1
2025-11-23T1900,1689A,110.8592,21.6828,茂名市,高岭,,,124,77,44,33,78,78,,,40,22,10,20,,0.7
2025-11-23T1900,3450A,111.01,21.5165,茂名市,电白水东,,44,44,49,22,28,136,136,131,131,14,17,8,17,0.6,0.6
2025-11-23T1900,2539A,104.0308,30.0478,眉山市,黑龙滩水库,,,,,,,,,,,,,,,,
2025-11-23T1900,2540A,103.8416,30.0874,眉山市,气象局,细颗粒物(PM2.5),110,105,108,83,91,78,78,82,82,27,35,12,12,0.7,0.8
2025-11-23T1900,3137A,103.8578,30.0744,眉山市,市委党校,细颗粒物(PM2.5),104,88,100,78,81,74,74,76,76,25,36,7,7,0.6,0.8
2025-11-23T1900,3148A,103.8291,30.0564,眉山市,区人社局,细颗粒物(PM2.5),117,122,106,88,86,66,66,79,79,29,30,10,10,1.0,1.1
2025-11-23T1900,1690A,116.1231,24.3284,梅州市,梅江月梅,颗粒物(PM10),51,52,43,33,24,104,104,116,116,17,29,7,7,0.6,0.5
2025-11-23T1900,1691A,116.0797,24.2719,梅州市,梅县新城,细颗粒物(PM2.5),133,,52,101,34,17,17,99,95,82,37,8,8,1.4,0.5
2025-11-23T1900,1692A,116.1248,24.2654,梅州市,环境监控中心,细颗粒物(PM2.5),64,47,47,46,31,65,65,102,102,47,38,7,19,0.8,0.7
2025-11-23T1900,3315A,116.1233,24.2991,梅州市,梅龙,颗粒物(PM10),65,80,45,41,28,61,61,96,96,42,24,9,10,0.9,0.6
2025-11-23T1900,1878A,104.7778,31.4741,绵阳市,富乐山,细颗粒物(PM2.5),72,60,64,52,53,62,62,63,63,16,21,10,10,0.3,0.4
2025-11-23T1900,1880A,104.6697,31.4668,绵阳市,高新区自来水公司,细颗粒物(PM2.5),67,66,89,48,63,35,35,57,57,46,40,10,10,0.8,0.8
2025-11-23T1900,1881A,104.7287,31.5075,绵阳市,三水厂,细颗粒物(PM2.5),74,76,74,54,56,29,29,52,52,58,42,12,12,0.7,0.7
2025-11-23T1900,3491A,104.69,31.5322,绵阳市,西科大附属小学,细颗粒物(PM2.5),75,72,80,55,54,59,59,60,60,37,41,8,8,0.2,0.4
2025-11-23T1900,3492A,104.5648,31.5343,绵阳市,安州区旅游局,细颗粒物(PM2.5),79,68,60,58,54,42,42,64,64,51,30,8,10,1.0,0.7
2025-11-23T1900,4226A,104.7651,31.4531,绵阳市,绵阳市气象局,"颗粒物(PM10),细颗粒物(PM2.5)",53,56,71,37,51,67,67,64,64,32,30,8,8,0.5,0.6
2025-11-23T1900,1784A,129.61,44.561,牡丹江市,环保大楼,细颗粒物(PM2.5),117,121,47,88,40,41,41,74,70,50,22,16,11,0.9,0.5
2025-11-23T1900,1785A,129.6115,44.5782,牡丹江市,文化广场,细颗粒物(PM2.5),168,185,64,127,40,30,30,81,69,71,33,14,11,1.3,0.7
2025-11-23T1900,1786A,129.5904,44.5963,牡丹江市,第一医院,细颗粒物(PM2.5),192,157,74,144,59,10,10,62,52,67,34,8,5,1.8,0.6
2025-11-23T1900,1787A,129.6364,44.6075,牡丹江市,机车工厂,细颗粒物(PM2.5),152,145,69,116,44,7,7,60,52,68,39,25,18,1.3,0.7
2025-11-23T1900,1788A,129.6386,44.5462,牡丹江市,第一中学,细颗粒物(PM2.5),119,113,50,90,30,18,18,72,60,67,26,8,7,1.0,0.6
2025-11-23T1900,2531A,105.0703,29.61,内江市,市监测站,细颗粒物(PM2.5),85,96,70,63,64,63,63,78,78,25,19,2,3,0.8,0.7
2025-11-23T1900,2532A,105.0717,29.5947,内江市,东兴区政府,细颗粒物(PM2.5),84,66,67,62,60,63,63,70,70,22,21,3,3,0.6,0.6
2025-11-23T1900,2533A,105.0653,29.5817,内江市,内江二中,细颗粒物(PM2.5),77,77,80,56,63,64,64,71,71,22,22,5,5,0.8,0.8
2025-11-23T1900,2534A,105.0406,29.5822,内江市,内江日报社,细颗粒物(PM2.5),72,64,72,52,59,66,66,69,69,22,22,4,4,0.5,0.5
2025-11-23T1900,2628A,92.0657,31.4846,那曲市,那曲监测站,,43,39,42,30,27,95,95,98,98,16,24,9,11,1.0,1.3
2025-11-23T1900,4243A,92.0515,31.4787,那曲市,那曲市委宣传部,,29,12,20,3,11,90,90,86,86,1,13,4,5,0.4,0.7
2025-11-23T1900,1290A,115.8931,28.6843,南昌市,省外办,细颗粒物(PM2.5),83,78,65,61,50,58,58,95,95,50,62,4,4,1.1,1.1
2025-11-23T1900,1291A,115.8886,28.7003,南昌市,省林业公司,细颗粒物(PM2.5),79,80,62,58,42,90,90,108,108,33,61,6,6,1.0,1
2025-11-23T1900,1292A,115.8126,28.7442,南昌市,林科所,颗粒物(PM10),57,63,49,36,29,88,88,113,113,37,47,6,6,0.8,0.7
2025-11-23T1900,1294A,115.8518,28.687,南昌市,建工学校,颗粒物(PM10),61,72,73,42,45,99,99,107,107,39,69,12,11,0.7,0.9
2025-11-23T1900,1295A,115.8921,28.6424,南昌市,象湖,细颗粒物(PM2.5),70,62,77,51,50,83,83,105,105,52,67,11,12,0.9,1.2
2025-11-23T1900,1296A,115.7423,28.7996,南昌市,武术学校,,,,,,,,,,,,,,,,
2025-11-23T1900,3046A,115.9084,28.6062,南昌市,机电学校,"颗粒物(PM10),细颗粒物(PM2.5)",79,108,89,58,57,43,43,103,102,93,69,11,11,0.9,0.9
2025-11-23T1900,3690A,115.9721,28.7031,南昌市,外国语学校,颗粒物(PM10),62,74,66,43,44,97,97,124,124,39,57,10,11,0.7,0.6
2025-11-23T1900,4192A,115.9316,28.68677,南昌市,南京东路235号,细颗粒物(PM2.5),79,75,74,58,46,79,79,112,111,73,65,8,8,0.9,0.9
2025-11-23T1900,1905A,106.056,30.8064,南充市,西山风景区,,,,,,,,,,,,,,,,
2025-11-23T1900,1906A,106.0789,30.8023,南充市,南充市委,,,71,92,51,74,16,16,60,60,70,29,4,5,,0.6
2025-11-23T1900,1907A,106.1031,30.8217,南充市,南充炼油厂,细颗粒物(PM2.5),94,97,98,70,82,37,37,60,60,54,26,6,6,1.0,0.6
2025-11-23T1900,4227A,106.1083,30.7884,南充市,梨树横街98号,细颗粒物(PM2.5),69,63,91,50,74,44,44,67,67,45,24,6,6,0.6,0.6
2025-11-23T1900,4304A,106.1172,30.843,南充市,清泉寺北路188号,细颗粒物(PM2.5),60,58,79,43,63,52,52,64,64,38,24,5,5,0.6,0.6
2025-11-23T1900,4305A,106.067,30.7616,南充市,同庆路1号,细颗粒物(PM2.5),70,70,92,51,69,31,31,60,60,45,23,6,7,0.7,0.6
2025-11-23T1900,1151A,118.8086,32.1065,南京市,迈皋桥,细颗粒物(PM2.5),110,119,102,83,71,46,46,83,83,54,42,5,6,0.9,0.9
2025-11-23T1900,1152A,118.7538,32.0551,南京市,草场门,细颗粒物(PM2.5),104,114,107,78,74,60,60,77,77,59,71,9,9,0.9,1
2025-11-23T1900,1153A,118.7794,32.0745,南京市,山西路,细颗粒物(PM2.5),110,129,114,83,74,67,67,90,90,61,64,5,6,0.9,1.1
2025-11-23T1900,1154A,118.7752,32.0023,南京市,中华门,细颗粒物(PM2.5),113,122,99,85,75,46,46,82,81,54,55,4,4,1.1,1
2025-11-23T1900,1155A,118.8109,32.0309,南京市,瑞金路,细颗粒物(PM2.5),113,122,105,85,76,46,46,82,82,70,75,4,5,0.7,0.8
2025-11-23T1900,1156A,118.7997,32.0754,南京市,玄武湖,细颗粒物(PM2.5),109,112,101,82,74,65,65,85,85,28,45,4,4,1.0,1.1
2025-11-23T1900,1157A,118.6414,32.0931,南京市,浦口,颗粒物(PM10),81,112,99,50,63,40,40,94,94,66,43,10,13,0.8,0.9
2025-11-23T1900,1158A,118.7356,31.9996,南京市,奥体中心,细颗粒物(PM2.5),122,134,105,92,74,56,56,90,90,74,83,10,12,0.8,1
2025-11-23T1900,1159A,118.9125,32.1028,南京市,仙林大学城,细颗粒物(PM2.5),104,122,101,78,71,51,51,79,79,62,61,11,9,1.2,1.1
2025-11-23T1900,3422A,118.8436,31.9198,南京市,江宁彩虹桥,细颗粒物(PM2.5),94,100,97,70,66,66,66,96,96,61,74,5,7,0.7,0.9
2025-11-23T1900,3427A,118.8554,32.3578,南京市,六合雄州,细颗粒物(PM2.5),98,89,108,73,79,80,80,106,106,43,65,20,15,0.6,1
2025-11-23T1900,4249A,118.8708,31.3402,南京市,汶溪路181号,细颗粒物(PM2.5),125,95,79,95,86,57,57,95,91,60,94,12,10,1.2,0.8
2025-11-23T1900,4312A,119.019,31.6512,南京市,中山西路1号,细颗粒物(PM2.5),143,124,92,109,82,71,71,108,107,34,39,6,5,1.1,0.9
2025-11-23T1900,1401A,108.3103,22.7881,南宁市,二十一中,细颗粒物(PM2.5),62,,54,44,38,97,97,114,114,38,35,8,10,0.5,0.5
2025-11-23T1900,1402A,108.3141,22.8528,南宁市,北湖,细颗粒物(PM2.5),62,63,61,44,41,80,80,128,128,64,47,13,17,0.8,0.7
2025-11-23T1900,1403A,108.3206,22.8225,南宁市,市监测站,,49,37,59,34,35,85,85,110,110,42,43,10,16,0.6,0.6
2025-11-23T1900,1404A,108.3829,22.8037,南宁市,大自然花园,颗粒物(PM10),52,54,53,30,34,84,84,119,119,43,32,8,9,0.6,0.5
2025-11-23T1900,1405A,108.4394,22.7904,南宁市,仙葫,,,,,,,,,,,,,,,,
2025-11-23T1900,1406A,108.2397,22.8467,南宁市,区农职院,"颗粒物(PM10),细颗粒物(PM2.5)",57,64,58,40,38,62,62,116,116,54,31,9,14,0.7,0.7
2025-11-23T1900,1407A,108.3275,22.735,南宁市,英华嘉园,细颗粒物(PM2.5),98,88,64,73,48,15,15,111,107,100,46,5,6,1.3,0.9
2025-11-23T1900,3401A,108.4834,22.7618,南宁市,红星社区,细颗粒物(PM2.5),67,57,46,48,31,89,89,127,127,36,32,8,9,0.6,0.6
2025-11-23T1900,4221A,108.2177,22.7774,南宁市,乐贤路16号,颗粒物(PM10),62,74,64,40,35,89,89,116,116,36,41,5,7,0.5,0.4
2025-11-23T1900,2331A,118.0966,26.6761,南平市,茫荡山,,,,26,,18,,,123,,,,,2,,
2025-11-23T1900,2332A,118.1681,26.6369,南平市,南平市监测站,细颗粒物(PM2.5),60,48,39,43,30,46,46,94,92,38,27,4,5,1.1,0.6
2025-11-23T1900,2333A,118.1825,26.6489,南平市,南平铝业有限公司,细颗粒物(PM2.5),63,56,35,45,29,44,44,92,90,39,31,4,6,0.8,0.6
2025-11-23T1900,2334A,118.1756,26.6272,南平市,南平七中,,45,,36,31,30,70,70,96,96,17,21,5,6,0.6,0.6
2025-11-23T1900,1168A,120.9098,31.9663,南通市,狼山街道,细颗粒物(PM2.5),79,87,136,58,101,43,43,118,109,75,77,4,6,0.7,1
2025-11-23T1900,1169A,120.86,32.0005,南通市,虹桥,细颗粒物(PM2.5),92,82,136,68,116,47,47,117,100,94,81,8,12,1.0,1.5
2025-11-23T1900,1170A,120.87,32.02,南通市,城中,细颗粒物(PM2.5),94,108,153,70,113,49,49,120,110,94,76,8,12,0.9,1.3
2025-11-23T1900,1171A,120.94,31.93,南通市,星湖花园,细颗粒物(PM2.5),78,82,146,57,109,80,80,131,126,73,80,7,8,0.5,0.9
2025-11-23T1900,1172A,120.81,32.0417,南通市,紫琅学院,细颗粒物(PM2.5),97,123,157,72,117,2,2,115,87,162,87,8,12,1.0,1.3
2025-11-23T1900,3291A,121.067,32.062,南通市,通州监测站,细颗粒物(PM2.5),113,107,135,85,117,71,71,132,127,76,55,6,6,0.9,0.9
2025-11-23T1900,3432A,120.9348,31.9883,南通市,环境教育馆,细颗粒物(PM2.5),97,92,128,72,110,67,67,129,123,86,81,8,7,0.6,0.8
2025-11-23T1900,2404A,112.5224,33.0122,南阳市,瓦房庄,颗粒物(PM10),66,82,86,30,51,35,35,64,63,43,34,7,8,0.6,0.5
2025-11-23T1900,2405A,112.5003,32.9735,南阳市,汉画馆,颗粒物(PM10),63,75,88,21,48,23,23,65,62,52,43,6,8,0.5,0.6
2025-11-23T1900,2406A,112.5573,33.027,南阳市,气象站,颗粒物(PM10),63,75,96,22,47,44,44,65,65,45,39,8,10,0.5,0.6
2025-11-23T1900,2407A,112.5481,32.9689,南阳市,理工学院,颗粒物(PM10),68,85,91,29,44,23,23,60,56,60,43,7,8,0.5,0.7
2025-11-23T1900,4008A,112.5234,32.9922,南阳市,卧龙区政府,颗粒物(PM10),57,63,87,26,53,30,30,59,57,48,38,5,7,0.5,0.6
2025-11-23T1900,1234A,121.8358,29.911,宁波市,区环保大楼,颗粒物(PM10),58,65,87,39,62,56,56,93,92,62,54,6,7,0.9,1
2025-11-23T1900,1235A,121.56,29.82,宁波市,万里学院,细颗粒物(PM2.5),68,72,105,49,79,86,86,116,115,51,69,6,8,0.6,0.7
2025-11-23T1900,1236A,121.713,29.9572,宁波市,龙赛医院,颗粒物(PM10),67,83,124,47,82,72,72,129,128,56,72,4,6,0.9,1
2025-11-23T1900,1239A,121.633,29.7733,宁波市,钱湖水厂,,49,46,79,34,60,107,107,111,111,16,26,6,6,0.6,0.9
2025-11-23T1900,1240A,121.5856,29.8635,宁波市,太古小学,细颗粒物(PM2.5),73,94,116,53,75,90,90,120,120,59,65,5,5,1.0,1.1
2025-11-23T1900,1241A,121.524,29.8674,宁波市,市环境监测中心,细颗粒物(PM2.5),75,80,99,55,71,99,99,120,120,61,58,10,10,0.9,0.9
2025-11-23T1900,2871A,121.6147,29.9017,宁波市,万里国际学校,细颗粒物(PM2.5),70,85,112,51,78,68,68,131,127,105,69,6,7,1.0,1.1
2025-11-23T1900,3710A,121.5594,29.8975,宁波市,白沙活动中心,细颗粒物(PM2.5),92,89,110,68,76,92,92,127,126,60,71,7,7,0.8,0.9
2025-11-23T1900,2339A,119.5001,26.6946,宁德市,金涵水库,,,,36,,24,,,61,,,13,,2,,0.4
2025-11-23T1900,2341A,119.5388,26.6612,宁德市,宁德市监测站,,40,36,36,28,25,76,76,98,98,23,18,7,7,0.8,0.6
2025-11-23T1900,3209A,119.5231,26.6562,宁德市,宁德一中,,40,29,37,28,25,79,79,97,97,16,14,7,7,1.2,1.1
2025-11-23T1900,2618A,98.8601,25.8567,怒江傈僳族自治州,州监测站,,31,31,27,20,19,35,35,35,35,13,11,7,7,0.4,0.4
2025-11-23T1900,2619A,98.8546,25.8417,怒江傈僳族自治州,泸水一中,,28,28,19,15,17,10,10,21,21,26,14,7,7,0.7,0.5
2025-11-23T1900,1888A,101.6891,26.571,攀枝花市,弄弄坪,,39,39,59,15,31,47,47,58,58,17,28,7,18,0.6,1
2025-11-23T1900,1889A,101.5769,26.5928,攀枝花市,河门口,,28,28,54,15,30,50,50,57,57,21,22,23,22,1.2,1.4
2025-11-23T1900,1890A,101.7169,26.585,攀枝花市,炳草岗,颗粒物(PM10),54,57,59,13,30,40,40,53,53,23,29,7,14,0.7,0.9
2025-11-23T1900,1891A,101.7369,26.5008,攀枝花市,仁和,,26,26,46,15,30,45,45,54,54,20,17,8,12,0.8,1
2025-11-23T1900,2835A,101.7227,26.567,攀枝花市,四十中小,,38,38,51,22,32,54,54,60,60,10,25,8,24,0.8,1.1
2025-11-23T1900,1604A,122.0303,41.1489,盘锦市,开发区,细颗粒物(PM2.5),208,,98,158,116,9,9,41,35,75,41,8,7,2.1,1.3
2025-11-23T1900,1605A,122.0485,41.0883,盘锦市,兴隆台,细颗粒物(PM2.5),160,126,85,122,102,18,18,34,32,73,44,7,8,1.4,1.2
2025-11-23T1900,1606A,121.8297,41.1028,盘锦市,新生街道,细颗粒物(PM2.5),165,,88,125,103,1,1,34,32,102,60,8,9,1.5,1.2
2025-11-23T1900,1832A,113.3257,33.742,平顶山市,新华旅馆,颗粒物(PM10),85,119,104,40,49,53,53,77,76,38,35,8,9,0.5,0.5
2025-11-23T1900,1833A,113.2919,33.737,平顶山市,规划设计院,颗粒物(PM10),91,131,112,61,57,50,50,76,75,47,38,6,7,0.7,0.5
2025-11-23T1900,1834A,113.182,33.774,平顶山市,平顶山工学院,颗粒物(PM10),78,105,92,44,49,67,67,77,77,35,36,8,9,0.5,0.5
2025-11-23T1900,3204A,113.3025,33.73,平顶山市,规划局,颗粒物(PM10),82,114,110,53,54,55,55,78,77,43,39,7,9,0.6,0.6
2025-11-23T1900,3594A,112.8867,33.9116,平顶山市,石龙区,颗粒物(PM10),90,129,101,28,38,28,28,78,77,72,51,9,8,0.2,0.2
2025-11-23T1900,2656A,106.6692,35.5461,平凉市,聚贤嘉苑,颗粒物(PM10),63,75,43,32,23,51,51,100,96,46,25,3,5,0.7,0.6
2025-11-23T1900,2657A,106.7021,35.5307,平凉市,博物馆,颗粒物(PM10),60,69,43,33,27,47,47,92,92,47,26,16,12,0.9,0.7
2025-11-23T1900,2347A,114.0997,27.5002,萍乡市,武功山,,,,,,,,,,,,,,,,
2025-11-23T1900,2348A,113.8385,27.6434,萍乡市,中医院,颗粒物(PM10),84,118,72,46,37,71,71,118,118,51,38,7,8,1.0,1.2
2025-11-23T1900,2349A,113.8493,27.6253,萍乡市,市政府车库,颗粒物(PM10),77,103,59,52,46,52,52,116,115,61,33,11,11,1.4,1.1
2025-11-23T1900,2350A,113.8676,27.6435,萍乡市,市环保局,细颗粒物(PM2.5),67,53,61,48,39,96,96,138,138,33,27,14,18,0.8,1.1
2025-11-23T1900,2351A,113.866,27.6198,萍乡市,安源区政府,细颗粒物(PM2.5),67,68,58,48,48,72,72,122,122,45,26,13,13,1.1,1.1
2025-11-23T1900,2319A,119.0141,25.4325,莆田市,荔城区仓后路,颗粒物(PM10),52,54,38,28,21,77,77,111,108,25,14,4,4,0.6,0.5
2025-11-23T1900,2320A,119.0015,25.4553,莆田市,莆田市监测站,颗粒物(PM10),51,51,30,30,16,79,79,116,112,24,12,6,4,0.8,0.5
2025-11-23T1900,2321A,119.1119,25.4561,莆田市,涵江区六中,,46,46,35,22,20,79,79,109,106,24,13,3,4,0.5,0.5
2025-11-23T1900,2322A,119.1013,25.3215,莆田市,秀屿区政府,,43,34,39,30,25,103,103,119,119,15,15,7,5,0.8,0.4
2025-11-23T1900,2323A,118.981,25.4792,莆田市,东圳水库,,,,25,,20,,,117,,,10,,4,,0.8
2025-11-23T1900,2392A,115.0312,35.7636,濮阳市,环保局,细颗粒物(PM2.5),77,98,95,56,51,48,48,47,47,45,45,12,12,0.9,0.9
2025-11-23T1900,2394A,115.0574,35.7609,濮阳市,油田运输公司,颗粒物(PM10),91,132,102,62,51,24,24,47,47,73,51,12,13,0.9,0.7
2025-11-23T1900,3021A,115,35.7668,濮阳市,濮水河管理处,细颗粒物(PM2.5),100,136,109,75,67,20,20,40,40,56,43,10,11,0.4,0.4
2025-11-23T1900,4216A,115.0924,35.7686,濮阳市,任丘路479号,颗粒物(PM10),102,153,113,73,56,29,29,49,49,57,49,10,11,0.8,0.7
2025-11-23T1900,2601A,100.98,22.7633,普洱市,市环保局,,40,40,30,21,16,40,40,59,58,16,8,4,4,0.4,0.3
2025-11-23T1900,2602A,100.9817,22.8322,普洱市,普洱第二中学,,23,23,26,14,16,49,49,63,63,13,10,4,4,0.3,0.3
2025-11-23T1900,2262A,131.0518,45.8751,七台河市,新一中,,,,,,,,,,,,,,,,
2025-11-23T1900,3345A,131.0577,45.7879,七台河市,中波台,细颗粒物(PM2.5),59,60,43,42,29,65,65,74,73,24,14,8,8,0.6,0.5
