timepoint,stationcode,longitude,latitude,area,positionname,primarypollutant,aqi,pm10,pm10_24h,pm2_5,pm2_5_24h,o3,o3_24h,o3_8h,o3_8h_24h,no2,no2_24h,so2,so2_24h,co,co_24h
2025-11-23T1300,2566A,102.1879,31.914,阿坝藏族羌族自治州,州农科所,,,,,,,,,,,,,,,,
2025-11-23T1300,2568A,102.2502,31.8896,阿坝藏族羌族自治州,马师校,,23,20,16,9,17,73,73,56,51,7,8,6,6,0.4,0.4
2025-11-23T1300,3994A,102.2165,31.9024,阿坝藏族羌族自治州,马尔康中学西区,,26,19,14,7,10,83,83,63,60,4,5,6,6,0.3,0.4
2025-11-23T1300,2695A,80.292,41.1694,阿克苏地区,电视台,颗粒物(PM10),102,154,274,56,96,39,39,37,37,40,51,9,11,1.1,1.4
2025-11-23T1300,2696A,80.2613,41.1551,阿克苏地区,艺术中心,颗粒物(PM10),96,142,231,57,84,47,47,42,42,35,50,6,10,0.9,1.1
2025-11-23T1300,2204A,105.6467,38.8363,阿拉善盟,西城区西花园,,,,,,,,,,,,,,,,
2025-11-23T1300,2205A,105.6985,38.8411,阿拉善盟,蒙二幼,颗粒物(PM10),66,82,130,27,32,91,91,85,83,5,9,8,8,0.7,0.8
2025-11-23T1300,2206A,105.724,38.8516,阿拉善盟,环保局新楼,颗粒物(PM10),73,96,117,30,34,91,91,88,87,4,5,9,9,0.7,0.7
2025-11-23T1300,2708A,88.1264,47.8517,阿勒泰地区,市站,,32,32,17,15,7,34,34,29,23,44,41,10,4,0.5,0.4
2025-11-23T1300,2630A,80.1161,32.5,阿里地区,阿里监测站,,22,6,3,3,3,68,68,44,44,6,14,10,9,0.3,0.4
2025-11-23T1300,3192A,80.0903,32.5028,阿里地区,阿里藏医院,,24,14,9,11,5,74,74,65,61,4,5,10,10,0.5,0.5
2025-11-23T1300,2642A,109.0318,32.6537,安康市,香溪洞,,,,,,,,,,,,,,,,
2025-11-23T1300,2644A,109.0072,32.6975,安康市,汉滨区检察院,,46,46,49,30,30,33,33,14,14,21,28,6,6,0.7,0.6
2025-11-23T1300,4054A,109.0325,32.6913,安康市,市邮政管理局,颗粒物(PM10),51,51,53,23,32,40,40,15,15,23,33,5,5,0.8,0.8
2025-11-23T1300,2291A,117.0809,30.5177,安庆市,环科院,细颗粒物(PM2.5),103,78,71,77,54,78,78,28,28,30,55,12,7,0.6,0.7
2025-11-23T1300,2292A,117.0331,30.5119,安庆市,马山宾馆,细颗粒物(PM2.5),105,85,79,79,57,100,100,33,33,32,66,13,7,0.8,0.7
2025-11-23T1300,2294A,116.9896,30.6145,安庆市,安庆大学,细颗粒物(PM2.5),98,87,73,73,49,90,90,30,30,37,56,12,9,0.5,0.7
2025-11-23T1300,3173A,117.0598,30.5351,安庆市,市人大,细颗粒物(PM2.5),103,88,76,77,53,102,102,40,40,24,58,13,8,0.6,0.6
2025-11-23T1300,3122A,105.9606,26.2611,安顺市,伍家关,,39,36,64,27,36,81,81,68,68,10,13,19,25,0.9,1
2025-11-23T1300,3123A,105.9408,26.2431,安顺市,凤凰山,,45,43,50,31,43,70,70,58,58,12,15,27,24,0.5,0.5
2025-11-23T1300,3124A,105.9439,26.2564,安顺市,金钟山,,48,44,46,33,40,74,74,60,60,9,11,30,25,0.7,0.6
2025-11-23T1300,3125A,105.8983,26.2481,安顺市,娄家坡,,36,33,48,25,42,68,68,54,54,11,15,10,19,0.5,0.6
2025-11-23T1300,1818A,114.4839,36.0621,安阳市,棉研所,,,,,,,,,,,,,,,,
2025-11-23T1300,1819A,114.3551,36.1017,安阳市,红庙街,颗粒物(PM10),61,72,78,24,43,78,78,54,54,17,38,10,9,0.8,0.8
2025-11-23T1300,1820A,114.361,36.0681,安阳市,银杏小区,颗粒物(PM10),65,79,77,28,43,80,80,58,58,19,34,10,6,1.1,0.7
2025-11-23T1300,3141A,114.3922,36.0878,安阳市,信访局,颗粒物(PM10),61,71,77,32,45,86,86,64,64,17,33,9,9,0.6,0.6
2025-11-23T1300,3669A,114.4705,36.0637,安阳市,左辅环卫站,颗粒物(PM10),60,70,115,20,57,88,88,35,35,14,42,12,7,0.7,0.8
2025-11-23T1300,3703A,114.2917,36.0949,安阳市,安钢职工学校,颗粒物(PM10),70,90,89,30,46,80,80,57,57,14,33,7,7,0.9,0.8
2025-11-23T1300,1748A,123.044,41.1196,鞍山市,深沟寺,细颗粒物(PM2.5),107,108,91,80,60,69,69,69,60,36,27,18,14,1.4,1
2025-11-23T1300,1749A,123.011,41.0931,鞍山市,太阳城,细颗粒物(PM2.5),107,108,89,80,59,67,67,68,58,36,26,22,18,1.5,1.1
2025-11-23T1300,1750A,123.0485,41.1442,鞍山市,太平,细颗粒物(PM2.5),107,117,100,80,60,76,76,77,64,37,29,20,16,1.5,1.1
2025-11-23T1300,1751A,122.9642,41.0971,鞍山市,铁西三道街,细颗粒物(PM2.5),127,149,117,96,66,66,66,54,48,43,38,20,18,1.3,1.4
2025-11-23T1300,1753A,123.022,41.0821,鞍山市,明达新区,细颗粒物(PM2.5),102,103,86,76,56,72,72,73,64,30,23,20,16,1.1,0.8
2025-11-23T1300,1754A,123.1289,41.0228,鞍山市,千山,,,,,,,,,,,,,,,,
2025-11-23T1300,4201A,122.9446,41.0826,鞍山市,兴盛南路290号,细颗粒物(PM2.5),132,149,115,100,67,64,64,58,50,50,40,21,16,1.1,1
2025-11-23T1300,2195A,107.4212,40.761,巴彦淖尔市,附二中,颗粒物(PM10),83,115,226,47,65,77,77,70,68,5,6,5,5,0.3,0.3
2025-11-23T1300,2196A,107.37,40.7372,巴彦淖尔市,市环保大楼,颗粒物(PM10),83,115,214,40,54,83,83,73,72,4,6,8,8,0.3,0.3
2025-11-23T1300,1956A,86.1472,41.7538,巴音郭楞蒙古自治州,孔雀公园,颗粒物(PM10),130,210,228,48,55,59,59,38,31,30,31,12,9,0.5,0.6
2025-11-23T1300,1957A,86.1972,41.7166,巴音郭楞蒙古自治州,棉纺厂,颗粒物(PM10),163,275,282,91,62,64,64,35,28,23,31,8,7,0.7,0.7
2025-11-23T1300,1958A,86.2357,41.7173,巴音郭楞蒙古自治州,经济开发区,颗粒物(PM10),137,224,228,51,41,56,56,46,41,22,20,8,8,0.6,0.5
2025-11-23T1300,2914A,106.7677,31.8794,巴中市,苏山坪,,,,,,,,,,,,,,,,
2025-11-23T1300,3181A,106.7768,31.8526,巴中市,市五中,细颗粒物(PM2.5),54,45,72,38,57,40,40,12,12,12,21,9,8,0.7,0.8
2025-11-23T1300,3183A,106.7418,31.8654,巴中市,圣泉水务公司,,50,44,54,35,44,43,43,14,14,13,22,9,9,0.8,0.9
2025-11-23T1300,3616A,106.7616,31.8344,巴中市,市中心医院,细颗粒物(PM2.5),67,,63,48,55,45,45,15,15,9,20,5,5,0.8,1
2025-11-23T1300,2235A,122.7911,45.6077,白城市,洮北区环保局,,33,32,44,23,21,66,66,40,40,11,11,6,5,0.4,0.4
2025-11-23T1300,2236A,122.8738,45.5725,白城市,市环保局,,36,36,47,21,18,59,59,,,13,20,7,5,0.2,0.3
2025-11-23T1300,2231A,126.4219,41.9171,白山市,喜丰,颗粒物(PM10),81,111,86,41,28,92,92,36,36,15,30,12,11,0.9,1
2025-11-23T1300,2232A,126.4077,41.9419,白山市,环保局,细颗粒物(PM2.5),80,68,52,59,34,97,97,32,32,12,25,14,11,1.0,1.1
2025-11-23T1300,2647A,104.1724,36.5446,白银市,第三小学,细颗粒物(PM2.5),83,,72,61,48,72,72,31,31,27,47,35,39,0.8,0.8
2025-11-23T1300,2648A,104.1465,36.5482,白银市,动力公司,细颗粒物(PM2.5),78,74,64,57,43,73,73,35,35,23,35,31,24,0.8,0.7
2025-11-23T1300,2512A,106.6103,23.9011,百色市,市监测站,,25,25,28,16,17,75,75,31,31,6,15,8,6,0.4,0.4
2025-11-23T1300,2513A,106.6538,23.8859,百色市,市中心血站,,32,32,43,18,27,78,78,31,31,10,31,9,7,0.5,0.5
2025-11-23T1300,3406A,106.6085,23.8798,百色市,祈福高中,,24,24,45,14,21,67,67,26,26,9,24,7,6,0.4,0.4
2025-11-23T1300,2270A,117.396,32.939,蚌埠市,工人疗养院,细颗粒物(PM2.5),92,118,103,68,60,98,98,84,84,38,35,10,9,0.5,0.4
2025-11-23T1300,2271A,117.3605,32.9427,蚌埠市,百货大楼,细颗粒物(PM2.5),92,106,91,68,63,99,99,78,78,40,39,14,12,0.6,0.6
2025-11-23T1300,2273A,117.4185,32.8911,蚌埠市,蚌埠学院,细颗粒物(PM2.5),75,83,107,55,70,102,102,65,65,30,42,11,12,0.5,0.6
2025-11-23T1300,2274A,117.3533,32.9673,蚌埠市,淮上区政府,细颗粒物(PM2.5),87,107,96,64,64,102,102,82,82,35,34,11,10,0.4,0.4
2025-11-23T1300,2275A,117.3145,32.8977,蚌埠市,高新区,细颗粒物(PM2.5),87,107,119,64,79,98,98,56,56,31,49,12,10,0.5,0.5
2025-11-23T1300,3715A,117.3092,32.9314,蚌埠市,蚌埠田家炳中学,细颗粒物(PM2.5),84,114,125,62,77,99,99,60,60,35,47,9,21,0.5,0.5
2025-11-23T1300,1585A,109.8756,40.6532,包头市,市环境监测站,颗粒物(PM10),143,235,230,79,59,69,69,20,20,32,54,32,19,1.3,1
2025-11-23T1300,1587A,109.9991,40.5842,包头市,包头八中,颗粒物(PM10),160,270,233,68,75,66,66,20,20,26,48,25,16,0.8,1.2
2025-11-23T1300,1588A,109.8538,40.6821,包头市,青山宾馆,颗粒物(PM10),135,219,203,78,72,53,53,15,15,43,58,34,15,2.0,1.5
2025-11-23T1300,1589A,109.8642,40.6288,包头市,惠龙物流,颗粒物(PM10),136,221,218,67,67,78,78,27,27,20,51,20,22,0.9,1.2
2025-11-23T1300,1590A,110.0377,40.5546,包头市,东河鸿龙湾,颗粒物(PM10),124,197,196,72,62,72,72,22,22,19,50,9,10,0.6,1.2
2025-11-23T1300,3283A,109.9154,40.5685,包头市,滨河大厦,颗粒物(PM10),124,198,190,68,57,82,82,25,25,8,38,12,10,0.4,0.8
2025-11-23T1300,3419A,109.9447,40.6261,包头市,包头市委党校,颗粒物(PM10),136,221,211,69,58,79,79,24,24,28,50,25,18,0.9,1
2025-11-23T1300,3683A,109.8331,40.6576,包头市,昆区政府,颗粒物(PM10),135,220,219,55,69,65,65,17,17,30,64,22,21,1.5,1.4
2025-11-23T1300,1930A,107.185,34.3063,宝鸡市,庙沟村,,,,,,,,,,,,,,,,
2025-11-23T1300,1931A,107.0708,34.3017,宝鸡市,竹园沟,颗粒物(PM10),54,58,33,26,18,76,76,37,37,11,16,8,7,0.2,0.2
2025-11-23T1300,1932A,107.1906,34.3672,宝鸡市,三陆医院,颗粒物(PM10),66,82,61,27,34,80,80,31,31,16,44,6,6,0.4,0.5
2025-11-23T1300,1933A,107.1431,34.3547,宝鸡市,监测站,颗粒物(PM10),58,66,50,32,30,78,78,30,30,12,34,5,5,0.6,0.7
2025-11-23T1300,1934A,107.1186,34.3739,宝鸡市,技工学校,颗粒物(PM10),59,68,49,31,29,80,80,39,39,14,21,8,7,0.3,0.5
2025-11-23T1300,1936A,107.2058,34.3497,宝鸡市,文理学院,颗粒物(PM10),59,67,52,36,29,82,82,35,35,13,36,6,6,0.4,0.5
2025-11-23T1300,1937A,107.2386,34.3622,宝鸡市,三迪小学,颗粒物(PM10),72,94,58,34,32,80,80,26,26,21,52,6,5,0.3,0.5
2025-11-23T1300,4308A,107.3898,34.3601,宝鸡市,陈仓区北开路21号,颗粒物(PM10),64,77,74,30,48,65,65,51,50,26,41,28,64,0.3,0.6
2025-11-23T1300,1051A,115.493,38.8632,保定市,游泳馆,"颗粒物(PM10),细颗粒物(PM2.5)",90,130,99,67,66,53,53,20,20,43,48,10,13,0.4,0.6
2025-11-23T1300,1052A,115.5213,38.8959,保定市,华电二区,颗粒物(PM10),83,115,83,50,67,61,61,19,19,42,56,2,7,0.5,0.6
2025-11-23T1300,1053A,115.4713,38.9108,保定市,接待中心,细颗粒物(PM2.5),79,104,92,58,64,58,58,19,19,36,46,3,6,0.4,0.5
2025-11-23T1300,1054A,115.4612,38.8416,保定市,地表水厂,颗粒物(PM10),93,136,107,52,60,52,52,18,18,43,56,6,12,0.3,0.5
2025-11-23T1300,3581A,115.31981,38.95208,保定市,满城区生态环境分局,颗粒物(PM10),100,149,107,56,53,66,66,32,24,36,44,8,9,0.2,0.4
2025-11-23T1300,3582A,115.47694,38.76408,保定市,清苑区第二中学,颗粒物(PM10),99,147,115,36,52,61,61,15,15,19,42,10,17,0.4,0.6
2025-11-23T1300,3583A,115.62909,39.02311,保定市,徐水物探局,颗粒物(PM10),100,150,130,64,72,52,52,17,17,36,51,11,12,0.6,0.7
2025-11-23T1300,4004A,115.4202,38.8656,保定市,双鹰农机,颗粒物(PM10),110,170,117,58,58,60,60,22,22,43,53,9,11,0.5,0.6
2025-11-23T1300,4034A,115.5150,38.8590,保定市,植保所站,颗粒物(PM10),90,129,105,48,66,52,52,15,15,44,58,4,8,0.4,0.5
2025-11-23T1300,2594A,99.1678,25.1081,保山市,市环境监测站,,23,9,14,3,10,71,71,38,38,4,7,9,8,0.3,0.4
2025-11-23T1300,2595A,99.1711,25.1328,保山市,市环保局,,23,,17,15,18,72,72,39,39,3,4,6,6,0.3,0.3
2025-11-23T1300,1866A,109.2262,21.588,北海市,牛尾岭水库,颗粒物(PM10),54,57,49,34,36,99,99,54,54,7,13,8,6,0.0,0.1
2025-11-23T1300,1867A,109.1436,21.4086,北海市,海滩公园,颗粒物(PM10),62,74,60,42,37,126,126,88,88,11,21,9,13,0.6,0.6
2025-11-23T1300,1868A,109.0981,21.4661,北海市,新市环保局,细颗粒物(PM2.5),67,67,59,48,42,126,126,76,76,14,20,11,11,0.6,0.6
2025-11-23T1300,1869A,109.1778,21.5233,北海市,北海工业园,细颗粒物(PM2.5),53,48,55,37,38,120,120,75,75,11,21,13,13,0.4,0.4
2025-11-23T1300,3400A,109.1911,21.4415,北海市,龙潭自来水厂,细颗粒物(PM2.5),54,49,63,38,46,121,121,63,63,10,22,5,6,0.4,0.6
2025-11-23T1300,1001A,116.3621,39.8784,北京市,万寿西宫,颗粒物(PM10),85,119,104,59,60,54,54,16,16,44,80,7,6,0.5,0.9
2025-11-23T1300,1002A,116.2202,40.2915,北京市,定陵,,,,,,,,,,,,,,,,
2025-11-23T1300,1003A,116.4174,39.9289,北京市,东四,颗粒物(PM10),86,122,103,54,56,52,52,20,20,40,68,8,6,0.7,0.9
2025-11-23T1300,1004A,116.4072,39.8863,北京市,天坛,颗粒物(PM10),83,116,89,48,52,50,50,14,14,42,63,7,3,0.5,0.8
2025-11-23T1300,1005A,116.462,39.9365,北京市,农展馆,颗粒物(PM10),90,130,96,57,52,50,50,20,20,43,65,8,5,0.7,0.9
2025-11-23T1300,1006A,116.3392,39.9295,北京市,官园,颗粒物(PM10),85,119,98,54,53,49,49,19,19,45,73,8,7,0.4,0.6
2025-11-23T1300,1007A,116.2878,39.9611,北京市,海淀万柳,颗粒物(PM10),85,120,96,57,50,43,43,16,16,46,65,8,6,0.6,0.8
2025-11-23T1300,1008A,116.6636,40.135,北京市,顺义新城,颗粒物(PM10),84,118,88,43,45,38,38,15,15,51,62,9,8,0.6,0.6
2025-11-23T1300,1009A,116.6275,40.3275,北京市,怀柔镇,颗粒物(PM10),77,103,67,43,38,42,42,19,19,39,47,7,6,0.6,0.6
2025-11-23T1300,1010A,116.2296,40.217,北京市,昌平镇,颗粒物(PM10),91,131,91,38,40,76,76,55,55,11,36,8,8,0.3,0.5
2025-11-23T1300,1011A,116.3966,39.9821,北京市,奥体中心,颗粒物(PM10),90,130,92,59,49,45,45,19,19,51,74,9,7,0.7,0.8
2025-11-23T1300,3281A,115.9718,40.4529,北京市,延庆夏都,颗粒物(PM10),86,121,77,45,36,70,70,27,27,14,32,7,6,0.5,0.6
2025-11-23T1300,3418A,116.8336,40.4095,北京市,密云新城,颗粒物(PM10),73,96,78,37,37,47,47,24,24,29,49,5,4,0.5,0.6
2025-11-23T1300,3671A,116.088,39.9726,北京市,门头沟三家店,颗粒物(PM10),100,150,92,55,39,48,48,25,25,40,48,5,2,0.5,0.5
2025-11-23T1300,3672A,116.1541,39.8204,北京市,丰台云岗,颗粒物(PM10),91,131,98,62,51,62,62,23,23,32,54,8,5,0.5,0.6
2025-11-23T1300,3673A,116.6804,39.9081,北京市,通州东关,颗粒物(PM10),94,137,119,60,59,41,41,12,12,55,77,7,8,0.5,0.6
2025-11-23T1300,3674A,115.9577,39.7603,北京市,房山燕山,颗粒物(PM10),84,118,79,58,43,58,58,31,31,33,36,8,6,0.4,0.4
2025-11-23T1300,3675A,116.4672,39.7733,北京市,大兴旧宫,颗粒物(PM10),89,128,119,55,63,53,53,15,15,37,68,8,5,0.6,0.8
2025-11-23T1300,3694A,115.986,40.4563,北京市,延庆石河营,颗粒物(PM10),83,115,73,40,35,59,59,22,22,17,31,6,4,0.5,0.6
2025-11-23T1300,3695A,116.6151,40.3053,北京市,怀柔新城,颗粒物(PM10),76,101,69,41,39,42,42,20,20,32,37,7,6,0.5,0.6
2025-11-23T1300,3696A,116.2545,39.8768,北京市,丰台小屯,颗粒物(PM10),85,120,106,58,55,48,48,13,13,37,68,8,6,0.6,0.8
2025-11-23T1300,3697A,116.84,40.3844,北京市,密云镇,颗粒物(PM10),74,98,78,43,37,48,48,15,15,27,48,4,4,0.5,0.6
2025-11-23T1300,4182A,116.1942,39.9158,北京市,八角北路9号,颗粒物(PM10),88,126,106,50,51,46,46,13,13,36,62,4,3,0.4,0.6
2025-11-23T1300,4194A,117.0790,40.1518,北京市,洳河巡河路,颗粒物(PM10),72,93,82,37,47,49,49,15,15,25,39,6,6,0.5,0.7
2025-11-23T1300,1761A,123.8275,41.3064,本溪市,大峪,细颗粒物(PM2.5),120,127,85,91,58,91,91,59,54,22,24,13,12,1.0,1
2025-11-23T1300,1762A,123.7567,41.3325,本溪市,溪湖,细颗粒物(PM2.5),115,118,100,87,67,80,80,56,56,26,31,16,18,0.7,1
2025-11-23T1300,1763A,123.7169,41.3094,本溪市,彩屯,细颗粒物(PM2.5),127,142,114,96,78,56,56,30,30,39,38,22,16,3.0,2.6
2025-11-23T1300,1764A,123.7669,41.2864,本溪市,东明,细颗粒物(PM2.5),129,,71,98,68,80,80,62,62,22,22,12,13,1.0,0.9
2025-11-23T1300,1765A,123.7992,41.2664,本溪市,新立屯,细颗粒物(PM2.5),117,,67,88,60,88,88,72,72,34,30,11,10,0.5,0.4
2025-11-23T1300,1766A,123.8142,41.3472,本溪市,威宁,细颗粒物(PM2.5),107,127,96,80,64,81,81,41,32,22,24,13,9,1.0,1.1
2025-11-23T1300,2587A,105.2864,27.3125,毕节市,八中,,33,33,57,18,42,74,74,70,69,7,7,8,8,0.4,0.5
2025-11-23T1300,2588A,105.31,27.2944,毕节市,师专,,28,28,54,18,40,77,77,73,72,8,9,7,7,0.6,0.7
2025-11-23T1300,4263A,105.3688,27.3598,毕节市,工业大道,,26,26,58,17,40,79,79,69,69,7,9,9,10,0.4,0.6
2025-11-23T1300,1629A,118.0018,37.3617,滨州市,第二水厂,细颗粒物(PM2.5),110,141,117,83,76,37,37,28,24,53,50,29,20,0.8,0.5
2025-11-23T1300,1630A,117.9776,37.393,滨州市,北中新校,细颗粒物(PM2.5),98,119,102,73,68,48,48,48,33,55,51,20,15,0.4,0.3
2025-11-23T1300,3514A,117.9378,37.3956,滨州市,中海酒店,细颗粒物(PM2.5),119,129,115,90,79,59,59,50,39,43,46,24,18,1.0,0.8
2025-11-23T1300,3515A,117.9378,37.3553,滨州市,开发区一中,细颗粒物(PM2.5),113,146,128,85,82,48,48,36,32,52,52,34,20,1.0,0.7
2025-11-23T1300,3516A,118.0917,37.694,滨州市,金海六路,细颗粒物(PM2.5),107,149,146,80,79,49,49,23,23,56,74,20,18,0.8,0.7
2025-11-23T1300,4028A,117.9956,37.3753,滨州市,滨州市西街道办事处,细颗粒物(PM2.5),119,151,115,90,78,43,43,34,26,40,34,31,17,1.0,0.7
2025-11-23T1300,2311A,115.8072,33.8399,亳州市,污水处理厂,颗粒物(PM10),69,87,83,44,48,73,73,44,44,24,30,8,7,0.5,0.6
2025-11-23T1300,2312A,115.7789,33.8518,亳州市,三国揽胜宫,颗粒物(PM10),73,96,90,44,56,74,74,48,48,22,26,6,6,0.4,0.4
2025-11-23T1300,3332A,115.7633,33.8034,亳州市,亳州学院,颗粒物(PM10),63,75,77,44,51,80,80,45,45,23,33,5,6,0.4,0.4
2025-11-23T1300,2693A,82.0485,44.8556,博尔塔拉蒙古自治州,市党校,颗粒物(PM10),54,58,59,9,10,42,42,31,22,12,13,7,3,0.5,0.4
2025-11-23T1300,2694A,82.0806,44.8969,博尔塔拉蒙古自治州,市环保局,颗粒物(PM10),62,74,76,15,17,28,28,26,20,28,23,4,7,0.4,0.5
2025-11-23T1300,1071A,116.8842,38.2991,沧州市,沧县城建局,细颗粒物(PM2.5),78,94,127,57,90,52,52,19,19,48,61,11,12,0.7,0.8
2025-11-23T1300,1072A,116.8584,38.3254,沧州市,电视转播站,细颗粒物(PM2.5),79,80,113,58,88,63,63,19,19,34,49,9,10,0.7,0.9
2025-11-23T1300,1073A,116.8709,38.3228,沧州市,市环保局,细颗粒物(PM2.5),79,101,122,58,89,65,65,23,23,25,44,9,9,0.7,0.8
2025-11-23T1300,3324A,116.8136,38.3004,沧州市,河北水利电力学院,颗粒物(PM10),95,139,135,59,74,43,43,16,16,45,61,13,14,0.6,0.8
2025-11-23T1300,2622A,97.1806,31.1273,昌都市,昌都监测站,,22,12,12,9,8,69,69,64,64,5,5,4,5,0.4,0.3
2025-11-23T1300,3719A,97.1714,31.1406,昌都市,昌都会议中心,,24,12,12,3,7,76,76,74,74,1,2,4,4,0.3,0.3
2025-11-23T1300,2690A,88.1236,43.8886,昌吉回族自治州,天山天池,,,,,,,,,,,,,,,,
2025-11-23T1300,2692A,87.2717,44.0297,昌吉回族自治州,新区政务中心,,29,29,57,9,30,42,42,25,25,30,38,12,4,2.6,1
2025-11-23T1300,3613A,87.3095,44.0142,昌吉回族自治州,亚心广场,,44,44,68,14,34,50,50,29,29,24,30,16,9,2.3,0.7
2025-11-23T1300,1120A,125.2863,43.9027,长春市,客车厂,细颗粒物(PM2.5),83,72,108,61,109,83,83,58,58,22,35,13,13,0.8,0.9
2025-11-23T1300,1121A,125.2841,43.8463,长春市,邮电学院,细颗粒物(PM2.5),75,82,125,55,96,77,77,58,58,26,32,14,15,0.7,0.9
2025-11-23T1300,1122A,125.3716,43.8772,长春市,劳动公园,颗粒物(PM10),74,97,143,49,103,80,80,52,52,27,33,15,15,0.7,0.9
2025-11-23T1300,1123A,125.3297,43.8805,长春市,园林处,,,74,108,57,98,78,78,52,52,21,29,14,14,,0.9
2025-11-23T1300,1124A,125.4605,43.79,长春市,净月潭,,,144,136,58,113,95,95,68,68,19,26,12,10,,0.9
2025-11-23T1300,1125A,125.7194,43.515,长春市,甩湾子,细颗粒物(PM2.5),132,104,87,100,91,99,99,66,66,23,20,11,9,0.7,0.7
2025-11-23T1300,1126A,125.3863,43.8447,长春市,经开区环卫处,细颗粒物(PM2.5),77,92,143,56,118,74,74,40,40,24,42,14,11,0.6,0.9
2025-11-23T1300,1127A,125.245,43.7783,长春市,高新区管委会,细颗粒物(PM2.5),80,72,108,59,103,83,83,60,60,21,30,12,10,0.7,0.8
2025-11-23T1300,1128A,125.1761,43.8325,长春市,岱山公园,细颗粒物(PM2.5),67,75,116,48,111,75,75,46,46,21,43,13,13,0.8,0.9
2025-11-23T1300,4281A,125.3346,43.9164,长春市,北亚泰大街1068号,细颗粒物(PM2.5),79,75,112,58,104,73,73,48,48,25,36,12,13,0.9,1
2025-11-23T1300,1335A,113.0833,28.2325,长沙市,经开区环保局,细颗粒物(PM2.5),70,82,70,51,52,83,83,23,23,42,42,8,10,0.6,0.6
2025-11-23T1300,1336A,112.8872,28.2189,长沙市,高开区环保局,颗粒物(PM10),64,77,91,45,74,110,110,28,28,17,58,7,7,0.5,0.8
2025-11-23T1300,1337A,113.0792,28.2053,长沙市,马坡岭,细颗粒物(PM2.5),67,75,82,48,55,101,101,31,31,36,43,8,7,0.6,0.7
2025-11-23T1300,1338A,112.9394,28.19,长沙市,湖南师范大学,细颗粒物(PM2.5),73,86,70,53,46,86,86,37,37,56,51,8,6,0.9,0.8
2025-11-23T1300,1339A,113.0178,28.1322,长沙市,雨花区环保局,颗粒物(PM10),58,65,74,28,48,108,108,31,31,16,55,10,10,0.4,0.6
2025-11-23T1300,1340A,112.9792,28.2597,长沙市,伍家岭,颗粒物(PM10),64,78,94,44,58,97,97,26,26,31,56,8,6,0.4,0.6
2025-11-23T1300,1341A,113.0014,28.1944,长沙市,火车新站,细颗粒物(PM2.5),70,84,86,51,60,88,88,25,25,45,64,8,7,0.6,0.7
2025-11-23T1300,1342A,112.9844,28.1178,长沙市,天心区环保局,细颗粒物(PM2.5),64,71,74,46,47,100,100,29,29,34,57,8,7,0.4,0.5
2025-11-23T1300,1343A,112.8908,28.1308,长沙市,湖南中医药大学,细颗粒物(PM2.5),77,79,82,56,54,97,97,30,30,29,56,8,7,1.0,1.1
2025-11-23T1300,1344A,112.9581,28.3611,长沙市,沙坪,,,,,,,,,,,,,,,,
2025-11-23T1300,1727A,113.1147,36.1547,长治市,清华站,颗粒物(PM10),63,75,52,41,31,70,70,48,48,26,30,13,11,0.8,0.8
2025-11-23T1300,1730A,113.0886,36.2125,长治市,审计局,细颗粒物(PM2.5),67,79,54,48,35,69,69,46,46,28,32,16,15,0.6,0.6
2025-11-23T1300,1731A,113.0844,36.1856,长治市,长治八中,细颗粒物(PM2.5),74,94,65,54,37,68,68,43,43,21,28,16,14,0.6,0.6
2025-11-23T1300,2845A,113.1569,36.1911,长治市,德盛苑,颗粒物(PM10),63,76,49,44,32,71,71,63,61,29,26,16,15,0.6,0.5
2025-11-23T1300,3568A,113.06,36.0464,长治市,向阳小学,颗粒物(PM10),62,74,79,34,32,79,79,54,54,28,32,22,21,0.7,0.7
2025-11-23T1300,3569A,112.8792,36.3144,长治市,屯留一中,颗粒物(PM10),57,64,68,26,45,93,93,52,52,17,34,13,17,0.4,1.2
2025-11-23T1300,4189A,113.1131,36.19948,长治市,英华南巷50号,细颗粒物(PM2.5),70,81,58,51,36,74,74,49,49,23,29,14,13,0.7,0.6
2025-11-23T1300,4190A,113.2367,36.3344,长治市,学府街1号,细颗粒物(PM2.5),79,91,62,58,42,70,70,47,47,26,27,14,16,1.0,1
2025-11-23T1300,1854A,111.6975,28.9703,常德市,市二中,颗粒物(PM10),55,59,64,30,48,63,63,25,25,14,25,9,7,0.7,0.6
2025-11-23T1300,1857A,111.7158,29.1456,常德市,白鹤山,,,,,,,,,,,,,,,,
2025-11-23T1300,3138A,111.7153,29.0289,常德市,武陵区永安,颗粒物(PM10),57,63,70,34,51,64,64,39,39,8,19,7,9,0.4,0.5
2025-11-23T1300,3139A,111.6892,28.9881,常德市,鼎城区玉霞,,45,44,64,31,50,65,65,25,25,9,21,6,7,0.5,0.7
2025-11-23T1300,3140A,111.6625,29.0531,常德市,武陵区长庚,颗粒物(PM10),55,60,77,38,54,56,56,31,31,13,27,4,6,0.3,0.4
2025-11-23T1300,1196A,119.9633,31.762,常州市,市监测站,细颗粒物(PM2.5),87,81,138,64,103,125,125,65,65,34,61,11,11,0.6,0.9
2025-11-23T1300,1200A,119.9468,31.7069,常州市,武进监测站,细颗粒物(PM2.5),72,70,128,52,94,132,132,81,81,28,40,13,16,0.5,0.7
2025-11-23T1300,1201A,119.9255,31.9087,常州市,安家,细颗粒物(PM2.5),87,97,129,64,89,113,113,45,45,37,67,19,17,0.6,0.8
2025-11-23T1300,3002A,119.9805,31.8174,常州市,行政中心,细颗粒物(PM2.5),93,98,128,69,95,113,113,75,75,39,46,18,15,0.9,0.9
2025-11-23T1300,3003A,120.0522,31.7748,常州市,经开区,细颗粒物(PM2.5),74,76,148,54,98,124,124,70,70,22,53,16,17,0.8,1.2
2025-11-23T1300,3010A,119.9025,31.7964,常州市,钟楼,细颗粒物(PM2.5),114,120,123,86,93,116,116,65,65,44,47,18,19,0.8,0.8
2025-11-23T1300,3429A,119.8598,31.7066,常州市,武进经发区,细颗粒物(PM2.5),145,146,137,111,108,112,112,65,65,51,52,23,18,0.7,0.4
2025-11-23T1300,3430A,119.5826,31.7245,常州市,金坛城区,细颗粒物(PM2.5),118,112,139,89,110,88,88,40,40,36,35,13,12,1.2,1.1
2025-11-23T1300,2220A,120.4318,41.5881,朝阳市,西梁,颗粒物(PM10),69,88,74,33,43,60,60,24,24,28,36,16,12,1.2,1.1
2025-11-23T1300,2221A,120.4521,41.5646,朝阳市,河畔小区,颗粒物(PM10),69,88,54,40,34,61,61,31,31,27,33,14,11,0.9,0.9
2025-11-23T1300,2222A,120.4176,41.5648,朝阳市,八里堡,颗粒物(PM10),60,70,62,30,35,61,61,23,23,29,44,18,13,0.9,0.8
2025-11-23T1300,2223A,120.3806,41.5969,朝阳市,农业园区,颗粒物(PM10),59,67,64,31,43,68,68,27,27,21,30,13,12,0.8,1
2025-11-23T1300,1705A,116.6367,23.6719,潮州市,西园路,,,,,,,,,,,,,,,,
2025-11-23T1300,3026A,116.6183,23.6608,潮州市,市政府,颗粒物(PM10),82,114,65,29,34,133,133,62,62,17,21,13,9,0.6,0.5
2025-11-23T1300,4036A,116.6461,23.6761,潮州市,金山,颗粒物(PM10),63,76,44,26,34,132,132,60,60,14,15,5,3,0.6,0.5
2025-11-23T1300,2472A,113.0073,25.9061,郴州市,马头岭,,,,,,,,,,,,,,,,
2025-11-23T1300,2473A,113.0116,25.8226,郴州市,市职中,,43,39,57,30,43,102,102,41,41,14,30,8,6,0.5,0.6
2025-11-23T1300,2475A,113.0383,25.8071,郴州市,市审计局,,49,49,54,34,39,106,106,35,35,15,33,9,7,0.4,0.5
2025-11-23T1300,2476A,113.0348,25.7759,郴州市,市环保局,颗粒物(PM10),58,65,64,35,40,104,104,35,35,18,38,18,11,0.5,0.5
2025-11-23T1300,4252A,113.0138,25.8011,郴州市,好美居路49号,,48,33,54,33,40,111,111,44,44,15,37,10,8,0.4,0.5
2025-11-23T1300,1431A,103.9728,30.7236,成都市,金泉两河,颗粒物(PM10),53,55,109,22,87,82,82,26,26,28,46,4,4,0.6,0.8
2025-11-23T1300,1432A,104.176,30.6872,成都市,十里店,细颗粒物(PM2.5),58,60,138,41,108,89,89,29,29,21,51,4,4,0.6,0.9
2025-11-23T1300,1433A,104.079,30.5706,成都市,三瓦窑,颗粒物(PM10),57,64,129,30,88,89,89,26,26,28,56,6,5,0.4,0.7
2025-11-23T1300,1434A,104.1114,30.63,成都市,沙河铺,细颗粒物(PM2.5),75,74,126,55,110,71,71,17,17,37,58,4,3,0.8,1
2025-11-23T1300,1437A,104.0786,30.6531,成都市,君平街,细颗粒物(PM2.5),59,66,119,42,98,74,74,28,28,26,50,5,5,0.6,0.8
2025-11-23T1300,1438A,103.613,31.0283,成都市,灵岩寺,,,,,,,,,,,,,,,,
2025-11-23T1300,2880A,104.0239,30.65639,成都市,大石西路,细颗粒物(PM2.5),54,48,96,38,88,72,72,33,33,42,54,4,3,0.7,0.9
2025-11-23T1300,3136A,104.2725,30.5589,成都市,龙泉驿区区政府,细颗粒物(PM2.5),62,48,98,44,76,96,96,42,42,26,26,7,6,0.5,0.7
2025-11-23T1300,3357A,104.0106,30.6931,成都市,金博路,颗粒物(PM10),51,51,110,30,81,78,78,29,29,33,52,6,6,0.6,0.8
2025-11-23T1300,3359A,104.0578,30.5225,成都市,华阳,细颗粒物(PM2.5),67,73,124,48,86,76,76,28,28,34,47,6,6,0.6,0.7
2025-11-23T1300,3488A,104.3880,30.7467,成都市,青石路225号,细颗粒物(PM2.5),57,62,108,40,86,93,93,30,30,17,40,8,6,0.6,0.8
2025-11-23T1300,3489A,104.0789,30.4072,成都市,科学城,细颗粒物(PM2.5),85,73,117,63,92,86,86,30,30,16,32,7,6,0.4,0.6
2025-11-23T1300,4011A,103.8506,30.6947,成都市,光华大道三段,细颗粒物(PM2.5),67,68,114,48,89,94,94,37,37,21,41,3,3,0.5,0.8
2025-11-23T1300,4224A,104.2433,30.5353,成都市,鲸龙路1057号,细颗粒物(PM2.5),75,62,103,55,86,98,98,42,42,15,27,7,6,0.7,0.8
2025-11-23T1300,1062A,117.9531,40.9081,承德市,铁路,颗粒物(PM10),58,66,65,26,35,31,31,13,13,33,38,18,11,0.9,1.1
2025-11-23T1300,1063A,117.9392,40.9763,承德市,中国银行,颗粒物(PM10),65,79,67,28,32,35,35,15,15,27,38,10,8,0.8,1
2025-11-23T1300,1064A,117.9503,40.928,承德市,开发区,,,63,69,32,36,34,34,16,16,32,40,14,12,,0.9
2025-11-23T1300,1066A,117.9268,41.0026,承德市,离宫,,,,,,,,,,,,,,,,
2025-11-23T1300,4274A,117.7994,40.9605,承德市,滨河大街98号,颗粒物(PM10),78,106,67,47,39,28,28,11,11,45,38,46,24,2.4,1.2
2025-11-23T1300,2314A,117.47,30.6618,池州市,池州学院,细颗粒物(PM2.5),69,70,62,50,47,94,94,46,46,23,37,10,8,0.6,1
2025-11-23T1300,3237A,117.4918,30.6617,池州市,展览馆,颗粒物(PM10),59,68,53,40,39,98,98,40,40,25,39,10,7,0.5,0.8
2025-11-23T1300,3333A,117.5627,30.695,池州市,第八中学,细颗粒物(PM2.5),59,63,62,42,40,94,94,48,48,31,38,10,10,0.7,0.9
2025-11-23T1300,3334A,117.5038,30.6243,池州市,第十二中学,颗粒物(PM10),61,71,64,43,39,95,95,36,36,30,49,10,9,0.9,1.2
2025-11-23T1300,1744A,118.9233,42.2816,赤峰市,松山一中,颗粒物(PM10),72,94,57,32,27,82,82,47,47,10,36,6,10,0.4,0.8
2025-11-23T1300,1745A,118.9576,42.2728,赤峰市,哈达街,颗粒物(PM10),76,102,63,26,22,74,74,47,47,17,26,8,11,0.4,0.6
2025-11-23T1300,1746A,118.8788,42.2554,赤峰市,天义路,颗粒物(PM10),73,96,50,37,25,72,72,52,52,11,23,5,6,0.6,0.7
2025-11-23T1300,3058A,119.2658,42.0353,赤峰市,银河街,颗粒物(PM10),83,116,70,59,43,74,74,29,29,18,29,7,7,0.8,0.9
2025-11-23T1300,3286A,118.9359,42.3147,赤峰市,桥北物流园区,颗粒物(PM10),73,95,60,40,31,76,76,35,35,11,38,9,10,0.3,0.5
2025-11-23T1300,2521A,107.3476,22.4136,崇左市,市环保局江州分局,,,,57,28,29,119,119,,,,20,13,7,1.6,0.7
2025-11-23T1300,4256A,107.3750,22.3736,崇左市,石景林东路7号,颗粒物(PM10),54,57,40,37,27,139,139,53,53,14,17,12,8,0.8,0.6
2025-11-23T1300,2298A,118.3093,32.3153,滁州市,老年大学,细颗粒物(PM2.5),83,78,93,61,73,115,115,44,44,18,36,10,10,0.5,0.6
2025-11-23T1300,2299A,118.3244,32.2786,滁州市,人大宾馆,细颗粒物(PM2.5),109,101,109,82,84,96,96,50,50,35,53,11,8,0.6,0.7
2025-11-23T1300,3207A,118.3118,32.3038,滁州市,市政府原办公楼,细颗粒物(PM2.5),82,81,101,60,75,115,115,54,54,23,45,9,7,0.6,0.8
2025-11-23T1300,3331A,118.3267,32.2634,滁州市,图书馆,细颗粒物(PM2.5),83,105,102,61,70,104,104,56,56,31,47,12,11,0.6,0.7
2025-11-23T1300,2605A,101.5482,25.0441,楚雄彝族自治州,州环境监测站,,,,16,8,12,32,32,34,34,2,7,5,5,0.6,0.7
2025-11-23T1300,2606A,101.538,25.0492,楚雄彝族自治州,市经济开发区,,19,9,17,6,14,58,58,49,49,3,9,6,6,0.5,0.6
2025-11-23T1300,2548A,107.5277,31.2827,达州市,达州职业技术学院,,,,,,,,,,,,,,,,
2025-11-23T1300,2549A,107.5086,31.2186,达州市,市环境监测站,细颗粒物(PM2.5),64,72,90,46,68,37,37,13,13,27,37,7,9,0.7,0.9
2025-11-23T1300,2550A,107.4988,31.2132,达州市,凤凰小区,细颗粒物(PM2.5),73,68,92,53,72,40,40,16,16,24,39,6,8,0.5,0.8
2025-11-23T1300,2551A,107.5082,31.1986,达州市,达县机关宾馆,细颗粒物(PM2.5),74,73,90,54,72,37,37,15,15,30,37,5,6,0.6,0.8
2025-11-23T1300,2552A,107.4644,31.2124,达州市,市政中心,,,78,106,,74,45,45,15,15,19,37,7,10,0.5,0.8
2025-11-23T1300,2614A,100.1542,25.7054,大理白族自治州,大理市环境监测站,,28,,11,19,20,51,51,39,39,8,9,6,6,0.6,0.6
2025-11-23T1300,2615A,100.2171,25.5811,大理白族自治州,大理古城,,22,22,15,3,11,62,62,50,50,7,10,7,7,0.5,0.5
2025-11-23T1300,1109A,121.612,38.9741,大连市,甘井子,细颗粒物(PM2.5),108,101,126,81,90,91,91,44,44,36,50,19,20,0.3,0.5
2025-11-23T1300,1110A,121.565,38.9511,大连市,周水子,细颗粒物(PM2.5),105,99,110,79,85,93,93,45,45,30,41,16,15,0.6,0.7
2025-11-23T1300,1111A,121.5637,38.8845,大连市,星海三站,细颗粒物(PM2.5),110,104,108,83,89,91,91,49,49,28,33,14,13,0.7,0.7
2025-11-23T1300,1112A,121.6302,38.9117,大连市,青泥洼桥,细颗粒物(PM2.5),117,107,110,88,97,92,92,56,56,30,34,17,15,0.8,0.9
2025-11-23T1300,1113A,121.6251,38.8638,大连市,傅家庄,细颗粒物(PM2.5),128,122,119,97,90,88,88,57,57,30,31,15,14,1.0,1.1
2025-11-23T1300,1114A,121.5213,38.8661,大连市,七贤岭,细颗粒物(PM2.5),113,121,120,85,86,88,88,41,41,35,42,14,11,0.8,0.9
2025-11-23T1300,1115A,121.2529,38.8061,大连市,旅顺,细颗粒物(PM2.5),127,124,118,96,89,77,77,46,46,32,32,12,12,0.7,0.7
2025-11-23T1300,1116A,121.7485,39.1311,大连市,金州,细颗粒物(PM2.5),144,144,130,110,93,71,71,42,38,57,60,16,14,0.8,0.7
2025-11-23T1300,1117A,121.7811,39.0496,大连市,开发区,细颗粒物(PM2.5),119,118,117,90,84,79,79,39,39,36,42,17,16,0.6,0.8
2025-11-23T1300,1118A,121.9762,39.0631,大连市,双D港,细颗粒物(PM2.5),125,126,109,95,83,83,83,47,47,44,30,18,15,0.9,0.9
2025-11-23T1300,1789A,124.81117,46.03138,大庆市,大同区,细颗粒物(PM2.5),123,122,98,93,44,74,74,32,32,18,19,9,10,0.7,0.6
2025-11-23T1300,1790A,125.129,46.533,大庆市,龙凤区,细颗粒物(PM2.5),58,48,156,41,111,44,44,32,23,29,50,11,11,0.7,1.4
2025-11-23T1300,1791A,124.902,46.408,大庆市,红岗区,,39,39,88,24,56,66,66,31,31,9,23,6,6,0.5,0.8
2025-11-23T1300,1792A,125.153,46.586,大庆市,萨尔图区,颗粒物(PM10),58,65,148,28,77,39,39,14,14,28,42,11,12,0.5,0.9
2025-11-23T1300,1793A,124.9042,46.6215,大庆市,让胡路区,,48,46,72,33,44,64,64,38,38,9,18,8,9,0.5,0.5
2025-11-23T1300,3481A,125.141,46.634,大庆市,萨区政府监测点,,37,37,97,17,46,60,60,26,26,8,23,9,11,0.4,0.7
2025-11-23T1300,1721A,113.3819,40.1097,大同市,果树场,颗粒物(PM10),128,206,130,50,45,78,78,32,32,16,48,9,16,0.5,0.9
2025-11-23T1300,1723A,113.2994,40.0758,大同市,云冈宾馆,颗粒物(PM10),142,234,155,43,38,73,73,33,32,11,36,6,14,0.5,0.8
2025-11-23T1300,1724A,113.3444,40.0917,大同市,大同大学,颗粒物(PM10),152,254,137,53,41,78,78,38,33,15,40,3,9,0.5,0.7
2025-11-23T1300,1725A,113.2661,40.1269,大同市,安家小村,颗粒物(PM10),163,275,140,47,37,78,78,56,54,8,21,8,11,0.3,0.5
2025-11-23T1300,1726A,113.2711,40.0844,大同市,教育学院,颗粒物(PM10),161,271,151,52,41,79,79,39,39,11,34,5,10,0.2,0.4
2025-11-23T1300,3282A,113.3397,40.0597,大同市,大同市卫生学校,颗粒物(PM10),153,256,142,55,42,75,75,38,36,19,42,6,17,0.3,0.5
2025-11-23T1300,3565A,113.1367,40.1122,大同市,云冈站,颗粒物(PM10),159,267,133,68,38,80,80,51,48,7,22,5,8,0.3,0.4
2025-11-23T1300,3566A,113.1186,40.2556,大同市,图书馆,颗粒物(PM10),137,224,135,65,43,83,83,57,48,6,17,4,8,0.3,0.5
2025-11-23T1300,3567A,113.5931,40.0461,大同市,区一中,颗粒物(PM10),168,286,151,43,51,80,80,44,44,17,39,22,27,0.5,0.8
2025-11-23T1300,4199A,113.2798,40.0997,大同市,魏都大道141号,颗粒物(PM10),169,287,159,48,43,78,78,38,37,13,37,4,8,0.5,0.7
2025-11-23T1300,2269A,124.1069,50.4097,大兴安岭地区,科技局,,23,23,29,16,19,56,56,50,48,3,7,4,6,0.3,0.3
2025-11-23T1300,3663A,124.1164,50.4278,大兴安岭地区,红旗社区,,20,,16,6,13,63,63,41,41,3,20,4,11,0.3,0.3
2025-11-23T1300,1600A,124.3303,40.0625,丹东市,江湾东路,细颗粒物(PM2.5),89,116,94,66,58,85,85,66,66,18,24,10,9,1.0,1.4
2025-11-23T1300,1601A,124.4256,40.1503,丹东市,临江后街,细颗粒物(PM2.5),103,134,101,77,52,72,72,23,23,30,40,14,12,1.2,1.5
2025-11-23T1300,1602A,124.3933,40.1461,丹东市,元宝山,细颗粒物(PM2.5),99,117,87,74,57,81,81,48,47,28,29,21,16,1.7,1.5
2025-11-23T1300,1603A,124.3633,40.1092,丹东市,民主桥,细颗粒物(PM2.5),99,112,96,74,62,84,84,32,32,24,40,13,9,0.9,1.1
2025-11-23T1300,3541A,109.5726,19.5167,儋州市,第一中学子站,,44,44,49,25,26,105,105,92,88,8,8,7,7,0.5,0.5
2025-11-23T1300,3542A,109.5567,19.5187,儋州市,东坡学校子站,,,,43,,25,,,106,,,12,,2,,0.4
2025-11-23T1300,2616A,98.5842,24.428,德宏傣族景颇族自治州,德宏州监测站,,33,33,27,17,20,59,59,23,23,12,15,8,8,0.6,0.7
2025-11-23T1300,3677A,98.5881,24.4368,德宏傣族景颇族自治州,芒市人民政府综合楼,,36,36,26,25,14,54,54,18,18,11,14,7,7,0.7,0.7
2025-11-23T1300,1901A,104.4239,31.1208,德阳市,东山公园,细颗粒物(PM2.5),72,52,57,52,78,77,77,28,28,26,32,5,4,0.8,0.9
2025-11-23T1300,1902A,104.3826,31.1317,德阳市,西小区,颗粒物(PM10),74,98,131,49,85,65,65,17,17,27,44,5,6,0.4,0.7
2025-11-23T1300,1904A,104.3553,31.1091,德阳市,耐火材料厂,细颗粒物(PM2.5),78,81,127,57,102,79,79,20,20,24,51,12,10,0.7,1
2025-11-23T1300,3639A,104.4019,31.1244,德阳市,市教育局,细颗粒物(PM2.5),77,90,97,56,77,72,72,20,20,25,47,5,3,0.6,0.8
2025-11-23T1300,1622A,116.3032,37.4674,德州市,儿童乐园,颗粒物(PM10),89,127,154,61,89,58,58,24,24,46,59,24,19,1.0,1.1
2025-11-23T1300,1624A,116.2991,37.4451,德州市,监理站,细颗粒物(PM2.5),98,132,145,73,91,57,57,30,30,57,63,42,20,0.9,0.9
2025-11-23T1300,3066A,116.2721,37.4379,德州市,九衢泉纯净水厂,颗粒物(PM10),92,134,153,63,89,49,49,21,21,68,81,41,20,1.2,1.2
2025-11-23T1300,3371A,116.3728,37.4403,德州市,开发区人民医院,颗粒物(PM10),100,149,154,70,88,56,56,25,25,57,63,39,23,1.1,1.1
2025-11-23T1300,3511A,116.5652,37.3319,德州市,陵城艺术中心,细颗粒物(PM2.5),100,129,152,75,95,52,52,18,18,62,70,28,25,1.1,1
2025-11-23T1300,4292A,116.3525,37.4209,德州市,新河东路,颗粒物(PM10),87,124,159,61,98,52,52,18,18,64,86,30,19,1.1,1.1
2025-11-23T1300,2621A,99.7056,27.8317,迪庆藏族自治州,迪庆州站,,30,30,16,14,12,62,62,63,60,8,6,7,6,0.7,0.6
2025-11-23T1300,3180A,99.7136,27.8094,迪庆藏族自治州,质量技术监督局,,20,20,17,6,11,62,62,67,61,12,7,9,7,0.7,0.6
2025-11-23T1300,4257A,104.6092,35.5962,定西市,将台街,,,,65,,40,82,82,27,27,7,30,12,13,0.3,0.7
2025-11-23T1300,4309A,104.6159,35.5701,定西市,正龙路62号,,46,46,74,22,40,82,82,36,36,14,18,7,7,0.5,0.7
2025-11-23T1300,1389A,113.7547,23.0494,东莞市,莞城梨川,,49,46,56,34,34,143,143,68,68,20,40,7,7,0.6,0.6
2025-11-23T1300,1390A,113.7944,23.0128,东莞市,东城石井,"颗粒物(PM10),细颗粒物(PM2.5)",52,53,49,36,32,152,152,61,61,26,37,14,9,0.7,0.7
2025-11-23T1300,1391A,113.7383,22.9658,东莞市,南城西平,,47,45,66,30,40,148,148,56,56,21,68,12,10,0.7,0.8
2025-11-23T1300,3319A,113.7338,23.0381,东莞市,万江金泰,,45,45,57,29,33,127,127,66,66,18,36,7,7,0.7,0.8
2025-11-23T1300,3626A,113.7533,23.0202,东莞市,南城元岭,,50,50,53,30,32,160,160,,,18,34,10,9,0.5,0.6
2025-11-23T1300,3627A,113.7875,23.0457,东莞市,东城主山,臭氧1小时,67,27,18,12,10,173,173,71,71,23,42,9,8,0.5,0.5
2025-11-23T1300,1666A,118.6614,37.4309,东营市,市环保局,细颗粒物(PM2.5),107,136,122,80,73,46,46,14,14,55,66,23,21,1.0,0.9
2025-11-23T1300,3036A,118.6904,37.4338,东营市,开发区管委会,细颗粒物(PM2.5),119,143,128,90,75,50,50,19,19,58,70,30,29,0.7,0.6
2025-11-23T1300,3365A,118.5719,37.565,东营市,垦利区民丰路,细颗粒物(PM2.5),107,141,129,80,73,54,54,26,26,55,74,11,11,1.0,1
2025-11-23T1300,3498A,118.5055,37.8612,东营市,河口城区,细颗粒物(PM2.5),117,144,142,88,82,70,70,29,29,52,64,26,21,1.0,0.9
2025-11-23T1300,3646A,118.4978,37.4623,东营市,胜利站,细颗粒物(PM2.5),100,136,122,75,80,36,36,16,16,68,80,25,52,1.1,1.1
2025-11-23T1300,3734A,118.35,37.26,东营市,理想之城,细颗粒物(PM2.5),113,158,129,85,75,35,35,10,10,64,79,20,15,1.0,0.9
2025-11-23T1300,1591A,110.0023,39.8129,鄂尔多斯市,综合楼,颗粒物(PM10),68,85,144,22,36,88,88,68,66,6,15,7,10,0.3,0.3
2025-11-23T1300,1592A,109.9486,39.8261,鄂尔多斯市,巴音孟克林场办事处,颗粒物(PM10),86,122,190,24,40,93,93,83,83,6,9,6,7,0.3,0.3
2025-11-23T1300,1593A,109.7736,39.5986,鄂尔多斯市,康泽苑,颗粒物(PM10),85,119,134,31,35,98,98,75,75,6,14,6,8,0.3,0.4
2025-11-23T1300,1594A,109.8119,39.5989,鄂尔多斯市,华泰汽车城,颗粒物(PM10),86,122,135,29,36,97,97,73,73,5,13,7,9,0.2,0.2
2025-11-23T1300,1595A,109.9734,39.7884,鄂尔多斯市,奥林花园,颗粒物(PM10),87,124,172,27,35,81,81,66,61,20,20,20,12,0.2,0.3
2025-11-23T1300,2436A,114.8938,30.3994,鄂州市,市政府,细颗粒物(PM2.5),132,121,100,100,79,42,42,20,20,63,62,18,14,1.3,0.9
2025-11-23T1300,2437A,114.8989,30.3714,鄂州市,赵家坝,细颗粒物(PM2.5),133,126,97,101,75,57,57,26,26,45,39,16,12,1.7,0.9
2025-11-23T1300,3654A,114.8094,30.4089,鄂州市,精准医疗中心,细颗粒物(PM2.5),125,114,112,95,84,63,63,26,26,45,63,16,13,1.7,1.2
2025-11-23T1300,2454A,109.4978,30.2981,恩施土家族苗族自治州,湖北民院,细颗粒物(PM2.5),83,66,70,61,67,29,29,13,13,18,21,9,7,0.7,0.7
2025-11-23T1300,2455A,109.4707,30.2798,恩施土家族苗族自治州,州电力总公司,细颗粒物(PM2.5),80,71,79,59,68,18,18,6,6,20,25,6,6,0.6,0.7
2025-11-23T1300,3549A,109.5061,30.3772,恩施土家族苗族自治州,龙凤新区,细颗粒物(PM2.5),94,87,86,70,62,16,16,5,5,32,27,6,7,0.6,0.5
2025-11-23T1300,2499A,108.3411,21.6158,防城港市,沙万,,50,50,51,32,29,122,122,86,86,10,14,9,8,0.3,0.3
2025-11-23T1300,2500A,108.3514,21.7731,防城港市,防城档案局,"颗粒物(PM10),细颗粒物(PM2.5)",52,53,71,36,36,108,108,78,78,10,19,10,9,0.5,0.5
2025-11-23T1300,2501A,108.3506,21.6414,防城港市,大海花园,颗粒物(PM10),57,64,49,34,29,128,128,98,98,12,14,9,9,0.6,0.5
2025-11-23T1300,1371A,113.1294,23.0067,佛山市,湾梁,颗粒物(PM10),53,56,54,35,38,107,107,45,45,38,55,10,10,0.5,0.6
2025-11-23T1300,1372A,113.1083,23.0478,佛山市,华材职中,"颗粒物(PM10),细颗粒物(PM2.5)",57,63,68,40,39,118,118,48,48,29,57,10,8,0.8,0.9
2025-11-23T1300,1373A,113.144,23.0453,佛山市,南海气象局,细颗粒物(PM2.5),55,58,54,39,34,104,104,45,45,39,49,10,10,0.6,0.6
2025-11-23T1300,1374A,113.2881,22.8094,佛山市,顺德苏岗,,35,32,50,22,30,110,110,46,46,26,61,10,9,0.4,0.5
2025-11-23T1300,1376A,112.8383,22.8678,佛山市,高明孔堂,细颗粒物(PM2.5),55,54,62,39,37,108,108,49,49,24,35,13,11,0.4,0.5
2025-11-23T1300,1377A,112.8836,23.1588,佛山市,三水监测站,颗粒物(PM10),54,58,69,32,43,95,95,51,51,23,49,10,14,0.5,0.7
2025-11-23T1300,1378A,112.867,23.185,佛山市,三水云东海,,42,39,61,29,39,108,108,47,47,21,46,9,10,0.6,0.6
2025-11-23T1300,3625A,113.2544,22.7642,佛山市,容桂街道办,,44,44,65,27,36,95,95,36,36,31,70,8,8,0.5,0.7
2025-11-23T1300,1280A,119.3903,26.0543,福州市,鼓山,,,,31,,17,,,115,,,11,,2,,0.6
2025-11-23T1300,1282A,119.2681,26.0504,福州市,师大,,43,43,45,18,27,118,118,80,80,12,16,7,7,0.5,0.6
2025-11-23T1300,1283A,119.2984,26.1028,福州市,五四北路,,37,33,39,21,27,118,118,87,87,14,19,5,5,0.5,0.5
2025-11-23T1300,1284A,119.2648,26.0768,福州市,杨桥西路,,38,35,42,17,27,121,121,82,82,10,16,4,5,0.3,0.5
2025-11-23T1300,1285A,119.317,26.0746,福州市,紫阳,颗粒物(PM10),60,70,47,24,25,100,100,79,77,26,19,7,8,0.4,0.5
2025-11-23T1300,3048A,119.5799,26.0936,福州市,九龙,,39,33,34,21,21,122,122,103,102,12,12,6,5,0.6,0.4
2025-11-23T1300,3526A,119.5189,25.9664,福州市,吴航,,36,28,40,14,23,114,114,73,69,13,21,7,8,0.5,0.5
2025-11-23T1300,1755A,123.7977,41.8491,抚顺市,望花区,细颗粒物(PM2.5),122,134,114,92,78,70,70,34,32,33,39,18,16,1.1,1.1
2025-11-23T1300,1756A,123.9161,41.8822,抚顺市,顺城区,细颗粒物(PM2.5),117,122,140,88,90,72,72,25,25,33,47,16,12,1.2,1.4
2025-11-23T1300,1757A,124.0436,41.8611,抚顺市,东洲区,细颗粒物(PM2.5),90,103,88,67,64,78,78,37,37,24,29,11,11,0.9,1
2025-11-23T1300,1758A,123.9247,41.8642,抚顺市,新抚区,细颗粒物(PM2.5),112,145,113,84,75,74,74,25,25,29,43,15,10,1.2,1.3
2025-11-23T1300,1759A,124.0972,41.8961,抚顺市,大伙房水库,细颗粒物(PM2.5),95,106,75,71,57,85,85,62,62,22,18,16,14,1.2,1
2025-11-23T1300,1760A,123.7086,41.8391,抚顺市,沈抚新城,细颗粒物(PM2.5),133,130,114,101,82,79,79,54,54,25,31,17,15,1.1,1.1
2025-11-23T1300,2376A,116.2127,28.0814,抚州市,桐源党溪,,,,,,,,,,,,,,,,
2025-11-23T1300,2377A,116.3544,27.9831,抚州市,市站,颗粒物(PM10),55,60,63,35,41,114,114,63,63,22,25,12,10,0.7,0.7
2025-11-23T1300,2378A,116.3565,27.963,抚州市,血防站,颗粒物(PM10),55,60,65,36,41,109,109,58,58,26,30,9,10,0.9,0.9
2025-11-23T1300,2379A,116.3564,28.0007,抚州市,采茶剧团,颗粒物(PM10),58,65,69,36,46,119,119,49,49,14,23,8,7,0.8,0.8
2025-11-23T1300,2380A,116.385,27.9647,抚州市,医学分院,颗粒物(PM10),52,54,68,33,40,129,129,68,68,14,27,10,10,0.8,0.8
2025-11-23T1300,2207A,121.6094,41.998,阜新市,工业园区,细颗粒物(PM2.5),90,109,149,67,98,64,64,27,27,38,51,38,26,1.1,1.2
2025-11-23T1300,2208A,121.6697,42.0279,阜新市,长青街,,,,122,45,88,54,54,23,23,,57,29,21,1.0,1.4
2025-11-23T1300,2209A,121.6673,42.0705,阜新市,农业园区,颗粒物(PM10),67,83,112,44,77,60,60,37,37,28,54,19,42,0.7,1.1
2025-11-23T1300,2210A,121.6717,42.0224,阜新市,东苑,颗粒物(PM10),78,105,121,53,82,57,57,19,19,40,62,45,36,1.2,1.5
2025-11-23T1300,2211A,121.6506,42.0498,阜新市,玉龙新城,颗粒物(PM10),82,114,145,41,87,60,60,23,23,37,54,27,22,1.0,1.4
2025-11-23T1300,2301A,115.8277,32.8929,阜阳市,市监测站,细颗粒物(PM2.5),73,61,67,53,46,98,98,82,80,16,22,8,6,0.4,0.4
2025-11-23T1300,2303A,115.8554,32.8605,阜阳市,开发区,颗粒物(PM10),63,75,93,42,46,103,103,76,76,15,30,7,6,0.3,0.4
2025-11-23T1300,2875A,115.784,32.8892,阜阳市,阜阳职业技术学院,颗粒物(PM10),52,54,52,34,36,106,106,82,82,10,18,10,8,0.4,0.5
2025-11-23T1300,3468A,115.7901,32.8613,阜阳市,市规划展馆,细颗粒物(PM2.5),64,72,66,46,45,111,111,82,82,12,21,8,7,0.4,0.4
2025-11-23T1300,3469A,115.836,32.9183,阜阳市,枣园社区,细颗粒物(PM2.5),65,73,69,47,47,101,101,80,80,15,36,6,5,0.2,0.3
2025-11-23T1300,2669A,102.9099,34.9841,甘南藏族自治州,州政府,,29,14,48,14,28,91,91,31,31,3,33,5,6,0.2,0.7
2025-11-23T1300,3380A,102.8914,34.9617,甘南藏族自治州,甘肃民族师范学院,,27,18,56,3,18,84,84,30,30,3,31,4,7,1.0,1
2025-11-23T1300,2570A,101.9603,30.0475,甘孜藏族自治州,水桥子,,22,8,12,3,5,68,68,72,62,13,10,8,8,0.4,0.3
2025-11-23T1300,3065A,101.9533,29.9972,甘孜藏族自治州,州环保局,,22,7,15,3,5,68,68,67,64,11,11,5,5,0.4,0.3
2025-11-23T1300,3414A,115.8347,28.932,赣江新区,桑海产业园,,41,41,50,22,30,124,124,42,42,16,44,13,9,0.7,0.7
2025-11-23T1300,2362A,114.9017,25.9149,赣州市,通天岩,,,,,,,,,,,,,,,,
2025-11-23T1300,2363A,114.9367,25.8664,赣州市,地委,细颗粒物(PM2.5),57,61,50,40,30,126,126,58,58,16,29,10,9,0.8,0.8
2025-11-23T1300,2364A,114.9461,25.8481,赣州市,气象台,颗粒物(PM10),54,58,61,37,26,117,117,47,47,21,39,11,8,0.7,0.7
2025-11-23T1300,2365A,114.9322,25.8333,赣州市,市图书馆,"颗粒物(PM10),细颗粒物(PM2.5)",55,60,53,39,31,115,115,43,43,18,35,9,7,0.7,0.7
2025-11-23T1300,2366A,114.8905,25.8471,赣州市,华坚鞋城,颗粒物(PM10),59,68,66,32,36,110,110,45,45,25,41,9,8,0.6,0.6
2025-11-23T1300,3109A,115.0093,25.8613,赣州市,赣县区卫计委,细颗粒物(PM2.5),70,65,51,51,40,102,102,45,45,22,32,10,8,0.6,0.6
2025-11-23T1300,2683A,106.2319,36.1417,固原市,马园,,,,,,,,,,,,,,,,
2025-11-23T1300,2684A,106.2792,36.0022,固原市,监测站,,36,36,46,16,23,98,98,80,80,9,28,7,8,0.3,0.6
2025-11-23T1300,2685A,106.2375,36.0211,固原市,新区,,43,43,40,13,15,100,100,84,84,6,18,7,8,0.2,0.2
2025-11-23T1300,3522A,106.2177,35.9959,固原市,原州区十五小,,,38,35,15,14,89,89,84,84,8,13,,7,0.3,0.3
2025-11-23T1300,2543A,106.6308,30.5278,广安市,小平旧居,,,,,,,,,,,,,,,,
2025-11-23T1300,2544A,106.6303,30.4576,广安市,市委,细颗粒物(PM2.5),94,78,93,70,77,61,61,24,24,15,30,4,3,0.6,0.7
2025-11-23T1300,2545A,106.6271,30.4663,广安市,友谊中学,细颗粒物(PM2.5),83,93,96,61,75,62,62,26,26,16,25,7,8,0.8,0.9
2025-11-23T1300,2547A,106.6388,30.4551,广安市,广电花园,细颗粒物(PM2.5),88,,72,65,79,60,60,24,24,13,24,3,3,0.6,0.8
2025-11-23T1300,2902A,106.6351,30.4865,广安市,北辰小学,细颗粒物(PM2.5),110,86,86,83,75,61,61,24,24,15,19,11,10,0.7,0.8
2025-11-23T1300,2523A,105.8945,32.4535,广元市,黑石坡,,,,,,,,,,,,,,,,
2025-11-23T1300,2524A,105.821,32.4444,广元市,老城,,43,,51,30,33,47,47,16,16,26,43,9,7,0.7,0.8
2025-11-23T1300,2526A,105.8628,32.4287,广元市,监测站,,46,,35,32,32,42,42,12,12,27,33,8,6,0.9,0.9
2025-11-23T1300,3617A,105.8047,32.4166,广元市,经开区,,41,41,61,24,38,54,54,13,13,18,42,15,8,0.7,0.8
2025-11-23T1300,1345A,113.2347,23.1423,广州市,广雅中学,颗粒物(PM10),52,54,64,29,36,106,106,43,43,29,68,11,10,0.8,0.8
2025-11-23T1300,1346A,113.2612,23.105,广州市,市五中,颗粒物(PM10),52,54,53,35,34,131,131,75,75,34,54,14,14,0.6,0.7
2025-11-23T1300,1348A,113.3478,23.0916,广州市,广东商学院,,46,46,51,32,33,108,108,62,62,23,36,10,9,0.3,0.4
2025-11-23T1300,1349A,113.4332,23.1047,广州市,市八十六中,,34,33,44,18,30,107,107,46,46,12,47,9,9,0.1,0.3
2025-11-23T1300,1350A,113.3505,22.9483,广州市,番禺中学,,39,39,53,24,40,110,110,49,49,19,46,6,7,0.3,0.4
2025-11-23T1300,1351A,113.2146,23.3916,广州市,花都师范,,39,39,43,24,25,108,108,68,68,18,27,8,10,0.3,0.4
2025-11-23T1300,1352A,113.2597,23.1331,广州市,市监测站,颗粒物(PM10),53,56,56,32,31,123,123,65,65,28,50,12,11,0.4,0.4
2025-11-23T1300,1353A,113.5618,23.312,广州市,九龙镇镇龙,颗粒物(PM10),52,54,61,32,35,98,98,50,50,18,36,10,8,0.4,0.5
2025-11-23T1300,1354A,113.2765,23.1544,广州市,麓湖,,47,47,43,32,28,110,110,53,53,24,44,11,9,0.5,0.5
2025-11-23T1300,1355A,113.443,23.3035,广州市,帽峰山森林公园,,,,,,,,,,,,,,,,
2025-11-23T1300,2846A,113.3221,23.1322,广州市,体育西,,50,50,51,30,33,113,113,71,71,25,36,14,13,0.7,0.7
2025-11-23T1300,3298A,113.5717,23.5491,广州市,从化街口,细颗粒物(PM2.5),54,54,54,38,36,96,96,48,48,21,42,16,14,0.7,0.7
2025-11-23T1300,3299A,113.3472,23.3692,广州市,白云竹料,颗粒物(PM10),51,51,54,27,31,108,108,60,60,28,35,9,10,0.6,0.7
2025-11-23T1300,3300A,113.2981,23.237,广州市,白云嘉禾,颗粒物(PM10),56,61,63,32,33,115,115,59,59,31,60,11,11,0.6,0.7
2025-11-23T1300,3301A,113.4256,23.1716,广州市,黄埔科学城,,37,37,41,24,26,114,114,70,70,15,21,8,8,0.5,0.5
2025-11-23T1300,3302A,113.3942,23.0483,广州市,番禺大学城,,42,42,47,22,32,119,119,53,53,14,51,12,12,0.4,0.5
2025-11-23T1300,3303A,113.4922,22.8168,广州市,南沙黄阁,颗粒物(PM10),58,66,69,34,38,152,152,75,75,33,69,19,15,0.7,0.9
2025-11-23T1300,3304A,113.5342,22.7896,广州市,南沙街,颗粒物(PM10),60,69,64,39,39,156,156,64,64,28,53,11,12,0.6,0.7
2025-11-23T1300,3443A,113.2902,23.5544,广州市,花都梯面,,34,33,35,23,23,106,106,65,65,11,28,8,10,0.5,0.5
2025-11-23T1300,3445A,113.7858,23.7478,广州市,从化良口,,33,28,28,23,21,93,93,54,54,9,17,9,8,0.6,0.6
2025-11-23T1300,3446A,113.8051,23.2614,广州市,增城荔城,,36,34,39,21,28,114,114,63,63,10,17,10,10,0.6,0.6
2025-11-23T1300,2505A,109.568,23.1478,贵港市,德智高中,,,,,,,,,,,,,,,,
2025-11-23T1300,2506A,109.6047,23.0666,贵港市,江南子站,颗粒物(PM10),53,56,75,35,50,108,108,51,51,16,36,12,10,0.6,0.7
2025-11-23T1300,2508A,109.5669,23.1065,贵港市,荷城子站,,41,41,49,24,28,107,107,70,70,13,27,8,7,0.6,0.6
2025-11-23T1300,3405A,109.5886,23.1172,贵港市,新世纪学校,,44,44,47,30,31,113,113,72,72,10,16,12,8,0.3,0.3
2025-11-23T1300,4260A,109.5933,23.0951,贵港市,中山路155-3号,颗粒物(PM10),56,62,58,37,38,115,115,66,66,14,29,12,10,0.4,0.4
2025-11-23T1300,1439A,106.6899,26.5998,贵阳市,马鞍山,,41,41,55,22,40,66,66,50,50,16,17,8,8,0.4,0.4
2025-11-23T1300,1441A,106.6243,26.6266,贵阳市,鉴湖路,,44,44,65,17,33,66,66,58,58,15,22,4,8,0.4,0.5
2025-11-23T1300,1442A,106.7487,26.6343,贵阳市,燕子冲,,45,41,53,31,49,66,66,58,58,16,16,7,10,0.4,0.4
2025-11-23T1300,1443A,106.6555,26.4365,贵阳市,碧云窝,颗粒物(PM10),51,51,73,24,43,60,60,47,47,14,22,8,12,0.4,0.5
2025-11-23T1300,1445A,106.7109,26.6027,贵阳市,红边门,,48,48,60,27,44,65,65,52,52,14,16,8,14,0.7,0.7
2025-11-23T1300,1446A,106.7164,26.5699,贵阳市,新华路,颗粒物(PM10),51,51,66,31,45,64,64,53,53,20,19,13,18,0.2,0.3
2025-11-23T1300,1447A,106.674,26.5424,贵阳市,太慈桥,,34,34,58,22,41,71,71,54,54,19,22,8,9,0.2,0.3
2025-11-23T1300,1552A,106.805,26.3003,贵阳市,桐木岭,细颗粒物(PM2.5),85,83,63,63,43,65,65,55,55,10,9,27,15,1.0,0.9
2025-11-23T1300,4230A,106.6882,26.5695,贵阳市,花果园大街66号,,38,36,58,26,50,61,61,50,50,21,21,5,9,0.3,0.4
2025-11-23T1300,4231A,106.6873,26.5169,贵阳市,漓江路57号,,31,31,51,19,43,66,66,47,47,16,21,14,18,0.4,0.5
2025-11-23T1300,1862A,110.4144,25.3167,桂林市,电子科大尧山校区,,,,,,,,,,,,,,,,
2025-11-23T1300,1864A,110.3089,25.2708,桂林市,龙隐路小学,颗粒物(PM10),56,61,45,38,38,119,119,69,69,16,21,12,11,0.6,0.6
2025-11-23T1300,1865A,110.2869,25.2178,桂林市,八中,细颗粒物(PM2.5),57,62,51,40,40,111,111,44,44,20,32,13,11,0.3,0.3
2025-11-23T1300,3531A,110.296,25.1253,桂林市,旅游学院,细颗粒物(PM2.5),52,44,54,36,34,123,123,49,49,14,39,10,8,0.3,0.3
2025-11-23T1300,4222A,110.1835,25.2444,桂林市,环湖路276号,细颗粒物(PM2.5),55,56,56,39,43,108,108,46,46,20,27,12,32,0.5,0.5
2025-11-23T1300,4301A,110.2803,25.2773,桂林市,信义路13号,颗粒物(PM10),59,68,49,30,34,118,118,72,66,16,24,14,13,0.5,0.5
2025-11-23T1300,2674A,100.2561,34.4714,果洛藏族自治州,玛沁县大武镇,,32,16,25,6,8,100,100,64,64,2,3,14,16,0.3,0.3
2025-11-23T1300,1129A,126.5422,45.755,哈尔滨市,岭北,,,,,,,,,,,,,,,,
2025-11-23T1300,1130A,126.561,45.8167,哈尔滨市,松北商大,细颗粒物(PM2.5),109,105,404,82,315,64,64,30,30,20,44,7,13,0.7,1.5
2025-11-23T1300,1131A,126.979,45.5419,哈尔滨市,阿城会宁,细颗粒物(PM2.5),159,145,264,121,244,91,91,49,49,25,40,16,18,0.9,1.3
2025-11-23T1300,1132A,126.599,45.7222,哈尔滨市,南岗学府路,细颗粒物(PM2.5),94,123,303,70,229,63,63,31,31,18,34,10,14,0.8,1.3
2025-11-23T1300,1133A,126.689,45.7733,哈尔滨市,太平宏伟公园,细颗粒物(PM2.5),112,114,298,84,216,65,65,35,35,26,38,15,14,0.6,1.2
2025-11-23T1300,1134A,126.635,45.7667,哈尔滨市,道外承德广场,细颗粒物(PM2.5),114,142,353,86,245,67,67,32,32,23,43,11,16,0.5,1.1
2025-11-23T1300,1135A,126.685,45.7319,哈尔滨市,香坊红旗大街,细颗粒物(PM2.5),110,112,298,83,222,62,62,30,30,26,46,15,23,0.8,1.4
2025-11-23T1300,1136A,126.6411,45.7258,哈尔滨市,动力和平路,细颗粒物(PM2.5),109,106,307,82,246,68,68,33,33,18,38,9,13,0.7,1.3
2025-11-23T1300,1137A,126.593,45.7478,哈尔滨市,道里建国路,细颗粒物(PM2.5),123,119,329,93,274,58,58,28,28,26,45,23,28,0.8,1.4
2025-11-23T1300,1138A,126.615,45.61,哈尔滨市,平房东轻厂,细颗粒物(PM2.5),133,128,281,101,226,59,59,31,31,22,40,10,13,0.7,1.3
2025-11-23T1300,1139A,126.595,45.9855,哈尔滨市,呼兰师专,细颗粒物(PM2.5),120,112,448,91,246,61,61,34,34,20,42,10,19,0.9,1.8
2025-11-23T1300,1140A,126.6206,45.6842,哈尔滨市,省农科院,细颗粒物(PM2.5),119,119,311,90,235,64,64,35,35,30,45,12,13,0.7,1.3
2025-11-23T1300,2688A,93.5128,42.8172,哈密市,地区监测站,颗粒物(PM10),101,151,167,31,53,69,69,49,49,7,23,4,5,0.0,0.3
2025-11-23T1300,2689A,93.4961,42.8328,哈密市,哈密师范学校,颗粒物(PM10),59,68,92,21,39,66,66,43,43,6,25,12,15,0.2,0.3
2025-11-23T1300,2671A,100.9048,36.9639,海北藏族自治州,海晏县西海镇,,30,18,19,12,15,94,94,74,74,1,3,8,10,0.3,0.3
2025-11-23T1300,3867A,102.0738,36.5056,海东市,平安区公安北苑,,49,45,74,34,65,69,69,29,29,18,30,20,23,1.0,1.1
2025-11-23T1300,1409A,110.576,19.9507,海口市,东寨港,,,,,,,,,,,,,,,,
2025-11-23T1300,1410A,110.3232,20.0574,海口市,海南大学,,49,48,45,26,25,154,154,131,131,10,10,10,7,0.4,0.3
2025-11-23T1300,1411A,110.283,20.0053,海口市,秀英海南医院,颗粒物(PM10),52,54,43,28,24,146,146,125,125,12,10,11,8,0.4,0.3
2025-11-23T1300,1412A,110.338,19.9969,海口市,海南师范大学,颗粒物(PM10),51,52,42,27,25,156,156,133,133,12,11,9,7,0.5,0.4
2025-11-23T1300,1413A,110.33,20.0356,海口市,龙华路环保局宿舍,颗粒物(PM10),51,51,41,27,23,154,154,132,132,13,12,11,9,0.7,0.6
2025-11-23T1300,3539A,110.5111,19.9736,海口市,桂林洋子站,,50,50,43,29,24,149,149,128,128,14,11,10,8,0.6,0.4
2025-11-23T1300,2673A,100.6188,36.2866,海南藏族自治州,共和县恰卜恰镇,,36,21,29,13,13,113,113,71,69,1,11,6,7,0.4,0.4
2025-11-23T1300,2676A,97.3731,37.3753,海西蒙古族藏族自治州,德令哈市,,30,15,20,7,13,94,94,73,73,3,6,14,14,0.8,0.4
2025-11-23T1300,1048A,114.5302,36.6116,邯郸市,东污水处理厂,颗粒物(PM10),60,69,67,38,48,74,74,55,55,22,31,26,20,1.4,1.1
2025-11-23T1300,1049A,114.4918,36.5713,邯郸市,矿院,,49,47,55,34,48,82,82,38,38,13,40,10,14,0.6,0.8
2025-11-23T1300,1050A,114.484,36.6133,邯郸市,丛台公园,细颗粒物(PM2.5),52,38,65,36,47,78,78,54,54,17,35,17,20,1.1,1.1
2025-11-23T1300,3458A,114.7895,36.5593,邯郸市,香泉濮院小区,颗粒物(PM10),88,125,92,47,57,65,65,35,35,32,37,29,22,1.8,1.2
2025-11-23T1300,3579A,114.50634,36.77178,邯郸市,永年区实验高中,颗粒物(PM10),56,62,77,23,34,80,80,39,39,21,44,21,27,0.9,1.4
2025-11-23T1300,3580A,114.20016,36.44293,邯郸市,峰峰矿区临水派出所,,45,45,40,31,37,96,96,82,82,13,20,10,13,0.5,0.6
2025-11-23T1300,2634A,106.9893,33.1842,汉中市,汉川机床厂子校,,,,,,,,,,,,,,,,
2025-11-23T1300,2635A,107.0154,33.0706,汉中市,市监测站,细颗粒物(PM2.5),57,61,55,40,41,71,71,28,28,20,29,13,9,1.0,0.9
2025-11-23T1300,2636A,107.0089,33.1138,汉中市,鑫源开发区,,40,40,74,23,47,60,60,27,27,17,40,9,13,0.8,1.3
2025-11-23T1300,2637A,107.007,33.0323,汉中市,南郑大河坎水厂,,46,44,49,32,33,66,66,25,25,16,24,12,10,0.8,0.8
2025-11-23T1300,1223A,120.2072,30.2111,杭州市,滨江,颗粒物(PM10),59,68,106,40,68,107,107,53,53,31,64,9,10,0.6,0.8
2025-11-23T1300,1224A,120.0633,30.2747,杭州市,西溪,,,70,78,46,49,83,83,34,34,43,44,10,9,,0.7
2025-11-23T1300,1226A,120.3417,30.3150,杭州市,下沙,细颗粒物(PM2.5),77,76,113,56,84,105,105,56,56,33,76,10,11,0.5,0.8
2025-11-23T1300,1227A,120.1269,30.2456,杭州市,卧龙桥,细颗粒物(PM2.5),69,61,84,50,60,86,86,38,38,34,36,8,7,0.4,0.5
2025-11-23T1300,1228A,120.1903,30.2692,杭州市,浙江农大,细颗粒物(PM2.5),74,63,115,54,82,88,88,40,40,39,71,9,10,0.7,0.9
2025-11-23T1300,1230A,120.1197,30.3119,杭州市,和睦小学,细颗粒物(PM2.5),77,71,114,56,76,90,90,41,41,36,63,10,11,0.8,1
2025-11-23T1300,1231A,120.3019,30.4183,杭州市,临平镇,细颗粒物(PM2.5),69,82,122,50,78,96,96,36,36,33,72,8,10,0.6,0.8
2025-11-23T1300,1232A,120.2753,30.1839,杭州市,城厢镇,细颗粒物(PM2.5),67,81,110,48,74,124,124,59,59,28,72,9,10,0.2,0.5
2025-11-23T1300,1233A,120.0883,30.1808,杭州市,云栖,细颗粒物(PM2.5),77,89,122,56,66,108,108,44,44,35,39,6,5,0.6,0.7
2025-11-23T1300,3557A,119.9464,30.0494,杭州市,镇二中,细颗粒物(PM2.5),77,60,74,56,63,97,97,40,40,31,49,7,7,0.8,1
2025-11-23T1300,3558A,119.7183,30.2367,杭州市,市府大楼,,49,46,81,34,54,115,115,56,56,18,33,11,11,0.8,1
2025-11-23T1300,3656A,120.1556,30.2864,杭州市,消防大队,细颗粒物(PM2.5),72,76,110,52,83,78,78,41,41,38,64,11,11,0.6,0.7
2025-11-23T1300,1270A,117.1959,31.7848,合肥市,明珠广场,颗粒物(PM10),53,56,98,29,65,88,88,33,33,31,75,9,10,0.6,0.8
2025-11-23T1300,1271A,117.3072,31.8764,合肥市,三里街,细颗粒物(PM2.5),62,70,108,44,74,77,77,24,24,50,82,7,8,0.7,0.9
2025-11-23T1300,1272A,117.2588,31.8707,合肥市,琥珀山庄,细颗粒物(PM2.5),65,58,98,47,68,82,82,33,33,37,77,7,7,0.4,0.9
2025-11-23T1300,1273A,117.1604,31.9052,合肥市,董铺水库,,,,,,,,,,,,,,,,
2025-11-23T1300,1274A,117.25,31.8571,合肥市,长江中路,颗粒物(PM10),57,63,102,38,78,84,84,33,33,34,62,8,9,0.5,0.9
2025-11-23T1300,1275A,117.266,31.9436,合肥市,庐阳区,颗粒物(PM10),54,58,90,31,53,92,92,36,36,35,80,6,7,0.6,0.8
2025-11-23T1300,1276A,117.3453,31.8616,合肥市,瑶海区,颗粒物(PM10),60,70,101,42,68,78,78,29,29,49,65,6,7,0.4,0.5
2025-11-23T1300,1277A,117.3027,31.7964,合肥市,包河区,颗粒物(PM10),56,61,92,34,68,84,84,40,40,37,85,8,10,0.6,0.8
2025-11-23T1300,1278A,117.2776,31.7385,合肥市,滨湖新区,细颗粒物(PM2.5),62,63,84,44,67,87,87,39,39,36,55,7,8,0.6,0.7
2025-11-23T1300,1279A,117.1318,31.8403,合肥市,高新区,,41,41,81,24,55,102,102,46,46,22,58,5,7,0.6,0.7
2025-11-23T1300,3464A,117.3803,31.9147,合肥市,高教基地,"颗粒物(PM10),细颗粒物(PM2.5)",63,75,99,45,70,80,80,31,31,50,59,9,7,0.5,0.6
2025-11-23T1300,3614A,79.924,37.0877,和田地区,地区环保局,颗粒物(PM10),109,168,154,66,58,52,52,55,49,46,26,14,10,2.0,1.2
2025-11-23T1300,3615A,79.9131,37.113,和田地区,市环保局,颗粒物(PM10),157,264,171,102,80,48,48,35,35,104,52,25,8,4.1,2
2025-11-23T1300,2516A,108.2011,24.715,河池市,东仁乐园,,,,,,,,,,,,,,,,
2025-11-23T1300,2517A,108.0497,24.6947,河池市,市环保站,,41,41,34,22,22,84,84,31,31,9,25,5,6,0.4,0.5
2025-11-23T1300,2518A,108.0983,24.6989,河池市,市疾控中心,,41,41,46,22,26,80,80,27,27,13,31,7,8,0.4,0.6
2025-11-23T1300,1696A,114.6778,23.7569,河源市,源西,,,,,,,,,,,,,,,,
2025-11-23T1300,1697A,114.6944,23.7586,河源市,东埔,,40,39,41,28,27,108,108,69,69,13,25,9,8,0.3,0.4
2025-11-23T1300,1698A,114.6892,23.7233,河源市,老城,,46,42,43,32,25,111,111,58,58,12,25,9,7,0.5,0.6
2025-11-23T1300,1718A,115.4208,35.2464,菏泽市,气象局,颗粒物(PM10),99,148,118,73,61,51,51,36,36,38,47,8,7,0.6,0.5
2025-11-23T1300,3374A,115.5564,35.0891,菏泽市,定陶老年大学,"颗粒物(PM10),细颗粒物(PM2.5)",104,158,105,78,54,45,45,35,35,52,47,6,6,0.4,0.2
2025-11-23T1300,4184A,115.4797,35.24401,菏泽市,永昌路1号,颗粒物(PM10),94,138,112,68,60,40,40,32,31,42,46,7,7,0.6,0.5
2025-11-23T1300,4193A,115.4715,35.2800,菏泽市,长城路999号,颗粒物(PM10),86,122,101,57,48,45,45,38,38,40,41,11,11,0.8,0.7
2025-11-23T1300,2514A,111.5264,24.4172,贺州市,环保小区,细颗粒物(PM2.5),60,46,45,43,35,115,115,56,56,15,20,9,6,0.5,0.6
2025-11-23T1300,2515A,111.5608,24.4078,贺州市,政协大楼,颗粒物(PM10),51,52,44,35,33,102,102,45,45,15,28,10,8,0.8,0.8
2025-11-23T1300,3534A,111.4744,24.4553,贺州市,西湾,颗粒物(PM10),55,60,46,30,33,109,109,48,48,12,22,10,7,0.5,0.6
2025-11-23T1300,2385A,114.17,35.9019,鹤壁市,市监测站,,30,30,53,8,29,92,92,72,69,8,23,4,7,0.3,0.5
2025-11-23T1300,2386A,114.2956,35.7511,鹤壁市,市交警支队,颗粒物(PM10),77,103,90,41,50,33,33,17,17,41,53,11,5,0.8,1
2025-11-23T1300,2387A,114.2878,35.7306,鹤壁市,迎宾馆,,,115,101,34,53,29,29,15,15,,54,7,9,0.8,1
2025-11-23T1300,3474A,114.2617,35.6822,鹤壁市,大新区,颗粒物(PM10),86,122,98,49,53,22,22,4,4,36,51,6,6,1.0,1
2025-11-23T1300,3596A,114.1572,35.9603,鹤壁市,南山宾馆,,34,34,52,13,27,98,98,84,84,8,19,5,9,0.3,0.4
2025-11-23T1300,2244A,130.2537,47.3416,鹤岗市,哈啤分公司,细颗粒物(PM2.5),119,95,132,90,129,76,76,44,38,21,30,17,18,0.9,1.1
2025-11-23T1300,2245A,130.2684,47.3086,鹤岗市,斯达机电,细颗粒物(PM2.5),90,91,150,67,106,83,83,48,43,17,26,16,17,1.1,1.2
2025-11-23T1300,2246A,130.3114,47.3388,鹤岗市,东山纸板厂,细颗粒物(PM2.5),90,99,167,67,112,61,61,28,28,36,42,28,21,1.3,2.4
2025-11-23T1300,2247A,130.1097,47.3382,鹤岗市,五号水库,,,,,,,,,,,,,,,,
2025-11-23T1300,2263A,127.4833,50.2524,黑河市,交通局,,34,34,47,22,34,44,44,38,38,22,29,4,4,0.6,0.7
2025-11-23T1300,2264A,127.5144,50.2341,黑河市,环保局,颗粒物(PM10),66,81,60,40,38,17,17,26,24,57,39,16,9,0.7,0.8
2025-11-23T1300,2265A,127.5291,50.2472,黑河市,大黑河岛,,,,,,,,,,,,,,,,
2025-11-23T1300,1074A,115.6838,37.7541,衡水市,电机北厂,颗粒物(PM10),78,106,110,33,65,78,78,24,24,15,43,15,14,0.4,0.8
2025-11-23T1300,1075A,115.6303,37.7316,衡水市,市监测站,颗粒物(PM10),69,88,101,36,64,80,80,24,24,18,55,16,16,0.5,0.8
2025-11-23T1300,3188A,115.6683,37.7217,衡水市,市城管局,颗粒物(PM10),76,102,116,27,62,80,80,22,22,17,54,12,12,0.5,0.8
2025-11-23T1300,3459A,115.5989,37.5491,衡水市,地表水厂,颗粒物(PM10),78,105,129,36,81,82,82,24,24,21,65,19,15,0.4,0.8
2025-11-23T1300,2456A,112.5003,26.9167,衡阳市,原169医院,,,,,,,,,,,,,,,,
2025-11-23T1300,2457A,112.6194,26.9258,衡阳市,衡阳化工总厂,细颗粒物(PM2.5),75,81,63,55,47,135,135,48,48,23,38,13,19,0.9,0.9
2025-11-23T1300,2458A,112.6211,26.8956,衡阳市,珠晖区环保局,,,69,67,58,50,134,134,42,42,26,46,,19,1.3,1.1
2025-11-23T1300,2459A,112.6197,26.8733,衡阳市,市委党校,细颗粒物(PM2.5),89,79,65,66,50,128,128,41,41,28,31,23,18,1.5,1.1
2025-11-23T1300,2460A,112.6006,26.8919,衡阳市,市监测站,颗粒物(PM10),78,105,90,56,61,132,132,44,44,38,48,16,13,1.3,1.2
2025-11-23T1300,2461A,112.5664,26.9056,衡阳市,真空机电公司,颗粒物(PM10),76,102,77,49,56,123,123,49,49,23,36,19,15,1.0,1
2025-11-23T1300,3399A,112.6703,26.882,衡阳市,师范学院,细颗粒物(PM2.5),58,57,66,41,43,136,136,48,48,18,30,16,14,0.9,0.9
2025-11-23T1300,2608A,103.3772,23.3993,红河哈尼族彝族自治州,污水处理厂,,26,,36,18,28,77,77,53,53,8,10,5,7,0.3,0.4
2025-11-23T1300,2609A,103.3861,23.35,红河哈尼族彝族自治州,监测站,,24,18,34,14,26,76,76,61,61,3,4,5,6,0.3,0.3
2025-11-23T1300,3038A,103.3758,23.368,红河哈尼族彝族自治州,州图书馆,,24,,23,15,18,75,75,60,60,4,5,4,4,0.3,0.4
2025-11-23T1300,1090A,111.6507,40.7517,呼和浩特市,呼市一监,颗粒物(PM10),131,212,171,53,66,57,57,26,26,16,47,15,12,0.6,1
2025-11-23T1300,1091A,111.6572,40.8033,呼和浩特市,小召,颗粒物(PM10),122,193,153,56,59,43,43,25,25,41,59,14,11,0.7,0.9
2025-11-23T1300,1094A,111.7516,40.8369,呼和浩特市,如意水处理厂,颗粒物(PM10),109,167,129,53,55,48,48,22,22,35,57,,13,0.7,0.9
2025-11-23T1300,1095A,111.7276,40.8062,呼和浩特市,二十九中,颗粒物(PM10),102,154,147,56,58,46,46,23,23,35,56,16,15,0.6,0.7
2025-11-23T1300,1096A,111.5512,40.7866,呼和浩特市,工大金川校区,颗粒物(PM10),123,196,152,62,59,48,48,21,21,37,57,19,12,0.6,0.7
2025-11-23T1300,1097A,111.717,40.7612,呼和浩特市,化肥厂生活区,颗粒物(PM10),92,134,120,60,64,63,63,25,25,24,60,12,12,0.5,0.9
2025-11-23T1300,3698A,111.5968,40.8178,呼和浩特市,红旗小学,颗粒物(PM10),122,193,140,57,59,44,44,20,20,47,68,16,15,0.5,0.7
2025-11-23T1300,3699A,111.6518,40.8389,呼和浩特市,海东办,颗粒物(PM10),115,180,139,55,58,52,52,22,22,31,54,10,11,0.5,0.8
2025-11-23T1300,3061A,119.7512,49.1577,呼伦贝尔市,国华电力东,,20,19,23,12,16,64,64,46,46,9,12,8,8,0.5,0.5
2025-11-23T1300,4279A,119.7569,49.2222,呼伦贝尔市,伊敏大街东7号,,28,27,28,19,22,60,60,30,30,6,14,8,7,0.7,0.5
2025-11-23T1300,1250A,120.0751,30.8669,湖州市,城西水厂,细颗粒物(PM2.5),57,53,101,40,76,87,87,35,35,45,65,10,11,0.4,0.6
2025-11-23T1300,2873A,120.0830,30.8929,湖州市,仁皇山新区,细颗粒物(PM2.5),62,61,96,44,75,94,94,40,40,42,58,12,11,0.4,0.7
2025-11-23T1300,2907A,120.1844,30.8596,湖州市,吴兴区站,细颗粒物(PM2.5),63,64,114,45,89,107,107,40,40,24,59,8,12,0.9,1.2
2025-11-23T1300,3562A,120.4148,30.8538,湖州市,南浔区站,细颗粒物(PM2.5),103,95,129,77,95,114,114,49,49,54,72,9,12,0.7,0.8
2025-11-23T1300,1607A,120.9049,40.7211,葫芦岛市,龙港区,颗粒物(PM10),84,117,117,41,84,46,46,18,18,41,62,22,24,0.9,1.3
2025-11-23T1300,1608A,120.8392,40.7514,葫芦岛市,化工街,颗粒物(PM10),86,122,157,61,93,30,30,11,11,56,72,26,27,0.8,1.2
2025-11-23T1300,1609A,120.8341,40.7073,葫芦岛市,新区,细颗粒物(PM2.5),70,65,98,51,79,32,32,14,14,57,67,16,14,1.1,1.3
2025-11-23T1300,1610A,120.8695,40.7677,葫芦岛市,东城区,颗粒物(PM10),117,183,135,77,98,26,26,12,12,77,74,35,31,1.4,1.5
2025-11-23T1300,2482A,109.5981,27.5721,怀化市,林科所,,,,,,,,,,,,,,,,
2025-11-23T1300,2483A,109.9453,27.5444,怀化市,河西地税局,,28,28,34,13,23,62,62,27,27,9,20,5,5,0.2,0.3
2025-11-23T1300,2484A,109.9781,27.5342,怀化市,市四医院,,29,29,46,15,28,74,74,31,31,5,24,9,10,0.3,0.5
2025-11-23T1300,2485A,109.9972,27.5578,怀化市,监测楼,,24,24,40,16,25,72,72,33,33,7,21,2,4,0.0,0.1
2025-11-23T1300,2486A,110.0394,27.583,怀化市,市委党校,,28,25,51,19,32,76,76,36,36,3,23,9,18,0.2,0.3
2025-11-23T1300,1210A,119.036,33.5981,淮安市,钵池山,细颗粒物(PM2.5),113,92,116,85,98,103,103,65,65,20,31,15,15,0.8,0.8
2025-11-23T1300,1211A,119.007,33.575,淮安市,北京南路,细颗粒物(PM2.5),108,97,118,81,95,87,87,47,47,28,49,18,14,1.2,0.9
2025-11-23T1300,1212A,118.989,33.6067,淮安市,市监测站,细颗粒物(PM2.5),94,105,123,70,89,96,96,65,65,26,43,12,20,0.7,1.4
2025-11-23T1300,1213A,119.135,33.5039,淮安市,楚州区监测站,细颗粒物(PM2.5),78,81,142,57,103,100,100,40,40,22,65,15,14,0.7,1
2025-11-23T1300,3426A,118.8755,33.2894,淮安市,新华书店,细颗粒物(PM2.5),93,84,125,69,97,100,100,53,53,19,46,13,14,0.6,0.7
2025-11-23T1300,4206A,119.0288,33.6319,淮安市,承德北路606号,细颗粒物(PM2.5),109,100,128,82,92,87,87,64,64,28,42,11,18,0.7,1.5
2025-11-23T1300,2282A,116.8004,33.975,淮北市,监测站,细颗粒物(PM2.5),94,126,101,70,64,64,64,44,43,39,40,11,9,0.5,0.5
2025-11-23T1300,2283A,116.8091,33.9007,淮北市,烈山区政府,细颗粒物(PM2.5),84,93,101,62,69,72,72,39,39,36,51,14,12,0.4,0.5
2025-11-23T1300,3330A,116.8873,33.9836,淮北市,杜集区检察院,细颗粒物(PM2.5),95,118,99,71,67,70,70,52,51,31,29,10,8,0.4,0.4
2025-11-23T1300,4017A,116.7923,33.9535,淮北市,市博物馆,细颗粒物(PM2.5),94,115,96,70,63,64,64,44,44,33,35,15,13,0.3,0.3
2025-11-23T1300,2277A,116.8305,32.7727,淮南市,潘集区政府,细颗粒物(PM2.5),74,91,98,54,64,107,107,68,68,19,29,9,11,0.6,0.6
2025-11-23T1300,2279A,116.8569,32.5951,淮南市,谢家集区政府,颗粒物(PM10),62,73,82,43,53,108,108,62,62,26,35,10,9,0.6,0.6
2025-11-23T1300,2280A,116.8281,32.633,淮南市,八公山区政府,细颗粒物(PM2.5),65,70,73,47,49,105,105,84,84,20,21,8,6,0.6,0.5
2025-11-23T1300,2281A,116.6325,32.6201,淮南市,焦岗湖风景区管理处,,,,,,,,,,,,,,,,
2025-11-23T1300,2894A,117.0566,32.6531,淮南市,经济技术开发区消防队,细颗粒物(PM2.5),80,96,85,59,57,91,91,68,68,34,39,15,14,0.6,0.5
2025-11-23T1300,3329A,117.0108,32.5893,淮南市,山南新区,细颗粒物(PM2.5),73,85,93,53,66,95,95,66,66,35,40,6,7,0.5,0.5
2025-11-23T1300,4209A,117.0031,32.6445,淮南市,国庆中路369号,颗粒物(PM10),60,70,75,39,55,81,81,71,65,35,34,7,5,0.5,0.5
2025-11-23T1300,2446A,114.9028,30.4742,黄冈市,职工中心,细颗粒物(PM2.5),114,120,75,86,58,49,49,40,40,60,38,15,8,1.3,0.7
2025-11-23T1300,2929A,114.8858,30.4519,黄冈市,红卫路,细颗粒物(PM2.5),119,104,76,90,70,56,56,35,35,53,42,15,10,1.2,0.8
2025-11-23T1300,3398A,114.9136,30.4445,黄冈市,市林业局,细颗粒物(PM2.5),115,137,86,87,63,55,55,36,36,,27,14,5,1.6,0.9
2025-11-23T1300,2672A,102.0199,35.5102,黄南藏族自治州,同仁县隆务镇,,30,30,49,19,23,82,82,70,68,6,10,10,11,0.4,0.4
2025-11-23T1300,2295A,118.2903,29.6963,黄山市,延安路89号,,50,40,36,35,26,98,98,38,38,14,18,4,4,0.4,0.4
2025-11-23T1300,2297A,118.1371,30.2756,黄山市,黄山区政府5号楼,,32,32,48,19,36,75,75,29,29,7,10,6,5,0.6,0.6
2025-11-23T1300,4210A,118.3354,29.7203,黄山市,滨江东路7-2号,,43,43,56,28,45,81,81,26,26,15,20,4,4,0.3,0.4
2025-11-23T1300,2423A,115.0601,30.2313,黄石市,沈家营,细颗粒物(PM2.5),100,125,96,75,64,74,74,29,29,64,50,17,14,1.5,1.1
2025-11-23T1300,2426A,114.8988,30.2019,黄石市,铁山,细颗粒物(PM2.5),82,101,86,60,51,82,82,32,32,52,48,20,14,1.0,0.6
2025-11-23T1300,2427A,115.0307,30.2092,黄石市,团城山,细颗粒物(PM2.5),113,109,90,85,67,82,82,29,29,61,42,17,10,1.1,0.7
2025-11-23T1300,3149A,115.0235,30.1578,黄石市,笔架山北路,细颗粒物(PM2.5),108,164,127,81,69,88,88,32,32,37,33,19,14,1.7,1
2025-11-23T1300,4185A,115.0780,30.21118,黄石市,磁湖东路29号,细颗粒物(PM2.5),124,125,102,94,74,66,66,27,27,50,49,18,16,1.2,1
2025-11-23T1300,1392A,114.4183,23.0528,惠州市,河南岸金山湖子站,,46,44,62,32,37,105,105,57,57,18,33,9,8,0.4,0.6
2025-11-23T1300,1393A,114.4053,23.0822,惠州市,下埔横江三路子站,,40,40,53,24,31,116,116,77,77,9,23,9,10,0.5,0.6
2025-11-23T1300,1394A,114.4103,23.1142,惠州市,江北云山西路子站,,39,38,48,25,29,122,122,80,80,14,27,7,8,0.5,0.6
2025-11-23T1300,1395A,114.4645,22.7833,惠州市,惠阳区承修路船湖子站,,45,45,64,28,36,128,128,72,72,16,32,8,8,0.4,0.6
2025-11-23T1300,1396A,114.5317,22.7422,惠州市,大亚湾管委会子站,,39,39,58,22,34,122,122,64,64,14,39,7,7,0.5,0.6
2025-11-23T1300,3314A,114.4338,22.8134,惠州市,惠阳秋长,,,48,63,27,40,127,127,71,71,13,35,,18,0.4,0.5
2025-11-23T1300,3452A,114.6517,22.775,惠州市,大亚湾霞涌,,40,40,42,21,25,112,112,79,79,13,16,8,8,0.6,0.6
2025-11-23T1300,2240A,130.9762,45.3001,鸡西市,环保局,细颗粒物(PM2.5),57,60,39,40,24,79,79,62,59,13,14,9,7,0.8,0.7
2025-11-23T1300,2243A,130.9429,45.3039,鸡西市,第一中学,颗粒物(PM10),56,61,34,36,23,81,81,70,70,10,8,8,7,0.8,0.6
2025-11-23T1300,3707A,131.0207,45.3073,鸡西市,欧美日汽修厂,,50,50,43,33,30,79,79,45,45,11,21,10,11,0.8,0.8
2025-11-23T1300,3709A,130.9967,45.3106,鸡西市,市政设施管理处,颗粒物(PM10),57,63,52,38,28,92,92,57,57,14,26,12,11,0.8,0.7
2025-11-23T1300,2367A,114.9754,27.0803,吉安市,红声器材厂,颗粒物(PM10),54,57,63,32,36,118,118,48,48,24,36,12,10,0.7,0.7
2025-11-23T1300,2368A,114.9658,27.0999,吉安市,市森林工业局,颗粒物(PM10),57,64,61,35,37,114,114,46,46,18,36,10,8,0.5,0.5
2025-11-23T1300,2369A,114.99,27.1312,吉安市,市环境监测站,颗粒物(PM10),54,58,55,35,36,124,124,60,60,22,35,18,15,0.6,0.6
2025-11-23T1300,2370A,115.0093,27.0968,吉安市,青原区法院,颗粒物(PM10),56,62,61,34,39,101,101,43,43,25,44,14,11,0.7,0.7
2025-11-23T1300,1772A,126.54,43.8622,吉林市,哈达湾,细颗粒物(PM2.5),95,100,72,71,52,98,98,74,74,19,18,14,11,1.0,0.9
2025-11-23T1300,1773A,126.5844,43.8358,吉林市,东局子,细颗粒物(PM2.5),93,86,67,69,57,81,81,60,60,14,16,12,11,1.0,0.9
2025-11-23T1300,1774A,126.5052,43.8245,吉林市,电力学院,细颗粒物(PM2.5),92,92,79,68,57,90,90,66,66,18,21,13,11,0.9,0.8
2025-11-23T1300,1775A,126.6133,43.8972,吉林市,江北,细颗粒物(PM2.5),112,111,76,84,59,89,89,66,66,23,16,9,7,0.6,0.5
2025-11-23T1300,1776A,126.555,43.8306,吉林市,江南公园,细颗粒物(PM2.5),117,106,75,88,60,,,61,61,18,21,12,10,0.8,0.6
2025-11-23T1300,1778A,126.7061,43.7133,吉林市,丰满,,,,47,,49,,,65,,,9,,12,,0.5
2025-11-23T1300,2868A,126.4739,43.953,吉林市,九站,细颗粒物(PM2.5),85,100,88,63,56,95,95,74,74,20,21,7,6,0.8,0.8
2025-11-23T1300,1299A,116.9862,36.6114,济南市,科干所,颗粒物(PM10),65,80,88,32,43,75,75,59,50,30,33,19,15,0.8,0.8
2025-11-23T1300,1300A,116.9376,36.665,济南市,农科所,颗粒物(PM10),88,125,106,56,52,48,48,44,38,55,46,18,13,0.8,0.6
2025-11-23T1300,1301A,117.1265,36.6734,济南市,开发区,颗粒物(PM10),62,73,78,34,47,77,77,65,53,26,26,14,10,0.8,0.7
2025-11-23T1300,1303A,117.0624,36.6868,济南市,省种子仓库,颗粒物(PM10),78,105,99,56,54,68,68,50,40,31,34,17,13,0.8,0.7
2025-11-23T1300,1304A,116.9489,36.6447,济南市,机床二厂,细颗粒物(PM2.5),92,112,116,68,65,57,57,46,35,44,43,22,17,0.6,0.5
2025-11-23T1300,1305A,117.0495,36.663,济南市,市监测站,颗粒物(PM10),74,98,89,51,49,71,71,57,49,29,28,12,8,0.5,0.5
2025-11-23T1300,1306A,116.7675,36.5484,济南市,长清党校,颗粒物(PM10),79,107,110,54,59,65,65,43,37,39,44,21,15,0.9,0.7
2025-11-23T1300,1616A,117.6795,36.229,济南市,技术学院,细颗粒物(PM2.5),134,163,130,102,81,54,54,21,21,53,72,29,21,1.3,1.1
2025-11-23T1300,1961A,117.532,36.6868,济南市,东山小学,,,88,103,44,59,82,82,72,66,,27,,14,0.7,0.6
2025-11-23T1300,3059A,117.7161,36.2049,济南市,泰兴公司,细颗粒物(PM2.5),153,178,143,117,94,49,49,20,20,60,69,30,15,1.1,0.9
2025-11-23T1300,3064A,117.6867,36.2171,济南市,莱芜战役纪念馆,细颗粒物(PM2.5),148,175,132,113,91,50,50,19,19,56,68,40,27,1.6,1.4
2025-11-23T1300,3494A,117.1673,36.9782,济南市,济阳区政府,颗粒物(PM10),81,112,119,56,62,62,62,38,38,36,51,21,16,0.8,0.7
2025-11-23T1300,3495A,117.1171,36.63,济南市,锦屏中学,颗粒物(PM10),52,54,71,20,38,86,86,68,66,24,27,12,9,0.6,0.6
2025-11-23T1300,3682A,116.9814,36.6819,济南市,济南四建,颗粒物(PM10),76,102,96,51,55,58,58,48,40,36,33,18,12,1.0,0.8
2025-11-23T1300,1653A,116.6251,35.4302,济宁市,火炬城,细颗粒物(PM2.5),94,96,101,70,72,44,44,31,31,42,36,12,10,0.2,0.2
2025-11-23T1300,1655A,116.5491,35.4042,济宁市,电化厂,颗粒物(PM10),106,161,151,75,73,46,46,24,24,47,57,10,9,0.3,0.2
2025-11-23T1300,3500A,116.5814,35.3707,济宁市,北湖一中,细颗粒物(PM2.5),92,108,99,68,70,46,46,27,27,38,39,10,10,0.6,0.5
2025-11-23T1300,3501A,116.8249,35.5593,济宁市,服务中心,颗粒物(PM10),89,127,136,57,68,38,38,21,21,45,45,8,7,0.3,0.3
2025-11-23T1300,3678A,116.5907,35.4054,济宁市,市第七中学,细颗粒物(PM2.5),85,112,100,63,58,49,49,30,30,45,44,11,10,0.5,0.4
2025-11-23T1300,2255A,130.2751,46.8028,佳木斯市,佳纺,细颗粒物(PM2.5),105,115,126,79,104,77,77,60,60,17,19,9,9,0.8,0.8
2025-11-23T1300,2256A,130.3995,46.8307,佳木斯市,发电厂,细颗粒物(PM2.5),99,89,112,74,100,81,81,61,61,17,21,7,8,0.9,1.1
2025-11-23T1300,2257A,130.3258,46.7975,佳木斯市,环保局,细颗粒物(PM2.5),112,102,122,84,107,81,81,61,61,17,18,7,8,0.6,0.7
2025-11-23T1300,2258A,130.3648,46.8032,佳木斯市,十一中,细颗粒物(PM2.5),105,90,122,79,109,79,79,61,61,20,22,10,12,0.8,0.9
2025-11-23T1300,2259A,130.3794,46.7588,佳木斯市,四丰,,,,,,,,,,,,,,,,
2025-11-23T1300,1252A,120.7436,30.778,嘉兴市,清河小学,细颗粒物(PM2.5),95,99,149,71,170,101,101,53,53,54,63,10,8,0,0.3
2025-11-23T1300,1253A,120.726,30.7478,嘉兴市,嘉兴学院,细颗粒物(PM2.5),97,97,148,72,101,104,104,56,54,53,53,12,9,0.5,0.7
2025-11-23T1300,2872A,120.7846,30.7525,嘉兴市,南湖区残联,细颗粒物(PM2.5),92,86,134,68,97,122,122,70,69,44,50,10,12,0.3,0.5
2025-11-23T1300,3407A,120.6916,30.7739,嘉兴市,秀洲住建,细颗粒物(PM2.5),98,92,137,73,111,110,110,48,48,40,62,8,9,0.6,0.8
2025-11-23T1300,1945A,98.2908,39.7711,嘉峪关市,气象局,颗粒物(PM10),420,520,174,68,33,88,88,78,78,4,13,4,7,0.5,0.5
2025-11-23T1300,2884A,98.2672,39.7978,嘉峪关市,酒钢宾馆,颗粒物(PM10),500,688,203,68,34,84,84,72,72,1,15,11,18,0.4,0.4
2025-11-23T1300,3248A,98.2643,39.7724,嘉峪关市,雄关区,颗粒物(PM10),353,462,151,48,32,84,84,75,75,9,21,13,14,0.5,0.5
2025-11-23T1300,1383A,113.1064,22.6058,江门市,北街,细颗粒物(PM2.5),68,69,58,49,40,132,132,60,60,44,47,11,11,0.6,0.6
2025-11-23T1300,1384A,113.0731,22.5835,江门市,西区,细颗粒物(PM2.5),54,50,69,38,45,128,128,53,53,33,59,10,11,0.5,0.6
2025-11-23T1300,1385A,113.0219,22.5311,江门市,圭峰西,颗粒物(PM10),54,57,72,34,51,128,128,57,57,26,44,9,7,0.5,0.6
2025-11-23T1300,1386A,113.0828,22.5947,江门市,东湖,颗粒物(PM10),59,67,63,38,37,132,132,57,57,37,48,12,12,0.5,0.5
2025-11-23T1300,3311A,113.1075,22.5647,江门市,江海富民,颗粒物(PM10),61,71,63,32,32,136,136,60,60,42,50,15,15,0.4,0.5
2025-11-23T1300,3449A,113.05,22.4667,江门市,新会银湖,颗粒物(PM10),104,158,75,33,47,119,119,57,57,23,48,9,7,,0.5
2025-11-23T1300,1830A,113.1992,35.2590,焦作市,影视城,,,,58,,26,,,74,,,30,,21,,0.4
2025-11-23T1300,3335A,113.3137,35.2641,焦作市,马村街道办,颗粒物(PM10),62,73,76,36,42,81,81,53,53,11,21,10,11,0.4,0.3
2025-11-23T1300,3336A,113.2465,35.2373,焦作市,焦作技师学院,颗粒物(PM10),67,84,74,36,39,69,69,45,45,20,32,10,11,0.6,0.6
2025-11-23T1300,3477A,113.1656,35.2539,焦作市,中站许衡医院,颗粒物(PM10),60,69,82,39,45,76,76,59,59,19,29,8,20,0.5,0.7
2025-11-23T1300,3981A,113.2449,35.1803,焦作市,原李万街道办,颗粒物(PM10),75,100,87,41,36,44,44,28,28,23,28,9,7,0.5,0.5
2025-11-23T1300,4264A,113.2340,35.2190,焦作市,新安路1731号,颗粒物(PM10),78,106,83,39,42,67,67,46,46,22,30,10,10,0.9,0.8
2025-11-23T1300,4295A,113.2722,35.2121,焦作市,人民路3066号,颗粒物(PM10),70,90,78,34,32,64,64,38,38,20,34,8,7,0.5,0.4
2025-11-23T1300,1708A,116.3701,23.5345,揭阳市,新兴,,50,50,68,31,46,126,126,58,58,14,33,10,12,0.5,0.6
2025-11-23T1300,1709A,116.3264,23.5443,揭阳市,西马,颗粒物(PM10),63,75,74,27,46,125,125,57,57,16,31,7,8,0.7,0.8
2025-11-23T1300,1710A,116.3611,23.5626,揭阳市,东兴,颗粒物(PM10),59,67,71,31,40,129,129,50,50,14,38,8,10,0.5,0.7
2025-11-23T1300,1711A,116.4151,23.5294,揭阳市,渔湖,颗粒物(PM10),53,55,71,28,40,134,134,58,58,14,34,6,7,0.6,0.7
2025-11-23T1300,3320A,116.403,23.5699,揭阳市,曲溪,,50,37,72,35,44,133,133,55,55,8,34,3,6,0.4,0.7
2025-11-23T1300,1944A,102.1692,38.5167,金昌市,天庆家园,颗粒物(PM10),500,1306,162,81,22,73,73,60,58,5,16,1,9,0.4,0.5
2025-11-23T1300,4022A,102.1647,38.5371,金昌市,金川区人防中心,颗粒物(PM10),500,1076,135,102,27,78,78,59,56,4,13,1,6,0.6,0.6
2025-11-23T1300,4239A,102.1930,38.5319,金昌市,长春路96号,颗粒物(PM10),483,583,97,92,21,79,79,56,54,4,13,4,12,0.4,0.5
2025-11-23T1300,1262A,119.647,29.077,金华市,十五中,颗粒物(PM10),60,69,90,42,55,114,114,50,50,25,56,4,4,0.4,0.5
2025-11-23T1300,1263A,119.686,29.1029,金华市,监测站,颗粒物(PM10),62,74,95,40,56,91,91,43,43,34,74,4,4,0.3,0.4
2025-11-23T1300,3659A,119.656,29.1131,金华市,气象局,细颗粒物(PM2.5),65,78,97,47,64,98,98,37,37,37,72,4,5,0.3,0.5
2025-11-23T1300,1767A,121.1115,41.0879,锦州市,南山,细颗粒物(PM2.5),108,139,112,81,98,42,42,14,14,63,72,18,13,,1.6
2025-11-23T1300,1768A,121.0604,40.8428,锦州市,开发区,颗粒物(PM10),98,145,158,69,96,26,26,10,10,63,79,26,34,1.1,1.4
2025-11-23T1300,1769A,121.1836,41.1119,锦州市,百股街道,细颗粒物(PM2.5),138,161,110,105,82,23,23,10,10,81,71,24,16,1.7,1.5
2025-11-23T1300,1770A,121.1178,41.1222,锦州市,天安街道,细颗粒物(PM2.5),107,91,111,80,96,52,52,21,21,45,61,17,18,1.6,1.8
2025-11-23T1300,1771A,121.1303,41.1386,锦州市,北湖公园,细颗粒物(PM2.5),100,107,113,75,87,48,48,15,15,50,69,18,17,1.4,1.6
2025-11-23T1300,2160A,112.85,35.5051,晋城市,自来水公司,颗粒物(PM10),67,83,79,31,37,83,83,66,60,18,26,9,11,0.5,0.7
2025-11-23T1300,2161A,112.8318,35.4936,晋城市,白云商贸,颗粒物(PM10),66,81,81,31,30,80,80,58,56,15,23,4,6,0.4,0.6
2025-11-23T1300,2162A,112.8508,35.4887,晋城市,市环保局,颗粒物(PM10),75,99,79,29,34,80,80,65,60,16,20,6,8,0.6,0.8
2025-11-23T1300,2163A,112.8676,35.4897,晋城市,技术学院,颗粒物(PM10),68,85,73,31,36,71,71,53,48,17,25,8,9,0.6,0.8
2025-11-23T1300,2165A,112.8453,35.546,晋城市,白马寺,颗粒物(PM10),62,74,57,32,33,90,90,74,72,13,16,10,11,0.4,0.5
2025-11-23T1300,3620A,112.8271,35.4828,晋城市,泽州一中,颗粒物(PM10),73,96,67,29,35,88,88,67,66,12,17,6,7,0.4,0.5
2025-11-23T1300,2173A,112.7249,37.7067,晋中市,南都小区,颗粒物(PM10),97,143,118,47,54,72,72,31,31,30,55,16,29,0.7,1.3
2025-11-23T1300,2174A,112.6991,37.6982,晋中市,榆次区政府,颗粒物(PM10),106,161,125,53,66,70,70,27,27,31,59,17,28,1.0,1.6
2025-11-23T1300,2865A,112.7195,37.6828,晋中市,榆次三中,颗粒物(PM10),114,178,132,41,59,74,74,27,27,26,53,15,28,0.8,1.5
2025-11-23T1300,4200A,112.7478,37.6954,晋中市,迎宾街26号,颗粒物(PM10),111,171,123,51,62,76,76,31,31,24,51,18,29,0.8,1.1
2025-11-23T1300,2439A,112.2014,31.0481,荆门市,竹园小学,细颗粒物(PM2.5),64,68,72,46,49,72,72,44,37,19,33,5,5,0,0.1
2025-11-23T1300,2440A,112.1969,30.9891,荆门市,掇刀,细颗粒物(PM2.5),62,65,74,44,50,75,75,73,52,15,28,2,1,0.4,0.4
2025-11-23T1300,2441A,112.2213,31.0386,荆门市,石化一小,颗粒物(PM10),68,86,82,44,54,70,70,49,32,22,34,7,9,0.4,0.4
2025-11-23T1300,3012A,112.1849,31.0362,荆门市,西山林语,细颗粒物(PM2.5),58,60,61,41,42,76,76,58,44,14,19,6,5,0.6,0.6
2025-11-23T1300,3547A,112.1632,31.0138,荆门市,龙泉中学南校,颗粒物(PM10),59,67,75,38,46,75,75,61,44,11,23,8,9,0.1,0.2
2025-11-23T1300,1844A,112.2494,30.3197,荆州市,市图书馆,细颗粒物(PM2.5),92,,68,68,60,71,71,30,30,22,48,8,7,0.7,0.9
2025-11-23T1300,1845A,112.2008,30.3544,荆州市,市委党校,细颗粒物(PM2.5),104,,72,78,57,59,59,20,20,24,50,9,7,0.7,0.8
2025-11-23T1300,3194A,112.2747,30.3122,荆州市,管委会,细颗粒物(PM2.5),84,,65,62,61,71,71,26,26,18,53,9,8,0.7,0.9
2025-11-23T1300,4268A,112.1722,30.3366,荆州市,学苑路85号,颗粒物(PM10),73,95,73,50,55,76,76,28,28,16,34,1,1,0.7,0.7
2025-11-23T1300,2342A,117.3102,29.3867,景德镇市,王港中学,,,,,,,,,,,,,,,,
2025-11-23T1300,2343A,117.2117,29.2933,景德镇市,老干部活动中心,细颗粒物(PM2.5),55,47,44,39,32,86,86,27,27,2,22,8,6,0.4,0.8
2025-11-23T1300,2344A,117.1894,29.2789,景德镇市,兽医站,,41,41,53,23,26,86,86,30,30,19,29,15,8,0.4,0.5
2025-11-23T1300,2346A,117.2461,29.2956,景德镇市,陶研所,,49,42,44,34,32,97,97,32,32,8,22,4,4,0.6,0.6
2025-11-23T1300,4289A,117.1542,29.2566,景德镇市,青少年活动中心,颗粒物(PM10),51,52,53,22,31,106,106,39,39,17,34,12,14,0.4,0.6
2025-11-23T1300,1803A,115.9872,29.6815,九江市,十里,细颗粒物(PM2.5),58,46,78,41,63,87,87,32,32,36,63,7,7,0.9,1.2
2025-11-23T1300,1804A,115.9584,29.7046,九江市,茅山头,,46,32,72,32,57,75,75,26,26,27,62,5,4,0.7,0.9
2025-11-23T1300,1805A,115.9877,29.7295,九江市,西园,,50,50,80,33,58,95,95,43,43,49,78,6,7,0.6,0.8
2025-11-23T1300,1808A,115.9114,29.6038,九江市,综合工业园,,40,,68,28,58,108,108,43,43,21,57,3,4,0.4,0.6
2025-11-23T1300,1809A,116.0721,29.7535,九江市,石化总厂,颗粒物(PM10),60,70,92,39,74,77,77,31,31,47,64,8,8,0.5,0.6
2025-11-23T1300,1810A,115.9773,29.5698,九江市,庐山气象台,,,,,,,,,,,,,,,,
2025-11-23T1300,3190A,116.0254,29.6994,九江市,外国语学校,,49,49,76,30,53,77,77,29,29,36,68,5,6,0.7,0.9
2025-11-23T1300,4253A,116.0102,29.6594,九江市,莲花大道8号,,,39,56,28,46,71,71,45,36,,31,,5,0.4,0.5
2025-11-23T1300,4240A,98.4958,39.7339,酒泉市,玉门东路5号,颗粒物(PM10),180,310,266,43,41,82,82,63,63,3,16,7,9,0.2,0.4
2025-11-23T1300,4241A,98.5099,39.7506,酒泉市,北大街108号,颗粒物(PM10),145,239,275,38,42,73,73,48,48,5,16,9,10,0.2,0.5
2025-11-23T1300,2698A,76.0072,39.4467,喀什地区,巡警大队,颗粒物(PM10),191,332,347,122,125,21,21,6,6,83,70,12,10,2.2,2.2
2025-11-23T1300,2699A,75.9755,39.4694,喀什地区,吾办,细颗粒物(PM2.5),214,348,310,164,132,15,15,5,5,98,73,18,9,2.3,2.3
2025-11-23T1300,4027A,75.9483,39.4689,喀什地区,老干局,颗粒物(PM10),333,446,342,134,119,26,26,11,11,75,66,15,7,2.2,2.9
2025-11-23T1300,1824A,114.3389,34.7781,开封市,肿瘤医院,颗粒物(PM10),72,93,76,40,34,63,63,52,52,29,34,15,14,0.6,0.5
2025-11-23T1300,1826A,114.2885,34.7965,开封市,世纪星幼儿园,颗粒物(PM10),68,86,71,47,42,60,60,51,51,26,33,12,11,0.8,0.7
2025-11-23T1300,3147A,114.3438,34.8106,开封市,龙亭公园,颗粒物(PM10),74,98,75,43,39,64,64,54,53,28,32,13,13,0.8,0.8
2025-11-23T1300,3210A,114.3644,34.7964,开封市,汴京公园,颗粒物(PM10),75,100,77,41,37,58,58,49,49,34,38,13,12,0.5,0.4
2025-11-23T1300,3473A,114.2485,34.8306,开封市,技师学院,颗粒物(PM10),67,84,65,38,34,61,61,53,46,32,34,11,11,0.8,0.7
2025-11-23T1300,3592A,114.4644,34.7556,开封市,祥符区生态环境局,颗粒物(PM10),75,100,82,48,41,62,62,45,42,36,44,10,10,0.5,0.4
2025-11-23T1300,1951A,84.895,45.6094,克拉玛依市,长征新村,,45,45,60,11,16,42,42,66,44,15,28,5,6,0.3,0.4
2025-11-23T1300,1952A,84.8988,45.5893,克拉玛依市,南林小区,,44,44,62,12,13,40,40,66,44,12,20,2,2,0.1,0.2
2025-11-23T1300,1954A,84.905,44.3396,克拉玛依市,独山子区,,40,40,50,9,11,53,53,48,35,11,14,7,6,0.3,0.2
2025-11-23T1300,1955A,85.6979,46.098,克拉玛依市,乌尔禾区商贸楼,,35,35,101,3,15,48,48,47,30,9,18,6,7,0.2,0.3
2025-11-23T1300,3612A,85.1045,45.6899,克拉玛依市,白碱滩区新站,,34,34,49,16,17,50,50,69,48,5,19,4,5,0.2,0.3
2025-11-23T1300,2697A,76.1454,39.7142,克孜勒苏柯尔克孜自治州,市人民政府,颗粒物(PM10),107,163,242,71,95,62,62,59,54,17,22,57,25,0.3,0.5
2025-11-23T1300,3665A,76.1658,39.7157,克孜勒苏柯尔克孜自治州,克州文化中心,颗粒物(PM10),131,212,252,81,100,58,58,60,54,28,25,22,27,1.0,1
2025-11-23T1300,1450A,102.8204,24.8886,昆明市,呈贡新区,,25,,27,17,24,72,72,28,28,8,23,4,4,0.4,0.5
2025-11-23T1300,1451A,102.6251,24.9608,昆明市,西山森林公园,,,,,,,,,,,,,,,,
2025-11-23T1300,1452A,102.7252,25.0902,昆明市,龙泉镇,,23,,29,10,14,73,73,27,27,10,24,3,3,0.3,0.5
2025-11-23T1300,1453A,102.7266,25.0375,昆明市,东风东路,,24,20,23,13,18,74,74,24,24,13,22,3,3,0.4,0.5
2025-11-23T1300,1454A,102.6742,25.0669,昆明市,金鼎山,,23,,37,14,16,72,72,32,32,11,23,3,3,0.4,0.5
2025-11-23T1300,1455A,102.6644,25.0401,昆明市,碧鸡广场,,22,16,25,11,17,68,68,29,29,12,27,3,4,0.4,0.5
2025-11-23T1300,3179A,102.7494,25.0119,昆明市,官渡区博物馆,,23,18,30,15,18,71,71,23,23,11,26,4,3,0.2,0.4
2025-11-23T1300,3375A,102.8017,24.8336,昆明市,青年创业园,,29,,16,20,13,77,77,30,30,4,17,3,3,0.2,0.3
2025-11-23T1300,3550A,102.7997,24.9786,昆明市,昆明学院,,22,19,31,11,19,69,69,24,24,8,22,3,2,0.3,0.5
2025-11-23T1300,3551A,102.5967,24.6736,昆明市,晋宁区生态环境分局,,25,12,23,3,16,78,78,38,38,4,14,2,2,0.4,0.5
2025-11-23T1300,3552A,102.6678,24.9856,昆明市,云天化总部,,23,16,18,9,11,71,71,33,33,9,24,6,5,0.5,0.5
2025-11-23T1300,1456A,91.1319,29.6514,拉萨市,八廓街,,32,19,20,8,9,101,101,78,78,3,11,6,7,0.2,0.3
2025-11-23T1300,1457A,91.1221,29.6747,拉萨市,市环保局,,27,22,21,3,9,86,86,58,58,9,16,7,8,0.5,0.7
2025-11-23T1300,1458A,91.0874,29.6475,拉萨市,区监测站,,30,16,16,7,7,96,96,74,74,8,18,6,6,0.3,0.4
2025-11-23T1300,1459A,91.1774,29.6541,拉萨市,西藏大学,,30,14,18,3,8,93,93,70,68,7,16,4,6,0.0,0.2
2025-11-23T1300,1460A,90.9798,29.6588,拉萨市,区辐射站,,26,21,28,8,12,83,83,61,58,12,25,7,6,0.4,0.5
2025-11-23T1300,1461A,91.0834,29.6292,拉萨市,拉萨火车站,,35,35,22,10,8,92,92,69,58,5,16,7,7,0.4,0.6
2025-11-23T1300,2520A,109.2203,23.7256,来宾市,来宾技工学校,细颗粒物(PM2.5),60,53,51,43,37,108,108,50,50,12,22,17,8,0.7,0.6
2025-11-23T1300,3535A,109.1781,23.7297,来宾市,兴宾区政府,细颗粒物(PM2.5),57,51,39,40,25,117,117,62,62,8,11,13,7,0.5,0.5
2025-11-23T1300,4002A,109.2416,23.7461,来宾市,中南小学,细颗粒物(PM2.5),55,57,53,39,35,111,111,48,48,10,30,17,7,0.7,0.7
2025-11-23T1300,1477A,104.1373,35.9454,兰州市,榆中兰大校区,,,,,,,,,,,,,,,,
2025-11-23T1300,1479A,103.831,36.0464,兰州市,铁路设计院,,,,,,,,,,,,,,,,
2025-11-23T1300,3241A,103.7439,36.0842,兰州市,百合公园,细颗粒物(PM2.5),113,101,104,85,66,68,68,20,20,48,69,39,29,0.9,1
2025-11-23T1300,3242A,103.9611,35.998,兰州市,和平,细颗粒物(PM2.5),100,114,97,75,61,55,55,23,23,44,48,17,13,1.3,1.1
2025-11-23T1300,4236A,103.6293,36.0938,兰州市,庄浪东路808号,颗粒物(PM10),101,152,100,75,61,75,75,25,25,99,76,40,26,1.7,1.1
2025-11-23T1300,4237A,103.7251,36.1043,兰州市,安宁西路88号,细颗粒物(PM2.5),102,114,122,76,68,82,82,25,25,53,78,38,28,1.1,1.2
2025-11-23T1300,4238A,103.8470,36.0676,兰州市,北滨河东路1号,细颗粒物(PM2.5),74,86,116,54,67,44,44,13,13,72,78,28,20,1.8,1.7
2025-11-23T1300,3245A,103.6633,36.533,兰州新区,新区管委会,细颗粒物(PM2.5),78,72,65,57,41,81,81,37,37,15,23,39,24,0.9,0.8
2025-11-23T1300,3246A,103.6975,36.4789,兰州新区,舟曲中学,细颗粒物(PM2.5),83,82,75,61,41,99,99,54,54,19,35,27,23,0.4,0.5
2025-11-23T1300,1067A,116.6708,39.5111,廊坊市,药材公司,颗粒物(PM10),94,137,166,68,110,43,43,12,12,54,80,10,12,0.6,1
2025-11-23T1300,1068A,116.7214,39.5589,廊坊市,开发区,颗粒物(PM10),108,165,177,74,114,40,40,13,13,59,81,8,8,0.6,1
2025-11-23T1300,1070A,116.7244,39.5269,廊坊市,北华航天学院,颗粒物(PM10),104,158,185,76,121,42,42,14,14,57,84,12,13,0.6,1.1
2025-11-23T1300,2919A,116.7022,39.5453,廊坊市,河北工业大学,颗粒物(PM10),109,167,173,79,110,38,38,13,13,56,79,10,12,0.7,1
2025-11-23T1300,2535A,103.7723,29.5462,乐山市,花湖湾,,,,,,,,,,,,,,,,
2025-11-23T1300,2536A,103.7627,29.5844,乐山市,牛耳桥,细颗粒物(PM2.5),100,86,104,75,86,42,42,10,10,20,33,9,8,0.9,0.9
2025-11-23T1300,2537A,103.7508,29.6006,乐山市,市第三水厂,细颗粒物(PM2.5),88,92,100,65,68,41,41,10,10,25,37,11,8,1.1,1.1
2025-11-23T1300,2538A,103.7571,29.5664,乐山市,市监测站,细颗粒物(PM2.5),100,95,98,75,77,42,42,12,12,19,33,10,8,0.9,1
2025-11-23T1300,3361A,103.7311,29.5628,乐山市,理工大学,细颗粒物(PM2.5),98,96,90,73,71,42,42,13,13,21,30,16,9,0.9,0.8
2025-11-23T1300,2598A,100.2143,26.8576,丽江市,西南郊,,23,18,15,6,8,73,73,47,47,2,9,5,6,0.7,0.9
2025-11-23T1300,2599A,100.2497,26.8802,丽江市,丽江古城,,23,17,24,10,12,72,72,50,50,9,14,9,9,0.5,0.6
2025-11-23T1300,2600A,100.2203,26.8906,丽江市,市中心,,24,9,12,3,8,75,75,57,57,10,14,8,8,0.4,0.5
2025-11-23T1300,1267A,119.914,28.4514,丽水市,监测站大楼,,46,46,47,31,35,100,100,39,39,26,34,6,5,0.5,0.6
2025-11-23T1300,1268A,119.93,28.4586,丽水市,莲都小学,,45,45,45,23,25,100,100,35,35,21,35,6,5,0.5,0.4
2025-11-23T1300,1269A,119.879,28.4231,丽水市,余庄前,,49,47,43,34,34,94,94,30,30,27,25,5,4,0.4,0.3
2025-11-23T1300,1173A,119.176,34.5885,连云港市,市环境监测站,细颗粒物(PM2.5),79,95,119,58,80,78,78,68,66,28,33,12,13,0.9,0.9
2025-11-23T1300,3000A,119.3581,34.6972,连云港市,德源药业,"颗粒物(PM10),细颗粒物(PM2.5)",70,90,113,51,68,79,79,64,56,27,35,8,8,0.5,0.5
2025-11-23T1300,3007A,119.178,34.844,连云港市,新城一中,细颗粒物(PM2.5),97,110,133,72,92,82,82,54,54,28,40,13,12,0.7,0.7
2025-11-23T1300,3008A,119.3608,34.7519,连云港市,胡沟管理处,颗粒物(PM10),73,95,94,51,55,71,71,82,72,37,35,11,12,0.6,0.6
2025-11-23T1300,3009A,119.1478,34.5911,连云港市,矿山设计院,细颗粒物(PM2.5),89,114,111,66,67,80,80,92,79,17,15,8,8,0.5,0.5
2025-11-23T1300,3434A,119.2413,34.6539,连云港市,工贸学校,细颗粒物(PM2.5),89,93,110,66,79,84,84,88,84,28,23,13,14,0.8,0.8
2025-11-23T1300,3664A,119.4172,34.7341,连云港市,连云街道,颗粒物(PM10),59,67,90,37,50,92,92,108,103,22,21,9,9,0.5,0.5
2025-11-23T1300,2571A,102.3431,27.8099,凉山彝族自治州,青龙寺,,,,,,,,,,,,,,,,
2025-11-23T1300,2572A,102.2721,27.8415,凉山彝族自治州,邛海宾馆,,,20,30,17,24,59,59,53,53,8,13,,8,0.7,0.8
2025-11-23T1300,2573A,102.2625,27.898,凉山彝族自治州,西昌市政府,,22,22,55,12,48,50,50,45,45,12,21,7,10,0.5,1
2025-11-23T1300,2574A,102.2685,27.8851,凉山彝族自治州,凉山州政府,,33,25,45,23,35,54,54,46,46,8,16,8,10,0.7,1
2025-11-23T1300,4229A,102.2342,27.8859,凉山彝族自治州,凯乐南路30号,,24,24,38,12,27,62,62,54,54,13,22,7,9,0.6,0.8
2025-11-23T1300,2212A,123.2,41.1953,辽阳市,宏伟区,细颗粒物(PM2.5),105,88,92,79,56,75,75,64,61,19,20,10,10,0.9,0.8
2025-11-23T1300,2213A,123.1683,41.2495,辽阳市,新华园,细颗粒物(PM2.5),110,97,88,83,62,64,64,57,50,29,28,8,7,0.5,0.5
2025-11-23T1300,2214A,123.2354,41.2639,辽阳市,滨河路,细颗粒物(PM2.5),109,107,98,82,66,63,63,56,52,26,25,9,10,0.8,0.8
2025-11-23T1300,2215A,123.149,41.2991,辽阳市,铁西工业园,细颗粒物(PM2.5),112,107,109,84,72,66,66,60,49,27,29,13,14,1.0,1
2025-11-23T1300,2227A,125.1358,42.8845,辽源市,环保局,颗粒物(PM10),88,126,117,62,60,95,95,54,54,21,36,6,4,0.9,1
2025-11-23T1300,3239A,125.0764,42.9078,辽源市,银鹰制药,细颗粒物(PM2.5),83,89,85,61,62,96,96,46,46,23,39,11,12,0.9,0.9
2025-11-23T1300,1625A,115.9848,36.4372,聊城市,区政府,细颗粒物(PM2.5),104,132,137,78,85,45,45,24,24,52,57,20,18,1.0,0.9
2025-11-23T1300,2878A,116.0072,36.4343,聊城市,聊大东校,细颗粒物(PM2.5),110,136,149,83,93,47,47,22,22,46,58,22,17,1.1,1
2025-11-23T1300,3200A,115.9819,36.4978,聊城市,监控中心,细颗粒物(PM2.5),100,129,136,75,84,53,53,29,29,49,54,20,18,1.2,1.1
2025-11-23T1300,3513A,116.0445,36.4361,聊城市,九州社区,颗粒物(PM10),86,122,149,63,87,61,61,31,31,37,51,13,12,0.9,0.9
2025-11-23T1300,4018A,116.0567,36.4608,聊城市,星美广场,颗粒物(PM10),86,122,149,63,84,59,59,32,32,35,45,10,9,0.7,0.7
2025-11-23T1300,2632A,94.3681,29.6376,林芝市,林芝监测站,,23,12,7,3,5,73,73,76,62,4,4,3,3,0.2,0.2
2025-11-23T1300,2633A,94.3616,29.6616,林芝市,林芝人民医院,,22,7,11,3,4,70,70,68,58,5,4,3,2,0.3,0.2
2025-11-23T1300,2603A,100.0781,23.8982,临沧市,市环保局,,26,,19,18,28,69,69,27,27,3,8,6,6,0.6,0.6
2025-11-23T1300,2604A,100.0894,23.8822,临沧市,市气象局,,22,12,19,8,12,70,70,29,29,5,9,9,10,0.4,0.5
2025-11-23T1300,1733A,111.5531,36.0783,临汾市,临钢医院,细颗粒物(PM2.5),144,209,154,110,86,44,44,13,13,53,45,18,16,2.2,1.9
2025-11-23T1300,1734A,111.5028,36.0714,临汾市,技工学校,细颗粒物(PM2.5),158,157,139,120,105,38,38,10,10,59,59,25,27,2.2,2.2
2025-11-23T1300,1736A,111.5018,36.0855,临汾市,市委,细颗粒物(PM2.5),158,213,203,120,105,44,44,13,13,50,52,29,30,2.3,2.4
2025-11-23T1300,3018A,111.505,36.1014,临汾市,唐尧大酒店,细颗粒物(PM2.5),153,173,179,117,103,48,48,15,15,51,53,21,21,2.0,2.2
2025-11-23T1300,4244A,111.4879,36.0530,临汾市,启星学校,细颗粒物(PM2.5),158,184,181,120,100,39,39,10,10,72,68,26,24,2.2,2.2
2025-11-23T1300,4271A,103.2464,35.6123,临夏回族自治州,滨河东路1号,颗粒物(PM10),95,140,140,55,92,57,57,19,19,11,17,8,6,0.7,1.3
2025-11-23T1300,4310A,103.2093,35.5995,临夏回族自治州,新华街21号,细颗粒物(PM2.5),122,131,143,92,98,63,63,20,20,22,31,10,10,0.7,1.3
2025-11-23T1300,1618A,118.3429,35.0532,临沂市,沂河小区,,,,,,,,,,,,,,,,
2025-11-23T1300,1619A,118.295,35.0583,临沂市,鲁南制药厂,细颗粒物(PM2.5),125,144,145,95,102,59,59,37,37,52,56,18,23,0.6,0.6
2025-11-23T1300,1620A,118.2794,34.9976,临沂市,新光毛纺厂,细颗粒物(PM2.5),118,136,151,89,103,59,59,32,32,47,60,18,26,0.8,0.8
2025-11-23T1300,1621A,118.3956,35.0888,临沂市,河东保险公司,细颗粒物(PM2.5),108,129,142,81,94,65,65,47,47,50,63,19,17,0.6,0.6
2025-11-23T1300,3370A,118.3564,35.0215,临沂市,十里堡居委,细颗粒物(PM2.5),94,129,161,70,96,54,54,31,31,53,62,24,30,0.8,0.8
2025-11-23T1300,3496A,118.3604,35.1084,临沂市,南坊新区,细颗粒物(PM2.5),117,134,129,88,89,60,60,50,47,53,49,18,18,0.9,0.9
2025-11-23T1300,3860A,118.3920,35.0300,临沂市,皇山花园小区,细颗粒物(PM2.5),99,129,152,74,92,60,60,41,41,48,53,22,26,0.7,0.7
2025-11-23T1300,1870A,109.4856,24.3895,柳州市,柳东小学,细颗粒物(PM2.5),62,60,42,44,31,110,110,70,69,8,14,13,14,0.3,0.3
2025-11-23T1300,1871A,109.4157,24.3277,柳州市,环保监测站,,40,35,68,28,45,106,106,45,45,9,34,12,17,0.4,0.7
2025-11-23T1300,1872A,109.389,24.341,柳州市,河西水厂,,,,78,,44,,,73,,,35,,20,,0.6
2025-11-23T1300,1873A,109.4311,24.2921,柳州市,市四中,,48,41,67,33,38,112,112,48,48,12,40,14,16,0.4,0.8
2025-11-23T1300,1874A,109.4006,24.3631,柳州市,市九中,细颗粒物(PM2.5),62,44,81,44,50,109,109,45,45,13,41,14,21,0.4,0.7
2025-11-23T1300,1875A,109.4958,24.3134,柳州市,古亭山,,49,42,41,34,32,112,112,47,47,7,40,13,14,0.5,0.5
2025-11-23T1300,3402A,109.5422,24.3996,柳州市,市二中,颗粒物(PM10),63,76,50,34,31,110,110,52,52,12,29,12,11,0.4,0.4
2025-11-23T1300,2307A,116.5079,31.737,六安市,监测大楼,,33,33,58,22,43,102,102,60,60,16,32,5,5,0.4,0.4
2025-11-23T1300,2308A,116.4738,31.7643,六安市,皖西学院,,41,41,63,22,41,107,107,63,63,13,35,4,3,0.4,0.5
2025-11-23T1300,2309A,116.4996,31.7905,六安市,朝阳厂,,37,37,56,24,40,98,98,67,67,18,36,6,5,0.4,0.4
2025-11-23T1300,2310A,116.5567,31.7886,六安市,开发区,,39,37,85,27,57,102,102,43,43,16,48,4,3,0.4,0.5
2025-11-23T1300,2576A,104.8,26.5892,六盘水市,窑上,,23,23,61,16,46,73,73,64,64,9,10,6,7,0.4,0.6
2025-11-23T1300,2577A,104.83,26.5917,六盘水市,黄土坡,,25,20,55,17,38,60,60,58,58,15,15,9,8,0.6,0.6
2025-11-23T1300,2578A,104.89,26.5939,六盘水市,水钢,,42,41,55,29,42,51,51,51,51,14,13,8,5,0.6,0.5
2025-11-23T1300,2579A,104.8475,26.5894,六盘水市,民中,,22,22,53,14,38,54,54,54,54,15,16,5,5,0.5,0.5
2025-11-23T1300,2580A,104.9544,26.5506,六盘水市,双水,,29,29,47,16,36,62,62,60,60,12,14,8,5,0.4,0.4
2025-11-23T1300,2335A,117.0189,25.1181,龙岩市,龙岩师专,,,,,,,,,,,,,,,,
2025-11-23T1300,2336A,117.0217,25.1033,龙岩市,龙岩市监测站,,45,45,32,22,24,118,118,60,60,11,23,9,11,0.4,0.5
2025-11-23T1300,2337A,117.0258,25.0661,龙岩市,闽西职业技术学院,,40,35,43,21,22,126,126,54,54,8,28,8,15,0.4,0.4
2025-11-23T1300,2338A,117.0196,25.0306,龙岩市,龙岩学院,,39,36,32,19,22,123,123,54,54,11,19,7,7,0.4,0.3
2025-11-23T1300,2665A,105.0822,33.3261,陇南市,汉王镇固水子,,,,,,,,,,,,,,,,
2025-11-23T1300,2885A,104.9339,33.3826,陇南市,滨江中学,,46,46,72,29,36,35,35,15,15,25,39,11,12,1.0,1.3
2025-11-23T1300,3247A,104.955,33.371,陇南市,市总工会,细颗粒物(PM2.5),68,83,79,49,38,33,33,19,17,33,35,12,7,1.0,0.8
2025-11-23T1300,2487A,111.9589,27.8901,娄底市,电视发射台,,,,,,,,,,,,,,,,
2025-11-23T1300,2488A,111.9975,27.725,娄底市,市监测站,细颗粒物(PM2.5),62,61,72,44,53,140,140,56,56,16,35,25,15,0.8,0.8
2025-11-23T1300,2489A,112.0194,27.7314,娄底市,市委党校,细颗粒物(PM2.5),68,50,76,49,55,124,124,56,56,14,32,14,11,0.6,0.8
2025-11-23T1300,2490A,111.9561,27.7569,娄底市,涟钢,颗粒物(PM10),54,58,72,35,52,110,110,51,51,33,22,35,10,1.8,1.1
2025-11-23T1300,2491A,111.9892,27.7044,娄底市,市政府,细颗粒物(PM2.5),64,57,71,46,57,116,116,48,48,26,22,28,15,2.2,1
2025-11-23T1300,1893A,105.4324,28.9634,泸州市,九狮山,,,,,,,,,,,,,,,,
2025-11-23T1300,1894A,105.4427,28.9063,泸州市,小市上码头,,,48,54,,48,41,41,25,25,18,17,9,9,0.6,0.5
2025-11-23T1300,1895A,105.4241,28.8573,泸州市,兰田宪桥,细颗粒物(PM2.5),69,,55,50,49,39,39,40,33,10,14,6,7,0.5,0.5
2025-11-23T1300,1896A,105.4379,28.8833,泸州市,市环监站,细颗粒物(PM2.5),52,47,53,36,40,42,42,52,41,20,21,7,7,0.6,0.5
2025-11-23T1300,4272A,105.3689,28.7783,泸州市,纳溪中医医院,颗粒物(PM10),65,80,61,41,48,41,41,36,29,14,21,8,8,0.6,0.6
2025-11-23T1300,2183A,111.1406,37.5211,吕梁市,环保局,颗粒物(PM10),86,122,93,37,34,54,54,16,16,30,52,13,9,0.5,0.7
2025-11-23T1300,2185A,111.1297,37.5136,吕梁市,自来水公司,颗粒物(PM10),79,108,133,36,42,51,51,17,17,33,51,11,16,0.5,0.7
2025-11-23T1300,2867A,111.1283,37.51,吕梁市,马茂庄小学,颗粒物(PM10),96,142,107,41,36,55,55,16,16,27,52,12,12,0.4,0.6
2025-11-23T1300,1812A,112.3931,34.6516,洛阳市,市委党校,颗粒物(PM10),63,75,78,41,53,65,65,45,45,28,40,10,10,0.4,0.5
2025-11-23T1300,1815A,112.494,34.6886,洛阳市,河南林校,颗粒物(PM10),74,98,100,38,58,58,58,36,36,31,47,13,16,0.7,0.9
2025-11-23T1300,1816A,112.3844,34.623,洛阳市,开发区管委会,颗粒物(PM10),64,78,83,29,52,73,73,44,44,22,33,12,12,0.4,0.5
2025-11-23T1300,1817A,112.4267,34.6258,洛阳市,市委新办公区,,,76,83,33,46,71,71,42,42,21,32,,11,0.5,0.6
2025-11-23T1300,3340A,112.6005,34.6326,洛阳市,伊滨,颗粒物(PM10),71,92,87,39,47,59,59,38,38,23,29,10,10,0.4,0.5
2025-11-23T1300,3341A,112.4951,34.6332,洛阳市,中移产业园,颗粒物(PM10),65,80,79,36,50,64,64,40,40,21,32,10,10,0.4,0.5
2025-11-23T1300,3593A,112.5736,34.8993,洛阳市,吉利监测站,颗粒物(PM10),63,76,73,34,44,73,73,50,45,21,31,9,10,0.4,0.5
2025-11-23T1300,3635A,112.3677,34.662,洛阳市,河科大西苑校区,,,78,83,31,43,69,69,48,48,,31,10,12,0.5,0.6
2025-11-23T1300,3636A,112.4388,34.6781,洛阳市,英才小学,颗粒物(PM10),71,91,106,48,66,55,55,32,32,31,46,12,17,0.7,0.9
2025-11-23T1300,4214A,112.4600,34.6949,洛阳市,春都路1号院,颗粒物(PM10),79,108,121,38,51,49,49,32,32,27,42,13,19,0.5,0.8
2025-11-23T1300,2399A,114.051,33.5699,漯河市,三五一五工厂,颗粒物(PM10),80,110,96,44,53,82,82,56,56,16,26,8,9,0.3,0.4
2025-11-23T1300,2400A,114.0055,33.5698,漯河市,漯河大学,颗粒物(PM10),94,137,96,34,54,87,87,54,54,19,32,8,8,0.3,0.4
2025-11-23T1300,2401A,114.0138,33.5828,漯河市,市水利局,颗粒物(PM10),85,119,82,29,48,79,79,54,54,21,27,9,10,0.2,0.3
2025-11-23T1300,2402A,114.0261,33.5698,漯河市,市广电局,颗粒物(PM10),90,129,91,28,49,84,84,56,56,14,26,8,9,0.4,0.4
2025-11-23T1300,3478A,113.9749,33.5664,漯河市,市图书馆,颗粒物(PM10),77,103,97,36,52,73,73,47,47,18,30,6,7,0.2,0.4
2025-11-23T1300,4250A,114.0892,33.5882,漯河市,韶山路11号,颗粒物(PM10),67,84,86,33,49,81,81,56,56,18,27,10,10,0.4,0.4
2025-11-23T1300,1798A,118.5092,31.6837,马鞍山市,湖东路四小,细颗粒物(PM2.5),99,111,122,74,78,88,88,37,37,46,63,11,8,1.0,1.2
2025-11-23T1300,1799A,118.5024,31.6449,马鞍山市,开发区,细颗粒物(PM2.5),118,127,135,89,98,88,88,32,32,50,62,12,7,1.1,1.1
2025-11-23T1300,1802A,118.6245,31.7241,马鞍山市,濮塘,,,,,,,,,,,,,,,,
2025-11-23T1300,3633A,118.4918,31.6809,马鞍山市,雨山,细颗粒物(PM2.5),117,105,124,88,89,98,98,39,39,42,53,12,10,0.9,1
2025-11-23T1300,4191A,118.5274,31.72227,马鞍山市,慈湖高新区,细颗粒物(PM2.5),117,123,127,88,94,85,85,36,36,52,57,12,9,1.1,1
2025-11-23T1300,1686A,111.0286,21.4688,茂名市,电白南海,颗粒物(PM10),52,53,63,24,26,127,127,87,87,12,21,12,15,1.0,1
2025-11-23T1300,1687A,110.9294,21.6533,茂名市,茂石化七小,颗粒物(PM10),54,58,59,29,33,128,128,66,66,17,25,18,19,0.5,0.6
2025-11-23T1300,1688A,110.9107,21.6687,茂名市,健康路,颗粒物(PM10),57,63,57,24,31,129,129,58,58,18,26,24,25,0.9,1
2025-11-23T1300,1689A,110.8592,21.6828,茂名市,高岭,颗粒物(PM10),57,63,69,27,29,121,121,,,16,22,16,19,0.7,0.7
2025-11-23T1300,3450A,111.01,21.5165,茂名市,电白水东,,44,44,49,22,27,119,119,86,86,12,18,11,17,0.5,0.6
2025-11-23T1300,2539A,104.0308,30.0478,眉山市,黑龙滩水库,,,,,,,,,,,,,,,,
2025-11-23T1300,2540A,103.8416,30.0874,眉山市,气象局,细颗粒物(PM2.5),85,67,124,63,101,71,71,19,19,22,40,14,13,0.8,0.9
2025-11-23T1300,3137A,103.8578,30.0744,眉山市,市委党校,细颗粒物(PM2.5),77,73,112,56,91,64,64,18,18,23,42,10,9,0.8,0.9
2025-11-23T1300,3148A,103.8291,30.0564,眉山市,区人社局,细颗粒物(PM2.5),89,78,118,66,96,69,69,18,18,16,37,11,11,1.1,1.2
2025-11-23T1300,1690A,116.1231,24.3284,梅州市,梅江月梅,,44,44,38,26,22,111,111,37,37,16,27,7,6,0.5,0.5
2025-11-23T1300,1691A,116.0797,24.2719,梅州市,梅县新城,,47,47,50,26,31,100,100,35,35,20,35,10,7,0.5,0.5
2025-11-23T1300,1692A,116.1248,24.2654,梅州市,环境监控中心,,46,46,45,26,31,101,101,35,35,16,38,7,19,0.6,0.7
2025-11-23T1300,3315A,116.1233,24.2991,梅州市,梅龙,,44,44,41,28,26,89,89,33,33,19,23,10,10,0.6,0.6
2025-11-23T1300,1878A,104.7778,31.4741,绵阳市,富乐山,细颗粒物(PM2.5),75,69,67,55,54,55,55,22,22,24,22,10,10,0.4,0.4
2025-11-23T1300,1880A,104.6697,31.4668,绵阳市,高新区自来水公司,细颗粒物(PM2.5),67,62,95,48,64,38,38,13,13,33,43,10,10,0.8,0.8
2025-11-23T1300,1881A,104.7287,31.5075,绵阳市,三水厂,细颗粒物(PM2.5),80,78,75,59,57,45,45,13,13,32,41,13,12,0.5,0.7
2025-11-23T1300,3491A,104.69,31.5322,绵阳市,西科大附属小学,细颗粒物(PM2.5),62,62,83,44,54,46,46,14,14,31,42,7,8,0.3,0.4
2025-11-23T1300,3492A,104.5648,31.5343,绵阳市,安州区旅游局,颗粒物(PM10),52,53,64,31,55,56,56,21,21,22,31,11,10,0.6,0.7
2025-11-23T1300,4226A,104.7651,31.4531,绵阳市,绵阳市气象局,,50,50,71,32,50,48,48,20,20,24,31,8,8,0.6,0.6
2025-11-23T1300,1784A,129.61,44.561,牡丹江市,环保大楼,细颗粒物(PM2.5),69,,33,50,30,85,85,60,60,17,18,10,10,0.6,0.5
2025-11-23T1300,1785A,129.6115,44.5782,牡丹江市,文化广场,颗粒物(PM10),54,58,46,35,29,91,91,62,62,24,27,10,10,0.8,0.6
2025-11-23T1300,1786A,129.5904,44.5963,牡丹江市,第一医院,细颗粒物(PM2.5),65,66,58,47,43,83,83,40,40,15,27,6,5,0.3,0.4
2025-11-23T1300,1787A,129.6364,44.6075,牡丹江市,机车工厂,细颗粒物(PM2.5),52,49,54,36,34,81,81,41,41,20,35,8,14,0.6,0.6
2025-11-23T1300,1788A,129.6386,44.5462,牡丹江市,第一中学,颗粒物(PM10),52,54,34,31,22,84,84,53,53,15,19,7,6,0.6,0.5
2025-11-23T1300,2531A,105.0703,29.61,内江市,市监测站,细颗粒物(PM2.5),85,,72,63,63,69,69,51,39,14,23,6,3,0.8,0.7
2025-11-23T1300,2532A,105.0717,29.5947,内江市,东兴区政府,细颗粒物(PM2.5),77,,68,56,60,62,62,40,30,16,26,6,3,0.6,0.6
2025-11-23T1300,2533A,105.0653,29.5817,内江市,内江二中,细颗粒物(PM2.5),85,79,78,63,64,61,61,36,28,16,28,8,5,0.8,0.8
2025-11-23T1300,2534A,105.0406,29.5822,内江市,内江日报社,细颗粒物(PM2.5),82,63,72,60,59,55,55,34,25,23,28,9,4,0.6,0.6
2025-11-23T1300,2628A,92.0657,31.4846,那曲市,那曲监测站,,33,27,46,16,27,104,104,50,50,7,23,6,11,0.6,1.3
2025-11-23T1300,4243A,92.0515,31.4787,那曲市,那曲市委宣传部,,28,,21,8,10,89,89,43,39,2,13,3,5,0.4,0.7
2025-11-23T1300,1290A,115.8931,28.6843,南昌市,省外办,细颗粒物(PM2.5),64,59,64,46,50,100,100,35,35,30,60,5,4,1.1,1.1
2025-11-23T1300,1291A,115.8886,28.7003,南昌市,省林业公司,,49,44,61,34,40,111,111,38,38,21,58,8,6,1.0,0.9
2025-11-23T1300,1292A,115.8126,28.7442,南昌市,林科所,颗粒物(PM10),54,58,44,36,26,111,111,63,63,28,44,10,6,1.0,0.7
2025-11-23T1300,1294A,115.8518,28.687,南昌市,建工学校,"颗粒物(PM10),细颗粒物(PM2.5)",55,59,70,39,44,99,99,36,36,37,66,14,11,0.9,0.9
2025-11-23T1300,1295A,115.8921,28.6424,南昌市,象湖,颗粒物(PM10),64,78,76,44,50,96,96,30,30,42,66,16,12,1.2,1.2
2025-11-23T1300,1296A,115.7423,28.7996,南昌市,武术学校,,,,,,,,,,,,,,,,
2025-11-23T1300,3046A,115.9084,28.6062,南昌市,机电学校,细颗粒物(PM2.5),70,80,89,51,56,102,102,33,33,48,68,14,12,0.9,1
2025-11-23T1300,3690A,115.9721,28.7031,南昌市,外国语学校,颗粒物(PM10),56,61,64,34,42,125,125,47,47,24,56,13,12,0.6,0.6
2025-11-23T1300,4192A,115.9316,28.68677,南昌市,南京东路235号,颗粒物(PM10),55,59,75,37,47,115,115,48,48,40,63,9,8,0.7,0.9
2025-11-23T1300,1905A,106.056,30.8064,南充市,西山风景区,,,,,,,,,,,,,,,,
2025-11-23T1300,1906A,106.0789,30.8023,南充市,南充市委,细颗粒物(PM2.5),117,104,99,88,79,48,48,13,13,18,30,5,5,0.6,0.6
2025-11-23T1300,1907A,106.1031,30.8217,南充市,南充炼油厂,细颗粒物(PM2.5),112,115,102,84,86,47,47,13,13,16,27,6,6,0.7,0.6
2025-11-23T1300,4227A,106.1083,30.7884,南充市,梨树横街98号,细颗粒物(PM2.5),117,102,96,88,77,52,52,17,17,14,26,6,6,0.5,0.6
2025-11-23T1300,4304A,106.1172,30.843,南充市,清泉寺北路188号,细颗粒物(PM2.5),107,89,83,80,66,46,46,14,14,18,24,5,5,0.6,0.6
2025-11-23T1300,4305A,106.067,30.7616,南充市,同庆路1号,细颗粒物(PM2.5),104,104,97,78,72,45,45,12,12,14,25,7,7,0.5,0.7
2025-11-23T1300,1151A,118.8086,32.1065,南京市,迈皋桥,细颗粒物(PM2.5),92,102,104,68,71,96,96,49,49,42,44,10,7,1.1,1
2025-11-23T1300,1152A,118.7538,32.0551,南京市,草场门,细颗粒物(PM2.5),94,95,110,70,75,89,89,34,34,52,76,14,12,0.9,1.2
2025-11-23T1300,1153A,118.7794,32.0745,南京市,山西路,细颗粒物(PM2.5),98,112,118,73,75,97,97,43,43,65,70,8,8,1.2,1.3
2025-11-23T1300,1154A,118.7752,32.0023,南京市,中华门,细颗粒物(PM2.5),98,100,99,73,74,95,95,35,35,48,56,4,4,1.8,1
2025-11-23T1300,1155A,118.8109,32.0309,南京市,瑞金路,细颗粒物(PM2.5),94,114,111,70,79,86,86,38,38,67,82,10,5,1.2,0.9
2025-11-23T1300,1156A,118.7997,32.0754,南京市,玄武湖,,,111,104,75,76,88,88,53,52,,52,4,4,1.6,1.3
2025-11-23T1300,1157A,118.6414,32.0931,南京市,浦口,细颗粒物(PM2.5),107,102,103,80,65,109,109,68,50,33,45,12,15,0.7,1
2025-11-23T1300,1158A,118.7356,31.9996,南京市,奥体中心,细颗粒物(PM2.5),85,95,105,63,74,119,119,38,38,46,90,28,14,2.3,1.2
2025-11-23T1300,1159A,118.9125,32.1028,南京市,仙林大学城,细颗粒物(PM2.5),85,100,105,63,74,88,88,39,39,44,64,18,9,1.7,1.1
2025-11-23T1300,3422A,118.8436,31.9198,南京市,江宁彩虹桥,颗粒物(PM10),66,81,91,46,60,135,135,42,42,18,69,8,6,0.8,0.7
2025-11-23T1300,3427A,118.8554,32.3578,南京市,六合雄州,细颗粒物(PM2.5),120,125,115,91,82,96,96,34,34,43,69,23,16,1.0,1
2025-11-23T1300,4249A,118.8708,31.3402,南京市,汶溪路181号,,,,80,47,82,99,99,58,58,108,100,11,10,0.7,0.7
2025-11-23T1300,4312A,119.019,31.6512,南京市,中山西路1号,细颗粒物(PM2.5),83,80,81,61,72,132,132,44,44,19,39,10,4,0.9,0.8
2025-11-23T1300,1401A,108.3103,22.7881,南宁市,二十一中,细颗粒物(PM2.5),62,59,52,44,38,96,96,31,31,21,33,8,9,0.3,0.5
2025-11-23T1300,1402A,108.3141,22.8528,南宁市,北湖,,45,42,57,31,38,121,121,47,47,16,45,11,17,0.5,0.7
2025-11-23T1300,1403A,108.3206,22.8225,南宁市,市监测站,颗粒物(PM10),58,65,54,30,33,101,101,34,34,21,41,10,16,0.5,0.6
2025-11-23T1300,1404A,108.3829,22.8037,南宁市,大自然花园,细颗粒物(PM2.5),52,48,50,36,31,117,117,46,46,13,33,9,9,0.4,0.5
2025-11-23T1300,1405A,108.4394,22.7904,南宁市,仙葫,,,,,,,,,,,,,,,,
2025-11-23T1300,1406A,108.2397,22.8467,南宁市,区农职院,,46,46,54,32,36,112,112,50,50,17,32,15,13,0.7,0.7
2025-11-23T1300,1407A,108.3275,22.735,南宁市,英华嘉园,,49,48,58,34,42,101,101,39,39,22,41,6,6,0.8,0.9
2025-11-23T1300,3401A,108.4834,22.7618,南宁市,红星社区,,48,37,43,33,28,128,128,57,57,11,31,9,9,0.5,0.6
2025-11-23T1300,4221A,108.2177,22.7774,南宁市,乐贤路16号,颗粒物(PM10),57,64,61,31,34,105,105,40,40,23,42,12,7,0.4,0.4
2025-11-23T1300,2331A,118.0966,26.6761,南平市,茫荡山,,,,25,,15,,,110,,,,,2,,
2025-11-23T1300,2332A,118.1681,26.6369,南平市,南平市监测站,,32,30,38,20,28,100,100,40,40,11,26,5,5,0.5,0.6
2025-11-23T1300,2333A,118.1825,26.6489,南平市,南平铝业有限公司,,31,24,34,20,29,97,97,33,33,11,30,5,6,0.5,0.5
2025-11-23T1300,2334A,118.1756,26.6272,南平市,南平七中,,47,47,36,19,31,104,104,39,39,10,21,9,6,0.6,0.6
2025-11-23T1300,1168A,120.9098,31.9663,南通市,狼山街道,细颗粒物(PM2.5),140,145,143,107,106,127,127,56,56,64,77,13,7,1.5,1.1
2025-11-23T1300,1169A,120.86,32.0005,南通市,虹桥,细颗粒物(PM2.5),158,142,144,120,122,137,137,79,79,61,72,15,14,2.0,1.6
2025-11-23T1300,1170A,120.87,32.02,南通市,城中,细颗粒物(PM2.5),152,155,160,116,120,137,137,74,74,56,74,15,14,1.6,1.4
2025-11-23T1300,1171A,120.94,31.93,南通市,星湖花园,细颗粒物(PM2.5),123,132,154,93,115,144,144,73,73,50,81,10,10,0.8,1
2025-11-23T1300,1172A,120.81,32.0417,南通市,紫琅学院,细颗粒物(PM2.5),150,144,164,115,123,150,150,84,84,45,76,10,13,1.1,1.4
2025-11-23T1300,3291A,121.067,32.062,南通市,通州监测站,细颗粒物(PM2.5),100,90,142,75,122,151,151,75,75,41,57,11,7,0.8,1
2025-11-23T1300,3432A,120.9348,31.9883,南通市,环境教育馆,细颗粒物(PM2.5),103,95,135,77,116,138,138,58,58,51,81,12,9,1.0,0.9
2025-11-23T1300,2404A,112.5224,33.0122,南阳市,瓦房庄,颗粒物(PM10),56,62,95,30,60,62,62,27,27,22,35,10,9,0.6,0.6
2025-11-23T1300,2405A,112.5003,32.9735,南阳市,汉画馆,颗粒物(PM10),54,58,97,24,56,63,63,26,26,23,45,10,8,0.7,0.6
2025-11-23T1300,2406A,112.5573,33.027,南阳市,气象站,颗粒物(PM10),58,65,107,29,56,64,64,27,27,25,41,11,11,0.7,0.7
2025-11-23T1300,2407A,112.5481,32.9689,南阳市,理工学院,颗粒物(PM10),56,62,99,22,50,60,60,26,26,24,43,10,9,0.7,0.7
2025-11-23T1300,4008A,112.5234,32.9922,南阳市,卧龙区政府,,50,50,101,33,61,58,58,25,25,21,39,10,8,0.7,0.6
2025-11-23T1300,1234A,121.8358,29.911,宁波市,区环保大楼,,35,28,112,24,81,102,102,49,49,23,64,7,8,0.6,1.1
2025-11-23T1300,1235A,121.56,29.82,宁波市,万里学院,,39,38,128,27,95,121,121,56,56,18,74,8,9,0.4,0.8
2025-11-23T1300,1236A,121.713,29.9572,宁波市,龙赛医院,,35,33,148,19,103,110,110,56,56,27,74,4,7,0.6,1.1
2025-11-23T1300,1239A,121.633,29.7733,宁波市,钱湖水厂,,35,28,97,24,73,112,112,64,61,16,31,7,8,0.6,1
2025-11-23T1300,1240A,121.5856,29.8635,宁波市,太古小学,,38,38,137,25,93,118,118,59,59,13,70,4,6,0.6,1.1
2025-11-23T1300,1241A,121.524,29.8674,宁波市,市环境监测中心,,46,46,117,28,86,115,115,65,65,22,63,8,10,0.6,1
2025-11-23T1300,2871A,121.6147,29.9017,宁波市,万里国际学校,,43,43,134,24,98,121,121,71,71,23,75,5,8,0.7,1.2
2025-11-23T1300,3710A,121.5594,29.8975,宁波市,白沙活动中心,颗粒物(PM10),51,51,127,25,93,118,118,63,63,24,78,6,8,0.6,1
2025-11-23T1300,2339A,119.5001,26.6946,宁德市,金涵水库,,,,39,,25,,,64,,,13,,3,,0.5
2025-11-23T1300,2341A,119.5388,26.6612,宁德市,宁德市监测站,颗粒物(PM10),57,64,39,23,27,101,101,66,66,23,20,7,8,0.6,0.7
2025-11-23T1300,3209A,119.5231,26.6562,宁德市,宁德一中,,44,44,42,30,28,107,107,68,68,17,16,7,8,1.0,1.1
2025-11-23T1300,2618A,98.8601,25.8567,怒江傈僳族自治州,州监测站,,22,22,28,11,21,33,33,16,16,10,12,7,6,0.3,0.4
2025-11-23T1300,2619A,98.8546,25.8417,怒江傈僳族自治州,泸水一中,,28,28,20,19,18,27,27,10,10,11,14,7,7,0.4,0.5
2025-11-23T1300,1888A,101.6891,26.571,攀枝花市,弄弄坪,颗粒物(PM10),52,54,60,34,32,53,53,14,14,20,30,27,20,0.9,1.1
2025-11-23T1300,1889A,101.5769,26.5928,攀枝花市,河门口,颗粒物(PM10),53,56,60,33,34,48,48,16,16,26,25,48,23,2.7,1.4
2025-11-23T1300,1890A,101.7169,26.585,攀枝花市,炳草岗,颗粒物(PM10),52,54,57,24,31,54,54,13,13,18,30,27,16,0.8,0.9
2025-11-23T1300,1891A,101.7369,26.5008,攀枝花市,仁和,,35,34,51,24,34,57,57,16,16,16,19,19,15,1.1,1.1
2025-11-23T1300,2835A,101.7227,26.567,攀枝花市,四十中小,颗粒物(PM10),53,55,51,35,32,58,58,18,18,14,28,31,26,0.9,1.1
2025-11-23T1300,1604A,122.0303,41.1489,盘锦市,开发区,细颗粒物(PM2.5),162,,87,123,93,50,50,25,25,29,34,8,7,1.1,1.1
2025-11-23T1300,1605A,122.0485,41.0883,盘锦市,兴隆台,细颗粒物(PM2.5),147,,72,112,85,48,48,29,19,,38,,8,1.2,1.2
2025-11-23T1300,1606A,121.8297,41.1028,盘锦市,新生街道,细颗粒物(PM2.5),115,114,78,87,91,40,40,18,16,68,51,14,9,1.5,1.1
2025-11-23T1300,1832A,113.3257,33.742,平顶山市,新华旅馆,颗粒物(PM10),67,83,104,21,55,75,75,33,33,15,37,8,9,0.4,0.5
2025-11-23T1300,1833A,113.2919,33.737,平顶山市,规划设计院,颗粒物(PM10),65,80,115,33,60,74,74,32,32,17,40,7,7,0.4,0.6
2025-11-23T1300,1834A,113.182,33.774,平顶山市,平顶山工学院,颗粒物(PM10),62,74,88,41,50,72,72,42,42,29,38,11,9,0.5,0.5
2025-11-23T1300,3204A,113.3025,33.73,平顶山市,规划局,颗粒物(PM10),64,78,110,32,58,74,74,33,33,19,42,8,9,0.4,0.6
2025-11-23T1300,3594A,112.8867,33.9116,平顶山市,石龙区,颗粒物(PM10),80,110,101,27,43,96,96,38,38,10,53,6,9,0.1,0.3
2025-11-23T1300,2656A,106.6692,35.5461,平凉市,聚贤嘉苑,,32,29,45,11,22,102,102,66,66,5,26,6,5,0.5,0.6
2025-11-23T1300,2657A,106.7021,35.5307,平凉市,博物馆,,34,34,45,17,27,101,101,52,52,6,26,12,12,0.5,0.7
2025-11-23T1300,2347A,114.0997,27.5002,萍乡市,武功山,,,,,,,,,,,,,,,,
2025-11-23T1300,2348A,113.8385,27.6434,萍乡市,中医院,颗粒物(PM10),51,52,65,33,35,126,126,50,50,24,37,10,7,1.1,1.1
2025-11-23T1300,2349A,113.8493,27.6253,萍乡市,市政府车库,细颗粒物(PM2.5),55,48,56,39,43,129,129,53,53,21,32,13,10,1.2,1.1
2025-11-23T1300,2350A,113.8676,27.6435,萍乡市,市环保局,颗粒物(PM10),58,66,60,40,37,150,150,53,53,16,25,18,17,1.2,1.1
2025-11-23T1300,2351A,113.866,27.6198,萍乡市,安源区政府,细颗粒物(PM2.5),59,53,57,42,47,130,130,50,50,17,26,16,12,1.2,1.1
2025-11-23T1300,2319A,119.0141,25.4325,莆田市,荔城区仓后路,,39,39,36,16,21,116,116,94,92,10,12,3,3,0.5,0.5
2025-11-23T1300,2320A,119.0015,25.4553,莆田市,莆田市监测站,,46,46,29,18,16,119,119,107,106,11,11,4,4,0.4,0.4
2025-11-23T1300,2321A,119.1119,25.4561,莆田市,涵江区六中,,36,36,34,13,20,111,111,89,88,6,12,3,4,0.4,0.5
2025-11-23T1300,2322A,119.1013,25.3215,莆田市,秀屿区政府,,40,39,41,23,27,126,126,95,95,10,17,5,4,0.3,0.3
2025-11-23T1300,2323A,118.981,25.4792,莆田市,东圳水库,,,,25,,19,,,120,,,9,,4,,0.7
2025-11-23T1300,2392A,115.0312,35.7636,濮阳市,环保局,颗粒物(PM10),76,102,87,50,50,38,38,21,20,42,46,11,13,0.9,0.9
2025-11-23T1300,2394A,115.0574,35.7609,濮阳市,油田运输公司,颗粒物(PM10),79,107,96,52,50,42,42,22,22,47,53,13,14,0.7,0.7
2025-11-23T1300,3021A,115,35.7668,濮阳市,濮水河管理处,,,112,101,56,65,33,33,14,13,,41,,11,0.3,0.4
2025-11-23T1300,4216A,115.0924,35.7686,濮阳市,任丘路479号,颗粒物(PM10),80,110,108,48,56,42,42,19,19,43,50,12,12,0.8,0.7
2025-11-23T1300,2601A,100.98,22.7633,普洱市,市环保局,,35,35,30,13,14,54,54,25,25,5,8,4,4,0.3,0.3
2025-11-23T1300,2602A,100.9817,22.8322,普洱市,普洱第二中学,,25,25,27,11,16,61,61,24,24,5,11,4,4,0.2,0.3
2025-11-23T1300,2262A,131.0518,45.8751,七台河市,新一中,,,,,,,,,,,,,,,,
2025-11-23T1300,3345A,131.0577,45.7879,七台河市,中波台,颗粒物(PM10),54,57,39,32,26,79,79,66,65,13,12,8,7,0.5,0.5
2025-11-23T1300,3637A,131.0176,45.7761,七台河市,人民广场,颗粒物(PM10),59,68,46,32,31,75,75,59,56,16,18,9,8,0.6,0.5
2025-11-23T1300,3684A,130.8781,45.8222,七台河市,新建矿广场,颗粒物(PM10),56,61,46,30,26,76,76,55,55,15,18,8,7,0.6,0.4
2025-11-23T1300,1779A,123.9305,47.3636,齐齐哈尔市,安居小区,,50,41,65,35,34,60,60,30,,12,22,10,11,0.3,0.4
2025-11-23T1300,1780A,123.9488,47.3386,齐齐哈尔市,中心广场,,40,40,49,24,23,60,60,58,54,22,18,9,8,0.4,0.4
2025-11-23T1300,1781A,123.9483,47.3227,齐齐哈尔市,农牧车辆厂,,44,44,56,14,25,58,58,47,47,10,13,6,6,0.3,0.4
2025-11-23T1300,1783A,123.945,47.2988,齐齐哈尔市,市环境监测站,,48,48,63,25,32,67,67,50,50,11,19,7,8,0.5,0.6
2025-11-23T1300,3662A,123.6333,47.2075,齐齐哈尔市,富区青少年活动中心,,35,35,77,7,35,56,56,33,33,10,29,5,13,0.5,1
2025-11-23T1300,2591A,107.9783,26.5747,黔东南苗族侗族自治州,市环境监测站,,36,30,35,25,28,68,68,38,38,7,19,5,7,0.4,0.5
2025-11-23T1300,2881A,107.8908,26.5311,黔东南苗族侗族自治州,凯里学院,,36,29,32,25,25,70,70,37,37,9,16,4,5,0.3,0.4
2025-11-23T1300,2593A,107.5228,26.2403,黔南布依族苗族自治州,小围寨,细颗粒物(PM2.5),62,61,36,44,27,65,65,45,45,7,9,12,10,0.6,0.6
2025-11-23T1300,3538A,107.5175,26.2978,黔南布依族苗族自治州,沙坝,细颗粒物(PM2.5),58,61,42,41,30,63,63,34,34,10,16,11,8,0.7,0.6
2025-11-23T1300,2589A,104.9022,25.0925,黔西南布依族苗族自治州,场坝街,,31,31,40,14,30,77,77,51,51,10,13,5,6,0.4,0.5
2025-11-23T1300,2590A,104.8811,25.0992,黔西南布依族苗族自治州,坪东大道,,25,13,38,10,28,77,77,47,47,8,16,4,4,0.4,0.5
