timepoint,stationcode,longitude,latitude,area,positionname,primarypollutant,aqi,pm10,pm10_24h,pm2_5,pm2_5_24h,o3,o3_24h,o3_8h,o3_8h_24h,no2,no2_24h,so2,so2_24h,co,co_24h
2024-07-28T2000,2566A,102.1879,31.914,阿坝藏族羌族自治州,州农科所,,18,18,35,6,9,38,,51,50,16,11,6,6,0,0
2024-07-28T2000,2568A,102.2502,31.8896,阿坝藏族羌族自治州,马师校,,22,22,14,11,10,37,,63,61,15,13,4,4,0.4,0.4
2024-07-28T2000,3994A,102.2165,31.9024,阿坝藏族羌族自治州,马尔康中学西区,,30,,13,21,9,64,,66,66,5,6,4,4,0.3,0.4
2024-07-28T2000,2695A,80.292,41.1694,阿克苏地区,电视台,颗粒物(PM10),62,73,88,20,27,127,,132,132,12,23,4,5,0.4,0.6
2024-07-28T2000,2696A,80.2613,41.1551,阿克苏地区,艺术中心,颗粒物(PM10),52,53,85,25,31,125,,134,134,8,27,3,4,0.4,0.7
2024-07-28T2000,2204A,105.6467,38.8363,阿拉善盟,西城区西花园,颗粒物(PM10),56,62,54,20,17,130,,149,148,9,7,9,10,0.7,0.7
2024-07-28T2000,2205A,105.6985,38.8411,阿拉善盟,蒙二幼,颗粒物(PM10),83,115,81,27,20,120,,135,132,9,8,8,10,0.7,0.6
2024-07-28T2000,2206A,105.724,38.8516,阿拉善盟,环保局新楼,颗粒物(PM10),75,100,65,27,20,127,,141,140,8,6,9,10,0.5,0.5
2024-07-28T2000,2708A,88.1264,47.8517,阿勒泰地区,市站,,35,20,23,7,8,110,,108,108,14,14,7,7,0.6,0.6
2024-07-28T2000,2630A,80.1161,32.5,阿里地区,阿里监测站,,42,9,9,6,4,133,,129,129,6,6,6,6,0.3,0.3
2024-07-28T2000,3192A,80.0903,32.5028,阿里地区,阿里藏医院,,40,13,15,11,11,126,,123,123,5,6,6,9,0.3,0.3
2024-07-28T2000,2642A,109.0318,32.6537,安康市,香溪洞,,35,34,31,22,16,110,,116,116,4,5,5,5,0.8,0.7
2024-07-28T2000,2643A,109.0281,32.6939,安康市,安康市监测站,,42,42,37,19,17,97,,113,113,9,8,5,5,0.6,0.5
2024-07-28T2000,2644A,109.0072,32.6975,安康市,汉滨区检察院,,44,44,31,27,17,89,,110,110,11,8,7,7,0.6,0.5
2024-07-28T2000,2291A,117.0809,30.5177,安庆市,环科院,,19,,11,13,7,30,,54,49,25,22,6,5,0.5,0.5
2024-07-28T2000,2292A,117.0331,30.5119,安庆市,马山宾馆,,16,11,11,6,5,51,,54,54,14,18,17,8,0.5,0.4
2024-07-28T2000,2294A,116.9896,30.6145,安庆市,安庆大学,,17,17,13,6,6,40,,61,57,8,12,8,8,0.3,0.3
2024-07-28T2000,3173A,117.0598,30.5351,安庆市,市人大,,19,19,12,11,9,42,,55,54,10,11,7,7,0.4,0.3
2024-07-28T2000,3122A,105.9606,26.2611,安顺市,伍家关,,,,,,,,,,,,,,,,
2024-07-28T2000,3123A,105.9408,26.2431,安顺市,凤凰山,,25,14,19,13,14,80,,95,94,4,7,7,7,0.5,0.5
2024-07-28T2000,3124A,105.9439,26.2564,安顺市,金钟山,,27,18,30,14,16,84,,101,99,5,6,6,6,0.6,0.6
2024-07-28T2000,3125A,105.8983,26.2481,安顺市,娄家坡,,28,15,21,14,15,87,,90,90,5,7,6,6,0.5,0.6
2024-07-28T2000,1818A,114.4839,36.0621,安阳市,棉研所,,,,,,,,,,,,,,,,
2024-07-28T2000,1819A,114.3551,36.1017,安阳市,红庙街,,27,26,22,10,9,84,,87,87,1,3,3,2,0.4,0.3
2024-07-28T2000,1820A,114.361,36.0681,安阳市,银杏小区,,,23,20,,,83,,88,88,2,2,3,3,0.4,0.4
2024-07-28T2000,3141A,114.3922,36.0878,安阳市,信访局,,30,28,19,16,10,93,,94,94,2,2,3,1,0.7,0.7
2024-07-28T2000,3669A,114.4705,36.0637,安阳市,左辅环卫站,,29,,9,20,12,85,,87,87,3,3,6,9,0.5,0.4
2024-07-28T2000,3703A,114.2917,36.0949,安阳市,安钢职工学校,,36,36,27,12,13,82,,88,87,1,4,3,3,0.3,0.5
2024-07-28T2000,1748A,123.044,41.1196,鞍山市,深沟寺,,20,17,12,14,4,53,,50,50,16,6,3,2,1.0,0.5
2024-07-28T2000,1749A,123.011,41.0931,鞍山市,太阳城,,19,18,13,13,5,49,,48,48,13,4,4,4,1.1,0.6
2024-07-28T2000,1750A,123.0485,41.1442,鞍山市,太平,,19,19,12,13,6,56,,45,45,15,11,3,3,1.2,0.8
2024-07-28T2000,1751A,122.9642,41.0971,鞍山市,铁西三道街,,20,20,11,9,6,56,,44,44,13,13,2,2,1.1,0.8
2024-07-28T2000,1752A,122.9341,41.0833,鞍山市,铁西工业园区,,25,18,13,17,7,48,,40,40,9,9,1,1,1.1,0.8
2024-07-28T2000,1753A,123.022,41.0821,鞍山市,明达新区,,,16,10,,,44,,47,47,18,4,3,3,1.6,0.6
2024-07-28T2000,1754A,123.1289,41.0228,鞍山市,千山,,,,,,,,,,,,,,,,
2024-07-28T2000,2195A,107.4212,40.761,巴彦淖尔市,附二中,颗粒物(PM10),58,65,46,26,21,109,,121,121,22,16,3,9,0.6,0.5
2024-07-28T2000,2196A,107.37,40.7372,巴彦淖尔市,市环保大楼,颗粒物(PM10),59,67,56,16,12,97,,114,112,18,15,4,7,0.5,0.5
2024-07-28T2000,1956A,86.1472,41.7538,巴音郭楞蒙古自治州,孔雀公园,,50,50,60,15,15,124,,134,134,4,14,4,6,0.2,0.2
2024-07-28T2000,1957A,86.1972,41.7166,巴音郭楞蒙古自治州,棉纺厂,颗粒物(PM10),53,55,58,23,17,135,,137,137,7,13,4,5,0.3,0.3
2024-07-28T2000,1958A,86.2357,41.7173,巴音郭楞蒙古自治州,经济开发区,,39,37,54,15,18,124,,128,128,7,6,4,6,0.2,0.2
2024-07-28T2000,2914A,106.7677,31.8794,巴中市,苏山坪,,36,36,34,24,20,62,,73,73,8,10,4,4,0.6,0.6
2024-07-28T2000,3182A,106.7656,31.8545,巴中市,丽阳花园,,45,40,35,31,22,63,,81,81,12,15,3,3,0.6,0.6
2024-07-28T2000,3183A,106.7418,31.8654,巴中市,圣泉水务公司,,41,41,32,28,23,59,,74,74,10,13,4,4,0.7,0.6
2024-07-28T2000,3616A,106.7616,31.8344,巴中市,市中心医院,,38,37,37,26,24,65,,84,84,11,14,4,5,0.6,0.7
2024-07-28T2000,2235A,122.7911,45.6077,白城市,洮北区环保局,,19,15,12,6,10,60,,74,70,7,7,4,6,0.4,0.3
2024-07-28T2000,2236A,122.8738,45.5725,白城市,市环保局,,22,22,21,8,4,68,,81,79,8,7,6,5,0.4,0.4
2024-07-28T2000,2231A,126.4219,41.9171,白山市,喜丰,,14,12,12,3,3,43,,26,26,10,11,9,9,0.8,1.1
2024-07-28T2000,2232A,126.4077,41.9419,白山市,环保局,,16,14,16,3,4,50,,24,23,5,14,7,8,0.7,0.6
2024-07-28T2000,2647A,104.1724,36.5446,白银市,第三小学,,41,29,34,8,14,131,,135,135,10,18,7,25,0.7,0.7
2024-07-28T2000,2648A,104.1465,36.5482,白银市,动力公司,,42,22,26,12,15,133,,134,134,6,16,6,11,0.5,0.5
2024-07-28T2000,2512A,106.6103,23.9011,百色市,市监测站,,25,20,29,14,18,79,,84,84,9,9,10,8,0.7,0.7
2024-07-28T2000,2513A,106.6538,23.8859,百色市,市中心血站,,28,28,33,15,21,63,,79,79,18,12,12,6,0.7,0.8
2024-07-28T2000,3406A,106.6085,23.8798,百色市,祈福高中,,27,27,37,14,19,69,,77,77,15,10,3,2,0.7,0.9
2024-07-28T2000,2270A,117.396,32.939,蚌埠市,工人疗养院,,20,14,17,3,1,62,,72,70,2,5,7,7,0.2,0.3
2024-07-28T2000,2271A,117.3605,32.9427,蚌埠市,百货大楼,,24,24,20,3,2,64,,81,77,2,4,6,6,0.3,0.3
2024-07-28T2000,2273A,117.4185,32.8911,蚌埠市,蚌埠学院,,19,12,11,3,3,58,,84,78,9,4,6,6,0.3,0.4
2024-07-28T2000,2274A,117.3533,32.9673,蚌埠市,淮上区政府,,22,17,15,3,5,69,,86,81,3,6,7,8,0.3,0.4
2024-07-28T2000,2275A,117.3145,32.8977,蚌埠市,高新区,,22,22,16,3,5,63,,82,77,6,4,7,6,0.5,0.5
2024-07-28T2000,3715A,117.3092,32.9314,蚌埠市,蚌埠田家炳中学,,21,21,20,9,5,63,,76,73,2,2,7,7,0.4,0.4
2024-07-28T2000,1585A,109.8756,40.6532,包头市,市环境监测站,,25,24,21,14,7,80,,147,142,50,17,7,9,0.8,0.6
2024-07-28T2000,1587A,109.9991,40.5842,包头市,包头八中,,35,21,25,11,8,110,,135,132,18,19,27,11,0.5,0.5
2024-07-28T2000,1588A,109.8538,40.6821,包头市,青山宾馆,,34,34,17,12,5,53,,133,122,52,18,8,8,0.7,0.4
2024-07-28T2000,1589A,109.8642,40.6288,包头市,惠龙物流,,33,24,18,6,6,105,,156,152,24,14,12,14,0.5,0.4
2024-07-28T2000,1590A,110.0377,40.5546,包头市,东河鸿龙湾,,33,30,23,3,9,105,,139,136,21,19,9,14,0.6,0.9
2024-07-28T2000,3283A,109.9154,40.5685,包头市,滨河大厦,,38,14,19,12,6,119,,152,149,12,22,8,10,0.5,0.6
2024-07-28T2000,3419A,109.9447,40.6261,包头市,包头市委党校,,39,18,21,12,6,122,,149,146,17,21,10,6,0.4,0.4
2024-07-28T2000,3683A,109.8331,40.6576,包头市,昆区政府,,31,31,17,13,6,78,,132,128,44,14,7,6,0.9,0.6
2024-07-28T2000,1930A,107.185,34.3063,宝鸡市,庙沟村,,36,36,41,22,21,113,,120,120,5,7,5,5,0.4,0.4
2024-07-28T2000,1931A,107.0708,34.3017,宝鸡市,竹园沟,,38,38,36,19,20,71,,105,96,18,14,4,4,0.7,0.7
2024-07-28T2000,1932A,107.1906,34.3672,宝鸡市,三陆医院,颗粒物(PM10),53,56,57,21,28,65,,123,119,26,23,8,9,0.5,0.5
2024-07-28T2000,1933A,107.1431,34.3547,宝鸡市,监测站,,,,,,,,,,,,,,,,
2024-07-28T2000,1934A,107.1186,34.3739,宝鸡市,技工学校,,45,37,55,31,28,83,,113,111,14,13,8,9,0.6,0.7
2024-07-28T2000,1935A,107.3906,34.3528,宝鸡市,陈仓区环保局家属楼,颗粒物(PM10),67,84,54,18,23,99,,150,148,23,19,8,8,0.2,0.5
2024-07-28T2000,1936A,107.2058,34.3497,宝鸡市,文理学院,颗粒物(PM10),73,96,73,18,26,80,,130,123,26,19,4,4,0.4,0.4
2024-07-28T2000,1937A,107.2386,34.3622,宝鸡市,三迪小学,颗粒物(PM10),63,76,64,14,25,66,,130,125,33,20,8,8,0.6,0.6
2024-07-28T2000,1051A,115.493,38.8632,保定市,游泳馆,,42,40,32,16,11,133,,139,139,2,3,4,5,0.1,0.1
2024-07-28T2000,1052A,115.5213,38.8959,保定市,华电二区,,42,32,34,19,12,134,,141,141,2,8,3,5,0.5,0.4
2024-07-28T2000,1053A,115.4713,38.9108,保定市,接待中心,,46,46,36,17,12,122,,134,133,4,6,3,3,0.2,0.2
2024-07-28T2000,1054A,115.4612,38.8416,保定市,地表水厂,颗粒物(PM10),52,53,39,14,12,116,,124,124,3,3,1,1,0.5,0.5
2024-07-28T2000,3581A,115.31981,38.95208,保定市,满城区生态环境分局,,48,48,37,14,13,119,,131,131,13,15,2,1,0.0,0.1
2024-07-28T2000,3582A,115.47694,38.76408,保定市,清苑区第二中学,,45,45,41,28,20,100,,123,122,5,8,1,2,0.3,0.3
2024-07-28T2000,3583A,115.62909,39.02311,保定市,徐水物探局,颗粒物(PM10),52,54,31,12,8,107,,144,142,16,9,3,3,0.2,0.1
2024-07-28T2000,4004A,115.4202,38.8656,保定市,双鹰农机,,40,39,25,26,16,126,,142,140,10,7,6,5,0.3,0.3
2024-07-28T2000,4034A,115.5150,38.8590,保定市,植保所站,,46,34,25,29,15,146,,154,154,4,7,4,4,0.2,0.1
2024-07-28T2000,2594A,99.1678,25.1081,保山市,市环境监测站,,20,20,31,14,12,63,,70,70,5,6,7,6,0.4,0.4
2024-07-28T2000,2595A,99.1711,25.1328,保山市,市环保局,,22,21,24,12,8,70,,75,75,3,4,8,7,0.3,0.3
2024-07-28T2000,1866A,109.2262,21.588,北海市,牛尾岭水库,,,,,,,,,,,,,,,,
2024-07-28T2000,1867A,109.1436,21.4086,北海市,海滩公园,,15,14,30,7,4,46,,62,60,19,5,3,3,0.7,0.6
2024-07-28T2000,1868A,109.0981,21.4661,北海市,新市环保局,,19,19,17,12,8,49,,60,56,18,6,2,2,0.7,0.6
2024-07-28T2000,1869A,109.1778,21.5233,北海市,北海工业园,,36,36,27,22,13,10,,56,45,40,10,14,6,0.9,0.5
2024-07-28T2000,3400A,109.1911,21.4415,北海市,龙潭自来水厂,,17,15,18,10,10,24,,58,52,34,8,6,6,0.9,0.6
2024-07-28T2000,1001A,116.3621,39.8784,北京市,万寿西宫,,41,34,20,22,15,131,,144,142,11,12,3,3,0.6,0.6
2024-07-28T2000,1002A,116.2202,40.2915,北京市,定陵,,28,28,20,16,13,72,,138,131,6,6,3,3,0.5,0.6
2024-07-28T2000,1003A,116.4174,39.9289,北京市,东四,,43,39,24,21,15,135,,152,151,9,12,2,2,0.6,0.6
2024-07-28T2000,1004A,116.4072,39.8863,北京市,天坛,,37,32,21,23,13,116,,140,137,12,12,3,3,0.5,0.5
2024-07-28T2000,1005A,116.462,39.9365,北京市,农展馆,,43,41,24,21,13,136,,155,153,13,14,1,2,0.5,0.5
2024-07-28T2000,1006A,116.3392,39.9295,北京市,官园,,39,39,26,23,15,122,,148,145,10,10,1,2,0.5,0.5
2024-07-28T2000,1007A,116.2878,39.9611,北京市,海淀万柳,,35,32,23,17,13,112,,131,129,10,10,2,2,0.4,0.5
2024-07-28T2000,1008A,116.6636,40.135,北京市,顺义新城,,39,37,23,25,15,122,,167,166,17,11,3,3,0.5,0.5
2024-07-28T2000,1009A,116.6275,40.3275,北京市,怀柔镇,,39,31,23,20,13,122,,151,151,3,3,3,3,0.5,0.5
2024-07-28T2000,1010A,116.2296,40.217,北京市,昌平镇,,43,43,28,23,15,83,,122,119,14,9,3,3,0.5,0.5
2024-07-28T2000,1011A,116.3966,39.9821,北京市,奥体中心,,39,32,24,21,14,124,,137,137,12,13,3,3,0.4,0.4
2024-07-28T2000,1012A,116.184,39.9136,北京市,古城,,33,33,25,17,12,100,,133,128,18,14,1,2,0.2,0.2
2024-07-28T2000,3281A,115.9718,40.4529,北京市,延庆夏都,,44,24,29,17,20,139,,128,128,7,7,3,3,0.5,0.5
2024-07-28T2000,3417A,117.0709,40.1465,北京市,平谷新城,,38,38,20,21,15,119,,133,133,6,2,3,3,0.5,0.5
2024-07-28T2000,3418A,116.8336,40.4095,北京市,密云新城,,44,39,23,22,13,140,,140,140,15,6,3,3,0.5,0.5
2024-07-28T2000,3671A,116.088,39.9726,北京市,门头沟三家店,,,,,,,,,,,,,,,,
2024-07-28T2000,3672A,116.1541,39.8204,北京市,丰台云岗,,47,47,21,16,11,71,,114,104,22,12,3,3,0.4,0.4
2024-07-28T2000,3673A,116.6804,39.9081,北京市,通州东关,,40,34,23,17,13,125,,155,152,5,8,3,3,0.5,0.5
2024-07-28T2000,3674A,115.9577,39.7603,北京市,房山燕山,,23,23,24,13,11,69,,116,107,5,6,3,3,0.3,0.3
2024-07-28T2000,3675A,116.4672,39.7733,北京市,大兴旧宫,,36,36,20,21,12,104,,127,124,10,8,3,3,0.5,0.6
2024-07-28T2000,3694A,115.986,40.4563,北京市,延庆石河营,,42,26,26,16,19,134,,122,122,7,7,3,3,0.5,0.5
2024-07-28T2000,3695A,116.6151,40.3053,北京市,怀柔新城,,38,34,21,26,13,114,,139,139,7,6,3,3,0.6,0.6
2024-07-28T2000,3696A,116.2545,39.8768,北京市,丰台小屯,,33,33,20,18,12,87,,119,115,15,9,5,7,0.4,0.4
2024-07-28T2000,3697A,116.84,40.3844,北京市,密云镇,,43,40,20,16,13,137,,136,136,8,6,1,2,0.4,0.4
2024-07-28T2000,1761A,123.8275,41.3064,本溪市,大峪,,22,12,6,3,2,70,,49,49,8,9,6,6,0.7,0.2
2024-07-28T2000,1762A,123.7567,41.3325,本溪市,溪湖,,17,13,9,3,2,53,,34,34,18,12,7,7,1.3,0.9
2024-07-28T2000,1763A,123.7169,41.3094,本溪市,彩屯,,13,13,20,7,11,39,,24,24,24,25,6,7,1.3,2.4
2024-07-28T2000,1764A,123.7669,41.2864,本溪市,东明,,21,10,7,3,3,66,,42,42,8,8,4,4,0.4,0.3
2024-07-28T2000,1765A,123.7992,41.2664,本溪市,新立屯,,19,8,7,3,2,58,,38,38,2,3,3,3,0.7,0.5
2024-07-28T2000,1766A,123.8142,41.3472,本溪市,威宁,,20,,8,14,5,27,,26,26,24,11,8,8,2.0,0.8
2024-07-28T2000,2587A,105.2864,27.3125,毕节市,八中,,25,15,12,14,12,80,,79,79,7,6,4,4,0.4,0.4
2024-07-28T2000,2588A,105.31,27.2944,毕节市,师专,,25,20,17,11,11,77,,75,75,6,6,4,4,0.5,0.5
2024-07-28T2000,3537A,105.3631,27.3533,毕节市,长征村,,28,28,23,18,16,84,,82,82,7,6,5,5,0.5,0.5
2024-07-28T2000,1629A,118.0018,37.3617,滨州市,第二水厂,,13,9,8,3,8,40,,60,60,13,5,2,2,0.6,0.5
2024-07-28T2000,1630A,117.9776,37.393,滨州市,北中新校,,17,17,15,3,7,44,,64,64,15,6,5,4,0.5,0.3
2024-07-28T2000,3514A,117.9378,37.3956,滨州市,中海酒店,,20,14,11,9,8,63,,71,71,14,10,4,3,0.8,0.5
2024-07-28T2000,3515A,117.9378,37.3553,滨州市,开发区一中,,23,17,14,9,12,72,,69,69,18,13,5,4,0.5,0.4
2024-07-28T2000,3516A,118.0917,37.694,滨州市,金海六路,,20,15,11,3,4,64,,80,80,16,10,2,2,0.7,0.5
2024-07-28T2000,4028A,117.9956,37.3753,滨州市,滨州市西街道办事处,,15,9,10,3,8,48,,75,75,13,6,3,2,0.5,0.4
2024-07-28T2000,2311A,115.8072,33.8399,亳州市,污水处理厂,,13,,4,6,9,40,,58,56,6,6,3,3,0.6,0.6
2024-07-28T2000,2312A,115.7789,33.8518,亳州市,三国揽胜宫,,14,12,9,3,5,42,,57,56,6,5,1,1,0.5,0.5
2024-07-28T2000,3332A,115.7633,33.8034,亳州市,亳州学院,,16,,6,7,9,50,,59,58,7,5,1,2,0.4,0.4
2024-07-28T2000,2693A,82.0485,44.8556,博尔塔拉蒙古自治州,市党校,颗粒物(PM10),53,55,32,20,9,138,,128,128,6,11,7,8,0.4,0.3
2024-07-28T2000,2694A,82.0806,44.8969,博尔塔拉蒙古自治州,市环保局,,49,49,32,19,12,123,,117,117,9,14,5,7,0.3,0.3
2024-07-28T2000,1071A,116.8842,38.2991,沧州市,沧县城建局,,30,27,22,20,12,93,,112,112,14,7,1,3,0.1,0.2
2024-07-28T2000,1072A,116.8584,38.3254,沧州市,电视转播站,,39,39,26,17,14,94,,105,105,5,9,7,4,0.2,0.2
2024-07-28T2000,1073A,116.8709,38.3228,沧州市,市环保局,,,,26,,15,106,,130,130,6,8,1,2,,0.3
2024-07-28T2000,3324A,116.8136,38.3004,沧州市,河北水利电力学院,,31,31,22,21,14,92,,110,110,11,10,5,5,0.3,0.3
2024-07-28T2000,2622A,97.1806,31.1273,昌都市,昌都监测站,,15,,7,10,7,34,,45,44,17,7,9,9,0.6,0.5
2024-07-28T2000,3719A,97.1714,31.1406,昌都市,昌都会议中心,,15,9,8,8,5,47,,52,52,4,3,6,6,0.4,0.4
2024-07-28T2000,2690A,88.1236,43.8886,昌吉回族自治州,天山天池,,34,14,14,3,7,107,,136,134,6,6,8,7,0.5,0.6
2024-07-28T2000,2692A,87.2717,44.0297,昌吉回族自治州,新区政务中心,,36,11,29,10,11,115,,130,130,6,23,9,11,0.3,0.5
2024-07-28T2000,3613A,87.3095,44.0142,昌吉回族自治州,亚心广场,,39,19,50,7,14,124,,140,140,13,38,8,10,0.3,0.4
2024-07-28T2000,1119A,125.3325,43.9166,长春市,食品厂,,12,10,6,7,6,38,,49,46,23,14,2,2,0.6,0.5
2024-07-28T2000,1120A,125.2863,43.9027,长春市,客车厂,,15,8,7,6,6,46,,57,54,16,8,1,1,0.2,0.1
2024-07-28T2000,1121A,125.2841,43.8463,长春市,邮电学院,,15,15,8,3,3,31,,46,45,19,11,6,6,0.4,0.3
2024-07-28T2000,1122A,125.3716,43.8772,长春市,劳动公园,,15,10,7,3,4,46,,52,49,14,9,2,2,0.6,0.6
2024-07-28T2000,1123A,125.3297,43.8805,长春市,园林处,,15,13,6,3,4,45,,50,48,16,9,3,3,0.4,0.3
2024-07-28T2000,1124A,125.4605,43.79,长春市,净月潭,,13,9,6,3,2,41,,52,51,4,4,4,4,0.3,0.3
2024-07-28T2000,1125A,125.7194,43.515,长春市,甩湾子,,,,,,,,,,,,,,,,
2024-07-28T2000,1126A,125.3863,43.8447,长春市,经开区环卫处,,12,12,6,3,3,37,,52,49,18,11,1,1,0.4,0.3
2024-07-28T2000,1127A,125.245,43.7783,长春市,高新区管委会,,15,6,4,3,2,48,,58,58,10,6,2,2,0.4,0.4
2024-07-28T2000,1128A,125.1761,43.8325,长春市,岱山公园,,11,8,5,3,4,32,,50,49,22,7,2,2,0.3,0.3
2024-07-28T2000,1335A,113.0833,28.2325,长沙市,经开区环保局,,18,15,8,3,4,55,,58,57,4,4,6,6,0.4,0.4
2024-07-28T2000,1336A,112.8872,28.2189,长沙市,高开区环保局,,23,11,8,7,8,73,,68,68,2,4,4,4,0.4,0.4
2024-07-28T2000,1337A,113.0792,28.2053,长沙市,马坡岭,,20,15,9,6,4,62,,68,66,4,5,2,1,0.5,0.5
2024-07-28T2000,1338A,112.9394,28.19,长沙市,湖南师范大学,,22,,10,15,6,68,,63,63,1,2,5,4,0.7,0.7
2024-07-28T2000,1339A,113.0178,28.1322,长沙市,雨花区环保局,,19,14,8,3,6,58,,65,62,2,2,3,3,0.2,0.2
2024-07-28T2000,1340A,112.9792,28.2597,长沙市,伍家岭,,22,10,8,3,6,68,,67,67,2,3,1,2,0.9,0.7
2024-07-28T2000,1341A,113.0014,28.1944,长沙市,火车新站,,20,16,11,7,3,61,,66,64,6,4,3,2,0.6,0.5
2024-07-28T2000,1342A,112.9844,28.1178,长沙市,天心区环保局,,18,14,9,12,5,56,,61,60,5,3,3,2,0.7,0.6
2024-07-28T2000,1343A,112.8908,28.1308,长沙市,湖南中医药大学,,23,11,8,3,6,71,,71,71,1,3,3,3,0.5,0.6
2024-07-28T2000,1344A,112.9581,28.3611,长沙市,沙坪,,22,,12,11,5,68,,65,65,5,5,6,6,0.5,0.4
2024-07-28T2000,1727A,113.1147,36.1547,长治市,清华站,,45,29,27,17,16,141,,148,148,9,9,5,5,0.4,0.4
2024-07-28T2000,1728A,113.1031,36.1989,长治市,监测站,,45,28,31,17,16,141,,146,146,11,12,6,6,0.8,0.9
2024-07-28T2000,1730A,113.0886,36.2125,长治市,审计局,,42,30,28,17,17,132,,140,140,7,8,4,4,0.5,0.7
2024-07-28T2000,1731A,113.0844,36.1856,长治市,长治八中,,44,30,32,21,18,139,,143,143,10,11,4,6,0.4,0.5
2024-07-28T2000,2845A,113.1569,36.1911,长治市,德盛苑,,42,31,26,14,16,134,,139,139,8,6,8,8,0.9,0.8
2024-07-28T2000,3568A,113.06,36.0464,长治市,向阳小学,细颗粒物(PM2.5),58,61,54,41,32,130,,138,138,12,14,10,11,1.7,1.1
2024-07-28T2000,3569A,112.8792,36.3144,长治市,屯留一中,颗粒物(PM10),51,52,46,30,27,146,,190,179,15,18,10,13,0.7,0.7
2024-07-28T2000,3570A,113.235,36.3489,长治市,潞城四中,,47,36,32,25,22,150,,153,153,5,8,4,4,0.6,0.5
2024-07-28T2000,1854A,111.6975,28.9703,常德市,市二中,,19,10,18,3,12,60,,77,67,4,5,6,7,0.4,0.5
2024-07-28T2000,1857A,111.7158,29.1456,常德市,白鹤山,,,,,,,,,,,,,,,,
2024-07-28T2000,3138A,111.7153,29.0289,常德市,武陵区永安,,18,8,20,3,13,55,,75,63,5,6,6,7,0.6,0.6
2024-07-28T2000,3139A,111.6892,28.9881,常德市,鼎城区玉霞,,19,8,20,3,13,59,,74,66,5,6,4,5,0.4,0.9
2024-07-28T2000,3140A,111.6625,29.0531,常德市,武陵区长庚,,18,6,21,3,15,55,,70,62,6,6,5,6,0.4,0.5
2024-07-28T2000,1196A,119.9633,31.762,常州市,市监测站,,33,25,19,12,8,104,,119,118,12,7,5,5,0.3,0.3
2024-07-28T2000,1200A,119.9468,31.7069,常州市,武进监测站,,33,20,18,16,8,105,,117,117,6,2,6,5,0.5,0.5
2024-07-28T2000,1201A,119.9255,31.9087,常州市,安家,,31,24,21,11,7,98,,109,109,10,7,6,6,0.5,0.4
2024-07-28T2000,3002A,119.9805,31.8174,常州市,行政中心,,31,15,17,10,9,98,,111,111,11,8,3,3,0.7,0.5
2024-07-28T2000,3003A,120.0522,31.7748,常州市,经开区,,32,25,18,9,8,100,,110,110,6,3,7,7,0.5,0.6
2024-07-28T2000,3010A,119.9025,31.7964,常州市,钟楼,,,27,25,7,8,101,,113,113,7,5,4,4,,0.1
2024-07-28T2000,3429A,119.8598,31.7066,常州市,武进经发区,,32,30,21,10,8,100,,114,114,8,6,7,7,0.3,0.3
2024-07-28T2000,3430A,119.5826,31.7245,常州市,金坛城区,,35,30,22,16,11,111,,126,125,9,7,8,7,0.6,0.5
2024-07-28T2000,2220A,120.4318,41.5881,朝阳市,西梁,颗粒物(PM10),54,58,25,15,9,80,,87,87,8,7,7,7,0.6,0.4
2024-07-28T2000,2221A,120.4521,41.5646,朝阳市,河畔小区,颗粒物(PM10),66,82,39,12,8,73,,72,72,3,4,6,6,0.6,0.6
2024-07-28T2000,2222A,120.4176,41.5648,朝阳市,八里堡,颗粒物(PM10),55,59,25,18,10,64,,85,85,10,9,1,2,0.6,0.6
2024-07-28T2000,2223A,120.3806,41.5969,朝阳市,农业园区,颗粒物(PM10),65,80,24,15,10,59,,80,80,5,5,6,6,0.5,0.5
2024-07-28T2000,1705A,116.6367,23.6719,潮州市,西园路,,9,8,14,3,12,27,,37,34,12,8,2,2,0.4,0.4
2024-07-28T2000,3026A,116.6183,23.6608,潮州市,市政府,,14,14,17,6,9,26,,38,34,11,7,4,4,0.6,0.5
2024-07-28T2000,4036A,116.6461,23.6761,潮州市,金山,,12,,15,8,14,23,,39,35,10,5,4,4,0.3,0.3
2024-07-28T2000,2472A,113.0073,25.9061,郴州市,马头岭,,11,8,8,3,6,34,,53,47,9,5,7,6,0.2,0.2
2024-07-28T2000,2473A,113.0116,25.8226,郴州市,市职中,,19,17,6,13,6,32,,54,46,10,5,7,5,0.7,0.6
2024-07-28T2000,2474A,113.0161,25.8001,郴州市,兴隆步行街,,19,19,26,6,5,41,,59,49,8,5,5,5,0.6,0.5
2024-07-28T2000,2475A,113.0383,25.8071,郴州市,市审计局,,17,17,8,9,6,38,,53,46,9,6,4,4,0.4,0.4
2024-07-28T2000,2476A,113.0348,25.7759,郴州市,市环保局,,12,12,7,6,5,36,,53,45,13,9,6,6,0.5,0.5
2024-07-28T2000,1431A,103.9728,30.7236,成都市,金泉两河,,23,16,28,16,11,60,,64,64,8,12,1,1,0.5,0.4
2024-07-28T2000,1432A,104.176,30.6872,成都市,十里店,,36,36,29,17,13,72,,74,74,18,16,2,2,0.6,0.5
2024-07-28T2000,1433A,104.079,30.5706,成都市,三瓦窑,,27,27,25,13,16,51,,70,70,29,18,1,2,0.5,0.3
2024-07-28T2000,1434A,104.1114,30.63,成都市,沙河铺,,35,32,34,24,15,30,,40,,30,23,5,5,0.7,0.6
2024-07-28T2000,1437A,104.0786,30.6531,成都市,君平街,,28,28,30,6,13,75,,82,82,17,17,1,2,0.6,0.6
2024-07-28T2000,1438A,103.613,31.0283,成都市,灵岩寺,,,,,,,,,,,,,,,,
2024-07-28T2000,2880A,104.0239,30.65639,成都市,大石西路,,25,25,27,11,12,59,,70,70,17,15,3,3,0.4,0.4
2024-07-28T2000,3136A,104.2725,30.5589,成都市,龙泉驿区区政府,,21,19,20,12,10,65,,82,81,17,13,3,3,0.6,0.5
2024-07-28T2000,3357A,104.0106,30.6931,成都市,金博路,,25,25,24,12,12,57,,57,57,13,15,2,2,0.4,0.3
2024-07-28T2000,3359A,104.0578,30.5225,成都市,华阳,,28,22,25,19,19,48,,60,60,13,12,3,3,0.6,0.6
2024-07-28T2000,3487A,104.2394,30.5319,成都市,车城东七路,,37,37,31,23,16,71,,81,81,15,13,2,2,0.6,0.5
2024-07-28T2000,3488A,104.3853,30.7453,成都市,青白江技师分院,,31,31,26,3,11,51,,67,66,21,18,5,5,0.5,0.4
2024-07-28T2000,3489A,104.0789,30.4072,成都市,科学城,,32,32,29,20,17,56,,74,74,20,13,2,2,0.7,0.6
2024-07-28T2000,4011A,103.8506,30.6947,成都市,光华大道三段,,25,25,32,3,12,49,,62,62,12,9,3,3,0.5,0.4
2024-07-28T2000,1062A,117.9531,40.9081,承德市,铁路,,50,50,24,3,13,108,,124,116,17,14,8,10,0.4,0.5
2024-07-28T2000,1063A,117.9392,40.9763,承德市,中国银行,,37,37,27,3,12,87,,127,120,23,13,3,3,0.3,0.4
2024-07-28T2000,1064A,117.9503,40.928,承德市,开发区,,29,26,24,11,12,91,,131,123,19,12,7,9,0.4,0.5
2024-07-28T2000,1065A,117.8051,40.9655,承德市,文化中心,,46,46,28,3,11,67,,128,116,19,13,4,7,0.6,0.6
2024-07-28T2000,1066A,117.9268,41.0026,承德市,离宫,,30,30,24,7,8,58,,116,103,5,3,1,2,0.3,0.4
2024-07-28T2000,2314A,117.47,30.6618,池州市,池州学院,,17,12,10,11,6,53,,51,50,12,14,5,6,0.3,0.4
2024-07-28T2000,3237A,117.4918,30.6617,池州市,展览馆,,15,14,12,9,5,46,,48,48,11,14,4,4,0.4,0.4
2024-07-28T2000,3333A,117.5627,30.695,池州市,第八中学,,12,10,13,3,6,38,,50,46,12,15,3,3,0.2,0.3
2024-07-28T2000,3334A,117.5038,30.6243,池州市,第十二中学,,20,20,13,8,6,25,,48,44,21,16,4,4,0.5,0.6
2024-07-28T2000,1744A,118.9233,42.2816,赤峰市,松山一中,,26,16,19,3,6,82,,109,106,28,16,8,8,0.7,0.6
2024-07-28T2000,1745A,118.9576,42.2728,赤峰市,哈达街,,30,7,16,3,12,93,,106,105,10,10,12,12,0.5,0.5
2024-07-28T2000,1746A,118.8788,42.2554,赤峰市,天义路,,36,6,16,3,11,115,,120,120,15,13,5,6,0.4,0.5
2024-07-28T2000,3058A,119.2658,42.0353,赤峰市,银河街,,27,22,24,8,15,85,,114,108,19,14,15,15,0.4,0.5
2024-07-28T2000,3286A,118.9359,42.3147,赤峰市,桥北物流园区,,29,11,20,3,13,90,,109,108,26,16,9,7,0.6,0.6
2024-07-28T2000,2521A,107.3476,22.4136,崇左市,市环保局江州分局,,38,38,22,20,10,69,,73,73,8,6,5,5,0.6,0.5
2024-07-28T2000,2522A,107.3702,22.3707,崇左市,城南新区,,34,34,20,18,12,64,,73,73,6,7,3,3,0.5,0.6
2024-07-28T2000,2298A,118.3093,32.3153,滁州市,老年大学,,25,18,16,7,7,78,,105,104,15,8,7,8,0.4,0.4
2024-07-28T2000,2299A,118.3244,32.2786,滁州市,人大宾馆,,28,18,16,10,6,88,,108,107,10,9,6,7,0.5,0.5
2024-07-28T2000,3207A,118.3118,32.3038,滁州市,市政府原办公楼,,25,16,12,12,9,78,,102,101,12,8,6,7,0.7,0.7
2024-07-28T2000,3331A,118.3267,32.2634,滁州市,图书馆,,27,17,15,12,6,86,,105,104,7,7,4,5,0.8,0.8
2024-07-28T2000,2605A,101.5482,25.0441,楚雄彝族自治州,州环境监测站,,20,18,21,10,15,63,,69,69,7,12,4,5,0.6,0.6
2024-07-28T2000,2606A,101.538,25.0492,楚雄彝族自治州,市经济开发区,,32,32,26,12,15,61,,68,68,10,17,6,6,0.6,0.6
2024-07-28T2000,2548A,107.5277,31.2827,达州市,达州职业技术学院,,48,48,41,19,16,61,,80,80,7,13,4,4,0.5,0.6
2024-07-28T2000,2549A,107.5086,31.2186,达州市,市环境监测站,,41,41,45,22,19,76,,102,100,13,20,6,9,0.4,0.6
2024-07-28T2000,2550A,107.4988,31.2132,达州市,凤凰小区,,46,46,42,29,23,74,,100,97,14,16,7,10,0.6,0.7
2024-07-28T2000,2551A,107.5082,31.1986,达州市,达县机关宾馆,颗粒物(PM10),53,56,47,28,23,63,,99,94,30,24,11,7,0.7,0.5
2024-07-28T2000,2552A,107.4644,31.2124,达州市,市政中心,颗粒物(PM10),51,51,44,27,20,80,,100,100,10,11,7,8,0.5,0.6
2024-07-28T2000,2614A,100.1542,25.7054,大理白族自治州,大理市环境监测站,,23,22,29,14,14,73,,76,76,16,10,3,4,0.4,0.4
2024-07-28T2000,2615A,100.2171,25.5811,大理白族自治州,大理古城,,,,18,,12,59,,95,93,24,11,6,6,0.5,0.6
2024-07-28T2000,1109A,121.612,38.9741,大连市,甘井子,,23,22,17,16,10,69,,63,63,16,11,7,7,0.4,0.3
2024-07-28T2000,1110A,121.565,38.9511,大连市,周水子,,26,,16,18,11,45,,49,48,22,12,7,7,0.7,0.5
2024-07-28T2000,1111A,121.5637,38.8845,大连市,星海三站,,23,16,22,6,9,72,,70,70,6,5,6,6,0.5,0.4
2024-07-28T2000,1112A,121.6302,38.9117,大连市,青泥洼桥,,20,16,21,12,10,63,,68,68,5,5,7,7,0.6,0.5
2024-07-28T2000,1113A,121.6251,38.8638,大连市,傅家庄,,19,18,26,6,9,58,,66,66,6,8,5,5,0.5,0.4
2024-07-28T2000,1114A,121.5213,38.8661,大连市,七贤岭,,19,16,20,13,8,44,,50,50,13,8,5,6,0.5,0.3
2024-07-28T2000,1115A,121.2529,38.8061,大连市,旅顺,,23,11,16,3,8,73,,66,65,8,11,8,7,0.3,0.3
2024-07-28T2000,1116A,121.7485,39.1311,大连市,金州,,26,,15,18,13,43,,41,41,14,6,6,7,0.6,0.5
2024-07-28T2000,1117A,121.7811,39.0496,大连市,开发区,,21,18,37,9,10,66,,66,66,14,13,5,6,0.6,0.5
2024-07-28T2000,1118A,121.9762,39.0631,大连市,双D港,,30,30,25,17,10,38,,58,57,18,9,5,4,0.5,0.5
2024-07-28T2000,1789A,124.81117,46.03138,大庆市,大同区,,22,22,16,11,14,52,,67,65,6,6,7,7,0.4,0.4
2024-07-28T2000,1790A,125.129,46.533,大庆市,龙凤区,,20,12,15,8,12,62,,72,71,8,12,5,5,0.4,0.4
2024-07-28T2000,1791A,124.902,46.408,大庆市,红岗区,,20,20,18,8,8,64,,87,84,6,6,6,6,0.4,0.5
2024-07-28T2000,1792A,125.153,46.586,大庆市,萨尔图区,,17,14,18,3,6,52,,78,72,10,10,4,4,0.3,0.4
2024-07-28T2000,1793A,124.9042,46.6215,大庆市,让胡路区,,19,14,27,12,8,58,,68,67,7,10,6,6,0.2,0.3
2024-07-28T2000,3481A,125.141,46.634,大庆市,萨区政府监测点,,21,21,23,6,6,55,,82,77,5,8,6,6,0.1,0.2
2024-07-28T2000,1721A,113.3819,40.1097,大同市,果树场,,,,,,,,,,,,,,,,
2024-07-28T2000,1723A,113.2994,40.0758,大同市,云冈宾馆,,41,13,34,12,15,129,,139,135,10,14,7,9,0.5,0.7
2024-07-28T2000,1724A,113.3444,40.0917,大同市,大同大学,,,,30,11,15,111,,130,123,17,14,6,12,0.3,0.6
2024-07-28T2000,1725A,113.2661,40.1269,大同市,安家小村,,38,17,31,6,8,120,,131,130,14,15,9,10,0.4,0.7
2024-07-28T2000,1726A,113.2711,40.0844,大同市,教育学院,,40,17,34,12,15,127,,134,130,20,20,9,11,0.5,0.6
2024-07-28T2000,3282A,113.3397,40.0597,大同市,大同市卫生学校,,40,16,33,8,17,128,,137,132,10,13,6,8,0.5,0.8
2024-07-28T2000,3565A,113.1367,40.1122,大同市,云冈站,,36,15,40,11,14,115,,135,133,9,23,8,15,0.5,0.7
2024-07-28T2000,3566A,113.1186,40.2556,大同市,图书馆,,39,17,25,3,10,122,,140,139,10,13,9,10,0.4,0.6
2024-07-28T2000,3567A,113.5931,40.0461,大同市,区一中,,39,10,30,10,14,122,,136,134,10,11,6,6,0.4,0.6
2024-07-28T2000,3676A,113.2802,40.0995,大同市,第二人民医院,,40,9,33,8,14,127,,137,134,12,13,8,10,0.4,0.6
2024-07-28T2000,2269A,124.1069,50.4097,大兴安岭地区,科技局,,28,28,13,11,7,32,,75,54,4,3,3,3,0.1,0.1
2024-07-28T2000,3663A,124.1164,50.4278,大兴安岭地区,红旗社区,,13,9,3,9,4,23,,71,47,2,2,8,8,0.4,0.3
2024-07-28T2000,1600A,124.3303,40.0625,丹东市,江湾东路,,34,34,22,12,7,48,,43,43,4,2,6,8,0.6,0.5
2024-07-28T2000,1601A,124.4256,40.1503,丹东市,临江后街,,24,24,14,3,3,57,,50,50,1,2,1,1,0.6,0.6
2024-07-28T2000,1602A,124.3933,40.1461,丹东市,元宝山,,26,26,22,3,17,50,,45,45,5,4,2,2,0.2,0.2
2024-07-28T2000,1603A,124.3633,40.1092,丹东市,民主桥,,31,31,19,8,5,48,,42,42,4,2,1,2,0.3,0.3
2024-07-28T2000,3541A,109.5726,19.5167,儋州市,第一中学子站,,20,20,17,10,8,25,,43,39,10,4,6,6,0.6,0.5
2024-07-28T2000,3542A,109.5567,19.5187,儋州市,东坡学校子站,,13,12,15,9,9,33,,45,43,6,3,5,5,0.6,0.6
2024-07-28T2000,2616A,98.5842,24.428,德宏傣族景颇族自治州,德宏州监测站,,19,19,19,3,9,53,,63,63,7,8,5,8,0.7,0.7
2024-07-28T2000,3677A,98.5881,24.4368,德宏傣族景颇族自治州,芒市人民政府综合楼,,17,17,17,6,10,48,,59,59,8,8,7,11,0.6,0.7
2024-07-28T2000,1901A,104.4239,31.1208,德阳市,东山公园,,26,26,31,10,14,60,,72,70,13,19,2,2,0.6,0.6
2024-07-28T2000,1902A,104.3826,31.1317,德阳市,西小区,,33,33,34,21,19,37,,68,65,36,30,3,3,0.7,0.6
2024-07-28T2000,1904A,104.3553,31.1091,德阳市,耐火材料厂,,29,29,31,17,17,39,,68,67,25,23,4,4,0.6,0.6
2024-07-28T2000,3639A,104.4019,31.1244,德阳市,市教育局,,29,29,32,17,16,55,,74,73,26,24,3,3,0.7,0.6
2024-07-28T2000,1622A,116.3032,37.4674,德州市,儿童乐园,,29,14,18,7,9,92,,88,88,9,8,7,7,0.6,0.6
2024-07-28T2000,1624A,116.2991,37.4451,德州市,监理站,,29,14,14,9,9,90,,88,88,11,9,8,10,0.5,0.4
2024-07-28T2000,3066A,116.2721,37.4379,德州市,九衢泉纯净水厂,,27,24,17,9,11,84,,86,86,11,9,7,7,0.6,0.5
2024-07-28T2000,3371A,116.3728,37.4403,德州市,开发区人民医院,,26,17,19,9,8,83,,89,89,14,10,6,7,0.7,0.6
2024-07-28T2000,3372A,116.3572,37.4094,德州市,太阳城中学,,26,17,17,7,10,83,,87,87,8,8,6,7,0.3,0.5
2024-07-28T2000,3511A,116.5652,37.3319,德州市,陵城艺术中心,,24,9,17,9,9,76,,86,86,10,8,5,4,0.5,0.5
2024-07-28T2000,2621A,99.7056,27.8317,迪庆藏族自治州,迪庆州站,,30,30,21,6,10,53,,58,57,8,10,8,10,0.4,0.4
2024-07-28T2000,3180A,99.7136,27.8094,迪庆藏族自治州,质量技术监督局,,21,21,18,11,8,53,,56,56,8,9,7,8,0.6,0.6
2024-07-28T2000,2663A,104.6241,35.5734,定西市,东关小学,,41,41,45,19,21,100,,139,134,23,16,8,8,0.4,0.3
2024-07-28T2000,2664A,104.6194,35.5934,定西市,供电公司,,38,38,45,24,25,67,,127,119,41,18,5,6,0.3,0.3
2024-07-28T2000,1389A,113.7547,23.0494,东莞市,莞城梨川,,18,17,14,12,9,22,,36,34,21,18,9,9,0.8,0.7
2024-07-28T2000,1390A,113.7944,23.0128,东莞市,东城石井,,12,12,14,7,9,21,,34,32,19,18,5,5,0.7,0.7
2024-07-28T2000,1391A,113.7383,22.9658,东莞市,南城西平,,9,9,14,3,8,20,,32,31,14,20,1,2,0.7,0.7
2024-07-28T2000,3319A,113.7338,23.0381,东莞市,万江金泰,,15,15,14,9,9,24,,35,34,16,14,4,9,0.8,0.8
2024-07-28T2000,3626A,113.7533,23.0202,东莞市,南城元岭,,15,15,16,8,8,22,,30,29,14,15,6,6,0.7,0.7
2024-07-28T2000,3627A,113.7875,23.0457,东莞市,东城主山,,16,16,14,11,10,13,,30,28,18,14,6,6,0.8,0.8
2024-07-28T2000,1666A,118.6614,37.4309,东营市,市环保局,,19,19,5,7,2,47,,60,59,18,9,8,3,0.3,0.2
2024-07-28T2000,3036A,118.6904,37.4338,东营市,开发区管委会,,17,15,10,3,2,52,,67,66,14,9,5,2,0.3,0.2
2024-07-28T2000,3365A,118.5719,37.565,东营市,垦利区民丰路,,,9,8,,4,65,,75,75,17,7,6,6,0.5,0.4
2024-07-28T2000,3498A,118.5055,37.8612,东营市,河口城区,,24,24,8,12,5,39,,36,32,4,8,1,5,0.7,0.5
2024-07-28T2000,3646A,118.4978,37.4623,东营市,胜利站,,19,19,9,3,2,58,,72,72,21,12,2,2,0.8,0.7
2024-07-28T2000,3734A,118.35,37.26,东营市,理想之城,,18,14,7,12,9,42,,54,53,11,6,7,6,0.8,0.6
2024-07-28T2000,1591A,110.0023,39.8129,鄂尔多斯市,综合楼,,39,39,45,3,5,103,,132,127,30,27,10,13,0.5,0.5
2024-07-28T2000,1592A,109.9486,39.8261,鄂尔多斯市,巴音孟克林场办事处,,34,34,44,7,8,107,,124,123,17,19,6,11,0.6,0.7
2024-07-28T2000,1593A,109.7736,39.5986,鄂尔多斯市,康泽苑,,35,24,30,9,10,112,,140,137,17,16,6,7,0.4,0.4
2024-07-28T2000,1594A,109.8119,39.5989,鄂尔多斯市,华泰汽车城,,32,24,33,3,11,100,,130,127,13,28,9,10,0.3,0.4
2024-07-28T2000,1595A,109.9734,39.7884,鄂尔多斯市,奥林花园,,34,27,38,3,8,107,,127,124,16,20,6,8,0.5,0.5
2024-07-28T2000,2436A,114.8938,30.3994,鄂州市,市政府,,20,20,15,3,2,47,,80,76,10,6,9,8,0.6,0.6
2024-07-28T2000,2437A,114.8989,30.3714,鄂州市,赵家坝,,14,14,15,3,1,43,,75,72,5,6,7,8,0.6,0.7
2024-07-28T2000,3654A,114.8094,30.4089,鄂州市,精准医疗中心,,15,12,14,3,2,48,,79,76,2,11,8,11,0.3,1.1
2024-07-28T2000,2454A,109.4978,30.2981,恩施土家族苗族自治州,湖北民院,,25,19,21,12,13,77,,100,92,5,8,7,8,0.4,0.5
2024-07-28T2000,2455A,109.4707,30.2798,恩施土家族苗族自治州,州电力总公司,,23,18,23,12,14,73,,95,89,8,14,5,6,0.6,0.6
2024-07-28T2000,3549A,109.5061,30.3772,恩施土家族苗族自治州,龙凤新区,,,18,16,,11,68,,92,86,14,13,7,7,0.5,0.5
2024-07-28T2000,2499A,108.3411,21.6158,防城港市,沙万,,33,33,24,9,11,46,,57,55,22,13,9,9,0.7,0.8
2024-07-28T2000,2500A,108.3514,21.7731,防城港市,防城档案局,,20,18,50,14,16,30,,53,52,15,19,6,6,0.8,0.8
2024-07-28T2000,2501A,108.3506,21.6414,防城港市,大海花园,,41,41,26,8,11,49,,56,55,18,13,5,6,0.7,0.8
2024-07-28T2000,1371A,113.1294,23.0067,佛山市,湾梁,,16,12,6,11,11,16,,33,30,32,23,6,6,1.0,0.9
2024-07-28T2000,1372A,113.1083,23.0478,佛山市,华材职中,,15,12,8,8,7,22,,35,34,29,21,6,5,0.5,0.4
2024-07-28T2000,1373A,113.144,23.0453,佛山市,南海气象局,,23,23,14,9,7,20,,32,30,26,19,6,6,0.6,0.6
2024-07-28T2000,1374A,113.2881,22.8094,佛山市,顺德苏岗,,16,16,8,3,4,13,,34,27,27,18,6,6,0.6,0.6
2024-07-28T2000,1376A,112.8383,22.8678,佛山市,高明孔堂,,25,25,16,7,8,24,,42,40,22,14,7,6,0.6,0.6
2024-07-28T2000,1377A,112.8836,23.1588,佛山市,三水监测站,,15,12,14,6,10,20,,42,40,30,28,4,4,0.6,0.6
2024-07-28T2000,1378A,112.867,23.185,佛山市,三水云东海,,19,13,12,10,9,13,,39,37,37,28,4,4,0.7,0.6
2024-07-28T2000,3625A,113.2544,22.7642,佛山市,容桂街道办,,13,9,8,7,6,17,,30,25,26,21,6,6,0.7,0.7
2024-07-28T2000,1280A,119.3903,26.0543,福州市,鼓山,,,,,,,,,,,,,,,,
2024-07-28T2000,1282A,119.2681,26.0504,福州市,师大,,24,24,20,8,10,32,,66,62,9,7,4,4,0.3,0.3
2024-07-28T2000,1283A,119.2984,26.1028,福州市,五四北路,,,,19,10,8,48,,74,71,5,11,3,3,0.5,0.5
2024-07-28T2000,1284A,119.2648,26.0768,福州市,杨桥西路,,27,27,22,8,13,38,,73,68,10,10,3,3,0.5,0.5
2024-07-28T2000,1285A,119.317,26.0746,福州市,紫阳,,29,29,21,13,9,27,,59,55,10,11,3,3,0.3,0.3
2024-07-28T2000,3048A,119.5799,26.0936,福州市,九龙,,15,15,19,3,5,39,,54,52,2,3,4,5,0.4,0.4
2024-07-28T2000,3526A,119.5189,25.9664,福州市,吴航,,14,14,19,6,9,29,,58,52,3,3,4,4,0.3,0.3
2024-07-28T2000,1755A,123.7977,41.8491,抚顺市,望花区,,26,26,19,16,8,43,,28,28,27,18,3,2,0.5,0.5
2024-07-28T2000,1756A,123.9161,41.8822,抚顺市,顺城区,,20,,8,14,5,54,,30,30,17,15,5,2,0.5,0.5
2024-07-28T2000,1757A,124.0436,41.8611,抚顺市,东洲区,,19,,6,13,2,56,,33,33,8,4,4,4,1.0,0.4
2024-07-28T2000,1758A,123.9247,41.8642,抚顺市,新抚区,,20,18,8,13,4,63,,34,34,7,9,3,3,1.0,0.4
2024-07-28T2000,1759A,124.0972,41.8961,抚顺市,大伙房水库,,22,,5,15,1,61,,36,36,7,3,3,2,1.2,0.5
2024-07-28T2000,1760A,123.7086,41.8391,抚顺市,沈抚新城,,16,13,13,7,5,49,,29,29,9,11,2,2,0.2,0.3
2024-07-28T2000,2376A,116.2127,28.0814,抚州市,桐源党溪,,22,22,20,12,7,32,,43,40,3,3,5,5,0.7,0.8
2024-07-28T2000,2377A,116.3544,27.9831,抚州市,市站,,13,12,16,9,6,32,,50,44,4,4,5,4,1.0,1
2024-07-28T2000,2378A,116.3565,27.963,抚州市,血防站,,21,21,19,8,6,28,,42,38,5,6,1,1,0.9,0.9
2024-07-28T2000,2379A,116.3564,28.0007,抚州市,采茶剧团,,12,12,14,8,6,29,,47,42,2,3,4,5,0.7,0.7
2024-07-28T2000,2380A,116.385,27.9647,抚州市,医学分院,,14,14,17,3,4,34,,48,44,3,5,4,5,0.9,0.9
2024-07-28T2000,2207A,121.6094,41.998,阜新市,工业园区,,17,17,12,3,4,51,,71,71,7,9,2,2,0.5,0.4
2024-07-28T2000,2208A,121.6697,42.0279,阜新市,长青街,,,11,12,8,7,,,76,,11,10,6,6,0.5,0.5
2024-07-28T2000,2209A,121.6673,42.0705,阜新市,农业园区,,18,11,13,3,4,56,,67,67,11,10,8,5,0.7,0.5
2024-07-28T2000,2210A,121.6717,42.0224,阜新市,东苑,,17,12,15,10,9,54,,71,71,15,10,11,10,0.7,0.6
2024-07-28T2000,2211A,121.6506,42.0498,阜新市,玉龙新城,,30,18,16,3,7,96,,57,,6,6,7,5,0.8,0.6
2024-07-28T2000,2301A,115.8277,32.8929,阜阳市,市监测站,,16,9,9,3,4,51,,77,74,12,4,5,5,0.3,0.3
2024-07-28T2000,2303A,115.8554,32.8605,阜阳市,开发区,,19,16,8,3,5,59,,79,77,12,7,5,5,0.3,0.3
2024-07-28T2000,2875A,115.784,32.8892,阜阳市,阜阳职业技术学院,,21,,6,6,3,66,,81,80,8,6,4,4,0.4,0.4
2024-07-28T2000,3468A,115.7901,32.8613,阜阳市,市规划展馆,,20,,13,8,6,62,,81,79,10,7,5,5,0.4,0.4
2024-07-28T2000,3469A,115.836,32.9183,阜阳市,枣园社区,,19,,12,13,7,56,,73,71,9,6,2,3,0.4,0.4
2024-07-28T2000,2669A,102.9099,34.9841,甘南藏族自治州,州政府,,34,23,28,13,13,107,,122,120,5,11,8,8,0.2,0.3
2024-07-28T2000,3380A,102.8914,34.9617,甘南藏族自治州,甘肃民族师范学院,,35,,28,11,9,110,,125,123,2,12,3,3,0.3,0.3
2024-07-28T2000,2570A,101.9603,30.0475,甘孜藏族自治州,水桥子,,19,,7,9,6,58,,73,73,10,16,4,4,0.3,0.3
2024-07-28T2000,3065A,101.9533,29.9972,甘孜藏族自治州,州环保局,,14,14,11,3,5,25,,75,68,20,21,2,2,0.2,0.2
2024-07-28T2000,3414A,115.8347,28.932,赣江新区,桑海产业园,,8,,9,3,4,23,,48,43,15,14,10,10,0.3,0.3
2024-07-28T2000,2362A,114.9017,25.9149,赣州市,通天岩,,,,,,,,,,,,,,,,
2024-07-28T2000,2363A,114.9367,25.8664,赣州市,地委,,12,,8,8,6,35,,44,36,9,7,9,10,0.6,0.6
2024-07-28T2000,2364A,114.9461,25.8481,赣州市,气象台,,12,,8,8,8,34,,47,39,8,7,10,10,0.8,0.8
2024-07-28T2000,2365A,114.9322,25.8333,赣州市,市图书馆,,11,6,7,3,4,35,,47,39,6,3,3,3,0.8,0.9
2024-07-28T2000,2366A,114.8905,25.8471,赣州市,华坚鞋城,,15,13,12,10,5,39,,49,40,6,5,11,30,0.1,0.2
2024-07-28T2000,3109A,115.0093,25.8613,赣州市,赣县区卫计委,,16,16,11,7,6,38,,54,46,16,9,8,8,0.8,0.7
2024-07-28T2000,2683A,106.2319,36.1417,固原市,马园,,44,44,33,14,12,138,,149,149,15,31,6,6,0.6,0.6
2024-07-28T2000,2684A,106.2792,36.0022,固原市,监测站,颗粒物(PM10),51,52,29,26,16,136,,158,155,16,17,6,6,0.5,0.4
2024-07-28T2000,2685A,106.2375,36.0211,固原市,新区,,43,40,29,15,12,137,,152,150,17,27,6,6,0.6,0.4
2024-07-28T2000,3522A,106.2177,35.9959,固原市,原州区十五小,,43,43,24,20,14,135,,150,149,15,13,6,5,0.7,0.7
2024-07-28T2000,2543A,106.6308,30.5278,广安市,小平旧居,,,,,,,,,,,,,,,,
2024-07-28T2000,2544A,106.6303,30.4576,广安市,市委,颗粒物(PM10),55,59,38,3,19,80,,63,63,15,13,4,4,0.3,0.4
2024-07-28T2000,2545A,106.6271,30.4663,广安市,友谊中学,,34,34,32,20,19,87,,97,97,13,13,4,6,0.5,0.5
2024-07-28T2000,2547A,106.6388,30.4551,广安市,广电花园,,34,34,33,22,19,82,,90,90,11,11,4,5,0.4,0.4
2024-07-28T2000,2902A,106.6351,30.4865,广安市,北辰小学,,33,33,38,23,21,86,,101,101,10,10,5,6,0.4,0.4
2024-07-28T2000,2523A,105.8945,32.4535,广元市,黑石坡,,20,20,21,6,7,19,,47,45,27,12,6,6,0.3,0.4
2024-07-28T2000,2524A,105.821,32.4444,广元市,老城,,35,35,38,13,15,52,,62,62,22,27,19,19,0.6,0.6
2024-07-28T2000,2526A,105.8628,32.4287,广元市,监测站,,29,29,30,17,17,38,,62,62,30,22,11,11,0.8,0.7
2024-07-28T2000,3617A,105.8047,32.4166,广元市,经开区,,31,31,45,12,21,49,,62,62,23,25,4,8,0.6,0.7
2024-07-28T2000,1345A,113.2347,23.1423,广州市,广雅中学,,20,20,15,14,10,17,,36,34,40,32,6,4,0.7,0.7
2024-07-28T2000,1346A,113.2612,23.105,广州市,市五中,,26,25,14,18,10,24,,38,37,27,23,4,4,0.7,0.7
2024-07-28T2000,1348A,113.3478,23.0916,广州市,广东商学院,,23,23,16,16,11,18,,33,30,31,29,5,4,0.6,0.6
2024-07-28T2000,1349A,113.4332,23.1047,广州市,市八十六中,,23,23,17,12,11,16,,35,31,36,31,4,4,0.6,0.6
2024-07-28T2000,1350A,113.3505,22.9483,广州市,番禺中学,,,18,13,3,5,24,,39,34,24,23,,8,0.6,0.6
2024-07-28T2000,1351A,113.2146,23.3916,广州市,花都师范,,22,22,16,10,9,26,,46,46,19,22,5,5,0.6,0.7
2024-07-28T2000,1352A,113.2597,23.1331,广州市,市监测站,,23,22,15,16,9,18,,36,34,34,28,5,4,0.6,0.6
2024-07-28T2000,1353A,113.5618,23.312,广州市,九龙镇镇龙,,9,9,10,6,7,28,,40,39,13,14,7,7,0.6,0.6
2024-07-28T2000,1354A,113.2765,23.1544,广州市,麓湖,,22,22,17,13,9,23,,37,35,26,25,5,4,0.6,0.6
2024-07-28T2000,1355A,113.443,23.3035,广州市,帽峰山森林公园,,12,,8,3,7,36,,42,42,12,14,5,5,0.6,0.7
2024-07-28T2000,2846A,113.3221,23.1322,广州市,体育西,,25,25,18,16,11,18,,34,32,30,28,5,4,0.7,0.7
2024-07-28T2000,3298A,113.5717,23.5491,广州市,从化街口,,,17,10,7,6,34,,40,40,,12,5,6,0.5,0.6
2024-07-28T2000,3299A,113.3472,23.3692,广州市,白云竹料,,13,13,13,8,10,32,,46,46,17,21,4,4,0.5,0.6
2024-07-28T2000,3300A,113.2981,23.237,广州市,白云嘉禾,,14,14,14,9,10,28,,40,39,24,30,6,6,0.7,0.8
2024-07-28T2000,3301A,113.4256,23.1716,广州市,黄埔科学城,,14,14,16,9,10,30,,38,38,20,26,8,7,0.5,0.5
2024-07-28T2000,3302A,113.3942,23.0483,广州市,番禺大学城,,12,,17,8,8,22,,33,32,24,25,5,5,0.8,0.8
2024-07-28T2000,3303A,113.4922,22.8168,广州市,南沙黄阁,,19,19,12,10,8,24,,37,32,24,21,6,6,0.7,0.7
2024-07-28T2000,3304A,113.5342,22.7896,广州市,南沙街,,16,16,12,6,6,21,,31,26,16,17,5,5,0.7,0.7
2024-07-28T2000,3443A,113.2902,23.5544,广州市,花都梯面,,14,7,13,3,6,44,,56,56,6,11,4,4,0.5,0.6
2024-07-28T2000,3445A,113.7858,23.7478,广州市,从化良口,,11,7,7,3,5,33,,37,34,5,5,6,6,0.6,0.6
2024-07-28T2000,3446A,113.8051,23.2614,广州市,增城荔城,,10,6,7,3,5,32,,36,36,8,12,7,6,0.5,0.5
2024-07-28T2000,2505A,109.568,23.1478,贵港市,德智高中,,,,,,,,,,,,,,,,
2024-07-28T2000,2506A,109.6047,23.0666,贵港市,江南子站,颗粒物(PM10),65,80,26,22,18,34,,51,49,32,14,17,9,0.9,0.7
2024-07-28T2000,2507A,109.6014,23.0948,贵港市,贵城子站,,19,19,28,9,17,54,,52,52,10,12,9,7,0.7,0.6
2024-07-28T2000,2508A,109.5669,23.1065,贵港市,荷城子站,,31,31,19,7,9,51,,57,57,16,9,13,9,0.5,0.3
2024-07-28T2000,3405A,109.5886,23.1172,贵港市,新世纪学校,,19,19,23,7,13,54,,55,55,12,11,9,8,0.8,0.6
2024-07-28T2000,1439A,106.6899,26.5998,贵阳市,马鞍山,,17,7,19,3,8,53,,83,79,7,8,4,4,0.6,0.6
2024-07-28T2000,1440A,106.6971,26.5694,贵阳市,市环保站,,,12,26,11,26,42,,91,84,29,17,3,4,,0.3
2024-07-28T2000,1441A,106.6243,26.6266,贵阳市,鉴湖路,,,,24,,20,,,61,,,10,,6,,0.5
2024-07-28T2000,1442A,106.7487,26.6343,贵阳市,燕子冲,,16,,16,9,19,51,,91,87,14,12,4,5,0.7,0.7
2024-07-28T2000,1443A,106.6555,26.4365,贵阳市,碧云窝,,22,22,24,3,11,47,,87,82,16,13,4,4,0.4,0.4
2024-07-28T2000,1444A,106.694,26.5161,贵阳市,中院村,,18,12,28,3,13,57,,87,83,16,18,3,3,0.5,0.5
2024-07-28T2000,1445A,106.7109,26.6027,贵阳市,红边门,,20,19,29,14,28,64,,94,90,17,16,3,4,0.7,0.7
2024-07-28T2000,1446A,106.7164,26.5699,贵阳市,新华路,,18,,19,12,22,57,,86,83,13,13,3,4,0.6,0.7
2024-07-28T2000,1447A,106.674,26.5424,贵阳市,太慈桥,,15,,14,3,13,47,,94,88,8,12,4,5,0.4,0.5
2024-07-28T2000,1552A,106.805,26.3003,贵阳市,桐木岭,,,,,,,,,,,,,,,,
2024-07-28T2000,1862A,110.4144,25.3167,桂林市,电子科大尧山校区,,14,8,12,6,10,44,,62,60,5,5,4,5,0.5,0.5
2024-07-28T2000,1863A,110.2819,25.2697,桂林市,监测站,,17,11,12,10,12,53,,61,58,7,7,6,6,0.6,0.6
2024-07-28T2000,1864A,110.3089,25.2708,桂林市,龙隐路小学,,18,12,10,12,14,40,,59,54,9,8,5,5,0.7,0.6
2024-07-28T2000,1865A,110.2869,25.2178,桂林市,八中,,16,7,10,3,9,49,,55,52,8,9,5,6,0.7,0.7
2024-07-28T2000,3403A,110.1764,25.2381,桂林市,创业大厦,,15,14,9,3,7,46,,51,49,5,6,7,6,0.4,0.4
2024-07-28T2000,3531A,110.296,25.1253,桂林市,旅游学院,,16,,4,3,5,50,,58,56,3,5,5,5,0.5,0.5
2024-07-28T2000,2674A,100.2561,34.4714,果洛藏族自治州,玛沁县大武镇,,40,22,24,12,11,126,,125,125,3,3,8,7,0.3,0.4
2024-07-28T2000,1129A,126.5422,45.755,哈尔滨市,岭北,,25,12,13,3,5,78,,75,75,24,14,10,9,0.4,0.7
2024-07-28T2000,1130A,126.561,45.8167,哈尔滨市,松北商大,,13,13,20,6,5,37,,67,62,26,13,7,6,0.7,0.5
2024-07-28T2000,1131A,126.979,45.5419,哈尔滨市,阿城会宁,,28,,14,7,6,88,,64,64,11,8,8,8,0.5,0.5
2024-07-28T2000,1132A,126.599,45.7222,哈尔滨市,南岗学府路,,27,27,24,7,5,64,,76,76,29,9,5,5,0.6,0.5
2024-07-28T2000,1133A,126.689,45.7733,哈尔滨市,太平宏伟公园,,21,21,21,8,9,63,,71,70,31,20,8,6,0.6,0.5
2024-07-28T2000,1134A,126.635,45.7667,哈尔滨市,道外承德广场,,22,21,20,15,11,56,,70,68,37,17,6,6,0.6,0.3
2024-07-28T2000,1135A,126.685,45.7319,哈尔滨市,香坊红旗大街,,40,29,21,28,10,62,,67,67,38,18,6,6,0.8,0.7
2024-07-28T2000,1136A,126.6411,45.7258,哈尔滨市,动力和平路,,,,27,11,12,65,,72,72,33,16,6,6,0.6,0.6
2024-07-28T2000,1137A,126.593,45.7478,哈尔滨市,道里建国路,,38,,26,26,14,53,,72,67,39,16,8,8,1.2,1.3
2024-07-28T2000,1138A,126.615,45.61,哈尔滨市,平房东轻厂,,29,8,16,3,6,90,,81,81,11,8,8,7,0.2,0.2
2024-07-28T2000,1139A,126.595,45.9855,哈尔滨市,呼兰师专,,27,27,20,3,10,52,,76,72,20,16,10,10,0.6,0.6
2024-07-28T2000,1140A,126.6206,45.6842,哈尔滨市,省农科院,,23,17,18,9,7,71,,75,75,35,17,6,5,0.4,0.4
2024-07-28T2000,2688A,93.5128,42.8172,哈密市,地区监测站,,50,27,55,13,20,157,,155,155,7,15,3,5,0.2,0.3
2024-07-28T2000,2689A,93.4961,42.8328,哈密市,哈密师范学校,,45,34,49,12,14,141,,150,150,13,17,4,5,0.3,0.4
2024-07-28T2000,2671A,100.9048,36.9639,海北藏族自治州,海晏县西海镇,,40,21,12,15,11,127,,127,127,6,8,12,12,0.4,0.4
2024-07-28T2000,3867A,102.0738,36.5056,海东市,平安区公安北苑,,36,31,36,12,19,114,,140,140,8,8,9,16,0.5,0.6
2024-07-28T2000,1409A,110.576,19.9507,海口市,东寨港,,,,,,,,,,,,,,,,
2024-07-28T2000,1410A,110.3232,20.0574,海口市,海南大学,,25,25,26,12,14,38,,67,65,11,17,4,5,0.5,0.5
2024-07-28T2000,1411A,110.283,20.0053,海口市,秀英海南医院,,23,23,28,13,15,31,,58,56,18,16,6,6,0.3,0.3
2024-07-28T2000,1412A,110.338,19.9969,海口市,海南师范大学,,19,15,26,13,14,38,,61,60,12,12,6,7,0.4,0.4
2024-07-28T2000,1413A,110.33,20.0356,海口市,龙华路环保局宿舍,,26,23,24,18,13,36,,61,58,15,14,7,7,0.4,0.4
2024-07-28T2000,3539A,110.5111,19.9736,海口市,桂林洋子站,,14,14,26,7,13,35,,53,50,9,10,6,6,0.2,0.3
2024-07-28T2000,2673A,100.6188,36.2866,海南藏族自治州,共和县恰卜恰镇,,35,23,20,7,9,112,,121,121,11,7,10,10,0.5,0.5
2024-07-28T2000,2676A,97.3731,37.3753,海西蒙古族藏族自治州,德令哈市,臭氧1小时,55,32,18,18,13,164,,161,161,9,8,9,9,0.5,0.4
2024-07-28T2000,1048A,114.5302,36.6116,邯郸市,东污水处理厂,,30,25,15,3,5,96,,91,91,5,6,1,1,0.3,0.3
2024-07-28T2000,1049A,114.4918,36.5713,邯郸市,矿院,,29,29,18,7,9,84,,85,85,2,2,3,2,0.2,0.2
2024-07-28T2000,1050A,114.484,36.6133,邯郸市,丛台公园,,27,13,14,10,10,85,,82,82,1,5,3,3,0.2,0.3
2024-07-28T2000,3458A,114.7895,36.5593,邯郸市,香泉濮院小区,,39,39,24,17,11,92,,87,87,4,5,3,1,0.1,0.2
2024-07-28T2000,3579A,114.50634,36.77178,邯郸市,永年区实验高中,,37,37,30,20,14,73,,77,77,7,4,1,1,0.3,0.4
2024-07-28T2000,3580A,114.20016,36.44293,邯郸市,峰峰矿区临水派出所,,28,15,34,3,13,87,,104,102,4,5,3,2,0.2,0.4
2024-07-28T2000,2634A,106.9893,33.1842,汉中市,汉川机床厂子校,,42,42,36,22,19,68,,106,104,5,4,4,4,0.6,0.5
2024-07-28T2000,2635A,107.0154,33.0706,汉中市,市监测站,,41,41,51,22,25,84,,112,112,15,15,8,8,1.2,1
2024-07-28T2000,2636A,107.0089,33.1138,汉中市,鑫源开发区,,42,42,47,25,22,65,,116,113,21,15,15,12,1.1,0.8
2024-07-28T2000,2637A,107.007,33.0323,汉中市,南郑大河坎水厂,,42,42,47,29,29,88,,131,131,9,11,9,9,0.9,0.7
2024-07-28T2000,1223A,120.2072,30.2111,杭州市,滨江,,24,24,16,10,6,52,,79,75,6,5,3,3,0.6,0.6
2024-07-28T2000,1224A,120.0633,30.2747,杭州市,西溪,,20,15,21,12,7,64,,76,74,5,4,6,6,0.5,0.5
2024-07-28T2000,1226A,120.3461,30.3153,杭州市,下沙,,20,20,18,6,6,48,,80,76,8,8,5,5,0.5,0.5
2024-07-28T2000,1227A,120.1269,30.2456,杭州市,卧龙桥,,20,14,12,14,9,62,,84,80,11,8,5,5,0.6,0.5
2024-07-28T2000,1228A,120.1903,30.2692,杭州市,浙江农大,,20,20,14,12,7,53,,81,77,12,10,6,6,0.5,0.5
2024-07-28T2000,1230A,120.1197,30.3119,杭州市,和睦小学,,20,20,13,11,6,63,,82,79,9,8,5,5,0.6,0.6
2024-07-28T2000,1231A,120.3019,30.4183,杭州市,临平镇,,28,28,19,9,8,48,,84,80,12,8,5,4,0.4,0.4
2024-07-28T2000,1232A,120.2697,30.1819,杭州市,城厢镇,,29,22,16,20,9,52,,85,82,10,8,4,4,0.4,0.5
2024-07-28T2000,1233A,120.0883,30.1808,杭州市,云栖,,21,21,16,7,5,54,,78,74,12,11,7,7,0.5,0.6
2024-07-28T2000,3557A,119.9464,30.0494,杭州市,镇二中,,37,37,14,20,11,65,,76,76,10,8,6,7,0.5,0.5
2024-07-28T2000,3558A,119.7183,30.2367,杭州市,市府大楼,,27,20,14,10,9,85,,98,98,11,10,4,5,0.3,0.4
2024-07-28T2000,3656A,120.1556,30.2864,杭州市,消防大队,,28,28,18,14,9,57,,82,77,9,7,7,7,0.5,0.5
2024-07-28T2000,1270A,117.1959,31.7848,合肥市,明珠广场,,19,19,15,7,7,50,,64,59,15,9,9,9,0.4,0.4
2024-07-28T2000,1271A,117.3072,31.8764,合肥市,三里街,,17,17,9,3,3,48,,61,57,23,15,5,5,0.4,0.4
2024-07-28T2000,1272A,117.2588,31.8707,合肥市,琥珀山庄,,27,27,14,7,3,56,,68,64,15,6,4,4,0.5,0.4
2024-07-28T2000,1273A,117.1604,31.9052,合肥市,董铺水库,,16,6,8,3,6,50,,48,48,6,5,2,2,0.2,0.2
2024-07-28T2000,1274A,117.25,31.8571,合肥市,长江中路,,27,27,21,11,7,47,,63,58,18,6,6,6,0.5,0.5
2024-07-28T2000,1275A,117.266,31.9436,合肥市,庐阳区,,24,24,12,9,7,55,,66,62,14,8,9,10,0.5,0.5
2024-07-28T2000,1276A,117.336,31.8586,合肥市,瑶海区,,19,19,11,3,5,36,,62,57,25,8,7,7,0.3,0.3
2024-07-28T2000,1277A,117.3027,31.7964,合肥市,包河区,,27,27,13,7,5,34,,65,58,25,6,7,7,0.4,0.4
2024-07-28T2000,1278A,117.2776,31.7385,合肥市,滨湖新区,,15,14,7,3,3,48,,62,58,15,6,8,8,0.3,0.3
2024-07-28T2000,1279A,117.1318,31.8403,合肥市,高新区,,16,14,9,7,4,50,,60,56,7,4,12,7,0.4,0.4
2024-07-28T2000,3464A,117.3803,31.9147,合肥市,高教基地,,17,11,11,7,5,52,,71,66,10,5,6,7,0.3,0.3
2024-07-28T2000,3614A,79.924,37.0877,和田地区,地区环保局,细颗粒物(PM2.5),145,177,230,111,80,122,,128,128,3,11,7,7,0.4,0.5
2024-07-28T2000,3615A,79.9131,37.113,和田地区,市环保局,颗粒物(PM10),110,169,227,48,67,115,,123,123,16,55,7,7,0.3,0.4
2024-07-28T2000,2516A,108.2011,24.715,河池市,东仁乐园,,41,41,27,17,11,47,,50,50,11,11,7,4,0.6,0.7
2024-07-28T2000,2517A,108.0497,24.6947,河池市,市环保站,,16,16,18,8,12,34,,52,51,12,12,7,7,0.7,0.6
2024-07-28T2000,2518A,108.0983,24.6989,河池市,市疾控中心,,17,17,25,10,13,36,,52,50,14,15,7,7,0.6,0.6
2024-07-28T2000,1696A,114.6778,23.7569,河源市,源西,,9,9,9,6,8,24,,31,31,10,13,4,3,0.7,0.6
2024-07-28T2000,1697A,114.6944,23.7586,河源市,东埔,,9,6,6,6,5,23,,40,32,12,12,6,6,0.7,0.7
2024-07-28T2000,1698A,114.6892,23.7233,河源市,老城,,15,15,9,8,2,14,,38,30,16,9,4,4,0.5,0.4
2024-07-28T2000,1718A,115.4208,35.2464,菏泽市,气象局,,16,,16,6,9,49,,62,57,3,6,1,2,0.2,0.2
2024-07-28T2000,1719A,115.4747,35.2375,菏泽市,市政协,,15,,12,9,11,46,,56,53,2,4,2,2,0.1,0.2
2024-07-28T2000,3374A,115.5564,35.0891,菏泽市,定陶老年大学,,14,9,10,3,2,42,,54,50,9,10,2,2,0.2,0.3
2024-07-28T2000,3647A,115.4702,35.2706,菏泽市,菏泽医专,,17,6,13,3,8,53,,66,63,4,6,1,3,0.4,0.4
2024-07-28T2000,2514A,111.5264,24.4172,贺州市,环保小区,,19,19,13,7,6,53,,72,65,19,11,7,7,0.6,0.6
2024-07-28T2000,2515A,111.5608,24.4078,贺州市,政协大楼,,19,18,17,3,10,58,,68,66,14,9,10,8,0.5,0.5
2024-07-28T2000,3534A,111.4744,24.4553,贺州市,西湾,,13,,10,6,9,40,,140,,14,13,4,4,0.6,0.7
2024-07-28T2000,2385A,114.17,35.9019,鹤壁市,市监测站,,29,22,31,20,18,85,,100,98,7,7,3,3,0.8,0.8
2024-07-28T2000,2386A,114.2956,35.7511,鹤壁市,市交警支队,,43,,25,30,18,80,,85,84,8,8,3,2,0.5,0.4
2024-07-28T2000,2387A,114.2878,35.7306,鹤壁市,迎宾馆,,29,,15,18,10,90,,92,91,8,9,4,3,0.8,0.8
2024-07-28T2000,3474A,114.2617,35.6822,鹤壁市,大新区,,,21,21,,,75,,82,81,9,9,3,3,0.4,0.3
2024-07-28T2000,3596A,114.1572,35.9603,鹤壁市,南山宾馆,,38,,18,26,25,68,,96,90,6,8,1,2,0.4,0.7
2024-07-28T2000,2244A,130.2537,47.3416,鹤岗市,哈啤分公司,,15,15,17,10,11,47,,63,62,8,11,14,14,0.4,0.5
2024-07-28T2000,2245A,130.2684,47.3086,鹤岗市,斯达机电,,22,19,15,15,7,46,,57,56,12,11,14,12,0.3,0.3
2024-07-28T2000,2246A,130.3114,47.3388,鹤岗市,东山纸板厂,,23,,10,16,16,28,,45,42,16,12,15,15,0.3,0.4
2024-07-28T2000,2247A,130.1097,47.3382,鹤岗市,五号水库,,17,6,5,3,5,52,,67,63,5,10,10,10,0.3,0.4
2024-07-28T2000,2263A,127.4833,50.2524,黑河市,交通局,,16,16,16,3,6,44,,47,47,4,6,7,7,0.4,0.4
2024-07-28T2000,2264A,127.5144,50.2341,黑河市,环保局,,22,22,10,6,6,36,,44,43,7,5,4,3,0.4,0.3
2024-07-28T2000,2265A,127.5291,50.2472,黑河市,大黑河岛,,,,5,9,8,,,,,15,10,1,1,,
2024-07-28T2000,1074A,115.6838,37.7541,衡水市,电机北厂,,34,34,26,14,13,87,,86,86,3,4,3,4,0.3,0.3
2024-07-28T2000,1075A,115.6303,37.7316,衡水市,市监测站,,30,16,17,8,8,95,,101,101,6,8,3,2,0.6,0.4
2024-07-28T2000,3188A,115.6683,37.7217,衡水市,市城管局,,29,15,14,14,11,92,,96,96,3,5,3,3,0.2,0.2
2024-07-28T2000,3459A,115.5989,37.5491,衡水市,地表水厂,,28,28,20,8,4,66,,87,86,9,5,4,3,0.3,0.3
2024-07-28T2000,2456A,112.5003,26.9167,衡阳市,原169医院,,40,40,6,8,8,49,,63,,6,3,11,9,0.5,0.5
2024-07-28T2000,2457A,112.6194,26.9258,衡阳市,衡阳化工总厂,,,25,9,,,33,,64,52,16,6,5,5,0.5,0.5
2024-07-28T2000,2458A,112.6211,26.8956,衡阳市,珠晖区环保局,,,23,9,,,33,,69,53,25,6,9,6,1.0,0.7
2024-07-28T2000,2459A,112.6197,26.8733,衡阳市,市委党校,,26,,6,18,9,53,,70,58,8,6,3,3,1.7,0.7
2024-07-28T2000,2460A,112.6006,26.8919,衡阳市,市监测站,,16,14,7,11,6,43,,64,55,17,9,7,6,0.7,0.7
2024-07-28T2000,2461A,112.5664,26.9056,衡阳市,真空机电公司,,17,11,5,6,6,53,,63,57,7,4,6,5,0.7,0.6
2024-07-28T2000,3399A,112.6703,26.882,衡阳市,师范学院,,15,15,8,8,5,38,,70,56,12,6,8,7,0.9,0.6
2024-07-28T2000,2608A,103.3772,23.3993,红河哈尼族彝族自治州,污水处理厂,,32,,14,22,16,55,,66,64,10,8,8,9,0.5,0.5
2024-07-28T2000,2609A,103.3861,23.35,红河哈尼族彝族自治州,监测站,,22,21,18,15,14,42,,68,58,8,8,8,23,0.4,0.4
2024-07-28T2000,3038A,103.3758,23.368,红河哈尼族彝族自治州,州图书馆,,19,19,22,10,8,44,,64,56,10,7,6,15,0.5,0.5
2024-07-28T2000,1090A,111.6507,40.7517,呼和浩特市,呼市一监,,41,41,15,8,5,106,,112,111,12,12,7,6,0.4,0.4
2024-07-28T2000,1091A,111.6572,40.8033,呼和浩特市,小召,,35,9,11,3,5,110,,113,113,10,15,7,7,0.5,0.5
2024-07-28T2000,1094A,111.7516,40.8369,呼和浩特市,如意水处理厂,,34,22,12,7,4,107,,118,115,34,27,6,6,0.3,0.3
2024-07-28T2000,1095A,111.7276,40.8062,呼和浩特市,二十九中,,35,9,13,9,5,110,,121,119,13,12,3,3,0.4,0.4
2024-07-28T2000,1096A,111.5512,40.7866,呼和浩特市,工大金川校区,,31,15,11,3,3,99,,109,108,17,15,4,4,0.3,0.3
2024-07-28T2000,1097A,111.717,40.7612,呼和浩特市,化肥厂生活区,,38,25,26,6,6,119,,128,126,16,15,7,6,0.5,0.5
2024-07-28T2000,3698A,111.5968,40.8178,呼和浩特市,红旗小学,,31,14,8,3,3,99,,117,115,22,12,3,3,0.3,0.3
2024-07-28T2000,3699A,111.6518,40.8389,呼和浩特市,海东办,,34,17,11,3,4,106,,116,115,13,16,5,5,0.6,0.5
2024-07-28T2000,2192A,119.7594,49.2261,呼伦贝尔市,区环保局,,42,37,21,29,14,53,,83,78,26,11,3,4,0.6,0.5
2024-07-28T2000,3061A,119.7512,49.1577,呼伦贝尔市,国华电力东,,28,,11,19,10,78,,92,90,6,4,3,5,0.2,0.2
2024-07-28T2000,1250A,120.0751,30.8669,湖州市,城西水厂,,36,36,22,17,8,67,,92,89,14,9,4,4,0.5,0.4
2024-07-28T2000,2873A,120.0875,30.8955,湖州市,仁皇山新区,,34,34,20,19,10,73,,99,95,11,9,6,6,0.5,0.4
2024-07-28T2000,2907A,120.1844,30.8596,湖州市,吴兴区站,,30,30,18,16,10,63,,90,87,10,6,6,6,0.3,0.3
2024-07-28T2000,3562A,120.4148,30.8538,湖州市,南浔区站,,27,27,19,13,9,56,,83,79,10,5,4,4,0.4,0.3
2024-07-28T2000,1607A,120.9092,40.7136,葫芦岛市,龙港区,,46,45,24,32,8,89,,86,86,5,8,4,6,0.8,0.6
2024-07-28T2000,1608A,120.8392,40.7514,葫芦岛市,化工街,,29,29,10,14,5,82,,73,73,11,12,2,2,1.2,0.7
2024-07-28T2000,1609A,120.8341,40.7073,葫芦岛市,新区,,38,35,18,26,8,84,,79,79,5,8,4,4,0.8,0.4
2024-07-28T2000,1610A,120.8695,40.7677,葫芦岛市,东城区,细颗粒物(PM2.5),52,36,16,36,10,132,,100,100,9,11,5,5,1.0,0.6
2024-07-28T2000,2482A,109.5981,27.5721,怀化市,林科所,,23,16,14,6,6,72,,82,80,2,4,2,4,0.6,0.6
2024-07-28T2000,2483A,109.9453,27.5444,怀化市,河西地税局,,20,8,14,6,11,62,,70,68,4,6,8,8,0.4,0.4
2024-07-28T2000,2484A,109.9781,27.5342,怀化市,市四医院,,18,14,18,9,12,56,,70,67,10,6,4,4,0.6,0.6
2024-07-28T2000,2485A,109.9972,27.5578,怀化市,监测楼,,18,15,19,12,11,55,,70,67,9,7,5,5,0.8,0.8
2024-07-28T2000,2486A,110.0394,27.583,怀化市,市委党校,,25,18,18,17,11,43,,72,66,6,7,7,8,0.5,0.5
2024-07-28T2000,1210A,119.036,33.5981,淮安市,钵池山,,43,27,17,12,10,135,,128,128,11,11,6,6,0.7,0.7
2024-07-28T2000,1211A,119.007,33.575,淮安市,北京南路,,39,22,18,12,9,123,,118,118,8,8,7,7,0.5,0.5
2024-07-28T2000,1212A,118.989,33.6067,淮安市,市监测站,,40,29,24,19,13,126,,117,117,14,15,6,7,0.7,0.8
2024-07-28T2000,1213A,119.135,33.5039,淮安市,楚州区监测站,,35,34,25,10,9,110,,120,120,17,13,8,6,0.5,0.5
2024-07-28T2000,1214A,119.0186,33.6297,淮安市,淮阴区监测站,,43,29,24,14,12,136,,124,124,12,12,6,7,0.4,0.3
2024-07-28T2000,3426A,118.8755,33.2894,淮安市,新华书店,,35,26,15,11,10,111,,107,107,11,11,5,6,0.5,0.5
2024-07-28T2000,2282A,116.8004,33.975,淮北市,监测站,,20,20,14,8,8,41,,77,68,13,7,4,4,0.5,0.5
2024-07-28T2000,2283A,116.8091,33.9007,淮北市,烈山区政府,,23,15,14,8,9,72,,79,78,5,5,6,6,0.4,0.4
2024-07-28T2000,3330A,116.8873,33.9836,淮北市,杜集区检察院,,22,22,20,3,10,54,,83,79,8,4,5,5,0.5,0.5
2024-07-28T2000,4017A,116.7923,33.9535,淮北市,市博物馆,,28,28,14,10,9,48,,79,74,8,3,3,3,0.6,0.5
2024-07-28T2000,2277A,116.8305,32.7727,淮南市,潘集区政府,,17,17,15,9,8,52,,67,62,7,6,5,4,0.4,0.4
2024-07-28T2000,2278A,117.0067,32.6524,淮南市,师范学院,,18,10,15,3,7,56,,75,69,2,3,8,9,0.2,0.1
2024-07-28T2000,2279A,116.8569,32.5951,淮南市,谢家集区政府,,15,14,9,8,6,45,,65,58,11,7,5,5,0.1,0.1
2024-07-28T2000,2280A,116.8281,32.633,淮南市,八公山区政府,,16,15,19,3,6,49,,65,59,8,5,6,8,0.1,0.1
2024-07-28T2000,2281A,116.6325,32.6201,淮南市,焦岗湖风景区管理处,,8,7,7,3,4,24,,34,31,9,8,5,5,0.1,0.1
2024-07-28T2000,2894A,117.0566,32.6531,淮南市,经济技术开发区消防队,,18,9,10,3,4,55,,75,70,5,4,4,4,0.3,0.3
2024-07-28T2000,3329A,117.0108,32.5893,淮南市,山南新区,,18,16,17,3,6,55,,74,69,2,3,5,5,0.3,0.3
2024-07-28T2000,2446A,114.9028,30.4742,黄冈市,职工中心,,18,18,15,7,7,45,,77,74,10,8,9,8,0.3,0.3
2024-07-28T2000,2929A,114.8858,30.4519,黄冈市,红卫路,,16,16,14,8,7,45,,78,75,13,9,10,8,0.3,0.3
2024-07-28T2000,3398A,114.9136,30.4445,黄冈市,市林业局,,15,15,13,7,8,44,,78,76,8,6,10,8,0.3,0.3
2024-07-28T2000,2672A,102.0199,35.5102,黄南藏族自治州,同仁县隆务镇,,37,26,26,7,11,116,,126,124,2,2,14,14,0.3,0.3
2024-07-28T2000,2295A,118.2903,29.6963,黄山市,延安路89号,,23,19,15,7,5,73,,66,66,4,2,4,4,0.4,0.4
2024-07-28T2000,2296A,118.327,29.7178,黄山市,黄山东路89号,,26,26,10,6,4,68,,70,70,5,3,6,6,0.4,0.4
2024-07-28T2000,2297A,118.1371,30.2756,黄山市,黄山区政府5号楼,,18,16,7,8,5,57,,62,62,6,4,6,6,0.3,0.3
2024-07-28T2000,2423A,115.0601,30.2313,黄石市,沈家营,,26,26,22,3,2,43,,78,74,14,14,18,18,0.6,0.5
2024-07-28T2000,2424A,115.0817,30.2006,黄石市,陈家湾,,25,25,25,3,4,43,,72,68,8,6,10,9,0.4,0.4
2024-07-28T2000,2426A,114.8988,30.2019,黄石市,铁山,,18,18,15,3,1,49,,72,68,2,5,10,10,0.2,0.3
2024-07-28T2000,2427A,115.0307,30.2092,黄石市,团城山,,15,15,15,3,3,47,,72,69,6,7,10,11,0.3,0.4
2024-07-28T2000,3149A,115.0235,30.1578,黄石市,笔架山北路,,,23,18,,0,45,,65,62,4,7,5,5,0.2,0.3
2024-07-28T2000,1392A,114.4183,23.0528,惠州市,河南岸金山湖子站,,11,6,5,3,3,33,,40,34,4,4,4,4,0.4,0.4
2024-07-28T2000,1393A,114.4053,23.0822,惠州市,下埔横江三路子站,,12,12,8,7,6,35,,44,36,7,8,7,7,0.5,0.5
2024-07-28T2000,1394A,114.4103,23.1142,惠州市,江北云山西路子站,,11,8,5,3,3,33,,42,35,4,4,3,3,0.5,0.5
2024-07-28T2000,1395A,114.4645,22.7833,惠州市,惠阳区承修路船湖子站,,10,6,7,3,3,32,,39,37,15,14,2,1,0.4,0.5
2024-07-28T2000,1396A,114.5317,22.7422,惠州市,大亚湾管委会子站,,13,12,10,3,4,39,,42,40,10,12,6,6,0.5,0.6
2024-07-28T2000,3314A,114.4338,22.8134,惠州市,惠阳秋长,,,,7,5,6,34,,38,38,,11,5,4,0.9,0.9
2024-07-28T2000,3452A,114.6517,22.775,惠州市,大亚湾霞涌,,12,9,7,3,3,37,,39,34,4,5,4,3,0.5,0.5
2024-07-28T2000,2240A,130.9762,45.3001,鸡西市,环保局,,16,16,18,6,7,22,,37,29,7,10,8,8,0.2,0.2
2024-07-28T2000,2243A,130.9429,45.3039,鸡西市,第一中学,,10,10,12,3,4,23,,45,34,5,5,4,4,0.2,0.3
2024-07-28T2000,3707A,131.0207,45.3073,鸡西市,欧美日汽修厂,,19,19,24,10,8,15,,39,30,11,10,4,4,0.6,0.7
2024-07-28T2000,3709A,130.9967,45.3106,鸡西市,市政设施管理处,,25,25,27,6,8,18,,44,34,18,17,7,8,0.6,0.6
2024-07-28T2000,2367A,114.9754,27.0803,吉安市,红声器材厂,,12,10,16,3,6,36,,47,42,6,6,11,11,0.5,0.5
2024-07-28T2000,2368A,114.9658,27.0999,吉安市,市森林工业局,,13,11,15,8,7,39,,50,44,3,6,10,10,0.3,0.3
2024-07-28T2000,2369A,114.99,27.1312,吉安市,市环境监测站,,11,10,12,3,5,34,,53,32,6,4,14,15,0.5,0.2
2024-07-28T2000,2370A,115.0093,27.0968,吉安市,青原区法院,,12,11,17,3,6,37,,45,43,8,7,13,14,0.4,0.4
2024-07-28T2000,1772A,126.54,43.8622,吉林市,哈达湾,,32,32,8,19,4,32,,46,42,18,10,4,4,0.7,0.5
2024-07-28T2000,1773A,126.5844,43.8358,吉林市,东局子,,9,6,6,3,3,26,,40,34,17,9,4,4,0.6,0.5
2024-07-28T2000,1774A,126.5052,43.8245,吉林市,电力学院,,9,8,8,3,3,26,,47,45,17,9,11,10,0.6,0.5
2024-07-28T2000,1775A,126.6133,43.8972,吉林市,江北,,12,12,9,3,3,27,,43,38,13,8,8,7,0.7,0.6
2024-07-28T2000,1776A,126.555,43.8306,吉林市,江南公园,,13,13,5,7,6,33,,47,43,15,10,2,2,0.7,0.7
2024-07-28T2000,1778A,126.7061,43.7133,吉林市,丰满,,,,,,,,,,,,,,,,
2024-07-28T2000,2868A,126.4739,43.953,吉林市,九站,,12,6,6,3,4,37,,52,51,16,6,2,2,0.5,0.5
2024-07-28T2000,1299A,116.9862,36.6114,济南市,科干所,,16,,9,3,5,51,,56,56,8,12,7,7,0.5,0.5
2024-07-28T2000,1300A,116.9376,36.665,济南市,农科所,,18,7,13,3,5,56,,54,54,13,16,8,8,0.3,0.3
2024-07-28T2000,1301A,117.1265,36.6734,济南市,开发区,,19,6,14,3,5,59,,60,60,8,17,9,9,0.5,0.6
2024-07-28T2000,1303A,117.0624,36.6868,济南市,省种子仓库,,18,6,16,3,8,55,,57,57,10,16,7,8,0.5,0.6
2024-07-28T2000,1304A,116.9489,36.6447,济南市,机床二厂,,20,6,12,3,3,63,,70,70,9,13,8,8,0.3,0.3
2024-07-28T2000,1305A,117.0495,36.663,济南市,市监测站,,19,6,11,3,8,60,,64,64,10,18,7,8,0.4,0.5
2024-07-28T2000,1306A,116.7675,36.5484,济南市,长清党校,,19,6,8,3,4,59,,63,63,6,10,9,8,0.5,0.5
2024-07-28T2000,1616A,117.6795,36.229,济南市,技术学院,,20,,0,3,3,63,,55,52,4,11,8,8,0.7,0.8
2024-07-28T2000,1961A,117.532,36.6868,济南市,东山小学,,20,6,11,3,4,62,,55,55,10,18,5,5,0.7,0.8
2024-07-28T2000,3059A,117.7161,36.2049,济南市,泰兴公司,,15,,6,3,3,48,,44,39,11,18,8,8,0.5,0.6
2024-07-28T2000,3064A,117.6867,36.2171,济南市,莱芜战役纪念馆,,16,7,7,3,0,51,,45,40,6,13,8,8,0.5,0.6
2024-07-28T2000,3494A,117.1673,36.9782,济南市,济阳区政府,,17,17,19,3,6,49,,70,69,9,5,5,6,0.4,0.4
2024-07-28T2000,3495A,117.1171,36.63,济南市,锦屏中学,,18,6,8,3,4,56,,54,54,9,13,9,9,0.5,0.5
2024-07-28T2000,3682A,116.9814,36.6819,济南市,济南四建,,17,12,12,3,8,53,,59,59,9,17,8,8,0.6,0.7
2024-07-28T2000,1653A,116.6251,35.4302,济宁市,火炬城,,16,11,11,3,5,51,,64,62,11,8,7,7,0.7,0.7
2024-07-28T2000,1655A,116.5491,35.4042,济宁市,电化厂,,17,17,11,7,8,38,,52,50,13,6,5,5,0.7,0.7
2024-07-28T2000,3500A,116.5814,35.3707,济宁市,北湖一中,,15,11,12,7,2,47,,60,57,9,6,7,7,0.8,0.7
2024-07-28T2000,3501A,116.8249,35.5593,济宁市,服务中心,,13,13,9,3,2,38,,54,52,10,6,4,4,0.6,0.5
2024-07-28T2000,3678A,116.5907,35.4054,济宁市,市第七中学,,14,13,9,9,4,42,,55,52,14,9,3,3,0.6,0.5
2024-07-28T2000,2255A,130.2751,46.8028,佳木斯市,佳纺,,20,20,12,6,7,45,,84,80,22,8,9,9,0.5,0.5
2024-07-28T2000,2256A,130.3995,46.8307,佳木斯市,发电厂,,15,14,16,6,9,46,,82,79,19,10,5,6,0.7,0.6
2024-07-28T2000,2257A,130.3258,46.7975,佳木斯市,环保局,,19,15,22,8,9,59,,76,75,12,8,7,7,0.4,0.5
2024-07-28T2000,2258A,130.3648,46.8032,佳木斯市,十一中,,21,21,14,7,7,59,,78,77,18,11,8,8,0.4,0.4
2024-07-28T2000,2259A,130.3794,46.7588,佳木斯市,四丰,,12,11,11,6,6,37,,60,58,17,9,1,1,0.5,0.6
2024-07-28T2000,1252A,120.7436,30.778,嘉兴市,清河小学,,25,25,18,16,8,60,,75,73,16,7,7,6,0.4,0.5
2024-07-28T2000,1253A,120.726,30.7478,嘉兴市,嘉兴学院,,25,25,16,14,8,63,,68,67,11,8,1,1,0.4,0.4
2024-07-28T2000,2872A,120.7846,30.7525,嘉兴市,南湖区残联,,32,32,22,22,10,66,,85,82,13,5,5,4,0.4,0.3
2024-07-28T2000,3407A,120.6916,30.7739,嘉兴市,秀洲住建,,31,31,11,12,10,78,,85,85,10,6,3,3,0.5,0.4
2024-07-28T2000,1945A,98.2908,39.7711,嘉峪关市,气象局,,43,19,44,9,13,135,,142,142,16,14,2,5,0.1,0.1
2024-07-28T2000,2884A,98.2672,39.7978,嘉峪关市,酒钢宾馆,,50,19,42,9,11,158,,149,149,8,11,9,9,0.4,0.4
2024-07-28T2000,3248A,98.2643,39.7724,嘉峪关市,雄关区,,45,18,35,18,18,143,,140,140,8,13,7,8,0.3,0.4
2024-07-28T2000,1383A,113.1064,22.6058,江门市,北街,,17,10,13,9,7,12,,39,34,34,14,3,3,0.5,0.4
2024-07-28T2000,1384A,113.0731,22.5835,江门市,西区,,17,13,13,9,5,11,,43,36,33,13,5,5,0.6,0.4
2024-07-28T2000,1385A,113.0219,22.5311,江门市,圭峰西,,12,8,14,8,8,27,,37,36,18,12,3,3,0.4,0.6
2024-07-28T2000,1386A,113.0828,22.5947,江门市,东湖,,26,21,16,18,8,11,,39,33,30,12,6,6,0.5,0.4
2024-07-28T2000,3311A,113.1075,22.5647,江门市,江海富民,,29,24,26,20,17,13,,42,37,34,15,6,6,0.5,0.4
2024-07-28T2000,3449A,113.05,22.4667,江门市,新会银湖,颗粒物(PM10),54,57,12,3,2,23,,33,32,18,14,4,4,0.6,0.4
2024-07-28T2000,1828A,113.227,35.2125,焦作市,市环保局,,32,32,40,12,21,74,,135,120,8,16,3,6,0.1,0.4
2024-07-28T2000,1830A,113.1992,35.2590,焦作市,影视城,,,,,,,,,,,,,,,,
2024-07-28T2000,3169A,113.2725,35.2067,焦作市,太极体育中心,,43,43,48,13,21,75,,132,116,2,8,3,4,0.3,0.5
2024-07-28T2000,3335A,113.3137,35.2641,焦作市,马村街道办,,35,35,35,22,20,74,,134,117,11,11,6,5,0.5,0.6
2024-07-28T2000,3336A,113.2465,35.2373,焦作市,焦作技师学院,,30,30,38,9,19,66,,124,109,5,11,3,3,0.3,0.6
2024-07-28T2000,3477A,113.1656,35.2539,焦作市,中站许衡医院,,28,20,28,19,19,76,,140,123,2,9,3,7,0.5,0.7
2024-07-28T2000,3981A,113.2449,35.1803,焦作市,原李万街道办,,45,45,42,14,18,80,,140,124,9,13,4,9,0.1,0.3
2024-07-28T2000,1708A,116.3701,23.5345,揭阳市,新兴,,20,20,19,12,10,12,,34,29,32,17,7,4,0.8,0.7
2024-07-28T2000,1709A,116.3264,23.5443,揭阳市,西马,,19,19,16,8,7,22,,36,33,18,10,2,2,0.9,0.8
2024-07-28T2000,1710A,116.3611,23.5626,揭阳市,东兴,,18,18,20,7,7,21,,33,30,20,13,7,4,0.9,0.8
2024-07-28T2000,1711A,116.4151,23.5294,揭阳市,渔湖,,14,14,21,3,5,18,,35,30,24,15,4,3,0.7,0.8
2024-07-28T2000,3320A,116.403,23.5699,揭阳市,曲溪,,15,15,10,8,7,17,,34,27,21,15,7,4,0.8,0.7
2024-07-28T2000,1944A,102.1692,38.5167,金昌市,天庆家园,,38,36,63,12,27,119,,128,128,11,16,16,15,0.6,0.7
2024-07-28T2000,3170A,102.1864,38.5253,金昌市,市委党校,,40,40,80,13,23,118,,131,130,14,12,40,12,0.6,0.5
2024-07-28T2000,4022A,102.1647,38.5371,金昌市,金川区人防中心,,40,38,62,16,23,126,,135,134,11,10,16,14,0.6,0.6
2024-07-28T2000,1262A,119.647,29.077,金华市,十五中,,25,25,16,7,5,46,,66,64,8,7,2,2,0.4,0.4
2024-07-28T2000,1263A,119.686,29.1029,金华市,监测站,,21,21,15,8,6,48,,68,65,6,8,2,2,0.4,0.4
2024-07-28T2000,3659A,119.656,29.1131,金华市,气象局,,26,26,17,12,9,48,,67,65,5,11,3,3,0.2,0.2
2024-07-28T2000,1767A,121.1115,41.0879,锦州市,南山,颗粒物(PM10),51,52,15,18,7,99,,81,81,16,13,3,2,1.2,0.5
2024-07-28T2000,1768A,121.0533,40.8434,锦州市,开发区,细颗粒物(PM2.5),53,46,20,37,9,110,,98,98,1,7,4,4,1.0,0.6
2024-07-28T2000,1769A,121.1836,41.1119,锦州市,百股街道,,41,41,11,12,2,94,,80,80,12,6,2,4,1.3,0.7
2024-07-28T2000,1770A,121.1178,41.1222,锦州市,天安街道,颗粒物(PM10),52,53,16,11,6,81,,67,67,18,10,1,2,1.4,0.7
2024-07-28T2000,1771A,121.1303,41.1386,锦州市,北湖公园,,43,35,14,30,6,74,,64,64,19,8,1,2,1.2,0.6
2024-07-28T2000,2160A,112.85,35.5051,晋城市,自来水公司,,45,45,39,17,19,125,,143,143,10,14,6,7,0.6,0.9
2024-07-28T2000,2161A,112.8318,35.4936,晋城市,白云商贸,,50,50,54,12,18,117,,135,135,12,14,6,7,0.8,1
2024-07-28T2000,2162A,112.8508,35.4887,晋城市,市环保局,,40,40,39,17,21,121,,138,138,12,16,7,8,0.6,0.9
2024-07-28T2000,2163A,112.8676,35.4897,晋城市,技术学院,颗粒物(PM10),59,68,37,24,22,120,,136,136,12,16,7,8,0.9,1.2
2024-07-28T2000,2165A,112.8453,35.546,晋城市,白马寺,,,,,,,,,,,,,,,,
2024-07-28T2000,3620A,112.8271,35.4828,晋城市,泽州一中,,44,44,36,19,20,120,,139,139,12,14,8,9,0.8,1
2024-07-28T2000,2171A,112.7532,37.6945,晋中市,锦纶小区,,49,39,40,14,19,155,,192,191,9,10,9,8,0.4,0.4
2024-07-28T2000,2173A,112.7249,37.7067,晋中市,南都小区,,50,45,47,20,27,157,,194,193,11,13,8,8,0.4,0.4
2024-07-28T2000,2174A,112.6991,37.6982,晋中市,榆次区政府,细颗粒物(PM2.5),53,48,42,37,28,157,,189,188,11,13,8,8,0.5,0.4
2024-07-28T2000,2865A,112.7195,37.6828,晋中市,榆次三中,,49,44,43,12,18,154,,193,192,12,10,8,8,0.5,0.5
2024-07-28T2000,2439A,112.2014,31.0481,荆门市,竹园小学,,18,18,26,12,13,39,,75,54,17,11,9,9,0.5,0.5
2024-07-28T2000,2440A,112.1969,30.9891,荆门市,掇刀,,22,20,22,15,15,46,,84,60,16,10,9,5,0.6,0.5
2024-07-28T2000,2441A,112.2213,31.0386,荆门市,石化一小,,22,22,24,13,12,42,,76,56,17,10,22,17,0.5,0.6
2024-07-28T2000,3012A,112.1849,31.0362,荆门市,西山林语,,15,,19,10,15,46,,82,58,11,7,6,6,0.7,0.6
2024-07-28T2000,3547A,112.1632,31.0138,荆门市,龙泉中学南校,,15,15,18,6,11,46,,83,57,13,7,9,8,0.5,0.4
2024-07-28T2000,1844A,112.2494,30.3197,荆州市,市图书馆,,19,,15,3,12,60,,72,62,11,11,6,6,0.5,0.6
2024-07-28T2000,1845A,112.2008,30.3544,荆州市,市委党校,,20,6,16,3,9,63,,74,63,7,8,5,6,0.6,0.7
2024-07-28T2000,3194A,112.2747,30.3122,荆州市,管委会,,20,8,13,3,12,62,,72,63,10,8,5,5,0.5,0.5
2024-07-28T2000,3548A,112.1655,30.3364,荆州市,学苑路,,21,6,6,3,16,65,,71,62,8,10,7,22,0.5,0.6
2024-07-28T2000,2342A,117.3102,29.3867,景德镇市,王港中学,,,,,,,,,,,,,,,,
2024-07-28T2000,2343A,117.2117,29.2933,景德镇市,老干部活动中心,,29,29,12,9,6,47,,51,51,7,6,8,9,0.3,0.2
2024-07-28T2000,2344A,117.1894,29.2789,景德镇市,兽医站,,18,7,17,6,6,55,,52,52,5,5,8,7,0.3,0.3
2024-07-28T2000,2345A,117.1547,29.2617,景德镇市,台达陶瓷,,15,14,12,9,7,46,,47,47,6,12,27,33,0.2,0.2
2024-07-28T2000,2346A,117.2461,29.2956,景德镇市,陶研所,,16,16,16,6,4,48,,57,55,4,2,4,4,0.2,0.2
2024-07-28T2000,1803A,115.9872,29.6815,九江市,十里,,13,13,7,8,4,34,,46,44,7,4,7,7,0.5,0.5
2024-07-28T2000,1804A,115.9584,29.7046,九江市,茅山头,,10,7,9,3,5,32,,51,48,8,8,7,9,0.4,0.4
2024-07-28T2000,1805A,115.9877,29.7295,九江市,西园,,13,10,7,9,5,34,,49,47,8,8,9,10,0.6,0.6
2024-07-28T2000,1806A,116.0172,29.6547,九江市,五七二七厂,,10,10,7,3,3,32,,49,46,6,7,9,9,0.8,0.8
2024-07-28T2000,1808A,115.9114,29.6038,九江市,综合工业园,,10,6,4,3,2,31,,67,50,13,3,8,9,0.3,0.4
2024-07-28T2000,1809A,116.0721,29.7535,九江市,石化总厂,,14,14,11,3,7,31,,51,48,9,7,10,10,0.7,0.7
2024-07-28T2000,1810A,115.9773,29.5698,九江市,庐山气象台,,15,,4,6,3,47,,54,54,2,2,7,11,0.3,0.5
2024-07-28T2000,3190A,116.0254,29.6994,九江市,外国语学校,,23,,7,16,4,36,,52,50,10,9,10,9,0.4,0.4
2024-07-28T2000,2658A,98.5061,39.7443,酒泉市,仓门街子站,,48,48,52,14,12,127,,132,132,8,12,14,29,0.3,0.3
2024-07-28T2000,2659A,98.4989,39.7256,酒泉市,油田生活基地,,44,39,58,15,17,138,,138,138,7,13,12,15,0.2,0.3
2024-07-28T2000,2698A,76.0072,39.4467,喀什地区,巡警大队,颗粒物(PM10),100,150,179,35,35,134,,128,128,9,43,4,5,0.2,0.5
2024-07-28T2000,2699A,75.9755,39.4694,喀什地区,吾办,颗粒物(PM10),97,144,138,44,44,134,,126,126,15,32,4,4,0.4,0.6
2024-07-28T2000,4027A,75.9483,39.4689,喀什地区,老干局,,,148,160,32,34,137,,127,127,8,36,4,4,,0.5
2024-07-28T2000,1824A,114.3389,34.7781,开封市,肿瘤医院,,17,12,20,3,6,52,,66,63,3,2,4,4,0.5,0.5
2024-07-28T2000,1826A,114.2885,34.7965,开封市,世纪星幼儿园,,18,10,19,3,9,56,,69,66,4,4,3,2,0.5,0.5
2024-07-28T2000,3147A,114.3438,34.8106,开封市,龙亭公园,,,5,20,,,50,,58,56,4,7,1,1,0.4,0.4
2024-07-28T2000,3210A,114.3644,34.7964,开封市,汴京公园,,16,6,21,3,15,49,,64,60,3,2,3,3,0.4,0.4
2024-07-28T2000,3473A,114.2485,34.8306,开封市,技师学院,,16,10,17,3,10,50,,68,65,3,6,4,4,0.6,0.6
2024-07-28T2000,3592A,114.4644,34.7556,开封市,祥符区生态环境局,,11,6,20,3,11,33,,52,50,18,9,2,3,0.2,0.5
2024-07-28T2000,1951A,84.895,45.6094,克拉玛依市,长征新村,,40,16,18,6,6,125,,119,119,6,3,10,9,0.2,0.2
2024-07-28T2000,1952A,84.8988,45.5893,克拉玛依市,南林小区,,21,21,18,10,8,67,,114,109,33,6,12,10,0.3,0.2
2024-07-28T2000,1954A,84.905,44.3396,克拉玛依市,独山子区,,40,30,42,25,16,127,,140,140,12,17,9,14,0.5,0.6
2024-07-28T2000,1955A,85.6979,46.098,克拉玛依市,乌尔禾区商贸楼,,31,10,18,3,6,97,,109,109,16,10,5,5,0.3,0.4
2024-07-28T2000,3612A,85.1045,45.6899,克拉玛依市,白碱滩区新站,,40,,17,21,12,125,,120,120,4,3,8,8,0.2,0.2
2024-07-28T2000,2697A,76.1454,39.7142,克孜勒苏柯尔克孜自治州,市人民政府,颗粒物(PM10),104,157,111,54,41,119,,130,130,10,11,9,12,0.3,0.3
2024-07-28T2000,3665A,76.1658,39.7157,克孜勒苏柯尔克孜自治州,克州文化中心,颗粒物(PM10),94,138,105,52,41,127,,132,132,6,16,11,13,0.3,0.3
2024-07-28T2000,1450A,102.8204,24.8886,昆明市,呈贡新区,,39,39,30,26,20,84,,99,99,10,15,5,5,0.7,0.8
2024-07-28T2000,1451A,102.6251,24.9608,昆明市,西山森林公园,,,,,,,,,,,,,,,,
2024-07-28T2000,1452A,102.7252,25.0902,昆明市,龙泉镇,,38,38,23,15,13,57,,73,73,10,13,6,6,0.6,0.6
2024-07-28T2000,1453A,102.7266,25.0375,昆明市,东风东路,,33,33,23,23,16,77,,76,76,17,17,2,2,0.6,0.5
2024-07-28T2000,1454A,102.6742,25.0669,昆明市,金鼎山,,32,32,20,11,12,68,,72,72,10,11,4,5,0.5,0.5
2024-07-28T2000,1455A,102.6644,25.0401,昆明市,碧鸡广场,,42,42,24,17,14,63,,75,75,11,12,5,3,0.5,0.5
2024-07-28T2000,3179A,102.7494,25.0119,昆明市,官渡区博物馆,,30,30,24,15,12,87,,88,88,10,17,7,6,0.4,0.5
2024-07-28T2000,3375A,102.8017,24.8336,昆明市,青年创业园,,26,22,22,18,16,75,,104,104,12,10,8,8,0.4,0.4
2024-07-28T2000,3550A,102.7997,24.9786,昆明市,昆明学院,,35,32,32,24,19,96,,98,98,11,18,6,5,0.5,0.5
2024-07-28T2000,3551A,102.5967,24.6736,昆明市,晋宁区生态环境分局,,28,,25,19,17,64,,71,70,17,16,5,5,0.6,0.5
2024-07-28T2000,3552A,102.6678,24.9856,昆明市,云天化总部,,25,25,20,13,15,63,,79,79,11,9,7,6,0.6,0.6
2024-07-28T2000,1456A,91.1319,29.6514,拉萨市,八廓街,,33,11,9,7,7,105,,103,103,10,10,6,5,0.3,0.2
2024-07-28T2000,1457A,91.1221,29.6747,拉萨市,市环保局,,33,8,11,6,6,105,,101,101,12,13,9,9,0.4,0.3
2024-07-28T2000,1458A,91.0874,29.6475,拉萨市,区监测站,,31,9,8,3,6,99,,99,99,16,13,7,7,0.2,0.2
2024-07-28T2000,1459A,91.1774,29.6541,拉萨市,西藏大学,,34,14,8,6,6,108,,102,102,6,5,11,10,0.2,0.2
2024-07-28T2000,1460A,90.9798,29.6588,拉萨市,区辐射站,,32,9,8,6,6,100,,101,101,20,13,8,8,0.2,0.2
2024-07-28T2000,1461A,91.0834,29.6292,拉萨市,拉萨火车站,,33,8,7,7,6,104,,102,102,16,9,9,9,0.2,0.2
2024-07-28T2000,2520A,109.2203,23.7256,来宾市,来宾技工学校,,30,,23,21,21,46,,50,50,12,12,6,6,0.7,0.7
2024-07-28T2000,3535A,109.1781,23.7297,来宾市,兴宾区政府,,18,,23,12,14,44,,47,47,8,10,4,4,0.8,0.8
2024-07-28T2000,4002A,109.2416,23.7461,来宾市,中南小学,,28,25,24,19,13,48,,56,56,11,12,8,8,0.8,0.8
2024-07-28T2000,1476A,103.631,36.1031,兰州市,兰炼宾馆,,41,37,49,23,26,130,,139,139,14,33,10,11,0.3,0.4
2024-07-28T2000,1477A,104.1373,35.9454,兰州市,榆中兰大校区,,,,,,,,,,,,,,,,
2024-07-28T2000,1478A,103.8412,36.0726,兰州市,生物制品所,,43,43,45,26,25,125,,125,125,20,35,10,10,0.4,0.7
2024-07-28T2000,1479A,103.831,36.0464,兰州市,铁路设计院,,42,42,48,24,23,92,,111,111,50,50,9,11,0.5,0.6
2024-07-28T2000,3186A,103.7158,36.1058,兰州市,教育港,颗粒物(PM10),52,53,55,29,31,131,,133,133,9,27,7,7,0.3,0.5
2024-07-28T2000,3241A,103.7439,36.0842,兰州市,百合公园,,43,33,45,16,18,137,,130,130,13,33,9,8,0.5,0.6
2024-07-28T2000,3242A,103.9611,35.998,兰州市,和平,,34,34,47,18,20,104,,132,132,15,26,6,9,0.4,0.4
2024-07-28T2000,3245A,103.6633,36.533,兰州新区,新区管委会,,42,35,44,22,22,134,,164,161,14,11,9,11,0.4,0.5
2024-07-28T2000,3246A,103.6975,36.4789,兰州新区,舟曲中学,,46,36,49,19,19,146,,159,159,13,15,8,10,0.5,0.5
2024-07-28T2000,1067A,116.6708,39.5111,廊坊市,药材公司,,30,28,28,10,10,96,,120,120,9,10,2,2,0.4,0.4
2024-07-28T2000,1068A,116.7214,39.5589,廊坊市,开发区,,37,31,23,13,13,117,,134,134,6,8,3,3,0.5,0.4
2024-07-28T2000,1070A,116.7244,39.5269,廊坊市,北华航天学院,,48,48,35,18,12,111,,129,129,6,8,3,3,0.4,0.4
2024-07-28T2000,2919A,116.7022,39.5453,廊坊市,河北工业大学,,34,34,31,15,11,108,,123,123,5,8,3,3,0.4,0.4
2024-07-28T2000,2535A,103.7723,29.5462,乐山市,花湖湾,,28,,17,19,16,70,,76,76,7,7,4,3,0.3,0.3
2024-07-28T2000,2536A,103.7627,29.5844,乐山市,牛耳桥,,24,24,27,16,16,69,,81,81,17,16,3,2,0.3,0.4
2024-07-28T2000,2537A,103.7508,29.6006,乐山市,市第三水厂,,26,26,28,13,16,72,,86,86,16,16,2,2,0.3,0.4
2024-07-28T2000,2538A,103.7571,29.5664,乐山市,市监测站,,25,23,26,13,14,77,,85,85,11,13,2,3,0.4,0.5
2024-07-28T2000,3361A,103.7311,29.5628,乐山市,理工大学,,23,20,26,14,15,72,,87,87,13,11,3,3,0.2,0.2
2024-07-28T2000,2598A,100.2143,26.8576,丽江市,西南郊,,,,,,,,,,,,,,,,
2024-07-28T2000,2599A,100.2497,26.8802,丽江市,丽江古城,,29,24,24,20,15,60,,71,70,12,15,6,6,0.7,0.7
2024-07-28T2000,2600A,100.2203,26.8906,丽江市,市中心,,31,31,20,14,13,66,,74,74,19,13,10,9,0.6,0.5
2024-07-28T2000,1267A,119.914,28.4514,丽水市,监测站大楼,,19,16,13,13,10,46,,58,56,5,5,2,2,0.4,0.4
2024-07-28T2000,1268A,119.93,28.4586,丽水市,莲都小学,,22,22,18,8,6,47,,56,56,3,4,4,3,0.4,0.4
2024-07-28T2000,1269A,119.879,28.4231,丽水市,余庄前,,18,18,14,8,7,45,,54,52,4,5,3,2,0.3,0.3
2024-07-28T2000,1173A,119.176,34.5885,连云港市,市环境监测站,,28,22,18,12,7,89,,99,99,13,10,4,4,0.4,0.4
2024-07-28T2000,3000A,119.3581,34.6972,连云港市,德源药业,,,19,18,3,7,,,141,141,19,14,3,1,0.4,0.4
2024-07-28T2000,3007A,119.178,34.844,连云港市,新城一中,,37,15,19,10,8,116,,115,115,10,14,2,3,0.7,0.7
2024-07-28T2000,3008A,119.3608,34.7519,连云港市,胡沟管理处,,35,19,18,9,7,112,,104,104,4,4,2,1,0.4,0.4
2024-07-28T2000,3009A,119.1478,34.5911,连云港市,矿山设计院,,34,24,19,7,9,107,,110,110,11,11,3,3,0.4,0.4
2024-07-28T2000,3434A,119.2413,34.6539,连云港市,工贸学校,,36,14,18,9,10,114,,116,116,11,11,6,6,0.5,0.5
2024-07-28T2000,3664A,119.4172,34.7341,连云港市,连云街道,,36,20,19,10,9,114,,113,113,10,8,2,3,0.4,0.4
2024-07-28T2000,2571A,102.3431,27.8099,凉山彝族自治州,青龙寺,,25,18,16,8,10,77,,90,90,5,4,5,4,1.0,0.7
2024-07-28T2000,2572A,102.2721,27.8415,凉山彝族自治州,邛海宾馆,,25,20,13,17,10,55,,86,85,8,7,8,7,1.1,0.7
2024-07-28T2000,2573A,102.2625,27.898,凉山彝族自治州,西昌市政府,,22,16,15,7,9,68,,84,84,16,9,18,9,1.5,0.8
2024-07-28T2000,2574A,102.2685,27.8851,凉山彝族自治州,凉山州政府,,38,30,12,26,9,83,,92,92,16,8,21,8,1.4,0.8
2024-07-28T2000,2575A,102.237,27.8914,凉山彝族自治州,长安,,32,32,20,16,12,72,,74,74,20,14,20,12,1.2,0.6
2024-07-28T2000,2212A,123.2,41.1953,辽阳市,宏伟区,,21,21,12,10,3,52,,41,41,11,4,5,5,1.0,0.5
2024-07-28T2000,2213A,123.1683,41.2495,辽阳市,新华园,,24,24,12,7,3,64,,47,47,10,5,4,4,0.9,0.6
2024-07-28T2000,2214A,123.2354,41.2639,辽阳市,滨河路,,20,20,10,10,3,64,,46,46,8,6,8,8,0.7,0.4
2024-07-28T2000,2215A,123.149,41.2991,辽阳市,铁西工业园,,46,46,15,10,5,47,,37,37,24,7,8,7,3.2,0.9
2024-07-28T2000,2227A,125.1358,42.8845,辽源市,环保局,,20,10,6,3,2,64,,42,42,4,5,7,7,0.5,0.5
2024-07-28T2000,3239A,125.0764,42.9078,辽源市,银鹰制药,,20,12,6,6,2,62,,43,43,4,7,5,5,0.7,0.7
2024-07-28T2000,1625A,115.9848,36.4372,聊城市,区政府,,17,13,16,3,9,53,,78,78,10,10,7,7,0.5,0.5
2024-07-28T2000,2878A,116.0072,36.4343,聊城市,聊大东校,,18,6,9,3,16,56,,81,80,8,8,5,6,0.6,0.6
2024-07-28T2000,3200A,115.9819,36.4978,聊城市,监控中心,,19,6,9,3,0,58,,,,8,16,1,3,0.4,0.6
2024-07-28T2000,3513A,116.0445,36.4361,聊城市,九州社区,,17,17,23,3,8,47,,70,68,10,11,4,3,0.6,0.6
2024-07-28T2000,4018A,116.0567,36.4608,聊城市,星美广场,,18,18,30,3,11,52,,70,70,10,12,4,5,0.5,0.5
2024-07-28T2000,2632A,94.3681,29.6376,林芝市,林芝监测站,,14,8,6,6,6,43,,51,51,4,3,8,8,0.4,0.4
2024-07-28T2000,2633A,94.3616,29.6616,林芝市,林芝人民医院,,15,8,8,6,6,47,,52,52,7,6,10,10,0.2,0.2
2024-07-28T2000,2603A,100.0781,23.8982,临沧市,市环保局,,39,,19,27,18,45,,58,58,12,10,4,6,0.3,0.3
2024-07-28T2000,2604A,100.0894,23.8822,临沧市,市气象局,,18,12,16,12,12,38,,59,57,11,9,4,6,0.3,0.3
2024-07-28T2000,1733A,111.5531,36.0783,临汾市,临钢医院,颗粒物(PM10),54,58,55,14,20,131,,178,173,16,14,4,7,0.5,0.7
2024-07-28T2000,1734A,111.5028,36.0714,临汾市,技工学校,颗粒物(PM10),53,56,47,19,22,160,,194,192,23,17,6,10,0.6,0.8
2024-07-28T2000,1736A,111.5018,36.0855,临汾市,市委,臭氧1小时,57,46,48,20,21,165,,203,201,18,15,8,11,0.7,0.9
2024-07-28T2000,3018A,111.505,36.1014,临汾市,唐尧大酒店,,45,45,43,12,17,144,,182,179,14,13,4,7,0.7,1
2024-07-28T2000,3668A,111.5036,36.0414,临汾市,城南,颗粒物(PM10),56,61,61,20,19,159,,197,195,15,16,8,8,0.8,1.1
2024-07-28T2000,2667A,103.2069,35.5993,临夏回族自治州,环保局,,41,27,42,13,20,129,,130,130,3,10,7,8,0.4,0.4
2024-07-28T2000,2668A,103.2417,35.6057,临夏回族自治州,建设大厦,,39,28,32,15,19,124,,123,123,6,8,12,13,0.3,0.4
2024-07-28T2000,1618A,118.3429,35.0532,临沂市,沂河小区,,25,17,14,10,10,78,,94,93,10,7,10,10,0.3,0.3
2024-07-28T2000,1619A,118.295,35.0583,临沂市,鲁南制药厂,,25,,8,9,6,80,,96,96,13,11,5,5,0.3,0.3
2024-07-28T2000,1620A,118.2794,34.9976,临沂市,新光毛纺厂,,26,17,9,6,6,81,,98,97,10,9,8,5,0.6,0.6
2024-07-28T2000,1621A,118.3956,35.0888,临沂市,河东保险公司,,26,12,13,3,5,83,,97,97,12,12,7,7,0.5,0.4
2024-07-28T2000,3370A,118.3564,35.0215,临沂市,十里堡居委,,24,12,7,3,7,75,,94,93,12,10,6,6,0.6,0.6
2024-07-28T2000,3496A,118.3604,35.1084,临沂市,南坊新区,,26,17,14,3,4,81,,98,97,15,15,8,7,0.6,0.6
2024-07-28T2000,3860A,118.3920,35.0300,临沂市,皇山花园小区,,23,19,14,9,9,73,,91,90,14,12,8,7,0.5,0.5
2024-07-28T2000,1870A,109.4856,24.3895,柳州市,柳东小学,,13,,11,8,6,41,,46,45,8,12,7,7,0.6,0.6
2024-07-28T2000,1871A,109.4157,24.3277,柳州市,环保监测站,,14,,16,7,10,42,,52,44,7,9,6,7,0.8,0.8
2024-07-28T2000,1872A,109.389,24.341,柳州市,河西水厂,,15,10,14,10,8,46,,57,47,8,9,7,7,0.7,1
2024-07-28T2000,1873A,109.4311,24.2921,柳州市,市四中,,15,10,16,6,8,48,,55,49,9,11,5,6,0.6,0.5
2024-07-28T2000,1874A,109.4006,24.3631,柳州市,市九中,,16,16,17,9,9,42,,59,42,11,14,5,5,0.7,0.7
2024-07-28T2000,1875A,109.4958,24.3134,柳州市,古亭山,,14,14,15,9,10,37,,47,46,12,13,5,6,0.8,0.8
2024-07-28T2000,3402A,109.5422,24.3996,柳州市,市二中,,13,13,16,6,8,28,,45,42,12,11,5,5,0.6,0.6
2024-07-28T2000,2307A,116.5079,31.737,六安市,监测大楼,,14,9,6,9,6,44,,60,55,8,3,6,5,0.3,0.3
2024-07-28T2000,2308A,116.4738,31.7643,六安市,皖西学院,,15,9,8,6,6,47,,61,56,4,3,6,4,0.2,0.1
2024-07-28T2000,2309A,116.4996,31.7905,六安市,朝阳厂,,13,8,7,6,6,39,,48,44,2,2,9,8,0.2,0.2
2024-07-28T2000,2310A,116.5567,31.7886,六安市,开发区,,23,23,8,15,8,36,,53,48,7,5,7,12,0.3,0.3
2024-07-28T2000,2576A,104.8,26.5892,六盘水市,窑上,,,,,,,,,,,,,,,,
2024-07-28T2000,2577A,104.83,26.5917,六盘水市,黄土坡,,26,26,15,11,7,49,,75,70,29,15,10,8,0.9,0.6
2024-07-28T2000,2578A,104.89,26.5939,六盘水市,水钢,,22,13,20,6,11,69,,73,73,13,15,6,6,0.6,0.6
2024-07-28T2000,2579A,104.8475,26.5894,六盘水市,民中,,20,14,15,9,9,62,,72,71,25,17,8,7,0.9,0.7
2024-07-28T2000,2580A,104.9544,26.5506,六盘水市,双水,,28,12,16,3,9,88,,86,86,5,8,7,6,0.4,0.4
2024-07-28T2000,2335A,117.0189,25.1181,龙岩市,龙岩师专,,,,,,,,,,,,,,,,
2024-07-28T2000,2336A,117.0217,25.1033,龙岩市,龙岩市监测站,,11,11,12,3,5,25,,39,35,11,8,5,4,0.5,0.4
2024-07-28T2000,2337A,117.0258,25.0661,龙岩市,闽西职业技术学院,,13,13,11,8,5,22,,40,36,12,5,4,4,0.3,0.3
2024-07-28T2000,2338A,117.0196,25.0306,龙岩市,龙岩学院,,21,21,10,3,2,21,,40,36,4,3,3,3,0.2,0.2
2024-07-28T2000,2665A,105.0822,33.3261,陇南市,汉王镇固水子,,,,,,,,,,,,,,,,
2024-07-28T2000,2885A,104.9339,33.3826,陇南市,滨江中学,颗粒物(PM10),52,53,43,15,13,64,,72,72,19,18,4,4,0.8,0.7
2024-07-28T2000,3247A,104.955,33.371,陇南市,市总工会,,44,44,45,14,15,48,,76,75,16,14,4,4,0.7,0.6
2024-07-28T2000,2487A,111.9589,27.8901,娄底市,电视发射台,,,,19,,9,54,,40,40,5,7,5,6,0.4,0.6
2024-07-28T2000,2488A,111.9975,27.725,娄底市,市监测站,,19,6,14,3,12,58,,55,55,4,8,5,8,0.4,0.7
2024-07-28T2000,2489A,112.0194,27.7314,娄底市,市委党校,,19,10,18,3,12,59,,53,53,6,12,8,7,0.4,0.7
2024-07-28T2000,2490A,111.9561,27.7569,娄底市,涟钢,,,46,23,18,13,34,,26,24,25,17,,42,0.6,0.6
2024-07-28T2000,2491A,111.9892,27.7044,娄底市,市政府,,,2,10,,16,66,,64,64,5,7,6,6,0.1,0.2
2024-07-28T2000,1893A,105.4324,28.9634,泸州市,九狮山,,37,37,31,21,16,74,,75,75,16,15,3,4,0.4,0.4
2024-07-28T2000,1894A,105.4427,28.9063,泸州市,小市上码头,,40,40,34,20,14,80,,76,76,15,13,6,5,0.4,0.3
2024-07-28T2000,1895A,105.4241,28.8573,泸州市,兰田宪桥,,33,30,32,23,22,78,,78,78,12,11,4,5,0.4,0.4
2024-07-28T2000,1896A,105.4379,28.8833,泸州市,市环监站,,39,39,36,21,18,80,,79,79,14,12,8,8,0.4,0.4
2024-07-28T2000,3490A,105.3617,28.7703,泸州市,纳溪区环保局,,26,26,35,18,20,56,,67,67,22,19,2,3,0.4,0.3
2024-07-28T2000,2183A,111.1406,37.5211,吕梁市,环保局,,,,91,,30,,,84,,,43,,3,,0.6
2024-07-28T2000,2185A,111.1297,37.5136,吕梁市,自来水公司,颗粒物(PM10),52,54,80,20,24,100,,165,151,29,30,2,3,0.5,0.6
2024-07-28T2000,2867A,111.1283,37.51,吕梁市,马茂庄小学,颗粒物(PM10),70,90,77,23,25,69,,178,159,52,38,8,4,0.5,0.6
2024-07-28T2000,1812A,112.3931,34.6516,洛阳市,市委党校,,38,30,31,21,22,120,,152,148,8,11,4,5,0.7,0.7
2024-07-28T2000,1814A,112.4657,34.6871,洛阳市,豫西宾馆,,38,31,35,22,20,121,,157,151,7,8,1,2,0.3,0.4
2024-07-28T2000,1815A,112.494,34.6886,洛阳市,河南林校,,35,30,26,19,17,110,,151,145,7,9,3,3,0.6,0.7
2024-07-28T2000,1816A,112.3844,34.623,洛阳市,开发区管委会,,38,35,29,23,19,119,,151,146,5,8,3,3,0.4,0.5
2024-07-28T2000,1817A,112.4267,34.6258,洛阳市,市委新办公区,,35,28,25,23,23,111,,149,144,7,6,7,8,0.6,0.6
2024-07-28T2000,3340A,112.6005,34.6326,洛阳市,伊滨,,36,36,36,24,20,90,,140,135,17,11,4,3,0.0,0.2
2024-07-28T2000,3341A,112.4951,34.6332,洛阳市,中移产业园,,33,25,30,14,20,103,,148,143,5,7,4,5,0.9,1
2024-07-28T2000,3593A,112.5736,34.8993,洛阳市,吉利监测站,,28,23,33,12,19,89,,146,135,1,5,1,3,0.7,0.9
2024-07-28T2000,3635A,112.3677,34.662,洛阳市,河科大西苑校区,,39,26,29,15,14,122,,149,145,4,8,5,6,0.7,0.7
2024-07-28T2000,3636A,112.4388,34.6781,洛阳市,英才小学,,35,23,27,19,22,111,,150,143,3,4,3,4,0.7,0.8
2024-07-28T2000,2399A,114.051,33.5699,漯河市,三五一五工厂,,14,,7,8,10,42,,53,51,14,7,6,6,0.5,0.5
2024-07-28T2000,2400A,114.0055,33.5698,漯河市,漯河大学,,16,6,15,3,9,50,,57,55,7,5,8,9,0.3,0.3
2024-07-28T2000,2401A,114.0138,33.5828,漯河市,市水利局,,14,6,10,3,5,44,,52,51,9,6,6,6,0.5,0.4
2024-07-28T2000,2402A,114.0261,33.5698,漯河市,市广电局,,15,,7,6,8,47,,55,53,9,6,4,4,0.5,0.4
2024-07-28T2000,3478A,113.9749,33.5664,漯河市,市图书馆,,15,6,11,3,9,48,,57,54,9,7,9,8,0.4,0.4
2024-07-28T2000,3479A,114.0967,33.5906,漯河市,召陵区卫健委,,14,6,11,3,10,44,,55,53,9,5,1,2,0.5,0.5
2024-07-28T2000,1798A,118.5092,31.6837,马鞍山市,湖东路四小,,19,6,18,6,6,58,,82,76,13,7,4,4,0.5,0.5
2024-07-28T2000,1799A,118.5024,31.6449,马鞍山市,开发区,,18,18,15,8,7,47,,76,69,20,8,3,3,0.6,0.5
2024-07-28T2000,1800A,118.5228,31.7231,马鞍山市,慈湖,,22,22,14,7,6,57,,84,78,18,11,4,4,0.5,0.4
2024-07-28T2000,1802A,118.6245,31.7241,马鞍山市,濮塘,,15,6,11,3,9,47,,74,67,10,10,4,4,0.7,0.7
2024-07-28T2000,3633A,118.4918,31.6809,马鞍山市,雨山,,18,13,15,7,6,57,,79,74,11,4,6,6,0.6,0.6
2024-07-28T2000,1686A,111.0286,21.4688,茂名市,电白南海,,20,19,23,14,14,39,,53,48,12,8,7,6,0.4,0.4
2024-07-28T2000,1687A,110.9294,21.6533,茂名市,茂石化七小,,28,,16,19,16,32,,41,41,7,5,10,9,0.5,0.4
2024-07-28T2000,1688A,110.9107,21.6687,茂名市,健康路,,13,12,16,3,7,39,,46,46,7,7,13,10,0.5,0.5
2024-07-28T2000,1689A,110.8592,21.6828,茂名市,高岭,,18,17,21,12,16,38,,43,43,8,11,19,14,0.8,0.7
2024-07-28T2000,3450A,111.01,21.5165,茂名市,电白水东,,14,14,18,9,9,37,,47,45,9,8,5,4,0.6,0.5
2024-07-28T2000,2539A,104.0308,30.0478,眉山市,黑龙滩水库,,35,,21,24,24,51,,58,57,5,8,2,2,0.2,0.2
2024-07-28T2000,2540A,103.8416,30.0874,眉山市,气象局,,28,22,29,19,15,66,,71,70,11,19,7,7,0.4,0.4
2024-07-28T2000,3137A,103.8578,30.0744,眉山市,市委党校,,23,19,24,7,9,73,,76,74,12,18,4,6,0.4,0.4
2024-07-28T2000,3148A,103.8291,30.0564,眉山市,区人社局,,34,34,29,7,9,65,,72,70,20,24,8,8,0.6,0.5
2024-07-28T2000,1690A,116.1231,24.3284,梅州市,梅江月梅,,10,10,10,3,4,28,,37,35,6,5,6,6,0.4,0.4
2024-07-28T2000,1691A,116.0797,24.2719,梅州市,梅县新城,,9,7,11,3,5,26,,39,36,12,9,4,4,0.5,0.5
2024-07-28T2000,1692A,116.1248,24.2654,梅州市,环境监控中心,,9,7,14,6,4,25,,32,28,14,15,4,8,0.5,0.6
2024-07-28T2000,3315A,116.1233,24.2991,梅州市,梅龙,,9,6,7,3,5,26,,38,34,9,9,7,8,0.6,0.6
2024-07-28T2000,1878A,104.7778,31.4741,绵阳市,富乐山,,22,18,32,15,22,39,,60,59,7,18,8,8,0.6,0.6
2024-07-28T2000,1879A,104.7563,31.4535,绵阳市,市人大,,22,21,37,12,21,31,,64,61,44,29,9,11,0.6,0.5
2024-07-28T2000,1880A,104.6697,31.4668,绵阳市,高新区自来水公司,,31,31,39,9,17,32,,63,60,31,25,6,9,0.4,0.4
2024-07-28T2000,1881A,104.7287,31.5075,绵阳市,三水厂,,23,20,37,16,23,30,,52,50,41,31,5,7,0.6,0.6
2024-07-28T2000,3491A,104.69,31.5322,绵阳市,西科大附属小学,,26,26,37,14,21,38,,59,55,35,25,8,10,0.4,0.3
2024-07-28T2000,3492A,104.5648,31.5343,绵阳市,安州区旅游局,,34,12,30,12,22,106,,70,70,9,19,6,9,0.3,0.5
2024-07-28T2000,1784A,129.61,44.561,牡丹江市,环保大楼,,26,,14,18,10,13,,45,25,13,9,7,6,0.3,0.3
2024-07-28T2000,1785A,129.6115,44.5782,牡丹江市,文化广场,,36,,18,25,22,10,,38,20,14,12,7,6,0.4,0.3
2024-07-28T2000,1786A,129.5904,44.5963,牡丹江市,第一医院,,18,15,15,12,12,9,,45,22,18,13,4,4,0.5,0.4
2024-07-28T2000,1787A,129.6364,44.6075,牡丹江市,机车工厂,,16,16,16,11,14,4,,32,18,22,14,6,18,0.4,0.4
2024-07-28T2000,1788A,129.6386,44.5462,牡丹江市,第一中学,,10,7,16,7,8,13,,29,22,12,10,4,4,0.3,0.3
2024-07-28T2000,2531A,105.0703,29.61,内江市,市监测站,,23,20,28,12,20,72,,81,81,10,13,8,9,0.3,0.3
2024-07-28T2000,2532A,105.0717,29.5947,内江市,东兴区政府,,,39,34,7,14,68,,78,78,,16,10,11,0.4,0.5
2024-07-28T2000,2533A,105.0653,29.5817,内江市,内江二中,,23,19,27,15,16,71,,82,82,13,18,10,11,0.5,0.5
2024-07-28T2000,2534A,105.0406,29.5822,内江市,内江日报社,,25,16,32,15,21,78,,84,84,8,13,8,9,0.5,0.6
2024-07-28T2000,2628A,92.0657,31.4846,那曲市,那曲监测站,颗粒物(PM10),68,85,20,19,9,118,,114,114,8,6,10,6,0.7,0.6
2024-07-28T2000,3128A,92.0506,31.4797,那曲市,那曲会议中心,,43,22,14,10,6,136,,126,126,7,4,4,4,0.4,0.4
2024-07-28T2000,1290A,115.8931,28.6843,南昌市,省外办,,12,12,15,7,7,36,,53,49,6,10,6,7,0.3,0.4
2024-07-28T2000,1291A,115.8886,28.7003,南昌市,省林业公司,,9,9,7,3,3,28,,47,42,12,10,4,5,0.2,0.2
2024-07-28T2000,1292A,115.8126,28.7442,南昌市,林科所,,7,,1,3,1,14,,43,36,14,12,6,6,0.2,0.2
2024-07-28T2000,1294A,115.8518,28.687,南昌市,建工学校,,10,,10,3,4,29,,48,43,8,5,6,6,0.4,0.3
2024-07-28T2000,1295A,115.8921,28.6424,南昌市,象湖,,11,,7,3,4,34,,49,44,3,5,4,4,0.1,0.1
2024-07-28T2000,1296A,115.7423,28.7996,南昌市,武术学校,,27,27,17,12,12,27,,37,34,5,4,13,14,0.5,0.5
2024-07-28T2000,1298A,115.9314,28.6842,南昌市,省站,,16,13,14,11,8,31,,49,44,10,12,8,8,0.4,0.4
2024-07-28T2000,3046A,115.9084,28.6062,南昌市,机电学校,,13,13,12,3,4,32,,44,40,1,3,6,6,0.4,0.4
2024-07-28T2000,3690A,115.9721,28.7031,南昌市,外国语学校,,10,,13,7,6,31,,48,44,6,7,2,4,0.3,0.6
2024-07-28T2000,1905A,106.056,30.8064,南充市,西山风景区,,36,36,36,19,18,38,,54,52,5,5,3,3,0.1,0.1
2024-07-28T2000,1906A,106.0789,30.8023,南充市,南充市委,,31,31,36,18,21,51,,82,79,14,10,7,7,0.4,0.4
2024-07-28T2000,1907A,106.1031,30.8217,南充市,南充炼油厂,,,,35,,21,56,,81,79,11,10,4,4,0.2,0.2
2024-07-28T2000,1908A,106.1064,30.7856,南充市,高坪区监测站,,35,33,40,24,19,50,,73,72,15,14,4,5,0.2,0.2
2024-07-28T2000,1909A,106.0642,30.7636,南充市,嘉陵区环保局,,32,30,30,22,22,56,,77,74,11,11,4,4,0.3,0.3
2024-07-28T2000,1910A,106.1087,30.8388,南充市,市环境监测站,,33,31,39,23,21,59,,80,80,13,13,4,5,0.6,0.5
2024-07-28T2000,1151A,118.8086,32.1065,南京市,迈皋桥,,37,19,10,9,3,116,,94,94,14,9,4,4,0.4,0.2
2024-07-28T2000,1152A,118.7538,32.0551,南京市,草场门,,36,22,14,9,5,114,,87,87,10,8,5,5,0.4,0.3
2024-07-28T2000,1153A,118.7794,32.0745,南京市,山西路,,39,27,13,9,4,123,,96,96,2,3,3,4,0.3,0.2
2024-07-28T2000,1154A,118.7752,32.0023,南京市,中华门,,35,22,8,12,5,109,,84,84,3,5,8,8,0.3,0.3
2024-07-28T2000,1155A,118.8109,32.0309,南京市,瑞金路,,35,24,14,7,5,112,,89,89,3,2,7,7,0.3,0.3
2024-07-28T2000,1156A,118.7997,32.0754,南京市,玄武湖,,31,24,16,6,2,98,,77,77,3,2,4,4,0.4,0.4
2024-07-28T2000,1157A,118.6414,32.0931,南京市,浦口,,31,20,17,6,2,97,,81,81,20,10,5,6,0.5,0.5
2024-07-28T2000,1158A,118.7356,31.9996,南京市,奥体中心,,35,18,13,9,6,110,,83,83,15,11,7,7,0.1,0.1
2024-07-28T2000,1159A,118.9125,32.1028,南京市,仙林大学城,,38,22,15,7,3,119,,101,101,7,8,7,8,0.5,0.4
2024-07-28T2000,3422A,118.8436,31.9198,南京市,江宁彩虹桥,,34,24,18,12,5,107,,84,84,7,6,4,4,0.5,0.4
2024-07-28T2000,3423A,119.0138,31.6494,南京市,溧水永阳,,32,24,12,7,5,100,,88,88,6,10,4,4,0.6,0.5
2024-07-28T2000,3424A,118.879,31.3302,南京市,高淳老职中,,34,,13,6,6,107,,80,80,7,6,4,3,0.4,0.4
2024-07-28T2000,3427A,118.8554,32.3578,南京市,六合雄州,,33,33,25,12,6,103,,95,95,2,2,5,5,0.5,0.4
2024-07-28T2000,1401A,108.3103,22.7881,南宁市,二十一中,,20,20,27,13,15,56,,58,58,10,12,3,3,0.7,0.7
2024-07-28T2000,1402A,108.3141,22.8528,南宁市,北湖,,22,21,28,15,18,46,,58,58,21,15,2,2,0.8,0.8
2024-07-28T2000,1403A,108.3206,22.8225,南宁市,市监测站,,20,,27,14,18,55,,62,62,16,13,5,4,0.6,0.6
2024-07-28T2000,1404A,108.3829,22.8037,南宁市,大自然花园,,23,23,28,10,17,58,,59,59,11,14,4,4,0.7,0.7
2024-07-28T2000,1405A,108.4394,22.7904,南宁市,仙葫,,,,,,,,,,,,,,,,
2024-07-28T2000,1406A,108.2397,22.8467,南宁市,区农职院,,19,12,33,12,17,59,,63,63,15,15,2,2,0.7,0.7
2024-07-28T2000,1407A,108.3275,22.735,南宁市,英华嘉园,,22,22,30,13,18,52,,54,54,13,16,5,5,0.6,0.6
2024-07-28T2000,1408A,108.2257,22.7757,南宁市,沙井镇街道办,颗粒物(PM10),52,53,40,18,21,26,,53,50,38,25,2,2,0.5,0.5
2024-07-28T2000,3401A,108.4834,22.7618,南宁市,红星社区,,25,25,26,10,15,54,,59,59,5,11,5,5,0.6,0.6
2024-07-28T2000,2331A,118.0966,26.6761,南平市,茫荡山,,,,,,,,,,,,,,,,
2024-07-28T2000,2332A,118.1681,26.6369,南平市,南平市监测站,,23,23,14,6,4,23,,44,39,16,7,5,4,0.8,0.6
2024-07-28T2000,2333A,118.1825,26.6489,南平市,南平铝业有限公司,,25,25,11,7,3,15,,44,38,19,6,8,5,0.8,0.6
2024-07-28T2000,2334A,118.1756,26.6272,南平市,南平七中,,20,20,15,9,5,36,,39,36,8,7,4,4,0.6,0.5
2024-07-28T2000,1168A,120.9098,31.9663,南通市,狼山街道,,26,26,14,10,4,71,,97,94,28,17,7,6,0.4,0.4
2024-07-28T2000,1169A,120.86,32.0005,南通市,虹桥,,25,25,15,11,4,75,,93,90,15,8,6,6,0.6,0.6
2024-07-28T2000,1170A,120.87,32.02,南通市,城中,,28,28,19,10,4,80,,100,98,13,6,6,6,0.5,0.4
2024-07-28T2000,1171A,120.94,31.93,南通市,星湖花园,,22,22,11,9,2,68,,99,97,26,10,6,5,0.4,0.4
2024-07-28T2000,1172A,120.81,32.0417,南通市,紫琅学院,,21,21,11,6,2,57,,89,86,42,17,8,7,0.6,0.4
2024-07-28T2000,3291A,121.067,32.062,南通市,通州监测站,,34,34,20,12,4,78,,104,102,12,4,3,3,0.5,0.5
2024-07-28T2000,3432A,120.9348,31.9883,南通市,环境教育馆,,31,31,20,14,4,75,,104,101,23,9,10,8,0.4,0.4
2024-07-28T2000,2404A,112.5224,33.0122,南阳市,瓦房庄,,16,,23,3,12,51,,84,70,11,9,4,5,0.4,0.4
2024-07-28T2000,2405A,112.5003,32.9735,南阳市,汉画馆,,14,,25,8,17,43,,83,67,17,10,4,4,0.4,0.4
2024-07-28T2000,2406A,112.5573,33.027,南阳市,气象站,,15,6,23,3,10,47,,80,67,11,8,4,4,0.5,0.5
2024-07-28T2000,2407A,112.5481,32.9689,南阳市,理工学院,,15,6,21,3,8,48,,80,66,11,8,2,3,0.3,0.3
2024-07-28T2000,4008A,112.5234,32.9922,南阳市,卧龙区政府,,15,6,23,3,13,48,,79,65,13,11,4,4,0.5,0.5
2024-07-28T2000,1234A,121.8358,29.911,宁波市,区环保大楼,,16,16,20,7,9,32,,48,44,10,7,6,6,0.5,0.5
2024-07-28T2000,1235A,121.56,29.82,宁波市,万里学院,,18,18,19,7,10,31,,54,50,12,6,8,8,0.6,0.5
2024-07-28T2000,1236A,121.713,29.9572,宁波市,龙赛医院,,14,14,15,6,7,33,,45,40,10,7,6,6,0.4,0.4
2024-07-28T2000,1239A,121.633,29.7733,宁波市,钱湖水厂,,13,9,32,3,8,39,,46,44,3,3,6,6,0.5,0.5
2024-07-28T2000,1240A,121.5856,29.8635,宁波市,太古小学,,12,10,17,8,8,36,,50,47,5,4,6,6,0.7,0.7
2024-07-28T2000,1241A,121.524,29.8674,宁波市,市环境监测中心,,19,19,17,12,8,39,,59,56,7,4,5,4,0.8,0.7
2024-07-28T2000,2871A,121.6147,29.9017,宁波市,万里国际学校,,13,12,12,7,7,40,,50,48,5,4,5,6,0.3,0.4
2024-07-28T2000,3710A,121.5594,29.8975,宁波市,白沙活动中心,,22,22,19,3,6,38,,55,52,6,4,5,5,0.3,0.3
2024-07-28T2000,2339A,119.5001,26.6946,宁德市,金涵水库,,,,,,,,,,,,,,,,
2024-07-28T2000,2341A,119.5388,26.6612,宁德市,宁德市监测站,,15,15,20,7,9,34,,59,58,8,11,5,5,0.5,0.8
2024-07-28T2000,3209A,119.5231,26.6562,宁德市,宁德一中,,22,22,21,3,6,37,,57,57,5,7,6,5,0.5,0.7
2024-07-28T2000,2618A,98.8601,25.8567,怒江傈僳族自治州,州监测站,,22,,24,15,17,54,,71,71,5,14,8,8,0.4,0.5
2024-07-28T2000,2619A,98.8546,25.8417,怒江傈僳族自治州,泸水一中,,15,15,20,7,10,47,,69,69,10,17,4,5,0.6,0.6
2024-07-28T2000,1888A,101.6891,26.571,攀枝花市,弄弄坪,,47,47,52,25,24,73,,97,97,29,24,25,17,0.6,0.8
2024-07-28T2000,1889A,101.5769,26.5928,攀枝花市,河门口,,39,39,39,24,26,98,,116,116,17,19,23,14,0.9,0.9
2024-07-28T2000,1890A,101.7169,26.585,攀枝花市,炳草岗,颗粒物(PM10),54,58,60,21,27,82,,92,92,24,31,26,11,0.8,1
2024-07-28T2000,1891A,101.7369,26.5008,攀枝花市,仁和,,40,40,41,24,29,90,,113,110,19,16,12,19,0.6,0.7
2024-07-28T2000,2835A,101.7227,26.567,攀枝花市,四十中小,,33,33,45,20,26,104,,104,104,9,25,16,20,0.6,0.8
2024-07-28T2000,1604A,122.0303,41.1489,盘锦市,开发区,颗粒物(PM10),52,54,14,17,6,98,,74,74,9,14,4,4,0.8,0.7
2024-07-28T2000,1605A,122.0485,41.0883,盘锦市,兴隆台,,45,42,15,31,7,76,,67,67,11,15,5,5,0.6,0.5
2024-07-28T2000,1606A,121.8297,41.1028,盘锦市,新生街道,,41,41,12,10,5,98,,84,84,6,8,4,5,0.7,0.5
2024-07-28T2000,1832A,113.3257,33.742,平顶山市,新华旅馆,,22,15,21,15,19,48,,71,61,9,7,3,2,0.4,0.3
2024-07-28T2000,1833A,113.2919,33.737,平顶山市,规划设计院,,,6,17,3,10,49,,72,61,,10,4,4,,0.5
2024-07-28T2000,1834A,113.182,33.774,平顶山市,平顶山工学院,,16,6,18,3,6,51,,76,68,9,5,5,6,0.7,0.7
2024-07-28T2000,3204A,113.3025,33.73,平顶山市,规划局,,15,,13,3,14,45,,71,60,10,8,3,2,0.6,0.6
2024-07-28T2000,3594A,112.8867,33.9116,平顶山市,石龙区,,20,16,37,9,19,61,,84,75,4,9,7,11,0.4,0.4
2024-07-28T2000,2656A,106.6692,35.5461,平凉市,聚贤嘉苑,,41,41,37,19,17,117,,154,153,16,29,9,9,0.1,0.2
2024-07-28T2000,2657A,106.7021,35.5307,平凉市,博物馆,颗粒物(PM10),56,61,53,14,16,87,,154,147,29,17,5,6,0.6,0.5
2024-07-28T2000,2347A,114.0997,27.5002,萍乡市,武功山,,14,6,3,3,3,44,,80,48,2,2,13,14,0.2,0.2
2024-07-28T2000,2348A,113.8385,27.6434,萍乡市,中医院,,16,,10,8,8,27,,54,45,15,6,4,5,1.6,0.8
2024-07-28T2000,2349A,113.8493,27.6253,萍乡市,市政府车库,,18,,22,12,7,28,,54,44,13,4,11,10,1.8,0.6
2024-07-28T2000,2350A,113.8676,27.6435,萍乡市,市环保局,,,,8,14,6,29,,56,46,9,4,8,8,0.8,0.6
2024-07-28T2000,2351A,113.866,27.6198,萍乡市,安源区政府,,30,30,11,3,3,27,,55,43,12,5,7,7,1.2,0.4
2024-07-28T2000,2319A,119.0141,25.4325,莆田市,荔城区仓后路,,27,27,28,13,14,60,,73,73,8,15,6,6,0.7,0.7
2024-07-28T2000,2320A,119.0015,25.4553,莆田市,莆田市监测站,,31,31,29,15,12,50,,71,70,4,7,5,5,0.4,0.5
2024-07-28T2000,2321A,119.1119,25.4561,莆田市,涵江区六中,,26,26,28,16,14,58,,85,85,8,14,5,6,0.5,0.5
2024-07-28T2000,2322A,119.1013,25.3215,莆田市,秀屿区政府,,47,47,28,21,16,62,,88,88,17,8,6,6,0.6,0.6
2024-07-28T2000,2323A,118.981,25.4792,莆田市,东圳水库,,,,,,,,,,,,,,,,
2024-07-28T2000,2392A,115.0312,35.7636,濮阳市,环保局,,16,13,18,3,14,51,,72,70,9,9,4,4,0.5,0.4
2024-07-28T2000,2394A,115.0574,35.7609,濮阳市,油田运输公司,,17,14,16,10,13,52,,76,74,3,3,1,1,0.4,0.4
2024-07-28T2000,2395A,115.0866,35.7754,濮阳市,油田物探公司,,16,11,16,11,16,49,,76,73,5,4,6,6,0.6,0.5
2024-07-28T2000,3021A,115,35.7668,濮阳市,濮水河管理处,,20,,20,14,19,49,,59,59,5,6,1,2,0.5,0.5
2024-07-28T2000,2601A,100.98,22.7633,普洱市,市环保局,,21,21,15,12,14,38,,44,43,9,5,5,5,0.4,0.4
2024-07-28T2000,2602A,100.9817,22.8322,普洱市,普洱第二中学,,35,,13,24,9,22,,43,39,16,6,5,2,0.5,0.5
2024-07-28T2000,2262A,131.0518,45.8751,七台河市,新一中,,18,15,12,12,8,42,,90,73,12,11,10,10,0.9,0.9
2024-07-28T2000,3345A,131.0577,45.7879,七台河市,中波台,,13,,7,9,7,30,,58,44,15,17,11,12,0.3,0.3
2024-07-28T2000,3637A,131.0176,45.7761,七台河市,人民广场,,28,28,13,7,6,37,,63,51,10,12,9,9,0.3,0.4
2024-07-28T2000,3684A,130.8781,45.8222,七台河市,新建矿广场,颗粒物(PM10),52,53,68,14,9,22,,63,47,23,19,17,16,0.4,0.3
2024-07-28T2000,1779A,123.9305,47.3636,齐齐哈尔市,安居小区,,22,22,18,12,8,63,,71,71,11,12,6,6,0.4,0.4
2024-07-28T2000,1780A,123.9488,47.3386,齐齐哈尔市,中心广场,,20,16,16,3,3,63,,68,68,13,14,2,2,0.3,0.3
2024-07-28T2000,1781A,123.9483,47.3227,齐齐哈尔市,农牧车辆厂,,22,7,22,6,5,69,,71,71,6,11,8,8,0.3,0.3
2024-07-28T2000,1783A,123.945,47.2988,齐齐哈尔市,市环境监测站,,21,7,11,3,6,67,,71,71,8,10,7,6,0.3,0.3
2024-07-28T2000,3662A,123.6333,47.2075,齐齐哈尔市,富区青少年活动中心,,22,14,10,3,2,68,,75,75,9,10,4,4,0.3,0.3
2024-07-28T2000,2591A,107.9783,26.5747,黔东南苗族侗族自治州,市环境监测站,,18,14,21,12,17,48,,57,57,14,18,3,3,0.6,0.6
2024-07-28T2000,2881A,107.8908,26.5311,黔东南苗族侗族自治州,凯里学院,,16,,14,11,13,48,,55,55,7,11,5,5,0.3,0.3
2024-07-28T2000,2593A,107.5228,26.2403,黔南布依族苗族自治州,小围寨,,16,6,11,3,6,51,,65,62,3,6,4,4,0.4,0.4
2024-07-28T2000,3538A,107.5175,26.2978,黔南布依族苗族自治州,沙坝,,16,9,12,3,8,51,,69,66,6,8,3,4,0.4,0.3
2024-07-28T2000,2589A,104.9022,25.0925,黔西南布依族苗族自治州,场坝街,,30,25,18,21,10,62,,75,75,8,9,4,8,0.3,0.3
2024-07-28T2000,2590A,104.8811,25.0992,黔西南布依族苗族自治州,坪东大道,,22,22,23,12,11,63,,75,75,6,8,4,6,0.3,0.3
2024-07-28T2000,2502A,108.6236,21.9667,钦州市,市环保站,,16,7,28,3,10,51,,62,61,15,15,6,7,0.7,0.8
2024-07-28T2000,2503A,108.6549,21.9481,钦州市,沙埠小学,,18,6,29,3,11,55,,65,64,12,14,4,5,0.4,0.6
2024-07-28T2000,2504A,108.5989,21.7431,钦州市,港区一小,,43,43,45,13,13,44,,63,62,21,19,9,8,0.6,0.6
2024-07-28T2000,3404A,108.5959,21.9633,钦州市,北职校,,21,21,32,7,17,48,,64,61,13,14,4,7,0.6,0.8
2024-07-28T2000,1042A,119.5134,39.8207,秦皇岛市,北戴河环保局,,40,40,31,12,7,91,,113,113,9,11,3,3,0.5,0.6
2024-07-28T2000,1043A,119.7493,40.0116,秦皇岛市,第一关,细颗粒物(PM2.5),52,43,26,36,12,78,,113,113,6,13,2,2,0.4,0.4
2024-07-28T2000,1044A,119.5897,39.9499,秦皇岛市,监测站,颗粒物(PM10),63,76,36,27,12,84,,117,117,9,11,4,4,0.5,0.5
2024-07-28T2000,1046A,119.5251,39.9041,秦皇岛市,建设大厦,,43,43,28,13,6,80,,124,124,5,8,2,1,0.4,0.3
2024-07-28T2000,3132A,119.610547,39.943889,秦皇岛市,文明里,细颗粒物(PM2.5),69,,29,50,18,80,,108,108,1,12,2,2,0.4,0.4
2024-07-28T2000,1307A,120.6659,36.2403,青岛市,仰口,,34,17,17,17,17,106,,105,105,11,10,5,5,0.0,0.2
2024-07-28T2000,1310A,120.4134,36.0658,青岛市,市南区东部子站,,36,36,46,7,8,79,,95,95,15,6,6,7,0.5,0.5
2024-07-28T2000,1311A,120.3664,36.1032,青岛市,四方区子站,,30,29,33,9,14,96,,108,108,14,8,10,11,0.6,0.5
2024-07-28T2000,1312A,120.2994,36.054,青岛市,市南区西部子站,颗粒物(PM10),100,149,45,3,8,94,,96,96,19,13,7,7,0.5,0.5
2024-07-28T2000,1313A,120.4581,36.0858,青岛市,崂山区子站,颗粒物(PM10),57,63,63,7,11,84,,96,96,12,10,8,7,0.5,0.4
2024-07-28T2000,1314A,120.1983,35.9608,青岛市,黄岛区子站,,32,31,34,10,12,102,,106,106,12,9,7,7,0.5,0.5
2024-07-28T2000,1315A,120.3999,36.3083,青岛市,城阳区子站,,34,34,30,12,13,96,,114,113,20,10,6,6,0.5,0.5
2024-07-28T2000,1966A,120.0405,35.8735,青岛市,黄岛区4号,,32,29,32,3,9,102,,103,103,9,6,8,8,0.5,0.5
2024-07-28T2000,3362A,120.5014,36.4034,青岛市,即墨2号,,36,27,28,15,15,115,,118,118,8,8,6,6,0.5,0.5
2024-07-28T2000,3642A,120.3503,36.0736,青岛市,市北区南部,,29,29,35,3,10,88,,101,101,16,9,7,7,0.5,0.5
2024-07-28T2000,3643A,120.3948,36.1805,青岛市,李沧区北部,,34,34,28,14,14,95,,110,109,16,12,10,10,0.4,0.4
2024-07-28T2000,1702A,113.0426,23.691,清远市,环保大楼,,11,8,14,6,9,35,,50,50,10,12,11,6,0.6,0.6
2024-07-28T2000,1703A,113.0208,23.7106,清远市,凤城街办,,11,8,14,6,11,33,,50,50,9,12,5,5,0.4,0.4
2024-07-28T2000,3025A,113.0477,23.6344,清远市,技师学院,,13,8,14,3,8,40,,61,60,14,17,4,4,0.5,0.5
2024-07-28T2000,3318A,112.9903,23.7403,清远市,清新太和,,13,13,16,8,10,36,,54,54,9,9,9,9,0.6,0.6
2024-07-28T2000,3455A,113.076,23.7198,清远市,清城东城,,13,10,14,3,6,39,,54,54,6,8,5,5,0.6,0.6
2024-07-28T2000,2661A,107.6325,35.7357,庆阳市,庆阳五中,,47,37,39,15,23,148,,150,150,6,7,5,5,0.4,0.5
2024-07-28T2000,2662A,107.6364,35.7067,庆阳市,市环保局,,38,33,33,16,17,121,,148,146,14,9,4,5,0.5,0.5
2024-07-28T2000,1916A,103.7897,25.5035,曲靖市,环境监测站,,20,18,20,14,14,58,,92,86,28,12,6,3,0.8,0.7
2024-07-28T2000,1917A,103.8,25.5364,曲靖市,烟厂办公区,,23,23,21,9,13,53,,95,87,23,12,4,4,0.8,0.6
2024-07-28T2000,3376A,103.7947,25.462,曲靖市,南苑二区,,20,15,20,3,14,64,,94,90,16,11,5,6,0.7,0.8
2024-07-28T2000,3377A,103.7444,25.5261,曲靖市,曲靖师范学院,,24,18,22,9,16,76,,96,92,17,16,8,11,0.7,0.7
2024-07-28T2000,1264A,118.8692,28.9398,衢州市,环保大楼,,19,19,17,9,9,43,,88,81,10,14,2,2,0.3,0.4
2024-07-28T2000,1265A,118.8709,28.9666,衢州市,实验学校,,20,20,16,9,11,50,,84,79,6,13,2,5,0.4,0.4
2024-07-28T2000,1266A,118.8621,28.9808,衢州市,衢州学院,,21,21,19,7,8,49,,85,80,8,13,3,3,0.3,0.4
2024-07-28T2000,1611A,118.5819,24.9117,泉州市,涂山街,,27,27,26,10,14,30,,71,65,8,8,3,4,0.6,0.6
2024-07-28T2000,1612A,118.5972,24.8978,泉州市,津头埔,,25,25,26,9,14,28,,70,64,13,12,2,2,0.6,0.6
2024-07-28T2000,1613A,118.6663,24.9424,泉州市,万安,,24,24,26,8,13,24,,73,68,11,7,2,2,0.6,0.5
2024-07-28T2000,1614A,118.6117,24.9604,泉州市,清源山,,,,,,,,,,,,,,,,
2024-07-28T2000,3529A,118.6333,24.9264,泉州市,城华南路,,16,16,21,8,13,24,,63,56,7,11,2,2,0.3,0.3
2024-07-28T2000,2626A,88.8876,29.2718,日喀则市,日喀则监测站,,30,10,5,3,3,95,,99,99,7,5,6,6,0.4,0.4
2024-07-28T2000,3726A,88.8781,29.2426,日喀则市,林业技术推广中心,,33,11,4,8,5,104,,101,101,11,8,6,6,0.5,0.5
2024-07-28T2000,1659A,119.471,35.4209,日照市,监测站,,34,17,20,13,12,108,,113,113,12,16,9,9,0.5,0.5
2024-07-28T2000,1660A,119.523,35.4216,日照市,市政府广场,,34,34,27,10,10,83,,105,103,34,17,11,11,0.6,0.6
2024-07-28T2000,1661A,119.5587,35.4044,日照市,港务局,,34,34,33,11,7,106,,116,116,21,17,10,10,0.5,0.5
2024-07-28T2000,3507A,119.5328,35.4625,日照市,职业技术学院,,33,29,26,9,10,103,,113,113,23,14,9,10,0.6,0.6
2024-07-28T2000,3604A,119.3266,35.1044,日照市,岚山环保分局,,35,14,20,3,6,110,,110,110,8,10,7,8,0.6,0.7
2024-07-28T2000,1835A,111.1922,34.7752,三门峡市,市政府,,38,37,43,18,21,119,,153,149,13,21,7,8,0.6,0.7
2024-07-28T2000,1836A,111.1587,34.7942,三门峡市,开发区,,40,32,48,23,27,125,,151,149,14,14,8,9,0.5,0.7
2024-07-28T2000,1838A,111.143,34.7955,三门峡市,风景区,,,,,,,,,,,,,,,,
2024-07-28T2000,3039A,111.1911,34.7829,三门峡市,三门峡市第一小学,,39,31,44,21,21,122,,148,144,14,15,7,9,0.5,0.7
2024-07-28T2000,3598A,111.1,34.7167,三门峡市,富达温泉假日酒店,,41,41,48,19,30,114,,159,156,14,21,10,14,0.8,0.9
2024-07-28T2000,2324A,117.6211,26.2625,三明市,三钢,,22,18,20,15,11,21,,40,34,12,12,8,12,0.6,0.8
2024-07-28T2000,2325A,117.635,26.2714,三明市,三明二中,,16,16,15,7,6,24,,42,37,9,10,2,4,0.4,0.6
2024-07-28T2000,2326A,117.6028,26.2378,三明市,三元区政府,,15,15,22,3,7,27,,38,35,6,11,3,4,0.3,0.5
2024-07-28T2000,2327A,117.7275,26.3108,三明市,洋溪,,,,,,,,,,,,,,,,
2024-07-28T2000,1876A,109.5078,18.2489,三亚市,河东子站,,16,13,21,6,9,51,,56,56,4,10,4,3,0.3,0.4
2024-07-28T2000,1877A,109.4964,18.2681,三亚市,河西子站,,16,11,20,7,10,49,,55,55,6,13,3,3,0.2,0.3
2024-07-28T2000,3540A,109.7348,18.3443,三亚市,君悦子站,,20,20,22,11,12,32,,51,49,13,10,2,2,0.3,0.3
2024-07-28T2000,2624A,91.7608,29.2313,山南市,山南监测站,,32,9,6,3,4,102,,90,90,7,4,6,6,0.2,0.2
2024-07-28T2000,2625A,91.7706,29.2436,山南市,山南人民医院,,32,13,14,6,7,102,,88,88,9,7,6,6,0.2,0.2
2024-07-28T2000,1674A,116.6794,23.3667,汕头市,金平子站,,13,13,13,3,6,28,,42,39,16,9,6,6,0.9,0.8
2024-07-28T2000,1675A,116.7244,23.3633,汕头市,龙湖子站,,12,12,15,3,6,27,,37,34,16,10,5,5,0.7,0.6
2024-07-28T2000,1676A,116.7258,23.2775,汕头市,濠江子站,,9,7,15,3,7,27,,44,39,14,8,4,4,0.6,0.5
2024-07-28T2000,1677A,116.7519,23.4714,汕头市,澄海子站,,14,14,27,7,8,25,,39,34,17,8,2,2,0.6,0.6
2024-07-28T2000,1678A,116.6092,23.2539,汕头市,潮阳子站,,12,12,14,3,9,26,,34,32,12,6,4,4,0.7,0.6
2024-07-28T2000,3444A,116.454,23.2684,汕头市,潮南峡山,,11,11,16,3,6,27,,37,34,12,6,4,4,0.7,0.6
2024-07-28T2000,3624A,116.4069,23.2533,汕头市,潮南子站,,12,12,19,3,9,29,,35,30,11,9,7,7,0.7,0.7
2024-07-28T2000,1693A,115.3653,22.775,汕尾市,市环保局,,11,11,8,3,3,29,,40,36,11,9,6,6,0.5,0.5
2024-07-28T2000,1694A,115.3706,22.7898,汕尾市,市政府,,9,9,8,3,5,27,,37,34,9,7,7,7,0.4,0.3
2024-07-28T2000,1695A,115.3622,22.7925,汕尾市,新城中学,,11,6,9,3,3,34,,43,40,5,5,6,5,0.5,0.5
2024-07-28T2000,2645A,109.9154,33.8715,商洛市,监测站,,,,33,,19,125,,142,142,,15,7,7,0.5,0.6
2024-07-28T2000,3045A,109.9643,33.8471,商洛市,商州区中学,颗粒物(PM10),61,71,46,26,21,100,,143,138,19,17,6,5,0.8,0.7
2024-07-28T2000,2408A,115.6702,34.4285,商丘市,环境监测站,,13,9,10,9,8,41,,61,59,14,5,2,2,0.4,0.3
2024-07-28T2000,2409A,115.6458,34.4045,商丘市,粮食局,,16,11,11,8,6,49,,62,60,12,5,5,5,0.2,0.3
2024-07-28T2000,2410A,115.6293,34.3948,商丘市,睢阳区环保局,,14,14,12,6,8,40,,54,52,14,6,4,4,0.5,0.5
2024-07-28T2000,3171A,115.6071,34.4465,商丘市,梁园区档案局,,16,11,10,6,8,49,,54,53,6,5,4,4,0.5,0.4
2024-07-28T2000,1141A,121.4,31.238,上海市,普陀,,22,22,27,6,5,53,,78,75,12,9,5,6,0.3,0.3
2024-07-28T2000,1142A,121.478,31.2036,上海市,十五厂,,25,25,25,12,13,48,,78,74,14,8,7,7,0.3,0.3
2024-07-28T2000,1143A,121.467,31.3008,上海市,虹口,,22,22,24,11,15,51,,76,73,13,7,7,6,0.5,0.5
2024-07-28T2000,1144A,121.412,31.1654,上海市,徐汇上师大,,18,18,28,10,12,48,,81,76,18,14,6,6,0.4,0.6
2024-07-28T2000,1145A,121.536,31.2659,上海市,杨浦四漂,,24,24,40,9,11,46,,86,80,18,9,6,6,0.3,0.3
2024-07-28T2000,1147A,121.425,31.2261,上海市,静安监测站,,20,20,25,11,11,52,,80,76,12,9,6,6,0.4,0.4
2024-07-28T2000,1148A,121.703,31.1907,上海市,浦东川沙,,,17,26,,1,34,,77,71,18,9,6,6,0.5,0.5
2024-07-28T2000,1149A,121.533,31.2284,上海市,浦东新区监测站,,18,18,23,8,10,45,,73,70,14,8,5,5,0.5,0.5
2024-07-28T2000,1150A,121.577,31.2071,上海市,浦东张江,,18,18,25,11,13,42,,70,66,13,9,5,5,0.5,0.5
2024-07-28T2000,3265A,121.4316,31.3322,上海市,宝山庙行,,21,21,24,9,12,61,,84,81,10,6,10,10,0.5,0.5
2024-07-28T2000,3266A,121.8791,31.4662,上海市,崇明上实东滩,,14,14,22,3,11,31,,75,63,13,8,7,7,0.4,0.5
2024-07-28T2000,3268A,121.3162,31.2838,上海市,嘉定南翔,,22,22,26,8,10,49,,73,70,21,14,16,7,0.4,0.5
2024-07-28T2000,3269A,121.3359,30.7456,上海市,金山新城,,19,16,20,13,8,43,,78,72,11,8,8,7,0.4,0.5
2024-07-28T2000,3270A,121.4996,31.0739,上海市,闵行浦江,,15,15,21,7,10,43,,76,71,15,10,6,5,0.2,0.2
2024-07-28T2000,3271A,121.2886,31.1663,上海市,青浦徐泾,,22,22,22,9,10,60,,82,79,12,9,6,6,0.5,0.5
2024-07-28T2000,3272A,121.2186,31.0378,上海市,松江图书馆,,20,20,20,12,10,46,,82,78,15,9,5,5,0.5,0.6
2024-07-28T2000,3273A,121.3902,31.2059,上海市,长宁仙霞,,20,20,28,10,11,57,,80,78,12,10,8,11,0.4,0.4
2024-07-28T2000,3274A,121.7965,31.0507,上海市,浦东惠南,,22,22,25,10,11,26,,71,63,19,10,7,7,0.5,0.6
2024-07-28T2000,3544A,121.4891,30.925,上海市,奉贤南桥新城,,14,14,19,9,11,38,,75,70,17,12,7,6,0.4,0.4
2024-07-28T2000,2381A,118.005,28.4572,上饶市,百草园,,15,15,13,3,6,26,,48,45,10,5,1,2,0.8,0.7
2024-07-28T2000,2382A,117.9756,28.4436,上饶市,市监测站,,20,16,16,14,6,32,,49,47,8,5,5,5,0.5,0.5
2024-07-28T2000,2383A,117.9519,28.4628,上饶市,凤凰光学,,15,15,18,6,8,31,,47,45,7,6,6,6,0.8,0.9
2024-07-28T2000,3413A,118.1953,28.4401,上饶市,广丰区教体局,,16,16,11,3,6,35,,46,44,5,4,14,7,0.7,0.7
2024-07-28T2000,3685A,117.897,28.4315,上饶市,双创科技城,,18,18,15,3,6,33,,44,42,4,4,6,6,0.6,0.6
2024-07-28T2000,1669A,113.5824,24.7733,韶关市,市八中,,,,9,,6,23,,51,50,11,6,8,9,,1
2024-07-28T2000,1671A,113.5917,24.7972,韶关市,园林处,,13,12,12,9,10,25,,47,46,10,8,8,8,0.8,0.7
2024-07-28T2000,1672A,113.6735,24.7791,韶关市,韶关学院,,14,14,15,7,8,25,,48,46,7,8,10,12,0.4,0.5
2024-07-28T2000,1673A,113.5971,24.6863,韶关市,曲江监测站,,,,10,,5,34,,48,47,6,9,,8,0.5,0.8
2024-07-28T2000,3622A,113.5556,24.8082,韶关市,碧湖山庄,,18,18,12,11,8,30,,55,53,9,6,10,10,1.0,0.7
2024-07-28T2000,2462A,111.5239,27.3033,邵阳市,市水土所,,,,24,,14,,,45,,,9,,7,,0.4
2024-07-28T2000,2463A,111.4733,27.2317,邵阳市,市一中,,19,6,18,3,13,59,,61,61,5,7,7,10,0.6,0.6
2024-07-28T2000,2464A,111.5283,27.2442,邵阳市,市化工厂,,18,7,17,7,13,57,,59,59,6,9,8,9,0.6,0.6
2024-07-28T2000,2465A,111.4503,27.2537,邵阳市,市罐头厂,,,19,17,15,13,52,,52,52,7,8,,5,0.4,0.4
2024-07-28T2000,2466A,111.4328,27.2272,邵阳市,市环保局,,29,,16,20,18,53,,55,55,7,7,5,9,0.4,0.3
2024-07-28T2000,1247A,120.6053,29.9928,绍兴市,城东开发委,,19,14,13,13,8,46,,59,57,6,6,6,5,0.5,0.5
2024-07-28T2000,2921A,120.5483,30.0003,绍兴市,树下王站,,26,22,13,18,12,47,,58,56,5,4,4,4,0.4,0.4
2024-07-28T2000,3408A,120.5683,29.9361,绍兴市,绍兴中专,,24,24,16,13,10,52,,64,62,5,4,2,2,0.4,0.4
2024-07-28T2000,3409A,120.4906,30.0861,绍兴市,柯桥区政府,,22,22,16,6,6,47,,61,58,8,8,5,6,0.4,0.4
2024-07-28T2000,3410A,120.8752,30.0249,绍兴市,重华小学,,19,19,14,12,8,45,,64,60,4,3,8,8,0.5,0.6
2024-07-28T2000,3411A,120.8369,30.0137,绍兴市,上虞中学,,18,18,14,9,11,39,,62,57,5,5,7,7,0.4,0.4
2024-07-28T2000,3560A,120.4722,30.0415,绍兴市,柯桥妇保,,22,22,16,13,10,49,,64,62,5,4,6,6,0.5,0.5
2024-07-28T2000,3658A,120.6153,30.0764,绍兴市,袍江中学,,,21,13,11,6,49,,64,62,6,3,,11,0.5,0.5
2024-07-28T2000,1356A,114.1063,22.5545,深圳市,通心岭子站,,9,9,9,3,4,27,,33,29,7,9,4,5,0.6,0.6
2024-07-28T2000,1357A,114.117,22.5625,深圳市,洪湖,,14,14,9,3,4,31,,31,31,11,14,6,6,0.3,0.3
