timepoint,stationcode,longitude,latitude,area,positionname,primarypollutant,aqi,pm10,pm10_24h,pm2_5,pm2_5_24h,o3,o3_24h,o3_8h,o3_8h_24h,no2,no2_24h,so2,so2_24h,co,co_24h
2023-06-22T22:00:00,1001A,116.3621,39.8784,北京市,万寿西宫,颗粒物(PM10),51,51,48,20,19,242,135,201,172,23,34,2,2,0.5,0.5
2023-06-22T22:00:00,1002A,116.2202,40.2915,北京市,定陵,,44,40,28,15,12,233,139,212,180,10,10,3,3,0.3,0.3
2023-06-22T22:00:00,1003A,116.4174,39.9289,北京市,东四,臭氧1小时,64,48,54,17,19,275,171,231,203,20,34,3,2,0.4,0.3
2023-06-22T22:00:00,1004A,116.4072,39.8863,北京市,天坛,,46,39,45,19,18,268,147,220,189,20,38,2,2,0.5,0.5
2023-06-22T22:00:00,1005A,116.462,39.9365,北京市,农展馆,,46,45,49,14,18,246,146,192,164,24,38,5,2,0.4,0.3
2023-06-22T22:00:00,1006A,116.3392,39.9295,北京市,官园,颗粒物(PM10),51,52,43,24,19,234,151,206,188,26,35,4,3,0.3,0.2
2023-06-22T22:00:00,1007A,116.2878,39.9611,北京市,海淀万柳,颗粒物(PM10),51,52,45,20,20,253,139,206,177,28,35,3,3,0.3,0.2
2023-06-22T22:00:00,1008A,116.6636,40.135,北京市,顺义新城,,43,43,37,20,14,234,128,201,184,19,25,3,3,0.4,0.3
2023-06-22T22:00:00,1009A,116.6275,40.3275,北京市,怀柔镇,颗粒物(PM10),57,63,31,34,14,228,108,191,179,32,21,1,1,0.5,0.3
2023-06-22T22:00:00,1010A,116.2296,40.217,北京市,昌平镇,,48,48,30,20,13,241,137,213,185,18,17,2,2,0.4,0.2
2023-06-22T22:00:00,1011A,116.3966,39.9821,北京市,奥体中心,,46,46,46,16,18,203,146,178,165,31,48,2,2,0.3,0.3
2023-06-22T22:00:00,1012A,116.184,39.9136,北京市,古城,颗粒物(PM10),62,73,45,29,18,221,125,195,170,32,28,1,2,0.5,0.3
2023-06-22T22:00:00,1015A,117.1444,39.1661,天津市,勤俭道,颗粒物(PM10),52,53,43,22,16,252,127,236,198,44,30,9,10,0.5,0.5
2023-06-22T22:00:00,1017A,117.237,39.1082,天津市,大直沽八号路,颗粒物(PM10),57,63,45,22,18,215,130,204,182,34,24,6,8,0.5,0.5
2023-06-22T22:00:00,1018A,117.202,39.0927,天津市,前进道,颗粒物(PM10),55,59,40,28,18,222,111,210,184,43,30,5,7,0.4,0.5
2023-06-22T22:00:00,1019A,117.1837,39.2133,天津市,淮河道,颗粒物(PM10),54,57,47,22,17,248,124,223,184,38,31,8,10,0.4,0.4
2023-06-22T22:00:00,1021A,117.307,39.0877,天津市,跃进路,颗粒物(PM10),58,65,52,28,19,227,145,215,193,41,33,9,10,0.5,0.5
2023-06-22T22:00:00,1023A,117.707,39.0343,天津市,第四大街,颗粒物(PM10),64,77,52,29,18,244,148,220,201,54,35,7,12,0.6,0.7
2023-06-22T22:00:00,1024A,117.457,38.8394,天津市,永明路,颗粒物(PM10),55,60,44,22,20,221,140,207,190,45,35,10,9,0.7,0.5
2023-06-22T22:00:00,1026A,117.764,39.1587,天津市,汉北路,"二氧化氮,颗粒物(PM10)",59,68,56,28,24,332,58,279,218,118,42,10,10,0.7,0.9
2023-06-22T22:00:00,1027A,117.157,38.9194,天津市,团泊洼,,41,41,33,23,18,211,80,198,166,46,25,4,6,0.8,0.8
2023-06-22T22:00:00,1029A,114.4422,38.0444,石家庄市,职工医院,臭氧1小时,62,53,37,30,15,223,169,196,189,18,25,8,5,0.6,0.5
2023-06-22T22:00:00,1030A,114.6063,38.0266,石家庄市,高新区,臭氧1小时,77,54,43,24,15,244,181,208,197,23,29,4,5,0.6,0.5
2023-06-22T22:00:00,1031A,114.4898,38.1328,石家庄市,西北水源,臭氧1小时,82,60,45,23,16,238,185,206,196,23,33,11,7,0.6,0.5
2023-06-22T22:00:00,1032A,114.4586,38.0058,石家庄市,西南高教,颗粒物(PM10),63,75,42,30,14,224,165,203,196,23,18,5,4,0.7,0.5
2023-06-22T22:00:00,1033A,114.5331,38.0178,石家庄市,世纪公园,臭氧1小时,57,61,31,29,16,220,165,194,188,30,28,7,6,0.6,0.5
2023-06-22T22:00:00,1034A,114.509,38.0457,石家庄市,人民会堂,臭氧1小时,88,58,39,29,12,253,190,222,215,27,24,16,7,0.7,0.5
2023-06-22T22:00:00,1035A,114.3524,37.8911,石家庄市,封龙山,臭氧1小时,103,53,33,34,15,209,205,190,190,8,10,6,7,0.6,0.6
2023-06-22T22:00:00,1037A,118.131,39.6363,唐山市,雷达站,臭氧1小时,105,78,65,32,30,324,210,276,271,24,31,16,12,1.3,1
2023-06-22T22:00:00,1038A,118.1725,39.6334,唐山市,物资局,臭氧1小时,101,80,68,40,29,330,202,280,274,32,35,11,17,0.8,1.1
2023-06-22T22:00:00,1040A,118.1705,39.6506,唐山市,十二中,臭氧1小时,105,68,63,37,38,309,210,267,264,22,32,10,13,0.9,1
2023-06-22T22:00:00,1041A,118.1869,39.622,唐山市,小山,臭氧1小时,101,78,68,30,29,334,202,283,276,28,30,10,17,0.8,1.2
2023-06-22T22:00:00,1042A,119.5134,39.8207,秦皇岛市,北戴河环保局,颗粒物(PM10),65,79,67,34,29,208,158,180,180,20,20,3,3,0.7,0.9
2023-06-22T22:00:00,1043A,119.7493,40.0116,秦皇岛市,第一关,细颗粒物(PM2.5),75,68,62,55,34,206,129,197,178,22,38,3,2,0.5,0.7
2023-06-22T22:00:00,1044A,119.5897,39.9499,秦皇岛市,监测站,细颗粒物(PM2.5),80,76,62,59,31,200,146,180,177,21,31,2,2,0.6,0.8
2023-06-22T22:00:00,1046A,119.5251,39.9041,秦皇岛市,建设大厦,"颗粒物(PM10),臭氧1小时",65,80,60,33,21,216,172,195,194,18,37,3,3,0.6,0.7
2023-06-22T22:00:00,1048A,114.5302,36.6116,邯郸市,东污水处理厂,,,77,46,34,25,229,,211,208,18,40,7,10,0.6,1.2
2023-06-22T22:00:00,1049A,114.4918,36.5713,邯郸市,矿院,臭氧1小时,62,58,45,22,22,210,169,198,192,15,38,4,9,0.3,0.7
2023-06-22T22:00:00,1050A,114.484,36.6133,邯郸市,丛台公园,臭氧1小时,83,57,45,22,24,229,186,218,210,12,28,4,11,0.5,1.3
2023-06-22T22:00:00,1051A,115.493,38.8632,保定市,游泳馆,臭氧1小时,80,47,42,13,21,233,184,219,205,10,23,12,14,0.3,0.4
2023-06-22T22:00:00,1052A,115.5213,38.8959,保定市,华电二区,臭氧1小时,54,47,42,27,17,225,163,208,193,13,19,7,8,0.5,0.5
2023-06-22T22:00:00,1053A,115.4713,38.9108,保定市,接待中心,颗粒物(PM10),52,53,53,20,23,223,154,198,181,12,15,5,4,0.6,0.6
2023-06-22T22:00:00,1054A,115.4612,38.8416,保定市,地表水厂,颗粒物(PM10),60,70,68,24,22,214,135,198,176,38,41,14,13,0.3,0.3
2023-06-22T22:00:00,1056A,115.5086,38.8639,保定市,监测站,颗粒物(PM10),51,51,45,32,25,232,157,211,192,17,24,5,8,0.3,0.4
2023-06-22T22:00:00,1057A,114.8883,40.8336,张家口市,人民公园,臭氧1小时,53,21,19,8,4,205,162,174,151,2,7,4,4,0.1,0.2
2023-06-22T22:00:00,1059A,114.8687,40.8042,张家口市,五金库,,46,29,26,12,10,199,146,167,133,10,14,2,3,0.3,0.5
2023-06-22T22:00:00,1060A,114.8902,40.762,张家口市,世纪豪园,,47,39,27,17,18,194,148,167,138,5,10,3,4,0.2,0.3
2023-06-22T22:00:00,1061A,114.8916,40.8661,张家口市,北泵房,,47,25,21,3,7,206,149,170,135,11,10,10,11,0.6,0.7
2023-06-22T22:00:00,1062A,117.9531,40.9081,承德市,铁路,,40,40,27,22,9,183,102,151,146,31,21,7,10,0.4,0.3
2023-06-22T22:00:00,1063A,117.9392,40.9763,承德市,中国银行,,43,43,29,19,9,181,81,155,143,34,22,6,7,0.6,0.4
2023-06-22T22:00:00,1064A,117.9503,40.928,承德市,开发区,,33,29,26,23,16,190,91,157,149,23,23,6,9,0.4,0.4
2023-06-22T22:00:00,1065A,117.8051,40.9655,承德市,文化中心,颗粒物(PM10),52,54,41,19,12,165,99,148,142,32,35,15,26,0.6,0.5
2023-06-22T22:00:00,1066A,117.9268,41.0026,承德市,离宫,,36,22,24,19,12,170,114,148,146,8,13,9,8,0.4,0.3
2023-06-22T22:00:00,1067A,116.6708,39.5111,廊坊市,药材公司,,50,50,58,7,22,268,127,225,172,25,30,3,5,0.3,0.3
2023-06-22T22:00:00,1068A,116.7214,39.5589,廊坊市,开发区,颗粒物(PM10),55,60,56,31,29,288,131,238,185,39,39,7,8,0.7,0.5
2023-06-22T22:00:00,1070A,116.7244,39.5269,廊坊市,北华航天学院,,50,50,64,34,28,269,145,230,182,28,35,5,6,0.5,0.4
2023-06-22T22:00:00,1071A,116.8842,38.2991,沧州市,沧县城建局,颗粒物(PM10),53,56,40,21,14,220,128,206,174,46,28,7,10,0.3,0.2
2023-06-22T22:00:00,1072A,116.8584,38.3254,沧州市,电视转播站,臭氧1小时,65,36,34,12,13,220,172,207,188,22,22,4,5,0.3,0.3
2023-06-22T22:00:00,1073A,116.8709,38.3228,沧州市,市环保局,颗粒物(PM10),51,51,36,32,19,227,160,212,189,49,40,1,5,0.3,0.3
2023-06-22T22:00:00,1074A,115.6838,37.7541,衡水市,电机北厂,臭氧1小时,103,46,37,23,11,250,206,238,232,12,12,4,8,0.2,0.3
2023-06-22T22:00:00,1075A,115.6303,37.7316,衡水市,市监测站,臭氧1小时,62,64,50,18,14,238,169,225,212,23,21,6,8,0.4,0.5
2023-06-22T22:00:00,1077A,114.4704,37.0886,邢台市,达活泉,臭氧1小时,83,80,45,24,15,271,186,248,225,17,20,13,15,1.0,0.8
2023-06-22T22:00:00,1078A,114.5062,37.0349,邢台市,邢师高专,颗粒物(PM10),69,87,51,30,17,255,137,234,203,51,38,9,9,0.6,0.6
2023-06-22T22:00:00,1079A,114.5237,37.0851,邢台市,路桥公司,颗粒物(PM10),58,66,43,30,19,268,157,247,217,26,23,6,9,0.5,0.8
2023-06-22T22:00:00,1080A,114.4725,37.0719,邢台市,市环保局,臭氧1小时,84,76,48,25,16,290,187,251,226,15,24,8,10,0.5,0.6
2023-06-22T22:00:00,1081A,112.522,37.8873,太原市,尖草坪,颗粒物(PM10),74,98,51,46,19,222,80,192,171,87,31,16,12,1.0,0.7
2023-06-22T22:00:00,1083A,112.434,38.0108,太原市,上兰,臭氧1小时,55,43,33,26,16,196,164,170,161,6,9,8,9,0.8,0.7
2023-06-22T22:00:00,1084A,112.469,37.7124,太原市,晋源,颗粒物(PM10),68,85,50,44,24,239,105,203,177,70,35,11,13,1.2,0.7
2023-06-22T22:00:00,1085A,112.5583,37.7394,太原市,小店,颗粒物(PM10),59,68,70,40,31,236,137,200,180,56,58,9,14,0.7,0.7
2023-06-22T22:00:00,1086A,112.5369,37.8692,太原市,桃园,颗粒物(PM10),64,78,45,44,22,219,99,192,173,59,36,9,12,1.0,0.6
2023-06-22T22:00:00,1087A,112.57,37.8195,太原市,坞城,"颗粒物(PM10),细颗粒物(PM2.5)",65,79,57,47,27,222,50,194,170,98,53,8,15,0.8,0.8
2023-06-22T22:00:00,1088A,112.549,37.9854,太原市,南寨,颗粒物(PM10),60,69,52,29,19,201,49,190,146,55,38,6,9,0.6,0.6
2023-06-22T22:00:00,1090A,111.6507,40.7517,呼和浩特市,呼市一监,颗粒物(PM10),68,85,53,37,21,222,117,197,184,30,32,8,9,0.7,0.5
2023-06-22T22:00:00,1091A,111.6572,40.8033,呼和浩特市,小召,颗粒物(PM10),54,58,45,20,17,226,133,199,188,38,36,8,8,0.6,0.5
2023-06-22T22:00:00,1094A,111.7516,40.8369,呼和浩特市,如意水处理厂,颗粒物(PM10),51,52,43,18,16,230,99,207,190,44,31,12,12,0.6,0.4
2023-06-22T22:00:00,1095A,111.7276,40.8062,呼和浩特市,二十九中,,47,47,46,20,17,230,87,204,187,74,37,10,10,0.9,0.6
2023-06-22T22:00:00,1096A,111.5512,40.7866,呼和浩特市,工大金川校区,颗粒物(PM10),61,72,46,22,16,216,112,197,182,41,33,8,9,0.7,0.5
2023-06-22T22:00:00,1097A,111.717,40.7612,呼和浩特市,化肥厂生活区,颗粒物(PM10),79,108,58,29,16,195,57,181,158,77,38,6,9,0.9,0.6
2023-06-22T22:00:00,1098A,123.6836,41.9339,沈阳市,森林路,,,,,,,,,,,,,,,,
2023-06-22T22:00:00,1099A,123.505,41.7406,沈阳市,浑南东路,,44,44,48,26,26,183,118,172,160,30,36,6,8,0.8,0.8
2023-06-22T22:00:00,1100A,123.4231,41.6989,沈阳市,新秀街,,35,30,48,17,20,186,109,173,158,45,38,4,8,0.7,0.7
2023-06-22T22:00:00,1102A,123.5903,41.8411,沈阳市,东陵路,,34,34,39,18,16,159,74,152,130,38,20,6,6,0.7,0.8
2023-06-22T22:00:00,1103A,123.4264,41.8467,沈阳市,陵东街,,24,24,29,16,17,172,59,164,142,27,28,5,5,0.7,0.8
2023-06-22T22:00:00,1104A,123.4114,41.7653,沈阳市,文化路,,42,33,44,23,27,180,134,170,161,26,37,4,5,0.8,0.7
2023-06-22T22:00:00,1105A,123.4678,41.7867,沈阳市,小河沿,,40,34,40,20,21,166,126,159,151,26,32,6,5,0.7,0.7
2023-06-22T22:00:00,1106A,123.4017,41.7972,沈阳市,太原街,,36,31,40,20,21,177,114,170,158,41,40,5,5,0.7,0.6
2023-06-22T22:00:00,1108A,123.3783,41.9228,沈阳市,京沈街,,46,30,28,18,19,186,145,174,170,18,27,7,7,0.5,0.5
2023-06-22T22:00:00,1109A,121.612,38.9741,大连市,甘井子,颗粒物(PM10),54,58,38,33,21,169,65,162,116,51,25,4,5,0.8,0.6
2023-06-22T22:00:00,1110A,121.565,38.9511,大连市,周水子,细颗粒物(PM2.5),64,46,33,46,20,163,50,141,110,62,33,5,7,1.1,0.9
2023-06-22T22:00:00,1111A,121.5637,38.8845,大连市,星海三站,,46,44,28,32,17,164,62,148,130,37,19,6,6,0.7,0.5
2023-06-22T22:00:00,1112A,121.6302,38.9117,大连市,青泥洼桥,,34,34,28,22,16,163,92,142,123,25,18,4,5,0.7,0.9
2023-06-22T22:00:00,1113A,121.6251,38.8638,大连市,傅家庄,,45,22,30,9,21,197,142,158,157,12,17,8,9,0.4,0.6
2023-06-22T22:00:00,1114A,121.5213,38.8661,大连市,七贤岭,,31,31,25,17,13,162,98,154,138,12,11,5,5,0.5,0.4
2023-06-22T22:00:00,1115A,121.2529,38.8061,大连市,旅顺,,49,29,31,29,22,182,154,163,162,19,16,8,7,0.5,0.6
2023-06-22T22:00:00,1116A,121.7485,39.1311,大连市,金州,,35,35,30,15,15,184,105,174,148,18,13,6,6,0.6,0.8
2023-06-22T22:00:00,1117A,121.7811,39.0496,大连市,开发区,细颗粒物(PM2.5),52,44,43,36,22,163,53,146,116,75,29,5,6,1.1,0.8
2023-06-22T22:00:00,1118A,121.9762,39.0631,大连市,双D港,,34,34,31,18,21,188,97,160,131,26,20,7,8,0.5,0.6
2023-06-22T22:00:00,1119A,125.3325,43.9166,长春市,食品厂,,30,30,30,15,16,135,81,126,117,28,28,6,6,0.5,0.5
2023-06-22T22:00:00,1120A,125.2863,43.9027,长春市,客车厂,,28,28,28,13,16,135,66,128,116,46,34,3,3,0.6,0.6
2023-06-22T22:00:00,1121A,125.2841,43.8463,长春市,邮电学院,,22,22,20,11,11,121,69,114,104,18,20,4,5,0.4,0.5
2023-06-22T22:00:00,1122A,125.3716,43.8772,长春市,劳动公园,,42,42,31,12,13,128,72,119,108,29,28,6,6,0.5,0.6
2023-06-22T22:00:00,1123A,125.3297,43.8805,长春市,园林处,,27,27,25,10,11,127,83,119,111,26,28,5,6,0.5,0.5
2023-06-22T22:00:00,1124A,125.4605,43.79,长春市,净月潭,,20,10,12,7,8,134,64,118,100,12,10,3,4,0.4,0.5
2023-06-22T22:00:00,1125A,125.7194,43.515,长春市,甩湾子,,37,18,12,3,5,124,18,117,95,73,23,5,5,0.4,0.4
2023-06-22T22:00:00,1126A,125.3863,43.8447,长春市,经开区环卫处,,26,26,23,6,9,134,64,123,111,39,28,5,6,0.4,0.5
2023-06-22T22:00:00,1127A,125.245,43.7783,长春市,高新区管委会,,36,36,25,9,12,130,61,121,108,25,25,4,5,0.4,0.5
2023-06-22T22:00:00,1128A,125.1761,43.8325,长春市,岱山公园,颗粒物(PM10),80,109,36,55,15,134,66,126,113,39,38,5,5,0.5,0.7
2023-06-22T22:00:00,1129A,126.5422,45.755,哈尔滨市,岭北,,22,13,22,7,15,116,68,113,99,19,15,8,9,0.5,0.7
2023-06-22T22:00:00,1130A,126.561,45.8167,哈尔滨市,松北商大,,29,29,30,6,10,114,48,109,96,45,23,7,6,0.5,0.6
2023-06-22T22:00:00,1131A,126.979,45.5419,哈尔滨市,阿城会宁,颗粒物(PM10),56,61,24,16,10,108,34,100,82,36,17,9,7,0.5,0.5
2023-06-22T22:00:00,1132A,126.599,45.7222,哈尔滨市,南岗学府路,,36,36,36,10,9,116,79,112,105,18,17,8,10,0.3,0.3
2023-06-22T22:00:00,1133A,126.689,45.7733,哈尔滨市,太平宏伟公园,,,,27,11,11,120,,114,112,29,20,4,4,0.4,0.4
2023-06-22T22:00:00,1134A,126.635,45.7667,哈尔滨市,道外承德广场,,40,40,30,6,14,119,78,114,105,24,21,7,7,0.7,0.7
2023-06-22T22:00:00,1135A,126.685,45.7319,哈尔滨市,香坊红旗大街,,43,43,29,14,13,118,76,114,105,31,21,8,8,0.6,0.6
2023-06-22T22:00:00,1136A,126.6411,45.7258,哈尔滨市,动力和平路,,,31,27,,,119,85,116,109,26,21,8,9,0.5,0.5
2023-06-22T22:00:00,1137A,126.593,45.7478,哈尔滨市,道里建国路,,37,37,30,11,11,120,83,115,108,24,22,4,5,0.5,0.7
2023-06-22T22:00:00,1138A,126.615,45.61,哈尔滨市,平房东轻厂,,24,24,27,10,10,117,57,110,96,29,18,7,7,0.6,0.6
2023-06-22T22:00:00,1139A,126.595,45.9855,哈尔滨市,呼兰师专,,23,23,32,2,7,122,57,113,100,38,21,6,6,0.3,0.4
2023-06-22T22:00:00,1140A,126.6206,45.6842,哈尔滨市,省农科院,颗粒物(PM10),53,56,35,13,10,127,20,121,99,79,32,9,8,0.7,0.6
2023-06-22T22:00:00,1141A,121.4,31.238,上海市,普陀,颗粒物(PM10),59,67,54,36,53,191,108,178,149,41,29,5,6,0.8,0.7
2023-06-22T22:00:00,1142A,121.478,31.2036,上海市,十五厂,细颗粒物(PM2.5),83,80,54,61,62,179,136,152,117,39,34,6,7,0.8,0.7
2023-06-22T22:00:00,1143A,121.467,31.3008,上海市,虹口,,46,36,57,32,52,154,75,144,114,54,33,6,7,0.8,0.7
2023-06-22T22:00:00,1144A,121.412,31.1654,上海市,徐汇上师大,细颗粒物(PM2.5),83,77,55,61,56,186,150,160,135,35,34,8,8,0.9,0.8
2023-06-22T22:00:00,1145A,121.536,31.2659,上海市,杨浦四漂,细颗粒物(PM2.5),89,75,58,66,61,162,105,144,119,39,32,7,8,1.1,0.9
2023-06-22T22:00:00,1147A,121.425,31.2261,上海市,静安监测站,细颗粒物(PM2.5),70,77,48,51,49,176,82,162,131,61,31,5,6,0.8,0.7
2023-06-22T22:00:00,1148A,121.703,31.1907,上海市,浦东川沙,颗粒物(PM10),70,90,66,32,74,199,167,171,171,17,32,8,8,0.8,0.7
2023-06-22T22:00:00,1149A,121.533,31.2284,上海市,浦东新区监测站,细颗粒物(PM2.5),89,85,66,66,57,186,164,156,149,24,28,8,9,0.7,0.6
2023-06-22T22:00:00,1150A,121.577,31.2071,上海市,浦东张江,细颗粒物(PM2.5),95,96,70,71,64,161,140,131,131,31,31,5,6,0.9,0.8
2023-06-22T22:00:00,1151A,118.8086,32.1065,南京市,迈皋桥,,49,49,57,22,31,253,110,212,183,20,22,4,4,0.4,0.5
2023-06-22T22:00:00,1152A,118.7538,32.0551,南京市,草场门,,48,48,53,29,32,220,131,193,178,17,35,3,4,0.7,0.8
2023-06-22T22:00:00,1153A,118.7794,32.0745,南京市,山西路,颗粒物(PM10),51,51,56,29,30,231,119,202,182,16,21,5,7,0.4,0.5
2023-06-22T22:00:00,1154A,118.7752,32.0023,南京市,中华门,颗粒物(PM10),52,53,54,34,32,168,91,160,137,34,43,5,4,1.0,1
2023-06-22T22:00:00,1155A,118.8109,32.0309,南京市,瑞金路,颗粒物(PM10),52,53,53,31,30,198,93,186,158,42,34,3,5,0.4,0.5
2023-06-22T22:00:00,1156A,118.7997,32.0754,南京市,玄武湖,,44,44,50,25,31,217,119,191,169,13,20,6,7,0.8,0.8
2023-06-22T22:00:00,1157A,118.6414,32.0931,南京市,浦口,,46,46,47,27,29,198,96,180,154,20,21,6,6,0.4,0.5
2023-06-22T22:00:00,1158A,118.7356,31.9996,南京市,奥体中心,颗粒物(PM10),54,58,57,34,36,179,99,168,146,32,41,7,7,0.5,0.6
2023-06-22T22:00:00,1159A,118.9125,32.1028,南京市,仙林大学城,细颗粒物(PM2.5),52,48,53,36,35,233,86,206,170,26,21,6,7,0.7,0.7
2023-06-22T22:00:00,1160A,120.561,31.2472,苏州市,上方山,"颗粒物(PM10),细颗粒物(PM2.5)",57,64,69,40,43,179,96,155,140,20,17,5,6,0.7,0.6
2023-06-22T22:00:00,1162A,120.591,31.3019,苏州市,彩香,细颗粒物(PM2.5),65,78,62,47,44,204,65,183,147,60,20,7,7,1.0,0.8
2023-06-22T22:00:00,1163A,120.596,31.3264,苏州市,轧钢厂,细颗粒物(PM2.5),77,87,63,56,46,191,36,180,146,85,21,9,9,1.2,0.9
2023-06-22T22:00:00,1164A,120.613,31.2703,苏州市,吴中区,颗粒物(PM10),63,76,63,44,43,221,62,192,152,86,28,8,9,0.9,0.8
2023-06-22T22:00:00,1165A,120.543,31.2994,苏州市,苏州新区,细颗粒物(PM2.5),70,75,62,51,46,204,69,184,135,47,20,7,6,1.0,0.9
2023-06-22T22:00:00,1166A,120.669,31.3097,苏州市,苏州工业园区,颗粒物(PM10),63,76,61,44,40,177,74,170,135,74,29,9,9,1.0,0.9
2023-06-22T22:00:00,1167A,120.641,31.3708,苏州市,相城区,细颗粒物(PM2.5),75,70,55,55,49,193,14,177,118,102,30,8,8,1.2,0.9
2023-06-22T22:00:00,1168A,120.9098,31.9663,南通市,狼山街道,细颗粒物(PM2.5),55,44,46,39,42,164,57,140,82,54,39,10,11,1.2,1.2
2023-06-22T22:00:00,1169A,120.86,32.0005,南通市,虹桥,细颗粒物(PM2.5),60,64,56,43,48,222,113,190,157,48,38,10,12,0.9,1.1
2023-06-22T22:00:00,1170A,120.87,32.02,南通市,城中,细颗粒物(PM2.5),67,69,59,48,47,209,98,188,162,59,33,10,12,0.6,0.8
2023-06-22T22:00:00,1171A,120.94,31.93,南通市,星湖花园,颗粒物(PM10),53,55,45,31,32,202,79,185,139,69,31,24,10,0.7,0.8
2023-06-22T22:00:00,1172A,120.81,32.0417,南通市,紫琅学院,颗粒物(PM10),63,75,60,44,40,194,58,164,128,102,53,6,9,0.9,1
2023-06-22T22:00:00,1173A,119.176,34.5885,连云港市,市环境监测站,臭氧1小时,88,51,75,24,36,222,190,195,190,13,25,8,10,0.3,0.3
2023-06-22T22:00:00,1177A,117.179,34.2761,徐州市,黄河新村,颗粒物(PM10),60,70,65,34,35,214,136,208,191,25,18,8,8,0.7,0.7
2023-06-22T22:00:00,1178A,117.1918,34.2384,徐州市,淮塔,颗粒物(PM10),63,75,57,29,29,232,139,225,204,30,14,11,11,0.6,0.6
2023-06-22T22:00:00,1180A,117.256,34.2153,徐州市,新城区,颗粒物(PM10),67,83,75,30,33,225,145,217,196,25,31,7,8,0.6,0.6
2023-06-22T22:00:00,1181A,117.244,34.2911,徐州市,桃园路,颗粒物(PM10),62,73,59,26,29,207,141,195,181,18,19,9,9,0.5,0.5
2023-06-22T22:00:00,1182A,117.2933,34.2778,徐州市,农科院,颗粒物(PM10),58,66,58,37,32,232,154,214,192,25,31,8,8,0.6,0.6
2023-06-22T22:00:00,1186A,119.389,32.3761,扬州市,邗江监测站,颗粒物(PM10),53,56,64,26,36,261,115,216,190,25,42,3,5,0.7,0.9
2023-06-22T22:00:00,1188A,120.269,31.4867,无锡市,雪浪,,30,17,46,14,34,166,93,156,119,1,6,2,4,0.6,0.8
2023-06-22T22:00:00,1189A,120.275,31.6219,无锡市,黄巷,"二氧化氮,颗粒物(PM10)",60,69,56,29,31,164,13,153,118,120,46,7,7,1.0,0.9
2023-06-22T22:00:00,1190A,120.294,31.56,无锡市,曹张,,,69,50,34,38,156,2,147,80,,34,4,4,1.2,1.1
2023-06-22T22:00:00,1191A,120.242,31.5031,无锡市,漆塘,,26,24,48,17,35,166,82,151,104,3,5,4,4,0.5,0.7
2023-06-22T22:00:00,1192A,120.3489,31.5863,无锡市,东亭,,,63,59,41,40,194,,174,161,64,31,10,11,1.2,1
2023-06-22T22:00:00,1193A,120.354,31.5475,无锡市,旺庄,颗粒物(PM10),67,83,57,41,37,190,22,174,133,95,36,7,8,1.0,0.8
2023-06-22T22:00:00,1194A,120.245,31.5631,无锡市,荣巷,,33,19,47,17,37,165,104,157,113,12,13,7,8,0.4,0.6
2023-06-22T22:00:00,1195A,120.299,31.6817,无锡市,堰桥,,50,44,51,22,35,163,7,141,74,99,41,7,9,1.0,1
2023-06-22T22:00:00,1196A,119.9633,31.762,常州市,市监测站,细颗粒物(PM2.5),52,36,63,36,46,178,56,167,132,61,35,8,8,0.9,0.9
2023-06-22T22:00:00,1200A,119.9468,31.7069,常州市,武进监测站,,42,37,81,29,47,178,61,169,136,38,22,13,12,0.8,0.9
2023-06-22T22:00:00,1201A,119.9255,31.9087,常州市,安家,细颗粒物(PM2.5),74,84,75,54,50,180,22,159,114,119,37,10,9,0.8,0.8
2023-06-22T22:00:00,1203A,119.6707,32.1875,镇江市,新区办事处,颗粒物(PM10),57,63,68,39,47,210,106,197,171,33,31,4,5,0.8,0.9
2023-06-22T22:00:00,1204A,119.4974,32.1968,镇江市,职教中心,,48,44,55,33,42,231,127,200,176,21,23,5,4,0.9,0.9
2023-06-22T22:00:00,1205A,119.4303,32.1328,镇江市,丹徒区监测站,,44,44,64,28,55,191,119,181,154,14,18,2,6,0.7,0.9
2023-06-22T22:00:00,1206A,119.905,32.4878,泰州市,公园路,细颗粒物(PM2.5),70,58,65,51,54,214,116,204,180,25,19,9,10,0.8,1
2023-06-22T22:00:00,1207A,119.9189,32.4625,泰州市,莲花,颗粒物(PM10),61,71,74,39,49,233,132,220,193,27,24,12,12,0.7,0.8
2023-06-22T22:00:00,1209A,119.888,32.4639,泰州市,留学生创业园,颗粒物(PM10),61,72,62,37,46,224,115,212,184,26,21,10,11,0.7,0.8
2023-06-22T22:00:00,1210A,119.036,33.5981,淮安市,钵池山,臭氧1小时,63,58,66,32,47,218,170,204,196,19,24,17,13,0.6,0.9
2023-06-22T22:00:00,1211A,119.007,33.575,淮安市,北京南路,颗粒物(PM10),56,61,66,39,34,206,131,194,170,35,40,17,12,0.8,1.1
2023-06-22T22:00:00,1212A,118.989,33.6067,淮安市,市监测站,臭氧1小时,72,53,59,34,35,228,177,216,206,16,16,8,9,0.6,0.6
2023-06-22T22:00:00,1213A,119.135,33.5039,淮安市,楚州区监测站,颗粒物(PM10),61,71,75,39,34,222,123,203,179,42,34,8,7,0.7,0.8
2023-06-22T22:00:00,1214A,119.0186,33.6297,淮安市,淮阴区监测站,臭氧1小时,65,55,64,26,30,224,172,208,194,16,19,8,9,0.7,0.7
2023-06-22T22:00:00,1215A,120.118,33.4022,盐城市,盐城电厂,颗粒物(PM10),52,53,53,26,26,218,132,206,183,16,11,3,4,0.5,0.6
2023-06-22T22:00:00,1216A,120.156,33.3942,盐城市,市监测站,,48,44,49,22,25,212,153,199,180,13,11,7,9,0.4,0.5
2023-06-22T22:00:00,1218A,120.2144,33.38,盐城市,开发区管委会,,50,39,43,26,27,217,158,210,163,15,17,5,6,0.2,0.2
2023-06-22T22:00:00,1220A,118.293,33.9528,宿迁市,宿迁学院,臭氧1小时,54,44,61,32,53,246,163,228,190,16,21,5,13,1.0,0.8
2023-06-22T22:00:00,1221A,118.2442,33.9592,宿迁市,宿迁中学,臭氧1小时,63,70,63,42,39,257,170,244,221,17,21,8,7,0.5,0.5
2023-06-22T22:00:00,1223A,120.2072,30.2111,杭州市,滨江,细颗粒物(PM2.5),68,74,65,49,38,236,115,197,160,20,22,6,7,0.9,0.9
2023-06-22T22:00:00,1224A,120.0633,30.2747,杭州市,西溪,细颗粒物(PM2.5),68,81,66,49,38,185,53,135,82,32,25,5,6,0.8,0.7
2023-06-22T22:00:00,1226A,120.3461,30.3153,杭州市,下沙,颗粒物(PM10),68,86,64,48,38,212,129,172,144,25,26,4,4,0.7,0.7
2023-06-22T22:00:00,1227A,120.1269,30.2456,杭州市,卧龙桥,细颗粒物(PM2.5),72,66,54,52,40,214,22,141,68,24,20,5,6,0.9,0.8
2023-06-22T22:00:00,1228A,120.1903,30.2692,杭州市,浙江农大,细颗粒物(PM2.5),75,70,54,55,41,211,105,170,144,23,24,6,6,0.8,0.7
2023-06-22T22:00:00,1230A,120.1197,30.3119,杭州市,和睦小学,细颗粒物(PM2.5),70,78,64,51,44,225,110,172,136,25,26,6,7,0.6,0.6
2023-06-22T22:00:00,1231A,120.3019,30.4183,杭州市,临平镇,细颗粒物(PM2.5),88,104,74,65,43,223,102,184,140,40,28,4,4,0.8,0.7
2023-06-22T22:00:00,1232A,120.2697,30.1819,杭州市,城厢镇,细颗粒物(PM2.5),87,72,63,64,48,217,97,180,146,29,25,5,6,0.9,0.9
2023-06-22T22:00:00,1233A,120.0883,30.1808,杭州市,云栖,颗粒物(PM10),58,65,62,39,36,213,17,151,68,27,20,4,5,0.9,0.9
2023-06-22T22:00:00,1234A,121.8358,29.911,宁波市,区环保大楼,,43,38,42,30,33,203,105,140,115,25,50,5,6,0.8,0.9
2023-06-22T22:00:00,1235A,121.56,29.82,宁波市,万里学院,细颗粒物(PM2.5),64,54,48,46,38,177,111,153,142,18,25,3,4,0.6,0.6
2023-06-22T22:00:00,1236A,121.713,29.9572,宁波市,龙赛医院,颗粒物(PM10),53,56,72,30,33,230,116,180,153,12,26,5,7,0.7,0.8
2023-06-22T22:00:00,1239A,121.633,29.7733,宁波市,钱湖水厂,,50,40,34,35,27,141,97,123,115,6,6,5,5,0.9,0.9
2023-06-22T22:00:00,1240A,121.5856,29.8635,宁波市,太古小学,,49,49,43,32,31,205,110,165,148,13,14,3,3,0.7,0.9
2023-06-22T22:00:00,1241A,121.524,29.8674,宁波市,市环境监测中心,,50,50,46,28,27,188,98,158,141,15,19,4,4,0.7,0.7
2023-06-22T22:00:00,1242A,120.634,28.0089,温州市,瓯海,,26,26,24,16,16,124,67,114,82,17,16,7,7,0.6,0.5
2023-06-22T22:00:00,1243A,120.6748,27.9939,温州市,南浦,,27,27,23,18,17,135,78,135,94,17,14,4,4,0.5,0.5
2023-06-22T22:00:00,1244A,120.76,27.9747,温州市,龙湾,,22,20,24,13,15,129,70,123,83,23,20,5,5,0.6,0.6
2023-06-22T22:00:00,1245A,120.6709,28.0167,温州市,市站,,24,20,21,14,18,95,75,91,75,12,13,5,5,0.6,0.6
2023-06-22T22:00:00,1247A,120.6053,29.9928,绍兴市,城东开发委,细颗粒物(PM2.5),67,67,62,48,44,199,83,162,132,20,17,4,6,0.7,0.9
2023-06-22T22:00:00,1250A,120.0751,30.8669,湖州市,城西水厂,颗粒物(PM10),53,55,48,27,34,182,6,151,98,96,36,5,6,0.7,0.6
2023-06-22T22:00:00,1252A,120.7436,30.778,嘉兴市,清河小学,颗粒物(PM10),53,56,52,36,33,193,131,174,143,29,23,7,8,0.8,0.4
2023-06-22T22:00:00,1253A,120.726,30.7478,嘉兴市,嘉兴学院,细颗粒物(PM2.5),52,49,51,36,41,208,134,182,146,24,21,4,5,0.7,0.6
2023-06-22T22:00:00,1255A,121.273,28.6459,台州市,黄岩环保大楼,,30,30,50,20,38,120,40,108,65,12,12,4,4,0.6,0.6
2023-06-22T22:00:00,1256A,121.419,28.6542,台州市,台州环保大楼,,33,33,32,20,24,114,40,99,71,15,14,2,2,0.6,0.6
2023-06-22T22:00:00,1257A,121.377,28.5773,台州市,路桥田洋王,,30,23,30,21,23,126,46,116,70,18,16,6,6,0.6,0.6
2023-06-22T22:00:00,1258A,122.122,30.0203,舟山市,定海檀枫,,48,40,47,33,34,208,71,161,110,28,32,7,7,0.6,0.7
2023-06-22T22:00:00,1259A,122.3094,29.9558,舟山市,普陀东港,,49,44,46,34,38,170,73,140,98,24,27,7,8,0.6,0.6
2023-06-22T22:00:00,1260A,122.19,29.9944,舟山市,临城新区,,40,40,42,28,30,211,90,153,106,24,27,6,5,0.4,0.5
2023-06-22T22:00:00,1262A,119.647,29.077,金华市,十五中,,34,34,38,13,20,110,70,97,81,15,18,4,5,0.6,0.6
2023-06-22T22:00:00,1263A,119.686,29.1029,金华市,监测站,,35,31,40,24,26,126,63,104,80,17,21,4,17,0.6,0.6
2023-06-22T22:00:00,1264A,118.8692,28.9398,衢州市,环保大楼,,35,32,46,24,34,110,96,99,99,17,20,3,3,0.6,0.7
2023-06-22T22:00:00,1265A,118.8709,28.9666,衢州市,实验学校,,32,32,48,14,38,114,81,102,100,27,19,7,9,0.5,0.6
2023-06-22T22:00:00,1266A,118.8621,28.9808,衢州市,衢州学院,,30,30,51,21,35,113,74,103,101,34,22,4,5,0.4,0.6
2023-06-22T22:00:00,1267A,119.914,28.4514,丽水市,监测站大楼,,26,24,18,12,10,115,82,103,83,10,14,4,4,0.3,0.4
2023-06-22T22:00:00,1268A,119.93,28.4586,丽水市,莲都小学,,28,26,20,10,9,124,87,114,93,9,12,4,4,0.5,0.5
2023-06-22T22:00:00,1269A,119.879,28.4231,丽水市,余庄前,,33,33,25,19,11,106,63,97,70,12,13,4,4,0.5,0.5
2023-06-22T22:00:00,1270A,117.1959,31.7848,合肥市,明珠广场,"颗粒物(PM10),细颗粒物(PM2.5)",52,53,53,36,29,171,138,166,160,17,31,7,7,0.8,0.7
2023-06-22T22:00:00,1271A,117.3072,31.8764,合肥市,三里街,颗粒物(PM10),51,51,54,34,29,150,132,144,143,27,45,6,8,0.7,0.6
2023-06-22T22:00:00,1272A,117.2588,31.8707,合肥市,琥珀山庄,细颗粒物(PM2.5),52,51,45,36,28,168,156,158,158,16,25,5,5,0.6,0.6
2023-06-22T22:00:00,1273A,117.1604,31.9052,合肥市,董铺水库,,44,44,46,27,25,142,114,129,129,12,23,3,3,0.5,0.5
2023-06-22T22:00:00,1274A,117.25,31.8571,合肥市,长江中路,细颗粒物(PM2.5),60,58,53,43,32,158,141,146,146,14,22,10,12,0.7,0.7
2023-06-22T22:00:00,1275A,117.266,31.9436,合肥市,庐阳区,颗粒物(PM10),53,56,65,34,36,152,129,140,135,18,42,8,9,0.6,0.6
2023-06-22T22:00:00,1276A,117.336,31.8586,合肥市,瑶海区,颗粒物(PM10),67,83,59,28,27,148,97,138,128,37,34,8,10,0.9,0.8
2023-06-22T22:00:00,1277A,117.3027,31.7964,合肥市,包河区,颗粒物(PM10),53,56,61,31,34,167,125,158,153,15,56,6,9,0.8,0.7
2023-06-22T22:00:00,1278A,117.2776,31.7385,合肥市,滨湖新区,颗粒物(PM10),51,51,49,29,25,180,133,165,160,13,18,7,9,0.8,0.7
2023-06-22T22:00:00,1279A,117.1318,31.8403,合肥市,高新区,,46,46,49,27,28,159,137,147,145,15,29,10,9,0.6,0.6
2023-06-22T22:00:00,1280A,119.3903,26.0543,福州市,鼓山,,,,,,,,,,,,,,,,
2023-06-22T22:00:00,1282A,119.2681,26.0504,福州市,师大,,37,19,24,24,12,118,118,100,100,5,10,4,4,0.5,0.4
2023-06-22T22:00:00,1283A,119.2984,26.1028,福州市,五四北路,,35,8,23,7,13,116,112,100,99,7,15,2,2,0.5,0.4
2023-06-22T22:00:00,1284A,119.2648,26.0768,福州市,杨桥西路,,,21,23,20,12,107,,90,86,9,14,3,2,0.5,0.4
2023-06-22T22:00:00,1285A,119.317,26.0746,福州市,紫阳,,32,18,23,16,11,109,101,92,92,10,13,1,1,0.6,0.5
2023-06-22T22:00:00,1286A,118.1608,24.8169,厦门市,溪东,,,,,,,,,,,,,,,,
2023-06-22T22:00:00,1287A,118.1514,24.4767,厦门市,洪文,,20,20,31,5,11,102,37,82,61,7,8,3,3,0.2,0.3
2023-06-22T22:00:00,1288A,118.0661,24.4444,厦门市,鼓浪屿,,19,19,32,7,14,84,38,74,59,6,14,2,4,0.3,0.4
2023-06-22T22:00:00,1290A,115.8931,28.6843,南昌市,省外办,,43,24,17,12,12,142,137,124,124,9,10,5,7,0.4,0.6
2023-06-22T22:00:00,1291A,115.8886,28.7003,南昌市,省林业公司,,42,9,10,12,11,140,133,126,126,3,9,4,6,0.4,0.5
2023-06-22T22:00:00,1292A,115.8126,28.7442,南昌市,林科所,,42,2,11,7,7,134,132,114,114,12,16,8,9,0.1,0.3
2023-06-22T22:00:00,1294A,115.8518,28.687,南昌市,建工学校,,46,34,23,14,11,153,146,133,133,3,6,1,2,0.3,0.5
2023-06-22T22:00:00,1295A,115.8921,28.6424,南昌市,象湖,,45,14,17,13,10,149,143,130,130,1,6,4,6,0.3,0.5
2023-06-22T22:00:00,1296A,115.7423,28.7996,南昌市,武术学校,,46,20,18,32,16,145,145,115,115,2,2,8,11,0.4,0.5
2023-06-22T22:00:00,1298A,115.9314,28.6842,南昌市,省站,,43,14,21,12,13,143,135,124,124,2,7,6,8,0.4,0.5
2023-06-22T22:00:00,1299A,116.9862,36.6114,济南市,科干所,臭氧1小时,102,41,49,29,21,238,204,223,213,21,38,6,6,0.5,0.5
2023-06-22T22:00:00,1300A,116.9376,36.665,济南市,农科所,颗粒物(PM10),57,63,54,20,16,240,124,215,187,45,40,4,4,0.4,0.4
2023-06-22T22:00:00,1301A,117.1265,36.6734,济南市,开发区,颗粒物(PM10),68,85,60,22,17,252,61,233,188,120,58,5,6,0.6,0.6
2023-06-22T22:00:00,1303A,117.0624,36.6868,济南市,省种子仓库,,,68,62,34,21,246,,238,238,54,63,2,4,0.6,0.6
2023-06-22T22:00:00,1304A,116.9489,36.6447,济南市,机床二厂,颗粒物(PM10),67,83,66,32,18,241,118,224,194,58,41,5,5,0.6,0.5
2023-06-22T22:00:00,1305A,117.0495,36.663,济南市,市监测站,颗粒物(PM10),53,56,48,34,19,262,99,244,210,88,53,6,7,0.5,0.3
2023-06-22T22:00:00,1306A,116.7675,36.5484,济南市,长清党校,臭氧1小时,87,54,45,24,23,244,189,225,211,27,32,8,7,0.5,0.4
2023-06-22T22:00:00,1307A,120.6659,36.2403,青岛市,仰口,,47,39,32,29,22,204,148,175,158,14,14,5,5,0.4,0.4
2023-06-22T22:00:00,1310A,120.4134,36.0658,青岛市,市南区东部子站,臭氧1小时,124,80,56,53,29,263,248,238,238,17,37,12,12,0.9,0.6
2023-06-22T22:00:00,1311A,120.3664,36.1032,青岛市,四方区子站,臭氧1小时,116,,66,48,35,287,231,249,248,38,55,11,12,1.2,1
2023-06-22T22:00:00,1312A,120.2994,36.054,青岛市,市南区西部子站,臭氧1小时,139,83,69,54,33,292,277,252,252,14,69,11,13,1.2,0.9
2023-06-22T22:00:00,1313A,120.4581,36.0858,青岛市,崂山区子站,臭氧1小时,112,61,45,56,26,261,224,235,235,,26,11,11,1.0,0.6
2023-06-22T22:00:00,1314A,120.1983,35.9608,青岛市,黄岛区子站,臭氧1小时,111,97,74,71,40,306,221,274,272,26,47,9,10,1.1,0.8
2023-06-22T22:00:00,1315A,120.3999,36.3083,青岛市,城阳区子站,臭氧1小时,70,61,53,29,19,257,176,228,224,37,45,7,7,0.7,0.6
2023-06-22T22:00:00,1316A,113.69031,34.76122,郑州市,烟厂,,48,44,60,21,24,233,152,221,207,14,17,4,4,0.6,0.7
2023-06-22T22:00:00,1317A,113.65724,34.77134,郑州市,郑纺机,,48,48,59,17,19,225,144,218,200,19,19,4,4,0.4,0.6
2023-06-22T22:00:00,1318A,113.67526,34.80246,郑州市,银行学校,,47,43,54,18,23,230,149,217,204,17,16,2,2,0.4,0.6
2023-06-22T22:00:00,1319A,113.56746,34.81334,郑州市,供水公司,颗粒物(PM10),53,55,62,21,25,215,136,200,187,25,25,8,7,0.4,0.5
2023-06-22T22:00:00,1320A,113.7329,34.7178,郑州市,经开区管委,,46,46,62,21,27,219,135,208,192,16,17,3,3,0.5,0.6
2023-06-22T22:00:00,1321A,113.73961,34.77172,郑州市,四十七中,,50,41,56,16,24,245,158,235,218,19,17,7,8,0.4,0.5
2023-06-22T22:00:00,1322A,113.60532,34.74838,郑州市,市监测站,颗粒物(PM10),54,58,66,23,24,225,138,216,198,22,23,3,3,0.6,0.7
2023-06-22T22:00:00,1323A,113.64164,34.7525,郑州市,河医大,,,48,59,18,22,218,143,209,194,,14,,6,0.4,0.5
2023-06-22T22:00:00,1324A,113.51488,34.91089,郑州市,岗李水库,颗粒物(PM10),51,51,57,16,19,218,111,210,182,33,20,5,6,0.9,0.7
2023-06-22T22:00:00,1325A,114.3677,30.5584,武汉市,东湖梨园,,30,11,34,10,20,144,93,124,104,12,19,5,6,0.6,0.9
2023-06-22T22:00:00,1326A,114.2529,30.558,武汉市,汉阳月湖,,22,21,34,12,18,132,52,107,82,43,25,7,7,0.5,0.6
2023-06-22T22:00:00,1327A,114.282,30.6189,武汉市,汉口花桥,,27,16,36,7,21,145,84,124,100,32,24,9,9,0.5,0.9
2023-06-22T22:00:00,1328A,114.3025,30.5332,武汉市,武昌紫阳,,24,20,32,11,18,141,74,125,102,29,25,8,7,0.5,0.8
2023-06-22T22:00:00,1329A,114.3646,30.6217,武汉市,青山钢花,,31,25,38,17,26,149,98,124,106,20,25,8,10,0.5,0.9
2023-06-22T22:00:00,1330A,114.1566,30.4825,武汉市,沌口新区,,26,17,33,15,23,126,81,114,96,19,21,6,6,0.5,0.7
2023-06-22T22:00:00,1331A,114.3014,30.5944,武汉市,汉口江滩,,33,16,28,7,16,158,104,127,110,13,24,6,6,0.4,0.7
2023-06-22T22:00:00,1333A,114.135,30.6319,武汉市,吴家山,,42,42,37,12,19,161,94,126,104,21,19,7,6,0.6,0.8
2023-06-22T22:00:00,1334A,113.8454,30.2917,武汉市,沉湖七壕,,26,25,35,15,17,163,81,136,108,18,14,6,6,0.6,0.7
2023-06-22T22:00:00,1335A,113.0833,28.2325,长沙市,经开区环保局,,25,11,15,7,7,101,77,95,78,7,7,2,2,0.5,0.5
2023-06-22T22:00:00,1336A,112.8872,28.2189,长沙市,高开区环保局,,30,1,7,7,8,105,93,99,87,1,4,5,5,0.6,0.6
2023-06-22T22:00:00,1337A,113.0792,28.2053,长沙市,马坡岭,,28,7,9,9,6,112,87,102,82,2,3,5,5,0.3,0.3
2023-06-22T22:00:00,1338A,112.9394,28.19,长沙市,湖南师范大学,,,10,5,7,10,96,,90,78,,6,2,2,0.4,0.4
2023-06-22T22:00:00,1339A,113.0178,28.1322,长沙市,雨花区环保局,,29,7,6,6,9,103,90,96,79,6,6,3,3,0.4,0.4
2023-06-22T22:00:00,1340A,112.9792,28.2597,长沙市,伍家岭,,28,13,14,3,8,97,87,93,83,3,6,2,2,0.6,0.5
2023-06-22T22:00:00,1341A,113.0014,28.1944,长沙市,火车新站,,22,5,6,2,4,96,70,90,73,7,6,4,4,0.6,0.6
2023-06-22T22:00:00,1342A,112.9844,28.1178,长沙市,天心区环保局,,30,7,5,8,9,107,93,100,84,6,4,1,2,0.5,0.5
2023-06-22T22:00:00,1343A,112.8908,28.1308,长沙市,湖南中医药大学,,27,6,10,5,6,109,85,103,85,1,3,2,3,0.8,0.7
2023-06-22T22:00:00,1344A,112.9581,28.3611,长沙市,沙坪,,29,15,19,11,7,108,92,103,86,1,2,5,5,0.6,0.5
2023-06-22T22:00:00,1345A,113.2347,23.1423,广州市,广雅中学,,23,23,23,11,11,99,44,85,71,12,13,3,3,0.8,0.7
2023-06-22T22:00:00,1346A,113.2612,23.105,广州市,市五中,,25,25,22,14,11,106,46,92,75,7,8,4,4,0.5,0.5
2023-06-22T22:00:00,1348A,113.3478,23.0916,广州市,广东商学院,,23,23,22,11,11,94,45,85,69,9,12,4,4,0.6,0.6
2023-06-22T22:00:00,1349A,113.4332,23.1047,广州市,市八十六中,,26,26,28,12,11,96,25,83,62,22,17,3,4,0.7,0.7
2023-06-22T22:00:00,1350A,113.3505,22.9483,广州市,番禺中学,,,,,,,,,,,,,,,,
2023-06-22T22:00:00,1351A,113.2146,23.3916,广州市,花都师范,,27,27,25,13,11,111,45,100,83,13,14,5,6,0.5,0.5
2023-06-22T22:00:00,1352A,113.2597,23.1331,广州市,市监测站,,26,26,19,11,10,99,49,86,73,11,12,6,5,0.7,0.7
2023-06-22T22:00:00,1353A,113.5618,23.312,广州市,九龙镇镇龙,,23,23,30,8,12,116,33,94,78,18,19,5,5,0.7,0.7
2023-06-22T22:00:00,1354A,113.2765,23.1544,广州市,麓湖,,24,24,20,14,11,98,45,88,72,10,10,5,5,0.6,0.6
2023-06-22T22:00:00,1355A,113.443,23.3035,广州市,帽峰山森林公园,,28,28,24,11,10,120,45,102,84,16,14,9,9,0.4,0.4
2023-06-22T22:00:00,1356A,114.1063,22.5545,深圳市,通心岭子站,,17,17,16,7,7,59,40,55,49,5,5,3,4,0.4,0.4
2023-06-22T22:00:00,1357A,114.117,22.5625,深圳市,洪湖,,26,26,19,5,6,65,46,60,54,7,8,5,5,0.5,0.5
2023-06-22T22:00:00,1358A,113.987,22.5417,深圳市,华侨城,,24,24,18,0,7,52,44,48,42,6,9,6,6,0.7,0.6
2023-06-22T22:00:00,1359A,113.9181,22.5171,深圳市,南海子站,,21,21,24,13,9,47,33,44,40,17,14,4,4,0.6,0.6
2023-06-22T22:00:00,1360A,114.2458,22.5689,深圳市,盐田,,14,14,15,5,7,68,36,61,49,8,7,4,4,0.4,0.4
2023-06-22T22:00:00,1361A,114.2283,22.7244,深圳市,龙岗,,18,18,18,7,7,72,37,66,54,11,12,4,4,0.4,0.4
2023-06-22T22:00:00,1363A,114.494,22.5422,深圳市,南澳,,17,17,16,5,8,68,44,61,58,6,6,5,5,0.6,0.6
2023-06-22T22:00:00,1364A,114.41,22.6342,深圳市,葵涌,,16,16,17,7,8,64,42,58,51,6,7,4,4,0.5,0.5
2023-06-22T22:00:00,1365A,114.297,22.5978,深圳市,梅沙,,21,21,19,10,12,72,34,62,46,5,10,4,4,0.6,0.6
2023-06-22T22:00:00,1366A,114.0678,22.738,深圳市,观澜,,,28,22,11,11,65,,59,52,10,15,5,5,0.5,0.5
2023-06-22T22:00:00,1367A,113.5814,22.2618,珠海市,吉大,,16,13,16,2,7,58,50,55,53,9,8,3,3,0.4,0.4
2023-06-22T22:00:00,1368A,113.4881,22.2335,珠海市,前山,,16,15,15,7,5,60,49,57,53,3,5,5,5,0.2,0.2
2023-06-22T22:00:00,1369A,113.628,22.4251,珠海市,唐家,,15,10,13,2,6,64,46,61,54,6,3,6,6,0.2,0.2
2023-06-22T22:00:00,1370A,113.299,22.2281,珠海市,斗门,,24,24,14,13,10,60,35,55,47,10,4,8,8,0.4,0.4
2023-06-22T22:00:00,1371A,113.1294,23.0067,佛山市,湾梁,,19,19,17,9,9,89,46,80,68,3,6,4,4,0.3,0.3
2023-06-22T22:00:00,1372A,113.1083,23.0478,佛山市,华材职中,,19,19,15,12,9,94,46,85,70,9,8,4,4,0.5,0.5
2023-06-22T22:00:00,1373A,113.144,23.0453,佛山市,南海气象局,,26,26,24,13,10,73,37,65,54,9,11,4,4,0.5,0.5
2023-06-22T22:00:00,1374A,113.2881,22.8094,佛山市,顺德苏岗,,18,4,10,12,9,74,39,61,50,4,5,4,4,0.5,0.5
2023-06-22T22:00:00,1376A,112.8383,22.8678,佛山市,高明孔堂,,26,26,18,8,9,70,45,63,58,5,6,4,4,0.5,0.5
2023-06-22T22:00:00,1377A,112.8836,23.1588,佛山市,三水监测站,,19,19,20,11,13,80,30,72,56,14,17,4,4,0.5,0.5
2023-06-22T22:00:00,1378A,112.867,23.185,佛山市,三水云东海,,23,23,23,8,12,88,43,80,64,9,15,5,5,0.4,0.4
2023-06-22T22:00:00,1379A,113.3769,22.5211,中山市,华柏园,,,,14,16,34,65,43,61,56,6,6,5,5,0.2,0.3
2023-06-22T22:00:00,1380A,113.3881,22.5497,中山市,张溪,,21,21,19,2,4,72,48,67,61,4,4,4,4,0.3,0.4
2023-06-22T22:00:00,1381A,113.4075,22.5111,中山市,紫马岭,,15,14,19,9,9,69,46,65,59,2,2,4,4,0.2,0.3
2023-06-22T22:00:00,1382A,113.4411,22.4853,中山市,长江旅游区,,19,19,17,4,7,74,49,71,60,2,3,9,10,0.5,0.5
2023-06-22T22:00:00,1383A,113.1064,22.6058,江门市,北街,,16,16,18,10,9,62,40,58,52,6,6,4,4,0.4,0.4
2023-06-22T22:00:00,1384A,113.0731,22.5835,江门市,西区,,30,30,21,8,9,68,38,62,54,7,7,4,4,0.4,0.4
2023-06-22T22:00:00,1385A,113.0219,22.5311,江门市,圭峰西,,18,18,20,7,7,66,40,59,54,9,5,3,3,0.6,0.5
2023-06-22T22:00:00,1386A,113.0828,22.5947,江门市,东湖,,,21,19,5,7,67,,62,59,8,8,4,4,0.5,0.5
2023-06-22T22:00:00,1389A,113.7547,23.0494,东莞市,莞城梨川,,22,22,21,6,9,90,47,83,66,8,10,8,9,0.5,0.5
2023-06-22T22:00:00,1390A,113.7944,23.0128,东莞市,东城石井,,19,19,19,6,8,95,50,84,69,6,8,6,6,0.6,0.6
2023-06-22T22:00:00,1391A,113.7383,22.9658,东莞市,南城西平,,17,17,19,4,8,80,42,72,59,8,10,7,6,0.8,0.7
2023-06-22T22:00:00,1392A,114.4183,23.0528,惠州市,河南岸金山湖子站,,24,24,23,4,9,97,44,86,74,11,12,3,3,0.4,0.4
2023-06-22T22:00:00,1393A,114.4053,23.0822,惠州市,下埔横江三路子站,,25,25,23,4,7,102,43,90,74,10,10,3,3,0.5,0.5
2023-06-22T22:00:00,1394A,114.4103,23.1142,惠州市,江北云山西路子站,,29,29,21,10,9,110,46,98,80,7,7,3,3,0.5,0.5
2023-06-22T22:00:00,1395A,114.4645,22.7833,惠州市,惠阳区承修路船湖子站,,15,15,18,8,8,95,42,68,61,8,9,4,4,0.7,0.7
2023-06-22T22:00:00,1396A,114.5317,22.7422,惠州市,大亚湾管委会子站,,22,22,21,8,9,75,51,70,64,6,14,2,2,0.4,0.4
2023-06-22T22:00:00,1397A,112.4267,23.0706,肇庆市,睦岗子站,,15,15,24,7,11,87,48,80,66,6,8,7,11,0.4,0.4
2023-06-22T22:00:00,1398A,112.4645,23.0475,肇庆市,城中子站,,18,18,23,8,12,86,49,78,66,8,11,10,14,0.4,0.4
2023-06-22T22:00:00,1399A,112.5544,23.1522,肇庆市,坑口子站,,16,16,24,9,14,91,48,80,67,9,13,7,10,0.3,0.3
2023-06-22T22:00:00,1400A,112.4753,23.1,肇庆市,七星岩子站,,16,16,22,8,11,85,47,78,66,8,11,7,11,0.3,0.3
2023-06-22T22:00:00,1401A,108.3103,22.7881,南宁市,二十一中,,16,16,23,10,12,92,27,87,50,22,13,5,4,0.7,0.6
2023-06-22T22:00:00,1402A,108.3141,22.8528,南宁市,北湖,,29,28,21,20,12,99,27,78,51,20,8,11,6,0.6,0.8
2023-06-22T22:00:00,1403A,108.3206,22.8225,南宁市,市监测站,,42,14,21,29,14,92,22,76,48,35,16,8,6,0.6,0.5
2023-06-22T22:00:00,1404A,108.3829,22.8037,南宁市,大自然花园,,20,20,20,9,13,82,29,68,46,19,11,6,5,0.7,0.7
2023-06-22T22:00:00,1405A,108.4394,22.7904,南宁市,仙葫,,20,11,21,14,12,82,33,72,50,19,13,5,5,0.8,0.8
2023-06-22T22:00:00,1406A,108.2397,22.8467,南宁市,区农职院,,26,26,24,10,8,99,31,79,46,19,12,7,6,0.7,0.6
2023-06-22T22:00:00,1407A,108.3275,22.735,南宁市,英华嘉园,,25,25,23,14,12,78,13,68,39,31,16,6,5,0.7,0.7
2023-06-22T22:00:00,1408A,108.2257,22.7757,南宁市,沙井镇街道办,,32,32,22,19,14,84,18,69,39,27,17,26,11,0.9,0.8
2023-06-22T22:00:00,1409A,110.576,19.9507,海口市,东寨港,,,,,,,,,,,,,,,,
2023-06-22T22:00:00,1410A,110.3232,20.0574,海口市,海南大学,,15,13,22,9,13,104,47,87,73,11,8,5,5,0.4,0.4
2023-06-22T22:00:00,1411A,110.283,20.0053,海口市,秀英海南医院,,18,18,29,5,14,95,35,78,67,25,14,5,5,0.3,0.4
2023-06-22T22:00:00,1412A,110.338,19.9969,海口市,海南师范大学,,15,6,21,6,12,98,47,65,60,9,9,6,6,0.4,0.4
2023-06-22T22:00:00,1413A,110.33,20.0356,海口市,龙华路环保局宿舍,,16,8,20,8,13,103,50,84,73,10,9,6,6,0.4,0.3
2023-06-22T22:00:00,1414A,106.3787,29.8279,重庆市,缙云山,,24,24,22,10,8,114,63,98,72,18,9,8,8,0.2,0
2023-06-22T22:00:00,1416A,106.4213,29.8253,重庆市,天生,颗粒物(PM10),62,74,38,27,23,62,28,55,47,35,24,5,6,1.0,0.9
2023-06-22T22:00:00,1417A,106.6263,29.7228,重庆市,两路,,26,26,26,12,10,71,32,61,54,51,36,6,7,1.1,0.9
2023-06-22T22:00:00,1418A,106.2953,29.5983,重庆市,虎溪,,48,48,30,31,19,97,51,88,77,26,20,9,5,0.7,0.5
2023-06-22T22:00:00,1419A,106.5777,29.5102,重庆市,南坪,,49,49,32,32,23,69,36,68,56,35,24,8,7,0.9,0.7
2023-06-22T22:00:00,1420A,106.6556,29.6277,重庆市,唐家沱,细颗粒物(PM2.5),52,38,24,36,16,103,27,86,76,40,24,6,6,0.8,0.9
2023-06-22T22:00:00,1421A,106.6349,29.4906,重庆市,茶园,,47,47,28,30,19,105,60,92,78,33,25,4,4,1.1,0.9
2023-06-22T22:00:00,1422A,106.3754,29.4572,重庆市,白市驿,,34,34,21,11,13,56,47,54,51,14,17,8,6,0.7,0.7
2023-06-22T22:00:00,1425A,106.6205,29.7166,重庆市,空港,,40,40,24,22,21,77,39,65,63,43,28,7,6,0.9,0.7
2023-06-22T22:00:00,1426A,106.4782,29.4875,重庆市,新山村,颗粒物(PM10),64,77,43,31,18,67,34,61,56,49,35,10,7,0.6,0.5
2023-06-22T22:00:00,1427A,106.5616,29.6453,重庆市,礼嘉,颗粒物(PM10),51,52,36,21,19,80,26,67,61,63,41,6,6,1.2,0.8
2023-06-22T22:00:00,1428A,106.4522,29.7091,重庆市,蔡家,,47,47,40,25,18,76,24,68,51,29,17,6,6,0.7,0.6
2023-06-22T22:00:00,1429A,106.5093,29.3917,重庆市,鱼新街,,48,48,24,31,16,26,15,22,21,28,25,5,5,1.2,1.1
2023-06-22T22:00:00,1431A,103.9728,30.7236,成都市,金泉两河,,33,29,41,17,19,162,105,143,139,21,18,4,6,0.4,0.3
2023-06-22T22:00:00,1432A,104.176,30.6872,成都市,十里店,颗粒物(PM10),56,61,46,28,27,179,117,163,158,17,17,3,2,0.6,0.5
2023-06-22T22:00:00,1433A,104.079,30.5706,成都市,三瓦窑,颗粒物(PM10),57,64,49,37,27,210,128,191,184,23,26,3,3,0.5,0.4
2023-06-22T22:00:00,1434A,104.1114,30.63,成都市,沙河铺,颗粒物(PM10),57,64,48,34,25,193,115,178,170,20,17,3,3,0.6,0.5
2023-06-22T22:00:00,1437A,104.0786,30.6531,成都市,君平街,颗粒物(PM10),53,55,45,36,28,205,127,183,173,22,20,4,5,0.6,0.5
2023-06-22T22:00:00,1438A,103.613,31.0283,成都市,灵岩寺,,43,28,31,16,19,155,137,139,139,9,11,6,6,0.8,0.8
2023-06-22T22:00:00,1439A,106.6899,26.5998,贵阳市,马鞍山,,17,17,6,5,0,82,54,82,61,7,7,4,4,0.3,0.3
2023-06-22T22:00:00,1440A,106.6971,26.5694,贵阳市,市环保站,,25,14,4,17,5,90,74,90,78,13,11,3,3,0.3,0.2
2023-06-22T22:00:00,1441A,106.6243,26.6266,贵阳市,鉴湖路,,20,17,10,9,5,79,64,79,68,6,8,3,3,0.3,0.3
2023-06-22T22:00:00,1442A,106.7487,26.6343,贵阳市,燕子冲,,,,11,19,11,78,65,76,70,9,7,6,5,0.6,0.5
2023-06-22T22:00:00,1443A,106.6555,26.4365,贵阳市,碧云窝,,23,22,14,7,2,88,72,86,80,10,8,3,3,0.5,0.4
2023-06-22T22:00:00,1444A,106.694,26.5161,贵阳市,中院村,,,22,16,9,6,85,,85,78,10,9,5,5,0.6,0.5
2023-06-22T22:00:00,1445A,106.7109,26.6027,贵阳市,红边门,,23,19,12,12,6,92,73,92,78,8,6,3,3,0.5,0.4
2023-06-22T22:00:00,1446A,106.7164,26.5699,贵阳市,新华路,,23,17,12,14,5,90,71,90,77,14,11,7,6,0.3,0.3
2023-06-22T22:00:00,1447A,106.674,26.5424,贵阳市,太慈桥,,25,19,13,5,1,93,80,89,78,7,8,3,4,0.4,0.4
2023-06-22T22:00:00,1450A,102.8204,24.8886,昆明市,呈贡新区,,33,33,23,16,11,103,68,93,90,15,10,16,7,0.6,0.6
2023-06-22T22:00:00,1451A,102.6251,24.9608,昆明市,西山森林公园,,28,7,12,8,9,124,87,107,104,9,9,5,6,0.6,0.6
2023-06-22T22:00:00,1452A,102.7252,25.0902,昆明市,龙泉镇,,34,34,22,10,11,118,69,94,88,11,14,7,7,0.6,0.6
2023-06-22T22:00:00,1453A,102.7266,25.0375,昆明市,东风东路,,23,13,21,7,10,115,72,98,94,13,16,4,4,0.4,0.4
2023-06-22T22:00:00,1454A,102.6742,25.0669,昆明市,金鼎山,,25,24,22,8,13,118,79,100,97,8,15,4,4,0.4,0.5
2023-06-22T22:00:00,1455A,102.6644,25.0401,昆明市,碧鸡广场,,25,13,23,6,11,111,79,95,92,10,16,4,5,0.4,0.5
2023-06-22T22:00:00,1456A,91.1319,29.6514,拉萨市,八廓街,,47,40,16,17,9,179,148,170,168,27,11,5,5,0.3,0.2
2023-06-22T22:00:00,1457A,91.1221,29.6747,拉萨市,市环保局,,45,15,19,9,9,188,142,174,171,31,20,5,5,0.4,0.4
2023-06-22T22:00:00,1458A,91.0874,29.6475,拉萨市,区监测站,,,11,16,5,8,165,,159,159,,27,,7,,0.4
2023-06-22T22:00:00,1459A,91.1774,29.6541,拉萨市,西藏大学,,50,18,11,7,7,182,158,172,172,22,11,5,6,0.2,0.2
2023-06-22T22:00:00,1460A,90.9798,29.6588,拉萨市,区辐射站,臭氧1小时,74,12,18,8,10,181,179,166,166,3,19,8,9,0.2,0.2
2023-06-22T22:00:00,1461A,91.0834,29.6292,拉萨市,拉萨火车站,臭氧1小时,57,13,17,8,8,178,165,166,166,13,16,8,8,0.2,0.3
2023-06-22T22:00:00,1462A,108.882,34.2749,西安市,高压开关厂,,37,37,46,18,18,251,72,197,161,43,38,6,8,0.4,0.4
2023-06-22T22:00:00,1463A,108.993,34.2629,西安市,兴庆小区,,31,31,40,16,15,212,91,180,146,13,16,5,6,0.4,0.5
2023-06-22T22:00:00,1464A,109.06,34.2572,西安市,纺织城,,36,36,49,22,22,183,85,164,134,20,32,4,5,0.4,0.4
2023-06-22T22:00:00,1465A,108.9356,34.2173,西安市,小寨,,44,44,40,13,14,212,71,178,140,30,18,8,8,0.5,0.3
2023-06-22T22:00:00,1466A,108.954,34.2713,西安市,市人民体育场,,34,34,43,15,17,237,81,186,149,22,18,7,7,0.4,0.3
2023-06-22T22:00:00,1467A,108.8922,34.2322,西安市,高新西区,,33,33,43,16,19,234,78,193,157,28,24,6,7,0.5,0.5
2023-06-22T22:00:00,1468A,108.935,34.3474,西安市,经开区,,35,35,53,17,20,205,77,174,148,22,31,2,2,0.2,0.3
2023-06-22T22:00:00,1469A,108.906,34.1546,西安市,长安区,,35,35,46,19,18,245,85,202,166,18,23,4,5,0.2,0.1
2023-06-22T22:00:00,1471A,109.2186,34.3731,西安市,临潼区,,38,21,54,15,22,217,120,182,160,8,28,6,7,0.2,0.4
2023-06-22T22:00:00,1472A,108.869,34.378,西安市,草滩,,30,30,53,10,14,217,91,196,173,14,28,8,12,0.5,0.5
2023-06-22T22:00:00,1473A,108.985,34.1978,西安市,曲江文化产业集团,,39,39,43,18,16,193,73,174,139,31,26,5,5,0.5,0.3
2023-06-22T22:00:00,1474A,109.051,34.3213,西安市,广运潭,,43,43,45,17,16,200,75,161,137,27,23,6,7,0.4,0.3
2023-06-22T22:00:00,1476A,103.631,36.1031,兰州市,兰炼宾馆,颗粒物(PM10),59,68,49,30,19,186,140,174,164,14,31,9,5,0.3,0.4
2023-06-22T22:00:00,1477A,104.1373,35.9454,兰州市,榆中兰大校区,,,,,,,,,,,,,,,,
2023-06-22T22:00:00,1478A,103.8412,36.0726,兰州市,生物制品所,颗粒物(PM10),65,80,40,32,20,175,106,159,144,33,22,8,7,0.5,0.5
2023-06-22T22:00:00,1479A,103.831,36.0464,兰州市,铁路设计院,颗粒物(PM10),56,61,39,25,20,165,95,148,136,38,27,6,5,0.5,0.5
2023-06-22T22:00:00,1483A,101.524,36.6867,西宁市,第五水厂,,,,,,,,,,,,,,,,
2023-06-22T22:00:00,1484A,105.9512,38.6016,银川市,贺兰山马莲口,臭氧1小时,85,28,30,14,10,188,188,181,181,7,10,11,15,0.3,0.4
2023-06-22T22:00:00,1488A,106.2328,38.4975,银川市,贺兰山东路,颗粒物(PM10),54,58,44,11,16,196,152,186,183,42,30,8,8,0.4,0.4
2023-06-22T22:00:00,1489A,106.1358,38.5036,银川市,学院路,颗粒物(PM10),68,85,50,18,17,186,105,176,166,59,33,8,10,0.5,0.4
2023-06-22T22:00:00,1490A,87.5801,43.8303,乌鲁木齐市,监测站,,40,22,33,7,8,149,126,143,141,23,17,7,7,0.3,0.3
2023-06-22T22:00:00,1491A,87.6046,43.768,乌鲁木齐市,收费所,,32,30,32,2,10,156,102,145,138,39,18,6,7,0.3,0.2
2023-06-22T22:00:00,1492A,87.4754,43.9469,乌鲁木齐市,新疆农科院农场,颗粒物(PM10),51,52,47,16,16,135,118,131,130,19,22,9,8,0.7,0.7
2023-06-22T22:00:00,1493A,87.5525,43.8711,乌鲁木齐市,铁路局,,,,32,,13,149,124,144,142,,15,7,7,0.3,0.3
2023-06-22T22:00:00,1494A,87.6432,43.831,乌鲁木齐市,三十一中学,,,,28,,9,166,122,161,155,16,10,4,12,,0.5
2023-06-22T22:00:00,1496A,87.7216,44.1747,乌鲁木齐市,米东区环保局,,42,20,61,9,17,164,133,154,151,7,7,5,6,0.2,0.2
2023-06-22T22:00:00,1508A,112.9433,27.8614,湘潭市,板塘,,24,11,15,9,9,80,76,74,74,9,12,5,5,0.0,0.5
2023-06-22T22:00:00,1511A,112.9118,27.8403,湘潭市,市监测站,,25,2,8,2,5,99,80,87,86,11,8,3,3,0.0,0.1
2023-06-22T22:00:00,1512A,112.8937,27.8728,湘潭市,江麓,,,,12,,7,92,88,90,87,3,4,6,7,0.2,0.1
2023-06-22T22:00:00,1513A,112.9227,27.8159,湘潭市,岳塘,,23,13,12,3,7,92,71,85,82,8,7,10,8,0.2,0.2
2023-06-22T22:00:00,1514A,112.9074,27.9119,湘潭市,科大,,32,6,24,10,13,102,102,92,90,5,9,4,5,0.7,0.6
2023-06-22T22:00:00,1515A,113.135,27.8244,株洲市,天台山庄,,27,18,15,2,4,96,86,83,83,6,7,4,4,0.7,0.7
2023-06-22T22:00:00,1518A,113.095,27.8867,株洲市,株冶医院,,30,19,14,10,6,96,96,81,81,8,10,1,1,0.5,0.5
2023-06-22T22:00:00,1519A,113.167,27.8667,株洲市,市四中,,29,15,13,6,6,97,92,85,85,7,7,3,3,0.5,0.5
2023-06-22T22:00:00,1520A,113.143,27.8381,株洲市,火车站,,27,19,16,3,4,94,86,83,83,5,6,4,4,0.6,0.6
2023-06-22T22:00:00,1524A,113.13,27.8528,株洲市,市监测站,,30,18,15,7,6,97,93,85,85,6,6,4,4,0.8,0.7
2023-06-22T22:00:00,1552A,106.805,26.3003,贵阳市,桐木岭,,,,,,,,,,,,,,,,
2023-06-22T22:00:00,1559A,113.251,27.8336,株洲市,大京风景区,,22,12,10,5,5,79,69,66,66,4,3,2,2,0.4,0.4
2023-06-22T22:00:00,1562A,113.0048,27.9153,湘潭市,昭山,,32,12,10,6,8,101,101,88,88,6,11,3,2,0.6,0.6
2023-06-22T22:00:00,1564A,112.4876,27.9164,湘潭市,韶山,,23,5,10,7,6,101,71,93,82,5,5,8,7,0.3,0.3
2023-06-22T22:00:00,1585A,109.8756,40.6532,包头市,市环境监测站,臭氧1小时,60,48,52,21,20,227,168,212,202,33,34,16,24,0.8,0.9
2023-06-22T22:00:00,1587A,109.9991,40.5842,包头市,包头八中,臭氧1小时,78,61,60,20,18,230,182,219,215,22,34,18,26,0.7,0.8
2023-06-22T22:00:00,1588A,109.8538,40.6821,包头市,青山宾馆,臭氧1小时,77,41,47,20,16,236,181,216,211,22,41,23,22,0.8,0.8
2023-06-22T22:00:00,1589A,109.8642,40.6288,包头市,惠龙物流,臭氧1小时,79,48,48,14,19,236,183,222,217,21,31,14,16,0.5,0.5
2023-06-22T22:00:00,1590A,110.0377,40.5546,包头市,东河鸿龙湾,颗粒物(PM10),53,56,50,28,16,233,159,221,209,32,26,50,19,0.6,0.6
2023-06-22T22:00:00,1591A,110.0023,39.8129,鄂尔多斯市,综合楼,颗粒物(PM10),70,90,58,27,15,187,136,180,170,29,28,16,11,0.9,0.6
2023-06-22T22:00:00,1592A,109.9486,39.8261,鄂尔多斯市,巴音孟克林场办事处,颗粒物(PM10),59,68,49,29,20,201,152,195,186,27,19,14,11,0.7,0.6
2023-06-22T22:00:00,1593A,109.7736,39.5986,鄂尔多斯市,康泽苑,,,46,56,14,12,189,,183,180,21,27,11,11,0.7,0.6
2023-06-22T22:00:00,1594A,109.8119,39.5989,鄂尔多斯市,华泰汽车城,,48,36,57,22,19,179,151,170,164,15,33,8,9,0.5,0.5
2023-06-22T22:00:00,1595A,109.9734,39.7884,鄂尔多斯市,奥林花园,颗粒物(PM10),57,63,64,22,22,189,132,184,174,28,34,14,9,0.8,0.8
2023-06-22T22:00:00,1597A,122.2703,40.7094,营口市,大庆路,,50,45,36,35,25,167,92,161,147,21,19,5,6,0.8,0.9
2023-06-22T22:00:00,1598A,122.2150,40.6511,营口市,镜湖西路,,35,33,32,20,21,175,110,171,161,22,16,6,6,0.7,0.6
2023-06-22T22:00:00,1599A,122.1658,40.6789,营口市,西炮台,,43,43,33,18,19,187,103,168,154,20,18,8,9,0.7,0.7
2023-06-22T22:00:00,1600A,124.3303,40.0625,丹东市,江湾东路,,29,29,23,16,17,126,78,124,114,20,10,6,6,0.7,0.7
2023-06-22T22:00:00,1601A,124.4256,40.1503,丹东市,临江后街,,22,22,19,11,10,116,62,113,96,15,9,6,6,0.7,0.6
2023-06-22T22:00:00,1602A,124.3933,40.1461,丹东市,元宝山,,23,20,25,11,17,114,72,107,98,10,11,6,6,0.3,0.7
2023-06-22T22:00:00,1603A,124.3633,40.1092,丹东市,民主桥,,26,26,20,14,12,118,38,113,91,31,16,5,5,0.7,0.6
2023-06-22T22:00:00,1604A,122.0303,41.1489,盘锦市,开发区,,43,43,29,19,17,189,130,174,168,29,31,6,9,0.7,0.6
2023-06-22T22:00:00,1605A,122.0485,41.0883,盘锦市,兴隆台,,44,18,25,19,19,173,140,165,162,30,30,5,4,0.7,0.6
2023-06-22T22:00:00,1606A,121.8297,41.1028,盘锦市,新生街道,,31,25,24,18,16,182,97,169,146,29,31,3,4,0.6,0.6
2023-06-22T22:00:00,1607A,120.9092,40.7136,葫芦岛市,龙港区,,34,34,40,19,28,178,86,162,143,33,21,11,40,0.7,0.6
2023-06-22T22:00:00,1608A,120.8392,40.7514,葫芦岛市,化工街,颗粒物(PM10),56,61,62,27,31,175,98,168,148,37,38,14,57,0.5,0.6
2023-06-22T22:00:00,1609A,120.8341,40.7073,葫芦岛市,新区,,39,39,47,26,25,170,89,160,144,49,40,8,26,0.7,0.7
2023-06-22T22:00:00,1610A,120.8695,40.7677,葫芦岛市,东城区,颗粒物(PM10),58,66,60,28,30,181,104,173,155,41,42,13,39,0.5,0.6
2023-06-22T22:00:00,1611A,118.5819,24.9117,泉州市,涂山街,,21,21,29,0,15,170,49,132,80,12,11,8,8,0.6,0.6
2023-06-22T22:00:00,1612A,118.5972,24.8978,泉州市,津头埔,,18,18,28,5,16,158,51,123,73,12,14,6,7,0.5,0.5
2023-06-22T22:00:00,1613A,118.6663,24.9424,泉州市,万安,,,,31,1,14,171,76,128,84,8,11,7,8,0.5,0.5
2023-06-22T22:00:00,1614A,118.6117,24.9604,泉州市,清源山,,,,,,,,,,,,,,,,
2023-06-22T22:00:00,1616A,117.6795,36.229,济南市,技术学院,颗粒物(PM10),51,51,55,25,23,236,155,221,199,38,56,11,15,0.6,0.9
2023-06-22T22:00:00,1618A,118.3429,35.0532,临沂市,沂河小区,颗粒物(PM10),51,51,66,31,32,251,132,225,186,30,35,13,15,0.3,0.4
2023-06-22T22:00:00,1619A,118.295,35.0583,临沂市,鲁南制药厂,颗粒物(PM10),57,63,73,18,28,269,141,236,195,31,39,8,13,0.4,0.5
2023-06-22T22:00:00,1620A,118.2794,34.9976,临沂市,新光毛纺厂,颗粒物(PM10),54,58,74,17,33,260,133,221,181,32,40,14,16,0.4,0.5
2023-06-22T22:00:00,1621A,118.3956,35.0888,临沂市,河东保险公司,,47,36,64,20,32,243,149,218,194,19,34,10,9,0.4,0.5
2023-06-22T22:00:00,1622A,116.3032,37.4674,德州市,儿童乐园,,,44,38,24,16,233,,217,217,18,25,8,9,,0.2
2023-06-22T22:00:00,1624A,116.2991,37.4451,德州市,监理站,臭氧1小时,88,57,46,17,16,228,190,215,210,22,28,5,7,0.4,0.4
2023-06-22T22:00:00,1625A,115.9848,36.4372,聊城市,区政府,臭氧1小时,83,57,57,24,24,240,186,234,220,27,36,9,10,0.7,0.8
2023-06-22T22:00:00,1628A,118.0062,37.3803,滨州市,市环保局,颗粒物(PM10),59,68,48,28,24,208,136,193,174,51,32,17,16,0.5,0.4
2023-06-22T22:00:00,1629A,118.0018,37.3617,滨州市,第二水厂,颗粒物(PM10),58,66,53,13,20,213,133,198,166,53,38,17,12,0.7,0.5
2023-06-22T22:00:00,1630A,117.9776,37.393,滨州市,北中新校,颗粒物(PM10),58,66,49,25,21,207,119,193,157,38,19,10,13,0.8,0.6
2023-06-22T22:00:00,1631A,118.0414,36.8103,淄博市,人民公园,颗粒物(PM10),91,132,69,39,27,261,90,236,204,79,48,26,20,1.1,0.7
2023-06-22T22:00:00,1633A,117.8525,36.4847,淄博市,双山,,41,41,34,21,16,219,125,198,182,34,23,13,13,0.4,0.4
2023-06-22T22:00:00,1634A,117.9592,36.6331,淄博市,气象站,颗粒物(PM10),52,53,53,22,24,229,129,216,195,34,30,11,15,0.8,0.4
2023-06-22T22:00:00,1635A,118.3092,36.8194,淄博市,莆田园,颗粒物(PM10),64,78,56,27,26,255,112,236,198,62,34,20,19,1.6,0.9
2023-06-22T22:00:00,1637A,117.558,34.8438,枣庄市,市中区政府,颗粒物(PM10),58,66,67,29,31,269,158,254,225,42,30,9,14,0.5,0.5
2023-06-22T22:00:00,1638A,117.2852,34.7837,枣庄市,薛城环保局,颗粒物(PM10),61,71,62,31,31,256,137,241,207,42,30,11,12,0.6,0.7
2023-06-22T22:00:00,1639A,117.5852,34.7745,枣庄市,峄城区政府,颗粒物(PM10),64,78,59,36,23,265,136,248,214,41,24,7,13,0.6,0.6
2023-06-22T22:00:00,1640A,117.7276,34.5578,枣庄市,台儿庄区环保局,颗粒物(PM10),56,61,63,29,32,288,124,261,204,47,46,9,12,0.7,0.8
2023-06-22T22:00:00,1641A,117.4518,35.0992,枣庄市,山亭区环保局,颗粒物(PM10),58,66,45,22,23,243,157,230,205,33,25,10,9,0.4,0.3
2023-06-22T22:00:00,1642A,121.2514,37.5639,烟台市,开发区,"颗粒物(PM10),细颗粒物(PM2.5)",70,90,58,51,28,188,60,166,126,73,54,8,9,1.2,1
2023-06-22T22:00:00,1643A,121.3719,37.5433,烟台市,轴承厂,细颗粒物(PM2.5),57,61,44,40,25,169,53,164,124,49,26,3,4,0.9,0.6
2023-06-22T22:00:00,1644A,121.3181,37.5436,烟台市,西郊化工站,颗粒物(PM10),64,78,53,34,22,178,77,168,139,55,31,4,5,0.8,0.7
2023-06-22T22:00:00,1645A,121.4478,37.4822,烟台市,莱山环保局,,,41,37,22,20,203,,176,157,29,21,5,6,0.7,0.6
2023-06-22T22:00:00,1646A,121.2611,37.4967,烟台市,福山环保局,颗粒物(PM10),52,53,55,34,18,197,116,171,147,33,38,7,8,0.3,0.4
2023-06-22T22:00:00,1650A,119.1437,36.7023,潍坊市,环保局,,47,46,44,20,23,296,150,244,201,28,32,11,12,0.4,0.4
2023-06-22T22:00:00,1653A,116.6251,35.4302,济宁市,火炬城,,48,43,52,19,24,243,153,231,206,16,14,10,13,0.6,0.6
2023-06-22T22:00:00,1655A,116.5491,35.4042,济宁市,电化厂,颗粒物(PM10),61,72,64,27,27,243,110,235,197,40,17,9,12,0.5,0.5
2023-06-22T22:00:00,1656A,117.1437,36.1937,泰安市,监测站,,42,41,45,27,23,218,132,209,194,28,24,7,8,0.3,0.4
2023-06-22T22:00:00,1657A,117.0885,36.2017,泰安市,人口学校,,47,44,39,17,15,216,148,203,194,22,22,7,8,0.4,0.4
2023-06-22T22:00:00,1658A,117.1089,36.1758,泰安市,电力学校,颗粒物(PM10),62,73,51,20,21,208,116,200,184,30,36,9,11,0.3,0.3
2023-06-22T22:00:00,1659A,119.471,35.4209,日照市,监测站,,38,31,63,16,38,269,120,233,207,36,52,5,7,0.6,1.1
2023-06-22T22:00:00,1660A,119.523,35.4216,日照市,市政府广场,,42,29,69,13,36,266,133,226,181,37,42,10,13,0.5,1
2023-06-22T22:00:00,1661A,119.5587,35.4044,日照市,港务局,,44,44,90,17,37,244,123,220,172,52,63,12,10,0.7,1
2023-06-22T22:00:00,1662A,122.1214,37.4236,威海市,华夏技校,,35,27,30,24,24,209,100,199,127,26,19,8,8,0.4,0.6
2023-06-22T22:00:00,1663A,122.0508,37.5236,威海市,山大分校,,42,42,39,20,22,217,108,184,146,30,17,9,10,0.4,0.4
2023-06-22T22:00:00,1664A,122.1067,37.5072,威海市,市监测站,,,,37,,32,164,78,154,140,47,21,6,5,0.7,0.7
2023-06-22T22:00:00,1666A,118.6614,37.4309,东营市,市环保局,臭氧1小时,85,53,53,27,27,351,188,300,269,16,32,24,18,0.4,0.4
2023-06-22T22:00:00,1669A,113.5824,24.7733,韶关市,市八中,,22,3,28,11,13,111,68,97,86,4,11,6,9,0.5,0.6
2023-06-22T22:00:00,1671A,113.5917,24.7972,韶关市,园林处,,21,10,27,12,16,102,67,94,87,2,10,5,8,0.4,0.5
2023-06-22T22:00:00,1672A,113.6735,24.7791,韶关市,韶关学院,,24,17,32,15,16,112,74,104,92,10,13,7,11,0.5,0.7
2023-06-22T22:00:00,1673A,113.5971,24.6863,韶关市,曲江监测站,,22,14,26,10,14,122,69,105,92,3,9,8,9,0.5,0.6
2023-06-22T22:00:00,1674A,116.6794,23.3667,汕头市,金平子站,,17,0,16,6,8,71,52,66,60,4,4,5,4,0.6,0.5
2023-06-22T22:00:00,1675A,116.7244,23.3633,汕头市,龙湖子站,,19,14,31,3,7,86,60,79,72,6,7,6,4,0.7,0.7
2023-06-22T22:00:00,1676A,116.7258,23.2775,汕头市,濠江子站,,19,19,20,7,8,71,51,67,63,10,8,8,8,0.6,0.5
2023-06-22T22:00:00,1677A,116.7519,23.4714,汕头市,澄海子站,,,23,22,8,11,89,,77,67,9,8,4,5,0.5,0.4
2023-06-22T22:00:00,1678A,116.6092,23.2539,汕头市,潮阳子站,,20,20,18,5,7,72,57,68,65,4,4,10,9,0.6,0.6
2023-06-22T22:00:00,1680A,110.3539,21.2706,湛江市,湛江影剧院,,26,26,29,12,14,105,38,86,65,15,8,6,7,0.7,0.7
2023-06-22T22:00:00,1681A,110.3928,21.2228,湛江市,市环境监测站,,28,28,27,14,18,103,38,85,65,20,11,9,7,0.6,0.5
2023-06-22T22:00:00,1682A,110.4019,21.1997,湛江市,环保局宿舍,,29,29,28,11,16,104,34,90,69,25,11,6,6,0.5,0.5
2023-06-22T22:00:00,1683A,110.4111,21.2028,湛江市,霞山游泳场,,30,30,27,9,12,105,45,91,72,16,11,10,8,0.5,0.4
2023-06-22T22:00:00,1684A,110.3316,21.2679,湛江市,麻章区环保局,,34,34,30,21,18,109,41,87,64,14,9,5,6,0.7,0.7
2023-06-22T22:00:00,1685A,110.4558,21.2567,湛江市,坡头区环保局,,19,19,25,13,14,118,50,98,75,7,7,6,5,0.4,0.5
2023-06-22T22:00:00,1686A,111.0286,21.4688,茂名市,电白南海,,22,22,24,14,15,81,64,74,65,2,2,4,4,0.5,0.5
2023-06-22T22:00:00,1687A,110.9294,21.6533,茂名市,茂石化七小,,21,21,20,13,12,76,47,71,62,7,5,4,4,0.6,0.5
2023-06-22T22:00:00,1688A,110.9107,21.6687,茂名市,健康路,,17,17,16,8,4,78,50,72,62,4,5,4,4,0.6,0.6
2023-06-22T22:00:00,1689A,110.8592,21.6828,茂名市,高岭,,27,27,24,14,16,77,47,71,61,6,5,4,4,0.4,0.4
2023-06-22T22:00:00,1690A,116.1231,24.3284,梅州市,梅江月梅,,17,17,18,8,8,66,40,64,57,9,10,3,2,0.5,0.4
2023-06-22T22:00:00,1691A,116.0797,24.2719,梅州市,梅县新城,,17,17,19,7,9,64,42,62,55,7,11,9,4,0.4,0.4
2023-06-22T22:00:00,1692A,116.1248,24.2654,梅州市,环境监控中心,,12,9,19,8,9,62,35,61,52,10,11,3,3,0.5,0.5
2023-06-22T22:00:00,1693A,115.3653,22.775,汕尾市,市环保局,,17,9,17,6,7,72,52,69,64,4,5,6,6,0.5,0.5
2023-06-22T22:00:00,1694A,115.3706,22.7898,汕尾市,市政府,,,0,16,11,9,82,,77,73,5,4,4,4,0.4,0.4
2023-06-22T22:00:00,1695A,115.3622,22.7925,汕尾市,新城中学,,16,13,15,6,5,75,50,69,63,3,3,6,6,0.6,0.5
2023-06-22T22:00:00,1696A,114.6778,23.7569,河源市,源西,,,30,24,6,11,103,63,93,86,,7,4,4,0.5,0.5
2023-06-22T22:00:00,1697A,114.6944,23.7586,河源市,东埔,,23,23,21,15,11,102,61,91,84,9,11,4,5,0.4,0.4
2023-06-22T22:00:00,1698A,114.6892,23.7233,河源市,老城,,22,22,31,7,10,105,63,93,86,6,10,4,4,0.5,0.5
2023-06-22T22:00:00,1699A,111.9797,21.8593,阳江市,鸳鸯湖,,19,19,18,2,4,62,51,56,52,3,3,7,8,0.6,0.6
2023-06-22T22:00:00,1701A,111.9491,21.8658,阳江市,马南垌,,19,19,20,6,9,63,50,56,51,5,5,3,4,0.4,0.4
2023-06-22T22:00:00,1702A,113.0426,23.691,清远市,环保大楼,,25,25,24,13,13,109,50,100,86,7,8,5,6,0.4,0.4
2023-06-22T22:00:00,1703A,113.0208,23.7106,清远市,凤城街办,,22,22,27,12,12,101,44,90,79,4,6,6,6,0.3,0.3
2023-06-22T22:00:00,1705A,116.6367,23.6719,潮州市,西园路,,24,24,26,6,12,78,43,68,57,8,9,4,6,0.6,0.4
2023-06-22T22:00:00,1706A,116.6447,23.6706,潮州市,档案局,,24,24,27,8,10,100,47,84,65,7,7,4,8,0.5,0.4
2023-06-22T22:00:00,1708A,116.3701,23.5345,揭阳市,新兴,,13,3,24,8,12,69,40,63,51,6,4,5,6,0.5,0.5
2023-06-22T22:00:00,1709A,116.3264,23.5443,揭阳市,西马,,24,24,24,6,9,64,44,58,50,5,3,6,5,0.6,0.5
2023-06-22T22:00:00,1710A,116.3611,23.5626,揭阳市,东兴,,28,28,25,8,9,71,48,64,55,5,5,2,2,0.7,0.7
2023-06-22T22:00:00,1711A,116.4151,23.5294,揭阳市,渔湖,,20,9,24,14,9,74,46,65,54,1,3,3,3,0.6,0.6
2023-06-22T22:00:00,1712A,112.0392,22.9169,云浮市,新市府,,23,23,17,9,9,58,44,54,52,3,3,4,4,0.5,0.5
2023-06-22T22:00:00,1714A,112.0539,22.9539,云浮市,牧羊,,24,24,28,5,9,62,42,59,55,10,8,12,23,0.4,0.5
2023-06-22T22:00:00,1715A,102.575,24.3711,玉溪市,东风水库,,42,42,19,4,9,86,77,82,78,6,9,6,8,0.6,0.6
2023-06-22T22:00:00,1718A,115.4208,35.2464,菏泽市,气象局,臭氧1小时,64,67,58,27,24,226,171,218,207,23,17,17,15,0.5,0.5
2023-06-22T22:00:00,1719A,115.4747,35.2375,菏泽市,市政协,颗粒物(PM10),59,68,82,29,28,216,164,207,192,21,21,8,6,0.6,0.6
2023-06-22T22:00:00,1721A,113.3819,40.1097,大同市,果树场,颗粒物(PM10),61,71,56,36,27,181,56,173,139,42,32,5,9,0.5,0.6
2023-06-22T22:00:00,1723A,113.2994,40.0758,大同市,云冈宾馆,颗粒物(PM10),68,85,62,36,20,194,58,184,157,87,38,8,13,0.9,1
2023-06-22T22:00:00,1724A,113.3444,40.0917,大同市,大同大学,,42,42,50,19,18,185,87,180,162,52,26,12,19,1.1,0.8
2023-06-22T22:00:00,1725A,113.2661,40.1269,大同市,安家小村,,46,30,78,8,19,198,145,188,176,12,22,12,17,0.4,0.9
2023-06-22T22:00:00,1726A,113.2711,40.0844,大同市,教育学院,颗粒物(PM10),68,86,69,44,23,188,60,179,151,70,41,10,15,0.9,1
2023-06-22T22:00:00,1727A,113.1147,36.1547,长治市,清华站,臭氧1小时,82,52,59,24,32,220,185,210,198,12,16,8,8,0.5,0.8
2023-06-22T22:00:00,1728A,113.1031,36.1989,长治市,监测站,臭氧1小时,93,50,58,27,34,228,194,215,206,16,19,9,10,0.9,1.1
2023-06-22T22:00:00,1730A,113.0886,36.2125,长治市,审计局,臭氧1小时,93,47,55,29,39,224,194,212,201,15,16,11,12,0.7,0.9
2023-06-22T22:00:00,1731A,113.0844,36.1856,长治市,长治八中,臭氧1小时,97,54,65,25,32,225,197,216,208,15,17,9,9,0.6,0.7
2023-06-22T22:00:00,1733A,111.5531,36.0783,临汾市,临钢医院,颗粒物(PM10),57,63,65,28,38,218,132,204,186,20,15,3,3,0.9,0.9
2023-06-22T22:00:00,1734A,111.5028,36.0714,临汾市,技工学校,颗粒物(PM10),62,73,68,30,34,227,133,208,189,22,18,6,5,1.0,1
2023-06-22T22:00:00,1736A,111.5018,36.0855,临汾市,市委,颗粒物(PM10),65,80,84,39,39,217,125,210,175,26,19,6,5,1.0,1
2023-06-22T22:00:00,1738A,113.5758,37.8572,阳泉市,市中心,,50,50,46,20,18,221,144,208,190,24,46,17,15,0.9,0.8
2023-06-22T22:00:00,1739A,113.4894,37.8731,阳泉市,赛鱼,,40,40,51,25,19,209,101,197,158,47,50,12,10,0.7,0.7
2023-06-22T22:00:00,1740A,113.5819,37.8486,阳泉市,南庄,颗粒物(PM10),62,74,58,32,24,230,134,212,194,25,33,13,13,0.8,0.7
2023-06-22T22:00:00,1742A,113.5614,37.8703,阳泉市,平坦,颗粒物(PM10),54,58,50,26,23,214,148,200,186,28,47,18,12,0.8,0.7
2023-06-22T22:00:00,1743A,113.5158,37.8392,阳泉市,大阳泉,,,33,36,35,26,217,,203,203,13,20,16,12,0.7,0.6
2023-06-22T22:00:00,1744A,118.9233,42.2816,赤峰市,松山一中,,38,35,29,26,14,114,73,111,98,41,38,28,14,0.8,0.4
2023-06-22T22:00:00,1745A,118.9576,42.2728,赤峰市,哈达街,,46,46,26,22,8,118,60,113,90,59,32,76,23,1.0,0.6
2023-06-22T22:00:00,1746A,118.8788,42.2554,赤峰市,天义路,,25,14,17,11,9,129,77,123,111,46,25,41,17,0.3,0.2
2023-06-22T22:00:00,1748A,123.044,41.1196,鞍山市,深沟寺,,40,40,43,26,30,191,109,179,167,25,18,10,10,0.7,0.8
2023-06-22T22:00:00,1749A,123.011,41.0931,鞍山市,太阳城,,36,36,39,24,27,193,98,171,160,25,17,11,10,0.9,1
2023-06-22T22:00:00,1750A,123.0485,41.1442,鞍山市,太平,"颗粒物(PM10),细颗粒物(PM2.5)",60,70,61,43,38,205,64,180,160,55,27,11,11,1.4,1.2
2023-06-22T22:00:00,1751A,122.9642,41.0971,鞍山市,铁西三道街,细颗粒物(PM2.5),63,66,66,45,42,223,91,195,182,46,31,10,11,1.3,1.3
2023-06-22T22:00:00,1752A,122.9341,41.0833,鞍山市,铁西工业园区,细颗粒物(PM2.5),70,88,73,51,43,216,90,188,176,42,35,10,12,1.3,1.4
2023-06-22T22:00:00,1753A,123.022,41.0821,鞍山市,明达新区,,40,36,37,28,28,211,92,190,172,33,22,9,8,0.8,0.8
2023-06-22T22:00:00,1754A,123.1289,41.0228,鞍山市,千山,,,,,,,,,,,,,,,,
2023-06-22T22:00:00,1755A,123.7977,41.8491,抚顺市,望花区,,27,27,44,13,23,164,52,154,131,41,22,1,2,0.5,0.7
2023-06-22T22:00:00,1756A,123.9161,41.8822,抚顺市,顺城区,,49,49,29,19,17,161,30,150,120,58,22,5,7,0.4,0.5
2023-06-22T22:00:00,1757A,124.0436,41.8611,抚顺市,东洲区,,23,15,20,7,11,162,71,148,135,15,10,3,4,0.4,0.5
2023-06-22T22:00:00,1758A,123.9247,41.8642,抚顺市,新抚区,,46,44,26,32,18,164,39,152,118,38,21,6,6,0.7,0.7
2023-06-22T22:00:00,1759A,124.0972,41.8961,抚顺市,大伙房水库,,25,13,14,6,9,154,77,138,125,15,8,4,4,0.4,0.5
2023-06-22T22:00:00,1760A,123.7086,41.8391,抚顺市,沈抚新城,,34,34,30,16,24,154,60,146,130,43,26,6,8,0.5,0.9
2023-06-22T22:00:00,1761A,123.8275,41.3064,本溪市,大峪,,23,17,40,7,18,135,73,132,114,13,21,4,5,0.7,1.1
2023-06-22T22:00:00,1762A,123.7567,41.3325,本溪市,溪湖,,24,24,43,11,24,134,60,132,115,26,20,6,6,0.7,1
2023-06-22T22:00:00,1763A,123.7169,41.3094,本溪市,彩屯,,18,18,48,12,32,127,46,123,99,24,28,9,10,0.7,1.4
2023-06-22T22:00:00,1764A,123.7669,41.2864,本溪市,东明,,39,39,48,20,26,138,56,132,110,35,27,9,9,0.9,1.1
2023-06-22T22:00:00,1765A,123.7992,41.2664,本溪市,新立屯,,27,27,67,16,45,132,48,127,100,42,29,7,8,0.9,2.3
2023-06-22T22:00:00,1766A,123.8142,41.3472,本溪市,威宁,,40,40,46,13,21,122,36,118,92,27,22,6,6,0.6,0.7
2023-06-22T22:00:00,1767A,121.1115,41.0879,锦州市,南山,,40,31,40,22,24,184,127,173,163,12,17,12,19,0.6,0.6
2023-06-22T22:00:00,1768A,121.0533,40.8434,锦州市,开发区,颗粒物(PM10),59,68,80,32,32,164,89,159,133,51,36,25,26,0.7,0.7
2023-06-22T22:00:00,1769A,121.1836,41.1119,锦州市,百股街道,,37,31,34,24,25,179,118,170,154,21,24,12,15,0.7,0.6
2023-06-22T22:00:00,1770A,121.1178,41.1222,锦州市,天安街道,,38,36,46,26,26,168,117,160,151,20,29,13,17,0.8,0.8
2023-06-22T22:00:00,1771A,121.1303,41.1386,锦州市,北湖公园,,39,33,42,18,26,180,123,171,162,20,21,26,10,0.7,0.7
2023-06-22T22:00:00,1772A,126.54,43.8622,吉林市,哈达湾,,34,34,18,16,8,116,73,111,105,27,12,6,6,0.6,0.5
2023-06-22T22:00:00,1773A,126.5844,43.8358,吉林市,东局子,,24,24,13,16,9,113,50,104,91,29,11,4,5,0.9,0.8
2023-06-22T22:00:00,1774A,126.5052,43.8245,吉林市,电力学院,,36,36,18,21,12,115,34,108,94,28,14,8,9,0.8,0.7
2023-06-22T22:00:00,1775A,126.6133,43.8972,吉林市,江北,,20,20,14,11,7,115,45,105,92,15,14,6,6,0.6,0.6
2023-06-22T22:00:00,1776A,126.555,43.8306,吉林市,江南公园,,31,31,15,19,9,105,38,99,87,47,21,4,4,0.9,0.7
2023-06-22T22:00:00,1778A,126.7061,43.7133,吉林市,丰满,,,,,,,,,,,,,,,,
2023-06-22T22:00:00,1779A,123.9305,47.3636,齐齐哈尔市,安居小区,,44,44,23,8,10,101,78,91,90,12,11,2,2,0.4,0.4
2023-06-22T22:00:00,1780A,123.9488,47.3386,齐齐哈尔市,中心广场,,22,21,16,6,4,96,69,88,86,22,12,6,6,0.3,0.2
2023-06-22T22:00:00,1781A,123.9483,47.3227,齐齐哈尔市,农牧车辆厂,,23,19,23,9,5,102,73,94,91,19,11,5,5,0.4,0.2
2023-06-22T22:00:00,1783A,123.945,47.2988,齐齐哈尔市,市环境监测站,,27,27,17,14,8,98,59,92,87,29,11,7,6,0.6,0.4
2023-06-22T22:00:00,1784A,129.61,44.561,牡丹江市,环保大楼,,26,20,19,18,13,103,50,94,87,12,10,5,5,0.4,0.3
2023-06-22T22:00:00,1785A,129.6115,44.5782,牡丹江市,文化广场,,35,32,18,24,21,93,47,85,78,24,16,3,4,0.6,0.4
2023-06-22T22:00:00,1786A,129.5904,44.5963,牡丹江市,第一医院,,32,32,19,17,17,98,40,90,79,21,12,4,4,0.4,0.3
2023-06-22T22:00:00,1787A,129.6364,44.6075,牡丹江市,机车工厂,,18,16,15,12,10,98,53,88,82,9,7,1,2,0.5,0.5
2023-06-22T22:00:00,1788A,129.6386,44.5462,牡丹江市,第一中学,,31,31,19,9,9,98,34,88,75,7,9,3,3,0.2,0.2
2023-06-22T22:00:00,1789A,124.81117,46.03138,大庆市,大同区,,26,24,29,15,17,114,83,108,104,14,15,6,6,0.3,0.4
2023-06-22T22:00:00,1790A,125.129,46.533,大庆市,龙凤区,,26,26,21,16,14,106,75,98,94,2,9,4,5,0.4,0.3
2023-06-22T22:00:00,1791A,124.902,46.408,大庆市,红岗区,,25,16,22,9,14,123,78,112,107,13,13,2,4,0.2,0.3
2023-06-22T22:00:00,1792A,125.153,46.586,大庆市,萨尔图区,,30,30,18,13,13,104,80,99,96,13,11,5,5,0.1,0.1
2023-06-22T22:00:00,1793A,124.9042,46.6215,大庆市,让胡路区,,29,25,22,20,11,103,78,98,94,11,10,7,5,0.3,0.3
2023-06-22T22:00:00,1794A,118.3606,31.3519,芜湖市,监测站,细颗粒物(PM2.5),64,59,54,46,34,157,105,136,129,30,38,3,4,0.9,0.9
2023-06-22T22:00:00,1795A,118.3714,31.4134,芜湖市,科创中心,细颗粒物(PM2.5),58,52,56,41,38,162,82,137,122,31,36,6,7,1.2,1.1
2023-06-22T22:00:00,1796A,118.3673,31.3131,芜湖市,四水厂,细颗粒物(PM2.5),62,62,52,44,36,160,101,140,129,24,27,3,4,0.8,0.8
2023-06-22T22:00:00,1798A,118.5092,31.6837,马鞍山市,湖东路四小,细颗粒物(PM2.5),59,56,50,42,42,167,106,154,139,21,21,8,8,1.0,0.8
2023-06-22T22:00:00,1799A,118.5024,31.6449,马鞍山市,开发区,颗粒物(PM10),61,72,72,42,42,160,76,147,128,38,32,7,7,0.9,0.8
2023-06-22T22:00:00,1800A,118.5228,31.7231,马鞍山市,慈湖,细颗粒物(PM2.5),64,68,73,46,45,164,91,148,123,33,36,9,12,1.0,0.9
2023-06-22T22:00:00,1802A,118.6245,31.7241,马鞍山市,濮塘,,,35,33,,27,143,113,124,111,9,11,6,6,0.5,0.4
2023-06-22T22:00:00,1803A,115.9872,29.6815,九江市,十里,,42,20,33,14,21,136,134,126,126,7,14,7,9,0.6,0.7
2023-06-22T22:00:00,1804A,115.9584,29.7046,九江市,茅山头,,38,26,31,22,20,132,120,121,121,9,16,7,8,0.6,0.8
2023-06-22T22:00:00,1805A,115.9877,29.7295,九江市,西园,,41,27,35,20,20,131,131,122,122,3,16,8,10,0.5,0.8
2023-06-22T22:00:00,1806A,116.0172,29.6547,九江市,五七二七厂,,46,20,29,8,19,145,145,125,125,2,7,7,8,0.5,0.7
2023-06-22T22:00:00,1808A,115.9114,29.6038,九江市,综合工业园,,31,25,28,16,20,154,97,118,111,37,24,8,10,0.7,1
2023-06-22T22:00:00,1809A,116.0721,29.7535,九江市,石化总厂,,42,42,38,21,20,118,113,108,108,22,25,10,11,0.7,0.7
2023-06-22T22:00:00,1810A,115.9773,29.5698,九江市,庐山气象台,,45,5,29,6,25,195,142,173,158,2,4,6,7,0.7,0.8
2023-06-22T22:00:00,1812A,112.3931,34.6516,洛阳市,市委党校,,46,38,50,27,35,198,147,177,169,8,11,3,4,0.4,0.5
2023-06-22T22:00:00,1814A,112.4657,34.6871,洛阳市,豫西宾馆,颗粒物(PM10),53,55,64,26,32,178,134,172,160,12,20,3,3,0.6,0.8
2023-06-22T22:00:00,1815A,112.494,34.6886,洛阳市,河南林校,,45,41,50,22,26,172,141,169,161,10,21,6,6,0.4,0.6
2023-06-22T22:00:00,1816A,112.3844,34.623,洛阳市,开发区管委会,,47,47,50,23,26,203,126,177,161,20,12,12,12,0.3,0.4
2023-06-22T22:00:00,1817A,112.4267,34.6258,洛阳市,市委新办公区,,45,42,50,27,30,191,142,174,163,10,11,3,3,0.4,0.5
2023-06-22T22:00:00,1818A,114.4839,36.0621,安阳市,棉研所,臭氧1小时,59,66,52,24,21,246,167,233,218,15,37,10,13,0.5,0.5
2023-06-22T22:00:00,1819A,114.3551,36.1017,安阳市,红庙街,臭氧1小时,64,55,60,16,23,242,171,225,217,15,19,7,7,1.2,0.8
2023-06-22T22:00:00,1820A,114.361,36.0681,安阳市,银杏小区,臭氧1小时,73,48,53,22,22,248,178,230,223,14,18,8,7,0.8,0.5
2023-06-22T22:00:00,1824A,114.3389,34.7781,开封市,肿瘤医院,颗粒物(PM10),54,57,64,24,27,216,147,207,192,16,11,7,7,0.3,0.4
2023-06-22T22:00:00,1826A,114.2885,34.7965,开封市,世纪星幼儿园,颗粒物(PM10),56,62,56,20,19,208,150,200,188,17,17,3,2,0.7,0.8
2023-06-22T22:00:00,1828A,113.227,35.2125,焦作市,市环保局,颗粒物(PM10),60,69,66,25,26,214,156,207,192,27,28,10,9,0.5,0.7
2023-06-22T22:00:00,1830A,113.1992,35.2590,焦作市,影视城,臭氧1小时,60,30,31,27,26,217,168,207,194,13,10,9,9,0.5,0.6
2023-06-22T22:00:00,1832A,113.3257,33.742,平顶山市,新华旅馆,细颗粒物(PM2.5),53,41,55,37,27,173,122,162,148,16,14,3,2,0.6,0.6
2023-06-22T22:00:00,1833A,113.2919,33.737,平顶山市,规划设计院,,,46,48,22,25,175,114,165,154,,12,8,8,0.7,0.7
2023-06-22T22:00:00,1834A,113.182,33.774,平顶山市,平顶山工学院,,36,36,48,17,21,173,110,160,144,19,13,4,4,0.4,0.5
2023-06-22T22:00:00,1835A,111.1922,34.7752,三门峡市,市政府,,50,50,48,28,28,175,89,167,151,30,15,6,6,0.7,0.6
2023-06-22T22:00:00,1836A,111.1587,34.7942,三门峡市,开发区,颗粒物(PM10),52,54,57,24,31,179,106,168,155,30,17,9,6,0.7,0.7
2023-06-22T22:00:00,1838A,111.143,34.7955,三门峡市,风景区,,41,41,52,20,30,178,112,167,155,12,11,11,8,0.5,0.5
2023-06-22T22:00:00,1840A,111.2992,30.6981,宜昌市,白龙岗,,18,17,22,5,10,103,56,88,72,16,15,6,5,0.3,0.3
2023-06-22T22:00:00,1841A,111.3549,30.6465,宜昌市,伍家岗,,25,14,21,17,14,111,49,100,81,31,15,2,5,0.4,0.5
2023-06-22T22:00:00,1842A,111.2628,30.6961,宜昌市,点军区,,24,24,29,7,9,101,54,87,72,8,8,8,7,0.4,0.4
2023-06-22T22:00:00,1843A,111.3275,30.7819,宜昌市,夷陵区,,24,24,26,12,11,74,36,67,61,26,16,3,3,0.4,0.4
2023-06-22T22:00:00,1844A,112.2494,30.3197,荆州市,市图书馆,,40,33,30,28,19,110,83,100,78,26,17,6,6,0.9,0.7
2023-06-22T22:00:00,1845A,112.2008,30.3544,荆州市,市委党校,,35,35,36,23,17,109,79,100,92,14,12,6,7,0.7,0.6
2023-06-22T22:00:00,1847A,113.1094,29.3578,岳阳市,南湖风景区,,32,24,20,19,13,123,102,102,102,6,7,6,7,0.6,0.6
2023-06-22T22:00:00,1848A,113.1493,29.4251,岳阳市,城陵矶,,29,20,21,19,14,111,91,93,93,15,15,5,5,0.8,0.8
2023-06-22T22:00:00,1849A,113.1497,29.3575,岳阳市,开发区,,32,29,24,22,14,116,92,98,98,10,8,7,7,0.7,0.7
2023-06-22T22:00:00,1850A,113.2621,29.4758,岳阳市,云溪区,,26,25,22,14,12,102,81,92,90,8,7,5,6,0.6,0.6
2023-06-22T22:00:00,1851A,112.9943,29.4402,岳阳市,君山区,,32,16,21,16,22,121,102,104,104,10,11,5,6,0.6,0.5
2023-06-22T22:00:00,1852A,113.2117,29.355,岳阳市,金凤水库,,26,26,22,18,14,96,75,83,83,5,6,2,2,1.0,1
2023-06-22T22:00:00,1854A,111.6975,28.9703,常德市,市二中,,31,19,18,21,17,132,99,125,116,5,4,4,4,0.4,0.4
2023-06-22T22:00:00,1857A,111.7158,29.1456,常德市,白鹤山,,24,18,18,15,12,140,74,129,100,2,2,3,3,0.4,0.4
2023-06-22T22:00:00,1858A,110.5319,29.1217,张家界市,永定新区,,30,18,16,12,12,120,95,115,110,6,6,4,4,0.2,0.2
2023-06-22T22:00:00,1859A,110.4697,29.1242,张家界市,电业局,,30,19,15,21,18,114,95,108,105,7,7,4,4,0.3,0.2
2023-06-22T22:00:00,1860A,110.5594,29.3547,张家界市,未央路,,20,20,19,14,11,111,62,104,90,8,6,3,3,0.3,0.3
2023-06-22T22:00:00,1861A,110.4417,29.315,张家界市,袁家界,,36,6,10,4,7,137,113,135,121,3,3,7,8,0.7,0.7
2023-06-22T22:00:00,1862A,110.4144,25.3167,桂林市,电子科大尧山校区,,19,13,12,0,34,84,60,78,62,5,4,2,4,0.5,0.5
2023-06-22T22:00:00,1863A,110.2819,25.2697,桂林市,监测站,,,16,11,4,5,77,,72,57,12,9,8,4,,0.5
2023-06-22T22:00:00,1864A,110.3089,25.2708,桂林市,龙隐路小学,,15,7,10,6,8,70,45,67,55,8,8,5,5,0.6,0.6
2023-06-22T22:00:00,1865A,110.2869,25.2178,桂林市,八中,,18,9,8,5,6,71,55,64,56,6,9,3,3,0.4,0.4
2023-06-22T22:00:00,1866A,109.2262,21.588,北海市,牛尾岭水库,,29,25,19,20,9,69,41,64,58,9,8,3,3,0.6,0.6
2023-06-22T22:00:00,1867A,109.1436,21.4086,北海市,海滩公园,颗粒物(PM10),58,66,41,7,7,195,76,113,107,3,4,2,2,0.4,0.5
2023-06-22T22:00:00,1868A,109.0981,21.4661,北海市,新市环保局,,25,21,21,7,8,88,80,81,80,4,4,2,2,0.5,0.4
2023-06-22T22:00:00,1869A,109.1778,21.5233,北海市,北海工业园,,25,24,25,15,12,85,78,81,79,3,6,4,4,0.4,0.3
2023-06-22T22:00:00,1870A,109.4856,24.3895,柳州市,柳东小学,,14,14,15,7,10,67,40,58,41,7,9,5,6,0.6,0.6
2023-06-22T22:00:00,1871A,109.4157,24.3277,柳州市,环保监测站,,20,20,10,7,8,61,32,53,40,19,15,4,5,0.4,0.4
2023-06-22T22:00:00,1872A,109.389,24.341,柳州市,河西水厂,,,,22,,11,60,,46,34,16,16,19,6,0.8,1
2023-06-22T22:00:00,1873A,109.4311,24.2921,柳州市,市四中,,13,11,18,9,13,49,33,43,43,10,13,6,6,0.8,0.8
2023-06-22T22:00:00,1874A,109.4006,24.3631,柳州市,市九中,,19,19,21,9,10,58,34,52,38,13,15,5,7,0.9,0.8
2023-06-22T22:00:00,1875A,109.4958,24.3134,柳州市,古亭山,,24,24,18,5,8,60,20,48,33,18,16,3,3,0.7,0.7
2023-06-22T22:00:00,1876A,109.5078,18.2489,三亚市,河东子站,,21,15,20,10,11,95,66,82,82,1,3,3,3,0.5,0.4
2023-06-22T22:00:00,1877A,109.4964,18.2681,三亚市,河西子站,,22,16,19,8,10,92,68,79,79,4,5,4,3,0.2,0.3
2023-06-22T22:00:00,1878A,104.7778,31.4741,绵阳市,富乐山,,42,42,34,17,20,163,118,150,143,12,12,3,4,0.5,0.5
2023-06-22T22:00:00,1879A,104.7563,31.4535,绵阳市,市人大,,36,36,32,13,18,149,115,137,132,11,14,9,10,0.4,0.4
2023-06-22T22:00:00,1880A,104.6697,31.4668,绵阳市,高新区自来水公司,,37,32,47,20,25,174,118,150,146,20,19,8,8,0.5,0.4
2023-06-22T22:00:00,1881A,104.7287,31.5075,绵阳市,三水厂,,37,37,43,24,22,171,100,150,141,34,21,6,6,0.6,0.5
2023-06-22T22:00:00,1882A,104.563,28.793,宜宾市,石马中学,,36,36,22,13,12,136,61,108,102,24,13,7,3,0.6,0.4
2023-06-22T22:00:00,1883A,104.6201,28.7728,宜宾市,市委,,31,31,23,21,15,126,71,111,107,16,14,10,7,0.4,0.4
2023-06-22T22:00:00,1884A,104.6055,28.793,宜宾市,宜宾四中,,34,34,26,21,18,126,73,112,107,21,16,11,5,0.6,0.5
2023-06-22T22:00:00,1885A,104.639,28.7562,宜宾市,市政府,,29,29,25,19,16,128,80,115,112,18,15,8,8,0.5,0.5
2023-06-22T22:00:00,1886A,104.5742,28.7199,宜宾市,黄金嘴,,41,41,23,23,13,153,55,128,123,31,15,6,4,0.7,0.4
2023-06-22T22:00:00,1888A,101.6891,26.571,攀枝花市,弄弄坪,,38,38,26,17,10,85,64,78,76,15,13,12,10,0.6,0.5
2023-06-22T22:00:00,1889A,101.5769,26.5928,攀枝花市,河门口,,18,18,30,11,18,92,54,80,77,13,24,8,19,0.7,1.6
2023-06-22T22:00:00,1890A,101.7169,26.585,攀枝花市,炳草岗,,46,46,24,22,13,89,63,78,76,22,14,6,7,1.0,0.8
2023-06-22T22:00:00,1891A,101.7369,26.5008,攀枝花市,仁和,,30,30,16,20,10,113,76,102,96,10,9,8,10,0.6,0.6
2023-06-22T22:00:00,1893A,105.4324,28.9634,泸州市,九狮山,,33,33,20,18,10,88,47,80,73,18,13,5,6,0.3,0.2
2023-06-22T22:00:00,1894A,105.4427,28.9063,泸州市,小市上码头,颗粒物(PM10),51,51,32,23,15,88,58,80,78,11,11,8,8,0.6,0.6
2023-06-22T22:00:00,1895A,105.4241,28.8573,泸州市,兰田宪桥,,40,40,31,25,18,97,65,92,86,11,7,5,8,0.8,0.8
2023-06-22T22:00:00,1896A,105.4379,28.8833,泸州市,市环监站,,43,43,30,22,14,91,62,84,80,16,13,5,7,0.5,0.6
2023-06-22T22:00:00,1901A,104.4239,31.1208,德阳市,东山公园,,48,45,38,33,26,147,128,144,142,16,15,3,2,0.5,0.4
2023-06-22T22:00:00,1902A,104.3826,31.1317,德阳市,西小区,颗粒物(PM10),55,60,49,33,28,146,118,139,136,15,14,1,2,0.5,0.5
2023-06-22T22:00:00,1904A,104.3553,31.1091,德阳市,耐火材料厂,颗粒物(PM10),59,67,44,35,28,166,112,155,148,17,12,3,2,0.6,0.5
2023-06-22T22:00:00,1905A,106.056,30.8064,南充市,西山风景区,颗粒物(PM10),61,71,46,27,18,108,60,103,94,11,8,6,7,0.5,0.4
2023-06-22T22:00:00,1906A,106.0789,30.8023,南充市,南充市委,颗粒物(PM10),54,58,35,27,18,106,61,102,93,16,14,8,8,0.5,0.5
2023-06-22T22:00:00,1907A,106.1031,30.8217,南充市,南充炼油厂,颗粒物(PM10),58,66,42,28,18,114,68,110,102,18,14,15,12,0.5,0.4
2023-06-22T22:00:00,1908A,106.1064,30.7856,南充市,高坪区监测站,细颗粒物(PM2.5),55,55,39,39,22,112,65,108,97,15,15,15,12,0.5,0.4
2023-06-22T22:00:00,1909A,106.0642,30.7636,南充市,嘉陵区环保局,,49,47,36,34,22,119,65,111,98,15,17,7,13,0.5,0.4
2023-06-22T22:00:00,1910A,106.1087,30.8388,南充市,市环境监测站,细颗粒物(PM2.5),59,46,36,42,24,112,63,107,98,20,18,7,6,0.4,0.3
2023-06-22T22:00:00,1911A,106.9222,27.6869,遵义市,丁字口,,17,7,9,8,5,85,53,80,74,15,10,4,3,0.7,0.6
2023-06-22T22:00:00,1912A,106.9242,27.7019,遵义市,凤凰山,,26,20,7,14,7,90,81,86,80,7,7,7,7,0.4,0.3
2023-06-22T22:00:00,1913A,106.8906,27.6486,遵义市,忠庄,,19,16,10,13,10,93,40,93,68,17,8,2,2,0.6,0.5
2023-06-22T22:00:00,1914A,106.9231,27.6506,遵义市,舟水桥,,20,11,11,14,11,84,44,81,58,6,10,1,1,0.4,0.5
2023-06-22T22:00:00,1915A,106.9178,27.72,遵义市,干田坝,,25,18,10,12,9,93,79,90,82,7,6,4,4,0.7,0.6
2023-06-22T22:00:00,1916A,103.7897,25.5035,曲靖市,环境监测站,,20,16,16,5,6,88,63,78,75,11,12,7,7,0.7,0.8
2023-06-22T22:00:00,1917A,103.8,25.5364,曲靖市,烟厂办公区,,21,14,15,6,8,90,66,81,78,8,9,5,4,0.4,0.5
2023-06-22T22:00:00,1918A,108.7197,34.3956,咸阳市,气象站,,,,,,,,,,,,,,,,
2023-06-22T22:00:00,1919A,108.673,34.3155,咸阳市,实验中学,,32,20,67,22,28,243,92,210,188,18,39,4,5,0.4,0.5
2023-06-22T22:00:00,1920A,108.7233,34.3617,咸阳市,师范学院,,45,45,66,16,26,217,92,192,170,26,40,3,5,0.4,0.6
2023-06-22T22:00:00,1922A,109.0656,35.0994,铜川市,党校,颗粒物(PM10),59,67,64,20,31,199,91,166,155,35,26,6,6,0.9,0.9
2023-06-22T22:00:00,1923A,109.0697,35.0697,铜川市,王益区政府,,,60,58,29,32,215,81,184,165,,19,7,6,0.5,0.6
2023-06-22T22:00:00,1924A,108.9344,34.9058,铜川市,新区管委会,颗粒物(PM10),71,91,62,29,32,202,121,193,182,34,16,12,8,0.6,0.6
2023-06-22T22:00:00,1926A,109.4131,36.6275,延安市,枣园,细颗粒物(PM2.5),62,34,38,44,28,186,51,165,123,44,22,6,6,0.8,0.7
2023-06-22T22:00:00,1927A,109.4761,36.6028,延安市,延大医附院,颗粒物(PM10),54,58,51,36,26,192,43,165,118,60,31,4,4,0.6,0.5
2023-06-22T22:00:00,1929A,109.5056,36.6106,延安市,百米大道,颗粒物(PM10),57,64,60,34,30,179,40,159,118,62,33,6,11,0.8,0.6
2023-06-22T22:00:00,1930A,107.185,34.3063,宝鸡市,庙沟村,,37,37,33,14,13,158,93,143,134,2,3,7,7,0.2,0.2
2023-06-22T22:00:00,1931A,107.0708,34.3017,宝鸡市,竹园沟,,29,29,34,19,16,186,77,160,140,16,11,5,5,0.4,0.3
2023-06-22T22:00:00,1932A,107.1906,34.3672,宝鸡市,三陆医院,颗粒物(PM10),52,54,53,22,19,190,59,167,146,54,31,6,10,0.5,0.4
2023-06-22T22:00:00,1933A,107.1431,34.3547,宝鸡市,监测站,,50,50,41,20,17,185,66,161,142,33,21,8,8,0.5,0.4
2023-06-22T22:00:00,1934A,107.1186,34.3739,宝鸡市,技工学校,,45,45,44,27,20,182,86,163,148,28,18,6,7,0.4,0.3
2023-06-22T22:00:00,1935A,107.3906,34.3528,宝鸡市,陈仓区环保局家属楼,颗粒物(PM10),51,52,56,24,25,221,78,183,161,27,34,6,24,0.5,0.5
2023-06-22T22:00:00,1936A,107.2058,34.3497,宝鸡市,文理学院,颗粒物(PM10),59,67,45,18,14,192,78,170,148,30,20,6,9,0.5,0.4
2023-06-22T22:00:00,1937A,107.2386,34.3622,宝鸡市,三迪小学,颗粒物(PM10),54,58,49,27,21,197,49,172,146,58,26,5,7,0.5,0.4
2023-06-22T22:00:00,1938A,109.5293,34.5101,渭南市,农科所,颗粒物(PM10),57,63,51,39,29,207,82,182,148,25,25,5,7,0.7,0.6
2023-06-22T22:00:00,1939A,109.4974,34.4877,渭南市,日报社,细颗粒物(PM2.5),63,61,51,45,29,241,73,204,172,44,34,6,8,0.7,0.6
2023-06-22T22:00:00,1940A,109.4636,34.493,渭南市,体育馆,,41,41,49,12,17,234,85,202,174,36,34,4,9,0.4,0.4
2023-06-22T22:00:00,1941A,109.4259,34.5023,渭南市,高新一小,,40,40,60,19,24,213,102,194,176,21,32,5,8,0.5,0.5
2023-06-22T22:00:00,1943A,102.1725,38.5339,金昌市,新川苑,颗粒物(PM10),60,69,64,23,16,158,135,148,147,8,13,7,7,0.4,0.5
2023-06-22T22:00:00,1944A,102.1692,38.5167,金昌市,天庆家园,,49,49,50,31,17,164,131,151,148,6,10,8,9,0.7,0.6
2023-06-22T22:00:00,1945A,98.2908,39.7711,嘉峪关市,气象局,颗粒物(PM10),136,222,79,48,21,150,103,144,124,29,7,33,5,1.3,0.1
2023-06-22T22:00:00,1947A,106.3394,38.817,石嘴山市,沙湖旅游区,颗粒物(PM10),56,61,53,14,18,202,132,191,182,33,23,16,16,0.5,0.6
2023-06-22T22:00:00,1948A,106.3668,39.0145,石嘴山市,大武口朝阳西街,颗粒物(PM10),55,59,58,17,20,202,159,186,186,24,20,11,21,0.3,0.4
2023-06-22T22:00:00,1949A,106.7704,39.2282,石嘴山市,惠农南大街,,46,46,57,15,17,200,122,190,180,23,25,3,12,0.3,0.3
2023-06-22T22:00:00,1950A,106.7099,39.1325,石嘴山市,红果子镇惠新街,颗粒物(PM10),52,54,60,14,21,206,136,188,178,33,28,8,15,0.2,0.4
2023-06-22T22:00:00,1951A,84.895,45.6094,克拉玛依市,长征新村,,33,25,21,11,6,130,105,125,120,4,6,8,8,0.2,0.2
2023-06-22T22:00:00,1952A,84.8988,45.5893,克拉玛依市,南林小区,,34,11,19,7,8,132,108,122,120,7,11,5,5,0.1,0.1
2023-06-22T22:00:00,1954A,84.905,44.3396,克拉玛依市,独山子区,,39,38,21,10,9,153,124,147,145,4,7,6,6,0.3,0.3
2023-06-22T22:00:00,1955A,85.6979,46.098,克拉玛依市,乌尔禾区商贸楼,,38,31,26,10,8,130,119,130,120,2,2,4,5,0.3,0.3
2023-06-22T22:00:00,1956A,86.1472,41.7538,巴音郭楞州,孔雀公园,,37,34,49,4,10,137,117,131,128,22,15,5,4,0.3,0.3
2023-06-22T22:00:00,1957A,86.1972,41.7166,巴音郭楞州,棉纺厂,,46,34,58,32,22,147,117,137,135,15,18,3,4,0.3,0.3
2023-06-22T22:00:00,1958A,86.2357,41.7173,巴音郭楞州,经济开发区,颗粒物(PM10),57,63,55,20,18,142,127,136,135,4,9,3,4,0.3,0.3
2023-06-22T22:00:00,1961A,117.532,36.6868,济南市,东山小学,,,,51,,15,266,95,253,212,48,35,4,7,0.4,0.4
2023-06-22T22:00:00,1966A,120.0405,35.8735,青岛市,黄岛区4号,细颗粒物(PM2.5),170,161,84,129,51,316,293,286,284,11,28,12,10,1.4,1
2023-06-22T22:00:00,1982A,122.0693,37.2174,威海市,文登开发区,,41,22,35,17,20,171,131,160,143,6,13,6,7,0.4,0.4
2023-06-22T22:00:00,2031A,113.1817,27.9958,株洲市,云田中学,,,22,14,,2,203,113,101,96,5,5,5,5,0.4,0.4
2023-06-22T22:00:00,2054A,114.1099,32.1059,信阳市,平桥分局,,,,30,,21,136,91,130,118,,17,,8,0.4,0.6
2023-06-22T22:00:00,2064A,113.9956,32.1271,信阳市,南湾水厂,,33,31,36,23,28,136,105,130,123,6,5,8,7,0.5,0.7
2023-06-22T22:00:00,2065A,114.0775,32.1195,信阳市,市酿酒公司,,34,34,30,22,24,139,91,131,117,15,15,8,8,0.6,0.7
2023-06-22T22:00:00,2066A,114.0609,32.1399,信阳市,审计局,,43,43,37,20,26,144,114,136,128,11,17,7,6,0.5,0.7
2023-06-22T22:00:00,2067A,114.6613,33.6128,周口市,市环境监测站,,49,34,59,34,30,226,137,209,189,20,19,4,5,0.6,0.7
2023-06-22T22:00:00,2068A,114.6758,33.6347,周口市,周口师范,,47,47,48,22,22,220,134,205,187,24,17,4,4,0.5,0.6
2023-06-22T22:00:00,2069A,114.6546,33.5979,周口市,市运管处,,,,49,24,24,223,130,207,190,22,19,4,2,0.7,1
2023-06-22T22:00:00,2070A,114.6369,33.6406,周口市,川汇区环保局,,47,47,48,24,21,214,136,199,182,13,13,5,5,0.6,0.7
2023-06-22T22:00:00,2075A,117.6336,24.4674,漳州市,九湖,,,,,,,,,,,,,,,,
2023-06-22T22:00:00,2160A,112.85,35.5051,晋城市,自来水公司,臭氧1小时,72,47,63,24,32,228,177,212,208,20,20,8,9,0.8,1
2023-06-22T22:00:00,2161A,112.8318,35.4936,晋城市,白云商贸,臭氧1小时,65,48,58,29,30,230,172,214,207,20,20,8,7,0.8,0.9
2023-06-22T22:00:00,2162A,112.8508,35.4887,晋城市,市环保局,颗粒物(PM10),53,56,66,27,38,204,150,193,185,23,33,8,8,0.7,0.9
2023-06-22T22:00:00,2163A,112.8676,35.4897,晋城市,技术学院,臭氧1小时,60,63,66,22,28,212,168,201,196,16,28,8,8,0.7,0.8
2023-06-22T22:00:00,2165A,112.8453,35.546,晋城市,白马寺,,,,,,,,,,,,,,,,
2023-06-22T22:00:00,2166A,112.4397,39.3522,朔州市,平朔,颗粒物(PM10),56,61,88,24,27,188,87,176,155,27,39,7,18,0.5,0.4
2023-06-22T22:00:00,2167A,112.4575,39.3617,朔州市,朔唯,颗粒物(PM10),58,66,108,16,32,194,104,182,163,29,48,12,21,0.4,0.5
2023-06-22T22:00:00,2168A,112.4258,39.3197,朔州市,区政府,,44,44,60,23,24,193,114,182,165,20,22,3,14,0.6,0.5
2023-06-22T22:00:00,2169A,112.4072,39.3278,朔州市,市环保局,,,50,59,31,24,198,,189,185,27,23,6,15,0.3,0.4
2023-06-22T22:00:00,2170A,112.4272,39.3681,朔州市,市二中,颗粒物(PM10),52,53,97,16,27,185,102,175,156,23,38,19,16,0.4,0.4
2023-06-22T22:00:00,2171A,112.7532,37.6945,晋中市,锦纶小区,颗粒物(PM10),82,113,40,24,18,248,76,227,192,86,28,11,11,0.6,0.3
2023-06-22T22:00:00,2173A,112.7249,37.7067,晋中市,南都小区,颗粒物(PM10),87,124,61,33,22,235,60,213,174,88,36,14,10,0.9,0.7
2023-06-22T22:00:00,2174A,112.6991,37.6982,晋中市,榆次区政府,颗粒物(PM10),78,106,51,30,17,236,109,210,182,59,32,12,12,0.9,0.4
2023-06-22T22:00:00,2175A,110.9956,35.0147,运城市,运城中学,臭氧1小时,53,34,56,16,28,176,162,168,168,6,6,7,5,0.4,0.6
2023-06-22T22:00:00,2178A,110.9686,35.0303,运城市,地区技校,臭氧1小时,60,41,52,14,29,180,168,174,174,7,8,6,5,0.4,0.6
2023-06-22T22:00:00,2179A,111.0414,35.1147,运城市,空港新区,,41,41,67,22,37,176,117,166,158,16,16,8,9,0.6,1.1
2023-06-22T22:00:00,2181A,112.7383,38.4519,忻州市,开发区,颗粒物(PM10),61,72,40,28,16,227,84,204,184,67,30,11,13,0.8,0.5
2023-06-22T22:00:00,2182A,112.7003,38.4928,忻州市,会展中心,颗粒物(PM10),73,95,51,36,18,193,52,179,147,78,38,10,10,0.8,0.5
2023-06-22T22:00:00,2183A,111.1406,37.5211,吕梁市,环保局,颗粒物(PM10),65,79,60,30,17,252,51,221,176,77,38,8,11,0.8,0.6
2023-06-22T22:00:00,2185A,111.1297,37.5136,吕梁市,自来水公司,颗粒物(PM10),60,70,75,22,17,245,90,216,177,40,33,9,12,0.9,0.7
2023-06-22T22:00:00,2187A,106.8174,39.6973,乌海市,市林业局,臭氧1小时,55,42,58,14,18,194,164,184,179,8,17,11,25,0.5,0.6
2023-06-22T22:00:00,2188A,106.7907,39.6667,乌海市,中海勃湾学校,,48,48,53,29,21,186,134,178,168,26,20,16,23,0.4,0.6
2023-06-22T22:00:00,2191A,122.2532,43.6801,通辽市,艺术职业学校,,42,42,32,15,16,166,82,160,145,37,20,4,4,0.4,0.3
2023-06-22T22:00:00,2192A,119.7594,49.2261,呼伦贝尔市,区环保局,,46,46,27,32,17,101,42,97,81,22,9,5,5,0.2,0.2
2023-06-22T22:00:00,2195A,107.4212,40.761,巴彦淖尔市,附二中,颗粒物(PM10),79,107,54,31,20,227,133,213,196,34,14,5,37,0.7,0.5
2023-06-22T22:00:00,2196A,107.37,40.7372,巴彦淖尔市,市环保大楼,颗粒物(PM10),62,73,49,28,19,228,130,200,184,31,14,5,6,0.8,0.5
2023-06-22T22:00:00,2197A,113.1306,40.9923,乌兰察布市,集宁新区,,45,33,35,20,19,181,142,174,167,18,24,20,24,0.5,0.5
2023-06-22T22:00:00,2200A,122.0392,46.0656,兴安盟,胜华新制药厂,,33,33,30,15,20,112,68,106,102,22,9,3,3,0.2,0.3
2023-06-22T22:00:00,2201A,121.9504,46.0741,兴安盟,科右前旗环保局,,,26,23,10,14,108,,104,104,15,6,3,4,0.4,0.4
2023-06-22T22:00:00,2202A,116.1042,43.9317,锡林郭勒盟,市环保监测站,,32,18,21,9,5,126,100,123,114,2,8,9,8,0.3,0.2
2023-06-22T22:00:00,2203A,116.0781,43.9311,锡林郭勒盟,市政府,,31,30,18,5,8,127,97,123,113,9,11,7,7,0.2,0.2
2023-06-22T22:00:00,2204A,105.6467,38.8363,阿拉善盟,西城区西花园,臭氧1小时,63,43,42,14,18,178,170,178,170,11,8,9,8,0.4,0.4
2023-06-22T22:00:00,2205A,105.6985,38.8411,阿拉善盟,蒙二幼,臭氧1小时,70,37,41,11,13,182,176,182,177,8,7,13,13,0.3,0.4
2023-06-22T22:00:00,2206A,105.724,38.8516,阿拉善盟,环保局新楼,臭氧1小时,79,30,33,18,20,192,183,186,185,7,6,12,11,0.5,0.4
2023-06-22T22:00:00,2207A,121.6094,41.998,阜新市,工业园区,,39,36,39,18,13,166,122,158,152,22,28,8,9,0.7,0.8
2023-06-22T22:00:00,2208A,121.6697,42.0279,阜新市,长青街,,38,34,35,21,16,166,120,157,151,16,23,11,14,0.9,1.4
2023-06-22T22:00:00,2209A,121.6673,42.0705,阜新市,农业园区,,42,27,27,29,16,176,133,168,162,15,13,11,31,0.7,1.1
2023-06-22T22:00:00,2210A,121.6717,42.0224,阜新市,东苑,,43,32,38,26,20,163,137,157,155,15,18,17,17,0.8,1.1
2023-06-22T22:00:00,2211A,121.6506,42.0498,阜新市,玉龙新城,,41,41,35,24,17,194,74,178,163,34,25,8,14,0.6,0.9
2023-06-22T22:00:00,2212A,123.2,41.1953,辽阳市,宏伟区,,46,44,37,32,38,168,68,148,137,33,21,9,9,0.7,0.8
2023-06-22T22:00:00,2213A,123.1683,41.2495,辽阳市,新华园,,50,50,51,26,23,201,85,173,162,35,29,12,12,0.9,1
2023-06-22T22:00:00,2214A,123.2354,41.2639,辽阳市,滨河路,,45,45,44,21,24,175,45,151,131,54,29,11,15,0.7,0.8
2023-06-22T22:00:00,2215A,123.149,41.2991,辽阳市,铁西工业园,颗粒物(PM10),56,62,63,26,26,225,67,189,167,46,28,9,13,0.7,0.9
2023-06-22T22:00:00,2216A,123.8139,42.3022,铁岭市,汇工街西,,35,32,30,12,13,181,54,165,139,47,27,104,31,0.4,0.4
2023-06-22T22:00:00,2217A,123.8649,42.2923,铁岭市,水上乐园,,27,20,21,14,10,162,86,146,131,27,24,12,12,0.3,0.3
2023-06-22T22:00:00,2218A,123.8486,42.2867,铁岭市,银州路东段,,27,10,23,2,9,167,85,154,136,28,22,5,5,0.3,0.3
2023-06-22T22:00:00,2219A,123.7153,42.2217,铁岭市,金沙江路北,,38,38,24,8,11,162,74,152,138,32,26,7,6,0.4,0.5
2023-06-22T22:00:00,2220A,120.4318,41.5881,朝阳市,西梁,,,,40,,18,210,154,179,178,,21,15,16,0.7,0.8
2023-06-22T22:00:00,2221A,120.4521,41.5646,朝阳市,河畔小区,臭氧1小时,69,12,32,17,15,227,175,196,196,5,12,11,10,0.6,0.7
2023-06-22T22:00:00,2222A,120.4176,41.5648,朝阳市,八里堡,,,27,44,19,21,231,,195,195,8,25,16,13,0.6,0.7
2023-06-22T22:00:00,2223A,120.3806,41.5969,朝阳市,农业园区,,50,17,39,15,17,232,160,198,194,7,17,17,16,0.6,0.8
2023-06-22T22:00:00,2225A,124.4002,43.1713,四平市,一商场,,28,28,32,17,18,162,77,152,137,40,32,8,7,0.4,0.4
2023-06-22T22:00:00,2226A,124.388,43.193,四平市,境园,,37,25,21,10,14,152,5,145,118,74,27,8,8,0.4,0.4
2023-06-22T22:00:00,2227A,125.1358,42.8845,辽源市,环保局,,22,15,20,9,15,141,70,134,121,27,22,5,6,0.6,0.6
2023-06-22T22:00:00,2229A,125.9358,41.7173,通化市,光明,,16,16,12,6,7,107,45,103,83,17,11,7,8,0.3,0.3
2023-06-22T22:00:00,2230A,125.9446,41.7325,通化市,铁路,,21,21,12,11,4,106,37,102,81,17,13,9,8,0.4,0.2
2023-06-22T22:00:00,2231A,126.4219,41.9171,白山市,喜丰,,24,24,18,7,6,110,35,106,88,18,12,7,7,0.5,0.5
2023-06-22T22:00:00,2232A,126.4077,41.9419,白山市,环保局,,35,35,20,10,8,106,29,97,77,17,12,4,8,0.5,0.6
2023-06-22T22:00:00,2233A,124.8006,45.1214,松原市,江南,,33,32,32,22,25,159,105,146,123,20,22,5,6,0.5,0.6
2023-06-22T22:00:00,2234A,124.7965,45.1722,松原市,江北,细颗粒物(PM2.5),52,48,28,36,28,143,43,126,90,35,24,3,4,0.7,0.6
2023-06-22T22:00:00,2235A,122.7911,45.6077,白城市,洮北区环保局,,23,19,22,4,7,122,71,114,106,15,14,3,3,0.0,0.1
2023-06-22T22:00:00,2236A,122.8738,45.5725,白城市,市环保局,,29,20,22,7,12,128,91,122,118,11,15,3,3,0.2,0.2
2023-06-22T22:00:00,2237A,129.47,42.8883,延边朝鲜族自治州,妇幼医院,,12,12,10,8,8,62,29,54,48,10,12,8,8,0.6,0.6
2023-06-22T22:00:00,2238A,129.5055,42.9108,延边朝鲜族自治州,延边医院,,35,21,14,24,11,65,26,62,49,28,14,8,7,0.8,0.6
2023-06-22T22:00:00,2239A,129.3964,42.8881,延边朝鲜族自治州,朝阳川镇医院,,15,15,9,9,6,73,32,65,54,10,6,8,8,0.6,0.5
2023-06-22T22:00:00,2240A,130.9762,45.3001,鸡西市,环保局,,20,20,22,12,12,68,51,62,60,13,19,3,6,0.3,0.3
2023-06-22T22:00:00,2243A,130.9429,45.3039,鸡西市,第一中学,,16,10,17,9,10,80,50,70,67,9,12,4,5,0.2,0.3
2023-06-22T22:00:00,2244A,130.2537,47.3416,鹤岗市,哈啤分公司,,19,18,12,13,10,70,52,65,63,6,5,10,11,0.2,0.2
2023-06-22T22:00:00,2245A,130.2684,47.3086,鹤岗市,斯达机电,,20,17,11,10,8,74,63,66,66,5,6,10,10,0.1,0.2
2023-06-22T22:00:00,2246A,130.3114,47.3388,鹤岗市,东山纸板厂,,36,36,14,6,7,75,53,64,60,7,6,9,9,0.3,0.3
2023-06-22T22:00:00,2247A,130.1097,47.3382,鹤岗市,五号水库,,13,4,9,3,6,70,41,66,56,5,5,8,8,0.5,0.5
2023-06-22T22:00:00,2248A,131.1511,46.6937,双鸭山市,双合村,颗粒物(PM10),57,64,19,17,8,95,15,84,65,29,9,31,10,2.3,0.3
2023-06-22T22:00:00,2249A,131.1652,46.6191,双鸭山市,南小市,,12,12,19,7,10,108,32,86,58,6,7,4,4,0.2,0.2
2023-06-22T22:00:00,2250A,131.1524,46.6554,双鸭山市,环保局,,19,17,10,13,7,95,32,79,60,15,10,11,8,0.6,0.3
2023-06-22T22:00:00,2251A,131.12,46.5656,双鸭山市,苗圃,,30,16,13,21,6,98,29,77,51,4,5,3,3,0.3,0.3
2023-06-22T22:00:00,2252A,128.5159,47.4311,伊春市,环保局,,15,9,13,0,2,76,46,71,62,10,8,4,5,0.3,0.3
2023-06-22T22:00:00,2253A,128.9102,47.7412,伊春市,电力嘉园,,22,20,18,15,13,81,25,76,62,14,6,6,5,0.2,0.1
2023-06-22T22:00:00,2254A,129.5029,48.471,伊春市,汤旺河国家公园,,25,16,16,17,14,76,25,65,60,3,2,13,12,0.1,0.1
2023-06-22T22:00:00,2255A,130.2751,46.8028,佳木斯市,佳纺,,25,25,14,13,8,90,21,85,68,41,11,7,8,0.4,0.4
2023-06-22T22:00:00,2256A,130.3995,46.8307,佳木斯市,发电厂,,44,44,20,11,9,86,38,84,74,22,8,8,12,0.5,0.4
2023-06-22T22:00:00,2257A,130.3258,46.7975,佳木斯市,环保局,,25,21,14,13,9,86,8,79,58,50,16,5,5,0.6,0.5
2023-06-22T22:00:00,2258A,130.3648,46.8032,佳木斯市,十一中,,22,22,13,15,9,89,32,82,69,42,11,9,8,0.6,0.4
2023-06-22T22:00:00,2259A,130.3794,46.7588,佳木斯市,四丰,,16,16,12,9,6,116,46,110,86,30,10,1,1,0.3,0.3
2023-06-22T22:00:00,2262A,131.0518,45.8751,七台河市,新一中,,29,29,24,19,12,103,55,90,85,10,8,9,8,0.8,0.8
2023-06-22T22:00:00,2263A,127.4833,50.2524,黑河市,交通局,,25,19,9,17,10,60,16,56,38,18,11,2,2,0.5,0.3
2023-06-22T22:00:00,2264A,127.5144,50.2341,黑河市,环保局,,,26,9,19,10,68,15,62,49,,5,5,2,0.4,0.3
2023-06-22T22:00:00,2265A,127.5291,50.2472,黑河市,大黑河岛,,22,16,9,15,7,72,10,69,52,13,3,14,18,0.4,0.3
2023-06-22T22:00:00,2266A,126.9785,46.6365,绥化市,人和东街,,24,24,23,9,9,109,71,97,93,25,20,8,8,0.3,0.4
2023-06-22T22:00:00,2267A,126.964,46.6528,绥化市,党政办公中心,,26,12,13,4,8,115,83,104,100,18,16,9,9,0.2,0.3
2023-06-22T22:00:00,2269A,124.1069,50.4097,大兴安岭地区,科技局,,40,22,10,13,8,128,128,71,71,3,3,6,7,0.1,0.3
2023-06-22T22:00:00,2270A,117.396,32.939,蚌埠市,工人疗养院,,45,45,66,27,43,226,137,201,180,14,20,15,12,0.5,0.6
2023-06-22T22:00:00,2271A,117.3605,32.9427,蚌埠市,百货大楼,颗粒物(PM10),51,51,67,31,40,227,141,208,186,12,21,12,10,0.6,0.6
2023-06-22T22:00:00,2273A,117.4185,32.8911,蚌埠市,蚌埠学院,,44,44,67,28,43,217,131,188,166,15,23,12,13,0.5,0.7
2023-06-22T22:00:00,2274A,117.3533,32.9673,蚌埠市,淮上区政府,,48,48,69,24,45,219,147,202,184,12,37,11,13,0.5,0.6
2023-06-22T22:00:00,2275A,117.3145,32.8977,蚌埠市,高新区,颗粒物(PM10),57,63,70,31,42,218,118,201,175,23,24,18,13,0.5,0.6
2023-06-22T22:00:00,2277A,116.8305,32.7727,淮南市,潘集区政府,,41,41,58,24,35,183,125,174,158,14,19,6,7,0.4,0.4
2023-06-22T22:00:00,2278A,117.0067,32.6524,淮南市,师范学院,,41,41,58,26,36,182,131,180,165,7,25,3,3,0.4,0.5
2023-06-22T22:00:00,2279A,116.8569,32.5951,淮南市,谢家集区政府,,46,46,36,14,19,186,122,178,162,17,16,5,8,0.3,0.3
2023-06-22T22:00:00,2280A,116.8281,32.633,淮南市,八公山区政府,,45,36,46,22,27,188,143,178,164,8,11,7,9,0.2,0.3
2023-06-22T22:00:00,2281A,116.6325,32.6201,淮南市,焦岗湖风景区管理处,,38,37,46,19,28,171,119,165,150,6,32,5,5,0.4,0.4
2023-06-22T22:00:00,2282A,116.8004,33.975,淮北市,监测站,,48,48,55,22,28,214,138,205,186,30,27,7,8,0.6,0.7
2023-06-22T22:00:00,2283A,116.8091,33.9007,淮北市,烈山区政府,颗粒物(PM10),53,55,68,20,40,223,127,213,191,34,40,11,9,0.5,0.7
2023-06-22T22:00:00,2285A,117.8177,30.9412,铜陵市,市第四中学,,50,50,60,32,37,130,62,110,98,20,21,6,7,0.8,0.6
2023-06-22T22:00:00,2286A,117.8059,30.9273,铜陵市,市公路局,,43,43,59,27,37,146,81,125,117,18,19,8,7,0.9,0.7
2023-06-22T22:00:00,2287A,117.7807,30.9413,铜陵市,市新民污水厂,颗粒物(PM10),57,63,75,29,33,135,53,90,78,29,48,8,10,1.0,0.8
2023-06-22T22:00:00,2288A,117.7439,30.8792,铜陵市,市第九中学,,33,33,87,16,37,113,99,87,87,10,59,5,7,0.5,1.2
2023-06-22T22:00:00,2289A,117.846,30.9413,铜陵市,车站新区,,47,47,57,22,30,136,64,114,103,22,26,2,3,0.7,0.6
2023-06-22T22:00:00,2290A,117.8483,30.97,铜陵市,市职教基地,,45,45,52,22,31,127,64,115,105,20,20,3,5,1.0,0.9
2023-06-22T22:00:00,2291A,117.0809,30.5177,安庆市,环科院,,34,29,42,13,30,155,36,118,104,67,28,9,14,0.5,0.6
2023-06-22T22:00:00,2292A,117.0331,30.5119,安庆市,马山宾馆,,27,26,39,11,29,162,48,134,104,54,25,8,6,0.3,0.5
2023-06-22T22:00:00,2294A,116.9896,30.6145,安庆市,安庆大学,,24,24,47,16,35,156,53,109,87,33,18,8,8,0.4,0.6
2023-06-22T22:00:00,2295A,118.2903,29.6963,黄山市,延安路89号,,47,47,52,13,15,100,69,78,78,6,7,5,5,0.4,0.5
2023-06-22T22:00:00,2296A,118.327,29.7178,黄山市,黄山东路89号,,31,31,38,14,15,90,69,75,75,6,8,4,4,0.4,0.5
2023-06-22T22:00:00,2297A,118.1371,30.2756,黄山市,黄山区政府5号楼,,27,27,40,13,19,114,41,90,67,6,8,6,6,0.4,0.6
2023-06-22T22:00:00,2298A,118.3093,32.3153,滁州市,老年大学,臭氧1小时,73,50,38,37,27,191,178,181,180,16,15,8,9,0.5,0.5
2023-06-22T22:00:00,2299A,118.3244,32.2786,滁州市,人大宾馆,颗粒物(PM10),58,66,40,38,33,205,123,190,167,31,24,8,9,0.7,0.5
2023-06-22T22:00:00,2301A,115.8277,32.8929,阜阳市,市监测站,,42,33,46,23,31,174,134,166,158,14,27,8,9,0.6,0.7
2023-06-22T22:00:00,2303A,115.8554,32.8605,阜阳市,开发区,,45,45,57,10,28,180,122,171,162,16,33,5,7,0.5,0.6
2023-06-22T22:00:00,2307A,116.5079,31.737,六安市,监测大楼,,37,12,33,10,19,164,116,149,136,7,8,2,2,0.3,0.5
2023-06-22T22:00:00,2308A,116.4738,31.7643,六安市,皖西学院,,42,23,40,12,18,178,132,159,146,6,11,6,7,0.2,0.4
2023-06-22T22:00:00,2309A,116.4996,31.7905,六安市,朝阳厂,,40,16,33,6,21,175,127,160,144,9,11,6,7,0.4,0.6
2023-06-22T22:00:00,2310A,116.5567,31.7886,六安市,开发区,,43,43,51,23,29,172,98,154,134,13,12,6,8,0.4,0.5
2023-06-22T22:00:00,2311A,115.8072,33.8399,亳州市,污水处理厂,,50,42,42,26,26,222,158,202,195,9,14,7,8,0.4,0.5
2023-06-22T22:00:00,2312A,115.7789,33.8518,亳州市,三国揽胜宫,,50,45,41,22,21,217,157,206,201,11,9,5,6,0.8,0.9
2023-06-22T22:00:00,2314A,117.47,30.6618,池州市,池州学院,,24,24,47,14,31,131,70,99,91,11,17,5,6,0.9,1.1
2023-06-22T22:00:00,2316A,118.7581,30.9454,宣城市,鳌峰子站,颗粒物(PM10),56,62,60,36,39,101,36,99,80,16,18,9,8,0.7,0.7
2023-06-22T22:00:00,2317A,118.7385,30.9743,宣城市,敬亭山子站,颗粒物(PM10),53,55,58,35,40,117,50,96,77,16,19,6,7,0.6,0.7
2023-06-22T22:00:00,2318A,118.7173,30.9427,宣城市,开发区子站,颗粒物(PM10),61,71,56,39,42,108,48,101,81,16,20,4,7,0.6,0.6
2023-06-22T22:00:00,2319A,119.0141,25.4325,莆田市,荔城区仓后路,,28,16,30,7,17,127,87,111,94,11,10,6,8,0.7,0.4
2023-06-22T22:00:00,2320A,119.0015,25.4553,莆田市,莆田市监测站,,21,19,29,1,11,128,67,115,92,4,4,6,7,0.6,0.5
2023-06-22T22:00:00,2321A,119.1119,25.4561,莆田市,涵江区六中,,34,18,26,16,14,123,106,110,100,4,7,7,8,0.7,0.5
2023-06-22T22:00:00,2322A,119.1013,25.3215,莆田市,秀屿区政府,,37,17,26,20,16,118,118,95,95,2,7,8,10,0.8,0.6
2023-06-22T22:00:00,2323A,118.981,25.4792,莆田市,东圳水库,,,,,,,,,,,,,,,,
2023-06-22T22:00:00,2324A,117.6211,26.2625,三明市,三钢,,19,16,32,13,16,113,30,78,57,14,15,6,10,0.2,0.9
2023-06-22T22:00:00,2325A,117.635,26.2714,三明市,三明二中,,19,11,27,13,14,116,34,81,60,14,16,3,7,0.4,1.1
2023-06-22T22:00:00,2326A,117.6028,26.2378,三明市,三元区政府,,18,18,43,7,20,117,30,82,60,14,17,6,14,0.9,1.2
2023-06-22T22:00:00,2327A,117.7275,26.3108,三明市,洋溪,,,,,,,,,,,,,,,,
2023-06-22T22:00:00,2331A,118.0966,26.6761,南平市,茫荡山,,,,,,,,,,,,,,,,
2023-06-22T22:00:00,2332A,118.1681,26.6369,南平市,南平市监测站,,18,18,22,7,12,79,39,67,49,10,9,4,4,0.7,0.7
2023-06-22T22:00:00,2333A,118.1825,26.6489,南平市,南平铝业有限公司,,27,27,23,6,10,74,47,65,52,8,11,5,6,0.6,0.7
2023-06-22T22:00:00,2334A,118.1756,26.6272,南平市,南平七中,,19,19,23,7,12,79,35,68,50,9,6,3,4,0.6,0.6
2023-06-22T22:00:00,2335A,117.0189,25.1181,龙岩市,龙岩师专,,,,,,,,,,,,,,,,
2023-06-22T22:00:00,2336A,117.0217,25.1033,龙岩市,龙岩市监测站,,11,11,20,7,8,74,22,68,54,16,12,15,8,0.6,0.5
2023-06-22T22:00:00,2337A,117.0258,25.0661,龙岩市,闽西职业技术学院,,33,33,26,8,9,70,17,67,51,23,11,8,9,0.4,0.4
2023-06-22T22:00:00,2338A,117.0196,25.0306,龙岩市,龙岩学院,,16,16,16,5,8,70,33,65,56,6,6,2,4,0.3,0.4
2023-06-22T22:00:00,2339A,119.5001,26.6946,宁德市,金涵水库,,,,,,,,,,,,,,,,
2023-06-22T22:00:00,2341A,119.5388,26.6612,宁德市,宁德市监测站,,35,8,24,10,17,119,112,114,114,2,6,6,7,0.6,0.6
2023-06-22T22:00:00,2342A,117.3102,29.3867,景德镇市,王港中学,,50,30,29,19,18,158,158,120,120,2,3,7,7,0.4,0.7
2023-06-22T22:00:00,2343A,117.2117,29.2933,景德镇市,老干部活动中心,颗粒物(PM10),52,54,50,30,24,116,97,95,95,8,9,3,4,0.5,0.6
2023-06-22T22:00:00,2344A,117.1894,29.2789,景德镇市,兽医站,,36,32,28,25,24,119,104,102,102,10,8,6,7,0.4,0.5
2023-06-22T22:00:00,2345A,117.1547,29.2617,景德镇市,台达陶瓷,,38,27,32,26,23,122,96,98,98,6,13,4,6,0.5,0.6
2023-06-22T22:00:00,2346A,117.2461,29.2956,景德镇市,陶研所,,32,32,39,19,17,126,91,96,96,3,4,3,6,0.3,0.4
2023-06-22T22:00:00,2347A,114.0997,27.5002,萍乡市,武功山,,25,4,5,4,4,78,77,73,73,5,6,19,20,0.2,0.3
2023-06-22T22:00:00,2348A,113.8385,27.6434,萍乡市,中医院,,33,9,14,12,13,106,104,95,95,6,5,7,9,0.6,0.7
2023-06-22T22:00:00,2349A,113.8493,27.6253,萍乡市,市政府车库,,34,16,17,11,11,110,106,99,99,7,9,9,12,0.8,0.9
2023-06-22T22:00:00,2350A,113.8676,27.6435,萍乡市,市环保局,,35,10,13,9,8,111,110,100,100,4,3,5,9,0.4,0.5
2023-06-22T22:00:00,2351A,113.866,27.6198,萍乡市,安源区政府,,29,11,10,7,6,95,90,90,90,12,12,11,11,1.2,1
2023-06-22T22:00:00,2352A,115.0861,27.9317,新余市,北岗,,35,15,15,12,11,116,110,103,103,4,7,12,11,0.7,0.6
2023-06-22T22:00:00,2353A,114.9886,27.8431,新余市,飞宇,,44,44,31,3,12,109,104,94,94,9,20,8,8,0.5,0.5
2023-06-22T22:00:00,2354A,114.9231,27.8246,新余市,第二水厂,,36,20,26,10,12,116,114,99,99,8,10,7,7,0.3,0.4
2023-06-22T22:00:00,2355A,114.9308,27.8036,新余市,市气象局,,34,22,24,12,15,111,108,90,90,4,8,7,7,0.4,0.6
2023-06-22T22:00:00,2357A,116.9822,28.1136,鹰潭市,龙虎山,,38,20,15,14,10,131,119,115,115,2,2,2,2,0.6,0.8
2023-06-22T22:00:00,2358A,117.0564,28.2642,鹰潭市,新监测站,,32,17,26,18,19,137,102,120,120,12,9,7,10,0.5,0.6
2023-06-22T22:00:00,2359A,117.0311,28.2475,鹰潭市,财苑宾馆,,30,24,24,19,18,138,93,124,122,6,6,7,10,0.5,0.6
2023-06-22T22:00:00,2360A,117.0222,28.2264,鹰潭市,体育馆,,35,27,24,24,16,133,101,118,117,8,13,1,5,0.6,0.8
2023-06-22T22:00:00,2361A,117.0017,28.2131,鹰潭市,三川水表,,34,28,24,14,13,129,107,115,115,9,13,1,5,0.5,0.7
2023-06-22T22:00:00,2362A,114.9017,25.9149,赣州市,通天岩,,,,,,,,,,,,,,,,
2023-06-22T22:00:00,2363A,114.9367,25.8664,赣州市,地委,,23,23,32,12,17,86,29,73,52,8,9,15,4,1.2,1.2
2023-06-22T22:00:00,2364A,114.9461,25.8481,赣州市,气象台,,24,24,27,8,13,98,51,88,69,8,8,11,8,0.7,0.7
2023-06-22T22:00:00,2365A,114.9322,25.8333,赣州市,市图书馆,,19,19,27,12,15,99,49,84,65,9,10,9,8,1.1,1.1
2023-06-22T22:00:00,2366A,114.8905,25.8471,赣州市,华坚鞋城,,27,27,31,8,12,92,33,78,57,10,10,7,6,0.9,0.9
2023-06-22T22:00:00,2367A,114.9754,27.0803,吉安市,红声器材厂,,,,24,,11,84,81,78,78,8,10,10,7,0.8,0.6
2023-06-22T22:00:00,2368A,114.9658,27.0999,吉安市,市森林工业局,,25,16,18,10,10,81,79,77,77,4,6,7,8,0.4,0.5
2023-06-22T22:00:00,2369A,114.99,27.1312,吉安市,市环境监测站,,27,19,19,11,9,86,86,82,82,6,10,8,8,0.6,0.7
2023-06-22T22:00:00,2370A,115.0093,27.0968,吉安市,青原区法院,,,15,18,12,12,81,,77,77,9,13,12,11,0.2,0.2
2023-06-22T22:00:00,2371A,114.3408,27.8064,宜春市,槟榔水业,,30,21,16,15,8,101,94,92,92,2,4,2,2,0.5,0.5
2023-06-22T22:00:00,2373A,114.3956,27.7844,宜春市,市石油公司,,34,24,21,14,11,118,106,103,103,7,9,5,6,0.3,0.3
2023-06-22T22:00:00,2374A,114.3703,27.7914,宜春市,市气象局,,,,22,,15,117,116,107,107,,12,,4,0.5,0.6
2023-06-22T22:00:00,2375A,114.4013,27.8074,宜春市,市广电局,,36,17,19,18,14,114,113,105,105,5,7,12,8,0.6,0.7
2023-06-22T22:00:00,2376A,116.2127,28.0814,抚州市,桐源党溪,,31,18,30,13,20,145,99,121,121,2,3,3,4,0.5,1.1
2023-06-22T22:00:00,2377A,116.3544,27.9831,抚州市,市站,,32,32,29,20,16,117,98,102,102,5,7,1,2,0.7,0.9
2023-06-22T22:00:00,2378A,116.3565,27.963,抚州市,血防站,,33,33,30,18,13,113,91,96,96,6,6,1,1,0.6,0.6
2023-06-22T22:00:00,2379A,116.3564,28.0007,抚州市,采茶剧团,,33,28,25,19,16,112,105,100,100,6,8,5,5,0.9,1
2023-06-22T22:00:00,2380A,116.385,27.9647,抚州市,医学分院,,30,26,24,17,14,114,94,98,98,7,8,4,4,0.8,0.8
2023-06-22T22:00:00,2381A,118.005,28.4572,上饶市,百草园,,39,21,34,27,20,107,98,93,93,10,8,13,10,0.5,0.6
2023-06-22T22:00:00,2382A,117.9756,28.4436,上饶市,市监测站,,36,26,37,18,22,122,113,111,111,9,12,27,21,0.4,0.6
2023-06-22T22:00:00,2383A,117.9519,28.4628,上饶市,凤凰光学,,35,31,34,18,20,122,111,106,106,2,14,6,13,0.5,0.7
2023-06-22T22:00:00,2385A,114.17,35.9019,鹤壁市,市监测站,,,41,58,32,30,238,,219,219,20,23,7,6,0.7,0.6
2023-06-22T22:00:00,2386A,114.2956,35.7511,鹤壁市,市交警支队,臭氧1小时,58,50,59,24,27,246,166,230,216,23,32,10,14,0.5,0.6
2023-06-22T22:00:00,2387A,114.2878,35.7306,鹤壁市,迎宾馆,臭氧1小时,79,42,59,34,30,256,183,238,227,22,29,8,8,0.5,0.7
2023-06-22T22:00:00,2389A,113.836,35.311,新乡市,环保西院,颗粒物(PM10),51,51,59,24,31,230,148,214,203,27,21,6,8,0.6,0.5
2023-06-22T22:00:00,2390A,113.884,35.272,新乡市,开发区,颗粒物(PM10),53,56,64,22,30,243,151,222,208,25,20,3,3,0.6,0.7
2023-06-22T22:00:00,2391A,113.883,35.303,新乡市,环保东院,颗粒物(PM10),70,90,62,26,24,239,154,220,208,27,20,6,9,0.6,0.7
2023-06-22T22:00:00,2392A,115.0312,35.7636,濮阳市,环保局,臭氧1小时,77,28,56,19,23,230,181,214,208,14,16,5,6,0.6,0.7
2023-06-22T22:00:00,2394A,115.0574,35.7609,濮阳市,油田运输公司,颗粒物(PM10),55,60,61,21,27,224,156,209,200,18,18,5,6,0.4,0.5
2023-06-22T22:00:00,2395A,115.0866,35.7754,濮阳市,油田物探公司,臭氧1小时,73,43,57,21,28,232,178,217,210,14,16,4,4,0.5,0.5
2023-06-22T22:00:00,2396A,113.8276,34.0159,许昌市,监测站,,48,48,45,13,28,211,113,190,171,19,22,3,2,0.6,0.7
2023-06-22T22:00:00,2398A,113.7906,33.9953,许昌市,开发区,颗粒物(PM10),52,53,47,12,30,210,89,185,160,22,28,3,3,0.6,0.7
2023-06-22T22:00:00,2399A,114.051,33.5699,漯河市,三五一五工厂,颗粒物(PM10),53,56,44,27,25,192,116,183,165,24,18,8,5,0.6,0.6
2023-06-22T22:00:00,2400A,114.0055,33.5698,漯河市,漯河大学,颗粒物(PM10),53,56,45,19,24,200,114,193,173,33,20,12,8,0.5,0.5
2023-06-22T22:00:00,2401A,114.0138,33.5828,漯河市,市水利局,,,,45,24,22,194,119,187,176,23,14,10,7,0.6,0.7
2023-06-22T22:00:00,2402A,114.0261,33.5698,漯河市,市广电局,,46,46,42,27,21,198,136,190,175,16,15,10,9,0.5,0.5
2023-06-22T22:00:00,2404A,112.5224,33.0122,南阳市,瓦房庄,,34,29,44,7,23,154,106,142,133,16,17,4,8,0.4,0.6
2023-06-22T22:00:00,2405A,112.5003,32.9735,南阳市,汉画馆,,33,33,50,17,38,143,98,136,129,15,17,4,5,0.5,0.6
2023-06-22T22:00:00,2406A,112.5573,33.027,南阳市,气象站,,35,34,66,15,30,157,110,147,136,13,23,4,6,0.3,0.5
2023-06-22T22:00:00,2407A,112.5481,32.9689,南阳市,理工学院,,32,32,52,9,30,149,100,142,132,17,20,4,6,0.4,0.5
2023-06-22T22:00:00,2408A,115.6702,34.4285,商丘市,环境监测站,臭氧1小时,70,46,44,29,22,218,176,207,202,15,12,10,9,0.4,0.5
2023-06-22T22:00:00,2409A,115.6458,34.4045,商丘市,粮食局,臭氧1小时,67,61,48,27,19,232,173,219,211,17,15,10,10,0.6,0.6
2023-06-22T22:00:00,2410A,115.6293,34.3948,商丘市,睢阳区环保局,颗粒物(PM10),56,61,55,33,27,225,132,213,196,36,30,4,4,0.6,0.5
2023-06-22T22:00:00,2420A,114.0189,32.9656,驻马店市,市一纸厂,,,29,37,,18,185,,174,160,10,17,3,4,,0.6
2023-06-22T22:00:00,2421A,114.0114,33.015,驻马店市,市彩印厂,,42,42,41,16,15,182,101,175,155,7,10,4,5,0.5,0.5
2023-06-22T22:00:00,2422A,113.9976,32.9771,驻马店市,天方二分厂,,36,36,33,22,18,183,95,170,148,9,10,4,5,0.2,0.3
2023-06-22T22:00:00,2423A,115.0601,30.2313,黄石市,沈家营,,36,30,50,17,22,114,114,86,86,11,20,10,9,0.5,0.5
2023-06-22T22:00:00,2424A,115.0817,30.2006,黄石市,陈家湾,,41,31,58,17,27,131,131,111,111,2,22,8,8,0.5,0.6
2023-06-22T22:00:00,2426A,114.8988,30.2019,黄石市,铁山,,40,25,42,12,22,125,125,107,107,9,21,4,8,0.5,0.7
2023-06-22T22:00:00,2427A,115.0307,30.2092,黄石市,团城山,,40,29,49,13,21,125,125,107,107,4,16,8,12,0.5,0.6
2023-06-22T22:00:00,2428A,111.0419,32.395,十堰市,武当山,,35,16,18,14,10,129,111,120,113,5,5,7,7,0.7,0.7
2023-06-22T22:00:00,2429A,110.78,32.6494,十堰市,滨河新村,,44,44,35,18,18,122,54,108,89,11,5,5,5,0.8,0.7
2023-06-22T22:00:00,2430A,110.7258,32.6389,十堰市,刘家沟,,28,22,28,19,14,117,75,100,87,3,3,8,8,0.4,0.4
2023-06-22T22:00:00,2431A,110.8839,32.5714,十堰市,铁二处,,23,21,29,9,12,134,72,120,102,1,2,7,7,0.5,0.5
2023-06-22T22:00:00,2432A,112.155,32.0197,襄阳市,襄城运动路,,31,31,41,12,21,128,91,124,120,24,15,6,6,0.9,0.9
2023-06-22T22:00:00,2433A,112.1392,32.0564,襄阳市,樊城新华路,,36,28,40,18,23,130,113,123,121,16,16,6,7,0.7,0.8
2023-06-22T22:00:00,2434A,112.1825,32.1142,襄阳市,高新管委会,,35,33,49,20,27,162,110,143,136,14,22,11,8,0.8,0.8
2023-06-22T22:00:00,2435A,112.2106,32.0903,襄阳市,襄州航空路,,29,28,46,15,19,133,92,122,116,11,18,7,6,0.7,0.8
2023-06-22T22:00:00,2436A,114.8938,30.3994,鄂州市,市政府,,29,24,49,18,20,124,90,112,97,16,27,8,7,0.5,0.4
2023-06-22T22:00:00,2437A,114.8989,30.3714,鄂州市,赵家坝,,29,29,46,14,17,119,81,106,90,18,20,4,6,0.5,0.5
2023-06-22T22:00:00,2439A,112.2014,31.0481,荆门市,竹园小学,颗粒物(PM10),51,52,39,24,18,145,77,129,116,21,16,10,10,0.8,0.6
2023-06-22T22:00:00,2440A,112.1969,30.9891,荆门市,掇刀,,36,36,34,23,18,132,93,115,115,16,16,5,6,0.7,0.6
2023-06-22T22:00:00,2441A,112.2213,31.0386,荆门市,石化一小,,48,48,39,19,16,145,76,128,121,29,19,8,8,0.6,0.5
2023-06-22T22:00:00,2443A,113.9153,30.9285,孝感市,文化路,,29,18,29,10,20,142,90,132,115,26,11,7,6,1.1,0.8
2023-06-22T22:00:00,2444A,113.942,30.9075,孝感市,东城区,,29,25,31,13,18,146,91,132,116,18,10,7,7,1.0,0.7
