timepoint,stationcode,longitude,latitude,area,positionname,primarypollutant,aqi,pm10,pm10_24h,pm2_5,pm2_5_24h,o3,o3_24h,o3_8h,o3_8h_24h,no2,no2_24h,so2,so2_24h,co,co_24h
2025-04-24T0200,2566A,102.1879,31.914,阿坝藏族羌族自治州,州农科所,,12,10,20,3,6,38,,,,6,8,12,12,0.5,0.5
2025-04-24T0200,2568A,102.2502,31.8896,阿坝藏族羌族自治州,马师校,,16,15,17,11,15,28,,,,7,11,6,6,0.5,0.5
2025-04-24T0200,3994A,102.2165,31.9024,阿坝藏族羌族自治州,马尔康中学西区,,14,12,15,8,10,42,,,,4,5,4,4,0.5,0.5
2025-04-24T0200,2695A,80.292,41.1694,阿克苏地区,电视台,颗粒物(PM10),110,170,303,57,68,52,,,,28,9,6,5,0.6,0.4
2025-04-24T0200,2696A,80.2613,41.1551,阿克苏地区,艺术中心,颗粒物(PM10),125,200,341,79,98,12,,,,70,18,4,4,1.1,0.3
2025-04-24T0200,2204A,105.6467,38.8363,阿拉善盟,西城区西花园,,34,34,64,8,17,103,,,,6,9,5,5,0.5,0.6
2025-04-24T0200,2205A,105.6985,38.8411,阿拉善盟,蒙二幼,,30,25,59,6,16,94,,,,6,7,7,6,0.5,0.5
2025-04-24T0200,2206A,105.724,38.8516,阿拉善盟,环保局新楼,,33,19,53,6,16,103,,,,2,3,7,7,0.3,0.3
2025-04-24T0200,2708A,88.1264,47.8517,阿勒泰地区,市站,,27,20,1268,6,5,86,,,,2,6,2,3,0.3,0.3
2025-04-24T0200,2630A,80.1161,32.5,阿里地区,阿里监测站,,37,,20,12,9,116,,,,1,4,6,5,0.4,0.4
2025-04-24T0200,3192A,80.0903,32.5028,阿里地区,阿里藏医院,,39,14,30,3,9,124,,,,1,3,6,7,0.2,0.3
2025-04-24T0200,2642A,109.0318,32.6537,安康市,香溪洞,颗粒物(PM10),52,54,97,24,46,83,,,,4,5,6,6,0.3,0.3
2025-04-24T0200,2644A,109.0072,32.6975,安康市,汉滨区检察院,颗粒物(PM10),55,60,110,32,47,48,,,,9,9,7,7,0.3,0.4
2025-04-24T0200,4054A,109.0325,32.6913,安康市,市邮政管理局,颗粒物(PM10),63,76,121,32,46,41,,,,14,11,14,8,0.3,0.4
2025-04-24T0200,2291A,117.0809,30.5177,安庆市,环科院,颗粒物(PM10),54,57,56,32,35,12,,,,85,38,2,4,0.8,0.9
2025-04-24T0200,2292A,117.0331,30.5119,安庆市,马山宾馆,颗粒物(PM10),52,53,51,28,35,25,,,,66,32,4,5,0.7,0.8
2025-04-24T0200,2294A,116.9896,30.6145,安庆市,安庆大学,颗粒物(PM10),63,76,54,35,33,15,,,,71,24,5,4,1.0,0.7
2025-04-24T0200,3173A,117.0598,30.5351,安庆市,市人大,颗粒物(PM10),54,57,55,30,37,71,,,,26,25,6,7,0.5,0.6
2025-04-24T0200,3122A,105.9606,26.2611,安顺市,伍家关,,41,41,62,22,18,60,,,,7,9,1,2,0.4,0.3
2025-04-24T0200,3123A,105.9408,26.2431,安顺市,凤凰山,,47,47,57,29,30,51,,,,11,8,5,7,0.5,0.5
2025-04-24T0200,3124A,105.9439,26.2564,安顺市,金钟山,,48,47,51,33,29,48,,,,12,9,4,5,0.5,0.5
2025-04-24T0200,3125A,105.8983,26.2481,安顺市,娄家坡,细颗粒物(PM2.5),58,46,61,41,30,60,,,,7,9,6,7,0.7,0.6
2025-04-24T0200,1818A,114.4839,36.0621,安阳市,棉研所,,,,,,,,,,,,,,,,
2025-04-24T0200,1819A,114.3551,36.1017,安阳市,红庙街,颗粒物(PM10),151,252,118,26,33,74,,,,2,10,2,6,0.2,0.4
2025-04-24T0200,1820A,114.361,36.0681,安阳市,银杏小区,颗粒物(PM10),153,256,117,54,41,79,,,,9,14,5,8,0.2,0.5
2025-04-24T0200,3141A,114.3922,36.0878,安阳市,信访局,颗粒物(PM10),218,362,130,21,35,85,,,,12,15,2,5,0.1,0.3
2025-04-24T0200,3669A,114.4705,36.0637,安阳市,左辅环卫站,颗粒物(PM10),141,231,116,36,38,86,,,,14,21,3,6,0.0,0.2
2025-04-24T0200,3703A,114.2917,36.0949,安阳市,安钢职工学校,颗粒物(PM10),226,368,151,25,33,77,,,,8,17,2,6,0.2,0.4
2025-04-24T0200,1748A,123.044,41.1196,鞍山市,深沟寺,,42,42,54,7,22,59,,,,8,15,5,8,0.3,0.6
2025-04-24T0200,1749A,123.011,41.0931,鞍山市,太阳城,,46,46,55,7,24,58,,,,16,15,12,9,0.9,0.9
2025-04-24T0200,1750A,123.0485,41.1442,鞍山市,太平,颗粒物(PM10),58,66,70,9,25,61,,,,6,15,13,13,0.4,0.7
2025-04-24T0200,1751A,122.9642,41.0971,鞍山市,铁西三道街,,48,48,71,6,30,62,,,,12,26,14,13,0.8,1.2
2025-04-24T0200,1753A,123.022,41.0821,鞍山市,明达新区,,37,37,54,3,22,61,,,,9,13,8,10,0.3,0.5
2025-04-24T0200,1754A,123.1289,41.0228,鞍山市,千山,,,,31,,12,,,99,,,11,,6,,0.5
2025-04-24T0200,4201A,122.9446,41.0826,鞍山市,兴盛南路290号,,41,41,75,3,28,68,,,,10,26,6,15,0.3,1.1
2025-04-24T0200,2195A,107.4212,40.761,巴彦淖尔市,附二中,,25,25,68,9,19,78,,,,8,6,4,5,0.3,0.4
2025-04-24T0200,2196A,107.37,40.7372,巴彦淖尔市,市环保大楼,,27,27,69,15,24,83,,,,6,8,4,4,0.3,0.3
2025-04-24T0200,1956A,86.1472,41.7538,巴音郭楞蒙古自治州,孔雀公园,颗粒物(PM10),354,463,445,110,104,1,,,,78,38,6,6,0.5,0.4
2025-04-24T0200,1957A,86.1972,41.7166,巴音郭楞蒙古自治州,棉纺厂,颗粒物(PM10),500,602,536,108,99,14,,,,60,28,3,3,0.3,0.3
2025-04-24T0200,1958A,86.2357,41.7173,巴音郭楞蒙古自治州,经济开发区,颗粒物(PM10),278,404,432,87,83,,,,,12,14,6,6,0.3,0.2
2025-04-24T0200,2914A,106.7677,31.8794,巴中市,苏山坪,颗粒物(PM10),71,92,84,41,43,90,,,,13,12,5,4,0.4,0.4
2025-04-24T0200,3181A,106.7768,31.8526,巴中市,市五中,颗粒物(PM10),82,114,111,38,37,82,,,,12,13,6,6,0.4,0.4
2025-04-24T0200,3183A,106.7418,31.8654,巴中市,圣泉水务公司,颗粒物(PM10),73,95,105,44,47,86,,,,12,18,6,5,0.4,0.5
2025-04-24T0200,3616A,106.7616,31.8344,巴中市,市中心医院,颗粒物(PM10),79,108,109,44,45,81,,,,11,12,3,4,0.5,0.5
2025-04-24T0200,2235A,122.7911,45.6077,白城市,洮北区环保局,,26,26,33,13,12,60,,,,5,7,2,6,0.3,0.2
2025-04-24T0200,2236A,122.8738,45.5725,白城市,市环保局,,21,14,29,14,12,67,,,,2,4,4,6,0.3,0.3
2025-04-24T0200,2231A,126.4219,41.9171,白山市,喜丰,,26,9,43,7,17,81,,,,4,15,9,9,0.5,0.7
2025-04-24T0200,2232A,126.4077,41.9419,白山市,环保局,,27,14,39,3,13,85,,,,5,12,9,8,0.6,0.8
2025-04-24T0200,2647A,104.1724,36.5446,白银市,第三小学,颗粒物(PM10),69,87,47,30,25,58,,,,30,13,48,16,0.7,0.4
2025-04-24T0200,2648A,104.1465,36.5482,白银市,动力公司,,43,43,39,15,15,50,,,,27,11,16,10,0.6,0.5
2025-04-24T0200,2512A,106.6103,23.9011,百色市,市监测站,,20,20,17,14,10,51,,,,12,11,4,3,0.6,0.6
2025-04-24T0200,2513A,106.6538,23.8859,百色市,市中心血站,,24,24,20,13,10,48,,,,10,10,5,5,0.6,0.7
2025-04-24T0200,3406A,106.6085,23.8798,百色市,祈福高中,,24,24,32,14,14,42,,,,15,13,8,6,0.6,0.6
2025-04-24T0200,2270A,117.396,32.939,蚌埠市,工人疗养院,颗粒物(PM10),102,154,124,38,31,92,,,,19,18,6,7,0.6,0.6
2025-04-24T0200,2271A,117.3605,32.9427,蚌埠市,百货大楼,颗粒物(PM10),103,155,125,48,35,74,,,,33,21,7,8,0.6,0.5
2025-04-24T0200,2273A,117.4185,32.8911,蚌埠市,蚌埠学院,颗粒物(PM10),96,141,123,42,36,66,,,,32,23,6,6,0.8,0.6
2025-04-24T0200,2274A,117.3533,32.9673,蚌埠市,淮上区政府,颗粒物(PM10),98,146,127,42,37,94,,,,22,21,7,8,0.4,0.4
2025-04-24T0200,2275A,117.3145,32.8977,蚌埠市,高新区,颗粒物(PM10),120,190,122,61,38,42,,,,50,27,6,6,0.6,0.5
2025-04-24T0200,3715A,117.3092,32.9314,蚌埠市,蚌埠田家炳中学,颗粒物(PM10),114,177,131,44,34,64,,,,34,21,49,12,0.4,0.4
2025-04-24T0200,1585A,109.8756,40.6532,包头市,市环境监测站,,20,14,55,3,12,64,,,,14,12,7,10,0.3,0.5
2025-04-24T0200,1587A,109.9991,40.5842,包头市,包头八中,,34,34,57,8,13,58,,,,27,14,13,13,0.3,0.3
2025-04-24T0200,1588A,109.8538,40.6821,包头市,青山宾馆,,21,20,45,8,13,65,,,,11,9,9,10,0.4,0.4
2025-04-24T0200,1589A,109.8642,40.6288,包头市,惠龙物流,,22,22,45,3,13,61,,,,22,12,7,11,0.3,0.4
2025-04-24T0200,1590A,110.0377,40.5546,包头市,东河鸿龙湾,,25,25,54,3,7,63,,,,21,13,8,9,0.4,0.5
2025-04-24T0200,3283A,109.9154,40.5685,包头市,滨河大厦,,17,10,41,3,12,49,,,,33,10,9,12,0.4,0.5
2025-04-24T0200,3419A,109.9447,40.6261,包头市,包头市委党校,,21,15,56,3,10,65,,,,16,9,6,8,0.4,0.5
2025-04-24T0200,3683A,109.8331,40.6576,包头市,昆区政府,,24,14,56,3,12,74,,,,13,12,5,8,0.3,0.7
2025-04-24T0200,1930A,107.185,34.3063,宝鸡市,庙沟村,,46,46,75,29,43,86,,,,11,9,7,7,0.4,0.4
2025-04-24T0200,1931A,107.0708,34.3017,宝鸡市,竹园沟,,34,34,71,23,32,69,,,,11,12,7,7,0.4,0.4
2025-04-24T0200,1932A,107.1906,34.3672,宝鸡市,三陆医院,颗粒物(PM10),61,71,91,38,43,56,,,,25,26,9,7,0.4,0.4
2025-04-24T0200,1933A,107.1431,34.3547,宝鸡市,监测站,颗粒物(PM10),53,55,95,21,35,54,,,,21,21,8,8,0.3,0.4
2025-04-24T0200,1934A,107.1186,34.3739,宝鸡市,技工学校,颗粒物(PM10),53,56,96,25,48,72,,,,10,14,7,8,0.4,0.4
2025-04-24T0200,1935A,107.3906,34.3528,宝鸡市,陈仓区环保局家属楼,颗粒物(PM10),67,84,105,47,48,74,,,,29,29,50,20,0.9,0.5
2025-04-24T0200,1936A,107.2058,34.3497,宝鸡市,文理学院,颗粒物(PM10),65,79,93,34,45,61,,,,23,20,10,7,0.5,0.4
2025-04-24T0200,1937A,107.2386,34.3622,宝鸡市,三迪小学,颗粒物(PM10),62,74,100,42,45,55,,,,27,25,9,6,0.4,0.5
2025-04-24T0200,1051A,115.493,38.8632,保定市,游泳馆,,41,41,84,9,34,76,,,,15,18,3,3,0.2,0.2
2025-04-24T0200,1052A,115.5213,38.8959,保定市,华电二区,,41,41,70,18,27,66,,,,12,11,3,4,0,0.1
2025-04-24T0200,1053A,115.4713,38.9108,保定市,接待中心,,41,41,81,9,30,76,,,,12,16,1,3,0.3,0.5
2025-04-24T0200,1054A,115.4612,38.8416,保定市,地表水厂,,48,48,107,7,30,85,,,,14,19,1,4,0.1,0.3
2025-04-24T0200,3581A,115.31981,38.95208,保定市,满城区生态环境分局,颗粒物(PM10),78,105,85,3,28,94,,,,3,18,3,6,0.2,0.3
2025-04-24T0200,3582A,115.47694,38.76408,保定市,清苑区第二中学,,44,44,101,9,30,76,,,,16,15,4,6,0.2,0.3
2025-04-24T0200,3583A,115.62909,39.02311,保定市,徐水物探局,,,28,84,,23,63,,,,21,21,3,2,0.2,0.3
2025-04-24T0200,4004A,115.4202,38.8656,保定市,双鹰农机,颗粒物(PM10),52,54,78,10,36,87,,,,3,17,2,6,0,0.1
2025-04-24T0200,4034A,115.5150,38.8590,保定市,植保所站,,39,39,84,14,34,64,,,,12,13,3,3,0.6,0.6
2025-04-24T0200,2594A,99.1678,25.1081,保山市,市环境监测站,颗粒物(PM10),72,93,65,44,38,113,,,,8,7,9,7,0.6,0.6
2025-04-24T0200,2595A,99.1711,25.1328,保山市,市环保局,颗粒物(PM10),70,90,72,40,30,112,,,,5,8,8,8,0.5,0.5
2025-04-24T0200,1866A,109.2262,21.588,北海市,牛尾岭水库,,,,25,43,16,18,,,,,,8,7,0.9,0.8
2025-04-24T0200,1867A,109.1436,21.4086,北海市,海滩公园,,33,33,44,15,12,72,,,,10,14,6,5,0.4,0.5
2025-04-24T0200,1868A,109.0981,21.4661,北海市,新市环保局,,32,32,33,14,16,65,,,,13,11,3,4,0.6,0.6
2025-04-24T0200,1869A,109.1778,21.5233,北海市,北海工业园,,42,31,33,29,18,55,,,,16,7,8,8,0.4,0.4
2025-04-24T0200,3400A,109.1911,21.4415,北海市,龙潭自来水厂,细颗粒物(PM2.5),52,36,36,36,24,47,,,,16,11,7,7,0.4,0.4
2025-04-24T0200,1001A,116.3621,39.8784,北京市,万寿西宫,颗粒物(PM10),57,63,59,15,18,82,,,,3,20,6,6,0.3,0.4
2025-04-24T0200,1002A,116.2202,40.2915,北京市,定陵,,,,,,,,,,,,,,,,
2025-04-24T0200,1003A,116.4174,39.9289,北京市,东四,颗粒物(PM10),55,60,64,11,18,79,,,,4,21,2,2,0.2,0.3
2025-04-24T0200,1004A,116.4072,39.8863,北京市,天坛,颗粒物(PM10),53,55,52,12,15,77,,,,6,23,2,2,0.2,0.5
2025-04-24T0200,1005A,116.462,39.9365,北京市,农展馆,颗粒物(PM10),58,65,58,8,14,81,,,,8,24,7,7,0.1,0.3
2025-04-24T0200,1006A,116.3392,39.9295,北京市,官园,颗粒物(PM10),58,65,60,12,14,72,,,,6,22,4,4,0.2,0.3
2025-04-24T0200,1007A,116.2878,39.9611,北京市,海淀万柳,颗粒物(PM10),61,72,59,17,14,51,,,,16,21,3,4,0.3,0.4
2025-04-24T0200,1008A,116.6636,40.135,北京市,顺义新城,颗粒物(PM10),61,71,63,14,14,77,,,,6,16,6,6,0.3,0.4
2025-04-24T0200,1009A,116.6275,40.3275,北京市,怀柔镇,,48,48,47,9,14,77,,,,3,10,2,3,0.3,0.4
2025-04-24T0200,1010A,116.2296,40.217,北京市,昌平镇,,49,49,48,10,13,79,,,,3,16,3,3,0,0.1
2025-04-24T0200,1011A,116.3966,39.9821,北京市,奥体中心,颗粒物(PM10),56,61,57,15,17,77,,,,14,30,3,3,0.4,0.5
2025-04-24T0200,3281A,115.9718,40.4529,北京市,延庆夏都,,33,33,49,9,15,88,,,,1,13,2,2,0.2,0.3
2025-04-24T0200,3418A,116.8336,40.4095,北京市,密云新城,颗粒物(PM10),65,80,78,23,17,74,,,,2,9,3,2,0.4,0.3
2025-04-24T0200,3671A,116.088,39.9726,北京市,门头沟三家店,颗粒物(PM10),53,55,74,11,15,77,,,,3,18,2,2,0.2,0.2
2025-04-24T0200,3672A,116.1541,39.8204,北京市,丰台云岗,,47,47,56,7,12,80,,,,4,22,3,2,0.1,0.2
2025-04-24T0200,3673A,116.6804,39.9081,北京市,通州东关,颗粒物(PM10),64,78,80,17,26,77,,,,17,29,4,5,0.5,0.5
2025-04-24T0200,3674A,115.9577,39.7603,北京市,房山燕山,,46,46,50,9,14,76,,,,4,14,4,4,0.3,0.4
2025-04-24T0200,3675A,116.4672,39.7733,北京市,大兴旧宫,颗粒物(PM10),66,81,72,16,16,72,,,,9,20,3,3,0.1,0.2
2025-04-24T0200,3694A,115.986,40.4563,北京市,延庆石河营,,34,34,46,7,12,79,,,,2,11,2,2,0.3,0.3
2025-04-24T0200,3695A,116.6151,40.3053,北京市,怀柔新城,,43,43,42,12,14,77,,,,2,8,3,3,0.3,0.5
2025-04-24T0200,3696A,116.2545,39.8768,北京市,丰台小屯,颗粒物(PM10),58,66,56,14,15,62,,,,10,26,1,1,0.2,0.3
2025-04-24T0200,3697A,116.84,40.3844,北京市,密云镇,颗粒物(PM10),57,63,49,11,14,75,,,,2,12,4,5,0.2,0.3
2025-04-24T0200,4182A,116.1942,39.9158,北京市,八角北路9号,颗粒物(PM10),53,56,65,11,16,79,,,,10,23,4,5,0.0,0.2
2025-04-24T0200,4194A,117.0790,40.1518,北京市,洳河巡河路,颗粒物(PM10),59,68,47,12,16,81,,,,2,10,1,2,0.2,0.3
2025-04-24T0200,1761A,123.8275,41.3064,本溪市,大峪,,30,30,47,3,17,44,,,,15,20,5,7,0.5,0.6
2025-04-24T0200,1762A,123.7567,41.3325,本溪市,溪湖,,49,49,54,7,23,61,,,,14,19,6,8,0.5,0.9
2025-04-24T0200,1763A,123.7169,41.3094,本溪市,彩屯,,39,39,57,11,29,68,,,,9,22,10,14,0.4,1.2
2025-04-24T0200,1764A,123.7669,41.2864,本溪市,东明,,36,36,58,14,19,60,,,,13,21,7,8,0.8,1
2025-04-24T0200,1765A,123.7992,41.2664,本溪市,新立屯,,30,30,48,6,17,28,,,,41,25,5,9,0.6,0.7
2025-04-24T0200,1766A,123.8142,41.3472,本溪市,威宁,,32,32,65,6,20,12,,,,43,15,4,6,0.5,0.6
2025-04-24T0200,2587A,105.2864,27.3125,毕节市,八中,,42,42,73,23,38,59,,,,5,8,4,4,0.5,0.6
2025-04-24T0200,2588A,105.31,27.2944,毕节市,师专,,36,36,69,18,32,68,,,,5,8,7,8,0.4,0.5
2025-04-24T0200,4263A,105.3688,27.3598,毕节市,工业大道,,38,38,84,17,34,70,,,,9,11,5,6,0.5,0.6
2025-04-24T0200,1629A,118.0018,37.3617,滨州市,第二水厂,颗粒物(PM10),69,88,99,7,28,78,,,,9,23,7,13,0.3,0.6
2025-04-24T0200,1630A,117.9776,37.393,滨州市,北中新校,颗粒物(PM10),64,78,77,14,33,82,,,,13,27,1,7,0.2,0.5
2025-04-24T0200,3514A,117.9378,37.3956,滨州市,中海酒店,颗粒物(PM10),65,80,78,7,30,86,,,,9,23,8,14,0.4,0.7
2025-04-24T0200,3515A,117.9378,37.3553,滨州市,开发区一中,颗粒物(PM10),78,105,100,12,30,85,,,,12,28,3,10,0,0.2
2025-04-24T0200,3516A,118.0917,37.694,滨州市,金海六路,颗粒物(PM10),61,71,86,14,26,79,,,,27,32,11,13,0.2,0.4
2025-04-24T0200,4028A,117.9956,37.3753,滨州市,滨州市西街道办事处,颗粒物(PM10),67,83,92,14,37,92,,,,11,23,5,11,0.2,0.5
2025-04-24T0200,2311A,115.8072,33.8399,亳州市,污水处理厂,颗粒物(PM10),120,190,121,60,38,102,,,,12,15,7,5,0.4,0.3
2025-04-24T0200,2312A,115.7789,33.8518,亳州市,三国揽胜宫,颗粒物(PM10),125,199,140,57,41,101,,,,16,14,14,7,0.3,0.2
2025-04-24T0200,3332A,115.7633,33.8034,亳州市,亳州学院,颗粒物(PM10),129,208,138,54,35,100,,,,17,15,13,7,0.5,0.4
2025-04-24T0200,2693A,82.0485,44.8556,博尔塔拉蒙古自治州,市党校,,48,48,36,10,14,69,,,,36,28,2,2,0.4,0.3
2025-04-24T0200,2694A,82.0806,44.8969,博尔塔拉蒙古自治州,市环保局,颗粒物(PM10),51,51,48,17,13,65,,,,18,15,4,3,0.6,0.5
2025-04-24T0200,1071A,116.8842,38.2991,沧州市,沧县城建局,颗粒物(PM10),54,57,99,16,36,76,,,,12,18,3,5,0.2,0.4
2025-04-24T0200,1072A,116.8584,38.3254,沧州市,电视转播站,,35,35,87,9,36,78,,,,12,19,2,5,0.2,0.3
2025-04-24T0200,1073A,116.8709,38.3228,沧州市,市环保局,,45,45,88,24,39,80,,,,11,19,4,7,0.2,0.4
2025-04-24T0200,3324A,116.8136,38.3004,沧州市,河北水利电力学院,颗粒物(PM10),57,63,108,6,28,86,,,,10,17,5,9,0.1,0.3
2025-04-24T0200,2622A,97.1806,31.1273,昌都市,昌都监测站,,25,,10,3,8,77,,,,2,4,3,3,0.2,0.2
2025-04-24T0200,3719A,97.1714,31.1406,昌都市,昌都会议中心,,24,6,13,3,10,75,,,,4,5,3,3,0.2,0.2
2025-04-24T0200,2690A,88.1236,43.8886,昌吉回族自治州,天山天池,,19,10,9,3,5,60,,,,6,7,5,5,0.5,0.5
2025-04-24T0200,2692A,87.2717,44.0297,昌吉回族自治州,新区政务中心,颗粒物(PM10),57,63,35,13,12,20,,,,55,19,7,8,0.6,0.5
2025-04-24T0200,3613A,87.3095,44.0142,昌吉回族自治州,亚心广场,颗粒物(PM10),57,63,43,17,12,44,,,,40,26,8,9,0.5,0.5
2025-04-24T0200,1119A,125.3325,43.9166,长春市,食品厂,,33,33,48,7,13,64,,,,8,14,6,7,0.1,0.3
2025-04-24T0200,1120A,125.2863,43.9027,长春市,客车厂,,26,26,43,12,13,63,,,,9,15,4,5,0.2,0.3
2025-04-24T0200,1121A,125.2841,43.8463,长春市,邮电学院,,41,41,43,11,15,59,,,,10,12,7,6,0.2,0.3
2025-04-24T0200,1122A,125.3716,43.8772,长春市,劳动公园,,20,19,40,3,11,63,,,,7,9,6,6,0.1,0.3
2025-04-24T0200,1123A,125.3297,43.8805,长春市,园林处,,24,24,40,3,13,58,,,,10,10,6,7,0.3,0.4
2025-04-24T0200,1124A,125.4605,43.79,长春市,净月潭,,23,23,37,6,10,54,,,,9,9,5,6,0.1,0.2
2025-04-24T0200,1125A,125.7194,43.515,长春市,甩湾子,,,,,,,,,,,,,,,,
2025-04-24T0200,1126A,125.3863,43.8447,长春市,经开区环卫处,,33,33,39,6,10,61,,,,10,11,5,5,0.2,0.3
2025-04-24T0200,1127A,125.245,43.7783,长春市,高新区管委会,,22,22,39,6,12,59,,,,9,11,6,7,0.1,0.3
2025-04-24T0200,1128A,125.1761,43.8325,长春市,岱山公园,,25,25,44,10,15,66,,,,5,16,4,4,0.2,0.3
2025-04-24T0200,1335A,113.0833,28.2325,长沙市,经开区环保局,细颗粒物(PM2.5),57,52,54,40,50,63,,,,20,18,4,6,0.5,0.7
2025-04-24T0200,1336A,112.8872,28.2189,长沙市,高开区环保局,细颗粒物(PM2.5),57,51,52,40,42,60,,,,16,9,5,5,0.8,0.8
2025-04-24T0200,1337A,113.0792,28.2053,长沙市,马坡岭,颗粒物(PM10),53,55,54,34,37,61,,,,22,19,3,3,0.5,0.6
2025-04-24T0200,1338A,112.9394,28.19,长沙市,湖南师范大学,颗粒物(PM10),53,56,50,25,30,67,,,,16,12,3,3,0.4,0.5
2025-04-24T0200,1339A,113.0178,28.1322,长沙市,雨花区环保局,,,50,52,,43,64,,,,16,13,3,3,0.4,0.5
2025-04-24T0200,1340A,112.9792,28.2597,长沙市,伍家岭,,50,50,59,28,44,74,,,,13,13,1,2,0.4,0.5
2025-04-24T0200,1341A,113.0014,28.1944,长沙市,火车新站,颗粒物(PM10),51,52,54,29,34,78,,,,12,13,6,7,0.7,0.8
2025-04-24T0200,1342A,112.9844,28.1178,长沙市,天心区环保局,,48,48,56,29,31,72,,,,10,12,2,2,0.8,0.8
2025-04-24T0200,1343A,112.8908,28.1308,长沙市,湖南中医药大学,细颗粒物(PM2.5),53,48,53,37,36,77,,,,10,12,2,2,0.5,0.6
2025-04-24T0200,1344A,112.9581,28.3611,长沙市,沙坪,颗粒物(PM10),55,60,72,12,21,72,,,,8,11,3,4,0.5,0.6
2025-04-24T0200,1727A,113.1147,36.1547,长治市,清华站,颗粒物(PM10),68,85,102,27,29,94,,,,14,18,12,10,0.6,0.5
2025-04-24T0200,1730A,113.0886,36.2125,长治市,审计局,颗粒物(PM10),59,68,85,22,30,92,,,,18,20,18,13,0.4,0.4
2025-04-24T0200,1731A,113.0844,36.1856,长治市,长治八中,细颗粒物(PM2.5),77,69,107,56,42,90,,,,16,19,15,13,1.1,1.1
2025-04-24T0200,2845A,113.1569,36.1911,长治市,德盛苑,颗粒物(PM10),62,74,89,24,38,107,,,,11,13,9,9,0.7,0.6
2025-04-24T0200,3568A,113.06,36.0464,长治市,向阳小学,颗粒物(PM10),78,105,104,18,32,68,,,,33,22,19,13,0.5,0.4
2025-04-24T0200,3569A,112.8792,36.3144,长治市,屯留一中,颗粒物(PM10),55,60,95,19,36,76,,,,10,12,10,9,0.3,0.4
2025-04-24T0200,4189A,113.1131,36.19948,长治市,英华南巷50号,颗粒物(PM10),66,82,99,17,34,94,,,,17,22,8,10,0.7,0.8
2025-04-24T0200,4190A,113.2367,36.3344,长治市,学府街1号,颗粒物(PM10),82,113,137,42,50,104,,,,16,15,7,12,0.6,0.6
2025-04-24T0200,1854A,111.6975,28.9703,常德市,市二中,,44,44,69,23,36,34,,,,11,11,5,5,0.6,0.6
2025-04-24T0200,1857A,111.7158,29.1456,常德市,白鹤山,,,,,,,,,,,,,,,,
2025-04-24T0200,3138A,111.7153,29.0289,常德市,武陵区永安,颗粒物(PM10),51,52,68,22,29,50,,,,11,10,5,8,0.4,0.4
2025-04-24T0200,3139A,111.6892,28.9881,常德市,鼎城区玉霞,,49,45,72,34,30,33,,,,16,12,5,4,0.6,0.6
2025-04-24T0200,3140A,111.6625,29.0531,常德市,武陵区长庚,,42,42,74,22,30,43,,,,10,12,6,7,0.6,0.6
2025-04-24T0200,1196A,119.9633,31.762,常州市,市监测站,颗粒物(PM10),86,122,85,46,42,63,,,,40,26,12,12,1.0,0.9
2025-04-24T0200,1200A,119.9468,31.7069,常州市,武进监测站,颗粒物(PM10),76,102,80,46,34,62,,,,52,36,14,13,1.0,0.8
2025-04-24T0200,1201A,119.9255,31.9087,常州市,安家,颗粒物(PM10),89,128,88,48,41,20,,,,84,38,13,11,0.5,0.4
2025-04-24T0200,3002A,119.9805,31.8174,常州市,行政中心,,,89,63,42,37,,,,,24,23,17,16,0.7,0.6
2025-04-24T0200,3003A,120.0522,31.7748,常州市,经开区,颗粒物(PM10),64,78,64,37,30,98,,,,27,25,14,11,0.7,0.7
2025-04-24T0200,3010A,119.9025,31.7964,常州市,钟楼,颗粒物(PM10),84,117,79,51,41,52,,,,50,30,10,7,0.7,0.6
2025-04-24T0200,3429A,119.8598,31.7066,常州市,武进经发区,颗粒物(PM10),78,106,73,47,30,58,,,,43,24,10,9,1.3,1.2
2025-04-24T0200,3430A,119.5826,31.7245,常州市,金坛城区,颗粒物(PM10),68,86,73,30,28,92,,,,19,17,12,10,0.8,0.8
2025-04-24T0200,2220A,120.4318,41.5881,朝阳市,西梁,,34,34,79,3,14,69,,,,3,12,6,9,0.3,0.4
2025-04-24T0200,2221A,120.4521,41.5646,朝阳市,河畔小区,,27,27,73,3,14,72,,,,4,11,6,10,0.2,0.5
2025-04-24T0200,2222A,120.4176,41.5648,朝阳市,八里堡,,41,41,90,7,14,68,,,,3,13,6,7,0.5,0.7
2025-04-24T0200,2223A,120.3806,41.5969,朝阳市,农业园区,,30,30,82,3,16,75,,,,2,10,7,8,0.5,0.7
2025-04-24T0200,1705A,116.6367,23.6719,潮州市,西园路,,40,,42,28,29,30,,,,10,13,5,6,0.6,0.5
2025-04-24T0200,3026A,116.6183,23.6608,潮州市,市政府,细颗粒物(PM2.5),78,,39,57,33,44,,,,13,15,14,10,0.7,0.6
2025-04-24T0200,4036A,116.6461,23.6761,潮州市,金山,,32,32,41,18,28,28,,,,11,14,8,9,0.6,0.6
2025-04-24T0200,2472A,113.0073,25.9061,郴州市,马头岭,颗粒物(PM10),57,64,65,39,24,8,,,,12,12,8,8,0.4,0.9
2025-04-24T0200,2473A,113.0116,25.8226,郴州市,市职中,细颗粒物(PM2.5),65,62,58,47,38,40,,,,9,12,1,1,0.7,0.7
2025-04-24T0200,2475A,113.0383,25.8071,郴州市,市审计局,细颗粒物(PM2.5),60,60,63,43,36,54,,,,6,8,4,3,0.7,0.6
2025-04-24T0200,2476A,113.0348,25.7759,郴州市,市环保局,细颗粒物(PM2.5),78,72,69,57,45,51,,,,8,10,4,5,0.6,0.6
2025-04-24T0200,4252A,113.0138,25.8011,郴州市,好美居路49号,"颗粒物(PM10),细颗粒物(PM2.5)",59,67,60,42,35,49,,,,10,11,6,5,0.8,0.7
2025-04-24T0200,1431A,103.9728,30.7236,成都市,金泉两河,,40,40,100,18,37,63,,,,10,16,2,3,0.5,0.6
2025-04-24T0200,1432A,104.176,30.6872,成都市,十里店,,36,36,94,8,38,85,,,,14,20,3,4,0.6,0.6
2025-04-24T0200,1433A,104.079,30.5706,成都市,三瓦窑,,39,39,94,21,40,80,,,,18,22,4,5,0.4,0.5
2025-04-24T0200,1434A,104.1114,30.63,成都市,沙河铺,,50,50,90,8,36,67,,,,11,18,6,6,0.6,0.7
2025-04-24T0200,1437A,104.0786,30.6531,成都市,君平街,,40,40,92,16,45,53,,,,20,23,6,8,0.6,0.6
2025-04-24T0200,1438A,103.613,31.0283,成都市,灵岩寺,,,,,,,,,,,,,,,,
2025-04-24T0200,2880A,104.0239,30.65639,成都市,大石西路,,42,36,92,29,41,68,,,,16,23,4,5,0.3,0.4
2025-04-24T0200,3136A,104.2725,30.5589,成都市,龙泉驿区区政府,,29,29,79,12,30,92,,,,12,14,4,4,0.5,0.6
2025-04-24T0200,3357A,104.0106,30.6931,成都市,金博路,,27,27,81,3,31,62,,,,14,19,7,8,0.1,0.3
2025-04-24T0200,3359A,104.0578,30.5225,成都市,华阳,,39,34,82,27,48,79,,,,21,20,5,6,0.2,0.2
2025-04-24T0200,3488A,104.3853,30.7453,成都市,青白江技师分院,,46,46,93,19,41,63,,,,27,23,2,4,0.2,0.3
2025-04-24T0200,3489A,104.0789,30.4072,成都市,科学城,,38,38,88,18,39,77,,,,16,14,4,4,0.3,0.3
2025-04-24T0200,4011A,103.8506,30.6947,成都市,光华大道三段,颗粒物(PM10),65,80,93,6,46,82,,,,9,18,1,2,0.5,0.6
2025-04-24T0200,4224A,104.2433,30.5353,成都市,鲸龙路1057号,颗粒物(PM10),52,53,59,21,38,74,,,,33,24,4,4,0.5,0.5
2025-04-24T0200,1062A,117.9531,40.9081,承德市,铁路,,28,28,83,7,12,75,,,,3,13,2,4,0.1,0.2
2025-04-24T0200,1063A,117.9392,40.9763,承德市,中国银行,,35,35,79,3,13,75,,,,2,8,2,2,0.2,0.2
2025-04-24T0200,1064A,117.9503,40.928,承德市,开发区,,38,38,70,13,20,78,,,,3,12,2,4,0.1,0.2
2025-04-24T0200,1065A,117.8051,40.9655,承德市,文化中心,,24,22,91,6,15,76,,,,3,12,2,3,0.2,0.3
2025-04-24T0200,1066A,117.9268,41.0026,承德市,离宫,,48,34,73,33,23,53,,,,2,6,4,5,0.1,0.2
2025-04-24T0200,2314A,117.47,30.6618,池州市,池州学院,,35,35,44,20,30,64,,,,13,13,5,6,0.9,0.8
2025-04-24T0200,3237A,117.4918,30.6617,池州市,展览馆,,42,42,40,23,29,74,,,,12,13,5,5,0.9,0.8
2025-04-24T0200,3333A,117.5627,30.695,池州市,第八中学,,35,35,39,18,26,53,,,,21,15,4,6,0.8,0.7
2025-04-24T0200,3334A,117.5038,30.6243,池州市,第十二中学,,40,40,42,22,24,60,,,,16,19,4,4,1.0,1
2025-04-24T0200,1744A,118.9233,42.2816,赤峰市,松山一中,,24,24,67,3,9,71,,,,6,13,9,10,0.3,0.3
2025-04-24T0200,1745A,118.9576,42.2728,赤峰市,哈达街,,24,15,58,3,10,76,,,,4,12,9,10,0.4,0.4
2025-04-24T0200,1746A,118.8788,42.2554,赤峰市,天义路,,22,12,54,11,13,69,,,,5,11,6,7,0.4,0.4
2025-04-24T0200,3058A,119.2658,42.0353,赤峰市,银河街,,21,19,78,3,14,67,,,,4,11,12,17,0.3,0.3
2025-04-24T0200,3286A,118.9359,42.3147,赤峰市,桥北物流园区,,21,13,48,7,14,66,,,,6,12,7,8,0.5,0.5
2025-04-24T0200,2521A,107.3476,22.4136,崇左市,市环保局江州分局,,19,19,47,12,28,40,,,,9,8,5,7,0.5,0.5
2025-04-24T0200,4256A,107.3750,22.3736,崇左市,石景林东路7号,,20,20,42,7,24,46,,,,11,9,10,6,0.6,0.5
2025-04-24T0200,2298A,118.3093,32.3153,滁州市,老年大学,颗粒物(PM10),58,65,66,32,36,50,,,,20,16,2,3,0.4,0.4
2025-04-24T0200,2299A,118.3244,32.2786,滁州市,人大宾馆,颗粒物(PM10),62,74,65,25,33,120,,,,14,19,8,8,0.3,0.4
2025-04-24T0200,3207A,118.3118,32.3038,滁州市,市政府原办公楼,颗粒物(PM10),63,75,70,38,41,90,,,,14,13,4,5,0.4,0.4
2025-04-24T0200,3331A,118.3267,32.2634,滁州市,图书馆,颗粒物(PM10),67,84,73,31,40,119,,,,10,10,8,8,0.5,0.3
2025-04-24T0200,2605A,101.5482,25.0441,楚雄彝族自治州,州环境监测站,,50,50,37,26,23,127,,,,6,9,6,7,0.4,0.4
2025-04-24T0200,2606A,101.538,25.0492,楚雄彝族自治州,市经济开发区,,47,47,37,28,23,124,,,,6,9,7,7,0.5,0.5
2025-04-24T0200,2548A,107.5277,31.2827,达州市,达州职业技术学院,,,,82,,28,,,49,,,17,,5,,0.4
2025-04-24T0200,2549A,107.5086,31.2186,达州市,市环境监测站,颗粒物(PM10),68,86,85,27,29,21,,,,32,22,5,5,0.3,0.3
2025-04-24T0200,2550A,107.4988,31.2132,达州市,凤凰小区,颗粒物(PM10),69,88,86,36,30,33,,,,33,19,8,7,0.5,0.5
2025-04-24T0200,2551A,107.5082,31.1986,达州市,达县机关宾馆,颗粒物(PM10),63,75,87,17,28,20,,,,41,24,6,5,0.5,0.4
2025-04-24T0200,2552A,107.4644,31.2124,达州市,市政中心,颗粒物(PM10),72,93,93,34,27,38,,,,21,19,2,3,0.4,0.4
2025-04-24T0200,2614A,100.1542,25.7054,大理白族自治州,大理市环境监测站,颗粒物(PM10),57,64,41,33,28,131,,,,5,7,8,7,0.5,0.6
2025-04-24T0200,2615A,100.2171,25.5811,大理白族自治州,大理古城,颗粒物(PM10),51,52,39,34,25,130,,,,3,6,8,7,0.5,0.5
2025-04-24T0200,1109A,121.612,38.9741,大连市,甘井子,颗粒物(PM10),51,51,39,9,21,84,,,,14,31,9,10,0.3,0.3
2025-04-24T0200,1110A,121.565,38.9511,大连市,周水子,,47,47,39,8,21,76,,,,9,25,8,8,0.3,0.4
2025-04-24T0200,1111A,121.5637,38.8845,大连市,星海三站,,40,40,34,8,19,84,,,,10,21,6,5,0.2,0.3
2025-04-24T0200,1112A,121.6302,38.9117,大连市,青泥洼桥,,34,34,38,6,17,88,,,,6,19,8,8,0.4,0.5
2025-04-24T0200,1113A,121.6251,38.8638,大连市,傅家庄,,35,35,31,6,18,92,,,,13,28,10,11,0.2,0.3
2025-04-24T0200,1114A,121.5213,38.8661,大连市,七贤岭,,35,35,41,7,19,82,,,,9,22,8,7,0.4,0.6
2025-04-24T0200,1115A,121.2529,38.8061,大连市,旅顺,,33,33,33,7,20,70,,,,15,31,5,4,0.3,0.5
2025-04-24T0200,1116A,121.7485,39.1311,大连市,金州,,32,32,57,7,23,78,,,,12,25,11,11,0.2,0.3
2025-04-24T0200,1117A,121.7811,39.0496,大连市,开发区,,37,37,34,6,19,80,,,,9,31,5,7,0.6,0.7
2025-04-24T0200,1118A,121.9762,39.0631,大连市,双D港,颗粒物(PM10),68,86,45,8,20,94,,,,8,29,9,10,0.3,0.3
2025-04-24T0200,1789A,124.81117,46.03138,大庆市,大同区,,43,43,42,13,22,55,,,,3,6,4,5,0.3,0.4
2025-04-24T0200,1790A,125.129,46.533,大庆市,龙凤区,,37,37,50,6,16,50,,,,6,11,4,5,0.4,0.5
2025-04-24T0200,1791A,124.902,46.408,大庆市,红岗区,,32,32,33,8,15,57,,,,3,6,4,5,0.2,0.3
2025-04-24T0200,1792A,125.153,46.586,大庆市,萨尔图区,,44,44,50,3,17,46,,,,9,11,6,7,0.4,0.4
2025-04-24T0200,1793A,124.9042,46.6215,大庆市,让胡路区,,34,34,33,12,17,47,,,,9,9,6,6,0.2,0.3
2025-04-24T0200,3481A,125.141,46.634,大庆市,萨区政府监测点,,36,36,41,3,8,56,,,,5,8,6,6,0.3,0.4
2025-04-24T0200,1721A,113.3819,40.1097,大同市,果树场,,21,19,50,3,10,65,,,,8,13,7,5,0.8,0.4
2025-04-24T0200,1723A,113.2994,40.0758,大同市,云冈宾馆,,24,24,54,6,11,71,,,,12,18,10,10,0.5,0.4
2025-04-24T0200,1724A,113.3444,40.0917,大同市,大同大学,,18,14,54,7,13,56,,,,14,17,11,9,0.5,0.4
2025-04-24T0200,1725A,113.2661,40.1269,大同市,安家小村,,22,22,53,9,14,53,,,,14,11,14,14,0.5,1.1
2025-04-24T0200,1726A,113.2711,40.0844,大同市,教育学院,细颗粒物(PM2.5),62,,54,44,14,72,,,,10,16,13,10,0.5,0.4
2025-04-24T0200,3282A,113.3397,40.0597,大同市,大同市卫生学校,,23,19,59,10,16,71,,,,10,22,9,10,0.7,0.6
2025-04-24T0200,3565A,113.1367,40.1122,大同市,云冈站,,20,14,51,3,12,63,,,,14,16,11,12,0.3,0.4
2025-04-24T0200,3566A,113.1186,40.2556,大同市,图书馆,,20,10,48,8,11,62,,,,4,8,8,9,0.5,0.5
2025-04-24T0200,3567A,113.5931,40.0461,大同市,区一中,,21,12,70,8,16,67,,,,7,14,11,17,0.5,0.5
2025-04-24T0200,4199A,113.2798,40.0997,大同市,魏都大道141号,,26,26,62,3,12,70,,,,11,19,16,14,0.7,0.6
2025-04-24T0200,2269A,124.1069,50.4097,大兴安岭地区,科技局,,29,,24,20,18,81,,,,2,12,3,3,0.3,0.3
2025-04-24T0200,3663A,124.1164,50.4278,大兴安岭地区,红旗社区,,26,,12,12,10,82,,,,1,2,4,4,0.3,0.3
2025-04-24T0200,1600A,124.3303,40.0625,丹东市,江湾东路,,48,48,39,28,28,58,,,,21,18,12,12,0.7,0.6
2025-04-24T0200,1601A,124.4256,40.1503,丹东市,临江后街,,46,46,49,19,26,71,,,,12,16,7,8,0.4,0.6
2025-04-24T0200,1602A,124.3933,40.1461,丹东市,元宝山,,29,29,35,13,19,70,,,,9,16,8,10,0.3,0.4
2025-04-24T0200,1603A,124.3633,40.1092,丹东市,民主桥,,34,34,36,7,19,80,,,,10,19,7,10,0.3,0.5
2025-04-24T0200,3541A,109.5726,19.5167,儋州市,第一中学子站,,33,33,26,15,15,47,,,,7,6,8,7,0.2,0.4
2025-04-24T0200,3542A,109.5567,19.5187,儋州市,东坡学校子站,,36,36,26,15,16,44,,,,7,8,7,7,0.5,0.5
2025-04-24T0200,2616A,98.5842,24.428,德宏傣族景颇族自治州,德宏州监测站,颗粒物(PM10),67,84,73,47,42,38,,,,19,15,7,8,0.7,0.6
2025-04-24T0200,3677A,98.5881,24.4368,德宏傣族景颇族自治州,芒市人民政府综合楼,颗粒物(PM10),69,87,87,48,41,51,,,,9,13,6,7,0.6,0.6
2025-04-24T0200,1901A,104.4239,31.1208,德阳市,东山公园,,32,32,98,18,46,58,,,,22,19,3,5,0.6,0.6
2025-04-24T0200,1902A,104.3826,31.1317,德阳市,西小区,,40,32,108,28,48,67,,,,24,23,4,6,0.4,0.5
2025-04-24T0200,1904A,104.3553,31.1091,德阳市,耐火材料厂,,35,35,101,22,44,67,,,,14,24,4,6,0.4,0.5
2025-04-24T0200,3639A,104.4019,31.1244,德阳市,市教育局,,35,34,102,24,47,76,,,,19,22,4,6,0.4,0.4
2025-04-24T0200,1622A,116.3032,37.4674,德州市,儿童乐园,颗粒物(PM10),51,51,107,9,29,80,,,,15,22,8,11,0.3,0.5
2025-04-24T0200,1624A,116.2991,37.4451,德州市,监理站,,46,46,96,3,32,77,,,,10,19,8,14,0.2,0.5
2025-04-24T0200,3066A,116.2721,37.4379,德州市,九衢泉纯净水厂,,46,46,98,12,34,81,,,,13,24,5,9,0.5,0.7
2025-04-24T0200,3371A,116.3728,37.4403,德州市,开发区人民医院,,48,48,106,7,31,77,,,,13,22,6,11,0.4,0.7
2025-04-24T0200,3372A,116.3572,37.4094,德州市,太阳城中学,,41,41,100,12,35,82,,,,10,22,3,8,1.2,1
2025-04-24T0200,3511A,116.5652,37.3319,德州市,陵城艺术中心,颗粒物(PM10),54,58,98,3,32,87,,,,14,25,3,7,0.5,0.6
2025-04-24T0200,2621A,99.7056,27.8317,迪庆藏族自治州,迪庆州站,,29,23,18,12,13,92,,,,8,9,4,5,0.4,0.4
2025-04-24T0200,3180A,99.7136,27.8094,迪庆藏族自治州,质量技术监督局,,33,,15,17,8,103,,,,6,10,4,4,0.4,0.5
2025-04-24T0200,4257A,104.6092,35.5962,定西市,将台街,颗粒物(PM10),55,60,73,27,26,40,,,,31,21,5,6,0.1,0.1
2025-04-24T0200,4309A,104.6159,35.5701,定西市,正龙路62号,颗粒物(PM10),54,58,69,20,23,59,,,,14,9,8,9,0.3,0.2
2025-04-24T0200,1389A,113.7547,23.0494,东莞市,莞城梨川,,26,26,34,17,21,29,,,,13,12,6,6,0.5,0.5
2025-04-24T0200,1390A,113.7944,23.0128,东莞市,东城石井,,26,26,31,12,18,29,,,,14,16,4,4,0.4,0.4
2025-04-24T0200,1391A,113.7383,22.9658,东莞市,南城西平,,25,25,29,11,19,36,,,,12,12,3,4,0.5,0.5
2025-04-24T0200,3319A,113.7338,23.0381,东莞市,万江金泰,,21,21,32,13,20,14,,,,12,13,3,3,0.7,0.7
2025-04-24T0200,3626A,113.7533,23.0202,东莞市,南城元岭,,21,21,29,11,18,29,,,,11,10,6,6,0.5,0.5
2025-04-24T0200,3627A,113.7875,23.0457,东莞市,东城主山,,26,26,35,13,19,29,,,,14,15,4,4,0.4,0.4
2025-04-24T0200,1666A,118.6614,37.4309,东营市,市环保局,颗粒物(PM10),63,75,77,3,21,97,,,,16,30,4,9,0.3,0.5
2025-04-24T0200,3036A,118.6904,37.4338,东营市,开发区管委会,颗粒物(PM10),58,65,87,14,26,98,,,,13,28,4,8,0.4,0.5
2025-04-24T0200,3365A,118.5719,37.565,东营市,垦利区民丰路,颗粒物(PM10),63,75,81,22,26,93,,,,23,34,5,8,0.7,0.9
2025-04-24T0200,3498A,118.5055,37.8612,东营市,河口城区,颗粒物(PM10),71,92,86,17,23,96,,,,12,21,7,11,0.6,0.7
2025-04-24T0200,3646A,118.4978,37.4623,东营市,胜利站,颗粒物(PM10),71,92,91,9,26,90,,,,15,30,10,13,0.6,0.8
2025-04-24T0200,3734A,118.35,37.26,东营市,理想之城,颗粒物(PM10),67,83,89,17,30,86,,,,14,32,5,10,0.4,0.6
2025-04-24T0200,1591A,110.0023,39.8129,鄂尔多斯市,综合楼,,29,29,87,7,15,76,,,,26,13,6,6,0.2,0.2
2025-04-24T0200,1592A,109.9486,39.8261,鄂尔多斯市,巴音孟克林场办事处,,28,24,81,12,23,87,,,,11,15,8,8,0.3,0.3
2025-04-24T0200,1593A,109.7736,39.5986,鄂尔多斯市,康泽苑,,42,,75,29,16,74,,,,12,10,6,4,0.6,0.4
2025-04-24T0200,1594A,109.8119,39.5989,鄂尔多斯市,华泰汽车城,,29,29,74,12,16,37,,,,43,13,8,6,0.3,0.3
2025-04-24T0200,1595A,109.9734,39.7884,鄂尔多斯市,奥林花园,,29,24,83,9,15,92,,,,11,14,1,3,0.0,0.1
2025-04-24T0200,2436A,114.8938,30.3994,鄂州市,市政府,颗粒物(PM10),77,103,81,41,40,63,,,,23,20,8,8,0.0,0.2
2025-04-24T0200,2437A,114.8989,30.3714,鄂州市,赵家坝,颗粒物(PM10),76,102,78,31,37,84,,,,17,18,5,5,0.7,0.9
2025-04-24T0200,3654A,114.8094,30.4089,鄂州市,精准医疗中心,颗粒物(PM10),65,80,67,30,37,88,,,,15,17,4,5,0.5,0.8
2025-04-24T0200,2454A,109.4978,30.2981,恩施土家族苗族自治州,湖北民院,颗粒物(PM10),57,63,69,25,31,9,,,,10,9,8,5,0.5,0.4
2025-04-24T0200,2455A,109.4707,30.2798,恩施土家族苗族自治州,州电力总公司,,48,48,56,24,27,8,,,,19,16,4,4,0.4,0.4
2025-04-24T0200,3549A,109.5061,30.3772,恩施土家族苗族自治州,龙凤新区,,44,44,55,24,23,5,,,,7,6,7,6,0.5,0.5
2025-04-24T0200,2499A,108.3411,21.6158,防城港市,沙万,,33,26,34,23,18,52,,,,7,12,8,3,0.5,0.4
2025-04-24T0200,2500A,108.3514,21.7731,防城港市,防城档案局,颗粒物(PM10),57,63,32,34,20,6,,,,44,7,2,3,0.6,0.3
2025-04-24T0200,2501A,108.3506,21.6414,防城港市,大海花园,,37,37,29,20,15,56,,,,4,3,9,3,0.5,0.4
2025-04-24T0200,1371A,113.1294,23.0067,佛山市,湾梁,,19,17,30,13,16,34,,,,11,15,7,7,0.6,0.6
2025-04-24T0200,1372A,113.1083,23.0478,佛山市,华材职中,,18,14,32,12,18,34,,,,11,15,7,7,0.4,0.4
2025-04-24T0200,1373A,113.144,23.0453,佛山市,南海气象局,,23,,34,16,21,32,,,,8,13,6,6,0.4,0.4
2025-04-24T0200,1374A,113.2881,22.8094,佛山市,顺德苏岗,,21,21,33,12,14,26,,,,12,14,6,6,0.5,0.6
2025-04-24T0200,1376A,112.8383,22.8678,佛山市,高明孔堂,,33,33,34,16,18,24,,,,10,7,6,5,0.6,0.6
2025-04-24T0200,1377A,112.8836,23.1588,佛山市,三水监测站,,40,39,43,28,28,19,,,,31,33,4,5,0.7,0.5
2025-04-24T0200,1378A,112.867,23.185,佛山市,三水云东海,,45,45,44,31,33,5,,,,38,35,3,4,0.7,0.5
2025-04-24T0200,3625A,113.2544,22.7642,佛山市,容桂街道办,,22,22,25,14,17,31,,,,12,18,4,6,0.5,0.5
2025-04-24T0200,1280A,119.3903,26.0543,福州市,鼓山,,,,15,,10,,,60,,,13,,3,,0.4
2025-04-24T0200,1282A,119.2681,26.0504,福州市,师大,,28,20,25,18,23,89,,,,12,15,3,4,0.4,0.4
2025-04-24T0200,1283A,119.2984,26.1028,福州市,五四北路,,33,25,24,23,22,89,,,,16,22,3,4,0.5,0.6
2025-04-24T0200,1284A,119.2648,26.0768,福州市,杨桥西路,,30,25,26,21,22,89,,,,11,15,3,4,0.4,0.4
2025-04-24T0200,1285A,119.317,26.0746,福州市,紫阳,,36,,31,25,22,87,,,,15,26,4,5,0.3,0.4
2025-04-24T0200,3048A,119.5799,26.0936,福州市,九龙,,26,22,21,18,17,83,,,,9,10,3,4,0.3,0.4
2025-04-24T0200,3526A,119.5189,25.9664,福州市,吴航,,29,18,23,12,17,90,,,,9,11,3,3,0.5,0.6
2025-04-24T0200,1755A,123.7977,41.8491,抚顺市,望花区,颗粒物(PM10),56,62,73,3,22,77,,,,8,18,6,12,0.3,0.6
2025-04-24T0200,1756A,123.9161,41.8822,抚顺市,顺城区,,37,37,59,6,16,58,,,,20,21,6,8,0.4,0.6
2025-04-24T0200,1757A,124.0436,41.8611,抚顺市,东洲区,,21,21,51,10,17,56,,,,16,12,6,8,0.4,0.4
2025-04-24T0200,1758A,123.9247,41.8642,抚顺市,新抚区,,35,35,56,6,16,61,,,,9,14,6,8,0.4,0.6
2025-04-24T0200,1759A,124.0972,41.8961,抚顺市,大伙房水库,,36,36,54,6,15,57,,,,12,9,7,8,0.4,0.5
2025-04-24T0200,1760A,123.7086,41.8391,抚顺市,沈抚新城,颗粒物(PM10),57,64,72,3,20,70,,,,9,21,4,9,0.4,0.8
2025-04-24T0200,2376A,116.2127,28.0814,抚州市,桐源党溪,颗粒物(PM10),53,56,57,25,26,24,,,,4,4,3,4,1.1,1.1
2025-04-24T0200,2377A,116.3544,27.9831,抚州市,市站,颗粒物(PM10),60,70,53,31,25,75,,,,11,8,12,9,1.2,1.2
2025-04-24T0200,2378A,116.3565,27.963,抚州市,血防站,颗粒物(PM10),58,65,55,31,26,76,,,,8,4,8,4,0.6,0.6
2025-04-24T0200,2379A,116.3564,28.0007,抚州市,采茶剧团,颗粒物(PM10),57,63,50,30,25,70,,,,7,4,1,3,0.7,0.9
2025-04-24T0200,2380A,116.385,27.9647,抚州市,医学分院,颗粒物(PM10),58,66,49,31,23,71,,,,7,4,7,4,1.0,0.9
2025-04-24T0200,2207A,121.6094,41.998,阜新市,工业园区,颗粒物(PM10),55,59,74,3,14,70,,,,4,13,8,16,0.3,0.4
2025-04-24T0200,2208A,121.6697,42.0279,阜新市,长青街,,42,42,59,6,13,71,,,,6,14,5,14,0.3,0.4
2025-04-24T0200,2209A,121.6673,42.0705,阜新市,农业园区,颗粒物(PM10),58,65,61,3,11,69,,,,4,12,6,12,0.2,0.3
2025-04-24T0200,2210A,121.6717,42.0224,阜新市,东苑,颗粒物(PM10),60,69,73,8,15,71,,,,3,14,8,17,0.3,0.5
2025-04-24T0200,2211A,121.6506,42.0498,阜新市,玉龙新城,颗粒物(PM10),59,67,63,3,11,70,,,,5,12,7,12,0.3,0.4
2025-04-24T0200,2301A,115.8277,32.8929,阜阳市,市监测站,颗粒物(PM10),93,135,111,53,44,114,,,,11,17,7,8,0.3,0.3
2025-04-24T0200,2303A,115.8554,32.8605,阜阳市,开发区,颗粒物(PM10),116,181,148,44,35,73,,,,24,23,7,7,0.4,0.4
2025-04-24T0200,2875A,115.784,32.8892,阜阳市,阜阳职业技术学院,颗粒物(PM10),101,151,125,48,38,102,,,,13,16,5,6,0.5,0.4
2025-04-24T0200,3468A,115.7901,32.8613,阜阳市,市规划展馆,颗粒物(PM10),108,165,144,47,32,116,,,,12,14,7,8,0.5,0.5
2025-04-24T0200,3469A,115.836,32.9183,阜阳市,枣园社区,颗粒物(PM10),117,183,128,47,35,112,,,,12,22,9,10,0.4,0.4
2025-04-24T0200,2669A,102.9099,34.9841,甘南藏族自治州,州政府,,45,45,45,31,27,53,,,,8,10,6,9,0.4,0.3
2025-04-24T0200,3380A,102.8914,34.9617,甘南藏族自治州,甘肃民族师范学院,颗粒物(PM10),57,63,48,31,22,18,,,,31,15,14,9,0.5,0.4
2025-04-24T0200,2570A,101.9603,30.0475,甘孜藏族自治州,水桥子,,15,,8,8,8,39,,,,29,17,4,4,0.1,0.4
2025-04-24T0200,3065A,101.9533,29.9972,甘孜藏族自治州,州环保局,,21,,13,6,5,66,,,,18,22,1,1,0.5,0.5
2025-04-24T0200,3414A,115.8347,28.932,赣江新区,桑海产业园,,44,44,49,20,29,70,,,,9,15,5,3,0.4,0.5
2025-04-24T0200,2362A,114.9017,25.9149,赣州市,通天岩,,29,29,19,3,5,30,,,,5,6,2,2,1.1,1
2025-04-24T0200,2363A,114.9367,25.8664,赣州市,地委,,28,28,20,14,11,62,,,,4,5,2,1,1.1,1
2025-04-24T0200,2364A,114.9461,25.8481,赣州市,气象台,,28,28,27,12,8,66,,,,11,11,8,8,0.7,0.8
2025-04-24T0200,2365A,114.9322,25.8333,赣州市,市图书馆,,21,20,15,12,11,65,,,,7,6,5,4,1.0,0.9
2025-04-24T0200,2366A,114.8905,25.8471,赣州市,华坚鞋城,,28,28,20,13,10,52,,,,8,8,4,4,0.6,0.6
2025-04-24T0200,3109A,115.0093,25.8613,赣州市,赣县区卫计委,,20,16,13,14,8,55,,,,10,6,4,4,0.6,0.6
2025-04-24T0200,2683A,106.2319,36.1417,固原市,马园,颗粒物(PM10),58,66,70,21,22,22,,,,42,35,7,6,0.6,0.6
2025-04-24T0200,2684A,106.2792,36.0022,固原市,监测站,,49,49,51,14,14,38,,,,31,19,6,5,0.6,0.6
2025-04-24T0200,2685A,106.2375,36.0211,固原市,新区,颗粒物(PM10),51,52,52,13,15,7,,,,64,28,5,5,0.6,0.5
2025-04-24T0200,3522A,106.2177,35.9959,固原市,原州区十五小,颗粒物(PM10),51,52,45,19,17,54,,,,24,15,8,8,0.2,0.2
2025-04-24T0200,2543A,106.6308,30.5278,广安市,小平旧居,,,,,,,,,,,,,,,,
2025-04-24T0200,2544A,106.6303,30.4576,广安市,市委,颗粒物(PM10),63,75,95,38,36,80,,,,7,11,3,4,0.3,0.4
2025-04-24T0200,2545A,106.6271,30.4663,广安市,友谊中学,颗粒物(PM10),61,71,77,29,31,79,,,,11,13,2,2,0.5,0.5
2025-04-24T0200,2547A,106.6388,30.4551,广安市,广电花园,颗粒物(PM10),56,62,80,32,34,83,,,,8,12,3,3,0.3,0.3
2025-04-24T0200,2902A,106.6351,30.4865,广安市,北辰小学,颗粒物(PM10),60,70,93,36,35,81,,,,8,12,3,3,0.3,0.3
2025-04-24T0200,2523A,105.8945,32.4535,广元市,黑石坡,颗粒物(PM10),69,88,91,22,28,86,,,,7,8,4,3,0.3,0.3
2025-04-24T0200,2524A,105.821,32.4444,广元市,老城,颗粒物(PM10),63,75,85,34,32,51,,,,36,25,1,2,0.7,0.7
2025-04-24T0200,2526A,105.8628,32.4287,广元市,监测站,细颗粒物(PM2.5),79,70,66,58,40,107,,,,4,12,6,8,0.3,0.4
2025-04-24T0200,3617A,105.8047,32.4166,广元市,经开区,"颗粒物(PM10),细颗粒物(PM2.5)",67,84,96,48,49,97,,,,13,26,5,14,0.4,0.6
2025-04-24T0200,1345A,113.2347,23.1423,广州市,广雅中学,,23,23,44,11,23,27,,,,16,27,3,4,0.3,0.5
2025-04-24T0200,1346A,113.2612,23.105,广州市,市五中,,23,23,40,11,23,26,,,,12,18,2,2,0.5,0.6
2025-04-24T0200,1348A,113.3478,23.0916,广州市,广东商学院,,24,24,41,13,23,22,,,,23,27,4,4,0.4,0.5
2025-04-24T0200,1349A,113.4332,23.1047,广州市,市八十六中,,35,35,41,12,20,12,,,,34,35,5,4,0.7,0.5
2025-04-24T0200,1350A,113.3505,22.9483,广州市,番禺中学,,26,26,35,14,22,31,,,,14,18,5,5,0.5,0.5
2025-04-24T0200,1351A,113.2146,23.3916,广州市,花都师范,,29,29,45,17,26,39,,,,20,22,4,4,0.8,0.8
2025-04-24T0200,1352A,113.2597,23.1331,广州市,市监测站,,22,22,40,10,24,22,,,,18,26,5,6,0.4,0.6
2025-04-24T0200,1353A,113.5618,23.312,广州市,九龙镇镇龙,,28,28,45,17,28,26,,,,21,24,4,5,0.5,0.5
2025-04-24T0200,1354A,113.2765,23.1544,广州市,麓湖,,20,20,39,10,23,26,,,,14,23,3,3,0.4,0.5
2025-04-24T0200,1355A,113.443,23.3035,广州市,帽峰山森林公园,,25,,31,17,24,11,,,,14,17,6,6,0.8,0.8
2025-04-24T0200,2846A,113.3221,23.1322,广州市,体育西,,26,26,43,14,26,28,,,,18,28,4,4,0.5,0.3
2025-04-24T0200,3298A,113.5717,23.5491,广州市,从化街口,,,,41,,26,,,24,,,20,,10,,0.6
2025-04-24T0200,3299A,113.3472,23.3692,广州市,白云竹料,,33,28,46,23,27,64,,,,15,22,2,3,0.6,0.6
2025-04-24T0200,3300A,113.2981,23.237,广州市,白云嘉禾,,43,43,52,28,33,12,,,,45,34,5,5,0.9,0.8
2025-04-24T0200,3301A,113.4256,23.1716,广州市,黄埔科学城,,32,32,45,16,23,13,,,,23,28,8,7,0.3,0.4
2025-04-24T0200,3302A,113.3942,23.0483,广州市,番禺大学城,,36,36,38,14,20,30,,,,17,25,6,5,0.4,0.5
2025-04-24T0200,3303A,113.4922,22.8168,广州市,南沙黄阁,,20,20,40,14,18,17,,,,25,19,4,4,0.7,0.6
2025-04-24T0200,3304A,113.5342,22.7896,广州市,南沙街,,32,32,33,15,16,17,,,,20,15,4,4,0.6,0.6
2025-04-24T0200,3443A,113.2902,23.5544,广州市,花都梯面,,38,34,40,26,26,19,,,,24,17,6,4,0.8,0.6
2025-04-24T0200,3445A,113.7858,23.7478,广州市,从化良口,,24,,28,7,26,74,,,,7,10,6,6,0.4,0.3
2025-04-24T0200,3446A,113.8051,23.2614,广州市,增城荔城,,26,26,39,12,24,23,,,,16,15,7,7,0.2,0.3
2025-04-24T0200,2505A,109.568,23.1478,贵港市,德智高中,,,,,,,,,,,,,,,,
2025-04-24T0200,2506A,109.6047,23.0666,贵港市,江南子站,颗粒物(PM10),53,56,52,29,27,49,,,,12,16,4,5,0.6,0.7
2025-04-24T0200,2508A,109.5669,23.1065,贵港市,荷城子站,颗粒物(PM10),54,57,54,24,22,44,,,,12,16,5,5,0.3,0.4
2025-04-24T0200,3405A,109.5886,23.1172,贵港市,新世纪学校,颗粒物(PM10),51,51,51,28,25,45,,,,12,14,2,6,0.6,0.6
2025-04-24T0200,4260A,109.5933,23.0951,贵港市,中山路155-3号,颗粒物(PM10),54,58,52,37,33,47,,,,12,16,7,7,0.7,0.8
2025-04-24T0200,1439A,106.6899,26.5998,贵阳市,马鞍山,,22,22,41,3,14,26,,,,9,11,4,3,0.4,0.4
2025-04-24T0200,1441A,106.6243,26.6266,贵阳市,鉴湖路,,19,19,48,7,19,41,,,,10,11,11,11,0.4,0.3
2025-04-24T0200,1442A,106.7487,26.6343,贵阳市,燕子冲,,20,,38,14,24,37,,,,10,12,1,2,0.4,0.4
2025-04-24T0200,1443A,106.6555,26.4365,贵阳市,碧云窝,,29,29,55,9,20,40,,,,11,14,4,4,0.4,0.4
2025-04-24T0200,1445A,106.7109,26.6027,贵阳市,红边门,,17,17,46,7,24,42,,,,1,9,3,4,0.1,0.2
2025-04-24T0200,1446A,106.7164,26.5699,贵阳市,新华路,,28,,40,19,26,49,,,,7,10,2,3,0.4,0.4
2025-04-24T0200,1447A,106.674,26.5424,贵阳市,太慈桥,,14,14,41,9,20,38,,,,11,14,4,5,0.2,0.2
2025-04-24T0200,1552A,106.805,26.3003,贵阳市,桐木岭,,32,31,57,22,26,47,,,,5,4,16,18,0.6,0.6
2025-04-24T0200,4230A,106.6882,26.5695,贵阳市,花果园大街66号,,25,22,42,17,26,41,,,,11,14,3,4,0.4,0.4
2025-04-24T0200,4231A,106.6873,26.5169,贵阳市,漓江路57号,,15,12,46,9,21,47,,,,7,11,7,8,0.4,0.3
2025-04-24T0200,1862A,110.4144,25.3167,桂林市,电子科大尧山校区,,,,,,,,,,,,,,,,
2025-04-24T0200,1864A,110.3089,25.2708,桂林市,龙隐路小学,,45,45,53,28,24,70,,,,7,8,13,15,0.5,0.5
2025-04-24T0200,1865A,110.2869,25.2178,桂林市,八中,,47,47,56,24,20,66,,,,10,15,1,6,0.4,0.6
2025-04-24T0200,3531A,110.296,25.1253,桂林市,旅游学院,,36,36,44,24,23,52,,,,12,13,4,4,0.7,0.7
2025-04-24T0200,4222A,110.1835,25.2444,桂林市,环湖路276号,,39,36,54,27,30,62,,,,8,10,11,16,0.4,0.4
2025-04-24T0200,4301A,110.2803,25.2773,桂林市,信义路13号,,,,56,,25,,,82,,,13,,4,,0.6
2025-04-24T0200,2674A,100.2561,34.4714,果洛藏族自治州,玛沁县大武镇,,40,40,37,16,18,87,,,,1,2,20,20,0.3,0.4
2025-04-24T0200,1129A,126.5422,45.755,哈尔滨市,岭北,,22,17,24,3,14,69,,,,10,13,13,12,0.6,0.7
2025-04-24T0200,1130A,126.561,45.8167,哈尔滨市,松北商大,,24,24,30,3,14,57,,,,5,10,5,7,0.3,0.5
2025-04-24T0200,1131A,126.979,45.5419,哈尔滨市,阿城会宁,,19,19,33,7,13,58,,,,6,11,4,6,0.3,0.4
2025-04-24T0200,1132A,126.599,45.7222,哈尔滨市,南岗学府路,,36,36,40,3,10,62,,,,6,12,8,8,0.3,0.4
2025-04-24T0200,1133A,126.689,45.7733,哈尔滨市,太平宏伟公园,,25,25,38,3,15,67,,,,7,17,4,6,0.5,0.6
2025-04-24T0200,1134A,126.635,45.7667,哈尔滨市,道外承德广场,,20,20,30,7,16,57,,,,9,15,5,6,0.3,0.4
2025-04-24T0200,1135A,126.685,45.7319,哈尔滨市,香坊红旗大街,,34,34,45,3,15,54,,,,14,18,6,8,0.3,0.5
2025-04-24T0200,1136A,126.6411,45.7258,哈尔滨市,动力和平路,,25,25,33,3,16,57,,,,8,17,8,9,0.2,0.4
2025-04-24T0200,1137A,126.593,45.7478,哈尔滨市,道里建国路,,23,23,31,3,15,58,,,,8,14,10,10,0.2,0.5
2025-04-24T0200,1138A,126.615,45.61,哈尔滨市,平房东轻厂,,19,19,31,7,12,57,,,,8,8,9,9,0.5,0.5
2025-04-24T0200,1139A,126.595,45.9855,哈尔滨市,呼兰师专,,,,,,,,,,,,,,,,
2025-04-24T0200,1140A,126.6206,45.6842,哈尔滨市,省农科院,,28,28,45,3,16,47,,,,12,20,8,6,0.3,0.4
2025-04-24T0200,2688A,93.5128,42.8172,哈密市,地区监测站,颗粒物(PM10),60,69,35,25,13,26,,,,66,18,3,3,0.7,0.3
2025-04-24T0200,2689A,93.4961,42.8328,哈密市,哈密师范学校,颗粒物(PM10),72,94,32,25,7,6,,,,80,19,5,5,0.8,0.4
2025-04-24T0200,2671A,100.9048,36.9639,海北藏族自治州,海晏县西海镇,,38,38,48,26,27,93,,,,10,7,10,10,0.5,0.5
2025-04-24T0200,3867A,102.0738,36.5056,海东市,平安区公安北苑,细颗粒物(PM2.5),64,62,47,46,25,72,,,,14,9,14,7,0.8,0.5
2025-04-24T0200,1409A,110.576,19.9507,海口市,东寨港,,28,,24,19,15,24,,,,4,5,6,6,0.4,0.5
2025-04-24T0200,1410A,110.3232,20.0574,海口市,海南大学,,29,29,27,14,15,26,,,,9,13,2,2,0.4,0.4
2025-04-24T0200,1411A,110.283,20.0053,海口市,秀英海南医院,,36,36,33,19,17,20,,,,19,21,4,4,0.3,0.3
2025-04-24T0200,1412A,110.338,19.9969,海口市,海南师范大学,,32,32,32,15,16,26,,,,9,12,4,4,0.4,0.4
2025-04-24T0200,1413A,110.33,20.0356,海口市,龙华路环保局宿舍,,35,35,31,16,17,28,,,,6,10,4,4,0.3,0.3
2025-04-24T0200,3539A,110.5111,19.9736,海口市,桂林洋子站,,23,23,29,13,16,25,,,,11,13,4,4,0.2,0.3
2025-04-24T0200,2673A,100.6188,36.2866,海南藏族自治州,共和县恰卜恰镇,,46,46,60,32,35,94,,,,11,9,9,15,0.5,0.5
2025-04-24T0200,2676A,97.3731,37.3753,海西蒙古族藏族自治州,德令哈市,,38,36,64,26,19,103,,,,1,3,14,13,0.4,0.4
2025-04-24T0200,1048A,114.5302,36.6116,邯郸市,东污水处理厂,颗粒物(PM10),80,110,99,9,26,58,,,,19,25,3,4,0.2,0.6
2025-04-24T0200,1049A,114.4918,36.5713,邯郸市,矿院,颗粒物(PM10),83,116,84,7,34,59,,,,12,22,2,5,0.2,0.7
2025-04-24T0200,1050A,114.484,36.6133,邯郸市,丛台公园,颗粒物(PM10),156,261,98,12,26,65,,,,16,18,5,8,0.2,0.6
2025-04-24T0200,3458A,114.7895,36.5593,邯郸市,香泉濮院小区,颗粒物(PM10),79,107,119,7,20,73,,,,8,17,3,8,0.0,0.4
2025-04-24T0200,3579A,114.50634,36.77178,邯郸市,永年区实验高中,颗粒物(PM10),68,86,107,29,33,68,,,,19,21,5,10,0.3,0.8
2025-04-24T0200,3580A,114.20016,36.44293,邯郸市,峰峰矿区临水派出所,颗粒物(PM10),88,125,103,20,34,76,,,,12,11,4,8,0.5,0.5
2025-04-24T0200,2634A,106.9893,33.1842,汉中市,汉川机床厂子校,,46,46,98,20,33,80,,,,11,9,7,8,0.5,0.5
2025-04-24T0200,2635A,107.0154,33.0706,汉中市,市监测站,颗粒物(PM10),64,77,112,32,43,31,,,,34,18,6,11,0.7,0.8
2025-04-24T0200,2636A,107.0089,33.1138,汉中市,鑫源开发区,颗粒物(PM10),67,84,110,37,50,49,,,,42,25,35,10,1.0,0.7
2025-04-24T0200,2637A,107.007,33.0323,汉中市,南郑大河坎水厂,细颗粒物(PM2.5),78,76,105,57,58,34,,,,32,19,5,5,0.5,0.6
2025-04-24T0200,1223A,120.2072,30.2111,杭州市,滨江,颗粒物(PM10),60,70,56,29,24,54,,,,30,24,6,6,0.8,0.7
2025-04-24T0200,1224A,120.0633,30.2747,杭州市,西溪,,42,42,36,25,24,13,,,,40,19,4,4,0.7,0.7
2025-04-24T0200,1226A,120.3417,30.3150,杭州市,下沙,颗粒物(PM10),64,78,51,32,22,66,,,,35,39,6,7,0.6,0.6
2025-04-24T0200,1227A,120.1269,30.2456,杭州市,卧龙桥,,38,38,38,22,26,20,,,,22,20,5,6,0.6,0.6
2025-04-24T0200,1228A,120.1903,30.2692,杭州市,浙江农大,颗粒物(PM10),56,61,51,29,35,43,,,,40,37,2,2,0.5,0.5
2025-04-24T0200,1230A,120.1197,30.3119,杭州市,和睦小学,颗粒物(PM10),54,58,48,30,25,34,,,,47,25,6,7,0.7,0.6
2025-04-24T0200,1231A,120.3019,30.4183,杭州市,临平镇,颗粒物(PM10),66,82,62,41,38,36,,,,65,37,5,6,0.7,0.6
2025-04-24T0200,1232A,120.2753,30.1839,杭州市,城厢镇,细颗粒物(PM2.5),72,77,46,52,32,50,,,,31,25,7,7,0.7,0.5
2025-04-24T0200,1233A,120.0883,30.1808,杭州市,云栖,,40,40,42,17,21,11,,,,32,22,10,10,0.6,0.6
2025-04-24T0200,3557A,119.9464,30.0494,杭州市,镇二中,颗粒物(PM10),52,53,36,30,22,42,,,,29,26,3,2,0.8,0.6
2025-04-24T0200,3558A,119.7183,30.2367,杭州市,市府大楼,,46,46,41,22,26,46,,,,20,17,7,7,0.5,0.6
2025-04-24T0200,3656A,120.1556,30.2864,杭州市,消防大队,颗粒物(PM10),51,51,45,25,29,55,,,,38,29,3,4,0.7,0.7
2025-04-24T0200,1270A,117.1959,31.7848,合肥市,明珠广场,颗粒物(PM10),56,61,92,36,38,72,,,,30,23,3,2,0.5,0.5
2025-04-24T0200,1271A,117.3072,31.8764,合肥市,三里街,颗粒物(PM10),64,78,100,41,37,13,,,,80,26,4,5,0.7,0.6
2025-04-24T0200,1272A,117.2588,31.8707,合肥市,琥珀山庄,细颗粒物(PM2.5),67,61,108,48,35,20,,,,44,26,3,3,0.8,0.6
2025-04-24T0200,1273A,117.1604,31.9052,合肥市,董铺水库,颗粒物(PM10),69,88,99,34,34,22,,,,32,15,3,2,0.3,0.4
2025-04-24T0200,1274A,117.25,31.8571,合肥市,长江中路,细颗粒物(PM2.5),59,66,106,42,42,81,,,,26,20,7,8,0.6,0.6
2025-04-24T0200,1275A,117.266,31.9436,合肥市,庐阳区,颗粒物(PM10),109,168,109,61,40,5,,,,94,23,9,7,0.6,0.5
2025-04-24T0200,1276A,117.3453,31.8616,合肥市,瑶海区,颗粒物(PM10),70,90,108,49,41,24,,,,66,35,6,7,0.5,0.5
2025-04-24T0200,1277A,117.3027,31.7964,合肥市,包河区,颗粒物(PM10),67,83,91,44,41,48,,,,44,29,6,6,0.5,0.5
2025-04-24T0200,1278A,117.2776,31.7385,合肥市,滨湖新区,细颗粒物(PM2.5),62,66,88,44,44,38,,,,52,25,6,7,0.6,0.5
2025-04-24T0200,1279A,117.1318,31.8403,合肥市,高新区,颗粒物(PM10),62,73,96,38,40,73,,,,27,16,2,2,0.6,0.6
2025-04-24T0200,3464A,117.3803,31.9147,合肥市,高教基地,细颗粒物(PM2.5),74,75,102,54,27,26,,,,39,30,4,6,0.5,0.5
2025-04-24T0200,3614A,79.924,37.0877,和田地区,地区环保局,颗粒物(PM10),104,158,578,50,152,91,,,,2,9,3,2,0.3,0.3
2025-04-24T0200,3615A,79.9131,37.113,和田地区,市环保局,颗粒物(PM10),142,233,512,72,120,98,,,,2,6,3,2,0.2,0.1
2025-04-24T0200,2516A,108.2011,24.715,河池市,东仁乐园,,,,,,,,,,,,,,,,
2025-04-24T0200,2517A,108.0497,24.6947,河池市,市环保站,,26,26,17,10,5,46,,,,9,6,9,6,0.5,0.5
2025-04-24T0200,2518A,108.0983,24.6989,河池市,市疾控中心,,40,40,22,21,11,32,,,,19,11,7,7,0.6,0.5
2025-04-24T0200,1696A,114.6778,23.7569,河源市,源西,,35,,31,24,26,53,,,,30,19,3,4,0.6,0.5
2025-04-24T0200,1697A,114.6944,23.7586,河源市,东埔,,32,29,30,22,24,60,,,,18,18,3,4,0.7,0.7
2025-04-24T0200,1698A,114.6892,23.7233,河源市,老城,细颗粒物(PM2.5),62,,35,44,34,44,,,,24,17,4,4,0.6,0.6
2025-04-24T0200,1718A,115.4208,35.2464,菏泽市,气象局,颗粒物(PM10),122,194,151,59,49,116,,,,18,19,6,7,0.4,0.4
2025-04-24T0200,3374A,115.5564,35.0891,菏泽市,定陶老年大学,颗粒物(PM10),106,161,133,46,41,97,,,,17,18,8,8,0.5,0.5
2025-04-24T0200,4184A,115.4797,35.24401,菏泽市,永昌路1号,颗粒物(PM10),122,194,140,75,59,89,,,,28,22,7,8,0.3,0.4
2025-04-24T0200,4193A,115.4715,35.2800,菏泽市,长城路999号,颗粒物(PM10),128,205,140,73,43,83,,,,39,22,10,10,0.3,0.4
2025-04-24T0200,2514A,111.5264,24.4172,贺州市,环保小区,,38,38,40,18,21,50,,,,10,11,7,7,0.8,0.8
2025-04-24T0200,2515A,111.5608,24.4078,贺州市,政协大楼,,41,41,38,22,23,47,,,,14,13,8,8,0.7,0.6
2025-04-24T0200,3534A,111.4744,24.4553,贺州市,西湾,,42,42,34,24,20,48,,,,9,10,8,8,0.6,0.7
2025-04-24T0200,2385A,114.17,35.9019,鹤壁市,市监测站,颗粒物(PM10),147,244,122,46,44,83,,,,17,22,9,7,0,0.4
2025-04-24T0200,2386A,114.2956,35.7511,鹤壁市,市交警支队,颗粒物(PM10),129,207,111,45,35,74,,,,24,28,14,9,0.7,0.7
2025-04-24T0200,2387A,114.2878,35.7306,鹤壁市,迎宾馆,颗粒物(PM10),133,216,117,33,22,76,,,,24,27,8,4,0.7,0.5
2025-04-24T0200,3474A,114.2617,35.6822,鹤壁市,大新区,颗粒物(PM10),119,188,115,51,36,73,,,,26,34,12,9,0.7,0.5
2025-04-24T0200,3596A,114.1572,35.9603,鹤壁市,南山宾馆,颗粒物(PM10),350,460,113,44,43,88,,,,11,12,2,6,0.4,0.5
2025-04-24T0200,2244A,130.2537,47.3416,鹤岗市,哈啤分公司,,36,33,25,25,19,54,,,,8,8,15,15,0.4,0.3
2025-04-24T0200,2245A,130.2684,47.3086,鹤岗市,斯达机电,,38,37,30,26,26,54,,,,13,10,12,12,0.3,0.2
2025-04-24T0200,2246A,130.3114,47.3388,鹤岗市,东山纸板厂,颗粒物(PM10),55,60,61,30,27,46,,,,13,13,14,13,0.4,0.6
2025-04-24T0200,2247A,130.1097,47.3382,鹤岗市,五号水库,,,,,,,,,,,,,,,,
2025-04-24T0200,2263A,127.4833,50.2524,黑河市,交通局,,27,27,40,18,24,72,,,,7,8,7,7,0.3,0.2
2025-04-24T0200,2264A,127.5144,50.2341,黑河市,环保局,,38,,28,26,24,76,,,,5,7,4,3,0.4,0.3
2025-04-24T0200,2265A,127.5291,50.2472,黑河市,大黑河岛,,,,,,,,,,,,,,,,
2025-04-24T0200,1074A,115.6838,37.7541,衡水市,电机北厂,颗粒物(PM10),51,51,102,8,41,81,,,,10,17,5,7,0.2,0.3
2025-04-24T0200,1075A,115.6303,37.7316,衡水市,市监测站,,50,50,90,7,25,83,,,,9,21,3,4,0.2,0.3
2025-04-24T0200,3188A,115.6683,37.7217,衡水市,市城管局,颗粒物(PM10),52,54,95,25,34,82,,,,10,20,4,7,0.2,0.4
2025-04-24T0200,3459A,115.5989,37.5491,衡水市,地表水厂,,45,45,101,31,29,76,,,,19,26,7,11,0.2,0.3
2025-04-24T0200,2456A,112.5003,26.9167,衡阳市,原169医院,,49,49,46,27,26,56,,,,5,9,3,4,0.7,0.6
2025-04-24T0200,2457A,112.6194,26.9258,衡阳市,衡阳化工总厂,颗粒物(PM10),53,56,63,36,37,50,,,,11,9,5,5,0.6,0.6
2025-04-24T0200,2458A,112.6211,26.8956,衡阳市,珠晖区环保局,颗粒物(PM10),52,53,57,25,25,48,,,,20,15,7,7,0.7,0.7
2025-04-24T0200,2459A,112.6197,26.8733,衡阳市,市委党校,,,56,62,,,59,,,,12,11,3,3,0.3,0.5
2025-04-24T0200,2460A,112.6006,26.8919,衡阳市,市监测站,,47,47,57,30,32,61,,,,10,12,8,9,0.7,0.8
2025-04-24T0200,2461A,112.5664,26.9056,衡阳市,真空机电公司,,42,42,54,28,26,52,,,,9,9,5,4,0.7,0.7
2025-04-24T0200,3399A,112.6703,26.882,衡阳市,师范学院,细颗粒物(PM2.5),63,63,64,45,34,52,,,,16,12,6,6,0.7,0.7
2025-04-24T0200,2608A,103.3772,23.3993,红河哈尼族彝族自治州,污水处理厂,细颗粒物(PM2.5),55,50,48,39,36,88,,,,9,8,5,5,0.4,0.4
2025-04-24T0200,2609A,103.3861,23.35,红河哈尼族彝族自治州,监测站,细颗粒物(PM2.5),53,52,61,37,30,83,,,,9,7,5,7,0.3,0.3
2025-04-24T0200,3038A,103.3758,23.368,红河哈尼族彝族自治州,州图书馆,颗粒物(PM10),57,64,45,35,29,81,,,,7,5,4,4,0.3,0.3
2025-04-24T0200,1090A,111.6507,40.7517,呼和浩特市,呼市一监,,24,17,37,3,7,74,,,,3,3,3,3,0.3,0.3
2025-04-24T0200,1091A,111.6572,40.8033,呼和浩特市,小召,,22,17,44,3,9,70,,,,11,13,6,7,0.4,0.4
2025-04-24T0200,1094A,111.7516,40.8369,呼和浩特市,如意水处理厂,,17,16,31,3,8,54,,,,17,11,6,6,0.4,0.4
2025-04-24T0200,1095A,111.7276,40.8062,呼和浩特市,二十九中,,19,14,41,6,10,60,,,,11,8,3,3,0.3,0.2
2025-04-24T0200,1096A,111.5512,40.7866,呼和浩特市,工大金川校区,,15,14,41,3,9,46,,,,24,14,5,6,0.4,0.4
2025-04-24T0200,1097A,111.717,40.7612,呼和浩特市,化肥厂生活区,,20,17,33,3,8,63,,,,11,8,7,7,0.3,0.3
2025-04-24T0200,3698A,111.5968,40.8178,呼和浩特市,红旗小学,,20,9,37,3,8,62,,,,12,15,3,3,0.3,0.3
2025-04-24T0200,3699A,111.6518,40.8389,呼和浩特市,海东办,,22,12,40,3,12,69,,,,6,9,6,6,0.4,0.4
2025-04-24T0200,2192A,119.7594,49.2261,呼伦贝尔市,区环保局,,25,,40,17,22,59,,,,8,6,5,5,0.3,0.3
2025-04-24T0200,3061A,119.7512,49.1577,呼伦贝尔市,国华电力东,,22,22,35,10,14,64,,,,6,5,4,4,0.2,0.2
2025-04-24T0200,1250A,120.0751,30.8669,湖州市,城西水厂,颗粒物(PM10),76,102,65,47,33,26,,,,64,48,9,7,0.5,0.4
2025-04-24T0200,2873A,120.0830,30.8929,湖州市,仁皇山新区,颗粒物(PM10),71,92,65,43,31,27,,,,80,37,4,4,0.9,0.9
2025-04-24T0200,2907A,120.1844,30.8596,湖州市,吴兴区站,颗粒物(PM10),65,79,57,40,29,38,,,,63,31,6,6,0.3,0.3
2025-04-24T0200,3562A,120.4148,30.8538,湖州市,南浔区站,颗粒物(PM10),106,162,68,67,26,55,,,,55,21,6,4,0.7,0.5
2025-04-24T0200,1607A,120.9049,40.7211,葫芦岛市,龙港区,颗粒物(PM10),81,112,75,3,23,73,,,,3,22,7,15,0.3,0.6
2025-04-24T0200,1608A,120.8392,40.7514,葫芦岛市,化工街,颗粒物(PM10),63,75,94,7,24,71,,,,10,32,12,19,0.4,0.7
2025-04-24T0200,1609A,120.8341,40.7073,葫芦岛市,新区,颗粒物(PM10),91,132,72,3,25,73,,,,6,25,7,10,0.3,0.7
2025-04-24T0200,1610A,120.8695,40.7677,葫芦岛市,东城区,颗粒物(PM10),75,99,77,3,26,71,,,,5,26,4,8,0.3,0.6
2025-04-24T0200,2482A,109.5981,27.5721,怀化市,林科所,,48,48,58,20,23,27,,,,6,7,8,10,0.1,0.5
2025-04-24T0200,2483A,109.9453,27.5444,怀化市,河西地税局,颗粒物(PM10),51,52,56,21,25,10,,,,21,15,10,11,0.5,0.5
2025-04-24T0200,2484A,109.9781,27.5342,怀化市,市四医院,颗粒物(PM10),52,53,62,21,27,31,,,,11,7,6,6,0.6,0.5
2025-04-24T0200,2485A,109.9972,27.5578,怀化市,监测楼,,49,49,60,23,26,40,,,,5,6,2,2,0.5,0.5
2025-04-24T0200,2486A,110.0394,27.583,怀化市,市委党校,,46,46,55,27,25,19,,,,11,9,6,6,0.6,0.6
2025-04-24T0200,1210A,119.036,33.5981,淮安市,钵池山,颗粒物(PM10),95,139,95,39,39,107,,,,20,20,14,11,0.8,0.6
2025-04-24T0200,1211A,119.007,33.575,淮安市,北京南路,颗粒物(PM10),85,119,92,39,40,82,,,,32,28,16,11,1.2,0.9
2025-04-24T0200,1212A,118.989,33.6067,淮安市,市监测站,颗粒物(PM10),85,119,88,39,38,100,,,,25,23,9,10,0.5,0.5
2025-04-24T0200,1213A,119.135,33.5039,淮安市,楚州区监测站,颗粒物(PM10),106,161,99,53,45,33,,,,61,35,9,8,0.5,0.6
2025-04-24T0200,3426A,118.8755,33.2894,淮安市,新华书店,颗粒物(PM10),82,114,84,27,26,82,,,,27,20,8,9,0.4,0.4
2025-04-24T0200,4206A,119.0288,33.6319,淮安市,承德北路606号,颗粒物(PM10),91,132,97,34,40,100,,,,24,20,11,10,0.4,0.5
2025-04-24T0200,2282A,116.8004,33.975,淮北市,监测站,颗粒物(PM10),123,195,151,66,47,44,,,,39,25,8,10,1.1,0.8
2025-04-24T0200,2283A,116.8091,33.9007,淮北市,烈山区政府,颗粒物(PM10),126,202,167,58,54,55,,,,47,38,12,10,0.8,0.8
2025-04-24T0200,3330A,116.8873,33.9836,淮北市,杜集区检察院,颗粒物(PM10),119,187,150,63,49,77,,,,31,24,13,9,1.0,0.8
2025-04-24T0200,4017A,116.7923,33.9535,淮北市,市博物馆,颗粒物(PM10),117,184,143,70,52,50,,,,37,27,10,10,1.1,0.8
2025-04-24T0200,2277A,116.8305,32.7727,淮南市,潘集区政府,颗粒物(PM10),92,133,122,55,42,68,,,,24,21,8,6,0.4,0.4
2025-04-24T0200,2279A,116.8569,32.5951,淮南市,谢家集区政府,颗粒物(PM10),96,142,108,42,33,99,,,,16,16,5,6,0.5,0.5
2025-04-24T0200,2280A,116.8281,32.633,淮南市,八公山区政府,颗粒物(PM10),101,151,119,41,31,124,,,,11,9,6,6,0.3,0.3
2025-04-24T0200,2281A,116.6325,32.6201,淮南市,焦岗湖风景区管理处,,,,,,,,,,,,,,,,
2025-04-24T0200,2894A,117.0566,32.6531,淮南市,经济技术开发区消防队,颗粒物(PM10),94,137,106,49,42,71,,,,33,22,7,8,0.4,0.4
2025-04-24T0200,3329A,117.0108,32.5893,淮南市,山南新区,颗粒物(PM10),116,182,134,55,34,94,,,,14,16,9,9,0.5,0.5
2025-04-24T0200,4209A,117.0031,32.6445,淮南市,国庆中路369号,颗粒物(PM10),105,160,118,50,42,116,,,,10,18,10,10,0.2,0.3
2025-04-24T0200,2446A,114.9028,30.4742,黄冈市,职工中心,颗粒物(PM10),61,72,64,36,41,82,,,,18,19,7,8,0.6,0.8
2025-04-24T0200,2929A,114.8858,30.4519,黄冈市,红卫路,颗粒物(PM10),66,82,72,37,43,77,,,,14,9,6,7,0.6,0.7
2025-04-24T0200,3398A,114.9136,30.4445,黄冈市,市林业局,颗粒物(PM10),74,98,75,40,44,4,,,,82,17,8,9,0.7,0.7
2025-04-24T0200,2672A,102.0199,35.5102,黄南藏族自治州,同仁县隆务镇,颗粒物(PM10),51,52,71,28,29,62,,,,1,4,4,6,0.2,0.2
2025-04-24T0200,2295A,118.2903,29.6963,黄山市,延安路89号,,29,27,29,20,24,27,,,,8,5,4,4,0.5,0.6
2025-04-24T0200,2297A,118.1371,30.2756,黄山市,黄山区政府5号楼,,36,36,53,21,25,18,,,,8,7,3,3,0.7,0.8
2025-04-24T0200,4210A,118.3354,29.7203,黄山市,滨江东路7-2号,,41,41,44,17,22,17,,,,11,9,4,4,0.7,0.7
2025-04-24T0200,2423A,115.0601,30.2313,黄石市,沈家营,颗粒物(PM10),64,78,75,35,32,67,,,,20,12,10,7,0.9,0.9
2025-04-24T0200,2426A,114.8988,30.2019,黄石市,铁山,颗粒物(PM10),63,75,83,33,41,57,,,,23,20,7,8,0.2,0.4
2025-04-24T0200,2427A,115.0307,30.2092,黄石市,团城山,颗粒物(PM10),66,82,70,34,31,73,,,,28,18,16,10,0.9,0.7
2025-04-24T0200,3149A,115.0235,30.1578,黄石市,笔架山北路,颗粒物(PM10),60,70,64,36,31,45,,,,41,15,7,8,1.2,0.8
2025-04-24T0200,4185A,115.0780,30.21118,黄石市,磁湖东路29号,颗粒物(PM10),62,74,73,42,43,79,,,,15,12,10,8,0.8,0.8
2025-04-24T0200,1392A,114.4183,23.0528,惠州市,河南岸金山湖子站,,24,24,32,12,21,18,,,,25,20,8,8,0.3,0.4
2025-04-24T0200,1393A,114.4053,23.0822,惠州市,下埔横江三路子站,,34,34,37,18,21,16,,,,26,19,8,8,0.5,0.6
2025-04-24T0200,1394A,114.4103,23.1142,惠州市,江北云山西路子站,,38,38,39,19,22,13,,,,26,18,12,11,0.4,0.4
2025-04-24T0200,1395A,114.4645,22.7833,惠州市,惠阳区承修路船湖子站,,24,24,30,14,17,28,,,,12,15,7,7,0.4,0.4
2025-04-24T0200,1396A,114.5317,22.7422,惠州市,大亚湾管委会子站,,32,32,30,14,16,12,,,,26,18,8,7,0.6,0.5
2025-04-24T0200,3314A,114.4338,22.8134,惠州市,惠阳秋长,,22,22,29,11,17,27,,,,18,18,4,8,0.5,0.5
2025-04-24T0200,3452A,114.6517,22.775,惠州市,大亚湾霞涌,,13,,21,9,14,27,,,,15,15,6,6,0.5,0.4
2025-04-24T0200,2240A,130.9762,45.3001,鸡西市,环保局,,44,44,40,26,25,43,,,,18,16,7,8,0.4,0.4
2025-04-24T0200,2243A,130.9429,45.3039,鸡西市,第一中学,细颗粒物(PM2.5),53,49,33,37,20,32,,,,23,14,7,8,0.5,0.4
2025-04-24T0200,3707A,131.0207,45.3073,鸡西市,欧美日汽修厂,颗粒物(PM10),98,145,49,56,26,28,,,,21,14,7,7,0.6,0.5
2025-04-24T0200,3709A,130.9967,45.3106,鸡西市,市政设施管理处,颗粒物(PM10),55,59,42,32,24,35,,,,20,18,8,8,0.6,0.5
2025-04-24T0200,2367A,114.9754,27.0803,吉安市,红声器材厂,,38,38,35,19,17,30,,,,12,9,10,10,0.7,0.6
2025-04-24T0200,2368A,114.9658,27.0999,吉安市,市森林工业局,,36,36,32,21,18,35,,,,14,9,9,10,0.7,0.5
2025-04-24T0200,2369A,114.99,27.1312,吉安市,市环境监测站,,40,40,28,17,13,52,,,,10,6,18,13,0.8,0.7
2025-04-24T0200,2370A,115.0093,27.0968,吉安市,青原区法院,,35,33,33,24,20,12,,,,19,9,11,12,0.5,0.5
2025-04-24T0200,1772A,126.54,43.8622,吉林市,哈达湾,,29,29,29,3,11,76,,,,8,11,6,6,0.2,0.3
2025-04-24T0200,1773A,126.5844,43.8358,吉林市,东局子,,38,38,30,3,11,77,,,,8,10,5,5,0.4,0.5
2025-04-24T0200,1774A,126.5052,43.8245,吉林市,电力学院,,24,21,27,3,10,74,,,,6,11,4,5,0.3,0.4
2025-04-24T0200,1775A,126.6133,43.8972,吉林市,江北,,31,31,32,3,8,74,,,,7,12,6,6,0.5,0.5
2025-04-24T0200,1776A,126.555,43.8306,吉林市,江南公园,,26,25,26,3,13,82,,,,4,8,5,5,0.2,0.3
2025-04-24T0200,1778A,126.7061,43.7133,吉林市,丰满,,,,,,,,,,,,,,,,
2025-04-24T0200,2868A,126.4739,43.953,吉林市,九站,,27,27,30,3,10,73,,,,6,9,6,8,0.7,0.8
2025-04-24T0200,1299A,116.9862,36.6114,济南市,科干所,颗粒物(PM10),75,100,86,10,27,82,,,,16,17,4,9,0.2,0.4
2025-04-24T0200,1300A,116.9376,36.665,济南市,农科所,颗粒物(PM10),67,83,94,7,27,82,,,,14,30,7,9,0.2,0.4
2025-04-24T0200,1301A,117.1265,36.6734,济南市,开发区,颗粒物(PM10),80,110,87,15,28,86,,,,13,24,7,9,0.5,0.6
2025-04-24T0200,1303A,117.0624,36.6868,济南市,省种子仓库,颗粒物(PM10),114,178,116,19,37,85,,,,13,34,4,7,0.6,0.8
2025-04-24T0200,1304A,116.9489,36.6447,济南市,机床二厂,颗粒物(PM10),89,127,117,3,29,76,,,,23,30,7,10,0.3,0.5
2025-04-24T0200,1305A,117.0495,36.663,济南市,市监测站,颗粒物(PM10),91,132,98,29,31,80,,,,16,30,8,10,0.3,0.5
2025-04-24T0200,1306A,116.7675,36.5484,济南市,长清党校,颗粒物(PM10),83,115,95,10,31,89,,,,14,22,4,9,0.5,0.7
2025-04-24T0200,1616A,117.6795,36.229,济南市,技术学院,颗粒物(PM10),107,163,110,24,42,88,,,,17,39,10,16,0.4,1
2025-04-24T0200,1961A,117.532,36.6868,济南市,东山小学,颗粒物(PM10),61,71,94,3,25,97,,,,3,26,6,9,0.2,0.4
2025-04-24T0200,3059A,117.7161,36.2049,济南市,泰兴公司,颗粒物(PM10),71,92,94,9,36,92,,,,17,46,9,12,0.5,0.8
2025-04-24T0200,3064A,117.6867,36.2171,济南市,莱芜战役纪念馆,颗粒物(PM10),97,144,94,7,32,92,,,,19,39,5,9,0.4,0.8
2025-04-24T0200,3494A,117.1673,36.9782,济南市,济阳区政府,,49,49,110,12,31,86,,,,11,40,5,9,0.3,0.5
2025-04-24T0200,3495A,117.1171,36.63,济南市,锦屏中学,颗粒物(PM10),67,83,78,10,27,88,,,,13,18,5,6,0.2,0.3
2025-04-24T0200,3682A,116.9814,36.6819,济南市,济南四建,颗粒物(PM10),62,73,97,7,31,80,,,,15,31,4,7,0.3,0.5
2025-04-24T0200,1653A,116.6251,35.4302,济宁市,火炬城,颗粒物(PM10),104,158,103,63,42,23,,,,45,26,6,9,0.7,0.4
2025-04-24T0200,1655A,116.5491,35.4042,济宁市,电化厂,颗粒物(PM10),99,148,106,63,43,51,,,,37,31,2,5,0.6,0.4
2025-04-24T0200,3500A,116.5814,35.3707,济宁市,北湖一中,颗粒物(PM10),120,189,125,31,29,37,,,,38,25,4,9,0.5,0.4
2025-04-24T0200,3501A,116.8249,35.5593,济宁市,服务中心,颗粒物(PM10),107,164,119,45,36,23,,,,75,36,3,5,0.7,0.5
2025-04-24T0200,3678A,116.5907,35.4054,济宁市,市第七中学,颗粒物(PM10),106,162,109,63,36,52,,,,27,15,7,8,0.6,0.4
2025-04-24T0200,2255A,130.2751,46.8028,佳木斯市,佳纺,,40,40,43,28,26,46,,,,14,15,8,8,0.6,0.5
2025-04-24T0200,2256A,130.3995,46.8307,佳木斯市,发电厂,,50,,43,35,23,53,,,,11,14,4,5,0.3,0.2
2025-04-24T0200,2257A,130.3258,46.7975,佳木斯市,环保局,,42,39,36,29,24,56,,,,18,18,4,4,0.5,0.4
2025-04-24T0200,2258A,130.3648,46.8032,佳木斯市,十一中,,46,37,31,32,22,60,,,,17,18,8,8,0.6,0.5
2025-04-24T0200,2259A,130.3794,46.7588,佳木斯市,四丰,,42,42,23,18,14,51,,,,11,8,1,1,1.2,1
2025-04-24T0200,1252A,120.7436,30.778,嘉兴市,清河小学,颗粒物(PM10),100,149,80,56,27,61,,,,46,30,6,5,0.9,0.9
2025-04-24T0200,1253A,120.726,30.7478,嘉兴市,嘉兴学院,颗粒物(PM10),80,109,57,57,28,51,,,,61,39,7,7,0.9,0.9
2025-04-24T0200,2872A,120.7846,30.7525,嘉兴市,南湖区残联,细颗粒物(PM2.5),79,92,57,58,31,71,,,,48,24,6,6,0.8,0.8
2025-04-24T0200,3407A,120.6916,30.7739,嘉兴市,秀洲住建,颗粒物(PM10),90,129,73,51,29,25,,,,86,36,7,7,0.9,0.8
2025-04-24T0200,1945A,98.2908,39.7711,嘉峪关市,气象局,,24,24,34,9,10,70,,,,16,16,6,26,0.2,0.4
2025-04-24T0200,2884A,98.2672,39.7978,嘉峪关市,酒钢宾馆,,31,31,39,9,14,87,,,,4,13,12,45,0.2,0.5
2025-04-24T0200,3248A,98.2643,39.7724,嘉峪关市,雄关区,,37,37,36,20,16,69,,,,17,20,4,13,0.3,0.6
2025-04-24T0200,1383A,113.1064,22.6058,江门市,北街,,20,20,25,7,16,31,,,,8,12,2,2,0.3,0.4
2025-04-24T0200,1384A,113.0731,22.5835,江门市,西区,,29,29,30,11,16,35,,,,11,14,5,6,0.3,0.4
2025-04-24T0200,1385A,113.0219,22.5311,江门市,圭峰西,,23,23,30,14,13,15,,,,24,13,4,3,0.3,0.3
2025-04-24T0200,1386A,113.0828,22.5947,江门市,东湖,,23,22,30,16,16,34,,,,11,13,7,7,0.3,0.4
2025-04-24T0200,3311A,113.1075,22.5647,江门市,江海富民,,31,31,38,16,20,33,,,,8,9,7,7,0.3,0.4
2025-04-24T0200,3449A,113.05,22.4667,江门市,新会银湖,,28,28,31,13,16,26,,,,11,13,2,2,0.3,0.3
2025-04-24T0200,1830A,113.1992,35.2590,焦作市,影视城,,,,160,,46,,,,,,17,,15,,0.7
2025-04-24T0200,3169A,113.2725,35.2067,焦作市,太极体育中心,颗粒物(PM10),97,143,167,61,58,35,,,,53,23,26,10,0.6,0.3
2025-04-24T0200,3335A,113.3137,35.2641,焦作市,马村街道办,颗粒物(PM10),107,163,155,49,55,65,,,,30,18,10,11,0.8,0.6
2025-04-24T0200,3336A,113.2465,35.2373,焦作市,焦作技师学院,颗粒物(PM10),91,131,167,31,47,65,,,,29,18,11,11,0.6,0.4
2025-04-24T0200,3477A,113.1656,35.2539,焦作市,中站许衡医院,颗粒物(PM10),63,76,144,39,52,79,,,,39,30,29,17,1.3,0.7
2025-04-24T0200,3981A,113.2449,35.1803,焦作市,原李万街道办,颗粒物(PM10),96,142,168,46,62,65,,,,37,28,19,13,0.6,0.4
2025-04-24T0200,4264A,113.2340,35.2190,焦作市,新安路1731号,颗粒物(PM10),91,132,175,48,60,54,,,,38,22,15,12,0.8,0.6
2025-04-24T0200,1708A,116.3701,23.5345,揭阳市,新兴,,45,44,34,31,25,29,,,,31,12,12,6,0.8,0.7
2025-04-24T0200,1709A,116.3264,23.5443,揭阳市,西马,颗粒物(PM10),52,53,42,25,25,18,,,,22,10,9,7,0.9,0.7
2025-04-24T0200,1710A,116.3611,23.5626,揭阳市,东兴,,42,39,42,29,23,21,,,,27,11,11,6,1.1,0.9
2025-04-24T0200,1711A,116.4151,23.5294,揭阳市,渔湖,,36,36,33,17,21,30,,,,32,13,5,4,0.8,0.7
2025-04-24T0200,3320A,116.403,23.5699,揭阳市,曲溪,,40,40,31,26,22,38,,,,27,16,24,13,0.7,0.6
2025-04-24T0200,1944A,102.1692,38.5167,金昌市,天庆家园,,36,36,36,16,11,60,,,,16,8,11,8,0.9,0.7
2025-04-24T0200,4022A,102.1647,38.5371,金昌市,金川区人防中心,,34,34,43,9,11,75,,,,6,7,30,14,0.4,0.4
2025-04-24T0200,4239A,102.1930,38.5319,金昌市,长春路96号,,32,32,40,11,11,66,,,,6,5,21,17,0.8,0.7
2025-04-24T0200,1262A,119.647,29.077,金华市,十五中,细颗粒物(PM2.5),98,76,57,73,44,27,,,,42,27,3,2,0.7,0.7
2025-04-24T0200,1263A,119.686,29.1029,金华市,监测站,细颗粒物(PM2.5),57,54,50,40,46,3,,,,62,29,5,4,0.8,0.7
2025-04-24T0200,3659A,119.656,29.1131,金华市,气象局,颗粒物(PM10),57,63,51,35,29,24,,,,42,28,2,2,0.8,0.7
2025-04-24T0200,1767A,121.1115,41.0879,锦州市,南山,颗粒物(PM10),69,87,72,3,28,73,,,,6,24,5,11,0.4,0.6
2025-04-24T0200,1768A,121.0604,40.8428,锦州市,开发区,颗粒物(PM10),97,144,80,3,26,71,,,,10,27,7,8,0.4,0.6
2025-04-24T0200,1769A,121.1836,41.1119,锦州市,百股街道,,,94,66,3,16,,,,,5,23,4,9,0.4,0.6
2025-04-24T0200,1770A,121.1178,41.1222,锦州市,天安街道,颗粒物(PM10),63,75,70,15,26,71,,,,12,23,6,10,0.4,0.7
2025-04-24T0200,1771A,121.1303,41.1386,锦州市,北湖公园,颗粒物(PM10),53,56,64,6,26,72,,,,5,21,7,11,0.3,0.6
2025-04-24T0200,2160A,112.85,35.5051,晋城市,自来水公司,颗粒物(PM10),75,99,130,17,34,79,,,,18,19,19,10,1.0,0.7
2025-04-24T0200,2161A,112.8318,35.4936,晋城市,白云商贸,颗粒物(PM10),72,93,145,7,37,86,,,,20,18,14,8,0.8,0.6
2025-04-24T0200,2162A,112.8508,35.4887,晋城市,市环保局,颗粒物(PM10),73,96,137,24,39,76,,,,18,18,14,6,0.7,0.4
2025-04-24T0200,2163A,112.8676,35.4897,晋城市,技术学院,颗粒物(PM10),73,96,135,14,45,77,,,,20,19,16,8,0.9,0.6
2025-04-24T0200,2165A,112.8453,35.546,晋城市,白马寺,细颗粒物(PM2.5),60,67,107,43,55,83,,,,15,8,16,6,0.7,0.4
2025-04-24T0200,3620A,112.8271,35.4828,晋城市,泽州一中,颗粒物(PM10),66,81,155,14,52,89,,,,15,13,14,10,0.6,0.5
2025-04-24T0200,2173A,112.7249,37.7067,晋中市,南都小区,,41,41,116,16,32,88,,,,12,23,4,21,0.1,0.3
2025-04-24T0200,2174A,112.6991,37.6982,晋中市,榆次区政府,颗粒物(PM10),53,56,123,11,27,81,,,,18,26,6,19,0.1,0.5
2025-04-24T0200,2865A,112.7195,37.6828,晋中市,榆次三中,,44,44,134,3,37,92,,,,8,27,3,17,0.2,0.5
2025-04-24T0200,4200A,112.7478,37.6954,晋中市,迎宾街26号,,41,41,131,3,32,85,,,,7,21,3,17,0.1,0.5
2025-04-24T0200,2439A,112.2014,31.0481,荆门市,竹园小学,颗粒物(PM10),66,82,136,38,45,72,,,,12,12,5,6,0.5,0.1
2025-04-24T0200,2440A,112.1969,30.9891,荆门市,掇刀,,,,121,,41,,,95,,,18,,12,,0.3
2025-04-24T0200,2441A,112.2213,31.0386,荆门市,石化一小,颗粒物(PM10),75,99,127,43,45,62,,,,12,12,8,9,0.3,0.3
2025-04-24T0200,3012A,112.1849,31.0362,荆门市,西山林语,颗粒物(PM10),66,82,119,40,43,60,,,,10,8,7,8,0.5,0.3
2025-04-24T0200,3547A,112.1632,31.0138,荆门市,龙泉中学南校,颗粒物(PM10),63,76,117,32,45,51,,,,19,18,6,8,0.5,0.5
2025-04-24T0200,1844A,112.2494,30.3197,荆州市,市图书馆,颗粒物(PM10),55,60,83,31,39,41,,,,12,16,4,5,0.5,0.4
2025-04-24T0200,1845A,112.2008,30.3544,荆州市,市委党校,颗粒物(PM10),55,60,89,31,42,39,,,,12,15,6,6,0.4,0.4
2025-04-24T0200,3194A,112.2747,30.3122,荆州市,管委会,颗粒物(PM10),55,60,83,36,42,40,,,,13,15,5,6,0.6,0.6
2025-04-24T0200,4268A,112.1722,30.3366,荆州市,学苑路85号,颗粒物(PM10),55,60,76,30,38,33,,,,21,16,2,3,0.3,0.3
2025-04-24T0200,2342A,117.3102,29.3867,景德镇市,王港中学,,,,,,,,,,,,,,,,
2025-04-24T0200,2343A,117.2117,29.2933,景德镇市,老干部活动中心,颗粒物(PM10),53,56,45,27,30,66,,,,10,13,7,9,0.6,0.6
2025-04-24T0200,2344A,117.1894,29.2789,景德镇市,兽医站,颗粒物(PM10),56,62,53,33,29,60,,,,10,15,4,7,0.7,0.6
2025-04-24T0200,2345A,117.1547,29.2617,景德镇市,台达陶瓷,细颗粒物(PM2.5),59,61,52,42,33,60,,,,24,18,27,43,1.0,0.8
2025-04-24T0200,2346A,117.2461,29.2956,景德镇市,陶研所,细颗粒物(PM2.5),53,46,42,37,34,49,,,,9,10,7,6,0.6,0.6
2025-04-24T0200,1803A,115.9872,29.6815,九江市,十里,,36,36,52,24,39,79,,,,18,18,2,3,0.7,0.7
2025-04-24T0200,1804A,115.9584,29.7046,九江市,茅山头,,49,49,61,33,37,50,,,,40,23,5,5,0.3,0.6
2025-04-24T0200,1805A,115.9877,29.7295,九江市,西园,二氧化氮,52,47,70,28,45,36,,,,103,51,8,13,0.9,1
2025-04-24T0200,1808A,115.9114,29.6038,九江市,综合工业园,,38,38,56,22,34,84,,,,23,30,7,9,0.6,0.8
2025-04-24T0200,1809A,116.0721,29.7535,九江市,石化总厂,细颗粒物(PM2.5),64,73,76,46,54,24,,,,79,34,20,15,1.0,1
2025-04-24T0200,1810A,115.9773,29.5698,九江市,庐山气象台,,39,29,48,25,27,122,,,,6,9,6,7,0.9,0.8
2025-04-24T0200,3190A,116.0254,29.6994,九江市,外国语学校,,46,39,59,32,40,74,,,,33,24,5,5,0.9,1.1
2025-04-24T0200,4253A,116.0102,29.6594,九江市,莲花大道8号,,43,43,57,18,26,82,,,,3,7,3,4,0.6,0.8
2025-04-24T0200,4240A,98.4958,39.7339,酒泉市,玉门东路5号,,39,29,35,27,20,89,,,,3,10,9,12,0.2,0.3
2025-04-24T0200,4241A,98.5099,39.7506,酒泉市,北大街108号,,29,24,32,20,17,84,,,,6,13,9,13,0.2,0.3
2025-04-24T0200,2698A,76.0072,39.4467,喀什地区,巡警大队,颗粒物(PM10),63,75,199,18,36,52,,,,40,22,3,3,0.6,0.5
2025-04-24T0200,2699A,75.9755,39.4694,喀什地区,吾办,,47,47,151,19,45,75,,,,20,20,3,4,0.4,0.5
2025-04-24T0200,4027A,75.9483,39.4689,喀什地区,老干局,,48,48,155,8,32,77,,,,15,15,2,2,0.4,0.4
2025-04-24T0200,1824A,114.3389,34.7781,开封市,肿瘤医院,颗粒物(PM10),110,169,166,50,49,72,,,,24,21,10,10,0.4,0.4
2025-04-24T0200,1826A,114.2885,34.7965,开封市,世纪星幼儿园,颗粒物(PM10),106,162,165,60,52,86,,,,30,26,7,8,0.6,0.6
2025-04-24T0200,3147A,114.3438,34.8106,开封市,龙亭公园,颗粒物(PM10),102,153,172,52,52,84,,,,24,23,5,6,0.7,0.6
2025-04-24T0200,3210A,114.3644,34.7964,开封市,汴京公园,颗粒物(PM10),116,182,196,61,52,87,,,,22,22,5,6,0.7,0.8
2025-04-24T0200,3473A,114.2485,34.8306,开封市,技师学院,颗粒物(PM10),105,160,159,75,65,85,,,,27,22,7,7,1.0,0.9
2025-04-24T0200,3592A,114.4644,34.7556,开封市,祥符区生态环境局,颗粒物(PM10),111,172,148,54,50,82,,,,26,33,9,10,0.5,0.5
2025-04-24T0200,1951A,84.895,45.6094,克拉玛依市,长征新村,,26,9,23,3,10,82,,,,4,12,6,7,0.2,0.2
2025-04-24T0200,1952A,84.8988,45.5893,克拉玛依市,南林小区,,29,15,25,8,9,91,,,,2,12,2,3,0.2,0.3
2025-04-24T0200,1954A,84.905,44.3396,克拉玛依市,独山子区,,33,33,31,22,14,101,,,,4,11,8,10,0.3,0.4
2025-04-24T0200,1955A,85.6979,46.098,克拉玛依市,乌尔禾区商贸楼,,30,,28,21,9,80,,,,2,12,6,6,0.3,0.3
2025-04-24T0200,3612A,85.1045,45.6899,克拉玛依市,白碱滩区新站,,29,21,43,3,11,91,,,,3,10,9,10,0.1,0.3
2025-04-24T0200,2697A,76.1454,39.7142,克孜勒苏柯尔克孜自治州,市人民政府,,33,32,109,12,34,105,,,,7,5,10,9,0.1,0.2
2025-04-24T0200,3665A,76.1658,39.7157,克孜勒苏柯尔克孜自治州,克州文化中心,,35,13,127,3,40,109,,,,2,4,11,18,0.2,0.2
2025-04-24T0200,1450A,102.8204,24.8886,昆明市,呈贡新区,,46,46,41,30,31,104,,,,11,12,5,6,0.6,0.5
2025-04-24T0200,1451A,102.6251,24.9608,昆明市,西山森林公园,,,,,,,,,,,,,,,,
2025-04-24T0200,1452A,102.7252,25.0902,昆明市,龙泉镇,,40,40,37,28,22,87,,,,14,21,10,9,0.4,0.4
2025-04-24T0200,1453A,102.7266,25.0375,昆明市,东风东路,细颗粒物(PM2.5),54,53,38,38,28,91,,,,16,14,9,10,0.5,0.5
2025-04-24T0200,1454A,102.6742,25.0669,昆明市,金鼎山,颗粒物(PM10),52,53,42,28,26,77,,,,25,20,6,6,0.4,0.4
2025-04-24T0200,1455A,102.6644,25.0401,昆明市,碧鸡广场,颗粒物(PM10),58,66,47,32,24,48,,,,49,22,10,8,0.5,0.4
2025-04-24T0200,3179A,102.7494,25.0119,昆明市,官渡区博物馆,,44,44,41,30,23,96,,,,11,12,8,8,0.4,0.4
2025-04-24T0200,3375A,102.8017,24.8336,昆明市,青年创业园,颗粒物(PM10),51,51,37,27,23,102,,,,12,13,9,8,0.6,0.5
2025-04-24T0200,3550A,102.7997,24.9786,昆明市,昆明学院,颗粒物(PM10),56,62,42,37,24,101,,,,10,12,7,6,0.5,0.4
2025-04-24T0200,3551A,102.5967,24.6736,昆明市,晋宁区生态环境分局,,39,39,29,27,21,95,,,,10,7,7,8,0.5,0.4
2025-04-24T0200,3552A,102.6678,24.9856,昆明市,云天化总部,细颗粒物(PM2.5),59,60,37,42,21,101,,,,7,12,7,8,0.4,0.4
2025-04-24T0200,1456A,91.1319,29.6514,拉萨市,八廓街,,39,23,27,8,11,123,,,,9,10,14,6,0.4,0.5
2025-04-24T0200,1457A,91.1221,29.6747,拉萨市,市环保局,,39,22,29,7,11,123,,,,10,13,12,4,0.4,0.4
2025-04-24T0200,1458A,91.0874,29.6475,拉萨市,区监测站,,36,18,21,8,9,113,,,,18,15,9,6,0.2,0.5
2025-04-24T0200,1459A,91.1774,29.6541,拉萨市,西藏大学,,40,21,23,7,8,125,,,,9,10,15,6,0.2,0.2
2025-04-24T0200,1460A,90.9798,29.6588,拉萨市,区辐射站,,29,23,26,12,10,90,,,,33,18,11,8,0.4,0.4
2025-04-24T0200,1461A,91.0834,29.6292,拉萨市,拉萨火车站,,36,11,18,6,7,115,,,,14,6,6,4,0.3,0.3
2025-04-24T0200,2520A,109.2203,23.7256,来宾市,来宾技工学校,,40,40,41,14,20,53,,,,6,7,9,8,0.7,0.7
2025-04-24T0200,3535A,109.1781,23.7297,来宾市,兴宾区政府,,39,39,37,21,21,53,,,,6,7,6,5,0.8,0.8
2025-04-24T0200,4002A,109.2416,23.7461,来宾市,中南小学,,40,40,39,18,18,48,,,,9,10,7,11,0.7,0.7
2025-04-24T0200,1477A,104.1373,35.9454,兰州市,榆中兰大校区,,,,,,,,,,,,,,,,
2025-04-24T0200,1479A,103.831,36.0464,兰州市,铁路设计院,颗粒物(PM10),54,58,74,24,24,48,,,,46,50,8,19,0.5,1
2025-04-24T0200,3241A,103.7439,36.0842,兰州市,百合公园,颗粒物(PM10),56,61,66,19,21,7,,,,69,45,1,6,0.4,0.6
2025-04-24T0200,3242A,103.9611,35.998,兰州市,和平,,50,50,67,10,36,92,,,,5,13,9,13,0.3,0.5
2025-04-24T0200,4236A,103.6293,36.0938,兰州市,庄浪东路808号,颗粒物(PM10),57,64,76,27,29,59,,,,32,34,10,12,0.3,0.4
2025-04-24T0200,4237A,103.7251,36.1043,兰州市,安宁西路88号,颗粒物(PM10),62,73,79,33,33,22,,,,55,27,6,8,0.4,0.5
2025-04-24T0200,4238A,103.8470,36.0676,兰州市,北滨河东路1号,颗粒物(PM10),57,64,68,34,29,18,,,,73,44,11,17,0.6,0.9
2025-04-24T0200,3245A,103.6633,36.533,兰州新区,新区管委会,,50,50,47,19,25,70,,,,11,9,10,13,0.3,0.3
2025-04-24T0200,3246A,103.6975,36.4789,兰州新区,舟曲中学,颗粒物(PM10),53,55,54,15,17,86,,,,17,13,13,7,0.3,0.2
2025-04-24T0200,1067A,116.6708,39.5111,廊坊市,药材公司,颗粒物(PM10),61,71,76,24,26,79,,,,4,16,2,3,0.2,0.3
2025-04-24T0200,1068A,116.7214,39.5589,廊坊市,开发区,颗粒物(PM10),68,85,87,17,25,80,,,,10,17,1,2,0.2,0.3
2025-04-24T0200,1070A,116.7244,39.5269,廊坊市,北华航天学院,颗粒物(PM10),67,84,98,22,22,77,,,,8,17,3,5,0.2,0.3
2025-04-24T0200,2919A,116.7022,39.5453,廊坊市,河北工业大学,颗粒物(PM10),65,80,92,17,24,78,,,,3,11,4,6,0.2,0.3
2025-04-24T0200,2535A,103.7723,29.5462,乐山市,花湖湾,,42,42,75,24,40,84,,,,13,16,6,6,0.4,0.5
2025-04-24T0200,2536A,103.7627,29.5844,乐山市,牛耳桥,,41,41,80,22,39,84,,,,14,18,6,8,0.4,0.5
2025-04-24T0200,2537A,103.7508,29.6006,乐山市,市第三水厂,,41,41,79,20,38,81,,,,13,14,4,5,0.4,0.5
2025-04-24T0200,2538A,103.7571,29.5664,乐山市,市监测站,,44,44,83,21,36,78,,,,14,18,6,7,0.3,0.6
2025-04-24T0200,3361A,103.7311,29.5628,乐山市,理工大学,,42,42,74,20,36,70,,,,19,19,4,6,0.4,0.4
2025-04-24T0200,2598A,100.2143,26.8576,丽江市,西南郊,,35,18,32,10,14,112,,,,1,3,5,5,0.5,0.5
2025-04-24T0200,2599A,100.2497,26.8802,丽江市,丽江古城,,32,20,23,13,15,100,,,,8,11,6,5,0.5,0.5
2025-04-24T0200,2600A,100.2203,26.8906,丽江市,市中心,,31,,15,12,13,97,,,,3,7,6,6,0.4,0.4
2025-04-24T0200,1267A,119.914,28.4514,丽水市,监测站大楼,,25,25,21,9,13,25,,,,19,15,2,2,0.6,0.6
2025-04-24T0200,1268A,119.93,28.4586,丽水市,莲都小学,,17,17,21,10,13,30,,,,15,13,3,3,0.5,0.4
2025-04-24T0200,1269A,119.879,28.4231,丽水市,余庄前,,29,29,25,17,17,0,,,,15,12,3,3,0.7,0.7
2025-04-24T0200,1173A,119.176,34.5885,连云港市,市环境监测站,颗粒物(PM10),91,132,97,51,43,79,,,,27,22,7,8,0.6,0.6
2025-04-24T0200,3000A,119.3581,34.6972,连云港市,德源药业,颗粒物(PM10),95,139,101,51,38,30,,,,65,38,9,10,0.5,0.6
2025-04-24T0200,3007A,119.178,34.844,连云港市,新城一中,颗粒物(PM10),85,119,90,40,33,78,,,,34,35,14,11,0.7,0.7
2025-04-24T0200,3008A,119.3608,34.7519,连云港市,胡沟管理处,颗粒物(PM10),79,107,60,31,23,117,,,,22,55,14,16,0.7,0.6
2025-04-24T0200,3009A,119.1478,34.5911,连云港市,矿山设计院,颗粒物(PM10),89,127,93,51,41,90,,,,26,22,10,12,0.6,0.6
2025-04-24T0200,3434A,119.2413,34.6539,连云港市,工贸学校,颗粒物(PM10),89,128,90,33,38,116,,,,14,16,10,11,0.8,0.9
2025-04-24T0200,3664A,119.4172,34.7341,连云港市,连云街道,颗粒物(PM10),99,147,92,33,28,153,,,,12,43,18,11,0.6,0.6
2025-04-24T0200,2571A,102.3431,27.8099,凉山彝族自治州,青龙寺,,18,18,17,3,3,20,,,,10,6,8,8,0.6,0.5
2025-04-24T0200,2572A,102.2721,27.8415,凉山彝族自治州,邛海宾馆,,20,14,19,6,7,62,,,,10,12,3,5,0.6,0.5
2025-04-24T0200,2573A,102.2625,27.898,凉山彝族自治州,西昌市政府,,23,23,18,14,9,49,,,,9,10,9,9,0.6,0.5
2025-04-24T0200,2574A,102.2685,27.8851,凉山彝族自治州,凉山州政府,,18,15,17,9,9,57,,,,12,13,6,6,0.5,0.6
2025-04-24T0200,4229A,102.2342,27.8859,凉山彝族自治州,凯乐南路30号,,18,14,22,3,5,55,,,,15,18,12,12,0.7,0.7
2025-04-24T0200,2212A,123.2,41.1953,辽阳市,宏伟区,颗粒物(PM10),53,55,59,6,18,73,,,,4,12,6,10,0.3,0.6
2025-04-24T0200,2213A,123.1683,41.2495,辽阳市,新华园,颗粒物(PM10),58,66,69,8,24,72,,,,4,15,7,13,0.4,0.7
2025-04-24T0200,2214A,123.2354,41.2639,辽阳市,滨河路,颗粒物(PM10),53,56,60,9,19,66,,,,6,15,5,9,0.3,0.6
2025-04-24T0200,2215A,123.149,41.2991,辽阳市,铁西工业园,颗粒物(PM10),56,62,75,13,28,59,,,,6,18,8,14,0.3,0.6
2025-04-24T0200,2227A,125.1358,42.8845,辽源市,环保局,,25,25,43,3,9,80,,,,9,15,5,7,0.1,0.2
2025-04-24T0200,3239A,125.0764,42.9078,辽源市,银鹰制药,,25,20,29,3,13,78,,,,7,14,4,5,0.1,0.3
2025-04-24T0200,1625A,115.9848,36.4372,聊城市,区政府,颗粒物(PM10),89,128,112,16,36,87,,,,10,22,5,9,0.4,0.7
2025-04-24T0200,2878A,116.0072,36.4343,聊城市,聊大东校,颗粒物(PM10),119,188,125,34,48,80,,,,11,19,8,10,0.2,0.4
2025-04-24T0200,3200A,115.9819,36.4978,聊城市,监控中心,颗粒物(PM10),86,122,108,3,38,83,,,,11,23,6,11,0.2,0.5
2025-04-24T0200,3513A,116.0445,36.4361,聊城市,九州社区,颗粒物(PM10),59,68,94,7,34,79,,,,16,21,10,9,0.4,0.5
2025-04-24T0200,4018A,116.0567,36.4608,聊城市,星美广场,颗粒物(PM10),72,93,109,3,31,74,,,,21,24,12,12,0.5,0.7
2025-04-24T0200,2632A,94.3681,29.6376,林芝市,林芝监测站,,16,10,7,6,5,49,,,,5,7,5,5,0.6,0.6
2025-04-24T0200,2633A,94.3616,29.6616,林芝市,林芝人民医院,,12,12,10,6,5,37,,,,3,5,5,5,0.5,0.5
2025-04-24T0200,2603A,100.0781,23.8982,临沧市,市环保局,颗粒物(PM10),53,56,57,33,38,54,,,,11,12,5,6,0.6,0.6
2025-04-24T0200,2604A,100.0894,23.8822,临沧市,市气象局,细颗粒物(PM2.5),57,55,50,40,36,60,,,,15,14,6,6,0.6,0.6
2025-04-24T0200,1733A,111.5531,36.0783,临汾市,临钢医院,颗粒物(PM10),110,169,243,47,59,37,,,,43,26,7,10,0.7,0.6
2025-04-24T0200,1734A,111.5028,36.0714,临汾市,技工学校,颗粒物(PM10),98,145,185,52,62,40,,,,45,22,9,13,0.6,0.7
2025-04-24T0200,1736A,111.5018,36.0855,临汾市,市委,颗粒物(PM10),108,166,210,46,58,42,,,,45,24,11,14,0.8,0.8
2025-04-24T0200,3018A,111.505,36.1014,临汾市,唐尧大酒店,颗粒物(PM10),100,150,197,33,57,46,,,,40,26,12,15,0.7,0.7
2025-04-24T0200,4244A,111.4879,36.0530,临汾市,启星学校,颗粒物(PM10),98,146,202,45,65,39,,,,38,24,10,14,0.8,0.8
2025-04-24T0200,4271A,103.2464,35.6123,临夏回族自治州,滨河东路1号,颗粒物(PM10),64,78,100,40,36,47,,,,14,14,6,8,0.4,0.4
2025-04-24T0200,4310A,103.2093,35.5995,临夏回族自治州,新华街21号,颗粒物(PM10),62,74,84,37,38,59,,,,28,15,3,6,0.4,0.4
2025-04-24T0200,1618A,118.3429,35.0532,临沂市,沂河小区,颗粒物(PM10),107,163,109,52,42,100,,,,30,27,15,12,0.6,0.4
2025-04-24T0200,1619A,118.295,35.0583,临沂市,鲁南制药厂,颗粒物(PM10),108,166,112,51,43,95,,,,41,33,18,14,0.7,0.4
2025-04-24T0200,1620A,118.2794,34.9976,临沂市,新光毛纺厂,颗粒物(PM10),111,171,109,52,36,48,,,,67,34,12,12,0.8,0.4
2025-04-24T0200,1621A,118.3956,35.0888,临沂市,河东保险公司,颗粒物(PM10),104,158,98,54,35,86,,,,42,30,8,6,0.7,0.6
2025-04-24T0200,3370A,118.3564,35.0215,临沂市,十里堡居委,颗粒物(PM10),106,161,110,51,39,97,,,,33,34,9,7,0.7,0.5
2025-04-24T0200,3496A,118.3604,35.1084,临沂市,南坊新区,颗粒物(PM10),122,193,122,58,36,91,,,,34,28,12,10,0.9,0.7
2025-04-24T0200,3860A,118.3920,35.0300,临沂市,皇山花园小区,颗粒物(PM10),106,161,111,48,41,98,,,,28,31,14,13,0.9,0.7
2025-04-24T0200,1870A,109.4856,24.3895,柳州市,柳东小学,,32,32,34,17,17,48,,,,13,13,13,10,0.6,0.6
2025-04-24T0200,1871A,109.4157,24.3277,柳州市,环保监测站,,44,44,39,22,15,50,,,,10,9,10,10,0.7,0.7
2025-04-24T0200,1872A,109.389,24.341,柳州市,河西水厂,颗粒物(PM10),53,55,40,23,18,47,,,,11,13,17,11,0.8,1
2025-04-24T0200,1873A,109.4311,24.2921,柳州市,市四中,,43,43,31,16,9,50,,,,9,8,8,8,0.6,0.6
2025-04-24T0200,1874A,109.4006,24.3631,柳州市,市九中,,46,46,39,27,14,45,,,,12,11,9,9,0.9,0.9
2025-04-24T0200,1875A,109.4958,24.3134,柳州市,古亭山,,36,36,35,16,15,42,,,,4,5,8,7,0.7,0.7
2025-04-24T0200,3402A,109.5422,24.3996,柳州市,市二中,,35,35,34,19,17,43,,,,11,12,9,10,0.4,0.5
2025-04-24T0200,2307A,116.5079,31.737,六安市,监测大楼,颗粒物(PM10),56,62,83,31,34,84,,,,16,18,5,6,0.4,0.4
2025-04-24T0200,2308A,116.4738,31.7643,六安市,皖西学院,颗粒物(PM10),67,84,86,30,38,75,,,,19,23,5,6,0.6,0.6
2025-04-24T0200,2309A,116.4996,31.7905,六安市,朝阳厂,颗粒物(PM10),60,69,82,29,35,91,,,,16,20,4,4,0.4,0.4
2025-04-24T0200,2310A,116.5567,31.7886,六安市,开发区,颗粒物(PM10),131,211,110,61,39,37,,,,41,19,5,5,0.5,0.5
2025-04-24T0200,2576A,104.8,26.5892,六盘水市,窑上,颗粒物(PM10),61,71,80,37,38,59,,,,13,11,5,6,0.3,0.3
2025-04-24T0200,2577A,104.83,26.5917,六盘水市,黄土坡,,50,50,84,35,36,70,,,,14,14,8,11,0.5,0.5
2025-04-24T0200,2578A,104.89,26.5939,六盘水市,水钢,颗粒物(PM10),55,59,88,26,31,61,,,,13,13,7,8,0.3,0.3
2025-04-24T0200,2579A,104.8475,26.5894,六盘水市,民中,,35,32,73,24,33,67,,,,11,14,15,9,0.3,0.3
2025-04-24T0200,2580A,104.9544,26.5506,六盘水市,双水,,36,36,77,20,30,71,,,,9,11,8,8,0.3,0.3
2025-04-24T0200,2335A,117.0189,25.1181,龙岩市,龙岩师专,,,,,,,,,,,,,,,,
2025-04-24T0200,2336A,117.0217,25.1033,龙岩市,龙岩市监测站,,23,23,21,15,16,15,,,,21,13,10,4,0.7,0.6
2025-04-24T0200,2337A,117.0258,25.0661,龙岩市,闽西职业技术学院,,39,39,28,16,18,2,,,,26,18,30,7,0.6,0.5
2025-04-24T0200,2338A,117.0196,25.0306,龙岩市,龙岩学院,,26,26,21,16,14,9,,,,13,7,5,6,0.5,0.5
2025-04-24T0200,2665A,105.0822,33.3261,陇南市,汉王镇固水子,,,,,,,,,,,,,,,,
2025-04-24T0200,2885A,104.9339,33.3826,陇南市,滨江中学,颗粒物(PM10),53,56,62,28,21,67,,,,19,12,8,9,0.6,0.5
2025-04-24T0200,3247A,104.955,33.371,陇南市,市总工会,,47,47,51,15,19,98,,,,5,8,5,6,0.3,0.3
2025-04-24T0200,2487A,111.9589,27.8901,娄底市,电视发射台,颗粒物(PM10),52,54,62,20,22,24,,,,3,3,4,3,0.2,0.2
2025-04-24T0200,2488A,111.9975,27.725,娄底市,市监测站,,28,28,64,15,29,72,,,,10,21,4,9,0.5,0.8
2025-04-24T0200,2489A,112.0194,27.7314,娄底市,市委党校,,37,37,58,23,27,71,,,,6,13,3,4,0.5,0.7
2025-04-24T0200,2490A,111.9561,27.7569,娄底市,涟钢,颗粒物(PM10),52,53,60,28,28,57,,,,11,8,4,6,0.3,0.3
2025-04-24T0200,2491A,111.9892,27.7044,娄底市,市政府,,32,29,54,22,27,79,,,,4,11,2,3,0.6,0.6
2025-04-24T0200,1893A,105.4324,28.9634,泸州市,九狮山,,,,,,,,,,,,,,,,
2025-04-24T0200,1894A,105.4427,28.9063,泸州市,小市上码头,颗粒物(PM10),69,87,79,32,27,38,,,,20,22,4,4,0.5,0.5
2025-04-24T0200,1895A,105.4241,28.8573,泸州市,兰田宪桥,颗粒物(PM10),61,71,64,33,31,53,,,,7,11,7,7,0.5,0.5
2025-04-24T0200,1896A,105.4379,28.8833,泸州市,市环监站,,,,,,,,,,,,,,,,
2025-04-24T0200,4272A,105.3689,28.7783,泸州市,纳溪中医医院,颗粒物(PM10),60,70,61,24,20,54,,,,7,13,6,6,0.6,0.6
2025-04-24T0200,2183A,111.1406,37.5211,吕梁市,环保局,颗粒物(PM10),52,53,99,20,30,83,,,,9,19,3,4,0.3,0.4
2025-04-24T0200,2185A,111.1297,37.5136,吕梁市,自来水公司,颗粒物(PM10),56,62,109,12,29,82,,,,13,22,1,4,0.3,0.4
2025-04-24T0200,2867A,111.1283,37.51,吕梁市,马茂庄小学,颗粒物(PM10),54,58,103,11,26,90,,,,9,23,4,6,0.2,0.4
2025-04-24T0200,1812A,112.3931,34.6516,洛阳市,市委党校,颗粒物(PM10),62,74,167,31,61,72,,,,16,15,5,6,0.3,0.4
2025-04-24T0200,1815A,112.494,34.6886,洛阳市,河南林校,颗粒物(PM10),71,92,190,46,65,27,,,,59,24,10,8,0.4,0.4
2025-04-24T0200,1816A,112.3844,34.623,洛阳市,开发区管委会,细颗粒物(PM2.5),87,88,174,64,72,65,,,,23,21,5,5,0.4,0.3
2025-04-24T0200,1817A,112.4267,34.6258,洛阳市,市委新办公区,颗粒物(PM10),73,96,178,34,56,75,,,,19,18,6,6,0.5,0.5
2025-04-24T0200,3340A,112.6005,34.6326,洛阳市,伊滨,颗粒物(PM10),67,83,181,33,59,81,,,,17,15,6,6,0.4,0.4
2025-04-24T0200,3341A,112.4951,34.6332,洛阳市,中移产业园,颗粒物(PM10),79,107,221,34,66,81,,,,16,16,8,7,0.3,0.5
2025-04-24T0200,3593A,112.5736,34.8993,洛阳市,吉利监测站,颗粒物(PM10),83,115,164,36,54,69,,,,33,19,6,6,0.6,0.5
2025-04-24T0200,3635A,112.3677,34.662,洛阳市,河科大西苑校区,颗粒物(PM10),66,81,184,31,49,74,,,,26,16,9,9,0.3,0.3
2025-04-24T0200,3636A,112.4388,34.6781,洛阳市,英才小学,颗粒物(PM10),72,93,177,37,59,50,,,,47,22,8,8,0.7,0.5
2025-04-24T0200,4214A,112.4600,34.6949,洛阳市,春都路1号院,颗粒物(PM10),74,98,203,40,61,57,,,,35,19,8,7,0.6,0.5
2025-04-24T0200,2399A,114.051,33.5699,漯河市,三五一五工厂,颗粒物(PM10),114,178,153,45,54,79,,,,27,16,5,5,0.7,0.7
2025-04-24T0200,2400A,114.0055,33.5698,漯河市,漯河大学,颗粒物(PM10),109,168,142,56,49,82,,,,30,16,6,6,0.4,0.4
2025-04-24T0200,2401A,114.0138,33.5828,漯河市,市水利局,颗粒物(PM10),104,158,147,53,52,89,,,,19,11,4,5,0.4,0.4
2025-04-24T0200,2402A,114.0261,33.5698,漯河市,市广电局,颗粒物(PM10),106,161,151,56,45,100,,,,13,13,4,5,0.6,0.6
2025-04-24T0200,3478A,113.9749,33.5664,漯河市,市图书馆,颗粒物(PM10),111,171,152,56,49,94,,,,20,16,3,4,0.4,0.4
2025-04-24T0200,4250A,114.0892,33.5882,漯河市,韶山路11号,颗粒物(PM10),111,171,152,60,53,102,,,,18,17,4,5,0.4,0.5
2025-04-24T0200,1798A,118.5092,31.6837,马鞍山市,湖东路四小,细颗粒物(PM2.5),64,75,65,46,36,78,,,,35,29,9,9,0.7,0.8
2025-04-24T0200,1799A,118.5024,31.6449,马鞍山市,开发区,,,89,74,,53,22,,,,84,48,7,7,1.1,1
2025-04-24T0200,1802A,118.6245,31.7241,马鞍山市,濮塘,细颗粒物(PM2.5),68,81,73,49,34,99,,,,18,16,7,8,0.7,0.7
2025-04-24T0200,3633A,118.4918,31.6809,马鞍山市,雨山,颗粒物(PM10),63,75,61,39,31,63,,,,42,34,8,8,0.6,0.6
2025-04-24T0200,4191A,118.5274,31.72227,马鞍山市,慈湖高新区,颗粒物(PM10),74,98,67,43,34,84,,,,31,32,12,11,1.1,1
2025-04-24T0200,1686A,111.0286,21.4688,茂名市,电白南海,,39,31,33,27,22,28,,,,7,9,1,1,0.6,0.6
2025-04-24T0200,1687A,110.9294,21.6533,茂名市,茂石化七小,,36,36,41,12,17,27,,,,7,7,2,2,0.8,0.8
2025-04-24T0200,1688A,110.9107,21.6687,茂名市,健康路,,34,34,37,17,20,34,,,,3,4,3,3,0.7,0.7
2025-04-24T0200,1689A,110.8592,21.6828,茂名市,高岭,,36,36,44,9,14,28,,,,11,11,5,5,0.6,0.6
2025-04-24T0200,3450A,111.01,21.5165,茂名市,电白水东,,19,19,27,12,14,29,,,,4,6,1,1,0.9,0.9
2025-04-24T0200,2539A,104.0308,30.0478,眉山市,黑龙滩水库,颗粒物(PM10),51,51,58,22,21,69,,,,9,5,1,2,0.3,0.3
2025-04-24T0200,2540A,103.8416,30.0874,眉山市,气象局,,42,42,94,22,36,90,,,,8,18,6,4,0.5,0.6
2025-04-24T0200,3137A,103.8578,30.0744,眉山市,市委党校,,34,34,71,19,32,90,,,,10,17,7,7,0.7,0.8
2025-04-24T0200,3148A,103.8291,30.0564,眉山市,区人社局,,44,44,71,9,33,91,,,,10,22,10,12,0.8,0.9
2025-04-24T0200,1690A,116.1231,24.3284,梅州市,梅江月梅,,33,25,31,23,24,27,,,,15,12,4,4,0.6,0.5
2025-04-24T0200,1691A,116.0797,24.2719,梅州市,梅县新城,,30,,32,21,17,33,,,,16,14,5,5,0.5,0.6
2025-04-24T0200,1692A,116.1248,24.2654,梅州市,环境监控中心,,33,,25,23,20,34,,,,20,16,8,7,0.7,0.7
2025-04-24T0200,3315A,116.1233,24.2991,梅州市,梅龙,,32,,23,22,18,36,,,,15,10,5,6,0.7,0.7
2025-04-24T0200,1878A,104.7778,31.4741,绵阳市,富乐山,,41,41,93,17,38,56,,,,12,18,7,8,0.4,0.4
2025-04-24T0200,1880A,104.6697,31.4668,绵阳市,高新区自来水公司,,49,49,101,19,33,69,,,,20,23,5,3,0.4,0.4
2025-04-24T0200,1881A,104.7287,31.5075,绵阳市,三水厂,,47,47,101,17,41,74,,,,19,22,6,6,0.5,0.5
2025-04-24T0200,3491A,104.69,31.5322,绵阳市,西科大附属小学,,50,50,97,21,40,82,,,,11,19,8,7,0.3,0.5
2025-04-24T0200,3492A,104.5648,31.5343,绵阳市,安州区旅游局,,27,27,83,17,30,81,,,,8,13,12,8,0.3,0.3
2025-04-24T0200,4226A,104.7651,31.4531,绵阳市,绵阳市气象局,,34,34,94,21,38,93,,,,12,23,7,6,0.5,0.5
2025-04-24T0200,1784A,129.61,44.561,牡丹江市,环保大楼,,36,36,23,23,14,86,,,,4,11,5,6,0.2,0.3
2025-04-24T0200,1785A,129.6115,44.5782,牡丹江市,文化广场,,43,,35,30,22,88,,,,3,16,10,12,0.4,0.6
2025-04-24T0200,1786A,129.5904,44.5963,牡丹江市,第一医院,颗粒物(PM10),51,51,27,17,13,88,,,,2,9,5,6,0.2,0.4
2025-04-24T0200,1787A,129.6364,44.6075,牡丹江市,机车工厂,,42,42,32,19,15,87,,,,3,13,6,13,0.4,0.5
2025-04-24T0200,1788A,129.6386,44.5462,牡丹江市,第一中学,,37,37,24,22,12,88,,,,2,9,6,7,0.4,0.5
2025-04-24T0200,2531A,105.0703,29.61,内江市,市监测站,颗粒物(PM10),59,68,75,34,37,91,,,,7,10,6,6,0.7,0.7
2025-04-24T0200,2532A,105.0717,29.5947,内江市,东兴区政府,颗粒物(PM10),61,71,71,20,28,75,,,,11,12,8,8,0.6,0.6
2025-04-24T0200,2533A,105.0653,29.5817,内江市,内江二中,,49,45,67,34,36,76,,,,11,13,5,6,0.4,0.4
2025-04-24T0200,2534A,105.0406,29.5822,内江市,内江日报社,颗粒物(PM10),52,53,72,33,38,79,,,,5,10,8,9,0.2,0.3
2025-04-24T0200,2628A,92.0657,31.4846,那曲市,那曲监测站,细颗粒物(PM2.5),57,52,50,40,25,56,,,,35,24,7,8,1.2,0.8
2025-04-24T0200,4243A,92.0515,31.4787,那曲市,那曲市委宣传部,,45,45,56,17,21,64,,,,21,16,5,7,0.5,0.5
2025-04-24T0200,1290A,115.8931,28.6843,南昌市,省外办,,45,45,53,29,35,89,,,,18,18,6,6,0.5,0.4
2025-04-24T0200,1291A,115.8886,28.7003,南昌市,省林业公司,,48,48,52,29,35,79,,,,12,11,8,7,0.7,0.7
2025-04-24T0200,1292A,115.8126,28.7442,南昌市,林科所,,48,48,46,29,28,73,,,,16,27,4,4,0.4,0.5
2025-04-24T0200,1294A,115.8518,28.687,南昌市,建工学校,颗粒物(PM10),57,63,58,24,36,79,,,,22,18,3,2,0.8,0.7
2025-04-24T0200,1295A,115.8921,28.6424,南昌市,象湖,,47,47,54,29,31,84,,,,25,17,7,6,0.7,0.7
2025-04-24T0200,1296A,115.7423,28.7996,南昌市,武术学校,,18,17,36,12,17,12,,,,2,2,4,4,0.6,0.6
2025-04-24T0200,3046A,115.9084,28.6062,南昌市,机电学校,颗粒物(PM10),55,59,62,36,34,52,,,,38,19,4,3,0.5,0.5
2025-04-24T0200,3690A,115.9721,28.7031,南昌市,外国语学校,颗粒物(PM10),53,55,56,27,30,73,,,,19,14,8,9,0.5,0.4
2025-04-24T0200,4192A,115.9316,28.68677,南昌市,南京东路235号,颗粒物(PM10),57,63,60,34,33,78,,,,24,18,8,8,1.0,0.9
2025-04-24T0200,1905A,106.056,30.8064,南充市,西山风景区,,35,33,54,24,40,66,,,,6,7,4,5,0.5,0.5
2025-04-24T0200,1906A,106.0789,30.8023,南充市,南充市委,颗粒物(PM10),72,93,99,38,42,71,,,,10,12,3,4,0.5,0.5
2025-04-24T0200,1907A,106.1031,30.8217,南充市,南充炼油厂,颗粒物(PM10),63,75,98,38,45,72,,,,7,10,3,4,0.4,0.4
2025-04-24T0200,4227A,106.1083,30.7884,南充市,梨树横街98号,颗粒物(PM10),73,95,105,34,34,76,,,,10,12,2,3,0.2,0.2
2025-04-24T0200,4304A,106.1172,30.843,南充市,清泉寺北路188号,颗粒物(PM10),56,62,93,37,41,66,,,,9,11,4,4,0.3,0.3
2025-04-24T0200,4305A,106.067,30.7616,南充市,同庆路1号,颗粒物(PM10),62,73,93,39,40,64,,,,10,11,4,4,0.4,0.4
2025-04-24T0200,1151A,118.8086,32.1065,南京市,迈皋桥,,50,50,49,29,30,63,,,,52,32,4,4,0.2,0.3
2025-04-24T0200,1152A,118.7538,32.0551,南京市,草场门,,,70,62,29,32,96,,,,32,26,,5,0.2,0.2
2025-04-24T0200,1153A,118.7794,32.0745,南京市,山西路,颗粒物(PM10),63,75,78,29,37,111,,,,27,25,6,5,0.4,0.4
2025-04-24T0200,1154A,118.7752,32.0023,南京市,中华门,颗粒物(PM10),58,66,68,29,32,44,,,,64,28,8,7,0.5,0.5
2025-04-24T0200,1155A,118.8109,32.0309,南京市,瑞金路,颗粒物(PM10),59,68,74,36,36,56,,,,39,25,6,7,0.5,0.4
2025-04-24T0200,1156A,118.7997,32.0754,南京市,玄武湖,颗粒物(PM10),59,67,61,19,32,82,,,,16,12,9,9,0.5,0.5
2025-04-24T0200,1157A,118.6414,32.0931,南京市,浦口,颗粒物(PM10),62,74,59,25,26,105,,,,28,19,6,6,0.6,0.6
2025-04-24T0200,1158A,118.7356,31.9996,南京市,奥体中心,颗粒物(PM10),60,69,74,29,33,58,,,,61,32,10,10,0.6,0.6
2025-04-24T0200,1159A,118.9125,32.1028,南京市,仙林大学城,颗粒物(PM10),59,68,70,31,37,39,,,,51,27,10,10,0.6,0.5
2025-04-24T0200,3422A,118.8436,31.9198,南京市,江宁彩虹桥,颗粒物(PM10),61,71,59,34,31,24,,,,87,34,5,5,0.9,0.8
2025-04-24T0200,3427A,118.8554,32.3578,南京市,六合雄州,颗粒物(PM10),57,63,45,28,26,89,,,,28,28,6,6,0.5,0.5
2025-04-24T0200,4249A,118.8708,31.3402,南京市,汶溪路181号,细颗粒物(PM2.5),53,44,48,37,30,78,,,,17,35,4,4,0.2,0.1
2025-04-24T0200,4312A,119.019,31.6512,南京市,中山西路1号,,49,46,52,34,29,76,,,,18,17,5,8,0.8,0.7
2025-04-24T0200,1401A,108.3103,22.7881,南宁市,二十一中,,44,44,44,29,29,53,,,,10,12,5,3,0.8,0.7
2025-04-24T0200,1402A,108.3141,22.8528,南宁市,北湖,,46,46,44,28,26,57,,,,15,13,6,6,0.6,0.6
2025-04-24T0200,1403A,108.3206,22.8225,南宁市,市监测站,颗粒物(PM10),53,56,43,28,29,47,,,,14,13,7,5,0.6,0.5
2025-04-24T0200,1404A,108.3829,22.8037,南宁市,大自然花园,颗粒物(PM10),53,56,45,26,28,52,,,,13,10,7,6,0.7,0.7
2025-04-24T0200,1405A,108.4394,22.7904,南宁市,仙葫,颗粒物(PM10),54,57,42,34,30,49,,,,12,9,9,7,0.6,0.6
2025-04-24T0200,1406A,108.2397,22.8467,南宁市,区农职院,,34,34,36,21,21,52,,,,13,12,5,5,0.9,0.6
2025-04-24T0200,1407A,108.3275,22.735,南宁市,英华嘉园,,50,50,41,28,27,59,,,,11,10,9,7,0.6,0.6
2025-04-24T0200,3401A,108.4834,22.7618,南宁市,红星社区,颗粒物(PM10),58,66,46,38,28,55,,,,11,9,9,9,0.8,0.8
2025-04-24T0200,4221A,108.2177,22.7774,南宁市,乐贤路16号,颗粒物(PM10),51,52,43,30,26,49,,,,13,16,8,8,0.7,0.7
2025-04-24T0200,2331A,118.0966,26.6761,南平市,茫荡山,,,,,,,,,,,,,,,,
2025-04-24T0200,2332A,118.1681,26.6369,南平市,南平市监测站,,18,18,22,10,13,7,,,,21,14,4,4,0.8,0.8
2025-04-24T0200,2333A,118.1825,26.6489,南平市,南平铝业有限公司,,25,25,26,7,12,4,,,,28,17,3,5,0.9,0.8
2025-04-24T0200,2334A,118.1756,26.6272,南平市,南平七中,,22,22,24,12,12,4,,,,23,12,4,5,0.8,0.7
2025-04-24T0200,1168A,120.9098,31.9663,南通市,狼山街道,细颗粒物(PM2.5),62,72,77,44,34,15,,,,65,48,4,6,0.9,0.8
2025-04-24T0200,1169A,120.86,32.0005,南通市,虹桥,细颗粒物(PM2.5),84,97,85,62,47,21,,,,106,62,8,7,1.0,0.6
2025-04-24T0200,1170A,120.87,32.02,南通市,城中,颗粒物(PM10),83,116,96,55,39,25,,,,92,45,8,6,1.1,0.8
2025-04-24T0200,1171A,120.94,31.93,南通市,星湖花园,"颗粒物(PM10),细颗粒物(PM2.5)",75,99,85,55,42,43,,,,70,68,8,6,1.1,0.8
2025-04-24T0200,1172A,120.81,32.0417,南通市,紫琅学院,颗粒物(PM10),72,93,87,49,41,1,,,,122,53,6,8,1.0,0.7
2025-04-24T0200,3291A,121.067,32.062,南通市,通州监测站,颗粒物(PM10),78,105,77,53,33,39,,,,56,22,6,7,0.9,0.7
2025-04-24T0200,3432A,120.9348,31.9883,南通市,环境教育馆,细颗粒物(PM2.5),68,80,84,49,37,16,,,,83,46,3,4,0.5,0.4
2025-04-24T0200,2404A,112.5224,33.0122,南阳市,瓦房庄,颗粒物(PM10),110,169,137,53,43,40,,,,45,20,6,6,0.5,0.5
2025-04-24T0200,2405A,112.5003,32.9735,南阳市,汉画馆,颗粒物(PM10),103,156,134,57,50,45,,,,38,30,6,6,0.4,0.4
2025-04-24T0200,2406A,112.5573,33.027,南阳市,气象站,颗粒物(PM10),118,185,152,61,51,66,,,,23,16,5,5,0.4,0.5
2025-04-24T0200,2407A,112.5481,32.9689,南阳市,理工学院,颗粒物(PM10),106,161,134,57,47,39,,,,39,21,6,5,0.5,0.5
2025-04-24T0200,4008A,112.5234,32.9922,南阳市,卧龙区政府,颗粒物(PM10),109,168,136,58,49,47,,,,35,19,4,5,0.5,0.5
2025-04-24T0200,1234A,121.8358,29.911,宁波市,区环保大楼,颗粒物(PM10),58,66,56,29,26,73,,,,43,41,8,10,0.8,0.8
2025-04-24T0200,1235A,121.56,29.82,宁波市,万里学院,,50,50,37,33,21,43,,,,37,26,7,6,0.7,0.6
2025-04-24T0200,1236A,121.713,29.9572,宁波市,龙赛医院,颗粒物(PM10),59,68,64,23,16,55,,,,30,33,6,6,0.7,0.7
2025-04-24T0200,1239A,121.633,29.7733,宁波市,钱湖水厂,颗粒物(PM10),51,52,39,21,20,52,,,,18,18,8,9,0.7,0.7
2025-04-24T0200,1240A,121.5856,29.8635,宁波市,太古小学,颗粒物(PM10),58,66,47,24,17,55,,,,30,23,10,10,0.7,0.7
2025-04-24T0200,1241A,121.524,29.8674,宁波市,市环境监测中心,,44,44,41,22,18,44,,,,38,28,11,12,0.5,0.5
2025-04-24T0200,2871A,121.6147,29.9017,宁波市,万里国际学校,,42,42,38,18,18,60,,,,27,30,9,9,0.7,0.7
2025-04-24T0200,3710A,121.5594,29.8975,宁波市,白沙活动中心,,50,50,38,21,19,59,,,,30,23,8,8,0.5,0.5
2025-04-24T0200,2339A,119.5001,26.6946,宁德市,金涵水库,,,,,,,,,,,,,,,,
2025-04-24T0200,2341A,119.5388,26.6612,宁德市,宁德市监测站,细颗粒物(PM2.5),57,42,27,40,32,87,,,,15,16,4,4,0.4,0.5
2025-04-24T0200,3209A,119.5231,26.6562,宁德市,宁德一中,,46,38,28,32,23,85,,,,10,11,5,6,0.3,0.4
2025-04-24T0200,2618A,98.8601,25.8567,怒江傈僳族自治州,州监测站,,33,27,42,23,28,70,,,,5,6,10,10,0.3,0.3
2025-04-24T0200,2619A,98.8546,25.8417,怒江傈僳族自治州,泸水一中,,30,28,38,21,28,52,,,,9,11,6,6,0.3,0.4
2025-04-24T0200,1888A,101.6891,26.571,攀枝花市,弄弄坪,,35,35,38,12,20,64,,,,17,14,8,8,0.8,0.7
2025-04-24T0200,1889A,101.5769,26.5928,攀枝花市,河门口,颗粒物(PM10),53,55,44,31,23,42,,,,31,17,43,24,2.5,1.5
2025-04-24T0200,1890A,101.7169,26.585,攀枝花市,炳草岗,,33,,38,23,25,66,,,,14,15,11,9,0.5,0.5
2025-04-24T0200,1891A,101.7369,26.5008,攀枝花市,仁和,细颗粒物(PM2.5),65,77,43,47,25,30,,,,27,16,15,10,0.8,0.5
2025-04-24T0200,2835A,101.7227,26.567,攀枝花市,四十中小,,27,27,31,14,17,77,,,,8,8,10,8,0.7,0.6
2025-04-24T0200,1604A,122.0303,41.1489,盘锦市,开发区,颗粒物(PM10),76,102,50,3,21,71,,,,4,19,8,10,0.2,0.4
2025-04-24T0200,1605A,122.0485,41.0883,盘锦市,兴隆台,颗粒物(PM10),70,89,52,3,25,73,,,,9,21,9,11,0.3,0.6
2025-04-24T0200,1606A,121.8297,41.1028,盘锦市,新生街道,颗粒物(PM10),59,68,41,3,21,54,,,,29,26,8,10,0.3,0.5
2025-04-24T0200,1832A,113.3257,33.742,平顶山市,新华旅馆,颗粒物(PM10),101,152,152,36,37,86,,,,20,18,4,5,0.5,0.4
2025-04-24T0200,1833A,113.2919,33.737,平顶山市,规划设计院,颗粒物(PM10),111,172,144,58,52,30,,,,58,25,4,5,0.4,0.4
2025-04-24T0200,1834A,113.182,33.774,平顶山市,平顶山工学院,颗粒物(PM10),97,143,131,68,52,103,,,,10,12,3,3,0.2,0.2
2025-04-24T0200,3204A,113.3025,33.73,平顶山市,规划局,颗粒物(PM10),103,156,146,52,42,33,,,,57,21,5,6,0.3,0.2
2025-04-24T0200,3594A,112.8867,33.9116,平顶山市,石龙区,颗粒物(PM10),118,186,198,45,54,43,,,,58,30,8,7,0.2,0.3
2025-04-24T0200,2656A,106.6692,35.5461,平凉市,聚贤嘉苑,颗粒物(PM10),52,53,65,17,22,45,,,,33,21,13,6,0.3,0.3
2025-04-24T0200,2657A,106.7021,35.5307,平凉市,博物馆,,50,50,64,18,20,53,,,,26,16,8,11,0.4,0.4
2025-04-24T0200,2347A,114.0997,27.5002,萍乡市,武功山,,23,,19,16,19,58,,,,5,6,14,14,1.2,1.1
2025-04-24T0200,2348A,113.8385,27.6434,萍乡市,中医院,,43,35,44,30,32,28,,,,14,14,8,9,0.8,0.8
2025-04-24T0200,2349A,113.8493,27.6253,萍乡市,市政府车库,,42,,34,29,26,27,,,,19,14,5,5,0.8,0.8
2025-04-24T0200,2350A,113.8676,27.6435,萍乡市,市环保局,,36,36,38,20,25,22,,,,22,16,4,4,0.7,0.8
2025-04-24T0200,2351A,113.866,27.6198,萍乡市,安源区政府,,50,38,40,35,35,24,,,,15,13,8,10,1.0,0.9
2025-04-24T0200,2319A,119.0141,25.4325,莆田市,荔城区仓后路,,36,36,34,22,26,92,,,,13,17,3,3,0.5,0.8
2025-04-24T0200,2320A,119.0015,25.4553,莆田市,莆田市监测站,,42,39,37,29,31,85,,,,12,15,4,4,0.5,0.8
2025-04-24T0200,2321A,119.1119,25.4561,莆田市,涵江区六中,,26,26,34,17,26,82,,,,22,21,3,3,0.5,0.8
2025-04-24T0200,2322A,119.1013,25.3215,莆田市,秀屿区政府,,32,24,28,18,23,102,,,,8,10,4,4,1.1,0.8
2025-04-24T0200,2323A,118.981,25.4792,莆田市,东圳水库,,,,,,,,,,,,,,,,
2025-04-24T0200,2392A,115.0312,35.7636,濮阳市,环保局,颗粒物(PM10),106,161,100,42,35,95,,,,21,18,10,9,0.8,0.7
2025-04-24T0200,2394A,115.0574,35.7609,濮阳市,油田运输公司,颗粒物(PM10),110,170,100,44,38,97,,,,14,21,8,9,0.8,0.8
2025-04-24T0200,3021A,115,35.7668,濮阳市,濮水河管理处,颗粒物(PM10),115,179,109,40,37,102,,,,18,17,8,8,0.7,0.7
2025-04-24T0200,4216A,115.0924,35.7686,濮阳市,任丘路479号,颗粒物(PM10),108,166,110,42,35,92,,,,21,17,8,9,0.7,0.7
2025-04-24T0200,2601A,100.98,22.7633,普洱市,市环保局,颗粒物(PM10),62,73,78,24,38,34,,,,14,15,7,8,0.8,0.7
2025-04-24T0200,2602A,100.9817,22.8322,普洱市,普洱第二中学,颗粒物(PM10),57,63,57,36,27,52,,,,18,20,7,7,1.0,1
2025-04-24T0200,2262A,131.0518,45.8751,七台河市,新一中,,25,24,25,17,15,61,,,,10,11,10,12,0.8,0.7
2025-04-24T0200,3345A,131.0577,45.7879,七台河市,中波台,,25,25,26,14,13,50,,,,13,16,6,7,0.5,0.5
2025-04-24T0200,3637A,131.0176,45.7761,七台河市,人民广场,,38,34,36,26,26,71,,,,13,15,11,10,0.5,0.5
2025-04-24T0200,3684A,130.8781,45.8222,七台河市,新建矿广场,,43,,45,30,19,42,,,,13,23,1,9,0.7,0.6
2025-04-24T0200,1779A,123.9305,47.3636,齐齐哈尔市,安居小区,,21,10,29,8,8,67,,,,5,13,4,6,0.2,0.3
2025-04-24T0200,1780A,123.9488,47.3386,齐齐哈尔市,中心广场,,23,19,31,3,8,73,,,,4,13,7,8,0.1,0.2
2025-04-24T0200,1781A,123.9483,47.3227,齐齐哈尔市,农牧车辆厂,,23,14,25,9,10,72,,,,4,11,2,5,0.1,0.1
2025-04-24T0200,1783A,123.945,47.2988,齐齐哈尔市,市环境监测站,,23,13,25,3,11,72,,,,4,10,2,2,0.2,0.3
2025-04-24T0200,3662A,123.6333,47.2075,齐齐哈尔市,富区青少年活动中心,,20,13,42,7,19,63,,,,4,12,2,6,0.3,0.5
2025-04-24T0200,2591A,107.9783,26.5747,黔东南苗族侗族自治州,市环境监测站,,48,48,50,22,24,58,,,,4,7,3,3,0.3,0.3
2025-04-24T0200,2881A,107.8908,26.5311,黔东南苗族侗族自治州,凯里学院,,34,34,52,20,21,60,,,,4,7,2,2,0.4,0.2
2025-04-24T0200,2593A,107.5228,26.2403,黔南布依族苗族自治州,小围寨,,24,24,45,12,20,42,,,,8,7,2,3,0.5,0.6
2025-04-24T0200,3538A,107.5175,26.2978,黔南布依族苗族自治州,沙坝,,29,29,55,12,21,45,,,,9,8,4,4,0.5,0.5
2025-04-24T0200,2589A,104.9022,25.0925,黔西南布依族苗族自治州,场坝街,细颗粒物(PM2.5),72,59,57,52,33,50,,,,14,12,4,6,0.3,0.3
2025-04-24T0200,2590A,104.8811,25.0992,黔西南布依族苗族自治州,坪东大道,细颗粒物(PM2.5),64,59,56,46,31,54,,,,14,14,4,5,0.3,0.3
2025-04-24T0200,2502A,108.6236,21.9667,钦州市,市环保站,颗粒物(PM10),62,73,37,31,16,45,,,,19,14,2,4,0.9,0.9
2025-04-24T0200,2503A,108.6549,21.9481,钦州市,沙埠小学,颗粒物(PM10),58,66,43,35,22,46,,,,20,16,10,8,0.8,0.8
2025-04-24T0200,2504A,108.5989,21.7431,钦州市,港区一小,颗粒物(PM10),62,74,55,26,21,31,,,,32,20,8,9,0.8,0.6
2025-04-24T0200,3404A,108.5959,21.9633,钦州市,北职校,"颗粒物(PM10),细颗粒物(PM2.5)",62,73,42,44,24,43,,,,19,14,7,8,0.8,0.7
2025-04-24T0200,1043A,119.7493,40.0116,秦皇岛市,第一关,颗粒物(PM10),109,167,101,32,36,84,,,,8,39,3,9,0.1,0.7
2025-04-24T0200,1044A,119.5897,39.9499,秦皇岛市,监测站,颗粒物(PM10),113,176,102,25,27,88,,,,2,17,2,10,0.2,0.8
2025-04-24T0200,1046A,119.5251,39.9041,秦皇岛市,建设大厦,颗粒物(PM10),115,180,110,23,28,83,,,,11,27,2,11,0.2,0.8
2025-04-24T0200,3132A,119.610547,39.943889,秦皇岛市,文明里,颗粒物(PM10),127,204,112,22,30,84,,,,4,24,2,10,0.2,0.7
2025-04-24T0200,4198A,119.5090,39.8253,秦皇岛市,北戴河轮滑馆,颗粒物(PM10),122,193,101,25,26,81,,,,1,19,1,8,0.1,0.6
2025-04-24T0200,1307A,120.6659,36.2403,青岛市,仰口,,45,45,30,25,15,104,,,,10,13,7,7,0.5,0.4
2025-04-24T0200,1310A,120.4134,36.0658,青岛市,市南区东部子站,,41,41,31,9,10,86,,,,19,29,7,9,0.5,0.5
2025-04-24T0200,1311A,120.3664,36.1032,青岛市,四方区子站,,34,34,32,14,13,92,,,,22,26,6,7,0.5,0.5
2025-04-24T0200,1312A,120.2994,36.054,青岛市,市南区西部子站,,34,34,24,12,12,93,,,,21,38,7,9,0.6,0.6
2025-04-24T0200,1313A,120.4581,36.0858,青岛市,崂山区子站,,33,31,22,3,5,103,,,,16,23,8,10,0.5,0.5
2025-04-24T0200,1315A,120.3999,36.3083,青岛市,城阳区子站,颗粒物(PM10),51,51,59,17,18,70,,,,42,33,10,12,0.6,0.7
2025-04-24T0200,1966A,120.0405,35.8735,青岛市,黄岛区4号,颗粒物(PM10),58,66,26,22,6,87,,,,30,26,11,10,0.8,0.6
2025-04-24T0200,3362A,120.5014,36.4034,青岛市,即墨2号,颗粒物(PM10),72,93,79,39,29,65,,,,40,30,10,12,0.7,0.7
2025-04-24T0200,3642A,120.3503,36.0736,青岛市,市北区南部,,25,25,30,7,9,80,,,,18,20,7,7,0.5,0.5
2025-04-24T0200,3643A,120.3948,36.1805,青岛市,李沧区北部,颗粒物(PM10),58,66,42,27,18,64,,,,47,31,8,10,0.5,0.6
2025-04-24T0200,4290A,120.1969,35.9546,青岛市,珠江路669号,,34,34,26,12,14,46,,,,57,39,7,9,0.6,0.6
2025-04-24T0200,1702A,113.0426,23.691,清远市,环保大楼,,25,25,69,14,29,36,,,,11,17,5,7,0.8,0.8
2025-04-24T0200,1703A,113.0208,23.7106,清远市,凤城街办,,18,18,41,11,27,26,,,,15,21,4,5,0.7,0.6
2025-04-24T0200,3025A,113.0477,23.6344,清远市,技师学院,,28,27,45,19,30,19,,,,23,26,7,9,0.8,0.6
2025-04-24T0200,3318A,112.9903,23.7403,清远市,清新太和,,20,20,35,13,24,20,,,,14,15,6,7,0.6,0.6
2025-04-24T0200,3455A,113.076,23.7198,清远市,清城东城,,22,22,41,14,27,24,,,,12,15,6,7,1.1,0.9
2025-04-24T0200,2661A,107.6325,35.7357,庆阳市,庆阳五中,颗粒物(PM10),73,95,81,21,27,87,,,,4,8,2,3,0.2,0.3
2025-04-24T0200,2662A,107.6364,35.7067,庆阳市,市环保局,颗粒物(PM10),71,91,80,19,27,90,,,,4,11,4,6,0.4,0.4
2025-04-24T0200,1916A,103.7897,25.5035,曲靖市,环境监测站,,46,46,51,29,25,48,,,,16,16,7,7,0.3,0.2
2025-04-24T0200,1917A,103.8,25.5364,曲靖市,烟厂办公区,,39,39,49,14,25,57,,,,13,13,3,4,0.5,0.5
2025-04-24T0200,3376A,103.7947,25.462,曲靖市,南苑二区,颗粒物(PM10),51,51,54,29,25,53,,,,12,13,8,7,0.6,0.5
2025-04-24T0200,3377A,103.7444,25.5261,曲靖市,曲靖师范学院,细颗粒物(PM2.5),55,,47,39,35,51,,,,12,14,6,9,0.5,0.5
2025-04-24T0200,1264A,118.8692,28.9398,衢州市,环保大楼,,20,20,41,12,31,24,,,,18,17,3,3,0.8,0.8
2025-04-24T0200,1265A,118.8709,28.9666,衢州市,实验学校,,24,24,35,14,29,4,,,,41,25,3,4,0.7,0.6
2025-04-24T0200,1266A,118.8621,28.9808,衢州市,衢州学院,,26,26,37,17,32,1,,,,39,22,3,3,0.8,0.8
2025-04-24T0200,1611A,118.5819,24.9117,泉州市,涂山街,,39,,26,27,25,99,,,,13,17,3,3,0.9,0.7
2025-04-24T0200,1612A,118.5972,24.8978,泉州市,津头埔,,38,,24,26,25,104,,,,16,20,2,2,0.8,0.7
2025-04-24T0200,1613A,118.6663,24.9424,泉州市,万安,,36,,26,16,24,113,,,,6,12,4,3,0.7,0.6
2025-04-24T0200,1614A,118.6117,24.9604,泉州市,清源山,,,,,,,,,,,,,,,,
2025-04-24T0200,3529A,118.6333,24.9264,泉州市,城华南路,,31,25,31,21,23,99,,,,13,19,3,3,0.7,0.6
2025-04-24T0200,2626A,88.8876,29.2718,日喀则市,日喀则监测站,,38,17,11,10,7,120,,,,6,5,6,6,0.5,0.5
2025-04-24T0200,3726A,88.8781,29.2426,日喀则市,林业技术推广中心,,40,23,22,8,5,125,,,,2,2,5,5,0.2,0.2
2025-04-24T0200,1659A,119.471,35.4209,日照市,监测站,颗粒物(PM10),95,139,79,45,28,96,,,,39,47,10,10,0.9,0.9
2025-04-24T0200,1660A,119.523,35.4216,日照市,市政府广场,颗粒物(PM10),89,127,70,45,22,101,,,,32,46,9,10,0.9,0.8
2025-04-24T0200,1661A,119.5587,35.4044,日照市,港务局,颗粒物(PM10),101,151,73,50,26,113,,,,28,56,10,8,0.9,0.7
2025-04-24T0200,3507A,119.5328,35.4625,日照市,职业技术学院,颗粒物(PM10),93,136,75,46,22,88,,,,34,38,8,9,0.9,0.8
2025-04-24T0200,3604A,119.3266,35.1044,日照市,岚山环保分局,颗粒物(PM10),103,156,88,49,33,108,,,,40,38,16,17,0.9,1.2
2025-04-24T0200,1835A,111.1922,34.7752,三门峡市,市政府,"颗粒物(PM10),细颗粒物(PM2.5)",62,73,165,44,82,30,,,,54,40,6,7,0.5,0.6
2025-04-24T0200,1836A,111.1587,34.7942,三门峡市,开发区,颗粒物(PM10),71,92,189,38,77,32,,,,52,29,5,8,0.5,0.6
2025-04-24T0200,1838A,111.143,34.7955,三门峡市,风景区,颗粒物(PM10),70,89,173,30,64,36,,,,39,26,7,9,0.3,0.4
2025-04-24T0200,3039A,111.1911,34.7829,三门峡市,三门峡市第一小学,颗粒物(PM10),65,80,185,30,68,47,,,,39,31,9,9,0.4,0.5
2025-04-24T0200,3598A,111.1,34.7167,三门峡市,富达温泉假日酒店,颗粒物(PM10),77,104,190,45,78,34,,,,40,29,9,8,0.6,0.5
2025-04-24T0200,2324A,117.6211,26.2625,三明市,三钢,,34,21,20,16,14,13,,,,20,15,8,10,3.4,1.4
2025-04-24T0200,2325A,117.635,26.2714,三明市,三明二中,,12,10,15,8,11,15,,,,16,12,3,4,0.8,0.6
2025-04-24T0200,2326A,117.6028,26.2378,三明市,三元区政府,,25,25,19,10,11,8,,,,18,13,4,5,0.6,0.5
2025-04-24T0200,2327A,117.7275,26.3108,三明市,洋溪,,,,,,,,,,,,,,,,
2025-04-24T0200,1876A,109.5078,18.2489,三亚市,河东子站,,17,17,20,8,11,40,,,,2,5,4,3,0.3,0.3
2025-04-24T0200,1877A,109.4964,18.2681,三亚市,河西子站,,18,18,19,8,8,43,,,,3,7,2,2,0.2,0.2
2025-04-24T0200,3540A,109.7348,18.3443,三亚市,君悦子站,,15,14,18,10,8,23,,,,13,7,3,3,0.2,0.2
2025-04-24T0200,2624A,91.7608,29.2313,山南市,山南监测站,,46,,35,32,10,116,,,,1,6,3,3,0.3,0.3
2025-04-24T0200,2625A,91.7706,29.2436,山南市,山南人民医院,,49,,41,34,21,115,,,,2,6,4,4,0.3,0.3
2025-04-24T0200,1674A,116.6794,23.3667,汕头市,金平子站,,23,16,28,11,18,73,,,,11,10,5,4,0.6,0.6
2025-04-24T0200,1675A,116.7244,23.3633,汕头市,龙湖子站,,23,20,30,10,16,73,,,,8,8,4,4,0.5,0.5
2025-04-24T0200,1676A,116.7258,23.2775,汕头市,濠江子站,,21,21,37,11,19,58,,,,9,10,4,4,0.6,0.7
2025-04-24T0200,1677A,116.7519,23.4714,汕头市,澄海子站,,22,20,32,15,19,68,,,,10,11,2,3,0.7,0.7
2025-04-24T0200,1678A,116.6092,23.2539,汕头市,潮阳子站,,26,26,32,13,17,51,,,,15,9,7,7,0.6,0.6
2025-04-24T0200,3444A,116.454,23.2684,汕头市,潮南峡山,,35,35,32,17,24,44,,,,11,8,4,4,0.6,0.5
2025-04-24T0200,3624A,116.4069,23.2533,汕头市,潮南子站,,43,43,35,30,24,36,,,,8,9,4,3,0.6,0.6
2025-04-24T0200,1693A,115.3653,22.775,汕尾市,市环保局,,18,17,20,12,14,33,,,,6,5,6,6,0.6,0.6
2025-04-24T0200,1694A,115.3706,22.7898,汕尾市,市政府,,22,22,24,15,20,31,,,,10,9,3,4,0.4,0.4
2025-04-24T0200,1695A,115.3622,22.7925,汕尾市,新城中学,,20,20,23,11,14,28,,,,10,9,8,8,0.4,0.5
2025-04-24T0200,2645A,109.9154,33.8715,商洛市,监测站,颗粒物(PM10),63,76,149,30,52,62,,,,25,16,9,6,0.4,0.4
2025-04-24T0200,3045A,109.9643,33.8471,商洛市,商州区中学,"颗粒物(PM10),细颗粒物(PM2.5)",59,67,156,42,68,49,,,,35,23,3,3,0.6,0.5
2025-04-24T0200,2408A,115.6702,34.4285,商丘市,环境监测站,颗粒物(PM10),104,157,141,53,46,104,,,,12,16,5,6,0.3,0.4
2025-04-24T0200,2409A,115.6458,34.4045,商丘市,粮食局,颗粒物(PM10),113,175,148,58,55,100,,,,14,18,7,5,0.5,0.5
2025-04-24T0200,2410A,115.6293,34.3948,商丘市,睢阳区环保局,颗粒物(PM10),107,164,157,63,55,80,,,,21,25,5,5,0.4,0.4
2025-04-24T0200,3171A,115.6071,34.4465,商丘市,梁园区档案局,颗粒物(PM10),110,169,148,61,50,88,,,,19,18,10,9,0.4,0.4
2025-04-24T0200,1141A,121.4,31.238,上海市,普陀,细颗粒物(PM2.5),108,121,80,81,54,28,,,,70,36,6,7,1.0,0.8
2025-04-24T0200,1142A,121.478,31.2036,上海市,十五厂,细颗粒物(PM2.5),107,119,86,80,54,13,,,,111,44,10,10,0.8,0.8
2025-04-24T0200,1143A,121.467,31.3008,上海市,虹口,细颗粒物(PM2.5),97,106,78,72,54,26,,,,81,43,8,8,0.6,0.5
2025-04-24T0200,1147A,121.425,31.2261,上海市,静安监测站,细颗粒物(PM2.5),94,110,76,70,51,15,,,,98,43,8,9,1.0,0.8
2025-04-24T0200,1148A,121.703,31.1907,上海市,浦东川沙,细颗粒物(PM2.5),92,106,75,68,48,97,,,,29,34,6,8,0.5,0.6
2025-04-24T0200,1149A,121.533,31.2284,上海市,浦东新区监测站,细颗粒物(PM2.5),93,102,72,69,48,54,,,,46,30,6,8,0.9,1
2025-04-24T0200,1150A,121.577,31.2071,上海市,浦东张江,细颗粒物(PM2.5),94,108,83,70,51,66,,,,42,36,6,7,0.8,1
2025-04-24T0200,3265A,121.4316,31.3322,上海市,宝山庙行,细颗粒物(PM2.5),109,124,88,82,57,39,,,,67,44,10,11,0.9,0.8
2025-04-24T0200,3266A,121.8791,31.4662,上海市,崇明上实东滩,"颗粒物(PM10),细颗粒物(PM2.5)",63,75,52,45,27,17,,,,102,29,3,3,0.8,0.5
2025-04-24T0200,3268A,121.3162,31.2838,上海市,嘉定南翔,细颗粒物(PM2.5),104,123,80,78,51,10,,,,120,54,7,7,1.1,0.9
2025-04-24T0200,3269A,121.3359,30.7456,上海市,金山新城,细颗粒物(PM2.5),100,126,68,75,49,65,,,,58,30,6,4,0.7,0.6
2025-04-24T0200,3270A,121.4996,31.0739,上海市,闵行浦江,细颗粒物(PM2.5),102,96,72,76,57,53,,,,38,32,4,6,0.9,0.9
2025-04-24T0200,3271A,121.2886,31.1663,上海市,青浦徐泾,细颗粒物(PM2.5),97,131,76,72,46,1,,,,103,50,6,6,1.0,0.9
2025-04-24T0200,3272A,121.2186,31.0378,上海市,松江图书馆,颗粒物(PM10),105,159,86,66,46,0,,,,116,46,8,8,1.1,1
2025-04-24T0200,3273A,121.3902,31.2059,上海市,长宁仙霞,细颗粒物(PM2.5),97,107,79,72,51,9,,,,79,40,8,9,1.2,1
2025-04-24T0200,3274A,121.7965,31.0507,上海市,浦东惠南,细颗粒物(PM2.5),102,106,68,76,52,49,,,,68,44,8,9,0.9,0.9
2025-04-24T0200,3544A,121.4891,30.925,上海市,奉贤南桥新城,细颗粒物(PM2.5),113,87,62,85,58,73,,,,45,40,2,5,0.8,0.9
2025-04-24T0200,4183A,121.4174,31.16637,上海市,冠生园路458号,细颗粒物(PM2.5),89,98,73,66,51,2,,,,100,39,7,8,1.1,1
2025-04-24T0200,4205A,121.5419,31.2683,上海市,宁武路151号,细颗粒物(PM2.5),97,116,82,72,44,25,,,,76,42,9,11,0.9,0.9
2025-04-24T0200,2381A,118.005,28.4572,上饶市,百草园,,,,,,,,,,,,,,,,
2025-04-24T0200,2382A,117.9756,28.4436,上饶市,市监测站,,30,30,22,21,12,23,,,,24,11,10,6,1.0,1
