timepoint,stationcode,longitude,latitude,area,positionname,primarypollutant,aqi,pm10,pm10_24h,pm2_5,pm2_5_24h,o3,o3_24h,o3_8h,o3_8h_24h,no2,no2_24h,so2,so2_24h,co,co_24h
2025-04-24T1100,2566A,102.1879,31.914,阿坝藏族羌族自治州,州农科所,,31,31,25,13,9,60,,46,46,8,9,14,13,0.5,0.5
2025-04-24T1100,2568A,102.2502,31.8896,阿坝藏族羌族自治州,马师校,,,10,18,9,15,60,,33,33,9,9,6,6,,0.5
2025-04-24T1100,3994A,102.2165,31.9024,阿坝藏族羌族自治州,马尔康中学西区,,24,15,16,8,11,74,,49,49,4,5,4,4,0.5,0.5
2025-04-24T1100,2695A,80.292,41.1694,阿克苏地区,电视台,颗粒物(PM10),87,124,249,43,63,54,,65,65,20,11,5,5,0.5,0.4
2025-04-24T1100,2696A,80.2613,41.1551,阿克苏地区,艺术中心,颗粒物(PM10),92,134,285,45,87,51,,59,59,34,22,4,4,0.1,0.3
2025-04-24T1100,2204A,105.6467,38.8363,阿拉善盟,西城区西花园,,40,40,62,11,15,93,,84,80,9,9,7,6,0.6,0.6
2025-04-24T1100,2205A,105.6985,38.8411,阿拉善盟,蒙二幼,,,48,60,11,15,78,,74,70,9,8,,7,,0.5
2025-04-24T1100,2206A,105.724,38.8516,阿拉善盟,环保局新楼,,42,42,54,12,15,83,,88,84,7,4,8,7,0.4,0.3
2025-04-24T1100,2708A,88.1264,47.8517,阿勒泰地区,市站,,,,1094,11,6,66,,80,71,10,6,4,3,0.4,0.3
2025-04-24T1100,2630A,80.1161,32.5,阿里地区,阿里监测站,,32,25,18,9,8,100,,107,99,5,3,6,5,0.4,0.4
2025-04-24T1100,3192A,80.0903,32.5028,阿里地区,阿里藏医院,,36,16,26,7,7,115,,116,113,2,2,6,6,0.3,0.3
2025-04-24T1100,2642A,109.0318,32.6537,安康市,香溪洞,颗粒物(PM10),61,72,84,34,37,73,,63,56,7,7,8,7,0.4,0.4
2025-04-24T1100,2644A,109.0072,32.6975,安康市,汉滨区检察院,颗粒物(PM10),64,78,85,28,38,71,,43,43,13,10,22,8,0.5,0.4
2025-04-24T1100,4054A,109.0325,32.6913,安康市,市邮政管理局,颗粒物(PM10),67,83,97,33,39,67,,35,35,13,13,21,12,0.4,0.4
2025-04-24T1100,2291A,117.0809,30.5177,安庆市,环科院,"颗粒物(PM10),细颗粒物(PM2.5)",54,58,58,38,33,16,,34,31,77,50,3,2,0.9,0.8
2025-04-24T1100,2292A,117.0331,30.5119,安庆市,马山宾馆,颗粒物(PM10),56,61,50,38,30,34,,46,46,69,36,9,6,0.8,0.7
2025-04-24T1100,2294A,116.9896,30.6145,安庆市,安庆大学,细颗粒物(PM2.5),53,54,60,37,35,94,,41,41,20,35,11,6,0.6,0.7
2025-04-24T1100,3173A,117.0598,30.5351,安庆市,市人大,颗粒物(PM10),58,65,57,40,33,56,,53,53,57,29,12,8,0.7,0.6
2025-04-24T1100,3122A,105.9606,26.2611,安顺市,伍家关,,,12,56,11,20,,,64,64,7,9,2,2,,0.4
2025-04-24T1100,3123A,105.9408,26.2431,安顺市,凤凰山,,26,20,52,7,27,81,,61,61,7,9,13,7,0.4,0.5
2025-04-24T1100,3124A,105.9439,26.2564,安顺市,金钟山,,25,21,48,10,28,78,,58,58,7,9,10,5,0.5,0.5
2025-04-24T1100,3125A,105.8983,26.2481,安顺市,娄家坡,,,16,53,11,32,81,,62,62,8,9,,7,0.6,0.6
2025-04-24T1100,1818A,114.4839,36.0621,安阳市,棉研所,,,,,,,,,,,,,,,,
2025-04-24T1100,1819A,114.3551,36.1017,安阳市,红庙街,颗粒物(PM10),57,63,108,9,25,79,,70,70,2,5,1,4,0.2,0.3
2025-04-24T1100,1820A,114.361,36.0681,安阳市,银杏小区,颗粒物(PM10),52,54,105,28,38,85,,77,77,4,10,4,7,0.1,0.3
2025-04-24T1100,3141A,114.3922,36.0878,安阳市,信访局,颗粒物(PM10),62,74,138,3,28,88,,80,80,1,10,2,4,0.0,0.1
2025-04-24T1100,3669A,114.4705,36.0637,安阳市,左辅环卫站,,,,108,,31,92,,83,83,,14,,5,0.2,0.1
2025-04-24T1100,3703A,114.2917,36.0949,安阳市,安钢职工学校,颗粒物(PM10),68,85,132,14,27,81,,72,72,5,11,2,5,0.1,0.3
2025-04-24T1100,1748A,123.044,41.1196,鞍山市,深沟寺,,40,40,60,16,21,72,,60,60,11,16,12,11,0.7,0.7
2025-04-24T1100,1749A,123.011,41.0931,鞍山市,太阳城,,28,28,58,12,20,79,,64,64,6,14,6,9,0.5,0.8
2025-04-24T1100,1750A,123.0485,41.1442,鞍山市,太平,,48,48,76,15,23,71,,60,60,8,14,14,13,0.6,0.7
2025-04-24T1100,1751A,122.9642,41.0971,鞍山市,铁西三道街,,37,37,68,10,25,69,,51,51,10,21,3,10,0.3,0.9
2025-04-24T1100,1753A,123.022,41.0821,鞍山市,明达新区,,35,35,57,16,20,78,,61,61,7,12,6,10,0.3,0.5
2025-04-24T1100,1754A,123.1289,41.0228,鞍山市,千山,,,,43,,11,,,112,,,12,,7,,0.6
2025-04-24T1100,4201A,122.9446,41.0826,鞍山市,兴盛南路290号,,34,34,72,10,22,77,,52,52,15,23,6,12,0.3,0.8
2025-04-24T1100,2195A,107.4212,40.761,巴彦淖尔市,附二中,,40,40,45,11,12,83,,56,55,12,11,7,7,0.4,0.4
2025-04-24T1100,2196A,107.37,40.7372,巴彦淖尔市,市环保大楼,,48,48,45,27,21,84,,55,50,18,15,6,5,0.4,0.4
2025-04-24T1100,1956A,86.1472,41.7538,巴音郭楞蒙古自治州,孔雀公园,颗粒物(PM10),194,338,432,80,110,66,,51,51,19,29,13,7,0.3,0.3
2025-04-24T1100,1957A,86.1972,41.7166,巴音郭楞蒙古自治州,棉纺厂,颗粒物(PM10),296,417,534,69,99,63,,47,47,24,25,4,3,0.3,0.3
2025-04-24T1100,1958A,86.2357,41.7173,巴音郭楞蒙古自治州,经济开发区,颗粒物(PM10),178,306,410,64,82,83,,72,72,10,12,7,7,0.4,0.3
2025-04-24T1100,2914A,106.7677,31.8794,巴中市,苏山坪,颗粒物(PM10),52,54,75,31,41,70,,,,17,12,3,4,0.2,0.4
2025-04-24T1100,3181A,106.7768,31.8526,巴中市,市五中,颗粒物(PM10),53,55,97,20,33,75,,74,68,12,11,6,6,0.4,0.4
2025-04-24T1100,3183A,106.7418,31.8654,巴中市,圣泉水务公司,,46,46,90,22,44,78,,70,66,12,14,5,5,0.4,0.4
2025-04-24T1100,3616A,106.7616,31.8344,巴中市,市中心医院,,49,49,95,26,42,77,,67,62,10,11,4,4,0.5,0.5
2025-04-24T1100,2235A,122.7911,45.6077,白城市,洮北区环保局,细颗粒物(PM2.5),54,42,35,38,19,69,,61,61,8,7,1,4,0.4,0.3
2025-04-24T1100,2236A,122.8738,45.5725,白城市,市环保局,细颗粒物(PM2.5),54,51,34,38,19,74,,67,67,6,3,5,7,0.4,0.3
2025-04-24T1100,2231A,126.4219,41.9171,白山市,喜丰,,,,35,40,15,87,,72,72,8,9,2,9,0.7,0.6
2025-04-24T1100,2232A,126.4077,41.9419,白山市,环保局,颗粒物(PM10),57,64,39,28,13,88,,72,72,7,9,8,8,0.8,0.8
2025-04-24T1100,2647A,104.1724,36.5446,白银市,第三小学,,,58,51,23,20,96,,58,58,13,16,20,16,,0.5
2025-04-24T1100,2648A,104.1465,36.5482,白银市,动力公司,颗粒物(PM10),54,58,41,22,15,101,,62,62,14,13,19,12,0.6,0.5
2025-04-24T1100,2512A,106.6103,23.9011,百色市,市监测站,,27,27,19,12,11,36,,42,38,18,13,3,4,0.6,0.6
2025-04-24T1100,2513A,106.6538,23.8859,百色市,市中心血站,,,61,23,28,10,31,,49,43,,11,8,6,0.9,0.7
2025-04-24T1100,3406A,106.6085,23.8798,百色市,祈福高中,,39,39,27,20,13,31,,38,33,27,14,10,6,0.7,0.6
2025-04-24T1100,2270A,117.396,32.939,蚌埠市,工人疗养院,颗粒物(PM10),105,160,147,43,38,94,,88,86,21,19,9,6,0.7,0.7
2025-04-24T1100,2271A,117.3605,32.9427,蚌埠市,百货大楼,颗粒物(PM10),111,171,147,44,43,94,,86,86,24,23,10,8,0.6,0.6
2025-04-24T1100,2273A,117.4185,32.8911,蚌埠市,蚌埠学院,颗粒物(PM10),107,163,142,50,42,98,,87,87,19,20,10,7,0.7,0.7
2025-04-24T1100,2274A,117.3533,32.9673,蚌埠市,淮上区政府,,,,148,,43,86,,88,83,,21,,7,0.6,0.5
2025-04-24T1100,2275A,117.3145,32.8977,蚌埠市,高新区,颗粒物(PM10),101,151,148,46,47,97,,74,74,,29,10,7,0.6,0.6
2025-04-24T1100,3715A,117.3092,32.9314,蚌埠市,蚌埠田家炳中学,颗粒物(PM10),104,157,155,42,43,102,,87,87,17,22,10,21,0.5,0.5
2025-04-24T1100,1585A,109.8756,40.6532,包头市,市环境监测站,,48,48,29,27,7,81,,52,52,46,15,52,10,2.7,0.5
2025-04-24T1100,1587A,109.9991,40.5842,包头市,包头八中,,,51,34,20,9,78,,50,50,30,21,,15,1.1,0.4
2025-04-24T1100,1588A,109.8538,40.6821,包头市,青山宾馆,细颗粒物(PM2.5),57,54,24,40,10,72,,52,52,60,13,70,12,3.5,0.5
2025-04-24T1100,1589A,109.8642,40.6288,包头市,惠龙物流,颗粒物(PM10),93,136,36,38,10,87,,54,54,40,16,62,12,2.5,0.4
2025-04-24T1100,1590A,110.0377,40.5546,包头市,东河鸿龙湾,,,78,31,24,5,74,,47,46,,18,55,11,1.8,0.6
2025-04-24T1100,3283A,109.9154,40.5685,包头市,滨河大厦,,37,37,21,20,8,89,,36,36,25,20,28,11,1.1,0.5
2025-04-24T1100,3419A,109.9447,40.6261,包头市,包头市委党校,颗粒物(PM10),52,53,27,24,7,88,,38,38,26,20,45,12,2.0,0.5
2025-04-24T1100,3683A,109.8331,40.6576,包头市,昆区政府,"颗粒物(PM10),细颗粒物(PM2.5)",55,60,30,39,9,86,,62,60,59,15,66,10,3.2,0.6
2025-04-24T1100,1930A,107.185,34.3063,宝鸡市,庙沟村,颗粒物(PM10),65,80,57,31,39,96,,89,85,6,9,8,8,0.4,0.4
2025-04-24T1100,1931A,107.0708,34.3017,宝鸡市,竹园沟,颗粒物(PM10),62,73,47,27,24,94,,64,62,7,12,8,8,0.4,0.4
2025-04-24T1100,1932A,107.1906,34.3672,宝鸡市,三陆医院,颗粒物(PM10),69,88,71,24,34,88,,38,38,16,30,6,7,0.4,0.4
2025-04-24T1100,1933A,107.1431,34.3547,宝鸡市,监测站,颗粒物(PM10),70,90,71,22,26,86,,46,46,13,21,9,8,0.3,0.4
2025-04-24T1100,1934A,107.1186,34.3739,宝鸡市,技工学校,颗粒物(PM10),72,93,65,41,34,88,,56,56,10,15,8,7,0.4,0.4
2025-04-24T1100,1935A,107.3906,34.3528,宝鸡市,陈仓区环保局家属楼,颗粒物(PM10),61,72,78,24,36,87,,49,49,15,30,9,12,0.4,0.6
2025-04-24T1100,1936A,107.2058,34.3497,宝鸡市,文理学院,颗粒物(PM10),58,66,64,37,31,92,,55,55,10,20,7,7,0.4,0.4
2025-04-24T1100,1937A,107.2386,34.3622,宝鸡市,三迪小学,颗粒物(PM10),68,86,74,33,33,85,,46,46,13,25,6,6,0.3,0.4
2025-04-24T1100,1051A,115.493,38.8632,保定市,游泳馆,,,,74,,24,76,,73,71,15,11,3,3,0.1,0.2
2025-04-24T1100,1052A,115.5213,38.8959,保定市,华电二区,,,51,65,8,21,,,65,,7,7,1,3,0,0
2025-04-24T1100,1053A,115.4713,38.9108,保定市,接待中心,,,,70,,20,,,65,,9,10,,2,0.3,0.4
2025-04-24T1100,1054A,115.4612,38.8416,保定市,地表水厂,颗粒物(PM10),57,63,95,10,22,78,,73,68,12,12,2,2,0.1,0.2
2025-04-24T1100,3581A,115.31981,38.95208,保定市,满城区生态环境分局,颗粒物(PM10),64,78,76,14,19,75,,84,74,11,9,3,3,0.2,0.2
2025-04-24T1100,3582A,115.47694,38.76408,保定市,清苑区第二中学,颗粒物(PM10),58,65,96,3,21,83,,66,66,9,11,4,4,0.2,0.2
2025-04-24T1100,3583A,115.62909,39.02311,保定市,徐水物探局,颗粒物(PM10),62,73,74,9,13,76,,70,70,11,13,3,3,0.2,0.2
2025-04-24T1100,4004A,115.4202,38.8656,保定市,双鹰农机,颗粒物(PM10),64,77,69,22,27,75,,72,66,8,8,4,4,0.0,0
2025-04-24T1100,4034A,115.5150,38.8590,保定市,植保所站,,49,49,77,19,29,69,,64,62,6,7,3,3,0.6,0.6
2025-04-24T1100,2594A,99.1678,25.1081,保山市,市环境监测站,细颗粒物(PM2.5),63,70,61,45,36,105,,86,73,7,8,4,7,0.6,0.6
2025-04-24T1100,2595A,99.1711,25.1328,保山市,市环保局,颗粒物(PM10),61,72,68,32,31,103,,97,84,17,9,9,8,0.6,0.5
2025-04-24T1100,1866A,109.2262,21.588,北海市,牛尾岭水库,,,37,33,30,24,75,,27,27,,,9,8,1.0,0.9
2025-04-24T1100,1867A,109.1436,21.4086,北海市,海滩公园,颗粒物(PM10),52,54,49,29,18,84,,50,48,14,17,10,7,0.6,0.5
2025-04-24T1100,1868A,109.0981,21.4661,北海市,新市环保局,,48,48,40,31,21,83,,49,49,14,14,10,6,0.8,0.6
2025-04-24T1100,1869A,109.1778,21.5233,北海市,北海工业园,颗粒物(PM10),52,54,44,34,26,88,,41,41,10,12,12,10,0.6,0.5
2025-04-24T1100,3400A,109.1911,21.4415,北海市,龙潭自来水厂,,47,47,45,32,31,75,,31,31,12,16,11,8,0.5,0.5
2025-04-24T1100,1001A,116.3621,39.8784,北京市,万寿西宫,,29,21,41,7,10,91,,76,76,1,6,6,6,0.4,0.3
2025-04-24T1100,1002A,116.2202,40.2915,北京市,定陵,,,,,,,,,,,,,,,,
2025-04-24T1100,1003A,116.4174,39.9289,北京市,东四,,28,22,42,3,8,88,,71,71,4,6,2,2,0.2,0.2
2025-04-24T1100,1004A,116.4072,39.8863,北京市,天坛,,27,23,36,3,8,85,,66,66,6,10,2,2,0.3,0.3
2025-04-24T1100,1005A,116.462,39.9365,北京市,农展馆,,28,22,40,3,6,89,,75,75,7,10,7,7,0.1,0.1
2025-04-24T1100,1006A,116.3392,39.9295,北京市,官园,,25,21,42,3,7,79,,70,70,6,8,5,4,0.3,0.2
2025-04-24T1100,1007A,116.2878,39.9611,北京市,海淀万柳,,26,26,47,3,10,74,,47,47,1,9,4,4,0.4,0.3
2025-04-24T1100,1008A,116.6636,40.135,北京市,顺义新城,,28,20,43,3,10,87,,76,76,3,4,6,6,0.3,0.3
2025-04-24T1100,1009A,116.6275,40.3275,北京市,怀柔镇,,26,13,34,3,9,81,,68,68,4,6,3,2,0.3,0.3
2025-04-24T1100,1010A,116.2296,40.217,北京市,昌平镇,,26,21,37,3,7,81,,70,69,8,8,3,3,0.1,0
2025-04-24T1100,1011A,116.3966,39.9821,北京市,奥体中心,,28,21,39,8,10,87,,70,70,10,14,3,3,0.3,0.4
2025-04-24T1100,3281A,115.9718,40.4529,北京市,延庆夏都,,30,17,34,3,9,94,,80,80,2,4,2,2,0.3,0.3
2025-04-24T1100,3418A,116.8336,40.4095,北京市,密云新城,,26,15,65,3,14,81,,60,59,2,5,3,2,0.4,0.4
2025-04-24T1100,3671A,116.088,39.9726,北京市,门头沟三家店,颗粒物(PM10),65,80,62,7,11,78,,71,71,9,8,2,2,0.2,0.2
2025-04-24T1100,3672A,116.1541,39.8204,北京市,丰台云岗,,,27,37,3,7,,,76,75,3,7,3,2,0.1,0.1
2025-04-24T1100,3673A,116.6804,39.9081,北京市,通州东关,,27,25,58,7,17,86,,72,72,10,15,5,5,0.5,0.5
2025-04-24T1100,3674A,115.9577,39.7603,北京市,房山燕山,,40,40,36,7,8,69,,72,69,6,8,5,4,0.3,0.3
2025-04-24T1100,3675A,116.4672,39.7733,北京市,大兴旧宫,,30,30,56,3,9,84,,66,66,4,9,3,3,0.2,0.1
2025-04-24T1100,3694A,115.986,40.4563,北京市,延庆石河营,,25,15,33,3,6,77,,69,67,1,3,2,2,0.3,0.3
2025-04-24T1100,3695A,116.6151,40.3053,北京市,怀柔新城,,25,11,29,3,8,79,,70,70,2,4,3,3,0.3,0.4
2025-04-24T1100,3696A,116.2545,39.8768,北京市,丰台小屯,,25,21,40,3,9,78,,63,63,3,8,1,1,0.3,0.2
2025-04-24T1100,3697A,116.84,40.3844,北京市,密云镇,,26,11,39,3,9,81,,52,50,2,8,5,5,0.2,0.2
2025-04-24T1100,4182A,116.1942,39.9158,北京市,八角北路9号,,26,20,43,3,10,83,,65,65,3,10,4,4,0.3,0.1
2025-04-24T1100,4194A,117.0790,40.1518,北京市,洳河巡河路,,27,16,39,3,9,84,,69,67,3,6,2,2,0.2,0.2
2025-04-24T1100,1761A,123.8275,41.3064,本溪市,大峪,细颗粒物(PM2.5),105,137,58,79,19,86,,62,62,13,14,,8,0.6,0.5
2025-04-24T1100,1762A,123.7567,41.3325,本溪市,溪湖,细颗粒物(PM2.5),133,112,58,101,24,84,,68,68,16,12,9,8,0.6,0.6
2025-04-24T1100,1763A,123.7169,41.3094,本溪市,彩屯,颗粒物(PM10),86,122,58,49,22,84,,68,68,12,13,10,11,0.6,0.6
2025-04-24T1100,1764A,123.7669,41.2864,本溪市,东明,颗粒物(PM10),72,93,65,48,21,79,,64,64,15,14,11,9,1.3,1
2025-04-24T1100,1765A,123.7992,41.2664,本溪市,新立屯,细颗粒物(PM2.5),83,69,57,61,21,82,,58,58,15,19,12,9,1.0,0.7
2025-04-24T1100,1766A,123.8142,41.3472,本溪市,威宁,细颗粒物(PM2.5),95,86,72,71,20,86,,62,62,6,10,6,6,0.6,0.6
2025-04-24T1100,2587A,105.2864,27.3125,毕节市,八中,,27,8,49,3,26,84,,87,87,8,7,4,4,0.6,0.6
2025-04-24T1100,2588A,105.31,27.2944,毕节市,师专,,27,7,44,3,22,84,,87,87,7,8,7,7,0.4,0.5
2025-04-24T1100,4263A,105.3688,27.3598,毕节市,工业大道,,30,13,59,7,26,96,,89,89,8,10,6,6,0.5,0.5
2025-04-24T1100,1629A,118.0018,37.3617,滨州市,第二水厂,颗粒物(PM10),53,56,107,12,24,82,,68,68,3,11,6,10,0.2,0.4
2025-04-24T1100,1630A,117.9776,37.393,滨州市,北中新校,,44,44,81,19,30,87,,71,71,8,15,3,5,0.2,0.4
2025-04-24T1100,3514A,117.9378,37.3956,滨州市,中海酒店,,39,39,84,7,27,87,,73,72,4,13,6,10,0.4,0.6
2025-04-24T1100,3515A,117.9378,37.3553,滨州市,开发区一中,,44,44,110,3,28,85,,73,72,10,17,1,6,0,0.1
2025-04-24T1100,3516A,118.0917,37.694,滨州市,金海六路,,29,24,97,3,22,92,,80,80,6,19,6,9,0.2,0.2
2025-04-24T1100,4028A,117.9956,37.3753,滨州市,滨州市西街道办事处,,,61,104,22,35,92,,79,77,7,14,4,8,,0.3
2025-04-24T1100,2311A,115.8072,33.8399,亳州市,污水处理厂,颗粒物(PM10),102,154,162,40,47,87,,70,58,21,17,8,6,0.5,0.4
2025-04-24T1100,2312A,115.7789,33.8518,亳州市,三国揽胜宫,颗粒物(PM10),110,169,184,43,52,90,,77,66,23,17,9,9,0.4,0.3
2025-04-24T1100,3332A,115.7633,33.8034,亳州市,亳州学院,颗粒物(PM10),103,156,182,39,45,91,,83,76,,15,8,9,0.6,0.5
2025-04-24T1100,2693A,82.0485,44.8556,博尔塔拉蒙古自治州,市党校,,34,34,33,16,15,70,,57,54,34,31,3,3,0.5,0.4
2025-04-24T1100,2694A,82.0806,44.8969,博尔塔拉蒙古自治州,市环保局,颗粒物(PM10),54,57,45,16,13,61,,67,59,30,17,4,4,0.6,0.6
2025-04-24T1100,1071A,116.8842,38.2991,沧州市,沧县城建局,,,41,93,8,29,,,69,67,10,15,3,3,0.2,0.3
2025-04-24T1100,1072A,116.8584,38.3254,沧州市,电视转播站,,34,34,78,9,28,80,,62,61,10,18,4,4,0.2,0.2
2025-04-24T1100,1073A,116.8709,38.3228,沧州市,市环保局,,34,34,83,12,32,86,,66,66,9,17,1,5,0.3,0.3
2025-04-24T1100,3324A,116.8136,38.3004,沧州市,河北水利电力学院,,34,34,98,6,21,87,,78,77,10,14,4,7,0.2,0.2
2025-04-24T1100,2622A,97.1806,31.1273,昌都市,昌都监测站,,24,11,8,6,6,74,,64,57,5,3,3,3,0.3,0.2
2025-04-24T1100,3719A,97.1714,31.1406,昌都市,昌都会议中心,,24,12,10,8,8,75,,63,57,5,5,3,3,0.2,0.2
2025-04-24T1100,2690A,88.1236,43.8886,昌吉回族自治州,天山天池,,,8,11,,5,93,,68,68,7,7,5,6,0.6,0.5
2025-04-24T1100,2692A,87.2717,44.0297,昌吉回族自治州,新区政务中心,,40,40,30,8,9,92,,72,72,6,16,13,9,0.4,0.4
2025-04-24T1100,3613A,87.3095,44.0142,昌吉回族自治州,亚心广场,颗粒物(PM10),51,51,40,12,10,83,,63,63,14,21,12,9,0.4,0.5
2025-04-24T1100,1119A,125.3325,43.9166,长春市,食品厂,细颗粒物(PM2.5),114,,61,86,24,80,,70,70,,13,7,7,0.5,0.3
2025-04-24T1100,1120A,125.2863,43.9027,长春市,客车厂,,,,60,,21,82,,69,69,12,14,5,5,0.5,0.3
2025-04-24T1100,1121A,125.2841,43.8463,长春市,邮电学院,细颗粒物(PM2.5),99,119,64,74,23,84,,70,70,9,11,6,6,0.5,0.3
2025-04-24T1100,1122A,125.3716,43.8772,长春市,劳动公园,细颗粒物(PM2.5),114,110,56,86,21,86,,72,72,7,7,6,6,0.5,0.3
2025-04-24T1100,1123A,125.3297,43.8805,长春市,园林处,细颗粒物(PM2.5),119,109,55,90,23,82,,68,68,9,10,7,7,0.6,0.4
2025-04-24T1100,1124A,125.4605,43.79,长春市,净月潭,细颗粒物(PM2.5),97,109,55,72,18,84,,69,69,8,9,6,6,0.4,0.2
2025-04-24T1100,1125A,125.7194,43.515,长春市,甩湾子,,,,,,,,,,,,,,,,
2025-04-24T1100,1126A,125.3863,43.8447,长春市,经开区环卫处,细颗粒物(PM2.5),90,110,55,67,18,80,,69,69,10,10,6,5,0.5,0.3
2025-04-24T1100,1127A,125.245,43.7783,长春市,高新区管委会,细颗粒物(PM2.5),119,116,56,90,23,83,,70,70,11,11,7,7,0.4,0.2
2025-04-24T1100,1128A,125.1761,43.8325,长春市,岱山公园,细颗粒物(PM2.5),133,110,59,101,28,88,,76,76,9,13,5,5,0.5,0.3
2025-04-24T1100,1335A,113.0833,28.2325,长沙市,经开区环保局,,23,,50,9,37,73,,68,68,17,19,4,5,0.5,0.6
2025-04-24T1100,1336A,112.8872,28.2189,长沙市,高开区环保局,,27,18,50,7,33,85,,72,72,4,10,4,5,0.8,0.8
2025-04-24T1100,1337A,113.0792,28.2053,长沙市,马坡岭,,25,17,52,3,27,79,,69,69,16,19,3,3,0.5,0.6
2025-04-24T1100,1338A,112.9394,28.19,长沙市,湖南师范大学,,26,,47,3,20,82,,68,68,10,13,3,3,0.4,0.4
2025-04-24T1100,1339A,113.0178,28.1322,长沙市,雨花区环保局,,26,,49,7,31,83,,66,66,10,15,3,3,0.4,0.4
2025-04-24T1100,1340A,112.9792,28.2597,长沙市,伍家岭,,25,10,55,8,29,77,,65,65,11,14,1,1,0.4,0.5
2025-04-24T1100,1341A,113.0014,28.1944,长沙市,火车新站,,25,14,52,7,28,80,,70,67,10,14,6,6,0.6,0.7
2025-04-24T1100,1342A,112.9844,28.1178,长沙市,天心区环保局,,26,6,50,3,25,81,,65,65,8,12,1,2,0.7,0.8
2025-04-24T1100,1343A,112.8908,28.1308,长沙市,湖南中医药大学,,26,10,47,9,30,81,,59,59,8,13,2,2,0.5,0.5
2025-04-24T1100,1344A,112.9581,28.3611,长沙市,沙坪,,33,33,60,3,21,83,,66,66,8,10,4,4,0.5,0.5
2025-04-24T1100,1727A,113.1147,36.1547,长治市,清华站,颗粒物(PM10),58,65,79,12,17,98,,90,88,14,13,17,9,0.7,0.5
2025-04-24T1100,1730A,113.0886,36.2125,长治市,审计局,,43,43,59,27,18,102,,88,86,12,16,16,13,0.5,0.3
2025-04-24T1100,1731A,113.0844,36.1856,长治市,长治八中,细颗粒物(PM2.5),98,,68,73,36,95,,87,85,14,15,19,12,1.2,1
2025-04-24T1100,2845A,113.1569,36.1911,长治市,德盛苑,,38,38,59,14,27,98,,94,90,10,12,11,9,0.7,0.6
2025-04-24T1100,3568A,113.06,36.0464,长治市,向阳小学,颗粒物(PM10),67,84,89,9,24,99,,97,97,16,19,20,13,0.6,0.3
2025-04-24T1100,3569A,112.8792,36.3144,长治市,屯留一中,,30,30,51,3,17,95,,71,71,4,12,6,11,0.3,0.3
2025-04-24T1100,4189A,113.1131,36.19948,长治市,英华南巷50号,,,89,70,19,21,96,,88,86,22,16,14,9,,0.6
2025-04-24T1100,4190A,113.2367,36.3344,长治市,学府街1号,颗粒物(PM10),55,60,85,12,29,101,,85,80,11,14,7,8,0.5,0.5
2025-04-24T1100,1854A,111.6975,28.9703,常德市,市二中,,39,38,53,27,28,37,,33,33,14,12,4,5,0.7,0.6
2025-04-24T1100,1857A,111.7158,29.1456,常德市,白鹤山,,,,,,,,,,,,,,,,
2025-04-24T1100,3138A,111.7153,29.0289,常德市,武陵区永安,颗粒物(PM10),51,52,53,30,23,69,,44,44,15,12,1,3,0.5,0.4
2025-04-24T1100,3139A,111.6892,28.9881,常德市,鼎城区玉霞,,47,47,56,26,26,36,,34,34,21,13,3,4,0.7,0.6
2025-04-24T1100,3140A,111.6625,29.0531,常德市,武陵区长庚,,43,43,56,27,25,45,,45,45,19,12,6,6,0.7,0.6
2025-04-24T1100,1196A,119.9633,31.762,常州市,市监测站,颗粒物(PM10),68,86,97,46,44,148,,78,78,19,28,16,13,1.0,1
2025-04-24T1100,1200A,119.9468,31.7069,常州市,武进监测站,颗粒物(PM10),66,81,86,45,37,144,,78,78,28,39,15,13,0.9,1
2025-04-24T1100,1201A,119.9255,31.9087,常州市,安家,颗粒物(PM10),69,87,102,46,46,135,,54,54,23,41,15,13,0.5,0.5
2025-04-24T1100,3002A,119.9805,31.8174,常州市,行政中心,细颗粒物(PM2.5),63,74,73,45,39,143,,88,88,20,22,18,17,0.7,0.7
2025-04-24T1100,3003A,120.0522,31.7748,常州市,经开区,颗粒物(PM10),66,82,73,38,35,154,,96,96,21,26,14,12,0.7,0.8
2025-04-24T1100,3010A,119.9025,31.7964,常州市,钟楼,颗粒物(PM10),68,86,91,44,42,128,,67,67,23,31,11,9,0.7,0.7
2025-04-24T1100,3429A,119.8598,31.7066,常州市,武进经发区,,,82,85,31,34,147,,69,69,,27,13,11,1.3,1.3
2025-04-24T1100,3430A,119.5826,31.7245,常州市,金坛城区,颗粒物(PM10),62,74,82,35,32,142,,71,71,13,19,12,11,0.9,0.8
2025-04-24T1100,2220A,120.4318,41.5881,朝阳市,西梁,,49,49,73,3,8,68,,67,67,5,7,6,7,0.3,0.3
2025-04-24T1100,2221A,120.4521,41.5646,朝阳市,河畔小区,,33,33,65,6,10,79,,71,71,6,7,6,7,0.2,0.3
2025-04-24T1100,2222A,120.4176,41.5648,朝阳市,八里堡,,49,49,88,3,10,75,,66,66,4,8,6,6,0.5,0.5
2025-04-24T1100,2223A,120.3806,41.5969,朝阳市,农业园区,,45,45,77,6,10,81,,75,75,4,5,7,7,0.5,0.6
2025-04-24T1100,1705A,116.6367,23.6719,潮州市,西园路,,36,35,35,25,36,74,,54,54,9,11,3,4,0.6,0.6
2025-04-24T1100,3026A,116.6183,23.6608,潮州市,市政府,细颗粒物(PM2.5),52,40,35,36,48,77,,61,61,12,12,3,6,0.6,0.6
2025-04-24T1100,4036A,116.6461,23.6761,潮州市,金山,,37,37,38,18,32,71,,54,54,10,13,6,8,0.6,0.6
2025-04-24T1100,2472A,113.0073,25.9061,郴州市,马头岭,,25,,63,17,28,13,,8,8,12,12,7,8,0.5,0.7
2025-04-24T1100,2473A,113.0116,25.8226,郴州市,市职中,,,,58,35,42,44,,38,38,12,12,3,6,,0.7
2025-04-24T1100,2475A,113.0383,25.8071,郴州市,市审计局,,40,39,61,28,41,44,,55,53,11,8,2,3,0.8,0.7
2025-04-24T1100,2476A,113.0348,25.7759,郴州市,市环保局,,48,48,70,19,50,41,,49,46,10,10,3,4,0.7,0.7
2025-04-24T1100,4252A,113.0138,25.8011,郴州市,好美居路49号,,35,24,62,24,37,47,,50,48,10,11,4,5,0.9,0.8
2025-04-24T1100,1431A,103.9728,30.7236,成都市,金泉两河,,34,34,71,3,26,32,,50,39,28,15,2,3,0.7,0.6
2025-04-24T1100,1432A,104.176,30.6872,成都市,十里店,,42,42,70,6,27,65,,85,76,26,18,4,4,0.6,0.6
2025-04-24T1100,1433A,104.079,30.5706,成都市,三瓦窑,,41,41,72,22,32,63,,74,65,32,23,5,5,0.5,0.4
2025-04-24T1100,1434A,104.1114,30.63,成都市,沙河铺,,,36,68,7,27,46,,58,50,30,17,6,6,,0.7
2025-04-24T1100,1437A,104.0786,30.6531,成都市,君平街,,36,36,69,15,34,44,,55,48,33,23,7,7,0.6,0.6
2025-04-24T1100,1438A,103.613,31.0283,成都市,灵岩寺,,,,,,,,,,,,,,,,
2025-04-24T1100,2880A,104.0239,30.65639,成都市,大石西路,,36,36,69,17,31,56,,66,58,30,22,4,5,0.4,0.4
2025-04-24T1100,3136A,104.2725,30.5589,成都市,龙泉驿区区政府,,27,27,58,7,23,83,,71,68,14,15,4,4,0.5,0.6
2025-04-24T1100,3357A,104.0106,30.6931,成都市,金博路,,16,16,57,10,23,45,,58,48,27,17,7,7,0.1,0.2
2025-04-24T1100,3359A,104.0578,30.5225,成都市,华阳,,36,36,62,22,39,68,,70,64,30,22,7,6,0.2,0.2
2025-04-24T1100,3488A,104.3853,30.7453,成都市,青白江技师分院,,30,30,70,13,33,72,,51,51,25,26,5,3,0.4,0.3
2025-04-24T1100,3489A,104.0789,30.4072,成都市,科学城,,35,35,64,21,32,58,,68,60,16,14,4,4,0.3,0.3
2025-04-24T1100,4011A,103.8506,30.6947,成都市,光华大道三段,,39,39,69,10,33,44,,63,48,25,17,2,1,0.6,0.5
2025-04-24T1100,4224A,104.2433,30.5353,成都市,鲸龙路1057号,,39,39,53,14,31,84,,66,65,22,25,4,4,0.5,0.5
2025-04-24T1100,1062A,117.9531,40.9081,承德市,铁路,,27,16,74,3,10,84,,60,60,3,6,3,3,0.2,0.2
2025-04-24T1100,1063A,117.9392,40.9763,承德市,中国银行,,27,16,73,3,12,84,,55,55,1,4,3,2,0.2,0.2
2025-04-24T1100,1064A,117.9503,40.928,承德市,开发区,,27,15,66,8,19,84,,61,59,5,6,3,3,0.2,0.1
2025-04-24T1100,1065A,117.8051,40.9655,承德市,文化中心,,32,32,79,3,12,87,,55,55,2,6,2,4,0.2,0.3
2025-04-24T1100,1066A,117.9268,41.0026,承德市,离宫,,21,9,65,6,22,67,,49,49,2,3,4,4,0.2,0.2
2025-04-24T1100,2314A,117.47,30.6618,池州市,池州学院,颗粒物(PM10),60,70,42,41,25,68,,52,52,32,16,21,6,0.7,0.7
2025-04-24T1100,3237A,117.4918,30.6617,池州市,展览馆,颗粒物(PM10),53,55,40,35,27,91,,53,53,22,15,13,5,0.7,0.8
2025-04-24T1100,3333A,117.5627,30.695,池州市,第八中学,颗粒物(PM10),56,61,40,29,23,75,,55,55,26,17,8,6,0.6,0.6
2025-04-24T1100,3334A,117.5038,30.6243,池州市,第十二中学,颗粒物(PM10),53,55,45,27,23,98,,45,45,15,20,6,5,0.8,0.9
2025-04-24T1100,1744A,118.9233,42.2816,赤峰市,松山一中,,50,50,58,3,6,75,,70,70,10,11,10,10,0.3,0.3
2025-04-24T1100,1745A,118.9576,42.2728,赤峰市,哈达街,,,67,52,3,7,80,,74,74,,9,9,10,0.3,0.4
2025-04-24T1100,1746A,118.8788,42.2554,赤峰市,天义路,,34,34,48,6,10,77,,69,69,6,8,6,6,0.5,0.5
2025-04-24T1100,3058A,119.2658,42.0353,赤峰市,银河街,,33,33,66,11,10,76,,68,68,5,5,13,14,0.3,0.3
2025-04-24T1100,3286A,118.9359,42.3147,赤峰市,桥北物流园区,,25,25,38,12,11,70,,65,65,11,10,6,7,0.5,0.5
2025-04-24T1100,2521A,107.3476,22.4136,崇左市,市环保局江州分局,,,34,40,18,19,41,,36,35,12,8,5,6,,0.5
2025-04-24T1100,4256A,107.3750,22.3736,崇左市,石景林东路7号,,43,43,38,27,18,54,,42,42,14,10,7,6,0.8,0.6
2025-04-24T1100,2298A,118.3093,32.3153,滁州市,老年大学,颗粒物(PM10),101,151,76,40,34,134,,59,59,13,19,6,3,0.4,0.4
2025-04-24T1100,2299A,118.3244,32.2786,滁州市,人大宾馆,颗粒物(PM10),80,110,69,37,28,136,,98,98,20,20,11,9,0.3,0.3
2025-04-24T1100,3207A,118.3118,32.3038,滁州市,市政府原办公楼,颗粒物(PM10),93,135,76,48,35,128,,80,80,12,15,6,5,0.4,0.4
2025-04-24T1100,3331A,118.3267,32.2634,滁州市,图书馆,颗粒物(PM10),92,133,79,48,37,133,,96,96,14,13,10,8,0.5,0.4
2025-04-24T1100,2605A,101.5482,25.0441,楚雄彝族自治州,州环境监测站,,39,29,42,27,24,116,,124,117,8,7,7,6,0.5,0.4
2025-04-24T1100,2606A,101.538,25.0492,楚雄彝族自治州,市经济开发区,,36,30,44,25,25,112,,119,112,9,7,7,6,0.6,0.5
2025-04-24T1100,2548A,107.5277,31.2827,达州市,达州职业技术学院,颗粒物(PM10),53,55,82,19,28,53,,26,26,15,19,6,5,0.5,0.4
2025-04-24T1100,2549A,107.5086,31.2186,达州市,市环境监测站,颗粒物(PM10),57,63,86,17,29,58,,32,32,26,25,6,5,0.3,0.3
2025-04-24T1100,2550A,107.4988,31.2132,达州市,凤凰小区,颗粒物(PM10),52,53,87,22,32,55,,38,38,24,22,8,7,0.5,0.5
2025-04-24T1100,2551A,107.5082,31.1986,达州市,达县机关宾馆,颗粒物(PM10),53,56,85,26,29,61,,31,31,26,26,6,5,0.4,0.4
2025-04-24T1100,2552A,107.4644,31.2124,达州市,市政中心,颗粒物(PM10),57,64,94,27,29,42,,34,34,26,21,4,3,0.5,0.4
2025-04-24T1100,2614A,100.1542,25.7054,大理白族自治州,大理市环境监测站,颗粒物(PM10),51,52,45,35,30,115,,119,112,7,7,7,7,0.5,0.6
2025-04-24T1100,2615A,100.2171,25.5811,大理白族自治州,大理古城,,40,34,41,28,27,95,,118,107,14,6,7,8,0.6,0.5
2025-04-24T1100,1109A,121.612,38.9741,大连市,甘井子,,,52,51,10,19,86,,79,76,10,23,6,8,,0.3
2025-04-24T1100,1110A,121.565,38.9511,大连市,周水子,,43,43,48,8,19,77,,70,67,8,19,5,7,0.2,0.3
2025-04-24T1100,1111A,121.5637,38.8845,大连市,星海三站,,39,39,44,9,18,86,,80,76,9,18,6,5,0.2,0.3
2025-04-24T1100,1112A,121.6302,38.9117,大连市,青泥洼桥,,40,40,46,10,17,84,,80,76,9,16,6,7,0.3,0.4
2025-04-24T1100,1113A,121.6251,38.8638,大连市,傅家庄,,40,40,41,11,18,89,,84,80,11,23,8,10,0.2,0.2
2025-04-24T1100,1114A,121.5213,38.8661,大连市,七贤岭,,28,28,48,8,18,84,,76,73,7,17,5,7,0.4,0.4
2025-04-24T1100,1115A,121.2529,38.8061,大连市,旅顺,,28,28,40,3,19,67,,65,62,15,24,5,4,0.3,0.5
2025-04-24T1100,1116A,121.7485,39.1311,大连市,金州,,44,44,59,15,20,83,,73,72,10,20,8,10,0.2,0.3
2025-04-24T1100,1117A,121.7811,39.0496,大连市,开发区,,43,43,40,14,17,80,,71,70,7,21,2,5,0.6,0.7
2025-04-24T1100,1118A,121.9762,39.0631,大连市,双D港,,35,35,55,20,18,100,,86,84,6,22,7,10,0.2,0.3
2025-04-24T1100,1789A,124.81117,46.03138,大庆市,大同区,,45,45,41,15,20,64,,52,52,3,5,4,4,0.3,0.3
2025-04-24T1100,1790A,125.129,46.533,大庆市,龙凤区,,45,45,52,20,16,70,,58,58,7,11,4,5,0.4,0.5
2025-04-24T1100,1791A,124.902,46.408,大庆市,红岗区,,24,23,36,13,14,74,,58,58,3,6,4,4,0.3,0.3
2025-04-24T1100,1792A,125.153,46.586,大庆市,萨尔图区,,38,38,52,10,15,65,,56,56,8,11,6,6,0.5,0.5
2025-04-24T1100,1793A,124.9042,46.6215,大庆市,让胡路区,,21,17,33,13,18,67,,57,57,5,8,6,6,0.2,0.2
2025-04-24T1100,3481A,125.141,46.634,大庆市,萨区政府监测点,,,26,40,7,7,73,,59,59,,8,,5,0.4,0.3
2025-04-24T1100,1721A,113.3819,40.1097,大同市,果树场,,38,38,34,9,9,81,,48,48,11,13,6,7,0.6,0.6
2025-04-24T1100,1723A,113.2994,40.0758,大同市,云冈宾馆,,28,27,35,8,7,88,,62,62,12,13,9,10,0.3,0.4
2025-04-24T1100,1724A,113.3444,40.0917,大同市,大同大学,,35,35,34,7,9,84,,52,52,6,11,7,9,0.4,0.5
2025-04-24T1100,1725A,113.2661,40.1269,大同市,安家小村,,30,30,35,3,8,86,,52,52,3,8,11,13,0.2,0.3
2025-04-24T1100,1726A,113.2711,40.0844,大同市,教育学院,,33,33,35,11,14,90,,58,58,8,12,9,11,0.3,0.4
2025-04-24T1100,3282A,113.3397,40.0597,大同市,大同市卫生学校,,36,36,33,3,10,82,,59,59,14,14,9,9,0.5,0.6
2025-04-24T1100,3565A,113.1367,40.1122,大同市,云冈站,,29,21,33,7,7,92,,49,49,6,12,9,12,0.3,0.3
2025-04-24T1100,3566A,113.1186,40.2556,大同市,图书馆,,,,31,,7,80,,43,42,5,6,,9,,0.5
2025-04-24T1100,3567A,113.5931,40.0461,大同市,区一中,,,,37,,8,84,,53,52,11,10,,13,0.6,0.5
2025-04-24T1100,4199A,113.2798,40.0997,大同市,魏都大道141号,,40,40,41,3,8,90,,57,57,8,12,13,15,0.4,0.5
2025-04-24T1100,2269A,124.1069,50.4097,大兴安岭地区,科技局,,,,21,16,19,,,79,77,6,4,3,3,0.3,0.3
2025-04-24T1100,3663A,124.1164,50.4278,大兴安岭地区,红旗社区,,25,,8,3,8,78,,80,78,2,2,4,4,0.2,0.2
2025-04-24T1100,1600A,124.3303,40.0625,丹东市,江湾东路,细颗粒物(PM2.5),119,116,46,90,26,107,,84,84,,16,8,11,0.6,0.5
2025-04-24T1100,1601A,124.4256,40.1503,丹东市,临江后街,颗粒物(PM10),193,336,68,98,27,99,,79,79,11,13,5,7,0.6,0.5
2025-04-24T1100,1602A,124.3933,40.1461,丹东市,元宝山,颗粒物(PM10),93,135,42,68,20,96,,77,77,8,12,8,9,0.7,0.4
2025-04-24T1100,1603A,124.3633,40.1092,丹东市,民主桥,细颗粒物(PM2.5),127,104,43,96,21,103,,81,81,14,15,7,9,0.7,0.5
2025-04-24T1100,3541A,109.5726,19.5167,儋州市,第一中学子站,,29,24,33,20,20,65,,48,48,4,7,6,6,0.3,0.3
2025-04-24T1100,3542A,109.5567,19.5187,儋州市,东坡学校子站,,38,38,31,17,20,73,,47,47,5,9,7,7,0.4,0.5
2025-04-24T1100,2616A,98.5842,24.428,德宏傣族景颇族自治州,德宏州监测站,细颗粒物(PM2.5),85,112,88,63,51,28,,17,11,33,21,14,9,0.9,0.7
2025-04-24T1100,3677A,98.5881,24.4368,德宏傣族景颇族自治州,芒市人民政府综合楼,细颗粒物(PM2.5),90,105,99,67,48,37,,39,29,31,15,8,8,0.9,0.7
2025-04-24T1100,1901A,104.4239,31.1208,德阳市,东山公园,,31,31,69,19,35,61,,54,52,16,15,4,5,0.7,0.6
2025-04-24T1100,1902A,104.3826,31.1317,德阳市,西小区,颗粒物(PM10),52,53,77,25,38,58,,62,54,32,22,5,6,0.5,0.5
2025-04-24T1100,1904A,104.3553,31.1091,德阳市,耐火材料厂,,48,48,74,20,34,59,,54,49,29,21,6,6,0.5,0.5
2025-04-24T1100,3639A,104.4019,31.1244,德阳市,市教育局,,43,43,72,17,36,66,,67,61,23,19,5,6,0.4,0.4
2025-04-24T1100,1622A,116.3032,37.4674,德州市,儿童乐园,,,73,102,,24,88,,74,74,11,18,7,9,0.3,0.5
2025-04-24T1100,1624A,116.2991,37.4451,德州市,监理站,颗粒物(PM10),54,58,90,9,23,84,,70,70,6,14,8,11,0.3,0.4
2025-04-24T1100,3066A,116.2721,37.4379,德州市,九衢泉纯净水厂,颗粒物(PM10),57,63,90,22,29,86,,75,75,8,16,7,8,0.5,0.6
2025-04-24T1100,3371A,116.3728,37.4403,德州市,开发区人民医院,颗粒物(PM10),58,66,96,12,24,83,,69,69,7,17,7,10,0.5,0.6
2025-04-24T1100,3372A,116.3572,37.4094,德州市,太阳城中学,颗粒物(PM10),56,61,89,19,30,86,,77,76,6,14,4,6,0.6,0.9
2025-04-24T1100,3511A,116.5652,37.3319,德州市,陵城艺术中心,颗粒物(PM10),56,61,89,9,25,86,,75,73,12,18,3,6,0.5,0.5
2025-04-24T1100,2621A,99.7056,27.8317,迪庆藏族自治州,迪庆州站,,34,12,18,10,13,108,,105,105,10,10,5,5,0.4,0.5
2025-04-24T1100,3180A,99.7136,27.8094,迪庆藏族自治州,质量技术监督局,,36,15,15,3,9,114,,111,111,12,10,3,3,0.5,0.5
2025-04-24T1100,4257A,104.6092,35.5962,定西市,将台街,颗粒物(PM10),51,51,58,11,23,99,,51,51,12,18,6,5,0.1,0.1
2025-04-24T1100,4309A,104.6159,35.5701,定西市,正龙路62号,,50,50,54,12,21,101,,58,58,8,8,9,9,0.2,0.3
2025-04-24T1100,1389A,113.7547,23.0494,东莞市,莞城梨川,,20,15,30,14,20,61,,37,37,6,12,5,6,0.4,0.5
2025-04-24T1100,1390A,113.7944,23.0128,东莞市,东城石井,,19,16,27,10,15,59,,34,34,8,15,4,4,0.3,0.4
2025-04-24T1100,1391A,113.7383,22.9658,东莞市,南城西平,,21,17,26,11,14,65,,42,42,6,11,3,4,0.4,0.5
2025-04-24T1100,3319A,113.7338,23.0381,东莞市,万江金泰,,21,21,31,8,18,51,,22,22,7,12,4,4,0.7,0.7
2025-04-24T1100,3626A,113.7533,23.0202,东莞市,南城元岭,,22,22,27,12,16,61,,38,38,3,9,6,6,0.5,0.5
2025-04-24T1100,3627A,113.7875,23.0457,东莞市,东城主山,,21,21,32,9,16,59,,35,35,7,13,4,4,0.3,0.4
2025-04-24T1100,1666A,118.6614,37.4309,东营市,市环保局,颗粒物(PM10),53,56,91,3,19,89,,85,80,12,21,6,7,0.6,0.4
2025-04-24T1100,3036A,118.6904,37.4338,东营市,开发区管委会,颗粒物(PM10),59,67,102,7,25,90,,86,82,6,19,5,7,0.6,0.5
2025-04-24T1100,3365A,118.5719,37.565,东营市,垦利区民丰路,,41,41,93,12,26,84,,81,75,18,27,6,6,0.7,0.8
2025-04-24T1100,3498A,118.5055,37.8612,东营市,河口城区,,48,48,108,3,22,81,,79,72,9,15,12,10,0.6,0.6
2025-04-24T1100,3646A,118.4978,37.4623,东营市,胜利站,颗粒物(PM10),76,102,104,9,24,87,,80,75,12,21,11,11,0.4,0.6
2025-04-24T1100,3734A,118.35,37.26,东营市,理想之城,颗粒物(PM10),58,66,105,12,27,82,,76,72,13,21,8,8,0.5,0.5
2025-04-24T1100,1591A,110.0023,39.8129,鄂尔多斯市,综合楼,,,39,52,3,7,89,,93,93,,14,36,7,0.2,0.3
2025-04-24T1100,1592A,109.9486,39.8261,鄂尔多斯市,巴音孟克林场办事处,,31,31,52,9,15,86,,69,66,15,20,7,8,0.3,0.4
2025-04-24T1100,1593A,109.7736,39.5986,鄂尔多斯市,康泽苑,,41,41,56,3,10,91,,61,61,11,12,4,4,0.5,0.4
2025-04-24T1100,1594A,109.8119,39.5989,鄂尔多斯市,华泰汽车城,,31,31,57,9,12,86,,47,47,13,19,8,6,0.2,0.2
2025-04-24T1100,1595A,109.9734,39.7884,鄂尔多斯市,奥林花园,,27,24,55,7,9,85,,42,36,16,25,3,2,0,0
2025-04-24T1100,2436A,114.8938,30.3994,鄂州市,市政府,"颗粒物(PM10),细颗粒物(PM2.5)",84,118,86,62,39,74,,50,48,28,22,9,8,0.1,0.2
2025-04-24T1100,2437A,114.8989,30.3714,鄂州市,赵家坝,细颗粒物(PM2.5),95,135,89,71,35,66,,63,49,35,20,10,6,0.8,0.8
2025-04-24T1100,3654A,114.8094,30.4089,鄂州市,精准医疗中心,细颗粒物(PM2.5),67,82,68,48,34,66,,62,49,36,19,5,5,0.7,0.6
2025-04-24T1100,2454A,109.4978,30.2981,恩施土家族苗族自治州,湖北民院,,48,47,60,33,28,11,,5,5,14,11,5,5,0.5,0.5
2025-04-24T1100,2455A,109.4707,30.2798,恩施土家族苗族自治州,州电力总公司,,43,43,50,26,26,10,,4,4,18,16,4,4,0.4,0.4
2025-04-24T1100,3549A,109.5061,30.3772,恩施土家族苗族自治州,龙凤新区,,40,40,49,28,22,9,,6,6,17,9,6,6,0.5,0.5
2025-04-24T1100,2499A,108.3411,21.6158,防城港市,沙万,颗粒物(PM10),57,64,39,29,23,63,,37,36,12,14,5,5,0.6,0.5
2025-04-24T1100,2500A,108.3514,21.7731,防城港市,防城档案局,颗粒物(PM10),64,77,52,36,31,63,,34,34,13,14,2,2,0.7,0.6
2025-04-24T1100,2501A,108.3506,21.6414,防城港市,大海花园,细颗粒物(PM2.5),62,67,39,44,22,66,,38,37,9,7,4,4,0.6,0.5
2025-04-24T1100,1371A,113.1294,23.0067,佛山市,湾梁,,31,31,29,13,16,57,,31,31,12,15,7,7,0.4,0.6
2025-04-24T1100,1372A,113.1083,23.0478,佛山市,华材职中,,31,31,31,10,16,53,,33,33,15,15,7,7,0.4,0.4
2025-04-24T1100,1373A,113.144,23.0453,佛山市,南海气象局,,34,34,32,15,20,53,,29,29,11,13,6,6,0.4,0.4
2025-04-24T1100,1374A,113.2881,22.8094,佛山市,顺德苏岗,,34,34,33,7,12,51,,32,32,8,12,6,6,0.6,0.6
2025-04-24T1100,1376A,112.8383,22.8678,佛山市,高明孔堂,,19,17,32,13,17,54,,36,36,5,8,5,5,0.5,0.6
2025-04-24T1100,1377A,112.8836,23.1588,佛山市,三水监测站,,30,29,39,21,28,36,,18,18,19,30,4,4,0.4,0.6
2025-04-24T1100,1378A,112.867,23.185,佛山市,三水云东海,,27,27,42,8,28,41,,18,18,21,32,2,2,0.4,0.5
2025-04-24T1100,3625A,113.2544,22.7642,佛山市,容桂街道办,,20,19,23,14,16,47,,29,29,11,16,5,5,0.5,0.5
2025-04-24T1100,1280A,119.3903,26.0543,福州市,鼓山,,,,9,,4,,,60,,,12,,3,,0.4
2025-04-24T1100,1282A,119.2681,26.0504,福州市,师大,,29,16,26,3,22,92,,84,81,20,15,3,4,0.5,0.4
2025-04-24T1100,1283A,119.2984,26.1028,福州市,五四北路,,22,10,26,6,22,68,,82,71,27,23,3,3,0.6,0.6
2025-04-24T1100,1284A,119.2648,26.0768,福州市,杨桥西路,,30,11,27,3,21,93,,85,80,19,15,3,3,0.5,0.4
2025-04-24T1100,1285A,119.317,26.0746,福州市,紫阳,,27,20,29,8,22,58,,80,65,53,27,5,5,0.5,0.4
2025-04-24T1100,3048A,119.5799,26.0936,福州市,九龙,,33,14,21,3,14,105,,94,94,14,11,4,4,0.4,0.4
2025-04-24T1100,3526A,119.5189,25.9664,福州市,吴航,,,26,25,11,17,99,,85,85,19,12,4,3,,0.5
2025-04-24T1100,1755A,123.7977,41.8491,抚顺市,望花区,细颗粒物(PM2.5),109,,74,82,19,92,,73,73,15,13,9,10,0.9,0.5
2025-04-24T1100,1756A,123.9161,41.8822,抚顺市,顺城区,细颗粒物(PM2.5),132,,64,100,18,84,,71,71,16,16,,8,0.7,0.5
2025-04-24T1100,1757A,124.0436,41.8611,抚顺市,东洲区,细颗粒物(PM2.5),100,80,66,75,19,84,,67,67,15,13,7,7,0.6,0.4
2025-04-24T1100,1758A,123.9247,41.8642,抚顺市,新抚区,细颗粒物(PM2.5),99,74,64,74,17,85,,69,69,12,10,7,7,0.6,0.5
2025-04-24T1100,1759A,124.0972,41.8961,抚顺市,大伙房水库,细颗粒物(PM2.5),102,,67,76,16,87,,65,65,10,10,8,9,0.6,0.5
2025-04-24T1100,1760A,123.7086,41.8391,抚顺市,沈抚新城,细颗粒物(PM2.5),100,82,73,75,19,89,,71,71,14,13,7,6,0.7,0.5
2025-04-24T1100,2376A,116.2127,28.0814,抚州市,桐源党溪,,46,46,59,24,26,83,,66,66,2,4,4,4,1.0,1
2025-04-24T1100,2377A,116.3544,27.9831,抚州市,市站,颗粒物(PM10),51,52,61,24,27,88,,73,73,6,8,12,13,1.1,1.2
2025-04-24T1100,2378A,116.3565,27.963,抚州市,血防站,颗粒物(PM10),56,62,61,29,28,94,,80,80,3,4,3,4,0.0,0.4
2025-04-24T1100,2379A,116.3564,28.0007,抚州市,采茶剧团,,46,46,57,27,28,92,,70,70,3,5,2,4,0.5,0.7
2025-04-24T1100,2380A,116.385,27.9647,抚州市,医学分院,颗粒物(PM10),52,54,57,22,25,92,,71,71,1,4,3,4,0.7,0.9
2025-04-24T1100,2207A,121.6094,41.998,阜新市,工业园区,颗粒物(PM10),71,92,76,3,6,81,,72,72,6,8,9,9,0.3,0.3
2025-04-24T1100,2208A,121.6697,42.0279,阜新市,长青街,,48,48,56,3,7,81,,72,72,6,8,6,6,0.3,0.3
2025-04-24T1100,2209A,121.6673,42.0705,阜新市,农业园区,,,54,60,,6,81,,71,71,4,7,6,6,0.2,0.2
2025-04-24T1100,2210A,121.6717,42.0224,阜新市,东苑,颗粒物(PM10),61,71,72,3,9,81,,73,73,3,5,8,8,0.3,0.4
2025-04-24T1100,2211A,121.6506,42.0498,阜新市,玉龙新城,颗粒物(PM10),65,80,66,3,6,81,,70,70,4,8,7,8,0.3,0.3
2025-04-24T1100,2301A,115.8277,32.8929,阜阳市,市监测站,颗粒物(PM10),95,139,132,58,53,97,,103,100,21,15,9,8,0.4,0.4
2025-04-24T1100,2303A,115.8554,32.8605,阜阳市,开发区,颗粒物(PM10),107,163,174,37,40,98,,80,80,22,21,7,7,,0.4
2025-04-24T1100,2875A,115.784,32.8892,阜阳市,阜阳职业技术学院,颗粒物(PM10),97,144,149,41,42,94,,92,87,14,14,7,5,0.5,0.5
2025-04-24T1100,3468A,115.7901,32.8613,阜阳市,市规划展馆,,,,170,,42,103,,107,100,14,11,8,7,0.4,0.5
2025-04-24T1100,3469A,115.836,32.9183,阜阳市,枣园社区,颗粒物(PM10),105,159,156,53,46,98,,100,97,15,18,10,10,0.4,0.4
2025-04-24T1100,2669A,102.9099,34.9841,甘南藏族自治州,州政府,细颗粒物(PM2.5),57,54,50,40,31,53,,53,50,18,8,12,8,0.4,0.3
2025-04-24T1100,3380A,102.8914,34.9617,甘南藏族自治州,甘肃民族师范学院,,36,36,51,22,26,68,,50,50,11,15,8,10,0.4,0.4
2025-04-24T1100,2570A,101.9603,30.0475,甘孜藏族自治州,水桥子,,24,,6,8,6,30,,47,39,48,21,5,4,0.4,0.3
2025-04-24T1100,3065A,101.9533,29.9972,甘孜藏族自治州,州环保局,,20,16,9,8,5,49,,60,53,39,24,2,1,0.6,0.5
2025-04-24T1100,3414A,115.8347,28.932,赣江新区,桑海产业园,,29,19,42,12,22,90,,72,72,5,10,3,4,0.3,0.4
2025-04-24T1100,2362A,114.9017,25.9149,赣州市,通天岩,,32,32,24,3,4,50,,40,40,6,6,2,2,1.1,1
2025-04-24T1100,2363A,114.9367,25.8664,赣州市,地委,,33,33,26,18,13,41,,53,43,12,6,1,2,1.1,1.1
2025-04-24T1100,2364A,114.9461,25.8481,赣州市,气象台,,38,38,33,17,10,43,,53,40,21,14,12,8,0.7,0.7
2025-04-24T1100,2365A,114.9322,25.8333,赣州市,市图书馆,,30,30,22,18,14,43,,56,44,14,8,5,4,1.0,0.9
2025-04-24T1100,2366A,114.8905,25.8471,赣州市,华坚鞋城,,38,31,24,26,13,29,,49,41,20,10,5,4,0.7,0.6
2025-04-24T1100,3109A,115.0093,25.8613,赣州市,赣县区卫计委,,29,29,20,16,13,46,,46,42,8,8,6,4,0.6,0.6
2025-04-24T1100,2683A,106.2319,36.1417,固原市,马园,颗粒物(PM10),73,95,60,23,16,96,,38,38,14,31,5,6,0.5,0.5
2025-04-24T1100,2684A,106.2792,36.0022,固原市,监测站,,47,47,46,6,10,98,,59,59,6,16,5,6,0.5,0.6
2025-04-24T1100,2685A,106.2375,36.0211,固原市,新区,,,,47,8,13,92,,38,38,,26,6,5,0.4,0.5
2025-04-24T1100,3522A,106.2177,35.9959,固原市,原州区十五小,,39,39,45,9,16,100,,75,75,6,13,8,8,0.1,0.2
2025-04-24T1100,2543A,106.6308,30.5278,广安市,小平旧居,,,,,,,,,,,,,,,,
2025-04-24T1100,2544A,106.6303,30.4576,广安市,市委,颗粒物(PM10),53,56,95,30,39,66,,75,69,8,10,2,4,0.3,0.4
2025-04-24T1100,2545A,106.6271,30.4663,广安市,友谊中学,,50,50,77,23,33,62,,73,67,11,13,2,2,0.5,0.5
2025-04-24T1100,2547A,106.6388,30.4551,广安市,广电花园,,49,49,79,27,36,64,,74,64,10,12,3,3,0.3,0.3
2025-04-24T1100,2902A,106.6351,30.4865,广安市,北辰小学,颗粒物(PM10),53,55,89,30,38,56,,72,65,9,11,2,3,0.3,0.3
2025-04-24T1100,2523A,105.8945,32.4535,广元市,黑石坡,颗粒物(PM10),52,54,68,24,20,101,,91,89,10,8,5,3,0.3,0.3
2025-04-24T1100,2524A,105.821,32.4444,广元市,老城,颗粒物(PM10),53,55,66,16,23,99,,96,96,16,17,17,2,1.3,0.7
2025-04-24T1100,2526A,105.8628,32.4287,广元市,监测站,,34,22,48,22,31,107,,101,100,7,8,9,7,0.4,0.3
2025-04-24T1100,3617A,105.8047,32.4166,广元市,经开区,"颗粒物(PM10),细颗粒物(PM2.5)",60,69,71,43,36,103,,104,102,18,19,44,9,0.9,0.5
2025-04-24T1100,1345A,113.2347,23.1423,广州市,广雅中学,,30,30,40,14,21,53,,30,30,14,26,4,4,0.4,0.4
2025-04-24T1100,1346A,113.2612,23.105,广州市,市五中,,25,25,37,12,20,56,,30,30,8,17,2,2,0.5,0.6
2025-04-24T1100,1348A,113.3478,23.0916,广州市,广东商学院,,26,26,37,12,21,61,,26,26,11,24,4,4,0.4,0.4
2025-04-24T1100,1349A,113.4332,23.1047,广州市,市八十六中,,29,29,37,8,14,58,,19,19,17,33,5,4,0.6,0.5
2025-04-24T1100,1350A,113.3505,22.9483,广州市,番禺中学,,27,27,33,13,20,65,,30,30,11,17,5,5,0.5,0.5
2025-04-24T1100,1351A,113.2146,23.3916,广州市,花都师范,,19,19,38,11,24,46,,21,17,14,24,4,4,0.6,0.8
2025-04-24T1100,1352A,113.2597,23.1331,广州市,市监测站,,25,25,36,12,20,48,,27,27,14,25,6,6,0.5,0.5
2025-04-24T1100,1353A,113.5618,23.312,广州市,九龙镇镇龙,,,,40,,25,38,,11,11,,24,,5,0.4,0.5
2025-04-24T1100,1354A,113.2765,23.1544,广州市,麓湖,,23,23,35,11,20,57,,30,30,9,23,3,4,0.4,0.5
2025-04-24T1100,1355A,113.443,23.3035,广州市,帽峰山森林公园,,23,23,28,12,22,46,,18,18,4,12,6,6,0.6,0.7
2025-04-24T1100,2846A,113.3221,23.1322,广州市,体育西,,25,25,38,14,23,59,,28,28,13,25,4,4,0.5,0.4
2025-04-24T1100,3298A,113.5717,23.5491,广州市,从化街口,,,,43,,29,,,44,,,17,,9,,0.6
2025-04-24T1100,3299A,113.3472,23.3692,广州市,白云竹料,,17,17,40,10,25,54,,36,27,14,19,3,2,0.5,0.6
2025-04-24T1100,3300A,113.2981,23.237,广州市,白云嘉禾,,24,24,46,10,28,51,,19,19,17,34,4,4,0.7,0.8
2025-04-24T1100,3301A,113.4256,23.1716,广州市,黄埔科学城,,,29,41,14,20,52,,16,16,,26,,8,0.3,0.4
2025-04-24T1100,3302A,113.3942,23.0483,广州市,番禺大学城,,31,31,36,15,18,68,,29,29,14,23,5,5,0.4,0.5
2025-04-24T1100,3303A,113.4922,22.8168,广州市,南沙黄阁,颗粒物(PM10),52,54,40,10,16,57,,29,29,11,18,4,4,0.6,0.6
2025-04-24T1100,3304A,113.5342,22.7896,广州市,南沙街,,27,27,32,14,15,50,,29,29,10,15,4,4,0.6,0.6
2025-04-24T1100,3443A,113.2902,23.5544,广州市,花都梯面,,21,21,36,11,24,36,,15,15,19,18,4,4,0.5,0.6
2025-04-24T1100,3445A,113.7858,23.7478,广州市,从化良口,,20,16,19,14,19,51,,59,48,6,9,6,6,0.3,0.4
2025-04-24T1100,3446A,113.8051,23.2614,广州市,增城荔城,,20,20,35,9,21,59,,33,33,7,13,7,7,0.2,0.3
2025-04-24T1100,2505A,109.568,23.1478,贵港市,德智高中,,,,,,,,,,,,,,,,
2025-04-24T1100,2506A,109.6047,23.0666,贵港市,江南子站,,44,44,57,30,31,38,,36,30,13,15,4,4,0.7,0.7
2025-04-24T1100,2508A,109.5669,23.1065,贵港市,荷城子站,,,59,61,24,26,33,,35,30,,16,4,5,0.4,0.3
2025-04-24T1100,3405A,109.5886,23.1172,贵港市,新世纪学校,,48,48,58,30,30,37,,39,35,14,14,2,4,0.7,0.6
2025-04-24T1100,4260A,109.5933,23.0951,贵港市,中山路155-3号,颗粒物(PM10),52,54,60,32,37,36,,37,32,14,15,6,7,0.9,0.8
2025-04-24T1100,1439A,106.6899,26.5998,贵阳市,马鞍山,,,12,34,,14,68,,43,43,10,11,4,3,0.3,0.4
2025-04-24T1100,1441A,106.6243,26.6266,贵阳市,鉴湖路,,,19,38,3,16,,,55,55,8,11,,11,0.3,0.4
2025-04-24T1100,1442A,106.7487,26.6343,贵阳市,燕子冲,,,9,34,7,23,68,,43,43,13,12,,2,,0.4
2025-04-24T1100,1443A,106.6555,26.4365,贵阳市,碧云窝,,27,22,50,3,18,85,,53,53,8,13,4,4,0.3,0.4
2025-04-24T1100,1445A,106.7109,26.6027,贵阳市,红边门,,25,14,40,3,22,77,,58,58,4,4,3,4,0.1,0.2
2025-04-24T1100,1446A,106.7164,26.5699,贵阳市,新华路,,,12,35,3,26,80,,54,54,10,10,,3,0.6,0.4
2025-04-24T1100,1447A,106.674,26.5424,贵阳市,太慈桥,,26,9,33,3,18,82,,44,44,11,14,4,4,0.2,0.2
2025-04-24T1100,1552A,106.805,26.3003,贵阳市,桐木岭,,27,27,55,14,26,78,,61,61,4,5,5,17,0.6,0.6
2025-04-24T1100,4230A,106.6882,26.5695,贵阳市,花果园大街66号,,23,12,34,3,25,73,,54,54,13,13,4,4,0.3,0.4
2025-04-24T1100,4231A,106.6873,26.5169,贵阳市,漓江路57号,,25,17,38,7,20,79,,53,53,11,11,8,8,0.3,0.3
2025-04-24T1100,1862A,110.4144,25.3167,桂林市,电子科大尧山校区,,,,,,,,,,,,,,,,
2025-04-24T1100,1864A,110.3089,25.2708,桂林市,龙隐路小学,,32,,46,22,26,29,,59,47,19,9,28,15,0.6,0.5
2025-04-24T1100,1865A,110.2869,25.2178,桂林市,八中,,22,,50,15,23,37,,59,49,15,15,3,8,0.5,0.5
2025-04-24T1100,3531A,110.296,25.1253,桂林市,旅游学院,,14,9,40,3,23,44,,42,38,15,14,2,3,0.7,0.7
2025-04-24T1100,4222A,110.1835,25.2444,桂林市,环湖路276号,,18,14,44,12,29,30,,58,47,16,11,8,19,0.4,0.4
2025-04-24T1100,4301A,110.2803,25.2773,桂林市,信义路13号,,,,54,5,25,30,,,,19,13,6,5,0.6,0.5
2025-04-24T1100,2674A,100.2561,34.4714,果洛藏族自治州,玛沁县大武镇,,38,38,38,15,18,96,,83,83,4,2,24,20,0.4,0.4
2025-04-24T1100,1129A,126.5422,45.755,哈尔滨市,岭北,,25,10,26,3,12,78,,69,69,6,11,11,12,0.7,0.7
2025-04-24T1100,1130A,126.561,45.8167,哈尔滨市,松北商大,,22,15,32,3,13,69,,60,60,3,8,4,5,0.4,0.4
2025-04-24T1100,1131A,126.979,45.5419,哈尔滨市,阿城会宁,,24,22,35,6,13,76,,61,61,3,8,5,7,0.3,0.4
2025-04-24T1100,1132A,126.599,45.7222,哈尔滨市,南岗学府路,,27,27,43,3,9,71,,60,60,5,10,6,8,0.3,0.3
2025-04-24T1100,1133A,126.689,45.7733,哈尔滨市,太平宏伟公园,,,,37,,13,72,,63,63,9,11,4,4,,0.6
2025-04-24T1100,1134A,126.635,45.7667,哈尔滨市,道外承德广场,,20,13,29,9,16,64,,53,53,10,12,5,6,0.5,0.4
2025-04-24T1100,1135A,126.685,45.7319,哈尔滨市,香坊红旗大街,,,27,47,3,15,,,51,51,8,14,6,6,0.3,0.4
2025-04-24T1100,1136A,126.6411,45.7258,哈尔滨市,动力和平路,,27,27,37,3,13,64,,54,54,8,13,7,8,0.2,0.3
2025-04-24T1100,1137A,126.593,45.7478,哈尔滨市,道里建国路,,25,25,34,3,14,68,,57,57,7,12,9,11,0.2,0.2
2025-04-24T1100,1138A,126.615,45.61,哈尔滨市,平房东轻厂,,,,34,6,11,71,,57,57,3,8,,9,0.4,0.5
2025-04-24T1100,1139A,126.595,45.9855,哈尔滨市,呼兰师专,,,,,,,,,,,,,,,,
2025-04-24T1100,1140A,126.6206,45.6842,哈尔滨市,省农科院,,50,50,56,7,15,66,,52,52,6,14,5,6,0.3,0.4
2025-04-24T1100,2688A,93.5128,42.8172,哈密市,地区监测站,,,,41,,16,,,73,73,,24,,3,,0.3
2025-04-24T1100,2689A,93.4961,42.8328,哈密市,哈密师范学校,,31,31,42,12,12,77,,63,63,14,25,6,5,0.3,0.4
2025-04-24T1100,2671A,100.9048,36.9639,海北藏族自治州,海晏县西海镇,,41,41,43,24,28,117,,97,97,8,9,7,9,0.5,0.5
2025-04-24T1100,3867A,102.0738,36.5056,海东市,平安区公安北苑,细颗粒物(PM2.5),67,56,51,48,31,101,,67,67,10,11,34,10,1.1,0.8
2025-04-24T1100,1409A,110.576,19.9507,海口市,东寨港,,23,23,23,6,16,65,,36,36,4,5,8,7,0.5,0.5
2025-04-24T1100,1410A,110.3232,20.0574,海口市,海南大学,,,,28,,15,69,,39,39,,11,2,2,,0.4
2025-04-24T1100,1411A,110.283,20.0053,海口市,秀英海南医院,,30,30,34,19,18,75,,37,37,9,21,4,4,0.3,0.3
2025-04-24T1100,1412A,110.338,19.9969,海口市,海南师范大学,,27,27,31,16,17,75,,36,36,6,11,4,4,0.4,0.4
2025-04-24T1100,1413A,110.33,20.0356,海口市,龙华路环保局宿舍,,29,29,31,17,17,71,,39,39,6,9,4,4,0.3,0.3
2025-04-24T1100,3539A,110.5111,19.9736,海口市,桂林洋子站,,,25,29,15,16,72,,39,39,,12,3,4,0.2,0.3
2025-04-24T1100,2673A,100.6188,36.2866,海南藏族自治州,共和县恰卜恰镇,,49,36,45,34,29,126,,102,102,3,7,10,11,0.3,0.4
2025-04-24T1100,2676A,97.3731,37.3753,海西蒙古族藏族自治州,德令哈市,颗粒物(PM10),52,53,49,11,17,106,,101,100,2,2,11,12,0.4,0.4
2025-04-24T1100,1048A,114.5302,36.6116,邯郸市,东污水处理厂,,43,43,84,3,16,66,,56,56,12,19,3,3,0.2,0.3
2025-04-24T1100,1049A,114.4918,36.5713,邯郸市,矿院,,43,43,80,3,18,65,,61,61,5,10,5,4,0.2,0.5
2025-04-24T1100,1050A,114.484,36.6133,邯郸市,丛台公园,颗粒物(PM10),63,75,97,10,17,71,,67,67,9,13,3,6,0.2,0.3
2025-04-24T1100,3458A,114.7895,36.5593,邯郸市,香泉濮院小区,颗粒物(PM10),63,76,107,3,14,75,,66,66,4,12,3,5,0.0,0.1
2025-04-24T1100,3579A,114.50634,36.77178,邯郸市,永年区实验高中,,48,48,90,6,28,77,,70,70,5,15,4,6,0.2,0.3
2025-04-24T1100,3580A,114.20016,36.44293,邯郸市,峰峰矿区临水派出所,,40,40,89,9,25,79,,73,72,6,10,2,5,0.4,0.5
2025-04-24T1100,2634A,106.9893,33.1842,汉中市,汉川机床厂子校,颗粒物(PM10),55,60,70,30,27,86,,61,60,14,10,9,8,0.6,0.5
2025-04-24T1100,2635A,107.0154,33.0706,汉中市,市监测站,,,,92,,38,74,,42,42,19,22,22,11,,0.9
2025-04-24T1100,2636A,107.0089,33.1138,汉中市,鑫源开发区,颗粒物(PM10),61,72,88,27,41,91,,50,50,15,28,11,11,0.9,0.8
2025-04-24T1100,2637A,107.007,33.0323,汉中市,南郑大河坎水厂,颗粒物(PM10),65,80,87,41,57,80,,44,44,21,22,25,6,0.9,0.6
2025-04-24T1100,1223A,120.2072,30.2111,杭州市,滨江,,,55,61,27,26,63,,43,39,,28,,6,0.9,0.8
2025-04-24T1100,1224A,120.0633,30.2747,杭州市,西溪,颗粒物(PM10),56,62,38,38,22,49,,20,20,30,26,5,4,0.9,0.7
2025-04-24T1100,1226A,120.3417,30.3150,杭州市,下沙,,47,47,61,23,26,94,,60,60,35,36,6,6,0.7,0.6
2025-04-24T1100,1227A,120.1269,30.2456,杭州市,卧龙桥,,47,47,37,31,23,88,,32,32,19,21,6,6,0.8,0.6
2025-04-24T1100,1228A,120.1903,30.2692,杭州市,浙江农大,,46,46,56,28,33,88,,42,42,25,41,2,2,0.7,0.6
2025-04-24T1100,1230A,120.1197,30.3119,杭州市,和睦小学,颗粒物(PM10),53,56,50,30,26,70,,31,31,35,33,7,6,0.7,0.7
2025-04-24T1100,1231A,120.3019,30.4183,杭州市,临平镇,,,,71,,38,110,,44,44,,44,6,6,0.7,0.7
2025-04-24T1100,1232A,120.2753,30.1839,杭州市,城厢镇,,50,50,56,28,35,82,,47,47,23,27,6,7,0.8,0.6
2025-04-24T1100,1233A,120.0883,30.1808,杭州市,云栖,,,69,41,45,19,38,,10,10,,24,,10,1.0,0.7
2025-04-24T1100,3557A,119.9464,30.0494,杭州市,镇二中,颗粒物(PM10),52,53,38,31,21,59,,23,23,30,33,3,3,0.9,0.7
2025-04-24T1100,3558A,119.7183,30.2367,杭州市,市府大楼,,49,49,41,28,21,88,,44,44,20,20,8,7,0.6,0.5
2025-04-24T1100,3656A,120.1556,30.2864,杭州市,消防大队,颗粒物(PM10),54,57,49,29,26,88,,48,48,28,32,4,4,0.9,0.8
2025-04-24T1100,1270A,117.1959,31.7848,合肥市,明珠广场,颗粒物(PM10),79,107,93,41,36,116,,57,57,30,30,1,2,0.5,0.5
2025-04-24T1100,1271A,117.3072,31.8764,合肥市,三里街,颗粒物(PM10),78,105,100,34,37,102,,54,54,30,35,5,5,0.5,0.6
2025-04-24T1100,1272A,117.2588,31.8707,合肥市,琥珀山庄,颗粒物(PM10),82,114,106,38,39,108,,47,47,38,33,4,4,0.5,0.6
2025-04-24T1100,1273A,117.1604,31.9052,合肥市,董铺水库,颗粒物(PM10),87,123,97,39,29,104,,45,45,27,21,2,2,0.5,0.3
2025-04-24T1100,1274A,117.25,31.8571,合肥市,长江中路,颗粒物(PM10),84,117,105,41,41,114,,56,56,32,28,8,8,0.6,0.6
2025-04-24T1100,1275A,117.266,31.9436,合肥市,庐阳区,颗粒物(PM10),82,114,121,36,41,115,,40,40,28,42,7,7,0.5,0.5
2025-04-24T1100,1276A,117.3453,31.8616,合肥市,瑶海区,颗粒物(PM10),73,95,106,34,41,106,,51,51,29,45,7,6,0.4,0.5
2025-04-24T1100,1277A,117.3027,31.7964,合肥市,包河区,细颗粒物(PM2.5),107,112,98,80,42,79,,27,27,45,44,7,6,0.6,0.5
2025-04-24T1100,1278A,117.2776,31.7385,合肥市,滨湖新区,颗粒物(PM10),78,105,86,46,40,89,,44,44,28,30,7,7,0.6,0.5
2025-04-24T1100,1279A,117.1318,31.8403,合肥市,高新区,颗粒物(PM10),84,117,95,50,35,119,,76,76,26,20,3,3,0.8,0.6
2025-04-24T1100,3464A,117.3803,31.9147,合肥市,高教基地,颗粒物(PM10),76,102,99,22,33,112,,48,48,15,34,5,5,0.5,0.5
2025-04-24T1100,3614A,79.924,37.0877,和田地区,地区环保局,颗粒物(PM10),75,100,362,27,98,76,,81,76,9,6,3,2,0.3,0.3
2025-04-24T1100,3615A,79.9131,37.113,和田地区,市环保局,颗粒物(PM10),72,93,333,47,82,74,,87,78,18,5,3,3,0.0,0.2
2025-04-24T1100,2516A,108.2011,24.715,河池市,东仁乐园,,,,,,,,,,,,,,,,
2025-04-24T1100,2517A,108.0497,24.6947,河池市,市环保站,,21,21,21,12,8,35,,44,39,11,7,6,7,0.5,0.5
2025-04-24T1100,2518A,108.0983,24.6989,河池市,市疾控中心,,20,,24,14,14,38,,44,44,13,12,7,7,0.6,0.5
2025-04-24T1100,1696A,114.6778,23.7569,河源市,源西,,28,21,29,19,28,39,,45,37,11,18,3,3,0.5,0.6
2025-04-24T1100,1697A,114.6944,23.7586,河源市,东埔,,32,32,27,18,24,42,,47,37,17,17,4,4,0.6,0.7
2025-04-24T1100,1698A,114.6892,23.7233,河源市,老城,,29,29,34,17,38,46,,38,35,11,16,4,4,0.5,0.6
2025-04-24T1100,1718A,115.4208,35.2464,菏泽市,气象局,颗粒物(PM10),69,88,158,14,45,87,,90,79,11,15,1,5,0.3,0.4
2025-04-24T1100,3374A,115.5564,35.0891,菏泽市,定陶老年大学,,,,144,,40,84,,76,69,,18,5,7,,0.5
2025-04-24T1100,4184A,115.4797,35.24401,菏泽市,永昌路1号,颗粒物(PM10),72,94,149,42,60,75,,74,67,13,19,4,7,0.3,0.3
2025-04-24T1100,4193A,115.4715,35.2800,菏泽市,长城路999号,颗粒物(PM10),71,92,151,27,40,83,,81,76,16,20,7,9,0.2,0.3
2025-04-24T1100,2514A,111.5264,24.4172,贺州市,环保小区,,38,36,47,26,26,43,,46,42,13,12,7,7,0.8,0.8
2025-04-24T1100,2515A,111.5608,24.4078,贺州市,政协大楼,,31,31,45,18,27,44,,44,41,15,15,8,8,0.7,0.8
2025-04-24T1100,3534A,111.4744,24.4553,贺州市,西湾,,45,37,42,31,27,44,,41,38,10,11,8,8,0.8,0.7
2025-04-24T1100,2385A,114.17,35.9019,鹤壁市,市监测站,颗粒物(PM10),51,52,104,13,32,89,,80,80,8,17,6,6,0.3,0.2
2025-04-24T1100,2386A,114.2956,35.7511,鹤壁市,市交警支队,颗粒物(PM10),89,128,118,56,31,82,,77,77,9,16,6,7,0.1,0.5
2025-04-24T1100,2387A,114.2878,35.7306,鹤壁市,迎宾馆,颗粒物(PM10),55,59,111,10,20,87,,81,81,11,17,4,4,0.4,0.4
2025-04-24T1100,3474A,114.2617,35.6822,鹤壁市,大新区,颗粒物(PM10),62,74,123,10,31,86,,80,80,8,19,6,8,0.2,0.4
2025-04-24T1100,3596A,114.1572,35.9603,鹤壁市,南山宾馆,颗粒物(PM10),61,72,109,19,37,88,,79,79,7,13,4,5,0.5,0.5
2025-04-24T1100,2244A,130.2537,47.3416,鹤岗市,哈啤分公司,,39,39,30,8,18,74,,48,48,6,11,18,16,0.2,0.3
2025-04-24T1100,2245A,130.2684,47.3086,鹤岗市,斯达机电,颗粒物(PM10),64,77,38,14,29,77,,52,52,3,11,12,13,0.0,0.2
2025-04-24T1100,2246A,130.3114,47.3388,鹤岗市,东山纸板厂,,,,68,26,29,77,,46,46,9,12,13,13,0.3,0.3
2025-04-24T1100,2247A,130.1097,47.3382,鹤岗市,五号水库,,,,,,,,,,,,,,,,
2025-04-24T1100,2263A,127.4833,50.2524,黑河市,交通局,,24,24,32,15,17,72,,62,62,6,7,6,7,0.2,0.2
2025-04-24T1100,2264A,127.5144,50.2341,黑河市,环保局,,,,24,,19,72,,67,67,,6,4,4,0.3,0.3
2025-04-24T1100,2265A,127.5291,50.2472,黑河市,大黑河岛,,,,,,,,,,,,,,,,
2025-04-24T1100,1074A,115.6838,37.7541,衡水市,电机北厂,,50,50,96,3,40,85,,68,68,8,13,4,6,0.2,0.3
2025-04-24T1100,1075A,115.6303,37.7316,衡水市,市监测站,,49,49,85,3,22,83,,75,73,7,13,3,3,0.2,0.3
2025-04-24T1100,3188A,115.6683,37.7217,衡水市,市城管局,颗粒物(PM10),53,56,91,6,31,78,,72,69,9,14,3,6,0.3,0.3
2025-04-24T1100,3459A,115.5989,37.5491,衡水市,地表水厂,颗粒物(PM10),55,60,94,10,25,86,,70,70,10,16,6,9,0.2,0.3
2025-04-24T1100,2456A,112.5003,26.9167,衡阳市,原169医院,,,,41,19,26,72,,58,58,11,9,,4,0.6,0.6
2025-04-24T1100,2457A,112.6194,26.9258,衡阳市,衡阳化工总厂,,17,13,54,7,35,52,,59,58,13,9,4,4,0.7,0.6
2025-04-24T1100,2458A,112.6211,26.8956,衡阳市,珠晖区环保局,,20,15,49,14,25,54,,56,56,15,15,6,6,0.8,0.7
2025-04-24T1100,2459A,112.6197,26.8733,衡阳市,市委党校,,19,12,48,9,10,60,,64,64,10,10,2,2,0.4,0.4
2025-04-24T1100,2460A,112.6006,26.8919,衡阳市,市监测站,,,22,50,14,30,59,,64,62,,11,,8,0.8,0.8
2025-04-24T1100,2461A,112.5664,26.9056,衡阳市,真空机电公司,,,18,48,18,27,59,,62,62,6,8,,5,0.7,0.7
2025-04-24T1100,3399A,112.6703,26.882,衡阳市,师范学院,,19,13,55,7,33,58,,66,66,13,11,5,6,0.7,0.7
2025-04-24T1100,2608A,103.3772,23.3993,红河哈尼族彝族自治州,污水处理厂,,,63,56,37,39,,,84,84,8,8,4,5,0.4,0.4
2025-04-24T1100,2609A,103.3861,23.35,红河哈尼族彝族自治州,监测站,颗粒物(PM10),56,62,66,32,34,111,,91,91,6,7,5,6,0.4,0.3
2025-04-24T1100,3038A,103.3758,23.368,红河哈尼族彝族自治州,州图书馆,颗粒物(PM10),52,54,52,34,33,101,,86,86,7,6,3,4,0.4,0.3
2025-04-24T1100,1090A,111.6507,40.7517,呼和浩特市,呼市一监,,41,41,25,13,6,81,,51,50,8,6,6,3,0.3,0.3
2025-04-24T1100,1091A,111.6572,40.8033,呼和浩特市,小召,,41,41,24,13,5,71,,56,55,20,13,10,6,0.4,0.4
2025-04-24T1100,1094A,111.7516,40.8369,呼和浩特市,如意水处理厂,,,32,20,12,5,64,,44,42,,10,,6,0.4,0.4
2025-04-24T1100,1095A,111.7276,40.8062,呼和浩特市,二十九中,,30,30,21,11,6,68,,50,48,11,6,5,3,0.3,0.3
2025-04-24T1100,1096A,111.5512,40.7866,呼和浩特市,工大金川校区,,29,29,24,11,6,75,,44,44,15,14,9,6,0.4,0.4
2025-04-24T1100,1097A,111.717,40.7612,呼和浩特市,化肥厂生活区,,30,30,22,12,6,77,,47,47,13,11,9,7,0.3,0.3
2025-04-24T1100,3698A,111.5968,40.8178,呼和浩特市,红旗小学,,,36,21,10,6,77,,51,51,16,14,,4,0.3,0.3
2025-04-24T1100,3699A,111.6518,40.8389,呼和浩特市,海东办,,41,41,19,13,6,71,,55,54,16,9,10,7,0.4,0.4
2025-04-24T1100,2192A,119.7594,49.2261,呼伦贝尔市,区环保局,,,,38,,23,83,,74,74,,8,6,5,,0.3
2025-04-24T1100,3061A,119.7512,49.1577,呼伦贝尔市,国华电力东,颗粒物(PM10),75,100,39,14,16,86,,78,78,5,6,4,4,0.2,0.2
2025-04-24T1100,1250A,120.0751,30.8669,湖州市,城西水厂,颗粒物(PM10),60,69,74,30,32,120,,47,47,30,51,9,7,0.4,0.4
2025-04-24T1100,2873A,120.0830,30.8929,湖州市,仁皇山新区,颗粒物(PM10),61,72,78,27,32,157,,63,63,13,45,7,5,0.8,0.9
2025-04-24T1100,2907A,120.1844,30.8596,湖州市,吴兴区站,,,70,75,35,33,148,,53,53,,40,,7,0.4,0.4
2025-04-24T1100,3562A,120.4148,30.8538,湖州市,南浔区站,颗粒物(PM10),59,67,100,30,40,158,,76,76,15,29,6,5,0.7,0.6
2025-04-24T1100,1607A,120.9049,40.7211,葫芦岛市,龙港区,,34,34,72,3,15,81,,63,63,6,18,7,14,0.3,0.5
2025-04-24T1100,1608A,120.8392,40.7514,葫芦岛市,化工街,,,,85,,17,,,62,62,8,20,8,17,,0.6
2025-04-24T1100,1609A,120.8341,40.7073,葫芦岛市,新区,,26,20,68,3,15,82,,64,64,6,17,7,9,0.4,0.5
2025-04-24T1100,1610A,120.8695,40.7677,葫芦岛市,东城区,,25,23,72,3,18,80,,56,56,6,18,4,9,0.4,0.5
2025-04-24T1100,2482A,109.5981,27.5721,怀化市,林科所,,30,27,47,21,25,55,,44,44,6,7,11,9,0.2,0.4
2025-04-24T1100,2483A,109.9453,27.5444,怀化市,河西地税局,,,30,46,24,23,53,,41,41,9,14,3,10,,0.5
2025-04-24T1100,2484A,109.9781,27.5342,怀化市,市四医院,,31,31,50,18,24,64,,50,50,5,8,7,6,0.6,0.6
2025-04-24T1100,2485A,109.9972,27.5578,怀化市,监测楼,,34,34,48,17,23,62,,51,51,8,6,3,3,0.5,0.5
2025-04-24T1100,2486A,110.0394,27.583,怀化市,市委党校,,28,28,43,18,23,61,,42,42,7,8,5,5,0.5,0.6
2025-04-24T1100,1210A,119.036,33.5981,淮安市,钵池山,颗粒物(PM10),79,107,107,35,36,121,,88,88,12,20,10,11,0.5,0.6
2025-04-24T1100,1211A,119.007,33.575,淮安市,北京南路,颗粒物(PM10),82,114,111,35,37,126,,79,79,9,30,9,12,0.5,0.8
2025-04-24T1100,1212A,118.989,33.6067,淮安市,市监测站,颗粒物(PM10),80,110,104,36,36,121,,83,83,14,24,10,10,0.5,0.5
2025-04-24T1100,1213A,119.135,33.5039,淮安市,楚州区监测站,颗粒物(PM10),102,154,124,42,44,120,,59,59,6,41,10,9,0.6,0.6
2025-04-24T1100,3426A,118.8755,33.2894,淮安市,新华书店,颗粒物(PM10),94,137,107,49,28,132,,91,91,16,20,13,9,0.5,0.4
2025-04-24T1100,4206A,119.0288,33.6319,淮安市,承德北路606号,颗粒物(PM10),87,124,113,35,37,120,,84,84,11,21,9,10,0.4,0.4
2025-04-24T1100,2282A,116.8004,33.975,淮北市,监测站,颗粒物(PM10),84,118,178,40,55,86,,57,57,16,25,8,8,0.6,0.8
2025-04-24T1100,2283A,116.8091,33.9007,淮北市,烈山区政府,颗粒物(PM10),96,142,186,22,48,76,,61,61,16,28,5,9,0.7,0.8
2025-04-24T1100,3330A,116.8873,33.9836,淮北市,杜集区检察院,颗粒物(PM10),91,131,175,23,54,82,,60,60,19,24,13,10,0.9,0.9
2025-04-24T1100,4017A,116.7923,33.9535,淮北市,市博物馆,,,110,163,11,55,87,,52,52,,24,,9,0.6,0.8
2025-04-24T1100,2277A,116.8305,32.7727,淮南市,潘集区政府,颗粒物(PM10),101,152,131,55,46,102,,63,61,16,21,9,7,0.5,0.4
2025-04-24T1100,2279A,116.8569,32.5951,淮南市,谢家集区政府,颗粒物(PM10),89,127,121,49,40,118,,77,77,16,19,7,6,0.3,0.5
2025-04-24T1100,2280A,116.8281,32.633,淮南市,八公山区政府,颗粒物(PM10),104,158,134,51,39,115,,75,69,19,13,9,6,0.5,0.4
2025-04-24T1100,2281A,116.6325,32.6201,淮南市,焦岗湖风景区管理处,,,,,,,,,,,,,,,,
2025-04-24T1100,2894A,117.0566,32.6531,淮南市,经济技术开发区消防队,颗粒物(PM10),90,130,117,58,49,106,,59,59,28,29,12,7,0.5,0.4
2025-04-24T1100,3329A,117.0108,32.5893,淮南市,山南新区,颗粒物(PM10),107,163,149,63,45,130,,80,80,21,16,11,9,0.6,0.5
2025-04-24T1100,4209A,117.0031,32.6445,淮南市,国庆中路369号,颗粒物(PM10),100,150,132,50,45,108,,91,89,23,16,11,10,0.4,0.3
2025-04-24T1100,2446A,114.9028,30.4742,黄冈市,职工中心,细颗粒物(PM2.5),64,75,65,46,38,87,,54,50,18,19,8,8,0.7,0.7
2025-04-24T1100,2929A,114.8858,30.4519,黄冈市,红卫路,,,82,73,42,38,76,,59,54,,14,,7,1.0,0.7
2025-04-24T1100,3398A,114.9136,30.4445,黄冈市,市林业局,颗粒物(PM10),74,97,75,52,37,75,,53,53,15,17,10,9,0.7,0.7
2025-04-24T1100,2672A,102.0199,35.5102,黄南藏族自治州,同仁县隆务镇,,37,37,62,13,27,96,,62,62,5,3,5,5,0.2,0.2
2025-04-24T1100,2295A,118.2903,29.6963,黄山市,延安路89号,,,61,26,35,22,28,,18,16,,7,4,4,,0.5
2025-04-24T1100,2297A,118.1371,30.2756,黄山市,黄山区政府5号楼,,45,45,46,31,22,60,,25,25,6,8,4,3,0.7,0.7
2025-04-24T1100,4210A,118.3354,29.7203,黄山市,滨江东路7-2号,细颗粒物(PM2.5),55,42,43,39,21,34,,19,19,10,11,4,4,0.7,0.7
2025-04-24T1100,2423A,115.0601,30.2313,黄石市,沈家营,颗粒物(PM10),73,95,79,36,32,55,,52,41,18,17,6,7,0.8,0.9
2025-04-24T1100,2426A,114.8988,30.2019,黄石市,铁山,细颗粒物(PM2.5),69,80,90,50,36,35,,40,31,38,25,9,9,0.2,0.3
2025-04-24T1100,2427A,115.0307,30.2092,黄石市,团城山,,,,75,,30,32,,60,49,,18,,10,,0.6
2025-04-24T1100,3149A,115.0235,30.1578,黄石市,笔架山北路,颗粒物(PM10),68,85,65,40,29,28,,50,44,40,18,8,8,1.1,0.8
2025-04-24T1100,4185A,115.0780,30.21118,黄石市,磁湖东路29号,颗粒物(PM10),72,94,79,49,40,65,,73,59,19,16,6,7,0.7,0.8
2025-04-24T1100,1392A,114.4183,23.0528,惠州市,河南岸金山湖子站,,17,17,30,10,19,52,,26,26,12,18,8,8,0.3,0.3
2025-04-24T1100,1393A,114.4053,23.0822,惠州市,下埔横江三路子站,,20,20,35,10,19,56,,28,28,10,18,8,8,0.5,0.6
2025-04-24T1100,1394A,114.4103,23.1142,惠州市,江北云山西路子站,,20,18,37,10,19,61,,26,26,8,17,9,10,0.3,0.4
2025-04-24T1100,1395A,114.4645,22.7833,惠州市,惠阳区承修路船湖子站,,,22,30,12,16,48,,28,28,,14,7,7,0.4,0.4
2025-04-24T1100,1396A,114.5317,22.7422,惠州市,大亚湾管委会子站,,19,14,26,11,14,58,,36,36,3,15,7,7,0.5,0.5
2025-04-24T1100,3314A,114.4338,22.8134,惠州市,惠阳秋长,,48,48,27,10,16,58,,35,35,9,16,4,7,0.5,0.5
2025-04-24T1100,3452A,114.6517,22.775,惠州市,大亚湾霞涌,,20,,19,14,12,53,,27,27,12,16,7,6,0.5,0.5
2025-04-24T1100,2240A,130.9762,45.3001,鸡西市,环保局,,26,13,32,9,19,83,,79,79,4,10,5,7,0.2,0.3
2025-04-24T1100,2243A,130.9429,45.3039,鸡西市,第一中学,,26,21,29,7,18,81,,78,78,3,11,5,7,0.2,0.4
2025-04-24T1100,3707A,131.0207,45.3073,鸡西市,欧美日汽修厂,,25,20,45,3,24,77,,74,74,6,10,7,6,0.4,0.4
2025-04-24T1100,3709A,130.9967,45.3106,鸡西市,市政设施管理处,,,19,40,18,22,76,,74,74,6,12,,7,,0.4
2025-04-24T1100,2367A,114.9754,27.0803,吉安市,红声器材厂,,,63,43,33,21,89,,57,57,10,12,10,11,,0.6
2025-04-24T1100,2368A,114.9658,27.0999,吉安市,市森林工业局,,50,50,41,28,22,90,,59,59,10,11,9,11,0.4,0.5
2025-04-24T1100,2369A,114.99,27.1312,吉安市,市环境监测站,,47,47,35,23,17,90,,58,58,6,7,12,14,0.5,0.7
2025-04-24T1100,2370A,115.0093,27.0968,吉安市,青原区法院,颗粒物(PM10),52,53,40,30,24,86,,51,51,10,12,12,13,0.5,0.5
2025-04-24T1100,1772A,126.54,43.8622,吉林市,哈达湾,颗粒物(PM10),89,128,49,62,17,90,,75,75,9,9,6,6,0.4,0.3
2025-04-24T1100,1773A,126.5844,43.8358,吉林市,东局子,细颗粒物(PM2.5),80,63,38,59,17,85,,72,72,12,11,5,5,0.6,0.5
2025-04-24T1100,1774A,126.5052,43.8245,吉林市,电力学院,颗粒物(PM10),89,128,43,63,14,90,,74,74,8,8,4,5,0.4,0.4
2025-04-24T1100,1775A,126.6133,43.8972,吉林市,江北,细颗粒物(PM2.5),89,126,50,66,16,85,,72,72,15,11,6,6,0.6,0.5
2025-04-24T1100,1776A,126.555,43.8306,吉林市,江南公园,"颗粒物(PM10),细颗粒物(PM2.5)",78,106,40,57,16,89,,77,77,8,7,5,5,0.4,0.3
2025-04-24T1100,1778A,126.7061,43.7133,吉林市,丰满,,,,,,,,,,,,,,,,
2025-04-24T1100,2868A,126.4739,43.953,吉林市,九站,颗粒物(PM10),93,136,49,66,16,86,,74,74,5,6,7,7,0.9,0.8
2025-04-24T1100,1299A,116.9862,36.6114,济南市,科干所,颗粒物(PM10),58,66,93,17,25,86,,80,79,6,16,2,6,0.1,0.3
2025-04-24T1100,1300A,116.9376,36.665,济南市,农科所,颗粒物(PM10),68,85,104,27,27,85,,78,78,10,23,5,8,0.3,0.4
2025-04-24T1100,1301A,117.1265,36.6734,济南市,开发区,颗粒物(PM10),64,78,98,17,27,89,,79,79,7,22,6,9,0.4,0.6
2025-04-24T1100,1303A,117.0624,36.6868,济南市,省种子仓库,,,,137,,34,88,,81,80,,28,3,6,0.2,0.7
2025-04-24T1100,1304A,116.9489,36.6447,济南市,机床二厂,颗粒物(PM10),77,103,133,15,27,87,,80,80,14,25,7,10,0.3,0.5
2025-04-24T1100,1305A,117.0495,36.663,济南市,市监测站,,,,110,,30,82,,77,76,14,26,7,10,0.3,0.4
2025-04-24T1100,1306A,116.7675,36.5484,济南市,长清党校,颗粒物(PM10),62,73,105,15,29,96,,88,88,8,16,4,7,0.4,0.6
2025-04-24T1100,1616A,117.6795,36.229,济南市,技术学院,颗粒物(PM10),101,151,120,34,36,86,,82,81,15,27,12,15,0.5,0.9
2025-04-24T1100,1961A,117.532,36.6868,济南市,东山小学,颗粒物(PM10),81,112,107,17,23,90,,80,77,3,18,6,9,0.3,0.3
2025-04-24T1100,3059A,117.7161,36.2049,济南市,泰兴公司,,,,99,,31,90,,86,85,13,32,11,11,,0.7
2025-04-24T1100,3064A,117.6867,36.2171,济南市,莱芜战役纪念馆,颗粒物(PM10),92,134,103,12,26,86,,84,82,18,26,8,9,0.4,0.7
2025-04-24T1100,3494A,117.1673,36.9782,济南市,济阳区政府,颗粒物(PM10),58,66,105,17,28,88,,74,73,5,23,9,9,0.3,0.5
2025-04-24T1100,3495A,117.1171,36.63,济南市,锦屏中学,颗粒物(PM10),59,68,86,20,26,90,,84,84,8,16,4,6,0.2,0.3
2025-04-24T1100,3682A,116.9814,36.6819,济南市,济南四建,颗粒物(PM10),65,80,105,29,32,90,,81,81,6,23,3,6,0.2,0.4
2025-04-24T1100,1653A,116.6251,35.4302,济宁市,火炬城,颗粒物(PM10),79,108,118,12,42,85,,64,64,8,20,5,8,0.2,0.4
2025-04-24T1100,1655A,116.5491,35.4042,济宁市,电化厂,,,100,116,22,42,,,65,65,12,24,3,4,0.2,0.4
2025-04-24T1100,3500A,116.5814,35.3707,济宁市,北湖一中,颗粒物(PM10),64,77,140,3,27,89,,72,72,11,22,3,8,0.2,0.4
2025-04-24T1100,3501A,116.8249,35.5593,济宁市,服务中心,颗粒物(PM10),71,92,124,17,32,85,,68,68,9,25,3,4,0.3,0.5
2025-04-24T1100,3678A,116.5907,35.4054,济宁市,市第七中学,颗粒物(PM10),78,105,124,14,35,96,,75,75,2,12,4,7,0.2,0.5
2025-04-24T1100,2255A,130.2751,46.8028,佳木斯市,佳纺,,34,34,35,7,22,82,,70,70,5,8,3,7,0.3,0.5
2025-04-24T1100,2256A,130.3995,46.8307,佳木斯市,发电厂,,33,33,38,8,20,84,,72,72,5,12,4,4,0.1,0.2
2025-04-24T1100,2257A,130.3258,46.7975,佳木斯市,环保局,,39,39,31,9,20,86,,74,74,6,10,3,4,0.3,0.4
2025-04-24T1100,2258A,130.3648,46.8032,佳木斯市,十一中,,,39,30,7,21,80,,67,67,5,11,,7,,0.5
2025-04-24T1100,2259A,130.3794,46.7588,佳木斯市,四丰,,23,,22,12,13,73,,68,68,1,4,1,1,0.9,1
2025-04-24T1100,1252A,120.7436,30.778,嘉兴市,清河小学,颗粒物(PM10),77,104,109,41,35,131,,49,49,28,45,7,5,1.0,0.9
2025-04-24T1100,1253A,120.726,30.7478,嘉兴市,嘉兴学院,颗粒物(PM10),66,81,78,40,38,142,,33,33,24,58,8,7,0.9,0.9
2025-04-24T1100,2872A,120.7846,30.7525,嘉兴市,南湖区残联,颗粒物(PM10),65,79,74,39,42,152,,59,59,26,41,8,6,0.8,0.8
2025-04-24T1100,3407A,120.6916,30.7739,嘉兴市,秀洲住建,颗粒物(PM10),70,89,100,36,36,158,,50,50,18,52,9,7,0.9,0.9
2025-04-24T1100,1945A,98.2908,39.7711,嘉峪关市,气象局,,36,24,36,9,10,114,,90,90,7,15,13,14,0.2,0.4
2025-04-24T1100,2884A,98.2672,39.7978,嘉峪关市,酒钢宾馆,,35,29,44,9,16,111,,79,79,4,13,16,42,0.3,0.5
2025-04-24T1100,3248A,98.2643,39.7724,嘉峪关市,雄关区,,,24,34,16,14,99,,80,80,8,19,,10,0.4,0.5
2025-04-24T1100,1383A,113.1064,22.6058,江门市,北街,,40,40,24,13,16,54,,31,31,7,10,2,2,0.3,0.4
2025-04-24T1100,1384A,113.0731,22.5835,江门市,西区,,18,13,27,10,15,55,,35,35,9,13,5,5,0.3,0.4
2025-04-24T1100,1385A,113.0219,22.5311,江门市,圭峰西,颗粒物(PM10),51,51,31,7,13,50,,28,28,5,13,3,3,0.3,0.3
2025-04-24T1100,1386A,113.0828,22.5947,江门市,东湖,,20,17,27,14,16,57,,38,38,8,12,7,7,0.3,0.4
2025-04-24T1100,3311A,113.1075,22.5647,江门市,江海富民,,,16,35,14,17,56,,34,34,,9,7,7,0.3,0.3
2025-04-24T1100,3449A,113.05,22.4667,江门市,新会银湖,,30,30,30,11,15,52,,24,24,5,12,2,2,0.3,0.3
2025-04-24T1100,1830A,113.1992,35.2590,焦作市,影视城,,,,37,,21,,,,,,13,,8,,0.4
2025-04-24T1100,3169A,113.2725,35.2067,焦作市,太极体育中心,,36,36,154,17,50,92,,82,82,9,24,9,9,0.4,0.4
2025-04-24T1100,3335A,113.3137,35.2641,焦作市,马村街道办,颗粒物(PM10),55,60,126,26,48,91,,82,82,10,16,8,9,0.4,0.5
2025-04-24T1100,3336A,113.2465,35.2373,焦作市,焦作技师学院,颗粒物(PM10),62,73,143,17,36,91,,80,80,8,16,6,8,0.3,0.3
2025-04-24T1100,3477A,113.1656,35.2539,焦作市,中站许衡医院,,45,45,115,22,46,95,,80,80,9,30,7,14,0.3,0.6
2025-04-24T1100,3981A,113.2449,35.1803,焦作市,原李万街道办,颗粒物(PM10),56,61,139,3,49,91,,84,84,12,25,8,11,0.4,0.4
2025-04-24T1100,4264A,113.2340,35.2190,焦作市,新安路1731号,颗粒物(PM10),56,61,135,17,44,92,,82,82,12,20,7,8,0.5,0.6
2025-04-24T1100,1708A,116.3701,23.5345,揭阳市,新兴,,,51,40,24,26,70,,57,57,,14,7,7,,0.8
2025-04-24T1100,1709A,116.3264,23.5443,揭阳市,西马,,43,43,46,18,27,69,,55,55,8,11,7,7,0.7,0.8
2025-04-24T1100,1710A,116.3611,23.5626,揭阳市,东兴,,50,50,46,14,25,70,,56,56,5,13,5,8,0.9,1
2025-04-24T1100,1711A,116.4151,23.5294,揭阳市,渔湖,颗粒物(PM10),51,51,41,20,21,73,,61,61,13,15,5,4,0.8,0.8
2025-04-24T1100,3320A,116.403,23.5699,揭阳市,曲溪,,43,43,35,22,22,80,,62,62,10,17,13,15,0.8,0.6
2025-04-24T1100,1944A,102.1692,38.5167,金昌市,天庆家园,颗粒物(PM10),79,107,48,30,15,76,,65,65,8,10,14,13,0.4,0.7
2025-04-24T1100,4022A,102.1647,38.5371,金昌市,金川区人防中心,颗粒物(PM10),94,138,57,29,14,70,,60,58,8,8,21,18,0.2,0.4
2025-04-24T1100,4239A,102.1930,38.5319,金昌市,长春路96号,,,94,53,23,15,,,69,67,3,6,19,17,0.4,0.6
2025-04-24T1100,1262A,119.647,29.077,金华市,十五中,细颗粒物(PM2.5),60,48,57,43,52,42,,26,26,33,34,2,2,0.8,0.7
2025-04-24T1100,1263A,119.686,29.1029,金华市,监测站,,,54,50,44,41,38,,24,24,42,36,4,4,,0.8
2025-04-24T1100,3659A,119.656,29.1131,金华市,气象局,颗粒物(PM10),55,60,52,33,30,35,,21,21,40,34,2,1,0.8,0.8
2025-04-24T1100,1767A,121.1115,41.0879,锦州市,南山,,27,27,68,3,19,80,,65,65,7,15,6,9,0.4,0.5
2025-04-24T1100,1768A,121.0604,40.8428,锦州市,开发区,,44,44,76,3,17,84,,60,60,5,20,5,8,0.4,0.5
2025-04-24T1100,1769A,121.1836,41.1119,锦州市,百股街道,,,43,63,3,11,,,,,4,16,4,8,0.4,0.5
2025-04-24T1100,1770A,121.1178,41.1222,锦州市,天安街道,,25,22,71,10,22,80,,67,67,10,16,7,10,0.4,0.6
2025-04-24T1100,1771A,121.1303,41.1386,锦州市,北湖公园,,25,23,57,3,18,79,,67,67,6,13,7,10,0.4,0.5
2025-04-24T1100,2160A,112.85,35.5051,晋城市,自来水公司,颗粒物(PM10),59,68,84,14,21,99,,85,85,17,18,10,10,0.6,0.7
2025-04-24T1100,2161A,112.8318,35.4936,晋城市,白云商贸,,49,49,93,31,22,97,,88,88,18,17,8,8,0.5,0.5
2025-04-24T1100,2162A,112.8508,35.4887,晋城市,市环保局,颗粒物(PM10),52,54,89,7,23,96,,82,82,11,16,6,7,0.2,0.4
2025-04-24T1100,2163A,112.8676,35.4897,晋城市,技术学院,,30,29,87,3,22,96,,82,82,13,16,7,8,0.5,0.6
2025-04-24T1100,2165A,112.8453,35.546,晋城市,白马寺,颗粒物(PM10),51,51,66,14,32,102,,86,86,8,9,11,7,0.5,0.3
2025-04-24T1100,3620A,112.8271,35.4828,晋城市,泽州一中,,,67,92,7,34,95,,90,87,,13,,11,,0.4
2025-04-24T1100,2173A,112.7249,37.7067,晋中市,南都小区,,30,29,64,9,19,93,,70,67,14,17,5,8,0.1,0.2
2025-04-24T1100,2174A,112.6991,37.6982,晋中市,榆次区政府,,30,27,71,7,14,94,,71,71,14,17,5,8,0.1,0.2
2025-04-24T1100,2865A,112.7195,37.6828,晋中市,榆次三中,,30,27,73,3,13,94,,76,71,13,14,3,5,0.1,0.2
2025-04-24T1100,4200A,112.7478,37.6954,晋中市,迎宾街26号,,,34,75,3,14,85,,66,58,,13,,6,0.2,0.2
2025-04-24T1100,2439A,112.2014,31.0481,荆门市,竹园小学,颗粒物(PM10),98,146,128,62,50,59,,47,36,23,17,7,6,0.7,0.4
2025-04-24T1100,2440A,112.1969,30.9891,荆门市,掇刀,,,,135,,45,,,107,,,15,,12,,0.3
2025-04-24T1100,2441A,112.2213,31.0386,荆门市,石化一小,颗粒物(PM10),87,124,125,57,54,45,,39,25,24,17,7,8,0.6,0.4
2025-04-24T1100,3012A,112.1849,31.0362,荆门市,西山林语,颗粒物(PM10),83,115,111,51,45,56,,44,40,22,12,8,8,0.3,0.4
2025-04-24T1100,3547A,112.1632,31.0138,荆门市,龙泉中学南校,颗粒物(PM10),81,111,111,43,43,52,,37,32,31,22,11,8,0.8,0.6
2025-04-24T1100,1844A,112.2494,30.3197,荆州市,市图书馆,,,32,68,25,33,42,,32,30,12,15,,5,,0.5
2025-04-24T1100,1845A,112.2008,30.3544,荆州市,市委党校,颗粒物(PM10),57,64,72,30,38,26,,27,22,17,18,6,6,0.5,0.5
2025-04-24T1100,3194A,112.2747,30.3122,荆州市,管委会,细颗粒物(PM2.5),54,52,70,38,38,44,,32,31,12,15,7,6,0.6,0.6
2025-04-24T1100,4268A,112.1722,30.3366,荆州市,学苑路85号,,46,45,61,32,32,26,,16,13,20,22,4,2,0.4,0.3
2025-04-24T1100,2342A,117.3102,29.3867,景德镇市,王港中学,,,,,,,,,,,,,,,,
2025-04-24T1100,2343A,117.2117,29.2933,景德镇市,老干部活动中心,,47,47,47,23,28,40,,38,31,13,15,7,9,0.6,0.6
2025-04-24T1100,2344A,117.1894,29.2789,景德镇市,兽医站,,38,38,60,20,30,39,,43,38,13,17,3,7,0.7,0.6
2025-04-24T1100,2345A,117.1547,29.2617,景德镇市,台达陶瓷,,48,48,57,27,34,42,,43,34,20,21,15,35,0.9,0.9
2025-04-24T1100,2346A,117.2461,29.2956,景德镇市,陶研所,,,41,45,28,32,34,,28,27,17,12,13,6,,0.6
2025-04-24T1100,1803A,115.9872,29.6815,九江市,十里,,36,36,46,24,31,58,,71,68,26,20,2,3,0.5,0.7
2025-04-24T1100,1804A,115.9584,29.7046,九江市,茅山头,,42,42,54,26,32,73,,79,79,22,24,4,5,0.1,0.3
2025-04-24T1100,1805A,115.9877,29.7295,九江市,西园,,40,40,52,26,32,94,,84,84,30,42,7,9,0.7,0.9
2025-04-24T1100,1808A,115.9114,29.6038,九江市,综合工业园,,49,49,49,17,26,76,,83,70,28,31,8,8,1.2,0.8
2025-04-24T1100,1809A,116.0721,29.7535,九江市,石化总厂,颗粒物(PM10),56,61,68,30,42,55,,85,83,33,30,5,15,0.6,1
2025-04-24T1100,1810A,115.9773,29.5698,九江市,庐山气象台,,36,20,41,15,22,114,,119,118,4,7,13,7,1.0,0.7
2025-04-24T1100,3190A,116.0254,29.6994,九江市,外国语学校,,,34,50,19,30,56,,75,68,30,27,,5,,1
2025-04-24T1100,4253A,116.0102,29.6594,九江市,莲花大道8号,,40,40,48,16,20,78,,86,83,9,8,4,4,0.5,0.7
2025-04-24T1100,4240A,98.4958,39.7339,酒泉市,玉门东路5号,颗粒物(PM10),51,51,38,12,21,110,,82,82,11,10,17,10,0.3,0.3
2025-04-24T1100,4241A,98.5099,39.7506,酒泉市,北大街108号,颗粒物(PM10),67,83,37,14,17,115,,78,78,11,13,16,11,0.5,0.4
2025-04-24T1100,2698A,76.0072,39.4467,喀什地区,巡警大队,颗粒物(PM10),76,102,77,11,12,80,,70,70,25,19,4,3,0.4,0.4
2025-04-24T1100,2699A,75.9755,39.4694,喀什地区,吾办,颗粒物(PM10),87,124,59,43,22,71,,79,73,30,16,4,3,0.5,0.4
2025-04-24T1100,4027A,75.9483,39.4689,喀什地区,老干局,颗粒物(PM10),63,76,55,8,10,75,,78,77,20,11,2,2,0.5,0.4
2025-04-24T1100,1824A,114.3389,34.7781,开封市,肿瘤医院,颗粒物(PM10),70,90,179,12,40,79,,73,72,6,15,8,9,0.2,0.4
2025-04-24T1100,1826A,114.2885,34.7965,开封市,世纪星幼儿园,,,,180,,64,,,86,83,15,21,6,7,,0.6
2025-04-24T1100,3147A,114.3438,34.8106,开封市,龙亭公园,颗粒物(PM10),71,91,174,12,50,83,,78,74,11,19,3,5,0.4,0.6
2025-04-24T1100,3210A,114.3644,34.7964,开封市,汴京公园,颗粒物(PM10),487,587,236,10,45,89,,84,80,9,16,4,5,0.5,0.6
2025-04-24T1100,3473A,114.2485,34.8306,开封市,技师学院,,,130,161,30,58,148,,82,82,14,19,,6,0.7,0.8
2025-04-24T1100,3592A,114.4644,34.7556,开封市,祥符区生态环境局,颗粒物(PM10),59,68,146,16,45,83,,72,72,14,30,8,9,0.3,0.4
2025-04-24T1100,1951A,84.895,45.6094,克拉玛依市,长征新村,,29,12,20,7,8,91,,89,89,6,8,6,7,0.2,0.2
2025-04-24T1100,1952A,84.8988,45.5893,克拉玛依市,南林小区,,31,10,20,3,7,99,,99,99,3,6,3,3,0.2,0.2
2025-04-24T1100,1954A,84.905,44.3396,克拉玛依市,独山子区,,38,,29,26,12,94,,91,86,4,8,8,10,0.3,0.3
2025-04-24T1100,1955A,85.6979,46.098,克拉玛依市,乌尔禾区商贸楼,,28,28,23,8,7,67,,81,75,8,5,6,6,0.3,0.3
2025-04-24T1100,3612A,85.1045,45.6899,克拉玛依市,白碱滩区新站,,27,20,20,3,8,85,,96,94,9,4,10,10,0.1,0.1
2025-04-24T1100,2697A,76.1454,39.7142,克孜勒苏柯尔克孜自治州,市人民政府,颗粒物(PM10),54,57,42,16,17,93,,108,105,9,4,5,7,0.2,0.1
2025-04-24T1100,3665A,76.1658,39.7157,克孜勒苏柯尔克孜自治州,克州文化中心,颗粒物(PM10),61,72,51,18,14,86,,107,102,7,3,7,11,0.2,0.2
2025-04-24T1100,1450A,102.8204,24.8886,昆明市,呈贡新区,,41,26,46,15,29,131,,101,101,8,12,7,6,0.5,0.5
2025-04-24T1100,1451A,102.6251,24.9608,昆明市,西山森林公园,,,,,,,,,,,,,,,,
2025-04-24T1100,1452A,102.7252,25.0902,昆明市,龙泉镇,,37,25,44,20,24,117,,70,70,13,19,9,9,0.4,0.4
2025-04-24T1100,1453A,102.7266,25.0375,昆明市,东风东路,,40,36,45,22,31,125,,99,99,15,15,9,10,0.5,0.5
2025-04-24T1100,1454A,102.6742,25.0669,昆明市,金鼎山,,40,40,48,22,27,118,,80,80,18,20,5,5,0.4,0.4
2025-04-24T1100,1455A,102.6644,25.0401,昆明市,碧鸡广场,,44,44,54,27,29,110,,74,74,18,24,8,8,0.4,0.5
2025-04-24T1100,3179A,102.7494,25.0119,昆明市,官渡区博物馆,,40,31,49,16,26,126,,99,99,12,12,8,8,0.4,0.4
2025-04-24T1100,3375A,102.8017,24.8336,昆明市,青年创业园,,42,34,41,21,25,134,,105,105,6,9,8,8,0.5,0.5
2025-04-24T1100,3550A,102.7997,24.9786,昆明市,昆明学院,,,32,48,18,28,130,,100,100,9,11,,6,0.4,0.4
2025-04-24T1100,3551A,102.5967,24.6736,昆明市,晋宁区生态环境分局,,42,34,32,29,24,119,,101,101,7,7,7,8,0.4,0.4
2025-04-24T1100,3552A,102.6678,24.9856,昆明市,云天化总部,,38,38,44,24,26,121,,102,102,9,9,8,8,0.5,0.4
2025-04-24T1100,1456A,91.1319,29.6514,拉萨市,八廓街,,34,22,22,9,9,108,,111,100,14,10,16,10,0.5,0.5
2025-04-24T1100,1457A,91.1221,29.6747,拉萨市,市环保局,,31,31,24,9,9,96,,103,90,19,14,12,7,0.5,0.4
2025-04-24T1100,1458A,91.0874,29.6475,拉萨市,区监测站,,30,22,18,11,8,93,,102,89,20,17,14,10,0.3,0.3
2025-04-24T1100,1459A,91.1774,29.6541,拉萨市,西藏大学,,32,15,18,6,7,101,,103,92,14,11,16,10,0.3,0.2
2025-04-24T1100,1460A,90.9798,29.6588,拉萨市,区辐射站,,30,30,23,11,9,94,,82,75,27,21,11,10,0.5,0.4
2025-04-24T1100,1461A,91.0834,29.6292,拉萨市,拉萨火车站,,29,19,16,8,7,92,,101,81,21,11,12,5,0.4,0.3
2025-04-24T1100,2520A,109.2203,23.7256,来宾市,来宾技工学校,,,,46,,22,46,,48,45,12,7,,8,0.3,0.7
2025-04-24T1100,3535A,109.1781,23.7297,来宾市,兴宾区政府,,39,39,42,26,24,44,,48,44,8,7,4,5,0.7,0.8
2025-04-24T1100,4002A,109.2416,23.7461,来宾市,中南小学,,32,32,46,21,21,45,,43,41,8,10,3,8,0.6,0.7
2025-04-24T1100,1477A,104.1373,35.9454,兰州市,榆中兰大校区,,,,,,,,,,,,,,,,
2025-04-24T1100,1479A,103.831,36.0464,兰州市,铁路设计院,颗粒物(PM10),58,65,64,23,22,73,,32,32,42,47,18,16,1.0,0.8
2025-04-24T1100,3241A,103.7439,36.0842,兰州市,百合公园,颗粒物(PM10),58,65,63,24,22,93,,29,29,38,47,12,5,0.7,0.5
2025-04-24T1100,3242A,103.9611,35.998,兰州市,和平,,,,60,,26,85,,79,69,,14,23,12,1.1,0.5
2025-04-24T1100,4236A,103.6293,36.0938,兰州市,庄浪东路808号,颗粒物(PM10),66,82,72,41,29,156,,67,67,39,32,22,11,0.5,0.4
2025-04-24T1100,4237A,103.7251,36.1043,兰州市,安宁西路88号,颗粒物(PM10),73,95,80,40,34,124,,48,48,27,33,15,8,0.5,0.4
2025-04-24T1100,4238A,103.8470,36.0676,兰州市,北滨河东路1号,,,,62,,27,,,17,16,32,43,20,14,,0.7
2025-04-24T1100,3245A,103.6633,36.533,兰州新区,新区管委会,,,,47,,26,96,,50,50,,12,,17,0.4,0.4
2025-04-24T1100,3246A,103.6975,36.4789,兰州新区,舟曲中学,颗粒物(PM10),57,64,55,26,17,112,,65,65,10,15,19,15,0.3,0.3
2025-04-24T1100,1067A,116.6708,39.5111,廊坊市,药材公司,,26,13,55,3,14,82,,73,73,6,8,2,2,0.3,0.3
2025-04-24T1100,1068A,116.7214,39.5589,廊坊市,开发区,,33,33,69,9,17,85,,72,72,11,12,1,1,0.3,0.2
2025-04-24T1100,1070A,116.7244,39.5269,廊坊市,北华航天学院,,26,23,78,6,11,81,,70,70,12,11,3,3,0.2,0.2
2025-04-24T1100,2919A,116.7022,39.5453,廊坊市,河北工业大学,,27,27,74,7,16,84,,70,70,2,6,5,5,0.3,0.2
2025-04-24T1100,2535A,103.7723,29.5462,乐山市,花湖湾,,30,30,58,18,33,31,,90,78,27,17,5,6,0.5,0.4
2025-04-24T1100,2536A,103.7627,29.5844,乐山市,牛耳桥,,33,33,60,16,31,50,,87,75,29,19,7,7,0.5,0.4
2025-04-24T1100,2537A,103.7508,29.6006,乐山市,市第三水厂,,32,32,59,14,30,56,,86,77,28,16,4,5,0.5,0.5
2025-04-24T1100,2538A,103.7571,29.5664,乐山市,市监测站,,36,36,64,20,31,44,,83,73,31,19,6,7,0.5,0.4
2025-04-24T1100,3361A,103.7311,29.5628,乐山市,理工大学,,,,59,21,30,44,,79,69,25,20,4,6,,0.4
2025-04-24T1100,2598A,100.2143,26.8576,丽江市,西南郊,颗粒物(PM10),63,75,41,23,18,108,,108,104,5,3,5,5,0.5,0.5
2025-04-24T1100,2599A,100.2497,26.8802,丽江市,丽江古城,,32,22,25,15,16,100,,90,90,10,10,5,5,0.5,0.5
2025-04-24T1100,2600A,100.2203,26.8906,丽江市,市中心,,30,14,16,10,14,93,,84,80,9,8,6,6,0.4,0.4
2025-04-24T1100,1267A,119.914,28.4514,丽水市,监测站大楼,,22,22,22,7,10,58,,36,36,16,16,3,2,0.7,0.6
2025-04-24T1100,1268A,119.93,28.4586,丽水市,莲都小学,,,,19,10,11,54,,34,34,,14,4,3,0.5,0.5
2025-04-24T1100,1269A,119.879,28.4231,丽水市,余庄前,,25,25,23,17,15,53,,16,16,16,14,5,3,0.7,0.7
2025-04-24T1100,1173A,119.176,34.5885,连云港市,市环境监测站,颗粒物(PM10),87,124,120,14,38,102,,86,86,8,21,6,9,0.5,0.6
2025-04-24T1100,3000A,119.3581,34.6972,连云港市,德源药业,颗粒物(PM10),91,132,122,14,35,90,,87,87,14,31,9,10,0.3,0.5
2025-04-24T1100,3007A,119.178,34.844,连云港市,新城一中,颗粒物(PM10),76,101,104,15,36,84,,79,79,13,26,8,16,0.5,0.7
2025-04-24T1100,3008A,119.3608,34.7519,连云港市,胡沟管理处,颗粒物(PM10),63,75,77,9,28,91,,96,90,13,34,13,16,0.7,0.7
2025-04-24T1100,3009A,119.1478,34.5911,连云港市,矿山设计院,,,107,112,12,37,95,,76,76,,22,9,12,,0.6
2025-04-24T1100,3434A,119.2413,34.6539,连云港市,工贸学校,颗粒物(PM10),79,108,112,16,32,96,,101,94,13,16,9,11,0.6,0.8
2025-04-24T1100,3664A,119.4172,34.7341,连云港市,连云街道,颗粒物(PM10),65,80,109,17,31,93,,116,94,20,28,9,12,0.5,0.6
2025-04-24T1100,2571A,102.3431,27.8099,凉山彝族自治州,青龙寺,,18,10,16,3,3,57,,36,36,4,6,8,8,0.5,0.5
2025-04-24T1100,2572A,102.2721,27.8415,凉山彝族自治州,邛海宾馆,,25,10,18,3,6,77,,65,65,9,12,6,5,0.5,0.6
2025-04-24T1100,2573A,102.2625,27.898,凉山彝族自治州,西昌市政府,,,17,19,11,11,62,,48,48,,13,,9,0.5,0.6
2025-04-24T1100,2574A,102.2685,27.8851,凉山彝族自治州,凉山州政府,,20,14,17,6,9,64,,56,56,16,15,5,6,0.5,0.6
2025-04-24T1100,4229A,102.2342,27.8859,凉山彝族自治州,凯乐南路30号,,24,13,19,3,5,74,,63,63,10,17,11,12,0.5,0.7
2025-04-24T1100,2212A,123.2,41.1953,辽阳市,宏伟区,颗粒物(PM10),51,52,63,19,16,84,,68,68,6,10,7,10,0.4,0.6
2025-04-24T1100,2213A,123.1683,41.2495,辽阳市,新华园,,43,43,71,14,18,84,,65,65,4,11,8,10,0.4,0.6
2025-04-24T1100,2214A,123.2354,41.2639,辽阳市,滨河路,,50,50,66,22,18,79,,67,67,8,12,6,8,0.4,0.5
2025-04-24T1100,2215A,123.149,41.2991,辽阳市,铁西工业园,,46,46,77,22,27,76,,54,54,8,13,10,12,0.3,0.5
2025-04-24T1100,2227A,125.1358,42.8845,辽源市,环保局,颗粒物(PM10),75,100,55,52,14,87,,80,80,11,11,6,7,0.4,0.2
2025-04-24T1100,3239A,125.0764,42.9078,辽源市,银鹰制药,细颗粒物(PM2.5),75,83,39,55,18,89,,84,84,12,10,5,5,0.3,0.2
2025-04-24T1100,1625A,115.9848,36.4372,聊城市,区政府,颗粒物(PM10),73,96,113,22,31,87,,79,79,14,18,8,9,0.5,0.7
2025-04-24T1100,2878A,116.0072,36.4343,聊城市,聊大东校,颗粒物(PM10),90,129,134,27,43,88,,78,78,9,14,9,10,0.4,0.4
2025-04-24T1100,3200A,115.9819,36.4978,聊城市,监控中心,颗粒物(PM10),80,110,109,17,30,88,,74,74,7,18,5,9,0.2,0.4
2025-04-24T1100,3513A,116.0445,36.4361,聊城市,九州社区,颗粒物(PM10),57,64,85,6,26,97,,88,88,1,13,6,8,0.4,0.4
2025-04-24T1100,4018A,116.0567,36.4608,聊城市,星美广场,颗粒物(PM10),67,83,105,8,24,89,,78,78,11,20,9,12,0.5,0.7
2025-04-24T1100,2632A,94.3681,29.6376,林芝市,林芝监测站,,,12,9,,5,35,,42,38,14,7,5,5,0.6,0.6
2025-04-24T1100,2633A,94.3616,29.6616,林芝市,林芝人民医院,,21,21,12,9,6,36,,33,30,11,5,5,5,0.5,0.5
2025-04-24T1100,2603A,100.0781,23.8982,临沧市,市环保局,"颗粒物(PM10),细颗粒物(PM2.5)",65,80,62,47,41,88,,55,55,15,11,6,6,0.7,0.5
2025-04-24T1100,2604A,100.0894,23.8822,临沧市,市气象局,细颗粒物(PM2.5),64,74,55,46,37,93,,56,56,13,12,8,6,0.6,0.6
2025-04-24T1100,1733A,111.5531,36.0783,临汾市,临钢医院,颗粒物(PM10),64,78,160,11,36,93,,73,73,10,24,4,8,0.4,0.6
2025-04-24T1100,1734A,111.5028,36.0714,临汾市,技工学校,,32,28,132,12,46,100,,78,78,4,18,5,11,0.3,0.5
2025-04-24T1100,1736A,111.5018,36.0855,临汾市,市委,,38,38,147,20,44,104,,80,80,5,20,6,13,0.4,0.7
2025-04-24T1100,3018A,111.505,36.1014,临汾市,唐尧大酒店,,,,156,,45,94,,72,72,10,22,4,14,0.3,0.7
2025-04-24T1100,4244A,111.4879,36.0530,临汾市,启星学校,,36,36,136,12,44,102,,78,78,5,18,5,12,0.3,0.7
2025-04-24T1100,4271A,103.2464,35.6123,临夏回族自治州,滨河东路1号,颗粒物(PM10),73,96,78,27,30,91,,48,48,7,9,7,7,0.3,0.4
2025-04-24T1100,4310A,103.2093,35.5995,临夏回族自治州,新华街21号,,,,72,,33,,,52,48,8,14,5,4,0.4,0.4
2025-04-24T1100,1618A,118.3429,35.0532,临沂市,沂河小区,颗粒物(PM10),95,139,143,23,42,78,,89,81,10,18,8,12,0.2,0.4
2025-04-24T1100,1619A,118.295,35.0583,临沂市,鲁南制药厂,颗粒物(PM10),96,141,139,26,44,92,,93,93,13,24,9,13,0.2,0.4
2025-04-24T1100,1620A,118.2794,34.9976,临沂市,新光毛纺厂,颗粒物(PM10),87,124,136,21,37,82,,78,78,15,27,6,11,0.2,0.4
2025-04-24T1100,1621A,118.3956,35.0888,临沂市,河东保险公司,颗粒物(PM10),103,156,120,13,33,87,,92,87,8,18,2,6,0.4,0.5
2025-04-24T1100,3370A,118.3564,35.0215,临沂市,十里堡居委,颗粒物(PM10),108,166,146,17,38,82,,91,85,12,25,2,7,0.2,0.5
2025-04-24T1100,3496A,118.3604,35.1084,临沂市,南坊新区,颗粒物(PM10),100,149,149,22,39,85,,90,86,10,18,6,10,0.6,0.7
2025-04-24T1100,3860A,118.3920,35.0300,临沂市,皇山花园小区,颗粒物(PM10),129,207,148,20,37,83,,90,83,4,17,6,12,0.3,0.6
2025-04-24T1100,1870A,109.4856,24.3895,柳州市,柳东小学,,35,30,40,24,22,41,,43,41,14,13,11,12,0.6,0.6
2025-04-24T1100,1871A,109.4157,24.3277,柳州市,环保监测站,,46,46,47,32,22,39,,47,43,14,11,14,12,0.8,0.8
2025-04-24T1100,1872A,109.389,24.341,柳州市,河西水厂,,,50,50,31,22,34,,,,,14,10,14,0.9,1
2025-04-24T1100,1873A,109.4311,24.2921,柳州市,市四中,,39,39,39,18,13,44,,47,44,13,10,8,9,0.8,0.7
2025-04-24T1100,1874A,109.4006,24.3631,柳州市,市九中,,43,35,46,30,21,38,,44,41,14,13,12,10,0.9,1
2025-04-24T1100,1875A,109.4958,24.3134,柳州市,古亭山,,23,23,39,16,17,43,,39,38,6,6,6,8,0.7,0.7
2025-04-24T1100,3402A,109.5422,24.3996,柳州市,市二中,,28,28,37,16,19,34,,39,38,15,12,10,10,0.4,0.4
2025-04-24T1100,2307A,116.5079,31.737,六安市,监测大楼,颗粒物(PM10),62,73,84,27,33,85,,73,67,22,20,7,6,0.5,0.4
2025-04-24T1100,2308A,116.4738,31.7643,六安市,皖西学院,,,77,90,33,32,70,,64,60,32,25,6,6,,0.6
2025-04-24T1100,2309A,116.4996,31.7905,六安市,朝阳厂,颗粒物(PM10),65,79,85,37,32,81,,70,58,38,26,5,4,0.4,0.4
2025-04-24T1100,2310A,116.5567,31.7886,六安市,开发区,颗粒物(PM10),74,98,118,41,41,77,,45,45,29,23,7,6,0.5,0.5
2025-04-24T1100,2576A,104.8,26.5892,六盘水市,窑上,,32,32,75,18,36,72,,67,67,8,11,5,6,0.2,0.3
2025-04-24T1100,2577A,104.83,26.5917,六盘水市,黄土坡,,24,19,61,12,31,76,,72,72,13,15,13,11,0.4,0.5
2025-04-24T1100,2578A,104.89,26.5939,六盘水市,水钢,,27,14,61,8,26,84,,70,70,9,13,9,8,0.3,0.3
2025-04-24T1100,2579A,104.8475,26.5894,六盘水市,民中,,25,17,53,3,25,78,,71,71,11,14,9,10,0.2,0.4
2025-04-24T1100,2580A,104.9544,26.5506,六盘水市,双水,,27,17,55,11,24,85,,75,75,8,11,8,9,0.3,0.3
2025-04-24T1100,2335A,117.0189,25.1181,龙岩市,龙岩师专,,,,,,,,,,,,,,,,
2025-04-24T1100,2336A,117.0217,25.1033,龙岩市,龙岩市监测站,,26,26,19,18,13,55,,44,44,13,15,5,5,0.6,0.6
2025-04-24T1100,2337A,117.0258,25.0661,龙岩市,闽西职业技术学院,,25,25,26,14,14,50,,32,32,14,18,5,8,0.6,0.6
2025-04-24T1100,2338A,117.0196,25.0306,龙岩市,龙岩学院,,21,17,20,13,12,65,,40,40,5,8,5,6,0.4,0.5
2025-04-24T1100,2665A,105.0822,33.3261,陇南市,汉王镇固水子,,,,,,,,,,,,,,,,
2025-04-24T1100,2885A,104.9339,33.3826,陇南市,滨江中学,,,55,66,33,21,,,63,58,10,13,8,8,0.5,0.5
2025-04-24T1100,3247A,104.955,33.371,陇南市,市总工会,颗粒物(PM10),52,53,49,25,18,88,,91,83,13,8,5,5,0.4,0.3
2025-04-24T1100,2487A,111.9589,27.8901,娄底市,电视发射台,,26,26,57,12,21,48,,38,38,2,3,4,4,0.2,0.2
2025-04-24T1100,2488A,111.9975,27.725,娄底市,市监测站,,30,30,50,18,29,67,,57,56,16,18,5,6,0.4,0.6
2025-04-24T1100,2489A,112.0194,27.7314,娄底市,市委党校,,28,28,46,19,25,74,,59,59,9,12,4,3,0.4,0.6
2025-04-24T1100,2490A,111.9561,27.7569,娄底市,涟钢,,26,26,48,11,25,64,,54,54,9,9,5,6,0.3,0.3
2025-04-24T1100,2491A,111.9892,27.7044,娄底市,市政府,,,30,43,13,24,75,,64,62,9,10,,2,0.4,0.7
2025-04-24T1100,1893A,105.4324,28.9634,泸州市,九狮山,,,,,,,,,,,,,,,,
2025-04-24T1100,1894A,105.4427,28.9063,泸州市,小市上码头,颗粒物(PM10),58,66,79,20,26,24,,36,32,25,22,4,4,0.5,0.5
2025-04-24T1100,1895A,105.4241,28.8573,泸州市,兰田宪桥,,49,49,63,31,32,41,,51,48,10,9,7,7,0.5,0.5
2025-04-24T1100,1896A,105.4379,28.8833,泸州市,市环监站,,,,,,,,,,,,,,,,
2025-04-24T1100,4272A,105.3689,28.7783,泸州市,纳溪中医医院,,50,50,60,19,22,62,,70,68,12,11,7,6,0.7,0.6
2025-04-24T1100,2183A,111.1406,37.5211,吕梁市,环保局,颗粒物(PM10),51,51,85,10,22,86,,44,38,9,17,1,3,0.4,0.3
2025-04-24T1100,2185A,111.1297,37.5136,吕梁市,自来水公司,,49,49,77,3,19,84,,54,49,12,16,2,3,0.4,0.4
2025-04-24T1100,2867A,111.1283,37.51,吕梁市,马茂庄小学,,,61,85,6,17,82,,49,35,,20,,5,,0.3
2025-04-24T1100,1812A,112.3931,34.6516,洛阳市,市委党校,颗粒物(PM10),55,60,104,14,40,81,,65,65,11,19,4,6,0.3,0.4
2025-04-24T1100,1815A,112.494,34.6886,洛阳市,河南林校,颗粒物(PM10),62,73,125,19,43,83,,69,69,12,24,6,7,0.2,0.4
2025-04-24T1100,1816A,112.3844,34.623,洛阳市,开发区管委会,,,69,112,,56,88,,72,72,12,21,4,5,0.3,0.3
2025-04-24T1100,1817A,112.4267,34.6258,洛阳市,市委新办公区,,,,111,11,34,80,,74,74,12,18,,6,,0.5
2025-04-24T1100,3340A,112.6005,34.6326,洛阳市,伊滨,颗粒物(PM10),74,97,138,17,41,89,,81,81,12,15,5,6,0.4,0.4
2025-04-24T1100,3341A,112.4951,34.6332,洛阳市,中移产业园,颗粒物(PM10),76,101,156,12,43,89,,78,78,10,15,6,7,0.2,0.5
2025-04-24T1100,3593A,112.5736,34.8993,洛阳市,吉利监测站,颗粒物(PM10),68,86,130,20,40,84,,75,75,11,18,7,6,0.5,0.5
2025-04-24T1100,3635A,112.3677,34.662,洛阳市,河科大西苑校区,颗粒物(PM10),64,77,116,9,33,85,,72,72,13,19,7,9,0.3,0.4
2025-04-24T1100,3636A,112.4388,34.6781,洛阳市,英才小学,颗粒物(PM10),56,61,114,9,36,86,,71,71,15,24,5,7,0.5,0.5
2025-04-24T1100,4214A,112.4600,34.6949,洛阳市,春都路1号院,颗粒物(PM10),65,80,130,11,44,89,,74,74,12,19,5,6,0.4,0.4
2025-04-24T1100,2399A,114.051,33.5699,漯河市,三五一五工厂,颗粒物(PM10),78,105,179,12,55,82,,73,73,9,16,5,5,0.6,0.7
2025-04-24T1100,2400A,114.0055,33.5698,漯河市,漯河大学,颗粒物(PM10),75,100,162,17,48,83,,75,74,9,16,6,6,0.3,0.4
2025-04-24T1100,2401A,114.0138,33.5828,漯河市,市水利局,颗粒物(PM10),96,141,175,63,55,81,,78,73,7,11,5,5,0.3,0.4
2025-04-24T1100,2402A,114.0261,33.5698,漯河市,市广电局,颗粒物(PM10),73,95,173,17,48,83,,80,73,8,12,5,6,0.5,0.6
2025-04-24T1100,3478A,113.9749,33.5664,漯河市,市图书馆,颗粒物(PM10),89,128,186,29,53,86,,80,75,10,16,4,4,0.3,0.4
2025-04-24T1100,4250A,114.0892,33.5882,漯河市,韶山路11号,颗粒物(PM10),83,116,185,23,56,77,,80,70,12,17,4,5,0.4,0.4
2025-04-24T1100,1798A,118.5092,31.6837,马鞍山市,湖东路四小,颗粒物(PM10),76,102,68,22,35,128,,63,63,29,33,15,11,0.9,0.8
2025-04-24T1100,1799A,118.5024,31.6449,马鞍山市,开发区,颗粒物(PM10),83,116,78,37,47,129,,46,46,29,54,16,10,1.3,1.1
2025-04-24T1100,1802A,118.6245,31.7241,马鞍山市,濮塘,颗粒物(PM10),85,120,77,12,36,121,,77,77,20,16,12,9,1.0,0.7
2025-04-24T1100,3633A,118.4918,31.6809,马鞍山市,雨山,颗粒物(PM10),74,98,67,29,32,116,,50,50,36,38,20,10,1.2,0.7
2025-04-24T1100,4191A,118.5274,31.72227,马鞍山市,慈湖高新区,,,64,74,29,36,106,,50,47,,36,,12,1.0,0.9
2025-04-24T1100,1686A,111.0286,21.4688,茂名市,电白南海,,32,27,29,22,20,40,,33,33,6,8,1,1,0.6,0.6
2025-04-24T1100,1687A,110.9294,21.6533,茂名市,茂石化七小,,39,39,40,12,15,38,,29,29,6,7,2,2,0.8,0.8
2025-04-24T1100,1688A,110.9107,21.6687,茂名市,健康路,,34,34,36,12,18,46,,34,34,5,4,2,3,0.8,0.7
2025-04-24T1100,1689A,110.8592,21.6828,茂名市,高岭,颗粒物(PM10),54,58,43,19,12,43,,31,31,10,10,9,4,0.6,0.6
2025-04-24T1100,3450A,111.01,21.5165,茂名市,电白水东,,22,22,23,9,11,38,,31,31,4,5,1,1,0.9,0.9
2025-04-24T1100,2539A,104.0308,30.0478,眉山市,黑龙滩水库,,30,23,46,21,19,59,,58,53,15,8,4,2,0.4,0.3
2025-04-24T1100,2540A,103.8416,30.0874,眉山市,气象局,,34,34,68,17,29,69,,77,71,19,19,5,5,0.5,0.5
2025-04-24T1100,3137A,103.8578,30.0744,眉山市,市委党校,,22,22,52,7,24,68,,78,71,20,19,8,7,0.7,0.7
2025-04-24T1100,3148A,103.8291,30.0564,眉山市,区人社局,,40,40,58,12,24,66,,79,70,20,19,10,12,0.8,0.9
2025-04-24T1100,1690A,116.1231,24.3284,梅州市,梅江月梅,,,38,30,25,24,68,,40,40,,11,5,4,0.6,0.6
2025-04-24T1100,1691A,116.0797,24.2719,梅州市,梅县新城,,29,29,32,20,19,67,,38,38,5,14,5,6,0.4,0.5
2025-04-24T1100,1692A,116.1248,24.2654,梅州市,环境监控中心,,43,43,27,20,22,63,,31,31,8,17,7,7,0.7,0.7
2025-04-24T1100,3315A,116.1233,24.2991,梅州市,梅龙,,26,22,24,18,23,66,,43,43,4,10,6,6,0.6,0.7
2025-04-24T1100,1878A,104.7778,31.4741,绵阳市,富乐山,,,,71,,29,51,,55,51,,14,14,8,,0.4
2025-04-24T1100,1880A,104.6697,31.4668,绵阳市,高新区自来水公司,颗粒物(PM10),52,53,72,22,26,47,,68,57,30,18,7,4,0.4,0.3
2025-04-24T1100,1881A,104.7287,31.5075,绵阳市,三水厂,颗粒物(PM10),56,62,77,26,31,38,,73,61,45,20,8,7,0.7,0.5
2025-04-24T1100,3491A,104.69,31.5322,绵阳市,西科大附属小学,颗粒物(PM10),54,58,74,29,33,56,,79,70,26,17,10,8,0.4,0.4
2025-04-24T1100,3492A,104.5648,31.5343,绵阳市,安州区旅游局,,45,45,64,27,24,59,,83,74,17,11,14,10,0.3,0.3
2025-04-24T1100,4226A,104.7651,31.4531,绵阳市,绵阳市气象局,,,,68,,31,43,,79,66,,19,15,7,,0.5
2025-04-24T1100,1784A,129.61,44.561,牡丹江市,环保大楼,,25,16,21,15,15,79,,82,80,6,8,5,5,0.2,0.2
2025-04-24T1100,1785A,129.6115,44.5782,牡丹江市,文化广场,,25,25,22,8,18,77,,82,78,7,9,10,11,0.4,0.5
2025-04-24T1100,1786A,129.5904,44.5963,牡丹江市,第一医院,,25,23,25,6,12,80,,82,79,3,6,5,6,0.3,0.3
2025-04-24T1100,1787A,129.6364,44.6075,牡丹江市,机车工厂,,,23,24,3,12,78,,82,79,7,8,,7,0.4,0.4
2025-04-24T1100,1788A,129.6386,44.5462,牡丹江市,第一中学,,26,20,23,13,14,83,,82,80,1,6,6,7,0.4,0.4
2025-04-24T1100,2531A,105.0703,29.61,内江市,市监测站,,28,28,66,15,32,80,,92,86,13,10,6,6,0.8,0.7
2025-04-24T1100,2532A,105.0717,29.5947,内江市,东兴区政府,,40,40,64,10,22,68,,80,76,18,11,8,8,0.6,0.5
2025-04-24T1100,2533A,105.0653,29.5817,内江市,内江二中,,35,35,60,22,32,65,,78,74,20,13,5,6,0.4,0.4
2025-04-24T1100,2534A,105.0406,29.5822,内江市,内江日报社,,34,34,62,19,33,72,,81,76,11,9,8,9,0.1,0.2
2025-04-24T1100,2628A,92.0657,31.4846,那曲市,那曲监测站,颗粒物(PM10),58,65,47,38,26,89,,63,63,33,23,11,8,0.7,0.7
2025-04-24T1100,4243A,92.0515,31.4787,那曲市,那曲市委宣传部,颗粒物(PM10),56,62,51,28,18,97,,68,68,22,13,8,6,0.5,0.4
2025-04-24T1100,1290A,115.8931,28.6843,南昌市,省外办,,28,28,47,17,31,87,,78,78,20,20,5,6,0.4,0.4
2025-04-24T1100,1291A,115.8886,28.7003,南昌市,省林业公司,,26,24,47,17,30,83,,75,74,14,13,7,7,0.6,0.7
2025-04-24T1100,1292A,115.8126,28.7442,南昌市,林科所,,27,22,40,14,23,85,,76,76,12,25,4,4,0.7,0.5
2025-04-24T1100,1294A,115.8518,28.687,南昌市,建工学校,细颗粒物(PM2.5),53,37,53,37,34,85,,74,74,18,20,2,2,0.6,0.7
2025-04-24T1100,1295A,115.8921,28.6424,南昌市,象湖,,32,30,50,17,27,100,,96,96,16,18,6,6,0.5,0.7
2025-04-24T1100,1296A,115.7423,28.7996,南昌市,武术学校,,25,25,28,8,14,72,,53,53,3,2,3,4,0.5,0.6
2025-04-24T1100,3046A,115.9084,28.6062,南昌市,机电学校,,40,40,56,19,31,88,,81,81,20,19,4,3,0.4,0.5
2025-04-24T1100,3690A,115.9721,28.7031,南昌市,外国语学校,,31,31,50,16,26,77,,88,86,26,14,9,9,0.3,0.4
2025-04-24T1100,4192A,115.9316,28.68677,南昌市,南京东路235号,,31,31,55,16,29,88,,83,83,18,19,9,9,0.7,0.9
2025-04-24T1100,1905A,106.056,30.8064,南充市,西山风景区,,24,24,42,13,34,53,,73,68,3,5,4,4,0.5,0.5
2025-04-24T1100,1906A,106.0789,30.8023,南充市,南充市委,,,,90,,39,67,,66,62,10,11,3,4,0.4,0.4
2025-04-24T1100,1907A,106.1031,30.8217,南充市,南充炼油厂,,49,49,86,24,41,62,,68,64,14,9,3,3,0.4,0.4
2025-04-24T1100,4227A,106.1083,30.7884,南充市,梨树横街98号,,43,43,93,21,32,67,,73,69,17,11,2,3,0.3,0.2
2025-04-24T1100,4304A,106.1172,30.843,南充市,清泉寺北路188号,,44,44,82,20,37,58,,62,59,12,10,4,4,0.2,0.3
2025-04-24T1100,4305A,106.067,30.7616,南充市,同庆路1号,,,,82,,37,,,85,,,10,,4,,0.4
2025-04-24T1100,1151A,118.8086,32.1065,南京市,迈皋桥,颗粒物(PM10),80,110,51,44,27,116,,81,81,42,34,14,5,0.7,0.3
2025-04-24T1100,1152A,118.7538,32.0551,南京市,草场门,颗粒物(PM10),97,144,68,48,30,104,,80,75,37,29,5,4,0.4,0.1
2025-04-24T1100,1153A,118.7794,32.0745,南京市,山西路,颗粒物(PM10),106,161,80,36,28,107,,94,87,40,28,9,5,0.7,0.4
2025-04-24T1100,1154A,118.7752,32.0023,南京市,中华门,颗粒物(PM10),95,139,69,41,29,108,,72,72,40,36,10,6,0.7,0.4
2025-04-24T1100,1155A,118.8109,32.0309,南京市,瑞金路,颗粒物(PM10),103,156,76,44,34,105,,44,44,46,38,7,6,0.9,0.5
2025-04-24T1100,1156A,118.7997,32.0754,南京市,玄武湖,颗粒物(PM10),88,125,63,45,25,101,,70,70,18,13,14,9,0.9,0.5
2025-04-24T1100,1157A,118.6414,32.0931,南京市,浦口,颗粒物(PM10),90,130,67,35,23,127,,94,94,20,21,7,6,0.6,0.5
2025-04-24T1100,1158A,118.7356,31.9996,南京市,奥体中心,,,126,71,36,28,107,,56,56,40,41,10,10,,0.6
2025-04-24T1100,1159A,118.9125,32.1028,南京市,仙林大学城,颗粒物(PM10),104,158,77,44,31,120,,51,51,32,38,14,11,0.6,0.6
2025-04-24T1100,3422A,118.8436,31.9198,南京市,江宁彩虹桥,颗粒物(PM10),88,126,67,39,31,124,,52,52,29,39,6,4,0.9,0.8
2025-04-24T1100,3427A,118.8554,32.3578,南京市,六合雄州,,,93,51,40,24,117,,66,64,22,26,,6,0.6,0.5
2025-04-24T1100,4249A,118.8708,31.3402,南京市,汶溪路181号,,47,47,53,31,31,118,,73,73,18,26,9,5,0.5,0.2
2025-04-24T1100,4312A,119.019,31.6512,南京市,中山西路1号,颗粒物(PM10),71,92,56,32,29,122,,70,70,22,18,12,7,0.8,0.7
2025-04-24T1100,1401A,108.3103,22.7881,南宁市,二十一中,颗粒物(PM10),53,55,47,26,29,36,,42,36,18,13,7,4,0.9,0.7
2025-04-24T1100,1402A,108.3141,22.8528,南宁市,北湖,,,47,47,30,27,37,,50,44,20,16,,9,0.6,0.6
2025-04-24T1100,1403A,108.3206,22.8225,南宁市,市监测站,,48,48,47,28,30,30,,44,37,23,16,7,6,0.6,0.6
2025-04-24T1100,1404A,108.3829,22.8037,南宁市,大自然花园,,39,38,47,27,29,41,,50,44,15,11,5,6,0.7,0.7
2025-04-24T1100,1405A,108.4394,22.7904,南宁市,仙葫,颗粒物(PM10),54,57,45,33,29,40,,47,41,14,10,9,7,0.6,0.6
2025-04-24T1100,1406A,108.2397,22.8467,南宁市,区农职院,,40,40,40,18,21,47,,38,36,10,14,5,6,0.9,0.7
2025-04-24T1100,1407A,108.3275,22.735,南宁市,英华嘉园,颗粒物(PM10),51,51,46,32,28,42,,43,36,17,14,8,8,0.6,0.6
2025-04-24T1100,3401A,108.4834,22.7618,南宁市,红星社区,,,46,48,26,30,55,,57,55,,9,11,9,0.8,0.8
2025-04-24T1100,4221A,108.2177,22.7774,南宁市,乐贤路16号,,43,43,48,25,28,36,,31,26,17,18,8,8,0.7,0.7
2025-04-24T1100,2331A,118.0966,26.6761,南平市,茫荡山,,,,,,,,,,,,,,,,
2025-04-24T1100,2332A,118.1681,26.6369,南平市,南平市监测站,,,22,20,20,12,38,,21,21,,15,4,5,0.9,0.8
2025-04-24T1100,2333A,118.1825,26.6489,南平市,南平铝业有限公司,,29,29,23,13,10,34,,22,22,16,17,3,4,1.0,0.9
2025-04-24T1100,2334A,118.1756,26.6272,南平市,南平七中,,21,21,24,12,12,35,,21,21,14,14,5,5,1.0,0.8
2025-04-24T1100,1168A,120.9098,31.9663,南通市,狼山街道,颗粒物(PM10),96,142,90,48,42,130,,42,42,43,62,10,6,0.8,0.9
2025-04-24T1100,1169A,120.86,32.0005,南通市,虹桥,颗粒物(PM10),86,122,97,45,52,132,,50,50,47,83,8,8,0.8,0.9
2025-04-24T1100,1170A,120.87,32.02,南通市,城中,颗粒物(PM10),102,154,115,43,45,156,,61,61,18,62,6,7,0.7,0.9
2025-04-24T1100,1171A,120.94,31.93,南通市,星湖花园,颗粒物(PM10),90,129,101,46,49,136,,47,47,44,72,8,7,0.9,0.9
2025-04-24T1100,1172A,120.81,32.0417,南通市,紫琅学院,,,,102,,45,142,,52,52,,72,,7,0.6,0.8
2025-04-24T1100,3291A,121.067,32.062,南通市,通州监测站,颗粒物(PM10),85,119,94,36,41,160,,58,58,14,37,9,7,0.7,0.9
2025-04-24T1100,3432A,120.9348,31.9883,南通市,环境教育馆,颗粒物(PM10),89,127,98,38,43,171,,65,65,13,60,6,5,0.3,0.5
2025-04-24T1100,2404A,112.5224,33.0122,南阳市,瓦房庄,颗粒物(PM10),72,94,159,18,48,94,,64,64,10,22,4,6,0.4,0.4
2025-04-24T1100,2405A,112.5003,32.9735,南阳市,汉画馆,颗粒物(PM10),79,108,155,20,52,92,,62,62,13,28,5,6,0.2,0.4
2025-04-24T1100,2406A,112.5573,33.027,南阳市,气象站,颗粒物(PM10),96,142,180,24,56,96,,56,56,9,20,3,5,0.3,0.4
2025-04-24T1100,2407A,112.5481,32.9689,南阳市,理工学院,颗粒物(PM10),95,139,158,16,51,98,,62,62,7,22,3,5,0.3,0.4
2025-04-24T1100,4008A,112.5234,32.9922,南阳市,卧龙区政府,颗粒物(PM10),104,158,167,21,53,95,,66,66,11,21,4,5,0.4,0.5
2025-04-24T1100,1234A,121.8358,29.911,宁波市,区环保大楼,颗粒物(PM10),83,115,70,43,29,29,,60,53,125,51,18,10,0.9,0.8
2025-04-24T1100,1235A,121.56,29.82,宁波市,万里学院,"颗粒物(PM10),细颗粒物(PM2.5)",59,68,48,42,27,75,,36,36,42,36,8,7,0.9,0.7
2025-04-24T1100,1236A,121.713,29.9572,宁波市,龙赛医院,颗粒物(PM10),69,88,79,28,21,62,,47,45,56,40,6,7,0.8,0.7
2025-04-24T1100,1239A,121.633,29.7733,宁波市,钱湖水厂,颗粒物(PM10),67,83,50,34,23,78,,52,52,42,20,10,9,0.9,0.8
2025-04-24T1100,1240A,121.5856,29.8635,宁波市,太古小学,,,,59,,21,82,,41,41,37,32,7,10,1.0,0.7
2025-04-24T1100,1241A,121.524,29.8674,宁波市,市环境监测中心,颗粒物(PM10),60,69,52,23,22,53,,45,45,59,37,13,12,0.7,0.6
2025-04-24T1100,2871A,121.6147,29.9017,宁波市,万里国际学校,颗粒物(PM10),54,57,47,27,22,88,,49,49,41,33,8,9,0.9,0.7
2025-04-24T1100,3710A,121.5594,29.8975,宁波市,白沙活动中心,颗粒物(PM10),51,52,48,25,22,80,,58,58,42,29,8,8,0.7,0.6
2025-04-24T1100,2339A,119.5001,26.6946,宁德市,金涵水库,,,,,,,,,,,,,,,,
2025-04-24T1100,2341A,119.5388,26.6612,宁德市,宁德市监测站,,22,18,30,13,36,69,,83,75,20,17,4,4,0.7,0.5
2025-04-24T1100,3209A,119.5231,26.6562,宁德市,宁德一中,,23,16,29,15,28,71,,82,74,18,13,6,6,0.5,0.4
2025-04-24T1100,2618A,98.8601,25.8567,怒江傈僳族自治州,州监测站,,33,31,41,23,27,72,,58,56,4,5,10,10,0.3,0.3
2025-04-24T1100,2619A,98.8546,25.8417,怒江傈僳族自治州,泸水一中,,33,24,37,23,28,52,,40,35,10,11,6,6,0.3,0.3
2025-04-24T1100,1888A,101.6891,26.571,攀枝花市,弄弄坪,,,41,39,21,18,62,,55,50,19,16,,9,0.7,0.7
2025-04-24T1100,1889A,101.5769,26.5928,攀枝花市,河门口,颗粒物(PM10),60,70,51,28,25,71,,36,36,21,24,26,32,1.7,1.9
2025-04-24T1100,1890A,101.7169,26.585,攀枝花市,炳草岗,颗粒物(PM10),53,56,40,24,25,57,,55,46,21,17,12,10,0.7,0.5
2025-04-24T1100,1891A,101.7369,26.5008,攀枝花市,仁和,细颗粒物(PM2.5),92,99,54,68,33,85,,40,40,25,22,41,12,0.8,0.6
2025-04-24T1100,2835A,101.7227,26.567,攀枝花市,四十中小,,29,29,30,15,16,68,,67,60,18,10,13,9,0.8,0.7
2025-04-24T1100,1604A,122.0303,41.1489,盘锦市,开发区,,28,21,53,3,16,87,,60,60,4,16,6,9,0.2,0.4
2025-04-24T1100,1605A,122.0485,41.0883,盘锦市,兴隆台,颗粒物(PM10),52,53,59,3,19,78,,56,56,9,20,8,10,0.3,0.5
2025-04-24T1100,1606A,121.8297,41.1028,盘锦市,新生街道,,27,19,45,3,15,86,,59,59,11,27,8,10,0.3,0.5
2025-04-24T1100,1832A,113.3257,33.742,平顶山市,新华旅馆,颗粒物(PM10),61,71,149,15,33,87,,78,78,11,16,4,5,0.4,0.4
2025-04-24T1100,1833A,113.2919,33.737,平顶山市,规划设计院,颗粒物(PM10),54,58,144,20,46,89,,77,77,8,22,4,5,0.2,0.3
2025-04-24T1100,1834A,113.182,33.774,平顶山市,平顶山工学院,颗粒物(PM10),60,70,128,14,48,94,,81,78,7,10,3,3,0.1,0.2
2025-04-24T1100,3204A,113.3025,33.73,平顶山市,规划局,颗粒物(PM10),70,90,157,8,39,88,,77,77,7,19,5,6,0.1,0.2
2025-04-24T1100,3594A,112.8867,33.9116,平顶山市,石龙区,,,63,142,31,47,,,79,79,9,20,8,8,0.3,0.3
2025-04-24T1100,2656A,106.6692,35.5461,平凉市,聚贤嘉苑,颗粒物(PM10),57,63,59,20,17,97,,55,55,7,21,13,10,0.2,0.2
2025-04-24T1100,2657A,106.7021,35.5307,平凉市,博物馆,,,,54,,16,100,,62,62,6,15,,10,,0.4
2025-04-24T1100,2347A,114.0997,27.5002,萍乡市,武功山,,23,6,15,3,15,72,,58,58,7,6,14,14,1.0,1.2
2025-04-24T1100,2348A,113.8385,27.6434,萍乡市,中医院,,35,29,33,22,24,109,,86,86,6,13,7,8,0.5,0.8
2025-04-24T1100,2349A,113.8493,27.6253,萍乡市,市政府车库,,33,19,25,13,22,104,,83,83,8,13,4,5,0.4,0.9
2025-04-24T1100,2350A,113.8676,27.6435,萍乡市,市环保局,,34,23,27,17,18,108,,85,85,5,15,3,4,0.5,0.7
2025-04-24T1100,2351A,113.866,27.6198,萍乡市,安源区政府,,,,30,,26,89,,73,73,,13,6,9,,1.1
2025-04-24T1100,2319A,119.0141,25.4325,莆田市,荔城区仓后路,,26,26,36,16,28,66,,78,70,22,17,3,3,0.7,0.8
2025-04-24T1100,2320A,119.0015,25.4553,莆田市,莆田市监测站,,29,29,37,17,32,62,,75,65,19,15,4,4,0.7,0.7
2025-04-24T1100,2321A,119.1119,25.4561,莆田市,涵江区六中,,22,19,35,11,28,69,,63,55,29,25,3,3,0.7,0.7
2025-04-24T1100,2322A,119.1013,25.3215,莆田市,秀屿区政府,,,,29,7,26,88,,94,89,13,10,,4,0.7,0.9
2025-04-24T1100,2323A,118.981,25.4792,莆田市,东圳水库,,,,,,,,,,,,,,,,
2025-04-24T1100,2392A,115.0312,35.7636,濮阳市,环保局,颗粒物(PM10),65,79,116,10,28,86,,86,80,12,15,6,9,0.6,0.7
2025-04-24T1100,2394A,115.0574,35.7609,濮阳市,油田运输公司,,,,144,,38,95,,90,86,,12,,8,0.5,0.7
2025-04-24T1100,3021A,115,35.7668,濮阳市,濮水河管理处,颗粒物(PM10),56,62,109,14,28,90,,91,84,6,11,4,7,0.5,0.6
2025-04-24T1100,4216A,115.0924,35.7686,濮阳市,任丘路479号,颗粒物(PM10),65,80,108,10,26,96,,90,87,9,13,6,8,0.3,0.5
2025-04-24T1100,2601A,100.98,22.7633,普洱市,市环保局,颗粒物(PM10),68,86,82,15,34,86,,32,32,12,16,8,8,0.8,0.8
2025-04-24T1100,2602A,100.9817,22.8322,普洱市,普洱第二中学,颗粒物(PM10),61,72,62,28,31,104,,38,38,13,20,8,7,1.1,1
2025-04-24T1100,2262A,131.0518,45.8751,七台河市,新一中,,29,11,24,3,14,92,,88,88,6,10,11,11,0.7,0.7
2025-04-24T1100,3345A,131.0577,45.7879,七台河市,中波台,,23,15,22,3,12,72,,67,67,12,15,7,6,0.4,0.5
2025-04-24T1100,3637A,131.0176,45.7761,七台河市,人民广场,,26,26,30,14,22,79,,83,83,20,14,9,9,0.4,0.4
2025-04-24T1100,3684A,130.8781,45.8222,七台河市,新建矿广场,,31,31,38,3,18,79,,73,73,10,15,6,6,0.5,0.6
2025-04-24T1100,1779A,123.9305,47.3636,齐齐哈尔市,安居小区,,21,,24,14,9,65,,60,59,10,11,4,6,0.3,0.3
2025-04-24T1100,1780A,123.9488,47.3386,齐齐哈尔市,中心广场,,,24,29,7,7,,,65,62,10,12,7,8,0.2,0.2
2025-04-24T1100,1781A,123.9483,47.3227,齐齐哈尔市,农牧车辆厂,,25,,24,17,10,72,,63,62,7,10,5,5,0.1,0.1
2025-04-24T1100,1783A,123.945,47.2988,齐齐哈尔市,市环境监测站,,22,18,24,13,11,70,,61,60,8,9,1,2,0.3,0.3
2025-04-24T1100,3662A,123.6333,47.2075,齐齐哈尔市,富区青少年活动中心,,31,31,42,12,21,68,,50,50,8,13,2,6,0.4,0.5
2025-04-24T1100,2591A,107.9783,26.5747,黔东南苗族侗族自治州,市环境监测站,,28,28,45,16,22,48,,60,53,16,8,3,3,0.4,0.3
2025-04-24T1100,2881A,107.8908,26.5311,黔东南苗族侗族自治州,凯里学院,,18,12,33,12,19,44,,58,49,13,9,2,2,0.5,0.4
2025-04-24T1100,2593A,107.5228,26.2403,黔南布依族苗族自治州,小围寨,,15,9,33,3,16,47,,40,37,5,7,3,3,0.5,0.5
2025-04-24T1100,3538A,107.5175,26.2978,黔南布依族苗族自治州,沙坝,,19,19,42,7,16,40,,40,35,7,8,4,4,0.6,0.5
2025-04-24T1100,2589A,104.9022,25.0925,黔西南布依族苗族自治州,场坝街,,,30,63,13,40,37,,52,48,16,13,,6,0.3,0.3
2025-04-24T1100,2590A,104.8811,25.0992,黔西南布依族苗族自治州,坪东大道,,41,41,62,28,39,42,,52,48,18,15,6,5,0.3,0.3
2025-04-24T1100,2502A,108.6236,21.9667,钦州市,市环保站,颗粒物(PM10),67,83,54,29,22,64,,45,45,20,18,3,4,1.0,0.9
2025-04-24T1100,2503A,108.6549,21.9481,钦州市,沙埠小学,颗粒物(PM10),70,89,55,32,28,71,,46,46,16,19,7,9,0.8,0.8
2025-04-24T1100,2504A,108.5989,21.7431,钦州市,港区一小,颗粒物(PM10),64,78,71,27,28,66,,33,33,18,25,9,9,0.8,0.7
2025-04-24T1100,3404A,108.5959,21.9633,钦州市,北职校,,,,54,,30,70,,42,42,,18,9,8,,0.8
2025-04-24T1100,1043A,119.7493,40.0116,秦皇岛市,第一关,,27,10,87,3,31,86,,71,71,4,25,3,5,0.2,0.3
2025-04-24T1100,1044A,119.5897,39.9499,秦皇岛市,监测站,,28,24,91,3,21,89,,75,74,1,11,2,4,0.2,0.4
2025-04-24T1100,1046A,119.5251,39.9041,秦皇岛市,建设大厦,,27,13,93,3,20,84,,73,72,7,19,2,5,0.2,0.4
2025-04-24T1100,3132A,119.610547,39.943889,秦皇岛市,文明里,,26,13,99,3,24,83,,72,70,5,16,2,5,0.2,0.4
2025-04-24T1100,4198A,119.5090,39.8253,秦皇岛市,北戴河轮滑馆,,26,8,87,3,20,81,,74,72,2,10,1,4,0.2,0.3
2025-04-24T1100,1307A,120.6659,36.2403,青岛市,仰口,颗粒物(PM10),120,190,70,25,22,91,,108,99,5,13,7,8,0.3,0.4
2025-04-24T1100,1310A,120.4134,36.0658,青岛市,市南区东部子站,颗粒物(PM10),114,178,59,22,14,77,,92,88,13,21,7,9,0.5,0.5
2025-04-24T1100,1311A,120.3664,36.1032,青岛市,四方区子站,,,,53,,17,87,,96,94,13,20,,7,,0.5
2025-04-24T1100,1312A,120.2994,36.054,青岛市,市南区西部子站,颗粒物(PM10),126,202,54,22,13,80,,84,78,13,31,8,8,0.5,0.6
2025-04-24T1100,1313A,120.4581,36.0858,青岛市,崂山区子站,颗粒物(PM10),109,168,57,17,8,88,,99,94,10,19,8,9,0.5,0.5
2025-04-24T1100,1315A,120.3999,36.3083,青岛市,城阳区子站,颗粒物(PM10),118,185,87,20,19,86,,86,86,8,27,8,11,0.5,0.7
2025-04-24T1100,1966A,120.0405,35.8735,青岛市,黄岛区4号,颗粒物(PM10),115,180,62,22,12,80,,88,85,11,24,8,10,0.6,0.6
2025-04-24T1100,3362A,120.5014,36.4034,青岛市,即墨2号,,,,101,,30,85,,93,93,,23,,11,,0.7
2025-04-24T1100,3642A,120.3503,36.0736,青岛市,市北区南部,颗粒物(PM10),87,124,44,24,13,74,,85,81,12,16,6,7,0.5,0.5
2025-04-24T1100,3643A,120.3948,36.1805,青岛市,李沧区北部,颗粒物(PM10),134,217,76,27,21,79,,84,83,10,25,8,9,0.5,0.6
2025-04-24T1100,4290A,120.1969,35.9546,青岛市,珠江路669号,颗粒物(PM10),129,207,65,32,18,80,,74,74,13,35,7,9,0.5,0.6
2025-04-24T1100,1702A,113.0426,23.691,清远市,环保大楼,颗粒物(PM10),52,54,55,18,24,21,,28,22,29,17,8,7,1.0,0.8
2025-04-24T1100,1703A,113.0208,23.7106,清远市,凤城街办,,44,44,35,24,24,18,,23,18,38,20,4,5,0.9,0.7
2025-04-24T1100,3025A,113.0477,23.6344,清远市,技师学院,,46,43,39,32,27,17,,14,13,34,24,11,11,0.9,0.8
2025-04-24T1100,3318A,112.9903,23.7403,清远市,清新太和,细颗粒物(PM2.5),57,51,32,40,22,23,,17,14,34,15,6,7,0.8,0.6
2025-04-24T1100,3455A,113.076,23.7198,清远市,清城东城,,,,36,,23,22,,21,18,,13,9,7,,1
2025-04-24T1100,2661A,107.6325,35.7357,庆阳市,庆阳五中,颗粒物(PM10),52,53,61,8,13,98,,89,89,6,6,3,3,0.3,0.3
2025-04-24T1100,2662A,107.6364,35.7067,庆阳市,市环保局,颗粒物(PM10),53,55,60,11,15,98,,89,89,9,9,6,6,0.4,0.4
2025-04-24T1100,1916A,103.7897,25.5035,曲靖市,环境监测站,颗粒物(PM10),61,72,57,41,29,47,,,,23,19,16,8,0.8,0.4
2025-04-24T1100,1917A,103.8,25.5364,曲靖市,烟厂办公区,颗粒物(PM10),60,69,55,39,30,61,,38,34,20,16,8,5,1.1,0.7
2025-04-24T1100,3376A,103.7947,25.462,曲靖市,南苑二区,细颗粒物(PM2.5),65,65,58,47,30,59,,36,32,24,15,13,7,1.1,0.6
2025-04-24T1100,3377A,103.7444,25.5261,曲靖市,曲靖师范学院,细颗粒物(PM2.5),70,68,54,51,43,49,,28,22,25,18,10,8,1.0,0.6
2025-04-24T1100,1264A,118.8692,28.9398,衢州市,环保大楼,细颗粒物(PM2.5),74,80,42,54,30,51,,21,21,21,18,4,3,0.8,0.8
2025-04-24T1100,1265A,118.8709,28.9666,衢州市,实验学校,细颗粒物(PM2.5),75,69,38,55,29,51,,18,18,21,33,4,3,0.7,0.7
2025-04-24T1100,1266A,118.8621,28.9808,衢州市,衢州学院,,,65,42,52,32,44,,14,14,,29,,3,0.9,0.8
2025-04-24T1100,1611A,118.5819,24.9117,泉州市,涂山街,,26,17,26,13,28,83,,93,86,19,15,3,3,0.9,0.8
2025-04-24T1100,1612A,118.5972,24.8978,泉州市,津头埔,,25,17,24,13,29,80,,91,82,23,18,2,2,0.8,0.8
2025-04-24T1100,1613A,118.6663,24.9424,泉州市,万安,,26,19,25,11,26,82,,95,85,11,10,3,3,0.7,0.7
2025-04-24T1100,1614A,118.6117,24.9604,泉州市,清源山,,,,,,,,,,,,,,,,
2025-04-24T1100,3529A,118.6333,24.9264,泉州市,城华南路,,23,13,31,12,26,72,,89,80,20,15,2,2,0.7,0.7
2025-04-24T1100,2626A,88.8876,29.2718,日喀则市,日喀则监测站,,40,12,14,8,7,125,,127,126,3,5,4,6,0.5,0.5
2025-04-24T1100,3726A,88.8781,29.2426,日喀则市,林业技术推广中心,,38,19,24,3,7,120,,128,127,2,2,6,6,0.2,0.2
2025-04-24T1100,1659A,119.471,35.4209,日照市,监测站,颗粒物(PM10),100,149,112,21,30,84,,92,88,12,36,6,9,0.5,0.8
2025-04-24T1100,1660A,119.523,35.4216,日照市,市政府广场,颗粒物(PM10),87,124,95,16,26,91,,99,96,9,34,5,8,0.5,0.7
2025-04-24T1100,1661A,119.5587,35.4044,日照市,港务局,颗粒物(PM10),100,149,103,20,29,88,,98,93,11,40,6,8,0.5,0.7
2025-04-24T1100,3507A,119.5328,35.4625,日照市,职业技术学院,颗粒物(PM10),104,158,108,17,26,84,,94,91,7,28,6,8,0.5,0.7
2025-04-24T1100,3604A,119.3266,35.1044,日照市,岚山环保分局,颗粒物(PM10),95,139,116,20,32,88,,101,92,15,33,16,16,1.4,1.1
2025-04-24T1100,1835A,111.1922,34.7752,三门峡市,市政府,颗粒物(PM10),113,175,119,27,61,85,,40,40,19,40,8,8,0.5,0.6
2025-04-24T1100,1836A,111.1587,34.7942,三门峡市,开发区,,,88,130,,62,88,,44,44,17,33,8,8,0.6,0.6
2025-04-24T1100,1838A,111.143,34.7955,三门峡市,风景区,颗粒物(PM10),129,207,127,54,49,90,,43,43,15,30,10,9,0.4,0.4
2025-04-24T1100,3039A,111.1911,34.7829,三门峡市,三门峡市第一小学,颗粒物(PM10),120,189,136,26,42,95,,49,49,14,32,9,10,0.5,0.5
2025-04-24T1100,3598A,111.1,34.7167,三门峡市,富达温泉假日酒店,颗粒物(PM10),94,137,136,35,58,99,,40,40,14,33,6,9,0.5,0.5
2025-04-24T1100,2324A,117.6211,26.2625,三明市,三钢,,38,,20,26,16,43,,17,17,18,17,5,8,0.9,1.5
2025-04-24T1100,2325A,117.635,26.2714,三明市,三明二中,,26,,15,18,10,43,,17,17,18,13,5,4,0.9,0.7
2025-04-24T1100,2326A,117.6028,26.2378,三明市,三元区政府,,22,17,22,15,9,34,,13,13,21,14,6,5,1.6,0.7
2025-04-24T1100,2327A,117.7275,26.3108,三明市,洋溪,,,,,,,,,,,,,,,,
2025-04-24T1100,1876A,109.5078,18.2489,三亚市,河东子站,,24,24,19,13,10,63,,41,41,5,3,3,3,0.3,0.3
2025-04-24T1100,1877A,109.4964,18.2681,三亚市,河西子站,,24,24,20,14,9,62,,35,35,10,7,2,2,0.3,0.2
2025-04-24T1100,3540A,109.7348,18.3443,三亚市,君悦子站,,,21,19,10,9,57,,27,27,4,6,4,3,,0.3
2025-04-24T1100,2624A,91.7608,29.2313,山南市,山南监测站,,32,32,35,11,9,99,,108,99,10,6,4,3,0.4,0.3
2025-04-24T1100,2625A,91.7706,29.2436,山南市,山南人民医院,,40,40,41,21,18,102,,113,102,9,5,4,3,0.4,0.3
2025-04-24T1100,1674A,116.6794,23.3667,汕头市,金平子站,,37,37,27,22,18,97,,87,87,10,10,5,4,0.6,0.6
2025-04-24T1100,1675A,116.7244,23.3633,汕头市,龙湖子站,,,33,30,20,19,99,,85,85,,9,,4,0.6,0.5
2025-04-24T1100,1676A,116.7258,23.2775,汕头市,濠江子站,颗粒物(PM10),54,57,39,13,21,98,,91,91,12,11,4,4,0.7,0.7
2025-04-24T1100,1677A,116.7519,23.4714,汕头市,澄海子站,,28,28,32,18,21,89,,78,78,10,11,2,2,0.8,0.7
2025-04-24T1100,1678A,116.6092,23.2539,汕头市,潮阳子站,,37,37,33,16,18,73,,70,70,11,11,7,7,0.8,0.6
2025-04-24T1100,3444A,116.454,23.2684,汕头市,潮南峡山,,34,34,39,20,24,71,,60,60,6,9,4,4,0.6,0.6
2025-04-24T1100,3624A,116.4069,23.2533,汕头市,潮南子站,,40,40,43,26,30,64,,51,51,10,11,4,3,0.7,0.7
2025-04-24T1100,1693A,115.3653,22.775,汕尾市,市环保局,,20,17,18,14,12,62,,38,38,1,5,6,6,0.6,0.6
2025-04-24T1100,1694A,115.3706,22.7898,汕尾市,市政府,,,,19,18,15,54,,33,33,4,7,,4,0.4,0.4
2025-04-24T1100,1695A,115.3622,22.7925,汕尾市,新城中学,,24,24,20,14,13,57,,32,32,5,9,8,8,0.4,0.5
2025-04-24T1100,2645A,109.9154,33.8715,商洛市,监测站,颗粒物(PM10),59,68,90,28,33,98,,64,64,11,17,7,6,0.4,0.4
2025-04-24T1100,3045A,109.9643,33.8471,商洛市,商州区中学,颗粒物(PM10),65,80,97,31,48,76,,42,42,24,25,5,3,0.7,0.6
2025-04-24T1100,2408A,115.6702,34.4285,商丘市,环境监测站,颗粒物(PM10),84,118,167,12,49,82,,68,59,13,17,5,5,0.2,0.4
