timepoint,stationcode,longitude,latitude,area,positionname,primarypollutant,aqi,pm10,pm10_24h,pm2_5,pm2_5_24h,o3,o3_24h,o3_8h,o3_8h_24h,no2,no2_24h,so2,so2_24h,co,co_24h
2023-12-15T1400,2566A,102.1879,31.914,阿坝藏族羌族自治州,州农科所,,33,33,30,11,11,24,,20,17,21,21,6,7,0,0
2023-12-15T1400,2568A,102.2502,31.8896,阿坝藏族羌族自治州,马师校,,17,14,19,10,14,54,,46,41,20,19,3,3,0.4,0.5
2023-12-15T1400,3994A,102.2165,31.9024,阿坝藏族羌族自治州,马尔康中学西区,,33,33,26,11,13,60,,50,49,20,14,4,4,0.5,0.5
2023-12-15T1400,2695A,80.292,41.1694,阿克苏地区,电视台,颗粒物(PM10),500,1552,1582,209,191,55,,44,44,11,17,4,4,0.3,0.5
2023-12-15T1400,2696A,80.2613,41.1551,阿克苏地区,艺术中心,颗粒物(PM10),500,1567,1532,222,202,52,,58,58,20,15,4,4,0.6,0.6
2023-12-15T1400,2204A,105.6467,38.8363,阿拉善盟,西城区西花园,,27,27,39,14,16,74,,70,70,5,6,7,8,0.7,0.6
2023-12-15T1400,2205A,105.6985,38.8411,阿拉善盟,蒙二幼,,25,17,47,7,10,80,,76,76,7,7,4,3,0.5,0.6
2023-12-15T1400,2206A,105.724,38.8516,阿拉善盟,环保局新楼,,,,82,7,7,6,,77,68,,5,8,8,0.5,0.5
2023-12-15T1400,2708A,88.1264,47.8517,阿勒泰地区,市站,,,,28,7,15,59,,48,48,14,17,6,5,0.2,0.4
2023-12-15T1400,2630A,80.1161,32.5,阿里地区,阿里监测站,,21,13,16,5,10,67,,46,46,11,27,8,11,0.6,0.7
2023-12-15T1400,3192A,80.0903,32.5028,阿里地区,阿里藏医院,,25,25,17,10,6,72,,34,28,12,24,38,10,0.6,0.7
2023-12-15T1400,2642A,109.0318,32.6537,安康市,香溪洞,,48,48,24,15,11,52,,45,45,5,12,5,7,0.4,0.7
2023-12-15T1400,2643A,109.0281,32.6939,安康市,安康市监测站,颗粒物(PM10),53,56,29,18,18,52,,44,44,8,17,7,17,0.4,0.6
2023-12-15T1400,2644A,109.0072,32.6975,安康市,汉滨区检察院,颗粒物(PM10),54,57,26,20,12,52,,47,47,11,16,8,12,0.4,0.6
2023-12-15T1400,2291A,117.0809,30.5177,安庆市,环科院,,,14,29,13,17,,,18,18,13,29,6,7,0.7,0.9
2023-12-15T1400,2292A,117.0331,30.5119,安庆市,马山宾馆,,16,11,25,11,18,33,,22,22,18,31,4,4,0.8,1.1
2023-12-15T1400,2294A,116.9896,30.6145,安庆市,安庆大学,,15,10,23,10,12,42,,30,30,13,28,6,6,0.9,1.1
2023-12-15T1400,3173A,117.0598,30.5351,安庆市,市人大,,23,23,34,14,16,31,,19,19,18,35,2,3,0.9,1.1
2023-12-15T1400,3122A,105.9606,26.2611,安顺市,伍家关,,,,,,,,,,,,,,,,
2023-12-15T1400,3123A,105.9408,26.2431,安顺市,凤凰山,,25,14,22,8,17,80,,55,55,6,7,10,10,0.4,0.5
2023-12-15T1400,3124A,105.9439,26.2564,安顺市,金钟山,,25,15,23,6,17,80,,56,56,6,6,10,10,0.3,0.4
2023-12-15T1400,3125A,105.8983,26.2481,安顺市,娄家坡,,,,26,,20,,,63,,,4,,8,,0.4
2023-12-15T1400,1818A,114.4839,36.0621,安阳市,棉研所,,,,,,,,,,,,,,,,
2023-12-15T1400,1819A,114.3551,36.1017,安阳市,红庙街,颗粒物(PM10),68,86,48,48,48,51,,41,41,18,20,8,9,1.1,1.2
2023-12-15T1400,1820A,114.361,36.0681,安阳市,银杏小区,细颗粒物(PM2.5),72,,38,52,47,54,,46,46,15,17,7,8,1.0,1.1
2023-12-15T1400,3141A,114.3922,36.0878,安阳市,信访局,细颗粒物(PM2.5),69,71,44,50,45,45,,37,37,19,17,7,8,0.9,1
2023-12-15T1400,3669A,114.4705,36.0637,安阳市,左辅环卫站,细颗粒物(PM2.5),78,98,57,57,49,57,,44,44,13,16,8,7,0.7,0.8
2023-12-15T1400,3703A,114.2917,36.0949,安阳市,安钢职工学校,细颗粒物(PM2.5),88,74,54,65,52,52,,42,42,18,23,9,10,1.2,1.4
2023-12-15T1400,1748A,123.044,41.1196,鞍山市,深沟寺,颗粒物(PM10),74,97,127,14,36,61,,58,58,14,24,7,9,0.4,0.6
2023-12-15T1400,1749A,123.011,41.0931,鞍山市,太阳城,颗粒物(PM10),80,110,126,11,31,63,,60,60,14,23,12,12,0.6,0.8
2023-12-15T1400,1750A,123.0485,41.1442,鞍山市,太平,颗粒物(PM10),66,81,123,15,38,59,,56,56,15,25,11,12,0.5,0.7
2023-12-15T1400,1751A,122.9642,41.0971,鞍山市,铁西三道街,颗粒物(PM10),98,146,210,23,45,40,,36,36,36,41,27,26,2.7,2.4
2023-12-15T1400,1752A,122.9341,41.0833,鞍山市,铁西工业园区,颗粒物(PM10),57,64,111,17,42,53,,47,47,23,36,23,25,0.7,1.1
2023-12-15T1400,1753A,123.022,41.0821,鞍山市,明达新区,颗粒物(PM10),52,54,77,16,36,56,,53,53,16,25,9,10,0.5,0.7
2023-12-15T1400,1754A,123.1289,41.0228,鞍山市,千山,,,,,,,,,,,,,,,,
2023-12-15T1400,2195A,107.4212,40.761,巴彦淖尔市,附二中,,40,40,48,10,20,73,,65,65,3,4,4,4,0.3,0.4
2023-12-15T1400,2196A,107.37,40.7372,巴彦淖尔市,市环保大楼,,41,41,48,17,18,75,,67,67,3,6,3,3,0.4,0.4
2023-12-15T1400,1956A,86.1472,41.7538,巴音郭楞州,孔雀公园,颗粒物(PM10),124,197,271,43,47,57,,58,55,9,9,2,2,0.4,0.4
2023-12-15T1400,1957A,86.1972,41.7166,巴音郭楞州,棉纺厂,颗粒物(PM10),148,245,344,36,47,61,,56,54,9,9,2,1,0.3,0.3
2023-12-15T1400,1958A,86.2357,41.7173,巴音郭楞州,经济开发区,颗粒物(PM10),114,177,303,36,51,65,,52,52,8,14,3,2,0.3,0.3
2023-12-15T1400,2914A,106.7677,31.8794,巴中市,苏山坪,,41,41,18,11,8,59,,58,58,6,10,3,3,0.3,0.5
2023-12-15T1400,3182A,106.7656,31.8545,巴中市,丽阳花园,,39,39,22,9,8,61,,54,54,7,12,3,3,0.3,0.4
2023-12-15T1400,3183A,106.7418,31.8654,巴中市,圣泉水务公司,,33,33,20,10,8,64,,58,58,7,11,2,3,0.2,0.4
2023-12-15T1400,3616A,106.7616,31.8344,巴中市,市中心医院,,35,35,21,9,8,49,,42,42,9,14,5,5,0.3,0.5
2023-12-15T1400,2235A,122.7911,45.6077,白城市,洮北区环保局,,,,,9,20,63,,56,,10,13,5,6,0.6,0.5
2023-12-15T1400,2236A,122.8738,45.5725,白城市,市环保局,,21,20,34,9,18,67,,61,61,6,10,4,8,0.6,0.7
2023-12-15T1400,2231A,126.4219,41.9171,白山市,喜丰,,21,15,27,5,7,65,,65,65,11,9,4,7,0.5,0.5
2023-12-15T1400,2232A,126.4077,41.9419,白山市,环保局,,43,43,42,9,12,64,,60,60,13,16,10,9,0.8,0.7
2023-12-15T1400,2647A,104.1724,36.5446,白银市,第三小学,,44,44,81,10,9,80,,74,74,2,4,4,6,0.6,0.6
2023-12-15T1400,2648A,104.1465,36.5482,白银市,动力公司,,,,61,8,11,,,74,74,,5,4,3,0.3,0.4
2023-12-15T1400,2512A,106.6103,23.9011,百色市,市监测站,颗粒物(PM10),69,88,50,42,26,84,,28,28,26,21,30,15,1.0,0.8
2023-12-15T1400,2513A,106.6538,23.8859,百色市,市中心血站,颗粒物(PM10),70,89,53,37,27,89,,29,29,18,29,26,14,0.9,0.8
2023-12-15T1400,3406A,106.6085,23.8798,百色市,祈福高中,,,94,58,44,28,73,,25,25,26,24,,11,1.0,0.8
2023-12-15T1400,2270A,117.396,32.939,蚌埠市,工人疗养院,细颗粒物(PM2.5),75,58,38,55,35,29,,22,22,21,27,5,5,0.8,1
2023-12-15T1400,2271A,117.3605,32.9427,蚌埠市,百货大楼,细颗粒物(PM2.5),67,59,34,48,30,29,,21,21,17,23,2,2,0.8,1
2023-12-15T1400,2273A,117.4185,32.8911,蚌埠市,蚌埠学院,细颗粒物(PM2.5),74,,28,54,30,32,,26,26,15,22,1,2,0.7,0.9
2023-12-15T1400,2274A,117.3533,32.9673,蚌埠市,淮上区政府,细颗粒物(PM2.5),79,,36,58,38,32,,25,25,12,22,4,4,0.7,0.9
2023-12-15T1400,2275A,117.3145,32.8977,蚌埠市,高新区,细颗粒物(PM2.5),70,53,27,51,32,32,,25,25,20,28,3,3,0.7,0.9
2023-12-15T1400,3715A,117.3092,32.9314,蚌埠市,蚌埠田家炳中学,细颗粒物(PM2.5),77,56,33,56,32,31,,23,23,17,25,3,3,0.6,0.8
2023-12-15T1400,1585A,109.8756,40.6532,包头市,市环境监测站,,21,15,47,10,11,66,,68,67,4,5,10,9,0.6,0.6
2023-12-15T1400,1587A,109.9991,40.5842,包头市,包头八中,,,,61,,7,,,67,66,6,4,11,9,,0.4
2023-12-15T1400,1588A,109.8538,40.6821,包头市,青山宾馆,,22,,44,5,6,68,,70,69,6,6,8,7,0.4,0.3
2023-12-15T1400,1589A,109.8642,40.6288,包头市,惠龙物流,,20,14,41,5,13,64,,67,67,9,8,8,7,0.5,0.4
2023-12-15T1400,1590A,110.0377,40.5546,包头市,东河鸿龙湾,,22,10,30,10,8,68,,68,68,4,4,13,11,0.4,0.4
2023-12-15T1400,3283A,109.9154,40.5685,包头市,滨河大厦,,22,15,24,15,10,61,,68,67,10,4,12,8,0.6,0.4
2023-12-15T1400,3419A,109.9447,40.6261,包头市,包头市委党校,颗粒物(PM10),52,53,36,4,10,66,,66,66,4,5,9,8,0.5,0.5
2023-12-15T1400,3683A,109.8331,40.6576,包头市,昆区政府,,21,8,46,5,6,66,,69,68,8,7,11,10,0.5,0.5
2023-12-15T1400,1930A,107.185,34.3063,宝鸡市,庙沟村,颗粒物(PM10),61,72,77,12,21,62,,59,59,2,4,7,7,0.4,0.4
2023-12-15T1400,1931A,107.0708,34.3017,宝鸡市,竹园沟,颗粒物(PM10),63,75,74,12,18,75,,70,70,8,11,4,4,0.4,0.5
2023-12-15T1400,1932A,107.1906,34.3672,宝鸡市,三陆医院,颗粒物(PM10),68,86,84,12,18,68,,64,64,13,18,5,5,0.4,0.5
2023-12-15T1400,1933A,107.1431,34.3547,宝鸡市,监测站,颗粒物(PM10),74,98,78,16,21,66,,64,64,10,11,4,4,0.5,0.5
2023-12-15T1400,1934A,107.1186,34.3739,宝鸡市,技工学校,颗粒物(PM10),70,89,78,12,23,67,,65,65,12,12,6,6,0.4,0.4
2023-12-15T1400,1935A,107.3906,34.3528,宝鸡市,陈仓区环保局家属楼,颗粒物(PM10),75,100,78,17,22,68,,62,62,14,17,9,8,0.4,0.5
2023-12-15T1400,1936A,107.2058,34.3497,宝鸡市,文理学院,,,96,90,14,17,72,,66,66,13,16,,5,0.3,0.6
2023-12-15T1400,1937A,107.2386,34.3622,宝鸡市,三迪小学,颗粒物(PM10),70,90,86,7,17,65,,64,64,12,11,6,6,0.5,0.5
2023-12-15T1400,1051A,115.493,38.8632,保定市,游泳馆,,34,34,33,19,28,55,,52,52,6,10,3,3,0.2,0.3
2023-12-15T1400,1052A,115.5213,38.8959,保定市,华电二区,,28,28,34,16,34,52,,48,48,8,14,2,2,0.1,0.3
2023-12-15T1400,1053A,115.4713,38.9108,保定市,接待中心,,48,47,34,33,25,51,,51,51,6,15,1,3,0,0.1
2023-12-15T1400,1054A,115.4612,38.8416,保定市,地表水厂,,23,23,33,15,19,51,,48,48,16,20,3,3,0.3,0.5
2023-12-15T1400,1056A,115.5086,38.8639,保定市,监测站,,33,33,41,8,24,50,,50,50,16,16,5,4,0.2,0.4
2023-12-15T1400,3581A,115.31981,38.95208,保定市,满城区生态环境分局,,32,32,46,19,33,51,,42,42,12,22,1,1,0,0.2
2023-12-15T1400,3582A,115.47694,38.76408,保定市,清苑区第二中学,,,,35,,27,52,,50,50,,23,3,3,0.1,0.5
2023-12-15T1400,3583A,115.62909,39.02311,保定市,徐水物探局,,19,19,24,12,21,58,,54,54,11,16,3,2,0.3,0.5
2023-12-15T1400,4004A,115.4202,38.8656,保定市,双鹰农机,,32,32,38,17,28,51,,53,53,19,18,3,2,0.4,0.5
2023-12-15T1400,2594A,99.1678,25.1081,保山市,市环境监测站,,23,,12,5,11,71,,41,41,4,6,5,5,0.3,0.4
2023-12-15T1400,2595A,99.1711,25.1328,保山市,市环保局,,23,16,16,5,14,73,,46,44,2,5,4,4,0.3,0.3
2023-12-15T1400,1866A,109.2262,21.588,北海市,牛尾岭水库,,,,,,,,,,,,,,,,
2023-12-15T1400,1867A,109.1436,21.4086,北海市,海滩公园,,,38,33,7,11,90,,70,70,5,8,6,6,,0.7
2023-12-15T1400,1868A,109.0981,21.4661,北海市,新市环保局,,29,29,28,5,12,74,,65,62,7,9,6,6,0.5,0.5
2023-12-15T1400,1869A,109.1778,21.5233,北海市,北海工业园,,35,35,38,10,18,71,,58,58,4,8,6,7,0.5,0.6
2023-12-15T1400,3400A,109.1911,21.4415,北海市,龙潭自来水厂,,31,31,29,19,16,82,,,,4,7,7,8,0.4,0.5
2023-12-15T1400,1001A,116.3621,39.8784,北京市,万寿西宫,,17,17,23,7,15,53,,46,46,2,8,2,2,0.3,0.4
2023-12-15T1400,1002A,116.2202,40.2915,北京市,定陵,,17,14,36,7,28,53,,48,48,4,15,1,3,0.2,0.5
2023-12-15T1400,1003A,116.4174,39.9289,北京市,东四,,20,19,23,9,16,64,,55,55,4,13,2,2,0.8,0.7
2023-12-15T1400,1004A,116.4072,39.8863,北京市,天坛,,20,20,24,9,17,62,,56,56,6,13,5,5,0.2,0.3
2023-12-15T1400,1005A,116.462,39.9365,北京市,农展馆,,19,19,22,7,15,56,,53,53,8,13,2,3,0.4,0.5
2023-12-15T1400,1006A,116.3392,39.9295,北京市,官园,,20,17,24,0,11,61,,52,52,9,17,4,4,0.4,0.5
2023-12-15T1400,1007A,116.2878,39.9611,北京市,海淀万柳,,19,14,24,7,18,58,,51,51,17,26,3,2,0.2,0.4
2023-12-15T1400,1008A,116.6636,40.135,北京市,顺义新城,,19,16,22,7,13,58,,64,62,2,7,1,2,0.1,0.2
2023-12-15T1400,1009A,116.6275,40.3275,北京市,怀柔镇,,20,12,19,6,12,62,,63,62,2,5,4,2,0.3,0.4
2023-12-15T1400,1010A,116.2296,40.217,北京市,昌平镇,,20,20,36,6,19,55,,50,50,2,9,1,2,0.4,0.6
2023-12-15T1400,1011A,116.3966,39.9821,北京市,奥体中心,,20,17,20,7,15,63,,56,56,4,11,3,3,0.3,0.4
2023-12-15T1400,1012A,116.184,39.9136,北京市,古城,,19,19,36,7,23,59,,51,51,1,13,2,2,0.2,0.4
2023-12-15T1400,3281A,115.9718,40.4529,北京市,延庆夏都,,20,20,36,6,16,62,,54,54,2,6,3,2,0.2,0.3
2023-12-15T1400,3417A,117.0709,40.1465,北京市,平谷新城,,18,13,20,9,16,56,,60,60,8,11,3,2,0.3,0.4
2023-12-15T1400,3418A,116.8336,40.4095,北京市,密云新城,,20,20,21,8,10,64,,72,70,6,6,1,3,0.3,0.3
2023-12-15T1400,3671A,116.088,39.9726,北京市,门头沟三家店,,,,,,,,,,,,,,,,
2023-12-15T1400,3672A,116.1541,39.8204,北京市,丰台云岗,,19,11,19,6,21,59,,52,52,2,15,3,3,0.2,0.4
2023-12-15T1400,3673A,116.6804,39.9081,北京市,通州东关,颗粒物(PM10),51,51,48,9,17,53,,56,55,9,16,3,2,0.3,0.4
2023-12-15T1400,3674A,115.9577,39.7603,北京市,房山燕山,,18,13,39,7,29,57,,47,47,3,17,3,3,0.3,0.5
2023-12-15T1400,3675A,116.4672,39.7733,北京市,大兴旧宫,,19,19,25,9,17,57,,52,52,7,17,3,3,0.1,0.3
2023-12-15T1400,3694A,115.986,40.4563,北京市,延庆石河营,,20,12,21,6,15,62,,54,54,4,11,2,3,0.2,0.4
2023-12-15T1400,3695A,116.6151,40.3053,北京市,怀柔新城,,20,14,18,7,12,61,,60,60,2,5,3,2,0.1,0.2
2023-12-15T1400,3696A,116.2545,39.8768,北京市,丰台小屯,,19,17,29,7,18,60,,51,51,6,18,1,2,0.3,0.4
2023-12-15T1400,3697A,116.84,40.3844,北京市,密云镇,,18,13,14,9,10,56,,65,60,14,14,1,2,0.2,0.3
2023-12-15T1400,1761A,123.8275,41.3064,本溪市,大峪,,49,49,42,32,30,59,,55,55,20,24,7,8,0.7,0.7
2023-12-15T1400,1762A,123.7567,41.3325,本溪市,溪湖,颗粒物(PM10),116,182,103,30,32,65,,57,57,,22,11,14,0.6,0.7
2023-12-15T1400,1763A,123.7169,41.3094,本溪市,彩屯,颗粒物(PM10),232,372,198,30,34,63,,54,54,24,32,11,12,0.7,0.8
2023-12-15T1400,1764A,123.7669,41.2864,本溪市,东明,细颗粒物(PM2.5),55,58,50,39,35,61,,53,53,16,26,8,9,0.8,0.9
2023-12-15T1400,1765A,123.7992,41.2664,本溪市,新立屯,颗粒物(PM10),73,96,85,26,32,60,,55,55,20,24,10,10,0.9,0.9
2023-12-15T1400,1766A,123.8142,41.3472,本溪市,威宁,,,54,54,36,33,58,,55,55,17,25,,5,,0.8
2023-12-15T1400,2587A,105.2864,27.3125,毕节市,八中,细颗粒物(PM2.5),89,86,72,66,49,73,,45,45,11,20,7,8,0.6,0.7
2023-12-15T1400,2588A,105.31,27.2944,毕节市,师专,细颗粒物(PM2.5),87,76,50,64,41,74,,46,46,11,15,6,7,0.5,0.4
2023-12-15T1400,3537A,105.3631,27.3533,毕节市,长征村,细颗粒物(PM2.5),92,73,46,68,37,81,,53,53,9,10,6,7,0.6,0.5
2023-12-15T1400,1629A,118.0018,37.3617,滨州市,第二水厂,,,31,20,19,16,68,,64,64,17,18,8,7,,0.8
2023-12-15T1400,1630A,117.9776,37.393,滨州市,北中新校,,39,30,24,27,18,65,,59,59,11,9,4,6,0.7,0.8
2023-12-15T1400,3514A,117.9378,37.3956,滨州市,中海酒店,,28,19,15,19,21,66,,58,58,8,5,12,10,0.9,0.8
2023-12-15T1400,3515A,117.9378,37.3553,滨州市,开发区一中,,27,27,25,12,18,60,,52,52,18,17,10,9,0.6,0.6
2023-12-15T1400,3516A,118.0917,37.694,滨州市,金海六路,,,,16,48,14,64,,64,64,,14,8,7,,0.5
2023-12-15T1400,4028A,117.9956,37.3753,滨州市,滨州市西街道办事处,,25,22,16,17,16,65,,62,62,12,12,10,8,0.6,0.5
2023-12-15T1400,2311A,115.8072,33.8399,亳州市,污水处理厂,细颗粒物(PM2.5),55,46,27,39,28,45,,43,43,11,15,4,4,0.7,0.7
2023-12-15T1400,2312A,115.7789,33.8518,亳州市,三国揽胜宫,,,,34,,32,44,,41,41,11,16,,5,1.0,1
2023-12-15T1400,3332A,115.7633,33.8034,亳州市,亳州学院,细颗粒物(PM2.5),59,46,30,42,27,45,,42,42,12,15,5,4,0.5,0.6
2023-12-15T1400,2693A,82.0485,44.8556,博尔塔拉蒙古自治州,市党校,颗粒物(PM10),57,64,56,28,26,35,,25,25,8,14,14,19,0.5,0.5
2023-12-15T1400,2694A,82.0806,44.8969,博尔塔拉蒙古自治州,市环保局,颗粒物(PM10),51,51,58,28,20,38,,32,29,16,16,12,9,0.8,0.7
2023-12-15T1400,1071A,116.8842,38.2991,沧州市,沧县城建局,,27,27,52,16,29,67,,62,62,20,25,4,5,0.3,0.5
2023-12-15T1400,1072A,116.8584,38.3254,沧州市,电视转播站,,26,26,32,7,20,65,,59,59,18,23,7,7,0,0.2
2023-12-15T1400,1073A,116.8709,38.3228,沧州市,市环保局,,33,29,29,23,28,68,,62,62,12,17,3,3,0.4,0.6
2023-12-15T1400,3324A,116.8136,38.3004,沧州市,河北水利电力学院,,29,22,23,20,25,59,,55,55,14,18,6,7,0.2,0.6
2023-12-15T1400,2622A,97.1806,31.1273,昌都市,昌都监测站,,37,37,20,17,10,58,,43,43,24,17,10,10,0.8,0.7
2023-12-15T1400,3719A,97.1714,31.1406,昌都市,昌都会议中心,,,34,12,,7,53,,62,53,,9,6,5,0.8,0.3
2023-12-15T1400,2690A,88.1236,43.8886,昌吉州,天山天池,,24,,1,6,2,75,,81,77,5,4,6,5,0.6,0.6
2023-12-15T1400,2692A,87.2717,44.0297,昌吉州,新区政务中心,细颗粒物(PM2.5),149,154,110,114,84,21,,16,16,20,37,4,7,0.8,1
2023-12-15T1400,3613A,87.3095,44.0142,昌吉州,亚心广场,细颗粒物(PM2.5),140,136,100,107,72,,,18,12,14,24,,4,,1.3
2023-12-15T1400,1119A,125.3325,43.9166,长春市,食品厂,,,31,48,22,29,,,51,51,20,23,9,9,0.4,0.5
2023-12-15T1400,1120A,125.2863,43.9027,长春市,客车厂,,28,23,44,19,29,52,,45,45,21,29,21,13,0.3,0.4
2023-12-15T1400,1121A,125.2841,43.8463,长春市,邮电学院,,32,32,55,17,30,60,,51,51,11,20,11,12,0.3,0.4
2023-12-15T1400,1122A,125.3716,43.8772,长春市,劳动公园,,33,33,50,15,30,57,,50,50,16,26,20,14,1.2,1.2
2023-12-15T1400,1123A,125.3297,43.8805,长春市,园林处,,31,31,43,14,25,59,,53,53,17,24,6,6,0.4,0.5
2023-12-15T1400,1124A,125.4605,43.79,长春市,净月潭,,24,24,38,14,24,63,,55,55,10,13,7,7,0.5,0.5
2023-12-15T1400,1125A,125.7194,43.515,长春市,甩湾子,,,,,,,,,,,,,,,,
2023-12-15T1400,1126A,125.3863,43.8447,长春市,经开区环卫处,,36,36,67,15,29,59,,51,50,10,21,11,29,0.3,0.6
2023-12-15T1400,1127A,125.245,43.7783,长春市,高新区管委会,,26,26,52,16,27,51,,43,42,22,26,21,15,0.3,0.4
2023-12-15T1400,1128A,125.1761,43.8325,长春市,岱山公园,,33,33,67,17,31,63,,55,55,14,35,7,16,0.5,0.9
2023-12-15T1400,1335A,113.0833,28.2325,长沙市,经开区环保局,,25,25,21,14,12,27,,16,16,18,26,4,4,0.7,0.7
2023-12-15T1400,1336A,112.8872,28.2189,长沙市,高开区环保局,,28,28,18,14,15,29,,21,21,8,15,4,3,0.8,0.8
2023-12-15T1400,1337A,113.0792,28.2053,长沙市,马坡岭,,21,21,22,12,13,26,,16,16,14,22,6,6,0.7,0.7
2023-12-15T1400,1338A,112.9394,28.19,长沙市,湖南师范大学,,35,25,20,24,14,28,,20,20,14,21,5,4,0.8,0.8
2023-12-15T1400,1339A,113.0178,28.1322,长沙市,雨花区环保局,,28,28,23,15,23,22,,14,14,19,25,1,3,0.8,0.9
2023-12-15T1400,1340A,112.9792,28.2597,长沙市,伍家岭,,35,27,17,24,9,21,,16,16,18,21,5,4,0.9,0.8
2023-12-15T1400,1341A,113.0014,28.1944,长沙市,火车新站,,28,24,22,19,12,23,,17,17,20,24,2,1,0.4,0.4
2023-12-15T1400,1342A,112.9844,28.1178,长沙市,天心区环保局,,29,27,24,20,15,25,,16,16,17,23,4,4,0.5,0.5
2023-12-15T1400,1343A,112.8908,28.1308,长沙市,湖南中医药大学,,26,26,20,13,16,27,,19,19,13,18,1,1,0.9,0.8
2023-12-15T1400,1344A,112.9581,28.3611,长沙市,沙坪,,26,,10,18,6,21,,15,15,8,17,5,4,0.9,0.8
2023-12-15T1400,1727A,113.1147,36.1547,长治市,清华站,颗粒物(PM10),54,58,31,19,21,57,,57,57,11,17,10,11,0.6,0.9
2023-12-15T1400,1728A,113.1031,36.1989,长治市,监测站,颗粒物(PM10),54,57,32,19,24,54,,52,52,14,21,10,10,0.9,1.2
2023-12-15T1400,1730A,113.0886,36.2125,长治市,审计局,,,,32,,24,56,,13,13,8,13,10,8,0.7,0.9
2023-12-15T1400,1731A,113.0844,36.1856,长治市,长治八中,颗粒物(PM10),68,85,37,19,24,56,,57,57,14,20,13,13,0.5,0.7
2023-12-15T1400,2845A,113.1569,36.1911,长治市,德盛苑,颗粒物(PM10),59,68,38,22,24,55,,55,55,11,17,14,14,0.7,0.9
2023-12-15T1400,3568A,113.06,36.0464,长治市,向阳小学,颗粒物(PM10),62,73,49,23,28,68,,69,69,11,20,7,10,0.4,0.8
2023-12-15T1400,3569A,112.8792,36.3144,长治市,屯留一中,,48,48,43,19,38,57,,63,63,16,22,13,13,0.6,1
2023-12-15T1400,3570A,113.235,36.3489,长治市,潞城四中,颗粒物(PM10),57,64,35,28,26,58,,57,57,10,15,6,12,0.6,0.9
2023-12-15T1400,1854A,111.6975,28.9703,常德市,市二中,,39,27,14,27,10,25,,33,29,18,20,6,5,0.9,0.8
2023-12-15T1400,1857A,111.7158,29.1456,常德市,白鹤山,,28,21,15,19,11,20,,26,23,10,14,4,4,0.5,0.4
2023-12-15T1400,3138A,111.7153,29.0289,常德市,武陵区永安,,36,25,14,25,11,18,,27,22,16,19,5,5,0.8,0.7
2023-12-15T1400,3139A,111.6892,28.9881,常德市,鼎城区玉霞,,38,,13,26,11,22,,30,27,15,20,6,6,0.9,1
2023-12-15T1400,3140A,111.6625,29.0531,常德市,武陵区长庚,,26,22,13,18,11,20,,27,23,16,19,4,4,0.8,0.7
2023-12-15T1400,1196A,119.9633,31.762,常州市,市监测站,,,,,,,,,,,,,,,,
2023-12-15T1400,1200A,119.9468,31.7069,常州市,武进监测站,,19,19,75,10,40,12,,8,8,27,55,3,5,0.8,1
2023-12-15T1400,1201A,119.9255,31.9087,常州市,安家,,16,15,66,11,45,17,,9,9,24,50,5,6,0.8,1.1
2023-12-15T1400,3002A,119.9805,31.8174,常州市,行政中心,,16,16,72,11,48,13,,6,6,24,54,4,8,0.6,0.9
2023-12-15T1400,3003A,120.0522,31.7748,常州市,经开区,,13,11,52,9,42,14,,8,8,26,52,5,7,0.7,0.9
2023-12-15T1400,3010A,119.9025,31.7964,常州市,钟楼,,,16,49,15,34,11,,6,6,27,48,6,7,,1.2
2023-12-15T1400,3429A,119.8598,31.7066,常州市,武进经发区,,12,12,60,8,28,14,,10,10,23,49,4,5,1.2,1.3
2023-12-15T1400,3430A,119.5826,31.7245,常州市,金坛城区,,16,,35,11,26,13,,8,8,24,40,6,7,1.0,1.1
2023-12-15T1400,2220A,120.4318,41.5881,朝阳市,西梁,,24,24,41,8,11,72,,69,69,4,6,7,6,0.5,0.6
2023-12-15T1400,2221A,120.4521,41.5646,朝阳市,河畔小区,颗粒物(PM10),164,278,218,13,13,72,,69,69,4,7,3,3,0.5,0.5
2023-12-15T1400,2222A,120.4176,41.5648,朝阳市,八里堡,,20,20,72,8,11,64,,64,64,7,8,8,7,0.6,0.6
2023-12-15T1400,2223A,120.3806,41.5969,朝阳市,农业园区,,22,16,212,11,14,69,,68,68,2,5,3,4,0.5,0.5
2023-12-15T1400,1705A,116.6367,23.6719,潮州市,西园路,,,,67,,53,,,25,,,29,,9,,0.4
2023-12-15T1400,1706A,116.6447,23.6706,潮州市,档案局,,20,20,58,14,46,64,,34,34,7,27,3,6,0.5,0.8
2023-12-15T1400,3026A,116.6183,23.6608,潮州市,市政府,,28,28,63,16,55,66,,36,36,14,35,7,12,0.7,1
2023-12-15T1400,2472A,113.0073,25.9061,郴州市,马头岭,,16,14,22,11,11,22,,36,16,16,14,3,3,1.3,1
2023-12-15T1400,2473A,113.0116,25.8226,郴州市,市职中,,17,17,20,7,13,17,,42,10,18,13,4,5,0.9,0.7
2023-12-15T1400,2474A,113.0161,25.8001,郴州市,兴隆步行街,,19,13,19,13,12,17,,45,11,16,10,4,4,0.9,0.6
2023-12-15T1400,2475A,113.0383,25.8071,郴州市,市审计局,,19,19,21,2,12,17,,42,9,17,14,3,3,0.9,0.7
2023-12-15T1400,2476A,113.0348,25.7759,郴州市,市环保局,,,,18,,9,14,,42,8,20,14,2,3,1.0,0.7
2023-12-15T1400,1431A,103.9728,30.7236,成都市,金泉两河,颗粒物(PM10),103,155,62,23,27,42,,38,38,16,26,3,2,0.4,0.7
2023-12-15T1400,1432A,104.176,30.6872,成都市,十里店,颗粒物(PM10),71,92,52,10,21,55,,47,47,14,22,3,3,0.3,0.5
2023-12-15T1400,1433A,104.079,30.5706,成都市,三瓦窑,颗粒物(PM10),77,103,55,6,14,49,,44,44,12,20,3,2,0.1,0.4
2023-12-15T1400,1434A,104.1114,30.63,成都市,沙河铺,颗粒物(PM10),78,106,55,19,18,49,,43,43,11,20,2,3,0.2,0.5
2023-12-15T1400,1437A,104.0786,30.6531,成都市,君平街,颗粒物(PM10),78,105,57,11,22,53,,45,45,10,21,2,4,0.4,0.5
2023-12-15T1400,1438A,103.613,31.0283,成都市,灵岩寺,,47,47,34,18,22,36,,30,30,18,19,10,10,0.8,0.8
2023-12-15T1400,2880A,104.0239,30.65639,成都市,大石西路,颗粒物(PM10),76,102,55,21,21,54,,47,47,15,22,3,3,0.2,0.5
2023-12-15T1400,3136A,104.2725,30.5589,成都市,龙泉驿区区政府,颗粒物(PM10),68,85,43,14,13,62,,50,50,12,19,3,2,0.4,0.6
2023-12-15T1400,3357A,104.0106,30.6931,成都市,金博路,颗粒物(PM10),72,94,51,24,23,49,,41,41,17,24,3,3,0.3,0.6
2023-12-15T1400,3359A,104.0578,30.5225,成都市,华阳,颗粒物(PM10),80,110,47,17,20,48,,42,42,9,17,3,2,0.1,0.4
2023-12-15T1400,3487A,104.2394,30.5319,成都市,车城东七路,颗粒物(PM10),56,62,33,12,15,60,,45,45,10,22,3,1,0.4,0.7
2023-12-15T1400,3488A,104.3853,30.7453,成都市,青白江技师分院,颗粒物(PM10),59,68,41,14,16,61,,59,59,9,16,3,2,0.4,0.7
2023-12-15T1400,3489A,104.0789,30.4072,成都市,科学城,颗粒物(PM10),52,54,34,10,19,58,,50,50,3,16,1,1,0.4,0.6
2023-12-15T1400,4011A,103.8506,30.6947,成都市,光华大道三段,颗粒物(PM10),62,73,48,12,19,45,,38,38,18,32,3,2,0.1,0.4
2023-12-15T1400,1062A,117.9531,40.9081,承德市,铁路,,23,21,18,3,10,71,,59,59,5,15,6,6,0.2,0.3
2023-12-15T1400,1063A,117.9392,40.9763,承德市,中国银行,,24,5,20,2,9,75,,65,65,5,10,5,5,0.3,0.3
2023-12-15T1400,1064A,117.9503,40.928,承德市,开发区,,24,17,25,15,18,76,,68,68,4,11,4,4,0.2,0.3
2023-12-15T1400,1065A,117.8051,40.9655,承德市,文化中心,,25,15,25,2,7,78,,68,68,6,12,3,3,0.2,0.3
2023-12-15T1400,1066A,117.9268,41.0026,承德市,离宫,,24,,14,12,21,74,,67,67,3,7,2,2,0.2,0.3
2023-12-15T1400,2314A,117.47,30.6618,池州市,池州学院,,,,57,,38,,,12,,,44,,6,,0.9
2023-12-15T1400,3237A,117.4918,30.6617,池州市,展览馆,,15,15,24,10,16,32,,22,22,11,26,4,5,0.6,0.9
2023-12-15T1400,3333A,117.5627,30.695,池州市,第八中学,,10,10,16,7,11,29,,18,18,16,29,2,2,0.8,1
2023-12-15T1400,3334A,117.5038,30.6243,池州市,第十二中学,,15,11,20,10,14,33,,21,21,14,30,3,4,0.7,0.9
2023-12-15T1400,1744A,118.9233,42.2816,赤峰市,松山一中,,,,43,,6,73,,72,69,,14,8,8,0.5,0.6
2023-12-15T1400,1745A,118.9576,42.2728,赤峰市,哈达街,,22,14,38,8,12,69,,69,63,14,14,14,15,0.5,0.5
2023-12-15T1400,1746A,118.8788,42.2554,赤峰市,天义路,,24,14,103,7,12,76,,72,68,10,12,8,8,0.5,0.6
2023-12-15T1400,3058A,119.2658,42.0353,赤峰市,银河街,,43,,106,30,18,63,,65,63,15,11,15,14,0.7,0.7
2023-12-15T1400,3286A,118.9359,42.3147,赤峰市,桥北物流园区,,25,,17,7,11,80,,77,76,10,11,11,11,0.3,0.5
2023-12-15T1400,2521A,107.3476,22.4136,崇左市,市环保局江州分局,,24,24,42,12,18,65,,36,36,3,18,7,6,0.3,0.5
2023-12-15T1400,2522A,107.3702,22.3707,崇左市,城南新区,,29,25,30,20,21,66,,41,41,4,17,7,6,0.3,0.4
2023-12-15T1400,2298A,118.3093,32.3153,滁州市,老年大学,,46,34,22,32,19,24,,20,20,18,29,8,8,0.8,0.9
2023-12-15T1400,2299A,118.3244,32.2786,滁州市,人大宾馆,,46,37,22,32,17,23,,19,19,13,26,5,5,0.7,0.8
2023-12-15T1400,3207A,118.3118,32.3038,滁州市,市政府原办公楼,,45,,21,31,19,22,,19,19,22,31,4,5,0.7,0.8
2023-12-15T1400,3331A,118.3267,32.2634,滁州市,图书馆,,37,37,25,22,16,24,,20,20,18,30,7,7,0.8,0.9
2023-12-15T1400,2605A,101.5482,25.0441,楚雄州,州环境监测站,,22,18,22,5,14,69,,25,25,3,20,7,18,0.4,0.6
2023-12-15T1400,2606A,101.538,25.0492,楚雄州,市经济开发区,,21,,24,6,15,66,,25,25,5,19,5,8,0.4,0.6
2023-12-15T1400,2548A,107.5277,31.2827,达州市,达州职业技术学院,,,35,16,10,8,,,31,31,12,16,2,4,0.3,0.5
2023-12-15T1400,2549A,107.5086,31.2186,达州市,市环境监测站,,23,23,24,5,5,43,,26,26,14,20,5,8,0.4,0.6
2023-12-15T1400,2550A,107.4988,31.2132,达州市,凤凰小区,,22,22,17,7,7,45,,31,31,16,19,6,9,0.2,0.4
2023-12-15T1400,2551A,107.5082,31.1986,达州市,达县机关宾馆,,24,24,21,8,8,39,,24,24,17,24,4,7,0.4,0.6
2023-12-15T1400,2552A,107.4644,31.2124,达州市,市政中心,,31,31,28,9,7,43,,25,25,15,22,4,7,0.4,0.7
2023-12-15T1400,2614A,100.1542,25.7054,大理州,大理市环境监测站,,24,13,15,13,14,76,,62,58,5,6,5,5,0.3,0.4
2023-12-15T1400,2615A,100.2171,25.5811,大理州,大理古城,,,,10,1,7,81,,61,60,5,6,6,6,0.5,0.4
2023-12-15T1400,1109A,121.612,38.9741,大连市,甘井子,颗粒物(PM10),59,68,87,11,32,73,,66,66,10,24,4,6,0.6,0.7
2023-12-15T1400,1110A,121.565,38.9511,大连市,周水子,颗粒物(PM10),56,62,73,14,37,64,,59,59,9,18,7,8,0.9,1.1
2023-12-15T1400,1111A,121.5637,38.8845,大连市,星海三站,颗粒物(PM10),67,83,87,14,35,65,,59,59,11,23,9,10,0.4,0.7
2023-12-15T1400,1112A,121.6302,38.9117,大连市,青泥洼桥,,31,31,60,12,37,65,,57,57,7,24,7,9,0.6,0.9
2023-12-15T1400,1113A,121.6251,38.8638,大连市,傅家庄,颗粒物(PM10),51,51,63,12,34,68,,61,61,11,27,8,10,0.4,0.7
2023-12-15T1400,1114A,121.5213,38.8661,大连市,七贤岭,颗粒物(PM10),54,57,72,12,33,72,,66,66,7,20,10,14,0.6,1
2023-12-15T1400,1115A,121.2529,38.8061,大连市,旅顺,颗粒物(PM10),62,74,74,10,29,73,,67,67,6,14,7,7,0.7,1
2023-12-15T1400,1116A,121.7485,39.1311,大连市,金州,,50,50,75,13,38,72,,66,66,6,20,4,6,0.6,0.8
2023-12-15T1400,1117A,121.7811,39.0496,大连市,开发区,,,63,71,13,37,65,,59,59,11,25,7,8,,0.6
2023-12-15T1400,1118A,121.9762,39.0631,大连市,双D港,,50,50,64,13,37,69,,62,62,9,21,8,9,0.6,0.8
2023-12-15T1400,1789A,124.81117,46.03138,大庆市,大同区,,32,27,33,22,22,52,,51,46,12,14,8,10,0.4,0.4
2023-12-15T1400,1790A,125.129,46.533,大庆市,龙凤区,,25,23,29,17,19,54,,48,44,15,19,11,16,0.4,0.4
2023-12-15T1400,1791A,124.902,46.408,大庆市,红岗区,,31,31,26,12,20,56,,53,46,11,18,8,9,0.2,0.2
2023-12-15T1400,1792A,125.153,46.586,大庆市,萨尔图区,,23,19,22,16,19,57,,53,48,7,8,6,6,0.2,0.3
2023-12-15T1400,1793A,124.9042,46.6215,大庆市,让胡路区,,,29,28,7,17,,,45,40,11,17,4,5,0.4,0.4
2023-12-15T1400,3481A,125.141,46.634,大庆市,萨区政府监测点,,18,18,27,12,20,57,,52,47,5,8,8,8,0.3,0.3
2023-12-15T1400,1721A,113.3819,40.1097,大同市,果树场,,,,,,,,,,,,,,,,
2023-12-15T1400,1723A,113.2994,40.0758,大同市,云冈宾馆,,25,25,39,4,19,69,,64,64,6,16,8,9,0.3,0.6
2023-12-15T1400,1724A,113.3444,40.0917,大同市,大同大学,,32,32,70,14,22,73,,67,67,7,16,8,9,0.1,0.4
2023-12-15T1400,1725A,113.2661,40.1269,大同市,安家小村,,24,20,73,5,18,74,,68,68,5,7,8,10,0.4,0.6
2023-12-15T1400,1726A,113.2711,40.0844,大同市,教育学院,,21,19,55,9,21,65,,61,61,9,17,6,7,0.3,0.5
2023-12-15T1400,3282A,113.3397,40.0597,大同市,大同市卫生学校,,,,46,,24,64,,61,61,8,18,6,7,0.3,0.8
2023-12-15T1400,3565A,113.1367,40.1122,大同市,云冈站,,25,14,44,6,26,77,,68,68,1,11,11,13,0.3,0.6
2023-12-15T1400,3566A,113.1186,40.2556,大同市,图书馆,,24,24,46,9,24,73,,65,65,7,18,8,12,0.4,0.8
2023-12-15T1400,3567A,113.5931,40.0461,大同市,区一中,,26,26,51,11,25,69,,70,70,1,11,10,7,0.9,0.9
2023-12-15T1400,3676A,113.2802,40.0995,大同市,第二人民医院,,29,29,64,6,20,66,,62,62,4,12,7,8,0.3,0.5
2023-12-15T1400,2269A,124.1069,50.4097,大兴安岭地区,科技局,,19,12,14,11,16,60,,55,55,4,5,3,3,0.4,0.4
2023-12-15T1400,3663A,124.1164,50.4278,大兴安岭地区,红旗社区,,20,,9,6,8,63,,60,60,6,8,1,2,0.4,0.4
2023-12-15T1400,1600A,124.3303,40.0625,丹东市,江湾东路,,,31,44,24,38,54,,41,41,,33,13,14,,1
2023-12-15T1400,1601A,124.4256,40.1503,丹东市,临江后街,,37,37,47,16,33,62,,46,46,13,25,10,13,0.6,1
2023-12-15T1400,1602A,124.3933,40.1461,丹东市,元宝山,,24,24,46,16,39,55,,42,42,17,30,11,12,0.6,0.9
2023-12-15T1400,1603A,124.3633,40.1092,丹东市,民主桥,,50,50,53,19,32,51,,41,41,20,28,11,12,0.7,0.9
2023-12-15T1400,3541A,109.5726,19.5167,儋州市,第一中学子站,,17,11,16,7,6,54,,41,41,1,4,4,4,0.7,0.7
2023-12-15T1400,3542A,109.5567,19.5187,儋州市,东坡学校子站,,,,9,6,5,58,,43,43,2,4,3,4,0.5,0.5
2023-12-15T1400,2616A,98.5842,24.428,德宏州,德宏州监测站,,31,31,32,12,23,59,,19,19,12,18,17,15,0.5,0.5
2023-12-15T1400,3677A,98.5881,24.4368,德宏州,芒市人民政府综合楼,,37,37,37,24,22,64,,20,20,11,17,13,13,0.5,0.6
2023-12-15T1400,1901A,104.4239,31.1208,德阳市,东山公园,颗粒物(PM10),98,145,68,16,16,62,,58,58,6,13,3,2,0.2,0.5
2023-12-15T1400,1902A,104.3826,31.1317,德阳市,西小区,颗粒物(PM10),90,129,63,16,20,54,,50,50,10,15,3,3,0.3,0.6
2023-12-15T1400,1904A,104.3553,31.1091,德阳市,耐火材料厂,颗粒物(PM10),90,129,72,18,22,48,,48,48,14,15,3,2,0.3,0.5
2023-12-15T1400,3639A,104.4019,31.1244,德阳市,市教育局,颗粒物(PM10),82,113,55,21,18,55,,49,49,12,18,3,2,0.2,0.4
2023-12-15T1400,1622A,116.3032,37.4674,德州市,儿童乐园,,34,34,31,19,26,61,,52,52,8,14,8,9,0.6,0.8
2023-12-15T1400,1624A,116.2991,37.4451,德州市,监理站,,,25,26,19,24,,,57,57,10,17,8,9,0.6,0.8
2023-12-15T1400,3066A,116.2721,37.4379,德州市,九衢泉纯净水厂,,32,30,31,22,27,65,,56,56,12,17,6,6,0.7,0.9
2023-12-15T1400,3371A,116.3728,37.4403,德州市,开发区人民医院,,35,34,34,24,26,64,,56,56,11,20,6,6,0.7,0.9
2023-12-15T1400,3372A,116.3572,37.4094,德州市,太阳城中学,,40,33,33,28,30,64,,56,56,9,18,5,7,0.6,0.9
2023-12-15T1400,3511A,116.5652,37.3319,德州市,陵城艺术中心,,,36,29,12,21,,,62,62,,19,,4,,0.8
2023-12-15T1400,2621A,99.7056,27.8317,迪庆州,迪庆州站,,30,30,23,21,14,90,,61,61,14,11,9,9,0.5,0.5
2023-12-15T1400,3180A,99.7136,27.8094,迪庆州,质量技术监督局,,48,44,22,33,17,100,,61,61,15,11,7,7,0.8,0.6
2023-12-15T1400,2663A,104.6241,35.5734,定西市,东关小学,,46,46,112,12,21,81,,69,69,2,6,5,14,0.2,0.3
2023-12-15T1400,2664A,104.6194,35.5934,定西市,供电公司,,46,46,94,14,26,87,,79,79,2,5,3,3,0.3,0.3
2023-12-15T1400,1389A,113.7547,23.0494,东莞市,莞城梨川,臭氧1小时,73,30,68,16,37,178,,79,79,24,49,6,7,0.6,0.9
2023-12-15T1400,1390A,113.7944,23.0128,东莞市,东城石井,,50,25,47,18,29,160,,68,68,20,34,8,8,0.6,0.8
2023-12-15T1400,1391A,113.7383,22.9658,东莞市,南城西平,,43,26,65,12,33,137,,62,62,22,63,7,8,0.7,0.9
2023-12-15T1400,3319A,113.7338,23.0381,东莞市,万江金泰,臭氧1小时,87,46,75,26,43,189,,77,77,25,47,10,10,0.8,1
2023-12-15T1400,3626A,113.7533,23.0202,东莞市,南城元岭,臭氧1小时,79,34,69,18,34,183,,77,77,18,54,7,7,0.7,0.9
2023-12-15T1400,3627A,113.7875,23.0457,东莞市,东城主山,臭氧1小时,64,36,63,17,32,171,,74,74,20,49,8,9,0.6,0.8
2023-12-15T1400,1666A,118.6614,37.4309,东营市,市环保局,,24,22,11,14,9,74,,72,72,10,11,6,5,0.5,0.4
2023-12-15T1400,3036A,118.6904,37.4338,东营市,开发区管委会,,29,29,17,14,11,76,,74,74,11,10,3,2,0.7,0.6
2023-12-15T1400,3365A,118.5719,37.565,东营市,垦利区民丰路,,29,29,12,9,8,70,,71,70,12,11,8,6,0.8,0.5
2023-12-15T1400,3498A,118.5055,37.8612,东营市,河口城区,,23,22,16,9,11,73,,71,69,11,10,1,2,0.5,0.6
2023-12-15T1400,3646A,118.4978,37.4623,东营市,胜利站,,,45,22,12,11,72,,72,70,13,12,8,7,,0.7
2023-12-15T1400,3734A,118.35,37.26,东营市,理想之城,,25,24,15,17,11,72,,70,70,9,8,4,3,0.5,0.3
2023-12-15T1400,1591A,110.0023,39.8129,鄂尔多斯市,综合楼,,,,33,,9,67,,66,66,7,9,6,5,0.3,0.4
2023-12-15T1400,1592A,109.9486,39.8261,鄂尔多斯市,巴音孟克林场办事处,,24,24,32,9,13,66,,66,66,5,5,6,6,0.4,0.4
2023-12-15T1400,1593A,109.7736,39.5986,鄂尔多斯市,康泽苑,,29,29,27,4,6,66,,62,61,9,9,6,6,0.5,0.5
2023-12-15T1400,1594A,109.8119,39.5989,鄂尔多斯市,华泰汽车城,,24,24,31,9,14,73,,69,69,5,5,8,7,0.4,0.4
2023-12-15T1400,1595A,109.9734,39.7884,鄂尔多斯市,奥林花园,,29,29,34,5,10,63,,67,67,16,7,12,5,0.6,0.5
2023-12-15T1400,2436A,114.8938,30.3994,鄂州市,市政府,,38,27,15,26,7,38,,35,35,14,21,6,5,0.7,0.8
2023-12-15T1400,2437A,114.8989,30.3714,鄂州市,赵家坝,,46,,16,32,7,41,,37,37,14,23,4,4,0.9,0.8
2023-12-15T1400,3654A,114.8094,30.4089,鄂州市,精准医疗中心,,36,36,21,23,7,39,,38,38,10,18,6,6,0.8,0.8
2023-12-15T1400,2499A,108.3411,21.6158,防城港市,沙万,,41,41,48,11,17,60,,33,33,13,28,4,9,0.5,0.7
2023-12-15T1400,2500A,108.3514,21.7731,防城港市,防城档案局,,42,42,35,12,17,60,,41,34,16,19,9,5,0.5,0.5
2023-12-15T1400,2501A,108.3506,21.6414,防城港市,大海花园,,37,37,36,14,14,67,,48,46,12,19,5,6,0.3,0.5
2023-12-15T1400,1371A,113.1294,23.0067,佛山市,湾梁,臭氧1小时,98,78,119,31,51,198,,62,62,32,89,8,8,0.7,1
2023-12-15T1400,1372A,113.1083,23.0478,佛山市,华材职中,臭氧1小时,62,53,102,26,58,169,,59,59,28,82,8,7,0.5,0.9
2023-12-15T1400,1373A,113.144,23.0453,佛山市,南海气象局,臭氧1小时,98,70,100,39,58,198,,59,59,43,88,6,6,0.8,1.1
2023-12-15T1400,1374A,113.2881,22.8094,佛山市,顺德苏岗,臭氧1小时,111,72,73,41,49,222,,64,64,30,65,9,9,0.7,1
2023-12-15T1400,1376A,112.8383,22.8678,佛山市,高明孔堂,,40,40,114,18,58,126,,55,55,20,71,6,9,0.6,1
2023-12-15T1400,1377A,112.8836,23.1588,佛山市,三水监测站,颗粒物(PM10),57,63,132,39,77,162,,52,52,32,90,5,9,0.7,1.2
2023-12-15T1400,1378A,112.867,23.185,佛山市,三水云东海,细颗粒物(PM2.5),69,82,105,50,83,163,,51,51,44,65,9,8,0.6,1
2023-12-15T1400,3625A,113.2544,22.7642,佛山市,容桂街道办,臭氧1小时,88,66,87,31,46,190,,65,65,30,73,4,4,0.6,0.9
2023-12-15T1400,1280A,119.3903,26.0543,福州市,鼓山,,,,,,,,,,,,,,,,
2023-12-15T1400,1282A,119.2681,26.0504,福州市,师大,,46,46,39,23,23,70,,30,30,22,30,6,6,0.7,0.7
2023-12-15T1400,1283A,119.2984,26.1028,福州市,五四北路,细颗粒物(PM2.5),57,41,40,40,26,77,,31,31,29,37,3,3,0.7,0.6
2023-12-15T1400,1284A,119.2648,26.0768,福州市,杨桥西路,,40,40,40,25,21,70,,30,30,18,31,4,4,0.6,0.6
2023-12-15T1400,1285A,119.317,26.0746,福州市,紫阳,,44,44,40,24,23,63,,28,28,28,38,6,6,0.8,0.8
2023-12-15T1400,3048A,119.5799,26.0936,福州市,九龙,,39,39,28,19,20,102,,41,41,17,21,5,4,0.6,0.5
2023-12-15T1400,3526A,119.5189,25.9664,福州市,吴航,,28,28,43,18,28,86,,35,35,18,28,4,4,0.5,0.7
2023-12-15T1400,1755A,123.7977,41.8491,抚顺市,望花区,,41,41,63,21,29,66,,57,57,6,18,4,6,0.4,0.6
2023-12-15T1400,1756A,123.9161,41.8822,抚顺市,顺城区,,,46,54,31,24,69,,68,65,,11,,4,0.6,0.5
2023-12-15T1400,1757A,124.0436,41.8611,抚顺市,东洲区,,,51,39,25,22,70,,70,69,,10,8,7,0.5,0.4
2023-12-15T1400,1758A,123.9247,41.8642,抚顺市,新抚区,,46,46,39,32,26,70,,68,65,8,10,7,7,0.5,0.4
2023-12-15T1400,1759A,124.0972,41.8961,抚顺市,大伙房水库,,44,44,93,20,21,66,,68,67,6,5,8,7,0.6,0.5
2023-12-15T1400,1760A,123.7086,41.8391,抚顺市,沈抚新城,,33,33,67,20,28,74,,67,67,5,16,5,7,0.2,0.4
2023-12-15T1400,2376A,116.2127,28.0814,抚州市,桐源党溪,,20,20,23,6,10,15,,8,8,17,17,3,4,1.3,1.1
2023-12-15T1400,2377A,116.3544,27.9831,抚州市,市站,,16,16,34,9,15,15,,17,8,20,25,2,4,1.5,1
2023-12-15T1400,2378A,116.3565,27.963,抚州市,血防站,,16,16,31,5,15,16,,21,10,18,23,4,4,1.0,0.8
2023-12-15T1400,2379A,116.3564,28.0007,抚州市,采茶剧团,,12,12,25,2,9,16,,16,8,19,24,2,3,0.8,0.7
2023-12-15T1400,2380A,116.385,27.9647,抚州市,医学分院,,19,19,30,8,14,15,,18,9,17,21,4,6,1.0,0.9
2023-12-15T1400,2207A,121.6094,41.998,阜新市,工业园区,,36,36,79,11,12,67,,65,65,9,11,6,6,0.4,0.5
2023-12-15T1400,2208A,121.6697,42.0279,阜新市,长青街,,32,32,40,5,10,64,,63,62,5,8,6,6,0.4,0.5
2023-12-15T1400,2209A,121.6673,42.0705,阜新市,农业园区,颗粒物(PM10),53,55,61,7,14,62,,62,60,7,9,7,7,0.3,0.3
2023-12-15T1400,2210A,121.6717,42.0224,阜新市,东苑,,,43,134,10,13,65,,64,64,,10,7,8,0.5,0.6
2023-12-15T1400,2211A,121.6506,42.0498,阜新市,玉龙新城,,36,36,72,8,9,66,,66,66,8,10,6,6,0.5,0.5
2023-12-15T1400,2301A,115.8277,32.8929,阜阳市,市监测站,,,,27,42,27,45,,39,39,,21,5,4,0.5,0.7
2023-12-15T1400,2303A,115.8554,32.8605,阜阳市,开发区,,46,43,32,32,23,48,,41,41,15,21,6,6,0.6,0.7
2023-12-15T1400,2875A,115.784,32.8892,阜阳市,阜阳职业技术学院,,45,34,32,31,28,49,,43,43,9,15,4,3,0.5,0.7
2023-12-15T1400,3468A,115.7901,32.8613,阜阳市,市规划展馆,,48,48,29,31,24,49,,42,42,12,18,3,4,0.7,0.8
2023-12-15T1400,3469A,115.836,32.9183,阜阳市,枣园社区,颗粒物(PM10),51,51,29,32,22,49,,43,43,17,23,3,3,0.5,0.7
2023-12-15T1400,2669A,102.9099,34.9841,甘南州,州政府,颗粒物(PM10),101,151,95,34,33,85,,54,54,2,11,4,5,0.2,0.5
2023-12-15T1400,3380A,102.8914,34.9617,甘南州,甘肃民族师范学院,颗粒物(PM10),92,133,79,31,29,87,,53,53,3,13,3,8,0.5,0.7
2023-12-15T1400,2570A,101.9603,30.0475,甘孜藏族自治州,水桥子,,24,21,23,8,14,74,,47,38,7,23,10,10,0.3,0.3
2023-12-15T1400,3065A,101.9533,29.9972,甘孜藏族自治州,州环保局,,33,33,26,7,7,71,,65,58,10,16,9,8,0.3,0.3
2023-12-15T1400,3414A,115.8347,28.932,赣江新区,桑海产业园,,10,5,42,0,22,30,,17,17,14,37,4,6,0.7,0.8
2023-12-15T1400,2362A,114.9017,25.9149,赣州市,通天岩,,,,,,,,,,,,,,,,
2023-12-15T1400,2363A,114.9367,25.8664,赣州市,地委,,36,36,30,12,17,73,,31,31,8,18,15,14,0.9,0.9
2023-12-15T1400,2364A,114.9461,25.8481,赣州市,气象台,,30,30,24,10,17,83,,41,39,2,16,7,9,1.0,1.1
2023-12-15T1400,2365A,114.9322,25.8333,赣州市,市图书馆,,26,18,25,13,12,81,,40,38,10,19,10,11,0.8,0.9
2023-12-15T1400,2366A,114.8905,25.8471,赣州市,华坚鞋城,,,28,31,13,13,,,31,31,8,18,10,8,0.7,0.9
2023-12-15T1400,3109A,115.0093,25.8613,赣州市,赣县区卫计委,,21,20,32,10,16,67,,35,32,13,22,9,9,0.8,0.9
2023-12-15T1400,2683A,106.2319,36.1417,固原市,马园,颗粒物(PM10),75,100,157,11,12,83,,76,76,5,7,4,4,0.2,0.2
2023-12-15T1400,2684A,106.2792,36.0022,固原市,监测站,,49,49,107,3,8,82,,77,77,9,9,3,3,0.4,0.3
2023-12-15T1400,2685A,106.2375,36.0211,固原市,新区,颗粒物(PM10),53,55,124,4,9,82,,76,76,2,4,2,2,0.3,0.3
2023-12-15T1400,3522A,106.2177,35.9959,固原市,原州区十五小,颗粒物(PM10),69,87,102,7,11,85,,79,79,3,5,3,3,0.1,0.1
2023-12-15T1400,2543A,106.6308,30.5278,广安市,小平旧居,,,,,,,,,,,,,,,,
2023-12-15T1400,2544A,106.6303,30.4576,广安市,市委,,43,43,34,15,23,48,,35,35,9,15,7,8,0.6,0.7
2023-12-15T1400,2545A,106.6271,30.4663,广安市,友谊中学,,40,40,35,15,24,45,,33,33,12,19,6,11,0.6,0.8
2023-12-15T1400,2547A,106.6388,30.4551,广安市,广电花园,,45,45,32,19,24,49,,34,34,12,17,7,8,0.5,0.7
2023-12-15T1400,2902A,106.6351,30.4865,广安市,北辰小学,颗粒物(PM10),52,53,35,16,22,46,,32,32,11,17,4,5,0.6,0.7
2023-12-15T1400,2523A,105.8945,32.4535,广元市,黑石坡,颗粒物(PM10),84,118,55,17,18,81,,76,76,4,8,5,5,0.3,0.4
2023-12-15T1400,2524A,105.821,32.4444,广元市,老城,颗粒物(PM10),121,192,82,11,15,69,,64,64,,7,3,2,0.1,0.4
2023-12-15T1400,2526A,105.8628,32.4287,广元市,监测站,颗粒物(PM10),89,127,70,6,19,72,,67,67,5,8,1,2,0.3,0.5
2023-12-15T1400,3617A,105.8047,32.4166,广元市,经开区,颗粒物(PM10),76,102,81,7,14,70,,65,65,4,8,3,2,0.3,0.5
2023-12-15T1400,1345A,113.2347,23.1423,广州市,广雅中学,颗粒物(PM10),57,64,101,32,55,122,,40,40,55,87,5,6,0.8,1.2
2023-12-15T1400,1346A,113.2612,23.105,广州市,市五中,,50,50,93,20,54,128,,46,46,45,82,8,9,0.8,1.3
2023-12-15T1400,1348A,113.3478,23.0916,广州市,广东商学院,,34,34,88,18,49,107,,36,36,40,81,6,7,0.6,1
2023-12-15T1400,1349A,113.4332,23.1047,广州市,市八十六中,,46,46,91,26,44,80,,36,36,51,97,6,8,0.8,1.1
2023-12-15T1400,1350A,113.3505,22.9483,广州市,番禺中学,,,33,71,19,42,135,,47,47,,83,7,7,0.6,1
2023-12-15T1400,1351A,113.2146,23.3916,广州市,花都师范,颗粒物(PM10),70,90,93,46,40,122,,41,41,71,75,6,7,0.9,1
2023-12-15T1400,1352A,113.2597,23.1331,广州市,市监测站,颗粒物(PM10),52,53,99,25,51,126,,42,42,57,94,5,6,0.7,1.1
2023-12-15T1400,1353A,113.5618,23.312,广州市,九龙镇镇龙,,50,50,89,24,45,120,,42,42,35,56,7,6,0.7,0.9
2023-12-15T1400,1354A,113.2765,23.1544,广州市,麓湖,,41,41,75,20,46,118,,40,40,39,63,5,5,0.7,1.1
2023-12-15T1400,1355A,113.443,23.3035,广州市,帽峰山森林公园,,42,42,74,22,35,123,,51,51,34,41,9,8,0.5,0.6
2023-12-15T1400,2846A,113.3221,23.1322,广州市,体育西,,,,89,,48,,,11,,,85,,9,,1.1
2023-12-15T1400,3298A,113.5717,23.5491,广州市,从化街口,,,39,78,25,51,134,,51,51,16,37,,8,0.7,1
2023-12-15T1400,3299A,113.3472,23.3692,广州市,白云竹料,,,105,121,58,67,109,,36,36,76,75,7,7,,1.1
2023-12-15T1400,3300A,113.2981,23.237,广州市,白云嘉禾,颗粒物(PM10),52,53,111,30,66,103,,41,41,55,86,8,9,0.8,1.3
2023-12-15T1400,3301A,113.4256,23.1716,广州市,黄埔科学城,,44,44,96,30,64,90,,40,40,41,73,6,7,0.6,1
2023-12-15T1400,3302A,113.3942,23.0483,广州市,番禺大学城,,49,49,90,14,39,98,,38,38,38,76,8,9,0.6,0.9
2023-12-15T1400,3303A,113.4922,22.8168,广州市,南沙黄阁,,,,66,,31,74,,32,32,,72,4,6,0.7,1
2023-12-15T1400,3304A,113.5342,22.7896,广州市,南沙街,,44,44,53,9,24,70,,41,41,24,62,6,6,0.5,0.7
2023-12-15T1400,3443A,113.2902,23.5544,广州市,花都梯面,"颗粒物(PM10),细颗粒物(PM2.5)",72,94,89,52,53,124,,45,45,58,48,5,5,0.8,0.9
2023-12-15T1400,3445A,113.7858,23.7478,广州市,从化良口,,30,21,28,17,20,96,,47,47,8,20,5,5,0.6,0.7
2023-12-15T1400,3446A,113.8051,23.2614,广州市,增城荔城,臭氧1小时,124,82,68,51,44,248,,94,94,24,29,8,7,0.6,0.7
2023-12-15T1400,2505A,109.568,23.1478,贵港市,德智高中,颗粒物(PM10),62,74,55,26,32,53,,24,24,28,37,8,8,0.7,0.7
2023-12-15T1400,2506A,109.6047,23.0666,贵港市,江南子站,,49,44,63,34,32,68,,33,33,11,24,8,9,0.6,0.8
2023-12-15T1400,2507A,109.6014,23.0948,贵港市,贵城子站,,40,40,51,25,31,57,,22,22,13,27,8,9,0.4,0.6
2023-12-15T1400,2508A,109.5669,23.1065,贵港市,荷城子站,,41,41,45,17,23,57,,26,26,13,23,11,10,0.6,0.7
2023-12-15T1400,3405A,109.5886,23.1172,贵港市,新世纪学校,,41,41,54,23,30,61,,24,24,22,32,14,11,0.6,0.8
2023-12-15T1400,1439A,106.6899,26.5998,贵阳市,马鞍山,,,,25,,16,,,59,,,12,,6,,0.4
2023-12-15T1400,1440A,106.6971,26.5694,贵阳市,市环保站,,27,27,29,15,22,77,,49,44,19,22,7,7,0.3,0.3
2023-12-15T1400,1441A,106.6243,26.6266,贵阳市,鉴湖路,,34,34,32,12,16,75,,56,51,8,9,6,5,0.3,0.4
2023-12-15T1400,1442A,106.7487,26.6343,贵阳市,燕子冲,,42,34,29,29,20,74,,52,46,11,13,9,9,0.4,0.4
2023-12-15T1400,1443A,106.6555,26.4365,贵阳市,碧云窝,,29,29,31,5,12,82,,56,56,4,8,5,6,0.4,0.4
2023-12-15T1400,1444A,106.694,26.5161,贵阳市,中院村,,22,22,31,7,19,68,,43,38,9,17,6,9,0.6,0.5
2023-12-15T1400,1445A,106.7109,26.6027,贵阳市,红边门,,,,37,,24,69,,41,32,15,22,,5,0.3,0.4
2023-12-15T1400,1446A,106.7164,26.5699,贵阳市,新华路,,32,,29,22,22,73,,52,47,14,16,8,8,0.5,0.3
2023-12-15T1400,1447A,106.674,26.5424,贵阳市,太慈桥,,25,22,21,9,12,78,,46,42,7,14,4,5,0.1,0.2
2023-12-15T1400,1552A,106.805,26.3003,贵阳市,桐木岭,,,,,,,,,,,,,,,,
2023-12-15T1400,1862A,110.4144,25.3167,桂林市,电子科大尧山校区,,25,,42,17,31,26,,31,31,13,12,6,9,0.9,0.8
2023-12-15T1400,1863A,110.2819,25.2697,桂林市,监测站,颗粒物(PM10),51,52,71,33,55,18,,24,22,16,29,12,13,0.7,1.1
2023-12-15T1400,1864A,110.3089,25.2708,桂林市,龙隐路小学,细颗粒物(PM2.5),53,45,62,37,58,18,,26,24,16,29,12,13,0.6,0.8
2023-12-15T1400,1865A,110.2869,25.2178,桂林市,八中,,49,49,62,25,46,18,,18,18,16,32,10,9,0.6,0.8
2023-12-15T1400,3403A,110.1764,25.2381,桂林市,创业大厦,,46,46,43,29,38,22,,36,35,19,27,8,8,0.5,0.5
2023-12-15T1400,3531A,110.296,25.1253,桂林市,旅游学院,,,36,44,24,38,,,,,15,23,8,10,0.7,0.8
2023-12-15T1400,2674A,100.2561,34.4714,果洛藏族自治州,玛沁县大武镇,颗粒物(PM10),85,120,255,30,42,96,,91,91,6,6,10,10,0.2,0.4
2023-12-15T1400,1129A,126.5422,45.755,哈尔滨市,岭北,,23,17,49,14,43,73,,61,61,11,21,37,28,0,0.1
2023-12-15T1400,1130A,126.561,45.8167,哈尔滨市,松北商大,,24,24,57,16,43,64,,55,55,13,27,5,11,0.4,0.6
2023-12-15T1400,1131A,126.979,45.5419,哈尔滨市,阿城会宁,,,32,58,16,49,63,,54,54,11,24,,10,0.2,0.8
2023-12-15T1400,1132A,126.599,45.7222,哈尔滨市,南岗学府路,,,30,54,,33,,,47,47,12,35,7,18,0.5,0.7
2023-12-15T1400,1133A,126.689,45.7733,哈尔滨市,太平宏伟公园,,,31,62,14,42,66,,54,54,9,30,,9,0.5,0.6
2023-12-15T1400,1134A,126.635,45.7667,哈尔滨市,道外承德广场,,22,22,60,12,41,62,,50,50,16,36,9,20,0.4,0.9
2023-12-15T1400,1135A,126.685,45.7319,哈尔滨市,香坊红旗大街,,34,34,54,10,48,63,,51,51,19,35,19,17,0.4,1
2023-12-15T1400,1136A,126.6411,45.7258,哈尔滨市,动力和平路,,22,18,47,15,35,55,,48,48,25,28,22,13,0.3,0.5
2023-12-15T1400,1137A,126.593,45.7478,哈尔滨市,道里建国路,,33,,49,23,46,66,,56,56,9,19,1,3,0.3,0.4
2023-12-15T1400,1138A,126.615,45.61,哈尔滨市,平房东轻厂,,32,32,60,19,44,58,,46,46,22,42,8,13,0.5,0.8
2023-12-15T1400,1139A,126.595,45.9855,哈尔滨市,呼兰师专,,30,30,66,14,51,68,,58,58,8,25,4,12,0.3,0.7
2023-12-15T1400,1140A,126.6206,45.6842,哈尔滨市,省农科院,,33,33,43,12,30,67,,58,58,29,41,22,28,0.3,0.6
2023-12-15T1400,2688A,93.5128,42.8172,哈密地区,地区监测站,,23,23,37,8,14,70,,57,56,6,12,4,3,0.2,0.3
2023-12-15T1400,2689A,93.4961,42.8328,哈密地区,哈密师范学校,,27,27,34,17,12,69,,58,58,9,13,7,5,0.8,0.8
2023-12-15T1400,2671A,100.9048,36.9639,海北藏族自治州,海晏县西海镇,颗粒物(PM10),55,60,127,13,28,96,,95,95,3,9,11,14,0.4,0.5
2023-12-15T1400,3867A,102.0738,36.5056,海东地区,平安区公安北苑,颗粒物(PM10),63,76,116,27,37,64,,55,55,4,10,12,12,0.5,0.4
2023-12-15T1400,1409A,110.576,19.9507,海口市,东寨港,,,,,,,,,,,,,,,,
2023-12-15T1400,1410A,110.3232,20.0574,海口市,海南大学,,32,32,27,12,11,87,,62,62,3,10,7,7,0.5,0.5
2023-12-15T1400,1411A,110.283,20.0053,海口市,秀英海南医院,,,32,27,12,10,,,55,55,,10,8,8,0.6,0.4
2023-12-15T1400,1412A,110.338,19.9969,海口市,海南师范大学,,29,29,26,11,11,80,,57,57,2,7,6,6,0.4,0.4
2023-12-15T1400,1413A,110.33,20.0356,海口市,龙华路环保局宿舍,,32,32,27,11,10,80,,60,60,5,7,8,8,0.4,0.4
2023-12-15T1400,3539A,110.5111,19.9736,海口市,桂林洋子站,,27,27,25,10,9,75,,55,55,6,7,4,6,0.3,0.3
2023-12-15T1400,2673A,100.6188,36.2866,海南藏族自治州,共和县恰卜恰镇,颗粒物(PM10),141,232,260,69,49,95,,94,94,9,10,3,8,1.4,0.8
2023-12-15T1400,2676A,97.3731,37.3753,海西蒙古族藏族自治州,德令哈市,,30,30,107,4,20,89,,99,84,5,10,12,12,0.3,0.3
2023-12-15T1400,1048A,114.5302,36.6116,邯郸市,东污水处理厂,细颗粒物(PM2.5),64,,40,46,49,49,,34,34,16,20,3,3,0.6,0.8
2023-12-15T1400,1049A,114.4918,36.5713,邯郸市,矿院,,48,48,52,30,42,46,,34,34,13,18,2,2,0.6,0.8
2023-12-15T1400,1050A,114.484,36.6133,邯郸市,丛台公园,,42,42,53,27,42,55,,40,40,17,19,2,3,0.6,0.8
2023-12-15T1400,3458A,114.7895,36.5593,邯郸市,香泉濮院小区,,,,50,,52,56,,44,44,5,15,2,3,,0.7
2023-12-15T1400,3579A,114.50634,36.77178,邯郸市,永年区实验高中,细颗粒物(PM2.5),55,54,68,39,48,53,,39,39,18,20,6,6,0.5,0.7
2023-12-15T1400,3580A,114.20016,36.44293,邯郸市,峰峰矿区临水派出所,细颗粒物(PM2.5),67,53,50,48,47,49,,45,45,16,19,6,7,1.2,1
2023-12-15T1400,2634A,106.9893,33.1842,汉中市,汉川机床厂子校,颗粒物(PM10),64,78,44,12,13,80,,76,76,4,7,3,3,0.5,0.6
2023-12-15T1400,2635A,107.0154,33.0706,汉中市,市监测站,颗粒物(PM10),74,98,42,16,17,71,,,,9,17,8,7,0.3,0.6
2023-12-15T1400,2636A,107.0089,33.1138,汉中市,鑫源开发区,颗粒物(PM10),68,86,40,12,14,72,,68,68,8,14,6,7,0.2,0.4
2023-12-15T1400,2637A,107.007,33.0323,汉中市,南郑大河坎水厂,颗粒物(PM10),68,86,53,8,13,83,,77,77,5,14,7,8,0.4,0.6
2023-12-15T1400,1223A,120.2072,30.2111,杭州市,滨江,,10,5,36,3,27,8,,4,4,20,52,7,8,1.0,1.2
2023-12-15T1400,1224A,120.0633,30.2747,杭州市,西溪,,14,,29,5,15,9,,7,7,28,29,6,6,1.0,0.9
2023-12-15T1400,1226A,120.3461,30.3153,杭州市,下沙,,15,15,60,5,41,6,,7,7,30,60,6,8,1.1,1.1
2023-12-15T1400,1227A,120.1269,30.2456,杭州市,卧龙桥,,13,13,30,3,13,8,,6,6,26,31,4,4,0.9,0.9
2023-12-15T1400,1228A,120.1903,30.2692,杭州市,浙江农大,,18,18,55,5,31,7,,4,4,26,47,7,8,0.9,1.2
2023-12-15T1400,1230A,120.1197,30.3119,杭州市,和睦小学,,23,23,70,9,38,9,,7,7,27,52,4,5,0.9,0.9
2023-12-15T1400,1231A,120.3019,30.4183,杭州市,临平镇,,11,7,60,6,36,7,,6,6,22,48,4,5,1.0,1
2023-12-15T1400,1232A,120.2697,30.1819,杭州市,城厢镇,,16,11,55,4,38,10,,6,6,31,62,5,7,1.0,1
2023-12-15T1400,1233A,120.0883,30.1808,杭州市,云栖,,12,5,21,4,17,12,,8,8,23,30,6,7,0.9,0.8
2023-12-15T1400,3557A,119.9464,30.0494,杭州市,镇二中,,14,7,35,2,22,7,,4,4,28,38,4,6,1.1,1.1
2023-12-15T1400,3558A,119.7183,30.2367,杭州市,市府大楼,,17,3,34,2,18,9,,7,7,33,38,4,5,1.1,1
2023-12-15T1400,3656A,120.1556,30.2864,杭州市,消防大队,,15,15,58,4,35,11,,8,8,24,54,9,11,1.2,1.3
2023-12-15T1400,1270A,117.1959,31.7848,合肥市,明珠广场,,39,31,19,27,17,31,,25,25,17,24,5,5,0.7,0.9
2023-12-15T1400,1271A,117.3072,31.8764,合肥市,三里街,,,,22,,14,26,,21,21,,29,6,5,,0.9
2023-12-15T1400,1272A,117.2588,31.8707,合肥市,琥珀山庄,,35,24,16,24,17,36,,30,30,11,20,5,5,1.0,1.2
2023-12-15T1400,1273A,117.1604,31.9052,合肥市,董铺水库,,35,27,20,24,13,59,,48,48,5,15,4,4,0.6,0.8
2023-12-15T1400,1274A,117.25,31.8571,合肥市,长江中路,,38,27,16,26,18,31,,25,25,16,21,8,8,0.5,1
2023-12-15T1400,1275A,117.266,31.9436,合肥市,庐阳区,,39,34,20,27,16,36,,30,30,11,21,2,3,1.0,1.1
2023-12-15T1400,1276A,117.336,31.8586,合肥市,瑶海区,,35,,18,24,19,28,,24,24,22,27,1,1,0.7,0.9
2023-12-15T1400,1277A,117.3027,31.7964,合肥市,包河区,,45,,18,31,18,30,,24,24,25,28,3,4,0.7,0.9
2023-12-15T1400,1278A,117.2776,31.7385,合肥市,滨湖新区,,32,31,21,22,14,25,,19,19,20,27,4,4,0.6,0.7
2023-12-15T1400,1279A,117.1318,31.8403,合肥市,高新区,,39,27,22,27,15,34,,26,26,19,28,7,7,0.8,1
2023-12-15T1400,3464A,117.3803,31.9147,合肥市,高教基地,,32,31,20,22,16,29,,24,24,18,25,2,3,0.6,0.8
2023-12-15T1400,3614A,79.924,37.0877,和田地区,地区环保局,颗粒物(PM10),500,1501,2169,174,305,51,,42,42,9,14,6,7,0.3,0.5
2023-12-15T1400,3615A,79.9131,37.113,和田地区,市环保局,颗粒物(PM10),500,1371,2111,202,308,61,,52,52,6,10,6,6,0.5,0.4
2023-12-15T1400,2516A,108.2011,24.715,河池市,东仁乐园,,39,27,32,27,29,59,,38,38,5,10,8,10,0.5,0.6
2023-12-15T1400,2517A,108.0497,24.6947,河池市,市环保站,,37,37,44,18,28,65,,27,27,9,20,6,6,0.5,0.7
2023-12-15T1400,2518A,108.0983,24.6989,河池市,市疾控中心,,28,28,52,18,27,70,,32,32,10,29,6,8,0.6,0.8
2023-12-15T1400,1696A,114.6778,23.7569,河源市,源西,,30,29,47,15,23,93,,41,41,13,32,4,4,0.7,0.9
2023-12-15T1400,1697A,114.6944,23.7586,河源市,东埔,,37,37,64,21,27,96,,42,42,11,33,7,7,0.7,1
2023-12-15T1400,1698A,114.6892,23.7233,河源市,老城,,37,37,50,25,26,106,,46,46,9,25,6,6,0.6,0.8
2023-12-15T1400,1718A,115.4208,35.2464,菏泽市,气象局,细颗粒物(PM2.5),73,62,47,53,43,52,,46,46,14,15,3,3,0.6,0.7
2023-12-15T1400,1719A,115.4747,35.2375,菏泽市,市政协,细颗粒物(PM2.5),77,58,44,56,44,52,,44,44,16,19,3,3,0.7,0.7
2023-12-15T1400,3374A,115.5564,35.0891,菏泽市,定陶老年大学,细颗粒物(PM2.5),70,56,39,51,37,48,,41,41,17,20,3,3,0.6,0.7
2023-12-15T1400,3647A,115.4702,35.2706,菏泽市,菏泽医专,细颗粒物(PM2.5),62,51,43,44,36,54,,46,46,18,22,3,3,0.6,0.7
2023-12-15T1400,2514A,111.5264,24.4172,贺州市,环保小区,,31,31,43,15,27,68,,40,40,12,23,6,8,0.6,0.8
2023-12-15T1400,2515A,111.5608,24.4078,贺州市,政协大楼,,,30,45,26,25,72,,42,41,11,21,,7,0.5,0.6
2023-12-15T1400,3534A,111.4744,24.4553,贺州市,西湾,,27,27,47,8,22,66,,34,34,10,28,6,7,0.5,0.6
2023-12-15T1400,2385A,114.17,35.9019,鹤壁市,市监测站,细颗粒物(PM2.5),85,65,55,63,52,48,,40,40,16,20,14,10,1.1,1
2023-12-15T1400,2386A,114.2956,35.7511,鹤壁市,市交警支队,细颗粒物(PM2.5),80,75,58,59,48,49,,41,41,24,27,12,10,0.9,0.8
2023-12-15T1400,2387A,114.2878,35.7306,鹤壁市,迎宾馆,细颗粒物(PM2.5),82,,42,60,45,49,,42,42,27,30,11,11,1.0,1
2023-12-15T1400,3474A,114.2617,35.6822,鹤壁市,大新区,细颗粒物(PM2.5),75,71,48,55,45,48,,42,42,16,19,10,10,1.2,1.1
2023-12-15T1400,3596A,114.1572,35.9603,鹤壁市,南山宾馆,细颗粒物(PM2.5),78,93,64,57,54,55,,43,43,14,18,13,11,1.1,1.2
2023-12-15T1400,2244A,130.2537,47.3416,鹤岗市,哈啤分公司,,22,12,18,12,17,68,,64,64,4,7,11,10,0.2,0.4
2023-12-15T1400,2245A,130.2684,47.3086,鹤岗市,斯达机电,,21,16,22,7,13,66,,64,58,7,9,9,7,0.3,0.3
2023-12-15T1400,2246A,130.3114,47.3388,鹤岗市,东山纸板厂,,23,20,26,6,15,71,,68,68,4,11,11,9,0.3,0.4
2023-12-15T1400,2247A,130.1097,47.3382,鹤岗市,五号水库,,22,15,15,13,12,70,,67,67,4,6,9,8,0.4,0.4
2023-12-15T1400,2263A,127.4833,50.2524,黑河市,交通局,,21,,12,14,14,65,,66,65,8,7,2,2,0.3,0.3
2023-12-15T1400,2264A,127.5144,50.2341,黑河市,环保局,,20,14,13,12,16,62,,63,62,8,7,3,3,0.4,0.3
2023-12-15T1400,2265A,127.5291,50.2472,黑河市,大黑河岛,,22,6,9,4,9,68,,62,62,2,2,4,5,0.4,0.4
2023-12-15T1400,1074A,115.6838,37.7541,衡水市,电机北厂,,32,,27,22,43,58,,38,38,6,13,5,6,0.4,0.7
2023-12-15T1400,1075A,115.6303,37.7316,衡水市,市监测站,,29,29,38,18,34,56,,39,39,10,17,5,5,0.5,0.7
2023-12-15T1400,3188A,115.6683,37.7217,衡水市,市城管局,,34,34,42,19,41,56,,38,38,12,19,4,5,0.5,0.7
2023-12-15T1400,3459A,115.5989,37.5491,衡水市,地表水厂,,,,27,33,33,51,,46,42,4,11,2,2,,0.7
2023-12-15T1400,2456A,112.5003,26.9167,衡阳市,原169医院,,16,16,29,10,20,28,,17,17,4,14,6,8,0.8,0.7
2023-12-15T1400,2457A,112.6194,26.9258,衡阳市,衡阳化工总厂,,9,7,27,5,17,21,,13,13,18,22,4,7,0.9,0.8
2023-12-15T1400,2458A,112.6211,26.8956,衡阳市,珠晖区环保局,,19,19,26,13,21,19,,12,12,20,20,5,7,0.9,0.9
2023-12-15T1400,2459A,112.6197,26.8733,衡阳市,市委党校,,9,9,24,6,13,21,,13,13,16,18,6,6,0.9,0.8
2023-12-15T1400,2460A,112.6006,26.8919,衡阳市,市监测站,,,,30,,18,24,,14,14,15,21,6,9,,0.9
2023-12-15T1400,2461A,112.5664,26.9056,衡阳市,真空机电公司,,20,17,33,14,22,26,,16,16,12,22,5,13,0.8,1.1
2023-12-15T1400,3399A,112.6703,26.882,衡阳市,师范学院,,,,23,,14,26,,15,15,12,18,6,7,0.8,0.9
2023-12-15T1400,2608A,103.3772,23.3993,红河州,污水处理厂,,28,28,23,19,20,82,,59,59,4,7,12,5,0.2,0.3
2023-12-15T1400,2609A,103.3861,23.35,红河州,监测站,,23,23,26,15,21,73,,56,56,4,9,5,8,0.3,0.4
2023-12-15T1400,3038A,103.3758,23.368,红河州,州图书馆,,24,,24,15,18,75,,58,58,3,7,6,6,0.3,0.4
2023-12-15T1400,1090A,111.6507,40.7517,呼和浩特市,呼市一监,,21,17,35,11,8,66,,66,65,4,4,8,8,0.4,0.4
2023-12-15T1400,1091A,111.6572,40.8033,呼和浩特市,小召,,24,9,34,7,7,76,,73,73,9,8,7,6,0.3,0.3
2023-12-15T1400,1094A,111.7516,40.8369,呼和浩特市,如意水处理厂,,22,14,75,3,7,70,,62,62,7,11,7,8,0.2,0.3
2023-12-15T1400,1095A,111.7276,40.8062,呼和浩特市,二十九中,,,,71,4,8,72,,65,65,,11,9,9,0.3,0.5
2023-12-15T1400,1096A,111.5512,40.7866,呼和浩特市,工大金川校区,,20,16,43,8,9,64,,63,62,5,4,10,7,0.4,0.4
2023-12-15T1400,1097A,111.717,40.7612,呼和浩特市,化肥厂生活区,,40,40,69,10,7,68,,66,66,5,4,9,8,0.2,0.2
2023-12-15T1400,3698A,111.5968,40.8178,呼和浩特市,红旗小学,,21,17,36,9,7,66,,67,67,10,6,9,6,0.3,0.4
2023-12-15T1400,3699A,111.6518,40.8389,呼和浩特市,海东办,,22,9,28,2,6,70,,66,66,13,10,14,9,0.3,0.2
2023-12-15T1400,2192A,119.7594,49.2261,呼伦贝尔市,区环保局,细颗粒物(PM2.5),62,51,66,44,55,22,,11,11,34,53,4,6,0.6,0.8
2023-12-15T1400,3061A,119.7512,49.1577,呼伦贝尔市,国华电力东,,23,22,42,16,38,56,,34,34,9,27,7,5,0.2,0.5
2023-12-15T1400,1250A,120.0751,30.8669,湖州市,城西水厂,,16,11,76,6,46,9,,7,7,32,62,4,6,1.0,1.1
2023-12-15T1400,2873A,120.0875,30.8955,湖州市,仁皇山新区,,15,8,73,7,50,8,,6,6,29,59,5,6,1.0,1.1
2023-12-15T1400,2907A,120.1844,30.8596,湖州市,吴兴区站,,15,10,82,7,42,6,,4,4,30,60,3,5,0.9,0.9
2023-12-15T1400,3562A,120.4148,30.8538,湖州市,南浔区站,,15,11,67,8,47,7,,4,4,29,54,4,5,1.1,1.2
2023-12-15T1400,1607A,120.9092,40.7136,葫芦岛市,龙港区,颗粒物(PM10),53,56,313,14,14,64,,61,61,5,7,13,12,0.7,0.7
2023-12-15T1400,1608A,120.8392,40.7514,葫芦岛市,化工街,,34,34,65,17,12,67,,63,63,11,9,7,6,0.5,0.6
2023-12-15T1400,1609A,120.8341,40.7073,葫芦岛市,新区,,,,208,,11,69,,67,66,9,9,6,6,0.7,0.6
2023-12-15T1400,1610A,120.8695,40.7677,葫芦岛市,东城区,颗粒物(PM10),97,143,123,9,11,72,,69,69,6,7,6,6,0.9,0.8
2023-12-15T1400,2482A,109.5981,27.5721,怀化市,林科所,,9,,16,5,9,28,,29,29,4,4,1,2,0.6,0.5
2023-12-15T1400,2483A,109.9453,27.5444,怀化市,河西地税局,,9,7,15,6,12,25,,27,27,12,14,3,3,0.7,0.6
2023-12-15T1400,2484A,109.9781,27.5342,怀化市,市四医院,,10,7,23,5,11,30,,28,28,9,13,3,4,0.8,0.8
2023-12-15T1400,2485A,109.9972,27.5578,怀化市,监测楼,,12,,16,8,12,28,,27,27,12,16,3,3,0.8,0.8
2023-12-15T1400,2486A,110.0394,27.583,怀化市,市委党校,,14,14,19,8,12,31,,26,26,10,16,3,5,0.7,0.7
2023-12-15T1400,1210A,119.036,33.5981,淮安市,钵池山,,29,29,18,19,19,46,,37,37,15,27,5,6,0.4,0.8
2023-12-15T1400,1211A,119.007,33.575,淮安市,北京南路,,29,24,18,20,20,48,,37,37,17,26,4,4,0.6,0.9
2023-12-15T1400,1212A,118.989,33.6067,淮安市,市监测站,,,,17,22,21,51,,42,42,,30,4,4,0.6,0.9
2023-12-15T1400,1213A,119.135,33.5039,淮安市,楚州区监测站,,29,24,15,20,22,47,,34,34,14,28,4,4,0.5,0.9
2023-12-15T1400,1214A,119.0186,33.6297,淮安市,淮阴区监测站,,31,31,24,21,19,48,,36,36,14,28,3,3,0.4,0.7
2023-12-15T1400,3426A,118.8755,33.2894,淮安市,新华书店,,,35,21,30,14,46,,38,38,10,25,5,10,,0.9
2023-12-15T1400,2282A,116.8004,33.975,淮北市,监测站,细颗粒物(PM2.5),75,62,39,55,31,40,,34,34,18,23,3,3,0.7,0.7
2023-12-15T1400,2283A,116.8091,33.9007,淮北市,烈山区政府,细颗粒物(PM2.5),79,60,35,58,35,40,,35,35,15,22,3,3,0.6,0.7
2023-12-15T1400,3330A,116.8873,33.9836,淮北市,杜集区检察院,细颗粒物(PM2.5),83,63,55,61,39,42,,36,36,11,17,3,3,1.0,1
2023-12-15T1400,4017A,116.7923,33.9535,淮北市,市博物馆,细颗粒物(PM2.5),75,58,38,55,33,38,,33,33,18,25,4,4,0.8,0.9
2023-12-15T1400,2277A,116.8305,32.7727,淮南市,潘集区政府,细颗粒物(PM2.5),67,48,30,48,33,40,,32,32,14,24,6,5,0.6,0.8
2023-12-15T1400,2278A,117.0067,32.6524,淮南市,师范学院,细颗粒物(PM2.5),69,52,29,50,26,34,,26,26,16,25,5,6,0.7,0.8
2023-12-15T1400,2279A,116.8569,32.5951,淮南市,谢家集区政府,细颗粒物(PM2.5),58,,22,41,25,41,,32,32,10,20,4,4,0.5,0.7
2023-12-15T1400,2280A,116.8281,32.633,淮南市,八公山区政府,细颗粒物(PM2.5),55,40,25,39,23,39,,32,32,8,19,6,5,0.6,0.8
2023-12-15T1400,2281A,116.6325,32.6201,淮南市,焦岗湖风景区管理处,细颗粒物(PM2.5),53,41,26,37,25,41,,40,40,10,16,2,2,0.3,0.5
2023-12-15T1400,2894A,117.0566,32.6531,淮南市,经济技术开发区消防队,,49,49,32,33,22,35,,29,29,16,21,2,3,0.5,0.7
2023-12-15T1400,3329A,117.0108,32.5893,淮南市,山南新区,细颗粒物(PM2.5),70,,24,51,24,37,,30,30,16,23,3,3,0.6,0.8
2023-12-15T1400,2446A,114.9028,30.4742,黄冈市,职工中心,,38,29,14,26,10,43,,40,40,5,12,8,7,0.7,0.8
2023-12-15T1400,2929A,114.8858,30.4519,黄冈市,红卫路,,46,,13,32,10,42,,39,39,7,16,3,3,0.7,0.8
2023-12-15T1400,3398A,114.9136,30.4445,黄冈市,市林业局,,40,29,13,28,9,40,,36,36,4,17,7,6,0.8,0.8
2023-12-15T1400,2672A,102.0199,35.5102,黄南藏族自治州,同仁县隆务镇,,,147,116,47,38,96,,64,64,4,11,,12,0.2,0.5
2023-12-15T1400,2295A,118.2903,29.6963,黄山市,延安路89号,,,,59,,29,11,,7,7,18,25,4,5,0.8,0.9
2023-12-15T1400,2296A,118.327,29.7178,黄山市,黄山东路89号,,16,16,57,1,30,10,,6,6,19,27,4,5,0.8,1.1
2023-12-15T1400,2297A,118.1371,30.2756,黄山市,黄山区政府5号楼,,14,14,33,4,18,20,,10,10,19,28,4,4,0.8,0.9
2023-12-15T1400,2423A,115.0601,30.2313,黄石市,沈家营,,40,,23,28,10,42,,33,33,15,23,10,9,0.8,0.9
2023-12-15T1400,2424A,115.0817,30.2006,黄石市,陈家湾,,49,49,21,27,12,38,,28,28,17,21,5,5,0.7,0.9
2023-12-15T1400,2426A,114.8988,30.2019,黄石市,铁山,,39,32,21,27,9,44,,40,40,16,25,4,4,1.0,0.9
2023-12-15T1400,2427A,115.0307,30.2092,黄石市,团城山,,32,32,24,21,9,42,,34,34,13,21,5,4,0.6,0.7
2023-12-15T1400,3149A,115.0235,30.1578,黄石市,笔架山北路,,33,,19,23,8,40,,31,31,20,29,4,4,0.7,0.8
2023-12-15T1400,1392A,114.4183,23.0528,惠州市,河南岸金山湖子站,,34,28,61,13,35,108,,53,53,11,27,4,6,0.6,0.8
2023-12-15T1400,1393A,114.4053,23.0822,惠州市,下埔横江三路子站,,33,30,64,14,36,105,,56,56,17,35,9,10,0.5,0.8
2023-12-15T1400,1394A,114.4103,23.1142,惠州市,江北云山西路子站,,36,24,63,12,34,113,,55,55,12,35,8,10,0.6,0.8
2023-12-15T1400,1395A,114.4645,22.7833,惠州市,惠阳区承修路船湖子站,,21,14,46,6,24,65,,51,51,11,31,6,7,0.5,0.7
2023-12-15T1400,1396A,114.5317,22.7422,惠州市,大亚湾管委会子站,,24,18,46,8,21,74,,53,53,20,43,5,6,0.5,0.7
2023-12-15T1400,3314A,114.4338,22.8134,惠州市,惠阳秋长,,23,22,54,5,22,72,,46,46,10,35,5,6,0.6,0.8
2023-12-15T1400,3452A,114.6517,22.775,惠州市,大亚湾霞涌,,,,34,,17,,,54,54,10,25,7,7,,0.4
2023-12-15T1400,2240A,130.9762,45.3001,鸡西市,环保局,,22,22,74,13,45,62,,55,55,7,30,6,8,0.0,0.4
2023-12-15T1400,2243A,130.9429,45.3039,鸡西市,第一中学,细颗粒物(PM2.5),65,,46,47,39,68,,59,59,6,26,8,11,0.1,0.3
2023-12-15T1400,3707A,131.0207,45.3073,鸡西市,欧美日汽修厂,,27,27,73,16,60,57,,52,52,11,38,6,17,0.1,1.2
2023-12-15T1400,3709A,130.9967,45.3106,鸡西市,市政设施管理处,,24,24,69,10,33,68,,56,56,10,34,1,3,0.2,0.5
2023-12-15T1400,2367A,114.9754,27.0803,吉安市,红声器材厂,,,59,32,39,15,7,,36,14,,17,,8,1.4,0.8
2023-12-15T1400,2368A,114.9658,27.0999,吉安市,市森林工业局,,33,33,29,15,16,5,,33,11,28,17,11,10,1.2,0.5
2023-12-15T1400,2369A,114.99,27.1312,吉安市,市环境监测站,,46,46,33,14,13,5,,36,11,30,17,10,9,1.2,0.8
2023-12-15T1400,2370A,115.0093,27.0968,吉安市,青原区法院,,26,26,28,10,13,6,,38,12,31,19,11,13,1.2,0.8
2023-12-15T1400,1772A,126.54,43.8622,吉林市,哈达湾,颗粒物(PM10),51,52,56,29,31,64,,60,56,14,19,13,13,0.7,0.7
2023-12-15T1400,1773A,126.5844,43.8358,吉林市,东局子,颗粒物(PM10),60,69,59,34,29,56,,58,47,21,21,36,25,0.7,0.6
2023-12-15T1400,1774A,126.5052,43.8245,吉林市,电力学院,颗粒物(PM10),56,61,59,14,30,37,,50,40,22,28,12,15,0.9,1
2023-12-15T1400,1775A,126.6133,43.8972,吉林市,江北,颗粒物(PM10),56,62,51,30,25,67,,67,60,11,11,8,8,0.6,0.6
2023-12-15T1400,1776A,126.555,43.8306,吉林市,江南公园,颗粒物(PM10),75,100,76,34,31,58,,59,49,17,20,11,10,1.8,1.1
2023-12-15T1400,1778A,126.7061,43.7133,吉林市,丰满,,,,,,,,,,,,,,,,
2023-12-15T1400,2868A,126.4739,43.953,吉林市,九站,,46,46,60,22,36,56,,50,50,25,34,22,23,0.7,0.8
2023-12-15T1400,1299A,116.9862,36.6114,济南市,科干所,细颗粒物(PM2.5),55,46,32,39,29,60,,46,46,20,22,9,6,0.7,0.7
2023-12-15T1400,1300A,116.9376,36.665,济南市,农科所,,39,39,36,24,24,60,,44,44,14,16,11,7,0.7,0.7
2023-12-15T1400,1301A,117.1265,36.6734,济南市,开发区,细颗粒物(PM2.5),53,44,33,37,30,50,,42,42,25,21,9,6,0.8,0.7
2023-12-15T1400,1303A,117.0624,36.6868,济南市,省种子仓库,,45,36,31,31,28,60,,45,45,13,14,10,7,0.9,0.7
2023-12-15T1400,1304A,116.9489,36.6447,济南市,机床二厂,,49,42,34,34,30,61,,45,45,16,20,9,4,0.7,0.6
2023-12-15T1400,1305A,117.0495,36.663,济南市,市监测站,,46,42,33,32,27,59,,46,46,18,20,13,10,0.9,0.8
2023-12-15T1400,1306A,116.7675,36.5484,济南市,长清党校,细颗粒物(PM2.5),53,,34,37,30,69,,52,52,12,16,12,8,0.7,0.8
2023-12-15T1400,1616A,117.6795,36.229,济南市,技术学院,,,44,13,44,17,57,,58,57,19,22,,5,0.8,0.5
2023-12-15T1400,1961A,117.532,36.6868,济南市,东山小学,细颗粒物(PM2.5),62,56,32,44,24,63,,55,55,19,21,7,7,0.6,0.5
2023-12-15T1400,3059A,117.7161,36.2049,济南市,泰兴公司,细颗粒物(PM2.5),55,41,22,39,19,54,,56,55,24,23,7,4,0.8,0.6
2023-12-15T1400,3064A,117.6867,36.2171,济南市,莱芜战役纪念馆,细颗粒物(PM2.5),62,48,22,44,16,54,,55,54,13,13,8,6,0.8,0.6
2023-12-15T1400,3494A,117.1673,36.9782,济南市,济阳区政府,,32,29,35,22,26,60,,44,44,10,14,11,7,0.6,0.7
2023-12-15T1400,3495A,117.1171,36.63,济南市,锦屏中学,细颗粒物(PM2.5),53,39,29,37,26,60,,51,51,22,24,9,7,0.9,0.7
2023-12-15T1400,3682A,116.9814,36.6819,济南市,济南四建,,39,36,29,27,28,62,,45,45,12,16,12,8,0.6,0.6
2023-12-15T1400,1653A,116.6251,35.4302,济宁市,火炬城,细颗粒物(PM2.5),55,55,34,39,22,46,,39,39,18,24,2,2,0.8,0.8
2023-12-15T1400,1655A,116.5491,35.4042,济宁市,电化厂,,49,47,41,34,29,50,,40,40,12,22,2,2,0.4,0.5
2023-12-15T1400,3500A,116.5814,35.3707,济宁市,北湖一中,细颗粒物(PM2.5),64,55,42,46,33,49,,39,39,17,22,1,2,0.5,0.5
2023-12-15T1400,3501A,116.8249,35.5593,济宁市,服务中心,,50,50,35,35,22,48,,41,41,16,22,3,2,0.8,0.7
2023-12-15T1400,3678A,116.5907,35.4054,济宁市,市第七中学,细颗粒物(PM2.5),55,51,36,39,29,49,,40,40,10,19,4,4,0.5,0.7
2023-12-15T1400,2255A,130.2751,46.8028,佳木斯市,佳纺,,20,16,65,12,56,63,,55,55,10,40,12,9,0.5,0.8
2023-12-15T1400,2256A,130.3995,46.8307,佳木斯市,发电厂,,22,12,42,6,32,68,,62,62,7,29,8,10,0.4,0.7
2023-12-15T1400,2257A,130.3258,46.7975,佳木斯市,环保局,,20,17,59,9,43,61,,52,52,10,37,12,13,0.2,0.6
2023-12-15T1400,2258A,130.3648,46.8032,佳木斯市,十一中,,,17,45,9,36,,,53,53,15,35,,9,0.3,0.6
2023-12-15T1400,2259A,130.3794,46.7588,佳木斯市,四丰,,19,13,34,6,22,59,,50,50,7,17,1,1,0.4,0.6
2023-12-15T1400,1252A,120.7436,30.778,嘉兴市,清河小学,,13,11,61,5,33,9,,7,7,22,52,7,8,1.3,1
2023-12-15T1400,1253A,120.726,30.7478,嘉兴市,嘉兴学院,,15,15,58,9,39,6,,4,4,21,51,6,7,1.1,1
2023-12-15T1400,2872A,120.7846,30.7525,嘉兴市,南湖区残联,,14,12,62,2,40,7,,6,6,28,54,5,6,1.1,1
2023-12-15T1400,3407A,120.6916,30.7739,嘉兴市,秀洲住建,,13,9,47,7,34,8,,5,5,25,51,6,7,1.0,0.9
2023-12-15T1400,1945A,98.2908,39.7711,嘉峪关市,气象局,颗粒物(PM10),53,56,43,24,10,81,,80,80,16,10,8,6,0.4,0.4
2023-12-15T1400,2884A,98.2672,39.7978,嘉峪关市,酒钢宾馆,颗粒物(PM10),68,85,53,34,12,82,,92,88,25,9,72,19,2.1,0.5
2023-12-15T1400,3248A,98.2643,39.7724,嘉峪关市,雄关区,,34,34,46,8,13,78,,79,79,12,7,13,9,0.7,0.4
2023-12-15T1400,1383A,113.1064,22.6058,江门市,北街,颗粒物(PM10),51,51,63,16,50,123,,54,54,16,59,7,7,0.6,0.9
2023-12-15T1400,1384A,113.0731,22.5835,江门市,西区,,40,38,58,20,34,125,,61,61,16,53,8,8,0.6,0.9
2023-12-15T1400,1385A,113.0219,22.5311,江门市,圭峰西,,40,40,49,14,26,113,,60,60,10,30,4,4,0.6,0.8
2023-12-15T1400,1386A,113.0828,22.5947,江门市,东湖,,40,33,75,24,36,128,,58,58,17,51,9,7,0.5,0.8
2023-12-15T1400,3311A,113.1075,22.5647,江门市,江海富民,颗粒物(PM10),60,69,99,37,57,135,,61,61,17,57,8,8,0.5,0.7
2023-12-15T1400,3449A,113.05,22.4667,江门市,新会银湖,,37,30,41,16,35,116,,57,57,10,33,8,8,0.5,0.7
2023-12-15T1400,1828A,113.227,35.2125,焦作市,市环保局,,47,47,51,18,36,57,,46,46,14,25,8,10,0.6,1
2023-12-15T1400,1830A,113.1992,35.2590,焦作市,影视城,,,,,,,,,,,,,,,,
2023-12-15T1400,3169A,113.2725,35.2067,焦作市,太极体育中心,,46,46,53,24,42,59,,46,46,13,24,8,8,0.5,0.9
2023-12-15T1400,3335A,113.3137,35.2641,焦作市,马村街道办,颗粒物(PM10),51,51,62,20,46,60,,38,38,10,25,5,7,0.5,1.2
2023-12-15T1400,3336A,113.2465,35.2373,焦作市,焦作技师学院,,49,49,47,24,44,57,,44,44,12,25,7,7,0.5,0.9
2023-12-15T1400,3477A,113.1656,35.2539,焦作市,中站许衡医院,,,46,56,31,48,59,,54,54,11,28,,12,0.6,1.2
2023-12-15T1400,3981A,113.2449,35.1803,焦作市,原李万街道办,,43,43,49,22,35,59,,48,48,11,21,6,7,0.5,1
2023-12-15T1400,1708A,116.3701,23.5345,揭阳市,新兴,,,56,82,42,56,,,29,29,21,40,8,12,0.9,1.1
2023-12-15T1400,1709A,116.3264,23.5443,揭阳市,西马,,35,34,81,24,54,80,,43,43,20,36,8,11,0.9,1.2
2023-12-15T1400,1710A,116.3611,23.5626,揭阳市,东兴,,48,48,94,25,56,80,,42,42,12,37,7,12,0.8,1.1
2023-12-15T1400,1711A,116.4151,23.5294,揭阳市,渔湖,,,,84,,40,98,,45,45,24,34,7,10,1.0,1.1
2023-12-15T1400,3320A,116.403,23.5699,揭阳市,曲溪,颗粒物(PM10),51,52,73,31,44,85,,39,39,18,34,1,9,0.7,1
2023-12-15T1400,1944A,102.1692,38.5167,金昌市,天庆家园,,29,29,51,2,7,90,,76,76,4,6,12,7,0.6,0.8
2023-12-15T1400,3170A,102.1864,38.5253,金昌市,市委党校,,43,43,81,8,12,94,,77,77,7,8,4,9,0.5,0.6
2023-12-15T1400,4022A,102.1647,38.5371,金昌市,金川区人防中心,颗粒物(PM10),53,55,72,7,9,90,,75,75,3,5,9,11,0.5,0.6
2023-12-15T1400,1262A,119.647,29.077,金华市,十五中,,46,46,93,29,63,5,,4,4,41,57,2,3,1.1,1.3
2023-12-15T1400,1263A,119.686,29.1029,金华市,监测站,,29,26,63,20,60,9,,3,3,40,65,2,3,1.0,1.2
2023-12-15T1400,3659A,119.656,29.1131,金华市,气象局,,41,41,111,18,52,6,,3,3,37,66,2,4,1.1,1.4
2023-12-15T1400,1767A,121.1115,41.0879,锦州市,南山,,28,28,189,12,11,66,,70,66,6,4,6,6,0.4,0.3
2023-12-15T1400,1768A,121.0533,40.8434,锦州市,开发区,,,40,325,17,15,,,66,62,6,4,6,5,0.5,0.6
2023-12-15T1400,1769A,121.1836,41.1119,锦州市,百股街道,,40,40,174,9,12,64,,64,63,6,6,13,9,0.4,0.5
2023-12-15T1400,1770A,121.1178,41.1222,锦州市,天安街道,,38,38,126,10,12,71,,70,68,3,5,6,6,0.6,0.6
2023-12-15T1400,1771A,121.1303,41.1386,锦州市,北湖公园,,38,38,53,12,11,64,,66,64,3,3,6,7,0.4,0.4
2023-12-15T1400,2160A,112.85,35.5051,晋城市,自来水公司,颗粒物(PM10),51,51,43,14,21,65,,66,66,15,19,7,7,0.6,0.9
2023-12-15T1400,2161A,112.8318,35.4936,晋城市,白云商贸,颗粒物(PM10),57,63,48,12,18,65,,66,65,12,19,6,7,0.5,0.8
2023-12-15T1400,2162A,112.8508,35.4887,晋城市,市环保局,颗粒物(PM10),52,54,43,19,20,64,,67,66,15,21,6,6,0.6,0.9
2023-12-15T1400,2163A,112.8676,35.4897,晋城市,技术学院,,37,37,42,12,19,66,,68,67,12,20,6,7,0.6,1
2023-12-15T1400,2165A,112.8453,35.546,晋城市,白马寺,,,,,,,,,,,,,,,,
2023-12-15T1400,3620A,112.8271,35.4828,晋城市,泽州一中,颗粒物(PM10),53,56,41,14,16,63,,64,64,8,16,5,6,0.9,1.1
2023-12-15T1400,2171A,112.7532,37.6945,晋中市,锦纶小区,,34,34,39,14,25,63,,57,57,9,20,6,8,0.4,0.7
2023-12-15T1400,2173A,112.7249,37.7067,晋中市,南都小区,,38,38,47,19,32,59,,55,55,7,18,8,9,0.5,0.9
2023-12-15T1400,2174A,112.6991,37.6982,晋中市,榆次区政府,,39,39,39,21,34,62,,55,55,10,21,10,11,0.5,0.7
2023-12-15T1400,2865A,112.7195,37.6828,晋中市,榆次三中,,39,39,37,12,21,61,,55,55,11,21,8,10,0.6,0.9
2023-12-15T1400,2439A,112.2014,31.0481,荆门市,竹园小学,颗粒物(PM10),55,59,29,24,22,40,,19,15,14,21,6,6,0.5,0.8
2023-12-15T1400,2440A,112.1969,30.9891,荆门市,掇刀,,,51,25,28,22,,,23,14,,20,6,5,0.5,0.8
2023-12-15T1400,2441A,112.2213,31.0386,荆门市,石化一小,颗粒物(PM10),53,55,27,28,21,43,,21,18,16,23,12,13,0.4,0.7
2023-12-15T1400,3012A,112.1849,31.0362,荆门市,西山林语,颗粒物(PM10),53,56,27,24,18,40,,23,19,15,19,4,4,0.5,0.8
2023-12-15T1400,3547A,112.1632,31.0138,荆门市,龙泉中学南校,,,56,25,36,22,39,,22,20,,14,5,8,0.5,0.9
2023-12-15T1400,1844A,112.2494,30.3197,荆州市,市图书馆,细颗粒物(PM2.5),55,48,26,39,20,31,,26,22,16,20,5,5,0.9,1
2023-12-15T1400,1845A,112.2008,30.3544,荆州市,市委党校,,49,,19,34,16,32,,26,25,16,21,5,5,0.9,1
2023-12-15T1400,3194A,112.2747,30.3122,荆州市,管委会,,35,27,19,24,16,31,,27,23,12,18,6,6,1.0,1
2023-12-15T1400,3548A,112.1655,30.3364,荆州市,学苑路,,45,42,22,31,17,35,,30,28,13,18,6,7,1.0,1.1
2023-12-15T1400,2342A,117.3102,29.3867,景德镇市,王港中学,,,,,,,,,,,,,,,,
2023-12-15T1400,2343A,117.2117,29.2933,景德镇市,老干部活动中心,,25,22,40,17,28,15,,17,17,20,27,18,18,0.8,0.7
2023-12-15T1400,2344A,117.1894,29.2789,景德镇市,兽医站,,30,30,39,2,18,19,,8,8,20,32,9,13,0.7,0.8
2023-12-15T1400,2345A,117.1547,29.2617,景德镇市,台达陶瓷,,16,11,34,11,19,17,,8,8,20,34,26,27,0.8,0.9
2023-12-15T1400,2346A,117.2461,29.2956,景德镇市,陶研所,,14,,28,8,15,17,,7,7,27,32,10,8,0.8,0.8
2023-12-15T1400,1803A,115.9872,29.6815,九江市,十里,,14,14,38,9,24,26,,16,16,23,31,5,7,0.7,1
2023-12-15T1400,1804A,115.9584,29.7046,九江市,茅山头,,13,11,35,9,26,28,,18,18,25,33,12,12,0.9,1.2
2023-12-15T1400,1805A,115.9877,29.7295,九江市,西园,,14,14,38,4,25,30,,18,18,21,30,6,7,0.8,1.1
2023-12-15T1400,1806A,116.0172,29.6547,九江市,五七二七厂,,,,50,9,21,33,,23,23,22,27,9,10,0.9,1
2023-12-15T1400,1808A,115.9114,29.6038,九江市,综合工业园,,20,,31,14,22,20,,11,11,26,34,9,11,0.8,0.9
2023-12-15T1400,1809A,116.0721,29.7535,九江市,石化总厂,,13,9,38,9,22,31,,20,20,13,24,8,10,0.7,0.9
2023-12-15T1400,1810A,115.9773,29.5698,九江市,庐山气象台,,9,7,9,4,8,28,,35,28,12,9,10,8,0.4,0.9
2023-12-15T1400,3190A,116.0254,29.6994,九江市,外国语学校,,,33,29,3,21,30,,18,18,23,32,,9,0.6,1.1
2023-12-15T1400,2658A,98.5061,39.7443,酒泉市,仓门街子站,颗粒物(PM10),56,61,54,18,21,84,,73,70,7,9,5,4,0.5,0.5
2023-12-15T1400,2659A,98.4989,39.7256,酒泉市,油田生活基地,颗粒物(PM10),56,61,45,22,19,86,,78,77,9,12,4,3,0.4,0.4
2023-12-15T1400,2698A,76.0072,39.4467,喀什地区,巡警大队,颗粒物(PM10),500,2363,1103,413,187,50,,53,44,21,16,2,1,0.4,0.4
2023-12-15T1400,2699A,75.9755,39.4694,喀什地区,吾办,颗粒物(PM10),500,2108,1087,423,200,47,,48,41,20,17,2,3,0.6,0.5
2023-12-15T1400,4027A,75.9483,39.4689,喀什地区,老干局,颗粒物(PM10),500,1955,1088,358,176,51,,55,47,17,18,5,4,0.7,0.5
2023-12-15T1400,1824A,114.3389,34.7781,开封市,肿瘤医院,,,45,34,41,38,53,,43,43,,20,3,2,0.7,0.8
2023-12-15T1400,1826A,114.2885,34.7965,开封市,世纪星幼儿园,细颗粒物(PM2.5),59,,30,42,32,54,,46,46,12,16,4,4,0.9,0.9
2023-12-15T1400,3147A,114.3438,34.8106,开封市,龙亭公园,细颗粒物(PM2.5),64,,30,46,36,62,,52,52,9,17,3,3,1.0,0.9
2023-12-15T1400,3210A,114.3644,34.7964,开封市,汴京公园,细颗粒物(PM2.5),64,46,33,46,36,55,,44,44,4,9,4,4,0.7,0.7
2023-12-15T1400,3473A,114.2485,34.8306,开封市,技师学院,,,102,36,46,34,58,,51,51,14,14,,6,,1.1
2023-12-15T1400,3592A,114.4644,34.7556,开封市,祥符区生态环境局,细颗粒物(PM2.5),67,53,42,48,38,56,,46,46,12,16,5,4,0.8,0.8
2023-12-15T1400,1951A,84.895,45.6094,克拉玛依市,长征新村,,30,29,17,21,14,39,,37,30,12,13,9,8,0.3,0.3
2023-12-15T1400,1952A,84.8988,45.5893,克拉玛依市,南林小区,,35,35,24,9,20,38,,43,36,15,12,4,4,0.8,0.7
2023-12-15T1400,1954A,84.905,44.3396,克拉玛依市,独山子区,,46,46,53,26,32,50,,37,37,11,25,5,4,0.5,0.5
2023-12-15T1400,1955A,85.6979,46.098,克拉玛依市,乌尔禾区商贸楼,,16,12,16,10,10,49,,42,42,4,13,5,4,0.3,0.3
2023-12-15T1400,3612A,85.1045,45.6899,克拉玛依市,白碱滩区新站,,18,15,17,12,13,40,,45,35,18,13,8,7,0.4,0.3
2023-12-15T1400,2697A,76.1454,39.7142,克孜勒苏柯尔克孜自治州,市人民政府,颗粒物(PM10),500,1887,949,468,199,53,,58,46,13,9,3,3,0.8,0.7
2023-12-15T1400,3665A,76.1658,39.7157,克孜勒苏柯尔克孜自治州,克州文化中心,颗粒物(PM10),500,1968,1166,403,188,58,,58,54,11,10,5,5,0.8,0.6
2023-12-15T1400,1450A,102.8204,24.8886,昆明市,呈贡新区,,25,12,18,6,12,80,,47,47,6,18,7,6,0.5,0.6
2023-12-15T1400,1451A,102.6251,24.9608,昆明市,西山森林公园,,23,,9,15,9,73,,62,59,6,8,7,6,0.6,0.5
2023-12-15T1400,1452A,102.7252,25.0902,昆明市,龙泉镇,,,15,30,6,10,72,,28,28,6,25,8,9,,0.9
2023-12-15T1400,1453A,102.7266,25.0375,昆明市,东风东路,,,,25,,11,,,41,,,23,,9,,0.5
2023-12-15T1400,1454A,102.6742,25.0669,昆明市,金鼎山,,24,19,36,5,24,75,,36,36,8,26,4,29,0.4,0.7
2023-12-15T1400,1455A,102.6644,25.0401,昆明市,碧鸡广场,,24,10,21,6,13,74,,37,37,6,25,8,9,0.5,0.7
2023-12-15T1400,3179A,102.7494,25.0119,昆明市,官渡区博物馆,,23,15,26,11,19,73,,34,34,9,23,10,8,0.4,0.7
2023-12-15T1400,3375A,102.8017,24.8336,昆明市,青年创业园,,27,8,14,8,9,84,,50,50,3,13,9,9,0.3,0.5
2023-12-15T1400,3550A,102.7997,24.9786,昆明市,昆明学院,,24,15,23,8,16,74,,36,36,6,14,9,10,0.4,0.5
2023-12-15T1400,3551A,102.5967,24.6736,昆明市,晋宁区生态环境分局,,24,14,23,5,16,74,,47,47,2,14,2,2,0.4,0.7
2023-12-15T1400,3552A,102.6678,24.9856,昆明市,云天化总部,,24,10,18,6,12,76,,42,42,5,20,8,7,0.5,0.6
2023-12-15T1400,1456A,91.1319,29.6514,拉萨市,八廓街,,28,28,40,10,22,73,,42,42,16,32,7,9,0.6,1.1
2023-12-15T1400,1457A,91.1221,29.6747,拉萨市,市环保局,,39,38,58,27,31,71,,32,32,28,35,7,9,0.9,1.6
2023-12-15T1400,1458A,91.0874,29.6475,拉萨市,区监测站,,31,31,34,7,19,67,,31,31,29,52,7,7,0.4,1
2023-12-15T1400,1459A,91.1774,29.6541,拉萨市,西藏大学,,31,31,28,14,13,77,,47,47,20,19,7,8,0.9,0.9
2023-12-15T1400,1460A,90.9798,29.6588,拉萨市,区辐射站,,,,43,,27,,,14,,,43,7,7,0.6,0.8
2023-12-15T1400,1461A,91.0834,29.6292,拉萨市,拉萨火车站,,38,38,38,18,22,59,,30,30,47,49,7,7,1.1,1.5
2023-12-15T1400,2520A,109.2203,23.7256,来宾市,来宾技工学校,,29,29,49,20,30,69,,50,50,7,20,15,11,0.6,0.8
2023-12-15T1400,3535A,109.1781,23.7297,来宾市,兴宾区政府,,21,19,40,7,25,67,,47,47,6,17,8,8,0.5,0.7
2023-12-15T1400,4002A,109.2416,23.7461,来宾市,中南小学,,36,36,64,21,38,70,,48,48,5,19,6,8,0.6,1
2023-12-15T1400,1476A,103.631,36.1031,兰州市,兰炼宾馆,颗粒物(PM10),55,59,100,14,29,65,,60,60,11,11,7,6,0.4,0.3
2023-12-15T1400,1477A,104.1373,35.9454,兰州市,榆中兰大校区,,,,,,,,,,,,,,,,
2023-12-15T1400,1478A,103.8412,36.0726,兰州市,生物制品所,颗粒物(PM10),58,65,94,21,28,76,,64,64,7,11,6,8,0.5,0.5
2023-12-15T1400,1479A,103.831,36.0464,兰州市,铁路设计院,,,,81,,29,,,71,71,17,19,10,12,0.3,0.5
2023-12-15T1400,3186A,103.7158,36.1058,兰州市,教育港,,50,50,101,12,24,72,,65,65,11,12,4,3,0.4,0.3
2023-12-15T1400,3241A,103.7439,36.0842,兰州市,百合公园,颗粒物(PM10),51,52,91,8,20,72,,66,66,8,10,7,7,0.4,0.4
2023-12-15T1400,3242A,103.9611,35.998,兰州市,和平,,,,90,,21,79,,73,73,9,9,10,9,0.7,0.6
2023-12-15T1400,3245A,103.6633,36.533,兰州新区,新区管委会,,47,47,100,13,25,75,,73,73,6,7,7,6,0.4,0.3
2023-12-15T1400,3246A,103.6975,36.4789,兰州新区,舟曲中学,颗粒物(PM10),59,67,135,11,15,75,,67,67,5,6,4,4,0.5,0.5
2023-12-15T1400,1067A,116.6708,39.5111,廊坊市,药材公司,,48,48,35,13,18,58,,60,59,7,18,3,2,0.4,0.5
2023-12-15T1400,1068A,116.7214,39.5589,廊坊市,开发区,,29,29,27,4,19,57,,59,59,8,20,4,2,0.3,0.4
2023-12-15T1400,1070A,116.7244,39.5269,廊坊市,北华航天学院,,31,31,29,8,20,56,,57,57,13,26,7,6,0.3,0.5
2023-12-15T1400,2919A,116.7022,39.5453,廊坊市,河北工业大学,,47,47,39,9,18,55,,56,56,4,13,7,6,0.3,0.4
2023-12-15T1400,2535A,103.7723,29.5462,乐山市,花湖湾,,23,23,63,13,42,49,,32,32,10,24,2,3,0.2,0.5
2023-12-15T1400,2536A,103.7627,29.5844,乐山市,牛耳桥,,37,37,68,13,49,50,,28,28,20,39,3,4,0.5,0.9
2023-12-15T1400,2537A,103.7508,29.6006,乐山市,市第三水厂,,35,35,71,11,45,56,,32,32,16,40,3,5,0.4,0.9
2023-12-15T1400,2538A,103.7571,29.5664,乐山市,市监测站,,38,38,61,16,45,52,,32,32,17,30,3,4,0.2,0.6
2023-12-15T1400,3361A,103.7311,29.5628,乐山市,理工大学,,41,41,72,16,51,55,,34,34,9,28,5,6,0.3,0.8
2023-12-15T1400,2598A,100.2143,26.8576,丽江市,西南郊,,,,,,,,,,,,,,,,
2023-12-15T1400,2599A,100.2497,26.8802,丽江市,丽江古城,,36,36,26,6,11,78,,63,63,13,16,8,8,0.5,0.5
2023-12-15T1400,2600A,100.2203,26.8906,丽江市,市中心,,24,18,10,4,5,75,,63,59,7,9,6,6,0.6,0.6
2023-12-15T1400,1267A,119.914,28.4514,丽水市,监测站大楼,细颗粒物(PM2.5),68,73,50,49,35,57,,22,22,33,23,5,7,0.6,1
2023-12-15T1400,1268A,119.93,28.4586,丽水市,莲都小学,细颗粒物(PM2.5),82,87,52,60,34,56,,25,25,32,26,6,6,0.7,0.6
2023-12-15T1400,1269A,119.879,28.4231,丽水市,余庄前,细颗粒物(PM2.5),55,57,55,39,35,56,,22,22,34,20,5,5,0.7,0.6
2023-12-15T1400,1173A,119.176,34.5885,连云港市,市环境监测站,,27,27,18,17,15,56,,49,49,10,26,7,7,0.3,0.5
2023-12-15T1400,3000A,119.3581,34.6972,连云港市,德源药业,,,29,16,22,13,47,,43,43,15,25,,5,0.6,0.9
2023-12-15T1400,3007A,119.178,34.844,连云港市,新城一中,,,24,22,17,15,66,,56,56,9,23,8,8,,1
2023-12-15T1400,3008A,119.3608,34.7519,连云港市,胡沟管理处,,32,22,15,22,13,61,,54,54,10,22,6,7,0.6,1
2023-12-15T1400,3009A,119.1478,34.5911,连云港市,矿山设计院,,25,22,17,17,16,54,,48,48,14,28,4,5,0.3,0.7
2023-12-15T1400,3434A,119.2413,34.6539,连云港市,工贸学校,,30,26,19,21,17,62,,54,54,11,24,7,7,0.5,1
2023-12-15T1400,3664A,119.4172,34.7341,连云港市,连云街道,,35,31,17,24,15,45,,40,40,20,28,4,4,0.4,0.9
2023-12-15T1400,2571A,102.3431,27.8099,凉山彝族自治州,青龙寺,,28,22,47,13,43,89,,60,60,4,10,5,6,0.4,0.6
2023-12-15T1400,2572A,102.2721,27.8415,凉山彝族自治州,邛海宾馆,,30,30,29,13,24,82,,50,50,5,20,10,14,0.5,0.8
2023-12-15T1400,2573A,102.2625,27.898,凉山彝族自治州,西昌市政府,,27,18,26,10,20,86,,59,59,6,12,14,12,0.5,0.6
2023-12-15T1400,2574A,102.2685,27.8851,凉山彝族自治州,凉山州政府,,25,20,33,12,21,77,,48,48,6,16,10,10,0.5,0.7
2023-12-15T1400,2575A,102.237,27.8914,凉山彝族自治州,长安,,25,20,32,14,26,80,,56,56,7,14,14,15,0.6,0.6
2023-12-15T1400,2212A,123.2,41.1953,辽阳市,宏伟区,颗粒物(PM10),55,60,76,23,40,54,,48,48,15,27,12,13,0.3,0.4
2023-12-15T1400,2213A,123.1683,41.2495,辽阳市,新华园,颗粒物(PM10),58,65,181,24,39,52,,46,46,16,31,9,10,0.4,0.5
2023-12-15T1400,2214A,123.2354,41.2639,辽阳市,滨河路,细颗粒物(PM2.5),78,,67,57,47,56,,51,51,14,30,8,10,0.4,0.6
2023-12-15T1400,2215A,123.149,41.2991,辽阳市,铁西工业园,,48,48,148,20,41,61,,58,58,12,23,12,12,0.6,0.8
2023-12-15T1400,2227A,125.1358,42.8845,辽源市,环保局,,42,42,43,19,12,64,,67,59,17,12,10,7,0.6,0.6
2023-12-15T1400,3239A,125.0764,42.9078,辽源市,银鹰制药,颗粒物(PM10),51,51,72,12,15,62,,68,64,16,10,10,6,0.6,0.5
2023-12-15T1400,1625A,115.9848,36.4372,聊城市,区政府,,49,38,34,34,30,62,,50,50,13,18,4,3,0.5,0.6
2023-12-15T1400,2878A,116.0072,36.4343,聊城市,聊大东校,细颗粒物(PM2.5),59,42,36,42,34,64,,53,53,16,18,7,4,0.6,0.6
2023-12-15T1400,3200A,115.9819,36.4978,聊城市,监控中心,细颗粒物(PM2.5),55,42,36,39,41,65,,52,52,4,10,2,3,0.6,0.8
2023-12-15T1400,3513A,116.0445,36.4361,聊城市,九州社区,,45,38,34,31,28,69,,55,55,3,5,8,8,0.5,0.6
2023-12-15T1400,4018A,116.0567,36.4608,聊城市,星美广场,,,,34,,28,47,,45,41,6,9,6,5,0.6,0.7
2023-12-15T1400,2632A,94.3681,29.6376,林芝市,林芝监测站,,24,11,6,0,1,76,,58,58,3,4,7,6,0.3,0.4
2023-12-15T1400,2633A,94.3616,29.6616,林芝市,林芝人民医院,,24,9,9,5,6,74,,56,56,5,7,8,8,0.4,0.5
2023-12-15T1400,2603A,100.0781,23.8982,临沧市,市环保局,,25,8,21,7,19,77,,32,32,6,11,7,6,0.3,0.5
2023-12-15T1400,2604A,100.0894,23.8822,临沧市,市气象局,,25,14,23,14,18,77,,31,31,6,12,6,7,0.3,0.4
2023-12-15T1400,1733A,111.5531,36.0783,临汾市,临钢医院,,21,16,34,5,22,67,,66,65,4,14,2,6,0.5,0.8
2023-12-15T1400,1734A,111.5028,36.0714,临汾市,技工学校,,22,13,34,12,28,68,,68,67,5,13,5,8,0.3,0.7
2023-12-15T1400,1736A,111.5018,36.0855,临汾市,市委,,29,29,43,0,18,69,,70,68,5,13,5,8,0.6,0.9
2023-12-15T1400,3018A,111.505,36.1014,临汾市,唐尧大酒店,,21,21,41,8,19,64,,66,64,3,10,6,8,0.4,0.6
2023-12-15T1400,3668A,111.5036,36.0414,临汾市,城南,,21,12,35,2,27,67,,65,63,4,13,3,7,0.5,0.8
2023-12-15T1400,2667A,103.2069,35.5993,临夏回族自治州,环保局,,24,24,27,16,18,63,,57,57,6,11,9,10,0.4,0.4
2023-12-15T1400,2668A,103.2417,35.6057,临夏回族自治州,建设大厦,,23,12,36,6,19,73,,63,63,2,5,6,7,0.4,0.4
2023-12-15T1400,1618A,118.3429,35.0532,临沂市,沂河小区,,32,22,18,22,20,64,,61,61,18,21,5,5,0.3,0.4
2023-12-15T1400,1619A,118.295,35.0583,临沂市,鲁南制药厂,,38,27,13,26,20,56,,56,56,18,17,6,5,0.2,0.3
2023-12-15T1400,1620A,118.2794,34.9976,临沂市,新光毛纺厂,细颗粒物(PM2.5),82,,11,60,43,44,,47,47,19,13,7,8,0.9,1
2023-12-15T1400,1621A,118.3956,35.0888,临沂市,河东保险公司,,28,19,13,19,17,57,,55,55,10,17,2,2,0.5,0.7
2023-12-15T1400,3370A,118.3564,35.0215,临沂市,十里堡居委,,25,17,10,17,11,58,,57,57,21,25,1,2,0.7,0.9
2023-12-15T1400,3496A,118.3604,35.1084,临沂市,南坊新区,,20,19,15,14,13,57,,54,54,12,18,5,5,0.5,0.7
2023-12-15T1400,3860A,118.3920,35.0300,临沂市,皇山花园小区,,34,34,13,16,13,60,,56,56,9,17,3,3,0.3,0.6
2023-12-15T1400,1870A,109.4856,24.3895,柳州市,柳东小学,,24,24,55,15,48,70,,46,46,8,22,8,10,0.3,0.5
2023-12-15T1400,1871A,109.4157,24.3277,柳州市,环保监测站,,27,27,70,12,50,61,,42,42,11,36,6,7,0.7,1.1
2023-12-15T1400,1872A,109.389,24.341,柳州市,河西水厂,,36,36,72,16,39,59,,38,38,8,31,6,7,0.5,1
2023-12-15T1400,1873A,109.4311,24.2921,柳州市,市四中,,32,32,73,16,48,58,,39,39,13,35,6,7,0.6,1.1
2023-12-15T1400,1874A,109.4006,24.3631,柳州市,市九中,,29,29,78,14,43,59,,34,34,12,35,3,4,0.5,0.9
2023-12-15T1400,1875A,109.4958,24.3134,柳州市,古亭山,,32,32,65,18,49,63,,29,29,11,35,8,9,0.5,0.9
2023-12-15T1400,3402A,109.5422,24.3996,柳州市,市二中,,31,31,76,16,48,70,,38,38,5,24,7,8,0.6,0.9
2023-12-15T1400,2307A,116.5079,31.737,六安市,监测大楼,,32,,20,22,15,39,,33,33,10,21,3,3,0.6,0.8
2023-12-15T1400,2308A,116.4738,31.7643,六安市,皖西学院,,35,,21,24,16,47,,39,39,10,22,4,3,0.5,0.8
2023-12-15T1400,2309A,116.4996,31.7905,六安市,朝阳厂,,29,20,14,20,15,44,,36,36,6,15,6,4,0.7,0.9
2023-12-15T1400,2310A,116.5567,31.7886,六安市,开发区,,38,33,18,26,19,40,,33,33,13,24,3,3,0.7,1
2023-12-15T1400,2576A,104.8,26.5892,六盘水市,窑上,,,,,,,,,,,,,,,,
2023-12-15T1400,2577A,104.83,26.5917,六盘水市,黄土坡,,28,12,16,6,9,87,,53,53,4,11,6,8,0.3,0.5
2023-12-15T1400,2578A,104.89,26.5939,六盘水市,水钢,颗粒物(PM10),64,77,24,14,10,78,,65,65,16,8,15,8,0.9,0.4
2023-12-15T1400,2579A,104.8475,26.5894,六盘水市,民中,,27,15,13,7,6,85,,58,58,5,10,7,7,0.5,0.6
2023-12-15T1400,2580A,104.9544,26.5506,六盘水市,双水,,28,17,15,7,6,89,,60,60,7,9,7,7,0.2,0.2
2023-12-15T1400,2335A,117.0189,25.1181,龙岩市,龙岩师专,,,,,,,,,,,,,,,,
2023-12-15T1400,2336A,117.0217,25.1033,龙岩市,龙岩市监测站,,28,26,28,19,18,55,,26,26,16,30,6,6,0.5,0.8
2023-12-15T1400,2337A,117.0258,25.0661,龙岩市,闽西职业技术学院,,25,18,34,17,20,56,,22,22,11,28,4,6,0.5,0.6
2023-12-15T1400,2338A,117.0196,25.0306,龙岩市,龙岩学院,,20,18,22,10,13,62,,31,31,7,16,6,5,0.4,0.5
2023-12-15T1400,2665A,105.0822,33.3261,陇南市,汉王镇固水子,,,,,,,,,,,,,,,,
2023-12-15T1400,2885A,104.9339,33.3826,陇南市,滨江中学,颗粒物(PM10),125,200,80,16,26,64,,58,57,9,11,20,16,0.5,0.5
2023-12-15T1400,3247A,104.955,33.371,陇南市,市总工会,颗粒物(PM10),60,70,74,20,23,69,,62,62,9,12,5,3,0.1,0.4
2023-12-15T1400,2487A,111.9589,27.8901,娄底市,电视发射台,,31,31,30,17,18,36,,31,31,7,15,3,4,1.0,1
2023-12-15T1400,2488A,111.9975,27.725,娄底市,市监测站,,36,35,28,25,19,34,,26,26,16,25,3,4,0.8,0.7
2023-12-15T1400,2489A,112.0194,27.7314,娄底市,市委党校,,,36,25,22,18,32,,24,24,,19,10,10,0.8,0.7
2023-12-15T1400,2490A,111.9561,27.7569,娄底市,涟钢,,35,30,30,24,20,30,,22,22,14,23,5,8,1.0,1.1
2023-12-15T1400,2491A,111.9892,27.7044,娄底市,市政府,,,,28,,20,34,,25,25,13,24,,6,0.8,0.9
2023-12-15T1400,1893A,105.4324,28.9634,泸州市,九狮山,细颗粒物(PM2.5),97,106,62,72,46,33,,23,23,25,23,6,5,0.6,0.5
2023-12-15T1400,1894A,105.4427,28.9063,泸州市,小市上码头,细颗粒物(PM2.5),57,56,77,40,55,37,,24,24,13,30,5,7,0.5,0.7
2023-12-15T1400,1895A,105.4241,28.8573,泸州市,兰田宪桥,,48,44,80,33,59,34,,22,22,15,26,5,7,0.5,0.8
2023-12-15T1400,1896A,105.4379,28.8833,泸州市,市环监站,,43,43,69,25,57,30,,22,18,14,24,3,4,0.4,0.6
2023-12-15T1400,3490A,105.3617,28.7703,泸州市,纳溪区环保局,细颗粒物(PM2.5),104,97,81,78,62,40,,28,28,20,30,8,6,0.7,0.9
2023-12-15T1400,2183A,111.1406,37.5211,吕梁市,环保局,,22,19,38,7,17,69,,61,61,2,12,4,7,0.5,0.7
2023-12-15T1400,2185A,111.1297,37.5136,吕梁市,自来水公司,,23,14,42,6,17,72,,66,65,5,14,5,6,0.4,0.8
2023-12-15T1400,2867A,111.1283,37.51,吕梁市,马茂庄小学,,22,15,40,7,17,70,,65,63,4,13,1,3,0.3,0.6
2023-12-15T1400,1812A,112.3931,34.6516,洛阳市,市委党校,,47,47,43,18,32,57,,55,55,5,14,7,5,0.6,1
2023-12-15T1400,1814A,112.4657,34.6871,洛阳市,豫西宾馆,颗粒物(PM10),64,78,47,20,36,57,,53,53,8,24,4,5,0.5,0.9
2023-12-15T1400,1815A,112.494,34.6886,洛阳市,河南林校,,47,47,38,21,31,65,,60,60,7,18,1,2,0.2,0.8
2023-12-15T1400,1816A,112.3844,34.623,洛阳市,开发区管委会,颗粒物(PM10),56,61,39,16,30,62,,60,60,1,15,3,2,0.4,0.7
2023-12-15T1400,1817A,112.4267,34.6258,洛阳市,市委新办公区,颗粒物(PM10),61,71,41,25,36,64,,61,61,5,15,4,3,0.3,0.6
2023-12-15T1400,3340A,112.6005,34.6326,洛阳市,伊滨,颗粒物(PM10),58,66,46,19,31,55,,47,47,7,17,2,2,0.3,0.7
2023-12-15T1400,3341A,112.4951,34.6332,洛阳市,中移产业园,颗粒物(PM10),60,70,41,20,31,60,,57,57,8,20,3,3,0.3,0.8
2023-12-15T1400,3593A,112.5736,34.8993,洛阳市,吉利监测站,,,,50,16,30,58,,56,56,,28,5,4,0.2,1.2
2023-12-15T1400,3635A,112.3677,34.662,洛阳市,河科大西苑校区,颗粒物(PM10),51,52,45,18,31,56,,56,56,8,18,4,2,0.5,0.8
2023-12-15T1400,3636A,112.4388,34.6781,洛阳市,英才小学,颗粒物(PM10),53,56,40,22,36,62,,58,58,4,22,2,4,0.5,0.9
2023-12-15T1400,2399A,114.051,33.5699,漯河市,三五一五工厂,细颗粒物(PM2.5),62,49,29,44,30,45,,45,42,12,11,3,3,0.8,0.8
2023-12-15T1400,2400A,114.0055,33.5698,漯河市,漯河大学,,50,47,33,35,31,52,,50,44,6,12,5,4,0.6,0.6
2023-12-15T1400,2401A,114.0138,33.5828,漯河市,市水利局,细颗粒物(PM2.5),55,46,30,39,34,50,,47,43,13,13,6,6,0.6,0.7
2023-12-15T1400,2402A,114.0261,33.5698,漯河市,市广电局,细颗粒物(PM2.5),64,51,31,46,37,47,,45,41,14,13,3,2,0.4,0.5
2023-12-15T1400,3478A,113.9749,33.5664,漯河市,市图书馆,细颗粒物(PM2.5),52,44,30,36,28,57,,45,43,8,13,5,4,0.3,0.5
2023-12-15T1400,3479A,114.0967,33.5906,漯河市,召陵区卫健委,细颗粒物(PM2.5),74,55,34,54,32,46,,46,44,16,13,4,4,0.8,0.8
2023-12-15T1400,1798A,118.5092,31.6837,马鞍山市,湖东路四小,,39,,25,27,24,12,,12,12,30,37,18,15,2.1,1.5
2023-12-15T1400,1799A,118.5024,31.6449,马鞍山市,开发区,,,,35,19,23,18,,14,14,21,30,8,10,,0.8
2023-12-15T1400,1800A,118.5228,31.7231,马鞍山市,慈湖,,38,,31,26,30,13,,10,10,33,38,8,10,1.0,1.2
2023-12-15T1400,1802A,118.6245,31.7241,马鞍山市,濮塘,,32,28,36,22,23,16,,14,14,19,30,3,4,1.1,1.1
2023-12-15T1400,3633A,118.4918,31.6809,马鞍山市,雨山,,30,30,31,18,20,15,,12,12,23,34,12,13,1.3,1.3
2023-12-15T1400,1686A,111.0286,21.4688,茂名市,电白南海,,34,34,43,12,15,88,,63,63,16,16,10,10,0.6,0.6
2023-12-15T1400,1687A,110.9294,21.6533,茂名市,茂石化七小,,25,24,55,9,32,79,,50,50,11,18,6,10,0.4,0.9
2023-12-15T1400,1688A,110.9107,21.6687,茂名市,健康路,,26,17,42,5,24,82,,56,56,9,17,4,8,0.4,0.5
2023-12-15T1400,1689A,110.8592,21.6828,茂名市,高岭,,,,,,,,,,,,,,,,
2023-12-15T1400,3450A,111.01,21.5165,茂名市,电白水东,,26,22,35,7,16,82,,57,57,8,15,4,7,0.5,0.7
2023-12-15T1400,2539A,104.0308,30.0478,眉山市,黑龙滩水库,颗粒物(PM10),56,61,56,25,29,54,,72,72,1,11,1,3,0.0,0.1
2023-12-15T1400,2540A,103.8416,30.0874,眉山市,气象局,颗粒物(PM10),56,61,64,17,39,47,,30,30,22,42,4,5,0.3,0.7
2023-12-15T1400,3137A,103.8578,30.0744,眉山市,市委党校,颗粒物(PM10),67,83,68,12,35,47,,30,30,13,41,5,8,0.3,0.8
2023-12-15T1400,3148A,103.8291,30.0564,眉山市,区人社局,,48,48,54,12,36,50,,34,34,29,50,5,9,0.1,0.7
2023-12-15T1400,1690A,116.1231,24.3284,梅州市,梅江月梅,,25,21,45,12,29,79,,32,32,10,31,8,10,0.4,0.6
2023-12-15T1400,1691A,116.0797,24.2719,梅州市,梅县新城,,38,38,50,17,34,90,,39,39,14,37,4,4,0.7,1
2023-12-15T1400,1692A,116.1248,24.2654,梅州市,环境监控中心,,35,35,48,23,30,74,,34,34,17,38,4,4,0.5,0.7
2023-12-15T1400,3315A,116.1233,24.2991,梅州市,梅龙,,24,17,44,12,31,75,,25,25,10,32,6,6,0.7,1.1
2023-12-15T1400,1878A,104.7778,31.4741,绵阳市,富乐山,颗粒物(PM10),60,70,39,19,14,65,,63,63,4,8,6,6,0.3,0.5
2023-12-15T1400,1879A,104.7563,31.4535,绵阳市,市人大,颗粒物(PM10),66,82,43,21,15,61,,59,59,10,13,10,7,0.3,0.4
2023-12-15T1400,1880A,104.6697,31.4668,绵阳市,高新区自来水公司,颗粒物(PM10),63,75,46,13,14,61,,59,59,13,16,6,6,0.3,0.4
2023-12-15T1400,1881A,104.7287,31.5075,绵阳市,三水厂,,,,45,13,16,62,,61,61,11,16,4,5,0.4,0.6
2023-12-15T1400,3491A,104.69,31.5322,绵阳市,西科大附属小学,颗粒物(PM10),65,79,41,14,13,59,,57,57,11,17,3,4,0.3,0.4
2023-12-15T1400,3492A,104.5648,31.5343,绵阳市,安州区旅游局,颗粒物(PM10),76,102,50,18,17,52,,53,53,13,16,3,8,0.2,0.5
2023-12-15T1400,1784A,129.61,44.561,牡丹江市,环保大楼,,22,21,43,10,24,69,,62,62,11,30,12,15,0.3,0.4
2023-12-15T1400,1785A,129.6115,44.5782,牡丹江市,文化广场,,33,28,57,23,35,53,,52,52,22,33,16,21,0.6,0.6
2023-12-15T1400,1786A,129.5904,44.5963,牡丹江市,第一医院,,42,33,55,29,41,58,,55,55,17,33,18,16,0.4,0.6
2023-12-15T1400,1787A,129.6364,44.6075,牡丹江市,机车工厂,,39,39,58,20,35,66,,58,58,9,30,9,14,0.4,0.6
2023-12-15T1400,1788A,129.6386,44.5462,牡丹江市,第一中学,,,,53,21,36,69,,63,63,,28,8,9,0.3,0.5
2023-12-15T1400,2531A,105.0703,29.61,内江市,市监测站,颗粒物(PM10),62,73,55,17,32,52,,39,39,14,27,5,8,0.2,0.5
2023-12-15T1400,2532A,105.0717,29.5947,内江市,东兴区政府,颗粒物(PM10),62,73,43,13,24,55,,40,40,14,25,7,8,0.2,0.5
2023-12-15T1400,2533A,105.0653,29.5817,内江市,内江二中,颗粒物(PM10),61,72,45,13,24,55,,41,41,13,26,4,6,0.2,0.5
2023-12-15T1400,2534A,105.0406,29.5822,内江市,内江日报社,颗粒物(PM10),74,97,49,13,21,54,,43,43,16,27,4,7,0.2,0.5
2023-12-15T1400,1290A,115.8931,28.6843,南昌市,省外办,,,13,78,7,42,,,3,3,14,37,4,6,0.7,1.4
2023-12-15T1400,1291A,115.8886,28.7003,南昌市,省林业公司,,13,,55,9,29,21,,11,11,17,50,4,7,0.8,1.1
2023-12-15T1400,1292A,115.8126,28.7442,南昌市,林科所,,10,0,36,0,19,29,,18,18,12,32,6,8,0.9,0.7
2023-12-15T1400,1294A,115.8518,28.687,南昌市,建工学校,,15,,57,10,32,26,,14,14,15,44,8,14,0.7,1
2023-12-15T1400,1295A,115.8921,28.6424,南昌市,象湖,,10,9,63,5,34,21,,10,10,19,46,6,7,0.7,1.2
2023-12-15T1400,1296A,115.7423,28.7996,南昌市,武术学校,,,14,21,8,14,28,,18,18,8,15,,6,0.6,0.7
2023-12-15T1400,1298A,115.9314,28.6842,南昌市,省站,,10,10,82,3,32,25,,12,12,11,40,6,8,0.7,1
2023-12-15T1400,3046A,115.9084,28.6062,南昌市,机电学校,,18,12,75,12,34,24,,13,13,14,45,6,9,0.8,1.1
2023-12-15T1400,3690A,115.9721,28.7031,南昌市,外国语学校,,12,,54,8,34,24,,12,12,17,43,5,6,0.8,1.1
2023-12-15T1400,1905A,106.056,30.8064,南充市,西山风景区,,49,49,32,16,17,60,,52,52,7,12,3,3,0.4,0.6
2023-12-15T1400,1906A,106.0789,30.8023,南充市,南充市委,,25,,77,17,11,49,,41,41,13,17,3,4,0.4,0.2
2023-12-15T1400,1907A,106.1031,30.8217,南充市,南充炼油厂,颗粒物(PM10),87,123,56,32,24,55,,46,46,8,15,3,4,0.4,0.6
2023-12-15T1400,1908A,106.1064,30.7856,南充市,高坪区监测站,颗粒物(PM10),60,69,36,13,18,56,,46,46,15,18,4,5,0.3,0.4
2023-12-15T1400,1909A,106.0642,30.7636,南充市,嘉陵区环保局,颗粒物(PM10),65,79,43,19,17,52,,44,44,11,16,2,3,0.2,0.5
2023-12-15T1400,1910A,106.1087,30.8388,南充市,市环境监测站,颗粒物(PM10),75,100,50,24,22,57,,48,48,10,14,4,5,0.2,0.4
2023-12-15T1400,1151A,118.8086,32.1065,南京市,迈皋桥,,,22,25,17,18,,,9,9,20,30,4,4,0.8,0.9
2023-12-15T1400,1152A,118.7538,32.0551,南京市,草场门,,25,,21,17,17,9,,7,7,29,38,1,2,0.6,0.7
2023-12-15T1400,1153A,118.7794,32.0745,南京市,山西路,,25,17,26,17,24,17,,11,11,16,25,4,5,0.5,0.7
2023-12-15T1400,1154A,118.7752,32.0023,南京市,中华门,,25,,22,17,18,13,,9,9,24,38,4,4,0.8,0.9
2023-12-15T1400,1155A,118.8109,32.0309,南京市,瑞金路,,,19,28,12,19,15,,10,10,,32,4,4,0.7,0.9
2023-12-15T1400,1156A,118.7997,32.0754,南京市,玄武湖,,27,27,27,15,24,13,,9,9,17,27,6,6,0.7,0.8
2023-12-15T1400,1157A,118.6414,32.0931,南京市,浦口,,,,23,24,17,18,,14,14,9,22,,2,0.7,0.8
2023-12-15T1400,1158A,118.7356,31.9996,南京市,奥体中心,,28,,27,19,20,19,,14,14,24,39,4,4,0.5,0.6
2023-12-15T1400,1159A,118.9125,32.1028,南京市,仙林大学城,,35,,33,24,31,9,,6,6,22,33,4,4,1.4,1.5
2023-12-15T1400,3422A,118.8436,31.9198,南京市,江宁彩虹桥,,15,15,30,9,21,18,,14,14,27,44,3,4,0.7,0.8
2023-12-15T1400,3423A,119.0138,31.6494,南京市,溧水永阳,,23,,30,16,21,12,,9,9,19,33,4,4,1.1,1
2023-12-15T1400,3424A,118.879,31.3302,南京市,高淳老职中,,28,,39,19,21,20,,13,13,23,36,1,4,0.6,0.8
2023-12-15T1400,3427A,118.8554,32.3578,南京市,六合雄州,,27,27,31,18,11,18,,13,13,16,25,13,11,0.8,1
2023-12-15T1400,1401A,108.3103,22.7881,南宁市,二十一中,,28,28,31,11,15,69,,46,46,10,15,6,6,0.7,0.7
2023-12-15T1400,1402A,108.3141,22.8528,南宁市,北湖,,37,37,32,21,17,79,,48,46,11,12,6,6,0.6,0.7
2023-12-15T1400,1403A,108.3206,22.8225,南宁市,市监测站,,41,41,31,13,15,71,,48,43,13,17,6,7,0.7,0.7
2023-12-15T1400,1404A,108.3829,22.8037,南宁市,大自然花园,,29,29,29,15,16,64,,47,44,9,12,7,8,0.6,0.7
2023-12-15T1400,1405A,108.4394,22.7904,南宁市,仙葫,,32,32,33,15,14,57,,45,45,12,13,6,5,0.5,0.6
2023-12-15T1400,1406A,108.2397,22.8467,南宁市,区农职院,,39,39,34,10,12,78,,48,48,10,18,7,7,0.4,0.6
2023-12-15T1400,1407A,108.3275,22.735,南宁市,英华嘉园,,30,30,31,11,16,54,,36,36,14,26,6,7,0.5,0.6
2023-12-15T1400,1408A,108.2257,22.7757,南宁市,沙井镇街道办,,32,32,33,6,11,68,,41,41,11,20,6,11,0.5,0.7
2023-12-15T1400,3401A,108.4834,22.7618,南宁市,红星社区,,27,27,32,11,14,66,,43,43,10,19,7,7,0.5,0.7
2023-12-15T1400,2331A,118.0966,26.6761,南平市,茫荡山,,,,,,,,,,,,,,,,
2023-12-15T1400,2332A,118.1681,26.6369,南平市,南平市监测站,,25,,35,17,23,74,,30,30,11,23,4,4,0.6,0.9
2023-12-15T1400,2333A,118.1825,26.6489,南平市,南平铝业有限公司,,25,25,32,15,24,78,,32,32,10,22,5,5,0.5,0.8
2023-12-15T1400,2334A,118.1756,26.6272,南平市,南平七中,,42,42,30,10,23,78,,28,28,10,22,6,4,0.7,1
2023-12-15T1400,1168A,120.9098,31.9663,南通市,狼山街道,,15,,50,10,45,17,,9,9,22,50,6,8,0.9,1
2023-12-15T1400,1169A,120.86,32.0005,南通市,虹桥,,18,14,77,12,58,14,,6,6,28,65,3,6,0.8,1.1
2023-12-15T1400,1170A,120.87,32.02,南通市,城中,,13,13,65,9,55,15,,9,9,21,56,5,7,0.8,1
2023-12-15T1400,1171A,120.94,31.93,南通市,星湖花园,,23,,67,16,54,13,,6,6,23,52,5,7,0.9,1
2023-12-15T1400,1172A,120.81,32.0417,南通市,紫琅学院,,13,6,66,5,48,15,,8,8,25,60,5,8,0.7,1
2023-12-15T1400,3291A,121.067,32.062,南通市,通州监测站,,18,,72,12,56,33,,18,18,14,45,7,8,0.7,1.1
2023-12-15T1400,3432A,120.9348,31.9883,南通市,环境教育馆,,,9,58,5,46,13,,8,8,,59,5,8,0.8,1
2023-12-15T1400,2404A,112.5224,33.0122,南阳市,瓦房庄,细颗粒物(PM2.5),77,,32,56,35,8,,10,5,36,28,4,3,1.2,1
2023-12-15T1400,2405A,112.5003,32.9735,南阳市,汉画馆,细颗粒物(PM2.5),58,49,33,41,27,14,,12,9,23,21,3,2,1.1,1
2023-12-15T1400,2406A,112.5573,33.027,南阳市,气象站,细颗粒物(PM2.5),73,,31,53,31,10,,13,8,30,25,4,3,1.1,1
2023-12-15T1400,2407A,112.5481,32.9689,南阳市,理工学院,细颗粒物(PM2.5),60,45,30,43,25,9,,12,8,31,26,4,4,1.1,1
2023-12-15T1400,4008A,112.5234,32.9922,南阳市,卧龙区政府,细颗粒物(PM2.5),65,,27,47,29,11,,10,6,28,25,4,4,1.1,0.9
2023-12-15T1400,1234A,121.8358,29.911,宁波市,区环保大楼,,28,27,37,19,21,4,,26,5,28,28,6,6,1.2,0.8
2023-12-15T1400,1235A,121.56,29.82,宁波市,万里学院,,25,25,40,6,25,4,,35,4,29,31,5,6,1.1,0.9
2023-12-15T1400,1236A,121.713,29.9572,宁波市,龙赛医院,,30,30,44,12,17,3,,17,3,36,37,11,10,1.2,0.8
2023-12-15T1400,1239A,121.633,29.7733,宁波市,钱湖水厂,,16,16,25,7,24,4,,39,5,31,20,7,8,1.2,0.8
2023-12-15T1400,1240A,121.5856,29.8635,宁波市,太古小学,,26,26,39,4,23,5,,28,5,30,33,5,6,1.3,0.9
2023-12-15T1400,1241A,121.524,29.8674,宁波市,市环境监测中心,,19,19,38,9,20,4,,22,3,30,36,7,7,1.1,0.8
2023-12-15T1400,2871A,121.6147,29.9017,宁波市,万里国际学校,,25,25,38,8,22,4,,27,4,30,28,6,7,1.1,0.7
2023-12-15T1400,3710A,121.5594,29.8975,宁波市,白沙活动中心,,20,20,32,10,20,4,,18,4,34,39,6,6,1.2,0.9
2023-12-15T1400,2339A,119.5001,26.6946,宁德市,金涵水库,,,,,,,,,,,,,,,,
2023-12-15T1400,2341A,119.5388,26.6612,宁德市,宁德市监测站,,37,37,29,24,20,62,,28,28,17,21,7,5,0.8,0.9
2023-12-15T1400,3209A,119.5231,26.6562,宁德市,宁德一中,,42,42,29,24,18,53,,29,29,27,17,5,2,0.9,0.9
2023-12-15T1400,2618A,98.8601,25.8567,怒江州,州监测站,,18,13,21,8,13,57,,40,40,3,7,8,9,0.3,0.4
2023-12-15T1400,2619A,98.8546,25.8417,怒江州,泸水一中,,17,17,20,9,10,52,,27,27,6,14,6,6,0.3,0.4
2023-12-15T1400,1888A,101.6891,26.571,攀枝花市,弄弄坪,,25,22,58,17,26,72,,24,24,22,37,27,44,2.1,2.7
2023-12-15T1400,1889A,101.5769,26.5928,攀枝花市,河门口,,25,16,48,8,21,77,,32,32,32,43,10,17,0.6,0.9
2023-12-15T1400,1890A,101.7169,26.585,攀枝花市,炳草岗,,43,43,43,16,17,72,,24,24,33,38,46,17,2.3,1.1
2023-12-15T1400,1891A,101.7369,26.5008,攀枝花市,仁和,,27,8,29,8,17,84,,40,40,9,23,12,11,0.5,0.9
2023-12-15T1400,2835A,101.7227,26.567,攀枝花市,四十中小,,44,44,44,26,19,84,,27,27,28,35,34,28,1.7,1.7
2023-12-15T1400,1604A,122.0303,41.1489,盘锦市,开发区,颗粒物(PM10),64,78,73,10,15,65,,65,65,19,23,12,12,0.4,0.4
2023-12-15T1400,1605A,122.0485,41.0883,盘锦市,兴隆台,颗粒物(PM10),67,84,98,12,16,69,,69,68,14,15,6,7,0.5,0.5
2023-12-15T1400,1606A,121.8297,41.1028,盘锦市,新生街道,颗粒物(PM10),58,66,59,7,12,71,,70,70,10,13,8,8,0.5,0.5
2023-12-15T1400,1832A,113.3257,33.742,平顶山市,新华旅馆,,20,0,50,0,37,64,,56,56,2,15,7,7,0.4,0.8
2023-12-15T1400,1833A,113.2919,33.737,平顶山市,规划设计院,,48,48,38,19,28,68,,63,63,5,17,8,7,0.5,0.9
2023-12-15T1400,1834A,113.182,33.774,平顶山市,平顶山工学院,,50,50,38,14,24,71,,66,66,9,17,4,4,0.3,0.6
2023-12-15T1400,3204A,113.3025,33.73,平顶山市,规划局,,,,43,0,28,62,,56,56,8,20,7,7,0.6,0.9
2023-12-15T1400,3594A,112.8867,33.9116,平顶山市,石龙区,颗粒物(PM10),58,66,44,22,34,75,,70,70,6,13,4,4,0.3,0.5
2023-12-15T1400,2656A,106.6692,35.5461,平凉市,聚贤嘉苑,颗粒物(PM10),61,71,124,12,24,89,,82,82,8,9,7,6,0.1,0.2
2023-12-15T1400,2657A,106.7021,35.5307,平凉市,博物馆,颗粒物(PM10),54,58,107,15,21,87,,78,78,2,4,7,11,0.2,0.3
2023-12-15T1400,2347A,114.0997,27.5002,萍乡市,武功山,,10,6,7,6,7,15,,12,10,20,15,3,3,0.7,0.5
2023-12-15T1400,2348A,113.8385,27.6434,萍乡市,中医院,,19,19,47,10,29,8,,4,4,20,35,10,16,1.0,1.6
2023-12-15T1400,2349A,113.8493,27.6253,萍乡市,市政府车库,,23,20,48,16,32,9,,4,4,18,35,8,14,0.9,1.8
2023-12-15T1400,2350A,113.8676,27.6435,萍乡市,市环保局,,18,18,39,10,24,10,,5,5,21,37,8,14,0.9,1.6
2023-12-15T1400,2351A,113.866,27.6198,萍乡市,安源区政府,,18,,37,12,28,13,,6,6,14,30,12,17,0.7,1.3
2023-12-15T1400,2319A,119.0141,25.4325,莆田市,荔城区仓后路,细颗粒物(PM2.5),160,146,58,122,40,128,,53,53,48,29,7,7,1.1,0.9
2023-12-15T1400,2320A,119.0015,25.4553,莆田市,莆田市监测站,细颗粒物(PM2.5),135,104,33,103,25,127,,58,58,50,15,8,7,1.1,0.8
2023-12-15T1400,2321A,119.1119,25.4561,莆田市,涵江区六中,细颗粒物(PM2.5),124,107,50,94,35,106,,45,45,48,41,10,9,1.0,0.8
2023-12-15T1400,2322A,119.1013,25.3215,莆田市,秀屿区政府,细颗粒物(PM2.5),119,,63,90,63,160,,65,65,42,39,14,9,1.2,1.2
2023-12-15T1400,2323A,118.981,25.4792,莆田市,东圳水库,,,,,,,,,,,,,,,,
2023-12-15T1400,2392A,115.0312,35.7636,濮阳市,环保局,细颗粒物(PM2.5),54,,38,38,40,54,,41,41,17,20,5,5,0.5,0.5
2023-12-15T1400,2394A,115.0574,35.7609,濮阳市,油田运输公司,细颗粒物(PM2.5),58,,38,41,41,59,,46,46,13,16,5,5,0.6,0.7
2023-12-15T1400,2395A,115.0866,35.7754,濮阳市,油田物探公司,细颗粒物(PM2.5),55,,39,39,44,57,,44,44,11,15,4,3,0.7,0.9
2023-12-15T1400,3021A,115,35.7668,濮阳市,濮水河管理处,细颗粒物(PM2.5),55,,36,39,42,56,,43,43,17,22,6,5,0.8,0.9
2023-12-15T1400,2601A,100.98,22.7633,普洱市,市环保局,,32,,34,22,18,68,,32,32,9,11,5,5,0.3,0.4
2023-12-15T1400,2602A,100.9817,22.8322,普洱市,普洱第二中学,,,20,31,16,11,69,,35,35,6,15,,5,0.1,0.3
2023-12-15T1400,2262A,131.0518,45.8751,七台河市,新一中,,24,14,62,13,53,75,,66,66,11,24,12,12,0.4,0.7
2023-12-15T1400,3345A,131.0577,45.7879,七台河市,中波台,,41,41,91,23,67,67,,53,53,14,51,8,15,0.1,1.1
2023-12-15T1400,3637A,131.0176,45.7761,七台河市,人民广场,颗粒物(PM10),53,56,91,23,64,64,,49,49,22,51,13,14,0.5,0.8
2023-12-15T1400,3684A,130.8781,45.8222,七台河市,新建矿广场,,44,44,88,21,62,62,,49,49,20,48,22,16,0.5,0.9
2023-12-15T1400,1779A,123.9305,47.3636,齐齐哈尔市,安居小区,,18,16,33,9,21,57,,51,51,8,19,5,7,0.2,0.4
2023-12-15T1400,1780A,123.9488,47.3386,齐齐哈尔市,中心广场,,23,23,29,2,12,53,,49,49,11,21,2,9,0.3,0.4
2023-12-15T1400,1781A,123.9483,47.3227,齐齐哈尔市,农牧车辆厂,,,14,24,12,13,44,,50,,11,20,,13,0.4,0.6
2023-12-15T1400,1783A,123.945,47.2988,齐齐哈尔市,市环境监测站,,19,19,30,9,18,55,,53,52,11,22,3,8,0.3,0.4
2023-12-15T1400,3662A,123.6333,47.2075,齐齐哈尔市,富区青少年活动中心,,18,18,39,10,20,53,,51,51,9,16,7,11,0.3,0.4
2023-12-15T1400,2591A,107.9783,26.5747,黔东南苗族侗族自治州,市环境监测站,,26,23,25,18,18,23,,53,25,13,13,4,4,0.7,0.5
2023-12-15T1400,2881A,107.8908,26.5311,黔东南苗族侗族自治州,凯里学院,,23,19,24,16,17,28,,59,42,9,8,4,4,0.7,0.4
2023-12-15T1400,2593A,107.5228,26.2403,黔南布依族苗族自治州,小围寨,,21,14,16,9,9,66,,57,57,1,2,3,3,0.4,0.4
2023-12-15T1400,3538A,107.5175,26.2978,黔南布依族苗族自治州,沙坝,,24,22,19,9,11,75,,60,60,4,5,3,4,0.3,0.3
2023-12-15T1400,2589A,104.9022,25.0925,黔西南布依族苗族自治州,场坝街,,,11,27,4,17,78,,39,39,2,16,2,2,,0.2
2023-12-15T1400,2590A,104.8811,25.0992,黔西南布依族苗族自治州,坪东大道,,25,13,28,5,17,80,,36,36,3,19,3,2,0.2,0.5
2023-12-15T1400,2502A,108.6236,21.9667,钦州市,市环保站,,31,31,33,9,13,64,,46,43,11,16,7,6,0.7,0.8
2023-12-15T1400,2503A,108.6549,21.9481,钦州市,沙埠小学,,28,28,36,10,18,67,,38,37,6,17,7,7,0.5,0.6
2023-12-15T1400,2504A,108.5989,21.7431,钦州市,港区一小,颗粒物(PM10),51,51,43,16,13,78,,59,58,13,17,7,7,0.6,0.7
2023-12-15T1400,3404A,108.5959,21.9633,钦州市,北职校,,,,36,,18,57,,43,39,15,17,7,6,,0.7
2023-12-15T1400,1042A,119.5134,39.8207,秦皇岛市,北戴河环保局,,23,16,22,6,9,72,,70,70,6,7,7,7,0.2,0.3
2023-12-15T1400,1043A,119.7493,40.0116,秦皇岛市,第一关,,,,150,17,17,70,,72,72,,10,6,6,0.3,0.3
2023-12-15T1400,1044A,119.5897,39.9499,秦皇岛市,监测站,,29,29,140,9,15,73,,71,71,4,5,8,8,0.3,0.3
2023-12-15T1400,1046A,119.5251,39.9041,秦皇岛市,建设大厦,,26,,80,18,24,77,,74,74,2,3,2,2,0.2,0.3
2023-12-15T1400,3132A,119.610547,39.943889,秦皇岛市,文明里,,22,18,152,10,15,70,,68,68,10,10,5,5,0.3,0.4
2023-12-15T1400,1307A,120.6659,36.2403,青岛市,仰口,,20,14,15,14,21,61,,55,55,5,14,6,7,0.2,0.5
2023-12-15T1400,1310A,120.4134,36.0658,青岛市,市南区东部子站,,39,39,25,24,20,59,,56,56,13,28,5,6,0.5,0.8
2023-12-15T1400,1311A,120.3664,36.1032,青岛市,四方区子站,,25,22,21,17,17,60,,58,58,14,27,4,4,0.4,0.7
2023-12-15T1400,1312A,120.2994,36.054,青岛市,市南区西部子站,,22,19,19,15,17,66,,60,60,9,22,4,5,0.4,0.7
2023-12-15T1400,1313A,120.4581,36.0858,青岛市,崂山区子站,,29,29,17,12,14,65,,59,59,14,26,5,6,0.5,0.7
2023-12-15T1400,1314A,120.1983,35.9608,青岛市,黄岛区子站,,27,27,22,15,22,64,,54,54,14,33,5,5,0.3,0.7
2023-12-15T1400,1315A,120.3999,36.3083,青岛市,城阳区子站,细颗粒物(PM2.5),53,,24,37,24,69,,64,64,6,18,5,6,0.5,0.8
2023-12-15T1400,1966A,120.0405,35.8735,青岛市,黄岛区4号,,29,29,21,12,19,69,,64,64,8,24,6,5,0.4,0.8
2023-12-15T1400,3362A,120.5014,36.4034,青岛市,即墨2号,,26,26,28,10,19,60,,56,56,6,14,6,6,0.3,0.6
2023-12-15T1400,3642A,120.3503,36.0736,青岛市,市北区南部,,32,32,29,17,15,54,,45,45,19,35,4,6,0.3,0.8
2023-12-15T1400,3643A,120.3948,36.1805,青岛市,李沧区北部,,28,27,21,19,22,60,,56,56,16,28,8,7,0.5,0.8
2023-12-15T1400,1702A,113.0426,23.691,清远市,环保大楼,细颗粒物(PM2.5),93,121,85,69,65,138,,42,42,42,56,7,5,1.1,1.3
2023-12-15T1400,1703A,113.0208,23.7106,清远市,凤城街办,细颗粒物(PM2.5),94,131,110,70,58,145,,48,48,41,56,9,9,0.8,1.3
2023-12-15T1400,3025A,113.0477,23.6344,清远市,技师学院,颗粒物(PM10),88,126,112,62,61,97,,28,28,36,53,8,10,0.6,0.8
2023-12-15T1400,3318A,112.9903,23.7403,清远市,清新太和,细颗粒物(PM2.5),93,119,85,69,56,153,,46,46,40,48,10,6,1.0,1.1
2023-12-15T1400,3455A,113.076,23.7198,清远市,清城东城,细颗粒物(PM2.5),102,120,87,76,60,16,,4,4,45,48,10,9,1.0,1.2
2023-12-15T1400,2661A,107.6325,35.7357,庆阳市,庆阳五中,颗粒物(PM10),53,55,118,11,22,70,,59,59,5,6,2,3,0.4,0.4
2023-12-15T1400,2662A,107.6364,35.7067,庆阳市,市环保局,颗粒物(PM10),52,53,121,8,16,69,,58,58,5,6,4,4,0.2,0.5
2023-12-15T1400,1916A,103.7897,25.5035,曲靖市,环境监测站,,25,,16,6,7,77,,41,41,5,15,4,5,0.2,0.2
2023-12-15T1400,1917A,103.8,25.5364,曲靖市,烟厂办公区,,24,10,21,4,12,76,,40,40,5,18,3,9,0.3,0.5
2023-12-15T1400,3376A,103.7947,25.462,曲靖市,南苑二区,,25,12,12,5,8,77,,47,47,4,7,6,5,0.3,0.3
2023-12-15T1400,3377A,103.7444,25.5261,曲靖市,曲靖师范学院,,24,,23,7,16,76,,43,43,5,20,6,19,0.4,0.5
2023-12-15T1400,1264A,118.8692,28.9398,衢州市,环保大楼,细颗粒物(PM2.5),75,86,81,55,44,2,,1,1,41,44,5,6,1.0,1.2
2023-12-15T1400,1265A,118.8709,28.9666,衢州市,实验学校,"颗粒物(PM10),细颗粒物(PM2.5)",64,77,77,46,38,4,,2,2,41,42,8,7,0.7,1.1
2023-12-15T1400,1266A,118.8621,28.9808,衢州市,衢州学院,细颗粒物(PM2.5),67,71,74,48,39,6,,4,4,39,35,5,7,0.8,1
2023-12-15T1400,1611A,118.5819,24.9117,泉州市,涂山街,颗粒物(PM10),73,95,71,46,42,94,,46,46,54,47,12,8,0.9,1
2023-12-15T1400,1612A,118.5972,24.8978,泉州市,津头埔,细颗粒物(PM2.5),110,132,70,83,44,111,,44,44,94,55,11,8,1.1,1
2023-12-15T1400,1613A,118.6663,24.9424,泉州市,万安,细颗粒物(PM2.5),129,143,66,98,42,165,,48,48,68,45,10,6,1.0,0.9
2023-12-15T1400,1614A,118.6117,24.9604,泉州市,清源山,,,,,,,,,,,,,,,,
2023-12-15T1400,3529A,118.6333,24.9264,泉州市,城华南路,细颗粒物(PM2.5),84,103,62,62,39,128,,47,47,69,50,12,8,1.0,0.9
2023-12-15T1400,2626A,88.8876,29.2718,日喀则市,日喀则监测站,,21,20,51,5,29,66,,38,38,3,24,3,7,0.5,1.1
2023-12-15T1400,3726A,88.8781,29.2426,日喀则市,林业技术推广中心,,29,29,33,3,15,67,,39,39,9,22,6,8,0.6,0.8
2023-12-15T1400,1659A,119.471,35.4209,日照市,监测站,,21,17,14,9,13,66,,62,62,6,17,7,7,0.5,0.7
2023-12-15T1400,1660A,119.523,35.4216,日照市,市政府广场,,26,,17,18,13,66,,61,61,10,21,2,3,0.5,0.8
2023-12-15T1400,1661A,119.5587,35.4044,日照市,港务局,,,19,17,12,13,,,63,63,14,26,5,5,0.6,0.9
2023-12-15T1400,3507A,119.5328,35.4625,日照市,职业技术学院,,44,44,20,12,14,67,,62,62,6,16,6,6,0.4,0.6
2023-12-15T1400,3604A,119.3266,35.1044,日照市,岚山环保分局,,29,24,28,20,24,60,,56,56,10,20,6,11,0.6,1.7
2023-12-15T1400,1835A,111.1922,34.7752,三门峡市,市政府,,38,38,34,14,23,60,,60,60,10,19,5,6,0.6,0.8
2023-12-15T1400,1836A,111.1587,34.7942,三门峡市,开发区,,34,34,34,12,22,63,,63,63,7,17,4,6,0.3,1
2023-12-15T1400,1838A,111.143,34.7955,三门峡市,风景区,,,,,,,,,,,,,,,,
2023-12-15T1400,3039A,111.1911,34.7829,三门峡市,三门峡市第一小学,,44,44,39,6,24,63,,62,62,7,17,9,7,0.4,0.7
2023-12-15T1400,3598A,111.1,34.7167,三门峡市,富达温泉假日酒店,颗粒物(PM10),55,60,51,11,26,64,,62,62,17,28,3,6,0.4,0.8
2023-12-15T1400,2324A,117.6211,26.2625,三明市,三钢,,28,28,41,6,29,68,,26,26,11,31,8,8,0.5,1.1
2023-12-15T1400,2325A,117.635,26.2714,三明市,三明二中,,23,19,34,11,24,73,,30,30,10,29,8,10,0.4,1
2023-12-15T1400,2326A,117.6028,26.2378,三明市,三元区政府,,29,29,46,8,26,71,,26,26,8,31,7,12,0.4,1
2023-12-15T1400,2327A,117.7275,26.3108,三明市,洋溪,,,,,,,,,,,,,,,,
2023-12-15T1400,1876A,109.5078,18.2489,三亚市,河东子站,,22,19,19,6,7,70,,56,56,7,5,3,2,0.3,0.3
2023-12-15T1400,1877A,109.4964,18.2681,三亚市,河西子站,,24,19,19,9,7,74,,53,53,8,6,2,2,0.4,0.3
2023-12-15T1400,3540A,109.7348,18.3443,三亚市,君悦子站,,21,16,25,6,8,67,,42,42,3,11,2,2,0.3,0.3
2023-12-15T1400,2624A,91.7608,29.2313,山南市,山南监测站,,21,21,32,10,17,67,,33,33,8,24,8,8,0.2,0.4
2023-12-15T1400,2625A,91.7706,29.2436,山南市,山南人民医院,,26,26,34,6,17,65,,36,36,15,25,8,8,0.2,0.4
2023-12-15T1400,1674A,116.6794,23.3667,汕头市,金平子站,,,68,42,51,37,61,,37,,46,26,12,9,,0.9
2023-12-15T1400,1675A,116.7244,23.3633,汕头市,龙湖子站,,45,45,41,28,31,95,,51,51,30,33,10,9,1.0,1.1
2023-12-15T1400,1676A,116.7258,23.2775,汕头市,濠江子站,颗粒物(PM10),51,52,41,34,34,96,,58,58,40,25,11,10,1.0,0.9
2023-12-15T1400,1677A,116.7519,23.4714,汕头市,澄海子站,颗粒物(PM10),58,66,51,38,44,96,,52,52,30,33,17,13,0.7,0.7
2023-12-15T1400,1678A,116.6092,23.2539,汕头市,潮阳子站,,45,40,38,31,29,83,,56,56,22,20,9,9,1.2,1
2023-12-15T1400,3444A,116.454,23.2684,汕头市,潮南峡山,,45,43,72,31,46,84,,60,60,18,24,9,10,0.9,1
2023-12-15T1400,3624A,116.4069,23.2533,汕头市,潮南子站,,35,34,71,24,45,74,,55,55,14,16,7,9,0.9,1
2023-12-15T1400,1693A,115.3653,22.775,汕尾市,市环保局,,26,18,32,13,19,81,,68,68,7,17,9,10,0.7,0.8
2023-12-15T1400,1694A,115.3706,22.7898,汕尾市,市政府,,33,,33,23,27,74,,62,62,7,11,4,5,0.6,0.7
2023-12-15T1400,1695A,115.3622,22.7925,汕尾市,新城中学,,25,23,41,17,23,79,,65,65,9,16,9,10,0.4,0.5
2023-12-15T1400,2645A,109.9154,33.8715,商洛市,监测站,颗粒物(PM10),53,56,53,17,22,50,,55,53,11,13,5,5,0.4,0.5
2023-12-15T1400,3045A,109.9643,33.8471,商洛市,商州区中学,颗粒物(PM10),140,229,69,16,20,51,,54,53,11,15,4,4,0.7,0.8
2023-12-15T1400,2408A,115.6702,34.4285,商丘市,环境监测站,细颗粒物(PM2.5),69,,30,50,37,43,,39,39,18,17,7,8,1.0,1
2023-12-15T1400,2409A,115.6458,34.4045,商丘市,粮食局,细颗粒物(PM2.5),70,70,42,51,36,40,,36,36,12,14,5,4,0.8,0.9
2023-12-15T1400,2410A,115.6293,34.3948,商丘市,睢阳区环保局,细颗粒物(PM2.5),67,69,33,48,37,39,,35,35,12,15,4,3,0.4,0.5
2023-12-15T1400,3171A,115.6071,34.4465,商丘市,梁园区档案局,细颗粒物(PM2.5),68,50,29,49,34,41,,36,36,14,17,6,6,0.7,0.7
2023-12-15T1400,1141A,121.4,31.238,上海市,普陀,,33,33,58,16,39,2,,1,1,41,62,4,6,1.6,1.1
2023-12-15T1400,1142A,121.478,31.2036,上海市,十五厂,,33,24,57,23,50,2,,2,2,33,63,7,8,1.6,1.2
2023-12-15T1400,1143A,121.467,31.3008,上海市,虹口,,29,29,59,20,46,4,,3,3,39,64,5,7,1.6,1.3
2023-12-15T1400,1144A,121.412,31.1654,上海市,徐汇上师大,,33,27,59,23,43,6,,5,5,40,67,8,9,1.5,1.2
2023-12-15T1400,1145A,121.536,31.2659,上海市,杨浦四漂,,29,22,63,20,41,6,,6,6,35,65,6,7,1.7,1.3
2023-12-15T1400,1147A,121.425,31.2261,上海市,静安监测站,,30,27,53,21,44,7,,6,6,40,65,5,6,1.5,1.1
2023-12-15T1400,1148A,121.703,31.1907,上海市,浦东川沙,,25,17,55,17,41,6,,11,6,38,47,6,6,1.3,1
2023-12-15T1400,1149A,121.533,31.2284,上海市,浦东新区监测站,,21,21,51,14,35,4,,5,3,39,55,6,7,1.6,1.2
2023-12-15T1400,1150A,121.577,31.2071,上海市,浦东张江,,22,19,48,12,34,4,,4,4,43,55,4,5,1.2,0.9
2023-12-15T1400,3265A,121.4316,31.3322,上海市,宝山庙行,,35,35,61,18,46,5,,5,5,34,64,6,7,1.7,1.3
2023-12-15T1400,3266A,121.8791,31.4662,上海市,崇明上实东滩,,11,7,37,5,26,35,,18,18,16,39,6,7,0.8,0.8
2023-12-15T1400,3268A,121.3162,31.2838,上海市,嘉定南翔,,28,25,66,19,48,4,,3,3,34,66,5,6,1.6,1.4
2023-12-15T1400,3269A,121.3359,30.7456,上海市,金山新城,,19,,42,12,38,5,,11,4,38,44,6,6,1.3,1.1
2023-12-15T1400,3270A,121.4996,31.0739,上海市,闵行浦江,,22,18,45,15,39,7,,6,6,40,53,6,6,1.2,0.9
2023-12-15T1400,3271A,121.2886,31.1663,上海市,青浦徐泾,,20,16,58,14,46,7,,4,4,39,64,4,5,1.2,1.2
2023-12-15T1400,3272A,121.2186,31.0378,上海市,松江图书馆,,20,12,60,11,47,5,,4,4,39,67,4,6,1.4,1.3
2023-12-15T1400,3273A,121.3902,31.2059,上海市,长宁仙霞,,27,27,72,18,40,4,,3,3,41,65,5,7,1.5,1.5
2023-12-15T1400,3274A,121.7965,31.0507,上海市,浦东惠南,,20,12,50,11,38,4,,8,4,40,58,8,8,1.2,0.9
2023-12-15T1400,3544A,121.4891,30.925,上海市,奉贤南桥新城,,21,11,44,11,32,6,,8,5,41,58,9,10,1.1,0.9
2023-12-15T1400,2381A,118.005,28.4572,上饶市,百草园,,,,,,,,,,,,,,,,
2023-12-15T1400,2382A,117.9756,28.4436,上饶市,市监测站,,45,45,55,18,41,7,,8,8,26,39,30,23,1.2,0.9
2023-12-15T1400,2383A,117.9519,28.4628,上饶市,凤凰光学,,36,36,52,22,28,8,,7,7,20,34,14,17,0.9,0.9
2023-12-15T1400,3413A,118.1953,28.4401,上饶市,广丰区教体局,颗粒物(PM10),52,53,34,30,21,15,,15,15,27,18,29,13,1.0,0.6
