timepoint,stationcode,longitude,latitude,area,positionname,primarypollutant,aqi,pm10,pm10_24h,pm2_5,pm2_5_24h,o3,o3_24h,o3_8h,o3_8h_24h,no2,no2_24h,so2,so2_24h,co,co_24h
2024-08-05T1700,2566A,102.1879,31.914,阿坝藏族羌族自治州,州农科所,,29,22,22,6,9,90,,70,70,28,14,8,6,0,0
2024-08-05T1700,2568A,102.2502,31.8896,阿坝藏族羌族自治州,马师校,,,,17,8,13,104,,84,84,,16,7,5,0.2,0.3
2024-08-05T1700,3994A,102.2165,31.9024,阿坝藏族羌族自治州,马尔康中学西区,,35,7,13,6,12,111,,82,82,10,7,4,4,0.3,0.3
2024-08-05T1700,2695A,80.292,41.1694,阿克苏地区,电视台,,41,40,26,11,15,131,,101,101,11,16,7,4,0.5,0.5
2024-08-05T1700,2696A,80.2613,41.1551,阿克苏地区,艺术中心,,43,28,22,19,9,136,,102,102,8,12,3,4,0.5,0.5
2024-08-05T1700,2204A,105.6467,38.8363,阿拉善盟,西城区西花园,颗粒物(PM10),107,163,56,15,15,165,,152,152,15,12,6,10,1.2,0.9
2024-08-05T1700,2205A,105.6985,38.8411,阿拉善盟,蒙二幼,颗粒物(PM10),62,74,68,19,13,150,,135,135,12,10,12,10,0.4,0.3
2024-08-05T1700,2206A,105.724,38.8516,阿拉善盟,环保局新楼,颗粒物(PM10),66,82,41,18,12,156,,143,143,11,6,12,10,0.7,0.6
2024-08-05T1700,2708A,88.1264,47.8517,阿勒泰地区,市站,,36,17,20,3,6,113,,95,95,14,14,7,7,0.5,0.5
2024-08-05T1700,2630A,80.1161,32.5,阿里地区,阿里监测站,,37,6,8,3,3,116,,114,108,5,6,7,6,0.2,0.2
2024-08-05T1700,3192A,80.0903,32.5028,阿里地区,阿里藏医院,,,,,,,119,,111,111,3,5,6,15,0.3,0.4
2024-08-05T1700,2642A,109.0318,32.6537,安康市,香溪洞,,32,32,16,11,3,90,,69,69,2,4,6,5,0.3,0.3
2024-08-05T1700,2643A,109.0281,32.6939,安康市,安康市监测站,,37,22,21,3,5,116,,82,82,6,7,8,7,0.5,0.5
2024-08-05T1700,2644A,109.0072,32.6975,安康市,汉滨区检察院,,33,21,18,9,4,105,,83,83,4,6,8,7,0.4,0.5
2024-08-05T1700,2291A,117.0809,30.5177,安庆市,环科院,,35,,30,24,21,103,,123,123,10,28,7,7,0.4,0.6
2024-08-05T1700,2292A,117.0331,30.5119,安庆市,马山宾馆,,33,25,22,21,22,103,,122,122,21,32,9,9,0.5,0.6
2024-08-05T1700,2294A,116.9896,30.6145,安庆市,安庆大学,,37,29,35,20,22,116,,125,125,7,16,8,11,0.4,0.4
2024-08-05T1700,3173A,117.0598,30.5351,安庆市,市人大,,31,27,29,16,20,99,,120,120,3,15,5,8,0.3,0.4
2024-08-05T1700,3122A,105.9606,26.2611,安顺市,伍家关,,,,,,,,,,,,,,,,
2024-08-05T1700,3123A,105.9408,26.2431,安顺市,凤凰山,,21,9,10,6,9,66,,59,59,2,4,6,7,0.5,0.5
2024-08-05T1700,3124A,105.9439,26.2564,安顺市,金钟山,,22,13,12,9,10,68,,61,61,2,3,5,5,0.5,0.5
2024-08-05T1700,3125A,105.8983,26.2481,安顺市,娄家坡,,21,14,12,9,5,65,,61,61,2,2,6,6,0.4,0.5
2024-08-05T1700,1818A,114.4839,36.0621,安阳市,棉研所,,,,,,,,,,,,,,,,
2024-08-05T1700,1819A,114.3551,36.1017,安阳市,红庙街,,41,30,31,16,14,131,,118,118,1,7,2,4,0.5,0.6
2024-08-05T1700,1820A,114.361,36.0681,安阳市,银杏小区,,,31,27,,49,128,,115,115,2,4,3,2,0.6,0.6
2024-08-05T1700,3141A,114.3922,36.0878,安阳市,信访局,,44,22,27,16,12,140,,124,124,2,3,1,2,0.7,0.7
2024-08-05T1700,3669A,114.4705,36.0637,安阳市,左辅环卫站,,40,29,28,12,14,127,,113,113,1,6,5,4,0.7,0.6
2024-08-05T1700,3703A,114.2917,36.0949,安阳市,安钢职工学校,,44,40,34,19,25,138,,124,124,7,12,4,6,0.7,0.8
2024-08-05T1700,1748A,123.044,41.1196,鞍山市,深沟寺,,29,16,13,13,5,91,,81,81,13,7,3,3,0.8,0.5
2024-08-05T1700,1749A,123.011,41.0931,鞍山市,太阳城,,30,17,12,10,6,93,,84,84,10,6,3,3,0.8,0.4
2024-08-05T1700,1750A,123.0485,41.1442,鞍山市,太平,,35,35,16,22,10,58,,76,76,48,19,16,4,3.0,1
2024-08-05T1700,1751A,122.9642,41.0971,鞍山市,铁西三道街,,27,22,15,16,7,84,,83,83,18,18,3,3,1.2,0.9
2024-08-05T1700,1752A,122.9341,41.0833,鞍山市,铁西工业园区,,27,22,14,13,6,86,,84,84,11,11,5,5,1.2,0.9
2024-08-05T1700,1753A,123.022,41.0821,鞍山市,明达新区,,,16,9,,5,83,,77,77,10,6,2,2,0.5,0.4
2024-08-05T1700,1754A,123.1289,41.0228,鞍山市,千山,,,,,,,,,,,,,,,,
2024-08-05T1700,2195A,107.4212,40.761,巴彦淖尔市,附二中,臭氧1小时,72,48,52,30,25,177,,152,152,10,10,7,19,0.4,0.4
2024-08-05T1700,2196A,107.37,40.7372,巴彦淖尔市,市环保大楼,臭氧1小时,58,54,49,17,17,166,,143,143,7,10,7,6,0.4,0.4
2024-08-05T1700,1956A,86.1472,41.7538,巴音郭楞蒙古自治州,孔雀公园,颗粒物(PM10),63,75,56,27,20,119,,111,111,2,11,4,4,0.1,0.2
2024-08-05T1700,1957A,86.1972,41.7166,巴音郭楞蒙古自治州,棉纺厂,颗粒物(PM10),55,59,56,36,20,118,,114,114,5,14,5,5,0.3,0.3
2024-08-05T1700,1958A,86.2357,41.7173,巴音郭楞蒙古自治州,经济开发区,颗粒物(PM10),60,69,49,41,23,109,,109,109,2,7,5,5,0.1,0.2
2024-08-05T1700,2914A,106.7677,31.8794,巴中市,苏山坪,,27,12,20,8,11,84,,71,71,4,5,4,4,0.4,0.4
2024-08-05T1700,3182A,106.7656,31.8545,巴中市,丽阳花园,,25,15,15,8,9,80,,71,71,4,8,3,3,0.5,0.5
2024-08-05T1700,3183A,106.7418,31.8654,巴中市,圣泉水务公司,,27,11,13,9,8,84,,73,73,4,9,4,4,0.5,0.5
2024-08-05T1700,3616A,106.7616,31.8344,巴中市,市中心医院,,25,13,13,13,10,77,,68,68,4,8,3,3,0.4,0.5
2024-08-05T1700,2235A,122.7911,45.6077,白城市,洮北区环保局,,19,6,11,3,5,60,,63,63,5,6,3,7,0.5,0.4
2024-08-05T1700,2236A,122.8738,45.5725,白城市,市环保局,,19,19,16,3,4,60,,66,66,4,5,2,3,0.4,0.5
2024-08-05T1700,2231A,126.4219,41.9171,白山市,喜丰,,28,28,31,10,13,65,,70,70,6,9,10,8,1.0,1
2024-08-05T1700,2232A,126.4077,41.9419,白山市,环保局,,36,36,25,13,11,68,,70,70,7,10,9,8,0.6,0.6
2024-08-05T1700,2647A,104.1724,36.5446,白银市,第三小学,,50,34,56,17,23,157,,135,135,10,29,13,79,0.5,0.9
2024-08-05T1700,2648A,104.1465,36.5482,白银市,动力公司,,,,37,,17,,,101,,,17,,26,,0.7
2024-08-05T1700,2512A,106.6103,23.9011,百色市,市监测站,,,,30,,12,,,61,,,14,,7,,0.8
2024-08-05T1700,2513A,106.6538,23.8859,百色市,市中心血站,,37,37,38,13,17,74,,79,79,5,12,4,9,0.6,0.8
2024-08-05T1700,3406A,106.6085,23.8798,百色市,祈福高中,,38,,38,26,19,79,,82,82,4,13,5,8,0.8,0.9
2024-08-05T1700,2270A,117.396,32.939,蚌埠市,工人疗养院,,47,33,34,14,13,149,,128,128,2,4,9,10,0.4,0.5
2024-08-05T1700,2271A,117.3605,32.9427,蚌埠市,百货大楼,,47,36,36,15,13,148,,130,130,2,5,6,9,0.5,0.5
2024-08-05T1700,2273A,117.4185,32.8911,蚌埠市,蚌埠学院,,45,27,29,14,15,143,,135,135,2,7,6,7,0.5,0.5
2024-08-05T1700,2274A,117.3533,32.9673,蚌埠市,淮上区政府,,48,24,28,15,15,151,,130,130,2,6,8,9,0.4,0.5
2024-08-05T1700,2275A,117.3145,32.8977,蚌埠市,高新区,,35,22,38,10,16,111,,127,127,2,11,6,10,0.4,0.7
2024-08-05T1700,3715A,117.3092,32.9314,蚌埠市,蚌埠田家炳中学,,34,26,40,10,18,107,,120,120,2,7,7,14,0.3,0.7
2024-08-05T1700,1585A,109.8756,40.6532,包头市,市环境监测站,臭氧1小时,57,26,37,16,19,165,,139,139,10,27,10,19,0.6,0.8
2024-08-05T1700,1587A,109.9991,40.5842,包头市,包头八中,,44,21,35,8,20,140,,118,118,8,24,7,28,0.6,0.8
2024-08-05T1700,1588A,109.8538,40.6821,包头市,青山宾馆,臭氧1小时,54,30,36,8,20,163,,137,137,11,31,9,16,0.6,0.9
2024-08-05T1700,1589A,109.8642,40.6288,包头市,惠龙物流,臭氧1小时,53,16,32,7,17,162,,140,140,9,25,8,22,0.6,0.7
2024-08-05T1700,1590A,110.0377,40.5546,包头市,东河鸿龙湾,,46,18,31,10,14,147,,126,126,7,18,5,17,0.5,0.7
2024-08-05T1700,3283A,109.9154,40.5685,包头市,滨河大厦,,49,20,27,7,15,155,,133,133,4,22,8,10,0.6,0.7
2024-08-05T1700,3419A,109.9447,40.6261,包头市,包头市委党校,,48,17,30,11,19,152,,126,126,11,32,6,11,0.5,0.7
2024-08-05T1700,3683A,109.8331,40.6576,包头市,昆区政府,臭氧1小时,58,27,34,9,19,166,,139,139,10,23,9,22,0.6,0.8
2024-08-05T1700,1930A,107.185,34.3063,宝鸡市,庙沟村,,37,25,30,13,12,116,,104,104,4,8,6,6,0.3,0.4
2024-08-05T1700,1931A,107.0708,34.3017,宝鸡市,竹园沟,,44,27,33,14,15,138,,122,122,8,12,4,4,0.5,0.5
2024-08-05T1700,1932A,107.1906,34.3672,宝鸡市,三陆医院,,40,38,37,24,20,128,,121,121,10,16,9,9,0.4,0.5
2024-08-05T1700,1933A,107.1431,34.3547,宝鸡市,监测站,,,,,,,,,,,,,,,,
2024-08-05T1700,1934A,107.1186,34.3739,宝鸡市,技工学校,,43,36,42,16,22,136,,118,118,10,13,8,8,0.5,0.6
2024-08-05T1700,1935A,107.3906,34.3528,宝鸡市,陈仓区环保局家属楼,,40,25,33,15,18,125,,107,107,8,16,8,8,0.4,0.4
2024-08-05T1700,1936A,107.2058,34.3497,宝鸡市,文理学院,,41,28,32,15,11,130,,114,114,10,14,8,9,0.6,0.6
2024-08-05T1700,1937A,107.2386,34.3622,宝鸡市,三迪小学,,40,,34,20,20,127,,119,119,8,14,9,9,0.4,0.4
2024-08-05T1700,1051A,115.493,38.8632,保定市,游泳馆,,50,18,25,3,8,157,,149,149,6,10,3,2,0.3,0.2
2024-08-05T1700,1052A,115.5213,38.8959,保定市,华电二区,臭氧1小时,54,17,22,3,11,163,,154,154,2,4,5,5,0.7,0.5
2024-08-05T1700,1053A,115.4713,38.9108,保定市,接待中心,臭氧1小时,59,27,26,13,8,167,,154,154,2,3,1,3,0.4,0.3
2024-08-05T1700,1054A,115.4612,38.8416,保定市,地表水厂,,45,23,30,8,8,142,,131,131,1,4,1,1,0.3,0.2
2024-08-05T1700,3581A,115.31981,38.95208,保定市,满城区生态环境分局,,50,19,19,3,7,158,,145,145,9,10,3,3,0.2,0.3
2024-08-05T1700,3582A,115.47694,38.76408,保定市,清苑区第二中学,,,20,28,9,16,139,,139,139,2,2,,3,0.3,0.3
2024-08-05T1700,3583A,115.62909,39.02311,保定市,徐水物探局,臭氧1小时,89,18,22,7,5,191,,148,148,4,5,3,3,0.2,0.2
2024-08-05T1700,4004A,115.4202,38.8656,保定市,双鹰农机,臭氧1小时,57,22,23,7,10,165,,156,156,5,6,6,6,0.4,0.3
2024-08-05T1700,4034A,115.5150,38.8590,保定市,植保所站,臭氧1小时,63,19,23,8,12,170,,155,155,1,4,2,3,0.1,0.1
2024-08-05T1700,2594A,99.1678,25.1081,保山市,市环境监测站,,32,32,24,3,10,54,,48,48,6,9,6,7,0.5,0.5
2024-08-05T1700,2595A,99.1711,25.1328,保山市,市环保局,,,,21,6,10,59,,54,54,4,6,6,6,0.4,0.4
2024-08-05T1700,1866A,109.2262,21.588,北海市,牛尾岭水库,,,,,,,,,,,,,,,,
2024-08-05T1700,1867A,109.1436,21.4086,北海市,海滩公园,,49,49,32,12,5,57,,59,59,3,4,4,4,0.7,0.7
2024-08-05T1700,1868A,109.0981,21.4661,北海市,新市环保局,,21,21,14,9,8,54,,60,59,4,4,2,2,0.4,0.4
2024-08-05T1700,1869A,109.1778,21.5233,北海市,北海工业园,,39,39,19,10,10,60,,60,60,5,7,4,4,0.5,0.5
2024-08-05T1700,3400A,109.1911,21.4415,北海市,龙潭自来水厂,,21,21,15,9,8,48,,52,52,4,4,6,8,0.5,0.5
2024-08-05T1700,1001A,116.3621,39.8784,北京市,万寿西宫,,48,9,14,6,9,152,,134,134,7,13,3,3,0.4,0.5
2024-08-05T1700,1002A,116.2202,40.2915,北京市,定陵,,39,13,10,3,5,124,,114,114,2,3,3,3,0.4,0.4
2024-08-05T1700,1003A,116.4174,39.9289,北京市,东四,臭氧1小时,55,10,14,6,11,164,,147,147,10,12,2,2,0.5,0.6
2024-08-05T1700,1004A,116.4072,39.8863,北京市,天坛,,46,9,13,3,9,146,,138,138,12,15,3,3,0.4,0.5
2024-08-05T1700,1005A,116.462,39.9365,北京市,农展馆,臭氧1小时,55,11,15,6,9,164,,142,142,12,15,3,3,0.3,0.4
2024-08-05T1700,1006A,116.3392,39.9295,北京市,官园,臭氧1小时,57,13,12,6,7,165,,145,145,9,12,4,3,0.3,0.4
2024-08-05T1700,1007A,116.2878,39.9611,北京市,海淀万柳,,44,11,13,6,7,138,,123,123,6,9,2,2,0.3,0.4
2024-08-05T1700,1008A,116.6636,40.135,北京市,顺义新城,臭氧1小时,55,11,13,6,7,164,,136,136,6,8,3,3,0.3,0.4
2024-08-05T1700,1009A,116.6275,40.3275,北京市,怀柔镇,,42,9,11,3,7,132,,122,122,6,6,3,3,0.2,0.2
2024-08-05T1700,1010A,116.2296,40.217,北京市,昌平镇,,37,10,11,3,6,117,,108,108,15,19,4,4,0.3,0.4
2024-08-05T1700,1011A,116.3966,39.9821,北京市,奥体中心,,41,10,12,7,9,130,,118,118,13,14,3,3,0.3,0.4
2024-08-05T1700,1012A,116.184,39.9136,北京市,古城,,45,11,12,6,8,144,,131,131,10,14,3,2,0.3,0.4
2024-08-05T1700,3281A,115.9718,40.4529,北京市,延庆夏都,,38,9,15,3,8,121,,108,108,3,8,3,3,0.3,0.4
2024-08-05T1700,3417A,117.0709,40.1465,北京市,平谷新城,,42,10,19,6,11,134,,113,113,6,7,3,3,0.3,0.3
2024-08-05T1700,3418A,116.8336,40.4095,北京市,密云新城,,44,7,9,3,7,138,,116,116,7,5,3,3,0.3,0.4
2024-08-05T1700,3671A,116.088,39.9726,北京市,门头沟三家店,,,10,12,6,6,,,93,,2,6,,7,,3.6
2024-08-05T1700,3672A,116.1541,39.8204,北京市,丰台云岗,,37,10,11,7,10,116,,115,115,5,8,2,1,0.2,0.3
2024-08-05T1700,3673A,116.6804,39.9081,北京市,通州东关,臭氧1小时,90,14,18,7,11,192,,151,151,8,11,3,3,0.4,0.5
2024-08-05T1700,3674A,115.9577,39.7603,北京市,房山燕山,,35,9,12,3,7,112,,113,113,8,8,3,3,0.3,0.3
2024-08-05T1700,3675A,116.4672,39.7733,北京市,大兴旧宫,,43,9,14,6,11,135,,129,129,4,9,3,3,0.4,0.4
2024-08-05T1700,3694A,115.986,40.4563,北京市,延庆石河营,,36,9,14,3,9,113,,101,101,3,7,3,3,0.3,0.4
2024-08-05T1700,3695A,116.6151,40.3053,北京市,怀柔新城,,40,9,10,3,6,127,,116,116,4,4,3,3,0.4,0.4
2024-08-05T1700,3696A,116.2545,39.8768,北京市,丰台小屯,,40,11,12,7,9,126,,115,115,6,8,5,5,0.2,0.2
2024-08-05T1700,3697A,116.84,40.3844,北京市,密云镇,,41,10,17,7,9,130,,118,118,5,7,1,2,0.1,0.3
2024-08-05T1700,1761A,123.8275,41.3064,本溪市,大峪,,26,10,8,10,7,82,,85,85,6,11,6,9,0.4,0.4
2024-08-05T1700,1762A,123.7567,41.3325,本溪市,溪湖,,25,15,17,6,6,78,,74,74,9,16,8,8,0.6,1.3
2024-08-05T1700,1763A,123.7169,41.3094,本溪市,彩屯,,27,27,20,13,9,62,,62,62,17,22,7,7,1.5,2
2024-08-05T1700,1764A,123.7669,41.2864,本溪市,东明,,25,15,11,3,6,80,,78,78,10,9,6,4,0.5,0.5
2024-08-05T1700,1765A,123.7992,41.2664,本溪市,新立屯,,26,10,8,3,3,83,,82,82,9,8,2,3,0.6,0.5
2024-08-05T1700,1766A,123.8142,41.3472,本溪市,威宁,,24,13,17,7,5,74,,78,78,7,13,8,8,0.4,0.5
2024-08-05T1700,2587A,105.2864,27.3125,毕节市,八中,,23,14,18,12,13,73,,78,78,9,14,5,6,0.4,0.5
2024-08-05T1700,2588A,105.31,27.2944,毕节市,师专,,26,26,22,13,13,68,,72,72,8,15,6,7,0.5,0.5
2024-08-05T1700,3537A,105.3631,27.3533,毕节市,长征村,,25,15,20,9,14,80,,86,86,8,9,5,8,0.4,0.5
2024-08-05T1700,1629A,118.0018,37.3617,滨州市,第二水厂,,36,19,10,12,8,114,,87,87,2,7,3,2,0.8,0.6
2024-08-05T1700,1630A,117.9776,37.393,滨州市,北中新校,,33,24,15,12,7,105,,81,81,2,7,2,3,0.4,0.3
2024-08-05T1700,3514A,117.9378,37.3956,滨州市,中海酒店,,38,27,9,19,9,119,,89,89,5,9,3,4,0.7,0.7
2024-08-05T1700,3515A,117.9378,37.3553,滨州市,开发区一中,,38,,12,22,9,121,,98,98,6,12,6,6,0.6,0.5
2024-08-05T1700,3516A,118.0917,37.694,滨州市,金海六路,,42,29,11,22,6,133,,99,99,6,12,3,3,0.6,0.5
2024-08-05T1700,4028A,117.9956,37.3753,滨州市,滨州市西街道办事处,,40,,10,9,7,125,,95,95,2,7,2,4,0.5,0.5
2024-08-05T1700,2311A,115.8072,33.8399,亳州市,污水处理厂,,33,23,21,18,10,104,,92,92,7,9,2,4,0.6,0.5
2024-08-05T1700,2312A,115.7789,33.8518,亳州市,三国揽胜宫,,35,26,23,14,10,111,,94,94,5,6,5,4,0.5,0.5
2024-08-05T1700,3332A,115.7633,33.8034,亳州市,亳州学院,,37,22,18,7,9,117,,101,101,4,7,1,5,0.4,0.4
2024-08-05T1700,2693A,82.0485,44.8556,博尔塔拉蒙古自治州,市党校,,43,43,31,6,13,104,,96,96,11,9,8,8,0.5,0.4
2024-08-05T1700,2694A,82.0806,44.8969,博尔塔拉蒙古自治州,市环保局,颗粒物(PM10),51,52,37,9,12,95,,79,79,11,16,6,8,0.3,0.4
2024-08-05T1700,1071A,116.8842,38.2991,沧州市,沧县城建局,,45,,18,15,10,142,,124,124,4,8,3,3,0.2,0.2
2024-08-05T1700,1072A,116.8584,38.3254,沧州市,电视转播站,,50,15,17,9,10,159,,142,142,5,7,5,3,0.2,0.2
2024-08-05T1700,1073A,116.8709,38.3228,沧州市,市环保局,臭氧1小时,54,19,15,11,11,163,,143,143,5,6,4,2,0.3,0.2
2024-08-05T1700,3324A,116.8136,38.3004,沧州市,河北水利电力学院,,48,17,14,11,11,151,,136,136,4,10,4,3,0.3,0.2
2024-08-05T1700,2622A,97.1806,31.1273,昌都市,昌都监测站,,34,6,9,3,6,107,,82,82,1,7,9,9,0.4,0.5
2024-08-05T1700,3719A,97.1714,31.1406,昌都市,昌都会议中心,,34,8,9,3,5,107,,89,89,4,4,8,8,0.5,0.5
2024-08-05T1700,2690A,88.1236,43.8886,昌吉回族自治州,天山天池,,44,11,16,3,7,140,,117,117,6,6,10,9,0.5,0.6
2024-08-05T1700,2692A,87.2717,44.0297,昌吉回族自治州,新区政务中心,,42,20,24,3,10,134,,116,116,5,13,7,8,0.4,0.5
2024-08-05T1700,3613A,87.3095,44.0142,昌吉回族自治州,亚心广场,,45,34,36,7,7,142,,127,127,11,21,7,19,0.3,0.4
2024-08-05T1700,1119A,125.3325,43.9166,长春市,食品厂,,28,25,17,10,12,87,,69,69,13,15,1,1,0.6,0.5
2024-08-05T1700,1120A,125.2863,43.9027,长春市,客车厂,,25,17,17,9,11,77,,60,60,7,10,4,4,0.5,0.4
2024-08-05T1700,1121A,125.2841,43.8463,长春市,邮电学院,,28,28,17,10,11,82,,64,64,10,10,6,6,0.6,0.4
2024-08-05T1700,1122A,125.3716,43.8772,长春市,劳动公园,,31,27,17,9,8,98,,75,75,9,9,6,7,0.7,0.6
2024-08-05T1700,1123A,125.3297,43.8805,长春市,园林处,,29,18,15,7,8,92,,77,77,10,9,3,2,0.7,0.5
2024-08-05T1700,1124A,125.4605,43.79,长春市,净月潭,,25,16,13,8,8,79,,63,63,2,2,5,5,0.5,0.4
2024-08-05T1700,1125A,125.7194,43.515,长春市,甩湾子,,,,,,,,,,,,,,,,
2024-08-05T1700,1126A,125.3863,43.8447,长春市,经开区环卫处,,31,20,15,8,8,98,,69,69,9,11,5,5,0.6,0.5
2024-08-05T1700,1127A,125.245,43.7783,长春市,高新区管委会,,33,,26,11,13,103,,77,77,5,7,2,2,0.7,0.6
2024-08-05T1700,1128A,125.1761,43.8325,长春市,岱山公园,,29,19,16,9,11,90,,72,72,2,10,2,2,0.5,0.4
2024-08-05T1700,1335A,113.0833,28.2325,长沙市,经开区环保局,,30,19,35,16,17,94,,99,99,5,12,2,2,0.3,0.4
2024-08-05T1700,1336A,112.8872,28.2189,长沙市,高开区环保局,,27,20,28,16,15,85,,92,91,7,10,6,7,0.5,0.5
2024-08-05T1700,1337A,113.0792,28.2053,长沙市,马坡岭,,32,19,38,6,23,101,,100,100,4,12,3,4,0.4,0.5
2024-08-05T1700,1338A,112.9394,28.19,长沙市,湖南师范大学,,30,21,34,11,19,94,,92,92,1,12,3,3,0.6,0.7
2024-08-05T1700,1339A,113.0178,28.1322,长沙市,雨花区环保局,,33,24,33,19,22,105,,99,99,2,12,5,5,0.2,0.4
2024-08-05T1700,1340A,112.9792,28.2597,长沙市,伍家岭,,28,14,35,10,18,87,,96,96,1,13,3,3,0.4,0.5
2024-08-05T1700,1341A,113.0014,28.1944,长沙市,火车新站,,31,27,35,9,17,97,,94,94,2,12,4,5,0.3,0.5
2024-08-05T1700,1342A,112.9844,28.1178,长沙市,天心区环保局,,40,40,45,14,19,91,,91,91,12,20,2,5,0.3,0.5
2024-08-05T1700,1343A,112.8908,28.1308,长沙市,湖南中医药大学,,34,23,37,18,18,108,,102,102,2,16,6,6,0.5,0.7
2024-08-05T1700,1344A,112.9581,28.3611,长沙市,沙坪,,35,16,27,12,15,110,,104,104,5,12,6,6,0.4,0.5
2024-08-05T1700,1727A,113.1147,36.1547,长治市,清华站,臭氧1小时,88,30,26,14,13,190,,161,161,6,12,8,5,0.4,0.3
2024-08-05T1700,1728A,113.1031,36.1989,长治市,监测站,臭氧1小时,92,31,29,12,12,193,,159,159,10,15,8,7,1.1,0.9
2024-08-05T1700,1730A,113.0886,36.2125,长治市,审计局,臭氧1小时,73,23,26,12,11,178,,148,148,5,13,8,5,0.6,0.5
2024-08-05T1700,1731A,113.0844,36.1856,长治市,长治八中,臭氧1小时,72,30,30,18,15,177,,158,158,10,14,9,6,0.5,0.5
2024-08-05T1700,2845A,113.1569,36.1911,长治市,德盛苑,臭氧1小时,68,31,29,19,13,174,,154,154,6,9,11,8,0.9,0.9
2024-08-05T1700,3568A,113.06,36.0464,长治市,向阳小学,臭氧1小时,100,61,50,32,26,200,,149,149,6,12,8,5,0.7,0.8
2024-08-05T1700,3569A,112.8792,36.3144,长治市,屯留一中,臭氧1小时,90,34,34,16,19,192,,155,155,6,16,13,11,0.8,0.5
2024-08-05T1700,3570A,113.235,36.3489,长治市,潞城四中,臭氧1小时,85,32,43,23,22,188,,173,173,6,20,4,5,0.7,1
2024-08-05T1700,1854A,111.6975,28.9703,常德市,市二中,,22,18,20,8,13,69,,70,70,1,7,6,7,0.4,0.4
2024-08-05T1700,1857A,111.7158,29.1456,常德市,白鹤山,,,,,,,,,,,,,,,,
2024-08-05T1700,3138A,111.7153,29.0289,常德市,武陵区永安,,21,9,19,8,10,67,,67,67,3,7,8,8,0.4,0.4
2024-08-05T1700,3139A,111.6892,28.9881,常德市,鼎城区玉霞,,22,19,22,7,13,68,,69,69,3,10,5,5,0.3,0.4
2024-08-05T1700,3140A,111.6625,29.0531,常德市,武陵区长庚,,21,,18,10,15,65,,61,61,3,8,6,6,0.4,0.4
2024-08-05T1700,1196A,119.9633,31.762,常州市,市监测站,,32,20,37,9,20,100,,167,162,11,12,5,6,0.3,0.5
2024-08-05T1700,1200A,119.9468,31.7069,常州市,武进监测站,,32,26,33,6,18,101,,166,162,7,10,4,7,0.4,0.6
2024-08-05T1700,1201A,119.9255,31.9087,常州市,安家,,30,25,39,3,20,93,,156,152,13,15,6,7,0.2,0.5
2024-08-05T1700,3002A,119.9805,31.8174,常州市,行政中心,,27,15,33,7,22,84,,147,142,13,13,12,13,0.1,0.3
2024-08-05T1700,3003A,120.0522,31.7748,常州市,经开区,,26,18,30,9,22,81,,154,150,8,11,6,6,1.0,1.4
2024-08-05T1700,3010A,119.9025,31.7964,常州市,钟楼,,27,20,34,6,18,86,,153,148,18,12,3,6,0.0,0.3
2024-08-05T1700,3429A,119.8598,31.7066,常州市,武进经发区,,30,15,38,8,20,94,,163,161,6,10,7,7,0.3,0.5
2024-08-05T1700,3430A,119.5826,31.7245,常州市,金坛城区,,36,13,29,6,18,113,,155,154,2,11,6,7,0.4,0.6
2024-08-05T1700,2220A,120.4318,41.5881,朝阳市,西梁,,27,,26,12,11,84,,87,87,9,6,8,8,0.6,0.8
2024-08-05T1700,2221A,120.4521,41.5646,朝阳市,河畔小区,,29,,22,10,11,92,,95,95,6,4,6,6,0.8,0.7
2024-08-05T1700,2222A,120.4176,41.5648,朝阳市,八里堡,,25,,22,9,10,77,,78,78,9,7,4,4,0.8,0.9
2024-08-05T1700,2223A,120.3806,41.5969,朝阳市,农业园区,,26,,24,11,15,81,,85,85,10,6,6,6,0.7,0.8
2024-08-05T1700,1705A,116.6367,23.6719,潮州市,西园路,臭氧1小时,74,46,30,28,13,179,,132,132,14,10,6,4,0.4,0.3
2024-08-05T1700,3026A,116.6183,23.6608,潮州市,市政府,臭氧1小时,70,58,35,34,16,176,,141,141,8,10,6,9,0.8,0.7
2024-08-05T1700,4036A,116.6461,23.6761,潮州市,金山,臭氧1小时,74,56,27,22,12,179,,133,133,10,7,7,5,0.7,0.6
2024-08-05T1700,2472A,113.0073,25.9061,郴州市,马头岭,,39,39,32,8,11,80,,89,89,2,7,7,9,0.2,0.2
2024-08-05T1700,2473A,113.0116,25.8226,郴州市,市职中,,40,40,38,24,25,87,,104,104,2,10,7,10,0.4,0.5
2024-08-05T1700,2474A,113.0161,25.8001,郴州市,兴隆步行街,,40,40,41,18,26,89,,106,106,2,10,6,9,0.4,0.6
2024-08-05T1700,2475A,113.0383,25.8071,郴州市,市审计局,,37,37,32,22,25,88,,107,107,6,17,5,10,0.2,0.4
2024-08-05T1700,2476A,113.0348,25.7759,郴州市,市环保局,,42,42,41,15,25,83,,102,102,10,22,7,13,0.5,0.6
2024-08-05T1700,1431A,103.9728,30.7236,成都市,金泉两河,,45,16,25,3,10,144,,137,137,4,9,1,2,0.5,0.5
2024-08-05T1700,1432A,104.176,30.6872,成都市,十里店,,42,17,22,8,11,132,,122,122,4,14,2,2,0.3,0.5
2024-08-05T1700,1433A,104.079,30.5706,成都市,三瓦窑,,42,27,22,22,17,132,,122,122,5,12,1,1,0.5,0.5
2024-08-05T1700,1434A,104.1114,30.63,成都市,沙河铺,,36,20,23,10,11,115,,116,116,8,12,4,4,0.4,0.4
2024-08-05T1700,1437A,104.0786,30.6531,成都市,君平街,,46,23,24,3,10,146,,142,142,11,13,4,3,0.5,0.6
2024-08-05T1700,1438A,103.613,31.0283,成都市,灵岩寺,,,,,,,,,,,,,,,,
2024-08-05T1700,2880A,104.0239,30.65639,成都市,大石西路,,42,26,25,10,10,132,,130,130,8,13,3,3,0.4,0.5
2024-08-05T1700,3136A,104.2725,30.5589,成都市,龙泉驿区区政府,,38,12,13,9,8,121,,114,114,1,5,3,3,0.5,0.5
2024-08-05T1700,3357A,104.0106,30.6931,成都市,金博路,,45,32,19,24,11,141,,128,128,3,7,2,2,0.3,0.3
2024-08-05T1700,3359A,104.0578,30.5225,成都市,华阳,,36,17,21,17,19,113,,113,113,1,3,1,2,0.5,0.6
2024-08-05T1700,3487A,104.2394,30.5319,成都市,车城东七路,,41,25,28,15,17,129,,120,120,4,8,2,2,0.6,0.6
2024-08-05T1700,3488A,104.3853,30.7453,成都市,青白江技师分院,,44,21,12,12,7,139,,128,128,9,8,3,2,0.4,0.4
2024-08-05T1700,3489A,104.0789,30.4072,成都市,科学城,,43,20,24,14,18,137,,123,123,2,6,2,3,0.4,0.5
2024-08-05T1700,4011A,103.8506,30.6947,成都市,光华大道三段,臭氧1小时,69,28,25,10,10,175,,142,142,6,6,2,3,0.5,0.5
2024-08-05T1700,1062A,117.9531,40.9081,承德市,铁路,,42,,20,3,8,133,,123,123,11,15,12,10,0.3,0.5
2024-08-05T1700,1063A,117.9392,40.9763,承德市,中国银行,,43,12,22,3,7,135,,121,121,8,14,6,5,0.1,0.4
2024-08-05T1700,1064A,117.9503,40.928,承德市,开发区,,42,,22,22,10,132,,124,124,7,13,9,9,0.3,0.5
2024-08-05T1700,1065A,117.8051,40.9655,承德市,文化中心,,42,24,21,9,9,132,,115,115,8,11,31,11,0.7,0.6
2024-08-05T1700,1066A,117.9268,41.0026,承德市,离宫,,26,18,29,15,9,82,,99,99,5,4,4,2,0.3,0.5
2024-08-05T1700,2314A,117.47,30.6618,池州市,池州学院,,43,38,31,21,17,137,,125,125,5,9,6,6,0.5,0.7
2024-08-05T1700,3237A,117.4918,30.6617,池州市,展览馆,,42,37,31,21,17,132,,123,123,3,7,6,6,0.5,0.7
2024-08-05T1700,3333A,117.5627,30.695,池州市,第八中学,,33,19,28,12,15,105,,115,115,4,9,6,5,0.5,0.5
2024-08-05T1700,3334A,117.5038,30.6243,池州市,第十二中学,,39,27,26,15,16,122,,121,121,4,11,5,5,0.5,0.8
2024-08-05T1700,1744A,118.9233,42.2816,赤峰市,松山一中,,31,,19,3,5,98,,87,87,12,17,8,8,0.5,0.7
2024-08-05T1700,1745A,118.9576,42.2728,赤峰市,哈达街,,28,15,22,3,9,88,,81,81,11,12,9,9,0.4,0.5
2024-08-05T1700,1746A,118.8788,42.2554,赤峰市,天义路,,33,6,15,3,10,103,,93,93,11,14,6,6,0.4,0.4
2024-08-05T1700,3058A,119.2658,42.0353,赤峰市,银河街,,34,15,34,3,21,106,,82,82,13,15,14,16,0.3,0.6
2024-08-05T1700,3286A,118.9359,42.3147,赤峰市,桥北物流园区,,36,,14,25,10,102,,87,87,12,16,6,8,0.5,0.7
2024-08-05T1700,2521A,107.3476,22.4136,崇左市,市环保局江州分局,,25,20,20,12,9,80,,69,69,2,7,5,6,0.3,0.4
2024-08-05T1700,2522A,107.3702,22.3707,崇左市,城南新区,,26,16,15,9,6,83,,71,71,1,6,4,4,0.5,0.5
2024-08-05T1700,2298A,118.3093,32.3153,滁州市,老年大学,,49,31,28,20,18,155,,134,134,6,7,6,5,0.4,0.4
2024-08-05T1700,2299A,118.3244,32.2786,滁州市,人大宾馆,,48,31,35,23,22,152,,152,152,5,10,6,6,0.5,0.6
2024-08-05T1700,3207A,118.3118,32.3038,滁州市,市政府原办公楼,,48,34,27,22,19,152,,138,138,6,9,7,8,0.7,0.7
2024-08-05T1700,3331A,118.3267,32.2634,滁州市,图书馆,,46,32,35,14,19,145,,150,150,2,9,4,5,0.8,0.8
2024-08-05T1700,2605A,101.5482,25.0441,楚雄彝族自治州,州环境监测站,,20,6,16,3,14,61,,58,58,3,14,3,5,0.5,0.7
2024-08-05T1700,2606A,101.538,25.0492,楚雄彝族自治州,市经济开发区,,,,19,2,13,60,,58,58,3,14,4,6,0.6,0.8
2024-08-05T1700,2548A,107.5277,31.2827,达州市,达州职业技术学院,,19,13,13,3,5,60,,,,4,4,4,4,0.2,0.3
2024-08-05T1700,2549A,107.5086,31.2186,达州市,市环境监测站,,25,25,17,3,1,63,,49,49,26,18,5,7,0.4,0.4
2024-08-05T1700,2550A,107.4988,31.2132,达州市,凤凰小区,,27,9,12,3,4,86,,60,60,9,14,6,8,0.4,0.4
2024-08-05T1700,2551A,107.5082,31.1986,达州市,达县机关宾馆,,26,9,16,3,4,81,,56,56,10,17,4,5,0.2,0.3
2024-08-05T1700,2552A,107.4644,31.2124,达州市,市政中心,,30,22,20,3,2,95,,62,62,8,15,7,9,0.5,0.5
2024-08-05T1700,2614A,100.1542,25.7054,大理白族自治州,大理市环境监测站,,18,18,11,6,9,43,,51,51,18,12,3,3,0.5,0.5
2024-08-05T1700,2615A,100.2171,25.5811,大理白族自治州,大理古城,,19,7,12,3,7,60,,64,64,8,11,7,6,0.6,0.6
2024-08-05T1700,1109A,121.612,38.9741,大连市,甘井子,,30,11,14,8,7,94,,72,72,14,17,6,7,0.5,0.4
2024-08-05T1700,1110A,121.565,38.9511,大连市,周水子,,26,15,17,8,8,81,,61,61,16,22,9,7,0.6,0.6
2024-08-05T1700,1111A,121.5637,38.8845,大连市,星海三站,,29,12,16,8,7,91,,74,74,9,10,7,7,0.5,0.4
2024-08-05T1700,1112A,121.6302,38.9117,大连市,青泥洼桥,,,11,12,3,5,,,73,73,4,6,6,6,0.5,0.6
2024-08-05T1700,1113A,121.6251,38.8638,大连市,傅家庄,,32,14,17,7,6,102,,89,89,7,8,5,5,0.5,0.5
2024-08-05T1700,1114A,121.5213,38.8661,大连市,七贤岭,,31,13,16,8,7,97,,77,77,6,8,6,7,0.3,0.3
2024-08-05T1700,1115A,121.2529,38.8061,大连市,旅顺,,28,11,10,10,8,88,,77,77,13,12,7,8,0.3,0.3
2024-08-05T1700,1116A,121.7485,39.1311,大连市,金州,,27,12,12,10,6,85,,68,68,14,15,6,6,0.4,0.4
2024-08-05T1700,1117A,121.7811,39.0496,大连市,开发区,,30,14,18,7,6,96,,76,76,8,12,7,7,0.3,0.4
2024-08-05T1700,1118A,121.9762,39.0631,大连市,双D港,,30,26,22,18,6,93,,77,77,14,15,6,6,0.5,0.5
2024-08-05T1700,1789A,124.81117,46.03138,大庆市,大同区,,30,23,16,21,16,62,,65,65,6,4,8,8,0.5,0.5
2024-08-05T1700,1790A,125.129,46.533,大庆市,龙凤区,,38,38,19,6,3,72,,69,69,8,7,4,5,0.5,0.5
2024-08-05T1700,1791A,124.902,46.408,大庆市,红岗区,,31,31,21,18,15,80,,81,81,7,6,7,6,0.6,0.5
2024-08-05T1700,1792A,125.153,46.586,大庆市,萨尔图区,,25,16,13,6,9,77,,73,73,8,7,5,4,0.5,0.5
2024-08-05T1700,1793A,124.9042,46.6215,大庆市,让胡路区,,36,36,30,9,10,67,,66,66,7,7,4,4,0.3,0.3
2024-08-05T1700,3481A,125.141,46.634,大庆市,萨区政府监测点,,29,29,26,8,6,84,,80,80,7,6,8,7,0.4,0.3
2024-08-05T1700,1721A,113.3819,40.1097,大同市,果树场,,,,,,,,,,,,,,,,
2024-08-05T1700,1723A,113.2994,40.0758,大同市,云冈宾馆,臭氧1小时,62,20,28,8,15,169,,138,138,11,20,8,10,0.5,0.5
2024-08-05T1700,1724A,113.3444,40.0917,大同市,大同大学,,46,24,26,11,11,146,,124,124,8,19,7,10,0.5,0.6
2024-08-05T1700,1725A,113.2661,40.1269,大同市,安家小村,,46,9,28,7,8,146,,125,125,6,15,9,10,0.3,0.6
2024-08-05T1700,1726A,113.2711,40.0844,大同市,教育学院,臭氧1小时,58,27,36,20,13,166,,133,133,15,23,11,12,0.6,0.6
2024-08-05T1700,3282A,113.3397,40.0597,大同市,大同市卫生学校,臭氧1小时,64,26,31,15,13,171,,137,137,10,19,9,10,0.6,0.6
2024-08-05T1700,3565A,113.1367,40.1122,大同市,云冈站,,47,24,28,3,9,148,,131,131,6,18,9,10,0.4,0.4
2024-08-05T1700,3566A,113.1186,40.2556,大同市,图书馆,,,17,19,,11,164,,141,141,8,12,10,11,0.5,0.6
2024-08-05T1700,3567A,113.5931,40.0461,大同市,区一中,臭氧1小时,52,25,27,3,8,161,,138,138,9,14,10,12,0.4,0.5
2024-08-05T1700,3676A,113.2802,40.0995,大同市,第二人民医院,臭氧1小时,55,27,36,10,12,164,,134,134,11,18,10,11,0.5,0.7
2024-08-05T1700,2269A,124.1069,50.4097,大兴安岭地区,科技局,,22,10,15,8,7,70,,72,72,3,4,3,3,0.1,0.2
2024-08-05T1700,3663A,124.1164,50.4278,大兴安岭地区,红旗社区,,21,6,5,3,7,66,,68,68,5,4,4,4,0.4,0.4
2024-08-05T1700,1600A,124.3303,40.0625,丹东市,江湾东路,,19,11,13,3,7,60,,66,66,8,6,2,2,0.6,0.6
2024-08-05T1700,1601A,124.4256,40.1503,丹东市,临江后街,,20,6,8,3,5,62,,76,74,12,5,4,2,0.4,0.5
2024-08-05T1700,1602A,124.3933,40.1461,丹东市,元宝山,,19,,9,3,7,58,,68,68,5,3,1,1,0.1,0.2
2024-08-05T1700,1603A,124.3633,40.1092,丹东市,民主桥,,19,11,14,6,8,59,,67,67,17,9,2,2,0.6,0.5
2024-08-05T1700,3541A,109.5726,19.5167,儋州市,第一中学子站,,28,12,19,8,12,88,,68,68,3,4,4,5,0.5,0.6
2024-08-05T1700,3542A,109.5567,19.5187,儋州市,东坡学校子站,,29,13,19,9,12,92,,71,71,2,3,6,5,0.6,0.6
2024-08-05T1700,2616A,98.5842,24.428,德宏傣族景颇族自治州,德宏州监测站,,16,16,18,7,7,49,,42,42,6,10,7,10,0.6,0.7
2024-08-05T1700,3677A,98.5881,24.4368,德宏傣族景颇族自治州,芒市人民政府综合楼,,22,22,17,15,9,46,,40,40,5,8,7,8,0.6,0.7
2024-08-05T1700,1901A,104.4239,31.1208,德阳市,东山公园,,39,23,16,10,8,122,,103,103,2,4,2,2,0.6,0.6
2024-08-05T1700,1902A,104.3826,31.1317,德阳市,西小区,,37,16,16,14,9,118,,105,105,5,11,2,2,0.5,0.5
2024-08-05T1700,1904A,104.3553,31.1091,德阳市,耐火材料厂,,39,19,18,9,10,124,,105,105,3,13,3,3,0.5,0.6
2024-08-05T1700,3639A,104.4019,31.1244,德阳市,市教育局,,39,19,17,11,9,122,,104,104,2,9,2,2,0.4,0.5
2024-08-05T1700,1622A,116.3032,37.4674,德州市,儿童乐园,,40,17,16,9,11,127,,115,115,6,9,8,7,0.6,0.6
2024-08-05T1700,1624A,116.2991,37.4451,德州市,监理站,,38,12,12,12,11,119,,114,114,8,10,8,8,0.5,0.5
2024-08-05T1700,3066A,116.2721,37.4379,德州市,九衢泉纯净水厂,,36,,14,19,12,115,,112,112,5,10,7,6,0.5,0.6
2024-08-05T1700,3371A,116.3728,37.4403,德州市,开发区人民医院,,41,22,16,14,9,129,,117,117,7,10,8,7,0.7,0.6
2024-08-05T1700,3372A,116.3572,37.4094,德州市,太阳城中学,,40,19,14,14,11,125,,116,116,8,14,8,7,0.6,0.5
2024-08-05T1700,3511A,116.5652,37.3319,德州市,陵城艺术中心,,36,27,14,9,6,113,,103,103,6,9,5,6,0.6,0.5
2024-08-05T1700,2621A,99.7056,27.8317,迪庆藏族自治州,迪庆州站,,23,12,19,7,10,71,,79,79,13,12,8,9,0.5,0.5
2024-08-05T1700,3180A,99.7136,27.8094,迪庆藏族自治州,质量技术监督局,,25,19,14,7,8,77,,76,76,12,14,8,8,0.6,0.6
2024-08-05T1700,2663A,104.6241,35.5734,定西市,东关小学,,27,22,29,10,12,86,,77,77,5,10,9,8,0.2,0.2
2024-08-05T1700,2664A,104.6194,35.5934,定西市,供电公司,,29,27,26,20,19,87,,80,80,4,11,6,6,0.2,0.2
2024-08-05T1700,1389A,113.7547,23.0494,东莞市,莞城梨川,臭氧1小时,117,61,51,40,27,233,,188,188,17,28,11,10,0.8,0.9
2024-08-05T1700,1390A,113.7944,23.0128,东莞市,东城石井,臭氧1小时,111,50,43,36,25,222,,184,184,14,23,7,7,0.6,0.7
2024-08-05T1700,1391A,113.7383,22.9658,东莞市,南城西平,臭氧1小时,107,46,43,40,25,213,,162,162,14,23,4,4,0.8,0.8
2024-08-05T1700,3319A,113.7338,23.0381,东莞市,万江金泰,臭氧1小时,103,45,51,24,26,205,,173,173,21,28,6,4,0.8,0.8
2024-08-05T1700,3626A,113.7533,23.0202,东莞市,南城元岭,臭氧1小时,97,70,49,46,26,197,,167,167,22,28,5,6,0.8,0.8
2024-08-05T1700,3627A,113.7875,23.0457,东莞市,东城主山,,,,42,,23,,,156,,,24,,7,,0.9
2024-08-05T1700,1666A,118.6614,37.4309,东营市,市环保局,,36,12,6,3,2,114,,95,95,6,9,5,4,0.1,0.1
2024-08-05T1700,3036A,118.6904,37.4338,东营市,开发区管委会,,,13,9,3,3,134,,106,106,,12,5,6,0.2,0.2
2024-08-05T1700,3365A,118.5719,37.565,东营市,垦利区民丰路,,49,19,10,12,7,155,,112,112,6,9,6,6,0.4,0.3
2024-08-05T1700,3498A,118.5055,37.8612,东营市,河口城区,,35,,11,17,7,109,,102,102,2,8,4,4,0.5,0.5
2024-08-05T1700,3646A,118.4978,37.4623,东营市,胜利站,臭氧1小时,59,,17,17,5,167,,99,99,6,12,1,1,0.3,1
2024-08-05T1700,3734A,118.35,37.26,东营市,理想之城,,36,7,9,7,9,114,,86,86,8,9,7,3,0.5,0.5
2024-08-05T1700,1591A,110.0023,39.8129,鄂尔多斯市,综合楼,,48,36,33,3,7,151,,148,148,19,23,11,12,0.6,0.6
2024-08-05T1700,1592A,109.9486,39.8261,鄂尔多斯市,巴音孟克林场办事处,,,34,28,9,10,150,,134,134,16,20,8,7,,0.8
2024-08-05T1700,1593A,109.7736,39.5986,鄂尔多斯市,康泽苑,臭氧1小时,58,,24,9,12,166,,138,138,6,13,5,6,0.4,0.4
2024-08-05T1700,1594A,109.8119,39.5989,鄂尔多斯市,华泰汽车城,,46,9,25,9,14,146,,126,126,8,19,9,10,0.4,0.5
2024-08-05T1700,1595A,109.9734,39.7884,鄂尔多斯市,奥林花园,,,,36,7,10,131,,134,134,15,30,4,5,0.6,0.6
2024-08-05T1700,2436A,114.8938,30.3994,鄂州市,市政府,,33,15,36,6,12,104,,96,96,4,16,7,9,0.9,1
2024-08-05T1700,2437A,114.8989,30.3714,鄂州市,赵家坝,,35,13,15,7,11,110,,100,100,2,7,7,8,0.5,0.5
2024-08-05T1700,3654A,114.8094,30.4089,鄂州市,精准医疗中心,,35,17,40,8,14,109,,104,104,2,12,5,7,0.5,0.6
2024-08-05T1700,2454A,109.4978,30.2981,恩施土家族苗族自治州,湖北民院,,26,24,21,18,12,57,,64,64,12,15,7,7,0.5,0.4
2024-08-05T1700,2455A,109.4707,30.2798,恩施土家族苗族自治州,州电力总公司,,23,23,19,11,12,48,,55,55,12,14,6,6,0.5,0.5
2024-08-05T1700,3549A,109.5061,30.3772,恩施土家族苗族自治州,龙凤新区,,17,17,17,9,9,42,,45,45,15,17,6,6,0.5,0.5
2024-08-05T1700,2499A,108.3411,21.6158,防城港市,沙万,,31,31,21,12,10,56,,56,56,7,13,11,12,0.5,0.5
2024-08-05T1700,2500A,108.3514,21.7731,防城港市,防城档案局,,19,13,17,12,10,58,,52,52,5,7,6,7,0.5,0.5
2024-08-05T1700,2501A,108.3506,21.6414,防城港市,大海花园,,23,23,18,8,8,50,,51,51,7,9,6,7,0.5,0.5
2024-08-05T1700,1371A,113.1294,23.0067,佛山市,湾梁,臭氧1小时,54,,30,24,20,163,,148,148,11,18,7,9,0.6,0.7
2024-08-05T1700,1372A,113.1083,23.0478,佛山市,华材职中,,50,36,47,28,23,160,,144,144,15,25,6,6,0.4,0.5
2024-08-05T1700,1373A,113.144,23.0453,佛山市,南海气象局,臭氧1小时,63,46,40,29,24,170,,162,162,10,16,8,10,0.3,0.6
2024-08-05T1700,1374A,113.2881,22.8094,佛山市,顺德苏岗,臭氧1小时,53,27,29,19,21,162,,158,158,8,17,7,7,0.5,0.5
2024-08-05T1700,1376A,112.8383,22.8678,佛山市,高明孔堂,,41,,34,25,20,129,,110,110,7,10,7,10,0.5,0.6
2024-08-05T1700,1377A,112.8836,23.1588,佛山市,三水监测站,,39,,43,27,27,112,,105,105,14,38,5,6,0.4,0.5
2024-08-05T1700,1378A,112.867,23.185,佛山市,三水云东海,,41,19,38,19,28,129,,120,120,8,29,6,7,0.5,0.5
2024-08-05T1700,3625A,113.2544,22.7642,佛山市,容桂街道办,,48,27,26,14,17,151,,147,147,10,18,6,6,0.6,0.7
2024-08-05T1700,1280A,119.3903,26.0543,福州市,鼓山,,,,,,,,,,,,,,,,
2024-08-05T1700,1282A,119.2681,26.0504,福州市,师大,,47,47,37,26,24,126,,126,126,7,8,4,4,0.6,0.6
2024-08-05T1700,1283A,119.2984,26.1028,福州市,五四北路,,,,47,31,28,122,,139,139,6,8,4,4,0.6,0.6
2024-08-05T1700,1284A,119.2648,26.0768,福州市,杨桥西路,,50,50,39,32,24,136,,136,136,8,8,5,4,0.6,0.6
2024-08-05T1700,1285A,119.317,26.0746,福州市,紫阳,,39,39,41,26,26,108,,116,116,11,13,5,5,0.5,0.6
2024-08-05T1700,3048A,119.5799,26.0936,福州市,九龙,,30,30,27,18,21,92,,90,90,2,2,4,4,0.4,0.4
2024-08-05T1700,3526A,119.5189,25.9664,福州市,吴航,,30,30,38,18,23,96,,102,102,2,6,5,5,0.5,0.7
2024-08-05T1700,1755A,123.7977,41.8491,抚顺市,望花区,,37,37,24,9,11,88,,86,86,23,18,10,12,0.4,0.6
2024-08-05T1700,1756A,123.9161,41.8822,抚顺市,顺城区,,30,22,20,7,11,94,,88,88,13,18,3,3,0.4,0.7
2024-08-05T1700,1757A,124.0436,41.8611,抚顺市,东洲区,,22,14,16,6,8,70,,76,76,8,10,2,3,0.4,0.4
2024-08-05T1700,1758A,123.9247,41.8642,抚顺市,新抚区,,28,28,22,7,10,78,,84,83,16,15,6,5,0.5,0.6
2024-08-05T1700,1759A,124.0972,41.8961,抚顺市,大伙房水库,,26,21,17,3,7,81,,78,78,2,9,3,3,0.5,0.6
2024-08-05T1700,1760A,123.7086,41.8391,抚顺市,沈抚新城,,28,28,16,7,7,89,,83,83,11,15,3,4,2.7,1.5
2024-08-05T1700,2376A,116.2127,28.0814,抚州市,桐源党溪,,30,21,31,3,16,94,,94,94,3,7,5,6,0.4,0.5
2024-08-05T1700,2377A,116.3544,27.9831,抚州市,市站,,33,27,26,13,14,105,,94,94,2,4,11,7,0.8,0.7
2024-08-05T1700,2378A,116.3565,27.963,抚州市,血防站,,31,26,28,13,13,99,,92,92,5,7,6,4,0.9,0.7
2024-08-05T1700,2379A,116.3564,28.0007,抚州市,采茶剧团,,32,23,24,8,13,102,,95,95,2,4,7,6,0.7,0.7
2024-08-05T1700,2380A,116.385,27.9647,抚州市,医学分院,颗粒物(PM10),67,83,39,17,12,103,,96,96,5,6,3,4,1.0,0.9
2024-08-05T1700,2207A,121.6094,41.998,阜新市,工业园区,,36,21,20,8,11,114,,96,96,7,9,3,6,0.6,0.7
2024-08-05T1700,2208A,121.6697,42.0279,阜新市,长青街,,37,22,24,10,12,116,,96,96,9,12,2,5,0.6,0.7
2024-08-05T1700,2209A,121.6673,42.0705,阜新市,农业园区,,33,25,23,7,12,104,,90,90,7,9,2,3,0.5,0.6
2024-08-05T1700,2210A,121.6717,42.0224,阜新市,东苑,,49,49,23,14,12,113,,98,98,7,10,1,4,0.6,0.8
2024-08-05T1700,2211A,121.6506,42.0498,阜新市,玉龙新城,,35,,21,12,12,112,,90,90,7,9,3,4,0.5,0.4
2024-08-05T1700,2301A,115.8277,32.8929,阜阳市,市监测站,,28,20,25,14,11,88,,104,104,8,10,6,6,0.3,0.3
2024-08-05T1700,2303A,115.8554,32.8605,阜阳市,开发区,,30,18,24,3,9,94,,104,104,3,7,5,6,0.4,0.4
2024-08-05T1700,2875A,115.784,32.8892,阜阳市,阜阳职业技术学院,,30,10,22,3,10,94,,106,106,4,8,6,5,0.3,0.3
2024-08-05T1700,3468A,115.7901,32.8613,阜阳市,市规划展馆,,29,,28,13,16,92,,106,106,5,8,6,5,0.4,0.4
2024-08-05T1700,3469A,115.836,32.9183,阜阳市,枣园社区,,27,17,25,14,14,85,,102,101,5,8,3,3,0.4,0.4
2024-08-05T1700,2669A,102.9099,34.9841,甘南藏族自治州,州政府,,35,13,31,7,13,109,,97,97,2,16,6,6,0.2,0.3
2024-08-05T1700,3380A,102.8914,34.9617,甘南藏族自治州,甘肃民族师范学院,,37,9,31,7,11,116,,102,102,2,22,4,4,0.3,0.4
2024-08-05T1700,2570A,101.9603,30.0475,甘孜藏族自治州,水桥子,,26,7,11,3,6,81,,65,65,2,6,4,4,0.2,0.3
2024-08-05T1700,3065A,101.9533,29.9972,甘孜藏族自治州,州环保局,,26,18,15,7,6,83,,74,74,5,10,2,2,0.2,0.2
2024-08-05T1700,3414A,115.8347,28.932,赣江新区,桑海产业园,颗粒物(PM10),56,61,44,13,24,104,,150,150,8,21,11,14,0.4,0.6
2024-08-05T1700,2362A,114.9017,25.9149,赣州市,通天岩,,,,,,,,,,,,,,,,
2024-08-05T1700,2363A,114.9367,25.8664,赣州市,地委,,41,24,32,16,17,131,,128,128,6,11,5,10,1.0,0.9
2024-08-05T1700,2364A,114.9461,25.8481,赣州市,气象台,,40,35,31,14,15,126,,123,123,8,8,7,9,0.8,0.7
2024-08-05T1700,2365A,114.9322,25.8333,赣州市,市图书馆,,47,28,29,13,14,150,,134,134,5,7,4,5,0.5,0.6
2024-08-05T1700,2366A,114.8905,25.8471,赣州市,华坚鞋城,,49,27,31,13,16,156,,136,136,7,8,1,141,0.6,0.5
2024-08-05T1700,3109A,115.0093,25.8613,赣州市,赣县区卫计委,,35,20,24,10,14,109,,103,103,6,11,8,8,0.6,0.7
2024-08-05T1700,2683A,106.2319,36.1417,固原市,马园,,34,8,31,8,9,108,,97,97,11,18,5,5,0.5,0.5
2024-08-05T1700,2684A,106.2792,36.0022,固原市,监测站,,35,14,21,8,12,109,,100,100,9,13,5,5,0.3,0.3
2024-08-05T1700,2685A,106.2375,36.0211,固原市,新区,,34,22,21,6,6,108,,96,96,6,10,6,6,0.4,0.4
2024-08-05T1700,3522A,106.2177,35.9959,固原市,原州区十五小,,36,17,22,10,11,113,,99,99,4,9,3,4,0.4,0.4
2024-08-05T1700,2543A,106.6308,30.5278,广安市,小平旧居,,,,,,,,,,,,,,,,
2024-08-05T1700,2544A,106.6303,30.4576,广安市,市委,,36,15,14,7,8,114,,87,87,5,7,7,5,0.4,0.3
2024-08-05T1700,2545A,106.6271,30.4663,广安市,友谊中学,,38,11,11,7,7,120,,94,94,7,8,5,4,0.4,0.3
2024-08-05T1700,2547A,106.6388,30.4551,广安市,广电花园,,35,15,12,10,8,110,,81,81,4,7,5,4,0.4,0.3
2024-08-05T1700,2902A,106.6351,30.4865,广安市,北辰小学,,37,16,11,7,7,116,,90,90,4,6,6,5,0.3,0.3
2024-08-05T1700,2523A,105.8945,32.4535,广元市,黑石坡,,24,14,12,3,6,75,,72,72,4,7,6,8,0.2,0.3
2024-08-05T1700,2524A,105.821,32.4444,广元市,老城,,27,11,19,8,7,85,,78,78,3,8,2,4,0.1,0.3
2024-08-05T1700,2526A,105.8628,32.4287,广元市,监测站,,27,11,15,7,7,85,,76,76,3,10,1,4,0.4,0.5
2024-08-05T1700,3617A,105.8047,32.4166,广元市,经开区,,26,13,22,9,14,83,,72,72,4,9,4,6,0.5,0.5
2024-08-05T1700,1345A,113.2347,23.1423,广州市,广雅中学,臭氧1小时,60,48,50,29,30,168,,148,148,21,31,6,6,0.5,0.5
2024-08-05T1700,1346A,113.2612,23.105,广州市,市五中,臭氧1小时,87,37,44,29,28,189,,170,170,10,22,5,5,0.6,0.7
2024-08-05T1700,1348A,113.3478,23.0916,广州市,广东商学院,臭氧1小时,83,43,48,34,31,186,,163,163,15,33,4,5,0.5,0.6
2024-08-05T1700,1349A,113.4332,23.1047,广州市,市八十六中,,,35,47,23,27,186,,166,166,,37,4,4,0.6,0.7
2024-08-05T1700,1350A,113.3505,22.9483,广州市,番禺中学,臭氧1小时,77,37,46,24,25,181,,176,176,10,21,5,4,0.5,0.6
2024-08-05T1700,1351A,113.2146,23.3916,广州市,花都师范,,36,30,48,22,28,114,,117,117,6,25,6,8,0.4,0.6
2024-08-05T1700,1352A,113.2597,23.1331,广州市,市监测站,臭氧1小时,69,34,42,19,24,175,,156,156,13,27,5,7,0.6,0.7
2024-08-05T1700,1353A,113.5618,23.312,广州市,九龙镇镇龙,,45,37,58,21,31,143,,152,152,11,26,8,7,0.5,0.6
2024-08-05T1700,1354A,113.2765,23.1544,广州市,麓湖,,50,34,44,20,28,160,,156,156,10,33,5,6,0.5,0.7
2024-08-05T1700,1355A,113.443,23.3035,广州市,帽峰山森林公园,,35,21,35,14,24,112,,152,152,5,14,4,4,0.5,0.6
2024-08-05T1700,2846A,113.3221,23.1322,广州市,体育西,臭氧1小时,69,38,45,24,29,175,,160,160,7,25,5,6,0.5,0.6
2024-08-05T1700,3298A,113.5717,23.5491,广州市,从化街口,臭氧1小时,52,43,55,35,37,161,,166,166,9,21,7,7,0.6,0.7
2024-08-05T1700,3299A,113.3472,23.3692,广州市,白云竹料,,43,37,67,18,37,137,,151,151,14,36,5,5,0.5,0.7
2024-08-05T1700,3300A,113.2981,23.237,广州市,白云嘉禾,,50,43,54,28,31,157,,148,148,14,36,8,8,0.7,0.8
2024-08-05T1700,3301A,113.4256,23.1716,广州市,黄埔科学城,臭氧1小时,70,33,49,21,29,176,,173,173,13,33,8,8,0.6,0.7
2024-08-05T1700,3302A,113.3942,23.0483,广州市,番禺大学城,臭氧1小时,92,37,48,24,24,193,,166,166,11,22,6,6,0.5,0.6
2024-08-05T1700,3303A,113.4922,22.8168,广州市,南沙黄阁,臭氧1小时,69,31,43,22,25,175,,164,164,14,25,7,6,0.7,0.8
2024-08-05T1700,3304A,113.5342,22.7896,广州市,南沙街,,50,37,40,21,22,159,,149,149,10,19,5,5,0.7,0.7
2024-08-05T1700,3443A,113.2902,23.5544,广州市,花都梯面,,42,26,43,18,29,133,,128,128,4,20,4,5,0.6,0.6
2024-08-05T1700,3445A,113.7858,23.7478,广州市,从化良口,,32,28,38,22,27,82,,115,115,5,9,5,5,0.7,0.7
2024-08-05T1700,3446A,113.8051,23.2614,广州市,增城荔城,臭氧1小时,99,57,51,35,32,199,,185,185,10,18,7,6,0.6,0.5
2024-08-05T1700,2505A,109.568,23.1478,贵港市,德智高中,,,,,,,,,,,,,,,,
2024-08-05T1700,2506A,109.6047,23.0666,贵港市,江南子站,,30,22,26,14,15,94,,85,85,3,11,7,7,0.5,0.5
2024-08-05T1700,2507A,109.6014,23.0948,贵港市,贵城子站,,28,19,25,14,16,88,,80,80,4,10,6,7,0.5,0.5
2024-08-05T1700,2508A,109.5669,23.1065,贵港市,荷城子站,,27,17,24,7,8,85,,76,76,2,7,8,9,0.3,0.3
2024-08-05T1700,3405A,109.5886,23.1172,贵港市,新世纪学校,,28,24,24,14,11,88,,78,78,5,7,8,8,0.5,0.6
2024-08-05T1700,1439A,106.6899,26.5998,贵阳市,马鞍山,,23,7,11,3,0,71,,64,64,3,4,7,6,0.5,0.5
2024-08-05T1700,1440A,106.6971,26.5694,贵阳市,市环保站,,20,17,16,14,12,62,,55,55,12,12,4,5,0.2,0.2
2024-08-05T1700,1441A,106.6243,26.6266,贵阳市,鉴湖路,,20,12,14,3,6,62,,53,53,4,6,4,5,0.3,0.3
2024-08-05T1700,1442A,106.7487,26.6343,贵阳市,燕子冲,,21,6,6,3,7,66,,60,60,5,8,6,6,0.5,0.6
2024-08-05T1700,1443A,106.6555,26.4365,贵阳市,碧云窝,,19,14,16,3,3,60,,54,54,3,6,5,6,0.2,0.3
2024-08-05T1700,1444A,106.694,26.5161,贵阳市,中院村,,19,19,19,3,7,54,,52,52,10,11,5,6,0.4,0.4
2024-08-05T1700,1445A,106.7109,26.6027,贵阳市,红边门,,20,19,19,12,14,63,,58,58,10,13,6,6,0.3,0.3
2024-08-05T1700,1446A,106.7164,26.5699,贵阳市,新华路,,21,12,17,12,10,66,,63,63,8,12,6,5,0.4,0.5
2024-08-05T1700,1447A,106.674,26.5424,贵阳市,太慈桥,,20,7,6,3,3,62,,56,56,4,7,7,7,0.4,0.4
2024-08-05T1700,1552A,106.805,26.3003,贵阳市,桐木岭,,,,,,,,,,,,,,,,
2024-08-05T1700,1862A,110.4144,25.3167,桂林市,电子科大尧山校区,,27,15,29,13,15,84,,90,90,4,8,4,7,0.5,0.5
2024-08-05T1700,1863A,110.2819,25.2697,桂林市,监测站,,21,19,28,10,16,66,,72,72,5,10,6,8,0.4,0.5
2024-08-05T1700,1864A,110.3089,25.2708,桂林市,龙隐路小学,,22,15,27,15,17,66,,75,75,5,10,5,13,0.5,0.6
2024-08-05T1700,1865A,110.2869,25.2178,桂林市,八中,,21,21,28,10,12,66,,69,69,4,12,6,7,0.1,0.2
2024-08-05T1700,3403A,110.1764,25.2381,桂林市,创业大厦,,22,19,26,9,15,69,,65,65,5,15,6,13,0.3,0.3
2024-08-05T1700,3531A,110.296,25.1253,桂林市,旅游学院,,26,7,15,7,11,82,,83,83,3,13,5,6,0.4,0.4
2024-08-05T1700,2674A,100.2561,34.4714,果洛藏族自治州,玛沁县大武镇,,38,25,34,15,12,119,,102,102,1,6,8,7,0.4,0.4
2024-08-05T1700,1129A,126.5422,45.755,哈尔滨市,岭北,,20,14,16,9,9,64,,66,66,9,10,9,10,0.8,0.3
2024-08-05T1700,1130A,126.561,45.8167,哈尔滨市,松北商大,,28,28,19,10,9,41,,53,43,12,10,6,7,0.7,0.6
2024-08-05T1700,1131A,126.979,45.5419,哈尔滨市,阿城会宁,,46,46,24,13,9,59,,65,64,9,8,6,6,0.6,0.6
2024-08-05T1700,1132A,126.599,45.7222,哈尔滨市,南岗学府路,,27,27,30,3,7,61,,58,58,7,7,7,6,0.6,0.5
2024-08-05T1700,1133A,126.689,45.7733,哈尔滨市,太平宏伟公园,,24,24,27,8,12,60,,56,56,17,16,1,3,0.4,0.3
2024-08-05T1700,1134A,126.635,45.7667,哈尔滨市,道外承德广场,,29,29,26,9,5,52,,50,50,20,16,8,8,0.5,0.5
2024-08-05T1700,1135A,126.685,45.7319,哈尔滨市,香坊红旗大街,,27,27,20,14,12,56,,54,54,17,15,6,6,0.8,0.7
2024-08-05T1700,1136A,126.6411,45.7258,哈尔滨市,动力和平路,,34,34,41,10,11,58,,55,55,12,12,5,6,0.6,0.6
2024-08-05T1700,1137A,126.593,45.7478,哈尔滨市,道里建国路,,38,38,27,11,11,51,,55,54,20,12,6,6,1.2,1.2
2024-08-05T1700,1138A,126.615,45.61,哈尔滨市,平房东轻厂,,37,37,25,12,9,62,,62,62,9,9,7,7,0.4,0.4
2024-08-05T1700,1139A,126.595,45.9855,哈尔滨市,呼兰师专,,19,13,19,8,9,60,,59,58,9,11,12,12,0.7,0.6
2024-08-05T1700,1140A,126.6206,45.6842,哈尔滨市,省农科院,,31,31,24,13,9,60,,58,58,15,16,6,5,0.6,0.5
2024-08-05T1700,2688A,93.5128,42.8172,哈密市,地区监测站,,43,19,65,15,20,137,,95,95,5,23,3,5,0.2,0.3
2024-08-05T1700,2689A,93.4961,42.8328,哈密市,哈密师范学校,,42,24,50,7,16,133,,92,92,4,21,6,6,0.3,0.4
2024-08-05T1700,2671A,100.9048,36.9639,海北藏族自治州,海晏县西海镇,,38,26,24,12,16,119,,118,118,4,8,11,14,0.4,0.5
2024-08-05T1700,3867A,102.0738,36.5056,海东市,平安区公安北苑,,50,27,43,8,17,157,,134,134,5,16,8,12,0.6,0.6
2024-08-05T1700,1409A,110.576,19.9507,海口市,东寨港,,,,,,,,,,,,,,,,
2024-08-05T1700,1410A,110.3232,20.0574,海口市,海南大学,,21,12,21,7,12,67,,86,86,8,10,5,5,0.4,0.4
2024-08-05T1700,1411A,110.283,20.0053,海口市,秀英海南医院,,20,14,24,9,14,64,,73,73,7,13,7,7,0.2,0.3
2024-08-05T1700,1412A,110.338,19.9969,海口市,海南师范大学,,20,14,21,8,13,62,,82,82,5,8,7,7,0.3,0.4
2024-08-05T1700,1413A,110.33,20.0356,海口市,龙华路环保局宿舍,,22,16,22,8,12,68,,85,85,5,8,8,8,0.2,0.3
2024-08-05T1700,3539A,110.5111,19.9736,海口市,桂林洋子站,,22,11,23,8,11,70,,79,79,4,10,6,6,0.2,0.3
2024-08-05T1700,2673A,100.6188,36.2866,海南藏族自治州,共和县恰卜恰镇,,42,,26,16,16,132,,131,131,4,9,10,13,0.5,0.6
2024-08-05T1700,2676A,97.3731,37.3753,海西蒙古族藏族自治州,德令哈市,,37,30,26,6,12,118,,118,118,8,8,9,9,0.6,0.5
2024-08-05T1700,1048A,114.5302,36.6116,邯郸市,东污水处理厂,,45,37,20,12,6,142,,133,133,2,8,1,2,0.5,0.5
2024-08-05T1700,1049A,114.4918,36.5713,邯郸市,矿院,,46,37,24,24,11,145,,131,131,3,8,1,2,0.3,0.4
2024-08-05T1700,1050A,114.484,36.6133,邯郸市,丛台公园,,45,40,24,17,10,141,,132,132,1,7,1,2,0.5,0.6
2024-08-05T1700,3458A,114.7895,36.5593,邯郸市,香泉濮院小区,,41,36,34,19,10,131,,122,122,2,5,2,2,0.3,0.4
2024-08-05T1700,3579A,114.50634,36.77178,邯郸市,永年区实验高中,,46,34,29,11,11,146,,132,132,2,7,2,2,0.6,0.7
2024-08-05T1700,3580A,114.20016,36.44293,邯郸市,峰峰矿区临水派出所,臭氧1小时,52,40,32,28,12,161,,140,140,3,7,1,2,0.4,0.4
2024-08-05T1700,2634A,106.9893,33.1842,汉中市,汉川机床厂子校,,37,18,12,10,6,118,,88,88,5,7,4,4,0.4,0.4
2024-08-05T1700,2635A,107.0154,33.0706,汉中市,市监测站,,31,13,17,6,7,98,,78,78,3,6,6,6,0.6,0.6
2024-08-05T1700,2636A,107.0089,33.1138,汉中市,鑫源开发区,,37,19,14,14,7,117,,94,94,2,6,9,9,0.4,0.4
2024-08-05T1700,2637A,107.007,33.0323,汉中市,南郑大河坎水厂,,33,17,17,7,5,105,,96,96,2,5,8,8,0.4,0.5
2024-08-05T1700,1223A,120.2072,30.2111,杭州市,滨江,,41,41,40,18,19,130,,175,175,9,20,4,4,0.6,0.7
2024-08-05T1700,1224A,120.0633,30.2747,杭州市,西溪,,32,29,25,16,16,101,,174,174,12,24,5,5,0.7,0.7
2024-08-05T1700,1226A,120.3461,30.3153,杭州市,下沙,颗粒物(PM10),52,54,49,31,22,150,,196,196,21,33,8,6,0.6,0.5
2024-08-05T1700,1227A,120.1269,30.2456,杭州市,卧龙桥,,35,30,28,16,19,112,,190,190,9,19,7,6,0.6,0.7
2024-08-05T1700,1228A,120.1903,30.2692,杭州市,浙江农大,,33,33,30,12,18,95,,166,166,17,26,6,7,0.5,0.7
2024-08-05T1700,1230A,120.1197,30.3119,杭州市,和睦小学,,31,27,27,19,16,98,,182,182,12,24,5,5,0.4,0.6
2024-08-05T1700,1231A,120.3019,30.4183,杭州市,临平镇,,37,29,46,15,22,116,,187,187,12,33,4,4,0.6,0.7
2024-08-05T1700,1232A,120.2697,30.1819,杭州市,城厢镇,臭氧1小时,63,45,43,20,26,170,,208,208,12,23,6,5,0.5,0.6
2024-08-05T1700,1233A,120.0883,30.1808,杭州市,云栖,,37,35,28,16,13,116,,177,177,9,28,7,7,0.5,0.7
2024-08-05T1700,3557A,119.9464,30.0494,杭州市,镇二中,,41,41,28,14,20,114,,156,156,11,24,7,8,0.6,0.7
2024-08-05T1700,3558A,119.7183,30.2367,杭州市,市府大楼,,35,22,20,7,15,111,,146,146,11,16,5,5,0.4,0.6
2024-08-05T1700,3656A,120.1556,30.2864,杭州市,消防大队,,35,35,35,12,18,104,,187,187,9,24,7,7,0.6,0.7
2024-08-05T1700,1270A,117.1959,31.7848,合肥市,明珠广场,,,34,33,22,19,154,,86,86,10,15,,4,0.4,0.4
2024-08-05T1700,1271A,117.3072,31.8764,合肥市,三里街,,43,29,27,14,13,137,,122,122,7,13,6,6,0.3,0.3
2024-08-05T1700,1272A,117.2588,31.8707,合肥市,琥珀山庄,,,,30,,21,150,,134,134,8,11,4,5,0.4,0.3
2024-08-05T1700,1273A,117.1604,31.9052,合肥市,董铺水库,,37,22,25,12,14,118,,116,116,6,9,3,2,0.4,0.3
2024-08-05T1700,1274A,117.25,31.8571,合肥市,长江中路,,47,39,33,24,19,148,,131,131,12,9,7,7,0.5,0.5
2024-08-05T1700,1275A,117.266,31.9436,合肥市,庐阳区,,40,29,29,17,17,126,,129,129,8,11,14,10,0.3,0.6
2024-08-05T1700,1276A,117.336,31.8586,合肥市,瑶海区,,43,36,35,15,16,136,,121,121,14,17,9,10,0.3,0.3
2024-08-05T1700,1277A,117.3027,31.7964,合肥市,包河区,,49,31,32,14,19,154,,142,142,6,12,9,8,0.4,0.4
2024-08-05T1700,1278A,117.2776,31.7385,合肥市,滨湖新区,,36,22,26,9,14,115,,131,131,3,11,8,8,0.3,0.4
2024-08-05T1700,1279A,117.1318,31.8403,合肥市,高新区,,44,34,27,12,15,139,,126,126,7,10,7,7,0.5,0.5
2024-08-05T1700,3464A,117.3803,31.9147,合肥市,高教基地,,35,25,28,18,17,111,,120,120,4,11,8,7,0.3,0.3
2024-08-05T1700,3614A,79.924,37.0877,和田地区,地区环保局,颗粒物(PM10),500,1184,1132,421,334,108,,94,94,2,6,8,7,0.4,0.4
2024-08-05T1700,3615A,79.9131,37.113,和田地区,市环保局,颗粒物(PM10),500,1094,1030,259,254,108,,94,94,2,7,6,7,0.2,0.3
2024-08-05T1700,2516A,108.2011,24.715,河池市,东仁乐园,,21,21,36,6,10,22,,38,38,7,8,6,7,0.6,0.7
2024-08-05T1700,2517A,108.0497,24.6947,河池市,市环保站,,23,23,27,9,10,60,,62,62,6,10,9,8,0.6,0.6
2024-08-05T1700,2518A,108.0983,24.6989,河池市,市疾控中心,,19,18,27,10,12,59,,60,60,7,13,8,8,0.6,0.6
2024-08-05T1700,1696A,114.6778,23.7569,河源市,源西,,,,17,,14,,,46,,,8,,4,,0.5
2024-08-05T1700,1697A,114.6944,23.7586,河源市,东埔,,29,20,22,20,17,76,,90,90,6,10,6,8,0.6,0.6
2024-08-05T1700,1698A,114.6892,23.7233,河源市,老城,,42,29,28,29,15,83,,94,94,5,9,4,5,0.4,0.4
2024-08-05T1700,1718A,115.4208,35.2464,菏泽市,气象局,,33,18,16,9,7,104,,84,84,1,10,4,3,0.2,0.2
2024-08-05T1700,1719A,115.4747,35.2375,菏泽市,市政协,,30,20,14,14,11,96,,75,75,2,7,4,3,0.2,0.1
2024-08-05T1700,3374A,115.5564,35.0891,菏泽市,定陶老年大学,,27,12,13,3,0,86,,74,74,1,6,5,4,0.1,0.1
2024-08-05T1700,3647A,115.4702,35.2706,菏泽市,菏泽医专,,31,20,16,6,5,99,,81,81,1,9,3,3,0.2,0.2
2024-08-05T1700,2514A,111.5264,24.4172,贺州市,环保小区,,19,14,30,3,16,59,,72,72,5,12,5,6,0.6,0.7
2024-08-05T1700,2515A,111.5608,24.4078,贺州市,政协大楼,,19,,35,12,21,60,,78,78,6,16,5,6,0.6,0.6
2024-08-05T1700,3534A,111.4744,24.4553,贺州市,西湾,,18,11,24,3,16,55,,62,62,4,15,6,7,0.5,0.6
2024-08-05T1700,2385A,114.17,35.9019,鹤壁市,市监测站,,50,47,41,35,22,146,,132,132,9,15,4,4,0.7,1
2024-08-05T1700,2386A,114.2956,35.7511,鹤壁市,市交警支队,,38,27,31,18,18,120,,115,115,7,14,3,3,0.5,0.5
2024-08-05T1700,2387A,114.2878,35.7306,鹤壁市,迎宾馆,,40,,23,25,14,125,,118,118,7,14,5,5,0.9,0.9
2024-08-05T1700,3474A,114.2617,35.6822,鹤壁市,大新区,,,35,30,,3,120,,114,114,5,14,3,3,0.6,0.6
2024-08-05T1700,3596A,114.1572,35.9603,鹤壁市,南山宾馆,,43,27,34,22,14,137,,125,125,9,12,3,5,1.5,1.4
2024-08-05T1700,2244A,130.2537,47.3416,鹤岗市,哈啤分公司,,15,14,14,7,7,45,,46,46,8,9,14,14,0.5,0.5
2024-08-05T1700,2245A,130.2684,47.3086,鹤岗市,斯达机电,,17,15,12,10,8,53,,51,51,9,9,12,12,0.3,0.3
2024-08-05T1700,2246A,130.3114,47.3388,鹤岗市,东山纸板厂,,19,,14,13,15,33,,33,33,10,9,15,15,0.4,0.3
2024-08-05T1700,2247A,130.1097,47.3382,鹤岗市,五号水库,,17,6,5,3,4,53,,50,50,7,9,10,10,0.2,0.3
2024-08-05T1700,2263A,127.4833,50.2524,黑河市,交通局,,21,19,19,11,9,67,,76,76,11,5,7,5,0.3,0.2
2024-08-05T1700,2264A,127.5144,50.2341,黑河市,环保局,,,20,16,6,7,71,,80,79,,4,5,4,0.5,0.6
2024-08-05T1700,2265A,127.5291,50.2472,黑河市,大黑河岛,,,,6,13,13,,,,,7,12,2,2,,
2024-08-05T1700,1074A,115.6838,37.7541,衡水市,电机北厂,,50,38,27,16,11,158,,129,129,3,5,2,2,0.3,0.3
2024-08-05T1700,1075A,115.6303,37.7316,衡水市,市监测站,,49,24,23,15,7,154,,136,136,6,8,2,2,0.4,0.4
2024-08-05T1700,3188A,115.6683,37.7217,衡水市,市城管局,,44,18,19,12,11,140,,127,127,2,4,4,4,0.4,0.3
2024-08-05T1700,3459A,115.5989,37.5491,衡水市,地表水厂,,41,26,27,10,4,130,,122,122,1,3,6,5,0.4,0.4
2024-08-05T1700,2456A,112.5003,26.9167,衡阳市,原169医院,,29,17,26,13,15,90,,91,91,3,8,13,16,0.3,0.4
2024-08-05T1700,2457A,112.6194,26.9258,衡阳市,衡阳化工总厂,,,27,44,,,92,,90,90,3,14,6,7,0.4,0.6
2024-08-05T1700,2458A,112.6211,26.8956,衡阳市,珠晖区环保局,,,21,37,,,102,,92,92,5,15,7,6,0.7,0.8
2024-08-05T1700,2459A,112.6197,26.8733,衡阳市,市委党校,,30,23,35,12,17,95,,92,92,4,12,8,8,0.7,0.7
2024-08-05T1700,2460A,112.6006,26.8919,衡阳市,市监测站,,32,18,31,10,21,102,,94,94,2,11,6,8,0.5,0.7
2024-08-05T1700,2461A,112.5664,26.9056,衡阳市,真空机电公司,,,29,29,,14,91,,89,89,1,7,7,8,0.6,0.7
2024-08-05T1700,3399A,112.6703,26.882,衡阳市,师范学院,,33,25,34,9,16,103,,95,95,5,12,6,6,0.6,0.7
2024-08-05T1700,2608A,103.3772,23.3993,红河哈尼族彝族自治州,污水处理厂,,13,,10,7,11,40,,42,42,4,6,4,6,0.4,0.4
2024-08-05T1700,2609A,103.3861,23.35,红河哈尼族彝族自治州,监测站,,13,,11,9,9,40,,41,41,3,6,8,10,0.4,0.4
2024-08-05T1700,3038A,103.3758,23.368,红河哈尼族彝族自治州,州图书馆,,12,6,10,3,7,37,,39,39,3,6,4,6,0.4,0.4
2024-08-05T1700,1090A,111.6507,40.7517,呼和浩特市,呼市一监,,44,9,26,3,11,140,,132,132,5,13,8,9,0.3,0.4
2024-08-05T1700,1091A,111.6572,40.8033,呼和浩特市,小召,,47,12,27,3,10,149,,135,135,11,20,8,9,0.4,0.6
2024-08-05T1700,1094A,111.7516,40.8369,呼和浩特市,如意水处理厂,,43,11,24,3,9,135,,125,125,8,20,5,6,0.3,0.5
2024-08-05T1700,1095A,111.7276,40.8062,呼和浩特市,二十九中,,41,14,27,3,11,130,,117,117,8,19,3,4,0.4,0.6
2024-08-05T1700,1096A,111.5512,40.7866,呼和浩特市,工大金川校区,,50,17,34,3,12,158,,126,126,11,24,7,8,0.4,0.6
2024-08-05T1700,1097A,111.717,40.7612,呼和浩特市,化肥厂生活区,,44,14,32,3,10,138,,135,135,7,18,6,8,0.5,0.6
2024-08-05T1700,3698A,111.5968,40.8178,呼和浩特市,红旗小学,,50,19,37,3,13,160,,133,133,13,31,3,7,0.3,0.6
2024-08-05T1700,3699A,111.6518,40.8389,呼和浩特市,海东办,,49,19,37,3,13,156,,140,140,11,26,4,7,0.6,0.6
2024-08-05T1700,2192A,119.7594,49.2261,呼伦贝尔市,区环保局,,42,,21,29,16,89,,83,83,9,14,4,4,0.5,0.5
2024-08-05T1700,3061A,119.7512,49.1577,呼伦贝尔市,国华电力东,,42,,14,29,13,93,,84,84,4,6,4,4,0.6,0.5
2024-08-05T1700,1250A,120.0751,30.8669,湖州市,城西水厂,,26,26,32,18,20,74,,131,131,33,28,4,4,0.5,0.5
2024-08-05T1700,2873A,120.0875,30.8955,湖州市,仁皇山新区,,28,27,31,16,21,87,,149,149,32,21,6,6,0.5,0.6
2024-08-05T1700,2907A,120.1844,30.8596,湖州市,吴兴区站,,30,24,34,12,23,95,,149,149,21,22,7,7,0.4,0.5
2024-08-05T1700,3562A,120.4148,30.8538,湖州市,南浔区站,,42,28,36,20,24,132,,170,170,9,24,4,5,0.6,0.6
2024-08-05T1700,1607A,120.9092,40.7136,葫芦岛市,龙港区,,,,22,9,3,102,,94,94,15,9,33,3,0.4,0.5
2024-08-05T1700,1608A,120.8392,40.7514,葫芦岛市,化工街,,29,7,12,3,6,90,,90,90,18,15,3,2,0.4,0.6
2024-08-05T1700,1609A,120.8341,40.7073,葫芦岛市,新区,,30,8,16,3,6,93,,91,91,11,8,3,3,0.4,0.5
2024-08-05T1700,1610A,120.8695,40.7677,葫芦岛市,东城区,,37,20,21,3,9,118,,112,112,15,13,4,5,0.2,0.4
2024-08-05T1700,2482A,109.5981,27.5721,怀化市,林科所,,24,10,22,8,6,76,,81,81,3,5,2,6,0.1,0.5
2024-08-05T1700,2483A,109.9453,27.5444,怀化市,河西地税局,,20,11,23,3,12,64,,65,65,1,6,8,8,0.4,0.5
2024-08-05T1700,2484A,109.9781,27.5342,怀化市,市四医院,,20,16,29,11,15,64,,67,67,2,12,4,5,0.0,0.2
2024-08-05T1700,2485A,109.9972,27.5578,怀化市,监测楼,,20,17,24,9,12,63,,66,66,5,12,5,6,0.4,0.5
2024-08-05T1700,2486A,110.0394,27.583,怀化市,市委党校,,20,11,21,7,14,62,,64,64,2,10,8,9,0.5,0.6
2024-08-05T1700,1210A,119.036,33.5981,淮安市,钵池山,,38,24,24,16,19,121,,116,116,8,11,7,7,0.6,0.5
2024-08-05T1700,1211A,119.007,33.575,淮安市,北京南路,,34,17,32,16,18,107,,107,107,8,13,8,8,0.6,0.6
2024-08-05T1700,1212A,118.989,33.6067,淮安市,市监测站,,35,17,30,9,20,111,,117,117,11,14,7,7,0.5,0.6
2024-08-05T1700,1213A,119.135,33.5039,淮安市,楚州区监测站,,,,39,9,10,108,,114,114,9,20,5,5,0.5,0.6
2024-08-05T1700,1214A,119.0186,33.6297,淮安市,淮阴区监测站,,36,24,31,17,19,115,,119,119,19,15,4,6,0.6,0.6
2024-08-05T1700,3426A,118.8755,33.2894,淮安市,新华书店,,40,21,26,16,20,127,,128,128,7,12,5,6,0.5,0.5
2024-08-05T1700,2282A,116.8004,33.975,淮北市,监测站,,42,30,34,14,18,134,,107,107,3,7,4,5,0.5,0.6
2024-08-05T1700,2283A,116.8091,33.9007,淮北市,烈山区政府,,49,30,34,16,16,156,,123,123,2,9,6,7,0.7,0.7
2024-08-05T1700,3330A,116.8873,33.9836,淮北市,杜集区检察院,,44,40,38,16,17,140,,112,112,6,9,1,2,0.6,0.6
2024-08-05T1700,4017A,116.7923,33.9535,淮北市,市博物馆,,45,29,34,16,16,141,,119,119,8,11,4,4,0.5,0.6
2024-08-05T1700,2277A,116.8305,32.7727,淮南市,潘集区政府,,23,23,29,13,15,69,,102,100,12,11,12,6,0.4,0.4
2024-08-05T1700,2278A,117.0067,32.6524,淮南市,师范学院,,29,,29,17,15,92,,107,107,2,5,9,9,0.4,0.4
2024-08-05T1700,2279A,116.8569,32.5951,淮南市,谢家集区政府,,29,27,23,6,7,92,,103,103,2,9,5,5,0.2,0.2
2024-08-05T1700,2280A,116.8281,32.633,淮南市,八公山区政府,,29,22,28,12,15,91,,101,101,4,7,5,7,0.3,0.3
2024-08-05T1700,2281A,116.6325,32.6201,淮南市,焦岗湖风景区管理处,,17,16,11,3,6,52,,51,51,6,9,7,7,0.2,0.2
2024-08-05T1700,2894A,117.0566,32.6531,淮南市,经济技术开发区消防队,,30,8,24,3,8,95,,109,109,2,7,4,5,0.3,0.4
2024-08-05T1700,3329A,117.0108,32.5893,淮南市,山南新区,,30,16,36,3,7,96,,102,102,2,8,4,3,0.4,0.4
2024-08-05T1700,2446A,114.9028,30.4742,黄冈市,职工中心,,32,20,32,12,17,100,,96,96,4,11,7,8,0.4,0.4
2024-08-05T1700,2929A,114.8858,30.4519,黄冈市,红卫路,,,20,32,6,17,104,,100,100,9,14,3,9,,0.6
2024-08-05T1700,3398A,114.9136,30.4445,黄冈市,市林业局,,36,19,33,15,20,115,,105,105,1,18,7,9,0.3,0.4
2024-08-05T1700,2672A,102.0199,35.5102,黄南藏族自治州,同仁县隆务镇,,,26,26,18,13,118,,109,109,4,3,,6,0.6,0.4
2024-08-05T1700,2295A,118.2903,29.6963,黄山市,延安路89号,,25,25,42,7,11,76,,99,99,4,6,4,4,0.4,0.5
2024-08-05T1700,2296A,118.327,29.7178,黄山市,黄山东路89号,,24,24,25,8,12,76,,100,100,5,6,6,6,0.4,0.5
2024-08-05T1700,2297A,118.1371,30.2756,黄山市,黄山区政府5号楼,,43,43,21,15,12,68,,80,80,10,6,6,6,0.4,0.4
2024-08-05T1700,2423A,115.0601,30.2313,黄石市,沈家营,,37,23,50,3,13,117,,111,111,8,17,5,10,0.4,0.4
2024-08-05T1700,2424A,115.0817,30.2006,黄石市,陈家湾,,37,29,40,13,14,117,,104,104,4,8,4,4,0.5,0.6
2024-08-05T1700,2426A,114.8988,30.2019,黄石市,铁山,,39,20,29,7,11,124,,117,117,1,8,14,16,0.2,0.3
2024-08-05T1700,2427A,115.0307,30.2092,黄石市,团城山,,35,16,37,9,14,111,,102,102,4,11,5,11,0.5,0.7
2024-08-05T1700,3149A,115.0235,30.1578,黄石市,笔架山北路,,35,10,38,3,9,110,,102,102,5,10,6,8,0.2,0.4
2024-08-05T1700,1392A,114.4183,23.0528,惠州市,河南岸金山湖子站,臭氧1小时,105,55,57,40,36,210,,178,178,9,17,4,5,0.7,0.7
2024-08-05T1700,1393A,114.4053,23.0822,惠州市,下埔横江三路子站,臭氧1小时,103,52,60,30,35,206,,175,175,8,16,3,3,0.6,0.7
2024-08-05T1700,1394A,114.4103,23.1142,惠州市,江北云山西路子站,臭氧1小时,106,45,60,28,31,212,,176,176,6,17,5,4,0.6,0.7
2024-08-05T1700,1395A,114.4645,22.7833,惠州市,惠阳区承修路船湖子站,,50,40,51,25,29,159,,162,162,18,27,6,6,0.5,0.7
2024-08-05T1700,1396A,114.5317,22.7422,惠州市,大亚湾管委会子站,臭氧1小时,64,35,49,26,28,171,,178,178,16,29,6,6,0.7,0.8
2024-08-05T1700,3314A,114.4338,22.8134,惠州市,惠阳秋长,,,51,54,26,33,195,,204,204,,33,5,6,0.4,0.5
2024-08-05T1700,3452A,114.6517,22.775,惠州市,大亚湾霞涌,臭氧1小时,63,33,32,31,14,170,,144,144,7,13,4,3,0.3,0.5
2024-08-05T1700,2240A,130.9762,45.3001,鸡西市,环保局,,24,24,15,3,5,33,,35,35,8,6,10,8,0.3,0.3
2024-08-05T1700,2243A,130.9429,45.3039,鸡西市,第一中学,,,25,16,,5,32,,35,35,7,7,5,5,0.2,0.2
2024-08-05T1700,3707A,131.0207,45.3073,鸡西市,欧美日汽修厂,,31,31,17,3,5,30,,30,30,5,5,3,3,0.4,0.3
2024-08-05T1700,3709A,130.9967,45.3106,鸡西市,市政设施管理处,,19,19,17,10,5,28,,30,30,10,9,4,4,0.4,0.3
2024-08-05T1700,2367A,114.9754,27.0803,吉安市,红声器材厂,,37,37,32,20,18,87,,103,103,7,12,14,15,0.5,0.5
2024-08-05T1700,2368A,114.9658,27.0999,吉安市,市森林工业局,,36,36,32,20,17,89,,105,105,6,9,11,11,0.2,0.4
2024-08-05T1700,2369A,114.99,27.1312,吉安市,市环境监测站,,29,26,28,10,13,90,,104,104,6,9,10,11,0,0.5
2024-08-05T1700,2370A,115.0093,27.0968,吉安市,青原区法院,,37,37,38,12,21,90,,108,104,8,14,12,16,0.4,0.4
2024-08-05T1700,1772A,126.54,43.8622,吉林市,哈达湾,,22,6,15,3,10,68,,72,69,8,8,5,4,0.5,0.5
2024-08-05T1700,1773A,126.5844,43.8358,吉林市,东局子,,,,20,,11,,,60,,,7,,4,,0.5
2024-08-05T1700,1774A,126.5052,43.8245,吉林市,电力学院,,20,9,18,8,10,61,,64,64,8,9,3,4,0.5,0.6
2024-08-05T1700,1775A,126.6133,43.8972,吉林市,江北,,19,12,18,3,8,58,,64,60,9,6,8,8,0.6,0.6
2024-08-05T1700,1776A,126.555,43.8306,吉林市,江南公园,,24,8,16,8,12,74,,73,73,8,9,2,2,0.5,0.7
2024-08-05T1700,1778A,126.7061,43.7133,吉林市,丰满,,,,,,,,,,,,,,,,
2024-08-05T1700,2868A,126.4739,43.953,吉林市,九站,,19,13,18,10,10,60,,76,65,9,5,3,3,0.5,0.6
2024-08-05T1700,1299A,116.9862,36.6114,济南市,科干所,,34,14,9,7,5,107,,81,81,10,13,8,8,0.3,0.3
2024-08-05T1700,1300A,116.9376,36.665,济南市,农科所,,32,15,9,10,7,102,,83,83,10,16,8,8,0.3,0.3
2024-08-05T1700,1301A,117.1265,36.6734,济南市,开发区,,38,15,8,3,2,120,,87,87,10,14,10,9,0.5,0.5
2024-08-05T1700,1303A,117.0624,36.6868,济南市,省种子仓库,,38,19,14,3,6,119,,85,85,7,15,7,7,0.4,0.5
2024-08-05T1700,1304A,116.9489,36.6447,济南市,机床二厂,,38,10,9,3,2,119,,92,92,6,14,9,8,0.5,0.5
2024-08-05T1700,1305A,117.0495,36.663,济南市,市监测站,,38,12,10,3,7,119,,86,86,8,17,10,10,0.4,0.4
2024-08-05T1700,1306A,116.7675,36.5484,济南市,长清党校,,33,,8,17,4,103,,77,77,4,9,10,9,0.6,0.5
2024-08-05T1700,1616A,117.6795,36.229,济南市,技术学院,,34,12,8,3,4,106,,78,78,6,11,16,10,1.6,0.9
2024-08-05T1700,1961A,117.532,36.6868,济南市,东山小学,,49,17,11,3,3,156,,100,100,11,15,5,5,0.6,0.6
2024-08-05T1700,3059A,117.7161,36.2049,济南市,泰兴公司,,30,6,14,3,5,94,,66,66,9,20,10,9,0.6,0.5
2024-08-05T1700,3064A,117.6867,36.2171,济南市,莱芜战役纪念馆,,30,17,15,3,2,93,,67,67,6,13,10,9,1.1,0.7
2024-08-05T1700,3494A,117.1673,36.9782,济南市,济阳区政府,,32,20,12,7,4,102,,81,81,5,11,7,7,0.2,0.2
2024-08-05T1700,3495A,117.1171,36.63,济南市,锦屏中学,,37,7,10,3,4,117,,80,80,10,15,10,9,0.4,0.4
2024-08-05T1700,3682A,116.9814,36.6819,济南市,济南四建,,35,9,9,7,6,109,,82,82,6,17,8,8,0.6,0.6
2024-08-05T1700,1653A,116.6251,35.4302,济宁市,火炬城,,31,11,18,3,6,99,,75,75,6,12,8,8,0.7,0.7
2024-08-05T1700,1655A,116.5491,35.4042,济宁市,电化厂,,31,,15,9,11,99,,69,69,7,11,6,6,0.6,0.6
2024-08-05T1700,3500A,116.5814,35.3707,济宁市,北湖一中,,,9,20,,5,97,,69,69,5,11,9,8,0.6,0.6
2024-08-05T1700,3501A,116.8249,35.5593,济宁市,服务中心,,31,20,19,6,3,97,,68,68,7,9,6,4,0.4,0.4
2024-08-05T1700,3678A,116.5907,35.4054,济宁市,市第七中学,,34,23,17,3,5,108,,77,77,9,13,5,4,0.5,0.5
2024-08-05T1700,2255A,130.2751,46.8028,佳木斯市,佳纺,,14,14,19,6,8,43,,57,57,14,12,13,12,0.5,0.5
2024-08-05T1700,2256A,130.3995,46.8307,佳木斯市,发电厂,,20,20,24,3,7,35,,50,50,15,13,5,7,0.6,0.5
2024-08-05T1700,2257A,130.3258,46.7975,佳木斯市,环保局,,14,14,23,3,8,44,,48,48,8,13,7,8,0.5,0.5
2024-08-05T1700,2258A,130.3648,46.8032,佳木斯市,十一中,,14,14,18,8,9,38,,50,50,18,15,8,9,0.6,0.5
2024-08-05T1700,2259A,130.3794,46.7588,佳木斯市,四丰,,,12,12,3,6,34,,49,49,,,1,1,0.5,0.5
2024-08-05T1700,1252A,120.7436,30.778,嘉兴市,清河小学,臭氧1小时,92,34,47,18,24,193,,204,204,11,23,9,8,0.7,0.9
2024-08-05T1700,1253A,120.726,30.7478,嘉兴市,嘉兴学院,臭氧1小时,60,52,62,23,25,168,,172,172,24,32,1,1,0.6,0.6
2024-08-05T1700,2872A,120.7846,30.7525,嘉兴市,南湖区残联,臭氧1小时,104,35,45,23,29,207,,223,223,11,19,4,4,0.9,0.9
2024-08-05T1700,3407A,120.6916,30.7739,嘉兴市,秀洲住建,臭氧1小时,108,35,43,26,25,216,,222,222,12,28,2,3,0.7,0.7
2024-08-05T1700,1945A,98.2908,39.7711,嘉峪关市,气象局,颗粒物(PM10),52,53,41,14,11,122,,122,122,12,20,20,16,0.5,0.5
2024-08-05T1700,2884A,98.2672,39.7978,嘉峪关市,酒钢宾馆,颗粒物(PM10),65,80,49,17,13,136,,123,123,3,17,21,25,0.4,0.5
2024-08-05T1700,3248A,98.2643,39.7724,嘉峪关市,雄关区,,46,46,40,16,11,127,,118,118,5,20,10,14,0.1,0.4
2024-08-05T1700,1383A,113.1064,22.6058,江门市,北街,颗粒物(PM10),51,52,30,29,20,129,,120,120,9,10,3,3,0.4,0.4
2024-08-05T1700,1384A,113.0731,22.5835,江门市,西区,,45,30,34,24,19,142,,131,131,8,13,7,8,0.4,0.4
2024-08-05T1700,1385A,113.0219,22.5311,江门市,圭峰西,,45,45,34,20,22,119,,112,112,6,9,5,3,0.6,0.7
2024-08-05T1700,1386A,113.0828,22.5947,江门市,东湖,,43,43,42,27,21,127,,120,120,7,10,5,6,0.4,0.5
2024-08-05T1700,3311A,113.1075,22.5647,江门市,江海富民,,45,45,41,18,19,143,,134,134,8,11,6,6,0.5,0.5
2024-08-05T1700,3449A,113.05,22.4667,江门市,新会银湖,,44,27,29,18,18,140,,127,127,7,12,5,4,0.6,0.6
2024-08-05T1700,1828A,113.227,35.2125,焦作市,市环保局,,48,43,38,30,20,151,,131,131,9,15,2,5,0.5,0.5
2024-08-05T1700,1830A,113.1992,35.2590,焦作市,影视城,,,,,,,,,,,,,,,,
2024-08-05T1700,3169A,113.2725,35.2067,焦作市,太极体育中心,,47,43,50,28,20,149,,128,128,10,15,1,4,0.6,0.5
2024-08-05T1700,3335A,113.3137,35.2641,焦作市,马村街道办,细颗粒物(PM2.5),54,43,39,38,22,150,,130,130,8,15,1,3,0.6,0.5
2024-08-05T1700,3336A,113.2465,35.2373,焦作市,焦作技师学院,,45,35,41,31,18,143,,124,124,6,12,1,3,0.6,0.5
2024-08-05T1700,3477A,113.1656,35.2539,焦作市,中站许衡医院,,43,43,27,27,17,137,,124,124,8,15,5,9,0.3,0.4
2024-08-05T1700,3981A,113.2449,35.1803,焦作市,原李万街道办,,44,38,44,22,18,139,,122,122,6,14,4,7,0.1,0.2
2024-08-05T1700,1708A,116.3701,23.5345,揭阳市,新兴,臭氧1小时,90,63,34,26,19,192,,144,144,12,18,6,5,1.0,0.9
2024-08-05T1700,1709A,116.3264,23.5443,揭阳市,西马,臭氧1小时,75,46,34,29,21,180,,145,145,6,15,4,5,0.8,0.8
2024-08-05T1700,1710A,116.3611,23.5626,揭阳市,东兴,臭氧1小时,89,66,42,26,16,191,,148,148,4,14,5,6,0.9,0.9
2024-08-05T1700,1711A,116.4151,23.5294,揭阳市,渔湖,臭氧1小时,97,77,39,26,23,197,,146,146,14,25,5,6,1.0,0.9
2024-08-05T1700,3320A,116.403,23.5699,揭阳市,曲溪,臭氧1小时,114,51,32,29,16,227,,170,170,13,21,6,7,1.1,0.8
2024-08-05T1700,1944A,102.1692,38.5167,金昌市,天庆家园,,,,30,,17,,,85,,,18,,15,,0.6
2024-08-05T1700,3170A,102.1864,38.5253,金昌市,市委党校,,43,21,38,6,12,137,,124,124,4,14,9,12,0.5,0.5
2024-08-05T1700,4022A,102.1647,38.5371,金昌市,金川区人防中心,,43,10,31,7,14,137,,124,124,4,14,10,12,0.4,0.5
2024-08-05T1700,1262A,119.647,29.077,金华市,十五中,臭氧1小时,93,30,39,18,18,194,,184,184,11,19,2,3,0.5,0.7
2024-08-05T1700,1263A,119.686,29.1029,金华市,监测站,臭氧1小时,58,25,36,15,19,166,,170,170,7,19,3,4,0.4,0.6
2024-08-05T1700,3659A,119.656,29.1131,金华市,气象局,臭氧1小时,106,39,38,17,13,211,,181,181,17,22,4,5,0.0,0.2
2024-08-05T1700,1767A,121.1115,41.0879,锦州市,南山,,33,24,17,8,10,104,,93,93,12,13,4,5,0.5,0.6
2024-08-05T1700,1768A,121.0533,40.8434,锦州市,开发区,,41,11,19,3,7,131,,102,102,12,12,3,5,0.5,0.7
2024-08-05T1700,1769A,121.1836,41.1119,锦州市,百股街道,,,,13,7,4,129,,102,102,,10,,2,0.6,0.7
2024-08-05T1700,1770A,121.1178,41.1222,锦州市,天安街道,,32,,18,22,10,101,,88,88,10,11,5,5,0.6,0.8
2024-08-05T1700,1771A,121.1303,41.1386,锦州市,北湖公园,,37,16,21,3,17,117,,94,94,4,9,3,3,0.6,0.8
2024-08-05T1700,2160A,112.85,35.5051,晋城市,自来水公司,细颗粒物(PM2.5),52,46,35,36,17,154,,135,135,11,22,8,9,0.8,1.1
2024-08-05T1700,2161A,112.8318,35.4936,晋城市,白云商贸,细颗粒物(PM2.5),67,69,41,48,17,153,,131,131,12,22,7,8,0.8,1.1
2024-08-05T1700,2162A,112.8508,35.4887,晋城市,市环保局,颗粒物(PM10),68,86,38,36,18,150,,129,129,13,25,7,9,0.8,1.1
2024-08-05T1700,2163A,112.8676,35.4897,晋城市,技术学院,颗粒物(PM10),56,62,32,39,18,148,,132,132,12,26,9,8,0.8,1.2
2024-08-05T1700,2165A,112.8453,35.546,晋城市,白马寺,,,,,,,,,,,,,,,,
2024-08-05T1700,3620A,112.8271,35.4828,晋城市,泽州一中,细颗粒物(PM2.5),55,53,33,39,15,152,,125,125,11,22,9,10,0.7,1
2024-08-05T1700,2171A,112.7532,37.6945,晋中市,锦纶小区,臭氧1小时,58,17,30,3,8,166,,143,143,8,16,7,8,0.3,0.4
2024-08-05T1700,2173A,112.7249,37.7067,晋中市,南都小区,臭氧1小时,60,22,29,3,19,168,,143,143,9,17,7,8,0.5,0.6
2024-08-05T1700,2174A,112.6991,37.6982,晋中市,榆次区政府,臭氧1小时,83,31,32,14,17,186,,144,144,14,18,8,8,0.5,0.5
2024-08-05T1700,2865A,112.7195,37.6828,晋中市,榆次三中,臭氧1小时,63,19,28,3,7,170,,145,145,8,15,8,9,0.5,0.6
2024-08-05T1700,2439A,112.2014,31.0481,荆门市,竹园小学,,30,22,29,14,15,96,,108,108,10,12,11,12,0.5,0.5
2024-08-05T1700,2440A,112.1969,30.9891,荆门市,掇刀,,32,26,31,15,13,101,,109,109,15,16,7,7,0.6,0.5
2024-08-05T1700,2441A,112.2213,31.0386,荆门市,石化一小,,32,32,31,17,13,99,,115,115,10,13,17,15,0.6,0.6
2024-08-05T1700,3012A,112.1849,31.0362,荆门市,西山林语,,28,18,25,14,15,88,,108,106,11,10,7,8,0.4,0.6
2024-08-05T1700,3547A,112.1632,31.0138,荆门市,龙泉中学南校,,31,23,27,9,15,98,,108,108,12,12,9,10,0.6,0.6
2024-08-05T1700,1844A,112.2494,30.3197,荆州市,市图书馆,,32,32,17,11,13,78,,82,82,7,10,6,6,0.5,0.5
2024-08-05T1700,1845A,112.2008,30.3544,荆州市,市委党校,,28,12,18,8,14,87,,86,86,4,7,6,6,0.5,0.5
2024-08-05T1700,3194A,112.2747,30.3122,荆州市,管委会,,26,,16,13,13,81,,84,84,6,9,5,6,0.4,0.4
2024-08-05T1700,3548A,112.1655,30.3364,荆州市,学苑路,,25,14,21,12,13,80,,84,84,6,9,24,9,0.5,0.6
2024-08-05T1700,2342A,117.3102,29.3867,景德镇市,王港中学,,,,,,,,,,,,,,,,
2024-08-05T1700,2343A,117.2117,29.2933,景德镇市,老干部活动中心,,36,26,35,25,21,102,,106,106,4,15,6,14,0.3,0.3
2024-08-05T1700,2344A,117.1894,29.2789,景德镇市,兽医站,,34,30,31,19,19,108,,114,114,4,20,9,20,0.2,0.3
2024-08-05T1700,2345A,117.1547,29.2617,景德镇市,台达陶瓷,,,49,41,39,24,100,,100,100,,20,23,57,0.3,0.3
2024-08-05T1700,2346A,117.2461,29.2956,景德镇市,陶研所,,48,48,45,19,19,96,,115,115,11,14,3,7,0.3,0.4
2024-08-05T1700,1803A,115.9872,29.6815,九江市,十里,,45,37,30,22,20,142,,117,117,5,14,8,9,0.7,0.7
2024-08-05T1700,1804A,115.9584,29.7046,九江市,茅山头,,48,35,28,28,22,152,,124,124,7,15,8,8,0.6,0.5
2024-08-05T1700,1805A,115.9877,29.7295,九江市,西园,,50,30,27,19,17,158,,131,131,9,27,11,13,0.5,0.8
2024-08-05T1700,1806A,116.0172,29.6547,九江市,五七二七厂,,49,32,20,32,19,154,,133,133,9,12,12,10,0.3,0.5
2024-08-05T1700,1808A,115.9114,29.6038,九江市,综合工业园,臭氧1小时,52,24,32,20,23,161,,131,131,6,13,11,13,0.8,0.9
2024-08-05T1700,1809A,116.0721,29.7535,九江市,石化总厂,,43,26,37,19,23,135,,130,130,9,13,9,12,0.7,0.7
2024-08-05T1700,1810A,115.9773,29.5698,九江市,庐山气象台,,42,,21,29,19,132,,108,108,4,2,7,19,1.1,0.6
2024-08-05T1700,3190A,116.0254,29.6994,九江市,外国语学校,,49,28,27,16,21,155,,144,144,10,15,10,13,0.7,0.6
2024-08-05T1700,2658A,98.5061,39.7443,酒泉市,仓门街子站,颗粒物(PM10),56,61,47,6,12,131,,120,120,2,15,8,31,0.2,0.5
2024-08-05T1700,2659A,98.4989,39.7256,酒泉市,油田生活基地,颗粒物(PM10),67,83,50,18,18,135,,123,123,4,19,8,17,0.3,0.4
2024-08-05T1700,2698A,76.0072,39.4467,喀什地区,巡警大队,颗粒物(PM10),141,232,139,48,35,109,,84,84,8,30,4,5,0.3,0.5
2024-08-05T1700,2699A,75.9755,39.4694,喀什地区,吾办,颗粒物(PM10),135,219,135,60,50,108,,83,83,10,26,4,4,0.5,0.7
2024-08-05T1700,4027A,75.9483,39.4689,喀什地区,老干局,颗粒物(PM10),129,208,145,54,37,115,,87,87,6,25,4,4,0.4,0.6
2024-08-05T1700,1824A,114.3389,34.7781,开封市,肿瘤医院,,36,24,30,7,7,114,,106,106,9,11,4,4,0.5,0.6
2024-08-05T1700,1826A,114.2885,34.7965,开封市,世纪星幼儿园,,,52,27,,14,117,,114,114,6,11,1,2,0.3,0.3
2024-08-05T1700,3147A,114.3438,34.8106,开封市,龙亭公园,,36,31,26,14,10,115,,104,104,8,16,2,2,0.4,0.4
2024-08-05T1700,3210A,114.3644,34.7964,开封市,汴京公园,,38,38,27,7,13,115,,107,107,11,16,3,3,0.4,0.4
2024-08-05T1700,3473A,114.2485,34.8306,开封市,技师学院,,40,29,32,9,11,126,,119,119,6,17,5,6,0.6,0.4
2024-08-05T1700,3592A,114.4644,34.7556,开封市,祥符区生态环境局,,32,17,29,7,13,101,,92,92,13,20,3,4,0.3,0.4
2024-08-05T1700,1951A,84.895,45.6094,克拉玛依市,长征新村,,34,24,29,7,8,106,,98,98,4,8,7,7,0.2,0.2
2024-08-05T1700,1952A,84.8988,45.5893,克拉玛依市,南林小区,,26,20,29,11,13,83,,77,77,14,20,10,10,0.1,0.2
2024-08-05T1700,1954A,84.905,44.3396,克拉玛依市,独山子区,,39,23,28,11,10,124,,112,112,7,9,7,10,0.3,0.5
2024-08-05T1700,1955A,85.6979,46.098,克拉玛依市,乌尔禾区商贸楼,,33,16,24,7,6,103,,94,94,6,12,6,6,0.4,0.4
2024-08-05T1700,3612A,85.1045,45.6899,克拉玛依市,白碱滩区新站,,35,17,25,17,15,112,,109,109,3,6,8,8,0.1,0.1
2024-08-05T1700,2697A,76.1454,39.7142,克孜勒苏柯尔克孜自治州,市人民政府,颗粒物(PM10),125,200,102,62,44,109,,87,87,2,12,9,9,0.4,0.5
2024-08-05T1700,3665A,76.1658,39.7157,克孜勒苏柯尔克孜自治州,克州文化中心,颗粒物(PM10),112,173,110,68,48,119,,99,99,2,11,11,16,0.5,0.5
2024-08-05T1700,1450A,102.8204,24.8886,昆明市,呈贡新区,,25,21,17,9,8,77,,65,65,5,13,6,6,0.6,0.7
2024-08-05T1700,1451A,102.6251,24.9608,昆明市,西山森林公园,,,,,,,,,,,,,,,,
2024-08-05T1700,1452A,102.7252,25.0902,昆明市,龙泉镇,,29,10,19,8,9,90,,66,66,6,14,6,6,0.5,0.6
2024-08-05T1700,1453A,102.7266,25.0375,昆明市,东风东路,,23,9,16,7,10,72,,58,58,10,14,4,4,0.3,0.4
2024-08-05T1700,1454A,102.6742,25.0669,昆明市,金鼎山,颗粒物(PM10),70,89,26,3,10,98,,71,71,8,14,3,3,0.3,0.4
2024-08-05T1700,1455A,102.6644,25.0401,昆明市,碧鸡广场,,29,6,20,3,12,90,,71,71,7,15,3,4,0.4,0.5
2024-08-05T1700,3179A,102.7494,25.0119,昆明市,官渡区博物馆,,24,,13,9,8,74,,65,65,3,10,6,7,0.3,0.4
2024-08-05T1700,3375A,102.8017,24.8336,昆明市,青年创业园,,24,12,16,11,11,74,,62,62,5,15,2,6,0.4,0.5
2024-08-05T1700,3550A,102.7997,24.9786,昆明市,昆明学院,,26,11,16,3,9,83,,67,67,6,12,5,5,0.3,0.5
2024-08-05T1700,3551A,102.5967,24.6736,昆明市,晋宁区生态环境分局,,27,9,15,9,6,84,,65,65,4,7,4,3,0.3,0.4
2024-08-05T1700,3552A,102.6678,24.9856,昆明市,云天化总部,,23,6,16,3,11,72,,65,65,4,11,5,6,0.3,0.4
2024-08-05T1700,1456A,91.1319,29.6514,拉萨市,八廓街,,28,,8,8,6,88,,89,89,8,9,6,6,0.2,0.2
2024-08-05T1700,1457A,91.1221,29.6747,拉萨市,市环保局,,30,6,7,3,6,95,,93,93,9,11,6,7,0.2,0.2
2024-08-05T1700,1458A,91.0874,29.6475,拉萨市,区监测站,,29,7,7,3,6,90,,86,86,7,10,7,7,0.1,0.1
2024-08-05T1700,1459A,91.1774,29.6541,拉萨市,西藏大学,,,6,7,6,6,90,,89,89,4,7,11,12,,0.4
2024-08-05T1700,1460A,90.9798,29.6588,拉萨市,区辐射站,,29,8,8,7,6,91,,86,86,14,11,8,8,0.1,0.2
2024-08-05T1700,1461A,91.0834,29.6292,拉萨市,拉萨火车站,,27,6,7,3,6,86,,87,87,8,8,9,9,0.1,0.2
2024-08-05T1700,2520A,109.2203,23.7256,来宾市,来宾技工学校,,30,30,32,15,17,82,,72,72,6,15,9,18,0.7,0.7
2024-08-05T1700,3535A,109.1781,23.7297,来宾市,兴宾区政府,,27,16,22,15,13,85,,67,67,5,12,6,6,0.7,0.7
2024-08-05T1700,4002A,109.2416,23.7461,来宾市,中南小学,,30,29,31,21,16,95,,81,81,6,13,9,12,0.6,0.6
2024-08-05T1700,1476A,103.631,36.1031,兰州市,兰炼宾馆,臭氧1小时,70,26,42,11,26,176,,141,141,8,24,12,26,0.3,0.5
2024-08-05T1700,1477A,104.1373,35.9454,兰州市,榆中兰大校区,,,,,,,,,,,,,,,,
2024-08-05T1700,1478A,103.8412,36.0726,兰州市,生物制品所,,48,27,40,16,21,153,,121,121,15,34,7,11,0.4,0.6
2024-08-05T1700,1479A,103.831,36.0464,兰州市,铁路设计院,,49,29,43,20,23,156,,117,117,20,42,9,13,0.4,0.6
2024-08-05T1700,3186A,103.7158,36.1058,兰州市,教育港,臭氧1小时,95,45,59,22,28,196,,144,144,8,28,9,13,0.4,0.5
2024-08-05T1700,3241A,103.7439,36.0842,兰州市,百合公园,臭氧1小时,99,23,44,8,20,199,,140,140,8,42,13,13,0.5,0.6
2024-08-05T1700,3242A,103.9611,35.998,兰州市,和平,,45,36,38,19,20,143,,127,127,16,20,7,10,0.3,0.4
2024-08-05T1700,3245A,103.6633,36.533,兰州新区,新区管委会,,49,33,39,17,21,156,,124,124,5,15,13,16,0.3,0.4
2024-08-05T1700,3246A,103.6975,36.4789,兰州新区,舟曲中学,,49,11,27,7,11,156,,123,123,8,17,10,18,0.4,0.5
2024-08-05T1700,1067A,116.6708,39.5111,廊坊市,药材公司,,49,15,21,3,6,155,,134,134,6,10,1,3,0.2,0.3
2024-08-05T1700,1068A,116.7214,39.5589,廊坊市,开发区,臭氧1小时,62,18,19,8,9,169,,136,136,2,6,3,3,0.3,0.3
2024-08-05T1700,1070A,116.7244,39.5269,廊坊市,北华航天学院,臭氧1小时,59,18,31,8,8,167,,138,138,4,8,1,2,0.3,0.3
2024-08-05T1700,2919A,116.7022,39.5453,廊坊市,河北工业大学,,50,20,25,8,9,160,,129,129,4,8,1,2,0.3,0.3
2024-08-05T1700,2535A,103.7723,29.5462,乐山市,花湖湾,,30,,20,7,17,96,,73,73,3,8,5,5,0.3,0.5
2024-08-05T1700,2536A,103.7627,29.5844,乐山市,牛耳桥,,32,11,23,7,18,100,,75,75,7,11,2,2,0.3,0.5
2024-08-05T1700,2537A,103.7508,29.6006,乐山市,市第三水厂,,34,13,23,6,14,108,,90,90,6,12,2,2,0.3,0.4
2024-08-05T1700,2538A,103.7571,29.5664,乐山市,市监测站,,32,10,23,8,14,101,,79,79,3,10,2,2,0.4,0.6
2024-08-05T1700,3361A,103.7311,29.5628,乐山市,理工大学,,33,9,22,6,16,104,,86,86,2,9,3,4,0.3,0.5
2024-08-05T1700,2598A,100.2143,26.8576,丽江市,西南郊,,,,,,,,,,,,,,,,
2024-08-05T1700,2599A,100.2497,26.8802,丽江市,丽江古城,,22,14,12,3,9,69,,68,68,7,8,10,10,0.6,0.7
2024-08-05T1700,2600A,100.2203,26.8906,丽江市,市中心,,,,12,8,8,76,,72,72,6,8,8,8,0.6,0.6
2024-08-05T1700,1267A,119.914,28.4514,丽水市,监测站大楼,,38,32,20,21,10,119,,130,130,5,13,2,3,0.4,0.5
2024-08-05T1700,1268A,119.93,28.4586,丽水市,莲都小学,,40,40,24,16,11,116,,127,127,7,14,4,4,0.3,0.3
2024-08-05T1700,1269A,119.879,28.4231,丽水市,余庄前,,36,21,22,11,11,115,,122,122,5,11,4,3,0.3,0.3
2024-08-05T1700,1173A,119.176,34.5885,连云港市,市环境监测站,,27,14,30,7,15,86,,93,92,10,11,6,6,0.4,0.5
2024-08-05T1700,3000A,119.3581,34.6972,连云港市,德源药业,,21,12,28,3,15,66,,82,79,15,22,3,2,0.3,0.5
2024-08-05T1700,3007A,119.178,34.844,连云港市,新城一中,,28,17,29,3,18,88,,86,86,7,13,2,2,0.6,0.8
2024-08-05T1700,3008A,119.3608,34.7519,连云港市,胡沟管理处,,21,7,24,3,14,66,,87,71,18,18,7,7,0.6,0.7
2024-08-05T1700,3009A,119.1478,34.5911,连云港市,矿山设计院,,26,17,31,3,16,81,,87,86,10,11,6,4,0.6,0.7
2024-08-05T1700,3434A,119.2413,34.6539,连云港市,工贸学校,,28,22,28,8,19,88,,94,92,12,10,6,5,0.9,0.9
2024-08-05T1700,3664A,119.4172,34.7341,连云港市,连云街道,,21,11,28,3,16,65,,106,82,16,12,2,2,0.4,0.5
2024-08-05T1700,2571A,102.3431,27.8099,凉山彝族自治州,青龙寺,,31,11,22,9,14,99,,88,88,3,5,4,2,0.4,0.6
2024-08-05T1700,2572A,102.2721,27.8415,凉山彝族自治州,邛海宾馆,,31,16,20,14,15,98,,93,93,3,9,9,8,0.7,0.8
2024-08-05T1700,2573A,102.2625,27.898,凉山彝族自治州,西昌市政府,,32,16,27,10,17,102,,87,87,5,11,14,10,0.9,0.8
2024-08-05T1700,2574A,102.2685,27.8851,凉山彝族自治州,凉山州政府,,33,15,25,10,17,104,,91,91,5,12,12,9,0.4,0.7
2024-08-05T1700,2575A,102.237,27.8914,凉山彝族自治州,长安,,34,15,23,7,16,107,,86,86,6,16,15,10,0.6,0.8
2024-08-05T1700,2212A,123.2,41.1953,辽阳市,宏伟区,,28,20,11,8,5,88,,82,82,15,5,6,5,0.8,0.6
2024-08-05T1700,2213A,123.1683,41.2495,辽阳市,新华园,,23,16,16,14,8,73,,73,73,15,8,6,5,0.9,0.6
2024-08-05T1700,2214A,123.2354,41.2639,辽阳市,滨河路,,20,13,9,7,4,63,,65,65,19,9,7,7,0.6,0.4
2024-08-05T1700,2215A,123.149,41.2991,辽阳市,铁西工业园,,,,19,7,6,70,,70,70,10,9,8,7,0.8,0.9
2024-08-05T1700,2227A,125.1358,42.8845,辽源市,环保局,,24,8,14,3,7,75,,71,71,3,4,7,7,0.6,0.6
2024-08-05T1700,3239A,125.0764,42.9078,辽源市,银鹰制药,,24,11,12,8,8,76,,68,68,6,8,3,4,0.8,0.8
2024-08-05T1700,1625A,115.9848,36.4372,聊城市,区政府,,40,24,19,17,10,127,,103,103,8,10,8,7,0.5,0.5
2024-08-05T1700,2878A,116.0072,36.4343,聊城市,聊大东校,,42,24,20,20,15,132,,102,102,5,8,8,6,0.5,0.5
2024-08-05T1700,3200A,115.9819,36.4978,聊城市,监控中心,,43,27,22,17,11,135,,102,102,3,7,6,5,0.5,0.5
2024-08-05T1700,3513A,116.0445,36.4361,聊城市,九州社区,,38,32,24,16,9,119,,92,92,6,9,4,6,0.6,0.6
2024-08-05T1700,4018A,116.0567,36.4608,聊城市,星美广场,,38,34,24,16,11,119,,95,95,7,8,4,6,0.6,0.5
2024-08-05T1700,2632A,94.3681,29.6376,林芝市,林芝监测站,,22,9,6,3,5,69,,43,43,3,3,8,8,0.3,0.3
2024-08-05T1700,2633A,94.3616,29.6616,林芝市,林芝人民医院,,22,8,9,3,4,70,,43,43,7,6,6,6,0.2,0.2
2024-08-05T1700,2603A,100.0781,23.8982,临沧市,市环保局,,33,,12,23,18,54,,46,46,8,8,4,4,0.3,0.3
2024-08-05T1700,2604A,100.0894,23.8822,临沧市,市气象局,,18,10,12,7,9,56,,44,44,8,8,5,4,0.3,0.3
2024-08-05T1700,1733A,111.5531,36.0783,临汾市,临钢医院,臭氧1小时,94,71,51,17,17,195,,160,160,7,12,6,9,0.6,0.8
2024-08-05T1700,1734A,111.5028,36.0714,临汾市,技工学校,臭氧1小时,80,22,45,3,16,184,,171,171,10,17,1,6,0.6,0.9
2024-08-05T1700,1736A,111.5018,36.0855,临汾市,市委,臭氧1小时,101,43,31,18,19,202,,190,190,6,16,6,9,0.6,1.1
2024-08-05T1700,3018A,111.505,36.1014,临汾市,唐尧大酒店,臭氧1小时,80,35,38,18,15,184,,167,167,9,14,5,7,0.7,1
2024-08-05T1700,3668A,111.5036,36.0414,临汾市,城南,臭氧1小时,72,35,43,19,17,177,,160,160,9,15,4,6,0.6,0.9
2024-08-05T1700,2667A,103.2069,35.5993,临夏回族自治州,环保局,,37,27,48,17,26,118,,118,118,2,8,8,9,0.2,0.4
2024-08-05T1700,2668A,103.2417,35.6057,临夏回族自治州,建设大厦,,39,10,47,9,29,122,,119,119,2,8,4,4,0.3,0.4
2024-08-05T1700,1618A,118.3429,35.0532,临沂市,沂河小区,,29,14,32,8,18,91,,65,65,6,14,6,9,0.2,0.4
2024-08-05T1700,1619A,118.295,35.0583,临沂市,鲁南制药厂,,30,,28,6,17,94,,62,62,10,19,5,7,0.2,0.4
2024-08-05T1700,1620A,118.2794,34.9976,临沂市,新光毛纺厂,,30,,31,6,16,93,,64,64,6,16,6,9,0.5,0.7
2024-08-05T1700,1621A,118.3956,35.0888,临沂市,河东保险公司,,27,7,27,3,11,84,,65,64,10,18,6,9,0.3,0.5
2024-08-05T1700,3370A,118.3564,35.0215,临沂市,十里堡居委,,28,,24,3,15,87,,68,67,9,18,7,9,0.3,0.5
2024-08-05T1700,3496A,118.3604,35.1084,临沂市,南坊新区,,28,12,27,3,11,88,,63,61,11,14,7,9,0.5,0.6
2024-08-05T1700,3860A,118.3920,35.0300,临沂市,皇山花园小区,,26,9,27,6,16,81,,65,64,8,17,8,10,0.2,0.5
2024-08-05T1700,1870A,109.4856,24.3895,柳州市,柳东小学,,37,37,26,13,15,89,,82,82,5,14,8,10,0.6,0.6
2024-08-05T1700,1871A,109.4157,24.3277,柳州市,环保监测站,,29,12,30,10,17,90,,79,79,5,14,7,7,0.7,0.7
2024-08-05T1700,1872A,109.389,24.341,柳州市,河西水厂,,27,18,34,15,17,86,,79,79,3,15,5,7,0.7,0.8
2024-08-05T1700,1873A,109.4311,24.2921,柳州市,市四中,,32,32,31,16,18,96,,85,85,4,14,5,6,0.5,0.6
2024-08-05T1700,1874A,109.4006,24.3631,柳州市,市九中,,30,28,38,9,21,96,,85,85,8,18,6,7,0.6,0.8
2024-08-05T1700,1875A,109.4958,24.3134,柳州市,古亭山,,30,29,26,19,14,93,,84,84,6,22,6,8,0.7,0.7
2024-08-05T1700,3402A,109.5422,24.3996,柳州市,市二中,,28,19,29,7,11,89,,81,81,6,14,6,8,0.5,0.6
2024-08-05T1700,2307A,116.5079,31.737,六安市,监测大楼,,37,16,19,13,12,117,,108,108,5,8,6,6,0.4,0.4
2024-08-05T1700,2308A,116.4738,31.7643,六安市,皖西学院,,40,34,21,13,12,125,,110,110,4,6,4,4,0.4,0.4
2024-08-05T1700,2309A,116.4996,31.7905,六安市,朝阳厂,,35,12,18,10,12,112,,106,106,1,6,9,9,0.3,0.3
2024-08-05T1700,2310A,116.5567,31.7886,六安市,开发区,,31,,14,14,16,99,,100,100,1,6,7,7,0.3,0.4
2024-08-05T1700,2576A,104.8,26.5892,六盘水市,窑上,,,,,,,,,,,,,,,,
2024-08-05T1700,2577A,104.83,26.5917,六盘水市,黄土坡,,24,24,12,9,8,30,,60,58,25,8,7,5,0.7,0.3
2024-08-05T1700,2578A,104.89,26.5939,六盘水市,水钢,,28,28,17,6,6,60,,63,63,17,7,8,8,0.4,0.5
2024-08-05T1700,2579A,104.8475,26.5894,六盘水市,民中,,25,19,11,17,6,34,,65,63,32,8,9,7,0.7,0.4
2024-08-05T1700,2580A,104.9544,26.5506,六盘水市,双水,,,12,13,3,6,71,,63,63,7,4,,5,0.3,0.3
2024-08-05T1700,2335A,117.0189,25.1181,龙岩市,龙岩师专,,,,,,,,,,,,,,,,
2024-08-05T1700,2336A,117.0217,25.1033,龙岩市,龙岩市监测站,,34,19,19,9,9,107,,97,97,7,11,6,7,0.3,0.3
2024-08-05T1700,2337A,117.0258,25.0661,龙岩市,闽西职业技术学院,,32,15,22,7,10,102,,103,103,3,11,5,7,0.3,0.4
2024-08-05T1700,2338A,117.0196,25.0306,龙岩市,龙岩学院,,32,15,21,7,9,102,,104,104,4,10,3,4,0.3,0.2
2024-08-05T1700,2665A,105.0822,33.3261,陇南市,汉王镇固水子,,,,,,,,,,,,,,,,
2024-08-05T1700,2885A,104.9339,33.3826,陇南市,滨江中学,,28,23,36,3,7,87,,74,74,7,8,5,5,0.5,0.6
2024-08-05T1700,3247A,104.955,33.371,陇南市,市总工会,,28,15,25,6,5,88,,74,74,3,5,4,4,0.5,0.5
2024-08-05T1700,2487A,111.9589,27.8901,娄底市,电视发射台,,23,21,25,12,12,72,,75,75,4,6,8,7,0.5,0.5
2024-08-05T1700,2488A,111.9975,27.725,娄底市,市监测站,,36,36,34,14,19,82,,76,76,2,11,8,11,0.5,0.8
2024-08-05T1700,2489A,112.0194,27.7314,娄底市,市委党校,,26,19,28,14,18,82,,69,69,1,5,10,10,0.5,0.5
2024-08-05T1700,2490A,111.9561,27.7569,娄底市,涟钢,,40,40,36,12,18,58,,55,55,11,18,4,5,0.4,0.7
2024-08-05T1700,2491A,111.9892,27.7044,娄底市,市政府,,25,,25,12,16,80,,73,73,4,9,8,6,0.5,0.4
2024-08-05T1700,1893A,105.4324,28.9634,泸州市,九狮山,,41,21,24,8,18,130,,112,112,9,15,4,6,0.4,0.4
2024-08-05T1700,1894A,105.4427,28.9063,泸州市,小市上码头,,46,32,32,20,19,145,,122,122,7,12,6,6,0.3,0.4
2024-08-05T1700,1895A,105.4241,28.8573,泸州市,兰田宪桥,,47,26,27,19,28,149,,124,124,16,14,5,5,0.2,0.3
2024-08-05T1700,1896A,105.4379,28.8833,泸州市,市环监站,,45,22,32,16,24,142,,119,119,9,13,8,8,0.4,0.4
2024-08-05T1700,3490A,105.3617,28.7703,泸州市,纳溪区环保局,,43,37,32,27,25,137,,128,128,9,15,3,4,0.4,0.5
2024-08-05T1700,2183A,111.1406,37.5211,吕梁市,环保局,臭氧1小时,75,19,49,18,14,180,,149,149,8,19,6,5,0.6,0.5
2024-08-05T1700,2185A,111.1297,37.5136,吕梁市,自来水公司,臭氧1小时,52,23,50,15,13,161,,140,140,8,18,3,4,0.4,0.4
2024-08-05T1700,2867A,111.1283,37.51,吕梁市,马茂庄小学,臭氧1小时,90,29,53,17,14,192,,146,146,8,22,4,3,0.6,0.5
2024-08-05T1700,1812A,112.3931,34.6516,洛阳市,市委党校,,50,36,27,26,19,158,,133,133,4,11,4,7,0.6,0.7
2024-08-05T1700,1814A,112.4657,34.6871,洛阳市,豫西宾馆,臭氧1小时,53,41,32,21,14,162,,144,144,4,11,2,6,0.4,0.4
2024-08-05T1700,1815A,112.494,34.6886,洛阳市,河南林校,臭氧1小时,52,37,24,24,15,161,,137,137,5,13,3,2,0.6,0.6
2024-08-05T1700,1816A,112.3844,34.623,洛阳市,开发区管委会,,49,37,23,28,14,156,,129,129,3,11,3,3,0.4,0.4
2024-08-05T1700,1817A,112.4267,34.6258,洛阳市,市委新办公区,,49,28,22,26,17,154,,133,133,2,6,4,6,0.6,0.6
2024-08-05T1700,3340A,112.6005,34.6326,洛阳市,伊滨,颗粒物(PM10),55,59,36,20,19,117,,130,130,6,13,5,5,0.5,0.6
2024-08-05T1700,3341A,112.4951,34.6332,洛阳市,中移产业园,,46,36,28,30,18,146,,130,130,3,10,3,8,0.6,0.7
2024-08-05T1700,3593A,112.5736,34.8993,洛阳市,吉利监测站,,,56,41,26,22,151,,137,137,2,9,,4,0.6,0.8
2024-08-05T1700,3635A,112.3677,34.662,洛阳市,河科大西苑校区,,49,31,18,18,9,156,,136,136,1,8,4,7,0.6,0.7
2024-08-05T1700,3636A,112.4388,34.6781,洛阳市,英才小学,,49,30,24,26,18,156,,138,138,2,8,3,8,0.7,0.8
2024-08-05T1700,2399A,114.051,33.5699,漯河市,三五一五工厂,,34,34,18,9,7,102,,82,82,14,11,7,8,0.5,0.4
2024-08-05T1700,2400A,114.0055,33.5698,漯河市,漯河大学,,35,29,20,14,6,112,,92,92,8,8,10,9,0.3,0.3
2024-08-05T1700,2401A,114.0138,33.5828,漯河市,市水利局,,34,34,18,17,5,104,,86,86,9,9,6,6,0.5,0.4
2024-08-05T1700,2402A,114.0261,33.5698,漯河市,市广电局,,35,29,14,6,5,111,,88,88,6,7,5,5,0.5,0.4
2024-08-05T1700,3478A,113.9749,33.5664,漯河市,市图书馆,,38,38,22,14,7,117,,95,95,11,12,6,6,0.4,0.3
2024-08-05T1700,3479A,114.0967,33.5906,漯河市,召陵区卫健委,,31,27,22,13,8,98,,79,79,7,12,2,3,0.5,0.4
2024-08-05T1700,1798A,118.5092,31.6837,马鞍山市,湖东路四小,颗粒物(PM10),53,56,34,23,15,157,,135,135,8,14,7,7,0.7,0.6
2024-08-05T1700,1799A,118.5024,31.6449,马鞍山市,开发区,,46,36,36,26,17,146,,141,141,8,18,4,4,0.7,0.7
2024-08-05T1700,1800A,118.5228,31.7231,马鞍山市,慈湖,臭氧1小时,62,43,26,26,19,169,,143,143,20,22,10,7,1.3,0.8
2024-08-05T1700,1802A,118.6245,31.7241,马鞍山市,濮塘,,45,34,23,23,16,141,,132,132,7,10,6,5,0.9,0.7
2024-08-05T1700,3633A,118.4918,31.6809,马鞍山市,雨山,,47,41,31,30,17,148,,135,135,3,10,7,8,0.7,0.8
2024-08-05T1700,1686A,111.0286,21.4688,茂名市,电白南海,,27,27,31,14,20,83,,96,96,5,8,7,10,0.4,0.6
2024-08-05T1700,1687A,110.9294,21.6533,茂名市,茂石化七小,,27,19,27,17,20,85,,91,91,4,9,8,19,0.3,0.5
2024-08-05T1700,1688A,110.9107,21.6687,茂名市,健康路,,28,17,25,9,13,87,,91,91,6,10,12,23,0.4,0.6
2024-08-05T1700,1689A,110.8592,21.6828,茂名市,高岭,,25,19,30,17,23,75,,80,80,10,14,16,24,0.5,0.6
2024-08-05T1700,3450A,111.01,21.5165,茂名市,电白水东,,,17,25,17,18,90,,93,93,5,8,,13,0.5,0.7
2024-08-05T1700,2539A,104.0308,30.0478,眉山市,黑龙滩水库,,26,22,31,8,11,83,,76,76,2,2,4,4,0.1,0.2
2024-08-05T1700,2540A,103.8416,30.0874,眉山市,气象局,,37,18,20,9,10,118,,98,98,8,7,9,9,0.2,0.2
2024-08-05T1700,3137A,103.8578,30.0744,眉山市,市委党校,,39,9,12,3,7,123,,103,103,4,7,10,10,0.6,0.6
2024-08-05T1700,3148A,103.8291,30.0564,眉山市,区人社局,,37,17,18,3,7,118,,102,102,15,10,11,11,0.4,0.4
2024-08-05T1700,1690A,116.1231,24.3284,梅州市,梅江月梅,,47,21,24,3,7,150,,118,118,4,12,9,9,0.4,0.4
2024-08-05T1700,1691A,116.0797,24.2719,梅州市,梅县新城,臭氧1小时,57,37,22,3,9,165,,125,125,9,11,6,5,0.5,0.5
2024-08-05T1700,1692A,116.1248,24.2654,梅州市,环境监控中心,,45,27,29,7,11,144,,120,120,9,15,5,11,0.4,0.5
2024-08-05T1700,3315A,116.1233,24.2991,梅州市,梅龙,,48,22,20,12,14,152,,124,124,5,10,10,10,0.7,0.7
2024-08-05T1700,1878A,104.7778,31.4741,绵阳市,富乐山,,34,25,20,21,16,107,,92,92,2,3,8,8,0.4,0.5
2024-08-05T1700,1879A,104.7563,31.4535,绵阳市,市人大,,35,28,23,17,14,110,,98,98,9,9,11,7,0.4,0.4
2024-08-05T1700,1880A,104.6697,31.4668,绵阳市,高新区自来水公司,,41,22,20,12,10,129,,110,110,8,8,6,6,0.4,0.5
2024-08-05T1700,1881A,104.7287,31.5075,绵阳市,三水厂,,37,21,18,17,14,117,,99,99,5,7,4,4,0.5,0.5
2024-08-05T1700,3491A,104.69,31.5322,绵阳市,西科大附属小学,,40,21,24,17,15,126,,100,100,5,11,8,8,0.3,0.4
2024-08-05T1700,3492A,104.5648,31.5343,绵阳市,安州区旅游局,,45,,13,19,15,144,,110,110,7,11,2,6,0.6,0.5
2024-08-05T1700,1784A,129.61,44.561,牡丹江市,环保大楼,,22,21,14,15,11,42,,46,45,3,4,7,7,0.3,0.2
2024-08-05T1700,1785A,129.6115,44.5782,牡丹江市,文化广场,,40,,15,28,20,40,,43,43,6,6,6,6,0.4,0.3
2024-08-05T1700,1786A,129.5904,44.5963,牡丹江市,第一医院,,16,15,14,11,11,39,,42,42,7,5,5,5,0.4,0.4
2024-08-05T1700,1787A,129.6364,44.6075,牡丹江市,机车工厂,,16,16,18,10,13,42,,43,43,4,6,4,5,0.3,0.3
2024-08-05T1700,1788A,129.6386,44.5462,牡丹江市,第一中学,,24,24,19,7,10,44,,47,47,6,6,5,5,0.4,0.3
2024-08-05T1700,2531A,105.0703,29.61,内江市,市监测站,,35,,13,24,18,93,,76,76,5,9,8,8,0.2,0.3
2024-08-05T1700,2532A,105.0717,29.5947,内江市,东兴区政府,,28,27,20,11,7,88,,70,70,6,10,7,7,0.6,0.7
2024-08-05T1700,2533A,105.0653,29.5817,内江市,内江二中,,,9,17,6,12,91,,80,80,6,11,,3,0.6,0.5
2024-08-05T1700,2534A,105.0406,29.5822,内江市,内江日报社,,,,19,,15,,,54,,,15,,8,,0.5
2024-08-05T1700,2628A,92.0657,31.4846,那曲市,那曲监测站,颗粒物(PM10),56,62,49,18,15,96,,86,86,6,7,11,7,0.4,0.5
2024-08-05T1700,3128A,92.0506,31.4797,那曲市,那曲会议中心,,34,22,26,3,9,108,,97,97,8,8,4,4,0.6,0.4
2024-08-05T1700,1290A,115.8931,28.6843,南昌市,省外办,颗粒物(PM10),57,63,55,24,27,127,,111,111,29,22,9,12,0.4,0.4
2024-08-05T1700,1291A,115.8886,28.7003,南昌市,省林业公司,,39,34,45,19,23,123,,117,117,16,20,7,7,0.4,0.5
2024-08-05T1700,1292A,115.8126,28.7442,南昌市,林科所,,38,34,38,14,21,119,,127,127,7,28,6,11,0.3,0.3
2024-08-05T1700,1294A,115.8518,28.687,南昌市,建工学校,,38,27,42,16,21,120,,118,118,2,13,9,14,0.5,0.6
2024-08-05T1700,1295A,115.8921,28.6424,南昌市,象湖,,42,20,32,14,21,133,,128,128,5,15,5,5,0.6,0.7
2024-08-05T1700,1296A,115.7423,28.7996,南昌市,武术学校,臭氧1小时,112,10,36,9,21,224,,110,110,4,6,2,3,0.6,0.7
2024-08-05T1700,1298A,115.9314,28.6842,南昌市,省站,,44,44,42,25,26,138,,120,120,16,18,9,10,0.6,0.6
2024-08-05T1700,3046A,115.9084,28.6062,南昌市,机电学校,,34,29,45,12,21,107,,110,110,3,12,8,11,0.6,0.7
2024-08-05T1700,3690A,115.9721,28.7031,南昌市,外国语学校,,49,44,48,21,22,156,,130,130,3,13,5,4,0.2,0.3
2024-08-05T1700,1905A,106.056,30.8064,南充市,西山风景区,,32,,13,15,10,100,,80,80,4,6,3,3,0.2,0.1
2024-08-05T1700,1906A,106.0789,30.8023,南充市,南充市委,,47,47,27,24,11,121,,98,98,7,10,5,5,0.3,0.3
2024-08-05T1700,1907A,106.1031,30.8217,南充市,南充炼油厂,,38,27,24,17,11,119,,93,93,6,8,5,4,0.2,0.2
2024-08-05T1700,1908A,106.1064,30.7856,南充市,高坪区监测站,,36,25,18,15,8,114,,88,88,8,10,4,4,0.1,0.1
2024-08-05T1700,1909A,106.0642,30.7636,南充市,嘉陵区环保局,,36,20,18,14,11,115,,89,89,8,12,4,4,0.3,0.2
2024-08-05T1700,1910A,106.1087,30.8388,南充市,市环境监测站,,37,34,24,11,12,117,,91,91,8,9,4,4,0.6,0.6
2024-08-05T1700,1151A,118.8086,32.1065,南京市,迈皋桥,臭氧1小时,77,26,22,14,12,181,,155,155,18,26,7,7,0.4,0.6
2024-08-05T1700,1152A,118.7538,32.0551,南京市,草场门,,44,22,25,12,11,139,,137,137,7,14,7,8,0.6,0.5
2024-08-05T1700,1153A,118.7794,32.0745,南京市,山西路,臭氧1小时,73,31,30,17,13,178,,150,150,2,7,3,4,0.5,0.4
2024-08-05T1700,1154A,118.7752,32.0023,南京市,中华门,,50,24,25,17,13,158,,144,144,6,11,4,4,0.7,0.5
2024-08-05T1700,1155A,118.8109,32.0309,南京市,瑞金路,臭氧1小时,85,41,24,22,13,188,,155,155,3,6,5,4,0.6,0.4
2024-08-05T1700,1156A,118.7997,32.0754,南京市,玄武湖,臭氧1小时,57,40,29,17,9,165,,129,129,4,9,4,4,0.8,0.7
2024-08-05T1700,1157A,118.6414,32.0931,南京市,浦口,,47,23,29,17,15,149,,135,135,6,13,7,7,0.3,0.4
2024-08-05T1700,1158A,118.7356,31.9996,南京市,奥体中心,,47,26,27,14,17,149,,135,135,10,19,9,10,0.4,0.4
2024-08-05T1700,1159A,118.9125,32.1028,南京市,仙林大学城,臭氧1小时,84,34,25,19,13,187,,174,174,10,17,9,9,0.7,0.6
2024-08-05T1700,3422A,118.8436,31.9198,南京市,江宁彩虹桥,,50,44,30,22,13,159,,159,159,3,13,4,4,0.6,0.7
2024-08-05T1700,3423A,119.0138,31.6494,南京市,溧水永阳,臭氧1小时,70,36,21,18,16,176,,134,134,5,7,4,4,0.6,0.5
2024-08-05T1700,3424A,118.879,31.3302,南京市,高淳老职中,,40,28,27,28,16,127,,151,151,11,17,5,4,0.5,0.5
2024-08-05T1700,3427A,118.8554,32.3578,南京市,六合雄州,,39,32,38,15,19,123,,125,125,2,17,5,8,0.7,0.8
2024-08-05T1700,1401A,108.3103,22.7881,南宁市,二十一中,,33,29,22,15,13,104,,83,83,8,9,3,4,0.7,0.8
2024-08-05T1700,1402A,108.3141,22.8528,南宁市,北湖,,,23,21,9,12,109,,85,85,,9,4,3,0.5,0.6
2024-08-05T1700,1403A,108.3206,22.8225,南宁市,市监测站,,35,10,22,10,11,111,,84,84,11,11,5,6,0.6,0.6
2024-08-05T1700,1404A,108.3829,22.8037,南宁市,大自然花园,,34,27,20,8,10,108,,90,90,7,8,4,5,0.5,0.5
2024-08-05T1700,1405A,108.4394,22.7904,南宁市,仙葫,,,,,,,,,,,,,,,,
2024-08-05T1700,1406A,108.2397,22.8467,南宁市,区农职院,,36,36,27,12,14,97,,81,81,10,10,6,5,0.8,0.7
2024-08-05T1700,1407A,108.3275,22.735,南宁市,英华嘉园,,36,19,25,13,12,115,,79,79,12,14,5,6,0.5,0.5
2024-08-05T1700,1408A,108.2257,22.7757,南宁市,沙井镇街道办,,25,17,35,7,14,79,,80,80,6,18,2,3,0.5,0.5
2024-08-05T1700,3401A,108.4834,22.7618,南宁市,红星社区,,,,24,15,13,122,,98,98,5,9,5,5,0.5,0.6
2024-08-05T1700,2331A,118.0966,26.6761,南平市,茫荡山,,,,,,,,,,,,,,,,
2024-08-05T1700,2332A,118.1681,26.6369,南平市,南平市监测站,,33,22,16,13,9,104,,100,100,5,7,5,5,0.4,0.4
2024-08-05T1700,2333A,118.1825,26.6489,南平市,南平铝业有限公司,,34,26,17,14,8,107,,98,98,4,7,6,6,0.5,0.5
2024-08-05T1700,2334A,118.1756,26.6272,南平市,南平七中,,34,28,18,11,9,106,,99,99,3,6,5,5,0.4,0.4
2024-08-05T1700,1168A,120.9098,31.9663,南通市,狼山街道,,46,33,25,18,13,145,,171,171,39,33,9,9,0.9,0.6
2024-08-05T1700,1169A,120.86,32.0005,南通市,虹桥,颗粒物(PM10),72,93,34,48,16,116,,168,168,76,27,36,9,5.1,0.9
2024-08-05T1700,1170A,120.87,32.02,南通市,城中,颗粒物(PM10),69,87,39,25,15,94,,153,153,86,26,25,8,2.8,1.1
2024-08-05T1700,1171A,120.94,31.93,南通市,星湖花园,臭氧1小时,70,36,31,23,13,176,,227,227,43,34,7,8,0.8,0.6
2024-08-05T1700,1172A,120.81,32.0417,南通市,紫琅学院,颗粒物(PM10),51,51,31,28,14,152,,182,182,41,39,14,10,1.2,0.8
2024-08-05T1700,3291A,121.067,32.062,南通市,通州监测站,臭氧1小时,58,27,30,12,13,166,,157,157,6,11,4,5,0.7,0.6
2024-08-05T1700,3432A,120.9348,31.9883,南通市,环境教育馆,臭氧1小时,73,51,38,25,16,178,,217,217,40,34,10,10,0.8,0.6
2024-08-05T1700,2404A,112.5224,33.0122,南阳市,瓦房庄,,35,27,28,18,10,112,,98,98,8,15,5,5,0.4,0.4
2024-08-05T1700,2405A,112.5003,32.9735,南阳市,汉画馆,,35,27,27,15,14,109,,93,93,8,18,3,4,0.5,0.5
2024-08-05T1700,2406A,112.5573,33.027,南阳市,气象站,,34,28,26,17,11,108,,97,97,5,13,5,5,0.5,0.4
2024-08-05T1700,2407A,112.5481,32.9689,南阳市,理工学院,,35,24,22,16,9,109,,99,99,8,17,5,3,0.5,0.4
2024-08-05T1700,4008A,112.5234,32.9922,南阳市,卧龙区政府,,32,31,28,17,14,102,,90,90,14,20,4,4,0.6,0.6
2024-08-05T1700,1234A,121.8358,29.911,宁波市,区环保大楼,,27,24,27,12,15,85,,87,87,10,14,7,7,0.5,0.6
2024-08-05T1700,1235A,121.56,29.82,宁波市,万里学院,,36,32,33,16,20,114,,119,119,6,10,7,8,0.7,0.7
2024-08-05T1700,1236A,121.713,29.9572,宁波市,龙赛医院,,32,31,30,15,14,100,,104,104,12,14,7,7,0.5,0.6
2024-08-05T1700,1239A,121.633,29.7733,宁波市,钱湖水厂,,35,24,26,15,16,109,,112,112,5,6,6,6,0.7,0.7
2024-08-05T1700,1240A,121.5856,29.8635,宁波市,太古小学,,,24,29,19,15,108,,112,112,,8,6,6,0.7,0.8
2024-08-05T1700,1241A,121.524,29.8674,宁波市,市环境监测中心,,38,26,27,16,14,119,,130,130,9,12,5,5,0.6,0.6
2024-08-05T1700,2871A,121.6147,29.9017,宁波市,万里国际学校,,37,21,24,17,15,118,,119,119,8,9,6,6,0.5,0.5
2024-08-05T1700,3710A,121.5594,29.8975,宁波市,白沙活动中心,,38,26,28,13,13,119,,128,128,6,9,5,6,0.5,0.4
2024-08-05T1700,2339A,119.5001,26.6946,宁德市,金涵水库,,,,,,,,,,,,,,,,
2024-08-05T1700,2341A,119.5388,26.6612,宁德市,宁德市监测站,,41,34,31,23,20,129,,121,121,5,10,9,6,0.6,0.5
2024-08-05T1700,3209A,119.5231,26.6562,宁德市,宁德一中,,40,40,35,23,17,107,,115,115,23,11,7,7,0.8,0.7
2024-08-05T1700,2618A,98.8601,25.8567,怒江傈僳族自治州,州监测站,,18,12,15,10,10,57,,49,49,4,5,9,9,0.4,0.4
2024-08-05T1700,2619A,98.8546,25.8417,怒江傈僳族自治州,泸水一中,,18,12,9,10,6,55,,44,44,9,10,7,5,0.3,0.3
2024-08-05T1700,1888A,101.6891,26.571,攀枝花市,弄弄坪,颗粒物(PM10),51,51,52,22,22,119,,98,98,11,16,16,15,0.7,0.8
2024-08-05T1700,1889A,101.5769,26.5928,攀枝花市,河门口,,48,35,32,25,21,152,,113,113,12,14,16,12,1.1,1
2024-08-05T1700,1890A,101.7169,26.585,攀枝花市,炳草岗,,49,45,46,30,25,156,,108,108,11,20,26,19,0.9,0.9
2024-08-05T1700,1891A,101.7369,26.5008,攀枝花市,仁和,,29,10,24,8,16,91,,90,90,6,11,8,11,0.4,0.7
2024-08-05T1700,2835A,101.7227,26.567,攀枝花市,四十中小,,50,43,36,31,26,157,,113,113,9,22,18,22,0.7,1.3
2024-08-05T1700,1604A,122.0303,41.1489,盘锦市,开发区,,35,35,12,11,6,89,,85,85,11,10,6,6,0.8,0.6
2024-08-05T1700,1605A,122.0485,41.0883,盘锦市,兴隆台,,29,18,13,10,5,92,,84,84,10,15,4,4,0.4,0.2
2024-08-05T1700,1606A,121.8297,41.1028,盘锦市,新生街道,,31,,13,19,7,97,,93,93,4,2,4,4,0.4,0.1
2024-08-05T1700,1832A,113.3257,33.742,平顶山市,新华旅馆,,39,27,30,18,20,122,,91,91,4,12,2,3,0.6,0.5
2024-08-05T1700,1833A,113.2919,33.737,平顶山市,规划设计院,,39,20,15,12,7,123,,92,92,7,13,6,6,0.8,0.7
2024-08-05T1700,1834A,113.182,33.774,平顶山市,平顶山工学院,,37,19,13,7,3,116,,92,92,3,8,6,5,0.7,0.6
2024-08-05T1700,3204A,113.3025,33.73,平顶山市,规划局,,36,17,13,16,9,114,,85,85,6,12,2,2,0.7,0.7
2024-08-05T1700,3594A,112.8867,33.9116,平顶山市,石龙区,,30,30,31,15,17,72,,100,100,10,15,9,14,0.4,0.5
2024-08-05T1700,2656A,106.6692,35.5461,平凉市,聚贤嘉苑,,29,29,27,12,13,92,,97,97,16,28,8,8,0.3,0.3
2024-08-05T1700,2657A,106.7021,35.5307,平凉市,博物馆,,30,27,38,6,8,95,,97,97,11,25,11,11,0.4,0.4
2024-08-05T1700,2347A,114.0997,27.5002,萍乡市,武功山,,15,,9,3,6,46,,72,72,4,4,14,15,0.2,0.2
2024-08-05T1700,2348A,113.8385,27.6434,萍乡市,中医院,,28,28,36,16,20,77,,97,97,6,10,7,10,0.6,0.8
2024-08-05T1700,2349A,113.8493,27.6253,萍乡市,市政府车库,,37,37,37,12,19,69,,85,85,2,7,10,13,0.5,0.6
2024-08-05T1700,2350A,113.8676,27.6435,萍乡市,市环保局,,39,39,34,15,24,76,,93,93,2,8,6,12,0.6,0.8
2024-08-05T1700,2351A,113.866,27.6198,萍乡市,安源区政府,,22,17,35,15,15,68,,81,81,4,8,10,10,0.3,0.4
2024-08-05T1700,2319A,119.0141,25.4325,莆田市,荔城区仓后路,,42,42,46,20,27,106,,113,113,8,13,7,7,0.8,0.8
2024-08-05T1700,2320A,119.0015,25.4553,莆田市,莆田市监测站,,36,30,40,20,26,114,,117,117,8,9,6,5,0.6,0.6
2024-08-05T1700,2321A,119.1119,25.4561,莆田市,涵江区六中,,35,35,41,13,24,94,,112,112,12,17,8,8,0.2,0.3
2024-08-05T1700,2322A,119.1013,25.3215,莆田市,秀屿区政府,,49,49,31,14,18,110,,107,107,5,8,5,6,0.7,0.6
2024-08-05T1700,2323A,118.981,25.4792,莆田市,东圳水库,,,,,,,,,,,,,,,,
2024-08-05T1700,2392A,115.0312,35.7636,濮阳市,环保局,,35,23,22,18,13,109,,107,107,6,11,4,4,0.4,0.5
2024-08-05T1700,2394A,115.0574,35.7609,濮阳市,油田运输公司,,39,24,21,22,14,122,,117,117,10,13,1,1,0.3,0.4
2024-08-05T1700,2395A,115.0866,35.7754,濮阳市,油田物探公司,,38,21,23,21,16,120,,110,110,3,6,2,2,0.4,0.4
2024-08-05T1700,3021A,115,35.7668,濮阳市,濮水河管理处,,32,27,22,22,18,92,,88,88,4,8,1,1,0.5,0.5
2024-08-05T1700,2601A,100.98,22.7633,普洱市,市环保局,,16,16,21,11,14,36,,36,36,5,5,4,4,0.4,0.4
2024-08-05T1700,2602A,100.9817,22.8322,普洱市,普洱第二中学,,13,10,19,3,11,39,,34,34,5,8,5,6,0.4,0.4
2024-08-05T1700,2262A,131.0518,45.8751,七台河市,新一中,,,11,14,,9,51,,48,48,8,10,8,10,1.4,1.3
2024-08-05T1700,3345A,131.0577,45.7879,七台河市,中波台,,12,,7,8,7,34,,38,38,13,15,12,11,0.4,0.4
2024-08-05T1700,3637A,131.0176,45.7761,七台河市,人民广场,,30,30,14,3,6,39,,46,46,9,10,9,9,0.3,0.3
2024-08-05T1700,3684A,130.8781,45.8222,七台河市,新建矿广场,,34,34,29,11,13,40,,45,44,16,16,14,14,0.4,0.5
2024-08-05T1700,1779A,123.9305,47.3636,齐齐哈尔市,安居小区,,23,18,10,10,8,73,,71,71,11,10,7,8,0.6,0.6
2024-08-05T1700,1780A,123.9488,47.3386,齐齐哈尔市,中心广场,,24,18,13,6,5,74,,74,74,9,8,2,2,0.4,0.5
2024-08-05T1700,1781A,123.9483,47.3227,齐齐哈尔市,农牧车辆厂,,24,24,18,3,4,76,,74,74,7,6,9,8,0.2,0.2
2024-08-05T1700,1783A,123.945,47.2988,齐齐哈尔市,市环境监测站,,24,13,9,9,8,76,,75,75,6,5,7,6,0.3,0.3
2024-08-05T1700,3662A,123.6333,47.2075,齐齐哈尔市,富区青少年活动中心,,27,15,16,7,10,84,,72,72,6,8,4,4,0.4,0.6
2024-08-05T1700,2591A,107.9783,26.5747,黔东南苗族侗族自治州,市环境监测站,,19,15,11,9,8,60,,56,56,5,9,3,3,0.4,0.4
2024-08-05T1700,2881A,107.8908,26.5311,黔东南苗族侗族自治州,凯里学院,,18,,10,9,7,57,,51,51,4,7,4,5,0.5,0.5
2024-08-05T1700,2593A,107.5228,26.2403,黔南布依族苗族自治州,小围寨,,18,6,8,3,1,55,,51,51,3,4,5,5,0.4,0.4
2024-08-05T1700,3538A,107.5175,26.2978,黔南布依族苗族自治州,沙坝,,19,6,11,3,4,58,,52,52,1,3,4,4,0.3,0.3
2024-08-05T1700,2589A,104.9022,25.0925,黔西南布依族苗族自治州,场坝街,,18,10,16,7,7,57,,50,50,3,3,4,4,0.2,0.2
2024-08-05T1700,2590A,104.8811,25.0992,黔西南布依族苗族自治州,坪东大道,,18,14,17,7,7,55,,49,49,2,2,4,4,0.0,0.1
2024-08-05T1700,2502A,108.6236,21.9667,钦州市,市环保站,,29,29,26,9,7,88,,81,81,10,15,9,7,0.6,0.7
2024-08-05T1700,2503A,108.6549,21.9481,钦州市,沙埠小学,,44,44,42,20,16,93,,85,85,10,19,6,5,0.8,0.7
2024-08-05T1700,2504A,108.5989,21.7431,钦州市,港区一小,,35,35,27,15,9,56,,56,56,6,9,7,8,0.5,0.5
2024-08-05T1700,3404A,108.5959,21.9633,钦州市,北职校,,28,25,32,15,13,87,,78,78,6,17,7,6,0.7,0.7
2024-08-05T1700,1042A,119.5134,39.8207,秦皇岛市,北戴河环保局,,42,35,26,15,6,133,,113,113,8,7,2,2,0.4,0.5
2024-08-05T1700,1043A,119.7493,40.0116,秦皇岛市,第一关,,42,36,34,24,23,134,,119,119,6,23,3,3,0.6,0.6
2024-08-05T1700,1044A,119.5897,39.9499,秦皇岛市,监测站,,43,30,42,10,19,136,,125,125,12,12,3,3,0.7,0.8
2024-08-05T1700,1046A,119.5251,39.9041,秦皇岛市,建设大厦,,40,27,30,6,9,125,,106,106,3,9,2,2,0.5,0.7
2024-08-05T1700,3132A,119.610547,39.943889,秦皇岛市,文明里,,42,20,18,7,9,134,,113,113,6,7,1,2,0.3,0.5
2024-08-05T1700,1307A,120.6659,36.2403,青岛市,仰口,,31,9,19,3,11,99,,104,96,9,14,2,3,0.8,3.4
2024-08-05T1700,1310A,120.4134,36.0658,青岛市,市南区东部子站,,26,9,22,3,7,83,,74,71,11,8,7,6,0.5,0.5
2024-08-05T1700,1311A,120.3664,36.1032,青岛市,四方区子站,,23,22,28,7,14,73,,86,67,24,14,9,9,0.6,0.7
2024-08-05T1700,1312A,120.2994,36.054,青岛市,市南区西部子站,,19,12,29,3,10,48,,80,66,38,13,8,7,0.6,0.7
2024-08-05T1700,1313A,120.4581,36.0858,青岛市,崂山区子站,,27,7,26,3,8,86,,76,75,10,11,7,8,0.5,0.5
2024-08-05T1700,1314A,120.1983,35.9608,青岛市,黄岛区子站,,27,6,25,3,14,85,,80,78,19,20,6,7,0.6,0.7
2024-08-05T1700,1315A,120.3999,36.3083,青岛市,城阳区子站,,24,17,21,10,11,74,,76,64,32,17,6,7,0.7,0.6
2024-08-05T1700,1966A,120.0405,35.8735,青岛市,黄岛区4号,,25,7,25,3,13,80,,81,71,13,14,6,6,0.5,0.6
2024-08-05T1700,3362A,120.5014,36.4034,青岛市,即墨2号,,23,8,20,6,13,73,,88,73,7,9,6,6,0.2,0.3
2024-08-05T1700,3642A,120.3503,36.0736,青岛市,市北区南部,,17,17,27,3,13,44,,65,46,11,9,5,5,0.6,0.7
2024-08-05T1700,3643A,120.3948,36.1805,青岛市,李沧区北部,,19,19,26,7,15,58,,86,63,38,21,8,8,0.4,0.5
2024-08-05T1700,1702A,113.0426,23.691,清远市,环保大楼,,27,19,38,11,21,84,,93,93,5,13,6,5,0.7,0.7
2024-08-05T1700,1703A,113.0208,23.7106,清远市,凤城街办,,25,24,38,17,22,71,,90,90,11,12,4,4,0.5,0.5
2024-08-05T1700,3025A,113.0477,23.6344,清远市,技师学院,,30,30,48,16,24,94,,100,100,4,17,9,8,0.1,0.2
2024-08-05T1700,3318A,112.9903,23.7403,清远市,清新太和,,36,36,36,20,19,72,,87,87,3,5,10,9,0.4,0.5
2024-08-05T1700,3455A,113.076,23.7198,清远市,清城东城,,43,43,37,24,23,95,,114,114,3,8,7,6,0.4,0.6
2024-08-05T1700,2661A,107.6325,35.7357,庆阳市,庆阳五中,,33,21,28,12,15,103,,97,97,5,9,5,5,0.3,0.4
2024-08-05T1700,2662A,107.6364,35.7067,庆阳市,市环保局,,,,23,6,13,104,,94,94,5,7,6,6,0.4,0.5
2024-08-05T1700,1916A,103.7897,25.5035,曲靖市,环境监测站,,27,21,21,7,11,86,,56,56,7,11,1,2,0.6,0.7
2024-08-05T1700,1917A,103.8,25.5364,曲靖市,烟厂办公区,,29,,16,13,10,90,,57,57,6,10,5,4,0.3,0.4
2024-08-05T1700,3376A,103.7947,25.462,曲靖市,南苑二区,,31,11,14,3,9,97,,60,60,6,9,6,6,0.6,0.7
2024-08-05T1700,3377A,103.7444,25.5261,曲靖市,曲靖师范学院,,,,18,4,10,81,,58,58,4,11,5,6,0.2,0.4
2024-08-05T1700,1264A,118.8692,28.9398,衢州市,环保大楼,,41,26,24,15,14,129,,125,125,9,18,5,5,0.5,0.5
2024-08-05T1700,1265A,118.8709,28.9666,衢州市,实验学校,,38,22,25,18,15,120,,126,126,11,17,7,9,0.6,0.6
2024-08-05T1700,1266A,118.8621,28.9808,衢州市,衢州学院,,39,25,26,14,16,123,,134,134,10,20,2,2,0.4,0.4
2024-08-05T1700,1611A,118.5819,24.9117,泉州市,涂山街,,39,35,38,24,21,123,,137,137,9,11,4,4,0.6,0.6
2024-08-05T1700,1612A,118.5972,24.8978,泉州市,津头埔,,38,38,40,21,20,115,,129,129,10,15,3,3,0.5,0.6
2024-08-05T1700,1613A,118.6663,24.9424,泉州市,万安,,37,31,35,21,20,116,,126,126,4,12,3,2,0.5,0.5
2024-08-05T1700,1614A,118.6117,24.9604,泉州市,清源山,,,,,,,,,,,,,,,,
2024-08-05T1700,3529A,118.6333,24.9264,泉州市,城华南路,,33,27,37,17,20,105,,120,120,8,16,2,3,0.4,0.4
2024-08-05T1700,2626A,88.8876,29.2718,日喀则市,日喀则监测站,,30,6,4,3,2,95,,83,83,3,5,3,5,0.4,0.4
2024-08-05T1700,3726A,88.8781,29.2426,日喀则市,林业技术推广中心,,,,3,3,4,94,,79,79,7,6,,6,0.4,0.4
2024-08-05T1700,1659A,119.471,35.4209,日照市,监测站,,19,19,27,9,16,44,,62,58,36,22,10,9,0.5,0.6
2024-08-05T1700,1660A,119.523,35.4216,日照市,市政府广场,,21,19,34,6,18,67,,63,63,14,22,8,10,0.6,0.8
2024-08-05T1700,1661A,119.5587,35.4044,日照市,港务局,,25,9,37,3,13,78,,72,72,8,19,11,11,0.3,0.5
2024-08-05T1700,3507A,119.5328,35.4625,日照市,职业技术学院,,24,14,32,12,17,76,,67,67,23,22,12,10,0.8,0.7
2024-08-05T1700,3604A,119.3266,35.1044,日照市,岚山环保分局,,35,24,37,7,14,112,,110,108,16,16,13,8,0.8,0.6
2024-08-05T1700,1835A,111.1922,34.7752,三门峡市,市政府,,30,7,23,6,10,93,,88,88,5,8,6,7,0.4,0.5
2024-08-05T1700,1836A,111.1587,34.7942,三门峡市,开发区,,31,,26,13,17,99,,92,92,7,12,8,9,0.4,0.5
2024-08-05T1700,1838A,111.143,34.7955,三门峡市,风景区,,,,,,,,,,,,,,,,
2024-08-05T1700,3039A,111.1911,34.7829,三门峡市,三门峡市第一小学,,30,18,26,16,12,95,,86,86,5,7,7,8,0.4,0.5
2024-08-05T1700,3598A,111.1,34.7167,三门峡市,富达温泉假日酒店,,34,15,24,3,12,107,,108,108,6,12,15,15,0.5,0.5
2024-08-05T1700,2324A,117.6211,26.2625,三明市,三钢,,44,,23,14,14,140,,119,119,10,12,12,10,1.1,1.1
2024-08-05T1700,2325A,117.635,26.2714,三明市,三明二中,,49,24,23,10,13,156,,127,127,10,11,8,6,1.0,0.8
2024-08-05T1700,2326A,117.6028,26.2378,三明市,三元区政府,,42,19,24,3,7,132,,115,115,8,12,2,3,0.3,0.6
2024-08-05T1700,2327A,117.7275,26.3108,三明市,洋溪,,,,,,,,,,,,,,,,
2024-08-05T1700,1876A,109.5078,18.2489,三亚市,河东子站,,22,22,20,7,11,56,,58,58,7,6,2,2,0.3,0.4
2024-08-05T1700,1877A,109.4964,18.2681,三亚市,河西子站,,18,11,17,11,12,55,,57,57,3,7,3,3,0.1,0.2
2024-08-05T1700,3540A,109.7348,18.3443,三亚市,君悦子站,,17,17,18,8,11,49,,61,61,5,9,2,2,0.1,0.2
2024-08-05T1700,2624A,91.7608,29.2313,山南市,山南监测站,,24,6,6,3,2,76,,74,74,3,4,7,7,0.3,0.3
2024-08-05T1700,2625A,91.7706,29.2436,山南市,山南人民医院,,26,26,10,6,5,75,,75,75,5,6,6,6,0.3,0.3
2024-08-05T1700,1674A,116.6794,23.3667,汕头市,金平子站,臭氧1小时,59,47,43,25,18,167,,150,150,9,20,9,13,0.7,1
2024-08-05T1700,1675A,116.7244,23.3633,汕头市,龙湖子站,颗粒物(PM10),56,61,37,31,18,156,,128,128,9,20,8,9,0.8,0.8
2024-08-05T1700,1676A,116.7258,23.2775,汕头市,濠江子站,臭氧1小时,70,57,41,34,18,176,,166,166,10,21,7,8,0.7,0.9
2024-08-05T1700,1677A,116.7519,23.4714,汕头市,澄海子站,颗粒物(PM10),54,58,35,30,17,143,,112,112,9,18,3,6,0.7,0.7
2024-08-05T1700,1678A,116.6092,23.2539,汕头市,潮阳子站,,,48,36,17,10,142,,142,142,15,12,,7,1.6,0.8
2024-08-05T1700,3444A,116.454,23.2684,汕头市,潮南峡山,颗粒物(PM10),56,61,38,30,19,135,,143,143,6,8,6,6,0.6,0.7
2024-08-05T1700,3624A,116.4069,23.2533,汕头市,潮南子站,颗粒物(PM10),53,56,41,20,23,136,,146,146,8,12,5,5,0.8,0.7
2024-08-05T1700,1693A,115.3653,22.775,汕尾市,市环保局,,48,27,26,18,15,152,,124,124,10,13,6,6,0.6,0.6
2024-08-05T1700,1694A,115.3706,22.7898,汕尾市,市政府,,41,,24,19,11,129,,110,110,7,10,6,6,0.5,0.4
2024-08-05T1700,1695A,115.3622,22.7925,汕尾市,新城中学,,45,38,29,17,13,141,,114,114,5,8,6,6,0.5,0.4
2024-08-05T1700,2645A,109.9154,33.8715,商洛市,监测站,,31,20,24,7,6,99,,81,81,10,13,10,10,0.4,0.5
2024-08-05T1700,3045A,109.9643,33.8471,商洛市,商州区中学,,42,42,29,10,7,93,,79,79,8,14,11,8,0.6,0.6
2024-08-05T1700,2408A,115.6702,34.4285,商丘市,环境监测站,,,,26,4,12,73,,78,78,4,4,2,3,0.3,0.4
2024-08-05T1700,2409A,115.6458,34.4045,商丘市,粮食局,,,,30,3,11,80,,79,79,4,6,4,4,0.6,0.6
2024-08-05T1700,2410A,115.6293,34.3948,商丘市,睢阳区环保局,,26,,28,7,12,81,,76,76,2,7,4,4,0.2,0.4
2024-08-05T1700,3171A,115.6071,34.4465,商丘市,梁园区档案局,,,,26,8,14,73,,75,75,5,6,6,5,0.4,0.5
2024-08-05T1700,1141A,121.4,31.238,上海市,普陀,,50,30,39,21,17,157,,152,152,12,17,5,6,0.4,0.4
2024-08-05T1700,1142A,121.478,31.2036,上海市,十五厂,,45,24,35,20,22,144,,146,146,14,17,8,8,0.3,0.4
2024-08-05T1700,1143A,121.467,31.3008,上海市,虹口,,49,28,38,22,21,155,,157,157,10,15,7,7,0.5,0.6
2024-08-05T1700,1144A,121.412,31.1654,上海市,徐汇上师大,,48,30,40,19,21,153,,152,152,19,22,5,5,0.6,0.6
2024-08-05T1700,1145A,121.536,31.2659,上海市,杨浦四漂,,49,42,40,21,20,155,,158,158,15,17,6,7,0.8,0.9
2024-08-05T1700,1147A,121.425,31.2261,上海市,静安监测站,,48,,38,28,29,152,,154,154,14,19,6,6,0.4,0.4
2024-08-05T1700,1148A,121.703,31.1907,上海市,浦东川沙,,35,30,37,17,23,112,,126,126,20,17,6,6,0.5,0.5
2024-08-05T1700,1149A,121.533,31.2284,上海市,浦东新区监测站,,44,22,35,14,20,140,,138,138,11,16,5,5,0.4,0.5
2024-08-05T1700,1150A,121.577,31.2071,上海市,浦东张江,,40,40,45,18,22,118,,119,119,27,22,6,5,0.5,0.5
2024-08-05T1700,3265A,121.4316,31.3322,上海市,宝山庙行,臭氧1小时,65,33,35,21,18,172,,171,171,11,16,6,6,0.6,0.6
2024-08-05T1700,3266A,121.8791,31.4662,上海市,崇明上实东滩,,33,14,21,10,14,104,,98,98,14,14,8,8,0.6,0.6
2024-08-05T1700,3268A,121.3162,31.2838,上海市,嘉定南翔,臭氧1小时,73,39,40,24,20,178,,168,168,19,25,7,8,0.5,0.5
2024-08-05T1700,3269A,121.3359,30.7456,上海市,金山新城,臭氧1小时,52,22,31,15,19,161,,153,153,8,11,8,8,0.5,0.6
2024-08-05T1700,3270A,121.4996,31.0739,上海市,闵行浦江,,39,18,33,18,23,124,,137,137,10,15,6,7,0.5,0.5
2024-08-05T1700,3271A,121.2886,31.1663,上海市,青浦徐泾,臭氧1小时,102,40,38,28,21,204,,184,184,16,19,8,7,0.6,0.6
2024-08-05T1700,3272A,121.2186,31.0378,上海市,松江图书馆,臭氧1小时,55,28,36,25,23,164,,174,174,13,16,6,6,0.5,0.6
2024-08-05T1700,3273A,121.3902,31.2059,上海市,长宁仙霞,臭氧1小时,54,32,38,20,20,163,,154,154,16,20,8,10,0.6,0.6
2024-08-05T1700,3274A,121.7965,31.0507,上海市,浦东惠南,,38,22,32,15,21,121,,113,113,8,13,7,7,0.7,0.7
2024-08-05T1700,3544A,121.4891,30.925,上海市,奉贤南桥新城,,44,,34,21,23,139,,155,155,12,15,9,8,0.6,0.6
2024-08-05T1700,2381A,118.005,28.4572,上饶市,百草园,,35,17,24,10,14,112,,123,123,4,10,5,4,0.8,0.3
2024-08-05T1700,2382A,117.9756,28.4436,上饶市,市监测站,,36,29,30,11,14,113,,126,126,6,13,2,6,0.6,0.6
2024-08-05T1700,2383A,117.9519,28.4628,上饶市,凤凰光学,,35,25,26,16,14,110,,119,119,4,11,6,8,0.9,0.9
2024-08-05T1700,3413A,118.1953,28.4401,上饶市,广丰区教体局,,40,20,23,11,12,125,,113,113,5,7,7,14,0.7,0.6
2024-08-05T1700,3685A,117.897,28.4315,上饶市,双创科技城,,32,30,29,9,12,102,,103,103,3,10,4,7,0.6,0.6
2024-08-05T1700,1669A,113.5824,24.7733,韶关市,市八中,颗粒物(PM10),56,61,50,37,31,109,,130,130,3,10,8,12,0.4,0.6
