timepoint,stationcode,longitude,latitude,area,positionname,primarypollutant,aqi,pm10,pm10_24h,pm2_5,pm2_5_24h,o3,o3_24h,o3_8h,o3_8h_24h,no2,no2_24h,so2,so2_24h,co,co_24h
2024-08-05T1200,2566A,102.1879,31.914,阿坝藏族羌族自治州,州农科所,,18,10,22,7,8,57,,28,28,6,12,6,6,0,0
2024-08-05T1200,2568A,102.2502,31.8896,阿坝藏族羌族自治州,马师校,,,14,17,8,12,67,,21,,16,16,6,5,,0.3
2024-08-05T1200,3994A,102.2165,31.9024,阿坝藏族羌族自治州,马尔康中学西区,,21,11,13,7,11,65,,29,29,8,6,5,4,0.3,0.3
2024-08-05T1200,2695A,80.292,41.1694,阿克苏地区,电视台,,26,23,24,13,17,83,,59,59,14,17,3,4,0.5,0.5
2024-08-05T1200,2696A,80.2613,41.1551,阿克苏地区,艺术中心,,25,21,22,7,10,80,,61,58,6,11,4,4,0.5,0.5
2024-08-05T1200,2204A,105.6467,38.8363,阿拉善盟,西城区西花园,颗粒物(PM10),59,68,45,22,13,154,,113,110,13,11,6,10,1.2,0.8
2024-08-05T1200,2205A,105.6985,38.8411,阿拉善盟,蒙二幼,颗粒物(PM10),76,101,58,15,12,138,,123,111,6,10,9,10,0.3,0.3
2024-08-05T1200,2206A,105.724,38.8516,阿拉善盟,环保局新楼,颗粒物(PM10),61,72,33,15,10,146,,139,128,6,5,9,10,0.6,0.5
2024-08-05T1200,2708A,88.1264,47.8517,阿勒泰地区,市站,,28,25,20,9,6,88,,84,82,19,12,7,7,0.5,0.5
2024-08-05T1200,2630A,80.1161,32.5,阿里地区,阿里监测站,,35,8,9,3,4,112,,114,103,4,6,7,6,0.2,0.2
2024-08-05T1200,3192A,80.0903,32.5028,阿里地区,阿里藏医院,,,,7,,3,111,,111,106,4,5,6,16,0.4,0.4
2024-08-05T1200,2642A,109.0318,32.6537,安康市,香溪洞,,,21,10,,2,54,,24,24,4,3,5,5,0.3,0.2
2024-08-05T1200,2643A,109.0281,32.6939,安康市,安康市监测站,,21,20,18,7,5,65,,22,22,5,7,6,7,0.5,0.5
2024-08-05T1200,2644A,109.0072,32.6975,安康市,汉滨区检察院,,19,15,14,3,2,59,,22,22,4,6,7,7,0.5,0.5
2024-08-05T1200,2291A,117.0809,30.5177,安庆市,环科院,颗粒物(PM10),52,53,27,34,19,155,,84,84,9,28,9,7,0.6,0.6
2024-08-05T1200,2292A,117.0331,30.5119,安庆市,马山宾馆,,49,30,21,30,20,154,,77,77,13,31,10,9,0.6,0.6
2024-08-05T1200,2294A,116.9896,30.6145,安庆市,安庆大学,,42,40,31,27,20,134,,68,68,8,16,10,11,0.4,0.4
2024-08-05T1200,3173A,117.0598,30.5351,安庆市,市人大,,46,35,28,27,18,147,,85,85,6,15,8,9,0.4,0.4
2024-08-05T1200,3122A,105.9606,26.2611,安顺市,伍家关,,,,,,,,,,,,,,,,
2024-08-05T1200,3123A,105.9408,26.2431,安顺市,凤凰山,,18,9,10,3,9,56,,48,48,2,4,6,7,0.6,0.5
2024-08-05T1200,3124A,105.9439,26.2564,安顺市,金钟山,,18,10,12,7,9,57,,50,50,2,3,4,5,0.5,0.5
2024-08-05T1200,3125A,105.8983,26.2481,安顺市,娄家坡,,20,8,11,3,5,61,,51,51,2,2,6,6,0.5,0.5
2024-08-05T1200,1818A,114.4839,36.0621,安阳市,棉研所,,,,,,,,,,,,,,,,
2024-08-05T1200,1819A,114.3551,36.1017,安阳市,红庙街,,37,37,32,15,13,117,,64,64,2,7,4,5,0.5,0.6
2024-08-05T1200,1820A,114.361,36.0681,安阳市,银杏小区,,,34,28,,49,111,,70,70,2,4,1,2,0.5,0.6
2024-08-05T1200,3141A,114.3922,36.0878,安阳市,信访局,,38,37,29,15,12,121,,71,71,2,3,2,2,0.7,0.7
2024-08-05T1200,3669A,114.4705,36.0637,安阳市,左辅环卫站,,37,37,31,13,14,111,,68,68,1,6,4,4,0.7,0.6
2024-08-05T1200,3703A,114.2917,36.0949,安阳市,安钢职工学校,,38,33,36,20,25,120,,67,67,7,13,4,7,0.7,0.8
2024-08-05T1200,1748A,123.044,41.1196,鞍山市,深沟寺,,26,12,13,7,3,82,,50,50,4,7,3,4,0.4,0.5
2024-08-05T1200,1749A,123.011,41.0931,鞍山市,太阳城,,27,10,11,3,5,84,,53,53,4,6,3,3,0.3,0.3
2024-08-05T1200,1750A,123.0485,41.1442,鞍山市,太平,,27,12,13,6,8,84,,55,55,6,17,3,3,0.5,0.8
2024-08-05T1200,1751A,122.9642,41.0971,鞍山市,铁西三道街,,27,16,14,8,5,84,,46,46,11,18,4,3,0.8,0.9
2024-08-05T1200,1752A,122.9341,41.0833,鞍山市,铁西工业园区,,,15,12,9,4,82,,43,43,3,11,6,5,,0.9
2024-08-05T1200,1753A,123.022,41.0821,鞍山市,明达新区,,25,10,9,6,4,77,,54,54,3,5,3,2,0.3,0.4
2024-08-05T1200,1754A,123.1289,41.0228,鞍山市,千山,,,,,,,,,,,,,,,,
2024-08-05T1200,2195A,107.4212,40.761,巴彦淖尔市,附二中,颗粒物(PM10),56,62,47,19,23,129,,74,74,10,10,5,18,0.3,0.4
2024-08-05T1200,2196A,107.37,40.7372,巴彦淖尔市,市环保大楼,,44,44,47,19,15,124,,76,75,6,10,6,6,0.3,0.3
2024-08-05T1200,1956A,86.1472,41.7538,巴音郭楞蒙古自治州,孔雀公园,颗粒物(PM10),58,65,52,16,18,100,,105,105,17,12,5,4,0.2,0.2
2024-08-05T1200,1957A,86.1972,41.7166,巴音郭楞蒙古自治州,棉纺厂,颗粒物(PM10),56,61,54,9,18,111,,101,101,9,14,7,5,0.3,0.3
2024-08-05T1200,1958A,86.2357,41.7173,巴音郭楞蒙古自治州,经济开发区,颗粒物(PM10),58,65,46,18,21,107,,101,101,5,7,5,5,0.2,0.2
2024-08-05T1200,2914A,106.7677,31.8794,巴中市,苏山坪,,23,14,20,9,13,71,,31,31,5,5,4,4,0.4,0.4
2024-08-05T1200,3182A,106.7656,31.8545,巴中市,丽阳花园,,23,13,14,6,8,71,,28,28,6,9,3,3,0.5,0.5
2024-08-05T1200,3183A,106.7418,31.8654,巴中市,圣泉水务公司,,24,13,13,9,7,76,,31,31,6,9,4,4,0.5,0.5
2024-08-05T1200,3616A,106.7616,31.8344,巴中市,市中心医院,,23,16,12,14,8,71,,27,27,4,8,3,3,0.4,0.5
2024-08-05T1200,2235A,122.7911,45.6077,白城市,洮北区环保局,,19,12,11,8,6,58,,57,53,5,6,8,7,0.4,0.4
2024-08-05T1200,2236A,122.8738,45.5725,白城市,市环保局,,25,17,16,8,4,77,,60,60,4,5,4,4,0.5,0.5
2024-08-05T1200,2231A,126.4219,41.9171,白山市,喜丰,,25,25,30,3,12,67,,44,44,5,9,8,8,1.0,1
2024-08-05T1200,2232A,126.4077,41.9419,白山市,环保局,,22,16,26,8,11,68,,48,48,8,10,9,8,0.6,0.6
2024-08-05T1200,2647A,104.1724,36.5446,白银市,第三小学,颗粒物(PM10),53,55,53,25,22,121,,72,72,20,29,76,85,0.7,0.9
2024-08-05T1200,2648A,104.1465,36.5482,白银市,动力公司,,46,46,34,20,16,131,,66,66,17,16,64,27,0.8,0.7
2024-08-05T1200,2512A,106.6103,23.9011,百色市,市监测站,,,,27,,11,,,54,,,12,,7,,0.8
2024-08-05T1200,2513A,106.6538,23.8859,百色市,市中心血站,,37,37,36,17,17,84,,38,38,7,12,6,9,0.7,0.8
2024-08-05T1200,3406A,106.6085,23.8798,百色市,祈福高中,,48,46,36,33,17,93,,35,35,7,13,12,7,1.0,0.9
2024-08-05T1200,2270A,117.396,32.939,蚌埠市,工人疗养院,,36,30,34,12,13,114,,82,82,2,4,9,10,0.4,0.5
2024-08-05T1200,2271A,117.3605,32.9427,蚌埠市,百货大楼,,39,29,36,9,13,122,,84,84,2,5,6,9,0.4,0.5
2024-08-05T1200,2273A,117.4185,32.8911,蚌埠市,蚌埠学院,,38,22,29,14,15,120,,81,81,2,7,6,7,0.4,0.5
2024-08-05T1200,2274A,117.3533,32.9673,蚌埠市,淮上区政府,,40,24,29,11,15,127,,90,90,2,6,7,9,0.4,0.6
2024-08-05T1200,2275A,117.3145,32.8977,蚌埠市,高新区,,42,29,39,15,16,134,,76,76,3,11,6,10,0.5,0.7
2024-08-05T1200,3715A,117.3092,32.9314,蚌埠市,蚌埠田家炳中学,,40,30,40,15,18,125,,74,74,2,7,8,14,0.5,0.7
2024-08-05T1200,1585A,109.8756,40.6532,包头市,市环境监测站,,42,42,37,20,20,123,,66,66,21,28,35,20,1.0,1
2024-08-05T1200,1587A,109.9991,40.5842,包头市,包头八中,,46,46,36,21,20,108,,65,65,12,24,27,28,0.7,0.8
2024-08-05T1200,1588A,109.8538,40.6821,包头市,青山宾馆,,40,40,34,17,20,124,,55,55,25,32,20,17,1.1,1
2024-08-05T1200,1589A,109.8642,40.6288,包头市,惠龙物流,,37,37,34,22,18,117,,62,62,19,26,34,25,0.9,0.8
2024-08-05T1200,1590A,110.0377,40.5546,包头市,东河鸿龙湾,,37,30,31,16,15,118,,69,69,9,18,15,16,0.6,0.7
2024-08-05T1200,3283A,109.9154,40.5685,包头市,滨河大厦,,41,33,27,16,15,129,,74,74,12,23,14,10,0.7,0.8
2024-08-05T1200,3419A,109.9447,40.6261,包头市,包头市委党校,,45,45,30,18,19,109,,60,60,24,32,26,11,1.0,0.8
2024-08-05T1200,3683A,109.8331,40.6576,包头市,昆区政府,,41,41,36,17,20,123,,74,74,22,25,22,24,0.9,1
2024-08-05T1200,1930A,107.185,34.3063,宝鸡市,庙沟村,,38,38,29,16,11,100,,62,62,9,8,5,6,0.4,0.4
2024-08-05T1200,1931A,107.0708,34.3017,宝鸡市,竹园沟,,38,35,32,17,13,119,,52,52,10,12,4,4,0.5,0.5
2024-08-05T1200,1932A,107.1906,34.3672,宝鸡市,三陆医院,颗粒物(PM10),54,57,37,36,17,114,,41,41,10,16,8,9,0.5,0.5
2024-08-05T1200,1933A,107.1431,34.3547,宝鸡市,监测站,,,,,,,,,,,,,,,,
2024-08-05T1200,1934A,107.1186,34.3739,宝鸡市,技工学校,颗粒物(PM10),61,72,44,18,20,120,,48,48,13,13,8,8,0.6,0.6
2024-08-05T1200,1935A,107.3906,34.3528,宝鸡市,陈仓区环保局家属楼,,40,40,32,27,15,109,,46,46,9,16,8,8,0.4,0.4
2024-08-05T1200,1936A,107.2058,34.3497,宝鸡市,文理学院,,38,38,30,14,10,118,,48,48,11,14,9,9,0.6,0.6
2024-08-05T1200,1937A,107.2386,34.3622,宝鸡市,三迪小学,细颗粒物(PM2.5),64,53,33,46,17,115,,45,45,8,14,9,9,0.5,0.4
2024-08-05T1200,1051A,115.493,38.8632,保定市,游泳馆,,49,25,25,8,9,155,,98,98,13,9,1,3,0.3,0.2
2024-08-05T1200,1052A,115.5213,38.8959,保定市,华电二区,,45,21,21,6,11,143,,96,96,6,4,6,5,0.6,0.5
2024-08-05T1200,1053A,115.4713,38.9108,保定市,接待中心,,49,26,26,10,8,154,,100,100,8,3,3,3,0.4,0.3
2024-08-05T1200,1054A,115.4612,38.8416,保定市,地表水厂,,43,25,33,11,10,137,,83,83,4,4,1,1,0.2,0.3
2024-08-05T1200,3581A,115.31981,38.95208,保定市,满城区生态环境分局,,45,22,19,7,8,141,,92,92,12,10,3,2,0.3,0.3
2024-08-05T1200,3582A,115.47694,38.76408,保定市,清苑区第二中学,,,,31,22,21,136,,86,85,2,2,3,3,,0.3
2024-08-05T1200,3583A,115.62909,39.02311,保定市,徐水物探局,,43,21,20,3,6,136,,91,91,4,5,3,3,0.1,0.2
2024-08-05T1200,4004A,115.4202,38.8656,保定市,双鹰农机,臭氧1小时,60,17,22,3,11,168,,102,102,8,6,6,5,0.4,0.2
2024-08-05T1200,4034A,115.5150,38.8590,保定市,植保所站,,46,24,24,6,13,146,,103,103,8,4,3,4,0.1,0.1
2024-08-05T1200,2594A,99.1678,25.1081,保山市,市环境监测站,,20,20,22,10,10,45,,24,24,8,9,7,7,0.5,0.5
2024-08-05T1200,2595A,99.1711,25.1328,保山市,市环保局,,22,22,22,11,11,48,,29,29,5,6,6,6,0.4,0.4
2024-08-05T1200,1866A,109.2262,21.588,北海市,牛尾岭水库,,,,,,,,,,,,,,,,
2024-08-05T1200,1867A,109.1436,21.4086,北海市,海滩公园,,33,33,30,7,4,57,,58,57,4,5,4,4,0.8,0.6
2024-08-05T1200,1868A,109.0981,21.4661,北海市,新市环保局,,19,12,13,9,7,59,,57,57,4,4,2,2,0.5,0.4
2024-08-05T1200,1869A,109.1778,21.5233,北海市,北海工业园,,22,19,15,15,9,57,,43,43,5,7,4,4,0.5,0.5
2024-08-05T1200,3400A,109.1911,21.4415,北海市,龙潭自来水厂,,25,22,12,17,8,50,,49,,3,4,7,8,0.5,0.5
2024-08-05T1200,1001A,116.3621,39.8784,北京市,万寿西宫,,41,8,15,3,10,129,,71,71,13,13,3,3,0.5,0.6
2024-08-05T1200,1002A,116.2202,40.2915,北京市,定陵,,34,8,9,3,6,107,,70,69,1,3,3,3,0.4,0.5
2024-08-05T1200,1003A,116.4174,39.9289,北京市,东四,,44,10,14,6,11,138,,75,75,2,13,11,2,0.6,0.7
2024-08-05T1200,1004A,116.4072,39.8863,北京市,天坛,,43,9,14,3,10,136,,69,69,13,15,3,3,0.5,0.5
2024-08-05T1200,1005A,116.462,39.9365,北京市,农展馆,,41,9,15,3,10,131,,67,67,9,14,3,3,0.4,0.5
2024-08-05T1200,1006A,116.3392,39.9295,北京市,官园,,44,11,12,3,8,139,,79,79,11,12,4,3,0.4,0.4
2024-08-05T1200,1007A,116.2878,39.9611,北京市,海淀万柳,,36,12,12,6,8,114,,67,67,6,9,2,2,0.4,0.4
2024-08-05T1200,1008A,116.6636,40.135,北京市,顺义新城,,41,11,13,3,8,130,,78,78,4,7,3,3,0.3,0.4
2024-08-05T1200,1009A,116.6275,40.3275,北京市,怀柔镇,,38,10,11,3,7,120,,84,84,6,6,3,3,0.2,0.3
2024-08-05T1200,1010A,116.2296,40.217,北京市,昌平镇,,34,13,11,6,6,108,,64,64,17,19,4,4,0.4,0.4
2024-08-05T1200,1011A,116.3966,39.9821,北京市,奥体中心,,37,9,12,3,8,117,,70,70,7,14,3,3,0.3,0.4
2024-08-05T1200,1012A,116.184,39.9136,北京市,古城,,44,7,13,3,10,139,,79,79,11,14,1,3,0.4,0.4
2024-08-05T1200,3281A,115.9718,40.4529,北京市,延庆夏都,,35,18,14,9,9,112,,70,70,5,8,1,3,0.4,0.4
2024-08-05T1200,3417A,117.0709,40.1465,北京市,平谷新城,,33,10,20,6,12,103,,74,74,4,7,3,3,0.2,0.4
2024-08-05T1200,3418A,116.8336,40.4095,北京市,密云新城,,31,6,10,3,8,99,,70,70,4,4,3,3,0.3,0.4
2024-08-05T1200,3671A,116.088,39.9726,北京市,门头沟三家店,,,8,8,3,5,118,,,,7,7,7,7,,
2024-08-05T1200,3672A,116.1541,39.8204,北京市,丰台云岗,,41,10,14,7,11,130,,70,70,8,8,1,1,0.3,0.4
2024-08-05T1200,3673A,116.6804,39.9081,北京市,通州东关,,44,8,18,3,12,138,,74,74,9,10,3,3,0.4,0.5
2024-08-05T1200,3674A,115.9577,39.7603,北京市,房山燕山,,35,8,16,3,10,111,,82,82,5,8,3,3,0.2,0.3
2024-08-05T1200,3675A,116.4672,39.7733,北京市,大兴旧宫,,40,7,14,3,11,128,,79,79,7,9,3,3,0.4,0.5
2024-08-05T1200,3694A,115.986,40.4563,北京市,延庆石河营,,34,15,13,7,9,107,,61,61,5,7,3,3,0.4,0.4
2024-08-05T1200,3695A,116.6151,40.3053,北京市,怀柔新城,,36,8,10,3,6,114,,84,80,3,4,3,3,0.4,0.5
2024-08-05T1200,3696A,116.2545,39.8768,北京市,丰台小屯,,37,8,13,3,10,116,,62,62,6,9,5,5,0.2,0.3
2024-08-05T1200,3697A,116.84,40.3844,北京市,密云镇,,35,6,17,3,8,112,,72,72,4,7,1,2,0.3,0.4
2024-08-05T1200,1761A,123.8275,41.3064,本溪市,大峪,,27,,11,11,7,85,,66,61,9,13,6,9,0.4,0.5
2024-08-05T1200,1762A,123.7567,41.3325,本溪市,溪湖,,25,16,19,6,8,79,,59,59,8,18,8,8,0.9,1.4
2024-08-05T1200,1763A,123.7169,41.3094,本溪市,彩屯,,,28,21,9,11,62,,49,49,,26,7,8,2.2,2.2
2024-08-05T1200,1764A,123.7669,41.2864,本溪市,东明,,26,12,14,6,8,81,,72,69,7,10,4,4,0.5,0.5
2024-08-05T1200,1765A,123.7992,41.2664,本溪市,新立屯,,26,12,11,3,4,82,,74,73,8,8,3,3,0.6,0.6
2024-08-05T1200,1766A,123.8142,41.3472,本溪市,威宁,,28,10,20,6,7,87,,43,43,9,15,8,8,0.5,0.5
2024-08-05T1200,2587A,105.2864,27.3125,毕节市,八中,,25,20,18,12,12,80,,36,36,7,14,7,6,0.4,0.5
2024-08-05T1200,2588A,105.31,27.2944,毕节市,师专,,23,21,20,12,12,73,,33,33,7,15,7,8,0.5,0.5
2024-08-05T1200,3537A,105.3631,27.3533,毕节市,长征村,,28,24,18,17,13,89,,47,47,6,9,7,8,0.4,0.5
2024-08-05T1200,1629A,118.0018,37.3617,滨州市,第二水厂,,20,9,12,9,8,63,,50,43,10,7,2,2,0.7,0.6
2024-08-05T1200,1630A,117.9776,37.393,滨州市,北中新校,,21,19,16,7,7,66,,47,44,11,6,5,3,0.4,0.3
2024-08-05T1200,3514A,117.9378,37.3956,滨州市,中海酒店,,22,14,10,9,8,69,,53,50,18,9,8,4,0.8,0.6
2024-08-05T1200,3515A,117.9378,37.3553,滨州市,开发区一中,,23,19,14,14,8,73,,54,49,20,12,7,5,0.5,0.5
2024-08-05T1200,3516A,118.0917,37.694,滨州市,金海六路,,26,24,9,12,3,81,,54,54,12,11,4,2,0.6,0.5
2024-08-05T1200,4028A,117.9956,37.3753,滨州市,滨州市西街道办事处,,23,14,11,9,7,73,,53,48,10,6,6,2,0.5,0.4
2024-08-05T1200,2311A,115.8072,33.8399,亳州市,污水处理厂,,25,23,22,13,9,77,,58,58,6,9,5,4,0.5,0.5
2024-08-05T1200,2312A,115.7789,33.8518,亳州市,三国揽胜宫,,31,31,23,11,9,77,,62,62,5,6,4,4,0.5,0.5
2024-08-05T1200,3332A,115.7633,33.8034,亳州市,亳州学院,,26,25,16,12,8,83,,62,62,6,7,5,5,0.4,0.4
2024-08-05T1200,2693A,82.0485,44.8556,博尔塔拉蒙古自治州,市党校,,38,38,28,15,14,95,,75,75,7,9,7,8,0.3,0.3
2024-08-05T1200,2694A,82.0806,44.8969,博尔塔拉蒙古自治州,市环保局,,44,44,34,14,12,75,,59,59,11,15,9,8,0.4,0.4
2024-08-05T1200,1071A,116.8842,38.2991,沧州市,沧县城建局,,,12,21,6,9,125,,71,71,,8,3,3,0.2,0.2
2024-08-05T1200,1072A,116.8584,38.3254,沧州市,电视转播站,,50,,18,12,10,157,,86,86,6,8,3,2,0.2,0.2
2024-08-05T1200,1073A,116.8709,38.3228,沧州市,市环保局,,48,20,16,8,12,153,,89,89,6,7,3,2,0.3,0.2
2024-08-05T1200,3324A,116.8136,38.3004,沧州市,河北水利电力学院,,47,17,15,3,13,148,,83,83,9,11,4,3,0.2,0.2
2024-08-05T1200,2622A,97.1806,31.1273,昌都市,昌都监测站,,23,12,9,3,6,72,,38,38,5,7,9,9,0.5,0.5
2024-08-05T1200,3719A,97.1714,31.1406,昌都市,昌都会议中心,,26,11,9,3,4,81,,42,42,5,4,7,8,0.5,0.5
2024-08-05T1200,2690A,88.1236,43.8886,昌吉回族自治州,天山天池,,35,12,16,12,6,110,,63,63,5,7,9,10,0.5,0.6
2024-08-05T1200,2692A,87.2717,44.0297,昌吉回族自治州,新区政务中心,,37,19,24,9,10,117,,94,84,8,13,8,8,0.5,0.5
2024-08-05T1200,3613A,87.3095,44.0142,昌吉回族自治州,亚心广场,,,27,37,3,7,125,,97,92,18,23,,22,0.7,0.4
2024-08-05T1200,1119A,125.3325,43.9166,长春市,食品厂,,19,7,20,7,13,59,,57,54,13,14,3,1,0.4,0.5
2024-08-05T1200,1120A,125.2863,43.9027,长春市,客车厂,,15,11,21,6,13,45,,50,46,11,10,4,4,0.4,0.5
2024-08-05T1200,1121A,125.2841,43.8463,长春市,邮电学院,,17,9,21,6,12,54,,50,49,7,10,6,6,0.4,0.4
2024-08-05T1200,1122A,125.3716,43.8772,长春市,劳动公园,,20,13,20,3,10,64,,62,59,7,9,6,7,0.6,0.6
2024-08-05T1200,1123A,125.3297,43.8805,长春市,园林处,,21,11,18,3,10,67,,61,60,7,9,2,2,0.5,0.5
2024-08-05T1200,1124A,125.4605,43.79,长春市,净月潭,,17,15,15,6,9,54,,52,49,1,2,5,5,0.4,0.4
2024-08-05T1200,1125A,125.7194,43.515,长春市,甩湾子,,,,,,,,,,,,,,,,
2024-08-05T1200,1126A,125.3863,43.8447,长春市,经开区环卫处,,17,13,18,6,9,54,,52,49,11,11,5,5,0.5,0.5
2024-08-05T1200,1127A,125.245,43.7783,长春市,高新区管委会,,21,19,28,3,14,65,,56,56,4,8,2,2,0.5,0.6
2024-08-05T1200,1128A,125.1761,43.8325,长春市,岱山公园,,19,8,20,7,12,59,,51,51,6,12,2,2,0.3,0.4
2024-08-05T1200,1335A,113.0833,28.2325,长沙市,经开区环保局,,36,36,36,18,17,102,,70,70,5,12,1,3,0.3,0.4
2024-08-05T1200,1336A,112.8872,28.2189,长沙市,高开区环保局,,30,30,28,20,14,96,,62,62,10,8,8,7,0.5,0.6
2024-08-05T1200,1337A,113.0792,28.2053,长沙市,马坡岭,,33,33,37,19,24,97,,67,67,4,12,3,4,0.4,0.6
2024-08-05T1200,1338A,112.9394,28.19,长沙市,湖南师范大学,,37,37,35,14,19,101,,64,64,2,12,3,3,0.7,0.7
2024-08-05T1200,1339A,113.0178,28.1322,长沙市,雨花区环保局,,36,30,33,25,20,102,,68,68,2,12,4,5,0.2,0.4
2024-08-05T1200,1340A,112.9792,28.2597,长沙市,伍家岭,,35,34,35,21,19,109,,57,57,2,13,2,3,0.5,0.5
2024-08-05T1200,1341A,113.0014,28.1944,长沙市,火车新站,,32,25,35,14,18,101,,63,63,3,12,4,5,0.4,0.5
2024-08-05T1200,1342A,112.9844,28.1178,长沙市,天心区环保局,,37,37,45,14,19,96,,67,67,3,18,3,5,0.4,0.6
2024-08-05T1200,1343A,112.8908,28.1308,长沙市,湖南中医药大学,,37,37,37,20,18,112,,63,63,1,16,7,6,0.5,0.7
2024-08-05T1200,1344A,112.9581,28.3611,长沙市,沙坪,,37,15,27,3,15,117,,60,60,6,12,8,6,0.5,0.5
2024-08-05T1200,1727A,113.1147,36.1547,长治市,清华站,,45,28,24,9,11,142,,90,90,11,11,5,5,0.3,0.3
2024-08-05T1200,1728A,113.1031,36.1989,长治市,监测站,,44,34,26,14,11,140,,93,93,17,15,8,6,1.0,0.9
2024-08-05T1200,1730A,113.0886,36.2125,长治市,审计局,,41,33,24,17,10,130,,89,89,13,13,6,4,0.6,0.5
2024-08-05T1200,1731A,113.0844,36.1856,长治市,长治八中,,44,44,27,21,13,134,,92,92,15,15,8,5,0.6,0.4
2024-08-05T1200,2845A,113.1569,36.1911,长治市,德盛苑,,46,36,27,17,11,146,,74,74,9,9,8,8,0.8,0.8
2024-08-05T1200,3568A,113.06,36.0464,长治市,向阳小学,,45,45,49,30,26,132,,84,84,7,12,5,5,0.7,0.7
2024-08-05T1200,3569A,112.8792,36.3144,长治市,屯留一中,,44,39,33,20,18,139,,81,81,18,16,16,10,0.6,0.5
2024-08-05T1200,3570A,113.235,36.3489,长治市,潞城四中,,,55,38,33,19,146,,37,,,20,,5,1.1,0.9
2024-08-05T1200,1854A,111.6975,28.9703,常德市,市二中,,26,26,21,11,13,75,,38,38,2,7,6,6,0.4,0.4
2024-08-05T1200,1857A,111.7158,29.1456,常德市,白鹤山,,,,,,,,,,,,,,,,
2024-08-05T1200,3138A,111.7153,29.0289,常德市,武陵区永安,,23,18,19,9,10,71,,45,45,4,7,8,8,0.4,0.4
2024-08-05T1200,3139A,111.6892,28.9881,常德市,鼎城区玉霞,,23,20,22,8,14,72,,37,37,3,10,6,5,0.4,0.4
2024-08-05T1200,3140A,111.6625,29.0531,常德市,武陵区长庚,,20,20,19,11,16,60,,39,39,4,8,6,6,0.4,0.4
2024-08-05T1200,1196A,119.9633,31.762,常州市,市监测站,臭氧1小时,70,47,40,19,21,176,,124,124,6,12,6,7,0.4,0.5
2024-08-05T1200,1200A,119.9468,31.7069,常州市,武进监测站,臭氧1小时,60,31,34,18,19,168,,119,119,5,9,6,7,0.6,0.6
2024-08-05T1200,1201A,119.9255,31.9087,常州市,安家,臭氧1小时,92,58,42,26,23,193,,123,123,12,15,7,7,0.4,0.5
2024-08-05T1200,3002A,119.9805,31.8174,常州市,行政中心,臭氧1小时,59,40,37,24,25,167,,118,118,9,13,12,13,0.2,0.3
2024-08-05T1200,3003A,120.0522,31.7748,常州市,经开区,臭氧1小时,92,42,33,31,24,193,,117,117,6,13,6,7,1.3,1.3
2024-08-05T1200,3010A,119.9025,31.7964,常州市,钟楼,,50,44,36,23,19,157,,120,120,7,12,5,6,0.2,0.4
2024-08-05T1200,3429A,119.8598,31.7066,常州市,武进经发区,臭氧1小时,100,51,39,27,22,200,,116,116,8,10,7,7,0.6,0.5
2024-08-05T1200,3430A,119.5826,31.7245,常州市,金坛城区,臭氧1小时,55,22,31,19,18,164,,113,113,5,11,6,7,0.5,0.6
2024-08-05T1200,2220A,120.4318,41.5881,朝阳市,西梁,,38,38,19,12,10,96,,66,66,5,6,9,8,1.0,0.7
2024-08-05T1200,2221A,120.4521,41.5646,朝阳市,河畔小区,,50,50,19,16,10,105,,71,71,5,3,7,6,1.2,0.6
2024-08-05T1200,2222A,120.4176,41.5648,朝阳市,八里堡,,39,39,20,13,9,84,,55,55,6,8,4,4,1.1,0.8
2024-08-05T1200,2223A,120.3806,41.5969,朝阳市,农业园区,,41,41,22,20,13,92,,59,59,6,6,8,6,1.1,0.8
2024-08-05T1200,1705A,116.6367,23.6719,潮州市,西园路,,50,50,28,22,15,125,,48,48,10,10,5,3,0.4,0.3
2024-08-05T1200,3026A,116.6183,23.6608,潮州市,市政府,颗粒物(PM10),51,51,36,24,15,151,,57,57,9,10,10,8,0.8,0.7
2024-08-05T1200,4036A,116.6461,23.6761,潮州市,金山,,43,43,27,26,12,128,,46,46,6,7,6,4,0.7,0.6
2024-08-05T1200,2472A,113.0073,25.9061,郴州市,马头岭,,31,31,32,6,11,91,,51,51,2,7,10,8,0.2,0.2
2024-08-05T1200,2473A,113.0116,25.8226,郴州市,市职中,,37,37,35,16,24,115,,53,53,3,10,12,10,0.5,0.5
2024-08-05T1200,2474A,113.0161,25.8001,郴州市,兴隆步行街,,42,42,38,22,24,120,,56,56,4,10,12,9,0.6,0.6
2024-08-05T1200,2475A,113.0383,25.8071,郴州市,市审计局,,38,28,31,22,24,121,,61,61,6,17,12,9,0.4,0.4
2024-08-05T1200,2476A,113.0348,25.7759,郴州市,市环保局,,35,34,39,22,24,112,,57,57,16,21,14,12,0.6,0.6
2024-08-05T1200,1431A,103.9728,30.7236,成都市,金泉两河,,41,37,22,22,9,131,,61,61,6,9,2,1,0.5,0.4
2024-08-05T1200,1432A,104.176,30.6872,成都市,十里店,,50,50,21,28,9,104,,48,48,12,14,2,2,0.5,0.5
2024-08-05T1200,1433A,104.079,30.5706,成都市,三瓦窑,,38,27,21,17,15,119,,57,57,13,14,2,1,0.6,0.5
2024-08-05T1200,1434A,104.1114,30.63,成都市,沙河铺,,41,41,22,21,9,107,,60,60,13,12,4,4,0.5,0.4
2024-08-05T1200,1437A,104.0786,30.6531,成都市,君平街,,45,33,21,24,10,143,,78,78,13,13,4,3,0.6,0.6
2024-08-05T1200,1438A,103.613,31.0283,成都市,灵岩寺,,,,,,,,,,,,,,,,
2024-08-05T1200,2880A,104.0239,30.65639,成都市,大石西路,,39,36,22,13,9,123,,69,69,13,13,4,3,0.5,0.5
2024-08-05T1200,3136A,104.2725,30.5589,成都市,龙泉驿区区政府,,37,17,12,12,6,118,,65,65,3,6,3,3,0.6,0.5
2024-08-05T1200,3357A,104.0106,30.6931,成都市,金博路,,40,32,15,10,8,126,,64,64,4,8,3,2,0.4,0.3
2024-08-05T1200,3359A,104.0578,30.5225,成都市,华阳,,40,27,20,19,18,125,,68,68,3,4,2,2,0.6,0.6
2024-08-05T1200,3487A,104.2394,30.5319,成都市,车城东七路,,44,31,26,16,15,138,,70,70,9,9,2,2,0.7,0.6
2024-08-05T1200,3488A,104.3853,30.7453,成都市,青白江技师分院,,40,16,11,3,6,128,,86,86,9,7,3,2,0.5,0.4
2024-08-05T1200,3489A,104.0789,30.4072,成都市,科学城,,40,16,23,12,18,128,,63,63,3,6,3,3,0.5,0.5
2024-08-05T1200,4011A,103.8506,30.6947,成都市,光华大道三段,,40,39,24,26,10,128,,65,65,3,6,3,3,0.5,0.5
2024-08-05T1200,1062A,117.9531,40.9081,承德市,铁路,,35,21,21,13,8,112,,59,59,12,16,22,8,0.5,0.5
2024-08-05T1200,1063A,117.9392,40.9763,承德市,中国银行,,37,,21,19,7,117,,63,63,11,14,10,3,0.4,0.4
2024-08-05T1200,1064A,117.9503,40.928,承德市,开发区,,36,17,22,10,9,115,,64,64,13,14,19,8,0.6,0.5
2024-08-05T1200,1065A,117.8051,40.9655,承德市,文化中心,,36,24,22,3,10,114,,83,83,11,11,65,10,0.8,0.6
2024-08-05T1200,1066A,117.9268,41.0026,承德市,离宫,,,16,28,3,7,100,,41,41,,3,,2,0.3,0.5
2024-08-05T1200,2314A,117.47,30.6618,池州市,池州学院,,45,44,28,23,16,142,,85,85,6,9,7,6,0.6,0.7
2024-08-05T1200,3237A,117.4918,30.6617,池州市,展览馆,,47,47,28,23,15,140,,91,91,4,7,6,6,0.6,0.7
2024-08-05T1200,3333A,117.5627,30.695,池州市,第八中学,,42,41,27,26,15,132,,88,88,5,9,4,5,0.4,0.5
2024-08-05T1200,3334A,117.5038,30.6243,池州市,第十二中学,,41,33,25,20,15,131,,82,82,5,11,4,5,0.5,0.7
2024-08-05T1200,1744A,118.9233,42.2816,赤峰市,松山一中,,24,14,18,3,4,76,,53,53,13,17,8,8,0.6,0.7
2024-08-05T1200,1745A,118.9576,42.2728,赤峰市,哈达街,,23,19,21,7,8,73,,52,52,11,11,9,9,0.5,0.6
2024-08-05T1200,1746A,118.8788,42.2554,赤峰市,天义路,,26,10,15,3,9,83,,64,64,11,14,7,6,0.4,0.4
2024-08-05T1200,3058A,119.2658,42.0353,赤峰市,银河街,"颗粒物(PM10),细颗粒物(PM2.5)",53,56,33,37,20,69,,39,39,16,15,18,16,0.5,0.6
2024-08-05T1200,3286A,118.9359,42.3147,赤峰市,桥北物流园区,,23,,15,3,8,72,,53,53,15,16,7,8,0.6,0.7
2024-08-05T1200,2521A,107.3476,22.4136,崇左市,市环保局江州分局,,22,14,20,7,8,68,,28,28,3,7,6,6,0.4,0.4
2024-08-05T1200,2522A,107.3702,22.3707,崇左市,城南新区,,21,10,13,6,6,67,,30,30,2,6,4,4,0.4,0.5
2024-08-05T1200,2298A,118.3093,32.3153,滁州市,老年大学,,37,26,27,16,18,118,,80,80,6,6,5,5,0.4,0.4
2024-08-05T1200,2299A,118.3244,32.2786,滁州市,人大宾馆,,49,35,34,21,21,154,,89,89,7,10,7,6,0.6,0.6
2024-08-05T1200,3207A,118.3118,32.3038,滁州市,市政府原办公楼,,39,29,27,20,19,123,,85,85,4,8,7,8,0.7,0.7
2024-08-05T1200,3331A,118.3267,32.2634,滁州市,图书馆,,44,33,34,11,18,139,,82,82,3,9,5,6,0.8,0.8
2024-08-05T1200,2605A,101.5482,25.0441,楚雄彝族自治州,州环境监测站,,19,18,16,9,13,60,,27,27,5,13,7,5,0.7,0.7
2024-08-05T1200,2606A,101.538,25.0492,楚雄彝族自治州,市经济开发区,,19,,18,11,13,60,,28,28,6,14,7,6,0.7,0.8
2024-08-05T1200,2548A,107.5277,31.2827,达州市,达州职业技术学院,,,,8,,5,,,10,,,7,,4,,0.4
2024-08-05T1200,2549A,107.5086,31.2186,达州市,市环境监测站,,18,18,17,3,1,35,,13,13,18,18,6,8,0.4,0.3
2024-08-05T1200,2550A,107.4988,31.2132,达州市,凤凰小区,,15,14,13,9,4,46,,20,20,9,15,7,8,0.4,0.4
2024-08-05T1200,2551A,107.5082,31.1986,达州市,达县机关宾馆,,14,12,16,3,4,43,,16,16,10,18,4,5,0.2,0.3
2024-08-05T1200,2552A,107.4644,31.2124,达州市,市政中心,,22,22,21,7,2,45,,19,19,10,15,8,10,0.5,0.5
2024-08-05T1200,2614A,100.1542,25.7054,大理白族自治州,大理市环境监测站,,24,,9,12,9,74,,38,38,8,10,4,3,0.5,0.5
2024-08-05T1200,2615A,100.2171,25.5811,大理白族自治州,大理古城,,20,7,11,3,7,61,,49,49,11,11,7,6,0.6,0.6
2024-08-05T1200,1109A,121.612,38.9741,大连市,甘井子,,20,16,15,10,9,61,,66,54,23,17,7,7,0.5,0.5
2024-08-05T1200,1110A,121.565,38.9511,大连市,周水子,,21,16,19,9,9,65,,54,44,22,22,9,8,0.6,0.6
2024-08-05T1200,1111A,121.5637,38.8845,大连市,星海三站,,22,14,18,10,8,69,,67,59,12,10,7,6,0.5,0.4
2024-08-05T1200,1112A,121.6302,38.9117,大连市,青泥洼桥,,20,10,14,3,6,63,,66,63,6,7,6,6,0.6,0.6
2024-08-05T1200,1113A,121.6251,38.8638,大连市,傅家庄,,28,16,19,11,8,89,,74,72,6,9,5,5,0.5,0.5
2024-08-05T1200,1114A,121.5213,38.8661,大连市,七贤岭,,21,15,18,9,10,66,,65,55,12,9,6,7,0.3,0.3
2024-08-05T1200,1115A,121.2529,38.8061,大连市,旅顺,,23,11,12,8,10,72,,67,59,16,12,7,8,0.3,0.3
2024-08-05T1200,1116A,121.7485,39.1311,大连市,金州,,18,13,13,10,6,56,,56,53,22,14,7,6,0.5,0.4
2024-08-05T1200,1117A,121.7811,39.0496,大连市,开发区,,20,14,19,7,7,64,,60,56,16,12,7,7,0.4,0.4
2024-08-05T1200,1118A,121.9762,39.0631,大连市,双D港,,25,25,25,13,6,67,,53,53,17,15,5,6,0.5,0.5
2024-08-05T1200,1789A,124.81117,46.03138,大庆市,大同区,,30,,17,21,18,63,,56,56,5,5,8,8,0.5,0.5
2024-08-05T1200,1790A,125.129,46.533,大庆市,龙凤区,,21,19,19,3,5,67,,54,54,5,9,4,5,0.5,0.5
2024-08-05T1200,1791A,124.902,46.408,大庆市,红岗区,,27,27,21,16,15,80,,67,67,5,6,6,6,0.5,0.5
2024-08-05T1200,1792A,125.153,46.586,大庆市,萨尔图区,,22,18,14,6,10,70,,58,58,8,8,5,4,0.5,0.5
2024-08-05T1200,1793A,124.9042,46.6215,大庆市,让胡路区,,32,32,31,9,11,69,,49,49,4,8,4,4,0.3,0.3
2024-08-05T1200,3481A,125.141,46.634,大庆市,萨区政府监测点,,27,27,27,7,6,79,,62,62,7,7,8,7,0.4,0.4
2024-08-05T1200,1721A,113.3819,40.1097,大同市,果树场,,,,,,,,,,,,,,,,
2024-08-05T1200,1723A,113.2994,40.0758,大同市,云冈宾馆,,,36,27,27,14,123,,71,71,,21,13,10,,0.4
2024-08-05T1200,1724A,113.3444,40.0917,大同市,大同大学,,48,48,26,10,12,115,,62,62,17,19,10,10,0.6,0.6
2024-08-05T1200,1725A,113.2661,40.1269,大同市,安家小村,,36,34,29,10,7,113,,58,58,11,15,13,10,0.5,0.5
2024-08-05T1200,1726A,113.2711,40.0844,大同市,教育学院,颗粒物(PM10),52,54,35,16,13,116,,64,64,20,23,15,12,0.6,0.5
2024-08-05T1200,3282A,113.3397,40.0597,大同市,大同市卫生学校,,38,33,32,21,12,121,,69,69,20,18,14,10,0.6,0.6
2024-08-05T1200,3565A,113.1367,40.1122,大同市,云冈站,,40,23,29,6,10,128,,62,62,8,18,9,10,0.4,0.4
2024-08-05T1200,3566A,113.1186,40.2556,大同市,图书馆,,43,23,23,6,6,136,,,,10,10,12,12,0.6,0.6
2024-08-05T1200,3567A,113.5931,40.0461,大同市,区一中,,42,34,29,10,9,132,,68,68,13,14,19,12,0.5,0.5
2024-08-05T1200,3676A,113.2802,40.0995,大同市,第二人民医院,颗粒物(PM10),54,58,36,8,12,122,,63,63,12,18,13,11,0.6,0.6
2024-08-05T1200,2269A,124.1069,50.4097,大兴安岭地区,科技局,,24,6,16,3,7,74,,41,41,3,4,2,2,0.1,0.2
2024-08-05T1200,3663A,124.1164,50.4278,大兴安岭地区,红旗社区,,21,6,6,3,8,67,,40,40,3,5,4,4,0.3,0.4
2024-08-05T1200,1600A,124.3303,40.0625,丹东市,江湾东路,,19,17,16,10,9,59,,52,52,7,6,2,2,0.6,0.7
2024-08-05T1200,1601A,124.4256,40.1503,丹东市,临江后街,,22,12,11,9,6,69,,51,51,4,4,5,2,0.4,0.5
2024-08-05T1200,1602A,124.3933,40.1461,丹东市,元宝山,,20,15,12,9,9,62,,51,51,2,2,1,1,0.1,0.2
2024-08-05T1200,1603A,124.3633,40.1092,丹东市,民主桥,,20,15,16,9,10,62,,48,48,7,8,3,1,0.4,0.5
2024-08-05T1200,3541A,109.5726,19.5167,儋州市,第一中学子站,,18,12,18,10,11,55,,33,33,2,4,3,5,0.6,0.6
2024-08-05T1200,3542A,109.5567,19.5187,儋州市,东坡学校子站,,,,16,,11,,,53,,,3,,5,,0.6
2024-08-05T1200,2616A,98.5842,24.428,德宏傣族景颇族自治州,德宏州监测站,,22,22,17,14,6,30,,14,14,13,10,47,8,0.7,0.7
2024-08-05T1200,3677A,98.5881,24.4368,德宏傣族景颇族自治州,芒市人民政府综合楼,,23,16,15,16,7,32,,11,11,11,7,31,5,0.7,0.8
2024-08-05T1200,1901A,104.4239,31.1208,德阳市,东山公园,,30,25,15,9,8,94,,61,61,6,5,2,2,0.7,0.6
2024-08-05T1200,1902A,104.3826,31.1317,德阳市,西小区,,33,27,16,12,9,105,,59,59,12,12,3,2,0.6,0.5
2024-08-05T1200,1904A,104.3553,31.1091,德阳市,耐火材料厂,,31,29,17,9,9,99,,53,53,13,14,3,4,0.6,0.6
2024-08-05T1200,3639A,104.4019,31.1244,德阳市,市教育局,,34,26,15,12,8,107,,57,57,9,9,2,2,0.5,0.5
2024-08-05T1200,1622A,116.3032,37.4674,德州市,儿童乐园,,39,27,14,19,10,122,,73,73,8,9,8,7,0.6,0.6
2024-08-05T1200,1624A,116.2991,37.4451,德州市,监理站,,39,14,9,12,9,123,,74,74,8,10,8,8,0.5,0.5
2024-08-05T1200,3066A,116.2721,37.4379,德州市,九衢泉纯净水厂,,39,22,12,17,9,124,,73,73,9,10,6,6,0.5,0.6
2024-08-05T1200,3371A,116.3728,37.4403,德州市,开发区人民医院,,36,17,13,9,7,115,,73,73,6,10,8,7,0.7,0.6
2024-08-05T1200,3372A,116.3572,37.4094,德州市,太阳城中学,,36,24,11,14,10,113,,70,70,11,13,7,7,0.6,0.5
2024-08-05T1200,3511A,116.5652,37.3319,德州市,陵城艺术中心,,27,19,11,7,5,86,,63,63,7,8,5,5,0.5,0.5
2024-08-05T1200,2621A,99.7056,27.8317,迪庆藏族自治州,迪庆州站,,29,14,19,6,10,91,,62,62,11,12,9,9,0.4,0.5
2024-08-05T1200,3180A,99.7136,27.8094,迪庆藏族自治州,质量技术监督局,,27,16,16,6,8,86,,62,61,12,15,8,8,0.6,0.6
2024-08-05T1200,2663A,104.6241,35.5734,定西市,东关小学,,27,27,30,10,13,69,,46,46,5,10,7,8,0.2,0.2
2024-08-05T1200,2664A,104.6194,35.5934,定西市,供电公司,,25,24,25,17,18,70,,49,49,5,11,6,6,0.2,0.2
2024-08-05T1200,1389A,113.7547,23.0494,东莞市,莞城梨川,颗粒物(PM10),57,64,51,37,27,155,,60,60,36,28,14,11,0.9,0.9
2024-08-05T1200,1390A,113.7944,23.0128,东莞市,东城石井,,,61,43,47,25,,,62,62,25,22,10,6,0.7,0.7
2024-08-05T1200,1391A,113.7383,22.9658,东莞市,南城西平,细颗粒物(PM2.5),54,50,42,38,24,152,,67,67,27,23,3,4,0.9,0.8
2024-08-05T1200,3319A,113.7338,23.0381,东莞市,万江金泰,颗粒物(PM10),58,65,51,34,25,156,,61,61,33,29,4,5,0.8,0.8
2024-08-05T1200,3626A,113.7533,23.0202,东莞市,南城元岭,细颗粒物(PM2.5),68,71,49,49,26,151,,57,57,26,27,6,6,0.8,0.7
2024-08-05T1200,3627A,113.7875,23.0457,东莞市,东城主山,,,,46,,24,,,154,,,21,,7,,0.9
2024-08-05T1200,1666A,118.6614,37.4309,东营市,市环保局,,,,11,5,3,79,,50,50,,9,5,4,0.2,0.1
2024-08-05T1200,3036A,118.6904,37.4338,东营市,开发区管委会,,29,15,13,7,4,90,,60,60,14,12,5,6,0.3,0.2
2024-08-05T1200,3365A,118.5719,37.565,东营市,垦利区民丰路,,35,34,11,24,8,104,,58,58,16,8,6,6,0.5,0.3
2024-08-05T1200,3498A,118.5055,37.8612,东营市,河口城区,,,39,9,,2,97,,58,58,8,8,5,4,0.5,0.4
2024-08-05T1200,3646A,118.4978,37.4623,东营市,胜利站,,29,23,19,12,5,91,,50,50,18,12,1,1,0.5,1.3
2024-08-05T1200,3734A,118.35,37.26,东营市,理想之城,,25,,13,17,10,80,,44,44,11,9,4,3,0.7,0.6
2024-08-05T1200,1591A,110.0023,39.8129,鄂尔多斯市,综合楼,,45,29,32,7,8,144,,97,97,15,25,11,12,0.6,0.6
2024-08-05T1200,1592A,109.9486,39.8261,鄂尔多斯市,巴音孟克林场办事处,,37,34,26,14,10,117,,81,81,14,21,5,6,1.2,0.8
2024-08-05T1200,1593A,109.7736,39.5986,鄂尔多斯市,康泽苑,,39,29,23,9,12,123,,58,58,16,13,6,5,0.5,0.4
2024-08-05T1200,1594A,109.8119,39.5989,鄂尔多斯市,华泰汽车城,,39,31,24,12,14,123,,50,50,8,20,11,10,0.5,0.5
2024-08-05T1200,1595A,109.9734,39.7884,鄂尔多斯市,奥林花园,,,,34,9,9,130,,56,56,,32,5,5,0.5,0.6
2024-08-05T1200,2436A,114.8938,30.3994,鄂州市,市政府,,32,32,36,7,12,91,,62,62,4,16,9,10,1.1,1.1
2024-08-05T1200,2437A,114.8989,30.3714,鄂州市,赵家坝,,31,6,17,6,10,97,,71,71,2,7,8,8,0.5,0.4
2024-08-05T1200,3654A,114.8094,30.4089,鄂州市,精准医疗中心,,32,21,39,3,13,101,,70,70,4,12,7,7,0.5,0.6
2024-08-05T1200,2454A,109.4978,30.2981,恩施土家族苗族自治州,湖北民院,,20,20,19,8,11,62,,30,30,16,14,7,7,0.5,0.4
2024-08-05T1200,2455A,109.4707,30.2798,恩施土家族苗族自治州,州电力总公司,,24,24,17,11,10,57,,26,26,14,12,6,6,0.5,0.5
2024-08-05T1200,3549A,109.5061,30.3772,恩施土家族苗族自治州,龙凤新区,,23,17,17,16,8,42,,18,18,16,17,7,6,0.5,0.5
2024-08-05T1200,2499A,108.3411,21.6158,防城港市,沙万,,21,21,22,11,9,55,,36,36,7,14,9,12,0.5,0.5
2024-08-05T1200,2500A,108.3514,21.7731,防城港市,防城档案局,,17,17,19,10,10,51,,28,28,5,7,7,7,0.5,0.5
2024-08-05T1200,2501A,108.3506,21.6414,防城港市,大海花园,,17,14,18,9,7,52,,34,34,5,9,5,7,0.5,0.5
2024-08-05T1200,1371A,113.1294,23.0067,佛山市,湾梁,,49,41,31,24,19,156,,76,76,14,18,9,9,0.7,0.7
2024-08-05T1200,1372A,113.1083,23.0478,佛山市,华材职中,,44,44,48,22,22,131,,62,62,14,25,5,7,0.5,0.5
2024-08-05T1200,1373A,113.144,23.0453,佛山市,南海气象局,,,,40,,23,143,,67,67,10,15,9,10,,0.6
2024-08-05T1200,1374A,113.2881,22.8094,佛山市,顺德苏岗,臭氧1小时,52,35,29,31,20,161,,64,64,11,17,9,7,0.5,0.5
2024-08-05T1200,1376A,112.8383,22.8678,佛山市,高明孔堂,,33,31,35,18,20,104,,59,59,8,10,8,10,0.5,0.6
2024-08-05T1200,1377A,112.8836,23.1588,佛山市,三水监测站,,38,34,47,24,28,119,,44,44,15,38,5,5,0.5,0.5
2024-08-05T1200,1378A,112.867,23.185,佛山市,三水云东海,,42,22,39,20,28,134,,52,52,11,30,6,8,0.5,0.5
2024-08-05T1200,3625A,113.2544,22.7642,佛山市,容桂街道办,臭氧1小时,65,41,26,24,17,172,,72,72,14,18,8,6,0.8,0.7
2024-08-05T1200,1280A,119.3903,26.0543,福州市,鼓山,,,,,,,,,,,,,,,,
2024-08-05T1200,1282A,119.2681,26.0504,福州市,师大,,35,,39,24,25,112,,72,72,4,8,4,4,0.6,0.6
2024-08-05T1200,1283A,119.2984,26.1028,福州市,五四北路,,,,54,24,30,131,,79,79,4,8,4,4,0.5,0.6
2024-08-05T1200,1284A,119.2648,26.0768,福州市,杨桥西路,,38,22,40,20,26,121,,77,77,3,8,4,4,0.5,0.6
2024-08-05T1200,1285A,119.317,26.0746,福州市,紫阳,,35,33,44,20,27,110,,66,66,11,13,5,5,0.5,0.6
2024-08-05T1200,3048A,119.5799,26.0936,福州市,九龙,,29,26,30,20,24,88,,62,62,2,2,4,4,0.5,0.4
2024-08-05T1200,3526A,119.5189,25.9664,福州市,吴航,,38,34,44,26,27,111,,71,71,3,6,5,5,0.5,0.9
2024-08-05T1200,1755A,123.7977,41.8491,抚顺市,望花区,,25,11,26,6,13,80,,47,47,7,18,8,12,0.3,0.6
2024-08-05T1200,1756A,123.9161,41.8822,抚顺市,顺城区,,29,26,21,20,13,90,,44,44,14,19,6,3,1.4,0.7
2024-08-05T1200,1757A,124.0436,41.8611,抚顺市,东洲区,,24,,16,9,8,75,,43,43,10,10,3,3,0.5,0.4
2024-08-05T1200,1758A,123.9247,41.8642,抚顺市,新抚区,,26,26,23,9,12,75,,20,,12,16,5,5,1.0,0.6
2024-08-05T1200,1759A,124.0972,41.8961,抚顺市,大伙房水库,,,,17,3,8,66,,41,41,3,9,,3,,0.6
2024-08-05T1200,1760A,123.7086,41.8391,抚顺市,沈抚新城,,23,6,18,6,8,72,,45,45,8,17,4,4,1.3,1.3
2024-08-05T1200,2376A,116.2127,28.0814,抚州市,桐源党溪,,31,14,33,6,19,97,,70,70,3,7,5,6,0.5,0.5
2024-08-05T1200,2377A,116.3544,27.9831,抚州市,市站,,29,23,27,7,15,92,,68,68,4,4,5,7,0.7,0.7
2024-08-05T1200,2378A,116.3565,27.963,抚州市,血防站,,,16,29,3,14,84,,62,62,,7,2,5,0.5,0.7
2024-08-05T1200,2379A,116.3564,28.0007,抚州市,采茶剧团,,30,20,26,3,14,93,,68,68,3,4,5,6,0.6,0.6
2024-08-05T1200,2380A,116.385,27.9647,抚州市,医学分院,颗粒物(PM10),55,60,34,6,12,90,,66,66,4,5,4,4,0.8,0.9
2024-08-05T1200,2207A,121.6094,41.998,阜新市,工业园区,,30,30,17,17,10,86,,64,64,8,9,6,5,0.9,0.6
2024-08-05T1200,2208A,121.6697,42.0279,阜新市,长青街,,32,32,20,14,12,89,,68,68,10,12,4,5,0.9,0.7
2024-08-05T1200,2209A,121.6673,42.0705,阜新市,农业园区,,39,29,19,27,10,85,,66,66,8,10,3,3,0.8,0.6
2024-08-05T1200,2210A,121.6717,42.0224,阜新市,东苑,,,56,18,13,13,86,,66,66,9,11,4,4,,0.8
2024-08-05T1200,2211A,121.6506,42.0498,阜新市,玉龙新城,,26,22,19,13,10,82,,61,61,6,9,4,4,0.6,0.4
2024-08-05T1200,2301A,115.8277,32.8929,阜阳市,市监测站,,36,30,27,14,11,113,,90,90,8,10,6,5,0.4,0.3
2024-08-05T1200,2303A,115.8554,32.8605,阜阳市,开发区,,38,21,25,11,9,119,,90,90,5,7,6,6,0.4,0.4
2024-08-05T1200,2875A,115.784,32.8892,阜阳市,阜阳职业技术学院,,37,19,26,12,10,118,,93,93,5,8,6,5,0.4,0.3
2024-08-05T1200,3468A,115.7901,32.8613,阜阳市,市规划展馆,,42,42,28,17,16,112,,91,91,6,8,5,5,0.4,0.4
2024-08-05T1200,3469A,115.836,32.9183,阜阳市,枣园社区,,45,45,26,16,14,106,,87,87,5,8,3,3,0.5,0.4
2024-08-05T1200,2669A,102.9099,34.9841,甘南藏族自治州,州政府,,35,30,32,10,14,110,,43,43,4,16,6,5,0.3,0.3
2024-08-05T1200,3380A,102.8914,34.9617,甘南藏族自治州,甘肃民族师范学院,,35,14,32,3,11,110,,41,41,5,24,3,4,0.2,0.4
2024-08-05T1200,2570A,101.9603,30.0475,甘孜藏族自治州,水桥子,,20,17,10,3,6,61,,23,23,5,6,6,4,0.2,0.3
2024-08-05T1200,3065A,101.9533,29.9972,甘孜藏族自治州,州环保局,,24,16,14,3,7,74,,38,38,9,9,2,2,0.2,0.2
2024-08-05T1200,3414A,115.8347,28.932,赣江新区,桑海产业园,颗粒物(PM10),58,66,38,36,21,157,,84,84,16,20,18,14,0.6,0.6
2024-08-05T1200,2362A,114.9017,25.9149,赣州市,通天岩,,,,,,,,,,,,,,,,
2024-08-05T1200,2363A,114.9367,25.8664,赣州市,地委,,44,32,39,13,18,140,,81,81,10,12,7,9,0.9,0.9
2024-08-05T1200,2364A,114.9461,25.8481,赣州市,气象台,,42,29,33,9,17,134,,80,80,10,8,8,10,0.7,0.7
2024-08-05T1200,2365A,114.9322,25.8333,赣州市,市图书馆,,48,30,32,11,16,153,,90,90,8,7,4,5,0.6,0.6
2024-08-05T1200,2366A,114.8905,25.8471,赣州市,华坚鞋城,,,34,32,8,17,148,,83,83,8,8,,129,0.6,0.5
2024-08-05T1200,3109A,115.0093,25.8613,赣州市,赣县区卫计委,,37,21,29,12,17,116,,77,77,7,11,8,9,0.6,0.7
2024-08-05T1200,2683A,106.2319,36.1417,固原市,马园,,29,8,35,8,9,92,,55,55,8,18,5,5,0.5,0.5
2024-08-05T1200,2684A,106.2792,36.0022,固原市,监测站,,29,,20,12,11,90,,58,58,6,13,5,5,0.3,0.3
2024-08-05T1200,2685A,106.2375,36.0211,固原市,新区,,,46,20,6,6,92,,59,59,4,9,,6,,0.4
2024-08-05T1200,3522A,106.2177,35.9959,固原市,原州区十五小,,31,25,21,12,10,97,,66,66,6,9,4,4,0.4,0.4
2024-08-05T1200,2543A,106.6308,30.5278,广安市,小平旧居,,,,,,,,,,,,,,,,
2024-08-05T1200,2544A,106.6303,30.4576,广安市,市委,,23,21,16,11,10,73,,47,47,8,8,5,6,0.4,0.3
2024-08-05T1200,2545A,106.6271,30.4663,广安市,友谊中学,,26,21,14,8,9,81,,53,53,10,8,4,4,0.4,0.3
2024-08-05T1200,2547A,106.6388,30.4551,广安市,广电花园,,22,17,14,8,9,68,,40,40,7,7,4,4,0.4,0.3
2024-08-05T1200,2902A,106.6351,30.4865,广安市,北辰小学,,25,,12,17,8,77,,50,50,7,6,5,5,0.3,0.3
2024-08-05T1200,2523A,105.8945,32.4535,广元市,黑石坡,,24,10,12,7,7,75,,25,25,5,7,7,8,0.3,0.3
2024-08-05T1200,2524A,105.821,32.4444,广元市,老城,,25,25,19,3,7,79,,32,32,9,9,10,3,0.3,0.3
2024-08-05T1200,2526A,105.8628,32.4287,广元市,监测站,,25,14,14,9,7,80,,33,33,10,11,4,4,0.6,0.5
2024-08-05T1200,3617A,105.8047,32.4166,广元市,经开区,,33,33,24,21,15,69,,27,27,15,10,31,8,0.8,0.6
2024-08-05T1200,1345A,113.2347,23.1423,广州市,广雅中学,颗粒物(PM10),52,53,49,32,30,145,,63,63,18,31,7,6,0.4,0.6
2024-08-05T1200,1346A,113.2612,23.105,广州市,市五中,,50,44,44,28,29,160,,76,76,12,22,6,5,0.7,0.7
2024-08-05T1200,1348A,113.3478,23.0916,广州市,广东商学院,,49,49,48,30,31,146,,65,65,13,35,6,5,0.6,0.6
2024-08-05T1200,1349A,113.4332,23.1047,广州市,市八十六中,臭氧1小时,80,53,48,36,26,184,,62,62,17,37,5,4,0.7,0.7
2024-08-05T1200,1350A,113.3505,22.9483,广州市,番禺中学,臭氧1小时,60,53,45,30,23,168,,79,79,13,21,5,4,0.5,0.6
2024-08-05T1200,1351A,113.2146,23.3916,广州市,花都师范,颗粒物(PM10),51,51,49,35,28,122,,56,56,8,25,8,8,0.5,0.6
2024-08-05T1200,1352A,113.2597,23.1331,广州市,市监测站,,47,41,43,25,24,150,,69,69,14,27,7,7,0.7,0.7
2024-08-05T1200,1353A,113.5618,23.312,广州市,九龙镇镇龙,臭氧1小时,67,77,58,41,31,173,,79,79,18,26,8,7,0.6,0.6
2024-08-05T1200,1354A,113.2765,23.1544,广州市,麓湖,臭氧1小时,65,46,46,28,28,172,,70,70,14,33,7,6,0.6,0.7
2024-08-05T1200,1355A,113.443,23.3035,广州市,帽峰山森林公园,臭氧1小时,67,43,37,28,24,173,,72,72,11,15,5,4,0.6,0.6
2024-08-05T1200,2846A,113.3221,23.1322,广州市,体育西,臭氧1小时,67,46,46,30,30,173,,76,76,9,25,6,6,0.6,0.7
2024-08-05T1200,3298A,113.5717,23.5491,广州市,从化街口,细颗粒物(PM2.5),57,52,51,40,35,164,,82,82,12,21,7,7,0.6,0.7
2024-08-05T1200,3299A,113.3472,23.3692,广州市,白云竹料,臭氧1小时,68,55,69,28,38,174,,71,71,18,37,6,5,0.6,0.6
2024-08-05T1200,3300A,113.2981,23.237,广州市,白云嘉禾,,47,47,54,30,30,147,,66,66,16,37,8,8,0.8,0.8
2024-08-05T1200,3301A,113.4256,23.1716,广州市,黄埔科学城,臭氧1小时,70,45,49,29,28,176,,63,63,14,33,8,8,0.6,0.7
2024-08-05T1200,3302A,113.3942,23.0483,广州市,番禺大学城,颗粒物(PM10),51,52,46,26,23,156,,64,64,11,22,6,6,0.6,0.7
2024-08-05T1200,3303A,113.4922,22.8168,广州市,南沙黄阁,颗粒物(PM10),55,59,41,28,24,162,,63,63,14,25,6,6,0.8,0.8
2024-08-05T1200,3304A,113.5342,22.7896,广州市,南沙街,,49,40,40,28,22,156,,59,59,10,19,4,5,0.7,0.7
2024-08-05T1200,3443A,113.2902,23.5544,广州市,花都梯面,,41,38,45,26,30,130,,63,63,7,20,6,4,0.7,0.6
2024-08-05T1200,3445A,113.7858,23.7478,广州市,从化良口,,48,40,35,33,24,124,,65,65,8,8,5,5,0.8,0.7
2024-08-05T1200,3446A,113.8051,23.2614,广州市,增城荔城,臭氧1小时,83,61,47,43,29,186,,87,87,15,18,6,6,0.6,0.5
2024-08-05T1200,2505A,109.568,23.1478,贵港市,德智高中,,,,,,,,,,,,,,,,
2024-08-05T1200,2506A,109.6047,23.0666,贵港市,江南子站,,25,19,25,13,14,80,,40,40,4,11,7,7,0.5,0.5
2024-08-05T1200,2507A,109.6014,23.0948,贵港市,贵城子站,,28,28,24,15,15,76,,47,47,6,10,7,8,0.5,0.5
2024-08-05T1200,2508A,109.5669,23.1065,贵港市,荷城子站,,29,29,24,14,7,78,,52,52,4,7,9,9,0.3,0.3
2024-08-05T1200,3405A,109.5886,23.1172,贵港市,新世纪学校,,34,34,23,15,10,78,,56,56,6,8,7,8,0.6,0.5
2024-08-05T1200,1439A,106.6899,26.5998,贵阳市,马鞍山,,,,11,,0,61,,45,45,4,4,6,5,0.5,0.5
2024-08-05T1200,1440A,106.6971,26.5694,贵阳市,市环保站,,22,22,13,11,10,56,,38,38,13,11,5,5,0.2,0.2
2024-08-05T1200,1441A,106.6243,26.6266,贵阳市,鉴湖路,,15,14,13,3,5,48,,38,38,9,6,6,5,0.3,0.3
2024-08-05T1200,1442A,106.7487,26.6343,贵阳市,燕子冲,,19,,6,7,7,58,,39,39,7,8,6,6,0.5,0.6
2024-08-05T1200,1443A,106.6555,26.4365,贵阳市,碧云窝,,17,14,15,3,3,52,,37,37,5,6,5,6,0.3,0.3
2024-08-05T1200,1444A,106.694,26.5161,贵阳市,中院村,,22,22,19,9,6,54,,34,34,7,11,5,6,0.4,0.4
2024-08-05T1200,1445A,106.7109,26.6027,贵阳市,红边门,,25,22,18,17,13,59,,37,37,11,13,6,6,0.3,0.3
2024-08-05T1200,1446A,106.7164,26.5699,贵阳市,新华路,,20,,16,12,8,64,,41,41,7,12,5,5,0.5,0.5
2024-08-05T1200,1447A,106.674,26.5424,贵阳市,太慈桥,,18,6,5,3,3,55,,37,37,4,8,7,7,0.4,0.4
2024-08-05T1200,1552A,106.805,26.3003,贵阳市,桐木岭,,,,,,,,,,,,,,,,
2024-08-05T1200,1862A,110.4144,25.3167,桂林市,电子科大尧山校区,,35,30,29,18,15,110,,46,46,6,8,5,7,0.5,0.5
2024-08-05T1200,1863A,110.2819,25.2697,桂林市,监测站,,33,29,28,23,16,83,,45,45,6,11,5,8,0.5,0.5
2024-08-05T1200,1864A,110.3089,25.2708,桂林市,龙隐路小学,,27,27,27,18,16,85,,47,47,6,10,6,13,0.6,0.6
2024-08-05T1200,1865A,110.2869,25.2178,桂林市,八中,,28,28,27,12,11,80,,38,38,6,11,6,7,0.2,0.2
2024-08-05T1200,3403A,110.1764,25.2381,桂林市,创业大厦,,25,24,25,14,15,77,,33,33,9,15,7,15,0.3,0.3
2024-08-05T1200,3531A,110.296,25.1253,桂林市,旅游学院,,30,17,15,14,11,93,,43,43,4,13,6,6,0.4,0.4
2024-08-05T1200,2674A,100.2561,34.4714,果洛藏族自治州,玛沁县大武镇,,32,32,35,10,11,97,,46,46,6,6,6,7,0.4,0.4
2024-08-05T1200,1129A,126.5422,45.755,哈尔滨市,岭北,,22,8,21,3,12,69,,64,64,7,10,11,9,0.0,0.4
2024-08-05T1200,1130A,126.561,45.8167,哈尔滨市,松北商大,,15,9,24,6,10,48,,53,50,10,9,7,7,0.7,0.6
2024-08-05T1200,1131A,126.979,45.5419,哈尔滨市,阿城会宁,,30,30,27,10,10,54,,59,59,8,8,7,7,0.5,0.6
2024-08-05T1200,1132A,126.599,45.7222,哈尔滨市,南岗学府路,,,,36,,9,54,,54,52,9,8,6,6,,0.5
2024-08-05T1200,1133A,126.689,45.7733,哈尔滨市,太平宏伟公园,,17,16,34,8,13,53,,56,52,18,16,5,3,0.3,0.3
2024-08-05T1200,1134A,126.635,45.7667,哈尔滨市,道外承德广场,,15,15,29,3,8,46,,50,44,21,15,8,8,0.5,0.5
2024-08-05T1200,1135A,126.685,45.7319,哈尔滨市,香坊红旗大街,,16,9,23,9,13,50,,54,48,19,14,7,6,0.7,0.7
2024-08-05T1200,1136A,126.6411,45.7258,哈尔滨市,动力和平路,,,,49,,16,51,,50,48,14,12,6,6,0.6,0.6
2024-08-05T1200,1137A,126.593,45.7478,哈尔滨市,道里建国路,,17,16,33,9,13,53,,55,51,16,11,6,6,1.2,1.5
2024-08-05T1200,1138A,126.615,45.61,哈尔滨市,平房东轻厂,,18,13,33,7,9,55,,57,56,8,9,7,8,0.4,0.4
2024-08-05T1200,1139A,126.595,45.9855,哈尔滨市,呼兰师专,,19,11,25,7,12,60,,59,56,7,12,12,12,0.6,0.6
2024-08-05T1200,1140A,126.6206,45.6842,哈尔滨市,省农科院,,17,12,30,6,12,54,,52,52,14,17,6,5,0.5,0.6
2024-08-05T1200,2688A,93.5128,42.8172,哈密市,地区监测站,颗粒物(PM10),65,80,61,26,20,50,,84,61,51,22,14,5,0.8,0.3
2024-08-05T1200,2689A,93.4961,42.8328,哈密市,哈密师范学校,颗粒物(PM10),67,83,49,24,19,54,,76,52,30,20,8,6,0.8,0.4
2024-08-05T1200,2671A,100.9048,36.9639,海北藏族自治州,海晏县西海镇,,39,22,22,21,16,124,,78,78,7,9,15,14,0.5,0.5
2024-08-05T1200,3867A,102.0738,36.5056,海东市,平安区公安北苑,,42,31,42,6,18,134,,59,59,9,16,21,12,0.8,0.7
2024-08-05T1200,1409A,110.576,19.9507,海口市,东寨港,,,,,,,,,,,,,,,,
2024-08-05T1200,1410A,110.3232,20.0574,海口市,海南大学,,27,16,21,13,12,85,,50,50,7,10,6,5,0.4,0.4
2024-08-05T1200,1411A,110.283,20.0053,海口市,秀英海南医院,,26,22,24,14,15,81,,43,43,13,13,7,7,0.3,0.3
2024-08-05T1200,1412A,110.338,19.9969,海口市,海南师范大学,,28,26,21,10,12,88,,54,54,6,8,7,7,0.3,0.4
2024-08-05T1200,1413A,110.33,20.0356,海口市,龙华路环保局宿舍,,24,22,23,10,12,75,,52,52,5,8,7,8,0.3,0.3
2024-08-05T1200,3539A,110.5111,19.9736,海口市,桂林洋子站,,,20,23,,10,86,,31,31,,10,,6,0.4,0.3
2024-08-05T1200,2673A,100.6188,36.2866,海南藏族自治州,共和县恰卜恰镇,,44,18,25,18,14,138,,99,99,7,9,13,13,0.6,0.6
2024-08-05T1200,2676A,97.3731,37.3753,海西蒙古族藏族自治州,德令哈市,,37,24,26,11,12,117,,104,104,8,8,10,9,0.5,0.5
2024-08-05T1200,1048A,114.5302,36.6116,邯郸市,东污水处理厂,,,21,23,3,8,126,,75,75,,8,2,2,,0.5
2024-08-05T1200,1049A,114.4918,36.5713,邯郸市,矿院,,42,14,26,9,12,134,,82,82,5,8,1,2,0.3,0.4
2024-08-05T1200,1050A,114.484,36.6133,邯郸市,丛台公园,,42,22,26,7,10,134,,80,80,4,8,2,2,0.5,0.6
2024-08-05T1200,3458A,114.7895,36.5593,邯郸市,香泉濮院小区,,40,22,35,7,11,126,,73,73,2,5,2,2,0.2,0.4
2024-08-05T1200,3579A,114.50634,36.77178,邯郸市,永年区实验高中,,39,19,32,3,14,123,,86,86,2,8,2,3,0.5,0.8
2024-08-05T1200,3580A,114.20016,36.44293,邯郸市,峰峰矿区临水派出所,,40,24,33,13,11,126,,75,75,2,7,2,2,0.2,0.5
2024-08-05T1200,2634A,106.9893,33.1842,汉中市,汉川机床厂子校,,22,10,12,6,5,70,,33,33,4,7,4,4,0.4,0.4
2024-08-05T1200,2635A,107.0154,33.0706,汉中市,市监测站,,23,19,17,9,7,73,,32,32,5,6,6,6,0.7,0.6
2024-08-05T1200,2636A,107.0089,33.1138,汉中市,鑫源开发区,,28,24,14,6,6,88,,43,43,3,6,9,9,0.4,0.4
2024-08-05T1200,2637A,107.007,33.0323,汉中市,南郑大河坎水厂,,30,22,16,3,4,95,,37,37,4,5,8,8,0.5,0.5
2024-08-05T1200,1223A,120.2072,30.2111,杭州市,滨江,臭氧1小时,80,45,39,22,19,184,,80,80,10,20,4,4,0.7,0.7
2024-08-05T1200,1224A,120.0633,30.2747,杭州市,西溪,臭氧1小时,78,30,25,20,16,182,,79,79,15,23,5,5,0.8,0.7
2024-08-05T1200,1226A,120.3461,30.3153,杭州市,下沙,臭氧1小时,101,57,51,30,21,202,,83,83,,33,6,5,,0.5
2024-08-05T1200,1227A,120.1269,30.2456,杭州市,卧龙桥,臭氧1小时,103,34,28,27,17,205,,78,78,12,19,7,6,0.7,0.7
2024-08-05T1200,1228A,120.1903,30.2692,杭州市,浙江农大,臭氧1小时,68,30,30,22,17,174,,76,76,14,26,6,6,0.7,0.6
2024-08-05T1200,1230A,120.1197,30.3119,杭州市,和睦小学,臭氧1小时,90,35,26,20,16,192,,87,87,14,24,6,5,0.6,0.6
2024-08-05T1200,1231A,120.3019,30.4183,杭州市,临平镇,臭氧1小时,101,49,44,23,21,202,,81,81,14,33,4,4,0.7,0.7
2024-08-05T1200,1232A,120.2697,30.1819,杭州市,城厢镇,臭氧1小时,95,48,40,22,27,196,,90,90,11,23,5,5,0.6,0.6
2024-08-05T1200,1233A,120.0883,30.1808,杭州市,云栖,臭氧1小时,102,41,27,19,12,204,,74,74,16,28,7,7,0.7,0.7
2024-08-05T1200,3557A,119.9464,30.0494,杭州市,镇二中,,50,30,26,22,19,159,,70,70,12,24,8,8,0.7,0.7
2024-08-05T1200,3558A,119.7183,30.2367,杭州市,市府大楼,臭氧1小时,84,27,20,21,15,187,,81,81,10,16,5,5,0.6,0.5
2024-08-05T1200,3656A,120.1556,30.2864,杭州市,消防大队,臭氧1小时,102,45,33,24,18,204,,84,84,10,25,7,7,0.8,0.7
2024-08-05T1200,1270A,117.1959,31.7848,合肥市,明珠广场,,29,29,32,17,18,34,,77,74,15,13,4,4,0.4,0.4
2024-08-05T1200,1271A,117.3072,31.8764,合肥市,三里街,,43,27,28,14,14,137,,86,86,8,14,6,6,0.4,0.3
2024-08-05T1200,1272A,117.2588,31.8707,合肥市,琥珀山庄,,,29,31,28,18,130,,91,91,,10,,5,0.5,0.2
2024-08-05T1200,1273A,117.1604,31.9052,合肥市,董铺水库,,40,27,24,14,14,128,,77,77,6,8,3,2,0.3,0.3
2024-08-05T1200,1274A,117.25,31.8571,合肥市,长江中路,,40,31,32,18,18,126,,90,90,4,9,8,6,0.6,0.5
2024-08-05T1200,1275A,117.266,31.9436,合肥市,庐阳区,,47,34,28,17,17,150,,91,91,8,11,10,10,0.6,0.6
2024-08-05T1200,1276A,117.336,31.8586,合肥市,瑶海区,,40,22,35,20,17,128,,78,78,8,17,11,10,0.4,0.3
2024-08-05T1200,1277A,117.3027,31.7964,合肥市,包河区,,42,34,30,24,18,133,,88,88,12,11,9,8,0.6,0.4
2024-08-05T1200,1278A,117.2776,31.7385,合肥市,滨湖新区,,41,29,26,17,15,129,,85,85,7,11,8,8,0.4,0.4
2024-08-05T1200,1279A,117.1318,31.8403,合肥市,高新区,,40,22,25,12,14,125,,84,84,5,9,7,7,0.5,0.5
2024-08-05T1200,3464A,117.3803,31.9147,合肥市,高教基地,,40,26,31,15,18,125,,86,86,4,12,8,7,0.3,0.4
2024-08-05T1200,3614A,79.924,37.0877,和田地区,地区环保局,颗粒物(PM10),500,889,976,233,290,88,,91,78,12,6,8,7,0.4,0.4
2024-08-05T1200,3615A,79.9131,37.113,和田地区,市环保局,颗粒物(PM10),500,774,899,215,222,93,,88,78,8,7,7,7,0.3,0.3
2024-08-05T1200,2516A,108.2011,24.715,河池市,东仁乐园,,,72,35,20,10,,,24,24,,8,,4,,0.5
2024-08-05T1200,2517A,108.0497,24.6947,河池市,市环保站,,34,34,26,10,9,72,,25,25,7,10,9,8,0.6,0.6
2024-08-05T1200,2518A,108.0983,24.6989,河池市,市疾控中心,,29,29,27,13,11,72,,24,24,8,13,9,8,0.6,0.6
2024-08-05T1200,1696A,114.6778,23.7569,河源市,源西,,,,17,,14,,,46,,,8,,4,,0.5
2024-08-05T1200,1697A,114.6944,23.7586,河源市,东埔,,33,,22,15,16,105,,58,58,9,10,8,8,0.5,0.6
2024-08-05T1200,1698A,114.6892,23.7233,河源市,老城,,,32,30,15,15,111,,59,59,,9,5,5,0.4,0.4
2024-08-05T1200,1718A,115.4208,35.2464,菏泽市,气象局,,27,27,20,8,9,76,,54,54,9,10,5,4,0.2,0.2
2024-08-05T1200,1719A,115.4747,35.2375,菏泽市,市政协,,30,30,18,8,12,64,,48,48,9,7,7,3,0.1,0.2
2024-08-05T1200,3374A,115.5564,35.0891,菏泽市,定陶老年大学,,21,9,15,3,1,67,,50,50,3,6,4,4,0.0,0.1
2024-08-05T1200,3647A,115.4702,35.2706,菏泽市,菏泽医专,,24,11,20,3,5,76,,52,52,9,9,2,4,0.2,0.3
2024-08-05T1200,2514A,111.5264,24.4172,贺州市,环保小区,,29,27,30,15,16,91,,37,37,7,12,6,6,0.6,0.7
2024-08-05T1200,2515A,111.5608,24.4078,贺州市,政协大楼,,32,23,36,20,21,101,,40,40,8,16,5,6,0.6,0.6
2024-08-05T1200,3534A,111.4744,24.4553,贺州市,西湾,,37,37,25,21,16,91,,36,36,8,16,7,7,0.6,0.6
2024-08-05T1200,2385A,114.17,35.9019,鹤壁市,市监测站,,48,48,39,33,19,125,,60,60,10,15,3,4,1.0,0.9
2024-08-05T1200,2386A,114.2956,35.7511,鹤壁市,市交警支队,,40,40,31,10,17,113,,58,58,7,14,1,2,0.7,0.5
2024-08-05T1200,2387A,114.2878,35.7306,鹤壁市,迎宾馆,,38,33,23,17,13,119,,64,64,8,15,6,5,1.0,0.8
2024-08-05T1200,3474A,114.2617,35.6822,鹤壁市,大新区,,,45,30,,3,117,,60,60,8,15,3,2,0.7,0.6
2024-08-05T1200,3596A,114.1572,35.9603,鹤壁市,南山宾馆,颗粒物(PM10),54,58,43,37,20,125,,62,62,12,12,4,5,1.1,1.1
2024-08-05T1200,2244A,130.2537,47.3416,鹤岗市,哈啤分公司,,15,13,16,10,7,46,,20,20,5,9,14,13,0.5,0.4
2024-08-05T1200,2245A,130.2684,47.3086,鹤岗市,斯达机电,,15,9,12,6,8,46,,20,20,6,9,12,12,0.3,0.3
2024-08-05T1200,2246A,130.3114,47.3388,鹤岗市,东山纸板厂,,24,24,12,10,15,29,,11,11,8,9,15,15,0.4,0.3
2024-08-05T1200,2247A,130.1097,47.3382,鹤岗市,五号水库,,17,8,5,3,4,53,,22,22,6,9,11,10,0.2,0.2
2024-08-05T1200,2263A,127.4833,50.2524,黑河市,交通局,,,14,21,3,8,82,,51,51,,4,4,4,0.2,0.2
2024-08-05T1200,2264A,127.5144,50.2341,黑河市,环保局,,27,11,16,7,6,84,,50,50,5,4,7,4,0.7,0.6
2024-08-05T1200,2265A,127.5291,50.2472,黑河市,大黑河岛,,,29,6,9,14,,,,,5,14,1,2,,
2024-08-05T1200,1074A,115.6838,37.7541,衡水市,电机北厂,,40,,29,21,12,128,,99,99,4,5,3,2,0.3,0.3
2024-08-05T1200,1075A,115.6303,37.7316,衡水市,市监测站,,44,21,25,13,9,138,,104,104,9,8,3,3,0.4,0.4
2024-08-05T1200,3188A,115.6683,37.7217,衡水市,市城管局,,40,20,20,14,13,127,,103,103,4,4,5,3,0.4,0.4
2024-08-05T1200,3459A,115.5989,37.5491,衡水市,地表水厂,,40,31,29,9,6,127,,100,100,1,3,7,5,0.4,0.5
2024-08-05T1200,2456A,112.5003,26.9167,衡阳市,原169医院,,30,22,26,15,15,94,,56,56,4,8,14,16,0.3,0.4
2024-08-05T1200,2457A,112.6194,26.9258,衡阳市,衡阳化工总厂,,,42,44,,,88,,45,45,5,15,7,7,0.5,0.6
2024-08-05T1200,2458A,112.6211,26.8956,衡阳市,珠晖区环保局,,,35,36,,,95,,46,46,8,15,10,6,1.0,0.8
2024-08-05T1200,2459A,112.6197,26.8733,衡阳市,市委党校,,33,33,34,14,17,91,,56,56,4,12,8,8,0.6,0.6
2024-08-05T1200,2460A,112.6006,26.8919,衡阳市,市监测站,,28,22,31,3,21,87,,53,53,3,12,6,8,0.5,0.7
2024-08-05T1200,2461A,112.5664,26.9056,衡阳市,真空机电公司,,,36,28,,14,85,,59,59,2,7,7,8,0.6,0.7
2024-08-05T1200,3399A,112.6703,26.882,衡阳市,师范学院,,38,38,33,8,16,92,,50,50,5,12,6,6,0.5,0.7
2024-08-05T1200,2608A,103.3772,23.3993,红河哈尼族彝族自治州,污水处理厂,,14,,10,9,11,43,,31,31,6,6,13,6,0.4,0.4
2024-08-05T1200,2609A,103.3861,23.35,红河哈尼族彝族自治州,监测站,,13,7,11,7,9,41,,30,30,7,6,24,10,0.4,0.4
2024-08-05T1200,3038A,103.3758,23.368,红河哈尼族彝族自治州,州图书馆,,13,10,10,7,7,41,,34,34,4,6,11,6,0.4,0.4
2024-08-05T1200,1090A,111.6507,40.7517,呼和浩特市,呼市一监,,,27,27,10,11,121,,48,48,12,13,10,9,,0.5
2024-08-05T1200,1091A,111.6572,40.8033,呼和浩特市,小召,,41,36,29,9,11,130,,73,73,19,21,9,9,0.6,0.6
2024-08-05T1200,1094A,111.7516,40.8369,呼和浩特市,如意水处理厂,,40,21,25,7,9,127,,66,66,11,21,6,6,0.4,0.5
2024-08-05T1200,1095A,111.7276,40.8062,呼和浩特市,二十九中,,37,31,30,9,12,118,,60,60,12,20,4,5,0.6,0.7
2024-08-05T1200,1096A,111.5512,40.7866,呼和浩特市,工大金川校区,颗粒物(PM10),51,51,36,17,13,108,,57,57,23,25,19,8,0.7,0.6
2024-08-05T1200,1097A,111.717,40.7612,呼和浩特市,化肥厂生活区,,46,34,32,11,11,145,,75,75,22,18,9,8,0.7,0.7
2024-08-05T1200,3698A,111.5968,40.8178,呼和浩特市,红旗小学,颗粒物(PM10),53,56,40,18,14,115,,53,53,24,31,7,8,0.6,0.6
2024-08-05T1200,3699A,111.6518,40.8389,呼和浩特市,海东办,,48,48,39,13,13,132,,67,67,19,26,5,8,0.9,0.6
2024-08-05T1200,2192A,119.7594,49.2261,呼伦贝尔市,区环保局,,33,33,20,20,14,73,,57,57,9,14,5,4,0.7,0.5
2024-08-05T1200,3061A,119.7512,49.1577,呼伦贝尔市,国华电力东,,24,12,14,3,11,76,,59,59,3,6,4,4,0.8,0.5
2024-08-05T1200,1250A,120.0751,30.8669,湖州市,城西水厂,臭氧1小时,64,38,33,23,20,171,,72,72,15,26,4,4,0.6,0.5
2024-08-05T1200,2873A,120.0875,30.8955,湖州市,仁皇山新区,臭氧1小时,102,39,33,26,22,204,,77,77,,18,6,6,0.7,0.6
2024-08-05T1200,2907A,120.1844,30.8596,湖州市,吴兴区站,臭氧1小时,90,41,36,24,25,192,,75,75,12,21,7,7,0.5,0.5
2024-08-05T1200,3562A,120.4148,30.8538,湖州市,南浔区站,臭氧1小时,68,44,37,29,25,174,,76,76,10,23,4,5,0.6,0.6
2024-08-05T1200,1607A,120.9092,40.7136,葫芦岛市,龙港区,,27,27,22,3,2,83,,80,80,8,8,2,1,0.6,0.5
2024-08-05T1200,1608A,120.8392,40.7514,葫芦岛市,化工街,,26,17,9,3,5,83,,71,71,12,15,1,2,0.6,0.5
2024-08-05T1200,1609A,120.8341,40.7073,葫芦岛市,新区,,26,23,14,9,5,82,,71,71,8,8,3,3,0.5,0.4
2024-08-05T1200,1610A,120.8695,40.7677,葫芦岛市,东城区,,42,42,16,10,7,100,,85,85,9,14,7,6,0.5,0.4
2024-08-05T1200,2482A,109.5981,27.5721,怀化市,林科所,颗粒物(PM10),62,73,17,7,6,85,,72,72,4,5,4,6,0.5,0.5
2024-08-05T1200,2483A,109.9453,27.5444,怀化市,河西地税局,,22,14,23,3,13,68,,40,40,2,6,8,8,0.4,0.5
2024-08-05T1200,2484A,109.9781,27.5342,怀化市,市四医院,,22,22,28,13,14,70,,44,44,3,12,5,5,0.1,0.2
2024-08-05T1200,2485A,109.9972,27.5578,怀化市,监测楼,,26,26,24,9,11,70,,51,51,5,12,4,6,0.5,0.5
2024-08-05T1200,2486A,110.0394,27.583,怀化市,市委党校,,29,,20,20,11,69,,46,46,3,10,8,9,0.5,0.6
2024-08-05T1200,1210A,119.036,33.5981,淮安市,钵池山,,36,19,25,19,19,114,,93,93,6,11,7,7,0.5,0.5
2024-08-05T1200,1211A,119.007,33.575,淮安市,北京南路,,34,22,33,7,18,107,,81,81,4,13,7,8,0.5,0.7
2024-08-05T1200,1212A,118.989,33.6067,淮安市,市监测站,,37,22,32,17,21,117,,91,91,8,14,6,7,0.6,0.7
2024-08-05T1200,1213A,119.135,33.5039,淮安市,楚州区监测站,,35,22,40,9,10,110,,77,77,7,20,5,5,0.6,0.6
2024-08-05T1200,1214A,119.0186,33.6297,淮安市,淮阴区监测站,,39,22,33,19,19,122,,98,98,8,15,4,6,0.6,0.6
2024-08-05T1200,3426A,118.8755,33.2894,淮安市,新华书店,,40,26,27,19,21,127,,81,81,16,12,6,6,0.5,0.5
2024-08-05T1200,2282A,116.8004,33.975,淮北市,监测站,,33,33,33,9,17,71,,70,70,7,7,5,5,0.5,0.6
2024-08-05T1200,2283A,116.8091,33.9007,淮北市,烈山区政府,,24,24,34,10,16,72,,69,69,2,10,7,7,0.6,0.7
2024-08-05T1200,3330A,116.8873,33.9836,淮北市,杜集区检察院,,30,30,38,13,17,78,,70,70,3,8,1,2,0.5,0.6
2024-08-05T1200,4017A,116.7923,33.9535,淮北市,市博物馆,,34,34,33,9,15,78,,73,73,10,11,4,4,0.5,0.6
2024-08-05T1200,2277A,116.8305,32.7727,淮南市,潘集区政府,,36,31,31,17,16,114,,82,82,5,12,5,6,0.4,0.4
2024-08-05T1200,2278A,117.0067,32.6524,淮南市,师范学院,,39,33,29,10,15,122,,92,92,3,4,9,9,0.4,0.4
2024-08-05T1200,2279A,116.8569,32.5951,淮南市,谢家集区政府,,37,22,23,3,7,117,,75,75,6,9,5,5,0.3,0.2
2024-08-05T1200,2280A,116.8281,32.633,淮南市,八公山区政府,,33,25,29,12,15,104,,84,84,4,7,8,7,0.3,0.3
2024-08-05T1200,2281A,116.6325,32.6201,淮南市,焦岗湖风景区管理处,,17,9,11,6,7,52,,38,38,7,9,7,7,0.2,0.2
2024-08-05T1200,2894A,117.0566,32.6531,淮南市,经济技术开发区消防队,,39,29,24,14,8,124,,87,87,3,7,6,5,0.4,0.4
2024-08-05T1200,3329A,117.0108,32.5893,淮南市,山南新区,,37,26,39,3,7,118,,76,76,1,8,4,3,0.4,0.5
2024-08-05T1200,2446A,114.9028,30.4742,黄冈市,职工中心,,30,25,33,16,17,94,,64,64,5,11,8,8,0.4,0.4
2024-08-05T1200,2929A,114.8858,30.4519,黄冈市,红卫路,,,25,31,13,17,99,,66,66,7,13,15,8,,0.5
2024-08-05T1200,3398A,114.9136,30.4445,黄冈市,市林业局,,32,,33,19,20,102,,69,69,2,18,9,9,0.3,0.4
2024-08-05T1200,2672A,102.0199,35.5102,黄南藏族自治州,同仁县隆务镇,,35,17,28,3,13,111,,74,74,4,3,6,6,0.5,0.4
2024-08-05T1200,2295A,118.2903,29.6963,黄山市,延安路89号,,48,48,40,3,11,121,,62,62,2,6,5,4,0.6,0.6
2024-08-05T1200,2296A,118.327,29.7178,黄山市,黄山东路89号,,39,29,24,24,11,122,,63,63,3,6,6,6,0.5,0.5
2024-08-05T1200,2297A,118.1371,30.2756,黄山市,黄山区政府5号楼,,33,33,20,16,11,104,,50,50,5,6,7,6,0.4,0.4
2024-08-05T1200,2423A,115.0601,30.2313,黄石市,沈家营,,34,9,49,8,13,108,,61,61,4,17,6,10,0.4,0.4
2024-08-05T1200,2424A,115.0817,30.2006,黄石市,陈家湾,,33,29,39,11,13,104,,67,67,1,8,3,4,0.5,0.6
2024-08-05T1200,2426A,114.8988,30.2019,黄石市,铁山,,35,22,29,7,10,109,,87,87,2,8,12,15,0.3,0.3
2024-08-05T1200,2427A,115.0307,30.2092,黄石市,团城山,,30,29,36,7,14,95,,70,70,3,11,7,11,0.5,0.7
2024-08-05T1200,3149A,115.0235,30.1578,黄石市,笔架山北路,,31,25,37,3,8,97,,75,75,6,10,5,8,0.3,0.3
2024-08-05T1200,1392A,114.4183,23.0528,惠州市,河南岸金山湖子站,臭氧1小时,73,66,54,44,34,178,,80,80,13,17,6,5,0.7,0.7
2024-08-05T1200,1393A,114.4053,23.0822,惠州市,下埔横江三路子站,臭氧1小时,100,65,58,39,33,200,,93,93,13,16,4,3,0.7,0.7
2024-08-05T1200,1394A,114.4103,23.1142,惠州市,江北云山西路子站,臭氧1小时,87,55,59,31,30,189,,76,76,11,16,6,4,0.7,0.7
2024-08-05T1200,1395A,114.4645,22.7833,惠州市,惠阳区承修路船湖子站,颗粒物(PM10),53,55,47,31,27,161,,64,64,18,27,6,6,0.6,0.6
2024-08-05T1200,1396A,114.5317,22.7422,惠州市,大亚湾管委会子站,臭氧1小时,63,48,47,32,27,170,,63,63,18,27,7,6,0.8,0.7
2024-08-05T1200,3314A,114.4338,22.8134,惠州市,惠阳秋长,臭氧1小时,102,53,50,38,31,204,,81,81,,27,6,6,0.4,0.4
2024-08-05T1200,3452A,114.6517,22.775,惠州市,大亚湾霞涌,臭氧1小时,55,58,32,18,10,164,,64,64,11,13,3,3,0.5,0.5
2024-08-05T1200,2240A,130.9762,45.3001,鸡西市,环保局,,,8,13,3,5,30,,27,27,,5,,8,0.3,0.3
2024-08-05T1200,2243A,130.9429,45.3039,鸡西市,第一中学,,17,17,15,3,5,38,,30,30,4,7,4,5,0.2,0.2
2024-08-05T1200,3707A,131.0207,45.3073,鸡西市,欧美日汽修厂,,38,38,15,3,5,34,,22,22,6,4,5,3,0.4,0.3
2024-08-05T1200,3709A,130.9967,45.3106,鸡西市,市政设施管理处,,30,30,15,3,5,31,,23,23,12,8,3,4,0.4,0.3
2024-08-05T1200,2367A,114.9754,27.0803,吉安市,红声器材厂,,30,20,33,16,18,94,,67,67,7,13,15,14,0.4,0.5
2024-08-05T1200,2368A,114.9658,27.0999,吉安市,市森林工业局,,32,27,33,13,17,102,,70,70,6,9,11,11,0.4,0.4
2024-08-05T1200,2369A,114.99,27.1312,吉安市,市环境监测站,,34,26,30,13,14,106,,74,74,6,9,12,11,0.5,0.5
2024-08-05T1200,2370A,115.0093,27.0968,吉安市,青原区法院,,33,31,39,16,22,103,,,,15,14,20,14,0.4,0.4
2024-08-05T1200,1772A,126.54,43.8622,吉林市,哈达湾,,22,,17,8,11,68,,72,64,6,8,5,5,0.5,0.5
2024-08-05T1200,1773A,126.5844,43.8358,吉林市,东局子,,,18,20,9,11,63,,67,61,,6,5,4,0.6,0.5
2024-08-05T1200,1774A,126.5052,43.8245,吉林市,电力学院,,21,11,21,9,12,66,,60,56,4,10,3,4,0.6,0.6
2024-08-05T1200,1775A,126.6133,43.8972,吉林市,江北,,19,14,19,6,9,58,,64,58,6,5,8,8,0.6,0.6
2024-08-05T1200,1776A,126.555,43.8306,吉林市,江南公园,,,,19,13,14,69,,68,63,,9,,2,0.6,0.7
2024-08-05T1200,1778A,126.7061,43.7133,吉林市,丰满,,,,,,,,,,,,,,,,
2024-08-05T1200,2868A,126.4739,43.953,吉林市,九站,,21,18,21,7,12,66,,76,68,3,5,3,3,0.6,0.6
2024-08-05T1200,1299A,116.9862,36.6114,济南市,科干所,,22,7,13,3,6,70,,39,38,6,13,8,8,0.3,0.3
2024-08-05T1200,1300A,116.9376,36.665,济南市,农科所,,20,7,15,3,8,61,,33,32,12,16,8,8,0.3,0.3
2024-08-05T1200,1301A,117.1265,36.6734,济南市,开发区,,21,15,12,3,3,67,,45,40,13,13,9,9,0.5,0.5
2024-08-05T1200,1303A,117.0624,36.6868,济南市,省种子仓库,,21,19,19,3,7,67,,42,35,14,14,7,7,0.5,0.5
2024-08-05T1200,1304A,116.9489,36.6447,济南市,机床二厂,,25,7,14,3,2,80,,44,44,7,14,9,8,0.5,0.5
2024-08-05T1200,1305A,117.0495,36.663,济南市,市监测站,,24,12,13,3,8,75,,42,38,13,17,10,10,0.4,0.4
2024-08-05T1200,1306A,116.7675,36.5484,济南市,长清党校,,22,6,11,3,6,69,,48,48,5,9,9,9,0.5,0.5
2024-08-05T1200,1616A,117.6795,36.229,济南市,技术学院,,16,9,10,3,5,51,,51,51,16,10,13,9,1.3,0.7
2024-08-05T1200,1961A,117.532,36.6868,济南市,东山小学,,21,6,14,3,4,67,,44,44,10,14,5,5,0.6,0.5
2024-08-05T1200,3059A,117.7161,36.2049,济南市,泰兴公司,,15,6,17,3,6,46,,44,44,26,20,10,9,0.7,0.5
2024-08-05T1200,3064A,117.6867,36.2171,济南市,莱芜战役纪念馆,,15,12,17,3,3,48,,46,46,19,12,10,9,1.2,0.6
2024-08-05T1200,3494A,117.1673,36.9782,济南市,济阳区政府,,20,20,16,3,4,64,,47,46,15,11,7,7,0.3,0.2
2024-08-05T1200,3495A,117.1171,36.63,济南市,锦屏中学,,19,12,14,3,5,60,,39,34,15,15,9,9,0.5,0.4
2024-08-05T1200,3682A,116.9814,36.6819,济南市,济南四建,,22,,12,7,7,70,,34,34,10,17,8,8,0.6,0.6
2024-08-05T1200,1653A,116.6251,35.4302,济宁市,火炬城,,18,16,21,3,8,56,,57,57,12,11,7,8,0.7,0.7
2024-08-05T1200,1655A,116.5491,35.4042,济宁市,电化厂,,17,9,19,3,12,52,,49,49,9,10,7,6,0.5,0.5
2024-08-05T1200,3500A,116.5814,35.3707,济宁市,北湖一中,,16,10,23,3,5,49,,48,48,11,11,8,8,0.6,0.6
2024-08-05T1200,3501A,116.8249,35.5593,济宁市,服务中心,,17,9,20,3,4,54,,53,53,6,8,5,4,0.4,0.3
2024-08-05T1200,3678A,116.5907,35.4054,济宁市,市第七中学,,18,7,18,3,6,57,,54,53,13,13,4,4,0.5,0.5
2024-08-05T1200,2255A,130.2751,46.8028,佳木斯市,佳纺,,20,13,22,3,9,63,,39,39,5,12,12,12,0.5,0.5
2024-08-05T1200,2256A,130.3995,46.8307,佳木斯市,发电厂,,20,14,27,7,9,62,,36,36,6,13,8,8,0.5,0.5
2024-08-05T1200,2257A,130.3258,46.7975,佳木斯市,环保局,,18,13,26,3,9,56,,35,35,5,15,8,8,0.5,0.5
2024-08-05T1200,2258A,130.3648,46.8032,佳木斯市,十一中,,20,14,20,9,10,61,,36,36,9,15,8,9,0.5,0.5
2024-08-05T1200,2259A,130.3794,46.7588,佳木斯市,四丰,,,10,13,7,7,60,,37,37,,,1,1,0.5,0.5
2024-08-05T1200,1252A,120.7436,30.778,嘉兴市,清河小学,臭氧1小时,107,81,47,47,23,214,,105,105,16,24,9,8,0.9,0.9
2024-08-05T1200,1253A,120.726,30.7478,嘉兴市,嘉兴学院,臭氧1小时,83,91,62,54,21,186,,80,80,19,35,1,1,0.7,0.7
2024-08-05T1200,2872A,120.7846,30.7525,嘉兴市,南湖区残联,臭氧1小时,120,71,44,53,30,239,,121,121,13,19,4,4,1.0,0.9
2024-08-05T1200,3407A,120.6916,30.7739,嘉兴市,秀洲住建,臭氧1小时,122,80,42,50,23,243,,98,98,17,29,3,3,0.7,0.7
2024-08-05T1200,1945A,98.2908,39.7711,嘉峪关市,气象局,,46,46,38,19,11,120,,91,91,17,20,41,16,0.9,0.5
2024-08-05T1200,2884A,98.2672,39.7978,嘉峪关市,酒钢宾馆,颗粒物(PM10),62,73,42,22,11,117,,92,92,27,16,92,20,2.1,0.5
2024-08-05T1200,3248A,98.2643,39.7724,嘉峪关市,雄关区,,41,41,36,6,10,106,,85,85,24,19,24,13,1.4,0.4
2024-08-05T1200,1383A,113.1064,22.6058,江门市,北街,颗粒物(PM10),53,56,30,25,18,112,,69,69,8,9,4,3,0.4,0.4
2024-08-05T1200,1384A,113.0731,22.5835,江门市,西区,,38,19,33,17,17,120,,69,69,8,13,7,8,0.4,0.4
2024-08-05T1200,1385A,113.0219,22.5311,江门市,圭峰西,,38,35,32,25,21,121,,65,65,8,9,3,3,0.7,0.6
2024-08-05T1200,1386A,113.0828,22.5947,江门市,东湖,,44,44,38,22,20,106,,65,65,6,10,6,6,0.4,0.5
2024-08-05T1200,3311A,113.1075,22.5647,江门市,江海富民,,45,45,40,19,18,127,,71,71,8,11,6,6,0.5,0.5
2024-08-05T1200,3449A,113.05,22.4667,江门市,新会银湖,,45,44,28,30,15,144,,70,70,8,12,5,4,0.7,0.6
2024-08-05T1200,1828A,113.227,35.2125,焦作市,市环保局,细颗粒物(PM2.5),53,50,36,37,15,126,,60,60,13,14,5,5,0.6,0.5
2024-08-05T1200,1830A,113.1992,35.2590,焦作市,影视城,,,,,,,,,,,,,,,,
2024-08-05T1200,3169A,113.2725,35.2067,焦作市,太极体育中心,"颗粒物(PM10),细颗粒物(PM2.5)",54,57,47,38,16,124,,59,59,12,14,5,4,0.6,0.5
2024-08-05T1200,3335A,113.3137,35.2641,焦作市,马村街道办,,50,36,37,35,18,127,,60,60,10,14,3,4,0.5,0.5
2024-08-05T1200,3336A,113.2465,35.2373,焦作市,焦作技师学院,,50,50,38,34,14,121,,58,58,10,12,3,3,0.5,0.5
2024-08-05T1200,3477A,113.1656,35.2539,焦作市,中站许衡医院,,39,29,23,11,15,124,,64,64,10,15,9,9,0.3,0.4
2024-08-05T1200,3981A,113.2449,35.1803,焦作市,原李万街道办,细颗粒物(PM2.5),55,,42,39,14,124,,61,61,10,14,8,6,0.3,0.2
2024-08-05T1200,1708A,116.3701,23.5345,揭阳市,新兴,颗粒物(PM10),52,53,34,22,19,136,,55,55,11,18,6,5,0.8,0.9
2024-08-05T1200,1709A,116.3264,23.5443,揭阳市,西马,,46,41,32,31,20,147,,53,53,6,15,4,5,0.8,0.8
2024-08-05T1200,1710A,116.3611,23.5626,揭阳市,东兴,颗粒物(PM10),57,64,39,23,15,153,,55,55,6,14,6,5,0.9,0.9
2024-08-05T1200,1711A,116.4151,23.5294,揭阳市,渔湖,,41,38,40,19,24,131,,53,53,12,25,6,6,0.9,0.9
2024-08-05T1200,3320A,116.403,23.5699,揭阳市,曲溪,臭氧1小时,55,38,30,24,16,164,,55,55,12,20,7,6,0.7,0.8
2024-08-05T1200,1944A,102.1692,38.5167,金昌市,天庆家园,,37,37,27,13,16,115,,74,74,7,16,8,14,0.4,0.6
2024-08-05T1200,3170A,102.1864,38.5253,金昌市,市委党校,,43,43,37,13,12,119,,79,79,5,14,9,12,0.4,0.5
2024-08-05T1200,4022A,102.1647,38.5371,金昌市,金川区人防中心,,43,43,30,15,13,119,,77,77,5,14,10,11,0.5,0.5
2024-08-05T1200,1262A,119.647,29.077,金华市,十五中,臭氧1小时,103,49,39,24,18,205,,87,87,19,19,3,3,0.7,0.6
2024-08-05T1200,1263A,119.686,29.1029,金华市,监测站,臭氧1小时,70,33,37,19,19,176,,81,81,12,19,4,4,0.6,0.6
2024-08-05T1200,3659A,119.656,29.1131,金华市,气象局,臭氧1小时,72,36,38,17,13,177,,73,73,11,22,5,5,0.1,0.3
2024-08-05T1200,1767A,121.1115,41.0879,锦州市,南山,,29,15,13,7,8,92,,66,66,6,14,4,5,0.5,0.6
2024-08-05T1200,1768A,121.0533,40.8434,锦州市,开发区,,30,26,15,6,5,93,,84,84,8,13,4,4,0.6,0.6
2024-08-05T1200,1769A,121.1836,41.1119,锦州市,百股街道,,31,12,11,3,2,99,,80,80,5,11,1,2,0.6,0.7
2024-08-05T1200,1770A,121.1178,41.1222,锦州市,天安街道,,28,11,15,10,9,88,,67,67,7,12,5,5,0.8,0.8
2024-08-05T1200,1771A,121.1303,41.1386,锦州市,北湖公园,,30,29,17,9,18,96,,71,71,6,10,3,3,0.8,0.8
2024-08-05T1200,2160A,112.85,35.5051,晋城市,自来水公司,颗粒物(PM10),51,52,33,24,13,140,,56,56,17,23,14,8,1.5,1.1
2024-08-05T1200,2161A,112.8318,35.4936,晋城市,白云商贸,颗粒物(PM10),52,54,36,19,13,133,,58,58,18,23,10,7,1.2,1.1
2024-08-05T1200,2162A,112.8508,35.4887,晋城市,市环保局,,42,42,32,22,14,133,,58,58,20,25,13,8,1.2,1
2024-08-05T1200,2163A,112.8676,35.4897,晋城市,技术学院,,,33,32,22,15,128,,48,48,,27,13,8,,1.1
2024-08-05T1200,2165A,112.8453,35.546,晋城市,白马寺,,,,,,,,,,,,,,,,
2024-08-05T1200,3620A,112.8271,35.4828,晋城市,泽州一中,,50,50,32,22,12,126,,52,52,15,22,12,9,1.1,0.9
2024-08-05T1200,2171A,112.7532,37.6945,晋中市,锦纶小区,,38,34,36,7,12,119,,69,69,15,16,10,8,0.5,0.5
2024-08-05T1200,2173A,112.7249,37.7067,晋中市,南都小区,,36,27,34,11,22,115,,68,68,22,16,11,8,0.9,0.7
2024-08-05T1200,2174A,112.6991,37.6982,晋中市,榆次区政府,,41,41,35,18,20,110,,60,60,26,16,13,8,0.9,0.5
2024-08-05T1200,2865A,112.7195,37.6828,晋中市,榆次三中,,37,31,32,7,11,118,,68,68,18,14,13,9,0.9,0.6
2024-08-05T1200,2439A,112.2014,31.0481,荆门市,竹园小学,,39,39,26,23,14,117,,57,57,12,11,13,11,0.6,0.5
2024-08-05T1200,2440A,112.1969,30.9891,荆门市,掇刀,,43,43,29,23,12,121,,58,58,18,15,7,7,0.5,0.5
2024-08-05T1200,2441A,112.2213,31.0386,荆门市,石化一小,,39,35,26,24,10,123,,59,59,10,12,20,15,0.6,0.6
2024-08-05T1200,3012A,112.1849,31.0362,荆门市,西山林语,,46,46,24,18,14,116,,60,60,12,8,8,7,0.5,0.6
2024-08-05T1200,3547A,112.1632,31.0138,荆门市,龙泉中学南校,,35,35,25,24,13,112,,55,55,11,11,13,10,0.6,0.6
2024-08-05T1200,1844A,112.2494,30.3197,荆州市,市图书馆,,25,18,14,9,13,80,,52,52,7,9,6,6,0.5,0.5
2024-08-05T1200,1845A,112.2008,30.3544,荆州市,市委党校,,26,15,17,10,14,83,,54,54,5,7,6,6,0.5,0.5
2024-08-05T1200,3194A,112.2747,30.3122,荆州市,管委会,,25,,15,11,13,80,,56,56,6,9,6,6,0.4,0.4
2024-08-05T1200,3548A,112.1655,30.3364,荆州市,学苑路,,,21,21,12,13,79,,51,51,8,9,,6,0.6,0.6
2024-08-05T1200,2342A,117.3102,29.3867,景德镇市,王港中学,,,,,,,,,,,,,,,,
2024-08-05T1200,2343A,117.2117,29.2933,景德镇市,老干部活动中心,,36,31,36,15,21,113,,51,51,7,15,12,14,0.3,0.3
2024-08-05T1200,2344A,117.1894,29.2789,景德镇市,兽医站,,38,17,30,14,19,120,,54,54,7,20,15,20,0.2,0.3
2024-08-05T1200,2345A,117.1547,29.2617,景德镇市,台达陶瓷,,40,40,40,22,24,102,,56,56,14,20,32,64,0.4,0.3
2024-08-05T1200,2346A,117.2461,29.2956,景德镇市,陶研所,,44,44,42,13,19,139,,70,70,10,14,6,6,0.4,0.4
2024-08-05T1200,1803A,115.9872,29.6815,九江市,十里,,42,32,26,29,18,95,,66,66,4,14,8,9,0.6,0.6
2024-08-05T1200,1804A,115.9584,29.7046,九江市,茅山头,,32,22,25,22,19,98,,76,76,13,14,10,8,0.5,0.5
2024-08-05T1200,1805A,115.9877,29.7295,九江市,西园,,32,23,26,19,16,100,,60,60,21,27,12,13,0.5,0.8
2024-08-05T1200,1806A,116.0172,29.6547,九江市,五七二七厂,,37,27,17,23,16,118,,73,73,14,12,12,10,0.3,0.5
2024-08-05T1200,1808A,115.9114,29.6038,九江市,综合工业园,,39,24,29,18,21,122,,83,83,2,12,11,13,0.7,0.8
2024-08-05T1200,1809A,116.0721,29.7535,九江市,石化总厂,,45,45,36,27,22,129,,86,86,11,13,9,12,0.7,0.7
2024-08-05T1200,1810A,115.9773,29.5698,九江市,庐山气象台,,30,28,18,21,17,95,,94,94,2,2,6,21,1.0,0.6
2024-08-05T1200,3190A,116.0254,29.6994,九江市,外国语学校,,44,33,24,25,18,139,,87,87,13,15,14,13,0.7,0.6
2024-08-05T1200,2658A,98.5061,39.7443,酒泉市,仓门街子站,,41,41,44,9,13,115,,81,81,2,15,8,32,0.2,0.5
2024-08-05T1200,2659A,98.4989,39.7256,酒泉市,油田生活基地,,42,41,45,29,17,115,,83,83,7,19,8,18,0.3,0.5
2024-08-05T1200,2698A,76.0072,39.4467,喀什地区,巡警大队,颗粒物(PM10),115,180,115,33,28,76,,32,32,24,30,5,5,0.5,0.5
2024-08-05T1200,2699A,75.9755,39.4694,喀什地区,吾办,颗粒物(PM10),97,143,108,61,45,65,,27,27,27,26,4,4,0.7,0.7
2024-08-05T1200,4027A,75.9483,39.4689,喀什地区,老干局,颗粒物(PM10),112,173,121,39,33,72,,23,23,24,25,4,4,0.5,0.6
2024-08-05T1200,1824A,114.3389,34.7781,开封市,肿瘤医院,,35,26,32,3,7,112,,39,39,6,10,5,4,0.5,0.6
2024-08-05T1200,1826A,114.2885,34.7965,开封市,世纪星幼儿园,,,29,28,,14,119,,44,44,5,10,2,2,0.4,0.3
2024-08-05T1200,3147A,114.3438,34.8106,开封市,龙亭公园,,49,49,26,15,10,109,,39,39,9,16,4,2,0.5,0.4
2024-08-05T1200,3210A,114.3644,34.7964,开封市,汴京公园,,37,32,28,16,14,116,,43,43,9,16,3,3,0.4,0.4
2024-08-05T1200,3473A,114.2485,34.8306,开封市,技师学院,,,,31,,11,,,69,,,17,,5,,0.4
2024-08-05T1200,3592A,114.4644,34.7556,开封市,祥符区生态环境局,,32,21,33,12,15,100,,37,37,7,20,4,4,0.3,0.4
2024-08-05T1200,1951A,84.895,45.6094,克拉玛依市,长征新村,,33,30,30,9,7,105,,83,83,5,8,7,7,0.2,0.2
2024-08-05T1200,1952A,84.8988,45.5893,克拉玛依市,南林小区,,38,38,29,8,14,90,,66,61,12,18,8,10,0.1,0.2
2024-08-05T1200,1954A,84.905,44.3396,克拉玛依市,独山子区,,33,29,27,3,11,105,,101,97,8,9,8,10,0.2,0.6
2024-08-05T1200,1955A,85.6979,46.098,克拉玛依市,乌尔禾区商贸楼,,31,31,26,3,6,97,,83,72,19,11,6,6,0.4,0.4
2024-08-05T1200,3612A,85.1045,45.6899,克拉玛依市,白碱滩区新站,,34,22,26,11,14,106,,101,101,7,6,8,8,0.1,0.1
2024-08-05T1200,2697A,76.1454,39.7142,克孜勒苏柯尔克孜自治州,市人民政府,颗粒物(PM10),96,142,83,52,44,77,,47,45,16,13,12,9,0.5,0.5
2024-08-05T1200,3665A,76.1658,39.7157,克孜勒苏柯尔克孜自治州,克州文化中心,颗粒物(PM10),86,121,90,56,46,85,,69,65,12,10,17,15,0.6,0.5
2024-08-05T1200,1450A,102.8204,24.8886,昆明市,呈贡新区,,19,12,19,7,8,60,,34,34,6,13,7,6,0.7,0.7
2024-08-05T1200,1451A,102.6251,24.9608,昆明市,西山森林公园,,,,,,,,,,,,,,,,
2024-08-05T1200,1452A,102.7252,25.0902,昆明市,龙泉镇,,16,,20,8,9,50,,21,21,11,14,6,6,0.6,0.6
2024-08-05T1200,1453A,102.7266,25.0375,昆明市,东风东路,,17,10,16,6,10,52,,32,32,11,15,4,4,0.4,0.5
2024-08-05T1200,1454A,102.6742,25.0669,昆明市,金鼎山,,20,14,21,3,11,62,,23,23,9,14,2,3,0.3,0.4
2024-08-05T1200,1455A,102.6644,25.0401,昆明市,碧鸡广场,,21,11,21,6,12,65,,30,30,5,15,4,4,0.4,0.5
2024-08-05T1200,3179A,102.7494,25.0119,昆明市,官渡区博物馆,,20,7,14,6,8,63,,34,34,3,10,5,7,0.3,0.4
2024-08-05T1200,3375A,102.8017,24.8336,昆明市,青年创业园,,18,11,15,9,10,56,,18,18,4,15,3,6,0.4,0.5
2024-08-05T1200,3550A,102.7997,24.9786,昆明市,昆明学院,,20,9,16,3,9,62,,37,37,4,13,4,5,0.4,0.5
2024-08-05T1200,3551A,102.5967,24.6736,昆明市,晋宁区生态环境分局,,20,11,15,3,7,63,,36,36,3,7,4,3,0.3,0.4
2024-08-05T1200,3552A,102.6678,24.9856,昆明市,云天化总部,,20,10,16,7,11,64,,32,32,4,11,6,6,0.4,0.4
2024-08-05T1200,1456A,91.1319,29.6514,拉萨市,八廓街,,29,10,8,3,7,90,,75,75,10,9,5,6,0.2,0.2
2024-08-05T1200,1457A,91.1221,29.6747,拉萨市,市环保局,,27,6,7,6,6,86,,71,71,10,10,7,7,0.2,0.2
2024-08-05T1200,1458A,91.0874,29.6475,拉萨市,区监测站,,28,8,8,8,6,88,,72,71,6,10,7,7,0.2,0.1
2024-08-05T1200,1459A,91.1774,29.6541,拉萨市,西藏大学,,27,7,8,6,6,85,,74,73,10,7,11,12,0.4,0.4
2024-08-05T1200,1460A,90.9798,29.6588,拉萨市,区辐射站,,28,9,8,7,6,87,,75,73,9,10,8,8,0.2,0.2
2024-08-05T1200,1461A,91.0834,29.6292,拉萨市,拉萨火车站,,27,7,7,6,6,84,,74,72,10,8,8,9,0.1,0.2
2024-08-05T1200,2520A,109.2203,23.7256,来宾市,来宾技工学校,,33,33,31,20,15,68,,40,40,7,15,14,18,0.8,0.7
2024-08-05T1200,3535A,109.1781,23.7297,来宾市,兴宾区政府,,23,22,23,16,13,62,,28,28,3,12,5,5,0.7,0.7
2024-08-05T1200,4002A,109.2416,23.7461,来宾市,中南小学,,32,32,29,16,15,75,,45,45,6,13,10,12,0.6,0.6
2024-08-05T1200,1476A,103.631,36.1031,兰州市,兰炼宾馆,,43,40,43,30,28,109,,64,64,12,25,20,27,0.4,0.5
2024-08-05T1200,1477A,104.1373,35.9454,兰州市,榆中兰大校区,,,,,,,,,,,,,,,,
2024-08-05T1200,1478A,103.8412,36.0726,兰州市,生物制品所,,32,28,39,9,22,101,,37,37,31,34,18,10,1.1,0.6
2024-08-05T1200,1479A,103.831,36.0464,兰州市,铁路设计院,,42,42,43,19,23,96,,40,39,35,42,18,13,0.7,0.6
2024-08-05T1200,3186A,103.7158,36.1058,兰州市,教育港,颗粒物(PM10),57,63,59,36,29,145,,47,47,29,28,28,13,1.1,0.4
2024-08-05T1200,3241A,103.7439,36.0842,兰州市,百合公园,,46,46,44,22,20,114,,35,35,30,43,22,14,0.8,0.6
2024-08-05T1200,3242A,103.9611,35.998,兰州市,和平,,39,33,37,11,19,123,,80,74,12,17,12,10,0.4,0.4
2024-08-05T1200,3245A,103.6633,36.533,兰州新区,新区管委会,,38,38,39,18,23,98,,57,57,11,15,24,15,0.4,0.4
2024-08-05T1200,3246A,103.6975,36.4789,兰州新区,舟曲中学,,33,29,27,14,11,105,,66,66,8,18,19,18,0.5,0.5
2024-08-05T1200,1067A,116.6708,39.5111,廊坊市,药材公司,,40,26,22,10,8,126,,85,85,8,10,1,3,0.3,0.3
2024-08-05T1200,1068A,116.7214,39.5589,廊坊市,开发区,,41,16,20,3,11,130,,87,87,2,6,3,3,0.3,0.3
2024-08-05T1200,1070A,116.7244,39.5269,廊坊市,北华航天学院,,42,41,33,3,10,134,,94,94,5,8,1,2,0.3,0.3
2024-08-05T1200,2919A,116.7022,39.5453,廊坊市,河北工业大学,,39,24,28,9,11,122,,86,86,4,8,1,3,0.3,0.3
2024-08-05T1200,2535A,103.7723,29.5462,乐山市,花湖湾,,,16,22,16,17,57,,18,18,,8,27,5,0.4,0.5
2024-08-05T1200,2536A,103.7627,29.5844,乐山市,牛耳桥,,22,19,23,13,18,69,,27,27,9,12,2,2,0.5,0.5
2024-08-05T1200,2537A,103.7508,29.6006,乐山市,市第三水厂,,25,15,23,13,13,77,,31,31,7,12,2,2,0.4,0.4
2024-08-05T1200,2538A,103.7571,29.5664,乐山市,市监测站,,24,18,24,11,14,76,,28,28,6,11,2,2,0.5,0.6
2024-08-05T1200,3361A,103.7311,29.5628,乐山市,理工大学,,26,19,22,14,16,81,,30,30,5,10,4,4,0.5,0.5
2024-08-05T1200,2598A,100.2143,26.8576,丽江市,西南郊,,,,,,,,,,,,,,,,
2024-08-05T1200,2599A,100.2497,26.8802,丽江市,丽江古城,,20,13,12,8,9,64,,61,61,8,8,10,10,0.7,0.7
2024-08-05T1200,2600A,100.2203,26.8906,丽江市,市中心,,21,18,11,10,8,65,,67,67,11,8,8,8,0.6,0.6
2024-08-05T1200,1267A,119.914,28.4514,丽水市,监测站大楼,,46,30,23,14,10,147,,71,71,8,13,3,3,0.5,0.5
2024-08-05T1200,1268A,119.93,28.4586,丽水市,莲都小学,,41,35,24,16,11,131,,67,67,6,14,4,4,0.3,0.3
2024-08-05T1200,1269A,119.879,28.4231,丽水市,余庄前,,48,30,23,14,12,151,,58,58,9,12,3,3,0.3,0.3
2024-08-05T1200,1173A,119.176,34.5885,连云港市,市环境监测站,,,56,32,14,17,100,,82,82,8,10,,6,,0.5
2024-08-05T1200,3000A,119.3581,34.6972,连云港市,德源药业,,34,34,29,12,17,71,,81,81,21,21,1,2,0.5,0.5
2024-08-05T1200,3007A,119.178,34.844,连云港市,新城一中,,33,33,32,7,22,73,,84,84,8,12,2,2,0.7,0.8
2024-08-05T1200,3008A,119.3608,34.7519,连云港市,胡沟管理处,,36,36,26,9,16,84,,87,84,13,15,6,6,0.8,0.7
2024-08-05T1200,3009A,119.1478,34.5911,连云港市,矿山设计院,颗粒物(PM10),51,51,32,12,18,83,,80,80,7,10,4,4,0.6,0.7
2024-08-05T1200,3434A,119.2413,34.6539,连云港市,工贸学校,,40,40,30,19,21,104,,94,94,10,9,5,5,0.8,0.9
2024-08-05T1200,3664A,119.4172,34.7341,连云港市,连云街道,,31,31,31,14,19,87,,106,100,20,11,3,2,0.5,0.5
2024-08-05T1200,2571A,102.3431,27.8099,凉山彝族自治州,青龙寺,,,30,24,19,15,90,,33,33,,5,5,3,0.8,0.7
2024-08-05T1200,2572A,102.2721,27.8415,凉山彝族自治州,邛海宾馆,,36,28,22,25,16,86,,40,40,8,9,10,9,0.9,0.8
2024-08-05T1200,2573A,102.2625,27.898,凉山彝族自治州,西昌市政府,,42,42,26,26,18,77,,47,36,11,12,10,10,0.9,0.8
2024-08-05T1200,2574A,102.2685,27.8851,凉山彝族自治州,凉山州政府,,43,43,27,27,17,86,,53,42,8,13,8,8,0.7,0.7
2024-08-05T1200,2575A,102.237,27.8914,凉山彝族自治州,长安,,35,34,25,24,17,74,,36,30,16,16,8,11,0.9,0.8
2024-08-05T1200,2212A,123.2,41.1953,辽阳市,宏伟区,,25,12,10,7,5,78,,67,67,4,5,5,5,0.5,0.5
2024-08-05T1200,2213A,123.1683,41.2495,辽阳市,新华园,,23,19,13,12,7,73,,61,61,7,8,4,5,0.5,0.6
2024-08-05T1200,2214A,123.2354,41.2639,辽阳市,滨河路,,19,12,9,6,5,59,,52,52,10,8,7,7,0.4,0.4
2024-08-05T1200,2215A,123.149,41.2991,辽阳市,铁西工业园,,23,15,15,3,7,72,,51,51,9,9,7,7,0.9,0.8
2024-08-05T1200,2227A,125.1358,42.8845,辽源市,环保局,,20,6,17,3,8,63,,54,52,4,4,6,6,0.6,0.6
2024-08-05T1200,3239A,125.0764,42.9078,辽源市,银鹰制药,,18,6,19,3,10,57,,54,46,8,8,4,4,0.8,0.8
2024-08-05T1200,1625A,115.9848,36.4372,聊城市,区政府,颗粒物(PM10),72,94,20,24,9,87,,57,57,9,10,8,7,0.5,0.5
2024-08-05T1200,2878A,116.0072,36.4343,聊城市,聊大东校,,29,22,22,13,15,92,,57,57,5,8,7,6,0.5,0.5
2024-08-05T1200,3200A,115.9819,36.4978,聊城市,监控中心,,30,28,23,14,11,95,,52,52,3,7,5,5,0.5,0.5
2024-08-05T1200,3513A,116.0445,36.4361,聊城市,九州社区,,27,24,26,6,9,84,,49,49,6,9,6,5,0.6,0.6
2024-08-05T1200,4018A,116.0567,36.4608,聊城市,星美广场,,27,24,26,12,11,85,,51,51,7,8,4,7,0.6,0.5
2024-08-05T1200,2632A,94.3681,29.6376,林芝市,林芝监测站,,9,6,6,3,5,28,,18,16,2,3,8,8,0.3,0.3
2024-08-05T1200,2633A,94.3616,29.6616,林芝市,林芝人民医院,,11,11,9,3,4,28,,13,13,6,6,6,6,0.2,0.2
2024-08-05T1200,2603A,100.0781,23.8982,临沧市,市环保局,,,15,12,8,18,49,,31,31,8,8,5,4,,0.3
2024-08-05T1200,2604A,100.0894,23.8822,临沧市,市气象局,,14,14,12,9,9,43,,24,24,8,8,4,4,0.4,0.3
2024-08-05T1200,1733A,111.5531,36.0783,临汾市,临钢医院,,48,46,48,22,20,153,,93,93,6,13,10,10,0.8,1
2024-08-05T1200,1734A,111.5028,36.0714,临汾市,技工学校,臭氧1小时,67,44,48,16,19,173,,106,106,12,17,9,6,0.9,1.1
2024-08-05T1200,1736A,111.5018,36.0855,临汾市,市委,,,,41,21,23,180,,107,107,12,17,,9,0.8,1.3
2024-08-05T1200,3018A,111.505,36.1014,临汾市,唐尧大酒店,臭氧1小时,55,34,42,13,18,164,,97,97,9,15,10,6,0.9,1.1
2024-08-05T1200,3668A,111.5036,36.0414,临汾市,城南,臭氧1小时,62,56,47,17,20,169,,103,103,10,16,9,6,0.8,1.1
2024-08-05T1200,2667A,103.2069,35.5993,临夏回族自治州,环保局,,43,39,47,30,26,129,,67,67,4,8,10,9,0.4,0.4
2024-08-05T1200,2668A,103.2417,35.6057,临夏回族自治州,建设大厦,,39,26,48,10,29,124,,73,73,4,8,6,4,0.3,0.4
2024-08-05T1200,1618A,118.3429,35.0532,临沂市,沂河小区,,15,,35,9,20,47,,57,55,14,13,5,10,0.3,0.4
2024-08-05T1200,1619A,118.295,35.0583,临沂市,鲁南制药厂,,13,,31,8,18,40,,60,57,23,16,4,6,0.2,0.4
2024-08-05T1200,1620A,118.2794,34.9976,临沂市,新光毛纺厂,,15,,34,8,17,45,,53,53,8,14,4,8,0.5,0.7
2024-08-05T1200,1621A,118.3956,35.0888,临沂市,河东保险公司,,17,6,30,3,13,53,,56,56,10,17,5,9,0.3,0.5
2024-08-05T1200,3370A,118.3564,35.0215,临沂市,十里堡居委,,16,6,27,3,17,49,,54,54,10,17,5,9,0.4,0.5
2024-08-05T1200,3496A,118.3604,35.1084,临沂市,南坊新区,,16,6,30,3,12,50,,63,58,12,13,6,9,0.5,0.7
2024-08-05T1200,3860A,118.3920,35.0300,临沂市,皇山花园小区,,16,6,31,3,19,49,,51,51,9,16,7,10,0.2,0.5
2024-08-05T1200,1870A,109.4856,24.3895,柳州市,柳东小学,,25,15,25,12,15,79,,40,40,7,14,8,10,0.6,0.6
2024-08-05T1200,1871A,109.4157,24.3277,柳州市,环保监测站,,34,34,35,20,21,80,,43,43,7,14,8,7,0.7,0.7
2024-08-05T1200,1872A,109.389,24.341,柳州市,河西水厂,,31,31,34,11,17,79,,39,39,4,15,6,7,0.7,0.8
2024-08-05T1200,1873A,109.4311,24.2921,柳州市,市四中,,30,30,31,16,18,85,,46,46,5,14,6,6,0.5,0.6
2024-08-05T1200,1874A,109.4006,24.3631,柳州市,市九中,,26,23,38,8,21,82,,42,42,9,18,6,6,0.7,0.8
2024-08-05T1200,1875A,109.4958,24.3134,柳州市,古亭山,,25,21,26,16,13,78,,39,39,6,22,6,8,0.7,0.7
2024-08-05T1200,3402A,109.5422,24.3996,柳州市,市二中,,24,24,30,8,11,76,,41,41,7,14,8,8,0.5,0.6
2024-08-05T1200,2307A,116.5079,31.737,六安市,监测大楼,,32,17,19,11,12,101,,78,78,5,8,6,6,0.4,0.5
2024-08-05T1200,2308A,116.4738,31.7643,六安市,皖西学院,,33,22,22,10,12,103,,74,74,1,6,4,4,0.4,0.4
2024-08-05T1200,2309A,116.4996,31.7905,六安市,朝阳厂,,34,23,18,12,12,106,,74,74,1,6,10,9,0.3,0.3
2024-08-05T1200,2310A,116.5567,31.7886,六安市,开发区,,32,18,15,16,16,101,,63,63,2,6,7,7,0.3,0.4
2024-08-05T1200,2576A,104.8,26.5892,六盘水市,窑上,,,,,,,,,,,,,,,,
2024-08-05T1200,2577A,104.83,26.5917,六盘水市,黄土坡,,20,12,12,7,7,64,,48,48,6,6,7,5,0.2,0.3
2024-08-05T1200,2578A,104.89,26.5939,六盘水市,水钢,,21,9,13,7,5,65,,51,51,5,4,7,6,0.3,0.3
2024-08-05T1200,2579A,104.8475,26.5894,六盘水市,民中,,,,10,,5,65,,51,51,6,6,7,6,,0.4
2024-08-05T1200,2580A,104.9544,26.5506,六盘水市,双水,,17,17,12,3,7,45,,46,44,3,3,6,6,0.3,0.3
2024-08-05T1200,2335A,117.0189,25.1181,龙岩市,龙岩师专,,,,,,,,,,,,,,,,
2024-08-05T1200,2336A,117.0217,25.1033,龙岩市,龙岩市监测站,,32,24,22,12,10,101,,44,44,10,11,6,7,0.3,0.3
2024-08-05T1200,2337A,117.0258,25.0661,龙岩市,闽西职业技术学院,,35,17,24,14,12,109,,43,43,6,12,4,7,0.4,0.4
2024-08-05T1200,2338A,117.0196,25.0306,龙岩市,龙岩学院,,38,27,23,16,10,119,,48,48,8,10,6,4,0.3,0.2
2024-08-05T1200,2665A,105.0822,33.3261,陇南市,汉王镇固水子,,,,,,,,,,,,,,,,
2024-08-05T1200,2885A,104.9339,33.3826,陇南市,滨江中学,,38,38,34,6,7,67,,44,40,10,8,5,5,0.7,0.6
2024-08-05T1200,3247A,104.955,33.371,陇南市,市总工会,,34,34,24,7,5,65,,48,42,8,5,4,4,0.5,0.5
2024-08-05T1200,2487A,111.9589,27.8901,娄底市,电视发射台,,27,27,26,14,12,77,,39,39,5,6,8,7,0.4,0.5
2024-08-05T1200,2488A,111.9975,27.725,娄底市,市监测站,,40,40,33,13,21,75,,41,41,2,11,8,11,0.6,0.8
2024-08-05T1200,2489A,112.0194,27.7314,娄底市,市委党校,,22,16,28,12,18,68,,36,36,1,5,8,10,0.5,0.5
2024-08-05T1200,2490A,111.9561,27.7569,娄底市,涟钢,,33,33,37,13,19,50,,30,30,18,19,4,5,0.4,0.7
2024-08-05T1200,2491A,111.9892,27.7044,娄底市,市政府,,22,20,25,11,16,70,,41,41,4,9,6,6,0.4,0.4
2024-08-05T1200,1893A,105.4324,28.9634,泸州市,九狮山,,32,,23,3,18,102,,45,45,18,15,5,6,0.5,0.4
2024-08-05T1200,1894A,105.4427,28.9063,泸州市,小市上码头,,36,28,31,21,17,114,,58,58,10,12,7,6,0.4,0.4
2024-08-05T1200,1895A,105.4241,28.8573,泸州市,兰田宪桥,,38,21,25,20,27,121,,54,54,14,13,6,5,0.3,0.3
2024-08-05T1200,1896A,105.4379,28.8833,泸州市,市环监站,,35,19,32,15,24,111,,57,57,11,13,9,8,0.4,0.4
2024-08-05T1200,3490A,105.3617,28.7703,泸州市,纳溪区环保局,,,31,26,28,21,128,,45,45,,14,4,4,0.7,0.4
2024-08-05T1200,2183A,111.1406,37.5211,吕梁市,环保局,,,,48,13,15,125,,64,64,,20,4,5,,0.5
2024-08-05T1200,2185A,111.1297,37.5136,吕梁市,自来水公司,,45,45,49,21,14,132,,65,65,11,18,3,4,0.6,0.4
2024-08-05T1200,2867A,111.1283,37.51,吕梁市,马茂庄小学,,41,38,52,17,15,129,,68,68,15,23,2,3,0.6,0.5
2024-08-05T1200,1812A,112.3931,34.6516,洛阳市,市委党校,,42,41,23,29,15,130,,48,48,7,11,6,7,0.8,0.7
2024-08-05T1200,1814A,112.4657,34.6871,洛阳市,豫西宾馆,,45,39,28,19,10,144,,60,60,5,11,6,6,0.5,0.4
2024-08-05T1200,1815A,112.494,34.6886,洛阳市,河南林校,,43,33,19,18,12,136,,56,56,6,13,3,2,0.7,0.6
2024-08-05T1200,1816A,112.3844,34.623,洛阳市,开发区管委会,,40,31,19,19,11,127,,47,47,8,11,3,3,0.5,0.4
2024-08-05T1200,1817A,112.4267,34.6258,洛阳市,市委新办公区,,41,27,18,24,13,131,,56,56,2,6,6,6,0.6,0.5
2024-08-05T1200,3340A,112.6005,34.6326,洛阳市,伊滨,颗粒物(PM10),51,52,33,19,15,134,,50,50,6,13,6,5,0.7,0.6
2024-08-05T1200,3341A,112.4951,34.6332,洛阳市,中移产业园,,42,35,24,23,14,132,,53,53,4,10,7,8,0.7,0.6
2024-08-05T1200,3593A,112.5736,34.8993,洛阳市,吉利监测站,颗粒物(PM10),60,70,36,42,17,134,,57,57,6,9,4,4,0.7,0.7
2024-08-05T1200,3635A,112.3677,34.662,洛阳市,河科大西苑校区,,42,31,14,13,6,133,,47,47,4,8,7,7,0.7,0.6
2024-08-05T1200,3636A,112.4388,34.6781,洛阳市,英才小学,,43,33,21,23,14,137,,56,56,2,8,8,8,0.9,0.8
2024-08-05T1200,2399A,114.051,33.5699,漯河市,三五一五工厂,,24,17,16,3,8,74,,53,53,13,10,9,7,0.5,0.4
2024-08-05T1200,2400A,114.0055,33.5698,漯河市,漯河大学,,27,18,18,3,6,86,,56,56,9,7,11,8,0.3,0.3
2024-08-05T1200,2401A,114.0138,33.5828,漯河市,市水利局,,26,24,16,3,4,83,,53,53,10,8,8,6,0.5,0.4
2024-08-05T1200,2402A,114.0261,33.5698,漯河市,市广电局,,26,15,12,3,6,81,,55,55,8,6,6,4,0.5,0.4
2024-08-05T1200,3478A,113.9749,33.5664,漯河市,市图书馆,,29,29,21,7,6,84,,59,59,10,11,8,6,0.3,0.3
2024-08-05T1200,3479A,114.0967,33.5906,漯河市,召陵区卫健委,,23,14,22,9,9,73,,48,48,7,11,2,3,0.4,0.4
2024-08-05T1200,1798A,118.5092,31.6837,马鞍山市,湖东路四小,,42,42,31,8,14,111,,80,80,4,13,6,7,0.6,0.6
2024-08-05T1200,1799A,118.5024,31.6449,马鞍山市,开发区,,49,42,35,20,15,156,,80,80,9,19,4,4,0.7,0.7
2024-08-05T1200,1800A,118.5228,31.7231,马鞍山市,慈湖,,,28,23,23,17,120,,76,76,10,20,7,6,,0.7
2024-08-05T1200,1802A,118.6245,31.7241,马鞍山市,濮塘,,40,34,23,21,15,127,,76,76,4,10,5,5,0.8,0.7
2024-08-05T1200,3633A,118.4918,31.6809,马鞍山市,雨山,,39,28,29,16,15,122,,83,83,1,10,7,8,0.7,0.7
2024-08-05T1200,1686A,111.0286,21.4688,茂名市,电白南海,,30,29,30,17,20,94,,60,60,6,7,9,10,0.6,0.6
2024-08-05T1200,1687A,110.9294,21.6533,茂名市,茂石化七小,,,22,25,14,20,88,,50,50,,9,12,19,0.4,0.4
2024-08-05T1200,1688A,110.9107,21.6687,茂名市,健康路,,29,14,25,12,13,90,,50,50,6,10,15,22,0.5,0.6
2024-08-05T1200,1689A,110.8592,21.6828,茂名市,高岭,,39,,31,27,23,85,,41,41,10,13,17,23,0.5,0.6
2024-08-05T1200,3450A,111.01,21.5165,茂名市,电白水东,,29,22,25,19,18,91,,59,59,5,8,8,12,0.7,0.7
2024-08-05T1200,2539A,104.0308,30.0478,眉山市,黑龙滩水库,,27,27,31,3,11,71,,37,37,2,2,4,4,0.2,0.2
2024-08-05T1200,2540A,103.8416,30.0874,眉山市,气象局,,31,17,20,17,11,99,,51,51,6,8,8,9,0.3,0.2
2024-08-05T1200,3137A,103.8578,30.0744,眉山市,市委党校,,31,14,11,7,6,99,,58,58,6,6,10,10,0.7,0.6
2024-08-05T1200,3148A,103.8291,30.0564,眉山市,区人社局,,32,20,18,14,7,101,,56,56,11,10,12,11,0.5,0.4
2024-08-05T1200,1690A,116.1231,24.3284,梅州市,梅江月梅,,36,22,26,11,9,114,,38,38,6,12,11,9,0.4,0.4
2024-08-05T1200,1691A,116.0797,24.2719,梅州市,梅县新城,,38,38,22,14,13,116,,43,43,11,10,6,4,0.6,0.5
2024-08-05T1200,1692A,116.1248,24.2654,梅州市,环境监控中心,,39,35,32,16,13,122,,44,44,13,15,5,11,0.5,0.5
2024-08-05T1200,3315A,116.1233,24.2991,梅州市,梅龙,,39,19,21,12,16,124,,48,48,8,10,10,9,0.7,0.7
2024-08-05T1200,1878A,104.7778,31.4741,绵阳市,富乐山,,29,22,16,20,12,81,,56,56,3,3,8,8,0.5,0.5
2024-08-05T1200,1879A,104.7563,31.4535,绵阳市,市人大,,33,33,19,21,12,90,,63,63,11,9,11,7,0.5,0.4
2024-08-05T1200,1880A,104.6697,31.4668,绵阳市,高新区自来水公司,,29,29,17,14,7,90,,66,66,11,7,5,6,0.5,0.4
2024-08-05T1200,1881A,104.7287,31.5075,绵阳市,三水厂,,27,21,16,17,12,86,,63,62,6,7,4,4,0.6,0.5
2024-08-05T1200,3491A,104.69,31.5322,绵阳市,西科大附属小学,,28,26,21,19,13,84,,60,60,8,11,6,8,0.3,0.4
2024-08-05T1200,3492A,104.5648,31.5343,绵阳市,安州区旅游局,,32,27,12,22,12,74,,70,70,15,10,4,7,0.5,0.5
2024-08-05T1200,1784A,129.61,44.561,牡丹江市,环保大楼,,15,14,14,9,10,45,,35,35,2,4,7,7,0.3,0.3
2024-08-05T1200,1785A,129.6115,44.5782,牡丹江市,文化广场,,14,,16,9,18,44,,32,32,3,6,6,6,0.3,0.3
2024-08-05T1200,1786A,129.5904,44.5963,牡丹江市,第一医院,,14,11,13,9,11,43,,34,34,4,6,5,5,0.4,0.4
2024-08-05T1200,1787A,129.6364,44.6075,牡丹江市,机车工厂,,14,9,18,6,14,42,,30,30,3,6,5,5,0.3,0.3
2024-08-05T1200,1788A,129.6386,44.5462,牡丹江市,第一中学,,15,9,19,6,10,48,,34,34,3,6,5,5,0.4,0.3
2024-08-05T1200,2531A,105.0703,29.61,内江市,市监测站,,32,,13,22,17,76,,35,35,9,10,8,8,0.2,0.3
2024-08-05T1200,2532A,105.0717,29.5947,内江市,东兴区政府,,21,20,19,10,6,65,,39,39,9,11,7,7,0.7,0.7
2024-08-05T1200,2533A,105.0653,29.5817,内江市,内江二中,,25,18,17,10,12,77,,41,41,6,12,3,3,0.5,0.5
2024-08-05T1200,2534A,105.0406,29.5822,内江市,内江日报社,,26,,18,18,14,74,,32,32,8,14,10,7,0.5,0.5
2024-08-05T1200,2628A,92.0657,31.4846,那曲市,那曲监测站,,30,23,50,14,14,93,,68,68,6,7,6,7,0.3,0.4
2024-08-05T1200,3128A,92.0506,31.4797,那曲市,那曲会议中心,,33,10,24,3,8,104,,80,80,4,7,4,4,0.5,0.3
2024-08-05T1200,1290A,115.8931,28.6843,南昌市,省外办,颗粒物(PM10),66,82,54,27,27,125,,73,73,27,21,14,12,0.7,0.4
2024-08-05T1200,1291A,115.8886,28.7003,南昌市,省林业公司,,44,44,44,22,22,127,,71,71,12,19,8,7,0.5,0.4
2024-08-05T1200,1292A,115.8126,28.7442,南昌市,林科所,,48,48,36,29,21,130,,70,70,14,28,14,11,0.3,0.3
2024-08-05T1200,1294A,115.8518,28.687,南昌市,建工学校,颗粒物(PM10),53,55,39,14,20,125,,71,71,6,13,13,13,0.6,0.6
2024-08-05T1200,1295A,115.8921,28.6424,南昌市,象湖,,45,34,32,17,21,142,,75,75,8,15,6,5,0.7,0.7
2024-08-05T1200,1296A,115.7423,28.7996,南昌市,武术学校,,28,25,34,8,20,88,,42,42,9,6,2,3,0.7,0.6
2024-08-05T1200,1298A,115.9314,28.6842,南昌市,省站,,47,47,40,30,25,135,,75,75,16,18,12,10,0.6,0.5
2024-08-05T1200,3046A,115.9084,28.6062,南昌市,机电学校,,45,45,46,22,22,128,,67,67,7,12,13,11,0.7,0.7
2024-08-05T1200,3690A,115.9721,28.7031,南昌市,外国语学校,,50,50,46,27,21,140,,68,68,9,13,8,3,0.4,0.3
2024-08-05T1200,1905A,106.056,30.8064,南充市,西山风景区,,21,,16,11,10,66,,20,20,5,6,3,3,0.1,0.1
2024-08-05T1200,1906A,106.0789,30.8023,南充市,南充市委,,31,31,21,11,9,80,,30,30,8,11,5,5,0.3,0.3
2024-08-05T1200,1907A,106.1031,30.8217,南充市,南充炼油厂,,25,25,23,3,10,78,,29,29,5,9,4,4,0.1,0.2
2024-08-05T1200,1908A,106.1064,30.7856,南充市,高坪区监测站,,24,18,17,3,8,74,,31,31,8,11,4,4,0.1,0.1
2024-08-05T1200,1909A,106.0642,30.7636,南充市,嘉陵区环保局,,25,24,18,9,11,79,,27,27,9,14,4,4,0.3,0.3
2024-08-05T1200,1910A,106.1087,30.8388,南充市,市环境监测站,,24,20,23,14,11,75,,27,27,5,10,4,4,0.5,0.6
2024-08-05T1200,1151A,118.8086,32.1065,南京市,迈皋桥,,50,25,21,17,12,158,,81,81,19,25,9,7,0.4,0.5
2024-08-05T1200,1152A,118.7538,32.0551,南京市,草场门,,47,29,26,17,11,150,,76,76,5,14,10,8,0.6,0.6
2024-08-05T1200,1153A,118.7794,32.0745,南京市,山西路,颗粒物(PM10),73,95,30,17,12,167,,81,81,2,6,3,4,0.5,0.4
2024-08-05T1200,1154A,118.7752,32.0023,南京市,中华门,,36,24,24,17,11,113,,73,73,1,12,4,4,0.5,0.5
2024-08-05T1200,1155A,118.8109,32.0309,南京市,瑞金路,,38,24,23,17,12,121,,72,72,1,6,5,4,0.4,0.4
2024-08-05T1200,1156A,118.7997,32.0754,南京市,玄武湖,,36,31,29,12,9,114,,68,68,3,10,4,4,0.7,0.7
2024-08-05T1200,1157A,118.6414,32.0931,南京市,浦口,,42,22,28,8,14,134,,69,69,4,12,8,8,0.3,0.4
2024-08-05T1200,1158A,118.7356,31.9996,南京市,奥体中心,,39,23,26,22,17,122,,71,71,6,19,9,10,0.5,0.4
2024-08-05T1200,1159A,118.9125,32.1028,南京市,仙林大学城,,,39,25,24,13,164,,89,89,,16,10,9,0.7,0.6
2024-08-05T1200,3422A,118.8436,31.9198,南京市,江宁彩虹桥,,49,28,29,14,12,155,,84,84,2,13,3,4,0.8,0.6
2024-08-05T1200,3423A,119.0138,31.6494,南京市,溧水永阳,,40,27,19,18,15,127,,90,90,3,7,3,4,0.5,0.5
2024-08-05T1200,3424A,118.879,31.3302,南京市,高淳老职中,,48,34,28,23,15,152,,84,84,17,17,6,4,0.6,0.5
2024-08-05T1200,3427A,118.8554,32.3578,南京市,六合雄州,,41,30,37,12,19,129,,76,76,2,17,8,9,0.8,0.9
2024-08-05T1200,1401A,108.3103,22.7881,南宁市,二十一中,,24,23,21,12,13,75,,44,44,9,9,4,4,0.7,0.8
2024-08-05T1200,1402A,108.3141,22.8528,南宁市,北湖,,25,21,22,11,13,79,,45,45,5,9,3,3,0.5,0.6
2024-08-05T1200,1403A,108.3206,22.8225,南宁市,市监测站,,35,35,22,10,12,79,,44,44,10,11,6,6,0.6,0.6
2024-08-05T1200,1404A,108.3829,22.8037,南宁市,大自然花园,,28,22,20,10,11,88,,48,48,10,8,5,5,0.5,0.6
2024-08-05T1200,1405A,108.4394,22.7904,南宁市,仙葫,,,,,,,,,,,,,,,,
2024-08-05T1200,1406A,108.2397,22.8467,南宁市,区农职院,,26,26,26,13,13,74,,40,40,5,10,6,5,0.7,0.7
2024-08-05T1200,1407A,108.3275,22.735,南宁市,英华嘉园,,37,37,25,16,11,84,,41,41,12,14,6,6,0.5,0.5
2024-08-05T1200,1408A,108.2257,22.7757,南宁市,沙井镇街道办,,,16,35,11,14,73,,31,31,5,18,,3,,0.5
2024-08-05T1200,3401A,108.4834,22.7618,南宁市,红星社区,,27,20,22,13,12,84,,39,39,9,9,5,5,0.5,0.6
2024-08-05T1200,2331A,118.0966,26.6761,南平市,茫荡山,,,,,,,,,,,,,,,,
2024-08-05T1200,2332A,118.1681,26.6369,南平市,南平市监测站,,31,16,18,11,9,98,,58,58,6,7,5,5,0.4,0.4
2024-08-05T1200,2333A,118.1825,26.6489,南平市,南平铝业有限公司,,31,18,18,10,9,97,,57,57,4,7,6,6,0.5,0.5
2024-08-05T1200,2334A,118.1756,26.6272,南平市,南平七中,,31,26,20,10,10,98,,54,54,4,6,5,5,0.4,0.4
2024-08-05T1200,1168A,120.9098,31.9663,南通市,狼山街道,臭氧1小时,95,31,26,17,13,196,,93,93,17,32,10,8,0.6,0.6
2024-08-05T1200,1169A,120.86,32.0005,南通市,虹桥,臭氧1小时,100,34,30,22,14,200,,97,97,12,25,8,7,0.8,0.7
2024-08-05T1200,1170A,120.87,32.02,南通市,城中,臭氧1小时,60,37,35,16,13,168,,89,89,7,24,6,7,1.0,0.9
2024-08-05T1200,1171A,120.94,31.93,南通市,星湖花园,臭氧1小时,123,47,27,28,11,246,,96,96,26,33,12,7,0.9,0.6
2024-08-05T1200,1172A,120.81,32.0417,南通市,紫琅学院,臭氧1小时,121,51,32,30,13,242,,106,106,23,40,15,10,1.9,0.8
2024-08-05T1200,3291A,121.067,32.062,南通市,通州监测站,臭氧1小时,64,34,30,17,12,171,,77,77,7,11,6,4,0.7,0.6
2024-08-05T1200,3432A,120.9348,31.9883,南通市,环境教育馆,臭氧1小时,121,46,35,26,15,242,,92,92,23,34,13,10,0.6,0.5
2024-08-05T1200,2404A,112.5224,33.0122,南阳市,瓦房庄,,37,37,28,16,10,95,,45,45,13,15,6,5,0.5,0.4
2024-08-05T1200,2405A,112.5003,32.9735,南阳市,汉画馆,,30,30,27,19,14,86,,40,40,11,18,5,4,0.5,0.5
2024-08-05T1200,2406A,112.5573,33.027,南阳市,气象站,,41,41,25,12,10,93,,44,44,11,13,5,5,0.5,0.4
2024-08-05T1200,2407A,112.5481,32.9689,南阳市,理工学院,,,25,22,,10,88,,35,35,,16,6,2,0.5,0.4
2024-08-05T1200,4008A,112.5234,32.9922,南阳市,卧龙区政府,,35,35,28,19,14,83,,38,38,18,20,4,4,0.7,0.6
2024-08-05T1200,1234A,121.8358,29.911,宁波市,区环保大楼,,26,20,30,9,17,82,,57,57,7,18,7,8,0.5,0.6
2024-08-05T1200,1235A,121.56,29.82,宁波市,万里学院,,40,32,34,17,20,128,,77,77,7,11,7,8,0.7,0.7
2024-08-05T1200,1236A,121.713,29.9572,宁波市,龙赛医院,,35,28,32,14,15,109,,73,73,9,18,7,9,0.5,0.7
2024-08-05T1200,1239A,121.633,29.7733,宁波市,钱湖水厂,,37,25,26,16,16,116,,75,75,5,6,6,6,0.6,0.7
2024-08-05T1200,1240A,121.5856,29.8635,宁波市,太古小学,,35,23,31,11,16,112,,73,73,4,9,6,7,0.8,0.9
2024-08-05T1200,1241A,121.524,29.8674,宁波市,市环境监测中心,,44,21,29,10,14,138,,84,84,8,13,5,5,0.6,0.6
2024-08-05T1200,2871A,121.6147,29.9017,宁波市,万里国际学校,,37,20,27,16,16,118,,82,82,6,10,6,7,0.5,0.5
2024-08-05T1200,3710A,121.5594,29.8975,宁波市,白沙活动中心,,,34,29,7,14,122,,76,76,,10,6,7,0.4,0.4
2024-08-05T1200,2339A,119.5001,26.6946,宁德市,金涵水库,,,,,,,,,,,,,,,,
2024-08-05T1200,2341A,119.5388,26.6612,宁德市,宁德市监测站,,43,43,32,17,21,110,,61,61,8,10,8,5,0.4,0.5
2024-08-05T1200,3209A,119.5231,26.6562,宁德市,宁德一中,,38,38,35,15,19,105,,58,58,12,9,7,6,0.6,0.7
2024-08-05T1200,2618A,98.8601,25.8567,怒江傈僳族自治州,州监测站,,18,16,15,12,11,44,,33,32,6,5,10,9,0.5,0.4
2024-08-05T1200,2619A,98.8546,25.8417,怒江傈僳族自治州,泸水一中,,14,14,9,3,5,37,,28,24,12,9,5,5,0.3,0.3
2024-08-05T1200,1888A,101.6891,26.571,攀枝花市,弄弄坪,,50,50,48,24,18,83,,39,39,16,16,17,14,1.1,0.8
2024-08-05T1200,1889A,101.5769,26.5928,攀枝花市,河门口,,32,32,32,22,21,93,,50,50,12,16,17,13,1.2,1.1
2024-08-05T1200,1890A,101.7169,26.585,攀枝花市,炳草岗,,37,37,39,24,20,83,,30,30,15,20,23,16,1.0,0.8
2024-08-05T1200,1891A,101.7369,26.5008,攀枝花市,仁和,颗粒物(PM10),58,65,27,39,19,105,,35,35,14,12,34,13,0.9,0.7
2024-08-05T1200,2835A,101.7227,26.567,攀枝花市,四十中小,,42,42,31,28,23,90,,45,45,17,21,26,19,1.3,1.3
2024-08-05T1200,1604A,122.0303,41.1489,盘锦市,开发区,,26,25,10,6,5,82,,66,64,8,11,6,6,0.5,0.6
2024-08-05T1200,1605A,122.0485,41.0883,盘锦市,兴隆台,,26,11,10,8,3,81,,61,60,10,15,4,4,0.1,0.2
2024-08-05T1200,1606A,121.8297,41.1028,盘锦市,新生街道,,29,28,11,6,4,91,,72,72,3,2,4,4,0.3,0.1
2024-08-05T1200,1832A,113.3257,33.742,平顶山市,新华旅馆,,26,25,33,18,21,74,,50,50,11,12,3,2,0.6,0.5
2024-08-05T1200,1833A,113.2919,33.737,平顶山市,规划设计院,,25,20,16,12,8,77,,50,50,13,13,6,6,0.8,0.7
2024-08-05T1200,1834A,113.182,33.774,平顶山市,平顶山工学院,,27,18,14,7,3,86,,48,48,6,8,6,5,0.7,0.6
2024-08-05T1200,3204A,113.3025,33.73,平顶山市,规划局,,22,19,14,10,10,69,,46,46,11,12,2,2,0.8,0.7
2024-08-05T1200,3594A,112.8867,33.9116,平顶山市,石龙区,,43,41,31,27,16,137,,43,43,15,15,22,13,1.2,0.5
2024-08-05T1200,2656A,106.6692,35.5461,平凉市,聚贤嘉苑,,33,29,27,15,12,105,,49,49,17,29,10,8,0.4,0.3
2024-08-05T1200,2657A,106.7021,35.5307,平凉市,博物馆,,39,39,42,9,8,104,,50,50,15,27,11,10,0.4,0.4
2024-08-05T1200,2347A,114.0997,27.5002,萍乡市,武功山,,24,10,8,3,6,76,,46,46,2,4,16,15,0.2,0.3
2024-08-05T1200,2348A,113.8385,27.6434,萍乡市,中医院,,29,25,33,19,19,92,,52,52,4,9,10,10,0.7,0.8
2024-08-05T1200,2349A,113.8493,27.6253,萍乡市,市政府车库,,43,,34,30,18,82,,52,52,1,7,15,13,0.5,0.6
2024-08-05T1200,2350A,113.8676,27.6435,萍乡市,市环保局,,40,40,32,21,23,88,,51,51,2,8,11,12,0.6,0.7
2024-08-05T1200,2351A,113.866,27.6198,萍乡市,安源区政府,,33,33,32,17,14,78,,49,49,2,8,11,10,0.4,0.4
2024-08-05T1200,2319A,119.0141,25.4325,莆田市,荔城区仓后路,颗粒物(PM10),53,55,44,34,25,129,,65,65,9,13,7,7,0.7,0.8
2024-08-05T1200,2320A,119.0015,25.4553,莆田市,莆田市监测站,颗粒物(PM10),57,64,41,37,24,133,,64,64,10,9,5,6,0.6,0.6
2024-08-05T1200,2321A,119.1119,25.4561,莆田市,涵江区六中,,37,32,40,24,23,116,,71,71,10,16,8,8,0.3,0.3
2024-08-05T1200,2322A,119.1013,25.3215,莆田市,秀屿区政府,,36,30,29,22,17,115,,84,84,6,8,6,6,0.7,0.6
2024-08-05T1200,2323A,118.981,25.4792,莆田市,东圳水库,,,,,,,,,,,,,,,,
2024-08-05T1200,2392A,115.0312,35.7636,濮阳市,环保局,,41,41,22,20,12,113,,65,65,8,11,5,4,0.5,0.5
2024-08-05T1200,2394A,115.0574,35.7609,濮阳市,油田运输公司,,39,31,20,27,13,120,,67,67,9,13,2,2,0.4,0.4
2024-08-05T1200,2395A,115.0866,35.7754,濮阳市,油田物探公司,,42,32,23,29,15,110,,60,60,2,5,2,2,0.4,0.4
2024-08-05T1200,3021A,115,35.7668,濮阳市,濮水河管理处,,40,29,22,28,17,87,,48,48,5,8,2,1,0.6,0.5
2024-08-05T1200,2601A,100.98,22.7633,普洱市,市环保局,,22,18,22,15,14,41,,27,27,5,5,4,5,0.4,0.4
2024-08-05T1200,2602A,100.9817,22.8322,普洱市,普洱第二中学,,22,22,21,11,11,39,,23,23,6,8,6,6,0.4,0.4
2024-08-05T1200,2262A,131.0518,45.8751,七台河市,新一中,,17,17,13,3,9,50,,36,36,9,9,8,10,1.4,1.3
2024-08-05T1200,3345A,131.0577,45.7879,七台河市,中波台,,13,,7,8,7,40,,25,25,15,14,11,11,0.4,0.4
2024-08-05T1200,3637A,131.0176,45.7761,七台河市,人民广场,,17,17,12,3,6,50,,34,34,8,9,9,9,0.3,0.3
2024-08-05T1200,3684A,130.8781,45.8222,七台河市,新建矿广场,,,27,22,7,12,43,,34,34,,16,,13,0.5,0.5
2024-08-05T1200,1779A,123.9305,47.3636,齐齐哈尔市,安居小区,,24,18,9,8,9,74,,68,63,10,13,7,8,0.6,0.6
2024-08-05T1200,1780A,123.9488,47.3386,齐齐哈尔市,中心广场,,28,28,12,3,4,76,,72,65,10,9,2,2,0.5,0.5
2024-08-05T1200,1781A,123.9483,47.3227,齐齐哈尔市,农牧车辆厂,,24,17,18,3,5,76,,72,65,9,7,8,8,0.2,0.2
2024-08-05T1200,1783A,123.945,47.2988,齐齐哈尔市,市环境监测站,,25,,8,9,7,79,,73,68,5,6,7,6,0.3,0.3
2024-08-05T1200,3662A,123.6333,47.2075,齐齐哈尔市,富区青少年活动中心,,23,18,15,3,10,73,,70,65,5,8,5,4,0.5,0.6
2024-08-05T1200,2591A,107.9783,26.5747,黔东南苗族侗族自治州,市环境监测站,,18,12,9,9,7,57,,40,40,5,9,3,3,0.4,0.4
2024-08-05T1200,2881A,107.8908,26.5311,黔东南苗族侗族自治州,凯里学院,,17,,9,8,6,53,,28,28,4,7,5,5,0.5,0.5
2024-08-05T1200,2593A,107.5228,26.2403,黔南布依族苗族自治州,小围寨,,16,9,8,3,1,51,,32,32,4,4,5,4,0.4,0.4
2024-08-05T1200,3538A,107.5175,26.2978,黔南布依族苗族自治州,沙坝,,17,17,11,9,4,51,,34,34,3,4,5,4,0.2,0.3
2024-08-05T1200,2589A,104.9022,25.0925,黔西南布依族苗族自治州,场坝街,,15,13,16,7,8,45,,36,36,3,3,4,4,0.2,0.2
2024-08-05T1200,2590A,104.8811,25.0992,黔西南布依族苗族自治州,坪东大道,,14,12,17,3,7,42,,34,34,2,2,4,4,0.1,0.1
2024-08-05T1200,2502A,108.6236,21.9667,钦州市,市环保站,,,19,24,9,6,72,,36,36,,15,6,7,0.6,0.6
2024-08-05T1200,2503A,108.6549,21.9481,钦州市,沙埠小学,,28,27,40,16,14,87,,33,33,10,19,9,5,1.2,0.7
2024-08-05T1200,2504A,108.5989,21.7431,钦州市,港区一小,,20,20,24,11,8,58,,41,41,6,9,8,8,0.5,0.5
2024-08-05T1200,3404A,108.5959,21.9633,钦州市,北职校,,22,16,30,9,11,68,,34,34,3,16,5,6,0.6,0.6
2024-08-05T1200,1042A,119.5134,39.8207,秦皇岛市,北戴河环保局,,42,42,22,3,5,110,,76,76,7,8,3,1,0.7,0.5
2024-08-05T1200,1043A,119.7493,40.0116,秦皇岛市,第一关,,48,48,31,28,21,119,,60,60,9,25,3,3,0.9,0.5
2024-08-05T1200,1044A,119.5897,39.9499,秦皇岛市,监测站,颗粒物(PM10),52,53,41,32,17,110,,68,68,10,14,3,3,1.2,0.8
2024-08-05T1200,1046A,119.5251,39.9041,秦皇岛市,建设大厦,,50,50,26,11,8,93,,61,61,8,10,2,2,1.2,0.7
2024-08-05T1200,3132A,119.610547,39.943889,秦皇岛市,文明里,,34,34,15,12,9,107,,67,67,10,8,1,2,0.7,0.5
2024-08-05T1200,1307A,120.6659,36.2403,青岛市,仰口,,41,7,24,3,16,98,,104,96,12,15,3,3,4.1,4
2024-08-05T1200,1310A,120.4134,36.0658,青岛市,市南区东部子站,,24,22,26,12,10,76,,74,69,16,7,6,7,0.5,0.6
2024-08-05T1200,1311A,120.3664,36.1032,青岛市,四方区子站,,25,22,33,7,19,80,,86,78,17,12,9,10,0.6,0.8
2024-08-05T1200,1312A,120.2994,36.054,青岛市,市南区西部子站,,41,41,35,3,14,75,,80,68,12,12,8,8,0.6,0.8
2024-08-05T1200,1313A,120.4581,36.0858,青岛市,崂山区子站,,23,14,30,3,12,73,,76,69,17,11,7,8,0.5,0.6
2024-08-05T1200,1314A,120.1983,35.9608,青岛市,黄岛区子站,,31,31,33,10,21,78,,80,74,31,19,7,8,0.6,0.8
2024-08-05T1200,1315A,120.3999,36.3083,青岛市,城阳区子站,,20,17,25,7,13,64,,76,71,23,15,6,8,0.5,0.6
2024-08-05T1200,1966A,120.0405,35.8735,青岛市,黄岛区4号,,22,17,32,3,20,68,,81,69,15,14,6,6,0.5,0.7
2024-08-05T1200,3362A,120.5014,36.4034,青岛市,即墨2号,,24,,25,12,16,75,,88,80,16,9,5,6,0.3,0.4
2024-08-05T1200,3642A,120.3503,36.0736,青岛市,市北区南部,,23,23,31,7,19,51,,65,53,14,8,5,5,0.7,0.8
2024-08-05T1200,3643A,120.3948,36.1805,青岛市,李沧区北部,,24,9,29,9,18,76,,86,75,25,16,8,8,0.5,0.5
2024-08-05T1200,1702A,113.0426,23.691,清远市,环保大楼,,34,32,39,18,21,108,,62,62,7,13,5,5,0.7,0.7
2024-08-05T1200,1703A,113.0208,23.7106,清远市,凤城街办,,48,48,39,30,23,117,,60,60,6,12,5,4,0.5,0.5
2024-08-05T1200,3025A,113.0477,23.6344,清远市,技师学院,,35,28,49,15,25,109,,59,59,4,17,7,7,0.2,0.2
2024-08-05T1200,3318A,112.9903,23.7403,清远市,清新太和,,48,48,35,22,19,109,,55,55,4,5,9,9,0.5,0.5
2024-08-05T1200,3455A,113.076,23.7198,清远市,清城东城,,49,49,39,27,25,143,,69,69,7,8,6,6,0.6,0.6
2024-08-05T1200,2661A,107.6325,35.7357,庆阳市,庆阳五中,,29,28,29,14,14,92,,91,90,6,8,5,4,0.4,0.4
2024-08-05T1200,2662A,107.6364,35.7067,庆阳市,市环保局,,28,25,21,9,14,89,,93,88,7,7,7,6,0.5,0.5
2024-08-05T1200,1916A,103.7897,25.5035,曲靖市,环境监测站,,20,17,20,14,10,37,,30,30,8,11,1,2,0.8,0.7
2024-08-05T1200,1917A,103.8,25.5364,曲靖市,烟厂办公区,,20,20,15,6,10,37,,37,34,12,10,4,4,0.5,0.4
2024-08-05T1200,3376A,103.7947,25.462,曲靖市,南苑二区,,26,26,13,14,8,39,,36,34,10,10,6,6,0.7,0.7
2024-08-05T1200,3377A,103.7444,25.5261,曲靖市,曲靖师范学院,,26,,16,18,10,44,,26,26,9,12,5,7,0.4,0.4
2024-08-05T1200,1264A,118.8692,28.9398,衢州市,环保大楼,,42,26,26,14,15,132,,54,54,10,17,5,5,0.5,0.5
2024-08-05T1200,1265A,118.8709,28.9666,衢州市,实验学校,,39,20,28,16,16,124,,53,53,9,17,10,9,0.6,0.5
2024-08-05T1200,1266A,118.8621,28.9808,衢州市,衢州学院,,42,21,27,13,16,134,,54,54,7,19,3,2,0.4,0.4
2024-08-05T1200,1611A,118.5819,24.9117,泉州市,涂山街,细颗粒物(PM2.5),57,53,37,40,20,152,,88,88,9,11,4,5,0.7,0.6
2024-08-05T1200,1612A,118.5972,24.8978,泉州市,津头埔,颗粒物(PM10),63,76,38,37,19,167,,88,88,16,15,3,4,0.8,0.6
2024-08-05T1200,1613A,118.6663,24.9424,泉州市,万安,细颗粒物(PM2.5),54,51,33,38,18,162,,79,79,9,12,3,3,0.6,0.5
2024-08-05T1200,1614A,118.6117,24.9604,泉州市,清源山,,,,,,,,,,,,,,,,
2024-08-05T1200,3529A,118.6333,24.9264,泉州市,城华南路,颗粒物(PM10),56,62,36,37,19,153,,73,73,12,16,3,3,0.6,0.4
2024-08-05T1200,2626A,88.8876,29.2718,日喀则市,日喀则监测站,,26,6,4,3,2,82,,78,77,4,5,5,5,0.4,0.4
2024-08-05T1200,3726A,88.8781,29.2426,日喀则市,林业技术推广中心,,24,6,3,3,4,76,,74,73,6,6,6,6,0.4,0.4
2024-08-05T1200,1659A,119.471,35.4209,日照市,监测站,,19,9,32,3,19,58,,50,50,15,19,8,9,0.5,0.7
2024-08-05T1200,1660A,119.523,35.4216,日照市,市政府广场,,,7,43,3,23,61,,56,52,,23,8,10,,0.8
2024-08-05T1200,1661A,119.5587,35.4044,日照市,港务局,,21,9,48,3,19,67,,63,63,8,20,12,11,0.3,0.5
2024-08-05T1200,3507A,119.5328,35.4625,日照市,职业技术学院,,21,12,41,3,22,66,,57,57,14,22,7,10,0.5,0.8
2024-08-05T1200,3604A,119.3266,35.1044,日照市,岚山环保分局,,30,29,41,3,17,95,,106,106,9,15,8,8,0.4,0.6
2024-08-05T1200,1835A,111.1922,34.7752,三门峡市,市政府,,29,13,25,8,12,90,,42,42,5,10,8,8,0.4,0.5
2024-08-05T1200,1836A,111.1587,34.7942,三门峡市,开发区,,31,14,31,14,20,97,,46,46,6,13,9,9,0.4,0.5
2024-08-05T1200,1838A,111.143,34.7955,三门峡市,风景区,,,,,,,,,,,,,,,,
2024-08-05T1200,3039A,111.1911,34.7829,三门峡市,三门峡市第一小学,,29,29,26,10,13,88,,43,43,4,8,8,8,0.4,0.5
2024-08-05T1200,3598A,111.1,34.7167,三门峡市,富达温泉假日酒店,,35,17,24,9,15,112,,44,44,9,13,16,15,0.5,0.5
2024-08-05T1200,2324A,117.6211,26.2625,三明市,三钢,,40,40,27,19,16,121,,56,56,15,11,16,9,1.9,1
2024-08-05T1200,2325A,117.635,26.2714,三明市,三明二中,,39,35,25,14,16,122,,56,56,21,10,21,5,2.3,0.8
2024-08-05T1200,2326A,117.6028,26.2378,三明市,三元区政府,,41,41,29,16,12,118,,54,54,11,12,6,3,1.2,0.7
2024-08-05T1200,2327A,117.7275,26.3108,三明市,洋溪,,,,,,,,,,,,,,,,
2024-08-05T1200,1876A,109.5078,18.2489,三亚市,河东子站,,20,10,19,9,11,64,,38,38,3,5,2,2,0.4,0.4
2024-08-05T1200,1877A,109.4964,18.2681,三亚市,河西子站,,20,10,16,9,12,62,,32,32,1,6,2,3,0.2,0.2
2024-08-05T1200,3540A,109.7348,18.3443,三亚市,君悦子站,,21,21,18,14,10,63,,34,34,10,9,1,2,0.4,0.3
2024-08-05T1200,2624A,91.7608,29.2313,山南市,山南监测站,,23,8,5,3,3,73,,70,70,6,4,7,7,0.3,0.3
2024-08-05T1200,2625A,91.7706,29.2436,山南市,山南人民医院,,24,11,10,3,5,74,,70,70,6,7,6,6,0.3,0.3
2024-08-05T1200,1674A,116.6794,23.3667,汕头市,金平子站,臭氧1小时,77,79,46,36,19,181,,67,67,15,20,12,13,0.9,1
2024-08-05T1200,1675A,116.7244,23.3633,汕头市,龙湖子站,颗粒物(PM10),57,63,39,25,19,126,,56,56,15,21,11,9,0.9,0.8
2024-08-05T1200,1676A,116.7258,23.2775,汕头市,濠江子站,,,79,34,36,18,166,,66,66,18,21,9,8,,0.9
2024-08-05T1200,1677A,116.7519,23.4714,汕头市,澄海子站,颗粒物(PM10),54,57,36,26,18,107,,44,44,12,18,5,6,0.7,0.7
2024-08-05T1200,1678A,116.6092,23.2539,汕头市,潮阳子站,颗粒物(PM10),51,51,36,14,14,143,,67,67,7,11,8,7,0.8,0.8
2024-08-05T1200,3444A,116.454,23.2684,汕头市,潮南峡山,,48,35,37,23,20,151,,60,60,9,7,7,5,0.9,0.6
2024-08-05T1200,3624A,116.4069,23.2533,汕头市,潮南子站,,44,44,39,20,22,134,,61,61,7,11,5,5,0.6,0.6
2024-08-05T1200,1693A,115.3653,22.775,汕尾市,市环保局,,47,47,26,23,16,124,,64,64,15,13,6,6,0.7,0.6
2024-08-05T1200,1694A,115.3706,22.7898,汕尾市,市政府,,44,44,24,29,12,117,,53,53,11,10,7,6,0.6,0.4
2024-08-05T1200,1695A,115.3622,22.7925,汕尾市,新城中学,颗粒物(PM10),55,59,29,22,13,114,,56,56,10,8,6,6,0.6,0.4
2024-08-05T1200,2645A,109.9154,33.8715,商洛市,监测站,,23,11,23,6,6,71,,23,23,9,14,9,11,0.5,0.5
2024-08-05T1200,3045A,109.9643,33.8471,商洛市,商州区中学,,22,22,28,8,7,66,,23,23,9,15,9,8,0.7,0.6
2024-08-05T1200,2408A,115.6702,34.4285,商丘市,环境监测站,,21,11,26,6,13,65,,52,52,5,4,3,3,0.5,0.4
2024-08-05T1200,2409A,115.6458,34.4045,商丘市,粮食局,,20,13,28,3,11,61,,51,51,8,5,5,4,0.7,0.6
2024-08-05T1200,2410A,115.6293,34.3948,商丘市,睢阳区环保局,,17,13,28,3,12,53,,45,45,8,6,4,4,0.4,0.4
2024-08-05T1200,3171A,115.6071,34.4465,商丘市,梁园区档案局,,21,21,26,6,14,52,,47,47,10,5,5,5,0.5,0.5
2024-08-05T1200,1141A,121.4,31.238,上海市,普陀,,50,41,39,22,17,158,,82,82,12,17,6,6,0.4,0.4
2024-08-05T1200,1142A,121.478,31.2036,上海市,十五厂,,45,34,36,28,22,144,,84,84,11,17,8,8,0.4,0.4
2024-08-05T1200,1143A,121.467,31.3008,上海市,虹口,臭氧1小时,62,39,38,27,20,169,,86,86,13,16,7,7,0.6,0.5
2024-08-05T1200,1144A,121.412,31.1654,上海市,徐汇上师大,,45,35,40,24,20,142,,81,81,16,22,5,5,0.6,0.6
2024-08-05T1200,1145A,121.536,31.2659,上海市,杨浦四漂,臭氧1小时,63,42,46,24,20,170,,87,87,14,19,7,7,0.9,0.9
2024-08-05T1200,1147A,121.425,31.2261,上海市,静安监测站,,49,34,38,33,28,156,,84,84,14,19,6,7,0.4,0.4
2024-08-05T1200,1148A,121.703,31.1907,上海市,浦东川沙,,44,26,39,24,24,138,,75,75,14,18,6,6,0.6,0.5
2024-08-05T1200,1149A,121.533,31.2284,上海市,浦东新区监测站,,47,28,36,24,20,148,,77,77,13,17,5,5,0.5,0.5
2024-08-05T1200,1150A,121.577,31.2071,上海市,浦东张江,,43,34,47,29,23,135,,69,69,20,24,5,5,0.6,0.5
2024-08-05T1200,3265A,121.4316,31.3322,上海市,宝山庙行,臭氧1小时,82,41,35,22,18,185,,92,92,14,17,6,6,0.7,0.6
2024-08-05T1200,3266A,121.8791,31.4662,上海市,崇明上实东滩,,27,13,23,9,16,86,,69,69,11,15,7,8,0.6,0.6
2024-08-05T1200,3268A,121.3162,31.2838,上海市,嘉定南翔,臭氧1小时,65,39,41,21,19,172,,79,79,17,25,9,7,0.5,0.5
2024-08-05T1200,3269A,121.3359,30.7456,上海市,金山新城,臭氧1小时,65,33,32,24,20,172,,91,91,11,11,10,8,0.7,0.6
2024-08-05T1200,3270A,121.4996,31.0739,上海市,闵行浦江,,41,24,33,24,22,131,,77,77,10,15,8,6,0.6,0.5
2024-08-05T1200,3271A,121.2886,31.1663,上海市,青浦徐泾,臭氧1小时,65,39,37,29,20,172,,94,94,12,18,7,7,0.6,0.6
2024-08-05T1200,3272A,121.2186,31.0378,上海市,松江图书馆,臭氧1小时,78,33,35,27,22,182,,95,95,12,16,5,6,0.7,0.6
2024-08-05T1200,3273A,121.3902,31.2059,上海市,长宁仙霞,,47,35,38,26,19,149,,83,83,14,20,9,9,0.6,0.6
2024-08-05T1200,3274A,121.7965,31.0507,上海市,浦东惠南,,40,,33,25,21,126,,68,68,13,13,7,7,0.7,0.7
2024-08-05T1200,3544A,121.4891,30.925,上海市,奉贤南桥新城,,46,29,33,23,21,146,,77,77,12,15,9,7,0.6,0.6
2024-08-05T1200,2381A,118.005,28.4572,上饶市,百草园,,44,28,25,11,15,138,,57,57,8,9,5,4,0.1,0.3
2024-08-05T1200,2382A,117.9756,28.4436,上饶市,市监测站,,49,36,30,16,15,154,,67,67,11,13,6,7,0.6,0.6
2024-08-05T1200,2383A,117.9519,28.4628,上饶市,凤凰光学,,43,34,26,16,13,137,,60,60,5,10,7,8,0.9,0.9
2024-08-05T1200,3413A,118.1953,28.4401,上饶市,广丰区教体局,,39,27,25,15,12,123,,67,67,6,7,8,13,0.6,0.6
2024-08-05T1200,3685A,117.897,28.4315,上饶市,双创科技城,,41,34,29,16,12,129,,62,62,8,10,6,8,0.7,0.6
2024-08-05T1200,1669A,113.5824,24.7733,韶关市,市八中,颗粒物(PM10),58,66,47,40,28,142,,70,70,6,10,11,13,0.6,0.6
2024-08-05T1200,1671A,113.5917,24.7972,韶关市,园林处,,44,,37,30,32,140,,71,71,5,12,11,12,0.7,0.7
2024-08-05T1200,1672A,113.6735,24.7791,韶关市,韶关学院,颗粒物(PM10),55,59,45,28,29,163,,64,64,10,16,18,14,1.0,0.8
2024-08-05T1200,1673A,113.5971,24.6863,韶关市,曲江监测站,臭氧1小时,65,58,49,38,28,172,,76,76,13,15,17,13,1.1,0.7
2024-08-05T1200,3622A,113.5556,24.8082,韶关市,碧湖山庄,细颗粒物(PM2.5),54,47,44,38,28,136,,64,64,5,8,12,13,0.9,0.8
2024-08-05T1200,2462A,111.5239,27.3033,邵阳市,市水土所,,29,29,28,15,16,80,,38,38,3,5,5,5,0.4,0.5
2024-08-05T1200,2463A,111.4733,27.2317,邵阳市,市一中,,31,31,31,3,15,86,,54,54,4,8,8,8,0.4,0.4
2024-08-05T1200,2464A,111.5283,27.2442,邵阳市,市化工厂,,29,21,26,14,15,92,,48,48,6,8,10,9,0.5,0.5
2024-08-05T1200,2465A,111.4503,27.2537,邵阳市,市罐头厂,,33,33,31,16,18,82,,47,47,4,9,7,12,0.3,0.4
2024-08-05T1200,2466A,111.4328,27.2272,邵阳市,市环保局,,29,29,29,11,19,79,,49,49,3,7,8,14,0.3,0.4
2024-08-05T1200,1247A,120.6053,29.9928,绍兴市,城东开发委,,,42,40,26,24,170,,84,84,9,18,7,6,,0.7
