timepoint,stationcode,longitude,latitude,area,positionname,primarypollutant,aqi,pm10,pm10_24h,pm2_5,pm2_5_24h,o3,o3_24h,o3_8h,o3_8h_24h,no2,no2_24h,so2,so2_24h,co,co_24h
2023-10-02T14:00:00,1001A,116.3621,39.8784,北京市,万寿西宫,颗粒物(PM10),55,59,48,25,18,95,95,46,46,18,34,4,2,0.5,0.3
2023-10-02T14:00:00,1002A,116.2202,40.2915,北京市,定陵,颗粒物(PM10),60,69,27,35,11,81,66,37,37,12,5,1,2,0.4,0.2
2023-10-02T14:00:00,1003A,116.4174,39.9289,北京市,东四,颗粒物(PM10),57,63,49,28,19,96,96,53,53,22,33,3,2,0.5,0.4
2023-10-02T14:00:00,1004A,116.4072,39.8863,北京市,天坛,颗粒物(PM10),54,57,41,27,18,99,99,47,47,22,33,4,3,0.5,0.4
2023-10-02T14:00:00,1005A,116.462,39.9365,北京市,农展馆,颗粒物(PM10),56,62,53,29,20,94,94,38,38,22,42,8,4,0.5,0.4
2023-10-02T14:00:00,1006A,116.3392,39.9295,北京市,官园,颗粒物(PM10),53,56,48,24,19,100,100,58,58,23,37,5,2,0.5,0.4
2023-10-02T14:00:00,1007A,116.2878,39.9611,北京市,海淀万柳,颗粒物(PM10),52,53,45,24,18,91,89,45,45,20,29,2,3,0.5,0.4
2023-10-02T14:00:00,1008A,116.6636,40.135,北京市,顺义新城,颗粒物(PM10),67,84,45,42,18,99,78,46,46,39,27,4,3,0.5,0.3
2023-10-02T14:00:00,1009A,116.6275,40.3275,北京市,怀柔镇,颗粒物(PM10),63,75,26,37,14,92,86,58,58,30,13,5,1,0.4,0.2
2023-10-02T14:00:00,1010A,116.2296,40.217,北京市,昌平镇,颗粒物(PM10),66,81,31,37,13,99,78,53,48,9,6,3,2,0.4,0.3
2023-10-02T14:00:00,1011A,116.3966,39.9821,北京市,奥体中心,,46,46,43,24,18,81,81,38,38,19,34,2,3,0.4,0.3
2023-10-02T14:00:00,1012A,116.184,39.9136,北京市,古城,颗粒物(PM10),56,61,43,26,16,93,79,46,46,25,32,2,3,0.6,0.5
2023-10-02T14:00:00,1015A,117.1444,39.1661,天津市,勤俭道,,46,35,70,17,34,145,145,87,87,9,36,10,11,0.4,0.6
2023-10-02T14:00:00,1017A,117.237,39.1082,天津市,大直沽八号路,,44,42,72,19,32,140,140,82,82,13,42,7,7,0.5,0.7
2023-10-02T14:00:00,1018A,117.202,39.0927,天津市,前进道,,44,30,67,16,35,139,139,77,77,14,50,9,9,0.4,0.6
2023-10-02T14:00:00,1019A,117.1837,39.2133,天津市,淮河道,,50,41,64,20,32,158,158,98,98,12,41,8,8,0.2,0.4
2023-10-02T14:00:00,1021A,117.307,39.0877,天津市,跃进路,,49,39,76,19,35,156,156,83,83,11,47,9,9,0.5,0.6
2023-10-02T14:00:00,1023A,117.707,39.0343,天津市,第四大街,,44,44,55,25,28,131,131,80,80,16,45,8,10,0.4,0.6
2023-10-02T14:00:00,1024A,117.457,38.8394,天津市,永明路,,44,24,47,13,27,140,140,77,77,10,45,7,7,0.4,0.5
2023-10-02T14:00:00,1026A,117.764,39.1587,天津市,汉北路,颗粒物(PM10),54,58,48,31,24,129,129,73,73,19,41,11,10,0.8,1
2023-10-02T14:00:00,1027A,117.157,38.9194,天津市,团泊洼,,42,22,63,15,38,134,134,84,84,14,42,6,7,0.5,0.7
2023-10-02T14:00:00,1029A,114.4422,38.0444,石家庄市,职工医院,颗粒物(PM10),51,51,47,27,17,127,106,54,54,26,47,14,7,0.6,0.6
2023-10-02T14:00:00,1030A,114.6063,38.0266,石家庄市,高新区,颗粒物(PM10),55,59,56,21,20,125,119,50,50,14,39,7,4,0.7,0.7
2023-10-02T14:00:00,1031A,114.4898,38.1328,石家庄市,西北水源,颗粒物(PM10),54,58,49,28,25,121,110,50,50,28,40,10,5,0.7,0.7
2023-10-02T14:00:00,1032A,114.4586,38.0058,石家庄市,西南高教,颗粒物(PM10),57,64,52,19,16,128,103,50,50,23,46,12,5,0.7,0.7
2023-10-02T14:00:00,1033A,114.5331,38.0178,石家庄市,世纪公园,颗粒物(PM10),51,52,44,24,27,124,112,48,48,24,44,12,6,0.7,0.7
2023-10-02T14:00:00,1034A,114.509,38.0457,石家庄市,人民会堂,颗粒物(PM10),53,56,51,29,18,131,114,56,56,21,36,13,9,0.6,0.7
2023-10-02T14:00:00,1035A,114.3524,37.8911,石家庄市,封龙山,颗粒物(PM10),61,72,44,32,21,122,107,114,101,25,15,14,6,1.0,0.9
2023-10-02T14:00:00,1037A,118.131,39.6363,唐山市,雷达站,,45,45,55,20,23,140,140,72,72,7,39,4,4,0.3,0.6
2023-10-02T14:00:00,1038A,118.1725,39.6334,唐山市,物资局,,44,39,58,19,23,140,140,71,71,9,48,6,10,0.3,0.5
2023-10-02T14:00:00,1040A,118.1705,39.6506,唐山市,十二中,颗粒物(PM10),72,94,56,19,23,133,133,67,67,9,48,3,5,0.3,0.6
2023-10-02T14:00:00,1041A,118.1869,39.622,唐山市,小山,,,,,,,,,,,,,,,,
2023-10-02T14:00:00,1042A,119.5134,39.8207,秦皇岛市,北戴河环保局,颗粒物(PM10),52,54,39,16,12,134,134,85,85,29,34,13,16,0.6,0.7
2023-10-02T14:00:00,1043A,119.7493,40.0116,秦皇岛市,第一关,,48,43,30,20,16,151,151,82,82,25,63,13,10,0.6,0.5
2023-10-02T14:00:00,1044A,119.5897,39.9499,秦皇岛市,监测站,,44,44,43,22,23,139,139,73,73,16,43,14,20,0.7,0.6
2023-10-02T14:00:00,1046A,119.5251,39.9041,秦皇岛市,建设大厦,颗粒物(PM10),51,51,56,24,33,130,130,71,71,11,38,8,16,0.5,0.5
2023-10-02T14:00:00,1048A,114.5302,36.6116,邯郸市,东污水处理厂,,42,42,44,12,20,104,92,56,56,15,39,5,8,0.3,0.6
2023-10-02T14:00:00,1049A,114.4918,36.5713,邯郸市,矿院,,32,10,40,8,17,107,100,48,48,16,44,3,4,0.0,0.2
2023-10-02T14:00:00,1050A,114.484,36.6133,邯郸市,丛台公园,,31,24,30,14,16,108,97,56,56,10,26,6,6,0.2,0.4
2023-10-02T14:00:00,1051A,115.493,38.8632,保定市,游泳馆,颗粒物(PM10),54,57,79,29,44,138,135,61,61,18,43,9,8,0.6,0.6
2023-10-02T14:00:00,1052A,115.5213,38.8959,保定市,华电二区,,50,50,60,27,35,127,126,50,50,12,33,7,7,0.6,0.5
2023-10-02T14:00:00,1053A,115.4713,38.9108,保定市,接待中心,颗粒物(PM10),54,58,78,31,35,124,120,51,46,17,37,10,8,0.3,0.2
2023-10-02T14:00:00,1054A,115.4612,38.8416,保定市,地表水厂,颗粒物(PM10),59,68,92,25,37,127,122,53,53,18,50,10,9,0.3,0.3
2023-10-02T14:00:00,1056A,115.5086,38.8639,保定市,监测站,,48,48,76,15,43,137,134,58,58,20,42,10,10,0.6,0.6
2023-10-02T14:00:00,1057A,114.8883,40.8336,张家口市,人民公园,颗粒物(PM10),51,52,31,3,4,104,80,62,62,28,16,4,3,0.5,0.4
2023-10-02T14:00:00,1059A,114.8687,40.8042,张家口市,五金库,,46,46,28,15,7,108,91,68,68,23,18,6,2,0.5,0.5
2023-10-02T14:00:00,1060A,114.8902,40.762,张家口市,世纪豪园,,27,27,30,9,9,103,83,64,64,21,19,8,3,0.3,0.2
2023-10-02T14:00:00,1061A,114.8916,40.8661,张家口市,北泵房,,,50,28,16,11,110,88,67,67,,15,10,7,0.4,0.2
2023-10-02T14:00:00,1062A,117.9531,40.9081,承德市,铁路,,26,13,19,2,6,82,82,36,36,27,32,11,8,0.5,0.4
2023-10-02T14:00:00,1063A,117.9392,40.9763,承德市,中国银行,,33,19,25,5,7,105,105,47,47,14,26,9,6,0.7,0.5
2023-10-02T14:00:00,1064A,117.9503,40.928,承德市,开发区,,32,30,26,7,12,100,100,45,45,18,25,9,6,0.6,0.4
2023-10-02T14:00:00,1065A,117.8051,40.9655,承德市,文化中心,,30,26,33,6,8,96,96,48,48,16,36,5,4,0.6,0.4
2023-10-02T14:00:00,1066A,117.9268,41.0026,承德市,离宫,,32,24,18,8,13,110,100,54,54,8,15,4,2,0.3,0.2
2023-10-02T14:00:00,1067A,116.6708,39.5111,廊坊市,药材公司,颗粒物(PM10),56,62,68,25,28,129,129,52,52,19,34,6,4,0.5,0.4
2023-10-02T14:00:00,1068A,116.7214,39.5589,廊坊市,开发区,颗粒物(PM10),59,67,62,33,35,128,128,53,53,22,39,6,3,0.4,0.5
2023-10-02T14:00:00,1070A,116.7244,39.5269,廊坊市,北华航天学院,颗粒物(PM10),54,58,66,24,30,131,131,62,62,21,40,9,7,0.4,0.5
2023-10-02T14:00:00,1071A,116.8842,38.2991,沧州市,沧县城建局,,46,40,56,15,27,147,147,81,81,14,40,8,10,0.4,0.4
2023-10-02T14:00:00,1072A,116.8584,38.3254,沧州市,电视转播站,,48,40,48,22,24,151,151,86,86,12,34,12,12,0.5,0.6
2023-10-02T14:00:00,1073A,116.8709,38.3228,沧州市,市环保局,,45,44,54,23,32,144,144,80,80,11,32,6,8,0.2,0.3
2023-10-02T14:00:00,1074A,115.6838,37.7541,衡水市,电机北厂,,44,44,44,22,17,134,134,86,86,7,24,7,6,0.2,0.4
2023-10-02T14:00:00,1075A,115.6303,37.7316,衡水市,市监测站,,41,40,49,15,16,131,131,76,76,14,33,8,10,0.2,0.2
2023-10-02T14:00:00,1077A,114.4704,37.0886,邢台市,达活泉,,38,38,40,10,12,125,77,52,52,16,25,17,12,1.0,0.7
2023-10-02T14:00:00,1078A,114.5062,37.0349,邢台市,邢师高专,,30,30,61,16,15,117,72,43,43,23,34,13,10,0.9,0.9
2023-10-02T14:00:00,1079A,114.5237,37.0851,邢台市,路桥公司,,35,35,51,17,20,127,90,53,53,22,31,11,9,1.0,1.1
2023-10-02T14:00:00,1080A,114.4725,37.0719,邢台市,市环保局,,36,36,46,20,14,121,76,51,51,23,29,16,12,1.0,0.8
2023-10-02T14:00:00,1081A,112.522,37.8873,太原市,尖草坪,细颗粒物(PM2.5),84,110,106,62,45,95,68,33,33,42,55,18,13,1.6,1.2
2023-10-02T14:00:00,1083A,112.434,38.0108,太原市,上兰,,,,,,,,,,,,,,,,
2023-10-02T14:00:00,1084A,112.469,37.7124,太原市,晋源,细颗粒物(PM2.5),80,98,79,59,49,134,61,43,43,56,48,28,8,2.3,1
2023-10-02T14:00:00,1085A,112.5583,37.7394,太原市,小店,颗粒物(PM10),79,108,93,56,44,129,50,50,50,67,43,35,17,3.2,1.1
2023-10-02T14:00:00,1086A,112.5369,37.8692,太原市,桃园,颗粒物(PM10),93,136,97,64,39,89,51,35,33,57,56,25,19,2.1,1.4
2023-10-02T14:00:00,1087A,112.57,37.8195,太原市,坞城,颗粒物(PM10),77,103,90,55,47,122,52,47,47,59,51,31,21,2.6,1.1
2023-10-02T14:00:00,1088A,112.549,37.9854,太原市,南寨,细颗粒物(PM2.5),77,94,60,56,42,58,58,30,30,40,40,14,10,1.2,1.2
2023-10-02T14:00:00,1090A,111.6507,40.7517,呼和浩特市,呼市一监,颗粒物(PM10),60,70,74,34,34,108,85,35,35,18,47,14,12,0.7,0.7
2023-10-02T14:00:00,1091A,111.6572,40.8033,呼和浩特市,小召,颗粒物(PM10),65,80,69,39,30,104,78,40,40,32,52,14,11,0.9,0.8
2023-10-02T14:00:00,1094A,111.7516,40.8369,呼和浩特市,如意水处理厂,颗粒物(PM10),71,92,73,38,25,119,81,49,49,33,46,18,13,0.6,0.5
2023-10-02T14:00:00,1095A,111.7276,40.8062,呼和浩特市,二十九中,颗粒物(PM10),70,89,68,41,30,119,87,45,45,26,50,18,13,0.8,0.7
2023-10-02T14:00:00,1096A,111.5512,40.7866,呼和浩特市,工大金川校区,颗粒物(PM10),58,66,71,34,29,127,95,44,44,17,47,11,10,0.7,0.6
2023-10-02T14:00:00,1097A,111.717,40.7612,呼和浩特市,化肥厂生活区,颗粒物(PM10),69,87,84,37,32,118,92,42,42,24,42,16,13,0.7,0.6
2023-10-02T14:00:00,1098A,123.6836,41.9339,沈阳市,森林路,,,,,,,,,,,,,,,,
2023-10-02T14:00:00,1099A,123.505,41.7406,沈阳市,浑南东路,,34,31,43,16,20,107,107,55,55,9,36,10,17,0.5,0.9
2023-10-02T14:00:00,1100A,123.4231,41.6989,沈阳市,新秀街,,32,30,47,11,16,100,100,56,56,15,45,11,32,0.6,1
2023-10-02T14:00:00,1102A,123.5903,41.8411,沈阳市,东陵路,,33,31,45,13,19,104,104,50,50,12,30,9,13,0.5,0.8
2023-10-02T14:00:00,1103A,123.4264,41.8467,沈阳市,陵东街,,32,18,35,12,16,102,102,55,55,14,34,10,10,0.6,0.8
2023-10-02T14:00:00,1104A,123.4114,41.7653,沈阳市,文化路,,35,28,51,18,24,110,110,60,60,10,39,11,24,0.7,1
2023-10-02T14:00:00,1105A,123.4678,41.7867,沈阳市,小河沿,,34,34,41,15,19,104,104,52,52,15,39,10,12,0.6,0.9
2023-10-02T14:00:00,1106A,123.4017,41.7972,沈阳市,太原街,,34,30,37,11,23,107,107,59,59,14,46,7,18,0.5,1
2023-10-02T14:00:00,1108A,123.3783,41.9228,沈阳市,京沈街,,36,36,43,18,21,105,105,59,59,6,18,11,16,0.6,0.8
2023-10-02T14:00:00,1109A,121.612,38.9741,大连市,甘井子,,41,26,19,12,8,129,129,87,87,17,19,7,6,0.5,0.5
2023-10-02T14:00:00,1110A,121.565,38.9511,大连市,周水子,,40,16,17,10,9,126,126,85,85,13,25,10,7,0.6,0.6
2023-10-02T14:00:00,1111A,121.5637,38.8845,大连市,星海三站,,47,19,16,12,8,148,148,94,94,13,18,10,8,0.5,0.4
2023-10-02T14:00:00,1112A,121.6302,38.9117,大连市,青泥洼桥,,40,17,19,8,9,126,126,88,88,13,25,9,7,0.3,0.3
2023-10-02T14:00:00,1113A,121.6251,38.8638,大连市,傅家庄,臭氧1小时,55,32,15,17,6,164,164,106,106,10,12,9,6,0.6,0.4
2023-10-02T14:00:00,1114A,121.5213,38.8661,大连市,七贤岭,,45,24,18,9,8,144,144,91,91,12,16,7,6,0.6,0.5
2023-10-02T14:00:00,1115A,121.2529,38.8061,大连市,旅顺,,45,22,15,14,8,142,142,102,102,18,14,12,7,0.6,0.4
2023-10-02T14:00:00,1116A,121.7485,39.1311,大连市,金州,,44,22,20,9,9,139,139,95,95,12,14,9,9,0.6,0.6
2023-10-02T14:00:00,1117A,121.7811,39.0496,大连市,开发区,,40,20,20,10,12,126,126,80,78,19,27,7,7,0.5,0.5
2023-10-02T14:00:00,1118A,121.9762,39.0631,大连市,双D港,,41,18,16,8,7,130,130,93,93,14,16,9,8,0.5,0.5
2023-10-02T14:00:00,1119A,125.3325,43.9166,长春市,食品厂,,25,18,35,7,15,79,79,52,52,13,36,5,6,0.2,0.4
2023-10-02T14:00:00,1120A,125.2863,43.9027,长春市,客车厂,,25,12,28,5,16,79,79,52,52,10,30,6,7,0.3,0.4
2023-10-02T14:00:00,1121A,125.2841,43.8463,长春市,邮电学院,,26,8,29,5,14,81,81,52,52,6,31,5,6,0.2,0.4
2023-10-02T14:00:00,1122A,125.3716,43.8772,长春市,劳动公园,颗粒物(PM10),52,54,34,12,11,77,65,50,50,26,32,5,5,0.4,0.5
2023-10-02T14:00:00,1123A,125.3297,43.8805,长春市,园林处,,25,18,24,6,9,80,80,53,53,7,27,7,8,0.3,0.4
2023-10-02T14:00:00,1124A,125.4605,43.79,长春市,净月潭,,26,12,19,3,6,82,82,50,50,5,15,6,6,0.2,0.3
2023-10-02T14:00:00,1125A,125.7194,43.515,长春市,甩湾子,,,,,,,,,,,,,,,,
2023-10-02T14:00:00,1126A,125.3863,43.8447,长春市,经开区环卫处,,25,10,37,5,14,79,79,47,47,7,28,5,5,0.2,0.4
2023-10-02T14:00:00,1127A,125.245,43.7783,长春市,高新区管委会,,27,11,30,6,11,85,85,56,56,5,28,7,7,0.2,0.3
2023-10-02T14:00:00,1128A,125.1761,43.8325,长春市,岱山公园,,26,6,32,6,11,83,83,59,59,5,29,5,5,0.4,0.5
2023-10-02T14:00:00,1129A,126.5422,45.755,哈尔滨市,岭北,,28,6,16,3,10,89,89,62,62,4,11,5,6,0.2,0.4
2023-10-02T14:00:00,1130A,126.561,45.8167,哈尔滨市,松北商大,,25,20,21,6,8,80,78,50,50,9,21,7,7,0.5,0.5
2023-10-02T14:00:00,1131A,126.979,45.5419,哈尔滨市,阿城会宁,,27,27,34,6,17,82,82,53,53,10,19,6,7,0.4,0.5
2023-10-02T14:00:00,1132A,126.599,45.7222,哈尔滨市,南岗学府路,,26,20,29,2,10,81,81,50,50,3,24,5,4,0.3,0.4
2023-10-02T14:00:00,1133A,126.689,45.7733,哈尔滨市,太平宏伟公园,,28,28,28,8,15,82,82,53,53,4,21,4,4,0.4,0.6
2023-10-02T14:00:00,1134A,126.635,45.7667,哈尔滨市,道外承德广场,,26,12,23,5,11,82,82,49,49,9,28,5,6,0.6,0.7
2023-10-02T14:00:00,1135A,126.685,45.7319,哈尔滨市,香坊红旗大街,,27,16,30,4,15,86,86,49,49,6,34,4,5,0.5,0.6
2023-10-02T14:00:00,1136A,126.6411,45.7258,哈尔滨市,动力和平路,,25,21,27,14,6,80,80,46,46,12,32,6,7,0.3,0.4
2023-10-02T14:00:00,1137A,126.593,45.7478,哈尔滨市,道里建国路,,26,21,28,9,11,83,83,52,52,9,29,6,8,0.2,0.4
2023-10-02T14:00:00,1138A,126.615,45.61,哈尔滨市,平房东轻厂,,28,25,25,10,10,89,89,56,56,4,25,7,8,0.4,0.5
2023-10-02T14:00:00,1139A,126.595,45.9855,哈尔滨市,呼兰师专,,25,18,19,9,10,80,78,54,54,8,13,6,6,0.5,0.6
2023-10-02T14:00:00,1140A,126.6206,45.6842,哈尔滨市,省农科院,,28,22,35,7,12,89,89,56,56,5,31,7,11,0.2,0.5
2023-10-02T14:00:00,1141A,121.4,31.238,上海市,普陀,,31,22,25,7,10,110,97,82,82,11,15,4,4,0.5,0.5
2023-10-02T14:00:00,1142A,121.478,31.2036,上海市,十五厂,,33,21,21,7,8,110,104,88,88,14,24,8,8,0.5,0.5
2023-10-02T14:00:00,1143A,121.467,31.3008,上海市,虹口,,31,19,23,6,9,106,99,84,84,16,22,7,8,0.3,0.4
2023-10-02T14:00:00,1144A,121.412,31.1654,上海市,徐汇上师大,,33,20,24,10,12,118,103,85,85,10,17,7,8,0.5,0.6
2023-10-02T14:00:00,1145A,121.536,31.2659,上海市,杨浦四漂,,36,36,31,8,8,114,97,84,80,18,20,7,8,0.4,0.4
2023-10-02T14:00:00,1147A,121.425,31.2261,上海市,静安监测站,,33,19,22,5,10,116,105,89,89,16,21,4,4,0.4,0.4
2023-10-02T14:00:00,1148A,121.703,31.1907,上海市,浦东川沙,,34,22,24,9,8,108,106,92,91,11,14,6,6,0.5,0.5
2023-10-02T14:00:00,1149A,121.533,31.2284,上海市,浦东新区监测站,,31,20,22,5,7,105,98,82,82,11,17,6,6,0.3,0.5
2023-10-02T14:00:00,1150A,121.577,31.2071,上海市,浦东张江,,29,19,23,10,12,97,90,74,74,9,18,5,5,0.5,0.5
2023-10-02T14:00:00,1151A,118.8086,32.1065,南京市,迈皋桥,,28,20,23,5,6,147,89,78,71,11,13,4,4,0.4,0.3
2023-10-02T14:00:00,1152A,118.7538,32.0551,南京市,草场门,,27,17,24,5,10,146,85,82,72,15,16,3,3,0.7,0.7
2023-10-02T14:00:00,1153A,118.7794,32.0745,南京市,山西路,,30,27,35,5,9,154,94,91,82,10,12,4,4,0.2,0.1
2023-10-02T14:00:00,1154A,118.7752,32.0023,南京市,中华门,,27,19,29,0,7,144,85,80,66,8,14,4,4,0.6,0.6
2023-10-02T14:00:00,1155A,118.8109,32.0309,南京市,瑞金路,,27,22,28,2,6,140,86,76,66,10,14,6,7,0.3,0.3
2023-10-02T14:00:00,1156A,118.7997,32.0754,南京市,玄武湖,,25,16,25,5,7,136,80,76,67,13,15,5,4,0.3,0.2
2023-10-02T14:00:00,1157A,118.6414,32.0931,南京市,浦口,,27,21,30,13,11,156,84,77,63,18,17,4,4,0.3,0.3
2023-10-02T14:00:00,1158A,118.7356,31.9996,南京市,奥体中心,,29,28,33,9,12,151,91,87,75,14,16,7,7,0.3,0.3
2023-10-02T14:00:00,1159A,118.9125,32.1028,南京市,仙林大学城,,30,27,26,5,8,147,95,79,79,14,16,3,2,0.6,0.6
2023-10-02T14:00:00,1160A,120.561,31.2472,苏州市,上方山,,31,22,31,9,13,113,98,63,62,5,10,4,4,0.3,0.2
2023-10-02T14:00:00,1162A,120.591,31.3019,苏州市,彩香,,34,20,25,6,9,127,108,75,75,5,10,7,7,0.5,0.6
2023-10-02T14:00:00,1163A,120.596,31.3264,苏州市,轧钢厂,,35,25,30,6,8,131,109,75,75,8,12,9,9,0.5,0.6
2023-10-02T14:00:00,1164A,120.613,31.2703,苏州市,吴中区,,35,23,27,6,8,131,110,80,76,9,14,8,9,0.5,0.6
2023-10-02T14:00:00,1165A,120.543,31.2994,苏州市,苏州新区,,37,23,26,5,8,136,116,73,73,12,24,7,8,0.4,0.5
2023-10-02T14:00:00,1166A,120.669,31.3097,苏州市,苏州工业园区,,33,20,25,6,8,126,104,80,77,8,10,7,8,0.5,0.5
2023-10-02T14:00:00,1167A,120.641,31.3708,苏州市,相城区,,34,24,24,6,8,131,108,76,76,11,15,9,9,0.7,0.6
2023-10-02T14:00:00,1168A,120.9098,31.9663,南通市,狼山街道,,33,21,26,3,6,105,105,79,79,10,19,6,6,0.2,0.2
2023-10-02T14:00:00,1169A,120.86,32.0005,南通市,虹桥,,32,21,27,6,11,104,102,75,75,14,20,6,6,0.5,0.5
2023-10-02T14:00:00,1170A,120.87,32.02,南通市,城中,,31,15,21,3,8,99,99,69,69,11,20,6,7,0.5,0.4
2023-10-02T14:00:00,1171A,120.94,31.93,南通市,星湖花园,,32,11,22,2,6,100,100,75,75,8,15,6,6,0.5,0.6
2023-10-02T14:00:00,1172A,120.81,32.0417,南通市,紫琅学院,,33,13,23,1,7,107,105,75,75,10,18,7,7,0.6,0.6
2023-10-02T14:00:00,1173A,119.176,34.5885,连云港市,市环境监测站,,37,27,25,14,8,117,117,80,72,16,20,10,6,0.6,0.5
2023-10-02T14:00:00,1177A,117.179,34.2761,徐州市,黄河新村,,33,22,35,12,17,126,104,70,67,14,23,6,6,0.3,0.4
2023-10-02T14:00:00,1178A,117.1918,34.2384,徐州市,淮塔,,36,29,37,3,17,133,113,77,77,9,19,7,9,0.4,0.4
2023-10-02T14:00:00,1180A,117.256,34.2153,徐州市,新城区,,34,34,44,11,17,126,106,78,75,23,28,6,7,0.3,0.4
2023-10-02T14:00:00,1181A,117.244,34.2911,徐州市,桃园路,,36,31,39,13,15,133,113,82,70,8,19,7,7,0.3,0.3
2023-10-02T14:00:00,1182A,117.2933,34.2778,徐州市,农科院,,35,19,31,6,13,133,111,66,63,8,26,6,7,0.2,0.3
2023-10-02T14:00:00,1186A,119.389,32.3761,扬州市,邗江监测站,,31,24,31,9,11,120,99,77,76,15,21,6,8,0.3,0.3
2023-10-02T14:00:00,1188A,120.269,31.4867,无锡市,雪浪,,31,14,30,5,8,133,99,80,71,7,15,4,5,0.7,0.8
2023-10-02T14:00:00,1189A,120.275,31.6219,无锡市,黄巷,,36,36,38,7,9,132,96,72,65,12,21,6,7,0.4,0.5
2023-10-02T14:00:00,1190A,120.294,31.56,无锡市,曹张,,31,26,34,7,11,128,99,70,70,9,20,9,10,0.9,1
2023-10-02T14:00:00,1191A,120.242,31.5031,无锡市,漆塘,,31,19,28,7,9,134,99,80,71,14,21,6,7,0.6,0.7
2023-10-02T14:00:00,1192A,120.3489,31.5863,无锡市,东亭,,31,29,34,5,11,128,97,67,67,14,23,4,5,0.8,0.9
2023-10-02T14:00:00,1193A,120.354,31.5475,无锡市,旺庄,,32,22,30,7,11,130,101,76,73,11,18,5,5,0.6,0.7
2023-10-02T14:00:00,1194A,120.245,31.5631,无锡市,荣巷,,30,19,28,2,9,136,96,69,69,9,13,8,9,0.7,0.8
2023-10-02T14:00:00,1195A,120.299,31.6817,无锡市,堰桥,,31,14,26,0,9,126,97,70,67,8,15,6,7,0.5,0.6
2023-10-02T14:00:00,1196A,119.9633,31.762,常州市,市监测站,,30,22,25,12,16,132,95,75,69,14,21,8,8,0.3,0.4
2023-10-02T14:00:00,1200A,119.9468,31.7069,常州市,武进监测站,,32,24,29,3,10,148,101,85,77,2,9,10,11,0.5,0.6
2023-10-02T14:00:00,1201A,119.9255,31.9087,常州市,安家,,33,17,28,12,18,126,104,64,64,9,17,8,9,0.6,0.5
2023-10-02T14:00:00,1203A,119.6707,32.1875,镇江市,新区办事处,,34,26,25,11,9,120,107,76,75,9,13,5,4,0.5,0.3
2023-10-02T14:00:00,1204A,119.4974,32.1968,镇江市,职教中心,,32,24,22,10,10,132,101,82,80,13,18,4,3,0.5,0.5
2023-10-02T14:00:00,1205A,119.4303,32.1328,镇江市,丹徒区监测站,,35,33,31,9,8,149,111,85,84,10,15,1,2,0.4,0.4
2023-10-02T14:00:00,1206A,119.905,32.4878,泰州市,公园路,,30,19,24,12,12,105,96,79,79,11,12,5,5,0.4,0.4
2023-10-02T14:00:00,1207A,119.9189,32.4625,泰州市,莲花,,31,17,22,7,8,104,97,82,80,6,11,5,5,0.3,0.4
2023-10-02T14:00:00,1209A,119.888,32.4639,泰州市,留学生创业园,,30,22,22,7,6,109,96,89,82,7,8,6,6,0.4,0.5
2023-10-02T14:00:00,1210A,119.036,33.5981,淮安市,钵池山,,31,19,26,11,15,97,97,64,64,9,18,7,7,0.5,0.5
2023-10-02T14:00:00,1211A,119.007,33.575,淮安市,北京南路,,32,29,30,12,12,103,101,67,67,11,22,6,5,0.5,0.5
2023-10-02T14:00:00,1212A,118.989,33.6067,淮安市,市监测站,,32,24,29,12,12,105,102,78,68,11,21,8,8,0.5,0.5
2023-10-02T14:00:00,1213A,119.135,33.5039,淮安市,楚州区监测站,,30,17,26,8,13,96,96,70,70,12,18,6,7,0.5,0.5
2023-10-02T14:00:00,1214A,119.0186,33.6297,淮安市,淮阴区监测站,,33,24,34,13,16,103,103,67,66,10,24,7,7,0.5,0.6
2023-10-02T14:00:00,1215A,120.118,33.4022,盐城市,盐城电厂,,33,14,30,7,11,105,105,70,70,3,16,6,6,0.3,0.3
2023-10-02T14:00:00,1216A,120.156,33.3942,盐城市,市监测站,,35,9,23,9,7,109,109,80,80,4,20,4,4,0.4,0.4
2023-10-02T14:00:00,1218A,120.2144,33.38,盐城市,开发区管委会,,33,21,24,5,5,107,104,85,85,11,12,6,8,0.2,0.2
2023-10-02T14:00:00,1220A,118.293,33.9528,宿迁市,宿迁学院,,34,16,28,6,12,120,107,72,72,7,22,8,7,0.4,0.5
2023-10-02T14:00:00,1221A,118.2442,33.9592,宿迁市,宿迁中学,,31,20,25,5,6,108,97,78,67,10,17,7,7,0.3,0.4
2023-10-02T14:00:00,1223A,120.2072,30.2111,杭州市,滨江,,38,19,28,9,12,165,120,94,94,12,18,9,8,0.3,0.4
2023-10-02T14:00:00,1224A,120.0633,30.2747,杭州市,西溪,,36,25,26,7,11,135,114,88,83,8,14,4,4,0.3,0.6
2023-10-02T14:00:00,1226A,120.3461,30.3153,杭州市,下沙,,35,24,33,6,7,172,112,88,88,6,20,5,6,0.3,0.4
2023-10-02T14:00:00,1227A,120.1269,30.2456,杭州市,卧龙桥,,39,23,29,7,11,166,122,88,86,10,15,7,7,0.4,0.5
2023-10-02T14:00:00,1228A,120.1903,30.2692,杭州市,浙江农大,,33,21,26,7,11,149,105,82,82,7,17,8,8,0.3,0.4
2023-10-02T14:00:00,1230A,120.1197,30.3119,杭州市,和睦小学,,35,21,26,11,15,153,111,88,88,12,19,8,9,0.5,0.6
2023-10-02T14:00:00,1231A,120.3019,30.4183,杭州市,临平镇,,34,17,24,4,10,164,108,89,89,7,14,4,5,0.3,0.4
2023-10-02T14:00:00,1232A,120.2697,30.1819,杭州市,城厢镇,,36,25,31,8,12,159,113,87,87,8,13,9,8,0.4,0.5
2023-10-02T14:00:00,1233A,120.0883,30.1808,杭州市,云栖,,37,20,28,6,8,153,116,91,84,6,11,7,7,0.3,0.4
2023-10-02T14:00:00,1234A,121.8358,29.911,宁波市,区环保大楼,,39,15,20,7,10,151,122,98,98,9,13,5,6,0.5,0.4
2023-10-02T14:00:00,1235A,121.56,29.82,宁波市,万里学院,,41,28,29,8,9,163,129,86,86,12,20,8,8,0.4,0.5
2023-10-02T14:00:00,1236A,121.713,29.9572,宁波市,龙赛医院,,37,28,31,4,8,156,117,95,95,4,12,5,5,0.5,0.5
2023-10-02T14:00:00,1239A,121.633,29.7733,宁波市,钱湖水厂,,41,24,29,13,12,158,129,88,88,6,9,7,7,0.5,0.6
2023-10-02T14:00:00,1240A,121.5856,29.8635,宁波市,太古小学,,,22,26,13,9,155,121,85,85,,13,9,8,0.6,0.7
2023-10-02T14:00:00,1241A,121.524,29.8674,宁波市,市环境监测中心,,41,21,24,8,9,166,130,92,92,5,11,7,7,0.4,0.5
2023-10-02T14:00:00,1242A,120.634,28.0089,温州市,瓯海,,41,22,28,9,12,129,129,105,105,9,12,6,6,0.4,0.5
2023-10-02T14:00:00,1243A,120.6748,27.9939,温州市,南浦,,41,29,27,11,12,130,130,121,105,7,8,5,5,0.4,0.5
2023-10-02T14:00:00,1244A,120.76,27.9747,温州市,龙湾,,38,22,24,9,10,127,121,127,102,15,12,4,4,0.4,0.5
2023-10-02T14:00:00,1245A,120.6709,28.0167,温州市,市站,,35,33,28,10,16,110,109,93,93,25,15,6,6,0.4,0.5
2023-10-02T14:00:00,1247A,120.6053,29.9928,绍兴市,城东开发委,,35,22,32,7,11,142,110,74,74,6,13,7,8,0.4,0.5
2023-10-02T14:00:00,1250A,120.0751,30.8669,湖州市,城西水厂,,36,25,27,8,10,163,113,94,88,14,16,3,4,0.3,0.4
2023-10-02T14:00:00,1252A,120.7436,30.778,嘉兴市,清河小学,,33,21,29,5,8,146,104,80,80,5,14,4,4,0.5,0.5
2023-10-02T14:00:00,1253A,120.726,30.7478,嘉兴市,嘉兴学院,,33,24,28,7,9,147,104,82,82,9,14,4,5,0.3,0.4
2023-10-02T14:00:00,1255A,121.273,28.6459,台州市,黄岩环保大楼,,36,14,23,9,14,137,114,102,92,9,10,6,6,0.5,0.5
2023-10-02T14:00:00,1256A,121.419,28.6542,台州市,台州环保大楼,,36,31,31,12,12,145,115,104,92,6,9,4,4,0.4,0.4
2023-10-02T14:00:00,1257A,121.377,28.5773,台州市,路桥田洋王,,36,28,31,11,7,138,114,106,93,7,9,6,6,0.4,0.5
2023-10-02T14:00:00,1258A,122.122,30.0203,舟山市,定海檀枫,,32,16,23,6,4,126,101,87,87,5,7,6,6,0.3,0.3
2023-10-02T14:00:00,1259A,122.3094,29.9558,舟山市,普陀东港,,35,16,22,10,5,132,109,95,95,6,8,5,5,0.4,0.4
2023-10-02T14:00:00,1260A,122.19,29.9944,舟山市,临城新区,,35,19,21,6,6,138,109,93,93,5,8,9,9,0.5,0.5
2023-10-02T14:00:00,1262A,119.647,29.077,金华市,十五中,,45,37,37,10,12,144,144,106,106,13,17,4,4,0.4,0.5
2023-10-02T14:00:00,1263A,119.686,29.1029,金华市,监测站,,44,37,36,17,17,139,139,104,104,11,15,4,5,0.4,0.5
2023-10-02T14:00:00,1264A,118.8692,28.9398,衢州市,环保大楼,,40,35,34,13,18,126,126,92,92,8,12,4,4,0.4,0.5
2023-10-02T14:00:00,1265A,118.8709,28.9666,衢州市,实验学校,,42,37,34,16,19,132,132,100,98,9,12,3,4,0.4,0.5
2023-10-02T14:00:00,1266A,118.8621,28.9808,衢州市,衢州学院,,40,32,32,14,18,127,127,98,95,12,15,4,4,0.4,0.5
2023-10-02T14:00:00,1267A,119.914,28.4514,丽水市,监测站大楼,,44,44,30,16,12,130,123,101,101,6,12,6,5,0.4,0.5
2023-10-02T14:00:00,1268A,119.93,28.4586,丽水市,莲都小学,颗粒物(PM10),53,56,27,26,13,135,131,107,107,11,14,5,6,0.5,0.5
2023-10-02T14:00:00,1269A,119.879,28.4231,丽水市,余庄前,,41,37,28,19,13,137,129,95,95,10,13,6,6,0.5,0.5
2023-10-02T14:00:00,1270A,117.1959,31.7848,合肥市,明珠广场,,39,39,43,17,18,158,72,70,66,19,18,7,6,0.7,0.7
2023-10-02T14:00:00,1271A,117.3072,31.8764,合肥市,三里街,,36,36,54,14,22,144,53,58,55,22,19,7,7,0.5,0.5
2023-10-02T14:00:00,1272A,117.2588,31.8707,合肥市,琥珀山庄,,31,31,38,14,19,154,68,71,67,16,14,5,5,0.7,0.6
2023-10-02T14:00:00,1273A,117.1604,31.9052,合肥市,董铺水库,,,,,,,,,,,,,,,,
2023-10-02T14:00:00,1274A,117.25,31.8571,合肥市,长江中路,,41,41,45,17,23,152,66,68,66,17,14,8,8,0.8,0.7
2023-10-02T14:00:00,1275A,117.266,31.9436,合肥市,庐阳区,,29,29,42,12,23,151,64,72,71,14,14,5,5,0.5,0.5
2023-10-02T14:00:00,1276A,117.336,31.8586,合肥市,瑶海区,,39,39,44,10,18,143,62,65,64,15,14,5,5,0.8,0.7
2023-10-02T14:00:00,1277A,117.3027,31.7964,合肥市,包河区,,34,34,37,12,16,155,58,54,50,26,26,6,6,0.6,0.6
2023-10-02T14:00:00,1278A,117.2776,31.7385,合肥市,滨湖新区,,34,34,42,9,18,172,75,70,70,14,14,7,6,0.6,0.6
2023-10-02T14:00:00,1279A,117.1318,31.8403,合肥市,高新区,,36,36,41,12,22,148,71,74,72,18,15,6,6,0.6,0.6
2023-10-02T14:00:00,1280A,119.3903,26.0543,福州市,鼓山,,,,,,,,,,,,,,,,
2023-10-02T14:00:00,1282A,119.2681,26.0504,福州市,师大,,46,40,31,19,14,147,147,122,122,6,5,6,4,0.5,0.4
2023-10-02T14:00:00,1283A,119.2984,26.1028,福州市,五四北路,,44,23,25,15,12,139,139,119,119,5,5,4,3,0.5,0.4
2023-10-02T14:00:00,1284A,119.2648,26.0768,福州市,杨桥西路,,45,41,32,21,14,144,144,122,122,4,5,4,3,0.6,0.5
2023-10-02T14:00:00,1285A,119.317,26.0746,福州市,紫阳,,46,46,34,15,9,139,136,124,119,5,4,4,4,0.6,0.5
2023-10-02T14:00:00,1286A,118.1608,24.8169,厦门市,溪东,,,,,,,,,,,,,,,,
2023-10-02T14:00:00,1287A,118.1514,24.4767,厦门市,洪文,颗粒物(PM10),51,51,37,21,16,142,142,115,115,5,5,2,2,0.3,0.3
2023-10-02T14:00:00,1288A,118.0661,24.4444,厦门市,鼓浪屿,,42,42,32,21,16,134,134,107,107,4,6,2,2,0.3,0.4
2023-10-02T14:00:00,1290A,115.8931,28.6843,南昌市,省外办,,42,42,32,19,15,109,109,66,66,8,11,4,4,0.7,0.6
2023-10-02T14:00:00,1291A,115.8886,28.7003,南昌市,省林业公司,,38,34,25,22,15,120,120,73,73,2,10,5,6,0.8,0.8
2023-10-02T14:00:00,1292A,115.8126,28.7442,南昌市,林科所,,,31,18,14,9,122,122,81,81,12,7,8,7,,0.5
2023-10-02T14:00:00,1294A,115.8518,28.687,南昌市,建工学校,,37,36,31,16,16,118,118,72,72,6,9,9,7,0.7,0.6
2023-10-02T14:00:00,1295A,115.8921,28.6424,南昌市,象湖,,39,34,25,21,12,123,123,77,77,6,6,9,6,0.7,0.5
2023-10-02T14:00:00,1296A,115.7423,28.7996,南昌市,武术学校,,30,17,18,12,11,96,96,66,66,8,7,11,10,0.5,0.5
2023-10-02T14:00:00,1298A,115.9314,28.6842,南昌市,省站,,36,34,29,16,12,113,113,72,72,9,8,6,6,0.6,0.6
2023-10-02T14:00:00,1299A,116.9862,36.6114,济南市,科干所,,43,24,26,10,9,137,137,105,105,5,18,6,6,0.3,0.4
2023-10-02T14:00:00,1300A,116.9376,36.665,济南市,农科所,,41,24,37,7,11,129,129,89,89,10,37,5,4,0.4,0.5
2023-10-02T14:00:00,1301A,117.1265,36.6734,济南市,开发区,,39,22,30,5,10,124,124,91,91,7,36,6,6,0.4,0.4
2023-10-02T14:00:00,1303A,117.0624,36.6868,济南市,省种子仓库,,40,22,34,5,10,128,128,94,94,7,39,4,4,0.3,0.4
2023-10-02T14:00:00,1304A,116.9489,36.6447,济南市,机床二厂,,43,34,49,5,12,136,136,94,94,8,37,5,5,0.4,0.5
2023-10-02T14:00:00,1305A,117.0495,36.663,济南市,市监测站,,43,20,42,7,12,135,135,98,98,15,53,4,4,0.4,0.5
2023-10-02T14:00:00,1306A,116.7675,36.5484,济南市,长清党校,,44,37,36,17,15,140,140,104,104,12,30,8,6,0.3,0.4
2023-10-02T14:00:00,1307A,120.6659,36.2403,青岛市,仰口,,36,24,22,12,10,117,115,103,103,8,8,5,5,0.3,0.3
2023-10-02T14:00:00,1310A,120.4134,36.0658,青岛市,市南区东部子站,,43,22,31,5,9,137,137,101,101,25,34,7,8,0.4,0.5
2023-10-02T14:00:00,1311A,120.3664,36.1032,青岛市,四方区子站,,47,24,37,5,10,150,150,94,94,15,51,15,8,0.5,0.6
2023-10-02T14:00:00,1312A,120.2994,36.054,青岛市,市南区西部子站,,45,24,28,5,5,144,144,101,101,24,35,7,8,0,0.3
2023-10-02T14:00:00,1313A,120.4581,36.0858,青岛市,崂山区子站,,44,22,30,7,10,140,140,102,102,13,27,8,8,0.5,0.4
2023-10-02T14:00:00,1314A,120.1983,35.9608,青岛市,黄岛区子站,,42,24,29,10,8,137,134,108,84,19,32,7,8,0.4,0.5
2023-10-02T14:00:00,1315A,120.3999,36.3083,青岛市,城阳区子站,臭氧1小时,65,36,37,12,13,172,172,101,101,14,34,9,7,0.5,0.6
2023-10-02T14:00:00,1316A,113.69031,34.76122,郑州市,烟厂,,25,25,27,16,14,116,70,74,66,16,18,3,4,0.6,0.5
2023-10-02T14:00:00,1317A,113.65724,34.77134,郑州市,郑纺机,,26,26,28,15,13,123,74,76,71,16,20,3,5,0.6,0.6
2023-10-02T14:00:00,1318A,113.67526,34.80246,郑州市,银行学校,,,22,26,13,12,119,77,80,72,,19,,5,,0.4
2023-10-02T14:00:00,1319A,113.56746,34.81334,郑州市,供水公司,,25,13,28,11,14,108,80,77,76,17,22,5,7,0.5,0.5
2023-10-02T14:00:00,1320A,113.7329,34.7178,郑州市,经开区管委,,25,23,28,10,11,114,78,74,68,16,18,5,6,0.4,0.4
2023-10-02T14:00:00,1321A,113.73961,34.77172,郑州市,四十七中,,24,20,26,15,10,119,75,78,74,18,19,4,5,0.6,0.5
2023-10-02T14:00:00,1322A,113.60532,34.74838,郑州市,市监测站,,27,27,30,12,17,124,73,77,72,14,19,4,6,0.4,0.4
2023-10-02T14:00:00,1323A,113.64164,34.7525,郑州市,河医大,,27,27,30,16,13,111,69,71,63,18,21,5,8,0.5,0.6
2023-10-02T14:00:00,1324A,113.51488,34.91089,郑州市,岗李水库,,,,,,,,,,,,,,,,
2023-10-02T14:00:00,1325A,114.3677,30.5584,武汉市,东湖梨园,,35,32,36,24,26,116,54,79,68,16,19,10,10,0.9,1
2023-10-02T14:00:00,1326A,114.2529,30.558,武汉市,汉阳月湖,,43,43,41,27,26,104,55,80,66,18,24,7,7,0.7,0.7
2023-10-02T14:00:00,1327A,114.282,30.6189,武汉市,汉口花桥,,36,36,41,24,29,117,53,90,71,14,20,6,6,0.6,0.7
2023-10-02T14:00:00,1328A,114.3025,30.5332,武汉市,武昌紫阳,,48,48,40,28,27,114,56,80,69,16,24,8,9,1.0,1
2023-10-02T14:00:00,1329A,114.3646,30.6217,武汉市,青山钢花,,39,35,38,27,32,113,52,85,66,12,18,7,8,0.5,0.6
2023-10-02T14:00:00,1330A,114.1566,30.4825,武汉市,沌口新区,细颗粒物(PM2.5),57,46,41,40,32,109,61,81,75,26,24,10,9,1.0,0.8
2023-10-02T14:00:00,1331A,114.3014,30.5944,武汉市,汉口江滩,,37,37,37,20,24,120,56,93,74,11,20,7,7,0.5,0.6
2023-10-02T14:00:00,1333A,114.135,30.6319,武汉市,吴家山,,39,35,41,27,30,136,62,105,81,11,16,8,8,0.6,0.7
2023-10-02T14:00:00,1334A,113.8454,30.2917,武汉市,沉湖七壕,,41,41,34,19,18,96,51,84,76,20,15,5,5,0.8,0.8
2023-10-02T14:00:00,1335A,113.0833,28.2325,长沙市,经开区环保局,颗粒物(PM10),52,53,34,24,21,74,74,43,43,13,16,5,5,0.5,0.5
2023-10-02T14:00:00,1336A,112.8872,28.2189,长沙市,高开区环保局,,33,29,31,23,19,52,47,47,36,7,8,6,6,0.7,0.7
2023-10-02T14:00:00,1337A,113.0792,28.2053,长沙市,马坡岭,,43,43,43,29,23,90,90,54,54,6,9,6,6,0.7,0.6
2023-10-02T14:00:00,1338A,112.9394,28.19,长沙市,湖南师范大学,,39,33,33,27,24,63,63,44,40,8,9,4,5,0.7,0.7
2023-10-02T14:00:00,1339A,113.0178,28.1322,长沙市,雨花区环保局,,35,35,36,21,18,81,81,46,46,9,12,4,4,0.9,0.7
2023-10-02T14:00:00,1340A,112.9792,28.2597,长沙市,伍家岭,,28,28,35,7,18,54,54,46,42,8,12,4,4,0.7,0.6
2023-10-02T14:00:00,1341A,113.0014,28.1944,长沙市,火车新站,颗粒物(PM10),52,53,44,34,23,71,71,45,45,13,13,6,6,0.8,0.7
2023-10-02T14:00:00,1342A,112.9844,28.1178,长沙市,天心区环保局,,36,36,35,24,19,80,80,42,42,13,13,4,4,0.6,0.6
2023-10-02T14:00:00,1343A,112.8908,28.1308,长沙市,湖南中医药大学,,40,40,41,22,19,68,68,47,41,5,6,3,3,1.0,0.9
2023-10-02T14:00:00,1344A,112.9581,28.3611,长沙市,沙坪,,,37,43,27,18,38,38,27,27,,7,6,6,0.5,0.6
2023-10-02T14:00:00,1345A,113.2347,23.1423,广州市,广雅中学,,33,23,24,19,16,166,103,75,75,22,19,2,3,0.8,0.7
2023-10-02T14:00:00,1346A,113.2612,23.105,广州市,市五中,,34,18,27,15,19,170,106,88,88,11,15,6,7,0.7,0.7
2023-10-02T14:00:00,1348A,113.3478,23.0916,广州市,广东商学院,,35,27,26,21,19,168,112,83,83,15,17,3,4,0.6,0.5
2023-10-02T14:00:00,1349A,113.4332,23.1047,广州市,市八十六中,,41,38,38,19,20,172,131,83,83,10,17,6,5,1.0,0.9
2023-10-02T14:00:00,1350A,113.3505,22.9483,广州市,番禺中学,,42,27,26,17,17,194,134,90,90,16,16,8,8,0.9,0.8
2023-10-02T14:00:00,1351A,113.2146,23.3916,广州市,花都师范,,30,18,25,12,16,123,93,88,82,9,15,3,4,0.8,0.8
2023-10-02T14:00:00,1352A,113.2597,23.1331,广州市,市监测站,,35,24,31,15,18,171,109,81,81,15,17,2,3,0.5,0.5
2023-10-02T14:00:00,1353A,113.5618,23.312,广州市,九龙镇镇龙,,30,21,22,13,15,116,96,78,78,5,11,5,5,0.6,0.6
2023-10-02T14:00:00,1354A,113.2765,23.1544,广州市,麓湖,,36,23,24,15,15,151,115,81,81,12,13,5,6,0.6,0.6
2023-10-02T14:00:00,1355A,113.443,23.3035,广州市,帽峰山森林公园,,32,14,18,12,15,119,102,79,77,7,11,5,6,0.6,0.6
2023-10-02T14:00:00,1356A,114.1063,22.5545,深圳市,通心岭子站,,34,28,24,13,12,123,108,98,96,8,11,2,2,0.8,0.8
2023-10-02T14:00:00,1357A,114.117,22.5625,深圳市,洪湖,,35,26,27,14,12,124,111,106,97,5,7,6,6,0.4,0.5
2023-10-02T14:00:00,1358A,113.987,22.5417,深圳市,华侨城,,32,28,23,17,12,128,102,100,92,7,9,7,8,0.9,0.9
2023-10-02T14:00:00,1359A,113.9181,22.5171,深圳市,南海子站,,35,35,29,11,15,146,111,108,100,3,6,5,5,0.7,0.7
2023-10-02T14:00:00,1360A,114.2458,22.5689,深圳市,盐田,,39,26,24,19,16,139,124,118,101,7,8,5,5,0.7,0.7
2023-10-02T14:00:00,1361A,114.2283,22.7244,深圳市,龙岗,,32,26,24,12,12,119,101,98,87,4,6,6,6,0.8,0.9
2023-10-02T14:00:00,1363A,114.494,22.5422,深圳市,南澳,,33,17,25,7,14,135,105,106,104,5,7,4,4,0.4,0.4
2023-10-02T14:00:00,1364A,114.41,22.6342,深圳市,葵涌,,34,31,25,10,11,132,108,102,95,8,9,6,6,0.7,0.7
2023-10-02T14:00:00,1365A,114.297,22.5978,深圳市,梅沙,,33,33,30,12,12,123,99,105,94,6,6,6,6,0.9,0.9
2023-10-02T14:00:00,1366A,114.0678,22.738,深圳市,观澜,,41,40,30,17,12,160,130,111,111,8,11,8,8,0.8,0.8
2023-10-02T14:00:00,1367A,113.5814,22.2618,珠海市,吉大,,35,28,26,9,13,147,112,113,109,4,6,5,6,0.6,0.6
2023-10-02T14:00:00,1368A,113.4881,22.2335,珠海市,前山,,35,26,20,12,12,154,112,106,106,1,3,5,5,0.5,0.5
2023-10-02T14:00:00,1369A,113.628,22.4251,珠海市,唐家,,44,29,25,13,12,151,139,103,103,6,12,6,6,0.6,0.6
2023-10-02T14:00:00,1370A,113.299,22.2281,珠海市,斗门,,40,20,20,13,14,163,125,107,107,4,6,6,6,0.6,0.6
2023-10-02T14:00:00,1371A,113.1294,23.0067,佛山市,湾梁,,28,5,14,9,17,186,89,74,71,12,12,7,8,0.6,0.6
2023-10-02T14:00:00,1372A,113.1083,23.0478,佛山市,华材职中,,30,7,21,13,20,173,95,69,68,7,13,4,5,0.5,0.5
2023-10-02T14:00:00,1373A,113.144,23.0453,佛山市,南海气象局,,,,33,12,21,153,86,65,65,10,14,5,5,0.5,0.5
2023-10-02T14:00:00,1374A,113.2881,22.8094,佛山市,顺德苏岗,,44,22,25,17,14,176,140,86,86,7,9,7,7,0.7,0.7
2023-10-02T14:00:00,1376A,112.8383,22.8678,佛山市,高明孔堂,,40,22,31,18,20,184,128,103,69,15,15,7,6,0.8,0.7
2023-10-02T14:00:00,1377A,112.8836,23.1588,佛山市,三水监测站,,29,19,26,19,21,156,90,80,73,22,19,3,4,0.7,0.6
2023-10-02T14:00:00,1378A,112.867,23.185,佛山市,三水云东海,,28,18,29,18,22,153,88,68,65,16,13,5,4,0.5,0.5
2023-10-02T14:00:00,1379A,113.3769,22.5211,中山市,华柏园,,40,34,26,13,15,138,128,100,100,9,11,6,6,0.5,0.5
2023-10-02T14:00:00,1380A,113.3881,22.5497,中山市,张溪,,40,35,29,9,15,150,128,107,107,8,7,4,5,0.6,0.6
2023-10-02T14:00:00,1381A,113.4075,22.5111,中山市,紫马岭,,42,32,24,13,15,144,132,97,97,4,7,6,7,0.4,0.4
2023-10-02T14:00:00,1382A,113.4411,22.4853,中山市,长江旅游区,,,,,,,,,,,,,,,,
2023-10-02T14:00:00,1383A,113.1064,22.6058,江门市,北街,,47,37,29,17,22,168,148,94,94,10,10,6,5,0.6,0.6
2023-10-02T14:00:00,1384A,113.0731,22.5835,江门市,西区,,50,29,34,16,18,182,157,100,100,11,13,6,6,0.6,0.6
2023-10-02T14:00:00,1385A,113.0219,22.5311,江门市,圭峰西,,44,36,30,17,16,189,139,108,108,9,10,4,4,0.6,0.6
2023-10-02T14:00:00,1386A,113.0828,22.5947,江门市,东湖,,49,32,32,20,18,168,154,100,100,9,9,6,7,0.6,0.7
2023-10-02T14:00:00,1389A,113.7547,23.0494,东莞市,莞城梨川,,42,24,26,18,17,157,132,102,102,10,12,5,5,0.8,0.8
2023-10-02T14:00:00,1390A,113.7944,23.0128,东莞市,东城石井,,47,25,27,16,15,165,150,99,99,5,8,3,3,0.8,0.7
2023-10-02T14:00:00,1391A,113.7383,22.9658,东莞市,南城西平,,42,22,25,13,16,168,132,88,88,10,16,8,8,0.8,0.7
2023-10-02T14:00:00,1392A,114.4183,23.0528,惠州市,河南岸金山湖子站,,36,26,28,15,18,115,113,88,88,6,7,5,5,0.6,0.6
2023-10-02T14:00:00,1393A,114.4053,23.0822,惠州市,下埔横江三路子站,,36,30,29,16,17,114,114,88,88,6,7,6,6,0.7,0.7
2023-10-02T14:00:00,1394A,114.4103,23.1142,惠州市,江北云山西路子站,,38,27,28,16,15,135,121,88,88,2,3,6,7,0.8,0.8
2023-10-02T14:00:00,1395A,114.4645,22.7833,惠州市,惠阳区承修路船湖子站,,,26,27,14,14,134,115,114,98,,7,,4,,0.7
2023-10-02T14:00:00,1396A,114.5317,22.7422,惠州市,大亚湾管委会子站,,35,26,30,8,16,131,112,104,99,8,11,6,6,0.6,0.8
2023-10-02T14:00:00,1397A,112.4267,23.0706,肇庆市,睦岗子站,,31,14,34,8,22,152,97,90,71,10,14,4,7,0.5,0.5
2023-10-02T14:00:00,1398A,112.4645,23.0475,肇庆市,城中子站,,33,13,34,7,23,146,104,79,71,9,21,5,9,0.6,0.6
2023-10-02T14:00:00,1399A,112.5544,23.1522,肇庆市,坑口子站,,30,11,27,10,19,160,94,73,66,12,15,4,5,0.5,0.5
2023-10-02T14:00:00,1400A,112.4753,23.1,肇庆市,七星岩子站,,,,,,,,,,,,,,,,
2023-10-02T14:00:00,1401A,108.3103,22.7881,南宁市,二十一中,,33,32,36,16,24,117,103,73,73,4,9,5,5,0.5,0.7
2023-10-02T14:00:00,1402A,108.3141,22.8528,南宁市,北湖,,40,18,38,20,27,151,128,76,76,6,13,4,7,0.6,0.7
2023-10-02T14:00:00,1403A,108.3206,22.8225,南宁市,市监测站,,38,31,38,19,26,124,121,80,80,7,15,8,9,0.7,0.7
2023-10-02T14:00:00,1404A,108.3829,22.8037,南宁市,大自然花园,,38,33,36,26,26,113,113,69,69,8,14,7,7,0.7,0.8
2023-10-02T14:00:00,1405A,108.4394,22.7904,南宁市,仙葫,,33,29,42,13,27,104,104,62,62,10,21,7,7,0.4,0.5
2023-10-02T14:00:00,1406A,108.2397,22.8467,南宁市,区农职院,,36,21,40,18,24,134,113,68,68,7,16,8,13,0.7,0.7
2023-10-02T14:00:00,1407A,108.3275,22.735,南宁市,英华嘉园,,27,23,35,15,23,100,85,62,62,6,15,6,7,0.5,0.6
2023-10-02T14:00:00,1408A,108.2257,22.7757,南宁市,沙井镇街道办,,33,17,47,16,23,124,103,64,64,6,27,7,6,0.6,0.7
2023-10-02T14:00:00,1409A,110.576,19.9507,海口市,东寨港,,,,,,,,,,,,,,,,
2023-10-02T14:00:00,1410A,110.3232,20.0574,海口市,海南大学,,23,20,24,9,16,94,71,86,72,4,10,6,6,0.4,0.4
2023-10-02T14:00:00,1411A,110.283,20.0053,海口市,秀英海南医院,,23,21,25,8,17,89,71,65,65,5,16,6,7,0.4,0.4
2023-10-02T14:00:00,1412A,110.338,19.9969,海口市,海南师范大学,,23,22,24,9,16,92,71,77,71,3,9,5,5,0.3,0.3
2023-10-02T14:00:00,1413A,110.33,20.0356,海口市,龙华路环保局宿舍,,22,18,22,9,15,84,70,83,68,5,9,8,8,0.3,0.4
2023-10-02T14:00:00,1414A,106.3787,29.8279,重庆市,缙云山,,16,14,13,4,4,65,50,37,37,5,7,6,6,0.2,0.2
2023-10-02T14:00:00,1416A,106.4213,29.8253,重庆市,天生,,11,7,22,6,14,34,16,28,16,22,15,5,6,1.0,0.9
2023-10-02T14:00:00,1417A,106.6263,29.7228,重庆市,两路,,12,6,9,6,8,36,36,29,19,7,12,8,8,0.8,0.9
2023-10-02T14:00:00,1418A,106.2953,29.5983,重庆市,虎溪,,14,14,20,2,11,50,33,31,29,10,11,5,5,0.5,0.5
2023-10-02T14:00:00,1419A,106.5777,29.5102,重庆市,南坪,,12,12,21,5,11,45,26,20,20,22,18,6,6,0.6,0.5
2023-10-02T14:00:00,1420A,106.6556,29.6277,重庆市,唐家沱,,11,5,14,5,8,40,23,20,13,22,15,5,5,0.8,0.8
2023-10-02T14:00:00,1421A,106.6349,29.4906,重庆市,茶园,,13,9,14,4,8,48,35,36,29,25,20,4,5,0.8,0.8
2023-10-02T14:00:00,1422A,106.3754,29.4572,重庆市,白市驿,,18,14,17,12,14,65,34,34,34,14,13,6,6,0.7,0.7
2023-10-02T14:00:00,1425A,106.6205,29.7166,重庆市,空港,,12,8,19,7,11,47,38,34,24,16,15,7,7,0.8,0.8
2023-10-02T14:00:00,1426A,106.4782,29.4875,重庆市,新山村,,,,29,20,12,34,19,21,16,29,26,6,6,0.8,0.8
2023-10-02T14:00:00,1427A,106.5616,29.6453,重庆市,礼嘉,,12,7,12,8,11,45,31,32,18,16,15,6,6,0.8,0.8
2023-10-02T14:00:00,1428A,106.4522,29.7091,重庆市,蔡家,,22,22,23,7,12,45,37,28,28,11,16,6,6,0.8,0.9
2023-10-02T14:00:00,1429A,106.5093,29.3917,重庆市,鱼新街,,16,9,13,11,11,54,35,26,26,22,20,5,5,1.1,1.1
2023-10-02T14:00:00,1431A,103.9728,30.7236,成都市,金泉两河,,22,22,34,14,19,57,50,20,20,14,16,2,3,0.5,0.5
2023-10-02T14:00:00,1432A,104.176,30.6872,成都市,十里店,,23,23,35,8,21,52,51,30,26,12,17,1,2,0.5,0.5
2023-10-02T14:00:00,1433A,104.079,30.5706,成都市,三瓦窑,,16,13,36,2,19,52,49,24,24,11,21,2,3,0.5,0.6
2023-10-02T14:00:00,1434A,104.1114,30.63,成都市,沙河铺,,30,30,48,11,28,46,46,22,22,13,16,2,2,0.5,0.5
2023-10-02T14:00:00,1437A,104.0786,30.6531,成都市,君平街,,26,26,44,14,27,58,52,31,28,16,20,3,4,0.6,0.6
2023-10-02T14:00:00,1438A,103.613,31.0283,成都市,灵岩寺,,16,4,15,3,11,71,50,66,50,4,7,5,6,0.8,0.8
2023-10-02T14:00:00,1439A,106.6899,26.5998,贵阳市,马鞍山,,26,19,15,14,9,82,82,73,73,5,6,5,5,0.3,0.3
2023-10-02T14:00:00,1440A,106.6971,26.5694,贵阳市,市环保站,,27,27,18,15,15,82,82,71,71,8,11,3,3,0.2,0.2
2023-10-02T14:00:00,1441A,106.6243,26.6266,贵阳市,鉴湖路,,21,19,23,7,10,71,65,62,62,2,5,4,4,0.5,0.4
2023-10-02T14:00:00,1442A,106.7487,26.6343,贵阳市,燕子冲,,24,14,16,9,11,77,75,67,67,4,8,6,6,0.5,0.5
2023-10-02T14:00:00,1443A,106.6555,26.4365,贵阳市,碧云窝,,23,19,22,14,10,73,73,65,65,3,5,5,6,0.4,0.4
2023-10-02T14:00:00,1444A,106.694,26.5161,贵阳市,中院村,,24,24,26,14,12,68,68,60,60,8,11,7,8,0.2,0.2
2023-10-02T14:00:00,1445A,106.7109,26.6027,贵阳市,红边门,,27,27,26,12,19,75,71,62,62,8,11,4,4,0.3,0.3
2023-10-02T14:00:00,1446A,106.7164,26.5699,贵阳市,新华路,,27,22,18,14,14,84,84,76,76,6,9,3,7,0.4,0.3
2023-10-02T14:00:00,1447A,106.674,26.5424,贵阳市,太慈桥,,24,9,14,5,9,75,75,67,67,4,5,5,5,0.3,0.3
2023-10-02T14:00:00,1450A,102.8204,24.8886,昆明市,呈贡新区,,17,3,17,5,10,68,54,34,34,9,18,6,6,0.6,0.6
2023-10-02T14:00:00,1451A,102.6251,24.9608,昆明市,西山森林公园,颗粒物(PM10),60,70,70,10,8,67,54,45,40,7,9,8,7,0.5,0.5
2023-10-02T14:00:00,1452A,102.7252,25.0902,昆明市,龙泉镇,,,,18,2,10,61,58,35,32,5,11,8,9,0.5,0.6
2023-10-02T14:00:00,1453A,102.7266,25.0375,昆明市,东风东路,,18,5,14,7,10,63,55,33,33,6,11,7,8,0.4,0.6
2023-10-02T14:00:00,1454A,102.6742,25.0669,昆明市,金鼎山,,19,18,23,6,10,65,59,38,37,8,14,14,16,0.4,0.5
2023-10-02T14:00:00,1455A,102.6644,25.0401,昆明市,碧鸡广场,,18,4,16,6,9,60,55,34,34,6,13,7,7,0.4,0.6
2023-10-02T14:00:00,1456A,91.1319,29.6514,拉萨市,八廓街,,20,12,13,6,7,85,63,55,47,9,14,7,7,0.4,0.4
2023-10-02T14:00:00,1457A,91.1221,29.6747,拉萨市,市环保局,,20,9,12,7,7,84,64,64,48,8,10,7,7,0.3,0.3
2023-10-02T14:00:00,1458A,91.0874,29.6475,拉萨市,区监测站,,19,14,11,6,6,78,59,56,42,8,11,9,9,0.3,0.3
2023-10-02T14:00:00,1459A,91.1774,29.6541,拉萨市,西藏大学,,19,8,12,5,6,86,60,54,45,7,10,9,8,0.3,0.3
2023-10-02T14:00:00,1460A,90.9798,29.6588,拉萨市,区辐射站,,17,13,13,5,6,74,52,62,47,7,10,6,6,0.2,0.3
2023-10-02T14:00:00,1461A,91.0834,29.6292,拉萨市,拉萨火车站,,18,11,12,7,7,76,57,55,43,7,9,6,6,0.2,0.2
2023-10-02T14:00:00,1462A,108.882,34.2749,西安市,高压开关厂,,29,29,43,13,30,79,59,69,58,22,21,7,6,0.4,0.7
2023-10-02T14:00:00,1463A,108.993,34.2629,西安市,兴庆小区,,29,15,28,12,20,74,51,65,51,20,18,6,6,2.9,0.8
2023-10-02T14:00:00,1464A,109.06,34.2572,西安市,纺织城,,20,20,33,13,23,74,52,66,47,24,24,5,5,0.7,0.8
2023-10-02T14:00:00,1465A,108.9356,34.2173,西安市,小寨,,29,29,43,13,22,66,43,63,44,27,22,6,6,0.6,0.8
2023-10-02T14:00:00,1466A,108.954,34.2713,西安市,市人民体育场,,16,13,32,11,25,72,51,65,51,24,23,7,7,0.4,0.7
2023-10-02T14:00:00,1467A,108.8922,34.2322,西安市,高新西区,,,9,32,15,26,74,54,67,52,,18,5,6,0.6,0.8
2023-10-02T14:00:00,1468A,108.935,34.3474,西安市,经开区,,20,20,28,9,22,78,56,69,58,12,13,3,3,0.3,0.6
2023-10-02T14:00:00,1469A,108.906,34.1546,西安市,长安区,,24,24,37,13,25,70,48,65,54,21,17,5,5,0.5,0.8
2023-10-02T14:00:00,1471A,109.2186,34.3731,西安市,临潼区,,23,20,30,16,23,78,49,72,51,18,12,6,5,0.7,0.8
2023-10-02T14:00:00,1472A,108.869,34.378,西安市,草滩,,22,22,36,14,20,83,61,74,62,12,13,3,4,0.1,0.3
2023-10-02T14:00:00,1473A,108.985,34.1978,西安市,曲江文化产业集团,,35,35,34,16,23,64,39,62,46,27,22,4,4,0.6,0.7
2023-10-02T14:00:00,1474A,109.051,34.3213,西安市,广运潭,,19,19,27,9,22,71,52,63,50,17,17,7,7,0.4,0.6
2023-10-02T14:00:00,1476A,103.631,36.1031,兰州市,兰炼宾馆,,40,40,36,26,25,97,69,59,59,17,17,5,4,0.4,0.4
2023-10-02T14:00:00,1477A,104.1373,35.9454,兰州市,榆中兰大校区,,,,,,,,,,,,,,,,
2023-10-02T14:00:00,1478A,103.8412,36.0726,兰州市,生物制品所,,48,43,35,33,31,76,53,45,45,29,23,7,6,0.6,0.6
2023-10-02T14:00:00,1479A,103.831,36.0464,兰州市,铁路设计院,颗粒物(PM10),51,52,36,31,30,90,55,43,43,32,28,8,7,0.5,0.5
2023-10-02T14:00:00,1483A,101.524,36.6867,西宁市,第五水厂,,,,,,,,,,,,,,,,
2023-10-02T14:00:00,1484A,105.9512,38.6016,银川市,贺兰山马莲口,,35,29,34,19,14,124,112,80,80,15,13,10,7,0.5,0.4
2023-10-02T14:00:00,1488A,106.2328,38.4975,银川市,贺兰山东路,,43,34,48,27,26,135,135,79,79,13,22,18,10,0.6,0.7
2023-10-02T14:00:00,1489A,106.1358,38.5036,银川市,学院路,,42,37,52,29,27,121,121,72,72,10,17,13,9,0.4,0.5
2023-10-02T14:00:00,1490A,87.5801,43.8303,乌鲁木齐市,监测站,,36,36,43,18,23,108,74,39,39,29,42,5,5,0.3,0.4
2023-10-02T14:00:00,1491A,87.6046,43.768,乌鲁木齐市,收费所,,29,29,43,18,26,112,82,53,53,22,32,2,2,0.3,0.4
2023-10-02T14:00:00,1492A,87.4754,43.9469,乌鲁木齐市,新疆农科院农场,颗粒物(PM10),67,83,65,29,28,125,45,14,14,40,47,2,2,0.8,0.8
2023-10-02T14:00:00,1493A,87.5525,43.8711,乌鲁木齐市,铁路局,,48,48,43,22,19,116,53,42,42,45,41,5,4,0.5,0.5
2023-10-02T14:00:00,1494A,87.6432,43.831,乌鲁木齐市,三十一中学,颗粒物(PM10),51,52,44,18,23,116,82,49,49,15,28,6,5,0.4,0.5
2023-10-02T14:00:00,1496A,87.7216,44.1747,乌鲁木齐市,米东区环保局,,32,32,34,17,18,114,80,49,31,6,16,10,10,0.3,0.4
2023-10-02T14:00:00,1508A,112.9433,27.8614,湘潭市,板塘,颗粒物(PM10),51,52,43,27,23,75,75,43,43,17,16,10,8,0.5,0.4
2023-10-02T14:00:00,1511A,112.9118,27.8403,湘潭市,市监测站,颗粒物(PM10),52,54,35,28,19,82,82,49,49,11,11,5,4,0.8,0.7
2023-10-02T14:00:00,1512A,112.8937,27.8728,湘潭市,江麓,,48,48,34,27,17,85,85,54,52,16,12,8,7,0.6,0.5
2023-10-02T14:00:00,1513A,112.9227,27.8159,湘潭市,岳塘,颗粒物(PM10),58,65,36,28,19,93,93,56,56,12,9,8,8,0.7,0.5
2023-10-02T14:00:00,1514A,112.9074,27.9119,湘潭市,科大,颗粒物(PM10),52,53,36,23,19,83,83,44,44,13,11,8,7,0.8,0.7
2023-10-02T14:00:00,1515A,113.135,27.8244,株洲市,天台山庄,,38,38,44,24,23,95,95,53,53,8,19,5,5,0.7,0.9
2023-10-02T14:00:00,1518A,113.095,27.8867,株洲市,株冶医院,,45,45,49,26,24,98,98,49,49,12,21,7,6,0.7,0.7
2023-10-02T14:00:00,1519A,113.167,27.8667,株洲市,市四中,,44,44,48,28,25,95,95,49,49,9,21,5,5,0.7,0.7
2023-10-02T14:00:00,1520A,113.143,27.8381,株洲市,火车站,,44,44,45,21,22,96,96,53,53,8,17,5,6,0.8,0.7
2023-10-02T14:00:00,1524A,113.13,27.8528,株洲市,市监测站,,49,46,46,34,26,99,99,54,54,10,20,7,7,0.8,0.8
2023-10-02T14:00:00,1552A,106.805,26.3003,贵阳市,桐木岭,,,,,,,,,,,,,,,,
2023-10-02T14:00:00,1559A,113.251,27.8336,株洲市,大京风景区,,35,35,40,21,26,87,87,47,47,1,8,3,3,0.7,0.7
2023-10-02T14:00:00,1562A,113.0048,27.9153,湘潭市,昭山,,48,48,46,21,19,86,86,52,52,11,13,6,5,1.0,0.9
2023-10-02T14:00:00,1564A,112.4876,27.9164,湘潭市,韶山,,39,39,27,16,9,64,64,59,46,12,10,5,5,0.7,0.6
2023-10-02T14:00:00,1585A,109.8756,40.6532,包头市,市环境监测站,,33,33,56,8,20,87,80,40,40,21,54,11,20,0.6,0.8
2023-10-02T14:00:00,1587A,109.9991,40.5842,包头市,包头八中,,46,46,68,29,26,92,82,48,48,24,44,18,26,0.8,0.8
2023-10-02T14:00:00,1588A,109.8538,40.6821,包头市,青山宾馆,,35,35,50,24,25,94,83,45,45,18,51,11,19,0.9,0.9
2023-10-02T14:00:00,1589A,109.8642,40.6288,包头市,惠龙物流,颗粒物(PM10),52,54,56,29,21,96,83,49,49,20,43,10,20,0.7,0.7
2023-10-02T14:00:00,1590A,110.0377,40.5546,包头市,东河鸿龙湾,,,,,,,,,,,,,,,,
2023-10-02T14:00:00,1591A,110.0023,39.8129,鄂尔多斯市,综合楼,,27,27,73,14,20,114,85,65,65,21,36,7,15,0.6,0.7
2023-10-02T14:00:00,1592A,109.9486,39.8261,鄂尔多斯市,巴音孟克林场办事处,,29,27,53,14,22,121,91,75,75,16,24,11,13,0.6,0.6
2023-10-02T14:00:00,1593A,109.7736,39.5986,鄂尔多斯市,康泽苑,,33,17,40,7,22,120,103,80,80,10,21,7,7,0.5,0.7
2023-10-02T14:00:00,1594A,109.8119,39.5989,鄂尔多斯市,华泰汽车城,,31,17,42,12,20,119,98,68,68,8,24,4,6,0.6,0.7
2023-10-02T14:00:00,1595A,109.9734,39.7884,鄂尔多斯市,奥林花园,,29,29,65,12,21,111,80,64,64,17,30,8,13,0.7,0.7
2023-10-02T14:00:00,1597A,122.2703,40.7094,营口市,大庆路,,45,30,26,16,11,143,143,80,80,10,23,8,7,0.8,0.7
2023-10-02T14:00:00,1598A,122.2150,40.6511,营口市,镜湖西路,,45,37,23,12,10,142,142,88,88,12,22,9,8,0.6,0.5
2023-10-02T14:00:00,1599A,122.1658,40.6789,营口市,西炮台,,44,41,23,14,9,138,138,91,91,14,20,8,7,0.8,0.6
2023-10-02T14:00:00,1600A,124.3303,40.0625,丹东市,江湾东路,,40,22,29,10,17,125,125,69,69,8,22,13,13,0.6,0.8
2023-10-02T14:00:00,1601A,124.4256,40.1503,丹东市,临江后街,,38,23,27,8,14,119,119,71,71,10,22,9,7,0.7,0.7
2023-10-02T14:00:00,1602A,124.3933,40.1461,丹东市,元宝山,,37,20,25,10,11,116,116,59,59,9,21,11,10,0.7,0.7
2023-10-02T14:00:00,1603A,124.3633,40.1092,丹东市,民主桥,,36,28,29,13,12,115,115,63,63,10,28,8,7,0.6,0.6
2023-10-02T14:00:00,1604A,122.0303,41.1489,盘锦市,开发区,,45,29,19,9,11,143,143,79,79,19,24,12,27,0.6,0.5
2023-10-02T14:00:00,1605A,122.0485,41.0883,盘锦市,兴隆台,,48,34,23,13,9,153,153,78,78,16,24,12,18,0.7,0.4
2023-10-02T14:00:00,1606A,121.8297,41.1028,盘锦市,新生街道,,49,41,17,15,10,155,155,74,74,15,20,11,10,0.7,0.3
2023-10-02T14:00:00,1607A,120.9092,40.7136,葫芦岛市,龙港区,臭氧1小时,54,43,24,22,8,163,163,89,89,11,17,15,11,0.9,0.4
2023-10-02T14:00:00,1608A,120.8392,40.7514,葫芦岛市,化工街,颗粒物(PM10),56,61,42,19,15,154,154,81,81,12,40,12,12,1.0,0.6
2023-10-02T14:00:00,1609A,120.8341,40.7073,葫芦岛市,新区,臭氧1小时,69,58,26,27,10,175,175,85,85,12,33,12,8,1.2,0.6
2023-10-02T14:00:00,1610A,120.8695,40.7677,葫芦岛市,东城区,臭氧1小时,63,71,43,31,17,170,170,80,80,18,44,16,17,1.2,0.8
2023-10-02T14:00:00,1611A,118.5819,24.9117,泉州市,涂山街,,47,47,35,14,11,143,143,124,124,8,7,6,6,0.6,0.7
2023-10-02T14:00:00,1612A,118.5972,24.8978,泉州市,津头埔,,50,50,33,19,15,141,141,123,123,12,10,6,5,0.6,0.6
2023-10-02T14:00:00,1613A,118.6663,24.9424,泉州市,万安,颗粒物(PM10),52,54,40,19,15,144,143,128,128,11,10,3,3,0.7,0.7
2023-10-02T14:00:00,1614A,118.6117,24.9604,泉州市,清源山,,,,,,,,,,,,,,,,
2023-10-02T14:00:00,1616A,117.6795,36.229,济南市,技术学院,,45,22,41,12,17,144,144,84,84,9,39,10,10,0.5,0.8
2023-10-02T14:00:00,1618A,118.3429,35.0532,临沂市,沂河小区,,38,27,37,16,16,121,121,87,66,12,28,8,12,0.2,0.3
2023-10-02T14:00:00,1619A,118.295,35.0583,临沂市,鲁南制药厂,,41,24,32,13,13,130,130,91,75,7,25,7,16,0.3,0.4
2023-10-02T14:00:00,1620A,118.2794,34.9976,临沂市,新光毛纺厂,,38,14,44,15,17,121,121,62,62,10,34,8,15,0.4,0.6
2023-10-02T14:00:00,1621A,118.3956,35.0888,临沂市,河东保险公司,,39,22,40,13,15,122,122,62,62,6,30,4,5,0.4,0.5
2023-10-02T14:00:00,1622A,116.3032,37.4674,德州市,儿童乐园,,45,41,55,9,22,144,144,98,98,6,28,9,12,0.5,0.6
2023-10-02T14:00:00,1624A,116.2991,37.4451,德州市,监理站,,44,30,55,5,20,138,138,86,86,9,43,11,13,0.4,0.5
2023-10-02T14:00:00,1625A,115.9848,36.4372,聊城市,区政府,,39,30,49,12,23,124,124,77,77,6,40,3,6,0.5,0.4
2023-10-02T14:00:00,1628A,118.0062,37.3803,滨州市,市环保局,,46,38,53,17,26,147,147,86,86,12,39,11,11,0.4,0.6
2023-10-02T14:00:00,1629A,118.0018,37.3617,滨州市,第二水厂,,50,46,67,11,28,158,158,91,91,14,50,12,11,0.6,0.6
2023-10-02T14:00:00,1630A,117.9776,37.393,滨州市,北中新校,,48,40,49,18,22,153,153,86,86,8,38,10,10,0.6,0.8
2023-10-02T14:00:00,1631A,118.0414,36.8103,淄博市,人民公园,,46,41,61,19,32,145,145,86,86,13,49,9,11,0.5,0.9
2023-10-02T14:00:00,1633A,117.8525,36.4847,淄博市,双山,,44,20,38,9,16,140,140,92,92,7,25,8,8,0.4,0.4
2023-10-02T14:00:00,1634A,117.9592,36.6331,淄博市,气象站,,44,23,40,7,19,138,138,96,96,4,28,5,10,0.1,0.4
2023-10-02T14:00:00,1635A,118.3092,36.8194,淄博市,莆田园,臭氧1小时,69,39,56,19,24,175,175,122,122,12,33,10,16,0.4,1.4
2023-10-02T14:00:00,1637A,117.558,34.8438,枣庄市,市中区政府,,40,36,54,9,21,131,125,87,87,18,34,7,16,0.2,0.3
2023-10-02T14:00:00,1638A,117.2852,34.7837,枣庄市,薛城环保局,,40,37,45,15,16,129,127,82,82,15,27,6,7,0.4,0.5
2023-10-02T14:00:00,1639A,117.5852,34.7745,枣庄市,峄城区政府,,42,34,43,5,11,134,133,89,89,13,23,6,10,0.4,0.4
2023-10-02T14:00:00,1640A,117.7276,34.5578,枣庄市,台儿庄区环保局,,37,36,44,12,17,124,118,75,75,21,29,9,8,0.5,0.5
2023-10-02T14:00:00,1641A,117.4518,35.0992,枣庄市,山亭区环保局,,43,27,24,12,12,137,137,96,95,14,17,9,8,0.5,0.5
2023-10-02T14:00:00,1642A,121.2514,37.5639,烟台市,开发区,,18,14,35,5,11,101,57,52,52,27,31,9,10,0.5,0.7
2023-10-02T14:00:00,1643A,121.3719,37.5433,烟台市,轴承厂,,35,9,30,7,14,118,112,100,100,4,20,4,6,0.2,0.4
2023-10-02T14:00:00,1644A,121.3181,37.5436,烟台市,西郊化工站,,38,12,35,5,13,122,121,90,90,7,25,4,6,0.5,0.7
2023-10-02T14:00:00,1645A,121.4478,37.4822,烟台市,莱山环保局,,38,9,26,3,9,127,119,96,96,2,15,6,7,0.3,0.5
2023-10-02T14:00:00,1646A,121.2611,37.4967,烟台市,福山环保局,,36,24,38,7,15,115,115,77,77,14,27,4,3,0.4,0.4
2023-10-02T14:00:00,1650A,119.1437,36.7023,潍坊市,环保局,,,,,,,,,,,,,,,,
2023-10-02T14:00:00,1653A,116.6251,35.4302,济宁市,火炬城,,40,40,47,5,14,123,108,67,67,10,32,12,12,0.2,0.3
2023-10-02T14:00:00,1655A,116.5491,35.4042,济宁市,电化厂,,46,46,54,19,21,123,107,75,75,12,27,9,9,0.4,0.5
2023-10-02T14:00:00,1656A,117.1437,36.1937,泰安市,监测站,,,39,41,18,20,137,137,87,87,,25,11,10,,0.7
2023-10-02T14:00:00,1657A,117.0885,36.2017,泰安市,人口学校,,45,27,29,14,14,143,143,88,88,8,20,9,9,0.5,0.5
2023-10-02T14:00:00,1658A,117.1089,36.1758,泰安市,电力学校,,45,31,53,20,22,144,144,79,79,4,33,10,10,0.3,0.4
2023-10-02T14:00:00,1659A,119.471,35.4209,日照市,监测站,,39,31,34,12,12,122,122,60,60,20,38,17,8,1.2,0.8
2023-10-02T14:00:00,1660A,119.523,35.4216,日照市,市政府广场,,44,24,27,11,10,138,138,73,73,16,32,13,6,1.0,0.5
2023-10-02T14:00:00,1661A,119.5587,35.4044,日照市,港务局,,48,48,37,11,13,129,129,63,63,30,49,26,9,1.8,0.7
2023-10-02T14:00:00,1662A,122.1214,37.4236,威海市,华夏技校,,32,17,8,5,4,101,100,81,79,13,13,4,3,0.2,0.3
2023-10-02T14:00:00,1663A,122.0508,37.5236,威海市,山大分校,,36,17,16,5,5,119,113,96,96,4,7,4,4,0.2,0.3
2023-10-02T14:00:00,1664A,122.1067,37.5072,威海市,市监测站,,32,10,14,10,4,102,102,86,76,10,14,6,6,0.4,0.4
2023-10-02T14:00:00,1666A,118.6614,37.4309,东营市,市环保局,臭氧1小时,79,41,59,19,31,183,183,103,103,15,50,13,22,0.6,0.7
2023-10-02T14:00:00,1669A,113.5824,24.7733,韶关市,市八中,细颗粒物(PM2.5),55,54,37,39,22,130,130,80,80,5,5,17,14,1.1,0.9
2023-10-02T14:00:00,1671A,113.5917,24.7972,韶关市,园林处,,50,48,35,35,28,122,122,84,84,2,3,11,11,0.9,0.8
2023-10-02T14:00:00,1672A,113.6735,24.7791,韶关市,韶关学院,颗粒物(PM10),59,68,38,40,29,123,123,74,74,6,7,10,13,1.0,0.8
2023-10-02T14:00:00,1673A,113.5971,24.6863,韶关市,曲江监测站,,42,33,38,29,26,111,111,78,78,4,6,8,12,0.7,0.7
2023-10-02T14:00:00,1674A,116.6794,23.3667,汕头市,金平子站,,47,30,28,15,12,150,150,115,115,8,8,7,5,0.7,0.7
2023-10-02T14:00:00,1675A,116.7244,23.3633,汕头市,龙湖子站,,45,30,29,11,11,143,143,114,114,7,8,6,6,0.7,0.8
2023-10-02T14:00:00,1676A,116.7258,23.2775,汕头市,濠江子站,,45,43,28,8,11,144,144,119,119,8,7,8,8,0.5,0.5
2023-10-02T14:00:00,1677A,116.7519,23.4714,汕头市,澄海子站,,45,43,32,13,14,142,141,110,110,10,10,10,9,0.4,0.5
2023-10-02T14:00:00,1678A,116.6092,23.2539,汕头市,潮阳子站,,48,38,32,3,8,153,153,117,117,4,4,9,8,0.7,0.7
2023-10-02T14:00:00,1680A,110.3539,21.2706,湛江市,湛江影剧院,,23,18,33,11,16,136,72,91,69,3,11,6,9,0.6,0.6
2023-10-02T14:00:00,1681A,110.3928,21.2228,湛江市,市环境监测站,,,,,,,,,,,,,,,,
2023-10-02T14:00:00,1682A,110.4019,21.1997,湛江市,环保局宿舍,,24,13,27,12,18,107,75,83,66,3,11,4,5,0.7,0.8
2023-10-02T14:00:00,1683A,110.4111,21.2028,湛江市,霞山游泳场,,24,17,27,12,15,104,76,86,64,4,12,4,6,0.7,0.6
2023-10-02T14:00:00,1684A,110.3316,21.2679,湛江市,麻章区环保局,,25,14,33,17,21,131,71,78,57,5,13,6,8,0.5,0.6
2023-10-02T14:00:00,1685A,110.4558,21.2567,湛江市,坡头区环保局,,27,16,27,11,18,118,84,90,69,3,8,4,6,0.5,0.5
2023-10-02T14:00:00,1686A,111.0286,21.4688,茂名市,电白南海,,36,31,36,17,23,136,115,87,80,7,9,8,9,0.9,0.8
2023-10-02T14:00:00,1687A,110.9294,21.6533,茂名市,茂石化七小,,32,24,32,14,19,129,101,75,75,6,10,5,11,0.7,0.7
2023-10-02T14:00:00,1688A,110.9107,21.6687,茂名市,健康路,,34,24,28,7,14,128,106,87,80,5,10,6,10,0.6,0.6
2023-10-02T14:00:00,1689A,110.8592,21.6828,茂名市,高岭,,31,27,35,19,26,122,98,82,73,9,13,5,9,0.6,0.7
2023-10-02T14:00:00,1690A,116.1231,24.3284,梅州市,梅江月梅,,32,6,20,8,12,105,102,80,80,6,11,3,3,0.8,0.8
2023-10-02T14:00:00,1691A,116.0797,24.2719,梅州市,梅县新城,,29,15,19,8,14,109,91,86,82,4,8,6,6,0.8,0.8
2023-10-02T14:00:00,1692A,116.1248,24.2654,梅州市,环境监控中心,,30,16,19,4,11,110,96,97,82,6,9,7,7,0.7,0.7
2023-10-02T14:00:00,1693A,115.3653,22.775,汕尾市,市环保局,,44,39,27,17,15,139,139,111,111,5,5,3,4,0.7,0.7
2023-10-02T14:00:00,1694A,115.3706,22.7898,汕尾市,市政府,,47,45,28,16,13,149,149,116,113,6,6,7,6,0.6,0.7
2023-10-02T14:00:00,1695A,115.3622,22.7925,汕尾市,新城中学,,39,38,31,19,16,124,124,101,97,4,4,8,7,0.7,0.7
2023-10-02T14:00:00,1696A,114.6778,23.7569,河源市,源西,,26,9,25,10,20,97,82,72,56,5,10,4,4,0.8,0.7
2023-10-02T14:00:00,1697A,114.6944,23.7586,河源市,东埔,,27,6,32,9,20,96,86,71,64,6,9,5,5,0.8,0.7
2023-10-02T14:00:00,1698A,114.6892,23.7233,河源市,老城,,27,12,26,10,16,99,86,75,67,6,8,4,4,0.8,0.8
2023-10-02T14:00:00,1699A,111.9797,21.8593,阳江市,鸳鸯湖,,32,27,28,18,21,120,102,87,82,3,5,8,8,0.8,0.8
2023-10-02T14:00:00,1701A,111.9491,21.8658,阳江市,马南垌,,31,24,28,12,20,116,98,83,80,1,7,5,6,0.6,0.6
2023-10-02T14:00:00,1702A,113.0426,23.691,清远市,环保大楼,,29,11,20,12,16,115,92,89,89,3,6,7,8,0.6,0.7
2023-10-02T14:00:00,1703A,113.0208,23.7106,清远市,凤城街办,,27,14,23,9,16,110,86,90,82,12,10,8,8,0.6,0.6
2023-10-02T14:00:00,1705A,116.6367,23.6719,潮州市,西园路,颗粒物(PM10),58,65,34,21,18,150,147,90,90,11,9,11,5,0.6,0.6
2023-10-02T14:00:00,1706A,116.6447,23.6706,潮州市,档案局,臭氧1小时,64,64,33,13,14,171,171,103,103,11,8,16,9,0.8,0.7
2023-10-02T14:00:00,1708A,116.3701,23.5345,揭阳市,新兴,,47,47,32,20,21,159,122,102,102,4,6,8,8,0.7,0.7
2023-10-02T14:00:00,1709A,116.3264,23.5443,揭阳市,西马,,37,37,36,22,17,160,113,96,96,5,6,7,7,0.8,0.8
2023-10-02T14:00:00,1710A,116.3611,23.5626,揭阳市,东兴,,36,24,38,15,17,160,114,99,97,6,10,5,5,0.9,0.9
2023-10-02T14:00:00,1711A,116.4151,23.5294,揭阳市,渔湖,,42,38,34,24,17,160,132,103,103,6,9,5,6,0.7,0.7
2023-10-02T14:00:00,1712A,112.0392,22.9169,云浮市,新市府,,31,31,28,15,18,97,97,72,72,2,3,5,5,0.8,0.9
2023-10-02T14:00:00,1714A,112.0539,22.9539,云浮市,牧羊,,35,26,36,16,21,112,110,72,70,5,13,7,9,0.5,0.6
2023-10-02T14:00:00,1715A,102.575,24.3711,玉溪市,东风水库,,18,5,15,8,11,55,55,29,29,6,8,6,6,0.7,0.7
2023-10-02T14:00:00,1718A,115.4208,35.2464,菏泽市,气象局,,50,50,54,23,19,132,132,87,87,16,32,6,4,0.3,0.4
2023-10-02T14:00:00,1719A,115.4747,35.2375,菏泽市,市政协,,46,46,49,19,22,132,132,85,85,14,26,7,6,0.3,0.3
2023-10-02T14:00:00,1721A,113.3819,40.1097,大同市,果树场,,,,,,,,,,,,,,,,
2023-10-02T14:00:00,1723A,113.2994,40.0758,大同市,云冈宾馆,颗粒物(PM10),74,98,86,25,29,108,98,44,44,26,53,22,15,0.5,1.1
2023-10-02T14:00:00,1724A,113.3444,40.0917,大同市,大同大学,颗粒物(PM10),69,88,68,27,27,109,94,51,51,24,39,19,19,0.5,0.6
2023-10-02T14:00:00,1725A,113.2661,40.1269,大同市,安家小村,颗粒物(PM10),67,83,76,32,28,116,104,59,59,26,31,25,21,0.6,0.7
2023-10-02T14:00:00,1726A,113.2711,40.0844,大同市,教育学院,颗粒物(PM10),79,108,100,30,35,108,96,47,47,30,58,21,17,0.7,1.3
2023-10-02T14:00:00,1727A,113.1147,36.1547,长治市,清华站,,34,34,36,9,20,116,93,62,42,13,21,8,9,0.7,0.8
2023-10-02T14:00:00,1728A,113.1031,36.1989,长治市,监测站,,35,35,32,17,22,119,85,63,45,22,25,8,9,1.0,1
2023-10-02T14:00:00,1730A,113.0886,36.2125,长治市,审计局,,35,35,31,14,22,109,84,68,42,15,20,10,10,0.7,0.6
2023-10-02T14:00:00,1731A,113.0844,36.1856,长治市,长治八中,,33,33,38,15,17,119,89,61,44,15,21,12,13,0.7,0.6
2023-10-02T14:00:00,1733A,111.5531,36.0783,临汾市,临钢医院,,25,25,39,11,19,99,44,38,38,22,24,10,10,0.5,0.7
2023-10-02T14:00:00,1734A,111.5028,36.0714,临汾市,技工学校,,24,24,38,8,26,110,69,53,53,15,27,10,11,0.6,0.8
2023-10-02T14:00:00,1736A,111.5018,36.0855,临汾市,市委,,30,22,41,21,25,119,70,58,58,17,23,10,11,0.8,0.9
2023-10-02T14:00:00,1738A,113.5758,37.8572,阳泉市,市中心,,45,45,55,24,21,117,117,51,51,32,56,13,18,0.8,1
2023-10-02T14:00:00,1739A,113.4894,37.8731,阳泉市,赛鱼,,46,46,57,25,24,138,138,82,82,19,48,13,11,0.6,0.6
2023-10-02T14:00:00,1740A,113.5819,37.8486,阳泉市,南庄,颗粒物(PM10),59,68,72,31,28,118,118,54,54,30,40,14,18,0.8,0.9
2023-10-02T14:00:00,1742A,113.5614,37.8703,阳泉市,平坦,颗粒物(PM10),52,54,57,33,25,124,124,71,71,27,51,11,12,0.8,0.8
2023-10-02T14:00:00,1743A,113.5158,37.8392,阳泉市,大阳泉,,50,50,45,20,23,141,141,87,87,19,26,13,12,0.6,0.6
2023-10-02T14:00:00,1744A,118.9233,42.2816,赤峰市,松山一中,,39,22,42,3,15,123,123,52,52,16,38,11,12,0.3,0.5
2023-10-02T14:00:00,1745A,118.9576,42.2728,赤峰市,哈达街,,35,26,31,14,12,112,112,56,56,24,36,15,15,0.4,0.4
2023-10-02T14:00:00,1746A,118.8788,42.2554,赤峰市,天义路,,42,11,31,5,12,134,134,69,69,12,30,10,17,0.3,0.4
2023-10-02T14:00:00,1748A,123.044,41.1196,鞍山市,深沟寺,,35,23,26,8,12,110,110,85,85,8,15,6,8,0.7,0.9
2023-10-02T14:00:00,1749A,123.011,41.0931,鞍山市,太阳城,,35,25,31,10,14,110,110,80,80,12,22,10,11,0.6,0.8
2023-10-02T14:00:00,1750A,123.0485,41.1442,鞍山市,太平,,35,35,45,16,20,100,99,73,73,16,33,11,14,0.7,1.2
2023-10-02T14:00:00,1751A,122.9642,41.0971,鞍山市,铁西三道街,,34,24,42,6,15,106,106,74,74,11,33,7,11,0.7,1
2023-10-02T14:00:00,1752A,122.9341,41.0833,鞍山市,铁西工业园区,,35,28,46,6,18,109,109,79,79,7,30,10,15,0.6,0.9
2023-10-02T14:00:00,1753A,123.022,41.0821,鞍山市,明达新区,,33,25,31,10,14,105,105,78,78,12,23,8,10,0.7,0.7
2023-10-02T14:00:00,1754A,123.1289,41.0228,鞍山市,千山,,,,,,,,,,,,,,,,
2023-10-02T14:00:00,1755A,123.7977,41.8491,抚顺市,望花区,,41,41,48,9,21,98,98,50,50,20,31,13,11,0.5,0.6
2023-10-02T14:00:00,1756A,123.9161,41.8822,抚顺市,顺城区,,32,32,52,10,24,92,92,46,46,20,31,11,8,0.7,0.8
2023-10-02T14:00:00,1757A,124.0436,41.8611,抚顺市,东洲区,,34,32,28,9,18,108,108,56,56,10,15,12,9,0.6,0.7
2023-10-02T14:00:00,1758A,123.9247,41.8642,抚顺市,新抚区,,36,36,35,10,22,103,103,51,51,8,22,12,9,0.7,0.7
2023-10-02T14:00:00,1759A,124.0972,41.8961,抚顺市,大伙房水库,,43,43,24,6,13,102,102,56,56,8,13,11,8,0.6,0.5
2023-10-02T14:00:00,1760A,123.7086,41.8391,抚顺市,沈抚新城,,40,40,45,11,24,102,102,51,51,9,25,11,16,0.4,0.7
2023-10-02T14:00:00,1761A,123.8275,41.3064,本溪市,大峪,,31,27,36,14,14,99,99,50,50,17,30,14,10,1.0,1.1
2023-10-02T14:00:00,1762A,123.7567,41.3325,本溪市,溪湖,,34,31,58,8,21,106,106,51,51,12,31,15,15,0.7,1.4
2023-10-02T14:00:00,1763A,123.7169,41.3094,本溪市,彩屯,,,23,74,8,37,102,99,53,53,15,35,12,13,,2.7
2023-10-02T14:00:00,1764A,123.7669,41.2864,本溪市,东明,,32,30,55,18,27,104,102,50,50,20,39,20,15,1.1,1.3
2023-10-02T14:00:00,1765A,123.7992,41.2664,本溪市,新立屯,,32,23,25,11,12,100,100,55,55,13,26,14,12,0.7,0.7
2023-10-02T14:00:00,1766A,123.8142,41.3472,本溪市,威宁,,32,28,47,9,16,100,100,46,46,11,26,10,7,0.8,0.8
2023-10-02T14:00:00,1767A,121.1115,41.0879,锦州市,南山,,42,38,32,17,21,134,134,72,72,16,24,12,14,0.7,0.6
2023-10-02T14:00:00,1768A,121.0533,40.8434,锦州市,开发区,颗粒物(PM10),69,87,75,23,24,153,153,67,67,15,48,15,26,1.0,0.8
2023-10-02T14:00:00,1769A,121.1836,41.1119,锦州市,百股街道,,46,25,26,9,13,146,146,79,79,14,25,12,12,0.9,0.7
2023-10-02T14:00:00,1770A,121.1178,41.1222,锦州市,天安街道,细颗粒物(PM2.5),57,38,38,40,24,127,127,68,68,18,26,14,16,0.7,0.8
2023-10-02T14:00:00,1771A,121.1303,41.1386,锦州市,北湖公园,,41,34,38,9,14,130,130,60,60,13,24,13,14,0.6,0.6
2023-10-02T14:00:00,1772A,126.54,43.8622,吉林市,哈达湾,,28,16,21,6,10,88,88,64,64,6,20,7,7,0.4,0.5
2023-10-02T14:00:00,1773A,126.5844,43.8358,吉林市,东局子,,27,12,19,8,10,90,86,65,65,9,20,7,7,0.3,0.4
2023-10-02T14:00:00,1774A,126.5052,43.8245,吉林市,电力学院,,28,16,27,7,15,92,89,64,64,5,21,8,8,0.4,0.6
2023-10-02T14:00:00,1775A,126.6133,43.8972,吉林市,江北,,27,24,26,6,11,89,84,63,63,12,19,10,10,0.4,0.5
2023-10-02T14:00:00,1776A,126.555,43.8306,吉林市,江南公园,,26,19,20,11,10,88,81,61,61,8,20,6,7,0.4,0.4
2023-10-02T14:00:00,1778A,126.7061,43.7133,吉林市,丰满,,,,,,,,,,,,,,,,
2023-10-02T14:00:00,1779A,123.9305,47.3636,齐齐哈尔市,安居小区,,25,19,25,5,12,79,79,52,52,3,12,5,5,0.1,0.2
2023-10-02T14:00:00,1780A,123.9488,47.3386,齐齐哈尔市,中心广场,,24,13,17,10,11,74,74,51,51,8,13,1,2,0.4,0.4
2023-10-02T14:00:00,1781A,123.9483,47.3227,齐齐哈尔市,农牧车辆厂,,23,14,26,4,7,75,73,51,51,9,12,5,6,0.2,0.3
2023-10-02T14:00:00,1783A,123.945,47.2988,齐齐哈尔市,市环境监测站,,24,18,23,5,11,75,75,53,53,5,11,4,5,0.1,0.2
2023-10-02T14:00:00,1784A,129.61,44.561,牡丹江市,环保大楼,,26,14,23,14,13,83,83,60,60,6,16,5,5,0.3,0.4
2023-10-02T14:00:00,1785A,129.6115,44.5782,牡丹江市,文化广场,,26,19,25,17,16,82,82,54,54,6,20,5,5,0.2,0.4
2023-10-02T14:00:00,1786A,129.5904,44.5963,牡丹江市,第一医院,,27,27,27,10,21,81,81,52,52,4,15,6,6,0.2,0.4
2023-10-02T14:00:00,1787A,129.6364,44.6075,牡丹江市,机车工厂,,35,35,32,8,11,82,82,53,53,1,12,5,5,0.3,0.5
2023-10-02T14:00:00,1788A,129.6386,44.5462,牡丹江市,第一中学,,27,15,27,9,15,84,84,56,56,5,14,5,5,0.3,0.3
2023-10-02T14:00:00,1789A,124.81117,46.03138,大庆市,大同区,,26,12,22,3,11,82,82,58,58,4,13,5,6,0.4,0.4
2023-10-02T14:00:00,1790A,125.129,46.533,大庆市,龙凤区,,23,16,25,8,13,72,72,46,46,9,17,4,5,0.4,0.5
2023-10-02T14:00:00,1791A,124.902,46.408,大庆市,红岗区,,25,9,15,10,11,80,80,58,58,5,11,4,4,0.2,0.4
2023-10-02T14:00:00,1792A,125.153,46.586,大庆市,萨尔图区,,25,25,26,8,11,65,65,52,45,16,20,9,9,0.2,0.3
2023-10-02T14:00:00,1793A,124.9042,46.6215,大庆市,让胡路区,,25,10,24,11,15,78,78,52,52,5,17,5,5,0.2,0.3
2023-10-02T14:00:00,1794A,118.3606,31.3519,芜湖市,监测站,,31,31,39,10,12,153,95,72,70,13,16,8,8,0.3,0.4
2023-10-02T14:00:00,1795A,118.3714,31.4134,芜湖市,科创中心,,36,36,38,14,14,156,95,72,72,16,21,8,7,0.4,0.3
2023-10-02T14:00:00,1796A,118.3673,31.3131,芜湖市,四水厂,,30,30,42,9,12,156,94,74,74,6,9,6,6,0.5,0.6
2023-10-02T14:00:00,1798A,118.5092,31.6837,马鞍山市,湖东路四小,,27,14,30,8,10,137,85,76,63,16,19,8,8,0.5,0.5
2023-10-02T14:00:00,1799A,118.5024,31.6449,马鞍山市,开发区,,29,29,32,9,12,140,84,75,62,12,12,9,9,0.7,0.7
2023-10-02T14:00:00,1800A,118.5228,31.7231,马鞍山市,慈湖,,27,25,34,13,19,140,86,80,66,14,15,10,8,0.7,0.7
2023-10-02T14:00:00,1802A,118.6245,31.7241,马鞍山市,濮塘,,26,21,30,11,17,129,81,84,62,8,8,6,7,0.7,0.6
2023-10-02T14:00:00,1803A,115.9872,29.6815,九江市,十里,,38,38,37,18,19,102,101,78,78,15,13,10,10,0.7,0.8
2023-10-02T14:00:00,1804A,115.9584,29.7046,九江市,茅山头,,42,42,37,20,22,99,99,69,69,16,21,11,11,0.8,0.8
2023-10-02T14:00:00,1805A,115.9877,29.7295,九江市,西园,,46,46,40,19,22,112,112,83,83,16,21,9,10,0.7,0.9
2023-10-02T14:00:00,1806A,116.0172,29.6547,九江市,五七二七厂,,36,35,28,18,18,114,114,78,78,12,9,15,11,1.0,0.8
2023-10-02T14:00:00,1808A,115.9114,29.6038,九江市,综合工业园,,44,44,37,22,20,105,105,82,82,23,29,14,13,0.8,0.8
2023-10-02T14:00:00,1809A,116.0721,29.7535,九江市,石化总厂,,36,36,40,13,22,108,108,73,73,15,22,11,10,0.9,1
2023-10-02T14:00:00,1810A,115.9773,29.5698,九江市,庐山气象台,,39,39,16,27,15,95,80,92,75,8,4,7,7,0.9,1
2023-10-02T14:00:00,1812A,112.3931,34.6516,洛阳市,市委党校,,23,18,27,16,22,94,63,83,72,15,14,2,4,0.5,0.5
2023-10-02T14:00:00,1814A,112.4657,34.6871,洛阳市,豫西宾馆,,26,9,21,18,23,88,75,74,69,10,16,3,3,0.7,0.7
2023-10-02T14:00:00,1815A,112.494,34.6886,洛阳市,河南林校,,23,12,21,15,19,92,73,70,70,9,14,2,2,0.3,0.4
2023-10-02T14:00:00,1816A,112.3844,34.623,洛阳市,开发区管委会,,24,17,24,12,17,106,76,71,71,12,12,3,3,0.2,0.2
2023-10-02T14:00:00,1817A,112.4267,34.6258,洛阳市,市委新办公区,,,,27,,20,97,66,72,67,14,9,3,2,,0
2023-10-02T14:00:00,1818A,114.4839,36.0621,安阳市,棉研所,,,,,,,,,,,,,,,,
2023-10-02T14:00:00,1819A,114.3551,36.1017,安阳市,红庙街,,32,32,42,11,14,115,93,63,63,12,24,8,9,0.6,0.6
2023-10-02T14:00:00,1820A,114.361,36.0681,安阳市,银杏小区,,41,41,44,21,16,111,86,54,54,8,20,9,10,0.4,0.4
2023-10-02T14:00:00,1824A,114.3389,34.7781,开封市,肿瘤医院,,32,32,38,13,26,111,97,73,73,6,14,5,6,0.5,0.6
2023-10-02T14:00:00,1826A,114.2885,34.7965,开封市,世纪星幼儿园,,29,29,30,11,13,106,89,70,70,15,22,4,5,0.4,0.6
2023-10-02T14:00:00,1828A,113.227,35.2125,焦作市,市环保局,,29,23,36,16,17,100,90,62,60,12,20,4,7,0.6,0.5
2023-10-02T14:00:00,1830A,113.1992,35.2590,焦作市,影视城,,,,,,,,,,,,,,,,
2023-10-02T14:00:00,1832A,113.3257,33.742,平顶山市,新华旅馆,,42,42,34,23,24,110,66,86,67,20,19,4,5,0.4,0.4
2023-10-02T14:00:00,1833A,113.2919,33.737,平顶山市,规划设计院,,29,25,24,20,16,115,64,82,61,13,11,6,6,0.5,0.4
2023-10-02T14:00:00,1834A,113.182,33.774,平顶山市,平顶山工学院,,34,34,31,19,12,121,72,80,63,15,16,4,7,0.3,0.3
2023-10-02T14:00:00,1835A,111.1922,34.7752,三门峡市,市政府,,24,20,15,7,11,98,75,94,81,12,11,5,5,0.4,0.5
2023-10-02T14:00:00,1836A,111.1587,34.7942,三门峡市,开发区,,32,32,24,14,17,101,69,88,76,15,13,5,6,0.3,0.3
2023-10-02T14:00:00,1838A,111.143,34.7955,三门峡市,风景区,,,,,,,,,,,,,,,,
2023-10-02T14:00:00,1840A,111.2992,30.6981,宜昌市,白龙岗,,22,12,20,2,13,75,68,61,58,18,19,6,6,0.7,0.7
2023-10-02T14:00:00,1841A,111.3549,30.6465,宜昌市,伍家岗,,21,11,21,9,16,73,65,62,60,15,18,5,4,0.8,0.7
2023-10-02T14:00:00,1842A,111.2628,30.6961,宜昌市,点军区,,22,13,29,2,14,84,70,66,66,14,13,8,8,0.7,0.6
2023-10-02T14:00:00,1843A,111.3275,30.7819,宜昌市,夷陵区,,22,19,24,5,15,69,69,55,51,14,14,6,6,0.5,0.5
2023-10-02T14:00:00,1844A,112.2494,30.3197,荆州市,市图书馆,,22,8,32,5,20,98,69,81,73,13,10,5,5,0.7,0.7
2023-10-02T14:00:00,1845A,112.2008,30.3544,荆州市,市委党校,,24,10,32,6,17,96,74,83,77,14,10,5,6,0.6,0.6
2023-10-02T14:00:00,1847A,113.1094,29.3578,岳阳市,南湖风景区,,22,19,26,15,19,83,42,59,47,11,13,7,9,0.7,0.8
2023-10-02T14:00:00,1848A,113.1493,29.4251,岳阳市,城陵矶,,16,16,26,8,15,77,41,54,44,14,17,6,6,0.7,0.7
2023-10-02T14:00:00,1849A,113.1497,29.3575,岳阳市,开发区,,32,28,28,22,21,81,41,58,41,11,11,7,8,0.7,0.8
2023-10-02T14:00:00,1850A,113.2621,29.4758,岳阳市,云溪区,,32,32,26,18,17,80,39,56,37,19,16,14,8,0.7,0.7
2023-10-02T14:00:00,1851A,112.9943,29.4402,岳阳市,君山区,,23,14,26,16,24,94,51,56,50,10,12,4,5,0.5,0.6
2023-10-02T14:00:00,1852A,113.2117,29.355,岳阳市,金凤水库,,,,25,28,18,94,65,65,57,6,5,4,4,,0.7
2023-10-02T14:00:00,1854A,111.6975,28.9703,常德市,市二中,,20,12,30,4,18,87,62,78,64,8,7,6,6,0.5,0.6
2023-10-02T14:00:00,1857A,111.7158,29.1456,常德市,白鹤山,,22,4,21,6,5,89,69,84,65,2,2,4,4,0.4,0.5
2023-10-02T14:00:00,1858A,110.5319,29.1217,张家界市,永定新区,,22,15,30,5,16,88,68,69,69,6,9,6,6,0.6,0.6
2023-10-02T14:00:00,1859A,110.4697,29.1242,张家界市,电业局,,19,15,25,9,18,85,59,69,65,12,10,8,7,0.6,0.5
2023-10-02T14:00:00,1860A,110.5594,29.3547,张家界市,未央路,,21,7,24,5,12,78,67,54,54,5,8,3,3,0.6,0.5
2023-10-02T14:00:00,1861A,110.4417,29.315,张家界市,袁家界,,18,6,12,2,7,92,57,89,68,9,5,9,9,0.7,0.7
2023-10-02T14:00:00,1862A,110.4144,25.3167,桂林市,电子科大尧山校区,,,44,46,33,35,84,76,64,63,5,5,,4,0.8,0.8
2023-10-02T14:00:00,1863A,110.2819,25.2697,桂林市,监测站,,50,48,47,35,30,109,98,73,73,10,10,6,9,0.8,0.7
2023-10-02T14:00:00,1864A,110.3089,25.2708,桂林市,龙隐路小学,,50,50,43,33,33,104,98,71,71,8,7,6,8,0.9,0.8
2023-10-02T14:00:00,1865A,110.2869,25.2178,桂林市,八中,,45,45,44,30,32,112,90,71,70,10,11,4,6,0.6,0.6
2023-10-02T14:00:00,1866A,109.2262,21.588,北海市,牛尾岭水库,,32,22,21,15,13,100,100,64,64,6,8,8,5,0.6,0.5
2023-10-02T14:00:00,1867A,109.1436,21.4086,北海市,海滩公园,,31,26,25,17,10,98,98,81,81,4,7,5,4,0.8,0.8
2023-10-02T14:00:00,1868A,109.0981,21.4661,北海市,新市环保局,,34,30,23,22,15,107,107,79,79,5,9,5,5,0.6,0.6
2023-10-02T14:00:00,1869A,109.1778,21.5233,北海市,北海工业园,,45,45,33,20,19,114,114,67,67,4,11,7,6,0.6,0.6
2023-10-02T14:00:00,1870A,109.4856,24.3895,柳州市,柳东小学,,33,29,31,23,26,112,87,61,61,4,10,9,9,0.6,0.5
2023-10-02T14:00:00,1871A,109.4157,24.3277,柳州市,环保监测站,,38,30,32,26,30,113,89,75,75,6,10,5,6,0.7,0.7
2023-10-02T14:00:00,1872A,109.389,24.341,柳州市,河西水厂,,33,31,32,23,24,117,93,78,78,7,11,7,8,0.9,0.9
2023-10-02T14:00:00,1873A,109.4311,24.2921,柳州市,市四中,,35,35,30,17,20,114,88,75,75,7,11,6,8,0.9,0.9
2023-10-02T14:00:00,1874A,109.4006,24.3631,柳州市,市九中,,33,29,34,23,23,112,92,62,62,7,12,7,7,0.7,0.7
2023-10-02T14:00:00,1875A,109.4958,24.3134,柳州市,古亭山,,36,36,29,19,21,118,84,68,68,5,9,5,7,0.5,0.5
2023-10-02T14:00:00,1876A,109.5078,18.2489,三亚市,河东子站,,31,17,21,9,11,99,99,70,70,6,6,4,3,0.3,0.3
2023-10-02T14:00:00,1877A,109.4964,18.2681,三亚市,河西子站,,30,16,19,11,11,102,96,71,71,4,5,3,3,0.4,0.3
2023-10-02T14:00:00,1878A,104.7778,31.4741,绵阳市,富乐山,,28,28,34,13,23,63,53,37,17,8,13,4,4,0.6,0.6
2023-10-02T14:00:00,1879A,104.7563,31.4535,绵阳市,市人大,,29,29,35,12,19,50,49,44,18,12,19,9,10,0.6,0.6
2023-10-02T14:00:00,1880A,104.6697,31.4668,绵阳市,高新区自来水公司,,25,22,26,17,20,65,38,47,16,22,17,8,8,0.7,0.6
2023-10-02T14:00:00,1881A,104.7287,31.5075,绵阳市,三水厂,,35,35,37,19,24,60,36,39,11,18,21,9,8,0.7,0.7
2023-10-02T14:00:00,1882A,104.563,28.793,宜宾市,石马中学,,,,,,,,,,,,,,,,
2023-10-02T14:00:00,1883A,104.6201,28.7728,宜宾市,市委,,31,31,27,20,18,68,45,56,36,18,19,6,6,0.6,0.6
2023-10-02T14:00:00,1884A,104.6055,28.793,宜宾市,宜宾四中,,45,32,44,31,20,65,42,57,38,18,18,4,4,0.6,0.6
2023-10-02T14:00:00,1885A,104.639,28.7562,宜宾市,市政府,,34,34,28,22,21,73,51,61,39,18,20,6,6,0.7,0.7
2023-10-02T14:00:00,1886A,104.5742,28.7199,宜宾市,黄金嘴,,23,23,23,14,15,62,48,61,37,17,16,8,8,0.5,0.5
2023-10-02T14:00:00,1888A,101.6891,26.571,攀枝花市,弄弄坪,,23,23,19,8,5,63,63,34,34,8,10,9,8,0.6,0.6
2023-10-02T14:00:00,1889A,101.5769,26.5928,攀枝花市,河门口,,24,16,17,7,8,74,74,36,36,13,14,19,14,1.3,0.8
2023-10-02T14:00:00,1890A,101.7169,26.585,攀枝花市,炳草岗,,22,16,16,7,5,69,69,35,35,5,11,2,7,0.5,0.6
2023-10-02T14:00:00,1891A,101.7369,26.5008,攀枝花市,仁和,,15,7,10,5,6,54,47,30,30,5,8,4,5,0.5,0.6
2023-10-02T14:00:00,1893A,105.4324,28.9634,泸州市,九狮山,,29,29,30,14,16,52,27,12,12,15,15,6,5,0.4,0.4
2023-10-02T14:00:00,1894A,105.4427,28.9063,泸州市,小市上码头,,47,47,47,22,26,70,39,31,24,17,16,5,6,0.6,0.6
2023-10-02T14:00:00,1895A,105.4241,28.8573,泸州市,兰田宪桥,颗粒物(PM10),53,55,55,31,32,59,28,27,25,15,13,5,9,0.6,0.6
2023-10-02T14:00:00,1896A,105.4379,28.8833,泸州市,市环监站,,46,46,45,27,21,55,24,27,14,20,20,4,8,0.5,0.5
2023-10-02T14:00:00,1901A,104.4239,31.1208,德阳市,东山公园,,41,41,55,12,21,61,61,27,27,6,17,2,3,0.4,0.5
2023-10-02T14:00:00,1902A,104.3826,31.1317,德阳市,西小区,,37,37,45,14,21,58,58,33,33,12,18,1,7,0.6,0.6
2023-10-02T14:00:00,1904A,104.3553,31.1091,德阳市,耐火材料厂,颗粒物(PM10),52,54,52,19,22,53,53,20,20,21,19,1,7,0.6,0.6
2023-10-02T14:00:00,1905A,106.056,30.8064,南充市,西山风景区,,13,3,13,1,7,39,39,26,26,3,5,2,2,0.5,0.5
2023-10-02T14:00:00,1906A,106.0789,30.8023,南充市,南充市委,,26,21,19,18,17,39,39,30,30,10,12,2,2,0.4,0.5
2023-10-02T14:00:00,1907A,106.1031,30.8217,南充市,南充炼油厂,,20,20,22,3,6,39,39,29,29,6,9,3,2,0.4,0.4
2023-10-02T14:00:00,1908A,106.1064,30.7856,南充市,高坪区监测站,,15,12,13,10,9,38,35,28,28,10,11,2,2,0.3,0.3
2023-10-02T14:00:00,1909A,106.0642,30.7636,南充市,嘉陵区环保局,,11,10,19,7,9,37,34,23,23,8,12,3,3,0.3,0.3
2023-10-02T14:00:00,1910A,106.1087,30.8388,南充市,市环境监测站,,16,9,17,11,12,38,38,27,27,8,10,3,3,0.3,0.3
2023-10-02T14:00:00,1911A,106.9222,27.6869,遵义市,丁字口,,32,18,21,11,14,101,101,66,66,14,12,7,5,0.6,0.6
2023-10-02T14:00:00,1912A,106.9242,27.7019,遵义市,凤凰山,,34,20,23,20,20,106,106,65,65,7,6,8,7,0.6,0.6
2023-10-02T14:00:00,1913A,106.8906,27.6486,遵义市,忠庄,,33,17,23,10,14,105,105,61,61,7,5,4,2,0.4,0.5
2023-10-02T14:00:00,1914A,106.9231,27.6506,遵义市,舟水桥,,,9,17,17,16,106,106,64,64,,4,4,2,0.4,0.4
2023-10-02T14:00:00,1915A,106.9178,27.72,遵义市,干田坝,,35,19,20,5,14,111,111,68,68,6,6,7,5,0.7,0.7
2023-10-02T14:00:00,1916A,103.7897,25.5035,曲靖市,环境监测站,,17,17,16,2,7,69,50,37,33,4,9,2,3,0.4,0.5
2023-10-02T14:00:00,1917A,103.8,25.5364,曲靖市,烟厂办公区,,17,9,13,2,8,75,52,40,35,3,7,4,4,0.5,0.6
2023-10-02T14:00:00,1918A,108.7197,34.3956,咸阳市,气象站,,,,,,,,,,,,,,,,
2023-10-02T14:00:00,1919A,108.673,34.3155,咸阳市,实验中学,,22,22,31,15,23,66,44,63,58,26,15,2,3,0.7,0.8
2023-10-02T14:00:00,1920A,108.7233,34.3617,咸阳市,师范学院,,20,16,29,11,21,79,64,75,63,17,10,3,3,0.4,0.4
2023-10-02T14:00:00,1922A,109.0656,35.0994,铜川市,党校,,33,21,17,23,20,97,54,92,70,37,16,8,7,0.8,0.7
2023-10-02T14:00:00,1923A,109.0697,35.0697,铜川市,王益区政府,,31,31,22,14,21,93,68,90,74,28,15,2,2,0.4,0.3
2023-10-02T14:00:00,1924A,108.9344,34.9058,铜川市,新区管委会,,33,33,28,15,18,94,82,83,72,16,18,7,4,0.6,0.6
2023-10-02T14:00:00,1926A,109.4131,36.6275,延安市,枣园,,20,18,33,12,27,78,62,40,40,12,20,7,7,0.5,0.6
2023-10-02T14:00:00,1927A,109.4761,36.6028,延安市,延大医附院,,27,27,39,13,28,87,67,40,40,12,22,5,6,0.6,0.7
2023-10-02T14:00:00,1929A,109.5056,36.6106,延安市,百米大道,,22,22,42,10,26,92,69,44,44,16,27,6,7,0.6,0.7
2023-10-02T14:00:00,1930A,107.185,34.3063,宝鸡市,庙沟村,,20,13,23,10,18,62,62,55,55,12,18,8,8,0.5,0.7
2023-10-02T14:00:00,1931A,107.0708,34.3017,宝鸡市,竹园沟,,23,11,25,9,19,79,71,70,66,16,17,6,6,0.7,1
2023-10-02T14:00:00,1932A,107.1906,34.3672,宝鸡市,三陆医院,,26,12,31,8,22,83,83,74,72,16,23,8,9,0.6,0.8
2023-10-02T14:00:00,1933A,107.1431,34.3547,宝鸡市,监测站,,26,18,33,10,24,83,82,75,72,12,20,5,11,0.5,0.8
2023-10-02T14:00:00,1934A,107.1186,34.3739,宝鸡市,技工学校,,25,13,28,13,25,81,79,69,66,18,23,6,6,0.6,0.8
2023-10-02T14:00:00,1935A,107.3906,34.3528,宝鸡市,陈仓区环保局家属楼,,28,13,32,15,29,87,87,76,75,12,22,7,7,0.5,0.8
2023-10-02T14:00:00,1936A,107.2058,34.3497,宝鸡市,文理学院,,28,15,31,8,19,88,88,77,76,14,20,10,9,0.6,0.9
2023-10-02T14:00:00,1937A,107.2386,34.3622,宝鸡市,三迪小学,,27,23,31,11,27,86,86,73,72,13,21,6,5,0.5,0.8
2023-10-02T14:00:00,1938A,109.5293,34.5101,渭南市,农科所,,20,19,28,14,24,87,54,74,63,20,12,5,4,0.5,0.6
2023-10-02T14:00:00,1939A,109.4974,34.4877,渭南市,日报社,,22,17,26,15,22,92,59,81,63,25,17,5,5,0.3,0.5
2023-10-02T14:00:00,1940A,109.4636,34.493,渭南市,体育馆,,21,9,25,7,18,92,67,82,69,15,13,3,3,0.4,0.6
2023-10-02T14:00:00,1941A,109.4259,34.5023,渭南市,高新一小,,33,33,29,17,22,92,67,79,68,17,14,7,6,0.4,0.5
2023-10-02T14:00:00,1944A,102.1692,38.5167,金昌市,天庆家园,,38,23,19,5,10,120,120,101,90,10,11,20,10,0.6,0.4
2023-10-02T14:00:00,1945A,98.2908,39.7711,嘉峪关市,气象局,颗粒物(PM10),54,58,54,17,16,115,115,73,73,17,32,44,20,0.6,0.3
2023-10-02T14:00:00,1947A,106.3394,38.817,石嘴山市,沙湖旅游区,,48,48,47,24,24,150,125,76,76,16,18,96,25,1.0,0.7
2023-10-02T14:00:00,1948A,106.3668,39.0145,石嘴山市,大武口朝阳西街,颗粒物(PM10),58,65,52,30,28,156,114,67,67,19,20,33,20,0.7,0.5
2023-10-02T14:00:00,1949A,106.7704,39.2282,石嘴山市,惠农南大街,颗粒物(PM10),54,58,43,15,15,132,119,62,62,18,21,19,11,1.1,0.6
2023-10-02T14:00:00,1950A,106.7099,39.1325,石嘴山市,红果子镇惠新街,颗粒物(PM10),51,52,52,13,22,138,132,63,63,16,22,5,4,0.7,0.5
2023-10-02T14:00:00,1951A,84.895,45.6094,克拉玛依市,长征新村,,25,16,22,7,6,89,79,65,65,5,10,10,10,0.2,0.2
2023-10-02T14:00:00,1952A,84.8988,45.5893,克拉玛依市,南林小区,,25,16,21,8,12,91,80,68,68,10,16,6,5,0.2,0.3
2023-10-02T14:00:00,1954A,84.905,44.3396,克拉玛依市,独山子区,,34,20,23,10,14,106,106,80,62,6,13,5,5,0.3,0.3
2023-10-02T14:00:00,1955A,85.6979,46.098,克拉玛依市,乌尔禾区商贸楼,,28,15,26,10,10,92,88,78,54,4,9,8,7,0.3,0.3
2023-10-02T14:00:00,1956A,86.1472,41.7538,巴音郭楞州,孔雀公园,,40,40,69,9,19,102,102,85,85,12,33,10,9,0.4,0.5
2023-10-02T14:00:00,1957A,86.1972,41.7166,巴音郭楞州,棉纺厂,,36,36,95,16,23,105,105,73,73,3,28,6,6,0.3,0.3
2023-10-02T14:00:00,1958A,86.2357,41.7173,巴音郭楞州,经济开发区,,36,31,86,3,18,113,113,93,93,2,15,8,9,0.3,0.3
2023-10-02T14:00:00,1961A,117.532,36.6868,济南市,东山小学,,47,22,31,7,11,148,148,98,98,8,27,7,6,0.6,0.5
2023-10-02T14:00:00,1966A,120.0405,35.8735,青岛市,黄岛区4号,,49,19,23,2,8,155,155,117,117,7,19,7,8,0.5,0.6
2023-10-02T14:00:00,1982A,122.0693,37.2174,威海市,文登开发区,,35,14,28,2,8,110,110,69,69,6,18,8,8,0.4,0.5
2023-10-02T14:00:00,2031A,113.1817,27.9958,株洲市,云田中学,,45,37,45,31,22,103,103,59,59,9,16,8,7,0.9,0.9
2023-10-02T14:00:00,2054A,114.1099,32.1059,信阳市,平桥分局,,33,14,40,12,23,148,105,96,85,9,12,3,3,0.7,0.7
2023-10-02T14:00:00,2064A,113.9956,32.1271,信阳市,南湾水厂,,32,23,41,11,20,139,102,95,78,10,9,3,3,0.6,0.7
2023-10-02T14:00:00,2065A,114.0775,32.1195,信阳市,市酿酒公司,,32,21,38,12,20,147,100,96,81,14,13,2,3,0.7,0.8
2023-10-02T14:00:00,2066A,114.0609,32.1399,信阳市,审计局,,35,20,37,7,19,148,110,99,84,9,11,3,4,0.8,0.8
2023-10-02T14:00:00,2067A,114.6613,33.6128,周口市,市环境监测站,,47,47,42,21,23,136,67,82,60,17,18,8,10,0.4,0.3
2023-10-02T14:00:00,2068A,114.6758,33.6347,周口市,周口师范,,45,43,42,31,24,136,68,71,58,14,18,5,7,0.5,0.4
2023-10-02T14:00:00,2069A,114.6546,33.5979,周口市,市运管处,,49,49,40,27,23,137,67,82,62,15,17,5,7,0.4,0.3
2023-10-02T14:00:00,2070A,114.6369,33.6406,周口市,川汇区环保局,,39,39,43,24,23,135,61,80,55,25,26,9,11,0.4,0.3
2023-10-02T14:00:00,2075A,117.6336,24.4674,漳州市,九湖,,,,,,,,,,,,,,,,
2023-10-02T14:00:00,2160A,112.85,35.5051,晋城市,自来水公司,,30,29,39,0,11,113,94,66,60,9,17,5,6,0.7,0.8
2023-10-02T14:00:00,2161A,112.8318,35.4936,晋城市,白云商贸,,30,23,34,5,12,112,93,72,64,8,17,4,5,0.6,0.7
2023-10-02T14:00:00,2162A,112.8508,35.4887,晋城市,市环保局,,36,36,43,9,13,110,96,80,65,7,15,6,7,0.5,0.2
2023-10-02T14:00:00,2163A,112.8676,35.4897,晋城市,技术学院,,30,14,28,5,10,108,96,87,70,11,16,4,5,0.5,0.5
2023-10-02T14:00:00,2165A,112.8453,35.546,晋城市,白马寺,,,,,,,,,,,,,,,,
2023-10-02T14:00:00,2166A,112.4397,39.3522,朔州市,平朔,颗粒物(PM10),66,82,80,28,25,122,68,27,27,38,43,16,19,0.6,0.6
2023-10-02T14:00:00,2167A,112.4575,39.3617,朔州市,朔唯,颗粒物(PM10),71,92,114,31,35,112,70,25,25,35,47,16,21,0.7,0.7
2023-10-02T14:00:00,2168A,112.4258,39.3197,朔州市,区政府,颗粒物(PM10),70,90,71,40,28,117,66,35,31,46,40,18,20,0.7,0.6
2023-10-02T14:00:00,2169A,112.4072,39.3278,朔州市,市环保局,颗粒物(PM10),66,82,71,24,22,120,82,46,38,32,34,16,21,0.7,0.6
2023-10-02T14:00:00,2170A,112.4272,39.3681,朔州市,市二中,颗粒物(PM10),72,93,93,34,29,120,64,23,23,39,47,18,21,0.6,0.5
2023-10-02T14:00:00,2171A,112.7532,37.6945,晋中市,锦纶小区,颗粒物(PM10),60,70,67,26,27,142,88,55,55,35,38,14,12,0.8,0.6
2023-10-02T14:00:00,2173A,112.7249,37.7067,晋中市,南都小区,颗粒物(PM10),61,71,70,28,32,139,76,55,55,40,37,16,15,0.7,0.7
2023-10-02T14:00:00,2174A,112.6991,37.6982,晋中市,榆次区政府,颗粒物(PM10),60,70,71,27,36,140,81,60,60,40,41,16,15,0.8,0.8
2023-10-02T14:00:00,2175A,110.9956,35.0147,运城市,运城中学,,26,14,18,14,14,114,81,101,81,10,8,10,5,0.5,0.4
2023-10-02T14:00:00,2178A,110.9686,35.0303,运城市,地区技校,,25,14,16,13,8,98,78,98,76,8,9,7,4,0.6,0.9
2023-10-02T14:00:00,2179A,111.0414,35.1147,运城市,空港新区,,28,22,27,19,16,207,82,94,94,9,11,5,4,0.6,0.6
2023-10-02T14:00:00,2181A,112.7383,38.4519,忻州市,开发区,颗粒物(PM10),61,71,56,42,27,92,62,33,33,36,42,20,18,0.9,0.6
2023-10-02T14:00:00,2182A,112.7003,38.4928,忻州市,会展中心,颗粒物(PM10),63,76,53,41,28,90,48,26,26,36,36,21,14,1.1,0.8
2023-10-02T14:00:00,2183A,111.1406,37.5211,吕梁市,环保局,,50,50,79,18,29,125,72,34,34,24,44,7,5,1.0,0.8
2023-10-02T14:00:00,2185A,111.1297,37.5136,吕梁市,自来水公司,颗粒物(PM10),54,58,79,26,32,130,64,31,31,28,38,8,9,1.0,0.8
2023-10-02T14:00:00,2187A,106.8174,39.6973,乌海市,市林业局,,47,47,61,31,25,123,100,60,55,21,27,30,40,1.3,1.1
2023-10-02T14:00:00,2188A,106.7907,39.6667,乌海市,中海勃湾学校,颗粒物(PM10),53,56,52,28,22,131,104,58,58,20,25,30,29,0.9,0.8
2023-10-02T14:00:00,2191A,122.2532,43.6801,通辽市,艺术职业学校,,,0,36,,10,89,89,54,52,11,23,5,6,0,0.4
2023-10-02T14:00:00,2192A,119.7594,49.2261,呼伦贝尔市,区环保局,,24,24,28,9,23,77,75,46,46,9,24,4,4,0.4,0.5
2023-10-02T14:00:00,2195A,107.4212,40.761,巴彦淖尔市,附二中,颗粒物(PM10),56,62,82,18,27,138,119,64,64,13,37,12,8,0.6,0.6
2023-10-02T14:00:00,2196A,107.37,40.7372,巴彦淖尔市,市环保大楼,颗粒物(PM10),59,67,81,21,28,125,120,71,68,7,31,8,6,0.5,0.6
2023-10-02T14:00:00,2197A,113.1306,40.9923,乌兰察布市,集宁新区,,49,49,48,17,18,127,126,79,77,12,26,12,12,0.6,0.5
2023-10-02T14:00:00,2200A,122.0392,46.0656,兴安盟,胜华新制药厂,,26,12,35,7,18,81,81,44,44,8,22,4,3,0.2,0.4
2023-10-02T14:00:00,2201A,121.9504,46.0741,兴安盟,科右前旗环保局,,26,19,33,7,19,82,81,42,42,7,19,4,3,0.2,0.3
2023-10-02T14:00:00,2202A,116.1042,43.9317,锡林郭勒盟,市环保监测站,,35,22,13,6,6,109,109,99,99,3,6,12,10,0.3,0.2
2023-10-02T14:00:00,2203A,116.0781,43.9311,锡林郭勒盟,市政府,,33,24,19,4,4,105,105,68,68,9,17,13,12,0.2,0.2
2023-10-02T14:00:00,2204A,105.6467,38.8363,阿拉善盟,西城区西花园,,39,24,46,17,22,135,124,87,87,10,14,11,11,0.7,0.8
2023-10-02T14:00:00,2205A,105.6985,38.8411,阿拉善盟,蒙二幼,,40,40,47,10,20,130,120,95,95,8,13,10,10,0.5,0.6
2023-10-02T14:00:00,2206A,105.724,38.8516,阿拉善盟,环保局新楼,,39,31,42,10,21,125,122,99,99,6,10,9,9,0.4,0.5
2023-10-02T14:00:00,2207A,121.6094,41.998,阜新市,工业园区,,35,28,51,8,17,110,110,60,60,9,31,11,8,0.4,0.6
2023-10-02T14:00:00,2208A,121.6697,42.0279,阜新市,长青街,,33,20,45,5,23,105,105,54,54,15,35,13,13,0.5,0.6
2023-10-02T14:00:00,2209A,121.6673,42.0705,阜新市,农业园区,,33,26,31,5,13,104,104,69,69,9,16,13,15,0.5,0.7
2023-10-02T14:00:00,2210A,121.6717,42.0224,阜新市,东苑,,,33,65,7,24,100,100,51,51,7,27,11,16,,0.9
2023-10-02T14:00:00,2211A,121.6506,42.0498,阜新市,玉龙新城,,35,22,55,4,14,110,110,61,61,8,26,12,9,0.5,0.6
2023-10-02T14:00:00,2212A,123.2,41.1953,辽阳市,宏伟区,,34,22,33,12,12,108,108,79,79,12,31,10,14,0.5,0.8
2023-10-02T14:00:00,2213A,123.1683,41.2495,辽阳市,新华园,,29,29,40,20,18,91,91,56,56,13,33,14,14,0.7,0.8
2023-10-02T14:00:00,2214A,123.2354,41.2639,辽阳市,滨河路,,33,33,37,14,20,99,99,68,68,12,24,14,11,1.0,0.9
2023-10-02T14:00:00,2215A,123.149,41.2991,辽阳市,铁西工业园,,35,16,47,13,21,110,110,71,71,7,31,11,15,0.6,1
2023-10-02T14:00:00,2216A,123.8139,42.3022,铁岭市,汇工街西,,39,39,44,8,24,96,96,55,55,12,31,13,34,0.5,0.7
2023-10-02T14:00:00,2217A,123.8649,42.2923,铁岭市,水上乐园,,,51,43,9,22,95,95,58,58,,22,16,13,0.7,0.7
2023-10-02T14:00:00,2218A,123.8486,42.2867,铁岭市,银州路东段,,,,41,,16,69,,26,24,,30,,6,,0.5
2023-10-02T14:00:00,2219A,123.7153,42.2217,铁岭市,金沙江路北,,33,33,40,11,18,94,94,54,54,14,29,7,12,0.4,0.6
2023-10-02T14:00:00,2220A,120.4318,41.5881,朝阳市,西梁,,44,44,59,10,20,130,130,63,63,8,30,11,9,0.6,0.7
2023-10-02T14:00:00,2221A,120.4521,41.5646,朝阳市,河畔小区,,41,37,38,10,16,130,130,70,70,11,25,9,9,0.5,0.5
2023-10-02T14:00:00,2222A,120.4176,41.5648,朝阳市,八里堡,,42,42,55,13,22,119,119,60,60,13,32,15,11,0.9,1
2023-10-02T14:00:00,2223A,120.3806,41.5969,朝阳市,农业园区,,40,32,35,13,17,126,126,64,64,8,31,6,6,0.6,0.6
2023-10-02T14:00:00,2225A,124.4002,43.1713,四平市,一商场,,32,32,43,16,18,86,86,56,56,11,27,7,7,0.3,0.6
2023-10-02T14:00:00,2226A,124.388,43.193,四平市,境园,,32,32,36,13,18,91,91,56,56,9,26,4,6,0.4,0.6
2023-10-02T14:00:00,2227A,125.1358,42.8845,辽源市,环保局,,32,16,29,5,15,100,100,61,61,2,17,8,7,0.5,0.6
2023-10-02T14:00:00,2229A,125.9358,41.7173,通化市,光明,,28,11,25,8,11,89,89,52,52,5,20,8,9,0.4,0.4
2023-10-02T14:00:00,2230A,125.9446,41.7325,通化市,铁路,,29,21,27,9,12,94,91,48,48,12,19,6,7,0.3,0.5
2023-10-02T14:00:00,2231A,126.4219,41.9171,白山市,喜丰,,30,30,38,8,14,88,88,50,50,13,22,17,9,0.7,0.6
2023-10-02T14:00:00,2232A,126.4077,41.9419,白山市,环保局,,29,23,39,12,14,91,91,49,49,2,22,12,10,0.6,0.5
2023-10-02T14:00:00,2233A,124.8006,45.1214,松原市,江南,,27,12,42,6,19,86,86,48,46,6,22,6,7,0.3,0.5
2023-10-02T14:00:00,2234A,124.7965,45.1722,松原市,江北,,26,12,20,6,13,82,82,53,53,4,14,4,3,0.3,0.4
2023-10-02T14:00:00,2235A,122.7911,45.6077,白城市,洮北区环保局,,30,12,28,9,15,95,93,60,60,6,20,6,7,0.3,0.7
2023-10-02T14:00:00,2236A,122.8738,45.5725,白城市,市环保局,,29,22,32,3,11,94,91,60,60,2,22,6,8,0.3,0.5
2023-10-02T14:00:00,2237A,129.47,42.8883,延边朝鲜族自治州,妇幼医院,,25,25,21,5,8,80,78,62,62,9,13,6,6,0.4,0.4
2023-10-02T14:00:00,2238A,129.5055,42.9108,延边朝鲜族自治州,延边医院,颗粒物(PM10),56,62,35,6,12,83,82,58,58,10,20,6,6,0.4,0.5
2023-10-02T14:00:00,2239A,129.3964,42.8881,延边朝鲜族自治州,朝阳川镇医院,,,13,27,,9,88,88,67,67,3,8,6,6,0.3,0.4
2023-10-02T14:00:00,2240A,130.9762,45.3001,鸡西市,环保局,,17,17,15,4,8,54,54,43,43,9,12,5,5,0.3,0.4
2023-10-02T14:00:00,2243A,130.9429,45.3039,鸡西市,第一中学,,23,15,12,4,7,73,73,55,55,6,9,6,6,0.1,0.2
2023-10-02T14:00:00,2244A,130.2537,47.3416,鹤岗市,哈啤分公司,,19,12,14,13,13,54,48,44,42,4,6,9,8,0.1,0.2
2023-10-02T14:00:00,2245A,130.2684,47.3086,鹤岗市,斯达机电,,18,8,17,6,12,56,56,44,42,5,7,7,7,0.2,0.2
2023-10-02T14:00:00,2246A,130.3114,47.3388,鹤岗市,东山纸板厂,,20,13,26,5,11,62,62,52,52,3,5,9,10,0.2,0.3
2023-10-02T14:00:00,2247A,130.1097,47.3382,鹤岗市,五号水库,,28,23,12,19,13,61,61,52,52,3,5,10,10,0.1,0.1
2023-10-02T14:00:00,2248A,131.1511,46.6937,双鸭山市,双合村,,21,6,10,5,5,66,66,55,55,2,4,8,8,0.1,0.2
2023-10-02T14:00:00,2249A,131.1652,46.6191,双鸭山市,南小市,,20,5,15,5,7,64,64,50,50,3,8,6,7,0.2,0.3
2023-10-02T14:00:00,2250A,131.1524,46.6554,双鸭山市,环保局,,19,19,21,12,14,57,57,46,46,9,12,6,7,0.2,0.2
2023-10-02T14:00:00,2251A,131.12,46.5656,双鸭山市,苗圃,,27,8,11,8,9,84,84,70,70,4,4,4,4,0.2,0.2
2023-10-02T14:00:00,2252A,128.5159,47.4311,伊春市,环保局,,20,5,12,14,6,53,53,37,37,7,8,4,4,0.3,0.3
2023-10-02T14:00:00,2253A,128.9102,47.7412,伊春市,电力嘉园,,20,10,14,13,10,62,62,45,45,3,6,6,6,0.3,0.3
2023-10-02T14:00:00,2254A,129.5029,48.471,伊春市,汤旺河国家公园,,19,14,18,9,10,59,59,49,49,2,3,8,7,0.2,0.2
2023-10-02T14:00:00,2255A,130.2751,46.8028,佳木斯市,佳纺,,19,11,16,5,7,58,58,46,46,6,12,3,3,0.5,0.5
2023-10-02T14:00:00,2256A,130.3995,46.8307,佳木斯市,发电厂,,19,19,13,7,8,57,55,47,47,4,6,3,5,0.5,0.5
2023-10-02T14:00:00,2257A,130.3258,46.7975,佳木斯市,环保局,,17,15,14,4,6,60,54,49,49,8,12,4,4,0.5,0.5
2023-10-02T14:00:00,2258A,130.3648,46.8032,佳木斯市,十一中,,19,12,14,4,7,58,58,50,50,6,14,3,4,0.4,0.5
2023-10-02T14:00:00,2259A,130.3794,46.7588,佳木斯市,四丰,,21,7,10,4,5,67,67,53,53,5,8,1,1,0.2,0.2
2023-10-02T14:00:00,2262A,131.0518,45.8751,七台河市,新一中,,24,5,8,3,7,74,74,60,60,3,5,6,7,0.6,0.6
2023-10-02T14:00:00,2263A,127.4833,50.2524,黑河市,交通局,,19,4,8,4,8,60,60,43,43,7,10,3,3,0.4,0.4
2023-10-02T14:00:00,2264A,127.5144,50.2341,黑河市,环保局,,20,8,13,6,10,61,61,47,47,3,7,2,4,0.3,0.4
2023-10-02T14:00:00,2265A,127.5291,50.2472,黑河市,大黑河岛,,,13,9,6,13,,,,,2,2,1,2,,
2023-10-02T14:00:00,2266A,126.9785,46.6365,绥化市,人和东街,,24,13,27,5,13,74,74,48,47,6,20,2,2,0.3,0.4
2023-10-02T14:00:00,2267A,126.964,46.6528,绥化市,党政办公中心,,23,10,26,4,12,72,72,53,46,5,18,6,7,0.4,0.4
2023-10-02T14:00:00,2269A,124.1069,50.4097,大兴安岭地区,科技局,,25,12,16,6,10,80,80,56,56,3,6,5,6,0.1,0.1
2023-10-02T14:00:00,2270A,117.396,32.939,蚌埠市,工人疗养院,,27,26,40,7,13,126,85,61,57,9,17,4,6,0.3,0.3
2023-10-02T14:00:00,2271A,117.3605,32.9427,蚌埠市,百货大楼,,28,27,40,7,12,126,87,64,57,9,18,5,6,0.3,0.3
2023-10-02T14:00:00,2273A,117.4185,32.8911,蚌埠市,蚌埠学院,,28,22,34,6,13,129,87,65,59,7,24,4,7,0.2,0.2
2023-10-02T14:00:00,2274A,117.3533,32.9673,蚌埠市,淮上区政府,,27,22,36,12,18,126,86,65,58,11,15,6,6,0.3,0.3
2023-10-02T14:00:00,2275A,117.3145,32.8977,蚌埠市,高新区,,27,22,32,11,13,134,84,75,66,12,20,4,6,0.3,0.4
2023-10-02T14:00:00,2277A,116.8305,32.7727,淮南市,潘集区政府,,42,42,39,17,21,126,68,59,56,15,15,9,7,0.3,0.3
2023-10-02T14:00:00,2278A,117.0067,32.6524,淮南市,师范学院,,38,38,40,10,15,134,87,75,67,13,14,12,10,0.4,0.2
2023-10-02T14:00:00,2279A,116.8569,32.5951,淮南市,谢家集区政府,,29,19,32,5,11,153,91,78,68,11,17,9,8,0.3,0.3
2023-10-02T14:00:00,2280A,116.8281,32.633,淮南市,八公山区政府,,32,32,41,12,17,145,86,62,59,10,14,10,9,0.3,0.2
2023-10-02T14:00:00,2281A,116.6325,32.6201,淮南市,焦岗湖风景区管理处,,27,20,29,14,14,143,85,63,56,5,8,2,1,0.3,0.3
2023-10-02T14:00:00,2282A,116.8004,33.975,淮北市,监测站,,32,2,36,6,13,130,102,81,81,11,17,6,7,0.3,0.5
2023-10-02T14:00:00,2283A,116.8091,33.9007,淮北市,烈山区政府,,35,19,42,9,19,136,110,84,84,9,14,5,6,0.2,0.3
2023-10-02T14:00:00,2285A,117.8177,30.9412,铜陵市,市第四中学,,50,50,46,21,22,127,90,77,77,4,7,6,6,0.4,0.5
2023-10-02T14:00:00,2286A,117.8059,30.9273,铜陵市,市公路局,,40,40,45,18,20,138,102,84,84,8,10,5,5,0.4,0.5
2023-10-02T14:00:00,2287A,117.7807,30.9413,铜陵市,市新民污水厂,,33,31,41,7,15,144,104,86,86,7,9,8,7,0.2,0.3
2023-10-02T14:00:00,2288A,117.7439,30.8792,铜陵市,市第九中学,,40,40,49,6,16,140,104,85,85,7,9,4,4,0.6,0.6
2023-10-02T14:00:00,2289A,117.846,30.9413,铜陵市,车站新区,,31,28,35,12,19,137,98,82,82,6,8,4,4,0.2,0.3
2023-10-02T14:00:00,2290A,117.8483,30.97,铜陵市,市职教基地,,33,33,36,16,15,142,101,84,84,6,8,10,8,0.4,0.5
2023-10-02T14:00:00,2291A,117.0809,30.5177,安庆市,环科院,,37,37,43,16,21,142,88,98,71,13,16,8,9,0.7,0.7
2023-10-02T14:00:00,2292A,117.0331,30.5119,安庆市,马山宾馆,,43,43,45,16,21,147,93,109,75,15,17,6,6,0.7,0.8
2023-10-02T14:00:00,2294A,116.9896,30.6145,安庆市,安庆大学,,35,35,43,18,24,149,90,115,69,16,16,6,6,0.6,0.6
2023-10-02T14:00:00,2295A,118.2903,29.6963,黄山市,延安路89号,,39,39,40,4,9,118,116,85,85,2,4,4,4,0.3,0.4
2023-10-02T14:00:00,2296A,118.327,29.7178,黄山市,黄山东路89号,,35,24,38,2,10,111,111,94,94,3,7,5,5,0.4,0.6
2023-10-02T14:00:00,2297A,118.1371,30.2756,黄山市,黄山区政府5号楼,,40,40,40,14,16,108,102,70,70,8,10,6,6,0.4,0.5
2023-10-02T14:00:00,2298A,118.3093,32.3153,滁州市,老年大学,,29,29,31,12,11,124,91,66,65,19,16,10,9,0.4,0.3
2023-10-02T14:00:00,2299A,118.3244,32.2786,滁州市,人大宾馆,,29,28,33,10,12,130,91,69,69,15,16,9,8,0.4,0.3
2023-10-02T14:00:00,2301A,115.8277,32.8929,阜阳市,市监测站,,26,24,32,18,18,145,67,69,53,18,13,7,7,0.4,0.4
2023-10-02T14:00:00,2303A,115.8554,32.8605,阜阳市,开发区,,39,22,45,27,31,149,71,62,50,24,19,8,9,0.5,0.5
2023-10-02T14:00:00,2307A,116.5079,31.737,六安市,监测大楼,,26,26,35,8,17,169,56,75,62,19,15,5,4,0.7,0.7
2023-10-02T14:00:00,2308A,116.4738,31.7643,六安市,皖西学院,,31,31,38,5,15,166,64,68,65,14,12,10,10,0.5,0.5
2023-10-02T14:00:00,2309A,116.4996,31.7905,六安市,朝阳厂,,19,12,29,13,17,163,56,71,62,14,12,7,7,0.5,0.5
2023-10-02T14:00:00,2310A,116.5567,31.7886,六安市,开发区,,23,23,41,9,20,155,54,66,56,9,12,5,7,0.5,0.6
2023-10-02T14:00:00,2311A,115.8072,33.8399,亳州市,污水处理厂,,32,31,55,13,30,140,102,57,57,6,16,10,10,0.3,0.5
2023-10-02T14:00:00,2312A,115.7789,33.8518,亳州市,三国揽胜宫,,34,34,50,17,24,142,101,58,56,6,16,6,8,0.1,0.3
2023-10-02T14:00:00,2314A,117.47,30.6618,池州市,池州学院,,38,38,39,16,20,127,106,94,78,11,11,7,6,0.5,0.6
2023-10-02T14:00:00,2316A,118.7581,30.9454,宣城市,鳌峰子站,,29,19,38,10,15,126,91,77,77,8,13,4,4,0.4,0.5
2023-10-02T14:00:00,2317A,118.7385,30.9743,宣城市,敬亭山子站,,29,19,28,10,15,126,92,73,73,12,18,5,6,0.3,0.4
2023-10-02T14:00:00,2318A,118.7173,30.9427,宣城市,开发区子站,,28,26,38,8,13,120,87,72,72,11,13,5,5,0.4,0.6
2023-10-02T14:00:00,2319A,119.0141,25.4325,莆田市,荔城区仓后路,,39,39,31,20,11,124,124,120,110,6,6,7,7,0.5,0.5
2023-10-02T14:00:00,2320A,119.0015,25.4553,莆田市,莆田市监测站,,46,46,29,20,11,129,128,126,114,4,3,7,6,0.6,0.7
2023-10-02T14:00:00,2321A,119.1119,25.4561,莆田市,涵江区六中,,40,39,30,16,12,128,128,126,120,6,5,7,7,0.5,0.6
2023-10-02T14:00:00,2322A,119.1013,25.3215,莆田市,秀屿区政府,颗粒物(PM10),54,58,37,22,12,122,120,121,116,6,5,6,6,0.6,0.7
2023-10-02T14:00:00,2323A,118.981,25.4792,莆田市,东圳水库,,,,,,,,,,,,,,,,
2023-10-02T14:00:00,2324A,117.6211,26.2625,三明市,三钢,,32,17,24,17,20,109,102,86,86,4,8,6,8,0.5,0.5
2023-10-02T14:00:00,2325A,117.635,26.2714,三明市,三明二中,,32,19,19,10,13,109,101,86,86,10,12,6,6,0.6,0.6
2023-10-02T14:00:00,2326A,117.6028,26.2378,三明市,三元区政府,,32,20,23,4,11,106,100,85,85,6,10,8,7,0.6,0.7
2023-10-02T14:00:00,2327A,117.7275,26.3108,三明市,洋溪,,,,,,,,,,,,,,,,
2023-10-02T14:00:00,2331A,118.0966,26.6761,南平市,茫荡山,,,,,,,,,,,,,,,,
2023-10-02T14:00:00,2332A,118.1681,26.6369,南平市,南平市监测站,,30,16,14,6,8,101,93,93,93,3,4,6,4,0.7,0.7
2023-10-02T14:00:00,2333A,118.1825,26.6489,南平市,南平铝业有限公司,颗粒物(PM10),51,51,19,12,10,100,87,90,90,4,6,4,5,0.7,0.8
2023-10-02T14:00:00,2334A,118.1756,26.6272,南平市,南平七中,,30,24,15,9,8,108,96,96,96,3,4,7,4,0.7,0.6
2023-10-02T14:00:00,2335A,117.0189,25.1181,龙岩市,龙岩师专,,,,,,,,,,,,,,,,
2023-10-02T14:00:00,2336A,117.0217,25.1033,龙岩市,龙岩市监测站,,34,32,23,14,16,114,106,81,81,5,10,3,4,0.5,0.6
2023-10-02T14:00:00,2337A,117.0258,25.0661,龙岩市,闽西职业技术学院,,33,13,26,11,17,108,105,78,78,2,9,5,6,0.6,0.6
2023-10-02T14:00:00,2338A,117.0196,25.0306,龙岩市,龙岩学院,,34,22,28,14,16,108,108,74,74,4,8,4,4,0.6,0.7
2023-10-02T14:00:00,2339A,119.5001,26.6946,宁德市,金涵水库,,,,,,,,,,,,,,,,
2023-10-02T14:00:00,2341A,119.5388,26.6612,宁德市,宁德市监测站,,47,43,28,24,16,149,149,106,106,10,12,11,7,0.6,0.7
2023-10-02T14:00:00,2342A,117.3102,29.3867,景德镇市,王港中学,,35,28,22,12,12,111,111,75,75,4,3,3,3,0.2,0.4
2023-10-02T14:00:00,2343A,117.2117,29.2933,景德镇市,老干部活动中心,,34,25,26,14,19,108,108,74,74,6,7,4,6,0.4,0.5
2023-10-02T14:00:00,2344A,117.1894,29.2789,景德镇市,兽医站,,38,37,31,26,27,100,99,72,72,6,7,6,9,0.3,0.4
2023-10-02T14:00:00,2345A,117.1547,29.2617,景德镇市,台达陶瓷,,34,34,26,23,13,103,103,78,78,8,6,5,11,0.5,0.5
2023-10-02T14:00:00,2346A,117.2461,29.2956,景德镇市,陶研所,,41,41,33,6,10,100,100,68,68,6,5,5,5,0.4,0.5
2023-10-02T14:00:00,2347A,114.0997,27.5002,萍乡市,武功山,,32,20,19,22,16,81,73,47,47,5,5,11,10,0.9,1
2023-10-02T14:00:00,2348A,113.8385,27.6434,萍乡市,中医院,,32,32,37,20,27,98,98,58,58,4,4,18,21,1.0,0.8
2023-10-02T14:00:00,2349A,113.8493,27.6253,萍乡市,市政府车库,,45,44,41,31,25,91,91,54,52,7,9,16,18,0.9,1
2023-10-02T14:00:00,2350A,113.8676,27.6435,萍乡市,市环保局,,38,38,37,22,26,96,94,58,58,6,7,17,16,0.7,0.7
2023-10-02T14:00:00,2351A,113.866,27.6198,萍乡市,安源区政府,,36,28,38,25,26,95,92,54,54,8,13,12,16,0.7,0.9
2023-10-02T14:00:00,2352A,115.0861,27.9317,新余市,北岗,,34,34,27,23,19,98,98,61,61,4,9,16,19,0.7,0.8
2023-10-02T14:00:00,2353A,114.9886,27.8431,新余市,飞宇,颗粒物(PM10),53,55,43,25,21,92,92,59,59,9,12,7,11,0.4,0.5
2023-10-02T14:00:00,2354A,114.9231,27.8246,新余市,第二水厂,,49,49,41,26,22,98,98,66,66,10,12,8,7,0.8,0.8
2023-10-02T14:00:00,2355A,114.9308,27.8036,新余市,市气象局,,49,49,48,27,25,92,92,59,59,10,13,12,13,0.7,0.8
2023-10-02T14:00:00,2357A,116.9822,28.1136,鹰潭市,龙虎山,,32,29,29,1,5,101,101,74,70,2,4,5,6,0,0.1
2023-10-02T14:00:00,2358A,117.0564,28.2642,鹰潭市,新监测站,,41,38,38,15,19,129,129,97,97,1,2,8,10,0.6,0.6
2023-10-02T14:00:00,2359A,117.0311,28.2475,鹰潭市,财苑宾馆,,45,44,39,13,19,143,143,107,107,3,8,10,13,0.4,0.5
2023-10-02T14:00:00,2360A,117.0222,28.2264,鹰潭市,体育馆,,46,46,39,24,20,146,146,105,105,3,7,7,10,0.5,0.5
2023-10-02T14:00:00,2361A,117.0017,28.2131,鹰潭市,三川水表,,49,49,40,22,22,145,145,104,104,2,9,9,8,0.6,0.6
2023-10-02T14:00:00,2362A,114.9017,25.9149,赣州市,通天岩,,,,,,,,,,,,,,,,
2023-10-02T14:00:00,2363A,114.9367,25.8664,赣州市,地委,,26,26,39,18,25,86,79,69,64,5,5,18,12,1.3,1.3
2023-10-02T14:00:00,2364A,114.9461,25.8481,赣州市,气象台,,38,38,36,21,26,95,89,72,67,7,8,8,7,0.9,1
2023-10-02T14:00:00,2365A,114.9322,25.8333,赣州市,市图书馆,颗粒物(PM10),51,52,48,26,29,91,85,74,65,7,9,11,14,1.8,1.5
2023-10-02T14:00:00,2366A,114.8905,25.8471,赣州市,华坚鞋城,,34,34,40,19,26,92,89,77,74,7,7,6,6,1.1,1.1
2023-10-02T14:00:00,2367A,114.9754,27.0803,吉安市,红声器材厂,颗粒物(PM10),52,53,50,32,30,96,67,50,49,9,11,13,5,1.0,1.1
2023-10-02T14:00:00,2368A,114.9658,27.0999,吉安市,市森林工业局,,49,49,49,28,30,103,68,51,49,6,10,11,12,0.6,0.7
2023-10-02T14:00:00,2369A,114.99,27.1312,吉安市,市环境监测站,,43,43,45,22,26,101,67,48,46,9,11,7,10,0.8,0.9
2023-10-02T14:00:00,2370A,115.0093,27.0968,吉安市,青原区法院,颗粒物(PM10),52,53,46,32,30,98,66,48,45,11,13,10,14,0.9,0.9
2023-10-02T14:00:00,2371A,114.3408,27.8064,宜春市,槟榔水业,,47,47,32,21,17,79,79,52,52,14,16,9,5,0.4,0.5
2023-10-02T14:00:00,2373A,114.3956,27.7844,宜春市,市石油公司,颗粒物(PM10),52,53,40,27,22,93,93,60,60,13,12,14,13,1.0,1
2023-10-02T14:00:00,2374A,114.3703,27.7914,宜春市,市气象局,颗粒物(PM10),56,61,48,30,25,81,80,52,52,14,12,12,10,1.1,1.2
2023-10-02T14:00:00,2375A,114.4013,27.8074,宜春市,市广电局,,41,41,36,23,22,88,88,56,56,10,8,19,16,0.7,0.8
2023-10-02T14:00:00,2376A,116.2127,28.0814,抚州市,桐源党溪,,41,41,33,23,18,116,116,74,74,2,3,5,3,0.8,0.8
2023-10-02T14:00:00,2377A,116.3544,27.9831,抚州市,市站,,36,36,39,22,24,100,100,71,71,9,9,6,5,0.7,0.8
2023-10-02T14:00:00,2378A,116.3565,27.963,抚州市,血防站,,42,42,44,19,22,92,92,65,65,6,8,34,8,0.9,0.9
2023-10-02T14:00:00,2379A,116.3564,28.0007,抚州市,采茶剧团,,39,39,37,23,23,98,98,65,65,4,5,5,4,1.0,1
2023-10-02T14:00:00,2380A,116.385,27.9647,抚州市,医学分院,,30,29,36,19,20,94,94,66,66,6,8,5,6,1.2,1.2
2023-10-02T14:00:00,2381A,118.005,28.4572,上饶市,百草园,,,38,34,11,18,99,99,85,85,6,7,,,,
2023-10-02T14:00:00,2382A,117.9756,28.4436,上饶市,市监测站,,39,36,37,16,20,122,122,104,104,5,7,10,15,0.3,0.4
2023-10-02T14:00:00,2383A,117.9519,28.4628,上饶市,凤凰光学,,45,45,37,16,14,114,114,98,98,6,6,5,5,0.5,0.6
2023-10-02T14:00:00,2385A,114.17,35.9019,鹤壁市,市监测站,,30,28,32,21,21,112,93,86,55,12,21,6,8,0.5,0.5
2023-10-02T14:00:00,2386A,114.2956,35.7511,鹤壁市,市交警支队,,34,18,33,13,11,114,106,94,56,10,26,10,10,0.4,0.4
2023-10-02T14:00:00,2387A,114.2878,35.7306,鹤壁市,迎宾馆,,35,22,29,7,14,114,110,97,55,10,26,8,8,0.4,0.4
2023-10-02T14:00:00,2389A,113.836,35.311,新乡市,环保西院,,27,27,39,14,16,114,85,71,71,10,17,6,8,0.5,0.5
2023-10-02T14:00:00,2390A,113.884,35.272,新乡市,开发区,,28,23,28,9,12,114,89,74,74,9,17,4,7,0.7,0.8
2023-10-02T14:00:00,2391A,113.883,35.303,新乡市,环保东院,,34,34,37,18,19,111,82,68,68,17,21,6,8,0.5,0.5
2023-10-02T14:00:00,2392A,115.0312,35.7636,濮阳市,环保局,,34,31,36,12,15,119,106,74,74,12,31,4,6,0.2,0.3
2023-10-02T14:00:00,2394A,115.0574,35.7609,濮阳市,油田运输公司,,34,31,43,12,16,119,107,71,71,9,23,4,6,0.2,0.3
2023-10-02T14:00:00,2395A,115.0866,35.7754,濮阳市,油田物探公司,,36,36,45,17,20,118,113,74,74,11,27,4,7,0.3,0.3
2023-10-02T14:00:00,2396A,113.8276,34.0159,许昌市,监测站,,37,37,35,19,18,127,64,67,54,27,22,3,5,0.6,0.5
2023-10-02T14:00:00,2398A,113.7906,33.9953,许昌市,开发区,,40,32,29,28,24,130,67,69,56,19,16,4,7,0.6,0.5
2023-10-02T14:00:00,2399A,114.051,33.5699,漯河市,三五一五工厂,,37,37,32,22,19,135,66,102,55,9,10,8,9,0.5,0.5
2023-10-02T14:00:00,2400A,114.0055,33.5698,漯河市,漯河大学,颗粒物(PM10),53,55,36,26,20,134,65,104,54,14,15,3,2,0.4,0.4
2023-10-02T14:00:00,2401A,114.0138,33.5828,漯河市,市水利局,,39,36,37,27,23,129,68,103,54,7,11,8,7,0.4,0.3
2023-10-02T14:00:00,2402A,114.0261,33.5698,漯河市,市广电局,,42,42,38,24,21,131,62,100,51,12,14,4,4,0.6,0.5
2023-10-02T14:00:00,2404A,112.5224,33.0122,南阳市,瓦房庄,,27,21,26,13,22,109,86,99,90,15,13,4,4,0.4,0.4
2023-10-02T14:00:00,2405A,112.5003,32.9735,南阳市,汉画馆,,28,20,24,13,18,108,88,101,92,13,12,3,3,0.5,0.5
2023-10-02T14:00:00,2406A,112.5573,33.027,南阳市,气象站,,26,15,20,9,14,105,81,97,88,10,11,7,7,0.4,0.4
2023-10-02T14:00:00,2407A,112.5481,32.9689,南阳市,理工学院,,28,15,25,14,20,115,87,104,94,9,10,4,3,0.4,0.4
2023-10-02T14:00:00,2408A,115.6702,34.4285,商丘市,环境监测站,,38,38,44,20,23,123,90,60,60,11,18,7,6,0.4,0.4
2023-10-02T14:00:00,2409A,115.6458,34.4045,商丘市,粮食局,,39,39,42,25,22,114,93,69,65,9,17,7,6,0.6,0.6
2023-10-02T14:00:00,2410A,115.6293,34.3948,商丘市,睢阳区环保局,,36,36,39,23,22,121,97,70,70,11,19,9,9,0.3,0.4
2023-10-02T14:00:00,2420A,114.0189,32.9656,驻马店市,市一纸厂,,40,35,34,28,20,136,57,93,59,13,10,6,7,0.4,0.3
2023-10-02T14:00:00,2421A,114.0114,33.015,驻马店市,市彩印厂,,40,32,36,28,26,137,57,88,54,11,10,6,7,0.3,0.3
2023-10-02T14:00:00,2422A,113.9976,32.9771,驻马店市,天方二分厂,,43,33,30,30,30,131,58,91,59,13,9,9,9,0.3,0.3
2023-10-02T14:00:00,2423A,115.0601,30.2313,黄石市,沈家营,,48,48,52,18,24,114,114,92,92,13,12,11,8,0.7,0.7
2023-10-02T14:00:00,2424A,115.0817,30.2006,黄石市,陈家湾,,47,47,48,23,25,121,121,100,100,1,3,11,9,0.5,0.6
2023-10-02T14:00:00,2426A,114.8988,30.2019,黄石市,铁山,,45,45,38,22,25,122,122,104,100,7,9,14,12,0.6,0.8
2023-10-02T14:00:00,2427A,115.0307,30.2092,黄石市,团城山,,42,42,48,8,18,120,120,105,105,7,9,9,10,0.8,0.9
2023-10-02T14:00:00,2428A,111.0419,32.395,十堰市,武当山,,27,4,9,2,5,117,86,103,93,7,6,9,9,0.6,0.6
2023-10-02T14:00:00,2429A,110.78,32.6494,十堰市,滨河新村,,23,17,21,13,15,107,71,105,81,18,10,6,6,0.8,0.7
2023-10-02T14:00:00,2430A,110.7258,32.6389,十堰市,刘家沟,,22,11,12,3,9,105,68,101,77,11,5,6,6,0.8,0.8
2023-10-02T14:00:00,2431A,110.8839,32.5714,十堰市,铁二处,,29,9,15,9,12,114,90,109,92,6,3,6,6,0.5,0.5
2023-10-02T14:00:00,2432A,112.155,32.0197,襄阳市,襄城运动路,,23,13,25,10,20,102,72,98,75,14,12,7,7,0.6,0.6
2023-10-02T14:00:00,2433A,112.1392,32.0564,襄阳市,樊城新华路,,23,5,32,14,22,101,72,99,76,16,13,8,8,0.4,0.4
2023-10-02T14:00:00,2434A,112.1825,32.1142,襄阳市,高新管委会,,24,12,26,15,17,100,74,100,76,15,14,6,6,0.6,0.6
2023-10-02T14:00:00,2435A,112.2106,32.0903,襄阳市,襄州航空路,,25,17,25,12,17,106,77,102,81,16,14,7,8,0.5,0.5
2023-10-02T14:00:00,2436A,114.8938,30.3994,鄂州市,市政府,,37,30,49,18,24,117,117,82,82,5,15,4,6,0.5,0.7
2023-10-02T14:00:00,2437A,114.8989,30.3714,鄂州市,赵家坝,,34,34,46,13,26,112,108,80,80,15,20,5,7,0.6,0.9
2023-10-02T14:00:00,2439A,112.2014,31.0481,荆门市,竹园小学,,28,9,22,4,15,106,88,104,91,12,9,7,8,0.5,0.6
2023-10-02T14:00:00,2440A,112.1969,30.9891,荆门市,掇刀,,28,6,19,7,18,104,88,103,90,10,8,5,5,0.5,0.5
2023-10-02T14:00:00,2441A,112.2213,31.0386,荆门市,石化一小,,30,0,20,12,20,107,94,103,95,6,8,4,5,0.3,0.4
2023-10-02T14:00:00,2443A,113.9153,30.9285,孝感市,文化路,,19,18,33,12,23,111,58,98,57,10,10,7,7,0.7,0.7
2023-10-02T14:00:00,2444A,113.942,30.9075,孝感市,东城区,,23,15,35,16,22,113,58,99,56,8,7,7,7,0.7,0.8
2023-10-02T14:00:00,2446A,114.9028,30.4742,黄冈市,职工中心,,47,47,51,28,33,125,125,83,83,3,7,12,12,0.8,1
2023-10-02T14:00:00,2447A,114.3175,29.8142,咸宁市,森林公园,,32,29,30,22,18,84,84,68,64,3,3,7,7,0.8,0.8
2023-10-02T14:00:00,2448A,114.3107,29.8454,咸宁市,市发改委,,46,46,40,30,27,105,93,79,75,8,6,11,8,0.9,0.9
2023-10-02T14:00:00,2449A,114.2936,29.8566,咸宁市,咸安区政府,,43,43,38,27,25,106,99,79,79,10,11,8,7,0.7,0.7
2023-10-02T14:00:00,2451A,113.3583,31.7275,随州市,市委党校,,24,14,32,10,23,119,75,106,73,6,5,6,6,0.5,0.5
2023-10-02T14:00:00,2452A,113.3833,31.6908,随州市,市林业局,,21,13,24,11,20,126,66,104,69,11,9,5,5,0.5,0.5
2023-10-02T14:00:00,2453A,113.3983,31.7308,随州市,市立交桥水厂,,22,8,25,7,21,123,69,98,68,9,8,6,6,0.5,0.5
2023-10-02T14:00:00,2454A,109.4978,30.2981,恩施土家族苗族自治州,湖北民院,,29,29,25,11,10,60,37,48,34,5,7,10,10,0.9,0.9
2023-10-02T14:00:00,2455A,109.4707,30.2798,恩施土家族苗族自治州,州电力总公司,,13,10,11,9,6,58,39,47,36,11,11,8,8,1.0,1
2023-10-02T14:00:00,2456A,112.5003,26.9167,衡阳市,原169医院,颗粒物(PM10),57,64,48,31,29,84,84,45,45,13,14,15,12,0.8,0.8
2023-10-02T14:00:00,2457A,112.6194,26.9258,衡阳市,衡阳化工总厂,颗粒物(PM10),57,64,60,35,36,109,109,60,60,7,10,10,15,0.9,0.9
2023-10-02T14:00:00,2458A,112.6211,26.8956,衡阳市,珠晖区环保局,,,58,53,,,107,107,54,54,7,11,8,7,1.0,1
2023-10-02T14:00:00,2459A,112.6197,26.8733,衡阳市,市委党校,颗粒物(PM10),54,57,50,29,33,91,86,55,55,44,11,11,8,1.0,0.9
2023-10-02T14:00:00,2460A,112.6006,26.8919,衡阳市,市监测站,细颗粒物(PM2.5),74,62,55,54,39,107,107,60,60,11,13,10,14,1.0,1
2023-10-02T14:00:00,2461A,112.5664,26.9056,衡阳市,真空机电公司,,,54,56,,35,104,104,54,54,7,12,9,13,0.9,1
2023-10-02T14:00:00,2462A,111.5239,27.3033,邵阳市,市水土所,细颗粒物(PM2.5),64,63,43,46,37,74,74,36,36,6,8,18,6,0.8,0.9
2023-10-02T14:00:00,2463A,111.4733,27.2317,邵阳市,市一中,细颗粒物(PM2.5),64,64,56,46,33,77,77,55,49,5,8,6,7,0.7,0.7
2023-10-02T14:00:00,2464A,111.5283,27.2442,邵阳市,市化工厂,细颗粒物(PM2.5),54,56,47,38,32,79,79,55,51,7,10,6,9,0.8,0.8
2023-10-02T14:00:00,2465A,111.4503,27.2537,邵阳市,市罐头厂,细颗粒物(PM2.5),64,69,48,46,34,76,75,54,46,10,10,8,7,0.7,0.7
2023-10-02T14:00:00,2466A,111.4328,27.2272,邵阳市,市环保局,细颗粒物(PM2.5),60,59,44,43,37,75,72,52,46,9,10,9,8,0.7,0.7
2023-10-02T14:00:00,2467A,112.4067,28.6428,益阳市,甘溪港,,24,24,30,6,6,59,44,49,40,7,6,3,4,0.6,0.6
2023-10-02T14:00:00,2468A,112.3458,28.5808,益阳市,市环保局,,26,11,30,18,25,70,51,56,43,9,10,1,2,0.9,1
2023-10-02T14:00:00,2469A,112.3437,28.5531,益阳市,市特殊教育学校,,32,19,43,22,28,60,48,53,41,7,8,3,3,0.8,0.9
2023-10-02T14:00:00,2470A,112.3347,28.6047,益阳市,资阳区政务中心,,22,22,33,14,26,68,52,54,44,8,8,2,3,0.7,0.9
2023-10-02T14:00:00,2471A,112.3744,28.5819,益阳市,赫山环保分局,,24,24,41,14,21,62,47,52,42,7,8,3,2,0.6,0.6
2023-10-02T14:00:00,2472A,113.0073,25.9061,郴州市,马头岭,颗粒物(PM10),52,54,70,28,38,83,83,48,43,12,12,7,5,0.7,0.7
2023-10-02T14:00:00,2473A,113.0116,25.8226,郴州市,市职中,,,43,62,46,53,98,98,51,43,10,12,,4,1.0,1
2023-10-02T14:00:00,2474A,113.0161,25.8001,郴州市,兴隆步行街,细颗粒物(PM2.5),77,61,70,56,46,100,100,55,47,7,10,9,6,1.0,1
2023-10-02T14:00:00,2475A,113.0383,25.8071,郴州市,市审计局,细颗粒物(PM2.5),62,47,66,44,57,96,96,52,46,6,8,9,7,0.8,0.8
2023-10-02T14:00:00,2476A,113.0348,25.7759,郴州市,市环保局,细颗粒物(PM2.5),68,52,72,49,61,96,96,49,42,10,12,10,5,0.9,0.9
2023-10-02T14:00:00,2477A,111.6217,26.2081,永州市,零陵南津渡,细颗粒物(PM2.5),54,49,49,38,46,94,90,66,54,8,8,8,8,0.8,0.8
2023-10-02T14:00:00,2478A,111.6156,26.4214,永州市,市环境监测站,细颗粒物(PM2.5),53,49,63,37,48,88,76,60,47,10,11,6,7,0.9,0.7
2023-10-02T14:00:00,2479A,111.6236,26.2331,永州市,零陵区环保局,细颗粒物(PM2.5),60,49,61,43,50,96,82,61,51,11,10,7,7,0.7,0.7
2023-10-02T14:00:00,2480A,111.5992,26.4364,永州市,永州市环保局,,50,40,55,35,48,90,78,60,50,8,9,6,6,0.9,0.8
2023-10-02T14:00:00,2481A,111.5989,26.4519,永州市,冷水滩区环保局,细颗粒物(PM2.5),55,49,60,39,50,89,75,55,48,8,9,7,12,0.8,0.7
2023-10-02T14:00:00,2482A,109.5981,27.5721,怀化市,林科所,,23,23,16,8,7,55,48,45,44,4,4,4,3,0.9,0.8
2023-10-02T14:00:00,2483A,109.9453,27.5444,怀化市,河西地税局,,23,20,23,16,13,57,50,48,45,5,6,2,1,0.8,0.7
