timepoint,stationcode,longitude,latitude,area,positionname,primarypollutant,aqi,pm10,pm10_24h,pm2_5,pm2_5_24h,o3,o3_24h,o3_8h,o3_8h_24h,no2,no2_24h,so2,so2_24h,co,co_24h
2024-05-23T1000,2566A,102.1879,31.914,阿坝藏族羌族自治州,州农科所,,33,33,32,10,10,32,,23,23,7,16,3,3,0,0
2024-05-23T1000,2568A,102.2502,31.8896,阿坝藏族羌族自治州,马师校,,,30,18,18,16,,,49,47,14,11,3,3,,0.3
2024-05-23T1000,3994A,102.2165,31.9024,阿坝藏族羌族自治州,马尔康中学西区,,23,16,26,8,16,71,,55,55,7,7,3,3,0.3,0.2
2024-05-23T1000,2695A,80.292,41.1694,阿克苏地区,电视台,颗粒物(PM10),121,191,150,60,56,64,,92,85,19,13,6,6,0.5,0.4
2024-05-23T1000,2696A,80.2613,41.1551,阿克苏地区,艺术中心,颗粒物(PM10),122,193,131,72,43,56,,92,83,34,18,3,4,0.5,0.4
2024-05-23T1000,2204A,105.6467,38.8363,阿拉善盟,西城区西花园,颗粒物(PM10),55,59,46,14,15,140,,142,140,9,8,10,8,0.7,0.7
2024-05-23T1000,2205A,105.6985,38.8411,阿拉善盟,蒙二幼,,,58,44,19,15,133,,132,131,,9,12,10,0.6,0.5
2024-05-23T1000,2206A,105.724,38.8516,阿拉善盟,环保局新楼,颗粒物(PM10),52,54,39,20,14,142,,149,147,10,7,10,9,0.5,0.5
2024-05-23T1000,2708A,88.1264,47.8517,阿勒泰地区,市站,,25,25,18,7,7,44,,62,58,27,7,6,5,0.5,0.4
2024-05-23T1000,2630A,80.1161,32.5,阿里地区,阿里监测站,,42,,13,6,6,134,,143,140,8,10,6,9,0.4,0.4
2024-05-23T1000,3192A,80.0903,32.5028,阿里地区,阿里藏医院,,42,19,19,7,9,134,,145,140,10,6,9,9,0.5,0.5
2024-05-23T1000,2642A,109.0318,32.6537,安康市,香溪洞,,40,40,40,21,27,59,,50,44,7,7,8,7,0.5,0.5
2024-05-23T1000,2643A,109.0281,32.6939,安康市,安康市监测站,,39,39,42,27,28,87,,46,46,8,9,10,9,0.5,0.5
2024-05-23T1000,2644A,109.0072,32.6975,安康市,汉滨区检察院,,42,35,38,29,30,87,,43,43,8,9,7,6,0.5,0.4
2024-05-23T1000,2291A,117.0809,30.5177,安庆市,环科院,,,62,38,38,25,94,,79,76,26,17,,6,0.5,0.5
2024-05-23T1000,2292A,117.0331,30.5119,安庆市,马山宾馆,颗粒物(PM10),55,60,42,32,26,108,,79,76,16,19,12,9,0.4,0.3
2024-05-23T1000,2294A,116.9896,30.6145,安庆市,安庆大学,细颗粒物(PM2.5),52,51,41,36,27,125,,64,64,22,16,11,7,0.6,0.5
2024-05-23T1000,3173A,117.0598,30.5351,安庆市,市人大,,,,42,,26,,,75,71,,22,,7,,0.5
2024-05-23T1000,3122A,105.9606,26.2611,安顺市,伍家关,,,,,,,,,,,,,,,,
2024-05-23T1000,3123A,105.9408,26.2431,安顺市,凤凰山,,27,16,22,8,16,84,,73,73,6,8,8,8,0.9,0.8
2024-05-23T1000,3124A,105.9439,26.2564,安顺市,金钟山,,26,14,20,12,17,83,,75,74,6,6,6,8,0.9,0.8
2024-05-23T1000,3125A,105.8983,26.2481,安顺市,娄家坡,,,23,32,15,22,,,72,69,4,7,,12,0.5,0.5
2024-05-23T1000,1818A,114.4839,36.0621,安阳市,棉研所,,,,,,,,,,,,,,,,
2024-05-23T1000,1819A,114.3551,36.1017,安阳市,红庙街,颗粒物(PM10),72,94,74,48,33,141,,87,87,21,11,14,8,0.8,0.7
2024-05-23T1000,1820A,114.361,36.0681,安阳市,银杏小区,颗粒物(PM10),69,87,67,46,31,142,,87,87,15,8,13,9,0.9,0.7
2024-05-23T1000,3141A,114.3922,36.0878,安阳市,信访局,颗粒物(PM10),72,94,78,42,30,138,,94,94,23,11,13,8,0.9,0.7
2024-05-23T1000,3669A,114.4705,36.0637,安阳市,左辅环卫站,颗粒物(PM10),67,83,62,40,35,158,,89,89,17,13,13,8,0.5,0.4
2024-05-23T1000,3703A,114.2917,36.0949,安阳市,安钢职工学校,颗粒物(PM10),81,112,79,37,35,146,,87,87,22,15,22,11,0.5,0.4
2024-05-23T1000,1748A,123.044,41.1196,鞍山市,深沟寺,,18,18,29,9,18,36,,76,66,19,7,8,7,0.5,0.4
2024-05-23T1000,1749A,123.011,41.0931,鞍山市,太阳城,,31,31,43,19,25,30,,111,81,24,10,6,7,0.9,0.7
2024-05-23T1000,1750A,123.0485,41.1442,鞍山市,太平,,23,23,33,12,19,27,,78,65,46,14,6,5,0.5,0.4
2024-05-23T1000,1751A,122.9642,41.0971,鞍山市,铁西三道街,颗粒物(PM10),62,74,60,42,33,31,,108,82,52,17,8,5,1.3,0.8
2024-05-23T1000,1752A,122.9341,41.0833,鞍山市,铁西工业园区,,,76,60,50,35,,,96,74,,17,11,7,1.4,0.9
2024-05-23T1000,1753A,123.022,41.0821,鞍山市,明达新区,,33,33,40,18,27,33,,110,84,33,10,9,8,1.0,0.7
2024-05-23T1000,1754A,123.1289,41.0228,鞍山市,千山,,,,,,,,,,,,,,,,
2024-05-23T1000,2195A,107.4212,40.761,巴彦淖尔市,附二中,颗粒物(PM10),354,463,140,99,44,92,,81,76,14,20,2,5,0.4,0.5
2024-05-23T1000,2196A,107.37,40.7372,巴彦淖尔市,市环保大楼,颗粒物(PM10),342,453,135,83,34,96,,92,85,10,17,5,6,0.3,0.4
2024-05-23T1000,1956A,86.1472,41.7538,巴音郭楞蒙古自治州,孔雀公园,颗粒物(PM10),66,81,118,27,33,57,,87,77,35,10,8,7,0.4,0.2
2024-05-23T1000,1957A,86.1972,41.7166,巴音郭楞蒙古自治州,棉纺厂,颗粒物(PM10),84,118,122,33,35,45,,75,64,37,10,4,3,0.4,0.3
2024-05-23T1000,1958A,86.2357,41.7173,巴音郭楞蒙古自治州,经济开发区,颗粒物(PM10),51,52,118,25,35,92,,92,87,13,6,7,7,0.1,0.2
2024-05-23T1000,2914A,106.7677,31.8794,巴中市,苏山坪,,40,39,33,28,23,98,,92,88,11,9,4,5,0.5,0.4
2024-05-23T1000,3182A,106.7656,31.8545,巴中市,丽阳花园,,45,45,39,30,25,87,,39,39,22,19,6,5,0.6,0.5
2024-05-23T1000,3183A,106.7418,31.8654,巴中市,圣泉水务公司,,,,34,,26,,,46,46,18,20,5,4,0.3,0.4
2024-05-23T1000,3616A,106.7616,31.8344,巴中市,市中心医院,,44,44,37,30,27,88,,28,28,20,22,6,6,0.6,0.6
2024-05-23T1000,2235A,122.7911,45.6077,白城市,洮北区环保局,,,19,21,7,9,,,71,70,8,10,3,5,,0.3
2024-05-23T1000,2236A,122.8738,45.5725,白城市,市环保局,,36,36,33,8,12,80,,70,70,5,9,4,4,0.3,0.3
2024-05-23T1000,2231A,126.4219,41.9171,白山市,喜丰,,42,42,43,22,20,5,,5,5,21,11,9,8,1.0,0.7
2024-05-23T1000,2232A,126.4077,41.9419,白山市,环保局,,,,56,25,23,,,91,86,,6,,10,,0.8
2024-05-23T1000,2647A,104.1724,36.5446,白银市,第三小学,,,,63,40,32,88,,80,80,37,27,86,29,,0.6
2024-05-23T1000,2648A,104.1465,36.5482,白银市,动力公司,颗粒物(PM10),59,68,64,32,29,107,,76,76,20,23,26,27,0.8,0.7
2024-05-23T1000,2512A,106.6103,23.9011,百色市,市监测站,,40,40,29,22,15,48,,19,19,16,16,10,9,0.8,0.7
2024-05-23T1000,2513A,106.6538,23.8859,百色市,市中心血站,,,,38,,20,,,20,18,19,19,14,11,0.7,0.6
2024-05-23T1000,3406A,106.6085,23.8798,百色市,祈福高中,,35,34,45,24,19,46,,18,18,15,18,13,11,0.8,0.7
2024-05-23T1000,2270A,117.396,32.939,蚌埠市,工人疗养院,颗粒物(PM10),55,60,45,27,20,157,,109,109,16,13,12,10,0.4,0.4
2024-05-23T1000,2271A,117.3605,32.9427,蚌埠市,百货大楼,颗粒物(PM10),55,60,47,31,23,151,,119,119,19,12,8,6,0.5,0.4
2024-05-23T1000,2273A,117.4185,32.8911,蚌埠市,蚌埠学院,颗粒物(PM10),51,51,39,34,27,145,,97,97,13,13,11,9,0.5,0.4
2024-05-23T1000,2274A,117.3533,32.9673,蚌埠市,淮上区政府,,,,44,,27,145,,104,104,13,10,,8,,0.3
2024-05-23T1000,2275A,117.3145,32.8977,蚌埠市,高新区,,,58,47,30,28,161,,116,116,,8,11,8,0.5,0.4
2024-05-23T1000,3715A,117.3092,32.9314,蚌埠市,蚌埠田家炳中学,颗粒物(PM10),52,54,44,27,24,158,,122,122,13,8,10,8,0.4,0.4
2024-05-23T1000,1585A,109.8756,40.6532,包头市,市环境监测站,颗粒物(PM10),68,86,68,24,22,132,,98,98,33,25,43,15,1.1,0.5
2024-05-23T1000,1587A,109.9991,40.5842,包头市,包头八中,颗粒物(PM10),60,70,66,30,32,135,,110,110,22,20,15,11,0.8,0.7
2024-05-23T1000,1588A,109.8538,40.6821,包头市,青山宾馆,颗粒物(PM10),81,111,67,31,35,129,,97,97,47,27,37,22,1.7,0.9
2024-05-23T1000,1589A,109.8642,40.6288,包头市,惠龙物流,颗粒物(PM10),66,81,68,33,23,134,,111,111,32,21,53,18,1.3,0.5
2024-05-23T1000,1590A,110.0377,40.5546,包头市,东河鸿龙湾,颗粒物(PM10),61,71,59,18,26,140,,107,107,12,16,9,9,0.3,0.3
2024-05-23T1000,3283A,109.9154,40.5685,包头市,滨河大厦,颗粒物(PM10),60,70,62,26,21,137,,105,105,17,22,12,12,0.5,0.5
2024-05-23T1000,3419A,109.9447,40.6261,包头市,包头市委党校,颗粒物(PM10),63,76,66,23,21,134,,117,116,31,20,37,14,0.8,0.4
2024-05-23T1000,3683A,109.8331,40.6576,包头市,昆区政府,颗粒物(PM10),67,84,66,32,28,131,,112,109,42,24,39,30,1.5,1.1
2024-05-23T1000,1930A,107.185,34.3063,宝鸡市,庙沟村,细颗粒物(PM2.5),52,43,42,36,26,109,,110,104,13,11,9,10,0.7,0.6
2024-05-23T1000,1931A,107.0708,34.3017,宝鸡市,竹园沟,,50,50,42,26,25,119,,80,80,20,15,7,7,0.5,0.5
2024-05-23T1000,1932A,107.1906,34.3672,宝鸡市,三陆医院,颗粒物(PM10),55,60,58,34,34,116,,93,93,30,25,10,9,0.8,0.6
2024-05-23T1000,1933A,107.1431,34.3547,宝鸡市,监测站,颗粒物(PM10),51,52,50,28,28,116,,84,84,26,23,10,9,0.6,0.5
2024-05-23T1000,1934A,107.1186,34.3739,宝鸡市,技工学校,颗粒物(PM10),58,66,52,27,28,118,,106,102,20,17,8,8,0.6,0.6
2024-05-23T1000,1935A,107.3906,34.3528,宝鸡市,陈仓区环保局家属楼,,,,43,,35,,,78,78,,28,,14,,0.6
2024-05-23T1000,1936A,107.2058,34.3497,宝鸡市,文理学院,,49,49,57,26,28,123,,91,91,23,20,10,8,0.5,0.4
2024-05-23T1000,1937A,107.2386,34.3622,宝鸡市,三迪小学,颗粒物(PM10),58,65,58,36,33,106,,94,92,32,20,11,10,0.8,0.6
2024-05-23T1000,1051A,115.493,38.8632,保定市,游泳馆,颗粒物(PM10),84,117,106,42,38,99,,80,80,8,6,6,5,0.3,0.2
2024-05-23T1000,1052A,115.5213,38.8959,保定市,华电二区,颗粒物(PM10),71,92,71,33,30,109,,87,87,16,13,3,3,0.4,0.4
2024-05-23T1000,1053A,115.4713,38.9108,保定市,接待中心,细颗粒物(PM2.5),77,,58,56,44,104,,90,85,8,6,3,2,0.4,0.4
2024-05-23T1000,1054A,115.4612,38.8416,保定市,地表水厂,颗粒物(PM10),62,74,68,38,43,107,,83,83,10,10,5,4,1.2,1
2024-05-23T1000,3581A,115.31981,38.95208,保定市,满城区生态环境分局,颗粒物(PM10),76,102,95,41,41,94,,57,57,11,12,4,4,0.5,0.4
2024-05-23T1000,3582A,115.47694,38.76408,保定市,清苑区第二中学,颗粒物(PM10),60,70,76,42,41,108,,69,69,11,12,6,4,0.6,0.5
2024-05-23T1000,3583A,115.62909,39.02311,保定市,徐水物探局,颗粒物(PM10),75,100,113,39,38,122,,83,83,14,16,7,7,0.4,0.3
2024-05-23T1000,4004A,115.4202,38.8656,保定市,双鹰农机,,,79,77,31,35,,,80,73,13,14,10,7,0.2,0.1
2024-05-23T1000,4034A,115.5150,38.8590,保定市,植保所站,细颗粒物(PM2.5),62,71,77,44,41,118,,86,86,15,15,7,6,0.6,0.5
2024-05-23T1000,2594A,99.1678,25.1081,保山市,市环境监测站,,41,41,31,14,15,47,,53,48,20,10,5,4,0.5,0.4
2024-05-23T1000,2595A,99.1711,25.1328,保山市,市环保局,,,52,41,17,13,,,67,62,21,8,6,5,0.7,0.5
2024-05-23T1000,1866A,109.2262,21.588,北海市,牛尾岭水库,,,,,,,,,,,,,,,,
2024-05-23T1000,1867A,109.1436,21.4086,北海市,海滩公园,,,,17,3,6,,,72,69,5,7,,8,0.6,0.7
2024-05-23T1000,1868A,109.0981,21.4661,北海市,新市环保局,,25,13,19,7,9,77,,71,68,8,9,5,6,0.6,0.7
2024-05-23T1000,1869A,109.1778,21.5233,北海市,北海工业园,,23,17,24,3,13,72,,50,50,7,10,6,6,0.5,0.6
2024-05-23T1000,3400A,109.1911,21.4415,北海市,龙潭自来水厂,,21,14,15,3,11,67,,64,60,7,8,6,7,0.5,0.6
2024-05-23T1000,1001A,116.3621,39.8784,北京市,万寿西宫,细颗粒物(PM2.5),84,110,94,62,56,128,,100,99,26,22,2,1,0.7,0.7
2024-05-23T1000,1002A,116.2202,40.2915,北京市,定陵,细颗粒物(PM2.5),68,81,101,49,63,117,,89,84,13,17,3,3,0.6,0.8
2024-05-23T1000,1003A,116.4174,39.9289,北京市,东四,细颗粒物(PM2.5),79,106,90,58,54,115,,98,98,31,23,3,3,0.4,0.5
2024-05-23T1000,1004A,116.4072,39.8863,北京市,天坛,细颗粒物(PM2.5),77,97,83,56,49,120,,72,72,23,18,4,3,0.7,0.7
2024-05-23T1000,1005A,116.462,39.9365,北京市,农展馆,细颗粒物(PM2.5),75,95,90,55,55,125,,83,83,22,23,3,2,0.7,0.8
2024-05-23T1000,1006A,116.3392,39.9295,北京市,官园,颗粒物(PM10),78,106,96,45,50,125,,101,100,20,17,4,4,0.6,0.7
2024-05-23T1000,1007A,116.2878,39.9611,北京市,海淀万柳,细颗粒物(PM2.5),94,113,108,70,62,100,,76,71,36,28,6,5,0.6,0.6
2024-05-23T1000,1008A,116.6636,40.135,北京市,顺义新城,颗粒物(PM10),71,91,102,46,63,117,,82,80,15,21,1,3,0.5,0.7
2024-05-23T1000,1009A,116.6275,40.3275,北京市,怀柔镇,细颗粒物(PM2.5),72,72,102,52,75,115,,87,86,14,15,4,3,0.7,0.8
2024-05-23T1000,1010A,116.2296,40.217,北京市,昌平镇,细颗粒物(PM2.5),74,90,109,54,66,97,,89,86,18,20,2,1,0.7,0.8
2024-05-23T1000,1011A,116.3966,39.9821,北京市,奥体中心,颗粒物(PM10),68,85,84,47,50,114,,93,93,28,22,1,2,0.7,0.7
2024-05-23T1000,1012A,116.184,39.9136,北京市,古城,细颗粒物(PM2.5),137,178,126,104,65,80,,65,63,38,29,2,2,0.7,1
2024-05-23T1000,3281A,115.9718,40.4529,北京市,延庆夏都,细颗粒物(PM2.5),118,131,107,89,66,123,,124,114,12,16,3,3,0.8,0.6
2024-05-23T1000,3417A,117.0709,40.1465,北京市,平谷新城,细颗粒物(PM2.5),69,86,115,50,68,128,,104,100,10,13,1,2,0.5,0.7
2024-05-23T1000,3418A,116.8336,40.4095,北京市,密云新城,颗粒物(PM10),54,57,112,36,72,123,,79,79,8,15,2,2,0.5,0.7
2024-05-23T1000,3671A,116.088,39.9726,北京市,门头沟三家店,,,,,,,,,,,,,,,,
2024-05-23T1000,3672A,116.1541,39.8204,北京市,丰台云岗,颗粒物(PM10),88,126,96,62,49,98,,60,60,26,24,3,3,0.7,0.7
2024-05-23T1000,3673A,116.6804,39.9081,北京市,通州东关,细颗粒物(PM2.5),77,98,95,56,58,118,,84,84,17,23,3,2,0.5,0.7
2024-05-23T1000,3674A,115.9577,39.7603,北京市,房山燕山,颗粒物(PM10),93,136,118,52,53,103,,64,61,25,21,3,3,0.7,0.7
2024-05-23T1000,3675A,116.4672,39.7733,北京市,大兴旧宫,颗粒物(PM10),64,78,73,45,45,115,,90,90,14,15,1,2,0.6,0.7
2024-05-23T1000,3694A,115.986,40.4563,北京市,延庆石河营,细颗粒物(PM2.5),124,113,97,94,68,140,,110,107,11,15,3,2,0.8,0.7
2024-05-23T1000,3695A,116.6151,40.3053,北京市,怀柔新城,细颗粒物(PM2.5),72,72,101,52,69,103,,81,78,15,14,1,2,0.7,0.9
2024-05-23T1000,3696A,116.2545,39.8768,北京市,丰台小屯,颗粒物(PM10),86,122,92,62,48,103,,62,62,24,22,3,2,0.6,0.6
2024-05-23T1000,3697A,116.84,40.3844,北京市,密云镇,细颗粒物(PM2.5),63,64,107,45,72,117,,74,74,11,17,3,3,0.5,0.6
2024-05-23T1000,1761A,123.8275,41.3064,本溪市,大峪,,24,24,32,12,16,40,,88,73,37,12,10,10,0.7,0.6
2024-05-23T1000,1762A,123.7567,41.3325,本溪市,溪湖,,32,32,30,19,16,26,,82,70,40,14,9,8,2.6,0.8
2024-05-23T1000,1763A,123.7169,41.3094,本溪市,彩屯,,22,15,39,8,26,40,,54,49,27,32,11,19,2.2,2.6
2024-05-23T1000,1764A,123.7669,41.2864,本溪市,东明,,17,13,27,8,14,54,,91,80,17,11,10,10,0.5,0.5
2024-05-23T1000,1765A,123.7992,41.2664,本溪市,新立屯,,20,9,30,3,14,61,,99,88,11,6,12,11,0.4,0.5
2024-05-23T1000,1766A,123.8142,41.3472,本溪市,威宁,,,,34,,16,,,94,,,13,,7,,0.6
2024-05-23T1000,2587A,105.2864,27.3125,毕节市,八中,,44,44,30,26,20,75,,42,42,18,12,9,6,0.6,0.5
2024-05-23T1000,2588A,105.31,27.2944,毕节市,师专,,43,43,31,27,18,70,,40,40,18,15,9,8,0.5,0.5
2024-05-23T1000,3537A,105.3631,27.3533,毕节市,长征村,,,45,30,34,23,,,45,40,12,11,9,7,0.3,0.3
2024-05-23T1000,1629A,118.0018,37.3617,滨州市,第二水厂,颗粒物(PM10),56,61,75,27,36,142,,94,94,12,17,10,9,0.9,0.9
2024-05-23T1000,1630A,117.9776,37.393,滨州市,北中新校,颗粒物(PM10),59,68,75,27,36,146,,110,110,20,21,14,11,1.0,1
2024-05-23T1000,3514A,117.9378,37.3956,滨州市,中海酒店,颗粒物(PM10),57,63,73,24,39,148,,118,118,16,18,11,10,1.0,0.9
2024-05-23T1000,3515A,117.9378,37.3553,滨州市,开发区一中,颗粒物(PM10),59,68,79,24,38,139,,97,97,11,14,16,11,0.8,0.7
2024-05-23T1000,3516A,118.0917,37.694,滨州市,金海六路,,,,81,,36,,,68,67,13,22,,8,0.7,0.6
2024-05-23T1000,4028A,117.9956,37.3753,滨州市,滨州市西街道办事处,颗粒物(PM10),57,63,73,31,42,143,,104,104,15,18,10,12,0.7,1.1
2024-05-23T1000,2311A,115.8072,33.8399,亳州市,污水处理厂,,44,44,43,26,25,132,,96,96,12,10,6,5,0.4,0.4
2024-05-23T1000,2312A,115.7789,33.8518,亳州市,三国揽胜宫,,50,50,48,23,23,136,,105,105,5,5,13,11,0.4,0.4
2024-05-23T1000,3332A,115.7633,33.8034,亳州市,亳州学院,,42,42,44,27,19,131,,99,99,9,6,6,9,0.4,0.3
2024-05-23T1000,2693A,82.0485,44.8556,博尔塔拉蒙古自治州,市党校,,28,,23,13,12,87,,85,85,14,10,11,11,0.4,0.3
2024-05-23T1000,2694A,82.0806,44.8969,博尔塔拉蒙古自治州,市环保局,,29,21,24,10,10,90,,82,82,10,10,12,10,0.2,0.2
2024-05-23T1000,1071A,116.8842,38.2991,沧州市,沧县城建局,,47,47,55,24,23,128,,97,97,10,10,7,6,0.6,0.6
2024-05-23T1000,1072A,116.8584,38.3254,沧州市,电视转播站,颗粒物(PM10),51,51,61,29,30,121,,96,95,9,7,3,4,0.4,0.4
2024-05-23T1000,1073A,116.8709,38.3228,沧州市,市环保局,颗粒物(PM10),55,59,63,25,30,126,,92,92,13,11,8,6,0.4,0.4
2024-05-23T1000,3324A,116.8136,38.3004,沧州市,河北水利电力学院,,,,62,,26,,,89,86,,12,8,7,0.4,0.3
2024-05-23T1000,2622A,97.1806,31.1273,昌都市,昌都监测站,,29,20,13,14,10,92,,102,92,16,7,7,7,0.5,0.4
2024-05-23T1000,3719A,97.1714,31.1406,昌都市,昌都会议中心,,37,16,11,8,7,117,,122,113,14,6,6,6,0.4,0.2
2024-05-23T1000,2690A,88.1236,43.8886,昌吉回族自治州,天山天池,,25,6,12,3,6,79,,43,43,5,7,13,14,0.5,0.5
2024-05-23T1000,2692A,87.2717,44.0297,昌吉回族自治州,新区政务中心,,24,24,27,3,10,72,,33,33,9,20,10,8,0.2,0.3
2024-05-23T1000,3613A,87.3095,44.0142,昌吉回族自治州,亚心广场,,34,34,27,3,6,73,,46,46,12,23,11,8,0.5,0.4
2024-05-23T1000,1119A,125.3325,43.9166,长春市,食品厂,,24,,52,7,25,74,,67,67,12,20,6,6,0.2,0.4
2024-05-23T1000,1120A,125.2863,43.9027,长春市,客车厂,,,9,53,,28,,,58,57,22,17,,5,0.3,0.5
2024-05-23T1000,1121A,125.2841,43.8463,长春市,邮电学院,,,,59,12,15,,,59,59,14,16,6,7,0.3,0.4
2024-05-23T1000,1122A,125.3716,43.8772,长春市,劳动公园,,21,9,51,3,20,66,,68,66,19,18,4,5,0.2,0.3
2024-05-23T1000,1123A,125.3297,43.8805,长春市,园林处,,20,9,45,6,26,62,,63,61,19,18,7,7,0.2,0.4
2024-05-23T1000,1124A,125.4605,43.79,长春市,净月潭,,20,,49,3,23,62,,64,60,3,10,7,8,0.4,0.6
2024-05-23T1000,1125A,125.7194,43.515,长春市,甩湾子,,,,,,,,,,,,,,,,
2024-05-23T1000,1126A,125.3863,43.8447,长春市,经开区环卫处,,21,10,49,3,17,65,,71,66,16,16,5,6,0.4,0.5
2024-05-23T1000,1127A,125.245,43.7783,长春市,高新区管委会,,21,7,55,3,21,65,,59,58,14,14,6,6,0.3,0.5
2024-05-23T1000,1128A,125.1761,43.8325,长春市,岱山公园,,18,,50,10,28,57,,54,51,24,20,4,5,0.3,0.4
2024-05-23T1000,1335A,113.0833,28.2325,长沙市,经开区环保局,,40,32,25,28,16,76,,26,26,7,19,9,8,0.6,0.5
2024-05-23T1000,1336A,112.8872,28.2189,长沙市,高开区环保局,,32,32,36,18,20,95,,35,35,17,25,6,5,0.8,0.7
2024-05-23T1000,1337A,113.0792,28.2053,长沙市,马坡岭,细颗粒物(PM2.5),55,,23,39,16,64,,25,25,9,14,9,7,0.7,0.5
2024-05-23T1000,1338A,112.9394,28.19,长沙市,湖南师范大学,,,39,30,32,20,,,27,27,,16,,4,,0.7
2024-05-23T1000,1339A,113.0178,28.1322,长沙市,雨花区环保局,,33,33,23,13,14,58,,23,23,18,20,7,5,0.5,0.3
2024-05-23T1000,1340A,112.9792,28.2597,长沙市,伍家岭,细颗粒物(PM2.5),52,37,34,36,17,61,,15,15,16,21,6,5,0.5,0.4
2024-05-23T1000,1341A,113.0014,28.1944,长沙市,火车新站,,39,38,28,27,18,70,,31,31,19,23,5,3,0.8,0.6
2024-05-23T1000,1342A,112.9844,28.1178,长沙市,天心区环保局,颗粒物(PM10),53,55,30,36,19,57,,14,14,30,35,4,2,1.1,0.9
2024-05-23T1000,1343A,112.8908,28.1308,长沙市,湖南中医药大学,,36,36,31,23,20,70,,16,16,17,22,2,2,0.9,0.8
2024-05-23T1000,1344A,112.9581,28.3611,长沙市,沙坪,,48,,27,33,14,60,,25,25,16,12,7,7,0.1,0.3
2024-05-23T1000,1727A,113.1147,36.1547,长治市,清华站,臭氧1小时,80,57,55,27,24,184,,145,144,15,16,17,12,0.5,0.5
2024-05-23T1000,1728A,113.1031,36.1989,长治市,监测站,,,52,58,24,24,,,152,144,24,18,11,6,0.7,0.7
2024-05-23T1000,1730A,113.0886,36.2125,长治市,审计局,臭氧1小时,83,56,53,29,24,186,,169,166,13,12,21,16,0.4,0.4
2024-05-23T1000,1731A,113.0844,36.1856,长治市,长治八中,臭氧1小时,83,71,71,27,25,186,,169,167,24,20,14,10,0.7,0.7
2024-05-23T1000,2845A,113.1569,36.1911,长治市,德盛苑,,,92,51,27,25,,,190,188,11,10,,8,,0.7
2024-05-23T1000,3568A,113.06,36.0464,长治市,向阳小学,臭氧1小时,80,65,71,37,40,184,,162,162,13,13,12,12,0.6,0.7
2024-05-23T1000,3569A,112.8792,36.3144,长治市,屯留一中,臭氧1小时,72,55,57,29,28,177,,103,103,14,16,13,11,0.4,0.3
2024-05-23T1000,3570A,113.235,36.3489,长治市,潞城四中,臭氧1小时,93,82,73,32,29,194,,149,149,15,16,9,7,0.8,0.6
2024-05-23T1000,1854A,111.6975,28.9703,常德市,市二中,,50,50,50,31,37,122,,64,64,6,13,8,8,0.5,0.5
2024-05-23T1000,1857A,111.7158,29.1456,常德市,白鹤山,,,,,,,,,,,,,,,,
2024-05-23T1000,3138A,111.7153,29.0289,常德市,武陵区永安,,,61,53,34,37,120,,71,71,,14,8,11,0.5,0.4
2024-05-23T1000,3139A,111.6892,28.9881,常德市,鼎城区玉霞,颗粒物(PM10),52,53,56,26,34,120,,60,60,7,16,7,7,0.5,0.5
2024-05-23T1000,3140A,111.6625,29.0531,常德市,武陵区长庚,颗粒物(PM10),57,63,55,32,33,113,,66,66,11,14,10,12,0.6,0.6
2024-05-23T1000,1196A,119.9633,31.762,常州市,市监测站,,49,49,73,27,37,99,,37,37,17,32,11,14,0.4,0.7
2024-05-23T1000,1200A,119.9468,31.7069,常州市,武进监测站,,35,35,60,12,28,111,,46,46,6,26,11,13,0.4,0.6
2024-05-23T1000,1201A,119.9255,31.9087,常州市,安家,颗粒物(PM10),54,57,71,36,34,93,,37,37,24,28,11,11,0.7,0.7
2024-05-23T1000,3002A,119.9805,31.8174,常州市,行政中心,,,,66,,29,,,22,21,32,28,,14,0.7,0.4
2024-05-23T1000,3003A,120.0522,31.7748,常州市,经开区,,,,68,,31,,,24,24,30,30,,11,0.6,0.5
2024-05-23T1000,3010A,119.9025,31.7964,常州市,钟楼,,44,44,58,17,31,96,,36,36,16,29,9,11,0.6,0.7
2024-05-23T1000,3429A,119.8598,31.7066,常州市,武进经发区,,35,26,57,18,33,109,,50,50,10,31,11,13,0.3,0.5
2024-05-23T1000,3430A,119.5826,31.7245,常州市,金坛城区,,37,32,39,19,27,118,,71,71,8,20,9,11,0.6,0.6
2024-05-23T1000,2220A,120.4318,41.5881,朝阳市,西梁,,27,17,83,10,46,86,,95,89,9,14,6,12,0.3,0.8
2024-05-23T1000,2221A,120.4521,41.5646,朝阳市,河畔小区,,28,27,91,6,45,88,,97,91,10,11,8,11,0.3,0.8
2024-05-23T1000,2222A,120.4176,41.5648,朝阳市,八里堡,,,,78,11,49,84,,93,87,,15,,11,0.5,1
2024-05-23T1000,2223A,120.3806,41.5969,朝阳市,农业园区,,28,12,99,3,50,89,,88,85,9,15,10,11,0.4,0.9
2024-05-23T1000,1705A,116.6367,23.6719,潮州市,西园路,,22,22,13,12,8,27,,38,36,21,13,7,4,0.7,0.3
2024-05-23T1000,3026A,116.6183,23.6608,潮州市,市政府,,20,20,13,12,8,27,,40,38,25,16,8,8,1.2,0.8
2024-05-23T1000,4036A,116.6461,23.6761,潮州市,金山,,22,22,12,14,9,28,,38,36,22,12,14,8,1.0,0.7
2024-05-23T1000,2472A,113.0073,25.9061,郴州市,马头岭,,42,42,26,10,10,54,,22,22,6,10,8,4,0.6,0.6
2024-05-23T1000,2473A,113.0116,25.8226,郴州市,市职中,,,,24,24,18,53,,9,9,,14,8,7,0.7,0.7
2024-05-23T1000,2474A,113.0161,25.8001,郴州市,兴隆步行街,,38,31,29,26,18,50,,19,19,7,10,7,6,0.8,0.7
2024-05-23T1000,2475A,113.0383,25.8071,郴州市,市审计局,,,,25,20,19,44,,8,8,13,12,,3,0.7,0.7
2024-05-23T1000,2476A,113.0348,25.7759,郴州市,市环保局,,35,,29,24,22,22,,8,8,22,21,4,4,0.8,0.8
2024-05-23T1000,1431A,103.9728,30.7236,成都市,金泉两河,颗粒物(PM10),73,96,63,42,38,73,,44,42,35,21,8,3,0.7,0.5
2024-05-23T1000,1432A,104.176,30.6872,成都市,十里店,颗粒物(PM10),61,72,56,31,33,50,,74,58,70,25,5,4,0.9,0.6
2024-05-23T1000,1433A,104.079,30.5706,成都市,三瓦窑,,,65,53,30,32,70,,40,31,,29,6,3,0.8,0.6
2024-05-23T1000,1434A,104.1114,30.63,成都市,沙河铺,细颗粒物(PM2.5),80,79,46,59,26,70,,82,68,56,22,6,6,0.8,0.6
2024-05-23T1000,1437A,104.0786,30.6531,成都市,君平街,细颗粒物(PM2.5),67,79,64,48,39,95,,74,61,34,21,7,5,0.8,0.6
2024-05-23T1000,1438A,103.613,31.0283,成都市,灵岩寺,,,,,,,,,,,,,,,,
2024-05-23T1000,2880A,104.0239,30.65639,成都市,大石西路,颗粒物(PM10),58,65,59,29,34,83,,72,59,42,23,6,5,0.7,0.5
2024-05-23T1000,3136A,104.2725,30.5589,成都市,龙泉驿区区政府,,46,46,26,31,16,126,,101,99,12,7,5,3,0.6,0.5
2024-05-23T1000,3357A,104.0106,30.6931,成都市,金博路,颗粒物(PM10),61,71,62,40,39,90,,41,41,28,24,6,3,0.8,0.7
2024-05-23T1000,3359A,104.0578,30.5225,成都市,华阳,细颗粒物(PM2.5),58,63,52,41,38,98,,58,47,27,22,5,3,0.7,0.6
2024-05-23T1000,3487A,104.2394,30.5319,成都市,车城东七路,细颗粒物(PM2.5),58,58,44,41,27,119,,103,98,16,11,5,3,0.6,0.5
2024-05-23T1000,3488A,104.3853,30.7453,成都市,青白江技师分院,,42,11,22,3,12,132,,95,95,8,14,4,4,0.6,0.6
2024-05-23T1000,3489A,104.0789,30.4072,成都市,科学城,细颗粒物(PM2.5),64,64,47,46,30,79,,62,54,29,20,6,5,0.8,0.7
2024-05-23T1000,4011A,103.8506,30.6947,成都市,光华大道三段,,50,50,54,13,30,86,,72,68,17,16,5,2,0.6,0.5
2024-05-23T1000,1062A,117.9531,40.9081,承德市,铁路,颗粒物(PM10),68,86,94,28,55,87,,108,98,14,22,8,10,0.3,0.7
2024-05-23T1000,1063A,117.9392,40.9763,承德市,中国银行,颗粒物(PM10),62,74,89,33,53,83,,78,77,12,16,9,12,0.3,0.7
2024-05-23T1000,1064A,117.9503,40.928,承德市,开发区,,,,83,,47,86,,105,95,,22,7,10,0.4,0.9
2024-05-23T1000,1065A,117.8051,40.9655,承德市,文化中心,颗粒物(PM10),66,82,107,39,56,98,,122,120,13,19,8,17,0.4,0.9
2024-05-23T1000,1066A,117.9268,41.0026,承德市,离宫,颗粒物(PM10),59,67,91,30,59,78,,53,53,10,13,4,8,0.3,0.7
2024-05-23T1000,2314A,117.47,30.6618,池州市,池州学院,,50,50,40,29,25,111,,71,70,18,16,14,7,0.9,0.5
2024-05-23T1000,3237A,117.4918,30.6617,池州市,展览馆,,40,38,32,28,23,104,,57,57,16,11,9,4,1.0,0.6
2024-05-23T1000,3333A,117.5627,30.695,池州市,第八中学,,43,43,38,28,22,105,,73,73,13,11,6,5,0.8,0.6
2024-05-23T1000,3334A,117.5038,30.6243,池州市,第十二中学,,41,41,40,25,21,93,,32,32,17,23,7,5,0.8,0.7
2024-05-23T1000,1744A,118.9233,42.2816,赤峰市,松山一中,颗粒物(PM10),52,53,54,3,14,80,,93,88,23,19,10,11,0.3,0.4
2024-05-23T1000,1745A,118.9576,42.2728,赤峰市,哈达街,,33,33,49,3,21,75,,87,81,18,18,9,11,0.4,0.5
2024-05-23T1000,1746A,118.8788,42.2554,赤峰市,天义路,,42,42,65,7,13,82,,94,91,22,17,5,6,0.2,0.3
2024-05-23T1000,3058A,119.2658,42.0353,赤峰市,银河街,颗粒物(PM10),88,126,140,17,37,81,,84,82,15,17,10,13,0.2,0.5
2024-05-23T1000,3286A,118.9359,42.3147,赤峰市,桥北物流园区,,,40,48,9,24,,,96,93,18,15,4,6,0.5,0.6
2024-05-23T1000,2521A,107.3476,22.4136,崇左市,市环保局江州分局,,,34,30,26,17,,,13,13,12,13,9,8,0.7,0.6
2024-05-23T1000,2522A,107.3702,22.3707,崇左市,城南新区,,33,33,28,22,15,60,,23,23,11,13,7,6,0.7,0.6
2024-05-23T1000,2298A,118.3093,32.3153,滁州市,老年大学,颗粒物(PM10),54,57,52,36,28,121,,54,54,24,24,10,9,0.6,0.6
2024-05-23T1000,2299A,118.3244,32.2786,滁州市,人大宾馆,颗粒物(PM10),51,52,46,35,31,118,,51,51,23,25,10,8,0.6,0.6
2024-05-23T1000,3207A,118.3118,32.3038,滁州市,市政府原办公楼,,,58,53,41,36,118,,48,48,,26,,9,0.6,0.6
2024-05-23T1000,3331A,118.3267,32.2634,滁州市,图书馆,颗粒物(PM10),57,64,52,26,30,114,,52,52,22,27,12,11,0.7,0.7
2024-05-23T1000,2605A,101.5482,25.0441,楚雄彝族自治州,州环境监测站,,33,23,24,23,21,97,,73,65,10,9,6,6,0.6,0.5
2024-05-23T1000,2606A,101.538,25.0492,楚雄彝族自治州,市经济开发区,,29,27,27,20,20,91,,71,64,13,10,5,5,0.6,0.5
2024-05-23T1000,2548A,107.5277,31.2827,达州市,达州职业技术学院,,29,29,33,18,15,65,,27,27,18,29,14,7,0.4,0.4
2024-05-23T1000,2549A,107.5086,31.2186,达州市,市环境监测站,颗粒物(PM10),59,68,46,17,18,53,,24,24,38,37,10,7,0.5,0.6
2024-05-23T1000,2550A,107.4988,31.2132,达州市,凤凰小区,,41,41,39,22,21,67,,34,34,24,30,10,8,0.5,0.5
2024-05-23T1000,2551A,107.5082,31.1986,达州市,达县机关宾馆,,36,36,40,19,20,67,,35,35,22,38,6,5,0.5,0.5
2024-05-23T1000,2552A,107.4644,31.2124,达州市,市政中心,,,65,42,29,21,57,,28,28,35,35,12,9,,1.1
2024-05-23T1000,2614A,100.1542,25.7054,大理白族自治州,大理市环境监测站,,27,20,28,11,18,84,,94,83,18,16,6,6,0.5,0.5
2024-05-23T1000,2615A,100.2171,25.5811,大理白族自治州,大理古城,,36,,27,9,19,113,,96,96,8,16,6,6,0.5,0.5
2024-05-23T1000,1109A,121.612,38.9741,大连市,甘井子,,,30,35,18,19,46,,39,37,25,27,7,9,,0.6
2024-05-23T1000,1110A,121.565,38.9511,大连市,周水子,,26,26,30,16,19,41,,40,38,21,21,6,7,0.5,0.5
2024-05-23T1000,1111A,121.5637,38.8845,大连市,星海三站,,26,26,31,14,17,49,,41,41,10,10,8,7,0.4,0.4
2024-05-23T1000,1112A,121.6302,38.9117,大连市,青泥洼桥,,23,23,33,12,16,54,,40,40,17,17,7,7,0.8,0.7
2024-05-23T1000,1113A,121.6251,38.8638,大连市,傅家庄,,23,23,25,14,16,57,,43,43,13,17,8,8,0.5,0.5
2024-05-23T1000,1114A,121.5213,38.8661,大连市,七贤岭,,18,16,24,12,17,47,,37,37,16,20,9,8,0.4,0.4
2024-05-23T1000,1115A,121.2529,38.8061,大连市,旅顺,,23,23,23,14,15,52,,46,46,20,20,9,8,0.4,0.4
2024-05-23T1000,1116A,121.7485,39.1311,大连市,金州,,33,24,24,23,19,54,,42,42,17,13,11,10,0.7,0.6
2024-05-23T1000,1117A,121.7811,39.0496,大连市,开发区,,41,41,36,21,20,59,,40,40,23,23,6,7,0.6,0.5
2024-05-23T1000,1118A,121.9762,39.0631,大连市,双D港,,21,21,21,11,14,60,,42,42,10,14,7,7,0.5,0.5
2024-05-23T1000,1789A,124.81117,46.03138,大庆市,大同区,,24,23,32,14,20,74,,67,67,3,9,6,7,0.2,0.3
2024-05-23T1000,1790A,125.129,46.533,大庆市,龙凤区,,,,32,,25,,,73,,,18,,6,,0.3
2024-05-23T1000,1791A,124.902,46.408,大庆市,红岗区,,34,34,27,6,15,76,,68,68,3,9,7,7,0.2,0.2
2024-05-23T1000,1792A,125.153,46.586,大庆市,萨尔图区,,23,23,29,3,13,65,,63,61,7,14,7,8,0.2,0.2
2024-05-23T1000,1793A,124.9042,46.6215,大庆市,让胡路区,细颗粒物(PM2.5),53,,28,37,21,71,,63,63,3,11,5,5,0.2,0.3
2024-05-23T1000,3481A,125.141,46.634,大庆市,萨区政府监测点,,,34,30,19,14,,,61,59,,15,9,8,1.8,0.3
2024-05-23T1000,1721A,113.3819,40.1097,大同市,果树场,,,,,,,,,,,,,,,,
2024-05-23T1000,1723A,113.2994,40.0758,大同市,云冈宾馆,颗粒物(PM10),56,62,90,27,48,162,,71,71,17,30,10,10,0.3,0.5
2024-05-23T1000,1724A,113.3444,40.0917,大同市,大同大学,颗粒物(PM10),63,76,79,21,37,153,,82,82,19,25,19,18,0.4,0.4
2024-05-23T1000,1725A,113.2661,40.1269,大同市,安家小村,颗粒物(PM10),62,73,95,12,32,159,,99,99,9,17,10,13,0.5,0.7
2024-05-23T1000,1726A,113.2711,40.0844,大同市,教育学院,细颗粒物(PM2.5),69,81,104,50,36,160,,69,69,23,33,10,12,0.4,0.6
2024-05-23T1000,3282A,113.3397,40.0597,大同市,大同市卫生学校,细颗粒物(PM2.5),140,,108,107,50,,,52,47,18,32,14,16,0.8,0.9
2024-05-23T1000,3565A,113.1367,40.1122,大同市,云冈站,臭氧1小时,58,52,81,19,40,166,,99,99,7,17,8,14,0.4,0.4
2024-05-23T1000,3566A,113.1186,40.2556,大同市,图书馆,臭氧1小时,60,53,81,26,40,168,,95,95,10,15,7,9,0.4,0.5
2024-05-23T1000,3567A,113.5931,40.0461,大同市,区一中,细颗粒物(PM2.5),107,123,89,80,37,165,,110,110,17,25,14,13,,0.5
2024-05-23T1000,3676A,113.2802,40.0995,大同市,第二人民医院,颗粒物(PM10),68,85,96,31,35,164,,75,75,9,21,12,14,0.4,0.5
2024-05-23T1000,2269A,124.1069,50.4097,大兴安岭地区,科技局,,,,14,,16,63,,58,58,,3,,3,0.1,0.1
2024-05-23T1000,3663A,124.1164,50.4278,大兴安岭地区,红旗社区,,21,6,3,3,3,66,,60,60,2,2,7,7,0.3,0.3
2024-05-23T1000,1600A,124.3303,40.0625,丹东市,江湾东路,,23,12,15,3,8,72,,83,80,15,7,7,8,0.4,0.4
2024-05-23T1000,1601A,124.4256,40.1503,丹东市,临江后街,,25,10,13,3,7,80,,77,77,5,4,8,8,0.5,0.5
2024-05-23T1000,1602A,124.3933,40.1461,丹东市,元宝山,,21,13,15,8,8,66,,72,70,14,8,9,9,0.4,0.4
2024-05-23T1000,1603A,124.3633,40.1092,丹东市,民主桥,,22,13,14,6,8,70,,69,68,7,5,10,10,0.3,0.3
2024-05-23T1000,3541A,109.5726,19.5167,儋州市,第一中学子站,,,24,16,10,6,,,30,28,3,4,4,3,0.6,0.6
2024-05-23T1000,3542A,109.5567,19.5187,儋州市,东坡学校子站,,28,28,17,8,6,51,,27,27,5,4,4,3,0.6,0.7
2024-05-23T1000,2616A,98.5842,24.428,德宏傣族景颇族自治州,德宏州监测站,细颗粒物(PM2.5),55,45,41,39,33,70,,42,42,19,17,4,3,1.0,0.9
2024-05-23T1000,3677A,98.5881,24.4368,德宏傣族景颇族自治州,芒市人民政府综合楼,细颗粒物(PM2.5),53,42,40,37,25,60,,47,44,19,14,9,4,0.8,0.6
2024-05-23T1000,1901A,104.4239,31.1208,德阳市,东山公园,,48,48,43,13,21,106,,84,80,12,12,3,3,0.6,0.6
2024-05-23T1000,1902A,104.3826,31.1317,德阳市,西小区,颗粒物(PM10),52,53,58,10,34,106,,60,60,21,29,4,5,0.6,0.7
2024-05-23T1000,1904A,104.3553,31.1091,德阳市,耐火材料厂,,43,43,60,25,34,116,,66,66,18,20,6,9,0.6,0.7
2024-05-23T1000,3639A,104.4019,31.1244,德阳市,市教育局,,,,47,,26,97,,56,56,,27,,3,0.5,0.6
2024-05-23T1000,1622A,116.3032,37.4674,德州市,儿童乐园,颗粒物(PM10),59,68,69,27,29,150,,118,118,10,14,9,8,0.7,0.7
2024-05-23T1000,1624A,116.2991,37.4451,德州市,监理站,颗粒物(PM10),52,53,64,29,34,144,,111,111,8,12,14,13,0.5,0.5
2024-05-23T1000,3066A,116.2721,37.4379,德州市,九衢泉纯净水厂,颗粒物(PM10),57,63,67,29,32,133,,105,105,15,17,7,6,0.5,0.6
2024-05-23T1000,3371A,116.3728,37.4403,德州市,开发区人民医院,颗粒物(PM10),60,70,70,31,30,138,,102,102,7,10,12,10,0.6,0.5
2024-05-23T1000,3372A,116.3572,37.4094,德州市,太阳城中学,颗粒物(PM10),59,68,67,29,31,133,,98,98,11,12,11,8,0.7,0.6
2024-05-23T1000,3511A,116.5652,37.3319,德州市,陵城艺术中心,颗粒物(PM10),56,61,63,19,27,126,,98,98,13,13,10,8,0.8,0.6
2024-05-23T1000,2621A,99.7056,27.8317,迪庆藏族自治州,迪庆州站,,27,22,16,11,7,84,,92,88,13,9,8,8,0.4,0.4
2024-05-23T1000,3180A,99.7136,27.8094,迪庆藏族自治州,质量技术监督局,,25,23,20,12,6,78,,82,80,16,11,7,7,0.5,0.4
2024-05-23T1000,2663A,104.6241,35.5734,定西市,东关小学,,42,42,54,19,22,107,,80,80,11,14,5,5,0.3,0.3
2024-05-23T1000,2664A,104.6194,35.5934,定西市,供电公司,,,37,45,28,24,,,80,79,8,11,6,6,,0.3
2024-05-23T1000,1389A,113.7547,23.0494,东莞市,莞城梨川,,22,17,49,15,36,53,,22,22,37,36,8,8,0.9,0.9
2024-05-23T1000,1390A,113.7944,23.0128,东莞市,东城石井,,,37,52,22,34,43,,13,13,,27,7,7,0.8,0.8
2024-05-23T1000,1391A,113.7383,22.9658,东莞市,南城西平,,18,18,42,11,27,48,,18,18,33,35,7,8,0.8,0.8
2024-05-23T1000,3319A,113.7338,23.0381,东莞市,万江金泰,,19,19,49,13,34,59,,20,16,30,34,9,9,0.7,0.8
2024-05-23T1000,3626A,113.7533,23.0202,东莞市,南城元岭,,20,17,46,14,40,59,,16,16,30,39,7,7,0.7,0.8
2024-05-23T1000,3627A,113.7875,23.0457,东莞市,东城主山,,,26,60,16,33,,,15,10,32,32,,8,1.0,1
2024-05-23T1000,1666A,118.6614,37.4309,东营市,市环保局,颗粒物(PM10),60,70,64,34,38,144,,74,74,18,20,15,12,0.3,0.3
2024-05-23T1000,3036A,118.6904,37.4338,东营市,开发区管委会,颗粒物(PM10),65,79,72,34,38,143,,77,77,22,22,13,11,0.6,0.6
2024-05-23T1000,3365A,118.5719,37.565,东营市,垦利区民丰路,颗粒物(PM10),67,83,76,34,38,147,,77,77,21,21,13,12,0.8,0.9
2024-05-23T1000,3498A,118.5055,37.8612,东营市,河口城区,臭氧1小时,59,66,71,34,38,167,,84,84,14,19,9,9,0.6,0.7
2024-05-23T1000,3646A,118.4978,37.4623,东营市,胜利站,颗粒物(PM10),61,72,68,34,38,167,,84,84,29,25,10,10,1.0,1
2024-05-23T1000,3734A,118.35,37.26,东营市,理想之城,,,,71,,37,126,,52,52,,24,18,13,0.6,0.6
2024-05-23T1000,1591A,110.0023,39.8129,鄂尔多斯市,综合楼,颗粒物(PM10),59,68,89,24,33,160,,128,128,17,22,6,9,0.5,0.5
2024-05-23T1000,1592A,109.9486,39.8261,鄂尔多斯市,巴音孟克林场办事处,颗粒物(PM10),64,78,75,24,27,147,,127,127,14,15,9,9,0.5,0.5
2024-05-23T1000,1593A,109.7736,39.5986,鄂尔多斯市,康泽苑,,,46,64,27,32,,,133,133,13,16,8,8,0.3,0.3
2024-05-23T1000,1594A,109.8119,39.5989,鄂尔多斯市,华泰汽车城,颗粒物(PM10),53,56,56,24,25,144,,123,123,14,15,6,8,0.5,0.4
2024-05-23T1000,1595A,109.9734,39.7884,鄂尔多斯市,奥林花园,颗粒物(PM10),52,53,80,24,33,145,,97,97,14,24,6,8,0.5,0.5
2024-05-23T1000,2436A,114.8938,30.3994,鄂州市,市政府,,33,33,31,11,14,78,,36,36,7,17,9,10,0.7,0.7
2024-05-23T1000,2437A,114.8989,30.3714,鄂州市,赵家坝,,34,34,30,6,14,75,,31,31,3,9,8,9,0.7,0.7
2024-05-23T1000,3654A,114.8094,30.4089,鄂州市,精准医疗中心,,38,38,44,7,14,80,,37,37,4,19,7,8,0.4,0.5
2024-05-23T1000,2454A,109.4978,30.2981,恩施土家族苗族自治州,湖北民院,,22,22,28,15,18,26,,25,22,15,10,8,8,0.7,0.6
2024-05-23T1000,2455A,109.4707,30.2798,恩施土家族苗族自治州,州电力总公司,,,,23,,17,32,,21,19,15,16,8,9,0.6,0.6
2024-05-23T1000,3549A,109.5061,30.3772,恩施土家族苗族自治州,龙凤新区,,29,27,26,20,18,35,,10,10,12,13,7,6,0.6,0.6
2024-05-23T1000,2499A,108.3411,21.6158,防城港市,沙万,,,54,30,30,17,,,43,40,12,11,6,7,0.8,0.8
2024-05-23T1000,2500A,108.3514,21.7731,防城港市,防城档案局,颗粒物(PM10),52,54,54,33,22,64,,22,22,12,17,5,4,0.8,0.7
2024-05-23T1000,2501A,108.3506,21.6414,防城港市,大海花园,,46,46,27,28,14,72,,45,45,11,11,6,6,0.7,0.7
2024-05-23T1000,1371A,113.1294,23.0067,佛山市,湾梁,颗粒物(PM10),76,102,65,45,26,72,,71,71,44,28,12,6,0.9,0.8
2024-05-23T1000,1372A,113.1083,23.0478,佛山市,华材职中,颗粒物(PM10),73,95,58,49,32,61,,62,60,62,33,10,7,0.7,0.6
2024-05-23T1000,1373A,113.144,23.0453,佛山市,南海气象局,细颗粒物(PM2.5),74,93,62,54,32,78,,65,65,39,28,8,5,0.8,0.7
2024-05-23T1000,1374A,113.2881,22.8094,佛山市,顺德苏岗,细颗粒物(PM2.5),77,63,39,56,35,100,,75,75,28,27,7,6,0.9,0.8
2024-05-23T1000,1376A,112.8383,22.8678,佛山市,高明孔堂,细颗粒物(PM2.5),74,85,44,54,27,65,,49,49,43,18,19,8,0.8,0.7
2024-05-23T1000,1377A,112.8836,23.1588,佛山市,三水监测站,颗粒物(PM10),51,51,37,29,25,41,,14,14,32,47,10,10,0.8,0.8
2024-05-23T1000,1378A,112.867,23.185,佛山市,三水云东海,,,,30,,22,40,,11,11,,30,,5,0.7,0.7
2024-05-23T1000,3625A,113.2544,22.7642,佛山市,容桂街道办,细颗粒物(PM2.5),67,68,47,48,31,100,,73,72,31,33,7,6,0.7,0.7
2024-05-23T1000,1280A,119.3903,26.0543,福州市,鼓山,,,,,,,,,,,,,,,,
2024-05-23T1000,1282A,119.2681,26.0504,福州市,师大,,,19,15,10,15,,,48,43,,11,3,3,0.6,0.6
2024-05-23T1000,1283A,119.2984,26.1028,福州市,五四北路,,19,19,13,12,16,54,,60,54,14,14,3,3,0.6,0.5
2024-05-23T1000,1284A,119.2648,26.0768,福州市,杨桥西路,,19,11,16,11,15,60,,55,50,12,15,3,3,0.6,0.5
2024-05-23T1000,1285A,119.317,26.0746,福州市,紫阳,,26,,17,18,18,34,,56,47,17,16,2,2,0.6,0.5
2024-05-23T1000,3048A,119.5799,26.0936,福州市,九龙,,22,13,16,10,14,68,,47,47,5,6,4,4,0.3,0.3
2024-05-23T1000,3526A,119.5189,25.9664,福州市,吴航,,38,34,23,26,19,43,,47,44,19,9,4,4,0.7,0.6
2024-05-23T1000,1755A,123.7977,41.8491,抚顺市,望花区,,24,10,40,6,25,76,,69,66,9,20,1,6,0.2,0.5
2024-05-23T1000,1756A,123.9161,41.8822,抚顺市,顺城区,,24,24,40,3,18,66,,73,66,14,15,7,8,0.4,0.5
2024-05-23T1000,1757A,124.0436,41.8611,抚顺市,东洲区,,29,29,27,8,20,63,,77,69,11,9,6,6,0.4,0.5
2024-05-23T1000,1758A,123.9247,41.8642,抚顺市,新抚区,,20,16,35,8,16,63,,69,62,17,15,6,7,0.4,0.4
2024-05-23T1000,1759A,124.0972,41.8961,抚顺市,大伙房水库,,22,18,30,6,19,68,,74,66,8,7,6,6,0.3,0.5
2024-05-23T1000,1760A,123.7086,41.8391,抚顺市,沈抚新城,,24,22,38,3,21,75,,78,72,8,13,4,6,0.4,0.6
2024-05-23T1000,2376A,116.2127,28.0814,抚州市,桐源党溪,,42,42,37,23,22,63,,19,19,6,11,11,6,0.4,0.5
2024-05-23T1000,2377A,116.3544,27.9831,抚州市,市站,,32,32,35,18,20,43,,31,31,9,12,4,4,1.0,1
2024-05-23T1000,2378A,116.3565,27.963,抚州市,血防站,,40,40,29,22,19,37,,25,25,11,13,4,3,1.0,1.1
2024-05-23T1000,2379A,116.3564,28.0007,抚州市,采茶剧团,,,28,32,11,21,,,36,35,8,11,4,3,0.9,0.9
2024-05-23T1000,2380A,116.385,27.9647,抚州市,医学分院,,32,32,37,19,17,48,,30,30,10,13,5,4,0.9,1
2024-05-23T1000,2207A,121.6094,41.998,阜新市,工业园区,,42,42,48,3,26,80,,94,84,11,14,6,7,0.4,0.6
2024-05-23T1000,2208A,121.6697,42.0279,阜新市,长青街,,29,29,48,3,26,78,,93,82,14,15,7,10,0.3,0.6
2024-05-23T1000,2209A,121.6673,42.0705,阜新市,农业园区,,24,19,85,7,35,76,,87,77,9,15,6,7,0.4,0.7
2024-05-23T1000,2210A,121.6717,42.0224,阜新市,东苑,,26,26,45,3,29,68,,94,82,22,19,10,11,0.3,0.7
2024-05-23T1000,2211A,121.6506,42.0498,阜新市,玉龙新城,,29,29,58,3,25,74,,79,70,13,15,6,8,0.4,0.7
2024-05-23T1000,2301A,115.8277,32.8929,阜阳市,市监测站,颗粒物(PM10),59,68,48,35,28,140,,93,93,14,15,10,8,0.6,0.4
2024-05-23T1000,2303A,115.8554,32.8605,阜阳市,开发区,,,,48,,23,135,,95,95,,14,,7,0.4,0.3
2024-05-23T1000,2875A,115.784,32.8892,阜阳市,阜阳职业技术学院,,46,46,48,20,22,144,,116,116,12,12,9,7,0.6,0.4
2024-05-23T1000,3468A,115.7901,32.8613,阜阳市,市规划展馆,,,79,52,23,23,,,93,91,,14,8,6,0.6,0.4
2024-05-23T1000,3469A,115.836,32.9183,阜阳市,枣园社区,颗粒物(PM10),56,61,45,19,21,138,,98,98,14,15,8,7,0.5,0.4
2024-05-23T1000,2669A,102.9099,34.9841,甘南藏族自治州,州政府,,,63,56,28,23,106,,38,38,15,28,8,8,,0.5
2024-05-23T1000,3380A,102.8914,34.9617,甘南藏族自治州,甘肃民族师范学院,,44,44,63,22,22,108,,38,38,13,34,8,8,0.5,0.4
2024-05-23T1000,2570A,101.9603,30.0475,甘孜藏族自治州,水桥子,,30,30,26,14,13,44,,23,23,21,18,3,3,0.3,0.3
2024-05-23T1000,3065A,101.9533,29.9972,甘孜藏族自治州,州环保局,,24,23,29,3,8,74,,44,44,20,23,2,2,0.2,0.2
2024-05-23T1000,3414A,115.8347,28.932,赣江新区,桑海产业园,,25,19,40,11,11,78,,22,22,12,26,9,8,0.5,0.5
2024-05-23T1000,2362A,114.9017,25.9149,赣州市,通天岩,,,,,,,,,,,,,,,,
2024-05-23T1000,2363A,114.9367,25.8664,赣州市,地委,,21,21,15,11,9,38,,30,30,8,6,15,15,0.7,0.6
2024-05-23T1000,2364A,114.9461,25.8481,赣州市,气象台,,18,15,19,12,10,38,,25,25,12,11,6,7,0.8,0.7
2024-05-23T1000,2365A,114.9322,25.8333,赣州市,市图书馆,,22,22,14,15,7,43,,31,31,9,8,5,7,0.9,0.9
2024-05-23T1000,2366A,114.8905,25.8471,赣州市,华坚鞋城,,23,23,23,12,10,42,,22,22,11,13,3,4,0.3,0.3
2024-05-23T1000,3109A,115.0093,25.8613,赣州市,赣县区卫计委,,27,27,15,14,8,37,,22,22,13,13,5,5,0.6,0.6
2024-05-23T1000,2683A,106.2319,36.1417,固原市,马园,颗粒物(PM10),53,55,47,17,21,137,,88,88,5,27,4,5,0.3,0.3
2024-05-23T1000,2684A,106.2792,36.0022,固原市,监测站,,41,41,35,18,19,124,,87,87,21,16,5,4,0.4,0.4
2024-05-23T1000,2685A,106.2375,36.0211,固原市,新区,,42,30,36,12,20,132,,102,101,11,13,3,4,0.3,0.4
2024-05-23T1000,3522A,106.2177,35.9959,固原市,原州区十五小,,42,32,39,19,20,134,,126,126,9,9,4,4,0.5,0.5
2024-05-23T1000,2543A,106.6308,30.5278,广安市,小平旧居,,,,,,,,,,,,,,,,
2024-05-23T1000,2544A,106.6303,30.4576,广安市,市委,,38,38,38,9,21,99,,47,47,14,24,12,9,0.6,0.6
2024-05-23T1000,2545A,106.6271,30.4663,广安市,友谊中学,,30,,24,18,19,93,,50,50,19,22,9,6,0.6,0.6
2024-05-23T1000,2547A,106.6388,30.4551,广安市,广电花园,细颗粒物(PM2.5),52,40,33,36,27,90,,45,45,17,19,11,8,0.7,0.7
2024-05-23T1000,2902A,106.6351,30.4865,广安市,北辰小学,,41,41,36,16,20,104,,47,47,10,16,12,9,0.5,0.5
2024-05-23T1000,2523A,105.8945,32.4535,广元市,黑石坡,,26,19,23,9,11,81,,82,75,13,9,10,8,0.4,0.4
2024-05-23T1000,2524A,105.821,32.4444,广元市,老城,,42,42,34,17,19,69,,38,38,26,30,3,2,0.7,0.6
2024-05-23T1000,2526A,105.8628,32.4287,广元市,监测站,,33,32,35,23,26,73,,64,60,22,10,9,6,0.6,0.4
2024-05-23T1000,3617A,105.8047,32.4166,广元市,经开区,,,75,48,47,32,,,67,59,,14,,5,1.0,0.5
2024-05-23T1000,1345A,113.2347,23.1423,广州市,广雅中学,颗粒物(PM10),52,53,50,33,32,21,,49,49,68,45,6,5,1.0,0.8
2024-05-23T1000,1346A,113.2612,23.105,广州市,市五中,细颗粒物(PM2.5),70,71,53,51,37,99,,65,65,29,32,6,5,0.8,0.7
2024-05-23T1000,1348A,113.3478,23.0916,广州市,广东商学院,细颗粒物(PM2.5),52,45,46,36,28,83,,27,27,37,46,5,4,0.8,0.8
2024-05-23T1000,1349A,113.4332,23.1047,广州市,市八十六中,,45,45,42,29,24,64,,20,20,52,56,5,4,0.8,0.7
2024-05-23T1000,1350A,113.3505,22.9483,广州市,番禺中学,,37,37,37,24,25,102,,54,54,33,32,6,5,0.7,0.6
2024-05-23T1000,1351A,113.2146,23.3916,广州市,花都师范,,27,27,29,13,14,22,,15,14,34,34,6,6,0.6,0.6
2024-05-23T1000,1352A,113.2597,23.1331,广州市,市监测站,,,56,53,37,30,,,50,50,,39,,5,,0.7
2024-05-23T1000,1353A,113.5618,23.312,广州市,九龙镇镇龙,,23,9,19,3,12,72,,27,27,11,19,6,6,0.5,0.5
2024-05-23T1000,1354A,113.2765,23.1544,广州市,麓湖,,40,40,41,27,29,29,,18,18,41,41,6,5,0.8,0.8
2024-05-23T1000,1355A,113.443,23.3035,广州市,帽峰山森林公园,,26,,14,3,10,82,,26,26,11,17,5,5,0.6,0.6
2024-05-23T1000,2846A,113.3221,23.1322,广州市,体育西,细颗粒物(PM2.5),62,58,47,44,50,84,,52,52,33,34,4,3,0.8,0.7
2024-05-23T1000,3298A,113.5717,23.5491,广州市,从化街口,,17,8,16,3,9,54,,39,39,13,16,6,6,0.7,0.7
2024-05-23T1000,3299A,113.3472,23.3692,广州市,白云竹料,,,12,28,8,16,,,11,11,,31,4,4,0.2,0.7
2024-05-23T1000,3300A,113.2981,23.237,广州市,白云嘉禾,,,11,47,6,26,,,20,16,50,47,5,5,1.0,0.9
2024-05-23T1000,3301A,113.4256,23.1716,广州市,黄埔科学城,细颗粒物(PM2.5),62,49,36,44,28,75,,28,28,34,32,4,4,0.9,0.8
2024-05-23T1000,3302A,113.3942,23.0483,广州市,番禺大学城,颗粒物(PM10),51,52,41,23,26,77,,39,39,37,36,3,3,1.0,0.8
2024-05-23T1000,3303A,113.4922,22.8168,广州市,南沙黄阁,,,,35,,27,,,33,29,27,33,6,7,0.8,0.8
2024-05-23T1000,3304A,113.5342,22.7896,广州市,南沙街,,20,20,36,12,27,56,,27,27,21,29,5,5,0.7,0.8
2024-05-23T1000,3443A,113.2902,23.5544,广州市,花都梯面,,13,13,16,9,9,39,,18,18,6,15,5,5,0.6,0.6
2024-05-23T1000,3445A,113.7858,23.7478,广州市,从化良口,,,11,14,3,4,,,12,12,6,7,5,5,0.7,0.7
2024-05-23T1000,3446A,113.8051,23.2614,广州市,增城荔城,,20,6,20,3,14,63,,38,38,8,11,4,4,0.5,0.4
2024-05-23T1000,2505A,109.568,23.1478,贵港市,德智高中,,,,,,,,,,,,,,,,
2024-05-23T1000,2506A,109.6047,23.0666,贵港市,江南子站,"颗粒物(PM10),细颗粒物(PM2.5)",54,58,51,38,35,37,,14,14,27,24,8,7,0.7,0.8
2024-05-23T1000,2507A,109.6014,23.0948,贵港市,贵城子站,,,50,39,25,25,71,,32,32,12,17,,7,0.6,0.6
2024-05-23T1000,2508A,109.5669,23.1065,贵港市,荷城子站,,,,30,29,14,65,,44,44,,11,9,8,,0.4
2024-05-23T1000,3405A,109.5886,23.1172,贵港市,新世纪学校,,39,39,28,17,16,71,,46,46,9,10,11,10,0.7,0.7
2024-05-23T1000,1439A,106.6899,26.5998,贵阳市,马鞍山,,31,31,27,17,18,53,,19,19,27,14,8,8,0.6,0.5
2024-05-23T1000,1440A,106.6971,26.5694,贵阳市,市环保站,,32,31,34,22,27,67,,44,40,24,19,6,4,0.4,0.4
2024-05-23T1000,1441A,106.6243,26.6266,贵阳市,鉴湖路,,24,24,31,14,18,72,,51,51,10,15,7,4,0.5,0.5
2024-05-23T1000,1442A,106.7487,26.6343,贵阳市,燕子冲,,,36,28,24,23,,,35,26,21,11,7,8,0.7,0.5
2024-05-23T1000,1443A,106.6555,26.4365,贵阳市,碧云窝,,39,39,30,14,12,69,,34,34,12,12,9,4,0.8,0.5
2024-05-23T1000,1444A,106.694,26.5161,贵阳市,中院村,,41,41,36,24,19,61,,26,26,16,21,8,7,0.8,0.6
2024-05-23T1000,1445A,106.7109,26.6027,贵阳市,红边门,,,,34,,26,,,35,30,,19,,4,,0.6
2024-05-23T1000,1446A,106.7164,26.5699,贵阳市,新华路,,,29,35,19,23,,,39,35,17,16,12,4,0.6,0.6
2024-05-23T1000,1447A,106.674,26.5424,贵阳市,太慈桥,,24,24,27,12,17,62,,22,22,16,20,9,5,0.5,0.5
2024-05-23T1000,1552A,106.805,26.3003,贵阳市,桐木岭,,,,,,,,,,,,,,,,
2024-05-23T1000,1862A,110.4144,25.3167,桂林市,电子科大尧山校区,,39,28,37,27,29,84,,42,42,4,6,5,5,0.7,0.7
2024-05-23T1000,1863A,110.2819,25.2697,桂林市,监测站,细颗粒物(PM2.5),72,67,49,52,42,72,,52,48,13,13,16,11,0.8,0.8
2024-05-23T1000,1864A,110.3089,25.2708,桂林市,龙隐路小学,细颗粒物(PM2.5),63,63,47,45,33,72,,49,49,10,9,25,26,0.8,0.8
2024-05-23T1000,1865A,110.2869,25.2178,桂林市,八中,颗粒物(PM10),56,61,46,38,31,73,,48,47,13,13,13,13,0.8,0.8
2024-05-23T1000,3403A,110.1764,25.2381,桂林市,创业大厦,细颗粒物(PM2.5),62,63,45,44,35,63,,37,35,16,15,18,24,0.9,0.8
2024-05-23T1000,3531A,110.296,25.1253,桂林市,旅游学院,细颗粒物(PM2.5),52,36,32,36,28,68,,23,23,9,13,12,8,0.7,0.7
2024-05-23T1000,2674A,100.2561,34.4714,果洛藏族自治州,玛沁县大武镇,,36,36,24,19,11,88,,59,59,20,18,14,11,0.5,0.4
2024-05-23T1000,1129A,126.5422,45.755,哈尔滨市,岭北,,25,7,25,3,13,78,,70,70,6,15,11,14,0.5,0.6
2024-05-23T1000,1130A,126.561,45.8167,哈尔滨市,松北商大,,27,27,38,6,15,73,,67,67,6,15,4,5,0.3,0.4
2024-05-23T1000,1131A,126.979,45.5419,哈尔滨市,阿城会宁,,36,36,47,8,19,69,,63,63,8,16,14,16,1.6,0.8
2024-05-23T1000,1132A,126.599,45.7222,哈尔滨市,南岗学府路,,,17,40,,14,76,,70,69,6,13,5,6,0.4,0.5
2024-05-23T1000,1133A,126.689,45.7733,哈尔滨市,太平宏伟公园,,,28,45,9,24,76,,70,70,,13,4,5,0.3,0.4
2024-05-23T1000,1134A,126.635,45.7667,哈尔滨市,道外承德广场,颗粒物(PM10),53,56,41,14,27,75,,70,69,9,16,8,9,0.3,0.3
2024-05-23T1000,1135A,126.685,45.7319,哈尔滨市,香坊红旗大街,,34,34,37,7,15,75,,70,70,7,12,5,6,0.3,0.4
2024-05-23T1000,1136A,126.6411,45.7258,哈尔滨市,动力和平路,,23,6,32,3,26,72,,69,68,10,15,5,5,0.3,0.4
2024-05-23T1000,1137A,126.593,45.7478,哈尔滨市,道里建国路,,37,37,39,3,15,73,,68,67,8,16,8,9,0.1,0.2
2024-05-23T1000,1138A,126.615,45.61,哈尔滨市,平房东轻厂,细颗粒物(PM2.5),64,,62,46,43,68,,68,68,11,20,6,8,0.1,0.4
2024-05-23T1000,1139A,126.595,45.9855,哈尔滨市,呼兰师专,,22,19,43,3,14,70,,65,65,6,14,4,5,0.2,0.3
2024-05-23T1000,1140A,126.6206,45.6842,哈尔滨市,省农科院,,24,,42,16,29,76,,71,71,5,11,8,8,0.3,0.4
2024-05-23T1000,2688A,93.5128,42.8172,哈密市,地区监测站,,46,46,93,21,33,89,,93,93,13,12,3,8,0.2,0.3
2024-05-23T1000,2689A,93.4961,42.8328,哈密市,哈密师范学校,,42,42,88,12,29,84,,90,89,14,11,5,4,0.4,0.4
2024-05-23T1000,2671A,100.9048,36.9639,海北藏族自治州,海晏县西海镇,颗粒物(PM10),66,82,43,24,19,108,,75,75,15,10,15,12,0.5,0.4
2024-05-23T1000,3867A,102.0738,36.5056,海东市,平安区公安北苑,细颗粒物(PM2.5),79,80,58,58,33,69,,86,74,31,14,25,10,1.6,0.4
2024-05-23T1000,1409A,110.576,19.9507,海口市,东寨港,,,,,,,,,,,,,,,,
2024-05-23T1000,1410A,110.3232,20.0574,海口市,海南大学,,20,10,12,6,7,61,,70,67,9,8,4,4,0.5,0.5
2024-05-23T1000,1411A,110.283,20.0053,海口市,秀英海南医院,,17,14,13,6,9,53,,66,62,10,10,5,5,0.3,0.4
2024-05-23T1000,1412A,110.338,19.9969,海口市,海南师范大学,,19,19,11,3,7,58,,64,61,3,6,6,6,0.4,0.5
2024-05-23T1000,1413A,110.33,20.0356,海口市,龙华路环保局宿舍,,19,14,12,6,7,58,,67,64,10,12,6,6,0.3,0.4
2024-05-23T1000,3539A,110.5111,19.9736,海口市,桂林洋子站,,19,11,13,3,5,58,,51,51,4,5,5,5,0.4,0.4
2024-05-23T1000,2673A,100.6188,36.2866,海南藏族自治州,共和县恰卜恰镇,细颗粒物(PM2.5),59,47,44,42,17,119,,103,95,14,16,13,11,0.5,0.5
2024-05-23T1000,2676A,97.3731,37.3753,海西蒙古族藏族自治州,德令哈市,颗粒物(PM10),135,219,62,66,19,103,,115,108,13,10,8,7,0.6,0.5
2024-05-23T1000,1048A,114.5302,36.6116,邯郸市,东污水处理厂,细颗粒物(PM2.5),64,72,59,46,37,136,,84,84,15,12,12,9,0.7,0.4
2024-05-23T1000,1049A,114.4918,36.5713,邯郸市,矿院,颗粒物(PM10),70,90,70,39,30,125,,80,80,22,13,12,8,0.8,0.5
2024-05-23T1000,1050A,114.484,36.6133,邯郸市,丛台公园,颗粒物(PM10),54,57,59,34,30,137,,90,90,18,10,15,9,0.8,0.5
2024-05-23T1000,3458A,114.7895,36.5593,邯郸市,香泉濮院小区,颗粒物(PM10),71,91,66,37,26,149,,108,108,8,5,10,7,0.5,0.3
2024-05-23T1000,3579A,114.50634,36.77178,邯郸市,永年区实验高中,,,,68,,23,,,151,,,9,,7,,0.3
2024-05-23T1000,3580A,114.20016,36.44293,邯郸市,峰峰矿区临水派出所,,,,77,,27,165,,131,131,6,8,,12,0.9,0.9
2024-05-23T1000,2634A,106.9893,33.1842,汉中市,汉川机床厂子校,,35,30,32,19,21,110,,68,68,5,9,6,5,0.7,0.7
2024-05-23T1000,2635A,107.0154,33.0706,汉中市,市监测站,颗粒物(PM10),85,120,52,41,31,104,,58,58,15,14,10,9,0.7,0.6
2024-05-23T1000,2636A,107.0089,33.1138,汉中市,鑫源开发区,,,56,39,24,26,,,74,73,,11,14,10,0.5,0.5
2024-05-23T1000,2637A,107.007,33.0323,汉中市,南郑大河坎水厂,颗粒物(PM10),61,71,49,35,30,105,,54,54,12,11,13,9,0.8,0.6
2024-05-23T1000,1223A,120.2072,30.2111,杭州市,滨江,,,74,54,41,30,,,49,47,24,18,7,7,0.7,0.5
2024-05-23T1000,1224A,120.0633,30.2747,杭州市,西溪,细颗粒物(PM2.5),88,101,44,65,30,122,,45,45,17,19,7,8,0.6,0.5
2024-05-23T1000,1226A,120.3461,30.3153,杭州市,下沙,细颗粒物(PM2.5),60,64,46,43,25,117,,73,73,20,19,9,9,0.5,0.4
2024-05-23T1000,1227A,120.1269,30.2456,杭州市,卧龙桥,,,75,43,62,33,,,33,33,20,17,,6,0.6,0.5
2024-05-23T1000,1228A,120.1903,30.2692,杭州市,浙江农大,细颗粒物(PM2.5),60,60,51,43,34,108,,56,56,24,22,9,9,0.4,0.3
2024-05-23T1000,1230A,120.1197,30.3119,杭州市,和睦小学,细颗粒物(PM2.5),59,53,40,42,25,119,,65,65,25,21,6,6,0.6,0.5
2024-05-23T1000,1231A,120.3019,30.4183,杭州市,临平镇,颗粒物(PM10),56,61,48,33,30,102,,71,71,16,16,6,7,0.5,0.4
2024-05-23T1000,1232A,120.2697,30.1819,杭州市,城厢镇,细颗粒物(PM2.5),75,80,56,55,38,122,,57,57,29,25,9,8,0.7,0.6
2024-05-23T1000,1233A,120.0883,30.1808,杭州市,云栖,,,65,46,52,27,,,25,25,23,28,10,9,0.6,0.5
2024-05-23T1000,3557A,119.9464,30.0494,杭州市,镇二中,细颗粒物(PM2.5),70,59,48,51,34,144,,44,44,17,31,11,11,0.7,0.7
2024-05-23T1000,3558A,119.7183,30.2367,杭州市,市府大楼,细颗粒物(PM2.5),60,55,37,43,30,115,,62,62,23,23,8,8,0.6,0.5
2024-05-23T1000,3656A,120.1556,30.2864,杭州市,消防大队,细颗粒物(PM2.5),67,77,53,48,32,111,,60,60,23,20,9,9,0.8,0.6
2024-05-23T1000,1270A,117.1959,31.7848,合肥市,明珠广场,颗粒物(PM10),60,70,55,41,33,150,,89,89,26,30,14,12,0.7,0.6
2024-05-23T1000,1271A,117.3072,31.8764,合肥市,三里街,颗粒物(PM10),70,90,55,41,29,134,,86,86,42,30,13,11,0.6,0.5
2024-05-23T1000,1272A,117.2588,31.8707,合肥市,琥珀山庄,颗粒物(PM10),60,70,53,29,26,155,,105,105,26,22,15,14,0.6,0.4
2024-05-23T1000,1273A,117.1604,31.9052,合肥市,董铺水库,颗粒物(PM10),63,75,51,34,27,168,,91,91,21,20,5,4,0.5,0.3
2024-05-23T1000,1274A,117.25,31.8571,合肥市,长江中路,颗粒物(PM10),62,73,62,43,36,147,,103,103,21,22,11,10,0.7,0.6
2024-05-23T1000,1275A,117.266,31.9436,合肥市,庐阳区,颗粒物(PM10),62,73,58,39,32,156,,71,71,31,39,15,11,0.5,0.4
2024-05-23T1000,1276A,117.336,31.8586,合肥市,瑶海区,颗粒物(PM10),69,88,59,39,30,140,,83,83,35,32,14,12,0.6,0.5
2024-05-23T1000,1277A,117.3027,31.7964,合肥市,包河区,,,,53,,29,,,52,52,20,41,14,12,0.5,0.3
2024-05-23T1000,1278A,117.2776,31.7385,合肥市,滨湖新区,细颗粒物(PM2.5),64,66,47,46,34,152,,98,98,18,18,11,9,0.6,0.4
2024-05-23T1000,1279A,117.1318,31.8403,合肥市,高新区,,,63,50,34,30,,,86,86,,23,,11,,0.6
2024-05-23T1000,3464A,117.3803,31.9147,合肥市,高教基地,颗粒物(PM10),70,89,50,44,20,167,,89,89,29,20,12,8,0.5,0.2
2024-05-23T1000,3614A,79.924,37.0877,和田地区,地区环保局,颗粒物(PM10),304,423,275,107,75,64,,103,93,10,7,10,7,0.5,0.5
2024-05-23T1000,3615A,79.9131,37.113,和田地区,市环保局,颗粒物(PM10),249,384,263,78,64,55,,87,76,20,16,8,6,0.6,0.7
2024-05-23T1000,2516A,108.2011,24.715,河池市,东仁乐园,颗粒物(PM10),58,65,39,15,13,6,,5,5,17,9,3,3,0.8,0.8
2024-05-23T1000,2517A,108.0497,24.6947,河池市,市环保站,,38,38,25,19,13,56,,19,19,9,13,10,8,0.5,0.6
2024-05-23T1000,2518A,108.0983,24.6989,河池市,市疾控中心,,47,47,30,22,18,53,,15,15,12,18,11,8,0.6,0.5
2024-05-23T1000,1696A,114.6778,23.7569,河源市,源西,,,,,,,,,,,,,,,,
2024-05-23T1000,1697A,114.6944,23.7586,河源市,东埔,,36,36,23,10,8,2,,22,15,25,15,6,6,0.9,0.7
2024-05-23T1000,1698A,114.6892,23.7233,河源市,老城,,18,16,14,12,8,7,,8,6,17,12,5,5,0.7,0.6
2024-05-23T1000,1718A,115.4208,35.2464,菏泽市,气象局,颗粒物(PM10),65,80,67,24,27,139,,95,95,12,18,7,5,0.4,0.4
2024-05-23T1000,1719A,115.4747,35.2375,菏泽市,市政协,颗粒物(PM10),61,72,56,31,27,134,,99,99,8,12,8,4,0.2,0.2
2024-05-23T1000,3374A,115.5564,35.0891,菏泽市,定陶老年大学,颗粒物(PM10),53,56,48,24,22,128,,84,84,11,13,8,5,0.7,0.6
2024-05-23T1000,3647A,115.4702,35.2706,菏泽市,菏泽医专,,,,56,,20,,,104,99,,11,5,4,,0.2
2024-05-23T1000,2514A,111.5264,24.4172,贺州市,环保小区,,34,34,38,19,23,41,,36,33,13,12,7,7,0.7,0.7
2024-05-23T1000,2515A,111.5608,24.4078,贺州市,政协大楼,,42,42,42,26,25,43,,37,35,18,13,7,7,0.6,0.6
2024-05-23T1000,3534A,111.4744,24.4553,贺州市,西湾,,49,42,33,34,24,43,,24,24,11,14,6,7,0.6,0.6
2024-05-23T1000,2385A,114.17,35.9019,鹤壁市,市监测站,"颗粒物(PM10),细颗粒物(PM2.5)",62,73,60,44,40,160,,95,93,12,10,15,10,0.8,0.7
2024-05-23T1000,2386A,114.2956,35.7511,鹤壁市,市交警支队,颗粒物(PM10),74,98,68,44,33,158,,93,93,27,20,16,10,0.7,0.5
2024-05-23T1000,2387A,114.2878,35.7306,鹤壁市,迎宾馆,颗粒物(PM10),79,107,72,53,42,158,,91,91,23,18,17,13,0.6,0.5
2024-05-23T1000,3474A,114.2617,35.6822,鹤壁市,大新区,颗粒物(PM10),78,106,72,49,34,147,,72,72,31,28,16,11,0.7,0.5
2024-05-23T1000,3596A,114.1572,35.9603,鹤壁市,南山宾馆,,,83,71,44,39,,,115,104,24,15,,13,0.8,0.5
2024-05-23T1000,2244A,130.2537,47.3416,鹤岗市,哈啤分公司,,22,13,22,10,12,68,,66,66,2,4,12,12,0.3,0.2
2024-05-23T1000,2245A,130.2684,47.3086,鹤岗市,斯达机电,,22,8,26,3,15,69,,66,66,5,8,10,10,0.3,0.3
2024-05-23T1000,2246A,130.3114,47.3388,鹤岗市,东山纸板厂,,22,8,24,8,14,68,,68,67,7,7,14,15,0.3,0.4
2024-05-23T1000,2247A,130.1097,47.3382,鹤岗市,五号水库,,25,22,23,10,12,78,,74,74,4,5,11,11,0.3,0.3
2024-05-23T1000,2263A,127.4833,50.2524,黑河市,交通局,,23,,12,16,17,48,,63,60,13,6,4,5,0.2,0.2
2024-05-23T1000,2264A,127.5144,50.2341,黑河市,环保局,,23,,14,16,11,50,,65,60,12,5,5,3,0.2,0.2
2024-05-23T1000,2265A,127.5291,50.2472,黑河市,大黑河岛,,22,,13,15,10,60,,72,67,14,6,5,6,0.6,0.4
2024-05-23T1000,1074A,115.6838,37.7541,衡水市,电机北厂,颗粒物(PM10),64,77,66,30,30,145,,115,115,8,8,8,7,0.3,0.3
2024-05-23T1000,1075A,115.6303,37.7316,衡水市,市监测站,,,58,62,34,27,,,111,110,13,12,12,10,0.5,0.5
2024-05-23T1000,3188A,115.6683,37.7217,衡水市,市城管局,颗粒物(PM10),56,61,62,34,31,145,,112,112,13,13,7,6,0.4,0.4
2024-05-23T1000,3459A,115.5989,37.5491,衡水市,地表水厂,颗粒物(PM10),63,75,72,25,26,144,,104,104,10,14,7,6,0.4,0.3
2024-05-23T1000,2456A,112.5003,26.9167,衡阳市,原169医院,颗粒物(PM10),55,59,37,29,22,44,,16,16,12,14,10,6,0.9,0.8
2024-05-23T1000,2457A,112.6194,26.9258,衡阳市,衡阳化工总厂,颗粒物(PM10),61,72,38,34,22,54,,18,18,22,17,9,8,0.8,0.6
2024-05-23T1000,2458A,112.6211,26.8956,衡阳市,珠晖区环保局,,,78,41,33,22,,,15,15,20,18,11,7,1.2,0.8
2024-05-23T1000,2459A,112.6197,26.8733,衡阳市,市委党校,颗粒物(PM10),59,67,42,37,28,59,,24,24,20,20,13,9,1.3,0.9
2024-05-23T1000,2460A,112.6006,26.8919,衡阳市,市监测站,细颗粒物(PM2.5),65,64,36,47,26,53,,24,24,25,17,12,8,1.4,0.7
2024-05-23T1000,2461A,112.5664,26.9056,衡阳市,真空机电公司,,,68,40,29,24,,,21,17,16,15,8,8,1.0,0.8
2024-05-23T1000,3399A,112.6703,26.882,衡阳市,师范学院,细颗粒物(PM2.5),78,71,40,57,30,57,,15,15,17,17,10,9,1.0,0.7
2024-05-23T1000,2608A,103.3772,23.3993,红河哈尼族彝族自治州,污水处理厂,,,30,25,16,22,,,41,38,12,11,11,8,0.5,0.4
2024-05-23T1000,2609A,103.3861,23.35,红河哈尼族彝族自治州,监测站,,28,16,22,11,17,88,,59,59,11,11,5,6,0.4,0.4
2024-05-23T1000,3038A,103.3758,23.368,红河哈尼族彝族自治州,州图书馆,,30,30,25,9,16,75,,55,55,12,9,8,4,0.5,0.4
2024-05-23T1000,1090A,111.6507,40.7517,呼和浩特市,呼市一监,颗粒物(PM10),81,112,92,43,37,100,,88,84,34,21,21,11,0.6,0.5
2024-05-23T1000,1091A,111.6572,40.8033,呼和浩特市,小召,颗粒物(PM10),79,107,94,36,32,88,,94,83,45,30,18,10,0.7,0.5
2024-05-23T1000,1094A,111.7516,40.8369,呼和浩特市,如意水处理厂,颗粒物(PM10),76,102,97,31,28,97,,60,50,35,30,15,9,0.6,0.5
2024-05-23T1000,1095A,111.7276,40.8062,呼和浩特市,二十九中,颗粒物(PM10),79,108,96,41,38,101,,84,73,35,25,13,6,0.7,0.5
2024-05-23T1000,1096A,111.5512,40.7866,呼和浩特市,工大金川校区,颗粒物(PM10),76,101,97,41,35,92,,87,73,41,27,18,10,0.6,0.4
2024-05-23T1000,1097A,111.717,40.7612,呼和浩特市,化肥厂生活区,颗粒物(PM10),85,120,112,43,39,96,,79,72,38,27,20,10,0.5,0.4
2024-05-23T1000,3698A,111.5968,40.8178,呼和浩特市,红旗小学,细颗粒物(PM2.5),82,110,104,60,38,98,,76,65,42,35,14,6,0.6,0.4
2024-05-23T1000,3699A,111.6518,40.8389,呼和浩特市,海东办,颗粒物(PM10),80,110,109,43,38,92,,85,74,39,25,16,9,0.5,0.4
2024-05-23T1000,2192A,119.7594,49.2261,呼伦贝尔市,区环保局,,29,29,33,17,23,73,,58,58,10,10,4,4,0.4,0.3
2024-05-23T1000,3061A,119.7512,49.1577,呼伦贝尔市,国华电力东,,25,17,28,13,15,79,,65,65,5,5,4,4,0.2,0.2
2024-05-23T1000,1250A,120.0751,30.8669,湖州市,城西水厂,,,50,61,,145,102,,65,65,17,23,5,7,0.6,0.6
2024-05-23T1000,2873A,120.0875,30.8955,湖州市,仁皇山新区,细颗粒物(PM2.5),58,50,52,41,35,99,,67,67,23,29,6,8,0.6,0.5
2024-05-23T1000,2907A,120.1844,30.8596,湖州市,吴兴区站,,42,42,47,26,32,103,,69,69,15,20,5,7,0.5,0.5
2024-05-23T1000,3562A,120.4148,30.8538,湖州市,南浔区站,,36,30,53,23,31,115,,70,70,13,22,7,9,0.4,0.4
2024-05-23T1000,1607A,120.9092,40.7136,葫芦岛市,龙港区,颗粒物(PM10),83,116,66,56,43,47,,64,51,24,13,13,8,0.8,0.5
2024-05-23T1000,1608A,120.8392,40.7514,葫芦岛市,化工街,,,,61,24,32,,,72,60,16,19,12,11,1.4,1.3
2024-05-23T1000,1609A,120.8341,40.7073,葫芦岛市,新区,颗粒物(PM10),63,75,46,40,43,68,,75,62,17,12,10,7,1.2,0.7
2024-05-23T1000,1610A,120.8695,40.7677,葫芦岛市,东城区,,42,42,41,27,42,73,,77,65,10,14,8,5,0.9,0.9
2024-05-23T1000,2482A,109.5981,27.5721,怀化市,林科所,,46,42,39,32,25,89,,54,54,19,16,6,5,0.7,0.6
2024-05-23T1000,2483A,109.9453,27.5444,怀化市,河西地税局,,38,36,42,26,27,66,,20,20,7,13,7,5,0.7,0.7
2024-05-23T1000,2484A,109.9781,27.5342,怀化市,市四医院,细颗粒物(PM2.5),58,52,50,41,31,76,,32,32,13,16,7,4,0.5,0.6
2024-05-23T1000,2485A,109.9972,27.5578,怀化市,监测楼,颗粒物(PM10),55,59,44,37,27,68,,29,29,12,10,11,9,0.8,0.7
2024-05-23T1000,2486A,110.0394,27.583,怀化市,市委党校,,46,46,44,27,27,74,,22,22,13,14,6,7,0.9,0.7
2024-05-23T1000,1210A,119.036,33.5981,淮安市,钵池山,细颗粒物(PM2.5),78,75,35,57,28,85,,60,60,25,18,8,8,0.7,0.5
2024-05-23T1000,1211A,119.007,33.575,淮安市,北京南路,细颗粒物(PM2.5),79,68,36,58,29,85,,62,62,14,13,9,9,0.6,0.4
2024-05-23T1000,1212A,118.989,33.6067,淮安市,市监测站,细颗粒物(PM2.5),70,73,35,51,23,88,,62,62,20,15,9,7,0.7,0.6
2024-05-23T1000,1213A,119.135,33.5039,淮安市,楚州区监测站,,,90,41,54,25,78,,48,48,,20,12,8,,0.6
2024-05-23T1000,1214A,119.0186,33.6297,淮安市,淮阴区监测站,细颗粒物(PM2.5),74,85,38,54,25,86,,61,61,25,18,7,7,0.5,0.4
2024-05-23T1000,3426A,118.8755,33.2894,淮安市,新华书店,细颗粒物(PM2.5),58,55,33,41,25,91,,55,55,11,13,7,7,0.6,0.4
2024-05-23T1000,2282A,116.8004,33.975,淮北市,监测站,,,,42,,21,139,,97,97,14,9,15,9,0.6,0.5
2024-05-23T1000,2283A,116.8091,33.9007,淮北市,烈山区政府,颗粒物(PM10),62,73,59,31,21,138,,88,88,16,13,16,9,0.6,0.5
2024-05-23T1000,3330A,116.8873,33.9836,淮北市,杜集区检察院,颗粒物(PM10),53,56,49,31,29,144,,105,105,19,11,17,8,0.6,0.6
2024-05-23T1000,4017A,116.7923,33.9535,淮北市,市博物馆,颗粒物(PM10),56,61,44,26,22,142,,100,100,14,9,14,8,0.6,0.6
2024-05-23T1000,2277A,116.8305,32.7727,淮南市,潘集区政府,,50,48,56,35,31,157,,112,112,14,15,14,12,0.3,0.3
2024-05-23T1000,2278A,117.0067,32.6524,淮南市,师范学院,细颗粒物(PM2.5),58,51,51,41,30,146,,122,122,11,9,14,13,0.3,0.3
2024-05-23T1000,2279A,116.8569,32.5951,淮南市,谢家集区政府,,50,41,52,22,24,159,,106,106,14,24,12,10,0.2,0.2
2024-05-23T1000,2280A,116.8281,32.633,淮南市,八公山区政府,颗粒物(PM10),53,56,51,32,31,129,,97,97,13,13,9,9,0.4,0.4
2024-05-23T1000,2281A,116.6325,32.6201,淮南市,焦岗湖风景区管理处,颗粒物(PM10),57,64,43,23,14,113,,78,78,21,19,17,6,0.3,0.2
2024-05-23T1000,2894A,117.0566,32.6531,淮南市,经济技术开发区消防队,,,53,40,27,25,134,,104,104,,15,10,8,0.3,0.3
2024-05-23T1000,3329A,117.0108,32.5893,淮南市,山南新区,颗粒物(PM10),59,67,55,35,27,162,,123,123,16,12,12,8,0.4,0.3
2024-05-23T1000,2446A,114.9028,30.4742,黄冈市,职工中心,颗粒物(PM10),65,80,31,33,17,66,,42,42,18,10,13,7,0.9,0.3
2024-05-23T1000,2929A,114.8858,30.4519,黄冈市,红卫路,,35,28,31,24,20,71,,42,42,14,14,11,9,0.8,0.6
2024-05-23T1000,3398A,114.9136,30.4445,黄冈市,市林业局,,46,38,28,32,19,70,,37,37,11,9,7,4,0.9,0.6
2024-05-23T1000,2672A,102.0199,35.5102,黄南藏族自治州,同仁县隆务镇,,40,40,44,25,20,127,,114,112,1,3,9,9,0.6,0.5
2024-05-23T1000,2295A,118.2903,29.6963,黄山市,延安路89号,,40,40,37,20,11,99,,43,43,4,6,5,5,0.4,0.4
2024-05-23T1000,2296A,118.327,29.7178,黄山市,黄山东路89号,,30,28,23,8,8,93,,45,45,8,8,6,5,0.3,0.3
2024-05-23T1000,2297A,118.1371,30.2756,黄山市,黄山区政府5号楼,,28,28,25,18,19,74,,27,27,7,7,4,4,0.4,0.4
2024-05-23T1000,2423A,115.0601,30.2313,黄石市,沈家营,,49,49,33,9,13,91,,28,28,11,18,19,21,0.6,0.6
2024-05-23T1000,2424A,115.0817,30.2006,黄石市,陈家湾,,29,28,36,20,17,82,,28,28,14,16,7,6,0.6,0.6
2024-05-23T1000,2426A,114.8988,30.2019,黄石市,铁山,,30,29,33,9,15,96,,45,45,7,12,11,12,0.5,0.4
2024-05-23T1000,2427A,115.0307,30.2092,黄石市,团城山,,,,33,,10,,,28,28,8,12,,10,,0.3
2024-05-23T1000,3149A,115.0235,30.1578,黄石市,笔架山北路,颗粒物(PM10),51,52,36,7,10,92,,43,43,6,10,4,4,0.8,0.6
2024-05-23T1000,1392A,114.4183,23.0528,惠州市,河南岸金山湖子站,,19,19,23,12,14,35,,34,32,8,8,5,5,0.5,0.5
2024-05-23T1000,1393A,114.4053,23.0822,惠州市,下埔横江三路子站,,20,20,26,12,16,39,,40,38,11,10,6,7,0.7,0.6
2024-05-23T1000,1394A,114.4103,23.1142,惠州市,江北云山西路子站,,22,22,25,14,11,38,,38,37,10,9,7,6,0.6,0.6
2024-05-23T1000,1395A,114.4645,22.7833,惠州市,惠阳区承修路船湖子站,,16,7,17,3,10,49,,48,48,12,13,3,3,0.6,0.5
2024-05-23T1000,1396A,114.5317,22.7422,惠州市,大亚湾管委会子站,,15,8,16,3,9,47,,51,50,16,13,4,4,0.8,0.8
2024-05-23T1000,3314A,114.4338,22.8134,惠州市,惠阳秋长,,20,19,27,3,12,64,,48,48,8,13,5,5,0.7,0.7
2024-05-23T1000,3452A,114.6517,22.775,惠州市,大亚湾霞涌,,14,8,13,3,7,44,,42,42,6,8,4,5,0.7,0.5
2024-05-23T1000,2240A,130.9762,45.3001,鸡西市,环保局,,39,39,49,15,21,69,,72,67,5,6,6,7,0.2,0.3
2024-05-23T1000,2243A,130.9429,45.3039,鸡西市,第一中学,,33,33,48,18,21,69,,68,64,5,7,8,9,0.2,0.3
2024-05-23T1000,3707A,131.0207,45.3073,鸡西市,欧美日汽修厂,,29,29,52,13,24,66,,54,53,12,11,6,7,0.3,0.4
2024-05-23T1000,3709A,130.9967,45.3106,鸡西市,市政设施管理处,,,,61,,17,,,51,50,15,14,8,8,,0.5
2024-05-23T1000,2367A,114.9754,27.0803,吉安市,红声器材厂,,31,31,24,18,11,63,,37,37,15,15,10,10,0.5,0.4
2024-05-23T1000,2368A,114.9658,27.0999,吉安市,市森林工业局,,,34,25,23,13,,,41,41,17,15,12,12,,0.5
2024-05-23T1000,2369A,114.99,27.1312,吉安市,市环境监测站,,38,38,25,24,12,75,,30,30,10,15,14,16,0.8,0.6
2024-05-23T1000,2370A,115.0093,27.0968,吉安市,青原区法院,,34,34,25,22,15,63,,23,23,14,19,9,11,0.4,0.5
2024-05-23T1000,1772A,126.54,43.8622,吉林市,哈达湾,,21,14,64,7,31,67,,70,65,16,13,5,6,0.5,0.6
2024-05-23T1000,1773A,126.5844,43.8358,吉林市,东局子,,23,23,57,8,30,56,,63,57,21,17,4,5,0.5,0.6
2024-05-23T1000,1774A,126.5052,43.8245,吉林市,电力学院,,21,21,63,14,30,63,,70,64,16,13,8,9,0.4,0.5
2024-05-23T1000,1775A,126.6133,43.8972,吉林市,江北,,22,14,71,3,35,68,,59,57,9,20,6,8,0.5,0.6
2024-05-23T1000,1776A,126.555,43.8306,吉林市,江南公园,,22,19,67,8,32,69,,68,64,21,17,4,5,0.5,0.6
2024-05-23T1000,1778A,126.7061,43.7133,吉林市,丰满,,,,,,,,,,,,,,,,
2024-05-23T1000,2868A,126.4739,43.953,吉林市,九站,,23,23,74,10,33,70,,57,57,12,19,12,8,0.8,0.7
2024-05-23T1000,1299A,116.9862,36.6114,济南市,科干所,,48,48,53,20,24,150,,129,129,8,9,8,7,0.4,0.4
2024-05-23T1000,1300A,116.9376,36.665,济南市,农科所,颗粒物(PM10),58,66,54,15,18,144,,122,119,15,15,8,6,0.5,0.5
2024-05-23T1000,1301A,117.1265,36.6734,济南市,开发区,臭氧1小时,53,46,49,22,26,162,,143,141,9,9,8,7,0.3,0.3
2024-05-23T1000,1303A,117.0624,36.6868,济南市,省种子仓库,,,,60,,22,152,,135,132,13,7,7,4,,0.4
2024-05-23T1000,1304A,116.9489,36.6447,济南市,机床二厂,颗粒物(PM10),63,76,63,20,21,149,,130,130,8,6,11,9,0.5,0.5
2024-05-23T1000,1305A,117.0495,36.663,济南市,市监测站,臭氧1小时,53,46,50,15,22,162,,144,142,18,16,10,9,0.4,0.5
2024-05-23T1000,1306A,116.7675,36.5484,济南市,长清党校,颗粒物(PM10),57,63,53,24,26,125,,113,110,15,11,9,8,0.4,0.7
2024-05-23T1000,1616A,117.6795,36.229,济南市,技术学院,颗粒物(PM10),51,51,58,27,30,143,,96,96,14,17,12,12,0.5,0.7
2024-05-23T1000,1961A,117.532,36.6868,济南市,东山小学,颗粒物(PM10),56,61,63,20,24,151,,130,128,11,10,9,7,0.4,0.4
2024-05-23T1000,3059A,117.7161,36.2049,济南市,泰兴公司,颗粒物(PM10),53,56,59,27,28,141,,70,70,12,26,13,9,0.4,0.6
2024-05-23T1000,3064A,117.6867,36.2171,济南市,莱芜战役纪念馆,颗粒物(PM10),54,58,60,22,25,131,,88,88,14,18,14,10,0.3,0.4
2024-05-23T1000,3494A,117.1673,36.9782,济南市,济阳区政府,颗粒物(PM10),66,81,73,22,26,163,,107,107,16,25,8,8,0.2,0.3
2024-05-23T1000,3495A,117.1171,36.63,济南市,锦屏中学,臭氧1小时,52,51,50,17,21,161,,140,138,6,6,8,7,0.2,0.3
2024-05-23T1000,3682A,116.9814,36.6819,济南市,济南四建,颗粒物(PM10),51,51,50,20,25,143,,125,122,10,10,5,7,0.7,0.6
2024-05-23T1000,1653A,116.6251,35.4302,济宁市,火炬城,,50,50,49,22,22,129,,88,88,9,8,12,8,0.7,0.6
2024-05-23T1000,1655A,116.5491,35.4042,济宁市,电化厂,颗粒物(PM10),60,69,61,29,26,130,,102,102,6,6,8,6,0.8,0.7
2024-05-23T1000,3500A,116.5814,35.3707,济宁市,北湖一中,,47,47,45,24,17,125,,96,96,10,7,12,8,0.2,0.3
2024-05-23T1000,3501A,116.8249,35.5593,济宁市,服务中心,颗粒物(PM10),53,56,53,16,19,135,,85,85,12,12,7,4,0.7,0.6
2024-05-23T1000,3678A,116.5907,35.4054,济宁市,市第七中学,颗粒物(PM10),53,55,50,17,18,138,,100,100,10,8,10,6,0.5,0.5
2024-05-23T1000,2255A,130.2751,46.8028,佳木斯市,佳纺,,25,22,34,6,17,77,,67,67,5,14,4,4,0.2,0.3
2024-05-23T1000,2256A,130.3995,46.8307,佳木斯市,发电厂,,31,31,28,6,16,74,,70,70,7,9,4,5,0.3,0.4
2024-05-23T1000,2257A,130.3258,46.7975,佳木斯市,环保局,,,10,25,7,15,77,,69,69,3,10,,4,,0.6
2024-05-23T1000,2258A,130.3648,46.8032,佳木斯市,十一中,,25,18,28,10,15,80,,73,73,5,11,6,6,0.4,0.5
2024-05-23T1000,2259A,130.3794,46.7588,佳木斯市,四丰,,25,,21,13,11,78,,66,66,3,9,1,1,0.5,0.7
2024-05-23T1000,1252A,120.7436,30.778,嘉兴市,清河小学,,37,31,39,15,23,117,,77,77,13,18,5,6,1.0,0.9
2024-05-23T1000,1253A,120.726,30.7478,嘉兴市,嘉兴学院,,41,41,37,26,23,110,,77,77,14,15,6,7,0.4,0.4
2024-05-23T1000,2872A,120.7846,30.7525,嘉兴市,南湖区残联,,36,29,41,20,24,114,,78,78,7,14,6,8,0.5,0.4
2024-05-23T1000,3407A,120.6916,30.7739,嘉兴市,秀洲住建,,36,32,34,23,22,115,,76,76,13,17,5,7,0.7,0.6
2024-05-23T1000,1945A,98.2908,39.7711,嘉峪关市,气象局,颗粒物(PM10),60,70,289,17,82,94,,73,73,16,25,23,51,0.9,1.2
2024-05-23T1000,2884A,98.2672,39.7978,嘉峪关市,酒钢宾馆,颗粒物(PM10),69,88,276,34,85,86,,76,76,28,19,98,59,1.0,0.5
2024-05-23T1000,3248A,98.2643,39.7724,嘉峪关市,雄关区,,50,50,193,16,60,68,,63,61,31,23,14,18,0.5,0.6
2024-05-23T1000,1383A,113.1064,22.6058,江门市,北街,细颗粒物(PM2.5),60,49,51,43,47,110,,78,78,19,21,4,4,0.9,0.8
2024-05-23T1000,1384A,113.0731,22.5835,江门市,西区,,47,47,44,28,32,110,,83,83,24,25,6,6,0.8,0.7
2024-05-23T1000,1385A,113.0219,22.5311,江门市,圭峰西,,41,41,42,28,29,111,,94,92,21,18,4,5,0.9,0.7
2024-05-23T1000,1386A,113.0828,22.5947,江门市,东湖,颗粒物(PM10),52,54,63,18,30,110,,79,79,19,21,5,5,0.8,0.7
2024-05-23T1000,3311A,113.1075,22.5647,江门市,江海富民,细颗粒物(PM2.5),79,100,84,58,61,113,,88,87,17,23,5,5,0.8,0.7
2024-05-23T1000,3449A,113.05,22.4667,江门市,新会银湖,,,,,,,,,,,,,,,,
2024-05-23T1000,1828A,113.227,35.2125,焦作市,市环保局,臭氧1小时,67,68,65,36,32,173,,116,116,14,16,14,5,0.5,0.4
2024-05-23T1000,1830A,113.1992,35.2590,焦作市,影视城,,,,,,,,,,,,,,,,
2024-05-23T1000,3169A,113.2725,35.2067,焦作市,太极体育中心,,,,73,,33,,,98,96,12,16,18,6,,0.2
2024-05-23T1000,3335A,113.3137,35.2641,焦作市,马村街道办,臭氧1小时,69,53,68,23,31,175,,117,117,8,13,11,7,0.5,0.5
2024-05-23T1000,3336A,113.2465,35.2373,焦作市,焦作技师学院,颗粒物(PM10),60,70,65,34,32,165,,121,121,13,15,12,4,0.5,0.5
2024-05-23T1000,3477A,113.1656,35.2539,焦作市,中站许衡医院,臭氧1小时,57,44,54,29,29,165,,142,142,12,16,13,8,0.5,0.4
2024-05-23T1000,3981A,113.2449,35.1803,焦作市,原李万街道办,颗粒物(PM10),60,70,69,39,35,159,,83,83,15,23,20,10,0.6,0.4
2024-05-23T1000,1708A,116.3701,23.5345,揭阳市,新兴,,,,15,,11,,,45,43,,15,6,5,0.7,0.6
2024-05-23T1000,1709A,116.3264,23.5443,揭阳市,西马,,26,26,19,13,11,30,,47,44,28,11,7,6,1.0,0.7
2024-05-23T1000,1710A,116.3611,23.5626,揭阳市,东兴,,23,23,17,10,11,39,,44,40,24,15,5,5,0.9,0.8
2024-05-23T1000,1711A,116.4151,23.5294,揭阳市,渔湖,,29,21,15,20,12,35,,44,42,18,10,6,5,0.8,0.7
2024-05-23T1000,3320A,116.403,23.5699,揭阳市,曲溪,,13,8,12,7,9,40,,40,39,19,18,4,4,0.7,0.6
2024-05-23T1000,1944A,102.1692,38.5167,金昌市,天庆家园,颗粒物(PM10),82,113,151,36,59,102,,109,101,7,7,6,7,0.5,0.5
2024-05-23T1000,3170A,102.1864,38.5253,金昌市,市委党校,,,128,173,41,66,110,,121,116,2,4,122,12,,0.4
2024-05-23T1000,4022A,102.1647,38.5371,金昌市,金川区人防中心,颗粒物(PM10),80,110,165,36,60,116,,123,116,3,5,9,10,0.1,0.6
2024-05-23T1000,1262A,119.647,29.077,金华市,十五中,细颗粒物(PM2.5),74,66,53,54,37,100,,38,38,14,20,4,5,0.5,0.5
2024-05-23T1000,1263A,119.686,29.1029,金华市,监测站,细颗粒物(PM2.5),73,80,54,53,38,99,,27,27,22,28,3,3,0.4,0.3
2024-05-23T1000,3659A,119.656,29.1131,金华市,气象局,细颗粒物(PM2.5),70,75,54,51,32,103,,31,31,23,31,6,6,0.5,0.5
2024-05-23T1000,1767A,121.1115,41.0879,锦州市,南山,,,,50,10,45,76,,73,61,13,17,,9,0.5,0.6
2024-05-23T1000,1768A,121.0533,40.8434,锦州市,开发区,,49,49,43,16,41,68,,53,46,16,22,12,9,0.7,0.6
2024-05-23T1000,1769A,121.1836,41.1119,锦州市,百股街道,,,,38,9,30,76,,62,55,17,21,5,5,0.5,0.6
2024-05-23T1000,1770A,121.1178,41.1222,锦州市,天安街道,,,,51,7,33,76,,70,60,14,20,8,9,0.6,0.8
2024-05-23T1000,1771A,121.1303,41.1386,锦州市,北湖公园,,25,20,57,11,53,77,,70,61,10,17,7,10,0.5,0.7
2024-05-23T1000,2160A,112.85,35.5051,晋城市,自来水公司,臭氧1小时,60,68,72,29,26,168,,93,93,24,26,10,7,0.9,0.7
2024-05-23T1000,2161A,112.8318,35.4936,晋城市,白云商贸,臭氧1小时,70,70,78,36,25,176,,109,109,22,22,10,7,0.8,0.6
2024-05-23T1000,2162A,112.8508,35.4887,晋城市,市环保局,颗粒物(PM10),68,86,96,34,29,171,,77,77,23,38,10,7,0.7,0.6
2024-05-23T1000,2163A,112.8676,35.4897,晋城市,技术学院,颗粒物(PM10),63,75,65,34,25,167,,105,105,30,29,10,7,0.8,0.6
2024-05-23T1000,2165A,112.8453,35.546,晋城市,白马寺,,,,,,,,,,,,,,,,
2024-05-23T1000,3620A,112.8271,35.4828,晋城市,泽州一中,颗粒物(PM10),69,88,65,31,23,164,,106,106,28,25,12,9,0.9,0.7
2024-05-23T1000,2171A,112.7532,37.6945,晋中市,锦纶小区,,,,85,,33,178,,99,99,31,30,,17,1.1,0.5
2024-05-23T1000,2173A,112.7249,37.7067,晋中市,南都小区,颗粒物(PM10),73,95,83,36,31,177,,120,120,26,25,36,19,0.9,0.6
2024-05-23T1000,2174A,112.6991,37.6982,晋中市,榆次区政府,颗粒物(PM10),78,105,80,39,31,177,,114,114,28,24,37,19,0.9,0.8
2024-05-23T1000,2865A,112.7195,37.6828,晋中市,榆次三中,臭氧1小时,85,102,88,39,28,188,,104,104,24,25,40,17,1.2,0.7
2024-05-23T1000,2439A,112.2014,31.0481,荆门市,竹园小学,细颗粒物(PM2.5),98,115,83,73,56,160,,107,105,18,18,12,11,0.7,0.6
2024-05-23T1000,2440A,112.1969,30.9891,荆门市,掇刀,细颗粒物(PM2.5),104,130,85,78,52,134,,82,82,25,21,13,11,0.7,0.6
2024-05-23T1000,2441A,112.2213,31.0386,荆门市,石化一小,细颗粒物(PM2.5),90,127,95,67,59,164,,68,68,33,31,14,14,0.7,0.7
2024-05-23T1000,3012A,112.1849,31.0362,荆门市,西山林语,细颗粒物(PM2.5),89,104,70,66,50,149,,111,111,19,12,11,9,0.9,0.7
2024-05-23T1000,3547A,112.1632,31.0138,荆门市,龙泉中学南校,颗粒物(PM10),63,76,69,39,38,145,,69,69,22,30,12,10,0.6,0.5
2024-05-23T1000,1844A,112.2494,30.3197,荆州市,市图书馆,细颗粒物(PM2.5),64,68,51,46,33,132,,99,99,23,24,11,7,0.8,0.7
2024-05-23T1000,1845A,112.2008,30.3544,荆州市,市委党校,,,71,59,62,38,,,83,77,17,22,10,8,0.7,0.7
2024-05-23T1000,3194A,112.2747,30.3122,荆州市,管委会,细颗粒物(PM2.5),74,79,54,54,36,152,,103,103,17,23,7,5,0.7,0.7
2024-05-23T1000,3548A,112.1655,30.3364,荆州市,学苑路,细颗粒物(PM2.5),99,81,53,74,49,143,,65,65,16,26,6,7,0.6,0.6
2024-05-23T1000,2342A,117.3102,29.3867,景德镇市,王港中学,,,,,,,,,,,,,,,,
2024-05-23T1000,2343A,117.2117,29.2933,景德镇市,老干部活动中心,,,22,21,21,17,38,,36,36,7,11,,7,0.3,0.2
2024-05-23T1000,2344A,117.1894,29.2789,景德镇市,兽医站,,36,36,24,24,13,82,,43,43,9,10,6,6,0.5,0.4
2024-05-23T1000,2345A,117.1547,29.2617,景德镇市,台达陶瓷,,35,,16,24,13,77,,39,39,16,18,30,15,0.3,0.3
2024-05-23T1000,2346A,117.2461,29.2956,景德镇市,陶研所,,26,25,20,15,10,82,,44,44,7,8,5,5,0.2,0.2
2024-05-23T1000,1803A,115.9872,29.6815,九江市,十里,,28,18,20,8,11,89,,34,34,14,22,8,9,0.6,0.6
2024-05-23T1000,1804A,115.9584,29.7046,九江市,茅山头,,25,16,18,12,11,78,,20,20,16,30,9,10,0.6,0.5
2024-05-23T1000,1805A,115.9877,29.7295,九江市,西园,,23,22,18,16,11,64,,24,24,41,44,13,11,0.5,0.6
2024-05-23T1000,1806A,116.0172,29.6547,九江市,五七二七厂,,30,12,14,11,10,96,,63,63,9,10,14,12,0.6,0.6
2024-05-23T1000,1808A,115.9114,29.6038,九江市,综合工业园,,21,21,21,9,13,67,,30,30,17,27,7,8,0.9,0.8
2024-05-23T1000,1809A,116.0721,29.7535,九江市,石化总厂,,,51,25,23,15,,,11,9,,39,,12,,0.7
2024-05-23T1000,1810A,115.9773,29.5698,九江市,庐山气象台,,21,,13,13,12,66,,77,74,3,3,7,9,1.2,0.7
2024-05-23T1000,3190A,116.0254,29.6994,九江市,外国语学校,,,24,17,6,10,100,,22,22,14,30,,5,,0.6
2024-05-23T1000,2658A,98.5061,39.7443,酒泉市,仓门街子站,,44,44,243,23,57,95,,85,85,3,4,2,2,0.2,0.2
2024-05-23T1000,2659A,98.4989,39.7256,酒泉市,油田生活基地,,44,44,244,28,64,98,,88,88,5,5,2,2,0.2,0.3
2024-05-23T1000,2698A,76.0072,39.4467,喀什地区,巡警大队,颗粒物(PM10),169,288,146,69,29,62,,87,74,38,23,3,3,0.5,0.3
2024-05-23T1000,2699A,75.9755,39.4694,喀什地区,吾办,颗粒物(PM10),189,328,138,,42,32,,81,61,44,18,,3,0.6,0.2
2024-05-23T1000,4027A,75.9483,39.4689,喀什地区,老干局,颗粒物(PM10),167,284,161,60,40,33,,77,56,32,21,5,3,0.6,0.4
2024-05-23T1000,1824A,114.3389,34.7781,开封市,肿瘤医院,颗粒物(PM10),66,82,72,28,26,137,,84,84,16,15,4,3,0.4,0.4
2024-05-23T1000,1826A,114.2885,34.7965,开封市,世纪星幼儿园,颗粒物(PM10),68,86,62,29,29,143,,89,89,16,16,2,2,0.4,0.3
2024-05-23T1000,3147A,114.3438,34.8106,开封市,龙亭公园,颗粒物(PM10),100,149,66,26,27,140,,88,88,13,14,4,4,0.6,0.5
2024-05-23T1000,3210A,114.3644,34.7964,开封市,汴京公园,颗粒物(PM10),62,73,65,36,35,134,,87,87,21,19,3,3,0.5,0.5
2024-05-23T1000,3473A,114.2485,34.8306,开封市,技师学院,颗粒物(PM10),69,88,62,26,32,152,,99,99,16,15,7,7,0.6,0.5
2024-05-23T1000,3592A,114.4644,34.7556,开封市,祥符区生态环境局,颗粒物(PM10),63,75,76,30,32,136,,78,78,12,37,7,7,0.5,0.4
2024-05-23T1000,1951A,84.895,45.6094,克拉玛依市,长征新村,,,,13,,7,108,,98,98,7,5,,8,0.2,0.2
2024-05-23T1000,1952A,84.8988,45.5893,克拉玛依市,南林小区,,36,7,13,3,8,113,,100,100,8,5,9,9,0.4,0.3
2024-05-23T1000,1954A,84.905,44.3396,克拉玛依市,独山子区,,27,25,23,12,12,84,,90,86,17,12,12,10,0.4,0.3
2024-05-23T1000,1955A,85.6979,46.098,克拉玛依市,乌尔禾区商贸楼,,28,13,10,3,4,89,,90,83,1,1,8,8,0.2,0.2
2024-05-23T1000,3612A,85.1045,45.6899,克拉玛依市,白碱滩区新站,,33,,8,3,8,105,,103,101,4,5,7,8,0.2,0.2
2024-05-23T1000,2697A,76.1454,39.7142,克孜勒苏柯尔克孜自治州,市人民政府,"颗粒物(PM10),细颗粒物(PM2.5)",57,64,90,40,43,64,,105,91,24,8,7,8,0.4,0.1
2024-05-23T1000,3665A,76.1658,39.7157,克孜勒苏柯尔克孜自治州,克州文化中心,颗粒物(PM10),78,106,88,29,35,90,,109,95,16,4,8,9,0.3,0.2
2024-05-23T1000,1450A,102.8204,24.8886,昆明市,呈贡新区,,,53,37,47,31,,,42,38,29,23,9,6,1.0,0.8
2024-05-23T1000,1451A,102.6251,24.9608,昆明市,西山森林公园,,,,,,,,,,,,,,,,
2024-05-23T1000,1452A,102.7252,25.0902,昆明市,龙泉镇,,31,18,27,12,15,98,,74,74,18,22,9,8,0.7,0.6
2024-05-23T1000,1453A,102.7266,25.0375,昆明市,东风东路,,36,36,30,18,18,94,,91,91,19,17,10,6,0.8,0.5
2024-05-23T1000,1454A,102.6742,25.0669,昆明市,金鼎山,,33,14,26,12,15,103,,93,92,16,15,5,4,0.6,0.5
2024-05-23T1000,1455A,102.6644,25.0401,昆明市,碧鸡广场,,32,21,28,17,17,101,,88,87,18,16,6,4,0.6,0.5
2024-05-23T1000,3179A,102.7494,25.0119,昆明市,官渡区博物馆,,48,,32,33,19,102,,89,89,22,21,15,9,0.9,0.5
2024-05-23T1000,3375A,102.8017,24.8336,昆明市,青年创业园,细颗粒物(PM2.5),57,56,49,40,30,101,,42,42,10,25,14,9,0.7,0.7
2024-05-23T1000,3550A,102.7997,24.9786,昆明市,昆明学院,,,54,41,35,26,,,62,62,28,27,,9,0.7,0.6
2024-05-23T1000,3551A,102.5967,24.6736,昆明市,晋宁区生态环境分局,,,,44,,35,,,47,47,17,16,14,3,0.9,0.9
2024-05-23T1000,3552A,102.6678,24.9856,昆明市,云天化总部,,48,42,29,33,21,104,,89,89,19,14,9,7,1.1,0.7
2024-05-23T1000,1456A,91.1319,29.6514,拉萨市,八廓街,,35,18,19,12,11,109,,126,122,13,7,7,7,0.4,0.3
2024-05-23T1000,1457A,91.1221,29.6747,拉萨市,市环保局,,35,21,22,12,12,110,,127,122,16,12,6,6,0.3,0.2
2024-05-23T1000,1458A,91.0874,29.6475,拉萨市,区监测站,,35,14,16,11,9,111,,127,120,14,13,6,6,0.3,0.2
2024-05-23T1000,1459A,91.1774,29.6541,拉萨市,西藏大学,,35,18,18,11,10,111,,132,126,14,7,4,4,0.4,0.3
2024-05-23T1000,1460A,90.9798,29.6588,拉萨市,区辐射站,,32,24,18,17,10,100,,123,115,23,13,7,6,0.3,0.3
2024-05-23T1000,1461A,91.0834,29.6292,拉萨市,拉萨火车站,,33,16,16,8,9,104,,124,114,19,12,7,7,0.3,0.3
2024-05-23T1000,2520A,109.2203,23.7256,来宾市,来宾技工学校,,48,48,36,27,21,89,,46,46,10,12,11,5,0.9,0.8
2024-05-23T1000,3535A,109.1781,23.7297,来宾市,兴宾区政府,,38,38,32,22,22,83,,41,41,13,13,12,4,0.8,0.8
2024-05-23T1000,4002A,109.2416,23.7461,来宾市,中南小学,颗粒物(PM10),54,58,41,21,24,81,,29,29,12,23,14,8,1.0,0.8
2024-05-23T1000,1476A,103.631,36.1031,兰州市,兰炼宾馆,颗粒物(PM10),58,66,55,31,31,158,,84,84,52,40,14,8,0.7,0.4
2024-05-23T1000,1477A,104.1373,35.9454,兰州市,榆中兰大校区,,,,,,,,,,,,,,,,
2024-05-23T1000,1478A,103.8412,36.0726,兰州市,生物制品所,,49,49,54,28,33,83,,60,53,43,30,13,11,0.7,0.4
2024-05-23T1000,1479A,103.831,36.0464,兰州市,铁路设计院,颗粒物(PM10),59,67,50,26,23,66,,70,59,61,42,8,7,0.8,0.5
2024-05-23T1000,3186A,103.7158,36.1058,兰州市,教育港,颗粒物(PM10),61,72,59,32,34,100,,60,60,39,29,17,9,0.7,0.4
2024-05-23T1000,3241A,103.7439,36.0842,兰州市,百合公园,颗粒物(PM10),51,51,45,24,22,92,,60,52,27,28,7,5,0.6,0.3
2024-05-23T1000,3242A,103.9611,35.998,兰州市,和平,细颗粒物(PM2.5),72,62,54,52,28,105,,86,86,25,17,14,9,0.6,0.4
2024-05-23T1000,3245A,103.6633,36.533,兰州新区,新区管委会,,,,47,,27,,,88,81,14,17,15,13,0.5,0.4
2024-05-23T1000,3246A,103.6975,36.4789,兰州新区,舟曲中学,颗粒物(PM10),62,74,72,30,28,107,,99,94,15,15,11,9,0.4,0.3
2024-05-23T1000,1067A,116.6708,39.5111,廊坊市,药材公司,颗粒物(PM10),63,76,90,39,46,120,,93,93,15,17,5,5,0.5,0.6
2024-05-23T1000,1068A,116.7214,39.5589,廊坊市,开发区,颗粒物(PM10),72,93,99,41,45,121,,106,104,18,17,5,4,0.4,0.5
2024-05-23T1000,1070A,116.7244,39.5269,廊坊市,北华航天学院,颗粒物(PM10),68,86,107,45,53,118,,95,95,17,18,4,3,0.5,0.6
2024-05-23T1000,2919A,116.7022,39.5453,廊坊市,河北工业大学,颗粒物(PM10),76,102,104,39,47,116,,92,92,14,15,2,2,0.5,0.6
2024-05-23T1000,2535A,103.7723,29.5462,乐山市,花湖湾,细颗粒物(PM2.5),89,88,39,66,38,33,,50,34,37,20,12,12,1.3,0.9
2024-05-23T1000,2536A,103.7627,29.5844,乐山市,牛耳桥,细颗粒物(PM2.5),87,76,45,64,34,66,,38,38,37,26,11,9,0.8,0.5
2024-05-23T1000,2537A,103.7508,29.6006,乐山市,市第三水厂,细颗粒物(PM2.5),87,77,43,64,32,66,,36,35,38,24,8,5,0.7,0.5
2024-05-23T1000,2538A,103.7571,29.5664,乐山市,市监测站,,,,44,,27,,,38,29,38,22,,12,1.2,0.9
2024-05-23T1000,3361A,103.7311,29.5628,乐山市,理工大学,细颗粒物(PM2.5),82,85,45,60,33,65,,32,30,33,24,16,15,0.9,0.7
2024-05-23T1000,2598A,100.2143,26.8576,丽江市,西南郊,,,,,,,,,,,,,,,,
2024-05-23T1000,2599A,100.2497,26.8802,丽江市,丽江古城,,29,29,26,16,16,88,,75,70,16,13,6,6,0.6,0.5
2024-05-23T1000,2600A,100.2203,26.8906,丽江市,市中心,,29,,16,7,8,90,,82,75,12,11,7,8,0.3,0.4
2024-05-23T1000,1267A,119.914,28.4514,丽水市,监测站大楼,,40,33,36,28,27,52,,14,14,11,14,2,2,0.7,0.7
2024-05-23T1000,1268A,119.93,28.4586,丽水市,莲都小学,,,41,43,26,26,,,14,10,11,15,4,4,0.7,0.7
2024-05-23T1000,1269A,119.879,28.4231,丽水市,余庄前,细颗粒物(PM2.5),53,47,34,37,24,38,,11,11,17,9,4,4,0.6,0.6
2024-05-23T1000,1173A,119.176,34.5885,连云港市,市环境监测站,颗粒物(PM10),75,100,44,51,26,88,,55,55,16,11,8,7,0.5,0.4
2024-05-23T1000,3000A,119.3581,34.6972,连云港市,德源药业,,46,46,32,29,18,78,,63,63,15,13,6,5,0.5,0.4
2024-05-23T1000,3007A,119.178,34.844,连云港市,新城一中,细颗粒物(PM2.5),53,42,33,37,21,106,,76,76,17,14,9,6,0.9,0.8
2024-05-23T1000,3008A,119.3608,34.7519,连云港市,胡沟管理处,,44,44,31,19,14,82,,84,78,16,10,9,7,0.5,0.4
2024-05-23T1000,3009A,119.1478,34.5911,连云港市,矿山设计院,,,,41,,20,85,,53,53,,11,6,5,,0.6
2024-05-23T1000,3434A,119.2413,34.6539,连云港市,工贸学校,颗粒物(PM10),59,68,37,40,20,95,,,,11,8,10,8,0.7,0.6
2024-05-23T1000,3664A,119.4172,34.7341,连云港市,连云街道,颗粒物(PM10),54,57,35,37,17,68,,86,76,42,14,10,5,0.5,0.4
2024-05-23T1000,2571A,102.3431,27.8099,凉山彝族自治州,青龙寺,,30,15,19,13,14,95,,75,74,7,7,12,8,0.4,0.4
2024-05-23T1000,2572A,102.2721,27.8415,凉山彝族自治州,邛海宾馆,,28,19,25,14,14,87,,67,67,9,11,14,10,0.6,0.6
2024-05-23T1000,2573A,102.2625,27.898,凉山彝族自治州,西昌市政府,,31,31,24,19,16,85,,78,75,14,8,19,12,0.8,0.6
2024-05-23T1000,2574A,102.2685,27.8851,凉山彝族自治州,凉山州政府,,32,29,26,22,16,84,,73,72,17,11,14,9,0.8,0.6
2024-05-23T1000,2575A,102.237,27.8914,凉山彝族自治州,长安,,40,40,28,20,16,69,,65,57,31,15,21,10,1.0,0.7
2024-05-23T1000,2212A,123.2,41.1953,辽阳市,宏伟区,,16,12,20,3,11,50,,82,72,12,7,9,9,0.6,0.6
2024-05-23T1000,2213A,123.1683,41.2495,辽阳市,新华园,,18,,23,12,14,48,,85,74,21,10,11,10,0.6,0.6
2024-05-23T1000,2214A,123.2354,41.2639,辽阳市,滨河路,,13,12,27,8,12,37,,83,71,25,9,7,7,0.4,0.4
2024-05-23T1000,2215A,123.149,41.2991,辽阳市,铁西工业园,,24,24,30,11,12,43,,86,72,24,10,10,11,0.5,0.5
2024-05-23T1000,2227A,125.1358,42.8845,辽源市,环保局,,25,11,33,9,21,79,,88,85,16,11,7,7,0.5,0.6
2024-05-23T1000,3239A,125.0764,42.9078,辽源市,银鹰制药,,26,15,34,11,23,83,,81,78,10,14,5,6,0.5,0.7
2024-05-23T1000,1625A,115.9848,36.4372,聊城市,区政府,颗粒物(PM10),60,69,67,28,25,120,,94,94,14,15,11,8,0.8,0.8
2024-05-23T1000,2878A,116.0072,36.4343,聊城市,聊大东校,颗粒物(PM10),56,62,64,36,33,130,,99,99,9,13,11,11,0.5,0.5
2024-05-23T1000,3200A,115.9819,36.4978,聊城市,监控中心,颗粒物(PM10),59,68,72,27,30,132,,107,107,14,15,10,10,0.7,0.7
2024-05-23T1000,3513A,116.0445,36.4361,聊城市,九州社区,,,,75,,26,128,,93,93,10,14,10,14,,0.4
2024-05-23T1000,4018A,116.0567,36.4608,聊城市,星美广场,颗粒物(PM10),59,68,70,24,25,129,,97,97,14,15,10,10,0.6,0.6
2024-05-23T1000,2632A,94.3681,29.6376,林芝市,林芝监测站,,24,21,14,14,13,76,,90,81,10,3,7,7,0.4,0.3
2024-05-23T1000,2633A,94.3616,29.6616,林芝市,林芝人民医院,,27,13,17,7,17,84,,89,82,8,6,7,7,0.5,0.4
2024-05-23T1000,2603A,100.0781,23.8982,临沧市,市环保局,,22,22,26,9,22,56,,31,30,11,11,9,6,0.6,0.5
2024-05-23T1000,2604A,100.0894,23.8822,临沧市,市气象局,,28,28,26,18,22,55,,32,31,13,12,8,7,0.5,0.5
2024-05-23T1000,1733A,111.5531,36.0783,临汾市,临钢医院,颗粒物(PM10),80,110,81,31,27,144,,85,85,24,15,14,8,0.8,0.6
2024-05-23T1000,1734A,111.5028,36.0714,临汾市,技工学校,颗粒物(PM10),79,107,87,35,32,156,,99,96,23,21,12,10,0.8,0.7
2024-05-23T1000,1736A,111.5018,36.0855,临汾市,市委,颗粒物(PM10),75,99,77,35,26,144,,100,92,27,19,12,9,0.9,0.7
2024-05-23T1000,3018A,111.505,36.1014,临汾市,唐尧大酒店,颗粒物(PM10),73,95,86,30,27,129,,87,79,21,16,10,9,0.8,0.7
2024-05-23T1000,3668A,111.5036,36.0414,临汾市,城南,颗粒物(PM10),64,78,84,41,36,169,,83,83,16,21,13,10,0.9,0.6
2024-05-23T1000,2667A,103.2069,35.5993,临夏回族自治州,环保局,细颗粒物(PM2.5),90,96,74,67,29,92,,62,62,19,22,6,5,0.4,0.4
2024-05-23T1000,2668A,103.2417,35.6057,临夏回族自治州,建设大厦,颗粒物(PM10),55,60,63,30,28,90,,72,72,24,19,12,12,0.5,0.4
2024-05-23T1000,1618A,118.3429,35.0532,临沂市,沂河小区,颗粒物(PM10),63,75,52,41,27,117,,63,63,27,17,20,11,0.5,0.3
2024-05-23T1000,1619A,118.295,35.0583,临沂市,鲁南制药厂,,48,48,38,21,24,136,,66,66,19,15,17,11,0.6,0.4
2024-05-23T1000,1620A,118.2794,34.9976,临沂市,新光毛纺厂,颗粒物(PM10),52,53,42,34,26,130,,58,58,23,16,16,8,0.7,0.5
2024-05-23T1000,1621A,118.3956,35.0888,临沂市,河东保险公司,颗粒物(PM10),60,70,46,36,25,113,,53,53,19,22,16,7,0.5,0.3
2024-05-23T1000,3370A,118.3564,35.0215,临沂市,十里堡居委,,,70,40,48,27,,,48,48,18,14,,8,0.6,0.5
2024-05-23T1000,3496A,118.3604,35.1084,临沂市,南坊新区,颗粒物(PM10),57,63,44,31,21,117,,59,59,25,18,19,9,0.7,0.5
2024-05-23T1000,3860A,118.3920,35.0300,临沂市,皇山花园小区,颗粒物(PM10),63,75,51,42,30,126,,61,61,22,20,20,12,0.8,0.6
2024-05-23T1000,1870A,109.4856,24.3895,柳州市,柳东小学,,39,,31,27,24,70,,52,46,13,14,9,9,0.7,0.7
2024-05-23T1000,1871A,109.4157,24.3277,柳州市,环保监测站,,41,41,43,9,29,73,,38,34,14,16,15,12,0.9,0.9
2024-05-23T1000,1872A,109.389,24.341,柳州市,河西水厂,颗粒物(PM10),59,68,44,36,25,66,,25,25,16,17,20,13,1.0,0.9
2024-05-23T1000,1873A,109.4311,24.2921,柳州市,市四中,,45,41,43,31,28,74,,54,48,16,17,13,11,0.6,0.6
2024-05-23T1000,1874A,109.4006,24.3631,柳州市,市九中,,43,43,48,12,33,73,,22,21,14,20,14,11,0.7,0.5
2024-05-23T1000,1875A,109.4958,24.3134,柳州市,古亭山,颗粒物(PM10),52,53,39,26,24,80,,33,33,13,28,9,9,0.7,0.6
2024-05-23T1000,3402A,109.5422,24.3996,柳州市,市二中,,45,45,36,27,25,78,,35,35,10,16,6,8,0.6,0.6
2024-05-23T1000,2307A,116.5079,31.737,六安市,监测大楼,,39,31,39,20,25,122,,94,94,13,13,6,7,0.4,0.4
2024-05-23T1000,2308A,116.4738,31.7643,六安市,皖西学院,,40,35,43,21,23,127,,106,106,14,11,6,6,0.5,0.4
2024-05-23T1000,2309A,116.4996,31.7905,六安市,朝阳厂,,,33,39,17,24,,,94,92,8,8,9,8,0.3,0.3
2024-05-23T1000,2310A,116.5567,31.7886,六安市,开发区,颗粒物(PM10),54,58,50,36,28,131,,85,85,17,20,16,12,0.6,0.5
2024-05-23T1000,2576A,104.8,26.5892,六盘水市,窑上,,,,,,,,,,,,,,,,
2024-05-23T1000,2577A,104.83,26.5917,六盘水市,黄土坡,,35,24,25,18,15,110,,78,78,13,12,8,7,0.4,0.4
2024-05-23T1000,2578A,104.89,26.5939,六盘水市,水钢,,38,35,39,26,22,120,,71,71,11,19,12,12,0.4,0.5
2024-05-23T1000,2579A,104.8475,26.5894,六盘水市,民中,,30,23,24,12,14,96,,74,72,18,14,9,8,0.6,0.6
2024-05-23T1000,2580A,104.9544,26.5506,六盘水市,双水,,35,24,27,11,16,110,,62,62,11,10,11,8,0.5,0.4
2024-05-23T1000,2335A,117.0189,25.1181,龙岩市,龙岩师专,,,,,,,,,,,,,,,,
2024-05-23T1000,2336A,117.0217,25.1033,龙岩市,龙岩市监测站,,15,,13,10,11,27,,22,19,23,15,5,9,0.7,0.5
2024-05-23T1000,2337A,117.0258,25.0661,龙岩市,闽西职业技术学院,,12,12,15,8,8,24,,20,19,21,14,6,11,0.7,0.6
2024-05-23T1000,2338A,117.0196,25.0306,龙岩市,龙岩学院,,11,6,14,3,11,34,,26,26,14,12,4,4,0.6,0.6
2024-05-23T1000,2665A,105.0822,33.3261,陇南市,汉王镇固水子,,,,,,,,,,,,,,,,
2024-05-23T1000,2885A,104.9339,33.3826,陇南市,滨江中学,,,51,51,14,21,86,,73,70,,4,10,11,0.7,0.7
2024-05-23T1000,3247A,104.955,33.371,陇南市,市总工会,,43,43,39,21,14,94,,87,83,9,7,12,9,0.5,0.5
2024-05-23T1000,2487A,111.9589,27.8901,娄底市,电视发射台,细颗粒物(PM2.5),52,42,42,36,29,74,,25,25,5,5,6,6,0.8,0.7
2024-05-23T1000,2488A,111.9975,27.725,娄底市,市监测站,颗粒物(PM10),70,89,66,45,34,77,,18,18,21,21,14,7,1.8,0.7
2024-05-23T1000,2489A,112.0194,27.7314,娄底市,市委党校,细颗粒物(PM2.5),69,69,54,50,37,64,,23,23,24,15,12,6,1.3,0.6
2024-05-23T1000,2490A,111.9561,27.7569,娄底市,涟钢,,,39,54,26,37,,,27,26,28,25,14,13,0.8,0.8
2024-05-23T1000,2491A,111.9892,27.7044,娄底市,市政府,细颗粒物(PM2.5),59,52,46,42,36,95,,29,29,10,12,10,7,0.6,0.5
2024-05-23T1000,1893A,105.4324,28.9634,泸州市,九狮山,,38,38,33,11,21,77,,35,35,24,16,7,6,0.4,0.4
2024-05-23T1000,1894A,105.4427,28.9063,泸州市,小市上码头,,34,29,37,22,22,107,,45,45,16,17,15,10,0.4,0.4
2024-05-23T1000,1895A,105.4241,28.8573,泸州市,兰田宪桥,,,,15,24,25,68,,23,23,35,26,6,5,0.5,0.4
2024-05-23T1000,1896A,105.4379,28.8833,泸州市,市环监站,,36,34,32,25,25,71,,36,36,33,24,9,11,0.6,0.5
2024-05-23T1000,3490A,105.3617,28.7703,泸州市,纳溪区环保局,,34,34,34,14,17,67,,27,27,27,24,2,2,0.5,0.4
2024-05-23T1000,2183A,111.1406,37.5211,吕梁市,环保局,颗粒物(PM10),69,87,77,31,31,120,,79,79,21,32,9,4,0.6,0.5
2024-05-23T1000,2185A,111.1297,37.5136,吕梁市,自来水公司,颗粒物(PM10),69,87,80,31,33,100,,56,56,27,32,12,7,0.6,0.6
2024-05-23T1000,2867A,111.1283,37.51,吕梁市,马茂庄小学,颗粒物(PM10),76,101,87,36,31,111,,74,74,27,36,10,6,0.6,0.5
2024-05-23T1000,1812A,112.3931,34.6516,洛阳市,市委党校,颗粒物(PM10),55,60,65,33,38,142,,114,111,12,12,3,7,0.5,0.6
2024-05-23T1000,1814A,112.4657,34.6871,洛阳市,豫西宾馆,颗粒物(PM10),64,77,78,34,36,144,,115,110,20,13,5,7,0.7,0.6
2024-05-23T1000,1815A,112.494,34.6886,洛阳市,河南林校,颗粒物(PM10),58,65,59,32,36,140,,113,109,25,18,6,8,0.5,0.4
2024-05-23T1000,1816A,112.3844,34.623,洛阳市,开发区管委会,颗粒物(PM10),54,58,68,30,39,132,,93,93,15,15,5,7,0.2,0.2
2024-05-23T1000,1817A,112.4267,34.6258,洛阳市,市委新办公区,颗粒物(PM10),54,58,67,37,41,150,,102,101,10,13,7,9,0.4,0.4
2024-05-23T1000,3340A,112.6005,34.6326,洛阳市,伊滨,,,87,69,48,37,138,,90,90,26,18,,8,0.9,0.4
2024-05-23T1000,3341A,112.4951,34.6332,洛阳市,中移产业园,颗粒物(PM10),56,61,64,30,35,145,,103,101,15,14,10,9,0.6,0.7
2024-05-23T1000,3593A,112.5736,34.8993,洛阳市,吉利监测站,,,85,75,35,33,,,86,86,14,25,8,6,0.3,0.3
2024-05-23T1000,3635A,112.3677,34.662,洛阳市,河科大西苑校区,颗粒物(PM10),53,56,72,34,37,149,,102,102,3,13,3,9,0.5,0.6
2024-05-23T1000,3636A,112.4388,34.6781,洛阳市,英才小学,颗粒物(PM10),63,75,73,35,35,146,,116,111,16,15,5,8,0.6,0.6
2024-05-23T1000,2399A,114.051,33.5699,漯河市,三五一五工厂,,,,56,,29,139,,84,84,11,18,6,7,0.6,0.6
2024-05-23T1000,2400A,114.0055,33.5698,漯河市,漯河大学,颗粒物(PM10),57,64,63,39,38,150,,79,79,15,20,13,11,0.5,0.5
2024-05-23T1000,2401A,114.0138,33.5828,漯河市,市水利局,颗粒物(PM10),53,56,57,29,34,152,,86,86,9,12,11,9,0.4,0.4
2024-05-23T1000,2402A,114.0261,33.5698,漯河市,市广电局,颗粒物(PM10),56,61,55,31,30,140,,78,78,10,15,6,6,0.4,0.3
2024-05-23T1000,3478A,113.9749,33.5664,漯河市,市图书馆,颗粒物(PM10),58,65,68,17,36,147,,78,78,8,14,6,6,0.5,0.5
2024-05-23T1000,3479A,114.0967,33.5906,漯河市,召陵区卫健委,细颗粒物(PM2.5),64,,52,46,37,140,,92,92,9,12,6,5,0.5,0.5
2024-05-23T1000,1798A,118.5092,31.6837,马鞍山市,湖东路四小,颗粒物(PM10),53,55,47,24,27,112,,94,87,17,19,11,10,0.8,0.6
2024-05-23T1000,1799A,118.5024,31.6449,马鞍山市,开发区,,50,50,60,29,32,113,,73,72,15,26,14,12,0.7,0.6
2024-05-23T1000,1800A,118.5228,31.7231,马鞍山市,慈湖,,43,34,43,30,34,108,,83,73,22,27,9,8,0.6,0.6
2024-05-23T1000,1802A,118.6245,31.7241,马鞍山市,濮塘,细颗粒物(PM2.5),52,36,40,36,31,106,,79,74,19,18,8,7,0.7,0.7
2024-05-23T1000,3633A,118.4918,31.6809,马鞍山市,雨山,,44,44,46,30,30,109,,97,89,19,18,14,13,0.8,0.6
2024-05-23T1000,1686A,111.0286,21.4688,茂名市,电白南海,,29,27,21,17,16,90,,62,62,14,10,9,10,0.4,0.4
2024-05-23T1000,1687A,110.9294,21.6533,茂名市,茂石化七小,,36,36,28,24,20,67,,51,50,15,13,8,11,0.8,0.7
2024-05-23T1000,1688A,110.9107,21.6687,茂名市,健康路,,32,27,26,22,15,72,,54,54,10,12,10,15,0.7,0.8
2024-05-23T1000,1689A,110.8592,21.6828,茂名市,高岭,,36,36,29,22,18,62,,39,39,16,15,20,15,0.6,0.6
2024-05-23T1000,3450A,111.01,21.5165,茂名市,电白水东,,29,24,19,17,13,91,,64,64,14,12,12,10,0.6,0.6
2024-05-23T1000,2539A,104.0308,30.0478,眉山市,黑龙滩水库,,38,35,33,20,23,120,,68,68,4,8,7,6,0.6,0.6
2024-05-23T1000,2540A,103.8416,30.0874,眉山市,气象局,细颗粒物(PM2.5),83,72,52,61,40,52,,14,13,59,46,10,10,0.6,0.5
2024-05-23T1000,3137A,103.8578,30.0744,眉山市,市委党校,颗粒物(PM10),69,88,55,48,29,59,,36,31,51,39,11,11,0.5,0.5
2024-05-23T1000,3148A,103.8291,30.0564,眉山市,区人社局,,,,43,,30,73,,28,27,,48,14,12,0.6,0.5
2024-05-23T1000,1690A,116.1231,24.3284,梅州市,梅江月梅,,,,9,4,5,,,38,36,,11,,4,,0.6
2024-05-23T1000,1691A,116.0797,24.2719,梅州市,梅县新城,,12,11,10,8,7,24,,31,28,22,18,3,3,0.6,0.6
2024-05-23T1000,1692A,116.1248,24.2654,梅州市,环境监控中心,,11,10,9,3,4,33,,33,32,15,15,3,4,0.5,0.6
2024-05-23T1000,3315A,116.1233,24.2991,梅州市,梅龙,,13,9,6,9,4,26,,32,30,10,6,7,7,0.6,0.5
2024-05-23T1000,1878A,104.7778,31.4741,绵阳市,富乐山,细颗粒物(PM2.5),63,54,43,45,29,112,,64,64,19,16,11,8,0.8,0.7
2024-05-23T1000,1879A,104.7563,31.4535,绵阳市,市人大,颗粒物(PM10),62,73,52,37,32,85,,54,54,35,33,8,7,0.8,0.7
2024-05-23T1000,1880A,104.6697,31.4668,绵阳市,高新区自来水公司,颗粒物(PM10),65,79,73,34,39,80,,56,56,36,35,11,10,0.9,0.8
2024-05-23T1000,1881A,104.7287,31.5075,绵阳市,三水厂,细颗粒物(PM2.5),75,84,63,55,42,88,,44,44,29,40,6,6,0.7,0.7
2024-05-23T1000,3491A,104.69,31.5322,绵阳市,西科大附属小学,,,70,62,44,36,,,50,47,28,35,6,7,0.6,0.6
2024-05-23T1000,3492A,104.5648,31.5343,绵阳市,安州区旅游局,细颗粒物(PM2.5),62,57,54,44,47,99,,77,77,16,20,9,7,0.5,0.5
2024-05-23T1000,1784A,129.61,44.561,牡丹江市,环保大楼,,37,37,47,15,21,69,,55,54,10,12,5,6,0.3,0.4
2024-05-23T1000,1785A,129.6115,44.5782,牡丹江市,文化广场,,43,43,52,20,28,62,,50,50,17,16,5,7,0.3,0.5
2024-05-23T1000,1786A,129.5904,44.5963,牡丹江市,第一医院,,45,45,39,28,26,67,,45,45,11,13,5,7,0.3,0.5
2024-05-23T1000,1787A,129.6364,44.6075,牡丹江市,机车工厂,,,39,58,22,25,63,,33,32,12,12,,9,,0.6
2024-05-23T1000,1788A,129.6386,44.5462,牡丹江市,第一中学,,45,45,55,14,25,75,,48,48,9,13,2,3,0.3,0.4
2024-05-23T1000,2531A,105.0703,29.61,内江市,市监测站,,49,,31,34,28,121,,61,61,31,26,13,8,0.4,0.4
2024-05-23T1000,2532A,105.0717,29.5947,内江市,东兴区政府,,,,30,,15,,,77,72,,12,,11,0.8,0.6
2024-05-23T1000,2533A,105.0653,29.5817,内江市,内江二中,,39,37,25,21,18,122,,81,81,22,14,12,9,0.6,0.5
2024-05-23T1000,2534A,105.0406,29.5822,内江市,内江日报社,,42,29,28,29,20,121,,62,62,25,30,12,8,0.7,0.6
2024-05-23T1000,2628A,92.0657,31.4846,那曲市,那曲监测站,,35,35,22,12,11,102,,110,108,6,6,5,5,0.3,0.3
2024-05-23T1000,3128A,92.0506,31.4797,那曲市,那曲会议中心,颗粒物(PM10),61,72,33,28,15,101,,106,106,12,7,3,3,0.4,0.4
2024-05-23T1000,1290A,115.8931,28.6843,南昌市,省外办,,48,48,32,24,14,60,,17,17,22,25,9,6,0.5,0.4
2024-05-23T1000,1291A,115.8886,28.7003,南昌市,省林业公司,,31,31,26,17,14,63,,15,15,22,28,7,5,0.7,0.6
2024-05-23T1000,1292A,115.8126,28.7442,南昌市,林科所,,36,36,12,14,6,79,,35,35,19,20,11,6,0.5,0.5
2024-05-23T1000,1294A,115.8518,28.687,南昌市,建工学校,,43,43,29,18,16,67,,28,28,20,24,5,5,0.6,0.5
2024-05-23T1000,1295A,115.8921,28.6424,南昌市,象湖,,36,36,30,23,14,60,,22,22,28,24,6,6,0.7,0.6
2024-05-23T1000,1296A,115.7423,28.7996,南昌市,武术学校,,45,,13,31,15,66,,16,16,5,3,14,14,0,0.1
2024-05-23T1000,1298A,115.9314,28.6842,南昌市,省站,,,38,33,27,14,,,29,29,13,16,13,10,0.6,0.5
2024-05-23T1000,3046A,115.9084,28.6062,南昌市,机电学校,,49,49,36,24,15,73,,28,28,13,21,11,9,0.7,0.6
2024-05-23T1000,3690A,115.9721,28.7031,南昌市,外国语学校,,36,36,25,22,13,81,,40,40,6,14,6,3,0.5,0.4
2024-05-23T1000,1905A,106.056,30.8064,南充市,西山风景区,,,,,,,,,,,,,,,,
2024-05-23T1000,1906A,106.0789,30.8023,南充市,南充市委,颗粒物(PM10),59,68,41,36,24,83,,39,39,30,23,7,5,0.5,0.3
2024-05-23T1000,1907A,106.1031,30.8217,南充市,南充炼油厂,,47,47,48,30,27,104,,50,50,19,20,8,7,0.5,0.5
2024-05-23T1000,1908A,106.1064,30.7856,南充市,高坪区监测站,,,42,37,3,23,112,,42,42,,27,,7,0.2,0.3
2024-05-23T1000,1909A,106.0642,30.7636,南充市,嘉陵区环保局,,,67,44,31,24,87,,36,36,35,28,4,5,,0.4
2024-05-23T1000,1910A,106.1087,30.8388,南充市,市环境监测站,颗粒物(PM10),60,69,48,26,28,80,,47,47,29,23,8,7,0.7,0.7
2024-05-23T1000,1151A,118.8086,32.1065,南京市,迈皋桥,,,77,39,44,26,,,50,49,14,20,5,6,0.8,0.8
2024-05-23T1000,1152A,118.7538,32.0551,南京市,草场门,,44,44,44,27,28,113,,68,65,17,24,4,5,0.4,0.4
2024-05-23T1000,1153A,118.7794,32.0745,南京市,山西路,,,48,41,27,22,,,64,58,13,15,4,4,0.3,0.3
2024-05-23T1000,1154A,118.7752,32.0023,南京市,中华门,,41,41,43,22,24,109,,56,56,13,23,8,11,0.6,0.6
2024-05-23T1000,1155A,118.8109,32.0309,南京市,瑞金路,颗粒物(PM10),52,54,50,29,27,103,,55,55,15,24,9,11,0.3,0.3
2024-05-23T1000,1156A,118.7997,32.0754,南京市,玄武湖,,36,35,43,25,23,105,,58,58,13,17,9,10,0.4,0.4
2024-05-23T1000,1157A,118.6414,32.0931,南京市,浦口,,48,48,42,23,27,97,,48,46,20,28,6,8,0.4,0.4
2024-05-23T1000,1158A,118.7356,31.9996,南京市,奥体中心,,43,43,47,29,29,114,,64,64,13,21,10,11,0.5,0.5
2024-05-23T1000,1159A,118.9125,32.1028,南京市,仙林大学城,,48,48,40,27,20,105,,62,62,17,20,10,12,0.5,0.5
2024-05-23T1000,3422A,118.8436,31.9198,南京市,江宁彩虹桥,,,,53,,29,,,100,,,20,,6,,0.6
2024-05-23T1000,3423A,119.0138,31.6494,南京市,溧水永阳,,,34,42,27,30,,,63,55,16,25,8,9,0.5,0.5
2024-05-23T1000,3424A,118.879,31.3302,南京市,高淳老职中,,36,32,56,23,31,115,,77,75,15,20,6,10,0.5,0.4
2024-05-23T1000,3427A,118.8554,32.3578,南京市,六合雄州,,44,44,58,27,37,101,,41,41,14,23,6,7,0.5,0.7
2024-05-23T1000,1401A,108.3103,22.7881,南宁市,二十一中,颗粒物(PM10),53,55,43,34,26,38,,8,7,36,31,14,7,0.9,0.8
2024-05-23T1000,1402A,108.3141,22.8528,南宁市,北湖,,,61,46,37,31,,,6,6,,30,26,12,0.9,0.9
2024-05-23T1000,1403A,108.3206,22.8225,南宁市,市监测站,颗粒物(PM10),57,64,41,37,26,50,,16,16,31,37,18,8,1.0,0.9
2024-05-23T1000,1404A,108.3829,22.8037,南宁市,大自然花园,,,44,32,25,22,,,22,19,26,24,,7,0.6,0.5
2024-05-23T1000,1405A,108.4394,22.7904,南宁市,仙葫,,48,48,35,28,21,51,,21,21,26,25,8,6,1.5,1.5
2024-05-23T1000,1406A,108.2397,22.8467,南宁市,区农职院,颗粒物(PM10),60,69,46,32,26,45,,17,17,22,28,11,9,1.0,0.8
2024-05-23T1000,1407A,108.3275,22.735,南宁市,英华嘉园,颗粒物(PM10),63,75,44,44,28,30,,8,8,43,31,11,8,0.9,0.7
2024-05-23T1000,1408A,108.2257,22.7757,南宁市,沙井镇街道办,细颗粒物(PM2.5),65,68,56,47,30,41,,10,10,25,36,25,9,0.8,0.8
2024-05-23T1000,3401A,108.4834,22.7618,南宁市,红星社区,,,44,35,27,19,,,14,14,19,25,,9,0.8,0.7
2024-05-23T1000,2331A,118.0966,26.6761,南平市,茫荡山,,,,,,,,,,,,,,,,
2024-05-23T1000,2332A,118.1681,26.6369,南平市,南平市监测站,,,,9,,6,,,35,33,9,10,,4,0.8,0.6
2024-05-23T1000,2333A,118.1825,26.6489,南平市,南平铝业有限公司,,14,10,10,6,5,44,,26,26,12,13,6,4,0.9,0.6
2024-05-23T1000,2334A,118.1756,26.6272,南平市,南平七中,,19,19,12,10,7,45,,33,33,10,8,5,4,0.8,0.5
2024-05-23T1000,1168A,120.9098,31.9663,南通市,狼山街道,,42,,31,29,16,85,,71,71,10,11,10,11,0.4,0.5
2024-05-23T1000,1169A,120.86,32.0005,南通市,虹桥,,26,26,36,15,18,82,,79,79,13,14,6,6,0.4,0.4
2024-05-23T1000,1170A,120.87,32.02,南通市,城中,,28,28,43,14,23,85,,74,74,11,13,5,6,0.5,0.5
2024-05-23T1000,1171A,120.94,31.93,南通市,星湖花园,,27,19,26,9,14,85,,77,77,15,11,7,8,0.4,0.4
2024-05-23T1000,1172A,120.81,32.0417,南通市,紫琅学院,,,20,27,8,17,,,80,80,25,17,,10,0.4,0.4
2024-05-23T1000,3291A,121.067,32.062,南通市,通州监测站,,34,34,36,14,13,104,,85,85,2,3,9,10,0.5,0.5
2024-05-23T1000,3432A,120.9348,31.9883,南通市,环境教育馆,,29,24,36,7,18,91,,58,58,12,14,7,8,0.4,0.4
2024-05-23T1000,2404A,112.5224,33.0122,南阳市,瓦房庄,颗粒物(PM10),66,81,52,43,28,97,,80,75,62,24,7,5,0.7,0.5
2024-05-23T1000,2405A,112.5003,32.9735,南阳市,汉画馆,颗粒物(PM10),70,89,62,46,35,107,,70,68,41,27,7,6,0.5,0.5
2024-05-23T1000,2406A,112.5573,33.027,南阳市,气象站,,,,53,,26,,,73,66,32,22,6,4,,0.3
2024-05-23T1000,2407A,112.5481,32.9689,南阳市,理工学院,颗粒物(PM10),65,79,54,41,28,127,,72,72,34,27,8,6,0.6,0.5
2024-05-23T1000,4008A,112.5234,32.9922,南阳市,卧龙区政府,颗粒物(PM10),67,83,53,43,32,129,,83,83,34,25,8,6,0.7,0.6
2024-05-23T1000,1234A,121.8358,29.911,宁波市,区环保大楼,,31,20,41,11,18,32,,51,51,62,42,9,6,0.5,0.4
2024-05-23T1000,1235A,121.56,29.82,宁波市,万里学院,,22,22,41,11,24,70,,44,44,16,26,5,7,0.5,0.6
2024-05-23T1000,1236A,121.713,29.9572,宁波市,龙赛医院,,29,21,37,10,17,39,,50,50,57,33,16,8,0.6,0.4
2024-05-23T1000,1239A,121.633,29.7733,宁波市,钱湖水厂,,23,10,29,6,17,72,,46,46,9,16,4,5,0.5,0.5
2024-05-23T1000,1240A,121.5856,29.8635,宁波市,太古小学,,,17,31,8,21,,,37,37,13,32,6,8,0.6,0.7
2024-05-23T1000,1241A,121.524,29.8674,宁波市,市环境监测中心,,,24,37,10,20,,,42,42,17,29,8,11,0.6,0.6
2024-05-23T1000,2871A,121.6147,29.9017,宁波市,万里国际学校,,25,24,46,14,24,80,,35,35,14,38,4,7,0.4,0.5
2024-05-23T1000,3710A,121.5594,29.8975,宁波市,白沙活动中心,,25,15,41,10,15,77,,39,39,14,33,9,12,0.5,0.5
2024-05-23T1000,2339A,119.5001,26.6946,宁德市,金涵水库,,,,,,,,,,,,,,,,
2024-05-23T1000,2341A,119.5388,26.6612,宁德市,宁德市监测站,,30,30,20,20,16,44,,38,38,15,26,4,4,0.6,0.5
2024-05-23T1000,3209A,119.5231,26.6562,宁德市,宁德一中,,36,36,22,16,12,45,,34,34,17,15,6,6,0.6,0.5
2024-05-23T1000,2618A,98.8601,25.8567,怒江傈僳族自治州,州监测站,,26,18,26,18,21,70,,63,63,14,12,9,8,0.4,0.4
2024-05-23T1000,2619A,98.8546,25.8417,怒江傈僳族自治州,泸水一中,,45,40,35,31,23,52,,39,39,17,17,7,7,0.2,0.2
2024-05-23T1000,1888A,101.6891,26.571,攀枝花市,弄弄坪,颗粒物(PM10),57,64,43,28,23,104,,85,81,33,18,56,18,1.3,0.6
2024-05-23T1000,1889A,101.5769,26.5928,攀枝花市,河门口,,,,38,,20,103,,84,82,,18,,16,0.9,0.7
2024-05-23T1000,1890A,101.7169,26.585,攀枝花市,炳草岗,颗粒物(PM10),58,66,46,32,24,125,,74,70,26,21,71,28,1.2,0.8
2024-05-23T1000,1891A,101.7369,26.5008,攀枝花市,仁和,,43,40,36,30,24,107,,68,68,20,14,48,14,0.6,0.5
2024-05-23T1000,2835A,101.7227,26.567,攀枝花市,四十中小,颗粒物(PM10),52,54,42,24,23,125,,90,87,24,18,75,41,1.5,0.9
2024-05-23T1000,1604A,122.0303,41.1489,盘锦市,开发区,细颗粒物(PM2.5),68,66,39,49,50,52,,85,69,21,14,5,5,0.6,0.5
2024-05-23T1000,1605A,122.0485,41.0883,盘锦市,兴隆台,细颗粒物(PM2.5),63,50,37,45,29,39,,83,68,30,16,6,6,0.5,0.5
2024-05-23T1000,1606A,121.8297,41.1028,盘锦市,新生街道,,,35,40,21,31,76,,75,66,15,11,,5,,0.4
2024-05-23T1000,1832A,113.3257,33.742,平顶山市,新华旅馆,颗粒物(PM10),63,75,64,38,39,161,,96,96,21,23,7,8,0.5,0.5
2024-05-23T1000,1833A,113.2919,33.737,平顶山市,规划设计院,细颗粒物(PM2.5),54,,56,38,31,149,,105,105,18,17,4,5,0.5,0.4
2024-05-23T1000,1834A,113.182,33.774,平顶山市,平顶山工学院,,,,54,44,31,,,93,93,8,13,5,5,0.5,0.5
2024-05-23T1000,3204A,113.3025,33.73,平顶山市,规划局,颗粒物(PM10),64,78,71,38,36,148,,94,94,13,16,5,6,0.5,0.5
2024-05-23T1000,3594A,112.8867,33.9116,平顶山市,石龙区,臭氧1小时,80,75,88,43,35,184,,106,106,14,31,28,9,0.4,0.4
2024-05-23T1000,2656A,106.6692,35.5461,平凉市,聚贤嘉苑,颗粒物(PM10),52,53,54,25,22,142,,106,90,18,22,10,9,0.6,0.4
2024-05-23T1000,2657A,106.7021,35.5307,平凉市,博物馆,,,66,56,24,22,,,102,98,16,26,16,8,,0.4
2024-05-23T1000,2347A,114.0997,27.5002,萍乡市,武功山,,18,7,8,3,4,57,,21,21,3,4,14,12,0.3,0.3
2024-05-23T1000,2348A,113.8385,27.6434,萍乡市,中医院,,31,31,23,20,11,72,,23,23,11,13,8,4,1.4,0.6
2024-05-23T1000,2349A,113.8493,27.6253,萍乡市,市政府车库,,28,,16,19,14,70,,24,24,8,12,13,12,0.9,0.7
2024-05-23T1000,2350A,113.8676,27.6435,萍乡市,市环保局,,34,34,23,19,13,70,,23,23,12,14,10,8,1.6,0.6
2024-05-23T1000,2351A,113.866,27.6198,萍乡市,安源区政府,,38,38,22,7,9,70,,20,20,6,11,13,15,0.6,0.4
2024-05-23T1000,2319A,119.0141,25.4325,莆田市,荔城区仓后路,,,23,15,10,10,46,,34,30,,19,,5,0.8,0.8
2024-05-23T1000,2320A,119.0015,25.4553,莆田市,莆田市监测站,,21,21,11,9,7,44,,34,34,14,12,7,7,0.7,0.7
2024-05-23T1000,2321A,119.1119,25.4561,莆田市,涵江区六中,,20,20,15,11,11,40,,17,17,26,30,7,7,0.6,0.6
2024-05-23T1000,2322A,119.1013,25.3215,莆田市,秀屿区政府,,26,19,13,18,8,66,,64,59,10,8,8,7,0.7,0.7
2024-05-23T1000,2323A,118.981,25.4792,莆田市,东圳水库,,,,,,,,,,,,,,,,
2024-05-23T1000,2392A,115.0312,35.7636,濮阳市,环保局,颗粒物(PM10),59,68,55,35,27,122,,89,88,12,12,9,9,0.4,0.4
2024-05-23T1000,2394A,115.0574,35.7609,濮阳市,油田运输公司,,,78,64,31,26,,,86,82,10,11,11,11,0.3,0.3
2024-05-23T1000,2395A,115.0866,35.7754,濮阳市,油田物探公司,颗粒物(PM10),69,88,79,36,31,130,,83,83,9,12,10,11,0.3,0.2
2024-05-23T1000,3021A,115,35.7668,濮阳市,濮水河管理处,颗粒物(PM10),60,69,55,34,30,116,,96,94,11,10,10,9,0.4,0.3
2024-05-23T1000,2601A,100.98,22.7633,普洱市,市环保局,,,31,27,27,22,,,33,32,20,13,10,9,0.6,0.5
2024-05-23T1000,2602A,100.9817,22.8322,普洱市,普洱第二中学,,46,46,28,7,12,30,,18,18,21,15,15,12,0.7,0.6
2024-05-23T1000,2262A,131.0518,45.8751,七台河市,新一中,,30,11,32,7,14,95,,65,65,6,10,9,9,0.7,0.8
2024-05-23T1000,3345A,131.0577,45.7879,七台河市,中波台,,41,41,47,7,10,86,,57,57,10,21,5,9,0.4,0.4
2024-05-23T1000,3637A,131.0176,45.7761,七台河市,人民广场,,,37,45,14,22,82,,51,51,8,18,11,13,,0.5
2024-05-23T1000,3684A,130.8781,45.8222,七台河市,新建矿广场,,46,46,36,22,20,77,,54,54,15,19,14,10,0.3,0.5
2024-05-23T1000,1779A,123.9305,47.3636,齐齐哈尔市,安居小区,,40,40,26,3,11,72,,62,62,5,8,2,3,0.1,0.2
2024-05-23T1000,1780A,123.9488,47.3386,齐齐哈尔市,中心广场,,33,33,24,23,13,72,,65,64,4,8,7,7,0.3,0.3
2024-05-23T1000,1781A,123.9483,47.3227,齐齐哈尔市,农牧车辆厂,,,,32,,7,,,81,,,7,,7,,0.3
2024-05-23T1000,1783A,123.945,47.2988,齐齐哈尔市,市环境监测站,,37,37,27,3,13,73,,68,66,6,8,4,4,0.2,0.2
2024-05-23T1000,3662A,123.6333,47.2075,齐齐哈尔市,富区青少年活动中心,,,37,28,3,11,,,61,60,,13,,8,0.3,0.4
2024-05-23T1000,2591A,107.9783,26.5747,黔东南苗族侗族自治州,市环境监测站,,36,36,31,24,23,45,,26,24,14,19,3,3,0.6,0.6
2024-05-23T1000,2881A,107.8908,26.5311,黔东南苗族侗族自治州,凯里学院,,,,35,,22,,,18,16,12,10,,3,0.6,0.5
2024-05-23T1000,2593A,107.5228,26.2403,黔南布依族苗族自治州,小围寨,,19,19,24,9,16,45,,22,20,8,9,4,4,0.4,0.4
2024-05-23T1000,3538A,107.5175,26.2978,黔南布依族苗族自治州,沙坝,,24,24,26,9,16,40,,18,17,7,8,5,4,0.5,0.5
2024-05-23T1000,2589A,104.9022,25.0925,黔西南布依族苗族自治州,场坝街,,19,11,19,3,9,58,,50,46,19,13,18,8,0.5,0.4
2024-05-23T1000,2590A,104.8811,25.0992,黔西南布依族苗族自治州,坪东大道,,21,15,16,6,8,66,,42,42,13,13,12,5,0.4,0.4
2024-05-23T1000,2502A,108.6236,21.9667,钦州市,市环保站,,41,41,42,14,19,69,,38,38,12,15,8,9,0.8,1.1
2024-05-23T1000,2503A,108.6549,21.9481,钦州市,沙埠小学,,,,53,23,25,,,25,25,12,21,7,7,0.7,0.9
2024-05-23T1000,2504A,108.5989,21.7431,钦州市,港区一小,颗粒物(PM10),62,73,56,26,20,42,,29,26,38,27,10,8,0.7,0.8
2024-05-23T1000,3404A,108.5959,21.9633,钦州市,北职校,颗粒物(PM10),53,56,39,30,25,65,,30,30,11,13,11,8,1.1,1
2024-05-23T1000,1042A,119.5134,39.8207,秦皇岛市,北戴河环保局,颗粒物(PM10),59,67,66,35,28,62,,67,56,22,20,4,3,0.6,0.4
2024-05-23T1000,1043A,119.7493,40.0116,秦皇岛市,第一关,细颗粒物(PM2.5),74,88,78,54,53,40,,60,44,34,22,5,5,0.6,0.5
2024-05-23T1000,1044A,119.5897,39.9499,秦皇岛市,监测站,颗粒物(PM10),77,104,82,53,53,40,,73,54,44,23,8,8,0.8,0.7
2024-05-23T1000,1046A,119.5251,39.9041,秦皇岛市,建设大厦,颗粒物(PM10),60,70,77,31,35,44,,71,57,26,16,3,4,0.5,0.6
2024-05-23T1000,3132A,119.610547,39.943889,秦皇岛市,文明里,细颗粒物(PM2.5),77,102,82,56,52,52,,71,54,43,30,8,8,0.7,0.6
2024-05-23T1000,1307A,120.6659,36.2403,青岛市,仰口,,28,24,18,19,14,57,,34,34,9,10,4,4,0.2,0.2
2024-05-23T1000,1310A,120.4134,36.0658,青岛市,市南区东部子站,,32,,17,22,13,82,,81,81,4,4,6,6,0.4,0.4
2024-05-23T1000,1311A,120.3664,36.1032,青岛市,四方区子站,,,46,19,39,17,,,82,82,,12,,4,,0.4
2024-05-23T1000,1312A,120.2994,36.054,青岛市,市南区西部子站,,30,19,16,17,12,94,,86,86,3,14,6,6,0.4,0.4
2024-05-23T1000,1313A,120.4581,36.0858,青岛市,崂山区子站,,29,,14,19,13,91,,87,87,10,10,7,7,0.4,0.4
2024-05-23T1000,1314A,120.1983,35.9608,青岛市,黄岛区子站,,32,27,16,22,13,87,,87,87,9,7,6,5,0.5,0.4
2024-05-23T1000,1315A,120.3999,36.3083,青岛市,城阳区子站,,44,44,23,17,13,80,,76,76,27,19,7,7,0.7,0.4
2024-05-23T1000,1966A,120.0405,35.8735,青岛市,黄岛区4号,,39,27,20,27,12,83,,78,78,10,7,8,7,0.6,0.4
2024-05-23T1000,3362A,120.5014,36.4034,青岛市,即墨2号,,,50,28,20,13,97,,61,61,,17,,6,,0.5
2024-05-23T1000,3642A,120.3503,36.0736,青岛市,市北区南部,,29,17,16,14,9,90,,84,84,7,11,5,4,0.6,0.5
2024-05-23T1000,3643A,120.3948,36.1805,青岛市,李沧区北部,,49,,23,34,18,77,,72,72,19,14,8,8,0.5,0.4
2024-05-23T1000,1702A,113.0426,23.691,清远市,环保大楼,,18,18,15,12,10,30,,40,35,12,11,9,5,0.6,0.6
2024-05-23T1000,1703A,113.0208,23.7106,清远市,凤城街办,,25,25,19,17,11,37,,38,35,15,15,11,6,0.5,0.5
2024-05-23T1000,3025A,113.0477,23.6344,清远市,技师学院,,15,15,15,7,8,38,,32,31,10,14,4,5,0.7,0.7
2024-05-23T1000,3318A,112.9903,23.7403,清远市,清新太和,,36,36,21,9,14,22,,30,24,30,14,7,7,0.7,0.6
2024-05-23T1000,3455A,113.076,23.7198,清远市,清城东城,,,,19,,16,,,37,34,14,12,12,7,,0.7
2024-05-23T1000,2661A,107.6325,35.7357,庆阳市,庆阳五中,,46,44,45,21,20,147,,153,153,8,11,8,7,0.4,0.4
2024-05-23T1000,2662A,107.6364,35.7067,庆阳市,市环保局,颗粒物(PM10),51,52,41,21,18,142,,147,146,8,9,11,9,0.4,0.4
2024-05-23T1000,1916A,103.7897,25.5035,曲靖市,环境监测站,,50,50,37,18,16,85,,63,63,14,14,5,4,0.8,0.7
2024-05-23T1000,1917A,103.8,25.5364,曲靖市,烟厂办公区,,50,50,31,28,16,79,,59,59,21,15,5,5,0.8,0.6
2024-05-23T1000,3376A,103.7947,25.462,曲靖市,南苑二区,,32,32,30,20,17,93,,64,64,8,12,6,6,0.6,0.5
2024-05-23T1000,3377A,103.7444,25.5261,曲靖市,曲靖师范学院,,42,42,31,29,23,86,,55,55,15,20,14,9,0.8,0.6
2024-05-23T1000,1264A,118.8692,28.9398,衢州市,环保大楼,细颗粒物(PM2.5),62,58,42,44,32,116,,52,52,20,20,4,3,0.8,0.4
2024-05-23T1000,1265A,118.8709,28.9666,衢州市,实验学校,细颗粒物(PM2.5),60,54,44,43,30,114,,49,49,16,20,9,6,0.4,0.3
2024-05-23T1000,1266A,118.8621,28.9808,衢州市,衢州学院,,,62,40,,33,111,,38,38,19,20,,7,0.4,0.3
2024-05-23T1000,1611A,118.5819,24.9117,泉州市,涂山街,,20,14,9,10,8,63,,46,45,12,11,2,2,0.5,0.5
2024-05-23T1000,1612A,118.5972,24.8978,泉州市,津头埔,,15,12,9,7,7,45,,47,42,14,18,2,2,0.5,0.6
2024-05-23T1000,1613A,118.6663,24.9424,泉州市,万安,,17,17,11,11,7,41,,47,39,24,15,2,2,0.4,0.4
2024-05-23T1000,1614A,118.6117,24.9604,泉州市,清源山,,,,,,,,,,,,,,,,
2024-05-23T1000,3529A,118.6333,24.9264,泉州市,城华南路,,,,9,,20,,,67,,,17,,3,,0.3
2024-05-23T1000,2626A,88.8876,29.2718,日喀则市,日喀则监测站,,44,8,10,3,4,138,,121,121,8,6,5,5,0.5,0.5
2024-05-23T1000,3726A,88.8781,29.2426,日喀则市,林业技术推广中心,,42,13,12,6,11,132,,110,110,8,8,7,7,0.5,0.5
2024-05-23T1000,1659A,119.471,35.4209,日照市,监测站,颗粒物(PM10),63,75,46,35,30,44,,38,38,50,28,12,10,0.8,0.8
2024-05-23T1000,1660A,119.523,35.4216,日照市,市政府广场,颗粒物(PM10),53,56,40,33,22,63,,33,33,28,24,10,9,0.6,0.6
2024-05-23T1000,1661A,119.5587,35.4044,日照市,港务局,颗粒物(PM10),51,51,33,25,18,85,,,,10,13,8,6,0.5,0.5
2024-05-23T1000,3507A,119.5328,35.4625,日照市,职业技术学院,,,56,40,34,22,,,42,39,21,16,10,8,0.7,0.6
2024-05-23T1000,3604A,119.3266,35.1044,日照市,岚山环保分局,颗粒物(PM10),57,63,43,34,24,86,,47,47,24,17,12,9,0.5,0.6
2024-05-23T1000,1835A,111.1922,34.7752,三门峡市,市政府,颗粒物(PM10),54,58,56,26,26,151,,99,99,16,28,12,10,0.6,0.5
2024-05-23T1000,1836A,111.1587,34.7942,三门峡市,开发区,臭氧1小时,68,60,58,33,30,174,,115,115,15,19,16,13,0.6,0.6
2024-05-23T1000,1838A,111.143,34.7955,三门峡市,风景区,,,,,,,,,,,,,,,,
2024-05-23T1000,3039A,111.1911,34.7829,三门峡市,三门峡市第一小学,,,,59,,21,,,106,103,,21,14,11,0.5,0.5
2024-05-23T1000,3598A,111.1,34.7167,三门峡市,富达温泉假日酒店,颗粒物(PM10),54,58,60,34,24,122,,96,94,37,22,13,10,0.6,0.4
2024-05-23T1000,2324A,117.6211,26.2625,三明市,三钢,,13,9,14,7,10,40,,26,26,11,13,8,7,0.6,0.5
2024-05-23T1000,2325A,117.635,26.2714,三明市,三明二中,,18,18,12,7,6,39,,24,24,12,12,8,8,0.7,0.6
2024-05-23T1000,2326A,117.6028,26.2378,三明市,三元区政府,,23,,20,16,13,32,,13,13,17,16,8,8,0.8,0.6
2024-05-23T1000,2327A,117.7275,26.3108,三明市,洋溪,,,,,,,,,,,,,,,,
2024-05-23T1000,1876A,109.5078,18.2489,三亚市,河东子站,,,22,12,3,5,,,44,41,,6,,3,,0.5
2024-05-23T1000,1877A,109.4964,18.2681,三亚市,河西子站,,23,16,11,3,4,72,,43,43,4,6,2,2,0.3,0.3
2024-05-23T1000,3540A,109.7348,18.3443,三亚市,君悦子站,,24,24,17,3,2,64,,34,34,5,6,2,2,0.4,0.4
2024-05-23T1000,2624A,91.7608,29.2313,山南市,山南监测站,,35,9,12,3,6,112,,111,111,6,3,8,7,0.3,0.2
2024-05-23T1000,2625A,91.7706,29.2436,山南市,山南人民医院,,34,22,30,11,10,108,,110,109,12,10,7,7,0.3,0.3
2024-05-23T1000,1674A,116.6794,23.3667,汕头市,金平子站,,21,12,11,3,5,65,,66,66,16,15,3,3,0.6,0.5
2024-05-23T1000,1675A,116.7244,23.3633,汕头市,龙湖子站,,21,7,8,3,5,67,,71,71,11,10,5,5,0.6,0.6
2024-05-23T1000,1676A,116.7258,23.2775,汕头市,濠江子站,,19,14,7,3,5,59,,57,56,8,7,4,4,0.6,0.6
2024-05-23T1000,1677A,116.7519,23.4714,汕头市,澄海子站,,,11,9,10,7,,,64,,13,10,,5,0.8,0.8
2024-05-23T1000,1678A,116.6092,23.2539,汕头市,潮阳子站,,21,9,7,3,5,65,,60,59,7,7,3,3,0.6,0.6
2024-05-23T1000,3444A,116.454,23.2684,汕头市,潮南峡山,,18,9,8,6,4,56,,59,58,14,11,4,4,0.7,0.7
2024-05-23T1000,3624A,116.4069,23.2533,汕头市,潮南子站,,17,11,14,6,9,53,,52,52,12,14,6,6,0.8,0.8
2024-05-23T1000,1693A,115.3653,22.775,汕尾市,市环保局,,,8,10,3,5,,,47,47,7,5,,9,0.6,0.6
2024-05-23T1000,1694A,115.3706,22.7898,汕尾市,市政府,,16,7,11,3,5,49,,43,43,11,7,4,5,0.6,0.6
2024-05-23T1000,1695A,115.3622,22.7925,汕尾市,新城中学,,16,8,13,3,6,50,,42,42,8,7,6,6,0.6,0.5
2024-05-23T1000,2645A,109.9154,33.8715,商洛市,监测站,,45,45,36,19,21,98,,56,56,11,16,9,9,0.5,0.5
2024-05-23T1000,3045A,109.9643,33.8471,商洛市,商州区中学,颗粒物(PM10),53,55,43,28,21,100,,51,51,15,22,10,10,0.6,0.5
