timepoint,stationcode,longitude,latitude,area,positionname,primarypollutant,aqi,pm10,pm10_24h,pm2_5,pm2_5_24h,o3,o3_24h,o3_8h,o3_8h_24h,no2,no2_24h,so2,so2_24h,co,co_24h
2024-05-23T2300,2566A,102.1879,31.914,阿坝藏族羌族自治州,州农科所,,32,32,27,16,9,31,,53,44,10,11,2,2,0,0
2024-05-23T2300,2568A,102.2502,31.8896,阿坝藏族羌族自治州,马师校,,39,39,24,20,18,54,,127,100,27,13,4,4,0.3,0.3
2024-05-23T2300,3994A,102.2165,31.9024,阿坝藏族羌族自治州,马尔康中学西区,,38,30,25,26,14,76,,124,106,10,7,3,3,0.2,0.2
2024-05-23T2300,2695A,80.292,41.1694,阿克苏地区,电视台,"颗粒物(PM10),细颗粒物(PM2.5)",54,58,136,38,60,110,,114,112,9,11,1,5,0.4,0.4
2024-05-23T2300,2696A,80.2613,41.1551,阿克苏地区,艺术中心,颗粒物(PM10),62,74,134,32,49,106,,114,111,14,16,5,4,0.3,0.4
2024-05-23T2300,2204A,105.6467,38.8363,阿拉善盟,西城区西花园,颗粒物(PM10),190,330,142,102,45,161,,186,186,9,8,8,9,0.6,0.7
2024-05-23T2300,2205A,105.6985,38.8411,阿拉善盟,蒙二幼,颗粒物(PM10),147,244,138,84,44,153,,175,175,9,8,12,11,0.5,0.5
2024-05-23T2300,2206A,105.724,38.8516,阿拉善盟,环保局新楼,颗粒物(PM10),145,240,113,77,38,162,,184,184,10,7,11,10,0.6,0.5
2024-05-23T2300,2708A,88.1264,47.8517,阿勒泰地区,市站,,26,26,21,7,6,68,,84,80,10,11,5,5,0.4,0.4
2024-05-23T2300,2630A,80.1161,32.5,阿里地区,阿里监测站,,45,9,10,7,7,142,,160,158,11,9,9,8,0.5,0.4
2024-05-23T2300,3192A,80.0903,32.5028,阿里地区,阿里藏医院,,48,16,19,3,6,151,,165,163,3,5,8,9,0.5,0.5
2024-05-23T2300,2642A,109.0318,32.6537,安康市,香溪洞,,45,37,38,31,25,93,,122,117,8,7,7,7,0.6,0.5
2024-05-23T2300,2643A,109.0281,32.6939,安康市,安康市监测站,颗粒物(PM10),59,67,41,37,27,58,,128,100,17,10,13,9,0.7,0.5
2024-05-23T2300,2644A,109.0072,32.6975,安康市,汉滨区检察院,细颗粒物(PM2.5),55,58,38,39,29,52,,126,100,14,9,6,7,0.4,0.4
2024-05-23T2300,2291A,117.0809,30.5177,安庆市,环科院,,29,24,42,20,28,58,,134,102,27,22,4,6,0.5,0.5
2024-05-23T2300,2292A,117.0331,30.5119,安庆市,马山宾馆,,30,26,41,21,26,71,,142,111,14,16,7,9,0.4,0.4
2024-05-23T2300,2294A,116.9896,30.6145,安庆市,安庆大学,,25,25,37,16,24,64,,144,102,16,16,6,8,0.5,0.5
2024-05-23T2300,3173A,117.0598,30.5351,安庆市,市人大,,30,28,41,21,27,67,,138,107,20,21,6,8,0.5,0.5
2024-05-23T2300,3123A,105.9408,26.2431,安顺市,凤凰山,,31,19,19,15,13,99,,125,119,9,7,5,7,0.9,0.8
2024-05-23T2300,3124A,105.9439,26.2564,安顺市,金钟山,,32,21,19,18,15,101,,125,120,7,6,4,6,0.8,0.8
2024-05-23T2300,3125A,105.8983,26.2481,安顺市,娄家坡,,31,26,29,19,20,99,,124,117,5,5,4,9,0.5,0.5
2024-05-23T2300,1819A,114.3551,36.1017,安阳市,红庙街,颗粒物(PM10),65,80,83,32,36,119,,236,193,12,13,3,8,0.5,0.7
2024-05-23T2300,1820A,114.361,36.0681,安阳市,银杏小区,颗粒物(PM10),61,72,79,25,34,117,,230,187,6,9,5,9,0.5,0.8
2024-05-23T2300,3141A,114.3922,36.0878,安阳市,信访局,颗粒物(PM10),63,76,94,20,31,122,,228,185,9,13,6,9,0.5,0.7
2024-05-23T2300,3669A,114.4705,36.0637,安阳市,左辅环卫站,颗粒物(PM10),57,64,71,31,38,111,,219,173,20,14,7,9,0.4,0.4
2024-05-23T2300,3703A,114.2917,36.0949,安阳市,安钢职工学校,颗粒物(PM10),60,70,92,32,37,111,,223,184,18,16,7,12,0.6,0.5
2024-05-23T2300,1748A,123.044,41.1196,鞍山市,深沟寺,,22,22,19,15,13,27,,76,44,13,13,8,7,0.6,0.4
2024-05-23T2300,1749A,123.011,41.0931,鞍山市,太阳城,,23,23,31,14,19,49,,111,56,17,15,6,6,0.8,0.7
2024-05-23T2300,1750A,123.0485,41.1442,鞍山市,太平,,25,25,23,15,13,50,,78,58,21,20,7,5,0.5,0.4
2024-05-23T2300,1751A,122.9642,41.0971,鞍山市,铁西三道街,,29,29,47,14,26,57,,108,45,20,34,8,9,0.6,1.3
2024-05-23T2300,1752A,122.9341,41.0833,鞍山市,铁西工业园区,,35,35,49,24,30,31,,96,44,38,33,16,11,1.1,1.3
2024-05-23T2300,1753A,123.022,41.0821,鞍山市,明达新区,,22,21,31,15,19,46,,110,51,21,17,10,8,0.7,0.7
2024-05-23T2300,2195A,107.4212,40.761,巴彦淖尔市,附二中,颗粒物(PM10),174,297,243,97,65,75,,124,101,12,18,2,3,0.4,0.4
2024-05-23T2300,2196A,107.37,40.7372,巴彦淖尔市,市环保大楼,颗粒物(PM10),176,302,243,77,59,84,,124,108,10,12,5,6,0.3,0.3
2024-05-23T2300,1956A,86.1472,41.7538,巴音郭楞蒙古自治州,孔雀公园,颗粒物(PM10),115,179,101,44,31,43,,114,96,46,12,7,7,0.5,0.2
2024-05-23T2300,1957A,86.1972,41.7166,巴音郭楞蒙古自治州,棉纺厂,颗粒物(PM10),83,116,104,50,37,65,,116,102,29,12,5,3,0.2,0.2
2024-05-23T2300,1958A,86.2357,41.7173,巴音郭楞蒙古自治州,经济开发区,,,120,81,40,35,,,123,119,17,7,8,8,0.2,0.1
2024-05-23T2300,2914A,106.7677,31.8794,巴中市,苏山坪,,35,34,34,24,23,108,,130,122,9,9,4,4,0.5,0.4
2024-05-23T2300,3182A,106.7656,31.8545,巴中市,丽阳花园,细颗粒物(PM2.5),54,56,39,38,26,59,,141,111,25,19,5,5,0.5,0.5
2024-05-23T2300,3183A,106.7418,31.8654,巴中市,圣泉水务公司,细颗粒物(PM2.5),59,55,35,42,25,44,,134,99,46,22,5,4,0.4,0.3
2024-05-23T2300,3616A,106.7616,31.8344,巴中市,市中心医院,细颗粒物(PM2.5),54,50,38,38,27,52,,141,112,32,21,7,6,0.7,0.6
2024-05-23T2300,2235A,122.7911,45.6077,白城市,洮北区环保局,,20,15,16,8,7,64,,87,81,15,8,2,2,0.3,0.3
2024-05-23T2300,2236A,122.8738,45.5725,白城市,市环保局,,22,14,26,7,7,70,,85,80,11,7,3,4,0.3,0.3
2024-05-23T2300,2231A,126.4219,41.9171,白山市,喜丰,,20,20,27,9,15,24,,52,45,16,15,9,7,0.6,0.7
2024-05-23T2300,2232A,126.4077,41.9419,白山市,环保局,,30,30,44,15,16,37,,91,63,12,10,8,10,0.5,0.7
2024-05-23T2300,2647A,104.1724,36.5446,白银市,第三小学,颗粒物(PM10),98,146,96,61,40,77,,145,123,83,30,24,45,1.0,0.7
2024-05-23T2300,2648A,104.1465,36.5482,白银市,动力公司,颗粒物(PM10),93,136,87,51,35,43,,158,129,70,25,14,37,0.6,0.7
2024-05-23T2300,2512A,106.6103,23.9011,百色市,市监测站,,38,38,41,26,21,58,,131,105,22,17,9,11,0.8,0.7
2024-05-23T2300,2513A,106.6538,23.8859,百色市,市中心血站,颗粒物(PM10),64,78,51,34,28,40,,109,90,42,19,12,13,0.7,0.7
2024-05-23T2300,3406A,106.6085,23.8798,百色市,祈福高中,颗粒物(PM10),67,83,50,32,27,29,,126,94,40,20,8,15,0.8,0.8
2024-05-23T2300,2270A,117.396,32.939,蚌埠市,工人疗养院,颗粒物(PM10),66,81,52,41,26,135,,204,180,22,16,8,10,0.5,0.4
2024-05-23T2300,2271A,117.3605,32.9427,蚌埠市,百货大楼,颗粒物(PM10),66,81,52,46,27,120,,201,177,36,17,6,7,0.5,0.5
2024-05-23T2300,2273A,117.4185,32.8911,蚌埠市,蚌埠学院,细颗粒物(PM2.5),59,66,46,42,29,112,,182,160,34,13,9,9,0.5,0.4
2024-05-23T2300,2274A,117.3533,32.9673,蚌埠市,淮上区政府,细颗粒物(PM2.5),63,73,52,45,29,141,,196,176,16,13,8,9,0.4,0.4
2024-05-23T2300,2275A,117.3145,32.8977,蚌埠市,高新区,颗粒物(PM10),57,63,51,37,30,148,,194,174,13,9,7,8,0.5,0.4
2024-05-23T2300,3715A,117.3092,32.9314,蚌埠市,蚌埠田家炳中学,颗粒物(PM10),60,69,50,40,28,121,,207,177,30,13,11,9,0.5,0.4
2024-05-23T2300,1585A,109.8756,40.6532,包头市,市环境监测站,颗粒物(PM10),90,130,91,28,28,88,,210,147,13,25,10,19,0.3,0.6
2024-05-23T2300,1587A,109.9991,40.5842,包头市,包头八中,颗粒物(PM10),96,142,75,34,35,89,,214,166,17,19,10,14,0.6,0.7
2024-05-23T2300,1588A,109.8538,40.6821,包头市,青山宾馆,颗粒物(PM10),78,105,92,32,37,85,,212,144,13,25,13,22,0.5,1
2024-05-23T2300,1589A,109.8642,40.6288,包头市,惠龙物流,颗粒物(PM10),87,124,82,26,32,89,,208,148,14,23,11,21,0.4,0.7
2024-05-23T2300,1590A,110.0377,40.5546,包头市,东河鸿龙湾,颗粒物(PM10),90,130,69,36,26,89,,206,164,20,20,8,11,0.7,0.5
2024-05-23T2300,3283A,109.9154,40.5685,包头市,滨河大厦,颗粒物(PM10),78,105,69,39,24,88,,196,150,11,20,11,14,0.5,0.6
2024-05-23T2300,3419A,109.9447,40.6261,包头市,包头市委党校,颗粒物(PM10),86,122,82,26,25,90,,209,152,15,20,10,17,0.3,0.5
2024-05-23T2300,3683A,109.8331,40.6576,包头市,昆区政府,颗粒物(PM10),84,118,83,23,33,87,,182,,18,27,12,28,0.5,1.2
2024-05-23T2300,1930A,107.185,34.3063,宝鸡市,庙沟村,,45,32,40,20,23,141,,166,158,10,11,9,9,0.6,0.6
2024-05-23T2300,1931A,107.0708,34.3017,宝鸡市,竹园沟,,35,33,37,21,22,110,,190,159,19,15,6,7,0.5,0.5
2024-05-23T2300,1932A,107.1906,34.3672,宝鸡市,三陆医院,,44,44,53,18,30,97,,190,161,42,25,8,9,0.7,0.6
2024-05-23T2300,1933A,107.1431,34.3547,宝鸡市,监测站,,41,41,45,24,26,94,,183,157,38,23,8,8,0.5,0.5
2024-05-23T2300,1934A,107.1186,34.3739,宝鸡市,技工学校,,43,39,49,30,27,127,,190,168,20,17,7,8,0.5,0.5
2024-05-23T2300,1935A,107.3906,34.3528,宝鸡市,陈仓区环保局家属楼,颗粒物(PM10),56,61,43,32,30,80,,196,162,50,30,6,14,0.5,0.6
2024-05-23T2300,1936A,107.2058,34.3497,宝鸡市,文理学院,颗粒物(PM10),52,54,50,17,26,111,,190,164,28,19,7,9,0.4,0.4
2024-05-23T2300,1937A,107.2386,34.3622,宝鸡市,三迪小学,颗粒物(PM10),54,58,54,21,29,91,,186,155,36,20,8,10,0.7,0.6
2024-05-23T2300,1051A,115.493,38.8632,保定市,游泳馆,颗粒物(PM10),131,211,132,18,35,77,,201,146,9,6,1,5,0.2,0.3
2024-05-23T2300,1052A,115.5213,38.8959,保定市,华电二区,颗粒物(PM10),57,63,81,22,31,75,,204,147,13,14,3,4,0.3,0.4
2024-05-23T2300,1053A,115.4713,38.9108,保定市,接待中心,颗粒物(PM10),54,57,62,17,39,72,,198,142,8,7,4,3,0.3,0.4
2024-05-23T2300,1054A,115.4612,38.8416,保定市,地表水厂,颗粒物(PM10),65,80,82,19,44,77,,189,,8,12,4,6,0.6,0.9
2024-05-23T2300,3581A,115.31981,38.95208,保定市,满城区生态环境分局,颗粒物(PM10),59,68,105,22,39,107,,192,151,3,11,5,4,0.3,0.3
2024-05-23T2300,3582A,115.47694,38.76408,保定市,清苑区第二中学,颗粒物(PM10),61,71,94,16,39,75,,209,151,11,12,2,5,0.4,0.5
2024-05-23T2300,4004A,115.4202,38.8656,保定市,双鹰农机,颗粒物(PM10),65,79,93,37,37,83,,220,161,11,12,3,6,0.3,0.3
2024-05-23T2300,4034A,115.5150,38.8590,保定市,植保所站,颗粒物(PM10),67,83,102,37,46,78,,216,155,13,16,3,6,0.3,0.5
2024-05-23T2300,2594A,99.1678,25.1081,保山市,市环境监测站,,30,28,36,21,15,69,,131,111,7,9,4,4,0.4,0.4
2024-05-23T2300,2595A,99.1711,25.1328,保山市,市环保局,,39,39,40,18,13,82,,138,120,5,7,5,5,0.6,0.5
2024-05-23T2300,1867A,109.1436,21.4086,北海市,海滩公园,,28,16,14,3,5,89,,107,102,4,5,4,6,0.6,0.6
2024-05-23T2300,1868A,109.0981,21.4661,北海市,新市环保局,,30,,16,14,8,94,,111,107,5,7,6,6,0.5,0.6
2024-05-23T2300,1869A,109.1778,21.5233,北海市,北海工业园,,25,22,23,10,13,80,,106,96,8,10,4,6,0.6,0.6
2024-05-23T2300,3400A,109.1911,21.4415,北海市,龙潭自来水厂,,28,,14,14,12,88,,106,99,6,8,6,6,0.5,0.6
2024-05-23T2300,1001A,116.3621,39.8784,北京市,万寿西宫,颗粒物(PM10),51,51,84,16,44,62,,181,111,20,20,4,2,0.7,0.7
2024-05-23T2300,1002A,116.2202,40.2915,北京市,定陵,,49,49,95,20,58,63,,145,101,14,15,1,3,0.6,0.7
2024-05-23T2300,1003A,116.4174,39.9289,北京市,东四,颗粒物(PM10),53,55,81,17,41,59,,157,96,23,25,6,4,0.6,0.5
2024-05-23T2300,1004A,116.4072,39.8863,北京市,天坛,,46,46,73,16,40,59,,168,102,17,17,6,4,0.7,0.7
2024-05-23T2300,1005A,116.462,39.9365,北京市,农展馆,,48,48,79,16,42,52,,172,96,21,21,5,3,0.8,0.7
2024-05-23T2300,1006A,116.3392,39.9295,北京市,官园,,42,42,86,19,41,64,,166,109,16,15,7,4,0.7,0.6
2024-05-23T2300,1007A,116.2878,39.9611,北京市,海淀万柳,,50,50,94,18,51,66,,161,110,21,27,7,6,0.6,0.6
2024-05-23T2300,1008A,116.6636,40.135,北京市,顺义新城,,43,43,82,13,42,64,,144,87,15,19,2,2,0.4,0.5
2024-05-23T2300,1009A,116.6275,40.3275,北京市,怀柔镇,,48,48,80,16,50,67,,127,88,13,13,4,3,0.5,0.7
2024-05-23T2300,1010A,116.2296,40.217,北京市,昌平镇,颗粒物(PM10),51,51,98,20,56,60,,127,83,16,18,3,2,0.6,0.7
2024-05-23T2300,1011A,116.3966,39.9821,北京市,奥体中心,,45,45,77,16,40,62,,156,96,21,21,2,2,0.6,0.6
2024-05-23T2300,1012A,116.184,39.9136,北京市,古城,颗粒物(PM10),53,56,124,19,58,57,,150,110,22,30,5,2,0.8,0.9
2024-05-23T2300,3281A,115.9718,40.4529,北京市,延庆夏都,颗粒物(PM10),63,76,109,37,68,88,,152,135,12,14,1,2,0.6,0.7
2024-05-23T2300,3417A,117.0709,40.1465,北京市,平谷新城,,35,35,86,12,48,62,,146,89,12,11,2,2,0.4,0.6
2024-05-23T2300,3418A,116.8336,40.4095,北京市,密云新城,,50,50,83,13,45,71,,119,85,8,11,1,2,0.3,0.5
2024-05-23T2300,3672A,116.1541,39.8204,北京市,丰台云岗,颗粒物(PM10),59,67,95,31,46,59,,148,90,16,23,3,2,0.6,0.7
2024-05-23T2300,3673A,116.6804,39.9081,北京市,通州东关,颗粒物(PM10),52,54,81,15,40,53,,148,80,18,18,3,3,0.6,0.6
2024-05-23T2300,3674A,115.9577,39.7603,北京市,房山燕山,颗粒物(PM10),62,74,114,43,55,70,,156,110,13,20,3,3,0.5,0.7
2024-05-23T2300,3675A,116.4672,39.7733,北京市,大兴旧宫,,39,39,77,12,39,60,,156,102,15,15,2,2,0.7,0.6
2024-05-23T2300,3694A,115.986,40.4563,北京市,延庆石河营,细颗粒物(PM2.5),53,53,93,37,71,84,,150,131,13,11,3,3,0.6,0.7
2024-05-23T2300,3695A,116.6151,40.3053,北京市,怀柔新城,,44,44,79,17,49,61,,120,84,17,13,1,2,0.5,0.7
2024-05-23T2300,3696A,116.2545,39.8768,北京市,丰台小屯,,47,47,87,19,44,55,,153,102,18,22,3,2,0.6,0.5
2024-05-23T2300,3697A,116.84,40.3844,北京市,密云镇,,46,46,80,15,47,72,,120,83,10,15,3,3,0.3,0.5
2024-05-23T2300,1761A,123.8275,41.3064,本溪市,大峪,,17,17,19,8,10,45,,88,55,10,16,10,9,0.6,0.6
2024-05-23T2300,1762A,123.7567,41.3325,本溪市,溪湖,,17,13,20,9,12,54,,82,63,11,15,6,7,0.5,0.8
2024-05-23T2300,1763A,123.7169,41.3094,本溪市,彩屯,,26,24,26,18,17,28,,54,44,36,32,7,13,0.8,1.7
2024-05-23T2300,1764A,123.7669,41.2864,本溪市,东明,,30,30,18,9,10,50,,91,56,13,15,9,10,0.6,0.6
2024-05-23T2300,1765A,123.7992,41.2664,本溪市,新立屯,颗粒物(PM10),52,53,21,12,10,53,,99,56,10,10,11,11,0.5,0.5
2024-05-23T2300,1766A,123.8142,41.3472,本溪市,威宁,,,,26,7,11,26,,35,35,22,16,6,11,3.0,1.6
2024-05-23T2300,2587A,105.2864,27.3125,毕节市,八中,,50,50,37,32,23,79,,141,118,18,13,6,7,0.5,0.5
2024-05-23T2300,2588A,105.31,27.2944,毕节市,师专,细颗粒物(PM2.5),60,66,37,43,23,73,,143,124,22,14,8,9,0.6,0.5
2024-05-23T2300,3537A,105.3631,27.3533,毕节市,长征村,,,54,37,42,28,94,,156,139,16,11,,7,0.5,0.4
2024-05-23T2300,1629A,118.0018,37.3617,滨州市,第二水厂,颗粒物(PM10),53,56,73,31,30,87,,217,146,12,16,5,9,0.6,0.8
2024-05-23T2300,1630A,117.9776,37.393,滨州市,北中新校,颗粒物(PM10),51,51,74,29,30,84,,218,141,16,20,8,12,0.7,0.9
2024-05-23T2300,3514A,117.9378,37.3956,滨州市,中海酒店,,42,41,68,29,32,90,,224,151,13,16,4,9,0.7,0.8
2024-05-23T2300,3515A,117.9378,37.3553,滨州市,开发区一中,,44,44,79,22,33,85,,210,142,5,13,6,11,0.4,0.6
2024-05-23T2300,3516A,118.0917,37.694,滨州市,金海六路,,44,44,76,19,29,79,,212,126,4,19,3,7,0.3,0.5
2024-05-23T2300,4028A,117.9956,37.3753,滨州市,滨州市西街道办事处,,42,34,74,29,35,85,,216,143,12,17,4,9,0.5,0.7
2024-05-23T2300,2311A,115.8072,33.8399,亳州市,污水处理厂,颗粒物(PM10),56,61,43,28,24,144,,174,165,16,11,7,6,0.5,0.4
2024-05-23T2300,2312A,115.7789,33.8518,亳州市,三国揽胜宫,颗粒物(PM10),53,55,44,32,22,154,,179,172,9,5,12,11,0.4,0.3
2024-05-23T2300,3332A,115.7633,33.8034,亳州市,亳州学院,颗粒物(PM10),55,59,43,33,22,150,,174,167,12,8,5,7,0.3,0.3
2024-05-23T2300,2693A,82.0485,44.8556,博尔塔拉蒙古自治州,市党校,,28,21,19,3,10,88,,95,94,13,13,12,11,0.2,0.3
2024-05-23T2300,2694A,82.0806,44.8969,博尔塔拉蒙古自治州,市环保局,,,,22,,10,93,,98,98,13,11,10,10,0.4,0.2
2024-05-23T2300,1071A,116.8842,38.2991,沧州市,沧县城建局,,39,39,64,21,26,83,,171,122,8,10,2,6,0.4,0.6
2024-05-23T2300,1072A,116.8584,38.3254,沧州市,电视转播站,,46,46,64,14,29,82,,163,119,7,7,4,4,0.1,0.3
2024-05-23T2300,1073A,116.8709,38.3228,沧州市,市环保局,,47,47,67,20,31,79,,167,117,9,11,4,6,0.2,0.4
2024-05-23T2300,3324A,116.8136,38.3004,沧州市,河北水利电力学院,,28,24,65,9,27,88,,187,130,7,11,5,7,0.1,0.3
2024-05-23T2300,2622A,97.1806,31.1273,昌都市,昌都监测站,,34,14,14,13,9,107,,149,142,21,7,7,7,0.6,0.4
2024-05-23T2300,3719A,97.1714,31.1406,昌都市,昌都会议中心,,42,18,14,12,7,133,,173,166,15,7,6,6,0.2,0.2
2024-05-23T2300,2690A,88.1236,43.8886,昌吉回族自治州,天山天池,,23,14,16,8,9,73,,103,92,6,7,3,11,0.5,0.5
2024-05-23T2300,2692A,87.2717,44.0297,昌吉回族自治州,新区政务中心,,19,13,27,11,9,59,,95,88,14,19,7,7,0.2,0.2
2024-05-23T2300,3613A,87.3095,44.0142,昌吉回族自治州,亚心广场,,24,12,29,3,3,76,,97,92,16,20,7,7,0.4,0.4
2024-05-23T2300,1119A,125.3325,43.9166,长春市,食品厂,颗粒物(PM10),55,60,27,25,15,25,,87,65,54,22,8,6,0.4,0.2
2024-05-23T2300,1120A,125.2863,43.9027,长春市,客车厂,颗粒物(PM10),56,61,29,29,17,11,,82,54,64,23,5,5,0.5,0.3
2024-05-23T2300,1121A,125.2841,43.8463,长春市,邮电学院,,46,46,27,19,14,46,,87,75,36,15,7,7,0.3,0.3
2024-05-23T2300,1122A,125.3716,43.8772,长春市,劳动公园,,49,49,25,19,9,35,,94,78,47,20,5,5,0.4,0.2
2024-05-23T2300,1123A,125.3297,43.8805,长春市,园林处,,39,39,22,20,14,29,,88,71,50,20,6,7,0.2,0.2
2024-05-23T2300,1124A,125.4605,43.79,长春市,净月潭,,34,34,23,9,10,44,,91,78,24,9,8,8,0.5,0.5
2024-05-23T2300,1126A,125.3863,43.8447,长春市,经开区环卫处,,32,32,25,16,10,34,,93,78,28,15,5,5,0.4,0.4
2024-05-23T2300,1127A,125.245,43.7783,长春市,高新区管委会,颗粒物(PM10),71,91,30,29,14,6,,87,63,63,18,7,6,0.4,0.3
2024-05-23T2300,1128A,125.1761,43.8325,长春市,岱山公园,,43,43,25,12,16,11,,89,67,69,23,9,5,0.4,0.3
2024-05-23T2300,1335A,113.0833,28.2325,长沙市,经开区环保局,细颗粒物(PM2.5),69,72,35,50,24,116,,176,166,27,14,9,8,0.9,0.5
2024-05-23T2300,1336A,112.8872,28.2189,长沙市,高开区环保局,,,81,40,25,19,65,,170,152,,21,5,5,,0.7
2024-05-23T2300,1337A,113.0792,28.2053,长沙市,马坡岭,颗粒物(PM10),71,91,37,49,24,50,,166,141,52,15,9,7,1.1,0.7
2024-05-23T2300,1338A,112.9394,28.19,长沙市,湖南师范大学,,47,47,36,29,22,84,,172,144,19,12,4,4,0.6,0.7
2024-05-23T2300,1339A,113.0178,28.1322,长沙市,雨花区环保局,,48,48,34,27,17,107,,170,157,40,17,6,6,0.7,0.4
2024-05-23T2300,1340A,112.9792,28.2597,长沙市,伍家岭,颗粒物(PM10),73,95,44,48,24,2,,168,115,96,25,6,5,0.9,0.4
2024-05-23T2300,1341A,113.0014,28.1944,长沙市,火车新站,细颗粒物(PM2.5),83,79,40,61,28,41,,167,128,79,24,4,3,1.3,0.7
2024-05-23T2300,1342A,112.9844,28.1178,长沙市,天心区环保局,颗粒物(PM10),56,62,43,38,26,67,,158,124,68,36,3,3,1.5,1
2024-05-23T2300,1343A,112.8908,28.1308,长沙市,湖南中医药大学,颗粒物(PM10),62,74,40,36,24,2,,166,104,73,25,6,3,1.1,0.9
2024-05-23T2300,1344A,112.9581,28.3611,长沙市,沙坪,,43,32,24,30,17,101,,176,145,11,11,7,7,0.5,0.3
2024-05-23T2300,1727A,113.1147,36.1547,长治市,清华站,臭氧1小时,65,49,50,22,22,172,,214,201,14,17,10,11,0.4,0.4
2024-05-23T2300,1728A,113.1031,36.1989,长治市,监测站,臭氧1小时,59,57,62,22,24,167,,215,205,20,19,4,5,0.6,0.7
2024-05-23T2300,1730A,113.0886,36.2125,长治市,审计局,臭氧1小时,78,46,48,19,22,182,,218,210,11,11,14,15,0.3,0.4
2024-05-23T2300,1731A,113.0844,36.1856,长治市,长治八中,臭氧1小时,78,62,65,24,24,182,,216,208,21,20,9,10,0.6,0.6
2024-05-23T2300,2845A,113.1569,36.1911,长治市,德盛苑,臭氧1小时,87,54,50,22,24,189,,217,210,11,9,8,8,0.7,0.7
2024-05-23T2300,3568A,113.06,36.0464,长治市,向阳小学,臭氧1小时,65,62,65,42,37,172,,220,210,19,13,12,12,0.6,0.6
2024-05-23T2300,3569A,112.8792,36.3144,长治市,屯留一中,臭氧1小时,68,68,56,34,28,174,,219,211,14,17,12,12,0.3,0.3
2024-05-23T2300,3570A,113.235,36.3489,长治市,潞城四中,臭氧1小时,97,72,72,26,31,197,,241,224,8,16,6,7,0.8,0.7
2024-05-23T2300,1854A,111.6975,28.9703,常德市,市二中,,49,49,47,34,33,120,,177,156,23,13,8,8,0.6,0.5
2024-05-23T2300,3138A,111.7153,29.0289,常德市,武陵区永安,细颗粒物(PM2.5),65,58,55,47,36,142,,184,165,13,13,9,11,0.4,0.4
2024-05-23T2300,3139A,111.6892,28.9881,常德市,鼎城区玉霞,细颗粒物(PM2.5),57,54,52,40,33,129,,180,159,10,14,13,7,0.5,0.5
2024-05-23T2300,3140A,111.6625,29.0531,常德市,武陵区长庚,颗粒物(PM10),51,51,55,34,33,143,,179,164,11,12,8,11,0.6,0.6
2024-05-23T2300,1196A,119.9633,31.762,常州市,市监测站,,41,41,71,26,34,108,,185,169,19,26,9,11,0.5,0.6
2024-05-23T2300,1200A,119.9468,31.7069,常州市,武进监测站,,42,42,56,24,26,113,,181,170,12,17,11,11,0.5,0.5
2024-05-23T2300,1201A,119.9255,31.9087,常州市,安家,颗粒物(PM10),57,63,70,38,33,73,,199,163,43,26,9,9,0.6,0.6
2024-05-23T2300,3002A,119.9805,31.8174,常州市,行政中心,,42,42,67,19,28,115,,185,170,12,23,8,11,0.3,0.5
2024-05-23T2300,3003A,120.0522,31.7748,常州市,经开区,,34,31,60,21,29,107,,189,170,21,26,9,9,0.5,0.5
2024-05-23T2300,3010A,119.9025,31.7964,常州市,钟楼,,36,32,52,23,27,115,,179,169,16,23,7,9,0.6,0.7
2024-05-23T2300,3429A,119.8598,31.7066,常州市,武进经发区,,41,41,51,25,31,116,,172,162,16,20,10,11,0.4,0.4
2024-05-23T2300,3430A,119.5826,31.7245,常州市,金坛城区,,43,43,41,20,25,128,,165,160,16,14,11,9,0.7,0.5
2024-05-23T2300,2220A,120.4318,41.5881,朝阳市,西梁,,15,15,59,6,34,36,,95,69,29,12,7,8,0.4,0.6
2024-05-23T2300,2221A,120.4521,41.5646,朝阳市,河畔小区,,20,18,62,9,29,63,,97,77,10,10,8,10,0.4,0.5
2024-05-23T2300,2222A,120.4176,41.5648,朝阳市,八里堡,,23,23,60,10,35,56,,93,74,18,11,9,9,0.5,0.8
2024-05-23T2300,2223A,120.3806,41.5969,朝阳市,农业园区,,18,13,58,6,30,22,,90,64,36,13,8,10,0.4,0.6
2024-05-23T2300,1705A,116.6367,23.6719,潮州市,西园路,,20,20,18,13,12,51,,50,48,14,17,3,5,0.3,0.5
2024-05-23T2300,3026A,116.6183,23.6608,潮州市,市政府,,17,12,18,11,10,53,,54,53,15,17,5,8,0.8,0.8
2024-05-23T2300,4036A,116.6461,23.6761,潮州市,金山,,19,,17,13,14,50,,52,50,14,15,6,10,0.7,0.7
2024-05-23T2300,2472A,113.0073,25.9061,郴州市,马头岭,,28,28,23,10,9,51,,92,78,8,7,3,4,0.5,0.5
2024-05-23T2300,2473A,113.0116,25.8226,郴州市,市职中,,34,34,22,22,16,17,,103,70,20,11,5,7,0.7,0.7
2024-05-23T2300,2474A,113.0161,25.8001,郴州市,兴隆步行街,,47,47,30,28,18,16,,100,72,26,10,6,7,0.9,0.7
2024-05-23T2300,2475A,113.0383,25.8071,郴州市,市审计局,,32,32,21,22,18,21,,101,77,24,12,4,5,0.7,0.7
2024-05-23T2300,2476A,113.0348,25.7759,郴州市,市环保局,,34,34,26,17,18,18,,95,69,29,19,4,4,0.8,0.8
2024-05-23T2300,1431A,103.9728,30.7236,成都市,金泉两河,细颗粒物(PM2.5),78,60,62,57,37,104,,196,170,24,18,2,3,0.5,0.5
2024-05-23T2300,1432A,104.176,30.6872,成都市,十里店,颗粒物(PM10),57,64,61,38,35,138,,205,184,28,27,4,4,0.7,0.7
2024-05-23T2300,1433A,104.079,30.5706,成都市,三瓦窑,细颗粒物(PM2.5),63,65,58,45,36,92,,180,156,53,32,3,3,0.8,0.6
2024-05-23T2300,1434A,104.1114,30.63,成都市,沙河铺,细颗粒物(PM2.5),62,50,49,44,29,97,,188,156,31,23,4,5,0.7,0.6
2024-05-23T2300,1437A,104.0786,30.6531,成都市,君平街,颗粒物(PM10),53,55,68,29,40,154,,209,187,23,23,3,6,0.6,0.6
2024-05-23T2300,2880A,104.0239,30.65639,成都市,大石西路,颗粒物(PM10),53,56,58,33,34,147,,213,187,22,24,4,4,0.5,0.6
2024-05-23T2300,3136A,104.2725,30.5589,成都市,龙泉驿区区政府,,49,34,29,22,18,156,,170,164,12,8,3,3,0.5,0.5
2024-05-23T2300,3357A,104.0106,30.6931,成都市,金博路,"颗粒物(PM10),细颗粒物(PM2.5)",59,68,62,42,39,126,,211,181,23,24,2,2,0.7,0.7
2024-05-23T2300,3359A,104.0578,30.5225,成都市,华阳,,49,41,52,34,37,137,,184,171,18,21,2,3,0.7,0.7
2024-05-23T2300,3487A,104.2394,30.5319,成都市,车城东七路,臭氧1小时,58,36,42,24,27,166,,172,170,8,9,3,3,0.5,0.5
2024-05-23T2300,3488A,104.3853,30.7453,成都市,青白江技师分院,,38,24,28,15,14,121,,198,180,32,14,3,4,0.5,0.6
2024-05-23T2300,3489A,104.0789,30.4072,成都市,科学城,细颗粒物(PM2.5),53,54,50,37,35,128,,190,177,20,20,5,5,0.7,0.7
2024-05-23T2300,4011A,103.8506,30.6947,成都市,光华大道三段,颗粒物(PM10),54,58,53,31,31,108,,186,169,36,14,1,2,0.7,0.6
2024-05-23T2300,1062A,117.9531,40.9081,承德市,铁路,,20,20,80,3,38,59,,108,67,15,20,7,8,0.2,0.4
2024-05-23T2300,1063A,117.9392,40.9763,承德市,中国银行,,20,14,76,3,37,64,,90,76,10,13,8,8,0.1,0.4
2024-05-23T2300,1064A,117.9503,40.928,承德市,开发区,,36,36,72,15,40,50,,105,69,22,20,5,6,0.3,0.5
2024-05-23T2300,1065A,117.8051,40.9655,承德市,文化中心,,22,22,90,3,40,51,,122,71,9,15,7,8,0.2,0.4
2024-05-23T2300,1066A,117.9268,41.0026,承德市,离宫,,33,24,75,23,46,20,,82,48,7,10,3,3,0.2,0.4
2024-05-23T2300,2314A,117.47,30.6618,池州市,池州学院,细颗粒物(PM2.5),55,58,44,39,27,64,,145,118,20,18,5,8,0.5,0.6
2024-05-23T2300,3237A,117.4918,30.6617,池州市,展览馆,,39,39,37,20,24,72,,139,115,15,13,4,5,0.5,0.7
2024-05-23T2300,3333A,117.5627,30.695,池州市,第八中学,,35,35,41,24,25,71,,147,115,16,14,7,7,0.5,0.7
2024-05-23T2300,3334A,117.5038,30.6243,池州市,第十二中学,细颗粒物(PM2.5),53,46,40,37,26,38,,141,114,42,24,4,6,0.6,0.7
2024-05-23T2300,1744A,118.9233,42.2816,赤峰市,松山一中,,26,26,55,12,12,45,,93,52,34,25,12,13,0.6,0.5
2024-05-23T2300,1745A,118.9576,42.2728,赤峰市,哈达街,,21,21,41,14,21,37,,87,48,31,22,13,16,0.6,0.5
2024-05-23T2300,1746A,118.8788,42.2554,赤峰市,天义路,,22,22,38,10,13,54,,94,60,22,20,8,8,0.3,0.3
2024-05-23T2300,3058A,119.2658,42.0353,赤峰市,银河街,,24,24,84,16,23,50,,84,61,22,17,12,11,0.3,0.3
2024-05-23T2300,3286A,118.9359,42.3147,赤峰市,桥北物流园区,,29,28,38,20,18,31,,96,50,35,18,8,6,0.7,0.6
2024-05-23T2300,2521A,107.3476,22.4136,崇左市,市环保局江州分局,,,60,37,23,18,40,,123,99,,14,8,8,0.7,0.6
2024-05-23T2300,2522A,107.3702,22.3707,崇左市,城南新区,,32,32,33,16,18,53,,114,93,16,13,5,6,0.6,0.6
2024-05-23T2300,2298A,118.3093,32.3153,滁州市,老年大学,颗粒物(PM10),52,54,55,33,31,114,,199,174,25,24,8,9,0.5,0.6
2024-05-23T2300,2299A,118.3244,32.2786,滁州市,人大宾馆,颗粒物(PM10),51,51,49,35,35,111,,195,170,27,27,7,8,0.6,0.7
2024-05-23T2300,3207A,118.3118,32.3038,滁州市,市政府原办公楼,细颗粒物(PM2.5),54,53,57,38,37,105,,193,164,33,29,7,9,0.6,0.7
2024-05-23T2300,3331A,118.3267,32.2634,滁州市,图书馆,颗粒物(PM10),56,61,55,39,33,111,,197,175,30,27,10,11,0.7,0.7
2024-05-23T2300,2605A,101.5482,25.0441,楚雄彝族自治州,州环境监测站,,26,24,24,18,20,76,,122,101,15,11,5,6,0.6,0.5
2024-05-23T2300,2606A,101.538,25.0492,楚雄彝族自治州,市经济开发区,,27,27,26,18,18,74,,118,94,19,12,5,5,0.7,0.5
2024-05-23T2300,2548A,107.5277,31.2827,达州市,达州职业技术学院,,33,33,33,17,15,17,,142,95,66,32,6,7,0.4,0.4
2024-05-23T2300,2549A,107.5086,31.2186,达州市,市环境监测站,,46,46,47,17,17,32,,152,106,60,37,8,7,1.1,0.6
2024-05-23T2300,2550A,107.4988,31.2132,达州市,凤凰小区,,46,46,38,22,20,34,,156,105,60,32,10,8,1.0,0.6
2024-05-23T2300,2551A,107.5082,31.1986,达州市,达县机关宾馆,颗粒物(PM10),52,53,42,26,20,3,,147,83,86,40,5,5,0.6,0.5
2024-05-23T2300,2552A,107.4644,31.2124,达州市,市政中心,颗粒物(PM10),52,53,44,19,20,9,,146,95,88,38,8,10,1.1,0.9
2024-05-23T2300,2614A,100.1542,25.7054,大理白族自治州,大理市环境监测站,,34,34,23,17,16,104,,117,103,14,17,7,6,0.5,0.5
2024-05-23T2300,2615A,100.2171,25.5811,大理白族自治州,大理古城,,32,23,19,22,15,83,,133,107,20,13,5,6,0.5,0.5
2024-05-23T2300,1109A,121.612,38.9741,大连市,甘井子,,50,50,43,30,25,43,,74,53,29,28,6,8,0.4,0.5
2024-05-23T2300,1110A,121.565,38.9511,大连市,周水子,,45,45,36,30,23,54,,82,62,16,21,9,8,0.6,0.5
2024-05-23T2300,1111A,121.5637,38.8845,大连市,星海三站,颗粒物(PM10),51,51,37,32,22,38,,73,60,21,12,8,8,0.5,0.4
2024-05-23T2300,1112A,121.6302,38.9117,大连市,青泥洼桥,,,64,46,35,23,38,,85,66,24,22,7,8,,0.8
2024-05-23T2300,1113A,121.6251,38.8638,大连市,傅家庄,,43,33,29,30,20,53,,72,70,14,15,6,7,0.6,0.5
2024-05-23T2300,1114A,121.5213,38.8661,大连市,七贤岭,,48,43,28,33,20,37,,69,60,25,20,8,9,0.5,0.4
2024-05-23T2300,1115A,121.2529,38.8061,大连市,旅顺,,35,31,34,24,22,56,,80,64,16,20,8,8,0.6,0.4
2024-05-23T2300,1116A,121.7485,39.1311,大连市,金州,细颗粒物(PM2.5),52,36,30,36,27,23,,96,60,29,15,10,11,0.9,0.7
2024-05-23T2300,1117A,121.7811,39.0496,大连市,开发区,细颗粒物(PM2.5),57,60,44,40,24,42,,69,58,22,24,7,7,0.9,0.6
2024-05-23T2300,1118A,121.9762,39.0631,大连市,双D港,,43,,24,30,19,58,,80,72,11,13,8,7,0.5,0.5
2024-05-23T2300,1789A,124.81117,46.03138,大庆市,大同区,,23,17,27,16,15,51,,84,72,7,5,6,6,0.2,0.2
2024-05-23T2300,1790A,125.129,46.533,大庆市,龙凤区,,36,,22,25,16,58,,82,69,8,7,3,4,0.2,0.2
2024-05-23T2300,1791A,124.902,46.408,大庆市,红岗区,,27,27,25,11,11,59,,87,74,5,4,7,7,0.2,0.2
2024-05-23T2300,1792A,125.153,46.586,大庆市,萨尔图区,,18,16,16,7,6,56,,72,63,4,6,7,7,0.1,0.1
2024-05-23T2300,1793A,124.9042,46.6215,大庆市,让胡路区,,30,,20,21,20,48,,78,66,10,4,4,4,0.3,0.2
2024-05-23T2300,3481A,125.141,46.634,大庆市,萨区政府监测点,,19,19,24,3,11,52,,75,62,5,5,7,7,0.3,0.2
2024-05-23T2300,1723A,113.2994,40.0758,大同市,云冈宾馆,颗粒物(PM10),87,124,91,48,38,172,,192,180,17,29,7,10,0.6,0.5
2024-05-23T2300,1724A,113.3444,40.0917,大同市,大同大学,颗粒物(PM10),74,97,75,45,33,177,,189,182,15,24,13,18,0.6,0.4
2024-05-23T2300,1725A,113.2661,40.1269,大同市,安家小村,颗粒物(PM10),88,125,88,38,27,173,,181,172,14,17,9,13,0.8,0.8
2024-05-23T2300,1726A,113.2711,40.0844,大同市,教育学院,颗粒物(PM10),87,123,97,58,43,180,,192,184,18,32,7,12,0.7,0.6
2024-05-23T2300,3282A,113.3397,40.0597,大同市,大同市卫生学校,颗粒物(PM10),83,115,102,44,41,171,,195,183,21,32,10,17,0.8,0.8
2024-05-23T2300,3565A,113.1367,40.1122,大同市,云冈站,颗粒物(PM10),86,121,72,62,30,178,,189,179,13,16,8,14,0.7,0.4
2024-05-23T2300,3566A,113.1186,40.2556,大同市,图书馆,颗粒物(PM10),84,117,75,45,29,186,,194,178,16,15,7,7,0.7,0.5
2024-05-23T2300,3567A,113.5931,40.0461,大同市,区一中,臭氧1小时,85,109,89,36,31,188,,212,203,17,25,6,16,0.8,0.6
2024-05-23T2300,3676A,113.2802,40.0995,大同市,第二人民医院,颗粒物(PM10),83,116,88,40,37,177,,188,179,13,22,10,14,0.7,0.6
2024-05-23T2300,2269A,124.1069,50.4097,大兴安岭地区,科技局,,28,,13,19,17,62,,69,68,3,3,2,2,0.3,0.2
2024-05-23T2300,3663A,124.1164,50.4278,大兴安岭地区,红旗社区,,16,,3,11,4,40,,71,64,15,3,9,7,0.4,0.3
2024-05-23T2300,1600A,124.3303,40.0625,丹东市,江湾东路,,14,14,16,6,11,35,,83,48,16,14,7,8,0.4,0.4
2024-05-23T2300,1601A,124.4256,40.1503,丹东市,临江后街,,12,8,13,3,7,37,,79,54,9,8,7,7,0.4,0.4
2024-05-23T2300,1602A,124.3933,40.1461,丹东市,元宝山,,15,15,15,7,9,27,,72,44,14,11,9,9,0.4,0.4
2024-05-23T2300,1603A,124.3633,40.1092,丹东市,民主桥,颗粒物(PM10),78,106,55,13,14,30,,70,43,11,11,10,10,0.3,0.4
2024-05-23T2300,3541A,109.5726,19.5167,儋州市,第一中学子站,,22,14,18,7,8,68,,83,77,2,4,4,3,0.5,0.6
2024-05-23T2300,3542A,109.5567,19.5187,儋州市,东坡学校子站,,23,10,16,3,6,71,,83,77,1,4,4,3,0.6,0.6
2024-05-23T2300,2616A,98.5842,24.428,德宏傣族景颇族自治州,德宏州监测站,,39,39,36,27,30,78,,128,113,16,15,2,4,0.8,0.9
2024-05-23T2300,3677A,98.5881,24.4368,德宏傣族景颇族自治州,芒市人民政府综合楼,,38,38,36,20,22,75,,121,107,13,13,3,5,0.6,0.6
2024-05-23T2300,1901A,104.4239,31.1208,德阳市,东山公园,,45,45,53,26,27,125,,226,198,11,14,5,4,0.6,0.6
2024-05-23T2300,1902A,104.3826,31.1317,德阳市,西小区,,44,44,67,30,38,129,,238,211,14,29,4,6,0.5,0.7
2024-05-23T2300,1904A,104.3553,31.1091,德阳市,耐火材料厂,颗粒物(PM10),51,52,69,32,38,128,,272,234,20,22,5,9,0.6,0.7
2024-05-23T2300,3639A,104.4019,31.1244,德阳市,市教育局,,45,45,53,29,28,106,,193,,25,29,6,9,0.2,0.6
2024-05-23T2300,1622A,116.3032,37.4674,德州市,儿童乐园,,,63,76,24,29,,,203,,14,14,7,8,0.6,0.7
2024-05-23T2300,1624A,116.2991,37.4451,德州市,监理站,颗粒物(PM10),53,56,71,27,33,92,,197,163,11,11,10,13,0.4,0.5
2024-05-23T2300,3066A,116.2721,37.4379,德州市,九衢泉纯净水厂,颗粒物(PM10),54,58,73,27,31,92,,187,158,15,16,5,6,0.4,0.5
2024-05-23T2300,3371A,116.3728,37.4403,德州市,开发区人民医院,颗粒物(PM10),53,56,78,24,30,87,,197,159,10,10,8,10,0.4,0.5
2024-05-23T2300,3372A,116.3572,37.4094,德州市,太阳城中学,颗粒物(PM10),54,58,75,24,31,86,,193,153,12,13,7,9,0.4,0.6
2024-05-23T2300,3511A,116.5652,37.3319,德州市,陵城艺术中心,颗粒物(PM10),51,51,70,29,26,82,,180,146,14,13,7,8,0.5,0.6
2024-05-23T2300,2621A,99.7056,27.8317,迪庆藏族自治州,迪庆州站,,38,38,18,20,9,95,,136,124,13,10,8,8,0.5,0.4
2024-05-23T2300,3180A,99.7136,27.8094,迪庆藏族自治州,质量技术监督局,,32,32,25,11,7,89,,127,116,20,13,8,8,0.6,0.4
2024-05-23T2300,2663A,104.6241,35.5734,定西市,东关小学,颗粒物(PM10),68,85,62,27,24,108,,164,150,30,14,5,5,0.3,0.3
2024-05-23T2300,2664A,104.6194,35.5934,定西市,供电公司,颗粒物(PM10),55,60,53,35,29,116,,154,142,19,12,6,6,0.3,0.3
2024-05-23T2300,1389A,113.7547,23.0494,东莞市,莞城梨川,,15,8,27,6,21,46,,60,57,27,36,8,8,0.8,0.9
2024-05-23T2300,1390A,113.7944,23.0128,东莞市,东城石井,,16,8,36,3,22,36,,62,50,31,30,6,6,0.7,0.8
2024-05-23T2300,1391A,113.7383,22.9658,东莞市,南城西平,,19,10,21,3,13,34,,61,54,38,36,7,7,0.7,0.8
2024-05-23T2300,3319A,113.7338,23.0381,东莞市,万江金泰,,16,7,29,3,21,49,,60,55,20,34,8,9,0.7,0.8
2024-05-23T2300,3626A,113.7533,23.0202,东莞市,南城元岭,,16,6,24,3,22,50,,61,56,20,36,6,7,0.7,0.8
2024-05-23T2300,3627A,113.7875,23.0457,东莞市,东城主山,,20,8,38,6,21,31,,58,46,39,35,8,8,0.8,0.9
2024-05-23T2300,1666A,118.6614,37.4309,东营市,市环保局,,31,31,57,17,31,85,,190,124,11,18,7,12,0,0.2
2024-05-23T2300,3036A,118.6904,37.4338,东营市,开发区管委会,,38,38,65,24,32,85,,194,126,15,21,4,11,0.3,0.5
2024-05-23T2300,3365A,118.5719,37.565,东营市,垦利区民丰路,,39,39,66,22,30,81,,197,120,10,18,10,11,0.5,0.8
2024-05-23T2300,3498A,118.5055,37.8612,东营市,河口城区,,34,34,67,17,30,85,,200,116,8,18,4,8,0.3,0.6
2024-05-23T2300,3646A,118.4978,37.4623,东营市,胜利站,,41,41,67,19,30,88,,199,130,9,21,7,9,0.6,0.8
2024-05-23T2300,3734A,118.35,37.26,东营市,理想之城,,46,46,69,27,32,75,,173,114,10,22,9,12,0.3,0.5
2024-05-23T2300,1591A,110.0023,39.8129,鄂尔多斯市,综合楼,颗粒物(PM10),80,110,75,31,26,142,,185,175,33,21,14,8,0.6,0.5
2024-05-23T2300,1592A,109.9486,39.8261,鄂尔多斯市,巴音孟克林场办事处,颗粒物(PM10),70,90,70,31,24,96,,169,156,55,17,14,9,0.7,0.5
2024-05-23T2300,1593A,109.7736,39.5986,鄂尔多斯市,康泽苑,颗粒物(PM10),51,51,52,14,22,133,,184,172,21,15,8,8,0.4,0.3
2024-05-23T2300,1594A,109.8119,39.5989,鄂尔多斯市,华泰汽车城,颗粒物(PM10),69,88,49,29,23,86,,171,151,49,17,8,8,0.6,0.4
2024-05-23T2300,1595A,109.9734,39.7884,鄂尔多斯市,奥林花园,颗粒物(PM10),69,88,70,34,26,103,,166,152,36,24,8,8,0.8,0.6
2024-05-23T2300,2436A,114.8938,30.3994,鄂州市,市政府,,39,39,31,12,11,70,,132,118,30,16,7,9,0.8,0.7
2024-05-23T2300,2437A,114.8989,30.3714,鄂州市,赵家坝,,34,34,26,14,11,70,,124,109,17,10,5,7,0.7,0.7
2024-05-23T2300,3654A,114.8094,30.4089,鄂州市,精准医疗中心,颗粒物(PM10),69,88,42,29,13,53,,122,105,58,18,10,7,0.4,0.4
2024-05-23T2300,2454A,109.4978,30.2981,恩施土家族苗族自治州,湖北民院,,49,49,23,31,18,58,,118,102,22,12,8,8,0.7,0.6
2024-05-23T2300,2455A,109.4707,30.2798,恩施土家族苗族自治州,州电力总公司,,42,32,21,29,20,21,,114,91,40,17,8,8,0.8,0.6
2024-05-23T2300,3549A,109.5061,30.3772,恩施土家族苗族自治州,龙凤新区,,32,32,25,22,17,44,,108,86,15,13,6,7,0.7,0.6
2024-05-23T2300,2499A,108.3411,21.6158,防城港市,沙万,,35,35,34,16,20,71,,107,94,16,12,5,8,0.8,0.8
2024-05-23T2300,2500A,108.3514,21.7731,防城港市,防城档案局,,37,37,50,25,25,80,,102,97,11,15,9,5,0.8,0.7
2024-05-23T2300,2501A,108.3506,21.6414,防城港市,大海花园,,27,19,34,11,19,84,,110,103,15,13,4,6,0.7,0.7
2024-05-23T2300,1371A,113.1294,23.0067,佛山市,湾梁,,15,,61,10,29,41,,80,54,27,33,5,7,0.5,0.7
2024-05-23T2300,1372A,113.1083,23.0478,佛山市,华材职中,,16,,50,9,33,51,,65,57,25,35,6,6,0.4,0.6
2024-05-23T2300,1373A,113.144,23.0453,佛山市,南海气象局,,19,,54,13,34,42,,70,52,26,33,4,5,0.5,0.7
2024-05-23T2300,1374A,113.2881,22.8094,佛山市,顺德苏岗,,15,6,32,3,31,48,,104,52,20,26,4,5,0.6,0.8
2024-05-23T2300,1376A,112.8383,22.8678,佛山市,高明孔堂,,13,10,39,7,26,32,,88,67,26,22,5,8,0.5,0.7
2024-05-23T2300,1377A,112.8836,23.1588,佛山市,三水监测站,,18,,35,10,23,30,,63,42,35,46,6,9,0.6,0.8
2024-05-23T2300,1378A,112.867,23.185,佛山市,三水云东海,,19,19,31,12,28,25,,71,37,32,39,4,5,0.6,0.7
2024-05-23T2300,3625A,113.2544,22.7642,佛山市,容桂街道办,,16,6,34,3,35,40,,103,55,32,28,5,6,0.5,0.6
2024-05-23T2300,1282A,119.2681,26.0504,福州市,师大,,42,,19,29,18,23,,68,44,36,16,3,3,0.8,0.6
2024-05-23T2300,1283A,119.2984,26.1028,福州市,五四北路,,38,30,17,26,20,16,,68,48,40,19,3,3,0.7,0.6
2024-05-23T2300,1284A,119.2648,26.0768,福州市,杨桥西路,,49,,20,34,20,17,,70,46,40,19,3,3,0.8,0.6
2024-05-23T2300,1285A,119.317,26.0746,福州市,紫阳,细颗粒物(PM2.5),53,,21,37,23,16,,57,38,36,18,2,2,0.8,0.5
2024-05-23T2300,3048A,119.5799,26.0936,福州市,九龙,,15,15,15,6,11,32,,82,58,6,5,4,4,0.2,0.2
2024-05-23T2300,3526A,119.5189,25.9664,福州市,吴航,,50,42,28,35,22,41,,68,53,17,14,4,4,0.6,0.6
2024-05-23T2300,1755A,123.7977,41.8491,抚顺市,望花区,,18,16,21,11,15,56,,80,69,15,16,1,4,0.2,0.3
2024-05-23T2300,1756A,123.9161,41.8822,抚顺市,顺城区,,20,20,20,11,11,47,,73,60,16,15,8,7,0.3,0.4
2024-05-23T2300,1757A,124.0436,41.8611,抚顺市,东洲区,,21,21,15,14,11,34,,77,58,17,9,6,5,0.3,0.4
2024-05-23T2300,1758A,123.9247,41.8642,抚顺市,新抚区,,26,,19,18,12,54,,75,67,12,14,6,6,0.2,0.3
2024-05-23T2300,1759A,124.0972,41.8961,抚顺市,大伙房水库,,18,18,17,12,11,36,,74,59,18,7,6,6,0.3,0.3
2024-05-23T2300,1760A,123.7086,41.8391,抚顺市,沈抚新城,,,17,20,7,11,,,78,67,12,11,4,4,0.3,0.4
2024-05-23T2300,2376A,116.2127,28.0814,抚州市,桐源党溪,,23,22,49,16,20,31,,74,53,16,9,6,6,0.9,0.4
2024-05-23T2300,2377A,116.3544,27.9831,抚州市,市站,,23,23,28,12,16,34,,74,58,14,8,2,3,0.9,0.9
2024-05-23T2300,2378A,116.3565,27.963,抚州市,血防站,,32,32,29,16,16,21,,64,47,26,11,2,3,1.1,1
2024-05-23T2300,2379A,116.3564,28.0007,抚州市,采茶剧团,,22,22,30,12,17,22,,76,54,24,9,3,3,0.8,0.9
2024-05-23T2300,2380A,116.385,27.9647,抚州市,医学分院,,25,25,29,8,15,30,,76,57,17,12,4,4,0.9,0.9
2024-05-23T2300,2207A,121.6094,41.998,阜新市,工业园区,,28,28,27,11,13,12,,94,60,48,15,6,7,0.6,0.6
2024-05-23T2300,2208A,121.6697,42.0279,阜新市,长青街,,18,18,26,11,14,34,,93,62,17,14,4,8,1.0,0.6
2024-05-23T2300,2209A,121.6673,42.0705,阜新市,农业园区,,17,,40,9,18,52,,87,61,13,11,6,7,0.6,0.7
2024-05-23T2300,2210A,121.6717,42.0224,阜新市,东苑,,18,17,24,8,17,36,,94,64,36,17,6,11,1.0,0.6
2024-05-23T2300,2211A,121.6506,42.0498,阜新市,玉龙新城,,21,21,29,8,12,13,,79,48,41,18,6,7,0.7,0.7
2024-05-23T2300,2301A,115.8277,32.8929,阜阳市,市监测站,颗粒物(PM10),55,60,48,29,27,95,,168,141,17,15,8,8,0.6,0.5
2024-05-23T2300,2303A,115.8554,32.8605,阜阳市,开发区,颗粒物(PM10),51,52,51,32,23,96,,171,140,13,14,5,7,0.3,0.3
2024-05-23T2300,2875A,115.784,32.8892,阜阳市,阜阳职业技术学院,细颗粒物(PM2.5),70,80,51,51,24,102,,166,135,22,14,7,7,0.6,0.5
2024-05-23T2300,3468A,115.7901,32.8613,阜阳市,市规划展馆,细颗粒物(PM2.5),79,82,52,58,29,85,,165,139,21,14,5,6,0.7,0.5
2024-05-23T2300,3469A,115.836,32.9183,阜阳市,枣园社区,颗粒物(PM10),56,62,48,30,24,95,,173,135,20,17,6,7,0.6,0.4
2024-05-23T2300,2669A,102.9099,34.9841,甘南藏族自治州,州政府,颗粒物(PM10),52,53,61,33,27,93,,152,135,13,22,8,8,0.5,0.5
2024-05-23T2300,3380A,102.8914,34.9617,甘南藏族自治州,甘肃民族师范学院,颗粒物(PM10),100,149,71,41,24,21,,160,131,81,28,8,8,0.5,0.4
2024-05-23T2300,2570A,101.9603,30.0475,甘孜藏族自治州,水桥子,,34,34,28,17,15,29,,116,98,62,22,3,3,0.4,0.3
2024-05-23T2300,3065A,101.9533,29.9972,甘孜藏族自治州,州环保局,,29,26,31,20,10,84,,115,105,10,22,2,2,0.3,0.2
2024-05-23T2300,3414A,115.8347,28.932,赣江新区,桑海产业园,,36,36,52,22,19,59,,140,117,34,28,9,9,0.4,0.5
2024-05-23T2300,2363A,114.9367,25.8664,赣州市,地委,,34,34,19,20,11,24,,89,68,25,9,15,14,0.7,0.7
2024-05-23T2300,2364A,114.9461,25.8481,赣州市,气象台,,36,36,21,22,12,19,,91,64,26,13,7,6,0.8,0.8
2024-05-23T2300,2365A,114.9322,25.8333,赣州市,市图书馆,,21,21,17,14,10,34,,93,68,11,8,5,5,1.0,0.9
2024-05-23T2300,2366A,114.8905,25.8471,赣州市,华坚鞋城,,25,25,24,14,12,30,,87,66,13,12,2,3,0.3,0.3
2024-05-23T2300,3109A,115.0093,25.8613,赣州市,赣县区卫计委,,36,36,19,18,13,12,,91,67,29,15,5,5,0.6,0.6
2024-05-23T2300,2683A,106.2319,36.1417,固原市,马园,颗粒物(PM10),61,71,46,22,21,103,,159,136,47,27,10,6,0.4,0.3
2024-05-23T2300,2684A,106.2792,36.0022,固原市,监测站,,46,46,37,18,18,121,,164,156,21,17,5,4,0.4,0.4
2024-05-23T2300,2685A,106.2375,36.0211,固原市,新区,,40,36,36,22,18,128,,161,153,18,14,4,4,0.4,0.3
2024-05-23T2300,3522A,106.2177,35.9959,固原市,原州区十五小,颗粒物(PM10),87,123,41,26,21,144,,170,164,11,9,6,4,0.4,0.5
2024-05-23T2300,2544A,106.6303,30.4576,广安市,市委,颗粒物(PM10),58,65,41,33,21,17,,159,112,77,25,10,10,0.9,0.6
2024-05-23T2300,2545A,106.6271,30.4663,广安市,友谊中学,颗粒物(PM10),52,54,26,28,22,43,,160,116,56,23,7,7,0.9,0.6
2024-05-23T2300,2547A,106.6388,30.4551,广安市,广电花园,颗粒物(PM10),53,55,34,27,29,45,,147,100,52,25,9,9,0.8,0.7
2024-05-23T2300,2902A,106.6351,30.4865,广安市,北辰小学,颗粒物(PM10),56,62,37,30,20,53,,167,132,35,16,10,10,0.6,0.5
2024-05-23T2300,2523A,105.8945,32.4535,广元市,黑石坡,,43,43,35,28,13,125,,130,126,9,11,8,8,0.4,0.4
2024-05-23T2300,2524A,105.821,32.4444,广元市,老城,细颗粒物(PM2.5),57,49,39,40,21,92,,142,130,27,28,1,2,0.7,0.7
2024-05-23T2300,2526A,105.8628,32.4287,广元市,监测站,细颗粒物(PM2.5),58,59,35,41,24,96,,150,137,16,12,5,6,0.5,0.5
2024-05-23T2300,3617A,105.8047,32.4166,广元市,经开区,细颗粒物(PM2.5),58,58,52,41,35,122,,148,141,12,14,5,6,0.6,0.6
2024-05-23T2300,1345A,113.2347,23.1423,广州市,广雅中学,,16,8,40,3,27,46,,51,50,31,45,5,5,0.6,0.8
2024-05-23T2300,1346A,113.2612,23.105,广州市,市五中,,15,10,43,8,30,48,,68,60,25,33,4,5,0.6,0.7
2024-05-23T2300,1348A,113.3478,23.0916,广州市,广东商学院,,31,12,32,9,21,9,,66,44,61,50,5,4,0.7,0.7
2024-05-23T2300,1349A,113.4332,23.1047,广州市,市八十六中,,21,11,30,7,18,32,,59,31,42,56,4,4,0.7,0.7
2024-05-23T2300,1350A,113.3505,22.9483,广州市,番禺中学,,21,10,30,6,20,37,,103,56,42,34,5,5,0.6,0.6
2024-05-23T2300,1351A,113.2146,23.3916,广州市,花都师范,,36,36,30,19,14,27,,61,45,41,37,6,6,0.6,0.6
2024-05-23T2300,1352A,113.2597,23.1331,广州市,市监测站,,15,9,41,7,26,40,,53,51,30,39,5,5,0.5,0.6
2024-05-23T2300,1353A,113.5618,23.312,广州市,九龙镇镇龙,,22,19,16,15,10,45,,69,60,18,20,6,6,0.5,0.5
2024-05-23T2300,1354A,113.2765,23.1544,广州市,麓湖,,14,8,35,6,25,44,,52,48,27,44,6,5,0.6,0.7
2024-05-23T2300,1355A,113.443,23.3035,广州市,帽峰山森林公园,,17,13,11,9,10,53,,75,66,17,19,5,5,0.6,0.6
2024-05-23T2300,2846A,113.3221,23.1322,广州市,体育西,,20,11,37,8,27,26,,61,44,39,38,4,3,0.6,0.7
2024-05-23T2300,3298A,113.5717,23.5491,广州市,从化街口,,19,19,14,12,7,44,,68,61,18,14,6,6,0.7,0.7
2024-05-23T2300,3299A,113.3472,23.3692,广州市,白云竹料,,35,24,24,24,17,39,,68,53,28,33,4,4,0.7,0.6
2024-05-23T2300,3300A,113.2981,23.237,广州市,白云嘉禾,,25,18,37,12,22,28,,60,48,50,49,5,5,0.8,0.9
2024-05-23T2300,3301A,113.4256,23.1716,广州市,黄埔科学城,,15,11,29,9,23,46,,69,54,25,34,4,3,0.8,0.8
2024-05-23T2300,3302A,113.3942,23.0483,广州市,番禺大学城,,22,19,37,6,18,25,,67,44,43,40,4,3,0.9,0.9
2024-05-23T2300,3303A,113.4922,22.8168,广州市,南沙黄阁,,16,9,19,3,12,51,,66,62,24,28,6,6,0.7,0.7
2024-05-23T2300,3304A,113.5342,22.7896,广州市,南沙街,,15,9,17,3,10,45,,61,58,24,26,5,5,0.7,0.7
2024-05-23T2300,3443A,113.2902,23.5544,广州市,花都梯面,,30,30,17,21,11,58,,73,70,13,15,4,4,0.6,0.6
2024-05-23T2300,3445A,113.7858,23.7478,广州市,从化良口,,14,14,12,3,4,33,,59,54,15,8,5,5,0.7,0.7
2024-05-23T2300,3446A,113.8051,23.2614,广州市,增城荔城,,20,20,12,12,7,43,,64,55,20,14,4,4,0.5,0.5
2024-05-23T2300,2506A,109.6047,23.0666,贵港市,江南子站,颗粒物(PM10),58,66,77,33,43,72,,156,129,20,26,7,9,0.7,0.9
2024-05-23T2300,2507A,109.6014,23.0948,贵港市,贵城子站,细颗粒物(PM2.5),55,58,58,39,36,69,,150,131,26,21,7,8,0.7,0.7
2024-05-23T2300,2508A,109.5669,23.1065,贵港市,荷城子站,颗粒物(PM10),58,66,42,27,22,39,,134,120,32,13,8,9,0.6,0.5
2024-05-23T2300,3405A,109.5886,23.1172,贵港市,新世纪学校,颗粒物(PM10),59,68,42,35,23,33,,137,114,33,12,11,11,0.9,0.8
2024-05-23T2300,1439A,106.6899,26.5998,贵阳市,马鞍山,,28,27,27,19,15,24,,130,91,18,14,8,8,0.5,0.4
2024-05-23T2300,1440A,106.6971,26.5694,贵阳市,市环保站,,49,48,36,34,26,22,,138,106,58,23,3,4,0.8,0.4
2024-05-23T2300,1441A,106.6243,26.6266,贵阳市,鉴湖路,,32,24,30,22,19,64,,130,115,26,14,3,4,0.5,0.4
2024-05-23T2300,1442A,106.7487,26.6343,贵阳市,燕子冲,,35,24,31,24,25,32,,137,100,23,14,5,6,0.6,0.5
2024-05-23T2300,1443A,106.6555,26.4365,贵阳市,碧云窝,,29,29,31,17,13,62,,128,110,12,11,4,5,0.5,0.5
2024-05-23T2300,1444A,106.694,26.5161,贵阳市,中院村,,39,39,37,24,20,37,,122,96,35,24,7,8,0.7,0.6
2024-05-23T2300,1445A,106.7109,26.6027,贵阳市,红边门,细颗粒物(PM2.5),52,41,40,36,29,11,,132,88,57,28,4,4,1.2,0.7
2024-05-23T2300,1446A,106.7164,26.5699,贵阳市,新华路,,39,36,38,27,26,29,,139,102,43,20,4,6,0.7,0.6
2024-05-23T2300,1447A,106.674,26.5424,贵阳市,太慈桥,,44,44,28,22,16,28,,131,102,48,21,4,6,0.7,0.5
2024-05-23T2300,1862A,110.4144,25.3167,桂林市,电子科大尧山校区,,,,38,17,24,46,,111,93,8,6,5,5,0.7,0.7
2024-05-23T2300,1863A,110.2819,25.2697,桂林市,监测站,,38,38,48,23,41,52,,123,97,20,15,9,10,0.7,0.7
2024-05-23T2300,1864A,110.3089,25.2708,桂林市,龙隐路小学,,40,36,42,28,33,41,,117,90,24,11,7,21,0.8,0.8
2024-05-23T2300,1865A,110.2869,25.2178,桂林市,八中,,40,40,45,24,29,46,,108,77,21,13,8,11,0.7,0.8
2024-05-23T2300,3403A,110.1764,25.2381,桂林市,创业大厦,,,41,43,24,31,,,114,,37,16,6,20,0.6,0.7
2024-05-23T2300,3531A,110.296,25.1253,桂林市,旅游学院,,20,14,24,14,21,56,,110,86,8,13,6,8,0.6,0.7
2024-05-23T2300,2674A,100.2561,34.4714,果洛藏族自治州,玛沁县大武镇,颗粒物(PM10),53,56,29,25,14,83,,146,130,30,19,11,12,0.5,0.4
2024-05-23T2300,1129A,126.5422,45.755,哈尔滨市,岭北,,20,12,12,3,4,62,,87,74,8,9,10,12,0.9,0.5
2024-05-23T2300,1130A,126.561,45.8167,哈尔滨市,松北商大,,17,13,36,10,9,54,,82,67,9,8,4,4,0.3,0.3
2024-05-23T2300,1131A,126.979,45.5419,哈尔滨市,阿城会宁,,16,15,34,7,10,49,,84,67,11,10,17,14,0.9,0.9
2024-05-23T2300,1132A,126.599,45.7222,哈尔滨市,南岗学府路,,19,17,24,3,5,60,,86,71,10,8,4,5,0.4,0.4
2024-05-23T2300,1133A,126.689,45.7733,哈尔滨市,太平宏伟公园,,38,38,36,12,13,60,,87,70,9,9,4,4,0.3,0.3
2024-05-23T2300,1134A,126.635,45.7667,哈尔滨市,道外承德广场,,22,17,29,15,19,61,,87,72,9,10,7,8,0.2,0.3
2024-05-23T2300,1135A,126.685,45.7319,哈尔滨市,香坊红旗大街,,20,12,27,3,8,62,,87,72,8,8,5,6,0.3,0.3
2024-05-23T2300,1136A,126.6411,45.7258,哈尔滨市,动力和平路,,19,,17,3,5,60,,85,71,9,10,4,4,0.3,0.3
2024-05-23T2300,1137A,126.593,45.7478,哈尔滨市,道里建国路,,19,14,25,3,6,58,,82,69,9,10,8,9,0.2,0.1
2024-05-23T2300,1138A,126.615,45.61,哈尔滨市,平房东轻厂,,20,18,47,14,33,54,,80,65,13,14,6,6,0.1,0.1
2024-05-23T2300,1139A,126.595,45.9855,哈尔滨市,呼兰师专,,32,32,42,8,8,57,,80,66,9,9,4,4,0.2,0.2
2024-05-23T2300,1140A,126.6206,45.6842,哈尔滨市,省农科院,,36,,29,25,26,57,,90,73,12,8,7,7,0.3,0.3
2024-05-23T2300,2688A,93.5128,42.8172,哈密市,地区监测站,颗粒物(PM10),74,98,55,34,17,51,,124,107,63,14,3,3,0.8,0.3
2024-05-23T2300,2689A,93.4961,42.8328,哈密市,哈密师范学校,颗粒物(PM10),66,81,50,38,17,59,,118,107,46,12,9,5,0.8,0.4
2024-05-23T2300,2671A,100.9048,36.9639,海北藏族自治州,海晏县西海镇,颗粒物(PM10),79,107,62,32,24,135,,175,163,12,10,19,16,0.4,0.4
2024-05-23T2300,3867A,102.0738,36.5056,海东市,平安区公安北苑,,,95,79,54,48,133,,162,154,,13,,11,0.5,0.5
2024-05-23T2300,1410A,110.3232,20.0574,海口市,海南大学,,19,8,12,3,8,60,,90,74,8,9,4,4,0.4,0.4
2024-05-23T2300,1411A,110.283,20.0053,海口市,秀英海南医院,,15,14,14,3,9,48,,84,64,11,9,5,5,0.3,0.3
2024-05-23T2300,1412A,110.338,19.9969,海口市,海南师范大学,,,29,14,6,7,48,,81,64,8,5,6,6,,0.5
2024-05-23T2300,1413A,110.33,20.0356,海口市,龙华路环保局宿舍,,18,10,14,3,7,55,,83,65,8,10,6,6,0.3,0.4
2024-05-23T2300,3539A,110.5111,19.9736,海口市,桂林洋子站,,14,11,14,3,5,42,,73,52,9,6,5,5,0.4,0.4
2024-05-23T2300,2673A,100.6188,36.2866,海南藏族自治州,共和县恰卜恰镇,颗粒物(PM10),56,61,46,21,23,118,,156,140,20,15,13,12,0.5,0.5
2024-05-23T2300,2676A,97.3731,37.3753,海西蒙古族藏族自治州,德令哈市,颗粒物(PM10),83,116,159,51,48,112,,116,110,7,10,8,7,0.5,0.6
2024-05-23T2300,1048A,114.5302,36.6116,邯郸市,东污水处理厂,颗粒物(PM10),59,68,71,34,40,111,,207,177,18,15,7,9,0.4,0.5
2024-05-23T2300,1049A,114.4918,36.5713,邯郸市,矿院,颗粒物(PM10),63,75,78,29,34,110,,202,174,24,18,8,9,0.4,0.5
2024-05-23T2300,1050A,114.484,36.6133,邯郸市,丛台公园,颗粒物(PM10),62,73,67,26,34,120,,211,184,17,12,9,10,0.4,0.5
2024-05-23T2300,3458A,114.7895,36.5593,邯郸市,香泉濮院小区,颗粒物(PM10),65,79,81,28,30,126,,217,183,14,6,16,8,0.4,0.4
2024-05-23T2300,3579A,114.50634,36.77178,邯郸市,永年区实验高中,颗粒物(PM10),71,92,70,38,32,100,,,,35,18,5,9,0.6,0.5
2024-05-23T2300,3580A,114.20016,36.44293,邯郸市,峰峰矿区临水派出所,颗粒物(PM10),62,74,80,29,31,127,,231,201,10,9,6,11,0.4,0.8
2024-05-23T2300,2634A,106.9893,33.1842,汉中市,汉川机床厂子校,,44,44,34,28,23,76,,166,148,16,10,5,6,0.8,0.7
2024-05-23T2300,2635A,107.0154,33.0706,汉中市,市监测站,颗粒物(PM10),54,58,52,31,31,95,,156,140,11,13,8,9,0.7,0.6
2024-05-23T2300,2636A,107.0089,33.1138,汉中市,鑫源开发区,,42,42,41,29,25,87,,165,146,24,12,9,10,0.6,0.5
2024-05-23T2300,2637A,107.007,33.0323,汉中市,南郑大河坎水厂,颗粒物(PM10),56,62,50,34,31,90,,161,133,12,11,8,9,0.6,0.6
2024-05-23T2300,1223A,120.2072,30.2111,杭州市,滨江,,48,48,70,20,38,80,,234,165,22,23,5,6,0.5,0.6
2024-05-23T2300,1224A,120.0633,30.2747,杭州市,西溪,,37,37,62,24,43,88,,198,168,22,20,6,7,0.6,0.6
2024-05-23T2300,1226A,120.3461,30.3153,杭州市,下沙,,36,36,60,17,37,74,,211,144,23,21,7,8,0.4,0.4
2024-05-23T2300,1227A,120.1269,30.2456,杭州市,卧龙桥,,43,42,56,30,43,72,,219,174,24,18,5,5,0.7,0.6
2024-05-23T2300,1228A,120.1903,30.2692,杭州市,浙江农大,,32,32,58,20,39,76,,188,145,21,23,7,8,0.3,0.3
2024-05-23T2300,1230A,120.1197,30.3119,杭州市,和睦小学,,42,37,54,29,40,76,,210,156,28,24,4,5,0.5,0.5
2024-05-23T2300,1231A,120.3019,30.4183,杭州市,临平镇,,49,43,55,34,36,78,,191,146,16,16,5,6,0.5,0.5
2024-05-23T2300,1232A,120.2697,30.1819,杭州市,城厢镇,,46,41,66,32,48,64,,196,140,32,27,6,7,0.6,0.6
2024-05-23T2300,1233A,120.0883,30.1808,杭州市,云栖,,38,38,52,22,36,36,,204,167,48,28,8,8,0.6,0.6
2024-05-23T2300,3557A,119.9464,30.0494,杭州市,镇二中,颗粒物(PM10),61,71,52,41,38,100,,164,154,29,29,10,10,0.8,0.7
2024-05-23T2300,3558A,119.7183,30.2367,杭州市,市府大楼,"颗粒物(PM10),细颗粒物(PM2.5)",57,63,58,40,40,109,,192,177,30,23,6,7,0.6,0.6
2024-05-23T2300,3656A,120.1556,30.2864,杭州市,消防大队,,36,35,67,25,42,74,,186,142,24,22,7,8,0.7,0.7
2024-05-23T2300,1270A,117.1959,31.7848,合肥市,明珠广场,颗粒物(PM10),51,51,58,31,36,115,,179,143,33,31,9,12,0.7,0.7
2024-05-23T2300,1271A,117.3072,31.8764,合肥市,三里街,颗粒物(PM10),70,90,60,48,32,108,,165,141,51,34,11,10,0.6,0.5
2024-05-23T2300,1272A,117.2588,31.8707,合肥市,琥珀山庄,颗粒物(PM10),53,56,54,24,25,94,,178,138,40,24,10,13,0.5,0.5
2024-05-23T2300,1273A,117.1604,31.9052,合肥市,董铺水库,,48,48,56,22,28,102,,210,162,19,21,1,4,0.3,0.3
2024-05-23T2300,1274A,117.25,31.8571,合肥市,长江中路,颗粒物(PM10),60,70,63,42,36,110,,167,139,35,23,7,9,0.7,0.6
2024-05-23T2300,1275A,117.266,31.9436,合肥市,庐阳区,颗粒物(PM10),68,85,65,36,35,60,,192,133,80,43,9,11,0.5,0.4
2024-05-23T2300,1276A,117.336,31.8586,合肥市,瑶海区,颗粒物(PM10),74,97,61,51,33,61,,160,115,77,35,11,11,0.6,0.5
2024-05-23T2300,1277A,117.3027,31.7964,合肥市,包河区,细颗粒物(PM2.5),62,61,53,44,31,114,,149,130,43,44,8,9,0.5,0.4
2024-05-23T2300,1278A,117.2776,31.7385,合肥市,滨湖新区,细颗粒物(PM2.5),58,51,48,41,33,111,,155,141,25,19,7,9,0.5,0.4
2024-05-23T2300,1279A,117.1318,31.8403,合肥市,高新区,"颗粒物(PM10),细颗粒物(PM2.5)",52,53,58,36,35,118,,199,150,28,27,8,11,0.6,0.6
2024-05-23T2300,3464A,117.3803,31.9147,合肥市,高教基地,颗粒物(PM10),62,74,60,37,30,50,,197,125,62,26,6,9,0.4,0.4
2024-05-23T2300,3614A,79.924,37.0877,和田地区,地区环保局,颗粒物(PM10),500,1456,979,475,272,66,,103,75,8,6,6,7,0.6,0.5
2024-05-23T2300,3615A,79.9131,37.113,和田地区,市环保局,颗粒物(PM10),500,1302,923,352,214,45,,87,61,26,15,6,6,0.7,0.5
2024-05-23T2300,2516A,108.2011,24.715,河池市,东仁乐园,,39,39,45,22,19,8,,35,18,15,9,3,4,0.8,0.8
2024-05-23T2300,2517A,108.0497,24.6947,河池市,市环保站,,29,29,28,20,17,43,,107,92,23,13,8,8,0.6,0.6
2024-05-23T2300,2518A,108.0983,24.6989,河池市,市疾控中心,颗粒物(PM10),51,51,34,29,21,32,,106,82,31,18,7,8,0.7,0.6
2024-05-23T2300,1697A,114.6944,23.7586,河源市,东埔,,17,17,24,9,9,49,,55,55,18,20,6,6,0.6,0.7
2024-05-23T2300,1698A,114.6892,23.7233,河源市,老城,,14,,13,7,9,43,,56,54,20,18,5,5,0.5,0.6
2024-05-23T2300,1718A,115.4208,35.2464,菏泽市,气象局,颗粒物(PM10),55,60,69,20,25,149,,181,171,25,18,4,5,0.3,0.3
2024-05-23T2300,1719A,115.4747,35.2375,菏泽市,市政协,,46,46,59,27,25,142,,179,169,19,13,4,5,0.2,0.2
2024-05-23T2300,3374A,115.5564,35.0891,菏泽市,定陶老年大学,颗粒物(PM10),52,53,50,19,20,136,,170,160,16,13,5,5,0.6,0.6
2024-05-23T2300,3647A,115.4702,35.2706,菏泽市,菏泽医专,颗粒物(PM10),53,56,60,19,19,147,,176,170,16,11,4,4,0.1,0.2
2024-05-23T2300,2514A,111.5264,24.4172,贺州市,环保小区,细颗粒物(PM2.5),59,56,34,42,21,49,,95,79,17,11,6,6,0.6,0.7
2024-05-23T2300,2515A,111.5608,24.4078,贺州市,政协大楼,颗粒物(PM10),51,52,39,32,23,52,,103,84,21,13,9,7,0.5,0.6
2024-05-23T2300,3534A,111.4744,24.4553,贺州市,西湾,颗粒物(PM10),56,61,35,35,24,45,,86,65,33,17,8,7,0.6,0.6
2024-05-23T2300,2385A,114.17,35.9019,鹤壁市,市监测站,细颗粒物(PM2.5),69,63,70,50,47,119,,229,190,15,12,11,11,0.5,0.7
2024-05-23T2300,2386A,114.2956,35.7511,鹤壁市,市交警支队,颗粒物(PM10),62,74,74,30,37,107,,230,176,27,22,10,11,0.5,0.5
2024-05-23T2300,2387A,114.2878,35.7306,鹤壁市,迎宾馆,颗粒物(PM10),59,67,79,36,46,116,,231,179,20,21,11,13,0.4,0.5
2024-05-23T2300,3474A,114.2617,35.6822,鹤壁市,大新区,颗粒物(PM10),56,62,85,23,34,75,,215,160,47,29,10,12,0.5,0.5
2024-05-23T2300,3596A,114.1572,35.9603,鹤壁市,南山宾馆,颗粒物(PM10),61,72,94,36,42,132,,235,199,26,17,8,12,0.4,0.5
2024-05-23T2300,2244A,130.2537,47.3416,鹤岗市,哈啤分公司,,16,16,16,11,10,42,,66,47,2,2,10,11,0.4,0.3
2024-05-23T2300,2245A,130.2684,47.3086,鹤岗市,斯达机电,,15,15,16,8,12,43,,67,48,4,5,9,10,0.3,0.3
2024-05-23T2300,2246A,130.3114,47.3388,鹤岗市,东山纸板厂,,16,,16,11,11,42,,68,48,3,4,14,14,0.4,0.3
2024-05-23T2300,2247A,130.1097,47.3382,鹤岗市,五号水库,,14,13,18,6,9,44,,76,56,5,4,11,11,0.3,0.3
2024-05-23T2300,2263A,127.4833,50.2524,黑河市,交通局,,25,22,14,17,17,34,,63,48,9,7,5,5,0.3,0.2
2024-05-23T2300,2264A,127.5144,50.2341,黑河市,环保局,,26,23,19,18,14,42,,65,50,10,8,5,4,0.3,0.2
2024-05-23T2300,2265A,127.5291,50.2472,黑河市,大黑河岛,,19,19,12,9,11,43,,72,61,8,8,6,6,0.6,0.5
2024-05-23T2300,1074A,115.6838,37.7541,衡水市,电机北厂,,,84,78,,36,86,,200,156,9,9,3,7,0.2,0.3
2024-05-23T2300,1075A,115.6303,37.7316,衡水市,市监测站,颗粒物(PM10),57,63,63,36,33,90,,190,153,10,12,2,8,0.6,0.5
2024-05-23T2300,3188A,115.6683,37.7217,衡水市,市城管局,颗粒物(PM10),58,65,70,18,33,88,,199,156,13,14,3,6,0.4,0.4
2024-05-23T2300,3459A,115.5989,37.5491,衡水市,地表水厂,颗粒物(PM10),64,77,81,19,27,80,,191,146,13,15,2,6,0.3,0.3
2024-05-23T2300,2456A,112.5003,26.9167,衡阳市,原169医院,,33,33,35,23,21,63,,113,92,21,11,3,5,0.8,0.8
2024-05-23T2300,2457A,112.6194,26.9258,衡阳市,衡阳化工总厂,颗粒物(PM10),59,67,45,21,23,51,,156,120,37,18,9,9,0.7,0.7
2024-05-23T2300,2458A,112.6211,26.8956,衡阳市,珠晖区环保局,颗粒物(PM10),56,62,46,30,25,48,,152,116,36,19,7,7,0.7,0.8
2024-05-23T2300,2459A,112.6197,26.8733,衡阳市,市委党校,颗粒物(PM10),52,54,44,34,27,16,,141,102,55,21,9,9,1.1,0.9
2024-05-23T2300,2460A,112.6006,26.8919,衡阳市,市监测站,细颗粒物(PM2.5),57,61,40,40,28,27,,150,112,46,20,8,9,1.0,0.9
2024-05-23T2300,2461A,112.5664,26.9056,衡阳市,真空机电公司,颗粒物(PM10),54,58,43,32,26,25,,135,104,53,19,7,9,1.3,0.9
2024-05-23T2300,3399A,112.6703,26.882,衡阳市,师范学院,,42,42,41,28,30,48,,139,114,26,17,8,8,0.8,0.7
2024-05-23T2300,2608A,103.3772,23.3993,红河哈尼族彝族自治州,污水处理厂,,33,33,24,19,20,87,,108,97,9,11,5,7,0.4,0.4
2024-05-23T2300,2609A,103.3861,23.35,红河哈尼族彝族自治州,监测站,,39,39,19,16,14,87,,112,99,11,11,7,6,0.4,0.4
2024-05-23T2300,3038A,103.3758,23.368,红河哈尼族彝族自治州,州图书馆,,39,27,23,27,16,89,,107,98,9,9,4,4,0.4,0.4
2024-05-23T2300,1090A,111.6507,40.7517,呼和浩特市,呼市一监,颗粒物(PM10),75,100,88,40,39,101,,204,165,19,22,7,12,0.4,0.5
2024-05-23T2300,1091A,111.6572,40.8033,呼和浩特市,小召,颗粒物(PM10),75,100,91,29,31,107,,187,155,17,26,6,11,0.3,0.5
2024-05-23T2300,1094A,111.7516,40.8369,呼和浩特市,如意水处理厂,颗粒物(PM10),74,97,99,24,28,86,,189,148,21,32,6,10,0.4,0.5
2024-05-23T2300,1095A,111.7276,40.8062,呼和浩特市,二十九中,颗粒物(PM10),82,113,98,34,35,98,,200,161,18,26,2,6,0.4,0.5
2024-05-23T2300,1096A,111.5512,40.7866,呼和浩特市,工大金川校区,颗粒物(PM10),71,92,94,31,36,69,,191,144,28,28,5,11,0.4,0.5
2024-05-23T2300,1097A,111.717,40.7612,呼和浩特市,化肥厂生活区,颗粒物(PM10),92,134,105,43,37,90,,198,167,27,28,7,12,0.4,0.4
2024-05-23T2300,3698A,111.5968,40.8178,呼和浩特市,红旗小学,颗粒物(PM10),73,95,99,30,40,85,,203,158,20,33,3,8,0.3,0.5
2024-05-23T2300,3699A,111.6518,40.8389,呼和浩特市,海东办,颗粒物(PM10),81,112,102,42,39,89,,194,153,22,25,6,10,0.3,0.4
2024-05-23T2300,2192A,119.7594,49.2261,呼伦贝尔市,区环保局,细颗粒物(PM2.5),69,84,33,50,20,33,,76,64,47,14,4,4,0.7,0.4
2024-05-23T2300,3061A,119.7512,49.1577,呼伦贝尔市,国华电力东,颗粒物(PM10),53,55,25,28,12,40,,81,74,21,7,4,4,0.3,0.2
2024-05-23T2300,1250A,120.0751,30.8669,湖州市,城西水厂,,47,47,53,32,138,82,,177,148,30,20,5,5,0.7,0.6
2024-05-23T2300,2873A,120.0875,30.8955,湖州市,仁皇山新区,,43,43,47,30,34,90,,190,158,28,24,6,6,0.6,0.6
2024-05-23T2300,2907A,120.1844,30.8596,湖州市,吴兴区站,,40,36,44,28,30,85,,180,147,15,15,5,5,0.5,0.5
2024-05-23T2300,3562A,120.4148,30.8538,湖州市,南浔区站,,42,34,42,29,30,77,,171,135,20,16,14,8,0.5,0.4
2024-05-23T2300,1607A,120.9092,40.7136,葫芦岛市,龙港区,,32,32,48,8,26,42,,69,56,36,23,14,17,0.5,0.7
2024-05-23T2300,1608A,120.8392,40.7514,葫芦岛市,化工街,,41,41,44,14,17,57,,73,65,22,19,12,11,0.9,1.2
2024-05-23T2300,1609A,120.8341,40.7073,葫芦岛市,新区,,21,21,34,7,21,63,,75,68,21,16,8,8,0.6,0.7
2024-05-23T2300,1610A,120.8695,40.7677,葫芦岛市,东城区,,21,14,28,6,21,66,,78,68,16,15,7,6,0.7,0.8
2024-05-23T2300,2482A,109.5981,27.5721,怀化市,林科所,,36,32,37,15,24,114,,154,139,16,16,5,5,0.5,0.6
2024-05-23T2300,2483A,109.9453,27.5444,怀化市,河西地税局,,43,43,38,27,26,30,,125,96,18,11,7,6,0.7,0.7
2024-05-23T2300,2484A,109.9781,27.5342,怀化市,市四医院,,45,45,43,26,28,42,,144,112,38,16,4,4,0.7,0.7
2024-05-23T2300,2485A,109.9972,27.5578,怀化市,监测楼,,44,44,42,26,24,69,,143,119,13,11,9,9,0.6,0.6
2024-05-23T2300,2486A,110.0394,27.583,怀化市,市委党校,颗粒物(PM10),54,58,43,27,24,29,,138,88,35,19,4,5,0.7,0.6
2024-05-23T2300,1210A,119.036,33.5981,淮安市,钵池山,,43,41,51,30,38,81,,172,131,32,24,8,8,0.5,0.6
2024-05-23T2300,1211A,119.007,33.575,淮安市,北京南路,,44,44,52,29,39,90,,179,143,24,15,11,10,0.4,0.5
2024-05-23T2300,1212A,118.989,33.6067,淮安市,市监测站,,44,44,55,24,35,93,,176,145,23,18,8,9,0.5,0.7
2024-05-23T2300,1213A,119.135,33.5039,淮安市,楚州区监测站,颗粒物(PM10),52,54,60,30,36,77,,158,124,26,23,8,9,0.4,0.6
2024-05-23T2300,1214A,119.0186,33.6297,淮安市,淮阴区监测站,颗粒物(PM10),51,51,57,32,35,73,,174,136,39,22,7,8,0.4,0.5
2024-05-23T2300,3426A,118.8755,33.2894,淮安市,新华书店,,44,44,48,26,33,88,,168,144,24,17,6,7,0.4,0.5
2024-05-23T2300,2282A,116.8004,33.975,淮北市,监测站,颗粒物(PM10),65,79,54,35,25,156,,203,185,9,12,7,11,0.6,0.6
2024-05-23T2300,2283A,116.8091,33.9007,淮北市,烈山区政府,颗粒物(PM10),66,82,62,26,25,160,,205,186,10,14,5,11,0.5,0.5
2024-05-23T2300,3330A,116.8873,33.9836,淮北市,杜集区检察院,臭氧1小时,70,62,55,37,31,176,,209,193,10,13,7,10,0.6,0.6
2024-05-23T2300,4017A,116.7923,33.9535,淮北市,市博物馆,臭氧1小时,69,54,51,35,26,175,,212,197,8,12,7,10,0.6,0.6
2024-05-23T2300,2277A,116.8305,32.7727,淮南市,潘集区政府,颗粒物(PM10),59,68,63,36,35,120,,193,168,23,18,15,14,0.3,0.3
2024-05-23T2300,2278A,117.0067,32.6524,淮南市,师范学院,,50,50,53,33,33,123,,185,161,12,11,14,14,0.2,0.3
2024-05-23T2300,2279A,116.8569,32.5951,淮南市,谢家集区政府,颗粒物(PM10),59,67,55,14,28,117,,179,145,24,21,7,10,0.1,0.2
2024-05-23T2300,2280A,116.8281,32.633,淮南市,八公山区政府,颗粒物(PM10),57,64,54,29,33,115,,159,138,18,17,7,10,0.4,0.4
2024-05-23T2300,2281A,116.6325,32.6201,淮南市,焦岗湖风景区管理处,,43,43,46,15,18,64,,115,106,30,22,4,7,0.3,0.2
2024-05-23T2300,2894A,117.0566,32.6531,淮南市,经济技术开发区消防队,,44,44,44,22,27,121,,180,156,14,15,6,8,0.3,0.3
2024-05-23T2300,3329A,117.0108,32.5893,淮南市,山南新区,颗粒物(PM10),63,75,57,38,30,113,,189,166,20,13,9,8,0.4,0.3
2024-05-23T2300,2446A,114.9028,30.4742,黄冈市,职工中心,,47,47,36,28,16,62,,123,108,32,11,6,7,0.4,0.4
2024-05-23T2300,2929A,114.8858,30.4519,黄冈市,红卫路,,40,40,28,25,19,79,,128,111,29,13,6,7,0.7,0.7
2024-05-23T2300,3398A,114.9136,30.4445,黄冈市,市林业局,,37,37,28,23,18,81,,134,116,23,10,3,4,0.8,0.7
2024-05-23T2300,2672A,102.0199,35.5102,黄南藏族自治州,同仁县隆务镇,颗粒物(PM10),68,86,55,29,24,121,,162,149,1,2,9,8,0.5,0.5
2024-05-23T2300,2295A,118.2903,29.6963,黄山市,延安路89号,,21,20,34,3,10,67,,104,89,6,6,5,5,0.4,0.4
2024-05-23T2300,2296A,118.327,29.7178,黄山市,黄山东路89号,,,13,22,7,7,,,102,95,5,7,5,5,,0.3
2024-05-23T2300,2297A,118.1371,30.2756,黄山市,黄山区政府5号楼,,14,14,19,7,14,29,,80,56,5,6,4,4,0.4,0.4
2024-05-23T2300,2423A,115.0601,30.2313,黄石市,沈家营,,38,38,36,14,14,50,,126,98,29,19,18,20,0.7,0.6
2024-05-23T2300,2424A,115.0817,30.2006,黄石市,陈家湾,,20,18,36,11,16,64,,129,105,5,16,4,6,0.5,0.7
2024-05-23T2300,2426A,114.8988,30.2019,黄石市,铁山,,33,33,37,9,15,72,,134,118,7,13,8,12,0.4,0.6
2024-05-23T2300,2427A,115.0307,30.2092,黄石市,团城山,,40,40,37,9,12,79,,129,115,12,12,8,10,0.5,0.4
2024-05-23T2300,3149A,115.0235,30.1578,黄石市,笔架山北路,,30,26,35,3,9,93,,121,114,4,10,4,4,0.6,0.7
2024-05-23T2300,1393A,114.4053,23.0822,惠州市,下埔横江三路子站,,21,9,19,6,12,65,,74,68,11,11,5,6,0.6,0.6
2024-05-23T2300,1394A,114.4103,23.1142,惠州市,江北云山西路子站,,17,14,19,6,9,52,,70,63,15,11,5,6,0.6,0.6
2024-05-23T2300,1395A,114.4645,22.7833,惠州市,惠阳区承修路船湖子站,,20,20,13,14,9,43,,66,54,19,15,3,3,0.7,0.6
2024-05-23T2300,1396A,114.5317,22.7422,惠州市,大亚湾管委会子站,,23,17,12,10,7,21,,74,53,45,17,4,4,0.9,0.8
2024-05-23T2300,3452A,114.6517,22.775,惠州市,大亚湾霞涌,,14,12,10,3,6,43,,68,58,10,8,4,5,0.5,0.6
2024-05-23T2300,2240A,130.9762,45.3001,鸡西市,环保局,,26,26,32,18,16,58,,72,63,4,5,6,6,0.2,0.2
2024-05-23T2300,2243A,130.9429,45.3039,鸡西市,第一中学,,43,28,29,17,15,135,,154,147,3,5,7,8,0.3,0.3
2024-05-23T2300,3707A,131.0207,45.3073,鸡西市,欧美日汽修厂,,26,26,30,15,16,51,,74,65,13,11,6,6,0.3,0.3
2024-05-23T2300,3709A,130.9967,45.3106,鸡西市,市政设施管理处,,35,35,43,14,15,48,,75,60,14,14,8,8,0.3,0.4
2024-05-23T2300,2367A,114.9754,27.0803,吉安市,红声器材厂,,34,34,27,12,14,46,,97,73,18,15,10,10,0.5,0.5
2024-05-23T2300,2368A,114.9658,27.0999,吉安市,市森林工业局,,28,27,25,19,17,40,,111,72,21,15,11,11,0.7,0.5
2024-05-23T2300,2369A,114.99,27.1312,吉安市,市环境监测站,,36,36,27,19,16,46,,108,80,19,14,12,12,0.7,0.6
2024-05-23T2300,2370A,115.0093,27.0968,吉安市,青原区法院,,38,29,25,26,16,33,,90,69,24,18,9,9,0.5,0.5
2024-05-23T2300,1772A,126.54,43.8622,吉林市,哈达湾,,27,27,31,10,15,49,,93,83,30,14,4,7,0.5,0.5
2024-05-23T2300,1773A,126.5844,43.8358,吉林市,东局子,,30,30,36,14,17,16,,89,63,50,22,4,6,0.7,0.5
2024-05-23T2300,1774A,126.5052,43.8245,吉林市,电力学院,颗粒物(PM10),54,58,42,28,21,14,,95,67,43,16,9,10,0.6,0.5
2024-05-23T2300,1775A,126.6133,43.8972,吉林市,江北,,37,37,37,14,16,33,,88,67,36,22,7,10,0.7,0.6
2024-05-23T2300,1776A,126.555,43.8306,吉林市,江南公园,,26,26,36,12,19,47,,89,73,26,19,4,6,0.5,0.5
2024-05-23T2300,2868A,126.4739,43.953,吉林市,九站,,28,28,38,10,16,38,,93,72,39,21,6,10,0.5,0.6
2024-05-23T2300,1299A,116.9862,36.6114,济南市,科干所,颗粒物(PM10),115,180,59,37,23,82,,188,171,33,10,11,8,0.7,0.4
2024-05-23T2300,1300A,116.9376,36.665,济南市,农科所,颗粒物(PM10),91,132,62,27,18,88,,183,162,30,17,8,7,0.6,0.5
2024-05-23T2300,1301A,117.1265,36.6734,济南市,开发区,颗粒物(PM10),86,122,60,42,26,88,,195,173,25,11,13,8,0.6,0.3
2024-05-23T2300,1303A,117.0624,36.6868,济南市,省种子仓库,颗粒物(PM10),89,127,69,41,22,80,,191,168,26,9,10,5,0.6,0.4
2024-05-23T2300,1304A,116.9489,36.6447,济南市,机床二厂,颗粒物(PM10),111,171,72,34,21,84,,189,170,26,9,10,10,0.7,0.5
2024-05-23T2300,1305A,117.0495,36.663,济南市,市监测站,颗粒物(PM10),99,147,61,32,22,89,,198,176,35,19,15,10,0.7,0.5
2024-05-23T2300,1306A,116.7675,36.5484,济南市,长清党校,颗粒物(PM10),84,117,60,24,25,141,,196,189,26,12,8,8,0.4,0.5
2024-05-23T2300,1616A,117.6795,36.229,济南市,技术学院,颗粒物(PM10),60,70,58,34,28,147,,195,180,24,18,9,10,0.8,0.7
2024-05-23T2300,1961A,117.532,36.6868,济南市,东山小学,颗粒物(PM10),78,105,70,37,24,86,,200,169,23,12,6,7,0.5,0.4
2024-05-23T2300,3059A,117.7161,36.2049,济南市,泰兴公司,颗粒物(PM10),76,102,62,44,27,55,,188,155,93,30,13,10,0.8,0.6
2024-05-23T2300,3064A,117.6867,36.2171,济南市,莱芜战役纪念馆,颗粒物(PM10),63,75,61,29,24,140,,183,168,25,19,11,11,0.5,0.6
2024-05-23T2300,3494A,117.1673,36.9782,济南市,济阳区政府,颗粒物(PM10),61,71,74,32,26,97,,204,161,13,26,6,8,0.3,0.3
2024-05-23T2300,3495A,117.1171,36.63,济南市,锦屏中学,颗粒物(PM10),94,137,55,37,21,92,,191,169,21,10,12,8,0.5,0.3
2024-05-23T2300,3682A,116.9814,36.6819,济南市,济南四建,颗粒物(PM10),89,127,60,37,23,81,,187,166,23,10,9,7,0.7,0.6
2024-05-23T2300,1653A,116.6251,35.4302,济宁市,火炬城,颗粒物(PM10),57,63,48,27,20,156,,179,174,14,9,9,10,0.7,0.6
2024-05-23T2300,1655A,116.5491,35.4042,济宁市,电化厂,颗粒物(PM10),61,72,61,31,25,156,,180,177,10,6,8,8,0.8,0.7
2024-05-23T2300,3500A,116.5814,35.3707,济宁市,北湖一中,颗粒物(PM10),52,53,45,34,16,144,,174,168,16,8,7,10,0.3,0.2
2024-05-23T2300,3501A,116.8249,35.5593,济宁市,服务中心,颗粒物(PM10),64,77,53,26,17,144,,190,177,17,11,5,4,0.7,0.6
2024-05-23T2300,3678A,116.5907,35.4054,济宁市,市第七中学,颗粒物(PM10),61,71,52,24,16,157,,187,179,18,9,6,7,0.5,0.5
2024-05-23T2300,2255A,130.2751,46.8028,佳木斯市,佳纺,,17,8,21,3,8,52,,75,57,5,8,4,4,0.2,0.2
2024-05-23T2300,2256A,130.3995,46.8307,佳木斯市,发电厂,,15,9,24,3,8,48,,76,56,6,5,7,6,0.4,0.3
2024-05-23T2300,2257A,130.3258,46.7975,佳木斯市,环保局,,14,8,13,3,8,43,,75,50,9,7,4,4,0.5,0.4
2024-05-23T2300,2258A,130.3648,46.8032,佳木斯市,十一中,,16,8,16,3,7,50,,78,55,8,7,6,6,0.4,0.4
2024-05-23T2300,2259A,130.3794,46.7588,佳木斯市,四丰,,,3,9,,7,46,,75,52,8,7,1,2,0.6,0.6
2024-05-23T2300,1252A,120.7436,30.778,嘉兴市,清河小学,,32,32,32,16,16,78,,156,123,15,15,4,5,0.9,0.9
2024-05-23T2300,1253A,120.726,30.7478,嘉兴市,嘉兴学院,,33,28,34,23,22,65,,155,116,20,15,7,6,0.5,0.4
2024-05-23T2300,2872A,120.7846,30.7525,嘉兴市,南湖区残联,,29,29,29,20,21,79,,156,120,13,12,6,7,0.4,0.5
2024-05-23T2300,3407A,120.6916,30.7739,嘉兴市,秀洲住建,,29,29,30,15,19,73,,169,124,17,16,6,6,0.7,0.7
2024-05-23T2300,1945A,98.2908,39.7711,嘉峪关市,气象局,颗粒物(PM10),54,58,103,29,33,66,,104,86,18,21,3,37,0.4,1.1
2024-05-23T2300,2884A,98.2672,39.7978,嘉峪关市,酒钢宾馆,颗粒物(PM10),57,63,96,34,37,73,,101,89,12,18,11,53,0.2,0.5
2024-05-23T2300,3248A,98.2643,39.7724,嘉峪关市,雄关区,颗粒物(PM10),51,52,72,24,28,73,,99,87,17,22,6,13,0.9,0.5
2024-05-23T2300,1383A,113.1064,22.6058,江门市,北街,,19,,38,8,37,31,,92,45,38,24,3,4,0.6,0.7
2024-05-23T2300,1384A,113.0731,22.5835,江门市,西区,,13,,35,9,25,28,,100,47,23,24,5,6,0.5,0.7
2024-05-23T2300,1385A,113.0219,22.5311,江门市,圭峰西,,10,9,34,3,20,25,,111,48,20,17,4,4,0.5,0.7
2024-05-23T2300,1386A,113.0828,22.5947,江门市,东湖,,16,12,46,3,17,26,,98,46,32,22,6,5,0.6,0.7
2024-05-23T2300,3311A,113.1075,22.5647,江门市,江海富民,,39,,79,27,57,26,,95,42,26,23,4,5,0.6,0.7
2024-05-23T2300,1828A,113.227,35.2125,焦作市,市环保局,颗粒物(PM10),67,83,66,37,34,131,,210,184,24,16,4,5,0.4,0.4
2024-05-23T2300,3169A,113.2725,35.2067,焦作市,太极体育中心,颗粒物(PM10),77,104,73,32,34,139,,213,188,23,17,7,7,0.5,0.4
2024-05-23T2300,3335A,113.3137,35.2641,焦作市,马村街道办,颗粒物(PM10),68,85,66,36,33,140,,206,178,20,13,8,7,0.7,0.5
2024-05-23T2300,3336A,113.2465,35.2373,焦作市,焦作技师学院,颗粒物(PM10),62,74,64,31,31,137,,192,170,17,17,3,4,0.4,0.5
2024-05-23T2300,3477A,113.1656,35.2539,焦作市,中站许衡医院,颗粒物(PM10),53,56,55,34,30,159,,202,185,12,17,8,9,0.3,0.4
2024-05-23T2300,3981A,113.2449,35.1803,焦作市,原李万街道办,颗粒物(PM10),64,78,67,31,34,136,,194,172,23,22,8,11,0.4,0.5
2024-05-23T2300,1708A,116.3701,23.5345,揭阳市,新兴,,20,14,14,14,13,45,,62,54,23,20,4,5,0.8,0.6
2024-05-23T2300,1709A,116.3264,23.5443,揭阳市,西马,,14,14,19,8,10,42,,65,55,18,14,6,6,0.8,0.8
2024-05-23T2300,1710A,116.3611,23.5626,揭阳市,东兴,,16,16,18,11,12,48,,62,56,18,17,5,5,1.2,0.9
2024-05-23T2300,1711A,116.4151,23.5294,揭阳市,渔湖,,20,20,16,13,16,42,,56,51,18,13,6,6,0.9,0.8
2024-05-23T2300,3320A,116.403,23.5699,揭阳市,曲溪,,13,11,13,3,11,40,,58,48,26,21,5,4,0.9,0.7
2024-05-23T2300,1944A,102.1692,38.5167,金昌市,天庆家园,颗粒物(PM10),362,469,167,220,66,84,,118,108,4,7,7,6,0.4,0.5
2024-05-23T2300,3170A,102.1864,38.5253,金昌市,市委党校,颗粒物(PM10),486,586,211,214,74,91,,125,115,2,4,6,12,0.3,0.4
2024-05-23T2300,4022A,102.1647,38.5371,金昌市,金川区人防中心,颗粒物(PM10),406,506,197,189,71,93,,128,117,6,5,9,10,0.6,0.5
2024-05-23T2300,1262A,119.647,29.077,金华市,十五中,,33,33,48,18,35,54,,154,119,18,20,4,4,0.5,0.5
2024-05-23T2300,1263A,119.686,29.1029,金华市,监测站,,34,34,52,23,35,47,,159,117,31,24,4,3,0.4,0.4
2024-05-23T2300,3659A,119.656,29.1131,金华市,气象局,细颗粒物(PM2.5),52,47,54,36,36,32,,167,128,57,32,5,5,0.7,0.5
2024-05-23T2300,1767A,121.1115,41.0879,锦州市,南山,,21,20,31,6,18,67,,80,71,15,16,8,9,0.4,0.5
2024-05-23T2300,1768A,121.0533,40.8434,锦州市,开发区,,25,25,32,10,23,28,,79,60,49,23,11,10,0.5,0.6
2024-05-23T2300,1769A,121.1836,41.1119,锦州市,百股街道,,18,12,25,7,15,56,,79,68,18,19,6,6,0.4,0.5
2024-05-23T2300,1770A,121.1178,41.1222,锦州市,天安街道,,19,10,26,8,16,60,,78,69,19,17,9,9,0.6,0.7
2024-05-23T2300,1771A,121.1303,41.1386,锦州市,北湖公园,,20,10,28,7,21,63,,79,71,12,13,9,9,0.4,0.6
2024-05-23T2300,2160A,112.85,35.5051,晋城市,自来水公司,颗粒物(PM10),71,92,71,24,27,104,,229,201,49,28,6,8,0.9,0.8
2024-05-23T2300,2161A,112.8318,35.4936,晋城市,白云商贸,颗粒物(PM10),76,102,82,29,26,94,,228,193,51,25,7,8,0.8,0.7
2024-05-23T2300,2162A,112.8508,35.4887,晋城市,市环保局,颗粒物(PM10),84,118,99,34,30,76,,225,188,83,41,7,8,0.8,0.6
2024-05-23T2300,2163A,112.8676,35.4897,晋城市,技术学院,颗粒物(PM10),68,86,66,24,27,117,,227,203,57,31,8,8,0.7,0.7
2024-05-23T2300,3620A,112.8271,35.4828,晋城市,泽州一中,,,,68,,24,,,212,204,29,28,9,9,0.7,0.8
2024-05-23T2300,2171A,112.7532,37.6945,晋中市,锦纶小区,臭氧1小时,98,117,88,39,29,198,,223,212,16,25,12,17,0.6,0.5
2024-05-23T2300,2173A,112.7249,37.7067,晋中市,南都小区,臭氧1小时,99,99,82,46,33,199,,223,207,16,21,12,20,0.6,0.7
2024-05-23T2300,2174A,112.6991,37.6982,晋中市,榆次区政府,臭氧1小时,100,107,79,36,33,200,,225,211,18,22,14,20,0.5,0.8
2024-05-23T2300,2865A,112.7195,37.6828,晋中市,榆次三中,臭氧1小时,104,127,89,36,28,207,,226,214,14,24,12,18,0.7,0.7
2024-05-23T2300,2439A,112.2014,31.0481,荆门市,竹园小学,细颗粒物(PM2.5),75,72,85,55,60,150,,201,191,19,18,10,10,0.7,0.6
2024-05-23T2300,2440A,112.1969,30.9891,荆门市,掇刀,细颗粒物(PM2.5),77,89,85,56,60,163,,199,192,16,20,9,10,0.6,0.6
2024-05-23T2300,2441A,112.2213,31.0386,荆门市,石化一小,细颗粒物(PM2.5),64,59,96,46,60,157,,206,199,19,29,13,14,0.7,0.8
2024-05-23T2300,3012A,112.1849,31.0362,荆门市,西山林语,细颗粒物(PM2.5),68,,73,49,53,143,,198,183,10,12,7,8,0.8,0.7
2024-05-23T2300,3547A,112.1632,31.0138,荆门市,龙泉中学南校,颗粒物(PM10),57,64,67,38,40,129,,200,186,25,29,8,10,0.5,0.5
2024-05-23T2300,1844A,112.2494,30.3197,荆州市,市图书馆,细颗粒物(PM2.5),58,64,51,41,35,133,,203,178,24,23,9,8,0.7,0.6
2024-05-23T2300,1845A,112.2008,30.3544,荆州市,市委党校,细颗粒物(PM2.5),63,58,61,45,45,132,,208,180,30,23,10,8,0.7,0.7
2024-05-23T2300,3194A,112.2747,30.3122,荆州市,管委会,细颗粒物(PM2.5),74,61,57,54,41,149,,208,181,17,20,6,5,0.6,0.6
2024-05-23T2300,3548A,112.1655,30.3364,荆州市,学苑路,细颗粒物(PM2.5),69,50,51,50,51,134,,213,175,24,28,7,6,0.6,0.6
2024-05-23T2300,2343A,117.2117,29.2933,景德镇市,老干部活动中心,,23,20,24,16,19,42,,92,66,14,10,6,7,0.3,0.2
2024-05-23T2300,2344A,117.1894,29.2789,景德镇市,兽医站,,32,31,29,22,18,41,,110,76,17,10,6,6,0.6,0.5
2024-05-23T2300,2345A,117.1547,29.2617,景德镇市,台达陶瓷,,27,27,21,12,19,23,,94,63,38,18,43,27,0.4,0.3
2024-05-23T2300,2346A,117.2461,29.2956,景德镇市,陶研所,,25,22,26,17,15,40,,111,70,9,9,4,5,0.2,0.2
2024-05-23T2300,1803A,115.9872,29.6815,九江市,十里,,32,28,23,22,12,49,,112,86,26,22,9,9,0.7,0.6
2024-05-23T2300,1804A,115.9584,29.7046,九江市,茅山头,,35,35,24,17,14,25,,112,84,47,28,8,9,0.7,0.5
2024-05-23T2300,1805A,115.9877,29.7295,九江市,西园,,32,30,22,22,14,48,,107,84,53,42,11,12,0.6,0.6
2024-05-23T2300,1806A,116.0172,29.6547,九江市,五七二七厂,,25,25,16,13,12,71,,101,87,8,9,9,11,0.5,0.6
2024-05-23T2300,1808A,115.9114,29.6038,九江市,综合工业园,,35,34,21,24,13,47,,113,86,52,24,6,7,0.8,0.8
2024-05-23T2300,1809A,116.0721,29.7535,九江市,石化总厂,,38,33,33,26,19,64,,109,94,23,32,12,12,0.6,0.7
2024-05-23T2300,1810A,115.9773,29.5698,九江市,庐山气象台,,27,18,13,11,12,86,,92,92,2,3,7,10,0.5,0.7
2024-05-23T2300,3190A,116.0254,29.6994,九江市,外国语学校,,32,23,22,22,15,85,,102,94,16,27,3,7,0.6,0.7
2024-05-23T2300,2658A,98.5061,39.7443,酒泉市,仓门街子站,颗粒物(PM10),56,61,76,35,28,80,,96,85,8,5,3,2,0.3,0.2
2024-05-23T2300,2659A,98.4989,39.7256,酒泉市,油田生活基地,颗粒物(PM10),58,66,79,35,33,79,,98,86,8,6,3,2,0.2,0.2
2024-05-23T2300,2698A,76.0072,39.4467,喀什地区,巡警大队,,37,26,374,3,80,116,,105,104,12,18,4,3,0.3,0.3
2024-05-23T2300,4027A,75.9483,39.4689,喀什地区,老干局,颗粒物(PM10),500,810,450,132,107,133,,108,108,6,17,4,3,0.3,0.3
2024-05-23T2300,1824A,114.3389,34.7781,开封市,肿瘤医院,颗粒物(PM10),63,76,75,22,25,103,,183,154,23,16,7,3,0.4,0.4
2024-05-23T2300,1826A,114.2885,34.7965,开封市,世纪星幼儿园,颗粒物(PM10),55,60,69,19,27,119,,186,162,17,16,2,2,0.3,0.3
2024-05-23T2300,3147A,114.3438,34.8106,开封市,龙亭公园,颗粒物(PM10),62,74,69,20,25,102,,183,156,23,14,5,4,0.4,0.5
2024-05-23T2300,3210A,114.3644,34.7964,开封市,汴京公园,颗粒物(PM10),64,78,69,29,33,107,,183,152,21,20,3,3,0.4,0.5
2024-05-23T2300,3473A,114.2485,34.8306,开封市,技师学院,颗粒物(PM10),53,56,74,19,27,131,,192,171,14,15,6,7,0.3,0.5
2024-05-23T2300,3592A,114.4644,34.7556,开封市,祥符区生态环境局,颗粒物(PM10),70,90,80,23,30,95,,175,140,30,29,6,7,0.4,0.4
2024-05-23T2300,1951A,84.895,45.6094,克拉玛依市,长征新村,,24,10,11,3,6,75,,98,84,8,8,8,8,0.2,0.2
2024-05-23T2300,1952A,84.8988,45.5893,克拉玛依市,南林小区,,27,9,10,9,8,84,,100,89,6,9,8,9,0.3,0.3
2024-05-23T2300,1954A,84.905,44.3396,克拉玛依市,独山子区,,25,24,24,8,9,80,,100,91,14,10,8,9,0.4,0.3
2024-05-23T2300,1955A,85.6979,46.098,克拉玛依市,乌尔禾区商贸楼,,30,,11,14,5,96,,92,92,3,4,8,8,0.2,0.2
2024-05-23T2300,3612A,85.1045,45.6899,克拉玛依市,白碱滩区新站,,27,7,8,3,6,84,,103,93,6,7,7,8,0.2,0.2
2024-05-23T2300,2697A,76.1454,39.7142,克孜勒苏柯尔克孜自治州,市人民政府,颗粒物(PM10),283,408,248,181,117,143,,114,112,1,8,7,8,0.1,0.2
2024-05-23T2300,3665A,76.1658,39.7157,克孜勒苏柯尔克孜自治州,克州文化中心,细颗粒物(PM2.5),343,,248,293,94,135,,116,111,2,12,8,8,0.2,0.2
2024-05-23T2300,1450A,102.8204,24.8886,昆明市,呈贡新区,细颗粒物(PM2.5),52,41,37,36,27,90,,142,127,21,23,6,6,0.7,0.7
2024-05-23T2300,1452A,102.7252,25.0902,昆明市,龙泉镇,,50,50,24,17,16,90,,146,122,27,21,9,8,0.7,0.6
2024-05-23T2300,1453A,102.7266,25.0375,昆明市,东风东路,,31,31,27,19,18,94,,142,119,21,16,7,6,0.6,0.6
2024-05-23T2300,1454A,102.6742,25.0669,昆明市,金鼎山,,39,39,27,16,16,98,,148,129,24,17,6,5,0.6,0.6
2024-05-23T2300,1455A,102.6644,25.0401,昆明市,碧鸡广场,,43,43,26,26,17,82,,140,115,33,18,5,5,0.6,0.6
2024-05-23T2300,3179A,102.7494,25.0119,昆明市,官渡区博物馆,,36,31,30,15,18,115,,162,134,15,20,11,10,0.5,0.5
2024-05-23T2300,3375A,102.8017,24.8336,昆明市,青年创业园,,34,34,41,20,29,105,,155,139,14,22,8,9,0.6,0.7
2024-05-23T2300,3550A,102.7997,24.9786,昆明市,昆明学院,,37,37,36,22,22,114,,156,136,13,26,9,9,0.7,0.6
2024-05-23T2300,3551A,102.5967,24.6736,昆明市,晋宁区生态环境分局,,36,31,42,24,33,114,,142,132,12,15,2,3,0.4,0.7
2024-05-23T2300,3552A,102.6678,24.9856,昆明市,云天化总部,,37,24,24,17,19,117,,151,136,14,15,6,5,0.7,0.7
2024-05-23T2300,1456A,91.1319,29.6514,拉萨市,八廓街,,47,17,19,7,11,149,,152,152,3,7,7,7,0.3,0.3
2024-05-23T2300,1457A,91.1221,29.6747,拉萨市,市环保局,,46,14,18,8,10,147,,148,148,13,12,6,6,0.2,0.2
2024-05-23T2300,1458A,91.0874,29.6475,拉萨市,区监测站,,47,12,13,8,8,149,,150,150,8,11,6,6,0.2,0.2
2024-05-23T2300,1459A,91.1774,29.6541,拉萨市,西藏大学,,48,11,16,6,10,151,,155,155,4,6,5,4,0.4,0.3
2024-05-23T2300,1460A,90.9798,29.6588,拉萨市,区辐射站,,44,20,13,10,9,139,,140,140,18,12,6,7,0.3,0.3
2024-05-23T2300,1461A,91.0834,29.6292,拉萨市,拉萨火车站,,46,10,13,8,7,145,,147,147,8,11,6,7,0.3,0.3
2024-05-23T2300,2520A,109.2203,23.7256,来宾市,来宾技工学校,,48,48,43,26,26,71,,144,122,22,14,4,7,0.7,0.8
2024-05-23T2300,3535A,109.1781,23.7297,来宾市,兴宾区政府,,50,50,38,31,25,74,,139,127,23,13,5,5,0.9,0.6
2024-05-23T2300,4002A,109.2416,23.7461,来宾市,中南小学,细颗粒物(PM2.5),59,62,45,42,29,56,,131,112,29,22,11,10,1.0,0.9
2024-05-23T2300,1476A,103.631,36.1031,兰州市,兰炼宾馆,颗粒物(PM10),67,83,74,46,37,48,,186,124,89,42,9,9,0.6,0.4
2024-05-23T2300,1478A,103.8412,36.0726,兰州市,生物制品所,细颗粒物(PM2.5),83,97,70,61,39,66,,158,126,39,30,11,12,0.4,0.4
2024-05-23T2300,1479A,103.831,36.0464,兰州市,铁路设计院,颗粒物(PM10),73,96,69,43,27,1,,159,112,139,45,8,7,1.2,0.5
2024-05-23T2300,3186A,103.7158,36.1058,兰州市,教育港,颗粒物(PM10),99,148,82,52,38,43,,172,133,80,29,9,10,0.5,0.4
2024-05-23T2300,3241A,103.7439,36.0842,兰州市,百合公园,细颗粒物(PM2.5),72,91,62,52,30,21,,158,106,99,35,4,6,0.5,0.3
2024-05-23T2300,3242A,103.9611,35.998,兰州市,和平,颗粒物(PM10),66,81,65,32,34,113,,163,148,25,18,9,10,0.4,0.4
2024-05-23T2300,3245A,103.6633,36.533,兰州新区,新区管委会,颗粒物(PM10),92,134,69,65,34,103,,164,149,25,14,17,12,0.7,0.4
2024-05-23T2300,3246A,103.6975,36.4789,兰州新区,舟曲中学,颗粒物(PM10),89,128,93,40,33,111,,170,153,28,13,9,9,0.4,0.3
2024-05-23T2300,1067A,116.6708,39.5111,廊坊市,药材公司,颗粒物(PM10),51,51,83,10,38,61,,182,110,18,16,3,4,0.5,0.5
2024-05-23T2300,1068A,116.7214,39.5589,廊坊市,开发区,颗粒物(PM10),52,54,95,11,38,66,,175,108,14,16,4,3,0.3,0.4
2024-05-23T2300,1070A,116.7244,39.5269,廊坊市,北华航天学院,颗粒物(PM10),53,55,100,12,39,65,,173,106,14,16,2,3,0.4,0.5
2024-05-23T2300,2919A,116.7022,39.5453,廊坊市,河北工业大学,,,53,100,11,38,,,169,,12,14,2,2,0.5,0.5
2024-05-23T2300,2535A,103.7723,29.5462,乐山市,花湖湾,,45,45,45,31,38,101,,157,146,24,20,9,8,0.9,0.9
2024-05-23T2300,2536A,103.7627,29.5844,乐山市,牛耳桥,,42,42,47,26,34,47,,159,123,61,29,6,9,0.6,0.6
2024-05-23T2300,2537A,103.7508,29.6006,乐山市,市第三水厂,,50,50,44,26,32,41,,160,125,57,27,4,5,0.6,0.5
2024-05-23T2300,2538A,103.7571,29.5664,乐山市,市监测站,细颗粒物(PM2.5),52,45,50,36,34,94,,164,142,31,26,18,13,0.3,0.7
2024-05-23T2300,3361A,103.7311,29.5628,乐山市,理工大学,,41,41,50,26,34,81,,174,139,34,25,33,16,0.8,0.7
2024-05-23T2300,2599A,100.2497,26.8802,丽江市,丽江古城,,33,,18,23,12,84,,133,125,21,13,7,6,0.5,0.5
2024-05-23T2300,2600A,100.2203,26.8906,丽江市,市中心,,27,26,12,14,8,86,,135,126,27,11,7,7,0.2,0.2
2024-05-23T2300,1267A,119.914,28.4514,丽水市,监测站大楼,,38,30,32,26,23,60,,96,78,10,14,3,2,0.7,0.7
2024-05-23T2300,1268A,119.93,28.4586,丽水市,莲都小学,,38,35,38,26,24,60,,97,82,13,15,4,4,0.4,0.6
2024-05-23T2300,1269A,119.879,28.4231,丽水市,余庄前,,33,31,33,23,23,30,,96,56,13,10,4,4,0.6,0.6
2024-05-23T2300,1173A,119.176,34.5885,连云港市,市环境监测站,,41,41,53,24,34,63,,156,122,12,12,6,7,0.3,0.4
2024-05-23T2300,3000A,119.3581,34.6972,连云港市,德源药业,,29,29,40,14,22,74,,142,102,10,14,5,6,0.4,0.5
2024-05-23T2300,3007A,119.178,34.844,连云港市,新城一中,,37,37,41,15,27,54,,148,95,31,18,6,7,0.8,0.8
2024-05-23T2300,3008A,119.3608,34.7519,连云港市,胡沟管理处,,36,36,43,14,21,100,,117,94,10,17,8,9,0.5,0.5
2024-05-23T2300,3009A,119.1478,34.5911,连云港市,矿山设计院,,46,46,52,19,30,60,,158,124,13,12,5,6,0.3,0.5
2024-05-23T2300,3434A,119.2413,34.6539,连云港市,工贸学校,,22,22,45,13,26,68,,134,107,7,9,8,9,0.5,0.6
2024-05-23T2300,3664A,119.4172,34.7341,连云港市,连云街道,,36,36,45,20,28,101,,148,122,8,17,4,6,0.5,0.5
2024-05-23T2300,2571A,102.3431,27.8099,凉山彝族自治州,青龙寺,,29,20,16,10,12,92,,167,147,8,6,8,10,0.3,0.4
2024-05-23T2300,2572A,102.2721,27.8415,凉山彝族自治州,邛海宾馆,,37,17,21,12,13,116,,157,137,10,11,8,11,0.4,0.6
2024-05-23T2300,2573A,102.2625,27.898,凉山彝族自治州,西昌市政府,,36,18,23,10,15,114,,162,149,4,8,5,11,0.5,0.6
2024-05-23T2300,2574A,102.2685,27.8851,凉山彝族自治州,凉山州政府,,35,19,22,12,15,112,,159,144,6,10,7,10,0.4,0.6
2024-05-23T2300,2575A,102.237,27.8914,凉山彝族自治州,长安,,35,26,30,14,15,110,,164,150,10,15,9,12,0.6,0.6
2024-05-23T2300,2212A,123.2,41.1953,辽阳市,宏伟区,,21,21,16,13,10,41,,82,47,20,14,15,10,0.7,0.6
2024-05-23T2300,2213A,123.1683,41.2495,辽阳市,新华园,,20,20,17,12,13,48,,85,54,22,18,14,11,0.7,0.6
2024-05-23T2300,2214A,123.2354,41.2639,辽阳市,滨河路,,50,,19,35,17,41,,83,52,22,14,22,9,0.5,0.4
2024-05-23T2300,2215A,123.149,41.2991,辽阳市,铁西工业园,,26,26,18,13,12,42,,86,58,24,17,14,12,0.5,0.4
2024-05-23T2300,2227A,125.1358,42.8845,辽源市,环保局,,32,29,21,22,14,15,,88,59,30,16,7,7,0.5,0.5
2024-05-23T2300,3239A,125.0764,42.9078,辽源市,银鹰制药,,30,30,21,16,14,6,,87,58,45,18,7,6,0.6,0.6
2024-05-23T2300,1625A,115.9848,36.4372,聊城市,区政府,颗粒物(PM10),60,69,71,28,23,139,,179,166,20,15,11,9,0.7,0.8
2024-05-23T2300,2878A,116.0072,36.4343,聊城市,聊大东校,颗粒物(PM10),59,67,67,38,30,138,,189,170,14,10,5,10,0.2,0.4
2024-05-23T2300,3200A,115.9819,36.4978,聊城市,监控中心,颗粒物(PM10),60,69,76,29,30,153,,190,179,16,14,9,10,0.6,0.7
2024-05-23T2300,3513A,116.0445,36.4361,聊城市,九州社区,颗粒物(PM10),62,73,80,22,23,137,,186,168,18,14,11,14,0.4,0.4
2024-05-23T2300,4018A,116.0567,36.4608,聊城市,星美广场,颗粒物(PM10),62,74,74,28,24,134,,182,163,24,16,6,9,0.5,0.6
2024-05-23T2300,2632A,94.3681,29.6376,林芝市,林芝监测站,,,,12,13,13,,,127,120,1,3,6,7,0.3,0.3
2024-05-23T2300,2633A,94.3616,29.6616,林芝市,林芝人民医院,,37,13,12,7,7,117,,133,126,3,5,7,7,0.4,0.4
2024-05-23T2300,2603A,100.0781,23.8982,临沧市,市环保局,细颗粒物(PM2.5),64,,25,46,21,66,,107,94,12,11,6,6,0.6,0.5
2024-05-23T2300,2604A,100.0894,23.8822,临沧市,市气象局,细颗粒物(PM2.5),52,44,27,36,22,56,,105,90,19,13,7,7,0.7,0.5
2024-05-23T2300,1733A,111.5531,36.0783,临汾市,临钢医院,颗粒物(PM10),85,120,76,39,28,79,,202,170,45,19,7,8,1.0,0.7
2024-05-23T2300,1734A,111.5028,36.0714,临汾市,技工学校,颗粒物(PM10),79,107,80,39,33,108,,219,187,47,22,14,11,0.7,0.7
2024-05-23T2300,1736A,111.5018,36.0855,临汾市,市委,颗粒物(PM10),78,106,75,35,27,104,,224,188,51,22,14,11,0.7,0.8
2024-05-23T2300,3018A,111.505,36.1014,临汾市,唐尧大酒店,,,111,81,31,26,,,196,,36,18,14,10,0.7,0.7
2024-05-23T2300,3668A,111.5036,36.0414,临汾市,城南,颗粒物(PM10),75,100,82,42,36,88,,217,163,64,30,15,11,0.6,0.7
2024-05-23T2300,2667A,103.2069,35.5993,临夏回族自治州,环保局,颗粒物(PM10),95,140,91,50,39,67,,156,140,33,21,7,5,0.4,0.4
2024-05-23T2300,2668A,103.2417,35.6057,临夏回族自治州,建设大厦,颗粒物(PM10),90,129,81,62,31,47,,158,123,50,21,13,12,0.6,0.4
2024-05-23T2300,1618A,118.3429,35.0532,临沂市,沂河小区,细颗粒物(PM2.5),63,66,59,45,32,147,,209,193,17,20,8,13,0.4,0.4
2024-05-23T2300,1619A,118.295,35.0583,临沂市,鲁南制药厂,细颗粒物(PM2.5),52,48,41,36,24,155,,218,200,16,16,13,13,0.5,0.4
2024-05-23T2300,1620A,118.2794,34.9976,临沂市,新光毛纺厂,细颗粒物(PM2.5),54,56,48,38,26,151,,209,193,13,18,9,12,0.6,0.6
2024-05-23T2300,1621A,118.3956,35.0888,临沂市,河东保险公司,颗粒物(PM10),65,80,54,31,29,134,,201,182,19,25,8,10,0.4,0.4
2024-05-23T2300,3370A,118.3564,35.0215,临沂市,十里堡居委,细颗粒物(PM2.5),55,41,42,39,31,144,,203,189,15,17,7,10,0.5,0.5
2024-05-23T2300,3496A,118.3604,35.1084,临沂市,南坊新区,颗粒物(PM10),53,56,49,29,25,149,,204,188,18,20,11,12,0.6,0.6
2024-05-23T2300,3860A,118.3920,35.0300,临沂市,皇山花园小区,颗粒物(PM10),57,63,53,37,30,146,,204,193,21,21,13,14,0.7,0.6
2024-05-23T2300,1870A,109.4856,24.3895,柳州市,柳东小学,,45,,30,31,26,106,,134,132,16,14,8,9,0.7,0.7
2024-05-23T2300,1871A,109.4157,24.3277,柳州市,环保监测站,颗粒物(PM10),51,51,48,32,32,100,,148,137,14,18,8,14,0.9,1.1
2024-05-23T2300,1872A,109.389,24.341,柳州市,河西水厂,颗粒物(PM10),52,53,47,29,28,84,,130,126,20,21,8,15,0.8,1
2024-05-23T2300,1873A,109.4311,24.2921,柳州市,市四中,,43,42,48,30,32,98,,164,148,22,18,6,13,0.5,0.7
2024-05-23T2300,1874A,109.4006,24.3631,柳州市,市九中,,50,48,51,35,36,100,,128,125,18,22,8,12,0.6,0.7
2024-05-23T2300,1875A,109.4958,24.3134,柳州市,古亭山,,46,46,43,23,27,54,,149,123,38,26,7,9,0.7,0.8
2024-05-23T2300,3402A,109.5422,24.3996,柳州市,市二中,,32,28,37,22,24,88,,133,127,26,16,13,6,0.6,0.6
2024-05-23T2300,2307A,116.5079,31.737,六安市,监测大楼,,22,22,36,15,24,56,,146,87,17,15,5,7,0.4,0.4
2024-05-23T2300,2308A,116.4738,31.7643,六安市,皖西学院,,23,23,35,11,21,53,,144,92,17,13,3,6,0.5,0.4
2024-05-23T2300,2309A,116.4996,31.7905,六安市,朝阳厂,,20,,37,13,23,61,,136,91,9,9,6,8,0.3,0.3
2024-05-23T2300,2310A,116.5567,31.7886,六安市,开发区,,17,9,45,3,28,52,,152,,16,20,9,13,0.5,0.5
2024-05-23T2300,2577A,104.83,26.5917,六盘水市,黄土坡,,43,43,23,23,16,43,,138,112,19,13,6,7,0.4,0.4
2024-05-23T2300,2578A,104.89,26.5939,六盘水市,水钢,,50,50,41,31,23,112,,146,132,14,20,9,12,0.4,0.5
2024-05-23T2300,2579A,104.8475,26.5894,六盘水市,民中,,45,42,24,31,16,97,,136,114,20,16,8,8,0.7,0.6
2024-05-23T2300,2580A,104.9544,26.5506,六盘水市,双水,,32,31,28,19,16,101,,138,115,12,12,6,7,0.4,0.4
2024-05-23T2300,2336A,117.0217,25.1033,龙岩市,龙岩市监测站,,26,22,18,18,15,15,,38,28,29,24,13,9,0.7,0.6
2024-05-23T2300,2337A,117.0258,25.0661,龙岩市,闽西职业技术学院,,18,18,17,7,9,10,,41,28,31,21,19,11,0.6,0.7
2024-05-23T2300,2338A,117.0196,25.0306,龙岩市,龙岩学院,,11,11,15,6,10,11,,43,26,11,14,2,5,0.5,0.6
2024-05-23T2300,2885A,104.9339,33.3826,陇南市,滨江中学,二氧化氮,66,69,57,19,19,48,,131,114,132,14,8,12,0.7,0.7
2024-05-23T2300,3247A,104.955,33.371,陇南市,市总工会,,48,48,42,22,15,130,,137,136,6,7,7,9,0.5,0.5
2024-05-23T2300,2487A,111.9589,27.8901,娄底市,电视发射台,,40,37,43,28,30,77,,149,120,5,6,6,7,0.8,0.8
2024-05-23T2300,2488A,111.9975,27.725,娄底市,市监测站,,48,48,60,31,34,78,,144,126,25,22,8,8,0.7,0.8
2024-05-23T2300,2489A,112.0194,27.7314,娄底市,市委党校,细颗粒物(PM2.5),52,51,48,36,37,78,,136,114,20,16,9,7,0.6,0.7
2024-05-23T2300,2490A,111.9561,27.7569,娄底市,涟钢,细颗粒物(PM2.5),77,92,54,56,38,26,,126,98,66,26,13,13,0.8,0.8
2024-05-23T2300,2491A,111.9892,27.7044,娄底市,市政府,细颗粒物(PM2.5),65,64,44,47,34,50,,145,113,30,14,8,8,0.7,0.5
2024-05-23T2300,1893A,105.4324,28.9634,泸州市,九狮山,颗粒物(PM10),55,60,37,34,23,42,,154,108,24,17,5,6,0.5,0.5
2024-05-23T2300,1894A,105.4427,28.9063,泸州市,小市上码头,颗粒物(PM10),58,65,42,38,25,85,,180,137,32,21,8,11,0.4,0.4
2024-05-23T2300,1895A,105.4241,28.8573,泸州市,兰田宪桥,细颗粒物(PM2.5),54,48,27,38,28,39,,180,123,56,30,5,6,0.5,0.4
2024-05-23T2300,1896A,105.4379,28.8833,泸州市,市环监站,,50,50,37,28,27,79,,173,132,37,26,26,11,0.5,0.5
2024-05-23T2300,3490A,105.3617,28.7703,泸州市,纳溪区环保局,颗粒物(PM10),60,69,35,41,17,32,,177,133,49,26,7,2,0.7,0.4
2024-05-23T2300,2183A,111.1406,37.5211,吕梁市,环保局,颗粒物(PM10),75,99,68,27,26,55,,183,125,66,32,3,4,0.5,0.5
2024-05-23T2300,2185A,111.1297,37.5136,吕梁市,自来水公司,颗粒物(PM10),64,77,71,19,27,70,,173,133,55,31,6,7,0.5,0.5
2024-05-23T2300,2867A,111.1283,37.51,吕梁市,马茂庄小学,颗粒物(PM10),71,92,76,25,27,57,,182,129,59,34,6,6,0.5,0.5
2024-05-23T2300,1812A,112.3931,34.6516,洛阳市,市委党校,颗粒物(PM10),63,76,61,34,34,137,,199,187,22,13,8,5,0.6,0.5
2024-05-23T2300,1814A,112.4657,34.6871,洛阳市,豫西宾馆,颗粒物(PM10),69,87,74,36,34,107,,202,182,40,17,6,6,0.6,0.6
2024-05-23T2300,1815A,112.494,34.6886,洛阳市,河南林校,细颗粒物(PM2.5),70,77,55,51,34,100,,198,179,49,19,6,7,0.4,0.4
2024-05-23T2300,1816A,112.3844,34.623,洛阳市,开发区管委会,"颗粒物(PM10),细颗粒物(PM2.5)",68,85,63,49,35,123,,194,179,25,15,7,5,0.3,0.2
2024-05-23T2300,1817A,112.4267,34.6258,洛阳市,市委新办公区,颗粒物(PM10),60,70,63,41,38,163,,198,188,15,13,10,9,0.3,0.4
2024-05-23T2300,3340A,112.6005,34.6326,洛阳市,伊滨,颗粒物(PM10),54,58,68,26,35,136,,198,185,24,19,7,9,0.3,0.4
2024-05-23T2300,3341A,112.4951,34.6332,洛阳市,中移产业园,颗粒物(PM10),59,68,62,30,32,133,,200,186,25,14,6,8,0.5,0.6
2024-05-23T2300,3593A,112.5736,34.8993,洛阳市,吉利监测站,颗粒物(PM10),67,84,68,44,34,58,,196,150,48,25,4,5,0.5,0.3
2024-05-23T2300,3635A,112.3677,34.662,洛阳市,河科大西苑校区,颗粒物(PM10),61,72,66,28,33,150,,196,186,15,13,10,7,0.5,0.6
2024-05-23T2300,3636A,112.4388,34.6781,洛阳市,英才小学,颗粒物(PM10),68,86,69,34,32,133,,198,182,27,16,6,8,0.6,0.6
2024-05-23T2300,2399A,114.051,33.5699,漯河市,三五一五工厂,颗粒物(PM10),63,76,57,28,28,118,,187,168,22,16,7,6,0.7,0.5
2024-05-23T2300,2400A,114.0055,33.5698,漯河市,漯河大学,颗粒物(PM10),61,71,62,39,37,126,,183,168,17,21,9,11,0.5,0.5
2024-05-23T2300,2401A,114.0138,33.5828,漯河市,市水利局,颗粒物(PM10),65,80,55,31,31,125,,185,174,14,14,7,10,0.5,0.4
2024-05-23T2300,2402A,114.0261,33.5698,漯河市,市广电局,颗粒物(PM10),62,73,59,28,28,121,,187,176,14,18,4,6,0.6,0.4
2024-05-23T2300,3478A,113.9749,33.5664,漯河市,市图书馆,颗粒物(PM10),57,63,63,33,30,127,,186,174,15,13,4,6,0.5,0.5
2024-05-23T2300,3479A,114.0967,33.5906,漯河市,召陵区卫健委,颗粒物(PM10),65,79,52,28,32,113,,184,161,16,12,4,5,0.5,0.5
2024-05-23T2300,1798A,118.5092,31.6837,马鞍山市,湖东路四小,,,61,51,50,29,,,163,,18,18,7,9,0.6,0.7
2024-05-23T2300,1799A,118.5024,31.6449,马鞍山市,开发区,细颗粒物(PM2.5),60,68,64,43,37,102,,160,118,39,27,9,11,0.6,0.6
2024-05-23T2300,1800A,118.5228,31.7231,马鞍山市,慈湖,细颗粒物(PM2.5),74,,46,54,38,150,,161,141,21,26,5,7,0.6,0.6
2024-05-23T2300,1802A,118.6245,31.7241,马鞍山市,濮塘,臭氧1小时,54,45,40,29,30,163,,151,138,13,17,4,6,0.7,0.7
2024-05-23T2300,3633A,118.4918,31.6809,马鞍山市,雨山,细颗粒物(PM2.5),57,54,48,40,32,148,,162,138,16,18,10,11,0.6,0.6
2024-05-23T2300,1686A,111.0286,21.4688,茂名市,电白南海,,20,14,20,9,15,64,,106,74,5,10,6,9,0.3,0.4
2024-05-23T2300,1687A,110.9294,21.6533,茂名市,茂石化七小,,17,9,24,7,18,54,,102,74,10,12,7,10,0.5,0.7
2024-05-23T2300,1688A,110.9107,21.6687,茂名市,健康路,,14,9,22,7,12,44,,98,71,7,10,8,13,0.5,0.7
2024-05-23T2300,1689A,110.8592,21.6828,茂名市,高岭,,16,9,28,9,16,51,,108,75,11,15,6,14,0.3,0.5
2024-05-23T2300,3450A,111.01,21.5165,茂名市,电白水东,,21,6,17,3,13,67,,108,79,8,12,5,9,0.5,0.6
2024-05-23T2300,2539A,104.0308,30.0478,眉山市,黑龙滩水库,,42,42,33,28,23,115,,183,156,6,9,7,7,0.6,0.6
2024-05-23T2300,2540A,103.8416,30.0874,眉山市,气象局,颗粒物(PM10),60,70,48,31,37,75,,175,154,48,45,7,9,0.6,0.5
2024-05-23T2300,3137A,103.8578,30.0744,眉山市,市委党校,,46,46,49,29,26,89,,166,147,47,38,8,10,0.6,0.5
2024-05-23T2300,3148A,103.8291,30.0564,眉山市,区人社局,,38,38,45,24,28,112,,174,159,34,43,7,12,0.5,0.5
2024-05-23T2300,1690A,116.1231,24.3284,梅州市,梅江月梅,,11,11,10,3,5,32,,38,21,4,12,4,4,0.6,0.6
2024-05-23T2300,1691A,116.0797,24.2719,梅州市,梅县新城,,17,11,11,8,8,6,,34,15,33,20,3,3,0.6,0.6
2024-05-23T2300,1692A,116.1248,24.2654,梅州市,环境监控中心,,15,12,12,6,5,5,,36,18,29,16,3,4,0.6,0.5
2024-05-23T2300,3315A,116.1233,24.2991,梅州市,梅龙,,13,9,7,9,7,14,,33,21,15,8,7,7,0.6,0.5
2024-05-23T2300,1878A,104.7778,31.4741,绵阳市,富乐山,细颗粒物(PM2.5),55,58,46,39,33,125,,170,159,14,16,8,9,0.7,0.7
2024-05-23T2300,1879A,104.7563,31.4535,绵阳市,市人大,颗粒物(PM10),53,56,55,33,32,116,,150,138,21,29,7,8,0.7,0.7
2024-05-23T2300,1880A,104.6697,31.4668,绵阳市,高新区自来水公司,颗粒物(PM10),57,64,73,38,40,110,,186,170,27,32,10,10,0.8,0.8
2024-05-23T2300,1881A,104.7287,31.5075,绵阳市,三水厂,,48,46,62,33,44,94,,164,137,35,37,6,6,0.7,0.7
2024-05-23T2300,3491A,104.69,31.5322,绵阳市,西科大附属小学,,48,48,63,31,39,108,,182,161,34,34,6,7,0.6,0.6
2024-05-23T2300,3492A,104.5648,31.5343,绵阳市,安州区旅游局,细颗粒物(PM2.5),102,,61,76,52,109,,188,172,24,19,5,7,0.8,0.5
2024-05-23T2300,1784A,129.61,44.561,牡丹江市,环保大楼,,20,20,28,13,18,42,,83,69,18,13,5,5,0.3,0.3
2024-05-23T2300,1785A,129.6115,44.5782,牡丹江市,文化广场,,36,31,31,25,22,29,,79,62,39,18,6,6,0.4,0.4
2024-05-23T2300,1786A,129.5904,44.5963,牡丹江市,第一医院,,34,34,28,10,21,40,,83,69,21,12,4,5,0.4,0.4
2024-05-23T2300,1787A,129.6364,44.6075,牡丹江市,机车工厂,,42,42,39,13,21,33,,81,65,18,12,9,10,0.3,0.4
2024-05-23T2300,1788A,129.6386,44.5462,牡丹江市,第一中学,,36,36,41,19,21,48,,89,75,12,13,1,2,0.2,0.3
2024-05-23T2300,2531A,105.0703,29.61,内江市,市监测站,,49,45,27,34,30,70,,170,128,51,27,8,9,0.4,0.4
2024-05-23T2300,2532A,105.0717,29.5947,内江市,东兴区政府,,43,40,32,30,19,95,,168,141,31,13,10,11,0.6,0.6
2024-05-23T2300,2533A,105.0653,29.5817,内江市,内江二中,,46,44,29,32,22,106,,166,140,23,16,8,9,0.6,0.5
2024-05-23T2300,2534A,105.0406,29.5822,内江市,内江日报社,,50,50,33,27,23,59,,172,130,85,36,10,9,0.7,0.6
2024-05-23T2300,2628A,92.0657,31.4846,那曲市,那曲监测站,,50,10,22,8,15,158,,144,144,5,5,2,4,0.4,0.3
2024-05-23T2300,3128A,92.0506,31.4797,那曲市,那曲会议中心,臭氧1小时,57,6,26,3,12,165,,148,148,2,5,3,3,0.4,0.4
2024-05-23T2300,1290A,115.8931,28.6843,南昌市,省外办,,50,50,41,34,20,100,,116,110,17,28,9,7,0.6,0.5
2024-05-23T2300,1291A,115.8886,28.7003,南昌市,省林业公司,细颗粒物(PM2.5),55,48,35,39,20,78,,122,110,42,31,7,6,0.8,0.7
2024-05-23T2300,1292A,115.8126,28.7442,南昌市,林科所,,40,36,19,27,12,18,,124,82,79,25,8,7,0.5,0.5
2024-05-23T2300,1294A,115.8518,28.687,南昌市,建工学校,颗粒物(PM10),60,69,38,40,22,90,,122,115,33,25,6,5,0.8,0.6
2024-05-23T2300,1295A,115.8921,28.6424,南昌市,象湖,,48,48,39,33,21,60,,130,116,38,28,4,6,0.8,0.7
2024-05-23T2300,1296A,115.7423,28.7996,南昌市,武术学校,,39,,16,27,17,9,,86,41,3,3,16,15,0.4,0.2
2024-05-23T2300,1298A,115.9314,28.6842,南昌市,省站,,,86,50,45,24,76,,129,115,,19,10,10,0.8,0.6
2024-05-23T2300,3046A,115.9084,28.6062,南昌市,机电学校,颗粒物(PM10),59,67,43,41,22,55,,125,110,29,20,11,10,0.8,0.6
2024-05-23T2300,3690A,115.9721,28.7031,南昌市,外国语学校,颗粒物(PM10),55,60,37,31,20,76,,125,108,23,15,8,5,0.6,0.5
2024-05-23T2300,1905A,106.056,30.8064,南充市,西山风景区,,,51,65,15,20,,,,,,,,,0.4,0.3
2024-05-23T2300,1906A,106.0789,30.8023,南充市,南充市委,,45,45,42,28,25,106,,146,134,26,20,9,6,0.3,0.3
2024-05-23T2300,1907A,106.1031,30.8217,南充市,南充炼油厂,,49,43,47,34,26,127,,163,153,31,19,13,7,0.5,0.4
2024-05-23T2300,1908A,106.1064,30.7856,南充市,高坪区监测站,颗粒物(PM10),51,51,39,32,23,118,,161,146,29,25,12,7,0.3,0.2
2024-05-23T2300,1909A,106.0642,30.7636,南充市,嘉陵区环保局,,42,42,43,27,24,107,,157,140,33,28,6,4,0.5,0.4
2024-05-23T2300,1910A,106.1087,30.8388,南充市,市环境监测站,颗粒物(PM10),58,65,49,36,28,110,,148,138,38,21,11,7,0.9,0.7
2024-05-23T2300,1151A,118.8086,32.1065,南京市,迈皋桥,,39,33,39,22,26,122,,166,147,15,20,5,5,0.4,0.6
2024-05-23T2300,1152A,118.7538,32.0551,南京市,草场门,细颗粒物(PM2.5),52,48,43,36,29,125,,180,159,32,22,4,4,0.5,0.4
2024-05-23T2300,1153A,118.7794,32.0745,南京市,山西路,颗粒物(PM10),51,51,45,31,24,124,,150,141,17,16,4,4,0.3,0.3
2024-05-23T2300,1154A,118.7752,32.0023,南京市,中华门,颗粒物(PM10),53,56,45,34,26,121,,173,154,26,22,9,9,0.5,0.6
2024-05-23T2300,1155A,118.8109,32.0309,南京市,瑞金路,细颗粒物(PM2.5),55,56,51,39,28,121,,168,150,24,22,10,9,0.4,0.3
2024-05-23T2300,1156A,118.7997,32.0754,南京市,玄武湖,,47,47,44,28,23,131,,159,145,14,18,9,9,0.4,0.4
2024-05-23T2300,1157A,118.6414,32.0931,南京市,浦口,,38,36,46,26,30,102,,176,150,27,27,6,7,0.4,0.4
2024-05-23T2300,1158A,118.7356,31.9996,南京市,奥体中心,,50,50,47,34,29,137,,179,163,20,19,10,10,0.6,0.5
2024-05-23T2300,1159A,118.9125,32.1028,南京市,仙林大学城,颗粒物(PM10),52,53,40,27,19,125,,164,152,25,19,11,11,0.5,0.5
2024-05-23T2300,3422A,118.8436,31.9198,南京市,江宁彩虹桥,,49,49,47,34,31,133,,169,156,20,22,4,5,0.3,0.5
2024-05-23T2300,3423A,119.0138,31.6494,南京市,溧水永阳,细颗粒物(PM2.5),52,44,43,36,30,122,,172,159,25,22,5,7,0.6,0.5
2024-05-23T2300,3424A,118.879,31.3302,南京市,高淳老职中,细颗粒物(PM2.5),59,57,39,42,30,134,,142,142,17,18,10,7,0.5,0.5
2024-05-23T2300,3427A,118.8554,32.3578,南京市,六合雄州,细颗粒物(PM2.5),67,72,48,48,33,99,,173,141,42,22,6,6,0.6,0.6
2024-05-23T2300,1401A,108.3103,22.7881,南宁市,二十一中,,,54,49,36,30,78,,163,146,,29,,8,0.9,0.9
2024-05-23T2300,1402A,108.3141,22.8528,南宁市,北湖,"颗粒物(PM10),细颗粒物(PM2.5)",55,60,53,39,35,73,,150,132,31,28,5,13,1.0,0.9
2024-05-23T2300,1403A,108.3206,22.8225,南宁市,市监测站,,49,37,50,34,33,77,,152,136,33,30,4,8,0.9,0.9
2024-05-23T2300,1404A,108.3829,22.8037,南宁市,大自然花园,,39,36,35,27,25,71,,141,118,22,21,5,6,0.7,0.6
2024-05-23T2300,1405A,108.4394,22.7904,南宁市,仙葫,,40,39,39,28,24,67,,118,97,22,24,4,6,0.9,1.5
2024-05-23T2300,1406A,108.2397,22.8467,南宁市,区农职院,细颗粒物(PM2.5),58,57,48,41,27,93,,138,125,34,22,7,8,0.9,0.8
2024-05-23T2300,1407A,108.3275,22.735,南宁市,英华嘉园,颗粒物(PM10),51,52,53,33,33,54,,136,105,56,36,7,8,0.8,0.8
2024-05-23T2300,1408A,108.2257,22.7757,南宁市,沙井镇街道办,颗粒物(PM10),95,140,61,43,33,14,,130,90,74,29,4,9,0.8,0.7
2024-05-23T2300,3401A,108.4834,22.7618,南宁市,红星社区,颗粒物(PM10),55,60,40,32,25,47,,125,97,34,23,4,8,0.8,0.8
2024-05-23T2300,2332A,118.1681,26.6369,南平市,南平市监测站,,23,23,15,7,7,7,,57,35,20,11,4,4,1.0,0.8
2024-05-23T2300,2333A,118.1825,26.6489,南平市,南平铝业有限公司,,19,19,13,8,7,4,,58,35,21,14,5,5,0.9,0.7
2024-05-23T2300,2334A,118.1756,26.6272,南平市,南平七中,,18,18,13,11,8,14,,54,36,10,8,4,4,0.7,0.6
2024-05-23T2300,1168A,120.9098,31.9663,南通市,狼山街道,,24,12,21,8,9,76,,146,123,7,7,10,10,0.5,0.4
2024-05-23T2300,1169A,120.86,32.0005,南通市,虹桥,,23,20,28,7,12,72,,136,119,10,13,5,6,0.4,0.4
2024-05-23T2300,1170A,120.87,32.02,南通市,城中,,23,19,32,11,16,71,,133,114,12,12,5,5,0.5,0.5
2024-05-23T2300,1171A,120.94,31.93,南通市,星湖花园,,25,10,19,3,9,77,,144,120,11,12,8,8,0.3,0.4
2024-05-23T2300,1172A,120.81,32.0417,南通市,紫琅学院,,24,8,21,6,13,75,,138,112,16,22,9,10,0.4,0.4
2024-05-23T2300,3291A,121.067,32.062,南通市,通州监测站,,27,17,27,3,7,84,,124,110,3,2,8,9,0.5,0.5
2024-05-23T2300,3432A,120.9348,31.9883,南通市,环境教育馆,,24,22,27,9,11,76,,139,114,13,14,7,7,0.4,0.4
2024-05-23T2300,2404A,112.5224,33.0122,南阳市,瓦房庄,颗粒物(PM10),64,78,62,33,31,150,,192,169,21,29,5,6,0.5,0.5
2024-05-23T2300,2405A,112.5003,32.9735,南阳市,汉画馆,颗粒物(PM10),76,101,76,40,36,136,,205,175,30,29,5,7,0.5,0.5
2024-05-23T2300,2406A,112.5573,33.027,南阳市,气象站,颗粒物(PM10),68,86,66,36,31,163,,218,190,20,25,4,5,0.5,0.4
2024-05-23T2300,2407A,112.5481,32.9689,南阳市,理工学院,颗粒物(PM10),78,106,67,34,32,143,,213,182,28,28,5,7,0.5,0.5
2024-05-23T2300,4008A,112.5234,32.9922,南阳市,卧龙区政府,颗粒物(PM10),69,88,68,34,34,140,,211,180,26,25,4,6,0.6,0.6
2024-05-23T2300,1234A,121.8358,29.911,宁波市,区环保大楼,,22,22,24,8,11,64,,84,78,24,35,2,6,0.4,0.4
2024-05-23T2300,1235A,121.56,29.82,宁波市,万里学院,,28,28,28,17,15,68,,110,93,15,19,4,5,0.6,0.6
2024-05-23T2300,1236A,121.713,29.9572,宁波市,龙赛医院,,22,18,24,8,11,68,,85,80,17,31,5,9,0.3,0.4
2024-05-23T2300,1239A,121.633,29.7733,宁波市,钱湖水厂,,25,25,18,3,10,78,,104,94,6,10,4,4,0.6,0.5
2024-05-23T2300,1240A,121.5856,29.8635,宁波市,太古小学,,23,13,24,7,14,73,,106,90,10,25,5,6,0.7,0.6
2024-05-23T2300,1241A,121.524,29.8674,宁波市,市环境监测中心,,23,19,24,11,12,71,,114,94,15,24,8,9,0.6,0.6
2024-05-23T2300,2871A,121.6147,29.9017,宁波市,万里国际学校,,28,28,33,12,16,83,,116,99,10,29,3,5,0.4,0.4
2024-05-23T2300,3710A,121.5594,29.8975,宁波市,白沙活动中心,,27,27,26,10,12,75,,113,95,12,26,9,10,0.5,0.5
2024-05-23T2300,2341A,119.5388,26.6612,宁德市,宁德市监测站,,29,23,23,20,21,27,,60,52,32,22,5,4,0.6,0.5
2024-05-23T2300,3209A,119.5231,26.6562,宁德市,宁德一中,,37,37,29,24,18,25,,54,45,13,16,6,6,0.9,0.6
2024-05-23T2300,2618A,98.8601,25.8567,怒江傈僳族自治州,州监测站,细颗粒物(PM2.5),83,,25,61,24,95,,133,124,15,10,8,8,0.4,0.4
2024-05-23T2300,2619A,98.8546,25.8417,怒江傈僳族自治州,泸水一中,,24,22,36,13,24,74,,118,107,20,16,6,7,0.5,0.2
2024-05-23T2300,1888A,101.6891,26.571,攀枝花市,弄弄坪,,39,39,37,21,19,103,,177,154,28,19,9,20,0.5,0.7
2024-05-23T2300,1889A,101.5769,26.5928,攀枝花市,河门口,,31,30,33,20,18,97,,158,145,22,18,10,16,0.6,0.8
2024-05-23T2300,1890A,101.7169,26.585,攀枝花市,炳草岗,,34,34,38,22,21,88,,188,154,40,22,2,25,0.6,0.8
2024-05-23T2300,1891A,101.7369,26.5008,攀枝花市,仁和,,30,28,28,20,20,93,,161,140,18,13,7,11,0.4,0.4
2024-05-23T2300,2835A,101.7227,26.567,攀枝花市,四十中小,,37,32,38,24,21,118,,188,155,21,19,8,43,0.6,1
2024-05-23T2300,1604A,122.0303,41.1489,盘锦市,开发区,,21,21,25,8,22,64,,85,75,16,14,4,4,0.4,0.4
2024-05-23T2300,1605A,122.0485,41.0883,盘锦市,兴隆台,,20,15,24,10,17,64,,83,73,14,16,6,6,0.4,0.4
2024-05-23T2300,1606A,121.8297,41.1028,盘锦市,新生街道,,18,13,21,10,17,55,,81,70,20,12,5,5,0.3,0.4
2024-05-23T2300,1832A,113.3257,33.742,平顶山市,新华旅馆,颗粒物(PM10),101,152,70,44,39,49,,212,173,86,26,8,7,0.5,0.5
2024-05-23T2300,1833A,113.2919,33.737,平顶山市,规划设计院,颗粒物(PM10),68,85,55,46,30,95,,201,179,51,19,4,4,0.4,0.4
2024-05-23T2300,1834A,113.182,33.774,平顶山市,平顶山工学院,,49,37,48,34,33,155,,203,190,14,12,4,5,0.5,0.5
2024-05-23T2300,3204A,113.3025,33.73,平顶山市,规划局,颗粒物(PM10),81,112,81,40,35,103,,195,172,39,17,6,5,0.5,0.4
2024-05-23T2300,3594A,112.8867,33.9116,平顶山市,石龙区,,,,80,31,33,142,,192,185,20,32,4,8,,0.4
2024-05-23T2300,2656A,106.6692,35.5461,平凉市,聚贤嘉苑,臭氧1小时,75,52,52,23,22,180,,182,177,15,22,13,10,0.4,0.4
2024-05-23T2300,2657A,106.7021,35.5307,平凉市,博物馆,颗粒物(PM10),67,84,57,25,22,148,,181,169,29,27,16,11,1.3,0.5
2024-05-23T2300,2347A,114.0997,27.5002,萍乡市,武功山,,19,19,10,3,3,36,,78,59,4,4,11,12,0.3,0.3
2024-05-23T2300,2348A,113.8385,27.6434,萍乡市,中医院,颗粒物(PM10),56,61,30,29,16,17,,122,85,47,16,4,6,0.8,1
2024-05-23T2300,2349A,113.8493,27.6253,萍乡市,市政府车库,,25,19,19,17,16,32,,112,80,23,12,10,12,0.7,0.8
2024-05-23T2300,2350A,113.8676,27.6435,萍乡市,市环保局,,43,41,28,30,17,29,,114,87,33,16,6,8,0.8,0.9
2024-05-23T2300,2351A,113.866,27.6198,萍乡市,安源区政府,,34,34,26,21,12,32,,116,102,20,10,13,13,0.5,0.6
2024-05-23T2300,2319A,119.0141,25.4325,莆田市,荔城区仓后路,,42,34,24,29,20,45,,67,59,24,21,6,5,1.0,0.8
2024-05-23T2300,2320A,119.0015,25.4553,莆田市,莆田市监测站,,49,43,21,34,17,43,,66,55,23,14,8,7,1.0,0.7
2024-05-23T2300,2321A,119.1119,25.4561,莆田市,涵江区六中,,21,15,20,8,17,67,,64,63,18,32,8,7,0.5,0.6
2024-05-23T2300,2322A,119.1013,25.3215,莆田市,秀屿区政府,,38,,26,26,19,52,,77,72,13,11,9,8,1.1,0.8
2024-05-23T2300,2392A,115.0312,35.7636,濮阳市,环保局,,49,49,58,23,27,124,,163,150,16,12,8,9,0.4,0.4
2024-05-23T2300,2394A,115.0574,35.7609,濮阳市,油田运输公司,颗粒物(PM10),58,66,68,21,27,132,,173,160,11,11,10,11,0.4,0.3
2024-05-23T2300,2395A,115.0866,35.7754,濮阳市,油田物探公司,颗粒物(PM10),61,72,82,27,30,134,,174,160,11,11,8,10,0.2,0.2
2024-05-23T2300,3021A,115,35.7668,濮阳市,濮水河管理处,,50,50,59,21,29,133,,159,148,10,10,9,9,0.3,0.3
2024-05-23T2300,2601A,100.98,22.7633,普洱市,市环保局,,,30,25,,21,53,,97,81,14,13,8,9,0.4,0.5
2024-05-23T2300,2602A,100.9817,22.8322,普洱市,普洱第二中学,,27,27,28,12,11,59,,103,83,14,15,10,12,0.7,0.6
2024-05-23T2300,2262A,131.0518,45.8751,七台河市,新一中,,18,9,18,7,9,56,,92,75,7,8,10,9,0.8,0.7
2024-05-23T2300,3345A,131.0577,45.7879,七台河市,中波台,,17,10,25,6,11,52,,85,71,9,15,5,6,0.4,0.4
2024-05-23T2300,3637A,131.0176,45.7761,七台河市,人民广场,,18,16,29,7,15,56,,79,72,7,14,10,11,0.3,0.4
2024-05-23T2300,3684A,130.8781,45.8222,七台河市,新建矿广场,,30,,25,21,18,52,,78,65,13,17,8,10,0.3,0.4
2024-05-23T2300,1779A,123.9305,47.3636,齐齐哈尔市,安居小区,,15,7,21,6,5,47,,76,62,13,7,2,2,0.2,0.1
2024-05-23T2300,1780A,123.9488,47.3386,齐齐哈尔市,中心广场,,19,19,21,8,10,51,,75,63,11,6,7,6,0.4,0.3
2024-05-23T2300,1781A,123.9483,47.3227,齐齐哈尔市,农牧车辆厂,,19,19,24,6,6,49,,,,12,6,6,7,0.5,0.4
2024-05-23T2300,1783A,123.945,47.2988,齐齐哈尔市,市环境监测站,,25,25,23,13,12,49,,77,67,11,6,4,4,0.4,0.3
2024-05-23T2300,3662A,123.6333,47.2075,齐齐哈尔市,富区青少年活动中心,,20,20,20,6,6,46,,78,69,12,8,7,7,0.3,0.3
2024-05-23T2300,2591A,107.9783,26.5747,黔东南苗族侗族自治州,市环境监测站,,38,32,29,26,22,27,,110,74,46,21,3,3,0.6,0.5
2024-05-23T2300,2881A,107.8908,26.5311,黔东南苗族侗族自治州,凯里学院,,33,33,31,19,20,45,,131,108,22,12,3,3,0.5,0.5
2024-05-23T2300,2593A,107.5228,26.2403,黔南布依族苗族自治州,小围寨,,28,19,20,19,12,29,,97,71,18,9,3,4,0.4,0.4
2024-05-23T2300,3538A,107.5175,26.2978,黔南布依族苗族自治州,沙坝,,39,39,20,24,12,18,,97,68,30,9,4,4,0.6,0.5
2024-05-23T2300,2589A,104.9022,25.0925,黔西南布依族苗族自治州,场坝街,,24,24,18,6,8,67,,106,94,12,13,3,8,0.3,0.4
2024-05-23T2300,2590A,104.8811,25.0992,黔西南布依族苗族自治州,坪东大道,,29,29,16,3,8,43,,105,86,27,14,4,5,0.4,0.4
2024-05-23T2300,2502A,108.6236,21.9667,钦州市,市环保站,,27,27,45,17,22,80,,113,97,13,15,8,9,0.7,1.1
2024-05-23T2300,2503A,108.6549,21.9481,钦州市,沙埠小学,,47,47,66,15,31,50,,107,82,34,24,8,7,0.9,0.9
2024-05-23T2300,2504A,108.5989,21.7431,钦州市,港区一小,颗粒物(PM10),53,55,52,18,23,59,,113,91,39,25,7,8,0.7,0.8
2024-05-23T2300,3404A,108.5959,21.9633,钦州市,北职校,,42,42,47,25,29,57,,98,80,22,15,10,8,0.8,1
2024-05-23T2300,1042A,119.5134,39.8207,秦皇岛市,北戴河环保局,,27,27,53,9,22,83,,91,90,19,20,2,3,0.3,0.4
2024-05-23T2300,1043A,119.7493,40.0116,秦皇岛市,第一关,,35,,52,24,35,68,,83,79,21,22,4,4,0.1,0.3
2024-05-23T2300,1044A,119.5897,39.9499,秦皇岛市,监测站,,32,31,64,22,38,86,,87,87,12,22,5,6,0.3,0.5
2024-05-23T2300,1046A,119.5251,39.9041,秦皇岛市,建设大厦,,24,13,53,13,27,75,,80,80,8,14,1,3,0,0.3
2024-05-23T2300,3132A,119.610547,39.943889,秦皇岛市,文明里,,27,25,62,10,31,85,,89,89,8,23,6,7,0.3,0.5
2024-05-23T2300,1307A,120.6659,36.2403,青岛市,仰口,,35,29,26,24,18,39,,76,61,15,10,4,4,0.3,0.3
2024-05-23T2300,1310A,120.4134,36.0658,青岛市,市南区东部子站,,22,6,21,3,16,70,,87,74,2,4,5,6,0.4,0.4
2024-05-23T2300,1311A,120.3664,36.1032,青岛市,四方区子站,,24,,26,14,23,74,,96,81,10,12,6,5,0.4,0.4
2024-05-23T2300,1312A,120.2994,36.054,青岛市,市南区西部子站,,24,6,19,3,16,74,,96,83,4,8,6,6,0.3,0.4
2024-05-23T2300,1313A,120.4581,36.0858,青岛市,崂山区子站,,25,,20,9,18,79,,94,83,7,9,7,7,0.4,0.4
2024-05-23T2300,1314A,120.1983,35.9608,青岛市,黄岛区子站,,23,,20,15,17,73,,97,84,8,8,5,5,0.3,0.4
2024-05-23T2300,1315A,120.3999,36.3083,青岛市,城阳区子站,,24,24,36,10,18,59,,116,98,33,22,7,8,0.5,0.5
2024-05-23T2300,1966A,120.0405,35.8735,青岛市,黄岛区4号,,23,12,24,9,17,72,,98,85,6,7,7,7,0.4,0.5
2024-05-23T2300,3362A,120.5014,36.4034,青岛市,即墨2号,,24,18,34,10,18,75,,127,99,5,16,5,6,0.5,0.5
2024-05-23T2300,3642A,120.3503,36.0736,青岛市,市北区南部,,24,10,22,3,13,74,,94,81,8,10,4,4,0.5,0.5
2024-05-23T2300,3643A,120.3948,36.1805,青岛市,李沧区北部,,21,17,30,12,23,67,,105,88,15,17,8,8,0.4,0.5
2024-05-23T2300,1702A,113.0426,23.691,清远市,环保大楼,,37,37,17,19,11,56,,64,61,17,11,4,6,0.6,0.6
2024-05-23T2300,1703A,113.0208,23.7106,清远市,凤城街办,,34,34,21,22,13,59,,71,64,20,16,6,6,0.5,0.5
2024-05-23T2300,3025A,113.0477,23.6344,清远市,技师学院,,48,48,20,25,10,48,,70,64,19,13,4,4,0.8,0.8
2024-05-23T2300,3318A,112.9903,23.7403,清远市,清新太和,,30,30,26,17,15,52,,67,56,21,18,7,7,0.6,0.6
2024-05-23T2300,3455A,113.076,23.7198,清远市,清城东城,,,,19,28,23,70,,74,72,16,13,6,7,,0.9
2024-05-23T2300,2661A,107.6325,35.7357,庆阳市,庆阳五中,,50,38,40,16,18,158,,165,163,11,11,6,7,0.4,0.3
2024-05-23T2300,2662A,107.6364,35.7067,庆阳市,市环保局,,49,36,34,16,16,156,,162,162,8,8,6,9,0.4,0.4
2024-05-23T2300,1916A,103.7897,25.5035,曲靖市,环境监测站,,32,31,34,13,16,102,,140,122,15,14,8,4,0.6,0.7
2024-05-23T2300,1917A,103.8,25.5364,曲靖市,烟厂办公区,,33,30,30,10,16,104,,140,125,16,14,4,5,0.5,0.6
2024-05-23T2300,3376A,103.7947,25.462,曲靖市,南苑二区,,34,17,25,12,16,106,,142,123,13,12,4,5,0.5,0.5
2024-05-23T2300,3377A,103.7444,25.5261,曲靖市,曲靖师范学院,,35,35,28,19,19,85,,146,127,22,19,7,10,0.6,0.6
2024-05-23T2300,1264A,118.8692,28.9398,衢州市,环保大楼,,39,39,38,25,29,51,,140,119,42,20,3,4,0.4,0.5
2024-05-23T2300,1265A,118.8709,28.9666,衢州市,实验学校,,41,41,38,23,26,49,,136,116,44,19,10,8,0.4,0.4
2024-05-23T2300,1266A,118.8621,28.9808,衢州市,衢州学院,,40,36,38,28,28,48,,140,109,44,21,8,8,0.4,0.4
2024-05-23T2300,1611A,118.5819,24.9117,泉州市,涂山街,细颗粒物(PM2.5),55,,14,39,15,24,,65,45,34,17,2,2,0.6,0.5
2024-05-23T2300,1612A,118.5972,24.8978,泉州市,津头埔,细颗粒物(PM2.5),52,,14,36,14,27,,51,37,37,24,2,2,0.6,0.6
2024-05-23T2300,1613A,118.6663,24.9424,泉州市,万安,细颗粒物(PM2.5),55,,15,39,14,40,,69,54,24,18,2,2,0.5,0.4
2024-05-23T2300,2626A,88.8876,29.2718,日喀则市,日喀则监测站,,47,6,10,3,5,150,,161,,4,6,7,5,0.6,0.5
2024-05-23T2300,3726A,88.8781,29.2426,日喀则市,林业技术推广中心,,48,12,12,3,4,153,,160,158,5,7,7,7,0.5,0.5
2024-05-23T2300,1659A,119.471,35.4209,日照市,监测站,,27,27,53,3,26,75,,120,93,22,34,9,12,0.4,0.8
2024-05-23T2300,1660A,119.523,35.4216,日照市,市政府广场,,25,24,53,7,26,80,,126,97,16,29,8,10,0.5,0.7
2024-05-23T2300,1661A,119.5587,35.4044,日照市,港务局,,27,19,42,3,22,85,,112,90,6,16,6,7,0.4,0.5
2024-05-23T2300,3507A,119.5328,35.4625,日照市,职业技术学院,,27,27,52,14,28,75,,121,94,10,18,8,9,0.4,0.7
2024-05-23T2300,3604A,119.3266,35.1044,日照市,岚山环保分局,,41,41,52,17,27,66,,140,104,22,20,10,10,0.6,0.7
2024-05-23T2300,1835A,111.1922,34.7752,三门峡市,市政府,颗粒物(PM10),52,53,46,23,24,74,,183,146,73,32,9,10,0.5,0.5
2024-05-23T2300,1836A,111.1587,34.7942,三门峡市,开发区,颗粒物(PM10),51,52,54,22,27,129,,195,167,17,18,22,14,0.5,0.5
2024-05-23T2300,3039A,111.1911,34.7829,三门峡市,三门峡市第一小学,,41,41,50,18,21,109,,187,159,43,24,9,11,0.5,0.5
2024-05-23T2300,3598A,111.1,34.7167,三门峡市,富达温泉假日酒店,,43,43,48,26,24,120,,189,163,25,24,8,12,0.4,0.4
2024-05-23T2300,2324A,117.6211,26.2625,三明市,三钢,,28,28,20,14,15,4,,59,33,33,18,5,7,0.8,0.7
2024-05-23T2300,2325A,117.635,26.2714,三明市,三明二中,,22,18,19,15,11,17,,63,39,15,14,6,7,1.0,0.8
2024-05-23T2300,2326A,117.6028,26.2378,三明市,三元区政府,,28,28,28,18,19,5,,52,29,22,21,6,8,1.2,1
2024-05-23T2300,1876A,109.5078,18.2489,三亚市,河东子站,,24,10,18,6,5,75,,75,75,4,7,3,3,0.4,0.4
2024-05-23T2300,1877A,109.4964,18.2681,三亚市,河西子站,,24,8,11,6,4,75,,80,79,1,5,2,2,0.4,0.3
2024-05-23T2300,3540A,109.7348,18.3443,三亚市,君悦子站,,17,17,17,8,4,52,,74,64,11,7,2,2,0.4,0.4
2024-05-23T2300,2624A,91.7608,29.2313,山南市,山南监测站,,45,11,10,3,5,144,,149,148,2,3,8,7,0.2,0.2
2024-05-23T2300,2625A,91.7706,29.2436,山南市,山南人民医院,,43,16,13,10,8,136,,151,149,8,7,7,7,0.3,0.3
2024-05-23T2300,1674A,116.6794,23.3667,汕头市,金平子站,,27,27,14,7,7,84,,70,70,14,17,2,3,0.5,0.5
2024-05-23T2300,1675A,116.7244,23.3633,汕头市,龙湖子站,,27,6,9,3,6,86,,75,75,11,11,5,5,0.6,0.6
2024-05-23T2300,1676A,116.7258,23.2775,汕头市,濠江子站,,27,10,9,10,7,85,,78,78,10,8,4,4,0.6,0.6
2024-05-23T2300,1677A,116.7519,23.4714,汕头市,澄海子站,,20,,11,14,10,41,,67,61,31,14,5,5,0.9,0.8
2024-05-23T2300,1678A,116.6092,23.2539,汕头市,潮阳子站,,25,,9,7,5,77,,77,77,7,9,3,3,0.6,0.7
2024-05-23T2300,3444A,116.454,23.2684,汕头市,潮南峡山,,21,12,12,6,6,65,,63,60,10,13,4,4,0.8,0.7
2024-05-23T2300,3624A,116.4069,23.2533,汕头市,潮南子站,,22,19,14,15,9,65,,57,57,7,13,6,6,0.9,0.8
2024-05-23T2300,1693A,115.3653,22.775,汕尾市,市环保局,,21,6,9,3,5,66,,75,69,6,6,4,6,0.6,0.6
2024-05-23T2300,1694A,115.3706,22.7898,汕尾市,市政府,,,,16,0,6,73,,77,74,4,8,4,4,0.5,0.6
2024-05-23T2300,1695A,115.3622,22.7925,汕尾市,新城中学,,24,6,10,3,6,75,,77,75,4,8,6,6,0.5,0.5
2024-05-23T2300,2645A,109.9154,33.8715,商洛市,监测站,,,50,38,22,20,68,,151,126,38,16,7,9,,0.5
2024-05-23T2300,3045A,109.9643,33.8471,商洛市,商州区中学,,42,42,47,28,23,81,,153,112,35,22,34,11,0.6,0.6
2024-05-23T2300,2408A,115.6702,34.4285,商丘市,环境监测站,颗粒物(PM10),53,55,45,27,21,158,,183,176,14,8,11,8,0.2,0.2
2024-05-23T2300,2409A,115.6458,34.4045,商丘市,粮食局,颗粒物(PM10),55,60,44,30,21,157,,180,171,13,9,7,5,0.3,0.3
2024-05-23T2300,2410A,115.6293,34.3948,商丘市,睢阳区环保局,臭氧1小时,58,61,52,25,22,166,,178,174,11,9,7,6,0.2,0.2
2024-05-23T2300,3171A,115.6071,34.4465,商丘市,梁园区档案局,臭氧1小时,54,44,47,30,20,163,,175,173,10,7,9,9,0.4,0.3
2024-05-23T2300,1141A,121.4,31.238,上海市,普陀,,32,32,24,22,16,72,,106,90,15,15,4,4,0.4,0.4
2024-05-23T2300,1142A,121.478,31.2036,上海市,十五厂,,29,29,23,3,13,79,,101,89,10,14,6,6,0.4,0.4
2024-05-23T2300,1143A,121.467,31.3008,上海市,虹口,,38,38,25,25,20,75,,104,93,14,15,9,9,0.6,0.6
2024-05-23T2300,1144A,121.412,31.1654,上海市,徐汇上师大,,30,30,25,21,17,81,,110,94,16,18,7,8,0.3,0.5
