timepoint,stationcode,longitude,latitude,area,positionname,primarypollutant,aqi,pm10,pm10_24h,pm2_5,pm2_5_24h,o3,o3_24h,o3_8h,o3_8h_24h,no2,no2_24h,so2,so2_24h,co,co_24h
2024-04-27T1500,2566A,102.1879,31.914,阿坝藏族羌族自治州,州农科所,,33,33,24,5,9,45,,27,27,8,10,3,3,0.7,0.9
2024-04-27T1500,2568A,102.2502,31.8896,阿坝藏族羌族自治州,马师校,,39,30,19,16,14,123,,85,85,4,6,3,3,0.2,0.3
2024-04-27T1500,3994A,102.2165,31.9024,阿坝藏族羌族自治州,马尔康中学西区,,40,38,27,10,14,126,,89,89,4,6,4,4,0.2,0.2
2024-04-27T1500,2695A,80.292,41.1694,阿克苏地区,电视台,颗粒物(PM10),339,451,238,103,58,106,,97,97,4,9,4,6,0.4,0.4
2024-04-27T1500,2696A,80.2613,41.1551,阿克苏地区,艺术中心,颗粒物(PM10),337,449,229,170,85,99,,91,91,8,24,5,4,0.4,0.4
2024-04-27T1500,2204A,105.6467,38.8363,阿拉善盟,西城区西花园,颗粒物(PM10),71,91,88,29,24,144,,124,124,9,10,11,9,0.6,0.6
2024-04-27T1500,2205A,105.6985,38.8411,阿拉善盟,蒙二幼,颗粒物(PM10),85,119,102,27,28,142,,125,125,8,7,14,12,0.4,0.4
2024-04-27T1500,2206A,105.724,38.8516,阿拉善盟,环保局新楼,颗粒物(PM10),69,87,86,32,31,138,,131,126,7,7,10,9,0.4,0.4
2024-04-27T1500,2708A,88.1264,47.8517,阿勒泰地区,市站,,27,13,20,9,6,84,,81,76,5,8,5,5,0.1,0.1
2024-04-27T1500,2630A,80.1161,32.5,阿里地区,阿里监测站,,,0,15,0,7,128,,116,116,,7,,4,0.5,0.5
2024-04-27T1500,3192A,80.0903,32.5028,阿里地区,阿里藏医院,,46,16,17,6,8,147,,138,138,3,3,9,9,0.4,0.4
2024-04-27T1500,2642A,109.0318,32.6537,安康市,香溪洞,颗粒物(PM10),54,57,32,30,21,132,,90,90,6,9,7,8,0.5,0.5
2024-04-27T1500,2643A,109.0281,32.6939,安康市,安康市监测站,,44,44,37,21,18,133,,90,90,5,12,10,9,0.5,0.5
2024-04-27T1500,2644A,109.0072,32.6975,安康市,汉滨区检察院,,48,44,34,33,21,135,,88,88,6,10,11,9,0.4,0.4
2024-04-27T1500,2291A,117.0809,30.5177,安庆市,环科院,臭氧1小时,78,58,67,30,45,182,,147,147,10,23,10,12,0.8,0.9
2024-04-27T1500,2292A,117.0331,30.5119,安庆市,马山宾馆,臭氧1小时,69,55,67,23,45,175,,152,152,8,19,8,10,0.7,0.9
2024-04-27T1500,2294A,116.9896,30.6145,安庆市,安庆大学,臭氧1小时,79,58,63,33,43,183,,159,159,10,19,9,8,0.7,0.7
2024-04-27T1500,3173A,117.0598,30.5351,安庆市,市人大,臭氧1小时,72,62,67,29,46,177,,154,154,6,18,5,8,0.8,0.9
2024-04-27T1500,3123A,105.9408,26.2431,安顺市,凤凰山,,49,28,33,19,25,156,,122,122,6,8,8,12,0.5,0.5
2024-04-27T1500,3124A,105.9439,26.2564,安顺市,金钟山,,48,28,33,18,24,152,,123,123,6,7,5,9,0.4,0.2
2024-04-27T1500,3125A,105.8983,26.2481,安顺市,娄家坡,,48,42,43,25,42,153,,119,119,6,8,7,10,0.4,0.5
2024-04-27T1500,1819A,114.3551,36.1017,安阳市,红庙街,臭氧1小时,69,84,90,32,33,175,,147,147,2,11,6,8,0.4,0.5
2024-04-27T1500,1820A,114.361,36.0681,安阳市,银杏小区,"颗粒物(PM10),臭氧1小时",64,78,84,37,38,171,,138,138,1,8,8,9,0.5,0.6
2024-04-27T1500,3141A,114.3922,36.0878,安阳市,信访局,臭氧1小时,73,85,89,30,36,178,,147,147,2,9,2,3,0.6,0.6
2024-04-27T1500,3669A,114.4705,36.0637,安阳市,左辅环卫站,颗粒物(PM10),67,84,78,35,42,158,,134,134,8,12,6,7,0.5,0.4
2024-04-27T1500,3703A,114.2917,36.0949,安阳市,安钢职工学校,颗粒物(PM10),73,96,106,26,42,162,,139,139,8,17,4,8,0.5,0.4
2024-04-27T1500,1748A,123.044,41.1196,鞍山市,深沟寺,细颗粒物(PM2.5),89,105,87,66,48,163,,106,105,16,21,14,16,0.7,0.9
2024-04-27T1500,1749A,123.011,41.0931,鞍山市,太阳城,细颗粒物(PM2.5),90,107,87,67,44,170,,122,107,16,20,8,10,0.8,1
2024-04-27T1500,1750A,123.0485,41.1442,鞍山市,太平,细颗粒物(PM2.5),89,118,103,66,51,164,,106,106,21,27,7,10,0.7,1
2024-04-27T1500,1751A,122.9642,41.0971,鞍山市,铁西三道街,细颗粒物(PM2.5),117,138,120,88,60,161,,112,101,28,29,11,10,1.0,1
2024-04-27T1500,1752A,122.9341,41.0833,鞍山市,铁西工业园区,细颗粒物(PM2.5),113,122,94,85,57,161,,106,103,27,26,12,12,0.9,0.9
2024-04-27T1500,1753A,123.022,41.0821,鞍山市,明达新区,细颗粒物(PM2.5),102,111,81,76,47,159,,121,99,17,22,10,12,0.7,0.9
2024-04-27T1500,2195A,107.4212,40.761,巴彦淖尔市,附二中,颗粒物(PM10),97,143,192,68,49,110,,76,76,7,9,8,6,0.4,0.3
2024-04-27T1500,2196A,107.37,40.7372,巴彦淖尔市,市环保大楼,颗粒物(PM10),130,209,215,35,43,104,,72,72,8,9,7,6,0.3,0.2
2024-04-27T1500,1956A,86.1472,41.7538,巴音郭楞蒙古自治州,孔雀公园,颗粒物(PM10),134,218,100,34,16,92,,88,81,7,9,7,7,0.3,0.2
2024-04-27T1500,1957A,86.1972,41.7166,巴音郭楞蒙古自治州,棉纺厂,颗粒物(PM10),130,210,114,76,27,87,,82,78,3,6,3,3,0.2,0.2
2024-04-27T1500,1958A,86.2357,41.7173,巴音郭楞蒙古自治州,经济开发区,颗粒物(PM10),305,424,107,79,24,93,,88,87,3,4,6,6,0.3,0.2
2024-04-27T1500,2914A,106.7677,31.8794,巴中市,苏山坪,,36,36,37,19,24,114,,76,75,5,10,6,4,0.5,0.5
2024-04-27T1500,3182A,106.7656,31.8545,巴中市,丽阳花园,,39,28,44,18,29,123,,68,68,9,23,7,5,0.5,0.6
2024-04-27T1500,3183A,106.7418,31.8654,巴中市,圣泉水务公司,,38,30,36,22,25,119,,72,72,9,20,7,5,0.4,0.5
2024-04-27T1500,3616A,106.7616,31.8344,巴中市,市中心医院,,42,30,47,18,32,132,,68,68,6,22,8,6,0.4,0.5
2024-04-27T1500,2235A,122.7911,45.6077,白城市,洮北区环保局,,28,11,18,3,6,88,,88,88,3,4,3,4,0.1,0.1
2024-04-27T1500,2236A,122.8738,45.5725,白城市,市环保局,,29,21,29,4,6,91,,90,90,7,9,7,6,0.2,0.2
2024-04-27T1500,2231A,126.4219,41.9171,白山市,喜丰,颗粒物(PM10),66,81,69,37,25,126,,142,142,15,11,9,13,1.3,1.2
2024-04-27T1500,2232A,126.4077,41.9419,白山市,环保局,颗粒物(PM10),57,63,78,39,27,126,,137,137,10,23,10,11,0.8,0.7
2024-04-27T1500,2647A,104.1724,36.5446,白银市,第三小学,颗粒物(PM10),64,78,106,31,47,136,,110,110,11,21,122,20,0.7,0.8
2024-04-27T1500,2648A,104.1465,36.5482,白银市,动力公司,颗粒物(PM10),61,72,94,25,36,139,,109,109,11,15,73,23,0.5,0.7
2024-04-27T1500,2512A,106.6103,23.9011,百色市,市监测站,臭氧1小时,68,71,76,41,51,174,,116,116,9,15,9,18,0.7,0.9
2024-04-27T1500,2513A,106.6538,23.8859,百色市,市中心血站,颗粒物(PM10),64,78,81,40,55,163,,103,103,8,16,7,17,0.7,1
2024-04-27T1500,3406A,106.6085,23.8798,百色市,祈福高中,颗粒物(PM10),68,85,77,37,59,170,,109,109,7,13,11,16,0.7,1
2024-04-27T1500,2270A,117.396,32.939,蚌埠市,工人疗养院,,50,50,82,21,41,126,,83,83,8,30,7,11,0.3,0.4
2024-04-27T1500,2271A,117.3605,32.9427,蚌埠市,百货大楼,颗粒物(PM10),59,68,84,26,45,130,,82,82,10,28,5,7,0.4,0.5
2024-04-27T1500,2273A,117.4185,32.8911,蚌埠市,蚌埠学院,,48,48,62,28,41,113,,81,81,17,21,10,8,0.4,0.5
2024-04-27T1500,2274A,117.3533,32.9673,蚌埠市,淮上区政府,颗粒物(PM10),52,53,69,30,44,124,,82,82,6,19,6,8,0.4,0.5
2024-04-27T1500,2275A,117.3145,32.8977,蚌埠市,高新区,,48,48,62,32,44,131,,95,95,12,15,8,7,0.3,0.4
2024-04-27T1500,3715A,117.3092,32.9314,蚌埠市,蚌埠田家炳中学,颗粒物(PM10),57,63,82,27,46,134,,92,86,4,13,7,8,0.4,0.5
2024-04-27T1500,1585A,109.8756,40.6532,包头市,市环境监测站,颗粒物(PM10),86,121,153,42,52,152,,86,86,14,30,19,17,0.8,0.7
2024-04-27T1500,1587A,109.9991,40.5842,包头市,包头八中,,,131,191,38,69,,,56,56,13,30,10,20,0.4,0.7
2024-04-27T1500,1588A,109.8538,40.6821,包头市,青山宾馆,颗粒物(PM10),82,114,150,50,55,142,,80,80,18,23,23,16,1.1,0.7
2024-04-27T1500,1589A,109.8642,40.6288,包头市,惠龙物流,颗粒物(PM10),84,118,150,37,37,146,,87,87,16,25,22,17,0.7,0.5
2024-04-27T1500,1590A,110.0377,40.5546,包头市,东河鸿龙湾,颗粒物(PM10),86,121,153,29,35,145,,88,88,12,26,10,12,0.6,0.6
2024-04-27T1500,3283A,109.9154,40.5685,包头市,滨河大厦,颗粒物(PM10),70,90,137,29,33,145,,91,91,9,24,12,12,0.6,0.6
2024-04-27T1500,3419A,109.9447,40.6261,包头市,包头市委党校,颗粒物(PM10),85,120,158,35,38,146,,84,84,14,33,16,20,0.6,0.6
2024-04-27T1500,3683A,109.8331,40.6576,包头市,昆区政府,颗粒物(PM10),89,127,156,38,51,143,,83,83,23,27,28,17,1.2,0.6
2024-04-27T1500,1930A,107.185,34.3063,宝鸡市,庙沟村,颗粒物(PM10),63,76,52,23,22,118,,86,79,13,19,9,9,0.6,0.6
2024-04-27T1500,1931A,107.0708,34.3017,宝鸡市,竹园沟,颗粒物(PM10),61,71,46,24,24,146,,92,92,10,14,5,4,0.4,0.4
2024-04-27T1500,1932A,107.1906,34.3672,宝鸡市,三陆医院,,,,60,36,24,151,,80,80,17,29,7,7,0.4,0.5
2024-04-27T1500,1933A,107.1431,34.3547,宝鸡市,监测站,颗粒物(PM10),56,62,49,25,23,144,,83,83,16,24,9,8,0.5,0.5
2024-04-27T1500,1934A,107.1186,34.3739,宝鸡市,技工学校,颗粒物(PM10),65,80,54,20,23,159,,92,92,16,19,6,7,0.6,0.6
2024-04-27T1500,1935A,107.3906,34.3528,宝鸡市,陈仓区环保局家属楼,颗粒物(PM10),63,75,63,20,25,156,,92,92,10,23,6,5,0.4,0.4
2024-04-27T1500,1936A,107.2058,34.3497,宝鸡市,文理学院,颗粒物(PM10),56,62,57,35,25,153,,87,87,11,22,6,6,0.3,0.4
2024-04-27T1500,1937A,107.2386,34.3622,宝鸡市,三迪小学,颗粒物(PM10),67,83,60,27,27,152,,84,84,16,28,8,8,0.6,0.6
2024-04-27T1500,1051A,115.493,38.8632,保定市,游泳馆,细颗粒物(PM2.5),145,237,220,111,89,136,,104,104,16,17,6,5,0.7,0.4
2024-04-27T1500,1052A,115.5213,38.8959,保定市,华电二区,细颗粒物(PM2.5),125,165,142,95,75,130,,104,104,28,28,8,3,1.2,0.9
2024-04-27T1500,1053A,115.4713,38.9108,保定市,接待中心,颗粒物(PM10),91,131,140,48,63,130,,110,110,19,21,7,5,1.2,0.9
2024-04-27T1500,1054A,115.4612,38.8416,保定市,地表水厂,细颗粒物(PM2.5),145,178,169,111,98,147,,109,109,23,27,6,4,1.1,0.8
2024-04-27T1500,3581A,115.31981,38.95208,保定市,满城区生态环境分局,颗粒物(PM10),89,127,139,51,67,147,,124,124,11,16,6,4,0.9,0.6
2024-04-27T1500,3582A,115.47694,38.76408,保定市,清苑区第二中学,颗粒物(PM10),131,212,187,98,81,142,,104,104,25,29,4,4,1.0,0.7
2024-04-27T1500,3583A,115.62909,39.02311,保定市,徐水物探局,细颗粒物(PM2.5),119,178,170,90,86,132,,120,120,19,22,10,8,1.1,0.6
2024-04-27T1500,4004A,115.4202,38.8656,保定市,双鹰农机,颗粒物(PM10),85,120,134,59,61,149,,118,118,18,19,8,6,0.9,0.6
2024-04-27T1500,4034A,115.5150,38.8590,保定市,植保所站,细颗粒物(PM2.5),137,175,149,104,74,148,,112,112,24,25,5,4,1.1,0.7
2024-04-27T1500,2594A,99.1678,25.1081,保山市,市环境监测站,颗粒物(PM10),54,58,62,18,28,149,,122,122,6,10,7,8,0.9,0.8
2024-04-27T1500,2595A,99.1711,25.1328,保山市,市环保局,颗粒物(PM10),52,54,64,28,32,147,,122,119,5,8,8,8,0.6,0.6
2024-04-27T1500,1867A,109.1436,21.4086,北海市,海滩公园,颗粒物(PM10),52,54,58,22,22,134,,82,82,7,10,7,7,0.7,0.7
2024-04-27T1500,1868A,109.0981,21.4661,北海市,新市环保局,颗粒物(PM10),51,52,52,24,26,128,,86,86,6,11,6,7,0.7,0.7
2024-04-27T1500,1869A,109.1778,21.5233,北海市,北海工业园,颗粒物(PM10),54,58,56,34,33,125,,76,76,6,17,9,10,0.7,0.6
2024-04-27T1500,3400A,109.1911,21.4415,北海市,龙潭自来水厂,颗粒物(PM10),51,52,45,33,31,125,,73,73,6,13,5,4,0.6,0.7
2024-04-27T1500,1001A,116.3621,39.8784,北京市,万寿西宫,颗粒物(PM10),97,144,149,61,71,125,,113,113,22,33,4,4,1.0,1
2024-04-27T1500,1003A,116.4174,39.9289,北京市,东四,颗粒物(PM10),93,135,162,53,73,120,,102,102,28,39,7,6,1.1,1.1
2024-04-27T1500,1004A,116.4072,39.8863,北京市,天坛,"颗粒物(PM10),细颗粒物(PM2.5)",83,115,119,61,70,116,,107,107,24,31,4,4,0.9,0.9
2024-04-27T1500,1005A,116.462,39.9365,北京市,农展馆,颗粒物(PM10),90,130,140,56,72,112,,98,98,24,37,6,3,1.0,1
2024-04-27T1500,1006A,116.3392,39.9295,北京市,官园,颗粒物(PM10),94,137,161,51,70,132,,108,108,19,37,6,4,0.8,0.8
2024-04-27T1500,1007A,116.2878,39.9611,北京市,海淀万柳,颗粒物(PM10),89,128,150,61,70,135,,99,99,25,54,8,5,1.0,0.9
2024-04-27T1500,1008A,116.6636,40.135,北京市,顺义新城,颗粒物(PM10),74,97,138,29,60,101,,94,94,14,23,4,3,0.7,0.8
2024-04-27T1500,1009A,116.6275,40.3275,北京市,怀柔镇,颗粒物(PM10),87,123,104,44,46,121,,90,90,16,13,6,3,0.5,0.5
2024-04-27T1500,1010A,116.2296,40.217,北京市,昌平镇,颗粒物(PM10),91,132,131,51,64,104,,66,66,29,42,2,3,0.5,0.5
2024-04-27T1500,1011A,116.3966,39.9821,北京市,奥体中心,颗粒物(PM10),87,123,151,47,75,113,,85,85,24,49,4,3,0.9,0.9
2024-04-27T1500,1012A,116.184,39.9136,北京市,古城,颗粒物(PM10),90,129,156,57,77,126,,95,95,29,47,5,2,1.2,0.9
2024-04-27T1500,3281A,115.9718,40.4529,北京市,延庆夏都,颗粒物(PM10),105,159,107,35,41,99,,75,75,13,15,3,3,0.4,0.4
2024-04-27T1500,3417A,117.0709,40.1465,北京市,平谷新城,,48,48,131,17,68,98,,102,102,9,19,2,3,0.4,0.9
2024-04-27T1500,3418A,116.8336,40.4095,北京市,密云新城,颗粒物(PM10),75,100,120,29,52,116,,90,90,13,15,3,2,0.5,0.6
2024-04-27T1500,3672A,116.1541,39.8204,北京市,丰台云岗,颗粒物(PM10),78,106,138,50,76,120,,102,102,15,27,3,3,0.9,0.9
2024-04-27T1500,3673A,116.6804,39.9081,北京市,通州东关,颗粒物(PM10),78,106,141,43,66,90,,107,107,20,24,5,5,0.8,1
2024-04-27T1500,3674A,115.9577,39.7603,北京市,房山燕山,颗粒物(PM10),74,97,115,52,63,124,,103,103,26,28,2,2,1.0,0.7
2024-04-27T1500,3675A,116.4672,39.7733,北京市,大兴旧宫,颗粒物(PM10),74,97,126,51,65,111,,111,111,24,28,4,3,0.8,1
2024-04-27T1500,3694A,115.986,40.4563,北京市,延庆石河营,颗粒物(PM10),100,149,96,35,38,101,,76,76,13,12,3,3,0.4,0.4
2024-04-27T1500,3695A,116.6151,40.3053,北京市,怀柔新城,颗粒物(PM10),89,127,102,45,48,119,,92,92,23,12,2,3,0.7,0.6
2024-04-27T1500,3696A,116.2545,39.8768,北京市,丰台小屯,颗粒物(PM10),89,127,154,56,81,116,,98,98,23,39,3,3,1.2,0.9
2024-04-27T1500,3697A,116.84,40.3844,北京市,密云镇,颗粒物(PM10),72,93,121,29,49,112,,85,85,13,23,3,2,0.5,0.6
2024-04-27T1500,1761A,123.8275,41.3064,本溪市,大峪,细颗粒物(PM2.5),94,125,83,70,36,130,,130,112,16,17,10,12,0.9,0.8
2024-04-27T1500,1762A,123.7567,41.3325,本溪市,溪湖,细颗粒物(PM2.5),129,157,92,98,49,132,,119,106,15,23,11,16,1.0,1.2
2024-04-27T1500,1763A,123.7169,41.3094,本溪市,彩屯,细颗粒物(PM2.5),120,151,98,91,49,118,,110,99,29,30,10,21,0.9,1.8
2024-04-27T1500,1764A,123.7669,41.2864,本溪市,东明,细颗粒物(PM2.5),104,90,81,78,38,121,,138,102,20,22,10,12,1.0,0.9
2024-04-27T1500,1765A,123.7992,41.2664,本溪市,新立屯,细颗粒物(PM2.5),82,94,67,60,26,126,,139,110,16,20,12,15,1.1,1
2024-04-27T1500,1766A,123.8142,41.3472,本溪市,威宁,"颗粒物(PM10),细颗粒物(PM2.5)",72,93,74,52,34,123,,102,102,20,25,8,8,0.9,0.8
2024-04-27T1500,2587A,105.2864,27.3125,毕节市,八中,,43,17,32,9,20,137,,125,125,6,11,6,7,0.4,0.4
2024-04-27T1500,2588A,105.31,27.2944,毕节市,师专,,41,14,29,9,20,131,,117,117,6,10,6,8,0.4,0.4
2024-04-27T1500,3537A,105.3631,27.3533,毕节市,长征村,,46,17,30,12,21,145,,132,132,5,9,6,7,0.4,0.4
2024-04-27T1500,1629A,118.0018,37.3617,滨州市,第二水厂,臭氧1小时,114,88,97,36,41,228,,172,172,14,39,12,13,0.9,1
2024-04-27T1500,1630A,117.9776,37.393,滨州市,北中新校,臭氧1小时,120,107,96,44,40,239,,181,181,16,42,18,17,1.0,1.1
2024-04-27T1500,3514A,117.9378,37.3956,滨州市,中海酒店,臭氧1小时,127,90,89,46,47,254,,194,194,15,46,17,20,0.6,0.9
2024-04-27T1500,3515A,117.9378,37.3553,滨州市,开发区一中,臭氧1小时,94,92,104,46,46,195,,149,149,12,45,19,22,0.9,0.9
2024-04-27T1500,3516A,118.0917,37.694,滨州市,金海六路,颗粒物(PM10),112,173,106,53,43,201,,158,158,20,35,16,17,0.7,0.7
2024-04-27T1500,4028A,117.9956,37.3753,滨州市,滨州市西街道办事处,臭氧1小时,111,90,94,44,45,222,,172,172,15,33,15,17,0.8,1
2024-04-27T1500,2311A,115.8072,33.8399,亳州市,污水处理厂,,49,49,66,18,34,138,,132,132,6,11,10,12,0.4,0.5
2024-04-27T1500,2312A,115.7789,33.8518,亳州市,三国揽胜宫,,47,47,65,24,34,132,,126,126,7,12,9,10,0.5,0.6
2024-04-27T1500,3332A,115.7633,33.8034,亳州市,亳州学院,,41,40,72,21,33,131,,132,132,4,9,9,11,0.5,0.5
2024-04-27T1500,2693A,82.0485,44.8556,博尔塔拉蒙古自治州,市党校,颗粒物(PM10),91,132,95,24,19,93,,86,82,4,4,7,6,0.2,0.2
2024-04-27T1500,2694A,82.0806,44.8969,博尔塔拉蒙古自治州,市环保局,,,86,79,20,16,,,56,,5,6,9,8,0.2,0.3
2024-04-27T1500,1071A,116.8842,38.2991,沧州市,沧县城建局,颗粒物(PM10),67,83,95,30,32,134,,136,136,10,21,4,6,0.4,0.6
2024-04-27T1500,1072A,116.8584,38.3254,沧州市,电视转播站,颗粒物(PM10),76,101,100,36,38,133,,134,134,10,14,4,9,0.2,0.3
2024-04-27T1500,1073A,116.8709,38.3228,沧州市,市环保局,颗粒物(PM10),82,113,96,41,29,139,,140,140,20,24,9,12,0.3,0.5
2024-04-27T1500,3324A,116.8136,38.3004,沧州市,河北水利电力学院,颗粒物(PM10),89,127,100,32,41,138,,136,136,13,25,11,12,0.3,0.5
2024-04-27T1500,2622A,97.1806,31.1273,昌都市,昌都监测站,,42,8,14,6,9,132,,104,104,2,7,8,8,0.5,0.5
2024-04-27T1500,3719A,97.1714,31.1406,昌都市,昌都会议中心,,37,19,12,8,9,118,,86,86,24,15,10,9,0.4,0.4
2024-04-27T1500,2690A,88.1236,43.8886,昌吉回族自治州,天山天池,,35,26,10,3,6,111,,88,88,7,5,4,3,0.6,0.4
2024-04-27T1500,2692A,87.2717,44.0297,昌吉回族自治州,新区政务中心,,32,30,34,22,15,98,,76,76,8,9,10,7,0.4,0.4
2024-04-27T1500,3613A,87.3095,44.0142,昌吉回族自治州,亚心广场,,32,31,42,5,5,100,,82,82,4,8,10,6,0.5,0.4
2024-04-27T1500,1119A,125.3325,43.9166,长春市,食品厂,,,29,83,13,76,89,,72,72,,29,7,9,0.3,0.5
2024-04-27T1500,1120A,125.2863,43.9027,长春市,客车厂,,30,17,75,12,67,93,,80,80,13,31,4,6,0.3,0.5
2024-04-27T1500,1121A,125.2841,43.8463,长春市,邮电学院,,30,20,75,13,70,96,,74,74,10,27,7,9,0.2,0.4
2024-04-27T1500,1122A,125.3716,43.8772,长春市,劳动公园,,,28,79,19,67,103,,91,91,,35,5,7,0.2,0.4
2024-04-27T1500,1123A,125.3297,43.8805,长春市,园林处,,31,18,71,4,67,98,,84,84,10,28,8,10,0.4,0.6
2024-04-27T1500,1124A,125.4605,43.79,长春市,净月潭,,32,23,70,11,64,101,,95,95,8,16,8,9,0.2,0.4
2024-04-27T1500,1126A,125.3863,43.8447,长春市,经开区环卫处,,31,22,84,12,87,97,,91,91,11,28,5,7,0.3,0.6
2024-04-27T1500,1127A,125.245,43.7783,长春市,高新区管委会,,30,19,70,8,61,96,,91,91,9,27,6,8,0.2,0.4
2024-04-27T1500,1128A,125.1761,43.8325,长春市,岱山公园,,30,22,73,16,65,96,,82,82,13,38,6,8,0.3,0.6
2024-04-27T1500,1335A,113.0833,28.2325,长沙市,经开区环保局,,,42,46,22,32,137,,94,94,5,22,7,7,,0.6
2024-04-27T1500,1336A,112.8872,28.2189,长沙市,高开区环保局,,48,46,57,33,33,144,,101,101,2,27,5,6,0.7,1
2024-04-27T1500,1337A,113.0792,28.2053,长沙市,马坡岭,,49,40,52,34,32,124,,85,85,2,19,8,7,0.5,0.6
2024-04-27T1500,1338A,112.9394,28.19,长沙市,湖南师范大学,,44,44,54,30,31,139,,98,98,2,16,6,4,0.7,0.8
2024-04-27T1500,1339A,113.0178,28.1322,长沙市,雨花区环保局,,45,45,47,27,27,121,,84,84,4,24,6,6,0.7,0.8
2024-04-27T1500,1340A,112.9792,28.2597,长沙市,伍家岭,颗粒物(PM10),52,54,66,32,36,148,,94,94,7,31,6,5,0.9,1
2024-04-27T1500,1341A,113.0014,28.1944,长沙市,火车新站,,45,45,59,29,39,125,,88,88,8,44,4,4,0.7,1
2024-04-27T1500,1342A,112.9844,28.1178,长沙市,天心区环保局,,39,39,51,23,31,114,,79,79,12,29,4,3,0.5,0.3
2024-04-27T1500,1343A,112.8908,28.1308,长沙市,湖南中医药大学,颗粒物(PM10),53,55,52,33,31,129,,87,87,2,28,8,7,1.0,1.2
2024-04-27T1500,1344A,112.9581,28.3611,长沙市,沙坪,,41,29,56,16,26,131,,94,94,4,9,7,7,0.7,0.8
2024-04-27T1500,1727A,113.1147,36.1547,长治市,清华站,,44,27,66,5,22,140,,126,126,7,20,7,9,0.3,0.6
2024-04-27T1500,1728A,113.1031,36.1989,长治市,监测站,,46,36,66,9,25,145,,134,134,10,21,11,15,0.3,0.9
2024-04-27T1500,1730A,113.0886,36.2125,长治市,审计局,,45,28,60,5,24,143,,136,136,11,18,11,14,0.1,0.6
2024-04-27T1500,1731A,113.0844,36.1856,长治市,长治八中,,46,31,84,13,35,145,,131,131,11,31,6,9,0.5,0.7
2024-04-27T1500,2845A,113.1569,36.1911,长治市,德盛苑,,46,25,52,7,22,145,,139,139,8,12,5,6,0.5,0.8
2024-04-27T1500,3568A,113.06,36.0464,长治市,向阳小学,,46,41,77,15,34,145,,134,134,8,17,12,14,0.3,0.6
2024-04-27T1500,3569A,112.8792,36.3144,长治市,屯留一中,,48,32,61,5,26,152,,130,130,6,17,9,11,0.6,0.5
2024-04-27T1500,3570A,113.235,36.3489,长治市,潞城四中,臭氧1小时,62,59,100,19,39,169,,134,134,6,31,6,7,0.5,0.7
2024-04-27T1500,1854A,111.6975,28.9703,常德市,市二中,,44,41,51,21,39,140,,100,100,6,19,9,10,0.7,0.6
2024-04-27T1500,3138A,111.7153,29.0289,常德市,武陵区永安,,44,36,50,24,36,138,,104,104,3,17,10,8,0.6,0.5
2024-04-27T1500,3139A,111.6892,28.9881,常德市,鼎城区玉霞,,43,37,56,19,30,135,,100,100,14,24,9,11,0.6,0.5
2024-04-27T1500,3140A,111.6625,29.0531,常德市,武陵区长庚,,43,34,52,29,36,137,,102,102,3,18,11,9,0.7,0.6
2024-04-27T1500,1196A,119.9633,31.762,常州市,市监测站,,43,31,80,25,30,135,,115,115,18,21,8,8,0.7,0.6
2024-04-27T1500,1200A,119.9468,31.7069,常州市,武进监测站,,45,34,80,11,30,143,,120,120,14,28,8,9,0.5,0.8
2024-04-27T1500,1201A,119.9255,31.9087,常州市,安家,,41,28,81,21,35,130,,93,93,15,26,6,9,0.7,1
2024-04-27T1500,3002A,119.9805,31.8174,常州市,行政中心,,41,34,67,20,28,130,,106,106,15,21,8,8,0.3,0.4
2024-04-27T1500,3003A,120.0522,31.7748,常州市,经开区,,42,22,66,13,23,132,,109,109,15,23,5,7,0.4,0.6
2024-04-27T1500,3010A,119.9025,31.7964,常州市,钟楼,,42,33,63,21,27,134,,107,107,18,23,8,8,1.0,0.9
2024-04-27T1500,3429A,119.8598,31.7066,常州市,武进经发区,,46,25,64,14,32,146,,121,121,16,29,5,8,0.7,0.9
2024-04-27T1500,3430A,119.5826,31.7245,常州市,金坛城区,,,,55,6,28,170,,122,122,16,26,6,7,0.7,0.8
2024-04-27T1500,2220A,120.4318,41.5881,朝阳市,西梁,,34,12,39,7,30,106,,92,92,6,20,10,13,0.4,0.7
2024-04-27T1500,2221A,120.4521,41.5646,朝阳市,河畔小区,,35,26,57,7,31,110,,97,97,7,17,10,11,0.4,0.6
2024-04-27T1500,2222A,120.4176,41.5648,朝阳市,八里堡,,33,26,56,8,29,105,,91,91,8,23,8,9,0.5,0.7
2024-04-27T1500,2223A,120.3806,41.5969,朝阳市,农业园区,,34,21,46,5,29,108,,93,93,6,19,8,9,0.3,0.5
2024-04-27T1500,1705A,116.6367,23.6719,潮州市,西园路,,30,,26,15,18,96,,78,78,7,14,5,5,0.2,0.2
2024-04-27T1500,3026A,116.6183,23.6608,潮州市,市政府,,34,25,26,10,12,107,,92,92,9,16,5,7,0.7,0.9
2024-04-27T1500,4036A,116.6461,23.6761,潮州市,金山,,30,23,22,14,20,95,,76,76,7,13,7,7,0.4,0.5
2024-04-27T1500,2472A,113.0073,25.9061,郴州市,马头岭,,33,21,51,5,20,104,,61,61,8,24,5,11,0.1,0.4
2024-04-27T1500,2473A,113.0116,25.8226,郴州市,市职中,,43,10,30,7,20,136,,82,82,2,11,4,8,0.6,0.7
2024-04-27T1500,2474A,113.0161,25.8001,郴州市,兴隆步行街,,42,13,31,6,20,134,,74,74,5,15,5,8,0.5,0.7
2024-04-27T1500,2475A,113.0383,25.8071,郴州市,市审计局,,42,10,28,4,20,133,,75,75,5,13,4,8,0.5,0.6
2024-04-27T1500,2476A,113.0348,25.7759,郴州市,市环保局,,40,12,34,7,23,128,,67,67,6,26,4,7,0.6,0.7
2024-04-27T1500,1431A,103.9728,30.7236,成都市,金泉两河,臭氧1小时,65,35,73,18,48,172,,103,103,7,24,2,3,0.5,0.7
2024-04-27T1500,1432A,104.176,30.6872,成都市,十里店,臭氧1小时,99,55,63,32,40,199,,123,123,18,34,4,5,0.8,0.8
2024-04-27T1500,1433A,104.079,30.5706,成都市,三瓦窑,臭氧1小时,93,54,66,36,42,194,,107,107,17,38,2,2,0.5,0.7
2024-04-27T1500,1434A,104.1114,30.63,成都市,沙河铺,臭氧1小时,72,48,50,21,32,177,,98,98,11,25,2,2,0.4,0.5
2024-04-27T1500,1437A,104.0786,30.6531,成都市,君平街,臭氧1小时,104,59,68,34,47,207,,119,119,10,28,4,4,0.5,0.6
2024-04-27T1500,1438A,103.613,31.0283,成都市,灵岩寺,,48,,24,26,25,152,,116,116,11,11,4,9,0.6,0.6
2024-04-27T1500,2880A,104.0239,30.65639,成都市,大石西路,臭氧1小时,104,52,69,34,46,208,,117,117,13,26,4,4,0.4,0.6
2024-04-27T1500,3136A,104.2725,30.5589,成都市,龙泉驿区区政府,臭氧1小时,101,44,36,29,25,202,,132,132,12,12,3,3,0.4,0.4
2024-04-27T1500,3357A,104.0106,30.6931,成都市,金博路,臭氧1小时,88,44,77,26,55,190,,106,106,10,25,7,7,0.5,0.7
2024-04-27T1500,3359A,104.0578,30.5225,成都市,华阳,臭氧1小时,79,46,58,27,43,183,,102,102,6,29,2,2,0.7,1
2024-04-27T1500,3487A,104.2394,30.5319,成都市,车城东七路,臭氧1小时,77,38,44,30,31,181,,122,122,8,19,4,5,0.5,0.5
2024-04-27T1500,3488A,104.3853,30.7453,成都市,青白江技师分院,臭氧1小时,98,29,42,18,28,198,,114,114,8,30,3,3,0.5,0.6
2024-04-27T1500,3489A,104.0789,30.4072,成都市,科学城,臭氧1小时,69,31,52,20,39,175,,108,108,6,25,1,2,0.5,0.6
2024-04-27T1500,4011A,103.8506,30.6947,成都市,光华大道三段,臭氧1小时,55,43,65,36,47,164,,97,97,8,22,1,2,0.5,0.6
2024-04-27T1500,1062A,117.9531,40.9081,承德市,铁路,,39,39,70,2,30,93,,72,72,9,22,8,7,0.2,0.5
2024-04-27T1500,1063A,117.9392,40.9763,承德市,中国银行,,49,49,67,2,32,100,,76,76,5,17,9,8,0.1,0.5
2024-04-27T1500,1064A,117.9503,40.928,承德市,开发区,,48,48,72,16,35,96,,72,72,9,23,7,7,0.2,0.6
2024-04-27T1500,1065A,117.8051,40.9655,承德市,文化中心,,,,91,,38,,,68,68,,26,,7,,0.5
2024-04-27T1500,1066A,117.9268,41.0026,承德市,离宫,,30,28,71,7,38,96,,70,70,4,12,2,1,0.2,0.4
2024-04-27T1500,2314A,117.47,30.6618,池州市,池州学院,臭氧1小时,82,51,73,42,50,185,,145,145,11,18,8,8,0.2,0.7
2024-04-27T1500,3237A,117.4918,30.6617,池州市,展览馆,臭氧1小时,83,57,72,40,44,186,,142,142,15,17,7,6,0.7,0.8
2024-04-27T1500,3333A,117.5627,30.695,池州市,第八中学,臭氧1小时,97,66,68,39,43,197,,142,142,13,15,7,7,0.6,0.8
2024-04-27T1500,3334A,117.5038,30.6243,池州市,第十二中学,臭氧1小时,92,69,71,36,42,193,,142,142,12,17,5,5,0.6,0.7
2024-04-27T1500,1744A,118.9233,42.2816,赤峰市,松山一中,,28,22,44,4,16,87,,80,80,18,26,7,12,0.5,0.6
2024-04-27T1500,1745A,118.9576,42.2728,赤峰市,哈达街,,27,25,49,6,17,85,,80,80,18,25,6,12,0.4,0.6
2024-04-27T1500,1746A,118.8788,42.2554,赤峰市,天义路,,29,9,36,2,11,90,,82,82,14,23,5,8,0.2,0.3
2024-04-27T1500,3058A,119.2658,42.0353,赤峰市,银河街,,29,24,51,2,16,92,,81,81,12,19,10,15,0.4,0.5
2024-04-27T1500,3286A,118.9359,42.3147,赤峰市,桥北物流园区,,30,13,43,5,17,93,,86,86,15,24,5,14,0.2,0.4
2024-04-27T1500,2521A,107.3476,22.4136,崇左市,市环保局江州分局,臭氧1小时,73,72,69,43,43,178,,120,120,7,8,12,9,0.7,0.7
2024-04-27T1500,2522A,107.3702,22.3707,崇左市,城南新区,臭氧1小时,70,71,64,44,43,176,,116,116,6,9,10,7,0.8,0.8
2024-04-27T1500,2298A,118.3093,32.3153,滁州市,老年大学,臭氧1小时,84,55,65,31,43,187,,120,120,17,25,9,8,0.7,0.7
2024-04-27T1500,2299A,118.3244,32.2786,滁州市,人大宾馆,臭氧1小时,100,52,60,28,52,200,,125,125,14,20,10,10,0.7,0.9
2024-04-27T1500,3207A,118.3118,32.3038,滁州市,市政府原办公楼,臭氧1小时,89,51,65,38,50,191,,122,122,16,27,9,9,0.7,0.8
2024-04-27T1500,3331A,118.3267,32.2634,滁州市,图书馆,臭氧1小时,101,40,53,25,48,202,,126,126,13,23,12,12,0.9,0.9
2024-04-27T1500,2605A,101.5482,25.0441,楚雄彝族自治州,州环境监测站,,50,45,50,23,21,157,,148,148,5,8,5,6,0.5,0.4
2024-04-27T1500,2606A,101.538,25.0492,楚雄彝族自治州,市经济开发区,,50,20,55,8,22,157,,148,148,7,9,5,6,0.5,0.5
2024-04-27T1500,2548A,107.5277,31.2827,达州市,达州职业技术学院,,37,37,49,11,22,108,,61,61,11,37,6,8,0.7,0.9
2024-04-27T1500,2549A,107.5086,31.2186,达州市,市环境监测站,,42,42,58,17,28,107,,52,52,16,41,7,9,0.5,0.7
2024-04-27T1500,2550A,107.4988,31.2132,达州市,凤凰小区,,41,41,61,22,31,111,,54,54,11,39,7,10,0.6,0.9
2024-04-27T1500,2551A,107.5082,31.1986,达州市,达县机关宾馆,,48,44,57,33,32,104,,61,61,17,45,4,6,0.4,0.6
2024-04-27T1500,2552A,107.4644,31.2124,达州市,市政中心,颗粒物(PM10),57,63,62,31,31,112,,48,48,21,44,12,14,0.9,1.1
2024-04-27T1500,2614A,100.1542,25.7054,大理白族自治州,大理市环境监测站,颗粒物(PM10),55,59,72,29,29,146,,144,142,5,12,7,7,0.5,0.5
2024-04-27T1500,2615A,100.2171,25.5811,大理白族自治州,大理古城,,50,49,68,17,34,158,,149,149,6,8,6,6,0.7,0.7
2024-04-27T1500,1109A,121.612,38.9741,大连市,甘井子,,48,48,55,20,23,80,,79,79,40,37,4,5,0.6,0.6
2024-04-27T1500,1110A,121.565,38.9511,大连市,周水子,,40,40,53,18,24,104,,88,88,27,38,9,9,0.7,0.7
2024-04-27T1500,1111A,121.5637,38.8845,大连市,星海三站,,22,22,42,11,20,65,,72,72,24,28,5,5,0.5,0.5
2024-04-27T1500,1112A,121.6302,38.9117,大连市,青泥洼桥,,40,38,53,16,23,126,,98,98,18,27,10,9,0.7,0.7
2024-04-27T1500,1113A,121.6251,38.8638,大连市,傅家庄,,24,21,38,10,17,75,,80,80,19,22,7,8,0.6,0.6
2024-04-27T1500,1114A,121.5213,38.8661,大连市,七贤岭,,30,30,53,13,20,91,,79,79,18,29,10,9,0.7,0.7
2024-04-27T1500,1115A,121.2529,38.8061,大连市,旅顺,,,,32,,17,73,,88,83,,22,8,8,0.5,0.5
2024-04-27T1500,1116A,121.7485,39.1311,大连市,金州,颗粒物(PM10),55,59,51,33,27,120,,103,103,24,17,10,7,0.8,0.8
2024-04-27T1500,1117A,121.7811,39.0496,大连市,开发区,,,39,58,12,27,,,71,71,12,25,3,6,,0.6
2024-04-27T1500,1118A,121.9762,39.0631,大连市,双D港,,30,14,29,9,16,96,,80,80,16,23,7,9,0.6,0.7
2024-04-27T1500,1789A,124.81117,46.03138,大庆市,大同区,,32,,25,16,21,100,,90,90,2,8,6,6,0.3,0.3
2024-04-27T1500,1790A,125.129,46.533,大庆市,龙凤区,,30,17,20,9,15,94,,86,86,9,12,6,6,0.3,0.4
2024-04-27T1500,1791A,124.902,46.408,大庆市,红岗区,,30,17,28,9,10,96,,86,86,4,8,6,5,0.3,0.3
2024-04-27T1500,1792A,125.153,46.586,大庆市,萨尔图区,,26,,17,4,8,82,,77,77,4,8,6,7,0.1,0.1
2024-04-27T1500,1793A,124.9042,46.6215,大庆市,让胡路区,,30,30,24,12,17,94,,85,85,3,9,4,3,0.3,0.3
2024-04-27T1500,3481A,125.141,46.634,大庆市,萨区政府监测点,,29,11,18,5,8,90,,84,84,2,8,6,7,0.1,0.2
2024-04-27T1500,1723A,113.2994,40.0758,大同市,云冈宾馆,颗粒物(PM10),77,103,194,49,67,149,,94,94,14,17,7,7,0.7,0.8
2024-04-27T1500,1724A,113.3444,40.0917,大同市,大同大学,,,97,203,22,70,154,,95,95,8,13,11,13,,0.8
2024-04-27T1500,1725A,113.2661,40.1269,大同市,安家小村,颗粒物(PM10),92,134,196,45,68,142,,92,92,8,14,8,8,0.3,0.4
2024-04-27T1500,1726A,113.2711,40.0844,大同市,教育学院,颗粒物(PM10),93,136,226,34,53,160,,96,96,15,22,7,9,0.4,0.6
2024-04-27T1500,3282A,113.3397,40.0597,大同市,大同市卫生学校,颗粒物(PM10),72,94,198,26,50,154,,96,96,10,20,7,8,0.4,0.7
2024-04-27T1500,3565A,113.1367,40.1122,大同市,云冈站,颗粒物(PM10),105,159,256,78,80,138,,94,94,14,15,8,12,0.5,0.5
2024-04-27T1500,3566A,113.1186,40.2556,大同市,图书馆,颗粒物(PM10),92,133,261,43,78,152,,97,97,11,13,14,15,0.4,0.5
2024-04-27T1500,3567A,113.5931,40.0461,大同市,区一中,臭氧1小时,68,78,151,23,33,174,,116,116,10,15,8,7,0.5,0.4
2024-04-27T1500,3676A,113.2802,40.0995,大同市,第二人民医院,颗粒物(PM10),90,130,297,25,120,142,,88,88,9,13,9,10,0.5,0.6
2024-04-27T1500,2269A,124.1069,50.4097,大兴安岭地区,科技局,,25,,11,10,13,79,,76,76,2,3,5,6,0.3,0.3
2024-04-27T1500,1600A,124.3303,40.0625,丹东市,江湾东路,,46,46,81,18,36,133,,122,122,10,19,20,11,0.5,0.8
2024-04-27T1500,1601A,124.4256,40.1503,丹东市,临江后街,,44,37,49,9,20,140,,132,132,9,16,9,9,0.6,0.8
2024-04-27T1500,1602A,124.3933,40.1461,丹东市,元宝山,,41,34,48,11,20,130,,122,122,17,20,10,10,0.3,0.5
2024-04-27T1500,1603A,124.3633,40.1092,丹东市,民主桥,颗粒物(PM10),51,51,55,19,20,125,,113,113,10,19,13,12,0.6,0.8
2024-04-27T1500,3541A,109.5726,19.5167,儋州市,第一中学子站,颗粒物(PM10),52,53,53,30,32,121,,108,108,6,6,4,5,0.5,0.6
2024-04-27T1500,3542A,109.5567,19.5187,儋州市,东坡学校子站,,45,43,52,31,33,122,,111,111,5,6,4,4,0.5,0.6
2024-04-27T1500,2616A,98.5842,24.428,德宏傣族景颇族自治州,德宏州监测站,臭氧1小时,68,81,105,21,46,174,,114,114,11,25,2,4,0.6,0.7
2024-04-27T1500,3677A,98.5881,24.4368,德宏傣族景颇族自治州,芒市人民政府综合楼,颗粒物(PM10),66,82,85,44,45,164,,114,114,11,16,6,6,0.6,0.6
2024-04-27T1500,1901A,104.4239,31.1208,德阳市,东山公园,臭氧1小时,75,57,54,28,27,180,,107,107,10,19,3,4,0.4,0.5
2024-04-27T1500,1902A,104.3826,31.1317,德阳市,西小区,臭氧1小时,72,54,67,35,42,177,,105,105,14,33,4,8,0.5,0.7
2024-04-27T1500,1904A,104.3553,31.1091,德阳市,耐火材料厂,臭氧1小时,95,50,75,31,46,196,,113,113,8,29,4,9,0.5,0.7
2024-04-27T1500,3639A,104.4019,31.1244,德阳市,市教育局,臭氧1小时,60,49,51,31,30,168,,99,99,7,29,3,4,0.5,0.6
2024-04-27T1500,1622A,116.3032,37.4674,德州市,儿童乐园,臭氧1小时,80,70,99,27,38,184,,161,161,13,20,7,13,0.7,0.9
2024-04-27T1500,1624A,116.2991,37.4451,德州市,监理站,臭氧1小时,85,63,88,29,40,188,,160,160,8,17,13,19,0.6,0.7
2024-04-27T1500,3066A,116.2721,37.4379,德州市,九衢泉纯净水厂,臭氧1小时,78,68,92,29,39,182,,154,154,8,19,7,12,0.8,0.9
2024-04-27T1500,3371A,116.3728,37.4403,德州市,开发区人民医院,,,68,88,34,34,187,,155,155,,23,,12,0.6,0.8
2024-04-27T1500,3372A,116.3572,37.4094,德州市,太阳城中学,臭氧1小时,73,66,81,31,35,178,,149,149,6,18,7,10,0.8,0.7
2024-04-27T1500,3511A,116.5652,37.3319,德州市,陵城艺术中心,臭氧1小时,72,68,85,27,32,177,,141,141,4,14,7,8,0.5,0.6
2024-04-27T1500,2621A,99.7056,27.8317,迪庆藏族自治州,迪庆州站,,42,21,29,12,17,132,,112,112,8,13,6,8,0.3,0.5
2024-04-27T1500,3180A,99.7136,27.8094,迪庆藏族自治州,质量技术监督局,,40,22,22,9,10,128,,109,109,9,13,6,6,0.4,0.5
2024-04-27T1500,2663A,104.6241,35.5734,定西市,东关小学,颗粒物(PM10),57,64,64,19,25,133,,107,107,6,12,3,4,0.2,0.3
2024-04-27T1500,2664A,104.6194,35.5934,定西市,供电公司,,44,44,60,20,33,129,,104,104,1,10,4,4,0.1,0.2
2024-04-27T1500,1389A,113.7547,23.0494,东莞市,莞城梨川,,27,27,38,13,22,68,,48,48,12,28,7,8,0.8,0.9
2024-04-27T1500,1390A,113.7944,23.0128,东莞市,东城石井,,23,23,40,12,21,66,,39,39,10,29,5,6,0.6,0.8
2024-04-27T1500,1391A,113.7383,22.9658,东莞市,南城西平,,26,26,35,13,20,64,,41,41,7,30,7,8,0.6,0.7
2024-04-27T1500,3319A,113.7338,23.0381,东莞市,万江金泰,,26,26,39,12,22,66,,40,40,7,26,9,10,0.7,0.9
2024-04-27T1500,3626A,113.7533,23.0202,东莞市,南城元岭,,26,26,38,13,22,62,,40,40,9,27,7,7,0.7,0.9
2024-04-27T1500,3627A,113.7875,23.0457,东莞市,东城主山,,24,24,39,11,22,63,,42,42,8,27,8,9,0.7,0.9
2024-04-27T1500,1666A,118.6614,37.4309,东营市,市环保局,臭氧1小时,119,92,67,36,30,238,,163,163,15,24,17,14,0.4,0.5
2024-04-27T1500,3036A,118.6904,37.4338,东营市,开发区管委会,臭氧1小时,114,87,68,46,34,227,,158,158,19,29,14,12,0.5,0.6
2024-04-27T1500,3365A,118.5719,37.565,东营市,垦利区民丰路,臭氧1小时,73,88,77,41,32,178,,170,170,19,33,16,14,0.7,0.9
2024-04-27T1500,3498A,118.5055,37.8612,东营市,河口城区,颗粒物(PM10),62,73,85,36,46,143,,159,159,16,23,8,10,0.4,0.6
2024-04-27T1500,3646A,118.4978,37.4623,东营市,胜利站,臭氧1小时,116,99,74,39,32,231,,171,171,20,30,13,12,0.8,0.8
2024-04-27T1500,3734A,118.35,37.26,东营市,理想之城,臭氧1小时,112,88,73,39,31,223,,157,157,17,27,18,14,0.9,0.8
2024-04-27T1500,1591A,110.0023,39.8129,鄂尔多斯市,综合楼,颗粒物(PM10),67,83,81,31,31,160,,119,119,14,32,7,12,0.5,0.6
2024-04-27T1500,1592A,109.9486,39.8261,鄂尔多斯市,巴音孟克林场办事处,细颗粒物(PM2.5),67,80,72,48,31,157,,120,120,9,29,8,11,0.6,0.6
2024-04-27T1500,1593A,109.7736,39.5986,鄂尔多斯市,康泽苑,细颗粒物(PM2.5),85,83,59,63,28,164,,112,112,8,22,6,6,0.5,0.5
2024-04-27T1500,1594A,109.8119,39.5989,鄂尔多斯市,华泰汽车城,颗粒物(PM10),63,75,62,27,29,154,,101,101,10,38,10,9,0.4,0.5
2024-04-27T1500,1595A,109.9734,39.7884,鄂尔多斯市,奥林花园,颗粒物(PM10),63,75,81,19,27,155,,111,111,10,47,7,8,0.5,0.7
2024-04-27T1500,2436A,114.8938,30.3994,鄂州市,市政府,,43,28,50,17,23,136,,125,125,2,16,7,13,0.6,0.7
2024-04-27T1500,2437A,114.8989,30.3714,鄂州市,赵家坝,,42,,49,16,26,132,,125,125,2,14,8,13,0.6,0.8
2024-04-27T1500,3654A,114.8094,30.4089,鄂州市,精准医疗中心,颗粒物(PM10),61,71,69,19,29,132,,119,119,7,23,10,13,0.8,0.9
2024-04-27T1500,2454A,109.4978,30.2981,恩施土家族苗族自治州,湖北民院,,36,36,38,16,23,109,,68,68,9,21,8,7,0.5,0.5
2024-04-27T1500,2455A,109.4707,30.2798,恩施土家族苗族自治州,州电力总公司,,36,36,36,19,25,102,,57,57,26,29,8,8,0.6,0.7
2024-04-27T1500,3549A,109.5061,30.3772,恩施土家族苗族自治州,龙凤新区,,41,41,31,22,19,106,,66,66,18,16,6,7,0.6,0.6
2024-04-27T1500,2499A,108.3411,21.6158,防城港市,沙万,颗粒物(PM10),54,58,53,27,27,87,,70,70,10,26,5,4,0.6,0.6
2024-04-27T1500,2500A,108.3514,21.7731,防城港市,防城档案局,,50,50,54,30,32,101,,82,82,7,12,4,4,0.7,0.7
2024-04-27T1500,2501A,108.3506,21.6414,防城港市,大海花园,,,,47,,14,92,,75,75,8,19,6,5,0.6,0.6
2024-04-27T1500,1371A,113.1294,23.0067,佛山市,湾梁,臭氧1小时,53,53,46,23,20,162,,44,44,20,46,10,10,0.3,0.4
2024-04-27T1500,1372A,113.1083,23.0478,佛山市,华材职中,,44,44,43,26,24,100,,38,38,23,42,12,11,0.4,0.6
2024-04-27T1500,1373A,113.144,23.0453,佛山市,南海气象局,颗粒物(PM10),51,51,48,28,26,97,,35,35,20,40,8,8,0.5,0.6
2024-04-27T1500,1374A,113.2881,22.8094,佛山市,顺德苏岗,,24,23,37,14,25,76,,34,34,6,34,4,4,0.5,0.7
2024-04-27T1500,1376A,112.8383,22.8678,佛山市,高明孔堂,,27,27,48,16,23,71,,42,42,6,33,8,8,0.5,0.7
2024-04-27T1500,1377A,112.8836,23.1588,佛山市,三水监测站,,,41,52,28,32,,,23,23,37,50,6,7,0.8,0.8
2024-04-27T1500,1378A,112.867,23.185,佛山市,三水云东海,,43,43,52,30,36,70,,31,31,34,34,5,4,0.7,0.7
2024-04-27T1500,3625A,113.2544,22.7642,佛山市,容桂街道办,,34,34,39,17,24,67,,36,36,11,40,2,2,0.4,0.6
2024-04-27T1500,1282A,119.2681,26.0504,福州市,师大,细颗粒物(PM2.5),54,54,54,38,40,142,,99,99,8,20,4,4,0.7,0.8
2024-04-27T1500,1283A,119.2984,26.1028,福州市,五四北路,,49,44,44,29,41,155,,106,106,13,22,4,3,0.7,0.6
2024-04-27T1500,1284A,119.2648,26.0768,福州市,杨桥西路,细颗粒物(PM2.5),52,52,50,36,42,152,,103,103,13,21,4,3,0.7,0.7
2024-04-27T1500,1285A,119.317,26.0746,福州市,紫阳,,49,49,47,34,41,142,,98,98,12,21,4,3,0.7,0.7
2024-04-27T1500,3048A,119.5799,26.0936,福州市,九龙,,39,23,42,23,37,123,,105,105,10,13,4,4,0.5,0.6
2024-04-27T1500,3526A,119.5189,25.9664,福州市,吴航,细颗粒物(PM2.5),59,57,77,42,53,112,,93,93,8,14,4,4,0.5,0.7
2024-04-27T1500,1755A,123.7977,41.8491,抚顺市,望花区,颗粒物(PM10),59,67,87,18,46,136,,119,119,8,24,4,10,0.2,0.7
2024-04-27T1500,1756A,123.9161,41.8822,抚顺市,顺城区,颗粒物(PM10),54,58,100,20,48,150,,118,118,12,36,7,10,0.3,0.8
2024-04-27T1500,1757A,124.0436,41.8611,抚顺市,东洲区,颗粒物(PM10),63,76,96,42,61,152,,110,110,10,26,3,7,0.6,1
2024-04-27T1500,1758A,123.9247,41.8642,抚顺市,新抚区,颗粒物(PM10),60,70,78,29,39,142,,107,107,7,22,5,10,0.3,0.8
2024-04-27T1500,1759A,124.0972,41.8961,抚顺市,大伙房水库,颗粒物(PM10),66,81,72,37,49,152,,110,110,9,17,7,8,0.5,0.8
2024-04-27T1500,1760A,123.7086,41.8391,抚顺市,沈抚新城,,,,90,,43,,,,,,32,,12,,1
2024-04-27T1500,2376A,116.2127,28.0814,抚州市,桐源党溪,,33,33,37,18,22,100,,54,54,2,9,6,8,0.7,0.8
2024-04-27T1500,2377A,116.3544,27.9831,抚州市,市站,,30,22,40,12,25,94,,59,59,6,22,4,5,0.9,1.1
2024-04-27T1500,2378A,116.3565,27.963,抚州市,血防站,,30,22,38,13,25,96,,57,57,5,21,1,1,0.9,1.1
2024-04-27T1500,2379A,116.3564,28.0007,抚州市,采茶剧团,,31,28,39,13,24,98,,61,61,7,25,5,3,1.0,1.1
2024-04-27T1500,2380A,116.385,27.9647,抚州市,医学分院,,27,26,39,14,20,84,,48,48,8,28,4,4,0.9,1.3
2024-04-27T1500,2207A,121.6094,41.998,阜新市,工业园区,,35,25,61,4,21,109,,98,98,9,17,6,13,0.5,0.7
2024-04-27T1500,2208A,121.6697,42.0279,阜新市,长青街,,34,18,67,5,26,108,,95,95,9,16,4,10,0.5,0.7
2024-04-27T1500,2209A,121.6673,42.0705,阜新市,农业园区,,32,16,72,2,37,102,,91,91,11,18,5,9,0.5,0.7
2024-04-27T1500,2210A,121.6717,42.0224,阜新市,东苑,,33,24,59,6,23,105,,97,94,9,18,4,12,0.3,0.7
2024-04-27T1500,2211A,121.6506,42.0498,阜新市,玉龙新城,,33,18,60,4,22,104,,93,93,10,18,6,10,0.6,0.7
2024-04-27T1500,2301A,115.8277,32.8929,阜阳市,市监测站,臭氧1小时,102,67,81,38,48,203,,166,166,15,21,10,10,0.6,0.7
2024-04-27T1500,2303A,115.8554,32.8605,阜阳市,开发区,臭氧1小时,102,68,86,35,41,204,,164,164,14,20,8,8,0.5,0.5
2024-04-27T1500,3468A,115.7901,32.8613,阜阳市,市规划展馆,臭氧1小时,106,62,80,38,52,212,,180,180,10,16,7,7,0.6,0.6
2024-04-27T1500,3469A,115.836,32.9183,阜阳市,枣园社区,,,64,84,26,54,189,,156,156,13,18,8,9,,0.6
2024-04-27T1500,2669A,102.9099,34.9841,甘南藏族自治州,州政府,颗粒物(PM10),52,54,36,20,22,123,,89,89,2,11,10,10,0.4,0.4
2024-04-27T1500,3380A,102.8914,34.9617,甘南藏族自治州,甘肃民族师范学院,颗粒物(PM10),53,56,37,22,15,132,,91,91,1,15,8,10,0.4,0.5
2024-04-27T1500,2570A,101.9603,30.0475,甘孜藏族自治州,水桥子,,42,23,22,11,11,134,,87,87,3,31,3,3,0.2,0.3
2024-04-27T1500,3065A,101.9533,29.9972,甘孜藏族自治州,州环保局,,43,36,26,3,7,136,,104,104,6,24,2,2,0.2,0.2
2024-04-27T1500,3414A,115.8347,28.932,赣江新区,桑海产业园,,40,36,44,16,21,126,,81,81,12,36,8,8,0.6,0.8
2024-04-27T1500,2363A,114.9367,25.8664,赣州市,地委,,37,37,33,24,19,91,,64,64,14,12,4,6,0.9,0.9
2024-04-27T1500,2364A,114.9461,25.8481,赣州市,气象台,,32,32,31,20,19,82,,60,60,16,12,1,12,0.5,0.5
2024-04-27T1500,2365A,114.9322,25.8333,赣州市,市图书馆,,37,37,30,22,18,88,,60,60,15,11,12,22,1.0,1
2024-04-27T1500,2366A,114.8905,25.8471,赣州市,华坚鞋城,,36,35,33,25,19,73,,50,50,2,7,7,13,0.6,0.6
2024-04-27T1500,3109A,115.0093,25.8613,赣州市,赣县区卫计委,,27,18,28,12,18,84,,59,59,12,15,9,10,0.6,0.6
2024-04-27T1500,2683A,106.2319,36.1417,固原市,马园,,44,25,65,15,21,139,,100,100,6,18,5,5,0.1,0.3
2024-04-27T1500,2684A,106.2792,36.0022,固原市,监测站,,41,14,34,14,17,131,,100,100,8,13,2,2,0.2,0.3
2024-04-27T1500,2685A,106.2375,36.0211,固原市,新区,,42,20,34,8,13,132,,107,107,6,11,2,2,0.2,0.2
2024-04-27T1500,3522A,106.2177,35.9959,固原市,原州区十五小,,44,27,38,16,16,139,,119,119,5,9,3,3,0.1,0.1
2024-04-27T1500,2544A,106.6303,30.4576,广安市,市委,颗粒物(PM10),56,61,65,37,41,149,,90,90,8,33,8,9,0.6,0.8
2024-04-27T1500,2545A,106.6271,30.4663,广安市,友谊中学,,48,46,54,33,35,149,,92,92,12,26,8,9,0.7,0.7
2024-04-27T1500,2547A,106.6388,30.4551,广安市,广电花园,细颗粒物(PM2.5),53,50,59,37,38,149,,88,88,10,24,9,10,0.7,0.8
2024-04-27T1500,2902A,106.6351,30.4865,广安市,北辰小学,颗粒物(PM10),52,54,60,25,36,147,,88,88,8,16,10,11,0.6,0.7
2024-04-27T1500,2523A,105.8945,32.4535,广元市,黑石坡,,38,14,19,5,14,120,,78,78,6,10,15,13,0.4,0.3
2024-04-27T1500,2524A,105.821,32.4444,广元市,老城,,38,16,28,6,14,120,,62,62,8,34,4,5,0.5,0.7
2024-04-27T1500,2526A,105.8628,32.4287,广元市,监测站,,37,17,27,4,14,118,,70,70,4,12,5,5,0.4,0.4
2024-04-27T1500,3617A,105.8047,32.4166,广元市,经开区,,40,28,40,16,23,125,,68,68,8,24,6,9,0.5,0.6
2024-04-27T1500,1345A,113.2347,23.1423,广州市,广雅中学,,47,47,43,26,25,63,,36,36,39,53,6,6,0.7,0.9
2024-04-27T1500,1346A,113.2612,23.105,广州市,市五中,,46,46,52,24,28,58,,37,37,29,45,6,7,0.7,0.9
2024-04-27T1500,1348A,113.3478,23.0916,广州市,广东商学院,,39,39,45,20,25,66,,44,44,34,50,4,5,0.5,0.7
2024-04-27T1500,1349A,113.4332,23.1047,广州市,市八十六中,,41,41,42,18,23,57,,29,29,42,52,4,5,0.6,0.7
2024-04-27T1500,1350A,113.3505,22.9483,广州市,番禺中学,,36,36,37,25,27,51,,33,33,26,44,4,5,0.6,0.8
2024-04-27T1500,1351A,113.2146,23.3916,广州市,花都师范,,37,37,37,20,22,66,,37,31,23,37,5,6,0.7,0.7
2024-04-27T1500,1352A,113.2597,23.1331,广州市,市监测站,,46,46,43,23,24,56,,33,33,39,50,6,6,0.5,0.6
2024-04-27T1500,1353A,113.5618,23.312,广州市,九龙镇镇龙,,40,40,30,22,18,37,,49,33,16,19,6,6,0.6,0.6
2024-04-27T1500,1354A,113.2765,23.1544,广州市,麓湖,,44,44,43,24,27,65,,34,34,28,41,5,5,0.6,0.8
2024-04-27T1500,1355A,113.443,23.3035,广州市,帽峰山森林公园,,,43,33,18,16,,,43,34,16,8,5,5,0.7,0.7
2024-04-27T1500,2846A,113.3221,23.1322,广州市,体育西,,44,44,44,25,34,64,,34,34,9,29,6,6,0.6,0.7
2024-04-27T1500,3298A,113.5717,23.5491,广州市,从化街口,,27,20,33,13,20,84,,64,64,14,22,4,4,0.6,0.6
2024-04-27T1500,3299A,113.3472,23.3692,广州市,白云竹料,,34,34,34,19,22,67,,38,38,17,27,6,6,0.6,0.6
2024-04-27T1500,3300A,113.2981,23.237,广州市,白云嘉禾,颗粒物(PM10),56,61,51,34,28,75,,35,35,45,49,5,5,1.0,1
2024-04-27T1500,3301A,113.4256,23.1716,广州市,黄埔科学城,颗粒物(PM10),66,82,47,46,30,74,,35,35,49,43,6,6,1.1,1
2024-04-27T1500,3302A,113.3942,23.0483,广州市,番禺大学城,,39,39,36,13,16,47,,26,26,31,46,7,7,0.7,0.9
2024-04-27T1500,3303A,113.4922,22.8168,广州市,南沙黄阁,,42,42,36,19,22,61,,37,37,15,36,5,6,0.6,0.7
2024-04-27T1500,3304A,113.5342,22.7896,广州市,南沙街,,32,32,31,14,17,44,,28,28,11,26,6,6,0.5,0.6
2024-04-27T1500,3443A,113.2902,23.5544,广州市,花都梯面,,22,21,32,15,22,70,,52,52,13,17,3,3,0.7,0.7
2024-04-27T1500,3445A,113.7858,23.7478,广州市,从化良口,,28,28,25,17,16,69,,66,66,6,7,4,4,0.5,0.5
2024-04-27T1500,3446A,113.8051,23.2614,广州市,增城荔城,,46,46,30,24,17,47,,64,40,12,15,6,6,0.5,0.6
2024-04-27T1500,2506A,109.6047,23.0666,贵港市,江南子站,细颗粒物(PM2.5),63,70,71,45,46,138,,88,88,10,20,9,9,0.5,0.6
2024-04-27T1500,2507A,109.6014,23.0948,贵港市,贵城子站,颗粒物(PM10),68,86,74,42,46,132,,82,82,11,20,8,8,0.9,0.7
2024-04-27T1500,2508A,109.5669,23.1065,贵港市,荷城子站,细颗粒物(PM2.5),64,73,62,46,41,134,,89,89,11,15,12,11,0.8,0.7
2024-04-27T1500,3405A,109.5886,23.1172,贵港市,新世纪学校,颗粒物(PM10),62,73,60,42,39,144,,91,91,11,18,11,10,1.0,0.8
2024-04-27T1500,1439A,106.6899,26.5998,贵阳市,马鞍山,,46,27,32,17,17,147,,105,105,13,15,9,8,0.3,0.4
2024-04-27T1500,1440A,106.6971,26.5694,贵阳市,市环保站,臭氧1小时,63,31,47,26,31,170,,119,119,20,30,5,5,0.4,0.7
2024-04-27T1500,1441A,106.6243,26.6266,贵阳市,鉴湖路,,45,19,32,12,21,144,,105,105,5,12,2,5,0.4,0.4
2024-04-27T1500,1442A,106.7487,26.6343,贵阳市,燕子冲,,45,22,32,12,22,143,,106,106,8,10,10,8,0.4,0.5
2024-04-27T1500,1443A,106.6555,26.4365,贵阳市,碧云窝,臭氧1小时,67,34,37,14,21,173,,126,126,10,14,4,5,0.5,0.5
2024-04-27T1500,1444A,106.694,26.5161,贵阳市,中院村,臭氧1小时,57,36,42,19,28,165,,117,117,12,22,7,8,0.4,0.6
2024-04-27T1500,1445A,106.7109,26.6027,贵阳市,红边门,臭氧1小时,57,29,42,29,33,165,,120,120,16,25,3,6,0.3,0.5
2024-04-27T1500,1446A,106.7164,26.5699,贵阳市,新华路,臭氧1小时,52,31,36,27,28,161,,118,118,10,18,8,6,0.3,0.5
2024-04-27T1500,1447A,106.674,26.5424,贵阳市,太慈桥,臭氧1小时,55,27,30,12,20,164,,110,110,13,22,6,6,0.5,0.5
2024-04-27T1500,1862A,110.4144,25.3167,桂林市,电子科大尧山校区,,29,20,25,11,13,92,,94,94,5,6,4,5,0.9,0.9
2024-04-27T1500,1863A,110.2819,25.2697,桂林市,监测站,,38,,42,24,24,120,,107,107,7,26,3,5,0.6,0.9
2024-04-27T1500,1864A,110.3089,25.2708,桂林市,龙隐路小学,,35,,32,18,23,110,,102,102,10,19,4,6,0.6,0.7
2024-04-27T1500,1865A,110.2869,25.2178,桂林市,八中,,37,16,34,12,18,118,,106,106,9,18,4,4,0.6,0.8
2024-04-27T1500,3403A,110.1764,25.2381,桂林市,创业大厦,,35,,27,17,20,112,,97,97,8,18,7,8,0.9,0.9
2024-04-27T1500,3531A,110.296,25.1253,桂林市,旅游学院,,36,5,19,5,13,114,,106,106,4,14,5,6,0.7,0.8
2024-04-27T1500,2674A,100.2561,34.4714,果洛藏族自治州,玛沁县大武镇,,44,27,54,8,24,139,,101,101,10,15,12,15,0.1,0.3
2024-04-27T1500,1129A,126.5422,45.755,哈尔滨市,岭北,,34,19,34,12,27,107,,93,93,8,16,7,10,0.2,0.3
2024-04-27T1500,1130A,126.561,45.8167,哈尔滨市,松北商大,,32,26,34,11,22,101,,87,87,12,21,5,5,0.4,0.4
2024-04-27T1500,1131A,126.979,45.5419,哈尔滨市,阿城会宁,颗粒物(PM10),51,52,58,13,39,101,,70,,7,17,8,13,0.4,0.6
2024-04-27T1500,1132A,126.599,45.7222,哈尔滨市,南岗学府路,,32,30,45,8,24,102,,90,90,7,17,8,9,0.5,0.5
2024-04-27T1500,1133A,126.689,45.7733,哈尔滨市,太平宏伟公园,,34,27,43,15,30,108,,95,95,9,20,6,7,0.4,0.4
2024-04-27T1500,1134A,126.635,45.7667,哈尔滨市,道外承德广场,,,26,40,15,29,96,,85,85,,29,6,7,,0.4
2024-04-27T1500,1135A,126.685,45.7319,哈尔滨市,香坊红旗大街,,33,25,44,12,34,104,,91,91,7,21,3,4,0.4,0.5
2024-04-27T1500,1136A,126.6411,45.7258,哈尔滨市,动力和平路,,32,22,42,8,31,101,,90,90,13,23,4,5,0.3,0.4
2024-04-27T1500,1137A,126.593,45.7478,哈尔滨市,道里建国路,,,32,42,,20,99,,85,85,13,24,3,4,0.3,0.5
2024-04-27T1500,1138A,126.615,45.61,哈尔滨市,平房东轻厂,,34,34,51,17,32,97,,85,85,12,27,6,7,0.3,0.4
2024-04-27T1500,1139A,126.595,45.9855,哈尔滨市,呼兰师专,,43,43,39,29,34,101,,89,89,13,19,6,5,0.3,0.4
2024-04-27T1500,1140A,126.6206,45.6842,哈尔滨市,省农科院,,33,,46,20,33,105,,93,93,10,29,8,10,0.4,0.5
2024-04-27T1500,2688A,93.5128,42.8172,哈密市,地区监测站,颗粒物(PM10),58,66,62,17,17,99,,79,79,6,11,4,4,0.2,0.2
2024-04-27T1500,2689A,93.4961,42.8328,哈密市,哈密师范学校,颗粒物(PM10),54,58,63,28,20,98,,76,76,4,8,5,5,0.3,0.4
2024-04-27T1500,2671A,100.9048,36.9639,海北藏族自治州,海晏县西海镇,颗粒物(PM10),56,61,119,15,37,134,,92,92,4,9,13,15,0.4,0.5
2024-04-27T1500,3867A,102.0738,36.5056,海东市,平安区公安北苑,颗粒物(PM10),59,67,56,27,22,140,,93,93,10,17,11,14,0.4,0.7
2024-04-27T1500,1410A,110.3232,20.0574,海口市,海南大学,,45,43,41,31,25,123,,96,96,10,9,5,5,0.4,0.5
2024-04-27T1500,1411A,110.283,20.0053,海口市,秀英海南医院,颗粒物(PM10),58,65,49,30,30,118,,93,93,10,12,7,5,0.5,0.5
2024-04-27T1500,1412A,110.338,19.9969,海口市,海南师范大学,颗粒物(PM10),59,68,43,25,27,112,,85,85,3,7,6,6,0.5,0.5
2024-04-27T1500,1413A,110.33,20.0356,海口市,龙华路环保局宿舍,颗粒物(PM10),53,56,41,31,26,113,,88,88,7,8,6,6,0.4,0.4
2024-04-27T1500,3539A,110.5111,19.9736,海口市,桂林洋子站,,44,44,42,28,22,102,,80,80,5,10,6,5,0.4,0.4
2024-04-27T1500,2673A,100.6188,36.2866,海南藏族自治州,共和县恰卜恰镇,,42,38,113,27,55,134,,101,101,3,15,7,8,0.5,0.6
2024-04-27T1500,2676A,97.3731,37.3753,海西蒙古族藏族自治州,德令哈市,颗粒物(PM10),64,77,100,18,23,136,,123,123,10,7,11,10,0.4,0.5
2024-04-27T1500,1048A,114.5302,36.6116,邯郸市,东污水处理厂,颗粒物(PM10),62,74,84,39,41,166,,136,136,2,14,6,7,0.5,0.4
2024-04-27T1500,1049A,114.4918,36.5713,邯郸市,矿院,臭氧1小时,58,59,69,34,35,166,,136,136,8,16,7,8,0.6,0.5
2024-04-27T1500,1050A,114.484,36.6133,邯郸市,丛台公园,颗粒物(PM10),78,105,76,39,37,168,,139,139,5,12,5,5,0.5,0.4
2024-04-27T1500,3458A,114.7895,36.5593,邯郸市,香泉濮院小区,臭氧1小时,101,132,96,43,36,201,,162,162,5,11,7,10,0.3,0.3
2024-04-27T1500,3579A,114.50634,36.77178,邯郸市,永年区实验高中,臭氧1小时,85,73,92,34,44,188,,152,152,8,19,7,9,0.5,0.8
2024-04-27T1500,3580A,114.20016,36.44293,邯郸市,峰峰矿区临水派出所,颗粒物(PM10),65,79,78,34,34,170,,130,130,7,13,6,10,0.9,1.1
2024-04-27T1500,2634A,106.9893,33.1842,汉中市,汉川机床厂子校,,36,29,30,18,18,114,,70,70,4,11,5,5,0.3,0.4
2024-04-27T1500,2635A,107.0154,33.0706,汉中市,市监测站,,40,40,44,28,26,117,,79,79,10,19,10,10,0.7,0.7
2024-04-27T1500,2636A,107.0089,33.1138,汉中市,鑫源开发区,,39,33,39,20,23,122,,78,78,9,22,10,12,0.6,0.7
2024-04-27T1500,2637A,107.007,33.0323,汉中市,南郑大河坎水厂,,39,38,41,27,24,107,,75,75,8,14,8,8,0.7,0.7
2024-04-27T1500,1223A,120.2072,30.2111,杭州市,滨江,,40,40,58,19,28,127,,85,81,18,18,4,4,0.6,0.6
2024-04-27T1500,1224A,120.0633,30.2747,杭州市,西溪,,35,35,54,20,35,95,,75,72,23,22,6,6,0.6,0.6
2024-04-27T1500,1226A,120.3461,30.3153,杭州市,下沙,,46,32,46,15,25,145,,94,94,14,16,5,5,0.5,0.5
2024-04-27T1500,1227A,120.1269,30.2456,杭州市,卧龙桥,,37,35,48,25,35,116,,80,78,19,20,4,5,0.6,0.6
2024-04-27T1500,1228A,120.1903,30.2692,杭州市,浙江农大,,41,31,45,17,29,129,,76,73,20,23,4,5,0.6,0.5
2024-04-27T1500,1230A,120.1197,30.3119,杭州市,和睦小学,颗粒物(PM10),55,59,73,20,30,105,,85,78,21,19,6,7,0.6,0.6
2024-04-27T1500,1231A,120.3019,30.4183,杭州市,临平镇,,41,40,60,25,42,131,,89,89,10,14,4,4,0.6,0.6
2024-04-27T1500,1232A,120.2697,30.1819,杭州市,城厢镇,,42,41,56,29,38,121,,80,80,30,26,5,5,0.6,0.6
2024-04-27T1500,1233A,120.0883,30.1808,杭州市,云栖,,47,47,63,26,29,113,,79,79,27,24,7,7,0.5,0.5
2024-04-27T1500,3557A,119.9464,30.0494,杭州市,镇二中,,50,50,58,31,33,117,,80,80,27,26,7,7,0.7,0.7
2024-04-27T1500,3558A,119.7183,30.2367,杭州市,市府大楼,颗粒物(PM10),51,52,60,33,39,100,,81,81,31,24,5,5,0.7,0.6
2024-04-27T1500,3656A,120.1556,30.2864,杭州市,消防大队,,37,33,58,20,32,116,,77,75,20,22,8,8,0.7,0.7
2024-04-27T1500,1270A,117.1959,31.7848,合肥市,明珠广场,臭氧1小时,100,75,98,48,57,200,,160,160,19,31,8,9,0.8,0.9
2024-04-27T1500,1271A,117.3072,31.8764,合肥市,三里街,臭氧1小时,78,66,81,41,47,182,,142,142,18,29,7,7,0.5,0.6
2024-04-27T1500,1272A,117.2588,31.8707,合肥市,琥珀山庄,臭氧1小时,100,70,80,34,36,200,,159,159,15,24,5,5,0.8,0.9
2024-04-27T1500,1273A,117.1604,31.9052,合肥市,董铺水库,臭氧1小时,99,88,86,44,40,199,,165,165,13,26,2,2,0.6,0.6
2024-04-27T1500,1274A,117.25,31.8571,合肥市,长江中路,臭氧1小时,101,78,92,47,47,201,,157,157,19,28,6,7,0.7,0.7
2024-04-27T1500,1275A,117.266,31.9436,合肥市,庐阳区,臭氧1小时,75,63,93,29,45,180,,149,149,15,32,3,4,0.3,0.5
2024-04-27T1500,1276A,117.336,31.8586,合肥市,瑶海区,臭氧1小时,89,66,79,42,46,191,,149,149,15,26,9,9,0.8,0.8
2024-04-27T1500,1277A,117.3027,31.7964,合肥市,包河区,臭氧1小时,102,90,108,44,51,203,,148,148,17,56,9,9,0.5,0.5
2024-04-27T1500,1278A,117.2776,31.7385,合肥市,滨湖新区,臭氧1小时,103,83,81,56,48,206,,156,156,13,18,9,8,0.6,0.7
2024-04-27T1500,1279A,117.1318,31.8403,合肥市,高新区,臭氧1小时,77,61,91,35,55,181,,162,162,14,27,8,9,0.9,0.9
2024-04-27T1500,3464A,117.3803,31.9147,合肥市,高教基地,,,50,68,,40,158,,125,125,13,23,5,6,0.4,0.6
2024-04-27T1500,3614A,79.924,37.0877,和田地区,地区环保局,颗粒物(PM10),154,258,581,47,143,113,,98,98,2,6,5,6,0.5,0.5
2024-04-27T1500,3615A,79.9131,37.113,和田地区,市环保局,颗粒物(PM10),157,264,586,43,152,106,,89,89,6,19,5,6,0.4,0.5
2024-04-27T1500,2516A,108.2011,24.715,河池市,东仁乐园,,48,48,43,15,18,41,,25,25,5,8,3,3,0.8,0.8
2024-04-27T1500,2517A,108.0497,24.6947,河池市,市环保站,,32,30,32,22,22,95,,65,65,10,13,13,12,0.6,0.7
2024-04-27T1500,2518A,108.0983,24.6989,河池市,市疾控中心,,42,42,41,26,24,92,,65,65,16,21,13,9,0.7,0.7
2024-04-27T1500,1697A,114.6944,23.7586,河源市,东埔,,30,16,35,12,14,96,,51,51,12,18,6,6,0.6,0.7
2024-04-27T1500,1698A,114.6892,23.7233,河源市,老城,,30,11,24,9,12,94,,51,51,8,14,5,5,0.6,0.7
2024-04-27T1500,1718A,115.4208,35.2464,菏泽市,气象局,臭氧1小时,78,73,84,30,34,182,,160,160,13,19,5,5,0.5,0.5
2024-04-27T1500,1719A,115.4747,35.2375,菏泽市,市政协,臭氧1小时,78,86,80,31,39,182,,157,157,12,14,4,5,0.4,0.3
2024-04-27T1500,3374A,115.5564,35.0891,菏泽市,定陶老年大学,,50,48,72,22,32,159,,142,142,10,16,5,6,0.5,0.5
2024-04-27T1500,3647A,115.4702,35.2706,菏泽市,菏泽医专,臭氧1小时,58,63,81,24,31,166,,148,148,9,15,4,5,0.4,0.4
2024-04-27T1500,2514A,111.5264,24.4172,贺州市,环保小区,,,4,31,3,17,115,,87,87,11,16,9,10,,0.5
2024-04-27T1500,2515A,111.5608,24.4078,贺州市,政协大楼,,36,9,33,5,21,113,,84,84,6,17,7,8,0.7,0.7
2024-04-27T1500,3534A,111.4744,24.4553,贺州市,西湾,,39,,29,9,16,122,,90,90,7,16,8,7,0.5,0.6
2024-04-27T1500,2385A,114.17,35.9019,鹤壁市,市监测站,细颗粒物(PM2.5),74,76,83,54,56,176,,138,138,9,18,10,10,0.7,0.6
2024-04-27T1500,2386A,114.2956,35.7511,鹤壁市,市交警支队,臭氧1小时,74,68,77,40,44,179,,149,149,6,16,14,15,0.4,0.4
2024-04-27T1500,2387A,114.2878,35.7306,鹤壁市,迎宾馆,臭氧1小时,78,75,82,38,45,182,,148,148,9,19,12,14,0.5,0.5
2024-04-27T1500,3474A,114.2617,35.6822,鹤壁市,大新区,,,100,82,24,37,174,,140,140,6,23,,10,0.5,0.4
2024-04-27T1500,3596A,114.1572,35.9603,鹤壁市,南山宾馆,臭氧1小时,75,72,94,37,46,180,,137,137,5,16,10,14,0.4,0.5
2024-04-27T1500,2244A,130.2537,47.3416,鹤岗市,哈啤分公司,,26,,30,18,20,74,,91,81,5,7,12,13,0.5,0.5
2024-04-27T1500,2245A,130.2684,47.3086,鹤岗市,斯达机电,,28,,31,19,23,75,,75,75,6,14,10,14,0.5,0.5
2024-04-27T1500,2246A,130.3114,47.3388,鹤岗市,东山纸板厂,,24,18,37,14,19,76,,82,80,4,10,13,14,0.3,0.4
2024-04-27T1500,2247A,130.1097,47.3382,鹤岗市,五号水库,,29,17,21,10,11,90,,97,94,5,7,10,10,0.2,0.2
2024-04-27T1500,2263A,127.4833,50.2524,黑河市,交通局,,27,,16,18,17,86,,84,84,5,8,2,3,0.3,0.2
2024-04-27T1500,2264A,127.5144,50.2341,黑河市,环保局,,28,10,12,5,10,89,,86,86,6,7,3,3,0.2,0.3
2024-04-27T1500,2265A,127.5291,50.2472,黑河市,大黑河岛,,,,14,8,9,,,,,5,11,3,7,,
2024-04-27T1500,1074A,115.6838,37.7541,衡水市,电机北厂,臭氧1小时,77,58,86,33,40,181,,151,151,7,14,4,6,0.3,0.4
2024-04-27T1500,1075A,115.6303,37.7316,衡水市,市监测站,臭氧1小时,83,74,85,33,38,186,,154,154,11,16,3,5,0.7,0.6
2024-04-27T1500,3188A,115.6683,37.7217,衡水市,市城管局,臭氧1小时,74,62,80,37,39,179,,148,148,11,18,2,4,0.5,0.5
2024-04-27T1500,3459A,115.5989,37.5491,衡水市,地表水厂,臭氧1小时,85,84,90,35,36,188,,156,156,9,19,4,5,0.4,0.4
2024-04-27T1500,2456A,112.5003,26.9167,衡阳市,原169医院,,37,36,35,21,21,116,,66,66,7,23,5,5,0.7,0.7
2024-04-27T1500,2457A,112.6194,26.9258,衡阳市,衡阳化工总厂,,44,44,42,21,21,116,,76,76,5,19,9,9,0.6,0.7
2024-04-27T1500,2458A,112.6211,26.8956,衡阳市,珠晖区环保局,,41,41,41,20,21,114,,76,76,6,21,8,7,0.7,0.8
2024-04-27T1500,2459A,112.6197,26.8733,衡阳市,市委党校,,41,41,37,18,19,106,,76,76,4,17,8,8,0.7,0.8
2024-04-27T1500,2460A,112.6006,26.8919,衡阳市,市监测站,,40,40,38,27,27,121,,81,81,5,22,8,8,0.7,0.8
2024-04-27T1500,2461A,112.5664,26.9056,衡阳市,真空机电公司,,47,47,40,19,22,116,,78,78,5,20,8,9,0.7,0.9
2024-04-27T1500,3399A,112.6703,26.882,衡阳市,师范学院,,46,35,40,32,28,105,,71,71,5,15,9,9,0.7,0.8
2024-04-27T1500,2608A,103.3772,23.3993,红河哈尼族彝族自治州,污水处理厂,颗粒物(PM10),60,69,71,30,44,162,,139,139,8,11,11,9,0.4,0.5
2024-04-27T1500,2609A,103.3861,23.35,红河哈尼族彝族自治州,监测站,臭氧1小时,53,50,65,18,40,162,,144,144,8,12,10,11,0.4,0.5
2024-04-27T1500,3038A,103.3758,23.368,红河哈尼族彝族自治州,州图书馆,臭氧1小时,58,56,61,20,38,166,,151,151,6,8,6,7,0.3,0.4
2024-04-27T1500,1090A,111.6507,40.7517,呼和浩特市,呼市一监,颗粒物(PM10),79,107,228,55,67,145,,100,100,8,15,6,6,0.4,0.4
2024-04-27T1500,1091A,111.6572,40.8033,呼和浩特市,小召,颗粒物(PM10),87,124,210,39,69,127,,92,92,14,17,8,7,0.5,0.5
2024-04-27T1500,1094A,111.7516,40.8369,呼和浩特市,如意水处理厂,颗粒物(PM10),91,131,205,33,46,134,,94,94,7,16,7,7,0.4,0.4
2024-04-27T1500,1095A,111.7276,40.8062,呼和浩特市,二十九中,颗粒物(PM10),88,125,220,45,56,139,,98,98,9,15,10,11,0.4,0.4
2024-04-27T1500,1096A,111.5512,40.7866,呼和浩特市,工大金川校区,颗粒物(PM10),90,130,203,57,73,133,,85,85,11,21,9,7,0.3,0.3
2024-04-27T1500,1097A,111.717,40.7612,呼和浩特市,化肥厂生活区,颗粒物(PM10),96,142,272,48,80,138,,96,96,9,16,7,7,0.3,0.3
2024-04-27T1500,3698A,111.5968,40.8178,呼和浩特市,红旗小学,颗粒物(PM10),92,134,218,47,61,138,,93,93,14,22,8,6,0.3,0.3
2024-04-27T1500,3699A,111.6518,40.8389,呼和浩特市,海东办,颗粒物(PM10),90,129,198,49,69,132,,90,90,10,22,9,8,0.3,0.3
2024-04-27T1500,2192A,119.7594,49.2261,呼伦贝尔市,区环保局,,27,21,24,13,17,86,,80,80,7,10,4,4,0.2,0.3
2024-04-27T1500,3061A,119.7512,49.1577,呼伦贝尔市,国华电力东,,32,32,22,12,12,81,,81,81,5,5,3,3,0.2,0.2
2024-04-27T1500,1250A,120.0751,30.8669,湖州市,城西水厂,颗粒物(PM10),54,58,21,36,35,90,,88,87,29,22,3,3,0.6,0.7
2024-04-27T1500,2873A,120.0875,30.8955,湖州市,仁皇山新区,细颗粒物(PM2.5),55,56,52,39,37,95,,91,91,31,25,4,5,0.8,0.8
2024-04-27T1500,2907A,120.1844,30.8596,湖州市,吴兴区站,,48,48,52,32,35,99,,89,89,23,15,4,5,0.5,0.5
2024-04-27T1500,3562A,120.4148,30.8538,湖州市,南浔区站,,46,40,50,32,37,93,,88,88,23,17,4,5,0.5,0.6
2024-04-27T1500,1607A,120.9092,40.7136,葫芦岛市,龙港区,,48,48,74,6,35,107,,90,90,18,19,11,12,0.4,0.6
2024-04-27T1500,1608A,120.8392,40.7514,葫芦岛市,化工街,,36,36,86,7,36,106,,91,91,14,34,15,24,0.1,0.4
2024-04-27T1500,1609A,120.8341,40.7073,葫芦岛市,新区,,46,46,64,7,39,108,,93,93,14,23,9,9,0.5,0.7
2024-04-27T1500,1610A,120.8695,40.7677,葫芦岛市,东城区,,34,24,66,6,40,108,,93,93,14,33,9,13,0.4,0.6
2024-04-27T1500,2482A,109.5981,27.5721,怀化市,林科所,,36,7,24,7,15,113,,83,83,4,4,7,12,0.7,0.7
2024-04-27T1500,2483A,109.9453,27.5444,怀化市,河西地税局,,35,8,32,3,18,110,,70,70,6,15,7,8,0.5,0.5
2024-04-27T1500,2484A,109.9781,27.5342,怀化市,市四医院,,30,25,45,14,26,96,,63,63,5,24,8,17,0.5,0.6
2024-04-27T1500,2485A,109.9972,27.5578,怀化市,监测楼,,30,16,40,6,22,96,,58,58,4,17,10,16,0.4,0.5
2024-04-27T1500,2486A,110.0394,27.583,怀化市,市委党校,,30,7,38,1,23,95,,59,59,4,16,7,10,0.6,0.6
2024-04-27T1500,1210A,119.036,33.5981,淮安市,钵池山,,35,17,21,12,20,109,,100,100,9,12,6,6,0.5,0.5
2024-04-27T1500,1211A,119.007,33.575,淮安市,北京南路,,38,14,22,13,21,121,,111,111,8,11,7,7,0.4,0.4
2024-04-27T1500,1212A,118.989,33.6067,淮安市,市监测站,,38,14,23,9,13,121,,109,109,11,13,5,5,0.4,0.4
2024-04-27T1500,1213A,119.135,33.5039,淮安市,楚州区监测站,,37,20,25,10,18,118,,107,106,11,15,6,6,0.5,0.5
2024-04-27T1500,1214A,119.0186,33.6297,淮安市,淮阴区监测站,,37,27,27,15,22,116,,105,105,13,17,4,5,0.3,0.3
2024-04-27T1500,3426A,118.8755,33.2894,淮安市,新华书店,,35,16,25,7,16,112,,109,109,10,15,5,5,0.4,0.4
2024-04-27T1500,2282A,116.8004,33.975,淮北市,监测站,,33,30,52,18,28,104,,110,92,6,11,4,6,0.4,0.4
2024-04-27T1500,2283A,116.8091,33.9007,淮北市,烈山区政府,,40,40,68,14,29,110,,104,90,5,12,4,6,0.3,0.4
2024-04-27T1500,3330A,116.8873,33.9836,淮北市,杜集区检察院,,,,56,,39,,,116,94,7,10,4,5,0.4,0.5
2024-04-27T1500,4017A,116.7923,33.9535,淮北市,市博物馆,,34,32,52,17,28,108,,110,94,3,8,4,6,0.5,0.5
2024-04-27T1500,2277A,116.8305,32.7727,淮南市,潘集区政府,颗粒物(PM10),55,60,94,33,44,150,,126,126,9,17,7,11,0.5,0.6
2024-04-27T1500,2278A,117.0067,32.6524,淮南市,师范学院,颗粒物(PM10),54,57,83,31,53,137,,132,132,10,15,7,11,0.3,0.5
2024-04-27T1500,2279A,116.8569,32.5951,淮南市,谢家集区政府,颗粒物(PM10),52,54,74,27,31,149,,136,136,16,20,7,18,0.2,0.4
2024-04-27T1500,2280A,116.8281,32.633,淮南市,八公山区政府,颗粒物(PM10),57,63,93,36,54,159,,146,146,9,15,4,8,0.4,0.5
2024-04-27T1500,2281A,116.6325,32.6201,淮南市,焦岗湖风景区管理处,,49,49,74,25,24,134,,119,119,15,30,5,4,0.3,0.4
2024-04-27T1500,2894A,117.0566,32.6531,淮南市,经济技术开发区消防队,,47,47,72,29,41,135,,123,123,14,21,4,7,0.4,0.6
2024-04-27T1500,3329A,117.0108,32.5893,淮南市,山南新区,颗粒物(PM10),54,58,80,30,41,157,,134,134,20,19,4,6,0.5,0.5
2024-04-27T1500,2446A,114.9028,30.4742,黄冈市,职工中心,,47,47,58,25,34,147,,124,124,4,11,6,8,0.5,0.6
2024-04-27T1500,2929A,114.8858,30.4519,黄冈市,红卫路,,44,37,49,22,29,139,,118,118,4,10,10,10,0.4,0.6
2024-04-27T1500,3398A,114.9136,30.4445,黄冈市,市林业局,,46,42,51,27,32,147,,126,126,2,9,3,5,0.3,0.4
2024-04-27T1500,2672A,102.0199,35.5102,黄南藏族自治州,同仁县隆务镇,,47,47,49,24,21,125,,87,87,5,4,9,9,0.5,0.6
2024-04-27T1500,2295A,118.2903,29.6963,黄山市,延安路89号,,31,25,42,6,10,99,,68,68,2,8,6,6,0.6,0.6
2024-04-27T1500,2296A,118.327,29.7178,黄山市,黄山东路89号,,30,14,34,8,13,94,,64,64,2,11,5,5,0.4,0.6
2024-04-27T1500,2297A,118.1371,30.2756,黄山市,黄山区政府5号楼,,35,19,28,1,20,111,,74,74,5,7,4,4,0.7,0.8
2024-04-27T1500,2423A,115.0601,30.2313,黄石市,沈家营,,47,47,54,22,27,147,,129,129,5,25,20,20,0.7,0.9
2024-04-27T1500,2424A,115.0817,30.2006,黄石市,陈家湾,臭氧1小时,58,41,55,24,27,166,,152,152,6,15,13,14,0.6,0.8
2024-04-27T1500,2426A,114.8988,30.2019,黄石市,铁山,臭氧1小时,55,44,55,19,27,164,,149,149,1,13,19,19,0.7,0.8
2024-04-27T1500,2427A,115.0307,30.2092,黄石市,团城山,颗粒物(PM10),51,51,55,15,20,154,,138,138,6,16,11,12,0.7,0.8
2024-04-27T1500,3149A,115.0235,30.1578,黄石市,笔架山北路,臭氧1小时,54,49,64,16,20,163,,142,142,5,12,9,10,0.6,0.7
2024-04-27T1500,1392A,114.4183,23.0528,惠州市,河南岸金山湖子站,,30,30,26,16,17,61,,56,49,8,11,4,4,0.5,0.5
2024-04-27T1500,1393A,114.4053,23.0822,惠州市,下埔横江三路子站,,31,31,27,14,15,57,,60,52,11,12,5,5,0.6,0.7
2024-04-27T1500,1394A,114.4103,23.1142,惠州市,江北云山西路子站,,29,29,24,16,13,58,,59,55,7,11,6,7,0.7,0.7
2024-04-27T1500,1395A,114.4645,22.7833,惠州市,惠阳区承修路船湖子站,,25,23,26,12,14,78,,50,50,13,17,2,3,0.6,0.6
2024-04-27T1500,1396A,114.5317,22.7422,惠州市,大亚湾管委会子站,,,26,25,16,13,84,,60,60,,16,,4,0.9,0.8
2024-04-27T1500,3314A,114.4338,22.8134,惠州市,惠阳秋长,,26,22,31,11,15,81,,52,52,10,17,4,5,0.7,0.7
2024-04-27T1500,3452A,114.6517,22.775,惠州市,大亚湾霞涌,,35,21,24,12,12,110,,58,58,6,10,4,5,0.6,0.6
2024-04-27T1500,2240A,130.9762,45.3001,鸡西市,环保局,,40,40,59,22,36,84,,86,80,4,9,6,6,0.3,0.4
2024-04-27T1500,2243A,130.9429,45.3039,鸡西市,第一中学,,37,37,60,9,33,94,,93,89,5,11,8,8,0.2,0.3
2024-04-27T1500,3707A,131.0207,45.3073,鸡西市,欧美日汽修厂,,31,31,81,11,44,88,,79,79,4,13,3,5,0.3,0.5
2024-04-27T1500,3709A,130.9967,45.3106,鸡西市,市政设施管理处,,49,49,79,14,41,91,,83,83,11,16,6,7,0.2,0.3
2024-04-27T1500,2367A,114.9754,27.0803,吉安市,红声器材厂,,42,42,46,26,27,101,,67,67,16,24,10,12,0.7,0.6
2024-04-27T1500,2368A,114.9658,27.0999,吉安市,市森林工业局,,46,45,46,32,31,106,,70,70,12,24,13,14,0.5,0.7
2024-04-27T1500,2369A,114.99,27.1312,吉安市,市环境监测站,,39,37,44,27,26,111,,83,83,11,22,12,16,0.8,0.9
2024-04-27T1500,2370A,115.0093,27.0968,吉安市,青原区法院,,42,42,46,28,29,115,,73,73,15,26,14,16,0.5,0.6
2024-04-27T1500,1772A,126.54,43.8622,吉林市,哈达湾,,39,30,120,24,88,122,,103,103,10,30,6,11,0.5,0.8
2024-04-27T1500,1773A,126.5844,43.8358,吉林市,东局子,,49,49,103,31,74,119,,98,98,11,32,4,8,0.7,0.9
2024-04-27T1500,1774A,126.5052,43.8245,吉林市,电力学院,细颗粒物(PM2.5),52,43,116,36,99,127,,109,109,9,27,7,13,0.5,0.8
2024-04-27T1500,1775A,126.6133,43.8972,吉林市,江北,,42,42,123,27,95,118,,102,102,16,36,9,12,0.6,0.9
2024-04-27T1500,1776A,126.555,43.8306,吉林市,江南公园,,43,39,101,30,80,118,,101,101,12,32,4,9,0.5,0.8
2024-04-27T1500,2868A,126.4739,43.953,吉林市,九站,颗粒物(PM10),52,54,124,33,96,120,,99,99,11,33,9,22,0.6,1
2024-04-27T1500,1299A,116.9862,36.6114,济南市,科干所,臭氧1小时,90,58,67,22,27,192,,160,160,15,14,8,8,0.7,0.7
2024-04-27T1500,1300A,116.9376,36.665,济南市,农科所,臭氧1小时,101,49,67,22,26,202,,164,164,14,19,6,8,0.4,0.5
2024-04-27T1500,1301A,117.1265,36.6734,济南市,开发区,臭氧1小时,109,66,66,,39,217,,176,176,26,25,7,8,0.6,0.7
2024-04-27T1500,1303A,117.0624,36.6868,济南市,省种子仓库,臭氧1小时,114,78,80,22,26,227,,177,177,18,25,4,5,0.4,0.5
2024-04-27T1500,1304A,116.9489,36.6447,济南市,机床二厂,臭氧1小时,103,68,79,20,27,205,,171,171,10,18,6,7,0.6,0.7
2024-04-27T1500,1305A,117.0495,36.663,济南市,市监测站,臭氧1小时,120,73,63,24,16,240,,187,187,24,24,11,12,0.3,0.4
2024-04-27T1500,1306A,116.7675,36.5484,济南市,长清党校,臭氧1小时,70,44,65,17,34,176,,156,156,9,13,7,8,0.5,0.6
2024-04-27T1500,1616A,117.6795,36.229,济南市,技术学院,臭氧1小时,58,36,71,17,31,166,,135,135,10,23,10,12,0.6,0.8
2024-04-27T1500,1961A,117.532,36.6868,济南市,东山小学,臭氧1小时,125,110,76,46,30,250,,182,182,19,21,16,9,0.6,0.5
2024-04-27T1500,3059A,117.7161,36.2049,济南市,泰兴公司,,49,27,68,12,34,155,,131,131,9,28,11,13,0.7,0.9
2024-04-27T1500,3064A,117.6867,36.2171,济南市,莱芜战役纪念馆,,48,39,69,14,30,153,,129,129,9,24,9,10,0.7,0.9
2024-04-27T1500,3494A,117.1673,36.9782,济南市,济阳区政府,臭氧1小时,114,95,98,32,33,227,,164,164,17,45,13,11,0.7,0.7
2024-04-27T1500,3495A,117.1171,36.63,济南市,锦屏中学,臭氧1小时,112,83,58,27,24,223,,168,168,14,10,8,7,0.4,0.5
2024-04-27T1500,3682A,116.9814,36.6819,济南市,济南四建,臭氧1小时,113,78,69,24,28,225,,174,174,22,23,8,8,0.5,0.5
2024-04-27T1500,1653A,116.6251,35.4302,济宁市,火炬城,颗粒物(PM10),52,53,64,12,23,156,,122,122,7,12,9,10,0.7,0.8
2024-04-27T1500,1655A,116.5491,35.4042,济宁市,电化厂,颗粒物(PM10),60,69,75,9,19,146,,123,123,3,9,7,8,0.7,0.8
2024-04-27T1500,3500A,116.5814,35.3707,济宁市,北湖一中,,50,50,62,19,25,152,,118,118,5,13,7,8,0.5,0.6
2024-04-27T1500,3501A,116.8249,35.5593,济宁市,服务中心,颗粒物(PM10),55,60,66,21,23,156,,120,120,9,14,6,5,0.5,0.6
2024-04-27T1500,3678A,116.5907,35.4054,济宁市,市第七中学,颗粒物(PM10),58,65,67,12,22,161,,127,127,7,13,6,7,0.5,0.6
2024-04-27T1500,2255A,130.2751,46.8028,佳木斯市,佳纺,,32,32,34,15,20,77,,91,90,11,12,5,6,0.4,0.4
2024-04-27T1500,2256A,130.3995,46.8307,佳木斯市,发电厂,,32,32,34,12,20,80,,95,92,11,6,1,4,0.3,0.3
2024-04-27T1500,2257A,130.3258,46.7975,佳木斯市,环保局,,28,28,28,11,19,81,,89,89,8,11,4,4,0.2,0.3
2024-04-27T1500,2258A,130.3648,46.8032,佳木斯市,十一中,,26,25,26,13,16,82,,93,92,13,13,4,4,0.4,0.4
2024-04-27T1500,2259A,130.3794,46.7588,佳木斯市,四丰,,27,19,29,11,19,85,,100,100,13,11,1,1,0.4,0.4
2024-04-27T1500,1252A,120.7436,30.778,嘉兴市,清河小学,,36,36,37,17,18,105,,87,82,19,14,7,7,0.6,0.6
2024-04-27T1500,1253A,120.726,30.7478,嘉兴市,嘉兴学院,,34,31,38,22,25,106,,84,84,13,10,5,5,0.5,0.5
2024-04-27T1500,2872A,120.7846,30.7525,嘉兴市,南湖区残联,,35,31,38,22,26,110,,88,88,16,12,5,5,0.5,0.5
2024-04-27T1500,3407A,120.6916,30.7739,嘉兴市,秀洲住建,,36,36,32,20,19,112,,88,86,14,10,5,5,0.7,0.7
2024-04-27T1500,1945A,98.2908,39.7711,嘉峪关市,气象局,颗粒物(PM10),195,339,1010,88,154,89,,92,92,7,9,2,6,0.5,0.6
2024-04-27T1500,2884A,98.2672,39.7978,嘉峪关市,酒钢宾馆,颗粒物(PM10),190,329,1113,80,162,90,,93,92,12,9,10,11,1.1,0.5
2024-04-27T1500,3248A,98.2643,39.7724,嘉峪关市,雄关区,颗粒物(PM10),155,259,731,67,120,90,,91,90,5,8,5,6,0.5,0.4
2024-04-27T1500,1383A,113.1064,22.6058,江门市,北街,,31,31,41,14,26,71,,48,48,6,29,2,3,0.5,0.6
2024-04-27T1500,1384A,113.0731,22.5835,江门市,西区,,33,28,38,23,23,75,,53,53,6,21,7,6,0.4,0.6
2024-04-27T1500,1385A,113.0219,22.5311,江门市,圭峰西,,31,31,39,17,17,68,,49,49,2,16,3,3,0.5,0.6
2024-04-27T1500,1386A,113.0828,22.5947,江门市,东湖,,30,30,39,17,23,74,,51,51,8,22,6,6,0.4,0.6
2024-04-27T1500,3311A,113.1075,22.5647,江门市,江海富民,颗粒物(PM10),53,55,50,13,24,74,,53,53,7,19,6,7,0.6,0.5
2024-04-27T1500,3449A,113.05,22.4667,江门市,新会银湖,,42,42,41,22,16,65,,42,42,8,18,2,2,0.6,0.9
2024-04-27T1500,1828A,113.227,35.2125,焦作市,市环保局,臭氧1小时,102,73,75,40,37,204,,144,144,8,12,3,5,0.5,0.5
2024-04-27T1500,3169A,113.2725,35.2067,焦作市,太极体育中心,臭氧1小时,101,94,86,43,40,202,,148,148,,21,7,8,0.4,0.3
2024-04-27T1500,3335A,113.3137,35.2641,焦作市,马村街道办,臭氧1小时,75,74,84,38,43,180,,126,126,9,17,4,6,0.5,0.5
2024-04-27T1500,3336A,113.2465,35.2373,焦作市,焦作技师学院,臭氧1小时,73,84,81,41,38,178,,130,130,19,17,4,6,0.6,0.6
2024-04-27T1500,3477A,113.1656,35.2539,焦作市,中站许衡医院,臭氧1小时,83,51,70,38,35,186,,139,139,5,10,8,9,0.5,0.4
2024-04-27T1500,3981A,113.2449,35.1803,焦作市,原李万街道办,臭氧1小时,72,85,88,27,32,177,,126,126,13,18,7,9,0.6,0.6
2024-04-27T1500,1708A,116.3701,23.5345,揭阳市,新兴,,37,37,34,13,17,85,,70,70,20,29,5,10,0.7,0.8
2024-04-27T1500,1709A,116.3264,23.5443,揭阳市,西马,,38,38,35,8,14,88,,72,72,15,20,6,10,0.8,1
2024-04-27T1500,1710A,116.3611,23.5626,揭阳市,东兴,,50,50,42,12,19,84,,61,61,16,26,6,12,0.8,1
2024-04-27T1500,1711A,116.4151,23.5294,揭阳市,渔湖,,50,50,31,10,16,83,,73,73,15,21,5,9,0.5,0.5
2024-04-27T1500,3320A,116.403,23.5699,揭阳市,曲溪,,26,19,29,10,17,83,,68,68,22,27,6,12,0.6,0.8
2024-04-27T1500,1944A,102.1692,38.5167,金昌市,天庆家园,颗粒物(PM10),350,460,563,113,134,102,,89,89,5,12,6,11,0.4,0.5
2024-04-27T1500,3170A,102.1864,38.5253,金昌市,市委党校,颗粒物(PM10),500,738,650,200,209,105,,93,93,2,8,11,20,0.2,0.3
2024-04-27T1500,4022A,102.1647,38.5371,金昌市,金川区人防中心,颗粒物(PM10),433,533,684,115,147,107,,93,93,4,8,6,9,0.6,0.5
2024-04-27T1500,1262A,119.647,29.077,金华市,十五中,臭氧1小时,54,25,63,18,42,163,,100,100,11,32,4,5,0.6,0.8
2024-04-27T1500,3659A,119.656,29.1131,金华市,气象局,臭氧1小时,52,24,66,12,42,161,,102,102,12,39,4,4,0.3,0.6
2024-04-27T1500,1767A,121.1115,41.0879,锦州市,南山,,37,27,68,8,52,117,,104,104,12,26,10,13,0.4,0.6
2024-04-27T1500,1768A,121.0533,40.8434,锦州市,开发区,,50,50,90,6,48,118,,99,99,13,47,8,20,0.4,0.7
2024-04-27T1500,1769A,121.1836,41.1119,锦州市,百股街道,,37,33,62,9,37,118,,103,103,10,21,11,16,0.5,0.7
2024-04-27T1500,1770A,121.1178,41.1222,锦州市,天安街道,,34,21,72,7,47,106,,94,94,9,25,11,15,0.4,0.6
2024-04-27T1500,1771A,121.1303,41.1386,锦州市,北湖公园,,35,24,46,6,49,110,,97,97,9,22,8,12,0.4,0.7
2024-04-27T1500,2160A,112.85,35.5051,晋城市,自来水公司,臭氧1小时,69,49,72,24,27,175,,128,128,12,20,6,7,0.6,0.6
2024-04-27T1500,2161A,112.8318,35.4936,晋城市,白云商贸,臭氧1小时,72,90,82,24,24,177,,131,131,14,21,8,9,0.7,0.7
2024-04-27T1500,2162A,112.8508,35.4887,晋城市,市环保局,臭氧1小时,70,80,91,22,25,176,,128,128,14,26,9,9,0.6,0.6
2024-04-27T1500,2163A,112.8676,35.4897,晋城市,技术学院,臭氧1小时,67,71,71,29,26,173,,125,125,14,23,8,9,0.8,0.8
2024-04-27T1500,3620A,112.8271,35.4828,晋城市,泽州一中,臭氧1小时,70,54,71,17,23,176,,129,129,15,21,6,8,0.5,0.5
2024-04-27T1500,2171A,112.7532,37.6945,晋中市,锦纶小区,颗粒物(PM10),87,124,128,41,44,177,,139,139,13,21,11,9,0.6,0.5
2024-04-27T1500,2173A,112.7249,37.7067,晋中市,南都小区,颗粒物(PM10),80,110,129,36,40,178,,142,142,13,19,10,9,0.7,0.6
2024-04-27T1500,2174A,112.6991,37.6982,晋中市,榆次区政府,颗粒物(PM10),82,114,134,41,42,176,,139,139,14,20,12,11,0.5,0.5
2024-04-27T1500,2865A,112.7195,37.6828,晋中市,榆次三中,颗粒物(PM10),87,124,142,36,44,182,,141,141,12,19,10,10,0.6,0.6
2024-04-27T1500,2439A,112.2014,31.0481,荆门市,竹园小学,颗粒物(PM10),59,67,76,33,49,152,,124,124,9,20,8,11,0.7,0.7
2024-04-27T1500,2440A,112.1969,30.9891,荆门市,掇刀,细颗粒物(PM2.5),64,53,79,46,63,156,,130,130,11,27,8,9,0.7,0.7
2024-04-27T1500,2441A,112.2213,31.0386,荆门市,石化一小,颗粒物(PM10),60,69,84,34,55,154,,136,136,9,27,12,14,0.7,0.8
2024-04-27T1500,3012A,112.1849,31.0362,荆门市,西山林语,颗粒物(PM10),60,69,63,29,44,158,,131,131,9,13,10,19,0.7,0.8
2024-04-27T1500,3547A,112.1632,31.0138,荆门市,龙泉中学南校,颗粒物(PM10),58,66,65,38,40,157,,131,131,8,28,11,10,0.8,0.7
2024-04-27T1500,1844A,112.2494,30.3197,荆州市,市图书馆,臭氧1小时,58,52,54,33,35,166,,114,114,16,39,9,8,0.7,0.8
2024-04-27T1500,1845A,112.2008,30.3544,荆州市,市委党校,臭氧1小时,65,56,59,45,42,172,,122,122,14,33,8,8,0.6,0.7
2024-04-27T1500,3194A,112.2747,30.3122,荆州市,管委会,臭氧1小时,57,50,52,34,36,165,,119,119,10,33,9,10,0.8,1
2024-04-27T1500,3548A,112.1655,30.3364,荆州市,学苑路,臭氧1小时,75,,48,40,46,180,,123,123,8,26,7,6,0.5,0.5
2024-04-27T1500,2343A,117.2117,29.2933,景德镇市,老干部活动中心,,31,18,31,12,19,98,,69,69,5,14,4,5,0.2,0.3
2024-04-27T1500,2344A,117.1894,29.2789,景德镇市,兽医站,,,30,41,16,22,111,,78,78,,16,,8,0.3,0.5
2024-04-27T1500,2345A,117.1547,29.2617,景德镇市,台达陶瓷,,34,17,24,10,18,108,,80,80,21,23,24,17,0.9,0.6
2024-04-27T1500,2346A,117.2461,29.2956,景德镇市,陶研所,,31,17,27,6,13,98,,69,69,3,10,6,5,0.3,0.5
2024-04-27T1500,1803A,115.9872,29.6815,九江市,十里,,37,17,41,12,26,117,,101,101,7,25,9,14,0.6,0.8
2024-04-27T1500,1804A,115.9584,29.7046,九江市,茅山头,,36,32,41,9,28,114,,101,101,20,31,9,11,0.7,0.8
2024-04-27T1500,1805A,115.9877,29.7295,九江市,西园,,40,35,43,24,30,127,,82,82,15,33,20,21,0.7,0.8
2024-04-27T1500,1806A,116.0172,29.6547,九江市,五七二七厂,,34,22,27,19,22,106,,90,90,13,16,9,10,0.7,0.7
2024-04-27T1500,1808A,115.9114,29.6038,九江市,综合工业园,,45,,35,21,25,143,,95,95,19,29,11,11,0.9,0.9
2024-04-27T1500,1809A,116.0721,29.7535,九江市,石化总厂,,38,17,43,12,26,119,,94,94,8,22,14,16,0.7,0.8
2024-04-27T1500,1810A,115.9773,29.5698,九江市,庐山气象台,,33,19,25,17,19,105,,102,102,2,4,7,10,0.4,0.8
2024-04-27T1500,3190A,116.0254,29.6994,九江市,外国语学校,,36,15,38,8,24,114,,90,90,14,27,7,13,0.8,0.9
2024-04-27T1500,2658A,98.5061,39.7443,酒泉市,仓门街子站,颗粒物(PM10),198,346,1276,58,105,91,,86,86,3,6,7,8,0.2,0.2
2024-04-27T1500,2659A,98.4989,39.7256,酒泉市,油田生活基地,颗粒物(PM10),230,371,1286,54,97,90,,88,88,3,5,9,9,0.2,0.2
2024-04-27T1500,2698A,76.0072,39.4467,喀什地区,巡警大队,,,100,72,4,7,114,,94,94,8,29,2,3,,0.3
2024-04-27T1500,2699A,75.9755,39.4694,喀什地区,吾办,颗粒物(PM10),61,71,52,21,19,112,,100,100,9,12,1,2,0.3,0.3
2024-04-27T1500,4027A,75.9483,39.4689,喀什地区,老干局,颗粒物(PM10),62,73,62,13,10,112,,98,90,7,10,3,3,0.3,0.3
2024-04-27T1500,1824A,114.3389,34.7781,开封市,肿瘤医院,臭氧1小时,82,74,85,28,30,185,,156,156,9,17,5,5,0.6,0.6
2024-04-27T1500,1826A,114.2885,34.7965,开封市,世纪星幼儿园,臭氧1小时,78,59,81,17,37,182,,154,154,6,13,3,4,0.4,0.5
2024-04-27T1500,3147A,114.3438,34.8106,开封市,龙亭公园,臭氧1小时,82,63,78,23,34,185,,158,158,5,13,4,5,0.6,0.7
2024-04-27T1500,3210A,114.3644,34.7964,开封市,汴京公园,臭氧1小时,85,117,86,24,43,188,,157,157,7,15,4,4,0.6,0.6
2024-04-27T1500,3473A,114.2485,34.8306,开封市,技师学院,臭氧1小时,75,84,80,28,34,180,,159,159,8,13,4,6,0.5,0.5
2024-04-27T1500,3592A,114.4644,34.7556,开封市,祥符区生态环境局,臭氧1小时,77,64,88,30,41,181,,145,145,8,24,5,5,0.6,0.6
2024-04-27T1500,1951A,84.895,45.6094,克拉玛依市,长征新村,,29,17,64,1,7,91,,74,74,4,8,8,8,0.2,0.2
2024-04-27T1500,1952A,84.8988,45.5893,克拉玛依市,南林小区,,30,16,44,13,18,94,,73,73,4,9,7,7,0.5,0.5
2024-04-27T1500,1954A,84.905,44.3396,克拉玛依市,独山子区,颗粒物(PM10),51,52,43,11,10,100,,84,84,10,7,12,7,0.3,0.2
2024-04-27T1500,1955A,85.6979,46.098,克拉玛依市,乌尔禾区商贸楼,,30,12,38,1,6,95,,64,64,2,6,6,8,0.4,0.4
2024-04-27T1500,3612A,85.1045,45.6899,克拉玛依市,白碱滩区新站,,30,,57,13,15,94,,76,76,4,6,6,6,0.2,0.2
2024-04-27T1500,2697A,76.1454,39.7142,克孜勒苏柯尔克孜自治州,市人民政府,颗粒物(PM10),56,62,31,21,17,117,,107,103,4,6,6,10,0.3,0.3
2024-04-27T1500,3665A,76.1658,39.7157,克孜勒苏柯尔克孜自治州,克州文化中心,颗粒物(PM10),54,57,27,17,10,121,,115,108,1,3,7,11,0.3,0.3
2024-04-27T1500,1450A,102.8204,24.8886,昆明市,呈贡新区,臭氧1小时,52,44,48,26,25,161,,145,145,7,12,5,5,0.5,0.5
2024-04-27T1500,1452A,102.7252,25.0902,昆明市,龙泉镇,,49,22,46,18,21,156,,146,146,9,11,6,7,0.7,0.7
2024-04-27T1500,1453A,102.7266,25.0375,昆明市,东风东路,,49,48,53,26,24,156,,144,144,9,10,7,7,0.4,0.5
2024-04-27T1500,1454A,102.6742,25.0669,昆明市,金鼎山,臭氧1小时,52,43,50,17,23,161,,153,152,13,10,10,11,0.5,0.4
2024-04-27T1500,1455A,102.6644,25.0401,昆明市,碧鸡广场,,50,35,50,14,26,157,,145,145,10,11,9,9,0.4,0.4
2024-04-27T1500,3179A,102.7494,25.0119,昆明市,官渡区博物馆,臭氧1小时,55,47,54,24,24,164,,152,152,8,13,9,9,0.3,0.4
2024-04-27T1500,3375A,102.8017,24.8336,昆明市,青年创业园,,,42,53,28,25,167,,154,154,4,9,9,10,,0.5
2024-04-27T1500,3550A,102.7997,24.9786,昆明市,昆明学院,臭氧1小时,64,51,56,23,25,171,,154,154,8,10,9,10,0.4,0.5
2024-04-27T1500,3551A,102.5967,24.6736,昆明市,晋宁区生态环境分局,,50,,45,19,22,160,,148,148,4,5,2,3,0.4,0.4
2024-04-27T1500,3552A,102.6678,24.9856,昆明市,云天化总部,臭氧1小时,53,39,51,17,24,162,,149,149,5,9,8,10,0.5,0.5
2024-04-27T1500,1456A,91.1319,29.6514,拉萨市,八廓街,,48,27,18,12,10,151,,129,129,8,10,8,10,0.3,0.3
2024-04-27T1500,1457A,91.1221,29.6747,拉萨市,市环保局,,46,,19,9,10,146,,125,125,12,14,6,8,0.3,0.3
2024-04-27T1500,1458A,91.0874,29.6475,拉萨市,区监测站,,47,11,16,8,10,148,,125,125,10,12,5,7,0.2,0.2
2024-04-27T1500,1459A,91.1774,29.6541,拉萨市,西藏大学,,48,17,18,7,9,151,,127,127,5,6,3,7,0.2,0.2
2024-04-27T1500,1460A,90.9798,29.6588,拉萨市,区辐射站,,46,17,24,8,11,147,,111,111,4,16,6,7,0.3,0.3
2024-04-27T1500,1461A,91.0834,29.6292,拉萨市,拉萨火车站,,46,13,17,10,10,146,,123,121,8,9,6,8,0.4,0.4
2024-04-27T1500,2520A,109.2203,23.7256,来宾市,来宾技工学校,,,,44,24,29,,,91,91,,11,5,6,0.6,0.8
2024-04-27T1500,3535A,109.1781,23.7297,来宾市,兴宾区政府,,44,30,39,20,28,139,,99,99,8,11,6,7,0.6,0.7
2024-04-27T1500,4002A,109.2416,23.7461,来宾市,中南小学,,45,33,43,19,26,143,,102,102,7,13,4,4,0.6,0.8
2024-04-27T1500,1476A,103.631,36.1031,兰州市,兰炼宾馆,细颗粒物(PM2.5),67,61,77,48,47,150,,129,129,12,29,8,12,0.3,0.4
2024-04-27T1500,1478A,103.8412,36.0726,兰州市,生物制品所,颗粒物(PM10),63,75,103,38,45,145,,88,88,16,36,12,11,0.3,0.4
2024-04-27T1500,1479A,103.831,36.0464,兰州市,铁路设计院,,,82,82,29,33,147,,93,93,,40,,10,0.4,0.4
2024-04-27T1500,3186A,103.7158,36.1058,兰州市,教育港,颗粒物(PM10),68,86,96,31,38,155,,111,111,11,23,9,10,0.3,0.4
2024-04-27T1500,3241A,103.7439,36.0842,兰州市,百合公园,颗粒物(PM10),54,58,77,25,36,145,,96,96,19,28,8,7,0.3,0.2
2024-04-27T1500,3242A,103.9611,35.998,兰州市,和平,颗粒物(PM10),62,73,105,32,39,143,,110,110,9,16,9,8,0.4,0.4
2024-04-27T1500,3245A,103.6633,36.533,兰州新区,新区管委会,颗粒物(PM10),67,83,86,34,38,143,,105,105,7,14,12,12,0.4,0.4
2024-04-27T1500,3246A,103.6975,36.4789,兰州新区,舟曲中学,颗粒物(PM10),62,73,110,26,34,138,,106,106,8,15,12,13,0.4,0.4
2024-04-27T1500,1067A,116.6708,39.5111,廊坊市,药材公司,,,,141,,70,111,,106,106,15,25,,6,0.7,0.6
2024-04-27T1500,1068A,116.7214,39.5589,廊坊市,开发区,颗粒物(PM10),171,292,153,52,68,112,,112,112,21,27,5,6,0.6,0.9
2024-04-27T1500,1070A,116.7244,39.5269,廊坊市,北华航天学院,颗粒物(PM10),88,126,142,56,79,114,,111,111,17,24,4,6,0.6,1
2024-04-27T1500,2919A,116.7022,39.5453,廊坊市,河北工业大学,细颗粒物(PM2.5),87,118,134,64,73,112,,111,111,22,28,7,8,0.5,0.9
2024-04-27T1500,2535A,103.7723,29.5462,乐山市,花湖湾,,49,41,82,34,71,146,,90,90,5,18,3,5,0.6,0.8
2024-04-27T1500,2536A,103.7627,29.5844,乐山市,牛耳桥,细颗粒物(PM2.5),54,54,96,38,83,160,,94,94,11,33,5,7,0.7,1
2024-04-27T1500,2537A,103.7508,29.6006,乐山市,市第三水厂,臭氧1小时,60,62,91,39,72,168,,101,101,11,31,4,6,0.6,0.8
2024-04-27T1500,2538A,103.7571,29.5664,乐山市,市监测站,细颗粒物(PM2.5),85,,83,63,72,160,,101,101,7,25,6,8,0.6,0.9
2024-04-27T1500,3361A,103.7311,29.5628,乐山市,理工大学,细颗粒物(PM2.5),63,53,71,45,67,166,,100,100,5,22,8,8,0.5,0.7
2024-04-27T1500,2599A,100.2497,26.8802,丽江市,丽江古城,颗粒物(PM10),54,57,48,20,18,141,,138,136,8,10,6,7,0.7,0.7
2024-04-27T1500,2600A,100.2203,26.8906,丽江市,市中心,,44,37,32,19,16,140,,137,133,9,8,8,7,0.7,0.7
2024-04-27T1500,1267A,119.914,28.4514,丽水市,监测站大楼,,34,26,32,14,22,106,,64,64,6,27,2,2,0.4,0.5
2024-04-27T1500,1268A,119.93,28.4586,丽水市,莲都小学,,34,18,33,9,18,107,,68,68,6,24,3,3,0.4,0.5
2024-04-27T1500,1269A,119.879,28.4231,丽水市,余庄前,,34,13,38,8,22,107,,60,60,7,18,3,3,0.6,0.7
2024-04-27T1500,1173A,119.176,34.5885,连云港市,市环境监测站,,35,24,26,9,12,112,,105,103,7,9,5,5,0.2,0.2
2024-04-27T1500,3007A,119.178,34.844,连云港市,新城一中,,42,31,45,8,15,133,,119,119,10,24,6,6,0.6,0.7
2024-04-27T1500,3008A,119.3608,34.7519,连云港市,胡沟管理处,,,,30,,13,117,,117,117,9,19,5,6,,0.4
2024-04-27T1500,3009A,119.1478,34.5911,连云港市,矿山设计院,,37,17,27,12,12,117,,107,104,8,10,7,7,0.6,0.6
2024-04-27T1500,3434A,119.2413,34.6539,连云港市,工贸学校,,41,23,24,9,10,131,,117,115,6,3,8,8,0.5,0.6
2024-04-27T1500,3664A,119.4172,34.7341,连云港市,连云街道,,36,16,32,7,13,113,,103,103,13,23,3,4,0.5,0.5
2024-04-27T1500,2571A,102.3431,27.8099,凉山彝族自治州,青龙寺,臭氧1小时,54,26,40,5,4,163,,130,130,4,5,9,7,0.6,0.6
2024-04-27T1500,2572A,102.2721,27.8415,凉山彝族自治州,邛海宾馆,臭氧1小时,53,28,26,14,17,162,,124,124,8,9,11,10,0.7,0.7
2024-04-27T1500,2573A,102.2625,27.898,凉山彝族自治州,西昌市政府,,47,27,29,15,16,150,,119,119,6,9,5,7,0.5,0.5
2024-04-27T1500,2574A,102.2685,27.8851,凉山彝族自治州,凉山州政府,,46,22,28,11,15,147,,118,118,6,9,10,11,0.4,0.5
2024-04-27T1500,2575A,102.237,27.8914,凉山彝族自治州,长安,臭氧1小时,55,24,30,12,15,164,,120,120,8,13,8,11,0.5,0.7
2024-04-27T1500,2212A,123.2,41.1953,辽阳市,宏伟区,细颗粒物(PM2.5),78,90,64,57,34,154,,113,101,18,19,13,13,0.8,0.8
2024-04-27T1500,2213A,123.1683,41.2495,辽阳市,新华园,"颗粒物(PM10),细颗粒物(PM2.5)",67,83,72,48,49,149,,106,100,18,22,14,15,0.9,0.9
2024-04-27T1500,2214A,123.2354,41.2639,辽阳市,滨河路,细颗粒物(PM2.5),82,98,69,60,46,153,,105,105,19,23,9,10,0.5,0.6
2024-04-27T1500,2215A,123.149,41.2991,辽阳市,铁西工业园,细颗粒物(PM2.5),68,84,88,49,46,155,,104,104,17,23,15,15,0.7,0.9
2024-04-27T1500,2227A,125.1358,42.8845,辽源市,环保局,,38,22,45,18,36,121,,113,113,10,18,7,7,0.4,0.7
2024-04-27T1500,3239A,125.0764,42.9078,辽源市,银鹰制药,,36,26,52,14,40,114,,111,111,11,19,6,6,0.6,0.9
2024-04-27T1500,1625A,115.9848,36.4372,聊城市,区政府,臭氧1小时,78,63,82,23,30,182,,154,154,9,16,6,6,0.7,0.7
2024-04-27T1500,2878A,116.0072,36.4343,聊城市,聊大东校,臭氧1小时,87,57,80,36,36,189,,159,159,15,18,8,7,0.8,0.8
2024-04-27T1500,3200A,115.9819,36.4978,聊城市,监控中心,臭氧1小时,90,85,92,22,23,192,,162,162,4,13,8,8,0.5,0.5
2024-04-27T1500,3513A,116.0445,36.4361,聊城市,九州社区,臭氧1小时,90,70,90,25,31,192,,158,158,9,16,6,6,0.7,0.7
2024-04-27T1500,4018A,116.0567,36.4608,聊城市,星美广场,臭氧1小时,85,68,88,27,34,188,,156,156,5,14,4,5,0.7,0.7
2024-04-27T1500,2632A,94.3681,29.6376,林芝市,林芝监测站,,41,,6,1,6,130,,99,99,1,3,6,6,0.3,0.5
2024-04-27T1500,2633A,94.3616,29.6616,林芝市,林芝人民医院,,44,12,10,5,7,140,,100,100,4,5,6,6,0.3,0.3
2024-04-27T1500,2603A,100.0781,23.8982,临沧市,市环保局,细颗粒物(PM2.5),55,48,53,39,44,158,,126,126,8,12,7,8,0.4,0.5
2024-04-27T1500,2604A,100.0894,23.8822,临沧市,市气象局,颗粒物(PM10),56,62,70,36,42,152,,122,122,12,15,6,7,0.6,0.6
2024-04-27T1500,1733A,111.5531,36.0783,临汾市,临钢医院,臭氧1小时,83,79,104,34,30,186,,135,135,7,27,9,9,0.8,0.7
2024-04-27T1500,1734A,111.5028,36.0714,临汾市,技工学校,臭氧1小时,90,69,93,38,38,192,,150,150,9,25,12,11,0.8,0.8
2024-04-27T1500,1736A,111.5018,36.0855,临汾市,市委,臭氧1小时,92,93,103,27,34,193,,150,150,7,21,10,9,0.8,0.8
2024-04-27T1500,3018A,111.505,36.1014,临汾市,唐尧大酒店,颗粒物(PM10),78,105,111,31,32,181,,139,139,9,24,12,11,0.8,0.7
2024-04-27T1500,3668A,111.5036,36.0414,临汾市,城南,"颗粒物(PM10),臭氧1小时",88,125,90,33,41,190,,149,149,9,23,10,9,0.6,0.6
2024-04-27T1500,2667A,103.2069,35.5993,临夏回族自治州,环保局,颗粒物(PM10),63,76,69,18,27,127,,86,86,2,9,4,4,0.2,0.3
2024-04-27T1500,2668A,103.2417,35.6057,临夏回族自治州,建设大厦,颗粒物(PM10),67,84,76,25,29,127,,88,88,1,8,10,9,0.2,0.3
2024-04-27T1500,1618A,118.3429,35.0532,临沂市,沂河小区,,44,44,58,18,30,123,,102,102,10,18,8,8,0.2,0.4
2024-04-27T1500,1619A,118.295,35.0583,临沂市,鲁南制药厂,,,29,53,15,24,,,107,107,,16,6,7,0.3,0.4
2024-04-27T1500,1620A,118.2794,34.9976,临沂市,新光毛纺厂,,39,36,47,12,24,122,,95,95,8,17,4,5,0.4,0.5
2024-04-27T1500,1621A,118.3956,35.0888,临沂市,河东保险公司,,39,27,44,9,24,124,,100,100,8,18,5,5,0.0,0.3
2024-04-27T1500,3370A,118.3564,35.0215,临沂市,十里堡居委,,39,24,48,5,25,122,,98,98,8,16,8,9,0.4,0.7
2024-04-27T1500,3496A,118.3604,35.1084,临沂市,南坊新区,,42,39,55,14,24,134,,108,108,13,19,8,7,0.3,0.5
2024-04-27T1500,3860A,118.3920,35.0300,临沂市,皇山花园小区,,39,34,53,24,34,122,,101,101,6,21,10,9,0.4,0.6
2024-04-27T1500,1870A,109.4856,24.3895,柳州市,柳东小学,,33,17,25,13,17,105,,121,121,10,9,6,7,0.4,0.5
2024-04-27T1500,1871A,109.4157,24.3277,柳州市,环保监测站,,34,24,30,18,19,106,,125,125,12,9,9,8,0.6,0.6
2024-04-27T1500,1872A,109.389,24.341,柳州市,河西水厂,,32,31,32,16,20,100,,123,123,13,9,15,8,0.9,0.8
2024-04-27T1500,1873A,109.4311,24.2921,柳州市,市四中,,37,23,32,17,23,118,,129,129,10,12,8,8,0.5,0.6
2024-04-27T1500,1874A,109.4006,24.3631,柳州市,市九中,,49,49,37,21,22,96,,124,124,21,12,12,8,0.8,0.6
2024-04-27T1500,1875A,109.4958,24.3134,柳州市,古亭山,,38,16,30,14,20,121,,125,125,5,11,5,8,0.4,0.5
2024-04-27T1500,3402A,109.5422,24.3996,柳州市,市二中,,36,12,27,10,18,113,,122,122,10,13,7,8,0.4,0.5
2024-04-27T1500,2307A,116.5079,31.737,六安市,监测大楼,臭氧1小时,99,52,65,37,47,199,,171,171,13,15,7,6,0.6,0.6
2024-04-27T1500,2308A,116.4738,31.7643,六安市,皖西学院,臭氧1小时,101,71,72,23,41,201,,175,175,12,13,5,5,0.7,0.7
2024-04-27T1500,2309A,116.4996,31.7905,六安市,朝阳厂,臭氧1小时,94,50,66,33,42,195,,167,167,8,13,7,7,0.4,0.4
2024-04-27T1500,2310A,116.5567,31.7886,六安市,开发区,臭氧1小时,99,62,71,38,38,199,,168,168,12,19,8,11,0.7,0.7
2024-04-27T1500,2577A,104.83,26.5917,六盘水市,黄土坡,,45,43,48,21,31,143,,114,114,15,13,8,8,0.7,0.6
2024-04-27T1500,2578A,104.89,26.5939,六盘水市,水钢,颗粒物(PM10),51,51,54,27,35,139,,106,106,6,15,9,11,0.4,0.6
2024-04-27T1500,2579A,104.8475,26.5894,六盘水市,民中,,45,45,44,27,33,141,,108,108,16,15,10,9,0.6,0.6
2024-04-27T1500,2580A,104.9544,26.5506,六盘水市,双水,,46,44,46,28,30,146,,113,113,9,11,7,8,0.0,0.2
2024-04-27T1500,2336A,117.0217,25.1033,龙岩市,龙岩市监测站,,32,23,23,21,14,100,,68,68,8,17,4,6,0.5,0.6
2024-04-27T1500,2337A,117.0258,25.0661,龙岩市,闽西职业技术学院,,26,26,23,13,14,81,,64,64,6,13,5,6,0.5,0.5
2024-04-27T1500,2338A,117.0196,25.0306,龙岩市,龙岩学院,,34,34,25,20,13,83,,52,52,7,11,3,4,0.6,0.6
2024-04-27T1500,2885A,104.9339,33.3826,陇南市,滨江中学,,43,39,38,8,17,137,,114,114,1,2,3,4,0.4,0.4
2024-04-27T1500,3247A,104.955,33.371,陇南市,市总工会,,38,22,32,7,6,119,,101,101,6,6,4,4,0.5,0.5
2024-04-27T1500,2487A,111.9589,27.8901,娄底市,电视发射台,,34,34,34,19,20,91,,74,74,4,5,6,5,1.0,1
2024-04-27T1500,2488A,111.9975,27.725,娄底市,市监测站,,38,34,49,26,30,106,,74,74,3,16,8,10,0.8,0.9
2024-04-27T1500,2489A,112.0194,27.7314,娄底市,市委党校,,38,34,40,26,31,100,,77,77,6,14,7,7,0.6,0.7
2024-04-27T1500,2490A,111.9561,27.7569,娄底市,涟钢,,30,29,45,18,29,94,,67,67,13,23,16,13,0.6,0.8
2024-04-27T1500,2491A,111.9892,27.7044,娄底市,市政府,,35,25,44,16,30,112,,74,74,5,15,6,7,0.6,0.7
2024-04-27T1500,1893A,105.4324,28.9634,泸州市,九狮山,臭氧1小时,68,27,42,11,31,174,,107,107,12,14,7,5,0.2,0.3
2024-04-27T1500,1894A,105.4427,28.9063,泸州市,小市上码头,,49,,42,17,30,156,,108,108,8,17,6,6,0.3,0.4
2024-04-27T1500,1896A,105.4379,28.8833,泸州市,市环监站,,45,17,39,14,28,143,,107,107,5,17,6,6,0.3,0.4
2024-04-27T1500,3490A,105.3617,28.7703,泸州市,纳溪区环保局,,50,25,41,19,22,158,,112,112,5,16,11,7,0.3,0.4
2024-04-27T1500,2183A,111.1406,37.5211,吕梁市,环保局,颗粒物(PM10),62,74,122,28,46,108,,101,101,28,37,5,4,0.4,0.3
2024-04-27T1500,2185A,111.1297,37.5136,吕梁市,自来水公司,颗粒物(PM10),73,95,123,46,38,118,,95,95,20,35,3,5,0.3,0.4
2024-04-27T1500,2867A,111.1283,37.51,吕梁市,马茂庄小学,颗粒物(PM10),62,74,133,20,37,117,,99,99,26,40,2,4,0.4,0.3
2024-04-27T1500,1812A,112.3931,34.6516,洛阳市,市委党校,颗粒物(PM10),53,55,67,32,38,159,,125,125,4,19,1,4,0.5,0.5
2024-04-27T1500,1814A,112.4657,34.6871,洛阳市,豫西宾馆,颗粒物(PM10),54,58,83,30,36,144,,129,129,8,21,3,7,0.4,0.5
2024-04-27T1500,1815A,112.494,34.6886,洛阳市,河南林校,颗粒物(PM10),54,58,66,25,36,144,,123,123,8,24,5,8,0.3,0.4
2024-04-27T1500,1816A,112.3844,34.623,洛阳市,开发区管委会,臭氧1小时,58,64,69,33,36,166,,129,129,5,16,3,6,0.3,0.4
2024-04-27T1500,1817A,112.4267,34.6258,洛阳市,市委新办公区,颗粒物(PM10),53,55,65,35,36,156,,129,129,5,13,4,7,0.3,0.4
2024-04-27T1500,3340A,112.6005,34.6326,洛阳市,伊滨,,50,50,72,30,38,150,,120,120,5,21,5,7,0.4,0.5
2024-04-27T1500,3341A,112.4951,34.6332,洛阳市,中移产业园,颗粒物(PM10),51,52,68,22,36,147,,125,125,4,19,3,7,0.5,0.6
2024-04-27T1500,3593A,112.5736,34.8993,洛阳市,吉利监测站,臭氧1小时,85,93,79,36,34,188,,126,126,11,29,5,3,0.2,0.3
2024-04-27T1500,3635A,112.3677,34.662,洛阳市,河科大西苑校区,颗粒物(PM10),56,61,76,30,33,157,,122,122,2,20,2,6,0.4,0
2024-04-27T1500,3636A,112.4388,34.6781,洛阳市,英才小学,颗粒物(PM10),53,56,77,26,29,144,,125,125,4,17,4,8,0.5,0.6
2024-04-27T1500,2399A,114.051,33.5699,漯河市,三五一五工厂,臭氧1小时,63,71,78,29,33,170,,140,140,6,20,4,5,0.5,0.5
2024-04-27T1500,2400A,114.0055,33.5698,漯河市,漯河大学,臭氧1小时,67,67,77,36,40,173,,151,151,3,12,7,8,0.4,0.4
2024-04-27T1500,2401A,114.0138,33.5828,漯河市,市水利局,臭氧1小时,59,61,75,31,37,167,,146,146,5,10,6,7,0.4,0.4
2024-04-27T1500,2402A,114.0261,33.5698,漯河市,市广电局,臭氧1小时,62,66,80,33,37,169,,145,145,8,15,4,5,0.7,0.6
2024-04-27T1500,3478A,113.9749,33.5664,漯河市,市图书馆,臭氧1小时,57,60,76,27,37,165,,144,144,4,12,8,10,0.6,0.6
2024-04-27T1500,3479A,114.0967,33.5906,漯河市,召陵区卫健委,臭氧1小时,70,64,78,32,40,176,,144,144,6,14,4,5,0.6,0.6
2024-04-27T1500,1798A,118.5092,31.6837,马鞍山市,湖东路四小,臭氧1小时,70,59,65,16,47,176,,128,128,18,22,6,5,0.7,0.7
2024-04-27T1500,1799A,118.5024,31.6449,马鞍山市,开发区,臭氧1小时,73,48,72,23,44,178,,125,125,19,30,8,8,0.8,0.8
2024-04-27T1500,1800A,118.5228,31.7231,马鞍山市,慈湖,臭氧1小时,62,59,86,23,52,169,,122,122,17,25,4,4,0.8,0.7
2024-04-27T1500,1802A,118.6245,31.7241,马鞍山市,濮塘,臭氧1小时,58,46,65,28,36,166,,121,121,11,16,3,3,1.0,1
2024-04-27T1500,3633A,118.4918,31.6809,马鞍山市,雨山,臭氧1小时,70,59,80,20,40,176,,129,129,15,21,7,7,0.7,0.7
2024-04-27T1500,1686A,111.0286,21.4688,茂名市,电白南海,,39,39,39,19,21,68,,54,54,6,9,7,7,0.6,0.6
2024-04-27T1500,1687A,110.9294,21.6533,茂名市,茂石化七小,,44,44,46,22,25,106,,75,75,8,12,10,11,0.7,0.8
2024-04-27T1500,1688A,110.9107,21.6687,茂名市,健康路,,41,41,43,17,18,103,,74,74,7,10,9,9,0.4,0.5
2024-04-27T1500,1689A,110.8592,21.6828,茂名市,高岭,,44,44,47,29,27,101,,73,73,6,12,6,7,0.8,0.9
2024-04-27T1500,3450A,111.01,21.5165,茂名市,电白水东,颗粒物(PM10),52,53,34,19,17,66,,53,53,14,14,4,4,0.6,0.7
2024-04-27T1500,2539A,104.0308,30.0478,眉山市,黑龙滩水库,臭氧1小时,75,45,61,38,43,180,,115,115,6,11,5,6,0.6,0.7
2024-04-27T1500,2540A,103.8416,30.0874,眉山市,气象局,臭氧1小时,75,66,79,24,52,180,,107,107,9,36,7,9,0.3,0.5
2024-04-27T1500,3137A,103.8578,30.0744,眉山市,市委党校,臭氧1小时,74,58,77,39,52,179,,105,105,12,36,8,9,0.4,0.6
2024-04-27T1500,3148A,103.8291,30.0564,眉山市,区人社局,臭氧1小时,77,52,72,39,60,181,,107,107,18,41,11,12,0.4,0.6
2024-04-27T1500,1690A,116.1231,24.3284,梅州市,梅江月梅,,35,35,21,18,14,64,,69,69,3,5,3,3,0.6,0.6
2024-04-27T1500,1691A,116.0797,24.2719,梅州市,梅县新城,,26,26,23,16,16,70,,73,73,13,11,3,3,0.5,0.5
2024-04-27T1500,1692A,116.1248,24.2654,梅州市,环境监控中心,,27,27,26,17,18,67,,70,70,11,18,3,3,0.6,0.6
2024-04-27T1500,3315A,116.1233,24.2991,梅州市,梅龙,,23,19,19,16,16,54,,66,66,10,4,6,7,0.8,0.7
2024-04-27T1500,1878A,104.7778,31.4741,绵阳市,富乐山,臭氧1小时,64,41,56,28,36,171,,112,112,9,18,9,8,0.6,0.7
2024-04-27T1500,1879A,104.7563,31.4535,绵阳市,市人大,,50,40,62,23,38,159,,100,100,14,39,8,10,0.5,0.6
2024-04-27T1500,1880A,104.6697,31.4668,绵阳市,高新区自来水公司,臭氧1小时,60,67,85,24,43,168,,111,111,10,39,8,9,0.3,0.5
2024-04-27T1500,1881A,104.7287,31.5075,绵阳市,三水厂,臭氧1小时,65,45,73,30,48,172,,105,105,10,43,6,7,0.6,0.8
2024-04-27T1500,3491A,104.69,31.5322,绵阳市,西科大附属小学,臭氧1小时,68,40,66,25,41,174,,113,113,10,39,7,8,0.5,0.6
2024-04-27T1500,3492A,104.5648,31.5343,绵阳市,安州区旅游局,,50,35,81,35,58,153,,102,102,6,22,5,6,0.5,0.7
2024-04-27T1500,1784A,129.61,44.561,牡丹江市,环保大楼,,38,28,49,26,41,107,,106,106,10,16,4,6,0.3,0.4
2024-04-27T1500,1785A,129.6115,44.5782,牡丹江市,文化广场,,41,41,57,24,46,104,,99,99,10,18,6,8,0.3,0.4
2024-04-27T1500,1786A,129.5904,44.5963,牡丹江市,第一医院,,39,31,47,27,39,106,,100,100,7,18,4,6,0.2,0.4
2024-04-27T1500,1787A,129.6364,44.6075,牡丹江市,机车工厂,,34,33,64,20,35,108,,103,103,5,14,5,6,0.2,0.4
2024-04-27T1500,1788A,129.6386,44.5462,牡丹江市,第一中学,,46,,53,32,33,110,,109,109,10,17,4,6,0.2,0.3
2024-04-27T1500,2531A,105.0703,29.61,内江市,市监测站,细颗粒物(PM2.5),70,57,73,51,67,170,,110,110,18,24,8,9,0.3,0.6
2024-04-27T1500,2532A,105.0717,29.5947,内江市,东兴区政府,臭氧1小时,79,59,67,39,52,183,,118,118,12,18,10,10,0.5,0.6
2024-04-27T1500,2533A,105.0653,29.5817,内江市,内江二中,细颗粒物(PM2.5),60,49,58,43,51,164,,108,108,10,19,6,6,0.5,0.6
2024-04-27T1500,2534A,105.0406,29.5822,内江市,内江日报社,臭氧1小时,80,45,58,40,54,184,,117,117,13,27,10,10,0.5,0.7
2024-04-27T1500,2628A,92.0657,31.4846,那曲市,那曲监测站,,43,32,41,9,21,137,,105,105,6,9,5,5,0.5,0.7
2024-04-27T1500,3128A,92.0506,31.4797,那曲市,那曲会议中心,颗粒物(PM10),61,72,52,13,24,133,,113,113,7,10,2,4,0.5,0.7
2024-04-27T1500,1290A,115.8931,28.6843,南昌市,省外办,,34,34,54,17,31,104,,89,89,10,34,8,8,0.5,0.7
2024-04-27T1500,1291A,115.8886,28.7003,南昌市,省林业公司,,35,29,60,17,32,112,,88,88,17,38,5,6,0.5,0.7
2024-04-27T1500,1292A,115.8126,28.7442,南昌市,林科所,,43,29,36,17,24,135,,112,112,8,28,8,8,0.4,0.5
2024-04-27T1500,1294A,115.8518,28.687,南昌市,建工学校,,39,25,53,20,33,124,,102,102,3,35,5,7,0.7,0.9
2024-04-27T1500,1295A,115.8921,28.6424,南昌市,象湖,,37,27,54,18,32,117,,101,101,4,32,6,6,0.8,1
2024-04-27T1500,1296A,115.7423,28.7996,南昌市,武术学校,,48,,17,33,23,131,,100,100,5,5,10,8,0.5,0.5
2024-04-27T1500,1298A,115.9314,28.6842,南昌市,省站,,36,26,56,15,32,115,,98,98,2,27,8,10,0.7,0.9
2024-04-27T1500,3046A,115.9084,28.6062,南昌市,机电学校,,34,23,57,12,29,107,,94,94,1,26,8,9,0.6,0.9
2024-04-27T1500,3690A,115.9721,28.7031,南昌市,外国语学校,,37,24,44,14,30,117,,98,98,1,22,5,5,0.5,0.7
2024-04-27T1500,1905A,106.056,30.8064,南充市,西山风景区,,45,26,40,26,31,144,,96,96,8,10,4,4,0.4,0.4
2024-04-27T1500,1906A,106.0789,30.8023,南充市,南充市委,颗粒物(PM10),51,51,55,34,35,151,,87,87,13,25,9,7,0.2,0.3
2024-04-27T1500,1907A,106.1031,30.8217,南充市,南充炼油厂,臭氧1小时,68,50,66,26,40,174,,99,99,10,30,7,7,0.2,0.3
2024-04-27T1500,1908A,106.1064,30.7856,南充市,高坪区监测站,,49,29,59,27,37,156,,94,94,13,34,7,6,0.1,0.3
2024-04-27T1500,1909A,106.0642,30.7636,南充市,嘉陵区环保局,,44,36,60,24,35,140,,86,86,19,38,7,5,0.2,0.3
2024-04-27T1500,1910A,106.1087,30.8388,南充市,市环境监测站,臭氧1小时,68,54,62,22,37,174,,95,95,15,23,6,7,0.0,0.2
2024-04-27T1500,1151A,118.8086,32.1065,南京市,迈皋桥,臭氧1小时,74,43,59,27,40,179,,123,123,7,23,4,5,0.7,0.8
2024-04-27T1500,1152A,118.7538,32.0551,南京市,草场门,臭氧1小时,70,53,59,29,42,176,,122,122,13,23,2,3,0.8,0.7
2024-04-27T1500,1153A,118.7794,32.0745,南京市,山西路,臭氧1小时,73,48,72,24,33,178,,122,122,10,24,3,4,0.6,0.5
2024-04-27T1500,1154A,118.7752,32.0023,南京市,中华门,臭氧1小时,55,48,70,29,39,164,,115,115,14,21,7,7,0.9,0.7
2024-04-27T1500,1155A,118.8109,32.0309,南京市,瑞金路,臭氧1小时,65,52,74,31,39,172,,119,119,3,11,6,7,0.6,0.5
2024-04-27T1500,1156A,118.7997,32.0754,南京市,玄武湖,臭氧1小时,57,34,60,29,44,165,,115,115,6,23,7,8,0.6,0.5
2024-04-27T1500,1157A,118.6414,32.0931,南京市,浦口,,50,38,55,24,31,160,,112,112,16,29,5,6,0.7,0.7
2024-04-27T1500,1158A,118.7356,31.9996,南京市,奥体中心,臭氧1小时,70,51,78,34,44,176,,120,120,13,22,6,7,0.6,0.6
2024-04-27T1500,1159A,118.9125,32.1028,南京市,仙林大学城,臭氧1小时,73,39,59,22,37,178,,125,125,16,25,8,11,0.6,0.7
2024-04-27T1500,3422A,118.8436,31.9198,南京市,江宁彩虹桥,,,48,51,36,43,182,,125,125,,21,3,4,0.6,0.6
2024-04-27T1500,3423A,119.0138,31.6494,南京市,溧水永阳,,50,41,60,20,29,158,,120,120,16,23,4,4,0.3,0.4
2024-04-27T1500,3424A,118.879,31.3302,南京市,高淳老职中,细颗粒物(PM2.5),59,45,46,42,31,156,,121,121,15,22,4,6,0.4,0.4
2024-04-27T1500,3427A,118.8554,32.3578,南京市,六合雄州,臭氧1小时,64,31,51,17,37,171,,110,110,16,21,5,4,0.6,0.7
2024-04-27T1500,1401A,108.3103,22.7881,南宁市,二十一中,颗粒物(PM10),61,71,66,38,42,139,,113,113,8,10,4,4,0.8,0.9
2024-04-27T1500,1402A,108.3141,22.8528,南宁市,北湖,颗粒物(PM10),58,65,71,38,45,139,,115,115,9,10,4,4,0.9,1
2024-04-27T1500,1403A,108.3206,22.8225,南宁市,市监测站,颗粒物(PM10),62,73,66,32,43,130,,110,110,10,11,5,5,0.9,0.9
2024-04-27T1500,1404A,108.3829,22.8037,南宁市,大自然花园,"颗粒物(PM10),细颗粒物(PM2.5)",53,56,63,37,44,129,,107,107,7,9,5,4,0.8,0.8
2024-04-27T1500,1405A,108.4394,22.7904,南宁市,仙葫,颗粒物(PM10),55,60,61,34,41,115,,97,97,8,10,8,7,1.1,1.2
2024-04-27T1500,1406A,108.2397,22.8467,南宁市,区农职院,臭氧1小时,62,67,74,39,46,169,,127,127,11,15,6,6,1.0,0.9
2024-04-27T1500,1407A,108.3275,22.735,南宁市,英华嘉园,颗粒物(PM10),55,60,66,33,41,128,,100,100,14,15,6,6,0.7,0.8
2024-04-27T1500,1408A,108.2257,22.7757,南宁市,沙井镇街道办,细颗粒物(PM2.5),64,60,71,46,50,145,,113,113,8,15,11,10,0.8,0.8
2024-04-27T1500,3401A,108.4834,22.7618,南宁市,红星社区,颗粒物(PM10),57,63,61,36,42,125,,105,105,10,13,8,8,0.8,0.8
2024-04-27T1500,2332A,118.1681,26.6369,南平市,南平市监测站,,30,30,25,20,18,89,,71,71,8,13,4,5,0.6,0.7
2024-04-27T1500,2333A,118.1825,26.6489,南平市,南平铝业有限公司,,40,40,27,22,18,83,,65,65,8,15,4,6,0.7,0.8
2024-04-27T1500,2334A,118.1756,26.6272,南平市,南平七中,,32,32,28,19,19,85,,66,66,7,13,4,6,0.7,0.8
2024-04-27T1500,1168A,120.9098,31.9663,南通市,狼山街道,,33,10,17,0,5,104,,104,104,10,11,9,8,0.3,0.4
2024-04-27T1500,1169A,120.86,32.0005,南通市,虹桥,,32,14,25,3,7,102,,99,99,8,10,4,4,0.4,0.4
2024-04-27T1500,1170A,120.87,32.02,南通市,城中,,,,28,10,12,99,,97,97,7,9,4,4,0.3,0.4
2024-04-27T1500,1171A,120.94,31.93,南通市,星湖花园,,33,9,17,3,8,105,,104,104,11,12,6,6,0.5,0.5
2024-04-27T1500,1172A,120.81,32.0417,南通市,紫琅学院,,31,20,18,7,7,99,,102,102,14,13,8,8,0.6,0.6
2024-04-27T1500,3291A,121.067,32.062,南通市,通州监测站,,34,14,20,0,5,106,,109,109,5,3,8,8,0.6,0.6
2024-04-27T1500,3432A,120.9348,31.9883,南通市,环境教育馆,,32,9,20,3,7,102,,103,103,12,13,6,6,0.4,0.5
2024-04-27T1500,2404A,112.5224,33.0122,南阳市,瓦房庄,,49,47,66,33,32,156,,118,118,6,24,3,4,0.5,0.5
2024-04-27T1500,2405A,112.5003,32.9735,南阳市,汉画馆,颗粒物(PM10),54,58,68,34,36,155,,125,125,11,28,4,4,0.5,0.5
2024-04-27T1500,2406A,112.5573,33.027,南阳市,气象站,,50,49,62,27,31,160,,120,120,8,30,1,2,0.6,0.6
2024-04-27T1500,2407A,112.5481,32.9689,南阳市,理工学院,颗粒物(PM10),51,52,61,35,36,152,,119,119,4,25,3,4,0.6,0.6
2024-04-27T1500,4008A,112.5234,32.9922,南阳市,卧龙区政府,颗粒物(PM10),51,51,64,35,35,156,,121,121,7,28,2,4,0.8,0.8
2024-04-27T1500,1234A,121.8358,29.911,宁波市,区环保大楼,,34,34,43,17,17,95,,57,57,44,45,10,9,0.8,0.7
2024-04-27T1500,1235A,121.56,29.82,宁波市,万里学院,细颗粒物(PM2.5),60,58,37,43,31,141,,101,101,36,15,7,6,0.8,0.6
2024-04-27T1500,1236A,121.713,29.9572,宁波市,龙赛医院,,34,34,47,14,16,87,,77,77,50,40,13,10,0.6,0.5
2024-04-27T1500,1239A,121.633,29.7733,宁波市,钱湖水厂,细颗粒物(PM2.5),64,72,42,46,29,88,,65,62,43,18,10,8,1.0,0.7
2024-04-27T1500,1240A,121.5856,29.8635,宁波市,太古小学,,45,44,30,31,22,118,,94,94,42,22,9,8,0.9,0.7
2024-04-27T1500,1241A,121.524,29.8674,宁波市,市环境监测中心,臭氧1小时,68,45,42,30,23,174,,114,114,37,24,7,7,0.9,0.7
2024-04-27T1500,2871A,121.6147,29.9017,宁波市,万里国际学校,颗粒物(PM10),55,59,56,30,29,119,,95,95,39,26,8,6,0.8,0.6
2024-04-27T1500,3710A,121.5594,29.8975,宁波市,白沙活动中心,颗粒物(PM10),56,61,50,30,22,136,,103,103,42,23,9,8,0.8,0.6
2024-04-27T1500,2341A,119.5388,26.6612,宁德市,宁德市监测站,细颗粒物(PM2.5),72,74,59,52,62,117,,65,65,18,23,14,9,1.5,1.3
2024-04-27T1500,3209A,119.5231,26.6562,宁德市,宁德一中,细颗粒物(PM2.5),80,64,62,59,61,126,,65,65,21,23,19,8,1.9,1.3
2024-04-27T1500,2618A,98.8601,25.8567,怒江傈僳族自治州,州监测站,,35,34,42,24,25,110,,82,82,3,4,7,7,0.4,0.4
2024-04-27T1500,2619A,98.8546,25.8417,怒江傈僳族自治州,泸水一中,,49,49,50,27,24,103,,70,70,8,11,7,7,0.4,0.4
2024-04-27T1500,1888A,101.6891,26.571,攀枝花市,弄弄坪,,49,24,54,19,26,154,,129,129,8,22,11,30,0.4,1.5
2024-04-27T1500,1889A,101.5769,26.5928,攀枝花市,河门口,,50,33,45,16,24,159,,134,134,9,16,6,12,0.3,0.4
2024-04-27T1500,1890A,101.7169,26.585,攀枝花市,炳草岗,臭氧1小时,64,25,44,13,23,171,,128,124,12,19,24,32,0.9,0.9
2024-04-27T1500,1891A,101.7369,26.5008,攀枝花市,仁和,臭氧1小时,59,25,41,13,24,167,,138,138,9,14,9,9,0.6,0.7
2024-04-27T1500,2835A,101.7227,26.567,攀枝花市,四十中小,臭氧1小时,69,28,44,18,23,175,,144,144,9,19,16,34,0.9,1.3
2024-04-27T1500,1604A,122.0303,41.1489,盘锦市,开发区,,48,48,51,11,36,122,,96,96,15,21,4,6,0.5,0.6
2024-04-27T1500,1605A,122.0485,41.0883,盘锦市,兴隆台,,42,42,54,12,37,121,,94,94,17,24,9,11,0.4,0.6
2024-04-27T1500,1606A,121.8297,41.1028,盘锦市,新生街道,颗粒物(PM10),52,54,47,10,28,113,,92,92,21,24,6,8,0.3,0.5
2024-04-27T1500,1832A,113.3257,33.742,平顶山市,新华旅馆,颗粒物(PM10),67,83,101,35,46,169,,148,148,2,24,7,10,0.4,0.5
2024-04-27T1500,1833A,113.2919,33.737,平顶山市,规划设计院,,,78,80,31,38,125,,121,121,,28,6,9,,0.6
2024-04-27T1500,1834A,113.182,33.774,平顶山市,平顶山工学院,颗粒物(PM10),54,57,69,31,30,162,,140,140,6,15,4,6,0.6,0.6
2024-04-27T1500,3204A,113.3025,33.73,平顶山市,规划局,颗粒物(PM10),63,75,90,35,41,162,,139,139,7,26,5,7,0.6,0.7
2024-04-27T1500,3594A,112.8867,33.9116,平顶山市,石龙区,颗粒物(PM10),53,56,80,28,31,158,,122,122,3,21,9,10,0.5,0.4
2024-04-27T1500,2656A,106.6692,35.5461,平凉市,聚贤嘉苑,颗粒物(PM10),68,86,58,13,18,126,,84,84,9,25,6,8,0.3,0.4
2024-04-27T1500,2657A,106.7021,35.5307,平凉市,博物馆,,42,38,63,14,19,134,,91,91,6,21,10,10,0.3,0.4
2024-04-27T1500,2347A,114.0997,27.5002,萍乡市,武功山,,22,19,18,1,4,70,,55,55,3,4,8,10,0.5,0.6
2024-04-27T1500,2348A,113.8385,27.6434,萍乡市,中医院,,43,43,56,29,42,104,,77,77,8,12,8,16,0.9,0.9
2024-04-27T1500,2349A,113.8493,27.6253,萍乡市,市政府车库,细颗粒物(PM2.5),52,,45,36,36,101,,73,73,13,20,17,17,0.8,1.4
2024-04-27T1500,2350A,113.8676,27.6435,萍乡市,市环保局,"颗粒物(PM10),细颗粒物(PM2.5)",53,56,47,37,37,102,,68,68,10,16,12,18,0.7,0.8
2024-04-27T1500,2351A,113.866,27.6198,萍乡市,安源区政府,,42,42,45,24,27,107,,75,75,13,19,19,18,0.7,0.8
2024-04-27T1500,2319A,119.0141,25.4325,莆田市,荔城区仓后路,,47,47,49,30,36,85,,78,78,14,22,5,6,0.7,1
2024-04-27T1500,2320A,119.0015,25.4553,莆田市,莆田市监测站,颗粒物(PM10),55,60,47,31,28,92,,84,84,14,16,6,7,0.8,0.9
2024-04-27T1500,2321A,119.1119,25.4561,莆田市,涵江区六中,,31,26,43,11,31,99,,76,76,16,34,7,8,0.6,0.9
2024-04-27T1500,2322A,119.1013,25.3215,莆田市,秀屿区政府,,31,17,31,12,24,97,,62,62,4,16,6,8,0.8,0.9
2024-04-27T1500,2392A,115.0312,35.7636,濮阳市,环保局,臭氧1小时,73,56,72,29,35,178,,146,146,7,13,9,10,0.6,0.6
2024-04-27T1500,2394A,115.0574,35.7609,濮阳市,油田运输公司,臭氧1小时,83,69,83,38,41,186,,151,151,8,14,10,11,0.6,0.6
2024-04-27T1500,2395A,115.0866,35.7754,濮阳市,油田物探公司,臭氧1小时,82,56,74,34,42,185,,150,150,6,11,8,8,0.4,0.4
2024-04-27T1500,2601A,100.98,22.7633,普洱市,市环保局,细颗粒物(PM2.5),55,50,70,39,47,155,,131,131,7,13,8,10,0.4,0.5
2024-04-27T1500,2602A,100.9817,22.8322,普洱市,普洱第二中学,臭氧1小时,52,50,60,27,31,161,,127,127,6,21,9,9,0.3,0.4
2024-04-27T1500,2262A,131.0518,45.8751,七台河市,新一中,,34,28,51,17,39,108,,103,103,8,12,9,10,0.6,0.9
2024-04-27T1500,3345A,131.0577,45.7879,七台河市,中波台,,39,39,52,15,32,101,,98,96,7,11,6,7,0.1,0.6
2024-04-27T1500,3637A,131.0176,45.7761,七台河市,人民广场,,44,44,61,22,41,99,,101,95,16,20,11,11,0.3,0.5
2024-04-27T1500,3684A,130.8781,45.8222,七台河市,新建矿广场,颗粒物(PM10),54,58,63,31,48,93,,90,90,18,23,19,21,0.1,0.3
2024-04-27T1500,1779A,123.9305,47.3636,齐齐哈尔市,安居小区,,30,24,22,6,8,96,,84,84,5,9,2,3,0.2,0.2
2024-04-27T1500,1780A,123.9488,47.3386,齐齐哈尔市,中心广场,,30,12,20,5,10,93,,81,81,6,8,6,7,0.6,0.4
2024-04-27T1500,1781A,123.9483,47.3227,齐齐哈尔市,农牧车辆厂,,30,24,27,8,8,96,,84,84,5,7,6,7,0.2,0.3
2024-04-27T1500,1783A,123.945,47.2988,齐齐哈尔市,市环境监测站,,31,14,24,7,7,97,,86,86,4,7,4,4,0.3,0.3
2024-04-27T1500,3662A,123.6333,47.2075,齐齐哈尔市,富区青少年活动中心,,32,19,28,8,7,101,,94,94,8,11,6,13,0.4,0.5
2024-04-27T1500,2591A,107.9783,26.5747,黔东南苗族侗族自治州,市环境监测站,,36,18,26,13,20,115,,98,98,13,23,2,3,0.4,0.5
2024-04-27T1500,2881A,107.8908,26.5311,黔东南苗族侗族自治州,凯里学院,,44,,27,12,15,140,,118,118,3,11,2,2,0.5,0.3
2024-04-27T1500,2593A,107.5228,26.2403,黔南布依族苗族自治州,小围寨,,39,12,20,5,13,124,,103,103,5,8,4,4,0.5,0.6
2024-04-27T1500,3538A,107.5175,26.2978,黔南布依族苗族自治州,沙坝,,41,14,22,7,12,130,,116,116,5,10,4,4,0.7,0.5
2024-04-27T1500,2589A,104.9022,25.0925,黔西南布依族苗族自治州,场坝街,臭氧1小时,77,39,42,23,29,181,,117,117,8,13,6,8,0.4,0.5
2024-04-27T1500,2590A,104.8811,25.0992,黔西南布依族苗族自治州,坪东大道,臭氧1小时,94,36,44,23,30,195,,125,125,8,17,6,5,0.4,0.5
2024-04-27T1500,2502A,108.6236,21.9667,钦州市,市环保站,颗粒物(PM10),56,61,58,27,30,111,,88,88,10,15,7,7,0.7,0.8
2024-04-27T1500,2503A,108.6549,21.9481,钦州市,沙埠小学,颗粒物(PM10),62,74,57,34,34,112,,88,88,9,15,6,6,0.8,0.8
2024-04-27T1500,2504A,108.5989,21.7431,钦州市,港区一小,颗粒物(PM10),55,59,68,29,31,100,,86,86,9,17,6,7,0.6,0.7
2024-04-27T1500,3404A,108.5959,21.9633,钦州市,北职校,颗粒物(PM10),53,55,60,27,36,103,,81,81,8,16,9,8,0.7,0.8
2024-04-27T1500,1042A,119.5134,39.8207,秦皇岛市,北戴河环保局,颗粒物(PM10),54,57,86,15,35,104,,88,88,22,36,8,9,0.3,0.4
2024-04-27T1500,1043A,119.7493,40.0116,秦皇岛市,第一关,,43,43,110,25,64,96,,85,85,15,56,7,9,0.2,0.4
2024-04-27T1500,1044A,119.5897,39.9499,秦皇岛市,监测站,,46,46,109,23,65,100,,88,88,18,53,2,4,0.2,0.5
2024-04-27T1500,1046A,119.5251,39.9041,秦皇岛市,建设大厦,颗粒物(PM10),59,68,109,13,45,96,,86,86,8,46,3,7,0.0,0.3
2024-04-27T1500,3132A,119.610547,39.943889,秦皇岛市,文明里,颗粒物(PM10),52,54,116,15,48,100,,87,87,14,45,3,2,0.3,0.5
2024-04-27T1500,1307A,120.6659,36.2403,青岛市,仰口,,39,22,15,12,9,124,,108,108,12,10,3,3,0.5,0.5
2024-04-27T1500,1310A,120.4134,36.0658,青岛市,市南区东部子站,,31,9,16,5,7,98,,105,102,11,13,6,6,0.5,0.4
2024-04-27T1500,1311A,120.3664,36.1032,青岛市,四方区子站,,36,7,17,7,10,113,,118,118,11,14,3,4,0.4,0.3
2024-04-27T1500,1312A,120.2994,36.054,青岛市,市南区西部子站,,34,7,13,2,4,108,,120,115,16,17,6,6,0.6,0.6
2024-04-27T1500,1313A,120.4581,36.0858,青岛市,崂山区子站,,32,2,11,2,5,100,,112,108,20,16,7,7,0.5,0.5
2024-04-27T1500,1314A,120.1983,35.9608,青岛市,黄岛区子站,,34,5,13,2,7,107,,114,112,9,12,5,6,0.5,0.5
2024-04-27T1500,1315A,120.3999,36.3083,青岛市,城阳区子站,,36,22,20,12,9,114,,109,106,23,19,7,6,0.5,0.4
2024-04-27T1500,1966A,120.0405,35.8735,青岛市,黄岛区4号,,36,5,12,5,3,113,,119,116,8,11,8,8,0.5,0.5
2024-04-27T1500,3362A,120.5014,36.4034,青岛市,即墨2号,,41,38,21,8,8,130,,115,115,17,14,5,5,0.5,0.5
2024-04-27T1500,3642A,120.3503,36.0736,青岛市,市北区南部,,36,6,16,2,4,115,,120,119,12,16,5,5,0.5,0.5
2024-04-27T1500,3643A,120.3948,36.1805,青岛市,李沧区北部,,34,17,16,9,11,106,,112,112,20,17,8,8,0.5,0.4
2024-04-27T1500,1702A,113.0426,23.691,清远市,环保大楼,,39,31,27,27,17,42,,65,39,15,8,5,5,0.9,0.9
2024-04-27T1500,1703A,113.0208,23.7106,清远市,凤城街办,,38,36,33,26,24,55,,62,37,24,23,3,4,0.7,0.7
2024-04-27T1500,3025A,113.0477,23.6344,清远市,技师学院,,37,37,37,21,20,58,,59,44,23,17,4,4,0.6,0.6
2024-04-27T1500,3318A,112.9903,23.7403,清远市,清新太和,,22,16,40,9,23,68,,38,26,18,24,4,5,0.4,0.5
2024-04-27T1500,3455A,113.076,23.7198,清远市,清城东城,,32,27,32,22,24,59,,68,68,12,16,4,5,0.5,0.4
2024-04-27T1500,2661A,107.6325,35.7357,庆阳市,庆阳五中,颗粒物(PM10),63,75,96,19,28,126,,106,106,7,12,5,6,0.3,0.3
2024-04-27T1500,2662A,107.6364,35.7067,庆阳市,市环保局,颗粒物(PM10),63,76,96,23,24,125,,104,104,8,11,4,4,0.3,0.3
2024-04-27T1500,1916A,103.7897,25.5035,曲靖市,环境监测站,臭氧1小时,58,41,55,14,24,166,,150,150,5,10,4,5,0.5,0.4
2024-04-27T1500,1917A,103.8,25.5364,曲靖市,烟厂办公区,臭氧1小时,63,37,52,16,22,170,,151,151,4,11,4,6,0.2,0.4
2024-04-27T1500,3376A,103.7947,25.462,曲靖市,南苑二区,臭氧1小时,62,35,50,14,20,169,,158,158,10,10,11,8,0.4,0.3
2024-04-27T1500,3377A,103.7444,25.5261,曲靖市,曲靖师范学院,臭氧1小时,53,,49,21,24,162,,147,147,5,10,6,13,0.5,0.6
2024-04-27T1500,1264A,118.8692,28.9398,衢州市,环保大楼,臭氧1小时,58,24,41,18,25,166,,116,116,11,24,7,6,0.6,0.7
2024-04-27T1500,1265A,118.8709,28.9666,衢州市,实验学校,臭氧1小时,58,29,39,23,26,166,,119,119,11,22,10,8,0.6,0.6
2024-04-27T1500,1266A,118.8621,28.9808,衢州市,衢州学院,臭氧1小时,52,28,35,20,23,161,,117,117,10,23,4,4,0.5,0.5
2024-04-27T1500,1611A,118.5819,24.9117,泉州市,涂山街,,31,23,34,9,24,97,,62,62,18,37,4,5,0.6,0.8
2024-04-27T1500,1612A,118.5972,24.8978,泉州市,津头埔,,29,25,32,10,22,92,,58,58,21,38,2,2,0.6,0.7
2024-04-27T1500,1613A,118.6663,24.9424,泉州市,万安,,29,22,34,11,24,92,,58,58,20,33,2,3,0.6,0.8
2024-04-27T1500,3529A,118.6333,24.9264,泉州市,城华南路,,26,18,30,13,24,81,,53,53,26,37,3,4,0.4,0.6
2024-04-27T1500,2626A,88.8876,29.2718,日喀则市,日喀则监测站,,44,26,56,22,19,138,,135,129,4,5,5,4,0.5,0.5
2024-04-27T1500,3726A,88.8781,29.2426,日喀则市,林业技术推广中心,颗粒物(PM10),55,60,76,12,24,135,,126,122,6,12,6,6,0.2,0.3
2024-04-27T1500,1659A,119.471,35.4209,日照市,监测站,,36,31,22,12,12,115,,118,116,23,23,8,9,0.6,0.5
2024-04-27T1500,1660A,119.523,35.4216,日照市,市政府广场,,42,17,19,7,6,132,,134,132,8,13,7,7,0.6,0.5
2024-04-27T1500,1661A,119.5587,35.4044,日照市,港务局,,37,14,18,1,3,117,,133,128,10,7,6,4,0.5,0.5
2024-04-27T1500,3507A,119.5328,35.4625,日照市,职业技术学院,,35,9,17,5,6,111,,112,112,8,11,7,7,0.4,0.4
2024-04-27T1500,3604A,119.3266,35.1044,日照市,岚山环保分局,,40,27,27,20,14,127,,125,125,11,12,8,6,0.3,0.4
2024-04-27T1500,1835A,111.1922,34.7752,三门峡市,市政府,颗粒物(PM10),70,90,70,29,29,148,,120,120,12,20,9,10,0.5,0.5
2024-04-27T1500,1836A,111.1587,34.7942,三门峡市,开发区,颗粒物(PM10),61,71,76,34,40,166,,130,130,10,16,11,13,0.6,0.6
2024-04-27T1500,3039A,111.1911,34.7829,三门峡市,三门峡市第一小学,颗粒物(PM10),67,83,68,26,25,158,,129,129,13,16,9,10,0.5,0.5
2024-04-27T1500,3598A,111.1,34.7167,三门峡市,富达温泉假日酒店,颗粒物(PM10),56,61,66,16,25,135,,115,115,13,13,9,10,0.3,0.6
2024-04-27T1500,2324A,117.6211,26.2625,三明市,三钢,,44,44,34,0,18,120,,84,84,9,17,8,10,0.3,0.9
2024-04-27T1500,2325A,117.635,26.2714,三明市,三明二中,,37,34,27,20,19,118,,84,84,4,11,9,9,0.7,0.8
2024-04-27T1500,2326A,117.6028,26.2378,三明市,三元区政府,,43,34,39,30,26,119,,85,85,14,15,10,10,0.8,1
2024-04-27T1500,1876A,109.5078,18.2489,三亚市,河东子站,,39,39,32,20,16,75,,59,59,3,10,3,3,0.4,0.4
2024-04-27T1500,1877A,109.4964,18.2681,三亚市,河西子站,,37,37,29,19,15,82,,62,62,5,6,2,2,0.4,0.2
2024-04-27T1500,3540A,109.7348,18.3443,三亚市,君悦子站,颗粒物(PM10),54,58,34,18,16,76,,55,55,4,8,2,2,0.4,0.4
2024-04-27T1500,2624A,91.7608,29.2313,山南市,山南监测站,,46,34,24,11,9,145,,122,122,4,7,6,7,0.4,0.4
2024-04-27T1500,2625A,91.7706,29.2436,山南市,山南人民医院,,47,22,28,7,10,150,,123,123,8,13,8,9,0.3,0.4
2024-04-27T1500,1674A,116.6794,23.3667,汕头市,金平子站,,37,34,26,11,11,116,,101,101,8,19,2,3,1.2,1.3
2024-04-27T1500,1675A,116.7244,23.3633,汕头市,龙湖子站,,37,37,18,10,9,116,,110,110,9,13,4,4,0.7,0.8
2024-04-27T1500,1676A,116.7258,23.2775,汕头市,濠江子站,,31,31,19,12,11,97,,99,99,10,11,4,4,0.6,0.7
2024-04-27T1500,1677A,116.7519,23.4714,汕头市,澄海子站,,35,24,21,12,14,110,,93,93,8,15,4,4,0.7,0.8
2024-04-27T1500,1678A,116.6092,23.2539,汕头市,潮阳子站,,34,23,23,13,12,106,,102,102,6,10,4,4,0.7,0.8
2024-04-27T1500,3444A,116.454,23.2684,汕头市,潮南峡山,,27,18,27,10,16,86,,80,80,12,16,3,3,0.5,0.7
2024-04-27T1500,3624A,116.4069,23.2533,汕头市,潮南子站,,27,18,36,10,24,84,,77,77,11,18,6,6,0.7,0.9
2024-04-27T1500,1693A,115.3653,22.775,汕尾市,市环保局,,27,14,13,7,8,84,,65,65,7,9,7,8,0.8,0.8
2024-04-27T1500,1694A,115.3706,22.7898,汕尾市,市政府,,30,,13,13,13,95,,67,67,6,10,4,4,0.8,0.8
2024-04-27T1500,1695A,115.3622,22.7925,汕尾市,新城中学,,,12,15,2,7,92,,66,66,,9,6,6,,0.7
2024-04-27T1500,2645A,109.9154,33.8715,商洛市,监测站,,47,47,50,27,21,132,,99,99,6,20,8,8,0.5,0.5
2024-04-27T1500,3045A,109.9643,33.8471,商洛市,商州区中学,颗粒物(PM10),65,79,53,31,24,132,,109,109,5,20,8,9,0.5,0.4
2024-04-27T1500,2408A,115.6702,34.4285,商丘市,环境监测站,颗粒物(PM10),56,61,76,14,32,138,,131,131,13,17,7,8,0.3,0.4
2024-04-27T1500,2409A,115.6458,34.4045,商丘市,粮食局,,47,32,66,22,29,148,,148,148,6,11,8,10,0.3,0.4
2024-04-27T1500,2410A,115.6293,34.3948,商丘市,睢阳区环保局,颗粒物(PM10),56,62,76,15,33,161,,159,159,6,13,5,6,0.1,0.2
2024-04-27T1500,3171A,115.6071,34.4465,商丘市,梁园区档案局,,50,50,69,14,34,142,,146,146,7,12,7,8,0.2,0.3
2024-04-27T1500,1141A,121.4,31.238,上海市,普陀,,40,40,36,18,23,91,,78,78,26,24,4,4,0.5,0.5
2024-04-27T1500,1142A,121.478,31.2036,上海市,十五厂,,,26,30,15,14,86,,80,80,,21,8,7,0.4,0.4
