timepoint,stationcode,longitude,latitude,area,positionname,primarypollutant,aqi,pm10,pm10_24h,pm2_5,pm2_5_24h,o3,o3_24h,o3_8h,o3_8h_24h,no2,no2_24h,so2,so2_24h,co,co_24h
2024-06-17T2100,2566A,102.1879,31.914,阿坝藏族羌族自治州,州农科所,,,49,31,20,8,21,,32,29,21,18,4,4,,0
2024-06-17T2100,2568A,102.2502,31.8896,阿坝藏族羌族自治州,马师校,,32,,12,22,11,53,,74,73,13,12,5,5,0.4,0.3
2024-06-17T2100,3994A,102.2165,31.9024,阿坝藏族羌族自治州,马尔康中学西区,,35,35,19,19,11,47,,83,80,10,6,5,6,0.4,0.3
2024-06-17T2100,2695A,80.292,41.1694,阿克苏地区,电视台,颗粒物(PM10),75,99,93,41,28,118,,129,127,10,15,5,6,0.4,0.5
2024-06-17T2100,2696A,80.2613,41.1551,阿克苏地区,艺术中心,颗粒物(PM10),75,100,100,33,29,108,,124,122,16,20,3,4,0.4,0.5
2024-06-17T2100,2204A,105.6467,38.8363,阿拉善盟,西城区西花园,臭氧1小时,75,27,36,17,14,180,,190,188,13,10,10,11,0.6,0.6
2024-06-17T2100,2205A,105.6985,38.8411,阿拉善盟,蒙二幼,臭氧1小时,77,41,40,15,14,181,,181,181,13,10,15,14,0.6,0.5
2024-06-17T2100,2206A,105.724,38.8516,阿拉善盟,环保局新楼,臭氧1小时,101,36,34,16,12,201,,187,187,9,7,12,13,0.5,0.5
2024-06-17T2100,2708A,88.1264,47.8517,阿勒泰地区,市站,,28,13,18,3,6,89,,98,95,10,9,6,6,0.5,0.5
2024-06-17T2100,2630A,80.1161,32.5,阿里地区,阿里监测站,臭氧1小时,59,26,24,12,13,167,,174,173,4,8,6,6,0.4,0.4
2024-06-17T2100,3192A,80.0903,32.5028,阿里地区,阿里藏医院,臭氧1小时,57,22,25,8,11,165,,175,174,3,4,6,6,0.4,0.4
2024-06-17T2100,2642A,109.0318,32.6537,安康市,香溪洞,,37,20,16,16,7,116,,114,114,4,5,6,6,0.6,0.6
2024-06-17T2100,2643A,109.0281,32.6939,安康市,安康市监测站,,35,25,16,9,11,110,,123,116,5,5,6,7,0.5,0.5
2024-06-17T2100,2644A,109.0072,32.6975,安康市,汉滨区检察院,,35,25,16,19,8,109,,124,119,5,6,6,6,0.5,0.5
2024-06-17T2100,2291A,117.0809,30.5177,安庆市,环科院,,43,,40,17,20,137,,182,173,13,12,4,5,0.4,0.5
2024-06-17T2100,2292A,117.0331,30.5119,安庆市,马山宾馆,,43,30,33,17,19,136,,187,177,21,18,7,9,0.5,0.6
2024-06-17T2100,2294A,116.9896,30.6145,安庆市,安庆大学,臭氧1小时,58,35,32,20,19,166,,180,179,10,10,8,8,0.3,0.4
2024-06-17T2100,3173A,117.0598,30.5351,安庆市,市人大,,43,27,37,18,20,137,,182,174,14,13,6,7,0.3,0.4
2024-06-17T2100,3122A,105.9606,26.2611,安顺市,伍家关,,,,,,,,,,,,,,,,
2024-06-17T2100,3123A,105.9408,26.2431,安顺市,凤凰山,,23,14,10,13,9,71,,101,89,5,5,5,5,0.8,0.8
2024-06-17T2100,3124A,105.9439,26.2564,安顺市,金钟山,,22,16,12,14,9,69,,100,87,5,5,4,4,0.6,0.6
2024-06-17T2100,3125A,105.8983,26.2481,安顺市,娄家坡,,22,17,11,9,7,70,,97,87,7,6,5,4,0.9,0.9
2024-06-17T2100,1818A,114.4839,36.0621,安阳市,棉研所,,,,,,,,,,,,,,,,
2024-06-17T2100,1819A,114.3551,36.1017,安阳市,红庙街,臭氧1小时,73,47,49,22,33,178,,201,201,11,9,4,7,0.4,0.5
2024-06-17T2100,1820A,114.361,36.0681,安阳市,银杏小区,臭氧1小时,74,45,43,16,24,179,,197,197,18,19,7,9,0.8,0.9
2024-06-17T2100,3141A,114.3922,36.0878,安阳市,信访局,臭氧1小时,72,53,53,8,24,177,,200,200,9,7,7,8,0.6,0.8
2024-06-17T2100,3669A,114.4705,36.0637,安阳市,左辅环卫站,臭氧1小时,54,49,45,16,29,163,,194,193,16,10,3,4,0.4,0.5
2024-06-17T2100,3703A,114.2917,36.0949,安阳市,安钢职工学校,臭氧1小时,54,48,57,13,37,163,,192,190,14,15,5,5,0.5,0.7
2024-06-17T2100,1748A,123.044,41.1196,鞍山市,深沟寺,臭氧1小时,87,74,67,37,37,189,,238,233,26,19,22,17,1.4,1
2024-06-17T2100,1749A,123.011,41.0931,鞍山市,太阳城,臭氧1小时,82,75,64,38,33,185,,236,230,25,20,15,15,1.5,1.3
2024-06-17T2100,1750A,123.0485,41.1442,鞍山市,太平,臭氧1小时,88,70,67,39,36,190,,234,230,24,19,13,14,1.3,1.3
2024-06-17T2100,1751A,122.9642,41.0971,鞍山市,铁西三道街,臭氧1小时,97,76,80,40,41,197,,238,233,20,23,9,13,0.9,1.1
2024-06-17T2100,1752A,122.9341,41.0833,鞍山市,铁西工业园区,臭氧1小时,87,59,77,33,42,189,,232,228,20,20,14,13,0.8,1
2024-06-17T2100,1753A,123.022,41.0821,鞍山市,明达新区,臭氧1小时,67,65,54,34,32,173,,224,218,24,17,18,15,1.4,1
2024-06-17T2100,1754A,123.1289,41.0228,鞍山市,千山,,,,,,,,,,,,,,,,
2024-06-17T2100,2195A,107.4212,40.761,巴彦淖尔市,附二中,颗粒物(PM10),56,61,55,30,26,136,,187,181,24,28,10,24,0.5,0.5
2024-06-17T2100,2196A,107.37,40.7372,巴彦淖尔市,市环保大楼,,47,47,56,18,22,123,,165,158,26,25,5,24,0.5,0.5
2024-06-17T2100,1956A,86.1472,41.7538,巴音郭楞蒙古自治州,孔雀公园,,47,47,60,18,17,101,,120,117,6,19,2,3,0.2,0.3
2024-06-17T2100,1957A,86.1972,41.7166,巴音郭楞蒙古自治州,棉纺厂,,38,35,47,17,14,119,,126,126,6,25,4,4,0.2,0.3
2024-06-17T2100,1958A,86.2357,41.7173,巴音郭楞蒙古自治州,经济开发区,,37,28,37,14,17,117,,131,129,6,10,2,2,0.2,0.2
2024-06-17T2100,2914A,106.7677,31.8794,巴中市,苏山坪,,33,25,20,15,10,103,,100,100,9,7,5,4,0.7,0.6
2024-06-17T2100,3182A,106.7656,31.8545,巴中市,丽阳花园,,36,21,25,14,15,114,,110,110,11,14,6,6,0.5,0.5
2024-06-17T2100,3183A,106.7418,31.8654,巴中市,圣泉水务公司,,34,24,19,15,12,106,,111,111,13,9,5,5,0.6,0.5
2024-06-17T2100,3616A,106.7616,31.8344,巴中市,市中心医院,,37,19,20,13,12,116,,112,111,7,11,5,5,0.5,0.5
2024-06-17T2100,2235A,122.7911,45.6077,白城市,洮北区环保局,,25,19,13,8,8,77,,92,89,10,10,2,2,0.1,0.1
2024-06-17T2100,2236A,122.8738,45.5725,白城市,市环保局,,20,14,12,6,7,64,,90,86,18,9,4,4,0.2,0.2
2024-06-17T2100,2231A,126.4219,41.9171,白山市,喜丰,,35,35,46,14,20,67,,166,149,62,25,12,12,1.0,1.1
2024-06-17T2100,2232A,126.4077,41.9419,白山市,环保局,,44,44,44,19,21,106,,158,143,17,17,9,11,0.8,0.9
2024-06-17T2100,2647A,104.1724,36.5446,白银市,第三小学,,40,27,32,10,22,127,,144,141,12,20,7,12,0.4,0.8
2024-06-17T2100,2648A,104.1465,36.5482,白银市,动力公司,,41,34,24,10,14,129,,137,136,8,11,8,12,0.2,0.5
2024-06-17T2100,2512A,106.6103,23.9011,百色市,市监测站,,40,40,44,20,23,56,,86,84,15,15,23,16,0.9,0.9
2024-06-17T2100,2513A,106.6538,23.8859,百色市,市中心血站,,30,26,44,21,25,60,,89,86,13,14,20,14,0.9,0.9
2024-06-17T2100,3406A,106.6085,23.8798,百色市,祈福高中,颗粒物(PM10),51,51,46,29,24,55,,86,85,14,19,16,16,0.9,0.9
2024-06-17T2100,2270A,117.396,32.939,蚌埠市,工人疗养院,颗粒物(PM10),56,61,51,19,17,117,,167,166,32,14,10,10,0.4,0.4
2024-06-17T2100,2271A,117.3605,32.9427,蚌埠市,百货大楼,,50,50,49,21,21,108,,168,166,37,14,10,9,0.5,0.5
2024-06-17T2100,2273A,117.4185,32.8911,蚌埠市,蚌埠学院,,46,46,42,16,21,137,,164,164,13,12,6,8,0.4,0.5
2024-06-17T2100,2274A,117.3533,32.9673,蚌埠市,淮上区政府,颗粒物(PM10),62,73,46,20,23,136,,166,166,15,9,6,8,0.3,0.4
2024-06-17T2100,2275A,117.3145,32.8977,蚌埠市,高新区,,44,44,43,19,19,139,,174,173,16,10,6,9,0.4,0.4
2024-06-17T2100,3715A,117.3092,32.9314,蚌埠市,蚌埠田家炳中学,,46,37,46,13,20,147,,177,177,12,10,8,9,0.3,0.4
2024-06-17T2100,1585A,109.8756,40.6532,包头市,市环境监测站,,47,36,57,16,20,150,,198,190,50,46,15,17,0.6,0.8
2024-06-17T2100,1587A,109.9991,40.5842,包头市,包头八中,臭氧1小时,75,48,60,22,25,180,,196,193,24,33,19,21,0.6,0.6
2024-06-17T2100,1588A,109.8538,40.6821,包头市,青山宾馆,臭氧1小时,63,31,43,17,22,170,,197,193,26,40,17,18,0.6,0.7
2024-06-17T2100,1589A,109.8642,40.6288,包头市,惠龙物流,臭氧1小时,69,40,54,18,20,175,,203,198,25,35,16,20,0.5,0.7
2024-06-17T2100,1590A,110.0377,40.5546,包头市,东河鸿龙湾,颗粒物(PM10),52,54,60,23,16,136,,192,183,37,31,26,17,0.6,0.6
2024-06-17T2100,3283A,109.9154,40.5685,包头市,滨河大厦,,47,40,52,24,24,148,,195,188,35,44,16,15,0.6,0.7
2024-06-17T2100,3419A,109.9447,40.6261,包头市,包头市委党校,臭氧1小时,68,48,66,24,19,174,,198,194,32,41,24,26,0.6,0.8
2024-06-17T2100,3683A,109.8331,40.6576,包头市,昆区政府,臭氧1小时,73,35,49,16,22,178,,201,197,24,37,15,18,0.8,0.9
2024-06-17T2100,1930A,107.185,34.3063,宝鸡市,庙沟村,,43,43,21,18,10,80,,121,116,8,6,9,9,0.4,0.3
2024-06-17T2100,1931A,107.0708,34.3017,宝鸡市,竹园沟,,30,27,20,9,10,94,,146,141,16,12,7,7,0.5,0.4
2024-06-17T2100,1932A,107.1906,34.3672,宝鸡市,三陆医院,,38,27,29,7,16,120,,148,145,16,20,6,7,0.5,0.5
2024-06-17T2100,1933A,107.1431,34.3547,宝鸡市,监测站,,35,24,22,14,12,110,,146,142,19,15,9,8,0.4,0.4
2024-06-17T2100,1934A,107.1186,34.3739,宝鸡市,技工学校,,37,,25,16,13,116,,150,145,21,13,7,8,0.6,0.5
2024-06-17T2100,1935A,107.3906,34.3528,宝鸡市,陈仓区环保局家属楼,,34,29,26,21,17,106,,152,147,28,21,6,6,0.5,0.4
2024-06-17T2100,1936A,107.2058,34.3497,宝鸡市,文理学院,,39,27,23,7,12,122,,151,148,15,12,8,7,0.4,0.4
2024-06-17T2100,1937A,107.2386,34.3622,宝鸡市,三迪小学,,35,19,30,11,19,110,,147,142,26,20,6,7,0.5,0.5
2024-06-17T2100,1051A,115.493,38.8632,保定市,游泳馆,颗粒物(PM10),63,76,79,23,34,154,,219,207,26,9,5,6,0.3,0.3
2024-06-17T2100,1052A,115.5213,38.8959,保定市,华电二区,,,,54,,40,,,172,,,9,,4,,0.4
2024-06-17T2100,1053A,115.4713,38.9108,保定市,接待中心,臭氧1小时,64,56,49,28,39,171,,218,208,8,7,3,4,0.4,0.5
2024-06-17T2100,1054A,115.4612,38.8416,保定市,地表水厂,颗粒物(PM10),53,56,58,30,42,156,,223,210,22,12,2,2,0.5,0.6
2024-06-17T2100,3581A,115.31981,38.95208,保定市,满城区生态环境分局,颗粒物(PM10),63,75,87,24,37,168,,225,212,12,12,3,3,0.4,0.4
2024-06-17T2100,3582A,115.47694,38.76408,保定市,清苑区第二中学,颗粒物(PM10),61,72,56,24,35,146,,225,209,24,7,5,5,0.3,0.5
2024-06-17T2100,3583A,115.62909,39.02311,保定市,徐水物探局,颗粒物(PM10),69,87,68,17,28,146,,226,210,27,11,2,2,0.4,0.4
2024-06-17T2100,4004A,115.4202,38.8656,保定市,双鹰农机,颗粒物(PM10),69,88,62,37,39,163,,232,217,17,10,2,3,0.2,0.3
2024-06-17T2100,4034A,115.5150,38.8590,保定市,植保所站,臭氧1小时,58,54,59,26,35,166,,228,217,18,10,5,5,0.5,0.7
2024-06-17T2100,2594A,99.1678,25.1081,保山市,市环境监测站,,27,17,30,13,12,86,,96,93,6,7,6,5,0.5,0.6
2024-06-17T2100,2595A,99.1711,25.1328,保山市,市环保局,,31,22,35,7,13,97,,104,100,3,5,6,6,0.5,0.4
2024-06-17T2100,1866A,109.2262,21.588,北海市,牛尾岭水库,,,,,,,,,,,,,,,,
2024-06-17T2100,1867A,109.1436,21.4086,北海市,海滩公园,,38,38,40,12,9,83,,92,92,3,4,3,3,0.6,0.6
2024-06-17T2100,1868A,109.0981,21.4661,北海市,新市环保局,,31,31,27,17,11,91,,92,92,4,5,4,4,0.6,0.6
2024-06-17T2100,1869A,109.1778,21.5233,北海市,北海工业园,,30,30,33,20,17,88,,89,89,4,8,4,6,0.5,0.5
2024-06-17T2100,3400A,109.1911,21.4415,北海市,龙潭自来水厂,,26,26,24,16,15,82,,86,86,6,6,4,4,0.5,0.6
2024-06-17T2100,1001A,116.3621,39.8784,北京市,万寿西宫,臭氧1小时,74,52,81,20,38,179,,232,219,16,16,2,2,0.4,0.5
2024-06-17T2100,1002A,116.2202,40.2915,北京市,定陵,颗粒物(PM10),81,112,59,44,28,130,,242,221,18,16,3,3,0.5,0.4
2024-06-17T2100,1003A,116.4174,39.9289,北京市,东四,臭氧1小时,60,52,80,17,38,168,,224,211,22,20,6,5,0.6,0.7
2024-06-17T2100,1004A,116.4072,39.8863,北京市,天坛,臭氧1小时,55,40,67,19,35,164,,230,214,19,18,2,2,0.4,0.5
2024-06-17T2100,1005A,116.462,39.9365,北京市,农展馆,臭氧1小时,73,51,79,18,36,178,,241,228,24,23,6,6,0.6,0.7
2024-06-17T2100,1006A,116.3392,39.9295,北京市,官园,臭氧1小时,77,71,92,25,45,181,,239,227,19,19,5,5,0.5,0.5
2024-06-17T2100,1007A,116.2878,39.9611,北京市,海淀万柳,颗粒物(PM10),61,72,84,25,38,159,,230,216,25,21,5,5,0.4,0.4
2024-06-17T2100,1008A,116.6636,40.135,北京市,顺义新城,臭氧1小时,58,53,73,27,33,166,,240,224,24,27,2,2,0.4,0.5
2024-06-17T2100,1009A,116.6275,40.3275,北京市,怀柔镇,臭氧1小时,83,72,64,34,30,186,,246,232,19,13,4,3,0.5,0.5
2024-06-17T2100,1010A,116.2296,40.217,北京市,昌平镇,颗粒物(PM10),67,84,64,46,31,157,,219,203,25,17,3,2,0.5,0.4
2024-06-17T2100,1011A,116.3966,39.9821,北京市,奥体中心,颗粒物(PM10),52,53,77,18,35,156,,203,191,19,19,7,7,0.4,0.5
2024-06-17T2100,1012A,116.184,39.9136,北京市,古城,颗粒物(PM10),66,82,89,31,36,157,,218,206,28,26,3,3,0.3,0.4
2024-06-17T2100,3281A,115.9718,40.4529,北京市,延庆夏都,臭氧1小时,84,90,51,44,26,187,,198,198,17,17,2,2,0.5,0.3
2024-06-17T2100,3417A,117.0709,40.1465,北京市,平谷新城,颗粒物(PM10),56,62,62,28,28,140,,209,194,27,20,3,2,0.3,0.4
2024-06-17T2100,3418A,116.8336,40.4095,北京市,密云新城,臭氧1小时,94,66,69,26,30,195,,268,257,24,16,1,2,0.5,0.4
2024-06-17T2100,3671A,116.088,39.9726,北京市,门头沟三家店,,,,,,,,,,,,,,,,
2024-06-17T2100,3672A,116.1541,39.8204,北京市,丰台云岗,颗粒物(PM10),66,82,87,29,40,142,,210,194,23,20,3,3,0.4,0.5
2024-06-17T2100,3673A,116.6804,39.9081,北京市,通州东关,臭氧1小时,60,47,69,20,35,168,,217,206,13,13,2,2,0.4,0.5
2024-06-17T2100,3674A,115.9577,39.7603,北京市,房山燕山,颗粒物(PM10),65,79,81,38,35,171,,200,190,13,13,3,3,0.4,0.5
2024-06-17T2100,3675A,116.4672,39.7733,北京市,大兴旧宫,,50,49,82,17,32,157,,213,198,15,15,1,1,0.4,0.5
2024-06-17T2100,3694A,115.986,40.4563,北京市,延庆石河营,颗粒物(PM10),70,89,49,48,26,145,,186,183,28,20,1,2,0.5,0.3
2024-06-17T2100,3695A,116.6151,40.3053,北京市,怀柔新城,颗粒物(PM10),67,83,62,44,31,156,,232,215,19,13,1,2,0.5,0.5
2024-06-17T2100,3696A,116.2545,39.8768,北京市,丰台小屯,颗粒物(PM10),60,70,79,23,38,134,,207,193,27,18,2,2,0.4,0.5
2024-06-17T2100,3697A,116.84,40.3844,北京市,密云镇,颗粒物(PM10),94,138,72,29,30,193,,253,244,19,18,2,2,0.5,0.4
2024-06-17T2100,1761A,123.8275,41.3064,本溪市,大峪,臭氧1小时,99,40,44,22,22,199,,251,246,8,15,10,13,0.8,0.9
2024-06-17T2100,1762A,123.7567,41.3325,本溪市,溪湖,臭氧1小时,102,74,67,33,30,203,,251,245,26,28,15,26,1.6,2.2
2024-06-17T2100,1763A,123.7169,41.3094,本溪市,彩屯,颗粒物(PM10),60,70,52,41,29,162,,242,232,32,30,11,14,1.2,1.6
2024-06-17T2100,1764A,123.7669,41.2864,本溪市,东明,臭氧1小时,101,54,51,28,20,202,,245,242,14,15,9,10,0.7,0.7
2024-06-17T2100,1765A,123.7992,41.2664,本溪市,新立屯,,49,49,45,27,18,71,,239,201,95,25,12,14,1.0,1
2024-06-17T2100,1766A,123.8142,41.3472,本溪市,威宁,颗粒物(PM10),61,72,66,35,25,164,,245,233,22,25,8,11,0.7,0.8
2024-06-17T2100,2587A,105.2864,27.3125,毕节市,八中,,23,22,15,14,13,73,,110,94,12,6,5,5,0.5,0.4
2024-06-17T2100,2588A,105.31,27.2944,毕节市,师专,,26,18,15,15,12,82,,106,90,11,6,4,3,0.7,0.6
2024-06-17T2100,3537A,105.3631,27.3533,毕节市,长征村,,40,39,31,28,22,74,,122,92,8,7,10,6,0.6,0.6
2024-06-17T2100,1629A,118.0018,37.3617,滨州市,第二水厂,臭氧1小时,58,51,70,22,30,166,,225,216,18,16,4,6,0.5,0.7
2024-06-17T2100,1630A,117.9776,37.393,滨州市,北中新校,,48,44,61,17,26,152,,215,204,17,16,2,5,0.5,0.6
2024-06-17T2100,3514A,117.9378,37.3956,滨州市,中海酒店,颗粒物(PM10),54,58,70,22,36,132,,223,208,35,20,4,13,0.4,0.4
2024-06-17T2100,3515A,117.9378,37.3553,滨州市,开发区一中,颗粒物(PM10),58,66,75,24,30,148,,216,203,29,21,6,10,0.7,0.8
2024-06-17T2100,3516A,118.0917,37.694,滨州市,金海六路,臭氧1小时,59,49,66,17,24,167,,208,199,20,23,4,7,0.6,0.6
2024-06-17T2100,4028A,117.9956,37.3753,滨州市,滨州市西街道办事处,臭氧1小时,62,41,62,24,35,169,,221,212,15,15,3,10,0.6,0.8
2024-06-17T2100,2311A,115.8072,33.8399,亳州市,污水处理厂,颗粒物(PM10),60,70,32,31,26,129,,192,185,31,10,4,4,0.6,0.5
2024-06-17T2100,2312A,115.7789,33.8518,亳州市,三国揽胜宫,,50,40,33,27,22,157,,192,188,20,11,4,3,0.6,0.5
2024-06-17T2100,3332A,115.7633,33.8034,亳州市,亳州学院,臭氧1小时,58,53,35,18,25,166,,196,194,18,8,5,5,0.4,0.4
2024-06-17T2100,2693A,82.0485,44.8556,博尔塔拉蒙古自治州,市党校,,,20,21,7,9,,,125,125,11,9,10,10,0.2,0.3
2024-06-17T2100,2694A,82.0806,44.8969,博尔塔拉蒙古自治州,市环保局,,36,35,27,13,11,114,,124,124,18,15,10,9,0.3,0.3
2024-06-17T2100,1071A,116.8842,38.2991,沧州市,沧县城建局,颗粒物(PM10),52,53,44,18,15,158,,195,188,18,12,4,2,0.3,0.3
2024-06-17T2100,1072A,116.8584,38.3254,沧州市,电视转播站,臭氧1小时,60,49,40,19,19,168,,190,188,14,8,2,2,0.3,0.3
2024-06-17T2100,1073A,116.8709,38.3228,沧州市,市环保局,,49,48,42,29,22,154,,196,189,22,13,7,7,0.3,0.3
2024-06-17T2100,3324A,116.8136,38.3004,沧州市,河北水利电力学院,颗粒物(PM10),56,61,42,32,27,141,,198,188,33,14,7,6,0.3,0.3
2024-06-17T2100,2622A,97.1806,31.1273,昌都市,昌都监测站,,26,9,10,9,7,83,,113,109,17,7,9,9,0.5,0.5
2024-06-17T2100,3719A,97.1714,31.1406,昌都市,昌都会议中心,,32,15,13,6,7,101,,119,115,7,6,5,5,0.3,0.3
2024-06-17T2100,2690A,88.1236,43.8886,昌吉回族自治州,天山天池,,33,9,10,3,4,103,,111,111,5,6,6,7,0.6,0.6
2024-06-17T2100,2692A,87.2717,44.0297,昌吉回族自治州,新区政务中心,,40,14,18,10,9,128,,130,130,9,8,12,10,0.3,0.4
2024-06-17T2100,3613A,87.3095,44.0142,昌吉回族自治州,亚心广场,,39,31,18,7,4,124,,133,132,19,14,9,8,0.2,0.3
2024-06-17T2100,1119A,125.3325,43.9166,长春市,食品厂,,41,41,26,28,12,53,,100,91,36,24,7,7,0.3,0.3
2024-06-17T2100,1120A,125.2863,43.9027,长春市,客车厂,,30,30,22,13,11,40,,102,89,52,22,4,4,0.4,0.3
2024-06-17T2100,1121A,125.2841,43.8463,长春市,邮电学院,,26,26,22,18,10,62,,104,96,28,19,8,7,0.3,0.3
2024-06-17T2100,1122A,125.3716,43.8772,长春市,劳动公园,,35,35,21,12,8,53,,112,98,42,20,5,5,0.3,0.3
2024-06-17T2100,1123A,125.3297,43.8805,长春市,园林处,,30,24,18,21,11,60,,105,95,32,17,8,7,0.4,0.4
2024-06-17T2100,1124A,125.4605,43.79,长春市,净月潭,,19,15,19,3,7,60,,108,98,24,14,6,5,0.1,0.3
2024-06-17T2100,1125A,125.7194,43.515,长春市,甩湾子,,,,,,,,,,,,,,,,
2024-06-17T2100,1126A,125.3863,43.8447,长春市,经开区环卫处,,32,32,23,8,7,39,,112,96,47,20,5,5,0.3,0.3
2024-06-17T2100,1127A,125.245,43.7783,长春市,高新区管委会,,35,24,20,24,9,45,,111,97,44,18,7,8,0.3,0.3
2024-06-17T2100,1128A,125.1761,43.8325,长春市,岱山公园,,27,27,21,11,9,55,,106,94,36,20,5,5,0.3,0.4
2024-06-17T2100,1335A,113.0833,28.2325,长沙市,经开区环保局,,,,19,10,7,,,85,85,11,10,3,3,0.4,0.4
2024-06-17T2100,1336A,112.8872,28.2189,长沙市,高开区环保局,,26,19,16,8,9,81,,103,96,11,8,4,4,0.6,0.5
2024-06-17T2100,1337A,113.0792,28.2053,长沙市,马坡岭,,20,18,20,11,9,62,,94,88,18,10,7,6,0.8,0.6
2024-06-17T2100,1338A,112.9394,28.19,长沙市,湖南师范大学,,23,19,18,12,10,72,,102,93,13,7,3,3,0.7,0.6
2024-06-17T2100,1339A,113.0178,28.1322,长沙市,雨花区环保局,,22,18,18,10,12,70,,95,86,9,5,3,3,0.4,0.6
2024-06-17T2100,1340A,112.9792,28.2597,长沙市,伍家岭,,22,20,20,3,6,69,,90,86,8,9,4,4,0.3,0.3
2024-06-17T2100,1341A,113.0014,28.1944,长沙市,火车新站,,26,26,20,14,8,74,,98,91,16,11,2,2,0.5,0.5
2024-06-17T2100,1342A,112.9844,28.1178,长沙市,天心区环保局,,22,17,18,15,10,68,,94,84,7,5,1,2,0.6,0.5
2024-06-17T2100,1343A,112.8908,28.1308,长沙市,湖南中医药大学,,24,17,18,6,11,75,,97,91,5,3,7,7,0.9,0.8
2024-06-17T2100,1344A,112.9581,28.3611,长沙市,沙坪,,24,12,14,8,8,75,,89,87,2,5,7,7,0.3,0.3
2024-06-17T2100,1727A,113.1147,36.1547,长治市,清华站,,49,32,38,19,30,155,,196,190,16,17,9,10,0.4,0.6
2024-06-17T2100,1728A,113.1031,36.1989,长治市,监测站,臭氧1小时,58,45,46,12,29,166,,202,197,16,21,4,5,0.7,1
2024-06-17T2100,1730A,113.0886,36.2125,长治市,审计局,,,30,38,14,27,169,,206,201,,22,3,4,0.3,0.6
2024-06-17T2100,1731A,113.0844,36.1856,长治市,长治八中,,50,39,52,22,28,160,,193,190,17,16,3,3,0.5,0.7
2024-06-17T2100,2845A,113.1569,36.1911,长治市,德盛苑,,49,31,39,17,30,155,,212,205,15,13,7,8,0.6,0.9
2024-06-17T2100,3568A,113.06,36.0464,长治市,向阳小学,臭氧1小时,70,53,60,24,47,176,,191,190,14,17,3,3,0.7,0.9
2024-06-17T2100,3569A,112.8792,36.3144,长治市,屯留一中,臭氧1小时,67,38,37,20,29,173,,197,192,15,12,10,8,0.6,0.6
2024-06-17T2100,3570A,113.235,36.3489,长治市,潞城四中,,50,47,45,14,45,160,,234,223,17,12,5,7,0.7,0.7
2024-06-17T2100,1854A,111.6975,28.9703,常德市,市二中,,34,25,26,22,21,106,,137,118,6,6,6,6,0.4,0.4
2024-06-17T2100,1857A,111.7158,29.1456,常德市,白鹤山,,,,,,,,,,,,,,,,
2024-06-17T2100,3138A,111.7153,29.0289,常德市,武陵区永安,,32,27,28,17,20,101,,130,113,7,4,6,6,0.3,0.3
2024-06-17T2100,3139A,111.6892,28.9881,常德市,鼎城区玉霞,,35,27,28,18,20,110,,140,118,7,6,3,4,0.5,0.5
2024-06-17T2100,3140A,111.6625,29.0531,常德市,武陵区长庚,,35,27,26,24,20,105,,134,112,8,6,8,7,0.5,0.6
2024-06-17T2100,1196A,119.9633,31.762,常州市,市监测站,臭氧1小时,74,45,31,26,21,179,,198,198,14,15,6,8,0.4,0.5
2024-06-17T2100,1200A,119.9468,31.7069,常州市,武进监测站,臭氧1小时,82,,33,28,17,185,,193,193,7,9,24,13,0.6,0.7
2024-06-17T2100,1201A,119.9255,31.9087,常州市,安家,,49,49,36,32,19,99,,178,165,42,17,9,10,0.6,0.6
2024-06-17T2100,3002A,119.9805,31.8174,常州市,行政中心,臭氧1小时,53,47,30,22,16,162,,190,188,15,14,7,8,0.4,0.5
2024-06-17T2100,3003A,120.0522,31.7748,常州市,经开区,臭氧1小时,54,41,30,18,15,163,,192,190,22,15,7,7,0.8,0.6
2024-06-17T2100,3010A,119.9025,31.7964,常州市,钟楼,臭氧1小时,75,28,29,14,16,180,,202,202,12,14,9,7,0.7,0.7
2024-06-17T2100,3429A,119.8598,31.7066,常州市,武进经发区,臭氧1小时,53,41,33,22,17,162,,186,183,20,12,8,9,0.5,0.6
2024-06-17T2100,3430A,119.5826,31.7245,常州市,金坛城区,臭氧1小时,68,37,34,24,18,174,,203,201,12,9,6,6,0.6,0.7
2024-06-17T2100,2220A,120.4318,41.5881,朝阳市,西梁,臭氧1小时,106,54,44,25,17,211,,203,203,15,13,13,11,0.7,0.6
2024-06-17T2100,2221A,120.4521,41.5646,朝阳市,河畔小区,,,34,47,30,18,,,220,220,12,14,12,12,0.7,0.7
2024-06-17T2100,2222A,120.4176,41.5648,朝阳市,八里堡,臭氧1小时,98,58,50,26,17,198,,208,207,20,16,12,11,0.9,0.8
2024-06-17T2100,2223A,120.3806,41.5969,朝阳市,农业园区,臭氧1小时,80,54,43,33,23,184,,213,212,28,15,12,10,0.7,0.7
2024-06-17T2100,1705A,116.6367,23.6719,潮州市,西园路,,27,27,25,12,10,24,,26,,13,10,2,1,0.5,0.4
2024-06-17T2100,3026A,116.6183,23.6608,潮州市,市政府,,35,35,24,9,9,30,,47,41,10,7,5,5,0.9,0.8
2024-06-17T2100,4036A,116.6461,23.6761,潮州市,金山,,19,19,21,7,8,32,,51,44,14,10,6,6,0.8,0.6
2024-06-17T2100,2472A,113.0073,25.9061,郴州市,马头岭,,18,18,15,7,5,37,,52,46,10,6,22,8,0.5,0.5
2024-06-17T2100,2473A,113.0116,25.8226,郴州市,市职中,,33,33,11,17,6,8,,56,39,18,6,7,9,0.6,0.5
2024-06-17T2100,2474A,113.0161,25.8001,郴州市,兴隆步行街,,39,39,12,16,8,16,,58,42,23,6,13,13,0.8,0.6
2024-06-17T2100,2475A,113.0383,25.8071,郴州市,市审计局,,18,15,7,11,6,29,,56,43,15,6,52,14,0.4,0.3
2024-06-17T2100,2476A,113.0348,25.7759,郴州市,市环保局,,26,26,7,15,5,26,,54,40,19,10,34,16,0.5,0.4
2024-06-17T2100,1431A,103.9728,30.7236,成都市,金泉两河,,28,28,22,3,7,81,,132,131,13,5,2,1,0.4,0.4
2024-06-17T2100,1432A,104.176,30.6872,成都市,十里店,,44,43,22,19,9,140,,165,164,22,18,4,4,0.5,0.5
2024-06-17T2100,1433A,104.079,30.5706,成都市,三瓦窑,,43,43,28,26,13,101,,176,172,16,10,2,2,0.5,0.4
2024-06-17T2100,1434A,104.1114,30.63,成都市,沙河铺,,45,41,24,30,11,143,,178,178,23,13,2,2,0.5,0.4
2024-06-17T2100,1437A,104.0786,30.6531,成都市,君平街,,42,42,20,28,10,93,,172,168,19,13,1,1,0.4,0.4
2024-06-17T2100,1438A,103.613,31.0283,成都市,灵岩寺,,,,,,,,,,,,,,,,
2024-06-17T2100,2880A,104.0239,30.65639,成都市,大石西路,,44,44,24,19,8,95,,161,160,15,10,3,3,0.5,0.5
2024-06-17T2100,3136A,104.2725,30.5589,成都市,龙泉驿区区政府,,38,19,12,7,8,119,,164,160,10,9,3,3,0.4,0.4
2024-06-17T2100,3357A,104.0106,30.6931,成都市,金博路,,25,25,14,8,7,74,,136,132,16,8,2,2,0.4,0.4
2024-06-17T2100,3359A,104.0578,30.5225,成都市,华阳,,41,41,22,19,16,103,,179,175,22,12,2,2,0.8,0.8
2024-06-17T2100,3487A,104.2394,30.5319,成都市,车城东七路,,,18,17,13,12,,,175,175,,9,,3,,0.5
2024-06-17T2100,3488A,104.3853,30.7453,成都市,青白江技师分院,,35,24,13,12,8,112,,160,154,12,13,5,5,0.3,0.5
2024-06-17T2100,3489A,104.0789,30.4072,成都市,科学城,,45,26,22,13,11,143,,191,190,17,12,4,3,0.5,0.4
2024-06-17T2100,4011A,103.8506,30.6947,成都市,光华大道三段,,25,20,19,3,5,77,,126,124,11,6,3,3,0.6,0.5
2024-06-17T2100,1062A,117.9531,40.9081,承德市,铁路,颗粒物(PM10),53,55,44,29,19,151,,174,162,31,21,10,13,0.4,0.4
2024-06-17T2100,1063A,117.9392,40.9763,承德市,中国银行,细颗粒物(PM2.5),52,50,43,36,18,133,,171,157,17,22,6,14,0.5,0.5
2024-06-17T2100,1064A,117.9503,40.928,承德市,开发区,臭氧1小时,62,45,46,25,19,169,,177,170,14,20,8,12,0.4,0.4
2024-06-17T2100,1065A,117.8051,40.9655,承德市,文化中心,颗粒物(PM10),61,71,66,34,26,146,,165,163,17,22,18,46,0.6,0.7
2024-06-17T2100,1066A,117.9268,41.0026,承德市,离宫,颗粒物(PM10),56,62,39,30,22,139,,152,149,7,8,26,12,0.5,0.4
2024-06-17T2100,2314A,117.47,30.6618,池州市,池州学院,,46,36,36,19,18,146,,158,155,10,8,6,6,0.5,0.5
2024-06-17T2100,3237A,117.4918,30.6617,池州市,展览馆,,43,33,31,14,19,137,,156,152,10,8,4,4,0.4,0.5
2024-06-17T2100,3333A,117.5627,30.695,池州市,第八中学,,47,28,31,13,17,148,,154,152,11,12,3,4,0.2,0.3
2024-06-17T2100,3334A,117.5038,30.6243,池州市,第十二中学,,42,24,30,18,18,132,,158,153,15,12,6,6,0.4,0.5
2024-06-17T2100,1744A,118.9233,42.2816,赤峰市,松山一中,,47,47,26,13,12,55,,108,89,56,34,10,10,0.9,0.7
2024-06-17T2100,1745A,118.9576,42.2728,赤峰市,哈达街,,46,46,25,17,8,67,,104,87,33,22,11,10,0.6,0.5
2024-06-17T2100,1746A,118.8788,42.2554,赤峰市,天义路,,23,22,12,9,6,71,,118,94,40,18,7,6,0.6,0.2
2024-06-17T2100,3058A,119.2658,42.0353,赤峰市,银河街,,40,40,45,17,25,108,,145,118,24,23,14,18,0.4,0.4
2024-06-17T2100,3286A,118.9359,42.3147,赤峰市,桥北物流园区,颗粒物(PM10),53,56,25,16,13,71,,113,98,41,30,6,6,0.6,0.5
2024-06-17T2100,2521A,107.3476,22.4136,崇左市,市环保局江州分局,,37,37,24,19,13,48,,88,76,10,7,5,5,0.5,0.4
2024-06-17T2100,2522A,107.3702,22.3707,崇左市,城南新区,,23,17,23,15,11,73,,87,78,5,6,4,4,0.6,0.5
2024-06-17T2100,2298A,118.3093,32.3153,滁州市,老年大学,,50,38,40,21,22,160,,202,200,27,19,9,10,0.7,0.6
2024-06-17T2100,2299A,118.3244,32.2786,滁州市,人大宾馆,,50,40,38,17,25,159,,202,200,25,23,9,10,0.9,0.7
2024-06-17T2100,3207A,118.3118,32.3038,滁州市,市政府原办公楼,臭氧1小时,52,38,39,22,25,161,,201,199,26,20,9,10,0.9,0.7
2024-06-17T2100,3331A,118.3267,32.2634,滁州市,图书馆,,50,46,39,20,23,157,,201,200,24,17,10,11,0.9,0.7
2024-06-17T2100,2605A,101.5482,25.0441,楚雄彝族自治州,州环境监测站,,25,18,20,12,17,77,,80,80,4,4,4,3,0.6,0.6
2024-06-17T2100,2606A,101.538,25.0492,楚雄彝族自治州,市经济开发区,,39,39,22,16,16,72,,74,74,7,6,4,4,0.7,0.7
2024-06-17T2100,2548A,107.5277,31.2827,达州市,达州职业技术学院,,26,23,26,3,7,81,,99,98,20,16,2,3,0.2,0.2
2024-06-17T2100,2549A,107.5086,31.2186,达州市,市环境监测站,,33,18,30,3,8,103,,110,109,18,24,5,6,0.5,0.6
2024-06-17T2100,2550A,107.4988,31.2132,达州市,凤凰小区,,35,9,26,7,12,111,,117,117,12,21,5,7,0.4,0.5
2024-06-17T2100,2551A,107.5082,31.1986,达州市,达县机关宾馆,,26,12,29,12,13,82,,110,108,29,28,3,5,0.3,0.4
2024-06-17T2100,2552A,107.4644,31.2124,达州市,市政中心,,33,11,37,3,13,104,,116,115,17,27,5,9,0.5,0.7
2024-06-17T2100,2614A,100.1542,25.7054,大理白族自治州,大理市环境监测站,,33,33,30,18,16,82,,83,83,9,8,5,5,0.6,0.6
2024-06-17T2100,2615A,100.2171,25.5811,大理白族自治州,大理古城,,25,17,19,17,12,71,,94,88,14,9,6,6,0.8,0.8
2024-06-17T2100,1109A,121.612,38.9741,大连市,甘井子,臭氧1小时,85,86,56,52,30,188,,208,208,31,20,8,8,0.8,0.7
2024-06-17T2100,1110A,121.565,38.9511,大连市,周水子,臭氧1小时,74,69,47,48,30,179,,194,194,30,21,9,9,0.8,0.7
2024-06-17T2100,1111A,121.5637,38.8845,大连市,星海三站,臭氧1小时,104,92,56,53,32,208,,230,229,26,17,8,9,0.9,0.7
2024-06-17T2100,1112A,121.6302,38.9117,大连市,青泥洼桥,臭氧1小时,100,80,54,46,31,200,,204,204,17,17,10,11,0.8,0.7
2024-06-17T2100,1113A,121.6251,38.8638,大连市,傅家庄,臭氧1小时,127,58,40,47,32,254,,242,242,14,14,12,10,0.8,0.8
2024-06-17T2100,1114A,121.5213,38.8661,大连市,七贤岭,细颗粒物(PM2.5),82,99,59,60,33,165,,211,207,42,19,8,8,0.8,0.6
2024-06-17T2100,1115A,121.2529,38.8061,大连市,旅顺,臭氧1小时,115,66,53,42,31,229,,246,246,23,32,10,11,0.8,0.6
2024-06-17T2100,1116A,121.7485,39.1311,大连市,金州,臭氧1小时,105,86,61,57,37,209,,220,220,22,19,11,12,0.8,0.7
2024-06-17T2100,1117A,121.7811,39.0496,大连市,开发区,臭氧1小时,109,94,56,64,32,217,,218,218,30,26,12,9,0.7,0.6
2024-06-17T2100,1118A,121.9762,39.0631,大连市,双D港,臭氧1小时,103,,50,74,31,205,,232,227,28,20,8,9,0.8,0.7
2024-06-17T2100,1789A,124.81117,46.03138,大庆市,大同区,,21,16,17,12,13,66,,80,77,9,7,5,4,0.2,0.2
2024-06-17T2100,1790A,125.129,46.533,大庆市,龙凤区,,21,19,18,9,12,66,,76,74,14,10,5,6,0.4,0.3
2024-06-17T2100,1791A,124.902,46.408,大庆市,红岗区,,20,14,16,12,11,64,,81,78,10,8,4,5,0.2,0.2
2024-06-17T2100,1792A,125.153,46.586,大庆市,萨尔图区,,21,14,16,6,7,65,,67,67,6,8,6,6,0.2,0.3
2024-06-17T2100,1793A,124.9042,46.6215,大庆市,让胡路区,,40,,21,28,16,59,,76,72,10,6,4,4,0.2,0.1
2024-06-17T2100,3481A,125.141,46.634,大庆市,萨区政府监测点,,21,16,18,3,7,67,,73,72,6,11,5,6,0.1,0.1
2024-06-17T2100,1721A,113.3819,40.1097,大同市,果树场,,,,,,,,,,,,,,,,
2024-06-17T2100,1723A,113.2994,40.0758,大同市,云冈宾馆,颗粒物(PM10),55,59,56,20,20,154,,191,188,33,29,8,12,0.5,0.8
2024-06-17T2100,1724A,113.3444,40.0917,大同市,大同大学,,50,37,44,15,20,159,,184,184,20,25,11,18,0.4,0.6
2024-06-17T2100,1725A,113.2661,40.1269,大同市,安家小村,,,,53,45,18,126,,186,180,42,20,13,16,0.3,0.5
2024-06-17T2100,1726A,113.2711,40.0844,大同市,教育学院,颗粒物(PM10),51,52,66,29,28,139,,198,191,47,38,10,16,0.5,0.8
2024-06-17T2100,3282A,113.3397,40.0597,大同市,大同市卫生学校,,49,33,55,27,24,156,,196,190,26,31,10,13,0.5,0.6
2024-06-17T2100,3565A,113.1367,40.1122,大同市,云冈站,颗粒物(PM10),56,62,56,18,23,145,,194,189,19,31,15,20,0.3,0.4
2024-06-17T2100,3566A,113.1186,40.2556,大同市,图书馆,颗粒物(PM10),55,60,36,21,16,136,,181,177,33,15,12,9,0.5,0.4
2024-06-17T2100,3567A,113.5931,40.0461,大同市,区一中,,42,42,46,14,13,112,,189,179,52,17,8,9,0.5,0.4
2024-06-17T2100,3676A,113.2802,40.0995,大同市,第二人民医院,,,,41,23,27,,,195,195,23,28,10,16,0.5,0.8
2024-06-17T2100,2269A,124.1069,50.4097,大兴安岭地区,科技局,,36,36,17,17,13,21,,49,45,14,4,7,6,0.4,0.3
2024-06-17T2100,3663A,124.1164,50.4278,大兴安岭地区,红旗社区,,18,17,5,12,4,28,,47,44,10,3,6,5,0.4,0.4
2024-06-17T2100,1600A,124.3303,40.0625,丹东市,江湾东路,臭氧1小时,87,53,31,36,19,189,,174,174,12,9,10,7,0.7,0.5
2024-06-17T2100,1601A,124.4256,40.1503,丹东市,临江后街,臭氧1小时,85,,17,33,15,188,,173,173,12,8,10,10,1.0,0.7
2024-06-17T2100,1602A,124.3933,40.1461,丹东市,元宝山,,49,49,32,32,16,156,,146,146,16,15,9,10,0.4,0.4
2024-06-17T2100,1603A,124.3633,40.1092,丹东市,民主桥,臭氧1小时,87,44,31,26,16,189,,168,168,8,6,6,6,0.7,0.5
2024-06-17T2100,3541A,109.5726,19.5167,儋州市,第一中学子站,,15,14,19,8,12,46,,65,60,4,3,6,6,0.4,0.4
2024-06-17T2100,3542A,109.5567,19.5187,儋州市,东坡学校子站,,14,14,20,7,10,44,,65,58,4,3,4,5,0.5,0.5
2024-06-17T2100,2616A,98.5842,24.428,德宏傣族景颇族自治州,德宏州监测站,,26,26,36,14,20,57,,74,72,17,11,6,5,0.9,0.8
2024-06-17T2100,3677A,98.5881,24.4368,德宏傣族景颇族自治州,芒市人民政府综合楼,,19,15,42,13,22,56,,72,70,16,12,24,14,0.7,0.7
2024-06-17T2100,1901A,104.4239,31.1208,德阳市,东山公园,,40,36,21,17,8,128,,142,141,13,8,3,2,0.4,0.4
2024-06-17T2100,1902A,104.3826,31.1317,德阳市,西小区,,35,34,18,21,10,112,,144,140,18,14,3,3,0.5,0.4
2024-06-17T2100,1904A,104.3553,31.1091,德阳市,耐火材料厂,,37,34,20,18,9,117,,156,152,19,15,6,4,0.6,0.5
2024-06-17T2100,3639A,104.4019,31.1244,德阳市,市教育局,,39,33,21,20,9,122,,147,144,16,11,3,3,0.5,0.4
2024-06-17T2100,1622A,116.3032,37.4674,德州市,儿童乐园,臭氧1小时,75,46,45,22,25,180,,195,194,14,10,8,9,0.6,0.6
2024-06-17T2100,1624A,116.2991,37.4451,德州市,监理站,臭氧1小时,79,44,43,14,25,183,,202,201,22,16,10,11,0.5,0.5
2024-06-17T2100,3066A,116.2721,37.4379,德州市,九衢泉纯净水厂,颗粒物(PM10),51,51,52,14,25,156,,195,190,32,21,6,7,0.6,0.6
2024-06-17T2100,3371A,116.3728,37.4403,德州市,开发区人民医院,臭氧1小时,89,48,50,17,22,191,,202,202,8,7,9,10,0.4,0.5
2024-06-17T2100,3372A,116.3572,37.4094,德州市,太阳城中学,臭氧1小时,70,53,55,19,24,176,,204,202,25,19,7,8,0.7,0.6
2024-06-17T2100,3511A,116.5652,37.3319,德州市,陵城艺术中心,臭氧1小时,89,66,52,24,23,191,,204,204,20,19,4,8,0.5,0.6
2024-06-17T2100,2621A,99.7056,27.8317,迪庆藏族自治州,迪庆州站,,25,15,18,9,9,78,,85,83,8,10,11,10,0.4,0.4
2024-06-17T2100,3180A,99.7136,27.8094,迪庆藏族自治州,质量技术监督局,,24,11,16,10,7,75,,81,79,6,11,8,8,0.5,0.5
2024-06-17T2100,2663A,104.6241,35.5734,定西市,东关小学,,42,42,33,25,16,123,,145,141,12,10,6,7,0.2,0.2
2024-06-17T2100,2664A,104.6194,35.5934,定西市,供电公司,,46,46,32,30,20,116,,135,131,12,15,3,3,0.2,0.2
2024-06-17T2100,1389A,113.7547,23.0494,东莞市,莞城梨川,,22,22,21,8,9,35,,63,54,10,10,9,9,0.6,0.7
2024-06-17T2100,1390A,113.7944,23.0128,东莞市,东城石井,,22,22,21,8,9,37,,70,60,13,8,3,3,0.5,0.5
2024-06-17T2100,1391A,113.7383,22.9658,东莞市,南城西平,,20,20,22,6,10,46,,66,57,2,3,2,3,0.5,0.5
2024-06-17T2100,3319A,113.7338,23.0381,东莞市,万江金泰,,20,20,21,7,10,40,,67,57,6,9,4,4,0.6,0.6
2024-06-17T2100,3626A,113.7533,23.0202,东莞市,南城元岭,,18,18,21,8,10,35,,60,51,6,7,6,6,0.7,0.7
2024-06-17T2100,3627A,113.7875,23.0457,东莞市,东城主山,,22,22,23,8,11,35,,64,54,7,6,8,8,0.6,0.6
2024-06-17T2100,1666A,118.6614,37.4309,东营市,市环保局,臭氧1小时,80,39,57,19,27,184,,232,225,13,28,10,22,0.2,0.4
2024-06-17T2100,3036A,118.6904,37.4338,东营市,开发区管委会,臭氧1小时,84,35,61,17,26,187,,223,218,11,29,7,19,0.4,0.3
2024-06-17T2100,3365A,118.5719,37.565,东营市,垦利区民丰路,臭氧1小时,68,56,65,24,29,174,,234,224,27,27,16,15,0.7,0.7
2024-06-17T2100,3498A,118.5055,37.8612,东营市,河口城区,臭氧1小时,87,66,59,24,26,189,,206,203,13,18,7,8,0.6,0.6
2024-06-17T2100,3646A,118.4978,37.4623,东营市,胜利站,臭氧1小时,72,49,58,14,28,177,,228,218,19,26,9,14,0.5,0.6
2024-06-17T2100,3734A,118.35,37.26,东营市,理想之城,臭氧1小时,53,46,61,17,28,162,,223,212,15,28,7,16,0.4,0.6
2024-06-17T2100,1591A,110.0023,39.8129,鄂尔多斯市,综合楼,臭氧1小时,78,61,76,29,23,182,,197,196,26,27,9,14,0.6,0.6
2024-06-17T2100,1592A,109.9486,39.8261,鄂尔多斯市,巴音孟克林场办事处,臭氧1小时,53,46,65,19,23,162,,177,176,23,22,7,12,0.6,0.7
2024-06-17T2100,1593A,109.7736,39.5986,鄂尔多斯市,康泽苑,,50,36,49,12,19,159,,192,186,23,21,11,11,0.5,0.5
2024-06-17T2100,1594A,109.8119,39.5989,鄂尔多斯市,华泰汽车城,,47,29,48,19,22,150,,171,168,19,30,8,10,0.5,0.6
2024-06-17T2100,1595A,109.9734,39.7884,鄂尔多斯市,奥林花园,颗粒物(PM10),54,58,70,22,24,126,,178,171,39,29,5,8,0.6,0.6
2024-06-17T2100,2436A,114.8938,30.3994,鄂州市,市政府,,47,34,60,24,22,150,,171,168,12,12,4,6,0.4,0.7
2024-06-17T2100,2437A,114.8989,30.3714,鄂州市,赵家坝,,43,43,43,23,23,136,,175,168,16,13,8,8,0.5,0.7
2024-06-17T2100,3654A,114.8094,30.4089,鄂州市,精准医疗中心,,49,49,48,24,22,138,,170,161,17,11,7,8,0.6,0.7
2024-06-17T2100,2454A,109.4978,30.2981,恩施土家族苗族自治州,湖北民院,,23,23,22,12,12,64,,74,74,11,12,9,9,0.9,0.7
2024-06-17T2100,2455A,109.4707,30.2798,恩施土家族苗族自治州,州电力总公司,,19,16,16,13,14,50,,68,66,25,18,6,6,0.7,0.7
2024-06-17T2100,3549A,109.5061,30.3772,恩施土家族苗族自治州,龙凤新区,,15,12,16,10,9,41,,68,66,13,12,7,6,0.8,0.7
2024-06-17T2100,2499A,108.3411,21.6158,防城港市,沙万,,31,31,33,14,13,83,,83,79,7,13,4,8,0.6,0.6
2024-06-17T2100,2500A,108.3514,21.7731,防城港市,防城档案局,,24,24,28,14,17,75,,79,78,6,8,4,3,0.7,0.7
2024-06-17T2100,2501A,108.3506,21.6414,防城港市,大海花园,,37,37,32,12,11,84,,82,82,7,8,4,4,0.6,0.6
2024-06-17T2100,1371A,113.1294,23.0067,佛山市,湾梁,,22,22,27,11,13,34,,77,62,12,20,7,7,0.7,0.8
2024-06-17T2100,1372A,113.1083,23.0478,佛山市,华材职中,,19,19,23,13,14,35,,77,62,11,19,6,6,0.3,0.4
2024-06-17T2100,1373A,113.144,23.0453,佛山市,南海气象局,,22,17,35,15,14,33,,80,62,11,18,6,6,0.4,0.5
2024-06-17T2100,1374A,113.2881,22.8094,佛山市,顺德苏岗,,26,26,20,14,13,33,,63,53,9,12,5,4,0.6,0.6
2024-06-17T2100,1376A,112.8383,22.8678,佛山市,高明孔堂,,28,28,28,12,13,46,,61,57,4,15,6,6,0.5,0.6
2024-06-17T2100,1377A,112.8836,23.1588,佛山市,三水监测站,,29,29,26,11,17,25,,65,52,21,30,3,4,0.7,0.8
2024-06-17T2100,1378A,112.867,23.185,佛山市,三水云东海,,27,27,26,12,16,30,,76,60,25,26,3,4,0.6,0.7
2024-06-17T2100,3625A,113.2544,22.7642,佛山市,容桂街道办,,22,22,20,9,12,29,,60,50,19,16,6,6,0.5,0.5
2024-06-17T2100,1280A,119.3903,26.0543,福州市,鼓山,,,,,,,,,,,,,,,,
2024-06-17T2100,1282A,119.2681,26.0504,福州市,师大,,14,14,25,6,7,35,,63,58,16,16,3,3,0.4,0.4
2024-06-17T2100,1283A,119.2984,26.1028,福州市,五四北路,,14,,21,8,10,42,,69,64,13,15,3,3,0.3,0.4
2024-06-17T2100,1284A,119.2648,26.0768,福州市,杨桥西路,,13,13,25,3,8,35,,68,61,16,15,3,3,0.3,0.3
2024-06-17T2100,1285A,119.317,26.0746,福州市,紫阳,,11,,22,3,9,34,,57,52,15,16,2,2,0.4,0.4
2024-06-17T2100,3048A,119.5799,26.0936,福州市,九龙,,15,15,21,3,6,38,,57,54,10,7,4,4,0.2,0.2
2024-06-17T2100,3526A,119.5189,25.9664,福州市,吴航,,11,9,16,3,8,26,,61,51,21,7,3,4,0.4,0.4
2024-06-17T2100,1755A,123.7977,41.8491,抚顺市,望花区,颗粒物(PM10),61,72,53,43,25,168,,203,195,46,36,15,17,1.4,0.8
2024-06-17T2100,1756A,123.9161,41.8822,抚顺市,顺城区,颗粒物(PM10),67,84,61,34,25,144,,208,197,56,41,19,17,0.9,0.9
2024-06-17T2100,1757A,124.0436,41.8611,抚顺市,东洲区,颗粒物(PM10),73,96,80,38,32,107,,198,185,44,33,19,17,1.1,0.6
2024-06-17T2100,1758A,123.9247,41.8642,抚顺市,新抚区,臭氧1小时,53,54,51,34,25,162,,193,187,29,31,12,11,1.0,0.9
2024-06-17T2100,1759A,124.0972,41.8961,抚顺市,大伙房水库,颗粒物(PM10),60,70,57,17,23,73,,185,166,43,25,8,14,0.4,0.8
2024-06-17T2100,1760A,123.7086,41.8391,抚顺市,沈抚新城,臭氧1小时,99,36,47,34,25,199,,209,203,27,28,14,17,1.1,0.8
2024-06-17T2100,2376A,116.2127,28.0814,抚州市,桐源党溪,,31,31,21,18,10,39,,93,78,10,4,6,7,0.2,0.2
2024-06-17T2100,2377A,116.3544,27.9831,抚州市,市站,,22,22,18,14,8,65,,84,70,6,6,4,5,0.7,0.6
2024-06-17T2100,2378A,116.3565,27.963,抚州市,血防站,,21,21,23,11,9,57,,80,64,10,7,3,3,0.7,0.6
2024-06-17T2100,2379A,116.3564,28.0007,抚州市,采茶剧团,,24,24,16,13,8,63,,83,69,8,5,2,4,0.7,0.6
2024-06-17T2100,2380A,116.385,27.9647,抚州市,医学分院,,22,22,18,9,6,62,,81,67,6,5,4,4,0.8,0.7
2024-06-17T2100,2207A,121.6094,41.998,阜新市,工业园区,臭氧1小时,92,64,47,17,35,193,,186,186,24,27,9,13,0.7,0.6
2024-06-17T2100,2208A,121.6697,42.0279,阜新市,长青街,,,,47,,20,,,174,174,30,23,11,14,0.9,0.8
2024-06-17T2100,2209A,121.6673,42.0705,阜新市,农业园区,臭氧1小时,69,48,40,24,30,175,,162,162,25,24,9,15,0.6,0.5
2024-06-17T2100,2210A,121.6717,42.0224,阜新市,东苑,臭氧1小时,65,61,51,31,23,172,,173,173,31,23,15,15,0.8,0.6
2024-06-17T2100,2211A,121.6506,42.0498,阜新市,玉龙新城,臭氧1小时,74,53,54,22,20,179,,175,175,24,25,9,14,0.8,0.8
2024-06-17T2100,2301A,115.8277,32.8929,阜阳市,市监测站,臭氧1小时,77,59,44,22,28,181,,199,199,14,16,8,8,0.4,0.4
2024-06-17T2100,2303A,115.8554,32.8605,阜阳市,开发区,臭氧1小时,89,58,41,21,22,191,,204,204,18,16,6,7,0.4,0.4
2024-06-17T2100,2875A,115.784,32.8892,阜阳市,阜阳职业技术学院,臭氧1小时,99,57,46,18,21,199,,206,206,12,13,6,7,0.4,0.4
2024-06-17T2100,3468A,115.7901,32.8613,阜阳市,市规划展馆,臭氧1小时,78,46,46,20,28,182,,200,200,19,16,4,5,0.4,0.4
2024-06-17T2100,3469A,115.836,32.9183,阜阳市,枣园社区,臭氧1小时,80,30,51,23,27,184,,204,204,19,17,5,7,0.5,0.5
2024-06-17T2100,2669A,102.9099,34.9841,甘南藏族自治州,州政府,,26,18,20,16,15,83,,116,108,6,10,4,5,0.8,0.7
2024-06-17T2100,3380A,102.8914,34.9617,甘南藏族自治州,甘肃民族师范学院,,29,29,22,19,12,68,,118,109,25,15,8,8,0.6,0.6
2024-06-17T2100,2570A,101.9603,30.0475,甘孜藏族自治州,水桥子,,19,19,8,3,6,42,,90,75,30,10,3,3,0.5,0.3
2024-06-17T2100,3065A,101.9533,29.9972,甘孜藏族自治州,州环保局,,25,11,9,10,6,25,,88,70,50,17,2,2,0.3,0.2
2024-06-17T2100,3414A,115.8347,28.932,赣江新区,桑海产业园,,24,24,14,10,9,48,,101,84,40,16,8,9,0.4,0.3
2024-06-17T2100,2362A,114.9017,25.9149,赣州市,通天岩,,,,,,,,,,,,,,,,
2024-06-17T2100,2363A,114.9367,25.8664,赣州市,地委,,29,29,15,14,9,24,,50,45,24,8,4,9,1.1,1.1
2024-06-17T2100,2364A,114.9461,25.8481,赣州市,气象台,,29,29,15,15,10,21,,46,42,23,10,5,4,0.6,0.5
2024-06-17T2100,2365A,114.9322,25.8333,赣州市,市图书馆,,,22,14,15,7,33,,45,43,13,7,,6,0.8,0.8
2024-06-17T2100,2366A,114.8905,25.8471,赣州市,华坚鞋城,,32,32,20,17,11,25,,51,41,13,8,1,10,0.6,0.5
2024-06-17T2100,3109A,115.0093,25.8613,赣州市,赣县区卫计委,,38,38,16,20,8,28,,47,43,19,12,8,7,0.6,0.6
2024-06-17T2100,2683A,106.2319,36.1417,固原市,马园,颗粒物(PM10),65,79,30,8,7,116,,137,134,21,30,4,5,0.6,0.6
2024-06-17T2100,2684A,106.2792,36.0022,固原市,监测站,,40,36,20,8,11,126,,142,141,10,17,6,5,0.4,0.4
2024-06-17T2100,2685A,106.2375,36.0211,固原市,新区,,40,23,31,8,9,128,,141,141,8,16,5,5,0.3,0.4
2024-06-17T2100,3522A,106.2177,35.9959,固原市,原州区十五小,,39,24,21,11,11,124,,144,142,11,11,5,5,0.4,0.4
2024-06-17T2100,2543A,106.6308,30.5278,广安市,小平旧居,,,,,,,,,,,,,,,,
2024-06-17T2100,2544A,106.6303,30.4576,广安市,市委,,28,16,31,11,16,88,,110,109,9,10,8,8,0.4,0.5
2024-06-17T2100,2545A,106.6271,30.4663,广安市,友谊中学,,29,20,24,12,17,92,,112,110,11,12,6,6,0.5,0.5
2024-06-17T2100,2547A,106.6388,30.4551,广安市,广电花园,,28,13,27,13,17,88,,109,107,10,11,10,10,0.4,0.4
2024-06-17T2100,2902A,106.6351,30.4865,广安市,北辰小学,,27,15,31,14,17,85,,109,106,10,10,11,10,0.5,0.4
2024-06-17T2100,2523A,105.8945,32.4535,广元市,黑石坡,,29,21,12,13,7,90,,96,95,9,7,14,13,0.2,0.2
2024-06-17T2100,2524A,105.821,32.4444,广元市,老城,,37,37,14,8,7,39,,114,102,41,12,5,4,0.3,0.2
2024-06-17T2100,2526A,105.8628,32.4287,广元市,监测站,,32,32,16,20,8,86,,118,114,8,9,4,5,0.4,0.4
2024-06-17T2100,3617A,105.8047,32.4166,广元市,经开区,,25,25,16,11,8,62,,121,114,26,10,5,4,0.6,0.4
2024-06-17T2100,1345A,113.2347,23.1423,广州市,广雅中学,,26,26,28,13,16,39,,89,75,19,26,4,4,0.6,0.6
2024-06-17T2100,1346A,113.2612,23.105,广州市,市五中,,,,29,,20,50,,94,80,12,20,4,4,0.7,0.6
2024-06-17T2100,1348A,113.3478,23.0916,广州市,广东商学院,,,30,27,23,15,,,91,82,24,26,3,3,0.5,0.4
2024-06-17T2100,1349A,113.4332,23.1047,广州市,市八十六中,,25,25,27,8,13,16,,68,55,37,33,3,3,0.6,0.6
2024-06-17T2100,1350A,113.3505,22.9483,广州市,番禺中学,,24,24,25,14,13,40,,87,75,15,21,6,6,0.6,0.6
2024-06-17T2100,1351A,113.2146,23.3916,广州市,花都师范,,31,31,27,13,16,33,,104,87,24,28,5,6,0.6,0.6
2024-06-17T2100,1352A,113.2597,23.1331,广州市,市监测站,,22,22,30,11,16,39,,86,73,15,24,4,4,0.4,0.4
2024-06-17T2100,1353A,113.5618,23.312,广州市,九龙镇镇龙,,29,29,25,14,15,26,,70,62,24,23,7,6,0.3,0.4
2024-06-17T2100,1354A,113.2765,23.1544,广州市,麓湖,,29,29,29,17,17,40,,84,73,16,19,3,2,0.3,0.4
2024-06-17T2100,1355A,113.443,23.3035,广州市,帽峰山森林公园,,24,24,23,11,12,26,,84,71,26,19,2,2,0.6,0.6
2024-06-17T2100,2846A,113.3221,23.1322,广州市,体育西,,31,31,35,18,18,38,,89,76,18,23,4,4,0.6,0.6
2024-06-17T2100,3298A,113.5717,23.5491,广州市,从化街口,,20,20,23,9,13,42,,80,72,12,18,7,7,0.6,0.7
2024-06-17T2100,3299A,113.3472,23.3692,广州市,白云竹料,,34,34,27,13,13,25,,93,81,34,24,4,4,0.7,0.7
2024-06-17T2100,3300A,113.2981,23.237,广州市,白云嘉禾,,32,32,33,13,16,23,,90,74,36,31,5,5,0.8,0.9
2024-06-17T2100,3301A,113.4256,23.1716,广州市,黄埔科学城,,26,26,28,8,14,15,,70,57,34,29,7,6,0.6,0.7
2024-06-17T2100,3302A,113.3942,23.0483,广州市,番禺大学城,,27,27,22,9,11,24,,75,61,23,24,5,5,0.7,0.6
2024-06-17T2100,3303A,113.4922,22.8168,广州市,南沙黄阁,,28,28,27,9,12,33,,60,55,13,12,5,5,0.6,0.6
2024-06-17T2100,3304A,113.5342,22.7896,广州市,南沙街,,21,21,23,3,9,31,,51,47,12,11,6,7,0.5,0.5
2024-06-17T2100,3443A,113.2902,23.5544,广州市,花都梯面,,34,34,29,11,12,38,,104,91,23,20,4,4,0.6,0.7
2024-06-17T2100,3445A,113.7858,23.7478,广州市,从化良口,,18,18,16,8,8,37,,57,53,9,12,5,4,0.6,0.6
2024-06-17T2100,3446A,113.8051,23.2614,广州市,增城荔城,,21,21,23,10,14,35,,70,60,14,16,4,4,0.5,0.6
2024-06-17T2100,2505A,109.568,23.1478,贵港市,德智高中,,,,,,,,,,,,,,,,
2024-06-17T2100,2506A,109.6047,23.0666,贵港市,江南子站,颗粒物(PM10),74,97,42,47,23,26,,62,50,34,15,8,9,1.1,0.7
2024-06-17T2100,2507A,109.6014,23.0948,贵港市,贵城子站,细颗粒物(PM2.5),62,59,43,44,24,36,,55,44,22,17,10,9,1.2,0.8
2024-06-17T2100,2508A,109.5669,23.1065,贵港市,荷城子站,,48,48,39,27,16,29,,51,41,28,16,10,12,1.1,0.6
2024-06-17T2100,3405A,109.5886,23.1172,贵港市,新世纪学校,颗粒物(PM10),51,51,37,35,21,28,,54,45,25,12,12,12,1.0,0.8
2024-06-17T2100,1439A,106.6899,26.5998,贵阳市,马鞍山,,20,9,7,3,1,61,,78,66,16,10,4,5,0.5,0.5
2024-06-17T2100,1440A,106.6971,26.5694,贵阳市,市环保站,,22,12,8,12,6,69,,84,79,24,15,4,4,0.8,0.8
2024-06-17T2100,1441A,106.6243,26.6266,贵阳市,鉴湖路,,21,14,8,3,2,65,,74,73,4,6,3,3,0.5,0.4
2024-06-17T2100,1442A,106.7487,26.6343,贵阳市,燕子冲,,21,6,4,3,3,67,,79,74,6,7,5,5,0.6,0.6
2024-06-17T2100,1443A,106.6555,26.4365,贵阳市,碧云窝,,25,14,13,3,1,79,,85,82,12,9,6,5,0.6,0.4
2024-06-17T2100,1444A,106.694,26.5161,贵阳市,中院村,,26,14,10,3,2,82,,86,85,12,11,5,5,0.6,0.4
2024-06-17T2100,1445A,106.7109,26.6027,贵阳市,红边门,,26,,9,12,10,82,,87,84,11,11,4,4,0.6,0.6
2024-06-17T2100,1446A,106.7164,26.5699,贵阳市,新华路,,26,7,7,3,7,82,,83,81,9,11,6,6,0.5,0.5
2024-06-17T2100,1447A,106.674,26.5424,贵阳市,太慈桥,,24,9,5,7,3,76,,79,78,13,9,4,4,0.4,0.3
2024-06-17T2100,1552A,106.805,26.3003,贵阳市,桐木岭,,,,,,,,,,,,,,,,
2024-06-17T2100,1862A,110.4144,25.3167,桂林市,电子科大尧山校区,,16,6,17,3,10,51,,54,54,4,4,3,6,0.4,0.5
2024-06-17T2100,1863A,110.2819,25.2697,桂林市,监测站,,20,,13,10,11,63,,60,60,13,9,4,5,0.9,0.8
2024-06-17T2100,1864A,110.3089,25.2708,桂林市,龙隐路小学,,20,,16,10,10,62,,54,54,9,10,5,4,0.7,0.7
2024-06-17T2100,1865A,110.2869,25.2178,桂林市,八中,,20,9,12,3,5,61,,54,54,15,11,4,4,0.6,0.6
2024-06-17T2100,3403A,110.1764,25.2381,桂林市,创业大厦,,20,7,9,3,6,64,,60,60,7,6,6,6,0.5,0.5
2024-06-17T2100,3531A,110.296,25.1253,桂林市,旅游学院,,20,6,7,3,5,62,,59,59,7,7,7,6,0.5,0.5
2024-06-17T2100,2674A,100.2561,34.4714,果洛藏族自治州,玛沁县大武镇,,38,12,15,12,11,119,,126,125,13,15,7,8,0.4,0.4
2024-06-17T2100,1129A,126.5422,45.755,哈尔滨市,岭北,,23,10,9,3,6,71,,90,82,13,10,9,8,0,0.1
2024-06-17T2100,1130A,126.561,45.8167,哈尔滨市,松北商大,,18,18,19,3,5,50,,76,65,20,15,5,5,0.4,0.3
2024-06-17T2100,1131A,126.979,45.5419,哈尔滨市,阿城会宁,,40,40,22,6,9,53,,87,73,22,18,20,9,0.5,0.4
2024-06-17T2100,1132A,126.599,45.7222,哈尔滨市,南岗学府路,,20,19,21,7,4,61,,86,77,12,9,7,7,0.4,0.4
2024-06-17T2100,1133A,126.689,45.7733,哈尔滨市,太平宏伟公园,,24,24,18,3,7,55,,88,76,20,14,2,6,0.4,0.4
2024-06-17T2100,1134A,126.635,45.7667,哈尔滨市,道外承德广场,,24,24,17,6,20,58,,85,76,17,16,9,9,0.6,0.5
2024-06-17T2100,1135A,126.685,45.7319,哈尔滨市,香坊红旗大街,,19,17,17,6,7,60,,88,77,12,11,6,7,0.4,0.3
2024-06-17T2100,1136A,126.6411,45.7258,哈尔滨市,动力和平路,,19,17,16,3,5,60,,87,75,16,14,6,6,0.3,0.3
2024-06-17T2100,1137A,126.593,45.7478,哈尔滨市,道里建国路,,19,10,16,3,5,58,,83,72,16,13,8,9,0.2,0.2
2024-06-17T2100,1138A,126.615,45.61,哈尔滨市,平房东轻厂,,21,21,17,3,6,50,,86,66,29,18,7,8,0.1,0.1
2024-06-17T2100,1139A,126.595,45.9855,哈尔滨市,呼兰师专,,24,24,25,3,5,55,,74,65,14,11,6,6,0.3,0.3
2024-06-17T2100,1140A,126.6206,45.6842,哈尔滨市,省农科院,,19,18,15,3,4,59,,85,75,17,15,8,7,0.3,0.3
2024-06-17T2100,2688A,93.5128,42.8172,哈密市,地区监测站,,41,34,48,15,20,129,,138,138,13,12,3,4,0.2,0.2
2024-06-17T2100,2689A,93.4961,42.8328,哈密市,哈密师范学校,颗粒物(PM10),62,74,44,14,16,127,,144,142,15,14,4,5,0.5,0.5
2024-06-17T2100,2671A,100.9048,36.9639,海北藏族自治州,海晏县西海镇,,37,26,18,16,16,116,,136,132,6,12,14,14,0.3,0.4
2024-06-17T2100,3867A,102.0738,36.5056,海东市,平安区公安北苑,,38,22,29,6,15,121,,134,129,11,13,5,7,0.3,0.4
2024-06-17T2100,1409A,110.576,19.9507,海口市,东寨港,,,,,,,,,,,,,,,,
2024-06-17T2100,1410A,110.3232,20.0574,海口市,海南大学,,24,24,24,16,13,35,,87,68,20,8,6,5,0.4,0.4
2024-06-17T2100,1411A,110.283,20.0053,海口市,秀英海南医院,,20,,26,14,15,26,,76,58,20,8,6,6,0.3,0.3
2024-06-17T2100,1412A,110.338,19.9969,海口市,海南师范大学,,22,,27,15,13,33,,80,61,12,8,6,6,0.4,0.4
2024-06-17T2100,1413A,110.33,20.0356,海口市,龙华路环保局宿舍,,20,,25,14,13,30,,80,61,19,8,7,6,0.3,0.3
2024-06-17T2100,3539A,110.5111,19.9736,海口市,桂林洋子站,,,15,23,8,13,,,69,56,8,4,6,6,0.2,0.3
2024-06-17T2100,2673A,100.6188,36.2866,海南藏族自治州,共和县恰卜恰镇,,38,37,21,3,11,119,,133,130,16,16,15,14,0.4,0.5
2024-06-17T2100,2676A,97.3731,37.3753,海西蒙古族藏族自治州,德令哈市,,46,18,14,17,10,145,,138,138,16,9,10,10,0.6,0.5
2024-06-17T2100,1048A,114.5302,36.6116,邯郸市,东污水处理厂,,,45,62,22,45,,,142,142,11,21,1,2,0.3,0.6
2024-06-17T2100,1049A,114.4918,36.5713,邯郸市,矿院,臭氧1小时,53,34,56,17,36,162,,194,190,12,17,4,6,0.5,0.7
2024-06-17T2100,1050A,114.484,36.6133,邯郸市,丛台公园,,49,36,56,19,35,156,,171,169,4,4,3,5,0.3,0.6
2024-06-17T2100,3458A,114.7895,36.5593,邯郸市,香泉濮院小区,臭氧1小时,73,60,54,21,31,178,,188,188,11,8,2,3,0.3,0.5
2024-06-17T2100,3579A,114.50634,36.77178,邯郸市,永年区实验高中,,,,59,,38,,,141,,,14,,6,,0.9
2024-06-17T2100,3580A,114.20016,36.44293,邯郸市,峰峰矿区临水派出所,臭氧1小时,54,43,58,11,34,163,,207,202,6,7,5,6,0.6,0.8
2024-06-17T2100,2634A,106.9893,33.1842,汉中市,汉川机床厂子校,,26,24,22,13,15,82,,128,122,9,6,3,4,0.4,0.4
2024-06-17T2100,2635A,107.0154,33.0706,汉中市,市监测站,,34,18,27,8,14,107,,120,118,8,9,6,8,0.8,0.8
2024-06-17T2100,2636A,107.0089,33.1138,汉中市,鑫源开发区,,36,21,28,12,14,115,,130,127,6,13,8,9,0.4,0.5
2024-06-17T2100,2637A,107.007,33.0323,汉中市,南郑大河坎水厂,,30,16,25,13,15,93,,121,117,11,8,8,8,0.7,0.6
2024-06-17T2100,1223A,120.2072,30.2111,杭州市,滨江,,44,23,22,14,12,138,,159,158,13,11,4,4,0.5,0.4
2024-06-17T2100,1224A,120.0633,30.2747,杭州市,西溪,,35,23,20,20,16,112,,155,151,16,10,6,6,0.5,0.5
2024-06-17T2100,1226A,120.3461,30.3153,杭州市,下沙,,41,36,28,21,13,129,,163,160,29,11,6,5,0.4,0.4
2024-06-17T2100,1227A,120.1269,30.2456,杭州市,卧龙桥,,29,27,25,20,16,78,,148,136,18,10,4,5,0.6,0.5
2024-06-17T2100,1228A,120.1903,30.2692,杭州市,浙江农大,,42,25,23,17,16,132,,151,150,18,15,6,6,0.4,0.4
2024-06-17T2100,1230A,120.1197,30.3119,杭州市,和睦小学,,43,25,22,18,15,136,,162,160,19,12,4,4,0.5,0.4
2024-06-17T2100,1231A,120.3019,30.4183,杭州市,临平镇,,32,32,24,19,14,100,,156,146,36,11,5,5,0.5,0.4
2024-06-17T2100,1232A,120.2697,30.1819,杭州市,城厢镇,,44,20,19,16,14,138,,156,156,12,10,5,5,0.5,0.5
2024-06-17T2100,1233A,120.0883,30.1808,杭州市,云栖,,30,30,23,14,12,64,,157,138,22,12,6,6,0.5,0.4
2024-06-17T2100,3557A,119.9464,30.0494,杭州市,镇二中,,,26,20,19,12,,,158,157,19,12,6,7,0.5,0.5
2024-06-17T2100,3558A,119.7183,30.2367,杭州市,市府大楼,,48,27,23,20,16,151,,174,173,16,12,6,6,0.6,0.6
2024-06-17T2100,3656A,120.1556,30.2864,杭州市,消防大队,,39,29,25,22,16,124,,146,144,20,12,6,6,0.7,0.7
2024-06-17T2100,1270A,117.1959,31.7848,合肥市,明珠广场,臭氧1小时,54,36,44,19,22,163,,186,185,20,19,8,10,0.2,0.3
2024-06-17T2100,1271A,117.3072,31.8764,合肥市,三里街,,49,44,43,22,18,154,,183,177,25,22,6,8,0.4,0.4
2024-06-17T2100,1272A,117.2588,31.8707,合肥市,琥珀山庄,臭氧1小时,75,31,39,17,18,180,,198,195,11,17,5,7,0.6,0.6
2024-06-17T2100,1273A,117.1604,31.9052,合肥市,董铺水库,,48,34,43,22,18,151,,165,163,13,15,2,3,0.4,0.4
2024-06-17T2100,1274A,117.25,31.8571,合肥市,长江中路,臭氧1小时,65,46,47,26,22,172,,188,186,15,20,6,8,0.6,0.6
2024-06-17T2100,1275A,117.266,31.9436,合肥市,庐阳区,臭氧1小时,73,41,42,24,22,178,,185,182,14,21,8,10,0.3,0.3
2024-06-17T2100,1276A,117.336,31.8586,合肥市,瑶海区,,46,46,40,18,18,142,,182,176,25,16,9,11,0.3,0.4
2024-06-17T2100,1277A,117.3027,31.7964,合肥市,包河区,臭氧1小时,63,34,36,14,17,170,,184,184,11,23,6,8,0.4,0.5
2024-06-17T2100,1278A,117.2776,31.7385,合肥市,滨湖新区,臭氧1小时,65,29,33,19,19,172,,179,179,7,11,7,8,0.4,0.4
2024-06-17T2100,1279A,117.1318,31.8403,合肥市,高新区,臭氧1小时,54,31,35,22,18,163,,184,182,13,15,8,10,0.6,0.6
2024-06-17T2100,3464A,117.3803,31.9147,合肥市,高教基地,,50,44,33,20,17,160,,170,168,14,12,7,8,0.4,0.4
2024-06-17T2100,3614A,79.924,37.0877,和田地区,地区环保局,颗粒物(PM10),116,182,192,36,47,114,,123,123,6,13,7,8,0.5,0.6
2024-06-17T2100,3615A,79.9131,37.113,和田地区,市环保局,颗粒物(PM10),89,128,172,38,56,115,,122,122,10,31,6,8,0.4,0.6
2024-06-17T2100,2516A,108.2011,24.715,河池市,东仁乐园,,39,,30,27,16,21,,41,35,4,2,50,6,0.7,0.7
2024-06-17T2100,2517A,108.0497,24.6947,河池市,市环保站,,16,16,21,6,8,35,,47,47,12,13,8,8,0.6,0.6
2024-06-17T2100,2518A,108.0983,24.6989,河池市,市疾控中心,,12,12,22,6,11,30,,46,45,16,18,6,6,0.6,0.6
2024-06-17T2100,1696A,114.6778,23.7569,河源市,源西,,31,31,49,17,17,29,,74,68,30,20,4,4,0.7,0.6
2024-06-17T2100,1697A,114.6944,23.7586,河源市,东埔,,46,46,43,10,11,42,,76,71,16,18,6,6,0.6,0.6
2024-06-17T2100,1698A,114.6892,23.7233,河源市,老城,,25,25,21,10,12,35,,79,72,17,12,5,5,0.6,0.5
2024-06-17T2100,1718A,115.4208,35.2464,菏泽市,气象局,臭氧1小时,85,61,42,22,23,188,,200,198,17,14,5,4,0.3,0.2
2024-06-17T2100,1719A,115.4747,35.2375,菏泽市,市政协,臭氧1小时,89,53,39,28,23,191,,196,195,14,9,4,3,0.2,0.2
2024-06-17T2100,3374A,115.5564,35.0891,菏泽市,定陶老年大学,臭氧1小时,60,48,38,22,18,168,,184,183,19,14,5,4,0.2,0.3
2024-06-17T2100,3647A,115.4702,35.2706,菏泽市,菏泽医专,臭氧1小时,79,57,35,20,17,183,,191,191,14,10,4,3,0.4,0.4
2024-06-17T2100,2514A,111.5264,24.4172,贺州市,环保小区,,21,,21,13,8,65,,54,54,6,8,6,7,0.5,0.5
2024-06-17T2100,2515A,111.5608,24.4078,贺州市,政协大楼,,25,,24,17,11,67,,57,57,8,10,6,7,0.5,0.5
2024-06-17T2100,3534A,111.4744,24.4553,贺州市,西湾,,24,24,18,7,8,57,,52,52,12,13,8,8,0.4,0.5
2024-06-17T2100,2385A,114.17,35.9019,鹤壁市,市监测站,,50,49,56,30,34,159,,186,185,15,15,6,7,0.7,0.7
2024-06-17T2100,2386A,114.2956,35.7511,鹤壁市,市交警支队,臭氧1小时,68,53,52,12,32,174,,197,195,17,14,7,8,0.4,0.6
2024-06-17T2100,2387A,114.2878,35.7306,鹤壁市,迎宾馆,臭氧1小时,72,,52,35,37,177,,200,198,23,20,6,8,0.4,0.6
2024-06-17T2100,3474A,114.2617,35.6822,鹤壁市,大新区,,49,39,46,16,27,154,,188,184,24,22,5,7,0.6,0.7
2024-06-17T2100,3596A,114.1572,35.9603,鹤壁市,南山宾馆,臭氧1小时,55,52,54,25,42,164,,192,192,9,13,8,7,0.7,0.7
2024-06-17T2100,2244A,130.2537,47.3416,鹤岗市,哈啤分公司,,25,25,17,13,9,22,,79,51,4,4,13,15,0.3,0.3
2024-06-17T2100,2245A,130.2684,47.3086,鹤岗市,斯达机电,,23,23,15,3,7,26,,81,50,8,7,12,12,0.3,0.3
2024-06-17T2100,2246A,130.3114,47.3388,鹤岗市,东山纸板厂,,23,23,14,3,6,8,,82,44,12,7,16,17,0.4,0.3
2024-06-17T2100,2247A,130.1097,47.3382,鹤岗市,五号水库,,17,17,16,9,8,25,,88,61,4,6,9,10,0.3,0.2
2024-06-17T2100,2263A,127.4833,50.2524,黑河市,交通局,,32,32,19,18,12,26,,68,43,7,6,7,6,0.5,0.4
2024-06-17T2100,2264A,127.5144,50.2341,黑河市,环保局,,33,33,18,13,14,30,,69,46,8,6,3,3,0.4,0.3
2024-06-17T2100,2265A,127.5291,50.2472,黑河市,大黑河岛,,32,,15,22,15,46,,97,71,10,13,6,5,0.5,0.5
2024-06-17T2100,1074A,115.6838,37.7541,衡水市,电机北厂,臭氧1小时,83,33,36,33,30,186,,195,195,8,8,5,4,0.4,0.4
2024-06-17T2100,1075A,115.6303,37.7316,衡水市,市监测站,臭氧1小时,53,44,49,24,27,162,,193,188,15,12,2,2,0.5,0.6
2024-06-17T2100,3188A,115.6683,37.7217,衡水市,市城管局,臭氧1小时,70,53,48,18,32,176,,196,194,14,11,4,5,0.3,0.4
2024-06-17T2100,3459A,115.5989,37.5491,衡水市,地表水厂,颗粒物(PM10),59,68,60,16,24,140,,197,189,36,18,4,5,0.3,0.3
2024-06-17T2100,2456A,112.5003,26.9167,衡阳市,原169医院,,12,10,16,8,9,36,,52,48,16,10,3,4,0.7,0.7
2024-06-17T2100,2457A,112.6194,26.9258,衡阳市,衡阳化工总厂,,16,12,15,8,5,51,,58,54,6,5,6,6,0.6,0.5
2024-06-17T2100,2458A,112.6211,26.8956,衡阳市,珠晖区环保局,,15,11,16,10,9,44,,56,52,13,7,4,5,0.7,0.7
2024-06-17T2100,2459A,112.6197,26.8733,衡阳市,市委党校,,20,9,13,3,7,62,,59,59,5,7,5,7,0.5,0.5
2024-06-17T2100,2460A,112.6006,26.8919,衡阳市,市监测站,,17,17,17,9,10,52,,60,58,8,6,6,8,0.7,0.6
2024-06-17T2100,2461A,112.5664,26.9056,衡阳市,真空机电公司,,14,11,16,9,8,44,,52,50,8,8,5,6,0.8,0.8
2024-06-17T2100,3399A,112.6703,26.882,衡阳市,师范学院,,18,,15,11,7,57,,59,59,7,6,6,8,0.7,0.6
2024-06-17T2100,2608A,103.3772,23.3993,红河哈尼族彝族自治州,污水处理厂,颗粒物(PM10),55,60,20,21,16,56,,71,63,8,6,5,4,0.4,0.4
2024-06-17T2100,2609A,103.3861,23.35,红河哈尼族彝族自治州,监测站,,32,30,17,22,11,56,,68,62,11,8,12,7,0.5,0.5
2024-06-17T2100,3038A,103.3758,23.368,红河哈尼族彝族自治州,州图书馆,,31,31,21,14,8,61,,69,62,5,5,2,2,0.4,0.4
2024-06-17T2100,1090A,111.6507,40.7517,呼和浩特市,呼市一监,颗粒物(PM10),51,51,46,25,19,139,,189,178,20,22,6,10,0.4,0.5
2024-06-17T2100,1091A,111.6572,40.8033,呼和浩特市,小召,,47,44,46,13,16,150,,177,170,27,31,6,7,0.4,0.4
2024-06-17T2100,1094A,111.7516,40.8369,呼和浩特市,如意水处理厂,,46,46,45,13,16,114,,177,166,46,34,6,7,0.5,0.5
2024-06-17T2100,1095A,111.7276,40.8062,呼和浩特市,二十九中,,44,41,48,24,16,138,,187,179,35,31,4,5,0.6,0.5
2024-06-17T2100,1096A,111.5512,40.7866,呼和浩特市,工大金川校区,颗粒物(PM10),65,79,46,21,16,114,,179,165,49,33,7,9,0.4,0.4
2024-06-17T2100,1097A,111.717,40.7612,呼和浩特市,化肥厂生活区,颗粒物(PM10),58,66,55,16,17,121,,185,174,45,28,10,12,0.6,0.5
2024-06-17T2100,3698A,111.5968,40.8178,呼和浩特市,红旗小学,颗粒物(PM10),64,78,49,22,18,97,,189,176,79,36,5,6,0.5,0.4
2024-06-17T2100,3699A,111.6518,40.8389,呼和浩特市,海东办,,49,41,45,15,21,155,,186,180,22,31,6,8,0.6,0.6
2024-06-17T2100,2192A,119.7594,49.2261,呼伦贝尔市,区环保局,,44,44,30,24,13,61,,79,76,22,13,4,4,0.4,0.3
2024-06-17T2100,3061A,119.7512,49.1577,呼伦贝尔市,国华电力东,,22,21,18,9,10,68,,86,84,11,6,4,4,0.3,0.2
2024-06-17T2100,1250A,120.0751,30.8669,湖州市,城西水厂,,,,7,16,18,142,,171,169,17,12,4,4,0.4,0.4
2024-06-17T2100,2873A,120.0875,30.8955,湖州市,仁皇山新区,,44,26,29,17,19,140,,170,168,21,16,6,6,0.5,0.6
2024-06-17T2100,2907A,120.1844,30.8596,湖州市,吴兴区站,,40,27,29,17,19,127,,158,156,16,10,7,6,0.5,0.4
2024-06-17T2100,3562A,120.4148,30.8538,湖州市,南浔区站,,39,21,25,12,19,122,,156,154,15,10,3,4,0.4,0.4
2024-06-17T2100,1607A,120.9092,40.7136,葫芦岛市,龙港区,,,33,65,21,35,,,233,230,19,16,8,8,0.6,0.7
2024-06-17T2100,1608A,120.8392,40.7514,葫芦岛市,化工街,颗粒物(PM10),67,83,72,29,30,147,,215,198,40,29,11,13,0.9,0.9
2024-06-17T2100,1609A,120.8341,40.7073,葫芦岛市,新区,臭氧1小时,75,,63,28,40,180,,228,218,34,28,5,6,0.8,0.8
2024-06-17T2100,1610A,120.8695,40.7677,葫芦岛市,东城区,臭氧1小时,59,58,63,40,39,167,,261,242,39,29,9,10,1.0,0.9
2024-06-17T2100,2482A,109.5981,27.5721,怀化市,林科所,,38,6,10,3,7,121,,114,114,3,2,5,4,0.6,0.7
2024-06-17T2100,2483A,109.9453,27.5444,怀化市,河西地税局,,30,8,11,3,7,95,,88,88,7,7,10,10,0.8,0.8
2024-06-17T2100,2484A,109.9781,27.5342,怀化市,市四医院,,25,,9,3,9,79,,74,74,4,5,4,4,0.9,0.8
2024-06-17T2100,2485A,109.9972,27.5578,怀化市,监测楼,,27,6,13,3,10,84,,79,79,4,4,8,8,0.7,0.7
2024-06-17T2100,2486A,110.0394,27.583,怀化市,市委党校,,23,6,13,3,12,72,,76,75,6,5,4,4,0.7,0.7
2024-06-17T2100,1210A,119.036,33.5981,淮安市,钵池山,,38,31,30,17,18,119,,132,130,22,19,8,8,0.4,0.4
2024-06-17T2100,1211A,119.007,33.575,淮安市,北京南路,,39,39,32,18,18,110,,130,128,17,12,8,7,0.4,0.5
2024-06-17T2100,1212A,118.989,33.6067,淮安市,市监测站,,36,36,29,19,14,112,,128,126,18,16,9,8,0.5,0.5
2024-06-17T2100,1213A,119.135,33.5039,淮安市,楚州区监测站,颗粒物(PM10),52,54,50,18,19,96,,123,120,26,16,6,5,0.4,0.4
2024-06-17T2100,1214A,119.0186,33.6297,淮安市,淮阴区监测站,,38,36,33,18,20,119,,132,130,22,18,8,7,0.4,0.4
2024-06-17T2100,3426A,118.8755,33.2894,淮安市,新华书店,,42,34,28,21,19,132,,144,144,17,13,7,7,0.5,0.4
2024-06-17T2100,2282A,116.8004,33.975,淮北市,监测站,颗粒物(PM10),54,58,44,15,22,153,,189,188,12,9,6,6,0.3,0.4
2024-06-17T2100,2283A,116.8091,33.9007,淮北市,烈山区政府,颗粒物(PM10),65,79,58,24,24,148,,192,190,16,9,8,6,0.5,0.5
2024-06-17T2100,3330A,116.8873,33.9836,淮北市,杜集区检察院,臭氧1小时,57,60,54,16,26,165,,197,197,9,11,6,7,0.3,0.5
2024-06-17T2100,4017A,116.7923,33.9535,淮北市,市博物馆,颗粒物(PM10),58,66,45,14,21,158,,197,196,8,7,5,5,0.4,0.6
2024-06-17T2100,2277A,116.8305,32.7727,淮南市,潘集区政府,颗粒物(PM10),59,67,56,23,27,135,,194,186,12,16,6,8,0.3,0.3
2024-06-17T2100,2278A,117.0067,32.6524,淮南市,师范学院,颗粒物(PM10),51,51,53,21,25,135,,179,172,15,12,9,11,0.3,0.3
2024-06-17T2100,2279A,116.8569,32.5951,淮南市,谢家集区政府,颗粒物(PM10),53,56,47,18,15,153,,187,180,16,12,64,14,0.4,0.3
2024-06-17T2100,2280A,116.8281,32.633,淮南市,八公山区政府,颗粒物(PM10),55,60,55,21,24,161,,191,185,12,11,6,5,0.4,0.4
2024-06-17T2100,2281A,116.6325,32.6201,淮南市,焦岗湖风景区管理处,,38,28,50,6,20,120,,133,133,21,23,9,10,0.3,0.3
2024-06-17T2100,2894A,117.0566,32.6531,淮南市,经济技术开发区消防队,,38,32,43,17,18,121,,182,171,19,14,4,6,0.3,0.4
2024-06-17T2100,3329A,117.0108,32.5893,淮南市,山南新区,颗粒物(PM10),53,56,54,14,17,150,,185,180,14,11,7,8,0.4,0.5
2024-06-17T2100,2446A,114.9028,30.4742,黄冈市,职工中心,,50,48,43,24,27,157,,181,179,16,8,10,7,0.6,0.6
2024-06-17T2100,2929A,114.8858,30.4519,黄冈市,红卫路,,48,42,42,21,28,151,,187,180,21,12,10,8,0.4,0.5
2024-06-17T2100,3398A,114.9136,30.4445,黄冈市,市林业局,,50,50,42,30,31,142,,179,173,26,10,7,5,0.5,0.5
2024-06-17T2100,2672A,102.0199,35.5102,黄南藏族自治州,同仁县隆务镇,,33,17,21,10,8,105,,114,112,1,2,12,10,0.6,0.6
2024-06-17T2100,2295A,118.2903,29.6963,黄山市,延安路89号,,32,32,29,3,9,89,,116,108,7,3,6,5,0.5,0.5
2024-06-17T2100,2296A,118.327,29.7178,黄山市,黄山东路89号,,35,19,17,7,8,110,,114,112,3,4,5,5,0.3,0.3
2024-06-17T2100,2297A,118.1371,30.2756,黄山市,黄山区政府5号楼,,46,46,32,17,17,62,,128,117,13,7,6,6,0.4,0.4
2024-06-17T2100,2423A,115.0601,30.2313,黄石市,沈家营,,45,42,53,23,24,144,,167,156,18,18,7,9,0.6,0.6
2024-06-17T2100,2424A,115.0817,30.2006,黄石市,陈家湾,,43,39,54,24,27,136,,180,171,11,12,4,5,0.6,0.6
2024-06-17T2100,2426A,114.8988,30.2019,黄石市,铁山,颗粒物(PM10),52,53,49,28,26,93,,168,148,17,11,19,10,0.7,0.5
2024-06-17T2100,2427A,115.0307,30.2092,黄石市,团城山,臭氧1小时,75,47,48,17,21,180,,194,191,11,9,13,10,0.6,0.6
2024-06-17T2100,3149A,115.0235,30.1578,黄石市,笔架山北路,,46,42,52,19,18,146,,170,167,16,6,8,6,0.7,0.7
2024-06-17T2100,1392A,114.4183,23.0528,惠州市,河南岸金山湖子站,,22,22,21,9,12,32,,70,60,11,8,4,8,0.3,0.4
2024-06-17T2100,1393A,114.4053,23.0822,惠州市,下埔横江三路子站,,24,24,23,10,11,39,,74,65,12,10,6,6,0.5,0.6
2024-06-17T2100,1394A,114.4103,23.1142,惠州市,江北云山西路子站,,23,23,22,12,11,44,,80,70,6,7,7,7,0.5,0.5
2024-06-17T2100,1395A,114.4645,22.7833,惠州市,惠阳区承修路船湖子站,,20,20,19,11,10,37,,57,50,9,9,1,1,0.5,0.5
2024-06-17T2100,1396A,114.5317,22.7422,惠州市,大亚湾管委会子站,,18,18,19,3,8,53,,64,59,5,7,4,4,0.7,0.7
2024-06-17T2100,3314A,114.4338,22.8134,惠州市,惠阳秋长,,27,27,25,7,10,47,,76,66,6,7,5,5,0.4,0.4
2024-06-17T2100,3452A,114.6517,22.775,惠州市,大亚湾霞涌,,16,16,17,8,6,45,,58,56,7,8,3,3,0.5,0.5
2024-06-17T2100,2240A,130.9762,45.3001,鸡西市,环保局,,24,24,22,9,6,53,,70,64,13,9,9,7,0.4,0.4
2024-06-17T2100,2243A,130.9429,45.3039,鸡西市,第一中学,,34,34,22,3,9,44,,81,69,13,6,14,8,0.2,0.3
2024-06-17T2100,3707A,131.0207,45.3073,鸡西市,欧美日汽修厂,,34,34,23,6,10,49,,72,64,10,9,6,6,0.4,0.5
2024-06-17T2100,3709A,130.9967,45.3106,鸡西市,市政设施管理处,,35,35,28,13,9,41,,74,61,12,13,7,7,0.4,0.4
2024-06-17T2100,2367A,114.9754,27.0803,吉安市,红声器材厂,,22,16,17,6,6,68,,65,65,16,13,10,11,0.4,0.5
2024-06-17T2100,2368A,114.9658,27.0999,吉安市,市森林工业局,,20,16,15,14,7,61,,62,62,14,11,11,11,0.4,0.5
2024-06-17T2100,2369A,114.99,27.1312,吉安市,市环境监测站,,22,15,15,10,8,68,,68,67,14,10,11,12,0.8,0.5
2024-06-17T2100,2370A,115.0093,27.0968,吉安市,青原区法院,,,,17,7,7,64,,60,60,13,15,14,14,0.4,0.4
2024-06-17T2100,1772A,126.54,43.8622,吉林市,哈达湾,,33,33,20,13,10,61,,116,103,40,14,12,6,0.4,0.4
2024-06-17T2100,1773A,126.5844,43.8358,吉林市,东局子,,22,22,23,12,12,55,,116,103,36,17,6,5,0.4,0.4
2024-06-17T2100,1774A,126.5052,43.8245,吉林市,电力学院,,26,26,23,12,11,72,,117,107,22,14,10,9,0.4,0.4
2024-06-17T2100,1775A,126.6133,43.8972,吉林市,江北,,41,41,27,14,11,40,,108,93,38,19,7,8,0.6,0.5
2024-06-17T2100,1776A,126.555,43.8306,吉林市,江南公园,,27,21,20,8,13,46,,111,96,53,19,8,5,0.6,0.6
2024-06-17T2100,1778A,126.7061,43.7133,吉林市,丰满,,,,,,,,,,,,,,,,
2024-06-17T2100,2868A,126.4739,43.953,吉林市,九站,,48,48,28,17,13,18,,111,88,73,22,7,7,0.6,0.6
2024-06-17T2100,1299A,116.9862,36.6114,济南市,科干所,臭氧1小时,83,46,48,17,24,186,,186,186,17,19,6,9,0.3,0.4
2024-06-17T2100,1300A,116.9376,36.665,济南市,农科所,,49,42,49,17,18,156,,195,188,30,27,7,9,0.4,0.5
2024-06-17T2100,1301A,117.1265,36.6734,济南市,开发区,臭氧1小时,88,37,45,20,24,190,,197,197,18,21,7,9,0.3,0.4
2024-06-17T2100,1303A,117.0624,36.6868,济南市,省种子仓库,臭氧1小时,85,41,56,22,27,188,,194,193,20,23,5,8,0.5,0.5
2024-06-17T2100,1304A,116.9489,36.6447,济南市,机床二厂,臭氧1小时,78,61,69,17,20,182,,199,196,23,26,9,11,0.4,0.4
2024-06-17T2100,1305A,117.0495,36.663,济南市,市监测站,臭氧1小时,99,34,51,20,25,199,,202,202,23,23,10,12,0.4,0.4
2024-06-17T2100,1306A,116.7675,36.5484,济南市,长清党校,臭氧1小时,80,51,56,24,30,184,,203,202,18,17,7,10,0.6,0.6
2024-06-17T2100,1616A,117.6795,36.229,济南市,技术学院,臭氧1小时,90,29,36,17,20,192,,200,199,15,23,9,10,0.6,0.7
2024-06-17T2100,1961A,117.532,36.6868,济南市,东山小学,,,,50,,21,,,159,,,27,,12,,0.9
2024-06-17T2100,3059A,117.7161,36.2049,济南市,泰兴公司,臭氧1小时,70,34,37,22,19,176,,192,190,15,27,7,10,0.4,0.5
2024-06-17T2100,3064A,117.6867,36.2171,济南市,莱芜战役纪念馆,臭氧1小时,80,39,40,17,15,184,,194,193,14,22,8,9,0.5,0.6
2024-06-17T2100,3494A,117.1673,36.9782,济南市,济阳区政府,颗粒物(PM10),61,71,75,27,31,158,,212,204,34,29,6,11,0.4,0.6
2024-06-17T2100,3495A,117.1171,36.63,济南市,锦屏中学,,,42,41,17,23,,,200,200,16,11,9,8,0.6,0.3
2024-06-17T2100,3682A,116.9814,36.6819,济南市,济南四建,臭氧1小时,63,41,50,24,25,170,,195,191,20,20,8,9,0.6,0.7
2024-06-17T2100,1653A,116.6251,35.4302,济宁市,火炬城,臭氧1小时,82,42,46,24,28,185,,201,200,13,13,9,10,0.6,0.7
2024-06-17T2100,1655A,116.5491,35.4042,济宁市,电化厂,臭氧1小时,97,54,56,24,30,197,,217,214,14,15,6,8,0.4,0.6
2024-06-17T2100,3500A,116.5814,35.3707,济宁市,北湖一中,臭氧1小时,88,34,45,27,26,190,,211,210,15,16,6,8,0.6,0.6
2024-06-17T2100,3501A,116.8249,35.5593,济宁市,服务中心,臭氧1小时,79,54,50,24,34,183,,192,192,14,19,4,4,0.5,0.7
2024-06-17T2100,3678A,116.5907,35.4054,济宁市,市第七中学,臭氧1小时,94,42,47,19,26,195,,212,211,12,13,6,6,0.5,0.6
2024-06-17T2100,2255A,130.2751,46.8028,佳木斯市,佳纺,,18,18,18,8,8,30,,82,59,9,7,4,5,0.4,0.4
2024-06-17T2100,2256A,130.3995,46.8307,佳木斯市,发电厂,,12,12,14,7,7,38,,83,61,2,6,3,4,0.4,0.4
2024-06-17T2100,2257A,130.3258,46.7975,佳木斯市,环保局,,17,17,17,3,8,25,,83,57,13,7,5,6,0.6,0.5
2024-06-17T2100,2258A,130.3648,46.8032,佳木斯市,十一中,,12,11,15,3,8,38,,87,62,5,9,5,5,0.3,0.4
2024-06-17T2100,2259A,130.3794,46.7588,佳木斯市,四丰,,10,10,9,3,6,19,,77,52,16,5,1,1,0.6,0.5
2024-06-17T2100,1252A,120.7436,30.778,嘉兴市,清河小学,,33,12,20,7,10,104,,154,145,15,13,4,5,0.7,0.7
2024-06-17T2100,1253A,120.726,30.7478,嘉兴市,嘉兴学院,,29,17,21,8,12,91,,143,133,16,12,4,4,0.4,0.5
2024-06-17T2100,2872A,120.7846,30.7525,嘉兴市,南湖区残联,,34,12,18,3,13,108,,161,150,9,8,5,6,0.4,0.4
2024-06-17T2100,3407A,120.6916,30.7739,嘉兴市,秀洲住建,,33,,14,8,11,105,,159,150,10,7,5,5,0.5,0.6
2024-06-17T2100,1945A,98.2908,39.7711,嘉峪关市,气象局,,35,19,65,17,19,109,,120,117,13,12,5,13,0.3,0.3
2024-06-17T2100,2884A,98.2672,39.7978,嘉峪关市,酒钢宾馆,,36,19,75,12,22,114,,132,127,12,13,14,26,0.4,0.3
2024-06-17T2100,3248A,98.2643,39.7724,嘉峪关市,雄关区,,34,28,57,16,17,107,,122,119,16,13,9,11,0.5,0.5
2024-06-17T2100,1383A,113.1064,22.6058,江门市,北街,,,,32,1,12,33,,54,46,8,12,2,2,0.4,0.5
2024-06-17T2100,1384A,113.0731,22.5835,江门市,西区,,27,27,26,16,14,38,,61,51,7,12,6,6,0.4,0.6
2024-06-17T2100,1385A,113.0219,22.5311,江门市,圭峰西,,20,20,26,7,10,33,,58,48,9,9,2,3,0.3,0.4
2024-06-17T2100,1386A,113.0828,22.5947,江门市,东湖,,18,18,23,7,11,39,,61,53,8,12,6,6,0.4,0.5
2024-06-17T2100,3311A,113.1075,22.5647,江门市,江海富民,,38,38,42,9,14,38,,60,53,8,13,4,4,0.5,0.5
2024-06-17T2100,3449A,113.05,22.4667,江门市,新会银湖,,18,18,20,8,11,40,,60,51,3,6,4,3,0.4,0.5
2024-06-17T2100,1828A,113.227,35.2125,焦作市,市环保局,,,,29,29,25,161,,176,176,18,9,1,5,0.4,0.4
2024-06-17T2100,1830A,113.1992,35.2590,焦作市,影视城,,,,,,,,,,,,,,,,
2024-06-17T2100,3169A,113.2725,35.2067,焦作市,太极体育中心,,,,52,,32,,,116,,,17,,10,,0.7
2024-06-17T2100,3335A,113.3137,35.2641,焦作市,马村街道办,,50,46,35,16,22,160,,172,172,12,11,3,3,0.4,0.5
2024-06-17T2100,3336A,113.2465,35.2373,焦作市,焦作技师学院,颗粒物(PM10),51,52,40,22,22,159,,167,166,16,14,1,3,0.5,0.7
2024-06-17T2100,3477A,113.1656,35.2539,焦作市,中站许衡医院,二氧化氮,53,44,30,16,24,35,,162,147,105,17,5,8,0.5,0.6
2024-06-17T2100,3981A,113.2449,35.1803,焦作市,原李万街道办,,46,33,29,27,20,145,,162,161,21,11,5,5,0.5,0.5
2024-06-17T2100,1708A,116.3701,23.5345,揭阳市,新兴,,20,20,26,10,10,30,,47,41,11,11,3,3,0.6,0.6
2024-06-17T2100,1709A,116.3264,23.5443,揭阳市,西马,,32,32,26,14,10,32,,50,44,6,6,2,2,0.7,0.8
2024-06-17T2100,1710A,116.3611,23.5626,揭阳市,东兴,,14,14,30,6,9,36,,53,46,7,11,1,2,0.7,0.7
2024-06-17T2100,1711A,116.4151,23.5294,揭阳市,渔湖,,18,18,30,6,5,37,,49,43,8,12,3,4,0.6,0.6
2024-06-17T2100,3320A,116.403,23.5699,揭阳市,曲溪,,,21,25,10,11,,,52,49,,11,4,5,0.5,0.6
2024-06-17T2100,1944A,102.1692,38.5167,金昌市,天庆家园,颗粒物(PM10),54,57,52,27,28,125,,140,134,7,14,32,31,0.5,0.5
2024-06-17T2100,3170A,102.1864,38.5253,金昌市,市委党校,颗粒物(PM10),55,60,61,24,28,117,,131,126,4,13,8,37,0.5,0.8
2024-06-17T2100,4022A,102.1647,38.5371,金昌市,金川区人防中心,颗粒物(PM10),51,52,62,3,21,132,,144,139,4,11,10,16,0.6,0.6
2024-06-17T2100,1262A,119.647,29.077,金华市,十五中,,28,28,12,7,4,74,,117,112,14,8,4,3,0.4,0.4
2024-06-17T2100,1263A,119.686,29.1029,金华市,监测站,,33,33,15,13,7,72,,115,110,15,9,2,2,0.4,0.4
2024-06-17T2100,3659A,119.656,29.1131,金华市,气象局,,25,24,12,6,3,78,,118,114,15,14,5,4,0.4,0.4
2024-06-17T2100,1767A,121.1115,41.0879,锦州市,南山,臭氧1小时,107,62,60,47,37,214,,248,243,19,24,6,11,0.8,0.8
2024-06-17T2100,1768A,121.0533,40.8434,锦州市,开发区,颗粒物(PM10),87,124,96,33,39,168,,251,228,44,33,45,16,1.0,0.9
2024-06-17T2100,1769A,121.1836,41.1119,锦州市,百股街道,,,69,63,29,32,,,252,251,18,32,9,14,1.0,1
2024-06-17T2100,1770A,121.1178,41.1222,锦州市,天安街道,臭氧1小时,92,74,67,32,33,193,,220,216,17,29,6,11,1.1,1.3
2024-06-17T2100,1771A,121.1303,41.1386,锦州市,北湖公园,臭氧1小时,95,64,61,45,37,196,,232,228,14,22,8,14,0.9,1
2024-06-17T2100,2160A,112.85,35.5051,晋城市,自来水公司,臭氧1小时,65,29,35,12,20,172,,188,187,15,14,8,7,0.6,0.8
2024-06-17T2100,2161A,112.8318,35.4936,晋城市,白云商贸,臭氧1小时,70,29,41,14,23,176,,190,190,17,14,8,7,0.6,0.7
2024-06-17T2100,2162A,112.8508,35.4887,晋城市,市环保局,臭氧1小时,64,40,45,12,23,171,,186,186,17,15,8,7,0.5,0.7
2024-06-17T2100,2163A,112.8676,35.4897,晋城市,技术学院,臭氧1小时,60,38,36,7,25,168,,183,183,18,17,6,6,0.6,0.9
2024-06-17T2100,2165A,112.8453,35.546,晋城市,白马寺,,,,,,,,,,,,,,,,
2024-06-17T2100,3620A,112.8271,35.4828,晋城市,泽州一中,臭氧1小时,62,17,31,7,22,169,,178,178,17,14,7,7,0.5,0.8
2024-06-17T2100,2171A,112.7532,37.6945,晋中市,锦纶小区,颗粒物(PM10),59,68,61,31,37,147,,206,197,38,24,10,12,0.7,0.7
2024-06-17T2100,2173A,112.7249,37.7067,晋中市,南都小区,颗粒物(PM10),75,100,59,31,34,158,,212,205,40,19,10,13,0.6,0.7
2024-06-17T2100,2174A,112.6991,37.6982,晋中市,榆次区政府,颗粒物(PM10),70,90,60,39,39,136,,215,205,52,23,10,13,0.9,0.7
2024-06-17T2100,2865A,112.7195,37.6828,晋中市,榆次三中,颗粒物(PM10),70,90,60,41,35,160,,215,207,34,22,10,12,0.7,0.8
2024-06-17T2100,2439A,112.2014,31.0481,荆门市,竹园小学,细颗粒物(PM2.5),52,44,40,36,28,138,,164,161,13,10,11,11,0.7,0.6
2024-06-17T2100,2440A,112.1969,30.9891,荆门市,掇刀,,45,36,35,31,27,133,,158,153,16,13,9,11,0.7,0.6
2024-06-17T2100,2441A,112.2213,31.0386,荆门市,石化一小,,46,46,35,23,21,137,,170,167,16,9,20,19,0.5,0.5
2024-06-17T2100,3012A,112.1849,31.0362,荆门市,西山林语,细颗粒物(PM2.5),55,47,36,39,30,131,,166,162,15,8,8,8,0.3,0.5
2024-06-17T2100,3547A,112.1632,31.0138,荆门市,龙泉中学南校,,40,40,30,24,22,126,,164,159,14,8,9,10,0.7,0.6
2024-06-17T2100,1844A,112.2494,30.3197,荆州市,市图书馆,,39,,27,25,21,124,,130,116,12,12,6,6,0.6,0.6
2024-06-17T2100,1845A,112.2008,30.3544,荆州市,市委党校,,37,30,30,22,18,118,,136,120,13,14,6,6,0.5,0.5
2024-06-17T2100,3194A,112.2747,30.3122,荆州市,管委会,,40,32,32,28,24,124,,131,118,12,11,4,4,0.6,0.5
2024-06-17T2100,3548A,112.1655,30.3364,荆州市,学苑路,,45,35,32,31,27,93,,136,121,22,11,7,7,0.6,0.6
2024-06-17T2100,2342A,117.3102,29.3867,景德镇市,王港中学,,,,,,,,,,,,,,,,
2024-06-17T2100,2343A,117.2117,29.2933,景德镇市,老干部活动中心,,21,16,17,9,11,65,,85,75,7,8,6,6,0.4,0.4
2024-06-17T2100,2344A,117.1894,29.2789,景德镇市,兽医站,,24,12,19,3,10,74,,94,83,5,6,8,5,0.4,0.4
2024-06-17T2100,2345A,117.1547,29.2617,景德镇市,台达陶瓷,,19,19,16,9,10,54,,87,68,15,7,15,7,0.4,0.2
2024-06-17T2100,2346A,117.2461,29.2956,景德镇市,陶研所,,21,16,17,10,6,66,,90,78,5,3,3,4,0.2,0.2
2024-06-17T2100,1803A,115.9872,29.6815,九江市,十里,,33,32,26,23,17,86,,144,130,18,13,10,12,0.5,0.6
2024-06-17T2100,1804A,115.9584,29.7046,九江市,茅山头,,29,29,24,11,16,91,,153,140,17,12,6,9,0.5,0.6
2024-06-17T2100,1805A,115.9877,29.7295,九江市,西园,,32,21,27,15,15,102,,151,139,23,25,10,12,0.6,0.7
2024-06-17T2100,1806A,116.0172,29.6547,九江市,五七二七厂,,,20,21,15,11,,,146,140,10,10,8,10,0.6,0.7
2024-06-17T2100,1808A,115.9114,29.6038,九江市,综合工业园,,29,,25,14,16,92,,149,137,15,17,11,11,0.8,0.8
2024-06-17T2100,1809A,116.0721,29.7535,九江市,石化总厂,,31,31,29,13,20,94,,147,136,22,18,11,11,0.6,0.7
2024-06-17T2100,1810A,115.9773,29.5698,九江市,庐山气象台,,34,16,20,8,16,108,,140,119,1,2,6,8,1.0,0.9
2024-06-17T2100,3190A,116.0254,29.6994,九江市,外国语学校,,30,27,24,21,16,86,,146,135,20,17,14,21,0.7,0.7
2024-06-17T2100,2658A,98.5061,39.7443,酒泉市,仓门街子站,,33,29,83,10,12,104,,130,126,21,20,11,14,0.3,0.3
2024-06-17T2100,2659A,98.4989,39.7256,酒泉市,油田生活基地,,35,22,79,10,12,112,,128,125,17,17,8,12,0.2,0.3
2024-06-17T2100,2698A,76.0072,39.4467,喀什地区,巡警大队,颗粒物(PM10),349,459,87,31,10,110,,119,118,7,21,3,3,0.1,0.2
2024-06-17T2100,2699A,75.9755,39.4694,喀什地区,吾办,颗粒物(PM10),299,419,84,41,24,106,,117,116,9,17,2,3,0.2,0.4
2024-06-17T2100,4027A,75.9483,39.4689,喀什地区,老干局,颗粒物(PM10),425,525,106,21,16,113,,120,120,4,18,4,6,0.2,0.3
2024-06-17T2100,1824A,114.3389,34.7781,开封市,肿瘤医院,,48,48,38,16,15,142,,164,162,13,10,3,3,0.5,0.4
2024-06-17T2100,1826A,114.2885,34.7965,开封市,世纪星幼儿园,臭氧1小时,54,55,34,22,18,163,,183,182,13,8,3,3,0.5,0.4
2024-06-17T2100,3147A,114.3438,34.8106,开封市,龙亭公园,,,,,,,,,,,,,,,,
2024-06-17T2100,3210A,114.3644,34.7964,开封市,汴京公园,"颗粒物(PM10),臭氧1小时",52,53,40,21,27,161,,178,178,12,9,1,2,0.7,0.6
2024-06-17T2100,3473A,114.2485,34.8306,开封市,技师学院,臭氧1小时,74,48,35,18,16,179,,185,185,12,11,4,3,0.6,0.5
2024-06-17T2100,3592A,114.4644,34.7556,开封市,祥符区生态环境局,,45,42,34,21,20,142,,171,168,27,19,2,2,0.5,0.5
2024-06-17T2100,1951A,84.895,45.6094,克拉玛依市,长征新村,,38,14,8,8,5,120,,128,128,4,5,8,8,0.1,0.1
2024-06-17T2100,1952A,84.8988,45.5893,克拉玛依市,南林小区,,39,11,10,7,12,122,,130,130,5,6,11,10,0.2,0.1
2024-06-17T2100,1954A,84.905,44.3396,克拉玛依市,独山子区,,38,25,34,8,11,119,,119,119,10,7,9,10,0.3,0.3
2024-06-17T2100,1955A,85.6979,46.098,克拉玛依市,乌尔禾区商贸楼,,36,6,9,3,5,115,,120,120,4,5,8,8,0.2,0.3
2024-06-17T2100,3612A,85.1045,45.6899,克拉玛依市,白碱滩区新站,,42,,14,25,15,133,,132,132,2,4,9,9,0.0,0.1
2024-06-17T2100,2697A,76.1454,39.7142,克孜勒苏柯尔克孜自治州,市人民政府,,36,26,45,11,20,114,,126,125,3,5,7,12,0.4,0.4
2024-06-17T2100,3665A,76.1658,39.7157,克孜勒苏柯尔克孜自治州,克州文化中心,,46,46,42,10,19,115,,129,128,1,3,9,11,0.3,0.3
2024-06-17T2100,1450A,102.8204,24.8886,昆明市,呈贡新区,,30,23,27,21,17,72,,84,82,11,11,5,5,0.7,0.7
2024-06-17T2100,1451A,102.6251,24.9608,昆明市,西山森林公园,,,,,,,,,,,,,,,,
2024-06-17T2100,1452A,102.7252,25.0902,昆明市,龙泉镇,,35,35,24,14,11,63,,81,79,15,17,7,6,0.7,0.7
2024-06-17T2100,1453A,102.7266,25.0375,昆明市,东风东路,,26,26,24,14,12,59,,74,72,16,15,1,1,0.6,0.7
2024-06-17T2100,1454A,102.6742,25.0669,昆明市,金鼎山,,35,35,29,13,12,63,,82,81,19,17,16,14,0.5,0.5
2024-06-17T2100,1455A,102.6644,25.0401,昆明市,碧鸡广场,,33,33,23,12,13,50,,76,74,27,17,3,3,0.5,0.5
2024-06-17T2100,3179A,102.7494,25.0119,昆明市,官渡区博物馆,,24,21,22,13,11,76,,87,86,9,10,8,8,0.4,0.5
2024-06-17T2100,3375A,102.8017,24.8336,昆明市,青年创业园,,29,29,23,17,15,70,,85,83,12,10,7,8,0.5,0.5
2024-06-17T2100,3550A,102.7997,24.9786,昆明市,昆明学院,,24,23,22,15,15,76,,88,86,12,12,9,9,0.6,0.7
2024-06-17T2100,3551A,102.5967,24.6736,昆明市,晋宁区生态环境分局,,32,30,25,22,14,72,,80,79,9,9,2,2,0.7,0.7
2024-06-17T2100,3552A,102.6678,24.9856,昆明市,云天化总部,,23,20,19,13,14,71,,76,76,7,8,2,1,0.6,0.7
2024-06-17T2100,1456A,91.1319,29.6514,拉萨市,八廓街,,44,10,12,3,9,139,,140,139,14,14,8,9,0.3,0.3
2024-06-17T2100,1457A,91.1221,29.6747,拉萨市,市环保局,,44,16,13,6,7,138,,137,137,13,16,7,8,0.4,0.4
2024-06-17T2100,1458A,91.0874,29.6475,拉萨市,区监测站,,44,14,10,6,7,140,,136,136,12,16,6,7,0.2,0.3
2024-06-17T2100,1459A,91.1774,29.6541,拉萨市,西藏大学,,44,15,9,3,6,139,,142,142,10,7,6,7,0.3,0.3
2024-06-17T2100,1460A,90.9798,29.6588,拉萨市,区辐射站,,42,10,15,9,9,134,,132,132,12,16,7,8,0.3,0.4
2024-06-17T2100,1461A,91.0834,29.6292,拉萨市,拉萨火车站,,,139,16,13,7,,,136,136,13,15,8,8,0.2,0.2
2024-06-17T2100,2520A,109.2203,23.7256,来宾市,来宾技工学校,,14,9,26,9,17,42,,51,47,9,8,5,5,0.7,0.8
2024-06-17T2100,3535A,109.1781,23.7297,来宾市,兴宾区政府,,15,13,27,3,16,45,,50,47,8,10,3,4,0.7,0.8
2024-06-17T2100,4002A,109.2416,23.7461,来宾市,中南小学,,14,,26,3,13,44,,41,39,9,11,1,2,0.9,1
2024-06-17T2100,1476A,103.631,36.1031,兰州市,兰炼宾馆,,49,45,39,34,26,119,,189,166,18,31,10,13,0.3,0.5
2024-06-17T2100,1477A,104.1373,35.9454,兰州市,榆中兰大校区,,,,,,,,,,,,,,,,
2024-06-17T2100,1478A,103.8412,36.0726,兰州市,生物制品所,,39,39,37,27,24,124,,161,154,11,27,8,10,0.3,0.4
2024-06-17T2100,1479A,103.831,36.0464,兰州市,铁路设计院,,37,32,35,21,19,116,,166,157,34,34,8,10,0.3,0.4
2024-06-17T2100,3186A,103.7158,36.1058,兰州市,教育港,,41,31,19,27,21,129,,186,178,12,19,10,11,0.3,0.3
2024-06-17T2100,3241A,103.7439,36.0842,兰州市,百合公园,,38,37,31,23,17,119,,172,165,17,22,8,5,0,0.2
2024-06-17T2100,3242A,103.9611,35.998,兰州市,和平,,45,21,28,17,14,141,,165,157,9,21,7,9,0.4,0.5
2024-06-17T2100,3245A,103.6633,36.533,兰州新区,新区管委会,,41,27,32,13,16,129,,147,143,9,17,12,11,0.4,0.4
2024-06-17T2100,3246A,103.6975,36.4789,兰州新区,舟曲中学,,42,24,27,10,14,133,,149,147,12,13,19,12,0.4,0.4
2024-06-17T2100,1067A,116.6708,39.5111,廊坊市,药材公司,,,71,61,,32,136,,150,,30,11,1,2,0.3,0.5
2024-06-17T2100,1068A,116.7214,39.5589,廊坊市,开发区,颗粒物(PM10),58,65,68,22,29,160,,216,206,26,15,3,3,0.5,0.5
2024-06-17T2100,1070A,116.7244,39.5269,廊坊市,北华航天学院,颗粒物(PM10),66,81,67,26,28,156,,206,196,22,14,3,2,0.4,0.4
2024-06-17T2100,2919A,116.7022,39.5453,廊坊市,河北工业大学,颗粒物(PM10),66,81,69,27,29,154,,214,202,23,10,2,2,0.5,0.5
2024-06-17T2100,2535A,103.7723,29.5462,乐山市,花湖湾,,34,30,18,13,17,108,,146,143,20,20,4,3,0.0,0.1
2024-06-17T2100,2536A,103.7627,29.5844,乐山市,牛耳桥,,36,25,21,13,13,115,,148,145,18,18,4,3,0.4,0.4
2024-06-17T2100,2537A,103.7508,29.6006,乐山市,市第三水厂,,38,24,22,16,14,119,,152,151,13,13,4,4,0.4,0.4
2024-06-17T2100,2538A,103.7571,29.5664,乐山市,市监测站,,40,22,24,18,19,125,,154,152,14,15,2,2,0.4,0.5
2024-06-17T2100,3361A,103.7311,29.5628,乐山市,理工大学,,40,26,23,17,18,126,,161,159,18,13,6,5,0.5,0.4
2024-06-17T2100,2598A,100.2143,26.8576,丽江市,西南郊,,,,,,,,,,,,,,,,
2024-06-17T2100,2599A,100.2497,26.8802,丽江市,丽江古城,,18,13,17,9,10,55,,66,64,10,11,6,6,0.6,0.6
2024-06-17T2100,2600A,100.2203,26.8906,丽江市,市中心,,20,8,14,3,9,64,,75,73,8,9,8,8,0.5,0.6
2024-06-17T2100,1267A,119.914,28.4514,丽水市,监测站大楼,,17,10,6,3,4,54,,81,77,24,11,2,2,0.4,0.3
2024-06-17T2100,1268A,119.93,28.4586,丽水市,莲都小学,,18,10,5,3,3,57,,85,81,17,8,3,3,0.4,0.4
2024-06-17T2100,1269A,119.879,28.4231,丽水市,余庄前,,16,16,5,6,2,42,,70,62,4,5,2,2,0.4,0.4
2024-06-17T2100,1173A,119.176,34.5885,连云港市,市环境监测站,颗粒物(PM10),57,63,37,14,15,80,,146,135,21,15,8,7,0.5,0.4
2024-06-17T2100,3000A,119.3581,34.6972,连云港市,德源药业,,27,27,30,12,10,68,,134,119,23,18,6,6,0.4,0.4
2024-06-17T2100,3007A,119.178,34.844,连云港市,新城一中,,31,31,30,16,15,47,,136,125,45,30,7,7,0.7,0.7
2024-06-17T2100,3008A,119.3608,34.7519,连云港市,胡沟管理处,,44,44,24,7,8,67,,114,97,28,18,11,10,0.6,0.5
2024-06-17T2100,3009A,119.1478,34.5911,连云港市,矿山设计院,颗粒物(PM10),51,51,35,14,12,78,,143,132,22,15,4,4,0.3,0.3
2024-06-17T2100,3434A,119.2413,34.6539,连云港市,工贸学校,,48,48,29,12,13,95,,151,142,12,9,9,8,0.5,0.5
2024-06-17T2100,3664A,119.4172,34.7341,连云港市,连云街道,颗粒物(PM10),51,52,37,11,10,91,,133,130,14,19,6,6,0.5,0.5
2024-06-17T2100,2571A,102.3431,27.8099,凉山彝族自治州,青龙寺,,17,10,12,6,9,53,,82,79,5,5,8,9,0.6,0.6
2024-06-17T2100,2572A,102.2721,27.8415,凉山彝族自治州,邛海宾馆,,,15,16,8,12,,,98,98,12,8,6,8,0.7,0.7
2024-06-17T2100,2573A,102.2625,27.898,凉山彝族自治州,西昌市政府,,21,10,18,8,13,67,,102,100,9,10,6,8,0.6,0.6
2024-06-17T2100,2574A,102.2685,27.8851,凉山彝族自治州,凉山州政府,,24,12,17,8,11,75,,104,101,9,10,8,10,0.8,0.8
2024-06-17T2100,2575A,102.237,27.8914,凉山彝族自治州,长安,,21,21,17,10,10,67,,106,103,12,10,8,10,0.9,0.8
2024-06-17T2100,2212A,123.2,41.1953,辽阳市,宏伟区,臭氧1小时,94,55,67,30,31,195,,228,224,19,19,18,18,1.1,0.9
2024-06-17T2100,2213A,123.1683,41.2495,辽阳市,新华园,臭氧1小时,95,75,77,31,30,196,,229,226,22,25,15,18,1.2,1.2
2024-06-17T2100,2214A,123.2354,41.2639,辽阳市,滨河路,臭氧1小时,99,59,68,30,27,199,,231,228,25,27,16,18,1.2,1.3
2024-06-17T2100,2215A,123.149,41.2991,辽阳市,铁西工业园,臭氧1小时,90,80,81,34,32,192,,239,237,33,26,22,26,1.9,1.7
2024-06-17T2100,2227A,125.1358,42.8845,辽源市,环保局,,25,14,24,8,14,80,,154,120,30,16,15,12,0.4,0.7
2024-06-17T2100,3239A,125.0764,42.9078,辽源市,银鹰制药,,23,20,24,3,15,72,,152,115,35,20,12,10,0.5,0.8
2024-06-17T2100,1625A,115.9848,36.4372,聊城市,区政府,臭氧1小时,54,42,44,16,24,163,,188,185,17,16,7,8,0.5,0.6
2024-06-17T2100,2878A,116.0072,36.4343,聊城市,聊大东校,颗粒物(PM10),59,67,40,17,27,161,,199,193,31,16,4,7,0.4,0.5
2024-06-17T2100,3200A,115.9819,36.4978,聊城市,监控中心,臭氧1小时,54,34,44,17,17,163,,193,190,27,18,8,12,0.7,0.7
2024-06-17T2100,3513A,116.0445,36.4361,聊城市,九州社区,臭氧1小时,57,46,52,14,21,165,,188,186,20,18,6,7,0.4,0.4
2024-06-17T2100,4018A,116.0567,36.4608,聊城市,星美广场,臭氧1小时,79,25,50,18,20,183,,204,202,23,17,10,11,0.4,0.5
2024-06-17T2100,2632A,94.3681,29.6376,林芝市,林芝监测站,,22,7,6,6,5,70,,68,66,7,5,7,6,0.4,0.3
2024-06-17T2100,2633A,94.3616,29.6616,林芝市,林芝人民医院,,22,8,8,6,5,68,,77,74,12,7,8,8,0.4,0.2
2024-06-17T2100,2603A,100.0781,23.8982,临沧市,市环保局,,25,21,40,17,27,51,,74,71,10,10,4,5,0.6,0.6
2024-06-17T2100,2604A,100.0894,23.8822,临沧市,市气象局,,22,17,39,15,26,69,,78,77,8,11,8,8,0.6,0.6
2024-06-17T2100,1733A,111.5531,36.0783,临汾市,临钢医院,臭氧1小时,80,72,57,29,29,184,,194,194,21,14,9,7,1.3,1
2024-06-17T2100,1734A,111.5028,36.0714,临汾市,技工学校,臭氧1小时,94,57,56,38,38,195,,205,205,24,18,8,7,1.0,1
2024-06-17T2100,1736A,111.5018,36.0855,临汾市,市委,臭氧1小时,102,76,61,28,30,203,,211,211,12,8,6,7,1.2,1.3
2024-06-17T2100,3018A,111.505,36.1014,临汾市,唐尧大酒店,臭氧1小时,82,49,55,28,32,185,,194,194,15,14,8,9,1.0,1.1
2024-06-17T2100,3668A,111.5036,36.0414,临汾市,城南,颗粒物(PM10),96,141,60,46,44,153,,214,209,46,17,6,5,1.0,1
2024-06-17T2100,2667A,103.2069,35.5993,临夏回族自治州,环保局,,,,26,,23,,,91,,,8,,6,,0.4
2024-06-17T2100,2668A,103.2417,35.6057,临夏回族自治州,建设大厦,,39,27,22,27,19,124,,134,133,5,7,8,7,0.2,0.3
2024-06-17T2100,1618A,118.3429,35.0532,临沂市,沂河小区,,40,39,47,19,20,126,,152,144,30,27,16,11,0.3,0.3
2024-06-17T2100,1619A,118.295,35.0583,临沂市,鲁南制药厂,,44,36,45,11,18,138,,173,166,25,18,13,12,0.4,0.5
2024-06-17T2100,1620A,118.2794,34.9976,临沂市,新光毛纺厂,颗粒物(PM10),51,51,41,12,18,127,,163,154,36,29,12,10,0.6,0.6
2024-06-17T2100,1621A,118.3956,35.0888,临沂市,河东保险公司,,41,36,40,19,20,129,,157,150,26,24,5,6,0.3,0.4
2024-06-17T2100,3370A,118.3564,35.0215,临沂市,十里堡居委,细颗粒物(PM2.5),62,63,43,44,23,118,,160,148,33,21,10,11,0.5,0.5
2024-06-17T2100,3496A,118.3604,35.1084,临沂市,南坊新区,,46,44,52,9,17,145,,169,159,24,25,8,9,0.5,0.6
2024-06-17T2100,3860A,118.3920,35.0300,临沂市,皇山花园小区,,46,46,45,19,25,122,,157,149,28,29,9,11,0.5,0.6
2024-06-17T2100,1870A,109.4856,24.3895,柳州市,柳东小学,,,6,16,3,10,,,63,63,21,11,,7,0.6,0.6
2024-06-17T2100,1871A,109.4157,24.3277,柳州市,环保监测站,,,1,6,,43,54,,59,59,12,10,7,7,0.6,0.6
2024-06-17T2100,1872A,109.389,24.341,柳州市,河西水厂,,17,6,24,3,12,52,,62,61,11,10,5,5,0.4,0.3
2024-06-17T2100,1873A,109.4311,24.2921,柳州市,市四中,,,,28,8,15,54,,60,58,13,12,5,5,0.4,0.4
2024-06-17T2100,1874A,109.4006,24.3631,柳州市,市九中,,18,7,24,3,12,56,,64,64,13,12,7,7,0.5,0.5
2024-06-17T2100,1875A,109.4958,24.3134,柳州市,古亭山,,19,,20,3,11,59,,62,62,13,12,5,6,0.4,0.5
2024-06-17T2100,3402A,109.5422,24.3996,柳州市,市二中,,13,,19,3,10,39,,60,57,26,12,5,6,0.5,0.4
2024-06-17T2100,2307A,116.5079,31.737,六安市,监测大楼,,50,26,32,19,22,160,,169,167,8,12,4,5,0.3,0.4
2024-06-17T2100,2308A,116.4738,31.7643,六安市,皖西学院,臭氧1小时,57,31,46,18,33,165,,174,173,7,10,4,4,0.4,0.5
2024-06-17T2100,2309A,116.4996,31.7905,六安市,朝阳厂,,50,22,39,19,30,158,,165,163,7,10,7,8,0.3,0.4
2024-06-17T2100,2310A,116.5567,31.7886,六安市,开发区,,43,40,41,21,20,136,,163,157,28,17,9,7,0.5,0.6
2024-06-17T2100,2576A,104.8,26.5892,六盘水市,窑上,,,,,,,,,,,,,,,,
2024-06-17T2100,2577A,104.83,26.5917,六盘水市,黄土坡,,26,,12,7,8,82,,108,84,9,8,8,7,0.4,0.5
2024-06-17T2100,2578A,104.89,26.5939,六盘水市,水钢,,28,6,24,3,17,89,,112,85,7,15,10,14,0.3,0.8
2024-06-17T2100,2579A,104.8475,26.5894,六盘水市,民中,,27,11,11,3,7,84,,113,84,8,8,6,6,0.5,0.6
2024-06-17T2100,2580A,104.9544,26.5506,六盘水市,双水,,29,9,11,6,8,91,,116,92,7,6,7,6,0.2,0.3
2024-06-17T2100,2335A,117.0189,25.1181,龙岩市,龙岩师专,,,,,,,,,,,,,,,,
2024-06-17T2100,2336A,117.0217,25.1033,龙岩市,龙岩市监测站,,18,18,12,3,7,23,,48,43,19,10,2,2,0.6,0.4
2024-06-17T2100,2337A,117.0258,25.0661,龙岩市,闽西职业技术学院,,22,,11,15,7,27,,49,44,16,8,2,2,0.7,0.4
2024-06-17T2100,2338A,117.0196,25.0306,龙岩市,龙岩学院,,8,,13,3,5,22,,49,42,11,6,6,4,0.4,0.4
2024-06-17T2100,2665A,105.0822,33.3261,陇南市,汉王镇固水子,,,,,,,,,,,,,,,,
2024-06-17T2100,2885A,104.9339,33.3826,陇南市,滨江中学,,40,40,42,13,11,94,,113,112,6,10,6,11,0.4,0.4
2024-06-17T2100,3247A,104.955,33.371,陇南市,市总工会,,31,27,25,14,10,97,,114,113,4,5,4,5,0.2,0.2
2024-06-17T2100,2487A,111.9589,27.8901,娄底市,电视发射台,,23,11,21,3,7,73,,79,72,4,4,6,6,0.5,0.7
2024-06-17T2100,2488A,111.9975,27.725,娄底市,市监测站,,25,10,21,3,12,78,,80,79,4,8,4,5,0.6,0.7
2024-06-17T2100,2489A,112.0194,27.7314,娄底市,市委党校,,21,,20,3,13,67,,68,67,4,7,8,8,0.7,0.9
2024-06-17T2100,2490A,111.9561,27.7569,娄底市,涟钢,,36,36,31,10,15,57,,65,62,18,20,1,3,1.0,1
2024-06-17T2100,2491A,111.9892,27.7044,娄底市,市政府,,25,12,17,3,13,79,,82,81,6,8,5,5,0.9,1
2024-06-17T2100,1893A,105.4324,28.9634,泸州市,九狮山,,43,,26,30,16,80,,110,106,22,15,5,5,0.3,0.1
2024-06-17T2100,1894A,105.4427,28.9063,泸州市,小市上码头,,37,30,30,22,21,117,,120,120,9,9,5,5,0.3,0.3
2024-06-17T2100,1895A,105.4241,28.8573,泸州市,兰田宪桥,,32,29,29,22,20,80,,78,,17,11,4,4,0.3,0.2
2024-06-17T2100,1896A,105.4379,28.8833,泸州市,市环监站,,32,32,31,20,21,97,,116,115,15,9,5,5,0.5,0.4
2024-06-17T2100,3490A,105.3617,28.7703,泸州市,纳溪区环保局,,34,34,31,19,16,59,,112,103,34,15,3,4,0.6,0.4
2024-06-17T2100,2183A,111.1406,37.5211,吕梁市,环保局,颗粒物(PM10),63,75,47,27,24,104,,173,162,37,27,5,4,0.6,0.6
2024-06-17T2100,2185A,111.1297,37.5136,吕梁市,自来水公司,颗粒物(PM10),51,52,40,35,24,87,,176,163,50,23,4,4,0.9,0.6
2024-06-17T2100,2867A,111.1283,37.51,吕梁市,马茂庄小学,颗粒物(PM10),64,77,50,27,23,77,,180,166,57,28,6,4,0.8,0.7
2024-06-17T2100,1812A,112.3931,34.6516,洛阳市,市委党校,臭氧1小时,88,39,22,24,17,190,,183,183,8,6,3,2,0.7,0.7
2024-06-17T2100,1814A,112.4657,34.6871,洛阳市,豫西宾馆,臭氧1小时,70,45,33,29,19,176,,182,182,18,13,4,3,0.6,0.6
2024-06-17T2100,1815A,112.494,34.6886,洛阳市,河南林校,臭氧1小时,77,38,20,22,15,181,,175,175,14,12,4,4,0.4,0.4
2024-06-17T2100,1816A,112.3844,34.623,洛阳市,开发区管委会,臭氧1小时,67,42,21,27,14,173,,180,180,14,8,7,6,0.4,0.4
2024-06-17T2100,1817A,112.4267,34.6258,洛阳市,市委新办公区,臭氧1小时,72,38,19,22,18,177,,181,181,13,6,6,5,0.4,0.4
2024-06-17T2100,3340A,112.6005,34.6326,洛阳市,伊滨,臭氧1小时,67,40,23,26,23,173,,185,185,15,9,6,6,0.4,0.4
2024-06-17T2100,3341A,112.4951,34.6332,洛阳市,中移产业园,臭氧1小时,75,38,21,24,21,180,,181,181,11,7,6,5,0.6,0.6
2024-06-17T2100,3593A,112.5736,34.8993,洛阳市,吉利监测站,,47,47,23,15,14,140,,165,163,25,12,3,3,0.2,0.1
2024-06-17T2100,3635A,112.3677,34.662,洛阳市,河科大西苑校区,臭氧1小时,84,47,21,19,10,187,,181,181,8,7,5,5,0.7,0.6
2024-06-17T2100,3636A,112.4388,34.6781,洛阳市,英才小学,臭氧1小时,70,45,36,19,16,176,,174,174,9,7,3,2,0.5,0.5
2024-06-17T2100,2399A,114.051,33.5699,漯河市,三五一五工厂,颗粒物(PM10),56,61,40,35,21,156,,205,201,22,10,6,6,0.7,0.6
2024-06-17T2100,2400A,114.0055,33.5698,漯河市,漯河大学,臭氧1小时,94,68,41,41,31,195,,216,214,20,12,6,5,0.6,0.5
2024-06-17T2100,2401A,114.0138,33.5828,漯河市,市水利局,臭氧1小时,93,53,38,29,26,194,,210,210,14,10,7,8,0.8,0.7
2024-06-17T2100,2402A,114.0261,33.5698,漯河市,市广电局,臭氧1小时,95,54,39,26,21,196,,210,210,13,8,4,3,0.6,0.5
2024-06-17T2100,3478A,113.9749,33.5664,漯河市,市图书馆,臭氧1小时,98,46,35,30,20,198,,214,212,8,4,3,4,0.5,0.5
2024-06-17T2100,3479A,114.0967,33.5906,漯河市,召陵区卫健委,颗粒物(PM10),55,60,33,31,25,121,,203,195,57,15,5,5,0.6,0.5
2024-06-17T2100,1798A,118.5092,31.6837,马鞍山市,湖东路四小,臭氧1小时,53,29,34,20,16,162,,169,169,15,11,7,7,0.7,0.6
2024-06-17T2100,1799A,118.5024,31.6449,马鞍山市,开发区,颗粒物(PM10),55,60,37,23,19,120,,168,163,40,14,9,9,0.6,0.5
2024-06-17T2100,1800A,118.5228,31.7231,马鞍山市,慈湖,,48,34,30,24,20,153,,172,170,28,15,7,7,0.7,0.7
2024-06-17T2100,1802A,118.6245,31.7241,马鞍山市,濮塘,,50,24,26,21,19,160,,160,160,8,9,3,3,0.6,0.7
2024-06-17T2100,3633A,118.4918,31.6809,马鞍山市,雨山,臭氧1小时,63,41,37,19,17,170,,170,170,12,10,6,6,0.8,0.7
2024-06-17T2100,1686A,111.0286,21.4688,茂名市,电白南海,,29,29,28,12,16,57,,61,57,5,4,4,4,0.5,0.5
2024-06-17T2100,1687A,110.9294,21.6533,茂名市,茂石化七小,,27,27,33,14,15,49,,67,58,8,9,7,7,0.5,0.5
2024-06-17T2100,1688A,110.9107,21.6687,茂名市,健康路,,27,27,29,7,10,55,,74,66,6,7,9,10,0.4,0.4
2024-06-17T2100,1689A,110.8592,21.6828,茂名市,高岭,,27,27,33,12,17,46,,67,58,10,8,6,7,0.5,0.5
2024-06-17T2100,3450A,111.01,21.5165,茂名市,电白水东,,22,22,23,12,11,46,,61,52,17,10,3,3,0.4,0.4
2024-06-17T2100,2539A,104.0308,30.0478,眉山市,黑龙滩水库,,45,20,20,19,18,142,,164,164,4,12,4,4,0.2,0.3
2024-06-17T2100,2540A,103.8416,30.0874,眉山市,气象局,,40,30,22,19,19,128,,177,176,23,28,10,9,0.3,0.4
2024-06-17T2100,3137A,103.8578,30.0744,眉山市,市委党校,,44,34,27,9,13,138,,35,,23,28,6,7,0.9,0.5
2024-06-17T2100,3148A,103.8291,30.0564,眉山市,区人社局,,46,41,29,12,12,145,,177,177,23,31,4,7,0.3,0.4
2024-06-17T2100,1690A,116.1231,24.3284,梅州市,梅江月梅,,15,15,18,8,7,21,,56,43,11,9,5,6,0.4,0.5
2024-06-17T2100,1691A,116.0797,24.2719,梅州市,梅县新城,,19,19,17,9,10,20,,54,42,12,13,4,3,0.4,0.4
2024-06-17T2100,1692A,116.1248,24.2654,梅州市,环境监控中心,,18,18,23,8,9,7,,49,36,22,15,3,3,0.8,0.7
2024-06-17T2100,3315A,116.1233,24.2991,梅州市,梅龙,,12,12,12,3,8,25,,53,41,5,8,8,7,0.6,0.6
2024-06-17T2100,1878A,104.7778,31.4741,绵阳市,富乐山,,36,19,14,17,9,115,,132,129,4,5,7,7,0.4,0.4
2024-06-17T2100,1879A,104.7563,31.4535,绵阳市,市人大,,32,23,16,20,9,102,,124,120,16,13,2,7,0.3,0.3
2024-06-17T2100,1880A,104.6697,31.4668,绵阳市,高新区自来水公司,,40,29,18,12,7,126,,138,137,16,12,6,5,0.4,0.4
2024-06-17T2100,1881A,104.7287,31.5075,绵阳市,三水厂,,31,16,17,12,11,98,,131,126,20,13,6,6,0.4,0.3
2024-06-17T2100,3491A,104.69,31.5322,绵阳市,西科大附属小学,,26,26,18,15,8,82,,128,122,38,16,7,5,0.6,0.5
2024-06-17T2100,3492A,104.5648,31.5343,绵阳市,安州区旅游局,,36,16,12,14,7,114,,126,126,16,13,7,7,0.5,0.4
2024-06-17T2100,1784A,129.61,44.561,牡丹江市,环保大楼,,24,19,18,15,13,76,,92,89,9,9,6,6,0.2,0.3
2024-06-17T2100,1785A,129.6115,44.5782,牡丹江市,文化广场,,25,25,25,11,17,70,,88,85,15,11,6,6,0.2,0.3
2024-06-17T2100,1786A,129.5904,44.5963,牡丹江市,第一医院,,32,24,23,22,17,72,,91,88,11,11,4,4,0.4,0.4
2024-06-17T2100,1787A,129.6364,44.6075,牡丹江市,机车工厂,,21,21,19,14,11,59,,88,84,12,12,30,9,0.3,0.3
2024-06-17T2100,1788A,129.6386,44.5462,牡丹江市,第一中学,,25,18,18,13,12,79,,94,92,10,10,3,3,0.3,0.3
2024-06-17T2100,2531A,105.0703,29.61,内江市,市监测站,,32,27,18,22,20,84,,119,112,28,10,5,5,0.5,0.4
2024-06-17T2100,2532A,105.0717,29.5947,内江市,东兴区政府,,33,33,23,18,12,96,,114,109,17,11,10,9,0.7,0.7
2024-06-17T2100,2533A,105.0653,29.5817,内江市,内江二中,,28,22,23,17,14,87,,111,106,18,8,8,8,0.4,0.4
2024-06-17T2100,2534A,105.0406,29.5822,内江市,内江日报社,,33,33,22,20,16,84,,118,111,26,13,8,8,0.6,0.5
2024-06-17T2100,2628A,92.0657,31.4846,那曲市,那曲监测站,,40,19,15,3,8,127,,141,141,8,6,7,6,0.6,0.6
2024-06-17T2100,3128A,92.0506,31.4797,那曲市,那曲会议中心,,43,24,20,13,10,135,,142,142,9,6,3,3,0.5,0.4
2024-06-17T2100,1290A,115.8931,28.6843,南昌市,省外办,,23,20,18,12,12,71,,98,91,10,10,5,5,0.5,0.4
2024-06-17T2100,1291A,115.8886,28.7003,南昌市,省林业公司,,23,22,12,12,7,71,,106,98,12,8,4,4,0.4,0.5
2024-06-17T2100,1292A,115.8126,28.7442,南昌市,林科所,,18,17,8,12,5,51,,107,84,21,13,7,7,0.6,0.6
2024-06-17T2100,1294A,115.8518,28.687,南昌市,建工学校,,26,19,13,18,8,70,,106,97,15,4,6,6,0.5,0.4
2024-06-17T2100,1295A,115.8921,28.6424,南昌市,象湖,,23,19,13,9,8,73,,107,99,8,6,5,5,0.4,0.4
2024-06-17T2100,1296A,115.7423,28.7996,南昌市,武术学校,,31,31,15,10,14,22,,87,61,2,2,12,14,0.5,0.5
2024-06-17T2100,1298A,115.9314,28.6842,南昌市,省站,,34,34,33,10,9,66,,100,92,12,13,4,6,0.7,0.5
2024-06-17T2100,3046A,115.9084,28.6062,南昌市,机电学校,,23,15,19,7,7,72,,93,89,6,10,8,8,0.4,0.6
2024-06-17T2100,3690A,115.9721,28.7031,南昌市,外国语学校,,23,16,15,12,9,72,,103,95,2,2,4,4,0.4,0.4
2024-06-17T2100,1905A,106.056,30.8064,南充市,西山风景区,,32,28,16,22,16,96,,104,102,13,11,3,4,0.5,0.4
2024-06-17T2100,1906A,106.0789,30.8023,南充市,南充市委,,33,33,29,21,17,92,,110,106,15,11,5,5,0.4,0.3
2024-06-17T2100,1907A,106.1031,30.8217,南充市,南充炼油厂,,30,24,32,16,17,95,,114,112,13,9,6,7,0.3,0.3
2024-06-17T2100,1908A,106.1064,30.7856,南充市,高坪区监测站,,36,36,26,12,15,91,,118,112,16,11,6,7,0.3,0.2
2024-06-17T2100,1909A,106.0642,30.7636,南充市,嘉陵区环保局,,36,36,29,19,17,89,,114,111,13,11,5,5,0.4,0.3
2024-06-17T2100,1910A,106.1087,30.8388,南充市,市环境监测站,,30,27,28,21,19,94,,109,108,15,10,6,7,0.5,0.5
2024-06-17T2100,1151A,118.8086,32.1065,南京市,迈皋桥,,39,33,27,14,14,123,,179,174,31,14,8,7,0.5,0.5
2024-06-17T2100,1152A,118.7538,32.0551,南京市,草场门,,46,34,29,14,16,147,,178,177,33,21,7,5,0.6,0.6
2024-06-17T2100,1153A,118.7794,32.0745,南京市,山西路,,48,29,29,12,14,153,,190,188,16,10,5,4,0.5,0.4
2024-06-17T2100,1154A,118.7752,32.0023,南京市,中华门,,42,36,28,14,13,134,,171,169,27,12,10,8,0.5,0.4
2024-06-17T2100,1155A,118.8109,32.0309,南京市,瑞金路,,48,48,37,24,17,132,,178,174,29,14,14,10,0.6,0.4
2024-06-17T2100,1156A,118.7997,32.0754,南京市,玄武湖,,40,33,31,15,14,126,,166,163,28,15,12,10,0.9,0.8
2024-06-17T2100,1157A,118.6414,32.0931,南京市,浦口,,43,23,31,23,16,136,,179,175,29,15,8,7,0.3,0.4
2024-06-17T2100,1158A,118.7356,31.9996,南京市,奥体中心,,50,40,34,19,19,158,,194,192,31,13,10,7,0.6,0.4
2024-06-17T2100,1159A,118.9125,32.1028,南京市,仙林大学城,,44,27,31,14,15,138,,184,181,21,15,9,8,0.5,0.6
2024-06-17T2100,3422A,118.8436,31.9198,南京市,江宁彩虹桥,,42,39,31,17,16,134,,179,176,35,13,5,4,0.5,0.4
2024-06-17T2100,3423A,119.0138,31.6494,南京市,溧水永阳,臭氧1小时,67,39,24,18,15,173,,183,183,20,14,4,4,0.5,0.4
2024-06-17T2100,3424A,118.879,31.3302,南京市,高淳老职中,臭氧1小时,67,,27,17,17,173,,176,176,9,11,5,6,0.4,0.4
2024-06-17T2100,3427A,118.8554,32.3578,南京市,六合雄州,,43,43,34,16,17,100,,183,175,35,21,1,3,0.4,0.7
2024-06-17T2100,1401A,108.3103,22.7881,南宁市,二十一中,臭氧1小时,92,24,28,16,13,193,,85,85,11,11,1,1,0.8,0.8
2024-06-17T2100,1402A,108.3141,22.8528,南宁市,北湖,,23,20,33,16,15,66,,62,61,12,12,2,2,0.8,0.7
2024-06-17T2100,1403A,108.3206,22.8225,南宁市,市监测站,,35,35,29,16,13,69,,58,58,13,16,2,2,0.8,0.7
2024-06-17T2100,1404A,108.3829,22.8037,南宁市,大自然花园,,40,40,28,16,14,78,,73,73,8,7,5,4,0.7,0.5
2024-06-17T2100,1405A,108.4394,22.7904,南宁市,仙葫,,36,36,39,23,19,74,,68,68,11,9,1,2,0.1,0.2
2024-06-17T2100,1406A,108.2397,22.8467,南宁市,区农职院,,44,44,35,18,16,68,,66,63,18,19,5,4,0.7,0.7
2024-06-17T2100,1407A,108.3275,22.735,南宁市,英华嘉园,,37,37,34,20,13,58,,57,56,20,18,4,4,0.6,0.6
2024-06-17T2100,1408A,108.2257,22.7757,南宁市,沙井镇街道办,,38,38,35,20,16,59,,58,56,17,21,2,2,0.7,0.7
2024-06-17T2100,3401A,108.4834,22.7618,南宁市,红星社区,,24,,29,16,13,76,,77,76,13,14,5,4,0.8,0.7
2024-06-17T2100,2331A,118.0966,26.6761,南平市,茫荡山,,,,,,,,,,,,,,,,
2024-06-17T2100,2332A,118.1681,26.6369,南平市,南平市监测站,,16,16,12,10,7,17,,26,23,19,13,3,4,0.8,0.7
2024-06-17T2100,2333A,118.1825,26.6489,南平市,南平铝业有限公司,,17,17,15,9,5,6,,26,20,23,11,4,5,0.9,0.7
2024-06-17T2100,2334A,118.1756,26.6272,南平市,南平七中,,16,16,15,7,5,23,,31,29,14,9,4,4,0.7,0.6
2024-06-17T2100,1168A,120.9098,31.9663,南通市,狼山街道,,30,23,13,3,3,95,,128,123,14,6,12,11,0.9,0.5
2024-06-17T2100,1169A,120.86,32.0005,南通市,虹桥,,31,19,19,8,5,97,,127,121,15,10,8,6,0.8,0.4
2024-06-17T2100,1170A,120.87,32.02,南通市,城中,,31,27,20,8,9,98,,137,130,16,9,7,6,0.8,0.4
2024-06-17T2100,1171A,120.94,31.93,南通市,星湖花园,,29,16,8,7,4,91,,131,123,18,10,8,8,0.4,0.4
2024-06-17T2100,1172A,120.81,32.0417,南通市,紫琅学院,,33,,9,11,7,104,,142,134,20,12,6,6,0.5,0.5
2024-06-17T2100,3291A,121.067,32.062,南通市,通州监测站,,32,24,16,3,2,102,,132,126,4,2,10,10,0.4,0.4
2024-06-17T2100,3432A,120.9348,31.9883,南通市,环境教育馆,,29,22,19,8,6,90,,138,130,24,15,10,8,0.9,0.5
2024-06-17T2100,2404A,112.5224,33.0122,南阳市,瓦房庄,臭氧1小时,72,35,19,21,14,177,,189,189,16,11,6,6,0.6,0.6
2024-06-17T2100,2405A,112.5003,32.9735,南阳市,汉画馆,,49,47,29,23,19,156,,195,193,27,13,5,5,0.7,0.6
2024-06-17T2100,2406A,112.5573,33.027,南阳市,气象站,臭氧1小时,75,31,19,19,14,180,,195,195,16,10,2,2,0.6,0.5
2024-06-17T2100,2407A,112.5481,32.9689,南阳市,理工学院,臭氧1小时,70,42,26,25,13,176,,198,198,19,14,5,5,0.5,0.5
2024-06-17T2100,4008A,112.5234,32.9922,南阳市,卧龙区政府,臭氧1小时,63,36,22,24,16,170,,193,193,16,13,6,6,0.7,0.6
2024-06-17T2100,1234A,121.8358,29.911,宁波市,区环保大楼,,32,27,14,11,10,42,,123,101,63,21,7,6,0.7,0.6
2024-06-17T2100,1235A,121.56,29.82,宁波市,万里学院,,24,22,15,15,7,75,,129,112,33,17,5,5,0.7,0.6
2024-06-17T2100,1236A,121.713,29.9572,宁波市,龙赛医院,,22,18,13,10,7,70,,126,114,33,10,7,5,0.4,0.3
2024-06-17T2100,1239A,121.633,29.7733,宁波市,钱湖水厂,,25,25,13,12,7,69,,117,104,17,9,4,4,0.5,0.7
2024-06-17T2100,1240A,121.5856,29.8635,宁波市,太古小学,,26,,13,16,6,82,,120,114,27,10,6,5,0.7,0.7
2024-06-17T2100,1241A,121.524,29.8674,宁波市,市环境监测中心,,31,16,13,9,6,98,,140,132,25,10,4,4,0.7,0.6
2024-06-17T2100,2871A,121.6147,29.9017,宁波市,万里国际学校,,26,21,13,11,10,81,,130,118,33,12,7,4,0.5,0.4
2024-06-17T2100,3710A,121.5594,29.8975,宁波市,白沙活动中心,,,21,14,8,5,,,134,130,22,7,8,7,0.7,0.4
2024-06-17T2100,2339A,119.5001,26.6946,宁德市,金涵水库,,,,,,,,,,,,,,,,
2024-06-17T2100,2341A,119.5388,26.6612,宁德市,宁德市监测站,,39,38,25,27,10,2,,16,12,40,24,5,5,0.8,0.7
2024-06-17T2100,3209A,119.5231,26.6562,宁德市,宁德一中,,42,42,30,27,15,2,,18,10,28,18,5,5,1.1,0.8
2024-06-17T2100,2618A,98.8601,25.8567,怒江傈僳族自治州,州监测站,,36,36,27,23,22,69,,96,92,7,9,9,10,0.6,0.6
2024-06-17T2100,2619A,98.8546,25.8417,怒江傈僳族自治州,泸水一中,,39,28,28,27,18,54,,88,84,16,11,5,5,0.5,0.4
2024-06-17T2100,1888A,101.6891,26.571,攀枝花市,弄弄坪,,38,38,35,20,15,97,,103,103,11,18,11,10,0.6,0.6
2024-06-17T2100,1889A,101.5769,26.5928,攀枝花市,河门口,,30,30,36,16,20,81,,98,98,14,33,10,28,0.7,2.1
2024-06-17T2100,1890A,101.7169,26.585,攀枝花市,炳草岗,,39,36,26,27,15,91,,100,100,22,22,14,18,1.2,0.8
2024-06-17T2100,1891A,101.7369,26.5008,攀枝花市,仁和,"颗粒物(PM10),细颗粒物(PM2.5)",57,64,29,40,17,61,,105,104,55,16,61,13,3.5,0.6
2024-06-17T2100,2835A,101.7227,26.567,攀枝花市,四十中小,,,33,27,22,16,,,114,114,20,15,13,9,0.7,0.7
2024-06-17T2100,1604A,122.0303,41.1489,盘锦市,开发区,臭氧1小时,112,79,59,71,49,224,,224,224,17,16,5,6,0.5,0.5
2024-06-17T2100,1605A,122.0485,41.0883,盘锦市,兴隆台,臭氧1小时,111,69,58,53,43,222,,219,219,18,16,4,5,0.7,0.6
2024-06-17T2100,1606A,121.8297,41.1028,盘锦市,新生街道,臭氧1小时,117,,50,53,33,233,,220,220,13,12,4,6,0.6,0.6
2024-06-17T2100,1832A,113.3257,33.742,平顶山市,新华旅馆,臭氧1小时,78,75,38,31,30,182,,213,210,20,12,7,9,0.5,0.4
2024-06-17T2100,1833A,113.2919,33.737,平顶山市,规划设计院,臭氧1小时,77,42,32,30,22,181,,202,202,19,14,5,5,0.7,0.7
2024-06-17T2100,1834A,113.182,33.774,平顶山市,平顶山工学院,臭氧1小时,82,36,34,27,19,185,,62,,12,10,5,6,0.6,0.6
2024-06-17T2100,3204A,113.3025,33.73,平顶山市,规划局,臭氧1小时,75,53,34,30,23,180,,207,206,21,13,4,5,0.5,0.4
2024-06-17T2100,3594A,112.8867,33.9116,平顶山市,石龙区,,,54,31,31,22,165,,191,188,,8,5,6,0.5,0.5
2024-06-17T2100,2656A,106.6692,35.5461,平凉市,聚贤嘉苑,,43,32,34,12,15,137,,141,141,11,22,6,7,0.4,0.4
2024-06-17T2100,2657A,106.7021,35.5307,平凉市,博物馆,,39,35,33,15,17,124,,146,144,32,30,17,15,0.9,0.4
2024-06-17T2100,2347A,114.0997,27.5002,萍乡市,武功山,,16,6,4,3,2,50,,78,64,7,3,9,15,0.4,0.5
2024-06-17T2100,2348A,113.8385,27.6434,萍乡市,中医院,,25,,15,16,13,78,,87,80,3,3,10,11,0.5,0.6
2024-06-17T2100,2349A,113.8493,27.6253,萍乡市,市政府车库,,23,16,10,14,9,71,,85,77,5,7,15,12,0.5,1.3
2024-06-17T2100,2350A,113.8676,27.6435,萍乡市,市环保局,,26,,13,18,10,74,,85,79,5,6,17,9,0.3,0.4
2024-06-17T2100,2351A,113.866,27.6198,萍乡市,安源区政府,,20,16,15,11,8,63,,77,73,14,10,12,15,1.5,1.4
2024-06-17T2100,2319A,119.0141,25.4325,莆田市,荔城区仓后路,,18,18,25,8,11,27,,60,44,13,14,6,6,0.7,0.7
2024-06-17T2100,2320A,119.0015,25.4553,莆田市,莆田市监测站,,26,26,26,16,12,21,,62,45,6,9,8,8,0.6,0.6
2024-06-17T2100,2321A,119.1119,25.4561,莆田市,涵江区六中,,25,25,21,8,7,14,,62,41,24,16,8,8,0.6,0.6
2024-06-17T2100,2322A,119.1013,25.3215,莆田市,秀屿区政府,,10,10,21,3,8,28,,55,44,10,11,8,10,0.4,0.5
2024-06-17T2100,2323A,118.981,25.4792,莆田市,东圳水库,,,,,,,,,,,,,,,,
2024-06-17T2100,2392A,115.0312,35.7636,濮阳市,环保局,,49,24,29,14,22,156,,170,170,11,9,7,8,0.3,0.4
2024-06-17T2100,2394A,115.0574,35.7609,濮阳市,油田运输公司,,50,35,36,16,24,157,,181,179,17,10,9,9,0.5,0.5
2024-06-17T2100,2395A,115.0866,35.7754,濮阳市,油田物探公司,,50,38,41,20,29,158,,184,182,13,7,8,8,0.5,0.5
2024-06-17T2100,3021A,115,35.7668,濮阳市,濮水河管理处,,49,49,30,21,26,133,,165,162,14,7,8,8,0.3,0.4
2024-06-17T2100,2601A,100.98,22.7633,普洱市,市环保局,,50,,31,35,24,64,,77,75,6,6,6,6,0.5,0.5
2024-06-17T2100,2602A,100.9817,22.8322,普洱市,普洱第二中学,,39,31,30,27,18,62,,76,73,10,9,9,9,0.5,0.5
2024-06-17T2100,2262A,131.0518,45.8751,七台河市,新一中,,23,12,18,6,8,73,,96,82,5,8,9,10,0.6,0.9
2024-06-17T2100,3345A,131.0577,45.7879,七台河市,中波台,,17,8,13,6,5,52,,86,69,20,13,7,6,0.4,0.3
2024-06-17T2100,3637A,131.0176,45.7761,七台河市,人民广场,,19,16,19,11,9,58,,78,66,16,10,10,10,0.3,0.3
2024-06-17T2100,3684A,130.8781,45.8222,七台河市,新建矿广场,,19,,11,7,12,58,,83,69,10,14,4,6,0.1,0.1
2024-06-17T2100,1779A,123.9305,47.3636,齐齐哈尔市,安居小区,,24,24,17,6,5,43,,68,63,22,9,6,7,0.4,0.3
2024-06-17T2100,1780A,123.9488,47.3386,齐齐哈尔市,中心广场,,21,21,17,9,8,43,,67,61,23,8,8,9,0.3,0.2
2024-06-17T2100,1781A,123.9483,47.3227,齐齐哈尔市,农牧车辆厂,,24,24,22,3,5,55,,70,67,14,6,8,8,0.2,0.2
2024-06-17T2100,1783A,123.945,47.2988,齐齐哈尔市,市环境监测站,,27,27,18,10,6,48,,68,65,18,7,5,5,0.4,0.3
2024-06-17T2100,3662A,123.6333,47.2075,齐齐哈尔市,富区青少年活动中心,,20,15,23,3,5,61,,74,71,11,10,5,5,0.3,0.3
2024-06-17T2100,2591A,107.9783,26.5747,黔东南苗族侗族自治州,市环境监测站,,15,6,13,6,9,48,,50,49,18,14,3,3,0.5,0.4
2024-06-17T2100,2881A,107.8908,26.5311,黔东南苗族侗族自治州,凯里学院,,18,6,9,3,7,55,,49,49,6,8,3,3,0.4,0.3
2024-06-17T2100,2593A,107.5228,26.2403,黔南布依族苗族自治州,小围寨,,12,6,4,3,0,38,,60,54,7,4,5,4,0.5,0.4
2024-06-17T2100,3538A,107.5175,26.2978,黔南布依族苗族自治州,沙坝,,14,6,2,3,0,43,,59,54,7,5,3,3,0.5,0.5
2024-06-17T2100,2589A,104.9022,25.0925,黔西南布依族苗族自治州,场坝街,,21,14,12,8,7,65,,82,82,8,11,4,3,0.4,0.4
2024-06-17T2100,2590A,104.8811,25.0992,黔西南布依族苗族自治州,坪东大道,,19,13,12,3,7,58,,84,83,11,9,3,4,0.3,0.2
2024-06-17T2100,2502A,108.6236,21.9667,钦州市,市环保站,,,,25,12,11,81,,85,84,9,9,5,5,0.5,0.6
2024-06-17T2100,2503A,108.6549,21.9481,钦州市,沙埠小学,,30,26,38,21,18,74,,84,82,12,10,4,4,0.6,0.8
2024-06-17T2100,2504A,108.5989,21.7431,钦州市,港区一小,,39,39,40,14,14,92,,89,89,4,7,6,7,0.5,0.5
2024-06-17T2100,3404A,108.5959,21.9633,钦州市,北职校,,38,38,31,15,14,77,,81,81,7,10,5,7,0.5,0.6
2024-06-17T2100,1042A,119.5134,39.8207,秦皇岛市,北戴河环保局,臭氧1小时,103,98,74,29,23,206,,235,230,13,16,3,5,0.6,0.7
2024-06-17T2100,1043A,119.7493,40.0116,秦皇岛市,第一关,臭氧1小时,85,79,84,51,33,188,,230,222,15,33,3,4,0.5,0.7
2024-06-17T2100,1044A,119.5897,39.9499,秦皇岛市,监测站,臭氧1小时,72,75,75,24,30,177,,232,224,24,15,3,6,0.6,0.8
2024-06-17T2100,1046A,119.5251,39.9041,秦皇岛市,建设大厦,臭氧1小时,84,73,75,27,28,187,,240,235,23,21,3,6,0.2,0.5
2024-06-17T2100,3132A,119.610547,39.943889,秦皇岛市,文明里,颗粒物(PM10),64,77,82,29,33,170,,219,210,25,19,3,6,0.5,0.8
2024-06-17T2100,1307A,120.6659,36.2403,青岛市,仰口,,45,17,14,12,11,142,,150,150,4,5,4,4,0.2,0.3
2024-06-17T2100,1310A,120.4134,36.0658,青岛市,市南区东部子站,,22,17,9,9,7,68,,80,79,10,9,5,7,0.3,0.4
2024-06-17T2100,1311A,120.3664,36.1032,青岛市,四方区子站,,25,17,19,14,10,77,,114,96,17,20,9,10,0.4,0.5
2024-06-17T2100,1312A,120.2994,36.054,青岛市,市南区西部子站,,20,17,8,7,5,64,,86,84,24,8,7,6,0.4,0.4
2024-06-17T2100,1313A,120.4581,36.0858,青岛市,崂山区子站,,25,,7,14,7,78,,86,86,7,12,8,8,0.4,0.4
2024-06-17T2100,1314A,120.1983,35.9608,青岛市,黄岛区子站,,,12,10,12,8,,,93,93,10,9,6,6,0.4,0.4
2024-06-17T2100,1315A,120.3999,36.3083,青岛市,城阳区子站,,30,19,22,12,9,94,,143,125,23,23,7,8,0.5,0.5
2024-06-17T2100,1966A,120.0405,35.8735,青岛市,黄岛区4号,,34,7,16,3,7,107,,96,96,11,16,8,8,0.4,0.4
2024-06-17T2100,3362A,120.5014,36.4034,青岛市,即墨2号,,33,28,24,10,9,105,,152,142,15,15,6,7,0.4,0.4
2024-06-17T2100,3642A,120.3503,36.0736,青岛市,市北区南部,,22,14,15,12,7,70,,100,88,13,11,6,7,0.4,0.5
2024-06-17T2100,3643A,120.3948,36.1805,青岛市,李沧区北部,,36,36,27,17,14,78,,120,103,31,30,7,9,0.4,0.5
2024-06-17T2100,1702A,113.0426,23.691,清远市,环保大楼,,25,25,31,11,10,43,,98,90,21,18,5,5,0.6,0.6
2024-06-17T2100,1703A,113.0208,23.7106,清远市,凤城街办,,22,22,23,7,13,39,,95,84,18,19,3,4,0.5,0.6
2024-06-17T2100,3025A,113.0477,23.6344,清远市,技师学院,,30,30,26,12,12,47,,111,98,22,20,4,4,0.6,0.6
2024-06-17T2100,3318A,112.9903,23.7403,清远市,清新太和,,29,29,26,14,16,36,,75,68,19,19,6,6,0.7,0.7
2024-06-17T2100,3455A,113.076,23.7198,清远市,清城东城,,31,31,23,14,12,45,,94,87,15,11,5,5,0.6,0.6
2024-06-17T2100,2661A,107.6325,35.7357,庆阳市,庆阳五中,,45,31,27,14,14,143,,147,147,13,9,2,2,0.3,0.3
2024-06-17T2100,2662A,107.6364,35.7067,庆阳市,市环保局,,45,25,24,11,13,142,,146,146,11,6,4,4,0.4,0.3
2024-06-17T2100,1916A,103.7897,25.5035,曲靖市,环境监测站,,33,33,14,17,7,90,,107,105,16,10,6,3,0.8,0.7
2024-06-17T2100,1917A,103.8,25.5364,曲靖市,烟厂办公区,,29,23,11,15,6,92,,108,106,16,8,4,4,0.6,0.5
2024-06-17T2100,3376A,103.7947,25.462,曲靖市,南苑二区,,31,23,10,14,7,97,,117,114,15,8,7,5,0.7,0.7
2024-06-17T2100,3377A,103.7444,25.5261,曲靖市,曲靖师范学院,,31,27,13,18,8,99,,116,114,18,13,8,6,0.8,0.7
2024-06-17T2100,1264A,118.8692,28.9398,衢州市,环保大楼,,28,28,14,17,9,87,,108,106,24,12,4,4,0.3,0.2
2024-06-17T2100,1265A,118.8709,28.9666,衢州市,实验学校,,31,24,14,14,7,98,,107,107,18,9,4,3,0.2,0.1
2024-06-17T2100,1266A,118.8621,28.9808,衢州市,衢州学院,,30,23,12,16,8,93,,106,106,20,10,4,3,0.4,0.4
2024-06-17T2100,1611A,118.5819,24.9117,泉州市,涂山街,,,22,20,,8,15,,51,37,30,18,3,3,0.5,0.5
2024-06-17T2100,1612A,118.5972,24.8978,泉州市,津头埔,,18,18,19,8,9,15,,51,37,30,17,2,1,0.6,0.5
2024-06-17T2100,1613A,118.6663,24.9424,泉州市,万安,,,22,18,13,10,22,,52,36,16,13,2,2,,0.5
2024-06-17T2100,1614A,118.6117,24.9604,泉州市,清源山,,,,,,,,,,,,,,,,
2024-06-17T2100,3529A,118.6333,24.9264,泉州市,城华南路,,22,22,17,10,10,10,,49,34,29,16,2,2,0.4,0.4
2024-06-17T2100,2626A,88.8876,29.2718,日喀则市,日喀则监测站,颗粒物(PM10),77,104,13,21,4,132,,143,142,6,5,5,5,0.6,0.5
2024-06-17T2100,3726A,88.8781,29.2426,日喀则市,林业技术推广中心,颗粒物(PM10),78,106,19,16,3,137,,141,141,6,6,4,5,0.6,0.6
2024-06-17T2100,1659A,119.471,35.4209,日照市,监测站,,28,14,30,9,17,88,,125,108,16,32,10,13,0.2,0.6
2024-06-17T2100,1660A,119.523,35.4216,日照市,市政府广场,,,,36,,15,71,,119,116,29,30,10,13,,0.6
2024-06-17T2100,1661A,119.5587,35.4044,日照市,港务局,,25,22,21,3,8,79,,99,98,18,20,10,9,0.4,0.5
2024-06-17T2100,3507A,119.5328,35.4625,日照市,职业技术学院,,27,19,31,9,14,85,,122,119,21,24,8,10,0.5,0.7
2024-06-17T2100,3604A,119.3266,35.1044,日照市,岚山环保分局,,36,36,43,10,14,85,,126,119,19,23,7,10,0.4,0.6
2024-06-17T2100,1835A,111.1922,34.7752,三门峡市,市政府,,42,26,24,11,13,133,,161,158,23,15,8,8,0.3,0.4
2024-06-17T2100,1836A,111.1587,34.7942,三门峡市,开发区,,46,18,32,10,20,147,,170,169,27,15,9,10,0.7,0.7
2024-06-17T2100,1838A,111.143,34.7955,三门峡市,风景区,,,,,,,,,,,,,,,,
2024-06-17T2100,3039A,111.1911,34.7829,三门峡市,三门峡市第一小学,,46,25,29,6,16,146,,165,163,12,10,7,8,0.5,0.6
2024-06-17T2100,3598A,111.1,34.7167,三门峡市,富达温泉假日酒店,,50,50,46,7,33,139,,169,166,16,18,10,12,0.4,0.5
2024-06-17T2100,2324A,117.6211,26.2625,三明市,三钢,,19,,20,13,13,13,,27,24,22,20,4,13,0.7,1.4
2024-06-17T2100,2325A,117.635,26.2714,三明市,三明二中,,18,17,16,12,7,17,,29,24,20,17,4,9,0.8,1
2024-06-17T2100,2326A,117.6028,26.2378,三明市,三元区政府,,28,23,21,19,11,6,,25,17,32,19,2,5,1.3,0.8
2024-06-17T2100,2327A,117.7275,26.3108,三明市,洋溪,,,,,,,,,,,,,,,,
2024-06-17T2100,1876A,109.5078,18.2489,三亚市,河东子站,,25,17,23,7,10,77,,84,77,4,3,4,3,0.4,0.4
2024-06-17T2100,1877A,109.4964,18.2681,三亚市,河西子站,,25,12,22,7,11,78,,77,76,4,4,1,1,0.3,0.3
2024-06-17T2100,3540A,109.7348,18.3443,三亚市,君悦子站,,21,,30,9,10,67,,72,69,7,5,2,2,0.2,0.3
2024-06-17T2100,2624A,91.7608,29.2313,山南市,山南监测站,,40,14,11,9,4,128,,123,123,3,4,5,5,0.4,0.4
2024-06-17T2100,2625A,91.7706,29.2436,山南市,山南人民医院,,40,22,22,8,8,127,,119,119,7,8,6,6,0.3,0.3
2024-06-17T2100,1674A,116.6794,23.3667,汕头市,金平子站,,12,12,17,8,6,34,,46,43,13,8,2,2,0.7,0.6
2024-06-17T2100,1675A,116.7244,23.3633,汕头市,龙湖子站,,17,17,16,3,6,32,,44,41,15,11,6,5,0.6,0.7
2024-06-17T2100,1676A,116.7258,23.2775,汕头市,濠江子站,,25,25,28,3,9,32,,46,43,6,6,5,4,0.4,0.6
2024-06-17T2100,1677A,116.7519,23.4714,汕头市,澄海子站,,15,15,19,9,9,26,,36,31,17,13,5,6,0.8,0.7
2024-06-17T2100,1678A,116.6092,23.2539,汕头市,潮阳子站,,,,15,,6,27,,47,44,,6,10,4,,0.5
2024-06-17T2100,3444A,116.454,23.2684,汕头市,潮南峡山,,21,21,18,6,6,32,,35,35,5,6,4,4,0.8,0.8
2024-06-17T2100,3624A,116.4069,23.2533,汕头市,潮南子站,,20,20,18,6,5,36,,41,40,6,4,6,6,0.7,0.7
2024-06-17T2100,1693A,115.3653,22.775,汕尾市,市环保局,,15,10,18,3,6,45,,56,54,1,2,4,4,0.5,0.5
2024-06-17T2100,1694A,115.3706,22.7898,汕尾市,市政府,,16,10,16,3,8,50,,58,56,2,2,5,6,0.5,0.5
2024-06-17T2100,1695A,115.3622,22.7925,汕尾市,新城中学,,16,9,19,3,5,50,,61,60,2,3,4,4,0.4,0.4
2024-06-17T2100,2645A,109.9154,33.8715,商洛市,监测站,,30,24,19,15,13,93,,144,132,13,6,4,7,0.5,0.5
2024-06-17T2100,3045A,109.9643,33.8471,商洛市,商州区中学,,26,,32,13,25,83,,145,128,28,13,13,10,0.7,0.6
2024-06-17T2100,2408A,115.6702,34.4285,商丘市,环境监测站,臭氧1小时,78,48,42,26,24,182,,208,208,15,10,8,8,0.4,0.4
2024-06-17T2100,2409A,115.6458,34.4045,商丘市,粮食局,臭氧1小时,62,46,39,25,21,169,,196,195,13,9,5,5,0.3,0.3
2024-06-17T2100,2410A,115.6293,34.3948,商丘市,睢阳区环保局,颗粒物(PM10),55,59,44,25,31,139,,200,194,28,12,4,5,0.5,0.4
2024-06-17T2100,3171A,115.6071,34.4465,商丘市,梁园区档案局,臭氧1小时,58,60,51,28,24,166,,207,204,30,16,9,8,0.6,0.5
2024-06-17T2100,1141A,121.4,31.238,上海市,普陀,,27,21,19,13,13,85,,112,109,24,16,5,4,0.4,0.4
