timepoint,stationcode,longitude,latitude,area,positionname,primarypollutant,aqi,pm10,pm10_24h,pm2_5,pm2_5_24h,o3,o3_24h,o3_8h,o3_8h_24h,no2,no2_24h,so2,so2_24h,co,co_24h
2026-02-12T0900,2568A,102.2503,31.8896,阿坝藏族羌族自治州,马师校,,39,,19,27,16,32,,43,42,14,8,6,4,0.6,0.5
2026-02-12T0900,3994A,102.2174,31.9016,阿坝藏族羌族自治州,马尔康中学西区,,18,18,18,12,11,44,,48,47,9,8,5,4,0.5,0.5
2026-02-12T0900,2695A,80.2899,41.1684,阿克苏地区,电视台,颗粒物(PM10),202,351,418,95,117,42,,39,39,20,41,10,11,0.8,1.2
2026-02-12T0900,2696A,80.2592,41.1541,阿克苏地区,艺术中心,颗粒物(PM10),180,309,374,93,118,43,,45,45,17,38,5,6,0.7,1
2026-02-12T0900,2205A,105.699,38.8409,阿拉善盟,蒙二幼,颗粒物(PM10),57,63,83,8,22,56,,76,73,26,11,11,11,0.9,0.6
2026-02-12T0900,2206A,105.7198,38.8508,阿拉善盟,环保局新楼,颗粒物(PM10),56,62,78,20,24,80,,88,86,7,6,10,10,0.5,0.5
2026-02-12T0900,2708A,88.1266,47.8515,阿勒泰地区,市站,,35,35,16,8,3,67,,86,85,24,18,2,3,0.2,0.2
2026-02-12T0900,4166A,88.1198,47.7931,阿勒泰地区,阿勒泰路33号,,,21,21,3,3,,,79,79,15,23,4,7,0.3,0.4
2026-02-12T0900,2630A,80.1171,32.4999,阿里地区,阿里监测站,,18,6,4,3,3,56,,64,62,8,7,14,10,0.3,0.4
2026-02-12T0900,3192A,80.0906,32.5029,阿里地区,阿里藏医院,,,,10,8,4,60,,72,70,9,4,11,9,0.5,0.4
2026-02-12T0900,2644A,109.0088,32.6974,安康市,汉滨区检察院,,48,48,69,30,32,22,,31,29,10,13,2,2,0.5,0.5
2026-02-12T0900,4054A,109.0324,32.6913,安康市,市邮政管理局,颗粒物(PM10),57,64,81,29,35,16,,22,21,17,20,4,4,0.7,0.8
2026-02-12T0900,2291A,117.0806,30.5181,安庆市,环科院,细颗粒物(PM2.5),73,89,115,53,70,11,,3,3,41,47,7,7,0.9,0.9
2026-02-12T0900,2292A,117.0331,30.5118,安庆市,马山宾馆,细颗粒物(PM2.5),72,69,115,52,77,20,,6,6,33,42,6,7,0.8,0.9
2026-02-12T0900,2294A,116.9897,30.6146,安庆市,安庆大学,,,,65,,53,,,39,,,17,,4,,0.8
2026-02-12T0900,3173A,117.0598,30.5351,安庆市,市人大,颗粒物(PM10),75,100,123,53,69,17,,3,3,35,38,6,7,0.7,0.8
2026-02-12T0900,3123A,105.9408,26.2431,安顺市,凤凰山,,11,10,22,3,20,34,,43,42,14,12,14,16,0.5,0.6
2026-02-12T0900,3124A,105.9443,26.2567,安顺市,金钟山,,16,16,27,8,20,36,,41,40,10,10,12,16,0.8,0.8
2026-02-12T0900,3125A,105.8983,26.248,安顺市,娄家坡,,18,12,25,12,20,33,,41,39,13,11,15,16,0.8,0.7
2026-02-12T0900,1819A,114.3552,36.1017,安阳市,红庙街,颗粒物(PM10),97,143,132,66,56,16,,28,25,52,28,12,9,1.9,0.8
2026-02-12T0900,1820A,114.361,36.0681,安阳市,银杏小区,颗粒物(PM10),94,138,135,65,58,28,,30,28,30,29,8,11,1.0,0.7
2026-02-12T0900,3141A,114.3921,36.0879,安阳市,信访局,细颗粒物(PM2.5),94,134,131,70,57,24,,34,32,36,21,9,10,1.2,0.8
2026-02-12T0900,3669A,114.4706,36.0634,安阳市,左辅环卫站,颗粒物(PM10),106,162,146,66,56,29,,41,39,27,21,5,7,0.7,0.7
2026-02-12T0900,4117A,114.2918,36.0769,安阳市,钢三路198号,颗粒物(PM10),102,153,150,57,55,29,,26,25,32,28,10,8,0.9,0.7
2026-02-12T0900,1748A,123.0441,41.1201,鞍山市,深沟寺,细颗粒物(PM2.5),68,73,68,49,44,65,,79,75,26,22,10,15,1.0,1
2026-02-12T0900,1749A,123.011,41.0931,鞍山市,太阳城,细颗粒物(PM2.5),92,94,74,68,51,61,,76,73,28,24,16,20,1.2,1
2026-02-12T0900,1750A,123.0483,41.1445,鞍山市,太平,细颗粒物(PM2.5),78,84,69,57,44,45,,65,59,45,28,14,18,1.1,1
2026-02-12T0900,1751A,122.964,41.0968,鞍山市,铁西三道街,细颗粒物(PM2.5),129,165,85,98,55,,,52,49,89,39,22,22,2.7,1
2026-02-12T0900,1753A,123.0219,41.0822,鞍山市,明达新区,细颗粒物(PM2.5),90,92,69,67,47,38,,73,66,47,25,12,18,2.0,1
2026-02-12T0900,4201A,122.944647,41.082639,鞍山市,兴盛南路290号,细颗粒物(PM2.5),178,227,85,134,59,14,,60,53,92,35,22,21,2.2,1.2
2026-02-12T0900,2195A,107.4206,40.7609,巴彦淖尔市,附二中,颗粒物(PM10),66,81,96,19,42,49,,58,57,15,24,7,11,0.4,0.6
2026-02-12T0900,2196A,107.37,40.7372,巴彦淖尔市,市环保大楼,颗粒物(PM10),62,74,90,21,35,56,,54,54,12,27,4,8,0.5,0.6
2026-02-12T0900,1956A,86.1476,41.7529,巴音郭楞蒙古自治州,孔雀公园,颗粒物(PM10),169,288,430,78,99,0,,10,9,76,39,9,9,1.1,0.8
2026-02-12T0900,1957A,86.1971,41.7166,巴音郭楞蒙古自治州,棉纺厂,颗粒物(PM10),177,304,464,67,91,32,,44,41,35,18,/,/,/,/
2026-02-12T0900,1958A,86.236,41.7172,巴音郭楞蒙古自治州,经济开发区,颗粒物(PM10),157,263,388,35,53,14,,44,39,36,15,5,6,0.6,0.6
2026-02-12T0900,3181A,106.776805,31.852614,巴中市,市五中,细颗粒物(PM2.5),68,69,67,49,44,9,,9,8,24,27,6,6,1.0,1
2026-02-12T0900,3183A,106.7419,31.8654,巴中市,圣泉水务公司,细颗粒物(PM2.5),58,52,56,41,40,26,,41,38,23,19,6,6,1.1,1.1
2026-02-12T0900,3616A,106.7617,31.8343,巴中市,市中心医院,,,,47,,33,,,,,,15,,6,,0.9
2026-02-12T0900,2235A,122.7909,45.608,白城市,洮北区环保局,细颗粒物(PM2.5),345,,77,295,75,28,,32,29,37,27,9,6,2.1,0.8
2026-02-12T0900,2236A,122.8741,45.5725,白城市,市环保局,细颗粒物(PM2.5),262,276,74,212,58,25,,19,19,27,25,8,5,1.5,0.7
2026-02-12T0900,2231A,126.4219,41.9172,白山市,喜丰,细颗粒物(PM2.5),73,86,72,53,50,32,,21,21,44,44,17,14,1.3,1.1
2026-02-12T0900,2232A,126.4082,41.9416,白山市,环保局,细颗粒物(PM2.5),74,69,63,54,54,25,,26,26,35,29,14,13,1.3,1.1
2026-02-12T0900,2647A,104.1727,36.5448,白银市,第三小学,颗粒物(PM10),51,51,87,19,34,22,,55,51,47,29,9,22,0.8,0.5
2026-02-12T0900,2648A,104.1467,36.5482,白银市,动力公司,,38,38,83,13,31,37,,57,53,20,16,4,17,0.9,0.9
2026-02-12T0900,2512A,106.6102,23.901,百色市,市监测站,,29,26,32,20,22,27,,32,31,12,14,12,12,0.7,0.8
2026-02-12T0900,2513A,106.6524,23.8842,百色市,市中心血站,,26,26,30,18,19,26,,33,32,8,8,10,11,0.7,0.7
2026-02-12T0900,4133A,106.6273,23.8798,百色市,龙景西路,,40,39,34,28,22,20,,29,27,13,11,15,11,0.8,0.7
2026-02-12T0900,2270A,117.396,32.9389,蚌埠市,工人疗养院,颗粒物(PM10),92,134,132,60,75,78,,84,82,26,29,6,8,0.7,0.8
2026-02-12T0900,2271A,117.3606,32.9428,蚌埠市,百货大楼,颗粒物(PM10),95,139,135,64,70,80,,80,80,23,31,8,8,0.7,0.7
2026-02-12T0900,2273A,117.4183,32.8909,蚌埠市,蚌埠学院,细颗粒物(PM2.5),87,117,120,64,67,69,,87,85,29,25,6,7,0.6,0.6
2026-02-12T0900,2274A,117.3534,32.9672,蚌埠市,淮上区政府,颗粒物(PM10),93,136,137,67,80,80,,84,84,26,31,8,8,0.8,0.7
2026-02-12T0900,2275A,117.3143,32.8977,蚌埠市,高新区,细颗粒物(PM2.5),107,132,134,80,82,71,,56,56,24,31,9,9,0.7,0.7
2026-02-12T0900,3715A,117.3091,32.9314,蚌埠市,蚌埠田家炳中学,细颗粒物(PM2.5),103,149,143,77,82,62,,68,68,36,33,22,26,0.8,0.7
2026-02-12T0900,1585A,109.8761,40.6533,包头市,市环境监测站,颗粒物(PM10),67,84,92,29,33,36,,43,40,35,38,10,15,0.8,0.9
2026-02-12T0900,1587A,109.9992,40.5843,包头市,包头八中,,,102,98,41,40,6,,15,11,65,51,,13,1.3,1
2026-02-12T0900,1589A,109.8641,40.6288,包头市,惠龙物流,颗粒物(PM10),68,86,88,30,39,14,,23,17,63,51,16,17,1.7,1.3
2026-02-12T0900,1590A,110.0376,40.5546,包头市,东河鸿龙湾,,,,92,,36,,,3,3,84,68,16,12,2.1,1.1
2026-02-12T0900,3283A,109.9154,40.5684,包头市,滨河大厦,颗粒物(PM10),73,96,87,47,42,17,,5,5,60,59,11,11,1.1,0.9
2026-02-12T0900,3419A,109.9449,40.6259,包头市,包头市委党校,颗粒物(PM10),67,84,87,47,38,14,,11,11,60,57,14,15,0.9,1
2026-02-12T0900,3683A,109.8332,40.6577,包头市,昆区政府,颗粒物(PM10),66,81,89,39,40,45,,56,52,32,42,14,19,1.0,1
2026-02-12T0900,1931A,107.0802,34.3129,宝鸡市,竹园沟,细颗粒物(PM2.5),75,92,147,55,53,38,,34,33,18,20,6,7,0.6,0.4
2026-02-12T0900,1933A,107.1429,34.3549,宝鸡市,监测站,颗粒物(PM10),82,113,171,30,42,24,,29,28,28,25,9,6,0.6,0.5
2026-02-12T0900,1934A,107.1172,34.3759,宝鸡市,技工学校,颗粒物(PM10),92,134,176,49,62,35,,42,40,20,19,6,8,0.7,0.6
2026-02-12T0900,1936A,107.2025,34.3518,宝鸡市,文理学院,颗粒物(PM10),84,117,169,47,58,30,,35,34,27,24,8,6,0.6,0.5
2026-02-12T0900,1937A,107.2396,34.3626,宝鸡市,三迪小学,,,131,180,42,55,,,33,33,36,34,6,5,,0.7
2026-02-12T0900,4155A,107.1721,34.3558,宝鸡市,滨河北路,颗粒物(PM10),93,136,184,50,61,23,,34,32,24,19,8,6,0.7,0.5
2026-02-12T0900,4308A,107.3898,34.3601,宝鸡市,陈仓区北开路21号,颗粒物(PM10),104,157,204,63,67,74,,74,74,23,30,156,59,1.1,0.9
2026-02-12T0900,1051A,115.4803,38.8568,保定市,游泳馆,细颗粒物(PM2.5),75,86,119,55,80,40,,19,19,37,50,8,8,0.9,1
2026-02-12T0900,1052A,115.509,38.8895,保定市,华电二区,颗粒物(PM10),68,85,100,44,65,34,,16,16,34,43,5,7,1.1,1.2
2026-02-12T0900,1053A,115.4588,38.9037,保定市,接待中心,颗粒物(PM10),61,72,115,41,72,38,,23,23,29,37,4,7,0.7,0.9
2026-02-12T0900,1054A,115.4484,38.8344,保定市,地表水厂,颗粒物(PM10),85,119,139,45,74,24,,11,11,55,50,6,8,0.8,0.8
2026-02-12T0900,3581A,115.3136,38.9511,保定市,满城区生态环境分局,,,,150,68,72,17,,3,3,48,47,7,10,1.4,1.2
2026-02-12T0900,3582A,115.4709,38.7628,保定市,清苑区第二中学,颗粒物(PM10),98,145,166,64,92,22,,18,16,48,43,10,11,0.9,0.8
2026-02-12T0900,3583A,115.6231,39.0223,保定市,徐水物探局,颗粒物(PM10),76,101,147,53,77,34,,12,12,25,39,10,13,0.9,0.9
2026-02-12T0900,4004A,115.4199,38.8665,保定市,双鹰农机,颗粒物(PM10),78,106,165,51,85,43,,27,27,30,43,5,8,0.7,0.8
2026-02-12T0900,4034A,115.515,38.8589,保定市,植保所站,颗粒物(PM10),71,92,121,45,71,34,,13,13,38,51,3,5,0.8,0.9
2026-02-12T0900,2594A,99.1589,25.1137,保山市,市环境监测站,,18,18,26,8,13,47,,63,60,14,9,4,4,0.6,0.4
2026-02-12T0900,2595A,99.1616,25.1381,保山市,市环保局,,22,22,28,13,14,55,,71,68,7,5,3,3,0.6,0.5
2026-02-12T0900,1867A,109.1435,21.4085,北海市,海滩公园,细颗粒物(PM2.5),60,53,40,43,22,26,,20,20,21,16,5,4,0.8,0.7
2026-02-12T0900,1868A,109.0983,21.466,北海市,新市环保局,细颗粒物(PM2.5),57,48,28,40,20,19,,16,15,25,15,10,8,1.0,0.8
2026-02-12T0900,1869A,109.1775,21.5232,北海市,北海工业园,细颗粒物(PM2.5),62,44,36,44,24,18,,13,13,19,13,9,7,1.0,0.9
2026-02-12T0900,3400A,109.1844,21.4396,北海市,龙潭自来水厂,细颗粒物(PM2.5),92,,36,68,30,16,,10,10,18,13,2,3,1.1,0.9
2026-02-12T0900,1001A,116.3611,39.8786,北京市,万寿西宫,颗粒物(PM10),60,70,77,37,44,44,,23,23,31,40,3,4,0.6,0.6
2026-02-12T0900,1003A,116.4174,39.9289,北京市,东四,颗粒物(PM10),58,65,73,33,36,40,,22,22,26,36,5,6,0.6,0.6
2026-02-12T0900,1004A,116.4073,39.8858,北京市,天坛,颗粒物(PM10),60,70,69,39,37,27,,11,11,41,37,2,2,0.7,0.6
2026-02-12T0900,1005A,116.4622,39.9364,北京市,农展馆,颗粒物(PM10),59,67,75,35,37,35,,11,11,31,36,7,7,0.6,0.7
2026-02-12T0900,1006A,116.3399,39.9293,北京市,官园,颗粒物(PM10),63,76,70,39,38,21,,15,15,53,36,5,5,0.8,0.5
2026-02-12T0900,1007A,116.2879,39.9613,北京市,海淀万柳,颗粒物(PM10),55,59,100,33,33,6,,7,6,65,45,3,3,1.0,0.6
2026-02-12T0900,1008A,116.6635,40.1349,北京市,顺义新城,颗粒物(PM10),57,64,51,32,26,50,,36,36,16,26,6,6,0.6,0.5
2026-02-12T0900,1009A,116.6275,40.327,北京市,怀柔镇,颗粒物(PM10),52,54,38,31,22,36,,45,43,27,17,5,4,0.8,0.7
2026-02-12T0900,1010A,116.2295,40.217,北京市,昌平镇,"颗粒物(PM10),细颗粒物(PM2.5)",57,63,45,40,26,15,,26,22,46,25,3,3,1.0,0.7
2026-02-12T0900,1011A,116.3968,39.982,北京市,奥体中心,颗粒物(PM10),58,65,67,34,33,29,,5,5,47,53,6,6,0.7,0.6
2026-02-12T0900,3418A,116.8336,40.4095,北京市,密云新城,颗粒物(PM10),54,57,42,31,22,52,,50,50,11,13,4,3,0.5,0.5
2026-02-12T0900,3671A,116.0879,39.9725,北京市,门头沟三家店,颗粒物(PM10),54,57,53,26,26,33,,31,30,20,21,4,4,0.6,0.5
2026-02-12T0900,3672A,116.1507,39.8246,北京市,丰台云岗,颗粒物(PM10),51,51,58,25,31,32,,39,37,29,22,3,3,0.6,0.5
2026-02-12T0900,3674A,115.9578,39.7602,北京市,房山燕山,颗粒物(PM10),56,62,60,38,34,35,,43,41,27,18,5,5,0.7,0.5
2026-02-12T0900,3675A,116.4669,39.7734,北京市,大兴旧宫,颗粒物(PM10),66,81,93,41,47,19,,8,7,51,42,4,5,0.7,0.6
2026-02-12T0900,3694A,115.9859,40.4562,北京市,延庆石河营,颗粒物(PM10),53,56,45,33,25,29,,16,16,16,20,3,4,0.6,0.6
2026-02-12T0900,3695A,116.6151,40.3052,北京市,怀柔新城,颗粒物(PM10),53,55,36,35,23,43,,48,47,18,15,3,3,0.6,0.4
2026-02-12T0900,3696A,116.2542,39.8764,北京市,丰台小屯,颗粒物(PM10),61,71,75,36,37,10,,6,6,58,44,5,5,0.8,0.6
2026-02-12T0900,3697A,116.8399,40.3843,北京市,密云镇,颗粒物(PM10),55,59,45,31,23,32,,24,24,24,29,4,3,0.7,0.5
2026-02-12T0900,4057A,115.9423,40.4431,北京市,延庆百泉,颗粒物(PM10),56,61,44,38,28,28,,18,18,19,19,3,3,0.7,0.6
2026-02-12T0900,4058A,116.6598,39.9164,北京市,通州新华,颗粒物(PM10),62,74,79,39,50,22,,7,7,54,50,9,4,0.8,0.8
2026-02-12T0900,4182A,116.1942,39.9158,北京市,石景山八角,颗粒物(PM10),53,56,70,29,33,16,,8,7,49,34,3,3,0.5,0.4
2026-02-12T0900,4194A,117.078628,40.151726,北京市,平谷新城,细颗粒物(PM2.5),80,99,54,59,34,21,,30,29,28,19,4,5,0.8,0.6
2026-02-12T0900,1761A,123.8274146,41.31234549,本溪市,大峪,细颗粒物(PM2.5),92,112,66,68,38,18,,16,16,54,44,11,12,1.7,1.5
2026-02-12T0900,1763A,123.7169,41.3094,本溪市,彩屯,细颗粒物(PM2.5),104,109,81,78,58,20,,22,20,50,38,19,15,2.6,2
2026-02-12T0900,1764A,123.7672166,41.28649327,本溪市,东明,细颗粒物(PM2.5),94,77,75,70,49,25,,12,12,39,42,16,16,1.7,1.8
2026-02-12T0900,1765A,123.799345,41.266614,本溪市,新立屯,细颗粒物(PM2.5),72,66,54,52,32,18,,14,12,56,48,11,13,1.2,1.1
2026-02-12T0900,1766A,123.829144,41.336777,本溪市,威宁,细颗粒物(PM2.5),90,116,82,67,41,15,,6,6,39,39,9,10,1.6,1.5
2026-02-12T0900,2587A,105.287,27.3133,毕节市,八中,,23,16,54,16,32,54,,50,50,8,12,8,12,0.8,0.8
2026-02-12T0900,2588A,105.3079,27.2987,毕节市,师专,,30,,50,21,29,63,,54,54,10,13,8,13,0.6,0.6
2026-02-12T0900,4263A,105.3688,27.3598,毕节市,工业大道,,35,,50,24,34,68,,57,57,9,13,9,12,/,/
2026-02-12T0900,1629A,117.9961,37.3604,滨州市,第二水厂,细颗粒物(PM2.5),117,156,100,88,59,58,,36,36,36,41,18,19,1.0,0.8
2026-02-12T0900,1630A,117.9789,37.3931,滨州市,北中新校,细颗粒物(PM2.5),105,151,100,79,56,55,,41,41,38,34,12,13,1.1,0.9
2026-02-12T0900,3514A,117.9379,37.3959,滨州市,中海酒店,细颗粒物(PM2.5),105,151,92,79,53,66,,52,52,42,37,16,16,1.3,1
2026-02-12T0900,3515A,117.9381509,37.35547456,滨州市,开发区一中,颗粒物(PM10),108,166,108,79,58,51,,37,37,43,38,20,22,1.1,0.9
2026-02-12T0900,3516A,118.0914,37.6938,滨州市,金海六路,细颗粒物(PM2.5),135,173,104,103,64,50,,26,26,56,44,17,15,1.0,0.8
2026-02-12T0900,4028A,117.9955,37.3752,滨州市,滨州市西街道办事处,颗粒物(PM10),103,156,103,75,64,72,,46,46,25,34,16,17,0.9,0.8
2026-02-12T0900,2311A,115.8071,33.8399,亳州市,污水处理厂,,,118,120,58,61,74,,79,78,,14,6,7,,0.3
2026-02-12T0900,2312A,115.7789,33.8519,亳州市,三国揽胜宫,颗粒物(PM10),94,138,149,62,61,82,,74,74,22,22,5,7,0.6,0.6
2026-02-12T0900,3332A,115.7631,33.803,亳州市,亳州学院,细颗粒物(PM2.5),89,123,138,66,66,75,,70,70,12,15,5,6,0.6,0.6
2026-02-12T0900,2693A,82.0482,44.8553,博尔塔拉蒙古自治州,市党校,,44,44,57,11,25,78,,80,80,13,16,2,3,0.6,0.7
2026-02-12T0900,2694A,82.0805,44.8966,博尔塔拉蒙古自治州,市环保局,,47,47,83,10,33,58,,61,61,15,23,6,5,0.8,0.9
2026-02-12T0900,1071A,116.8733,38.2922,沧州市,沧县城建局,细颗粒物(PM2.5),109,165,106,82,60,44,,48,47,38,32,17,13,1.1,0.7
2026-02-12T0900,1072A,116.8462,38.3189,沧州市,电视转播站,细颗粒物(PM2.5),119,147,108,90,73,41,,41,40,37,29,12,9,0.9,0.6
2026-02-12T0900,1073A,116.8588,38.3161,沧州市,市环保局,"颗粒物(PM10),细颗粒物(PM2.5)",105,160,114,79,59,33,,36,36,40,31,16,13,1.0,0.6
2026-02-12T0900,3324A,116.8011,38.294,沧州市,河北水利电力学院,细颗粒物(PM2.5),130,180,119,99,65,35,,41,40,37,28,15,12,1.1,0.7
2026-02-12T0900,2622A,97.1813,31.1289,昌都市,昌都监测站,,15,14,18,8,10,46,,54,52,6,6,2,3,0.6,0.6
2026-02-12T0900,3719A,97.1707,31.1428,昌都市,昌都会议中心,,16,11,12,10,9,49,,60,58,1,2,6,5,0.4,0.3
2026-02-12T0900,2692A,87.2722,44.0298,昌吉回族自治州,新区政务中心,细颗粒物(PM2.5),114,123,122,86,84,67,,67,67,27,25,4,3,1.2,1.2
2026-02-12T0900,3613A,87.3069,44.0093,昌吉回族自治州,亚心广场,细颗粒物(PM2.5),89,112,139,66,100,71,,73,73,33,25,9,8,1.4,1.1
2026-02-12T0900,4164A,87.2057,43.9289,昌吉回族自治州,财政所,颗粒物(PM10),81,111,130,53,88,71,,77,77,17,21,6,6,1.7,1
2026-02-12T0900,1120A,125.2874,43.9024,长春市,客车厂,细颗粒物(PM2.5),114,99,66,86,54,29,,11,11,52,56,16,10,1.4,1
2026-02-12T0900,1121A,125.2943,43.8508,长春市,邮电学院,细颗粒物(PM2.5),98,,63,73,53,23,,10,10,41,44,10,10,1.1,0.8
2026-02-12T0900,1122A,125.3648,43.8745,长春市,劳动公园,细颗粒物(PM2.5),93,92,83,69,50,26,,8,8,38,42,13,14,2.6,1.5
2026-02-12T0900,1123A,125.3233,43.8781,长春市,园林处,细颗粒物(PM2.5),99,75,68,74,56,25,,15,15,44,43,14,13,1.2,0.8
2026-02-12T0900,1124A,125.4604,43.7904,长春市,净月潭,细颗粒物(PM2.5),77,66,50,56,41,44,,37,36,21,20,5,6,0.6,0.6
2026-02-12T0900,1126A,125.38,43.8422,长春市,经开区环卫处,细颗粒物(PM2.5),97,79,62,72,48,8,,2,2,57,43,6,6,1.2,0.8
2026-02-12T0900,1127A,125.234,43.7761,长春市,高新区管委会,细颗粒物(PM2.5),105,108,87,79,71,8,,5,5,51,40,9,8,2.0,1.6
2026-02-12T0900,1128A,125.1695,43.83,长春市,岱山公园,细颗粒物(PM2.5),132,121,77,100,64,15,,4,4,,49,12,8,,0.9
2026-02-12T0900,4281A,125.334645,43.916281,长春市,北亚泰大街1068号,细颗粒物(PM2.5),110,87,83,83,69,,,4,3,55,49,14,10,1.7,1.3
2026-02-12T0900,1335A,113.082,28.2421,长沙市,经开区环保局,颗粒物(PM10),52,53,62,32,35,23,,9,9,20,32,2,3,0.6,0.6
2026-02-12T0900,1336A,112.8873,28.2202,长沙市,高开区环保局,细颗粒物(PM2.5),69,62,63,50,42,12,,11,9,26,24,7,5,1.1,1
2026-02-12T0900,1337A,113.0785,28.2012,长沙市,马坡岭,颗粒物(PM10),54,58,64,36,37,20,,8,8,16,28,4,4,0.7,0.8
2026-02-12T0900,1338A,112.9448,28.1894,长沙市,湖南师范大学,颗粒物(PM10),57,64,57,39,29,8,,8,8,29,21,5,4,1.1,0.9
2026-02-12T0900,1339A,113.0177,28.1322,长沙市,雨花区环保局,,46,37,54,32,34,0,,1,1,25,31,8,8,0.9,0.8
2026-02-12T0900,1340A,112.9795,28.2593,长沙市,伍家岭,细颗粒物(PM2.5),70,74,87,51,45,4,,0,0,21,28,5,5,1.0,1
2026-02-12T0900,1341A,113.002,28.1944,长沙市,火车新站,细颗粒物(PM2.5),60,45,66,43,40,7,,4,4,26,33,2,2,1.1,1
2026-02-12T0900,1342A,112.9846,28.1177,长沙市,天心区环保局,细颗粒物(PM2.5),64,60,59,46,39,8,,7,7,34,34,7,6,1.0,0.8
2026-02-12T0900,1343A,112.8906,28.1307,长沙市,湖南中医药大学,颗粒物(PM10),52,53,62,35,32,4,,2,2,28,29,6,6,1.0,0.9
2026-02-12T0900,1727A,113.1146,36.1547,长治市,清华站,颗粒物(PM10),73,96,82,47,33,16,,36,29,45,21,24,14,1.1,0.7
2026-02-12T0900,1730A,113.0887,36.2126,长治市,审计局,颗粒物(PM10),73,95,82,40,32,11,,26,18,45,30,31,17,1.1,0.7
2026-02-12T0900,1731A,113.0845,36.1856,长治市,长治八中,颗粒物(PM10),87,124,99,44,35,12,,30,23,41,24,27,17,1.0,0.7
2026-02-12T0900,2845A,113.1561,36.1912,长治市,德盛苑,颗粒物(PM10),64,78,78,37,34,50,,79,72,21,14,12,13,0.9,0.7
2026-02-12T0900,3568A,113.0603,36.0464,长治市,向阳小学,颗粒物(PM10),82,113,105,30,32,44,,65,60,19,16,21,16,0.8,0.5
2026-02-12T0900,3569A,112.8788,36.315,长治市,屯留一中,颗粒物(PM10),63,75,75,32,30,20,,14,14,44,31,18,19,0.9,0.5
2026-02-12T0900,4189A,113.113092,36.199482,长治市,英华南巷50号,颗粒物(PM10),81,111,89,48,34,11,,37,28,43,22,24,14,1.0,0.6
2026-02-12T0900,4190A,113.23666,36.33435,长治市,学府街1号,颗粒物(PM10),86,121,92,52,35,27,,30,27,51,34,44,17,2.5,1.2
2026-02-12T0900,1854A,111.696,28.9725,常德市,市二中,细颗粒物(PM2.5),79,79,72,58,50,5,,12,8,22,28,5,5,1.3,1.2
2026-02-12T0900,3138A,111.7152,29.0288,常德市,武陵区永安,细颗粒物(PM2.5),94,93,75,70,51,7,,,,29,27,6,4,1.3,1.2
2026-02-12T0900,3139A,111.6891,28.9881,常德市,鼎城区玉霞,细颗粒物(PM2.5),75,85,71,55,49,4,,1,1,23,28,5,5,1.3,1.2
2026-02-12T0900,3140A,111.6651,29.0526,常德市,武陵区长庚,细颗粒物(PM2.5),93,101,77,69,52,11,,5,5,25,28,7,4,1.1,1
2026-02-12T0900,1196A,119.9524,31.7586,常州市,市监测站,细颗粒物(PM2.5),156,168,138,119,97,19,,12,12,62,52,9,9,1.1,1
2026-02-12T0900,1200A,119.9351,31.703,常州市,武进监测站,细颗粒物(PM2.5),145,149,125,111,95,48,,55,54,34,32,8,8,1.1,1.2
2026-02-12T0900,3002A,119.9701,31.813,常州市,行政中心,细颗粒物(PM2.5),159,146,134,121,102,25,,23,23,62,57,8,7,1.3,1.1
2026-02-12T0900,3003A,120.0434,31.7726,常州市,经开区,细颗粒物(PM2.5),160,173,150,122,99,18,,14,10,57,49,7,7,1.2,1.1
2026-02-12T0900,3010A,119.8919,31.7892,常州市,钟楼,细颗粒物(PM2.5),153,145,129,117,101,46,,42,42,45,43,8,8,1.2,1.1
2026-02-12T0900,3429A,119.8595,31.706,常州市,武进经发区,细颗粒物(PM2.5),152,153,126,116,97,44,,57,54,35,32,7,7,1.2,1.2
2026-02-12T0900,3430A,119.5812,31.7256,常州市,金坛城区,细颗粒物(PM2.5),160,166,127,122,96,47,,59,58,30,25,9,8,1.4,1
2026-02-12T0900,4089A,119.9551,31.863,常州市,崇义南街5-H号,细颗粒物(PM2.5),163,144,135,124,104,24,,8,8,69,68,7,6,1.5,1.3
2026-02-12T0900,2220A,120.4318,41.588,朝阳市,西梁,细颗粒物(PM2.5),119,116,74,90,47,16,,9,9,50,42,32,15,1.7,1.3
2026-02-12T0900,2221A,120.452,41.565,朝阳市,河畔小区,,,,66,,44,,,10,10,32,32,16,12,1.8,1.3
2026-02-12T0900,2222A,120.4176,41.5648,朝阳市,八里堡,细颗粒物(PM2.5),118,118,67,89,49,13,,13,13,52,41,26,16,2.2,1.4
2026-02-12T0900,3026A,116.6179,23.6608,潮州市,市政府,,40,39,45,28,24,49,,62,60,12,8,4,4,0.5,0.4
2026-02-12T0900,4036A,116.646,23.676,潮州市,金山,,36,29,36,25,23,52,,64,61,12,10,3,3,0.5,0.5
2026-02-12T0900,2473A,113.0116,25.8228,郴州市,市职中,,50,40,30,35,28,0,,,,13,15,4,4,1.0,0.9
2026-02-12T0900,2475A,113.0381,25.8074,郴州市,市审计局,,48,39,31,33,26,0,,0,0,16,16,2,3,/,/
2026-02-12T0900,2476A,113.0348,25.7757,郴州市,市环保局,细颗粒物(PM2.5),60,53,49,43,33,0,,0,0,17,18,5,4,0.9,0.8
2026-02-12T0900,4252A,113.0138,25.8011,郴州市,好美居路49号,,,,26,,23,,,21,,,17,,2,,
2026-02-12T0900,1431A,103.9727,30.7242,成都市,金泉两河,细颗粒物(PM2.5),78,76,76,57,49,5,,21,20,57,36,2,3,1.4,0.8
2026-02-12T0900,1432A,104.1423,30.6765,成都市,十里店,细颗粒物(PM2.5),77,88,86,56,50,8,,18,12,41,28,3,4,0.9,0.6
2026-02-12T0900,1433A,104.0594,30.5765,成都市,三瓦窑,,,86,61,60,44,,,11,11,55,39,3,2,1.0,0.7
2026-02-12T0900,1434A,104.1122,30.6306,成都市,沙河铺,细颗粒物(PM2.5),75,76,69,55,47,2,,16,13,48,41,4,4,0.7,0.5
2026-02-12T0900,2880A,104.0219,30.6561,成都市,大石西路,细颗粒物(PM2.5),92,83,78,68,53,8,,28,25,45,25,5,5,1.0,0.7
2026-02-12T0900,3136A,104.2724,30.559,成都市,龙泉驿区区政府,细颗粒物(PM2.5),74,73,56,54,44,31,,49,45,22,14,6,6,0.5,0.4
2026-02-12T0900,3357A,104.0028,30.6891,成都市,金博路,细颗粒物(PM2.5),87,86,71,64,46,3,,18,16,54,35,5,5,1.0,0.7
2026-02-12T0900,3359A,104.056,30.5228,成都市,华阳,细颗粒物(PM2.5),79,78,63,58,42,4,,10,8,61,38,3,3,0.6,0.3
2026-02-12T0900,3488A,104.387954,30.746684,成都市,青石路225号,细颗粒物(PM2.5),89,86,62,66,45,4,,11,9,45,34,4,3,1.3,0.9
2026-02-12T0900,3489A,104.0788,30.4054,成都市,科学城,,45,45,55,30,36,17,,21,17,18,13,6,6,1.0,0.7
2026-02-12T0900,4011A,103.8505,30.6946,成都市,光华大道三段,细颗粒物(PM2.5),80,92,87,59,47,8,,29,26,53,35,3,4,1.0,0.7
2026-02-12T0900,4144A,104.3257,30.6406,成都市,八角井街185号,细颗粒物(PM2.5),79,75,67,58,43,13,,29,26,33,22,3,4,0.8,0.6
2026-02-12T0900,4224A,104.2433276,30.53529463,成都市,鲸龙路1057号,细颗粒物(PM2.5),64,63,65,46,40,30,,31,31,28,26,5,5,0.7,0.5
2026-02-12T0900,1062A,117.9531,40.908,承德市,铁路,颗粒物(PM10),59,68,47,28,26,10,,14,13,35,28,5,7,1.1,0.8
2026-02-12T0900,1063A,117.9397,40.9763,承德市,中国银行,,41,41,45,19,22,24,,14,14,21,23,4,7,0.7,0.8
2026-02-12T0900,4073A,117.9462,40.95,承德市,杏林街1号,颗粒物(PM10),56,62,40,34,26,15,,16,16,36,25,5,10,1.1,0.8
2026-02-12T0900,4274A,117.7994,40.9605,承德市,滨河大街98号,,40,40,39,16,20,16,,19,18,33,24,6,23,0.8,0.9
2026-02-12T0900,2314A,117.4698,30.6617,池州市,池州学院,颗粒物(PM10),71,92,93,48,50,26,,40,38,29,24,4,6,1.5,1.5
2026-02-12T0900,3237A,117.4918,30.6617,池州市,展览馆,,,72,85,34,44,29,,16,16,28,26,,4,1.3,1.1
2026-02-12T0900,3333A,117.5626,30.695,池州市,第八中学,颗粒物(PM10),74,97,91,45,43,49,,49,47,21,21,4,5,1.0,1
2026-02-12T0900,3334A,117.5037,30.6242,池州市,第十二中学,颗粒物(PM10),74,98,90,44,46,24,,28,28,33,30,5,6,1.3,0.9
2026-02-12T0900,1744A,118.9229,42.2816,赤峰市,松山一中,,45,45,53,26,32,16,,9,9,38,40,13,7,1.1,1.2
2026-02-12T0900,1745A,118.9588,42.2733,赤峰市,哈达街,,,47,50,32,32,19,,17,17,,33,22,16,1.3,1.1
2026-02-12T0900,1746A,118.8792,42.2551,赤峰市,天义路,,43,33,31,30,22,18,,16,16,32,31,9,6,1.1,0.9
2026-02-12T0900,3058A,119.2656,42.0356,赤峰市,银河街,细颗粒物(PM2.5),88,86,65,65,42,22,,22,22,35,26,19,16,2.1,1.4
2026-02-12T0900,3286A,118.9359,42.3146,赤峰市,桥北物流园区,,41,41,37,22,27,35,,31,31,24,31,4,5,1.0,0.9
2026-02-12T0900,2521A,107.3473,22.4137,崇左市,市环保局江州分局,,35,35,27,22,14,17,,24,23,9,12,4,4,0.8,0.8
2026-02-12T0900,4256A,107.375,22.3736,崇左市,石景林东路7号,,38,35,23,26,15,22,,24,24,14,16,2,2,0.7,0.7
2026-02-12T0900,3207A,118.31131,32.3033,滁州市,市政府原办公楼,细颗粒物(PM2.5),117,121,111,88,85,9,,16,15,48,34,7,6,1.0,0.6
2026-02-12T0900,3331A,118.3268,32.2633,滁州市,图书馆,细颗粒物(PM2.5),104,112,107,78,65,18,,31,26,41,29,8,8,1.0,1
2026-02-12T0900,4101A,118.3196,32.3335,滁州市,银山路666号,细颗粒物(PM2.5),118,95,100,89,81,10,,10,8,26,26,9,12,0.8,0.7
2026-02-12T0900,4102A,118.3426,32.2979,滁州市,黄山路555号,细颗粒物(PM2.5),122,131,128,92,82,11,,20,20,43,39,6,5,0.8,0.7
2026-02-12T0900,2606A,101.5379,25.0492,楚雄彝族自治州,市经济开发区,,26,26,26,15,16,25,,33,33,18,16,2,2,0.4,0.5
2026-02-12T0900,4153A,101.5536,25.0343,楚雄彝族自治州,团结路562号,,22,22,21,14,13,20,,32,29,25,12,4,4,0.6,0.4
2026-02-12T0900,2549A,107.5087,31.2186,达州市,市环境监测站,,,75,75,41,42,,,14,14,,33,,6,,0.6
2026-02-12T0900,2550A,107.4988,31.2132,达州市,凤凰小区,颗粒物(PM10),58,66,74,40,43,20,,17,17,29,38,7,5,0.5,0.7
2026-02-12T0900,2551A,107.5081,31.1987,达州市,达县机关宾馆,颗粒物(PM10),73,95,83,47,44,4,,8,8,37,44,5,5,0.9,0.9
2026-02-12T0900,2552A,107.4644,31.2124,达州市,市政中心,颗粒物(PM10),63,76,80,37,40,8,,8,8,40,47,6,5,0.8,0.8
2026-02-12T0900,2614A,100.2168,25.5818,大理白族自治州,大理市环境监测站,,23,14,16,12,11,72,,74,73,6,7,7,7,0.4,0.4
2026-02-12T0900,2615A,100.1542,25.7055,大理白族自治州,大理古城,,16,12,18,9,9,51,,69,65,22,6,8,8,0.5,0.5
2026-02-12T0900,1109A,121.6119,38.974,大连市,甘井子,细颗粒物(PM2.5),148,141,82,113,63,41,,49,46,52,32,25,14,0.8,0.6
2026-02-12T0900,1110A,121.565,38.9509,大连市,周水子,细颗粒物(PM2.5),137,129,78,104,58,27,,39,34,65,32,13,9,1.5,0.7
2026-02-12T0900,1111A,121.5637,38.8849,大连市,星海三站,细颗粒物(PM2.5),140,123,74,107,59,48,,49,47,23,19,7,8,1.0,0.6
2026-02-12T0900,1112A,121.6301,38.9117,大连市,青泥洼桥,细颗粒物(PM2.5),133,120,72,101,57,58,,62,60,35,25,13,10,1.1,0.7
2026-02-12T0900,1113A,121.6248,38.8643,大连市,傅家庄,细颗粒物(PM2.5),134,139,76,102,52,60,,59,58,25,18,12,10,0.8,0.5
2026-02-12T0900,1114A,121.5117,38.8636,大连市,七贤岭,细颗粒物(PM2.5),119,115,77,90,55,65,,63,63,27,20,12,8,1.0,0.7
2026-02-12T0900,1116A,121.7507,39.1339,大连市,金州,细颗粒物(PM2.5),137,121,75,104,59,61,,70,68,39,27,20,14,0.8,0.5
2026-02-12T0900,1117A,121.7811,39.0495,大连市,开发区,细颗粒物(PM2.5),125,108,77,95,56,14,,27,25,73,39,10,7,1.3,0.7
2026-02-12T0900,1118A,121.9762,39.0631,大连市,双D港,细颗粒物(PM2.5),110,106,60,83,45,35,,45,42,47,30,12,11,1.0,0.8
2026-02-12T0900,4082A,121.2548,38.8188,大连市,旅顺,细颗粒物(PM2.5),133,118,84,101,69,52,,58,56,27,19,14,10,1.1,0.8
2026-02-12T0900,1789A,124.8085,46.0381,大庆市,大同区,细颗粒物(PM2.5),69,74,51,50,36,50,,55,53,24,20,12,11,1.0,0.9
2026-02-12T0900,1790A,125.1166,46.5255,大庆市,龙凤区,细颗粒物(PM2.5),94,79,58,70,40,32,,34,34,38,38,13,13,1.0,0.7
2026-02-12T0900,1791A,124.8894,46.4007,大庆市,红岗区,,50,50,41,34,29,28,,36,36,28,24,6,8,0.8,0.7
2026-02-12T0900,1792A,125.1391,46.578,大庆市,萨尔图区,,44,44,47,30,25,26,,36,36,46,35,10,11,0.8,0.7
2026-02-12T0900,1793A,124.9026,46.6217,大庆市,让胡路区,细颗粒物(PM2.5),55,49,34,39,26,30,,42,42,39,28,7,8,0.8,0.6
2026-02-12T0900,3481A,125.127,46.6277,大庆市,萨区政府监测点,颗粒物(PM10),59,68,45,34,25,38,,46,46,35,23,9,10,0.9,0.8
2026-02-12T0900,1723A,113.2926,40.0759,大同市,云冈宾馆,颗粒物(PM10),88,125,100,39,40,16,,12,12,43,48,33,18,2.3,1.3
2026-02-12T0900,1724A,113.3437,40.0921,大同市,大同大学,颗粒物(PM10),83,116,95,28,28,41,,41,40,28,30,26,21,0.7,0.7
2026-02-12T0900,1725A,113.2637,40.129,大同市,安家小村,颗粒物(PM10),93,135,104,46,37,12,,10,10,39,37,36,22,2.0,1.6
2026-02-12T0900,3282A,113.3399,40.0586,大同市,大同市卫生学校,颗粒物(PM10),78,106,96,32,33,37,,35,35,32,43,20,16,0.7,0.8
2026-02-12T0900,3565A,113.1371,40.1122,大同市,云冈站,,,,75,,23,,,5,5,37,28,44,23,1.0,0.7
2026-02-12T0900,3566A,113.1186,40.2556,大同市,图书馆,颗粒物(PM10),69,87,75,45,29,20,,23,21,18,16,10,12,1.0,0.7
2026-02-12T0900,3567A,113.5931,40.0459,大同市,区一中,,,169,94,,38,37,,36,34,33,22,33,19,2.1,1.2
2026-02-12T0900,4199A,113.2798248,40.09972476,大同市,魏都大道141号,颗粒物(PM10),101,152,124,58,46,11,,9,9,49,51,29,19,2.5,1.6
2026-02-12T0900,2269A,124.1068,50.4091,大兴安岭地区,科技局,,28,28,30,3,14,52,,51,51,4,4,4,5,0.3,0.4
2026-02-12T0900,3663A,124.117,50.4279,大兴安岭地区,红旗社区,颗粒物(PM10),65,80,32,35,22,28,,25,25,40,24,14,9,0.6,0.4
2026-02-12T0900,1600A,124.33,40.0625,丹东市,江湾东路,细颗粒物(PM2.5),72,71,75,52,55,36,,14,14,28,33,30,11,1.4,1.3
2026-02-12T0900,1601A,124.4242,40.1513,丹东市,临江后街,细颗粒物(PM2.5),134,125,69,102,52,15,,28,24,50,28,36,17,1.9,1.3
2026-02-12T0900,1602A,124.3935,40.1461,丹东市,元宝山,细颗粒物(PM2.5),129,129,64,98,49,12,,36,30,45,22,27,12,1.8,1
2026-02-12T0900,1603A,124.3634,40.1093,丹东市,民主桥,细颗粒物(PM2.5),80,81,78,59,56,18,,8,8,55,39,24,11,1.2,1
2026-02-12T0900,3541A,109.5726195,19.51688767,儋州市,第一中学子站,,23,23,27,12,11,67,,66,66,1,2,4,4,0.6,0.5
2026-02-12T0900,3542A,109.5567,19.5187,儋州市,东坡学校子站,,23,20,24,9,10,73,,73,73,3,4,4,3,0.5,0.5
2026-02-12T0900,2616A,98.5611,24.4273,德宏傣族景颇族自治州,德宏州监测站,颗粒物(PM10),55,59,48,37,32,8,,15,10,33,24,7,7,0.8,0.6
2026-02-12T0900,3677A,98.5887,24.4366,德宏傣族景颇族自治州,芒市人民政府综合楼,,40,38,55,28,26,18,,32,29,18,14,4,4,1.0,0.8
2026-02-12T0900,1901A,104.424,31.1209,德阳市,东山公园,,,67,68,63,53,15,,54,51,33,16,2,2,,0.8
2026-02-12T0900,1902A,104.3827,31.1318,德阳市,西小区,细颗粒物(PM2.5),105,107,86,79,60,6,,22,18,49,30,7,4,1.2,0.8
2026-02-12T0900,1904A,104.3553,31.1091,德阳市,耐火材料厂,细颗粒物(PM2.5),117,120,80,88,65,5,,20,16,42,26,3,2,1.0,0.7
2026-02-12T0900,4145A,104.4144,31.1495,德阳市,市林业局,细颗粒物(PM2.5),85,73,73,63,53,4,,14,14,43,28,5,5,1.3,0.8
2026-02-12T0900,1622A,116.3034,37.4675,德州市,儿童乐园,颗粒物(PM10),113,175,142,78,63,54,,70,66,35,26,14,15,1.2,1.1
2026-02-12T0900,1624A,116.2992,37.4449,德州市,监理站,,,,142,,77,,,73,71,33,32,16,13,0.9,0.8
2026-02-12T0900,3066A,116.2722,37.438,德州市,九衢泉纯净水厂,细颗粒物(PM2.5),118,168,137,89,70,45,,60,56,42,33,9,10,1.1,1
2026-02-12T0900,3371A,116.3693,37.44,德州市,开发区人民医院,颗粒物(PM10),108,166,148,73,67,,,66,65,23,25,15,16,0.8,0.8
2026-02-12T0900,3511A,116.5687,37.3331,德州市,陵城艺术中心,颗粒物(PM10),112,173,133,76,65,50,,55,54,35,31,20,16,1.0,0.8
2026-02-12T0900,4292A,116.352738,37.420875,德州市,新河东路,颗粒物(PM10),107,163,136,72,61,48,,52,51,33,38,16,16,1.0,0.9
2026-02-12T0900,2621A,99.7054,27.8319,迪庆藏族自治州,迪庆州站,,,,23,,14,,,,,,8,,5,,0.7
2026-02-12T0900,3180A,99.7122,27.8129,迪庆藏族自治州,质量技术监督局,,31,31,22,16,14,55,,81,76,23,8,6,5,0.7,0.5
2026-02-12T0900,4257A,104.6092,35.5962,定西市,将台街,细颗粒物(PM2.5),95,113,102,71,50,9,,13,12,25,21,16,15,1.3,0.9
2026-02-12T0900,4309A,104.6159,35.5701,定西市,正龙路62号,颗粒物(PM10),68,86,99,43,41,22,,25,24,9,11,7,11,0.9,0.8
2026-02-12T0900,1390A,113.7943,23.0132,东莞市,东城石井,,50,50,33,31,20,79,,50,50,18,17,4,4,0.6,0.6
2026-02-12T0900,1391A,113.7384,22.9659,东莞市,南城西平,,44,44,31,29,20,80,,46,46,16,24,5,5,0.5,0.6
2026-02-12T0900,3319A,113.7283,23.041,东莞市,万江金泰,颗粒物(PM10),51,52,33,29,21,67,,41,41,18,15,5,5,0.7,0.7
2026-02-12T0900,4129A,113.8666,23.1062,东莞市,裕兴路,,31,31,30,18,16,46,,42,41,13,12,5,5,0.7,0.8
2026-02-12T0900,4130A,114.0076,22.9739,东莞市,教育路1号,,48,48,33,30,18,67,,55,55,18,18,3,4,0.5,0.5
2026-02-12T0900,4131A,113.7981,22.8124,东莞市,长怡路1号,,41,41,40,23,21,83,,75,75,14,18,6,6,0.6,0.6
2026-02-12T0900,1666A,118.6612,37.4313,东营市,市环保局,细颗粒物(PM2.5),128,146,92,97,60,46,,18,18,52,50,26,24,1.3,1
2026-02-12T0900,3036A,118.6903,37.4337,东营市,开发区管委会,细颗粒物(PM2.5),118,150,92,89,58,65,,29,29,50,51,25,27,1.2,0.9
2026-02-12T0900,3365A,118.5721,37.5654,东营市,垦利区民丰路,细颗粒物(PM2.5),110,153,88,83,55,42,,28,28,57,49,16,14,1.2,0.9
2026-02-12T0900,3498A,118.5063,37.8606,东营市,河口城区,细颗粒物(PM2.5),130,183,107,99,65,45,,29,29,62,49,16,14,1.4,1
2026-02-12T0900,3646A,118.4979,37.4623,东营市,胜利站,细颗粒物(PM2.5),127,140,86,96,47,31,,17,17,75,65,18,16,1.3,0.9
2026-02-12T0900,3734A,118.5753,37.4405,东营市,理想之城,细颗粒物(PM2.5),117,144,98,88,52,33,,12,12,58,56,15,14,1.2,0.9
2026-02-12T0900,1591A,110.0024,39.8127,鄂尔多斯市,综合楼,颗粒物(PM10),68,85,107,22,36,74,,76,76,17,30,10,12,0.6,0.7
2026-02-12T0900,1592A,109.9485,39.8259,鄂尔多斯市,巴音孟克林场办事处,颗粒物(PM10),64,78,88,22,30,72,,82,82,19,23,8,8,0.4,0.5
2026-02-12T0900,1593A,109.7734,39.5987,鄂尔多斯市,康泽苑,颗粒物(PM10),68,85,95,17,28,46,,47,47,26,21,4,5,0.5,0.4
2026-02-12T0900,1594A,109.8121,39.5987,鄂尔多斯市,华泰汽车城,颗粒物(PM10),73,95,95,23,29,11,,24,22,34,31,7,7,0.8,0.5
2026-02-12T0900,1595A,109.9734,39.7884,鄂尔多斯市,奥林花园,颗粒物(PM10),70,90,98,24,26,56,,64,64,34,34,6,6,0.5,0.5
2026-02-12T0900,2436A,114.894,30.3989,鄂州市,市政府,细颗粒物(PM2.5),127,128,128,96,94,31,,31,29,37,47,25,23,0.9,1.1
2026-02-12T0900,2437A,114.8986,30.3714,鄂州市,赵家坝,细颗粒物(PM2.5),93,105,112,69,88,52,,66,63,17,26,9,13,0.9,1.2
2026-02-12T0900,3654A,114.8093,30.4091,鄂州市,精准医疗中心,细颗粒物(PM2.5),112,129,120,84,87,37,,38,38,44,50,22,20,1.0,1.2
2026-02-12T0900,2454A,109.4978,30.2979,恩施土家族苗族自治州,湖北民院,,50,50,57,32,39,9,,24,20,1,3,6,6,0.8,0.8
2026-02-12T0900,3549A,109.5061,30.3771,恩施土家族苗族自治州,龙凤新区,,48,48,53,31,31,13,,23,20,9,12,7,7,0.7,0.7
2026-02-12T0900,2499A,108.3411,21.6159,防城港市,沙万,细颗粒物(PM2.5),53,47,22,37,13,25,,32,30,15,12,6,6,0.6,0.5
2026-02-12T0900,2500A,108.3515,21.7733,防城港市,防城档案局,,40,30,22,28,15,21,,31,29,11,9,5,5,0.7,0.6
2026-02-12T0900,2501A,108.3506,21.6414,防城港市,大海花园,细颗粒物(PM2.5),84,64,36,62,25,26,,32,30,20,16,6,6,1.3,1.1
2026-02-12T0900,1371A,113.1293,23.0065,佛山市,湾梁,,,,36,,24,,,103,,,18,,,,
2026-02-12T0900,1372A,113.1082,23.0477,佛山市,华材职中,,29,27,33,20,27,18,,24,22,25,22,6,6,0.5,0.5
2026-02-12T0900,1373A,113.1439,23.045,佛山市,南海气象局,,25,20,31,17,24,14,,22,20,24,19,/,/,/,/
2026-02-12T0900,1374A,113.2879,22.8094,佛山市,顺德苏岗,,30,29,42,21,27,11,,19,17,36,27,/,/,0.9,0.8
2026-02-12T0900,1376A,112.8384,22.8678,佛山市,高明孔堂,,25,25,35,15,24,23,,29,27,20,16,/,/,/,/
2026-02-12T0900,1377A,112.8835,23.1584,佛山市,三水监测站,,23,22,27,16,20,23,,29,28,16,11,3,3,0.6,0.6
2026-02-12T0900,1378A,112.8668,23.185,佛山市,三水云东海,,23,23,26,14,17,23,,29,28,18,15,/,/,/,/
2026-02-12T0900,3625A,113.2568,22.7629,佛山市,容桂街道办,,31,31,40,21,26,11,,20,17,34,25,/,/,/,/
2026-02-12T0900,1282A,119.2681,26.0506,福州市,师大,,50,50,31,30,26,52,,61,61,18,19,4,3,0.6,0.4
2026-02-12T0900,1283A,119.2983,26.1028,福州市,五四北路,细颗粒物(PM2.5),54,53,28,38,29,84,,79,79,18,20,6,4,0.7,0.5
2026-02-12T0900,1284A,119.2648,26.0769,福州市,杨桥西路,,48,47,29,33,25,70,,65,65,20,21,5,4,/,/
2026-02-12T0900,3048A,119.5799,26.0937,福州市,九龙,,50,49,30,35,23,80,,65,65,13,12,5,4,0.7,0.5
2026-02-12T0900,3526A,119.5188,25.9666,福州市,吴航,颗粒物(PM10),57,63,40,39,26,94,,84,84,16,13,6,5,0.8,0.7
2026-02-12T0900,4104A,119.3106,26.0648,福州市,路通桥巷6号,细颗粒物(PM2.5),60,60,36,43,32,78,,72,72,19,19,/,/,/,/
2026-02-12T0900,1755A,123.7974,41.8494,抚顺市,望花区,细颗粒物(PM2.5),92,110,100,68,61,17,,6,6,44,42,11,16,1.4,1.2
2026-02-12T0900,1756A,123.9161,41.8827,抚顺市,顺城区,细颗粒物(PM2.5),79,80,92,58,66,31,,8,8,38,46,14,14,1.3,1.4
2026-02-12T0900,1757A,124.0437,41.8615,抚顺市,东洲区,细颗粒物(PM2.5),79,60,82,58,48,39,,32,32,23,27,16,16,1.0,1.1
2026-02-12T0900,1758A,123.9246,41.8638,抚顺市,新抚区,细颗粒物(PM2.5),87,84,105,64,62,28,,8,8,36,41,12,10,1.0,1.1
2026-02-12T0900,1759A,124.0972,41.8961,抚顺市,大伙房水库,细颗粒物(PM2.5),54,50,63,38,40,38,,33,32,22,21,12,13,1.0,1
2026-02-12T0900,1760A,123.708,41.8386,抚顺市,沈抚新城,细颗粒物(PM2.5),79,91,94,58,55,16,,7,6,59,52,26,14,2.8,1.2
2026-02-12T0900,2377A,116.3544,27.9833,抚州市,市站,,47,47,58,26,47,18,,22,20,13,15,5,5,1.4,1.2
2026-02-12T0900,2378A,116.3562,27.9631,抚州市,血防站,颗粒物(PM10),52,53,61,24,44,13,,9,9,13,16,5,5,1.0,1
2026-02-12T0900,2379A,116.3561,28.0007,抚州市,采茶剧团,,37,37,59,15,41,8,,12,10,11,10,4,4,1.4,1.3
2026-02-12T0900,2380A,116.3854,27.9648,抚州市,医学分院,颗粒物(PM10),54,57,64,29,39,12,,10,9,16,15,5,5,1.2,1.1
2026-02-12T0900,2207A,121.6095,41.9978,阜新市,工业园区,细颗粒物(PM2.5),166,183,115,126,70,16,,10,10,49,34,19,21,1.6,1
2026-02-12T0900,2208A,121.6567,42.0188,阜新市,长青街,细颗粒物(PM2.5),137,158,78,104,67,13,,4,4,48,38,28,17,1.7,1
2026-02-12T0900,2209A,121.6672,42.07,阜新市,农业园区,细颗粒物(PM2.5),95,,84,71,56,52,,50,50,21,20,24,23,1.0,0.7
2026-02-12T0900,2211A,121.6343,42.0455,阜新市,玉龙新城,细颗粒物(PM2.5),162,149,92,123,64,19,,10,10,51,40,18,20,1.8,1.1
2026-02-12T0900,2301A,115.8276,32.8929,阜阳市,市监测站,细颗粒物(PM2.5),93,129,136,69,55,57,,66,64,26,22,6,6,0.7,0.6
2026-02-12T0900,2303A,115.8551,32.8606,阜阳市,开发区,"颗粒物(PM10),细颗粒物(PM2.5)",88,125,139,65,53,48,,65,62,30,18,6,7,0.6,0.5
2026-02-12T0900,2875A,115.783962,32.889217,阜阳市,阜阳职业技术学院,颗粒物(PM10),88,125,127,61,44,63,,83,80,28,18,7,8,0.6,0.5
2026-02-12T0900,3468A,115.79,32.8614,阜阳市,市规划展馆,颗粒物(PM10),97,144,138,68,47,55,,78,75,22,16,7,9,0.6,0.6
2026-02-12T0900,3469A,115.835101,32.918568,阜阳市,枣园社区,颗粒物(PM10),95,139,140,47,39,52,,61,57,34,31,7,8,0.6,0.5
2026-02-12T0900,2669A,102.9097,34.9841,甘南藏族自治州,州政府,细颗粒物(PM2.5),64,74,52,46,34,11,,27,25,30,18,8,8,1.2,0.6
2026-02-12T0900,3380A,102.8915,34.9618,甘南藏族自治州,甘肃民族师范学院,颗粒物(PM10),62,74,53,39,19,31,,37,36,19,18,9,10,0.4,0.4
2026-02-12T0900,2570A,101.96,30.048,甘孜藏族自治州,水桥子,,24,24,19,8,7,31,,38,37,16,7,6,6,0.8,0.7
2026-02-12T0900,3065A,101.9534,29.9976,甘孜藏族自治州,州环保局,,18,13,14,3,7,56,,62,61,9,6,6,6,0.7,0.7
2026-02-12T0900,2363A,114.9368,25.8663,赣州市,地委,,43,43,33,29,27,29,,33,32,14,13,7,7,0.7,0.7
2026-02-12T0900,2364A,114.946,25.8483,赣州市,气象台,,48,46,44,33,29,19,,28,25,24,17,5,6,0.6,0.6
2026-02-12T0900,2365A,114.932,25.8332,赣州市,市图书馆,细颗粒物(PM2.5),52,38,36,36,31,21,,30,28,19,14,4,4,0.9,0.9
2026-02-12T0900,2366A,114.8905,25.8472,赣州市,华坚鞋城,,47,47,37,29,26,20,,31,28,22,17,6,5,0.6,0.5
2026-02-12T0900,3109A,115.0094,25.8614,赣州市,赣县区卫计委,,42,42,30,26,25,30,,27,27,12,12,7,7,0.7,0.8
2026-02-12T0900,2684A,106.2753,36.0057,固原市,监测站,颗粒物(PM10),69,87,132,34,53,38,,69,66,39,19,12,11,1.1,0.6
2026-02-12T0900,2685A,106.2384,36.0189,固原市,新区,颗粒物(PM10),61,72,113,28,36,33,,70,66,53,21,7,8,0.9,0.6
2026-02-12T0900,2544A,106.6307,30.4577,广安市,市委,细颗粒物(PM2.5),134,125,92,102,76,6,,9,9,48,39,7,6,1.6,1.1
2026-02-12T0900,2545A,106.6266,30.4662,广安市,友谊中学,细颗粒物(PM2.5),80,77,81,59,60,14,,16,14,38,34,7,6,1.4,1.2
2026-02-12T0900,2547A,106.6386,30.4551,广安市,广电花园,细颗粒物(PM2.5),112,,77,84,75,4,,11,10,25,31,7,7,1.1,0.9
2026-02-12T0900,2902A,106.6347,30.4868,广安市,北辰小学,细颗粒物(PM2.5),98,79,76,73,66,8,,18,14,23,21,8,9,1.0,0.9
2026-02-12T0900,2524A,105.8211,32.4444,广元市,老城,细颗粒物(PM2.5),93,124,90,69,47,8,,15,14,42,43,6,9,0.9,0.8
2026-02-12T0900,2526A,105.8629,32.429,广元市,监测站,颗粒物(PM10),57,64,63,39,39,11,,32,28,27,19,5,6,0.8,0.5
2026-02-12T0900,3617A,105.8047,32.4167,广元市,经开区,细颗粒物(PM2.5),74,85,90,54,52,4,,3,2,36,33,4,16,1.2,1.1
2026-02-12T0900,1345A,113.2346,23.1423,广州市,广雅中学,,23,21,33,16,22,20,,17,16,29,27,3,3,0.6,0.7
2026-02-12T0900,1346A,113.2611,23.105,广州市,市五中,,22,21,34,15,21,22,,25,24,24,20,6,7,/,/
2026-02-12T0900,1348A,113.3477,23.0916,广州市,广东商学院,,25,22,32,17,24,18,,26,26,30,19,6,6,0.9,0.8
2026-02-12T0900,1349A,113.4332,23.105,广州市,市八十六中,,24,24,32,16,20,22,,25,24,34,24,4,6,/,/
2026-02-12T0900,1350A,113.3506,22.9488,广州市,番禺中学,,26,,45,18,23,31,,25,25,26,23,2,3,0.7,0.7
2026-02-12T0900,1351A,113.2147,23.3918,广州市,花都师范,,19,18,24,13,18,25,,33,32,21,16,5,5,0.7,0.8
2026-02-12T0900,1352A,113.2599,23.1329,广州市,市监测站,,22,21,35,15,22,20,,21,20,16,15,2,2,/,/
2026-02-12T0900,1353A,113.5618,23.3119,广州市,九龙镇镇龙,,22,21,31,15,22,20,,24,23,15,15,5,5,0.7,0.7
2026-02-12T0900,1354A,113.2764,23.1544,广州市,麓湖,,20,18,32,14,24,20,,21,21,22,21,4,4,0.6,0.6
2026-02-12T0900,2846A,113.3209,23.1323,广州市,体育西,,25,22,37,17,24,23,,25,25,27,22,6,6,0.8,0.8
2026-02-12T0900,3298A,113.5718,23.5493,广州市,从化街口,,22,21,29,15,22,22,,21,21,18,18,11,8,0.8,0.8
2026-02-12T0900,3299A,113.3463,23.369,广州市,白云竹料,,25,21,27,17,20,28,,30,30,14,16,4,4,0.7,0.7
2026-02-12T0900,3300A,113.2981,23.2365,广州市,白云嘉禾,,20,20,30,13,20,23,,26,26,20,21,6,6,/,/
2026-02-12T0900,3301A,113.4256,23.1716,广州市,黄埔科学城,,23,20,29,16,22,33,,30,30,19,16,5,5,0.7,0.7
2026-02-12T0900,3302A,113.3942,23.0485,广州市,番禺大学城,,30,30,47,16,22,18,,25,23,31,20,8,7,0.7,0.6
2026-02-12T0900,3303A,113.4923,22.8169,广州市,南沙黄阁,,44,44,47,27,27,65,,28,28,20,33,5,7,/,/
2026-02-12T0900,3304A,113.534,22.7893,广州市,南沙街,颗粒物(PM10),53,55,49,29,29,67,,35,35,20,30,4,6,0.5,0.7
2026-02-12T0900,3443A,113.2905,23.5541,广州市,花都梯面,,19,16,22,13,18,22,,24,23,11,12,5,5,/,/
2026-02-12T0900,3445A,113.786,23.7479,广州市,从化良口,,19,15,18,13,16,24,,25,24,8,9,7,7,/,/
2026-02-12T0900,3446A,113.805,23.2614,广州市,增城荔城,,21,21,23,14,16,37,,43,41,15,12,5,5,0.5,0.5
2026-02-12T0900,2506A,109.604387,23.066791,贵港市,江南子站,,30,,23,21,17,14,,24,23,14,16,4,4,0.8,0.9
2026-02-12T0900,2508A,109.5669,23.1065,贵港市,荷城子站,,22,22,22,15,11,13,,18,17,22,17,6,5,1.2,1.1
2026-02-12T0900,3405A,109.5886,23.1172,贵港市,新世纪学校,,29,,24,20,19,14,,19,19,24,19,/,/,0.7,0.7
2026-02-12T0900,4260A,109.5933,23.095,贵港市,中山路155-3号,,30,25,26,21,22,15,,21,21,20,16,/,/,0.7,0.6
2026-02-12T0900,1439A,106.6863,26.6035,贵阳市,马鞍山,,30,27,30,21,20,19,,28,25,15,17,4,9,/,/
2026-02-12T0900,1441A,106.6241,26.6266,贵阳市,鉴湖路,,19,19,33,10,18,19,,34,32,17,15,2,6,0.6,0.6
2026-02-12T0900,1442A,106.7468,26.6344,贵阳市,燕子冲,,26,19,34,18,22,31,,40,38,12,17,7,11,0.6,0.6
2026-02-12T0900,1443A,106.6556,26.4362,贵阳市,碧云窝,,,,36,,18,21,,34,32,17,11,,19,/,/
2026-02-12T0900,1445A,106.6963,26.6063,贵阳市,红边门,,40,,34,28,25,17,,31,28,24,23,6,13,/,/
2026-02-12T0900,1446A,106.7162383,26.56964667,贵阳市,新华路,,41,41,42,25,23,18,,30,27,24,25,4,10,0.5,0.5
2026-02-12T0900,1447A,106.6742,26.542,贵阳市,太慈桥,,39,27,30,27,21,23,,33,31,28,17,5,5,/,/
2026-02-12T0900,4230A,106.688212,26.56952,贵阳市,花果园大街66号,,36,,27,25,22,8,,21,18,24,21,1,5,/,/
2026-02-12T0900,4231A,106.687268,26.516892,贵阳市,漓江路57号,,27,27,33,18,20,9,,26,22,26,17,7,13,0.8,0.7
2026-02-12T0900,1864A,110.3091,25.2705,桂林市,龙隐路小学,,45,,26,31,25,11,,16,15,19,12,3,3,0.8,0.7
2026-02-12T0900,1865A,110.2849361,25.22909545,桂林市,八中,,35,32,30,24,22,9,,14,13,26,21,3,3,0.7,0.8
2026-02-12T0900,3531A,110.296,25.1254,桂林市,旅游学院,,36,28,30,25,23,22,,22,21,8,11,4,4,0.8,0.8
2026-02-12T0900,4222A,110.1835,25.2444,桂林市,环湖路276号,,33,31,25,23,20,14,,26,24,32,19,2,2,1.0,1
2026-02-12T0900,4301A,110.2803,25.2773,桂林市,信义路13号,,38,,26,26,25,14,,22,20,23,17,4,5,1.2,1.1
2026-02-12T0900,2674A,100.2262,34.4854,果洛藏族自治州,玛沁县大武镇,颗粒物(PM10),54,57,44,22,14,43,,48,47,6,4,20,16,0.4,0.4
2026-02-12T0900,1130A,126.5557,45.8109,哈尔滨市,松北商大,细颗粒物(PM2.5),74,62,53,54,46,42,,24,24,32,37,10,7,1.0,0.9
2026-02-12T0900,1132A,126.6162,45.719,哈尔滨市,南岗学府路,细颗粒物(PM2.5),59,57,67,42,46,35,,18,18,34,33,14,11,1.0,1
2026-02-12T0900,1133A,126.6894,45.7733,哈尔滨市,太平宏伟公园,颗粒物(PM10),73,95,89,45,68,31,,12,12,23,20,15,10,1.3,1.4
2026-02-12T0900,1134A,126.6361,45.7672,哈尔滨市,道外承德广场,颗粒物(PM10),63,75,77,44,44,35,,13,13,47,49,12,11,1.1,0.9
2026-02-12T0900,1136A,126.644,45.7261,哈尔滨市,动力和平路,细颗粒物(PM2.5),57,50,53,40,38,42,,23,23,38,35,16,14,0.9,0.8
2026-02-12T0900,1137A,126.5933,45.7479,哈尔滨市,道里建国路,细颗粒物(PM2.5),68,,55,49,46,33,,15,15,52,50,27,17,1.0,0.9
2026-02-12T0900,1138A,126.6127,45.6119,哈尔滨市,平房东轻厂,细颗粒物(PM2.5),104,82,63,78,56,41,,20,20,30,49,9,11,1.1,0.9
2026-02-12T0900,1139A,126.5875,45.9827,哈尔滨市,呼兰师专,细颗粒物(PM2.5),85,80,79,63,67,45,,35,35,26,33,14,14,1.2,1.1
2026-02-12T0900,1140A,126.6299,45.6799,哈尔滨市,省农科院,细颗粒物(PM2.5),105,90,68,79,50,26,,14,14,46,41,20,12,1.2,0.9
2026-02-12T0900,4282A,126.6769,45.7379,哈尔滨市,华山路1号,颗粒物(PM10),52,53,60,29,41,40,,20,20,38,38,21,16,1.1,1.2
2026-02-12T0900,4283A,126.9717,45.5356,哈尔滨市,解放大街52号,颗粒物(PM10),73,96,61,50,43,49,,47,47,20,18,28,24,1.0,0.8
2026-02-12T0900,2688A,93.5124,42.8176,哈密市,地区监测站,颗粒物(PM10),96,141,92,36,42,59,,48,48,8,16,5,8,0.1,0.5
2026-02-12T0900,2689A,93.5014,42.8312,哈密市,哈密师范学校,颗粒物(PM10),91,131,94,27,36,61,,43,43,14,30,5,7,0.3,0.8
2026-02-12T0900,2671A,100.9016,36.9464,海北藏族自治州,海晏县西海镇,,36,36,24,18,12,42,,53,51,5,2,7,8,0.6,0.4
2026-02-12T0900,3867A,102.074,36.5056,海东市,平安区公安局北苑,细颗粒物(PM2.5),72,83,68,52,42,11,,37,32,40,21,13,22,1.4,1.1
2026-02-12T0900,4163A,102.0984,36.5119,海东市,滨河路,颗粒物(PM10),65,79,74,44,44,8,,25,23,52,38,12,25,1.1,1.1
2026-02-12T0900,1410A,110.3189,20.0596,海口市,海南大学,,34,34,34,17,14,80,,86,85,6,5,5,5,0.4,0.4
2026-02-12T0900,1411A,110.2827,20.0051,海口市,秀英海南医院,,28,22,30,14,14,87,,82,82,7,7,7,7,0.3,0.3
2026-02-12T0900,1412A,110.3391,19.9979,海口市,海南师范大学,,29,23,33,16,15,90,,86,86,6,6,5,5,0.4,0.4
2026-02-12T0900,1413A,110.3303,20.0359,海口市,龙华路环保局宿舍,,27,25,32,15,16,85,,88,87,8,7,/,/,0.6,0.6
2026-02-12T0900,3539A,110.5111,19.9737,海口市,桂林洋子站,,35,35,31,22,16,74,,73,73,6,4,/,/,/,/
2026-02-12T0900,4134A,110.1952,20.0451,海口市,长滨二路9号,,23,23,28,12,14,73,,75,75,7,5,/,/,/,/
2026-02-12T0900,2673A,100.6158,36.2985,海南藏族自治州,共和县恰卜恰镇,,50,50,40,26,28,16,,25,22,31,19,11,12,0.6,0.5
2026-02-12T0900,2676A,97.373,37.376,海西蒙古族藏族自治州,德令哈市,,29,29,212,11,12,75,,74,74,2,9,20,18,0.4,0.5
2026-02-12T0900,1049A,114.492,36.5712,邯郸市,矿院,颗粒物(PM10),80,110,108,48,61,12,,20,17,50,26,6,9,1.2,0.8
2026-02-12T0900,1050A,114.4839,36.6136,邯郸市,丛台公园,细颗粒物(PM2.5),89,114,113,66,56,20,,27,24,54,34,16,14,1.2,1.1
2026-02-12T0900,3458A,114.7893,36.5592,邯郸市,香泉濮院小区,颗粒物(PM10),101,151,131,49,52,35,,52,48,27,17,6,7,0.8,0.7
2026-02-12T0900,3580A,114.1998,36.4439,邯郸市,峰峰矿区临水派出所,颗粒物(PM10),68,86,90,22,36,56,,70,66,22,11,33,13,1.6,1
2026-02-12T0900,4068A,114.5209,36.7697,邯郸市,建安街268号,,,120,108,54,54,9,,20,14,44,24,10,13,,1.1
2026-02-12T0900,4069A,114.5488,36.6177,邯郸市,丛台东路558号,颗粒物(PM10),127,204,127,,75,4,,22,17,70,33,6,8,1.1,0.8
2026-02-12T0900,2635A,107.0155,33.0707,汉中市,市监测站,颗粒物(PM10),71,92,101,49,53,19,,25,24,35,28,9,7,1.3,0.9
2026-02-12T0900,2636A,107.0083,33.114,汉中市,鑫源开发区,细颗粒物(PM2.5),63,74,88,45,48,25,,26,25,25,23,5,6,1.1,0.9
2026-02-12T0900,2637A,107.0072,33.0323,汉中市,南郑大河坎水厂,细颗粒物(PM2.5),72,80,93,52,51,8,,35,31,30,22,5,6,1.0,0.8
2026-02-12T0900,1223A,120.2073,30.2111,杭州市,滨江,细颗粒物(PM2.5),84,93,94,62,56,33,,22,22,28,32,7,7,0.6,0.6
2026-02-12T0900,1224A,120.0625,30.2737,杭州市,西溪,细颗粒物(PM2.5),82,94,80,60,44,20,,11,11,31,22,8,9,0.9,0.8
2026-02-12T0900,1226A,120.3417,30.315,杭州市,下沙,细颗粒物(PM2.5),119,124,97,90,65,8,,18,12,69,45,10,10,0.8,0.5
2026-02-12T0900,1227A,120.1252,30.2465,杭州市,卧龙桥,细颗粒物(PM2.5),89,91,73,66,44,34,,15,15,18,16,8,8,0.7,0.6
2026-02-12T0900,1228A,120.1902,30.2691,杭州市,浙江农大,细颗粒物(PM2.5),92,96,91,68,52,25,,12,12,41,36,6,6,1.0,0.8
2026-02-12T0900,1230A,120.1195,30.3121,杭州市,和睦小学,细颗粒物(PM2.5),103,111,96,77,58,23,,19,19,,30,,5,0.8,0.8
2026-02-12T0900,1231A,120.3076,30.4146,杭州市,临平镇,细颗粒物(PM2.5),122,125,104,92,65,23,,32,26,36,26,7,7,0.9,0.8
2026-02-12T0900,1232A,120.2753,30.1839,杭州市,城厢镇,细颗粒物(PM2.5),77,94,90,56,54,46,,37,37,23,30,7,8,0.9,0.9
2026-02-12T0900,1233A,120.0883,30.1808,杭州市,云栖,细颗粒物(PM2.5),79,89,77,58,42,23,,23,21,19,15,4,5,0.8,0.6
2026-02-12T0900,3557A,119.9463,30.0496,杭州市,镇二中,细颗粒物(PM2.5),74,64,68,54,46,25,,27,27,24,26,5,5,1.1,1
2026-02-12T0900,3558A,119.7184,30.2367,杭州市,市府大楼,细颗粒物(PM2.5),79,60,59,58,47,31,,30,30,16,17,10,11,0.7,0.6
2026-02-12T0900,3656A,120.1554,30.2863,杭州市,消防大队,细颗粒物(PM2.5),100,103,93,75,61,20,,29,28,38,30,7,6,1.1,0.9
2026-02-12T0900,1270A,117.1957,31.7845,合肥市,明珠广场,细颗粒物(PM2.5),113,171,134,85,64,30,,51,48,55,39,8,8,1.1,0.7
2026-02-12T0900,1271A,117.307,31.8765,合肥市,三里街,细颗粒物(PM2.5),105,151,131,79,63,37,,35,33,44,51,7,7,1.3,1.2
2026-02-12T0900,1272A,117.2587,31.8703,合肥市,琥珀山庄,细颗粒物(PM2.5),112,149,136,84,69,37,,,,44,56,8,9,1.0,1
2026-02-12T0900,1275A,117.2593,31.9376,合肥市,庐阳区,颗粒物(PM10),100,149,133,73,60,32,,35,35,61,52,10,9,1.0,0.8
2026-02-12T0900,1276A,117.345251,31.861615,合肥市,瑶海区,"颗粒物(PM10),细颗粒物(PM2.5)",93,136,127,69,56,56,,68,65,36,40,6,6,0.6,0.6
2026-02-12T0900,1277A,117.3033,31.7967,合肥市,包河区,细颗粒物(PM2.5),107,158,139,80,64,30,,19,18,60,70,10,9,1.0,1
2026-02-12T0900,1278A,117.278,31.7392,合肥市,滨湖新区,细颗粒物(PM2.5),110,151,139,83,62,56,,68,64,23,27,4,4,0.9,0.9
2026-02-12T0900,1279A,117.1324,31.8395,合肥市,高新区,细颗粒物(PM2.5),104,144,132,78,61,60,,68,66,30,21,6,6,0.8,0.7
2026-02-12T0900,3464A,117.3802,31.9148,合肥市,高教基地,颗粒物(PM10),89,127,115,65,54,61,,51,51,26,32,9,8,0.7,0.7
2026-02-12T0900,4098A,117.2518,31.8404,合肥市,中国科学技术大学,"颗粒物(PM10),细颗粒物(PM2.5)",102,153,128,76,56,35,,44,43,47,38,10,9,1.1,0.9
2026-02-12T0900,3614A,79.9241,37.0878,和田地区,地区环保局,颗粒物(PM10),383,486,525,98,131,51,,31,31,15,30,1,5,1.6,2.3
2026-02-12T0900,3615A,79.9132,37.1137,和田地区,市环保局,颗粒物(PM10),345,456,511,167,130,35,,28,28,38,41,3,5,1.0,1.5
2026-02-12T0900,2517A,108.0496,24.6957,河池市,市环保站,,37,37,28,24,18,35,,39,39,13,15,2,5,0.8,0.8
2026-02-12T0900,4302A,108.0901,24.6945,河池市,上任中路54号,细颗粒物(PM2.5),52,43,29,36,18,24,,34,34,18,14,6,6,0.7,0.9
2026-02-12T0900,1697A,114.6962,23.7538,河源市,东埔,,26,20,19,18,17,28,,32,31,11,11,5,5,0.7,0.6
2026-02-12T0900,1698A,114.6895,23.7232,河源市,老城,,23,16,20,16,16,26,,33,31,12,10,6,6,0.7,0.6
2026-02-12T0900,3374A,115.5562,35.089,菏泽市,定陶老年大学,细颗粒物(PM2.5),114,158,163,86,78,56,,64,62,21,22,6,8,1.0,1
2026-02-12T0900,4114A,115.4239,35.2593,菏泽市,黄河路600号,细颗粒物(PM2.5),113,160,173,85,86,51,,60,58,17,22,6,8,0.6,0.6
2026-02-12T0900,4115A,115.5025,35.2727,菏泽市,菏泽市人社局,颗粒物(PM10),96,141,160,70,75,64,,73,70,20,24,5,8,0.6,0.7
2026-02-12T0900,4184A,115.479691,35.244011,菏泽市,永昌路1号,细颗粒物(PM2.5),123,158,163,93,74,63,,76,73,17,20,4,6,0.6,0.6
2026-02-12T0900,4193A,115.471542,35.280012,菏泽市,长城路999号,颗粒物(PM10),100,150,166,70,72,64,,74,71,20,25,4,7,0.7,0.7
2026-02-12T0900,2514A,111.5264,24.4178,贺州市,环保小区,,33,30,19,23,14,23,,28,27,10,12,4,3,0.5,0.4
2026-02-12T0900,2515A,111.561,24.4074,贺州市,政协大楼,,36,32,21,25,14,14,,24,21,13,11,4,4,0.9,0.8
2026-02-12T0900,3534A,111.4744,24.455,贺州市,西湾,,34,34,27,23,13,18,,22,20,13,13,5,5,0.9,0.8
2026-02-12T0900,2385A,114.17,35.9019,鹤壁市,市监测站,细颗粒物(PM2.5),94,124,111,70,48,33,,49,44,36,24,6,6,0.7,0.7
2026-02-12T0900,2386A,114.2953,35.7512,鹤壁市,市交警支队,颗粒物(PM10),112,173,135,74,54,11,,28,23,54,33,9,8,1.1,0.7
2026-02-12T0900,2387A,114.2877,35.7302,鹤壁市,迎宾馆,,,,140,,53,,,28,26,46,38,,5,1.1,0.8
2026-02-12T0900,3474A,114.2616,35.6824,鹤壁市,大新区,颗粒物(PM10),109,167,144,74,58,17,,26,24,36,35,7,10,1.0,0.8
2026-02-12T0900,3596A,114.1573,35.9607,鹤壁市,南山宾馆,颗粒物(PM10),85,120,136,55,53,70,,72,70,11,14,10,12,0.6,0.6
2026-02-12T0900,2244A,130.2537,47.3416,鹤岗市,哈啤分公司,细颗粒物(PM2.5),65,47,33,47,27,73,,95,92,24,11,9,9,0.7,0.4
2026-02-12T0900,2245A,130.2683,47.3087,鹤岗市,斯达机电,颗粒物(PM10),64,77,44,34,26,96,,100,100,24,12,8,7,0.7,0.5
2026-02-12T0900,2246A,130.3114,47.3388,鹤岗市,东山纸板厂,,40,37,44,28,36,72,,72,72,23,25,10,12,1.0,1.3
2026-02-12T0900,2263A,127.4832,50.2524,黑河市,交通局,,33,33,19,14,13,53,,69,66,27,10,6,5,0.4,0.3
2026-02-12T0900,2264A,127.5146,50.2339,黑河市,环保局,,,,23,,15,,,75,,,15,,6,,0.6
2026-02-12T0900,1074A,115.6839,37.754,衡水市,电机北厂,颗粒物(PM10),105,160,131,62,68,50,,62,59,32,24,10,8,0.8,0.7
2026-02-12T0900,1075A,115.6303,37.7318,衡水市,市监测站,颗粒物(PM10),109,167,131,65,66,40,,54,50,37,29,10,11,0.8,0.6
2026-02-12T0900,3188A,115.6684,37.7216,衡水市,市城管局,颗粒物(PM10),110,170,134,61,62,41,,57,52,37,29,8,11,1.0,0.7
2026-02-12T0900,3459A,115.599,37.5491,衡水市,地表水厂,颗粒物(PM10),104,157,134,75,73,23,,33,31,49,39,14,11,1.0,0.7
2026-02-12T0900,2457A,112.6209,26.9268,衡阳市,衡阳化工总厂,细颗粒物(PM2.5),84,76,65,62,57,2,,0,0,21,23,10,10,1.3,1.3
2026-02-12T0900,2458A,112.621,26.8957,衡阳市,珠晖区环保局,细颗粒物(PM2.5),78,76,75,57,61,8,,3,3,22,26,7,7,1.7,1.6
2026-02-12T0900,2459A,112.628,26.8654,衡阳市,市委党校,,,,70,,64,,,31,,,20,,10,,1.5
2026-02-12T0900,2460A,112.6007,26.8977,衡阳市,市监测站,细颗粒物(PM2.5),84,81,93,62,66,5,,1,1,22,27,8,9,1.4,1.7
2026-02-12T0900,2461A,112.5658,26.9013,衡阳市,真空机电公司,细颗粒物(PM2.5),82,76,78,60,67,8,,2,2,25,29,8,11,1.4,1.5
2026-02-12T0900,3399A,112.6703,26.8817,衡阳市,师范学院,细颗粒物(PM2.5),72,71,73,52,57,6,,1,1,22,26,4,4,1.3,1.3
2026-02-12T0900,3038A,103.3757,23.3679,红河哈尼族彝族自治州,州图书馆,,,25,22,20,19,,,62,62,7,5,10,10,0.6,0.7
2026-02-12T0900,4154A,103.401,23.3561,红河哈尼族彝族自治州,蒙自市朝阳路,,29,23,14,20,20,62,,59,59,4,3,6,6,0.5,0.5
2026-02-12T0900,1090A,111.6506,40.7517,呼和浩特市,呼市一监,颗粒物(PM10),79,107,86,49,39,14,,5,5,40,45,12,12,1.3,0.8
2026-02-12T0900,1094A,111.7516,40.8369,呼和浩特市,如意水处理厂,颗粒物(PM10),73,96,75,42,33,8,,3,3,59,50,15,14,1.2,0.8
2026-02-12T0900,1095A,111.727798,40.806187,呼和浩特市,二十九中,颗粒物(PM10),77,104,78,41,32,8,,20,18,55,37,17,15,1.4,0.7
2026-02-12T0900,1097A,111.717,40.7617,呼和浩特市,化肥厂生活区,颗粒物(PM10),82,114,90,48,38,15,,18,16,40,39,11,10,1.4,0.8
2026-02-12T0900,3699A,111.6519,40.8389,呼和浩特市,海东办,颗粒物(PM10),63,75,82,33,35,10,,4,4,50,45,6,7,0.9,0.7
2026-02-12T0900,4275A,111.591512,40.827312,呼和浩特市,成吉思汗西街8号,颗粒物(PM10),58,66,68,31,26,24,,24,22,39,34,6,7,0.7,0.5
2026-02-12T0900,4276A,111.6597,40.8077,呼和浩特市,公园东路75号,,,92,86,46,34,,,17,17,50,50,12,10,1.3,0.9
2026-02-12T0900,4277A,111.5427,40.7846,呼和浩特市,金海路35号,颗粒物(PM10),56,62,75,29,30,29,,20,20,42,37,9,9,0.4,0.3
2026-02-12T0900,3061A,119.7511,49.1576,呼伦贝尔市,国华电力东,,22,21,24,7,16,70,,70,70,13,15,6,6,0.4,0.4
2026-02-12T0900,4279A,119.7569,49.2222,呼伦贝尔市,伊敏大街东7号,,,,50,,38,,,,,,40,,9,,0.5
2026-02-12T0900,1250A,120.075,30.867,湖州市,城西水厂,细颗粒物(PM2.5),113,117,96,85,67,37,,24,24,37,38,6,6,0.8,0.7
2026-02-12T0900,2873A,120.083,30.8929,湖州市,仁皇山新区,细颗粒物(PM2.5),113,117,95,85,65,23,,26,24,47,34,6,6,0.7,0.6
2026-02-12T0900,2907A,120.1846,30.8592,湖州市,吴兴区站,细颗粒物(PM2.5),150,153,102,115,74,38,,23,22,34,29,6,6,0.9,0.8
2026-02-12T0900,3562A,120.4146,30.8538,湖州市,南浔区站,细颗粒物(PM2.5),107,128,107,80,69,45,,42,41,23,23,7,8,1.0,0.9
2026-02-12T0900,1607A,120.904878,40.721091,葫芦岛市,龙港区,细颗粒物(PM2.5),195,261,110,146,77,17,,9,8,66,43,173,22,3.4,1.3
2026-02-12T0900,1608A,120.8382,40.7521,葫芦岛市,化工街,细颗粒物(PM2.5),178,183,119,134,80,14,,7,7,61,57,58,28,2.4,1.4
2026-02-12T0900,1609A,120.8339,40.7078,葫芦岛市,新区,细颗粒物(PM2.5),203,181,97,153,83,16,,7,7,64,53,166,28,3.5,1.5
2026-02-12T0900,1610A,120.8697,40.7679,葫芦岛市,东城区,细颗粒物(PM2.5),176,176,110,133,84,13,,7,7,57,53,42,25,2.8,1.7
2026-02-12T0900,2483A,109.9297,27.5383,怀化市,河西地税局,细颗粒物(PM2.5),77,68,57,56,43,2,,0,0,23,22,3,3,/,/
2026-02-12T0900,2484A,109.9783,27.5342,怀化市,市四医院,细颗粒物(PM2.5),77,74,61,56,48,0,,0,0,20,18,6,6,0.9,0.8
2026-02-12T0900,2485A,109.9971,27.5579,怀化市,监测楼,细颗粒物(PM2.5),75,61,65,55,51,0,,0,0,19,20,3,3,0.4,0.5
2026-02-12T0900,1210A,119.0566,33.5991,淮安市,钵池山,细颗粒物(PM2.5),138,146,137,105,111,36,,59,54,54,34,10,10,0.8,0.8
2026-02-12T0900,1211A,119.0083,33.578,淮安市,北京南路,细颗粒物(PM2.5),147,149,137,112,113,20,,34,33,63,47,10,9,0.8,0.8
2026-02-12T0900,1212A,118.9938,33.6083,淮安市,市监测站,细颗粒物(PM2.5),137,139,131,104,109,34,,70,63,56,35,11,13,1.0,1.2
2026-02-12T0900,1213A,119.135,33.5038,淮安市,楚州区监测站,细颗粒物(PM2.5),182,183,153,137,123,13,,5,5,68,53,7,7,1.0,0.9
2026-02-12T0900,3426A,118.8757,33.2897,淮安市,新华书店,细颗粒物(PM2.5),138,152,138,105,105,43,,61,58,38,29,8,8,0.6,0.7
2026-02-12T0900,4092A,119.119691,33.550006,淮安市,枚皋中路89号,细颗粒物(PM2.5),156,169,144,119,112,29,,32,29,56,35,12,10,0.8,0.8
2026-02-12T0900,4206A,119.028838,33.631911,淮安市,承德北路606号,细颗粒物(PM2.5),129,158,160,98,113,46,,54,54,51,42,10,9,0.7,0.9
2026-02-12T0900,2282A,116.8005,33.9749,淮北市,监测站,颗粒物(PM10),106,161,157,77,77,59,,54,53,39,35,8,9,1.0,1
2026-02-12T0900,2283A,116.8094,33.9008,淮北市,烈山区政府,细颗粒物(PM2.5),115,169,164,87,89,56,,48,48,35,31,8,9,0.6,0.6
2026-02-12T0900,4017A,116.7926,33.9534,淮北市,市博物馆,颗粒物(PM10),112,174,161,82,82,50,,57,54,41,29,7,9,0.8,0.8
2026-02-12T0900,4100A,116.8322,33.9884,淮北市,杜集区第一实验学校,细颗粒物(PM2.5),112,169,163,84,88,53,,56,54,36,29,10,9,0.6,0.7
2026-02-12T0900,2277A,116.8304,32.7726,淮南市,潘集区政府,颗粒物(PM10),109,168,139,76,60,45,,65,61,41,26,7,8,0.7,0.6
2026-02-12T0900,2279A,116.8569,32.5949,淮南市,谢家集区政府,颗粒物(PM10),97,143,128,68,53,50,,61,59,34,23,9,10,0.6,0.6
2026-02-12T0900,2280A,116.8279,32.6333,淮南市,八公山区政府,颗粒物(PM10),90,130,120,66,60,60,,70,67,23,20,5,10,0.5,0.5
2026-02-12T0900,2894A,117.0561,32.6536,淮南市,经济技术开发区消防队,细颗粒物(PM2.5),99,134,126,74,58,42,,58,52,42,30,6,8,0.6,0.5
2026-02-12T0900,3329A,117.011,32.5891,淮南市,山南新区,颗粒物(PM10),106,161,141,74,60,49,,70,66,28,21,8,10,0.6,0.6
2026-02-12T0900,4209A,117.003137,32.644456,淮南市,国庆中路369号,细颗粒物(PM2.5),90,120,114,67,55,42,,69,63,37,27,8,10,0.7,0.7
2026-02-12T0900,2446A,114.9021,30.474,黄冈市,职工中心,细颗粒物(PM2.5),123,108,111,93,101,38,,41,39,17,19,5,8,1.1,1.1
2026-02-12T0900,2929A,114.8858,30.4519,黄冈市,红卫路,细颗粒物(PM2.5),124,101,105,94,98,47,,48,45,14,22,6,10,0.7,0.9
2026-02-12T0900,3398A,114.9134,30.4446,黄冈市,市林业局,细颗粒物(PM2.5),129,120,126,98,102,47,,44,43,16,21,3,4,0.6,0.8
2026-02-12T0900,2672A,102.02,35.5101,黄南藏族自治州,同仁县隆务镇,,25,25,32,16,26,53,,60,59,1,3,8,8,0.2,0.3
2026-02-12T0900,2295A,118.2905,29.6965,黄山市,延安路89号,,50,50,54,35,28,15,,12,11,8,13,4,4,0.5,0.5
2026-02-12T0900,2297A,118.1369,30.2755,黄山市,黄山区政府5号楼,颗粒物(PM10),51,52,66,31,30,23,,16,16,6,9,2,2,0.4,0.6
2026-02-12T0900,4210A,118.335445,29.720283,黄山市,滨江东路7-2号,颗粒物(PM10),55,60,79,29,31,9,,13,11,10,12,/,/,/,/
2026-02-12T0900,2423A,115.0547,30.2332,黄石市,沈家营,细颗粒物(PM2.5),78,98,107,57,78,40,,28,28,10,30,8,9,0.8,1
2026-02-12T0900,2426A,114.899,30.211,黄石市,铁山,细颗粒物(PM2.5),118,95,95,89,92,44,,51,48,29,27,9,9,0.7,1.6
2026-02-12T0900,2427A,115.0259,30.2108,黄石市,团城山,细颗粒物(PM2.5),89,107,106,66,86,27,,25,25,25,31,7,7,0.8,1
2026-02-12T0900,3149A,115.0174,30.1591,黄石市,笔架山北路,细颗粒物(PM2.5),124,147,145,94,91,26,,35,31,30,25,10,9,1.2,1.3
2026-02-12T0900,4185A,115.078022,30.21118,黄石市,磁湖东路29号,,,,115,,92,20,,13,13,30,42,6,6,1.1,1.4
2026-02-12T0900,1392A,114.4181,23.0528,惠州市,河南岸金山湖子站,,24,24,28,14,17,35,,52,50,15,12,6,6,0.6,0.6
2026-02-12T0900,1393A,114.4055,23.0824,惠州市,下埔横江三路子站,,27,27,25,18,16,39,,47,44,11,9,6,6,0.5,0.5
2026-02-12T0900,1395A,114.4645,22.7832,惠州市,惠阳区承修路船湖子站,,46,46,38,25,20,88,,95,93,12,13,5,6,0.5,0.6
2026-02-12T0900,1396A,114.5316,22.7423,惠州市,大亚湾管委会子站,,43,43,35,25,19,89,,94,92,9,12,5,6,0.6,0.6
2026-02-12T0900,3314A,114.4334,22.8134,惠州市,惠阳秋长,,48,48,38,26,21,100,,100,97,11,12,/,/,/,/
2026-02-12T0900,3452A,114.6521,22.7755,惠州市,大亚湾霞涌,,36,36,33,21,19,92,,94,93,9,14,/,/,/,/
2026-02-12T0900,4300A,114.4089,23.1147,惠州市,文华一路1号,,22,21,23,15,15,32,,44,41,12,11,/,/,/,/
2026-02-12T0900,2240A,130.9618,45.2926,鸡西市,环保局,,24,24,38,16,28,70,,77,76,12,10,6,7,0.4,0.4
2026-02-12T0900,2243A,130.9294,45.2959,鸡西市,第一中学,,29,27,33,20,27,73,,76,75,10,10,5,4,0.4,0.4
2026-02-12T0900,3707A,131.0069,45.2988,鸡西市,欧美日汽修厂,颗粒物(PM10),56,62,46,28,33,56,,64,61,22,11,11,10,0.2,0.2
2026-02-12T0900,2367A,114.9753,27.0803,吉安市,红声器材厂,细颗粒物(PM2.5),59,54,61,42,47,2,,4,2,17,18,6,6,1.0,0.9
2026-02-12T0900,2369A,114.9903,27.1313,吉安市,市环境监测站,,42,41,56,29,50,5,,2,2,19,22,7,8,/,/
2026-02-12T0900,2370A,115.009527,27.096792,吉安市,青原区法院,细颗粒物(PM2.5),52,47,52,36,44,4,,3,3,21,22,8,8,1.0,0.9
2026-02-12T0900,1772A,126.54,43.8622,吉林市,哈达湾,细颗粒物(PM2.5),84,62,44,62,36,40,,49,46,39,21,12,10,1.4,1
2026-02-12T0900,1773A,126.5843,43.8358,吉林市,东局子,细颗粒物(PM2.5),77,62,47,56,39,35,,30,30,32,26,7,6,1.1,0.9
2026-02-12T0900,1774A,126.5051,43.8243,吉林市,电力学院,细颗粒物(PM2.5),115,96,58,87,42,36,,32,32,38,24,12,8,1.3,1
2026-02-12T0900,1775A,126.6133,43.8971,吉林市,江北,细颗粒物(PM2.5),112,84,58,84,49,33,,26,26,45,27,10,10,1.2,0.9
2026-02-12T0900,1776A,126.5549,43.8304,吉林市,江南公园,细颗粒物(PM2.5),97,72,44,72,38,22,,21,21,44,27,11,8,1.2,0.7
2026-02-12T0900,2868A,126.4737,43.953,吉林市,九站,细颗粒物(PM2.5),135,112,54,103,47,17,,11,9,63,37,11,10,1.5,0.8
2026-02-12T0900,1299A,116.9866,36.6118,济南市,科干所,,,,100,46,47,94,,105,102,14,14,10,10,0.6,0.6
2026-02-12T0900,1300A,116.9379,36.6652,济南市,农科所,颗粒物(PM10),94,137,119,61,53,86,,94,91,18,21,9,10,0.7,0.7
2026-02-12T0900,1301A,117.1265,36.6736,济南市,开发区,颗粒物(PM10),80,110,102,51,43,99,,113,109,16,18,5,6,0.6,0.6
2026-02-12T0900,1303A,117.0616,36.6865,济南市,省种子仓库,颗粒物(PM10),91,132,113,49,43,88,,104,101,20,19,6,7,0.6,0.6
2026-02-12T0900,1304A,116.9495185,36.644937,济南市,机床二厂,,,,115,53,48,,,99,96,22,24,12,13,0.6,0.6
2026-02-12T0900,1305A,117.0496,36.6629,济南市,市监测站,颗粒物(PM10),88,125,109,49,43,95,,108,105,17,18,6,6,0.7,0.7
2026-02-12T0900,1306A,116.7674,36.5458,济南市,长清党校,颗粒物(PM10),101,151,130,59,50,88,,96,93,26,26,6,7,0.7,0.7
2026-02-12T0900,1961A,117.5323,36.6865,济南市,东山小学,颗粒物(PM10),97,144,110,48,41,96,,99,98,12,15,6,5,0.6,0.5
2026-02-12T0900,3059A,117.7181,36.205,济南市,泰兴公司,细颗粒物(PM2.5),134,183,141,102,77,21,,10,10,67,55,21,12,1.6,1.2
2026-02-12T0900,3064A,117.6861,36.2172,济南市,莱芜战役纪念馆,细颗粒物(PM2.5),135,195,141,103,71,27,,46,42,67,44,22,15,1.6,1.2
2026-02-12T0900,3494A,117.1673,36.9782,济南市,济阳区政府,颗粒物(PM10),101,151,118,63,52,62,,73,68,37,28,9,9,0.6,0.5
2026-02-12T0900,3495A,117.1168,36.6299,济南市,锦屏中学,颗粒物(PM10),85,120,107,48,43,101,,108,105,12,14,5,6,0.5,0.5
2026-02-12T0900,4108A,117.7107,36.2385,济南市,山财大街5号,细颗粒物(PM2.5),108,163,132,81,62,58,,74,72,57,49,29,19,1.6,1.4
2026-02-12T0900,4109A,116.9744,36.6889,济南市,无影山路12号,颗粒物(PM10),89,127,118,56,50,85,,95,92,18,19,9,9,0.5,0.5
2026-02-12T0900,1653A,116.6229,35.4288,济宁市,火炬城,细颗粒物(PM2.5),103,140,132,77,76,61,,79,74,29,23,4,4,0.7,0.8
2026-02-12T0900,3500A,116.5808,35.3703,济宁市,北湖一中,颗粒物(PM10),93,135,124,68,74,65,,83,79,26,21,8,9,0.6,0.7
2026-02-12T0900,3501A,116.8251,35.5592,济宁市,服务中心,细颗粒物(PM2.5),118,174,169,89,86,62,,62,62,27,24,9,8,0.5,0.6
2026-02-12T0900,3678A,116.5907,35.4054,济宁市,市第七中学,细颗粒物(PM2.5),105,155,134,79,75,58,,82,77,35,24,12,13,0.8,0.8
2026-02-12T0900,4111A,116.6075,35.4566,济宁市,任和路,颗粒物(PM10),107,163,158,72,73,66,,85,81,27,24,8,9,0.7,0.8
2026-02-12T0900,4112A,116.5648,35.3921,济宁市,文体南路1号,细颗粒物(PM2.5),95,132,145,71,74,71,,89,85,25,21,6,7,0.6,0.7
2026-02-12T0900,2255A,130.2749,46.8028,佳木斯市,佳纺,,35,30,54,24,46,73,,73,73,17,16,7,8,0.5,0.5
2026-02-12T0900,2257A,130.3258,46.7975,佳木斯市,环保局,,32,32,52,17,46,76,,74,74,11,16,8,9,0.3,0.5
2026-02-12T0900,4285A,130.363,46.806,佳木斯市,顺和街,,28,28,53,12,47,72,,73,72,16,21,6,7,0.4,0.6
2026-02-12T0900,4286A,130.3952,46.8268,佳木斯市,长安路196号,,45,36,53,31,42,50,,77,72,39,19,8,6,0.6,0.5
2026-02-12T0900,1252A,120.7439,30.778,嘉兴市,清河小学,细颗粒物(PM2.5),134,134,119,102,79,29,,25,25,47,38,7,7,0.6,0.4
2026-02-12T0900,1253A,120.7261,30.7477,嘉兴市,嘉兴学院,细颗粒物(PM2.5),115,146,119,87,71,41,,35,35,32,26,6,6,1.2,1.1
2026-02-12T0900,2872A,120.7845,30.7524,嘉兴市,南湖区残联,细颗粒物(PM2.5),130,158,120,99,81,48,,40,40,40,32,6,5,1.0,0.9
2026-02-12T0900,3407A,120.6915,30.7741,嘉兴市,秀洲住建,细颗粒物(PM2.5),130,130,112,99,73,42,,31,31,33,33,8,7,0.9,0.8
2026-02-12T0900,1945A,98.291,39.7705,嘉峪关市,气象局,颗粒物(PM10),63,75,115,24,33,43,,45,45,27,15,8,13,0.7,0.6
2026-02-12T0900,2884A,98.2672,39.7978,嘉峪关市,酒钢宾馆,颗粒物(PM10),60,70,134,28,35,48,,56,55,12,15,9,24,0.3,0.9
2026-02-12T0900,3248A,98.2644,39.7723,嘉峪关市,雄关区,颗粒物(PM10),58,66,93,17,29,47,,46,43,22,17,11,12,0.4,0.5
2026-02-12T0900,1383A,113.1063,22.6058,江门市,北街,,35,35,43,23,29,15,,23,21,25,22,/,/,/,/
2026-02-12T0900,1384A,113.073,22.5835,江门市,西区,,,37,45,23,28,,,22,21,28,24,/,/,/,/
2026-02-12T0900,1385A,113.0218,22.531,江门市,圭峰西,,33,,41,23,28,16,,28,24,27,21,/,/,/,/
2026-02-12T0900,1386A,113.0826,22.5947,江门市,东湖,,33,28,44,23,27,15,,22,20,26,22,6,6,0.6,0.5
2026-02-12T0900,3311A,113.1077,22.5647,江门市,江海富民,,42,42,52,23,30,16,,26,23,29,26,/,/,0.7,0.5
2026-02-12T0900,3449A,113.0496,22.4669,江门市,新会银湖,,39,39,49,26,32,9,,15,13,31,27,7,7,0.7,0.6
2026-02-12T0900,3335A,113.3137,35.2643,焦作市,马村街道办,颗粒物(PM10),102,154,119,49,36,53,,52,52,27,19,10,11,1.0,0.8
2026-02-12T0900,3336A,113.2464,35.2374,焦作市,焦作技师学院,颗粒物(PM10),91,132,105,39,35,46,,55,52,33,23,21,10,0.9,0.5
2026-02-12T0900,3477A,113.1656,35.2536,焦作市,中站许衡医院,颗粒物(PM10),60,69,92,31,35,62,,74,71,21,18,12,11,0.9,0.6
2026-02-12T0900,3981A,113.2456,35.18,焦作市,原李万街道办,颗粒物(PM10),102,153,113,62,39,39,,35,35,31,27,17,12,1.2,0.6
2026-02-12T0900,4264A,113.234,35.219,焦作市,新安路1731号,颗粒物(PM10),85,119,99,39,36,60,,59,59,24,27,17,13,0.9,0.7
2026-02-12T0900,4295A,113.2722,35.2121,焦作市,人民路3066号,颗粒物(PM10),95,140,118,35,41,53,,41,41,24,29,16,11,1.1,0.9
2026-02-12T0900,1708A,116.3701,23.5345,揭阳市,新兴,,50,50,41,27,23,50,,64,61,20,16,7,7,0.7,0.7
2026-02-12T0900,1709A,116.3261,23.5442,揭阳市,西马,,46,46,47,30,24,53,,61,59,14,12,5,5,0.6,0.6
2026-02-12T0900,1710A,116.361,23.5627,揭阳市,东兴,颗粒物(PM10),51,51,44,31,22,55,,60,58,13,11,7,8,/,/
2026-02-12T0900,1711A,116.4151,23.5295,揭阳市,渔湖,,48,48,44,28,24,58,,65,63,17,15,5,5,/,/
2026-02-12T0900,3320A,116.4028,23.5699,揭阳市,曲溪,颗粒物(PM10),51,52,45,29,25,60,,66,64,12,10,2,3,0.7,0.6
2026-02-12T0900,1944A,102.1691,38.5166,金昌市,天庆家园,颗粒物(PM10),109,168,120,55,37,38,,57,53,38,15,21,19,1.1,0.6
2026-02-12T0900,4022A,102.1648,38.5369,金昌市,金川区人防中心,颗粒物(PM10),83,115,110,51,34,37,,58,56,29,11,36,15,0.9,0.5
2026-02-12T0900,4239A,102.193042,38.531887,金昌市,长春路96号,颗粒物(PM10),90,129,114,38,31,30,,45,42,39,13,57,18,1.4,0.8
2026-02-12T0900,1262A,119.6478,29.0773,金华市,十五中,细颗粒物(PM2.5),87,100,71,64,43,46,,50,48,16,17,2,1,0.6,0.6
2026-02-12T0900,1263A,119.6859,29.1032,金华市,监测站,细颗粒物(PM2.5),70,85,68,51,40,20,,29,27,32,29,3,3,0.6,0.6
2026-02-12T0900,3659A,119.656,29.1132,金华市,气象局,,,88,74,56,42,,,23,19,34,36,2,2,0.8,0.7
2026-02-12T0900,1767A,121.1114,41.0879,锦州市,南山,细颗粒物(PM2.5),149,,90,114,68,26,,10,10,39,43,31,13,2.0,1.2
2026-02-12T0900,1768A,121.060361,40.842794,锦州市,开发区,细颗粒物(PM2.5),150,123,116,115,82,12,,5,5,44,56,17,25,1.7,1.2
2026-02-12T0900,1769A,121.1836,41.1118,锦州市,百股街道,细颗粒物(PM2.5),189,154,91,142,78,,,15,15,41,39,31,17,,1.5
2026-02-12T0900,1770A,121.1176,41.1224,锦州市,天安街道,细颗粒物(PM2.5),158,124,84,120,67,25,,16,16,40,39,35,12,2.7,1.4
2026-02-12T0900,1771A,121.1303,41.1385,锦州市,北湖公园,细颗粒物(PM2.5),175,138,86,132,71,25,,26,24,39,35,38,15,2.0,1.1
2026-02-12T0900,2160A,112.8496,35.5051,晋城市,自来水公司,颗粒物(PM10),104,158,111,55,38,36,,28,28,32,26,29,12,2.4,0.9
2026-02-12T0900,2162A,112.8509,35.4886,晋城市,市环保局,颗粒物(PM10),91,131,101,44,39,25,,17,17,41,32,14,9,2.1,1
2026-02-12T0900,3620A,112.8258,35.4804,晋城市,泽州一中,颗粒物(PM10),86,122,115,40,32,40,,46,44,29,18,12,8,1.7,0.8
2026-02-12T0900,4078A,112.8246,35.5152,晋城市,前书院路,颗粒物(PM10),98,145,115,48,32,28,,34,32,32,21,18,11,2.4,0.9
2026-02-12T0900,4079A,112.8864,35.4773,晋城市,祥云街666号,颗粒物(PM10),98,146,111,52,41,47,,43,43,31,22,19,15,1.6,0.8
2026-02-12T0900,2174A,112.6992,37.6984,晋中市,榆次区政府,颗粒物(PM10),89,127,112,49,47,6,,9,9,46,46,18,17,1.1,0.8
2026-02-12T0900,2865A,112.7195,37.683,晋中市,榆次三中,颗粒物(PM10),75,100,104,34,37,9,,11,11,40,38,15,16,0.9,0.8
2026-02-12T0900,4080A,112.7375,37.7215,晋中市,广安街188号,颗粒物(PM10),66,81,106,24,41,11,,5,5,42,46,28,20,0.9,0.8
2026-02-12T0900,4200A,112.7478,37.6954,晋中市,迎宾街26号,,,,98,,41,,,28,28,26,27,18,18,0.7,0.7
2026-02-12T0900,2439A,112.2012,31.048,荆门市,竹园小学,细颗粒物(PM2.5),97,77,110,72,64,8,,37,32,36,23,1,4,1.6,0.9
2026-02-12T0900,2440A,112.1968,30.9892,荆门市,掇刀,细颗粒物(PM2.5),77,83,114,56,69,14,,45,42,34,20,1,9,1.1,0.8
2026-02-12T0900,3012A,112.1849,31.0361,荆门市,西山林语,细颗粒物(PM2.5),89,84,110,66,60,11,,39,35,27,17,3,4,1.3,0.7
2026-02-12T0900,3547A,112.1631,31.0134,荆门市,龙泉中学南校,细颗粒物(PM2.5),63,70,111,45,59,35,,51,48,17,15,3,7,1.2,0.9
2026-02-12T0900,4124A,112.2213,31.0654,荆门市,新台西路6号,细颗粒物(PM2.5),62,49,109,44,64,14,,26,22,18,20,8,16,0.8,0.7
2026-02-12T0900,1844A,112.2493,30.3198,荆州市,市图书馆,细颗粒物(PM2.5),89,93,78,66,61,49,,47,47,16,17,8,7,0.8,0.8
2026-02-12T0900,1845A,112.2009,30.3543,荆州市,市委党校,细颗粒物(PM2.5),95,90,88,71,66,15,,34,32,28,23,7,7,1.3,1.1
2026-02-12T0900,3194A,112.2749,30.3124,荆州市,管委会,细颗粒物(PM2.5),88,91,76,65,62,19,,37,35,37,23,11,10,1.2,0.8
2026-02-12T0900,4268A,112.1722,30.3366,荆州市,学苑路85号,细颗粒物(PM2.5),74,81,77,54,61,18,,38,35,19,14,6,6,0.6,0.5
2026-02-12T0900,2343A,117.2114,29.2931,景德镇市,老干部活动中心,,42,42,61,19,33,9,,2,2,11,16,3,4,0.7,0.8
2026-02-12T0900,2344A,117.1893,29.2789,景德镇市,兽医站,,46,44,66,32,36,15,,5,5,15,20,4,4,0.5,0.4
2026-02-12T0900,2346A,117.246,29.2958,景德镇市,陶研所,,25,25,46,3,28,3,,1,1,9,13,3,3,0.7,0.7
2026-02-12T0900,4289A,117.154766,29.256967,景德镇市,青少年活动中心,,,,75,,41,,,64,,,28,,13,,
2026-02-12T0900,1803A,115.9873,29.6816,九江市,十里,颗粒物(PM10),64,78,89,45,55,21,,25,23,35,34,8,7,1.0,1
2026-02-12T0900,1804A,115.9583,29.7047,九江市,茅山头,细颗粒物(PM2.5),59,61,85,42,62,18,,12,12,37,34,6,7,0.5,0.7
2026-02-12T0900,1805A,115.9877,29.7295,九江市,西园,细颗粒物(PM2.5),94,110,100,70,65,25,,17,17,45,49,6,6,1.0,1.1
2026-02-12T0900,1808A,115.9112,29.6038,九江市,综合工业园,颗粒物(PM10),60,69,77,30,42,24,,33,31,35,32,5,7,0.8,0.9
2026-02-12T0900,3190A,116.0254,29.6995,九江市,外国语学校,,,,82,,62,,,76,,,34,,7,,0.8
2026-02-12T0900,4253A,116.010205,29.659402,九江市,莲花大道8号,颗粒物(PM10),71,91,83,43,44,46,,44,42,14,14,5,4,0.7,0.7
2026-02-12T0900,4240A,98.495752,39.733935,酒泉市,玉门东路5号,颗粒物(PM10),73,95,134,25,35,33,,45,42,18,12,13,15,0.4,0.6
2026-02-12T0900,4241A,98.5099,39.7506,酒泉市,北大街108号,颗粒物(PM10),62,73,123,22,35,28,,46,41,24,11,13,16,0.6,0.6
2026-02-12T0900,2698A,76.0071,39.466,喀什地区,巡警大队,颗粒物(PM10),272,400,467,129,158,11,,8,8,38,49,4,8,2.1,2.1
2026-02-12T0900,2699A,75.9756,39.4693,喀什地区,吾办,颗粒物(PM10),229,370,428,144,172,4,,5,5,52,49,6,6,2.4,1.7
2026-02-12T0900,4027A,75.9485,39.4688,喀什地区,老干局,颗粒物(PM10),303,422,470,125,138,9,,7,7,34,37,4,6,2.2,1.8
2026-02-12T0900,1824A,114.3389,34.778,开封市,肿瘤医院,颗粒物(PM10),96,142,143,70,51,38,,49,46,34,30,8,10,0.8,0.7
2026-02-12T0900,1826A,114.2884,34.7966,开封市,世纪星幼儿园,,,142,137,71,50,,,48,45,,29,12,10,0.9,0.7
2026-02-12T0900,3147A,114.3434,34.8101,开封市,龙亭公园,颗粒物(PM10),98,146,140,54,45,42,,52,49,36,31,9,11,0.8,0.6
2026-02-12T0900,3210A,114.3645,34.7955,开封市,汴京公园,颗粒物(PM10),95,139,147,52,43,41,,46,43,32,29,4,7,0.8,0.6
2026-02-12T0900,3473A,114.2485,34.8306,开封市,技师学院,颗粒物(PM10),85,120,132,55,50,55,,60,56,28,23,10,9,0.7,0.6
2026-02-12T0900,3592A,114.4518,34.7503,开封市,祥符区生态环境局,颗粒物(PM10),108,166,155,66,52,42,,50,47,28,27,5,8,0.6,0.5
2026-02-12T0900,1951A,84.886,45.6029,克拉玛依市,长征新村,细颗粒物(PM2.5),65,64,56,47,35,65,,67,67,12,16,4,5,0.8,0.7
2026-02-12T0900,1952A,84.8894,45.5827,克拉玛依市,南林小区,细颗粒物(PM2.5),59,64,55,42,32,66,,71,71,7,10,1,1,0.7,0.7
2026-02-12T0900,1954A,84.896,44.3328,克拉玛依市,独山子区,,25,15,87,8,47,77,,87,84,9,19,3,3,0.4,0.7
2026-02-12T0900,1955A,85.6888,46.0909,克拉玛依市,乌尔禾区商贸楼,颗粒物(PM10),59,68,60,35,38,68,,65,65,10,13,8,8,0.8,0.8
2026-02-12T0900,3612A,85.1045,45.6895,克拉玛依市,白碱滩区新站,细颗粒物(PM2.5),73,64,53,53,39,62,,68,67,23,20,9,9,0.8,0.7
2026-02-12T0900,2697A,76.1457,39.7143,克孜勒苏柯尔克孜自治州,市人民政府,颗粒物(PM10),292,414,457,102,117,51,,56,56,6,10,3,4,0.5,0.4
2026-02-12T0900,3665A,76.1654,39.7157,克孜勒苏柯尔克孜自治州,克州文化中心,颗粒物(PM10),256,389,398,115,111,46,,57,55,13,11,4,4,0.6,0.6
2026-02-12T0900,1450A,102.8203,24.889,昆明市,呈贡新区,,31,31,28,21,17,55,,61,60,15,11,4,4,0.5,0.3
2026-02-12T0900,1452A,102.7253,25.0904,昆明市,龙泉镇,颗粒物(PM10),51,52,31,17,18,11,,23,17,44,21,3,4,0.6,0.4
2026-02-12T0900,1453A,102.7267,25.0378,昆明市,东风东路,,39,39,25,19,15,13,,70,63,48,15,9,7,0.7,0.5
2026-02-12T0900,1454A,102.6744,25.0671,昆明市,金鼎山,颗粒物(PM10),51,52,30,21,17,11,,40,36,47,16,5,4,0.8,0.4
2026-02-12T0900,1455A,102.6643,25.0401,昆明市,碧鸡广场,,42,42,29,22,16,24,,42,40,51,20,14,7,0.7,0.3
2026-02-12T0900,3179A,102.7491,25.012,昆明市,官渡区博物馆,颗粒物(PM10),56,61,30,25,17,6,,56,51,58,17,6,5,1.2,0.4
2026-02-12T0900,3375A,102.8016,24.8336,昆明市,青年创业园,,36,31,24,25,16,50,,63,60,16,6,6,5,0.7,0.6
2026-02-12T0900,3550A,102.8,24.9787,昆明市,昆明学院,,49,49,28,25,15,23,,66,60,34,9,6,5,0.8,0.6
2026-02-12T0900,3551A,102.5969,24.6738,昆明市,晋宁区生态环境分局,,26,24,27,18,17,71,,69,68,6,6,1,1,0.5,0.4
2026-02-12T0900,3552A,102.6673,24.9861,昆明市,云天化总部,,42,42,25,19,12,27,,54,50,43,14,10,8,0.9,0.4
2026-02-12T0900,1456A,91.132,29.6515,拉萨市,八廓街,,30,14,20,12,12,94,,93,93,15,12,6,7,0.5,0.5
2026-02-12T0900,1457A,91.1221,29.6748,拉萨市,市环保局,,28,18,23,6,12,89,,93,93,15,14,7,7,0.4,0.4
2026-02-12T0900,1458A,91.0874,29.6476,拉萨市,区监测站,,31,10,14,9,7,98,,93,93,12,13,4,4,0.6,0.6
2026-02-12T0900,1459A,91.1774,29.6541,拉萨市,西藏大学,,30,10,15,6,8,93,,89,89,12,11,3,4,0.3,0.3
2026-02-12T0900,1460A,90.9798,29.6586,拉萨市,区辐射站,,22,16,34,14,18,68,,71,70,28,25,3,4,0.3,0.6
2026-02-12T0900,1461A,91.0831,29.6292,拉萨市,拉萨火车站,,34,9,13,6,8,108,,97,97,2,11,3,4,0.1,0.3
2026-02-12T0900,2520A,109.2203,23.7252,来宾市,来宾技工学校,,26,,23,18,17,26,,32,32,12,12,3,5,1.2,1
2026-02-12T0900,3535A,109.1781,23.7293,来宾市,兴宾区政府,,23,23,24,15,15,27,,35,33,14,13,4,4,1.1,0.9
2026-02-12T0900,4002A,109.2312,23.7428,来宾市,中南小学,,30,23,27,21,18,22,,31,30,17,15,4,4,1.0,0.8
2026-02-12T0900,1479A,103.8309,36.0467,兰州市,铁路设计院,,,,,,,,,,,,,,,,
2026-02-12T0900,3241A,103.7439,36.0841,兰州市,百合公园,颗粒物(PM10),71,91,105,42,53,9,,18,18,46,59,16,15,1.1,1.2
2026-02-12T0900,3242A,103.9613,35.9985,兰州市,和平,颗粒物(PM10),84,117,104,44,41,33,,51,47,35,26,18,14,1.3,0.9
2026-02-12T0900,4236A,103.629272,36.093822,兰州市,庄浪东路808号,颗粒物(PM10),71,92,107,38,46,18,,47,42,52,45,16,19,0.9,0.9
2026-02-12T0900,4237A,103.7251,36.104344,兰州市,安宁西路88号,颗粒物(PM10),85,120,118,35,50,8,,29,26,54,49,16,18,0.7,0.9
2026-02-12T0900,4238A,103.846982,36.067567,兰州市,北滨河东路1号,颗粒物(PM10),84,118,99,43,41,5,,12,11,61,63,10,13,1.3,1.1
2026-02-12T0900,1067A,116.6712,39.5109,廊坊市,药材公司,细颗粒物(PM2.5),142,144,111,108,77,8,,14,10,60,33,4,5,1.5,0.7
2026-02-12T0900,1068A,116.7215,39.5592,廊坊市,开发区,细颗粒物(PM2.5),124,138,116,94,75,7,,5,3,68,46,3,4,1.0,0.7
2026-02-12T0900,1070A,116.7246,39.5273,廊坊市,北华航天学院,细颗粒物(PM2.5),158,145,118,120,79,11,,5,4,68,42,8,7,1.2,0.8
2026-02-12T0900,2919A,116.7022,39.5454,廊坊市,河北工业大学,细颗粒物(PM2.5),145,155,118,111,72,14,,5,4,60,45,6,5,,0.7
2026-02-12T0900,2536A,103.7629,29.5844,乐山市,牛耳桥,细颗粒物(PM2.5),70,71,66,51,40,4,,23,18,32,26,5,5,0.8,0.7
2026-02-12T0900,2537A,103.7501,29.6002,乐山市,市第三水厂,细颗粒物(PM2.5),70,72,67,51,39,4,,17,14,45,32,3,3,1.1,0.9
2026-02-12T0900,2538A,103.7571,29.5664,乐山市,市监测站,,,84,63,60,37,,,23,18,26,22,7,6,1.0,0.9
2026-02-12T0900,3361A,103.7313,29.563,乐山市,理工大学,细颗粒物(PM2.5),87,85,64,64,39,18,,26,20,23,18,2,3,0.7,0.7
2026-02-12T0900,2599A,100.2497,26.8802,丽江市,丽江古城,,24,24,24,14,12,74,,80,79,12,10,6,6,0.5,0.5
2026-02-12T0900,2600A,100.2203,26.8906,丽江市,市中心,,,,19,12,14,81,,82,82,12,11,6,6,0.4,0.4
2026-02-12T0900,1267A,119.9141,28.4513,丽水市,监测站大楼,,48,39,45,33,25,27,,33,29,12,9,8,6,0.5,0.5
2026-02-12T0900,1268A,119.93,28.4589,丽水市,莲都小学,颗粒物(PM10),51,51,46,34,24,24,,35,31,14,11,/,/,/,/
2026-02-12T0900,1269A,119.8794,28.4232,丽水市,余庄前,,48,46,39,33,22,18,,8,8,12,8,4,4,0.5,0.5
2026-02-12T0900,1173A,119.1759,34.5885,连云港市,市环境监测站,细颗粒物(PM2.5),188,153,147,141,121,50,,54,52,29,32,8,13,0.8,0.9
2026-02-12T0900,3000A,119.3577,34.6971,连云港市,德源药业,细颗粒物(PM2.5),185,166,160,139,118,27,,28,25,38,34,6,9,1.1,1.2
2026-02-12T0900,3007A,119.178,34.8442,连云港市,新城一中,细颗粒物(PM2.5),186,159,153,140,132,43,,49,46,55,48,12,14,0.9,1
2026-02-12T0900,3008A,119.3607,34.7519,连云港市,胡沟管理处,细颗粒物(PM2.5),203,180,144,153,106,33,,70,61,44,38,13,15,0.9,0.8
2026-02-12T0900,3009A,119.1478,34.5913,连云港市,矿山设计院,细颗粒物(PM2.5),163,166,152,124,112,46,,47,46,30,31,10,12,1.2,1.3
2026-02-12T0900,3434A,119.2414,34.6539,连云港市,工贸学校,细颗粒物(PM2.5),140,147,140,107,108,78,,87,86,28,26,14,15,0.9,1.1
2026-02-12T0900,3664A,119.4171,34.734,连云港市,连云街道,细颗粒物(PM2.5),204,208,154,154,107,11,,70,57,82,41,30,13,1.1,0.9
2026-02-12T0900,2573A,102.2629,27.8981,凉山彝族自治州,西昌市政府,细颗粒物(PM2.5),55,42,49,39,23,20,,54,47,35,12,12,9,1.4,0.8
2026-02-12T0900,2574A,102.2686,27.885,凉山彝族自治州,凉山州政府,细颗粒物(PM2.5),52,42,32,36,21,13,,34,29,38,15,9,9,1.2,0.9
2026-02-12T0900,4229A,102.2342,27.8859,凉山彝族自治州,凯乐南路30号,,,42,40,24,20,,,33,31,32,21,9,9,0.8,0.7
2026-02-12T0900,2212A,123.1978,41.2036,辽阳市,宏伟区,细颗粒物(PM2.5),100,,60,75,33,35,,,,36,20,10,16,1.6,1.2
2026-02-12T0900,2213A,123.1684,41.2497,辽阳市,新华园,细颗粒物(PM2.5),112,86,79,84,48,31,,46,43,49,33,30,24,1.5,1.2
2026-02-12T0900,2214A,123.2355,41.2663,辽阳市,滨河路,细颗粒物(PM2.5),82,,61,60,41,51,,61,58,32,26,12,17,1.2,1.3
2026-02-12T0900,4083A,123.153,41.2874,辽阳市,铁西路150号,细颗粒物(PM2.5),140,,75,107,49,15,,50,45,58,30,23,22,2.1,1.4
2026-02-12T0900,2227A,125.1359,42.8845,辽源市,环保局,细颗粒物(PM2.5),110,89,57,83,42,27,,16,16,35,32,12,6,1.6,1
2026-02-12T0900,4085A,125.0998,42.9134,辽源市,安宁大街333号,细颗粒物(PM2.5),102,99,61,76,44,17,,16,16,41,28,10,6,1.5,0.9
2026-02-12T0900,1625A,115.9789,36.4372,聊城市,区政府,细颗粒物(PM2.5),103,153,151,77,70,56,,69,66,26,22,16,16,0.8,0.8
2026-02-12T0900,3200A,115.9772,36.4986,聊城市,监控中心,颗粒物(PM10),101,152,154,74,68,71,,82,80,26,25,14,14,0.9,1
2026-02-12T0900,3513A,116.0443,36.436,聊城市,九州社区,细颗粒物(PM2.5),104,152,151,78,72,,,76,74,11,11,6,8,0.7,0.8
2026-02-12T0900,4018A,116.0564,36.4609,聊城市,星美广场,颗粒物(PM10),103,156,157,75,73,64,,73,71,15,15,3,5,0.7,0.8
2026-02-12T0900,4113A,116.0091,36.4495,聊城市,利民路,细颗粒物(PM2.5),99,141,135,74,64,63,,77,74,25,25,12,12,1.0,1
2026-02-12T0900,2632A,94.3683,29.6373,林芝市,林芝监测站,,28,14,12,13,10,87,,79,79,1,1,4,4,0.5,0.4
2026-02-12T0900,2633A,94.3616,29.6634,林芝市,林芝人民医院,,28,18,16,18,11,89,,78,78,1,2,5,5,0.4,0.4
2026-02-12T0900,2603A,100.0779,23.8981,临沧市,市环保局,,28,28,28,17,19,22,,39,36,15,8,5,6,0.8,0.6
2026-02-12T0900,2604A,100.0894,23.882,临沧市,市气象局,细颗粒物(PM2.5),54,48,37,38,22,28,,39,36,13,9,6,5,0.7,0.5
2026-02-12T0900,1733A,111.5552,36.0791,临汾市,临钢医院,颗粒物(PM10),74,98,97,44,37,9,,28,24,28,23,5,6,1.1,0.8
2026-02-12T0900,1734A,111.4984,36.0734,临汾市,技工学校,颗粒物(PM10),76,101,101,41,46,12,,11,11,36,31,13,10,0.5,0.3
2026-02-12T0900,1736A,111.5017,36.0857,临汾市,市委,颗粒物(PM10),79,108,101,38,36,19,,10,10,36,35,11,8,1.1,0.7
2026-02-12T0900,3018A,111.5048,36.1015,临汾市,唐尧大酒店,颗粒物(PM10),80,109,107,46,36,11,,6,5,41,42,13,9,1.4,0.9
2026-02-12T0900,4244A,111.4879,36.053,临汾市,启星学校,颗粒物(PM10),84,117,100,61,44,8,,9,8,42,43,11,8,0.8,0.7
2026-02-12T0900,4271A,103.2464,35.6123,临夏回族自治州,滨河东路1号,细颗粒物(PM2.5),104,124,130,78,69,18,,23,23,30,22,7,8,2.2,1.3
2026-02-12T0900,4310A,103.207136,35.599807,临夏回族自治州,新华街21号,细颗粒物(PM2.5),119,131,140,90,78,7,,24,22,46,30,13,11,2.2,1.4
2026-02-12T0900,1618A,118.3429,35.0532,临沂市,沂河小区,细颗粒物(PM2.5),175,178,154,132,98,58,,55,52,39,32,16,18,0.9,0.8
2026-02-12T0900,1619A,118.2962,35.0568,临沂市,鲁南制药厂,细颗粒物(PM2.5),190,185,157,143,107,48,,51,50,49,39,20,20,1.0,0.8
2026-02-12T0900,1620A,118.2793,34.9976,临沂市,新光毛纺厂,细颗粒物(PM2.5),196,197,154,147,105,49,,44,40,44,36,22,21,1.1,1
2026-02-12T0900,1621A,118.3955,35.0889,临沂市,河东保险公司,细颗粒物(PM2.5),251,261,152,201,106,40,,31,25,92,49,13,14,1.7,1
2026-02-12T0900,3370A,118.3563,35.0215,临沂市,十里堡居委,细颗粒物(PM2.5),195,168,153,146,107,73,,58,58,36,39,15,21,1.0,0.9
2026-02-12T0900,3496A,118.359,35.1067,临沂市,南坊新区,细颗粒物(PM2.5),189,205,142,142,91,34,,73,66,61,31,14,15,1.3,0.7
2026-02-12T0900,3860A,118.3915,35.0297,临沂市,皇山花园小区,细颗粒物(PM2.5),183,175,152,138,107,68,,68,67,42,36,17,20,1.1,0.9
2026-02-12T0900,1870A,109.4854,24.3898,柳州市,柳东小学,,29,,18,20,15,28,,34,32,8,7,4,4,0.8,0.8
2026-02-12T0900,1871A,109.4109,24.3304,柳州市,环保监测站,,26,21,21,18,14,25,,34,32,18,16,3,4,1.1,0.9
2026-02-12T0900,1872A,109.3886,24.3408,柳州市,河西水厂,,25,20,22,17,16,28,,34,32,12,12,4,5,0.7,0.7
2026-02-12T0900,1873A,109.4263,24.2951,柳州市,市四中,,32,,22,22,17,24,,31,30,15,13,5,6,1.0,0.8
2026-02-12T0900,1874A,109.396,24.3658,柳州市,市九中,,36,26,22,25,17,27,,30,29,12,11,9,9,1.0,0.9
2026-02-12T0900,1875A,109.4912,24.3164,柳州市,古亭山,,29,,18,20,14,18,,32,30,19,10,6,6,0.9,0.9
2026-02-12T0900,3402A,109.5422,24.3994,柳州市,市二中,,29,,17,20,14,22,,34,32,15,12,4,5,0.6,0.6
2026-02-12T0900,2307A,116.5078,31.7369,六安市,监测大楼,颗粒物(PM10),67,84,98,45,44,55,,59,58,24,15,5,4,0.5,0.4
2026-02-12T0900,2308A,116.4738,31.7642,六安市,皖西学院,颗粒物(PM10),70,90,106,42,41,36,,46,42,29,18,5,5,0.6,0.5
2026-02-12T0900,2309A,116.4997,31.7904,六安市,朝阳厂,颗粒物(PM10),68,85,95,44,42,37,,54,50,43,22,6,6,0.9,0.5
2026-02-12T0900,2310A,116.5566,31.7885,六安市,开发区,颗粒物(PM10),77,103,122,54,52,32,,49,44,24,22,5,6,0.6,0.4
2026-02-12T0900,2577A,104.8293,26.592,六盘水市,黄土坡,细颗粒物(PM2.5),58,49,31,41,25,18,,28,27,26,17,9,8,1.4,0.9
2026-02-12T0900,2579A,104.8481,26.5898,六盘水市,民中,细颗粒物(PM2.5),59,53,34,42,26,17,,28,26,25,15,6,5,1.5,1
2026-02-12T0900,2580A,104.9541,26.5506,六盘水市,双水,,29,29,27,17,18,23,,39,37,21,11,8,4,0.9,0.8
2026-02-12T0900,4151A,104.8899,26.5685,六盘水市,钟山大道中段564号,颗粒物(PM10),52,54,35,27,21,25,,34,32,15,10,8,6,1.6,0.9
2026-02-12T0900,2336A,117.022,25.1031,龙岩市,龙岩市监测站,,45,40,19,31,18,23,,27,26,10,9,9,7,1.0,0.8
2026-02-12T0900,2337A,117.0257,25.0662,龙岩市,闽西职业技术学院,,36,28,22,25,18,20,,26,24,11,11,6,6,1.0,0.8
2026-02-12T0900,2338A,117.0195,25.0306,龙岩市,龙岩学院,,36,,23,25,17,20,,27,25,12,13,5,4,/,/
2026-02-12T0900,2885A,104.9344,33.3827,陇南市,滨江中学,细颗粒物(PM2.5),73,72,81,53,34,20,,34,30,36,19,6,5,0.9,0.8
2026-02-12T0900,3247A,104.9551,33.3709,陇南市,市总工会,颗粒物(PM10),66,81,76,33,30,27,,42,38,26,15,3,3,0.8,0.7
2026-02-12T0900,2488A,111.9984,27.7346,娄底市,市监测站,细颗粒物(PM2.5),87,,74,64,52,4,,4,3,24,24,3,3,0.8,0.8
2026-02-12T0900,2491A,111.9888,27.7035,娄底市,市政府,细颗粒物(PM2.5),78,70,74,57,47,2,,2,2,7,15,2,2,0.6,0.6
2026-02-12T0900,4127A,111.9812,27.7591,娄底市,涟钢职大,细颗粒物(PM2.5),72,71,72,52,44,2,,3,2,26,24,4,3,1.4,1.1
2026-02-12T0900,4128A,112.0303,27.7457,娄底市,娄底体校,细颗粒物(PM2.5),72,61,66,52,44,2,,2,2,13,10,2,2,0.4,0.4
2026-02-12T0900,1894A,105.4427,28.9063,泸州市,小市上码头,细颗粒物(PM2.5),79,70,58,58,43,34,,39,38,26,21,5,6,1.0,0.9
2026-02-12T0900,1895A,105.4241,28.8573,泸州市,兰田宪桥,细颗粒物(PM2.5),75,77,63,55,39,36,,45,43,21,22,8,8,0.8,0.8
2026-02-12T0900,1896A,105.4378,28.8833,泸州市,市环监站,细颗粒物(PM2.5),70,85,65,51,42,24,,38,36,35,25,7,7,0.8,0.7
2026-02-12T0900,4272A,105.3689,28.7783,泸州市,纳溪中医医院,细颗粒物(PM2.5),89,86,69,66,48,17,,35,34,25,22,8,8,0.8,0.7
2026-02-12T0900,2183A,111.1447,37.5212,吕梁市,环保局,,,,88,,19,,,74,,,18,,9,,0.4
2026-02-12T0900,2185A,111.1285,37.5338,吕梁市,自来水公司,颗粒物(PM10),111,172,143,37,35,7,,2,2,35,34,18,10,0.5,0.5
2026-02-12T0900,2867A,111.1225,37.5093,吕梁市,马茂庄小学,,,,103,,22,,,68,,,19,,9,,0.5
2026-02-12T0900,1812A,112.3934,34.6517,洛阳市,市委党校,颗粒物(PM10),90,130,144,52,62,29,,13,13,27,39,9,10,0.8,0.9
2026-02-12T0900,1815A,112.494,34.6883,洛阳市,河南林校,,,134,148,56,51,,,7,7,32,46,13,14,0.6,0.7
2026-02-12T0900,1816A,112.3843,34.623,洛阳市,开发区管委会,颗粒物(PM10),98,145,158,52,51,25,,29,27,30,28,10,12,0.7,0.6
2026-02-12T0900,1817A,112.4263,34.6249,洛阳市,市委新办公区,颗粒物(PM10),93,136,154,37,53,31,,28,28,20,30,10,10,0.5,0.6
2026-02-12T0900,3340A,112.6005,34.6323,洛阳市,伊滨,颗粒物(PM10),107,164,155,78,52,26,,32,32,35,28,10,10,0.8,0.6
2026-02-12T0900,3341A,112.495,34.6338,洛阳市,中移产业园,颗粒物(PM10),96,142,140,64,55,27,,29,29,25,32,4,10,0.8,0.7
2026-02-12T0900,3593A,112.5736,34.8993,洛阳市,吉利监测站,颗粒物(PM10),75,100,109,31,31,36,,52,49,26,23,8,10,0.6,0.6
2026-02-12T0900,3635A,112.3678,34.6623,洛阳市,河科大西苑校区,颗粒物(PM10),97,144,153,65,55,16,,14,13,41,38,11,13,1.2,1
2026-02-12T0900,3636A,112.4387,34.678,洛阳市,英才小学,颗粒物(PM10),95,140,155,56,55,19,,7,7,43,55,12,16,1.1,1
2026-02-12T0900,4214A,112.460027,34.694929,洛阳市,春都路1号院,颗粒物(PM10),114,177,157,63,51,11,,9,8,53,43,20,14,1.3,0.8
2026-02-12T0900,2399A,114.051,33.5721,漯河市,三五一五工厂,颗粒物(PM10),101,152,152,38,47,48,,58,55,41,24,6,5,0.7,0.6
2026-02-12T0900,2400A,114.0055,33.5698,漯河市,漯河大学,颗粒物(PM10),92,133,133,46,45,63,,65,64,30,19,7,6,0.8,0.7
2026-02-12T0900,2401A,114.0134,33.5826,漯河市,市水利局,颗粒物(PM10),93,136,143,44,48,70,,69,68,27,21,6,6,0.6,0.5
2026-02-12T0900,2402A,114.0261,33.5697,漯河市,市广电局,颗粒物(PM10),95,139,138,46,50,71,,59,59,21,21,7,7,0.5,0.5
2026-02-12T0900,3478A,113.9691,33.568,漯河市,市图书馆,颗粒物(PM10),93,136,150,44,50,62,,62,62,22,17,10,9,0.7,0.6
2026-02-12T0900,4250A,114.089259,33.588274,漯河市,韶山路11号,,,146,147,48,47,51,,55,53,39,26,,7,,0.4
2026-02-12T0900,1798A,118.5084,31.6838,马鞍山市,湖东路四小,细颗粒物(PM2.5),117,151,136,88,81,42,,33,33,40,44,7,8,1.2,1
2026-02-12T0900,1799A,118.5019,31.6449,马鞍山市,开发区,细颗粒物(PM2.5),117,135,138,88,81,50,,40,40,32,45,6,5,1.0,0.9
2026-02-12T0900,3633A,118.4914,31.681,马鞍山市,雨山,细颗粒物(PM2.5),120,135,139,91,80,39,,42,42,44,41,6,8,1.6,1.1
2026-02-12T0900,4191A,118.527362,31.722269,马鞍山市,慈湖高新区,细颗粒物(PM2.5),118,151,138,89,86,37,,40,40,48,45,5,10,0.9,1.1
2026-02-12T0900,1686A,111.0285,21.469,茂名市,电白南海,颗粒物(PM10),54,58,43,34,22,54,,54,52,23,14,11,9,1.0,0.9
2026-02-12T0900,1687A,110.9294,21.6533,茂名市,茂石化七小,颗粒物(PM10),53,56,42,32,19,48,,54,53,17,10,7,7,0.6,0.4
2026-02-12T0900,1688A,110.9108,21.6688,茂名市,健康路,,46,46,33,30,18,65,,66,64,13,10,7,7,0.8,0.6
2026-02-12T0900,1689A,110.8592,21.6826,茂名市,高岭,颗粒物(PM10),56,61,51,35,22,70,,54,54,16,14,8,6,/,/
2026-02-12T0900,3450A,111.0101,21.5165,茂名市,电白水东,细颗粒物(PM2.5),54,53,33,38,19,52,,65,63,28,19,10,8,/,/
2026-02-12T0900,2540A,103.8414,30.0871,眉山市,气象局,细颗粒物(PM2.5),72,82,62,52,37,6,,23,20,35,20,8,9,0.8,0.7
2026-02-12T0900,3148A,103.829,30.0563,眉山市,区人社局,细颗粒物(PM2.5),70,75,64,51,39,14,,25,23,35,23,2,2,0.7,0.7
2026-02-12T0900,4148A,103.8836,30.0695,眉山市,眉职院,细颗粒物(PM2.5),69,72,59,50,33,21,,34,32,19,13,4,4,0.8,0.7
2026-02-12T0900,1690A,116.1248,24.3307,梅州市,梅江月梅,,22,,18,15,13,18,,22,20,15,14,/,/,/,/
2026-02-12T0900,1691A,116.0798,24.2719,梅州市,梅县新城,,34,34,22,21,14,17,,28,26,17,15,8,7,0.7,0.6
2026-02-12T0900,3315A,116.1234,24.2994,梅州市,梅龙,,30,24,19,21,14,22,,25,23,12,13,9,8,0.8,0.7
2026-02-12T0900,1878A,104.7775,31.4741,绵阳市,富乐山,细颗粒物(PM2.5),64,76,68,46,43,6,,14,12,24,17,8,8,0.9,0.8
2026-02-12T0900,1880A,104.6698,31.4668,绵阳市,高新区自来水公司,细颗粒物(PM2.5),69,80,81,50,47,1,,1,1,34,35,8,7,1.2,1
2026-02-12T0900,3491A,104.6899,31.5324,绵阳市,西科大附属小学,颗粒物(PM10),61,71,80,39,47,15,,22,22,25,26,8,8,0.9,0.7
2026-02-12T0900,3492A,104.5647,31.5343,绵阳市,安州区旅游局,颗粒物(PM10),66,81,77,45,47,4,,6,6,26,27,13,13,1.2,1.1
2026-02-12T0900,4146A,104.7092,31.4972,绵阳市,科技城新区公安局,颗粒物(PM10),65,79,77,40,42,28,,37,36,26,28,5,5,0.8,0.8
2026-02-12T0900,4226A,104.765114,31.453094,绵阳市,绵阳市气象局,细颗粒物(PM2.5),72,81,75,52,48,3,,5,4,29,25,7,7,0.7,0.7
2026-02-12T0900,1784A,129.61,44.561,牡丹江市,环保大楼,细颗粒物(PM2.5),52,42,47,36,31,40,,53,50,35,26,8,4,0.6,0.5
2026-02-12T0900,1787A,129.6364,44.6075,牡丹江市,机车工厂,细颗粒物(PM2.5),78,83,63,57,42,20,,16,16,49,31,9,7,1.1,0.7
2026-02-12T0900,1788A,129.6386,44.5462,牡丹江市,第一中学,,39,39,36,25,31,48,,46,46,23,20,10,6,0.7,0.6
2026-02-12T0900,4287A,129.5992,44.5964,牡丹江市,东晓云街98号,细颗粒物(PM2.5),80,65,61,59,38,20,,39,34,52,23,8,7,1.0,0.8
2026-02-12T0900,2531A,105.0703,29.61,内江市,市监测站,细颗粒物(PM2.5),77,,58,56,46,46,,48,47,27,22,6,5,0.8,0.7
2026-02-12T0900,2533A,105.0657,29.5807,内江市,内江二中,细颗粒物(PM2.5),74,77,65,54,45,26,,28,28,38,28,7,7,0.6,0.5
2026-02-12T0900,2534A,105.0407,29.5828,内江市,内江日报社,细颗粒物(PM2.5),64,61,51,46,42,53,,54,52,18,24,7,6,0.4,0.4
2026-02-12T0900,4147A,105.0433,29.6105,内江市,玉峰路西段888号,细颗粒物(PM2.5),80,63,53,59,46,32,,44,41,2,21,6,4,0.6,0.6
2026-02-12T0900,2628A,92.0653,31.4846,那曲市,那曲监测站,细颗粒物(PM2.5),87,,31,64,25,34,,58,53,31,15,17,11,1.3,1
2026-02-12T0900,4243A,92.0515,31.4787,那曲市,那曲市委宣传部,,29,23,14,20,13,44,,66,60,17,6,8,8,0.9,0.7
2026-02-12T0900,1291A,115.8887,28.7006,南昌市,省林业公司,细颗粒物(PM2.5),62,66,103,44,59,5,,2,2,44,38,4,4,0.6,0.6
2026-02-12T0900,1292A,115.813,28.7443,南昌市,林科所,颗粒物(PM10),65,80,82,22,40,46,,42,42,34,33,8,8,1.4,0.9
2026-02-12T0900,1294A,115.8518,28.687,南昌市,建工学校,"颗粒物(PM10),细颗粒物(PM2.5)",73,96,111,53,60,6,,12,11,60,43,7,6,0.6,0.5
2026-02-12T0900,1295A,115.8926,28.6425,南昌市,象湖,细颗粒物(PM2.5),124,122,99,94,69,5,,1,1,40,36,8,8,1.4,1.2
2026-02-12T0900,3046A,115.9084,28.6062,南昌市,机电学校,细颗粒物(PM2.5),110,107,117,83,72,8,,6,6,37,36,6,5,1.1,0.8
2026-02-12T0900,3690A,115.9718,28.7032,南昌市,外国语学校,细颗粒物(PM2.5),84,65,109,62,78,3,,0,0,32,31,12,11,1.2,1.1
2026-02-12T0900,4106A,115.7923,28.6873,南昌市,工业二路,颗粒物(PM10),81,111,113,56,59,12,,10,10,46,39,5,4,0.9,0.8
2026-02-12T0900,4192A,115.931587,28.686774,南昌市,南京东路235号,细颗粒物(PM2.5),114,115,119,86,78,4,,3,3,38,33,7,6,0.9,1
2026-02-12T0900,1906A,106.0791,30.8022,南充市,南充市委,,,60,67,47,47,,,23,22,25,24,3,3,0.6,0.7
2026-02-12T0900,1907A,106.1038,30.8215,南充市,南充炼油厂,"颗粒物(PM10),细颗粒物(PM2.5)",62,73,75,44,47,7,,21,19,36,33,4,5,0.6,0.5
2026-02-12T0900,4227A,106.108336,30.788436,南充市,梨树横街98号,细颗粒物(PM2.5),65,63,73,47,52,15,,11,11,35,31,6,6,0.5,0.6
2026-02-12T0900,4304A,106.1172,30.843,南充市,清泉寺北路188号,细颗粒物(PM2.5),60,49,56,43,43,29,,47,44,30,19,6,6,0.7,0.6
2026-02-12T0900,4305A,106.067,30.7616,南充市,同庆路1号,颗粒物(PM10),66,82,65,45,47,6,,7,7,50,40,5,5,0.6,0.5
2026-02-12T0900,1151A,118.8033,32.1085,南京市,迈皋桥,细颗粒物(PM2.5),104,116,109,78,72,49,,33,33,41,39,8,10,0.8,0.9
2026-02-12T0900,1152A,118.7487,32.057,南京市,草场门,细颗粒物(PM2.5),98,134,119,73,70,37,,20,20,47,60,8,8,1.1,1
2026-02-12T0900,1154A,118.770105,32.004342,南京市,中华门,细颗粒物(PM2.5),127,129,116,96,76,21,,18,18,46,36,4,4,1.0,0.8
2026-02-12T0900,1155A,118.8059,32.0329,南京市,瑞金路,细颗粒物(PM2.5),122,134,119,92,78,28,,9,9,56,64,4,4,1.6,1.6
2026-02-12T0900,1156A,118.7946,32.0774,南京市,玄武湖,细颗粒物(PM2.5),102,117,113,76,71,66,,50,50,31,43,1,5,1.2,1.1
2026-02-12T0900,1157A,118.6415,32.0964,南京市,浦口,细颗粒物(PM2.5),115,144,119,87,69,34,,66,57,52,27,7,6,0.9,0.7
2026-02-12T0900,1158A,118.730129,32.000956,南京市,奥体中心,细颗粒物(PM2.5),123,141,126,93,75,36,,15,15,46,52,6,7,0.8,0.8
2026-02-12T0900,1159A,118.9072,32.1047,南京市,仙林大学城,细颗粒物(PM2.5),114,124,121,86,77,44,,27,27,41,44,6,7,0.9,0.9
2026-02-12T0900,3422A,118.8443,31.919,南京市,江宁彩虹桥,细颗粒物(PM2.5),107,130,124,80,70,31,,12,12,64,58,4,4,1.1,1.1
2026-02-12T0900,3427A,118.8497,32.3599,南京市,六合雄州,细颗粒物(PM2.5),130,133,118,99,89,7,,5,4,50,46,1,1,,0.8
2026-02-12T0900,4086A,118.7641,32.0841,南京市,新模范马路66号,细颗粒物(PM2.5),124,158,128,94,74,44,,33,33,69,64,4,4,1.1,0.9
2026-02-12T0900,4249A,118.8707617,31.34017673,南京市,汶溪路181号,颗粒物(PM10),81,111,128,55,66,61,,62,61,23,28,5,7,0.9,1.1
2026-02-12T0900,4312A,119.019,31.6512,南京市,中山西路1号,细颗粒物(PM2.5),90,102,103,67,69,22,,18,18,30,30,3,4,1.3,1.2
2026-02-12T0900,1401A,108.3098,22.788,南宁市,二十一中,,28,27,24,19,18,17,,20,19,21,21,3,4,0.7,0.9
2026-02-12T0900,1402A,108.3135,22.8529,南宁市,北湖,,26,20,25,18,23,21,,16,15,17,18,2,3,0.7,0.6
2026-02-12T0900,1403A,108.3205,22.8222,南宁市,市监测站,,26,,28,18,18,14,,22,20,26,20,5,6,0.8,0.7
2026-02-12T0900,1404A,108.3828,22.8038,南宁市,大自然花园,,23,,19,16,15,22,,28,26,13,13,5,5,0.8,0.7
2026-02-12T0900,1406A,108.2397,22.8462,南宁市,区农职院,,,,24,,17,,,43,14,,17,,3,,1.0
2026-02-12T0900,1407A,108.3285,22.7356,南宁市,英华嘉园,,23,20,26,16,18,20,,27,25,14,15,2,3,0.6,0.6
2026-02-12T0900,3401A,108.4829,22.762,南宁市,红星社区,,19,19,19,13,15,23,,37,34,10,9,3,4,0.8,0.7
2026-02-12T0900,4132A,108.2927,23.1477,南宁市,起凤路9号,,25,20,25,17,21,19,,27,27,14,12,2,1,0.6,0.6
2026-02-12T0900,4221A,108.2177,22.7774,南宁市,乐贤路16号,,35,30,28,24,20,3,,11,9,30,22,1,2,0.9,0.9
2026-02-12T0900,2332A,118.1682,26.6371,南平市,南平市监测站,,34,34,38,16,21,35,,16,16,15,13,4,4,0.7,0.6
2026-02-12T0900,2334A,118.1757,26.6276,南平市,南平七中,,31,31,28,12,17,36,,14,14,10,10,2,3,0.7,0.6
2026-02-12T0900,1168A,120.9056,31.9669,南通市,狼山街道,细颗粒物(PM2.5),114,117,96,86,73,27,,19,15,69,40,5,3,0.7,0.7
2026-02-12T0900,1170A,120.8635,32.0231,南通市,城中,细颗粒物(PM2.5),125,124,104,95,82,48,,40,36,48,41,8,6,0.9,0.8
2026-02-12T0900,1171A,120.9376,31.9301,南通市,星湖花园,细颗粒物(PM2.5),108,100,93,81,76,52,,44,40,44,33,7,5,0.7,0.7
2026-02-12T0900,1172A,120.8053,32.046,南通市,紫琅学院,细颗粒物(PM2.5),115,120,107,87,81,30,,28,24,58,43,6,5,1.0,1
2026-02-12T0900,3291A,121.0631,32.0644,南通市,通州监测站,细颗粒物(PM2.5),122,114,93,92,74,49,,48,43,37,27,5,4,0.8,0.7
2026-02-12T0900,3432A,120.9348,31.9874,南通市,环境教育馆,细颗粒物(PM2.5),98,102,93,73,74,17,,15,12,58,43,5,4,1.0,0.9
2026-02-12T0900,4091A,120.8692,31.9885,南通市,洪江路,细颗粒物(PM2.5),123,101,92,93,80,44,,34,32,45,41,8,5,0.8,0.8
2026-02-12T0900,2404A,112.5338,33.0086,南阳市,瓦房庄,,,,114,,50,,,62,62,21,17,5,5,0.9,0.8
2026-02-12T0900,2405A,112.5002,32.9734,南阳市,汉画馆,颗粒物(PM10),91,131,128,67,69,42,,52,51,27,21,4,5,0.8,0.8
2026-02-12T0900,2406A,112.5778,33.0144,南阳市,气象站,颗粒物(PM10),94,137,140,45,50,50,,66,63,20,18,6,6,0.8,0.8
2026-02-12T0900,2407A,112.548,32.9687,南阳市,理工学院,颗粒物(PM10),86,121,120,53,53,44,,64,60,24,18,6,6,0.7,0.7
2026-02-12T0900,4008A,112.5233,32.9921,南阳市,卧龙区政府,颗粒物(PM10),98,146,130,50,52,42,,52,52,24,19,6,6,0.7,0.7
2026-02-12T0900,1234A,121.8352,29.9111,宁波市,区环保大楼,细颗粒物(PM2.5),137,139,128,104,82,27,,12,12,48,53,6,6,1.0,0.8
2026-02-12T0900,1235A,121.5595,29.8208,宁波市,万里学院,细颗粒物(PM2.5),112,102,100,84,71,43,,34,34,31,35,3,3,1.0,0.9
2026-02-12T0900,1236A,121.713,29.9564,宁波市,龙赛医院,细颗粒物(PM2.5),127,117,110,96,79,35,,33,33,41,44,5,5,1.0,1
2026-02-12T0900,1240A,121.5855,29.8635,宁波市,太古小学,细颗粒物(PM2.5),113,118,106,85,71,28,,29,29,41,35,3,4,0.9,0.8
2026-02-12T0900,1241A,121.5239,29.8673,宁波市,市环境监测中心,细颗粒物(PM2.5),104,108,113,78,78,45,,31,31,24,35,3,3,0.9,0.9
2026-02-12T0900,2871A,121.6156,29.9015,宁波市,万里国际学校,细颗粒物(PM2.5),119,115,101,90,76,44,,44,44,31,28,4,4,0.9,0.8
2026-02-12T0900,3710A,121.5593,29.8976,宁波市,白沙活动中心,细颗粒物(PM2.5),112,108,105,84,74,52,,33,33,30,34,4,4,0.7,0.7
2026-02-12T0900,4095A,121.8962,29.7529,宁波市,中科路88号,细颗粒物(PM2.5),129,114,97,98,75,29,,14,13,29,32,5,5,0.8,0.7
2026-02-12T0900,2341A,119.5387,26.6611,宁德市,宁德市监测站,,42,38,31,29,28,47,,52,50,18,17,3,3,0.8,0.7
2026-02-12T0900,3209A,119.5231,26.6562,宁德市,宁德一中,细颗粒物(PM2.5),53,43,33,37,31,47,,56,54,18,16,3,3,0.6,0.4
2026-02-12T0900,2618A,98.859,25.8541,怒江傈僳族自治州,州监测站,,31,31,26,15,14,38,,60,56,11,7,6,6,0.5,0.4
2026-02-12T0900,2619A,98.8607,25.8168,怒江傈僳族自治州,泸水一中,,23,23,27,15,20,30,,39,38,13,13,4,5,0.6,0.6
2026-02-12T0900,1888A,101.6891,26.571,攀枝花市,弄弄坪,颗粒物(PM10),83,115,66,57,33,11,,4,4,52,36,135,73,6.0,2.8
2026-02-12T0900,1889A,101.577,26.5914,攀枝花市,河门口,颗粒物(PM10),56,62,41,33,22,11,,24,21,28,17,12,19,0.8,0.7
2026-02-12T0900,1891A,101.7365,26.4986,攀枝花市,仁和,,39,39,31,25,20,27,,40,38,24,15,12,11,0.9,0.6
2026-02-12T0900,2835A,101.7222,26.567,攀枝花市,四十中小,一氧化碳(CO),81,57,36,40,20,5,,23,17,56,34,93,35,8.1,2
2026-02-12T0900,1604A,122.0303,41.1489,盘锦市,开发区,细颗粒物(PM2.5),155,122,82,118,69,10,,36,30,33,20,4,8,1.2,0.7
2026-02-12T0900,1605A,122.0486,41.0883,盘锦市,兴隆台,细颗粒物(PM2.5),203,,68,153,71,10,,37,29,61,34,6,8,1.3,0.7
2026-02-12T0900,1606A,121.8297,41.1026,盘锦市,新生街道,细颗粒物(PM2.5),135,,70,103,70,21,,36,31,48,28,6,10,1.1,0.8
2026-02-12T0900,1832A,113.3257,33.7423,平顶山市,新华旅馆,颗粒物(PM10),97,143,138,55,59,54,,60,55,39,25,7,6,0.4,0.3
2026-02-12T0900,1833A,113.2917,33.737,平顶山市,规划设计院,颗粒物(PM10),107,164,142,53,56,31,,65,58,46,17,8,7,0.7,0.5
2026-02-12T0900,1834A,113.182,33.7738,平顶山市,平顶山工学院,颗粒物(PM10),87,124,127,51,52,74,,80,79,17,14,11,9,0.5,0.5
2026-02-12T0900,3594A,112.8736,33.9068,平顶山市,石龙区,颗粒物(PM10),97,143,146,49,57,58,,64,59,22,14,6,6,0.9,0.7
2026-02-12T0900,4116A,113.284,33.7139,平顶山市,姚电大道23号,颗粒物(PM10),110,170,165,47,57,53,,81,78,38,23,6,5,0.8,0.6
2026-02-12T0900,2656A,106.6633,35.5338,平凉市,聚贤嘉苑,颗粒物(PM10),69,88,122,40,57,51,,52,52,18,18,6,7,0.6,0.6
2026-02-12T0900,2657A,106.7021,35.5307,平凉市,博物馆,,,97,126,32,48,45,,52,52,,20,11,13,,0.9
2026-02-12T0900,2348A,113.8384,27.6436,萍乡市,中医院,颗粒物(PM10),66,81,84,44,54,13,,8,8,26,24,7,4,1.5,1.3
2026-02-12T0900,2350A,113.8677,27.6438,萍乡市,市环保局,,,71,63,43,45,17,,10,10,,28,,11,0.9,0.9
2026-02-12T0900,2351A,113.8663,27.6202,萍乡市,安源区政府,颗粒物(PM10),67,83,78,46,49,15,,5,5,24,22,8,8,1.1,1
2026-02-12T0900,4107A,113.8686,27.6668,萍乡市,联洪村委会,颗粒物(PM10),58,65,61,38,41,18,,12,12,15,18,1,1,0.5,0.4
2026-02-12T0900,2319A,119.0142,25.4324,莆田市,荔城区仓后路,颗粒物(PM10),57,63,42,39,22,89,,81,81,12,14,/,/,/,/
2026-02-12T0900,2320A,119.0016,25.4553,莆田市,莆田市监测站,,46,45,35,32,22,94,,82,82,7,11,2,2,0.5,0.5
2026-02-12T0900,2321A,119.112,25.4561,莆田市,涵江区六中,细颗粒物(PM2.5),57,54,42,40,22,83,,85,85,13,11,/,/,0.7,0.6
2026-02-12T0900,2322A,119.1014,25.3215,莆田市,秀屿区政府,,,67,40,41,25,,,96,96,14,10,4,3,0.7,0.7
2026-02-12T0900,2392A,115.0312,35.7636,濮阳市,环保局,颗粒物(PM10),87,124,124,51,56,44,,63,59,24,21,6,9,0.6,0.6
2026-02-12T0900,3021A,115,35.7667,濮阳市,濮水河管理处,颗粒物(PM10),94,138,140,52,63,44,,61,58,24,21,6,9,0.8,0.8
2026-02-12T0900,4118A,115.0552,35.7816,濮阳市,中原东路68号,颗粒物(PM10),101,152,150,46,58,43,,64,60,28,25,6,9,0.6,0.8
2026-02-12T0900,4216A,115.0923632,35.76857718,濮阳市,任丘路479号,颗粒物(PM10),98,146,140,65,63,33,,53,49,31,26,6,10,0.7,0.6
2026-02-12T0900,2601A,100.9801,22.7634,普洱市,市环保局,,,,57,,24,,,92,,,11,,4,,0.6
2026-02-12T0900,2602A,100.9763,22.8237,普洱市,普洱第二中学,颗粒物(PM10),57,64,58,26,31,7,,7,6,29,22,5,5,0.9,0.7
2026-02-12T0900,3345A,131.0413,45.7795,七台河市,中波台,,30,26,42,21,34,72,,64,64,14,18,8,10,0.4,0.6
2026-02-12T0900,3637A,131.0136,45.7688,七台河市,人民广场,,31,31,53,3,33,71,,62,62,19,24,8,11,0.5,0.6
2026-02-12T0900,3684A,130.8639,45.8144,七台河市,新建矿广场,,48,48,55,26,36,51,,51,50,23,18,7,4,0.3,0.4
2026-02-12T0900,1779A,123.9307,47.3641,齐齐哈尔市,安居小区,颗粒物(PM10),66,82,57,31,30,37,,49,47,30,25,13,14,0.9,0.6
2026-02-12T0900,1780A,123.9497,47.3389,齐齐哈尔市,中心广场,细颗粒物(PM2.5),67,72,40,48,28,31,,44,42,42,23,11,9,1.2,0.7
2026-02-12T0900,1781A,123.9483,47.3229,齐齐哈尔市,农牧车辆厂,颗粒物(PM10),75,100,49,50,26,22,,26,23,43,26,12,7,1.3,0.6
2026-02-12T0900,1783A,123.9442,47.2994,齐齐哈尔市,市环境监测站,细颗粒物(PM2.5),124,143,51,94,27,28,,47,44,36,19,16,7,1.6,0.6
2026-02-12T0900,3662A,123.6341,47.2079,齐齐哈尔市,富区青少年活动中心,颗粒物(PM10),83,115,71,47,40,44,,30,30,31,23,32,10,2.7,0.9
2026-02-12T0900,2591A,107.9765,26.5724,黔东南苗族侗族自治州,市环境监测站,,45,44,37,31,27,29,,40,39,13,9,3,3,0.7,0.7
2026-02-12T0900,2881A,107.8909,26.531,黔东南苗族侗族自治州,凯里学院,颗粒物(PM10),51,51,38,32,26,42,,46,45,12,11,3,3,0.6,0.6
2026-02-12T0900,2593A,107.5223,26.2371,黔南布依族苗族自治州,小围寨,,29,,23,20,20,21,,23,21,5,6,5,7,0.9,0.9
2026-02-12T0900,3538A,107.5175,26.2977,黔南布依族苗族自治州,沙坝,,29,24,29,20,20,27,,36,34,7,8,4,5,0.7,0.7
2026-02-12T0900,2589A,104.9022,25.0943,黔西南布依族苗族自治州,场坝街,,18,18,27,7,16,23,,28,27,7,8,3,3,0.7,0.7
2026-02-12T0900,2590A,104.8812,25.0994,黔西南布依族苗族自治州,坪东大道,,21,21,25,11,16,21,,29,28,9,8,4,6,0.9,0.9
2026-02-12T0900,2502A,108.6238,21.9667,钦州市,市环保站,,44,44,32,27,18,11,,21,18,15,12,2,2,0.9,0.7
2026-02-12T0900,2503A,108.655,21.9481,钦州市,沙埠小学,,,,30,,17,9,,24,21,,15,3,3,,0.5
2026-02-12T0900,2504A,108.5989,21.7435,钦州市,港区一小,颗粒物(PM10),52,54,35,23,21,9,,15,13,22,23,1,3,0.7,0.6
2026-02-12T0900,3404A,108.5959,21.9634,钦州市,北职校,,28,26,25,19,14,11,,23,21,15,12,2,2,0.8,0.7
2026-02-12T0900,1046A,119.5247,39.9346,秦皇岛市,建设大厦,细颗粒物(PM2.5),130,161,123,99,77,16,,45,42,70,37,18,19,1.9,1.3
2026-02-12T0900,3132A,119.5979,39.938,秦皇岛市,文明里,细颗粒物(PM2.5),110,148,128,83,80,16,,32,29,86,54,20,19,1.8,1.3
2026-02-12T0900,4066A,119.7458,39.9952,秦皇岛市,南园路157号,细颗粒物(PM2.5),125,164,126,95,81,17,,29,26,80,53,18,16,1.5,1.2
2026-02-12T0900,4067A,119.5131,39.8858,秦皇岛市,翠岛大街1号,细颗粒物(PM2.5),134,147,116,102,85,22,,23,23,55,41,30,20,2.0,1.4
2026-02-12T0900,4198A,119.509013,39.825305,秦皇岛市,北戴河轮滑馆,细颗粒物(PM2.5),134,169,134,102,87,24,,25,25,61,50,23,17,2.2,1.4
2026-02-12T0900,1310A,120.404,36.0625,青岛市,市南区东部子站,细颗粒物(PM2.5),182,161,113,137,85,62,,72,70,25,26,10,10,0.9,0.8
2026-02-12T0900,1311A,120.362344,36.10282,青岛市,四方区子站,细颗粒物(PM2.5),186,166,117,140,93,52,,76,70,42,28,6,6,1.2,0.9
2026-02-12T0900,1312A,120.294373,36.054183,青岛市,市南区西部子站,细颗粒物(PM2.5),201,161,126,151,113,54,,67,65,28,35,4,6,1.1,0.9
2026-02-12T0900,1313A,120.4581,36.0858,青岛市,崂山区子站,细颗粒物(PM2.5),162,156,100,123,73,64,,70,70,30,29,10,11,1.0,0.8
2026-02-12T0900,1315A,120.3945,36.3083,青岛市,城阳区子站,细颗粒物(PM2.5),179,173,113,135,86,27,,78,69,84,38,12,10,1.7,1
2026-02-12T0900,3642A,120.3454,36.0735,青岛市,市北区南部,细颗粒物(PM2.5),193,182,121,145,99,59,,72,70,26,27,2,4,1.2,1
2026-02-12T0900,3643A,120.3897,36.18,青岛市,李沧区北部,细颗粒物(PM2.5),186,166,109,140,87,52,,73,68,52,40,12,10,1.3,0.9
2026-02-12T0900,4110A,120.5222,36.4089,青岛市,盟旺路653号,细颗粒物(PM2.5),137,167,113,104,74,83,,89,87,30,26,9,7,1.3,1.1
2026-02-12T0900,4290A,120.196923,35.954556,青岛市,珠江路669号,细颗粒物(PM2.5),189,163,117,142,94,48,,76,70,27,25,8,9,1.0,0.7
2026-02-12T0900,4291A,120.0424,35.8656,青岛市,黄岛区人民政府广场,细颗粒物(PM2.5),178,168,126,134,103,7,,42,33,68,35,9,8,1.6,0.9
2026-02-12T0900,1703A,113.0218,23.7086,清远市,凤城街办,,22,20,22,15,18,27,,22,22,19,17,/,/,/,/
2026-02-12T0900,3025A,113.0479,23.6343,清远市,技师学院,,18,18,22,12,15,25,,30,28,20,16,4,4,0.6,0.6
2026-02-12T0900,3318A,112.9898,23.7403,清远市,清新太和,,19,19,21,12,16,21,,27,26,22,14,10,10,0.9,0.7
2026-02-12T0900,3455A,113.076,23.72,清远市,清城东城,,20,19,19,14,16,25,,34,33,26,20,/,/,/,/
2026-02-12T0900,2661A,107.6325,35.7357,庆阳市,庆阳五中,颗粒物(PM10),71,91,140,26,49,80,,82,81,15,15,6,7,0.6,0.6
2026-02-12T0900,2662A,107.6361,35.7067,庆阳市,市环保局,,,97,139,30,47,,,84,84,11,11,4,5,,0.7
2026-02-12T0900,1916A,103.7897,25.5036,曲靖市,环境监测站,,35,33,28,24,14,62,,71,69,14,8,6,5,0.4,0.4
2026-02-12T0900,1917A,103.8013,25.5357,曲靖市,烟厂办公区,,32,32,27,21,14,56,,60,57,16,10,5,4,0.5,0.4
2026-02-12T0900,3376A,103.7926,25.4651,曲靖市,南苑二区,,30,30,21,20,15,66,,67,66,15,10,4,4,0.5,0.3
2026-02-12T0900,3377A,103.7442,25.5259,曲靖市,曲靖师范学院,,47,47,29,27,20,66,,62,62,11,9,6,4,0.4,0.4
2026-02-12T0900,1264A,118.8694,28.94,衢州市,环保大楼,颗粒物(PM10),70,89,74,49,38,26,,26,25,33,29,/,/,/,/
2026-02-12T0900,1266A,118.8622,28.9809,衢州市,衢州学院,颗粒物(PM10),75,99,70,53,37,26,,16,14,24,25,6,6,0.5,0.4
2026-02-12T0900,4097A,118.9646,28.9832,衢州市,衢州三中,"颗粒物(PM10),细颗粒物(PM2.5)",65,80,72,47,38,16,,11,11,29,25,5,5,0.8,0.7
2026-02-12T0900,1611A,118.5818,24.9116,泉州市,涂山街,颗粒物(PM10),58,65,46,32,23,90,,87,87,10,13,4,4,0.5,0.6
2026-02-12T0900,1612A,118.597,24.8976,泉州市,津头埔,颗粒物(PM10),55,59,45,36,24,89,,84,84,11,13,3,4,0.5,0.6
2026-02-12T0900,1613A,118.6669,24.9422,泉州市,万安,颗粒物(PM10),57,64,47,37,21,81,,76,76,12,13,4,4,0.5,0.6
2026-02-12T0900,4105A,118.6355,24.9148,泉州市,霞新路6号,颗粒物(PM10),58,65,39,36,23,89,,82,82,13,14,/,/,0.6,0.6
2026-02-12T0900,2626A,88.8873,29.2723,日喀则市,日喀则监测站,,23,23,28,10,9,51,,88,82,24,15,12,14,0.6,0.6
2026-02-12T0900,3726A,88.8775,29.2425,日喀则市,林业技术推广中心,,24,10,25,3,4,75,,89,85,3,4,10,10,0.2,0.2
2026-02-12T0900,1659A,119.4711,35.421,日照市,监测站,细颗粒物(PM2.5),230,212,171,180,140,5,,9,8,79,59,19,13,3.1,1.6
2026-02-12T0900,1660A,119.523,35.4216,日照市,市政府广场,细颗粒物(PM2.5),213,232,171,163,138,16,,29,25,82,54,20,15,1.6,1.1
2026-02-12T0900,1661A,119.5511,35.4113,日照市,港务局,细颗粒物(PM2.5),212,263,179,162,136,5,,15,12,93,55,17,10,1.9,1.3
2026-02-12T0900,3507A,119.5326,35.4627,日照市,职业技术学院,细颗粒物(PM2.5),217,210,171,167,135,12,,41,35,75,50,14,12,2.4,1.5
2026-02-12T0900,3604A,119.3267,35.1043,日照市,岚山环保分局,细颗粒物(PM2.5),200,193,177,150,129,54,,41,41,43,47,14,17,1.2,1.4
2026-02-12T0900,1835A,111.1922,34.7752,三门峡市,市政府,颗粒物(PM10),92,133,126,43,36,13,,21,20,42,23,14,12,0.7,0.4
2026-02-12T0900,1836A,111.1588,34.794,三门峡市,开发区,颗粒物(PM10),102,154,151,54,42,24,,40,35,32,22,10,9,0.8,0.5
2026-02-12T0900,3039A,111.1911,34.7829,三门峡市,三门峡市第一小学,颗粒物(PM10),99,148,142,70,44,15,,43,36,48,20,17,14,0.9,0.5
2026-02-12T0900,3598A,111.1031,34.719,三门峡市,富达温泉假日酒店,颗粒物(PM10),104,158,142,65,52,16,,37,30,42,22,17,11,1.1,0.7
2026-02-12T0900,2324A,117.621,26.2626,三明市,三钢,,49,39,27,34,30,14,,14,14,16,14,14,6,0.5,0.5
2026-02-12T0900,2325A,117.6352,26.2714,三明市,三明二中,,36,,25,25,19,13,,13,13,18,13,13,4,0.5,0.5
2026-02-12T0900,2326A,117.6028,26.2377,三明市,三元区政府,,35,26,23,24,20,12,,6,6,18,15,9,4,1.0,0.7
2026-02-12T0900,1877A,109.4962,18.2682,三亚市,河西子站,,25,19,22,10,9,78,,82,81,6,4,2,1,0.4,0.3
2026-02-12T0900,3540A,109.7348,18.3443,三亚市,君悦子站,,19,18,31,13,10,52,,70,66,9,5,3,3,0.5,0.4
2026-02-12T0900,4135A,109.1714,18.3739,三亚市,城东小学站,,23,17,20,16,12,38,,32,32,10,9,/,/,/,/
2026-02-12T0900,2624A,91.7592,29.234,山南市,山南监测站,,20,16,21,14,11,54,,79,74,8,4,4,4,0.4,0.4
2026-02-12T0900,2625A,91.7701,29.2436,山南市,山南人民医院,,20,19,25,8,8,64,,78,74,6,4,9,9,0.4,0.4
2026-02-12T0900,1674A,116.6795,23.3666,汕头市,金平子站,颗粒物(PM10),51,51,43,20,24,68,,70,68,14,14,5,5,0.8,0.8
2026-02-12T0900,1675A,116.7248,23.3632,汕头市,龙湖子站,,46,46,41,21,22,67,,68,66,14,12,10,10,/,/
2026-02-12T0900,1676A,116.7257,23.2774,汕头市,濠江子站,,44,44,41,18,20,69,,70,69,16,16,8,8,/,/
2026-02-12T0900,1677A,116.7518,23.4712,汕头市,澄海子站,,42,42,36,24,21,60,,61,59,12,9,7,7,0.7,0.6
2026-02-12T0900,1678A,116.6088,23.2539,汕头市,潮阳子站,,37,37,36,22,22,69,,71,70,12,11,7,6,0.6,0.6
2026-02-12T0900,3444A,116.4539,23.2684,汕头市,潮南峡山,,34,34,39,16,22,64,,68,65,11,9,6,6,0.6,0.7
2026-02-12T0900,3624A,116.4069,23.2533,汕头市,潮南子站,,38,38,42,18,23,56,,63,61,11,9,6,6,/,/
2026-02-12T0900,1693A,115.3653,22.7751,汕尾市,市环保局,,35,34,31,24,18,73,,83,80,10,9,5,5,0.8,0.7
2026-02-12T0900,1695A,115.362,22.7926,汕尾市,新城中学,,38,29,30,26,19,73,,73,70,10,9,5,5,0.6,0.6
2026-02-12T0900,2645A,109.9155,33.8714,商洛市,监测站,颗粒物(PM10),88,126,155,37,52,34,,44,40,19,19,4,7,0.7,0.6
2026-02-12T0900,3045A,109.9647,33.8486,商洛市,商州区中学,颗粒物(PM10),81,111,157,42,44,26,,49,42,25,16,5,6,0.8,0.6
2026-02-12T0900,2408A,115.6701,34.4283,商丘市,环境监测站,颗粒物(PM10),102,153,154,65,66,60,,72,69,23,21,7,7,0.6,0.5
2026-02-12T0900,2409A,115.6458,34.4047,商丘市,粮食局,颗粒物(PM10),89,128,140,61,63,72,,71,70,20,23,3,4,0.6,0.5
2026-02-12T0900,3171A,115.6069,34.4465,商丘市,梁园区档案局,颗粒物(PM10),97,143,146,60,61,67,,71,69,16,18,3,4,0.6,0.6
2026-02-12T0900,4119A,115.6701,34.3767,商丘市,北海东路185号,颗粒物(PM10),111,172,161,65,65,53,,57,56,24,27,4,5,0.6,0.6
2026-02-12T0900,4120A,115.6172,34.3704,商丘市,中山大街3号,颗粒物(PM10),114,178,175,72,72,51,,53,52,28,30,5,5,0.6,0.5
2026-02-12T0900,1141A,121.401,31.2382,上海市,普陀,细颗粒物(PM2.5),120,106,96,91,78,58,,62,62,42,39,7,7,1.0,1
2026-02-12T0900,1142A,121.4774,31.2043,上海市,十五厂,细颗粒物(PM2.5),118,106,100,89,84,45,,43,43,50,43,8,8,0.9,0.9
2026-02-12T0900,1143A,121.4673,31.3011,上海市,虹口,细颗粒物(PM2.5),119,105,93,90,81,48,,33,33,45,45,5,5,0.5,0.5
2026-02-12T0900,1147A,121.4253,31.226,上海市,静安监测站,细颗粒物(PM2.5),110,104,93,83,75,61,,66,65,42,39,8,8,0.8,0.8
2026-02-12T0900,1148A,121.7029,31.1905,上海市,浦东川沙,细颗粒物(PM2.5),117,100,110,88,91,48,,33,33,51,53,9,10,0.8,0.9
2026-02-12T0900,1149A,121.5339,31.229,上海市,浦东新区监测站,细颗粒物(PM2.5),130,106,100,99,89,43,,51,50,52,40,7,7,0.9,1
2026-02-12T0900,1150A,121.5776,31.2038,上海市,浦东张江,细颗粒物(PM2.5),122,103,106,92,84,40,,29,29,56,51,,8,0.7,0.7
2026-02-12T0900,3265A,121.4242,31.3303,上海市,宝山庙行,细颗粒物(PM2.5),129,112,101,98,81,62,,52,52,40,43,10,9,0.9,0.9
2026-02-12T0900,3266A,121.8789,31.4662,上海市,崇明上实东滩,细颗粒物(PM2.5),90,81,84,67,68,50,,37,34,33,14,5,4,0.7,0.9
2026-02-12T0900,3268A,121.316,31.2839,上海市,嘉定南翔,细颗粒物(PM2.5),127,108,100,96,85,47,,48,48,49,44,5,5,0.9,0.9
2026-02-12T0900,3269A,121.3357,30.7455,上海市,金山新城,细颗粒物(PM2.5),148,116,97,113,90,54,,70,68,33,22,7,6,1.0,1
2026-02-12T0900,3270A,121.4996,31.0741,上海市,闵行浦江,细颗粒物(PM2.5),114,91,99,86,84,55,,28,28,40,43,7,7,0.7,0.7
2026-02-12T0900,3271A,121.2886,31.1663,上海市,青浦徐泾,细颗粒物(PM2.5),133,116,107,101,88,56,,32,32,40,42,6,6,0.8,0.9
2026-02-12T0900,3272A,121.2193,31.0382,上海市,松江图书馆,细颗粒物(PM2.5),140,115,114,107,90,42,,42,41,43,37,7,7,0.8,0.8
2026-02-12T0900,3273A,121.3904,31.206,上海市,长宁仙霞,细颗粒物(PM2.5),117,99,91,88,77,62,,67,66,37,34,8,8,1.2,1.2
2026-02-12T0900,3274A,121.7964,31.0507,上海市,浦东惠南,细颗粒物(PM2.5),113,98,96,85,83,32,,23,22,45,43,6,6,0.9,1
2026-02-12T0900,3544A,121.4891,30.925,上海市,奉贤南桥新城,细颗粒物(PM2.5),115,94,102,87,88,50,,55,52,46,38,3,3,0.7,0.7
