timepoint,stationcode,longitude,latitude,area,positionname,primarypollutant,aqi,pm10,pm10_24h,pm2_5,pm2_5_24h,o3,o3_24h,o3_8h,o3_8h_24h,no2,no2_24h,so2,so2_24h,co,co_24h
2026-02-12T1400,2568A,102.2503,31.8896,阿坝藏族羌族自治州,马师校,,26,15,17,8,15,81,,50,50,4,8,4,4,0.4,0.4
2026-02-12T1400,3994A,102.2174,31.9016,阿坝藏族羌族自治州,马尔康中学西区,,,,19,10,10,84,,56,56,5,8,4,4,,0.5
2026-02-12T1400,2695A,80.2899,41.1684,阿克苏地区,电视台,颗粒物(PM10),290,413,421,106,116,66,,41,41,20,37,13,11,0.7,1
2026-02-12T1400,2696A,80.2592,41.1541,阿克苏地区,艺术中心,颗粒物(PM10),225,367,376,107,116,59,,45,40,35,37,6,6,0.8,1
2026-02-12T1400,2205A,105.699,38.8409,阿拉善盟,蒙二幼,颗粒物(PM10),68,85,84,21,23,87,,76,75,6,11,10,11,0.4,0.6
2026-02-12T1400,2206A,105.7198,38.8508,阿拉善盟,环保局新楼,颗粒物(PM10),65,80,78,16,23,83,,88,81,4,6,9,10,0.4,0.5
2026-02-12T1400,2708A,88.1266,47.8515,阿勒泰地区,市站,,22,22,19,13,4,56,,86,59,32,20,3,3,0.3,0.2
2026-02-12T1400,4166A,88.1198,47.7931,阿勒泰地区,阿勒泰路33号,,46,46,28,15,4,67,,79,63,17,21,4,6,0.4,0.4
2026-02-12T1400,2630A,80.1171,32.4999,阿里地区,阿里监测站,,26,6,4,3,4,81,,64,61,1,7,8,11,0.2,0.4
2026-02-12T1400,3192A,80.0906,32.5029,阿里地区,阿里藏医院,,28,18,9,3,4,89,,72,68,1,4,8,10,0.4,0.4
2026-02-12T1400,2644A,109.0088,32.6974,安康市,汉滨区检察院,"颗粒物(PM10),细颗粒物(PM2.5)",62,74,68,44,33,74,,42,42,14,13,3,2,0.7,0.5
2026-02-12T1400,4054A,109.0324,32.6913,安康市,市邮政管理局,颗粒物(PM10),67,83,80,43,35,74,,38,38,12,21,5,5,0.7,0.8
2026-02-12T1400,2291A,117.0806,30.5181,安庆市,环科院,颗粒物(PM10),76,101,122,39,70,96,,46,46,13,48,7,8,0.6,0.8
2026-02-12T1400,2292A,117.0331,30.5118,安庆市,马山宾馆,颗粒物(PM10),74,98,123,44,78,85,,48,48,28,45,6,7,0.6,0.8
2026-02-12T1400,2294A,116.9897,30.6146,安庆市,安庆大学,,,,73,,42,,,39,,,14,,5,,0.6
2026-02-12T1400,3173A,117.0598,30.5351,安庆市,市人大,颗粒物(PM10),79,108,132,42,69,85,,52,52,27,40,10,7,0.5,0.8
2026-02-12T1400,3123A,105.9408,26.2431,安顺市,凤凰山,,22,17,18,15,17,53,,43,41,8,11,12,14,0.5,0.5
2026-02-12T1400,3124A,105.9443,26.2567,安顺市,金钟山,,20,15,24,14,16,57,,41,40,8,9,13,15,0.7,0.8
2026-02-12T1400,3125A,105.8983,26.248,安顺市,娄家坡,,22,17,21,15,16,55,,41,39,9,10,17,14,0.7,0.7
2026-02-12T1400,1819A,114.3552,36.1017,安阳市,红庙街,细颗粒物(PM2.5),97,137,135,72,60,101,,53,53,23,29,15,10,1.3,1
2026-02-12T1400,1820A,114.361,36.0681,安阳市,银杏小区,细颗粒物(PM2.5),98,138,139,73,63,102,,52,52,25,30,16,12,1.2,0.9
2026-02-12T1400,3141A,114.3921,36.0879,安阳市,信访局,细颗粒物(PM2.5),107,140,136,80,63,109,,58,58,18,22,17,11,1.2,1
2026-02-12T1400,3669A,114.4706,36.0634,安阳市,左辅环卫站,颗粒物(PM10),95,140,151,62,60,106,,57,57,18,22,16,8,1.2,0.8
2026-02-12T1400,4117A,114.2918,36.0769,安阳市,钢三路198号,颗粒物(PM10),114,178,155,61,59,96,,52,52,32,30,19,10,1.4,0.9
2026-02-12T1400,1748A,123.0441,41.1201,鞍山市,深沟寺,细颗粒物(PM2.5),83,106,81,61,51,106,,81,81,25,24,15,15,1.1,1
2026-02-12T1400,1749A,123.011,41.0931,鞍山市,太阳城,细颗粒物(PM2.5),92,99,86,68,58,98,,76,76,26,26,17,20,1.0,1.1
2026-02-12T1400,1750A,123.0483,41.1445,鞍山市,太平,细颗粒物(PM2.5),89,106,80,66,51,96,,68,68,27,28,16,17,1.0,1
2026-02-12T1400,1751A,122.964,41.0968,鞍山市,铁西三道街,细颗粒物(PM2.5),105,133,100,79,63,95,,60,60,32,40,20,21,1.1,1.1
2026-02-12T1400,1753A,123.0219,41.0822,鞍山市,明达新区,细颗粒物(PM2.5),89,98,79,66,54,101,,73,70,26,26,17,18,1.0,1.1
2026-02-12T1400,4201A,122.944647,41.082639,鞍山市,兴盛南路290号,细颗粒物(PM2.5),104,113,99,78,67,90,,60,56,36,38,25,21,1.2,1.3
2026-02-12T1400,2195A,107.4206,40.7609,巴彦淖尔市,附二中,颗粒物(PM10),57,63,95,26,41,81,,65,65,7,23,7,10,0.4,0.6
2026-02-12T1400,2196A,107.37,40.7372,巴彦淖尔市,市环保大楼,颗粒物(PM10),64,77,90,21,34,87,,66,66,6,23,5,7,0.4,0.6
2026-02-12T1400,1956A,86.1476,41.7529,巴音郭楞蒙古自治州,孔雀公园,颗粒物(PM10),240,378,446,86,103,76,,20,20,12,44,9,9,0.6,0.8
2026-02-12T1400,1957A,86.1971,41.7166,巴音郭楞蒙古自治州,棉纺厂,颗粒物(PM10),292,414,478,86,95,72,,47,47,14,18,/,/,/,/
2026-02-12T1400,1958A,86.236,41.7172,巴音郭楞蒙古自治州,经济开发区,颗粒物(PM10),184,317,402,47,55,65,,44,40,9,17,8,6,0.6,0.6
2026-02-12T1400,3181A,106.776805,31.852614,巴中市,市五中,细颗粒物(PM2.5),62,61,70,44,47,67,,19,19,21,28,7,6,0.9,1
2026-02-12T1400,3183A,106.7419,31.8654,巴中市,圣泉水务公司,细颗粒物(PM2.5),58,53,58,41,42,68,,41,35,12,21,6,6,0.8,1.1
2026-02-12T1400,3616A,106.7617,31.8343,巴中市,市中心医院,细颗粒物(PM2.5),63,63,60,45,43,66,,,,21,20,6,6,1.0,1
2026-02-12T1400,2235A,122.7909,45.608,白城市,洮北区环保局,细颗粒物(PM2.5),54,,91,38,95,77,,49,49,7,28,6,7,0.3,0.9
2026-02-12T1400,2236A,122.8741,45.5725,白城市,市环保局,,46,46,92,28,69,79,,48,48,6,25,5,6,0.3,0.8
2026-02-12T1400,2231A,126.4219,41.9172,白山市,喜丰,,43,43,65,17,44,99,,52,52,11,44,14,14,0.9,1.1
2026-02-12T1400,2232A,126.4082,41.9416,白山市,环保局,,48,48,59,16,47,101,,49,49,10,29,16,13,0.8,1.1
2026-02-12T1400,2647A,104.1727,36.5448,白银市,第三小学,颗粒物(PM10),60,69,76,20,29,90,,58,58,14,27,19,22,0.4,0.5
2026-02-12T1400,2648A,104.1467,36.5482,白银市,动力公司,颗粒物(PM10),65,80,73,24,27,90,,61,61,14,16,24,18,0.9,0.9
2026-02-12T1400,2512A,106.6102,23.901,百色市,市监测站,,46,39,32,32,24,33,,32,28,14,13,13,12,0.8,0.8
2026-02-12T1400,2513A,106.6524,23.8842,百色市,市中心血站,细颗粒物(PM2.5),59,51,31,42,22,31,,33,28,10,8,13,10,0.9,0.7
2026-02-12T1400,4133A,106.6273,23.8798,百色市,龙景西路,细颗粒物(PM2.5),63,46,37,45,26,29,,29,23,12,11,14,12,0.8,0.7
2026-02-12T1400,2270A,117.396,32.9389,蚌埠市,工人疗养院,颗粒物(PM10),77,104,126,38,66,115,,92,92,14,25,5,7,0.5,0.8
2026-02-12T1400,2271A,117.3606,32.9428,蚌埠市,百货大楼,颗粒物(PM10),82,114,130,41,63,120,,92,92,16,29,7,8,0.5,0.7
2026-02-12T1400,2273A,117.4183,32.8909,蚌埠市,蚌埠学院,颗粒物(PM10),79,107,119,41,61,121,,95,95,14,23,6,6,0.5,0.6
2026-02-12T1400,2274A,117.3534,32.9672,蚌埠市,淮上区政府,颗粒物(PM10),85,119,134,48,72,127,,93,93,10,29,7,8,0.5,0.7
2026-02-12T1400,2275A,117.3143,32.8977,蚌埠市,高新区,颗粒物(PM10),81,112,135,49,78,109,,85,85,9,29,8,8,0.5,0.6
2026-02-12T1400,3715A,117.3091,32.9314,蚌埠市,蚌埠田家炳中学,颗粒物(PM10),84,118,141,46,77,117,,87,87,11,30,6,25,0.4,0.7
2026-02-12T1400,1585A,109.8761,40.6533,包头市,市环境监测站,细颗粒物(PM2.5),115,162,103,87,45,125,,66,66,47,42,73,26,2.7,1.2
2026-02-12T1400,1587A,109.9992,40.5843,包头市,包头八中,颗粒物(PM10),83,115,106,52,48,94,,47,47,17,54,12,12,0.5,1.1
2026-02-12T1400,1589A,109.8641,40.6288,包头市,惠龙物流,细颗粒物(PM2.5),123,157,105,93,47,125,,58,58,37,56,68,28,2.0,1.6
2026-02-12T1400,1590A,110.0376,40.5546,包头市,东河鸿龙湾,颗粒物(PM10),71,91,99,38,41,90,,51,51,14,69,13,13,0.5,1.1
2026-02-12T1400,3283A,109.9154,40.5684,包头市,滨河大厦,颗粒物(PM10),66,82,96,33,45,90,,48,48,20,59,13,12,0.6,1
2026-02-12T1400,3419A,109.9449,40.6259,包头市,包头市委党校,颗粒物(PM10),89,127,93,58,41,104,,46,46,24,56,34,19,0.9,1
2026-02-12T1400,3683A,109.8332,40.6577,包头市,昆区政府,细颗粒物(PM2.5),117,168,105,88,51,155,,80,80,58,47,65,29,3.4,1.5
2026-02-12T1400,1931A,107.0802,34.3129,宝鸡市,竹园沟,颗粒物(PM10),68,85,133,26,50,91,,55,55,12,19,7,7,0.3,0.4
2026-02-12T1400,1933A,107.1429,34.3549,宝鸡市,监测站,,,99,160,26,42,82,,43,43,,25,7,6,0.5,0.5
2026-02-12T1400,1934A,107.1172,34.3759,宝鸡市,技工学校,颗粒物(PM10),83,115,157,34,58,94,,58,58,13,17,7,8,0.4,0.6
2026-02-12T1400,1936A,107.2025,34.3518,宝鸡市,文理学院,颗粒物(PM10),72,93,151,33,55,87,,49,49,14,24,5,6,0.4,0.5
2026-02-12T1400,1937A,107.2396,34.3626,宝鸡市,三迪小学,颗粒物(PM10),79,108,165,33,53,86,,49,49,15,33,4,4,0.6,0.7
2026-02-12T1400,4155A,107.1721,34.3558,宝鸡市,滨河北路,颗粒物(PM10),65,80,168,31,58,87,,48,48,7,17,6,6,0.5,0.6
2026-02-12T1400,4308A,107.3898,34.3601,宝鸡市,陈仓区北开路21号,颗粒物(PM10),83,116,191,38,66,89,,78,78,17,29,8,57,0.5,0.9
2026-02-12T1400,1051A,115.4803,38.8568,保定市,游泳馆,细颗粒物(PM2.5),79,90,114,58,74,85,,51,51,28,49,9,8,0.9,1
2026-02-12T1400,1052A,115.509,38.8895,保定市,华电二区,细颗粒物(PM2.5),70,74,99,51,60,85,,50,50,25,42,8,7,1.2,1.2
2026-02-12T1400,1053A,115.4588,38.9037,保定市,接待中心,颗粒物(PM10),63,76,109,44,68,80,,52,52,23,37,7,7,0.5,0.8
2026-02-12T1400,1054A,115.4484,38.8344,保定市,地表水厂,颗粒物(PM10),74,98,130,47,65,81,,44,44,34,50,8,7,0.7,0.7
2026-02-12T1400,3581A,115.3136,38.9511,保定市,满城区生态环境分局,颗粒物(PM10),78,105,147,55,70,89,,46,46,18,46,6,9,0.7,1.1
2026-02-12T1400,3582A,115.4709,38.7628,保定市,清苑区第二中学,细颗粒物(PM2.5),92,126,153,68,77,80,,41,41,34,42,13,11,0.7,0.8
2026-02-12T1400,3583A,115.6231,39.0223,保定市,徐水物探局,"颗粒物(PM10),细颗粒物(PM2.5)",92,134,151,68,76,81,,45,45,22,39,14,13,0.8,0.9
2026-02-12T1400,4004A,115.4199,38.8665,保定市,双鹰农机,颗粒物(PM10),83,116,151,54,75,87,,59,59,27,42,7,7,0.7,0.7
2026-02-12T1400,4034A,115.515,38.8589,保定市,植保所站,细颗粒物(PM2.5),68,83,117,49,67,85,,47,47,26,50,4,4,0.7,0.9
2026-02-12T1400,2594A,99.1589,25.1137,保山市,市环境监测站,,30,14,25,3,13,94,,66,66,5,9,5,4,0.3,0.4
2026-02-12T1400,2595A,99.1616,25.1381,保山市,市环保局,,36,36,25,12,13,93,,71,70,3,5,3,3,0.4,0.5
2026-02-12T1400,1867A,109.1435,21.4085,北海市,海滩公园,,,,45,28,25,117,,65,65,8,16,3,4,0.7,0.7
2026-02-12T1400,1868A,109.0983,21.466,北海市,新市环保局,,38,38,34,18,23,105,,57,57,9,16,7,8,0.5,0.8
2026-02-12T1400,1869A,109.1775,21.5232,北海市,北海工业园,,35,34,41,9,25,109,,60,60,4,12,5,6,0.6,0.8
2026-02-12T1400,3400A,109.1844,21.4396,北海市,龙潭自来水厂,,36,36,40,18,32,112,,59,59,5,12,3,3,0.7,0.9
2026-02-12T1400,1001A,116.3611,39.8786,北京市,万寿西宫,细颗粒物(PM2.5),69,83,88,50,48,81,,55,55,27,41,5,4,0.6,0.6
2026-02-12T1400,1003A,116.4174,39.9289,北京市,东四,颗粒物(PM10),67,84,84,41,42,77,,51,51,23,38,8,7,0.7,0.7
2026-02-12T1400,1004A,116.4073,39.8858,北京市,天坛,颗粒物(PM10),69,88,80,43,44,77,,48,48,27,39,6,3,0.7,0.7
2026-02-12T1400,1005A,116.4622,39.9364,北京市,农展馆,颗粒物(PM10),67,83,84,43,43,83,,48,48,18,37,9,8,0.8,0.7
2026-02-12T1400,1006A,116.3399,39.9293,北京市,官园,颗粒物(PM10),70,89,81,48,44,64,,40,40,33,39,6,6,0.6,0.6
2026-02-12T1400,1007A,116.2879,39.9613,北京市,海淀万柳,"颗粒物(PM10),细颗粒物(PM2.5)",67,83,110,48,40,65,,31,31,39,50,6,4,0.7,0.7
2026-02-12T1400,1008A,116.6635,40.1349,北京市,顺义新城,颗粒物(PM10),62,73,62,42,32,75,,58,58,25,25,8,6,0.6,0.6
2026-02-12T1400,1009A,116.6275,40.327,北京市,怀柔镇,颗粒物(PM10),58,66,47,31,26,82,,54,54,13,18,6,5,0.7,0.7
2026-02-12T1400,1010A,116.2295,40.217,北京市,昌平镇,颗粒物(PM10),66,81,56,44,33,58,,26,25,30,30,6,3,0.9,0.7
2026-02-12T1400,1011A,116.3968,39.982,北京市,奥体中心,颗粒物(PM10),68,85,77,44,39,72,,40,40,29,55,8,7,0.6,0.7
2026-02-12T1400,3418A,116.8336,40.4095,北京市,密云新城,颗粒物(PM10),52,53,51,27,27,84,,62,62,9,14,4,3,0.5,0.5
2026-02-12T1400,3671A,116.0879,39.9725,北京市,门头沟三家店,颗粒物(PM10),69,87,62,46,32,69,,47,47,27,23,6,4,0.6,0.5
2026-02-12T1400,3672A,116.1507,39.8246,北京市,丰台云岗,细颗粒物(PM2.5),72,82,68,52,37,72,,49,49,29,26,5,4,0.6,0.6
2026-02-12T1400,3674A,115.9578,39.7602,北京市,房山燕山,细颗粒物(PM2.5),69,80,68,50,40,77,,53,53,20,19,6,5,0.5,0.5
2026-02-12T1400,3675A,116.4669,39.7734,北京市,大兴旧宫,颗粒物(PM10),71,91,106,44,54,75,,43,43,23,44,6,5,0.5,0.6
2026-02-12T1400,3694A,115.9859,40.4562,北京市,延庆石河营,颗粒物(PM10),63,76,55,42,30,79,,44,44,18,22,8,5,0.6,0.6
2026-02-12T1400,3695A,116.6151,40.3052,北京市,怀柔新城,颗粒物(PM10),55,59,45,34,28,75,,52,52,14,15,4,3,0.5,0.5
2026-02-12T1400,3696A,116.2542,39.8764,北京市,丰台小屯,颗粒物(PM10),69,88,87,47,44,64,,28,28,34,51,7,5,0.6,0.7
2026-02-12T1400,3697A,116.8399,40.3843,北京市,密云镇,,50,50,54,26,27,83,,50,50,10,30,4,4,0.4,0.5
2026-02-12T1400,4057A,115.9423,40.4431,北京市,延庆百泉,颗粒物(PM10),60,69,52,37,32,75,,43,43,16,20,4,3,0.6,0.6
2026-02-12T1400,4058A,116.6598,39.9164,北京市,通州新华,颗粒物(PM10),70,90,92,46,57,66,,35,35,33,53,5,4,0.8,0.9
2026-02-12T1400,4182A,116.1942,39.9158,北京市,石景山八角,颗粒物(PM10),66,81,79,43,39,67,,35,35,26,39,5,4,0.5,0.5
2026-02-12T1400,4194A,117.078628,40.151726,北京市,平谷新城,颗粒物(PM10),75,99,71,46,42,82,,46,46,21,21,6,5,0.6,0.7
2026-02-12T1400,1761A,123.8274146,41.31234549,本溪市,大峪,颗粒物(PM10),61,72,65,37,36,91,,47,47,26,41,12,11,0.9,1.1
2026-02-12T1400,1763A,123.7169,41.3094,本溪市,彩屯,细颗粒物(PM2.5),65,67,82,47,59,93,,42,42,26,40,19,18,2.1,2
2026-02-12T1400,1764A,123.7672166,41.28649327,本溪市,东明,细颗粒物(PM2.5),67,80,74,48,51,100,,46,46,13,41,11,14,0.8,1.4
2026-02-12T1400,1765A,123.799345,41.266614,本溪市,新立屯,颗粒物(PM10),59,67,56,39,36,99,,47,47,14,48,13,13,0.6,0.9
2026-02-12T1400,1766A,123.829144,41.336777,本溪市,威宁,"颗粒物(PM10),细颗粒物(PM2.5)",74,98,73,54,40,88,,42,42,18,37,12,9,0.8,1.2
2026-02-12T1400,2587A,105.287,27.3133,毕节市,八中,,40,40,51,19,32,62,,58,58,8,11,10,11,0.7,0.8
2026-02-12T1400,2588A,105.3079,27.2987,毕节市,师专,,38,28,48,26,28,70,,66,66,10,12,9,12,0.6,0.6
2026-02-12T1400,4263A,105.3688,27.3598,毕节市,工业大道,,38,38,47,23,33,76,,70,70,10,12,9,11,/,/
2026-02-12T1400,1629A,117.9961,37.3604,滨州市,第二水厂,颗粒物(PM10),90,129,110,63,59,108,,76,76,14,40,12,18,0.6,0.8
2026-02-12T1400,1630A,117.9789,37.3931,滨州市,北中新校,颗粒物(PM10),90,129,108,60,55,104,,74,74,16,33,9,12,0.6,0.8
2026-02-12T1400,3514A,117.9379,37.3959,滨州市,中海酒店,颗粒物(PM10),91,132,104,62,53,117,,85,85,20,37,12,16,0.8,1
2026-02-12T1400,3515A,117.9381509,37.35547456,滨州市,开发区一中,颗粒物(PM10),98,146,119,57,55,107,,74,74,10,36,15,21,0.8,0.9
2026-02-12T1400,3516A,118.0914,37.6938,滨州市,金海六路,,,,113,69,65,117,,75,75,14,42,,16,0.6,0.7
2026-02-12T1400,4028A,117.9955,37.3752,滨州市,滨州市西街道办事处,颗粒物(PM10),93,136,112,56,61,115,,87,87,11,32,11,16,0.5,0.8
2026-02-12T1400,2311A,115.8071,33.8399,亳州市,污水处理厂,,,114,119,47,58,111,,91,91,17,15,6,7,,0.3
2026-02-12T1400,2312A,115.7789,33.8519,亳州市,三国揽胜宫,颗粒物(PM10),86,121,143,54,58,113,,89,89,13,23,6,7,0.6,0.6
2026-02-12T1400,3332A,115.7631,33.803,亳州市,亳州学院,颗粒物(PM10),87,123,135,52,63,112,,88,88,13,12,7,6,0.7,0.6
2026-02-12T1400,2693A,82.0482,44.8553,博尔塔拉蒙古自治州,市党校,,36,36,53,6,20,81,,80,76,9,16,3,3,0.5,0.7
2026-02-12T1400,2694A,82.0805,44.8966,博尔塔拉蒙古自治州,市环保局,颗粒物(PM10),53,56,78,8,28,69,,61,60,13,24,6,5,0.7,0.9
2026-02-12T1400,1071A,116.8733,38.2922,沧州市,沧县城建局,细颗粒物(PM2.5),102,141,125,76,68,105,,64,64,23,33,10,15,0.8,0.7
2026-02-12T1400,1072A,116.8462,38.3189,沧州市,电视转播站,细颗粒物(PM2.5),115,141,123,87,78,106,,63,63,22,29,11,10,0.7,0.7
2026-02-12T1400,1073A,116.8588,38.3161,沧州市,市环保局,"颗粒物(PM10),细颗粒物(PM2.5)",102,154,132,76,66,91,,53,53,20,32,12,14,0.7,0.7
2026-02-12T1400,3324A,116.8011,38.294,沧州市,河北水利电力学院,细颗粒物(PM2.5),114,166,143,86,75,92,,54,54,17,28,13,13,0.7,0.7
2026-02-12T1400,2622A,97.1813,31.1289,昌都市,昌都监测站,,,19,18,3,10,86,,57,57,2,6,,3,,0.6
2026-02-12T1400,3719A,97.1707,31.1428,昌都市,昌都会议中心,,28,7,12,3,9,88,,60,60,1,2,5,5,0.4,0.3
2026-02-12T1400,2692A,87.2722,44.0298,昌吉回族自治州,新区政务中心,颗粒物(PM10),64,78,116,26,77,79,,67,62,30,27,7,3,1.0,1.3
2026-02-12T1400,3613A,87.3069,44.0093,昌吉回族自治州,亚心广场,颗粒物(PM10),73,95,133,35,90,82,,73,63,40,30,12,9,1.0,1.2
2026-02-12T1400,4164A,87.2057,43.9289,昌吉回族自治州,财政所,颗粒物(PM10),82,114,125,39,81,70,,77,72,26,19,7,6,0.8,0.9
2026-02-12T1400,1120A,125.2874,43.9024,长春市,客车厂,细颗粒物(PM2.5),88,85,77,65,62,86,,46,46,27,58,12,12,0.8,1
2026-02-12T1400,1121A,125.2943,43.8508,长春市,邮电学院,细颗粒物(PM2.5),93,91,75,69,64,72,,39,39,22,47,15,12,0.8,0.9
2026-02-12T1400,1122A,125.3648,43.8745,长春市,劳动公园,细颗粒物(PM2.5),114,117,98,86,61,97,,53,53,20,40,15,14,1.1,1.7
2026-02-12T1400,1123A,125.3233,43.8781,长春市,园林处,细颗粒物(PM2.5),107,96,79,80,66,94,,50,50,21,44,12,14,0.8,0.9
2026-02-12T1400,1124A,125.4604,43.7904,长春市,净月潭,细颗粒物(PM2.5),85,79,59,63,49,103,,69,69,15,20,9,6,0.6,0.6
2026-02-12T1400,1126A,125.38,43.8422,长春市,经开区环卫处,细颗粒物(PM2.5),103,101,75,77,59,98,,45,45,20,45,9,7,0.9,0.9
2026-02-12T1400,1127A,125.234,43.7761,长春市,高新区管委会,细颗粒物(PM2.5),74,89,99,54,80,96,,48,48,16,42,10,9,1.2,1.7
2026-02-12T1400,1128A,125.1695,43.83,长春市,岱山公园,细颗粒物(PM2.5),67,64,92,48,76,89,,61,61,15,53,8,10,0.5,0.9
2026-02-12T1400,4281A,125.334645,43.916281,长春市,北亚泰大街1068号,细颗粒物(PM2.5),108,95,94,81,79,86,,45,45,24,52,12,11,0.8,1.4
2026-02-12T1400,1335A,113.082,28.2421,长沙市,经开区环保局,颗粒物(PM10),63,75,69,38,36,44,,28,28,18,33,3,3,0.6,0.6
2026-02-12T1400,1336A,112.8873,28.2202,长沙市,高开区环保局,颗粒物(PM10),64,77,71,43,44,54,,20,20,16,27,6,6,1.0,1.1
2026-02-12T1400,1337A,113.0785,28.2012,长沙市,马坡岭,细颗粒物(PM2.5),68,81,70,49,41,36,,25,25,21,30,4,4,0.8,0.9
2026-02-12T1400,1338A,112.9448,28.1894,长沙市,湖南师范大学,,,73,63,40,32,33,,15,15,31,24,,4,1.1,0.9
2026-02-12T1400,1339A,113.0177,28.1322,长沙市,雨花区环保局,,,81,60,33,37,40,,12,12,24,33,8,8,,0.8
2026-02-12T1400,1340A,112.9795,28.2593,长沙市,伍家岭,颗粒物(PM10),70,89,93,44,48,41,,16,16,28,31,5,5,0.9,1
2026-02-12T1400,1341A,113.002,28.1944,长沙市,火车新站,颗粒物(PM10),69,88,72,39,43,46,,18,18,30,37,2,2,1.0,1.1
2026-02-12T1400,1342A,112.9846,28.1177,长沙市,天心区环保局,细颗粒物(PM2.5),69,86,65,50,42,32,,14,14,32,36,6,6,0.9,0.8
2026-02-12T1400,1343A,112.8906,28.1307,长沙市,湖南中医药大学,颗粒物(PM10),60,69,68,42,36,36,,12,12,23,31,6,6,1.0,1
2026-02-12T1400,1727A,113.1146,36.1547,长治市,清华站,颗粒物(PM10),64,77,81,20,33,94,,40,40,15,24,10,15,0.5,0.7
2026-02-12T1400,1730A,113.0887,36.2126,长治市,审计局,颗粒物(PM10),63,75,81,26,33,91,,37,37,16,31,15,19,0.5,0.7
2026-02-12T1400,1731A,113.0845,36.1856,长治市,长治八中,颗粒物(PM10),71,92,99,25,34,81,,41,41,22,25,14,19,0.5,0.7
2026-02-12T1400,2845A,113.1561,36.1912,长治市,德盛苑,,,81,80,38,36,98,,79,74,16,16,13,13,,0.8
2026-02-12T1400,3568A,113.0603,36.0464,长治市,向阳小学,颗粒物(PM10),78,105,108,26,35,95,,65,59,20,19,13,17,0.5,0.6
2026-02-12T1400,3569A,112.8788,36.315,长治市,屯留一中,颗粒物(PM10),63,76,71,26,30,103,,52,52,13,31,13,16,0.6,0.6
2026-02-12T1400,4189A,113.113092,36.199482,长治市,英华南巷50号,颗粒物(PM10),66,82,89,18,36,91,,42,42,18,24,11,17,0.5,0.6
2026-02-12T1400,4190A,113.23666,36.33435,长治市,学府街1号,颗粒物(PM10),76,102,93,33,38,100,,50,50,22,36,28,23,0.9,1.3
2026-02-12T1400,1854A,111.696,28.9725,常德市,市二中,细颗粒物(PM2.5),99,106,82,74,55,58,,22,22,29,28,8,6,1.2,1.2
2026-02-12T1400,3138A,111.7152,29.0288,常德市,武陵区永安,细颗粒物(PM2.5),98,109,92,73,60,61,,28,28,22,28,10,5,1.1,1.2
2026-02-12T1400,3139A,111.6891,28.9881,常德市,鼎城区玉霞,,,92,81,62,53,60,,20,20,,28,8,5,1.2,1.3
2026-02-12T1400,3140A,111.6651,29.0526,常德市,武陵区长庚,细颗粒物(PM2.5),115,118,90,87,60,47,,24,24,26,29,8,5,1.2,1
2026-02-12T1400,1196A,119.9524,31.7586,常州市,市监测站,细颗粒物(PM2.5),87,98,143,64,100,134,,70,70,13,52,9,8,0.5,1
2026-02-12T1400,1200A,119.9351,31.703,常州市,武进监测站,细颗粒物(PM2.5),83,95,129,61,95,129,,84,84,14,32,8,8,0.8,1.1
2026-02-12T1400,3002A,119.9701,31.813,常州市,行政中心,细颗粒物(PM2.5),89,112,140,66,103,134,,69,69,17,56,6,6,0.7,1.1
2026-02-12T1400,3003A,120.0434,31.7726,常州市,经开区,细颗粒物(PM2.5),97,108,154,72,102,135,,65,65,13,50,14,8,1.3,1.2
2026-02-12T1400,3010A,119.8919,31.7892,常州市,钟楼,细颗粒物(PM2.5),90,103,132,67,102,136,,86,86,16,43,8,8,0.7,1.1
2026-02-12T1400,3429A,119.8595,31.706,常州市,武进经发区,细颗粒物(PM2.5),93,100,130,69,98,137,,86,86,13,31,7,7,0.9,1.2
2026-02-12T1400,3430A,119.5812,31.7256,常州市,金坛城区,细颗粒物(PM2.5),78,87,129,57,97,132,,81,81,9,24,9,8,0.7,1
2026-02-12T1400,4089A,119.9551,31.863,常州市,崇义南街5-H号,细颗粒物(PM2.5),84,108,139,62,106,129,,68,68,18,71,6,6,0.8,1.3
2026-02-12T1400,2220A,120.4318,41.588,朝阳市,西梁,细颗粒物(PM2.5),69,71,86,50,57,85,,42,42,29,46,16,17,1.1,1.4
2026-02-12T1400,2221A,120.452,41.565,朝阳市,河畔小区,细颗粒物(PM2.5),59,58,72,42,51,86,,52,52,20,34,13,12,0.9,1.4
2026-02-12T1400,2222A,120.4176,41.5648,朝阳市,八里堡,细颗粒物(PM2.5),59,50,77,42,58,85,,36,36,26,46,17,17,1.3,1.5
2026-02-12T1400,3026A,116.6179,23.6608,潮州市,市政府,颗粒物(PM10),55,60,41,31,26,120,,72,72,6,8,5,4,0.5,0.4
2026-02-12T1400,4036A,116.646,23.676,潮州市,金山,颗粒物(PM10),53,56,37,32,25,123,,74,74,9,11,4,3,0.6,0.5
2026-02-12T1400,2473A,113.0116,25.8228,郴州市,市职中,,35,,30,24,28,38,,10,10,14,15,8,5,0.8,0.9
2026-02-12T1400,2475A,113.0381,25.8074,郴州市,市审计局,,33,28,33,23,26,39,,11,11,15,17,3,3,/,/
2026-02-12T1400,2476A,113.0348,25.7757,郴州市,市环保局,,33,31,46,23,33,1,,0,0,17,18,8,5,0.7,0.8
2026-02-12T1400,4252A,113.0138,25.8011,郴州市,好美居路49号,,38,38,29,26,19,53,,,,15,17,5,3,/,/
2026-02-12T1400,1431A,103.9727,30.7242,成都市,金泉两河,细颗粒物(PM2.5),65,76,76,47,49,119,,57,57,16,35,3,2,0.6,0.8
2026-02-12T1400,1432A,104.1423,30.6765,成都市,十里店,,,71,84,45,48,108,,43,43,,27,4,4,,0.6
2026-02-12T1400,1433A,104.0594,30.5765,成都市,三瓦窑,,,67,66,58,48,94,,45,45,,41,3,2,0.8,0.8
2026-02-12T1400,1434A,104.1122,30.6306,成都市,沙河铺,细颗粒物(PM2.5),77,70,69,56,48,91,,34,34,36,39,4,4,0.6,0.5
2026-02-12T1400,2880A,104.0219,30.6561,成都市,大石西路,细颗粒物(PM2.5),80,73,80,59,55,101,,48,48,22,26,6,5,0.8,0.7
2026-02-12T1400,3136A,104.2724,30.559,成都市,龙泉驿区区政府,细颗粒物(PM2.5),58,63,55,41,45,107,,64,64,11,13,7,6,0.3,0.3
2026-02-12T1400,3357A,104.0028,30.6891,成都市,金博路,颗粒物(PM10),54,58,72,18,48,107,,44,44,18,35,5,5,0.5,0.7
2026-02-12T1400,3359A,104.056,30.5228,成都市,华阳,细颗粒物(PM2.5),70,73,66,51,47,102,,40,40,21,40,3,3,0.4,0.4
2026-02-12T1400,3488A,104.387954,30.746684,成都市,青石路225号,细颗粒物(PM2.5),59,57,64,42,47,109,,44,44,17,34,5,4,2.0,1
2026-02-12T1400,3489A,104.0788,30.4054,成都市,科学城,"颗粒物(PM10),细颗粒物(PM2.5)",52,54,56,36,38,75,,34,34,10,14,7,6,0.5,0.7
2026-02-12T1400,4011A,103.8505,30.6946,成都市,光华大道三段,颗粒物(PM10),62,73,85,40,48,118,,52,52,15,34,3,3,0.5,0.7
2026-02-12T1400,4144A,104.3257,30.6406,成都市,八角井街185号,细颗粒物(PM2.5),55,53,67,39,44,107,,52,52,16,20,5,4,0.5,0.6
2026-02-12T1400,4224A,104.2433276,30.53529463,成都市,鲸龙路1057号,细颗粒物(PM2.5),57,62,62,40,40,112,,56,56,15,24,5,5,0.5,0.5
2026-02-12T1400,1062A,117.9531,40.908,承德市,铁路,颗粒物(PM10),55,60,54,16,30,53,,28,28,24,29,12,7,0.9,0.9
2026-02-12T1400,1063A,117.9397,40.9763,承德市,中国银行,颗粒物(PM10),64,78,51,22,25,66,,37,37,17,24,16,7,0.8,0.7
2026-02-12T1400,4073A,117.9462,40.95,承德市,杏林街1号,颗粒物(PM10),54,58,46,30,30,63,,38,38,24,27,14,10,0.9,0.8
2026-02-12T1400,4274A,117.7994,40.9605,承德市,滨河大街98号,颗粒物(PM10),66,82,52,38,26,59,,29,29,39,28,129,44,2.3,1.1
2026-02-12T1400,2314A,117.4698,30.6617,池州市,池州学院,颗粒物(PM10),69,87,97,40,47,107,,62,62,16,25,12,5,1.4,1.3
2026-02-12T1400,3237A,117.4918,30.6617,池州市,展览馆,颗粒物(PM10),68,85,87,32,38,105,,64,64,15,26,9,3,1.0,0.9
2026-02-12T1400,3333A,117.5626,30.695,池州市,第八中学,颗粒物(PM10),65,80,98,33,40,104,,67,67,17,22,6,6,0.8,0.9
2026-02-12T1400,3334A,117.5037,30.6242,池州市,第十二中学,颗粒物(PM10),71,92,94,39,41,108,,60,60,18,30,11,6,0.7,0.8
2026-02-12T1400,1744A,118.9229,42.2816,赤峰市,松山一中,颗粒物(PM10),54,58,61,16,34,73,,33,33,22,44,6,8,0.8,1.2
2026-02-12T1400,1745A,118.9588,42.2733,赤峰市,哈达街,,43,43,55,18,35,71,,38,38,21,40,12,18,0.7,1.2
2026-02-12T1400,1746A,118.8792,42.2551,赤峰市,天义路,,32,32,37,12,26,80,,40,40,10,33,5,8,0.5,0.9
2026-02-12T1400,3058A,119.2656,42.0356,赤峰市,银河街,颗粒物(PM10),57,64,68,18,45,87,,42,42,12,28,18,18,1.0,1.5
2026-02-12T1400,3286A,118.9359,42.3146,赤峰市,桥北物流园区,细颗粒物(PM2.5),52,,42,36,29,82,,50,50,20,32,3,5,0.8,1
2026-02-12T1400,2521A,107.3473,22.4137,崇左市,市环保局江州分局,细颗粒物(PM2.5),64,59,34,46,21,26,,24,19,13,12,4,4,0.9,0.8
2026-02-12T1400,4256A,107.375,22.3736,崇左市,石景林东路7号,,,48,27,31,19,31,,24,24,14,16,2,2,,0.7
2026-02-12T1400,3207A,118.31131,32.3033,滁州市,市政府原办公楼,颗粒物(PM10),74,97,113,51,82,115,,60,60,13,34,7,6,0.5,0.7
2026-02-12T1400,3331A,118.3268,32.2633,滁州市,图书馆,,,91,110,36,63,112,,51,51,17,30,10,9,,1.1
2026-02-12T1400,4101A,118.3196,32.3335,滁州市,银山路666号,颗粒物(PM10),71,92,103,49,78,121,,62,62,10,27,21,13,0.7,0.8
2026-02-12T1400,4102A,118.3426,32.2979,滁州市,黄山路555号,,,111,134,54,82,118,,61,61,,41,10,6,,0.8
2026-02-12T1400,2606A,101.5379,25.0492,楚雄彝族自治州,市经济开发区,,28,16,28,6,17,87,,54,54,3,15,2,3,0.2,0.4
2026-02-12T1400,4153A,101.5536,25.0343,楚雄彝族自治州,团结路562号,,27,16,23,3,14,84,,54,54,4,12,4,4,0.4,0.4
2026-02-12T1400,2549A,107.5087,31.2186,达州市,市环境监测站,细颗粒物(PM2.5),62,57,75,44,42,79,,43,43,26,34,8,6,0.6,0.6
2026-02-12T1400,2550A,107.4988,31.2132,达州市,凤凰小区,颗粒物(PM10),60,70,76,42,43,80,,38,38,26,40,8,6,0.5,0.6
2026-02-12T1400,2551A,107.5081,31.1987,达州市,达县机关宾馆,颗粒物(PM10),63,75,84,29,43,80,,34,34,29,45,6,6,0.8,0.9
2026-02-12T1400,2552A,107.4644,31.2124,达州市,市政中心,颗粒物(PM10),63,75,82,37,39,86,,33,33,21,48,8,6,0.5,0.8
2026-02-12T1400,2614A,100.2168,25.5818,大理白族自治州,大理市环境监测站,,27,19,16,8,12,86,,76,76,5,7,7,7,0.4,0.4
2026-02-12T1400,2615A,100.1542,25.7055,大理白族自治州,大理古城,,28,8,17,3,9,88,,71,71,3,7,8,8,0.4,0.5
2026-02-12T1400,1109A,121.6119,38.974,大连市,甘井子,细颗粒物(PM2.5),120,124,99,91,77,110,,60,60,30,35,19,16,0.7,0.7
2026-02-12T1400,1110A,121.565,38.9509,大连市,周水子,细颗粒物(PM2.5),108,113,90,81,71,110,,63,63,26,34,8,10,0.8,0.8
2026-02-12T1400,1111A,121.5637,38.8849,大连市,星海三站,细颗粒物(PM2.5),112,102,87,84,73,83,,62,62,19,20,11,8,0.8,0.7
2026-02-12T1400,1112A,121.6301,38.9117,大连市,青泥洼桥,细颗粒物(PM2.5),113,113,88,85,70,105,,75,75,26,25,15,11,1.0,0.8
2026-02-12T1400,1113A,121.6248,38.8643,大连市,傅家庄,细颗粒物(PM2.5),114,112,95,86,67,79,,69,69,27,21,11,10,0.7,0.6
2026-02-12T1400,1114A,121.5117,38.8636,大连市,七贤岭,细颗粒物(PM2.5),104,110,90,78,68,129,,83,83,18,22,13,9,0.9,0.7
2026-02-12T1400,1116A,121.7507,39.1339,大连市,金州,细颗粒物(PM2.5),109,112,91,82,72,138,,79,79,19,31,18,15,0.7,0.6
2026-02-12T1400,1117A,121.7811,39.0495,大连市,开发区,细颗粒物(PM2.5),117,114,89,88,71,76,,42,42,34,44,11,8,0.9,0.8
2026-02-12T1400,1118A,121.9762,39.0631,大连市,双D港,细颗粒物(PM2.5),130,128,78,99,62,78,,53,53,,34,,11,1.0,0.8
2026-02-12T1400,4082A,121.2548,38.8188,大连市,旅顺,细颗粒物(PM2.5),114,123,98,86,81,121,,78,78,17,20,15,11,0.9,0.9
2026-02-12T1400,1789A,124.8085,46.0381,大庆市,大同区,,33,33,55,17,39,80,,63,63,7,21,8,11,0.6,0.9
2026-02-12T1400,1790A,125.1166,46.5255,大庆市,龙凤区,颗粒物(PM10),51,51,63,25,45,71,,45,45,15,39,9,13,0.4,0.8
2026-02-12T1400,1791A,124.8894,46.4007,大庆市,红岗区,,50,45,46,35,33,65,,44,44,12,25,6,8,0.6,0.7
2026-02-12T1400,1792A,125.1391,46.578,大庆市,萨尔图区,,,,51,,29,,,65,,,40,,11,,0.7
2026-02-12T1400,1793A,124.9026,46.6217,大庆市,让胡路区,,29,29,40,17,30,76,,49,49,12,31,7,8,0.4,0.7
2026-02-12T1400,3481A,125.127,46.6277,大庆市,萨区政府监测点,,43,43,50,17,27,75,,50,50,10,25,10,11,0.7,0.8
2026-02-12T1400,1723A,113.2926,40.0759,大同市,云冈宾馆,颗粒物(PM10),90,130,109,57,43,65,,33,33,34,47,28,20,1.0,1.4
2026-02-12T1400,1724A,113.3437,40.0921,大同市,大同大学,颗粒物(PM10),87,123,108,46,31,76,,49,49,31,30,25,18,0.9,0.8
2026-02-12T1400,1725A,113.2637,40.129,大同市,安家小村,颗粒物(PM10),88,125,113,50,40,67,,34,34,33,37,27,23,1.0,1.5
2026-02-12T1400,3282A,113.3399,40.0586,大同市,大同市卫生学校,颗粒物(PM10),89,128,104,46,35,79,,46,46,35,45,28,17,0.7,0.8
2026-02-12T1400,3565A,113.1371,40.1122,大同市,云冈站,颗粒物(PM10),62,74,84,35,26,92,,51,51,9,29,9,18,0.5,0.7
2026-02-12T1400,3566A,113.1186,40.2556,大同市,图书馆,,,,82,,31,91,,48,48,13,17,8,9,0.7,0.8
2026-02-12T1400,3567A,113.5931,40.0459,大同市,区一中,颗粒物(PM10),93,135,105,38,42,91,,54,54,21,23,47,22,1.3,1.3
2026-02-12T1400,4199A,113.2798248,40.09972476,大同市,魏都大道141号,颗粒物(PM10),108,165,133,58,49,66,,31,31,36,52,25,20,1.0,1.6
2026-02-12T1400,2269A,124.1068,50.4091,大兴安岭地区,科技局,,23,19,28,3,14,73,,60,60,3,4,6,5,0.2,0.3
2026-02-12T1400,3663A,124.117,50.4279,大兴安岭地区,红旗社区,,,,37,7,23,83,,54,54,6,26,6,10,0.2,0.4
2026-02-12T1400,1600A,124.33,40.0625,丹东市,江湾东路,细颗粒物(PM2.5),67,70,83,48,62,97,,50,50,16,34,10,13,0.6,1.4
2026-02-12T1400,1601A,124.4242,40.1513,丹东市,临江后街,细颗粒物(PM2.5),63,62,75,45,58,100,,46,46,12,30,14,20,0.7,1.4
2026-02-12T1400,1602A,124.3935,40.1461,丹东市,元宝山,细颗粒物(PM2.5),60,61,72,43,55,96,,45,45,13,25,12,14,0.6,1.1
2026-02-12T1400,1603A,124.3634,40.1093,丹东市,民主桥,细颗粒物(PM2.5),63,65,88,45,63,94,,43,43,14,41,12,14,0.4,1.1
2026-02-12T1400,3541A,109.5726195,19.51688767,儋州市,第一中学子站,,25,19,27,9,12,77,,72,72,2,2,4,4,0.6,0.5
2026-02-12T1400,3542A,109.5567,19.5187,儋州市,东坡学校子站,,,35,27,9,11,85,,79,79,,4,5,3,0.5,0.5
2026-02-12T1400,2616A,98.5611,24.4273,德宏傣族景颇族自治州,德宏州监测站,,47,47,48,26,32,103,,41,41,12,24,7,7,0.5,0.6
2026-02-12T1400,3677A,98.5887,24.4366,德宏傣族景颇族自治州,芒市人民政府综合楼,颗粒物(PM10),52,54,55,25,26,98,,46,46,11,14,5,4,0.8,0.8
2026-02-12T1400,1901A,104.424,31.1209,德阳市,东山公园,细颗粒物(PM2.5),72,81,67,52,53,92,,54,48,21,17,4,3,0.5,0.7
2026-02-12T1400,1902A,104.3827,31.1318,德阳市,西小区,细颗粒物(PM2.5),82,102,87,60,61,96,,33,33,23,31,6,5,0.7,0.8
2026-02-12T1400,1904A,104.3553,31.1091,德阳市,耐火材料厂,细颗粒物(PM2.5),70,83,81,51,68,98,,34,34,15,28,3,2,0.6,0.7
2026-02-12T1400,4145A,104.4144,31.1495,德阳市,市林业局,颗粒物(PM10),66,82,71,47,52,100,,36,36,7,27,7,6,0.8,0.9
2026-02-12T1400,1622A,116.3034,37.4675,德州市,儿童乐园,"颗粒物(PM10),细颗粒物(PM2.5)",102,153,157,76,68,106,,75,75,22,26,19,15,1.1,1.1
2026-02-12T1400,1624A,116.2992,37.4449,德州市,监理站,颗粒物(PM10),102,153,156,75,77,113,,82,82,24,32,20,14,0.8,0.8
2026-02-12T1400,3066A,116.2722,37.438,德州市,九衢泉纯净水厂,细颗粒物(PM2.5),98,141,150,73,73,109,,71,71,25,33,14,10,1.1,1
2026-02-12T1400,3371A,116.3693,37.44,德州市,开发区人民医院,细颗粒物(PM2.5),110,161,162,83,72,102,,66,,,26,17,16,0.8,0.8
2026-02-12T1400,3511A,116.5687,37.3331,德州市,陵城艺术中心,细颗粒物(PM2.5),102,144,152,76,71,93,,64,64,27,32,9,18,0.8,0.9
2026-02-12T1400,4292A,116.352738,37.420875,德州市,新河东路,颗粒物(PM10),100,149,151,72,65,102,,68,68,34,38,20,17,1.2,0.9
2026-02-12T1400,2621A,99.7054,27.8319,迪庆藏族自治州,迪庆州站,,,20,24,9,17,90,,,,,8,5,5,0.6,0.7
2026-02-12T1400,3180A,99.7122,27.8129,迪庆藏族自治州,质量技术监督局,,31,17,21,6,15,98,,81,77,4,8,5,5,0.5,0.5
2026-02-12T1400,4257A,104.6092,35.5962,定西市,将台街,颗粒物(PM10),75,100,101,36,52,80,,34,34,15,21,14,15,0.7,1
2026-02-12T1400,4309A,104.6159,35.5701,定西市,正龙路62号,颗粒物(PM10),76,102,97,45,47,84,,40,40,13,12,12,10,0.7,0.8
2026-02-12T1400,1390A,113.7943,23.0132,东莞市,东城石井,,36,33,32,20,19,115,,83,83,12,16,4,4,0.5,0.6
2026-02-12T1400,1391A,113.7384,22.9659,东莞市,南城西平,,34,32,30,23,19,108,,82,82,14,22,5,5,0.5,0.6
2026-02-12T1400,3319A,113.7283,23.041,东莞市,万江金泰,,38,38,33,25,20,110,,78,78,9,15,4,4,0.6,0.7
2026-02-12T1400,4129A,113.8666,23.1062,东莞市,裕兴路,,40,40,29,20,15,103,,64,64,10,12,5,5,0.6,0.7
2026-02-12T1400,4130A,114.0076,22.9739,东莞市,教育路1号,,35,35,32,19,17,100,,80,80,11,17,3,4,0.5,0.5
2026-02-12T1400,4131A,113.7981,22.8124,东莞市,长怡路1号,,34,34,37,20,19,104,,90,90,11,16,6,6,0.5,0.6
2026-02-12T1400,1666A,118.6612,37.4313,东营市,市环保局,颗粒物(PM10),92,134,99,59,55,132,,74,74,24,49,14,24,0.8,1
2026-02-12T1400,3036A,118.6903,37.4337,东营市,开发区管委会,颗粒物(PM10),92,133,96,56,52,130,,83,83,20,48,13,27,0.7,0.8
2026-02-12T1400,3365A,118.5721,37.5654,东营市,垦利区民丰路,颗粒物(PM10),93,136,94,68,52,128,,75,75,21,46,12,14,0.8,0.9
2026-02-12T1400,3498A,118.5063,37.8606,东营市,河口城区,颗粒物(PM10),96,141,115,65,62,127,,80,80,22,48,11,15,0.9,1
2026-02-12T1400,3646A,118.4979,37.4623,东营市,胜利站,颗粒物(PM10),83,116,89,50,46,114,,64,64,31,65,11,17,0.8,0.9
2026-02-12T1400,3734A,118.5753,37.4405,东营市,理想之城,,,129,104,57,49,130,,64,64,25,56,12,15,,0.9
2026-02-12T1400,1591A,110.0024,39.8127,鄂尔多斯市,综合楼,颗粒物(PM10),54,58,103,9,36,90,,79,79,7,28,5,12,0.3,0.7
2026-02-12T1400,1592A,109.9485,39.8259,鄂尔多斯市,巴音孟克林场办事处,颗粒物(PM10),52,53,82,14,30,97,,85,85,6,21,4,7,0.3,0.4
2026-02-12T1400,1593A,109.7734,39.5987,鄂尔多斯市,康泽苑,颗粒物(PM10),63,75,94,16,27,100,,72,72,5,19,4,5,0.3,0.4
2026-02-12T1400,1594A,109.8121,39.5987,鄂尔多斯市,华泰汽车城,颗粒物(PM10),59,68,92,16,28,100,,56,56,5,29,6,7,0.3,0.5
2026-02-12T1400,1595A,109.9734,39.7884,鄂尔多斯市,奥林花园,颗粒物(PM10),60,70,96,12,25,93,,72,72,12,32,5,5,0.3,0.5
2026-02-12T1400,2436A,114.894,30.3989,鄂州市,市政府,细颗粒物(PM2.5),72,85,126,52,94,95,,58,58,20,46,25,26,0.7,1
2026-02-12T1400,2437A,114.8986,30.3714,鄂州市,赵家坝,,,96,115,53,83,107,,75,75,,24,29,14,,1.2
2026-02-12T1400,3654A,114.8093,30.4091,鄂州市,精准医疗中心,颗粒物(PM10),73,96,127,50,89,97,,59,59,14,49,7,26,0.8,1.2
2026-02-12T1400,2454A,109.4978,30.2979,恩施土家族苗族自治州,湖北民院,,,62,60,30,39,78,,40,40,,2,9,6,0.7,0.8
2026-02-12T1400,3549A,109.5061,30.3771,恩施土家族苗族自治州,龙凤新区,颗粒物(PM10),54,57,54,25,30,81,,42,42,11,11,7,7,0.6,0.6
2026-02-12T1400,2499A,108.3411,21.6159,防城港市,沙万,颗粒物(PM10),66,82,34,43,21,35,,32,27,17,13,7,6,0.8,0.6
2026-02-12T1400,2500A,108.3515,21.7733,防城港市,防城档案局,,,82,31,40,21,34,,31,25,12,9,5,5,,0.6
2026-02-12T1400,2501A,108.3506,21.6414,防城港市,大海花园,细颗粒物(PM2.5),69,79,49,50,35,33,,32,25,16,17,8,6,1.0,1.1
2026-02-12T1400,1371A,113.1293,23.0065,佛山市,湾梁,细颗粒物(PM2.5),59,66,30,42,22,68,,27,27,23,20,/,/,/,/
2026-02-12T1400,1372A,113.1082,23.0477,佛山市,华材职中,颗粒物(PM10),56,61,31,33,24,67,,29,29,30,24,5,6,0.5,0.5
2026-02-12T1400,1373A,113.1439,23.045,佛山市,南海气象局,"颗粒物(PM10),细颗粒物(PM2.5)",59,67,30,42,22,72,,29,29,24,20,/,/,/,/
2026-02-12T1400,1374A,113.2879,22.8094,佛山市,顺德苏岗,,42,42,37,25,22,76,,45,45,20,25,/,/,0.7,0.8
2026-02-12T1400,1376A,112.8384,22.8678,佛山市,高明孔堂,细颗粒物(PM2.5),53,49,30,37,20,57,,32,32,22,17,/,/,/,/
2026-02-12T1400,1377A,112.8835,23.1584,佛山市,三水监测站,,45,41,25,31,19,40,,29,28,22,13,3,3,0.6,0.6
2026-02-12T1400,1378A,112.8668,23.185,佛山市,三水云东海,颗粒物(PM10),51,52,24,30,16,42,,30,30,27,16,/,/,/,/
2026-02-12T1400,3625A,113.2568,22.7629,佛山市,容桂街道办,,41,41,34,26,22,72,,44,44,15,22,/,/,/,/
2026-02-12T1400,1282A,119.2681,26.0506,福州市,师大,颗粒物(PM10),53,55,39,32,30,120,,84,84,16,18,4,3,0.5,0.5
2026-02-12T1400,1283A,119.2983,26.1028,福州市,五四北路,细颗粒物(PM2.5),55,49,37,39,32,119,,96,96,19,19,5,5,0.6,0.6
2026-02-12T1400,1284A,119.2648,26.0769,福州市,杨桥西路,"颗粒物(PM10),细颗粒物(PM2.5)",53,56,38,37,30,121,,90,90,15,19,5,4,/,/
2026-02-12T1400,3048A,119.5799,26.0937,福州市,九龙,颗粒物(PM10),51,51,37,32,27,126,,99,99,12,12,5,4,0.5,0.5
2026-02-12T1400,3526A,119.5188,25.9666,福州市,吴航,,38,38,48,21,30,119,,104,104,14,14,6,5,0.5,0.7
2026-02-12T1400,4104A,119.3106,26.0648,福州市,路通桥巷6号,颗粒物(PM10),59,68,47,34,37,114,,91,91,17,19,/,/,/,/
2026-02-12T1400,1755A,123.7974,41.8494,抚顺市,望花区,细颗粒物(PM2.5),80,90,104,59,64,86,,39,39,26,45,16,15,1.4,1.4
2026-02-12T1400,1756A,123.9161,41.8827,抚顺市,顺城区,细颗粒物(PM2.5),73,82,85,53,63,99,,50,50,22,45,14,15,1.1,1.4
2026-02-12T1400,1757A,124.0437,41.8615,抚顺市,东洲区,颗粒物(PM10),66,82,69,47,43,97,,60,60,21,25,15,16,1.0,1.1
2026-02-12T1400,1758A,123.9246,41.8638,抚顺市,新抚区,细颗粒物(PM2.5),77,98,99,56,59,98,,50,50,22,40,12,11,0.8,1.2
2026-02-12T1400,1759A,124.0972,41.8961,抚顺市,大伙房水库,细颗粒物(PM2.5),69,74,52,50,35,108,,63,63,18,20,16,13,1.0,1
2026-02-12T1400,1760A,123.708,41.8386,抚顺市,沈抚新城,细颗粒物(PM2.5),84,96,97,62,58,76,,39,39,39,55,15,15,1.4,1.5
2026-02-12T1400,2377A,116.3544,27.9833,抚州市,市站,细颗粒物(PM2.5),70,68,62,51,48,80,,41,41,13,16,7,5,1.1,1.3
2026-02-12T1400,2378A,116.3562,27.9631,抚州市,血防站,细颗粒物(PM2.5),67,57,63,48,45,72,,35,35,11,17,7,5,1.1,1
2026-02-12T1400,2379A,116.3561,28.0007,抚州市,采茶剧团,颗粒物(PM10),59,68,62,40,41,74,,31,31,7,12,6,4,1.4,1.3
2026-02-12T1400,2380A,116.3854,27.9648,抚州市,医学分院,颗粒物(PM10),57,64,67,35,40,76,,37,37,7,16,5,5,1.1,1.1
2026-02-12T1400,2207A,121.6095,41.9978,阜新市,工业园区,细颗粒物(PM2.5),72,83,120,52,76,105,,48,48,15,36,12,18,0.6,1.1
2026-02-12T1400,2208A,121.6567,42.0188,阜新市,长青街,细颗粒物(PM2.5),64,61,85,46,74,105,,49,49,17,40,11,16,0.7,1.1
2026-02-12T1400,2209A,121.6672,42.07,阜新市,农业园区,颗粒物(PM10),65,80,88,32,60,94,,66,66,12,21,10,20,0.4,0.8
2026-02-12T1400,2211A,121.6343,42.0455,阜新市,玉龙新城,颗粒物(PM10),55,59,94,28,67,100,,50,50,14,41,13,17,0.5,1.1
2026-02-12T1400,2301A,115.8276,32.8929,阜阳市,市监测站,颗粒物(PM10),81,112,132,33,56,113,,81,81,10,20,6,6,0.5,0.6
2026-02-12T1400,2303A,115.8551,32.8606,阜阳市,开发区,颗粒物(PM10),81,112,138,33,54,104,,77,77,6,17,6,7,0.4,0.5
2026-02-12T1400,2875A,115.783962,32.889217,阜阳市,阜阳职业技术学院,颗粒物(PM10),91,132,127,35,45,118,,90,90,11,18,7,8,0.5,0.5
2026-02-12T1400,3468A,115.79,32.8614,阜阳市,市规划展馆,颗粒物(PM10),83,115,137,35,49,118,,85,85,8,15,7,9,0.5,0.6
2026-02-12T1400,3469A,115.835101,32.918568,阜阳市,枣园社区,颗粒物(PM10),83,115,140,28,38,115,,75,75,8,30,7,8,0.4,0.5
2026-02-12T1400,2669A,102.9097,34.9841,甘南藏族自治州,州政府,,43,43,52,17,38,78,,36,36,6,20,7,9,0.4,0.7
2026-02-12T1400,3380A,102.8915,34.9618,甘南藏族自治州,甘肃民族师范学院,,50,50,57,17,22,80,,44,44,16,19,19,13,0.4,0.4
2026-02-12T1400,2570A,101.96,30.048,甘孜藏族自治州,水桥子,,23,13,18,3,8,71,,44,44,2,8,6,6,0.7,0.7
2026-02-12T1400,3065A,101.9534,29.9976,甘孜藏族自治州,州环保局,,26,16,14,8,8,81,,65,65,5,6,6,6,0.7,0.7
2026-02-12T1400,2363A,114.9368,25.8663,赣州市,地委,细颗粒物(PM2.5),63,46,37,45,31,56,,38,38,17,14,8,7,0.7,0.7
2026-02-12T1400,2364A,114.946,25.8483,赣州市,气象台,细颗粒物(PM2.5),57,50,47,40,33,56,,34,34,20,18,7,6,0.5,0.6
2026-02-12T1400,2365A,114.932,25.8332,赣州市,市图书馆,细颗粒物(PM2.5),54,,36,38,33,49,,32,32,15,15,4,4,0.9,0.9
2026-02-12T1400,2366A,114.8905,25.8472,赣州市,华坚鞋城,,,44,43,29,32,56,,34,34,15,17,6,5,,0.6
2026-02-12T1400,3109A,115.0094,25.8614,赣州市,赣县区卫计委,,46,40,34,32,27,50,,39,39,18,12,7,7,0.7,0.8
2026-02-12T1400,2684A,106.2753,36.0057,固原市,监测站,颗粒物(PM10),56,62,125,19,48,90,,76,76,4,19,7,10,0.3,0.6
2026-02-12T1400,2685A,106.2384,36.0189,固原市,新区,颗粒物(PM10),63,75,109,8,34,88,,74,74,5,21,7,8,0.2,0.6
2026-02-12T1400,2544A,106.6307,30.4577,广安市,市委,细颗粒物(PM2.5),117,103,99,88,81,81,,37,37,18,39,9,7,1.0,1.2
2026-02-12T1400,2545A,106.6266,30.4662,广安市,友谊中学,细颗粒物(PM2.5),93,88,85,69,64,81,,36,36,22,35,11,7,1.2,1.3
2026-02-12T1400,2547A,106.6386,30.4551,广安市,广电花园,细颗粒物(PM2.5),113,,82,85,82,78,,33,33,16,32,9,7,0.8,1
2026-02-12T1400,2902A,106.6347,30.4868,广安市,北辰小学,,,,80,,70,79,,30,30,18,22,12,9,0.9,0.9
2026-02-12T1400,2524A,105.8211,32.4444,广元市,老城,颗粒物(PM10),72,94,87,50,47,79,,32,32,29,42,20,10,0.8,0.7
2026-02-12T1400,2526A,105.8629,32.429,广元市,监测站,细颗粒物(PM2.5),75,72,63,55,39,70,,32,32,27,20,21,8,1.0,0.6
2026-02-12T1400,3617A,105.8047,32.4167,广元市,经开区,细颗粒物(PM2.5),65,68,81,47,49,78,,32,32,17,32,16,8,0.8,0.9
2026-02-12T1400,1345A,113.2346,23.1423,广州市,广雅中学,颗粒物(PM10),52,53,31,33,21,82,,40,40,26,28,2,3,0.7,0.7
2026-02-12T1400,1346A,113.2611,23.105,广州市,市五中,颗粒物(PM10),54,57,32,30,20,86,,48,48,23,22,6,7,/,/
2026-02-12T1400,1348A,113.3477,23.0916,广州市,广东商学院,细颗粒物(PM2.5),55,48,29,39,22,86,,48,48,18,20,5,6,0.7,0.8
2026-02-12T1400,1349A,113.4332,23.105,广州市,市八十六中,,43,42,30,30,19,114,,57,57,21,25,4,5,/,/
2026-02-12T1400,1350A,113.3506,22.9488,广州市,番禺中学,颗粒物(PM10),53,56,38,28,21,79,,53,53,20,22,3,3,0.6,0.7
2026-02-12T1400,1351A,113.2147,23.3918,广州市,花都师范,,46,43,23,32,17,75,,39,39,23,18,5,5,0.7,0.7
2026-02-12T1400,1352A,113.2599,23.1329,广州市,市监测站,颗粒物(PM10),54,57,33,35,21,80,,40,40,16,16,1,2,/,/
2026-02-12T1400,1353A,113.5618,23.3119,广州市,九龙镇镇龙,,45,40,27,31,19,108,,54,54,12,14,5,5,0.5,0.7
2026-02-12T1400,1354A,113.2764,23.1544,广州市,麓湖,,50,49,30,35,22,91,,43,43,20,23,3,4,0.5,0.6
2026-02-12T1400,2846A,113.3209,23.1323,广州市,体育西,颗粒物(PM10),52,53,33,34,23,96,,46,46,21,24,6,6,0.8,0.8
2026-02-12T1400,3298A,113.5718,23.5493,广州市,从化街口,,28,22,25,16,18,89,,44,44,10,18,7,9,0.5,0.8
2026-02-12T1400,3299A,113.3463,23.369,广州市,白云竹料,细颗粒物(PM2.5),54,55,26,38,19,90,,47,47,20,17,3,4,0.7,0.7
2026-02-12T1400,3300A,113.2981,23.2365,广州市,白云嘉禾,"颗粒物(PM10),细颗粒物(PM2.5)",53,55,28,37,19,108,,49,49,23,23,5,6,/,/
2026-02-12T1400,3301A,113.4256,23.1716,广州市,黄埔科学城,细颗粒物(PM2.5),53,48,28,37,22,128,,63,63,18,17,6,5,0.6,0.7
2026-02-12T1400,3302A,113.3942,23.0485,广州市,番禺大学城,颗粒物(PM10),55,60,42,36,20,96,,59,59,17,20,7,7,0.5,0.6
2026-02-12T1400,3303A,113.4923,22.8169,广州市,南沙黄阁,,44,44,41,26,22,76,,69,69,28,29,5,6,/,/
2026-02-12T1400,3304A,113.534,22.7893,广州市,南沙街,,,39,43,27,24,78,,72,72,,25,4,5,0.5,0.6
2026-02-12T1400,3443A,113.2905,23.5541,广州市,花都梯面,,35,33,21,24,16,74,,40,40,12,12,5,5,/,/
2026-02-12T1400,3445A,113.786,23.7479,广州市,从化良口,,30,24,16,21,14,82,,42,42,7,9,8,8,/,/
2026-02-12T1400,3446A,113.805,23.2614,广州市,增城荔城,细颗粒物(PM2.5),55,54,23,39,16,122,,65,65,12,12,5,5,0.5,0.5
2026-02-12T1400,2506A,109.604387,23.066791,贵港市,江南子站,颗粒物(PM10),54,58,27,31,19,42,,24,24,15,16,5,4,0.9,0.9
2026-02-12T1400,2508A,109.5669,23.1065,贵港市,荷城子站,,44,44,28,18,14,36,,19,19,16,17,6,5,1.1,1.1
2026-02-12T1400,3405A,109.5886,23.1172,贵港市,新世纪学校,,44,44,29,26,22,41,,22,22,18,19,/,/,0.7,0.7
2026-02-12T1400,4260A,109.5933,23.095,贵港市,中山路155-3号,,49,49,31,34,25,42,,24,24,14,16,/,/,0.6,0.6
2026-02-12T1400,1439A,106.6863,26.6035,贵阳市,马鞍山,,32,27,29,22,20,32,,28,23,19,16,11,8,/,/
2026-02-12T1400,1441A,106.6241,26.6266,贵阳市,鉴湖路,,31,31,31,17,17,27,,34,24,19,16,6,5,0.6,0.6
2026-02-12T1400,1442A,106.7468,26.6344,贵阳市,燕子冲,,24,24,33,15,21,44,,40,32,13,15,11,10,0.6,0.6
2026-02-12T1400,1443A,106.6556,26.4362,贵阳市,碧云窝,,29,29,33,14,17,31,,34,30,17,12,17,19,/,/
2026-02-12T1400,1445A,106.6963,26.6063,贵阳市,红边门,,31,31,32,21,24,33,,31,24,22,21,13,13,/,/
2026-02-12T1400,1446A,106.7162383,26.56964667,贵阳市,新华路,,,39,39,19,23,32,,30,25,26,24,,8,0.6,0.5
2026-02-12T1400,1447A,106.6742,26.542,贵阳市,太慈桥,,28,24,30,19,22,32,,33,25,21,19,6,6,/,/
2026-02-12T1400,4230A,106.688212,26.56952,贵阳市,花果园大街66号,,38,,26,26,23,18,,21,12,24,21,4,4,/,/
2026-02-12T1400,4231A,106.687268,26.516892,贵阳市,漓江路57号,,29,29,32,19,21,28,,26,14,20,19,11,13,0.7,0.8
2026-02-12T1400,1864A,110.3091,25.2705,桂林市,龙隐路小学,,39,,28,27,28,30,,20,20,14,13,2,3,0.8,0.7
2026-02-12T1400,1865A,110.2849361,25.22909545,桂林市,八中,,25,25,31,16,22,26,,16,16,20,22,3,3,0.8,0.8
2026-02-12T1400,3531A,110.296,25.1254,桂林市,旅游学院,,30,26,30,21,24,32,,26,26,10,10,4,4,0.8,0.8
2026-02-12T1400,4222A,110.1835,25.2444,桂林市,环湖路276号,,39,31,28,27,23,23,,26,20,29,20,2,2,1.1,1
2026-02-12T1400,4301A,110.2803,25.2773,桂林市,信义路13号,,35,33,28,24,27,22,,22,15,22,18,5,5,1.3,1.1
2026-02-12T1400,2674A,100.2262,34.4854,果洛藏族自治州,玛沁县大武镇,,32,32,40,7,12,84,,57,57,2,3,14,16,0.3,0.4
2026-02-12T1400,1130A,126.5557,45.8109,哈尔滨市,松北商大,细颗粒物(PM2.5),59,59,53,42,47,72,,57,57,17,37,10,7,0.7,0.9
2026-02-12T1400,1132A,126.6162,45.719,哈尔滨市,南岗学府路,细颗粒物(PM2.5),77,78,71,56,50,91,,60,60,20,35,13,11,0.9,1.1
2026-02-12T1400,1133A,126.6894,45.7733,哈尔滨市,太平宏伟公园,,,73,94,47,71,83,,43,43,,24,13,12,0.8,1.4
2026-02-12T1400,1134A,126.6361,45.7672,哈尔滨市,道外承德广场,颗粒物(PM10),67,84,78,45,45,73,,46,46,29,48,18,12,0.6,0.9
2026-02-12T1400,1136A,126.644,45.7261,哈尔滨市,动力和平路,细颗粒物(PM2.5),78,88,58,57,42,76,,56,56,27,36,15,13,0.8,0.9
2026-02-12T1400,1137A,126.5933,45.7479,哈尔滨市,道里建国路,细颗粒物(PM2.5),78,89,62,57,50,72,,45,45,36,53,46,21,0.4,0.9
2026-02-12T1400,1138A,126.6127,45.6119,哈尔滨市,平房东轻厂,细颗粒物(PM2.5),105,87,74,79,65,91,,55,55,16,51,10,12,0.9,1
2026-02-12T1400,1139A,126.5875,45.9827,哈尔滨市,呼兰师专,,49,49,72,29,61,78,,58,58,14,31,14,14,0.7,1.1
2026-02-12T1400,1140A,126.6299,45.6799,哈尔滨市,省农科院,细颗粒物(PM2.5),98,100,72,73,56,78,,45,45,23,42,13,11,0.8,0.9
2026-02-12T1400,4282A,126.6769,45.7379,哈尔滨市,华山路1号,,,,65,,42,71,,52,52,31,41,6,15,,1.3
2026-02-12T1400,4283A,126.9717,45.5356,哈尔滨市,解放大街52号,细颗粒物(PM2.5),99,89,67,74,48,99,,67,67,18,18,27,25,1.0,0.9
2026-02-12T1400,2688A,93.5124,42.8176,哈密市,地区监测站,颗粒物(PM10),149,248,122,60,48,64,,58,58,8,16,5,8,0.1,0.5
2026-02-12T1400,2689A,93.5014,42.8312,哈密市,哈密师范学校,颗粒物(PM10),135,219,123,46,41,72,,61,61,10,30,4,7,0.3,0.8
2026-02-12T1400,2671A,100.9016,36.9464,海北藏族自治州,海晏县西海镇,,27,22,27,8,14,86,,58,58,1,3,8,8,0.3,0.4
2026-02-12T1400,3867A,102.074,36.5056,海东市,平安区公安局北苑,细颗粒物(PM2.5),70,80,72,51,44,68,,37,29,24,22,31,22,1.6,1.2
2026-02-12T1400,4163A,102.0984,36.5119,海东市,滨河路,细颗粒物(PM2.5),62,68,78,44,47,94,,35,35,21,40,23,26,1.1,1.1
2026-02-12T1400,1410A,110.3189,20.0596,海口市,海南大学,,32,18,30,9,13,101,,92,92,3,4,5,5,0.3,0.4
2026-02-12T1400,1411A,110.2827,20.0051,海口市,秀英海南医院,,30,22,28,10,13,95,,90,90,4,6,7,7,0.3,0.3
2026-02-12T1400,1412A,110.3391,19.9979,海口市,海南师范大学,,32,22,30,10,14,101,,94,94,4,6,5,5,0.3,0.4
2026-02-12T1400,1413A,110.3303,20.0359,海口市,龙华路环保局宿舍,,32,25,29,11,15,102,,95,95,5,7,/,/,0.6,0.6
2026-02-12T1400,3539A,110.5111,19.9737,海口市,桂林洋子站,,32,17,29,11,15,102,,87,87,4,4,/,/,/,/
2026-02-12T1400,4134A,110.1952,20.0451,海口市,长滨二路9号,,31,15,24,9,12,97,,85,85,4,5,/,/,/,/
2026-02-12T1400,2673A,100.6158,36.2985,海南藏族自治州,共和县恰卜恰镇,,43,43,43,16,31,86,,41,41,2,19,19,13,0.4,0.5
2026-02-12T1400,2676A,97.373,37.376,海西蒙古族藏族自治州,德令哈市,,32,31,35,20,13,102,,85,85,7,7,20,18,0.6,0.5
2026-02-12T1400,1049A,114.492,36.5712,邯郸市,矿院,颗粒物(PM10),75,99,105,45,58,98,,50,50,29,28,12,7,1.0,0.8
2026-02-12T1400,1050A,114.4839,36.6136,邯郸市,丛台公园,,,,109,,56,102,,62,62,,33,13,10,1.0,0.8
2026-02-12T1400,3458A,114.7893,36.5592,邯郸市,香泉濮院小区,颗粒物(PM10),100,149,139,58,50,113,,65,65,17,16,19,8,1.4,0.8
2026-02-12T1400,3580A,114.1998,36.4439,邯郸市,峰峰矿区临水派出所,颗粒物(PM10),68,86,91,36,38,120,,74,74,9,13,22,17,1.3,1.2
2026-02-12T1400,4068A,114.5209,36.7697,邯郸市,建安街268号,细颗粒物(PM2.5),73,92,107,53,55,95,,46,46,16,24,17,10,1.0,1
2026-02-12T1400,4069A,114.5488,36.6177,邯郸市,丛台东路558号,细颗粒物(PM2.5),115,116,127,87,85,105,,48,48,22,33,16,7,1.3,0.8
2026-02-12T1400,2635A,107.0155,33.0707,汉中市,市监测站,颗粒物(PM10),67,83,98,44,55,80,,40,40,20,28,12,7,1.0,1
2026-02-12T1400,2636A,107.0083,33.114,汉中市,鑫源开发区,颗粒物(PM10),62,74,85,35,49,74,,46,46,15,24,8,7,1.0,1
2026-02-12T1400,2637A,107.0072,33.0323,汉中市,南郑大河坎水厂,颗粒物(PM10),66,82,92,45,53,79,,38,38,19,22,8,6,0.9,0.8
2026-02-12T1400,1223A,120.2073,30.2111,杭州市,滨江,细颗粒物(PM2.5),87,98,102,64,60,106,,59,59,20,34,8,7,0.6,0.6
2026-02-12T1400,1224A,120.0625,30.2737,杭州市,西溪,颗粒物(PM10),67,84,86,44,48,113,,54,54,16,24,10,8,0.8,0.8
2026-02-12T1400,1226A,120.3417,30.315,杭州市,下沙,细颗粒物(PM2.5),80,89,102,59,68,121,,51,51,12,48,10,10,0.5,0.5
2026-02-12T1400,1227A,120.1252,30.2465,杭州市,卧龙桥,细颗粒物(PM2.5),69,81,78,50,47,115,,59,59,12,17,10,8,0.6,0.6
2026-02-12T1400,1228A,120.1902,30.2691,杭州市,浙江农大,细颗粒物(PM2.5),73,86,95,53,55,127,,65,65,17,36,7,6,0.7,0.8
2026-02-12T1400,1230A,120.1195,30.3121,杭州市,和睦小学,细颗粒物(PM2.5),74,91,103,54,62,114,,64,64,15,32,6,5,0.6,0.8
2026-02-12T1400,1231A,120.3076,30.4146,杭州市,临平镇,,,83,110,58,71,123,,52,52,8,30,8,7,,0.8
2026-02-12T1400,1232A,120.2753,30.1839,杭州市,城厢镇,细颗粒物(PM2.5),77,98,98,56,58,125,,76,76,14,31,9,8,0.8,0.9
2026-02-12T1400,1233A,120.0883,30.1808,杭州市,云栖,颗粒物(PM10),67,84,82,47,46,114,,58,58,15,16,6,5,0.7,0.6
2026-02-12T1400,3557A,119.9463,30.0496,杭州市,镇二中,细颗粒物(PM2.5),78,81,74,57,49,113,,56,56,18,26,6,5,0.9,1
2026-02-12T1400,3558A,119.7184,30.2367,杭州市,市府大楼,细颗粒物(PM2.5),68,65,60,49,49,106,,61,61,10,16,12,10,0.5,0.6
2026-02-12T1400,3656A,120.1554,30.2863,杭州市,消防大队,细颗粒物(PM2.5),84,91,98,62,65,104,,56,56,14,32,8,7,0.7,0.9
2026-02-12T1400,1270A,117.1957,31.7845,合肥市,明珠广场,颗粒物(PM10),84,117,135,58,66,106,,66,66,16,38,8,8,0.5,0.7
2026-02-12T1400,1271A,117.307,31.8765,合肥市,三里街,颗粒物(PM10),81,112,130,48,63,102,,62,62,20,51,7,7,1.0,1.2
2026-02-12T1400,1272A,117.2587,31.8703,合肥市,琥珀山庄,颗粒物(PM10),85,119,136,57,69,108,,83,83,13,56,8,9,0.7,1
2026-02-12T1400,1275A,117.2593,31.9376,合肥市,庐阳区,颗粒物(PM10),84,117,132,49,59,108,,72,72,17,51,10,10,0.7,0.8
2026-02-12T1400,1276A,117.345251,31.861615,合肥市,瑶海区,颗粒物(PM10),84,117,125,41,54,116,,80,80,23,37,7,6,0.4,0.5
2026-02-12T1400,1277A,117.3033,31.7967,合肥市,包河区,颗粒物(PM10),86,122,140,50,64,114,,66,66,8,63,9,9,0.8,1
2026-02-12T1400,1278A,117.278,31.7392,合肥市,滨湖新区,颗粒物(PM10),89,127,143,59,63,111,,80,80,10,22,5,5,0.8,0.9
2026-02-12T1400,1279A,117.1324,31.8395,合肥市,高新区,颗粒物(PM10),86,122,134,58,63,105,,78,78,13,22,5,6,0.6,0.7
2026-02-12T1400,3464A,117.3802,31.9148,合肥市,高教基地,颗粒物(PM10),79,107,115,37,53,123,,88,88,14,30,9,8,0.6,0.7
2026-02-12T1400,4098A,117.2518,31.8404,合肥市,中国科学技术大学,颗粒物(PM10),91,132,130,60,58,113,,70,70,11,38,9,9,0.7,0.9
2026-02-12T1400,3614A,79.9241,37.0878,和田地区,地区环保局,颗粒物(PM10),449,549,533,133,130,69,,48,48,33,31,6,6,2.8,2.5
2026-02-12T1400,3615A,79.9132,37.1137,和田地区,市环保局,颗粒物(PM10),423,523,520,120,134,94,,47,47,23,41,4,4,1.0,1.8
2026-02-12T1400,2517A,108.0496,24.6957,河池市,市环保站,,25,24,29,17,20,23,,39,29,18,15,2,5,0.9,0.8
2026-02-12T1400,4302A,108.0901,24.6945,河池市,上任中路54号,,,,30,,20,,,42,,,11,,6,,0.8
2026-02-12T1400,1697A,114.6962,23.7538,河源市,东埔,,30,19,16,19,15,94,,49,49,8,10,6,5,0.6,0.6
2026-02-12T1400,1698A,114.6895,23.7232,河源市,老城,,30,30,17,17,14,96,,50,50,6,9,6,6,0.5,0.6
2026-02-12T1400,3374A,115.5562,35.089,菏泽市,定陶老年大学,细颗粒物(PM2.5),104,146,154,78,69,106,,74,74,15,19,6,7,0.6,0.9
2026-02-12T1400,4114A,115.4239,35.2593,菏泽市,黄河路600号,细颗粒物(PM2.5),107,159,165,80,77,104,,68,68,13,17,5,7,0.5,0.5
2026-02-12T1400,4115A,115.5025,35.2727,菏泽市,菏泽市人社局,颗粒物(PM10),99,147,150,70,64,103,,75,75,17,19,6,6,0.6,0.6
2026-02-12T1400,4184A,115.479691,35.244011,菏泽市,永昌路1号,细颗粒物(PM2.5),102,149,154,76,68,116,,82,82,11,16,4,5,0.5,0.6
2026-02-12T1400,4193A,115.471542,35.280012,菏泽市,长城路999号,颗粒物(PM10),101,151,156,64,61,110,,78,78,17,20,4,5,0.6,0.6
2026-02-12T1400,2514A,111.5264,24.4178,贺州市,环保小区,,38,29,22,26,17,35,,28,27,10,11,4,3,0.5,0.4
2026-02-12T1400,2515A,111.561,24.4074,贺州市,政协大楼,,38,32,24,26,18,33,,24,20,13,11,4,4,1.0,0.9
2026-02-12T1400,3534A,111.4744,24.455,贺州市,西湾,,29,28,27,20,16,29,,22,21,12,13,5,5,0.9,0.8
2026-02-12T1400,2385A,114.17,35.9019,鹤壁市,市监测站,"颗粒物(PM10),细颗粒物(PM2.5)",83,116,114,61,51,98,,65,65,28,25,10,6,1.0,0.7
2026-02-12T1400,2386A,114.2953,35.7512,鹤壁市,市交警支队,颗粒物(PM10),91,132,142,60,60,92,,40,40,21,34,15,8,0.8,0.7
2026-02-12T1400,2387A,114.2877,35.7302,鹤壁市,迎宾馆,颗粒物(PM10),94,138,147,60,60,94,,45,45,21,37,11,6,0.9,0.8
2026-02-12T1400,3474A,114.2616,35.6824,鹤壁市,大新区,颗粒物(PM10),105,160,154,55,66,101,,46,46,19,35,13,10,0.9,0.8
2026-02-12T1400,3596A,114.1573,35.9607,鹤壁市,南山宾馆,细颗粒物(PM2.5),97,141,135,72,55,98,,81,81,17,14,14,12,1.0,0.7
2026-02-12T1400,2244A,130.2537,47.3416,鹤岗市,哈啤分公司,,31,17,34,12,27,98,,95,90,3,9,8,8,0.2,0.4
2026-02-12T1400,2245A,130.2683,47.3087,鹤岗市,斯达机电,,27,18,41,6,24,84,,100,88,5,11,6,7,0.4,0.5
2026-02-12T1400,2246A,130.3114,47.3388,鹤岗市,东山纸板厂,,42,42,42,22,32,88,,74,74,4,24,8,12,0.7,1.3
2026-02-12T1400,2263A,127.4832,50.2524,黑河市,交通局,,32,32,21,16,12,69,,69,66,23,12,6,5,0.3,0.3
2026-02-12T1400,2264A,127.5146,50.2339,黑河市,环保局,,31,31,31,18,20,71,,,,15,17,7,7,0.7,0.6
2026-02-12T1400,1074A,115.6839,37.754,衡水市,电机北厂,颗粒物(PM10),78,105,137,48,66,92,,64,64,20,24,14,9,0.8,0.7
2026-02-12T1400,1075A,115.6303,37.7318,衡水市,市监测站,颗粒物(PM10),71,91,132,44,64,86,,58,58,25,28,19,11,0.7,0.7
2026-02-12T1400,3188A,115.6684,37.7216,衡水市,市城管局,,,119,143,31,60,83,,57,56,,28,16,11,0.8,0.7
2026-02-12T1400,3459A,115.599,37.5491,衡水市,地表水厂,颗粒物(PM10),81,111,141,45,71,97,,60,60,14,37,14,11,0.7,0.7
2026-02-12T1400,2457A,112.6209,26.9268,衡阳市,衡阳化工总厂,细颗粒物(PM2.5),102,85,70,76,62,18,,6,6,21,25,9,9,1.3,1.3
2026-02-12T1400,2458A,112.621,26.8957,衡阳市,珠晖区环保局,细颗粒物(PM2.5),82,60,76,60,63,19,,10,10,23,27,4,6,1.3,1.6
2026-02-12T1400,2459A,112.628,26.8654,衡阳市,市委党校,细颗粒物(PM2.5),78,70,73,57,64,19,,,,20,22,8,10,1.3,1.6
2026-02-12T1400,2460A,112.6007,26.8977,衡阳市,市监测站,细颗粒物(PM2.5),99,97,95,74,68,15,,7,7,28,29,7,8,1.6,1.8
2026-02-12T1400,2461A,112.5658,26.9013,衡阳市,真空机电公司,细颗粒物(PM2.5),99,,80,74,70,12,,6,6,28,31,8,8,1.5,1.6
2026-02-12T1400,3399A,112.6703,26.8817,衡阳市,师范学院,细颗粒物(PM2.5),60,53,74,43,56,20,,10,10,22,26,3,3,1.2,1.3
2026-02-12T1400,3038A,103.3757,23.3679,红河哈尼族彝族自治州,州图书馆,,30,20,22,16,18,96,,78,78,3,5,3,9,0.5,0.7
2026-02-12T1400,4154A,103.401,23.3561,红河哈尼族彝族自治州,蒙自市朝阳路,,30,9,14,9,18,94,,75,75,2,3,6,6,0.3,0.5
2026-02-12T1400,1090A,111.6506,40.7517,呼和浩特市,呼市一监,,,,99,,46,,,68,29,,48,,12,,0.9
2026-02-12T1400,1094A,111.7516,40.8369,呼和浩特市,如意水处理厂,,,109,88,46,37,71,,30,30,28,53,16,14,,0.8
2026-02-12T1400,1095A,111.727798,40.806187,呼和浩特市,二十九中,颗粒物(PM10),77,104,90,45,36,72,,36,36,22,39,17,16,0.5,0.7
2026-02-12T1400,1097A,111.717,40.7617,呼和浩特市,化肥厂生活区,颗粒物(PM10),79,108,102,46,43,77,,36,36,22,41,11,11,0.5,0.8
2026-02-12T1400,3699A,111.6519,40.8389,呼和浩特市,海东办,颗粒物(PM10),74,97,92,45,39,68,,32,32,24,47,11,7,0.7,0.8
2026-02-12T1400,4275A,111.591512,40.827312,呼和浩特市,成吉思汗西街8号,颗粒物(PM10),75,100,78,43,30,68,,37,37,27,36,11,7,0.6,0.5
2026-02-12T1400,4276A,111.6597,40.8077,呼和浩特市,公园东路75号,颗粒物(PM10),80,110,100,49,41,69,,44,44,28,51,11,11,0.5,0.9
2026-02-12T1400,4277A,111.5427,40.7846,呼和浩特市,金海路35号,颗粒物(PM10),77,104,83,54,35,71,,38,38,27,39,27,10,0.4,0.3
2026-02-12T1400,3061A,119.7511,49.1576,呼伦贝尔市,国华电力东,,23,15,23,3,14,73,,72,72,11,15,6,6,0.3,0.4
2026-02-12T1400,4279A,119.7569,49.2222,呼伦贝尔市,伊敏大街东7号,,23,21,41,3,29,71,,,,9,33,7,8,0.2,0.4
2026-02-12T1400,1250A,120.075,30.867,湖州市,城西水厂,细颗粒物(PM2.5),82,90,105,60,72,129,,68,68,16,39,6,6,0.5,0.7
2026-02-12T1400,2873A,120.083,30.8929,湖州市,仁皇山新区,细颗粒物(PM2.5),82,89,104,60,71,108,,57,57,21,36,6,6,0.4,0.6
2026-02-12T1400,2907A,120.1846,30.8592,湖州市,吴兴区站,细颗粒物(PM2.5),94,102,115,70,83,129,,63,63,13,32,5,6,0.7,0.9
2026-02-12T1400,3562A,120.4146,30.8538,湖州市,南浔区站,颗粒物(PM10),65,79,113,43,71,125,,75,75,13,24,8,8,0.5,0.9
2026-02-12T1400,1607A,120.904878,40.721091,葫芦岛市,龙港区,细颗粒物(PM2.5),140,139,131,107,94,63,,38,38,45,47,45,56,1.3,1.6
2026-02-12T1400,1608A,120.8382,40.7521,葫芦岛市,化工街,细颗粒物(PM2.5),118,122,136,89,95,77,,38,38,40,59,32,34,1.0,1.5
2026-02-12T1400,1609A,120.8339,40.7078,葫芦岛市,新区,细颗粒物(PM2.5),142,148,114,108,101,51,,32,32,35,56,18,37,1.3,1.7
2026-02-12T1400,1610A,120.8697,40.7679,葫芦岛市,东城区,细颗粒物(PM2.5),168,,121,127,100,72,,40,40,43,55,27,32,1.4,1.8
2026-02-12T1400,2483A,109.9297,27.5383,怀化市,河西地税局,细颗粒物(PM2.5),60,68,64,43,47,33,,11,11,26,24,1,3,/,/
2026-02-12T1400,2484A,109.9783,27.5342,怀化市,市四医院,颗粒物(PM10),67,83,69,46,51,29,,11,11,25,19,7,6,0.6,0.8
2026-02-12T1400,2485A,109.9971,27.5579,怀化市,监测楼,细颗粒物(PM2.5),69,76,68,50,53,31,,10,10,23,21,4,3,0.3,0.5
2026-02-12T1400,1210A,119.0566,33.5991,淮安市,钵池山,细颗粒物(PM2.5),93,129,138,69,106,118,,71,71,17,35,16,11,0.8,0.8
2026-02-12T1400,1211A,119.0083,33.578,淮安市,北京南路,颗粒物(PM10),95,139,140,67,107,111,,58,58,17,48,13,10,0.8,0.8
2026-02-12T1400,1212A,118.9938,33.6083,淮安市,市监测站,"颗粒物(PM10),细颗粒物(PM2.5)",89,127,133,66,102,114,,70,69,20,36,16,14,1.5,1.3
2026-02-12T1400,1213A,119.135,33.5038,淮安市,楚州区监测站,细颗粒物(PM2.5),109,137,156,82,120,113,,53,53,17,54,10,8,0.7,0.9
2026-02-12T1400,3426A,118.8757,33.2897,淮安市,新华书店,颗粒物(PM10),90,130,137,61,97,110,,69,69,22,30,10,9,0.6,0.7
2026-02-12T1400,4092A,119.119691,33.550006,淮安市,枚皋中路89号,细颗粒物(PM2.5),118,146,149,89,111,120,,62,62,19,36,14,10,0.9,0.8
2026-02-12T1400,4206A,119.028838,33.631911,淮安市,承德北路606号,颗粒物(PM10),97,144,158,66,106,117,,77,77,16,42,14,10,0.7,0.9
2026-02-12T1400,2282A,116.8005,33.9749,淮北市,监测站,颗粒物(PM10),95,139,152,44,69,116,,79,79,15,31,7,8,0.7,0.9
2026-02-12T1400,2283A,116.8094,33.9008,淮北市,烈山区政府,颗粒物(PM10),100,149,167,42,81,112,,78,78,11,30,6,9,0.4,0.6
2026-02-12T1400,4017A,116.7926,33.9534,淮北市,市博物馆,颗粒物(PM10),95,140,159,50,74,110,,75,75,12,27,6,9,0.5,0.7
2026-02-12T1400,4100A,116.8322,33.9884,淮北市,杜集区第一实验学校,颗粒物(PM10),95,139,159,46,79,111,,75,75,13,27,8,8,0.5,0.6
2026-02-12T1400,2277A,116.8304,32.7726,淮南市,潘集区政府,颗粒物(PM10),82,114,134,40,57,110,,72,72,12,24,6,8,0.4,0.8
2026-02-12T1400,2279A,116.8569,32.5949,淮南市,谢家集区政府,颗粒物(PM10),74,98,120,35,50,116,,79,79,9,21,8,9,0.5,0.6
2026-02-12T1400,2280A,116.8279,32.6333,淮南市,八公山区政府,颗粒物(PM10),77,103,116,41,56,114,,80,80,10,18,5,8,0.4,0.5
2026-02-12T1400,2894A,117.0561,32.6536,淮南市,经济技术开发区消防队,,,105,120,37,54,107,,71,71,,28,,7,0.4,0.5
2026-02-12T1400,3329A,117.011,32.5891,淮南市,山南新区,颗粒物(PM10),79,107,139,36,57,115,,78,78,7,20,8,9,0.4,0.5
2026-02-12T1400,4209A,117.003137,32.644456,淮南市,国庆中路369号,颗粒物(PM10),72,94,110,40,51,106,,69,68,9,24,9,9,0.5,0.6
2026-02-12T1400,2446A,114.9021,30.474,黄冈市,职工中心,颗粒物(PM10),65,79,111,41,96,111,,70,70,11,17,15,8,0.8,1
2026-02-12T1400,2929A,114.8858,30.4519,黄冈市,红卫路,,,78,109,53,100,108,,71,71,,21,18,10,0.6,0.8
2026-02-12T1400,3398A,114.9134,30.4446,黄冈市,市林业局,颗粒物(PM10),75,100,132,47,99,99,,67,67,14,20,5,4,0.5,0.7
2026-02-12T1400,2672A,102.02,35.5101,黄南藏族自治州,同仁县隆务镇,,40,40,32,19,21,72,,60,59,6,4,9,8,0.4,0.3
2026-02-12T1400,2295A,118.2905,29.6965,黄山市,延安路89号,颗粒物(PM10),57,63,59,33,30,92,,43,43,8,13,4,4,0.5,0.5
2026-02-12T1400,2297A,118.1369,30.2755,黄山市,黄山区政府5号楼,颗粒物(PM10),61,71,70,21,31,95,,50,50,4,8,2,2,0.4,0.5
2026-02-12T1400,4210A,118.335445,29.720283,黄山市,滨江东路7-2号,颗粒物(PM10),66,81,80,28,32,98,,43,43,8,12,/,/,/,/
2026-02-12T1400,2423A,115.0547,30.2332,黄石市,沈家营,细颗粒物(PM2.5),92,114,111,68,78,101,,59,59,13,27,13,9,1.1,1
2026-02-12T1400,2426A,114.899,30.211,黄石市,铁山,颗粒物(PM10),59,68,98,32,87,104,,68,68,10,26,9,9,0.4,1.2
2026-02-12T1400,2427A,115.0259,30.2108,黄石市,团城山,颗粒物(PM10),74,98,112,52,85,78,,44,44,21,32,6,7,0.9,0.9
2026-02-12T1400,3149A,115.0174,30.1591,黄石市,笔架山北路,颗粒物(PM10),84,118,149,52,88,99,,51,51,12,24,9,10,0.8,1.3
2026-02-12T1400,4185A,115.078022,30.21118,黄石市,磁湖东路29号,细颗粒物(PM2.5),97,103,122,72,94,95,,46,46,21,44,13,8,1.2,1.4
2026-02-12T1400,1392A,114.4181,23.0528,惠州市,河南岸金山湖子站,颗粒物(PM10),51,52,30,34,18,98,,58,58,8,12,6,6,0.6,0.6
2026-02-12T1400,1393A,114.4055,23.0824,惠州市,下埔横江三路子站,颗粒物(PM10),51,51,27,34,18,101,,58,58,9,10,6,6,0.5,0.5
2026-02-12T1400,1395A,114.4645,22.7832,惠州市,惠阳区承修路船湖子站,,49,49,42,29,22,93,,95,87,9,12,5,6,0.5,0.6
2026-02-12T1400,1396A,114.5316,22.7423,惠州市,大亚湾管委会子站,,44,44,38,27,22,95,,94,87,8,12,6,6,0.6,0.6
2026-02-12T1400,3314A,114.4334,22.8134,惠州市,惠阳秋长,颗粒物(PM10),52,53,42,26,22,106,,100,96,10,13,/,/,/,/
2026-02-12T1400,3452A,114.6521,22.7755,惠州市,大亚湾霞涌,,42,42,36,26,21,90,,94,91,18,14,/,/,/,/
2026-02-12T1400,4300A,114.4089,23.1147,惠州市,文华一路1号,,49,47,24,34,16,99,,56,56,12,11,/,/,/,/
2026-02-12T1400,2240A,130.9618,45.2926,鸡西市,环保局,,26,22,34,10,23,82,,77,76,6,9,6,6,0.3,0.4
2026-02-12T1400,2243A,130.9294,45.2959,鸡西市,第一中学,,27,14,27,11,22,84,,77,77,5,9,3,4,0.3,0.4
2026-02-12T1400,3707A,131.0069,45.2988,鸡西市,欧美日汽修厂,,27,27,39,12,27,80,,67,67,4,10,7,10,0,0.1
2026-02-12T1400,2367A,114.9753,27.0803,吉安市,红声器材厂,细颗粒物(PM2.5),70,,61,51,49,30,,4,,19,19,6,6,1.0,0.9
2026-02-12T1400,2369A,114.9903,27.1313,吉安市,市环境监测站,细颗粒物(PM2.5),58,49,57,41,49,44,,16,16,14,23,8,8,/,/
2026-02-12T1400,2370A,115.009527,27.096792,吉安市,青原区法院,细颗粒物(PM2.5),57,51,53,40,44,36,,14,14,17,23,8,8,0.9,0.9
2026-02-12T1400,1772A,126.54,43.8622,吉林市,哈达湾,细颗粒物(PM2.5),64,57,48,46,41,113,,67,67,14,23,9,10,1.0,1.1
2026-02-12T1400,1773A,126.5843,43.8358,吉林市,东局子,细颗粒物(PM2.5),55,46,51,39,45,100,,56,56,17,28,7,6,0.8,0.9
2026-02-12T1400,1774A,126.5051,43.8243,吉林市,电力学院,细颗粒物(PM2.5),60,45,65,43,50,114,,64,64,16,27,8,9,0.8,1.1
2026-02-12T1400,1775A,126.6133,43.8971,吉林市,江北,细颗粒物(PM2.5),55,54,62,39,53,100,,58,58,19,28,9,10,0.6,1
2026-02-12T1400,1776A,126.5549,43.8304,吉林市,江南公园,,,52,51,41,44,101,,47,47,14,30,,8,,0.8
2026-02-12T1400,2868A,126.4737,43.953,吉林市,九站,细颗粒物(PM2.5),78,76,64,57,57,95,,48,48,29,41,9,10,0.8,0.9
2026-02-12T1400,1299A,116.9866,36.6118,济南市,科干所,颗粒物(PM10),89,127,117,46,50,121,,105,104,12,13,8,9,0.6,0.6
2026-02-12T1400,1300A,116.9379,36.6652,济南市,农科所,颗粒物(PM10),91,132,130,60,56,113,,96,96,17,20,8,9,0.7,0.7
2026-02-12T1400,1301A,117.1265,36.6736,济南市,开发区,颗粒物(PM10),81,112,114,52,48,126,,113,111,14,16,5,6,0.5,0.6
2026-02-12T1400,1303A,117.0616,36.6865,济南市,省种子仓库,,,,124,51,46,120,,104,102,7,18,6,7,0.6,0.6
2026-02-12T1400,1304A,116.9495185,36.644937,济南市,机床二厂,颗粒物(PM10),92,134,127,60,51,120,,101,101,14,22,7,12,0.6,0.6
2026-02-12T1400,1305A,117.0496,36.6629,济南市,市监测站,颗粒物(PM10),91,132,126,51,48,123,,108,106,14,17,6,6,0.7,0.7
2026-02-12T1400,1306A,116.7674,36.5458,济南市,长清党校,颗粒物(PM10),106,161,144,60,54,115,,98,98,19,26,7,8,0.7,0.7
2026-02-12T1400,1961A,117.5323,36.6865,济南市,东山小学,颗粒物(PM10),94,137,127,47,47,119,,105,105,12,14,5,5,0.5,0.5
2026-02-12T1400,3059A,117.7181,36.205,济南市,泰兴公司,,,146,148,58,77,118,,63,63,12,55,8,13,,1.2
2026-02-12T1400,3064A,117.6861,36.2172,济南市,莱芜战役纪念馆,颗粒物(PM10),95,139,146,56,70,115,,68,68,14,43,11,15,0.7,1
2026-02-12T1400,3494A,117.1673,36.9782,济南市,济阳区政府,颗粒物(PM10),95,139,131,57,53,108,,80,80,17,28,8,9,0.5,0.5
2026-02-12T1400,3495A,117.1168,36.6299,济南市,锦屏中学,颗粒物(PM10),86,122,122,51,49,119,,108,107,13,14,6,6,0.5,0.5
2026-02-12T1400,4108A,117.7107,36.2385,济南市,山财大街5号,颗粒物(PM10),103,156,138,51,61,119,,85,85,35,49,14,19,0.9,1.2
2026-02-12T1400,4109A,116.9744,36.6889,济南市,无影山路12号,颗粒物(PM10),87,124,126,60,53,113,,96,96,15,18,7,9,0.5,0.5
2026-02-12T1400,1653A,116.6229,35.4288,济宁市,火炬城,颗粒物(PM10),92,133,134,51,70,110,,79,79,13,20,4,4,0.6,0.7
2026-02-12T1400,3500A,116.5808,35.3703,济宁市,北湖一中,颗粒物(PM10),92,134,127,45,68,111,,83,82,10,18,8,8,0.4,0.6
2026-02-12T1400,3501A,116.8251,35.5592,济宁市,服务中心,颗粒物(PM10),107,164,169,67,85,108,,79,79,7,22,3,7,0.4,0.5
2026-02-12T1400,3678A,116.5907,35.4054,济宁市,市第七中学,,,,135,,70,116,,82,81,18,22,5,12,,0.7
2026-02-12T1400,4111A,116.6075,35.4566,济宁市,任和路,颗粒物(PM10),94,137,159,51,67,113,,85,82,14,20,6,8,0.6,0.7
2026-02-12T1400,4112A,116.5648,35.3921,济宁市,文体南路1号,颗粒物(PM10),86,122,146,45,67,119,,89,88,10,17,5,6,0.5,0.6
2026-02-12T1400,2255A,130.2749,46.8028,佳木斯市,佳纺,,28,21,48,3,40,89,,77,77,6,15,5,8,0.2,0.5
2026-02-12T1400,2257A,130.3258,46.7975,佳木斯市,环保局,,28,20,47,12,40,87,,78,78,6,14,8,9,0.2,0.4
2026-02-12T1400,4285A,130.363,46.806,佳木斯市,顺和街,,26,25,48,16,42,83,,74,74,11,20,6,7,0.2,0.5
2026-02-12T1400,4286A,130.3952,46.8268,佳木斯市,长安路196号,,28,17,47,14,38,88,,77,72,6,18,5,6,0.3,0.5
2026-02-12T1400,1252A,120.7439,30.778,嘉兴市,清河小学,细颗粒物(PM2.5),70,80,120,51,80,127,,73,73,19,39,7,7,0,0.4
2026-02-12T1400,1253A,120.7261,30.7477,嘉兴市,嘉兴学院,,,81,121,46,71,130,,71,71,11,27,,6,,1.1
2026-02-12T1400,2872A,120.7845,30.7524,嘉兴市,南湖区残联,细颗粒物(PM2.5),67,78,121,48,80,140,,83,83,13,31,6,5,0.6,0.8
2026-02-12T1400,3407A,120.6915,30.7741,嘉兴市,秀洲住建,颗粒物(PM10),65,79,113,46,74,139,,82,82,11,33,8,7,0.5,0.8
2026-02-12T1400,1945A,98.291,39.7705,嘉峪关市,气象局,颗粒物(PM10),56,61,88,21,27,85,,56,56,5,15,7,10,0.5,0.5
2026-02-12T1400,2884A,98.2672,39.7978,嘉峪关市,酒钢宾馆,颗粒物(PM10),53,56,99,10,30,83,,62,62,10,12,15,16,0.8,0.6
2026-02-12T1400,3248A,98.2644,39.7723,嘉峪关市,雄关区,,45,45,76,14,24,83,,59,59,8,17,6,11,0.3,0.5
2026-02-12T1400,1383A,113.1063,22.6058,江门市,北街,,39,39,37,20,24,93,,33,33,9,21,/,/,/,/
2026-02-12T1400,1384A,113.073,22.5835,江门市,西区,,43,43,40,19,24,99,,40,40,9,23,/,/,/,/
2026-02-12T1400,1385A,113.0218,22.531,江门市,圭峰西,,32,28,36,18,24,100,,41,41,10,20,/,/,/,/
2026-02-12T1400,1386A,113.0826,22.5947,江门市,东湖,,33,33,35,20,23,97,,36,36,10,21,5,6,0.4,0.5
2026-02-12T1400,3311A,113.1077,22.5647,江门市,江海富民,,46,46,47,17,24,103,,41,41,10,24,/,/,0.4,0.5
2026-02-12T1400,3449A,113.0496,22.4669,江门市,新会银湖,,32,32,43,18,26,96,,42,42,9,24,5,6,0.4,0.6
2026-02-12T1400,3335A,113.3137,35.2643,焦作市,马村街道办,颗粒物(PM10),92,134,126,54,42,88,,64,64,23,20,17,12,0.8,0.9
2026-02-12T1400,3336A,113.2464,35.2374,焦作市,焦作技师学院,颗粒物(PM10),91,132,110,59,39,77,,58,58,28,24,15,11,0.8,0.6
2026-02-12T1400,3477A,113.1656,35.2536,焦作市,中站许衡医院,颗粒物(PM10),88,125,101,53,38,80,,74,68,32,21,21,13,1.0,0.7
2026-02-12T1400,3981A,113.2456,35.18,焦作市,原李万街道办,颗粒物(PM10),83,115,118,48,43,82,,56,56,20,28,17,13,0.7,0.7
2026-02-12T1400,4264A,113.234,35.219,焦作市,新安路1731号,颗粒物(PM10),85,119,107,48,40,83,,66,66,27,27,17,14,0.9,0.7
2026-02-12T1400,4295A,113.2722,35.2121,焦作市,人民路3066号,颗粒物(PM10),80,109,121,47,45,81,,60,60,25,30,14,12,1.0,0.9
2026-02-12T1400,1708A,116.3701,23.5345,揭阳市,新兴,颗粒物(PM10),57,63,42,35,23,102,,68,68,14,16,7,7,0.8,0.7
2026-02-12T1400,1709A,116.3261,23.5442,揭阳市,西马,颗粒物(PM10),53,56,46,36,25,102,,66,66,12,12,4,5,0.7,0.6
2026-02-12T1400,1710A,116.361,23.5627,揭阳市,东兴,颗粒物(PM10),61,72,43,35,24,96,,65,65,12,12,7,8,/,/
2026-02-12T1400,1711A,116.4151,23.5295,揭阳市,渔湖,颗粒物(PM10),56,62,41,31,23,125,,76,76,13,15,5,5,/,/
2026-02-12T1400,3320A,116.4028,23.5699,揭阳市,曲溪,,45,38,43,31,25,122,,75,75,8,10,2,2,0.7,0.6
2026-02-12T1400,1944A,102.1691,38.5166,金昌市,天庆家园,颗粒物(PM10),71,92,129,40,40,99,,75,75,12,16,35,26,0.5,0.6
2026-02-12T1400,4022A,102.1648,38.5369,金昌市,金川区人防中心,颗粒物(PM10),87,124,112,39,37,94,,69,69,11,11,48,27,0.4,0.5
2026-02-12T1400,4239A,102.193042,38.531887,金昌市,长春路96号,颗粒物(PM10),80,110,123,36,35,93,,60,60,9,16,56,32,0.8,0.9
2026-02-12T1400,1262A,119.6478,29.0773,金华市,十五中,,45,45,76,23,44,103,,66,66,5,17,2,2,0.5,0.6
2026-02-12T1400,1263A,119.6859,29.1032,金华市,监测站,颗粒物(PM10),57,63,74,31,42,81,,44,44,15,28,5,4,0.5,0.6
2026-02-12T1400,3659A,119.656,29.1132,金华市,气象局,,,57,79,32,44,88,,23,,,37,4,2,,0.7
2026-02-12T1400,1767A,121.1114,41.0879,锦州市,南山,细颗粒物(PM2.5),132,115,97,100,81,90,,49,49,38,45,33,17,1.0,1.2
2026-02-12T1400,1768A,121.060361,40.842794,锦州市,开发区,细颗粒物(PM2.5),165,137,127,125,96,74,,28,28,,56,17,17,1.2,1.3
2026-02-12T1400,1769A,121.1836,41.1118,锦州市,百股街道,细颗粒物(PM2.5),144,160,111,110,99,98,,52,52,30,42,41,25,1.2,1.5
2026-02-12T1400,1770A,121.1176,41.1224,锦州市,天安街道,细颗粒物(PM2.5),93,100,101,69,83,105,,50,50,23,43,18,14,1.3,1.6
2026-02-12T1400,1771A,121.1303,41.1385,锦州市,北湖公园,细颗粒物(PM2.5),87,76,104,64,87,103,,56,56,23,38,24,18,0.9,1.2
2026-02-12T1400,2160A,112.8496,35.5051,晋城市,自来水公司,颗粒物(PM10),63,75,112,27,38,89,,58,58,10,26,7,13,0.6,1
2026-02-12T1400,2162A,112.8509,35.4886,晋城市,市环保局,颗粒物(PM10),53,56,101,8,39,102,,54,54,15,34,7,9,0.6,1
2026-02-12T1400,3620A,112.8258,35.4804,晋城市,泽州一中,颗粒物(PM10),79,107,116,21,34,101,,66,66,7,18,5,9,0.5,0.9
2026-02-12T1400,4078A,112.8246,35.5152,晋城市,前书院路,颗粒物(PM10),78,105,116,18,33,91,,48,48,12,23,8,12,0.5,1
2026-02-12T1400,4079A,112.8864,35.4773,晋城市,祥云街666号,颗粒物(PM10),70,90,111,24,41,100,,64,64,13,22,13,15,0.9,0.9
2026-02-12T1400,2174A,112.6992,37.6984,晋中市,榆次区政府,颗粒物(PM10),85,119,110,52,49,84,,37,37,27,47,24,19,0.7,0.8
2026-02-12T1400,2865A,112.7195,37.683,晋中市,榆次三中,颗粒物(PM10),84,117,102,38,39,92,,39,39,22,39,23,17,1.0,0.9
2026-02-12T1400,4080A,112.7375,37.7215,晋中市,广安街188号,颗粒物(PM10),81,112,104,40,41,88,,37,37,24,46,29,22,1.1,0.8
2026-02-12T1400,4200A,112.7478,37.6954,晋中市,迎宾街26号,颗粒物(PM10),82,114,96,47,43,92,,48,48,21,28,22,19,0.8,0.7
2026-02-12T1400,2439A,112.2012,31.048,荆门市,竹园小学,细颗粒物(PM2.5),88,114,119,65,69,88,,37,33,15,27,2,5,0.8,1
2026-02-12T1400,2440A,112.1968,30.9892,荆门市,掇刀,细颗粒物(PM2.5),92,105,120,68,76,94,,45,40,9,22,6,9,0.8,0.8
2026-02-12T1400,3012A,112.1849,31.0361,荆门市,西山林语,细颗粒物(PM2.5),87,114,115,64,66,88,,42,42,15,20,4,4,0.7,0.8
2026-02-12T1400,3547A,112.1631,31.0134,荆门市,龙泉中学南校,颗粒物(PM10),81,112,116,48,62,93,,54,54,14,17,6,7,1.2,1
2026-02-12T1400,4124A,112.2213,31.0654,荆门市,新台西路6号,细颗粒物(PM2.5),99,99,115,74,68,91,,34,34,8,20,9,15,0.6,0.8
2026-02-12T1400,1844A,112.2493,30.3198,荆州市,市图书馆,细颗粒物(PM2.5),83,68,83,61,63,60,,52,52,15,19,9,8,0.9,0.8
2026-02-12T1400,1845A,112.2009,30.3543,荆州市,市委党校,细颗粒物(PM2.5),83,94,88,61,66,48,,34,27,21,26,8,7,1.2,1.1
2026-02-12T1400,3194A,112.2749,30.3124,荆州市,管委会,细颗粒物(PM2.5),85,75,82,63,64,60,,38,38,13,25,11,11,0.9,0.8
2026-02-12T1400,4268A,112.1722,30.3366,荆州市,学苑路85号,细颗粒物(PM2.5),88,85,81,65,62,58,,38,35,11,15,6,6,0.5,0.5
2026-02-12T1400,2343A,117.2114,29.2931,景德镇市,老干部活动中心,颗粒物(PM10),57,64,62,37,34,91,,36,36,14,17,7,4,0.9,0.8
2026-02-12T1400,2344A,117.1893,29.2789,景德镇市,兽医站,颗粒物(PM10),55,59,67,27,35,89,,40,40,23,21,4,4,0.6,0.4
2026-02-12T1400,2346A,117.246,29.2958,景德镇市,陶研所,,50,50,48,23,29,90,,31,31,8,13,4,3,0.7,0.7
2026-02-12T1400,4289A,117.154766,29.256967,景德镇市,青少年活动中心,颗粒物(PM10),54,58,75,26,38,83,,36,36,16,26,8,12,/,/
2026-02-12T1400,1803A,115.9873,29.6816,九江市,十里,颗粒物(PM10),70,90,96,37,55,96,,51,51,18,35,8,8,0.7,0.9
2026-02-12T1400,1804A,115.9583,29.7047,九江市,茅山头,颗粒物(PM10),62,74,91,40,58,104,,46,46,14,36,8,7,0.5,0.6
2026-02-12T1400,1805A,115.9877,29.7295,九江市,西园,颗粒物(PM10),68,86,106,44,62,108,,51,51,18,51,5,6,0.6,1
2026-02-12T1400,1808A,115.9112,29.6038,九江市,综合工业园,颗粒物(PM10),68,85,86,29,40,111,,58,58,16,32,7,7,0.7,0.9
2026-02-12T1400,3190A,116.0254,29.6995,九江市,外国语学校,细颗粒物(PM2.5),64,75,89,46,56,87,,,,18,33,5,7,0.5,0.6
2026-02-12T1400,4253A,116.010205,29.659402,九江市,莲花大道8号,颗粒物(PM10),77,104,87,47,40,83,,56,56,20,14,5,4,0.6,0.6
2026-02-12T1400,4240A,98.495752,39.733935,酒泉市,玉门东路5号,颗粒物(PM10),59,68,101,15,28,80,,51,51,9,10,13,13,0.4,0.4
2026-02-12T1400,4241A,98.5099,39.7506,酒泉市,北大街108号,颗粒物(PM10),62,73,92,19,31,75,,49,49,14,10,17,13,0.9,0.5
2026-02-12T1400,2698A,76.0071,39.466,喀什地区,巡警大队,颗粒物(PM10),360,468,457,158,157,52,,18,18,44,49,9,8,1.3,2.2
2026-02-12T1400,2699A,75.9756,39.4693,喀什地区,吾办,颗粒物(PM10),308,426,421,162,165,48,,16,16,56,50,7,6,1.8,1.8
2026-02-12T1400,4027A,75.9485,39.4688,喀什地区,老干局,颗粒物(PM10),380,484,467,168,145,45,,15,15,49,40,10,7,1.8,2
2026-02-12T1400,1824A,114.3389,34.778,开封市,肿瘤医院,颗粒物(PM10),103,155,144,59,54,98,,62,62,25,29,10,9,0.8,0.7
2026-02-12T1400,1826A,114.2884,34.7966,开封市,世纪星幼儿园,颗粒物(PM10),100,150,142,58,54,95,,64,64,24,28,12,9,0.7,0.7
2026-02-12T1400,3147A,114.3434,34.8101,开封市,龙亭公园,颗粒物(PM10),100,150,142,52,47,98,,64,64,26,30,12,10,0.7,0.6
2026-02-12T1400,3210A,114.3645,34.7955,开封市,汴京公园,颗粒物(PM10),107,163,149,57,44,96,,59,59,26,29,9,6,0.7,0.6
2026-02-12T1400,3473A,114.2485,34.8306,开封市,技师学院,颗粒物(PM10),92,134,134,53,53,97,,69,69,24,23,10,9,0.6,0.5
2026-02-12T1400,3592A,114.4518,34.7503,开封市,祥符区生态环境局,颗粒物(PM10),102,153,151,56,54,100,,64,64,18,26,7,5,0.5,0.5
2026-02-12T1400,1951A,84.886,45.6029,克拉玛依市,长征新村,细颗粒物(PM2.5),70,67,59,51,37,38,,67,58,34,17,5,5,0.8,0.7
2026-02-12T1400,1952A,84.8894,45.5827,克拉玛依市,南林小区,细颗粒物(PM2.5),64,73,58,46,35,34,,71,54,28,12,2,2,0.8,0.8
2026-02-12T1400,1954A,84.896,44.3328,克拉玛依市,独山子区,,26,16,72,10,41,83,,87,73,5,18,4,3,0.4,0.6
2026-02-12T1400,1955A,85.6888,46.0909,克拉玛依市,乌尔禾区商贸楼,细颗粒物(PM2.5),65,67,64,47,43,62,,67,65,16,14,8,9,0.8,0.8
2026-02-12T1400,3612A,85.1045,45.6895,克拉玛依市,白碱滩区新站,细颗粒物(PM2.5),75,72,58,55,44,62,,68,56,24,22,10,9,0.8,0.7
2026-02-12T1400,2697A,76.1457,39.7143,克孜勒苏柯尔克孜自治州,市人民政府,颗粒物(PM10),327,441,448,135,116,68,,56,53,14,11,4,4,0.6,0.4
2026-02-12T1400,3665A,76.1654,39.7157,克孜勒苏柯尔克孜自治州,克州文化中心,颗粒物(PM10),319,435,428,129,121,70,,57,43,18,15,6,5,0.9,0.7
2026-02-12T1400,1450A,102.8203,24.889,昆明市,呈贡新区,,27,17,29,14,17,84,,69,69,6,12,2,4,0.2,0.3
2026-02-12T1400,1452A,102.7253,25.0904,昆明市,龙泉镇,,27,6,30,3,16,84,,49,49,4,20,2,3,0.2,0.4
2026-02-12T1400,1453A,102.7267,25.0378,昆明市,东风东路,,29,19,25,3,14,91,,70,62,8,14,6,8,0.4,0.5
2026-02-12T1400,1454A,102.6744,25.0671,昆明市,金鼎山,,27,18,31,7,17,85,,52,52,6,17,2,4,0.3,0.4
2026-02-12T1400,1455A,102.6643,25.0401,昆明市,碧鸡广场,,28,18,29,8,16,88,,60,60,6,20,4,7,0.2,0.4
2026-02-12T1400,3179A,102.7491,25.012,昆明市,官渡区博物馆,,28,20,28,3,16,88,,63,63,6,16,4,5,0.2,0.4
2026-02-12T1400,3375A,102.8016,24.8336,昆明市,青年创业园,,28,12,24,3,16,88,,68,68,2,6,4,4,0.4,0.6
2026-02-12T1400,3550A,102.8,24.9787,昆明市,昆明学院,,30,17,26,3,14,93,,70,70,5,8,6,5,0.5,0.6
2026-02-12T1400,3551A,102.5969,24.6738,昆明市,晋宁区生态环境分局,,29,14,24,3,16,92,,82,82,1,5,1,1,0.3,0.4
2026-02-12T1400,3552A,102.6673,24.9861,昆明市,云天化总部,,29,16,24,3,12,90,,65,65,5,14,8,8,0.3,0.4
2026-02-12T1400,1456A,91.132,29.6515,拉萨市,八廓街,,38,17,16,7,9,119,,105,105,4,10,6,7,0.4,0.5
2026-02-12T1400,1457A,91.1221,29.6748,拉萨市,市环保局,,36,12,20,3,8,113,,100,100,6,12,6,7,0.3,0.4
2026-02-12T1400,1458A,91.0874,29.6476,拉萨市,区监测站,,,,12,5,7,114,,102,102,6,11,4,4,0.5,0.6
2026-02-12T1400,1459A,91.1774,29.6541,拉萨市,西藏大学,,36,9,13,3,7,115,,103,103,5,10,3,3,0.2,0.3
2026-02-12T1400,1460A,90.9798,29.6586,拉萨市,区辐射站,,37,10,28,6,15,117,,88,88,4,22,3,4,0.3,0.5
2026-02-12T1400,1461A,91.0831,29.6292,拉萨市,拉萨火车站,,36,7,10,3,6,114,,109,109,3,6,3,4,0.2,0.2
2026-02-12T1400,2520A,109.2203,23.7252,来宾市,来宾技工学校,,32,24,23,22,19,21,,32,25,13,13,4,4,1.0,1
2026-02-12T1400,3535A,109.1781,23.7293,来宾市,兴宾区政府,,28,21,26,19,17,26,,35,28,17,15,4,4,1.0,1
2026-02-12T1400,4002A,109.2312,23.7428,来宾市,中南小学,,32,27,27,22,20,21,,31,23,15,16,4,4,0.8,0.8
2026-02-12T1400,1479A,103.8309,36.0467,兰州市,铁路设计院,,,,,,,,,,,,,,,,
2026-02-12T1400,3241A,103.7439,36.0841,兰州市,百合公园,细颗粒物(PM2.5),80,90,100,59,52,57,,26,26,28,58,36,17,1.0,1.1
2026-02-12T1400,3242A,103.9613,35.9985,兰州市,和平,,,,103,,42,65,,51,38,29,27,29,15,1.4,1
2026-02-12T1400,4236A,103.629272,36.093822,兰州市,庄浪东路808号,细颗粒物(PM2.5),85,118,102,63,45,57,,47,33,48,43,42,22,1.1,0.9
2026-02-12T1400,4237A,103.7251,36.104344,兰州市,安宁西路88号,颗粒物(PM10),82,113,114,56,47,60,,31,31,34,50,48,22,1.1,0.9
2026-02-12T1400,4238A,103.846982,36.067567,兰州市,北滨河东路1号,颗粒物(PM10),74,98,101,53,42,39,,16,16,70,64,39,15,1.4,1.1
2026-02-12T1400,1067A,116.6712,39.5109,廊坊市,药材公司,细颗粒物(PM2.5),104,108,129,78,89,85,,38,38,22,38,6,5,0.7,0.8
2026-02-12T1400,1068A,116.7215,39.5592,廊坊市,开发区,细颗粒物(PM2.5),98,123,130,73,84,83,,36,36,32,50,5,5,0.7,0.8
2026-02-12T1400,1070A,116.7246,39.5273,廊坊市,北华航天学院,细颗粒物(PM2.5),104,122,132,78,89,86,,40,40,28,47,8,7,0.7,0.9
2026-02-12T1400,2919A,116.7022,39.5454,廊坊市,河北工业大学,颗粒物(PM10),94,137,136,65,83,85,,35,35,27,50,6,6,0.7,0.8
2026-02-12T1400,2536A,103.7629,29.5844,乐山市,牛耳桥,细颗粒物(PM2.5),63,58,71,45,44,94,,36,36,16,27,5,5,0.6,0.7
2026-02-12T1400,2537A,103.7501,29.6002,乐山市,市第三水厂,细颗粒物(PM2.5),63,69,71,45,43,94,,32,32,25,35,4,3,0.9,0.9
2026-02-12T1400,2538A,103.7571,29.5664,乐山市,市监测站,,,70,66,49,40,82,,37,37,,23,5,6,0.8,0.9
2026-02-12T1400,3361A,103.7313,29.563,乐山市,理工大学,细颗粒物(PM2.5),63,66,68,45,43,91,,35,35,13,19,3,3,0.7,0.7
2026-02-12T1400,2599A,100.2497,26.8802,丽江市,丽江古城,,28,25,25,3,13,89,,84,84,7,10,6,6,0.4,0.5
2026-02-12T1400,2600A,100.2203,26.8906,丽江市,市中心,,42,42,19,12,14,99,,89,89,8,11,5,6,0.3,0.3
2026-02-12T1400,1267A,119.9141,28.4513,丽水市,监测站大楼,,35,35,48,14,26,83,,45,45,6,10,5,6,0.4,0.5
2026-02-12T1400,1268A,119.93,28.4589,丽水市,莲都小学,,,22,50,11,26,82,,46,46,,11,/,/,/,/
2026-02-12T1400,1269A,119.8794,28.4232,丽水市,余庄前,,32,32,42,20,24,79,,38,38,7,9,4,4,0.5,0.5
2026-02-12T1400,1173A,119.1759,34.5885,连云港市,市环境监测站,颗粒物(PM10),89,127,149,53,120,119,,74,74,16,30,10,11,0.5,0.8
2026-02-12T1400,3000A,119.3577,34.6971,连云港市,德源药业,颗粒物(PM10),91,132,163,58,118,118,,62,62,12,31,7,8,0.6,1
2026-02-12T1400,3007A,119.178,34.8442,连云港市,新城一中,细颗粒物(PM2.5),85,112,152,63,128,124,,73,73,24,47,10,12,0.6,0.9
2026-02-12T1400,3008A,119.3607,34.7519,连云港市,胡沟管理处,细颗粒物(PM2.5),104,136,151,78,109,103,,70,50,22,41,11,14,0.6,0.8
2026-02-12T1400,3009A,119.1478,34.5913,连云港市,矿山设计院,颗粒物(PM10),87,124,154,48,110,114,,71,71,14,28,8,10,0.9,1.2
2026-02-12T1400,3434A,119.2414,34.6539,连云港市,工贸学校,细颗粒物(PM2.5),79,94,141,58,105,125,,95,95,17,24,12,14,0.7,1
2026-02-12T1400,3664A,119.4171,34.734,连云港市,连云街道,细颗粒物(PM2.5),89,113,152,66,104,126,,70,59,20,38,9,12,0.6,0.9
2026-02-12T1400,2573A,102.2629,27.8981,凉山彝族自治州,西昌市政府,,36,36,47,17,25,98,,55,55,7,14,12,10,0.8,0.9
2026-02-12T1400,2574A,102.2686,27.885,凉山彝族自治州,凉山州政府,,28,24,33,14,23,87,,44,44,7,17,13,10,0.7,0.9
2026-02-12T1400,4229A,102.2342,27.8859,凉山彝族自治州,凯乐南路30号,,29,26,43,12,23,90,,50,50,12,22,13,10,0.7,0.7
2026-02-12T1400,2212A,123.1978,41.2036,辽阳市,宏伟区,细颗粒物(PM2.5),72,74,66,52,43,98,,74,74,14,18,10,13,0.9,1.1
2026-02-12T1400,2213A,123.1684,41.2497,辽阳市,新华园,,,109,84,57,54,92,,55,55,26,33,9,23,,1.1
2026-02-12T1400,2214A,123.2355,41.2663,辽阳市,滨河路,细颗粒物(PM2.5),75,66,59,55,45,98,,70,70,18,24,10,14,1.1,1.2
2026-02-12T1400,4083A,123.153,41.2874,辽阳市,铁西路150号,细颗粒物(PM2.5),79,99,80,58,54,78,,50,49,27,31,13,21,1.1,1.3
2026-02-12T1400,2227A,125.1359,42.8845,辽源市,环保局,,,57,66,48,52,106,,56,56,13,34,10,7,,1.2
2026-02-12T1400,4085A,125.0998,42.9134,辽源市,安宁大街333号,细颗粒物(PM2.5),70,71,71,51,52,104,,53,53,10,29,12,8,0.9,1
2026-02-12T1400,1625A,115.9789,36.4372,聊城市,区政府,颗粒物(PM10),103,155,157,70,71,107,,74,74,16,20,16,16,0.8,0.8
2026-02-12T1400,3200A,115.9772,36.4986,聊城市,监控中心,颗粒物(PM10),109,168,163,77,70,118,,85,85,20,23,,14,0.6,0.9
2026-02-12T1400,3513A,116.0443,36.436,聊城市,九州社区,颗粒物(PM10),105,160,157,68,72,112,,80,80,5,8,6,7,0.7,0.7
2026-02-12T1400,4018A,116.0564,36.4609,聊城市,星美广场,颗粒物(PM10),108,165,161,68,71,112,,81,81,14,13,2,4,0.9,0.7
2026-02-12T1400,4113A,116.0091,36.4495,聊城市,利民路,颗粒物(PM10),93,136,140,65,64,116,,81,81,25,23,14,12,1.1,1
2026-02-12T1400,2632A,94.3683,29.6373,林芝市,林芝监测站,,29,12,12,3,10,92,,84,84,1,1,4,4,0.5,0.4
2026-02-12T1400,2633A,94.3616,29.6634,林芝市,林芝人民医院,,28,12,16,9,11,88,,85,85,2,2,5,5,0.4,0.4
2026-02-12T1400,2603A,100.0779,23.8981,临沧市,市环保局,,31,30,29,13,22,97,,53,53,2,8,5,5,0.5,0.6
2026-02-12T1400,2604A,100.0894,23.882,临沧市,市气象局,,29,29,38,15,24,92,,52,52,3,8,5,5,0.4,0.5
2026-02-12T1400,1733A,111.5552,36.0791,临汾市,临钢医院,颗粒物(PM10),96,141,98,70,41,81,,33,33,28,25,18,7,1.7,0.9
2026-02-12T1400,1734A,111.4984,36.0734,临汾市,技工学校,细颗粒物(PM2.5),97,140,103,72,49,80,,33,33,29,32,26,12,1.1,0.3
2026-02-12T1400,1736A,111.5017,36.0857,临汾市,市委,细颗粒物(PM2.5),102,146,103,76,41,80,,35,35,30,37,22,9,1.7,0.8
2026-02-12T1400,3018A,111.5048,36.1015,临汾市,唐尧大酒店,颗粒物(PM10),105,159,108,,38,84,,32,32,28,44,25,9,,1
2026-02-12T1400,4244A,111.4879,36.053,临汾市,启星学校,颗粒物(PM10),95,140,100,59,50,88,,34,34,33,45,25,9,1.8,0.8
2026-02-12T1400,4271A,103.2464,35.6123,临夏回族自治州,滨河东路1号,颗粒物(PM10),82,113,130,41,70,83,,36,36,13,23,15,9,0.7,1.3
2026-02-12T1400,4310A,103.207136,35.599807,临夏回族自治州,新华街21号,颗粒物(PM10),71,92,139,45,79,87,,35,35,14,31,16,12,0.6,1.5
2026-02-12T1400,1618A,118.3429,35.0532,临沂市,沂河小区,颗粒物(PM10),93,136,163,61,100,113,,78,78,17,33,14,19,0.5,0.8
2026-02-12T1400,1619A,118.2962,35.0568,临沂市,鲁南制药厂,颗粒物(PM10),91,132,164,57,108,106,,73,73,26,39,16,21,0.4,0.8
2026-02-12T1400,1620A,118.2793,34.9976,临沂市,新光毛纺厂,颗粒物(PM10),85,119,161,59,106,115,,74,74,13,35,13,22,0.6,0.9
2026-02-12T1400,1621A,118.3955,35.0889,临沂市,河东保险公司,颗粒物(PM10),92,134,162,66,110,123,,71,71,23,50,16,15,0.7,1.1
2026-02-12T1400,3370A,118.3563,35.0215,临沂市,十里堡居委,颗粒物(PM10),92,134,163,62,109,122,,81,81,21,40,13,22,0.7,1
2026-02-12T1400,3496A,118.359,35.1067,临沂市,南坊新区,颗粒物(PM10),93,136,149,61,92,119,,80,80,20,31,15,16,0.5,0.7
2026-02-12T1400,3860A,118.3915,35.0297,临沂市,皇山花园小区,"颗粒物(PM10),细颗粒物(PM2.5)",89,127,159,66,106,122,,84,84,20,36,16,21,0.7,0.9
2026-02-12T1400,1870A,109.4854,24.3898,柳州市,柳东小学,,28,20,19,19,16,29,,34,30,10,8,4,4,0.9,0.8
2026-02-12T1400,1871A,109.4109,24.3304,柳州市,环保监测站,,20,,18,14,14,28,,34,28,18,15,3,3,1.0,0.9
2026-02-12T1400,1872A,109.3886,24.3408,柳州市,河西水厂,,35,,22,24,17,29,,34,31,14,11,5,5,0.9,0.7
2026-02-12T1400,1873A,109.4263,24.2951,柳州市,市四中,,29,23,22,20,18,28,,31,24,13,13,6,6,1.0,0.8
2026-02-12T1400,1874A,109.396,24.3658,柳州市,市九中,,29,22,21,20,17,28,,30,29,11,10,8,8,1.0,0.9
2026-02-12T1400,1875A,109.4912,24.3164,柳州市,古亭山,,32,27,18,22,16,23,,32,23,17,12,6,6,0.9,0.9
2026-02-12T1400,3402A,109.5422,24.3994,柳州市,市二中,,22,18,17,15,15,28,,34,26,13,13,4,5,0.6,0.6
2026-02-12T1400,2307A,116.5078,31.7369,六安市,监测大楼,颗粒物(PM10),65,80,92,35,44,101,,74,74,9,15,4,4,0.3,0.4
2026-02-12T1400,2308A,116.4738,31.7642,六安市,皖西学院,颗粒物(PM10),67,83,100,25,40,112,,69,69,8,18,5,5,0.4,0.5
2026-02-12T1400,2309A,116.4997,31.7904,六安市,朝阳厂,,,74,91,32,42,102,,60,60,10,22,5,6,,0.5
2026-02-12T1400,2310A,116.5566,31.7885,六安市,开发区,颗粒物(PM10),65,80,114,26,50,114,,71,71,12,22,5,6,0.3,0.5
2026-02-12T1400,2577A,104.8293,26.592,六盘水市,黄土坡,细颗粒物(PM2.5),53,45,35,37,29,66,,35,35,18,18,13,8,1.2,1
2026-02-12T1400,2579A,104.8481,26.5898,六盘水市,民中,细颗粒物(PM2.5),57,42,37,40,30,67,,33,33,13,16,8,5,1.0,1
2026-02-12T1400,2580A,104.9541,26.5506,六盘水市,双水,,36,34,29,25,20,76,,40,40,12,13,9,6,0.7,0.8
2026-02-12T1400,4151A,104.8899,26.5685,六盘水市,钟山大道中段564号,,43,42,39,30,25,70,,37,37,9,11,9,7,1.0,1.1
2026-02-12T1400,2336A,117.022,25.1031,龙岩市,龙岩市监测站,,38,38,24,18,20,96,,45,45,7,9,7,7,0.7,0.8
2026-02-12T1400,2337A,117.0257,25.0662,龙岩市,闽西职业技术学院,,39,39,24,17,20,99,,45,45,6,10,5,6,0.7,0.8
2026-02-12T1400,2338A,117.0195,25.0306,龙岩市,龙岩学院,,32,31,24,18,18,100,,46,46,9,12,4,4,/,/
2026-02-12T1400,2885A,104.9344,33.3827,陇南市,滨江中学,细颗粒物(PM2.5),99,,79,74,43,72,,39,39,14,21,6,5,0.8,0.8
2026-02-12T1400,3247A,104.9551,33.3709,陇南市,市总工会,颗粒物(PM10),56,62,74,30,31,68,,42,40,15,16,4,3,0.8,0.7
2026-02-12T1400,2488A,111.9984,27.7346,娄底市,市监测站,细颗粒物(PM2.5),78,64,76,57,55,30,,16,16,14,25,3,3,0.7,0.8
2026-02-12T1400,2491A,111.9888,27.7035,娄底市,市政府,细颗粒物(PM2.5),77,58,75,56,50,30,,14,14,4,14,3,2,0.5,0.6
2026-02-12T1400,4127A,111.9812,27.7591,娄底市,涟钢职大,细颗粒物(PM2.5),57,54,76,40,47,31,,13,13,17,26,2,3,1.2,1.1
2026-02-12T1400,4128A,112.0303,27.7457,娄底市,娄底体校,细颗粒物(PM2.5),69,56,68,50,46,28,,13,13,5,10,2,2,0.8,0.5
2026-02-12T1400,1894A,105.4427,28.9063,泸州市,小市上码头,,,69,66,48,49,66,,44,44,17,23,5,5,,0.9
2026-02-12T1400,1895A,105.4241,28.8573,泸州市,兰田宪桥,细颗粒物(PM2.5),58,62,70,41,44,71,,49,49,13,22,9,8,0.8,0.8
2026-02-12T1400,1896A,105.4378,28.8833,泸州市,市环监站,细颗粒物(PM2.5),74,69,71,54,47,65,,40,40,17,27,6,7,0.7,0.7
2026-02-12T1400,4272A,105.3689,28.7783,泸州市,纳溪中医医院,细颗粒物(PM2.5),82,77,75,60,53,68,,46,46,11,21,8,8,0.6,0.7
2026-02-12T1400,2183A,111.1447,37.5212,吕梁市,环保局,颗粒物(PM10),80,109,89,31,27,54,,,,31,21,11,8,0.7,0.6
2026-02-12T1400,2185A,111.1285,37.5338,吕梁市,自来水公司,颗粒物(PM10),75,100,146,21,37,51,,29,29,32,36,10,12,0.7,0.5
2026-02-12T1400,2867A,111.1225,37.5093,吕梁市,马茂庄小学,颗粒物(PM10),83,115,108,28,27,47,,,,34,25,12,13,0.6,0.7
2026-02-12T1400,1812A,112.3934,34.6517,洛阳市,市委党校,颗粒物(PM10),95,139,142,51,66,82,,42,42,24,41,10,11,0.8,0.9
2026-02-12T1400,1815A,112.494,34.6883,洛阳市,河南林校,颗粒物(PM10),100,149,149,59,56,86,,51,51,33,48,18,15,0.7,0.7
2026-02-12T1400,1816A,112.3843,34.623,洛阳市,开发区管委会,颗粒物(PM10),102,153,154,49,54,91,,46,46,19,29,12,12,0.6,0.7
2026-02-12T1400,1817A,112.4263,34.6249,洛阳市,市委新办公区,颗粒物(PM10),91,132,150,54,55,90,,50,50,18,31,12,10,0.5,0.6
2026-02-12T1400,3340A,112.6005,34.6323,洛阳市,伊滨,颗粒物(PM10),101,152,153,50,55,98,,55,55,20,29,12,10,0.7,0.6
2026-02-12T1400,3341A,112.495,34.6338,洛阳市,中移产业园,颗粒物(PM10),91,132,136,64,59,90,,47,47,20,33,11,11,0.7,0.8
2026-02-12T1400,3593A,112.5736,34.8993,洛阳市,吉利监测站,颗粒物(PM10),88,126,116,24,34,109,,64,64,13,24,11,10,0.6,0.6
2026-02-12T1400,3635A,112.3678,34.6623,洛阳市,河科大西苑校区,颗粒物(PM10),101,152,154,56,60,91,,42,42,24,39,13,14,0.8,1.1
2026-02-12T1400,3636A,112.4387,34.678,洛阳市,英才小学,颗粒物(PM10),104,157,157,64,60,87,,40,40,34,54,15,16,1.0,1
2026-02-12T1400,4214A,112.460027,34.694929,洛阳市,春都路1号院,颗粒物(PM10),112,174,162,65,57,78,,32,32,34,46,16,14,0.8,0.9
2026-02-12T1400,2399A,114.051,33.5721,漯河市,三五一五工厂,颗粒物(PM10),89,127,146,43,48,109,,76,76,12,24,6,6,0.7,0.6
2026-02-12T1400,2400A,114.0055,33.5698,漯河市,漯河大学,,,,128,,47,108,,76,76,,19,7,7,0.5,0.7
2026-02-12T1400,2401A,114.0134,33.5826,漯河市,市水利局,颗粒物(PM10),81,112,136,48,50,112,,85,85,11,20,7,6,0.5,0.6
2026-02-12T1400,2402A,114.0261,33.5697,漯河市,市广电局,颗粒物(PM10),80,110,131,41,50,103,,78,78,11,20,8,7,0.5,0.5
2026-02-12T1400,3478A,113.9691,33.568,漯河市,市图书馆,颗粒物(PM10),84,118,144,40,49,104,,80,80,8,17,8,9,0.7,0.7
2026-02-12T1400,4250A,114.089259,33.588274,漯河市,韶山路11号,颗粒物(PM10),81,111,141,42,49,107,,76,76,12,26,8,7,0.5,0.5
2026-02-12T1400,1798A,118.5084,31.6838,马鞍山市,湖东路四小,颗粒物(PM10),70,90,137,29,75,108,,69,69,10,42,5,7,0.5,1
2026-02-12T1400,1799A,118.5019,31.6449,马鞍山市,开发区,颗粒物(PM10),72,94,140,34,77,113,,72,72,12,43,6,5,0.6,0.9
2026-02-12T1400,3633A,118.4914,31.681,马鞍山市,雨山,颗粒物(PM10),75,100,140,32,74,111,,73,73,9,39,6,7,0.7,1.1
2026-02-12T1400,4191A,118.527362,31.722269,马鞍山市,慈湖高新区,颗粒物(PM10),61,71,133,34,78,110,,66,66,11,41,5,7,0.5,0.8
2026-02-12T1400,1686A,111.0285,21.469,茂名市,电白南海,颗粒物(PM10),51,51,45,15,21,104,,74,74,10,15,8,9,0.9,0.9
2026-02-12T1400,1687A,110.9294,21.6533,茂名市,茂石化七小,,44,44,41,12,19,97,,73,73,4,9,5,6,0.3,0.4
2026-02-12T1400,1688A,110.9108,21.6688,茂名市,健康路,,35,34,33,12,17,110,,85,85,8,10,3,6,0.6,0.6
2026-02-12T1400,1689A,110.8592,21.6826,茂名市,高岭,颗粒物(PM10),52,53,50,16,22,110,,80,80,5,12,2,6,/,/
2026-02-12T1400,3450A,111.0101,21.5165,茂名市,电白水东,,41,41,34,13,20,106,,75,75,11,18,3,8,/,/
2026-02-12T1400,2540A,103.8414,30.0871,眉山市,气象局,细颗粒物(PM2.5),64,66,66,46,40,98,,34,34,14,22,15,9,0.9,0.7
2026-02-12T1400,3148A,103.829,30.0563,眉山市,区人社局,细颗粒物(PM2.5),69,67,66,50,41,86,,34,34,11,24,8,2,0.8,0.7
2026-02-12T1400,4148A,103.8836,30.0695,眉山市,眉职院,细颗粒物(PM2.5),64,70,64,46,38,96,,39,39,7,14,9,4,0.9,0.7
2026-02-12T1400,1690A,116.1248,24.3307,梅州市,梅江月梅,,30,18,16,14,11,96,,43,43,9,13,/,/,/,/
2026-02-12T1400,1691A,116.0798,24.2719,梅州市,梅县新城,,30,24,19,16,13,95,,44,44,11,14,8,7,0.6,0.6
2026-02-12T1400,3315A,116.1234,24.2994,梅州市,梅龙,,28,22,17,14,13,89,,41,41,8,12,8,8,0.7,0.7
2026-02-12T1400,1878A,104.7775,31.4741,绵阳市,富乐山,颗粒物(PM10),60,69,68,34,42,94,,36,36,12,18,9,8,0.7,0.8
2026-02-12T1400,1880A,104.6698,31.4668,绵阳市,高新区自来水公司,颗粒物(PM10),55,59,79,31,47,90,,31,31,13,35,7,7,0.8,1
2026-02-12T1400,3491A,104.6899,31.5324,绵阳市,西科大附属小学,细颗粒物(PM2.5),58,63,77,41,46,107,,47,47,13,25,9,8,0.4,0.7
2026-02-12T1400,3492A,104.5647,31.5343,绵阳市,安州区旅游局,,,43,78,28,48,100,,35,35,,29,5,13,0.5,1.1
2026-02-12T1400,4146A,104.7092,31.4972,绵阳市,科技城新区公安局,颗粒物(PM10),55,60,74,34,41,96,,52,52,22,26,5,5,0.8,0.8
2026-02-12T1400,4226A,104.765114,31.453094,绵阳市,绵阳市气象局,颗粒物(PM10),56,61,74,37,47,92,,30,30,14,27,4,7,0.3,0.6
2026-02-12T1400,1784A,129.61,44.561,牡丹江市,环保大楼,,28,23,44,3,28,89,,62,62,7,26,2,4,0.3,0.5
2026-02-12T1400,1787A,129.6364,44.6075,牡丹江市,机车工厂,,26,12,57,7,37,83,,48,48,8,30,8,7,0.4,0.7
2026-02-12T1400,1788A,129.6386,44.5462,牡丹江市,第一中学,,27,11,29,6,24,84,,64,64,6,18,4,6,0.4,0.6
2026-02-12T1400,4287A,129.5992,44.5964,牡丹江市,东晓云街98号,,27,22,59,7,38,86,,50,50,6,24,4,7,0.4,0.8
2026-02-12T1400,2531A,105.0703,29.61,内江市,市监测站,细颗粒物(PM2.5),64,,62,46,49,119,,65,65,16,23,6,6,0.6,0.7
2026-02-12T1400,2533A,105.0657,29.5807,内江市,内江二中,细颗粒物(PM2.5),69,57,68,50,47,96,,51,51,22,29,7,7,0.4,0.5
2026-02-12T1400,2534A,105.0407,29.5828,内江市,内江日报社,细颗粒物(PM2.5),68,55,54,49,43,100,,56,56,19,24,8,7,0.4,0.4
2026-02-12T1400,4147A,105.0433,29.6105,内江市,玉峰路西段888号,细颗粒物(PM2.5),55,39,55,39,46,117,,64,64,2,16,4,4,0.5,0.5
2026-02-12T1400,2628A,92.0653,31.4846,那曲市,那曲监测站,,,,31,,26,94,,58,55,5,15,9,11,0.6,1
2026-02-12T1400,4243A,92.0515,31.4787,那曲市,那曲市委宣传部,,33,,12,3,11,103,,67,67,2,6,6,7,0.5,0.7
2026-02-12T1400,1291A,115.8887,28.7006,南昌市,省林业公司,细颗粒物(PM2.5),90,105,112,67,65,84,,23,23,28,44,12,5,1.5,0.8
2026-02-12T1400,1292A,115.813,28.7443,南昌市,林科所,"颗粒物(PM10),细颗粒物(PM2.5)",84,117,93,62,40,81,,59,59,41,38,13,9,1.8,1
2026-02-12T1400,1294A,115.8518,28.687,南昌市,建工学校,细颗粒物(PM2.5),89,114,122,66,66,80,,32,32,28,48,10,7,0.9,0.6
2026-02-12T1400,1295A,115.8926,28.6425,南昌市,象湖,颗粒物(PM10),97,144,108,44,71,89,,39,39,16,38,9,8,0.9,1.2
2026-02-12T1400,3046A,115.9084,28.6062,南昌市,机电学校,颗粒物(PM10),76,102,126,49,75,94,,42,42,11,37,6,5,0.5,0.9
2026-02-12T1400,3690A,115.9718,28.7032,南昌市,外国语学校,颗粒物(PM10),72,93,115,51,81,89,,32,32,12,33,12,12,0.8,1.1
2026-02-12T1400,4106A,115.7923,28.6873,南昌市,工业二路,,,109,120,63,64,93,,42,42,,44,,5,0.9,0.9
2026-02-12T1400,4192A,115.931587,28.686774,南昌市,南京东路235号,颗粒物(PM10),82,114,133,59,84,86,,35,35,17,37,15,8,1.5,1.2
2026-02-12T1400,1906A,106.0791,30.8022,南充市,南充市委,,,53,64,34,45,88,,49,49,,22,,3,0.5,0.6
2026-02-12T1400,1907A,106.1038,30.8215,南充市,南充炼油厂,颗粒物(PM10),56,61,74,33,44,79,,36,36,19,32,6,5,0.5,0.5
2026-02-12T1400,4227A,106.108336,30.788436,南充市,梨树横街98号,颗粒物(PM10),56,62,70,37,48,84,,40,40,12,30,6,6,0.4,0.6
2026-02-12T1400,4304A,106.1172,30.843,南充市,清泉寺北路188号,,46,46,56,31,41,93,,51,51,10,19,5,6,0.5,0.6
2026-02-12T1400,4305A,106.067,30.7616,南充市,同庆路1号,颗粒物(PM10),60,70,65,42,45,71,,34,34,21,40,6,5,0.4,0.5
2026-02-12T1400,1151A,118.8033,32.1085,南京市,迈皋桥,颗粒物(PM10),65,80,107,39,68,110,,72,72,15,36,7,8,0.5,0.8
2026-02-12T1400,1152A,118.7487,32.057,南京市,草场门,颗粒物(PM10),75,100,121,46,68,75,,49,49,19,60,8,8,0.7,1
2026-02-12T1400,1154A,118.770105,32.004342,南京市,中华门,颗粒物(PM10),73,95,118,46,75,123,,71,71,13,35,4,4,0.6,0.8
2026-02-12T1400,1155A,118.8059,32.0329,南京市,瑞金路,颗粒物(PM10),71,92,118,39,76,121,,68,68,4,61,3,4,1.0,1.6
2026-02-12T1400,1156A,118.7946,32.0774,南京市,玄武湖,颗粒物(PM10),71,92,114,42,68,117,,82,82,8,41,1,3,0.8,1.1
2026-02-12T1400,1157A,118.6415,32.0964,南京市,浦口,,,104,124,42,70,106,,71,71,,30,9,6,0.8,0.7
2026-02-12T1400,1158A,118.730129,32.000956,南京市,奥体中心,颗粒物(PM10),76,102,127,45,74,121,,66,66,14,51,7,6,0.4,0.8
2026-02-12T1400,1159A,118.9072,32.1047,南京市,仙林大学城,颗粒物(PM10),74,97,120,26,73,116,,78,78,10,41,7,7,0.5,0.8
2026-02-12T1400,3422A,118.8443,31.919,南京市,江宁彩虹桥,颗粒物(PM10),78,106,125,37,69,131,,78,78,6,53,3,4,0.8,1
2026-02-12T1400,3427A,118.8497,32.3599,南京市,六合雄州,颗粒物(PM10),74,97,128,34,88,75,,36,36,12,50,4,1,0.8,0.8
2026-02-12T1400,4086A,118.7641,32.0841,南京市,新模范马路66号,,,107,130,40,72,100,,69,69,,66,3,4,0.6,0.9
2026-02-12T1400,4249A,118.8707617,31.34017673,南京市,汶溪路181号,颗粒物(PM10),63,75,128,17,62,103,,78,78,12,26,5,6,0.6,1
2026-02-12T1400,4312A,119.019,31.6512,南京市,中山西路1号,颗粒物(PM10),65,80,101,22,65,105,,62,62,12,29,4,4,0.7,1.1
2026-02-12T1400,1401A,108.3098,22.788,南宁市,二十一中,,50,36,24,35,21,21,,20,19,21,20,4,4,0.7,0.7
2026-02-12T1400,1402A,108.3135,22.8529,南宁市,北湖,细颗粒物(PM2.5),55,,27,39,25,19,,18,18,20,19,2,2,0.8,0.7
2026-02-12T1400,1403A,108.3205,22.8222,南宁市,市监测站,细颗粒物(PM2.5),59,,28,42,21,20,,22,17,22,20,5,6,0.9,0.7
2026-02-12T1400,1404A,108.3828,22.8038,南宁市,大自然花园,,49,40,19,34,18,25,,28,22,14,13,5,5,0.9,0.7
2026-02-12T1400,1406A,108.2397,22.8462,南宁市,区农职院,,35,31,26,24,19,18,,14,11,24,20,3,3,1.2,1
2026-02-12T1400,1407A,108.3285,22.7356,南宁市,英华嘉园,细颗粒物(PM2.5),53,43,26,37,20,22,,27,20,13,13,2,3,0.6,0.6
2026-02-12T1400,3401A,108.4829,22.762,南宁市,红星社区,,48,46,23,33,18,26,,37,25,11,9,3,4,0.9,0.8
2026-02-12T1400,4132A,108.2927,23.1477,南宁市,起凤路9号,,30,21,26,21,23,21,,27,23,16,12,2,2,0.7,0.6
2026-02-12T1400,4221A,108.2177,22.7774,南宁市,乐贤路16号,,48,,30,33,23,13,,11,6,24,25,1,2,1.0,1
2026-02-12T1400,2332A,118.1682,26.6371,南平市,南平市监测站,,48,48,40,24,21,82,,50,50,7,14,4,4,0.6,0.6
2026-02-12T1400,2334A,118.1757,26.6276,南平市,南平七中,颗粒物(PM10),53,56,32,21,17,84,,54,54,5,11,2,2,0.6,0.6
2026-02-12T1400,1168A,120.9056,31.9669,南通市,狼山街道,细颗粒物(PM2.5),97,122,102,72,75,132,,65,65,24,42,5,4,0.6,0.7
2026-02-12T1400,1170A,120.8635,32.0231,南通市,城中,细颗粒物(PM2.5),105,133,110,79,84,136,,79,79,18,43,8,6,0.9,0.8
2026-02-12T1400,1171A,120.9376,31.9301,南通市,星湖花园,细颗粒物(PM2.5),98,119,98,73,76,136,,83,83,25,34,8,6,0.7,0.7
2026-02-12T1400,1172A,120.8053,32.046,南通市,紫琅学院,细颗粒物(PM2.5),105,133,114,79,83,125,,60,60,21,49,9,6,,1
2026-02-12T1400,3291A,121.0631,32.0644,南通市,通州监测站,细颗粒物(PM2.5),85,117,99,63,76,136,,81,81,31,29,10,5,1.0,0.8
2026-02-12T1400,3432A,120.9348,31.9874,南通市,环境教育馆,,,112,97,74,75,114,,57,57,29,45,,5,,0.9
2026-02-12T1400,4091A,120.8692,31.9885,南通市,洪江路,细颗粒物(PM2.5),99,102,97,74,82,130,,71,71,20,43,8,6,0.8,0.8
2026-02-12T1400,2404A,112.5338,33.0086,南阳市,瓦房庄,颗粒物(PM10),90,129,116,36,46,101,,68,68,13,17,6,5,0.8,0.8
2026-02-12T1400,2405A,112.5002,32.9734,南阳市,汉画馆,细颗粒物(PM2.5),98,139,130,73,65,105,,64,64,14,21,6,5,0.8,0.8
2026-02-12T1400,2406A,112.5778,33.0144,南阳市,气象站,颗粒物(PM10),99,148,141,45,45,105,,70,70,12,18,7,6,0.8,0.8
2026-02-12T1400,2407A,112.548,32.9687,南阳市,理工学院,颗粒物(PM10),89,128,122,48,47,102,,66,66,11,18,8,7,0.7,0.7
2026-02-12T1400,4008A,112.5233,32.9921,南阳市,卧龙区政府,颗粒物(PM10),93,135,129,40,47,96,,61,61,12,20,8,6,0.7,0.7
2026-02-12T1400,1234A,121.8352,29.9111,宁波市,区环保大楼,颗粒物(PM10),64,78,130,42,83,126,,69,69,22,55,6,6,0.6,0.8
2026-02-12T1400,1235A,121.5595,29.8208,宁波市,万里学院,,,,105,,75,121,,69,69,,37,4,3,0.7,0.9
2026-02-12T1400,1236A,121.713,29.9564,宁波市,龙赛医院,细颗粒物(PM2.5),75,82,114,55,83,114,,65,65,34,48,9,5,1.0,1
2026-02-12T1400,1240A,121.5855,29.8635,宁波市,太古小学,颗粒物(PM10),60,69,111,42,73,125,,74,74,14,36,4,4,0.6,0.8
2026-02-12T1400,1241A,121.5239,29.8673,宁波市,市环境监测中心,细颗粒物(PM2.5),77,82,114,56,79,107,,68,68,11,35,3,3,0.8,1
2026-02-12T1400,2871A,121.6156,29.9015,宁波市,万里国际学校,颗粒物(PM10),56,62,104,36,77,126,,79,79,14,29,4,4,0.6,0.8
2026-02-12T1400,3710A,121.5593,29.8976,宁波市,白沙活动中心,细颗粒物(PM2.5),69,72,112,50,75,122,,78,78,18,35,5,4,0.5,0.7
2026-02-12T1400,4095A,121.8962,29.7529,宁波市,中科路88号,细颗粒物(PM2.5),113,88,104,85,82,121,,65,65,14,31,6,5,0.7,0.8
2026-02-12T1400,2341A,119.5387,26.6611,宁德市,宁德市监测站,颗粒物(PM10),55,60,38,37,33,113,,75,75,12,17,5,3,0.7,0.7
2026-02-12T1400,3209A,119.5231,26.6562,宁德市,宁德一中,细颗粒物(PM2.5),53,50,41,37,36,116,,75,75,14,16,4,4,0.6,0.4
2026-02-12T1400,2618A,98.859,25.8541,怒江傈僳族自治州,州监测站,,28,18,26,7,14,88,,60,60,5,7,6,6,0.4,0.4
2026-02-12T1400,2619A,98.8607,25.8168,怒江傈僳族自治州,泸水一中,,29,29,26,3,19,80,,49,49,6,13,4,4,0.5,0.6
2026-02-12T1400,1888A,101.6891,26.571,攀枝花市,弄弄坪,,29,20,68,16,34,91,,39,39,9,39,24,78,1.4,3.2
2026-02-12T1400,1889A,101.577,26.5914,攀枝花市,河门口,,28,27,38,15,21,89,,43,43,5,16,10,14,0.4,0.6
2026-02-12T1400,1891A,101.7365,26.4986,攀枝花市,仁和,,30,25,30,17,19,95,,57,57,9,15,10,10,0.7,0.7
2026-02-12T1400,2835A,101.7222,26.567,攀枝花市,四十中小,,45,45,41,15,24,86,,38,38,14,38,18,39,1.1,2.4
2026-02-12T1400,1604A,122.0303,41.1489,盘锦市,开发区,细颗粒物(PM2.5),149,120,96,114,89,83,,36,30,24,23,10,6,0.8,0.8
2026-02-12T1400,1605A,122.0486,41.0883,盘锦市,兴隆台,细颗粒物(PM2.5),149,,77,114,91,97,,39,39,32,38,12,7,0.8,0.8
2026-02-12T1400,1606A,121.8297,41.1026,盘锦市,新生街道,细颗粒物(PM2.5),159,,68,121,87,76,,40,40,,30,,7,1.2,0.9
2026-02-12T1400,1832A,113.3257,33.7423,平顶山市,新华旅馆,颗粒物(PM10),84,118,130,55,59,106,,75,75,15,23,7,6,0.3,0.3
2026-02-12T1400,1833A,113.2917,33.737,平顶山市,规划设计院,颗粒物(PM10),84,117,138,45,57,105,,68,68,6,15,8,7,0.5,0.5
2026-02-12T1400,1834A,113.182,33.7738,平顶山市,平顶山工学院,,,,123,,54,113,,82,82,9,14,8,9,0.4,0.5
2026-02-12T1400,3594A,112.8736,33.9068,平顶山市,石龙区,颗粒物(PM10),86,121,136,46,60,113,,77,77,12,13,7,6,0.6,0.7
2026-02-12T1400,4116A,113.284,33.7139,平顶山市,姚电大道23号,颗粒物(PM10),93,136,156,52,58,103,,82,82,7,20,6,5,0.4,0.6
2026-02-12T1400,2656A,106.6633,35.5338,平凉市,聚贤嘉苑,颗粒物(PM10),60,69,103,24,49,98,,67,67,7,17,7,7,0.3,0.6
2026-02-12T1400,2657A,106.7021,35.5307,平凉市,博物馆,颗粒物(PM10),61,71,110,29,46,97,,67,67,6,19,9,12,0.4,0.9
2026-02-12T1400,2348A,113.8384,27.6436,萍乡市,中医院,细颗粒物(PM2.5),84,87,89,62,57,27,,18,18,22,25,6,5,1.6,1.4
2026-02-12T1400,2350A,113.8677,27.6438,萍乡市,市环保局,细颗粒物(PM2.5),78,92,69,57,48,32,,22,22,23,29,5,10,1.2,1
2026-02-12T1400,2351A,113.8663,27.6202,萍乡市,安源区政府,细颗粒物(PM2.5),75,89,83,55,52,27,,15,15,19,23,4,8,1.1,1.2
2026-02-12T1400,4107A,113.8686,27.6668,萍乡市,联洪村委会,细颗粒物(PM2.5),79,75,66,58,45,25,,21,21,19,19,2,1,0.9,0.5
2026-02-12T1400,2319A,119.0142,25.4324,莆田市,荔城区仓后路,,47,47,48,32,24,125,,101,101,11,13,/,/,/,/
2026-02-12T1400,2320A,119.0016,25.4553,莆田市,莆田市监测站,,50,50,40,25,24,125,,101,101,10,10,2,2,0.5,0.5
2026-02-12T1400,2321A,119.112,25.4561,莆田市,涵江区六中,,43,43,48,23,26,120,,99,99,10,11,/,/,0.6,0.6
2026-02-12T1400,2322A,119.1014,25.3215,莆田市,秀屿区政府,,46,46,47,32,30,133,,114,114,10,10,4,3,0.7,0.7
2026-02-12T1400,2392A,115.0312,35.7636,濮阳市,环保局,颗粒物(PM10),92,134,123,56,48,93,,63,62,18,18,9,8,0.6,0.5
2026-02-12T1400,3021A,115,35.7667,濮阳市,濮水河管理处,颗粒物(PM10),100,150,136,64,53,100,,65,65,15,17,11,8,0.8,0.7
2026-02-12T1400,4118A,115.0552,35.7816,濮阳市,中原东路68号,颗粒物(PM10),105,160,147,59,49,96,,64,64,22,22,10,8,0.7,0.6
2026-02-12T1400,4216A,115.0923632,35.76857718,濮阳市,任丘路479号,颗粒物(PM10),100,149,135,72,55,94,,58,58,25,23,12,8,0.6,0.5
2026-02-12T1400,2601A,100.9801,22.7634,普洱市,市环保局,颗粒物(PM10),51,51,58,10,22,98,,,,6,8,5,4,0.4,0.5
2026-02-12T1400,2602A,100.9763,22.8237,普洱市,普洱第二中学,,32,29,58,17,32,100,,50,50,4,22,5,5,0.5,0.7
2026-02-12T1400,3345A,131.0413,45.7795,七台河市,中波台,,27,21,37,7,27,84,,72,72,5,16,7,10,0.1,0.5
2026-02-12T1400,3637A,131.0136,45.7688,七台河市,人民广场,,33,33,49,11,28,83,,71,71,10,23,9,10,0.4,0.5
2026-02-12T1400,3684A,130.8639,45.8144,七台河市,新建矿广场,,27,27,48,17,32,80,,63,63,11,17,7,5,0.2,0.3
2026-02-12T1400,1779A,123.9307,47.3641,齐齐哈尔市,安居小区,,35,35,60,9,31,74,,54,54,12,25,11,14,0.4,0.6
2026-02-12T1400,1780A,123.9497,47.3389,齐齐哈尔市,中心广场,,35,29,47,24,30,78,,50,50,10,25,6,9,0.5,0.8
2026-02-12T1400,1781A,123.9483,47.3229,齐齐哈尔市,农牧车辆厂,,36,36,54,12,28,78,,48,48,6,27,4,7,0.2,0.7
2026-02-12T1400,1783A,123.9442,47.2994,齐齐哈尔市,市环境监测站,,31,31,55,18,31,84,,55,55,5,19,3,7,0.3,0.6
2026-02-12T1400,3662A,123.6341,47.2079,齐齐哈尔市,富区青少年活动中心,颗粒物(PM10),59,67,81,22,44,73,,53,53,16,25,11,12,1.3,1.2
2026-02-12T1400,2591A,107.9765,26.5724,黔东南苗族侗族自治州,市环境监测站,细颗粒物(PM2.5),53,50,40,37,30,31,,40,32,11,9,3,3,0.8,0.7
2026-02-12T1400,2881A,107.8909,26.531,黔东南苗族侗族自治州,凯里学院,,50,,40,35,29,40,,46,41,11,11,3,3,0.7,0.6
2026-02-12T1400,2593A,107.5223,26.2371,黔南布依族苗族自治州,小围寨,,,,21,,18,26,,23,23,11,6,,6,1.0,0.9
2026-02-12T1400,3538A,107.5175,26.2977,黔南布依族苗族自治州,沙坝,,36,29,27,25,19,34,,36,29,8,7,5,5,0.7,0.7
2026-02-12T1400,2589A,104.9022,25.0943,黔西南布依族苗族自治州,场坝街,,29,,22,20,14,25,,28,23,9,8,4,3,0.8,0.7
2026-02-12T1400,2590A,104.8812,25.0994,黔西南布依族苗族自治州,坪东大道,,,,26,,15,25,,29,23,8,8,5,5,0.9,0.9
2026-02-12T1400,2502A,108.6238,21.9667,钦州市,市环保站,颗粒物(PM10),75,100,43,35,22,28,,21,16,21,13,2,2,1.0,0.7
2026-02-12T1400,2503A,108.655,21.9481,钦州市,沙埠小学,颗粒物(PM10),62,73,35,23,20,33,,24,17,16,15,4,3,0.7,0.6
2026-02-12T1400,2504A,108.5989,21.7435,钦州市,港区一小,,,,41,29,23,36,,17,17,21,23,3,2,0.7,0.6
2026-02-12T1400,3404A,108.5959,21.9634,钦州市,北职校,颗粒物(PM10),51,51,30,24,17,29,,23,17,13,13,2,2,0.9,0.8
2026-02-12T1400,1046A,119.5247,39.9346,秦皇岛市,建设大厦,细颗粒物(PM2.5),142,151,138,108,90,56,,45,43,53,44,21,18,1.7,1.4
2026-02-12T1400,3132A,119.5979,39.938,秦皇岛市,文明里,细颗粒物(PM2.5),115,141,142,87,90,50,,32,28,67,61,23,19,1.4,1.3
2026-02-12T1400,4066A,119.7458,39.9952,秦皇岛市,南园路157号,细颗粒物(PM2.5),124,143,138,94,91,64,,35,35,57,59,27,15,1.9,1.3
2026-02-12T1400,4067A,119.5131,39.8858,秦皇岛市,翠岛大街1号,细颗粒物(PM2.5),109,125,127,82,96,51,,36,36,44,47,19,21,1.1,1.5
2026-02-12T1400,4198A,119.509013,39.825305,秦皇岛市,北戴河轮滑馆,细颗粒物(PM2.5),107,156,149,80,96,58,,40,40,48,54,22,18,0.8,1.5
2026-02-12T1400,1310A,120.404,36.0625,青岛市,市南区东部子站,细颗粒物(PM2.5),175,153,130,132,101,111,,76,76,25,26,11,10,0.9,0.8
2026-02-12T1400,1311A,120.362344,36.10282,青岛市,四方区子站,细颗粒物(PM2.5),150,149,131,115,103,124,,78,78,27,30,10,7,1.2,1.1
2026-02-12T1400,1312A,120.294373,36.054183,青岛市,市南区西部子站,细颗粒物(PM2.5),170,129,136,129,124,103,,68,68,29,34,6,6,1.0,1
2026-02-12T1400,1313A,120.4581,36.0858,青岛市,崂山区子站,细颗粒物(PM2.5),166,158,117,126,87,108,,79,79,32,29,12,10,1.0,0.8
2026-02-12T1400,1315A,120.3945,36.3083,青岛市,城阳区子站,细颗粒物(PM2.5),128,156,130,97,96,132,,80,80,29,41,12,11,1.1,1.1
2026-02-12T1400,3642A,120.3454,36.0735,青岛市,市北区南部,细颗粒物(PM2.5),159,171,133,121,109,115,,76,76,23,25,4,3,1.0,1
2026-02-12T1400,3643A,120.3897,36.18,青岛市,李沧区北部,细颗粒物(PM2.5),128,149,122,97,95,125,,80,80,34,41,13,11,1.0,1
2026-02-12T1400,4110A,120.5222,36.4089,青岛市,盟旺路653号,细颗粒物(PM2.5),107,147,128,80,81,131,,102,102,19,27,8,8,1.1,1.1
2026-02-12T1400,4290A,120.196923,35.954556,青岛市,珠江路669号,细颗粒物(PM2.5),135,132,129,103,106,118,,76,73,21,22,12,9,0.8,0.8
2026-02-12T1400,4291A,120.0424,35.8656,青岛市,黄岛区人民政府广场,细颗粒物(PM2.5),147,134,142,112,115,106,,50,50,34,40,10,9,0.9,1.1
2026-02-12T1400,1703A,113.0218,23.7086,清远市,凤城街办,,26,25,21,18,16,48,,29,29,17,17,/,/,/,/
2026-02-12T1400,3025A,113.0479,23.6343,清远市,技师学院,,28,28,22,19,15,47,,34,34,19,17,4,4,0.6,0.6
2026-02-12T1400,3318A,112.9898,23.7403,清远市,清新太和,,24,24,20,16,14,44,,27,27,21,16,10,10,0.7,0.8
2026-02-12T1400,3455A,113.076,23.72,清远市,清城东城,,30,30,20,18,15,46,,34,34,26,20,/,/,/,/
2026-02-12T1400,2661A,107.6325,35.7357,庆阳市,庆阳五中,颗粒物(PM10),67,84,121,30,44,93,,85,85,9,15,5,7,0.4,0.6
2026-02-12T1400,2662A,107.6361,35.7067,庆阳市,市环保局,颗粒物(PM10),70,90,122,37,45,92,,85,85,8,11,4,5,0.3,0.6
2026-02-12T1400,1916A,103.7897,25.5036,曲靖市,环境监测站,,31,,25,6,12,98,,81,81,4,8,4,4,0.2,0.3
2026-02-12T1400,1917A,103.8013,25.5357,曲靖市,烟厂办公区,,30,14,26,3,12,93,,69,69,3,9,4,4,0.2,0.3
2026-02-12T1400,3376A,103.7926,25.4651,曲靖市,南苑二区,,27,14,20,3,13,86,,74,74,10,10,4,4,0.2,0.3
2026-02-12T1400,3377A,103.7442,25.5259,曲靖市,曲靖师范学院,,30,6,28,3,18,95,,79,79,3,8,2,4,0.2,0.3
2026-02-12T1400,1264A,118.8694,28.94,衢州市,环保大楼,颗粒物(PM10),64,77,82,40,41,101,,55,55,17,30,/,/,/,/
2026-02-12T1400,1266A,118.8622,28.9809,衢州市,衢州学院,"颗粒物(PM10),细颗粒物(PM2.5)",57,64,78,40,41,102,,52,52,10,26,6,6,0.4,0.5
2026-02-12T1400,4097A,118.9646,28.9832,衢州市,衢州三中,颗粒物(PM10),58,66,79,36,41,103,,48,48,8,25,6,5,0.6,0.7
2026-02-12T1400,1611A,118.5818,24.9116,泉州市,涂山街,颗粒物(PM10),51,52,50,31,24,110,,95,95,11,12,4,4,0.5,0.6
2026-02-12T1400,1612A,118.597,24.8976,泉州市,津头埔,颗粒物(PM10),51,52,51,30,25,108,,92,92,12,13,3,3,0.4,0.5
2026-02-12T1400,1613A,118.6669,24.9422,泉州市,万安,颗粒物(PM10),52,54,52,30,22,105,,87,87,10,12,4,4,0.5,0.5
2026-02-12T1400,4105A,118.6355,24.9148,泉州市,霞新路6号,颗粒物(PM10),51,51,43,27,24,115,,95,95,9,13,/,/,0.6,0.6
2026-02-12T1400,2626A,88.8873,29.2723,日喀则市,日喀则监测站,,39,10,27,3,9,123,,88,79,3,17,10,14,0.3,0.6
2026-02-12T1400,3726A,88.8775,29.2425,日喀则市,林业技术推广中心,,35,7,28,3,4,111,,89,86,3,4,10,10,0.2,0.2
2026-02-12T1400,1659A,119.4711,35.421,日照市,监测站,细颗粒物(PM2.5),145,178,181,111,145,97,,42,42,43,62,18,14,1.4,1.7
2026-02-12T1400,1660A,119.523,35.4216,日照市,市政府广场,细颗粒物(PM2.5),163,195,182,124,143,86,,44,44,56,61,22,18,1.4,1.3
2026-02-12T1400,1661A,119.5511,35.4113,日照市,港务局,细颗粒物(PM2.5),179,263,198,135,143,80,,34,34,55,66,13,15,1.1,1.6
2026-02-12T1400,3507A,119.5326,35.4627,日照市,职业技术学院,细颗粒物(PM2.5),144,190,179,110,136,97,,55,55,52,55,19,14,1.6,1.6
2026-02-12T1400,3604A,119.3267,35.1043,日照市,岚山环保分局,细颗粒物(PM2.5),145,168,178,111,131,102,,67,67,38,48,15,17,1.0,1.4
2026-02-12T1400,1835A,111.1922,34.7752,三门峡市,市政府,颗粒物(PM10),116,181,136,62,43,84,,37,37,25,28,13,13,0.5,0.5
2026-02-12T1400,1836A,111.1588,34.794,三门峡市,开发区,颗粒物(PM10),120,189,161,81,50,89,,45,45,28,26,14,10,0.7,0.6
2026-02-12T1400,3039A,111.1911,34.7829,三门峡市,三门峡市第一小学,颗粒物(PM10),125,199,150,82,52,87,,43,42,30,26,17,16,0.7,0.6
2026-02-12T1400,3598A,111.1031,34.719,三门峡市,富达温泉假日酒店,颗粒物(PM10),119,187,152,76,58,103,,44,44,28,24,15,13,0.8,0.7
2026-02-12T1400,2324A,117.621,26.2626,三明市,三钢,,29,27,29,20,29,49,,27,27,7,14,5,6,0.5,0.5
2026-02-12T1400,2325A,117.6352,26.2714,三明市,三明二中,,31,31,26,20,20,49,,26,26,9,14,5,5,0.5,0.5
2026-02-12T1400,2326A,117.6028,26.2377,三明市,三元区政府,,29,29,25,20,21,48,,26,26,13,15,10,4,1.2,0.7
2026-02-12T1400,1877A,109.4962,18.2682,三亚市,河西子站,,30,21,24,10,10,95,,86,86,3,4,2,1,0.3,0.3
2026-02-12T1400,3540A,109.7348,18.3443,三亚市,君悦子站,,29,29,30,12,11,92,,76,76,3,5,3,3,0.4,0.4
2026-02-12T1400,4135A,109.1714,18.3739,三亚市,城东小学站,,33,20,20,12,12,105,,69,69,5,8,/,/,/,/
2026-02-12T1400,2624A,91.7592,29.234,山南市,山南监测站,,34,14,20,3,10,107,,79,74,2,4,4,4,0.3,0.4
2026-02-12T1400,2625A,91.7701,29.2436,山南市,山南人民医院,,34,13,25,3,8,107,,78,76,2,4,8,9,0.4,0.4
2026-02-12T1400,1674A,116.6795,23.3666,汕头市,金平子站,颗粒物(PM10),58,66,40,30,19,141,,92,92,8,11,5,5,0.7,0.7
2026-02-12T1400,1675A,116.7248,23.3632,汕头市,龙湖子站,颗粒物(PM10),56,61,40,29,20,132,,90,90,8,10,10,10,/,/
2026-02-12T1400,1676A,116.7257,23.2774,汕头市,濠江子站,颗粒物(PM10),55,59,42,30,19,131,,93,93,13,14,8,8,/,/
2026-02-12T1400,1677A,116.7518,23.4712,汕头市,澄海子站,颗粒物(PM10),60,69,39,27,21,126,,85,85,8,10,8,7,0.7,0.6
2026-02-12T1400,1678A,116.6088,23.2539,汕头市,潮阳子站,颗粒物(PM10),53,55,36,30,20,132,,91,91,9,10,6,6,0.6,0.6
2026-02-12T1400,3444A,116.4539,23.2684,汕头市,潮南峡山,,,61,38,32,20,,,83,83,8,9,7,6,0.7,0.6
2026-02-12T1400,3624A,116.4069,23.2533,汕头市,潮南子站,颗粒物(PM10),64,77,45,33,22,125,,81,81,8,9,7,6,/,/
2026-02-12T1400,1693A,115.3653,22.7751,汕尾市,市环保局,颗粒物(PM10),54,57,35,27,20,114,,89,89,10,9,5,5,0.7,0.7
2026-02-12T1400,1695A,115.362,22.7926,汕尾市,新城中学,颗粒物(PM10),55,60,34,28,22,112,,87,87,9,9,6,5,0.7,0.6
2026-02-12T1400,2645A,109.9155,33.8714,商洛市,监测站,颗粒物(PM10),65,80,138,36,49,98,,58,58,9,19,4,6,0.5,0.6
2026-02-12T1400,3045A,109.9647,33.8486,商洛市,商州区中学,颗粒物(PM10),80,110,138,31,41,102,,57,57,8,16,5,6,0.6,0.6
2026-02-12T1400,2408A,115.6701,34.4283,商丘市,环境监测站,颗粒物(PM10),99,148,150,50,62,113,,82,82,10,17,5,7,0.4,0.5
2026-02-12T1400,2409A,115.6458,34.4047,商丘市,粮食局,颗粒物(PM10),90,130,134,52,60,107,,82,82,14,18,2,4,0.4,0.5
2026-02-12T1400,3171A,115.6069,34.4465,商丘市,梁园区档案局,颗粒物(PM10),94,137,142,44,58,114,,84,84,10,14,2,4,0.5,0.5
2026-02-12T1400,4119A,115.6701,34.3767,商丘市,北海东路185号,颗粒物(PM10),88,125,153,43,60,113,,78,78,10,22,4,4,0.5,0.5
2026-02-12T1400,4120A,115.6172,34.3704,商丘市,中山大街3号,颗粒物(PM10),94,138,167,45,66,111,,75,75,14,25,2,4,0.4,0.5
2026-02-12T1400,1141A,121.401,31.2382,上海市,普陀,细颗粒物(PM2.5),84,92,96,62,78,136,,91,91,23,39,9,7,0.8,0.9
2026-02-12T1400,1142A,121.4774,31.2043,上海市,十五厂,细颗粒物(PM2.5),97,103,102,72,85,140,,83,83,20,43,9,8,0.9,0.9
2026-02-12T1400,1143A,121.4673,31.3011,上海市,虹口,细颗粒物(PM2.5),99,98,96,74,81,125,,74,74,24,45,6,5,0.3,0.5
2026-02-12T1400,1147A,121.4253,31.226,上海市,静安监测站,细颗粒物(PM2.5),92,95,94,68,75,141,,94,94,24,38,9,8,0.7,0.8
2026-02-12T1400,1148A,121.7029,31.1905,上海市,浦东川沙,细颗粒物(PM2.5),112,116,111,84,91,139,,79,79,22,53,10,9,0.8,0.8
2026-02-12T1400,1149A,121.5339,31.229,上海市,浦东新区监测站,细颗粒物(PM2.5),103,101,103,77,91,142,,82,82,18,40,8,7,0.9,0.9
2026-02-12T1400,1150A,121.5776,31.2038,上海市,浦东张江,,,105,107,72,86,149,,78,78,29,52,,8,0.5,0.6
2026-02-12T1400,3265A,121.4242,31.3303,上海市,宝山庙行,,,104,103,68,82,126,,80,80,,44,10,9,0.7,0.8
2026-02-12T1400,3266A,121.8789,31.4662,上海市,崇明上实东滩,细颗粒物(PM2.5),115,109,85,87,69,138,,80,80,14,15,6,4,0.8,0.8
2026-02-12T1400,3268A,121.316,31.2839,上海市,嘉定南翔,细颗粒物(PM2.5),102,98,100,76,85,124,,81,81,24,45,6,5,0.8,0.9
2026-02-12T1400,3269A,121.3357,30.7455,上海市,金山新城,细颗粒物(PM2.5),113,92,103,85,96,140,,90,90,24,24,8,6,1.0,1
2026-02-12T1400,3270A,121.4996,31.0741,上海市,闵行浦江,细颗粒物(PM2.5),102,97,100,76,86,149,,83,83,20,42,10,7,0.7,0.7
2026-02-12T1400,3271A,121.2886,31.1663,上海市,青浦徐泾,细颗粒物(PM2.5),102,108,108,76,88,151,,87,87,20,41,7,6,0.8,0.8
2026-02-12T1400,3272A,121.2193,31.0382,上海市,松江图书馆,细颗粒物(PM2.5),94,102,116,70,93,145,,81,81,13,37,8,7,0.8,0.8
2026-02-12T1400,3273A,121.3904,31.206,上海市,长宁仙霞,细颗粒物(PM2.5),82,90,92,60,75,136,,91,91,22,34,10,8,1.1,1.2
