timepoint,stationcode,longitude,latitude,area,positionname,primarypollutant,aqi,pm10,pm10_24h,pm2_5,pm2_5_24h,o3,o3_24h,o3_8h,o3_8h_24h,no2,no2_24h,so2,so2_24h,co,co_24h
2024-03-31T1500,2566A,102.1879,31.914,阿坝藏族羌族自治州,州农科所,,10,5,17,4,8,32,,22,22,3,7,3,3,0.2,0.2
2024-03-31T1500,2568A,102.2502,31.8896,阿坝藏族羌族自治州,马师校,,35,5,12,5,12,109,,78,78,5,9,3,3,0.3,0.3
2024-03-31T1500,3994A,102.2165,31.9024,阿坝藏族羌族自治州,马尔康中学西区,,34,,16,7,11,106,,77,77,4,6,4,4,0.3,0.3
2024-03-31T1500,2695A,80.292,41.1694,阿克苏地区,电视台,颗粒物(PM10),70,89,148,14,28,106,,92,92,4,6,4,5,0.4,0.4
2024-03-31T1500,2696A,80.2613,41.1551,阿克苏地区,艺术中心,颗粒物(PM10),68,86,143,24,30,100,,89,89,9,11,4,4,0.6,0.6
2024-03-31T1500,2204A,105.6467,38.8363,阿拉善盟,西城区西花园,颗粒物(PM10),56,61,56,16,18,139,,122,122,5,8,9,9,0.8,0.7
2024-03-31T1500,2205A,105.6985,38.8411,阿拉善盟,蒙二幼,,,12,54,4,18,118,,108,108,,7,10,8,,0.4
2024-03-31T1500,2206A,105.724,38.8516,阿拉善盟,环保局新楼,颗粒物(PM10),60,69,55,19,18,123,,116,116,6,5,7,7,0.3,0.3
2024-03-31T1500,2708A,88.1264,47.8517,阿勒泰地区,市站,,29,18,14,3,5,90,,99,98,2,6,4,5,0.1,0.2
2024-03-31T1500,2630A,80.1161,32.5,阿里地区,阿里监测站,,41,41,16,8,5,110,,101,101,2,3,9,10,0.4,0.4
2024-03-31T1500,3192A,80.0903,32.5028,阿里地区,阿里藏医院,,36,33,20,7,6,113,,103,103,2,4,8,9,0.5,0.5
2024-03-31T1500,2642A,109.0318,32.6537,安康市,香溪洞,颗粒物(PM10),54,58,39,19,22,128,,65,65,11,15,6,9,0.3,0.4
2024-03-31T1500,2643A,109.0281,32.6939,安康市,安康市监测站,,40,32,53,14,28,127,,68,68,6,21,8,11,0.5,0.7
2024-03-31T1500,2644A,109.0072,32.6975,安康市,汉滨区检察院,,41,33,43,18,23,131,,68,68,6,15,10,11,0.4,0.5
2024-03-31T1500,2291A,117.0809,30.5177,安庆市,环科院,颗粒物(PM10),62,74,63,39,41,167,,110,110,17,47,10,10,0.8,0.8
2024-03-31T1500,2292A,117.0331,30.5119,安庆市,马山宾馆,臭氧1小时,67,68,63,39,41,173,,116,116,8,34,8,10,0.8,0.7
2024-03-31T1500,2294A,116.9896,30.6145,安庆市,安庆大学,臭氧1小时,80,86,72,42,42,184,,129,129,19,26,12,10,0.5,0.4
2024-03-31T1500,3173A,117.0598,30.5351,安庆市,市人大,臭氧1小时,75,86,69,44,44,180,,118,118,14,37,10,8,0.8,0.8
2024-03-31T1500,3123A,105.9408,26.2431,安顺市,凤凰山,,46,42,45,32,36,137,,109,109,7,13,14,12,0.6,0.6
2024-03-31T1500,3124A,105.9439,26.2564,安顺市,金钟山,,50,42,46,35,36,139,,114,114,6,10,12,10,0.6,0.6
2024-03-31T1500,3125A,105.8983,26.2481,安顺市,娄家坡,,50,43,50,35,38,135,,110,110,5,10,12,11,0.4,0.5
2024-03-31T1500,1819A,114.3551,36.1017,安阳市,红庙街,颗粒物(PM10),89,127,125,55,45,150,,110,110,16,31,9,10,0.6,0.7
2024-03-31T1500,1820A,114.361,36.0681,安阳市,银杏小区,细颗粒物(PM2.5),88,118,120,65,49,152,,110,110,10,31,10,14,0.7,0.6
2024-03-31T1500,3141A,114.3922,36.0878,安阳市,信访局,颗粒物(PM10),92,134,127,67,54,156,,112,112,12,41,9,8,0.4,0.4
2024-03-31T1500,3669A,114.4705,36.0637,安阳市,左辅环卫站,颗粒物(PM10),83,116,114,54,47,140,,100,100,15,41,9,8,0.4,0.4
2024-03-31T1500,3703A,114.2917,36.0949,安阳市,安钢职工学校,颗粒物(PM10),101,152,141,57,55,143,,102,102,20,35,10,10,1.2,1.1
2024-03-31T1500,1748A,123.044,41.1196,鞍山市,深沟寺,细颗粒物(PM2.5),109,156,120,82,43,102,,80,80,41,26,24,12,1.6,0.9
2024-03-31T1500,1749A,123.011,41.0931,鞍山市,太阳城,,,99,102,51,35,,,73,73,25,29,,17,1.2,1.3
2024-03-31T1500,1750A,123.0485,41.1442,鞍山市,太平,颗粒物(PM10),103,156,147,70,47,102,,71,71,39,38,20,11,1.4,1.1
2024-03-31T1500,1751A,122.9642,41.0971,鞍山市,铁西三道街,颗粒物(PM10),85,120,131,57,46,113,,79,79,29,42,14,18,0.8,1
2024-03-31T1500,1752A,122.9341,41.0833,鞍山市,铁西工业园区,颗粒物(PM10),81,112,142,57,55,112,,81,81,27,42,15,13,0.8,1.1
2024-03-31T1500,1753A,123.022,41.0821,鞍山市,明达新区,颗粒物(PM10),81,112,100,48,31,104,,76,76,28,32,24,16,0.9,1.1
2024-03-31T1500,2195A,107.4212,40.761,巴彦淖尔市,附二中,,45,45,68,20,25,123,,74,74,5,23,7,18,0.4,0.4
2024-03-31T1500,2196A,107.37,40.7372,巴彦淖尔市,市环保大楼,,43,43,72,22,28,121,,74,74,6,24,7,34,0.4,0.4
2024-03-31T1500,1956A,86.1472,41.7538,巴音郭楞蒙古自治州,孔雀公园,颗粒物(PM10),65,80,82,18,18,89,,86,80,3,12,5,6,0.2,0.3
2024-03-31T1500,1957A,86.1972,41.7166,巴音郭楞蒙古自治州,棉纺厂,颗粒物(PM10),65,79,92,6,19,84,,75,73,5,15,2,3,0.4,0.3
2024-03-31T1500,1958A,86.2357,41.7173,巴音郭楞蒙古自治州,经济开发区,细颗粒物(PM2.5),54,46,106,38,17,89,,,,4,5,5,5,0.4,0.4
2024-03-31T1500,2914A,106.7677,31.8794,巴中市,苏山坪,,36,23,54,12,34,114,,87,87,5,12,3,4,0.4,0.5
2024-03-31T1500,3182A,106.7656,31.8545,巴中市,丽阳花园,,36,21,55,15,34,114,,67,67,8,28,3,4,0.3,0.6
2024-03-31T1500,3183A,106.7418,31.8654,巴中市,圣泉水务公司,,36,20,46,14,32,115,,69,69,7,34,4,5,0.4,0.6
2024-03-31T1500,3616A,106.7616,31.8344,巴中市,市中心医院,,37,23,56,14,35,116,,68,68,4,26,5,5,0.4,0.6
2024-03-31T1500,2235A,122.7911,45.6077,白城市,洮北区环保局,颗粒物(PM10),66,82,60,37,29,109,,99,99,9,9,3,4,0.4,0.4
2024-03-31T1500,2236A,122.8738,45.5725,白城市,市环保局,细颗粒物(PM2.5),72,88,55,52,28,99,,88,88,10,12,4,4,0.6,0.5
2024-03-31T1500,2231A,126.4219,41.9171,白山市,喜丰,颗粒物(PM10),56,61,97,10,16,102,,83,83,4,13,12,13,0.7,0.8
2024-03-31T1500,2232A,126.4077,41.9419,白山市,环保局,,49,49,94,13,19,102,,80,80,3,9,10,10,0.6,0.6
2024-03-31T1500,2647A,104.1724,36.5446,白银市,第三小学,颗粒物(PM10),74,97,153,35,52,115,,94,94,10,31,31,78,0.6,0.9
2024-03-31T1500,2648A,104.1465,36.5482,白银市,动力公司,颗粒物(PM10),71,91,130,27,45,121,,99,99,13,22,46,49,0.4,0.7
2024-03-31T1500,2512A,106.6103,23.9011,百色市,市监测站,细颗粒物(PM2.5),80,95,96,59,60,133,,58,58,14,23,18,16,0.9,1
2024-03-31T1500,2513A,106.6538,23.8859,百色市,市中心血站,细颗粒物(PM2.5),102,100,104,76,75,137,,53,53,16,31,31,16,1.0,1.2
2024-03-31T1500,3406A,106.6085,23.8798,百色市,祈福高中,细颗粒物(PM2.5),95,90,76,71,62,133,,54,54,14,24,23,14,1.1,1.1
2024-03-31T1500,2270A,117.396,32.939,蚌埠市,工人疗养院,颗粒物(PM10),81,112,124,42,39,138,,109,108,22,15,10,8,0.6,0.6
2024-03-31T1500,2271A,117.3605,32.9427,蚌埠市,百货大楼,颗粒物(PM10),82,113,129,36,40,150,,115,115,24,19,6,5,0.5,0.6
2024-03-31T1500,2273A,117.4185,32.8911,蚌埠市,蚌埠学院,颗粒物(PM10),76,102,122,33,40,156,,124,124,18,21,6,8,0.5,0.5
2024-03-31T1500,2274A,117.3533,32.9673,蚌埠市,淮上区政府,颗粒物(PM10),84,117,126,45,45,133,,108,104,22,15,8,7,0.3,0.4
2024-03-31T1500,2275A,117.3145,32.8977,蚌埠市,高新区,颗粒物(PM10),85,119,121,47,44,165,,127,127,16,20,8,10,0.6,0.6
2024-03-31T1500,3715A,117.3092,32.9314,蚌埠市,蚌埠田家炳中学,颗粒物(PM10),87,124,130,42,43,150,,124,124,24,15,8,7,0.4,0.5
2024-03-31T1500,1585A,109.8756,40.6532,包头市,市环境监测站,,47,47,74,16,26,126,,83,83,11,30,24,16,1.0,1
2024-03-31T1500,1587A,109.9991,40.5842,包头市,包头八中,,40,39,94,17,35,125,,83,83,11,46,12,18,0.3,0.7
2024-03-31T1500,1588A,109.8538,40.6821,包头市,青山宾馆,,38,35,83,21,24,121,,81,81,18,31,29,16,1.4,1
2024-03-31T1500,1589A,109.8642,40.6288,包头市,惠龙物流,,42,42,65,11,19,122,,82,82,14,32,23,20,0.9,0.9
2024-03-31T1500,1590A,110.0377,40.5546,包头市,东河鸿龙湾,,41,36,77,8,30,129,,86,86,6,35,11,16,0.6,0.8
2024-03-31T1500,3283A,109.9154,40.5685,包头市,滨河大厦,,43,35,70,11,28,137,,87,87,3,28,10,14,0.6,0.8
2024-03-31T1500,3419A,109.9447,40.6261,包头市,包头市委党校,,41,39,75,14,30,129,,80,80,9,44,11,22,0.4,0.7
2024-03-31T1500,3683A,109.8331,40.6576,包头市,昆区政府,,42,42,62,24,24,119,,84,84,21,30,33,19,1.0,0.7
2024-03-31T1500,1930A,107.185,34.3063,宝鸡市,庙沟村,细颗粒物(PM2.5),80,78,73,59,44,140,,83,83,13,26,13,11,0.6,0.5
2024-03-31T1500,1931A,107.0708,34.3017,宝鸡市,竹园沟,颗粒物(PM10),69,88,74,44,34,159,,94,94,16,23,7,5,0.5,0.5
2024-03-31T1500,1932A,107.1906,34.3672,宝鸡市,三陆医院,颗粒物(PM10),73,96,94,50,51,150,,89,89,22,37,8,10,0.6,0.6
2024-03-31T1500,1933A,107.1431,34.3547,宝鸡市,监测站,颗粒物(PM10),70,90,83,48,40,148,,90,90,21,32,9,8,0.6,0.6
2024-03-31T1500,1934A,107.1186,34.3739,宝鸡市,技工学校,颗粒物(PM10),76,102,84,41,38,148,,92,92,25,25,7,6,0.5,0.5
2024-03-31T1500,1935A,107.3906,34.3528,宝鸡市,陈仓区环保局家属楼,细颗粒物(PM2.5),87,90,100,64,52,152,,92,92,24,42,8,28,0.4,0.5
2024-03-31T1500,1936A,107.2058,34.3497,宝鸡市,文理学院,颗粒物(PM10),71,91,91,51,44,151,,90,90,14,27,8,7,0.4,0.4
2024-03-31T1500,1937A,107.2386,34.3622,宝鸡市,三迪小学,细颗粒物(PM2.5),85,92,93,63,49,150,,84,84,23,43,7,8,0.6,0.6
2024-03-31T1500,1051A,115.493,38.8632,保定市,游泳馆,颗粒物(PM10),96,141,110,61,37,129,,77,77,20,22,9,6,0.6,0.4
2024-03-31T1500,1052A,115.5213,38.8959,保定市,华电二区,颗粒物(PM10),71,92,84,47,35,125,,68,68,19,25,8,6,0.6,0.4
2024-03-31T1500,1053A,115.4713,38.9108,保定市,接待中心,颗粒物(PM10),80,109,86,48,29,118,,66,66,21,24,6,4,0.4,0.2
2024-03-31T1500,1054A,115.4612,38.8416,保定市,地表水厂,颗粒物(PM10),94,137,112,42,34,127,,76,76,22,29,10,7,1.0,0.9
2024-03-31T1500,3581A,115.31981,38.95208,保定市,满城区生态环境分局,颗粒物(PM10),91,132,108,51,39,121,,74,74,18,26,9,5,0.3,0.2
2024-03-31T1500,3582A,115.47694,38.76408,保定市,清苑区第二中学,颗粒物(PM10),105,160,112,55,33,147,,77,77,24,32,12,7,0.6,0.4
2024-03-31T1500,3583A,115.62909,39.02311,保定市,徐水物探局,颗粒物(PM10),100,149,114,58,33,119,,69,69,23,25,12,9,0.5,0.4
2024-03-31T1500,4004A,115.4202,38.8656,保定市,双鹰农机,颗粒物(PM10),84,118,87,45,30,128,,77,77,22,26,10,8,0.7,0.5
2024-03-31T1500,4034A,115.5150,38.8590,保定市,植保所站,颗粒物(PM10),77,103,95,43,39,130,,74,74,25,31,7,5,0.6,0.5
2024-03-31T1500,2594A,99.1678,25.1081,保山市,市环境监测站,细颗粒物(PM2.5),55,57,56,39,40,119,,106,106,6,8,7,7,0.6,0.7
2024-03-31T1500,2595A,99.1711,25.1328,保山市,市环保局,颗粒物(PM10),57,63,61,36,35,94,,99,99,6,5,7,6,0.8,0.8
2024-03-31T1500,1867A,109.1436,21.4086,北海市,海滩公园,颗粒物(PM10),54,57,36,34,18,96,,54,54,10,13,11,7,0.7,0.6
2024-03-31T1500,1868A,109.0981,21.4661,北海市,新市环保局,,35,35,30,19,18,78,,47,47,5,10,7,6,0.6,0.6
2024-03-31T1500,1869A,109.1778,21.5233,北海市,北海工业园,,39,39,45,22,24,73,,45,45,5,13,8,9,0.5,0.6
2024-03-31T1500,3400A,109.1911,21.4415,北海市,龙潭自来水厂,,41,41,33,25,25,87,,49,49,4,10,11,9,0.5,0.5
2024-03-31T1500,1001A,116.3621,39.8784,北京市,万寿西宫,颗粒物(PM10),87,123,98,49,34,96,,72,72,29,32,7,5,0.7,0.6
2024-03-31T1500,1003A,116.4174,39.9289,北京市,东四,颗粒物(PM10),85,120,99,48,35,104,,74,74,25,33,7,5,0.8,0.7
2024-03-31T1500,1004A,116.4072,39.8863,北京市,天坛,颗粒物(PM10),82,114,89,47,33,101,,75,75,28,31,8,4,0.8,0.6
2024-03-31T1500,1005A,116.462,39.9365,北京市,农展馆,颗粒物(PM10),83,115,95,56,37,106,,76,76,26,36,8,6,0.7,0.6
2024-03-31T1500,1006A,116.3392,39.9295,北京市,官园,颗粒物(PM10),87,124,101,48,35,105,,78,78,28,32,9,6,0.8,0.6
2024-03-31T1500,1007A,116.2878,39.9611,北京市,海淀万柳,颗粒物(PM10),87,123,101,43,33,100,,72,72,32,36,8,6,0.8,0.7
2024-03-31T1500,1008A,116.6636,40.135,北京市,顺义新城,颗粒物(PM10),80,110,95,46,34,110,,72,72,22,29,9,4,1.0,0.7
2024-03-31T1500,1009A,116.6275,40.3275,北京市,怀柔镇,颗粒物(PM10),77,104,67,41,25,96,,,,24,19,7,3,0.9,0.5
2024-03-31T1500,1010A,116.2296,40.217,北京市,昌平镇,颗粒物(PM10),89,127,95,44,30,90,,57,57,32,33,6,3,0.7,0.4
2024-03-31T1500,1011A,116.3966,39.9821,北京市,奥体中心,颗粒物(PM10),77,103,89,46,34,94,,64,64,24,33,7,4,0.7,0.6
2024-03-31T1500,1012A,116.184,39.9136,北京市,古城,颗粒物(PM10),79,107,107,42,34,107,,73,73,28,40,5,4,0.7,0.6
2024-03-31T1500,3417A,117.0709,40.1465,北京市,平谷新城,颗粒物(PM10),75,99,84,34,27,103,,73,73,23,25,8,4,0.9,0.6
2024-03-31T1500,3418A,116.8336,40.4095,北京市,密云新城,颗粒物(PM10),76,102,77,42,27,98,,64,64,21,23,7,3,0.7,0.4
2024-03-31T1500,3672A,116.1541,39.8204,北京市,丰台云岗,颗粒物(PM10),83,116,107,41,38,99,,67,67,25,31,5,3,0.6,0.5
2024-03-31T1500,3673A,116.6804,39.9081,北京市,通州东关,颗粒物(PM10),82,113,98,47,33,118,,80,80,18,29,9,6,0.8,0.7
2024-03-31T1500,3674A,115.9577,39.7603,北京市,房山燕山,颗粒物(PM10),78,106,93,49,38,102,,63,63,26,34,4,3,0.4,0.3
2024-03-31T1500,3675A,116.4672,39.7733,北京市,大兴旧宫,颗粒物(PM10),82,114,91,48,33,106,,71,71,22,30,8,4,0.8,0.6
2024-03-31T1500,3694A,115.986,40.4563,北京市,延庆石河营,颗粒物(PM10),66,81,73,34,29,85,,65,65,24,20,4,2,0.6,0.4
2024-03-31T1500,3695A,116.6151,40.3053,北京市,怀柔新城,颗粒物(PM10),78,105,79,43,29,100,,69,69,25,25,6,3,0.7,0.4
2024-03-31T1500,3696A,116.2545,39.8768,北京市,丰台小屯,颗粒物(PM10),83,116,105,46,33,96,,69,69,28,36,6,4,0.5,0.4
2024-03-31T1500,3697A,116.84,40.3844,北京市,密云镇,颗粒物(PM10),74,97,77,40,27,92,,54,54,16,27,8,4,0.9,0.5
2024-03-31T1500,1761A,123.8275,41.3064,本溪市,大峪,颗粒物(PM10),72,94,109,30,25,93,,55,55,18,26,16,12,1.3,1.3
2024-03-31T1500,1762A,123.7567,41.3325,本溪市,溪湖,颗粒物(PM10),67,84,124,27,36,106,,61,61,20,36,11,9,0.8,1.6
2024-03-31T1500,1763A,123.7169,41.3094,本溪市,彩屯,颗粒物(PM10),56,61,120,29,45,104,,57,57,25,42,14,13,1.2,2.2
2024-03-31T1500,1764A,123.7669,41.2864,本溪市,东明,颗粒物(PM10),71,91,106,38,37,96,,53,53,29,44,23,13,1.5,1.3
2024-03-31T1500,1765A,123.7992,41.2664,本溪市,新立屯,颗粒物(PM10),67,83,82,33,38,103,,65,65,26,34,26,14,1.5,0.9
2024-03-31T1500,1766A,123.8142,41.3472,本溪市,威宁,颗粒物(PM10),63,75,106,33,30,92,,55,55,23,31,11,7,0.7,0.6
2024-03-31T1500,2587A,105.2864,27.3125,毕节市,八中,细颗粒物(PM2.5),54,53,48,38,33,140,,108,108,9,11,10,11,0.6,0.6
2024-03-31T1500,2588A,105.31,27.2944,毕节市,师专,细颗粒物(PM2.5),55,49,45,39,33,132,,103,103,8,12,6,9,0.5,0.5
2024-03-31T1500,3537A,105.3631,27.3533,毕节市,长征村,细颗粒物(PM2.5),70,68,62,51,40,159,,122,122,10,11,9,9,0.5,0.5
2024-03-31T1500,1629A,118.0018,37.3617,滨州市,第二水厂,颗粒物(PM10),90,129,105,34,32,130,,85,85,17,39,14,12,0.7,0.7
2024-03-31T1500,1630A,117.9776,37.393,滨州市,北中新校,颗粒物(PM10),76,102,101,27,28,129,,82,82,15,37,12,14,0.5,0.7
2024-03-31T1500,3514A,117.9378,37.3956,滨州市,中海酒店,颗粒物(PM10),75,100,91,29,29,132,,89,89,11,25,13,15,0.5,0.8
2024-03-31T1500,3515A,117.9378,37.3553,滨州市,开发区一中,颗粒物(PM10),86,122,103,31,29,119,,76,76,15,35,21,20,0.5,0.7
2024-03-31T1500,3516A,118.0917,37.694,滨州市,金海六路,颗粒物(PM10),79,107,99,24,23,133,,98,98,13,23,14,16,0.6,0.7
2024-03-31T1500,4028A,117.9956,37.3753,滨州市,滨州市西街道办事处,颗粒物(PM10),82,114,103,36,35,118,,80,80,16,33,16,16,0.7,0.9
2024-03-31T1500,2311A,115.8072,33.8399,亳州市,污水处理厂,颗粒物(PM10),79,108,124,37,36,166,,128,128,15,15,10,13,0.5,0.4
2024-03-31T1500,2312A,115.7789,33.8518,亳州市,三国揽胜宫,颗粒物(PM10),91,132,136,36,36,160,,125,125,11,14,9,10,0.5,0.5
2024-03-31T1500,3332A,115.7633,33.8034,亳州市,亳州学院,颗粒物(PM10),86,121,131,41,37,156,,126,126,10,12,8,10,0.6,0.5
2024-03-31T1500,2693A,82.0485,44.8556,博尔塔拉蒙古自治州,市党校,,24,24,23,13,12,71,,74,74,5,7,8,10,0.3,0.7
2024-03-31T1500,2694A,82.0806,44.8969,博尔塔拉蒙古自治州,市环保局,,34,34,42,9,13,68,,73,72,6,11,6,6,0.5,0.5
2024-03-31T1500,1071A,116.8842,38.2991,沧州市,沧县城建局,颗粒物(PM10),74,97,102,38,34,145,,84,84,18,32,10,11,0.7,0.8
2024-03-31T1500,1072A,116.8584,38.3254,沧州市,电视转播站,颗粒物(PM10),77,103,103,46,35,127,,71,71,16,27,12,12,0.6,0.5
2024-03-31T1500,1073A,116.8709,38.3228,沧州市,市环保局,颗粒物(PM10),71,91,104,46,42,124,,70,70,16,28,8,7,0.4,0.5
2024-03-31T1500,3324A,116.8136,38.3004,沧州市,河北水利电力学院,颗粒物(PM10),92,134,119,46,35,137,,82,82,16,25,13,13,0.5,0.5
2024-03-31T1500,2622A,97.1806,31.1273,昌都市,昌都监测站,,31,6,9,2,6,98,,77,77,5,7,7,7,0.4,0.4
2024-03-31T1500,3719A,97.1714,31.1406,昌都市,昌都会议中心,,34,9,10,3,6,106,,84,84,10,9,8,8,0.5,0.5
2024-03-31T1500,2690A,88.1236,43.8886,昌吉回族自治州,天山天池,,,,13,4,12,87,,84,84,5,8,7,8,0.7,0.7
2024-03-31T1500,2692A,87.2717,44.0297,昌吉回族自治州,新区政务中心,,26,18,25,12,14,82,,78,78,8,12,9,9,0.4,0.4
2024-03-31T1500,3613A,87.3095,44.0142,昌吉回族自治州,亚心广场,,25,22,23,5,5,77,,77,75,11,13,6,6,0.2,0.1
2024-03-31T1500,1119A,125.3325,43.9166,长春市,食品厂,,45,45,70,25,19,85,,78,78,13,16,7,8,0.3,0.3
2024-03-31T1500,1120A,125.2863,43.9027,长春市,客车厂,颗粒物(PM10),51,52,72,31,21,86,,80,80,12,13,5,7,0.4,0.4
2024-03-31T1500,1121A,125.2841,43.8463,长春市,邮电学院,颗粒物(PM10),52,53,71,20,20,89,,84,84,8,16,7,8,0.2,0.2
2024-03-31T1500,1122A,125.3716,43.8772,长春市,劳动公园,颗粒物(PM10),53,55,63,20,17,95,,89,89,8,10,5,5,0.4,0.4
2024-03-31T1500,1123A,125.3297,43.8805,长春市,园林处,,49,49,58,16,16,88,,81,81,9,13,7,8,0.4,0.4
2024-03-31T1500,1124A,125.4605,43.79,长春市,净月潭,颗粒物(PM10),63,75,57,38,20,101,,89,89,8,10,8,7,0.4,0.3
2024-03-31T1500,1126A,125.3863,43.8447,长春市,经开区环卫处,,45,45,61,22,17,78,,84,84,10,12,5,5,0.5,0.4
2024-03-31T1500,1127A,125.245,43.7783,长春市,高新区管委会,细颗粒物(PM2.5),85,81,67,63,29,103,,95,95,12,11,10,8,0.6,0.5
2024-03-31T1500,1128A,125.1761,43.8325,长春市,岱山公园,颗粒物(PM10),53,55,68,30,26,89,,85,85,9,11,6,6,0.4,0.3
2024-03-31T1500,1335A,113.0833,28.2325,长沙市,经开区环保局,,50,37,40,19,34,157,,120,120,2,7,7,6,0.4,0.5
2024-03-31T1500,1336A,112.8872,28.2189,长沙市,高开区环保局,,48,39,44,26,28,151,,118,118,2,4,4,5,0.6,0.6
2024-03-31T1500,1337A,113.0792,28.2053,长沙市,马坡岭,,48,34,40,26,36,153,,114,114,2,3,6,7,0.5,0.6
2024-03-31T1500,1338A,112.9394,28.19,长沙市,湖南师范大学,,50,42,47,22,37,158,,124,124,4,8,6,7,0.6,0.7
2024-03-31T1500,1339A,113.0178,28.1322,长沙市,雨花区环保局,臭氧1小时,52,31,39,22,23,161,,124,124,1,3,4,4,0.6,0.7
2024-03-31T1500,1340A,112.9792,28.2597,长沙市,伍家岭,,47,37,50,18,34,148,,114,114,1,7,5,5,0.7,0.8
2024-03-31T1500,1341A,113.0014,28.1944,长沙市,火车新站,,49,41,44,29,29,154,,119,119,20,18,3,4,0.6,0.7
2024-03-31T1500,1342A,112.9844,28.1178,长沙市,天心区环保局,,50,44,42,25,29,157,,122,122,7,5,2,3,0.2,0.4
2024-03-31T1500,1343A,112.8908,28.1308,长沙市,湖南中医药大学,,50,44,45,28,32,157,,120,120,6,9,3,4,0.9,0.9
2024-03-31T1500,1344A,112.9581,28.3611,长沙市,沙坪,,30,27,41,19,24,95,,73,73,2,5,6,6,0.5,0.5
2024-03-31T1500,1727A,113.1147,36.1547,长治市,清华站,颗粒物(PM10),51,52,80,17,33,145,,122,122,13,19,8,11,0.7,0.9
2024-03-31T1500,1728A,113.1031,36.1989,长治市,监测站,颗粒物(PM10),53,56,81,19,38,150,,125,125,16,25,12,14,0.3,0.5
2024-03-31T1500,1730A,113.0886,36.2125,长治市,审计局,颗粒物(PM10),52,53,78,22,37,154,,122,122,13,27,12,15,0.2,0.5
2024-03-31T1500,1731A,113.0844,36.1856,长治市,长治八中,颗粒物(PM10),53,55,94,16,29,152,,130,130,15,27,7,10,0.7,0.8
2024-03-31T1500,2845A,113.1569,36.1911,长治市,德盛苑,,48,48,74,19,33,150,,132,132,15,19,10,13,0.4,0.6
2024-03-31T1500,3568A,113.06,36.0464,长治市,向阳小学,颗粒物(PM10),63,75,104,34,39,154,,134,134,15,21,14,16,0.5,0.7
2024-03-31T1500,3569A,112.8792,36.3144,长治市,屯留一中,颗粒物(PM10),54,57,85,21,40,158,,106,106,7,25,8,11,0.5,0.8
2024-03-31T1500,3570A,113.235,36.3489,长治市,潞城四中,颗粒物(PM10),61,71,101,23,40,148,,110,110,14,44,7,9,0,0.3
2024-03-31T1500,1854A,111.6975,28.9703,常德市,市二中,,46,38,30,14,22,145,,107,107,20,10,8,8,0.5,0.6
2024-03-31T1500,1857A,111.7158,29.1456,常德市,白鹤山,,32,32,48,16,27,60,,58,58,2,2,9,8,0.5,0.5
2024-03-31T1500,3138A,111.7153,29.0289,常德市,武陵区永安,,47,20,32,10,20,148,,123,123,5,7,7,8,0.4,0.5
2024-03-31T1500,3139A,111.6892,28.9881,常德市,鼎城区玉霞,,46,18,33,15,21,146,,116,116,14,11,8,10,0.4,0.5
2024-03-31T1500,3140A,111.6625,29.0531,常德市,武陵区长庚,,49,23,31,16,22,156,,120,120,4,6,7,9,0.6,0.6
2024-03-31T1500,1196A,119.9633,31.762,常州市,市监测站,,,,130,,44,138,,123,114,36,25,10,10,,0.6
2024-03-31T1500,1200A,119.9468,31.7069,常州市,武进监测站,颗粒物(PM10),96,142,118,50,44,144,,119,110,26,24,16,15,1.0,1
2024-03-31T1500,1201A,119.9255,31.9087,常州市,安家,颗粒物(PM10),97,143,126,58,45,144,,116,114,32,25,9,8,0.9,0.8
2024-03-31T1500,3002A,119.9805,31.8174,常州市,行政中心,颗粒物(PM10),91,132,113,61,45,129,,108,108,34,28,10,10,0.6,0.7
2024-03-31T1500,3003A,120.0522,31.7748,常州市,经开区,颗粒物(PM10),94,138,126,57,45,133,,116,110,35,30,8,9,0.7,0.7
2024-03-31T1500,3010A,119.9025,31.7964,常州市,钟楼,颗粒物(PM10),101,151,121,66,48,138,,111,111,32,24,10,11,1.2,1.2
2024-03-31T1500,3429A,119.8598,31.7066,常州市,武进经发区,颗粒物(PM10),96,141,123,66,49,152,,125,117,26,25,9,10,1.1,1
2024-03-31T1500,3430A,119.5826,31.7245,常州市,金坛城区,颗粒物(PM10),84,117,112,60,45,146,,119,119,24,24,11,9,1.0,0.9
2024-03-31T1500,2220A,120.4318,41.5881,朝阳市,西梁,颗粒物(PM10),56,61,57,20,20,106,,78,78,9,20,14,12,0.6,0.7
2024-03-31T1500,2221A,120.4521,41.5646,朝阳市,河畔小区,颗粒物(PM10),53,55,61,24,20,106,,81,81,8,16,15,13,0.7,0.7
2024-03-31T1500,2222A,120.4176,41.5648,朝阳市,八里堡,颗粒物(PM10),54,57,65,21,19,110,,79,79,10,22,16,15,0.7,0.8
2024-03-31T1500,2223A,120.3806,41.5969,朝阳市,农业园区,颗粒物(PM10),52,54,56,21,20,111,,83,83,9,21,12,10,0.5,0.5
2024-03-31T1500,1705A,116.6367,23.6719,潮州市,西园路,,26,26,99,1,31,69,,44,44,11,20,5,8,0.2,0.5
2024-03-31T1500,3026A,116.6183,23.6608,潮州市,市政府,,29,27,56,12,34,92,,53,53,8,20,5,10,0.6,0.9
2024-03-31T1500,4036A,116.6461,23.6761,潮州市,金山,,32,32,55,1,34,77,,47,47,11,23,6,9,0.6,0.8
2024-03-31T1500,2472A,113.0073,25.9061,郴州市,马头岭,,34,34,30,12,12,86,,60,60,11,14,11,6,0.6,0.6
2024-03-31T1500,2473A,113.0116,25.8226,郴州市,市职中,,40,31,25,20,20,125,,71,71,4,8,9,9,0.6,0.6
2024-03-31T1500,2474A,113.0161,25.8001,郴州市,兴隆步行街,,40,39,30,22,22,127,,69,69,5,8,10,8,0.7,0.7
2024-03-31T1500,2475A,113.0383,25.8071,郴州市,市审计局,,39,,23,27,18,109,,67,67,6,8,13,8,0.7,0.6
2024-03-31T1500,2476A,113.0348,25.7759,郴州市,市环保局,,42,35,28,29,24,120,,66,66,8,9,13,9,0.8,0.7
2024-03-31T1500,1431A,103.9728,30.7236,成都市,金泉两河,,48,46,48,24,26,151,,74,74,16,35,2,3,0.5,0.6
2024-03-31T1500,1432A,104.176,30.6872,成都市,十里店,,43,30,38,4,18,136,,74,74,9,36,2,2,0.4,0.5
2024-03-31T1500,1433A,104.079,30.5706,成都市,三瓦窑,,48,35,36,14,17,151,,84,84,10,47,3,3,0.2,0.3
2024-03-31T1500,1434A,104.1114,30.63,成都市,沙河铺,,,25,36,10,16,132,,67,67,8,27,,2,0.3,0.4
2024-03-31T1500,1437A,104.0786,30.6531,成都市,君平街,,48,35,44,1,22,151,,92,92,12,33,4,6,0.3,0.4
2024-03-31T1500,1438A,103.613,31.0283,成都市,灵岩寺,细颗粒物(PM2.5),60,62,31,43,18,151,,90,90,13,12,8,11,0.7,0.6
2024-03-31T1500,2880A,104.0239,30.65639,成都市,大石西路,,48,33,41,18,24,151,,94,94,14,34,6,5,0.5,0.6
2024-03-31T1500,3136A,104.2725,30.5589,成都市,龙泉驿区区政府,,40,17,19,14,12,125,,92,92,5,13,2,2,0.4,0.4
2024-03-31T1500,3357A,104.0106,30.6931,成都市,金博路,,47,46,53,25,25,150,,78,78,14,40,3,3,0.6,0.7
2024-03-31T1500,3359A,104.0578,30.5225,成都市,华阳,,48,34,35,27,24,153,,89,89,9,27,3,3,0.5,0.6
2024-03-31T1500,3487A,104.2394,30.5319,成都市,车城东七路,,41,23,30,16,20,129,,95,95,6,18,3,4,0.4,0.5
2024-03-31T1500,3488A,104.3853,30.7453,成都市,青白江技师分院,,42,12,15,8,8,134,,80,80,13,20,4,3,0.8,0.4
2024-03-31T1500,3489A,104.0789,30.4072,成都市,科学城,,45,25,30,19,22,143,,86,86,5,23,4,5,0.5,0.6
2024-03-31T1500,4011A,103.8506,30.6947,成都市,光华大道三段,颗粒物(PM10),53,56,55,29,36,153,,78,78,18,38,2,3,0.5,0.7
2024-03-31T1500,1062A,117.9531,40.9081,承德市,铁路,,33,19,37,2,9,104,,75,75,12,23,23,8,0.5,0.4
2024-03-31T1500,1063A,117.9392,40.9763,承德市,中国银行,,35,27,36,3,9,110,,78,78,10,23,24,10,0.5,0.4
2024-03-31T1500,1064A,117.9503,40.928,承德市,开发区,,46,46,44,14,18,103,,71,71,13,26,27,8,0.4,0.3
2024-03-31T1500,1065A,117.8051,40.9655,承德市,文化中心,,36,35,50,4,9,113,,78,78,8,31,19,11,0.3,0.4
2024-03-31T1500,1066A,117.9268,41.0026,承德市,离宫,,33,15,28,8,11,104,,75,75,6,13,16,6,0.4,0.4
2024-03-31T1500,2314A,117.47,30.6618,池州市,池州学院,颗粒物(PM10),61,71,87,34,45,163,,118,118,14,33,6,8,0.7,0.7
2024-03-31T1500,3237A,117.4918,30.6617,池州市,展览馆,颗粒物(PM10),57,63,75,28,35,158,,114,114,9,25,5,5,0.6,0.6
2024-03-31T1500,3333A,117.5627,30.695,池州市,第八中学,颗粒物(PM10),68,86,77,45,39,167,,114,114,16,24,10,8,0.8,0.7
2024-03-31T1500,3334A,117.5038,30.6243,池州市,第十二中学,臭氧1小时,63,71,71,35,40,170,,114,114,10,28,6,6,0.7,0.7
2024-03-31T1500,1744A,118.9233,42.2816,赤峰市,松山一中,,46,46,49,14,14,96,,73,73,17,28,9,20,0.6,0.7
2024-03-31T1500,1745A,118.9576,42.2728,赤峰市,哈达街,细颗粒物(PM2.5),62,,45,44,27,90,,65,65,19,26,11,20,0.8,0.8
2024-03-31T1500,1746A,118.8788,42.2554,赤峰市,天义路,,30,30,37,12,15,81,,61,61,14,20,9,12,0.4,0.5
2024-03-31T1500,3058A,119.2658,42.0353,赤峰市,银河街,,46,46,50,32,27,98,,73,73,15,19,14,15,0.6,0.6
2024-03-31T1500,3286A,118.9359,42.3147,赤峰市,桥北物流园区,,32,19,41,18,20,102,,82,82,12,28,7,16,0.4,0.4
2024-03-31T1500,2521A,107.3476,22.4136,崇左市,市环保局江州分局,细颗粒物(PM2.5),57,54,63,40,41,115,,54,54,3,10,10,8,0.7,0.8
2024-03-31T1500,2522A,107.3702,22.3707,崇左市,城南新区,细颗粒物(PM2.5),54,53,52,38,37,114,,57,57,5,14,9,7,0.7,0.6
2024-03-31T1500,2298A,118.3093,32.3153,滁州市,老年大学,颗粒物(PM10),82,113,116,44,42,181,,127,127,18,17,13,11,0.6,0.6
2024-03-31T1500,2299A,118.3244,32.2786,滁州市,人大宾馆,颗粒物(PM10),90,130,124,51,42,169,,126,126,28,18,11,8,0.7,0.7
2024-03-31T1500,3207A,118.3118,32.3038,滁州市,市政府原办公楼,颗粒物(PM10),78,106,112,43,41,179,,127,127,18,18,11,8,0.6,0.6
2024-03-31T1500,3331A,118.3267,32.2634,滁州市,图书馆,颗粒物(PM10),84,117,114,43,43,167,,127,127,26,18,13,10,0.8,0.7
2024-03-31T1500,2605A,101.5482,25.0441,楚雄彝族自治州,州环境监测站,,39,34,42,21,34,123,,110,110,5,7,7,7,0.4,0.5
2024-03-31T1500,2606A,101.538,25.0492,楚雄彝族自治州,市经济开发区,,38,24,46,20,34,119,,106,106,5,8,6,6,0.5,0.6
2024-03-31T1500,2548A,107.5277,31.2827,达州市,达州职业技术学院,颗粒物(PM10),51,52,80,19,34,123,,64,64,17,32,8,7,0.8,0.9
2024-03-31T1500,2549A,107.5086,31.2186,达州市,市环境监测站,,36,36,69,14,35,112,,56,56,26,43,7,8,0.5,0.9
2024-03-31T1500,2550A,107.4988,31.2132,达州市,凤凰小区,,39,39,68,12,39,120,,60,60,17,40,10,9,0.7,1
2024-03-31T1500,2551A,107.5082,31.1986,达州市,达县机关宾馆,,44,44,66,24,40,114,,60,60,23,43,6,6,0.5,0.7
2024-03-31T1500,2552A,107.4644,31.2124,达州市,市政中心,,36,36,73,17,41,115,,58,58,22,49,18,18,0.8,1.3
2024-03-31T1500,2614A,100.1542,25.7054,大理白族自治州,大理市环境监测站,,40,34,32,28,27,97,,90,90,27,12,7,7,0.6,0.6
2024-03-31T1500,2615A,100.2171,25.5811,大理白族自治州,大理古城,,38,30,34,14,22,119,,101,101,6,9,8,8,0.7,0.7
2024-03-31T1500,1109A,121.612,38.9741,大连市,甘井子,颗粒物(PM10),59,68,66,23,21,88,,77,77,24,32,5,6,0.5,0.5
2024-03-31T1500,1110A,121.565,38.9511,大连市,周水子,,,57,55,23,18,83,,83,83,25,26,,6,,0.9
2024-03-31T1500,1111A,121.5637,38.8845,大连市,星海三站,,48,48,53,18,17,100,,81,81,16,24,5,7,0.5,0.5
2024-03-31T1500,1112A,121.6302,38.9117,大连市,青泥洼桥,颗粒物(PM10),52,54,55,19,16,94,,88,88,18,24,10,12,0.6,0.6
2024-03-31T1500,1113A,121.6251,38.8638,大连市,傅家庄,颗粒物(PM10),54,58,59,19,16,92,,77,77,20,24,11,11,0.5,0.6
2024-03-31T1500,1114A,121.5213,38.8661,大连市,七贤岭,颗粒物(PM10),57,63,61,23,21,72,,62,62,29,28,11,11,0.7,0.8
2024-03-31T1500,1115A,121.2529,38.8061,大连市,旅顺,颗粒物(PM10),53,55,55,20,18,75,,72,72,24,28,8,9,0.7,0.7
2024-03-31T1500,1116A,121.7485,39.1311,大连市,金州,,37,37,50,12,18,118,,104,104,7,14,5,7,0.5,0.5
2024-03-31T1500,1117A,121.7811,39.0496,大连市,开发区,颗粒物(PM10),56,61,67,19,20,98,,74,74,17,31,9,9,0.3,0.4
2024-03-31T1500,1118A,121.9762,39.0631,大连市,双D港,,,63,59,22,23,88,,62,62,16,27,,8,0.6,0.5
2024-03-31T1500,1789A,124.81117,46.03138,大庆市,大同区,颗粒物(PM10),57,63,54,34,33,84,,70,70,4,8,6,7,0.5,0.5
2024-03-31T1500,1790A,125.129,46.533,大庆市,龙凤区,,33,25,28,23,20,86,,70,70,9,13,4,5,0.4,0.3
2024-03-31T1500,1791A,124.902,46.408,大庆市,红岗区,,30,29,33,21,18,91,,76,76,4,7,6,5,0.5,0.5
2024-03-31T1500,1792A,125.153,46.586,大庆市,萨尔图区,,43,43,26,19,12,84,,66,66,6,11,5,6,0.7,0.6
2024-03-31T1500,1793A,124.9042,46.6215,大庆市,让胡路区,,35,35,30,17,19,87,,73,73,3,5,6,6,0.3,0.3
2024-03-31T1500,3481A,125.141,46.634,大庆市,萨区政府监测点,,37,37,19,20,12,93,,73,73,4,11,7,7,0.3,0.3
2024-03-31T1500,1723A,113.2994,40.0758,大同市,云冈宾馆,颗粒物(PM10),56,62,64,22,20,115,,84,84,20,29,12,12,0.9,1.1
2024-03-31T1500,1724A,113.3444,40.0917,大同市,大同大学,,36,35,55,16,19,113,,81,81,11,24,16,19,0.3,0.7
2024-03-31T1500,1725A,113.2661,40.1269,大同市,安家小村,,35,35,60,15,18,108,,76,76,10,18,17,21,0.4,0.8
2024-03-31T1500,1726A,113.2711,40.0844,大同市,教育学院,颗粒物(PM10),53,56,71,32,25,110,,76,76,14,28,13,15,0.4,0.9
2024-03-31T1500,3282A,113.3397,40.0597,大同市,大同市卫生学校,颗粒物(PM10),54,58,69,28,23,115,,86,86,20,32,12,16,0.4,0.7
2024-03-31T1500,3565A,113.1367,40.1122,大同市,云冈站,,40,40,49,12,16,114,,78,78,8,23,10,17,0.4,0.5
2024-03-31T1500,3566A,113.1186,40.2556,大同市,图书馆,,30,22,51,8,21,95,,68,68,3,14,9,14,0.6,0.7
2024-03-31T1500,3567A,113.5931,40.0461,大同市,区一中,,40,40,68,12,26,110,,86,86,16,29,12,23,0.5,0.6
2024-03-31T1500,3676A,113.2802,40.0995,大同市,第二人民医院,,42,35,61,29,28,115,,84,84,14,24,13,16,0.7,1
2024-03-31T1500,2269A,124.1069,50.4097,大兴安岭地区,科技局,,25,,18,16,15,78,,77,77,2,3,9,8,0.3,0.3
2024-03-31T1500,3663A,124.1164,50.4278,大兴安岭地区,红旗社区,,25,12,7,3,5,80,,79,79,3,3,10,10,0.4,0.4
2024-03-31T1500,1600A,124.3303,40.0625,丹东市,江湾东路,颗粒物(PM10),58,65,80,23,32,99,,59,59,15,22,10,12,0.6,1
2024-03-31T1500,1601A,124.4256,40.1503,丹东市,临江后街,颗粒物(PM10),51,51,76,15,31,103,,64,64,9,25,11,12,0.6,0.8
2024-03-31T1500,1602A,124.3933,40.1461,丹东市,元宝山,,49,49,67,18,30,89,,50,50,10,22,9,10,0.5,0.7
2024-03-31T1500,1603A,124.3633,40.1092,丹东市,民主桥,,,66,73,21,25,91,,52,52,,29,16,11,,0.7
2024-03-31T1500,3541A,109.5726,19.5167,儋州市,第一中学子站,,46,40,29,32,20,109,,74,74,3,4,8,8,0.5,0.5
2024-03-31T1500,3542A,109.5567,19.5187,儋州市,东坡学校子站,,45,45,31,29,20,112,,75,75,3,4,9,9,0.6,0.5
2024-03-31T1500,2616A,98.5842,24.428,德宏傣族景颇族自治州,德宏州监测站,颗粒物(PM10),70,89,90,43,56,134,,82,82,10,22,6,6,0.6,0.8
2024-03-31T1500,3677A,98.5881,24.4368,德宏傣族景颇族自治州,芒市人民政府综合楼,细颗粒物(PM2.5),70,84,84,51,56,135,,91,91,12,15,5,6,0.5,0.7
2024-03-31T1500,1901A,104.4239,31.1208,德阳市,东山公园,,42,30,22,19,19,133,,82,82,9,18,2,3,0.4,0.4
2024-03-31T1500,1902A,104.3826,31.1317,德阳市,西小区,,44,42,38,23,21,138,,76,76,10,34,3,3,0.5,0.6
2024-03-31T1500,1904A,104.3553,31.1091,德阳市,耐火材料厂,,46,42,41,26,23,146,,65,65,8,32,4,5,0.3,0.3
2024-03-31T1500,3639A,104.4019,31.1244,德阳市,市教育局,,41,36,30,17,16,130,,76,76,6,30,3,3,0.4,0.4
2024-03-31T1500,1622A,116.3032,37.4674,德州市,儿童乐园,颗粒物(PM10),90,129,122,44,28,143,,101,101,11,20,10,11,0.6,0.6
2024-03-31T1500,1624A,116.2991,37.4451,德州市,监理站,颗粒物(PM10),89,127,116,41,27,154,,110,110,12,24,14,13,0.5,0.5
2024-03-31T1500,3066A,116.2721,37.4379,德州市,九衢泉纯净水厂,颗粒物(PM10),87,124,113,31,27,147,,106,106,14,26,10,10,0.7,0.7
2024-03-31T1500,3371A,116.3728,37.4403,德州市,开发区人民医院,颗粒物(PM10),85,119,113,29,25,155,,108,108,7,20,12,12,0.5,0.5
2024-03-31T1500,3372A,116.3572,37.4094,德州市,太阳城中学,颗粒物(PM10),87,124,117,39,31,151,,106,106,10,27,11,10,0.5,0.6
2024-03-31T1500,3511A,116.5652,37.3319,德州市,陵城艺术中心,颗粒物(PM10),86,122,116,27,25,152,,101,101,14,25,7,11,0.6,0.7
2024-03-31T1500,2621A,99.7056,27.8317,迪庆藏族自治州,迪庆州站,,33,,18,9,16,104,,91,91,9,10,8,9,0.4,0.5
2024-03-31T1500,3180A,99.7136,27.8094,迪庆藏族自治州,质量技术监督局,,32,15,23,2,8,101,,88,88,10,10,6,6,0.4,0.4
2024-03-31T1500,2663A,104.6241,35.5734,定西市,东关小学,颗粒物(PM10),52,54,97,17,33,122,,82,82,6,27,11,13,0.2,0.4
2024-03-31T1500,2664A,104.6194,35.5934,定西市,供电公司,,44,44,85,18,38,114,,,,6,32,11,14,0.1,0.3
2024-03-31T1500,1389A,113.7547,23.0494,东莞市,莞城梨川,,35,35,24,19,13,70,,40,40,11,13,7,7,0.6,0.7
2024-03-31T1500,1390A,113.7944,23.0128,东莞市,东城石井,,29,29,22,20,12,67,,40,40,10,12,7,7,0.6,0.6
2024-03-31T1500,1391A,113.7383,22.9658,东莞市,南城西平,,36,36,25,19,11,63,,39,39,9,12,7,6,0.7,0.8
2024-03-31T1500,3319A,113.7338,23.0381,东莞市,万江金泰,,34,34,25,20,15,63,,34,34,8,12,9,9,1.0,1
2024-03-31T1500,3626A,113.7533,23.0202,东莞市,南城元岭,,34,34,23,22,14,66,,36,36,8,10,9,9,0.6,0.6
2024-03-31T1500,3627A,113.7875,23.0457,东莞市,东城主山,,32,32,23,17,10,69,,40,40,7,11,7,8,0.5,0.5
2024-03-31T1500,1666A,118.6614,37.4309,东营市,市环保局,颗粒物(PM10),76,102,99,31,21,148,,111,111,22,22,15,13,0.4,0.5
2024-03-31T1500,3036A,118.6904,37.4338,东营市,开发区管委会,颗粒物(PM10),75,100,102,39,22,135,,101,101,24,21,11,7,0.7,0.7
2024-03-31T1500,3365A,118.5719,37.565,东营市,垦利区民丰路,,,,92,,18,137,,100,100,20,23,13,14,0.6,0.6
2024-03-31T1500,3498A,118.5055,37.8612,东营市,河口城区,颗粒物(PM10),89,127,102,48,27,150,,103,103,14,17,10,8,0.6,0.8
2024-03-31T1500,3646A,118.4978,37.4623,东营市,胜利站,颗粒物(PM10),75,99,94,22,21,128,,98,98,23,26,14,14,0.8,0.8
2024-03-31T1500,3734A,118.35,37.26,东营市,理想之城,颗粒物(PM10),74,97,98,29,29,122,,94,94,22,23,16,15,0.6,0.6
2024-03-31T1500,1591A,110.0023,39.8129,鄂尔多斯市,综合楼,颗粒物(PM10),51,51,58,7,13,121,,90,90,8,27,8,13,0.3,0.5
2024-03-31T1500,1592A,109.9486,39.8261,鄂尔多斯市,巴音孟克林场办事处,,38,31,45,7,16,119,,95,95,5,21,11,20,0.5,0.6
2024-03-31T1500,1593A,109.7736,39.5986,鄂尔多斯市,康泽苑,,39,31,38,7,10,122,,84,84,5,17,6,6,0.4,0.5
2024-03-31T1500,1594A,109.8119,39.5989,鄂尔多斯市,华泰汽车城,,38,24,41,12,18,120,,80,80,6,30,8,7,0.3,0.4
2024-03-31T1500,1595A,109.9734,39.7884,鄂尔多斯市,奥林花园,,38,34,57,14,17,121,,89,89,8,40,6,8,0.5,0.6
2024-03-31T1500,2436A,114.8938,30.3994,鄂州市,市政府,臭氧1小时,52,36,48,20,25,161,,118,118,8,15,8,10,1.2,1.5
2024-03-31T1500,2437A,114.8989,30.3714,鄂州市,赵家坝,臭氧1小时,57,30,48,19,26,165,,128,128,2,12,10,9,1.1,0.9
2024-03-31T1500,3654A,114.8094,30.4089,鄂州市,精准医疗中心,臭氧1小时,70,28,68,21,30,176,,139,139,4,21,4,9,0.4,0.2
2024-03-31T1500,2454A,109.4978,30.2981,恩施土家族苗族自治州,湖北民院,,32,32,41,20,22,100,,58,58,7,20,8,8,0.9,0.9
2024-03-31T1500,2455A,109.4707,30.2798,恩施土家族苗族自治州,州电力总公司,,29,21,27,11,19,91,,50,50,13,19,7,7,0.7,0.7
2024-03-31T1500,3549A,109.5061,30.3772,恩施土家族苗族自治州,龙凤新区,,35,20,25,13,19,109,,63,63,14,15,8,7,0.6,0.6
2024-03-31T1500,2499A,108.3411,21.6158,防城港市,沙万,,40,40,44,21,19,45,,32,32,10,17,2,4,0.4,0.4
2024-03-31T1500,2500A,108.3514,21.7731,防城港市,防城档案局,,35,34,38,24,20,69,,49,49,7,8,7,7,0.5,0.4
2024-03-31T1500,2501A,108.3506,21.6414,防城港市,大海花园,,38,38,35,22,16,58,,40,40,5,9,3,3,0.5,0.5
2024-03-31T1500,1371A,113.1294,23.0067,佛山市,湾梁,,44,44,38,20,16,88,,36,36,10,21,9,9,0.4,0.5
2024-03-31T1500,1372A,113.1083,23.0478,佛山市,华材职中,,36,36,35,21,18,79,,36,36,7,18,9,8,0.4,0.4
2024-03-31T1500,1373A,113.144,23.0453,佛山市,南海气象局,,47,47,38,23,20,84,,35,35,11,28,8,9,0.5,0.6
2024-03-31T1500,1374A,113.2881,22.8094,佛山市,顺德苏岗,,33,33,27,19,17,78,,42,42,13,18,5,5,0.6,0.6
2024-03-31T1500,1376A,112.8383,22.8678,佛山市,高明孔堂,,35,29,27,24,16,70,,39,39,3,8,4,4,0.4,0.4
2024-03-31T1500,1377A,112.8836,23.1588,佛山市,三水监测站,,48,39,41,33,19,58,,20,20,14,33,7,7,0.5,0.5
2024-03-31T1500,1378A,112.867,23.185,佛山市,三水云东海,,39,39,38,27,18,61,,23,23,18,31,6,5,0.3,0.5
2024-03-31T1500,3625A,113.2544,22.7642,佛山市,容桂街道办,,34,34,28,19,16,55,,32,32,12,20,6,6,0.5,0.5
2024-03-31T1500,1282A,119.2681,26.0504,福州市,师大,,18,18,28,8,21,53,,55,55,28,25,3,3,0.5,0.5
2024-03-31T1500,1283A,119.2984,26.1028,福州市,五四北路,,20,12,29,11,28,63,,54,54,22,28,3,3,0.4,0.5
2024-03-31T1500,1284A,119.2648,26.0768,福州市,杨桥西路,,20,16,27,8,24,63,,59,59,22,23,3,3,0.5,0.5
2024-03-31T1500,1285A,119.317,26.0746,福州市,紫阳,,19,18,33,12,32,58,,47,47,24,31,2,2,0.6,0.7
2024-03-31T1500,3048A,119.5799,26.0936,福州市,九龙,,22,12,31,4,41,68,,52,52,14,19,3,3,0.5,0.6
2024-03-31T1500,3526A,119.5189,25.9664,福州市,吴航,,20,12,46,9,34,61,,62,62,24,24,2,4,0.7,0.8
2024-03-31T1500,1755A,123.7977,41.8491,抚顺市,望花区,,44,44,118,19,36,104,,79,79,15,33,9,8,0.4,0.6
2024-03-31T1500,1756A,123.9161,41.8822,抚顺市,顺城区,,39,39,113,13,31,117,,83,83,12,34,7,6,0.4,0.6
2024-03-31T1500,1757A,124.0436,41.8611,抚顺市,东洲区,,40,40,103,15,30,102,,73,73,9,19,9,7,0.6,0.7
2024-03-31T1500,1758A,123.9247,41.8642,抚顺市,新抚区,,45,45,110,14,30,111,,80,80,12,31,10,7,0.5,0.6
2024-03-31T1500,1759A,124.0972,41.8961,抚顺市,大伙房水库,,37,37,107,13,22,116,,88,88,7,16,8,6,0.5,0.5
2024-03-31T1500,1760A,123.7086,41.8391,抚顺市,沈抚新城,,39,39,106,14,32,104,,77,77,10,29,7,6,0.3,0.5
2024-03-31T1500,2376A,116.2127,28.0814,抚州市,桐源党溪,,,,38,11,19,131,,115,115,2,10,4,5,0.4,0.5
2024-03-31T1500,2377A,116.3544,27.9831,抚州市,市站,,40,23,29,11,17,125,,112,112,2,12,1,2,0.4,0.6
2024-03-31T1500,2378A,116.3565,27.963,抚州市,血防站,,42,15,29,7,18,134,,121,121,4,10,2,3,0.6,0.8
2024-03-31T1500,2379A,116.3564,28.0007,抚州市,采茶剧团,,37,22,29,13,17,118,,109,109,5,11,6,7,0.6,0.8
2024-03-31T1500,2380A,116.385,27.9647,抚州市,医学分院,,40,33,40,7,15,127,,113,113,4,13,8,8,0.6,0.8
2024-03-31T1500,2207A,121.6094,41.998,阜新市,工业园区,,39,39,123,15,48,111,,90,90,8,31,13,23,0.6,0.9
2024-03-31T1500,2208A,121.6697,42.0279,阜新市,长青街,,42,42,93,14,41,104,,88,88,12,28,16,31,0.4,0.6
2024-03-31T1500,2209A,121.6673,42.0705,阜新市,农业园区,,49,49,94,17,31,105,,94,94,10,15,22,25,0.4,0.6
2024-03-31T1500,2210A,121.6717,42.0224,阜新市,东苑,颗粒物(PM10),64,78,104,14,32,102,,86,86,15,33,22,40,0.4,0.8
2024-03-31T1500,2211A,121.6506,42.0498,阜新市,玉龙新城,,46,41,99,32,36,109,,92,92,9,28,16,14,0.5,0.7
2024-03-31T1500,2301A,115.8277,32.8929,阜阳市,市监测站,颗粒物(PM10),88,125,119,54,46,168,,125,125,15,14,10,10,0.6,0.6
2024-03-31T1500,2303A,115.8554,32.8605,阜阳市,开发区,颗粒物(PM10),92,134,137,55,49,171,,122,122,14,16,8,8,0.6,0.6
2024-03-31T1500,2875A,115.784,32.8892,阜阳市,阜阳职业技术学院,颗粒物(PM10),77,103,118,43,45,167,,129,129,14,16,8,8,0.6,0.6
2024-03-31T1500,3468A,115.7901,32.8613,阜阳市,市规划展馆,颗粒物(PM10),80,110,112,50,48,169,,127,127,12,14,8,9,0.7,0.7
2024-03-31T1500,3469A,115.836,32.9183,阜阳市,枣园社区,颗粒物(PM10),78,105,111,54,49,170,,125,125,22,18,9,10,0.5,0.5
2024-03-31T1500,2669A,102.9099,34.9841,甘南藏族自治州,州政府,,32,18,78,8,29,101,,58,58,2,27,11,13,0.6,0.8
2024-03-31T1500,3380A,102.8914,34.9617,甘南藏族自治州,甘肃民族师范学院,,34,12,87,4,25,106,,58,58,2,32,15,10,0.6,0.7
2024-03-31T1500,2570A,101.9603,30.0475,甘孜藏族自治州,水桥子,,39,28,29,18,17,122,,78,78,4,17,11,11,0.2,0.3
2024-03-31T1500,3065A,101.9533,29.9972,甘孜藏族自治州,州环保局,,37,31,27,8,7,118,,87,87,7,16,8,8,0.2,0.2
2024-03-31T1500,3414A,115.8347,28.932,赣江新区,桑海产业园,,42,12,31,12,16,132,,109,109,8,24,6,8,0.2,0.3
2024-03-31T1500,2363A,114.9367,25.8664,赣州市,地委,,32,30,33,22,22,84,,64,64,2,12,10,12,1.2,1.1
2024-03-31T1500,2364A,114.9461,25.8481,赣州市,气象台,,32,32,29,22,23,94,,74,71,15,14,10,10,0.6,0.6
2024-03-31T1500,2365A,114.9322,25.8333,赣州市,市图书馆,,37,37,31,20,22,89,,65,65,6,11,13,21,0.9,0.9
2024-03-31T1500,2366A,114.8905,25.8471,赣州市,华坚鞋城,,,40,36,28,21,83,,62,62,8,10,,14,0.4,0.5
2024-03-31T1500,3109A,115.0093,25.8613,赣州市,赣县区卫计委,,33,23,27,23,20,84,,60,60,11,13,9,9,0.6,0.6
2024-03-31T1500,2683A,106.2319,36.1417,固原市,马园,颗粒物(PM10),91,132,79,19,22,119,,79,79,16,39,5,5,0.6,0.6
2024-03-31T1500,2684A,106.2792,36.0022,固原市,监测站,,,91,86,23,24,116,,98,98,,20,6,6,0.3,0.4
2024-03-31T1500,2685A,106.2375,36.0211,固原市,新区,颗粒物(PM10),62,74,62,18,21,118,,94,94,14,19,8,7,0.3,0.3
2024-03-31T1500,3522A,106.2177,35.9959,固原市,原州区十五小,颗粒物(PM10),52,53,67,17,22,124,,108,102,5,14,5,5,0.1,0.1
2024-03-31T1500,2544A,106.6303,30.4576,广安市,市委,,42,28,53,15,33,132,,76,76,11,25,7,6,0.6,0.8
2024-03-31T1500,2545A,106.6271,30.4663,广安市,友谊中学,,44,32,58,13,29,139,,78,78,11,27,6,5,0.7,0.9
2024-03-31T1500,2547A,106.6388,30.4551,广安市,广电花园,,42,21,49,14,30,134,,74,74,11,24,8,7,0.5,0.7
2024-03-31T1500,2902A,106.6351,30.4865,广安市,北辰小学,,41,24,45,15,28,131,,76,76,12,20,11,10,0.5,0.7
2024-03-31T1500,2523A,105.8945,32.4535,广元市,黑石坡,,38,10,15,9,9,121,,99,99,6,9,5,6,0.2,0.3
2024-03-31T1500,2524A,105.821,32.4444,广元市,老城,,36,10,32,6,14,115,,74,74,5,26,6,8,0.5,0.6
2024-03-31T1500,2526A,105.8628,32.4287,广元市,监测站,,38,18,20,8,14,121,,79,79,3,14,8,7,0.4,0.5
2024-03-31T1500,3617A,105.8047,32.4166,广元市,经开区,,37,19,39,10,23,116,,69,69,7,22,8,12,0.6,0.7
2024-03-31T1500,1345A,113.2347,23.1423,广州市,广雅中学,,,49,38,49,23,85,,40,40,,36,5,5,0.4,0.7
2024-03-31T1500,1346A,113.2612,23.105,广州市,市五中,,48,42,41,33,24,66,,31,31,16,33,6,6,0.7,0.7
2024-03-31T1500,1348A,113.3478,23.0916,广州市,广东商学院,细颗粒物(PM2.5),55,45,36,39,23,78,,38,38,20,37,4,4,0.5,0.5
2024-03-31T1500,1349A,113.4332,23.1047,广州市,市八十六中,,44,44,32,26,14,41,,30,30,37,37,5,5,0.6,0.6
2024-03-31T1500,1350A,113.3505,22.9483,广州市,番禺中学,,44,44,35,25,14,100,,42,42,18,27,8,6,0.6,0.6
2024-03-31T1500,1351A,113.2146,23.3916,广州市,花都师范,,50,50,45,32,21,83,,34,34,22,38,7,6,0.6,0.6
2024-03-31T1500,1352A,113.2597,23.1331,广州市,市监测站,,43,43,40,24,20,67,,34,34,16,32,5,5,0.4,0.4
2024-03-31T1500,1353A,113.5618,23.312,广州市,九龙镇镇龙,,44,44,34,26,17,74,,32,32,15,28,6,6,0.5,0.5
2024-03-31T1500,1354A,113.2765,23.1544,广州市,麓湖,,41,41,38,27,19,78,,36,36,12,28,4,5,0.5,0.6
2024-03-31T1500,1355A,113.443,23.3035,广州市,帽峰山森林公园,,42,30,30,29,17,97,,46,46,8,22,3,5,0.3,0.4
2024-03-31T1500,2846A,113.3221,23.1322,广州市,体育西,,43,42,40,30,19,84,,40,40,9,28,7,7,0.6,0.6
2024-03-31T1500,3298A,113.5717,23.5491,广州市,从化街口,细颗粒物(PM2.5),55,56,34,39,21,82,,42,42,20,21,6,7,0.6,0.6
2024-03-31T1500,3299A,113.3472,23.3692,广州市,白云竹料,颗粒物(PM10),51,51,40,21,17,101,,43,43,19,30,6,6,0.5,0.6
2024-03-31T1500,3300A,113.2981,23.237,广州市,白云嘉禾,,48,48,38,29,18,90,,39,39,22,41,4,4,0.7,0.7
2024-03-31T1500,3301A,113.4256,23.1716,广州市,黄埔科学城,,46,46,33,30,17,69,,32,32,25,34,5,5,0.7,0.7
2024-03-31T1500,3302A,113.3942,23.0483,广州市,番禺大学城,,45,45,37,26,15,66,,32,32,21,27,1,2,0.8,0.7
2024-03-31T1500,3303A,113.4922,22.8168,广州市,南沙黄阁,,47,47,36,25,17,48,,32,32,18,23,6,5,0.6,0.6
2024-03-31T1500,3304A,113.5342,22.7896,广州市,南沙街,,38,38,33,17,16,44,,26,26,13,19,5,5,0.5,0.6
2024-03-31T1500,3443A,113.2902,23.5544,广州市,花都梯面,,40,40,46,22,21,93,,37,37,16,33,6,6,0.6,0.7
2024-03-31T1500,3445A,113.7858,23.7478,广州市,从化良口,,35,33,27,24,18,49,,46,46,12,12,4,4,0.7,0.6
2024-03-31T1500,3446A,113.8051,23.2614,广州市,增城荔城,,50,50,35,29,19,85,,39,39,15,22,8,6,0.5,0.5
2024-03-31T1500,2505A,109.568,23.1478,贵港市,德智高中,颗粒物(PM10),60,69,62,41,40,62,,21,21,18,31,6,6,0.5,0.6
2024-03-31T1500,2506A,109.6047,23.0666,贵港市,江南子站,细颗粒物(PM2.5),52,44,68,36,39,86,,40,40,5,22,7,8,0.8,0.9
2024-03-31T1500,2507A,109.6014,23.0948,贵港市,贵城子站,颗粒物(PM10),55,59,77,38,48,78,,31,31,8,25,7,8,0.9,1.1
2024-03-31T1500,2508A,109.5669,23.1065,贵港市,荷城子站,细颗粒物(PM2.5),55,58,59,39,38,83,,36,36,6,23,10,10,0.5,0.8
2024-03-31T1500,3405A,109.5886,23.1172,贵港市,新世纪学校,细颗粒物(PM2.5),53,51,70,37,44,86,,31,31,15,36,9,9,0.7,1
2024-03-31T1500,1439A,106.6899,26.5998,贵阳市,马鞍山,细颗粒物(PM2.5),52,46,43,36,24,151,,114,114,9,12,10,9,0.6,0.7
2024-03-31T1500,1440A,106.6971,26.5694,贵阳市,市环保站,颗粒物(PM10),56,61,58,38,38,143,,120,120,20,22,6,9,0.6,0.6
2024-03-31T1500,1441A,106.6243,26.6266,贵阳市,鉴湖路,颗粒物(PM10),52,53,53,27,27,151,,121,121,7,12,5,8,0.5,0.4
2024-03-31T1500,1442A,106.7487,26.6343,贵阳市,燕子冲,臭氧1小时,55,34,45,24,30,164,,119,119,9,14,11,9,0.4,0.5
2024-03-31T1500,1443A,106.6555,26.4365,贵阳市,碧云窝,颗粒物(PM10),51,51,56,27,33,139,,117,117,7,16,8,7,0.8,0.6
2024-03-31T1500,1444A,106.694,26.5161,贵阳市,中院村,颗粒物(PM10),52,53,56,31,35,125,,103,103,14,24,10,13,0.4,0.5
2024-03-31T1500,1445A,106.7109,26.6027,贵阳市,红边门,,49,48,53,31,36,155,,121,121,12,15,6,10,0.4,0.4
2024-03-31T1500,1446A,106.7164,26.5699,贵阳市,新华路,细颗粒物(PM2.5),55,48,51,39,33,153,,127,127,10,15,12,10,0.6,0.6
2024-03-31T1500,1447A,106.674,26.5424,贵阳市,太慈桥,颗粒物(PM10),51,51,49,29,29,139,,112,112,12,18,8,10,0.4,0.4
2024-03-31T1500,1862A,110.4144,25.3167,桂林市,电子科大尧山校区,细颗粒物(PM2.5),63,,51,45,59,65,,48,48,5,10,4,12,0.8,0.9
2024-03-31T1500,1863A,110.2819,25.2697,桂林市,监测站,,35,26,69,24,47,78,,57,57,9,28,7,13,0.8,1.1
2024-03-31T1500,1864A,110.3089,25.2708,桂林市,龙隐路小学,,45,,64,31,50,69,,52,52,11,23,4,10,0.7,0.9
2024-03-31T1500,1865A,110.2869,25.2178,桂林市,八中,,30,22,63,21,46,64,,47,47,13,31,5,8,0.3,0.6
2024-03-31T1500,3403A,110.1764,25.2381,桂林市,创业大厦,,32,31,46,22,40,72,,64,61,11,22,6,15,0.5,0.6
2024-03-31T1500,3531A,110.296,25.1253,桂林市,旅游学院,,20,17,38,14,32,57,,47,47,12,20,6,7,0.5,0.6
2024-03-31T1500,2674A,100.2561,34.4714,果洛藏族自治州,玛沁县大武镇,,35,11,24,6,18,110,,84,84,3,8,10,11,0.4,0.5
2024-03-31T1500,1129A,126.5422,45.755,哈尔滨市,岭北,,31,31,44,10,28,74,,68,68,7,12,12,13,0.6,0.7
2024-03-31T1500,1130A,126.561,45.8167,哈尔滨市,松北商大,,30,30,44,12,24,69,,63,63,9,16,11,6,0.5,0.5
2024-03-31T1500,1131A,126.979,45.5419,哈尔滨市,阿城会宁,,36,36,47,14,20,67,,64,64,11,11,4,4,0.4,0.4
2024-03-31T1500,1132A,126.599,45.7222,哈尔滨市,南岗学府路,,30,30,55,6,22,61,,58,58,5,10,5,7,0.4,0.5
2024-03-31T1500,1133A,126.689,45.7733,哈尔滨市,太平宏伟公园,,23,23,46,12,26,69,,64,64,6,9,6,7,0.4,0.4
2024-03-31T1500,1134A,126.635,45.7667,哈尔滨市,道外承德广场,,24,24,45,12,24,60,,57,57,18,22,6,7,0.5,0.6
2024-03-31T1500,1135A,126.685,45.7319,哈尔滨市,香坊红旗大街,,33,33,52,13,31,70,,65,65,12,16,5,6,0.3,0.4
2024-03-31T1500,1136A,126.6411,45.7258,哈尔滨市,动力和平路,,33,33,49,13,26,71,,64,64,7,12,4,5,0.4,0.5
2024-03-31T1500,1137A,126.593,45.7478,哈尔滨市,道里建国路,,26,19,45,18,27,64,,59,59,4,9,4,4,0.4,0.4
2024-03-31T1500,1138A,126.615,45.61,哈尔滨市,平房东轻厂,,23,23,42,12,18,68,,64,64,7,14,4,4,0.3,0.3
2024-03-31T1500,1139A,126.595,45.9855,哈尔滨市,呼兰师专,,30,30,46,15,28,67,,59,59,8,19,6,6,0.5,0.5
2024-03-31T1500,1140A,126.6206,45.6842,哈尔滨市,省农科院,,24,22,45,16,25,75,,70,70,6,14,8,8,0.3,0.4
2024-03-31T1500,2688A,93.5128,42.8172,哈密市,地区监测站,颗粒物(PM10),70,90,55,21,17,116,,92,92,8,27,4,5,0.2,0.3
2024-03-31T1500,2689A,93.4961,42.8328,哈密市,哈密师范学校,颗粒物(PM10),61,71,61,13,18,114,,87,87,7,31,6,7,0.5,0.6
2024-03-31T1500,2671A,100.9048,36.9639,海北藏族自治州,海晏县西海镇,,43,43,68,26,22,116,,84,84,6,9,14,13,0.4,0.4
2024-03-31T1500,3867A,102.0738,36.5056,海东市,平安区公安北苑,颗粒物(PM10),62,74,139,36,51,127,,81,81,8,14,9,12,0.5,0.5
2024-03-31T1500,1410A,110.3232,20.0574,海口市,海南大学,,32,32,28,22,16,93,,44,44,11,12,8,7,0.4,0.3
2024-03-31T1500,1411A,110.283,20.0053,海口市,秀英海南医院,,46,46,31,26,18,75,,43,43,33,21,9,8,0.4,0.4
2024-03-31T1500,1412A,110.338,19.9969,海口市,海南师范大学,,49,49,29,27,18,99,,60,60,19,11,8,8,0.5,0.4
2024-03-31T1500,1413A,110.33,20.0356,海口市,龙华路环保局宿舍,,38,38,31,20,19,90,,62,62,16,12,8,8,0.3,0.3
2024-03-31T1500,3539A,110.5111,19.9736,海口市,桂林洋子站,,39,39,28,25,17,78,,53,53,8,6,8,7,0.3,0.3
2024-03-31T1500,2673A,100.6188,36.2866,海南藏族自治州,共和县恰卜恰镇,,35,,39,19,22,112,,77,77,4,17,8,12,0.5,0.5
2024-03-31T1500,2676A,97.3731,37.3753,海西蒙古族藏族自治州,德令哈市,,35,29,35,12,11,111,,97,97,8,8,12,11,0.5,0.5
2024-03-31T1500,1048A,114.5302,36.6116,邯郸市,东污水处理厂,颗粒物(PM10),88,125,124,56,54,137,,97,97,9,34,7,7,0.5,0.5
2024-03-31T1500,1049A,114.4918,36.5713,邯郸市,矿院,颗粒物(PM10),81,111,93,35,40,130,,89,89,11,30,6,6,0.6,0.6
2024-03-31T1500,1050A,114.484,36.6133,邯郸市,丛台公园,细颗粒物(PM2.5),77,94,85,56,37,139,,93,93,9,24,9,8,0.4,0.4
2024-03-31T1500,3458A,114.7895,36.5593,邯郸市,香泉濮院小区,颗粒物(PM10),93,136,111,41,38,153,,112,112,8,16,9,11,0.4,0.4
2024-03-31T1500,3580A,114.20016,36.44293,邯郸市,峰峰矿区临水派出所,颗粒物(PM10),90,129,101,65,51,156,,111,111,10,12,16,12,1.2,0.9
2024-03-31T1500,2634A,106.9893,33.1842,汉中市,汉川机床厂子校,,40,20,40,16,20,128,,86,86,5,12,4,5,0.7,0.8
2024-03-31T1500,2635A,107.0154,33.0706,汉中市,市监测站,,43,31,62,21,38,137,,86,86,9,30,8,9,0.5,0.7
2024-03-31T1500,2636A,107.0089,33.1138,汉中市,鑫源开发区,,44,32,61,18,28,140,,93,93,5,30,8,11,0.6,0.8
2024-03-31T1500,2637A,107.007,33.0323,汉中市,南郑大河坎水厂,,45,26,53,15,27,142,,86,86,6,23,9,9,0.4,0.6
2024-03-31T1500,1223A,120.2072,30.2111,杭州市,滨江,颗粒物(PM10),81,112,93,45,40,132,,83,83,29,44,5,6,0.9,0.7
2024-03-31T1500,1224A,120.0633,30.2747,杭州市,西溪,颗粒物(PM10),56,61,93,37,56,137,,82,82,25,39,8,7,0.9,0.8
2024-03-31T1500,1226A,120.3461,30.3153,杭州市,下沙,颗粒物(PM10),96,141,126,59,57,130,,81,81,33,55,8,8,1.0,0.8
2024-03-31T1500,1227A,120.1269,30.2456,杭州市,卧龙桥,细颗粒物(PM2.5),90,90,73,67,48,131,,82,82,28,38,6,5,1.0,0.8
2024-03-31T1500,1228A,120.1903,30.2692,杭州市,浙江农大,颗粒物(PM10),82,113,115,50,57,127,,74,74,30,58,6,7,0.9,0.8
2024-03-31T1500,1230A,120.1197,30.3119,杭州市,和睦小学,颗粒物(PM10),66,81,108,45,60,139,,82,82,26,55,8,8,0.8,0.8
2024-03-31T1500,1231A,120.3019,30.4183,杭州市,临平镇,颗粒物(PM10),161,271,187,110,96,124,,80,80,32,51,7,7,1.0,0.8
2024-03-31T1500,1232A,120.2697,30.1819,杭州市,城厢镇,细颗粒物(PM2.5),77,84,80,56,54,138,,78,78,27,45,6,6,0.9,0.7
2024-03-31T1500,1233A,120.0883,30.1808,杭州市,云栖,颗粒物(PM10),86,121,92,47,45,134,,75,75,32,42,9,9,0.9,0.8
2024-03-31T1500,3557A,119.9464,30.0494,杭州市,镇二中,颗粒物(PM10),59,68,69,36,41,102,,60,60,29,51,7,7,1.0,0.9
2024-03-31T1500,3558A,119.7183,30.2367,杭州市,市府大楼,细颗粒物(PM2.5),52,50,85,36,53,140,,88,88,27,35,7,6,0.7,0.7
2024-03-31T1500,3656A,120.1556,30.2864,杭州市,消防大队,细颗粒物(PM2.5),69,78,110,50,59,135,,84,84,26,57,9,9,1.0,0.9
2024-03-31T1500,1270A,117.1959,31.7848,合肥市,明珠广场,颗粒物(PM10),81,112,105,51,39,172,,127,127,26,30,8,8,0.6,0.6
2024-03-31T1500,1271A,117.3072,31.8764,合肥市,三里街,颗粒物(PM10),101,151,119,66,45,136,,97,97,30,29,6,5,0.7,0.6
2024-03-31T1500,1272A,117.2588,31.8707,合肥市,琥珀山庄,颗粒物(PM10),97,144,112,56,33,178,,131,131,25,27,7,5,0.7,0.6
2024-03-31T1500,1273A,117.1604,31.9052,合肥市,董铺水库,颗粒物(PM10),100,149,119,48,35,179,,136,136,15,18,4,4,0.6,0.5
2024-03-31T1500,1274A,117.25,31.8571,合肥市,长江中路,颗粒物(PM10),93,136,113,64,44,176,,124,124,20,24,10,9,0.8,0.7
2024-03-31T1500,1275A,117.266,31.9436,合肥市,庐阳区,颗粒物(PM10),97,144,127,66,43,144,,110,110,17,22,7,6,0.7,0.7
2024-03-31T1500,1276A,117.336,31.8586,合肥市,瑶海区,颗粒物(PM10),103,156,126,63,40,165,,110,110,20,24,10,8,0.9,0.8
2024-03-31T1500,1277A,117.3027,31.7964,合肥市,包河区,颗粒物(PM10),102,153,123,,41,145,,103,103,32,42,9,9,0.6,0.5
2024-03-31T1500,1278A,117.2776,31.7385,合肥市,滨湖新区,颗粒物(PM10),108,166,113,66,38,132,,109,109,32,22,10,8,0.6,0.5
2024-03-31T1500,1279A,117.1318,31.8403,合肥市,高新区,颗粒物(PM10),89,127,105,58,40,168,,123,123,19,24,9,9,0.8,0.8
2024-03-31T1500,3464A,117.3803,31.9147,合肥市,高教基地,颗粒物(PM10),100,149,119,47,42,180,,131,131,24,21,10,7,0.7,0.5
2024-03-31T1500,3614A,79.924,37.0877,和田地区,地区环保局,,,3676,1542,,388,92,,92,92,3,5,5,6,0.4,0.5
2024-03-31T1500,3615A,79.9131,37.113,和田地区,市环保局,颗粒物(PM10),500,3660,1863,454,308,91,,90,90,1,4,4,6,0.3,0.4
2024-03-31T1500,2516A,108.2011,24.715,河池市,东仁乐园,颗粒物(PM10),69,88,78,44,45,20,,9,9,11,10,5,6,0.6,0.6
2024-03-31T1500,2517A,108.0497,24.6947,河池市,市环保站,细颗粒物(PM2.5),60,58,55,43,44,101,,48,48,11,16,7,7,0.7,0.8
2024-03-31T1500,2518A,108.0983,24.6989,河池市,市疾控中心,细颗粒物(PM2.5),58,57,59,41,46,97,,38,38,14,24,6,6,0.8,0.8
2024-03-31T1500,1696A,114.6778,23.7569,河源市,源西,,35,32,33,24,28,86,,42,42,10,14,4,4,0.8,0.7
2024-03-31T1500,1697A,114.6944,23.7586,河源市,东埔,,29,22,56,17,23,92,,43,43,7,12,6,7,0.6,0.6
2024-03-31T1500,1698A,114.6892,23.7233,河源市,老城,,,,38,,19,80,,44,44,10,16,,5,,0.6
2024-03-31T1500,1718A,115.4208,35.2464,菏泽市,气象局,颗粒物(PM10),92,134,104,39,30,161,,115,115,17,32,8,6,0.5,0.5
2024-03-31T1500,1719A,115.4747,35.2375,菏泽市,市政协,颗粒物(PM10),88,125,101,36,31,156,,113,113,14,28,8,5,0.5,0.5
2024-03-31T1500,3374A,115.5564,35.0891,菏泽市,定陶老年大学,颗粒物(PM10),89,127,107,44,30,152,,115,115,15,25,7,7,0.4,0.3
2024-03-31T1500,3647A,115.4702,35.2706,菏泽市,菏泽医专,颗粒物(PM10),86,122,105,33,25,145,,114,114,15,26,10,6,0.5,0.5
2024-03-31T1500,2514A,111.5264,24.4172,贺州市,环保小区,,36,31,48,25,33,85,,77,77,8,24,6,7,0.6,0.8
2024-03-31T1500,2515A,111.5608,24.4078,贺州市,政协大楼,,40,31,47,28,35,76,,56,56,7,23,6,7,0.7,0.8
2024-03-31T1500,3534A,111.4744,24.4553,贺州市,西湾,,39,38,42,27,33,103,,74,74,10,22,6,6,0.6,0.7
2024-03-31T1500,2385A,114.17,35.9019,鹤壁市,市监测站,颗粒物(PM10),94,138,120,63,52,149,,105,105,13,26,14,11,0.5,0.4
2024-03-31T1500,2386A,114.2956,35.7511,鹤壁市,市交警支队,颗粒物(PM10),85,119,108,51,37,151,,107,107,17,44,13,12,0.5,0.5
2024-03-31T1500,2387A,114.2878,35.7306,鹤壁市,迎宾馆,颗粒物(PM10),82,114,108,55,42,152,,108,108,19,43,13,11,0.5,0.5
2024-03-31T1500,3474A,114.2617,35.6822,鹤壁市,大新区,颗粒物(PM10),94,137,116,55,39,138,,98,98,22,51,11,10,0.7,0.6
2024-03-31T1500,3596A,114.1572,35.9603,鹤壁市,南山宾馆,颗粒物(PM10),95,140,133,48,50,157,,106,106,17,33,13,15,0.7,0.6
2024-03-31T1500,2244A,130.2537,47.3416,鹤岗市,哈啤分公司,,29,,19,20,16,65,,63,63,4,5,13,14,0.6,0.7
2024-03-31T1500,2245A,130.2684,47.3086,鹤岗市,斯达机电,,28,,26,19,18,70,,66,66,4,6,10,10,0.5,0.5
2024-03-31T1500,2246A,130.3114,47.3388,鹤岗市,东山纸板厂,,27,27,30,18,21,68,,65,65,4,5,12,13,0.3,0.5
2024-03-31T1500,2247A,130.1097,47.3382,鹤岗市,五号水库,,25,21,19,3,11,80,,77,77,4,4,9,10,0.3,0.3
2024-03-31T1500,2263A,127.4833,50.2524,黑河市,交通局,,25,9,14,9,10,77,,77,77,4,4,8,8,0.2,0.2
2024-03-31T1500,2264A,127.5144,50.2341,黑河市,环保局,,,10,15,9,16,74,,73,73,,7,5,5,0.5,0.3
2024-03-31T1500,2265A,127.5291,50.2472,黑河市,大黑河岛,,,37,26,3,9,,,,,22,27,3,2,0.4,0.4
2024-03-31T1500,1074A,115.6838,37.7541,衡水市,电机北厂,颗粒物(PM10),79,108,90,24,36,161,,117,117,9,14,5,5,0.5,0.4
2024-03-31T1500,1075A,115.6303,37.7316,衡水市,市监测站,颗粒物(PM10),72,93,81,25,23,162,,116,116,10,18,6,6,0.5,0.4
2024-03-31T1500,3188A,115.6683,37.7217,衡水市,市城管局,颗粒物(PM10),79,107,89,33,27,152,,111,111,13,21,10,9,0.5,0.4
2024-03-31T1500,3459A,115.5989,37.5491,衡水市,地表水厂,颗粒物(PM10),82,114,95,43,27,163,,115,115,6,20,7,5,0.5,0.4
2024-03-31T1500,2456A,112.5003,26.9167,衡阳市,原169医院,,46,37,37,18,24,145,,130,130,4,11,10,12,0.5,0.6
2024-03-31T1500,2457A,112.6194,26.9258,衡阳市,衡阳化工总厂,,48,39,37,27,31,151,,129,129,6,9,7,8,0.6,0.6
2024-03-31T1500,2458A,112.6211,26.8956,衡阳市,珠晖区环保局,,46,31,35,20,23,146,,123,123,6,8,6,8,0.7,0.7
2024-03-31T1500,2459A,112.6197,26.8733,衡阳市,市委党校,,48,26,35,18,23,151,,129,129,5,8,9,10,0.7,0.8
2024-03-31T1500,2460A,112.6006,26.8919,衡阳市,市监测站,,49,28,35,23,28,155,,132,132,5,11,7,8,0.6,0.7
2024-03-31T1500,2461A,112.5664,26.9056,衡阳市,真空机电公司,,45,32,35,18,22,144,,127,127,5,9,8,10,0.6,0.7
2024-03-31T1500,3399A,112.6703,26.882,衡阳市,师范学院,,47,32,35,27,26,148,,128,128,6,8,9,9,0.7,0.7
2024-03-31T1500,2608A,103.3772,23.3993,红河哈尼族彝族自治州,污水处理厂,颗粒物(PM10),51,51,84,32,63,124,,112,112,6,11,7,7,0.3,0.5
2024-03-31T1500,2609A,103.3861,23.35,红河哈尼族彝族自治州,监测站,细颗粒物(PM2.5),57,61,73,40,59,118,,111,111,4,10,7,10,0.3,0.5
2024-03-31T1500,3038A,103.3758,23.368,红河哈尼族彝族自治州,州图书馆,,45,45,76,31,58,115,,110,110,5,9,5,6,0.5,0.6
2024-03-31T1500,1090A,111.6507,40.7517,呼和浩特市,呼市一监,,44,44,72,15,34,132,,89,89,3,23,9,11,0.4,0.6
2024-03-31T1500,1091A,111.6572,40.8033,呼和浩特市,小召,颗粒物(PM10),54,58,62,19,22,127,,83,83,14,28,10,10,0.5,0.5
2024-03-31T1500,1094A,111.7516,40.8369,呼和浩特市,如意水处理厂,,40,38,46,17,18,126,,79,79,9,27,9,10,0.3,0.4
2024-03-31T1500,1095A,111.7276,40.8062,呼和浩特市,二十九中,,41,33,54,16,20,129,,81,81,9,24,11,12,0.5,0.6
2024-03-31T1500,1096A,111.5512,40.7866,呼和浩特市,工大金川校区,,41,41,63,18,24,121,,82,82,9,26,10,9,0.3,0.4
2024-03-31T1500,1097A,111.717,40.7612,呼和浩特市,化肥厂生活区,,40,39,72,16,31,126,,87,87,9,28,9,11,0.3,0.5
2024-03-31T1500,3698A,111.5968,40.8178,呼和浩特市,红旗小学,,48,48,64,16,19,125,,80,80,12,34,9,7,0.3,0.4
2024-03-31T1500,3699A,111.6518,40.8389,呼和浩特市,海东办,,46,46,55,15,18,124,,79,79,12,33,12,8,0.3,0.3
2024-03-31T1500,2192A,119.7594,49.2261,呼伦贝尔市,区环保局,,29,25,39,10,15,92,,81,81,6,9,4,4,0.2,0.2
2024-03-31T1500,3061A,119.7512,49.1577,呼伦贝尔市,国华电力东,,29,23,34,9,14,92,,83,83,3,5,4,4,0.2,0.2
2024-03-31T1500,1250A,120.0751,30.8669,湖州市,城西水厂,细颗粒物(PM2.5),67,73,91,48,52,126,,126,101,42,40,7,5,0.8,0.8
2024-03-31T1500,2873A,120.0875,30.8955,湖州市,仁皇山新区,细颗粒物(PM2.5),69,75,89,50,55,139,,121,106,25,33,7,6,0.8,0.8
2024-03-31T1500,2907A,120.1844,30.8596,湖州市,吴兴区站,细颗粒物(PM2.5),73,63,95,53,56,143,,119,102,21,30,5,6,0.7,0.7
2024-03-31T1500,3562A,120.4148,30.8538,湖州市,南浔区站,细颗粒物(PM2.5),74,76,109,54,65,146,,101,99,17,32,9,11,0.8,0.8
2024-03-31T1500,1607A,120.9092,40.7136,葫芦岛市,龙港区,颗粒物(PM10),52,54,43,20,15,110,,88,88,11,15,9,9,0.6,0.6
2024-03-31T1500,1608A,120.8392,40.7514,葫芦岛市,化工街,,46,46,59,17,20,113,,82,82,11,42,39,15,0.4,0.6
2024-03-31T1500,1609A,120.8341,40.7073,葫芦岛市,新区,颗粒物(PM10),59,68,46,25,18,105,,85,85,18,25,11,14,0.7,0.7
2024-03-31T1500,1610A,120.8695,40.7677,葫芦岛市,东城区,,45,45,57,14,23,120,,77,77,12,52,7,15,0.6,0.8
2024-03-31T1500,2482A,109.5981,27.5721,怀化市,林科所,,44,13,29,4,15,138,,114,114,4,4,9,9,0.4,0.6
2024-03-31T1500,2483A,109.9453,27.5444,怀化市,河西地税局,,40,25,32,19,23,125,,88,88,4,10,7,6,0.5,0.6
2024-03-31T1500,2484A,109.9781,27.5342,怀化市,市四医院,,39,19,32,14,27,122,,99,99,4,9,7,9,0.6,0.6
2024-03-31T1500,2485A,109.9972,27.5578,怀化市,监测楼,,37,22,36,14,21,118,,92,92,3,6,8,8,0.5,0.6
2024-03-31T1500,2486A,110.0394,27.583,怀化市,市委党校,,39,22,34,13,24,122,,90,90,3,6,8,8,0.6,0.7
2024-03-31T1500,1210A,119.036,33.5981,淮安市,钵池山,颗粒物(PM10),70,90,115,31,32,134,,101,101,14,17,10,10,0.7,0.7
2024-03-31T1500,1211A,119.007,33.575,淮安市,北京南路,颗粒物(PM10),78,105,124,30,35,134,,103,103,17,17,9,8,0.7,0.7
2024-03-31T1500,1212A,118.989,33.6067,淮安市,市监测站,颗粒物(PM10),81,112,127,41,34,134,,104,104,22,19,10,9,0.7,0.7
2024-03-31T1500,1213A,119.135,33.5039,淮安市,楚州区监测站,颗粒物(PM10),75,100,136,30,37,127,,98,98,16,19,8,8,0.5,0.6
2024-03-31T1500,1214A,119.0186,33.6297,淮安市,淮阴区监测站,颗粒物(PM10),79,107,133,32,37,132,,104,104,24,23,6,6,0.5,0.5
2024-03-31T1500,3426A,118.8755,33.2894,淮安市,新华书店,颗粒物(PM10),68,86,117,28,32,121,,100,100,19,20,7,7,0.4,0.5
2024-03-31T1500,2282A,116.8004,33.975,淮北市,监测站,颗粒物(PM10),82,114,127,37,37,152,,125,125,15,17,8,7,0.5,0.5
2024-03-31T1500,2283A,116.8091,33.9007,淮北市,烈山区政府,颗粒物(PM10),79,108,144,37,42,144,,119,119,11,15,8,7,0.4,0.5
2024-03-31T1500,3330A,116.8873,33.9836,淮北市,杜集区检察院,颗粒物(PM10),84,118,139,33,41,147,,127,127,16,15,11,10,0.6,0.7
2024-03-31T1500,4017A,116.7923,33.9535,淮北市,市博物馆,颗粒物(PM10),82,113,129,40,35,149,,120,120,8,10,8,7,0.5,0.5
2024-03-31T1500,2277A,116.8305,32.7727,淮南市,潘集区政府,颗粒物(PM10),106,161,137,59,52,168,,131,131,15,14,5,4,0.5,0.5
2024-03-31T1500,2278A,117.0067,32.6524,淮南市,师范学院,颗粒物(PM10),109,167,137,58,52,169,,132,132,20,17,14,11,0.3,0.3
2024-03-31T1500,2279A,116.8569,32.5951,淮南市,谢家集区政府,颗粒物(PM10),89,128,122,57,42,178,,140,140,16,15,11,8,0.5,0.4
2024-03-31T1500,2280A,116.8281,32.633,淮南市,八公山区政府,颗粒物(PM10),105,160,138,58,49,172,,143,143,14,12,8,6,0.5,0.5
2024-03-31T1500,2281A,116.6325,32.6201,淮南市,焦岗湖风景区管理处,细颗粒物(PM2.5),94,124,102,70,34,133,,116,116,15,19,6,5,0.1,0.1
2024-03-31T1500,2894A,117.0566,32.6531,淮南市,经济技术开发区消防队,颗粒物(PM10),99,148,125,61,45,169,,136,136,25,19,12,8,0.6,0.5
2024-03-31T1500,3329A,117.0108,32.5893,淮南市,山南新区,颗粒物(PM10),110,170,145,66,50,185,,144,144,21,18,8,7,0.6,0.6
2024-03-31T1500,2446A,114.9028,30.4742,黄冈市,职工中心,臭氧1小时,78,44,55,26,34,182,,135,135,6,11,12,13,0.7,0.6
2024-03-31T1500,2929A,114.8858,30.4519,黄冈市,红卫路,臭氧1小时,93,36,48,26,33,194,,146,146,9,16,9,10,0.4,0.4
2024-03-31T1500,3398A,114.9136,30.4445,黄冈市,市林业局,臭氧1小时,82,35,48,24,31,185,,138,138,2,9,7,7,0.4,0.5
2024-03-31T1500,2672A,102.0199,35.5102,黄南藏族自治州,同仁县隆务镇,,33,33,39,11,15,100,,70,70,9,8,5,8,0.1,0.4
2024-03-31T1500,2295A,118.2903,29.6963,黄山市,延安路89号,,38,32,42,13,14,119,,83,83,5,12,6,7,0.5,0.6
2024-03-31T1500,2296A,118.327,29.7178,黄山市,黄山东路89号,,37,28,37,11,22,116,,77,77,5,13,5,5,0.3,0.5
2024-03-31T1500,2297A,118.1371,30.2756,黄山市,黄山区政府5号楼,,38,24,47,15,28,119,,78,78,7,12,4,4,0.5,0.7
2024-03-31T1500,2423A,115.0601,30.2313,黄石市,沈家营,,48,27,44,11,22,153,,124,124,4,17,9,11,0.4,0.5
2024-03-31T1500,2424A,115.0817,30.2006,黄石市,陈家湾,,49,33,50,21,26,155,,127,127,5,24,12,14,0.5,0.9
2024-03-31T1500,2426A,114.8988,30.2019,黄石市,铁山,,44,34,49,8,24,140,,118,118,7,15,11,10,0.4,0.7
2024-03-31T1500,2427A,115.0307,30.2092,黄石市,团城山,颗粒物(PM10),52,54,53,7,21,146,,124,124,4,17,9,14,0.3,0.8
2024-03-31T1500,3149A,115.0235,30.1578,黄石市,笔架山北路,臭氧1小时,53,26,56,13,17,162,,134,134,5,12,8,9,0.3,0.4
2024-03-31T1500,1392A,114.4183,23.0528,惠州市,河南岸金山湖子站,,29,29,25,19,13,52,,39,39,5,9,4,5,0.6,0.6
2024-03-31T1500,1393A,114.4053,23.0822,惠州市,下埔横江三路子站,,32,32,29,17,14,59,,44,44,7,11,5,5,0.5,0.6
2024-03-31T1500,1394A,114.4103,23.1142,惠州市,江北云山西路子站,,31,31,26,18,14,58,,42,42,4,9,5,5,0.4,0.5
2024-03-31T1500,1395A,114.4645,22.7833,惠州市,惠阳区承修路船湖子站,,27,27,24,16,12,32,,26,25,8,10,3,3,0.5,0.5
2024-03-31T1500,1396A,114.5317,22.7422,惠州市,大亚湾管委会子站,,23,23,28,16,14,39,,30,30,8,15,1,2,0.5,0.5
2024-03-31T1500,3314A,114.4338,22.8134,惠州市,惠阳秋长,,29,29,27,16,11,37,,30,26,18,18,7,7,0.6,0.7
2024-03-31T1500,3452A,114.6517,22.775,惠州市,大亚湾霞涌,,29,24,20,20,13,35,,28,26,8,10,6,6,0.3,0.4
2024-03-31T1500,2240A,130.9762,45.3001,鸡西市,环保局,,,62,48,23,16,,,62,,5,5,5,5,0.3,0.2
2024-03-31T1500,2243A,130.9429,45.3039,鸡西市,第一中学,,39,39,48,21,16,72,,73,73,6,6,6,6,0.1,0.1
2024-03-31T1500,3707A,131.0207,45.3073,鸡西市,欧美日汽修厂,,,58,54,26,18,,,60,,7,9,3,4,0.3,0.3
2024-03-31T1500,3709A,130.9967,45.3106,鸡西市,市政设施管理处,颗粒物(PM10),62,74,55,23,16,64,,66,66,10,10,4,4,0.2,0.2
2024-03-31T1500,2367A,114.9754,27.0803,吉安市,红声器材厂,,42,17,32,9,21,132,,99,99,11,14,9,8,0.4,0.4
2024-03-31T1500,2368A,114.9658,27.0999,吉安市,市森林工业局,,40,14,33,8,23,128,,99,99,6,14,12,9,0.4,0.4
2024-03-31T1500,2369A,114.99,27.1312,吉安市,市环境监测站,,43,16,34,6,20,135,,104,104,6,9,13,12,0.6,0.7
2024-03-31T1500,2370A,115.0093,27.0968,吉安市,青原区法院,,42,20,42,2,24,133,,103,103,7,5,14,13,0.5,0.6
2024-03-31T1500,1772A,126.54,43.8622,吉林市,哈达湾,,42,42,51,21,15,100,,88,88,6,6,5,5,0.5,0.4
2024-03-31T1500,1773A,126.5844,43.8358,吉林市,东局子,,49,49,54,18,12,102,,88,88,7,8,5,4,0.5,0.4
2024-03-31T1500,1774A,126.5052,43.8245,吉林市,电力学院,,49,49,50,19,15,112,,97,97,5,5,7,7,0.6,0.5
2024-03-31T1500,1775A,126.6133,43.8972,吉林市,江北,,,57,59,20,15,94,,87,87,,10,,6,0.6,0.6
2024-03-31T1500,1776A,126.555,43.8306,吉林市,江南公园,,47,47,54,26,16,102,,89,89,9,7,5,4,0.5,0.4
2024-03-31T1500,2868A,126.4739,43.953,吉林市,九站,,43,43,57,10,14,97,,86,86,5,6,6,5,0.6,0.6
2024-03-31T1500,1299A,116.9862,36.6114,济南市,科干所,颗粒物(PM10),78,105,60,27,15,146,,121,121,12,14,10,8,0.6,0.6
2024-03-31T1500,1300A,116.9376,36.665,济南市,农科所,颗粒物(PM10),80,110,85,32,20,143,,109,109,15,33,8,6,0.6,0.7
2024-03-31T1500,1301A,117.1265,36.6734,济南市,开发区,颗粒物(PM10),68,85,72,22,16,149,,120,120,11,28,9,8,0.5,0.6
2024-03-31T1500,1303A,117.0624,36.6868,济南市,省种子仓库,颗粒物(PM10),78,105,109,22,22,151,,113,113,9,50,7,6,0.4,0.6
2024-03-31T1500,1304A,116.9489,36.6447,济南市,机床二厂,颗粒物(PM10),81,112,83,22,15,153,,120,120,13,21,9,7,0.7,0.7
2024-03-31T1500,1305A,117.0495,36.663,济南市,市监测站,颗粒物(PM10),73,95,74,29,18,153,,123,123,14,40,13,12,0.6,0.7
2024-03-31T1500,1306A,116.7675,36.5484,济南市,长清党校,颗粒物(PM10),85,120,73,37,20,148,,118,118,11,18,9,6,0.6,0.5
2024-03-31T1500,1616A,117.6795,36.229,济南市,技术学院,颗粒物(PM10),84,117,79,39,22,157,,108,108,15,21,16,11,1.1,0.7
2024-03-31T1500,1961A,117.532,36.6868,济南市,东山小学,颗粒物(PM10),67,83,94,24,27,156,,119,119,15,28,7,9,0.3,0.5
2024-03-31T1500,3059A,117.7161,36.2049,济南市,泰兴公司,颗粒物(PM10),69,88,78,29,26,160,,104,104,12,23,12,11,0.8,0.8
2024-03-31T1500,3064A,117.6867,36.2171,济南市,莱芜战役纪念馆,颗粒物(PM10),76,102,78,31,21,154,,106,106,14,19,12,9,1.1,0.7
2024-03-31T1500,3494A,117.1673,36.9782,济南市,济阳区政府,,,120,104,,30,143,,99,99,17,37,12,12,0.6,0.7
2024-03-31T1500,3495A,117.1171,36.63,济南市,锦屏中学,颗粒物(PM10),69,88,57,27,13,156,,132,132,12,13,7,7,0.5,0.5
2024-03-31T1500,3682A,116.9814,36.6819,济南市,济南四建,颗粒物(PM10),74,97,89,29,21,144,,112,112,12,41,10,9,0.5,0.6
2024-03-31T1500,1653A,116.6251,35.4302,济宁市,火炬城,颗粒物(PM10),76,102,97,31,21,142,,107,107,11,18,8,9,0.7,0.6
2024-03-31T1500,1655A,116.5491,35.4042,济宁市,电化厂,颗粒物(PM10),89,128,121,34,24,140,,107,107,12,14,8,9,0.7,0.6
2024-03-31T1500,3500A,116.5814,35.3707,济宁市,北湖一中,颗粒物(PM10),77,103,99,39,23,142,,106,106,12,17,2,3,0.8,0.7
2024-03-31T1500,3501A,116.8249,35.5593,济宁市,服务中心,颗粒物(PM10),82,114,80,30,14,132,,97,97,11,18,5,4,0.5,0.4
2024-03-31T1500,3678A,116.5907,35.4054,济宁市,市第七中学,颗粒物(PM10),81,112,109,31,21,139,,106,106,12,17,6,6,0.7,0.7
2024-03-31T1500,2255A,130.2751,46.8028,佳木斯市,佳纺,,,19,19,6,11,71,,69,69,,7,5,6,0.4,0.4
2024-03-31T1500,2256A,130.3995,46.8307,佳木斯市,发电厂,,25,11,17,3,10,77,,72,72,2,7,3,3,0.4,0.4
2024-03-31T1500,2257A,130.3258,46.7975,佳木斯市,环保局,,,14,18,4,10,74,,70,70,5,7,5,3,,0.5
2024-03-31T1500,2258A,130.3648,46.8032,佳木斯市,十一中,,25,17,19,6,11,77,,73,73,5,6,6,6,0.4,0.4
2024-03-31T1500,2259A,130.3794,46.7588,佳木斯市,四丰,,27,8,16,3,7,84,,80,80,3,3,1,1,0.4,0.4
2024-03-31T1500,1252A,120.7436,30.778,嘉兴市,清河小学,"颗粒物(PM10),细颗粒物(PM2.5)",59,67,87,42,50,132,,86,83,29,41,9,8,0.8,0.5
2024-03-31T1500,1253A,120.726,30.7478,嘉兴市,嘉兴学院,细颗粒物(PM2.5),77,97,108,56,53,133,,83,81,28,36,9,8,0.7,0.6
2024-03-31T1500,2872A,120.7846,30.7525,嘉兴市,南湖区残联,颗粒物(PM10),91,131,102,63,59,128,,82,82,31,38,8,8,0.8,0.7
2024-03-31T1500,3407A,120.6916,30.7739,嘉兴市,秀洲住建,细颗粒物(PM2.5),62,64,88,44,54,133,,82,77,24,49,8,7,0.8,0.7
2024-03-31T1500,1945A,98.2908,39.7711,嘉峪关市,气象局,颗粒物(PM10),64,78,94,19,25,120,,70,70,9,30,5,26,0.1,0.6
2024-03-31T1500,2884A,98.2672,39.7978,嘉峪关市,酒钢宾馆,颗粒物(PM10),75,100,100,27,26,117,,71,71,11,26,38,36,0.3,0.7
2024-03-31T1500,3248A,98.2643,39.7724,嘉峪关市,雄关区,颗粒物(PM10),62,74,78,25,21,108,,56,56,20,32,37,22,0,1.1
2024-03-31T1500,1383A,113.1064,22.6058,江门市,北街,,35,33,27,24,15,50,,34,34,8,12,6,6,0.3,0.4
2024-03-31T1500,1384A,113.0731,22.5835,江门市,西区,,34,34,33,22,16,52,,34,34,11,19,7,6,0.4,0.4
2024-03-31T1500,1385A,113.0219,22.5311,江门市,圭峰西,,36,35,29,25,17,45,,35,35,11,15,6,7,0.6,0.7
2024-03-31T1500,1386A,113.0828,22.5947,江门市,东湖,,39,39,29,22,16,53,,33,33,11,15,8,8,0.4,0.4
2024-03-31T1500,3311A,113.1075,22.5647,江门市,江海富民,颗粒物(PM10),53,55,39,19,18,51,,35,35,9,15,6,6,0.2,0.2
2024-03-31T1500,3449A,113.05,22.4667,江门市,新会银湖,,36,30,25,25,16,43,,36,36,7,9,4,4,0.5,0.6
2024-03-31T1500,1828A,113.227,35.2125,焦作市,市环保局,颗粒物(PM10),86,122,109,49,40,165,,104,104,14,28,8,7,0.8,0.8
2024-03-31T1500,3169A,113.2725,35.2067,焦作市,太极体育中心,颗粒物(PM10),87,124,128,48,44,175,,112,112,13,29,4,4,0.3,0.3
2024-03-31T1500,3335A,113.3137,35.2641,焦作市,马村街道办,颗粒物(PM10),93,135,127,60,48,171,,116,116,15,27,10,11,0.4,0.5
2024-03-31T1500,3336A,113.2465,35.2373,焦作市,焦作技师学院,颗粒物(PM10),90,129,109,48,38,156,,106,106,12,21,6,6,0.3,0.3
2024-03-31T1500,3477A,113.1656,35.2539,焦作市,中站许衡医院,颗粒物(PM10),90,130,109,36,36,158,,113,113,16,23,9,6,0.5,0.4
2024-03-31T1500,3981A,113.2449,35.1803,焦作市,原李万街道办,颗粒物(PM10),74,97,118,48,44,160,,102,102,8,26,10,11,0.5,0.5
2024-03-31T1500,1708A,116.3701,23.5345,揭阳市,新兴,,23,23,74,13,34,51,,42,42,5,24,8,13,0.4,0.7
2024-03-31T1500,1709A,116.3264,23.5443,揭阳市,西马,,41,41,61,8,27,47,,43,43,6,15,8,11,0.5,0.7
2024-03-31T1500,1710A,116.3611,23.5626,揭阳市,东兴,,22,22,83,12,41,57,,44,44,2,21,7,15,0.5,0.9
2024-03-31T1500,1711A,116.4151,23.5294,揭阳市,渔湖,,18,18,76,10,26,45,,40,40,5,21,6,11,0.5,0.8
2024-03-31T1500,3320A,116.403,23.5699,揭阳市,曲溪,,25,25,56,15,34,56,,45,45,3,23,3,17,0.4,0.8
2024-03-31T1500,1944A,102.1692,38.5167,金昌市,天庆家园,颗粒物(PM10),94,138,115,37,32,118,,94,94,13,28,12,28,0.4,0.6
2024-03-31T1500,3170A,102.1864,38.5253,金昌市,市委党校,颗粒物(PM10),93,135,134,40,45,116,,89,89,9,25,20,56,0.4,0.5
2024-03-31T1500,4022A,102.1647,38.5371,金昌市,金川区人防中心,颗粒物(PM10),92,133,121,32,35,119,,90,90,10,23,5,17,0.3,0.6
2024-03-31T1500,1262A,119.647,29.077,金华市,十五中,,35,23,45,16,27,111,,53,53,11,36,4,5,0.4,0.5
2024-03-31T1500,1263A,119.686,29.1029,金华市,监测站,,34,29,53,19,29,108,,46,46,10,42,2,3,0.5,0.6
2024-03-31T1500,3659A,119.656,29.1131,金华市,气象局,,35,25,48,18,24,109,,48,48,11,48,4,4,0.1,0.2
2024-03-31T1500,1767A,121.1115,41.0879,锦州市,南山,,38,33,59,14,29,120,,84,84,9,35,9,16,0.3,0.6
2024-03-31T1500,1768A,121.0533,40.8434,锦州市,开发区,颗粒物(PM10),54,58,93,24,29,111,,62,62,16,62,12,27,0.4,0.4
2024-03-31T1500,1769A,121.1836,41.1119,锦州市,百股街道,,39,31,63,12,29,123,,82,82,11,41,12,19,0.5,0.7
2024-03-31T1500,1770A,121.1178,41.1222,锦州市,天安街道,,35,33,63,7,31,112,,76,76,10,32,9,17,0.4,0.7
2024-03-31T1500,1771A,121.1303,41.1386,锦州市,北湖公园,,49,49,57,10,32,110,,75,75,9,30,11,17,0.3,0.6
2024-03-31T1500,2160A,112.85,35.5051,晋城市,自来水公司,颗粒物(PM10),60,70,113,22,37,156,,100,100,13,37,8,9,0.5,0.8
2024-03-31T1500,2161A,112.8318,35.4936,晋城市,白云商贸,颗粒物(PM10),73,96,126,24,35,156,,101,101,16,38,9,9,0.6,0.8
2024-03-31T1500,2162A,112.8508,35.4887,晋城市,市环保局,颗粒物(PM10),73,95,123,19,35,155,,99,99,18,42,10,9,0.6,0.8
2024-03-31T1500,2163A,112.8676,35.4897,晋城市,技术学院,颗粒物(PM10),59,67,117,14,30,152,,99,99,18,42,6,6,0.6,0.8
2024-03-31T1500,3620A,112.8271,35.4828,晋城市,泽州一中,颗粒物(PM10),67,83,121,27,34,161,,103,103,15,33,9,9,0.7,0.8
2024-03-31T1500,2171A,112.7532,37.6945,晋中市,锦纶小区,,46,46,73,14,27,145,,94,94,12,33,13,14,0.3,0.4
2024-03-31T1500,2173A,112.7249,37.7067,晋中市,南都小区,,46,39,72,27,27,145,,97,97,10,38,12,15,0.4,0.5
2024-03-31T1500,2174A,112.6991,37.6982,晋中市,榆次区政府,,49,48,70,31,28,154,,102,102,11,33,13,15,0.4,0.5
2024-03-31T1500,2865A,112.7195,37.6828,晋中市,榆次三中,,47,44,77,14,25,148,,96,96,9,37,13,15,0.5,0.6
2024-03-31T1500,2439A,112.2014,31.0481,荆门市,竹园小学,颗粒物(PM10),75,100,134,37,48,168,,138,138,11,18,9,11,0.7,0.7
2024-03-31T1500,2440A,112.1969,30.9891,荆门市,掇刀,颗粒物(PM10),73,95,130,43,43,172,,140,140,8,11,11,12,0.6,0.6
2024-03-31T1500,2441A,112.2213,31.0386,荆门市,石化一小,颗粒物(PM10),74,98,138,42,49,173,,143,143,10,17,22,19,0.6,0.6
2024-03-31T1500,3012A,112.1849,31.0362,荆门市,西山林语,颗粒物(PM10),72,94,125,30,46,172,,146,146,9,12,13,17,0.6,0.6
2024-03-31T1500,3547A,112.1632,31.0138,荆门市,龙泉中学南校,颗粒物(PM10),81,111,127,40,44,166,,130,130,1,8,8,8,0.8,0.8
2024-03-31T1500,1844A,112.2494,30.3197,荆州市,市图书馆,颗粒物(PM10),57,63,91,31,41,148,,125,125,10,19,8,9,0.8,0.9
2024-03-31T1500,1845A,112.2008,30.3544,荆州市,市委党校,细颗粒物(PM2.5),69,56,88,50,46,133,,116,116,10,20,7,9,0.9,1
2024-03-31T1500,3194A,112.2747,30.3122,荆州市,管委会,细颗粒物(PM2.5),53,49,89,37,43,154,,128,128,9,18,10,11,0.6,0.7
2024-03-31T1500,3548A,112.1655,30.3364,荆州市,学苑路,细颗粒物(PM2.5),60,47,75,43,50,153,,128,128,8,16,6,7,0.6,0.7
2024-03-31T1500,2343A,117.2117,29.2933,景德镇市,老干部活动中心,,33,14,32,6,20,105,,87,87,5,15,4,7,0.1,0.3
2024-03-31T1500,2344A,117.1894,29.2789,景德镇市,兽医站,,36,12,31,12,22,115,,96,96,5,13,5,9,0.6,0.8
2024-03-31T1500,2345A,117.1547,29.2617,景德镇市,台达陶瓷,,36,12,35,6,23,113,,92,92,8,23,23,24,0.4,0.6
2024-03-31T1500,2346A,117.2461,29.2956,景德镇市,陶研所,,32,10,27,9,18,102,,85,85,6,14,3,8,0.2,0.3
2024-03-31T1500,1803A,115.9872,29.6815,九江市,十里,,44,16,37,7,23,138,,114,114,8,18,9,11,0.5,0.6
2024-03-31T1500,1804A,115.9584,29.7046,九江市,茅山头,,43,12,37,8,25,135,,107,107,15,29,11,12,0.6,0.7
2024-03-31T1500,1805A,115.9877,29.7295,九江市,西园,,41,22,33,14,18,130,,107,107,13,20,13,14,0.6,0.6
2024-03-31T1500,1806A,116.0172,29.6547,九江市,五七二七厂,,40,19,29,12,21,127,,106,106,12,14,9,10,0.5,0.5
2024-03-31T1500,1808A,115.9114,29.6038,九江市,综合工业园,,43,13,31,12,19,135,,114,114,11,27,10,12,0.5,0.7
2024-03-31T1500,1809A,116.0721,29.7535,九江市,石化总厂,,40,15,41,10,22,128,,106,106,2,15,10,14,0.5,0.6
2024-03-31T1500,1810A,115.9773,29.5698,九江市,庐山气象台,,36,16,28,11,19,115,,109,106,4,5,6,9,0.5,0.8
2024-03-31T1500,3190A,116.0254,29.6994,九江市,外国语学校,,40,17,30,8,22,126,,106,106,14,19,10,12,0.4,0.6
2024-03-31T1500,2658A,98.5061,39.7443,酒泉市,仓门街子站,颗粒物(PM10),73,95,97,22,29,118,,75,75,4,26,8,10,0.2,0.4
2024-03-31T1500,2659A,98.4989,39.7256,酒泉市,油田生活基地,颗粒物(PM10),69,88,98,21,28,121,,76,76,4,21,9,12,0.2,0.4
2024-03-31T1500,2698A,76.0072,39.4467,喀什地区,巡警大队,颗粒物(PM10),124,197,196,9,20,73,,90,72,52,30,6,4,0.3,0.3
2024-03-31T1500,2699A,75.9755,39.4694,喀什地区,吾办,颗粒物(PM10),114,177,183,27,33,98,,102,99,9,12,2,4,0.4,0.4
2024-03-31T1500,4027A,75.9483,39.4689,喀什地区,老干局,颗粒物(PM10),144,237,187,23,27,106,,108,108,5,6,1,3,0.5,0.5
2024-03-31T1500,1824A,114.3389,34.7781,开封市,肿瘤医院,颗粒物(PM10),86,121,111,43,37,164,,127,127,15,28,6,7,0.4,0.3
2024-03-31T1500,1826A,114.2885,34.7965,开封市,世纪星幼儿园,颗粒物(PM10),80,109,102,41,37,164,,123,123,12,29,7,7,0.6,0.5
2024-03-31T1500,3147A,114.3438,34.8106,开封市,龙亭公园,,,124,109,52,36,170,,130,130,12,37,,7,0.5,0.4
2024-03-31T1500,3210A,114.3644,34.7964,开封市,汴京公园,颗粒物(PM10),85,119,109,54,40,158,,119,119,17,35,7,7,0.6,0.5
2024-03-31T1500,3473A,114.2485,34.8306,开封市,技师学院,颗粒物(PM10),86,122,98,50,36,171,,130,130,8,24,8,9,0.5,0.4
2024-03-31T1500,3592A,114.4644,34.7556,开封市,祥符区生态环境局,颗粒物(PM10),98,146,133,61,41,164,,117,117,15,46,6,7,0.4,0.4
2024-03-31T1500,1951A,84.895,45.6094,克拉玛依市,长征新村,,26,22,20,4,5,81,,94,86,2,3,8,9,0.2,0.2
2024-03-31T1500,1952A,84.8988,45.5893,克拉玛依市,南林小区,,27,27,21,13,11,84,,98,88,1,5,7,6,0.3,0.4
2024-03-31T1500,1954A,84.905,44.3396,克拉玛依市,独山子区,,26,15,28,7,8,81,,95,85,5,5,6,7,0.4,0.4
2024-03-31T1500,1955A,85.6979,46.098,克拉玛依市,乌尔禾区商贸楼,,47,47,31,7,8,88,,97,86,4,4,7,9,0.2,0.2
2024-03-31T1500,3612A,85.1045,45.6899,克拉玛依市,白碱滩区新站,,28,26,27,17,13,89,,100,90,2,3,8,8,0.2,0.2
2024-03-31T1500,2697A,76.1454,39.7142,克孜勒苏柯尔克孜自治州,市人民政府,颗粒物(PM10),64,77,95,9,21,102,,99,99,2,3,5,5,0.1,0.1
2024-03-31T1500,3665A,76.1658,39.7157,克孜勒苏柯尔克孜自治州,克州文化中心,颗粒物(PM10),80,110,102,11,26,107,,107,107,2,3,6,7,0.2,0.2
2024-03-31T1500,1450A,102.8204,24.8886,昆明市,呈贡新区,,37,37,51,22,43,118,,108,108,6,12,4,5,0.6,0.7
2024-03-31T1500,1452A,102.7252,25.0902,昆明市,龙泉镇,,,,52,22,34,117,,94,94,8,24,6,7,,0.9
2024-03-31T1500,1453A,102.7266,25.0375,昆明市,东风东路,,45,31,56,31,46,117,,102,102,10,15,7,8,0.4,0.5
2024-03-31T1500,1454A,102.6742,25.0669,昆明市,金鼎山,,37,29,52,17,32,117,,102,102,11,16,3,7,0.5,0.6
2024-03-31T1500,1455A,102.6644,25.0401,昆明市,碧鸡广场,,37,24,54,18,37,117,,100,100,8,17,7,10,0.5,0.6
2024-03-31T1500,3179A,102.7494,25.0119,昆明市,官渡区博物馆,,40,30,53,21,36,125,,107,107,8,13,8,9,0.6,0.8
2024-03-31T1500,3375A,102.8017,24.8336,昆明市,青年创业园,,,,52,,53,,,113,113,,14,,10,,0.6
2024-03-31T1500,3550A,102.7997,24.9786,昆明市,昆明学院,,39,27,57,16,40,122,,108,108,7,12,7,9,0.5,0.6
2024-03-31T1500,3551A,102.5967,24.6736,昆明市,晋宁区生态环境分局,,37,16,57,14,40,116,,103,103,4,7,2,3,0.5,0.7
2024-03-31T1500,3552A,102.6678,24.9856,昆明市,云天化总部,,41,25,48,18,35,130,,118,118,4,8,8,8,0.7,0.8
2024-03-31T1500,1456A,91.1319,29.6514,拉萨市,八廓街,,38,10,19,9,9,120,,97,97,12,15,7,7,0.4,0.4
2024-03-31T1500,1457A,91.1221,29.6747,拉萨市,市环保局,,37,17,24,6,9,116,,93,93,11,15,6,6,0.3,0.3
2024-03-31T1500,1458A,91.0874,29.6475,拉萨市,区监测站,,37,9,17,6,9,117,,91,91,8,13,5,5,0.5,0.5
2024-03-31T1500,1459A,91.1774,29.6541,拉萨市,西藏大学,,38,19,18,7,7,121,,98,98,6,6,4,4,0.4,0.1
2024-03-31T1500,1460A,90.9798,29.6588,拉萨市,区辐射站,,38,11,26,7,9,119,,83,83,6,15,5,6,0.4,0.4
2024-03-31T1500,1461A,91.0834,29.6292,拉萨市,拉萨火车站,,37,35,21,19,9,118,,93,84,6,11,4,4,0.3,0.4
2024-03-31T1500,2520A,109.2203,23.7256,来宾市,来宾技工学校,颗粒物(PM10),54,57,43,35,27,105,,66,66,6,7,9,8,0.7,0.6
2024-03-31T1500,3535A,109.1781,23.7297,来宾市,兴宾区政府,,47,47,36,28,27,112,,62,62,9,12,10,6,0.7,0.7
2024-03-31T1500,4002A,109.2416,23.7461,来宾市,中南小学,细颗粒物(PM2.5),60,65,43,43,28,105,,66,66,7,9,3,4,0.7,0.7
2024-03-31T1500,1476A,103.631,36.1031,兰州市,兰炼宾馆,细颗粒物(PM2.5),73,93,160,53,65,125,,78,78,22,52,21,22,0.6,0.7
2024-03-31T1500,1478A,103.8412,36.0726,兰州市,生物制品所,颗粒物(PM10),80,109,185,47,70,114,,52,52,36,55,17,15,0.7,0.7
2024-03-31T1500,1479A,103.831,36.0464,兰州市,铁路设计院,颗粒物(PM10),87,123,198,48,83,115,,49,49,35,68,15,15,0.7,1.5
2024-03-31T1500,3186A,103.7158,36.1058,兰州市,教育港,颗粒物(PM10),87,123,173,41,56,130,,69,69,32,49,25,19,0.7,0.7
2024-03-31T1500,3241A,103.7439,36.0842,兰州市,百合公园,颗粒物(PM10),85,119,161,35,58,111,,58,58,34,52,22,15,0.6,0.9
2024-03-31T1500,3242A,103.9611,35.998,兰州市,和平,颗粒物(PM10),89,127,158,49,61,128,,77,77,24,28,14,13,0.6,0.4
2024-03-31T1500,3245A,103.6633,36.533,兰州新区,新区管委会,颗粒物(PM10),73,95,130,26,47,124,,72,72,10,18,10,16,0.5,0.5
2024-03-31T1500,3246A,103.6975,36.4789,兰州新区,舟曲中学,颗粒物(PM10),76,101,156,38,52,120,,66,66,11,21,10,17,0.5,0.5
2024-03-31T1500,1067A,116.6708,39.5111,廊坊市,药材公司,颗粒物(PM10),87,124,102,63,38,118,,76,76,26,32,11,7,1.0,0.8
2024-03-31T1500,1068A,116.7214,39.5589,廊坊市,开发区,细颗粒物(PM2.5),90,128,97,67,36,117,,79,79,29,33,12,6,1.0,0.8
2024-03-31T1500,1070A,116.7244,39.5269,廊坊市,北华航天学院,细颗粒物(PM2.5),94,121,97,70,34,116,,78,78,28,34,12,7,1.0,0.8
2024-03-31T1500,2919A,116.7022,39.5453,廊坊市,河北工业大学,细颗粒物(PM2.5),85,116,94,63,36,119,,79,79,29,35,13,8,1.0,0.8
2024-03-31T1500,2535A,103.7723,29.5462,乐山市,花湖湾,,45,,67,24,35,144,,93,93,5,14,5,6,0.5,0.6
2024-03-31T1500,2536A,103.7627,29.5844,乐山市,牛耳桥,,47,31,48,21,35,149,,93,93,8,27,6,6,0.5,0.6
2024-03-31T1500,2537A,103.7508,29.6006,乐山市,市第三水厂,,47,24,52,18,34,150,,87,87,8,34,6,6,0.4,0.7
2024-03-31T1500,2538A,103.7571,29.5664,乐山市,市监测站,,47,34,47,28,30,150,,96,96,8,19,6,8,0.6,0.7
2024-03-31T1500,3361A,103.7311,29.5628,乐山市,理工大学,,50,36,50,25,34,159,,101,101,6,18,8,10,0.4,0.5
2024-03-31T1500,2599A,100.2497,26.8802,丽江市,丽江古城,,46,46,33,19,17,93,,86,86,16,12,10,9,0.6,0.6
2024-03-31T1500,2600A,100.2203,26.8906,丽江市,市中心,,31,14,17,7,8,97,,86,86,8,8,7,6,0.6,0.6
2024-03-31T1500,1267A,119.914,28.4514,丽水市,监测站大楼,,28,20,38,13,28,89,,38,38,12,35,4,4,0.4,0.6
2024-03-31T1500,1268A,119.93,28.4586,丽水市,莲都小学,,30,16,38,8,23,93,,43,43,12,33,3,3,0.3,0.4
2024-03-31T1500,1269A,119.879,28.4231,丽水市,余庄前,,26,16,38,10,25,83,,34,34,14,21,4,4,0.5,0.6
2024-03-31T1500,1173A,119.176,34.5885,连云港市,市环境监测站,颗粒物(PM10),51,51,104,24,30,105,,94,94,19,17,8,8,0.4,0.5
2024-03-31T1500,3000A,119.3581,34.6972,连云港市,德源药业,颗粒物(PM10),58,66,84,22,20,101,,93,93,23,17,7,6,0.5,0.5
2024-03-31T1500,3007A,119.178,34.844,连云港市,新城一中,颗粒物(PM10),66,82,121,20,27,110,,94,94,26,32,8,9,0.6,0.7
2024-03-31T1500,3008A,119.3608,34.7519,连云港市,胡沟管理处,颗粒物(PM10),60,70,99,17,20,88,,89,89,25,20,13,12,0.7,0.7
2024-03-31T1500,3009A,119.1478,34.5911,连云港市,矿山设计院,颗粒物(PM10),51,51,100,17,21,101,,92,92,22,19,5,6,0.6,0.6
2024-03-31T1500,3434A,119.2413,34.6539,连云港市,工贸学校,颗粒物(PM10),67,83,92,28,21,101,,98,96,25,20,10,10,0.4,0.3
2024-03-31T1500,3664A,119.4172,34.7341,连云港市,连云街道,颗粒物(PM10),67,84,91,23,20,92,,103,80,38,28,6,5,0.5,0.5
2024-03-31T1500,2571A,102.3431,27.8099,凉山彝族自治州,青龙寺,,38,27,23,8,5,120,,69,69,5,7,5,5,0.9,0.9
2024-03-31T1500,2572A,102.2721,27.8415,凉山彝族自治州,邛海宾馆,,43,32,25,23,17,136,,75,75,7,12,9,9,0.5,0.5
2024-03-31T1500,2573A,102.2625,27.898,凉山彝族自治州,西昌市政府,,44,41,27,28,17,139,,73,73,9,10,13,11,0.8,0.6
2024-03-31T1500,2574A,102.2685,27.8851,凉山彝族自治州,凉山州政府,,42,42,29,28,19,131,,52,52,8,10,10,9,1.1,0.9
2024-03-31T1500,2575A,102.237,27.8914,凉山彝族自治州,长安,,46,44,33,25,18,146,,72,72,12,15,12,12,0.7,0.6
2024-03-31T1500,2212A,123.2,41.1953,辽阳市,宏伟区,颗粒物(PM10),81,111,106,53,38,103,,65,65,28,28,22,16,1.4,1.1
2024-03-31T1500,2213A,123.1683,41.2495,辽阳市,新华园,颗粒物(PM10),75,99,122,52,49,123,,70,70,23,36,16,14,0.8,1.1
2024-03-31T1500,2214A,123.2354,41.2639,辽阳市,滨河路,细颗粒物(PM2.5),82,80,106,60,50,114,,68,68,24,28,15,12,0.8,0.8
2024-03-31T1500,2215A,123.149,41.2991,辽阳市,铁西工业园,颗粒物(PM10),76,102,132,54,65,115,,63,63,23,40,18,19,1.1,1.5
2024-03-31T1500,2227A,125.1358,42.8845,辽源市,环保局,,32,22,44,16,17,101,,91,91,5,15,8,11,0.5,0.5
2024-03-31T1500,3239A,125.0764,42.9078,辽源市,银鹰制药,,31,25,54,12,20,97,,88,88,9,19,7,9,0.4,0.5
2024-03-31T1500,1625A,115.9848,36.4372,聊城市,区政府,颗粒物(PM10),90,129,101,38,25,149,,109,109,14,26,10,11,0.6,0.6
2024-03-31T1500,2878A,116.0072,36.4343,聊城市,聊大东校,颗粒物(PM10),84,118,91,41,28,162,,120,120,13,27,9,9,0.7,0.7
2024-03-31T1500,3200A,115.9819,36.4978,聊城市,监控中心,颗粒物(PM10),93,136,122,34,26,153,,115,115,12,34,9,10,0.4,0.5
2024-03-31T1500,3513A,116.0445,36.4361,聊城市,九州社区,颗粒物(PM10),93,135,113,27,18,155,,112,112,7,22,9,11,0.4,0.5
2024-03-31T1500,4018A,116.0567,36.4608,聊城市,星美广场,颗粒物(PM10),93,136,110,29,23,155,,114,114,10,22,7,9,0.6,0.5
2024-03-31T1500,2632A,94.3681,29.6376,林芝市,林芝监测站,,26,4,7,2,3,83,,66,65,2,3,5,5,0.5,0.5
2024-03-31T1500,2633A,94.3616,29.6616,林芝市,林芝人民医院,,28,2,10,1,6,88,,68,68,5,5,6,6,0.4,0.4
2024-03-31T1500,2603A,100.0781,23.8982,临沧市,市环保局,颗粒物(PM10),51,51,64,35,54,122,,86,86,6,12,6,6,0.3,0.5
2024-03-31T1500,2604A,100.0894,23.8822,临沧市,市气象局,细颗粒物(PM2.5),59,59,69,42,53,123,,82,82,7,14,5,6,0.5,0.6
2024-03-31T1500,1733A,111.5531,36.0783,临汾市,临钢医院,颗粒物(PM10),77,103,100,35,30,174,,98,98,13,34,12,10,0.7,0.6
2024-03-31T1500,1734A,111.5028,36.0714,临汾市,技工学校,臭氧1小时,73,94,98,24,34,178,,97,97,13,38,12,9,0.7,0.6
2024-03-31T1500,1736A,111.5018,36.0855,临汾市,市委,颗粒物(PM10),83,115,93,29,27,173,,90,90,19,43,13,10,0.7,0.7
2024-03-31T1500,3018A,111.505,36.1014,临汾市,唐尧大酒店,颗粒物(PM10),87,124,103,35,30,160,,85,85,11,39,10,8,0.7,0.6
2024-03-31T1500,3668A,111.5036,36.0414,临汾市,城南,臭氧1小时,68,84,101,32,37,174,,88,88,12,43,16,12,0.8,0.7
2024-03-31T1500,2667A,103.2069,35.5993,临夏回族自治州,环保局,颗粒物(PM10),73,95,169,25,52,125,,75,75,10,23,5,5,0.4,0.8
2024-03-31T1500,2668A,103.2417,35.6057,临夏回族自治州,建设大厦,颗粒物(PM10),85,120,141,40,47,126,,75,75,12,24,7,5,0.4,0.6
2024-03-31T1500,1618A,118.3429,35.0532,临沂市,沂河小区,颗粒物(PM10),63,75,84,29,28,120,,98,98,14,16,12,7,0.5,0.5
2024-03-31T1500,1619A,118.295,35.0583,临沂市,鲁南制药厂,颗粒物(PM10),64,78,84,26,22,127,,102,102,16,16,10,6,0.1,0.1
2024-03-31T1500,1620A,118.2794,34.9976,临沂市,新光毛纺厂,颗粒物(PM10),69,88,80,31,21,122,,103,103,23,20,10,5,0.8,0.8
2024-03-31T1500,1621A,118.3956,35.0888,临沂市,河东保险公司,颗粒物(PM10),57,63,99,31,25,129,,99,99,18,25,7,8,0.3,0.3
2024-03-31T1500,3370A,118.3564,35.0215,临沂市,十里堡居委,颗粒物(PM10),59,68,77,24,19,125,,,,21,20,8,5,0.6,0.6
2024-03-31T1500,3496A,118.3604,35.1084,临沂市,南坊新区,颗粒物(PM10),62,73,87,27,23,133,,102,102,18,21,10,8,0.5,0.6
2024-03-31T1500,3860A,118.3920,35.0300,临沂市,皇山花园小区,颗粒物(PM10),58,66,90,25,25,122,,99,99,10,16,10,8,0.7,0.7
2024-03-31T1500,1870A,109.4856,24.3895,柳州市,柳东小学,,39,39,36,27,30,95,,53,53,6,14,6,6,0.4,0.4
2024-03-31T1500,1871A,109.4157,24.3277,柳州市,环保监测站,颗粒物(PM10),53,56,41,33,34,96,,51,51,8,12,6,6,0.6,0.6
2024-03-31T1500,1872A,109.389,24.341,柳州市,河西水厂,,44,44,46,30,29,94,,48,48,11,15,4,4,0.7,0.7
2024-03-31T1500,1873A,109.4311,24.2921,柳州市,市四中,颗粒物(PM10),52,54,45,32,28,95,,54,54,8,15,6,6,0.6,0.7
2024-03-31T1500,1874A,109.4006,24.3631,柳州市,市九中,颗粒物(PM10),54,58,49,34,30,97,,50,50,15,19,8,6,0.9,0.8
2024-03-31T1500,1875A,109.4958,24.3134,柳州市,古亭山,颗粒物(PM10),63,75,45,40,28,96,,53,53,5,12,5,5,0.5,0.6
2024-03-31T1500,3402A,109.5422,24.3996,柳州市,市二中,颗粒物(PM10),97,143,45,42,27,103,,57,57,10,17,7,7,0.9,0.8
2024-03-31T1500,2307A,116.5079,31.737,六安市,监测大楼,颗粒物(PM10),75,99,85,48,42,156,,119,119,11,18,7,7,0.7,0.7
2024-03-31T1500,2308A,116.4738,31.7643,六安市,皖西学院,颗粒物(PM10),79,108,96,48,42,162,,125,125,10,18,6,7,0.7,0.6
2024-03-31T1500,2309A,116.4996,31.7905,六安市,朝阳厂,"颗粒物(PM10),细颗粒物(PM2.5)",74,97,82,54,46,157,,122,122,10,16,8,7,0.5,0.5
2024-03-31T1500,2310A,116.5567,31.7886,六安市,开发区,颗粒物(PM10),77,104,95,39,36,156,,119,119,15,20,4,4,0.8,0.7
2024-03-31T1500,2577A,104.83,26.5917,六盘水市,黄土坡,颗粒物(PM10),51,51,47,30,33,140,,105,105,11,11,8,7,0.7,0.7
2024-03-31T1500,2578A,104.89,26.5939,六盘水市,水钢,颗粒物(PM10),55,59,58,31,32,147,,115,115,8,15,9,9,0.7,0.9
2024-03-31T1500,2579A,104.8475,26.5894,六盘水市,民中,细颗粒物(PM2.5),52,44,47,36,35,138,,100,100,10,12,8,8,0.9,0.9
2024-03-31T1500,2580A,104.9544,26.5506,六盘水市,双水,,48,48,56,29,35,150,,125,125,9,12,8,8,0.5,0.6
2024-03-31T1500,2336A,117.0217,25.1033,龙岩市,龙岩市监测站,,23,,25,16,24,61,,78,57,8,15,4,5,0.5,0.6
2024-03-31T1500,2337A,117.0258,25.0661,龙岩市,闽西职业技术学院,,20,,27,10,19,64,,81,59,4,13,3,7,0.4,0.5
2024-03-31T1500,2338A,117.0196,25.0306,龙岩市,龙岩学院,,23,16,23,10,12,72,,86,62,3,6,3,4,0.5,0.5
2024-03-31T1500,2885A,104.9339,33.3826,陇南市,滨江中学,颗粒物(PM10),66,82,69,15,21,50,,72,70,74,19,8,13,0.5,0.5
2024-03-31T1500,3247A,104.955,33.371,陇南市,市总工会,颗粒物(PM10),73,95,60,15,18,120,,86,86,4,10,9,12,0.4,0.4
2024-03-31T1500,2487A,111.9589,27.8901,娄底市,电视发射台,,44,41,36,12,19,138,,120,120,12,17,6,6,0.5,0.6
2024-03-31T1500,2488A,111.9975,27.725,娄底市,市监测站,,45,25,29,20,21,142,,120,120,4,8,6,8,0.9,1.1
2024-03-31T1500,2489A,112.0194,27.7314,娄底市,市委党校,,42,25,30,14,19,134,,115,115,8,10,5,6,0.5,0.5
2024-03-31T1500,2490A,111.9561,27.7569,娄底市,涟钢,,42,27,38,14,21,132,,113,113,13,17,16,17,0.6,1
2024-03-31T1500,2491A,111.9892,27.7044,娄底市,市政府,,44,13,28,10,20,140,,119,119,5,10,7,7,0.3,0.5
2024-03-31T1500,1893A,105.4324,28.9634,泸州市,九狮山,颗粒物(PM10),55,60,69,31,43,163,,96,96,13,17,8,6,0.6,0.5
2024-03-31T1500,1894A,105.4427,28.9063,泸州市,小市上码头,细颗粒物(PM2.5),54,56,76,38,48,144,,86,86,13,26,12,11,0.4,0.5
2024-03-31T1500,1895A,105.4241,28.8573,泸州市,兰田宪桥,细颗粒物(PM2.5),60,58,77,43,52,149,,82,82,10,22,12,10,0.3,0.4
2024-03-31T1500,1896A,105.4379,28.8833,泸州市,市环监站,,46,44,69,32,51,134,,78,78,10,24,13,14,0.4,0.5
2024-03-31T1500,3490A,105.3617,28.7703,泸州市,纳溪区环保局,,,65,69,,42,154,,81,81,9,23,,6,,0.7
2024-03-31T1500,2183A,111.1406,37.5211,吕梁市,环保局,颗粒物(PM10),57,64,55,22,17,136,,74,74,12,39,8,7,0.5,0.5
2024-03-31T1500,2185A,111.1297,37.5136,吕梁市,自来水公司,颗粒物(PM10),56,62,91,24,24,128,,73,73,12,31,4,5,0.4,0.4
2024-03-31T1500,2867A,111.1283,37.51,吕梁市,马茂庄小学,颗粒物(PM10),62,73,71,23,21,139,,74,74,12,43,4,4,0.3,0.4
2024-03-31T1500,1812A,112.3931,34.6516,洛阳市,市委党校,颗粒物(PM10),97,143,131,68,55,176,,99,99,19,45,29,10,0.7,0.6
2024-03-31T1500,1814A,112.4657,34.6871,洛阳市,豫西宾馆,颗粒物(PM10),110,169,142,55,44,176,,108,108,20,37,25,12,0.6,0.5
2024-03-31T1500,1815A,112.494,34.6886,洛阳市,河南林校,颗粒物(PM10),94,137,122,63,49,166,,99,99,19,35,22,8,0.6,0.5
2024-03-31T1500,1816A,112.3844,34.623,洛阳市,开发区管委会,颗粒物(PM10),97,144,132,62,50,182,,103,103,18,34,29,10,0.5,0.4
2024-03-31T1500,1817A,112.4267,34.6258,洛阳市,市委新办公区,颗粒物(PM10),100,150,130,62,47,176,,100,100,14,31,25,11,0.7,0.6
2024-03-31T1500,3340A,112.6005,34.6326,洛阳市,伊滨,颗粒物(PM10),100,149,130,61,47,174,,94,94,17,37,17,8,0.7,0.6
2024-03-31T1500,3341A,112.4951,34.6332,洛阳市,中移产业园,颗粒物(PM10),88,126,117,62,45,172,,99,99,16,34,22,12,0.8,0.7
2024-03-31T1500,3593A,112.5736,34.8993,洛阳市,吉利监测站,颗粒物(PM10),90,130,114,55,41,176,,111,111,19,36,13,12,0.7,0.9
2024-03-31T1500,3635A,112.3677,34.662,洛阳市,河科大西苑校区,颗粒物(PM10),108,165,142,54,50,175,,98,98,13,41,24,10,0.5,0.4
2024-03-31T1500,3636A,112.4388,34.6781,洛阳市,英才小学,颗粒物(PM10),105,159,132,50,40,173,,101,101,17,35,25,11,0.8,0.7
2024-03-31T1500,2399A,114.051,33.5699,漯河市,三五一五工厂,颗粒物(PM10),74,98,143,50,56,170,,130,130,4,17,9,13,0.6,0.6
2024-03-31T1500,2400A,114.0055,33.5698,漯河市,漯河大学,颗粒物(PM10),84,117,146,48,50,167,,131,131,6,16,6,9,0.5,0.5
2024-03-31T1500,2401A,114.0138,33.5828,漯河市,市水利局,颗粒物(PM10),73,95,144,46,49,169,,132,132,6,19,9,13,0.5,0.4
2024-03-31T1500,2402A,114.0261,33.5698,漯河市,市广电局,颗粒物(PM10),78,105,149,45,51,166,,130,130,4,16,5,8,0.7,0.7
2024-03-31T1500,3478A,113.9749,33.5664,漯河市,市图书馆,颗粒物(PM10),90,130,144,48,49,167,,130,130,8,17,6,10,0.7,0.6
2024-03-31T1500,3479A,114.0967,33.5906,漯河市,召陵区卫健委,颗粒物(PM10),94,138,146,58,48,154,,114,114,16,30,7,10,0.6,0.5
2024-03-31T1500,1798A,118.5092,31.6837,马鞍山市,湖东路四小,颗粒物(PM10),96,142,115,52,43,155,,126,110,23,23,20,14,1.1,0.8
2024-03-31T1500,1799A,118.5024,31.6449,马鞍山市,开发区,细颗粒物(PM2.5),82,111,97,60,45,154,,131,114,26,28,11,9,1.0,0.9
2024-03-31T1500,1800A,118.5228,31.7231,马鞍山市,慈湖,颗粒物(PM10),95,140,105,68,51,139,,125,100,40,31,36,17,2.4,1.2
2024-03-31T1500,1802A,118.6245,31.7241,马鞍山市,濮塘,颗粒物(PM10),93,136,104,54,39,115,,114,110,52,17,36,9,1.9,0.9
2024-03-31T1500,3633A,118.4918,31.6809,马鞍山市,雨山,颗粒物(PM10),86,122,109,54,41,157,,127,110,24,24,17,13,1.0,0.9
2024-03-31T1500,1686A,111.0286,21.4688,茂名市,电白南海,,29,29,28,17,17,45,,29,29,5,7,6,6,0.5,0.6
2024-03-31T1500,1687A,110.9294,21.6533,茂名市,茂石化七小,,42,36,30,29,24,87,,61,61,10,11,11,9,0.6,0.6
2024-03-31T1500,1688A,110.9107,21.6687,茂名市,健康路,,39,39,24,27,16,92,,62,62,10,7,10,6,0.4,0.4
2024-03-31T1500,1689A,110.8592,21.6828,茂名市,高岭,颗粒物(PM10),58,66,37,39,21,93,,61,61,9,6,12,8,0.8,0.7
2024-03-31T1500,3450A,111.01,21.5165,茂名市,电白水东,,28,22,20,19,13,51,,36,36,7,9,5,5,0.4,0.5
2024-03-31T1500,2539A,104.0308,30.0478,眉山市,黑龙滩水库,,46,20,24,14,20,146,,105,105,2,4,4,4,0.4,0.4
2024-03-31T1500,2540A,103.8416,30.0874,眉山市,气象局,,45,32,36,2,15,143,,87,87,7,37,9,10,0.3,0.4
2024-03-31T1500,3137A,103.8578,30.0744,眉山市,市委党校,,43,22,37,17,19,137,,89,89,10,32,8,9,0.3,0.4
2024-03-31T1500,3148A,103.8291,30.0564,眉山市,区人社局,,46,15,35,9,21,145,,94,94,14,35,10,11,0.3,0.5
2024-03-31T1500,1690A,116.1231,24.3284,梅州市,梅江月梅,,40,,34,28,22,75,,70,46,6,12,6,8,0.4,0.5
2024-03-31T1500,1691A,116.0797,24.2719,梅州市,梅县新城,,32,28,31,22,21,72,,73,51,8,19,4,5,0.6,0.8
2024-03-31T1500,1692A,116.1248,24.2654,梅州市,环境监控中心,,23,20,32,16,23,65,,69,46,10,25,4,5,0.5,0.6
2024-03-31T1500,3315A,116.1233,24.2991,梅州市,梅龙,,23,17,27,14,20,71,,71,49,4,13,7,8,0.6,0.7
2024-03-31T1500,1878A,104.7778,31.4741,绵阳市,富乐山,,45,32,24,24,18,142,,95,95,8,14,10,9,0.4,0.4
2024-03-31T1500,1879A,104.7563,31.4535,绵阳市,市人大,,42,40,40,11,23,133,,83,83,9,34,11,9,0.4,0.5
2024-03-31T1500,1880A,104.6697,31.4668,绵阳市,高新区自来水公司,,49,49,48,23,26,142,,75,75,12,39,10,10,0.3,0.4
2024-03-31T1500,1881A,104.7287,31.5075,绵阳市,三水厂,,44,36,52,27,27,140,,77,77,9,40,6,5,0.6,0.8
2024-03-31T1500,3491A,104.69,31.5322,绵阳市,西科大附属小学,,49,49,48,29,24,146,,80,80,12,42,9,9,0.6,0.6
2024-03-31T1500,3492A,104.5648,31.5343,绵阳市,安州区旅游局,,45,45,44,18,23,134,,79,79,11,25,9,8,0.4,0.5
2024-03-31T1500,1784A,129.61,44.561,牡丹江市,环保大楼,,41,41,43,18,21,84,,81,81,7,8,5,6,0.4,0.4
2024-03-31T1500,1785A,129.6115,44.5782,牡丹江市,文化广场,颗粒物(PM10),53,56,56,34,25,76,,70,70,6,9,8,8,0.5,0.5
2024-03-31T1500,1786A,129.5904,44.5963,牡丹江市,第一医院,,46,42,52,32,25,77,,73,73,6,8,6,6,0.5,0.5
2024-03-31T1500,1787A,129.6364,44.6075,牡丹江市,机车工厂,,44,44,54,28,21,79,,74,74,4,8,7,7,0.4,0.3
2024-03-31T1500,1788A,129.6386,44.5462,牡丹江市,第一中学,,45,45,43,20,19,79,,76,76,6,8,6,7,0.5,0.5
2024-03-31T1500,2531A,105.0703,29.61,内江市,市监测站,细颗粒物(PM2.5),55,,44,39,39,126,,53,53,12,31,10,8,0.3,0.4
2024-03-31T1500,2532A,105.0717,29.5947,内江市,东兴区政府,,46,46,35,23,27,129,,69,69,12,17,12,11,0.5,0.5
2024-03-31T1500,2533A,105.0653,29.5817,内江市,内江二中,,43,34,46,30,25,128,,69,69,10,21,9,7,0.6,0.6
2024-03-31T1500,2534A,105.0406,29.5822,内江市,内江日报社,,48,48,31,27,36,134,,66,66,19,38,15,13,0.7,0.8
2024-03-31T1500,2628A,92.0657,31.4846,那曲市,那曲监测站,,37,25,31,10,16,116,,86,86,5,10,5,7,0.4,0.7
2024-03-31T1500,3128A,92.0506,31.4797,那曲市,那曲会议中心,,37,28,32,3,11,118,,91,91,1,6,7,8,0.1,0.2
2024-03-31T1500,1290A,115.8931,28.6843,南昌市,省外办,,43,16,32,14,18,136,,113,113,2,6,6,6,0.2,0.3
2024-03-31T1500,1291A,115.8886,28.7003,南昌市,省林业公司,,41,14,25,9,16,131,,109,109,8,18,4,5,0.3,0.5
2024-03-31T1500,1292A,115.8126,28.7442,南昌市,林科所,,44,17,21,5,14,138,,120,120,9,17,6,7,0.4,0.4
2024-03-31T1500,1294A,115.8518,28.687,南昌市,建工学校,,40,,33,16,24,128,,107,107,6,22,5,5,0.4,0.4
2024-03-31T1500,1295A,115.8921,28.6424,南昌市,象湖,,45,20,28,9,15,141,,117,117,3,12,5,5,0.5,0.6
2024-03-31T1500,1296A,115.7423,28.7996,南昌市,武术学校,,43,,18,11,23,136,,114,114,3,5,15,16,0.3,0.3
2024-03-31T1500,1298A,115.9314,28.6842,南昌市,省站,,42,17,39,15,23,132,,112,112,8,10,7,9,0.4,0.6
2024-03-31T1500,3046A,115.9084,28.6062,南昌市,机电学校,,44,26,30,9,17,138,,116,116,6,17,5,7,0.7,0.7
2024-03-31T1500,3690A,115.9721,28.7031,南昌市,外国语学校,,41,11,24,10,18,130,,108,108,4,10,3,4,0.4,0.5
2024-03-31T1500,1905A,106.056,30.8064,南充市,西山风景区,,41,,28,16,23,129,,79,79,6,17,4,7,0.3,0.4
2024-03-31T1500,1906A,106.0789,30.8023,南充市,南充市委,,38,32,48,5,18,121,,69,69,13,31,7,12,0.3,0.6
2024-03-31T1500,1907A,106.1031,30.8217,南充市,南充炼油厂,,40,40,54,21,32,125,,71,71,11,30,6,15,0.3,0.4
2024-03-31T1500,1908A,106.1064,30.7856,南充市,高坪区监测站,,39,22,53,8,28,122,,70,70,11,30,6,23,0.0,0.2
2024-03-31T1500,1909A,106.0642,30.7636,南充市,嘉陵区环保局,,38,25,52,19,29,121,,72,72,13,34,6,17,0.2,0.4
2024-03-31T1500,1910A,106.1087,30.8388,南充市,市环境监测站,,42,22,49,21,32,133,,75,75,10,28,6,13,0.2,0.3
2024-03-31T1500,1151A,118.8086,32.1065,南京市,迈皋桥,颗粒物(PM10),88,126,117,61,45,135,,113,113,37,20,22,7,1.7,0.5
2024-03-31T1500,1152A,118.7538,32.0551,南京市,草场门,颗粒物(PM10),82,114,113,51,40,126,,105,105,35,26,5,5,0.9,0.7
2024-03-31T1500,1153A,118.7794,32.0745,南京市,山西路,颗粒物(PM10),89,127,119,44,35,145,,119,119,34,23,4,4,0.8,0.5
2024-03-31T1500,1154A,118.7752,32.0023,南京市,中华门,颗粒物(PM10),79,107,107,46,37,149,,117,117,24,21,10,7,1.1,0.7
2024-03-31T1500,1155A,118.8109,32.0309,南京市,瑞金路,颗粒物(PM10),85,119,111,46,37,147,,118,118,31,24,3,5,0.6,0.5
2024-03-31T1500,1156A,118.7997,32.0754,南京市,玄武湖,颗粒物(PM10),79,108,111,45,38,140,,116,116,26,24,12,11,0.8,0.6
2024-03-31T1500,1157A,118.6414,32.0931,南京市,浦口,颗粒物(PM10),88,126,117,35,30,133,,106,106,24,21,8,7,0.7,0.5
2024-03-31T1500,1158A,118.7356,31.9996,南京市,奥体中心,颗粒物(PM10),85,119,115,48,38,157,,120,120,29,20,18,11,1.5,0.6
2024-03-31T1500,1159A,118.9125,32.1028,南京市,仙林大学城,颗粒物(PM10),90,129,114,44,34,132,,118,118,42,21,12,10,1.0,0.7
2024-03-31T1500,3422A,118.8436,31.9198,南京市,江宁彩虹桥,颗粒物(PM10),78,106,108,51,40,163,,124,123,20,17,5,5,0.7,0.5
2024-03-31T1500,3423A,119.0138,31.6494,南京市,溧水永阳,颗粒物(PM10),73,95,109,45,40,157,,113,113,15,19,4,4,0.7,0.6
2024-03-31T1500,3424A,118.879,31.3302,南京市,高淳老职中,细颗粒物(PM2.5),69,86,87,50,38,159,,117,117,10,14,8,8,0.8,0.8
2024-03-31T1500,3427A,118.8554,32.3578,南京市,六合雄州,细颗粒物(PM2.5),65,74,139,47,40,148,,110,106,26,19,10,8,0.7,0.6
2024-03-31T1500,1401A,108.3103,22.7881,南宁市,二十一中,,45,45,44,26,24,111,,57,57,9,18,4,3,0.9,0.8
2024-03-31T1500,1402A,108.3141,22.8528,南宁市,北湖,细颗粒物(PM2.5),55,48,42,39,27,122,,52,52,10,21,5,5,0.8,0.9
2024-03-31T1500,1403A,108.3206,22.8225,南宁市,市监测站,颗粒物(PM10),56,62,45,31,26,111,,56,56,14,20,6,6,0.9,0.9
2024-03-31T1500,1404A,108.3829,22.8037,南宁市,大自然花园,,48,45,35,33,22,106,,60,60,8,13,5,5,0.6,0.6
2024-03-31T1500,1405A,108.4394,22.7904,南宁市,仙葫,,46,46,39,28,20,100,,55,55,9,18,7,7,0.8,0.7
2024-03-31T1500,1406A,108.2397,22.8467,南宁市,区农职院,颗粒物(PM10),57,63,49,33,26,124,,51,51,16,28,7,7,0.8,0.8
2024-03-31T1500,1407A,108.3275,22.735,南宁市,英华嘉园,细颗粒物(PM2.5),53,42,46,37,25,101,,52,52,15,26,6,6,0.7,0.7
2024-03-31T1500,1408A,108.2257,22.7757,南宁市,沙井镇街道办,颗粒物(PM10),54,58,54,29,25,122,,60,60,14,25,7,6,0.7,0.7
2024-03-31T1500,3401A,108.4834,22.7618,南宁市,红星社区,颗粒物(PM10),52,54,33,35,20,102,,55,55,8,16,7,6,0.8,0.8
2024-03-31T1500,2332A,118.1681,26.6369,南平市,南平市监测站,,25,,34,15,26,79,,53,53,10,17,4,4,0.7,0.7
2024-03-31T1500,2333A,118.1825,26.6489,南平市,南平铝业有限公司,,25,,31,14,28,80,,57,57,10,18,6,8,0.8,0.8
2024-03-31T1500,2334A,118.1756,26.6272,南平市,南平七中,,26,20,32,14,22,83,,56,56,8,15,4,4,0.7,0.8
2024-03-31T1500,1168A,120.9098,31.9663,南通市,狼山街道,颗粒物(PM10),94,138,122,48,41,104,,134,117,42,22,10,10,0.6,0.7
2024-03-31T1500,1169A,120.86,32.0005,南通市,虹桥,颗粒物(PM10),96,141,118,61,48,86,,123,101,53,21,8,6,0.6,0.6
2024-03-31T1500,1170A,120.87,32.02,南通市,城中,颗粒物(PM10),105,159,142,,43,99,,124,107,40,18,7,6,0.8,0.8
2024-03-31T1500,1171A,120.94,31.93,南通市,星湖花园,颗粒物(PM10),93,135,115,49,42,93,,118,99,42,25,8,8,0.6,0.7
2024-03-31T1500,1172A,120.81,32.0417,南通市,紫琅学院,颗粒物(PM10),95,140,130,53,41,114,,124,108,34,21,13,9,1.1,0.8
2024-03-31T1500,3291A,121.067,32.062,南通市,通州监测站,颗粒物(PM10),87,124,132,51,51,117,,127,114,17,10,10,9,0.7,0.7
2024-03-31T1500,3432A,120.9348,31.9883,南通市,环境教育馆,颗粒物(PM10),95,139,122,55,49,101,,124,109,39,20,8,9,0.6,0.7
2024-03-31T1500,2404A,112.5224,33.0122,南阳市,瓦房庄,颗粒物(PM10),77,103,127,43,50,160,,125,125,12,20,8,9,0.6,0.6
2024-03-31T1500,2405A,112.5003,32.9735,南阳市,汉画馆,颗粒物(PM10),77,104,127,42,45,165,,128,128,15,22,11,9,0.7,0.7
2024-03-31T1500,2406A,112.5573,33.027,南阳市,气象站,颗粒物(PM10),76,101,126,34,40,169,,126,126,17,24,8,8,0.5,0.5
2024-03-31T1500,2407A,112.5481,32.9689,南阳市,理工学院,颗粒物(PM10),73,95,127,37,40,165,,128,128,11,19,7,7,0.7,0.7
2024-03-31T1500,4008A,112.5234,32.9922,南阳市,卧龙区政府,颗粒物(PM10),80,110,137,39,48,158,,123,123,13,23,8,9,0.7,0.7
2024-03-31T1500,1234A,121.8358,29.911,宁波市,区环保大楼,颗粒物(PM10),60,69,82,37,35,71,,32,32,28,94,12,14,0.8,0.9
2024-03-31T1500,1235A,121.56,29.82,宁波市,万里学院,"颗粒物(PM10),细颗粒物(PM2.5)",52,54,69,36,43,95,,29,29,24,70,8,10,0.7,0.8
2024-03-31T1500,1236A,121.713,29.9572,宁波市,龙赛医院,颗粒物(PM10),54,58,67,26,28,71,,41,41,34,84,8,13,0.5,0.7
2024-03-31T1500,1239A,121.633,29.7733,宁波市,钱湖水厂,,43,42,56,30,37,75,,46,25,22,40,8,9,0.7,0.8
2024-03-31T1500,1240A,121.5856,29.8635,宁波市,太古小学,,38,35,56,26,37,91,,30,30,19,71,8,10,0.7,0.9
2024-03-31T1500,1241A,121.524,29.8674,宁波市,市环境监测中心,颗粒物(PM10),59,68,61,29,30,112,,33,33,23,75,6,9,0.6,0.8
2024-03-31T1500,2871A,121.6147,29.9017,宁波市,万里国际学校,颗粒物(PM10),54,57,75,28,41,100,,33,33,21,74,8,11,0.6,0.8
2024-03-31T1500,3710A,121.5594,29.8975,宁波市,白沙活动中心,颗粒物(PM10),53,56,79,25,32,95,,31,31,23,75,8,9,0.6,0.8
2024-03-31T1500,2341A,119.5388,26.6612,宁德市,宁德市监测站,细颗粒物(PM2.5),68,,57,49,76,27,,50,30,39,36,6,8,1.1,1.1
2024-03-31T1500,3209A,119.5231,26.6562,宁德市,宁德一中,细颗粒物(PM2.5),85,,64,63,62,31,,43,36,38,28,7,9,1.1,1.2
2024-03-31T1500,2618A,98.8601,25.8567,怒江傈僳族自治州,州监测站,,45,37,51,31,37,66,,48,48,5,14,8,8,0.5,0.6
2024-03-31T1500,2619A,98.8546,25.8417,怒江傈僳族自治州,泸水一中,,43,34,51,30,40,59,,41,41,11,24,6,6,0.4,0.5
2024-03-31T1500,1888A,101.6891,26.571,攀枝花市,弄弄坪,,45,45,45,19,26,102,,79,79,17,24,40,16,2.2,1
2024-03-31T1500,1889A,101.5769,26.5928,攀枝花市,河门口,,36,28,40,15,26,113,,83,83,9,18,6,16,0.7,0.9
2024-03-31T1500,1890A,101.7169,26.585,攀枝花市,炳草岗,,36,27,45,12,24,114,,83,83,11,25,14,15,0.7,0.7
2024-03-31T1500,1891A,101.7369,26.5008,攀枝花市,仁和,,38,17,34,14,27,121,,98,98,7,12,6,7,0.4,0.5
2024-03-31T1500,2835A,101.7227,26.567,攀枝花市,四十中小,,36,23,39,19,23,115,,88,88,13,20,16,16,1.1,0.9
2024-03-31T1500,1604A,122.0303,41.1489,盘锦市,开发区,颗粒物(PM10),58,65,84,33,33,119,,82,82,15,30,12,22,0.6,0.6
2024-03-31T1500,1605A,122.0485,41.0883,盘锦市,兴隆台,颗粒物(PM10),56,62,74,32,30,113,,78,78,19,35,14,11,0.5,0.6
2024-03-31T1500,1606A,121.8297,41.1028,盘锦市,新生街道,颗粒物(PM10),59,68,68,34,26,118,,80,80,21,41,14,38,0.7,0.7
2024-03-31T1500,1832A,113.3257,33.742,平顶山市,新华旅馆,颗粒物(PM10),88,126,147,36,46,180,,138,138,13,36,10,15,0.7,0.6
2024-03-31T1500,1833A,113.2919,33.737,平顶山市,规划设计院,,,126,145,56,54,,,119,119,13,36,8,12,0.6,0.6
2024-03-31T1500,1834A,113.182,33.774,平顶山市,平顶山工学院,颗粒物(PM10),97,144,151,53,52,163,,110,110,8,26,7,10,0.7,0.6
2024-03-31T1500,3204A,113.3025,33.73,平顶山市,规划局,颗粒物(PM10),98,146,161,57,55,154,,118,118,15,38,10,14,0.5,0.5
2024-03-31T1500,3594A,112.8867,33.9116,平顶山市,石龙区,颗粒物(PM10),113,175,220,54,56,171,,108,108,17,53,15,16,0.7,0.6
2024-03-31T1500,2656A,106.6692,35.5461,平凉市,聚贤嘉苑,颗粒物(PM10),52,53,73,20,24,132,,87,87,12,33,7,9,0.3,0.4
2024-03-31T1500,2657A,106.7021,35.5307,平凉市,博物馆,,48,48,82,15,27,135,,90,90,6,27,6,10,0.2,0.6
2024-03-31T1500,2347A,114.0997,27.5002,萍乡市,武功山,,39,9,22,4,10,123,,101,101,5,5,9,9,0.2,0.3
2024-03-31T1500,2348A,113.8385,27.6434,萍乡市,中医院,,45,19,32,8,23,143,,103,103,10,16,4,6,1.0,1
2024-03-31T1500,2349A,113.8493,27.6253,萍乡市,市政府车库,,44,,26,17,28,139,,103,103,11,13,8,9,0.9,0.9
2024-03-31T1500,2350A,113.8676,27.6435,萍乡市,市环保局,,43,27,30,20,24,136,,98,98,12,15,9,11,0.8,0.8
2024-03-31T1500,2351A,113.866,27.6198,萍乡市,安源区政府,,43,20,32,8,19,137,,102,102,10,13,7,11,0.9,0.8
2024-03-31T1500,2319A,119.0141,25.4325,莆田市,荔城区仓后路,,26,20,48,6,34,83,,74,72,11,19,4,6,0.7,0.8
2024-03-31T1500,2320A,119.0015,25.4553,莆田市,莆田市监测站,,26,12,44,0,32,83,,71,71,2,10,5,7,0.6,0.7
2024-03-31T1500,2321A,119.1119,25.4561,莆田市,涵江区六中,,27,25,48,2,39,86,,67,67,12,26,6,9,0.7,0.8
2024-03-31T1500,2322A,119.1013,25.3215,莆田市,秀屿区政府,,29,22,32,20,31,67,,66,62,14,16,8,11,0.9,0.9
2024-03-31T1500,2392A,115.0312,35.7636,濮阳市,环保局,颗粒物(PM10),75,100,89,43,34,160,,118,118,12,32,10,13,0.8,0.8
2024-03-31T1500,2394A,115.0574,35.7609,濮阳市,油田运输公司,颗粒物(PM10),83,116,100,42,36,167,,122,122,14,34,11,15,0.5,0.6
2024-03-31T1500,2395A,115.0866,35.7754,濮阳市,油田物探公司,颗粒物(PM10),86,122,105,48,42,164,,118,118,13,33,8,13,0.4,0.4
2024-03-31T1500,3021A,115,35.7668,濮阳市,濮水河管理处,颗粒物(PM10),78,106,91,38,33,152,,112,112,18,37,10,11,0.3,0.3
2024-03-31T1500,2601A,100.98,22.7633,普洱市,市环保局,细颗粒物(PM2.5),68,82,104,49,69,141,,104,104,7,15,9,9,0.6,0.7
2024-03-31T1500,2602A,100.9817,22.8322,普洱市,普洱第二中学,细颗粒物(PM2.5),64,67,85,46,54,145,,95,95,8,27,10,10,0.7,0.9
2024-03-31T1500,2262A,131.0518,45.8751,七台河市,新一中,,28,27,28,19,16,76,,77,76,7,7,7,8,0.6,0.6
2024-03-31T1500,3345A,131.0577,45.7879,七台河市,中波台,,35,35,29,11,19,74,,72,72,14,16,5,6,1.0,1
2024-03-31T1500,3637A,131.0176,45.7761,七台河市,人民广场,,44,44,41,29,22,72,,68,68,13,15,5,6,0.7,0.7
2024-03-31T1500,3684A,130.8781,45.8222,七台河市,新建矿广场,,36,27,27,25,25,68,,68,68,14,14,6,6,0.6,0.6
2024-03-31T1500,1779A,123.9305,47.3636,齐齐哈尔市,安居小区,,27,26,26,11,12,85,,77,77,4,6,9,8,0.2,0.2
2024-03-31T1500,1780A,123.9488,47.3386,齐齐哈尔市,中心广场,,26,25,26,11,13,82,,76,76,7,6,5,5,0.3,0.3
2024-03-31T1500,1781A,123.9483,47.3227,齐齐哈尔市,农牧车辆厂,,34,34,27,5,9,84,,76,76,5,5,7,6,0.3,0.3
2024-03-31T1500,1783A,123.945,47.2988,齐齐哈尔市,市环境监测站,,27,25,29,9,10,86,,78,78,6,5,5,3,0.3,0.3
2024-03-31T1500,3662A,123.6333,47.2075,齐齐哈尔市,富区青少年活动中心,,28,25,42,13,9,87,,80,80,8,10,5,6,0.4,0.4
2024-03-31T1500,2591A,107.9783,26.5747,黔东南苗族侗族自治州,市环境监测站,,45,40,43,31,35,107,,69,69,12,20,3,2,0.5,0.6
2024-03-31T1500,2881A,107.8908,26.5311,黔东南苗族侗族自治州,凯里学院,,48,40,40,33,30,139,,88,88,7,11,4,3,0.5,0.5
2024-03-31T1500,2593A,107.5228,26.2403,黔南布依族苗族自治州,小围寨,,36,36,43,22,36,115,,77,77,6,10,6,6,0.4,0.5
2024-03-31T1500,3538A,107.5175,26.2978,黔南布依族苗族自治州,沙坝,颗粒物(PM10),51,51,49,27,36,135,,91,91,4,10,5,5,0.3,0.4
2024-03-31T1500,2589A,104.9022,25.0925,黔西南布依族苗族自治州,场坝街,,38,34,50,18,36,120,,108,108,8,12,2,4,0.3,0.3
2024-03-31T1500,2590A,104.8811,25.0992,黔西南布依族苗族自治州,坪东大道,,37,24,50,24,37,118,,99,98,5,12,2,5,0.1,0.2
2024-03-31T1500,2502A,108.6236,21.9667,钦州市,市环保站,,48,48,38,27,18,56,,36,36,10,18,7,8,0.7,0.8
2024-03-31T1500,2503A,108.6549,21.9481,钦州市,沙埠小学,,40,38,39,28,21,64,,41,41,6,18,5,10,0.8,0.8
2024-03-31T1500,2504A,108.5989,21.7431,钦州市,港区一小,颗粒物(PM10),58,66,54,23,19,52,,31,31,14,22,8,7,0.7,0.8
2024-03-31T1500,3404A,108.5959,21.9633,钦州市,北职校,,40,40,39,26,21,56,,38,38,8,15,8,10,0.8,0.7
2024-03-31T1500,1042A,119.5134,39.8207,秦皇岛市,北戴河环保局,颗粒物(PM10),57,63,59,19,16,86,,69,69,24,31,9,9,0.4,0.4
2024-03-31T1500,1043A,119.7493,40.0116,秦皇岛市,第一关,颗粒物(PM10),63,75,63,24,26,98,,70,70,23,48,10,10,0.3,0.4
2024-03-31T1500,1044A,119.5897,39.9499,秦皇岛市,监测站,颗粒物(PM10),63,75,67,28,25,100,,79,79,20,41,8,9,0.3,0.4
2024-03-31T1500,1046A,119.5251,39.9041,秦皇岛市,建设大厦,颗粒物(PM10),57,64,55,25,21,101,,84,84,16,37,7,8,0.3,0.3
2024-03-31T1500,3132A,119.610547,39.943889,秦皇岛市,文明里,颗粒物(PM10),58,65,67,17,21,91,,76,76,27,39,7,8,0.4,0.5
2024-03-31T1500,1307A,120.6659,36.2403,青岛市,仰口,颗粒物(PM10),65,80,60,22,18,93,,96,92,15,9,4,4,0.3,0.3
2024-03-31T1500,1310A,120.4134,36.0658,青岛市,市南区东部子站,颗粒物(PM10),63,75,86,9,16,90,,94,94,30,16,10,8,0.5,0.5
2024-03-31T1500,1311A,120.3664,36.1032,青岛市,四方区子站,,36,34,75,12,20,114,,107,107,17,23,5,4,0.6,0.6
2024-03-31T1500,1312A,120.2994,36.054,青岛市,市南区西部子站,颗粒物(PM10),67,83,86,12,17,82,,93,92,41,26,9,7,0.6,0.6
2024-03-31T1500,1313A,120.4581,36.0858,青岛市,崂山区子站,颗粒物(PM10),69,88,84,22,16,94,,103,103,26,14,8,7,0.4,0.4
2024-03-31T1500,1314A,120.1983,35.9608,青岛市,黄岛区子站,颗粒物(PM10),62,73,82,20,22,108,,108,108,16,20,7,7,0.6,0.6
2024-03-31T1500,1315A,120.3999,36.3083,青岛市,城阳区子站,,32,27,63,7,14,101,,96,96,12,21,6,8,0.6,0.6
2024-03-31T1500,1966A,120.0405,35.8735,青岛市,黄岛区4号,颗粒物(PM10),62,73,82,17,14,110,,107,107,18,18,8,8,0.5,0.5
2024-03-31T1500,3362A,120.5014,36.4034,青岛市,即墨2号,,40,40,76,13,18,102,,87,87,10,18,4,6,0.4,0.5
2024-03-31T1500,3642A,120.3503,36.0736,青岛市,市北区南部,颗粒物(PM10),58,66,85,12,17,118,,111,111,20,23,8,8,0.4,0.4
2024-03-31T1500,3643A,120.3948,36.1805,青岛市,李沧区北部,,36,29,78,22,21,113,,107,107,14,23,8,8,0.5,0.5
2024-03-31T1500,1702A,113.0426,23.691,清远市,环保大楼,,39,39,40,23,23,67,,29,29,11,27,7,6,0.7,0.8
2024-03-31T1500,1703A,113.0208,23.7106,清远市,凤城街办,,50,50,56,32,37,79,,34,34,18,40,9,9,0.4,0.6
2024-03-31T1500,3025A,113.0477,23.6344,清远市,技师学院,颗粒物(PM10),52,54,47,27,23,90,,40,40,14,31,7,6,0.4,0.5
2024-03-31T1500,3318A,112.9903,23.7403,清远市,清新太和,,49,49,53,30,31,81,,35,35,20,35,13,14,0.6,0.7
2024-03-31T1500,3455A,113.076,23.7198,清远市,清城东城,,49,49,54,32,33,77,,37,37,20,36,6,6,0.3,0.4
2024-03-31T1500,2661A,107.6325,35.7357,庆阳市,庆阳五中,颗粒物(PM10),74,97,79,26,35,138,,118,118,9,15,5,8,0.3,0.3
2024-03-31T1500,2662A,107.6364,35.7067,庆阳市,市环保局,颗粒物(PM10),58,66,69,20,30,138,,119,119,8,12,5,8,0.3,0.3
2024-03-31T1500,1916A,103.7897,25.5035,曲靖市,环境监测站,,,40,56,22,31,133,,107,107,7,13,5,5,,0.8
2024-03-31T1500,1917A,103.8,25.5364,曲靖市,烟厂办公区,,41,35,52,18,28,129,,109,109,5,11,3,4,0.5,0.6
2024-03-31T1500,3376A,103.7947,25.462,曲靖市,南苑二区,,37,32,52,20,31,118,,93,93,8,12,5,7,0.6,0.7
2024-03-31T1500,3377A,103.7444,25.5261,曲靖市,曲靖师范学院,,38,20,55,19,37,120,,98,98,8,16,5,16,0.5,0.6
2024-03-31T1500,1264A,118.8692,28.9398,衢州市,环保大楼,,30,24,47,18,28,94,,57,57,11,34,6,7,0.6,0.5
2024-03-31T1500,1265A,118.8709,28.9666,衢州市,实验学校,,30,28,44,21,22,93,,57,57,11,31,5,4,0.6,0.5
2024-03-31T1500,1266A,118.8621,28.9808,衢州市,衢州学院,,30,25,41,20,26,95,,57,57,15,36,7,7,0.5,0.4
2024-03-31T1500,1611A,118.5819,24.9117,泉州市,涂山街,,23,20,42,16,38,38,,55,50,21,26,3,5,0.6,0.7
2024-03-31T1500,1612A,118.5972,24.8978,泉州市,津头埔,,23,19,39,16,34,40,,55,49,20,28,4,6,0.6,0.7
2024-03-31T1500,1613A,118.6663,24.9424,泉州市,万安,,28,28,38,16,31,32,,59,52,22,21,3,4,0.6,0.6
2024-03-31T1500,3529A,118.6333,24.9264,泉州市,城华南路,,23,17,37,16,32,32,,56,48,26,26,3,5,0.3,0.5
2024-03-31T1500,2626A,88.8876,29.2718,日喀则市,日喀则监测站,,39,31,27,10,9,123,,105,105,4,6,5,4,0.3,0.4
2024-03-31T1500,3726A,88.8781,29.2426,日喀则市,林业技术推广中心,,38,24,22,0,9,121,,109,109,4,4,5,5,0.4,0.4
2024-03-31T1500,1659A,119.471,35.4209,日照市,监测站,颗粒物(PM10),58,66,72,17,20,108,,90,90,26,26,9,10,0.5,0.6
2024-03-31T1500,1660A,119.523,35.4216,日照市,市政府广场,颗粒物(PM10),56,61,72,16,19,123,,112,112,16,15,5,10,0.6,0.6
2024-03-31T1500,1661A,119.5587,35.4044,日照市,港务局,颗粒物(PM10),62,73,82,18,18,123,,112,112,20,20,6,6,0.8,0.8
2024-03-31T1500,3507A,119.5328,35.4625,日照市,职业技术学院,颗粒物(PM10),57,63,74,14,19,111,,104,104,15,16,9,8,0.6,0.6
2024-03-31T1500,3604A,119.3266,35.1044,日照市,岚山环保分局,颗粒物(PM10),84,117,104,29,25,94,,102,101,32,19,8,9,0.6,0.7
2024-03-31T1500,1835A,111.1922,34.7752,三门峡市,市政府,颗粒物(PM10),72,94,102,39,36,168,,122,122,12,18,13,14,0.6,0.6
2024-03-31T1500,1836A,111.1587,34.7942,三门峡市,开发区,颗粒物(PM10),78,106,120,40,44,170,,125,125,13,21,12,15,0.5,0.6
2024-03-31T1500,3039A,111.1911,34.7829,三门峡市,三门峡市第一小学,颗粒物(PM10),77,104,104,36,36,177,,129,129,11,17,11,13,0.6,0.5
2024-03-31T1500,3598A,111.1,34.7167,三门峡市,富达温泉假日酒店,颗粒物(PM10),84,117,124,41,46,165,,108,108,15,24,13,14,0.4,0.4
2024-03-31T1500,2324A,117.6211,26.2625,三明市,三钢,,42,42,35,9,25,75,,56,56,19,24,19,12,2.0,1.3
2024-03-31T1500,2325A,117.635,26.2714,三明市,三明二中,,25,,28,14,25,80,,58,58,18,22,12,6,0.8,0.9
2024-03-31T1500,2326A,117.6028,26.2378,三明市,三元区政府,,24,,38,8,27,75,,55,55,12,21,8,7,0.5,0.8
2024-03-31T1500,1876A,109.5078,18.2489,三亚市,河东子站,,22,22,22,13,14,44,,31,31,3,8,2,2,0.2,0.3
2024-03-31T1500,1877A,109.4964,18.2681,三亚市,河西子站,,22,22,22,14,14,43,,29,29,5,10,3,3,0.2,0.2
2024-03-31T1500,3540A,109.7348,18.3443,三亚市,君悦子站,,,43,24,12,12,42,,28,28,,10,1,1,0.0,0.2
2024-03-31T1500,2624A,91.7608,29.2313,山南市,山南监测站,,38,17,20,6,7,121,,95,94,3,5,6,6,0.3,0.3
