timepoint,stationcode,longitude,latitude,area,positionname,primarypollutant,aqi,pm10,pm10_24h,pm2_5,pm2_5_24h,o3,o3_24h,o3_8h,o3_8h_24h,no2,no2_24h,so2,so2_24h,co,co_24h
2024-03-31T2200,2566A,102.1879,31.914,阿坝藏族羌族自治州,州农科所,,22,22,23,8,9,29,,29,28,2,9,3,4,0.2,0.3
2024-03-31T2200,2568A,102.2502,31.8896,阿坝藏族羌族自治州,马师校,,31,20,13,19,13,99,,104,104,6,9,3,3,0.4,0.3
2024-03-31T2200,3994A,102.2165,31.9024,阿坝藏族羌族自治州,马尔康中学西区,,34,34,19,21,12,100,,99,99,4,7,4,4,0.4,0.4
2024-03-31T2200,2695A,80.292,41.1694,阿克苏地区,电视台,颗粒物(PM10),81,112,130,29,26,84,,103,100,8,6,6,4,0.5,0.4
2024-03-31T2200,2696A,80.2613,41.1551,阿克苏地区,艺术中心,颗粒物(PM10),89,127,133,29,28,95,,103,103,5,8,4,4,0.5,0.6
2024-03-31T2200,2204A,105.6467,38.8363,阿拉善盟,西城区西花园,颗粒物(PM10),78,106,66,25,20,161,,149,149,8,7,8,9,0.7,0.7
2024-03-31T2200,2205A,105.6985,38.8411,阿拉善盟,蒙二幼,颗粒物(PM10),80,109,72,46,21,144,,131,131,8,6,11,9,0.7,0.5
2024-03-31T2200,2206A,105.724,38.8516,阿拉善盟,环保局新楼,颗粒物(PM10),77,104,63,26,19,148,,139,139,8,5,10,7,0.3,0.3
2024-03-31T2200,2708A,88.1264,47.8517,阿勒泰地区,市站,,35,35,17,10,5,76,,99,83,1,3,4,4,0.1,0.1
2024-03-31T2200,2630A,80.1161,32.5,阿里地区,阿里监测站,,38,11,21,5,7,119,,112,112,3,3,9,10,0.4,0.4
2024-03-31T2200,3192A,80.0903,32.5028,阿里地区,阿里藏医院,,39,,26,4,7,123,,115,115,2,4,8,9,0.4,0.5
2024-03-31T2200,2642A,109.0318,32.6537,安康市,香溪洞,,41,41,42,19,21,112,,128,128,14,14,9,8,0.4,0.4
2024-03-31T2200,2643A,109.0281,32.6939,安康市,安康市监测站,颗粒物(PM10),56,61,48,28,24,44,,112,92,33,18,8,10,0.8,0.7
2024-03-31T2200,2644A,109.0072,32.6975,安康市,汉滨区检察院,颗粒物(PM10),51,51,40,27,22,62,,118,106,23,12,8,10,0.4,0.4
2024-03-31T2200,2291A,117.0809,30.5177,安庆市,环科院,颗粒物(PM10),61,72,65,25,40,1,,141,90,116,49,8,9,0.8,0.8
2024-03-31T2200,2294A,116.9896,30.6145,安庆市,安庆大学,颗粒物(PM10),54,57,70,22,39,45,,148,111,40,27,7,9,0.3,0.4
2024-03-31T2200,3173A,117.0598,30.5351,安庆市,市人大,颗粒物(PM10),59,67,70,37,42,26,,147,108,86,38,8,7,0.8,0.8
2024-03-31T2200,3123A,105.9408,26.2431,安顺市,凤凰山,细颗粒物(PM2.5),63,72,49,45,36,98,,132,119,6,12,6,11,0.8,0.6
2024-03-31T2200,3124A,105.9439,26.2564,安顺市,金钟山,细颗粒物(PM2.5),94,,46,70,38,96,,134,121,6,9,4,9,0.8,0.6
2024-03-31T2200,3125A,105.8983,26.2481,安顺市,娄家坡,细颗粒物(PM2.5),59,45,50,42,40,98,,131,120,5,9,5,10,0.6,0.5
2024-03-31T2200,1819A,114.3551,36.1017,安阳市,红庙街,颗粒物(PM10),95,139,132,56,49,118,,143,140,17,31,11,12,0.6,0.7
2024-03-31T2200,1820A,114.361,36.0681,安阳市,银杏小区,细颗粒物(PM2.5),85,118,126,63,60,115,,144,140,13,31,12,15,0.8,0.7
2024-03-31T2200,3141A,114.3922,36.0878,安阳市,信访局,颗粒物(PM10),107,164,137,53,55,115,,146,141,18,34,7,8,0.5,0.4
2024-03-31T2200,3669A,114.4705,36.0637,安阳市,左辅环卫站,颗粒物(PM10),99,147,122,73,54,79,,133,122,35,40,7,8,0.6,0.4
2024-03-31T2200,3703A,114.2917,36.0949,安阳市,安钢职工学校,颗粒物(PM10),102,153,158,60,63,107,,138,133,23,36,10,11,0.7,1.1
2024-03-31T2200,1748A,123.044,41.1196,鞍山市,深沟寺,细颗粒物(PM2.5),93,110,121,69,51,61,,102,97,38,29,9,13,0.8,1
2024-03-31T2200,1749A,123.011,41.0931,鞍山市,太阳城,颗粒物(PM10),74,97,106,51,43,77,,106,104,29,30,12,18,0.6,1.3
2024-03-31T2200,1750A,123.0485,41.1442,鞍山市,太平,细颗粒物(PM2.5),104,146,138,78,53,53,,102,93,52,37,13,13,0.9,1.1
2024-03-31T2200,1751A,122.9642,41.0971,鞍山市,铁西三道街,细颗粒物(PM2.5),82,101,128,60,51,80,,107,104,31,42,10,19,0.6,1.1
2024-03-31T2200,1752A,122.9341,41.0833,鞍山市,铁西工业园区,细颗粒物(PM2.5),80,96,123,59,53,83,,104,100,29,41,10,15,0.6,1.1
2024-03-31T2200,1753A,123.022,41.0821,鞍山市,明达新区,颗粒物(PM10),74,98,107,52,40,70,,103,99,37,33,14,17,0.6,1.1
2024-03-31T2200,2195A,107.4212,40.761,巴彦淖尔市,附二中,颗粒物(PM10),137,224,79,66,30,23,,113,97,73,26,9,20,0.7,0.5
2024-03-31T2200,2196A,107.37,40.7372,巴彦淖尔市,市环保大楼,颗粒物(PM10),88,126,75,35,29,58,,110,102,44,26,12,35,0.5,0.4
2024-03-31T2200,1956A,86.1472,41.7538,巴音郭楞蒙古自治州,孔雀公园,颗粒物(PM10),58,66,84,17,18,89,,94,94,4,8,5,6,0.2,0.2
2024-03-31T2200,1957A,86.1972,41.7166,巴音郭楞蒙古自治州,棉纺厂,颗粒物(PM10),78,105,94,14,17,84,,94,94,4,13,2,3,0.4,0.4
2024-03-31T2200,1958A,86.2357,41.7173,巴音郭楞蒙古自治州,经济开发区,颗粒物(PM10),116,182,101,23,17,86,,100,100,3,5,5,6,0.3,0.4
2024-03-31T2200,2914A,106.7677,31.8794,巴中市,苏山坪,,36,23,46,14,29,114,,112,112,4,10,4,3,0.3,0.4
2024-03-31T2200,3182A,106.7656,31.8545,巴中市,丽阳花园,"颗粒物(PM10),细颗粒物(PM2.5)",62,74,49,44,32,9,,103,67,67,30,3,3,0.8,0.6
2024-03-31T2200,3183A,106.7418,31.8654,巴中市,圣泉水务公司,,48,48,39,31,26,17,,104,70,66,33,5,4,0.6,0.5
2024-03-31T2200,3616A,106.7616,31.8344,巴中市,市中心医院,颗粒物(PM10),64,78,51,44,32,16,,104,69,49,27,5,5,0.8,0.6
2024-03-31T2200,2235A,122.7911,45.6077,白城市,洮北区环保局,颗粒物(PM10),53,56,61,23,33,64,,105,88,8,10,2,4,0.4,0.4
2024-03-31T2200,2236A,122.8738,45.5725,白城市,市环保局,颗粒物(PM10),64,78,56,28,31,60,,94,65,15,17,4,4,0.5,0.5
2024-03-31T2200,2231A,126.4219,41.9171,白山市,喜丰,,30,30,88,7,15,86,,99,97,9,13,8,13,0.7,0.8
2024-03-31T2200,2232A,126.4077,41.9419,白山市,环保局,,46,46,85,19,19,89,,100,98,4,9,8,10,0.5,0.6
2024-03-31T2200,2647A,104.1724,36.5446,白银市,第三小学,,48,48,109,21,38,86,,111,105,27,29,14,70,0.7,0.9
2024-03-31T2200,2648A,104.1465,36.5482,白银市,动力公司,颗粒物(PM10),54,58,89,18,32,98,,116,112,20,20,13,43,0.5,0.6
2024-03-31T2200,2512A,106.6103,23.9011,百色市,市监测站,细颗粒物(PM2.5),73,94,95,53,56,105,,130,128,12,17,18,14,0.9,1
2024-03-31T2200,2513A,106.6538,23.8859,百色市,市中心血站,细颗粒物(PM2.5),73,81,99,53,69,99,,124,122,13,23,16,14,0.8,1.1
2024-03-31T2200,3406A,106.6085,23.8798,百色市,祈福高中,细颗粒物(PM2.5),78,77,77,57,59,95,,121,119,14,19,17,13,0.9,1
2024-03-31T2200,2270A,117.396,32.939,蚌埠市,工人疗养院,颗粒物(PM10),89,127,121,42,37,87,,132,123,50,20,13,9,0.6,0.6
2024-03-31T2200,2271A,117.3605,32.9427,蚌埠市,百货大楼,颗粒物(PM10),85,120,127,49,38,98,,140,129,39,24,6,5,0.6,0.5
2024-03-31T2200,2273A,117.4185,32.8911,蚌埠市,蚌埠学院,颗粒物(PM10),85,119,122,46,39,89,,146,122,35,25,7,8,0.5,0.5
2024-03-31T2200,2274A,117.3533,32.9673,蚌埠市,淮上区政府,颗粒物(PM10),85,119,125,50,44,109,,125,119,26,21,7,7,0.4,0.4
2024-03-31T2200,2275A,117.3145,32.8977,蚌埠市,高新区,颗粒物(PM10),86,122,126,59,45,51,,155,130,79,26,18,10,0.6,0.5
2024-03-31T2200,3715A,117.3092,32.9314,蚌埠市,蚌埠田家炳中学,颗粒物(PM10),89,127,132,52,43,80,,143,123,45,22,10,8,0.6,0.5
2024-03-31T2200,1585A,109.8756,40.6532,包头市,市环境监测站,颗粒物(PM10),76,101,69,36,26,15,,116,86,99,35,20,18,1.1,1
2024-03-31T2200,1587A,109.9991,40.5842,包头市,包头八中,细颗粒物(PM2.5),94,132,90,70,40,82,,127,112,52,46,92,23,1.5,0.7
2024-03-31T2200,1588A,109.8538,40.6821,包头市,青山宾馆,颗粒物(PM10),73,96,78,39,24,21,,106,73,92,37,16,18,2.1,1.1
2024-03-31T2200,1589A,109.8642,40.6288,包头市,惠龙物流,细颗粒物(PM2.5),80,104,64,59,23,48,,116,99,85,34,35,19,1.2,0.9
2024-03-31T2200,1590A,110.0377,40.5546,包头市,东河鸿龙湾,细颗粒物(PM2.5),135,187,89,103,41,58,,132,112,70,40,63,19,1.1,0.9
2024-03-31T2200,3283A,109.9154,40.5685,包头市,滨河大厦,细颗粒物(PM2.5),112,134,72,84,33,70,,132,119,50,31,48,16,1.2,0.8
2024-03-31T2200,3419A,109.9447,40.6261,包头市,包头市委党校,颗粒物(PM10),91,132,78,50,31,45,,124,96,84,52,22,21,0.9,0.7
2024-03-31T2200,3683A,109.8331,40.6576,包头市,昆区政府,细颗粒物(PM2.5),75,82,60,55,27,17,,110,86,112,35,29,21,1.0,0.7
2024-03-31T2200,1930A,107.185,34.3063,宝鸡市,庙沟村,细颗粒物(PM2.5),117,130,79,88,52,90,,134,129,51,26,13,11,0.8,0.6
2024-03-31T2200,1931A,107.0708,34.3017,宝鸡市,竹园沟,细颗粒物(PM2.5),87,109,78,64,40,92,,151,143,31,23,5,5,0.6,0.5
2024-03-31T2200,1932A,107.1906,34.3672,宝鸡市,三陆医院,细颗粒物(PM2.5),124,136,102,94,59,96,,152,145,49,36,9,10,0.8,0.7
2024-03-31T2200,1933A,107.1431,34.3547,宝鸡市,监测站,细颗粒物(PM2.5),102,132,90,76,47,72,,148,134,55,34,8,8,0.8,0.6
2024-03-31T2200,1934A,107.1186,34.3739,宝鸡市,技工学校,细颗粒物(PM2.5),105,128,90,79,44,89,,147,138,48,28,6,6,0.7,0.5
2024-03-31T2200,1935A,107.3906,34.3528,宝鸡市,陈仓区环保局家属楼,细颗粒物(PM2.5),135,159,110,103,62,69,,143,132,83,45,8,29,0.6,0.6
2024-03-31T2200,1936A,107.2058,34.3497,宝鸡市,文理学院,细颗粒物(PM2.5),115,153,99,87,52,68,,154,143,73,28,8,8,0.7,0.4
2024-03-31T2200,1937A,107.2386,34.3622,宝鸡市,三迪小学,细颗粒物(PM2.5),134,145,103,102,60,103,,148,143,58,44,10,8,0.9,0.7
2024-03-31T2200,1051A,115.493,38.8632,保定市,游泳馆,颗粒物(PM10),132,214,139,90,55,97,,145,142,39,29,8,8,0.7,0.5
2024-03-31T2200,1052A,115.5213,38.8959,保定市,华电二区,细颗粒物(PM2.5),130,201,109,99,50,60,,130,125,52,30,6,7,0.8,0.6
2024-03-31T2200,1053A,115.4713,38.9108,保定市,接待中心,颗粒物(PM10),110,169,110,73,44,85,,125,122,40,30,6,6,0.5,0.3
2024-03-31T2200,1054A,115.4612,38.8416,保定市,地表水厂,细颗粒物(PM2.5),117,173,131,88,51,128,,160,160,31,31,9,9,1.1,1
2024-03-31T2200,3581A,115.31981,38.95208,保定市,满城区生态环境分局,颗粒物(PM10),157,263,142,114,55,32,,113,97,93,36,9,7,0.6,0.3
2024-03-31T2200,3582A,115.47694,38.76408,保定市,清苑区第二中学,颗粒物(PM10),122,194,138,78,49,118,,166,166,43,36,15,10,0.7,0.5
2024-03-31T2200,3583A,115.62909,39.02311,保定市,徐水物探局,颗粒物(PM10),119,188,137,75,47,91,,120,118,26,28,11,10,0.6,0.5
2024-03-31T2200,4004A,115.4202,38.8656,保定市,双鹰农机,颗粒物(PM10),100,149,107,73,45,122,,150,150,30,29,10,9,0.7,0.6
2024-03-31T2200,4034A,115.5150,38.8590,保定市,植保所站,细颗粒物(PM2.5),130,161,117,99,57,98,,153,152,40,34,5,7,0.8,0.6
2024-03-31T2200,2594A,99.1678,25.1081,保山市,市环境监测站,,34,34,56,23,37,74,,116,105,14,8,7,7,0.7,0.7
2024-03-31T2200,2595A,99.1711,25.1328,保山市,市环保局,细颗粒物(PM2.5),53,38,59,37,36,67,,108,90,5,6,6,6,0.7,0.8
2024-03-31T2200,1867A,109.1436,21.4086,北海市,海滩公园,颗粒物(PM10),59,67,47,24,22,95,,102,102,6,12,8,8,0.5,0.6
2024-03-31T2200,1868A,109.0981,21.4661,北海市,新市环保局,,43,43,33,29,21,68,,79,78,14,11,6,6,0.8,0.6
2024-03-31T2200,1869A,109.1778,21.5233,北海市,北海工业园,细颗粒物(PM2.5),53,47,46,37,25,54,,78,76,15,13,7,9,0.7,0.6
2024-03-31T2200,3400A,109.1911,21.4415,北海市,龙潭自来水厂,细颗粒物(PM2.5),55,42,37,39,29,64,,89,87,9,10,8,10,0.5,0.5
2024-03-31T2200,1001A,116.3621,39.8784,北京市,万寿西宫,颗粒物(PM10),89,128,117,64,45,75,,100,96,40,37,7,7,0.9,0.8
2024-03-31T2200,1003A,116.4174,39.9289,北京市,东四,颗粒物(PM10),88,126,120,63,48,76,,104,100,41,37,8,7,0.9,0.9
2024-03-31T2200,1004A,116.4072,39.8863,北京市,天坛,细颗粒物(PM2.5),85,116,109,63,44,62,,104,96,42,35,4,6,0.9,0.8
2024-03-31T2200,1005A,116.462,39.9365,北京市,农展馆,颗粒物(PM10),87,123,116,62,49,64,,105,100,45,40,6,8,0.9,0.8
2024-03-31T2200,1006A,116.3392,39.9295,北京市,官园,颗粒物(PM10),90,129,121,65,47,76,,109,105,46,36,8,8,1.0,0.8
2024-03-31T2200,1007A,116.2878,39.9611,北京市,海淀万柳,颗粒物(PM10),92,133,122,61,44,77,,101,99,46,41,7,7,1.1,0.9
2024-03-31T2200,1008A,116.6636,40.135,北京市,顺义新城,颗粒物(PM10),97,144,117,67,44,51,,104,95,57,36,5,6,0.9,0.9
2024-03-31T2200,1009A,116.6275,40.3275,北京市,怀柔镇,颗粒物(PM10),84,118,101,56,41,62,,99,95,35,29,4,6,1.1,0.8
2024-03-31T2200,1010A,116.2296,40.217,北京市,昌平镇,颗粒物(PM10),94,138,119,56,40,66,,90,87,41,40,3,4,0.7,0.5
2024-03-31T2200,1011A,116.3966,39.9821,北京市,奥体中心,"颗粒物(PM10),细颗粒物(PM2.5)",88,126,109,65,45,56,,90,85,52,39,4,5,1.0,0.8
2024-03-31T2200,1012A,116.184,39.9136,北京市,古城,颗粒物(PM10),112,173,123,81,44,58,,104,96,76,46,5,5,1.3,0.8
2024-03-31T2200,3281A,115.9718,40.4529,北京市,延庆夏都,颗粒物(PM10),83,116,96,53,42,82,,40,,30,27,4,3,0.8,0.5
2024-03-31T2200,3417A,117.0709,40.1465,北京市,平谷新城,颗粒物(PM10),91,132,105,65,38,43,,102,91,45,29,3,4,1.0,0.8
2024-03-31T2200,3418A,116.8336,40.4095,北京市,密云新城,颗粒物(PM10),81,111,99,47,37,69,,99,97,23,27,4,5,0.8,0.6
2024-03-31T2200,3672A,116.1541,39.8204,北京市,丰台云岗,颗粒物(PM10),96,141,122,58,47,65,,97,91,48,36,6,4,0.9,0.6
2024-03-31T2200,3673A,116.6804,39.9081,北京市,通州东关,颗粒物(PM10),102,153,120,69,45,19,,109,88,97,38,7,8,0.8,0.9
2024-03-31T2200,3674A,115.9577,39.7603,北京市,房山燕山,颗粒物(PM10),83,116,106,60,46,63,,100,95,41,37,2,3,0.5,0.4
2024-03-31T2200,3675A,116.4672,39.7733,北京市,大兴旧宫,"颗粒物(PM10),细颗粒物(PM2.5)",88,126,109,65,44,69,,101,97,36,33,4,4,0.9,0.8
2024-03-31T2200,3694A,115.986,40.4563,北京市,延庆石河营,颗粒物(PM10),79,107,94,50,40,91,,90,90,26,27,4,2,0.7,0.5
2024-03-31T2200,3695A,116.6151,40.3053,北京市,怀柔新城,颗粒物(PM10),79,108,98,51,38,70,,100,96,26,30,2,4,0.9,0.6
2024-03-31T2200,3696A,116.2545,39.8768,北京市,丰台小屯,颗粒物(PM10),97,144,122,68,44,67,,95,91,52,41,5,5,0.9,0.6
2024-03-31T2200,3697A,116.84,40.3844,北京市,密云镇,颗粒物(PM10),84,117,98,45,36,42,,95,90,49,28,4,5,1.0,0.7
2024-03-31T2200,1761A,123.8275,41.3064,本溪市,大峪,颗粒物(PM10),86,122,118,30,30,66,,91,87,14,28,9,13,1.0,1.3
2024-03-31T2200,1762A,123.7567,41.3325,本溪市,溪湖,颗粒物(PM10),79,107,122,42,39,37,,96,85,48,40,6,10,0.8,1.6
2024-03-31T2200,1763A,123.7169,41.3094,本溪市,彩屯,颗粒物(PM10),77,104,118,55,53,38,,95,81,45,44,8,15,1.3,2.3
2024-03-31T2200,1764A,123.7669,41.2864,本溪市,东明,细颗粒物(PM2.5),73,77,105,53,42,39,,90,82,54,48,8,15,1.0,1.4
2024-03-31T2200,1765A,123.7992,41.2664,本溪市,新立屯,细颗粒物(PM2.5),58,55,83,41,32,31,,96,73,51,39,10,15,0.5,0.9
2024-03-31T2200,1766A,123.8142,41.3472,本溪市,威宁,细颗粒物(PM2.5),75,96,106,55,38,26,,86,71,58,37,6,8,0.6,0.7
2024-03-31T2200,2587A,105.2864,27.3125,毕节市,八中,,33,32,49,23,34,91,,138,132,10,12,8,12,0.6,0.6
2024-03-31T2200,2588A,105.31,27.2944,毕节市,师专,细颗粒物(PM2.5),62,62,49,44,35,92,,132,126,15,13,5,10,0.5,0.5
2024-03-31T2200,3537A,105.3631,27.3533,毕节市,长征村,细颗粒物(PM2.5),84,81,63,62,46,110,,152,146,10,11,8,10,0.5,0.5
2024-03-31T2200,1629A,118.0018,37.3617,滨州市,第二水厂,细颗粒物(PM2.5),132,183,113,100,40,65,,123,112,75,42,23,14,1.0,0.8
2024-03-31T2200,1630A,117.9776,37.393,滨州市,北中新校,颗粒物(PM10),104,158,109,66,34,68,,118,98,70,44,18,14,1.0,0.8
2024-03-31T2200,3514A,117.9378,37.3956,滨州市,中海酒店,颗粒物(PM10),100,149,99,73,36,82,,125,116,48,28,22,16,1.1,0.8
2024-03-31T2200,3515A,117.9378,37.3553,滨州市,开发区一中,颗粒物(PM10),102,153,110,63,36,59,,112,105,66,38,25,21,0.9,0.7
2024-03-31T2200,3516A,118.0917,37.694,滨州市,金海六路,颗粒物(PM10),90,129,107,51,31,60,,128,115,40,27,20,18,0.8,0.7
2024-03-31T2200,4028A,117.9956,37.3753,滨州市,滨州市西街道办事处,细颗粒物(PM2.5),104,153,109,78,42,68,,112,104,52,35,24,18,1.0,0.9
2024-03-31T2200,2311A,115.8072,33.8399,亳州市,污水处理厂,颗粒物(PM10),95,140,117,62,38,86,,151,134,26,16,12,12,0.7,0.5
2024-03-31T2200,2312A,115.7789,33.8518,亳州市,三国揽胜宫,颗粒物(PM10),80,109,125,52,37,108,,147,136,16,14,9,10,0.6,0.5
2024-03-31T2200,3332A,115.7633,33.8034,亳州市,亳州学院,颗粒物(PM10),98,145,124,57,39,112,,147,136,14,12,9,10,0.7,0.6
2024-03-31T2200,2693A,82.0485,44.8556,博尔塔拉蒙古自治州,市党校,,20,14,18,14,13,60,,74,67,5,6,6,8,0.3,0.7
2024-03-31T2200,2694A,82.0806,44.8969,博尔塔拉蒙古自治州,市环保局,,33,33,26,11,11,55,,73,64,10,8,7,6,0.5,0.5
2024-03-31T2200,1071A,116.8842,38.2991,沧州市,沧县城建局,细颗粒物(PM2.5),138,188,116,105,45,41,,135,112,87,38,12,12,1.3,0.9
2024-03-31T2200,1072A,116.8584,38.3254,沧州市,电视转播站,细颗粒物(PM2.5),122,182,117,92,45,41,,122,104,77,32,15,14,1.1,0.6
2024-03-31T2200,1073A,116.8709,38.3228,沧州市,市环保局,细颗粒物(PM2.5),156,178,118,119,55,35,,117,99,73,32,10,8,0.9,0.5
2024-03-31T2200,3324A,116.8136,38.3004,沧州市,河北水利电力学院,细颗粒物(PM2.5),130,195,132,99,47,60,,131,116,60,29,15,14,1.1,0.6
2024-03-31T2200,2622A,97.1806,31.1273,昌都市,昌都监测站,,34,15,11,7,7,106,,104,104,2,6,6,7,0.3,0.4
2024-03-31T2200,3719A,97.1714,31.1406,昌都市,昌都会议中心,,35,6,11,5,6,112,,114,114,6,9,8,8,0.5,0.5
2024-03-31T2200,2690A,88.1236,43.8886,昌吉回族自治州,天山天池,,28,18,9,0,9,87,,88,88,5,6,6,7,0.7,0.7
2024-03-31T2200,2692A,87.2717,44.0297,昌吉回族自治州,新区政务中心,,36,36,24,17,14,49,,82,75,24,12,13,9,0.5,0.4
2024-03-31T2200,3613A,87.3095,44.0142,昌吉回族自治州,亚心广场,,44,44,23,19,7,50,,78,73,27,13,10,6,0.3,0.1
2024-03-31T2200,1119A,125.3325,43.9166,长春市,食品厂,细颗粒物(PM2.5),110,111,59,83,24,11,,80,52,69,22,10,8,0.9,0.4
2024-03-31T2200,1120A,125.2863,43.9027,长春市,客车厂,细颗粒物(PM2.5),94,105,60,70,27,16,,82,55,68,18,8,6,0.9,0.4
2024-03-31T2200,1121A,125.2841,43.8463,长春市,邮电学院,细颗粒物(PM2.5),70,76,58,51,22,16,,87,66,64,16,7,8,0.6,0.3
2024-03-31T2200,1122A,125.3716,43.8772,长春市,劳动公园,颗粒物(PM10),58,66,51,34,18,41,,92,75,37,11,11,6,0.6,0.4
2024-03-31T2200,1123A,125.3297,43.8805,长春市,园林处,颗粒物(PM10),56,61,49,29,17,33,,84,64,44,15,16,10,0.6,0.4
2024-03-31T2200,1124A,125.4605,43.79,长春市,净月潭,,33,32,51,23,20,48,,94,75,15,10,6,7,0.4,0.3
2024-03-31T2200,1126A,125.3863,43.8447,长春市,经开区环卫处,颗粒物(PM10),55,60,52,34,19,26,,86,60,46,16,6,7,0.6,0.4
2024-03-31T2200,1127A,125.245,43.7783,长春市,高新区管委会,细颗粒物(PM2.5),160,132,66,122,38,10,,98,64,64,15,10,8,1.1,0.5
2024-03-31T2200,1128A,125.1761,43.8325,长春市,岱山公园,细颗粒物(PM2.5),148,134,66,113,37,10,,87,54,74,18,10,7,0.8,0.4
2024-03-31T2200,1335A,113.0833,28.2325,长沙市,经开区环保局,"颗粒物(PM10),细颗粒物(PM2.5)",54,57,37,38,28,92,,150,140,32,6,8,6,0.5,0.4
2024-03-31T2200,1336A,112.8872,28.2189,长沙市,高开区环保局,颗粒物(PM10),54,57,40,28,25,90,,147,138,24,5,6,4,0.7,0.6
2024-03-31T2200,1337A,113.0792,28.2053,长沙市,马坡岭,颗粒物(PM10),51,51,36,33,28,83,,140,128,20,4,6,6,0.7,0.6
2024-03-31T2200,1338A,112.9394,28.19,长沙市,湖南师范大学,颗粒物(PM10),53,55,39,5,25,50,,148,122,26,6,5,6,1.1,0.7
2024-03-31T2200,1339A,113.0178,28.1322,长沙市,雨花区环保局,颗粒物(PM10),59,68,37,27,22,59,,155,141,54,6,4,4,1.1,0.7
2024-03-31T2200,1340A,112.9792,28.2597,长沙市,伍家岭,细颗粒物(PM2.5),63,69,46,45,30,51,,141,121,48,7,5,5,1.0,0.7
2024-03-31T2200,1341A,113.0014,28.1944,长沙市,火车新站,,,62,39,39,26,83,,146,136,,18,4,3,0.8,0.6
2024-03-31T2200,1342A,112.9844,28.1178,长沙市,天心区环保局,细颗粒物(PM2.5),53,51,39,37,25,72,,151,135,44,7,2,2,0.7,0.3
2024-03-31T2200,1343A,112.8908,28.1308,长沙市,湖南中医药大学,颗粒物(PM10),62,74,42,35,29,26,,150,119,72,14,3,4,1.1,0.9
2024-03-31T2200,1344A,112.9581,28.3611,长沙市,沙坪,,40,32,34,28,20,54,,92,87,7,3,5,6,0.5,0.5
2024-03-31T2200,1727A,113.1147,36.1547,长治市,清华站,颗粒物(PM10),68,85,80,31,31,136,,142,138,17,19,11,11,0.9,0.9
2024-03-31T2200,1728A,113.1031,36.1989,长治市,监测站,颗粒物(PM10),62,74,79,36,36,150,,149,146,17,24,15,14,0.6,0.5
2024-03-31T2200,1730A,113.0886,36.2125,长治市,审计局,颗粒物(PM10),58,66,76,29,36,146,,150,146,18,25,13,15,0.3,0.4
2024-03-31T2200,1731A,113.0844,36.1856,长治市,长治八中,颗粒物(PM10),64,78,91,30,30,147,,150,146,26,26,8,10,0.8,0.8
2024-03-31T2200,2845A,113.1569,36.1911,长治市,德盛苑,颗粒物(PM10),62,73,74,34,32,128,,147,140,22,19,12,12,0.6,0.6
2024-03-31T2200,3568A,113.06,36.0464,长治市,向阳小学,颗粒物(PM10),77,104,99,39,38,163,,154,154,18,19,17,16,0.6,0.6
2024-03-31T2200,3569A,112.8792,36.3144,长治市,屯留一中,细颗粒物(PM2.5),83,96,89,61,41,139,,148,140,16,25,15,11,1.0,0.8
2024-03-31T2200,3570A,113.235,36.3489,长治市,潞城四中,颗粒物(PM10),71,92,106,28,41,110,,148,140,21,42,7,9,0.4,0.3
2024-03-31T2200,1854A,111.6975,28.9703,常德市,市二中,,44,44,31,26,20,86,,142,126,36,12,11,8,0.6,0.6
2024-03-31T2200,1857A,111.7158,29.1456,常德市,白鹤山,,40,40,42,24,24,43,,59,50,2,2,7,8,0.5,0.5
2024-03-31T2200,3138A,111.7153,29.0289,常德市,武陵区永安,,46,46,28,31,19,103,,146,133,13,8,9,8,0.5,0.4
2024-03-31T2200,3139A,111.6892,28.9881,常德市,鼎城区玉霞,,47,47,30,25,20,100,,144,126,20,14,8,10,0.5,0.5
2024-03-31T2200,3140A,111.6625,29.0531,常德市,武陵区长庚,,45,45,28,27,21,113,,148,138,10,6,8,8,0.7,0.6
2024-03-31T2200,1196A,119.9633,31.762,常州市,市监测站,颗粒物(PM10),130,210,152,89,56,40,,135,112,96,35,12,11,1.1,0.8
2024-03-31T2200,1200A,119.9468,31.7069,常州市,武进监测站,颗粒物(PM10),114,177,137,77,52,56,,130,118,78,30,18,16,1.4,1.1
2024-03-31T2200,1201A,119.9255,31.9087,常州市,安家,颗粒物(PM10),126,202,147,75,55,22,,130,99,108,38,13,9,1.2,0.9
2024-03-31T2200,3002A,119.9805,31.8174,常州市,行政中心,细颗粒物(PM2.5),113,163,128,85,54,57,,122,105,84,39,12,11,1.1,0.8
2024-03-31T2200,3003A,120.0522,31.7748,常州市,经开区,颗粒物(PM10),132,213,145,88,55,36,,125,106,125,41,10,9,0.9,0.7
2024-03-31T2200,3010A,119.9025,31.7964,常州市,钟楼,颗粒物(PM10),124,197,141,92,58,17,,125,102,115,36,12,12,1.6,1.3
2024-03-31T2200,3429A,119.8598,31.7066,常州市,武进经发区,细颗粒物(PM2.5),132,207,145,100,60,10,,138,113,132,34,11,10,1.5,1.1
2024-03-31T2200,3430A,119.5826,31.7245,常州市,金坛城区,颗粒物(PM10),108,166,135,65,51,82,,142,129,57,28,9,10,1.2,1
2024-03-31T2200,2220A,120.4318,41.5881,朝阳市,西梁,细颗粒物(PM2.5),74,83,61,54,25,49,,101,93,45,23,18,15,1.0,0.7
2024-03-31T2200,2221A,120.4521,41.5646,朝阳市,河畔小区,颗粒物(PM10),59,67,63,41,25,76,,103,99,27,18,26,15,0.7,0.7
2024-03-31T2200,2222A,120.4176,41.5648,朝阳市,八里堡,颗粒物(PM10),71,91,67,49,24,52,,103,95,45,25,21,16,1.1,0.8
2024-03-31T2200,2223A,120.3806,41.5969,朝阳市,农业园区,颗粒物(PM10),66,81,61,46,25,57,,103,93,43,21,12,12,0.7,0.6
2024-03-31T2200,1705A,116.6367,23.6719,潮州市,西园路,,36,36,71,19,22,24,,54,43,24,20,4,7,0.5,0.4
2024-03-31T2200,3026A,116.6183,23.6608,潮州市,市政府,,33,28,40,23,25,37,,68,60,26,20,7,9,1.0,0.9
2024-03-31T2200,4036A,116.6461,23.6761,潮州市,金山,,26,24,40,18,23,27,,58,46,20,23,6,8,0.7,0.8
2024-03-31T2200,2472A,113.0073,25.9061,郴州市,马头岭,,39,39,30,20,12,40,,79,70,24,16,5,6,0.6,0.6
2024-03-31T2200,2473A,113.0116,25.8226,郴州市,市职中,,43,38,27,30,22,26,,100,80,26,10,6,7,0.7,0.7
2024-03-31T2200,2474A,113.0161,25.8001,郴州市,兴隆步行街,颗粒物(PM10),52,54,32,32,23,29,,104,88,31,10,4,6,0.8,0.7
2024-03-31T2200,2475A,113.0383,25.8071,郴州市,市审计局,,33,32,25,23,20,39,,97,86,21,9,8,9,0.9,0.7
2024-03-31T2200,2476A,113.0348,25.7759,郴州市,市环保局,,49,48,32,34,26,40,,100,89,31,11,6,10,1.0,0.8
2024-03-31T2200,1431A,103.9728,30.7236,成都市,金泉两河,,44,44,53,12,28,50,,134,117,38,36,2,3,0.6,0.6
2024-03-31T2200,1432A,104.176,30.6872,成都市,十里店,,37,37,42,21,20,78,,130,118,31,36,2,3,0.6,0.5
2024-03-31T2200,1433A,104.079,30.5706,成都市,三瓦窑,,44,44,39,18,17,95,,135,123,20,43,3,3,0.2,0.3
2024-03-31T2200,1434A,104.1114,30.63,成都市,沙河铺,,,55,39,22,17,,,122,121,44,30,3,2,0.6,0.5
2024-03-31T2200,1437A,104.0786,30.6531,成都市,君平街,,48,48,45,30,23,64,,137,124,51,35,6,6,0.5,0.5
2024-03-31T2200,1438A,103.613,31.0283,成都市,灵岩寺,,43,43,36,22,21,126,,146,144,10,12,6,11,0.6,0.6
2024-03-31T2200,2880A,104.0239,30.65639,成都市,大石西路,,42,42,42,16,24,77,,140,128,26,34,3,5,0.6,0.6
2024-03-31T2200,3136A,104.2725,30.5589,成都市,龙泉驿区区政府,,35,27,22,17,13,110,,125,122,8,13,3,2,0.4,0.4
2024-03-31T2200,3357A,104.0106,30.6931,成都市,金博路,,41,41,51,26,27,38,,136,115,53,39,2,3,0.8,0.7
2024-03-31T2200,3359A,104.0578,30.5225,成都市,华阳,,39,39,37,27,24,83,,135,122,28,27,3,3,0.6,0.6
2024-03-31T2200,3487A,104.2394,30.5319,成都市,车城东七路,,37,37,32,24,21,105,,127,124,19,19,4,4,0.6,0.5
2024-03-31T2200,3488A,104.3853,30.7453,成都市,青白江技师分院,,25,22,18,15,8,77,,124,114,36,22,3,3,0.4,0.5
2024-03-31T2200,3489A,104.0789,30.4072,成都市,科学城,,34,34,32,22,23,105,,140,132,14,23,4,5,0.5,0.6
2024-03-31T2200,4011A,103.8506,30.6947,成都市,光华大道三段,颗粒物(PM10),61,72,62,41,40,68,,145,130,49,37,1,2,0.8,0.7
2024-03-31T2200,1062A,117.9531,40.9081,承德市,铁路,颗粒物(PM10),65,79,41,34,11,84,,99,96,17,21,8,10,0.4,0.4
2024-03-31T2200,1063A,117.9392,40.9763,承德市,中国银行,,32,32,36,22,9,97,,105,103,8,21,8,11,0.3,0.4
2024-03-31T2200,1064A,117.9503,40.928,承德市,开发区,,43,43,48,21,19,89,,98,96,12,26,7,9,0.2,0.4
2024-03-31T2200,1065A,117.8051,40.9655,承德市,文化中心,,38,38,52,3,7,83,,105,102,14,26,4,13,0.2,0.4
2024-03-31T2200,1066A,117.9268,41.0026,承德市,离宫,,29,23,29,14,11,90,,100,100,4,12,5,7,0.3,0.4
2024-03-31T2200,2314A,117.47,30.6618,池州市,池州学院,颗粒物(PM10),81,112,93,58,48,102,,149,136,32,30,5,8,0.8,0.8
2024-03-31T2200,3237A,117.4918,30.6617,池州市,展览馆,颗粒物(PM10),55,60,77,30,38,45,,147,120,29,23,3,5,0.6,0.7
2024-03-31T2200,3333A,117.5627,30.695,池州市,第八中学,颗粒物(PM10),68,86,86,40,44,121,,150,142,17,24,5,6,0.9,0.8
2024-03-31T2200,3334A,117.5038,30.6243,池州市,第十二中学,颗粒物(PM10),52,54,71,32,39,61,,151,126,38,27,4,6,0.7,0.8
2024-03-31T2200,1744A,118.9233,42.2816,赤峰市,松山一中,,40,40,49,20,17,35,,85,69,56,33,8,20,0.8,0.7
2024-03-31T2200,1745A,118.9576,42.2728,赤峰市,哈达街,细颗粒物(PM2.5),60,,41,43,36,58,,76,70,26,28,8,21,0.8,0.8
2024-03-31T2200,1746A,118.8788,42.2554,赤峰市,天义路,,30,30,34,8,18,37,,74,67,30,20,7,12,0.5,0.5
2024-03-31T2200,3058A,119.2658,42.0353,赤峰市,银河街,,44,44,47,20,31,63,,91,83,19,19,12,15,0.5,0.6
2024-03-31T2200,3286A,118.9359,42.3147,赤峰市,桥北物流园区,,26,26,40,16,21,51,,93,75,40,28,7,16,0.5,0.4
2024-03-31T2200,2521A,107.3476,22.4136,崇左市,市环保局江州分局,颗粒物(PM10),62,74,65,37,40,60,,112,105,8,9,7,8,0.7,0.7
2024-03-31T2200,2522A,107.3702,22.3707,崇左市,城南新区,颗粒物(PM10),67,84,55,41,38,52,,109,100,11,14,7,7,0.7,0.7
2024-03-31T2200,2298A,118.3093,32.3153,滁州市,老年大学,颗粒物(PM10),98,146,130,70,47,57,,165,144,78,25,10,11,0.9,0.6
2024-03-31T2200,2299A,118.3244,32.2786,滁州市,人大宾馆,颗粒物(PM10),95,140,140,68,47,58,,163,142,62,25,6,9,1.2,0.7
2024-03-31T2200,3207A,118.3118,32.3038,滁州市,市政府原办公楼,颗粒物(PM10),92,134,126,64,46,84,,167,152,57,24,7,9,1.0,0.6
2024-03-31T2200,3331A,118.3267,32.2634,滁州市,图书馆,细颗粒物(PM2.5),99,142,131,74,48,70,,165,148,79,25,9,11,1.3,0.8
2024-03-31T2200,2605A,101.5482,25.0441,楚雄彝族自治州,州环境监测站,,33,23,38,23,31,87,,120,112,12,8,7,7,0.5,0.5
2024-03-31T2200,2606A,101.538,25.0492,楚雄彝族自治州,市经济开发区,,33,29,42,23,30,89,,118,110,12,8,7,6,0.6,0.6
2024-03-31T2200,2548A,107.5277,31.2827,达州市,达州职业技术学院,颗粒物(PM10),77,103,74,30,30,24,,103,71,48,29,5,6,0.7,0.8
2024-03-31T2200,2549A,107.5086,31.2186,达州市,市环境监测站,颗粒物(PM10),56,61,59,24,32,11,,94,68,78,42,7,7,0.6,0.8
2024-03-31T2200,2550A,107.4988,31.2132,达州市,凤凰小区,颗粒物(PM10),58,66,61,31,34,7,,101,71,85,41,8,8,1.0,1
2024-03-31T2200,2551A,107.5082,31.1986,达州市,达县机关宾馆,颗粒物(PM10),60,70,59,41,36,3,,92,57,79,44,6,6,0.7,0.7
2024-03-31T2200,2552A,107.4644,31.2124,达州市,市政中心,颗粒物(PM10),63,75,65,36,36,4,,94,70,100,49,9,14,1.2,1.2
2024-03-31T2200,2614A,100.1542,25.7054,大理白族自治州,大理市环境监测站,,35,,31,24,27,74,,99,91,20,15,7,7,0.6,0.6
2024-03-31T2200,2615A,100.2171,25.5811,大理白族自治州,大理古城,,30,,31,20,24,96,,112,108,10,10,6,8,0.6,0.7
2024-03-31T2200,1109A,121.612,38.9741,大连市,甘井子,颗粒物(PM10),54,58,66,20,23,95,,89,89,18,32,4,6,0.5,0.5
2024-03-31T2200,1110A,121.565,38.9511,大连市,周水子,颗粒物(PM10),54,58,56,22,21,89,,84,79,19,27,2,6,0.9,0.9
2024-03-31T2200,1111A,121.5637,38.8845,大连市,星海三站,,44,44,50,16,17,103,,107,106,13,22,4,5,0.5,0.5
2024-03-31T2200,1112A,121.6302,38.9117,大连市,青泥洼桥,颗粒物(PM10),54,58,55,20,18,83,,94,91,23,22,9,12,0.7,0.6
2024-03-31T2200,1113A,121.6251,38.8638,大连市,傅家庄,,46,46,61,14,18,107,,104,104,11,23,9,11,0.6,0.6
2024-03-31T2200,1114A,121.5213,38.8661,大连市,七贤岭,,48,48,61,16,22,100,,87,87,14,28,9,10,0.7,0.7
2024-03-31T2200,1115A,121.2529,38.8061,大连市,旅顺,,45,45,55,16,19,93,,87,87,13,29,8,8,0.7,0.7
2024-03-31T2200,1116A,121.7485,39.1311,大连市,金州,,44,44,45,16,17,103,,116,113,12,13,5,6,0.6,0.5
2024-03-31T2200,1117A,121.7811,39.0496,大连市,开发区,颗粒物(PM10),54,57,67,16,22,94,,92,88,18,32,6,8,0.3,0.4
2024-03-31T2200,1118A,121.9762,39.0631,大连市,双D港,颗粒物(PM10),56,61,66,19,24,84,,86,86,17,29,8,7,0.6,0.6
2024-03-31T2200,1789A,124.81117,46.03138,大庆市,大同区,细颗粒物(PM2.5),133,122,50,101,38,51,,86,79,36,10,9,7,0.8,0.5
2024-03-31T2200,1790A,125.129,46.533,大庆市,龙凤区,细颗粒物(PM2.5),73,69,32,53,22,62,,81,76,30,14,7,5,0.7,0.4
2024-03-31T2200,1791A,124.902,46.408,大庆市,红岗区,颗粒物(PM10),66,81,34,40,19,67,,88,84,24,7,6,5,0.8,0.5
2024-03-31T2200,1792A,125.153,46.586,大庆市,萨尔图区,细颗粒物(PM2.5),72,79,35,52,19,60,,78,72,30,12,9,6,0.9,0.6
2024-03-31T2200,1793A,124.9042,46.6215,大庆市,让胡路区,细颗粒物(PM2.5),59,64,35,42,20,73,,84,79,18,7,8,6,0.4,0.3
2024-03-31T2200,3481A,125.141,46.634,大庆市,萨区政府监测点,细颗粒物(PM2.5),89,68,25,66,20,48,,84,74,42,11,16,7,0.6,0.3
2024-03-31T2200,1723A,113.2994,40.0758,大同市,云冈宾馆,颗粒物(PM10),55,60,66,34,25,42,,112,91,58,33,8,13,1.1,1.1
2024-03-31T2200,1724A,113.3444,40.0917,大同市,大同大学,,50,50,58,18,21,70,,109,96,23,26,13,20,0.3,0.7
2024-03-31T2200,1725A,113.2661,40.1269,大同市,安家小村,,38,38,62,21,20,44,,101,85,39,20,12,20,0.5,0.8
2024-03-31T2200,1726A,113.2711,40.0844,大同市,教育学院,,,111,77,,31,23,,103,80,71,33,10,15,0.8,0.9
2024-03-31T2200,3282A,113.3397,40.0597,大同市,大同市卫生学校,颗粒物(PM10),69,88,81,30,27,45,,112,96,56,35,7,17,0.4,0.7
2024-03-31T2200,3565A,113.1367,40.1122,大同市,云冈站,颗粒物(PM10),52,54,49,15,17,7,,109,82,65,27,31,18,0.5,0.5
2024-03-31T2200,3566A,113.1186,40.2556,大同市,图书馆,,45,45,50,13,20,37,,90,76,15,13,14,13,0.8,0.7
2024-03-31T2200,3567A,113.5931,40.0461,大同市,区一中,颗粒物(PM10),59,68,75,32,28,78,,111,103,17,30,9,24,0.5,0.7
2024-03-31T2200,3676A,113.2802,40.0995,大同市,第二人民医院,颗粒物(PM10),69,88,65,39,29,25,,111,89,75,29,10,16,0.9,1.1
2024-03-31T2200,2269A,124.1069,50.4097,大兴安岭地区,科技局,,29,,16,20,16,66,,78,74,4,3,8,8,0.3,0.3
2024-03-31T2200,3663A,124.1164,50.4278,大兴安岭地区,红旗社区,,20,14,6,14,5,60,,80,75,6,3,11,10,0.5,0.5
2024-03-31T2200,1600A,124.3303,40.0625,丹东市,江湾东路,颗粒物(PM10),77,103,89,43,38,54,,91,85,28,25,11,14,1.0,1.1
2024-03-31T2200,1601A,124.4256,40.1503,丹东市,临江后街,颗粒物(PM10),77,103,82,44,35,76,,98,94,19,25,20,14,1.4,0.9
2024-03-31T2200,1602A,124.3933,40.1461,丹东市,元宝山,颗粒物(PM10),62,74,72,28,33,73,,90,88,17,24,9,10,0.8,0.7
2024-03-31T2200,1603A,124.3633,40.1092,丹东市,民主桥,细颗粒物(PM2.5),73,94,79,53,31,43,,83,77,40,30,14,12,0.9,0.7
2024-03-31T2200,3541A,109.5726,19.5167,儋州市,第一中学子站,颗粒物(PM10),51,52,36,30,24,79,,101,96,5,4,9,8,0.5,0.5
2024-03-31T2200,3542A,109.5567,19.5187,儋州市,东坡学校子站,,47,47,36,29,24,77,,102,96,4,4,9,9,0.6,0.6
2024-03-31T2200,2616A,98.5842,24.428,德宏傣族景颇族自治州,德宏州监测站,,42,41,86,29,51,91,,121,113,12,21,5,6,0.7,0.7
2024-03-31T2200,3677A,98.5881,24.4368,德宏傣族景颇族自治州,芒市人民政府综合楼,颗粒物(PM10),58,66,79,24,52,89,,123,114,11,14,3,5,0.2,0.7
2024-03-31T2200,1901A,104.4239,31.1208,德阳市,东山公园,,34,28,27,18,20,106,,128,124,11,18,2,3,0.4,0.4
2024-03-31T2200,1902A,104.3826,31.1317,德阳市,西小区,,44,44,43,28,23,61,,126,113,38,34,2,3,0.6,0.6
2024-03-31T2200,1904A,104.3553,31.1091,德阳市,耐火材料厂,颗粒物(PM10),53,55,47,30,26,53,,131,121,40,32,3,5,0.5,0.4
2024-03-31T2200,3639A,104.4019,31.1244,德阳市,市教育局,,38,38,34,20,18,68,,122,110,33,31,2,3,0.5,0.4
2024-03-31T2200,1622A,116.3032,37.4674,德州市,儿童乐园,颗粒物(PM10),118,185,143,66,39,80,,140,131,42,22,10,11,1.0,0.7
2024-03-31T2200,1624A,116.2991,37.4451,德州市,监理站,颗粒物(PM10),109,168,139,66,38,110,,153,148,34,24,15,14,0.7,0.6
2024-03-31T2200,3066A,116.2721,37.4379,德州市,九衢泉纯净水厂,颗粒物(PM10),112,173,135,66,36,101,,147,140,45,27,11,11,0.9,0.7
2024-03-31T2200,3371A,116.3728,37.4403,德州市,开发区人民医院,颗粒物(PM10),104,158,135,56,33,120,,149,145,26,20,13,13,0.7,0.6
2024-03-31T2200,3372A,116.3572,37.4094,德州市,太阳城中学,颗粒物(PM10),111,171,140,75,41,84,,144,130,46,28,11,11,0.8,0.6
2024-03-31T2200,3511A,116.5652,37.3319,德州市,陵城艺术中心,颗粒物(PM10),117,183,135,80,35,86,,143,133,48,28,9,12,0.9,0.8
2024-03-31T2200,2621A,99.7056,27.8317,迪庆藏族自治州,迪庆州站,,31,,16,8,16,97,,105,102,9,10,8,9,0.5,0.5
2024-03-31T2200,3180A,99.7136,27.8094,迪庆藏族自治州,质量技术监督局,,30,21,21,2,6,93,,101,98,9,11,6,6,0.5,0.4
2024-03-31T2200,2663A,104.6241,35.5734,定西市,东关小学,,46,46,81,27,28,109,,123,121,10,23,12,12,0.2,0.4
2024-03-31T2200,2664A,104.6194,35.5934,定西市,供电公司,,44,44,60,29,30,103,,115,113,9,20,12,12,0.1,0.2
2024-03-31T2200,1389A,113.7547,23.0494,东莞市,莞城梨川,,41,41,30,27,17,26,,52,43,18,14,7,7,0.7,0.7
2024-03-31T2200,1390A,113.7944,23.0128,东莞市,东城石井,,44,44,29,20,14,17,,51,39,22,13,6,7,0.6,0.6
2024-03-31T2200,1391A,113.7383,22.9658,东莞市,南城西平,,34,34,29,19,14,34,,47,42,14,12,6,6,0.8,0.7
2024-03-31T2200,3319A,113.7338,23.0381,东莞市,万江金泰,,42,42,30,26,18,11,,45,34,28,13,9,9,1.1,1
2024-03-31T2200,3626A,113.7533,23.0202,东莞市,南城元岭,,38,38,27,23,17,12,,47,35,28,12,9,9,0.7,0.6
2024-03-31T2200,3627A,113.7875,23.0457,东莞市,东城主山,,40,40,28,23,14,18,,50,39,20,11,7,7,0.6,0.5
2024-03-31T2200,1666A,118.6614,37.4309,东营市,市环保局,颗粒物(PM10),59,68,95,24,25,82,,143,126,28,26,14,15,0.4,0.5
2024-03-31T2200,3036A,118.6904,37.4338,东营市,开发区管委会,颗粒物(PM10),59,68,97,24,27,77,,129,115,30,26,10,9,0.5,0.7
2024-03-31T2200,3365A,118.5719,37.565,东营市,垦利区民丰路,颗粒物(PM10),63,75,92,29,23,74,,136,125,35,25,14,15,0.6,0.6
2024-03-31T2200,3498A,118.5055,37.8612,东营市,河口城区,颗粒物(PM10),60,70,111,37,40,99,,145,137,15,19,6,9,0.5,0.8
2024-03-31T2200,3646A,118.4978,37.4623,东营市,胜利站,颗粒物(PM10),72,93,98,29,27,78,,136,117,36,30,14,15,1.0,0.9
2024-03-31T2200,3734A,118.35,37.26,东营市,理想之城,颗粒物(PM10),62,73,98,31,31,70,,120,105,27,29,15,17,0.6,0.6
2024-03-31T2200,1591A,110.0023,39.8129,鄂尔多斯市,综合楼,颗粒物(PM10),90,129,58,29,15,101,,115,110,27,27,12,14,0.5,0.5
2024-03-31T2200,1592A,109.9486,39.8261,鄂尔多斯市,巴音孟克林场办事处,颗粒物(PM10),73,95,40,27,13,92,,111,106,31,18,12,21,0.6,0.6
2024-03-31T2200,1593A,109.7736,39.5986,鄂尔多斯市,康泽苑,颗粒物(PM10),63,75,43,19,11,125,,124,124,19,17,7,7,0.5,0.5
2024-03-31T2200,1594A,109.8119,39.5989,鄂尔多斯市,华泰汽车城,颗粒物(PM10),63,75,45,31,20,117,,121,120,19,27,15,8,0.4,0.4
2024-03-31T2200,1595A,109.9734,39.7884,鄂尔多斯市,奥林花园,颗粒物(PM10),75,100,58,27,19,90,,112,98,33,42,12,7,0.7,0.6
2024-03-31T2200,2436A,114.8938,30.3994,鄂州市,市政府,颗粒物(PM10),65,80,50,38,27,72,,151,131,46,18,10,10,1.4,1.5
2024-03-31T2200,2437A,114.8989,30.3714,鄂州市,赵家坝,颗粒物(PM10),51,52,45,27,26,118,,156,144,20,10,8,8,0.9,1
2024-03-31T2200,3654A,114.8094,30.4089,鄂州市,精准医疗中心,颗粒物(PM10),73,96,65,48,27,96,,166,150,37,17,7,6,0.7,0.2
2024-03-31T2200,2454A,109.4978,30.2981,恩施土家族苗族自治州,湖北民院,细颗粒物(PM2.5),62,56,40,44,19,28,,94,75,29,20,8,8,1.0,0.9
2024-03-31T2200,2455A,109.4707,30.2798,恩施土家族苗族自治州,州电力总公司,,35,31,26,24,17,30,,90,76,40,19,7,7,0.9,0.7
2024-03-31T2200,3549A,109.5061,30.3772,恩施土家族苗族自治州,龙凤新区,,39,35,20,27,14,30,,93,78,20,14,6,7,0.6,0.6
2024-03-31T2200,2499A,108.3411,21.6158,防城港市,沙万,,34,34,40,23,18,52,,51,51,14,11,4,4,0.5,0.4
2024-03-31T2200,2500A,108.3514,21.7731,防城港市,防城档案局,,40,38,34,28,20,66,,68,68,7,7,7,7,0.4,0.4
2024-03-31T2200,2501A,108.3506,21.6414,防城港市,大海花园,,40,40,30,20,16,59,,59,59,13,6,3,3,0.5,0.5
2024-03-31T2200,1371A,113.1294,23.0067,佛山市,湾梁,颗粒物(PM10),58,66,40,25,18,4,,50,35,50,26,10,10,0.6,0.5
2024-03-31T2200,1372A,113.1083,23.0478,佛山市,华材职中,颗粒物(PM10),52,53,36,32,21,5,,53,35,39,20,8,8,0.5,0.4
2024-03-31T2200,1373A,113.144,23.0453,佛山市,南海气象局,颗粒物(PM10),52,54,39,33,22,4,,47,29,44,28,9,9,0.7,0.6
2024-03-31T2200,1374A,113.2881,22.8094,佛山市,顺德苏岗,,40,40,29,27,20,12,,52,38,25,17,4,4,0.6,0.6
2024-03-31T2200,1376A,112.8383,22.8678,佛山市,高明孔堂,颗粒物(PM10),57,64,36,34,22,7,,54,38,36,15,5,4,0.7,0.5
2024-03-31T2200,1377A,112.8836,23.1588,佛山市,三水监测站,颗粒物(PM10),56,61,41,39,24,1,,46,38,64,34,7,7,0.7,0.6
2024-03-31T2200,1378A,112.867,23.185,佛山市,三水云东海,细颗粒物(PM2.5),59,54,40,42,22,2,,46,36,55,30,3,4,0.6,0.5
2024-03-31T2200,3625A,113.2544,22.7642,佛山市,容桂街道办,,39,39,33,24,18,17,,40,31,24,20,5,6,0.5,0.5
2024-03-31T2200,1282A,119.2681,26.0504,福州市,师大,,46,46,28,29,22,3,,62,40,50,26,4,3,1.0,0.6
2024-03-31T2200,1283A,119.2984,26.1028,福州市,五四北路,,40,40,29,24,28,5,,58,36,42,30,3,3,0.7,0.5
2024-03-31T2200,1284A,119.2648,26.0768,福州市,杨桥西路,,40,40,28,23,24,5,,64,41,42,25,3,3,0.7,0.5
2024-03-31T2200,1285A,119.317,26.0746,福州市,紫阳,细颗粒物(PM2.5),55,55,33,39,32,3,,56,36,48,31,3,2,1.2,0.8
2024-03-31T2200,3048A,119.5799,26.0936,福州市,九龙,,26,26,26,10,29,8,,64,47,34,19,3,3,0.5,0.6
2024-03-31T2200,3526A,119.5189,25.9664,福州市,吴航,,21,21,33,13,25,19,,64,42,22,24,4,4,0.7,0.8
2024-03-31T2200,1755A,123.7977,41.8491,抚顺市,望花区,细颗粒物(PM2.5),79,75,98,58,36,26,,104,87,59,34,8,9,0.8,0.6
2024-03-31T2200,1756A,123.9161,41.8822,抚顺市,顺城区,细颗粒物(PM2.5),95,125,92,71,33,13,,114,83,71,36,7,7,0.9,0.7
2024-03-31T2200,1757A,124.0436,41.8611,抚顺市,东洲区,颗粒物(PM10),51,51,81,34,29,72,,99,93,20,18,7,8,0.6,0.7
2024-03-31T2200,1758A,123.9247,41.8642,抚顺市,新抚区,细颗粒物(PM2.5),84,96,92,62,32,22,,110,89,55,31,6,8,0.8,0.6
2024-03-31T2200,1759A,124.0972,41.8961,抚顺市,大伙房水库,细颗粒物(PM2.5),60,57,82,43,24,74,,113,102,15,17,6,6,0.6,0.6
2024-03-31T2200,1760A,123.7086,41.8391,抚顺市,沈抚新城,细颗粒物(PM2.5),65,71,87,47,33,5,,101,75,71,31,5,7,0.7,0.5
2024-03-31T2200,2376A,116.2127,28.0814,抚州市,桐源党溪,,27,27,38,12,16,44,,125,98,17,5,5,5,0.4,0.4
2024-03-31T2200,2377A,116.3544,27.9831,抚州市,市站,,36,36,24,22,14,61,,123,106,32,7,2,1,0.6,0.6
2024-03-31T2200,2378A,116.3565,27.963,抚州市,血防站,,35,35,26,19,16,81,,130,119,30,9,1,2,0.8,0.7
2024-03-31T2200,2379A,116.3564,28.0007,抚州市,采茶剧团,,36,35,24,25,15,77,,118,107,22,8,8,6,0.7,0.7
2024-03-31T2200,2380A,116.385,27.9647,抚州市,医学分院,,39,39,40,20,13,56,,124,108,62,12,8,8,0.8,0.8
2024-03-31T2200,2207A,121.6094,41.998,阜新市,工业园区,细颗粒物(PM2.5),173,157,100,131,50,12,,104,83,72,32,13,25,1.4,0.9
2024-03-31T2200,2208A,121.6697,42.0279,阜新市,长青街,细颗粒物(PM2.5),95,84,77,71,45,42,,99,86,38,31,13,34,0.7,0.6
2024-03-31T2200,2209A,121.6673,42.0705,阜新市,农业园区,颗粒物(PM10),73,95,74,48,34,70,,100,90,24,18,26,30,0.8,0.6
2024-03-31T2200,2210A,121.6717,42.0224,阜新市,东苑,细颗粒物(PM2.5),104,102,85,78,37,18,,97,81,76,37,28,44,1.2,0.9
2024-03-31T2200,2211A,121.6506,42.0498,阜新市,玉龙新城,细颗粒物(PM2.5),85,89,76,63,39,10,,102,77,70,31,10,18,0.8,0.7
2024-03-31T2200,2301A,115.8277,32.8929,阜阳市,市监测站,颗粒物(PM10),116,181,128,83,52,100,,153,136,26,18,11,10,0.9,0.6
2024-03-31T2200,2303A,115.8554,32.8605,阜阳市,开发区,细颗粒物(PM2.5),124,189,146,94,56,118,,159,150,24,17,11,8,0.6,0.6
2024-03-31T2200,2875A,115.784,32.8892,阜阳市,阜阳职业技术学院,颗粒物(PM10),102,154,122,64,48,121,,160,151,28,18,8,8,0.8,0.6
2024-03-31T2200,3468A,115.7901,32.8613,阜阳市,市规划展馆,细颗粒物(PM2.5),115,141,118,87,46,118,,158,149,24,16,11,9,0.9,0.7
2024-03-31T2200,3469A,115.836,32.9183,阜阳市,枣园社区,细颗粒物(PM2.5),127,140,119,96,49,116,,161,151,23,21,14,10,0.7,0.5
2024-03-31T2200,2669A,102.9099,34.9841,甘南藏族自治州,州政府,,40,40,70,18,27,49,,98,90,36,29,16,14,0.8,0.8
2024-03-31T2200,3380A,102.8914,34.9617,甘南藏族自治州,甘肃民族师范学院,颗粒物(PM10),70,90,80,11,22,17,,103,92,75,33,21,12,0.9,0.7
2024-03-31T2200,2570A,101.9603,30.0475,甘孜藏族自治州,水桥子,,28,25,29,19,17,43,,117,97,31,19,11,11,0.3,0.3
2024-03-31T2200,3065A,101.9533,29.9972,甘孜藏族自治州,州环保局,,17,17,27,6,7,42,,112,90,28,18,7,8,0.2,0.2
2024-03-31T2200,3414A,115.8347,28.932,赣江新区,桑海产业园,,25,24,18,10,10,58,,124,103,49,20,7,6,0.3,0.3
2024-03-31T2200,2363A,114.9367,25.8664,赣州市,地委,,33,30,30,23,22,63,,90,86,17,11,14,12,1.1,1.1
2024-03-31T2200,2364A,114.9461,25.8481,赣州市,气象台,,39,33,28,27,23,81,,97,94,28,16,12,10,0.6,0.6
2024-03-31T2200,2365A,114.9322,25.8333,赣州市,市图书馆,,38,38,30,15,19,80,,95,93,16,11,14,16,1.0,0.9
2024-03-31T2200,2366A,114.8905,25.8471,赣州市,华坚鞋城,,45,45,37,24,23,70,,88,81,18,12,17,17,0.7,0.6
2024-03-31T2200,3109A,115.0093,25.8613,赣州市,赣县区卫计委,,31,31,24,20,19,71,,87,85,20,14,11,9,0.7,0.6
2024-03-31T2200,2683A,106.2319,36.1417,固原市,马园,,45,45,80,19,21,77,,109,100,32,35,5,5,0.6,0.6
2024-03-31T2200,2684A,106.2792,36.0022,固原市,监测站,,,,84,,22,88,,113,108,21,19,7,6,,0.4
2024-03-31T2200,2685A,106.2375,36.0211,固原市,新区,,47,47,59,26,20,101,,115,112,19,16,9,8,0.4,0.3
2024-03-31T2200,3522A,106.2177,35.9959,固原市,原州区十五小,颗粒物(PM10),60,70,62,27,20,120,,125,124,12,13,9,6,0.2,0.2
2024-03-31T2200,2544A,106.6303,30.4576,广安市,市委,颗粒物(PM10),57,64,50,29,30,62,,121,98,39,26,6,6,0.8,0.8
2024-03-31T2200,2545A,106.6271,30.4663,广安市,友谊中学,颗粒物(PM10),55,60,52,25,25,83,,125,106,26,26,6,6,0.8,0.9
2024-03-31T2200,2547A,106.6388,30.4551,广安市,广电花园,颗粒物(PM10),61,71,46,34,27,39,,120,100,58,24,8,7,0.8,0.7
2024-03-31T2200,2902A,106.6351,30.4865,广安市,北辰小学,颗粒物(PM10),51,52,41,31,24,93,,123,117,18,17,11,10,0.7,0.7
2024-03-31T2200,2523A,105.8945,32.4535,广元市,黑石坡,,37,15,15,8,8,117,,120,117,8,9,6,6,0.3,0.3
2024-03-31T2200,2524A,105.821,32.4444,广元市,老城,,34,34,29,6,12,38,,110,100,65,27,4,7,0.6,0.6
2024-03-31T2200,2526A,105.8628,32.4287,广元市,监测站,,30,29,22,18,13,95,,118,113,12,13,5,7,0.5,0.5
2024-03-31T2200,3617A,105.8047,32.4166,广元市,经开区,,32,32,36,18,22,96,,115,113,20,22,5,11,0.6,0.7
2024-03-31T2200,1345A,113.2347,23.1423,广州市,广雅中学,细颗粒物(PM2.5),58,58,40,41,29,4,,59,38,52,42,5,5,0.8,0.7
2024-03-31T2200,1346A,113.2612,23.105,广州市,市五中,"颗粒物(PM10),细颗粒物(PM2.5)",54,58,44,38,28,3,,49,34,44,35,6,6,0.8,0.8
2024-03-31T2200,1348A,113.3478,23.0916,广州市,广东商学院,,50,50,39,22,26,2,,57,26,42,38,4,4,0.6,0.5
2024-03-31T2200,1349A,113.4332,23.1047,广州市,市八十六中,颗粒物(PM10),52,53,38,25,18,2,,33,12,43,40,6,5,0.6,0.6
2024-03-31T2200,1350A,113.3505,22.9483,广州市,番禺中学,,40,40,36,23,16,4,,56,40,42,27,7,6,0.6,0.6
2024-03-31T2200,1351A,113.2146,23.3916,广州市,花都师范,颗粒物(PM10),54,58,47,34,25,2,,68,54,55,36,6,6,0.7,0.6
2024-03-31T2200,1352A,113.2597,23.1331,广州市,市监测站,颗粒物(PM10),51,52,42,32,23,4,,52,34,45,32,5,5,0.5,0.4
2024-03-31T2200,1353A,113.5618,23.312,广州市,九龙镇镇龙,,50,50,39,29,21,2,,51,34,39,30,6,6,0.6,0.5
2024-03-31T2200,1354A,113.2765,23.1544,广州市,麓湖,颗粒物(PM10),51,52,41,31,22,1,,50,29,42,29,5,5,0.7,0.6
2024-03-31T2200,1355A,113.443,23.3035,广州市,帽峰山森林公园,,36,33,31,25,20,10,,67,48,35,22,6,5,0.5,0.4
2024-03-31T2200,2846A,113.3221,23.1322,广州市,体育西,,50,50,42,29,23,2,,58,35,41,29,8,7,0.7,0.7
2024-03-31T2200,3298A,113.5717,23.5491,广州市,从化街口,颗粒物(PM10),53,56,39,34,24,20,,71,62,26,20,6,7,0.7,0.6
2024-03-31T2200,3299A,113.3472,23.3692,广州市,白云竹料,颗粒物(PM10),52,54,45,30,21,4,,70,50,48,31,6,6,0.7,0.6
2024-03-31T2200,3300A,113.2981,23.237,广州市,白云嘉禾,,50,50,42,27,21,4,,61,40,54,41,5,4,0.8,0.7
2024-03-31T2200,3301A,113.4256,23.1716,广州市,黄埔科学城,颗粒物(PM10),51,52,39,29,21,1,,44,24,46,36,6,5,0.8,0.7
2024-03-31T2200,3302A,113.3942,23.0483,广州市,番禺大学城,,43,43,39,21,19,2,,38,23,41,29,1,2,0.9,0.7
2024-03-31T2200,3303A,113.4922,22.8168,广州市,南沙黄阁,,44,44,39,24,21,12,,37,25,35,25,6,5,0.6,0.6
2024-03-31T2200,3304A,113.5342,22.7896,广州市,南沙街,,41,41,35,22,19,3,,29,18,38,22,6,5,0.5,0.6
2024-03-31T2200,3443A,113.2902,23.5544,广州市,花都梯面,颗粒物(PM10),52,54,45,27,23,13,,75,66,38,30,7,6,0.7,0.7
2024-03-31T2200,3445A,113.7858,23.7478,广州市,从化良口,,39,39,27,27,18,32,,68,64,20,12,4,4,0.7,0.6
2024-03-31T2200,3446A,113.8051,23.2614,广州市,增城荔城,颗粒物(PM10),52,54,41,31,23,14,,58,46,24,22,6,6,0.5,0.5
2024-03-31T2200,2505A,109.568,23.1478,贵港市,德智高中,,,,56,33,37,45,,54,54,25,27,5,6,0.4,0.5
2024-03-31T2200,2506A,109.6047,23.0666,贵港市,江南子站,,45,41,63,31,38,63,,73,71,9,18,6,8,0.7,0.9
2024-03-31T2200,2507A,109.6014,23.0948,贵港市,贵城子站,,49,49,67,31,40,60,,68,67,8,19,7,8,0.8,1
2024-03-31T2200,2508A,109.5669,23.1065,贵港市,荷城子站,,48,48,52,29,32,62,,73,72,7,16,9,10,0.5,0.6
2024-03-31T2200,3405A,109.5886,23.1172,贵港市,新世纪学校,,46,46,60,29,37,64,,73,73,11,27,8,9,0.7,0.8
2024-03-31T2200,1439A,106.6899,26.5998,贵阳市,马鞍山,颗粒物(PM10),52,53,42,31,25,99,,138,122,11,11,7,8,0.7,0.7
2024-03-31T2200,1440A,106.6971,26.5694,贵阳市,市环保站,细颗粒物(PM2.5),73,73,63,53,39,101,,130,113,14,21,5,8,0.7,0.6
2024-03-31T2200,1441A,106.6243,26.6266,贵阳市,鉴湖路,颗粒物(PM10),57,63,52,39,28,96,,138,121,12,12,5,8,0.5,0.4
2024-03-31T2200,1442A,106.7487,26.6343,贵阳市,燕子冲,细颗粒物(PM2.5),58,53,44,41,30,107,,144,129,11,13,8,9,0.6,0.5
2024-03-31T2200,1443A,106.6555,26.4365,贵阳市,碧云窝,颗粒物(PM10),53,56,52,36,31,102,,136,120,8,12,5,7,0.3,0.5
2024-03-31T2200,1444A,106.694,26.5161,贵阳市,中院村,颗粒物(PM10),52,53,52,34,33,91,,118,104,12,20,8,12,0.5,0.5
2024-03-31T2200,1445A,106.7109,26.6027,贵阳市,红边门,细颗粒物(PM2.5),67,68,53,48,36,94,,139,117,17,15,5,8,0.5,0.4
2024-03-31T2200,1446A,106.7164,26.5699,贵阳市,新华路,细颗粒物(PM2.5),64,56,49,46,33,102,,140,124,13,13,7,10,0.6,0.6
2024-03-31T2200,1447A,106.674,26.5424,贵阳市,太慈桥,细颗粒物(PM2.5),55,56,47,39,29,100,,134,116,15,18,7,9,0.5,0.4
2024-03-31T2200,1862A,110.4144,25.3167,桂林市,电子科大尧山校区,细颗粒物(PM2.5),53,,39,37,55,32,,66,53,6,8,3,10,0.8,0.8
2024-03-31T2200,1863A,110.2819,25.2697,桂林市,监测站,颗粒物(PM10),59,67,54,38,37,23,,68,60,37,21,7,9,1.2,1
2024-03-31T2200,1864A,110.3089,25.2708,桂林市,龙隐路小学,颗粒物(PM10),54,58,48,32,40,15,,62,54,34,18,6,6,1.0,0.9
2024-03-31T2200,1865A,110.2869,25.2178,桂林市,八中,颗粒物(PM10),61,71,49,37,36,4,,57,46,37,24,5,5,0.7,0.5
2024-03-31T2200,3403A,110.1764,25.2381,桂林市,创业大厦,细颗粒物(PM2.5),52,46,36,36,31,34,,74,66,28,16,13,10,0.7,0.6
2024-03-31T2200,3531A,110.296,25.1253,桂林市,旅游学院,,36,36,30,22,23,3,,57,48,33,16,5,7,0.6,0.6
2024-03-31T2200,2674A,100.2561,34.4714,果洛藏族自治州,玛沁县大武镇,,29,24,23,18,18,91,,116,114,17,9,10,11,0.5,0.4
2024-03-31T2200,1129A,126.5422,45.755,哈尔滨市,岭北,,42,42,31,26,20,85,,78,78,14,11,13,13,0.8,0.7
2024-03-31T2200,1130A,126.561,45.8167,哈尔滨市,松北商大,,50,50,37,21,20,30,,68,59,41,16,4,6,0.6,0.5
2024-03-31T2200,1131A,126.979,45.5419,哈尔滨市,阿城会宁,细颗粒物(PM2.5),75,86,48,55,22,27,,68,58,38,14,5,4,0.7,0.5
2024-03-31T2200,1132A,126.599,45.7222,哈尔滨市,南岗学府路,颗粒物(PM10),61,72,47,28,15,47,,62,57,27,11,8,8,0.7,0.4
2024-03-31T2200,1133A,126.689,45.7733,哈尔滨市,太平宏伟公园,颗粒物(PM10),53,55,42,25,22,59,,70,69,13,8,13,8,0.6,0.5
2024-03-31T2200,1134A,126.635,45.7667,哈尔滨市,道外承德广场,,35,35,37,22,20,45,,63,60,42,22,8,7,0.8,0.6
2024-03-31T2200,1135A,126.685,45.7319,哈尔滨市,香坊红旗大街,,50,49,42,35,24,56,,71,69,24,15,9,7,0.5,0.4
2024-03-31T2200,1136A,126.6411,45.7258,哈尔滨市,动力和平路,颗粒物(PM10),51,52,41,22,19,42,,71,68,40,13,8,5,0.7,0.5
2024-03-31T2200,1137A,126.593,45.7478,哈尔滨市,道里建国路,颗粒物(PM10),54,58,38,22,24,31,,64,58,44,10,5,5,0.6,0.4
2024-03-31T2200,1138A,126.615,45.61,哈尔滨市,平房东轻厂,颗粒物(PM10),65,79,43,26,17,10,,68,45,67,19,6,5,0.5,0.3
2024-03-31T2200,1139A,126.595,45.9855,哈尔滨市,呼兰师专,"颗粒物(PM10),细颗粒物(PM2.5)",54,58,47,38,30,42,,68,61,37,18,7,6,0.6,0.6
2024-03-31T2200,1140A,126.6206,45.6842,哈尔滨市,省农科院,颗粒物(PM10),66,82,41,37,23,30,,76,64,48,15,10,8,0.7,0.4
2024-03-31T2200,2688A,93.5128,42.8172,哈密市,地区监测站,颗粒物(PM10),390,492,176,43,23,92,,103,100,7,22,3,5,0.1,0.3
2024-03-31T2200,2689A,93.4961,42.8328,哈密市,哈密师范学校,颗粒物(PM10),500,1188,315,92,30,91,,102,99,6,23,4,7,0.4,0.5
2024-03-31T2200,2671A,100.9048,36.9639,海北藏族自治州,海晏县西海镇,,50,50,73,19,24,62,,113,100,14,9,13,14,0.3,0.4
2024-03-31T2200,3867A,102.0738,36.5056,海东市,平安区公安北苑,颗粒物(PM10),78,106,126,39,49,72,,118,106,34,16,14,12,0.7,0.5
2024-03-31T2200,1410A,110.3232,20.0574,海口市,海南大学,,44,44,32,27,19,39,,84,80,8,11,7,7,0.3,0.3
2024-03-31T2200,1411A,110.283,20.0053,海口市,秀英海南医院,,43,39,34,30,21,26,,81,76,22,16,8,8,0.4,0.4
2024-03-31T2200,1412A,110.338,19.9969,海口市,海南师范大学,,38,36,31,26,20,34,,96,78,7,10,8,8,0.4,0.4
2024-03-31T2200,1413A,110.33,20.0356,海口市,龙华路环保局宿舍,,43,43,39,23,23,37,,85,74,9,13,8,8,0.2,0.3
2024-03-31T2200,3539A,110.5111,19.9736,海口市,桂林洋子站,,46,46,34,31,22,21,,69,50,13,7,7,7,0.3,0.3
2024-03-31T2200,2673A,100.6188,36.2866,海南藏族自治州,共和县恰卜恰镇,颗粒物(PM10),72,94,38,10,19,102,,112,108,28,16,28,12,0.7,0.5
2024-03-31T2200,2676A,97.3731,37.3753,海西蒙古族藏族自治州,德令哈市,,36,36,31,8,11,89,,113,109,13,8,8,10,0.5,0.5
2024-03-31T2200,1048A,114.5302,36.6116,邯郸市,东污水处理厂,细颗粒物(PM2.5),98,143,138,73,62,88,,134,124,34,32,5,8,0.6,0.5
2024-03-31T2200,1049A,114.4918,36.5713,邯郸市,矿院,颗粒物(PM10),86,122,110,55,46,104,,128,125,23,31,5,7,0.7,0.7
2024-03-31T2200,1050A,114.484,36.6133,邯郸市,丛台公园,细颗粒物(PM2.5),92,124,99,68,48,107,,132,128,16,24,7,10,0.4,0.4
2024-03-31T2200,3458A,114.7895,36.5593,邯郸市,香泉濮院小区,颗粒物(PM10),96,142,124,69,48,114,,144,139,20,17,8,11,0.5,0.4
2024-03-31T2200,3579A,114.50634,36.77178,邯郸市,永年区实验高中,,,,,,,,,,,,,,,,
2024-03-31T2200,3580A,114.20016,36.44293,邯郸市,峰峰矿区临水派出所,细颗粒物(PM2.5),93,134,117,69,58,131,,149,146,11,14,11,13,0.8,1
2024-03-31T2200,2634A,106.9893,33.1842,汉中市,汉川机床厂子校,,30,24,32,21,18,77,,121,107,10,11,3,5,0.7,0.7
2024-03-31T2200,2635A,107.0154,33.0706,汉中市,市监测站,颗粒物(PM10),62,74,52,40,34,41,,127,102,50,28,8,8,0.8,0.7
2024-03-31T2200,2636A,107.0089,33.1138,汉中市,鑫源开发区,颗粒物(PM10),57,64,52,32,24,35,,131,108,54,29,9,11,0.8,0.7
2024-03-31T2200,2637A,107.007,33.0323,汉中市,南郑大河坎水厂,细颗粒物(PM2.5),79,83,46,58,27,35,,130,102,45,21,8,8,0.7,0.5
2024-03-31T2200,1223A,120.2072,30.2111,杭州市,滨江,颗粒物(PM10),91,132,109,58,46,55,,132,123,67,46,5,6,1.1,0.8
2024-03-31T2200,1224A,120.0633,30.2747,杭州市,西溪,细颗粒物(PM2.5),57,56,101,40,63,32,,120,103,34,42,6,7,1.0,0.9
2024-03-31T2200,1226A,120.3461,30.3153,杭州市,下沙,颗粒物(PM10),90,130,137,62,61,55,,118,106,74,54,7,8,1.0,0.9
2024-03-31T2200,1227A,120.1269,30.2456,杭州市,卧龙桥,细颗粒物(PM2.5),67,62,83,48,56,31,,127,105,31,38,4,5,1.0,0.9
2024-03-31T2200,1228A,120.1903,30.2692,杭州市,浙江农大,颗粒物(PM10),83,116,126,57,61,27,,117,105,91,57,6,7,1.1,0.9
2024-03-31T2200,1230A,120.1197,30.3119,杭州市,和睦小学,细颗粒物(PM2.5),77,94,117,56,67,49,,123,114,70,52,8,8,1.1,0.9
2024-03-31T2200,1231A,120.3019,30.4183,杭州市,临平镇,细颗粒物(PM2.5),163,180,228,124,117,56,,118,111,62,46,4,6,1.1,1
2024-03-31T2200,1232A,120.2697,30.1819,杭州市,城厢镇,细颗粒物(PM2.5),100,113,92,75,65,51,,128,115,63,46,6,6,1.1,0.8
2024-03-31T2200,1233A,120.0883,30.1808,杭州市,云栖,颗粒物(PM10),60,70,103,38,50,38,,122,104,36,44,8,9,0.9,0.8
2024-03-31T2200,3557A,119.9464,30.0494,杭州市,镇二中,颗粒物(PM10),59,68,73,40,44,44,,112,106,61,52,6,6,1.1,1
2024-03-31T2200,3558A,119.7183,30.2367,杭州市,市府大楼,细颗粒物(PM2.5),68,77,93,49,60,64,,137,131,45,35,6,6,0.9,0.8
2024-03-31T2200,3656A,120.1556,30.2864,杭州市,消防大队,细颗粒物(PM2.5),74,90,114,54,65,50,,127,116,74,53,7,9,1.3,1
2024-03-31T2200,1270A,117.1959,31.7848,合肥市,明珠广场,颗粒物(PM10),109,168,133,73,50,94,,159,146,72,33,7,8,0.8,0.6
2024-03-31T2200,1271A,117.3072,31.8764,合肥市,三里街,细颗粒物(PM2.5),117,180,149,88,58,82,,125,119,58,31,5,6,0.9,0.7
2024-03-31T2200,1272A,117.2588,31.8707,合肥市,琥珀山庄,颗粒物(PM10),106,161,140,68,44,99,,165,155,55,29,5,6,1.0,0.7
2024-03-31T2200,1273A,117.1604,31.9052,合肥市,董铺水库,颗粒物(PM10),123,195,150,66,46,119,,164,156,38,20,3,4,0.7,0.6
2024-03-31T2200,1274A,117.25,31.8571,合肥市,长江中路,细颗粒物(PM2.5),120,178,141,91,57,120,,163,157,50,26,10,10,1.1,0.8
2024-03-31T2200,1275A,117.266,31.9436,合肥市,庐阳区,颗粒物(PM10),126,202,157,90,57,73,,134,119,86,27,5,6,1.0,0.8
2024-03-31T2200,1276A,117.336,31.8586,合肥市,瑶海区,细颗粒物(PM2.5),132,197,154,100,55,70,,144,134,69,28,8,9,1.3,0.9
2024-03-31T2200,1277A,117.3027,31.7964,合肥市,包河区,颗粒物(PM10),125,200,152,85,55,4,,142,118,157,44,9,8,0.8,0.6
2024-03-31T2200,1278A,117.2776,31.7385,合肥市,滨湖新区,颗粒物(PM10),111,171,145,73,51,124,,154,154,31,21,8,9,0.7,0.5
2024-03-31T2200,1279A,117.1318,31.8403,合肥市,高新区,细颗粒物(PM2.5),117,175,134,88,54,119,,160,153,48,25,8,9,1.0,0.8
2024-03-31T2200,3464A,117.3803,31.9147,合肥市,高教基地,颗粒物(PM10),115,179,147,72,50,86,,164,148,48,25,6,8,0.8,0.6
2024-03-31T2200,3614A,79.924,37.0877,和田地区,地区环保局,颗粒物(PM10),500,749,1909,280,631,85,,96,93,12,5,6,6,0.5,0.5
2024-03-31T2200,3615A,79.9131,37.113,和田地区,市环保局,颗粒物(PM10),500,830,2273,176,382,89,,93,92,4,3,4,5,0.4,0.4
2024-03-31T2200,2516A,108.2011,24.715,河池市,东仁乐园,颗粒物(PM10),70,89,82,49,46,7,,19,17,15,12,5,5,0.7,0.7
2024-03-31T2200,2517A,108.0497,24.6947,河池市,市环保站,细颗粒物(PM2.5),74,71,57,54,45,46,,89,83,22,15,6,7,0.8,0.8
2024-03-31T2200,2518A,108.0983,24.6989,河池市,市疾控中心,细颗粒物(PM2.5),75,83,62,55,48,32,,81,72,37,24,6,6,0.8,0.8
2024-03-31T2200,1696A,114.6778,23.7569,河源市,源西,颗粒物(PM10),57,63,33,36,26,4,,62,48,47,18,4,4,1.2,0.8
2024-03-31T2200,1697A,114.6944,23.7586,河源市,东埔,颗粒物(PM10),61,72,48,29,20,27,,73,65,20,12,6,6,0.9,0.6
2024-03-31T2200,1698A,114.6892,23.7233,河源市,老城,,47,47,32,30,19,23,,67,54,23,15,7,5,0.7,0.6
2024-03-31T2200,1718A,115.4208,35.2464,菏泽市,气象局,颗粒物(PM10),101,151,121,50,36,126,,155,150,24,31,6,7,0.6,0.6
2024-03-31T2200,1719A,115.4747,35.2375,菏泽市,市政协,颗粒物(PM10),105,160,118,58,39,116,,153,149,24,26,5,6,0.5,0.6
2024-03-31T2200,3374A,115.5564,35.0891,菏泽市,定陶老年大学,颗粒物(PM10),100,149,119,63,40,103,,148,140,28,24,6,8,0.5,0.4
2024-03-31T2200,3647A,115.4702,35.2706,菏泽市,菏泽医专,颗粒物(PM10),97,143,118,53,32,106,,141,135,23,24,8,8,0.6,0.5
2024-03-31T2200,2514A,111.5264,24.4172,贺州市,环保小区,细颗粒物(PM2.5),72,77,47,52,33,45,,80,66,24,22,10,7,0.9,0.8
2024-03-31T2200,2515A,111.5608,24.4078,贺州市,政协大楼,颗粒物(PM10),65,79,48,44,34,36,,64,57,27,22,9,7,0.9,0.8
2024-03-31T2200,3534A,111.4744,24.4553,贺州市,西湾,细颗粒物(PM2.5),72,77,44,52,33,24,,84,64,42,21,7,6,0.7,0.7
2024-03-31T2200,2385A,114.17,35.9019,鹤壁市,市监测站,颗粒物(PM10),96,141,130,70,59,96,,142,134,20,27,11,11,0.5,0.5
2024-03-31T2200,2386A,114.2956,35.7511,鹤壁市,市交警支队,细颗粒物(PM2.5),94,125,119,70,46,111,,144,138,18,40,11,13,0.6,0.5
2024-03-31T2200,2387A,114.2878,35.7306,鹤壁市,迎宾馆,细颗粒物(PM2.5),103,104,116,77,51,108,,144,136,20,39,12,12,0.6,0.6
2024-03-31T2200,3474A,114.2617,35.6822,鹤壁市,大新区,颗粒物(PM10),83,116,127,58,46,59,,134,118,47,48,8,11,0.8,0.7
2024-03-31T2200,3596A,114.1572,35.9603,鹤壁市,南山宾馆,"颗粒物(PM10),细颗粒物(PM2.5)",103,155,144,77,58,91,,144,135,26,34,11,16,0.7,0.6
2024-03-31T2200,2244A,130.2537,47.3416,鹤岗市,哈啤分公司,,23,16,18,16,15,61,,64,62,4,4,13,14,0.7,0.7
2024-03-31T2200,2245A,130.2684,47.3086,鹤岗市,斯达机电,,26,24,24,18,17,65,,68,66,5,5,10,10,0.5,0.5
2024-03-31T2200,2246A,130.3114,47.3388,鹤岗市,东山纸板厂,,32,,26,22,19,64,,67,64,3,4,12,13,0.2,0.5
2024-03-31T2200,2247A,130.1097,47.3382,鹤岗市,五号水库,,25,18,18,9,10,77,,78,78,4,4,10,10,0.3,0.3
2024-03-31T2200,2263A,127.4833,50.2524,黑河市,交通局,,24,,14,14,11,75,,77,76,2,3,3,8,0.2,0.2
2024-03-31T2200,2264A,127.5144,50.2341,黑河市,环保局,,23,21,17,16,13,72,,74,72,6,7,4,5,0.3,0.3
2024-03-31T2200,2265A,127.5291,50.2472,黑河市,大黑河岛,,,,27,6,9,,,,,24,24,1,2,0.4,0.4
2024-03-31T2200,1074A,115.6838,37.7541,衡水市,电机北厂,细颗粒物(PM2.5),110,148,109,83,46,102,,159,152,26,15,5,6,0.6,0.5
2024-03-31T2200,1075A,115.6303,37.7316,衡水市,市监测站,颗粒物(PM10),88,125,98,58,32,116,,157,151,25,19,6,7,0.6,0.5
2024-03-31T2200,3188A,115.6683,37.7217,衡水市,市城管局,颗粒物(PM10),89,127,107,63,37,92,,148,140,32,22,9,10,0.6,0.5
2024-03-31T2200,3459A,115.5989,37.5491,衡水市,地表水厂,颗粒物(PM10),92,134,113,59,37,104,,153,144,23,19,6,6,0.6,0.5
2024-03-31T2200,2456A,112.5003,26.9167,衡阳市,原169医院,,48,48,32,25,22,63,,140,125,47,11,9,11,0.7,0.6
2024-03-31T2200,2457A,112.6194,26.9258,衡阳市,衡阳化工总厂,颗粒物(PM10),52,54,36,32,27,99,,145,135,20,10,22,8,0.8,0.6
2024-03-31T2200,2458A,112.6211,26.8956,衡阳市,珠晖区环保局,,49,49,35,30,22,81,,140,128,32,10,9,8,0.8,0.7
2024-03-31T2200,2459A,112.6197,26.8733,衡阳市,市委党校,,42,42,33,24,20,119,,147,142,10,7,10,10,0.7,0.8
2024-03-31T2200,2460A,112.6006,26.8919,衡阳市,市监测站,,49,49,32,34,25,102,,147,137,23,11,8,8,0.8,0.7
2024-03-31T2200,2461A,112.5664,26.9056,衡阳市,真空机电公司,,39,39,32,24,20,100,,139,129,24,9,10,10,0.7,0.7
2024-03-31T2200,3399A,112.6703,26.882,衡阳市,师范学院,"颗粒物(PM10),细颗粒物(PM2.5)",53,55,35,37,25,85,,142,130,15,8,8,9,0.8,0.7
2024-03-31T2200,2608A,103.3772,23.3993,红河哈尼族彝族自治州,污水处理厂,细颗粒物(PM2.5),89,66,77,66,58,120,,127,127,8,10,7,7,0.4,0.5
2024-03-31T2200,2609A,103.3861,23.35,红河哈尼族彝族自治州,监测站,细颗粒物(PM2.5),80,77,72,59,54,122,,120,120,4,8,7,8,0.5,0.5
2024-03-31T2200,3038A,103.3758,23.368,红河哈尼族彝族自治州,州图书馆,细颗粒物(PM2.5),88,75,70,65,52,117,,118,118,6,9,6,6,0.6,0.6
2024-03-31T2200,1090A,111.6507,40.7517,呼和浩特市,呼市一监,颗粒物(PM10),109,168,69,68,33,18,,131,106,90,25,12,11,1.1,0.6
2024-03-31T2200,1091A,111.6572,40.8033,呼和浩特市,小召,颗粒物(PM10),79,107,54,56,22,27,,91,,94,31,17,10,1.2,0.6
2024-03-31T2200,1094A,111.7516,40.8369,呼和浩特市,如意水处理厂,颗粒物(PM10),64,78,44,33,17,50,,116,100,58,29,10,10,0.6,0.4
2024-03-31T2200,1095A,111.7276,40.8062,呼和浩特市,二十九中,颗粒物(PM10),82,114,52,43,21,44,,125,111,68,26,13,11,0.9,0.6
2024-03-31T2200,1096A,111.5512,40.7866,呼和浩特市,工大金川校区,颗粒物(PM10),80,110,59,32,23,68,,118,97,47,29,8,9,0.5,0.4
2024-03-31T2200,1097A,111.717,40.7612,呼和浩特市,化肥厂生活区,颗粒物(PM10),108,166,72,80,32,31,,123,100,82,32,13,11,0.8,0.5
2024-03-31T2200,3698A,111.5968,40.8178,呼和浩特市,红旗小学,颗粒物(PM10),67,83,54,36,18,83,,117,102,39,31,7,7,0.5,0.4
2024-03-31T2200,3699A,111.6518,40.8389,呼和浩特市,海东办,颗粒物(PM10),76,102,48,39,16,17,,118,94,98,33,9,8,0.6,0.3
2024-03-31T2200,2192A,119.7594,49.2261,呼伦贝尔市,区环保局,细颗粒物(PM2.5),59,57,36,42,17,30,,88,76,55,12,5,4,0.7,0.3
2024-03-31T2200,3061A,119.7512,49.1577,呼伦贝尔市,国华电力东,,43,43,33,28,15,74,,90,86,10,5,4,4,0.3,0.2
2024-03-31T2200,1250A,120.0751,30.8669,湖州市,城西水厂,细颗粒物(PM2.5),97,126,103,72,62,83,,128,123,52,33,5,6,0.9,0.9
2024-03-31T2200,2873A,120.0875,30.8955,湖州市,仁皇山新区,细颗粒物(PM2.5),97,112,102,72,65,85,,130,126,54,31,7,7,1.0,0.9
2024-03-31T2200,2907A,120.1844,30.8596,湖州市,吴兴区站,细颗粒物(PM2.5),95,98,102,71,67,77,,134,128,56,29,6,6,0.8,0.8
2024-03-31T2200,3562A,120.4148,30.8538,湖州市,南浔区站,细颗粒物(PM2.5),92,101,115,68,72,82,,142,136,47,29,10,11,1.0,0.9
2024-03-31T2200,1607A,120.9092,40.7136,葫芦岛市,龙港区,颗粒物(PM10),84,117,56,46,28,78,,104,95,30,20,201,25,0.8,0.6
2024-03-31T2200,1608A,120.8392,40.7514,葫芦岛市,化工街,细颗粒物(PM2.5),98,134,68,73,28,21,,110,91,89,45,18,16,1.2,0.6
2024-03-31T2200,1609A,120.8341,40.7073,葫芦岛市,新区,细颗粒物(PM2.5),104,106,55,78,27,27,,104,94,93,31,58,16,1.2,0.7
2024-03-31T2200,1610A,120.8695,40.7677,葫芦岛市,东城区,细颗粒物(PM2.5),129,110,65,98,32,7,,113,88,104,57,14,15,1.6,0.8
2024-03-31T2200,2482A,109.5981,27.5721,怀化市,林科所,,38,24,22,9,10,121,,130,125,4,4,10,9,0.4,0.5
2024-03-31T2200,2483A,109.9453,27.5444,怀化市,河西地税局,,46,46,31,26,20,23,,124,99,51,13,6,7,0.7,0.6
2024-03-31T2200,2484A,109.9781,27.5342,怀化市,市四医院,细颗粒物(PM2.5),58,63,29,41,23,64,,122,104,26,11,18,10,0.8,0.6
2024-03-31T2200,2485A,109.9972,27.5578,怀化市,监测楼,颗粒物(PM10),54,58,31,29,18,60,,116,103,18,7,11,9,0.7,0.6
2024-03-31T2200,2486A,110.0394,27.583,怀化市,市委党校,颗粒物(PM10),54,58,30,33,20,53,,120,103,27,9,9,9,0.7,0.6
2024-03-31T2200,1210A,119.036,33.5981,淮安市,钵池山,颗粒物(PM10),74,97,95,47,33,88,,122,111,30,19,10,10,0.8,0.6
2024-03-31T2200,1211A,119.007,33.575,淮安市,北京南路,颗粒物(PM10),79,107,103,42,33,75,,121,103,42,22,9,8,0.7,0.7
2024-03-31T2200,1212A,118.989,33.6067,淮安市,市监测站,颗粒物(PM10),82,114,106,44,32,86,,125,111,34,23,10,9,0.7,0.7
2024-03-31T2200,1213A,119.135,33.5039,淮安市,楚州区监测站,颗粒物(PM10),84,117,110,45,34,58,,119,100,52,23,7,8,0.6,0.6
2024-03-31T2200,1214A,119.0186,33.6297,淮安市,淮阴区监测站,颗粒物(PM10),86,122,111,46,35,76,,120,97,48,30,6,6,0.6,0.5
2024-03-31T2200,3426A,118.8755,33.2894,淮安市,新华书店,颗粒物(PM10),74,97,99,39,30,106,,117,113,29,22,7,6,0.5,0.4
2024-03-31T2200,2282A,116.8004,33.975,淮北市,监测站,颗粒物(PM10),79,107,113,42,33,92,,140,129,28,17,10,7,0.6,0.5
2024-03-31T2200,2283A,116.8091,33.9007,淮北市,烈山区政府,颗粒物(PM10),86,122,123,43,37,88,,132,121,26,16,14,8,0.5,0.4
2024-03-31T2200,3330A,116.8873,33.9836,淮北市,杜集区检察院,颗粒物(PM10),81,111,115,44,34,106,,144,132,19,16,10,9,0.7,0.6
2024-03-31T2200,4017A,116.7923,33.9535,淮北市,市博物馆,颗粒物(PM10),77,104,114,38,33,81,,135,123,28,11,12,8,0.6,0.4
2024-03-31T2200,2277A,116.8305,32.7727,淮南市,潘集区政府,颗粒物(PM10),106,162,148,78,57,102,,158,145,31,15,6,4,0.6,0.5
2024-03-31T2200,2278A,117.0067,32.6524,淮南市,师范学院,颗粒物(PM10),121,191,159,85,57,100,,156,144,40,21,13,12,0.5,0.4
2024-03-31T2200,2279A,116.8569,32.5951,淮南市,谢家集区政府,颗粒物(PM10),114,177,138,67,47,98,,164,148,58,19,31,9,0.6,0.4
2024-03-31T2200,2280A,116.8281,32.633,淮南市,八公山区政府,颗粒物(PM10),118,185,155,78,53,122,,167,158,26,14,9,6,0.6,0.5
2024-03-31T2200,2281A,116.6325,32.6201,淮南市,焦岗湖风景区管理处,颗粒物(PM10),107,164,120,46,46,77,,131,114,51,23,4,5,0.3,0.1
2024-03-31T2200,2894A,117.0566,32.6531,淮南市,经济技术开发区消防队,颗粒物(PM10),105,159,147,78,53,85,,160,146,48,22,8,9,0.7,0.5
2024-03-31T2200,3329A,117.0108,32.5893,淮南市,山南新区,颗粒物(PM10),121,191,165,87,57,122,,172,163,36,21,7,7,0.7,0.6
2024-03-31T2200,2446A,114.9028,30.4742,黄冈市,职工中心,颗粒物(PM10),64,78,58,41,37,114,,184,174,31,11,12,12,0.7,0.6
2024-03-31T2200,2929A,114.8858,30.4519,黄冈市,红卫路,细颗粒物(PM2.5),74,86,46,54,33,88,,184,160,50,14,8,9,0.7,0.5
2024-03-31T2200,3398A,114.9136,30.4445,黄冈市,市林业局,颗粒物(PM10),72,94,48,49,32,95,,174,158,42,9,6,7,0.5,0.4
2024-03-31T2200,2672A,102.0199,35.5102,黄南藏族自治州,同仁县隆务镇,颗粒物(PM10),57,64,40,31,17,60,,97,91,15,9,8,7,0.3,0.3
2024-03-31T2200,2295A,118.2903,29.6963,黄山市,延安路89号,,37,37,41,17,14,50,,108,96,12,11,6,6,0.6,0.6
2024-03-31T2200,2296A,118.327,29.7178,黄山市,黄山东路89号,颗粒物(PM10),51,52,36,24,19,24,,103,83,20,12,5,5,0.5,0.5
2024-03-31T2200,2297A,118.1371,30.2756,黄山市,黄山区政府5号楼,,42,42,42,27,26,27,,109,87,18,12,4,4,0.8,0.7
2024-03-31T2200,2423A,115.0601,30.2313,黄石市,沈家营,,39,39,38,27,20,90,,154,133,30,14,21,11,0.7,0.5
2024-03-31T2200,2424A,115.0817,30.2006,黄石市,陈家湾,,,54,42,,22,82,,148,127,19,14,13,13,1.8,0.9
2024-03-31T2200,2426A,114.8988,30.2019,黄石市,铁山,颗粒物(PM10),53,56,46,22,22,89,,144,129,18,13,13,10,0.6,0.7
2024-03-31T2200,2427A,115.0307,30.2092,黄石市,团城山,颗粒物(PM10),51,51,61,21,18,96,,142,130,23,13,9,12,0.6,0.6
2024-03-31T2200,3149A,115.0235,30.1578,黄石市,笔架山北路,,43,43,51,18,15,126,,158,146,19,11,11,8,1.0,0.4
2024-03-31T2200,1392A,114.4183,23.0528,惠州市,河南岸金山湖子站,,45,45,29,25,16,10,,44,28,22,11,5,5,0.6,0.6
2024-03-31T2200,1393A,114.4053,23.0822,惠州市,下埔横江三路子站,,46,46,32,28,17,13,,52,33,24,12,6,5,0.7,0.6
2024-03-31T2200,1394A,114.4103,23.1142,惠州市,江北云山西路子站,,47,47,29,29,17,11,,50,36,23,10,6,5,0.5,0.5
2024-03-31T2200,1395A,114.4645,22.7833,惠州市,惠阳区承修路船湖子站,,36,36,28,23,15,15,,29,24,15,10,2,2,0.6,0.5
2024-03-31T2200,1396A,114.5317,22.7422,惠州市,大亚湾管委会子站,,37,37,28,21,16,18,,37,31,26,15,2,2,0.5,0.5
2024-03-31T2200,3314A,114.4338,22.8134,惠州市,惠阳秋长,,31,31,29,16,14,22,,33,29,22,19,7,7,0.7,0.7
2024-03-31T2200,3452A,114.6517,22.775,惠州市,大亚湾霞涌,,20,20,19,12,13,18,,30,28,19,12,7,6,0.4,0.4
2024-03-31T2200,2240A,130.9762,45.3001,鸡西市,环保局,,38,38,52,19,20,60,,62,59,6,5,5,5,0.3,0.3
2024-03-31T2200,2243A,130.9429,45.3039,鸡西市,第一中学,,24,24,50,14,19,62,,74,66,8,7,6,6,0.1,0.1
2024-03-31T2200,3707A,131.0207,45.3073,鸡西市,欧美日汽修厂,,32,32,57,14,23,56,,60,,11,9,7,4,0.2,0.3
2024-03-31T2200,3709A,130.9967,45.3106,鸡西市,市政设施管理处,,44,44,59,20,20,49,,66,58,16,10,4,4,0.2,0.2
2024-03-31T2200,2367A,114.9754,27.0803,吉安市,红声器材厂,,30,30,26,13,16,79,,127,117,24,14,10,8,0.3,0.4
2024-03-31T2200,2368A,114.9658,27.0999,吉安市,市森林工业局,,30,29,26,21,18,76,,122,113,27,11,10,10,0.4,0.3
2024-03-31T2200,2369A,114.99,27.1312,吉安市,市环境监测站,,34,34,27,19,15,79,,130,120,25,9,48,14,0.5,0.6
2024-03-31T2200,2370A,115.0093,27.0968,吉安市,青原区法院,,30,30,32,20,18,64,,127,107,31,8,14,13,0.5,0.5
2024-03-31T2200,1772A,126.54,43.8622,吉林市,哈达湾,,40,40,46,20,17,70,,95,86,11,7,5,5,0.5,0.4
2024-03-31T2200,1773A,126.5844,43.8358,吉林市,东局子,,50,50,50,22,14,60,,96,83,21,9,4,4,0.5,0.5
2024-03-31T2200,1774A,126.5052,43.8245,吉林市,电力学院,颗粒物(PM10),68,86,50,43,18,45,,105,89,27,7,9,7,1.0,0.6
2024-03-31T2200,1775A,126.6133,43.8972,吉林市,江北,颗粒物(PM10),76,102,60,49,18,28,,94,72,63,18,10,7,1.0,0.7
2024-03-31T2200,1776A,126.555,43.8306,吉林市,江南公园,,48,48,49,22,18,63,,97,84,19,9,4,4,0.5,0.5
2024-03-31T2200,2868A,126.4739,43.953,吉林市,九站,,50,50,54,20,14,51,,92,76,24,9,6,7,0.7,0.6
2024-03-31T2200,1300A,116.9376,36.665,济南市,农科所,颗粒物(PM10),83,115,94,42,24,89,,136,127,37,29,7,6,0.7,0.7
2024-03-31T2200,1301A,117.1265,36.6734,济南市,开发区,颗粒物(PM10),88,125,84,42,21,60,,143,121,61,28,8,9,0.8,0.6
2024-03-31T2200,1303A,117.0624,36.6868,济南市,省种子仓库,颗粒物(PM10),126,202,125,92,31,36,,145,114,86,50,7,6,0.8,0.6
2024-03-31T2200,1304A,116.9489,36.6447,济南市,机床二厂,颗粒物(PM10),100,149,99,49,23,79,,146,135,51,19,8,7,0.8,0.7
2024-03-31T2200,1305A,117.0495,36.663,济南市,市监测站,颗粒物(PM10),85,120,85,49,24,53,,147,124,84,41,11,12,1.0,0.7
2024-03-31T2200,1306A,116.7675,36.5484,济南市,长清党校,颗粒物(PM10),96,142,92,56,28,157,,152,152,14,16,9,8,0.7,0.6
2024-03-31T2200,1616A,117.6795,36.229,济南市,技术学院,颗粒物(PM10),117,183,105,75,33,80,,142,133,51,23,21,14,1.2,0.9
2024-03-31T2200,1961A,117.532,36.6868,济南市,东山小学,颗粒物(PM10),83,115,98,46,31,70,,144,119,55,30,7,8,0.5,0.5
2024-03-31T2200,3059A,117.7161,36.2049,济南市,泰兴公司,颗粒物(PM10),103,156,97,66,34,22,,138,118,84,27,11,12,1.8,0.9
2024-03-31T2200,3064A,117.6867,36.2171,济南市,莱芜战役纪念馆,颗粒物(PM10),93,136,97,51,30,103,,138,132,33,21,12,11,1.2,1
2024-03-31T2200,3494A,117.1673,36.9782,济南市,济阳区政府,细颗粒物(PM2.5),104,149,117,78,36,116,,132,126,25,39,13,12,0.8,0.7
2024-03-31T2200,3495A,117.1171,36.63,济南市,锦屏中学,颗粒物(PM10),73,95,68,37,19,94,,148,132,20,13,7,8,0.7,0.6
2024-03-31T2200,3682A,116.9814,36.6819,济南市,济南四建,颗粒物(PM10),89,127,98,44,26,87,,137,129,43,34,10,9,0.8,0.6
2024-03-31T2200,1653A,116.6251,35.4302,济宁市,火炬城,颗粒物(PM10),84,118,107,41,28,105,,142,139,22,16,8,9,0.7,0.7
2024-03-31T2200,1655A,116.5491,35.4042,济宁市,电化厂,颗粒物(PM10),91,132,126,29,28,125,,143,143,11,13,7,9,0.7,0.6
2024-03-31T2200,3500A,116.5814,35.3707,济宁市,北湖一中,颗粒物(PM10),83,116,107,46,31,116,,143,142,16,15,2,3,0.9,0.8
2024-03-31T2200,3501A,116.8249,35.5593,济宁市,服务中心,颗粒物(PM10),111,171,99,53,23,98,,131,127,29,18,6,5,0.6,0.5
2024-03-31T2200,3678A,116.5907,35.4054,济宁市,市第七中学,颗粒物(PM10),86,121,116,36,28,109,,139,137,18,16,5,7,0.8,0.7
2024-03-31T2200,2255A,130.2751,46.8028,佳木斯市,佳纺,,23,23,17,12,9,68,,72,70,6,6,6,6,0.4,0.4
2024-03-31T2200,2256A,130.3995,46.8307,佳木斯市,发电厂,,22,12,12,5,7,70,,75,74,5,5,4,3,0.4,0.4
2024-03-31T2200,2257A,130.3258,46.7975,佳木斯市,环保局,,21,21,14,8,8,67,,73,70,6,6,3,3,0.5,0.5
2024-03-31T2200,2258A,130.3648,46.8032,佳木斯市,十一中,,22,20,16,11,9,70,,75,72,6,6,6,6,0.4,0.4
2024-03-31T2200,2259A,130.3794,46.7588,佳木斯市,四丰,,25,8,11,6,7,79,,82,80,2,3,1,1,0.4,0.4
2024-03-31T2200,1252A,120.7436,30.778,嘉兴市,清河小学,颗粒物(PM10),79,108,92,48,52,44,,118,108,77,38,8,8,1.2,0.7
2024-03-31T2200,1253A,120.726,30.7478,嘉兴市,嘉兴学院,细颗粒物(PM2.5),87,120,117,64,60,48,,133,127,69,35,8,8,0.8,0.7
2024-03-31T2200,2872A,120.7846,30.7525,嘉兴市,南湖区残联,"颗粒物(PM10),细颗粒物(PM2.5)",93,136,122,69,66,54,,133,127,75,37,8,8,1.0,0.8
2024-03-31T2200,3407A,120.6916,30.7739,嘉兴市,秀洲住建,细颗粒物(PM2.5),73,90,89,53,57,19,,123,113,96,40,7,8,1.0,0.8
2024-03-31T2200,1945A,98.2908,39.7711,嘉峪关市,气象局,颗粒物(PM10),152,254,131,48,30,80,,113,105,40,32,105,38,1.9,0.8
2024-03-31T2200,2884A,98.2672,39.7978,嘉峪关市,酒钢宾馆,颗粒物(PM10),137,224,134,44,30,102,,114,112,13,26,77,45,0.7,0.7
2024-03-31T2200,3248A,98.2643,39.7724,嘉峪关市,雄关区,颗粒物(PM10),95,140,97,38,25,101,,108,108,13,32,23,26,0.1,1.1
2024-03-31T2200,1383A,113.1064,22.6058,江门市,北街,,39,36,30,27,19,20,,50,39,16,13,6,6,0.4,0.4
2024-03-31T2200,1384A,113.0731,22.5835,江门市,西区,,41,41,35,21,17,26,,51,40,20,18,6,6,0.4,0.4
2024-03-31T2200,1385A,113.0219,22.5311,江门市,圭峰西,,40,39,32,28,20,12,,43,33,33,15,6,7,0.7,0.7
2024-03-31T2200,1386A,113.0828,22.5947,江门市,东湖,,40,40,32,27,19,22,,48,38,19,15,8,8,0.4,0.4
2024-03-31T2200,3311A,113.1075,22.5647,江门市,江海富民,颗粒物(PM10),51,52,41,33,19,29,,52,42,16,14,6,6,0.2,0.2
2024-03-31T2200,3449A,113.05,22.4667,江门市,新会银湖,,38,28,28,26,20,32,,45,39,11,9,3,4,0.5,0.6
2024-03-31T2200,1828A,113.227,35.2125,焦作市,市环保局,颗粒物(PM10),100,150,117,66,47,120,,162,157,31,29,11,8,1.2,0.8
2024-03-31T2200,3169A,113.2725,35.2067,焦作市,太极体育中心,颗粒物(PM10),109,167,134,65,51,133,,174,170,28,29,12,5,0.4,0.4
2024-03-31T2200,3335A,113.3137,35.2641,焦作市,马村街道办,颗粒物(PM10),99,148,130,57,54,96,,161,147,58,29,10,11,0.7,0.5
2024-03-31T2200,3336A,113.2465,35.2373,焦作市,焦作技师学院,颗粒物(PM10),96,142,114,63,44,121,,150,147,28,22,9,7,0.7,0.4
2024-03-31T2200,3477A,113.1656,35.2539,焦作市,中站许衡医院,颗粒物(PM10),93,136,114,44,40,145,,158,158,22,25,6,7,0.5,0.5
2024-03-31T2200,3981A,113.2449,35.1803,焦作市,原李万街道办,颗粒物(PM10),104,158,124,66,52,120,,162,158,25,27,15,11,0.6,0.6
2024-03-31T2200,1708A,116.3701,23.5345,揭阳市,新兴,,30,28,59,21,28,59,,67,67,22,22,8,13,0.7,0.7
2024-03-31T2200,1709A,116.3264,23.5443,揭阳市,西马,,33,32,49,23,22,57,,65,65,21,15,8,10,0.7,0.7
2024-03-31T2200,1710A,116.3611,23.5626,揭阳市,东兴,,33,26,69,23,33,60,,70,70,20,20,9,14,0.8,0.8
2024-03-31T2200,1711A,116.4151,23.5294,揭阳市,渔湖,,24,24,62,13,20,59,,63,63,18,20,7,10,0.6,0.7
2024-03-31T2200,3320A,116.403,23.5699,揭阳市,曲溪,,25,25,46,17,27,60,,68,68,18,22,4,16,0.6,0.7
2024-03-31T2200,1944A,102.1692,38.5167,金昌市,天庆家园,颗粒物(PM10),64,77,120,20,33,97,,120,112,10,26,8,26,0.4,0.6
2024-03-31T2200,3170A,102.1864,38.5253,金昌市,市委党校,颗粒物(PM10),71,92,138,40,49,103,,116,114,6,23,16,46,0.3,0.5
2024-03-31T2200,4022A,102.1647,38.5371,金昌市,金川区人防中心,颗粒物(PM10),74,98,130,27,37,105,,119,118,4,18,4,16,0.2,0.5
2024-03-31T2200,1262A,119.647,29.077,金华市,十五中,,34,34,42,22,27,48,,99,90,30,36,3,4,0.6,0.6
2024-03-31T2200,1263A,119.686,29.1029,金华市,监测站,,38,38,48,23,28,48,,97,91,26,38,2,3,0.6,0.6
2024-03-31T2200,3659A,119.656,29.1131,金华市,气象局,,43,43,43,23,23,33,,96,86,40,42,3,4,0.3,0.2
2024-03-31T2200,1767A,121.1115,41.0879,锦州市,南山,细颗粒物(PM2.5),77,78,60,56,34,61,,117,105,53,37,21,16,0.6,0.6
2024-03-31T2200,1768A,121.0533,40.8434,锦州市,开发区,细颗粒物(PM2.5),84,90,94,62,38,39,,112,104,92,57,12,19,0.8,0.5
2024-03-31T2200,1769A,121.1836,41.1119,锦州市,百股街道,细颗粒物(PM2.5),132,,65,100,39,33,,115,98,78,45,18,20,1.3,0.8
2024-03-31T2200,1770A,121.1178,41.1222,锦州市,天安街道,细颗粒物(PM2.5),122,101,64,92,39,58,,108,98,50,34,15,17,0.7,0.7
2024-03-31T2200,1771A,121.1303,41.1386,锦州市,北湖公园,细颗粒物(PM2.5),127,107,62,96,42,51,,105,96,51,33,15,17,0.9,0.7
2024-03-31T2200,2160A,112.85,35.5051,晋城市,自来水公司,颗粒物(PM10),90,129,111,51,40,135,,170,168,41,37,12,11,0.8,0.8
2024-03-31T2200,2161A,112.8318,35.4936,晋城市,白云商贸,颗粒物(PM10),99,148,131,48,38,130,,169,166,39,38,12,10,0.9,0.8
2024-03-31T2200,2162A,112.8508,35.4887,晋城市,市环保局,颗粒物(PM10),92,134,123,48,38,128,,166,164,39,43,11,11,0.9,0.9
2024-03-31T2200,2163A,112.8676,35.4897,晋城市,技术学院,颗粒物(PM10),89,128,115,48,33,146,,169,169,33,41,9,9,0.8,0.9
2024-03-31T2200,3620A,112.8271,35.4828,晋城市,泽州一中,颗粒物(PM10),84,118,114,48,38,154,,170,170,26,33,14,11,0.7,0.8
2024-03-31T2200,2171A,112.7532,37.6945,晋中市,锦纶小区,颗粒物(PM10),97,144,87,53,32,34,,147,113,71,34,13,15,0.6,0.5
2024-03-31T2200,2173A,112.7249,37.7067,晋中市,南都小区,颗粒物(PM10),105,160,89,63,33,51,,146,123,69,38,12,15,0.8,0.6
2024-03-31T2200,2174A,112.6991,37.6982,晋中市,榆次区政府,颗粒物(PM10),90,129,82,49,32,69,,152,133,52,35,14,16,0.6,0.5
2024-03-31T2200,2865A,112.7195,37.6828,晋中市,榆次三中,颗粒物(PM10),103,156,95,46,31,51,,148,125,60,41,13,16,0.6,0.6
2024-03-31T2200,2439A,112.2014,31.0481,荆门市,竹园小学,颗粒物(PM10),70,89,128,42,47,129,,163,154,22,18,11,11,0.7,0.7
2024-03-31T2200,2440A,112.1969,30.9891,荆门市,掇刀,细颗粒物(PM2.5),67,77,123,48,45,130,,165,155,15,12,14,12,0.6,0.6
2024-03-31T2200,2441A,112.2213,31.0386,荆门市,石化一小,颗粒物(PM10),75,99,132,53,49,104,,168,150,41,19,29,19,0.7,0.6
2024-03-31T2200,3012A,112.1849,31.0362,荆门市,西山林语,颗粒物(PM10),63,75,118,37,43,121,,165,152,16,13,14,15,0.6,0.6
2024-03-31T2200,3547A,112.1632,31.0138,荆门市,龙泉中学南校,颗粒物(PM10),56,62,119,33,43,131,,159,153,6,8,2,7,0.7,0.8
2024-03-31T2200,1844A,112.2494,30.3197,荆州市,市图书馆,颗粒物(PM10),65,79,88,36,40,118,,148,139,25,19,18,9,0.9,0.9
2024-03-31T2200,1845A,112.2008,30.3544,荆州市,市委党校,细颗粒物(PM2.5),69,62,85,50,43,125,,138,134,22,20,13,8,0.9,1
2024-03-31T2200,3194A,112.2747,30.3122,荆州市,管委会,颗粒物(PM10),58,66,83,40,42,123,,152,143,21,17,18,11,0.7,0.7
2024-03-31T2200,3548A,112.1655,30.3364,荆州市,学苑路,细颗粒物(PM2.5),72,,71,52,49,91,,153,134,38,18,7,7,0.7,0.7
2024-03-31T2200,2343A,117.2117,29.2933,景德镇市,老干部活动中心,,32,32,28,20,17,45,,102,87,19,14,3,7,0.4,0.2
2024-03-31T2200,2344A,117.1894,29.2789,景德镇市,兽医站,,38,38,27,26,19,64,,113,95,15,15,6,10,1.0,0.7
2024-03-31T2200,2345A,117.1547,29.2617,景德镇市,台达陶瓷,颗粒物(PM10),63,75,32,44,23,19,,109,87,61,23,59,26,0.7,0.5
2024-03-31T2200,2346A,117.2461,29.2956,景德镇市,陶研所,,32,25,24,22,15,36,,96,75,19,13,4,7,0.4,0.3
2024-03-31T2200,1803A,115.9872,29.6815,九江市,十里,,45,45,30,27,19,63,,131,110,32,18,11,10,0.6,0.5
2024-03-31T2200,1804A,115.9584,29.7046,九江市,茅山头,细颗粒物(PM2.5),59,48,32,42,24,40,,130,109,59,28,11,11,1.0,0.7
2024-03-31T2200,1805A,115.9877,29.7295,九江市,西园,,48,48,29,26,18,89,,127,116,25,20,19,13,0.6,0.6
2024-03-31T2200,1806A,116.0172,29.6547,九江市,五七二七厂,,28,28,24,12,16,70,,120,106,10,13,7,9,0.5,0.5
2024-03-31T2200,1808A,115.9114,29.6038,九江市,综合工业园,,36,36,26,23,16,51,,132,110,52,25,10,11,0.6,0.6
2024-03-31T2200,1809A,116.0721,29.7535,九江市,石化总厂,,48,39,37,33,20,86,,123,110,14,13,12,12,0.6,0.6
2024-03-31T2200,1810A,115.9773,29.5698,九江市,庐山气象台,,36,16,16,10,15,114,,115,115,1,4,7,9,1.2,0.9
2024-03-31T2200,3190A,116.0254,29.6994,九江市,外国语学校,,40,40,24,21,18,94,,121,106,32,21,10,11,0.5,0.6
2024-03-31T2200,2658A,98.5061,39.7443,酒泉市,仓门街子站,颗粒物(PM10),248,383,147,50,34,92,,114,110,5,23,6,10,0.2,0.4
2024-03-31T2200,2659A,98.4989,39.7256,酒泉市,油田生活基地,颗粒物(PM10),197,344,139,63,31,98,,118,115,4,19,7,12,0.2,0.4
2024-03-31T2200,2698A,76.0072,39.4467,喀什地区,巡警大队,颗粒物(PM10),170,290,190,26,17,50,,90,48,115,52,14,7,0.3,0.3
2024-03-31T2200,2699A,75.9755,39.4694,喀什地区,吾办,颗粒物(PM10),149,248,190,37,29,103,,102,100,9,11,2,3,0.4,0.4
2024-03-31T2200,4027A,75.9483,39.4689,喀什地区,老干局,颗粒物(PM10),180,309,232,37,25,112,,112,112,4,5,1,2,0.5,0.5
2024-03-31T2200,1824A,114.3389,34.7781,开封市,肿瘤医院,颗粒物(PM10),90,130,115,52,42,92,,153,137,20,25,5,6,0.5,0.4
2024-03-31T2200,1826A,114.2885,34.7965,开封市,世纪星幼儿园,颗粒物(PM10),83,115,107,40,39,99,,152,139,20,27,5,6,0.6,0.5
2024-03-31T2200,3147A,114.3438,34.8106,开封市,龙亭公园,,,,114,,41,,,158,151,19,31,6,6,0.7,0.5
2024-03-31T2200,3210A,114.3644,34.7964,开封市,汴京公园,细颗粒物(PM2.5),95,129,113,71,48,94,,146,130,21,29,7,7,0.7,0.6
2024-03-31T2200,3473A,114.2485,34.8306,开封市,技师学院,细颗粒物(PM2.5),97,109,108,72,46,119,,162,152,9,19,9,9,0.7,0.5
2024-03-31T2200,3592A,114.4644,34.7556,开封市,祥符区生态环境局,细颗粒物(PM2.5),79,97,125,58,48,81,,145,125,30,38,6,6,0.6,0.5
2024-03-31T2200,1951A,84.895,45.6094,克拉玛依市,长征新村,,22,12,21,3,5,69,,94,77,3,3,9,9,0.2,0.2
2024-03-31T2200,1952A,84.8988,45.5893,克拉玛依市,南林小区,,23,11,22,10,11,72,,98,80,1,3,7,6,0.3,0.4
2024-03-31T2200,1954A,84.905,44.3396,克拉玛依市,独山子区,,23,23,20,4,7,70,,95,75,6,5,6,6,0.4,0.4
2024-03-31T2200,1955A,85.6979,46.098,克拉玛依市,乌尔禾区商贸楼,,26,26,36,9,8,68,,97,80,4,4,7,8,0.2,0.2
2024-03-31T2200,3612A,85.1045,45.6899,克拉玛依市,白碱滩区新站,,23,,25,12,13,73,,100,85,2,2,7,8,0.2,0.2
2024-03-31T2200,2697A,76.1454,39.7142,克孜勒苏柯尔克孜自治州,市人民政府,颗粒物(PM10),400,500,214,52,27,114,,110,110,2,3,5,5,0.1,0.1
2024-03-31T2200,3665A,76.1658,39.7157,克孜勒苏柯尔克孜自治州,克州文化中心,颗粒物(PM10),164,278,143,44,26,111,,110,110,1,2,6,6,0.2,0.2
2024-03-31T2200,1450A,102.8204,24.8886,昆明市,呈贡新区,,31,24,48,3,39,99,,117,113,15,11,4,5,0.7,0.7
2024-03-31T2200,1452A,102.7252,25.0902,昆明市,龙泉镇,,47,47,53,13,33,78,,115,109,18,25,6,7,0.6,0.8
2024-03-31T2200,1453A,102.7266,25.0375,昆明市,东风东路,,30,18,51,17,40,93,,114,110,16,14,6,8,0.5,0.5
2024-03-31T2200,1454A,102.6742,25.0669,昆明市,金鼎山,,36,36,51,14,30,98,,116,114,13,16,3,6,0.5,0.6
2024-03-31T2200,1455A,102.6644,25.0401,昆明市,碧鸡广场,,35,35,52,24,36,82,,115,110,20,17,7,10,0.5,0.6
2024-03-31T2200,3179A,102.7494,25.0119,昆明市,官渡区博物馆,,27,17,50,14,34,84,,122,115,23,14,7,9,0.8,0.8
2024-03-31T2200,3375A,102.8017,24.8336,昆明市,青年创业园,,37,12,48,9,45,116,,126,124,6,13,8,9,0.6,0.6
2024-03-31T2200,3550A,102.7997,24.9786,昆明市,昆明学院,,30,19,53,10,37,93,,121,115,14,12,7,9,0.6,0.6
2024-03-31T2200,3551A,102.5967,24.6736,昆明市,晋宁区生态环境分局,颗粒物(PM10),60,70,55,29,38,102,,117,116,9,7,4,3,0.6,0.7
2024-03-31T2200,3552A,102.6678,24.9856,昆明市,云天化总部,,28,23,44,16,32,89,,128,122,11,8,7,8,0.8,0.8
2024-03-31T2200,1456A,91.1319,29.6514,拉萨市,八廓街,,35,25,17,11,8,109,,122,120,20,15,8,7,0.5,0.4
2024-03-31T2200,1457A,91.1221,29.6747,拉萨市,市环保局,,33,29,24,10,9,104,,119,117,20,14,6,6,0.4,0.3
2024-03-31T2200,1458A,91.0874,29.6475,拉萨市,区监测站,,33,24,16,8,8,104,,120,118,22,13,5,5,0.5,0.5
2024-03-31T2200,1459A,91.1774,29.6541,拉萨市,西藏大学,,36,18,17,7,7,114,,123,123,8,6,3,4,0.4,0.2
2024-03-31T2200,1460A,90.9798,29.6588,拉萨市,区辐射站,,35,25,25,9,9,112,,122,122,13,14,6,6,0.4,0.4
2024-03-31T2200,1461A,91.0834,29.6292,拉萨市,拉萨火车站,,39,20,21,10,9,122,,123,123,4,11,4,4,0.3,0.4
2024-03-31T2200,2520A,109.2203,23.7256,来宾市,来宾技工学校,细颗粒物(PM2.5),68,72,47,49,30,65,,97,91,13,8,9,8,0.7,0.6
2024-03-31T2200,3535A,109.1781,23.7297,来宾市,兴宾区政府,细颗粒物(PM2.5),75,75,40,55,30,80,,102,98,14,12,13,7,0.8,0.7
2024-03-31T2200,4002A,109.2416,23.7461,来宾市,中南小学,细颗粒物(PM2.5),64,58,48,46,33,65,,95,89,16,10,6,4,0.8,0.7
2024-03-31T2200,1476A,103.631,36.1031,兰州市,兰炼宾馆,颗粒物(PM10),71,92,136,46,57,39,,126,106,77,53,10,22,0.7,0.7
2024-03-31T2200,1478A,103.8412,36.0726,兰州市,生物制品所,颗粒物(PM10),55,60,155,35,61,92,,110,110,27,52,9,14,0.4,0.7
2024-03-31T2200,1479A,103.831,36.0464,兰州市,铁路设计院,颗粒物(PM10),56,61,170,32,75,75,,104,101,45,62,8,14,0.5,1.4
2024-03-31T2200,3186A,103.7158,36.1058,兰州市,教育港,颗粒物(PM10),58,66,145,35,51,94,,132,128,32,48,8,19,0.4,0.7
2024-03-31T2200,3241A,103.7439,36.0842,兰州市,百合公园,颗粒物(PM10),57,64,137,29,49,96,,117,116,22,47,4,15,0.4,0.9
2024-03-31T2200,3242A,103.9611,35.998,兰州市,和平,颗粒物(PM10),54,57,126,34,50,97,,123,121,21,26,11,12,0.4,0.5
2024-03-31T2200,3245A,103.6633,36.533,兰州新区,新区管委会,颗粒物(PM10),62,74,98,25,35,111,,127,127,10,18,6,14,0.4,0.5
2024-03-31T2200,3246A,103.6975,36.4789,兰州新区,舟曲中学,颗粒物(PM10),56,62,111,18,39,105,,120,120,12,20,7,15,0.4,0.5
2024-03-31T2200,1067A,116.6708,39.5111,廊坊市,药材公司,颗粒物(PM10),107,164,120,78,48,62,,114,102,49,37,9,8,1.0,1
2024-03-31T2200,1068A,116.7214,39.5589,廊坊市,开发区,颗粒物(PM10),99,147,113,73,48,58,,109,99,50,38,9,8,1.0,0.9
2024-03-31T2200,1070A,116.7244,39.5269,廊坊市,北华航天学院,细颗粒物(PM2.5),97,141,113,72,47,67,,108,99,43,38,9,8,0.9,0.9
2024-03-31T2200,2919A,116.7022,39.5453,廊坊市,河北工业大学,细颗粒物(PM2.5),92,131,112,68,48,65,,110,101,48,40,10,9,1.0,0.9
2024-03-31T2200,2535A,103.7723,29.5462,乐山市,花湖湾,颗粒物(PM10),52,54,59,30,35,128,,147,146,13,12,4,6,0.6,0.6
2024-03-31T2200,2536A,103.7627,29.5844,乐山市,牛耳桥,细颗粒物(PM2.5),54,56,45,38,34,94,,142,134,38,23,6,6,0.7,0.6
2024-03-31T2200,2537A,103.7508,29.6006,乐山市,市第三水厂,颗粒物(PM10),55,59,49,32,32,95,,141,133,41,29,6,6,0.7,0.6
2024-03-31T2200,2538A,103.7571,29.5664,乐山市,市监测站,,49,47,45,34,31,124,,147,144,20,17,7,8,0.7,0.7
2024-03-31T2200,3361A,103.7311,29.5628,乐山市,理工大学,,49,48,48,34,35,102,,154,146,25,16,8,10,0.5,0.5
2024-03-31T2200,2599A,100.2497,26.8802,丽江市,丽江古城,,32,15,33,12,17,100,,102,102,9,12,10,10,0.6,0.6
2024-03-31T2200,2600A,100.2203,26.8906,丽江市,市中心,,29,2,15,2,7,92,,97,97,8,9,6,6,0.6,0.6
2024-03-31T2200,1267A,119.914,28.4514,丽水市,监测站大楼,,26,26,31,12,22,40,,77,72,22,30,3,3,0.5,0.5
2024-03-31T2200,1268A,119.93,28.4586,丽水市,莲都小学,,24,24,31,11,19,51,,83,76,12,28,2,3,0.3,0.4
2024-03-31T2200,1269A,119.879,28.4231,丽水市,余庄前,,26,26,32,13,21,5,,68,54,10,18,4,4,0.4,0.5
2024-03-31T2200,1173A,119.176,34.5885,连云港市,市环境监测站,颗粒物(PM10),76,102,85,46,28,63,,97,77,30,21,10,8,0.5,0.4
2024-03-31T2200,3000A,119.3581,34.6972,连云港市,德源药业,颗粒物(PM10),64,78,77,24,21,65,,95,85,32,21,5,6,0.6,0.5
2024-03-31T2200,3007A,119.178,34.844,连云港市,新城一中,颗粒物(PM10),71,92,97,32,23,10,,105,62,92,41,8,8,0.7,0.6
2024-03-31T2200,3008A,119.3608,34.7519,连云港市,胡沟管理处,颗粒物(PM10),86,122,89,22,20,0,,89,30,102,39,15,13,0.9,0.7
2024-03-31T2200,3009A,119.1478,34.5911,连云港市,矿山设计院,颗粒物(PM10),78,105,89,39,23,60,,94,80,30,22,8,6,0.9,0.7
2024-03-31T2200,3434A,119.2413,34.6539,连云港市,工贸学校,颗粒物(PM10),83,115,95,50,29,81,,102,94,23,21,9,9,0.5,0.4
2024-03-31T2200,3664A,119.4172,34.7341,连云港市,连云街道,颗粒物(PM10),67,84,85,31,22,94,,103,76,23,35,4,4,0.6,0.5
2024-03-31T2200,2571A,102.3431,27.8099,凉山彝族自治州,青龙寺,,27,20,24,5,6,84,,111,106,7,7,4,5,0.8,0.9
2024-03-31T2200,2572A,102.2721,27.8415,凉山彝族自治州,邛海宾馆,,35,21,25,14,17,109,,119,117,9,11,17,10,0.5,0.5
2024-03-31T2200,2573A,102.2625,27.898,凉山彝族自治州,西昌市政府,,32,22,27,15,18,101,,115,106,8,11,13,11,0.9,0.7
2024-03-31T2200,2574A,102.2685,27.8851,凉山彝族自治州,凉山州政府,,30,23,29,14,20,93,,106,101,10,12,14,9,1.2,1
2024-03-31T2200,2575A,102.237,27.8914,凉山彝族自治州,长安,,35,22,33,14,19,111,,120,116,5,16,8,12,0.5,0.6
2024-03-31T2200,2212A,123.2,41.1953,辽阳市,宏伟区,细颗粒物(PM2.5),80,76,110,59,47,64,,98,94,30,31,16,18,0.8,1.1
2024-03-31T2200,2213A,123.1683,41.2495,辽阳市,新华园,细颗粒物(PM2.5),102,90,120,76,57,61,,111,103,43,37,32,16,0.9,1.1
2024-03-31T2200,2214A,123.2354,41.2639,辽阳市,滨河路,细颗粒物(PM2.5),94,78,106,70,60,57,,104,93,42,31,13,13,0.7,0.9
2024-03-31T2200,2215A,123.149,41.2991,辽阳市,铁西工业园,细颗粒物(PM2.5),138,119,130,105,74,49,,100,87,37,40,24,20,1.3,1.5
2024-03-31T2200,2227A,125.1358,42.8845,辽源市,环保局,,50,48,38,35,18,32,,97,76,35,18,8,11,1.0,0.6
2024-03-31T2200,3239A,125.0764,42.9078,辽源市,银鹰制药,颗粒物(PM10),52,53,46,33,22,24,,94,70,39,22,7,8,0.6,0.5
2024-03-31T2200,1625A,115.9848,36.4372,聊城市,区政府,颗粒物(PM10),100,150,119,45,32,126,,150,145,20,24,19,13,0.7,0.6
2024-03-31T2200,2878A,116.0072,36.4343,聊城市,聊大东校,颗粒物(PM10),90,129,108,50,36,136,,160,157,19,24,17,11,0.8,0.7
2024-03-31T2200,3200A,115.9819,36.4978,聊城市,监控中心,颗粒物(PM10),101,152,141,48,34,138,,154,153,15,28,14,11,0.4,0.6
2024-03-31T2200,3513A,116.0445,36.4361,聊城市,九州社区,颗粒物(PM10),95,140,129,39,24,118,,151,146,16,20,8,11,0.6,0.5
2024-03-31T2200,4018A,116.0567,36.4608,聊城市,星美广场,颗粒物(PM10),94,138,125,35,28,125,,152,148,15,19,8,10,0.6,0.6
2024-03-31T2200,2632A,94.3681,29.6376,林芝市,林芝监测站,,31,3,6,0,3,98,,92,92,3,3,5,5,0.5,0.5
2024-03-31T2200,2633A,94.3616,29.6616,林芝市,林芝人民医院,,31,8,9,7,5,97,,97,97,6,5,6,6,0.4,0.4
2024-03-31T2200,2603A,100.0781,23.8982,临沧市,市环保局,细颗粒物(PM2.5),70,,59,51,47,69,,122,108,11,11,5,6,0.5,0.4
2024-03-31T2200,2604A,100.0894,23.8822,临沧市,市气象局,细颗粒物(PM2.5),68,55,65,49,50,72,,121,110,16,14,6,6,0.6,0.6
2024-03-31T2200,1733A,111.5531,36.0783,临汾市,临钢医院,颗粒物(PM10),135,219,116,59,36,24,,161,129,83,36,9,11,1.2,0.8
2024-03-31T2200,1734A,111.5028,36.0714,临汾市,技工学校,颗粒物(PM10),131,211,113,81,40,31,,167,139,96,42,10,10,1.7,0.8
2024-03-31T2200,1736A,111.5018,36.0855,临汾市,市委,颗粒物(PM10),121,191,108,68,34,26,,162,139,107,45,11,11,1.7,0.8
2024-03-31T2200,3018A,111.505,36.1014,临汾市,唐尧大酒店,颗粒物(PM10),109,167,112,59,34,23,,149,128,83,39,7,9,1.4,0.7
2024-03-31T2200,3668A,111.5036,36.0414,临汾市,城南,颗粒物(PM10),127,203,115,69,44,14,,156,128,93,43,12,13,1.2,0.8
2024-03-31T2200,2667A,103.2069,35.5993,临夏回族自治州,环保局,颗粒物(PM10),63,75,143,40,48,92,,119,110,14,23,6,6,0.4,0.8
2024-03-31T2200,2668A,103.2417,35.6057,临夏回族自治州,建设大厦,颗粒物(PM10),54,58,115,34,43,96,,117,113,14,22,7,6,0.4,0.6
2024-03-31T2200,1618A,118.3429,35.0532,临沂市,沂河小区,细颗粒物(PM2.5),110,153,98,83,38,86,,123,117,39,18,12,9,0.9,0.6
2024-03-31T2200,1619A,118.295,35.0583,临沂市,鲁南制药厂,颗粒物(PM10),102,153,95,59,28,100,,134,130,36,18,14,8,0.4,0.1
2024-03-31T2200,1620A,118.2794,34.9976,临沂市,新光毛纺厂,颗粒物(PM10),106,161,93,74,32,88,,128,123,47,23,19,8,1.0,0.8
2024-03-31T2200,1621A,118.3956,35.0888,临沂市,河东保险公司,颗粒物(PM10),98,146,94,64,33,71,,128,119,58,28,10,7,0.7,0.4
2024-03-31T2200,3370A,118.3564,35.0215,临沂市,十里堡居委,颗粒物(PM10),108,166,92,68,27,86,,127,119,40,23,11,7,1.0,0.7
2024-03-31T2200,3496A,118.3604,35.1084,临沂市,南坊新区,颗粒物(PM10),100,149,98,56,31,100,,133,129,38,23,12,10,1.0,0.6
2024-03-31T2200,3860A,118.3920,35.0300,临沂市,皇山花园小区,颗粒物(PM10),108,166,100,64,32,80,,126,118,46,19,13,9,1.2,0.8
2024-03-31T2200,1870A,109.4856,24.3895,柳州市,柳东小学,细颗粒物(PM2.5),62,52,35,44,30,48,,89,85,20,12,9,6,0.5,0.4
2024-03-31T2200,1871A,109.4157,24.3277,柳州市,环保监测站,细颗粒物(PM2.5),69,,39,50,33,35,,90,82,24,12,6,6,0.8,0.7
2024-03-31T2200,1872A,109.389,24.341,柳州市,河西水厂,颗粒物(PM10),57,63,47,37,30,47,,91,86,20,14,3,4,0.9,0.7
2024-03-31T2200,1873A,109.4311,24.2921,柳州市,市四中,颗粒物(PM10),72,93,50,44,28,46,,89,84,22,14,6,6,0.9,0.7
2024-03-31T2200,1874A,109.4006,24.3631,柳州市,市九中,细颗粒物(PM2.5),63,56,50,45,30,54,,93,88,17,17,7,7,0.8,0.8
2024-03-31T2200,1875A,109.4958,24.3134,柳州市,古亭山,细颗粒物(PM2.5),67,54,48,48,33,28,,87,76,29,12,6,5,0.6,0.6
2024-03-31T2200,3402A,109.5422,24.3996,柳州市,市二中,颗粒物(PM10),52,54,45,33,26,33,,92,82,27,15,9,7,0.9,0.8
2024-03-31T2200,2307A,116.5079,31.737,六安市,监测大楼,细颗粒物(PM2.5),117,117,103,88,51,,,156,156,22,19,7,7,0.8,0.7
2024-03-31T2200,2308A,116.4738,31.7643,六安市,皖西学院,细颗粒物(PM2.5),110,136,114,83,51,106,,160,151,38,19,6,7,0.8,0.7
2024-03-31T2200,2309A,116.4996,31.7905,六安市,朝阳厂,细颗粒物(PM2.5),124,119,99,94,56,103,,154,142,30,17,7,7,0.7,0.6
2024-03-31T2200,2310A,116.5567,31.7886,六安市,开发区,颗粒物(PM10),94,138,114,56,42,98,,150,138,24,19,4,4,0.9,0.8
2024-03-31T2200,2577A,104.83,26.5917,六盘水市,黄土坡,颗粒物(PM10),57,63,49,39,36,108,,141,135,17,12,7,7,0.8,0.7
2024-03-31T2200,2578A,104.89,26.5939,六盘水市,水钢,细颗粒物(PM2.5),57,51,57,40,36,127,,151,146,11,15,9,9,0.8,0.9
2024-03-31T2200,2579A,104.8475,26.5894,六盘水市,民中,细颗粒物(PM2.5),64,53,49,46,38,105,,139,134,18,13,8,8,1.0,0.9
2024-03-31T2200,2580A,104.9544,26.5506,六盘水市,双水,细颗粒物(PM2.5),54,44,57,38,39,129,,152,150,10,13,7,8,0.5,0.6
2024-03-31T2200,2336A,117.0217,25.1033,龙岩市,龙岩市监测站,,32,,18,22,20,37,,78,54,17,14,14,5,0.6,0.5
2024-03-31T2200,2337A,117.0258,25.0661,龙岩市,闽西职业技术学院,,29,25,20,20,15,38,,81,54,18,12,15,5,0.7,0.5
2024-03-31T2200,2338A,117.0196,25.0306,龙岩市,龙岩学院,,35,,18,24,11,32,,86,59,16,7,6,4,0.7,0.5
2024-03-31T2200,2885A,104.9339,33.3826,陇南市,滨江中学,颗粒物(PM10),52,54,65,27,21,129,,92,92,3,29,6,14,0.5,0.6
2024-03-31T2200,3247A,104.955,33.371,陇南市,市总工会,,38,35,54,13,16,119,,120,120,6,10,9,12,0.5,0.5
2024-03-31T2200,2487A,111.9589,27.8901,娄底市,电视发射台,,37,37,30,24,15,78,,134,117,15,15,6,6,0.5,0.5
2024-03-31T2200,2488A,111.9975,27.725,娄底市,市监测站,,46,40,28,32,18,125,,138,135,11,8,9,7,0.6,1.1
2024-03-31T2200,2489A,112.0194,27.7314,娄底市,市委党校,,42,42,26,29,17,111,,133,131,16,10,6,6,0.6,0.5
2024-03-31T2200,2490A,111.9561,27.7569,娄底市,涟钢,,47,47,30,29,18,103,,130,126,31,14,18,14,0.8,0.7
2024-03-31T2200,2491A,111.9892,27.7044,娄底市,市政府,,39,31,25,27,18,112,,140,137,17,10,12,7,0.5,0.5
2024-03-31T2200,1893A,105.4324,28.9634,泸州市,九狮山,细颗粒物(PM2.5),77,86,72,56,45,52,,154,135,22,17,5,6,0.7,0.6
2024-03-31T2200,1894A,105.4427,28.9063,泸州市,小市上码头,细颗粒物(PM2.5),74,88,77,54,49,108,,150,146,38,25,13,12,0.5,0.5
2024-03-31T2200,1895A,105.4241,28.8573,泸州市,兰田宪桥,细颗粒物(PM2.5),68,70,78,49,53,84,,147,141,32,21,9,10,0.5,0.5
2024-03-31T2200,1896A,105.4379,28.8833,泸州市,市环监站,细颗粒物(PM2.5),68,68,70,49,53,104,,143,140,36,22,13,14,0.5,0.5
2024-03-31T2200,3490A,105.3617,28.7703,泸州市,纳溪区环保局,,,,73,68,47,42,,155,131,74,27,6,7,0.9,0.7
2024-03-31T2200,2183A,111.1406,37.5211,吕梁市,环保局,颗粒物(PM10),120,190,77,48,24,5,,123,86,106,45,9,8,0.7,0.5
2024-03-31T2200,2185A,111.1297,37.5136,吕梁市,自来水公司,颗粒物(PM10),86,121,104,36,30,46,,117,97,46,34,5,6,0.6,0.5
2024-03-31T2200,2867A,111.1283,37.51,吕梁市,马茂庄小学,颗粒物(PM10),106,162,90,44,27,22,,123,90,72,46,6,5,0.6,0.5
2024-03-31T2200,1812A,112.3931,34.6516,洛阳市,市委党校,细颗粒物(PM2.5),113,166,137,85,63,114,,165,159,56,46,5,11,0.8,0.7
2024-03-31T2200,1814A,112.4657,34.6871,洛阳市,豫西宾馆,颗粒物(PM10),119,187,152,77,52,116,,173,163,54,39,12,13,0.7,0.6
2024-03-31T2200,1815A,112.494,34.6886,洛阳市,河南林校,细颗粒物(PM2.5),127,156,127,96,60,105,,167,156,57,36,8,9,0.6,0.5
2024-03-31T2200,1816A,112.3844,34.623,洛阳市,开发区管委会,颗粒物(PM10),126,201,142,93,59,121,,172,166,37,33,7,11,0.6,0.4
2024-03-31T2200,1817A,112.4267,34.6258,洛阳市,市委新办公区,颗粒物(PM10),127,203,140,85,55,116,,162,157,38,30,10,12,0.8,0.7
2024-03-31T2200,3340A,112.6005,34.6326,洛阳市,伊滨,颗粒物(PM10),112,174,142,76,56,109,,168,162,47,38,9,9,0.8,0.7
2024-03-31T2200,3341A,112.4951,34.6332,洛阳市,中移产业园,细颗粒物(PM2.5),112,159,123,84,54,130,,164,160,38,34,11,13,0.9,0.7
2024-03-31T2200,3593A,112.5736,34.8993,洛阳市,吉利监测站,颗粒物(PM10),102,154,116,64,49,50,,170,153,86,39,11,13,1.2,0.9
2024-03-31T2200,3635A,112.3677,34.662,洛阳市,河科大西苑校区,颗粒物(PM10),109,168,148,74,58,130,,166,163,42,42,8,12,0.5,0.5
2024-03-31T2200,3636A,112.4388,34.6781,洛阳市,英才小学,颗粒物(PM10),117,183,143,69,48,110,,165,156,51,36,10,13,0.8,0.7
2024-03-31T2200,2399A,114.051,33.5699,漯河市,三五一五工厂,细颗粒物(PM2.5),90,120,132,67,59,90,,153,129,15,17,9,12,0.7,0.7
2024-03-31T2200,2400A,114.0055,33.5698,漯河市,漯河大学,颗粒物(PM10),85,120,135,56,52,107,,152,136,10,16,5,9,0.5,0.5
2024-03-31T2200,2401A,114.0138,33.5828,漯河市,市水利局,,,124,133,51,50,102,,154,136,,18,9,12,0.6,0.5
2024-03-31T2200,2402A,114.0261,33.5698,漯河市,市广电局,颗粒物(PM10),89,127,138,46,49,97,,151,133,12,14,4,8,0.8,0.7
2024-03-31T2200,3478A,113.9749,33.5664,漯河市,市图书馆,颗粒物(PM10),87,124,134,57,49,101,,150,136,14,16,8,9,0.7,0.7
2024-03-31T2200,3479A,114.0967,33.5906,漯河市,召陵区卫健委,颗粒物(PM10),85,119,138,53,52,86,,141,124,16,27,6,10,0.6,0.6
2024-03-31T2200,1798A,118.5092,31.6837,马鞍山市,湖东路四小,颗粒物(PM10),109,167,135,65,50,20,,140,125,105,27,11,15,1.3,1
2024-03-31T2200,1799A,118.5024,31.6449,马鞍山市,开发区,"颗粒物(PM10),细颗粒物(PM2.5)",104,158,115,78,54,5,,142,116,122,33,8,10,1.2,1
2024-03-31T2200,1800A,118.5228,31.7231,马鞍山市,慈湖,颗粒物(PM10),99,147,124,69,59,20,,130,117,100,35,14,19,1.3,1.3
2024-03-31T2200,1802A,118.6245,31.7241,马鞍山市,濮塘,颗粒物(PM10),85,120,123,58,47,108,,140,135,22,19,7,9,1.1,1
2024-03-31T2200,3633A,118.4918,31.6809,马鞍山市,雨山,颗粒物(PM10),81,111,121,58,48,91,,140,133,45,26,10,14,1.2,1
2024-03-31T2200,1686A,111.0286,21.4688,茂名市,电白南海,,41,41,31,22,20,18,,41,36,9,7,6,6,0.5,0.6
2024-03-31T2200,1687A,110.9294,21.6533,茂名市,茂石化七小,细颗粒物(PM2.5),52,48,34,36,28,28,,82,58,11,11,8,9,0.6,0.6
2024-03-31T2200,1688A,110.9107,21.6687,茂名市,健康路,,44,44,29,27,19,28,,84,60,12,11,6,8,0.3,0.4
2024-03-31T2200,1689A,110.8592,21.6828,茂名市,高岭,,48,48,42,27,25,22,,86,63,11,8,8,8,0.7,0.8
2024-03-31T2200,3450A,111.01,21.5165,茂名市,电白水东,,32,29,23,22,17,24,,48,42,10,8,4,5,0.4,0.5
2024-03-31T2200,2539A,104.0308,30.0478,眉山市,黑龙滩水库,,45,39,29,31,21,129,,148,147,4,5,4,4,0.4,0.4
2024-03-31T2200,2540A,103.8416,30.0874,眉山市,气象局,颗粒物(PM10),51,52,40,24,18,77,,139,125,35,35,10,10,0.4,0.4
2024-03-31T2200,3137A,103.8578,30.0744,眉山市,市委党校,,34,34,38,17,20,101,,134,125,29,28,10,9,0.4,0.4
2024-03-31T2200,3148A,103.8291,30.0564,眉山市,区人社局,,28,26,31,14,22,88,,140,128,43,32,10,11,0.5,0.5
2024-03-31T2200,1690A,116.1231,24.3284,梅州市,梅江月梅,,26,,29,18,18,73,,70,52,12,13,6,7,0.4,0.4
2024-03-31T2200,1691A,116.0797,24.2719,梅州市,梅县新城,颗粒物(PM10),53,55,27,23,18,53,,73,47,20,18,6,5,0.7,0.7
2024-03-31T2200,1692A,116.1248,24.2654,梅州市,环境监控中心,,30,30,26,13,18,72,,69,39,11,19,6,5,0.5,0.5
2024-03-31T2200,3315A,116.1233,24.2991,梅州市,梅龙,,23,17,20,14,14,71,,71,46,7,12,9,8,0.6,0.7
2024-03-31T2200,1878A,104.7778,31.4741,绵阳市,富乐山,,31,24,27,20,21,97,,133,123,11,14,8,9,0.4,0.4
2024-03-31T2200,1879A,104.7563,31.4535,绵阳市,市人大,,45,44,44,31,24,33,,122,98,77,38,3,9,0.8,0.5
2024-03-31T2200,1880A,104.6697,31.4668,绵阳市,高新区自来水公司,颗粒物(PM10),89,128,57,28,28,3,,129,102,93,43,10,10,0.5,0.4
2024-03-31T2200,1881A,104.7287,31.5075,绵阳市,三水厂,颗粒物(PM10),51,51,56,25,29,3,,127,88,85,42,5,5,1.0,0.8
2024-03-31T2200,3491A,104.69,31.5322,绵阳市,西科大附属小学,颗粒物(PM10),52,54,52,26,26,16,,127,96,90,45,9,9,0.7,0.6
2024-03-31T2200,3492A,104.5648,31.5343,绵阳市,安州区旅游局,细颗粒物(PM2.5),72,66,48,52,27,74,,119,109,28,23,9,8,0.6,0.5
2024-03-31T2200,1784A,129.61,44.561,牡丹江市,环保大楼,,49,38,47,34,23,80,,83,83,8,8,6,6,0.4,0.4
2024-03-31T2200,1785A,129.6115,44.5782,牡丹江市,文化广场,,49,49,59,31,27,73,,76,76,8,8,8,8,0.5,0.5
2024-03-31T2200,1786A,129.5904,44.5963,牡丹江市,第一医院,,46,46,57,24,29,75,,79,78,6,8,6,6,0.5,0.5
2024-03-31T2200,1787A,129.6364,44.6075,牡丹江市,机车工厂,细颗粒物(PM2.5),63,52,60,45,27,76,,81,80,6,7,7,7,0.8,0.6
2024-03-31T2200,1788A,129.6386,44.5462,牡丹江市,第一中学,,48,48,49,22,22,77,,80,80,7,7,6,7,0.5,0.5
2024-03-31T2200,2531A,105.0703,29.61,内江市,市监测站,细颗粒物(PM2.5),62,51,44,44,42,97,,121,118,31,28,7,8,0.4,0.4
2024-03-31T2200,2532A,105.0717,29.5947,内江市,东兴区政府,颗粒物(PM10),60,70,43,23,29,112,,129,127,19,17,12,12,0.5,0.5
2024-03-31T2200,2533A,105.0653,29.5817,内江市,内江二中,,48,37,45,33,30,113,,126,125,16,19,9,8,0.7,0.7
2024-03-31T2200,2534A,105.0406,29.5822,内江市,内江日报社,,42,42,36,27,36,106,,129,127,30,35,15,14,0.7,0.8
2024-03-31T2200,2628A,92.0657,31.4846,那曲市,那曲监测站,细颗粒物(PM2.5),122,140,36,92,20,40,,113,98,46,12,20,8,2.2,0.8
2024-03-31T2200,3128A,92.0506,31.4797,那曲市,那曲会议中心,细颗粒物(PM2.5),97,139,38,72,14,50,,119,107,43,8,16,8,1.0,0.3
2024-03-31T2200,1290A,115.8931,28.6843,南昌市,省外办,,41,41,24,24,12,66,,127,110,27,6,7,5,0.3,0.3
2024-03-31T2200,1291A,115.8886,28.7003,南昌市,省林业公司,,36,36,16,19,13,39,,122,101,65,19,4,4,0.5,0.4
2024-03-31T2200,1292A,115.8126,28.7442,南昌市,林科所,,41,41,14,12,8,25,,131,100,72,17,9,7,0.4,0.4
2024-03-31T2200,1294A,115.8518,28.687,南昌市,建工学校,,48,48,24,20,21,19,,122,101,77,19,4,4,1.0,0.4
2024-03-31T2200,1295A,115.8921,28.6424,南昌市,象湖,,46,46,22,20,12,52,,134,109,45,12,5,4,0.7,0.6
2024-03-31T2200,1296A,115.7423,28.7996,南昌市,武术学校,,20,20,14,9,17,41,,129,100,6,4,17,16,0.3,0.3
2024-03-31T2200,1298A,115.9314,28.6842,南昌市,省站,,45,45,30,28,17,66,,127,111,27,10,8,8,0.8,0.6
2024-03-31T2200,3046A,115.9084,28.6062,南昌市,机电学校,,41,41,24,22,12,68,,129,107,28,16,6,6,0.9,0.7
2024-03-31T2200,3690A,115.9721,28.7031,南昌市,外国语学校,,28,28,16,18,13,69,,126,110,27,9,4,3,0.5,0.4
2024-03-31T2200,1905A,106.056,30.8064,南充市,西山风景区,,34,20,28,20,23,107,,121,118,7,16,4,7,0.3,0.4
2024-03-31T2200,1906A,106.0789,30.8023,南充市,南充市委,,41,41,45,28,19,63,,110,96,31,28,6,12,0.5,0.5
2024-03-31T2200,1907A,106.1031,30.8217,南充市,南充炼油厂,颗粒物(PM10),54,58,54,29,31,76,,118,105,28,27,10,16,0.4,0.4
2024-03-31T2200,1908A,106.1064,30.7856,南充市,高坪区监测站,细颗粒物(PM2.5),54,45,46,38,27,52,,116,101,47,26,8,24,0.3,0.2
2024-03-31T2200,1909A,106.0642,30.7636,南充市,嘉陵区环保局,,39,39,50,24,27,61,,114,99,38,28,6,17,0.4,0.3
2024-03-31T2200,1910A,106.1087,30.8388,南充市,市环境监测站,,45,45,50,27,31,95,,124,114,17,26,8,14,0.2,0.3
2024-03-31T2200,1151A,118.8086,32.1065,南京市,迈皋桥,颗粒物(PM10),93,136,126,66,51,3,,146,117,114,29,7,8,1.6,0.8
2024-03-31T2200,1152A,118.7538,32.0551,南京市,草场门,颗粒物(PM10),92,134,126,61,46,49,,133,116,96,36,6,5,1.6,0.8
2024-03-31T2200,1153A,118.7794,32.0745,南京市,山西路,颗粒物(PM10),93,136,132,61,41,55,,150,131,97,32,4,4,1.3,0.6
2024-03-31T2200,1154A,118.7752,32.0023,南京市,中华门,颗粒物(PM10),98,146,122,66,43,49,,144,130,96,27,8,7,1.4,0.8
2024-03-31T2200,1155A,118.8109,32.0309,南京市,瑞金路,颗粒物(PM10),91,132,125,58,44,60,,143,121,87,33,5,4,1.2,0.6
2024-03-31T2200,1156A,118.7997,32.0754,南京市,玄武湖,颗粒物(PM10),89,128,125,57,42,53,,150,129,83,32,10,11,1.4,0.8
2024-03-31T2200,1157A,118.6414,32.0931,南京市,浦口,颗粒物(PM10),76,102,130,39,34,134,,146,146,17,23,7,7,0.8,0.6
2024-03-31T2200,1158A,118.7356,31.9996,南京市,奥体中心,颗粒物(PM10),93,136,130,66,44,37,,144,121,109,30,11,11,1.2,0.7
2024-03-31T2200,1159A,118.9125,32.1028,南京市,仙林大学城,颗粒物(PM10),86,122,125,53,39,76,,154,144,61,26,10,11,1.0,0.9
2024-03-31T2200,3422A,118.8436,31.9198,南京市,江宁彩虹桥,颗粒物(PM10),92,133,126,63,46,30,,150,127,98,25,3,5,1.0,0.6
2024-03-31T2200,3423A,119.0138,31.6494,南京市,溧水永阳,颗粒物(PM10),84,117,124,50,46,57,,145,130,50,20,3,4,1.1,0.6
2024-03-31T2200,3424A,118.879,31.3302,南京市,高淳老职中,颗粒物(PM10),75,100,104,47,44,96,,151,143,31,16,9,9,1.0,0.9
2024-03-31T2200,3427A,118.8554,32.3578,南京市,六合雄州,颗粒物(PM10),142,234,146,43,38,78,,131,119,39,22,8,8,0.6,0.6
2024-03-31T2200,1401A,108.3103,22.7881,南宁市,二十一中,,50,46,43,35,25,77,,96,93,10,16,3,3,0.9,0.8
2024-03-31T2200,1402A,108.3141,22.8528,南宁市,北湖,细颗粒物(PM2.5),60,59,44,43,29,73,,94,90,12,19,4,4,1.0,0.9
2024-03-31T2200,1403A,108.3206,22.8225,南宁市,市监测站,细颗粒物(PM2.5),58,46,44,41,28,74,,94,90,12,17,5,6,1.0,0.9
2024-03-31T2200,1404A,108.3829,22.8037,南宁市,大自然花园,细颗粒物(PM2.5),53,52,34,37,25,79,,93,90,10,12,5,5,0.7,0.6
2024-03-31T2200,1405A,108.4394,22.7904,南宁市,仙葫,细颗粒物(PM2.5),57,50,43,40,24,79,,92,89,13,17,7,7,0.9,0.7
2024-03-31T2200,1406A,108.2397,22.8467,南宁市,区农职院,细颗粒物(PM2.5),60,68,51,43,29,69,,100,93,19,26,6,7,0.9,0.8
2024-03-31T2200,1407A,108.3275,22.735,南宁市,英华嘉园,细颗粒物(PM2.5),52,44,48,36,29,72,,85,83,14,24,6,6,0.8,0.7
2024-03-31T2200,1408A,108.2257,22.7757,南宁市,沙井镇街道办,颗粒物(PM10),53,56,56,29,25,61,,96,87,23,24,4,5,0.9,0.8
2024-03-31T2200,3401A,108.4834,22.7618,南宁市,红星社区,细颗粒物(PM2.5),53,54,36,37,25,72,,93,89,17,15,6,6,0.9,0.8
2024-03-31T2200,2332A,118.1681,26.6369,南平市,南平市监测站,,35,32,30,24,23,10,,67,46,28,19,3,4,1.3,0.9
2024-03-31T2200,2333A,118.1825,26.6489,南平市,南平铝业有限公司,,34,34,27,21,25,13,,72,55,29,19,9,8,0.9,0.9
2024-03-31T2200,2334A,118.1756,26.6272,南平市,南平七中,,28,28,27,19,18,13,,71,54,19,15,3,3,1.1,0.8
2024-03-31T2200,1168A,120.9098,31.9663,南通市,狼山街道,颗粒物(PM10),84,117,129,37,41,79,,134,107,29,22,9,10,0.5,0.7
2024-03-31T2200,1169A,120.86,32.0005,南通市,虹桥,颗粒物(PM10),86,122,125,46,47,59,,123,96,38,21,5,6,0.5,0.6
2024-03-31T2200,1170A,120.87,32.02,南通市,城中,颗粒物(PM10),89,127,148,43,43,70,,124,94,28,18,5,6,0.7,0.8
2024-03-31T2200,1171A,120.94,31.93,南通市,星湖花园,颗粒物(PM10),82,113,124,44,44,75,,118,92,29,24,7,8,0.6,0.6
2024-03-31T2200,1172A,120.81,32.0417,南通市,紫琅学院,颗粒物(PM10),85,120,135,35,40,62,,124,95,35,24,8,9,0.7,0.7
2024-03-31T2200,3291A,121.067,32.062,南通市,通州监测站,颗粒物(PM10),81,112,136,39,47,92,,127,108,11,9,8,8,0.5,0.6
2024-03-31T2200,3432A,120.9348,31.9883,南通市,环境教育馆,颗粒物(PM10),81,112,130,46,48,61,,124,98,34,21,7,8,0.5,0.6
2024-03-31T2200,2404A,112.5224,33.0122,南阳市,瓦房庄,颗粒物(PM10),81,111,115,42,48,69,,154,131,39,21,6,9,0.9,0.6
2024-03-31T2200,2405A,112.5003,32.9735,南阳市,汉画馆,细颗粒物(PM2.5),83,110,116,61,47,54,,162,132,36,22,6,9,1.0,0.7
2024-03-31T2200,2406A,112.5573,33.027,南阳市,气象站,细颗粒物(PM2.5),89,105,113,66,42,64,,160,134,44,25,8,8,0.8,0.5
2024-03-31T2200,2407A,112.5481,32.9689,南阳市,理工学院,颗粒物(PM10),82,114,113,53,42,58,,158,130,45,20,6,7,1.0,0.7
2024-03-31T2200,4008A,112.5234,32.9922,南阳市,卧龙区政府,颗粒物(PM10),89,127,122,62,48,53,,154,128,54,23,6,8,1.3,0.7
2024-03-31T2200,1234A,121.8358,29.911,宁波市,区环保大楼,颗粒物(PM10),93,135,89,65,43,10,,69,62,77,72,9,14,1.4,1
2024-03-31T2200,1235A,121.56,29.82,宁波市,万里学院,细颗粒物(PM2.5),77,97,78,56,50,8,,85,78,92,69,11,10,0.9,0.8
2024-03-31T2200,1236A,121.713,29.9572,宁波市,龙赛医院,颗粒物(PM10),75,100,66,49,29,7,,72,61,96,69,9,11,0.9,0.7
2024-03-31T2200,1239A,121.633,29.7733,宁波市,钱湖水厂,细颗粒物(PM2.5),75,97,63,55,43,70,,87,87,21,42,7,9,0.9,0.8
2024-03-31T2200,1240A,121.5856,29.8635,宁波市,太古小学,颗粒物(PM10),99,148,78,50,43,9,,80,71,95,72,10,10,1.1,0.9
2024-03-31T2200,1241A,121.524,29.8674,宁波市,市环境监测中心,颗粒物(PM10),67,83,74,43,35,5,,100,90,97,75,7,9,1.1,0.9
2024-03-31T2200,2871A,121.6147,29.9017,宁波市,万里国际学校,颗粒物(PM10),91,131,87,62,47,17,,82,73,80,72,10,11,0.9,0.8
2024-03-31T2200,3710A,121.5594,29.8975,宁波市,白沙活动中心,颗粒物(PM10),78,106,84,44,37,2,,84,73,91,72,8,9,1.1,0.8
2024-03-31T2200,2341A,119.5388,26.6612,宁德市,宁德市监测站,,40,40,51,21,68,12,,50,26,31,37,7,7,0.9,1.1
2024-03-31T2200,3209A,119.5231,26.6562,宁德市,宁德一中,,38,28,53,26,59,22,,43,36,17,26,6,7,0.7,1
2024-03-31T2200,2618A,98.8601,25.8567,怒江傈僳族自治州,州监测站,,23,18,42,8,31,73,,71,71,4,10,8,8,0.5,0.5
2024-03-31T2200,2619A,98.8546,25.8417,怒江傈僳族自治州,泸水一中,,20,10,40,9,33,62,,62,62,10,16,6,6,0.4,0.4
2024-03-31T2200,1888A,101.6891,26.571,攀枝花市,弄弄坪,颗粒物(PM10),80,110,50,16,25,88,,106,102,30,24,42,22,3.2,1.1
2024-03-31T2200,1889A,101.5769,26.5928,攀枝花市,河门口,,37,22,41,12,25,116,,115,115,9,18,6,16,0.7,0.9
2024-03-31T2200,1890A,101.7169,26.585,攀枝花市,炳草岗,颗粒物(PM10),57,64,46,14,24,114,,117,116,10,23,17,16,1.0,0.7
2024-03-31T2200,1891A,101.7369,26.5008,攀枝花市,仁和,,38,16,31,12,24,119,,122,121,7,11,6,7,0.4,0.5
2024-03-31T2200,2835A,101.7227,26.567,攀枝花市,四十中小,,37,26,37,16,22,118,,119,115,12,20,14,17,1.0,0.9
2024-03-31T2200,1604A,122.0303,41.1489,盘锦市,开发区,细颗粒物(PM2.5),73,64,63,53,37,74,,113,107,27,30,98,29,0.7,0.6
2024-03-31T2200,1605A,122.0485,41.0883,盘锦市,兴隆台,细颗粒物(PM2.5),69,64,59,50,35,77,,109,104,26,35,11,13,0.7,0.6
2024-03-31T2200,1606A,121.8297,41.1028,盘锦市,新生街道,细颗粒物(PM2.5),62,60,57,44,32,77,,110,102,25,39,10,40,0.7,0.7
2024-03-31T2200,1832A,113.3257,33.742,平顶山市,新华旅馆,颗粒物(PM10),93,135,137,41,45,104,,164,147,28,31,10,15,0.7,0.7
2024-03-31T2200,1833A,113.2919,33.737,平顶山市,规划设计院,细颗粒物(PM2.5),102,147,143,76,58,91,,147,125,23,34,9,11,0.8,0.6
2024-03-31T2200,1834A,113.182,33.774,平顶山市,平顶山工学院,颗粒物(PM10),99,147,143,68,54,85,,148,128,20,23,6,10,0.8,0.6
2024-03-31T2200,3204A,113.3025,33.73,平顶山市,规划局,颗粒物(PM10),92,134,152,51,55,91,,142,127,23,35,9,13,0.6,0.5
2024-03-31T2200,3594A,112.8867,33.9116,平顶山市,石龙区,细颗粒物(PM2.5),98,130,208,73,58,90,,147,136,19,51,10,16,0.7,0.6
2024-03-31T2200,2656A,106.6692,35.5461,平凉市,聚贤嘉苑,颗粒物(PM10),62,74,70,26,24,145,,136,136,19,32,10,9,0.4,0.4
2024-03-31T2200,2657A,106.7021,35.5307,平凉市,博物馆,颗粒物(PM10),66,81,77,30,27,143,,137,137,17,26,9,10,0.8,0.6
2024-03-31T2200,2347A,114.0997,27.5002,萍乡市,武功山,,22,18,16,3,6,68,,120,104,6,5,8,9,0.2,0.2
2024-03-31T2200,2348A,113.8385,27.6434,萍乡市,中医院,,25,23,27,16,18,78,,126,114,25,15,4,6,0.7,0.9
2024-03-31T2200,2349A,113.8493,27.6253,萍乡市,市政府车库,,28,28,22,10,22,64,,126,111,24,15,6,9,0.9,1.1
2024-03-31T2200,2350A,113.8676,27.6435,萍乡市,市环保局,,25,25,26,14,17,61,,121,106,34,16,18,12,2.4,0.9
2024-03-31T2200,2351A,113.866,27.6198,萍乡市,安源区政府,,24,23,24,9,12,74,,125,112,20,14,8,11,0.6,0.8
2024-03-31T2200,2319A,119.0141,25.4325,莆田市,荔城区仓后路,,39,39,36,22,23,30,,76,63,32,18,5,5,0.9,0.8
2024-03-31T2200,2320A,119.0015,25.4553,莆田市,莆田市监测站,,29,29,32,10,19,36,,75,58,5,6,5,6,0.7,0.7
2024-03-31T2200,2321A,119.1119,25.4561,莆田市,涵江区六中,,35,35,39,16,28,21,,71,55,41,29,6,7,0.9,0.8
2024-03-31T2200,2322A,119.1013,25.3215,莆田市,秀屿区政府,细颗粒物(PM2.5),59,44,30,42,28,14,,66,36,23,19,8,14,0.9,0.9
2024-03-31T2200,2392A,115.0312,35.7636,濮阳市,环保局,细颗粒物(PM2.5),87,109,97,64,42,114,,151,146,21,28,15,13,0.9,0.9
2024-03-31T2200,2394A,115.0574,35.7609,濮阳市,油田运输公司,颗粒物(PM10),98,145,113,60,42,115,,158,150,23,29,15,15,0.6,0.6
2024-03-31T2200,2395A,115.0866,35.7754,濮阳市,油田物探公司,,,136,119,66,50,,,155,152,22,29,11,13,0.5,0.5
2024-03-31T2200,3021A,115,35.7668,濮阳市,濮水河管理处,颗粒物(PM10),81,112,100,57,41,109,,144,140,25,32,13,11,0.4,0.4
2024-03-31T2200,2601A,100.98,22.7633,普洱市,市环保局,细颗粒物(PM2.5),112,128,98,84,67,116,,141,133,18,14,8,8,0.9,0.7
2024-03-31T2200,2602A,100.9817,22.8322,普洱市,普洱第二中学,细颗粒物(PM2.5),110,117,82,83,55,71,,145,131,38,25,10,10,1.3,0.9
2024-03-31T2200,2262A,131.0518,45.8751,七台河市,新一中,,23,8,26,2,16,72,,78,75,6,7,7,8,0.5,0.6
2024-03-31T2200,3345A,131.0577,45.7879,七台河市,中波台,,22,12,28,8,18,68,,73,68,13,16,4,5,1.0,1
2024-03-31T2200,3637A,131.0176,45.7761,七台河市,人民广场,,25,20,40,17,24,66,,71,66,13,15,6,6,0.7,0.7
2024-03-31T2200,3684A,130.8781,45.8222,七台河市,新建矿广场,,26,,25,18,24,66,,71,67,11,14,5,6,0.6,0.6
2024-03-31T2200,1779A,123.9305,47.3636,齐齐哈尔市,安居小区,,40,40,28,15,14,75,,82,78,7,6,8,8,0.2,0.2
2024-03-31T2200,1780A,123.9488,47.3386,齐齐哈尔市,中心广场,,31,31,27,14,13,78,,80,79,4,6,4,5,0.3,0.3
2024-03-31T2200,1781A,123.9483,47.3227,齐齐哈尔市,农牧车辆厂,,36,36,29,14,10,76,,81,79,5,5,6,6,0.3,0.3
2024-03-31T2200,1783A,123.945,47.2988,齐齐哈尔市,市环境监测站,,38,38,30,18,11,78,,83,81,6,5,2,3,0.3,0.3
2024-03-31T2200,3662A,123.6333,47.2075,齐齐哈尔市,富区青少年活动中心,细颗粒物(PM2.5),53,,42,37,16,74,,83,77,9,11,5,6,0.4,0.5
2024-03-31T2200,2591A,107.9783,26.5747,黔东南苗族侗族自治州,市环境监测站,细颗粒物(PM2.5),58,49,45,41,36,36,,97,78,45,21,2,2,0.7,0.6
2024-03-31T2200,2881A,107.8908,26.5311,黔东南苗族侗族自治州,凯里学院,,50,46,41,35,31,70,,122,100,9,12,2,3,0.4,0.5
2024-03-31T2200,2593A,107.5228,26.2403,黔南布依族苗族自治州,小围寨,,35,34,41,24,34,76,,106,96,6,10,3,6,0.6,0.5
2024-03-31T2200,3538A,107.5175,26.2978,黔南布依族苗族自治州,沙坝,,39,39,47,24,34,82,,123,108,4,9,4,5,0.3,0.3
2024-03-31T2200,2589A,104.9022,25.0925,黔西南布依族苗族自治州,场坝街,细颗粒物(PM2.5),77,65,48,56,34,110,,122,122,9,11,3,4,0.4,0.3
2024-03-31T2200,2590A,104.8811,25.0992,黔西南布依族苗族自治州,坪东大道,细颗粒物(PM2.5),57,53,46,40,34,96,,115,113,10,11,4,5,0.3,0.2
2024-03-31T2200,2502A,108.6236,21.9667,钦州市,市环保站,,45,44,36,31,20,48,,58,58,20,16,14,8,0.8,0.8
2024-03-31T2200,2503A,108.6549,21.9481,钦州市,沙埠小学,,49,49,37,34,23,50,,58,58,18,15,14,11,0.9,0.8
2024-03-31T2200,2504A,108.5989,21.7431,钦州市,港区一小,,49,49,48,26,19,44,,53,53,17,17,6,7,0.7,0.7
2024-03-31T2200,3404A,108.5959,21.9633,钦州市,北职校,颗粒物(PM10),52,54,39,32,21,54,,59,59,12,12,7,9,0.8,0.7
2024-03-31T2200,1042A,119.5134,39.8207,秦皇岛市,北戴河环保局,颗粒物(PM10),57,63,64,28,18,79,,78,78,28,36,9,9,0.4,0.4
2024-03-31T2200,1043A,119.7493,40.0116,秦皇岛市,第一关,颗粒物(PM10),69,88,68,43,29,12,,98,77,103,54,11,10,0.5,0.4
2024-03-31T2200,1044A,119.5897,39.9499,秦皇岛市,监测站,颗粒物(PM10),69,88,73,46,29,65,,96,88,44,45,9,9,0.5,0.4
2024-03-31T2200,1046A,119.5251,39.9041,秦皇岛市,建设大厦,颗粒物(PM10),67,83,59,36,24,60,,99,91,44,40,7,7,0.5,0.4
2024-03-31T2200,3132A,119.610547,39.943889,秦皇岛市,文明里,颗粒物(PM10),70,90,73,29,25,73,,90,87,40,42,7,8,0.6,0.5
2024-03-31T2200,1307A,120.6659,36.2403,青岛市,仰口,颗粒物(PM10),64,78,59,36,21,44,,96,68,33,14,3,4,0.4,0.3
2024-03-31T2200,1310A,120.4134,36.0658,青岛市,市南区东部子站,,46,46,79,17,16,64,,94,66,34,26,9,9,0.5,0.5
2024-03-31T2200,1311A,120.3664,36.1032,青岛市,四方区子站,颗粒物(PM10),51,51,66,22,19,82,,109,94,40,26,5,5,0.7,0.6
2024-03-31T2200,1312A,120.2994,36.054,青岛市,市南区西部子站,,44,44,77,20,19,60,,93,56,40,33,7,7,0.6,0.6
2024-03-31T2200,1313A,120.4581,36.0858,青岛市,崂山区子站,颗粒物(PM10),54,58,78,14,18,56,,103,67,42,23,8,8,0.4,0.4
2024-03-31T2200,1314A,120.1983,35.9608,青岛市,黄岛区子站,颗粒物(PM10),53,56,74,17,21,60,,108,82,34,20,6,7,0.6,0.6
2024-03-31T2200,1315A,120.3999,36.3083,青岛市,城阳区子站,颗粒物(PM10),56,61,56,17,13,72,,101,88,39,26,8,7,0.7,0.7
2024-03-31T2200,1966A,120.0405,35.8735,青岛市,黄岛区4号,颗粒物(PM10),54,58,76,12,15,73,,107,92,28,19,7,8,0.5,0.5
2024-03-31T2200,3362A,120.5014,36.4034,青岛市,即墨2号,颗粒物(PM10),59,68,72,24,20,57,,99,84,29,21,5,6,0.5,0.5
2024-03-31T2200,3642A,120.3503,36.0736,青岛市,市北区南部,颗粒物(PM10),54,57,75,12,17,99,,113,95,27,26,8,8,0.4,0.4
2024-03-31T2200,3643A,120.3948,36.1805,青岛市,李沧区北部,颗粒物(PM10),56,61,68,24,21,92,,111,100,35,27,9,8,0.5,0.5
2024-03-31T2200,1702A,113.0426,23.691,清远市,环保大楼,,42,41,33,29,19,49,,63,63,21,20,4,6,1.0,0.8
2024-03-31T2200,1703A,113.0208,23.7106,清远市,凤城街办,,47,47,43,30,27,50,,79,78,34,30,4,8,0.8,0.5
2024-03-31T2200,3025A,113.0477,23.6344,清远市,技师学院,细颗粒物(PM2.5),64,76,46,46,23,38,,81,77,34,26,8,6,0.6,0.5
2024-03-31T2200,3318A,112.9903,23.7403,清远市,清新太和,,42,42,46,26,26,43,,77,75,16,28,5,14,0.6,0.6
2024-03-31T2200,3455A,113.076,23.7198,清远市,清城东城,颗粒物(PM10),55,59,44,36,26,37,,71,68,23,29,5,6,0.4,0.3
2024-03-31T2200,2661A,107.6325,35.7357,庆阳市,庆阳五中,颗粒物(PM10),64,77,80,36,33,115,,132,125,14,15,5,8,0.4,0.3
2024-03-31T2200,2662A,107.6364,35.7067,庆阳市,市环保局,颗粒物(PM10),57,64,68,33,28,114,,131,125,13,12,6,8,0.3,0.3
2024-03-31T2200,1916A,103.7897,25.5035,曲靖市,环境监测站,,44,44,55,27,30,108,,132,127,14,13,7,6,0.4,0.8
2024-03-31T2200,1917A,103.8,25.5364,曲靖市,烟厂办公区,,49,49,50,28,27,112,,132,128,11,10,8,4,0.5,0.6
2024-03-31T2200,3376A,103.7947,25.462,曲靖市,南苑二区,,45,45,50,16,28,102,,118,114,10,12,4,6,0.6,0.6
