timepoint,stationcode,longitude,latitude,area,positionname,primarypollutant,aqi,pm10,pm10_24h,pm2_5,pm2_5_24h,o3,o3_24h,o3_8h,o3_8h_24h,no2,no2_24h,so2,so2_24h,co,co_24h
2025-03-21T2100,2566A,102.1879,31.914,阿坝藏族羌族自治州,州农科所,,24,24,25,8,8,69,,77,75,10,12,9,10,0.1,0.2
2025-03-21T2100,2568A,102.2502,31.8896,阿坝藏族羌族自治州,马师校,,26,26,15,15,13,74,,94,92,12,11,5,5,0.4,0.4
2025-03-21T2100,3994A,102.2165,31.9024,阿坝藏族羌族自治州,马尔康中学西区,,29,20,11,20,11,84,,100,98,11,10,6,5,0.4,0.3
2025-03-21T2100,2695A,80.292,41.1694,阿克苏地区,电视台,颗粒物(PM10),172,293,325,91,82,117,,122,122,22,22,6,6,0.5,0.5
2025-03-21T2100,2696A,80.2613,41.1551,阿克苏地区,艺术中心,颗粒物(PM10),176,301,342,66,78,104,,115,115,17,26,5,5,0.4,0.6
2025-03-21T2100,2204A,105.6467,38.8363,阿拉善盟,西城区西花园,颗粒物(PM10),60,70,63,22,17,81,,109,104,19,10,10,9,0.9,0.7
2025-03-21T2100,2205A,105.6985,38.8411,阿拉善盟,蒙二幼,颗粒物(PM10),58,66,50,27,18,79,,104,100,12,8,6,5,0.6,0.5
2025-03-21T2100,2206A,105.724,38.8516,阿拉善盟,环保局新楼,,50,50,46,18,18,95,,107,102,5,3,7,8,0.6,0.6
2025-03-21T2100,2708A,88.1264,47.8517,阿勒泰地区,市站,,23,21,11,3,5,73,,92,89,23,6,2,3,0.4,0.3
2025-03-21T2100,2630A,80.1161,32.5,阿里地区,阿里监测站,,36,6,6,3,5,114,,114,114,1,3,6,7,0.5,0.5
2025-03-21T2100,3192A,80.0903,32.5028,阿里地区,阿里藏医院,,36,10,9,3,4,114,,114,114,1,3,7,8,0.4,0.4
2025-03-21T2100,2642A,109.0318,32.6537,安康市,香溪洞,,46,46,43,27,24,113,,115,115,4,10,6,9,0.1,0.2
2025-03-21T2100,2644A,109.0072,32.6975,安康市,汉滨区检察院,颗粒物(PM10),55,60,49,25,22,68,,108,104,25,18,7,10,0.4,0.4
2025-03-21T2100,4054A,109.0325,32.6913,安康市,市邮政管理局,颗粒物(PM10),62,73,53,38,25,48,,107,95,39,24,7,14,0.9,0.6
2025-03-21T2100,2291A,117.0809,30.5177,安庆市,环科院,颗粒物(PM10),52,54,46,29,27,107,,144,137,44,40,11,10,0.5,0.4
2025-03-21T2100,2292A,117.0331,30.5119,安庆市,马山宾馆,颗粒物(PM10),52,54,50,28,30,94,,137,128,47,54,7,6,0.6,0.5
2025-03-21T2100,2294A,116.9896,30.6145,安庆市,安庆大学,,45,45,53,19,29,131,,149,144,24,27,9,9,0.4,0.5
2025-03-21T2100,3173A,117.0598,30.5351,安庆市,市人大,,47,47,47,27,29,123,,146,142,24,35,12,11,0.6,0.5
2025-03-21T2100,3122A,105.9606,26.2611,安顺市,伍家关,颗粒物(PM10),54,57,43,35,28,108,,120,119,17,13,14,14,0.5,0.4
2025-03-21T2100,3123A,105.9408,26.2431,安顺市,凤凰山,细颗粒物(PM2.5),69,66,42,50,31,95,,120,116,34,21,28,21,0.6,0.4
2025-03-21T2100,3124A,105.9439,26.2564,安顺市,金钟山,细颗粒物(PM2.5),69,55,38,50,30,114,,122,122,17,14,18,21,0.6,0.4
2025-03-21T2100,3125A,105.8983,26.2481,安顺市,娄家坡,细颗粒物(PM2.5),67,62,44,48,36,109,,121,121,18,14,16,18,0.7,0.5
2025-03-21T2100,1818A,114.4839,36.0621,安阳市,棉研所,,,,,,,,,,,,,,,,
2025-03-21T2100,1819A,114.3551,36.1017,安阳市,红庙街,颗粒物(PM10),68,85,66,30,20,56,,108,99,30,19,5,7,0.4,0.7
2025-03-21T2100,1820A,114.361,36.0681,安阳市,银杏小区,颗粒物(PM10),65,80,53,34,18,61,,116,106,40,22,10,5,0.5,0.5
2025-03-21T2100,3141A,114.3922,36.0878,安阳市,信访局,颗粒物(PM10),58,66,58,27,21,82,,120,114,30,25,8,10,0.3,0.5
2025-03-21T2100,3669A,114.4705,36.0637,安阳市,左辅环卫站,颗粒物(PM10),74,97,64,30,20,83,,129,118,23,21,6,11,0.4,0.6
2025-03-21T2100,3703A,114.2917,36.0949,安阳市,安钢职工学校,颗粒物(PM10),67,83,75,37,26,69,,111,104,32,27,10,5,0.6,0.6
2025-03-21T2100,1748A,123.044,41.1196,鞍山市,深沟寺,颗粒物(PM10),59,67,67,32,35,87,,102,98,24,33,18,25,0.9,1.3
2025-03-21T2100,1749A,123.011,41.0931,鞍山市,太阳城,颗粒物(PM10),58,66,72,33,40,82,,103,96,26,34,15,21,1.0,1.3
2025-03-21T2100,1750A,123.0485,41.1442,鞍山市,太平,颗粒物(PM10),62,74,75,33,38,64,,97,91,45,43,19,25,1.0,1.3
2025-03-21T2100,1751A,122.9642,41.0971,鞍山市,铁西三道街,颗粒物(PM10),64,77,74,40,43,75,,104,98,37,38,18,21,0.9,1.1
2025-03-21T2100,1753A,123.022,41.0821,鞍山市,明达新区,颗粒物(PM10),61,72,64,36,35,86,,103,100,23,29,16,22,0.8,1
2025-03-21T2100,1754A,123.1289,41.0228,鞍山市,千山,,,,56,,18,,,89,,,16,,10,,0.8
2025-03-21T2100,4201A,122.9446,41.0826,鞍山市,兴盛南路290号,颗粒物(PM10),73,96,84,46,46,74,,104,97,40,41,25,27,0.9,1.1
2025-03-21T2100,2195A,107.4212,40.761,巴彦淖尔市,附二中,颗粒物(PM10),100,150,88,41,25,83,,98,96,12,9,4,5,0.4,0.3
2025-03-21T2100,2196A,107.37,40.7372,巴彦淖尔市,市环保大楼,颗粒物(PM10),92,134,85,37,30,88,,105,102,10,12,4,5,0.3,0.3
2025-03-21T2100,1956A,86.1472,41.7538,巴音郭楞蒙古自治州,孔雀公园,颗粒物(PM10),359,467,245,,48,78,,109,106,23,51,5,5,0.4,0.5
2025-03-21T2100,1957A,86.1972,41.7166,巴音郭楞蒙古自治州,棉纺厂,颗粒物(PM10),457,557,304,171,58,87,,104,102,19,35,3,3,0.4,0.3
2025-03-21T2100,1958A,86.2357,41.7173,巴音郭楞蒙古自治州,经济开发区,颗粒物(PM10),384,487,270,84,50,89,,106,104,19,17,4,4,0.3,0.2
2025-03-21T2100,2914A,106.7677,31.8794,巴中市,苏山坪,,43,43,47,28,33,113,,111,111,12,17,5,5,0.2,0.3
2025-03-21T2100,3181A,106.7768,31.8526,巴中市,市五中,颗粒物(PM10),60,69,54,41,36,43,,103,95,36,26,5,5,0.7,0.6
2025-03-21T2100,3183A,106.7418,31.8654,巴中市,圣泉水务公司,细颗粒物(PM2.5),67,70,44,48,31,10,,105,88,80,34,8,7,0.7,0.5
2025-03-21T2100,3616A,106.7616,31.8344,巴中市,市中心医院,颗粒物(PM10),60,69,50,39,41,16,,106,91,68,30,7,7,0.7,0.5
2025-03-21T2100,2235A,122.7911,45.6077,白城市,洮北区环保局,颗粒物(PM10),84,117,81,60,38,47,,105,86,27,13,7,5,0.6,0.5
2025-03-21T2100,2236A,122.8738,45.5725,白城市,市环保局,颗粒物(PM10),76,102,96,39,44,16,,114,89,57,14,5,5,0.6,0.6
2025-03-21T2100,2231A,126.4219,41.9171,白山市,喜丰,颗粒物(PM10),65,79,81,29,36,112,,125,124,16,24,14,13,1.0,1.2
2025-03-21T2100,2232A,126.4077,41.9419,白山市,环保局,颗粒物(PM10),60,69,75,24,36,77,,116,112,8,18,11,13,1.1,1.3
2025-03-21T2100,2647A,104.1724,36.5446,白银市,第三小学,颗粒物(PM10),55,60,82,35,39,102,,110,110,22,32,16,123,0.2,0.5
2025-03-21T2100,2648A,104.1465,36.5482,白银市,动力公司,颗粒物(PM10),54,58,73,30,35,109,,117,116,16,26,4,69,0.3,0.6
2025-03-21T2100,2512A,106.6103,23.9011,百色市,市监测站,颗粒物(PM10),64,78,57,45,35,141,,156,156,20,21,26,12,0.9,0.7
2025-03-21T2100,2513A,106.6538,23.8859,百色市,市中心血站,细颗粒物(PM2.5),69,82,88,50,55,142,,156,156,21,38,30,15,0.9,0.8
2025-03-21T2100,3406A,106.6085,23.8798,百色市,祈福高中,颗粒物(PM10),67,83,75,44,33,138,,153,153,20,29,24,10,0.8,0.7
2025-03-21T2100,2270A,117.396,32.939,蚌埠市,工人疗养院,颗粒物(PM10),53,55,57,26,25,105,,136,132,30,24,6,6,0.6,0.5
2025-03-21T2100,2271A,117.3605,32.9427,蚌埠市,百货大楼,颗粒物(PM10),54,57,54,27,25,91,,128,124,36,29,8,7,0.3,0.4
2025-03-21T2100,2273A,117.4185,32.8911,蚌埠市,蚌埠学院,颗粒物(PM10),64,78,68,32,28,80,,135,127,38,30,5,5,0.4,0.4
2025-03-21T2100,2274A,117.3533,32.9673,蚌埠市,淮上区政府,颗粒物(PM10),57,63,55,36,29,79,,138,131,41,28,7,7,0.5,0.4
2025-03-21T2100,2275A,117.3145,32.8977,蚌埠市,高新区,颗粒物(PM10),65,80,65,39,34,74,,132,123,45,34,10,6,0.4,0.4
2025-03-21T2100,3715A,117.3092,32.9314,蚌埠市,蚌埠田家炳中学,颗粒物(PM10),62,74,64,30,30,73,,134,122,50,38,7,7,0.3,0.3
2025-03-21T2100,1585A,109.8756,40.6532,包头市,市环境监测站,颗粒物(PM10),64,78,67,28,25,41,,105,93,74,44,11,21,1.0,1.3
2025-03-21T2100,1587A,109.9991,40.5842,包头市,包头八中,颗粒物(PM10),76,101,88,55,39,27,,106,90,80,52,18,17,0.9,1
2025-03-21T2100,1588A,109.8538,40.6821,包头市,青山宾馆,颗粒物(PM10),64,77,53,43,24,7,,99,85,106,33,9,12,0.9,0.7
2025-03-21T2100,1589A,109.8642,40.6288,包头市,惠龙物流,颗粒物(PM10),66,82,78,34,35,65,,107,99,48,43,23,22,1.1,1.4
2025-03-21T2100,1590A,110.0377,40.5546,包头市,东河鸿龙湾,颗粒物(PM10),63,75,82,29,30,62,,103,98,36,38,15,20,0.6,0.9
2025-03-21T2100,3283A,109.9154,40.5685,包头市,滨河大厦,颗粒物(PM10),63,76,73,29,34,63,,104,98,41,34,44,35,0.9,0.9
2025-03-21T2100,3419A,109.9447,40.6261,包头市,包头市委党校,颗粒物(PM10),51,51,65,18,25,56,,104,96,53,43,7,17,0.5,1.1
2025-03-21T2100,3683A,109.8331,40.6576,包头市,昆区政府,细颗粒物(PM2.5),67,71,59,48,28,37,,103,93,75,34,8,22,0.8,1.3
2025-03-21T2100,1930A,107.185,34.3063,宝鸡市,庙沟村,,50,46,50,35,29,82,,116,111,30,12,6,6,0.2,0.2
2025-03-21T2100,1931A,107.0708,34.3017,宝鸡市,竹园沟,细颗粒物(PM2.5),58,61,54,41,26,70,,114,107,20,17,6,6,0.3,0.3
2025-03-21T2100,1932A,107.1906,34.3672,宝鸡市,三陆医院,颗粒物(PM10),90,129,83,66,38,75,,105,105,36,28,6,5,0.6,0.5
2025-03-21T2100,1933A,107.1431,34.3547,宝鸡市,监测站,细颗粒物(PM2.5),70,86,70,51,31,62,,107,104,31,23,7,8,0.6,0.5
2025-03-21T2100,1934A,107.1186,34.3739,宝鸡市,技工学校,颗粒物(PM10),65,80,70,42,32,64,,106,103,38,18,11,6,0.6,0.5
2025-03-21T2100,1935A,107.3906,34.3528,宝鸡市,陈仓区环保局家属楼,,,90,81,,42,38,,104,95,63,35,7,25,0.7,0.6
2025-03-21T2100,1936A,107.2058,34.3497,宝鸡市,文理学院,颗粒物(PM10),70,89,70,47,32,61,,115,112,42,20,6,6,0.6,0.5
2025-03-21T2100,1937A,107.2386,34.3622,宝鸡市,三迪小学,细颗粒物(PM2.5),78,83,72,57,39,85,,110,110,37,33,7,7,0.5,0.5
2025-03-21T2100,1051A,115.493,38.8632,保定市,游泳馆,颗粒物(PM10),65,80,47,33,15,55,,108,96,43,25,11,9,0.3,0.1
2025-03-21T2100,1052A,115.5213,38.8959,保定市,华电二区,,44,44,31,23,11,68,,117,107,23,13,2,2,0.5,0.3
2025-03-21T2100,1053A,115.4713,38.9108,保定市,接待中心,颗粒物(PM10),60,70,35,21,14,68,,110,99,27,18,4,4,0.3,0.2
2025-03-21T2100,1054A,115.4612,38.8416,保定市,地表水厂,颗粒物(PM10),63,76,55,21,11,72,,112,102,28,22,5,4,0.4,0.3
2025-03-21T2100,3581A,115.31981,38.95208,保定市,满城区生态环境分局,,32,27,22,7,5,101,,116,111,7,7,4,3,0.2,0.2
2025-03-21T2100,3582A,115.47694,38.76408,保定市,清苑区第二中学,颗粒物(PM10),58,65,52,31,14,71,,108,101,23,17,12,9,0.3,0.3
2025-03-21T2100,3583A,115.62909,39.02311,保定市,徐水物探局,颗粒物(PM10),63,76,39,19,8,30,,118,100,62,23,12,10,0.2,0.1
2025-03-21T2100,4004A,115.4202,38.8656,保定市,双鹰农机,颗粒物(PM10),59,67,42,30,14,41,,109,91,60,25,6,4,0.4,0.2
2025-03-21T2100,4034A,115.5150,38.8590,保定市,植保所站,颗粒物(PM10),55,60,42,24,19,62,,104,95,27,21,3,4,0.5,0.2
2025-03-21T2100,2594A,99.1678,25.1081,保山市,市环境监测站,细颗粒物(PM2.5),69,58,59,50,44,94,,115,115,14,16,5,4,0.7,0.7
2025-03-21T2100,2595A,99.1711,25.1328,保山市,市环保局,细颗粒物(PM2.5),67,53,63,48,41,96,,116,116,7,13,4,4,0.7,0.8
2025-03-21T2100,1866A,109.2262,21.588,北海市,牛尾岭水库,,,54,50,25,46,104,,153,143,,,6,8,0.6,0.7
2025-03-21T2100,1867A,109.1436,21.4086,北海市,海滩公园,,46,34,50,20,33,147,,165,161,18,18,7,8,0.5,0.6
2025-03-21T2100,1868A,109.0981,21.4661,北海市,新市环保局,,45,44,50,31,39,126,,157,145,42,28,5,6,0.6,0.6
2025-03-21T2100,1869A,109.1778,21.5233,北海市,北海工业园,,44,35,68,29,48,138,,163,157,22,25,9,11,0.5,0.6
2025-03-21T2100,3400A,109.1911,21.4415,北海市,龙潭自来水厂,,44,44,58,26,50,119,,166,157,26,24,7,8,0.4,0.6
2025-03-21T2100,1001A,116.3621,39.8784,北京市,万寿西宫,,28,28,30,11,10,85,,106,103,19,26,2,2,0.1,0.1
2025-03-21T2100,1002A,116.2202,40.2915,北京市,定陵,,,,,,,,,,,,,,,,
2025-03-21T2100,1003A,116.4174,39.9289,北京市,东四,,30,30,26,13,10,87,,106,104,13,15,4,4,0.5,0.4
2025-03-21T2100,1004A,116.4072,39.8863,北京市,天坛,,27,27,31,12,10,69,,101,97,13,19,3,3,0.4,0.4
2025-03-21T2100,1005A,116.462,39.9365,北京市,农展馆,,26,26,27,11,11,77,,97,94,12,20,5,5,0.4,0.4
2025-03-21T2100,1006A,116.3392,39.9295,北京市,官园,,26,26,28,11,10,80,,94,92,15,15,7,7,0.4,0.4
2025-03-21T2100,1007A,116.2878,39.9611,北京市,海淀万柳,,25,21,27,6,9,80,,88,88,10,20,3,3,0.3,0.4
2025-03-21T2100,1008A,116.6636,40.135,北京市,顺义新城,,43,43,30,18,10,58,,98,90,39,16,5,5,0.3,0.2
2025-03-21T2100,1009A,116.6275,40.3275,北京市,怀柔镇,,32,32,24,14,8,55,,91,86,25,11,2,2,0.6,0.4
2025-03-21T2100,1010A,116.2296,40.217,北京市,昌平镇,,48,48,33,22,9,38,,99,87,57,16,1,2,0.6,0.4
2025-03-21T2100,1011A,116.3966,39.9821,北京市,奥体中心,,25,25,27,13,9,76,,99,96,23,23,2,3,0.1,0.3
2025-03-21T2100,3281A,115.9718,40.4529,北京市,延庆夏都,,27,21,25,7,9,86,,97,96,4,7,5,6,0.4,0.4
2025-03-21T2100,3418A,116.8336,40.4095,北京市,密云新城,,27,21,22,6,8,86,,90,90,1,10,3,3,0.3,0.4
2025-03-21T2100,3671A,116.088,39.9726,北京市,门头沟三家店,颗粒物(PM10),55,60,46,25,15,56,,94,89,21,4,4,4,0.3,0.2
2025-03-21T2100,3672A,116.1541,39.8204,北京市,丰台云岗,,31,24,25,12,12,97,,112,110,5,2,4,4,0.3,0.3
2025-03-21T2100,3673A,116.6804,39.9081,北京市,通州东关,,25,23,35,3,10,79,,101,98,14,18,3,4,0.4,0.1
2025-03-21T2100,3674A,115.9577,39.7603,北京市,房山燕山,,26,17,26,16,10,81,,96,92,4,6,6,5,0.2,0.2
2025-03-21T2100,3675A,116.4672,39.7733,北京市,大兴旧宫,,43,43,29,20,10,50,,94,86,23,16,1,2,0.2,0.2
2025-03-21T2100,3694A,115.986,40.4563,北京市,延庆石河营,,25,25,23,10,9,75,,97,95,11,9,4,5,0.3,0.3
2025-03-21T2100,3695A,116.6151,40.3053,北京市,怀柔新城,,,,18,,7,,,85,,,2,,5,,0.4
2025-03-21T2100,3696A,116.2545,39.8768,北京市,丰台小屯,,36,36,29,16,10,60,,95,89,30,8,2,2,0.2,0.2
2025-03-21T2100,3697A,116.84,40.3844,北京市,密云镇,,32,32,32,10,9,79,,92,90,4,26,4,4,0.2,0.3
2025-03-21T2100,4182A,116.1942,39.9158,北京市,八角北路9号,,35,35,29,13,9,90,,108,107,14,6,3,3,0.4,0.4
2025-03-21T2100,4194A,117.0790,40.1518,北京市,洳河巡河路,,34,34,23,15,9,69,,98,89,21,18,1,1,0.4,0.3
2025-03-21T2100,1761A,123.8275,41.3064,本溪市,大峪,,40,40,96,27,57,93,,114,110,22,47,16,24,0.9,2.2
2025-03-21T2100,1762A,123.7567,41.3325,本溪市,溪湖,颗粒物(PM10),55,60,117,17,58,95,,120,116,18,53,11,35,0.7,3.5
2025-03-21T2100,1763A,123.7169,41.3094,本溪市,彩屯,,,56,87,26,49,,,116,115,17,30,10,16,0.8,1.6
2025-03-21T2100,1764A,123.7669,41.2864,本溪市,东明,颗粒物(PM10),59,67,120,27,57,86,,102,96,23,54,16,28,1.1,2.5
2025-03-21T2100,1765A,123.7992,41.2664,本溪市,新立屯,颗粒物(PM10),52,54,59,18,25,50,,118,101,57,37,10,13,0.8,0.9
2025-03-21T2100,1766A,123.8142,41.3472,本溪市,威宁,颗粒物(PM10),55,60,119,32,47,72,,119,112,25,34,12,10,0.9,1.2
2025-03-21T2100,2587A,105.2864,27.3125,毕节市,八中,细颗粒物(PM2.5),67,63,47,48,35,73,,90,89,11,14,10,13,0.5,0.6
2025-03-21T2100,2588A,105.31,27.2944,毕节市,师专,细颗粒物(PM2.5),55,54,44,39,29,81,,97,97,12,13,8,12,0.6,0.6
2025-03-21T2100,4263A,105.3688,27.3598,毕节市,工业大道,细颗粒物(PM2.5),65,70,44,47,30,89,,100,98,12,14,13,12,0.6,0.6
2025-03-21T2100,1629A,118.0018,37.3617,滨州市,第二水厂,颗粒物(PM10),63,75,68,17,27,83,,98,97,19,30,8,12,0.9,0.9
2025-03-21T2100,1630A,117.9776,37.393,滨州市,北中新校,颗粒物(PM10),63,75,66,27,27,92,,108,105,20,32,28,22,0.5,0.5
2025-03-21T2100,3514A,117.9378,37.3956,滨州市,中海酒店,颗粒物(PM10),58,66,75,27,34,88,,107,104,22,32,8,16,0.4,0.5
2025-03-21T2100,3515A,117.9378,37.3553,滨州市,开发区一中,颗粒物(PM10),75,100,73,46,26,78,,100,98,35,38,13,12,0.4,0.3
2025-03-21T2100,3516A,118.0917,37.694,滨州市,金海六路,颗粒物(PM10),79,107,62,53,22,58,,104,97,39,32,10,8,0.7,0.6
2025-03-21T2100,4028A,117.9956,37.3753,滨州市,滨州市西街道办事处,颗粒物(PM10),60,70,67,29,32,96,,107,106,16,28,8,15,0.1,0.3
2025-03-21T2100,2311A,115.8072,33.8399,亳州市,污水处理厂,,38,38,50,14,16,110,,123,123,17,20,4,5,0.2,0.2
2025-03-21T2100,2312A,115.7789,33.8518,亳州市,三国揽胜宫,,40,40,51,10,18,110,,119,119,12,16,4,6,0.2,0.3
2025-03-21T2100,3332A,115.7633,33.8034,亳州市,亳州学院,,43,43,45,21,20,100,,118,117,16,16,6,6,0.2,0.2
2025-03-21T2100,2693A,82.0485,44.8556,博尔塔拉蒙古自治州,市党校,,,78,56,38,34,142,,147,147,19,12,,33,0.4,0.3
2025-03-21T2100,2694A,82.0806,44.8969,博尔塔拉蒙古自治州,市环保局,颗粒物(PM10),62,74,62,33,26,135,,150,150,26,27,5,5,0.6,1
2025-03-21T2100,1071A,116.8842,38.2991,沧州市,沧县城建局,颗粒物(PM10),64,78,66,26,26,83,,107,104,25,34,3,6,0.4,0.4
2025-03-21T2100,1072A,116.8584,38.3254,沧州市,电视转播站,颗粒物(PM10),54,58,62,9,25,93,,111,109,22,39,9,5,0.3,0.5
2025-03-21T2100,1073A,116.8709,38.3228,沧州市,市环保局,颗粒物(PM10),51,51,58,18,25,95,,106,106,18,32,8,10,0.3,0.4
2025-03-21T2100,3324A,116.8136,38.3004,沧州市,河北水利电力学院,颗粒物(PM10),56,61,72,30,33,76,,100,94,29,41,5,7,0.3,0.3
2025-03-21T2100,2622A,97.1806,31.1273,昌都市,昌都监测站,,25,,12,17,10,73,,87,86,19,8,8,7,0.9,0.7
2025-03-21T2100,3719A,97.1714,31.1406,昌都市,昌都会议中心,,,14,16,13,12,101,,115,114,,5,3,3,0.2,0.2
2025-03-21T2100,2690A,88.1236,43.8886,昌吉回族自治州,天山天池,,26,17,17,9,6,82,,103,98,5,4,5,5,0.5,0.4
2025-03-21T2100,2692A,87.2717,44.0297,昌吉回族自治州,新区政务中心,颗粒物(PM10),69,88,84,42,30,101,,123,122,33,33,10,11,0.6,0.8
2025-03-21T2100,3613A,87.3095,44.0142,昌吉回族自治州,亚心广场,颗粒物(PM10),78,105,106,39,47,96,,130,129,36,32,8,11,0.7,0.7
2025-03-21T2100,1119A,125.3325,43.9166,长春市,食品厂,颗粒物(PM10),91,132,87,47,36,64,,102,81,25,24,9,9,0.5,0.4
2025-03-21T2100,1120A,125.2863,43.9027,长春市,客车厂,颗粒物(PM10),93,135,85,58,37,63,,98,78,28,25,7,7,0.5,0.5
2025-03-21T2100,1121A,125.2841,43.8463,长春市,邮电学院,颗粒物(PM10),92,133,92,41,44,73,,108,88,16,22,8,12,0.4,0.5
2025-03-21T2100,1122A,125.3716,43.8772,长春市,劳动公园,颗粒物(PM10),84,118,91,39,37,71,,105,89,14,18,8,9,0.4,0.2
2025-03-21T2100,1123A,125.3297,43.8805,长春市,园林处,颗粒物(PM10),80,110,77,37,31,70,,104,88,19,19,10,8,0.4,0.4
2025-03-21T2100,1124A,125.4605,43.79,长春市,净月潭,颗粒物(PM10),76,102,97,39,48,68,,107,89,17,18,7,8,0.4,0.5
2025-03-21T2100,1125A,125.7194,43.515,长春市,甩湾子,,,,,,,,,,,,,,,,
2025-03-21T2100,1126A,125.3863,43.8447,长春市,经开区环卫处,颗粒物(PM10),80,109,80,35,35,66,,101,85,18,22,8,8,0.4,0.4
2025-03-21T2100,1127A,125.245,43.7783,长春市,高新区管委会,颗粒物(PM10),94,138,94,52,44,71,,105,87,20,20,9,9,0.4,0.4
2025-03-21T2100,1128A,125.1761,43.8325,长春市,岱山公园,颗粒物(PM10),87,123,93,36,49,72,,108,86,18,20,6,8,0.5,0.5
2025-03-21T2100,1335A,113.0833,28.2325,长沙市,经开区环保局,颗粒物(PM10),52,53,60,26,32,99,,136,132,42,48,11,9,0.5,0.5
2025-03-21T2100,1336A,112.8872,28.2189,长沙市,高开区环保局,细颗粒物(PM2.5),64,76,72,46,39,73,,143,136,51,48,4,6,0.8,0.6
2025-03-21T2100,1337A,113.0792,28.2053,长沙市,马坡岭,细颗粒物(PM2.5),73,88,73,53,40,42,,140,127,75,48,5,6,0.9,0.6
2025-03-21T2100,1338A,112.9394,28.19,长沙市,湖南师范大学,颗粒物(PM10),52,53,57,29,31,76,,131,123,32,33,6,7,0.6,0.7
2025-03-21T2100,1339A,113.0178,28.1322,长沙市,雨花区环保局,颗粒物(PM10),57,64,68,34,35,79,,134,128,50,55,6,8,0.7,0.6
2025-03-21T2100,1340A,112.9792,28.2597,长沙市,伍家岭,颗粒物(PM10),85,119,77,62,34,5,,126,99,108,55,4,4,1.5,0.7
2025-03-21T2100,1341A,113.0014,28.1944,长沙市,火车新站,细颗粒物(PM2.5),117,94,82,88,46,39,,131,121,97,59,7,8,1.3,0.8
2025-03-21T2100,1342A,112.9844,28.1178,长沙市,天心区环保局,细颗粒物(PM2.5),74,90,75,54,43,69,,138,129,64,61,4,6,1.2,1
2025-03-21T2100,1343A,112.8908,28.1308,长沙市,湖南中医药大学,细颗粒物(PM2.5),77,82,65,56,35,12,,135,111,94,49,5,6,0.5,0.4
2025-03-21T2100,1344A,112.9581,28.3611,长沙市,沙坪,,37,37,33,24,25,97,,129,124,14,12,6,7,0.5,0.5
2025-03-21T2100,1727A,113.1147,36.1547,长治市,清华站,,50,50,40,27,13,78,,55,,23,31,5,9,0.3,0.4
2025-03-21T2100,1730A,113.0886,36.2125,长治市,审计局,,34,34,35,17,15,75,,110,104,28,34,7,13,0.2,0.4
2025-03-21T2100,1731A,113.0844,36.1856,长治市,长治八中,颗粒物(PM10),58,66,46,25,20,75,,113,107,27,23,10,15,0.9,0.8
2025-03-21T2100,2845A,113.1569,36.1911,长治市,德盛苑,,46,46,27,9,10,82,,113,106,20,14,5,6,0.3,0.3
2025-03-21T2100,3568A,113.06,36.0464,长治市,向阳小学,颗粒物(PM10),67,84,54,23,21,83,,109,104,23,20,10,10,0.4,0.4
2025-03-21T2100,3569A,112.8792,36.3144,长治市,屯留一中,,48,48,33,20,11,48,,112,98,58,31,7,7,0.6,0.6
2025-03-21T2100,4189A,113.1131,36.19948,长治市,英华南巷50号,颗粒物(PM10),52,53,45,24,16,71,,112,106,28,31,9,19,0.4,0.7
2025-03-21T2100,4190A,113.2367,36.3344,长治市,学府街1号,颗粒物(PM10),51,51,48,21,21,77,,116,108,25,23,11,17,0.4,0.8
2025-03-21T2100,1854A,111.6975,28.9703,常德市,市二中,颗粒物(PM10),59,67,48,37,30,98,,117,114,34,17,10,7,0.5,0.4
2025-03-21T2100,1857A,111.7158,29.1456,常德市,白鹤山,,,,,,,,,,,,,,,,
2025-03-21T2100,3138A,111.7153,29.0289,常德市,武陵区永安,细颗粒物(PM2.5),90,86,59,67,35,119,,124,124,15,23,7,6,0.6,0.5
2025-03-21T2100,3139A,111.6892,28.9881,常德市,鼎城区玉霞,颗粒物(PM10),58,65,51,33,27,124,,133,132,17,24,8,5,0.5,0.4
2025-03-21T2100,3140A,111.6625,29.0531,常德市,武陵区长庚,颗粒物(PM10),60,69,61,38,32,136,,134,134,10,19,7,6,0.5,0.4
2025-03-21T2100,1196A,119.9633,31.762,常州市,市监测站,颗粒物(PM10),52,53,59,35,31,90,,143,137,49,32,8,8,0.7,0.7
2025-03-21T2100,1200A,119.9468,31.7069,常州市,武进监测站,,49,49,55,32,33,80,,142,131,56,39,20,16,0.7,0.6
2025-03-21T2100,1201A,119.9255,31.9087,常州市,安家,颗粒物(PM10),57,64,66,31,34,73,,136,121,66,49,20,15,0.5,0.6
2025-03-21T2100,3002A,119.9805,31.8174,常州市,行政中心,,34,34,45,18,27,106,,134,131,32,30,10,11,0.4,0.5
2025-03-21T2100,3003A,120.0522,31.7748,常州市,经开区,颗粒物(PM10),51,52,58,25,26,113,,153,147,41,32,15,13,0.8,0.7
2025-03-21T2100,3010A,119.9025,31.7964,常州市,钟楼,颗粒物(PM10),51,51,57,28,30,79,,138,127,58,35,8,10,0.7,0.8
2025-03-21T2100,3429A,119.8598,31.7066,常州市,武进经发区,颗粒物(PM10),51,52,57,25,31,94,,148,139,52,34,18,12,0.7,0.9
2025-03-21T2100,3430A,119.5826,31.7245,常州市,金坛城区,,38,37,53,20,31,119,,152,148,27,24,14,13,0.5,0.7
2025-03-21T2100,2220A,120.4318,41.5881,朝阳市,西梁,颗粒物(PM10),56,62,54,30,19,55,,100,84,31,20,12,15,0.7,0.7
2025-03-21T2100,2221A,120.4521,41.5646,朝阳市,河畔小区,,48,48,48,25,16,63,,102,88,24,16,11,10,0.7,0.6
2025-03-21T2100,2222A,120.4176,41.5648,朝阳市,八里堡,细颗粒物(PM2.5),77,59,54,56,22,41,,91,79,41,17,9,10,0.6,0.6
2025-03-21T2100,2223A,120.3806,41.5969,朝阳市,农业园区,,40,40,51,10,15,86,,104,95,10,16,7,11,0.4,0.5
2025-03-21T2100,1705A,116.6367,23.6719,潮州市,西园路,细颗粒物(PM2.5),74,83,58,54,44,97,,144,134,33,20,11,5,0.6,0.4
2025-03-21T2100,3026A,116.6183,23.6608,潮州市,市政府,颗粒物(PM10),57,63,63,31,38,86,,147,130,52,32,10,9,0.6,0.6
2025-03-21T2100,4036A,116.6461,23.6761,潮州市,金山,细颗粒物(PM2.5),67,57,53,48,37,97,,153,141,32,21,16,9,0.6,0.5
2025-03-21T2100,2472A,113.0073,25.9061,郴州市,马头岭,,48,48,45,19,22,92,,121,115,16,16,14,15,0.4,0.4
2025-03-21T2100,2473A,113.0116,25.8226,郴州市,市职中,"颗粒物(PM10),细颗粒物(PM2.5)",73,95,58,53,32,25,,131,107,61,32,9,12,0.5,0.6
2025-03-21T2100,2475A,113.0383,25.8071,郴州市,市审计局,细颗粒物(PM2.5),54,51,47,38,27,55,,133,111,38,31,8,8,0.5,0.5
2025-03-21T2100,2476A,113.0348,25.7759,郴州市,市环保局,,48,48,50,33,29,41,,119,100,49,33,7,8,0.4,0.4
2025-03-21T2100,4252A,113.0138,25.8011,郴州市,好美居路49号,颗粒物(PM10),65,80,56,38,32,16,,129,103,70,39,7,15,0.6,0.5
2025-03-21T2100,1431A,103.9728,30.7236,成都市,金泉两河,,50,50,67,28,30,50,,86,84,41,42,2,2,0.6,0.7
2025-03-21T2100,1432A,104.176,30.6872,成都市,十里店,细颗粒物(PM2.5),67,72,63,48,39,65,,102,100,50,53,4,3,0.6,0.6
2025-03-21T2100,1433A,104.079,30.5706,成都市,三瓦窑,颗粒物(PM10),66,82,66,44,38,35,,91,87,79,56,6,5,0.8,0.8
2025-03-21T2100,1434A,104.1114,30.63,成都市,沙河铺,细颗粒物(PM2.5),82,70,67,60,48,43,,90,87,45,45,5,5,0.7,0.7
2025-03-21T2100,1437A,104.0786,30.6531,成都市,君平街,细颗粒物(PM2.5),64,61,63,46,41,56,,82,81,50,52,6,7,0.8,0.8
2025-03-21T2100,1438A,103.613,31.0283,成都市,灵岩寺,,,,,,,,,,,,,,,,
2025-03-21T2100,2880A,104.0239,30.65639,成都市,大石西路,细颗粒物(PM2.5),73,78,67,53,42,47,,87,84,50,54,4,4,0.8,0.9
2025-03-21T2100,3136A,104.2725,30.5589,成都市,龙泉驿区区政府,颗粒物(PM10),56,61,48,31,31,76,,105,102,30,23,5,4,0.7,0.6
2025-03-21T2100,3357A,104.0106,30.6931,成都市,金博路,颗粒物(PM10),53,55,52,31,28,49,,80,77,53,50,6,6,0.7,0.8
2025-03-21T2100,3359A,104.0578,30.5225,成都市,华阳,颗粒物(PM10),56,61,59,39,41,56,,91,90,50,47,6,6,0.4,0.5
2025-03-21T2100,3488A,104.3853,30.7453,成都市,青白江技师分院,颗粒物(PM10),54,57,59,29,36,60,,113,104,53,40,6,6,0.5,0.5
2025-03-21T2100,3489A,104.0789,30.4072,成都市,科学城,,43,43,54,26,33,78,,97,97,28,31,6,5,0.6,0.6
2025-03-21T2100,4011A,103.8506,30.6947,成都市,光华大道三段,颗粒物(PM10),59,67,68,37,40,46,,109,100,62,43,5,5,0.8,0.8
2025-03-21T2100,4224A,104.2433,30.5353,成都市,鲸龙路1057号,颗粒物(PM10),54,57,58,33,37,77,,102,101,30,38,5,5,0.7,0.7
2025-03-21T2100,1062A,117.9531,40.9081,承德市,铁路,,46,46,28,10,9,56,,91,84,26,18,10,7,0.4,0.3
2025-03-21T2100,1063A,117.9392,40.9763,承德市,中国银行,颗粒物(PM10),51,52,36,3,8,34,,90,74,27,22,2,3,0.4,0.3
2025-03-21T2100,1064A,117.9503,40.928,承德市,开发区,,27,27,36,15,15,56,,92,85,12,24,6,6,0.2,0.3
2025-03-21T2100,1065A,117.8051,40.9655,承德市,文化中心,颗粒物(PM10),64,78,38,34,11,11,,92,74,54,26,5,4,0.6,0.4
2025-03-21T2100,1066A,117.9268,41.0026,承德市,离宫,,27,27,27,15,12,66,,84,78,6,7,4,4,0.2,0.2
2025-03-21T2100,2314A,117.47,30.6618,池州市,池州学院,,38,35,45,19,25,120,,145,138,20,19,6,7,0.4,0.5
2025-03-21T2100,3237A,117.4918,30.6617,池州市,展览馆,,38,38,45,20,24,68,,146,125,32,22,5,7,0.5,0.4
2025-03-21T2100,3333A,117.5627,30.695,池州市,第八中学,,34,34,41,17,21,107,,149,135,21,15,6,7,0.3,0.4
2025-03-21T2100,3334A,117.5038,30.6243,池州市,第十二中学,颗粒物(PM10),51,51,43,26,22,74,,150,130,43,16,6,8,0.3,0.5
2025-03-21T2100,1744A,118.9233,42.2816,赤峰市,松山一中,,37,37,32,3,8,67,,95,85,22,16,11,9,0.4,0.4
2025-03-21T2100,1745A,118.9576,42.2728,赤峰市,哈达街,,46,46,26,9,27,64,,80,71,19,11,12,11,0.7,0.6
2025-03-21T2100,1746A,118.8788,42.2554,赤峰市,天义路,颗粒物(PM10),52,53,33,13,9,65,,80,70,15,14,6,8,0.3,0.3
2025-03-21T2100,3058A,119.2658,42.0353,赤峰市,银河街,,42,42,32,3,7,74,,83,78,12,13,12,13,0.4,0.4
2025-03-21T2100,3286A,118.9359,42.3147,赤峰市,桥北物流园区,,46,46,41,10,15,57,,78,71,20,16,8,9,0.4,0.5
2025-03-21T2100,2521A,107.3476,22.4136,崇左市,市环保局江州分局,颗粒物(PM10),64,78,85,37,51,155,,168,166,14,23,9,9,0.6,0.7
2025-03-21T2100,4256A,107.3750,22.3736,崇左市,石景林东路7号,细颗粒物(PM2.5),53,,68,37,51,159,,173,172,12,27,8,8,0.6,0.5
2025-03-21T2100,2298A,118.3093,32.3153,滁州市,老年大学,,42,37,40,16,22,132,,139,138,15,16,5,5,0.5,0.5
2025-03-21T2100,2299A,118.3244,32.2786,滁州市,人大宾馆,,42,42,43,18,23,116,,138,134,18,16,8,8,0.5,0.4
2025-03-21T2100,3207A,118.3118,32.3038,滁州市,市政府原办公楼,,40,34,35,21,22,126,,139,136,14,12,5,5,0.3,0.3
2025-03-21T2100,3331A,118.3267,32.2634,滁州市,图书馆,,42,42,42,18,18,110,,135,131,25,19,7,8,0.4,0.3
2025-03-21T2100,2605A,101.5482,25.0441,楚雄彝族自治州,州环境监测站,,38,27,38,26,31,89,,94,94,8,8,6,6,0.7,0.6
2025-03-21T2100,2606A,101.538,25.0492,楚雄彝族自治州,市经济开发区,,40,40,42,28,33,83,,90,90,13,10,6,6,0.8,0.8
2025-03-21T2100,2548A,107.5277,31.2827,达州市,达州职业技术学院,颗粒物(PM10),67,84,63,42,35,21,,105,90,66,34,6,7,0.7,0.5
2025-03-21T2100,2549A,107.5086,31.2186,达州市,市环境监测站,颗粒物(PM10),66,81,65,41,33,25,,103,94,88,49,7,7,1.1,0.8
2025-03-21T2100,2550A,107.4988,31.2132,达州市,凤凰小区,细颗粒物(PM2.5),107,144,73,80,41,7,,101,81,104,54,10,9,1.9,0.8
2025-03-21T2100,2551A,107.5082,31.1986,达州市,达县机关宾馆,颗粒物(PM10),79,107,76,47,36,3,,93,76,90,53,6,6,1.0,0.8
2025-03-21T2100,2552A,107.4644,31.2124,达州市,市政中心,颗粒物(PM10),71,91,73,46,36,10,,100,86,99,54,5,8,1.0,1
2025-03-21T2100,2614A,100.1542,25.7054,大理白族自治州,大理市环境监测站,,48,48,73,31,41,97,,104,103,18,19,7,7,0.5,0.7
2025-03-21T2100,2615A,100.2171,25.5811,大理白族自治州,大理古城,,45,40,67,31,45,103,,102,102,10,15,6,6,0.6,0.8
2025-03-21T2100,1109A,121.612,38.9741,大连市,甘井子,,,52,57,12,20,92,,99,99,27,39,5,8,,0.4
2025-03-21T2100,1110A,121.565,38.9511,大连市,周水子,,48,48,61,13,29,80,,88,87,33,49,9,10,0.5,0.7
2025-03-21T2100,1111A,121.5637,38.8845,大连市,星海三站,,44,44,49,17,26,86,,90,62,22,27,11,10,0.7,0.8
2025-03-21T2100,1112A,121.6302,38.9117,大连市,青泥洼桥,颗粒物(PM10),51,51,51,16,24,76,,98,94,38,45,14,12,0.5,0.6
2025-03-21T2100,1113A,121.6251,38.8638,大连市,傅家庄,,38,38,47,15,29,84,,57,57,31,43,10,12,0.5,0.6
2025-03-21T2100,1114A,121.5213,38.8661,大连市,七贤岭,,31,21,34,8,18,97,,97,97,14,20,6,7,0.4,0.6
2025-03-21T2100,1115A,121.2529,38.8061,大连市,旅顺,,43,43,42,18,20,78,,57,57,31,44,8,10,0.4,0.6
2025-03-21T2100,1116A,121.7485,39.1311,大连市,金州,颗粒物(PM10),61,71,64,23,24,73,,67,67,44,49,11,13,0.8,0.9
2025-03-21T2100,1117A,121.7811,39.0496,大连市,开发区,颗粒物(PM10),72,94,79,37,41,39,,70,62,74,62,19,16,0.8,1.2
2025-03-21T2100,1118A,121.9762,39.0631,大连市,双D港,颗粒物(PM10),59,68,66,16,30,85,,102,99,35,33,10,7,0.6,0.8
2025-03-21T2100,1789A,124.81117,46.03138,大庆市,大同区,,33,33,48,21,36,41,,82,72,26,14,5,6,0.5,0.5
2025-03-21T2100,1790A,125.129,46.533,大庆市,龙凤区,,31,31,37,14,25,68,,77,70,10,18,6,8,0.3,0.6
2025-03-21T2100,1791A,124.902,46.408,大庆市,红岗区,,26,26,31,18,22,51,,82,70,17,19,5,5,0.6,0.5
2025-03-21T2100,1792A,125.153,46.586,大庆市,萨尔图区,,28,28,32,10,13,67,,72,68,8,16,7,9,0.3,0.3
2025-03-21T2100,1793A,124.9042,46.6215,大庆市,让胡路区,,26,23,26,18,21,62,,77,70,12,13,7,8,0.2,0.2
2025-03-21T2100,3481A,125.141,46.634,大庆市,萨区政府监测点,,23,23,28,3,8,67,,81,76,4,10,6,8,0.3,0.4
2025-03-21T2100,1721A,113.3819,40.1097,大同市,果树场,"颗粒物(PM10),细颗粒物(PM2.5)",55,60,45,39,18,52,,93,82,41,31,9,13,0.5,0.7
2025-03-21T2100,1723A,113.2994,40.0758,大同市,云冈宾馆,颗粒物(PM10),52,54,44,25,12,96,,104,103,17,21,10,11,0.5,0.6
2025-03-21T2100,1724A,113.3444,40.0917,大同市,大同大学,颗粒物(PM10),57,64,45,20,15,95,,103,102,11,22,12,17,0.4,0.6
2025-03-21T2100,1725A,113.2661,40.1269,大同市,安家小村,颗粒物(PM10),55,60,48,22,16,89,,102,100,15,16,13,14,0.3,1
2025-03-21T2100,1726A,113.2711,40.0844,大同市,教育学院,颗粒物(PM10),63,75,47,20,16,88,,104,102,22,22,10,10,0.5,0.7
2025-03-21T2100,3282A,113.3397,40.0597,大同市,大同市卫生学校,颗粒物(PM10),71,92,52,36,20,88,,98,97,21,30,7,10,0.4,0.5
2025-03-21T2100,3565A,113.1367,40.1122,大同市,云冈站,颗粒物(PM10),62,73,43,19,12,84,,100,97,16,17,11,15,0.3,0.4
2025-03-21T2100,3566A,113.1186,40.2556,大同市,图书馆,颗粒物(PM10),51,52,30,23,14,66,,96,92,17,10,13,10,0.7,0.5
2025-03-21T2100,3567A,113.5931,40.0461,大同市,区一中,颗粒物(PM10),55,60,59,18,13,71,,101,98,32,21,25,23,0.5,0.5
2025-03-21T2100,4199A,113.2798,40.0997,大同市,魏都大道141号,颗粒物(PM10),61,71,44,18,16,97,,106,104,16,24,14,14,0.4,0.7
2025-03-21T2100,2269A,124.1069,50.4097,大兴安岭地区,科技局,,27,17,20,16,14,84,,88,87,4,3,5,6,0.3,0.3
2025-03-21T2100,3663A,124.1164,50.4278,大兴安岭地区,红旗社区,,27,6,4,3,2,86,,89,88,2,2,3,4,0.3,0.3
2025-03-21T2100,1600A,124.3303,40.0625,丹东市,江湾东路,细颗粒物(PM2.5),64,67,73,46,56,96,,109,104,18,18,7,12,0.8,0.9
2025-03-21T2100,1601A,124.4256,40.1503,丹东市,临江后街,细颗粒物(PM2.5),100,120,87,75,58,80,,105,99,28,21,10,9,1.3,1.2
2025-03-21T2100,1602A,124.3933,40.1461,丹东市,元宝山,细颗粒物(PM2.5),98,92,81,73,58,80,,100,96,31,23,7,7,0.9,0.9
2025-03-21T2100,1603A,124.3633,40.1092,丹东市,民主桥,细颗粒物(PM2.5),87,111,76,64,57,70,,108,101,31,20,7,8,1.1,0.9
2025-03-21T2100,3541A,109.5726,19.5167,儋州市,第一中学子站,,46,39,40,25,22,145,,153,151,16,12,5,6,0.6,0.6
2025-03-21T2100,3542A,109.5567,19.5187,儋州市,东坡学校子站,,48,48,43,26,24,153,,163,160,10,11,6,6,0.6,0.6
2025-03-21T2100,2616A,98.5842,24.428,德宏傣族景颇族自治州,德宏州监测站,细颗粒物(PM2.5),119,123,102,90,70,46,,68,66,46,32,7,10,1.2,0.9
2025-03-21T2100,3677A,98.5881,24.4368,德宏傣族景颇族自治州,芒市人民政府综合楼,细颗粒物(PM2.5),119,128,105,90,69,37,,69,62,23,22,8,9,1.0,0.7
2025-03-21T2100,1901A,104.4239,31.1208,德阳市,东山公园,细颗粒物(PM2.5),68,68,73,49,52,93,,117,116,30,34,4,4,0.4,0.5
2025-03-21T2100,1902A,104.3826,31.1317,德阳市,西小区,细颗粒物(PM2.5),73,77,95,53,65,48,,112,105,76,49,2,6,0.8,0.8
2025-03-21T2100,1904A,104.3553,31.1091,德阳市,耐火材料厂,细颗粒物(PM2.5),103,141,96,77,70,20,,115,102,66,49,7,8,0.6,0.6
2025-03-21T2100,3639A,104.4019,31.1244,德阳市,市教育局,细颗粒物(PM2.5),80,69,72,59,59,42,,116,108,72,49,4,5,0.8,0.6
2025-03-21T2100,1622A,116.3032,37.4674,德州市,儿童乐园,,,,61,17,17,98,,116,114,18,25,7,10,0.8,0.7
2025-03-21T2100,1624A,116.2991,37.4451,德州市,监理站,颗粒物(PM10),65,80,57,24,19,81,,116,111,28,28,17,19,0.6,0.6
2025-03-21T2100,3066A,116.2721,37.4379,德州市,九衢泉纯净水厂,颗粒物(PM10),64,78,61,29,20,36,,110,97,71,39,10,15,0.7,0.6
2025-03-21T2100,3371A,116.3728,37.4403,德州市,开发区人民医院,颗粒物(PM10),53,56,53,9,12,109,,129,127,24,24,6,7,0.3,0.3
2025-03-21T2100,3372A,116.3572,37.4094,德州市,太阳城中学,颗粒物(PM10),63,75,59,27,18,74,,111,106,38,27,6,8,0.5,0.4
2025-03-21T2100,3511A,116.5652,37.3319,德州市,陵城艺术中心,颗粒物(PM10),68,85,58,24,18,77,,106,102,34,35,8,8,0.6,0.5
2025-03-21T2100,2621A,99.7056,27.8317,迪庆藏族自治州,迪庆州站,,46,46,40,17,23,114,,114,113,12,11,8,8,0.5,0.5
2025-03-21T2100,3180A,99.7136,27.8094,迪庆藏族自治州,质量技术监督局,,39,27,33,27,26,116,,117,115,11,11,9,8,0.6,0.6
2025-03-21T2100,4257A,104.6092,35.5962,定西市,将台街,颗粒物(PM10),75,99,82,41,37,59,,115,107,45,26,17,12,1.0,0.9
2025-03-21T2100,4309A,104.6159,35.5701,定西市,正龙路62号,颗粒物(PM10),68,86,79,34,39,82,,120,115,29,12,24,13,1.0,0.9
2025-03-21T2100,1389A,113.7547,23.0494,东莞市,莞城梨川,颗粒物(PM10),66,81,68,44,39,112,,165,153,53,35,6,7,0.8,0.7
2025-03-21T2100,1390A,113.7944,23.0128,东莞市,东城石井,颗粒物(PM10),62,74,57,38,32,145,,186,174,25,24,8,8,0.7,0.7
2025-03-21T2100,1391A,113.7383,22.9658,东莞市,南城西平,颗粒物(PM10),58,65,67,28,36,145,,180,174,40,51,7,8,0.7,0.7
2025-03-21T2100,3319A,113.7338,23.0381,东莞市,万江金泰,颗粒物(PM10),62,74,63,41,35,143,,186,172,48,32,7,7,0.7,0.7
2025-03-21T2100,3626A,113.7533,23.0202,东莞市,南城元岭,颗粒物(PM10),61,72,66,37,36,122,,169,156,57,34,8,8,0.6,0.6
2025-03-21T2100,3627A,113.7875,23.0457,东莞市,东城主山,颗粒物(PM10),65,80,68,39,35,121,,171,159,51,37,10,12,0.7,0.6
2025-03-21T2100,1666A,118.6614,37.4309,东营市,市环保局,颗粒物(PM10),60,70,61,17,19,76,,109,102,33,35,6,7,0.4,0.5
2025-03-21T2100,3036A,118.6904,37.4338,东营市,开发区管委会,颗粒物(PM10),59,67,65,19,26,75,,105,98,42,41,5,7,0.5,0.7
2025-03-21T2100,3365A,118.5719,37.565,东营市,垦利区民丰路,颗粒物(PM10),60,70,66,24,21,71,,111,103,37,38,13,15,0.5,0.6
2025-03-21T2100,3498A,118.5055,37.8612,东营市,河口城区,颗粒物(PM10),54,58,61,22,19,75,,111,106,23,36,6,11,0.8,0.7
2025-03-21T2100,3646A,118.4978,37.4623,东营市,胜利站,颗粒物(PM10),57,63,64,24,20,79,,101,95,34,41,11,10,1.1,0.7
2025-03-21T2100,3734A,118.35,37.26,东营市,理想之城,颗粒物(PM10),60,70,66,29,25,63,,108,99,38,33,6,9,0.4,0.5
2025-03-21T2100,1591A,110.0023,39.8129,鄂尔多斯市,综合楼,颗粒物(PM10),68,85,53,19,14,81,,101,96,26,14,6,5,0.3,0.3
2025-03-21T2100,1592A,109.9486,39.8261,鄂尔多斯市,巴音孟克林场办事处,颗粒物(PM10),71,92,51,36,17,75,,103,98,31,12,6,6,0.4,0.3
2025-03-21T2100,1593A,109.7736,39.5986,鄂尔多斯市,康泽苑,颗粒物(PM10),56,61,51,22,17,77,,103,99,17,9,2,2,0.3,0.3
2025-03-21T2100,1594A,109.8119,39.5989,鄂尔多斯市,华泰汽车城,颗粒物(PM10),59,68,51,27,21,67,,101,96,29,16,3,3,0.4,0.3
2025-03-21T2100,1595A,109.9734,39.7884,鄂尔多斯市,奥林花园,颗粒物(PM10),68,85,55,22,16,75,,103,98,31,16,4,4,0.3,0.3
2025-03-21T2100,2436A,114.8938,30.3994,鄂州市,市政府,细颗粒物(PM2.5),67,80,71,48,42,60,,133,122,50,39,7,11,1.2,0.9
2025-03-21T2100,2437A,114.8989,30.3714,鄂州市,赵家坝,颗粒物(PM10),56,62,60,39,30,77,,147,136,39,23,4,10,0.9,0.8
2025-03-21T2100,3654A,114.8094,30.4089,鄂州市,精准医疗中心,,,67,67,25,34,,,183,183,20,32,4,6,0.5,0.7
2025-03-21T2100,2454A,109.4978,30.2981,恩施土家族苗族自治州,湖北民院,细颗粒物(PM2.5),58,52,60,41,36,73,,96,96,19,26,3,3,0.4,0.4
2025-03-21T2100,2455A,109.4707,30.2798,恩施土家族苗族自治州,州电力总公司,细颗粒物(PM2.5),58,57,64,41,39,70,,89,89,23,29,6,6,0.3,0.4
2025-03-21T2100,3549A,109.5061,30.3772,恩施土家族苗族自治州,龙凤新区,颗粒物(PM10),61,72,55,38,34,46,,89,84,27,19,6,6,0.5,0.4
2025-03-21T2100,2499A,108.3411,21.6158,防城港市,沙万,,49,42,74,34,41,123,,132,131,28,32,8,13,0.3,0.3
2025-03-21T2100,2500A,108.3514,21.7731,防城港市,防城档案局,颗粒物(PM10),51,52,113,28,57,117,,149,145,17,38,4,4,0.5,0.7
2025-03-21T2100,2501A,108.3506,21.6414,防城港市,大海花园,颗粒物(PM10),51,52,72,32,43,134,,143,143,18,23,6,12,0.5,0.6
2025-03-21T2100,1371A,113.1294,23.0067,佛山市,湾梁,颗粒物(PM10),81,112,84,39,35,141,,188,188,84,51,9,8,0.9,0.7
2025-03-21T2100,1372A,113.1083,23.0478,佛山市,华材职中,颗粒物(PM10),74,97,79,46,38,146,,203,200,61,57,6,7,0.8,0.6
2025-03-21T2100,1373A,113.144,23.0453,佛山市,南海气象局,"颗粒物(PM10),细颗粒物(PM2.5)",70,89,68,51,39,165,,196,196,56,49,7,7,0.8,0.6
2025-03-21T2100,1374A,113.2881,22.8094,佛山市,顺德苏岗,细颗粒物(PM2.5),73,88,85,53,46,99,,178,170,64,43,7,8,1.0,0.8
2025-03-21T2100,1376A,112.8383,22.8678,佛山市,高明孔堂,臭氧1小时,87,77,73,44,48,189,,218,218,30,37,7,9,0.5,0.5
2025-03-21T2100,1377A,112.8836,23.1588,佛山市,三水监测站,二氧化氮,86,114,96,56,56,21,,164,129,172,96,4,6,0.7,0.7
2025-03-21T2100,1378A,112.867,23.185,佛山市,三水云东海,颗粒物(PM10),54,57,72,29,49,135,,197,191,46,71,1,7,0.5,0.7
2025-03-21T2100,3625A,113.2544,22.7642,佛山市,容桂街道办,颗粒物(PM10),69,88,79,46,44,102,,188,178,82,49,9,10,0.8,0.7
2025-03-21T2100,1280A,119.3903,26.0543,福州市,鼓山,,,,29,,13,,,126,,,6,,2,,0.3
2025-03-21T2100,1282A,119.2681,26.0504,福州市,师大,颗粒物(PM10),59,68,42,37,23,109,,141,137,33,20,5,5,0.4,0.3
2025-03-21T2100,1283A,119.2984,26.1028,福州市,五四北路,,47,47,39,23,23,80,,137,129,47,26,4,5,0.5,0.4
2025-03-21T2100,1284A,119.2648,26.0768,福州市,杨桥西路,,50,50,45,22,21,121,,140,138,26,23,5,5,0.4,0.3
2025-03-21T2100,1285A,119.317,26.0746,福州市,紫阳,,45,45,47,18,23,109,,128,124,28,28,5,4,0.3,0.3
2025-03-21T2100,3048A,119.5799,26.0936,福州市,九龙,,35,35,31,17,18,83,,138,129,20,16,4,4,0.2,0.2
2025-03-21T2100,3526A,119.5189,25.9664,福州市,吴航,,29,25,38,12,21,92,,143,134,25,24,4,5,0.2,0.4
2025-03-21T2100,1755A,123.7977,41.8491,抚顺市,望花区,颗粒物(PM10),81,112,124,50,62,76,,112,104,32,46,17,27,0.8,1.3
2025-03-21T2100,1756A,123.9161,41.8822,抚顺市,顺城区,颗粒物(PM10),80,110,123,40,60,76,,112,105,38,50,14,17,0.8,1.2
2025-03-21T2100,1757A,124.0436,41.8611,抚顺市,东洲区,颗粒物(PM10),75,99,122,40,63,81,,108,103,28,38,18,18,1.1,1.2
2025-03-21T2100,1758A,123.9247,41.8642,抚顺市,新抚区,颗粒物(PM10),83,115,117,39,65,82,,105,101,28,44,12,15,1.0,1.2
2025-03-21T2100,1759A,124.0972,41.8961,抚顺市,大伙房水库,颗粒物(PM10),71,91,102,37,58,87,,107,103,22,28,14,14,1.1,0.9
2025-03-21T2100,1760A,123.7086,41.8391,抚顺市,沈抚新城,,,100,111,52,60,,,113,112,38,51,23,21,0.7,1.1
2025-03-21T2100,2376A,116.2127,28.0814,抚州市,桐源党溪,,40,40,44,17,22,60,,116,108,2,11,4,14,0.0,0.1
2025-03-21T2100,2377A,116.3544,27.9831,抚州市,市站,颗粒物(PM10),65,79,47,40,23,46,,108,95,52,30,5,6,1.0,0.5
2025-03-21T2100,2378A,116.3565,27.963,抚州市,血防站,颗粒物(PM10),57,64,44,28,21,62,,117,105,29,25,7,8,0.7,0.3
2025-03-21T2100,2379A,116.3564,28.0007,抚州市,采茶剧团,颗粒物(PM10),57,64,44,38,22,64,,106,101,36,20,4,3,0.9,0.7
2025-03-21T2100,2380A,116.385,27.9647,抚州市,医学分院,颗粒物(PM10),53,55,51,23,19,56,,99,95,36,28,6,5,0.8,0.7
2025-03-21T2100,2207A,121.6094,41.998,阜新市,工业园区,细颗粒物(PM2.5),93,113,107,69,41,11,,101,74,77,34,14,19,0.7,0.6
2025-03-21T2100,2208A,121.6697,42.0279,阜新市,长青街,细颗粒物(PM2.5),83,96,76,61,32,20,,107,84,52,27,7,16,0.9,0.7
2025-03-21T2100,2209A,121.6673,42.0705,阜新市,农业园区,颗粒物(PM10),61,72,66,27,21,84,,107,96,13,15,9,15,0.5,0.5
2025-03-21T2100,2210A,121.6717,42.0224,阜新市,东苑,细颗粒物(PM2.5),70,86,85,51,29,25,,104,84,62,32,9,25,0.7,0.5
2025-03-21T2100,2211A,121.6506,42.0498,阜新市,玉龙新城,,,254,101,,32,41,,103,84,79,37,16,13,2.1,0.6
2025-03-21T2100,2301A,115.8277,32.8929,阜阳市,市监测站,颗粒物(PM10),54,57,40,30,21,56,,123,108,50,17,7,7,0.8,0.4
2025-03-21T2100,2303A,115.8554,32.8605,阜阳市,开发区,颗粒物(PM10),63,76,52,31,22,67,,128,116,48,18,9,7,0.3,0.3
2025-03-21T2100,2875A,115.784,32.8892,阜阳市,阜阳职业技术学院,,44,44,45,19,20,57,,120,108,56,19,9,8,0.5,0.4
2025-03-21T2100,3468A,115.7901,32.8613,阜阳市,市规划展馆,,32,28,44,13,19,102,,130,124,22,14,7,8,0.3,0.3
2025-03-21T2100,3469A,115.836,32.9183,阜阳市,枣园社区,,46,46,42,19,19,78,,133,120,39,15,6,7,0.5,0.3
2025-03-21T2100,2669A,102.9099,34.9841,甘南藏族自治州,州政府,,44,44,48,30,26,86,,92,90,10,20,7,6,0.3,0.4
2025-03-21T2100,3380A,102.8914,34.9617,甘南藏族自治州,甘肃民族师范学院,,42,42,51,23,25,101,,103,102,3,18,8,10,0.4,0.4
2025-03-21T2100,2570A,101.9603,30.0475,甘孜藏族自治州,水桥子,,18,8,9,3,9,56,,73,72,24,16,3,3,0.4,0.4
2025-03-21T2100,3065A,101.9533,29.9972,甘孜藏族自治州,州环保局,,28,,10,19,7,70,,75,74,15,12,4,4,0.3,0.4
2025-03-21T2100,3414A,115.8347,28.932,赣江新区,桑海产业园,颗粒物(PM10),65,80,55,34,24,79,,125,120,60,47,14,12,0.5,0.4
2025-03-21T2100,2362A,114.9017,25.9149,赣州市,通天岩,,39,39,34,8,9,103,,155,138,6,6,14,14,0.5,0.4
2025-03-21T2100,2363A,114.9367,25.8664,赣州市,地委,颗粒物(PM10),52,54,38,23,19,46,,123,109,53,22,3,3,0.8,0.7
2025-03-21T2100,2364A,114.9461,25.8481,赣州市,气象台,颗粒物(PM10),57,64,46,22,19,63,,145,130,63,35,9,10,0.7,0.5
2025-03-21T2100,2365A,114.9322,25.8333,赣州市,市图书馆,颗粒物(PM10),59,68,42,25,22,57,,136,123,56,34,3,5,0.9,0.6
2025-03-21T2100,2366A,114.8905,25.8471,赣州市,华坚鞋城,颗粒物(PM10),63,76,47,40,24,12,,131,107,99,33,9,12,1.2,0.6
2025-03-21T2100,3109A,115.0093,25.8613,赣州市,赣县区卫计委,颗粒物(PM10),53,55,37,30,21,41,,126,112,54,24,4,6,0.7,0.4
2025-03-21T2100,2683A,106.2319,36.1417,固原市,马园,颗粒物(PM10),64,77,88,36,36,41,,105,91,56,41,6,6,0.6,0.8
2025-03-21T2100,2684A,106.2792,36.0022,固原市,监测站,颗粒物(PM10),70,89,71,46,33,64,,117,109,38,19,12,9,0.7,0.7
2025-03-21T2100,2685A,106.2375,36.0211,固原市,新区,颗粒物(PM10),66,82,100,33,34,54,,114,104,55,40,6,7,0.7,0.8
2025-03-21T2100,3522A,106.2177,35.9959,固原市,原州区十五小,颗粒物(PM10),76,102,68,53,28,74,,113,107,37,18,9,7,0.8,0.6
2025-03-21T2100,2543A,106.6308,30.5278,广安市,小平旧居,,,,,,,,,,,,,,,,
2025-03-21T2100,2544A,106.6303,30.4576,广安市,市委,细颗粒物(PM2.5),83,77,66,61,48,81,,110,110,32,31,7,4,0.5,0.5
2025-03-21T2100,2545A,106.6271,30.4663,广安市,友谊中学,细颗粒物(PM2.5),77,84,66,56,42,89,,115,115,34,34,6,4,0.7,0.7
2025-03-21T2100,2547A,106.6388,30.4551,广安市,广电花园,细颗粒物(PM2.5),88,72,63,65,48,87,,111,108,29,32,7,5,0.5,0.8
2025-03-21T2100,2902A,106.6351,30.4865,广安市,北辰小学,细颗粒物(PM2.5),79,71,59,58,41,95,,122,122,28,25,11,6,0.5,0.5
2025-03-21T2100,2523A,105.8945,32.4535,广元市,黑石坡,,,,61,,36,,,38,,,22,,11,,0.5
2025-03-21T2100,2524A,105.821,32.4444,广元市,老城,,50,44,53,35,25,15,,89,83,81,44,1,2,0.7,1.2
2025-03-21T2100,2526A,105.8628,32.4287,广元市,监测站,,35,35,46,23,30,62,,92,92,38,27,5,5,0.4,0.6
2025-03-21T2100,3617A,105.8047,32.4166,广元市,经开区,,39,39,69,27,48,59,,83,83,40,42,4,13,0.5,0.8
2025-03-21T2100,1345A,113.2347,23.1423,广州市,广雅中学,颗粒物(PM10),80,109,91,51,48,94,,184,170,93,67,5,5,0.8,0.6
2025-03-21T2100,1346A,113.2612,23.105,广州市,市五中,"颗粒物(PM10),细颗粒物(PM2.5)",70,89,76,51,43,96,,206,197,81,48,4,5,0.8,0.6
2025-03-21T2100,1348A,113.3478,23.0916,广州市,广东商学院,颗粒物(PM10),78,105,77,50,46,108,,217,205,85,66,6,6,0.9,0.6
2025-03-21T2100,1349A,113.4332,23.1047,广州市,市八十六中,颗粒物(PM10),70,90,78,41,42,77,,199,183,135,78,7,6,0.6,0.6
2025-03-21T2100,1350A,113.3505,22.9483,广州市,番禺中学,颗粒物(PM10),79,107,76,50,44,83,,209,198,104,54,6,6,1.0,0.6
2025-03-21T2100,1351A,113.2146,23.3916,广州市,花都师范,"颗粒物(PM10),细颗粒物(PM2.5)",77,104,88,56,47,81,,182,171,87,74,6,7,0.8,0.5
2025-03-21T2100,1352A,113.2597,23.1331,广州市,市监测站,颗粒物(PM10),79,107,74,43,37,153,,217,211,63,57,7,7,0.8,0.7
2025-03-21T2100,1353A,113.5618,23.312,广州市,九龙镇镇龙,颗粒物(PM10),74,98,70,45,37,5,,144,113,117,51,5,6,0.8,0.6
2025-03-21T2100,1354A,113.2765,23.1544,广州市,麓湖,"二氧化氮,颗粒物(PM10)",58,66,74,34,38,61,,209,192,116,66,4,5,0.7,0.6
2025-03-21T2100,1355A,113.443,23.3035,广州市,帽峰山森林公园,臭氧1小时,78,60,51,13,26,182,,171,171,24,27,8,7,0.5,0.5
2025-03-21T2100,2846A,113.3221,23.1322,广州市,体育西,颗粒物(PM10),87,123,82,57,48,83,,210,198,86,51,6,6,1.0,0.7
2025-03-21T2100,3298A,113.5717,23.5491,广州市,从化街口,细颗粒物(PM2.5),90,104,46,67,31,64,,162,142,55,40,8,9,0.8,0.6
2025-03-21T2100,3299A,113.3472,23.3692,广州市,白云竹料,细颗粒物(PM2.5),92,122,71,68,39,48,,175,153,100,56,9,8,1.1,0.7
2025-03-21T2100,3300A,113.2981,23.237,广州市,白云嘉禾,二氧化氮,74,87,83,45,42,43,,168,144,148,69,5,5,0.8,0.5
2025-03-21T2100,3301A,113.4256,23.1716,广州市,黄埔科学城,颗粒物(PM10),58,66,62,32,36,83,,196,180,62,48,7,8,0.6,0.5
2025-03-21T2100,3302A,113.3942,23.0483,广州市,番禺大学城,颗粒物(PM10),60,69,77,32,37,134,,214,207,58,57,8,9,0.4,0.4
2025-03-21T2100,3303A,113.4922,22.8168,广州市,南沙黄阁,颗粒物(PM10),58,65,74,20,40,128,,204,187,38,47,6,7,0.5,0.6
2025-03-21T2100,3304A,113.5342,22.7896,广州市,南沙街,颗粒物(PM10),56,62,66,18,34,136,,207,193,32,44,5,7,0.6,0.6
2025-03-21T2100,3443A,113.2902,23.5544,广州市,花都梯面,,42,41,43,25,24,32,,155,124,84,41,6,7,0.6,0.6
2025-03-21T2100,3445A,113.7858,23.7478,广州市,从化良口,,32,28,27,18,20,102,,140,130,15,16,7,7,0.3,0.3
2025-03-21T2100,3446A,113.8051,23.2614,广州市,增城荔城,细颗粒物(PM2.5),72,79,50,52,30,84,,171,154,40,24,8,9,0.8,0.6
2025-03-21T2100,2505A,109.568,23.1478,贵港市,德智高中,,,,,,,,,,,,,,,,
2025-03-21T2100,2506A,109.6047,23.0666,贵港市,江南子站,细颗粒物(PM2.5),113,144,110,85,67,81,,196,183,63,44,9,14,1.3,1
2025-03-21T2100,2507A,109.6014,23.0948,贵港市,贵城子站,细颗粒物(PM2.5),105,118,85,79,60,61,,187,171,70,39,10,14,1.4,0.9
2025-03-21T2100,2508A,109.5669,23.1065,贵港市,荷城子站,细颗粒物(PM2.5),79,105,81,58,48,94,,158,149,45,37,12,14,0.9,0.8
2025-03-21T2100,3405A,109.5886,23.1172,贵港市,新世纪学校,细颗粒物(PM2.5),103,139,84,77,51,59,,170,153,72,34,5,8,1.0,0.7
2025-03-21T2100,1439A,106.6899,26.5998,贵阳市,马鞍山,,44,44,45,27,30,58,,114,106,25,17,8,12,0.5,0.4
2025-03-21T2100,1441A,106.6243,26.6266,贵阳市,鉴湖路,颗粒物(PM10),67,83,55,44,27,74,,111,108,40,20,13,11,0.6,0.4
2025-03-21T2100,1442A,106.7487,26.6343,贵阳市,燕子冲,,,63,56,48,42,72,,119,112,,8,10,16,0.7,0.5
2025-03-21T2100,1443A,106.6555,26.4365,贵阳市,碧云窝,细颗粒物(PM2.5),79,90,61,58,31,86,,123,120,36,22,18,18,0.6,0.5
2025-03-21T2100,1445A,106.7109,26.6027,贵阳市,红边门,细颗粒物(PM2.5),100,119,60,75,39,4,,109,87,104,36,84,26,1.7,0.5
2025-03-21T2100,1446A,106.7164,26.5699,贵阳市,新华路,颗粒物(PM10),81,112,60,58,38,6,,111,90,99,27,62,43,1.2,0.5
2025-03-21T2100,1447A,106.674,26.5424,贵阳市,太慈桥,颗粒物(PM10),64,78,53,41,30,28,,116,103,74,35,11,15,0.7,0.5
2025-03-21T2100,1552A,106.805,26.3003,贵阳市,桐木岭,细颗粒物(PM2.5),105,105,69,79,45,101,,121,120,10,7,21,15,0.5,0.5
2025-03-21T2100,4230A,106.6882,26.5695,贵阳市,花果园大街66号,细颗粒物(PM2.5),90,100,50,67,38,32,,100,94,90,29,21,16,1.2,0.6
2025-03-21T2100,4231A,106.6873,26.5169,贵阳市,漓江路57号,细颗粒物(PM2.5),70,83,53,51,34,46,,108,100,59,28,22,21,0.6,0.4
2025-03-21T2100,1862A,110.4144,25.3167,桂林市,电子科大尧山校区,,,,,,,,,,,,,,,,
2025-03-21T2100,1864A,110.3089,25.2708,桂林市,龙隐路小学,细颗粒物(PM2.5),99,,57,74,41,59,,140,127,48,22,11,21,1.1,0.8
2025-03-21T2100,1865A,110.2869,25.2178,桂林市,八中,颗粒物(PM10),63,75,63,44,41,72,,135,124,30,34,9,14,0.7,0.6
2025-03-21T2100,3531A,110.296,25.1253,桂林市,旅游学院,颗粒物(PM10),52,53,56,29,36,75,,134,125,34,27,9,12,0.5,0.5
2025-03-21T2100,4222A,110.1835,25.2444,桂林市,环湖路276号,细颗粒物(PM2.5),67,75,67,48,44,50,,124,116,44,42,11,24,0.6,0.5
2025-03-21T2100,4301A,110.2803,25.2773,桂林市,信义路13号,细颗粒物(PM2.5),88,66,57,65,43,41,,149,133,70,30,13,19,0.9,0.5
2025-03-21T2100,2674A,100.2561,34.4714,果洛藏族自治州,玛沁县大武镇,颗粒物(PM10),51,52,54,28,20,96,,103,102,1,2,10,12,0.4,0.4
2025-03-21T2100,1129A,126.5422,45.755,哈尔滨市,岭北,,26,25,108,18,104,52,,90,80,20,40,26,27,0.9,1.3
2025-03-21T2100,1130A,126.561,45.8167,哈尔滨市,松北商大,,36,,99,25,89,48,,84,74,20,34,6,11,0.5,0.8
2025-03-21T2100,1131A,126.979,45.5419,哈尔滨市,阿城会宁,,29,,208,20,152,52,,94,84,16,51,3,18,0.6,1.2
2025-03-21T2100,1132A,126.599,45.7222,哈尔滨市,南岗学府路,,27,27,137,9,92,60,,81,77,16,45,6,14,0.6,1
2025-03-21T2100,1133A,126.689,45.7733,哈尔滨市,太平宏伟公园,,46,,85,32,72,51,,84,75,26,40,6,12,0.7,0.7
2025-03-21T2100,1134A,126.635,45.7667,哈尔滨市,道外承德广场,,31,31,129,17,88,51,,79,70,19,38,6,11,0.4,0.8
2025-03-21T2100,1135A,126.685,45.7319,哈尔滨市,香坊红旗大街,,30,,108,21,82,56,,80,73,19,42,7,20,0.5,0.8
2025-03-21T2100,1136A,126.6411,45.7258,哈尔滨市,动力和平路,,38,,106,26,100,58,,80,74,18,41,6,14,0.4,0.7
2025-03-21T2100,1137A,126.593,45.7478,哈尔滨市,道里建国路,,45,,115,31,100,60,,77,73,12,38,12,21,0.3,0.7
2025-03-21T2100,1138A,126.615,45.61,哈尔滨市,平房东轻厂,细颗粒物(PM2.5),53,,149,37,129,48,,88,76,27,47,8,15,0.6,1
2025-03-21T2100,1139A,126.595,45.9855,哈尔滨市,呼兰师专,,38,,57,26,50,52,,74,66,20,23,8,9,0.6,0.6
2025-03-21T2100,1140A,126.6206,45.6842,哈尔滨市,省农科院,,43,,173,30,128,57,,82,73,22,51,11,19,0.6,1
2025-03-21T2100,2688A,93.5128,42.8172,哈密市,地区监测站,颗粒物(PM10),87,123,115,32,74,59,,83,81,33,21,4,4,0.4,0.2
2025-03-21T2100,2689A,93.4961,42.8328,哈密市,哈密师范学校,颗粒物(PM10),83,115,88,36,30,56,,86,84,33,28,5,6,0.3,0.2
2025-03-21T2100,2671A,100.9048,36.9639,海北藏族自治州,海晏县西海镇,颗粒物(PM10),54,57,51,29,28,90,,118,114,9,8,10,12,0.5,0.6
2025-03-21T2100,3867A,102.0738,36.5056,海东市,平安区公安北苑,颗粒物(PM10),59,68,66,27,34,101,,117,116,13,15,10,13,0.6,0.7
2025-03-21T2100,1409A,110.576,19.9507,海口市,东寨港,,43,30,41,29,31,137,,151,150,8,13,5,4,0.3,0.4
2025-03-21T2100,1410A,110.3232,20.0574,海口市,海南大学,颗粒物(PM10),56,62,50,30,26,156,,166,166,17,14,3,3,0.3,0.3
2025-03-21T2100,1411A,110.283,20.0053,海口市,秀英海南医院,臭氧1小时,57,59,47,29,27,165,,174,174,17,22,6,5,0.4,0.4
2025-03-21T2100,1412A,110.338,19.9969,海口市,海南师范大学,臭氧1小时,55,56,45,30,25,164,,182,182,12,12,4,4,0.4,0.4
2025-03-21T2100,1413A,110.33,20.0356,海口市,龙华路环保局宿舍,"颗粒物(PM10),臭氧1小时",54,57,47,31,26,163,,173,173,10,10,5,5,0.4,0.4
2025-03-21T2100,3539A,110.5111,19.9736,海口市,桂林洋子站,颗粒物(PM10),52,53,48,29,28,152,,172,170,12,14,4,4,0.4,0.4
2025-03-21T2100,2673A,100.6188,36.2866,海南藏族自治州,共和县恰卜恰镇,颗粒物(PM10),53,56,53,24,30,89,,117,112,16,16,12,13,0.5,0.6
2025-03-21T2100,2676A,97.3731,37.3753,海西蒙古族藏族自治州,德令哈市,,44,44,52,25,18,100,,109,109,8,3,10,13,0.5,0.4
2025-03-21T2100,1048A,114.5302,36.6116,邯郸市,东污水处理厂,颗粒物(PM10),56,62,32,39,12,82,,107,104,38,34,5,10,0.5,0.9
2025-03-21T2100,1049A,114.4918,36.5713,邯郸市,矿院,颗粒物(PM10),75,100,51,27,8,73,,103,100,31,19,7,10,0.4,0.8
2025-03-21T2100,1050A,114.484,36.6133,邯郸市,丛台公园,颗粒物(PM10),52,54,33,30,11,86,,111,109,25,21,3,9,0.4,0.8
2025-03-21T2100,3458A,114.7895,36.5593,邯郸市,香泉濮院小区,颗粒物(PM10),55,59,54,16,13,96,,113,113,17,28,4,10,0.4,0.7
2025-03-21T2100,3579A,114.50634,36.77178,邯郸市,永年区实验高中,颗粒物(PM10),57,63,52,29,14,103,,117,117,20,20,8,22,0.7,1.2
2025-03-21T2100,3580A,114.20016,36.44293,邯郸市,峰峰矿区临水派出所,,35,26,17,24,8,70,,114,109,46,9,22,11,3.1,0.6
2025-03-21T2100,2634A,106.9893,33.1842,汉中市,汉川机床厂子校,,37,37,39,23,25,87,,114,111,6,6,6,7,0.4,0.4
2025-03-21T2100,2635A,107.0154,33.0706,汉中市,市监测站,细颗粒物(PM2.5),75,94,58,55,38,54,,106,94,48,28,7,8,0.9,0.8
2025-03-21T2100,2636A,107.0089,33.1138,汉中市,鑫源开发区,细颗粒物(PM2.5),73,84,52,53,33,33,,110,99,72,27,6,9,0.8,0.7
2025-03-21T2100,2637A,107.007,33.0323,汉中市,南郑大河坎水厂,细颗粒物(PM2.5),74,93,57,54,33,65,,111,102,34,21,8,8,0.7,0.7
2025-03-21T2100,1223A,120.2072,30.2111,杭州市,滨江,颗粒物(PM10),53,55,48,30,24,106,,145,138,41,41,8,8,0.4,0.4
2025-03-21T2100,1224A,120.0633,30.2747,杭州市,西溪,,48,48,36,22,21,45,,143,120,24,32,6,7,0.4,0.4
2025-03-21T2100,1226A,120.3417,30.3150,杭州市,下沙,二氧化氮,77,64,46,31,21,9,,135,103,154,56,7,7,0.4,0.4
2025-03-21T2100,1227A,120.1269,30.2456,杭州市,卧龙桥,,28,28,28,17,17,50,,142,112,40,30,6,6,0.3,0.2
2025-03-21T2100,1228A,120.1903,30.2692,杭州市,浙江农大,颗粒物(PM10),69,87,55,49,28,6,,137,110,108,50,4,3,0.8,0.5
2025-03-21T2100,1230A,120.1197,30.3119,杭州市,和睦小学,颗粒物(PM10),63,75,42,33,27,19,,140,119,85,48,7,8,0.9,0.6
2025-03-21T2100,1231A,120.3019,30.4183,杭州市,临平镇,颗粒物(PM10),67,83,57,39,24,30,,142,119,112,60,8,7,0.6,0.4
2025-03-21T2100,1232A,120.2753,30.1839,杭州市,城厢镇,颗粒物(PM10),56,62,47,33,26,110,,147,138,51,48,9,8,0.5,0.5
2025-03-21T2100,1233A,120.0883,30.1808,杭州市,云栖,,30,30,28,15,15,71,,146,120,32,26,7,8,0.4,0.4
2025-03-21T2100,3557A,119.9464,30.0494,杭州市,镇二中,,44,37,36,21,25,24,,130,107,88,48,6,7,0.5,0.5
2025-03-21T2100,3558A,119.7183,30.2367,杭州市,市府大楼,颗粒物(PM10),59,67,37,32,22,49,,136,107,48,30,8,8,0.6,0.5
2025-03-21T2100,3656A,120.1556,30.2864,杭州市,消防大队,细颗粒物(PM2.5),102,117,44,76,25,47,,148,128,82,45,7,7,0.9,0.4
2025-03-21T2100,1270A,117.1959,31.7848,合肥市,明珠广场,细颗粒物(PM2.5),64,75,49,46,24,55,,135,113,77,40,7,5,0.6,0.3
2025-03-21T2100,1271A,117.3072,31.8764,合肥市,三里街,颗粒物(PM10),81,112,57,53,27,4,,128,96,112,56,10,7,1.4,0.6
2025-03-21T2100,1272A,117.2588,31.8707,合肥市,琥珀山庄,颗粒物(PM10),68,85,54,46,27,27,,127,103,82,43,3,3,1.1,0.5
2025-03-21T2100,1273A,117.1604,31.9052,合肥市,董铺水库,,46,46,45,12,17,79,,128,122,42,29,3,3,0.5,0.3
2025-03-21T2100,1274A,117.25,31.8571,合肥市,长江中路,颗粒物(PM10),67,83,50,47,27,40,,132,111,86,37,9,8,0.7,0.2
2025-03-21T2100,1275A,117.266,31.9436,合肥市,庐阳区,颗粒物(PM10),54,58,48,24,21,76,,130,119,51,31,6,5,0.4,0.3
2025-03-21T2100,1276A,117.3453,31.8616,合肥市,瑶海区,颗粒物(PM10),56,61,58,20,22,59,,121,108,74,55,7,7,0.5,0.4
2025-03-21T2100,1277A,117.3027,31.7964,合肥市,包河区,颗粒物(PM10),56,61,53,27,25,44,,122,99,86,58,5,5,0.6,0.5
2025-03-21T2100,1278A,117.2776,31.7385,合肥市,滨湖新区,颗粒物(PM10),63,75,54,36,29,93,,124,112,49,64,10,9,0.5,0.4
2025-03-21T2100,1279A,117.1318,31.8403,合肥市,高新区,颗粒物(PM10),51,51,45,24,19,55,,132,116,76,25,3,3,0.9,0.5
2025-03-21T2100,3464A,117.3803,31.9147,合肥市,高教基地,颗粒物(PM10),51,52,58,20,26,71,,132,114,43,59,8,8,0.4,0.4
2025-03-21T2100,3614A,79.924,37.0877,和田地区,地区环保局,颗粒物(PM10),119,188,182,51,52,84,,93,93,18,13,3,2,0.6,0.6
2025-03-21T2100,3615A,79.9131,37.113,和田地区,市环保局,颗粒物(PM10),106,162,179,40,43,97,,102,102,4,13,1,1,0.5,0.5
2025-03-21T2100,2516A,108.2011,24.715,河池市,东仁乐园,细颗粒物(PM2.5),67,,61,48,33,50,,122,115,43,34,8,10,0.6,0.6
2025-03-21T2100,2517A,108.0497,24.6947,河池市,市环保站,,38,,42,26,28,88,,127,124,15,23,6,7,0.5,0.5
2025-03-21T2100,2518A,108.0983,24.6989,河池市,市疾控中心,颗粒物(PM10),56,61,52,39,33,44,,127,120,65,33,8,10,0.6,0.5
2025-03-21T2100,1696A,114.6778,23.7569,河源市,源西,颗粒物(PM10),61,72,50,34,27,48,,131,105,48,24,5,7,0.8,0.7
2025-03-21T2100,1697A,114.6944,23.7586,河源市,东埔,颗粒物(PM10),78,106,49,40,25,26,,139,109,81,37,5,7,1.2,0.7
2025-03-21T2100,1698A,114.6892,23.7233,河源市,老城,细颗粒物(PM2.5),117,,39,88,24,85,,140,128,20,21,5,6,0.5,0.5
2025-03-21T2100,1718A,115.4208,35.2464,菏泽市,气象局,颗粒物(PM10),63,76,62,28,27,75,,120,113,45,23,5,6,0.5,0.4
2025-03-21T2100,3374A,115.5564,35.0891,菏泽市,定陶老年大学,颗粒物(PM10),63,75,55,27,20,77,,113,108,31,23,5,5,0.4,0.4
2025-03-21T2100,4184A,115.4797,35.24401,菏泽市,永昌路1号,颗粒物(PM10),58,66,63,31,26,84,,114,110,35,24,9,11,0.2,0.3
2025-03-21T2100,4193A,115.4715,35.2800,菏泽市,长城路999号,颗粒物(PM10),59,68,59,19,17,84,,110,107,39,26,7,8,0.5,0.6
2025-03-21T2100,2514A,111.5264,24.4172,贺州市,环保小区,,,105,54,53,35,86,,150,143,,22,9,9,1.0,0.7
2025-03-21T2100,2515A,111.5608,24.4078,贺州市,政协大楼,细颗粒物(PM2.5),75,84,50,55,32,59,,140,128,62,36,13,10,0.8,0.6
2025-03-21T2100,3534A,111.4744,24.4553,贺州市,西湾,颗粒物(PM10),57,64,51,36,34,70,,137,126,56,38,10,8,0.8,0.6
2025-03-21T2100,2385A,114.17,35.9019,鹤壁市,市监测站,颗粒物(PM10),69,88,48,31,13,69,,112,100,36,22,6,6,0.5,0.4
2025-03-21T2100,2386A,114.2956,35.7511,鹤壁市,市交警支队,颗粒物(PM10),60,69,49,28,14,59,,103,99,37,24,6,7,0.4,0.3
2025-03-21T2100,2387A,114.2878,35.7306,鹤壁市,迎宾馆,颗粒物(PM10),64,77,51,18,11,70,,112,106,24,13,5,4,0.4,0.4
2025-03-21T2100,3474A,114.2617,35.6822,鹤壁市,大新区,颗粒物(PM10),60,69,58,16,18,42,,105,95,57,39,6,7,0.4,0.5
2025-03-21T2100,3596A,114.1572,35.9603,鹤壁市,南山宾馆,颗粒物(PM10),56,62,37,25,14,97,,113,108,14,8,10,5,0.4,0.3
2025-03-21T2100,2244A,130.2537,47.3416,鹤岗市,哈啤分公司,,27,25,29,18,22,84,,88,87,2,7,15,16,0.3,0.4
2025-03-21T2100,2245A,130.2684,47.3086,鹤岗市,斯达机电,,30,,34,21,23,78,,83,82,3,7,14,15,0.3,0.3
2025-03-21T2100,2246A,130.3114,47.3388,鹤岗市,东山纸板厂,,28,24,43,19,31,76,,81,80,7,18,24,23,0.2,1.1
2025-03-21T2100,2247A,130.1097,47.3382,鹤岗市,五号水库,,,,,,,,,,,,,,,,
2025-03-21T2100,2263A,127.4833,50.2524,黑河市,交通局,,27,21,17,14,12,85,,85,84,3,5,6,6,0.5,0.4
2025-03-21T2100,2264A,127.5144,50.2341,黑河市,环保局,,32,32,19,15,14,75,,90,81,11,5,9,5,0.4,0.3
2025-03-21T2100,2265A,127.5291,50.2472,黑河市,大黑河岛,,,30,23,3,6,14,,14,14,16,19,3,2,,
2025-03-21T2100,1074A,115.6838,37.7541,衡水市,电机北厂,,47,47,57,21,18,108,,118,118,14,18,4,5,0.4,0.4
2025-03-21T2100,1075A,115.6303,37.7316,衡水市,市监测站,,39,39,46,10,12,107,,117,117,14,18,11,11,0.3,0.3
2025-03-21T2100,3188A,115.6683,37.7217,衡水市,市城管局,颗粒物(PM10),53,56,51,31,19,92,,113,112,19,18,13,14,0.3,0.3
2025-03-21T2100,3459A,115.5989,37.5491,衡水市,地表水厂,颗粒物(PM10),66,81,60,30,17,56,,120,106,52,27,13,15,0.3,0.5
2025-03-21T2100,2456A,112.5003,26.9167,衡阳市,原169医院,颗粒物(PM10),60,69,53,34,30,66,,116,108,55,28,11,13,0.6,0.6
2025-03-21T2100,2457A,112.6194,26.9258,衡阳市,衡阳化工总厂,细颗粒物(PM2.5),83,84,73,61,50,76,,160,146,44,32,8,11,0.7,0.7
2025-03-21T2100,2458A,112.6211,26.8956,衡阳市,珠晖区环保局,细颗粒物(PM2.5),73,87,72,53,44,54,,156,138,63,38,11,11,1.2,0.9
2025-03-21T2100,2459A,112.6197,26.8733,衡阳市,市委党校,"颗粒物(PM10),细颗粒物(PM2.5)",69,88,73,50,45,77,,148,134,47,37,10,14,0.8,0.9
2025-03-21T2100,2460A,112.6006,26.8919,衡阳市,市监测站,细颗粒物(PM2.5),74,85,80,54,52,55,,150,134,55,42,9,13,1.2,1
2025-03-21T2100,2461A,112.5664,26.9056,衡阳市,真空机电公司,颗粒物(PM10),63,75,80,38,43,108,,150,144,33,41,8,11,0.8,1
2025-03-21T2100,3399A,112.6703,26.882,衡阳市,师范学院,颗粒物(PM10),68,86,72,47,48,93,,153,143,28,32,11,14,0.8,0.8
2025-03-21T2100,2608A,103.3772,23.3993,红河哈尼族彝族自治州,污水处理厂,细颗粒物(PM2.5),84,68,50,62,44,104,,108,108,9,9,9,8,0.5,0.4
2025-03-21T2100,2609A,103.3861,23.35,红河哈尼族彝族自治州,监测站,细颗粒物(PM2.5),87,,62,64,38,105,,110,110,11,8,11,8,0.3,0.2
2025-03-21T2100,3038A,103.3758,23.368,红河哈尼族彝族自治州,州图书馆,细颗粒物(PM2.5),72,58,48,52,37,99,,108,107,15,11,9,7,0.5,0.4
2025-03-21T2100,1090A,111.6507,40.7517,呼和浩特市,呼市一监,颗粒物(PM10),73,95,72,35,30,62,,93,90,21,20,12,11,0.6,0.7
2025-03-21T2100,1091A,111.6572,40.8033,呼和浩特市,小召,颗粒物(PM10),75,100,67,35,27,56,,97,91,36,29,8,5,0.5,0.5
2025-03-21T2100,1094A,111.7516,40.8369,呼和浩特市,如意水处理厂,颗粒物(PM10),60,69,58,26,25,77,,93,93,21,26,6,8,0.4,0.4
2025-03-21T2100,1095A,111.7276,40.8062,呼和浩特市,二十九中,,,81,58,35,25,,,100,,50,23,5,6,0.5,0.8
2025-03-21T2100,1096A,111.5512,40.7866,呼和浩特市,工大金川校区,颗粒物(PM10),73,95,66,36,30,43,,99,95,41,32,20,9,0.6,0.6
2025-03-21T2100,1097A,111.717,40.7612,呼和浩特市,化肥厂生活区,颗粒物(PM10),84,117,70,39,28,48,,98,92,46,27,11,10,0.6,0.5
2025-03-21T2100,3698A,111.5968,40.8178,呼和浩特市,红旗小学,颗粒物(PM10),85,119,62,39,25,34,,103,97,67,29,7,7,0.7,0.6
2025-03-21T2100,3699A,111.6518,40.8389,呼和浩特市,海东办,颗粒物(PM10),59,68,54,26,25,67,,95,94,30,20,5,7,0.5,0.5
2025-03-21T2100,2192A,119.7594,49.2261,呼伦贝尔市,区环保局,,32,29,25,22,22,60,,79,72,23,12,6,6,0.4,0.3
2025-03-21T2100,3061A,119.7512,49.1577,呼伦贝尔市,国华电力东,,33,33,28,15,15,53,,85,75,13,6,5,4,0.5,0.3
2025-03-21T2100,1250A,120.0751,30.8669,湖州市,城西水厂,二氧化氮,62,69,52,29,25,10,,127,89,123,81,8,9,0.4,0.3
2025-03-21T2100,2873A,120.0830,30.8929,湖州市,仁皇山新区,颗粒物(PM10),51,52,45,26,23,47,,145,121,84,56,6,6,0.6,0.5
2025-03-21T2100,2907A,120.1844,30.8596,湖州市,吴兴区站,,49,49,43,28,22,83,,140,127,42,52,9,7,0.3,0.3
2025-03-21T2100,3562A,120.4148,30.8538,湖州市,南浔区站,颗粒物(PM10),51,52,53,24,29,103,,146,138,32,37,5,5,0.3,0.4
2025-03-21T2100,1607A,120.9049,40.7211,葫芦岛市,龙港区,,28,28,54,15,17,51,,92,82,40,31,9,14,0.4,0.6
2025-03-21T2100,1608A,120.8392,40.7514,葫芦岛市,化工街,,41,41,72,12,32,51,,100,89,42,43,12,18,0.5,0.8
2025-03-21T2100,1609A,120.8341,40.7073,葫芦岛市,新区,,30,30,39,9,15,81,,106,99,21,33,10,13,0.3,0.5
2025-03-21T2100,1610A,120.8695,40.7677,葫芦岛市,东城区,颗粒物(PM10),52,54,83,32,33,8,,99,78,95,49,15,31,0.8,0.8
2025-03-21T2100,2482A,109.5981,27.5721,怀化市,林科所,,30,27,31,17,19,93,,116,114,6,14,10,11,0.7,0.5
2025-03-21T2100,2483A,109.9453,27.5444,怀化市,河西地税局,细颗粒物(PM2.5),85,83,48,63,32,46,,94,86,28,19,9,9,0.6,0.5
2025-03-21T2100,2484A,109.9781,27.5342,怀化市,市四医院,细颗粒物(PM2.5),55,56,62,39,38,40,,101,95,44,34,8,7,0.6,0.6
2025-03-21T2100,2485A,109.9972,27.5578,怀化市,监测楼,颗粒物(PM10),66,81,58,40,32,21,,95,84,56,35,10,11,0.5,0.5
2025-03-21T2100,2486A,110.0394,27.583,怀化市,市委党校,颗粒物(PM10),62,74,63,43,34,31,,107,98,47,30,6,5,0.5,0.4
2025-03-21T2100,1210A,119.036,33.5981,淮安市,钵池山,颗粒物(PM10),52,53,63,29,37,100,,108,108,21,24,10,13,0.5,0.7
2025-03-21T2100,1211A,119.007,33.575,淮安市,北京南路,颗粒物(PM10),60,70,70,35,41,75,,99,96,43,38,25,19,1.2,1.5
2025-03-21T2100,1212A,118.989,33.6067,淮安市,市监测站,颗粒物(PM10),52,53,58,27,35,88,,111,109,41,30,10,11,0.9,0.7
2025-03-21T2100,1213A,119.135,33.5039,淮安市,楚州区监测站,颗粒物(PM10),53,56,67,29,36,88,,106,105,26,25,9,9,0.4,0.4
2025-03-21T2100,3426A,118.8755,33.2894,淮安市,新华书店,颗粒物(PM10),52,54,54,26,30,117,,126,126,19,21,10,10,0.8,0.7
2025-03-21T2100,4206A,119.0288,33.6319,淮安市,承德北路606号,,,,,,,,,,,,,,,,
2025-03-21T2100,2282A,116.8004,33.975,淮北市,监测站,颗粒物(PM10),55,59,67,23,30,97,,116,114,27,28,6,10,0.5,0.8
2025-03-21T2100,2283A,116.8091,33.9007,淮北市,烈山区政府,颗粒物(PM10),81,111,77,38,37,84,,119,116,39,41,8,10,0.9,0.8
2025-03-21T2100,3330A,116.8873,33.9836,淮北市,杜集区检察院,颗粒物(PM10),67,83,79,31,35,90,,123,122,31,30,9,10,0.8,0.8
2025-03-21T2100,4017A,116.7923,33.9535,淮北市,市博物馆,颗粒物(PM10),55,59,68,22,31,101,,117,117,23,25,9,11,0.7,0.8
2025-03-21T2100,2277A,116.8305,32.7727,淮南市,潘集区政府,颗粒物(PM10),56,62,63,28,35,97,,129,124,31,20,6,7,0.4,0.4
2025-03-21T2100,2279A,116.8569,32.5951,淮南市,谢家集区政府,,39,25,54,17,27,122,,131,130,10,17,6,8,0.2,0.4
2025-03-21T2100,2280A,116.8281,32.633,淮南市,八公山区政府,,38,32,43,14,20,119,,127,127,7,8,7,4,0.2,0.3
2025-03-21T2100,2281A,116.6325,32.6201,淮南市,焦岗湖风景区管理处,,34,34,41,12,20,76,,90,87,7,8,6,6,0.5,0.5
2025-03-21T2100,2894A,117.0566,32.6531,淮南市,经济技术开发区消防队,,45,45,59,23,26,117,,136,134,18,16,6,7,0.3,0.3
2025-03-21T2100,3329A,117.0108,32.5893,淮南市,山南新区,,38,38,57,13,22,119,,135,132,6,10,7,8,0.5,0.6
2025-03-21T2100,4209A,117.0031,32.6445,淮南市,国庆中路369号,颗粒物(PM10),60,70,57,26,30,99,,136,129,28,21,10,10,0.7,0.6
2025-03-21T2100,2446A,114.9028,30.4742,黄冈市,职工中心,,41,41,54,26,38,119,,154,148,23,26,6,8,0.5,0.6
2025-03-21T2100,2929A,114.8858,30.4519,黄冈市,红卫路,颗粒物(PM10),52,53,60,30,37,106,,152,144,32,27,6,8,0.5,0.6
2025-03-21T2100,3398A,114.9136,30.4445,黄冈市,市林业局,颗粒物(PM10),52,54,57,32,37,117,,157,152,24,30,8,12,0.6,0.7
2025-03-21T2100,2672A,102.0199,35.5102,黄南藏族自治州,同仁县隆务镇,颗粒物(PM10),58,66,53,20,24,111,,106,106,2,3,14,14,0.3,0.3
2025-03-21T2100,2295A,118.2903,29.6963,黄山市,延安路89号,,48,41,33,33,19,94,,141,133,18,11,6,5,0.3,0.2
2025-03-21T2100,2297A,118.1371,30.2756,黄山市,黄山区政府5号楼,颗粒物(PM10),51,51,48,33,29,74,,137,122,12,7,8,8,0.6,0.5
2025-03-21T2100,4210A,118.3354,29.7203,黄山市,滨江东路7-2号,细颗粒物(PM2.5),63,70,44,45,22,43,,132,110,43,15,6,5,0.5,0.4
2025-03-21T2100,2423A,115.0601,30.2313,黄石市,沈家营,颗粒物(PM10),55,60,58,29,31,77,,154,139,53,44,6,8,0.6,0.7
2025-03-21T2100,2426A,114.8988,30.2019,黄石市,铁山,颗粒物(PM10),62,73,60,35,34,49,,151,129,55,27,8,8,0.2,0.4
2025-03-21T2100,2427A,115.0307,30.2092,黄石市,团城山,,49,49,50,20,24,120,,143,139,23,42,7,12,0.5,0.8
2025-03-21T2100,3149A,115.0235,30.1578,黄石市,笔架山北路,,43,36,39,22,22,135,,158,153,12,23,12,11,0.5,0.7
2025-03-21T2100,4185A,115.0780,30.21118,黄石市,磁湖东路29号,细颗粒物(PM2.5),114,96,66,86,38,85,,158,143,45,44,7,9,1.2,0.9
2025-03-21T2100,1392A,114.4183,23.0528,惠州市,河南岸金山湖子站,,50,50,51,25,30,138,,134,134,29,24,10,10,0.8,0.7
2025-03-21T2100,1393A,114.4053,23.0822,惠州市,下埔横江三路子站,颗粒物(PM10),52,54,56,26,30,146,,135,135,29,24,10,10,0.6,0.5
2025-03-21T2100,1394A,114.4103,23.1142,惠州市,江北云山西路子站,颗粒物(PM10),53,55,55,24,29,143,,143,142,35,24,11,11,0.7,0.6
2025-03-21T2100,1395A,114.4645,22.7833,惠州市,惠阳区承修路船湖子站,颗粒物(PM10),57,64,65,32,30,158,,158,158,19,26,10,11,0.6,0.6
2025-03-21T2100,1396A,114.5317,22.7422,惠州市,大亚湾管委会子站,臭氧1小时,68,68,52,35,25,174,,175,173,17,32,9,9,0.6,0.6
2025-03-21T2100,3314A,114.4338,22.8134,惠州市,惠阳秋长,臭氧1小时,69,56,57,32,29,175,,169,169,14,23,15,7,0.6,0.6
2025-03-21T2100,3452A,114.6517,22.775,惠州市,大亚湾霞涌,臭氧1小时,60,52,46,30,26,168,,179,179,18,18,7,6,0.4,0.3
2025-03-21T2100,2240A,130.9762,45.3001,鸡西市,环保局,,23,20,88,8,67,73,,98,87,9,14,5,8,0.3,0.5
2025-03-21T2100,2243A,130.9429,45.3039,鸡西市,第一中学,,24,6,83,3,64,76,,104,89,7,13,5,9,0.2,0.4
2025-03-21T2100,3707A,131.0207,45.3073,鸡西市,欧美日汽修厂,,26,12,106,6,77,83,,104,96,7,19,5,10,0.4,0.6
2025-03-21T2100,3709A,130.9967,45.3106,鸡西市,市政设施管理处,,26,26,108,3,67,68,,93,83,10,21,4,7,0.3,0.5
2025-03-21T2100,2367A,114.9754,27.0803,吉安市,红声器材厂,颗粒物(PM10),55,59,48,29,22,40,,145,123,93,29,17,14,0.6,0.5
2025-03-21T2100,2368A,114.9658,27.0999,吉安市,市森林工业局,,44,44,45,23,24,74,,141,128,49,30,13,14,0.5,0.4
2025-03-21T2100,2369A,114.99,27.1312,吉安市,市环境监测站,颗粒物(PM10),58,65,40,26,24,74,,143,132,41,26,23,19,0.3,0.2
2025-03-21T2100,2370A,115.0093,27.0968,吉安市,青原区法院,,49,49,42,24,22,94,,150,139,28,27,16,12,0.3,0.3
2025-03-21T2100,1772A,126.54,43.8622,吉林市,哈达湾,颗粒物(PM10),73,96,77,36,39,87,,119,107,12,18,8,9,0.5,0.6
2025-03-21T2100,1773A,126.5844,43.8358,吉林市,东局子,颗粒物(PM10),65,79,68,26,38,90,,121,109,13,19,7,8,0.5,0.6
2025-03-21T2100,1774A,126.5052,43.8245,吉林市,电力学院,颗粒物(PM10),62,74,66,24,38,90,,119,107,10,17,6,7,0.3,0.5
2025-03-21T2100,1775A,126.6133,43.8972,吉林市,江北,颗粒物(PM10),85,120,82,42,39,81,,116,102,24,25,13,8,0.4,0.5
2025-03-21T2100,1776A,126.555,43.8306,吉林市,江南公园,颗粒物(PM10),61,71,67,30,42,87,,116,105,12,17,7,8,0.4,0.5
2025-03-21T2100,1778A,126.7061,43.7133,吉林市,丰满,颗粒物(PM10),61,72,57,41,42,106,,131,126,11,15,7,8,0.4,0.7
2025-03-21T2100,2868A,126.4739,43.953,吉林市,九站,细颗粒物(PM2.5),173,237,103,131,62,74,,118,97,39,26,17,12,0.8,0.6
2025-03-21T2100,1299A,116.9862,36.6114,济南市,科干所,颗粒物(PM10),51,51,54,17,17,114,,114,114,13,22,7,8,0.4,0.5
2025-03-21T2100,1300A,116.9376,36.665,济南市,农科所,颗粒物(PM10),52,54,63,15,15,80,,104,100,40,46,7,9,0.7,0.7
2025-03-21T2100,1301A,117.1265,36.6734,济南市,开发区,颗粒物(PM10),52,54,52,20,18,109,,109,109,19,23,8,9,0.5,0.5
2025-03-21T2100,1303A,117.0624,36.6868,济南市,省种子仓库,颗粒物(PM10),59,68,67,12,17,92,,107,106,24,26,5,7,0.7,0.7
2025-03-21T2100,1304A,116.9489,36.6447,济南市,机床二厂,,,71,87,17,21,81,,97,91,,51,9,11,0.7,0.8
2025-03-21T2100,1305A,117.0495,36.663,济南市,市监测站,颗粒物(PM10),52,54,58,15,16,83,,102,100,36,26,9,10,0.5,0.5
2025-03-21T2100,1306A,116.7675,36.5484,济南市,长清党校,,41,37,55,15,21,130,,119,119,24,32,5,9,0.7,0.7
2025-03-21T2100,1616A,117.6795,36.229,济南市,技术学院,颗粒物(PM10),60,70,75,27,33,99,,113,112,34,45,16,17,2.6,1.5
2025-03-21T2100,1961A,117.532,36.6868,济南市,东山小学,颗粒物(PM10),53,56,56,22,14,83,,110,107,26,20,8,7,0.7,0.6
2025-03-21T2100,3059A,117.7161,36.2049,济南市,泰兴公司,颗粒物(PM10),57,63,77,27,34,46,,108,97,71,49,9,11,0.5,0.8
2025-03-21T2100,3064A,117.6867,36.2171,济南市,莱芜战役纪念馆,颗粒物(PM10),60,70,82,22,32,97,,113,112,30,50,8,12,0.4,1.1
2025-03-21T2100,3494A,117.1673,36.9782,济南市,济阳区政府,,,,75,15,24,73,,101,98,32,28,13,14,0.5,0.4
2025-03-21T2100,3495A,117.1171,36.63,济南市,锦屏中学,,46,46,40,10,11,107,,111,111,17,18,9,10,0.3,0.3
2025-03-21T2100,3682A,116.9814,36.6819,济南市,济南四建,颗粒物(PM10),58,66,64,22,22,82,,102,100,36,33,6,8,0.3,0.3
2025-03-21T2100,1653A,116.6251,35.4302,济宁市,火炬城,颗粒物(PM10),57,63,62,27,29,96,,124,119,22,27,10,13,0.3,0.5
2025-03-21T2100,1655A,116.5491,35.4042,济宁市,电化厂,颗粒物(PM10),81,112,90,39,39,71,,116,112,40,39,11,15,0.5,0.5
2025-03-21T2100,3500A,116.5814,35.3707,济宁市,北湖一中,颗粒物(PM10),58,66,61,27,25,59,,114,109,53,37,12,14,0.3,0.4
2025-03-21T2100,3501A,116.8249,35.5593,济宁市,服务中心,颗粒物(PM10),54,58,79,24,26,79,,122,118,43,48,7,10,0.7,0.7
2025-03-21T2100,3678A,116.5907,35.4054,济宁市,市第七中学,颗粒物(PM10),62,73,66,36,26,85,,124,121,36,35,7,9,0.8,0.7
2025-03-21T2100,2255A,130.2751,46.8028,佳木斯市,佳纺,,27,27,51,10,30,67,,84,76,19,18,5,6,0.6,0.6
2025-03-21T2100,2256A,130.3995,46.8307,佳木斯市,发电厂,,25,16,37,6,27,78,,90,86,6,16,4,4,0.5,0.5
2025-03-21T2100,2257A,130.3258,46.7975,佳木斯市,环保局,,24,24,45,9,30,76,,87,80,14,17,3,5,0.2,0.3
2025-03-21T2100,2258A,130.3648,46.8032,佳木斯市,十一中,,25,25,46,10,30,77,,87,81,12,18,4,5,0.3,0.4
2025-03-21T2100,2259A,130.3794,46.7588,佳木斯市,四丰,,21,17,33,3,20,65,,81,75,12,8,1,1,0.7,0.8
2025-03-21T2100,1252A,120.7436,30.778,嘉兴市,清河小学,细颗粒物(PM2.5),77,92,56,56,28,24,,129,107,102,59,6,6,1.3,0.6
2025-03-21T2100,1253A,120.726,30.7478,嘉兴市,嘉兴学院,颗粒物(PM10),57,64,60,35,32,29,,145,124,42,44,9,9,1.1,0.8
2025-03-21T2100,2872A,120.7846,30.7525,嘉兴市,南湖区残联,,,58,62,38,29,68,,150,132,,46,9,10,0.6,0.6
2025-03-21T2100,3407A,120.6916,30.7739,嘉兴市,秀洲住建,颗粒物(PM10),60,70,59,25,34,23,,156,128,75,57,6,7,0.3,0.4
2025-03-21T2100,1945A,98.2908,39.7711,嘉峪关市,气象局,颗粒物(PM10),100,149,114,34,35,98,,102,101,5,19,1,25,0.2,0.5
2025-03-21T2100,2884A,98.2672,39.7978,嘉峪关市,酒钢宾馆,颗粒物(PM10),111,171,124,34,35,100,,103,103,4,17,8,29,0.2,0.4
2025-03-21T2100,3248A,98.2643,39.7724,嘉峪关市,雄关区,颗粒物(PM10),90,130,100,28,31,93,,102,101,13,21,3,11,0.2,0.5
2025-03-21T2100,1383A,113.1064,22.6058,江门市,北街,颗粒物(PM10),55,59,69,26,43,131,,229,220,36,37,5,7,0.6,0.5
2025-03-21T2100,1384A,113.0731,22.5835,江门市,西区,颗粒物(PM10),66,82,81,23,44,138,,244,236,42,44,8,11,0.5,0.6
2025-03-21T2100,1385A,113.0219,22.5311,江门市,圭峰西,,43,33,64,24,42,136,,208,202,33,32,6,8,0.4,0.4
2025-03-21T2100,1386A,113.0828,22.5947,江门市,东湖,细颗粒物(PM2.5),59,47,70,42,41,140,,243,234,35,34,9,11,0.5,0.5
2025-03-21T2100,3311A,113.1075,22.5647,江门市,江海富民,细颗粒物(PM2.5),63,74,80,45,41,130,,226,217,34,37,8,10,0.5,0.5
2025-03-21T2100,3449A,113.05,22.4667,江门市,新会银湖,,43,33,66,20,49,136,,212,201,29,43,3,4,0.4,0.5
2025-03-21T2100,1830A,113.1992,35.2590,焦作市,影视城,,,,,,,,,,,,,,,,
2025-03-21T2100,3169A,113.2725,35.2067,焦作市,太极体育中心,颗粒物(PM10),63,75,52,29,19,87,,114,111,30,19,13,9,0.5,0.4
2025-03-21T2100,3335A,113.3137,35.2641,焦作市,马村街道办,颗粒物(PM10),66,81,49,37,16,96,,110,108,18,16,10,9,0.7,0.5
2025-03-21T2100,3336A,113.2465,35.2373,焦作市,焦作技师学院,颗粒物(PM10),62,73,49,22,13,96,,115,113,24,21,8,7,0.7,0.5
2025-03-21T2100,3477A,113.1656,35.2539,焦作市,中站许衡医院,,50,50,40,27,21,108,,118,117,17,16,9,10,0.7,0.6
2025-03-21T2100,3981A,113.2449,35.1803,焦作市,原李万街道办,颗粒物(PM10),68,85,56,22,12,48,,115,105,60,24,10,10,0.5,0.4
2025-03-21T2100,4264A,113.2340,35.2190,焦作市,新安路1731号,颗粒物(PM10),60,70,55,24,18,88,,112,110,32,17,22,9,0.7,0.5
2025-03-21T2100,1708A,116.3701,23.5345,揭阳市,新兴,,46,46,63,32,41,118,,156,146,26,31,8,9,0.6,0.6
2025-03-21T2100,1709A,116.3264,23.5443,揭阳市,西马,颗粒物(PM10),54,58,67,27,39,120,,164,152,20,25,10,10,0.7,0.6
2025-03-21T2100,1710A,116.3611,23.5626,揭阳市,东兴,颗粒物(PM10),51,52,68,23,38,111,,160,150,25,30,11,10,0.6,0.7
2025-03-21T2100,1711A,116.4151,23.5294,揭阳市,渔湖,细颗粒物(PM2.5),52,40,66,36,37,111,,160,148,25,35,10,8,0.7,0.7
2025-03-21T2100,3320A,116.403,23.5699,揭阳市,曲溪,颗粒物(PM10),52,54,67,32,41,121,,174,165,35,36,10,12,0.5,0.6
2025-03-21T2100,1944A,102.1692,38.5167,金昌市,天庆家园,细颗粒物(PM2.5),59,58,71,42,36,70,,112,107,26,16,5,15,0.8,0.9
2025-03-21T2100,4022A,102.1647,38.5371,金昌市,金川区人防中心,颗粒物(PM10),101,151,103,56,37,22,,107,97,130,38,15,25,0.8,0.6
2025-03-21T2100,4239A,102.1930,38.5319,金昌市,长春路96号,颗粒物(PM10),76,102,104,28,30,96,,108,108,14,16,12,32,0.6,0.7
2025-03-21T2100,1262A,119.647,29.077,金华市,十五中,颗粒物(PM10),53,56,49,34,24,73,,148,133,62,36,7,7,0.7,0.4
2025-03-21T2100,1263A,119.686,29.1029,金华市,监测站,颗粒物(PM10),61,72,46,36,25,39,,151,135,97,29,7,7,0.4,0.3
2025-03-21T2100,3659A,119.656,29.1131,金华市,气象局,颗粒物(PM10),53,56,47,33,29,59,,152,132,72,45,6,9,0.6,0.4
2025-03-21T2100,1767A,121.1115,41.0879,锦州市,南山,细颗粒物(PM2.5),67,52,67,48,40,55,,103,91,36,39,30,22,1.1,1
2025-03-21T2100,1768A,121.0604,40.8428,锦州市,开发区,颗粒物(PM10),63,75,99,14,23,44,,93,78,54,51,10,18,0.5,0.6
2025-03-21T2100,1769A,121.1836,41.1119,锦州市,百股街道,颗粒物(PM10),52,54,67,27,29,60,,106,93,31,36,8,17,0.7,0.8
2025-03-21T2100,1770A,121.1178,41.1222,锦州市,天安街道,颗粒物(PM10),53,55,69,28,32,63,,106,95,32,33,13,31,0.8,0.9
2025-03-21T2100,1771A,121.1303,41.1386,锦州市,北湖公园,,30,30,59,20,28,77,,101,94,20,30,63,28,0.6,0.8
2025-03-21T2100,2160A,112.85,35.5051,晋城市,自来水公司,,46,46,42,19,10,96,,110,108,23,23,8,9,0.8,0.7
2025-03-21T2100,2161A,112.8318,35.4936,晋城市,白云商贸,颗粒物(PM10),60,69,46,9,5,101,,111,110,22,22,7,7,0.5,0.4
2025-03-21T2100,2162A,112.8508,35.4887,晋城市,市环保局,颗粒物(PM10),59,68,45,7,12,100,,112,111,18,22,6,6,0.5,0.4
2025-03-21T2100,2163A,112.8676,35.4897,晋城市,技术学院,颗粒物(PM10),55,60,44,17,8,91,,103,101,18,17,8,7,0.6,0.5
2025-03-21T2100,2165A,112.8453,35.546,晋城市,白马寺,,,,,,,,,,,,,,,,
2025-03-21T2100,3620A,112.8271,35.4828,晋城市,泽州一中,,38,38,26,17,10,104,,114,114,16,15,9,9,0.5,0.4
2025-03-21T2100,2173A,112.7249,37.7067,晋中市,南都小区,颗粒物(PM10),67,84,76,24,29,60,,100,94,37,37,6,20,0.5,0.6
2025-03-21T2100,2174A,112.6991,37.6982,晋中市,榆次区政府,颗粒物(PM10),60,70,75,15,24,72,,104,100,28,39,6,19,0.4,0.7
2025-03-21T2100,2865A,112.7195,37.6828,晋中市,榆次三中,颗粒物(PM10),58,66,79,14,21,77,,104,102,22,38,4,15,0.3,0.6
2025-03-21T2100,4200A,112.7478,37.6954,晋中市,迎宾街26号,颗粒物(PM10),56,61,77,19,22,75,,109,102,23,36,4,13,0.4,0.5
2025-03-21T2100,2439A,112.2014,31.0481,荆门市,竹园小学,,,,66,,32,,,151,148,17,23,6,8,0.3,0.3
2025-03-21T2100,2440A,112.1969,30.9891,荆门市,掇刀,颗粒物(PM10),58,65,68,36,33,128,,140,139,17,25,10,8,0.4,0.4
2025-03-21T2100,2441A,112.2213,31.0386,荆门市,石化一小,颗粒物(PM10),60,69,70,37,35,107,,133,127,28,30,12,13,0.4,0.4
2025-03-21T2100,3012A,112.1849,31.0362,荆门市,西山林语,颗粒物(PM10),58,66,53,31,28,137,,146,145,14,18,7,6,0.3,0.2
2025-03-21T2100,3547A,112.1632,31.0138,荆门市,龙泉中学南校,颗粒物(PM10),59,68,61,38,32,121,,140,138,14,16,8,8,0.4,0.3
2025-03-21T2100,1844A,112.2494,30.3197,荆州市,市图书馆,颗粒物(PM10),54,57,62,36,43,122,,141,139,24,31,10,9,0.5,0.5
2025-03-21T2100,1845A,112.2008,30.3544,荆州市,市委党校,颗粒物(PM10),58,65,64,34,44,121,,137,136,24,29,13,10,0.4,0.4
2025-03-21T2100,3194A,112.2747,30.3122,荆州市,管委会,颗粒物(PM10),58,65,63,36,45,117,,143,140,21,21,11,10,0.4,0.4
2025-03-21T2100,4268A,112.1722,30.3366,荆州市,学苑路85号,细颗粒物(PM2.5),63,49,66,45,45,84,,141,129,39,31,14,9,0.5,0.5
2025-03-21T2100,2342A,117.3102,29.3867,景德镇市,王港中学,,,,,,,,,,,,,,,,
2025-03-21T2100,2343A,117.2117,29.2933,景德镇市,老干部活动中心,颗粒物(PM10),58,65,50,35,29,78,,148,134,31,31,9,9,0.5,0.4
2025-03-21T2100,2344A,117.1894,29.2789,景德镇市,兽医站,颗粒物(PM10),64,77,56,33,26,62,,129,110,33,23,16,9,0.5,0.4
2025-03-21T2100,2345A,117.1547,29.2617,景德镇市,台达陶瓷,颗粒物(PM10),87,124,74,37,31,33,,135,118,78,47,110,45,1.0,0.8
2025-03-21T2100,2346A,117.2461,29.2956,景德镇市,陶研所,细颗粒物(PM2.5),63,58,44,45,32,60,,142,127,47,27,5,4,0.8,0.8
2025-03-21T2100,1803A,115.9872,29.6815,九江市,十里,颗粒物(PM10),54,58,41,37,27,21,,149,122,93,45,2,2,0.9,0.6
2025-03-21T2100,1804A,115.9584,29.7046,九江市,茅山头,颗粒物(PM10),59,68,45,26,22,70,,144,126,56,40,5,6,0.4,0.4
2025-03-21T2100,1805A,115.9877,29.7295,九江市,西园,,49,43,39,34,22,80,,146,136,57,43,6,7,0.6,0.4
2025-03-21T2100,1808A,115.9114,29.6038,九江市,综合工业园,颗粒物(PM10),63,76,44,39,27,87,,146,130,59,50,9,8,0.6,0.6
2025-03-21T2100,1809A,116.0721,29.7535,九江市,石化总厂,,40,32,43,28,32,110,,145,141,30,38,11,14,0.5,0.6
2025-03-21T2100,1810A,115.9773,29.5698,九江市,庐山气象台,,45,29,29,20,21,142,,136,136,7,7,6,7,0.7,0.7
2025-03-21T2100,3190A,116.0254,29.6994,九江市,外国语学校,,43,28,38,25,20,43,,139,126,86,47,2,4,0.6,0.6
2025-03-21T2100,4253A,116.0102,29.6594,九江市,莲花大道8号,,46,42,31,32,20,101,,140,130,10,14,6,8,0.4,0.4
2025-03-21T2100,4240A,98.4958,39.7339,酒泉市,玉门东路5号,颗粒物(PM10),97,144,130,39,36,85,,96,95,8,14,8,12,0.3,0.4
2025-03-21T2100,4241A,98.5099,39.7506,酒泉市,北大街108号,颗粒物(PM10),100,149,133,37,31,80,,94,92,12,17,8,13,0.3,0.5
2025-03-21T2100,2698A,76.0072,39.4467,喀什地区,巡警大队,颗粒物(PM10),130,209,327,54,91,102,,98,98,17,52,3,6,0.4,1.1
2025-03-21T2100,2699A,75.9755,39.4694,喀什地区,吾办,颗粒物(PM10),134,218,305,68,104,101,,103,103,24,46,1,3,0.5,1.1
2025-03-21T2100,4027A,75.9483,39.4689,喀什地区,老干局,颗粒物(PM10),138,226,316,56,89,81,,74,74,28,46,3,5,0.5,1.1
2025-03-21T2100,1824A,114.3389,34.7781,开封市,肿瘤医院,,,,55,,18,73,,113,104,37,25,7,7,,0.5
2025-03-21T2100,1826A,114.2885,34.7965,开封市,世纪星幼儿园,颗粒物(PM10),64,78,48,34,20,65,,124,114,62,30,5,6,0.5,0.5
2025-03-21T2100,3147A,114.3438,34.8106,开封市,龙亭公园,颗粒物(PM10),57,64,46,26,15,78,,83,,46,29,5,5,0.9,0.7
2025-03-21T2100,3210A,114.3644,34.7964,开封市,汴京公园,颗粒物(PM10),63,76,52,24,16,83,,124,117,42,28,6,7,0.6,0.5
2025-03-21T2100,3473A,114.2485,34.8306,开封市,技师学院,,49,49,47,32,22,82,,112,110,37,29,11,11,0.5,0.6
2025-03-21T2100,3592A,114.4644,34.7556,开封市,祥符区生态环境局,颗粒物(PM10),71,92,60,22,18,83,,110,104,33,28,6,5,0.6,0.6
2025-03-21T2100,1951A,84.895,45.6094,克拉玛依市,长征新村,颗粒物(PM10),62,73,67,20,20,94,,105,105,31,21,8,8,0.4,0.4
2025-03-21T2100,1952A,84.8988,45.5893,克拉玛依市,南林小区,颗粒物(PM10),60,69,68,18,23,89,,107,107,23,15,5,5,0.5,0.4
2025-03-21T2100,1954A,84.905,44.3396,克拉玛依市,独山子区,颗粒物(PM10),67,83,67,41,43,113,,145,142,29,14,16,9,0.6,0.5
2025-03-21T2100,1955A,85.6979,46.098,克拉玛依市,乌尔禾区商贸楼,颗粒物(PM10),88,126,58,10,13,108,,118,118,15,10,6,5,0.4,0.4
2025-03-21T2100,3612A,85.1045,45.6899,克拉玛依市,白碱滩区新站,颗粒物(PM10),76,102,64,29,15,94,,100,100,26,28,9,9,0.4,0.4
2025-03-21T2100,2697A,76.1454,39.7142,克孜勒苏柯尔克孜自治州,市人民政府,颗粒物(PM10),146,241,295,71,86,,,118,118,9,12,,5,0.6,0.6
2025-03-21T2100,3665A,76.1658,39.7157,克孜勒苏柯尔克孜自治州,克州文化中心,颗粒物(PM10),144,237,309,69,85,115,,116,116,12,16,5,5,0.5,0.5
2025-03-21T2100,1450A,102.8204,24.8886,昆明市,呈贡新区,细颗粒物(PM2.5),62,55,55,44,49,91,,105,105,19,25,6,7,0.7,0.5
2025-03-21T2100,1451A,102.6251,24.9608,昆明市,西山森林公园,,,,,,,,,,,,,,,,
2025-03-21T2100,1452A,102.7252,25.0902,昆明市,龙泉镇,细颗粒物(PM2.5),57,59,61,40,47,96,,105,105,19,29,8,9,0.8,0.7
2025-03-21T2100,1453A,102.7266,25.0375,昆明市,东风东路,细颗粒物(PM2.5),62,55,77,44,52,93,,101,101,21,39,8,10,0.7,0.6
2025-03-21T2100,1454A,102.6742,25.0669,昆明市,金鼎山,颗粒物(PM10),52,54,67,34,46,91,,101,101,21,33,5,6,0.7,0.7
2025-03-21T2100,1455A,102.6644,25.0401,昆明市,碧鸡广场,细颗粒物(PM2.5),58,51,65,41,50,90,,103,103,22,34,7,9,0.7,0.6
2025-03-21T2100,3179A,102.7494,25.0119,昆明市,官渡区博物馆,颗粒物(PM10),55,60,66,38,48,94,,109,108,17,38,8,11,0.7,0.6
2025-03-21T2100,3375A,102.8017,24.8336,昆明市,青年创业园,细颗粒物(PM2.5),59,55,60,42,45,90,,106,106,17,21,8,8,0.8,0.6
2025-03-21T2100,3550A,102.7997,24.9786,昆明市,昆明学院,细颗粒物(PM2.5),62,62,72,44,50,94,,105,105,17,28,5,9,0.7,0.6
2025-03-21T2100,3551A,102.5967,24.6736,昆明市,晋宁区生态环境分局,细颗粒物(PM2.5),58,41,54,41,45,87,,104,103,16,18,7,8,0.7,0.6
2025-03-21T2100,3552A,102.6678,24.9856,昆明市,云天化总部,,45,44,58,31,41,104,,110,110,14,24,7,8,0.5,0.5
2025-03-21T2100,1456A,91.1319,29.6514,拉萨市,八廓街,,44,44,28,16,10,95,,119,116,26,16,7,6,0.5,0.8
2025-03-21T2100,1457A,91.1221,29.6747,拉萨市,市环保局,颗粒物(PM10),62,73,41,22,15,60,,86,,43,23,7,9,0.6,0.6
2025-03-21T2100,1458A,91.0874,29.6475,拉萨市,区监测站,,48,48,28,11,10,102,,112,111,20,22,6,6,0.3,0.4
2025-03-21T2100,1459A,91.1774,29.6541,拉萨市,西藏大学,,42,42,28,13,9,96,,98,98,21,12,8,7,0.8,0.5
2025-03-21T2100,1460A,90.9798,29.6588,拉萨市,区辐射站,颗粒物(PM10),61,71,64,27,20,64,,114,109,58,31,9,7,0.8,0.6
2025-03-21T2100,1461A,91.0834,29.6292,拉萨市,拉萨火车站,,41,41,31,13,10,105,,118,117,16,19,3,3,0.3,0.4
2025-03-21T2100,2520A,109.2203,23.7256,来宾市,来宾技工学校,颗粒物(PM10),78,106,87,47,52,125,,157,156,27,39,12,14,0.6,0.7
2025-03-21T2100,3535A,109.1781,23.7297,来宾市,兴宾区政府,颗粒物(PM10),64,77,65,43,39,120,,158,154,28,19,19,13,0.8,0.8
2025-03-21T2100,4002A,109.2416,23.7461,来宾市,中南小学,颗粒物(PM10),91,132,92,66,47,81,,146,140,45,38,7,11,0.8,0.8
2025-03-21T2100,1477A,104.1373,35.9454,兰州市,榆中兰大校区,,,,,,,,,,,,,,,,
2025-03-21T2100,1479A,103.831,36.0464,兰州市,铁路设计院,颗粒物(PM10),69,87,82,34,33,39,,106,98,90,67,7,16,0.8,1
2025-03-21T2100,3241A,103.7439,36.0842,兰州市,百合公园,颗粒物(PM10),57,63,74,32,35,88,,119,116,21,37,6,14,0.2,0.7
2025-03-21T2100,3242A,103.9611,35.998,兰州市,和平,颗粒物(PM10),66,82,82,35,39,82,,112,108,23,27,8,14,0.3,0.6
2025-03-21T2100,4236A,103.6293,36.0938,兰州市,庄浪东路808号,颗粒物(PM10),67,83,80,42,44,39,,136,116,82,36,10,23,0.6,0.7
2025-03-21T2100,4237A,103.7251,36.1043,兰州市,安宁西路88号,细颗粒物(PM2.5),64,62,88,46,49,111,,132,130,12,35,6,14,0.3,0.5
2025-03-21T2100,4238A,103.8470,36.0676,兰州市,北滨河东路1号,颗粒物(PM10),71,91,80,48,44,42,,119,112,87,59,8,14,0.8,1
2025-03-21T2100,3245A,103.6633,36.533,兰州新区,新区管委会,颗粒物(PM10),61,71,67,39,34,105,,123,122,15,19,43,17,0.5,0.5
2025-03-21T2100,3246A,103.6975,36.4789,兰州新区,舟曲中学,颗粒物(PM10),63,76,90,29,38,105,,121,120,17,21,8,16,0.4,0.6
2025-03-21T2100,1067A,116.6708,39.5111,廊坊市,药材公司,颗粒物(PM10),54,58,33,17,12,81,,106,102,18,20,3,2,0.3,0.3
2025-03-21T2100,1068A,116.7214,39.5589,廊坊市,开发区,颗粒物(PM10),57,64,35,20,12,81,,106,102,28,22,3,2,0.3,0.2
2025-03-21T2100,1070A,116.7244,39.5269,廊坊市,北华航天学院,颗粒物(PM10),52,54,29,22,9,86,,104,103,19,20,6,4,0.3,0.2
2025-03-21T2100,2919A,116.7022,39.5453,廊坊市,河北工业大学,颗粒物(PM10),56,61,28,21,11,86,,108,106,17,14,6,5,0.4,0.2
2025-03-21T2100,2535A,103.7723,29.5462,乐山市,花湖湾,颗粒物(PM10),59,67,60,41,41,26,,63,63,76,37,10,8,0.4,0.5
2025-03-21T2100,2536A,103.7627,29.5844,乐山市,牛耳桥,颗粒物(PM10),60,69,60,42,41,24,,64,64,69,39,8,7,0.7,0.7
2025-03-21T2100,2537A,103.7508,29.6006,乐山市,市第三水厂,颗粒物(PM10),61,72,58,41,38,32,,77,77,60,32,5,4,0.6,0.5
2025-03-21T2100,2538A,103.7571,29.5664,乐山市,市监测站,细颗粒物(PM2.5),65,61,54,47,43,50,,72,72,47,35,8,6,0.5,0.7
2025-03-21T2100,3361A,103.7311,29.5628,乐山市,理工大学,细颗粒物(PM2.5),62,66,56,44,39,57,,78,78,40,37,6,8,0.6,0.6
2025-03-21T2100,2598A,100.2143,26.8576,丽江市,西南郊,,,,,,,,,,,,,,,,
2025-03-21T2100,2599A,100.2497,26.8802,丽江市,丽江古城,,35,32,43,24,34,76,,92,92,19,13,8,8,0.9,1
2025-03-21T2100,2600A,100.2203,26.8906,丽江市,市中心,,35,,36,24,31,78,,88,88,20,15,8,8,0.7,0.8
2025-03-21T2100,1267A,119.914,28.4514,丽水市,监测站大楼,细颗粒物(PM2.5),70,72,35,51,23,65,,137,125,40,27,5,4,0.7,0.4
2025-03-21T2100,1268A,119.93,28.4586,丽水市,莲都小学,,36,36,38,17,17,92,,120,118,31,31,4,4,0.4,0.4
2025-03-21T2100,1269A,119.879,28.4231,丽水市,余庄前,,45,45,33,27,20,70,,133,121,17,21,4,5,0.4,0.3
2025-03-21T2100,1173A,119.176,34.5885,连云港市,市环境监测站,颗粒物(PM10),64,78,74,29,36,93,,110,108,23,25,12,21,0.5,0.7
2025-03-21T2100,3000A,119.3581,34.6972,连云港市,德源药业,颗粒物(PM10),60,70,73,24,33,104,,115,115,20,36,12,16,0.5,0.5
2025-03-21T2100,3007A,119.178,34.844,连云港市,新城一中,颗粒物(PM10),63,76,83,37,52,87,,116,114,32,37,26,24,0.8,0.8
2025-03-21T2100,3008A,119.3608,34.7519,连云港市,胡沟管理处,颗粒物(PM10),51,51,59,27,31,62,,113,106,53,38,13,20,0.6,0.7
2025-03-21T2100,3009A,119.1478,34.5911,连云港市,矿山设计院,颗粒物(PM10),62,73,79,31,36,94,,110,109,27,28,22,24,0.5,0.6
2025-03-21T2100,3434A,119.2413,34.6539,连云港市,工贸学校,颗粒物(PM10),58,65,65,31,39,97,,113,111,24,28,11,18,0.6,0.7
2025-03-21T2100,3664A,119.4172,34.7341,连云港市,连云街道,颗粒物(PM10),56,62,51,23,22,108,,118,118,20,20,11,11,0.7,0.7
2025-03-21T2100,2571A,102.3431,27.8099,凉山彝族自治州,青龙寺,颗粒物(PM10),58,66,40,26,14,42,,63,62,17,11,6,6,1.0,0.7
2025-03-21T2100,2572A,102.2721,27.8415,凉山彝族自治州,邛海宾馆,细颗粒物(PM2.5),73,75,49,53,33,32,,47,46,43,23,8,7,1.1,0.7
2025-03-21T2100,2573A,102.2625,27.898,凉山彝族自治州,西昌市政府,细颗粒物(PM2.5),104,100,54,78,39,19,,42,39,50,24,11,9,1.6,0.8
2025-03-21T2100,2574A,102.2685,27.8851,凉山彝族自治州,凉山州政府,细颗粒物(PM2.5),98,109,55,73,35,28,,47,45,52,26,8,6,1.3,0.6
2025-03-21T2100,4229A,102.2342,27.8859,凉山彝族自治州,凯乐南路30号,细颗粒物(PM2.5),103,118,60,77,35,11,,39,36,64,29,8,9,1.5,0.7
2025-03-21T2100,2212A,123.2,41.1953,辽阳市,宏伟区,颗粒物(PM10),57,64,78,24,30,87,,118,112,28,29,20,24,1.3,1.3
2025-03-21T2100,2213A,123.1683,41.2495,辽阳市,新华园,颗粒物(PM10),66,82,82,34,41,52,,101,90,58,52,22,30,1.5,1.5
2025-03-21T2100,2214A,123.2354,41.2639,辽阳市,滨河路,颗粒物(PM10),74,98,86,36,40,72,,116,106,42,45,15,24,1.0,1.4
2025-03-21T2100,2215A,123.149,41.2991,辽阳市,铁西工业园,"颗粒物(PM10),细颗粒物(PM2.5)",74,97,99,54,46,43,,113,98,63,52,23,30,1.5,1.7
2025-03-21T2100,2227A,125.1358,42.8845,辽源市,环保局,颗粒物(PM10),70,90,85,44,44,85,,114,104,17,18,8,7,0.6,0.6
2025-03-21T2100,3239A,125.0764,42.9078,辽源市,银鹰制药,颗粒物(PM10),60,69,74,42,43,78,,122,109,24,20,13,12,0.7,0.6
2025-03-21T2100,1625A,115.9848,36.4372,聊城市,区政府,颗粒物(PM10),56,62,62,27,24,94,,112,111,31,35,11,12,0.5,0.6
2025-03-21T2100,2878A,116.0072,36.4343,聊城市,聊大东校,颗粒物(PM10),65,80,70,34,28,90,,108,107,34,33,11,13,0.8,0.8
2025-03-21T2100,3200A,115.9819,36.4978,聊城市,监控中心,颗粒物(PM10),56,62,70,22,24,94,,109,108,30,35,13,15,0.6,0.7
2025-03-21T2100,3513A,116.0445,36.4361,聊城市,九州社区,颗粒物(PM10),58,66,66,23,23,100,,117,116,31,30,10,15,0.6,0.7
2025-03-21T2100,4018A,116.0567,36.4608,聊城市,星美广场,颗粒物(PM10),60,70,57,20,16,105,,115,115,29,27,11,12,0.5,0.6
2025-03-21T2100,2632A,94.3681,29.6376,林芝市,林芝监测站,,42,18,30,8,18,132,,126,126,6,7,5,4,0.3,0.3
2025-03-21T2100,2633A,94.3616,29.6616,林芝市,林芝人民医院,,40,21,29,3,17,127,,125,125,2,4,7,7,0.3,0.3
2025-03-21T2100,2603A,100.0781,23.8982,临沧市,市环保局,细颗粒物(PM2.5),87,,46,64,49,21,,49,42,26,18,8,8,1.2,0.9
2025-03-21T2100,2604A,100.0894,23.8822,临沧市,市气象局,细颗粒物(PM2.5),90,,42,67,41,22,,51,45,34,17,8,8,1.2,0.8
2025-03-21T2100,1733A,111.5531,36.0783,临汾市,临钢医院,,44,44,59,12,17,84,,109,108,17,24,3,4,0.5,0.6
2025-03-21T2100,1734A,111.5028,36.0714,临汾市,技工学校,,48,48,48,23,24,91,,111,110,16,24,5,8,0.3,0.5
2025-03-21T2100,1736A,111.5018,36.0855,临汾市,市委,颗粒物(PM10),53,56,57,9,17,79,,109,107,22,25,2,5,0.3,0.4
2025-03-21T2100,3018A,111.505,36.1014,临汾市,唐尧大酒店,颗粒物(PM10),59,68,64,20,18,72,,105,103,29,27,5,7,0.3,0.5
2025-03-21T2100,4244A,111.4879,36.0530,临汾市,启星学校,颗粒物(PM10),56,62,56,28,23,83,,110,109,20,25,3,6,0.4,0.5
2025-03-21T2100,4271A,103.2464,35.6123,临夏回族自治州,滨河东路1号,颗粒物(PM10),82,113,94,35,28,59,,111,104,35,28,6,5,0.8,0.8
2025-03-21T2100,4310A,103.2093,35.5995,临夏回族自治州,新华街21号,颗粒物(PM10),87,123,83,42,22,90,,110,108,21,24,13,11,0.6,0.9
2025-03-21T2100,1618A,118.3429,35.0532,临沂市,沂河小区,颗粒物(PM10),63,75,82,30,38,85,,114,109,29,36,10,12,0.6,0.8
2025-03-21T2100,1619A,118.295,35.0583,临沂市,鲁南制药厂,颗粒物(PM10),69,88,87,33,40,70,,122,114,57,51,18,16,0.2,0.5
2025-03-21T2100,1620A,118.2794,34.9976,临沂市,新光毛纺厂,颗粒物(PM10),68,85,82,39,40,62,,117,108,54,52,30,18,0.7,0.8
2025-03-21T2100,1621A,118.3956,35.0888,临沂市,河东保险公司,颗粒物(PM10),56,61,68,33,30,105,,126,124,35,42,8,10,0.4,0.5
2025-03-21T2100,3370A,118.3564,35.0215,临沂市,十里堡居委,颗粒物(PM10),70,90,91,41,44,70,,119,112,42,47,20,18,0.8,0.8
2025-03-21T2100,3496A,118.3604,35.1084,临沂市,南坊新区,颗粒物(PM10),59,68,70,27,29,90,,116,113,35,32,8,10,0.7,0.7
2025-03-21T2100,3860A,118.3920,35.0300,临沂市,皇山花园小区,颗粒物(PM10),63,75,83,37,41,76,,119,113,35,42,16,15,0.5,0.5
2025-03-21T2100,1870A,109.4856,24.3895,柳州市,柳东小学,细颗粒物(PM2.5),54,47,54,38,40,151,,147,147,16,20,15,16,0.4,0.4
2025-03-21T2100,1871A,109.4157,24.3277,柳州市,环保监测站,颗粒物(PM10),65,80,88,43,58,72,,138,133,52,39,13,17,1.0,0.8
2025-03-21T2100,1872A,109.389,24.341,柳州市,河西水厂,细颗粒物(PM2.5),77,79,111,56,59,65,,132,127,53,48,7,25,1.1,0.9
2025-03-21T2100,1873A,109.4311,24.2921,柳州市,市四中,细颗粒物(PM2.5),99,114,88,74,56,39,,146,135,85,46,13,18,1.4,0.8
2025-03-21T2100,1874A,109.4006,24.3631,柳州市,市九中,颗粒物(PM10),68,85,99,47,56,69,,129,120,46,41,11,17,1.2,1
2025-03-21T2100,1875A,109.4958,24.3134,柳州市,古亭山,,,,60,,37,78,,149,141,50,45,9,17,0.6,0.4
2025-03-21T2100,3402A,109.5422,24.3996,柳州市,市二中,细颗粒物(PM2.5),75,55,65,55,47,76,,152,146,41,32,12,16,0.5,0.3
2025-03-21T2100,2307A,116.5079,31.737,六安市,监测大楼,,47,47,37,21,20,65,,134,123,56,22,5,6,0.7,0.6
2025-03-21T2100,2308A,116.4738,31.7643,六安市,皖西学院,颗粒物(PM10),61,72,47,39,22,47,,137,123,51,20,5,5,0.8,0.3
2025-03-21T2100,2309A,116.4996,31.7905,六安市,朝阳厂,,46,46,40,24,20,76,,136,120,44,17,4,4,0.7,0.5
2025-03-21T2100,2310A,116.5567,31.7886,六安市,开发区,颗粒物(PM10),91,132,51,51,25,26,,138,108,84,27,9,5,0.8,0.5
2025-03-21T2100,2576A,104.8,26.5892,六盘水市,窑上,细颗粒物(PM2.5),73,61,57,53,45,68,,110,105,7,13,5,9,0.6,0.6
2025-03-21T2100,2577A,104.83,26.5917,六盘水市,黄土坡,细颗粒物(PM2.5),104,122,61,78,37,60,,116,111,49,20,19,16,0.9,0.6
2025-03-21T2100,2578A,104.89,26.5939,六盘水市,水钢,细颗粒物(PM2.5),108,109,71,81,45,120,,124,124,22,16,16,16,0.7,0.5
2025-03-21T2100,2579A,104.8475,26.5894,六盘水市,民中,细颗粒物(PM2.5),100,112,54,75,38,50,,113,106,70,20,31,16,1.3,0.5
2025-03-21T2100,2580A,104.9544,26.5506,六盘水市,双水,细颗粒物(PM2.5),62,66,57,44,37,121,,125,125,21,15,16,15,0.6,0.6
2025-03-21T2100,2335A,117.0189,25.1181,龙岩市,龙岩师专,,,,37,,50,,,,,,20,,3,,0.5
2025-03-21T2100,2336A,117.0217,25.1033,龙岩市,龙岩市监测站,,46,46,44,29,25,135,,133,131,31,26,10,9,0.5,0.5
2025-03-21T2100,2337A,117.0258,25.0661,龙岩市,闽西职业技术学院,细颗粒物(PM2.5),78,88,72,57,40,131,,65,,28,32,23,22,0.6,0.6
2025-03-21T2100,2338A,117.0196,25.0306,龙岩市,龙岩学院,,40,40,44,24,29,88,,134,126,12,14,2,4,0.4,0.5
2025-03-21T2100,2665A,105.0822,33.3261,陇南市,汉王镇固水子,,,,,,,,,,,,,,,,
2025-03-21T2100,2885A,104.9339,33.3826,陇南市,滨江中学,颗粒物(PM10),59,67,58,29,21,81,,91,91,10,17,5,8,0.4,0.6
2025-03-21T2100,3247A,104.955,33.371,陇南市,市总工会,,46,46,48,17,20,87,,96,96,5,10,6,7,0.3,0.3
2025-03-21T2100,2487A,111.9589,27.8901,娄底市,电视发射台,,42,42,40,23,23,92,,132,122,5,6,7,8,0.8,0.8
2025-03-21T2100,2488A,111.9975,27.725,娄底市,市监测站,颗粒物(PM10),60,69,70,40,43,87,,131,123,27,34,16,13,0.8,0.8
2025-03-21T2100,2489A,112.0194,27.7314,娄底市,市委党校,颗粒物(PM10),60,69,62,40,40,79,,127,116,34,27,3,4,0.6,0.6
2025-03-21T2100,2490A,111.9561,27.7569,娄底市,涟钢,颗粒物(PM10),88,126,78,59,45,54,,113,104,61,32,13,21,0.8,1.3
2025-03-21T2100,2491A,111.9892,27.7044,娄底市,市政府,"颗粒物(PM10),细颗粒物(PM2.5)",65,79,59,47,39,50,,131,115,56,17,8,6,0.6,0.4
2025-03-21T2100,1893A,105.4324,28.9634,泸州市,九狮山,,,,,,,,,,,,,,,,
2025-03-21T2100,1894A,105.4427,28.9063,泸州市,小市上码头,细颗粒物(PM2.5),74,78,60,54,40,28,,89,83,82,48,7,8,0.7,0.6
2025-03-21T2100,1895A,105.4241,28.8573,泸州市,兰田宪桥,细颗粒物(PM2.5),60,61,54,43,40,24,,70,68,64,35,6,7,0.7,0.5
2025-03-21T2100,1896A,105.4379,28.8833,泸州市,市环监站,,,,,,,,,,,,,,,,
2025-03-21T2100,4272A,105.3689,28.7783,泸州市,纳溪中医医院,颗粒物(PM10),72,93,74,48,38,8,,74,68,81,40,6,6,0.8,0.5
2025-03-21T2100,2183A,111.1406,37.5211,吕梁市,环保局,颗粒物(PM10),88,126,81,40,21,6,,93,82,82,43,4,5,0.5,0.4
2025-03-21T2100,2185A,111.1297,37.5136,吕梁市,自来水公司,颗粒物(PM10),72,93,94,30,23,47,,88,86,40,33,5,6,0.5,0.5
2025-03-21T2100,2867A,111.1283,37.51,吕梁市,马茂庄小学,颗粒物(PM10),91,132,81,31,19,23,,95,88,67,43,12,6,0.3,0.4
2025-03-21T2100,1812A,112.3931,34.6516,洛阳市,市委党校,颗粒物(PM10),62,74,45,29,19,86,,106,101,26,19,5,5,0.4,0.4
2025-03-21T2100,1815A,112.494,34.6886,洛阳市,河南林校,,,,51,35,22,85,,117,113,23,17,6,5,0.7,0.6
2025-03-21T2100,1816A,112.3844,34.623,洛阳市,开发区管委会,颗粒物(PM10),62,74,43,38,21,63,,109,102,40,19,5,6,0.4,0.3
2025-03-21T2100,1817A,112.4267,34.6258,洛阳市,市委新办公区,颗粒物(PM10),60,70,41,33,21,85,,119,114,27,16,5,6,0.9,0.6
2025-03-21T2100,3340A,112.6005,34.6326,洛阳市,伊滨,,46,46,41,31,24,94,,120,117,22,14,6,6,0.4,0.4
2025-03-21T2100,3341A,112.4951,34.6332,洛阳市,中移产业园,颗粒物(PM10),59,68,49,37,31,94,,111,109,21,18,7,7,0.5,0.4
2025-03-21T2100,3593A,112.5736,34.8993,洛阳市,吉利监测站,颗粒物(PM10),55,59,43,22,18,93,,121,116,30,17,7,7,0.4,0.4
2025-03-21T2100,3635A,112.3677,34.662,洛阳市,河科大西苑校区,颗粒物(PM10),56,62,47,24,19,92,,113,108,23,17,8,10,0.6,0.5
2025-03-21T2100,3636A,112.4388,34.6781,洛阳市,英才小学,颗粒物(PM10),55,60,49,23,23,92,,114,110,26,24,10,11,0.4,0.4
2025-03-21T2100,4214A,112.4600,34.6949,洛阳市,春都路1号院,颗粒物(PM10),64,78,72,28,24,87,,118,112,33,26,9,10,0.5,0.5
2025-03-21T2100,2399A,114.051,33.5699,漯河市,三五一五工厂,,42,42,34,24,22,99,,,,20,18,6,8,0.5,0.4
2025-03-21T2100,2400A,114.0055,33.5698,漯河市,漯河大学,颗粒物(PM10),53,55,46,22,17,89,,120,114,25,23,6,7,0.4,0.3
2025-03-21T2100,2401A,114.0138,33.5828,漯河市,市水利局,颗粒物(PM10),51,51,40,27,17,101,,122,120,18,16,4,5,0.4,0.3
2025-03-21T2100,2402A,114.0261,33.5698,漯河市,市广电局,颗粒物(PM10),52,54,39,22,16,89,,122,114,23,16,7,7,0.4,0.3
2025-03-21T2100,3478A,113.9749,33.5664,漯河市,市图书馆,,,51,40,24,21,100,,121,117,,16,5,6,0.5,0.4
2025-03-21T2100,4250A,114.0892,33.5882,漯河市,韶山路11号,颗粒物(PM10),55,59,42,25,16,106,,130,126,21,15,4,5,0.3,0.3
2025-03-21T2100,1798A,118.5092,31.6837,马鞍山市,湖东路四小,,36,36,50,13,24,105,,145,138,31,27,9,9,0.6,0.6
2025-03-21T2100,1799A,118.5024,31.6449,马鞍山市,开发区,,50,50,60,20,29,61,,138,123,70,51,5,6,0.5,0.6
2025-03-21T2100,1802A,118.6245,31.7241,马鞍山市,濮塘,,44,44,55,21,28,115,,157,150,20,21,9,11,0.5,0.5
2025-03-21T2100,3633A,118.4918,31.6809,马鞍山市,雨山,,41,41,53,14,26,99,,141,132,35,34,10,10,0.6,0.6
2025-03-21T2100,4191A,118.5274,31.72227,马鞍山市,慈湖高新区,,41,41,55,21,32,70,,135,126,68,35,37,12,2.8,0.9
2025-03-21T2100,1686A,111.0286,21.4688,茂名市,电白南海,颗粒物(PM10),54,58,72,36,47,141,,159,157,19,17,3,14,0.7,0.7
2025-03-21T2100,1687A,110.9294,21.6533,茂名市,茂石化七小,臭氧1小时,63,73,70,44,41,170,,204,200,22,19,8,11,0.6,0.5
2025-03-21T2100,1688A,110.9107,21.6687,茂名市,健康路,臭氧1小时,74,70,67,44,39,179,,199,198,25,21,9,14,0.6,0.6
2025-03-21T2100,1689A,110.8592,21.6828,茂名市,高岭,颗粒物(PM10),63,75,82,34,43,146,,194,188,26,23,5,20,0.5,0.6
2025-03-21T2100,3450A,111.01,21.5165,茂名市,电白水东,颗粒物(PM10),52,53,59,27,30,146,,171,166,6,10,3,14,0.5,0.6
2025-03-21T2100,2539A,104.0308,30.0478,眉山市,黑龙滩水库,,37,37,42,16,26,68,,87,87,2,5,3,3,0.5,0.6
2025-03-21T2100,2540A,103.8416,30.0874,眉山市,气象局,颗粒物(PM10),56,62,69,31,43,47,,89,89,53,31,6,8,0.9,0.7
2025-03-21T2100,3137A,103.8578,30.0744,眉山市,市委党校,颗粒物(PM10),54,58,56,31,38,46,,80,80,55,39,8,9,0.7,0.6
2025-03-21T2100,3148A,103.8291,30.0564,眉山市,区人社局,细颗粒物(PM2.5),52,52,46,36,38,37,,81,81,72,44,6,7,0.7,0.8
2025-03-21T2100,1690A,116.1231,24.3284,梅州市,梅江月梅,颗粒物(PM10),55,59,44,35,26,161,,140,140,16,28,10,5,0.5,0.4
2025-03-21T2100,1691A,116.0797,24.2719,梅州市,梅县新城,颗粒物(PM10),56,62,50,35,26,134,,140,130,23,34,7,6,0.5,0.5
2025-03-21T2100,1692A,116.1248,24.2654,梅州市,环境监控中心,,45,45,46,26,27,87,,132,120,45,35,7,9,0.5,0.5
2025-03-21T2100,3315A,116.1233,24.2991,梅州市,梅龙,颗粒物(PM10),58,66,43,37,27,92,,132,125,37,22,8,8,0.8,0.6
2025-03-21T2100,1878A,104.7778,31.4741,绵阳市,富乐山,,42,42,62,28,43,93,,112,112,22,38,2,3,0.5,0.7
2025-03-21T2100,1880A,104.6697,31.4668,绵阳市,高新区自来水公司,"颗粒物(PM10),细颗粒物(PM2.5)",55,59,89,39,54,8,,104,94,105,45,4,4,0.7,0.6
2025-03-21T2100,1881A,104.7287,31.5075,绵阳市,三水厂,颗粒物(PM10),60,69,84,38,58,38,,112,101,73,39,6,7,0.8,0.7
2025-03-21T2100,3491A,104.69,31.5322,绵阳市,西科大附属小学,颗粒物(PM10),65,80,76,46,47,27,,107,99,94,44,9,7,0.6,0.7
2025-03-21T2100,3492A,104.5648,31.5343,绵阳市,安州区旅游局,细颗粒物(PM2.5),79,86,66,58,47,45,,104,98,67,31,6,8,0.9,0.5
2025-03-21T2100,4226A,104.7651,31.4531,绵阳市,绵阳市气象局,颗粒物(PM10),52,54,70,34,45,31,,101,95,89,45,4,4,0.7,0.7
2025-03-21T2100,1784A,129.61,44.561,牡丹江市,环保大楼,细颗粒物(PM2.5),63,53,106,45,71,77,,90,89,19,23,6,9,0.4,0.6
2025-03-21T2100,1785A,129.6115,44.5782,牡丹江市,文化广场,细颗粒物(PM2.5),67,48,100,48,71,79,,88,84,16,28,11,14,0.5,0.7
2025-03-21T2100,1786A,129.5904,44.5963,牡丹江市,第一医院,细颗粒物(PM2.5),60,,87,43,69,78,,92,90,13,26,10,13,0.3,0.6
2025-03-21T2100,1787A,129.6364,44.6075,牡丹江市,机车工厂,细颗粒物(PM2.5),57,51,95,40,63,77,,89,80,12,34,9,15,0.5,0.8
2025-03-21T2100,1788A,129.6386,44.5462,牡丹江市,第一中学,细颗粒物(PM2.5),75,63,91,55,62,86,,98,91,15,22,9,11,0.6,0.6
2025-03-21T2100,2531A,105.0703,29.61,内江市,市监测站,细颗粒物(PM2.5),108,112,62,81,50,,,74,74,,54,,10,,1.1
2025-03-21T2100,2532A,105.0717,29.5947,内江市,东兴区政府,细颗粒物(PM2.5),78,98,59,57,39,18,,75,71,83,49,6,6,1.2,0.7
2025-03-21T2100,2533A,105.0653,29.5817,内江市,内江二中,细颗粒物(PM2.5),80,94,64,59,47,5,,79,74,96,48,10,10,1.4,0.9
2025-03-21T2100,2534A,105.0406,29.5822,内江市,内江日报社,细颗粒物(PM2.5),77,86,66,56,46,9,,78,74,97,50,13,12,1.4,0.6
2025-03-21T2100,2628A,92.0657,31.4846,那曲市,那曲监测站,,30,17,40,9,27,96,,101,101,8,16,7,9,0.4,0.8
2025-03-21T2100,3128A,92.0506,31.4797,那曲市,那曲会议中心,,,,48,,9,,,110,,,,,4,,0.4
2025-03-21T2100,1290A,115.8931,28.6843,南昌市,省外办,,,,68,75,45,48,,139,126,,72,8,9,,1
2025-03-21T2100,1291A,115.8886,28.7003,南昌市,省林业公司,颗粒物(PM10),68,85,66,46,36,79,,136,130,46,54,13,10,0.6,0.5
2025-03-21T2100,1292A,115.8126,28.7442,南昌市,林科所,,,44,46,29,24,82,,137,130,,61,10,9,0.7,0.6
2025-03-21T2100,1294A,115.8518,28.687,南昌市,建工学校,颗粒物(PM10),72,93,65,36,38,56,,137,128,87,64,14,14,0.9,0.6
2025-03-21T2100,1295A,115.8921,28.6424,南昌市,象湖,,,,75,,36,,,148,146,,60,10,11,0.7,0.8
2025-03-21T2100,1296A,115.7423,28.7996,南昌市,武术学校,,45,,22,31,13,86,,136,128,12,11,6,7,0.5,0.4
2025-03-21T2100,3046A,115.9084,28.6062,南昌市,机电学校,颗粒物(PM10),74,98,82,41,42,76,,141,132,55,58,8,10,0.6,0.6
2025-03-21T2100,3690A,115.9721,28.7031,南昌市,外国语学校,颗粒物(PM10),59,68,68,33,33,122,,156,155,28,42,6,7,0.4,0.5
2025-03-21T2100,4192A,115.9316,28.68677,南昌市,南京东路235号,细颗粒物(PM2.5),79,103,97,58,42,81,,144,134,59,60,8,10,0.8,0.6
2025-03-21T2100,1905A,106.056,30.8064,南充市,西山风景区,,47,47,42,32,38,116,,126,126,11,13,4,5,0.6,0.7
2025-03-21T2100,1906A,106.0789,30.8023,南充市,南充市委,细颗粒物(PM2.5),58,63,60,41,42,18,,118,111,94,34,4,4,1.2,0.7
2025-03-21T2100,1907A,106.1031,30.8217,南充市,南充炼油厂,细颗粒物(PM2.5),69,76,70,50,45,82,,116,116,43,41,6,5,0.6,0.5
2025-03-21T2100,1909A,106.0642,30.7636,南充市,嘉陵区环保局,细颗粒物(PM2.5),70,73,66,51,39,53,,107,101,60,43,5,5,1.0,0.8
2025-03-21T2100,4227A,106.1083,30.7884,南充市,梨树横街98号,颗粒物(PM10),60,69,68,34,33,88,,122,120,31,37,6,6,0.4,0.5
2025-03-21T2100,4304A,106.1172,30.843,南充市,清泉寺北路188号,细颗粒物(PM2.5),68,74,69,49,43,85,,125,124,43,27,8,7,0.3,0.3
2025-03-21T2100,1151A,118.8086,32.1065,南京市,迈皋桥,,34,33,39,19,23,107,,139,131,34,33,4,4,0.2,0.3
2025-03-21T2100,1152A,118.7538,32.0551,南京市,草场门,,48,48,47,19,23,90,,116,110,43,41,8,9,0.4,0.4
2025-03-21T2100,1153A,118.7794,32.0745,南京市,山西路,,48,48,48,17,20,101,,129,123,31,28,3,5,0.6,0.6
2025-03-21T2100,1154A,118.7752,32.0023,南京市,中华门,,39,39,48,19,23,96,,120,113,28,38,14,15,0.7,0.6
2025-03-21T2100,1155A,118.8109,32.0309,南京市,瑞金路,颗粒物(PM10),51,51,52,24,24,74,,130,113,56,48,7,6,1.3,0.8
2025-03-21T2100,1156A,118.7997,32.0754,南京市,玄武湖,,43,43,49,14,19,100,,129,124,22,22,4,5,0.5,0.5
2025-03-21T2100,1157A,118.6414,32.0931,南京市,浦口,,49,49,50,19,19,121,,144,139,16,17,7,8,0.6,0.6
2025-03-21T2100,1158A,118.7356,31.9996,南京市,奥体中心,,49,49,52,19,24,90,,133,125,51,45,9,11,0.5,0.4
2025-03-21T2100,1159A,118.9125,32.1028,南京市,仙林大学城,颗粒物(PM10),51,51,51,24,20,84,,127,115,50,38,14,10,1.1,0.7
2025-03-21T2100,3422A,118.8436,31.9198,南京市,江宁彩虹桥,,50,50,60,19,27,110,,145,140,26,28,5,11,0.6,0.7
2025-03-21T2100,3423A,119.0138,31.6494,南京市,溧水永阳,,40,29,41,28,31,104,,146,141,22,24,4,10,0.4,0.6
2025-03-21T2100,3427A,118.8554,32.3578,南京市,六合雄州,,38,36,41,26,18,99,,130,122,19,14,5,5,0.2,0.3
2025-03-21T2100,4249A,118.8708,31.3402,南京市,汶溪路181号,颗粒物(PM10),51,51,43,27,31,115,,147,140,23,20,7,6,0.4,0.5
2025-03-21T2100,1401A,108.3103,22.7881,南宁市,二十一中,细颗粒物(PM2.5),72,62,79,52,61,148,,172,170,30,57,16,9,0.7,0.8
2025-03-21T2100,1402A,108.3141,22.8528,南宁市,北湖,细颗粒物(PM2.5),95,100,86,71,59,67,,160,148,70,60,11,14,1.0,0.7
2025-03-21T2100,1403A,108.3206,22.8225,南宁市,市监测站,细颗粒物(PM2.5),65,69,80,47,51,87,,159,151,67,50,11,14,0.9,0.9
2025-03-21T2100,1404A,108.3829,22.8037,南宁市,大自然花园,细颗粒物(PM2.5),62,68,69,44,51,115,,170,162,33,34,7,9,0.6,0.5
2025-03-21T2100,1405A,108.4394,22.7904,南宁市,仙葫,细颗粒物(PM2.5),79,63,75,58,57,99,,153,144,39,45,6,9,0.9,0.7
2025-03-21T2100,1406A,108.2397,22.8467,南宁市,区农职院,,,102,75,62,48,61,,174,158,70,38,6,19,,0.8
2025-03-21T2100,1407A,108.3275,22.735,南宁市,英华嘉园,细颗粒物(PM2.5),84,107,90,62,62,11,,167,138,129,66,11,10,0.9,0.7
2025-03-21T2100,3401A,108.4834,22.7618,南宁市,红星社区,细颗粒物(PM2.5),95,,65,71,53,92,,164,151,44,36,11,11,0.9,0.7
2025-03-21T2100,4221A,108.2177,22.7774,南宁市,乐贤路16号,"颗粒物(PM10),细颗粒物(PM2.5)",73,96,107,53,56,63,,158,140,86,67,12,13,0.7,0.9
2025-03-21T2100,2331A,118.0966,26.6761,南平市,茫荡山,,,,30,,12,,,,,,,,3,,0.3
2025-03-21T2100,2332A,118.1681,26.6369,南平市,南平市监测站,,43,43,36,30,24,49,,130,110,39,24,3,3,0.9,0.6
2025-03-21T2100,2333A,118.1825,26.6489,南平市,南平铝业有限公司,,42,42,37,26,20,50,,129,106,35,23,6,7,0.8,0.7
2025-03-21T2100,2334A,118.1756,26.6272,南平市,南平七中,,32,,32,22,22,78,,127,114,19,19,4,5,0.4,0.4
2025-03-21T2100,1168A,120.9098,31.9663,南通市,狼山街道,颗粒物(PM10),53,55,72,30,41,74,,125,109,63,64,11,12,0.7,0.9
2025-03-21T2100,1169A,120.86,32.0005,南通市,虹桥,细颗粒物(PM2.5),60,66,73,43,45,48,,112,95,100,80,10,13,0.8,0.9
2025-03-21T2100,1170A,120.87,32.02,南通市,城中,颗粒物(PM10),64,77,87,35,42,61,,108,85,88,84,11,14,0.8,0.9
2025-03-21T2100,1171A,120.94,31.93,南通市,星湖花园,颗粒物(PM10),54,57,70,26,38,84,,123,121,62,61,12,13,0.5,0.9
2025-03-21T2100,1172A,120.81,32.0417,南通市,紫琅学院,二氧化氮,62,67,78,30,38,15,,134,108,123,70,10,9,0.8,1
2025-03-21T2100,3291A,121.067,32.062,南通市,通州监测站,颗粒物(PM10),59,68,81,36,43,91,,145,129,59,58,7,9,0.7,1
2025-03-21T2100,3432A,120.9348,31.9883,南通市,环境教育馆,颗粒物(PM10),53,56,75,31,41,104,,137,130,43,54,10,13,0.6,0.9
2025-03-21T2100,2404A,112.5224,33.0122,南阳市,瓦房庄,颗粒物(PM10),64,77,69,34,28,65,,111,108,42,38,4,3,0.5,0.5
2025-03-21T2100,2405A,112.5003,32.9735,南阳市,汉画馆,颗粒物(PM10),57,64,56,23,24,71,,112,110,35,35,4,5,0.3,0.4
2025-03-21T2100,2406A,112.5573,33.027,南阳市,气象站,颗粒物(PM10),62,73,65,27,23,71,,112,110,42,39,5,5,0.5,0.5
2025-03-21T2100,2407A,112.5481,32.9689,南阳市,理工学院,颗粒物(PM10),59,68,59,28,22,55,,111,107,67,40,8,5,0.4,0.4
2025-03-21T2100,4008A,112.5234,32.9922,南阳市,卧龙区政府,,,66,66,25,27,,,114,,28,35,4,5,0.4,0.4
2025-03-21T2100,1234A,121.8358,29.911,宁波市,区环保大楼,细颗粒物(PM2.5),55,55,61,39,36,128,,133,120,32,65,8,9,0.6,0.6
2025-03-21T2100,1235A,121.56,29.82,宁波市,万里学院,,50,50,51,28,29,112,,145,142,37,27,8,9,0.4,0.4
2025-03-21T2100,1236A,121.713,29.9572,宁波市,龙赛医院,颗粒物(PM10),71,91,70,33,33,86,,126,108,64,50,7,8,0.5,0.5
2025-03-21T2100,1239A,121.633,29.7733,宁波市,钱湖水厂,,49,49,41,27,26,129,,149,145,21,21,7,7,0.6,0.6
2025-03-21T2100,1240A,121.5856,29.8635,宁波市,太古小学,颗粒物(PM10),54,57,53,28,27,127,,144,142,30,28,9,9,0.5,0.5
2025-03-21T2100,1241A,121.524,29.8674,宁波市,市环境监测中心,,48,48,55,31,31,108,,138,131,57,44,8,10,0.8,0.8
2025-03-21T2100,2871A,121.6147,29.9017,宁波市,万里国际学校,,46,46,47,20,25,146,,140,135,19,25,8,8,0.4,0.5
2025-03-21T2100,3710A,121.5594,29.8975,宁波市,白沙活动中心,,49,49,47,27,30,125,,146,138,36,33,7,7,0.6,0.6
2025-03-21T2100,2339A,119.5001,26.6946,宁德市,金涵水库,,,,,,,,,,,,2,,5,,0.5
2025-03-21T2100,2341A,119.5388,26.6612,宁德市,宁德市监测站,,35,34,35,24,23,91,,129,122,18,17,6,6,0.9,0.7
2025-03-21T2100,3209A,119.5231,26.6562,宁德市,宁德一中,,32,32,33,20,21,92,,127,122,13,14,7,6,0.8,0.5
2025-03-21T2100,2618A,98.8601,25.8567,怒江傈僳族自治州,州监测站,细颗粒物(PM2.5),58,64,58,41,39,83,,110,109,14,12,5,5,0.6,0.5
2025-03-21T2100,2619A,98.8546,25.8417,怒江傈僳族自治州,泸水一中,细颗粒物(PM2.5),64,64,60,46,45,58,,90,87,25,23,6,6,0.7,0.6
2025-03-21T2100,1888A,101.6891,26.571,攀枝花市,弄弄坪,颗粒物(PM10),83,115,82,52,47,65,,86,86,42,30,18,14,1.6,1
2025-03-21T2100,1889A,101.5769,26.5928,攀枝花市,河门口,,,88,91,58,54,,,93,93,25,36,24,16,1.2,1.6
2025-03-21T2100,1890A,101.7169,26.585,攀枝花市,炳草岗,细颗粒物(PM2.5),72,83,74,52,47,30,,79,77,63,41,9,11,1.2,0.9
2025-03-21T2100,1891A,101.7369,26.5008,攀枝花市,仁和,细颗粒物(PM2.5),82,92,87,60,56,56,,89,89,33,27,9,10,0.9,0.9
2025-03-21T2100,2835A,101.7227,26.567,攀枝花市,四十中小,颗粒物(PM10),69,87,79,49,43,58,,85,85,48,31,11,14,1.3,0.9
2025-03-21T2100,1604A,122.0303,41.1489,盘锦市,开发区,颗粒物(PM10),53,56,50,31,26,57,,111,97,42,35,13,14,0.8,0.7
2025-03-21T2100,1605A,122.0485,41.0883,盘锦市,兴隆台,,45,45,50,26,25,50,,102,90,51,38,6,8,0.8,0.8
2025-03-21T2100,1606A,121.8297,41.1028,盘锦市,新生街道,,42,42,43,23,23,29,,107,88,58,38,9,13,0.6,0.7
2025-03-21T2100,1832A,113.3257,33.742,平顶山市,新华旅馆,颗粒物(PM10),68,85,59,34,23,83,,118,112,35,29,4,4,0.3,0.3
2025-03-21T2100,1833A,113.2919,33.737,平顶山市,规划设计院,颗粒物(PM10),63,75,52,34,20,57,,117,108,56,34,6,6,0.6,0.4
2025-03-21T2100,1834A,113.182,33.774,平顶山市,平顶山工学院,颗粒物(PM10),52,54,38,22,12,115,,121,120,11,12,5,5,0.5,0.5
2025-03-21T2100,3204A,113.3025,33.73,平顶山市,规划局,颗粒物(PM10),59,68,54,32,22,97,,120,116,25,30,5,5,0.6,0.5
2025-03-21T2100,3594A,112.8867,33.9116,平顶山市,石龙区,,,51,51,15,15,108,,,,,,6,6,0.3,0.3
2025-03-21T2100,2656A,106.6692,35.5461,平凉市,聚贤嘉苑,颗粒物(PM10),70,90,72,37,27,55,,119,110,56,25,13,12,0.7,0.4
2025-03-21T2100,2657A,106.7021,35.5307,平凉市,博物馆,颗粒物(PM10),74,98,74,39,30,48,,119,105,53,26,23,16,0.9,0.4
2025-03-21T2100,2347A,114.0997,27.5002,萍乡市,武功山,,27,25,23,13,15,86,,123,112,8,8,7,6,0.9,0.9
2025-03-21T2100,2348A,113.8385,27.6434,萍乡市,中医院,颗粒物(PM10),60,69,56,35,27,74,,131,118,38,29,9,11,0.9,0.8
2025-03-21T2100,2349A,113.8493,27.6253,萍乡市,市政府车库,颗粒物(PM10),55,59,48,29,31,69,,137,120,37,25,6,8,0.6,0.8
2025-03-21T2100,2350A,113.8676,27.6435,萍乡市,市环保局,颗粒物(PM10),62,74,53,40,31,56,,140,121,47,30,4,9,0.8,0.7
2025-03-21T2100,2351A,113.866,27.6198,萍乡市,安源区政府,,50,50,50,20,25,83,,136,121,18,21,6,8,0.4,0.9
2025-03-21T2100,2319A,119.0141,25.4325,莆田市,荔城区仓后路,颗粒物(PM10),57,64,46,32,24,80,,146,132,32,19,3,3,0.8,0.6
2025-03-21T2100,2320A,119.0015,25.4553,莆田市,莆田市监测站,,38,,32,26,17,109,,148,140,13,12,4,4,0.3,0.3
2025-03-21T2100,2321A,119.1119,25.4561,莆田市,涵江区六中,颗粒物(PM10),51,51,41,30,19,99,,149,138,34,23,4,4,0.6,0.4
2025-03-21T2100,2322A,119.1013,25.3215,莆田市,秀屿区政府,,38,32,45,19,30,120,,144,138,18,22,3,5,0.4,0.5
2025-03-21T2100,2323A,118.981,25.4792,莆田市,东圳水库,,,,23,,13,,,,,,6,,2,,0.6
2025-03-21T2100,2392A,115.0312,35.7636,濮阳市,环保局,,34,34,48,14,21,106,,116,116,17,38,4,6,0.5,0.6
2025-03-21T2100,2394A,115.0574,35.7609,濮阳市,油田运输公司,颗粒物(PM10),53,56,60,17,20,104,,121,118,20,36,5,6,0.7,0.8
2025-03-21T2100,3021A,115,35.7668,濮阳市,濮水河管理处,颗粒物(PM10),60,70,70,19,24,91,,117,114,31,50,6,6,0.5,0.6
2025-03-21T2100,4216A,115.0924,35.7686,濮阳市,任丘路479号,颗粒物(PM10),57,63,59,22,19,106,,130,127,21,35,6,7,0.5,0.5
2025-03-21T2100,2601A,100.98,22.7633,普洱市,市环保局,颗粒物(PM10),61,72,72,9,16,52,,66,66,12,10,3,4,0.6,0.6
2025-03-21T2100,2602A,100.9817,22.8322,普洱市,普洱第二中学,,,,40,38,29,31,,60,56,19,16,6,6,0.9,0.8
2025-03-21T2100,2262A,131.0518,45.8751,七台河市,新一中,,26,6,41,3,29,81,,98,94,8,13,11,12,1.0,1.1
2025-03-21T2100,3345A,131.0577,45.7879,七台河市,中波台,,20,7,62,3,43,63,,94,80,18,19,6,8,0.4,0.6
2025-03-21T2100,3637A,131.0176,45.7761,七台河市,人民广场,,20,12,77,9,49,62,,89,79,18,20,7,9,0.5,0.5
2025-03-21T2100,3684A,130.8781,45.8222,七台河市,新建矿广场,,32,,67,22,46,73,,86,82,10,21,9,11,0.5,0.7
2025-03-21T2100,1779A,123.9305,47.3636,齐齐哈尔市,安居小区,,24,24,23,6,12,74,,85,79,18,16,8,9,0.3,0.4
2025-03-21T2100,1780A,123.9488,47.3386,齐齐哈尔市,中心广场,,29,29,25,13,11,69,,78,74,15,12,5,7,0.4,0.4
2025-03-21T2100,1781A,123.9483,47.3227,齐齐哈尔市,农牧车辆厂,,26,19,28,13,9,82,,86,83,10,11,3,7,0.2,0.2
2025-03-21T2100,1783A,123.945,47.2988,齐齐哈尔市,市环境监测站,,23,23,28,9,12,70,,83,78,17,12,8,5,0.3,0.3
2025-03-21T2100,3662A,123.6333,47.2075,齐齐哈尔市,富区青少年活动中心,,22,16,45,9,21,69,,83,76,10,17,7,10,0.4,0.5
2025-03-21T2100,2591A,107.9783,26.5747,黔东南苗族侗族自治州,市环境监测站,,49,49,43,34,32,47,,101,92,40,32,6,6,0.6,0.5
2025-03-21T2100,2881A,107.8908,26.5311,黔东南苗族侗族自治州,凯里学院,颗粒物(PM10),53,56,41,30,28,67,,112,108,22,18,4,4,0.7,0.6
2025-03-21T2100,2593A,107.5228,26.2403,黔南布依族苗族自治州,小围寨,,35,22,38,19,30,112,,126,125,6,13,7,11,0.6,0.7
2025-03-21T2100,3538A,107.5175,26.2978,黔南布依族苗族自治州,沙坝,,39,36,46,27,32,92,,117,115,11,18,5,8,0.6,0.6
2025-03-21T2100,2589A,104.9022,25.0925,黔西南布依族苗族自治州,场坝街,细颗粒物(PM2.5),70,,48,51,50,102,,126,110,12,15,5,38,0.4,0.4
2025-03-21T2100,2590A,104.8811,25.0992,黔西南布依族苗族自治州,坪东大道,细颗粒物(PM2.5),59,43,36,42,30,87,,111,98,21,20,4,9,0.4,0.4
2025-03-21T2100,2502A,108.6236,21.9667,钦州市,市环保站,颗粒物(PM10),59,68,95,27,46,123,,172,166,34,34,8,14,0.5,0.7
2025-03-21T2100,2503A,108.6549,21.9481,钦州市,沙埠小学,颗粒物(PM10),72,93,94,26,66,92,,173,163,55,44,14,19,0.6,0.7
2025-03-21T2100,2504A,108.5989,21.7431,钦州市,港区一小,颗粒物(PM10),69,87,105,27,55,87,,146,136,70,57,17,14,0.7,0.9
2025-03-21T2100,3404A,108.5959,21.9633,钦州市,北职校,颗粒物(PM10),62,74,96,34,59,120,,176,168,29,39,8,14,0.6,0.8
2025-03-21T2100,1043A,119.7493,40.0116,秦皇岛市,第一关,,50,50,39,19,14,52,,102,90,36,19,5,6,0.3,0.3
2025-03-21T2100,1044A,119.5897,39.9499,秦皇岛市,监测站,,40,40,36,10,9,50,,105,95,31,10,4,4,0.4,0.3
2025-03-21T2100,1046A,119.5251,39.9041,秦皇岛市,建设大厦,颗粒物(PM10),53,56,41,20,12,47,,101,87,42,19,7,6,0.4,0.3
2025-03-21T2100,3132A,119.610547,39.943889,秦皇岛市,文明里,颗粒物(PM10),55,60,35,21,10,33,,98,84,49,18,4,5,0.4,0.3
2025-03-21T2100,4198A,119.5090,39.8253,秦皇岛市,北戴河轮滑馆,颗粒物(PM10),51,51,41,18,15,71,,104,95,18,15,7,9,0.3,0.4
2025-03-21T2100,1307A,120.6659,36.2403,青岛市,仰口,颗粒物(PM10),52,53,41,23,18,111,,129,128,12,12,6,5,0.2,0.3
