timepoint,stationcode,longitude,latitude,area,positionname,primarypollutant,aqi,pm10,pm10_24h,pm2_5,pm2_5_24h,o3,o3_24h,o3_8h,o3_8h_24h,no2,no2_24h,so2,so2_24h,co,co_24h
2023-10-11T19:00:00,1001A,116.3621,39.8784,北京市,万寿西宫,颗粒物(PM10),65,79,54,38,29,155,127,128,128,33,44,3,3,0.7,0.6
2023-10-11T19:00:00,1002A,116.2202,40.2915,北京市,定陵,,37,37,30,20,18,106,43,84,83,1,10,3,2,0.5,0.4
2023-10-11T19:00:00,1003A,116.4174,39.9289,北京市,东四,颗粒物(PM10),65,80,55,36,28,141,124,118,118,31,40,3,2,0.6,0.5
2023-10-11T19:00:00,1004A,116.4072,39.8863,北京市,天坛,颗粒物(PM10),51,52,47,31,28,140,88,112,112,26,39,3,2,0.5,0.6
2023-10-11T19:00:00,1005A,116.462,39.9365,北京市,农展馆,颗粒物(PM10),59,68,55,32,28,144,119,115,115,32,47,3,3,0.6,0.6
2023-10-11T19:00:00,1006A,116.3392,39.9295,北京市,官园,颗粒物(PM10),64,77,52,41,26,141,138,124,124,25,40,2,1,0.6,0.5
2023-10-11T19:00:00,1007A,116.2878,39.9611,北京市,海淀万柳,颗粒物(PM10),61,72,55,36,25,121,99,102,102,44,35,2,2,0.8,0.7
2023-10-11T19:00:00,1008A,116.6636,40.135,北京市,顺义新城,颗粒物(PM10),58,65,54,33,28,148,66,109,109,54,36,3,3,0.6,0.4
2023-10-11T19:00:00,1009A,116.6275,40.3275,北京市,怀柔镇,颗粒物(PM10),57,64,35,36,20,123,67,104,104,46,18,1,2,0.7,0.4
2023-10-11T19:00:00,1010A,116.2296,40.217,北京市,昌平镇,颗粒物(PM10),59,67,43,27,19,128,82,105,105,11,8,1,2,0.6,0.4
2023-10-11T19:00:00,1011A,116.3966,39.9821,北京市,奥体中心,颗粒物(PM10),62,73,48,35,25,135,121,113,113,32,43,3,3,0.5,0.4
2023-10-11T19:00:00,1012A,116.184,39.9136,北京市,古城,颗粒物(PM10),62,73,55,36,23,137,101,114,114,44,45,1,2,0.7,0.5
2023-10-11T19:00:00,1015A,117.1444,39.1661,天津市,勤俭道,,50,50,65,26,38,139,92,123,123,49,53,8,9,0.7,0.8
2023-10-11T19:00:00,1017A,117.237,39.1082,天津市,大直沽八号路,,32,32,70,13,39,142,95,119,119,40,47,4,7,0.5,0.8
2023-10-11T19:00:00,1018A,117.202,39.0927,天津市,前进道,,29,29,60,14,33,137,84,116,116,54,55,6,8,0.6,0.9
2023-10-11T19:00:00,1019A,117.1837,39.2133,天津市,淮河道,颗粒物(PM10),54,57,73,30,41,158,85,133,133,62,62,6,9,0.7,0.9
2023-10-11T19:00:00,1021A,117.307,39.0877,天津市,跃进路,,29,26,65,13,36,159,91,130,130,46,53,8,10,0.6,0.9
2023-10-11T19:00:00,1023A,117.707,39.0343,天津市,第四大街,,41,41,56,24,34,151,63,118,117,70,60,6,10,0.6,0.9
2023-10-11T19:00:00,1024A,117.457,38.8394,天津市,永明路,,40,40,54,22,33,143,73,128,123,59,46,6,7,0.5,0.7
2023-10-11T19:00:00,1026A,117.764,39.1587,天津市,汉北路,,29,23,63,12,34,147,74,110,108,57,65,8,11,0.4,1
2023-10-11T19:00:00,1027A,117.157,38.9194,天津市,团泊洼,,31,11,52,15,36,131,99,109,109,25,41,4,5,0.7,0.9
2023-10-11T19:00:00,1029A,114.4422,38.0444,石家庄市,职工医院,颗粒物(PM10),66,82,70,41,29,142,109,129,129,39,56,5,7,0.5,0.7
2023-10-11T19:00:00,1030A,114.6063,38.0266,石家庄市,高新区,颗粒物(PM10),68,86,75,43,38,146,114,130,130,36,49,2,3,0.5,0.6
2023-10-11T19:00:00,1031A,114.4898,38.1328,石家庄市,西北水源,颗粒物(PM10),74,98,75,45,33,141,102,134,127,46,46,3,3,0.6,0.6
2023-10-11T19:00:00,1032A,114.4586,38.0058,石家庄市,西南高教,,,,76,,31,137,99,120,120,41,55,4,5,,0.7
2023-10-11T19:00:00,1033A,114.5331,38.0178,石家庄市,世纪公园,颗粒物(PM10),71,92,67,41,35,140,113,126,126,30,37,4,4,0.6,0.7
2023-10-11T19:00:00,1034A,114.509,38.0457,石家庄市,人民会堂,颗粒物(PM10),64,77,66,44,38,149,131,136,136,30,41,5,7,0.5,0.7
2023-10-11T19:00:00,1035A,114.3524,37.8911,石家庄市,封龙山,颗粒物(PM10),60,69,68,33,32,138,136,134,134,22,21,4,5,0.5,0.8
2023-10-11T19:00:00,1037A,118.131,39.6363,唐山市,雷达站,细颗粒物(PM2.5),62,70,72,44,41,153,110,132,132,43,46,4,4,0.9,1
2023-10-11T19:00:00,1038A,118.1725,39.6334,唐山市,物资局,颗粒物(PM10),65,80,67,36,33,153,97,132,132,55,48,7,8,0.8,0.8
2023-10-11T19:00:00,1040A,118.1705,39.6506,唐山市,十二中,,,76,63,41,35,151,111,132,132,40,47,,3,,0.9
2023-10-11T19:00:00,1041A,118.1869,39.622,唐山市,小山,颗粒物(PM10),68,85,73,43,32,153,100,129,129,41,42,3,4,0.8,0.9
2023-10-11T19:00:00,1042A,119.5134,39.8207,秦皇岛市,北戴河环保局,颗粒物(PM10),52,54,49,23,23,160,143,131,131,22,58,7,7,0.7,0.6
2023-10-11T19:00:00,1043A,119.7493,40.0116,秦皇岛市,第一关,二氧化氮,74,83,51,47,30,155,56,132,126,148,92,14,10,1.2,0.6
2023-10-11T19:00:00,1044A,119.5897,39.9499,秦皇岛市,监测站,细颗粒物(PM2.5),62,53,56,44,40,146,132,134,134,29,56,10,9,1.0,0.7
2023-10-11T19:00:00,1046A,119.5251,39.9041,秦皇岛市,建设大厦,细颗粒物(PM2.5),53,52,66,37,35,145,120,123,123,16,37,3,11,0.7,0.5
2023-10-11T19:00:00,1048A,114.5302,36.6116,邯郸市,东污水处理厂,颗粒物(PM10),59,67,75,41,48,138,56,110,110,73,58,5,11,0.6,1.1
2023-10-11T19:00:00,1049A,114.4918,36.5713,邯郸市,矿院,细颗粒物(PM2.5),74,72,74,54,46,143,55,111,111,67,66,4,9,0.8,0.8
2023-10-11T19:00:00,1050A,114.484,36.6133,邯郸市,丛台公园,细颗粒物(PM2.5),63,70,74,45,47,138,105,122,122,41,59,9,18,0.6,1.5
2023-10-11T19:00:00,1051A,115.493,38.8632,保定市,游泳馆,颗粒物(PM10),83,115,77,52,47,176,117,150,150,54,56,4,6,0.9,0.8
2023-10-11T19:00:00,1052A,115.5213,38.8959,保定市,华电二区,颗粒物(PM10),60,70,62,42,35,167,138,144,144,24,43,3,7,0.5,0.5
2023-10-11T19:00:00,1053A,115.4713,38.9108,保定市,接待中心,颗粒物(PM10),69,88,77,37,32,164,141,144,144,33,50,7,7,0.6,0.5
2023-10-11T19:00:00,1054A,115.4612,38.8416,保定市,地表水厂,颗粒物(PM10),89,127,89,44,36,161,105,137,137,72,62,7,7,0.7,0.7
2023-10-11T19:00:00,1056A,115.5086,38.8639,保定市,监测站,颗粒物(PM10),78,106,76,50,44,177,143,151,151,34,49,9,10,0.7,0.7
2023-10-11T19:00:00,1057A,114.8883,40.8336,张家口市,人民公园,颗粒物(PM10),58,65,31,25,10,135,65,110,107,54,16,2,3,0.8,0.5
2023-10-11T19:00:00,1059A,114.8687,40.8042,张家口市,五金库,,,113,38,44,16,135,40,110,103,90,28,6,3,,0.1
2023-10-11T19:00:00,1060A,114.8902,40.762,张家口市,世纪豪园,,,,32,,14,126,44,104,101,,20,4,6,1.0,0.4
2023-10-11T19:00:00,1061A,114.8916,40.8661,张家口市,北泵房,颗粒物(PM10),51,52,27,26,17,143,65,122,119,30,14,8,7,0.5,0.2
2023-10-11T19:00:00,1062A,117.9531,40.9081,承德市,铁路,颗粒物(PM10),53,55,32,34,18,112,29,89,86,82,28,6,7,0.6,0.5
2023-10-11T19:00:00,1063A,117.9392,40.9763,承德市,中国银行,,48,48,36,16,15,117,33,89,86,47,27,5,7,0.7,0.6
2023-10-11T19:00:00,1064A,117.9503,40.928,承德市,开发区,,48,48,49,20,23,120,51,97,97,39,33,4,6,0.6,0.6
2023-10-11T19:00:00,1065A,117.8051,40.9655,承德市,文化中心,颗粒物(PM10),64,78,53,35,19,120,41,91,91,45,40,2,4,0.7,0.7
2023-10-11T19:00:00,1066A,117.9268,41.0026,承德市,离宫,,28,22,31,19,21,108,64,86,86,8,10,2,3,0.4,0.5
2023-10-11T19:00:00,1067A,116.6708,39.5111,廊坊市,药材公司,颗粒物(PM10),66,81,67,40,34,157,115,134,134,37,44,4,4,0.7,0.7
2023-10-11T19:00:00,1068A,116.7214,39.5589,廊坊市,开发区,细颗粒物(PM2.5),57,60,56,40,35,161,86,136,136,35,38,2,3,0.6,0.6
2023-10-11T19:00:00,1070A,116.7244,39.5269,廊坊市,北华航天学院,颗粒物(PM10),70,89,61,39,33,165,108,138,138,49,42,7,9,0.8,0.8
2023-10-11T19:00:00,1071A,116.8842,38.2991,沧州市,沧县城建局,,47,47,49,32,30,138,68,120,117,71,48,6,6,0.5,0.5
2023-10-11T19:00:00,1072A,116.8584,38.3254,沧州市,电视转播站,颗粒物(PM10),53,55,49,31,23,132,81,115,114,39,32,4,4,0.4,0.5
2023-10-11T19:00:00,1073A,116.8709,38.3228,沧州市,市环保局,颗粒物(PM10),69,87,53,39,32,134,67,115,113,56,35,4,4,0.5,0.5
2023-10-11T19:00:00,1074A,115.6838,37.7541,衡水市,电机北厂,颗粒物(PM10),69,88,70,41,36,171,117,150,150,36,41,6,11,0.6,0.6
2023-10-11T19:00:00,1075A,115.6303,37.7316,衡水市,市监测站,颗粒物(PM10),70,89,60,46,32,162,96,142,142,47,37,4,6,0.7,0.6
2023-10-11T19:00:00,1077A,114.4704,37.0886,邢台市,达活泉,颗粒物(PM10),68,86,70,46,34,145,101,127,127,36,40,7,5,0.6,0.6
2023-10-11T19:00:00,1078A,114.5062,37.0349,邢台市,邢师高专,颗粒物(PM10),72,94,74,33,23,140,48,118,114,107,66,7,7,0.6,0.5
2023-10-11T19:00:00,1079A,114.5237,37.0851,邢台市,路桥公司,颗粒物(PM10),73,96,67,42,33,134,78,115,115,52,55,7,7,0.5,0.4
2023-10-11T19:00:00,1080A,114.4725,37.0719,邢台市,市环保局,,,104,66,52,35,151,92,130,130,,42,,5,0.7,0.6
2023-10-11T19:00:00,1081A,112.522,37.8873,太原市,尖草坪,细颗粒物(PM2.5),93,110,85,69,46,153,109,129,129,42,54,12,11,1.1,0.9
2023-10-11T19:00:00,1083A,112.434,38.0108,太原市,上兰,,,,,,,,,,,,,,,,
2023-10-11T19:00:00,1084A,112.469,37.7124,太原市,晋源,细颗粒物(PM2.5),125,120,77,95,50,150,68,125,123,68,45,11,10,1.2,1.1
2023-10-11T19:00:00,1085A,112.5583,37.7394,太原市,小店,细颗粒物(PM2.5),118,134,92,89,49,144,89,119,119,,62,9,16,,1.2
2023-10-11T19:00:00,1086A,112.5369,37.8692,太原市,桃园,细颗粒物(PM2.5),108,123,98,81,49,150,109,129,129,44,60,12,11,1.1,1
2023-10-11T19:00:00,1087A,112.57,37.8195,太原市,坞城,细颗粒物(PM2.5),97,111,80,72,45,150,111,129,129,41,46,13,13,1.0,1.1
2023-10-11T19:00:00,1088A,112.549,37.9854,太原市,南寨,颗粒物(PM10),85,119,91,59,48,143,77,112,112,38,50,10,12,0.9,0.9
2023-10-11T19:00:00,1090A,111.6507,40.7517,呼和浩特市,呼市一监,细颗粒物(PM2.5),55,44,54,39,36,81,32,61,58,63,49,6,9,0.9,0.7
2023-10-11T19:00:00,1091A,111.6572,40.8033,呼和浩特市,小召,,,41,66,,34,77,39,61,60,67,59,7,9,1.1,0.9
2023-10-11T19:00:00,1094A,111.7516,40.8369,呼和浩特市,如意水处理厂,,34,34,69,15,30,103,53,80,77,49,62,8,10,0.8,0.6
2023-10-11T19:00:00,1095A,111.7276,40.8062,呼和浩特市,二十九中,,41,41,66,20,35,97,66,79,79,46,56,7,9,0.8,0.8
2023-10-11T19:00:00,1096A,111.5512,40.7866,呼和浩特市,工大金川校区,,31,22,64,17,32,88,32,60,58,61,61,5,7,0.7,0.7
2023-10-11T19:00:00,1097A,111.717,40.7612,呼和浩特市,化肥厂生活区,颗粒物(PM10),53,55,72,31,34,79,36,64,62,52,46,7,10,0.9,0.7
2023-10-11T19:00:00,1098A,123.6836,41.9339,沈阳市,森林路,,,,,,,,,,,,,,,,
2023-10-11T19:00:00,1099A,123.505,41.7406,沈阳市,浑南东路,颗粒物(PM10),61,71,65,39,36,113,15,87,84,99,46,15,13,1.6,1
2023-10-11T19:00:00,1100A,123.4231,41.6989,沈阳市,新秀街,二氧化氮,66,60,68,36,38,114,5,79,76,132,63,20,15,1.6,1.3
2023-10-11T19:00:00,1102A,123.5903,41.8411,沈阳市,东陵路,颗粒物(PM10),55,59,52,29,29,125,35,97,94,64,36,11,12,0.8,0.9
2023-10-11T19:00:00,1103A,123.4264,41.8467,沈阳市,陵东街,,47,47,73,25,38,116,11,90,86,73,48,6,9,1.0,1.4
2023-10-11T19:00:00,1104A,123.4114,41.7653,沈阳市,文化路,颗粒物(PM10),80,109,83,58,44,121,38,94,94,83,58,14,15,1.4,1.4
2023-10-11T19:00:00,1105A,123.4678,41.7867,沈阳市,小河沿,颗粒物(PM10),51,51,66,29,36,115,37,90,90,71,50,10,10,1.2,1.4
2023-10-11T19:00:00,1106A,123.4017,41.7972,沈阳市,太原街,颗粒物(PM10),66,82,86,41,48,114,4,80,72,125,72,10,11,2.4,1.7
2023-10-11T19:00:00,1108A,123.3783,41.9228,沈阳市,京沈街,细颗粒物(PM2.5),60,55,77,43,51,120,91,108,108,70,59,13,16,0.8,1.3
2023-10-11T19:00:00,1109A,121.612,38.9741,大连市,甘井子,颗粒物(PM10),52,54,51,28,28,137,122,116,116,29,24,8,9,0.9,0.8
2023-10-11T19:00:00,1110A,121.565,38.9511,大连市,周水子,颗粒物(PM10),52,54,51,30,28,126,99,113,113,54,40,9,10,0.6,0.6
2023-10-11T19:00:00,1111A,121.5637,38.8845,大连市,星海三站,,43,37,46,21,28,146,135,128,128,16,20,10,10,0.8,0.8
2023-10-11T19:00:00,1112A,121.6302,38.9117,大连市,青泥洼桥,,39,39,51,24,30,130,103,110,110,38,34,8,9,0.9,0.9
2023-10-11T19:00:00,1113A,121.6251,38.8638,大连市,傅家庄,,40,29,48,22,31,158,128,132,132,18,22,7,8,0.2,0.7
2023-10-11T19:00:00,1114A,121.5213,38.8661,大连市,七贤岭,,48,48,47,23,27,158,116,139,139,33,23,6,7,0.9,0.9
2023-10-11T19:00:00,1115A,121.2529,38.8061,大连市,旅顺,臭氧1小时,57,42,40,26,27,165,165,142,142,13,18,8,9,0.6,0.8
2023-10-11T19:00:00,1116A,121.7485,39.1311,大连市,金州,颗粒物(PM10),51,52,46,32,30,124,96,117,116,31,21,10,10,1.0,0.8
2023-10-11T19:00:00,1117A,121.7811,39.0496,大连市,开发区,"颗粒物(PM10),细颗粒物(PM2.5)",52,54,56,36,37,119,116,110,110,41,35,7,19,0.8,0.8
2023-10-11T19:00:00,1118A,121.9762,39.0631,大连市,双D港,,30,30,44,16,28,129,86,114,108,30,21,8,10,0.6,0.8
2023-10-11T19:00:00,1119A,125.3325,43.9166,长春市,食品厂,细颗粒物(PM2.5),135,121,101,103,50,101,7,84,68,118,63,9,8,2.6,1
2023-10-11T19:00:00,1120A,125.2863,43.9027,长春市,客车厂,细颗粒物(PM2.5),92,101,78,68,39,108,10,77,68,124,60,13,10,2.4,1
2023-10-11T19:00:00,1121A,125.2841,43.8463,长春市,邮电学院,,46,44,51,32,29,123,64,98,98,33,40,5,6,0.7,0.7
2023-10-11T19:00:00,1122A,125.3716,43.8772,长春市,劳动公园,颗粒物(PM10),75,99,98,35,37,106,10,82,77,94,52,5,6,1.2,0.9
2023-10-11T19:00:00,1123A,125.3297,43.8805,长春市,园林处,颗粒物(PM10),53,56,62,26,28,108,10,90,85,81,49,8,8,1.1,0.9
2023-10-11T19:00:00,1124A,125.4605,43.79,长春市,净月潭,,34,34,27,15,12,121,81,104,104,15,15,6,7,0.4,0.3
2023-10-11T19:00:00,1125A,125.7194,43.515,长春市,甩湾子,,,,,,,,,,,,,,,,
2023-10-11T19:00:00,1126A,125.3863,43.8447,长春市,经开区环卫处,颗粒物(PM10),58,66,90,34,34,118,8,93,89,87,42,6,7,1.1,0.8
2023-10-11T19:00:00,1127A,125.245,43.7783,长春市,高新区管委会,颗粒物(PM10),60,70,64,25,29,116,8,90,83,85,37,6,6,0.7,0.6
2023-10-11T19:00:00,1128A,125.1761,43.8325,长春市,岱山公园,二氧化氮,64,73,68,42,29,114,10,84,80,128,61,8,7,0.9,0.8
2023-10-11T19:00:00,1129A,126.5422,45.755,哈尔滨市,岭北,,40,40,47,15,28,101,20,85,80,46,14,11,16,0.9,0.8
2023-10-11T19:00:00,1130A,126.561,45.8167,哈尔滨市,松北商大,,43,43,44,17,17,92,6,69,63,71,34,6,7,0.8,0.7
2023-10-11T19:00:00,1131A,126.979,45.5419,哈尔滨市,阿城会宁,颗粒物(PM10),99,147,60,42,22,96,8,78,66,72,29,6,6,1.2,0.6
2023-10-11T19:00:00,1132A,126.599,45.7222,哈尔滨市,南岗学府路,细颗粒物(PM2.5),97,132,93,72,42,88,5,72,61,86,44,7,7,2.9,1.4
2023-10-11T19:00:00,1133A,126.689,45.7733,哈尔滨市,太平宏伟公园,细颗粒物(PM2.5),87,85,115,64,40,89,11,72,67,93,44,4,5,2.0,1.3
2023-10-11T19:00:00,1134A,126.635,45.7667,哈尔滨市,道外承德广场,细颗粒物(PM2.5),64,41,66,46,31,92,6,73,65,99,58,6,6,1.4,1.2
2023-10-11T19:00:00,1135A,126.685,45.7319,哈尔滨市,香坊红旗大街,细颗粒物(PM2.5),84,113,96,62,46,90,9,71,64,112,58,14,19,1.8,1.3
2023-10-11T19:00:00,1136A,126.6411,45.7258,哈尔滨市,动力和平路,颗粒物(PM10),68,85,73,27,27,85,21,70,65,93,54,12,14,1.7,0.9
2023-10-11T19:00:00,1137A,126.593,45.7478,哈尔滨市,道里建国路,颗粒物(PM10),105,159,100,44,40,90,12,73,61,93,54,7,15,2.3,1.4
2023-10-11T19:00:00,1138A,126.615,45.61,哈尔滨市,平房东轻厂,颗粒物(PM10),61,71,49,33,21,94,9,80,71,86,37,9,8,0.9,0.4
2023-10-11T19:00:00,1139A,126.595,45.9855,哈尔滨市,呼兰师专,,,,,,,,,,,,,,,,
2023-10-11T19:00:00,1140A,126.6206,45.6842,哈尔滨市,省农科院,颗粒物(PM10),73,95,85,43,29,97,8,83,71,115,55,12,13,1.0,0.8
2023-10-11T19:00:00,1141A,121.4,31.238,上海市,普陀,,34,31,35,15,21,112,108,109,109,16,30,4,5,0.6,0.8
2023-10-11T19:00:00,1142A,121.478,31.2036,上海市,十五厂,,36,36,30,19,17,119,106,114,114,23,25,5,5,0.6,0.6
2023-10-11T19:00:00,1143A,121.467,31.3008,上海市,虹口,,34,29,30,17,20,114,107,110,110,22,31,8,8,0.5,0.6
2023-10-11T19:00:00,1144A,121.412,31.1654,上海市,徐汇上师大,,33,31,34,20,25,119,104,112,112,22,27,8,8,0.7,0.8
2023-10-11T19:00:00,1145A,121.536,31.2659,上海市,杨浦四漂,,,31,30,,17,121,113,114,114,19,23,8,8,0.5,0.6
2023-10-11T19:00:00,1147A,121.425,31.2261,上海市,静安监测站,,36,27,31,14,21,121,114,116,116,18,29,5,5,0.6,0.7
2023-10-11T19:00:00,1148A,121.703,31.1907,上海市,浦东川沙,,35,31,31,17,21,117,110,113,113,19,29,6,6,0.5,0.5
2023-10-11T19:00:00,1149A,121.533,31.2284,上海市,浦东新区监测站,,31,27,28,16,17,110,99,106,106,22,24,6,7,0.6,0.6
2023-10-11T19:00:00,1150A,121.577,31.2071,上海市,浦东张江,,31,25,29,21,22,105,99,101,101,23,24,5,6,0.6,0.7
2023-10-11T19:00:00,1151A,118.8086,32.1065,南京市,迈皋桥,,30,26,35,17,17,137,94,125,124,34,34,4,5,0.4,0.5
2023-10-11T19:00:00,1152A,118.7538,32.0551,南京市,草场门,,33,22,38,19,23,142,105,127,127,28,42,2,4,0.7,0.8
2023-10-11T19:00:00,1153A,118.7794,32.0745,南京市,山西路,,39,39,46,14,25,146,105,132,132,26,34,3,7,0.4,0.4
2023-10-11T19:00:00,1154A,118.7752,32.0023,南京市,中华门,,36,36,36,17,19,147,96,124,124,33,29,4,4,0.7,0.7
2023-10-11T19:00:00,1155A,118.8109,32.0309,南京市,瑞金路,,31,29,37,14,17,136,98,118,118,30,31,8,10,0.5,0.5
2023-10-11T19:00:00,1156A,118.7997,32.0754,南京市,玄武湖,,,41,37,16,21,135,,125,125,,34,,6,,0.6
2023-10-11T19:00:00,1157A,118.6414,32.0931,南京市,浦口,,35,32,33,14,21,134,111,125,125,19,21,9,8,0.9,0.8
2023-10-11T19:00:00,1158A,118.7356,31.9996,南京市,奥体中心,,37,34,42,22,25,146,116,131,131,24,31,7,8,0.4,0.4
2023-10-11T19:00:00,1159A,118.9125,32.1028,南京市,仙林大学城,,31,29,34,17,22,144,98,127,127,31,37,3,3,0.6,0.7
2023-10-11T19:00:00,1160A,120.561,31.2472,苏州市,上方山,,30,22,38,15,27,232,94,132,132,22,23,4,12,0.6,1.1
2023-10-11T19:00:00,1162A,120.591,31.3019,苏州市,彩香,,31,31,42,15,24,132,98,116,116,24,35,7,8,0.7,0.8
2023-10-11T19:00:00,1163A,120.596,31.3264,苏州市,轧钢厂,,32,32,44,14,21,137,93,122,122,28,32,9,10,0.7,0.8
2023-10-11T19:00:00,1164A,120.613,31.2703,苏州市,吴中区,,30,30,41,15,22,141,94,124,124,34,32,8,9,0.7,0.9
2023-10-11T19:00:00,1165A,120.543,31.2994,苏州市,苏州新区,,28,28,40,14,20,140,87,124,124,46,46,8,9,0.7,0.8
2023-10-11T19:00:00,1166A,120.669,31.3097,苏州市,苏州工业园区,,31,26,36,15,21,147,99,128,128,30,33,8,8,0.7,0.8
2023-10-11T19:00:00,1167A,120.641,31.3708,苏州市,相城区,,29,24,36,16,20,138,90,122,121,31,31,9,10,0.7,0.7
2023-10-11T19:00:00,1168A,120.9098,31.9663,南通市,狼山街道,,,,24,,13,128,92,119,115,,17,,7,0.4,0.3
2023-10-11T19:00:00,1169A,120.86,32.0005,南通市,虹桥,,45,45,29,28,18,126,81,118,112,27,21,6,6,0.5,0.5
2023-10-11T19:00:00,1170A,120.87,32.02,南通市,城中,,33,33,23,18,14,120,84,111,108,24,19,7,7,0.6,0.6
2023-10-11T19:00:00,1171A,120.94,31.93,南通市,星湖花园,,37,37,27,16,15,125,92,118,113,24,19,6,6,0.3,0.6
2023-10-11T19:00:00,1172A,120.81,32.0417,南通市,紫琅学院,,37,37,29,23,16,123,80,113,108,31,28,7,10,0.4,0.4
2023-10-11T19:00:00,1173A,119.176,34.5885,连云港市,市环境监测站,,,,57,,35,122,113,118,118,15,44,4,7,0.4,0.7
2023-10-11T19:00:00,1177A,117.179,34.2761,徐州市,黄河新村,细颗粒物(PM2.5),73,68,71,53,48,152,102,138,138,44,48,8,10,0.7,0.7
2023-10-11T19:00:00,1178A,117.1918,34.2384,徐州市,淮塔,颗粒物(PM10),54,58,71,36,49,170,130,154,154,19,30,8,9,0.6,0.7
2023-10-11T19:00:00,1180A,117.256,34.2153,徐州市,新城区,颗粒物(PM10),58,66,104,33,70,165,122,148,148,41,56,8,9,0.6,0.6
2023-10-11T19:00:00,1181A,117.244,34.2911,徐州市,桃园路,,,73,83,44,48,153,73,140,136,48,42,,10,,0.7
2023-10-11T19:00:00,1182A,117.2933,34.2778,徐州市,农科院,颗粒物(PM10),67,83,74,45,49,152,90,134,133,54,51,9,9,0.8,0.6
2023-10-11T19:00:00,1186A,119.389,32.3761,扬州市,邗江监测站,,46,46,37,32,19,141,118,133,133,25,25,11,8,0.6,0.4
2023-10-11T19:00:00,1188A,120.269,31.4867,无锡市,雪浪,,41,41,38,22,19,135,80,118,116,26,27,4,6,0.8,0.8
2023-10-11T19:00:00,1189A,120.275,31.6219,无锡市,黄巷,,46,46,54,17,22,133,79,119,117,39,40,6,8,0.6,0.7
2023-10-11T19:00:00,1190A,120.294,31.56,无锡市,曹张,,40,40,41,24,25,136,80,119,118,41,35,6,8,0.7,1
2023-10-11T19:00:00,1191A,120.242,31.5031,无锡市,漆塘,,39,39,34,24,21,143,72,123,120,28,27,6,7,0.9,0.9
2023-10-11T19:00:00,1192A,120.3489,31.5863,无锡市,东亭,,,,44,,25,135,77,116,114,41,41,5,6,0.8,0.9
2023-10-11T19:00:00,1193A,120.354,31.5475,无锡市,旺庄,,39,39,39,24,25,139,90,121,120,34,38,6,8,0.9,1
2023-10-11T19:00:00,1194A,120.245,31.5631,无锡市,荣巷,,39,39,34,22,22,131,92,118,118,23,24,8,9,0.8,1
2023-10-11T19:00:00,1195A,120.299,31.6817,无锡市,堰桥,,48,48,43,24,23,135,83,123,121,30,31,7,8,0.6,0.7
2023-10-11T19:00:00,1196A,119.9633,31.762,常州市,市监测站,,39,39,42,25,29,132,105,122,122,26,32,8,9,0.5,0.5
2023-10-11T19:00:00,1200A,119.9468,31.7069,常州市,武进监测站,,37,37,41,19,20,141,115,131,131,17,23,8,9,0.6,0.6
2023-10-11T19:00:00,1201A,119.9255,31.9087,常州市,安家,,40,39,41,28,28,140,88,130,127,34,30,9,11,0.6,0.6
2023-10-11T19:00:00,1203A,119.6707,32.1875,镇江市,新区办事处,,42,42,33,28,22,137,79,124,121,61,32,5,8,0.5,0.5
2023-10-11T19:00:00,1204A,119.4974,32.1968,镇江市,职教中心,,38,36,34,26,31,139,109,130,130,21,29,4,8,0.5,0.4
2023-10-11T19:00:00,1205A,119.4303,32.1328,镇江市,丹徒区监测站,,39,39,37,20,22,140,108,130,130,23,23,1,5,0.4,0.5
2023-10-11T19:00:00,1206A,119.905,32.4878,泰州市,公园路,,45,39,32,31,23,139,101,131,128,26,22,6,10,0.6,0.5
2023-10-11T19:00:00,1207A,119.9189,32.4625,泰州市,莲花,,45,39,35,31,22,140,126,133,133,17,19,6,12,0.6,0.5
2023-10-11T19:00:00,1209A,119.888,32.4639,泰州市,留学生创业园,,50,50,37,31,23,139,107,132,130,22,18,13,13,0.7,0.7
2023-10-11T19:00:00,1210A,119.036,33.5981,淮安市,钵池山,细颗粒物(PM2.5),59,63,43,42,34,131,102,122,122,30,32,7,7,0.9,0.8
2023-10-11T19:00:00,1211A,119.007,33.575,淮安市,北京南路,颗粒物(PM10),58,66,54,38,36,138,113,129,129,30,36,6,6,0.9,0.8
2023-10-11T19:00:00,1212A,118.989,33.6067,淮安市,市监测站,颗粒物(PM10),57,63,52,39,34,147,121,135,135,31,38,9,9,0.8,0.8
2023-10-11T19:00:00,1213A,119.135,33.5039,淮安市,楚州区监测站,颗粒物(PM10),56,61,50,31,34,136,109,128,128,28,30,7,7,0.8,0.7
2023-10-11T19:00:00,1214A,119.0186,33.6297,淮安市,淮阴区监测站,颗粒物(PM10),59,68,56,36,38,143,114,132,132,30,44,8,8,0.8,0.8
2023-10-11T19:00:00,1215A,120.118,33.4022,盐城市,盐城电厂,,29,29,38,14,17,133,87,121,117,20,19,6,9,0.4,0.4
2023-10-11T19:00:00,1216A,120.156,33.3942,盐城市,市监测站,,30,23,28,12,21,140,94,128,124,25,21,3,5,0.4,0.4
2023-10-11T19:00:00,1218A,120.2144,33.38,盐城市,开发区管委会,,29,26,34,8,16,133,92,125,120,22,17,8,9,0.3,0.4
2023-10-11T19:00:00,1220A,118.293,33.9528,宿迁市,宿迁学院,细颗粒物(PM2.5),67,72,55,48,32,168,153,158,158,22,38,10,9,0.7,0.6
2023-10-11T19:00:00,1221A,118.2442,33.9592,宿迁市,宿迁中学,细颗粒物(PM2.5),74,84,58,54,40,158,112,142,141,33,32,8,9,0.9,0.8
2023-10-11T19:00:00,1223A,120.2072,30.2111,杭州市,滨江,,47,36,53,21,29,163,149,146,146,26,30,9,8,0.7,0.8
2023-10-11T19:00:00,1224A,120.0633,30.2747,杭州市,西溪,,35,30,40,22,31,160,111,137,137,21,25,5,5,0.7,0.7
2023-10-11T19:00:00,1226A,120.3461,30.3153,杭州市,下沙,,40,40,49,21,32,161,120,143,143,48,40,7,7,0.6,0.7
2023-10-11T19:00:00,1227A,120.1269,30.2456,杭州市,卧龙桥,,30,30,42,20,32,164,78,132,132,30,21,11,11,0.8,0.7
2023-10-11T19:00:00,1228A,120.1903,30.2692,杭州市,浙江农大,,36,32,39,22,31,142,114,122,122,28,26,7,6,0.7,0.7
2023-10-11T19:00:00,1230A,120.1197,30.3119,杭州市,和睦小学,,40,40,44,22,32,152,123,132,132,35,35,8,8,0.6,0.6
2023-10-11T19:00:00,1231A,120.3019,30.4183,杭州市,临平镇,,44,39,62,20,29,167,139,147,147,21,29,6,6,0.6,0.7
2023-10-11T19:00:00,1232A,120.2697,30.1819,杭州市,城厢镇,,44,36,48,20,37,157,139,139,139,20,22,8,7,0.6,0.7
2023-10-11T19:00:00,1233A,120.0883,30.1808,杭州市,云栖,,36,36,59,15,30,157,89,127,127,21,19,6,7,0.8,0.8
2023-10-11T19:00:00,1234A,121.8358,29.911,宁波市,区环保大楼,,,14,27,5,22,125,96,110,101,28,32,5,6,,0.8
2023-10-11T19:00:00,1235A,121.56,29.82,宁波市,万里学院,,26,22,39,10,24,124,83,90,90,40,32,8,8,0.7,0.7
2023-10-11T19:00:00,1236A,121.713,29.9572,宁波市,龙赛医院,,34,8,46,9,20,123,107,119,96,17,26,5,6,0.5,0.7
2023-10-11T19:00:00,1239A,121.633,29.7733,宁波市,钱湖水厂,,26,8,37,6,22,120,81,78,78,24,26,6,6,0.3,0.5
2023-10-11T19:00:00,1240A,121.5856,29.8635,宁波市,太古小学,,26,19,42,11,22,121,82,90,90,29,24,7,8,0.6,0.7
2023-10-11T19:00:00,1241A,121.524,29.8674,宁波市,市环境监测中心,,26,17,37,12,21,129,82,95,95,32,27,7,8,0.6,0.6
2023-10-11T19:00:00,1242A,120.634,28.0089,温州市,瓯海,,28,22,28,13,20,92,87,88,88,10,17,6,6,0.6,0.6
2023-10-11T19:00:00,1243A,120.6748,27.9939,温州市,南浦,,31,19,25,12,17,101,97,95,95,10,18,5,5,0.4,0.5
2023-10-11T19:00:00,1244A,120.76,27.9747,温州市,龙湾,,25,16,26,7,17,93,79,88,88,24,24,4,4,0.4,0.5
2023-10-11T19:00:00,1245A,120.6709,28.0167,温州市,市站,,29,15,25,11,21,91,91,84,84,12,23,5,6,0.5,0.6
2023-10-11T19:00:00,1247A,120.6053,29.9928,绍兴市,城东开发委,,37,37,53,22,36,139,70,116,116,53,26,8,8,0.7,0.6
2023-10-11T19:00:00,1250A,120.0751,30.8669,湖州市,城西水厂,,40,36,46,23,33,165,126,137,137,42,49,4,5,0.6,0.6
2023-10-11T19:00:00,1252A,120.7436,30.778,嘉兴市,清河小学,,37,30,37,12,18,146,117,134,134,33,35,4,5,0.6,0.7
2023-10-11T19:00:00,1253A,120.726,30.7478,嘉兴市,嘉兴学院,,37,30,47,14,24,147,116,135,135,25,19,5,5,0.5,0.7
2023-10-11T19:00:00,1255A,121.273,28.6459,台州市,黄岩环保大楼,颗粒物(PM10),51,51,32,30,20,105,71,94,86,29,21,6,6,0.8,0.6
2023-10-11T19:00:00,1256A,121.419,28.6542,台州市,台州环保大楼,细颗粒物(PM2.5),59,44,31,42,16,115,64,105,90,28,15,4,4,0.6,0.5
2023-10-11T19:00:00,1257A,121.377,28.5773,台州市,路桥田洋王,细颗粒物(PM2.5),52,46,23,36,17,111,70,106,84,24,16,6,6,0.7,0.6
2023-10-11T19:00:00,1258A,122.122,30.0203,舟山市,定海檀枫,,35,19,24,6,14,122,109,112,112,10,10,7,7,0.4,0.5
2023-10-11T19:00:00,1259A,122.3094,29.9558,舟山市,普陀东港,,37,22,22,6,15,132,118,117,117,13,13,5,5,0.4,0.5
2023-10-11T19:00:00,1260A,122.19,29.9944,舟山市,临城新区,,,20,24,11,13,124,111,116,116,,11,,5,0.3,0.6
2023-10-11T19:00:00,1262A,119.647,29.077,金华市,十五中,颗粒物(PM10),53,56,66,32,41,144,92,117,117,39,32,5,5,0.6,0.5
2023-10-11T19:00:00,1263A,119.686,29.1029,金华市,监测站,颗粒物(PM10),55,59,52,22,35,142,81,114,114,36,32,5,5,0.7,0.6
2023-10-11T19:00:00,1264A,118.8692,28.9398,衢州市,环保大楼,细颗粒物(PM2.5),57,58,46,40,32,124,100,110,110,37,22,4,4,0.7,0.6
2023-10-11T19:00:00,1265A,118.8709,28.9666,衢州市,实验学校,颗粒物(PM10),55,60,50,35,30,99,76,86,86,27,20,6,5,0.5,0.6
2023-10-11T19:00:00,1266A,118.8621,28.9808,衢州市,衢州学院,细颗粒物(PM2.5),55,52,46,39,35,130,69,113,111,47,26,2,2,0.5,0.5
2023-10-11T19:00:00,1267A,119.914,28.4514,丽水市,监测站大楼,,44,44,32,21,22,94,94,89,89,17,18,6,6,0.6,0.6
2023-10-11T19:00:00,1268A,119.93,28.4586,丽水市,莲都小学,,40,40,34,18,18,97,97,92,92,18,19,6,6,0.5,0.6
2023-10-11T19:00:00,1269A,119.879,28.4231,丽水市,余庄前,,25,25,34,15,23,96,37,77,72,19,21,5,6,0.5,0.6
2023-10-11T19:00:00,1270A,117.1959,31.7848,合肥市,明珠广场,颗粒物(PM10),54,58,74,24,35,137,66,114,111,55,49,8,9,0.7,0.9
2023-10-11T19:00:00,1271A,117.3072,31.8764,合肥市,三里街,,31,31,61,9,33,116,76,106,105,45,40,5,5,0.6,0.6
2023-10-11T19:00:00,1272A,117.2588,31.8707,合肥市,琥珀山庄,,46,46,66,22,36,126,68,114,111,29,37,5,5,0.8,0.9
2023-10-11T19:00:00,1273A,117.1604,31.9052,合肥市,董铺水库,,34,34,66,14,30,133,88,128,123,28,37,5,6,0.4,0.5
2023-10-11T19:00:00,1274A,117.25,31.8571,合肥市,长江中路,颗粒物(PM10),53,56,73,28,40,128,95,116,116,28,31,7,8,0.7,0.8
2023-10-11T19:00:00,1275A,117.266,31.9436,合肥市,庐阳区,,38,38,73,14,42,124,58,113,109,60,38,3,4,0.5,0.7
2023-10-11T19:00:00,1276A,117.336,31.8586,合肥市,瑶海区,,48,48,74,18,39,116,52,106,101,60,35,4,5,0.8,0.7
2023-10-11T19:00:00,1277A,117.3027,31.7964,合肥市,包河区,二氧化氮,64,56,73,24,39,122,5,96,87,127,65,8,6,0.9,0.9
2023-10-11T19:00:00,1278A,117.2776,31.7385,合肥市,滨湖新区,,41,41,69,19,36,126,87,113,112,24,55,7,7,0.4,0.7
2023-10-11T19:00:00,1279A,117.1318,31.8403,合肥市,高新区,,39,39,78,24,50,126,88,113,113,30,44,7,8,0.6,0.8
2023-10-11T19:00:00,1280A,119.3903,26.0543,福州市,鼓山,,,,,,,,,,,,,,,,
2023-10-11T19:00:00,1282A,119.2681,26.0504,福州市,师大,,35,35,26,17,12,106,91,99,99,11,9,5,4,0.5,0.5
2023-10-11T19:00:00,1283A,119.2984,26.1028,福州市,五四北路,,41,41,26,20,12,106,87,99,98,16,12,3,3,0.5,0.5
2023-10-11T19:00:00,1284A,119.2648,26.0768,福州市,杨桥西路,,38,38,28,19,12,106,94,98,98,9,10,3,3,0.6,0.6
2023-10-11T19:00:00,1285A,119.317,26.0746,福州市,紫阳,,37,37,27,19,12,107,86,98,96,8,7,4,4,0.6,0.6
2023-10-11T19:00:00,1286A,118.1608,24.8169,厦门市,溪东,,,,,,,,,,,,,,,,
2023-10-11T19:00:00,1287A,118.1514,24.4767,厦门市,洪文,颗粒物(PM10),53,55,32,30,19,115,89,105,104,19,10,2,2,0.5,0.4
2023-10-11T19:00:00,1288A,118.0661,24.4444,厦门市,鼓浪屿,,41,41,27,24,16,103,77,93,92,12,5,2,2,0.5,0.5
2023-10-11T19:00:00,1290A,115.8931,28.6843,南昌市,省外办,颗粒物(PM10),63,76,59,39,37,120,116,112,112,20,18,6,5,0.9,0.7
2023-10-11T19:00:00,1291A,115.8886,28.7003,南昌市,省林业公司,细颗粒物(PM2.5),64,73,51,46,39,139,139,127,127,13,18,7,6,0.9,0.8
2023-10-11T19:00:00,1292A,115.8126,28.7442,南昌市,林科所,颗粒物(PM10),53,56,49,34,31,150,121,138,138,33,17,9,9,0.6,0.5
2023-10-11T19:00:00,1294A,115.8518,28.687,南昌市,建工学校,颗粒物(PM10),54,57,59,24,36,136,136,122,122,26,19,9,6,0.6,0.5
2023-10-11T19:00:00,1295A,115.8921,28.6424,南昌市,象湖,,41,41,48,25,33,133,123,124,124,13,12,7,7,0.6,0.7
2023-10-11T19:00:00,1296A,115.7423,28.7996,南昌市,武术学校,,33,18,21,7,19,159,105,136,134,11,11,3,3,0.5,0.5
2023-10-11T19:00:00,1298A,115.9314,28.6842,南昌市,省站,细颗粒物(PM2.5),58,53,54,41,36,128,126,119,119,15,13,8,8,0.5,0.6
2023-10-11T19:00:00,1299A,116.9862,36.6114,济南市,科干所,颗粒物(PM10),57,63,68,39,34,133,105,120,120,43,49,13,7,0.7,0.7
2023-10-11T19:00:00,1300A,116.9376,36.665,济南市,农科所,颗粒物(PM10),59,68,74,34,31,138,88,117,117,39,57,9,7,0.7,0.8
2023-10-11T19:00:00,1301A,117.1265,36.6734,济南市,开发区,颗粒物(PM10),72,93,70,34,31,132,92,115,115,60,61,16,8,0.8,0.8
2023-10-11T19:00:00,1303A,117.0624,36.6868,济南市,省种子仓库,,,88,77,34,32,140,,129,129,43,63,15,8,0.7,0.7
2023-10-11T19:00:00,1304A,116.9489,36.6447,济南市,机床二厂,颗粒物(PM10),63,76,84,42,38,143,110,128,125,43,58,12,4,0.6,0.6
2023-10-11T19:00:00,1305A,117.0495,36.663,济南市,市监测站,颗粒物(PM10),64,78,63,42,31,140,102,125,125,64,69,15,6,0.6,0.7
2023-10-11T19:00:00,1306A,116.7675,36.5484,济南市,长清党校,颗粒物(PM10),68,85,61,39,33,137,103,117,117,50,51,12,6,0.6,0.6
2023-10-11T19:00:00,1307A,120.6659,36.2403,青岛市,仰口,,32,22,31,19,18,114,102,103,102,7,11,2,4,0.2,0.3
2023-10-11T19:00:00,1310A,120.4134,36.0658,青岛市,市南区东部子站,,,,47,17,21,134,109,125,124,,35,3,6,0.5,0.5
2023-10-11T19:00:00,1311A,120.3664,36.1032,青岛市,四方区子站,,28,24,49,14,23,137,87,119,119,50,44,5,6,0.6,0.6
2023-10-11T19:00:00,1312A,120.2994,36.054,青岛市,市南区西部子站,,,22,44,7,20,142,123,131,131,11,24,,8,0.4,0.4
2023-10-11T19:00:00,1313A,120.4581,36.0858,青岛市,崂山区子站,,41,41,37,22,18,137,55,130,122,68,28,6,6,0.7,0.5
2023-10-11T19:00:00,1314A,120.1983,35.9608,青岛市,黄岛区子站,,37,24,49,20,25,141,118,128,128,27,48,5,7,0.6,0.5
2023-10-11T19:00:00,1315A,120.3999,36.3083,青岛市,城阳区子站,,44,44,51,17,25,137,52,125,117,77,34,6,7,0.7,0.6
2023-10-11T19:00:00,1316A,113.69031,34.76122,郑州市,烟厂,颗粒物(PM10),53,55,82,36,41,159,125,143,143,33,58,6,6,0.6,0.7
2023-10-11T19:00:00,1317A,113.65724,34.77134,郑州市,郑纺机,颗粒物(PM10),52,53,75,24,32,158,127,144,144,35,65,6,6,0.8,1
2023-10-11T19:00:00,1318A,113.67526,34.80246,郑州市,银行学校,颗粒物(PM10),51,52,69,25,31,153,124,140,140,31,53,6,6,0.7,0.8
2023-10-11T19:00:00,1319A,113.56746,34.81334,郑州市,供水公司,颗粒物(PM10),66,82,81,32,41,149,125,128,128,38,65,7,7,0.7,1.1
2023-10-11T19:00:00,1320A,113.7329,34.7178,郑州市,经开区管委,颗粒物(PM10),53,56,74,29,35,155,120,138,138,29,56,7,7,0.5,0.6
2023-10-11T19:00:00,1321A,113.73961,34.77172,郑州市,四十七中,颗粒物(PM10),52,53,67,24,30,158,120,142,142,41,63,7,7,0.6,0.7
2023-10-11T19:00:00,1322A,113.60532,34.74838,郑州市,市监测站,颗粒物(PM10),57,63,87,32,39,161,98,142,142,65,61,6,7,0.5,0.6
2023-10-11T19:00:00,1323A,113.64164,34.7525,郑州市,河医大,颗粒物(PM10),56,61,80,29,36,145,117,132,132,37,59,8,8,0.7,0.9
2023-10-11T19:00:00,1324A,113.51488,34.91089,郑州市,岗李水库,,,,,,,,,,,,,,,,
2023-10-11T19:00:00,1325A,114.3677,30.5584,武汉市,东湖梨园,,42,34,44,24,30,155,132,140,140,9,28,10,10,0.5,0.6
2023-10-11T19:00:00,1326A,114.2529,30.558,武汉市,汉阳月湖,,41,41,48,27,34,148,73,135,128,59,47,8,8,0.6,0.7
2023-10-11T19:00:00,1327A,114.282,30.6189,武汉市,汉口花桥,细颗粒物(PM2.5),62,56,52,44,37,152,62,130,127,63,42,7,7,0.8,0.7
2023-10-11T19:00:00,1328A,114.3025,30.5332,武汉市,武昌紫阳,,39,37,49,27,30,163,95,143,142,51,48,10,11,0.8,1
2023-10-11T19:00:00,1329A,114.3646,30.6217,武汉市,青山钢花,细颗粒物(PM2.5),70,51,46,51,37,150,71,124,120,72,46,10,8,0.7,0.6
2023-10-11T19:00:00,1330A,114.1566,30.4825,武汉市,沌口新区,颗粒物(PM10),56,62,60,32,38,170,123,146,146,41,65,11,9,0.7,0.7
2023-10-11T19:00:00,1331A,114.3014,30.5944,武汉市,汉口江滩,,45,41,53,24,29,158,59,139,135,89,36,6,6,0.4,0.5
2023-10-11T19:00:00,1333A,114.135,30.6319,武汉市,吴家山,细颗粒物(PM2.5),53,40,43,37,29,163,96,148,147,48,40,10,10,0.8,0.7
2023-10-11T19:00:00,1334A,113.8454,30.2917,武汉市,沉湖七壕,臭氧1小时,52,38,37,26,20,193,161,168,168,18,21,7,6,0.7,0.7
2023-10-11T19:00:00,1335A,113.0833,28.2325,长沙市,经开区环保局,颗粒物(PM10),56,61,46,36,34,128,122,119,119,23,19,6,6,0.5,0.5
2023-10-11T19:00:00,1336A,112.8872,28.2189,长沙市,高开区环保局,颗粒物(PM10),55,59,49,34,40,145,136,136,136,16,16,8,8,0.7,0.8
2023-10-11T19:00:00,1337A,113.0792,28.2053,长沙市,马坡岭,颗粒物(PM10),59,68,49,37,33,141,126,131,131,28,34,7,7,0.5,0.5
2023-10-11T19:00:00,1338A,112.9394,28.19,长沙市,湖南师范大学,颗粒物(PM10),53,56,47,29,36,145,137,138,138,12,17,6,6,0.6,0.7
2023-10-11T19:00:00,1339A,113.0178,28.1322,长沙市,雨花区环保局,颗粒物(PM10),55,60,42,33,28,136,131,126,126,18,21,6,6,0.8,0.7
2023-10-11T19:00:00,1340A,112.9792,28.2597,长沙市,伍家岭,细颗粒物(PM2.5),54,47,48,38,43,137,126,127,127,22,27,5,6,0.6,0.7
2023-10-11T19:00:00,1341A,113.0014,28.1944,长沙市,火车新站,颗粒物(PM10),56,61,51,39,37,141,134,132,132,20,24,5,5,0.7,0.7
2023-10-11T19:00:00,1342A,112.9844,28.1178,长沙市,天心区环保局,,50,50,44,25,27,140,132,133,133,20,24,5,5,0.3,0.4
2023-10-11T19:00:00,1343A,112.8908,28.1308,长沙市,湖南中医药大学,颗粒物(PM10),56,62,60,30,41,153,127,144,144,23,15,4,4,0.7,0.8
2023-10-11T19:00:00,1344A,112.9581,28.3611,长沙市,沙坪,,43,33,39,30,25,109,100,96,96,10,7,8,8,0.4,0.4
2023-10-11T19:00:00,1345A,113.2347,23.1423,广州市,广雅中学,,32,32,22,17,10,93,58,72,72,26,27,4,4,0.8,0.8
2023-10-11T19:00:00,1346A,113.2612,23.105,广州市,市五中,,33,33,15,21,9,102,57,81,81,28,20,6,6,0.7,0.6
2023-10-11T19:00:00,1348A,113.3478,23.0916,广州市,广东商学院,,27,27,16,18,7,86,52,69,69,19,17,3,3,0.6,0.6
2023-10-11T19:00:00,1349A,113.4332,23.1047,广州市,市八十六中,,27,27,19,14,8,82,50,66,66,20,19,5,4,0.6,0.5
2023-10-11T19:00:00,1350A,113.3505,22.9483,广州市,番禺中学,,,,,,,,,,,,,,,,
2023-10-11T19:00:00,1351A,113.2146,23.3916,广州市,花都师范,,,33,12,17,6,86,69,78,78,,13,,4,0.8,0.6
2023-10-11T19:00:00,1352A,113.2597,23.1331,广州市,市监测站,,28,28,15,14,7,98,54,79,78,29,23,4,3,0.6,0.5
2023-10-11T19:00:00,1353A,113.5618,23.312,广州市,九龙镇镇龙,,28,23,11,19,7,70,53,63,63,12,9,5,5,0.7,0.6
2023-10-11T19:00:00,1354A,113.2765,23.1544,广州市,麓湖,,28,25,15,19,9,93,52,76,76,25,21,6,8,0.6,0.6
2023-10-11T19:00:00,1355A,113.443,23.3035,广州市,帽峰山森林公园,,36,36,12,14,6,77,57,71,69,13,10,6,6,0.4,0.3
2023-10-11T19:00:00,1356A,114.1063,22.5545,深圳市,通心岭子站,,27,27,19,12,9,106,54,90,90,24,18,2,2,0.8,0.7
2023-10-11T19:00:00,1357A,114.117,22.5625,深圳市,洪湖,,,36,19,21,9,95,54,82,81,23,18,6,6,,0.3
2023-10-11T19:00:00,1358A,113.987,22.5417,深圳市,华侨城,,23,23,18,11,9,102,65,91,91,22,17,8,8,1.0,1
2023-10-11T19:00:00,1359A,113.9181,22.5171,深圳市,南海子站,,43,42,27,30,13,112,67,96,96,34,21,5,5,0.8,0.6
2023-10-11T19:00:00,1360A,114.2458,22.5689,深圳市,盐田,,40,40,38,11,10,86,66,69,69,12,18,5,5,0.7,0.7
2023-10-11T19:00:00,1361A,114.2283,22.7244,深圳市,龙岗,,,22,13,11,6,72,48,62,59,20,12,,7,,0.8
2023-10-11T19:00:00,1363A,114.494,22.5422,深圳市,南澳,,23,23,18,14,6,93,61,84,81,12,12,5,4,0.8,0.8
2023-10-11T19:00:00,1364A,114.41,22.6342,深圳市,葵涌,,40,40,24,14,6,81,47,67,66,19,11,6,6,0.7,0.6
2023-10-11T19:00:00,1365A,114.297,22.5978,深圳市,梅沙,,29,29,19,8,5,87,54,78,76,13,9,7,6,0.7,0.7
2023-10-11T19:00:00,1366A,114.0678,22.738,深圳市,观澜,,41,41,23,19,9,117,66,97,97,16,12,8,8,1.0,1
2023-10-11T19:00:00,1367A,113.5814,22.2618,珠海市,吉大,,34,25,21,15,11,163,106,142,142,26,18,6,6,0.8,0.8
2023-10-11T19:00:00,1368A,113.4881,22.2335,珠海市,前山,,33,29,19,12,11,154,103,127,127,31,24,7,6,0.6,0.6
2023-10-11T19:00:00,1369A,113.628,22.4251,珠海市,唐家,,32,28,22,19,10,150,101,128,128,22,18,6,6,0.5,0.5
2023-10-11T19:00:00,1370A,113.299,22.2281,珠海市,斗门,,37,23,17,17,13,170,117,130,130,31,27,7,8,0.6,0.6
2023-10-11T19:00:00,1371A,113.1294,23.0067,佛山市,湾梁,,27,27,12,14,9,108,53,80,80,32,20,7,7,0.7,0.7
2023-10-11T19:00:00,1372A,113.1083,23.0478,佛山市,华材职中,,31,31,15,11,7,98,53,76,76,31,22,5,5,0.5,0.5
2023-10-11T19:00:00,1373A,113.144,23.0453,佛山市,南海气象局,,37,37,19,13,7,91,44,70,70,33,23,6,6,0.6,0.5
2023-10-11T19:00:00,1374A,113.2881,22.8094,佛山市,顺德苏岗,,27,27,15,9,6,105,52,79,79,26,19,7,6,0.7,0.7
2023-10-11T19:00:00,1376A,112.8383,22.8678,佛山市,高明孔堂,,34,34,20,11,8,114,75,92,92,25,21,7,6,0.6,0.8
2023-10-11T19:00:00,1377A,112.8836,23.1588,佛山市,三水监测站,,25,22,13,14,8,94,79,79,79,18,20,4,3,0.8,0.8
2023-10-11T19:00:00,1378A,112.867,23.185,佛山市,三水云东海,,24,24,13,12,9,94,58,79,79,19,15,4,5,0.7,0.7
2023-10-11T19:00:00,1379A,113.3769,22.5211,中山市,华柏园,,40,40,24,16,11,148,72,107,107,34,28,5,5,0.6,0.5
2023-10-11T19:00:00,1380A,113.3881,22.5497,中山市,张溪,,40,40,26,13,13,147,72,107,107,32,26,6,5,0.8,0.7
2023-10-11T19:00:00,1381A,113.4075,22.5111,中山市,紫马岭,,30,24,24,21,14,151,70,114,114,34,26,4,4,0.5,0.6
2023-10-11T19:00:00,1382A,113.4411,22.4853,中山市,长江旅游区,,,,,,,,,,,,,,,,
2023-10-11T19:00:00,1383A,113.1064,22.6058,江门市,北街,,33,33,22,18,10,123,86,102,102,31,27,7,6,0.7,0.6
2023-10-11T19:00:00,1384A,113.0731,22.5835,江门市,西区,,41,41,22,19,10,129,84,102,102,38,24,6,6,0.8,0.6
2023-10-11T19:00:00,1385A,113.0219,22.5311,江门市,圭峰西,,31,31,22,16,9,132,99,112,112,35,29,6,5,0.7,0.6
2023-10-11T19:00:00,1386A,113.0828,22.5947,江门市,东湖,,35,35,23,14,10,134,96,111,111,25,22,5,4,0.7,0.6
2023-10-11T19:00:00,1389A,113.7547,23.0494,东莞市,莞城梨川,,,22,12,11,6,90,56,80,79,17,13,,6,0.7,0.7
2023-10-11T19:00:00,1390A,113.7944,23.0128,东莞市,东城石井,,,25,17,12,7,103,56,88,87,7,9,4,5,,0.8
2023-10-11T19:00:00,1391A,113.7383,22.9658,东莞市,南城西平,,24,24,16,11,8,102,55,86,86,26,24,4,2,0.8,0.7
2023-10-11T19:00:00,1392A,114.4183,23.0528,惠州市,河南岸金山湖子站,,25,25,14,13,8,72,54,66,65,12,9,6,7,0.6,0.5
2023-10-11T19:00:00,1393A,114.4053,23.0822,惠州市,下埔横江三路子站,,19,19,13,12,8,71,59,66,66,10,10,6,7,0.6,0.7
2023-10-11T19:00:00,1394A,114.4103,23.1142,惠州市,江北云山西路子站,,20,17,11,11,7,79,63,70,70,7,8,6,7,0.5,0.4
2023-10-11T19:00:00,1395A,114.4645,22.7833,惠州市,惠阳区承修路船湖子站,,22,22,14,11,7,61,46,54,54,10,8,4,4,0.9,0.7
2023-10-11T19:00:00,1396A,114.5317,22.7422,惠州市,大亚湾管委会子站,,20,20,17,10,6,62,48,56,56,15,9,6,6,0.8,0.8
2023-10-11T19:00:00,1397A,112.4267,23.0706,肇庆市,睦岗子站,,21,20,14,12,8,80,66,68,68,20,19,4,3,0.4,0.5
2023-10-11T19:00:00,1398A,112.4645,23.0475,肇庆市,城中子站,,23,21,14,10,7,86,72,76,76,16,14,6,6,0.6,0.6
2023-10-11T19:00:00,1399A,112.5544,23.1522,肇庆市,坑口子站,,20,18,13,10,7,81,64,70,70,19,16,4,4,0.6,0.5
2023-10-11T19:00:00,1400A,112.4753,23.1,肇庆市,七星岩子站,,,,,,,,,,,,,,,,
2023-10-11T19:00:00,1401A,108.3103,22.7881,南宁市,二十一中,,,18,17,16,10,81,65,75,75,,11,5,6,0.7,0.7
2023-10-11T19:00:00,1402A,108.3141,22.8528,南宁市,北湖,,26,26,18,16,13,76,63,72,72,13,13,5,7,0.6,0.6
2023-10-11T19:00:00,1403A,108.3206,22.8225,南宁市,市监测站,,26,17,18,18,12,76,58,69,68,23,21,9,9,0.8,0.8
2023-10-11T19:00:00,1404A,108.3829,22.8037,南宁市,大自然花园,,23,20,14,16,12,75,60,66,66,16,13,6,6,0.8,0.7
2023-10-11T19:00:00,1405A,108.4394,22.7904,南宁市,仙葫,,,,,,,,,,,,,,,,
2023-10-11T19:00:00,1406A,108.2397,22.8467,南宁市,区农职院,,26,26,19,16,12,83,61,71,71,19,15,7,8,0.6,0.6
2023-10-11T19:00:00,1407A,108.3275,22.735,南宁市,英华嘉园,,30,13,17,21,11,76,62,67,67,16,12,6,6,0.8,0.7
2023-10-11T19:00:00,1408A,108.2257,22.7757,南宁市,沙井镇街道办,,30,30,25,20,12,79,50,66,66,29,18,5,6,0.9,0.9
2023-10-11T19:00:00,1409A,110.576,19.9507,海口市,东寨港,,,,,,,,,,,,,,,,
2023-10-11T19:00:00,1410A,110.3232,20.0574,海口市,海南大学,,,2,10,1,4,74,74,67,67,8,10,,6,,0.5
2023-10-11T19:00:00,1411A,110.283,20.0053,海口市,秀英海南医院,,21,5,9,3,5,66,66,59,59,10,12,7,7,0.4,0.5
2023-10-11T19:00:00,1412A,110.338,19.9969,海口市,海南师范大学,,,2,5,3,4,69,69,65,65,8,10,4,4,,0.6
2023-10-11T19:00:00,1413A,110.33,20.0356,海口市,龙华路环保局宿舍,,22,7,14,5,6,68,68,63,63,9,11,8,8,0.3,0.4
2023-10-11T19:00:00,1414A,106.3787,29.8279,重庆市,缙云山,,26,26,29,6,16,93,75,73,73,6,14,6,7,0.1,0.2
2023-10-11T19:00:00,1416A,106.4213,29.8253,重庆市,天生,,43,42,42,30,25,57,22,38,38,43,32,8,6,0.8,0.8
2023-10-11T19:00:00,1417A,106.6263,29.7228,重庆市,两路,,27,27,36,17,20,54,23,45,45,37,42,6,7,0.9,1.1
2023-10-11T19:00:00,1418A,106.2953,29.5983,重庆市,虎溪,,44,44,36,12,21,59,41,52,52,30,33,7,6,0.5,0.6
2023-10-11T19:00:00,1419A,106.5777,29.5102,重庆市,南坪,颗粒物(PM10),54,57,46,28,26,91,47,63,63,30,45,8,8,0.6,0.7
2023-10-11T19:00:00,1420A,106.6556,29.6277,重庆市,唐家沱,,36,31,42,25,22,86,42,69,64,29,36,6,6,0.7,0.9
2023-10-11T19:00:00,1421A,106.6349,29.4906,重庆市,茶园,,29,29,42,16,22,85,43,64,64,39,36,6,6,0.7,0.9
2023-10-11T19:00:00,1422A,106.3754,29.4572,重庆市,白市驿,,48,34,43,33,25,82,43,57,57,33,37,7,7,0.6,0.7
2023-10-11T19:00:00,1425A,106.6205,29.7166,重庆市,空港,,28,26,37,19,22,72,40,63,63,32,45,4,6,0.9,1.1
2023-10-11T19:00:00,1426A,106.4782,29.4875,重庆市,新山村,,45,45,61,27,37,100,38,67,67,46,47,8,10,0.8,0.9
2023-10-11T19:00:00,1427A,106.5616,29.6453,重庆市,礼嘉,,35,35,48,17,18,91,47,74,72,27,41,8,9,0.8,0.9
2023-10-11T19:00:00,1428A,106.4522,29.7091,重庆市,蔡家,,44,44,47,19,25,60,27,47,46,41,32,6,7,0.6,0.7
2023-10-11T19:00:00,1429A,106.5093,29.3917,重庆市,鱼新街,,35,35,43,23,27,107,59,78,78,30,40,6,10,0.7,0.9
2023-10-11T19:00:00,1431A,103.9728,30.7236,成都市,金泉两河,,36,36,30,22,22,54,28,46,32,22,15,2,1,0.5,0.4
2023-10-11T19:00:00,1432A,104.176,30.6872,成都市,十里店,,34,34,31,17,21,71,46,42,42,16,18,3,3,0.5,0.5
2023-10-11T19:00:00,1433A,104.079,30.5706,成都市,三瓦窑,,42,42,31,17,21,64,40,51,48,20,20,2,2,0.4,0.4
2023-10-11T19:00:00,1434A,104.1114,30.63,成都市,沙河铺,细颗粒物(PM2.5),54,56,40,38,27,51,35,37,36,21,16,1,2,0.6,0.6
2023-10-11T19:00:00,1437A,104.0786,30.6531,成都市,君平街,,49,42,35,34,28,67,33,40,40,30,24,3,2,0.6,0.6
2023-10-11T19:00:00,1438A,103.613,31.0283,成都市,灵岩寺,,26,12,10,10,8,104,81,83,68,8,7,5,4,0.6,0.6
2023-10-11T19:00:00,1439A,106.6899,26.5998,贵阳市,马鞍山,,34,34,23,22,17,76,52,68,64,18,11,4,4,0.6,0.5
2023-10-11T19:00:00,1440A,106.6971,26.5694,贵阳市,市环保站,,49,48,24,34,23,101,52,100,67,32,16,5,4,0.4,0.3
2023-10-11T19:00:00,1441A,106.6243,26.6266,贵阳市,鉴湖路,,46,46,27,27,15,86,46,82,62,25,11,3,2,0.5,0.5
2023-10-11T19:00:00,1442A,106.7487,26.6343,贵阳市,燕子冲,,46,46,24,31,19,78,60,72,68,8,8,5,5,0.5,0.4
2023-10-11T19:00:00,1443A,106.6555,26.4365,贵阳市,碧云窝,,34,34,28,14,13,89,63,82,74,12,10,5,5,0.6,0.4
2023-10-11T19:00:00,1444A,106.694,26.5161,贵阳市,中院村,,42,41,29,29,16,94,44,93,60,28,14,8,8,0.4,0.3
2023-10-11T19:00:00,1445A,106.7109,26.6027,贵阳市,红边门,细颗粒物(PM2.5),55,48,30,39,21,84,46,82,58,25,13,3,3,0.5,0.4
2023-10-11T19:00:00,1446A,106.7164,26.5699,贵阳市,新华路,颗粒物(PM10),51,51,23,31,20,119,52,117,67,25,12,5,5,0.4,0.5
2023-10-11T19:00:00,1447A,106.674,26.5424,贵阳市,太慈桥,,41,41,23,19,15,93,51,93,60,26,14,3,3,0.5,0.4
2023-10-11T19:00:00,1450A,102.8204,24.8886,昆明市,呈贡新区,,37,37,25,22,18,69,53,61,61,24,16,2,5,0.8,0.7
2023-10-11T19:00:00,1451A,102.6251,24.9608,昆明市,西山森林公园,,22,17,17,15,14,68,56,61,61,8,8,5,5,0.6,0.6
2023-10-11T19:00:00,1452A,102.7252,25.0902,昆明市,龙泉镇,,32,29,30,22,18,67,44,47,46,22,20,8,9,0.9,0.8
2023-10-11T19:00:00,1453A,102.7266,25.0375,昆明市,东风东路,,29,29,31,20,19,72,51,59,59,22,22,7,8,0.8,0.7
2023-10-11T19:00:00,1454A,102.6742,25.0669,昆明市,金鼎山,,44,44,33,18,18,75,48,57,57,28,23,11,11,0.7,0.6
2023-10-11T19:00:00,1455A,102.6644,25.0401,昆明市,碧鸡广场,,,30,30,14,17,74,41,57,57,,26,6,7,0.9,0.7
2023-10-11T19:00:00,1456A,91.1319,29.6514,拉萨市,八廓街,,30,10,16,7,9,99,96,94,94,9,11,7,7,0.2,0.2
2023-10-11T19:00:00,1457A,91.1221,29.6747,拉萨市,市环保局,,31,16,16,6,8,99,97,95,95,8,11,7,7,0.4,0.4
2023-10-11T19:00:00,1458A,91.0874,29.6475,拉萨市,区监测站,,20,10,13,5,6,92,61,78,73,9,9,8,8,0.4,0.3
2023-10-11T19:00:00,1459A,91.1774,29.6541,拉萨市,西藏大学,,29,8,14,5,7,99,92,90,90,14,14,8,8,0.3,0.3
2023-10-11T19:00:00,1460A,90.9798,29.6588,拉萨市,区辐射站,,49,49,25,6,8,90,83,86,86,17,10,6,6,0.4,0.3
2023-10-11T19:00:00,1461A,91.0834,29.6292,拉萨市,拉萨火车站,,28,14,12,5,5,94,88,86,86,5,4,6,6,0.5,0.4
2023-10-11T19:00:00,1462A,108.882,34.2749,西安市,高压开关厂,颗粒物(PM10),102,153,130,56,45,81,25,66,62,67,52,9,13,1.0,0.9
2023-10-11T19:00:00,1463A,108.993,34.2629,西安市,兴庆小区,颗粒物(PM10),65,79,85,44,46,104,76,75,75,34,41,11,9,0.9,0.8
2023-10-11T19:00:00,1464A,109.06,34.2572,西安市,纺织城,"颗粒物(PM10),细颗粒物(PM2.5)",87,123,102,64,53,72,35,56,56,59,53,7,7,1.1,0.9
2023-10-11T19:00:00,1465A,108.9356,34.2173,西安市,小寨,颗粒物(PM10),83,116,98,56,46,77,18,54,52,65,54,8,9,1.0,1.1
2023-10-11T19:00:00,1466A,108.954,34.2713,西安市,市人民体育场,"颗粒物(PM10),细颗粒物(PM2.5)",67,83,94,48,51,82,44,63,63,50,50,7,8,1.0,1
2023-10-11T19:00:00,1467A,108.8922,34.2322,西安市,高新西区,细颗粒物(PM2.5),88,105,98,65,54,86,21,64,58,75,60,6,8,1.1,1
2023-10-11T19:00:00,1468A,108.935,34.3474,西安市,经开区,细颗粒物(PM2.5),74,84,88,54,49,90,44,71,68,45,40,5,7,1.2,0.9
2023-10-11T19:00:00,1469A,108.906,34.1546,西安市,长安区,颗粒物(PM10),97,143,98,66,45,56,32,44,44,46,42,6,6,0.9,0.8
2023-10-11T19:00:00,1471A,109.2186,34.3731,西安市,临潼区,颗粒物(PM10),86,121,101,52,46,97,64,83,83,30,31,8,8,1.1,0.9
2023-10-11T19:00:00,1472A,108.869,34.378,西安市,草滩,,,119,109,56,50,158,,91,91,72,45,5,7,1.2,0.9
2023-10-11T19:00:00,1473A,108.985,34.1978,西安市,曲江文化产业集团,细颗粒物(PM2.5),112,150,123,84,61,78,22,50,48,58,54,6,7,0.9,0.9
2023-10-11T19:00:00,1474A,109.051,34.3213,西安市,广运潭,颗粒物(PM10),70,90,88,47,46,92,53,70,70,41,40,11,10,1.0,0.9
2023-10-11T19:00:00,1476A,103.631,36.1031,兰州市,兰炼宾馆,,50,42,32,35,26,70,53,48,44,34,28,2,3,0.4,0.4
2023-10-11T19:00:00,1477A,104.1373,35.9454,兰州市,榆中兰大校区,,,,,,,,,,,,,,,,
2023-10-11T19:00:00,1478A,103.8412,36.0726,兰州市,生物制品所,细颗粒物(PM2.5),55,37,23,39,26,64,62,50,50,22,21,4,5,0.6,0.5
2023-10-11T19:00:00,1479A,103.831,36.0464,兰州市,铁路设计院,,48,28,23,33,25,58,58,52,46,39,27,4,5,0.7,0.5
2023-10-11T19:00:00,1483A,101.524,36.6867,西宁市,第五水厂,,,,,,,,,,,,,,,,
2023-10-11T19:00:00,1484A,105.9512,38.6016,银川市,贺兰山马莲口,,45,45,56,15,29,132,85,91,91,14,20,5,34,0.1,0.5
2023-10-11T19:00:00,1488A,106.2328,38.4975,银川市,贺兰山东路,颗粒物(PM10),65,79,87,22,50,102,82,92,92,37,60,7,12,0.7,0.8
2023-10-11T19:00:00,1489A,106.1358,38.5036,银川市,学院路,颗粒物(PM10),52,54,106,22,46,95,59,80,80,40,51,8,16,0.6,0.8
2023-10-11T19:00:00,1490A,87.5801,43.8303,乌鲁木齐市,监测站,颗粒物(PM10),66,82,88,39,35,118,116,80,80,32,65,7,7,0.6,0.8
2023-10-11T19:00:00,1491A,87.6046,43.768,乌鲁木齐市,收费所,颗粒物(PM10),62,73,84,33,38,110,110,83,83,44,56,6,4,0.5,0.5
2023-10-11T19:00:00,1492A,87.4754,43.9469,乌鲁木齐市,新疆农科院农场,颗粒物(PM10),54,58,124,26,47,119,118,91,91,15,69,4,5,0.2,0.6
2023-10-11T19:00:00,1493A,87.5525,43.8711,乌鲁木齐市,铁路局,颗粒物(PM10),64,77,99,33,36,125,124,90,90,26,67,6,6,0.5,0.8
2023-10-11T19:00:00,1494A,87.6432,43.831,乌鲁木齐市,三十一中学,颗粒物(PM10),65,79,86,36,35,129,126,94,94,27,51,10,8,0.7,0.8
2023-10-11T19:00:00,1496A,87.7216,44.1747,乌鲁木齐市,米东区环保局,颗粒物(PM10),55,60,89,14,30,120,120,96,96,12,39,15,12,0.3,0.5
2023-10-11T19:00:00,1508A,112.9433,27.8614,湘潭市,板塘,颗粒物(PM10),52,53,45,31,31,151,119,131,131,21,29,8,8,1.0,1
2023-10-11T19:00:00,1511A,112.9118,27.8403,湘潭市,市监测站,颗粒物(PM10),52,54,50,27,34,154,120,136,136,26,25,6,5,0.6,0.7
2023-10-11T19:00:00,1512A,112.8937,27.8728,湘潭市,江麓,颗粒物(PM10),53,56,51,26,34,162,127,142,142,18,20,7,8,1.1,1
2023-10-11T19:00:00,1513A,112.9227,27.8159,湘潭市,岳塘,,49,49,43,30,31,158,126,139,139,23,24,13,15,0.5,0.5
2023-10-11T19:00:00,1514A,112.9074,27.9119,湘潭市,科大,颗粒物(PM10),55,60,51,22,33,160,110,139,139,29,25,6,7,0.5,1
2023-10-11T19:00:00,1515A,113.135,27.8244,株洲市,天台山庄,,46,46,37,31,26,143,115,132,132,26,23,7,6,0.7,0.6
2023-10-11T19:00:00,1518A,113.095,27.8867,株洲市,株冶医院,颗粒物(PM10),54,58,43,26,25,139,97,126,126,36,24,6,6,0.6,0.6
2023-10-11T19:00:00,1519A,113.167,27.8667,株洲市,市四中,颗粒物(PM10),63,75,39,43,25,137,118,130,130,20,16,5,4,0.6,0.6
2023-10-11T19:00:00,1520A,113.143,27.8381,株洲市,火车站,颗粒物(PM10),53,56,39,29,26,142,119,130,130,23,22,6,6,0.6,0.6
2023-10-11T19:00:00,1524A,113.13,27.8528,株洲市,市监测站,细颗粒物(PM2.5),53,46,40,37,32,142,116,132,132,26,23,5,5,0.7,0.7
2023-10-11T19:00:00,1552A,106.805,26.3003,贵阳市,桐木岭,,,,,,,,,,,,,,,,
2023-10-11T19:00:00,1559A,113.251,27.8336,株洲市,大京风景区,,30,17,42,21,20,127,56,114,110,8,8,5,4,0.5,0.5
2023-10-11T19:00:00,1562A,113.0048,27.9153,湘潭市,昭山,颗粒物(PM10),57,63,46,26,25,158,116,140,140,29,31,6,5,1.0,1
2023-10-11T19:00:00,1564A,112.4876,27.9164,湘潭市,韶山,,48,48,52,22,33,136,134,129,129,11,12,6,5,0.5,0.5
2023-10-11T19:00:00,1585A,109.8756,40.6532,包头市,市环境监测站,颗粒物(PM10),52,54,61,25,29,98,37,78,76,63,59,13,21,0.9,1
2023-10-11T19:00:00,1587A,109.9991,40.5842,包头市,包头八中,细颗粒物(PM2.5),59,60,80,42,40,91,52,82,76,55,65,16,33,1.0,1.1
2023-10-11T19:00:00,1588A,109.8538,40.6821,包头市,青山宾馆,,47,47,69,27,36,93,62,78,78,45,55,13,18,0.8,1
2023-10-11T19:00:00,1589A,109.8642,40.6288,包头市,惠龙物流,颗粒物(PM10),52,54,67,25,34,102,53,83,82,49,60,12,22,0.9,1
2023-10-11T19:00:00,1590A,110.0377,40.5546,包头市,东河鸿龙湾,颗粒物(PM10),52,53,75,33,39,99,58,88,86,43,53,15,22,0.8,0.8
2023-10-11T19:00:00,1591A,110.0023,39.8129,鄂尔多斯市,综合楼,,22,19,63,9,22,101,69,86,86,34,45,4,16,0.5,0.8
2023-10-11T19:00:00,1592A,109.9486,39.8261,鄂尔多斯市,巴音孟克林场办事处,,24,14,59,12,30,109,76,85,85,30,44,6,20,0.4,0.7
2023-10-11T19:00:00,1593A,109.7736,39.5986,鄂尔多斯市,康泽苑,,26,14,53,10,21,114,83,99,99,15,40,5,9,0.3,0.6
2023-10-11T19:00:00,1594A,109.8119,39.5989,鄂尔多斯市,华泰汽车城,,24,24,60,9,23,108,75,96,96,19,45,5,7,0.4,0.7
2023-10-11T19:00:00,1595A,109.9734,39.7884,鄂尔多斯市,奥林花园,,25,9,67,9,25,99,77,88,88,29,48,4,10,0.8,0.9
2023-10-11T19:00:00,1597A,122.2703,40.7094,营口市,大庆路,颗粒物(PM10),62,74,77,42,50,150,112,133,133,24,42,6,15,1.1,1.4
2023-10-11T19:00:00,1598A,122.2150,40.6511,营口市,镜湖西路,颗粒物(PM10),79,107,81,56,49,151,83,127,127,60,53,7,14,1.5,1.4
2023-10-11T19:00:00,1599A,122.1658,40.6789,营口市,西炮台,细颗粒物(PM2.5),99,106,82,74,57,158,121,132,132,29,57,9,17,0.9,1.3
2023-10-11T19:00:00,1600A,124.3303,40.0625,丹东市,江湾东路,细颗粒物(PM2.5),62,64,32,44,21,99,22,82,72,66,28,12,11,1.1,0.8
2023-10-11T19:00:00,1601A,124.4256,40.1503,丹东市,临江后街,,43,43,26,22,13,105,15,92,82,74,27,8,8,1.1,0.7
2023-10-11T19:00:00,1602A,124.3933,40.1461,丹东市,元宝山,,26,17,18,12,12,86,83,82,82,10,15,11,10,0.4,0.4
2023-10-11T19:00:00,1603A,124.3633,40.1092,丹东市,民主桥,,48,48,25,27,12,98,18,86,76,63,24,6,6,1.0,0.6
2023-10-11T19:00:00,1604A,122.0303,41.1489,盘锦市,开发区,细颗粒物(PM2.5),107,65,57,80,60,142,81,133,126,61,73,10,22,0.9,1
2023-10-11T19:00:00,1605A,122.0485,41.0883,盘锦市,兴隆台,细颗粒物(PM2.5),78,61,53,57,52,158,74,137,129,68,61,9,19,0.9,0.9
2023-10-11T19:00:00,1606A,121.8297,41.1028,盘锦市,新生街道,细颗粒物(PM2.5),64,42,39,46,35,145,51,121,116,47,40,11,37,0.7,0.7
2023-10-11T19:00:00,1607A,120.9092,40.7136,葫芦岛市,龙港区,,45,35,62,24,42,153,144,135,135,9,38,14,57,0.7,0.7
2023-10-11T19:00:00,1608A,120.8392,40.7514,葫芦岛市,化工街,颗粒物(PM10),59,68,85,31,42,138,121,128,128,22,52,10,28,1.1,1.1
2023-10-11T19:00:00,1609A,120.8341,40.7073,葫芦岛市,新区,,48,45,63,33,45,138,127,125,125,18,60,10,26,1.0,1.1
2023-10-11T19:00:00,1610A,120.8695,40.7677,葫芦岛市,东城区,,48,46,69,33,35,146,105,130,130,52,54,13,25,1.3,1.1
2023-10-11T19:00:00,1611A,118.5819,24.9117,泉州市,涂山街,,50,50,28,24,15,123,102,119,118,18,10,4,3,0.7,0.6
2023-10-11T19:00:00,1612A,118.5972,24.8978,泉州市,津头埔,,48,48,26,24,16,122,95,116,114,25,14,4,2,0.7,0.6
2023-10-11T19:00:00,1613A,118.6663,24.9424,泉州市,万安,,49,49,34,29,19,130,99,123,121,20,12,4,3,0.8,0.7
2023-10-11T19:00:00,1614A,118.6117,24.9604,泉州市,清源山,,,,,,,,,,,,,,,,
2023-10-11T19:00:00,1616A,117.6795,36.229,济南市,技术学院,颗粒物(PM10),56,61,59,27,33,150,137,144,144,40,49,12,9,0.6,0.6
2023-10-11T19:00:00,1618A,118.3429,35.0532,临沂市,沂河小区,颗粒物(PM10),56,61,62,29,33,148,103,132,132,28,40,7,8,0.5,0.5
2023-10-11T19:00:00,1619A,118.295,35.0583,临沂市,鲁南制药厂,颗粒物(PM10),51,51,62,18,28,153,116,140,140,26,37,6,7,0.6,0.6
2023-10-11T19:00:00,1620A,118.2794,34.9976,临沂市,新光毛纺厂,,48,48,69,22,40,146,102,132,132,31,42,6,9,0.7,0.8
2023-10-11T19:00:00,1621A,118.3956,35.0888,临沂市,河东保险公司,颗粒物(PM10),54,58,68,22,32,138,105,125,125,28,40,4,5,0.9,0.8
2023-10-11T19:00:00,1622A,116.3032,37.4674,德州市,儿童乐园,颗粒物(PM10),57,63,69,19,32,139,95,122,120,45,46,8,13,0.7,0.8
2023-10-11T19:00:00,1624A,116.2991,37.4451,德州市,监理站,颗粒物(PM10),53,55,57,17,28,140,84,125,123,55,35,9,14,0.6,0.6
2023-10-11T19:00:00,1625A,115.9848,36.4372,聊城市,区政府,颗粒物(PM10),56,62,71,25,40,153,70,132,126,47,55,3,5,0.7,0.7
2023-10-11T19:00:00,1628A,118.0062,37.3803,滨州市,市环保局,颗粒物(PM10),53,56,45,24,27,152,100,138,135,28,32,11,12,0.7,0.8
2023-10-11T19:00:00,1629A,118.0018,37.3617,滨州市,第二水厂,颗粒物(PM10),56,61,44,19,25,158,98,144,141,35,29,7,9,0.5,0.6
2023-10-11T19:00:00,1630A,117.9776,37.393,滨州市,北中新校,颗粒物(PM10),54,57,46,19,25,163,90,142,138,42,36,9,9,0.7,0.7
2023-10-11T19:00:00,1631A,118.0414,36.8103,淄博市,人民公园,颗粒物(PM10),59,68,66,39,40,163,101,148,140,46,41,9,9,0.6,0.8
2023-10-11T19:00:00,1633A,117.8525,36.4847,淄博市,双山,颗粒物(PM10),68,86,76,44,37,169,87,137,135,44,40,7,8,0.8,0.5
2023-10-11T19:00:00,1634A,117.9592,36.6331,淄博市,气象站,"颗粒物(PM10),细颗粒物(PM2.5)",62,74,89,44,46,167,94,138,136,42,49,8,14,0.6,0.7
2023-10-11T19:00:00,1635A,118.3092,36.8194,淄博市,莆田园,颗粒物(PM10),64,78,70,41,36,148,84,137,132,58,43,9,12,0.7,1.5
2023-10-11T19:00:00,1637A,117.558,34.8438,枣庄市,市中区政府,颗粒物(PM10),78,105,87,48,45,164,84,146,141,64,48,6,9,0.7,0.6
2023-10-11T19:00:00,1638A,117.2852,34.7837,枣庄市,薛城环保局,细颗粒物(PM2.5),84,110,73,62,43,177,71,147,146,86,59,7,9,1.0,1
2023-10-11T19:00:00,1639A,117.5852,34.7745,枣庄市,峄城区政府,颗粒物(PM10),70,90,90,39,37,172,116,150,150,37,43,8,9,0.7,0.7
2023-10-11T19:00:00,1640A,117.7276,34.5578,枣庄市,台儿庄区环保局,"颗粒物(PM10),细颗粒物(PM2.5)",70,90,88,51,55,170,98,146,144,49,53,8,9,0.8,0.9
2023-10-11T19:00:00,1641A,117.4518,35.0992,枣庄市,山亭区环保局,颗粒物(PM10),57,63,56,32,35,158,126,148,148,28,28,7,9,0.7,0.7
2023-10-11T19:00:00,1642A,121.2514,37.5639,烟台市,开发区,,48,48,46,29,28,161,128,149,149,26,32,13,11,1.0,0.9
2023-10-11T19:00:00,1643A,121.3719,37.5433,烟台市,轴承厂,细颗粒物(PM2.5),59,61,52,42,35,159,100,139,139,27,26,4,6,0.7,0.5
2023-10-11T19:00:00,1644A,121.3181,37.5436,烟台市,西郊化工站,颗粒物(PM10),53,56,54,33,33,155,121,141,141,37,31,5,6,1.0,0.8
2023-10-11T19:00:00,1645A,121.4478,37.4822,烟台市,莱山环保局,,46,46,40,28,25,155,132,144,144,20,22,6,7,0.8,0.7
2023-10-11T19:00:00,1646A,121.2611,37.4967,烟台市,福山环保局,颗粒物(PM10),68,85,59,34,27,151,78,134,132,62,43,7,8,0.7,0.5
2023-10-11T19:00:00,1650A,119.1437,36.7023,潍坊市,环保局,,44,44,43,22,24,154,118,140,140,27,36,7,9,0.5,0.6
2023-10-11T19:00:00,1653A,116.6251,35.4302,济宁市,火炬城,,49,49,67,34,37,137,104,121,121,37,51,10,12,0.6,0.6
2023-10-11T19:00:00,1655A,116.5491,35.4042,济宁市,电化厂,颗粒物(PM10),70,90,89,41,44,148,106,134,134,33,50,5,9,0.7,0.7
2023-10-11T19:00:00,1656A,117.1437,36.1937,泰安市,监测站,颗粒物(PM10),56,61,62,31,39,172,104,154,152,36,28,9,10,0.5,0.6
2023-10-11T19:00:00,1657A,117.0885,36.2017,泰安市,人口学校,颗粒物(PM10),51,51,54,27,29,163,81,142,138,51,30,7,8,0.7,0.8
2023-10-11T19:00:00,1658A,117.1089,36.1758,泰安市,电力学校,颗粒物(PM10),57,63,75,29,38,165,88,149,143,41,40,9,9,0.7,0.8
2023-10-11T19:00:00,1659A,119.471,35.4209,日照市,监测站,,29,27,36,20,22,140,66,128,122,46,41,6,8,0.8,0.8
2023-10-11T19:00:00,1660A,119.523,35.4216,日照市,市政府广场,,42,29,33,15,19,149,134,140,140,14,25,4,4,0.4,0.5
2023-10-11T19:00:00,1661A,119.5587,35.4044,日照市,港务局,,,22,31,12,19,146,141,141,141,,24,,8,0.6,0.7
2023-10-11T19:00:00,1662A,122.1214,37.4236,威海市,华夏技校,,33,12,25,10,16,129,105,116,115,13,14,2,3,0.4,0.5
2023-10-11T19:00:00,1663A,122.0508,37.5236,威海市,山大分校,,,12,33,5,18,142,118,128,128,17,14,3,4,,0.5
2023-10-11T19:00:00,1664A,122.1067,37.5072,威海市,市监测站,,32,32,35,5,15,134,62,119,113,45,20,6,7,0.7,0.6
2023-10-11T19:00:00,1666A,118.6614,37.4309,东营市,市环保局,,39,36,22,19,13,157,123,147,146,27,18,8,8,0.4,0.3
2023-10-11T19:00:00,1669A,113.5824,24.7733,韶关市,市八中,,,,15,,8,95,44,84,77,,6,12,11,0.8,0.7
2023-10-11T19:00:00,1671A,113.5917,24.7972,韶关市,园林处,,38,30,15,26,12,89,48,80,74,10,3,12,11,0.6,0.5
2023-10-11T19:00:00,1672A,113.6735,24.7791,韶关市,韶关学院,细颗粒物(PM2.5),52,24,18,36,15,90,78,85,85,10,7,25,10,0.8,0.6
2023-10-11T19:00:00,1673A,113.5971,24.6863,韶关市,曲江监测站,,31,31,17,21,11,98,46,88,82,12,7,11,9,0.6,0.4
2023-10-11T19:00:00,1674A,116.6794,23.3667,汕头市,金平子站,,44,35,25,19,15,140,140,134,134,17,13,6,6,0.8,0.7
2023-10-11T19:00:00,1675A,116.7244,23.3633,汕头市,龙湖子站,,,41,25,16,11,139,136,134,134,16,13,,6,0.9,0.9
2023-10-11T19:00:00,1676A,116.7258,23.2775,汕头市,濠江子站,,46,38,23,19,8,155,145,139,139,10,8,8,8,0.6,0.6
2023-10-11T19:00:00,1677A,116.7519,23.4714,汕头市,澄海子站,,45,45,25,21,14,142,142,125,125,18,16,10,10,0.6,0.5
2023-10-11T19:00:00,1678A,116.6092,23.2539,汕头市,潮阳子站,,48,45,27,10,6,155,151,140,140,9,7,8,8,0.8,0.8
2023-10-11T19:00:00,1680A,110.3539,21.2706,湛江市,湛江影剧院,,26,25,14,18,8,90,68,76,76,14,10,14,11,0.8,0.7
2023-10-11T19:00:00,1681A,110.3928,21.2228,湛江市,市环境监测站,,43,26,13,30,12,92,73,78,78,11,10,11,9,0.6,0.5
2023-10-11T19:00:00,1682A,110.4019,21.1997,湛江市,环保局宿舍,,49,29,14,34,14,97,61,78,78,25,12,7,8,0.7,0.8
2023-10-11T19:00:00,1683A,110.4111,21.2028,湛江市,霞山游泳场,,26,26,13,14,9,98,70,82,82,17,10,9,8,0.7,0.6
2023-10-11T19:00:00,1684A,110.3316,21.2679,湛江市,麻章区环保局,,46,38,15,32,10,81,46,66,66,27,14,11,10,0.7,0.7
2023-10-11T19:00:00,1685A,110.4558,21.2567,湛江市,坡头区环保局,,26,18,11,18,8,100,71,83,83,14,10,8,6,0.8,0.8
2023-10-11T19:00:00,1686A,111.0286,21.4688,茂名市,电白南海,,28,27,20,19,10,87,81,79,79,9,9,6,7,0.9,0.8
2023-10-11T19:00:00,1687A,110.9294,21.6533,茂名市,茂石化七小,,29,29,15,17,7,72,56,64,64,14,10,4,7,0.8,0.8
2023-10-11T19:00:00,1688A,110.9107,21.6687,茂名市,健康路,,21,19,12,12,6,76,66,72,72,14,13,18,17,0.7,0.7
2023-10-11T19:00:00,1689A,110.8592,21.6828,茂名市,高岭,,29,29,16,17,15,73,61,65,65,15,13,26,18,0.5,0.8
2023-10-11T19:00:00,1690A,116.1231,24.3284,梅州市,梅江月梅,,33,17,11,23,3,41,27,35,35,26,16,5,5,0.7,0.6
2023-10-11T19:00:00,1691A,116.0797,24.2719,梅州市,梅县新城,,16,15,10,11,3,43,38,40,40,17,12,7,6,0.8,0.7
2023-10-11T19:00:00,1692A,116.1248,24.2654,梅州市,环境监控中心,,23,23,13,13,4,33,21,26,22,18,18,11,8,0.8,0.8
2023-10-11T19:00:00,1693A,115.3653,22.775,汕尾市,市环保局,,,,16,,7,78,,72,68,,7,,9,,0.8
2023-10-11T19:00:00,1694A,115.3706,22.7898,汕尾市,市政府,,15,11,13,4,6,85,47,72,67,7,6,8,6,0.7,0.7
2023-10-11T19:00:00,1695A,115.3622,22.7925,汕尾市,新城中学,,16,16,14,9,8,71,41,59,56,6,6,8,8,0.6,0.6
2023-10-11T19:00:00,1696A,114.6778,23.7569,河源市,源西,,30,30,12,19,6,68,39,63,62,30,15,5,5,0.8,0.7
2023-10-11T19:00:00,1697A,114.6944,23.7586,河源市,东埔,,35,20,13,24,8,68,57,64,64,14,12,5,5,0.8,0.6
2023-10-11T19:00:00,1698A,114.6892,23.7233,河源市,老城,,33,17,12,23,8,71,57,64,64,12,9,4,4,0.8,0.7
2023-10-11T19:00:00,1699A,111.9797,21.8593,阳江市,鸳鸯湖,,42,29,23,29,14,121,106,104,104,17,12,11,9,0.9,0.8
2023-10-11T19:00:00,1701A,111.9491,21.8658,阳江市,马南垌,,50,36,22,35,15,115,98,98,98,20,14,7,6,0.7,0.6
2023-10-11T19:00:00,1702A,113.0426,23.691,清远市,环保大楼,,26,23,11,12,5,87,82,80,80,7,5,8,8,0.8,0.8
2023-10-11T19:00:00,1703A,113.0208,23.7106,清远市,凤城街办,,28,28,12,19,9,78,71,71,71,10,8,8,8,0.8,0.7
2023-10-11T19:00:00,1705A,116.6367,23.6719,潮州市,西园路,,,23,14,14,6,76,,45,40,11,6,3,4,0.5,0.4
2023-10-11T19:00:00,1706A,116.6447,23.6706,潮州市,档案局,,25,25,13,4,5,79,45,56,51,10,7,7,6,0.9,0.7
2023-10-11T19:00:00,1708A,116.3701,23.5345,揭阳市,新兴,,39,39,26,14,12,84,28,56,46,27,17,9,9,1.1,0.8
2023-10-11T19:00:00,1709A,116.3264,23.5443,揭阳市,西马,,40,40,22,28,9,74,27,47,40,25,13,6,6,1.0,0.7
2023-10-11T19:00:00,1710A,116.3611,23.5626,揭阳市,东兴,,,,36,11,10,81,19,48,37,36,20,10,8,1.2,0.9
2023-10-11T19:00:00,1711A,116.4151,23.5294,揭阳市,渔湖,颗粒物(PM10),51,52,28,16,18,92,31,63,56,31,20,6,7,0.9,0.7
2023-10-11T19:00:00,1712A,112.0392,22.9169,云浮市,新市府,,15,15,11,5,4,52,25,43,42,9,10,5,6,0.9,0.9
2023-10-11T19:00:00,1714A,112.0539,22.9539,云浮市,牧羊,,14,5,9,7,6,52,44,49,49,12,8,5,5,0.7,0.6
2023-10-11T19:00:00,1715A,102.575,24.3711,玉溪市,东风水库,,28,28,24,10,22,74,57,63,63,11,10,5,6,0.9,0.7
2023-10-11T19:00:00,1718A,115.4208,35.2464,菏泽市,气象局,颗粒物(PM10),69,88,73,36,34,181,136,160,160,35,44,5,7,0.6,0.6
2023-10-11T19:00:00,1719A,115.4747,35.2375,菏泽市,市政协,颗粒物(PM10),69,88,73,46,36,183,128,157,157,36,45,6,8,0.5,0.5
2023-10-11T19:00:00,1721A,113.3819,40.1097,大同市,果树场,,,,,,,,,,,,,,,,
2023-10-11T19:00:00,1723A,113.2994,40.0758,大同市,云冈宾馆,颗粒物(PM10),80,109,77,52,32,125,46,90,90,83,53,20,13,1.0,0.9
2023-10-11T19:00:00,1724A,113.3444,40.0917,大同市,大同大学,颗粒物(PM10),80,109,63,48,28,130,28,95,92,105,39,16,17,1.1,0.9
2023-10-11T19:00:00,1725A,113.2661,40.1269,大同市,安家小村,颗粒物(PM10),69,88,72,33,28,130,99,104,104,22,35,19,18,0.5,1
2023-10-11T19:00:00,1726A,113.2711,40.0844,大同市,教育学院,颗粒物(PM10),96,141,96,62,38,120,19,86,82,117,63,16,14,1.5,1.3
2023-10-11T19:00:00,1727A,113.1147,36.1547,长治市,清华站,颗粒物(PM10),68,86,72,46,46,149,101,130,130,34,31,10,10,0.9,1
2023-10-11T19:00:00,1728A,113.1031,36.1989,长治市,监测站,细颗粒物(PM2.5),79,80,67,58,51,163,91,130,130,46,38,10,12,1.3,1.4
2023-10-11T19:00:00,1730A,113.0886,36.2125,长治市,审计局,细颗粒物(PM2.5),64,67,67,46,50,174,104,134,134,31,30,12,15,1.0,1.4
2023-10-11T19:00:00,1731A,113.0844,36.1856,长治市,长治八中,颗粒物(PM10),77,103,82,53,41,164,92,134,134,46,32,15,15,1.2,0.9
2023-10-11T19:00:00,1733A,111.5531,36.0783,临汾市,临钢医院,,,129,106,,48,118,36,89,86,78,49,9,12,0.8,0.8
2023-10-11T19:00:00,1734A,111.5028,36.0714,临汾市,技工学校,细颗粒物(PM2.5),92,106,92,68,52,139,57,114,112,74,54,9,14,1.0,0.9
2023-10-11T19:00:00,1736A,111.5018,36.0855,临汾市,市委,颗粒物(PM10),87,123,97,59,48,138,52,114,113,74,50,10,15,0.8,0.7
2023-10-11T19:00:00,1738A,113.5758,37.8572,阳泉市,市中心,,,92,72,59,33,147,95,120,120,,56,14,10,,0.9
2023-10-11T19:00:00,1739A,113.4894,37.8731,阳泉市,赛鱼,颗粒物(PM10),65,79,71,44,33,151,29,112,107,94,53,11,10,1.3,0.9
2023-10-11T19:00:00,1740A,113.5819,37.8486,阳泉市,南庄,颗粒物(PM10),89,127,96,42,35,152,75,121,121,58,48,13,11,1.3,0.9
2023-10-11T19:00:00,1742A,113.5614,37.8703,阳泉市,平坦,,,,74,,37,148,94,118,118,53,56,,10,,0.9
2023-10-11T19:00:00,1743A,113.5158,37.8392,阳泉市,大阳泉,细颗粒物(PM2.5),69,72,63,50,38,153,114,119,115,38,29,13,11,1.1,0.8
2023-10-11T19:00:00,1744A,118.9233,42.2816,赤峰市,松山一中,,40,40,45,22,25,116,64,96,96,61,45,15,13,1.1,0.9
2023-10-11T19:00:00,1745A,118.9576,42.2728,赤峰市,哈达街,颗粒物(PM10),52,54,43,24,20,128,34,101,98,94,42,19,16,0.9,0.7
2023-10-11T19:00:00,1746A,118.8788,42.2554,赤峰市,天义路,,31,31,33,16,24,126,77,108,108,51,36,14,17,0.8,0.7
2023-10-11T19:00:00,1748A,123.044,41.1196,鞍山市,深沟寺,细颗粒物(PM2.5),67,67,47,48,32,130,71,99,98,44,26,10,11,1.6,1.4
2023-10-11T19:00:00,1749A,123.011,41.0931,鞍山市,太阳城,颗粒物(PM10),56,62,61,34,38,135,103,115,115,25,33,15,17,1.4,1.5
2023-10-11T19:00:00,1750A,123.0485,41.1442,鞍山市,太平,细颗粒物(PM2.5),123,189,68,93,39,130,14,96,89,124,43,13,16,2.8,1.2
2023-10-11T19:00:00,1751A,122.9642,41.0971,鞍山市,铁西三道街,颗粒物(PM10),110,169,102,80,49,131,7,97,91,134,61,9,10,2.6,1.7
2023-10-11T19:00:00,1752A,122.9341,41.0833,鞍山市,铁西工业园区,细颗粒物(PM2.5),185,223,101,139,50,128,8,100,94,103,50,12,16,2.1,1.5
2023-10-11T19:00:00,1753A,123.022,41.0821,鞍山市,明达新区,颗粒物(PM10),56,62,57,39,34,127,79,105,105,35,38,8,11,1.5,1.8
2023-10-11T19:00:00,1754A,123.1289,41.0228,鞍山市,千山,,,,,,,,,,,,,,,,
2023-10-11T19:00:00,1755A,123.7977,41.8491,抚顺市,望花区,细颗粒物(PM2.5),74,83,69,54,38,130,8,91,88,99,40,12,12,1.0,0.7
2023-10-11T19:00:00,1756A,123.9161,41.8822,抚顺市,顺城区,,,122,51,,43,129,5,102,87,102,38,7,7,1.1,0.6
2023-10-11T19:00:00,1757A,124.0436,41.8611,抚顺市,东洲区,颗粒物(PM10),62,73,42,42,24,133,61,103,103,37,19,14,8,0.8,0.6
2023-10-11T19:00:00,1758A,123.9247,41.8642,抚顺市,新抚区,细颗粒物(PM2.5),62,56,43,44,31,125,4,94,88,97,25,7,8,1.2,0.7
2023-10-11T19:00:00,1759A,124.0972,41.8961,抚顺市,大伙房水库,颗粒物(PM10),58,65,30,28,19,130,77,105,105,20,15,8,8,0.7,0.5
2023-10-11T19:00:00,1760A,123.7086,41.8391,抚顺市,沈抚新城,细颗粒物(PM2.5),82,67,65,60,50,133,34,100,100,77,42,14,15,0.8,1.1
2023-10-11T19:00:00,1761A,123.8275,41.3064,本溪市,大峪,,38,38,39,19,16,110,80,96,96,26,31,10,8,0.8,0.9
2023-10-11T19:00:00,1762A,123.7567,41.3325,本溪市,溪湖,细颗粒物(PM2.5),90,126,75,67,34,114,21,105,93,80,37,18,13,0.7,0.8
2023-10-11T19:00:00,1763A,123.7169,41.3094,本溪市,彩屯,颗粒物(PM10),56,61,74,38,44,117,41,87,87,44,42,11,18,0.7,1.9
2023-10-11T19:00:00,1764A,123.7669,41.2864,本溪市,东明,颗粒物(PM10),78,106,57,54,27,115,13,99,90,104,45,12,9,1.4,1
2023-10-11T19:00:00,1765A,123.7992,41.2664,本溪市,新立屯,颗粒物(PM10),59,67,36,28,20,104,14,77,66,87,47,11,10,0.9,0.9
2023-10-11T19:00:00,1766A,123.8142,41.3472,本溪市,威宁,颗粒物(PM10),71,92,56,35,22,105,12,79,76,83,30,6,6,0.7,0.7
2023-10-11T19:00:00,1767A,121.1115,41.0879,锦州市,南山,,48,45,64,33,55,126,92,106,106,36,38,20,13,0.8,1.1
2023-10-11T19:00:00,1768A,121.0533,40.8434,锦州市,开发区,颗粒物(PM10),70,90,102,39,59,127,95,110,110,57,67,69,35,1.8,1.1
2023-10-11T19:00:00,1769A,121.1836,41.1119,锦州市,百股街道,,45,40,50,31,40,129,87,108,108,40,32,23,12,0.9,0.8
2023-10-11T19:00:00,1770A,121.1178,41.1222,锦州市,天安街道,颗粒物(PM10),52,53,76,31,60,131,84,108,108,46,50,18,15,0.9,1.1
2023-10-11T19:00:00,1771A,121.1303,41.1386,锦州市,北湖公园,,47,47,65,29,52,127,92,111,111,32,38,17,16,0.7,1.2
2023-10-11T19:00:00,1772A,126.54,43.8622,吉林市,哈达湾,,43,43,39,22,19,114,76,98,98,50,32,15,10,0.8,0.7
2023-10-11T19:00:00,1773A,126.5844,43.8358,吉林市,东局子,颗粒物(PM10),68,86,41,39,21,107,33,89,85,78,42,10,7,0.9,0.6
2023-10-11T19:00:00,1774A,126.5052,43.8245,吉林市,电力学院,,,246,59,,28,111,12,88,80,95,36,14,10,1.9,0.8
2023-10-11T19:00:00,1775A,126.6133,43.8972,吉林市,江北,颗粒物(PM10),81,111,47,53,21,116,35,101,92,65,31,11,9,1.3,0.8
2023-10-11T19:00:00,1776A,126.555,43.8306,吉林市,江南公园,颗粒物(PM10),58,65,53,30,27,102,28,81,76,87,44,11,8,1.0,0.8
2023-10-11T19:00:00,1778A,126.7061,43.7133,吉林市,丰满,,,,,,,,,,,,,,,,
2023-10-11T19:00:00,1779A,123.9305,47.3636,齐齐哈尔市,安居小区,颗粒物(PM10),107,163,39,16,14,80,14,64,53,73,24,9,6,1.7,0.5
2023-10-11T19:00:00,1780A,123.9488,47.3386,齐齐哈尔市,中心广场,,38,35,26,24,18,78,19,65,55,76,28,4,3,1.2,0.6
2023-10-11T19:00:00,1781A,123.9483,47.3227,齐齐哈尔市,农牧车辆厂,颗粒物(PM10),58,66,46,10,13,79,5,65,56,83,25,7,7,1.4,0.5
2023-10-11T19:00:00,1783A,123.945,47.2988,齐齐哈尔市,市环境监测站,,40,40,37,16,15,80,74,72,72,23,17,5,5,0.5,0.3
2023-10-11T19:00:00,1784A,129.61,44.561,牡丹江市,环保大楼,,,,28,,16,79,,72,72,,25,,6,,0.5
2023-10-11T19:00:00,1785A,129.6115,44.5782,牡丹江市,文化广场,,36,36,47,21,22,69,36,60,58,45,29,4,6,0.6,0.5
2023-10-11T19:00:00,1786A,129.5904,44.5963,牡丹江市,第一医院,颗粒物(PM10),73,96,45,41,27,73,6,60,53,65,28,10,8,0.9,0.5
2023-10-11T19:00:00,1787A,129.6364,44.6075,牡丹江市,机车工厂,颗粒物(PM10),76,102,60,31,21,77,24,67,59,35,22,7,6,0.6,0.6
2023-10-11T19:00:00,1788A,129.6386,44.5462,牡丹江市,第一中学,颗粒物(PM10),59,67,39,25,17,79,29,69,62,36,21,6,6,0.5,0.4
2023-10-11T19:00:00,1789A,124.81117,46.03138,大庆市,大同区,细颗粒物(PM2.5),69,80,39,50,22,98,60,86,85,44,26,6,7,0.7,0.6
2023-10-11T19:00:00,1790A,125.129,46.533,大庆市,龙凤区,颗粒物(PM10),62,74,47,24,20,97,18,77,69,74,30,9,16,0.7,0.5
2023-10-11T19:00:00,1791A,124.902,46.408,大庆市,红岗区,颗粒物(PM10),68,85,32,20,13,100,39,82,80,56,28,6,5,0.6,0.5
2023-10-11T19:00:00,1792A,125.153,46.586,大庆市,萨尔图区,颗粒物(PM10),90,130,58,48,22,88,12,77,62,100,45,6,7,1.1,0.6
2023-10-11T19:00:00,1793A,124.9042,46.6215,大庆市,让胡路区,,48,48,41,16,15,87,12,73,62,88,43,6,6,0.9,0.5
2023-10-11T19:00:00,1794A,118.3606,31.3519,芜湖市,监测站,,42,42,58,22,34,135,99,120,120,36,34,8,10,0.7,0.8
2023-10-11T19:00:00,1795A,118.3714,31.4134,芜湖市,科创中心,颗粒物(PM10),55,59,62,24,34,134,40,116,109,91,42,7,10,0.8,1
2023-10-11T19:00:00,1796A,118.3673,31.3131,芜湖市,四水厂,颗粒物(PM10),55,60,61,25,34,136,90,122,121,45,36,6,8,0.7,0.8
2023-10-11T19:00:00,1798A,118.5092,31.6837,马鞍山市,湖东路四小,,42,42,37,15,25,142,74,125,122,51,28,7,9,0.6,0.6
2023-10-11T19:00:00,1799A,118.5024,31.6449,马鞍山市,开发区,颗粒物(PM10),51,51,53,22,29,145,70,126,123,58,25,9,10,0.8,0.9
2023-10-11T19:00:00,1800A,118.5228,31.7231,马鞍山市,慈湖,,32,32,49,18,29,141,95,122,122,46,39,6,8,0.7,0.9
2023-10-11T19:00:00,1802A,118.6245,31.7241,马鞍山市,濮塘,,31,23,45,20,29,131,97,114,114,9,19,5,5,0.6,0.7
2023-10-11T19:00:00,1803A,115.9872,29.6815,九江市,十里,颗粒物(PM10),56,62,52,31,32,163,138,156,153,24,23,9,9,0.9,0.7
2023-10-11T19:00:00,1804A,115.9584,29.7046,九江市,茅山头,细颗粒物(PM2.5),64,59,49,46,38,154,136,142,142,22,21,10,10,1.0,0.8
2023-10-11T19:00:00,1805A,115.9877,29.7295,九江市,西园,颗粒物(PM10),56,62,54,37,32,147,120,133,133,37,28,8,9,0.9,0.8
2023-10-11T19:00:00,1806A,116.0172,29.6547,九江市,五七二七厂,"颗粒物(PM10),细颗粒物(PM2.5)",53,55,44,37,34,151,119,136,136,16,12,12,11,0.6,0.6
2023-10-11T19:00:00,1808A,115.9114,29.6038,九江市,综合工业园,细颗粒物(PM2.5),70,62,55,51,41,163,147,149,149,23,34,14,14,0.8,0.8
2023-10-11T19:00:00,1809A,116.0721,29.7535,九江市,石化总厂,颗粒物(PM10),60,69,61,42,36,154,125,136,136,30,24,9,9,0.9,0.7
2023-10-11T19:00:00,1810A,115.9773,29.5698,九江市,庐山气象台,细颗粒物(PM2.5),79,56,41,58,44,156,150,144,144,12,8,6,6,1.1,0.8
2023-10-11T19:00:00,1812A,112.3931,34.6516,洛阳市,市委党校,细颗粒物(PM2.5),77,92,109,56,77,161,118,139,139,39,50,6,9,0.7,0.8
2023-10-11T19:00:00,1814A,112.4657,34.6871,洛阳市,豫西宾馆,颗粒物(PM10),82,114,111,54,61,151,84,128,128,58,50,4,5,0.6,0.7
2023-10-11T19:00:00,1815A,112.494,34.6886,洛阳市,河南林校,颗粒物(PM10),73,95,87,52,55,149,92,124,124,40,46,3,5,0.6,0.6
2023-10-11T19:00:00,1816A,112.3844,34.623,洛阳市,开发区管委会,"颗粒物(PM10),细颗粒物(PM2.5)",67,84,90,48,57,166,131,147,147,28,39,4,4,0.6,0.7
2023-10-11T19:00:00,1817A,112.4267,34.6258,洛阳市,市委新办公区,颗粒物(PM10),75,100,103,53,68,157,103,134,134,47,50,4,5,0.5,0.6
2023-10-11T19:00:00,1818A,114.4839,36.0621,安阳市,棉研所,,,,,,,,,,,,,,,,
2023-10-11T19:00:00,1819A,114.3551,36.1017,安阳市,红庙街,细颗粒物(PM2.5),63,71,100,45,51,158,107,134,134,33,48,9,15,0.7,1.4
2023-10-11T19:00:00,1820A,114.361,36.0681,安阳市,银杏小区,颗粒物(PM10),62,74,91,36,49,156,102,133,133,29,34,9,11,0.7,1
2023-10-11T19:00:00,1824A,114.3389,34.7781,开封市,肿瘤医院,颗粒物(PM10),64,77,94,44,59,160,112,146,145,29,41,11,12,0.6,0.7
2023-10-11T19:00:00,1826A,114.2885,34.7965,开封市,世纪星幼儿园,颗粒物(PM10),57,64,67,36,44,156,115,144,143,37,34,6,8,0.7,0.7
2023-10-11T19:00:00,1828A,113.227,35.2125,焦作市,市环保局,颗粒物(PM10),70,90,69,42,38,158,114,142,142,39,24,8,9,0.7,0.6
2023-10-11T19:00:00,1830A,113.1992,35.2590,焦作市,影视城,,,,,,,,,,,,,,,,
2023-10-11T19:00:00,1832A,113.3257,33.742,平顶山市,新华旅馆,颗粒物(PM10),69,88,108,43,51,170,113,150,150,36,49,6,10,0.5,0.6
2023-10-11T19:00:00,1833A,113.2919,33.737,平顶山市,规划设计院,颗粒物(PM10),58,65,85,33,50,171,106,147,147,40,45,7,9,0.6,0.6
2023-10-11T19:00:00,1834A,113.182,33.774,平顶山市,平顶山工学院,颗粒物(PM10),61,72,106,39,53,177,99,148,147,59,40,7,9,0.6,0.7
2023-10-11T19:00:00,1835A,111.1922,34.7752,三门峡市,市政府,颗粒物(PM10),59,68,71,35,37,147,131,137,137,24,25,9,11,0.8,0.7
2023-10-11T19:00:00,1836A,111.1587,34.7942,三门峡市,开发区,颗粒物(PM10),68,86,96,42,49,145,125,134,134,41,28,11,12,0.7,0.6
2023-10-11T19:00:00,1838A,111.143,34.7955,三门峡市,风景区,,,,,,,,,,,,,,,,
2023-10-11T19:00:00,1840A,111.2992,30.6981,宜昌市,白龙岗,颗粒物(PM10),70,90,31,29,19,130,88,111,111,43,26,7,6,0.6,0.5
2023-10-11T19:00:00,1841A,111.3549,30.6465,宜昌市,伍家岗,细颗粒物(PM2.5),52,52,34,36,21,134,70,108,108,39,25,5,5,0.8,0.6
2023-10-11T19:00:00,1842A,111.2628,30.6961,宜昌市,点军区,,44,44,30,19,16,144,94,125,125,25,16,3,3,0.5,0.4
2023-10-11T19:00:00,1843A,111.3275,30.7819,宜昌市,夷陵区,,,,31,,18,132,85,112,112,,18,,7,0.7,0.5
2023-10-11T19:00:00,1844A,112.2494,30.3197,荆州市,市图书馆,细颗粒物(PM2.5),60,54,47,43,27,151,113,138,138,30,28,7,7,0.7,0.7
2023-10-11T19:00:00,1845A,112.2008,30.3544,荆州市,市委党校,颗粒物(PM10),53,55,47,34,26,156,120,142,142,28,26,8,8,0.8,0.8
2023-10-11T19:00:00,1847A,113.1094,29.3578,岳阳市,南湖风景区,臭氧1小时,55,55,48,35,34,178,164,157,157,26,25,10,13,0.8,0.7
2023-10-11T19:00:00,1848A,113.1493,29.4251,岳阳市,城陵矶,颗粒物(PM10),55,59,51,31,29,165,151,145,145,32,31,8,10,0.8,0.7
2023-10-11T19:00:00,1849A,113.1497,29.3575,岳阳市,开发区,细颗粒物(PM2.5),77,54,46,56,42,166,154,150,150,26,22,12,11,0.8,0.8
2023-10-11T19:00:00,1850A,113.2621,29.4758,岳阳市,云溪区,细颗粒物(PM2.5),59,60,43,42,28,161,150,146,146,24,21,10,9,0.7,0.6
2023-10-11T19:00:00,1851A,112.9943,29.4402,岳阳市,君山区,细颗粒物(PM2.5),60,62,46,43,40,177,158,156,156,28,22,7,6,0.7,0.6
2023-10-11T19:00:00,1852A,113.2117,29.355,岳阳市,金凤水库,臭氧1小时,67,49,42,24,29,173,173,160,160,14,12,7,6,0.8,0.7
2023-10-11T19:00:00,1854A,111.6975,28.9703,常德市,市二中,颗粒物(PM10),64,78,48,42,29,139,110,125,125,20,16,8,8,0.6,0.6
2023-10-11T19:00:00,1857A,111.7158,29.1456,常德市,白鹤山,,37,33,22,4,4,137,116,124,124,7,3,4,5,0.4,0.4
2023-10-11T19:00:00,1858A,110.5319,29.1217,张家界市,永定新区,,48,44,37,33,25,119,102,111,111,9,16,7,6,0.5,0.5
2023-10-11T19:00:00,1859A,110.4697,29.1242,张家界市,电业局,,49,28,40,34,23,124,91,110,110,24,10,9,9,0.6,0.5
2023-10-11T19:00:00,1860A,110.5594,29.3547,张家界市,未央路,颗粒物(PM10),55,59,33,32,18,116,83,105,105,13,7,4,3,0.5,0.5
2023-10-11T19:00:00,1861A,110.4417,29.315,张家界市,袁家界,,36,26,20,21,15,116,114,110,110,9,4,9,8,0.6,0.6
2023-10-11T19:00:00,1862A,110.4144,25.3167,桂林市,电子科大尧山校区,,39,39,27,24,16,94,87,91,91,8,6,3,3,0.7,0.6
2023-10-11T19:00:00,1863A,110.2819,25.2697,桂林市,监测站,,43,39,29,30,15,100,87,95,95,17,10,6,6,0.7,0.6
2023-10-11T19:00:00,1864A,110.3089,25.2708,桂林市,龙隐路小学,,38,27,25,26,16,99,94,96,96,8,6,6,6,0.6,0.5
2023-10-11T19:00:00,1865A,110.2869,25.2178,桂林市,八中,,43,34,24,30,16,103,93,97,97,17,12,4,4,0.8,0.6
2023-10-11T19:00:00,1866A,109.2262,21.588,北海市,牛尾岭水库,,,,,,,,,,,,,,,,
2023-10-11T19:00:00,1867A,109.1436,21.4086,北海市,海滩公园,,17,17,8,5,3,58,49,53,53,10,8,5,5,0.7,0.6
2023-10-11T19:00:00,1868A,109.0981,21.4661,北海市,新市环保局,,18,15,11,12,7,67,55,61,61,9,7,7,6,0.7,0.7
2023-10-11T19:00:00,1869A,109.1778,21.5233,北海市,北海工业园,,14,13,10,5,6,60,44,53,53,12,9,18,10,0.6,0.6
2023-10-11T19:00:00,1870A,109.4856,24.3895,柳州市,柳东小学,,25,18,19,17,17,81,71,74,74,6,6,6,7,0.5,0.5
2023-10-11T19:00:00,1871A,109.4157,24.3277,柳州市,环保监测站,,28,23,22,19,19,81,73,77,77,9,9,4,5,0.7,0.7
2023-10-11T19:00:00,1872A,109.389,24.341,柳州市,河西水厂,,23,23,25,16,17,80,73,75,75,9,20,7,11,1.1,1.3
2023-10-11T19:00:00,1873A,109.4311,24.2921,柳州市,市四中,,23,22,22,16,13,85,71,78,78,17,10,4,8,0.8,0.9
2023-10-11T19:00:00,1874A,109.4006,24.3631,柳州市,市九中,,28,27,25,19,16,82,73,76,76,9,12,6,7,0.8,0.8
2023-10-11T19:00:00,1875A,109.4958,24.3134,柳州市,古亭山,,26,24,20,16,15,95,83,89,89,12,8,6,6,0.6,0.6
2023-10-11T19:00:00,1876A,109.5078,18.2489,三亚市,河东子站,,15,15,16,8,8,90,42,57,55,11,9,4,4,0.5,0.6
2023-10-11T19:00:00,1877A,109.4964,18.2681,三亚市,河西子站,,15,15,16,7,8,84,41,55,54,9,7,3,3,0.3,0.4
2023-10-11T19:00:00,1878A,104.7778,31.4741,绵阳市,富乐山,,25,18,21,17,17,70,55,61,60,9,9,4,4,0.6,0.5
2023-10-11T19:00:00,1879A,104.7563,31.4535,绵阳市,市人大,,38,26,27,26,18,77,48,54,50,26,17,7,6,0.6,0.5
2023-10-11T19:00:00,1880A,104.6697,31.4668,绵阳市,高新区自来水公司,,16,16,24,8,14,77,32,59,55,30,19,6,7,0.6,0.6
2023-10-11T19:00:00,1881A,104.7287,31.5075,绵阳市,三水厂,,23,22,28,16,21,74,28,57,52,30,21,7,7,0.7,0.6
2023-10-11T19:00:00,1882A,104.563,28.793,宜宾市,石马中学,,,,,,,,,,,,,,,,
2023-10-11T19:00:00,1883A,104.6201,28.7728,宜宾市,市委,,42,41,40,29,27,53,23,38,22,38,22,6,7,0.7,0.6
2023-10-11T19:00:00,1884A,104.6055,28.793,宜宾市,宜宾四中,,44,44,44,30,30,46,28,32,20,37,28,4,6,0.7,0.6
2023-10-11T19:00:00,1885A,104.639,28.7562,宜宾市,市政府,,46,40,40,32,31,58,58,46,34,19,22,6,7,0.7,0.6
2023-10-11T19:00:00,1886A,104.5742,28.7199,宜宾市,黄金嘴,,29,28,35,20,21,45,30,36,35,20,19,8,9,0.5,0.5
2023-10-11T19:00:00,1888A,101.6891,26.571,攀枝花市,弄弄坪,颗粒物(PM10),63,76,56,41,29,28,13,18,18,41,29,16,18,1.3,1.3
2023-10-11T19:00:00,1889A,101.5769,26.5928,攀枝花市,河门口,,46,46,42,28,24,52,29,38,38,38,27,18,16,1.6,1.5
2023-10-11T19:00:00,1890A,101.7169,26.585,攀枝花市,炳草岗,"颗粒物(PM10),细颗粒物(PM2.5)",57,64,56,40,31,28,18,18,18,37,34,19,21,1.2,1.3
2023-10-11T19:00:00,1891A,101.7369,26.5008,攀枝花市,仁和,颗粒物(PM10),53,56,39,33,24,56,32,38,38,36,22,18,13,1.2,1.1
2023-10-11T19:00:00,1893A,105.4324,28.9634,泸州市,九狮山,,33,27,24,23,16,75,33,64,62,29,18,5,4,0.6,0.5
2023-10-11T19:00:00,1894A,105.4427,28.9063,泸州市,小市上码头,颗粒物(PM10),51,51,29,30,18,85,39,75,73,33,17,6,10,0.6,0.6
2023-10-11T19:00:00,1895A,105.4241,28.8573,泸州市,兰田宪桥,细颗粒物(PM2.5),69,77,35,50,18,92,28,80,76,44,17,6,5,0.7,0.6
2023-10-11T19:00:00,1896A,105.4379,28.8833,泸州市,市环监站,颗粒物(PM10),52,53,26,29,13,82,33,74,71,35,20,4,4,0.6,0.4
2023-10-11T19:00:00,1901A,104.4239,31.1208,德阳市,东山公园,,29,29,34,13,15,64,50,53,53,9,7,3,3,0.5,0.4
2023-10-11T19:00:00,1902A,104.3826,31.1317,德阳市,西小区,,30,30,38,13,18,67,41,50,50,21,13,3,3,0.5,0.5
2023-10-11T19:00:00,1904A,104.3553,31.1091,德阳市,耐火材料厂,,32,32,44,13,19,69,40,45,45,19,13,3,3,0.5,0.5
2023-10-11T19:00:00,1905A,106.056,30.8064,南充市,西山风景区,,38,16,27,26,26,61,46,56,45,7,9,3,4,0.5,0.5
2023-10-11T19:00:00,1906A,106.0789,30.8023,南充市,南充市委,细颗粒物(PM2.5),53,42,45,37,36,56,37,44,44,31,24,3,3,0.6,0.5
2023-10-11T19:00:00,1907A,106.1031,30.8217,南充市,南充炼油厂,颗粒物(PM10),58,66,51,28,26,56,40,46,46,24,24,3,5,0.4,0.5
2023-10-11T19:00:00,1908A,106.1064,30.7856,南充市,高坪区监测站,,46,44,52,32,32,61,44,49,49,25,27,2,4,0.4,0.4
2023-10-11T19:00:00,1909A,106.0642,30.7636,南充市,嘉陵区环保局,,42,37,44,29,29,54,33,43,43,34,29,3,5,0.4,0.3
2023-10-11T19:00:00,1910A,106.1087,30.8388,南充市,市环境监测站,颗粒物(PM10),57,63,45,28,30,57,40,46,46,22,24,4,5,0.4,0.4
2023-10-11T19:00:00,1911A,106.9222,27.6869,遵义市,丁字口,,31,31,27,17,17,90,76,82,82,13,19,5,5,0.4,0.4
2023-10-11T19:00:00,1912A,106.9242,27.7019,遵义市,凤凰山,,36,20,25,25,19,89,80,82,82,7,9,7,7,0.5,0.4
2023-10-11T19:00:00,1913A,106.8906,27.6486,遵义市,忠庄,,40,34,36,28,20,84,70,77,75,8,13,2,1,0.3,0.3
2023-10-11T19:00:00,1914A,106.9231,27.6506,遵义市,舟水桥,,33,27,26,23,16,91,80,86,86,4,9,2,1,0.2,0.6
2023-10-11T19:00:00,1915A,106.9178,27.72,遵义市,干田坝,,28,28,24,16,19,90,76,82,81,10,14,6,6,0.4,0.4
2023-10-11T19:00:00,1916A,103.7897,25.5035,曲靖市,环境监测站,,23,23,35,7,22,68,50,62,62,19,14,2,5,0.6,0.6
2023-10-11T19:00:00,1917A,103.8,25.5364,曲靖市,烟厂办公区,,19,17,34,9,19,67,58,62,62,11,13,4,5,0.7,0.7
2023-10-11T19:00:00,1918A,108.7197,34.3956,咸阳市,气象站,,,,,,,,,,,,,,,,
2023-10-11T19:00:00,1919A,108.673,34.3155,咸阳市,实验中学,细颗粒物(PM2.5),79,106,104,58,53,83,49,76,72,46,39,4,6,1.3,1.2
2023-10-11T19:00:00,1920A,108.7233,34.3617,咸阳市,师范学院,,,,84,,54,74,34,67,64,,39,5,7,1.5,1.1
2023-10-11T19:00:00,1922A,109.0656,35.0994,铜川市,党校,细颗粒物(PM2.5),52,50,51,36,47,119,96,113,112,21,24,8,8,0.7,0.7
2023-10-11T19:00:00,1923A,109.0697,35.0697,铜川市,王益区政府,细颗粒物(PM2.5),52,49,52,36,32,118,92,109,109,18,26,4,3,0.7,0.7
2023-10-11T19:00:00,1924A,108.9344,34.9058,铜川市,新区管委会,颗粒物(PM10),64,78,69,35,36,120,81,88,88,35,33,6,6,0.9,0.8
2023-10-11T19:00:00,1926A,109.4131,36.6275,延安市,枣园,颗粒物(PM10),51,52,43,34,24,135,71,88,88,34,33,7,8,0.6,0.5
2023-10-11T19:00:00,1927A,109.4761,36.6028,延安市,延大医附院,,49,39,58,34,27,125,46,77,77,54,36,6,6,0.9,0.7
2023-10-11T19:00:00,1929A,109.5056,36.6106,延安市,百米大道,颗粒物(PM10),58,66,58,34,28,123,35,85,85,72,44,4,4,1.0,0.8
2023-10-11T19:00:00,1930A,107.185,34.3063,宝鸡市,庙沟村,细颗粒物(PM2.5),59,61,65,42,38,67,42,57,55,24,24,8,9,0.8,0.6
2023-10-11T19:00:00,1931A,107.0708,34.3017,宝鸡市,竹园沟,细颗粒物(PM2.5),67,55,56,48,43,82,60,72,71,22,21,4,4,0.9,0.8
2023-10-11T19:00:00,1932A,107.1906,34.3672,宝鸡市,三陆医院,细颗粒物(PM2.5),77,84,93,56,55,79,50,67,66,39,42,8,13,1.1,1
2023-10-11T19:00:00,1933A,107.1431,34.3547,宝鸡市,监测站,细颗粒物(PM2.5),80,90,84,59,53,73,46,63,62,45,35,7,8,1.1,0.8
2023-10-11T19:00:00,1934A,107.1186,34.3739,宝鸡市,技工学校,细颗粒物(PM2.5),83,83,81,61,69,77,43,68,64,50,32,7,8,0.9,0.8
2023-10-11T19:00:00,1935A,107.3906,34.3528,宝鸡市,陈仓区环保局家属楼,细颗粒物(PM2.5),130,98,96,99,85,78,61,64,64,44,56,11,10,1.1,0.9
2023-10-11T19:00:00,1936A,107.2058,34.3497,宝鸡市,文理学院,颗粒物(PM10),71,92,84,46,50,80,47,66,66,53,38,7,8,1.2,0.9
2023-10-11T19:00:00,1937A,107.2386,34.3622,宝鸡市,三迪小学,细颗粒物(PM2.5),103,85,88,77,74,76,43,68,67,51,40,8,9,1.1,0.8
2023-10-11T19:00:00,1938A,109.5293,34.5101,渭南市,农科所,细颗粒物(PM2.5),92,100,92,68,58,99,25,84,78,76,35,5,6,1.3,1
2023-10-11T19:00:00,1939A,109.4974,34.4877,渭南市,日报社,颗粒物(PM10),90,129,94,62,57,103,48,90,87,59,39,9,8,1.2,0.8
2023-10-11T19:00:00,1940A,109.4636,34.493,渭南市,体育馆,细颗粒物(PM2.5),102,122,98,76,61,113,24,96,89,88,46,7,7,1.1,0.9
2023-10-11T19:00:00,1941A,109.4259,34.5023,渭南市,高新一小,细颗粒物(PM2.5),104,106,99,78,72,110,73,94,94,41,31,11,11,1.1,0.9
2023-10-11T19:00:00,1944A,102.1692,38.5167,金昌市,天庆家园,,28,18,25,12,12,115,88,111,107,22,15,6,14,0.8,0.7
2023-10-11T19:00:00,1945A,98.2908,39.7711,嘉峪关市,气象局,,39,39,42,19,14,123,108,111,111,13,18,3,6,0.2,0.3
2023-10-11T19:00:00,1947A,106.3394,38.817,石嘴山市,沙湖旅游区,,42,42,103,22,59,118,103,100,100,12,47,14,42,0.2,1.2
2023-10-11T19:00:00,1948A,106.3668,39.0145,石嘴山市,大武口朝阳西街,"颗粒物(PM10),细颗粒物(PM2.5)",59,68,86,42,51,134,86,109,109,52,62,20,60,0.6,1.1
2023-10-11T19:00:00,1949A,106.7704,39.2282,石嘴山市,惠农南大街,"颗粒物(PM10),细颗粒物(PM2.5)",72,93,78,52,32,114,67,96,96,61,46,22,30,1.6,1.2
2023-10-11T19:00:00,1950A,106.7099,39.1325,石嘴山市,红果子镇惠新街,细颗粒物(PM2.5),107,92,80,80,37,115,86,104,104,40,44,46,56,1.1,1.2
2023-10-11T19:00:00,1951A,84.895,45.6094,克拉玛依市,长征新村,,29,28,28,0,6,96,92,86,86,8,17,10,10,0.2,0.3
2023-10-11T19:00:00,1952A,84.8988,45.5893,克拉玛依市,南林小区,,34,34,37,19,19,106,103,95,95,11,22,6,6,0.2,0.5
2023-10-11T19:00:00,1954A,84.905,44.3396,克拉玛依市,独山子区,颗粒物(PM10),52,54,45,20,21,160,142,136,136,17,25,7,6,0.5,0.6
2023-10-11T19:00:00,1955A,85.6979,46.098,克拉玛依市,乌尔禾区商贸楼,,38,38,31,4,9,107,93,91,91,12,13,7,6,0.4,0.4
2023-10-11T19:00:00,1956A,86.1472,41.7538,巴音郭楞州,孔雀公园,颗粒物(PM10),88,125,74,43,29,101,92,84,84,6,41,2,2,0.2,0.4
2023-10-11T19:00:00,1957A,86.1972,41.7166,巴音郭楞州,棉纺厂,颗粒物(PM10),110,170,91,29,24,100,89,86,86,7,36,1,1,0.3,0.4
2023-10-11T19:00:00,1958A,86.2357,41.7173,巴音郭楞州,经济开发区,颗粒物(PM10),107,163,78,32,21,104,96,91,91,8,26,2,2,0.2,0.3
2023-10-11T19:00:00,1961A,117.532,36.6868,济南市,东山小学,颗粒物(PM10),67,83,60,29,30,168,73,145,139,73,43,6,7,0.8,0.7
2023-10-11T19:00:00,1966A,120.0405,35.8735,青岛市,黄岛区4号,,45,27,42,14,21,150,141,143,143,12,30,6,6,0.6,0.6
2023-10-11T19:00:00,1982A,122.0693,37.2174,威海市,文登开发区,,36,36,54,12,27,126,67,111,104,39,25,8,9,0.6,0.8
2023-10-11T19:00:00,2031A,113.1817,27.9958,株洲市,云田中学,,48,43,37,33,28,143,72,126,124,54,20,8,8,0.7,0.7
2023-10-11T19:00:00,2054A,114.1099,32.1059,信阳市,平桥分局,颗粒物(PM10),76,102,52,47,35,149,107,138,138,30,18,4,3,0.8,0.7
2023-10-11T19:00:00,2064A,113.9956,32.1271,信阳市,南湾水厂,,,90,65,34,35,147,132,141,141,,9,4,4,0.7,0.7
2023-10-11T19:00:00,2065A,114.0775,32.1195,信阳市,市酿酒公司,颗粒物(PM10),63,75,53,43,30,147,125,139,139,24,22,4,3,1.0,0.9
2023-10-11T19:00:00,2066A,114.0609,32.1399,信阳市,审计局,颗粒物(PM10),67,84,72,47,36,151,113,140,140,36,25,5,5,0.8,0.7
2023-10-11T19:00:00,2067A,114.6613,33.6128,周口市,市环境监测站,颗粒物(PM10),64,78,101,43,68,150,93,140,137,56,37,7,11,0.5,0.4
2023-10-11T19:00:00,2068A,114.6758,33.6347,周口市,周口师范,颗粒物(PM10),51,52,91,34,63,152,96,146,141,50,34,4,8,0.6,0.6
2023-10-11T19:00:00,2069A,114.6546,33.5979,周口市,市运管处,颗粒物(PM10),59,67,107,40,61,154,119,144,144,34,31,7,10,0.3,0.3
2023-10-11T19:00:00,2070A,114.6369,33.6406,周口市,川汇区环保局,细颗粒物(PM2.5),65,65,91,47,66,149,114,142,142,36,50,7,10,0.4,0.4
2023-10-11T19:00:00,2075A,117.6336,24.4674,漳州市,九湖,,,,,,,,,,,,,,,,
2023-10-11T19:00:00,2160A,112.85,35.5051,晋城市,自来水公司,颗粒物(PM10),64,78,83,39,45,150,143,145,145,30,42,10,7,0.7,0.9
2023-10-11T19:00:00,2161A,112.8318,35.4936,晋城市,白云商贸,颗粒物(PM10),69,87,94,36,49,150,136,143,143,29,34,9,6,0.8,1
2023-10-11T19:00:00,2162A,112.8508,35.4887,晋城市,市环保局,颗粒物(PM10),65,80,99,36,44,147,136,142,142,28,50,10,8,0.7,0.8
2023-10-11T19:00:00,2163A,112.8676,35.4897,晋城市,技术学院,颗粒物(PM10),69,88,83,41,43,150,143,142,142,28,50,10,7,0.7,0.8
2023-10-11T19:00:00,2165A,112.8453,35.546,晋城市,白马寺,,,,,,,,,,,,,,,,
2023-10-11T19:00:00,2166A,112.4397,39.3522,朔州市,平朔,,,,101,,39,139,72,109,109,55,49,,16,,0.9
2023-10-11T19:00:00,2167A,112.4575,39.3617,朔州市,朔唯,颗粒物(PM10),58,66,130,29,42,125,101,107,107,30,56,9,18,0.6,0.8
2023-10-11T19:00:00,2168A,112.4258,39.3197,朔州市,区政府,颗粒物(PM10),59,68,92,30,40,122,103,104,104,25,51,8,18,0.7,0.8
2023-10-11T19:00:00,2169A,112.4072,39.3278,朔州市,市环保局,颗粒物(PM10),60,70,94,28,34,127,96,109,109,36,46,8,21,0.7,0.7
2023-10-11T19:00:00,2170A,112.4272,39.3681,朔州市,市二中,颗粒物(PM10),63,76,118,34,39,131,84,105,105,35,50,9,18,0.8,0.8
2023-10-11T19:00:00,2171A,112.7532,37.6945,晋中市,锦纶小区,细颗粒物(PM2.5),114,158,84,86,41,163,91,140,140,69,40,13,10,1.0,0.7
2023-10-11T19:00:00,2173A,112.7249,37.7067,晋中市,南都小区,细颗粒物(PM2.5),138,165,84,105,47,162,103,140,140,51,40,14,11,0.8,0.6
2023-10-11T19:00:00,2174A,112.6991,37.6982,晋中市,榆次区政府,细颗粒物(PM2.5),119,156,74,90,41,160,98,137,137,61,46,14,11,1.1,0.8
2023-10-11T19:00:00,2175A,110.9956,35.0147,运城市,运城中学,颗粒物(PM10),62,73,80,34,40,145,141,140,139,6,17,8,7,0.6,0.7
2023-10-11T19:00:00,2178A,110.9686,35.0303,运城市,地区技校,颗粒物(PM10),68,86,88,31,37,140,136,134,134,12,22,7,7,0.6,0.6
2023-10-11T19:00:00,2179A,111.0414,35.1147,运城市,空港新区,颗粒物(PM10),66,81,103,42,57,143,116,131,131,27,33,7,10,0.9,0.7
2023-10-11T19:00:00,2181A,112.7383,38.4519,忻州市,开发区,细颗粒物(PM2.5),77,100,70,56,33,144,124,127,127,46,47,26,18,1.6,0.8
2023-10-11T19:00:00,2182A,112.7003,38.4928,忻州市,会展中心,细颗粒物(PM2.5),79,104,61,58,35,145,119,131,131,42,44,22,16,1.6,0.8
2023-10-11T19:00:00,2183A,111.1406,37.5211,吕梁市,环保局,颗粒物(PM10),75,99,102,36,39,115,72,93,93,57,56,8,8,0.8,0.7
2023-10-11T19:00:00,2185A,111.1297,37.5136,吕梁市,自来水公司,颗粒物(PM10),86,121,113,41,42,113,16,87,84,95,46,5,6,1.2,0.7
2023-10-11T19:00:00,2187A,106.8174,39.6973,乌海市,市林业局,颗粒物(PM10),60,69,69,35,34,130,95,90,90,25,29,12,15,0.7,0.9
2023-10-11T19:00:00,2188A,106.7907,39.6667,乌海市,中海勃湾学校,,48,48,64,28,31,134,112,103,103,18,30,11,15,0.4,0.6
2023-10-11T19:00:00,2191A,122.2532,43.6801,通辽市,艺术职业学校,颗粒物(PM10),61,72,69,21,32,113,9,99,82,98,52,6,6,0.5,0.7
2023-10-11T19:00:00,2192A,119.7594,49.2261,呼伦贝尔市,区环保局,颗粒物(PM10),65,80,46,28,26,85,7,71,65,78,33,8,5,1.3,0.6
2023-10-11T19:00:00,2195A,107.4212,40.761,巴彦淖尔市,附二中,颗粒物(PM10),67,84,95,31,38,131,79,107,107,54,40,17,13,0.9,0.6
2023-10-11T19:00:00,2196A,107.37,40.7372,巴彦淖尔市,市环保大楼,颗粒物(PM10),60,70,74,38,39,124,71,104,104,49,29,7,12,0.8,0.6
2023-10-11T19:00:00,2197A,113.1306,40.9923,乌兰察布市,集宁新区,,38,38,43,19,24,109,51,92,89,66,38,10,11,0.7,0.5
2023-10-11T19:00:00,2200A,122.0392,46.0656,兴安盟,胜华新制药厂,颗粒物(PM10),122,194,44,71,24,99,11,82,70,64,22,4,3,1.1,0.5
2023-10-11T19:00:00,2201A,121.9504,46.0741,兴安盟,科右前旗环保局,颗粒物(PM10),95,140,49,38,24,98,5,83,71,68,27,9,4,1.8,0.8
2023-10-11T19:00:00,2202A,116.1042,43.9317,锡林郭勒盟,市环保监测站,颗粒物(PM10),63,75,27,19,14,110,22,93,88,67,24,12,12,0.5,0.3
2023-10-11T19:00:00,2203A,116.0781,43.9311,锡林郭勒盟,市政府,,32,32,25,17,13,118,46,100,98,63,27,12,13,0.6,0.3
2023-10-11T19:00:00,2204A,105.6467,38.8363,阿拉善盟,西城区西花园,,50,50,61,31,36,151,124,132,132,23,20,15,20,0.7,0.9
2023-10-11T19:00:00,2205A,105.6985,38.8411,阿拉善盟,蒙二幼,颗粒物(PM10),54,58,56,29,32,153,127,132,132,24,18,16,18,0.6,0.6
2023-10-11T19:00:00,2206A,105.724,38.8516,阿拉善盟,环保局新楼,,49,49,50,32,32,157,132,134,134,20,12,13,14,0.7,0.6
2023-10-11T19:00:00,2207A,121.6094,41.998,阜新市,工业园区,颗粒物(PM10),71,92,77,31,31,134,65,112,112,54,35,17,12,0.8,0.7
2023-10-11T19:00:00,2208A,121.6697,42.0279,阜新市,长青街,颗粒物(PM10),74,98,93,36,45,118,49,93,92,36,34,7,9,0.7,2.2
2023-10-11T19:00:00,2209A,121.6673,42.0705,阜新市,农业园区,细颗粒物(PM2.5),57,52,60,40,40,119,102,110,110,22,30,12,26,0.7,0.9
2023-10-11T19:00:00,2210A,121.6717,42.0224,阜新市,东苑,细颗粒物(PM2.5),65,72,96,47,43,119,64,97,97,54,40,18,14,0.9,3.1
2023-10-11T19:00:00,2211A,121.6506,42.0498,阜新市,玉龙新城,颗粒物(PM10),86,121,78,58,33,131,16,113,95,82,38,10,9,0.9,0.9
2023-10-11T19:00:00,2212A,123.2,41.1953,辽阳市,宏伟区,颗粒物(PM10),53,55,53,30,30,131,76,114,112,55,38,13,12,1.0,1
2023-10-11T19:00:00,2213A,123.1683,41.2495,辽阳市,新华园,颗粒物(PM10),51,52,69,32,39,123,49,102,102,72,42,14,14,1.3,1.2
2023-10-11T19:00:00,2214A,123.2354,41.2639,辽阳市,滨河路,细颗粒物(PM2.5),58,61,58,41,42,126,48,101,99,50,36,10,11,1.0,1.1
2023-10-11T19:00:00,2215A,123.149,41.2991,辽阳市,铁西工业园,颗粒物(PM10),111,171,87,83,50,126,25,97,91,66,37,12,16,1.0,1.1
2023-10-11T19:00:00,2216A,123.8139,42.3022,铁岭市,汇工街西,细颗粒物(PM2.5),80,74,57,59,37,130,50,109,107,55,32,165,35,1.2,0.9
2023-10-11T19:00:00,2217A,123.8649,42.2923,铁岭市,水上乐园,细颗粒物(PM2.5),104,76,45,78,32,133,44,114,111,71,23,12,9,1.0,0.7
2023-10-11T19:00:00,2218A,123.8486,42.2867,铁岭市,银州路东段,,41,41,49,24,26,120,83,104,104,30,26,6,5,0.6,0.6
2023-10-11T19:00:00,2219A,123.7153,42.2217,铁岭市,金沙江路北,颗粒物(PM10),54,57,41,31,28,122,8,108,92,86,35,9,13,1.0,0.8
2023-10-11T19:00:00,2220A,120.4318,41.5881,朝阳市,西梁,颗粒物(PM10),63,76,79,36,44,113,18,84,82,80,38,11,13,1.3,1.2
2023-10-11T19:00:00,2221A,120.4521,41.5646,朝阳市,河畔小区,,37,37,51,21,30,119,87,98,98,26,30,9,10,0.8,1
2023-10-11T19:00:00,2222A,120.4176,41.5648,朝阳市,八里堡,颗粒物(PM10),74,98,76,44,40,114,25,90,82,87,44,9,11,1.9,1.3
2023-10-11T19:00:00,2223A,120.3806,41.5969,朝阳市,农业园区,颗粒物(PM10),67,84,59,46,34,118,20,89,88,90,42,12,10,1.0,1
2023-10-11T19:00:00,2225A,124.4002,43.1713,四平市,一商场,颗粒物(PM10),103,155,97,51,34,126,6,111,92,126,46,6,9,2.4,0.9
2023-10-11T19:00:00,2226A,124.388,43.193,四平市,境园,细颗粒物(PM2.5),124,85,52,94,38,128,18,110,97,63,28,5,5,1.0,0.5
2023-10-11T19:00:00,2227A,125.1358,42.8845,辽源市,环保局,,42,41,43,29,24,117,18,101,96,72,25,7,9,1.1,0.8
2023-10-11T19:00:00,2229A,125.9358,41.7173,通化市,光明,颗粒物(PM10),55,60,41,14,19,93,13,64,62,76,36,9,12,0.8,0.7
2023-10-11T19:00:00,2230A,125.9446,41.7325,通化市,铁路,颗粒物(PM10),52,53,42,23,21,97,30,68,68,49,33,8,17,0.6,0.8
2023-10-11T19:00:00,2231A,126.4219,41.9171,白山市,喜丰,,44,44,43,12,16,103,19,86,81,72,27,8,8,0.8,0.6
2023-10-11T19:00:00,2232A,126.4077,41.9419,白山市,环保局,颗粒物(PM10),56,62,41,28,13,96,21,82,77,61,21,9,9,0.9,0.6
2023-10-11T19:00:00,2233A,124.8006,45.1214,松原市,江南,颗粒物(PM10),98,145,49,66,22,113,5,96,84,74,32,9,9,2.2,0.6
2023-10-11T19:00:00,2234A,124.7965,45.1722,松原市,江北,,48,48,30,17,17,107,20,93,86,55,23,3,5,0.6,0.4
2023-10-11T19:00:00,2235A,122.7911,45.6077,白城市,洮北区环保局,,,,53,,31,116,35,97,89,72,40,,7,0.9,0.6
2023-10-11T19:00:00,2236A,122.8738,45.5725,白城市,市环保局,颗粒物(PM10),123,196,63,55,21,110,8,86,73,100,47,14,10,0.7,0.6
2023-10-11T19:00:00,2237A,129.47,42.8883,延边朝鲜族自治州,妇幼医院,颗粒物(PM10),56,61,31,27,15,99,46,85,80,38,17,7,6,0.7,0.5
2023-10-11T19:00:00,2238A,129.5055,42.9108,延边朝鲜族自治州,延边医院,细颗粒物(PM2.5),68,57,47,49,20,107,47,86,83,51,29,8,6,1.0,0.7
2023-10-11T19:00:00,2239A,129.3964,42.8881,延边朝鲜族自治州,朝阳川镇医院,,41,41,28,21,11,108,61,96,92,22,13,4,4,0.6,0.5
2023-10-11T19:00:00,2240A,130.9762,45.3001,鸡西市,环保局,,31,31,38,7,15,59,34,53,53,43,23,4,5,0.3,0.2
2023-10-11T19:00:00,2243A,130.9429,45.3039,鸡西市,第一中学,,21,21,31,6,10,77,62,69,69,16,16,5,7,0.2,0.3
2023-10-11T19:00:00,2244A,130.2537,47.3416,鹤岗市,哈啤分公司,,19,16,20,13,14,81,60,78,74,13,11,10,10,0.2,0.2
2023-10-11T19:00:00,2245A,130.2684,47.3086,鹤岗市,斯达机电,,38,26,21,26,15,81,57,75,70,19,10,8,8,0.3,0.2
2023-10-11T19:00:00,2246A,130.3114,47.3388,鹤岗市,东山纸板厂,,,,59,40,29,87,16,83,69,51,22,11,11,1.0,0.7
2023-10-11T19:00:00,2247A,130.1097,47.3382,鹤岗市,五号水库,,26,21,15,18,12,83,55,81,76,10,8,10,10,0.3,0.3
2023-10-11T19:00:00,2248A,131.1511,46.6937,双鸭山市,双合村,颗粒物(PM10),71,92,42,15,12,91,46,86,78,27,12,8,9,0.4,0.4
2023-10-11T19:00:00,2249A,131.1652,46.6191,双鸭山市,南小市,颗粒物(PM10),56,61,35,23,15,93,36,82,77,36,12,7,8,0.7,0.5
2023-10-11T19:00:00,2250A,131.1524,46.6554,双鸭山市,环保局,颗粒物(PM10),77,104,33,27,15,87,20,79,72,52,22,8,8,0.7,0.3
2023-10-11T19:00:00,2251A,131.12,46.5656,双鸭山市,苗圃,,29,20,16,18,10,122,92,111,109,9,6,3,3,0.4,0.3
2023-10-11T19:00:00,2252A,128.5159,47.4311,伊春市,环保局,,,18,18,,,43,43,43,43,37,37,15,15,0.9,0.9
2023-10-11T19:00:00,2253A,128.9102,47.7412,伊春市,电力嘉园,,30,30,20,19,9,88,81,84,84,18,18,5,6,0.5,0.4
2023-10-11T19:00:00,2254A,129.5029,48.471,伊春市,汤旺河国家公园,,19,16,20,13,12,70,33,59,52,4,3,8,7,0.2,0.1
2023-10-11T19:00:00,2255A,130.2751,46.8028,佳木斯市,佳纺,颗粒物(PM10),63,76,65,22,24,78,12,69,57,59,28,3,3,0.7,0.5
2023-10-11T19:00:00,2256A,130.3995,46.8307,佳木斯市,发电厂,,41,41,71,11,23,84,48,74,69,17,23,3,5,0.5,0.7
2023-10-11T19:00:00,2257A,130.3258,46.7975,佳木斯市,环保局,,34,30,35,7,13,84,9,73,63,68,27,5,3,0.8,0.6
2023-10-11T19:00:00,2258A,130.3648,46.8032,佳木斯市,十一中,,38,38,57,17,22,82,25,72,66,59,35,3,2,0.9,0.7
2023-10-11T19:00:00,2259A,130.3794,46.7588,佳木斯市,四丰,,28,28,18,17,9,99,59,90,81,19,10,1,1,0.4,0.2
2023-10-11T19:00:00,2262A,131.0518,45.8751,七台河市,新一中,,28,22,25,14,12,101,87,95,95,10,14,8,7,0.6,0.7
2023-10-11T19:00:00,2263A,127.4833,50.2524,黑河市,交通局,,22,21,26,15,11,71,51,62,62,27,20,4,4,0.5,0.4
2023-10-11T19:00:00,2264A,127.5144,50.2341,黑河市,环保局,,28,28,24,12,11,71,59,63,61,17,15,4,3,0.4,0.4
2023-10-11T19:00:00,2265A,127.5291,50.2472,黑河市,大黑河岛,,,36,29,11,16,,,,,2,2,3,2,,
2023-10-11T19:00:00,2266A,126.9785,46.6365,绥化市,人和东街,颗粒物(PM10),60,70,43,26,19,93,28,81,73,65,32,2,2,0.8,0.6
2023-10-11T19:00:00,2267A,126.964,46.6528,绥化市,党政办公中心,,,52,27,22,13,96,53,87,83,43,18,,4,0.6,0.5
2023-10-11T19:00:00,2269A,124.1069,50.4097,大兴安岭地区,科技局,颗粒物(PM10),55,59,17,20,15,80,22,71,67,46,8,9,6,0.5,0.1
2023-10-11T19:00:00,2270A,117.396,32.939,蚌埠市,工人疗养院,颗粒物(PM10),52,54,75,25,44,138,98,124,123,28,37,3,6,0.5,0.6
2023-10-11T19:00:00,2271A,117.3605,32.9427,蚌埠市,百货大楼,颗粒物(PM10),54,58,77,24,40,141,87,127,125,38,41,4,6,0.5,0.6
2023-10-11T19:00:00,2273A,117.4185,32.8911,蚌埠市,蚌埠学院,颗粒物(PM10),57,63,68,26,43,132,83,119,115,38,40,4,5,0.4,0.5
2023-10-11T19:00:00,2274A,117.3533,32.9673,蚌埠市,淮上区政府,颗粒物(PM10),59,68,78,38,53,136,76,124,121,52,42,5,6,0.4,0.5
2023-10-11T19:00:00,2275A,117.3145,32.8977,蚌埠市,高新区,颗粒物(PM10),53,56,67,23,48,144,96,129,128,38,39,5,6,0.6,0.7
2023-10-11T19:00:00,2277A,116.8305,32.7727,淮南市,潘集区政府,颗粒物(PM10),61,71,87,40,53,138,101,128,126,35,34,8,10,0.5,0.6
2023-10-11T19:00:00,2278A,117.0067,32.6524,淮南市,师范学院,颗粒物(PM10),65,80,88,26,51,134,94,123,122,34,36,10,9,0.4,0.9
2023-10-11T19:00:00,2279A,116.8569,32.5951,淮南市,谢家集区政府,颗粒物(PM10),65,80,61,43,41,139,97,127,127,42,38,6,22,0.4,0.6
2023-10-11T19:00:00,2280A,116.8281,32.633,淮南市,八公山区政府,颗粒物(PM10),56,62,77,36,45,138,107,126,126,25,27,12,15,0.4,0.6
2023-10-11T19:00:00,2281A,116.6325,32.6201,淮南市,焦岗湖风景区管理处,,48,48,64,25,37,134,66,125,119,40,27,2,2,0.4,0.4
2023-10-11T19:00:00,2282A,116.8004,33.975,淮北市,监测站,颗粒物(PM10),60,69,50,38,30,157,91,136,134,47,27,8,8,0.9,0.7
2023-10-11T19:00:00,2283A,116.8091,33.9007,淮北市,烈山区政府,细颗粒物(PM2.5),69,75,59,50,35,175,143,157,157,25,28,7,7,0.6,0.4
2023-10-11T19:00:00,2285A,117.8177,30.9412,铜陵市,市第四中学,细颗粒物(PM2.5),103,111,80,77,61,106,61,86,86,44,31,8,10,1.0,0.8
2023-10-11T19:00:00,2286A,117.8059,30.9273,铜陵市,市公路局,细颗粒物(PM2.5),93,127,80,69,51,120,59,95,95,48,31,6,7,1.1,0.8
2023-10-11T19:00:00,2287A,117.7807,30.9413,铜陵市,市新民污水厂,颗粒物(PM10),77,103,86,50,37,118,42,86,86,51,34,4,10,0.7,0.6
2023-10-11T19:00:00,2288A,117.7439,30.8792,铜陵市,市第九中学,颗粒物(PM10),77,104,96,52,45,124,103,98,98,23,32,4,4,0.7,0.8
2023-10-11T19:00:00,2289A,117.846,30.9413,铜陵市,车站新区,细颗粒物(PM2.5),103,103,79,77,62,112,72,91,91,49,34,4,5,0.7,0.6
2023-10-11T19:00:00,2290A,117.8483,30.97,铜陵市,市职教基地,细颗粒物(PM2.5),75,95,75,55,40,104,64,79,79,32,25,3,3,0.9,0.8
2023-10-11T19:00:00,2291A,117.0809,30.5177,安庆市,环科院,细颗粒物(PM2.5),80,83,51,59,37,157,125,139,139,38,26,9,8,0.9,0.6
2023-10-11T19:00:00,2292A,117.0331,30.5119,安庆市,马山宾馆,细颗粒物(PM2.5),80,74,56,59,37,155,130,142,142,28,18,7,7,1.0,0.7
2023-10-11T19:00:00,2294A,116.9896,30.6145,安庆市,安庆大学,细颗粒物(PM2.5),70,72,52,51,40,156,131,142,142,22,18,7,7,0.7,0.6
2023-10-11T19:00:00,2295A,118.2903,29.6963,黄山市,延安路89号,,49,49,42,15,13,126,73,114,110,6,6,5,5,0.6,0.5
2023-10-11T19:00:00,2296A,118.327,29.7178,黄山市,黄山东路89号,颗粒物(PM10),53,55,35,25,18,121,87,111,110,14,8,6,5,0.7,0.6
2023-10-11T19:00:00,2297A,118.1371,30.2756,黄山市,黄山区政府5号楼,细颗粒物(PM2.5),70,78,57,51,30,140,95,126,126,20,11,7,7,0.8,0.6
2023-10-11T19:00:00,2298A,118.3093,32.3153,滁州市,老年大学,,37,37,37,20,27,132,100,122,121,30,24,5,6,0.3,0.4
2023-10-11T19:00:00,2299A,118.3244,32.2786,滁州市,人大宾馆,,43,43,51,24,37,131,86,123,120,39,27,6,10,0.4,0.5
2023-10-11T19:00:00,2301A,115.8277,32.8929,阜阳市,市监测站,颗粒物(PM10),58,65,80,28,53,135,91,127,124,31,35,7,10,0.5,0.6
2023-10-11T19:00:00,2303A,115.8554,32.8605,阜阳市,开发区,颗粒物(PM10),62,73,98,33,57,132,108,124,124,34,46,8,12,0.7,0.8
2023-10-11T19:00:00,2307A,116.5079,31.737,六安市,监测大楼,颗粒物(PM10),57,63,55,23,33,138,90,123,123,37,29,5,5,0.6,0.5
2023-10-11T19:00:00,2308A,116.4738,31.7643,六安市,皖西学院,颗粒物(PM10),58,66,54,26,29,143,122,132,132,24,25,7,6,0.6,0.6
2023-10-11T19:00:00,2309A,116.4996,31.7905,六安市,朝阳厂,细颗粒物(PM2.5),55,56,48,39,36,142,99,127,127,35,29,6,6,0.7,0.6
2023-10-11T19:00:00,2310A,116.5567,31.7886,六安市,开发区,颗粒物(PM10),64,77,66,29,36,131,86,118,118,24,25,6,6,0.6,0.6
2023-10-11T19:00:00,2311A,115.8072,33.8399,亳州市,污水处理厂,细颗粒物(PM2.5),72,84,105,52,82,160,107,140,140,25,39,19,14,0.7,0.6
2023-10-11T19:00:00,2312A,115.7789,33.8518,亳州市,三国揽胜宫,颗粒物(PM10),55,60,111,29,74,164,112,146,146,40,30,8,12,0.7,0.5
2023-10-11T19:00:00,2314A,117.47,30.6618,池州市,池州学院,细颗粒物(PM2.5),69,81,72,50,47,168,93,123,123,41,25,9,8,0.9,0.8
2023-10-11T19:00:00,2316A,118.7581,30.9454,宣城市,鳌峰子站,,49,49,52,26,35,127,105,110,110,16,20,5,5,0.7,0.8
2023-10-11T19:00:00,2317A,118.7385,30.9743,宣城市,敬亭山子站,,34,34,46,16,36,130,78,107,107,15,24,5,7,0.5,0.7
2023-10-11T19:00:00,2318A,118.7173,30.9427,宣城市,开发区子站,颗粒物(PM10),52,53,54,26,35,125,88,112,112,30,25,5,6,0.7,0.8
2023-10-11T19:00:00,2319A,119.0141,25.4325,莆田市,荔城区仓后路,,35,35,26,16,16,110,92,101,100,11,9,7,7,1.1,1
2023-10-11T19:00:00,2320A,119.0015,25.4553,莆田市,莆田市监测站,,32,27,22,16,14,116,102,111,110,6,4,7,7,0.8,0.8
2023-10-11T19:00:00,2321A,119.1119,25.4561,莆田市,涵江区六中,,33,22,27,10,15,122,103,120,114,8,6,7,6,0.7,0.7
2023-10-11T19:00:00,2322A,119.1013,25.3215,莆田市,秀屿区政府,,39,39,46,17,19,123,93,113,110,15,8,7,6,0.8,0.7
2023-10-11T19:00:00,2323A,118.981,25.4792,莆田市,东圳水库,,,,,,,,,,,,,,,,
2023-10-11T19:00:00,2324A,117.6211,26.2625,三明市,三钢,,19,13,8,12,7,63,60,60,60,11,9,7,7,0.5,0.4
2023-10-11T19:00:00,2325A,117.635,26.2714,三明市,三明二中,,20,8,7,8,5,64,64,62,62,13,12,3,4,0.7,0.6
2023-10-11T19:00:00,2326A,117.6028,26.2378,三明市,三元区政府,,20,13,9,6,4,65,63,62,62,12,12,7,8,0.6,0.6
2023-10-11T19:00:00,2327A,117.7275,26.3108,三明市,洋溪,,,,,,,,,,,,,,,,
2023-10-11T19:00:00,2331A,118.0966,26.6761,南平市,茫荡山,,,,,,,,,,,,,,,,
2023-10-11T19:00:00,2332A,118.1681,26.6369,南平市,南平市监测站,,28,28,10,15,8,78,61,74,72,12,8,4,4,0.6,0.6
2023-10-11T19:00:00,2333A,118.1825,26.6489,南平市,南平铝业有限公司,,29,18,10,20,8,82,71,78,78,9,8,4,4,0.6,0.6
2023-10-11T19:00:00,2334A,118.1756,26.6272,南平市,南平七中,,24,11,10,16,8,88,74,84,84,7,7,5,6,0.7,0.7
2023-10-11T19:00:00,2335A,117.0189,25.1181,龙岩市,龙岩师专,,,,,,,,,,,,,,,,
2023-10-11T19:00:00,2336A,117.0217,25.1033,龙岩市,龙岩市监测站,,19,17,12,9,7,75,60,70,70,15,12,7,5,0.6,0.6
2023-10-11T19:00:00,2337A,117.0258,25.0661,龙岩市,闽西职业技术学院,,22,22,15,10,7,74,59,67,67,12,9,6,5,0.6,0.5
2023-10-11T19:00:00,2338A,117.0196,25.0306,龙岩市,龙岩学院,,22,22,14,10,6,74,56,65,65,13,9,6,4,0.6,0.5
2023-10-11T19:00:00,2339A,119.5001,26.6946,宁德市,金涵水库,,,,,,,,,,,,,,,,
2023-10-11T19:00:00,2341A,119.5388,26.6612,宁德市,宁德市监测站,,,31,18,23,13,84,60,76,74,,15,6,5,0.8,0.6
2023-10-11T19:00:00,2342A,117.3102,29.3867,景德镇市,王港中学,,33,33,32,20,20,120,57,106,99,8,6,2,2,0.7,0.3
2023-10-11T19:00:00,2343A,117.2117,29.2933,景德镇市,老干部活动中心,,30,30,31,12,27,105,79,98,97,11,10,4,7,0.4,0.7
2023-10-11T19:00:00,2344A,117.1894,29.2789,景德镇市,兽医站,,42,22,31,29,32,100,72,93,91,10,7,9,9,0.5,0.5
2023-10-11T19:00:00,2345A,117.1547,29.2617,景德镇市,台达陶瓷,,26,26,32,12,23,101,61,95,92,30,12,35,9,0.6,0.5
2023-10-11T19:00:00,2346A,117.2461,29.2956,景德镇市,陶研所,,26,26,43,10,17,96,54,88,84,7,6,6,5,0.4,0.5
2023-10-11T19:00:00,2347A,114.0997,27.5002,萍乡市,武功山,,23,19,14,16,12,110,63,98,95,5,4,5,5,0.4,0.5
2023-10-11T19:00:00,2348A,113.8385,27.6434,萍乡市,中医院,,50,43,44,35,35,116,99,109,109,16,13,8,12,0.8,0.7
2023-10-11T19:00:00,2349A,113.8493,27.6253,萍乡市,市政府车库,颗粒物(PM10),52,53,40,33,30,110,77,102,102,28,13,11,11,1.2,0.7
2023-10-11T19:00:00,2350A,113.8676,27.6435,萍乡市,市环保局,,,48,38,,30,116,102,111,111,15,15,6,12,0.6,0.7
2023-10-11T19:00:00,2351A,113.866,27.6198,萍乡市,安源区政府,颗粒物(PM10),51,52,37,21,26,115,96,110,110,18,15,6,8,0.6,0.7
2023-10-11T19:00:00,2352A,115.0861,27.9317,新余市,北岗,,45,25,36,31,29,141,80,116,116,11,11,9,14,0.6,0.6
2023-10-11T19:00:00,2353A,114.9886,27.8431,新余市,飞宇,,50,50,57,27,37,132,102,116,116,24,20,12,15,0.4,0.6
2023-10-11T19:00:00,2354A,114.9231,27.8246,新余市,第二水厂,,48,48,57,25,30,149,114,130,130,25,15,9,13,0.7,0.6
2023-10-11T19:00:00,2355A,114.9308,27.8036,新余市,市气象局,,47,47,45,28,48,131,99,116,116,32,19,9,13,0.8,0.8
2023-10-11T19:00:00,2357A,116.9822,28.1136,鹰潭市,龙虎山,,34,34,29,13,7,109,94,106,104,6,4,8,5,0.2,0.5
2023-10-11T19:00:00,2358A,117.0564,28.2642,鹰潭市,新监测站,,48,48,34,28,24,111,85,106,102,15,12,5,20,0.6,0.5
2023-10-11T19:00:00,2359A,117.0311,28.2475,鹰潭市,财苑宾馆,,39,37,32,27,25,121,90,115,110,12,10,6,18,0.3,0.4
2023-10-11T19:00:00,2360A,117.0222,28.2264,鹰潭市,体育馆,,38,37,32,26,27,109,90,106,104,11,14,10,14,0.6,0.6
2023-10-11T19:00:00,2361A,117.0017,28.2131,鹰潭市,三川水表,,37,37,34,25,27,111,95,108,106,10,20,6,11,0.5,0.5
2023-10-11T19:00:00,2362A,114.9017,25.9149,赣州市,通天岩,,,,,,,,,,,,,,,,
2023-10-11T19:00:00,2363A,114.9367,25.8664,赣州市,地委,,42,42,35,24,23,99,72,92,91,17,7,17,14,1.0,1
2023-10-11T19:00:00,2364A,114.9461,25.8481,赣州市,气象台,,38,31,30,26,24,101,76,91,90,17,12,13,6,1.0,1
2023-10-11T19:00:00,2365A,114.9322,25.8333,赣州市,市图书馆,,40,40,45,26,24,100,78,89,88,12,8,5,10,0.9,1
2023-10-11T19:00:00,2366A,114.8905,25.8471,赣州市,华坚鞋城,,45,45,37,28,24,103,79,96,94,17,7,7,6,0.8,0.8
2023-10-11T19:00:00,2367A,114.9754,27.0803,吉安市,红声器材厂,,41,41,44,25,33,113,81,108,103,13,10,15,10,0.6,0.7
2023-10-11T19:00:00,2368A,114.9658,27.0999,吉安市,市森林工业局,,45,45,47,26,33,113,80,108,102,20,14,26,11,0.5,0.6
2023-10-11T19:00:00,2369A,114.99,27.1312,吉安市,市环境监测站,,40,38,44,28,30,117,85,113,106,16,13,35,10,0.9,0.6
2023-10-11T19:00:00,2370A,115.0093,27.0968,吉安市,青原区法院,,46,46,42,27,31,113,70,107,98,20,14,17,11,0.7,0.7
2023-10-11T19:00:00,2371A,114.3408,27.8064,宜春市,槟榔水业,,47,47,39,28,25,127,94,114,114,23,17,2,3,0.4,0.4
2023-10-11T19:00:00,2373A,114.3956,27.7844,宜春市,市石油公司,,46,46,45,29,29,116,78,104,103,24,13,4,4,0.7,0.8
2023-10-11T19:00:00,2374A,114.3703,27.7914,宜春市,市气象局,颗粒物(PM10),80,109,52,40,31,116,85,104,104,24,13,4,4,1.0,1
2023-10-11T19:00:00,2375A,114.4013,27.8074,宜春市,市广电局,,43,43,42,28,32,126,99,115,115,32,16,6,5,0.8,0.8
2023-10-11T19:00:00,2376A,116.2127,28.0814,抚州市,桐源党溪,,35,35,36,20,24,115,80,101,101,6,6,4,3,0.8,0.8
2023-10-11T19:00:00,2377A,116.3544,27.9831,抚州市,市站,,41,41,39,22,27,116,92,108,108,17,13,4,7,0.7,0.6
2023-10-11T19:00:00,2378A,116.3565,27.963,抚州市,血防站,,47,47,45,23,29,112,90,104,104,15,11,4,4,0.9,1
2023-10-11T19:00:00,2379A,116.3564,28.0007,抚州市,采茶剧团,,42,2,36,29,30,113,88,106,105,14,9,5,7,0.8,0.8
2023-10-11T19:00:00,2380A,116.385,27.9647,抚州市,医学分院,,34,34,38,22,24,118,92,112,111,14,9,6,8,0.7,0.7
2023-10-11T19:00:00,2381A,118.005,28.4572,上饶市,百草园,,,31,33,18,18,94,94,83,83,5,10,5,7,,
2023-10-11T19:00:00,2382A,117.9756,28.4436,上饶市,市监测站,,35,35,35,21,23,111,110,106,106,10,14,8,12,0.7,0.6
2023-10-11T19:00:00,2383A,117.9519,28.4628,上饶市,凤凰光学,,37,37,34,20,22,108,103,103,103,16,18,4,7,0.8,0.7
2023-10-11T19:00:00,2385A,114.17,35.9019,鹤壁市,市监测站,细颗粒物(PM2.5),79,86,79,58,47,158,64,139,133,45,36,8,7,1.2,0.7
2023-10-11T19:00:00,2386A,114.2956,35.7511,鹤壁市,市交警支队,颗粒物(PM10),74,97,75,42,40,152,36,132,123,100,55,9,9,0.8,0.7
2023-10-11T19:00:00,2387A,114.2878,35.7306,鹤壁市,迎宾馆,颗粒物(PM10),72,93,66,45,40,151,49,122,120,99,46,9,9,3.0,0.9
2023-10-11T19:00:00,2389A,113.836,35.311,新乡市,环保西院,颗粒物(PM10),73,95,93,41,43,158,96,141,141,40,52,11,10,1.3,0.8
2023-10-11T19:00:00,2390A,113.884,35.272,新乡市,开发区,颗粒物(PM10),58,66,82,39,43,160,124,147,147,24,54,12,9,0.6,0.9
2023-10-11T19:00:00,2391A,113.883,35.303,新乡市,环保东院,颗粒物(PM10),70,89,96,44,47,159,95,140,140,51,63,13,11,1.0,0.9
2023-10-11T19:00:00,2392A,115.0312,35.7636,濮阳市,环保局,颗粒物(PM10),54,57,52,32,34,158,119,146,146,34,38,6,7,0.6,0.6
2023-10-11T19:00:00,2394A,115.0574,35.7609,濮阳市,油田运输公司,颗粒物(PM10),63,76,71,28,36,166,123,151,151,28,35,6,8,0.4,0.4
2023-10-11T19:00:00,2395A,115.0866,35.7754,濮阳市,油田物探公司,颗粒物(PM10),68,86,80,36,47,173,119,154,154,34,43,7,9,0.4,0.5
2023-10-11T19:00:00,2396A,113.8276,34.0159,许昌市,监测站,颗粒物(PM10),53,56,85,30,47,157,123,146,146,31,42,5,6,0.6,0.7
2023-10-11T19:00:00,2398A,113.7906,33.9953,许昌市,开发区,颗粒物(PM10),54,58,85,31,56,159,119,146,145,22,34,4,6,0.2,0.3
2023-10-11T19:00:00,2399A,114.051,33.5699,漯河市,三五一五工厂,颗粒物(PM10),70,90,105,41,58,171,114,158,157,34,39,8,11,0.6,0.6
2023-10-11T19:00:00,2400A,114.0055,33.5698,漯河市,漯河大学,颗粒物(PM10),60,69,92,32,55,172,125,160,160,32,36,10,14,0.6,0.6
2023-10-11T19:00:00,2401A,114.0138,33.5828,漯河市,市水利局,颗粒物(PM10),60,70,95,26,53,171,136,160,160,22,36,8,10,0.5,0.6
2023-10-11T19:00:00,2402A,114.0261,33.5698,漯河市,市广电局,颗粒物(PM10),61,71,98,36,65,168,133,158,158,22,33,5,11,0.5,0.7
2023-10-11T19:00:00,2404A,112.5224,33.0122,南阳市,瓦房庄,颗粒物(PM10),69,88,95,41,57,157,138,146,146,34,44,6,6,0.6,0.8
2023-10-11T19:00:00,2405A,112.5003,32.9735,南阳市,汉画馆,颗粒物(PM10),64,77,79,38,49,161,139,150,150,23,34,6,6,0.6,0.7
2023-10-11T19:00:00,2406A,112.5573,33.027,南阳市,气象站,颗粒物(PM10),67,83,77,39,49,165,138,152,152,34,29,5,5,0.5,0.6
2023-10-11T19:00:00,2407A,112.5481,32.9689,南阳市,理工学院,颗粒物(PM10),73,96,96,45,55,168,134,155,155,36,35,6,6,0.6,0.7
2023-10-11T19:00:00,2408A,115.6702,34.4285,商丘市,环境监测站,细颗粒物(PM2.5),90,69,73,67,57,148,114,132,132,34,33,7,7,0.6,0.5
2023-10-11T19:00:00,2409A,115.6458,34.4045,商丘市,粮食局,细颗粒物(PM2.5),64,65,74,46,53,143,111,134,133,38,34,6,7,0.6,0.6
2023-10-11T19:00:00,2410A,115.6293,34.3948,商丘市,睢阳区环保局,颗粒物(PM10),53,55,72,29,44,151,118,141,141,31,38,7,7,0.5,0.5
2023-10-11T19:00:00,2420A,114.0189,32.9656,驻马店市,市一纸厂,颗粒物(PM10),54,58,69,34,35,165,123,151,151,21,28,8,9,0.5,0.5
2023-10-11T19:00:00,2421A,114.0114,33.015,驻马店市,市彩印厂,颗粒物(PM10),53,56,77,29,39,169,130,154,154,17,21,8,9,0.4,0.4
2023-10-11T19:00:00,2422A,113.9976,32.9771,驻马店市,天方二分厂,,,52,72,39,41,162,125,148,148,,26,6,8,,0.4
2023-10-11T19:00:00,2423A,115.0601,30.2313,黄石市,沈家营,,44,44,55,29,31,158,128,149,149,13,25,7,7,0.5,0.6
2023-10-11T19:00:00,2424A,115.0817,30.2006,黄石市,陈家湾,细颗粒物(PM2.5),65,61,55,47,36,154,111,138,138,6,13,7,8,0.5,0.6
2023-10-11T19:00:00,2426A,114.8988,30.2019,黄石市,铁山,颗粒物(PM10),51,52,48,34,35,160,96,143,140,36,24,4,6,0.6,0.8
2023-10-11T19:00:00,2427A,115.0307,30.2092,黄石市,团城山,颗粒物(PM10),52,54,62,31,30,154,123,143,143,26,27,9,9,0.6,0.5
2023-10-11T19:00:00,2428A,111.0419,32.395,十堰市,武当山,,41,34,25,24,16,132,131,115,115,9,6,16,10,0.7,0.7
2023-10-11T19:00:00,2429A,110.78,32.6494,十堰市,滨河新村,,49,49,57,30,34,119,106,106,106,27,29,9,8,0.9,0.8
