timepoint,stationcode,longitude,latitude,area,positionname,primarypollutant,aqi,pm10,pm10_24h,pm2_5,pm2_5_24h,o3,o3_24h,o3_8h,o3_8h_24h,no2,no2_24h,so2,so2_24h,co,co_24h
2023-02-22T01:00:00,1001A,116.3621,39.8784,北京市,万寿西宫,颗粒物(PM10),56,62,46,35,26,55,5,5,5,73,39,3,4,0.8,0.6
2023-02-22T01:00:00,1002A,116.2202,40.2915,北京市,定陵,颗粒物(PM10),57,64,37,35,18,55,23,23,23,24,21,3,3,0.5,0.4
2023-02-22T01:00:00,1003A,116.4174,39.9289,北京市,东四,颗粒物(PM10),76,101,52,53,24,55,2,2,2,79,33,5,3,0.7,0.3
2023-02-22T01:00:00,1004A,116.4072,39.8863,北京市,天坛,颗粒物(PM10),56,61,44,37,24,57,10,10,10,65,33,2,3,0.5,0.4
2023-02-22T01:00:00,1005A,116.462,39.9365,北京市,农展馆,颗粒物(PM10),71,91,49,47,25,55,1,1,1,80,39,3,3,0.8,0.4
2023-02-22T01:00:00,1006A,116.3392,39.9295,北京市,官园,颗粒物(PM10),70,89,52,46,26,68,2,2,2,80,38,6,5,0.8,0.4
2023-02-22T01:00:00,1007A,116.2878,39.9611,北京市,海淀万柳,颗粒物(PM10),65,79,48,41,25,52,0,0,0,74,43,3,3,0.6,0.4
2023-02-22T01:00:00,1008A,116.6636,40.135,北京市,顺义新城,"颗粒物(PM10),细颗粒物(PM2.5)",67,84,50,48,26,69,13,13,13,57,31,2,3,0.8,0.4
2023-02-22T01:00:00,1009A,116.6275,40.3275,北京市,怀柔镇,颗粒物(PM10),62,74,45,39,20,59,18,18,18,36,30,3,3,0.5,0.4
2023-02-22T01:00:00,1010A,116.2296,40.217,北京市,昌平镇,颗粒物(PM10),60,70,58,35,22,45,18,18,18,33,33,2,3,0.4,0.4
2023-02-22T01:00:00,1011A,116.3966,39.9821,北京市,奥体中心,细颗粒物(PM2.5),72,89,49,52,27,53,1,1,1,76,42,5,3,0.7,0.4
2023-02-22T01:00:00,1012A,116.184,39.9136,北京市,古城,颗粒物(PM10),62,74,48,41,22,63,2,2,2,70,35,2,3,0.7,0.5
2023-02-22T01:00:00,1015A,117.1444,39.1661,天津市,勤俭道,颗粒物(PM10),61,72,50,40,23,76,34,34,34,44,37,11,9,0.6,0.6
2023-02-22T01:00:00,1017A,117.237,39.1082,天津市,大直沽八号路,颗粒物(PM10),63,75,54,37,23,72,22,22,22,49,35,10,9,0.6,0.5
2023-02-22T01:00:00,1018A,117.202,39.0927,天津市,前进道,颗粒物(PM10),59,67,46,38,23,78,28,28,28,50,40,8,6,0.6,0.6
2023-02-22T01:00:00,1019A,117.1837,39.2133,天津市,淮河道,颗粒物(PM10),69,87,64,35,24,78,35,35,35,44,34,9,9,0.6,0.5
2023-02-22T01:00:00,1021A,117.307,39.0877,天津市,跃进路,颗粒物(PM10),59,68,51,36,25,77,14,14,14,57,43,10,10,0.7,0.7
2023-02-22T01:00:00,1023A,117.707,39.0343,天津市,第四大街,颗粒物(PM10),65,79,48,36,19,69,18,18,18,55,45,6,9,0.6,0.6
2023-02-22T01:00:00,1024A,117.457,38.8394,天津市,永明路,颗粒物(PM10),61,71,46,35,21,82,41,41,41,40,33,13,11,0.7,0.5
2023-02-22T01:00:00,1026A,117.764,39.1587,天津市,汉北路,颗粒物(PM10),59,68,39,30,16,72,12,12,12,64,47,9,9,0.6,0.5
2023-02-22T01:00:00,1027A,117.157,38.9194,天津市,团泊洼,颗粒物(PM10),57,64,44,36,23,123,6,6,6,60,39,9,9,0.8,0.7
2023-02-22T01:00:00,1029A,114.4422,38.0444,石家庄市,职工医院,颗粒物(PM10),69,88,59,36,30,83,6,6,6,77,30,14,8,0.6,0.5
2023-02-22T01:00:00,1030A,114.6063,38.0266,石家庄市,高新区,颗粒物(PM10),58,66,52,38,26,83,26,26,26,48,30,5,7,0.3,0.3
2023-02-22T01:00:00,1031A,114.4898,38.1328,石家庄市,西北水源,颗粒物(PM10),78,105,62,44,31,77,4,4,4,70,31,6,5,0.5,0.3
2023-02-22T01:00:00,1032A,114.4586,38.0058,石家庄市,西南高教,颗粒物(PM10),57,63,57,35,23,79,10,10,10,61,33,8,8,0.6,0.5
2023-02-22T01:00:00,1033A,114.5331,38.0178,石家庄市,世纪公园,颗粒物(PM10),54,57,48,29,22,76,26,26,26,40,26,6,6,0.7,0.6
2023-02-22T01:00:00,1034A,114.509,38.0457,石家庄市,人民会堂,颗粒物(PM10),56,62,49,34,21,83,29,29,29,40,23,8,5,0.4,0.3
2023-02-22T01:00:00,1035A,114.3524,37.8911,石家庄市,封龙山,颗粒物(PM10),62,74,54,43,35,81,74,74,74,21,18,9,6,0.9,0.7
2023-02-22T01:00:00,1037A,118.131,39.6363,唐山市,雷达站,,42,42,50,17,22,72,43,43,43,29,35,4,7,0.5,0.8
2023-02-22T01:00:00,1038A,118.1725,39.6334,唐山市,物资局,,36,36,51,24,27,68,36,36,36,35,43,8,11,0.5,0.8
2023-02-22T01:00:00,1040A,118.1705,39.6506,唐山市,十二中,,43,38,54,30,32,64,35,35,35,45,44,6,8,0.6,0.9
2023-02-22T01:00:00,1041A,118.1869,39.622,唐山市,小山,,43,43,54,13,18,73,36,36,36,31,37,4,8,0.3,0.7
2023-02-22T01:00:00,1042A,119.5134,39.8207,秦皇岛市,北戴河环保局,,34,34,28,16,15,76,48,48,48,27,29,5,3,0.7,0.7
2023-02-22T01:00:00,1043A,119.7493,40.0116,秦皇岛市,第一关,颗粒物(PM10),53,55,40,30,17,69,37,37,37,35,32,9,4,1.1,0.5
2023-02-22T01:00:00,1044A,119.5897,39.9499,秦皇岛市,监测站,颗粒物(PM10),53,56,40,28,17,71,40,40,40,34,29,9,6,1.0,0.5
2023-02-22T01:00:00,1046A,119.5251,39.9041,秦皇岛市,建设大厦,颗粒物(PM10),57,63,48,24,17,69,37,37,37,39,36,12,7,1.0,0.6
2023-02-22T01:00:00,1048A,114.5302,36.6116,邯郸市,东污水处理厂,颗粒物(PM10),56,61,52,28,18,91,56,56,56,15,21,11,11,0.3,0.5
2023-02-22T01:00:00,1049A,114.4918,36.5713,邯郸市,矿院,,42,42,49,27,28,90,51,51,51,19,25,7,15,0.4,0.5
2023-02-22T01:00:00,1050A,114.484,36.6133,邯郸市,丛台公园,,42,42,39,25,20,89,54,54,54,15,17,6,11,0.5,0.5
2023-02-22T01:00:00,1051A,115.493,38.8632,保定市,游泳馆,细颗粒物(PM2.5),77,95,64,56,34,82,4,4,4,71,45,13,12,0.6,0.5
2023-02-22T01:00:00,1052A,115.5213,38.8959,保定市,华电二区,"颗粒物(PM10),细颗粒物(PM2.5)",67,83,70,48,36,68,5,5,5,76,56,10,9,0.5,0.6
2023-02-22T01:00:00,1053A,115.4713,38.9108,保定市,接待中心,颗粒物(PM10),68,85,60,44,30,72,3,3,3,73,47,8,8,1.0,0.9
2023-02-22T01:00:00,1054A,115.4612,38.8416,保定市,地表水厂,颗粒物(PM10),68,85,81,43,35,74,13,13,13,65,49,10,10,0.4,0.5
2023-02-22T01:00:00,1056A,115.5086,38.8639,保定市,监测站,颗粒物(PM10),69,87,70,47,36,80,10,10,10,69,50,8,10,0.8,0.9
2023-02-22T01:00:00,1057A,114.8883,40.8336,张家口市,人民公园,颗粒物(PM10),51,51,32,26,16,68,38,38,38,16,18,5,9,0.6,0.5
2023-02-22T01:00:00,1059A,114.8687,40.8042,张家口市,五金库,细颗粒物(PM2.5),53,46,32,37,23,75,34,34,34,30,26,6,6,0.3,0.5
2023-02-22T01:00:00,1060A,114.8902,40.762,张家口市,世纪豪园,细颗粒物(PM2.5),65,58,38,47,22,69,25,25,25,38,25,7,5,0.9,0.7
2023-02-22T01:00:00,1061A,114.8916,40.8661,张家口市,北泵房,,46,34,33,32,23,71,41,41,41,21,24,8,17,0.9,0.8
2023-02-22T01:00:00,1062A,117.9531,40.9081,承德市,铁路,细颗粒物(PM2.5),62,59,37,44,24,70,12,12,12,47,35,13,11,1.1,0.6
2023-02-22T01:00:00,1063A,117.9392,40.9763,承德市,中国银行,颗粒物(PM10),52,54,33,31,17,71,7,7,7,54,28,6,8,0.8,0.6
2023-02-22T01:00:00,1064A,117.9503,40.928,承德市,开发区,细颗粒物(PM2.5),59,64,38,42,26,73,7,7,7,50,36,12,10,1.1,0.7
2023-02-22T01:00:00,1065A,117.8051,40.9655,承德市,文化中心,细颗粒物(PM2.5),62,69,58,44,32,63,13,13,13,45,39,10,15,1.0,0.8
2023-02-22T01:00:00,1066A,117.9268,41.0026,承德市,离宫,细颗粒物(PM2.5),63,48,27,45,21,68,11,11,11,36,15,10,12,0.7,0.5
2023-02-22T01:00:00,1067A,116.6708,39.5111,廊坊市,药材公司,细颗粒物(PM2.5),68,77,61,49,31,76,13,13,13,65,43,8,7,0.7,0.7
2023-02-22T01:00:00,1068A,116.7214,39.5589,廊坊市,开发区,颗粒物(PM10),63,76,56,42,30,77,18,18,18,66,49,10,8,0.7,0.7
2023-02-22T01:00:00,1070A,116.7244,39.5269,廊坊市,北华航天学院,细颗粒物(PM2.5),73,89,66,53,30,74,13,13,13,72,55,9,9,0.6,0.6
2023-02-22T01:00:00,1071A,116.8842,38.2991,沧州市,沧县城建局,颗粒物(PM10),71,92,60,50,32,83,25,25,25,54,42,16,15,0.7,0.7
2023-02-22T01:00:00,1072A,116.8584,38.3254,沧州市,电视转播站,颗粒物(PM10),68,86,48,46,24,82,33,33,33,49,39,20,13,0.8,0.7
2023-02-22T01:00:00,1073A,116.8709,38.3228,沧州市,市环保局,颗粒物(PM10),64,78,52,32,27,81,30,30,30,55,44,14,11,0.4,0.3
2023-02-22T01:00:00,1074A,115.6838,37.7541,衡水市,电机北厂,颗粒物(PM10),54,58,50,28,22,84,34,34,34,35,28,7,7,0.4,0.5
2023-02-22T01:00:00,1075A,115.6303,37.7316,衡水市,市监测站,颗粒物(PM10),54,57,47,29,22,84,35,35,35,36,26,9,9,0.3,0.5
2023-02-22T01:00:00,1077A,114.4704,37.0886,邢台市,达活泉,颗粒物(PM10),64,78,59,41,30,84,46,46,46,31,24,12,6,1.6,0.5
2023-02-22T01:00:00,1078A,114.5062,37.0349,邢台市,邢师高专,颗粒物(PM10),56,62,50,38,26,86,38,38,38,36,31,9,9,0.5,0.4
2023-02-22T01:00:00,1079A,114.5237,37.0851,邢台市,路桥公司,颗粒物(PM10),61,72,51,25,22,85,44,44,44,33,32,8,10,0.7,0.6
2023-02-22T01:00:00,1080A,114.4725,37.0719,邢台市,市环保局,颗粒物(PM10),69,87,57,39,28,84,47,47,47,29,24,9,9,0.4,0.4
2023-02-22T01:00:00,1081A,112.522,37.8873,太原市,尖草坪,细颗粒物(PM2.5),110,127,99,83,56,82,33,33,33,60,45,14,12,0.9,0.7
2023-02-22T01:00:00,1083A,112.434,38.0108,太原市,上兰,,,,,,,,,,,,,,,,
2023-02-22T01:00:00,1084A,112.469,37.7124,太原市,晋源,细颗粒物(PM2.5),114,134,108,86,59,79,16,16,16,64,46,14,14,1.1,0.8
2023-02-22T01:00:00,1085A,112.5583,37.7394,太原市,小店,,,,106,,54,50,,50,,,37,,14,,0.7
2023-02-22T01:00:00,1086A,112.5369,37.8692,太原市,桃园,细颗粒物(PM2.5),112,127,105,84,62,79,28,28,28,55,46,12,13,0.8,0.7
2023-02-22T01:00:00,1087A,112.57,37.8195,太原市,坞城,细颗粒物(PM2.5),108,120,99,81,60,80,14,14,14,73,52,15,18,0.8,0.8
2023-02-22T01:00:00,1088A,112.549,37.9854,太原市,南寨,细颗粒物(PM2.5),95,119,89,71,51,83,4,4,4,78,40,7,9,0.9,0.7
2023-02-22T01:00:00,1090A,111.6507,40.7517,呼和浩特市,呼市一监,细颗粒物(PM2.5),108,88,56,81,34,66,30,30,30,28,33,9,12,0.8,0.7
2023-02-22T01:00:00,1091A,111.6572,40.8033,呼和浩特市,小召,细颗粒物(PM2.5),105,100,66,79,33,57,25,25,25,36,46,15,20,0.8,0.8
2023-02-22T01:00:00,1094A,111.7516,40.8369,呼和浩特市,如意水处理厂,细颗粒物(PM2.5),104,118,71,78,36,68,33,33,33,31,40,16,16,0.9,0.8
2023-02-22T01:00:00,1095A,111.7276,40.8062,呼和浩特市,二十九中,细颗粒物(PM2.5),107,111,64,80,38,64,31,31,31,29,36,13,13,0.8,0.7
2023-02-22T01:00:00,1096A,111.5512,40.7866,呼和浩特市,工大金川校区,细颗粒物(PM2.5),109,112,66,82,36,62,22,22,22,30,37,9,12,0.8,0.7
2023-02-22T01:00:00,1097A,111.717,40.7612,呼和浩特市,化肥厂生活区,细颗粒物(PM2.5),97,109,63,72,31,67,36,36,36,28,31,10,13,0.8,0.7
2023-02-22T01:00:00,1098A,123.6836,41.9339,沈阳市,森林路,,,,,,,,,,,,,,,,
2023-02-22T01:00:00,1099A,123.505,41.7406,沈阳市,浑南东路,细颗粒物(PM2.5),67,70,44,48,26,65,12,12,12,66,38,39,16,2.2,0.9
2023-02-22T01:00:00,1100A,123.4231,41.6989,沈阳市,新秀街,细颗粒物(PM2.5),94,94,52,70,29,70,9,9,9,70,39,49,16,2.1,0.7
2023-02-22T01:00:00,1102A,123.5903,41.8411,沈阳市,东陵路,颗粒物(PM10),60,70,53,41,29,63,5,5,5,62,38,24,13,1.3,0.7
2023-02-22T01:00:00,1103A,123.4264,41.8467,沈阳市,陵东街,颗粒物(PM10),51,52,40,28,20,63,20,20,20,64,37,37,17,1.6,0.6
2023-02-22T01:00:00,1104A,123.4114,41.7653,沈阳市,文化路,细颗粒物(PM2.5),67,75,47,48,25,70,22,22,22,52,28,49,16,2.1,0.8
2023-02-22T01:00:00,1105A,123.4678,41.7867,沈阳市,小河沿,"颗粒物(PM10),细颗粒物(PM2.5)",64,77,43,46,21,64,19,19,19,67,32,57,16,2.1,0.8
2023-02-22T01:00:00,1106A,123.4017,41.7972,沈阳市,太原街,细颗粒物(PM2.5),69,66,47,50,29,63,15,15,15,58,36,54,19,1.8,0.8
2023-02-22T01:00:00,1108A,123.3783,41.9228,沈阳市,京沈街,,38,38,46,26,25,62,49,49,49,31,32,23,15,1.0,0.7
2023-02-22T01:00:00,1109A,121.612,38.9741,大连市,甘井子,,32,32,39,15,16,80,56,56,56,27,22,13,12,0.4,0.4
2023-02-22T01:00:00,1110A,121.565,38.9511,大连市,周水子,,31,31,50,13,15,78,66,66,66,17,25,7,8,0.5,0.4
2023-02-22T01:00:00,1111A,121.5637,38.8845,大连市,星海三站,,28,28,37,13,16,72,64,64,64,16,23,6,11,0.5,0.5
2023-02-22T01:00:00,1112A,121.6302,38.9117,大连市,青泥洼桥,,23,21,43,13,14,76,71,71,71,5,20,9,11,0.5,0.5
2023-02-22T01:00:00,1113A,121.6251,38.8638,大连市,傅家庄,,31,31,37,11,13,79,69,69,69,17,19,9,12,0.5,0.7
2023-02-22T01:00:00,1114A,121.5213,38.8661,大连市,七贤岭,,41,41,34,12,14,88,62,62,62,12,15,7,10,0.6,0.7
2023-02-22T01:00:00,1115A,121.2529,38.8061,大连市,旅顺,,22,22,27,11,11,76,66,66,66,13,11,7,8,0.5,0.5
2023-02-22T01:00:00,1116A,121.7485,39.1311,大连市,金州,,28,28,35,15,17,77,58,58,58,19,15,10,11,0.6,0.6
2023-02-22T01:00:00,1117A,121.7811,39.0496,大连市,开发区,,32,32,30,20,17,68,44,44,44,30,22,8,11,0.5,0.5
2023-02-22T01:00:00,1118A,121.9762,39.0631,大连市,双D港,,26,26,30,16,13,84,50,50,50,28,14,7,8,0.6,0.6
2023-02-22T01:00:00,1119A,125.3325,43.9166,长春市,食品厂,颗粒物(PM10),55,59,66,35,31,75,32,32,32,43,41,15,12,0.5,0.6
2023-02-22T01:00:00,1120A,125.2863,43.9027,长春市,客车厂,颗粒物(PM10),56,62,63,38,30,76,34,34,34,44,39,18,12,0.5,0.5
2023-02-22T01:00:00,1121A,125.2841,43.8463,长春市,邮电学院,颗粒物(PM10),62,74,65,39,31,78,21,21,21,52,37,18,13,0.6,0.5
2023-02-22T01:00:00,1122A,125.3716,43.8772,长春市,劳动公园,颗粒物(PM10),55,59,57,35,25,79,39,39,39,30,37,11,15,0.5,0.5
2023-02-22T01:00:00,1123A,125.3297,43.8805,长春市,园林处,颗粒物(PM10),62,74,61,37,29,70,33,33,33,38,40,12,17,0.6,0.6
2023-02-22T01:00:00,1124A,125.4605,43.79,长春市,净月潭,,41,41,48,19,18,77,58,58,58,7,14,5,5,0.5,0.5
2023-02-22T01:00:00,1125A,125.7194,43.515,长春市,甩湾子,,,,,,,,,,,,,,,,
2023-02-22T01:00:00,1126A,125.3863,43.8447,长春市,经开区环卫处,颗粒物(PM10),56,62,61,38,27,79,13,13,13,46,32,7,9,0.6,0.5
2023-02-22T01:00:00,1127A,125.245,43.7783,长春市,高新区管委会,细颗粒物(PM2.5),63,61,63,45,33,80,15,15,15,45,33,7,7,0.8,0.7
2023-02-22T01:00:00,1128A,125.1761,43.8325,长春市,岱山公园,颗粒物(PM10),56,62,68,30,32,75,16,16,16,54,38,10,9,0.5,0.6
2023-02-22T01:00:00,1129A,126.5422,45.755,哈尔滨市,岭北,细颗粒物(PM2.5),54,55,42,38,31,85,60,60,60,17,17,25,26,0.6,0.6
2023-02-22T01:00:00,1130A,126.561,45.8167,哈尔滨市,松北商大,细颗粒物(PM2.5),58,56,41,41,29,85,50,50,50,27,28,12,9,0.6,0.6
2023-02-22T01:00:00,1131A,126.979,45.5419,哈尔滨市,阿城会宁,细颗粒物(PM2.5),60,67,61,43,43,93,60,60,60,16,23,11,11,0.6,0.7
2023-02-22T01:00:00,1132A,126.599,45.7222,哈尔滨市,南岗学府路,颗粒物(PM10),65,80,54,42,35,88,54,54,54,25,29,15,15,0.6,0.7
2023-02-22T01:00:00,1133A,126.689,45.7733,哈尔滨市,太平宏伟公园,细颗粒物(PM2.5),67,65,51,48,34,86,46,46,46,34,35,10,16,0.6,0.9
2023-02-22T01:00:00,1134A,126.635,45.7667,哈尔滨市,道外承德广场,细颗粒物(PM2.5),74,69,42,54,31,79,35,35,35,42,31,26,15,0.8,0.6
2023-02-22T01:00:00,1135A,126.685,45.7319,哈尔滨市,香坊红旗大街,,,,47,,30,50,,47,,,32,,22,,0.7
2023-02-22T01:00:00,1136A,126.6411,45.7258,哈尔滨市,动力和平路,细颗粒物(PM2.5),74,65,50,54,38,80,40,40,40,36,38,19,18,0.7,0.7
2023-02-22T01:00:00,1137A,126.593,45.7478,哈尔滨市,道里建国路,细颗粒物(PM2.5),70,74,49,51,33,78,36,36,36,40,36,18,12,0.8,0.7
2023-02-22T01:00:00,1138A,126.615,45.61,哈尔滨市,平房东轻厂,细颗粒物(PM2.5),69,61,49,50,36,84,52,52,52,21,29,13,12,0.5,0.6
2023-02-22T01:00:00,1139A,126.595,45.9855,哈尔滨市,呼兰师专,细颗粒物(PM2.5),64,57,47,46,35,78,44,44,44,30,25,20,14,0.8,0.5
2023-02-22T01:00:00,1140A,126.6206,45.6842,哈尔滨市,省农科院,细颗粒物(PM2.5),63,71,57,45,36,88,36,36,36,38,43,25,23,0.6,0.6
2023-02-22T01:00:00,1141A,121.4,31.238,上海市,普陀,,27,27,33,12,10,82,72,72,72,18,18,4,4,0.5,0.5
2023-02-22T01:00:00,1142A,121.478,31.2036,上海市,十五厂,,23,23,30,11,12,73,64,64,64,22,23,5,6,0.6,0.7
2023-02-22T01:00:00,1143A,121.467,31.3008,上海市,虹口,,29,29,31,12,11,74,65,65,65,10,11,5,5,0.5,0.6
2023-02-22T01:00:00,1144A,121.412,31.1654,上海市,徐汇上师大,,24,24,32,6,8,73,67,67,67,17,19,8,8,0.7,0.7
2023-02-22T01:00:00,1145A,121.536,31.2659,上海市,杨浦四漂,,27,27,32,12,11,77,69,69,69,17,19,6,7,0.4,0.5
2023-02-22T01:00:00,1147A,121.425,31.2261,上海市,静安监测站,,26,26,32,9,10,81,77,77,77,14,20,7,7,0.6,0.6
2023-02-22T01:00:00,1148A,121.703,31.1907,上海市,浦东川沙,,,45,34,13,11,72,68,68,68,14,16,4,4,,0.5
2023-02-22T01:00:00,1149A,121.533,31.2284,上海市,浦东新区监测站,,30,30,32,11,10,71,53,53,53,27,19,5,5,0.6,0.6
2023-02-22T01:00:00,1150A,121.577,31.2071,上海市,浦东张江,,28,28,31,8,7,71,60,60,60,20,18,4,4,0.5,0.5
2023-02-22T01:00:00,1151A,118.8086,32.1065,南京市,迈皋桥,,48,48,46,12,14,76,53,53,53,13,14,3,5,0.2,0.2
2023-02-22T01:00:00,1152A,118.7538,32.0551,南京市,草场门,,48,48,45,14,13,68,57,57,57,12,24,3,5,0.2,0.2
2023-02-22T01:00:00,1153A,118.7794,32.0745,南京市,山西路,颗粒物(PM10),53,56,46,17,16,75,46,46,46,22,19,4,4,0.2,0.3
2023-02-22T01:00:00,1154A,118.7752,32.0023,南京市,中华门,,39,39,46,12,15,66,56,56,56,16,23,5,7,0.5,0.6
2023-02-22T01:00:00,1155A,118.8109,32.0309,南京市,瑞金路,,47,47,46,17,16,72,50,50,50,22,22,4,5,0.4,0.4
2023-02-22T01:00:00,1156A,118.7997,32.0754,南京市,玄武湖,颗粒物(PM10),57,63,51,18,17,62,35,35,35,27,28,3,4,0.4,0.5
2023-02-22T01:00:00,1157A,118.6414,32.0931,南京市,浦口,颗粒物(PM10),53,55,50,14,17,75,47,47,47,28,22,3,3,0.4,0.4
2023-02-22T01:00:00,1158A,118.7356,31.9996,南京市,奥体中心,颗粒物(PM10),52,54,51,14,16,78,60,60,60,28,30,3,5,0.6,0.6
2023-02-22T01:00:00,1159A,118.9125,32.1028,南京市,仙林大学城,,39,39,43,19,17,74,48,48,48,21,16,5,5,0.3,0.3
2023-02-22T01:00:00,1160A,120.561,31.2472,苏州市,上方山,,41,41,36,16,21,73,48,48,48,23,16,6,6,0.4,0.4
2023-02-22T01:00:00,1162A,120.591,31.3019,苏州市,彩香,,36,36,26,14,11,87,69,69,69,15,13,5,5,0.5,0.5
2023-02-22T01:00:00,1163A,120.596,31.3264,苏州市,轧钢厂,,35,35,29,12,11,80,64,64,64,10,12,6,6,0.4,0.4
2023-02-22T01:00:00,1164A,120.613,31.2703,苏州市,吴中区,,36,36,27,12,10,80,63,63,63,18,19,5,5,0.5,0.5
2023-02-22T01:00:00,1165A,120.543,31.2994,苏州市,苏州新区,,36,36,26,16,13,85,62,62,62,15,11,4,5,0.4,0.5
2023-02-22T01:00:00,1166A,120.669,31.3097,苏州市,苏州工业园区,,36,36,27,12,11,83,71,71,71,10,10,6,6,0.4,0.4
2023-02-22T01:00:00,1167A,120.641,31.3708,苏州市,相城区,,36,36,31,13,12,82,72,72,72,8,12,5,5,0.4,0.4
2023-02-22T01:00:00,1168A,120.9098,31.9663,南通市,狼山街道,,33,33,34,21,11,88,70,70,70,14,13,4,4,0.3,0.3
2023-02-22T01:00:00,1169A,120.86,32.0005,南通市,虹桥,,36,36,38,16,13,86,69,69,69,17,17,4,5,0.2,0.2
2023-02-22T01:00:00,1170A,120.87,32.02,南通市,城中,,33,33,35,16,16,82,64,64,64,16,15,5,5,0.2,0.2
2023-02-22T01:00:00,1171A,120.94,31.93,南通市,星湖花园,,39,39,33,14,11,84,68,68,68,13,13,4,4,0.3,0.3
2023-02-22T01:00:00,1172A,120.81,32.0417,南通市,紫琅学院,,40,40,37,9,10,83,53,53,53,18,14,4,4,0.2,0.2
2023-02-22T01:00:00,1173A,119.176,34.5885,连云港市,市环境监测站,,39,39,38,9,9,84,52,52,52,23,12,7,8,0.3,0.2
2023-02-22T01:00:00,1177A,117.179,34.2761,徐州市,黄河新村,,48,48,47,21,19,82,61,61,61,20,19,14,13,0.6,0.6
2023-02-22T01:00:00,1178A,117.1918,34.2384,徐州市,淮塔,颗粒物(PM10),53,55,51,14,17,88,62,62,62,21,22,9,11,0.7,0.7
2023-02-22T01:00:00,1180A,117.256,34.2153,徐州市,新城区,颗粒物(PM10),52,54,48,24,18,83,59,59,59,18,18,9,12,0.7,0.7
2023-02-22T01:00:00,1181A,117.244,34.2911,徐州市,桃园路,颗粒物(PM10),56,61,49,12,13,78,53,53,53,20,18,16,11,0.6,0.6
2023-02-22T01:00:00,1182A,117.2933,34.2778,徐州市,农科院,颗粒物(PM10),52,53,45,17,12,80,43,43,43,30,18,23,11,0.4,0.5
2023-02-22T01:00:00,1186A,119.389,32.3761,扬州市,邗江监测站,颗粒物(PM10),52,53,45,18,17,82,64,64,64,18,18,6,4,0.3,0.3
2023-02-22T01:00:00,1188A,120.269,31.4867,无锡市,雪浪,,44,44,39,17,13,75,51,51,51,24,19,7,7,0.3,0.3
2023-02-22T01:00:00,1189A,120.275,31.6219,无锡市,黄巷,,42,42,44,12,12,66,40,40,40,31,23,7,7,0.6,0.5
2023-02-22T01:00:00,1190A,120.294,31.56,无锡市,曹张,,45,45,38,27,14,73,46,46,46,27,21,5,5,0.5,0.5
2023-02-22T01:00:00,1191A,120.242,31.5031,无锡市,漆塘,,36,36,39,14,14,80,59,59,59,22,14,8,8,0.4,0.5
2023-02-22T01:00:00,1192A,120.3489,31.5863,无锡市,东亭,,46,46,39,14,15,71,44,44,44,25,21,8,8,0.6,0.7
2023-02-22T01:00:00,1193A,120.354,31.5475,无锡市,旺庄,,31,31,36,14,13,74,50,50,50,25,20,4,3,0.5,0.5
2023-02-22T01:00:00,1194A,120.245,31.5631,无锡市,荣巷,,36,36,38,14,15,78,56,56,56,19,18,9,9,0.4,0.4
2023-02-22T01:00:00,1195A,120.299,31.6817,无锡市,堰桥,,34,34,39,12,15,57,44,44,44,15,15,8,9,0.8,0.8
2023-02-22T01:00:00,1196A,119.9633,31.762,常州市,市监测站,,45,45,34,23,19,80,55,55,55,29,26,5,5,0.4,0.4
2023-02-22T01:00:00,1200A,119.9468,31.7069,常州市,武进监测站,,45,45,33,18,17,77,55,55,55,21,22,7,7,0.5,0.5
2023-02-22T01:00:00,1201A,119.9255,31.9087,常州市,安家,,37,37,29,19,17,82,58,58,58,20,13,5,6,0.3,0.3
2023-02-22T01:00:00,1203A,119.6707,32.1875,镇江市,新区办事处,,43,43,35,14,13,84,71,71,71,13,11,3,2,0.4,0.2
2023-02-22T01:00:00,1204A,119.4974,32.1968,镇江市,职教中心,,37,37,38,14,15,86,74,74,74,12,17,2,4,0.3,0.3
2023-02-22T01:00:00,1205A,119.4303,32.1328,镇江市,丹徒区监测站,,39,39,36,16,16,75,59,59,59,21,18,1,2,0.2,0.4
2023-02-22T01:00:00,1206A,119.905,32.4878,泰州市,公园路,,36,36,39,17,15,81,56,56,56,16,11,5,5,0.8,0.7
2023-02-22T01:00:00,1207A,119.9189,32.4625,泰州市,莲花,,44,44,36,22,18,82,65,65,65,17,12,6,6,0.7,0.6
2023-02-22T01:00:00,1209A,119.888,32.4639,泰州市,留学生创业园,颗粒物(PM10),60,69,39,16,12,81,64,64,64,14,12,6,6,0.6,0.7
2023-02-22T01:00:00,1210A,119.036,33.5981,淮安市,钵池山,,36,36,39,12,14,88,63,63,63,16,15,5,5,0.4,0.4
2023-02-22T01:00:00,1211A,119.007,33.575,淮安市,北京南路,,34,34,41,14,18,82,65,65,65,15,17,7,7,0.5,0.5
2023-02-22T01:00:00,1212A,118.989,33.6067,淮安市,市监测站,,29,29,40,5,12,90,72,72,72,16,17,6,6,0.4,0.4
2023-02-22T01:00:00,1213A,119.135,33.5039,淮安市,楚州区监测站,,37,37,42,16,18,84,48,48,48,26,16,6,6,0.6,0.6
2023-02-22T01:00:00,1214A,119.0186,33.6297,淮安市,淮阴区监测站,,45,45,46,11,14,86,65,65,65,15,18,8,8,0.4,0.4
2023-02-22T01:00:00,1215A,120.118,33.4022,盐城市,盐城电厂,,44,44,42,14,15,92,46,46,46,33,14,7,7,0.5,0.4
2023-02-22T01:00:00,1216A,120.156,33.3942,盐城市,市监测站,,39,39,36,14,14,89,39,39,39,38,16,5,5,0.5,0.4
2023-02-22T01:00:00,1218A,120.2144,33.38,盐城市,开发区管委会,,46,46,41,12,8,88,44,44,44,33,13,5,3,0.4,0.4
2023-02-22T01:00:00,1220A,118.293,33.9528,宿迁市,宿迁学院,,43,43,42,12,15,86,65,65,65,17,18,4,6,0.4,0.4
2023-02-22T01:00:00,1221A,118.2442,33.9592,宿迁市,宿迁中学,,38,38,36,11,15,84,73,73,73,11,15,8,9,0.3,0.4
2023-02-22T01:00:00,1223A,120.2072,30.2111,杭州市,滨江,,35,35,54,17,29,81,66,66,66,18,27,8,8,0.5,0.6
2023-02-22T01:00:00,1224A,120.0633,30.2747,杭州市,西溪,,32,32,52,21,32,77,65,65,65,20,28,4,5,0.4,0.5
2023-02-22T01:00:00,1226A,120.3461,30.3153,杭州市,下沙,,28,28,55,10,27,77,72,72,72,16,34,5,6,0.4,0.5
2023-02-22T01:00:00,1227A,120.1269,30.2456,杭州市,卧龙桥,,35,35,49,15,26,76,68,68,68,19,28,6,7,0.5,0.5
2023-02-22T01:00:00,1228A,120.1903,30.2692,杭州市,浙江农大,,29,29,52,15,29,78,73,73,73,15,30,5,6,0.3,0.4
2023-02-22T01:00:00,1230A,120.1197,30.3119,杭州市,和睦小学,,36,36,55,17,28,73,64,64,64,23,34,5,5,0.3,0.4
2023-02-22T01:00:00,1231A,120.3019,30.4183,杭州市,临平镇,,38,38,50,14,23,78,51,51,51,24,25,6,7,0.4,0.5
2023-02-22T01:00:00,1232A,120.2697,30.1819,杭州市,城厢镇,,43,43,60,18,30,81,67,67,67,18,25,7,8,0.4,0.5
2023-02-22T01:00:00,1233A,120.0883,30.1808,杭州市,云栖,,34,34,47,14,25,82,69,69,69,22,28,6,6,0.4,0.5
2023-02-22T01:00:00,1234A,121.8358,29.911,宁波市,区环保大楼,,23,23,24,7,6,97,64,64,64,22,17,3,3,0.6,0.6
2023-02-22T01:00:00,1235A,121.56,29.82,宁波市,万里学院,,32,32,34,15,14,93,71,71,71,18,17,6,6,0.3,0.4
2023-02-22T01:00:00,1236A,121.713,29.9572,宁波市,龙赛医院,,,,87,11,11,96,69,69,69,16,16,4,4,0.5,0.4
2023-02-22T01:00:00,1239A,121.633,29.7733,宁波市,钱湖水厂,,23,23,26,8,14,82,70,70,70,14,12,5,5,0.3,0.7
2023-02-22T01:00:00,1240A,121.5856,29.8635,宁波市,太古小学,,25,25,29,9,10,96,69,69,69,12,16,8,8,0.4,0.4
2023-02-22T01:00:00,1241A,121.524,29.8674,宁波市,市环境监测中心,,27,27,31,3,4,87,69,69,69,10,13,5,5,0.3,0.3
2023-02-22T01:00:00,1242A,120.634,28.0089,温州市,瓯海,,28,28,42,9,20,100,59,59,59,19,36,7,8,0.3,0.3
2023-02-22T01:00:00,1243A,120.6748,27.9939,温州市,南浦,,29,29,34,14,16,106,63,63,63,11,18,5,6,0.2,0.2
2023-02-22T01:00:00,1244A,120.76,27.9747,温州市,龙湾,,25,25,32,11,13,95,62,62,62,18,32,7,7,0.4,0.4
2023-02-22T01:00:00,1245A,120.6709,28.0167,温州市,市站,,38,38,45,13,17,98,60,60,60,19,29,6,7,0.3,0.3
2023-02-22T01:00:00,1247A,120.6053,29.9928,绍兴市,城东开发委,,30,30,41,10,18,81,70,70,70,9,15,4,5,0.6,0.6
2023-02-22T01:00:00,1250A,120.0751,30.8669,湖州市,城西水厂,,36,36,35,16,14,82,60,60,60,22,20,6,6,0.4,0.3
2023-02-22T01:00:00,1252A,120.7436,30.778,嘉兴市,清河小学,,34,34,41,14,18,69,55,55,55,18,22,5,5,0.8,0.8
2023-02-22T01:00:00,1253A,120.726,30.7478,嘉兴市,嘉兴学院,,39,39,46,16,19,69,59,59,59,22,27,4,4,0.3,0.4
2023-02-22T01:00:00,1255A,121.273,28.6459,台州市,黄岩环保大楼,,31,31,36,11,15,93,54,54,54,26,23,8,8,0.2,0.2
2023-02-22T01:00:00,1256A,121.419,28.6542,台州市,台州环保大楼,,35,35,33,18,15,104,58,58,58,21,14,8,9,0.3,0.4
2023-02-22T01:00:00,1257A,121.377,28.5773,台州市,路桥田洋王,,32,32,38,10,15,104,68,68,68,15,18,7,8,0.3,0.3
2023-02-22T01:00:00,1258A,122.122,30.0203,舟山市,定海檀枫,,34,34,23,10,8,90,70,70,70,11,12,4,4,0.3,0.5
2023-02-22T01:00:00,1259A,122.3094,29.9558,舟山市,普陀东港,,25,23,23,8,6,91,79,79,79,5,8,5,5,0.4,0.4
2023-02-22T01:00:00,1260A,122.19,29.9944,舟山市,临城新区,,27,27,27,7,6,97,79,79,79,10,15,5,5,0.3,0.4
2023-02-22T01:00:00,1262A,119.647,29.077,金华市,十五中,,46,46,56,20,29,94,46,46,46,28,31,5,6,0.5,0.6
2023-02-22T01:00:00,1263A,119.686,29.1029,金华市,监测站,,34,34,51,17,24,100,44,44,44,35,34,5,6,0.5,0.5
2023-02-22T01:00:00,1264A,118.8692,28.9398,衢州市,环保大楼,,45,45,63,23,38,93,42,42,42,25,25,5,7,0.5,0.6
2023-02-22T01:00:00,1265A,118.8709,28.9666,衢州市,实验学校,,42,42,64,21,36,109,49,49,49,20,20,4,7,0.5,0.5
2023-02-22T01:00:00,1266A,118.8621,28.9808,衢州市,衢州学院,,45,45,63,22,37,99,44,44,44,20,18,6,8,0.4,0.5
2023-02-22T01:00:00,1267A,119.914,28.4514,丽水市,监测站大楼,,38,38,40,13,17,97,52,52,52,17,19,8,9,0.2,0.3
2023-02-22T01:00:00,1268A,119.93,28.4586,丽水市,莲都小学,,37,37,45,12,18,106,57,57,57,23,25,7,8,0.2,0.2
2023-02-22T01:00:00,1269A,119.879,28.4231,丽水市,余庄前,,29,29,36,16,20,112,36,36,36,18,18,8,9,0.2,0.2
2023-02-22T01:00:00,1270A,117.1959,31.7848,合肥市,明珠广场,颗粒物(PM10),53,56,61,22,24,64,41,41,41,33,33,8,8,0.6,0.6
2023-02-22T01:00:00,1271A,117.3072,31.8764,合肥市,三里街,,46,46,53,25,29,65,48,48,48,24,26,5,5,0.4,0.4
2023-02-22T01:00:00,1272A,117.2588,31.8707,合肥市,琥珀山庄,,36,36,73,14,39,65,53,53,53,29,33,5,5,0.6,0.7
2023-02-22T01:00:00,1273A,117.1604,31.9052,合肥市,董铺水库,,46,46,56,19,22,72,51,51,51,20,17,5,5,0.2,0.3
2023-02-22T01:00:00,1274A,117.25,31.8571,合肥市,长江中路,,46,46,55,24,30,68,48,48,48,20,20,9,10,0.6,0.7
2023-02-22T01:00:00,1275A,117.266,31.9436,合肥市,庐阳区,,46,46,55,22,21,70,48,48,48,20,20,5,6,0.4,0.5
2023-02-22T01:00:00,1276A,117.336,31.8586,合肥市,瑶海区,颗粒物(PM10),51,51,57,22,25,69,42,42,42,27,24,5,6,0.7,0.7
2023-02-22T01:00:00,1277A,117.3027,31.7964,合肥市,包河区,颗粒物(PM10),51,51,61,22,27,63,21,21,21,46,39,7,8,0.5,0.6
2023-02-22T01:00:00,1278A,117.2776,31.7385,合肥市,滨湖新区,颗粒物(PM10),51,51,61,24,24,67,45,45,45,28,26,6,6,0.4,0.5
2023-02-22T01:00:00,1279A,117.1318,31.8403,合肥市,高新区,,46,46,56,24,24,67,48,48,48,27,26,6,6,0.6,0.7
2023-02-22T01:00:00,1280A,119.3903,26.0543,福州市,鼓山,,,,,,,,,,,,,,,,
2023-02-22T01:00:00,1282A,119.2681,26.0504,福州市,师大,,28,23,36,3,8,116,88,88,88,12,16,4,5,0.3,0.4
2023-02-22T01:00:00,1283A,119.2984,26.1028,福州市,五四北路,,27,20,35,4,10,115,86,86,86,10,15,2,3,0.2,0.3
2023-02-22T01:00:00,1284A,119.2648,26.0768,福州市,杨桥西路,,28,22,37,3,9,115,87,87,87,6,8,3,4,0.2,0.4
2023-02-22T01:00:00,1285A,119.317,26.0746,福州市,紫阳,,26,21,35,3,8,111,82,82,82,10,13,3,4,0.4,0.4
2023-02-22T01:00:00,1286A,118.1608,24.8169,厦门市,溪东,,,,,,,,,,,,,,,,
2023-02-22T01:00:00,1287A,118.1514,24.4767,厦门市,洪文,,41,41,40,14,13,98,94,94,94,22,25,2,2,0.2,0.1
2023-02-22T01:00:00,1288A,118.0661,24.4444,厦门市,鼓浪屿,,40,40,35,15,13,123,108,108,108,19,22,3,4,0.1,0.2
2023-02-22T01:00:00,1290A,115.8931,28.6843,南昌市,省外办,颗粒物(PM10),93,136,96,30,48,131,52,52,52,27,23,10,10,0.3,0.4
2023-02-22T01:00:00,1291A,115.8886,28.7003,南昌市,省林业公司,颗粒物(PM10),85,119,86,41,52,132,52,52,52,16,24,11,8,0.4,0.6
2023-02-22T01:00:00,1292A,115.8126,28.7442,南昌市,林科所,颗粒物(PM10),54,58,84,29,46,132,64,64,64,15,14,8,9,0.6,0.6
2023-02-22T01:00:00,1294A,115.8518,28.687,南昌市,建工学校,颗粒物(PM10),78,106,90,26,48,133,56,56,56,19,16,5,6,0.6,0.6
2023-02-22T01:00:00,1295A,115.8921,28.6424,南昌市,象湖,颗粒物(PM10),70,89,66,36,51,128,52,52,52,20,16,7,7,0.7,0.7
2023-02-22T01:00:00,1296A,115.7423,28.7996,南昌市,武术学校,细颗粒物(PM2.5),53,44,58,37,48,133,52,52,52,3,11,5,6,0.4,0.4
2023-02-22T01:00:00,1298A,115.9314,28.6842,南昌市,省站,颗粒物(PM10),86,121,92,34,49,135,56,56,56,17,15,5,5,0.5,0.5
2023-02-22T01:00:00,1299A,116.9862,36.6114,济南市,科干所,颗粒物(PM10),58,66,43,24,15,81,55,55,55,27,23,13,8,0.6,0.6
2023-02-22T01:00:00,1300A,116.9376,36.665,济南市,农科所,颗粒物(PM10),59,68,61,22,17,74,44,44,44,35,43,12,9,0.5,0.7
2023-02-22T01:00:00,1301A,117.1265,36.6734,济南市,开发区,,42,42,47,25,19,78,45,45,45,32,33,11,11,0.4,0.5
2023-02-22T01:00:00,1303A,117.0624,36.6868,济南市,省种子仓库,颗粒物(PM10),54,58,59,29,21,73,42,42,42,28,34,13,12,0.3,0.5
2023-02-22T01:00:00,1304A,116.9489,36.6447,济南市,机床二厂,颗粒物(PM10),61,71,55,32,17,79,51,51,51,33,38,18,12,0.6,0.7
2023-02-22T01:00:00,1305A,117.0495,36.663,济南市,市监测站,颗粒物(PM10),61,71,53,31,19,81,42,42,42,48,41,11,9,0.5,0.6
2023-02-22T01:00:00,1306A,116.7675,36.5484,济南市,长清党校,颗粒物(PM10),64,78,50,34,17,83,58,58,58,32,39,19,9,0.7,0.7
2023-02-22T01:00:00,1307A,120.6659,36.2403,青岛市,仰口,细颗粒物(PM2.5),89,36,38,66,34,81,71,71,71,9,8,3,3,0.3,0.4
2023-02-22T01:00:00,1310A,120.4134,36.0658,青岛市,市南区东部子站,,39,39,38,19,12,84,82,82,82,12,19,8,9,0.5,0.5
2023-02-22T01:00:00,1311A,120.3664,36.1032,青岛市,四方区子站,,41,41,42,12,13,72,70,70,70,12,22,7,9,0.3,0.4
2023-02-22T01:00:00,1312A,120.2994,36.054,青岛市,市南区西部子站,,41,41,44,12,11,90,77,77,77,20,20,9,11,0.3,0.3
2023-02-22T01:00:00,1313A,120.4581,36.0858,青岛市,崂山区子站,,31,31,42,12,9,88,66,66,66,22,20,7,8,0.2,0.3
2023-02-22T01:00:00,1314A,120.1983,35.9608,青岛市,黄岛区子站,,39,39,41,20,15,86,73,73,73,21,30,6,8,0.5,0.6
2023-02-22T01:00:00,1315A,120.3999,36.3083,青岛市,城阳区子站,颗粒物(PM10),51,51,48,24,20,79,50,50,50,27,21,5,7,0.5,0.5
2023-02-22T01:00:00,1316A,113.69031,34.76122,郑州市,烟厂,颗粒物(PM10),58,66,59,40,31,85,57,57,57,22,22,7,9,0.5,0.4
2023-02-22T01:00:00,1317A,113.65724,34.77134,郑州市,郑纺机,颗粒物(PM10),54,58,59,36,28,86,58,58,58,26,25,5,7,0.5,0.5
2023-02-22T01:00:00,1318A,113.67526,34.80246,郑州市,银行学校,细颗粒物(PM2.5),59,57,56,42,32,86,61,61,61,19,19,7,9,0.8,0.7
2023-02-22T01:00:00,1319A,113.56746,34.81334,郑州市,供水公司,颗粒物(PM10),54,57,59,35,33,84,62,62,62,20,23,6,8,0.5,0.6
2023-02-22T01:00:00,1320A,113.7329,34.7178,郑州市,经开区管委,细颗粒物(PM2.5),58,53,54,41,31,85,50,50,50,25,23,10,10,0.5,0.4
2023-02-22T01:00:00,1321A,113.73961,34.77172,郑州市,四十七中,细颗粒物(PM2.5),57,62,61,40,30,78,54,54,54,24,24,5,7,0.5,0.5
2023-02-22T01:00:00,1322A,113.60532,34.74838,郑州市,市监测站,细颗粒物(PM2.5),59,61,61,42,34,82,60,60,60,18,19,8,9,0.6,0.6
2023-02-22T01:00:00,1323A,113.64164,34.7525,郑州市,河医大,颗粒物(PM10),57,64,62,37,30,79,53,53,53,20,21,6,7,0.6,0.6
2023-02-22T01:00:00,1324A,113.51488,34.91089,郑州市,岗李水库,,,,,,,,,,,,,,,,
2023-02-22T01:00:00,1325A,114.3677,30.5584,武汉市,东湖梨园,,49,48,63,34,48,116,66,66,66,28,35,8,10,0.5,0.6
2023-02-22T01:00:00,1326A,114.2529,30.558,武汉市,汉阳月湖,颗粒物(PM10),53,56,75,31,54,98,61,61,61,31,37,8,9,0.5,0.6
2023-02-22T01:00:00,1327A,114.282,30.6189,武汉市,汉口花桥,颗粒物(PM10),52,54,75,32,46,90,57,57,57,23,31,6,8,0.6,0.7
2023-02-22T01:00:00,1328A,114.3025,30.5332,武汉市,武昌紫阳,,49,49,67,31,48,97,58,58,58,31,38,8,10,0.7,0.9
2023-02-22T01:00:00,1329A,114.3646,30.6217,武汉市,青山钢花,颗粒物(PM10),56,62,75,36,56,107,62,62,62,29,44,10,12,0.5,0.8
2023-02-22T01:00:00,1330A,114.1566,30.4825,武汉市,沌口新区,,50,48,68,35,53,92,51,51,51,36,41,8,10,0.7,0.7
2023-02-22T01:00:00,1331A,114.3014,30.5944,武汉市,汉口江滩,,48,48,71,30,54,103,65,65,65,25,34,7,9,0.6,0.7
2023-02-22T01:00:00,1333A,114.135,30.6319,武汉市,吴家山,"颗粒物(PM10),细颗粒物(PM2.5)",53,55,72,37,49,87,47,47,47,45,44,7,8,0.4,0.5
2023-02-22T01:00:00,1334A,113.8454,30.2917,武汉市,沉湖七壕,,45,45,58,18,26,103,51,51,51,26,28,9,11,0.6,0.7
2023-02-22T01:00:00,1335A,113.0833,28.2325,长沙市,经开区环保局,细颗粒物(PM2.5),93,113,87,69,54,126,59,59,59,32,27,4,4,0.6,0.5
2023-02-22T01:00:00,1336A,112.8872,28.2189,长沙市,高开区环保局,颗粒物(PM10),83,116,103,60,55,118,61,61,61,28,31,7,7,0.4,0.4
2023-02-22T01:00:00,1337A,113.0792,28.2053,长沙市,马坡岭,,,103,86,,57,132,63,63,63,26,24,9,9,0.5,0.5
2023-02-22T01:00:00,1338A,112.9394,28.19,长沙市,湖南师范大学,细颗粒物(PM2.5),85,98,86,63,55,116,55,55,55,30,30,6,6,0.5,0.5
2023-02-22T01:00:00,1339A,113.0178,28.1322,长沙市,雨花区环保局,细颗粒物(PM2.5),83,100,78,61,53,127,59,59,59,34,26,7,7,0.6,0.6
2023-02-22T01:00:00,1340A,112.9792,28.2597,长沙市,伍家岭,细颗粒物(PM2.5),82,98,100,60,53,120,68,68,68,27,38,7,7,0.8,0.8
2023-02-22T01:00:00,1341A,113.0014,28.1944,长沙市,火车新站,细颗粒物(PM2.5),93,106,88,69,62,110,52,52,52,38,36,8,8,0.6,0.5
2023-02-22T01:00:00,1342A,112.9844,28.1178,长沙市,天心区环保局,细颗粒物(PM2.5),85,110,93,63,55,126,41,41,41,46,30,5,5,0.6,0.7
2023-02-22T01:00:00,1343A,112.8908,28.1308,长沙市,湖南中医药大学,细颗粒物(PM2.5),88,103,97,65,60,116,62,62,62,25,32,5,5,0.9,0.9
2023-02-22T01:00:00,1344A,112.9581,28.3611,长沙市,沙坪,细颗粒物(PM2.5),72,82,74,52,48,115,59,59,59,23,22,6,7,0.7,0.7
2023-02-22T01:00:00,1345A,113.2347,23.1423,广州市,广雅中学,,41,41,79,17,49,169,82,82,82,29,38,5,6,0.5,0.7
2023-02-22T01:00:00,1346A,113.2612,23.105,广州市,市五中,,40,40,77,19,54,193,84,84,84,27,26,7,8,0.6,0.8
2023-02-22T01:00:00,1348A,113.3478,23.0916,广州市,广东商学院,颗粒物(PM10),51,51,80,20,48,202,64,64,64,46,35,6,8,0.5,0.8
2023-02-22T01:00:00,1349A,113.4332,23.1047,广州市,市八十六中,颗粒物(PM10),61,71,91,23,52,183,40,40,40,64,41,5,8,0.8,1
2023-02-22T01:00:00,1350A,113.3505,22.9483,广州市,番禺中学,,40,40,74,14,47,206,83,83,83,30,40,6,8,0.6,0.9
2023-02-22T01:00:00,1351A,113.2146,23.3916,广州市,花都师范,颗粒物(PM10),57,63,73,32,48,176,67,67,67,42,24,7,8,0.5,0.7
2023-02-22T01:00:00,1352A,113.2597,23.1331,广州市,市监测站,,46,46,73,20,48,177,76,76,76,33,34,6,8,0.4,0.8
2023-02-22T01:00:00,1353A,113.5618,23.312,广州市,九龙镇镇龙,颗粒物(PM10),59,67,74,28,46,139,52,52,52,39,34,5,6,0.6,0.8
2023-02-22T01:00:00,1354A,113.2765,23.1544,广州市,麓湖,,44,44,64,20,44,180,77,77,77,35,32,5,5,0.5,0.7
2023-02-22T01:00:00,1355A,113.443,23.3035,广州市,帽峰山森林公园,颗粒物(PM10),56,61,66,30,41,157,51,51,51,51,20,9,8,0.9,1
2023-02-22T01:00:00,1356A,114.1063,22.5545,深圳市,通心岭子站,,33,33,55,11,33,130,81,81,81,6,13,3,4,0.4,0.6
2023-02-22T01:00:00,1357A,114.117,22.5625,深圳市,洪湖,,46,46,72,10,36,155,97,97,97,11,18,8,9,0.3,0.5
2023-02-22T01:00:00,1358A,113.987,22.5417,深圳市,华侨城,,37,37,60,11,34,148,94,94,94,10,19,6,7,0.5,0.7
2023-02-22T01:00:00,1359A,113.9181,22.5171,深圳市,南海子站,,37,37,80,11,36,144,87,87,87,9,14,4,5,0.6,0.8
2023-02-22T01:00:00,1360A,114.2458,22.5689,深圳市,盐田,,36,36,59,11,33,128,94,94,94,14,24,8,7,0.5,0.7
2023-02-22T01:00:00,1361A,114.2283,22.7244,深圳市,龙岗,,36,36,71,10,39,174,81,81,81,10,11,6,5,0.6,0.8
2023-02-22T01:00:00,1363A,114.494,22.5422,深圳市,南澳,,34,34,50,10,27,126,93,93,93,10,12,10,6,0.4,0.7
2023-02-22T01:00:00,1364A,114.41,22.6342,深圳市,葵涌,,34,34,57,15,33,122,84,84,84,11,16,7,6,0.4,0.6
2023-02-22T01:00:00,1365A,114.297,22.5978,深圳市,梅沙,,40,40,61,9,29,141,93,93,93,6,10,7,5,0.8,0.9
2023-02-22T01:00:00,1366A,114.0678,22.738,深圳市,观澜,,44,44,74,11,43,172,88,88,88,17,26,8,8,0.5,0.7
2023-02-22T01:00:00,1367A,113.5814,22.2618,珠海市,吉大,颗粒物(PM10),51,51,67,10,28,140,105,105,105,9,18,4,5,0.3,0.5
2023-02-22T01:00:00,1368A,113.4881,22.2335,珠海市,前山,,32,32,55,14,28,141,97,97,97,15,23,4,5,0.3,0.5
2023-02-22T01:00:00,1369A,113.628,22.4251,珠海市,唐家,,,58,69,13,37,155,,,,20,21,4,7,0.3,0.5
2023-02-22T01:00:00,1370A,113.299,22.2281,珠海市,斗门,,34,34,58,11,32,150,104,104,104,9,19,5,5,0.2,0.4
2023-02-22T01:00:00,1371A,113.1294,23.0067,佛山市,湾梁,颗粒物(PM10),57,63,78,22,41,192,84,84,84,30,34,10,11,0.5,0.8
2023-02-22T01:00:00,1372A,113.1083,23.0478,佛山市,华材职中,颗粒物(PM10),54,58,76,21,51,204,86,86,86,26,39,6,7,0.3,0.5
2023-02-22T01:00:00,1373A,113.144,23.0453,佛山市,南海气象局,,48,48,69,20,42,176,79,79,79,28,34,9,9,0.5,0.8
2023-02-22T01:00:00,1374A,113.2881,22.8094,佛山市,顺德苏岗,,47,47,68,19,46,202,84,84,84,24,36,8,9,0.4,0.7
2023-02-22T01:00:00,1376A,112.8383,22.8678,佛山市,高明孔堂,,48,48,82,22,49,178,90,90,90,21,33,5,10,0.7,0.9
2023-02-22T01:00:00,1377A,112.8836,23.1588,佛山市,三水监测站,颗粒物(PM10),58,66,82,34,47,182,68,68,68,43,34,6,10,0.5,0.7
2023-02-22T01:00:00,1378A,112.867,23.185,佛山市,三水云东海,颗粒物(PM10),60,70,70,30,51,179,74,74,74,44,34,8,10,0.5,0.7
2023-02-22T01:00:00,1379A,113.3769,22.5211,中山市,华柏园,颗粒物(PM10),53,56,78,25,49,218,95,95,95,14,24,6,7,0.3,0.5
2023-02-22T01:00:00,1380A,113.3881,22.5497,中山市,张溪,,49,49,80,16,49,220,84,84,84,20,24,5,5,0.4,0.7
2023-02-22T01:00:00,1381A,113.4075,22.5111,中山市,紫马岭,颗粒物(PM10),52,53,70,12,40,210,90,90,90,12,17,5,6,0.3,0.6
2023-02-22T01:00:00,1382A,113.4411,22.4853,中山市,长江旅游区,,42,42,59,13,43,198,88,88,88,15,18,11,11,0.4,0.6
2023-02-22T01:00:00,1383A,113.1064,22.6058,江门市,北街,,45,45,69,16,43,233,93,93,93,25,31,8,9,0.5,0.8
2023-02-22T01:00:00,1384A,113.0731,22.5835,江门市,西区,,47,47,84,20,47,235,94,94,94,28,31,8,8,0.5,0.7
2023-02-22T01:00:00,1385A,113.0219,22.5311,江门市,圭峰西,颗粒物(PM10),54,58,68,16,49,210,93,93,93,24,32,6,6,0.6,0.9
2023-02-22T01:00:00,1386A,113.0828,22.5947,江门市,东湖,,42,42,78,17,45,239,96,96,96,22,28,6,6,0.5,0.7
2023-02-22T01:00:00,1389A,113.7547,23.0494,东莞市,莞城梨川,,44,44,65,17,41,166,92,92,92,22,26,9,11,0.5,0.7
2023-02-22T01:00:00,1390A,113.7944,23.0128,东莞市,东城石井,,41,41,62,16,40,174,90,90,90,22,25,9,10,0.5,0.7
2023-02-22T01:00:00,1391A,113.7383,22.9658,东莞市,南城西平,,47,47,74,28,43,168,80,80,80,24,36,7,9,0.3,0.6
2023-02-22T01:00:00,1392A,114.4183,23.0528,惠州市,河南岸金山湖子站,,50,50,77,18,46,133,86,86,86,12,17,5,7,0.4,0.7
2023-02-22T01:00:00,1393A,114.4053,23.0822,惠州市,下埔横江三路子站,颗粒物(PM10),52,53,69,17,41,139,97,97,97,16,18,5,7,0.2,0.6
2023-02-22T01:00:00,1394A,114.4103,23.1142,惠州市,江北云山西路子站,,42,42,66,18,43,139,100,100,100,10,15,6,8,0.4,0.7
2023-02-22T01:00:00,1395A,114.4645,22.7833,惠州市,惠阳区承修路船湖子站,颗粒物(PM10),54,58,80,24,56,145,91,91,91,9,18,7,7,0.5,0.7
2023-02-22T01:00:00,1396A,114.5317,22.7422,惠州市,大亚湾管委会子站,颗粒物(PM10),52,53,74,25,46,110,60,60,60,34,27,6,6,0.6,0.7
2023-02-22T01:00:00,1397A,112.4267,23.0706,肇庆市,睦岗子站,颗粒物(PM10),65,79,77,44,47,183,94,94,94,32,49,20,13,0.6,0.7
2023-02-22T01:00:00,1398A,112.4645,23.0475,肇庆市,城中子站,细颗粒物(PM2.5),74,84,80,54,53,203,81,81,81,37,40,20,13,0.6,0.7
2023-02-22T01:00:00,1399A,112.5544,23.1522,肇庆市,坑口子站,细颗粒物(PM2.5),67,62,68,48,50,193,79,79,79,26,26,11,12,0.6,0.6
2023-02-22T01:00:00,1400A,112.4753,23.1,肇庆市,七星岩子站,颗粒物(PM10),65,79,70,41,44,192,85,85,85,33,21,36,25,0.6,0.6
2023-02-22T01:00:00,1401A,108.3103,22.7881,南宁市,二十一中,细颗粒物(PM2.5),103,103,92,77,62,161,108,108,108,18,27,10,10,1.1,1.1
2023-02-22T01:00:00,1402A,108.3141,22.8528,南宁市,北湖,细颗粒物(PM2.5),108,113,94,81,64,164,95,95,95,20,32,11,14,1.0,1
2023-02-22T01:00:00,1403A,108.3206,22.8225,南宁市,市监测站,细颗粒物(PM2.5),110,113,91,83,62,159,103,103,103,25,36,11,12,1.0,1
2023-02-22T01:00:00,1404A,108.3829,22.8037,南宁市,大自然花园,细颗粒物(PM2.5),115,131,85,87,62,150,93,93,93,22,27,8,8,1.1,1
2023-02-22T01:00:00,1405A,108.4394,22.7904,南宁市,仙葫,细颗粒物(PM2.5),98,111,93,73,61,154,101,101,101,19,35,10,9,0.9,0.9
2023-02-22T01:00:00,1406A,108.2397,22.8467,南宁市,区农职院,细颗粒物(PM2.5),113,107,95,85,60,166,96,96,96,35,36,11,16,1.1,1
2023-02-22T01:00:00,1407A,108.3275,22.735,南宁市,英华嘉园,细颗粒物(PM2.5),108,101,101,81,78,141,93,93,93,23,42,9,9,0.9,1
2023-02-22T01:00:00,1408A,108.2257,22.7757,南宁市,沙井镇街道办,颗粒物(PM10),98,145,113,62,69,150,81,81,81,41,54,9,10,1.0,1.1
2023-02-22T01:00:00,1409A,110.576,19.9507,海口市,东寨港,,,18,41,9,22,76,67,67,67,,,5,5,0.5,0.7
2023-02-22T01:00:00,1410A,110.3232,20.0574,海口市,海南大学,,40,40,48,9,28,126,88,88,88,7,10,5,5,0.6,0.8
2023-02-22T01:00:00,1411A,110.283,20.0053,海口市,秀英海南医院,,34,34,56,12,29,137,95,95,95,10,13,4,4,0.5,0.7
2023-02-22T01:00:00,1412A,110.338,19.9969,海口市,海南师范大学,,42,42,56,12,27,134,93,93,93,8,10,3,4,0.6,0.8
2023-02-22T01:00:00,1413A,110.33,20.0356,海口市,龙华路环保局宿舍,,38,38,52,10,26,133,91,91,91,10,12,5,6,0.6,0.8
2023-02-22T01:00:00,1414A,106.3787,29.8279,重庆市,缙云山,,20,20,27,6,13,72,64,64,64,10,15,5,5,0.6,0.5
2023-02-22T01:00:00,1416A,106.4213,29.8253,重庆市,天生,,50,37,43,35,33,76,60,60,60,18,20,6,5,0.5,0.5
2023-02-22T01:00:00,1417A,106.6263,29.7228,重庆市,两路,,39,30,40,27,30,43,37,37,37,23,30,5,5,0.5,0.7
2023-02-22T01:00:00,1418A,106.2953,29.5983,重庆市,虎溪,,42,39,43,29,31,54,50,50,50,16,26,4,4,0.5,0.6
2023-02-22T01:00:00,1419A,106.5777,29.5102,重庆市,南坪,,50,44,53,35,34,42,42,42,42,17,27,5,5,0.3,0.5
2023-02-22T01:00:00,1420A,106.6556,29.6277,重庆市,唐家沱,,45,37,44,31,36,54,44,44,44,24,27,7,7,0.7,0.8
2023-02-22T01:00:00,1421A,106.6349,29.4906,重庆市,茶园,细颗粒物(PM2.5),52,37,48,36,38,40,37,37,37,27,36,4,5,0.5,0.6
2023-02-22T01:00:00,1422A,106.3754,29.4572,重庆市,白市驿,,49,31,36,34,35,56,48,48,48,26,30,6,6,0.6,0.6
2023-02-22T01:00:00,1425A,106.6205,29.7166,重庆市,空港,,50,37,39,35,36,53,40,40,40,34,32,5,5,0.6,0.6
2023-02-22T01:00:00,1426A,106.4782,29.4875,重庆市,新山村,,43,36,54,30,35,47,44,44,44,30,41,5,6,0.4,0.5
2023-02-22T01:00:00,1427A,106.5616,29.6453,重庆市,礼嘉,,46,37,45,32,31,56,46,46,46,29,34,6,7,0.4,0.6
2023-02-22T01:00:00,1428A,106.4522,29.7091,重庆市,蔡家,,50,41,43,35,33,66,45,45,45,21,23,4,4,0.5,0.6
2023-02-22T01:00:00,1429A,106.5093,29.3917,重庆市,鱼新街,,49,47,53,34,37,44,40,40,40,22,29,7,8,0.6,0.7
2023-02-22T01:00:00,1431A,103.9728,30.7236,成都市,金泉两河,,13,13,60,9,38,33,33,33,33,9,29,3,4,0.3,0.6
2023-02-22T01:00:00,1432A,104.176,30.6872,成都市,十里店,,15,6,70,10,48,38,35,35,35,13,36,1,3,0.5,0.8
2023-02-22T01:00:00,1433A,104.079,30.5706,成都市,三瓦窑,,,12,70,1,46,26,,,,6,34,1,3,0.3,0.7
2023-02-22T01:00:00,1434A,104.1114,30.63,成都市,沙河铺,,12,12,67,1,47,34,33,33,33,13,35,3,5,0.5,0.8
2023-02-22T01:00:00,1437A,104.0786,30.6531,成都市,君平街,,12,2,59,2,50,43,38,38,38,17,40,1,4,0.6,0.8
2023-02-22T01:00:00,1438A,103.613,31.0283,成都市,灵岩寺,,21,21,60,1,33,55,40,40,40,9,17,3,6,0.5,0.6
2023-02-22T01:00:00,1439A,106.6899,26.5998,贵阳市,马鞍山,,20,9,28,7,25,92,63,63,63,12,12,4,4,0.6,0.6
2023-02-22T01:00:00,1440A,106.6971,26.5694,贵阳市,市环保站,,22,7,31,7,28,87,69,69,69,14,17,3,4,0.3,0.4
2023-02-22T01:00:00,1441A,106.6243,26.6266,贵阳市,鉴湖路,,21,12,34,12,20,91,66,66,66,13,15,3,4,0.6,0.5
2023-02-22T01:00:00,1442A,106.7487,26.6343,贵阳市,燕子冲,,35,19,41,24,37,92,62,62,62,13,12,3,3,0.4,0.5
2023-02-22T01:00:00,1443A,106.6555,26.4365,贵阳市,碧云窝,,21,19,43,9,30,83,66,66,66,15,20,6,7,0.6,0.5
2023-02-22T01:00:00,1444A,106.694,26.5161,贵阳市,中院村,,29,29,49,14,29,80,68,68,68,17,24,8,9,0.5,0.6
2023-02-22T01:00:00,1445A,106.7109,26.6027,贵阳市,红边门,,22,12,37,12,32,86,69,69,69,11,21,6,6,0.6,0.6
2023-02-22T01:00:00,1446A,106.7164,26.5699,贵阳市,新华路,,,17,38,,33,87,71,71,71,8,12,5,5,0.4,0.4
2023-02-22T01:00:00,1447A,106.674,26.5424,贵阳市,太慈桥,,22,22,42,12,25,83,64,64,64,16,19,2,2,0.4,0.5
2023-02-22T01:00:00,1450A,102.8204,24.8886,昆明市,呈贡新区,,48,41,44,33,34,114,67,67,67,19,17,5,6,0.7,0.7
2023-02-22T01:00:00,1451A,102.6251,24.9608,昆明市,西山森林公园,,33,33,35,21,25,113,79,79,79,10,11,5,7,0.8,0.8
2023-02-22T01:00:00,1452A,102.7252,25.0902,昆明市,龙泉镇,,42,37,44,29,29,111,63,63,63,18,24,6,6,0.9,0.9
2023-02-22T01:00:00,1453A,102.7266,25.0375,昆明市,东风东路,细颗粒物(PM2.5),52,45,44,36,34,105,56,56,56,19,19,6,7,1.0,0.8
2023-02-22T01:00:00,1454A,102.6742,25.0669,昆明市,金鼎山,,43,43,44,18,29,114,72,72,72,10,14,5,5,0.5,0.7
2023-02-22T01:00:00,1455A,102.6644,25.0401,昆明市,碧鸡广场,,,,,,,,,,,,,,,,
2023-02-22T01:00:00,1456A,91.1319,29.6514,拉萨市,八廓街,颗粒物(PM10),67,84,65,16,31,100,85,85,85,15,19,4,4,0.3,0.5
2023-02-22T01:00:00,1457A,91.1221,29.6747,拉萨市,市环保局,颗粒物(PM10),74,97,93,19,48,100,88,88,88,6,25,6,12,0.4,1
2023-02-22T01:00:00,1458A,91.0874,29.6475,拉萨市,区监测站,颗粒物(PM10),70,89,62,20,28,110,92,92,92,11,18,6,8,0.6,0.8
2023-02-22T01:00:00,1459A,91.1774,29.6541,拉萨市,西藏大学,颗粒物(PM10),71,92,40,24,15,105,84,84,84,12,13,5,5,0.5,0.4
2023-02-22T01:00:00,1460A,90.9798,29.6588,拉萨市,区辐射站,颗粒物(PM10),69,87,68,24,35,112,93,93,93,6,24,6,8,0.5,0.8
2023-02-22T01:00:00,1461A,91.0834,29.6292,拉萨市,拉萨火车站,颗粒物(PM10),69,88,56,17,15,105,91,91,91,8,16,8,9,0.4,0.5
2023-02-22T01:00:00,1462A,108.882,34.2749,西安市,高压开关厂,细颗粒物(PM2.5),112,119,168,84,93,67,12,12,12,53,71,8,12,0.5,0.8
2023-02-22T01:00:00,1463A,108.993,34.2629,西安市,兴庆小区,细颗粒物(PM2.5),122,92,90,92,76,78,12,12,12,53,49,9,8,0.6,0.7
2023-02-22T01:00:00,1464A,109.06,34.2572,西安市,纺织城,细颗粒物(PM2.5),117,110,92,88,65,91,5,5,5,61,49,10,9,0.6,0.6
2023-02-22T01:00:00,1465A,108.9356,34.2173,西安市,小寨,细颗粒物(PM2.5),140,160,166,107,95,73,10,10,10,70,69,8,12,0.6,0.7
2023-02-22T01:00:00,1466A,108.954,34.2713,西安市,市人民体育场,细颗粒物(PM2.5),119,104,108,90,82,70,7,7,7,54,54,11,10,0.6,0.7
2023-02-22T01:00:00,1467A,108.8922,34.2322,西安市,高新西区,细颗粒物(PM2.5),143,118,148,109,100,73,9,9,9,65,65,7,11,0.8,0.9
2023-02-22T01:00:00,1468A,108.935,34.3474,西安市,经开区,细颗粒物(PM2.5),122,90,111,92,89,75,12,12,12,49,47,7,8,0.6,0.6
2023-02-22T01:00:00,1469A,108.906,34.1546,西安市,长安区,细颗粒物(PM2.5),149,149,168,114,99,54,17,17,17,60,64,6,9,0.9,1
2023-02-22T01:00:00,1471A,109.2186,34.3731,西安市,临潼区,细颗粒物(PM2.5),112,106,72,84,58,91,4,4,4,51,27,11,10,0.8,0.7
2023-02-22T01:00:00,1472A,108.869,34.378,西安市,草滩,细颗粒物(PM2.5),74,92,126,54,50,53,16,16,16,38,41,10,11,0.6,0.2
2023-02-22T01:00:00,1473A,108.985,34.1978,西安市,曲江文化产业集团,细颗粒物(PM2.5),178,129,152,134,93,77,14,14,14,63,67,6,10,1.2,1.3
2023-02-22T01:00:00,1474A,109.051,34.3213,西安市,广运潭,细颗粒物(PM2.5),117,101,67,88,53,87,5,5,5,45,26,7,6,0.8,0.6
2023-02-22T01:00:00,1476A,103.631,36.1031,兰州市,兰炼宾馆,细颗粒物(PM2.5),69,85,120,50,79,99,34,34,34,62,75,12,21,1.1,1.3
2023-02-22T01:00:00,1477A,104.1373,35.9454,兰州市,榆中兰大校区,,,,,,,,,,,,,,,,
2023-02-22T01:00:00,1478A,103.8412,36.0726,兰州市,生物制品所,细颗粒物(PM2.5),59,64,80,42,55,88,43,43,43,54,60,7,10,0.5,0.9
2023-02-22T01:00:00,1479A,103.831,36.0464,兰州市,铁路设计院,细颗粒物(PM2.5),74,49,90,54,69,80,68,68,68,33,64,7,11,0.6,1.3
2023-02-22T01:00:00,1483A,101.524,36.6867,西宁市,第五水厂,,,,,,,,,,,,,,,,
2023-02-22T01:00:00,1484A,105.9512,38.6016,银川市,贺兰山马莲口,,43,43,37,27,18,86,81,81,81,15,18,14,14,0.2,0.3
2023-02-22T01:00:00,1488A,106.2328,38.4975,银川市,贺兰山东路,颗粒物(PM10),68,86,71,48,35,95,25,25,25,59,42,9,12,0.8,0.9
2023-02-22T01:00:00,1489A,106.1358,38.5036,银川市,学院路,,,77,72,35,31,90,45,45,45,,42,8,12,1.0,1
2023-02-22T01:00:00,1490A,87.5801,43.8303,乌鲁木齐市,监测站,细颗粒物(PM2.5),220,214,259,170,194,79,31,31,31,93,103,6,5,2.9,2.5
2023-02-22T01:00:00,1491A,87.6046,43.768,乌鲁木齐市,收费所,细颗粒物(PM2.5),264,255,272,214,166,44,24,24,24,94,98,5,4,1.6,2
2023-02-22T01:00:00,1492A,87.4754,43.9469,乌鲁木齐市,新疆农科院农场,细颗粒物(PM2.5),269,299,260,219,255,114,5,5,5,121,82,13,11,2.7,2.7
2023-02-22T01:00:00,1493A,87.5525,43.8711,乌鲁木齐市,铁路局,细颗粒物(PM2.5),244,208,244,194,222,118,51,51,51,100,111,8,5,2.5,2.4
2023-02-22T01:00:00,1494A,87.6432,43.831,乌鲁木齐市,三十一中学,细颗粒物(PM2.5),227,236,242,177,185,78,33,33,33,76,83,9,8,1.7,2
2023-02-22T01:00:00,1496A,87.7216,44.1747,乌鲁木齐市,米东区环保局,细颗粒物(PM2.5),234,229,234,184,195,107,53,53,53,69,70,6,8,2.4,1.9
2023-02-22T01:00:00,1508A,112.9433,27.8614,湘潭市,板塘,细颗粒物(PM2.5),84,84,80,62,55,116,59,59,59,30,34,5,4,0.7,0.6
2023-02-22T01:00:00,1511A,112.9118,27.8403,湘潭市,市监测站,细颗粒物(PM2.5),79,95,88,58,54,118,64,64,64,29,35,8,8,0.4,0.4
2023-02-22T01:00:00,1512A,112.8937,27.8728,湘潭市,江麓,细颗粒物(PM2.5),85,103,89,63,56,133,77,77,77,15,17,8,10,0.8,0.8
2023-02-22T01:00:00,1513A,112.9227,27.8159,湘潭市,岳塘,细颗粒物(PM2.5),84,92,84,62,55,123,70,70,70,30,31,4,4,0.6,0.5
2023-02-22T01:00:00,1514A,112.9074,27.9119,湘潭市,科大,细颗粒物(PM2.5),87,92,88,64,63,125,66,66,66,31,33,7,7,0.4,0.4
2023-02-22T01:00:00,1515A,113.135,27.8244,株洲市,天台山庄,颗粒物(PM10),81,112,85,51,50,137,53,53,53,36,22,6,7,0.7,0.6
2023-02-22T01:00:00,1518A,113.095,27.8867,株洲市,株冶医院,颗粒物(PM10),81,112,87,43,45,124,33,33,33,62,36,6,6,0.8,0.6
2023-02-22T01:00:00,1519A,113.167,27.8667,株洲市,市四中,"颗粒物(PM10),细颗粒物(PM2.5)",74,98,80,54,49,130,49,49,49,41,26,13,11,0.7,0.6
2023-02-22T01:00:00,1520A,113.143,27.8381,株洲市,火车站,颗粒物(PM10),75,100,87,50,52,130,61,61,61,34,27,7,7,0.7,0.7
2023-02-22T01:00:00,1524A,113.13,27.8528,株洲市,市监测站,细颗粒物(PM2.5),85,100,85,63,61,133,48,48,48,44,28,9,11,0.8,0.7
2023-02-22T01:00:00,1552A,106.805,26.3003,贵阳市,桐木岭,,,,,,,,,,,,,,,,
2023-02-22T01:00:00,1559A,113.251,27.8336,株洲市,大京风景区,颗粒物(PM10),67,83,66,45,42,120,47,47,47,26,17,6,6,0.6,0.5
2023-02-22T01:00:00,1562A,113.0048,27.9153,湘潭市,昭山,细颗粒物(PM2.5),87,102,96,64,57,120,57,57,57,19,24,4,4,0.6,0.4
2023-02-22T01:00:00,1564A,112.4876,27.9164,湘潭市,韶山,细颗粒物(PM2.5),63,59,71,45,46,72,37,37,37,17,18,9,8,0.7,0.6
2023-02-22T01:00:00,1585A,109.8756,40.6532,包头市,市环境监测站,细颗粒物(PM2.5),74,66,48,54,28,66,10,10,10,56,42,11,19,1.0,0.9
2023-02-22T01:00:00,1587A,109.9991,40.5842,包头市,包头八中,细颗粒物(PM2.5),98,81,62,73,38,66,12,12,12,54,43,16,30,1.1,1.1
2023-02-22T01:00:00,1588A,109.8538,40.6821,包头市,青山宾馆,细颗粒物(PM2.5),87,62,45,64,35,65,24,24,24,44,46,8,16,0.9,1
2023-02-22T01:00:00,1589A,109.8642,40.6288,包头市,惠龙物流,颗粒物(PM10),60,69,50,39,23,65,6,6,6,61,45,8,15,0.8,0.6
2023-02-22T01:00:00,1590A,110.0377,40.5546,包头市,东河鸿龙湾,细颗粒物(PM2.5),72,69,52,52,26,68,5,5,5,56,35,12,13,1.5,1.1
2023-02-22T01:00:00,1591A,110.0023,39.8129,鄂尔多斯市,综合楼,细颗粒物(PM2.5),83,83,80,61,37,71,36,36,36,30,39,5,14,0.6,0.7
2023-02-22T01:00:00,1592A,109.9486,39.8261,鄂尔多斯市,巴音孟克林场办事处,细颗粒物(PM2.5),83,75,71,61,41,67,35,35,35,30,39,6,19,0.8,0.8
2023-02-22T01:00:00,1593A,109.7736,39.5986,鄂尔多斯市,康泽苑,细颗粒物(PM2.5),77,80,74,56,33,68,37,37,37,27,36,5,7,0.8,0.8
2023-02-22T01:00:00,1594A,109.8119,39.5989,鄂尔多斯市,华泰汽车城,细颗粒物(PM2.5),85,80,74,63,40,72,40,40,40,25,35,7,10,0.7,0.7
2023-02-22T01:00:00,1595A,109.9734,39.7884,鄂尔多斯市,奥林花园,细颗粒物(PM2.5),85,90,80,63,41,71,31,31,31,30,38,6,13,0.9,0.9
2023-02-22T01:00:00,1597A,122.2703,40.7094,营口市,大庆路,,48,30,45,33,25,83,30,30,30,53,26,14,11,1.1,0.7
2023-02-22T01:00:00,1598A,122.2150,40.6511,营口市,镜湖西路,,32,32,38,18,11,86,51,51,51,28,19,11,12,1.0,0.7
2023-02-22T01:00:00,1599A,122.1658,40.6789,营口市,西炮台,,25,23,31,17,12,98,46,46,46,41,23,12,14,1.0,0.5
2023-02-22T01:00:00,1600A,124.3303,40.0625,丹东市,江湾东路,细颗粒物(PM2.5),65,70,59,47,31,88,35,35,35,21,20,16,17,1.1,0.8
2023-02-22T01:00:00,1601A,124.4256,40.1503,丹东市,临江后街,细颗粒物(PM2.5),72,89,56,52,28,85,38,38,38,18,18,11,17,1.1,0.8
2023-02-22T01:00:00,1602A,124.3933,40.1461,丹东市,元宝山,细颗粒物(PM2.5),70,74,46,51,23,76,36,36,36,20,18,14,16,1.2,0.8
2023-02-22T01:00:00,1603A,124.3633,40.1092,丹东市,民主桥,颗粒物(PM10),53,56,51,32,23,77,30,30,30,29,22,11,14,0.9,0.6
2023-02-22T01:00:00,1604A,122.0303,41.1489,盘锦市,开发区,,21,6,30,9,17,74,65,65,65,8,21,9,10,0.5,0.5
2023-02-22T01:00:00,1605A,122.0485,41.0883,盘锦市,兴隆台,,24,24,36,11,17,68,56,56,56,19,35,12,13,0.4,0.5
2023-02-22T01:00:00,1606A,121.8297,41.1028,盘锦市,新生街道,,18,16,44,12,12,79,56,56,56,15,31,7,14,0.5,0.6
2023-02-22T01:00:00,1607A,120.9092,40.7136,葫芦岛市,龙港区,,39,39,33,15,17,73,47,47,47,25,14,11,24,1.1,0.8
2023-02-22T01:00:00,1608A,120.8392,40.7514,葫芦岛市,化工街,,46,46,38,19,17,73,12,12,12,72,35,10,24,0.6,0.4
2023-02-22T01:00:00,1609A,120.8341,40.7073,葫芦岛市,新区,,46,46,42,22,33,71,27,27,27,55,26,22,29,0.9,0.8
2023-02-22T01:00:00,1610A,120.8695,40.7677,葫芦岛市,东城区,,40,40,40,22,19,69,13,13,13,63,29,12,29,0.8,0.6
2023-02-22T01:00:00,1611A,118.5819,24.9117,泉州市,涂山街,,33,27,40,11,11,115,103,103,103,11,16,8,9,0.4,0.4
2023-02-22T01:00:00,1612A,118.5972,24.8978,泉州市,津头埔,,33,26,38,10,10,114,103,103,103,14,20,8,8,0.2,0.3
2023-02-22T01:00:00,1613A,118.6663,24.9424,泉州市,万安,,32,31,45,10,10,171,102,102,102,11,15,8,8,0.3,0.4
2023-02-22T01:00:00,1614A,118.6117,24.9604,泉州市,清源山,,,,,,,,,,,,,,,,
2023-02-22T01:00:00,1616A,117.6795,36.229,济南市,技术学院,颗粒物(PM10),54,58,36,28,16,93,12,12,12,80,27,11,8,0.6,0.5
2023-02-22T01:00:00,1618A,118.3429,35.0532,临沂市,沂河小区,,44,44,38,19,18,79,65,65,65,12,15,5,6,0.4,0.5
2023-02-22T01:00:00,1619A,118.295,35.0583,临沂市,鲁南制药厂,,39,39,36,18,15,79,70,70,70,17,20,9,10,0.2,0.3
2023-02-22T01:00:00,1620A,118.2794,34.9976,临沂市,新光毛纺厂,颗粒物(PM10),53,56,37,21,16,75,46,46,46,29,19,17,8,0.3,0.5
2023-02-22T01:00:00,1621A,118.3956,35.0888,临沂市,河东保险公司,,48,48,40,23,18,81,53,53,53,26,23,14,10,0.7,0.8
2023-02-22T01:00:00,1622A,116.3032,37.4674,德州市,儿童乐园,细颗粒物(PM2.5),62,70,52,44,22,86,37,37,37,45,30,16,11,0.5,0.5
2023-02-22T01:00:00,1624A,116.2991,37.4451,德州市,监理站,颗粒物(PM10),62,74,47,34,22,84,32,32,32,52,33,16,11,0.5,0.5
2023-02-22T01:00:00,1625A,115.9848,36.4372,聊城市,区政府,,,,47,38,21,85,53,53,53,26,29,17,14,0.5,0.5
2023-02-22T01:00:00,1628A,118.0062,37.3803,滨州市,市环保局,细颗粒物(PM2.5),70,84,54,51,29,76,3,3,3,72,37,26,17,1.0,0.7
2023-02-22T01:00:00,1629A,118.0018,37.3617,滨州市,第二水厂,颗粒物(PM10),67,83,57,46,27,76,2,2,2,76,44,22,13,1.1,0.7
2023-02-22T01:00:00,1630A,117.9776,37.393,滨州市,北中新校,颗粒物(PM10),66,81,56,40,24,80,7,7,7,66,32,26,17,0.9,0.6
2023-02-22T01:00:00,1631A,118.0414,36.8103,淄博市,人民公园,颗粒物(PM10),70,90,49,38,20,82,6,6,6,75,34,16,14,0.9,0.6
2023-02-22T01:00:00,1633A,117.8525,36.4847,淄博市,双山,,50,50,36,27,15,89,44,44,44,34,26,12,9,0.7,0.5
2023-02-22T01:00:00,1634A,117.9592,36.6331,淄博市,气象站,颗粒物(PM10),51,51,52,17,18,82,55,55,55,27,31,17,15,0.8,0.6
2023-02-22T01:00:00,1635A,118.3092,36.8194,淄博市,莆田园,颗粒物(PM10),70,90,36,39,20,85,5,5,5,70,26,14,10,1.0,0.6
2023-02-22T01:00:00,1637A,117.558,34.8438,枣庄市,市中区政府,颗粒物(PM10),64,78,53,27,16,81,40,40,40,45,25,28,14,0.6,0.6
2023-02-22T01:00:00,1638A,117.2852,34.7837,枣庄市,薛城环保局,颗粒物(PM10),59,68,52,31,19,79,48,48,48,35,27,18,14,0.5,0.5
2023-02-22T01:00:00,1639A,117.5852,34.7745,枣庄市,峄城区政府,颗粒物(PM10),51,51,47,12,12,83,62,62,62,23,22,17,13,0.3,0.4
2023-02-22T01:00:00,1640A,117.7276,34.5578,枣庄市,台儿庄区环保局,颗粒物(PM10),52,53,42,24,17,81,52,52,52,26,21,7,10,0.7,0.7
2023-02-22T01:00:00,1641A,117.4518,35.0992,枣庄市,山亭区环保局,,44,44,33,17,14,91,64,64,64,21,19,13,11,0.5,0.5
2023-02-22T01:00:00,1642A,121.2514,37.5639,烟台市,开发区,,41,41,33,19,10,66,38,38,38,31,16,9,9,0.3,0.1
2023-02-22T01:00:00,1643A,121.3719,37.5433,烟台市,轴承厂,,48,46,38,33,14,77,37,37,37,35,15,6,6,0.7,0.4
2023-02-22T01:00:00,1644A,121.3181,37.5436,烟台市,西郊化工站,,41,41,41,19,15,84,59,59,59,15,10,9,8,0.8,0.8
2023-02-22T01:00:00,1645A,121.4478,37.4822,烟台市,莱山环保局,颗粒物(PM10),51,51,36,33,12,77,29,29,29,34,12,13,9,1.1,0.7
2023-02-22T01:00:00,1646A,121.2611,37.4967,烟台市,福山环保局,,48,48,47,31,16,70,29,29,29,28,19,8,9,0.8,0.6
2023-02-22T01:00:00,1650A,119.1437,36.7023,潍坊市,环保局,颗粒物(PM10),52,53,38,33,19,83,34,34,34,30,24,8,5,0.7,0.5
2023-02-22T01:00:00,1653A,116.6251,35.4302,济宁市,火炬城,颗粒物(PM10),51,51,37,29,18,90,46,46,46,33,21,15,9,0.5,0.4
2023-02-22T01:00:00,1655A,116.5491,35.4042,济宁市,电化厂,细颗粒物(PM2.5),52,52,37,36,22,85,27,27,27,53,27,11,9,0.6,0.4
2023-02-22T01:00:00,1656A,117.1437,36.1937,泰安市,监测站,颗粒物(PM10),60,70,44,38,22,84,42,42,42,28,14,14,8,0.8,0.8
2023-02-22T01:00:00,1657A,117.0885,36.2017,泰安市,人口学校,颗粒物(PM10),58,66,44,26,17,91,57,57,57,25,15,18,14,0.9,0.9
2023-02-22T01:00:00,1658A,117.1089,36.1758,泰安市,电力学校,颗粒物(PM10),59,68,50,39,24,85,33,33,33,44,28,21,14,0.9,0.9
2023-02-22T01:00:00,1659A,119.471,35.4209,日照市,监测站,,39,39,34,13,11,75,1,1,1,71,22,9,8,0.7,0.4
2023-02-22T01:00:00,1660A,119.523,35.4216,日照市,市政府广场,,41,41,34,20,11,81,34,34,34,33,12,4,5,0.6,0.6
2023-02-22T01:00:00,1661A,119.5587,35.4044,日照市,港务局,颗粒物(PM10),53,56,38,19,12,88,10,10,10,76,20,8,8,0.7,0.6
2023-02-22T01:00:00,1662A,122.1214,37.4236,威海市,华夏技校,,27,27,34,10,11,84,73,73,73,10,9,2,2,0.3,0.2
2023-02-22T01:00:00,1663A,122.0508,37.5236,威海市,山大分校,,27,27,30,7,6,85,66,66,66,10,6,4,2,0.1,0.3
2023-02-22T01:00:00,1664A,122.1067,37.5072,威海市,市监测站,,22,20,31,10,8,84,70,70,70,8,8,6,6,0.3,0.3
2023-02-22T01:00:00,1666A,118.6614,37.4309,东营市,市环保局,,34,34,28,17,12,102,72,72,72,15,15,17,11,0.6,0.5
2023-02-22T01:00:00,1669A,113.5824,24.7733,韶关市,市八中,颗粒物(PM10),53,55,64,35,45,120,80,80,80,20,17,11,16,0.6,0.7
2023-02-22T01:00:00,1671A,113.5917,24.7972,韶关市,园林处,颗粒物(PM10),51,51,60,33,51,126,103,103,103,11,15,13,16,0.8,0.8
2023-02-22T01:00:00,1672A,113.6735,24.7791,韶关市,韶关学院,细颗粒物(PM2.5),58,52,64,41,52,133,62,62,62,33,24,12,18,0.6,0.6
2023-02-22T01:00:00,1673A,113.5971,24.6863,韶关市,曲江监测站,颗粒物(PM10),53,56,62,35,42,134,27,27,27,51,29,12,17,0.6,0.7
2023-02-22T01:00:00,1674A,116.6794,23.3667,汕头市,金平子站,,38,38,46,11,20,121,83,83,83,18,20,13,12,0.5,0.6
2023-02-22T01:00:00,1675A,116.7244,23.3633,汕头市,龙湖子站,,38,38,51,7,16,124,90,90,90,18,21,12,12,0.4,0.5
2023-02-22T01:00:00,1676A,116.7258,23.2775,汕头市,濠江子站,,29,23,43,5,15,120,90,90,90,10,15,8,9,0.3,0.4
2023-02-22T01:00:00,1677A,116.7519,23.4714,汕头市,澄海子站,细颗粒物(PM2.5),62,46,48,44,24,124,87,87,87,25,25,6,8,0.6,0.6
2023-02-22T01:00:00,1678A,116.6092,23.2539,汕头市,潮阳子站,,33,33,43,6,11,117,79,79,79,16,18,6,7,0.4,0.5
2023-02-22T01:00:00,1680A,110.3539,21.2706,湛江市,湛江影剧院,颗粒物(PM10),53,56,57,22,35,159,124,124,124,7,11,6,7,0.5,0.7
2023-02-22T01:00:00,1681A,110.3928,21.2228,湛江市,市环境监测站,颗粒物(PM10),52,54,54,19,36,159,125,125,125,9,12,7,7,0.4,0.6
2023-02-22T01:00:00,1682A,110.4019,21.1997,湛江市,环保局宿舍,,49,49,53,24,38,158,123,123,123,7,11,4,5,0.5,0.7
2023-02-22T01:00:00,1683A,110.4111,21.2028,湛江市,霞山游泳场,,45,45,52,23,36,161,126,126,126,10,10,6,7,0.5,0.7
2023-02-22T01:00:00,1684A,110.3316,21.2679,湛江市,麻章区环保局,颗粒物(PM10),53,56,59,27,43,170,128,128,128,9,13,6,7,0.4,0.6
2023-02-22T01:00:00,1685A,110.4558,21.2567,湛江市,坡头区环保局,,45,45,51,26,43,145,118,118,118,10,11,6,7,0.6,0.7
2023-02-22T01:00:00,1686A,111.0286,21.4688,茂名市,电白南海,颗粒物(PM10),56,61,71,34,39,153,123,123,123,12,15,7,8,0.5,0.7
2023-02-22T01:00:00,1687A,110.9294,21.6533,茂名市,茂石化七小,颗粒物(PM10),53,56,73,24,46,145,105,105,105,14,16,13,8,0.4,0.6
2023-02-22T01:00:00,1688A,110.9107,21.6687,茂名市,健康路,颗粒物(PM10),51,51,71,25,38,144,112,112,112,11,14,13,15,0.4,0.7
2023-02-22T01:00:00,1689A,110.8592,21.6828,茂名市,高岭,颗粒物(PM10),54,58,79,24,46,149,114,114,114,18,19,17,17,0.4,0.6
2023-02-22T01:00:00,1690A,116.1231,24.3284,梅州市,梅江月梅,颗粒物(PM10),51,51,47,22,30,111,30,30,30,59,20,9,9,0.5,0.6
2023-02-22T01:00:00,1691A,116.0797,24.2719,梅州市,梅县新城,,42,42,55,21,34,110,14,14,14,63,30,9,12,0.7,0.8
2023-02-22T01:00:00,1692A,116.1248,24.2654,梅州市,环境监控中心,,40,40,53,21,36,114,44,44,44,50,24,10,13,0.6,0.7
2023-02-22T01:00:00,1693A,115.3653,22.775,汕尾市,市环保局,,27,19,57,9,27,127,84,84,84,8,12,9,10,0.5,0.7
2023-02-22T01:00:00,1694A,115.3706,22.7898,汕尾市,市政府,,33,33,57,9,29,124,87,87,87,10,15,9,10,0.4,0.6
2023-02-22T01:00:00,1695A,115.3622,22.7925,汕尾市,新城中学,颗粒物(PM10),52,54,65,12,30,114,90,90,90,7,13,7,8,0.3,0.5
2023-02-22T01:00:00,1696A,114.6778,23.7569,河源市,源西,颗粒物(PM10),57,63,63,27,39,142,50,50,50,48,23,6,8,0.7,0.9
2023-02-22T01:00:00,1697A,114.6944,23.7586,河源市,东埔,颗粒物(PM10),66,81,73,24,46,127,81,81,81,20,16,4,6,0.5,0.7
2023-02-22T01:00:00,1698A,114.6892,23.7233,河源市,老城,颗粒物(PM10),66,81,78,22,43,138,79,79,79,20,14,7,7,0.5,0.8
2023-02-22T01:00:00,1699A,111.9797,21.8593,阳江市,鸳鸯湖,,33,32,58,23,46,146,96,96,96,16,17,7,9,0.6,0.8
2023-02-22T01:00:00,1701A,111.9491,21.8658,阳江市,马南垌,颗粒物(PM10),57,64,81,20,42,143,104,104,104,20,26,6,8,0.4,0.7
2023-02-22T01:00:00,1702A,113.0426,23.691,清远市,环保大楼,细颗粒物(PM2.5),64,52,58,46,48,159,97,97,97,15,21,8,10,0.6,0.7
2023-02-22T01:00:00,1703A,113.0208,23.7106,清远市,凤城街办,颗粒物(PM10),54,57,65,36,43,135,87,87,87,15,16,11,10,0.6,0.7
2023-02-22T01:00:00,1705A,116.6367,23.6719,潮州市,西园路,颗粒物(PM10),52,53,62,24,42,122,73,73,73,13,13,6,6,0.5,0.6
2023-02-22T01:00:00,1706A,116.6447,23.6706,潮州市,档案局,,,52,62,13,37,117,71,71,71,17,20,9,9,,0.9
2023-02-22T01:00:00,1708A,116.3701,23.5345,揭阳市,新兴,,45,45,60,18,29,118,69,69,69,14,20,13,13,0.4,0.6
2023-02-22T01:00:00,1709A,116.3264,23.5443,揭阳市,西马,颗粒物(PM10),57,63,73,16,35,126,73,73,73,15,21,13,12,0.4,0.6
2023-02-22T01:00:00,1710A,116.3611,23.5626,揭阳市,东兴,,49,49,65,14,30,135,77,77,77,23,23,8,12,0.4,0.6
2023-02-22T01:00:00,1711A,116.4151,23.5294,揭阳市,渔湖,,43,43,60,25,36,120,69,69,69,18,20,12,12,0.4,0.5
2023-02-22T01:00:00,1712A,112.0392,22.9169,云浮市,新市府,细颗粒物(PM2.5),88,78,56,65,45,167,91,91,91,18,15,4,5,0.9,0.8
2023-02-22T01:00:00,1714A,112.0539,22.9539,云浮市,牧羊,细颗粒物(PM2.5),110,111,71,83,45,164,86,86,86,31,35,11,17,0.9,0.8
2023-02-22T01:00:00,1715A,102.575,24.3711,玉溪市,东风水库,,25,22,36,17,26,75,62,62,62,12,14,5,5,0.8,0.9
2023-02-22T01:00:00,1718A,115.4208,35.2464,菏泽市,气象局,颗粒物(PM10),59,67,60,35,26,92,48,48,48,38,27,8,9,0.5,0.5
2023-02-22T01:00:00,1719A,115.4747,35.2375,菏泽市,市政协,颗粒物(PM10),59,68,64,30,28,97,46,46,46,39,23,9,9,0.6,0.5
2023-02-22T01:00:00,1721A,113.3819,40.1097,大同市,果树场,,,,,,,,,,,,,,,,
2023-02-22T01:00:00,1723A,113.2994,40.0758,大同市,云冈宾馆,颗粒物(PM10),91,132,74,64,39,74,24,24,24,51,44,18,24,0.9,1
2023-02-22T01:00:00,1724A,113.3444,40.0917,大同市,大同大学,细颗粒物(PM2.5),79,94,58,58,33,73,12,12,12,65,39,18,20,0.8,0.8
2023-02-22T01:00:00,1725A,113.2661,40.1269,大同市,安家小村,细颗粒物(PM2.5),99,141,93,74,39,73,5,5,5,69,40,18,21,1.0,1.2
2023-02-22T01:00:00,1726A,113.2711,40.0844,大同市,教育学院,颗粒物(PM10),105,160,96,54,38,70,12,12,12,62,47,17,19,0.7,1
2023-02-22T01:00:00,1727A,113.1147,36.1547,长治市,清华站,细颗粒物(PM2.5),77,75,58,56,42,86,48,48,48,26,19,14,9,1.2,0.9
2023-02-22T01:00:00,1728A,113.1031,36.1989,长治市,监测站,细颗粒物(PM2.5),77,65,57,56,43,83,48,48,48,28,22,6,6,0.7,0.6
2023-02-22T01:00:00,1730A,113.0886,36.2125,长治市,审计局,细颗粒物(PM2.5),85,68,56,63,46,83,44,44,44,34,23,9,9,0.9,0.8
2023-02-22T01:00:00,1731A,113.0844,36.1856,长治市,长治八中,颗粒物(PM10),69,88,67,39,35,85,43,43,43,30,19,6,6,0.8,0.8
2023-02-22T01:00:00,1733A,111.5531,36.0783,临汾市,临钢医院,细颗粒物(PM2.5),122,115,74,92,54,82,33,33,33,38,23,10,4,1.2,0.6
2023-02-22T01:00:00,1734A,111.5028,36.0714,临汾市,技工学校,细颗粒物(PM2.5),113,103,82,85,52,78,49,49,49,24,21,9,8,1.0,0.9
2023-02-22T01:00:00,1736A,111.5018,36.0855,临汾市,市委,细颗粒物(PM2.5),105,110,82,79,55,79,51,51,51,29,25,4,4,0.9,0.7
2023-02-22T01:00:00,1738A,113.5758,37.8572,阳泉市,市中心,颗粒物(PM10),78,105,83,38,36,57,1,1,1,71,42,16,17,0.8,0.8
2023-02-22T01:00:00,1739A,113.4894,37.8731,阳泉市,赛鱼,颗粒物(PM10),67,83,75,32,33,64,5,5,5,69,47,11,13,0.8,0.8
2023-02-22T01:00:00,1740A,113.5819,37.8486,阳泉市,南庄,颗粒物(PM10),70,90,84,42,39,61,24,24,24,47,37,12,16,0.8,0.8
2023-02-22T01:00:00,1742A,113.5614,37.8703,阳泉市,平坦,颗粒物(PM10),74,97,82,36,35,62,5,5,5,80,41,20,14,0.9,0.8
2023-02-22T01:00:00,1743A,113.5158,37.8392,阳泉市,大阳泉,颗粒物(PM10),55,59,68,38,37,62,54,54,54,31,32,14,14,0.7,0.7
2023-02-22T01:00:00,1744A,118.9233,42.2816,赤峰市,松山一中,,34,34,27,16,12,75,67,67,67,16,26,12,14,0.7,0.8
2023-02-22T01:00:00,1745A,118.9576,42.2728,赤峰市,哈达街,,31,31,26,8,13,78,70,70,70,12,21,12,15,0.6,0.6
2023-02-22T01:00:00,1746A,118.8788,42.2554,赤峰市,天义路,,24,24,20,11,6,79,62,62,62,16,18,15,14,0.8,0.7
2023-02-22T01:00:00,1748A,123.044,41.1196,鞍山市,深沟寺,,45,45,68,23,32,63,54,54,54,20,38,15,25,0.9,1.7
2023-02-22T01:00:00,1749A,123.011,41.0931,鞍山市,太阳城,,47,47,63,20,32,68,51,51,51,22,37,16,23,1.1,1.5
2023-02-22T01:00:00,1750A,123.0485,41.1442,鞍山市,太平,,40,40,81,22,37,53,49,49,49,26,45,20,27,0.9,1.5
2023-02-22T01:00:00,1751A,122.9642,41.0971,鞍山市,铁西三道街,颗粒物(PM10),61,72,64,35,31,69,15,15,15,66,39,43,20,2.5,1.3
2023-02-22T01:00:00,1752A,122.9341,41.0833,鞍山市,铁西工业园区,,40,40,68,20,37,74,45,45,45,32,42,18,19,1.4,1.4
2023-02-22T01:00:00,1753A,123.022,41.0821,鞍山市,明达新区,,46,46,56,20,29,70,59,59,59,23,40,15,21,0.7,1.2
2023-02-22T01:00:00,1754A,123.1289,41.0228,鞍山市,千山,,,,,,,,,,,,,,,,
2023-02-22T01:00:00,1755A,123.7977,41.8491,抚顺市,望花区,细颗粒物(PM2.5),77,71,72,56,41,69,13,13,13,54,35,22,8,1.6,1.2
2023-02-22T01:00:00,1756A,123.9161,41.8822,抚顺市,顺城区,细颗粒物(PM2.5),79,104,77,58,43,78,4,4,4,51,44,7,9,1.1,0.9
2023-02-22T01:00:00,1757A,124.0436,41.8611,抚顺市,东洲区,细颗粒物(PM2.5),74,71,76,54,45,79,32,32,32,21,27,11,13,0.8,0.9
2023-02-22T01:00:00,1758A,123.9247,41.8642,抚顺市,新抚区,细颗粒物(PM2.5),97,112,80,72,50,71,6,6,6,52,34,5,9,1.3,1.2
2023-02-22T01:00:00,1759A,124.0972,41.8961,抚顺市,大伙房水库,细颗粒物(PM2.5),79,61,57,58,32,85,42,42,42,22,17,5,7,0.7,0.6
2023-02-22T01:00:00,1760A,123.7086,41.8391,抚顺市,沈抚新城,颗粒物(PM10),79,107,69,46,37,73,10,10,10,56,33,25,13,1.2,0.9
2023-02-22T01:00:00,1761A,123.8275,41.3064,本溪市,大峪,颗粒物(PM10),72,93,85,48,38,40,2,2,2,61,52,9,21,1.7,1.8
2023-02-22T01:00:00,1762A,123.7567,41.3325,本溪市,溪湖,颗粒物(PM10),72,94,86,49,40,62,6,6,6,64,47,19,24,2.3,1.7
2023-02-22T01:00:00,1763A,123.7169,41.3094,本溪市,彩屯,细颗粒物(PM2.5),98,100,94,73,48,70,9,9,9,62,44,17,21,2.6,1.8
2023-02-22T01:00:00,1764A,123.7669,41.2864,本溪市,东明,细颗粒物(PM2.5),92,95,107,68,49,49,6,6,6,71,67,16,39,2.2,2.5
2023-02-22T01:00:00,1765A,123.7992,41.2664,本溪市,新立屯,,40,37,85,28,47,40,6,6,6,61,62,9,34,0.7,2
2023-02-22T01:00:00,1766A,123.8142,41.3472,本溪市,威宁,颗粒物(PM10),83,116,108,45,54,46,6,6,6,56,52,5,13,1.7,1.5
2023-02-22T01:00:00,1767A,121.1115,41.0879,锦州市,南山,,38,24,34,26,21,92,37,37,37,41,23,24,21,0.6,0.6
2023-02-22T01:00:00,1768A,121.0533,40.8434,锦州市,开发区,,49,49,52,29,25,75,23,23,23,52,32,60,30,1.2,0.8
2023-02-22T01:00:00,1769A,121.1836,41.1119,锦州市,百股街道,,39,39,41,12,16,90,40,40,40,36,26,21,15,1.0,0.7
2023-02-22T01:00:00,1770A,121.1178,41.1222,锦州市,天安街道,,37,37,34,23,18,89,36,36,36,40,24,16,23,0.7,0.7
2023-02-22T01:00:00,1771A,121.1303,41.1386,锦州市,北湖公园,,34,34,37,20,17,84,36,36,36,42,26,16,25,0.8,0.8
2023-02-22T01:00:00,1772A,126.54,43.8622,吉林市,哈达湾,,50,50,45,30,24,85,57,57,57,26,19,9,9,0.7,0.6
2023-02-22T01:00:00,1773A,126.5844,43.8358,吉林市,东局子,,39,39,40,24,22,82,71,71,71,13,20,8,9,0.6,0.6
2023-02-22T01:00:00,1774A,126.5052,43.8245,吉林市,电力学院,,49,49,44,32,27,91,56,56,56,27,19,9,10,0.8,0.7
2023-02-22T01:00:00,1775A,126.6133,43.8972,吉林市,江北,颗粒物(PM10),51,52,44,29,26,86,73,73,73,9,19,14,13,0.8,0.7
2023-02-22T01:00:00,1776A,126.555,43.8306,吉林市,江南公园,,41,41,44,28,28,84,72,72,72,12,22,7,10,0.6,0.6
2023-02-22T01:00:00,1778A,126.7061,43.7133,吉林市,丰满,,,,,,,,,,,,,,,,
2023-02-22T01:00:00,1779A,123.9305,47.3636,齐齐哈尔市,安居小区,,39,35,55,27,20,86,59,59,59,6,12,5,7,0.2,0.3
2023-02-22T01:00:00,1780A,123.9488,47.3386,齐齐哈尔市,中心广场,,26,26,17,8,8,82,53,53,53,9,13,7,5,0.3,0.4
2023-02-22T01:00:00,1781A,123.9483,47.3227,齐齐哈尔市,农牧车辆厂,,36,36,27,9,12,76,48,48,48,12,14,5,4,0.3,0.3
2023-02-22T01:00:00,1783A,123.945,47.2988,齐齐哈尔市,市环境监测站,,27,27,28,13,15,87,55,55,55,14,14,9,9,0.5,0.5
2023-02-22T01:00:00,1784A,129.61,44.561,牡丹江市,环保大楼,,27,27,31,18,21,79,49,49,49,21,14,6,5,0.5,0.4
2023-02-22T01:00:00,1785A,129.6115,44.5782,牡丹江市,文化广场,颗粒物(PM10),51,52,36,32,24,76,22,22,22,44,18,10,9,1.0,0.6
2023-02-22T01:00:00,1786A,129.5904,44.5963,牡丹江市,第一医院,细颗粒物(PM2.5),69,52,37,50,32,82,41,41,41,23,16,5,5,1.0,0.8
2023-02-22T01:00:00,1787A,129.6364,44.6075,牡丹江市,机车工厂,颗粒物(PM10),51,52,36,34,21,82,23,23,23,35,15,4,4,0.9,0.6
2023-02-22T01:00:00,1788A,129.6386,44.5462,牡丹江市,第一中学,,35,29,27,24,21,80,31,31,31,31,14,3,3,0.6,0.6
2023-02-22T01:00:00,1789A,124.81117,46.03138,大庆市,大同区,颗粒物(PM10),51,51,43,25,26,76,50,50,50,10,15,4,7,0.7,0.7
2023-02-22T01:00:00,1790A,125.129,46.533,大庆市,龙凤区,,38,38,36,22,20,70,48,48,48,10,20,6,9,0.8,0.8
2023-02-22T01:00:00,1791A,124.902,46.408,大庆市,红岗区,,46,46,30,24,19,77,50,50,50,14,16,6,7,0.4,0.3
2023-02-22T01:00:00,1792A,125.153,46.586,大庆市,萨尔图区,,35,25,33,24,23,67,52,52,52,10,22,7,10,0.1,0.2
2023-02-22T01:00:00,1793A,124.9042,46.6215,大庆市,让胡路区,,35,26,25,24,14,82,58,58,58,12,16,6,6,0.3,0.4
2023-02-22T01:00:00,1794A,118.3606,31.3519,芜湖市,监测站,,40,40,54,26,29,80,48,48,48,29,26,5,6,0.6,0.6
2023-02-22T01:00:00,1795A,118.3714,31.4134,芜湖市,科创中心,,47,47,59,27,29,78,53,53,53,26,28,5,5,0.3,0.3
2023-02-22T01:00:00,1796A,118.3673,31.3131,芜湖市,四水厂,颗粒物(PM10),52,54,63,30,31,83,49,49,49,26,22,6,7,0.7,0.6
2023-02-22T01:00:00,1798A,118.5092,31.6837,马鞍山市,湖东路四小,,31,31,33,20,22,75,62,62,62,11,14,6,7,0.5,0.5
2023-02-22T01:00:00,1799A,118.5024,31.6449,马鞍山市,开发区,,36,36,44,19,21,76,61,61,61,16,17,9,8,0.5,0.5
2023-02-22T01:00:00,1800A,118.5228,31.7231,马鞍山市,慈湖,,46,46,42,23,24,75,57,57,57,22,20,7,7,0.4,0.4
2023-02-22T01:00:00,1802A,118.6245,31.7241,马鞍山市,濮塘,,41,41,51,20,23,71,58,58,58,16,18,4,4,0.6,0.7
2023-02-22T01:00:00,1803A,115.9872,29.6815,九江市,十里,,48,48,69,29,40,121,51,51,51,23,23,9,10,0.7,0.7
2023-02-22T01:00:00,1804A,115.9584,29.7046,九江市,茅山头,,47,47,71,27,43,114,48,48,48,22,25,12,13,0.7,0.8
2023-02-22T01:00:00,1805A,115.9877,29.7295,九江市,西园,,36,36,62,22,43,105,43,43,43,28,26,8,9,0.6,0.7
2023-02-22T01:00:00,1806A,116.0172,29.6547,九江市,五七二七厂,,40,40,63,20,36,118,52,52,52,25,25,9,9,0.7,0.8
2023-02-22T01:00:00,1808A,115.9114,29.6038,九江市,综合工业园,,49,49,71,31,52,121,48,48,48,24,24,11,12,0.7,0.9
2023-02-22T01:00:00,1809A,116.0721,29.7535,九江市,石化总厂,,44,44,71,14,38,112,44,44,44,32,29,10,10,0.6,0.7
2023-02-22T01:00:00,1810A,115.9773,29.5698,九江市,庐山气象台,,36,34,38,25,33,11,9,9,9,10,12,5,5,0.2,0.4
2023-02-22T01:00:00,1812A,112.3931,34.6516,洛阳市,市委党校,颗粒物(PM10),59,68,86,36,41,68,54,54,54,20,35,8,11,0.4,0.5
2023-02-22T01:00:00,1814A,112.4657,34.6871,洛阳市,豫西宾馆,颗粒物(PM10),76,102,81,53,45,69,31,31,31,39,31,5,8,0.7,0.7
2023-02-22T01:00:00,1815A,112.494,34.6886,洛阳市,河南林校,颗粒物(PM10),129,208,87,65,44,70,3,3,3,73,39,4,7,0.6,0.5
2023-02-22T01:00:00,1816A,112.3844,34.623,洛阳市,开发区管委会,细颗粒物(PM2.5),64,74,81,46,45,86,48,48,48,29,34,7,9,0.4,0.4
2023-02-22T01:00:00,1817A,112.4267,34.6258,洛阳市,市委新办公区,细颗粒物(PM2.5),58,62,78,41,51,83,58,58,58,26,38,7,8,0.4,0.5
2023-02-22T01:00:00,1818A,114.4839,36.0621,安阳市,棉研所,,,,,,,,,,,,,,,,
2023-02-22T01:00:00,1819A,114.3551,36.1017,安阳市,红庙街,颗粒物(PM10),55,59,59,36,36,93,52,52,52,34,37,19,14,0.7,0.7
2023-02-22T01:00:00,1820A,114.361,36.0681,安阳市,银杏小区,颗粒物(PM10),53,56,57,34,33,92,51,51,51,26,28,20,14,0.5,0.6
2023-02-22T01:00:00,1824A,114.3389,34.7781,开封市,肿瘤医院,颗粒物(PM10),66,82,65,44,29,80,29,29,29,40,22,6,7,0.5,0.5
2023-02-22T01:00:00,1826A,114.2885,34.7965,开封市,世纪星幼儿园,"颗粒物(PM10),细颗粒物(PM2.5)",59,68,58,42,30,81,44,44,44,30,22,8,10,0.6,0.6
2023-02-22T01:00:00,1828A,113.227,35.2125,焦作市,市环保局,颗粒物(PM10),58,65,69,34,29,89,42,42,42,37,26,8,13,0.6,0.7
2023-02-22T01:00:00,1830A,113.1992,35.2590,焦作市,影视城,,,,,,,,,,,,,,,,
2023-02-22T01:00:00,1832A,113.3257,33.742,平顶山市,新华旅馆,颗粒物(PM10),76,102,79,46,37,78,26,26,26,48,27,23,12,0.5,0.5
2023-02-22T01:00:00,1833A,113.2919,33.737,平顶山市,规划设计院,细颗粒物(PM2.5),67,81,76,48,39,82,46,46,46,26,24,18,8,0.5,0.5
2023-02-22T01:00:00,1834A,113.182,33.774,平顶山市,平顶山工学院,颗粒物(PM10),73,96,86,36,32,83,34,34,34,47,26,11,7,0.5,0.5
2023-02-22T01:00:00,1835A,111.1922,34.7752,三门峡市,市政府,细颗粒物(PM2.5),72,63,78,52,59,68,49,49,49,27,34,9,11,0.5,0.6
2023-02-22T01:00:00,1836A,111.1587,34.7942,三门峡市,开发区,细颗粒物(PM2.5),79,90,109,58,58,74,48,48,48,29,31,12,13,0.6,0.6
2023-02-22T01:00:00,1838A,111.143,34.7955,三门峡市,风景区,,,,,,,,,,,,,,,,
2023-02-22T01:00:00,1840A,111.2992,30.6981,宜昌市,白龙岗,细颗粒物(PM2.5),85,90,81,63,50,109,58,58,58,32,43,5,6,0.7,0.7
2023-02-22T01:00:00,1841A,111.3549,30.6465,宜昌市,伍家岗,细颗粒物(PM2.5),92,85,95,68,58,114,24,24,24,51,41,9,10,0.6,0.7
2023-02-22T01:00:00,1842A,111.2628,30.6961,宜昌市,点军区,细颗粒物(PM2.5),92,91,86,68,53,108,52,52,52,26,29,6,6,0.7,0.6
2023-02-22T01:00:00,1843A,111.3275,30.7819,宜昌市,夷陵区,细颗粒物(PM2.5),83,73,71,61,47,108,41,41,41,42,36,7,8,0.6,0.5
2023-02-22T01:00:00,1844A,112.2494,30.3197,荆州市,市图书馆,细颗粒物(PM2.5),123,98,88,93,73,106,61,61,61,29,31,9,9,0.7,0.7
2023-02-22T01:00:00,1845A,112.2008,30.3544,荆州市,市委党校,细颗粒物(PM2.5),114,96,83,86,66,106,61,61,61,24,26,9,9,0.7,0.6
2023-02-22T01:00:00,1847A,113.1094,29.3578,岳阳市,南湖风景区,细颗粒物(PM2.5),104,78,72,78,52,118,53,53,53,32,30,8,10,0.7,0.6
2023-02-22T01:00:00,1848A,113.1493,29.4251,岳阳市,城陵矶,颗粒物(PM10),74,98,76,49,39,106,44,44,44,40,39,5,7,0.7,0.5
2023-02-22T01:00:00,1849A,113.1497,29.3575,岳阳市,开发区,细颗粒物(PM2.5),87,75,67,64,58,111,52,52,52,26,26,8,9,0.8,0.8
2023-02-22T01:00:00,1850A,113.2621,29.4758,岳阳市,云溪区,颗粒物(PM10),62,74,63,37,33,115,49,49,49,32,24,8,8,0.5,0.5
2023-02-22T01:00:00,1851A,112.9943,29.4402,岳阳市,君山区,细颗粒物(PM2.5),97,78,77,72,58,107,54,54,54,25,25,7,7,0.7,0.7
2023-02-22T01:00:00,1852A,113.2117,29.355,岳阳市,金凤水库,细颗粒物(PM2.5),73,82,61,53,37,114,48,48,48,22,14,7,7,0.8,0.7
2023-02-22T01:00:00,1854A,111.6975,28.9703,常德市,市二中,细颗粒物(PM2.5),118,108,98,89,71,86,63,63,63,22,20,10,8,1.0,0.9
2023-02-22T01:00:00,1857A,111.7158,29.1456,常德市,白鹤山,细颗粒物(PM2.5),93,106,95,69,59,97,67,67,67,19,16,8,7,0.6,0.6
2023-02-22T01:00:00,1858A,110.5319,29.1217,张家界市,永定新区,细颗粒物(PM2.5),82,82,75,60,44,103,51,51,51,28,22,5,6,0.6,0.5
2023-02-22T01:00:00,1859A,110.4697,29.1242,张家界市,电业局,细颗粒物(PM2.5),65,69,77,47,44,106,81,81,81,22,21,6,7,0.5,0.5
2023-02-22T01:00:00,1860A,110.5594,29.3547,张家界市,未央路,细颗粒物(PM2.5),65,67,69,47,45,103,54,54,54,8,14,5,6,0.5,0.7
2023-02-22T01:00:00,1861A,110.4417,29.315,张家界市,袁家界,细颗粒物(PM2.5),70,64,76,51,47,108,92,92,92,15,12,10,10,0.4,0.7
2023-02-22T01:00:00,1862A,110.4144,25.3167,桂林市,电子科大尧山校区,细颗粒物(PM2.5),65,68,74,47,48,133,112,112,112,16,15,10,9,0.7,0.8
2023-02-22T01:00:00,1863A,110.2819,25.2697,桂林市,监测站,细颗粒物(PM2.5),95,82,90,71,70,123,98,98,98,12,15,10,8,0.8,0.8
2023-02-22T01:00:00,1864A,110.3089,25.2708,桂林市,龙隐路小学,细颗粒物(PM2.5),92,72,81,68,73,126,97,97,97,14,13,14,13,0.6,0.6
2023-02-22T01:00:00,1865A,110.2869,25.2178,桂林市,八中,细颗粒物(PM2.5),95,66,79,71,71,115,92,92,92,16,19,10,9,0.6,0.5
2023-02-22T01:00:00,1866A,109.2262,21.588,北海市,牛尾岭水库,颗粒物(PM10),56,61,66,34,59,164,87,87,87,10,16,7,15,0.5,0.8
2023-02-22T01:00:00,1867A,109.1436,21.4086,北海市,海滩公园,,44,44,66,17,40,185,122,122,122,6,11,5,9,0.5,0.8
2023-02-22T01:00:00,1868A,109.0981,21.4661,北海市,新市环保局,颗粒物(PM10),51,52,62,22,45,173,117,117,117,10,16,2,6,0.5,0.8
2023-02-22T01:00:00,1869A,109.1778,21.5233,北海市,北海工业园,颗粒物(PM10),51,52,82,29,57,169,103,103,103,9,16,5,10,0.7,0.9
2023-02-22T01:00:00,1870A,109.4856,24.3895,柳州市,柳东小学,细颗粒物(PM2.5),84,99,107,62,71,118,71,71,71,16,14,14,13,1.0,1
2023-02-22T01:00:00,1871A,109.4157,24.3277,柳州市,环保监测站,细颗粒物(PM2.5),79,76,100,58,66,114,68,68,68,19,21,10,11,0.9,1
2023-02-22T01:00:00,1872A,109.389,24.341,柳州市,河西水厂,细颗粒物(PM2.5),78,78,98,57,71,112,62,62,62,23,22,15,12,0.9,1.1
2023-02-22T01:00:00,1873A,109.4311,24.2921,柳州市,市四中,细颗粒物(PM2.5),80,86,86,59,66,122,70,70,70,19,21,17,14,1.0,1
2023-02-22T01:00:00,1874A,109.4006,24.3631,柳州市,市九中,细颗粒物(PM2.5),85,84,100,63,74,112,70,70,70,18,30,18,15,0.6,0.8
2023-02-22T01:00:00,1875A,109.4958,24.3134,柳州市,古亭山,细颗粒物(PM2.5),69,71,79,50,52,124,86,86,86,16,16,14,14,0.5,0.6
2023-02-22T01:00:00,1876A,109.5078,18.2489,三亚市,河东子站,,44,44,51,22,30,120,103,103,103,5,7,3,3,0.5,0.6
2023-02-22T01:00:00,1877A,109.4964,18.2681,三亚市,河西子站,,36,36,51,24,30,126,102,102,102,4,5,3,3,0.5,0.5
2023-02-22T01:00:00,1878A,104.7778,31.4741,绵阳市,富乐山,,18,15,32,12,27,55,44,44,44,8,11,2,2,0.5,0.7
2023-02-22T01:00:00,1879A,104.7563,31.4535,绵阳市,市人大,,26,15,38,18,25,49,45,45,45,11,19,2,4,0.5,0.6
2023-02-22T01:00:00,1880A,104.6697,31.4668,绵阳市,高新区自来水公司,,13,12,24,9,28,50,39,39,39,19,20,3,4,0.4,0.6
2023-02-22T01:00:00,1881A,104.7287,31.5075,绵阳市,三水厂,,18,15,46,12,30,51,43,43,43,9,15,1,2,0.3,0.6
2023-02-22T01:00:00,1882A,104.563,28.793,宜宾市,石马中学,细颗粒物(PM2.5),90,87,96,67,70,39,21,21,21,23,29,4,6,0.6,0.7
2023-02-22T01:00:00,1883A,104.6201,28.7728,宜宾市,市委,细颗粒物(PM2.5),104,92,106,78,80,30,20,20,20,28,39,8,9,0.7,0.8
2023-02-22T01:00:00,1884A,104.6055,28.793,宜宾市,宜宾四中,细颗粒物(PM2.5),104,104,110,78,81,35,24,24,24,30,40,8,9,0.7,0.8
2023-02-22T01:00:00,1885A,104.639,28.7562,宜宾市,市政府,细颗粒物(PM2.5),94,85,99,70,76,31,18,18,18,35,41,6,8,0.6,0.7
2023-02-22T01:00:00,1886A,104.5742,28.7199,宜宾市,黄金嘴,细颗粒物(PM2.5),95,91,101,71,76,37,28,28,28,26,35,6,8,0.6,0.6
2023-02-22T01:00:00,1888A,101.6891,26.571,攀枝花市,弄弄坪,颗粒物(PM10),52,53,65,29,37,119,68,68,68,27,33,20,20,1.7,1.5
2023-02-22T01:00:00,1889A,101.5769,26.5928,攀枝花市,河门口,,39,39,52,25,29,119,72,72,72,13,24,7,13,0.6,0.8
2023-02-22T01:00:00,1890A,101.7169,26.585,攀枝花市,炳草岗,颗粒物(PM10),55,60,64,28,35,120,16,16,16,73,42,13,14,1.1,0.9
2023-02-22T01:00:00,1891A,101.7369,26.5008,攀枝花市,仁和,,38,38,45,24,30,121,69,69,69,13,21,8,10,0.5,0.6
2023-02-22T01:00:00,1893A,105.4324,28.9634,泸州市,九狮山,细颗粒物(PM2.5),58,51,75,41,53,26,19,19,19,28,30,8,9,0.5,0.4
2023-02-22T01:00:00,1894A,105.4427,28.9063,泸州市,小市上码头,细颗粒物(PM2.5),64,63,80,46,60,32,25,25,25,30,37,6,11,0.7,0.9
2023-02-22T01:00:00,1895A,105.4241,28.8573,泸州市,兰田宪桥,细颗粒物(PM2.5),75,60,80,55,72,29,18,18,18,31,33,6,15,0.6,0.8
2023-02-22T01:00:00,1896A,105.4379,28.8833,泸州市,市环监站,细颗粒物(PM2.5),62,60,77,44,59,27,18,18,18,26,32,5,10,0.6,0.7
2023-02-22T01:00:00,1901A,104.4239,31.1208,德阳市,东山公园,,18,15,46,12,32,55,52,52,52,10,26,1,2,0.6,0.8
2023-02-22T01:00:00,1902A,104.3826,31.1317,德阳市,西小区,,20,19,51,14,37,53,50,50,50,10,27,1,3,0.4,0.7
2023-02-22T01:00:00,1904A,104.3553,31.1091,德阳市,耐火材料厂,,18,12,47,12,38,51,51,51,51,10,26,1,3,0.5,0.7
2023-02-22T01:00:00,1905A,106.056,30.8064,南充市,西山风景区,,,,,,,,,,,,,,,,
2023-02-22T01:00:00,1906A,106.0789,30.8023,南充市,南充市委,,35,35,45,24,32,56,52,52,52,13,18,8,8,0.4,0.5
2023-02-22T01:00:00,1907A,106.1031,30.8217,南充市,南充炼油厂,,45,42,39,31,27,60,54,54,54,12,14,7,7,0.4,0.5
2023-02-22T01:00:00,1908A,106.1064,30.7856,南充市,高坪区监测站,,49,41,41,34,34,56,50,50,50,16,18,6,7,0.4,0.5
2023-02-22T01:00:00,1909A,106.0642,30.7636,南充市,嘉陵区环保局,,42,38,47,29,30,55,55,55,55,17,20,7,7,0.4,0.6
2023-02-22T01:00:00,1910A,106.1087,30.8388,南充市,市环境监测站,细颗粒物(PM2.5),52,50,41,36,34,59,50,50,50,12,15,10,8,0.4,0.5
2023-02-22T01:00:00,1911A,106.9222,27.6869,遵义市,丁字口,,34,34,42,15,31,92,71,71,71,16,19,9,11,0.7,0.6
2023-02-22T01:00:00,1912A,106.9242,27.7019,遵义市,凤凰山,,26,26,38,17,26,93,72,72,72,17,17,3,4,0.7,0.5
2023-02-22T01:00:00,1913A,106.8906,27.6486,遵义市,忠庄,,24,24,45,15,30,87,69,69,69,12,15,2,3,0.5,0.4
2023-02-22T01:00:00,1914A,106.9231,27.6506,遵义市,舟水桥,,28,23,44,19,31,93,72,72,72,13,15,4,4,0.5,0.5
2023-02-22T01:00:00,1915A,106.9178,27.72,遵义市,干田坝,,28,28,38,18,27,92,78,78,78,17,24,5,7,0.5,0.5
2023-02-22T01:00:00,1916A,103.7897,25.5035,曲靖市,环境监测站,,33,33,54,21,34,113,61,61,61,10,14,4,9,0.9,1.1
2023-02-22T01:00:00,1917A,103.8,25.5364,曲靖市,烟厂办公区,,35,32,54,24,32,93,70,70,70,9,14,4,7,0.7,0.9
2023-02-22T01:00:00,1918A,108.7197,34.3956,咸阳市,气象站,细颗粒物(PM2.5),118,79,107,89,92,58,8,8,8,50,52,8,10,0.6,0.9
2023-02-22T01:00:00,1919A,108.673,34.3155,咸阳市,实验中学,细颗粒物(PM2.5),155,141,162,118,107,63,10,10,10,52,53,5,7,0.8,0.9
2023-02-22T01:00:00,1920A,108.7233,34.3617,咸阳市,师范学院,细颗粒物(PM2.5),117,98,135,88,97,62,15,15,15,43,41,5,7,0.6,0.8
2023-02-22T01:00:00,1922A,109.0656,35.0994,铜川市,党校,细颗粒物(PM2.5),63,73,67,45,33,83,36,36,36,28,20,13,14,0.7,0.7
2023-02-22T01:00:00,1923A,109.0697,35.0697,铜川市,王益区政府,细颗粒物(PM2.5),100,70,77,75,55,77,42,42,42,22,22,5,6,0.6,0.6
2023-02-22T01:00:00,1924A,108.9344,34.9058,铜川市,新区管委会,细颗粒物(PM2.5),112,76,74,84,66,83,41,41,41,28,26,8,11,0.5,0.6
2023-02-22T01:00:00,1926A,109.4131,36.6275,延安市,枣园,细颗粒物(PM2.5),99,54,51,74,56,85,64,64,64,20,24,5,6,0.6,0.6
2023-02-22T01:00:00,1927A,109.4761,36.6028,延安市,延大医附院,细颗粒物(PM2.5),88,64,58,65,54,68,65,65,65,17,30,6,7,0.6,0.8
2023-02-22T01:00:00,1929A,109.5056,36.6106,延安市,百米大道,细颗粒物(PM2.5),92,65,67,68,63,71,58,58,58,23,30,11,8,0.8,0.8
2023-02-22T01:00:00,1930A,107.185,34.3063,宝鸡市,庙沟村,细颗粒物(PM2.5),172,141,104,130,76,63,19,19,19,51,39,4,6,1.0,0.8
2023-02-22T01:00:00,1931A,107.0708,34.3017,宝鸡市,竹园沟,细颗粒物(PM2.5),147,109,99,112,75,55,11,11,11,39,41,7,10,1.0,0.9
2023-02-22T01:00:00,1932A,107.1906,34.3672,宝鸡市,三陆医院,细颗粒物(PM2.5),176,133,130,133,102,62,24,24,24,47,48,6,11,0.9,1
2023-02-22T01:00:00,1933A,107.1431,34.3547,宝鸡市,监测站,细颗粒物(PM2.5),170,148,109,129,79,58,20,20,20,53,49,5,7,1.0,0.9
2023-02-22T01:00:00,1934A,107.1186,34.3739,宝鸡市,技工学校,细颗粒物(PM2.5),139,117,111,106,80,56,22,22,22,44,45,5,10,0.8,0.8
2023-02-22T01:00:00,1935A,107.3906,34.3528,宝鸡市,陈仓区环保局家属楼,细颗粒物(PM2.5),183,122,141,138,105,60,27,27,27,46,55,5,9,0.9,1
2023-02-22T01:00:00,1936A,107.2058,34.3497,宝鸡市,文理学院,细颗粒物(PM2.5),180,145,123,136,87,57,22,22,22,47,49,9,11,1.0,0.9
2023-02-22T01:00:00,1937A,107.2386,34.3622,宝鸡市,三迪小学,细颗粒物(PM2.5),173,158,131,131,91,61,28,28,28,46,50,10,12,0.9,0.8
2023-02-22T01:00:00,1938A,109.5293,34.5101,渭南市,农科所,细颗粒物(PM2.5),104,114,107,78,68,57,17,17,17,36,39,6,9,0.6,0.6
2023-02-22T01:00:00,1939A,109.4974,34.4877,渭南市,日报社,细颗粒物(PM2.5),114,119,105,86,71,61,23,23,23,37,43,10,13,0.6,0.8
2023-02-22T01:00:00,1940A,109.4636,34.493,渭南市,体育馆,细颗粒物(PM2.5),117,114,100,88,71,67,28,28,28,38,41,5,8,0.6,0.6
2023-02-22T01:00:00,1941A,109.4259,34.5023,渭南市,高新一小,细颗粒物(PM2.5),127,115,106,96,82,60,23,23,23,37,42,8,11,0.6,0.7
2023-02-22T01:00:00,1943A,102.1725,38.5339,金昌市,新川苑,,45,45,62,17,18,108,76,76,76,24,21,25,19,0.8,0.8
2023-02-22T01:00:00,1944A,102.1692,38.5167,金昌市,天庆家园,,35,31,49,24,26,108,80,80,80,23,22,10,18,0.7,0.8
2023-02-22T01:00:00,1945A,98.2908,39.7711,嘉峪关市,气象局,,,,67,,23,68,,68,,,28,,10,,0.2
2023-02-22T01:00:00,1947A,106.3394,38.817,石嘴山市,沙湖旅游区,颗粒物(PM10),142,233,195,53,36,102,9,9,9,51,34,22,19,1.3,0.9
2023-02-22T01:00:00,1948A,106.3668,39.0145,石嘴山市,大武口朝阳西街,颗粒物(PM10),59,67,64,35,33,81,35,35,35,44,44,21,30,0.7,0.9
2023-02-22T01:00:00,1949A,106.7704,39.2282,石嘴山市,惠农南大街,颗粒物(PM10),100,149,76,66,33,82,1,1,1,70,49,26,23,1.0,1
2023-02-22T01:00:00,1950A,106.7099,39.1325,石嘴山市,红果子镇惠新街,颗粒物(PM10),71,91,67,47,38,71,5,5,5,54,42,15,29,0.6,0.9
2023-02-22T01:00:00,1951A,84.895,45.6094,克拉玛依市,长征新村,细颗粒物(PM2.5),77,83,87,56,51,95,74,74,74,41,48,6,6,0.6,0.7
2023-02-22T01:00:00,1952A,84.8988,45.5893,克拉玛依市,南林小区,细颗粒物(PM2.5),97,77,83,72,59,104,93,93,93,28,41,1,2,0.6,0.7
2023-02-22T01:00:00,1954A,84.905,44.3396,克拉玛依市,独山子区,细颗粒物(PM2.5),222,294,189,172,125,124,52,52,52,56,39,5,5,1.4,1.1
2023-02-22T01:00:00,1955A,85.6979,46.098,克拉玛依市,乌尔禾区商贸楼,细颗粒物(PM2.5),147,118,86,112,82,111,35,35,35,73,42,7,6,3.0,1.4
2023-02-22T01:00:00,1956A,86.1472,41.7538,巴音郭楞州,孔雀公园,,,483,248,108,62,99,2,2,2,85,36,5,3,0.8,0.5
2023-02-22T01:00:00,1957A,86.1972,41.7166,巴音郭楞州,棉纺厂,颗粒物(PM10),462,562,309,89,63,95,8,8,8,66,40,3,3,0.5,0.5
2023-02-22T01:00:00,1958A,86.2357,41.7173,巴音郭楞州,经济开发区,颗粒物(PM10),403,503,272,78,56,96,49,49,49,12,20,5,5,0.3,0.6
2023-02-22T01:00:00,1961A,117.532,36.6868,济南市,东山小学,颗粒物(PM10),57,63,66,24,21,82,39,39,39,38,40,7,8,0.6,0.7
2023-02-22T01:00:00,1966A,120.0405,35.8735,青岛市,黄岛区4号,颗粒物(PM10),57,63,38,39,12,73,27,27,27,55,23,7,7,0.8,0.6
2023-02-22T01:00:00,1982A,122.0693,37.2174,威海市,文登开发区,,41,41,39,24,12,79,42,42,42,22,14,4,5,0.6,0.3
2023-02-22T01:00:00,2031A,113.1817,27.9958,株洲市,云田中学,"颗粒物(PM10),细颗粒物(PM2.5)",73,95,81,53,52,131,57,57,57,36,27,7,7,0.9,0.8
2023-02-22T01:00:00,2054A,114.1099,32.1059,信阳市,平桥分局,颗粒物(PM10),52,53,80,30,41,86,61,61,61,17,21,9,11,0.6,0.7
2023-02-22T01:00:00,2064A,113.9956,32.1271,信阳市,南湾水厂,颗粒物(PM10),56,62,76,22,37,97,64,64,64,17,19,7,9,0.5,0.6
2023-02-22T01:00:00,2065A,114.0775,32.1195,信阳市,市酿酒公司,颗粒物(PM10),53,56,66,34,43,96,68,68,68,18,21,8,10,0.6,0.7
2023-02-22T01:00:00,2066A,114.0609,32.1399,信阳市,审计局,,43,43,65,24,42,92,62,62,62,22,22,8,9,0.5,0.6
2023-02-22T01:00:00,2067A,114.6613,33.6128,周口市,市环境监测站,,29,23,60,20,23,77,56,56,56,19,20,10,8,0.3,0.3
2023-02-22T01:00:00,2068A,114.6758,33.6347,周口市,周口师范,,41,41,60,18,22,90,59,59,59,20,22,9,7,0.1,0.2
2023-02-22T01:00:00,2069A,114.6546,33.5979,周口市,市运管处,,32,32,54,22,26,90,60,60,60,28,25,16,14,0.1,0.2
2023-02-22T01:00:00,2070A,114.6369,33.6406,周口市,川汇区环保局,,46,46,59,20,22,87,59,59,59,17,19,9,7,0.2,0.3
2023-02-22T01:00:00,2075A,117.6336,24.4674,漳州市,九湖,,,,,,,,,,,,,,,,
2023-02-22T01:00:00,2160A,112.85,35.5051,晋城市,自来水公司,颗粒物(PM10),67,83,78,29,36,80,64,64,64,26,22,14,9,0.6,0.6
2023-02-22T01:00:00,2161A,112.8318,35.4936,晋城市,白云商贸,颗粒物(PM10),56,61,80,24,34,78,61,61,61,25,19,12,8,0.6,0.7
2023-02-22T01:00:00,2162A,112.8508,35.4887,晋城市,市环保局,颗粒物(PM10),67,83,81,36,39,82,62,62,62,28,24,14,9,0.7,0.6
2023-02-22T01:00:00,2163A,112.8676,35.4897,晋城市,技术学院,"颗粒物(PM10),细颗粒物(PM2.5)",52,54,81,36,41,81,62,62,62,26,22,12,8,0.7,0.6
2023-02-22T01:00:00,2165A,112.8453,35.546,晋城市,白马寺,,,,,,,,,,,,,,,,
2023-02-22T01:00:00,2166A,112.4397,39.3522,朔州市,平朔,细颗粒物(PM2.5),89,66,78,66,58,81,47,47,47,26,26,21,17,0.7,0.7
2023-02-22T01:00:00,2167A,112.4575,39.3617,朔州市,朔唯,细颗粒物(PM2.5),80,75,82,59,43,84,49,49,49,32,33,19,16,0.7,0.7
2023-02-22T01:00:00,2168A,112.4258,39.3197,朔州市,区政府,细颗粒物(PM2.5),87,103,80,64,47,71,41,41,41,31,29,23,15,0.7,0.7
2023-02-22T01:00:00,2169A,112.4072,39.3278,朔州市,市环保局,细颗粒物(PM2.5),92,92,82,68,45,75,41,41,41,30,33,19,19,0.8,0.8
2023-02-22T01:00:00,2170A,112.4272,39.3681,朔州市,市二中,细颗粒物(PM2.5),78,98,81,57,43,76,45,45,45,25,27,16,15,0.6,0.7
2023-02-22T01:00:00,2171A,112.7532,37.6945,晋中市,锦纶小区,细颗粒物(PM2.5),112,118,86,84,55,90,4,4,4,61,36,22,17,0.9,0.7
2023-02-22T01:00:00,2173A,112.7249,37.7067,晋中市,南都小区,细颗粒物(PM2.5),104,138,100,78,46,88,13,13,13,64,37,32,17,1.0,0.6
2023-02-22T01:00:00,2174A,112.6991,37.6982,晋中市,榆次区政府,颗粒物(PM10),103,155,108,54,41,82,6,6,6,72,40,28,15,1.0,0.7
2023-02-22T01:00:00,2175A,110.9956,35.0147,运城市,运城中学,颗粒物(PM10),74,97,88,52,51,80,59,59,59,18,18,9,8,0.4,0.4
2023-02-22T01:00:00,2178A,110.9686,35.0303,运城市,地区技校,细颗粒物(PM2.5),82,103,88,60,50,84,61,61,61,17,17,7,7,0.5,0.5
2023-02-22T01:00:00,2179A,111.0414,35.1147,运城市,空港新区,细颗粒物(PM2.5),87,78,91,64,54,94,63,63,63,14,12,8,9,0.5,0.5
2023-02-22T01:00:00,2181A,112.7383,38.4519,忻州市,开发区,细颗粒物(PM2.5),72,77,70,52,41,80,26,26,26,36,21,10,9,0.8,0.8
2023-02-22T01:00:00,2182A,112.7003,38.4928,忻州市,会展中心,细颗粒物(PM2.5),69,82,72,50,41,68,12,12,12,60,35,8,9,1.2,0.8
2023-02-22T01:00:00,2183A,111.1406,37.5211,吕梁市,环保局,颗粒物(PM10),69,88,79,43,30,71,9,9,9,66,47,9,14,0.5,0.5
2023-02-22T01:00:00,2185A,111.1297,37.5136,吕梁市,自来水公司,颗粒物(PM10),71,92,93,33,33,74,6,6,6,64,40,12,15,0.7,0.7
2023-02-22T01:00:00,2187A,106.8174,39.6973,乌海市,市林业局,细颗粒物(PM2.5),144,173,93,110,44,80,5,5,5,74,44,25,38,1.8,1.1
2023-02-22T01:00:00,2188A,106.7907,39.6667,乌海市,中海勃湾学校,颗粒物(PM10),100,150,92,70,43,84,6,6,6,84,48,34,35,1.5,1
2023-02-22T01:00:00,2191A,122.2532,43.6801,通辽市,艺术职业学校,颗粒物(PM10),60,70,44,37,19,76,53,53,53,22,20,47,17,0.5,0.5
2023-02-22T01:00:00,2192A,119.7594,49.2261,呼伦贝尔市,区环保局,,40,40,32,27,20,80,52,52,52,22,20,5,6,0.5,0.5
2023-02-22T01:00:00,2195A,107.4212,40.761,巴彦淖尔市,附二中,颗粒物(PM10),97,143,79,58,26,82,24,24,24,54,32,11,15,0.9,0.8
2023-02-22T01:00:00,2196A,107.37,40.7372,巴彦淖尔市,市环保大楼,细颗粒物(PM2.5),93,107,68,69,33,80,24,24,24,47,32,11,12,0.8,0.7
2023-02-22T01:00:00,2197A,113.1306,40.9923,乌兰察布市,集宁新区,细颗粒物(PM2.5),75,96,50,55,33,57,43,43,43,29,33,9,18,0.7,0.7
2023-02-22T01:00:00,2200A,122.0392,46.0656,兴安盟,胜华新制药厂,,33,33,27,22,16,80,49,49,49,14,14,5,6,0.7,0.7
2023-02-22T01:00:00,2201A,121.9504,46.0741,兴安盟,科右前旗环保局,,39,39,26,25,16,82,32,32,32,27,14,4,3,0.9,0.5
2023-02-22T01:00:00,2202A,116.1042,43.9317,锡林郭勒盟,市环保监测站,,26,23,16,18,9,83,34,34,34,21,9,8,8,0.4,0.3
2023-02-22T01:00:00,2203A,116.0781,43.9311,锡林郭勒盟,市政府,,32,32,20,16,8,80,36,36,36,24,12,6,9,0.4,0.3
2023-02-22T01:00:00,2204A,105.6467,38.8363,阿拉善盟,西城区西花园,颗粒物(PM10),61,71,74,32,30,109,71,71,71,21,20,11,11,0.9,0.8
2023-02-22T01:00:00,2205A,105.6985,38.8411,阿拉善盟,蒙二幼,细颗粒物(PM2.5),64,70,66,46,34,111,81,81,81,14,15,12,11,0.7,0.6
2023-02-22T01:00:00,2206A,105.724,38.8516,阿拉善盟,环保局新楼,,,,58,,34,86,,85,,,12,,10,,0.6
2023-02-22T01:00:00,2207A,121.6094,41.998,阜新市,工业园区,,44,44,56,21,22,75,40,40,40,25,21,16,15,0.3,0.5
2023-02-22T01:00:00,2208A,121.6697,42.0279,阜新市,长青街,,43,43,44,21,15,87,51,51,51,21,15,23,16,0.7,0.7
2023-02-22T01:00:00,2209A,121.6673,42.0705,阜新市,农业园区,,37,37,30,24,19,74,40,40,40,17,11,20,14,0.6,0.6
2023-02-22T01:00:00,2210A,121.6717,42.0224,阜新市,东苑,,50,50,47,34,24,79,47,47,47,16,14,24,14,0.6,0.5
2023-02-22T01:00:00,2211A,121.6506,42.0498,阜新市,玉龙新城,,39,39,38,18,14,84,47,47,47,18,16,19,15,0.7,0.7
2023-02-22T01:00:00,2212A,123.2,41.1953,辽阳市,宏伟区,,41,41,50,21,22,62,40,40,40,36,37,15,22,0.7,1.1
2023-02-22T01:00:00,2213A,123.1683,41.2495,辽阳市,新华园,颗粒物(PM10),63,75,60,30,32,76,20,20,20,62,44,28,30,1.2,1.4
2023-02-22T01:00:00,2214A,123.2354,41.2639,辽阳市,滨河路,细颗粒物(PM2.5),57,61,55,40,33,65,28,28,28,39,37,10,14,1.3,1.4
2023-02-22T01:00:00,2215A,123.149,41.2991,辽阳市,铁西工业园,颗粒物(PM10),73,95,66,31,40,69,12,12,12,66,43,26,16,1.3,1.2
2023-02-22T01:00:00,2216A,123.8139,42.3022,铁岭市,汇工街西,颗粒物(PM10),56,62,61,31,36,69,24,24,24,48,38,26,16,1.0,0.6
2023-02-22T01:00:00,2217A,123.8649,42.2923,铁岭市,水上乐园,细颗粒物(PM2.5),68,77,74,49,42,66,18,18,18,61,41,22,14,1.6,1
2023-02-22T01:00:00,2218A,123.8486,42.2867,铁岭市,银州路东段,细颗粒物(PM2.5),55,57,57,39,32,66,24,24,24,53,40,18,10,1.3,0.7
2023-02-22T01:00:00,2219A,123.7153,42.2217,铁岭市,金沙江路北,细颗粒物(PM2.5),62,52,63,44,31,59,20,20,20,48,48,28,10,1.3,0.6
2023-02-22T01:00:00,2220A,120.4318,41.5881,朝阳市,西梁,,39,39,36,19,19,79,52,52,52,18,22,16,16,0.6,0.8
2023-02-22T01:00:00,2221A,120.4521,41.5646,朝阳市,河畔小区,,40,40,33,21,16,90,61,61,61,16,15,15,13,0.7,0.6
2023-02-22T01:00:00,2222A,120.4176,41.5648,朝阳市,八里堡,,37,37,41,17,19,80,51,51,51,17,23,16,16,0.8,0.8
2023-02-22T01:00:00,2223A,120.3806,41.5969,朝阳市,农业园区,,45,45,41,25,24,77,38,38,38,26,16,18,16,0.8,0.8
2023-02-22T01:00:00,2225A,124.4002,43.1713,四平市,一商场,颗粒物(PM10),70,89,60,45,30,78,40,40,40,30,29,11,10,0.5,0.4
2023-02-22T01:00:00,2226A,124.388,43.193,四平市,境园,细颗粒物(PM2.5),72,88,67,52,33,79,28,28,28,42,33,7,6,0.5,0.5
2023-02-22T01:00:00,2227A,125.1358,42.8845,辽源市,环保局,细颗粒物(PM2.5),79,72,58,58,44,85,14,14,14,49,37,9,12,0.8,0.7
2023-02-22T01:00:00,2229A,125.9358,41.7173,通化市,光明,,45,45,47,22,27,75,34,34,34,26,32,14,18,0.7,0.6
2023-02-22T01:00:00,2230A,125.9446,41.7325,通化市,铁路,,48,48,43,27,25,79,24,24,24,38,33,11,16,0.6,0.5
2023-02-22T01:00:00,2231A,126.4219,41.9171,白山市,喜丰,颗粒物(PM10),59,68,57,38,26,81,29,29,29,38,27,12,14,0.9,0.8
2023-02-22T01:00:00,2232A,126.4077,41.9419,白山市,环保局,颗粒物(PM10),68,86,78,28,30,69,5,5,5,63,33,24,15,1.3,0.9
2023-02-22T01:00:00,2233A,124.8006,45.1214,松原市,江南,,32,32,45,18,27,77,50,50,50,12,24,5,10,0.4,0.5
2023-02-22T01:00:00,2234A,124.7965,45.1722,松原市,江北,,36,36,36,15,23,69,54,54,54,11,25,5,5,0.5,0.5
2023-02-22T01:00:00,2235A,122.7911,45.6077,白城市,洮北区环保局,,34,34,35,13,17,67,46,46,46,10,13,4,3,0.3,0.4
2023-02-22T01:00:00,2236A,122.8738,45.5725,白城市,市环保局,,33,33,35,16,14,78,50,50,50,15,20,6,6,0.3,0.3
2023-02-22T01:00:00,2237A,129.47,42.8883,延边朝鲜族自治州,妇幼医院,,31,31,25,13,15,86,50,50,50,12,15,8,13,0.6,0.5
2023-02-22T01:00:00,2238A,129.5055,42.9108,延边朝鲜族自治州,延边医院,,38,38,24,26,15,86,27,27,27,32,15,7,8,0.8,0.5
2023-02-22T01:00:00,2239A,129.3964,42.8881,延边朝鲜族自治州,朝阳川镇医院,,29,29,28,10,14,89,43,43,43,7,8,4,6,0.4,0.4
2023-02-22T01:00:00,2240A,130.9762,45.3001,鸡西市,环保局,,28,27,23,19,16,84,70,70,70,11,11,7,4,0.3,0.3
2023-02-22T01:00:00,2243A,130.9429,45.3039,鸡西市,第一中学,,35,35,23,16,17,81,73,73,73,4,3,6,4,0.4,0.4
2023-02-22T01:00:00,2244A,130.2537,47.3416,鹤岗市,哈啤分公司,,28,16,19,19,16,78,78,78,78,6,6,9,9,0.3,0.3
2023-02-22T01:00:00,2245A,130.2684,47.3086,鹤岗市,斯达机电,,35,35,34,21,19,77,76,76,76,6,8,6,7,0.2,0.2
2023-02-22T01:00:00,2246A,130.3114,47.3388,鹤岗市,东山纸板厂,,36,34,33,25,18,80,60,60,60,9,4,11,12,0.5,0.3
2023-02-22T01:00:00,2247A,130.1097,47.3382,鹤岗市,五号水库,,30,20,17,21,15,82,62,62,62,5,4,6,6,0.4,0.4
2023-02-22T01:00:00,2248A,131.1511,46.6937,双鸭山市,双合村,,47,47,22,21,13,84,70,70,70,12,7,16,16,0.8,0.7
2023-02-22T01:00:00,2249A,131.1652,46.6191,双鸭山市,南小市,颗粒物(PM10),53,56,30,23,17,85,68,68,68,15,9,14,8,1.0,0.9
2023-02-22T01:00:00,2250A,131.1524,46.6554,双鸭山市,环保局,,46,42,33,32,24,89,75,75,75,12,13,14,13,0.6,0.5
2023-02-22T01:00:00,2251A,131.12,46.5656,双鸭山市,苗圃,细颗粒物(PM2.5),58,48,35,41,31,108,92,92,92,15,9,8,5,0.3,0.1
2023-02-22T01:00:00,2252A,128.5159,47.4311,伊春市,环保局,细颗粒物(PM2.5),64,47,22,46,17,74,62,62,62,21,10,6,6,0.6,0.5
2023-02-22T01:00:00,2253A,128.9102,47.7412,伊春市,电力嘉园,,47,47,30,32,21,79,58,58,58,16,9,5,6,0.6,0.5
2023-02-22T01:00:00,2254A,129.5029,48.471,伊春市,汤旺河国家公园,,44,44,25,29,13,74,74,74,74,5,3,7,6,0.3,0.2
2023-02-22T01:00:00,2255A,130.2751,46.8028,佳木斯市,佳纺,,27,27,41,18,29,77,69,69,69,12,20,4,8,0.4,0.5
2023-02-22T01:00:00,2256A,130.3995,46.8307,佳木斯市,发电厂,,32,18,21,22,18,80,56,56,56,26,18,8,6,0.5,0.4
2023-02-22T01:00:00,2257A,130.3258,46.7975,佳木斯市,环保局,,32,24,27,22,21,77,68,68,68,10,17,4,5,0.3,0.3
2023-02-22T01:00:00,2258A,130.3648,46.8032,佳木斯市,十一中,,28,21,24,19,18,76,67,67,67,13,17,4,5,0.4,0.4
2023-02-22T01:00:00,2259A,130.3794,46.7588,佳木斯市,四丰,,38,13,17,14,14,146,120,120,120,6,5,1,1,0.2,0.2
2023-02-22T01:00:00,2262A,131.0518,45.8751,七台河市,新一中,,26,16,21,14,17,87,82,82,82,9,7,6,6,0.5,0.4
2023-02-22T01:00:00,2263A,127.4833,50.2524,黑河市,交通局,,26,21,16,18,12,74,64,64,64,12,10,8,6,0.4,0.5
2023-02-22T01:00:00,2264A,127.5144,50.2341,黑河市,环保局,,29,29,25,15,16,80,80,80,80,7,10,6,5,0.3,0.3
2023-02-22T01:00:00,2265A,127.5291,50.2472,黑河市,大黑河岛,,24,4,9,15,9,80,76,76,76,2,2,5,4,0.4,0.3
2023-02-22T01:00:00,2266A,126.9785,46.6365,绥化市,人和东街,细颗粒物(PM2.5),85,88,54,63,40,93,37,37,37,35,22,23,6,1.0,0.9
2023-02-22T01:00:00,2267A,126.964,46.6528,绥化市,党政办公中心,细颗粒物(PM2.5),88,67,45,65,41,99,53,53,53,25,17,11,5,0.4,0.5
2023-02-22T01:00:00,2269A,124.1069,50.4097,大兴安岭地区,科技局,,24,19,13,12,13,86,76,76,76,4,5,6,5,0.2,0.3
2023-02-22T01:00:00,2270A,117.396,32.939,蚌埠市,工人疗养院,,42,41,38,29,22,83,57,57,57,17,15,8,7,0.2,0.3
2023-02-22T01:00:00,2271A,117.3605,32.9427,蚌埠市,百货大楼,,44,44,48,20,18,80,56,56,56,18,18,3,2,0.3,0.3
2023-02-22T01:00:00,2273A,117.4185,32.8911,蚌埠市,蚌埠学院,,46,46,49,14,18,77,55,55,55,27,35,4,11,0.3,0.3
2023-02-22T01:00:00,2274A,117.3533,32.9673,蚌埠市,淮上区政府,,46,46,51,24,18,80,61,61,61,13,13,8,7,0.3,0.3
2023-02-22T01:00:00,2275A,117.3145,32.8977,蚌埠市,高新区,,41,41,42,17,17,78,64,64,64,13,19,3,6,0.3,0.3
2023-02-22T01:00:00,2277A,116.8305,32.7727,淮南市,潘集区政府,,48,48,54,32,33,68,52,52,52,16,17,4,5,0.2,0.3
2023-02-22T01:00:00,2278A,117.0067,32.6524,淮南市,师范学院,,38,38,55,16,23,68,62,62,62,11,16,10,13,0.2,0.3
2023-02-22T01:00:00,2279A,116.8569,32.5951,淮南市,谢家集区政府,,42,38,55,29,27,76,62,62,62,8,14,7,9,0.2,0.2
2023-02-22T01:00:00,2280A,116.8281,32.633,淮南市,八公山区政府,颗粒物(PM10),52,53,51,16,19,72,64,64,64,12,13,5,8,0.2,0.2
2023-02-22T01:00:00,2281A,116.6325,32.6201,淮南市,焦岗湖风景区管理处,,46,46,55,18,25,61,42,42,42,18,16,4,5,0.5,0.5
2023-02-22T01:00:00,2282A,116.8004,33.975,淮北市,监测站,颗粒物(PM10),54,57,46,27,19,87,60,60,60,15,14,5,6,0.4,0.4
2023-02-22T01:00:00,2283A,116.8091,33.9007,淮北市,烈山区政府,颗粒物(PM10),60,70,48,34,17,87,48,48,48,33,22,4,5,0.3,0.3
2023-02-22T01:00:00,2284A,116.7856,33.9477,淮北市,职业技术学院,颗粒物(PM10),60,70,46,31,19,88,58,58,58,20,17,5,6,0.3,0.4
2023-02-22T01:00:00,2285A,117.8177,30.9412,铜陵市,市第四中学,颗粒物(PM10),52,53,72,25,35,82,45,45,45,25,23,6,8,0.3,0.3
2023-02-22T01:00:00,2286A,117.8059,30.9273,铜陵市,市公路局,颗粒物(PM10),60,69,71,28,39,78,44,44,44,21,21,12,19,0.6,0.7
2023-02-22T01:00:00,2287A,117.7807,30.9413,铜陵市,市新民污水厂,,50,50,63,29,32,90,52,52,52,24,28,4,5,0.4,0.5
2023-02-22T01:00:00,2288A,117.7439,30.8792,铜陵市,市第九中学,颗粒物(PM10),56,62,72,32,38,87,36,36,36,36,30,8,9,0.8,0.9
2023-02-22T01:00:00,2289A,117.846,30.9413,铜陵市,车站新区,,48,47,57,33,31,87,48,48,48,22,19,6,7,0.8,0.8
2023-02-22T01:00:00,2290A,117.8483,30.97,铜陵市,市职教基地,,48,48,57,18,28,84,49,49,49,23,22,6,6,0.2,0.3
2023-02-22T01:00:00,2291A,117.0809,30.5177,安庆市,环科院,,40,40,76,27,43,99,54,54,54,23,23,8,9,0.5,0.6
2023-02-22T01:00:00,2292A,117.0331,30.5119,安庆市,马山宾馆,,48,48,75,23,33,99,53,53,53,22,22,7,9,0.4,0.5
2023-02-22T01:00:00,2294A,116.9896,30.6145,安庆市,安庆大学,,42,42,69,20,33,96,57,57,57,24,25,7,9,0.5,0.6
2023-02-22T01:00:00,2295A,118.2903,29.6963,黄山市,延安路89号,,45,31,44,31,20,112,64,64,64,16,15,5,6,0.2,0.3
2023-02-22T01:00:00,2296A,118.327,29.7178,黄山市,黄山东路89号,,39,39,46,2,22,108,60,60,60,20,18,5,6,0.2,0.2
2023-02-22T01:00:00,2297A,118.1371,30.2756,黄山市,黄山区政府5号楼,颗粒物(PM10),52,53,62,32,36,110,45,45,45,24,22,6,7,0.7,0.6
2023-02-22T01:00:00,2298A,118.3093,32.3153,滁州市,老年大学,,44,44,44,27,25,80,65,65,65,18,21,5,5,0.2,0.2
2023-02-22T01:00:00,2299A,118.3244,32.2786,滁州市,人大宾馆,颗粒物(PM10),51,51,46,24,24,78,59,59,59,10,16,5,5,0.3,0.3
2023-02-22T01:00:00,2301A,115.8277,32.8929,阜阳市,市监测站,,48,48,53,25,29,75,52,52,52,18,16,4,5,0.3,0.3
2023-02-22T01:00:00,2303A,115.8554,32.8605,阜阳市,开发区,颗粒物(PM10),56,61,62,21,27,76,53,53,53,19,20,6,7,0.4,0.5
2023-02-22T01:00:00,2307A,116.5079,31.737,六安市,监测大楼,,47,47,56,24,34,72,44,44,44,24,26,5,6,0.2,0.3
2023-02-22T01:00:00,2308A,116.4738,31.7643,六安市,皖西学院,,43,43,66,21,32,74,48,48,48,25,26,8,6,0.2,0.3
2023-02-22T01:00:00,2309A,116.4996,31.7905,六安市,朝阳厂,,36,36,53,16,28,76,58,58,58,23,31,7,8,0.3,0.4
2023-02-22T01:00:00,2310A,116.5567,31.7886,六安市,开发区,,49,49,72,21,34,69,48,48,48,12,18,6,7,0.2,0.3
2023-02-22T01:00:00,2311A,115.8072,33.8399,亳州市,污水处理厂,,50,50,46,35,21,79,51,51,51,12,7,7,7,0.3,0.4
2023-02-22T01:00:00,2312A,115.7789,33.8518,亳州市,三国揽胜宫,颗粒物(PM10),53,56,51,28,22,77,53,53,53,11,9,5,5,0.2,0.2
2023-02-22T01:00:00,2314A,117.47,30.6618,池州市,池州学院,颗粒物(PM10),52,53,67,30,45,89,40,40,40,28,20,11,10,0.5,0.6
2023-02-22T01:00:00,2316A,118.7581,30.9454,宣城市,鳌峰子站,颗粒物(PM10),52,54,67,22,36,85,55,55,55,25,20,9,7,0.5,0.6
2023-02-22T01:00:00,2317A,118.7385,30.9743,宣城市,敬亭山子站,,45,45,68,23,35,87,55,55,55,26,30,9,7,0.3,0.5
2023-02-22T01:00:00,2318A,118.7173,30.9427,宣城市,开发区子站,,43,43,67,23,36,87,55,55,55,24,22,6,5,0.5,0.6
2023-02-22T01:00:00,2319A,119.0141,25.4325,莆田市,荔城区仓后路,,29,16,36,7,10,107,90,90,90,2,6,7,8,0.5,0.5
2023-02-22T01:00:00,2320A,119.0015,25.4553,莆田市,莆田市监测站,,30,16,38,11,13,109,94,94,94,7,12,6,7,0.4,0.4
2023-02-22T01:00:00,2321A,119.1119,25.4561,莆田市,涵江区六中,,28,18,38,5,8,107,89,89,89,10,12,6,6,0.3,0.4
2023-02-22T01:00:00,2322A,119.1013,25.3215,莆田市,秀屿区政府,,27,23,48,9,11,108,86,86,86,5,12,5,5,0.3,0.3
2023-02-22T01:00:00,2323A,118.981,25.4792,莆田市,东圳水库,,,,,,,,,,,,,,,,
2023-02-22T01:00:00,2324A,117.6211,26.2625,三明市,三钢,,32,32,46,22,36,118,36,36,36,36,20,7,8,0.7,0.7
2023-02-22T01:00:00,2325A,117.635,26.2714,三明市,三明二中,,23,5,38,16,31,111,45,45,45,32,22,4,4,0.4,0.4
2023-02-22T01:00:00,2326A,117.6028,26.2378,三明市,三元区政府,颗粒物(PM10),59,68,54,21,34,112,19,19,19,46,25,15,11,0.7,0.5
2023-02-22T01:00:00,2327A,117.7275,26.3108,三明市,洋溪,,,,,,,,,,,,,,,,
2023-02-22T01:00:00,2331A,118.0966,26.6761,南平市,茫荡山,,,,,,,,,,,,,,,,
2023-02-22T01:00:00,2332A,118.1681,26.6369,南平市,南平市监测站,,31,28,40,16,30,113,98,98,98,10,16,4,4,0.5,0.7
2023-02-22T01:00:00,2333A,118.1825,26.6489,南平市,南平铝业有限公司,,43,43,49,15,31,105,90,90,90,10,19,9,10,0.4,0.5
2023-02-22T01:00:00,2334A,118.1756,26.6272,南平市,南平七中,,36,36,45,12,25,118,104,104,104,11,16,4,4,0.5,0.6
2023-02-22T01:00:00,2335A,117.0189,25.1181,龙岩市,龙岩师专,,,,,,,,,,,,,,,,
2023-02-22T01:00:00,2336A,117.0217,25.1033,龙岩市,龙岩市监测站,,30,30,38,10,21,119,86,86,86,18,14,13,10,0.3,0.4
2023-02-22T01:00:00,2337A,117.0258,25.0661,龙岩市,闽西职业技术学院,颗粒物(PM10),61,71,40,15,20,112,37,37,37,34,18,15,11,0.5,0.5
2023-02-22T01:00:00,2338A,117.0196,25.0306,龙岩市,龙岩学院,,28,28,36,14,22,111,54,54,54,19,15,3,4,0.4,0.4
2023-02-22T01:00:00,2339A,119.5001,26.6946,宁德市,金涵水库,,,,,,,,,,,,,,,,
2023-02-22T01:00:00,2341A,119.5388,26.6612,宁德市,宁德市监测站,,24,24,42,16,26,116,73,73,73,14,17,8,5,0.5,0.6
2023-02-22T01:00:00,2342A,117.3102,29.3867,景德镇市,王港中学,颗粒物(PM10),53,56,41,31,26,70,3,3,3,20,10,4,4,0.1,0.2
2023-02-22T01:00:00,2343A,117.2117,29.2933,景德镇市,老干部活动中心,颗粒物(PM10),58,65,74,27,22,109,62,62,62,17,21,8,8,0.6,0.6
2023-02-22T01:00:00,2344A,117.1894,29.2789,景德镇市,兽医站,,40,37,47,28,31,118,73,73,73,11,16,5,6,0.5,0.6
2023-02-22T01:00:00,2345A,117.1547,29.2617,景德镇市,台达陶瓷,,40,40,48,19,27,115,71,71,71,16,19,5,7,0.8,0.9
2023-02-22T01:00:00,2346A,117.2461,29.2956,景德镇市,陶研所,颗粒物(PM10),56,61,60,22,29,115,34,34,34,32,23,5,5,0.7,0.8
2023-02-22T01:00:00,2347A,114.0997,27.5002,萍乡市,武功山,,30,24,39,21,30,119,51,51,51,15,15,10,10,0.6,0.6
2023-02-22T01:00:00,2348A,113.8385,27.6434,萍乡市,中医院,细颗粒物(PM2.5),67,82,80,48,46,117,105,105,105,10,11,23,22,0.6,0.6
2023-02-22T01:00:00,2349A,113.8493,27.6253,萍乡市,市政府车库,细颗粒物(PM2.5),73,74,83,53,53,121,101,101,101,14,14,20,16,0.9,1.1
2023-02-22T01:00:00,2350A,113.8676,27.6435,萍乡市,市环保局,细颗粒物(PM2.5),69,75,80,50,56,117,104,104,104,11,15,28,22,0.5,0.5
2023-02-22T01:00:00,2351A,113.866,27.6198,萍乡市,安源区政府,细颗粒物(PM2.5),78,97,88,57,54,115,96,96,96,22,27,32,24,1.7,1.3
2023-02-22T01:00:00,2352A,115.0861,27.9317,新余市,北岗,颗粒物(PM10),52,54,50,35,33,104,56,56,56,24,24,11,15,0.4,0.6
2023-02-22T01:00:00,2353A,114.9886,27.8431,新余市,飞宇,颗粒物(PM10),66,82,70,38,36,98,59,59,59,20,20,18,23,0.5,0.2
2023-02-22T01:00:00,2354A,114.9231,27.8246,新余市,第二水厂,颗粒物(PM10),62,74,70,41,36,92,57,57,57,22,19,17,14,0.2,0.2
2023-02-22T01:00:00,2355A,114.9308,27.8036,新余市,市气象局,颗粒物(PM10),66,82,81,45,40,96,62,62,62,28,24,19,13,0.5,0.2
2023-02-22T01:00:00,2357A,116.9822,28.1136,鹰潭市,龙虎山,,45,45,44,29,31,130,79,79,79,4,3,6,6,0.6,0.7
2023-02-22T01:00:00,2358A,117.0564,28.2642,鹰潭市,新监测站,颗粒物(PM10),52,53,54,23,34,141,85,85,85,23,19,14,9,0.3,0.4
2023-02-22T01:00:00,2359A,117.0311,28.2475,鹰潭市,财苑宾馆,颗粒物(PM10),51,52,51,24,29,128,68,68,68,20,17,12,10,0.3,0.3
2023-02-22T01:00:00,2360A,117.0222,28.2264,鹰潭市,体育馆,,43,43,51,27,31,132,71,71,71,18,18,14,11,0.0,0.1
2023-02-22T01:00:00,2361A,117.0017,28.2131,鹰潭市,三川水表,颗粒物(PM10),53,56,64,34,35,124,66,66,66,26,26,7,6,0.4,0.3
2023-02-22T01:00:00,2362A,114.9017,25.9149,赣州市,通天岩,颗粒物(PM10),52,54,66,29,37,132,95,95,95,2,3,8,10,0.9,1
2023-02-22T01:00:00,2363A,114.9367,25.8664,赣州市,地委,颗粒物(PM10),54,58,76,32,43,133,106,106,106,19,19,10,24,0.9,1.1
2023-02-22T01:00:00,2364A,114.9461,25.8481,赣州市,气象台,,48,48,63,25,46,127,104,104,104,14,15,17,25,0.6,0.8
2023-02-22T01:00:00,2365A,114.9322,25.8333,赣州市,市图书馆,颗粒物(PM10),58,65,71,35,43,126,106,106,106,13,13,13,20,0.9,1.1
2023-02-22T01:00:00,2366A,114.8905,25.8471,赣州市,华坚鞋城,颗粒物(PM10),56,61,72,30,41,103,87,87,87,17,20,7,8,0.8,0.9
2023-02-22T01:00:00,2367A,114.9754,27.0803,吉安市,红声器材厂,颗粒物(PM10),54,57,72,32,41,124,84,84,84,32,27,15,11,0.7,0.7
2023-02-22T01:00:00,2368A,114.9658,27.0999,吉安市,市森林工业局,颗粒物(PM10),54,58,68,36,46,127,94,94,94,23,19,9,10,0.5,0.7
2023-02-22T01:00:00,2369A,114.99,27.1312,吉安市,市环境监测站,颗粒物(PM10),53,55,69,32,43,122,89,89,89,29,24,13,12,0.4,0.5
2023-02-22T01:00:00,2370A,115.0093,27.0968,吉安市,青原区法院,颗粒物(PM10),52,54,67,33,42,129,98,98,98,27,26,14,11,0.5,0.6
2023-02-22T01:00:00,2371A,114.3408,27.8064,宜春市,槟榔水业,"颗粒物(PM10),细颗粒物(PM2.5)",53,56,61,37,37,99,74,74,74,16,17,14,14,0.5,0.5
2023-02-22T01:00:00,2373A,114.3956,27.7844,宜春市,市石油公司,,,70,67,40,45,123,57,57,57,,22,6,5,0.5,0.6
2023-02-22T01:00:00,2374A,114.3703,27.7914,宜春市,市气象局,细颗粒物(PM2.5),57,60,66,40,41,120,73,73,73,35,28,11,9,0.5,0.4
2023-02-22T01:00:00,2375A,114.4013,27.8074,宜春市,市广电局,细颗粒物(PM2.5),60,67,67,43,47,128,101,101,101,27,24,9,8,0.7,0.8
2023-02-22T01:00:00,2376A,116.2127,28.0814,抚州市,桐源党溪,颗粒物(PM10),57,63,54,38,32,136,53,53,53,1,1,2,5,0.3,0.2
2023-02-22T01:00:00,2377A,116.3544,27.9831,抚州市,市站,颗粒物(PM10),62,74,64,38,36,125,72,72,72,19,22,5,7,0.5,0.5
2023-02-22T01:00:00,2378A,116.3565,27.963,抚州市,血防站,颗粒物(PM10),65,79,68,40,36,121,70,70,70,16,18,9,10,0.5,0.6
2023-02-22T01:00:00,2379A,116.3564,28.0007,抚州市,采茶剧团,颗粒物(PM10),61,72,61,37,34,118,60,60,60,17,19,4,7,0.8,0.7
2023-02-22T01:00:00,2380A,116.385,27.9647,抚州市,医学分院,颗粒物(PM10),60,69,65,38,35,82,62,62,62,18,20,6,9,0.8,0.8
2023-02-22T01:00:00,2381A,118.005,28.4572,上饶市,百草园,,,,,,,,,,,,,,,,
2023-02-22T01:00:00,2382A,117.9756,28.4436,上饶市,市监测站,颗粒物(PM10),55,59,61,26,26,123,56,56,56,28,21,27,18,0.4,0.4
2023-02-22T01:00:00,2383A,117.9519,28.4628,上饶市,凤凰光学,颗粒物(PM10),54,57,63,25,24,118,49,49,49,28,18,11,12,0.5,0.5
2023-02-22T01:00:00,2385A,114.17,35.9019,鹤壁市,市监测站,颗粒物(PM10),61,72,63,42,40,86,36,36,36,33,28,15,15,0.5,0.6
2023-02-22T01:00:00,2386A,114.2956,35.7511,鹤壁市,市交警支队,颗粒物(PM10),53,56,58,28,30,86,44,44,44,30,30,13,22,0.3,0.4
2023-02-22T01:00:00,2387A,114.2878,35.7306,鹤壁市,迎宾馆,细颗粒物(PM2.5),59,50,50,42,34,94,42,42,42,29,30,12,17,0.4,0.5
2023-02-22T01:00:00,2389A,113.836,35.311,新乡市,环保西院,细颗粒物(PM2.5),62,62,60,44,29,89,45,45,45,28,24,6,9,0.4,0.4
2023-02-22T01:00:00,2390A,113.884,35.272,新乡市,开发区,颗粒物(PM10),65,79,63,46,29,93,33,33,33,37,23,8,11,0.5,0.6
2023-02-22T01:00:00,2391A,113.883,35.303,新乡市,环保东院,细颗粒物(PM2.5),63,61,56,45,34,91,33,33,33,35,22,9,11,0.6,0.6
2023-02-22T01:00:00,2392A,115.0312,35.7636,濮阳市,环保局,,45,42,41,31,23,91,55,55,55,23,21,10,16,0.4,0.4
2023-02-22T01:00:00,2394A,115.0574,35.7609,濮阳市,油田运输公司,颗粒物(PM10),54,58,57,34,25,97,58,58,58,21,19,10,15,0.3,0.6
2023-02-22T01:00:00,2395A,115.0866,35.7754,濮阳市,油田物探公司,细颗粒物(PM2.5),53,52,46,37,28,92,46,46,46,27,22,11,16,0.5,0.5
2023-02-22T01:00:00,2396A,113.8276,34.0159,许昌市,监测站,颗粒物(PM10),57,63,60,38,35,88,46,46,46,27,20,10,6,0.3,0.3
2023-02-22T01:00:00,2398A,113.7906,33.9953,许昌市,开发区,细颗粒物(PM2.5),55,57,53,39,28,86,30,30,30,36,17,4,4,0.5,0.4
2023-02-22T01:00:00,2399A,114.051,33.5699,漯河市,三五一五工厂,,46,46,72,22,36,87,58,58,58,18,19,8,8,0.3,0.4
2023-02-22T01:00:00,2400A,114.0055,33.5698,漯河市,漯河大学,颗粒物(PM10),51,51,72,25,37,89,64,64,64,18,20,8,9,0.3,0.4
2023-02-22T01:00:00,2401A,114.0138,33.5828,漯河市,市水利局,,41,41,68,22,33,91,65,65,65,16,17,9,10,0.2,0.3
2023-02-22T01:00:00,2402A,114.0261,33.5698,漯河市,市广电局,,42,42,70,25,33,86,60,60,60,13,15,8,9,0.3,0.4
2023-02-22T01:00:00,2404A,112.5224,33.0122,南阳市,瓦房庄,颗粒物(PM10),51,52,84,33,47,80,58,58,58,22,23,6,7,0.4,0.5
2023-02-22T01:00:00,2405A,112.5003,32.9735,南阳市,汉画馆,颗粒物(PM10),55,59,82,31,47,85,66,66,66,14,19,4,6,0.4,0.5
2023-02-22T01:00:00,2406A,112.5573,33.027,南阳市,气象站,颗粒物(PM10),56,62,85,37,48,84,62,62,62,15,22,7,8,0.4,0.5
2023-02-22T01:00:00,2407A,112.5481,32.9689,南阳市,理工学院,颗粒物(PM10),54,58,82,25,41,90,56,56,56,20,20,5,7,0.5,0.5
2023-02-22T01:00:00,2408A,115.6702,34.4285,商丘市,环境监测站,细颗粒物(PM2.5),55,54,50,39,19,80,60,60,60,20,18,7,6,0.2,0.2
2023-02-22T01:00:00,2409A,115.6458,34.4045,商丘市,粮食局,,50,50,43,32,22,82,60,60,60,16,14,8,6,0.4,0.4
2023-02-22T01:00:00,2410A,115.6293,34.3948,商丘市,睢阳区环保局,颗粒物(PM10),52,53,50,25,22,82,54,54,54,26,19,8,7,0.2,0.2
2023-02-22T01:00:00,2420A,114.0189,32.9656,驻马店市,市一纸厂,细颗粒物(PM2.5),68,63,79,49,50,88,58,58,58,21,22,7,8,0.4,0.4
2023-02-22T01:00:00,2421A,114.0114,33.015,驻马店市,市彩印厂,颗粒物(PM10),53,55,72,31,37,87,58,58,58,17,19,8,9,0.2,0.3
2023-02-22T01:00:00,2422A,113.9976,32.9771,驻马店市,天方二分厂,细颗粒物(PM2.5),58,60,74,41,39,82,54,54,54,25,26,2,3,0.4,0.4
2023-02-22T01:00:00,2423A,115.0601,30.2313,黄石市,沈家营,颗粒物(PM10),58,65,72,29,38,112,57,57,57,27,31,9,10,0.5,0.6
2023-02-22T01:00:00,2424A,115.0817,30.2006,黄石市,陈家湾,,42,42,69,25,49,111,63,63,63,20,27,11,21,0.4,0.9
2023-02-22T01:00:00,2426A,114.8988,30.2019,黄石市,铁山,颗粒物(PM10),53,55,67,27,50,121,68,68,68,20,18,5,5,0.7,0.9
2023-02-22T01:00:00,2427A,115.0307,30.2092,黄石市,团城山,颗粒物(PM10),52,54,68,15,39,121,69,69,69,15,20,8,11,0.5,0.7
