timepoint,stationcode,longitude,latitude,area,positionname,primarypollutant,aqi,pm10,pm10_24h,pm2_5,pm2_5_24h,o3,o3_24h,o3_8h,o3_8h_24h,no2,no2_24h,so2,so2_24h,co,co_24h
2023-02-22T17:00:00,1001A,116.3621,39.8784,北京市,万寿西宫,细颗粒物(PM2.5),100,119,84,75,50,57,57,40,40,51,63,4,3,0.5,0.8
2023-02-22T17:00:00,1002A,116.2202,40.2915,北京市,定陵,细颗粒物(PM2.5),79,97,70,58,39,48,39,39,39,47,32,4,3,0.7,0.6
2023-02-22T17:00:00,1003A,116.4174,39.9289,北京市,东四,细颗粒物(PM2.5),90,115,91,67,49,51,44,36,36,55,56,5,4,0.5,0.5
2023-02-22T17:00:00,1004A,116.4072,39.8863,北京市,天坛,细颗粒物(PM2.5),93,110,79,69,48,51,50,36,36,45,53,5,3,0.6,0.7
2023-02-22T17:00:00,1005A,116.462,39.9365,北京市,农展馆,细颗粒物(PM2.5),92,118,91,68,50,48,40,34,34,60,56,5,4,0.7,0.7
2023-02-22T17:00:00,1006A,116.3392,39.9295,北京市,官园,细颗粒物(PM2.5),94,117,90,70,50,56,51,42,42,61,61,6,6,0.5,0.7
2023-02-22T17:00:00,1007A,116.2878,39.9611,北京市,海淀万柳,细颗粒物(PM2.5),92,125,91,68,48,39,29,25,25,69,62,4,4,0.7,0.7
2023-02-22T17:00:00,1008A,116.6636,40.135,北京市,顺义新城,细颗粒物(PM2.5),94,113,85,70,51,57,30,43,43,73,52,4,3,0.7,0.6
2023-02-22T17:00:00,1009A,116.6275,40.3275,北京市,怀柔镇,颗粒物(PM10),84,117,88,57,44,50,38,40,40,62,42,3,2,0.6,0.6
2023-02-22T17:00:00,1010A,116.2296,40.217,北京市,昌平镇,细颗粒物(PM2.5),79,103,83,58,42,41,31,31,31,61,44,5,3,0.7,0.5
2023-02-22T17:00:00,1011A,116.3966,39.9821,北京市,奥体中心,,,112,87,,50,53,38,32,32,63,60,5,5,0.7,0.7
2023-02-22T17:00:00,1012A,116.184,39.9136,北京市,古城,细颗粒物(PM2.5),92,122,88,68,46,57,44,42,42,56,53,4,3,0.7,0.7
2023-02-22T17:00:00,1015A,117.1444,39.1661,天津市,勤俭道,细颗粒物(PM2.5),95,120,82,71,48,68,68,57,57,31,43,13,12,0.7,0.7
2023-02-22T17:00:00,1017A,117.237,39.1082,天津市,大直沽八号路,细颗粒物(PM2.5),97,124,85,72,47,65,62,52,52,32,42,14,12,0.7,0.6
2023-02-22T17:00:00,1018A,117.202,39.0927,天津市,前进道,,,116,82,70,48,69,68,55,55,,47,12,9,0.8,0.7
2023-02-22T17:00:00,1019A,117.1837,39.2133,天津市,淮河道,颗粒物(PM10),92,134,100,66,47,69,68,56,56,34,44,13,12,0.6,0.6
2023-02-22T17:00:00,1021A,117.307,39.0877,天津市,跃进路,细颗粒物(PM2.5),94,119,81,70,46,70,68,55,55,33,46,15,13,0.9,0.8
2023-02-22T17:00:00,1023A,117.707,39.0343,天津市,第四大街,细颗粒物(PM2.5),99,132,82,74,43,62,60,49,49,33,43,12,10,1.0,0.7
2023-02-22T17:00:00,1024A,117.457,38.8394,天津市,永明路,细颗粒物(PM2.5),93,120,74,69,40,73,73,55,55,30,38,13,15,0.7,0.6
2023-02-22T17:00:00,1026A,117.764,39.1587,天津市,汉北路,细颗粒物(PM2.5),98,117,76,73,41,60,56,48,48,40,49,17,12,1.3,0.8
2023-02-22T17:00:00,1027A,117.157,38.9194,天津市,团泊洼,细颗粒物(PM2.5),98,124,77,73,45,123,64,52,52,30,46,15,11,1.0,0.8
2023-02-22T17:00:00,1029A,114.4422,38.0444,石家庄市,职工医院,细颗粒物(PM2.5),110,146,93,83,47,80,80,51,51,36,51,13,11,1.0,0.7
2023-02-22T17:00:00,1030A,114.6063,38.0266,石家庄市,高新区,细颗粒物(PM2.5),84,110,86,62,42,74,74,53,53,38,45,12,8,0.8,0.5
2023-02-22T17:00:00,1031A,114.4898,38.1328,石家庄市,西北水源,细颗粒物(PM2.5),110,122,92,83,47,71,64,46,46,42,47,12,7,0.8,0.5
2023-02-22T17:00:00,1032A,114.4586,38.0058,石家庄市,西南高教,细颗粒物(PM2.5),102,105,90,76,46,74,74,51,51,38,51,13,11,1.0,0.7
2023-02-22T17:00:00,1033A,114.5331,38.0178,石家庄市,世纪公园,细颗粒物(PM2.5),109,104,82,82,44,69,69,45,45,39,42,12,8,1.3,0.9
2023-02-22T17:00:00,1034A,114.509,38.0457,石家庄市,人民会堂,细颗粒物(PM2.5),98,125,84,73,43,78,70,53,53,40,39,15,9,0.9,0.5
2023-02-22T17:00:00,1035A,114.3524,37.8911,石家庄市,封龙山,细颗粒物(PM2.5),92,123,73,68,42,84,84,74,74,44,27,16,11,1.3,1
2023-02-22T17:00:00,1037A,118.131,39.6363,唐山市,雷达站,,,,64,,35,66,46,51,51,,40,10,8,0.6,0.7
2023-02-22T17:00:00,1038A,118.1725,39.6334,唐山市,物资局,颗粒物(PM10),76,102,63,47,35,60,49,48,48,63,48,15,12,0.8,0.7
2023-02-22T17:00:00,1040A,118.1705,39.6506,唐山市,十二中,细颗粒物(PM2.5),113,112,66,85,41,57,42,45,45,75,53,12,9,0.8,0.8
2023-02-22T17:00:00,1041A,118.1869,39.622,唐山市,小山,颗粒物(PM10),86,122,67,62,31,64,51,50,50,58,43,12,8,0.7,0.6
2023-02-22T17:00:00,1042A,119.5134,39.8207,秦皇岛市,北戴河环保局,,,,57,48,32,74,60,58,58,47,33,13,13,1.3,1.4
2023-02-22T17:00:00,1043A,119.7493,40.0116,秦皇岛市,第一关,颗粒物(PM10),82,114,67,54,33,69,55,60,60,50,32,12,11,0.9,1.1
2023-02-22T17:00:00,1044A,119.5897,39.9499,秦皇岛市,监测站,颗粒物(PM10),75,100,71,52,35,66,52,54,54,54,36,15,14,0.9,1.1
2023-02-22T17:00:00,1046A,119.5251,39.9041,秦皇岛市,建设大厦,颗粒物(PM10),78,105,71,38,30,68,60,59,59,50,36,17,16,0.9,1.1
2023-02-22T17:00:00,1048A,114.5302,36.6116,邯郸市,东污水处理厂,细颗粒物(PM2.5),78,94,73,57,35,86,68,59,59,29,24,13,14,0.6,0.5
2023-02-22T17:00:00,1049A,114.4918,36.5713,邯郸市,矿院,细颗粒物(PM2.5),85,93,70,63,42,86,65,51,50,27,25,10,13,0.5,0.5
2023-02-22T17:00:00,1050A,114.484,36.6133,邯郸市,丛台公园,细颗粒物(PM2.5),72,92,59,52,34,87,68,55,55,24,22,10,10,0.6,0.6
2023-02-22T17:00:00,1051A,115.493,38.8632,保定市,游泳馆,细颗粒物(PM2.5),103,105,82,77,50,81,76,52,52,32,52,20,14,0.6,0.6
2023-02-22T17:00:00,1052A,115.5213,38.8959,保定市,华电二区,细颗粒物(PM2.5),108,108,75,81,46,73,71,45,45,38,54,14,11,0.5,0.4
2023-02-22T17:00:00,1053A,115.4713,38.9108,保定市,接待中心,细颗粒物(PM2.5),109,103,77,82,40,72,69,46,46,36,51,13,9,1.1,1
2023-02-22T17:00:00,1054A,115.4612,38.8416,保定市,地表水厂,颗粒物(PM10),88,125,104,52,43,76,67,50,50,37,55,17,11,0.6,0.5
2023-02-22T17:00:00,1056A,115.5086,38.8639,保定市,监测站,"颗粒物(PM10),细颗粒物(PM2.5)",83,115,83,61,46,81,76,50,50,39,54,15,10,1.2,0.9
2023-02-22T17:00:00,1057A,114.8883,40.8336,张家口市,人民公园,"颗粒物(PM10),细颗粒物(PM2.5)",63,76,57,45,34,81,77,66,66,34,25,8,12,0.6,0.7
2023-02-22T17:00:00,1059A,114.8687,40.8042,张家口市,五金库,,,,52,46,38,69,59,58,58,53,33,7,6,0.5,0.5
2023-02-22T17:00:00,1060A,114.8902,40.762,张家口市,世纪豪园,细颗粒物(PM2.5),80,87,61,59,40,67,67,53,53,39,29,10,6,0.9,0.8
2023-02-22T17:00:00,1061A,114.8916,40.8661,张家口市,北泵房,细颗粒物(PM2.5),77,74,56,56,42,86,80,70,70,38,30,11,15,1.2,1
2023-02-22T17:00:00,1062A,117.9531,40.9081,承德市,铁路,颗粒物(PM10),65,80,70,41,39,75,53,47,47,43,46,25,14,0.8,1
2023-02-22T17:00:00,1063A,117.9392,40.9763,承德市,中国银行,"颗粒物(PM10),细颗粒物(PM2.5)",77,104,63,56,38,62,55,53,53,41,39,25,10,1.0,0.8
2023-02-22T17:00:00,1064A,117.9503,40.928,承德市,开发区,"颗粒物(PM10),细颗粒物(PM2.5)",68,85,63,49,41,63,59,52,52,43,45,23,14,0.9,0.9
2023-02-22T17:00:00,1065A,117.8051,40.9655,承德市,文化中心,细颗粒物(PM2.5),110,140,90,83,54,62,50,42,42,50,45,77,29,2.2,1.2
2023-02-22T17:00:00,1066A,117.9268,41.0026,承德市,离宫,细颗粒物(PM2.5),74,92,57,54,38,68,45,49,49,28,24,29,13,1.2,0.8
2023-02-22T17:00:00,1067A,116.6708,39.5111,廊坊市,药材公司,细颗粒物(PM2.5),84,108,91,62,53,73,73,54,54,34,50,9,9,0.7,0.7
2023-02-22T17:00:00,1068A,116.7214,39.5589,廊坊市,开发区,颗粒物(PM10),76,101,83,55,48,74,74,57,57,47,56,15,11,0.7,0.8
2023-02-22T17:00:00,1070A,116.7244,39.5269,廊坊市,北华航天学院,颗粒物(PM10),90,130,96,64,54,68,68,50,50,47,60,11,10,0.6,0.7
2023-02-22T17:00:00,1071A,116.8842,38.2991,沧州市,沧县城建局,颗粒物(PM10),91,132,96,55,46,88,88,71,71,25,40,12,17,0.6,0.7
2023-02-22T17:00:00,1072A,116.8584,38.3254,沧州市,电视转播站,,,,74,58,44,86,86,69,69,31,44,14,18,0.7,0.8
2023-02-22T17:00:00,1073A,116.8709,38.3228,沧州市,市环保局,颗粒物(PM10),78,105,77,49,37,85,83,65,65,36,47,10,14,0.4,0.4
2023-02-22T17:00:00,1074A,115.6838,37.7541,衡水市,电机北厂,颗粒物(PM10),79,107,76,45,32,87,87,69,69,12,22,5,8,0.4,0.5
2023-02-22T17:00:00,1075A,115.6303,37.7316,衡水市,市监测站,颗粒物(PM10),80,109,72,45,36,87,87,67,67,16,28,7,10,0.2,0.4
2023-02-22T17:00:00,1077A,114.4704,37.0886,邢台市,达活泉,细颗粒物(PM2.5),93,118,96,69,55,81,70,50,50,34,34,8,14,0.7,1.2
2023-02-22T17:00:00,1078A,114.5062,37.0349,邢台市,邢师高专,细颗粒物(PM2.5),73,90,79,53,45,82,69,50,50,24,38,10,12,0.5,0.8
2023-02-22T17:00:00,1079A,114.5237,37.0851,邢台市,路桥公司,细颗粒物(PM2.5),74,94,82,54,44,81,68,48,48,31,43,11,13,0.6,0.9
2023-02-22T17:00:00,1080A,114.4725,37.0719,邢台市,市环保局,细颗粒物(PM2.5),94,112,94,70,52,81,72,56,56,28,34,10,13,0.3,0.8
2023-02-22T17:00:00,1081A,112.522,37.8873,太原市,尖草坪,细颗粒物(PM2.5),124,130,133,94,87,93,93,63,63,,62,12,17,1.0,1
2023-02-22T17:00:00,1083A,112.434,38.0108,太原市,上兰,,,,,,,,,,,,,,,,
2023-02-22T17:00:00,1084A,112.469,37.7124,太原市,晋源,细颗粒物(PM2.5),124,132,144,94,95,98,98,67,67,28,53,15,17,0.9,1.1
2023-02-22T17:00:00,1085A,112.5583,37.7394,太原市,小店,细颗粒物(PM2.5),122,125,136,92,95,96,96,78,78,33,40,11,15,0.8,1
2023-02-22T17:00:00,1086A,112.5369,37.8692,太原市,桃园,细颗粒物(PM2.5),143,148,141,109,96,87,87,62,62,38,51,10,16,1.0,1
2023-02-22T17:00:00,1087A,112.57,37.8195,太原市,坞城,细颗粒物(PM2.5),135,142,139,103,95,90,90,64,64,40,56,13,19,0.9,1
2023-02-22T17:00:00,1088A,112.549,37.9854,太原市,南寨,细颗粒物(PM2.5),127,117,123,96,86,73,69,55,55,58,56,23,15,1.5,1.1
2023-02-22T17:00:00,1090A,111.6507,40.7517,呼和浩特市,呼市一监,细颗粒物(PM2.5),115,95,89,87,83,62,62,36,36,24,27,12,10,0.7,0.7
2023-02-22T17:00:00,1091A,111.6572,40.8033,呼和浩特市,小召,细颗粒物(PM2.5),107,107,105,80,82,51,51,30,30,38,38,15,14,0.8,0.8
2023-02-22T17:00:00,1094A,111.7516,40.8369,呼和浩特市,如意水处理厂,细颗粒物(PM2.5),114,122,123,86,85,56,48,39,39,40,33,17,13,0.8,0.8
2023-02-22T17:00:00,1095A,111.7276,40.8062,呼和浩特市,二十九中,细颗粒物(PM2.5),115,117,114,87,86,60,60,37,37,26,30,10,11,0.7,0.8
2023-02-22T17:00:00,1096A,111.5512,40.7866,呼和浩特市,工大金川校区,细颗粒物(PM2.5),109,107,106,82,84,64,62,37,37,25,30,9,8,0.7,0.8
2023-02-22T17:00:00,1097A,111.717,40.7612,呼和浩特市,化肥厂生活区,细颗粒物(PM2.5),100,104,114,75,78,63,63,38,38,27,30,10,11,0.7,0.8
2023-02-22T17:00:00,1098A,123.6836,41.9339,沈阳市,森林路,,,,,,,,,,,,,,,,
2023-02-22T17:00:00,1099A,123.505,41.7406,沈阳市,浑南东路,颗粒物(PM10),53,56,57,30,34,71,63,66,66,27,48,14,19,0.7,1.2
2023-02-22T17:00:00,1100A,123.4231,41.6989,沈阳市,新秀街,颗粒物(PM10),55,60,57,33,34,72,68,67,67,22,38,12,19,0.7,1
2023-02-22T17:00:00,1102A,123.5903,41.8411,沈阳市,东陵路,颗粒物(PM10),51,52,64,34,35,72,69,66,66,23,43,15,19,0.6,1.1
2023-02-22T17:00:00,1103A,123.4264,41.8467,沈阳市,陵东街,颗粒物(PM10),59,68,50,36,26,73,59,65,65,42,41,20,21,1.0,0.8
2023-02-22T17:00:00,1104A,123.4114,41.7653,沈阳市,文化路,颗粒物(PM10),67,83,60,40,34,75,67,69,69,26,30,14,19,0.9,1.1
2023-02-22T17:00:00,1105A,123.4678,41.7867,沈阳市,小河沿,颗粒物(PM10),58,65,56,34,31,73,62,66,66,34,41,19,21,0.8,1.1
2023-02-22T17:00:00,1106A,123.4017,41.7972,沈阳市,太原街,细颗粒物(PM2.5),69,70,57,50,39,66,44,56,56,49,39,24,24,1.1,1.1
2023-02-22T17:00:00,1108A,123.3783,41.9228,沈阳市,京沈街,颗粒物(PM10),68,85,70,37,30,74,63,67,67,36,36,16,20,1.0,1
2023-02-22T17:00:00,1109A,121.612,38.9741,大连市,甘井子,颗粒物(PM10),70,90,53,44,26,75,54,64,64,50,34,14,16,0.9,0.6
2023-02-22T17:00:00,1110A,121.565,38.9511,大连市,周水子,颗粒物(PM10),73,96,55,40,23,73,51,66,65,52,31,28,12,1.1,0.7
2023-02-22T17:00:00,1111A,121.5637,38.8845,大连市,星海三站,颗粒物(PM10),60,69,45,38,24,68,64,64,62,32,25,8,10,0.9,0.6
2023-02-22T17:00:00,1112A,121.6302,38.9117,大连市,青泥洼桥,颗粒物(PM10),59,68,40,41,23,79,71,73,73,32,19,17,13,1.0,0.7
2023-02-22T17:00:00,1113A,121.6251,38.8638,大连市,傅家庄,颗粒物(PM10),67,84,43,38,20,79,79,75,75,24,18,10,9,0.9,0.6
2023-02-22T17:00:00,1114A,121.5213,38.8661,大连市,七贤岭,颗粒物(PM10),60,70,43,38,22,81,61,65,65,40,21,15,9,1.0,0.7
2023-02-22T17:00:00,1115A,121.2529,38.8061,大连市,旅顺,细颗粒物(PM2.5),57,57,33,40,21,72,61,70,65,41,20,15,10,0.7,0.6
2023-02-22T17:00:00,1116A,121.7485,39.1311,大连市,金州,颗粒物(PM10),58,65,41,39,23,77,70,66,66,33,27,17,14,0.9,0.7
2023-02-22T17:00:00,1117A,121.7811,39.0496,大连市,开发区,细颗粒物(PM2.5),54,46,34,38,25,68,55,61,61,42,31,15,10,0.8,0.6
2023-02-22T17:00:00,1118A,121.9762,39.0631,大连市,双D港,,50,50,30,35,20,80,72,75,75,36,22,8,8,1.0,0.7
2023-02-22T17:00:00,1119A,125.3325,43.9166,长春市,食品厂,颗粒物(PM10),99,148,72,45,35,62,54,57,57,36,40,10,17,0.9,0.7
2023-02-22T17:00:00,1120A,125.2863,43.9027,长春市,客车厂,颗粒物(PM10),96,142,78,49,35,68,53,62,62,43,40,33,19,0.7,0.6
2023-02-22T17:00:00,1121A,125.2841,43.8463,长春市,邮电学院,颗粒物(PM10),91,132,72,44,33,70,56,65,65,43,33,18,14,0.9,0.7
2023-02-22T17:00:00,1122A,125.3716,43.8772,长春市,劳动公园,细颗粒物(PM2.5),102,128,64,76,35,71,66,68,68,33,30,16,18,0.7,0.6
2023-02-22T17:00:00,1123A,125.3297,43.8805,长春市,园林处,颗粒物(PM10),85,119,71,38,30,63,54,60,60,39,32,18,14,0.9,0.7
2023-02-22T17:00:00,1124A,125.4605,43.79,长春市,净月潭,颗粒物(PM10),84,117,55,27,21,79,64,71,71,23,11,9,7,0.8,0.6
2023-02-22T17:00:00,1125A,125.7194,43.515,长春市,甩湾子,,,,,,,,,,,,,,,,
2023-02-22T17:00:00,1126A,125.3863,43.8447,长春市,经开区环卫处,颗粒物(PM10),82,113,61,38,29,69,63,66,66,32,27,15,12,0.8,0.6
2023-02-22T17:00:00,1127A,125.245,43.7783,长春市,高新区管委会,颗粒物(PM10),80,109,68,50,38,73,71,70,70,24,28,10,9,0.8,0.8
2023-02-22T17:00:00,1128A,125.1761,43.8325,长春市,岱山公园,颗粒物(PM10),80,109,74,44,33,69,60,63,63,26,37,8,11,0.8,0.7
2023-02-22T17:00:00,1129A,126.5422,45.755,哈尔滨市,岭北,颗粒物(PM10),56,61,65,30,39,86,69,75,75,20,22,17,30,0.8,0.7
2023-02-22T17:00:00,1130A,126.561,45.8167,哈尔滨市,松北商大,颗粒物(PM10),56,61,58,38,37,87,68,74,74,32,30,9,12,0.5,0.6
2023-02-22T17:00:00,1131A,126.979,45.5419,哈尔滨市,阿城会宁,细颗粒物(PM2.5),80,103,60,59,37,82,68,78,77,32,18,13,13,0.9,0.6
2023-02-22T17:00:00,1132A,126.599,45.7222,哈尔滨市,南岗学府路,颗粒物(PM10),65,79,67,44,41,86,70,79,79,30,31,17,18,0.6,0.6
2023-02-22T17:00:00,1133A,126.689,45.7733,哈尔滨市,太平宏伟公园,,,,68,67,46,85,73,74,74,28,40,9,15,0.8,0.8
2023-02-22T17:00:00,1134A,126.635,45.7667,哈尔滨市,道外承德广场,颗粒物(PM10),59,67,66,33,41,77,66,68,68,29,36,12,17,0.7,0.8
2023-02-22T17:00:00,1135A,126.685,45.7319,哈尔滨市,香坊红旗大街,细颗粒物(PM2.5),64,71,79,46,50,80,70,70,70,29,44,17,24,0.6,0.7
2023-02-22T17:00:00,1136A,126.6411,45.7258,哈尔滨市,动力和平路,颗粒物(PM10),63,75,68,41,45,78,66,70,70,32,41,17,20,0.7,0.8
2023-02-22T17:00:00,1137A,126.593,45.7478,哈尔滨市,道里建国路,颗粒物(PM10),61,72,66,38,42,76,62,66,66,33,39,12,17,0.6,0.8
2023-02-22T17:00:00,1138A,126.615,45.61,哈尔滨市,平房东轻厂,颗粒物(PM10),65,80,68,41,43,81,63,74,74,34,22,15,14,0.8,0.5
2023-02-22T17:00:00,1139A,126.595,45.9855,哈尔滨市,呼兰师专,,,70,61,50,36,77,,66,66,31,28,12,18,0.5,0.5
2023-02-22T17:00:00,1140A,126.6206,45.6842,哈尔滨市,省农科院,细颗粒物(PM2.5),69,80,70,50,40,85,65,76,76,36,41,24,23,0.4,0.6
2023-02-22T17:00:00,1141A,121.4,31.238,上海市,普陀,,42,42,35,14,12,78,58,76,66,41,23,6,4,0.6,0.5
2023-02-22T17:00:00,1142A,121.478,31.2036,上海市,十五厂,,47,47,32,17,14,66,38,65,59,58,29,6,6,0.8,0.7
2023-02-22T17:00:00,1143A,121.467,31.3008,上海市,虹口,,29,29,32,19,13,73,57,65,56,28,18,6,6,0.6,0.6
2023-02-22T17:00:00,1144A,121.412,31.1654,上海市,徐汇上师大,,41,41,31,16,9,68,42,67,59,50,24,9,8,0.8,0.7
2023-02-22T17:00:00,1145A,121.536,31.2659,上海市,杨浦四漂,,39,39,32,15,12,73,52,69,60,43,26,8,7,0.5,0.5
2023-02-22T17:00:00,1147A,121.425,31.2261,上海市,静安监测站,,45,45,33,15,11,77,53,77,62,48,26,10,7,0.9,0.7
2023-02-22T17:00:00,1148A,121.703,31.1907,上海市,浦东川沙,,27,27,35,14,11,78,75,75,75,19,17,4,4,0.5,0.5
2023-02-22T17:00:00,1149A,121.533,31.2284,上海市,浦东新区监测站,,38,38,31,15,12,68,50,65,61,38,22,6,5,0.6,0.6
2023-02-22T17:00:00,1150A,121.577,31.2071,上海市,浦东张江,,30,30,30,4,7,67,62,65,64,27,20,4,4,0.5,0.5
2023-02-22T17:00:00,1151A,118.8086,32.1065,南京市,迈皋桥,颗粒物(PM10),59,68,50,27,16,72,38,58,56,34,17,5,4,0.4,0.3
2023-02-22T17:00:00,1152A,118.7538,32.0551,南京市,草场门,颗粒物(PM10),59,68,48,24,15,64,33,59,51,42,20,5,4,0.4,0.3
2023-02-22T17:00:00,1153A,118.7794,32.0745,南京市,山西路,颗粒物(PM10),59,68,51,34,18,67,34,60,52,40,24,3,4,0.5,0.3
2023-02-22T17:00:00,1154A,118.7752,32.0023,南京市,中华门,颗粒物(PM10),58,66,48,24,17,62,30,56,49,47,24,7,6,0.6,0.5
2023-02-22T17:00:00,1155A,118.8109,32.0309,南京市,瑞金路,颗粒物(PM10),58,66,48,27,17,63,32,53,49,47,26,4,4,0.6,0.4
2023-02-22T17:00:00,1156A,118.7997,32.0754,南京市,玄武湖,颗粒物(PM10),58,66,52,32,19,59,33,54,48,39,28,4,3,0.4,0.3
2023-02-22T17:00:00,1157A,118.6414,32.0931,南京市,浦口,颗粒物(PM10),63,75,51,27,19,72,40,54,52,44,28,6,3,0.8,0.5
2023-02-22T17:00:00,1158A,118.7356,31.9996,南京市,奥体中心,颗粒物(PM10),55,60,52,34,19,67,34,60,51,58,36,5,4,0.8,0.6
2023-02-22T17:00:00,1159A,118.9125,32.1028,南京市,仙林大学城,颗粒物(PM10),56,61,45,29,18,68,41,62,55,38,19,7,5,0.5,0.4
2023-02-22T17:00:00,1160A,120.561,31.2472,苏州市,上方山,,43,43,37,18,16,66,46,60,58,35,21,6,6,0.5,0.4
2023-02-22T17:00:00,1162A,120.591,31.3019,苏州市,彩香,颗粒物(PM10),52,53,39,24,16,81,53,70,69,38,18,5,5,0.6,0.5
2023-02-22T17:00:00,1163A,120.596,31.3264,苏州市,轧钢厂,颗粒物(PM10),54,57,39,24,14,71,44,64,62,36,19,5,5,0.5,0.4
2023-02-22T17:00:00,1164A,120.613,31.2703,苏州市,吴中区,颗粒物(PM10),57,63,38,22,14,70,47,65,63,40,24,6,6,0.4,0.5
2023-02-22T17:00:00,1165A,120.543,31.2994,苏州市,苏州新区,,50,50,37,23,17,78,48,62,61,35,19,4,4,0.4,0.4
2023-02-22T17:00:00,1166A,120.669,31.3097,苏州市,苏州工业园区,颗粒物(PM10),51,52,38,26,15,76,52,71,65,31,16,6,6,0.5,0.4
2023-02-22T17:00:00,1167A,120.641,31.3708,苏州市,相城区,颗粒物(PM10),52,54,38,25,15,77,45,72,58,39,18,5,5,0.4,0.4
2023-02-22T17:00:00,1168A,120.9098,31.9663,南通市,狼山街道,,44,44,37,12,13,85,76,77,77,15,17,4,4,0.4,0.3
2023-02-22T17:00:00,1169A,120.86,32.0005,南通市,虹桥,,,47,41,21,15,80,73,74,74,,20,,4,0.3,0.3
2023-02-22T17:00:00,1170A,120.87,32.02,南通市,城中,,47,47,38,19,18,75,70,70,70,16,20,5,5,0.2,0.2
2023-02-22T17:00:00,1171A,120.94,31.93,南通市,星湖花园,,42,42,37,17,14,79,72,72,72,11,18,4,4,0.4,0.3
2023-02-22T17:00:00,1172A,120.81,32.0417,南通市,紫琅学院,,46,46,42,12,13,77,69,68,68,14,19,5,5,0.2,0.2
2023-02-22T17:00:00,1173A,119.176,34.5885,连云港市,市环境监测站,颗粒物(PM10),51,51,39,19,12,80,64,73,72,21,15,8,8,0.2,0.2
2023-02-22T17:00:00,1177A,117.179,34.2761,徐州市,黄河新村,,39,39,50,23,22,82,67,63,63,20,23,8,11,0.6,0.7
2023-02-22T17:00:00,1178A,117.1918,34.2384,徐州市,淮塔,,46,46,58,19,21,88,66,65,65,26,25,6,9,0.5,0.6
2023-02-22T17:00:00,1180A,117.256,34.2153,徐州市,新城区,,39,39,53,18,23,83,72,68,68,15,21,8,11,0.7,0.8
2023-02-22T17:00:00,1181A,117.244,34.2911,徐州市,桃园路,,41,41,54,12,15,78,64,59,59,17,21,6,12,0.6,0.6
2023-02-22T17:00:00,1182A,117.2933,34.2778,徐州市,农科院,,41,41,51,12,14,78,72,66,66,11,25,6,11,0.4,0.5
2023-02-22T17:00:00,1186A,119.389,32.3761,扬州市,邗江监测站,颗粒物(PM10),52,53,49,29,21,77,61,64,58,28,25,3,4,0.4,0.4
2023-02-22T17:00:00,1188A,120.269,31.4867,无锡市,雪浪,颗粒物(PM10),54,58,42,17,15,63,46,51,49,43,29,6,7,0.2,0.2
2023-02-22T17:00:00,1189A,120.275,31.6219,无锡市,黄巷,颗粒物(PM10),53,56,49,22,17,60,38,42,42,41,37,7,7,1.0,0.8
2023-02-22T17:00:00,1190A,120.294,31.56,无锡市,曹张,,48,48,40,24,16,61,42,48,45,36,27,5,5,0.6,0.5
2023-02-22T17:00:00,1191A,120.242,31.5031,无锡市,漆塘,颗粒物(PM10),54,58,41,17,15,71,42,59,52,49,29,8,8,0.4,0.4
2023-02-22T17:00:00,1192A,120.3489,31.5863,无锡市,东亭,,,,41,,15,64,37,46,46,35,28,,8,1.3,0.7
2023-02-22T17:00:00,1193A,120.354,31.5475,无锡市,旺庄,颗粒物(PM10),51,51,41,19,17,64,40,50,46,39,30,3,3,0.6,0.5
2023-02-22T17:00:00,1194A,120.245,31.5631,无锡市,荣巷,,48,48,41,22,16,67,48,56,50,33,25,9,9,0.5,0.4
2023-02-22T17:00:00,1195A,120.299,31.6817,无锡市,堰桥,颗粒物(PM10),52,53,41,24,16,55,31,44,41,34,21,8,8,0.9,0.8
2023-02-22T17:00:00,1196A,119.9633,31.762,常州市,市监测站,颗粒物(PM10),60,70,49,37,24,65,40,55,46,47,37,6,6,0.6,0.5
2023-02-22T17:00:00,1200A,119.9468,31.7069,常州市,武进监测站,颗粒物(PM10),58,65,49,32,22,65,37,55,50,46,30,6,7,0.6,0.5
2023-02-22T17:00:00,1201A,119.9255,31.9087,常州市,安家,颗粒物(PM10),61,72,44,36,23,78,50,58,56,32,25,7,6,0.6,0.4
2023-02-22T17:00:00,1203A,119.6707,32.1875,镇江市,新区办事处,颗粒物(PM10),56,61,51,28,21,73,61,71,56,28,22,1,2,0.7,0.5
2023-02-22T17:00:00,1204A,119.4974,32.1968,镇江市,职教中心,,47,47,40,26,18,80,67,74,56,24,26,5,4,0.4,0.4
2023-02-22T17:00:00,1205A,119.4303,32.1328,镇江市,丹徒区监测站,颗粒物(PM10),55,59,51,30,22,69,53,62,50,33,26,4,3,0.6,0.4
2023-02-22T17:00:00,1206A,119.905,32.4878,泰州市,公园路,,,41,42,19,19,77,65,63,63,,15,7,6,,0.8
2023-02-22T17:00:00,1207A,119.9189,32.4625,泰州市,莲花,,35,32,40,24,22,79,69,68,68,18,16,7,7,0.7,0.7
2023-02-22T17:00:00,1209A,119.888,32.4639,泰州市,留学生创业园,颗粒物(PM10),51,51,50,22,18,79,67,66,66,17,15,7,7,0.5,0.6
2023-02-22T17:00:00,1210A,119.036,33.5981,淮安市,钵池山,颗粒物(PM10),52,53,41,31,18,84,60,66,66,24,21,6,5,0.7,0.5
2023-02-22T17:00:00,1211A,119.007,33.575,淮安市,北京南路,颗粒物(PM10),53,56,44,18,15,78,57,65,58,25,21,8,7,0.7,0.6
2023-02-22T17:00:00,1212A,118.989,33.6067,淮安市,市监测站,颗粒物(PM10),52,53,43,24,13,86,63,72,65,26,22,8,6,0.8,0.5
2023-02-22T17:00:00,1213A,119.135,33.5039,淮安市,楚州区监测站,,39,39,44,20,18,78,67,64,64,16,23,6,6,0.7,0.6
2023-02-22T17:00:00,1214A,119.0186,33.6297,淮安市,淮阴区监测站,,50,50,49,30,19,79,54,65,60,30,24,10,9,0.7,0.5
2023-02-22T17:00:00,1215A,120.118,33.4022,盐城市,盐城电厂,,,,45,,15,89,,81,81,15,25,9,8,0.4,0.5
2023-02-22T17:00:00,1216A,120.156,33.3942,盐城市,市监测站,,29,29,41,18,16,85,74,78,78,15,27,7,6,0.4,0.5
2023-02-22T17:00:00,1218A,120.2144,33.38,盐城市,开发区管委会,,40,40,42,9,11,86,79,81,81,16,20,4,4,0.4,0.4
2023-02-22T17:00:00,1220A,118.293,33.9528,宿迁市,宿迁学院,颗粒物(PM10),52,54,49,25,18,81,73,70,70,18,21,7,6,0.5,0.5
2023-02-22T17:00:00,1221A,118.2442,33.9592,宿迁市,宿迁中学,,41,41,44,17,17,79,73,73,70,16,16,7,8,0.3,0.4
2023-02-22T17:00:00,1223A,120.2072,30.2111,杭州市,滨江,颗粒物(PM10),54,58,41,25,18,75,67,68,68,36,25,8,8,0.6,0.5
2023-02-22T17:00:00,1224A,120.0633,30.2747,杭州市,西溪,颗粒物(PM10),55,60,35,21,19,78,72,74,74,35,23,4,4,0.5,0.4
2023-02-22T17:00:00,1226A,120.3461,30.3153,杭州市,下沙,颗粒物(PM10),64,77,42,43,19,76,70,74,72,37,24,7,7,0.4,0.4
2023-02-22T17:00:00,1227A,120.1269,30.2456,杭州市,卧龙桥,,49,49,37,24,16,86,65,73,73,39,24,6,6,0.5,0.5
2023-02-22T17:00:00,1228A,120.1903,30.2692,杭州市,浙江农大,颗粒物(PM10),54,57,36,27,18,79,63,75,72,39,21,6,5,0.5,0.4
2023-02-22T17:00:00,1230A,120.1197,30.3119,杭州市,和睦小学,颗粒物(PM10),58,65,41,30,20,78,53,72,68,51,26,5,5,0.5,0.4
2023-02-22T17:00:00,1231A,120.3019,30.4183,杭州市,临平镇,颗粒物(PM10),58,66,45,30,17,80,80,74,74,24,21,7,7,0.4,0.4
2023-02-22T17:00:00,1232A,120.2697,30.1819,杭州市,城厢镇,颗粒物(PM10),56,61,45,36,21,74,69,70,70,38,24,8,7,0.4,0.4
2023-02-22T17:00:00,1233A,120.0883,30.1808,杭州市,云栖,,41,41,37,20,16,83,82,78,78,22,25,5,5,0.5,0.5
2023-02-22T17:00:00,1234A,121.8358,29.911,宁波市,区环保大楼,,32,30,24,22,13,80,72,75,75,31,26,4,4,0.3,0.6
2023-02-22T17:00:00,1235A,121.56,29.82,宁波市,万里学院,,45,45,37,26,19,84,79,77,77,34,25,6,6,0.3,0.3
2023-02-22T17:00:00,1236A,121.713,29.9572,宁波市,龙赛医院,,37,37,39,13,12,85,77,81,81,25,19,5,4,0.3,0.5
2023-02-22T17:00:00,1239A,121.633,29.7733,宁波市,钱湖水厂,,47,47,35,22,16,81,76,74,74,34,21,8,6,0.3,0.4
2023-02-22T17:00:00,1240A,121.5856,29.8635,宁波市,太古小学,,36,36,30,20,13,83,72,73,73,31,23,9,9,0.4,0.5
2023-02-22T17:00:00,1241A,121.524,29.8674,宁波市,市环境监测中心,,40,40,31,20,8,87,76,74,74,26,21,6,5,0.4,0.4
2023-02-22T17:00:00,1242A,120.634,28.0089,温州市,瓯海,颗粒物(PM10),53,56,37,27,16,83,71,76,76,34,26,8,9,0.3,0.3
2023-02-22T17:00:00,1243A,120.6748,27.9939,温州市,南浦,,50,50,36,25,18,86,78,79,79,31,18,8,6,0.3,0.3
2023-02-22T17:00:00,1244A,120.76,27.9747,温州市,龙湾,颗粒物(PM10),54,58,35,22,14,81,81,73,73,33,27,8,7,0.2,0.3
2023-02-22T17:00:00,1245A,120.6709,28.0167,温州市,市站,颗粒物(PM10),52,54,42,26,15,84,73,74,74,44,26,8,6,0.4,0.3
2023-02-22T17:00:00,1247A,120.6053,29.9928,绍兴市,城东开发委,颗粒物(PM10),51,52,35,25,14,83,81,73,73,25,16,6,5,0.6,0.6
2023-02-22T17:00:00,1250A,120.0751,30.8669,湖州市,城西水厂,,38,38,37,26,17,77,70,70,70,25,22,6,6,0.3,0.3
2023-02-22T17:00:00,1252A,120.7436,30.778,嘉兴市,清河小学,颗粒物(PM10),52,53,38,23,15,69,64,65,61,24,21,6,5,0.3,0.8
2023-02-22T17:00:00,1253A,120.726,30.7478,嘉兴市,嘉兴学院,,,41,38,,16,68,64,63,62,,27,4,4,,0.4
2023-02-22T17:00:00,1255A,121.273,28.6459,台州市,黄岩环保大楼,,,42,35,39,15,100,92,86,86,16,22,8,8,,0.2
2023-02-22T17:00:00,1256A,121.419,28.6542,台州市,台州环保大楼,,35,35,35,19,20,98,96,89,89,16,21,8,9,0.4,0.3
2023-02-22T17:00:00,1257A,121.377,28.5773,台州市,路桥田洋王,,34,34,36,19,15,102,99,93,93,16,18,7,7,0.3,0.3
2023-02-22T17:00:00,1258A,122.122,30.0203,舟山市,定海檀枫,,30,30,30,12,11,87,76,81,81,22,14,5,4,0.2,0.3
2023-02-22T17:00:00,1259A,122.3094,29.9558,舟山市,普陀东港,,34,34,26,18,12,92,80,83,83,12,8,5,5,0.4,0.4
2023-02-22T17:00:00,1260A,122.19,29.9944,舟山市,临城新区,,36,36,30,24,12,87,65,79,77,38,18,5,5,0.1,0.3
2023-02-22T17:00:00,1262A,119.647,29.077,金华市,十五中,颗粒物(PM10),55,59,49,30,23,117,112,94,94,24,26,6,5,0.5,0.5
2023-02-22T17:00:00,1263A,119.686,29.1029,金华市,监测站,细颗粒物(PM2.5),64,55,41,46,24,124,116,100,100,26,31,7,6,0.4,0.5
2023-02-22T17:00:00,1264A,118.8692,28.9398,衢州市,环保大楼,颗粒物(PM10),55,59,48,35,25,92,88,77,77,21,23,6,5,0.5,0.5
2023-02-22T17:00:00,1265A,118.8709,28.9666,衢州市,实验学校,颗粒物(PM10),53,55,47,32,24,107,105,88,88,19,18,9,6,0.4,0.5
2023-02-22T17:00:00,1266A,118.8621,28.9808,衢州市,衢州学院,颗粒物(PM10),52,53,46,29,25,96,92,79,79,16,16,7,7,0.4,0.4
2023-02-22T17:00:00,1267A,119.914,28.4514,丽水市,监测站大楼,,37,37,35,14,15,90,89,81,81,15,16,8,8,0.2,0.2
2023-02-22T17:00:00,1268A,119.93,28.4586,丽水市,莲都小学,,,31,37,14,15,103,97,97,97,12,17,7,7,,0.2
2023-02-22T17:00:00,1269A,119.879,28.4231,丽水市,余庄前,,32,24,33,13,20,103,101,88,88,15,18,8,8,0.2,0.2
2023-02-22T17:00:00,1270A,117.1959,31.7848,合肥市,明珠广场,颗粒物(PM10),58,66,58,27,23,53,31,41,31,45,37,8,8,0.7,0.7
2023-02-22T17:00:00,1271A,117.3072,31.8764,合肥市,三里街,颗粒物(PM10),56,61,51,32,28,62,44,48,40,30,29,5,5,0.5,0.5
2023-02-22T17:00:00,1272A,117.2588,31.8707,合肥市,琥珀山庄,颗粒物(PM10),54,58,55,24,23,53,47,53,44,37,35,5,5,0.7,0.7
2023-02-22T17:00:00,1273A,117.1604,31.9052,合肥市,董铺水库,颗粒物(PM10),59,68,55,27,20,69,49,51,47,24,21,5,5,0.4,0.4
2023-02-22T17:00:00,1274A,117.25,31.8571,合肥市,长江中路,颗粒物(PM10),57,63,52,39,29,68,45,48,41,28,25,10,10,0.8,0.7
2023-02-22T17:00:00,1275A,117.266,31.9436,合肥市,庐阳区,颗粒物(PM10),59,68,52,27,21,63,43,48,44,29,23,6,6,0.5,0.5
2023-02-22T17:00:00,1276A,117.336,31.8586,合肥市,瑶海区,颗粒物(PM10),62,73,57,31,23,64,46,44,44,29,28,6,5,0.7,0.7
2023-02-22T17:00:00,1277A,117.3027,31.7964,合肥市,包河区,颗粒物(PM10),59,68,57,31,27,42,27,30,30,46,42,9,8,0.7,0.6
2023-02-22T17:00:00,1278A,117.2776,31.7385,合肥市,滨湖新区,颗粒物(PM10),60,70,56,29,21,61,41,45,40,39,28,6,6,0.7,0.5
2023-02-22T17:00:00,1279A,117.1318,31.8403,合肥市,高新区,颗粒物(PM10),60,70,54,27,24,62,36,48,41,41,31,6,6,0.8,0.7
2023-02-22T17:00:00,1280A,119.3903,26.0543,福州市,鼓山,,,,,,,,,,,,,,,,
2023-02-22T17:00:00,1282A,119.2681,26.0504,福州市,师大,,42,42,31,13,8,109,79,88,83,24,17,4,4,0.4,0.3
2023-02-22T17:00:00,1283A,119.2984,26.1028,福州市,五四北路,,35,35,28,14,9,102,77,86,78,24,15,3,3,0.3,0.3
2023-02-22T17:00:00,1284A,119.2648,26.0768,福州市,杨桥西路,,28,28,31,9,8,108,84,87,84,12,10,3,3,0.3,0.3
2023-02-22T17:00:00,1285A,119.317,26.0746,福州市,紫阳,,39,39,30,9,6,101,78,82,77,20,14,3,3,0.5,0.4
2023-02-22T17:00:00,1286A,118.1608,24.8169,厦门市,溪东,,,,,,,,,,,,,,,,
2023-02-22T17:00:00,1287A,118.1514,24.4767,厦门市,洪文,,34,34,36,15,12,94,74,94,70,26,26,2,2,0.2,0.2
2023-02-22T17:00:00,1288A,118.0661,24.4444,厦门市,鼓浪屿,,29,29,36,16,13,108,91,108,87,22,25,3,3,0.2,0.1
2023-02-22T17:00:00,1290A,115.8931,28.6843,南昌市,省外办,颗粒物(PM10),66,81,85,45,36,123,52,55,55,31,26,9,10,0.3,0.4
2023-02-22T17:00:00,1291A,115.8886,28.7003,南昌市,省林业公司,细颗粒物(PM2.5),64,70,75,46,40,122,52,55,55,35,24,6,9,0.3,0.6
2023-02-22T17:00:00,1292A,115.8126,28.7442,南昌市,林科所,颗粒物(PM10),62,73,70,39,34,126,51,64,54,28,20,8,8,0.6,0.6
2023-02-22T17:00:00,1294A,115.8518,28.687,南昌市,建工学校,颗粒物(PM10),59,68,78,37,34,121,50,56,53,29,21,5,6,0.6,0.6
2023-02-22T17:00:00,1295A,115.8921,28.6424,南昌市,象湖,细颗粒物(PM2.5),70,58,58,51,41,120,51,52,51,27,20,7,8,0.7,0.8
2023-02-22T17:00:00,1296A,115.7423,28.7996,南昌市,武术学校,细颗粒物(PM2.5),53,43,46,37,38,113,56,58,58,10,5,6,5,0.3,0.4
2023-02-22T17:00:00,1298A,115.9314,28.6842,南昌市,省站,颗粒物(PM10),59,67,82,41,38,117,54,57,57,22,18,5,6,0.6,0.5
2023-02-22T17:00:00,1299A,116.9862,36.6114,济南市,科干所,,,,61,,25,80,77,76,76,17,23,9,11,0.7,0.6
2023-02-22T17:00:00,1300A,116.9376,36.665,济南市,农科所,颗粒物(PM10),62,73,72,32,27,73,69,68,68,26,37,7,10,0.5,0.6
2023-02-22T17:00:00,1301A,117.1265,36.6734,济南市,开发区,,44,44,50,26,25,88,82,81,81,9,24,10,12,0.3,0.4
2023-02-22T17:00:00,1303A,117.0624,36.6868,济南市,省种子仓库,颗粒物(PM10),53,56,60,24,29,82,78,77,77,17,25,9,21,0.3,0.4
2023-02-22T17:00:00,1304A,116.9489,36.6447,济南市,机床二厂,颗粒物(PM10),59,68,74,34,30,77,76,73,73,22,33,10,14,0.6,0.6
2023-02-22T17:00:00,1305A,117.0495,36.663,济南市,市监测站,颗粒物(PM10),53,56,57,29,27,84,79,79,79,26,33,7,10,0.5,0.5
2023-02-22T17:00:00,1306A,116.7675,36.5484,济南市,长清党校,颗粒物(PM10),62,73,71,42,31,82,81,73,73,26,33,11,14,0.6,0.7
2023-02-22T17:00:00,1307A,120.6659,36.2403,青岛市,仰口,,35,29,38,24,52,84,83,80,80,15,10,2,2,0.5,0.4
2023-02-22T17:00:00,1310A,120.4134,36.0658,青岛市,市南区东部子站,,29,29,38,12,14,97,81,88,88,21,16,11,8,0.7,0.5
2023-02-22T17:00:00,1311A,120.3664,36.1032,青岛市,四方区子站,,44,44,43,17,13,82,61,73,73,37,24,9,7,0.7,0.4
2023-02-22T17:00:00,1312A,120.2994,36.054,青岛市,市南区西部子站,,48,48,44,15,12,98,76,84,84,28,21,10,9,0.6,0.3
2023-02-22T17:00:00,1313A,120.4581,36.0858,青岛市,崂山区子站,,36,36,41,14,11,99,86,92,92,19,21,9,8,0.3,0.2
2023-02-22T17:00:00,1314A,120.1983,35.9608,青岛市,黄岛区子站,,48,48,39,27,17,96,74,82,82,30,22,8,6,0.6,0.5
2023-02-22T17:00:00,1315A,120.3999,36.3083,青岛市,城阳区子站,颗粒物(PM10),51,51,54,27,21,75,62,66,66,32,31,5,6,0.5,0.5
2023-02-22T17:00:00,1316A,113.69031,34.76122,郑州市,烟厂,,35,27,54,24,36,79,69,68,68,21,24,4,7,0.3,0.4
2023-02-22T17:00:00,1317A,113.65724,34.77134,郑州市,郑纺机,,29,22,52,20,33,81,73,72,72,16,27,3,5,0.4,0.5
2023-02-22T17:00:00,1318A,113.67526,34.80246,郑州市,银行学校,,30,28,48,21,38,80,74,73,73,12,19,5,7,0.7,0.8
2023-02-22T17:00:00,1319A,113.56746,34.81334,郑州市,供水公司,,32,24,52,22,36,90,77,81,81,14,23,4,6,0.4,0.5
2023-02-22T17:00:00,1320A,113.7329,34.7178,郑州市,经开区管委,,29,24,48,20,34,79,74,68,68,13,24,7,9,0.4,0.5
2023-02-22T17:00:00,1321A,113.73961,34.77172,郑州市,四十七中,,29,28,51,20,34,72,69,66,66,15,24,3,5,0.4,0.5
2023-02-22T17:00:00,1322A,113.60532,34.74838,郑州市,市监测站,,48,34,56,33,39,79,71,74,74,13,21,5,8,0.2,0.5
2023-02-22T17:00:00,1323A,113.64164,34.7525,郑州市,河医大,,33,26,52,23,34,76,70,70,70,13,20,3,6,0.4,0.5
2023-02-22T17:00:00,1324A,113.51488,34.91089,郑州市,岗李水库,,,,,,,,,,,,,,,,
2023-02-22T17:00:00,1325A,114.3677,30.5584,武汉市,东湖梨园,,,36,46,29,36,98,56,66,44,,32,,8,0.7,0.6
2023-02-22T17:00:00,1326A,114.2529,30.558,武汉市,汉阳月湖,细颗粒物(PM2.5),55,42,54,39,38,94,49,61,44,42,33,7,8,0.5,0.5
2023-02-22T17:00:00,1327A,114.282,30.6189,武汉市,汉口花桥,,42,24,52,29,31,81,43,57,42,33,27,6,6,0.5,0.6
2023-02-22T17:00:00,1328A,114.3025,30.5332,武汉市,武昌紫阳,细颗粒物(PM2.5),57,32,50,40,36,84,48,58,38,41,37,7,7,0.7,0.7
2023-02-22T17:00:00,1329A,114.3646,30.6217,武汉市,青山钢花,,,,53,39,38,84,49,62,42,32,36,8,9,0.7,0.6
2023-02-22T17:00:00,1330A,114.1566,30.4825,武汉市,沌口新区,细颗粒物(PM2.5),69,37,49,50,39,73,32,52,30,50,42,7,8,0.7,0.7
2023-02-22T17:00:00,1331A,114.3014,30.5944,武汉市,汉口江滩,细颗粒物(PM2.5),55,39,47,39,34,98,53,65,48,36,29,6,7,0.6,0.6
2023-02-22T17:00:00,1333A,114.135,30.6319,武汉市,吴家山,,42,33,49,29,33,70,48,53,39,29,38,5,7,0.4,0.4
2023-02-22T17:00:00,1334A,113.8454,30.2917,武汉市,沉湖七壕,,35,35,45,17,19,94,43,51,44,26,23,9,9,0.5,0.6
2023-02-22T17:00:00,1335A,113.0833,28.2325,长沙市,经开区环保局,细颗粒物(PM2.5),65,67,95,47,62,91,23,59,24,34,30,1,3,0.4,0.6
2023-02-22T17:00:00,1336A,112.8872,28.2189,长沙市,高开区环保局,细颗粒物(PM2.5),62,67,99,44,56,89,40,61,39,22,24,4,7,0.4,0.4
2023-02-22T17:00:00,1337A,113.0792,28.2053,长沙市,马坡岭,细颗粒物(PM2.5),62,61,95,44,60,96,27,63,28,31,26,6,8,0.4,0.5
2023-02-22T17:00:00,1338A,112.9394,28.19,长沙市,湖南师范大学,细颗粒物(PM2.5),59,58,85,42,56,87,34,55,34,22,24,3,5,0.4,0.5
2023-02-22T17:00:00,1339A,113.0178,28.1322,长沙市,雨花区环保局,细颗粒物(PM2.5),73,67,90,53,61,101,32,59,34,29,27,4,6,0.7,0.6
2023-02-22T17:00:00,1340A,112.9792,28.2597,长沙市,伍家岭,细颗粒物(PM2.5),53,53,92,37,49,97,36,68,37,26,25,5,7,0.6,0.8
2023-02-22T17:00:00,1341A,113.0014,28.1944,长沙市,火车新站,细颗粒物(PM2.5),64,64,88,46,64,86,29,52,31,30,29,5,7,0.5,0.6
2023-02-22T17:00:00,1342A,112.9844,28.1178,长沙市,天心区环保局,颗粒物(PM10),56,62,98,38,59,94,29,42,32,27,27,3,4,0.5,0.5
2023-02-22T17:00:00,1343A,112.8908,28.1308,长沙市,湖南中医药大学,,,62,92,43,59,92,,62,35,,25,,5,0.7,0.9
2023-02-22T17:00:00,1344A,112.9581,28.3611,长沙市,沙坪,细颗粒物(PM2.5),53,51,75,37,47,95,32,59,32,26,22,5,6,0.6,0.7
2023-02-22T17:00:00,1345A,113.2347,23.1423,广州市,广雅中学,臭氧1小时,88,93,71,45,33,190,190,136,136,42,40,6,6,0.6,0.5
2023-02-22T17:00:00,1346A,113.2612,23.105,广州市,市五中,臭氧1小时,98,80,68,44,37,198,198,145,145,24,31,8,9,0.7,0.7
2023-02-22T17:00:00,1348A,113.3478,23.0916,广州市,广东商学院,颗粒物(PM10),62,74,72,36,32,181,147,122,122,38,44,8,8,0.6,0.6
2023-02-22T17:00:00,1349A,113.4332,23.1047,广州市,市八十六中,颗粒物(PM10),73,96,86,44,35,161,150,123,123,34,46,11,7,0.7,0.8
2023-02-22T17:00:00,1350A,113.3505,22.9483,广州市,番禺中学,臭氧1小时,72,75,61,37,28,195,177,127,127,31,32,12,9,0.7,0.7
2023-02-22T17:00:00,1351A,113.2146,23.3916,广州市,花都师范,臭氧1小时,73,75,74,41,38,178,178,143,143,23,38,7,8,0.7,0.5
2023-02-22T17:00:00,1352A,113.2597,23.1331,广州市,市监测站,臭氧1小时,92,78,68,43,35,193,193,137,137,35,42,8,8,0.6,0.5
2023-02-22T17:00:00,1353A,113.5618,23.312,广州市,九龙镇镇龙,,49,49,66,29,33,129,129,111,111,14,36,6,6,0.6,0.6
2023-02-22T17:00:00,1354A,113.2765,23.1544,广州市,麓湖,臭氧1小时,103,90,61,49,31,206,206,152,152,33,43,6,6,0.7,0.6
2023-02-22T17:00:00,1355A,113.443,23.3035,广州市,帽峰山森林公园,,49,48,58,25,29,156,156,131,131,11,25,7,8,0.4,0.8
2023-02-22T17:00:00,1356A,114.1063,22.5545,深圳市,通心岭子站,颗粒物(PM10),52,54,38,21,14,151,114,112,112,28,12,4,4,0.4,0.4
2023-02-22T17:00:00,1357A,114.117,22.5625,深圳市,洪湖,,,,45,,14,164,152,128,128,20,17,9,8,0.5,0.3
2023-02-22T17:00:00,1358A,113.987,22.5417,深圳市,华侨城,颗粒物(PM10),57,64,44,25,15,153,100,108,108,48,20,8,7,0.5,0.5
2023-02-22T17:00:00,1359A,113.9181,22.5171,深圳市,南海子站,颗粒物(PM10),61,71,44,23,14,114,95,88,88,42,18,8,5,0.7,0.6
2023-02-22T17:00:00,1360A,114.2458,22.5689,深圳市,盐田,,46,31,34,12,12,147,147,119,119,13,21,7,7,0.5,0.5
2023-02-22T17:00:00,1361A,114.2283,22.7244,深圳市,龙岗,颗粒物(PM10),58,66,47,25,15,164,156,138,138,12,10,5,5,0.4,0.6
2023-02-22T17:00:00,1363A,114.494,22.5422,深圳市,南澳,,40,28,30,9,9,129,125,112,112,14,11,7,7,0.4,0.4
2023-02-22T17:00:00,1364A,114.41,22.6342,深圳市,葵涌,,38,31,32,14,15,120,120,103,103,17,14,6,6,0.4,0.4
2023-02-22T17:00:00,1365A,114.297,22.5978,深圳市,梅沙,,,37,37,8,9,138,138,112,112,,7,5,5,0.5,0.7
2023-02-22T17:00:00,1366A,114.0678,22.738,深圳市,观澜,臭氧1小时,79,80,55,35,19,183,183,144,144,31,24,8,8,0.5,0.5
2023-02-22T17:00:00,1367A,113.5814,22.2618,珠海市,吉大,,44,44,48,14,11,134,132,113,113,16,15,5,5,0.3,0.3
2023-02-22T17:00:00,1368A,113.4881,22.2335,珠海市,前山,,,56,36,21,14,130,130,110,110,33,22,5,6,,0.3
2023-02-22T17:00:00,1369A,113.628,22.4251,珠海市,唐家,颗粒物(PM10),52,53,52,24,20,166,140,126,126,18,18,4,5,0.3,0.3
2023-02-22T17:00:00,1370A,113.299,22.2281,珠海市,斗门,颗粒物(PM10),56,61,40,27,15,155,144,126,126,29,17,5,6,0.3,0.2
2023-02-22T17:00:00,1371A,113.1294,23.0067,佛山市,湾梁,臭氧1小时,107,92,78,40,34,213,213,140,140,26,33,7,9,0.7,0.6
2023-02-22T17:00:00,1372A,113.1083,23.0478,佛山市,华材职中,臭氧1小时,107,95,74,53,36,214,214,140,140,31,29,10,7,0.4,0.3
2023-02-22T17:00:00,1373A,113.144,23.0453,佛山市,南海气象局,臭氧1小时,95,75,64,43,31,196,196,128,128,33,34,9,9,0.7,0.6
2023-02-22T17:00:00,1374A,113.2881,22.8094,佛山市,顺德苏岗,臭氧1小时,68,56,56,34,26,194,174,125,125,23,27,12,10,0.5,0.4
2023-02-22T17:00:00,1376A,112.8383,22.8678,佛山市,高明孔堂,,,,67,,33,178,176,128,128,36,26,9,6,0.6,0.8
2023-02-22T17:00:00,1377A,112.8836,23.1588,佛山市,三水监测站,臭氧1小时,104,114,80,54,40,211,207,144,144,37,42,8,7,0.6,0.6
2023-02-22T17:00:00,1378A,112.867,23.185,佛山市,三水云东海,臭氧1小时,101,96,69,60,38,202,202,143,143,41,40,10,7,0.6,0.5
2023-02-22T17:00:00,1379A,113.3769,22.5211,中山市,华柏园,臭氧1小时,123,99,62,42,28,246,246,159,159,28,19,9,7,0.5,0.4
2023-02-22T17:00:00,1380A,113.3881,22.5497,中山市,张溪,臭氧1小时,121,97,61,51,25,242,242,157,157,32,22,6,5,0.5,0.5
2023-02-22T17:00:00,1381A,113.4075,22.5111,中山市,紫马岭,臭氧1小时,119,92,56,42,20,237,237,155,155,28,18,8,6,0.5,0.4
2023-02-22T17:00:00,1382A,113.4411,22.4853,中山市,长江旅游区,臭氧1小时,112,89,49,48,21,223,223,147,147,31,20,13,12,0.5,0.4
2023-02-22T17:00:00,1383A,113.1064,22.6058,江门市,北街,臭氧1小时,111,83,62,37,22,222,222,156,156,30,27,13,9,0.7,0.6
2023-02-22T17:00:00,1384A,113.0731,22.5835,江门市,西区,臭氧1小时,116,94,67,42,26,232,232,160,160,37,28,10,7,0.6,0.4
2023-02-22T17:00:00,1385A,113.0219,22.5311,江门市,圭峰西,臭氧1小时,114,92,60,58,27,228,228,153,153,37,27,10,6,0.8,0.7
2023-02-22T17:00:00,1386A,113.0828,22.5947,江门市,东湖,臭氧1小时,118,90,61,44,24,235,235,163,163,30,25,12,7,0.5,0.4
2023-02-22T17:00:00,1389A,113.7547,23.0494,东莞市,莞城梨川,臭氧1小时,60,63,58,32,27,168,168,137,137,22,25,12,11,0.6,0.6
2023-02-22T17:00:00,1390A,113.7944,23.0128,东莞市,东城石井,臭氧1小时,64,64,54,28,24,171,171,136,136,22,26,11,10,0.6,0.6
2023-02-22T17:00:00,1391A,113.7383,22.9658,东莞市,南城西平,臭氧1小时,62,70,59,31,30,169,169,127,127,23,30,8,8,0.4,0.4
2023-02-22T17:00:00,1392A,114.4183,23.0528,惠州市,河南岸金山湖子站,颗粒物(PM10),52,53,55,29,22,120,117,100,100,14,16,7,6,0.5,0.4
2023-02-22T17:00:00,1393A,114.4053,23.0822,惠州市,下埔横江三路子站,颗粒物(PM10),51,51,57,25,20,138,136,117,117,14,16,6,6,0.3,0.3
2023-02-22T17:00:00,1394A,114.4103,23.1142,惠州市,江北云山西路子站,颗粒物(PM10),51,52,54,26,21,138,135,117,117,11,13,7,7,0.5,0.5
2023-02-22T17:00:00,1395A,114.4645,22.7833,惠州市,惠阳区承修路船湖子站,颗粒物(PM10),58,66,55,22,23,140,140,118,118,19,14,7,6,0.5,0.5
2023-02-22T17:00:00,1396A,114.5317,22.7422,惠州市,大亚湾管委会子站,,43,43,53,18,19,94,87,76,76,27,31,6,6,0.6,0.6
2023-02-22T17:00:00,1397A,112.4267,23.0706,肇庆市,睦岗子站,臭氧1小时,98,82,78,43,42,198,198,134,134,28,41,12,13,0.5,0.6
2023-02-22T17:00:00,1398A,112.4645,23.0475,肇庆市,城中子站,臭氧1小时,99,88,82,47,48,199,199,129,129,25,43,10,15,0.5,0.6
2023-02-22T17:00:00,1399A,112.5544,23.1522,肇庆市,坑口子站,,,74,64,45,44,194,,133,133,23,26,12,11,0.5,0.5
2023-02-22T17:00:00,1400A,112.4753,23.1,肇庆市,七星岩子站,臭氧1小时,97,89,73,44,38,197,197,133,133,24,24,41,29,0.5,0.5
2023-02-22T17:00:00,1401A,108.3103,22.7881,南宁市,二十一中,细颗粒物(PM2.5),83,114,85,61,55,143,123,111,111,19,18,8,9,1.0,1
2023-02-22T17:00:00,1402A,108.3141,22.8528,南宁市,北湖,细颗粒物(PM2.5),78,95,93,57,59,137,123,96,95,17,19,9,11,0.8,0.9
2023-02-22T17:00:00,1403A,108.3206,22.8225,南宁市,市监测站,细颗粒物(PM2.5),103,110,91,77,61,133,121,106,106,27,27,9,10,0.8,0.9
2023-02-22T17:00:00,1404A,108.3829,22.8037,南宁市,大自然花园,细颗粒物(PM2.5),84,90,87,62,59,133,119,99,99,19,20,7,8,0.9,1
2023-02-22T17:00:00,1405A,108.4394,22.7904,南宁市,仙葫,细颗粒物(PM2.5),73,94,88,53,56,144,126,101,101,20,20,9,9,0.7,0.8
2023-02-22T17:00:00,1406A,108.2397,22.8467,南宁市,区农职院,细颗粒物(PM2.5),80,97,85,59,55,143,122,108,108,25,27,9,9,0.9,0.9
2023-02-22T17:00:00,1407A,108.3275,22.735,南宁市,英华嘉园,细颗粒物(PM2.5),74,80,84,54,60,129,114,97,97,19,23,7,8,0.7,0.8
2023-02-22T17:00:00,1408A,108.2257,22.7757,南宁市,沙井镇街道办,,,,92,61,53,123,99,94,94,,39,8,8,1.0,1
2023-02-22T17:00:00,1409A,110.576,19.9507,海口市,东寨港,,,40,40,10,14,78,74,73,71,,,6,5,0.5,0.6
2023-02-22T17:00:00,1410A,110.3232,20.0574,海口市,海南大学,,40,40,48,11,18,120,106,104,99,9,7,5,5,0.4,0.7
2023-02-22T17:00:00,1411A,110.283,20.0053,海口市,秀英海南医院,,48,48,51,14,19,123,105,109,103,9,11,4,4,0.5,0.6
2023-02-22T17:00:00,1412A,110.338,19.9969,海口市,海南师范大学,,49,49,51,14,19,121,102,106,101,6,8,4,4,0.6,0.7
2023-02-22T17:00:00,1413A,110.33,20.0356,海口市,龙华路环保局宿舍,,43,43,48,15,16,124,105,107,101,8,10,6,6,0.6,0.7
2023-02-22T17:00:00,1414A,106.3787,29.8279,重庆市,缙云山,,39,39,29,26,16,65,44,64,45,22,13,5,5,0.8,0.6
2023-02-22T17:00:00,1416A,106.4213,29.8253,重庆市,天生,,46,34,41,32,32,69,50,61,53,32,23,5,6,0.6,0.5
2023-02-22T17:00:00,1417A,106.6263,29.7228,重庆市,两路,,,34,37,32,27,48,39,41,41,39,27,,5,0.7,0.6
2023-02-22T17:00:00,1418A,106.2953,29.5983,重庆市,虎溪,细颗粒物(PM2.5),52,38,36,36,27,54,38,50,45,38,22,4,4,0.6,0.5
2023-02-22T17:00:00,1419A,106.5777,29.5102,重庆市,南坪,,44,44,45,28,32,46,26,44,34,38,23,5,5,0.5,0.4
2023-02-22T17:00:00,1420A,106.6556,29.6277,重庆市,唐家沱,,42,42,38,29,33,55,41,51,45,41,28,7,7,0.8,0.8
2023-02-22T17:00:00,1421A,106.6349,29.4906,重庆市,茶园,,50,49,45,35,35,44,32,40,36,42,33,5,5,0.6,0.6
2023-02-22T17:00:00,1422A,106.3754,29.4572,重庆市,白市驿,,44,44,36,30,34,54,36,51,38,38,30,5,6,0.6,0.6
2023-02-22T17:00:00,1425A,106.6205,29.7166,重庆市,空港,,48,31,32,33,32,62,48,55,54,37,28,5,5,0.6,0.6
2023-02-22T17:00:00,1426A,106.4782,29.4875,重庆市,新山村,,,,47,,33,50,32,48,33,,40,6,5,0.6,0.5
2023-02-22T17:00:00,1427A,106.5616,29.6453,重庆市,礼嘉,,41,41,40,27,28,51,38,48,41,42,34,6,6,0.7,0.5
2023-02-22T17:00:00,1428A,106.4522,29.7091,重庆市,蔡家,,50,40,37,35,30,64,53,56,56,34,22,4,4,0.6,0.5
2023-02-22T17:00:00,1429A,106.5093,29.3917,重庆市,鱼新街,,39,39,45,27,36,49,43,46,35,29,26,7,7,0.7,0.7
2023-02-22T17:00:00,1431A,103.9728,30.7236,成都市,金泉两河,,40,40,21,25,9,55,46,46,46,25,15,3,3,0.4,0.4
2023-02-22T17:00:00,1432A,104.176,30.6872,成都市,十里店,,48,38,20,33,13,48,44,42,42,30,20,2,1,0.5,0.5
2023-02-22T17:00:00,1433A,104.079,30.5706,成都市,三瓦窑,,,40,19,15,8,26,,,,26,15,1,1,0.3,0.3
2023-02-22T17:00:00,1434A,104.1114,30.63,成都市,沙河铺,,38,36,21,26,10,53,46,43,43,25,18,3,3,0.5,0.5
2023-02-22T17:00:00,1437A,104.0786,30.6531,成都市,君平街,,44,44,18,27,13,52,41,44,43,39,23,3,2,0.6,0.6
2023-02-22T17:00:00,1438A,103.613,31.0283,成都市,灵岩寺,,49,13,18,34,7,52,26,48,35,21,13,4,4,0.6,0.5
2023-02-22T17:00:00,1439A,106.6899,26.5998,贵阳市,马鞍山,,,17,12,14,12,75,45,64,50,22,14,,5,0.8,0.7
2023-02-22T17:00:00,1440A,106.6971,26.5694,贵阳市,市环保站,,22,17,14,15,12,74,47,71,47,28,20,4,3,0.7,0.5
2023-02-22T17:00:00,1441A,106.6243,26.6266,贵阳市,鉴湖路,,22,22,20,12,9,72,35,66,40,23,17,5,4,0.6,0.6
2023-02-22T17:00:00,1442A,106.7487,26.6343,贵阳市,燕子冲,,28,22,20,19,23,76,46,64,44,20,14,8,4,0.6,0.5
2023-02-22T17:00:00,1443A,106.6555,26.4365,贵阳市,碧云窝,,29,29,25,12,14,71,41,69,42,28,20,23,10,0.7,0.6
2023-02-22T17:00:00,1444A,106.694,26.5161,贵阳市,中院村,,29,29,26,12,14,68,41,68,41,32,24,30,13,0.7,0.6
2023-02-22T17:00:00,1445A,106.7109,26.6027,贵阳市,红边门,,25,19,18,17,15,71,45,70,45,28,19,29,10,0.7,0.6
2023-02-22T17:00:00,1446A,106.7164,26.5699,贵阳市,新华路,,17,17,18,9,11,74,48,72,48,19,14,14,6,0.5,0.5
2023-02-22T17:00:00,1447A,106.674,26.5424,贵阳市,太慈桥,,27,27,23,12,10,69,41,66,40,29,22,5,2,0.6,0.5
2023-02-22T17:00:00,1450A,102.8204,24.8886,昆明市,呈贡新区,颗粒物(PM10),52,54,46,29,34,122,114,106,106,10,18,5,6,0.6,0.7
2023-02-22T17:00:00,1451A,102.6251,24.9608,昆明市,西山森林公园,,38,32,34,26,25,123,121,109,109,9,10,5,6,0.7,0.8
2023-02-22T17:00:00,1452A,102.7252,25.0902,昆明市,龙泉镇,,43,43,42,25,29,118,110,102,102,12,17,6,6,0.8,0.9
2023-02-22T17:00:00,1453A,102.7266,25.0375,昆明市,东风东路,,43,43,45,28,33,112,105,93,93,16,19,6,6,0.7,0.8
2023-02-22T17:00:00,1454A,102.6742,25.0669,昆明市,金鼎山,,45,45,46,30,34,116,108,98,98,14,14,5,6,0.5,0.6
2023-02-22T17:00:00,1455A,102.6644,25.0401,昆明市,碧鸡广场,,,,,,,,,,,,,,,,
2023-02-22T17:00:00,1456A,91.1319,29.6514,拉萨市,八廓街,,36,25,75,8,28,114,114,98,98,13,15,5,4,0.2,0.3
2023-02-22T17:00:00,1457A,91.1221,29.6747,拉萨市,市环保局,细颗粒物(PM2.5),63,14,60,45,28,118,118,101,101,7,12,6,6,0.4,0.5
2023-02-22T17:00:00,1458A,91.0874,29.6475,拉萨市,区监测站,,40,24,63,7,17,126,126,109,109,10,12,6,6,0.5,0.6
2023-02-22T17:00:00,1459A,91.1774,29.6541,拉萨市,西藏大学,,38,16,59,4,13,120,120,105,105,8,10,5,5,0.4,0.4
2023-02-22T17:00:00,1460A,90.9798,29.6588,拉萨市,区辐射站,,40,19,70,5,36,127,125,103,103,10,18,6,7,0.5,0.6
2023-02-22T17:00:00,1461A,91.0834,29.6292,拉萨市,拉萨火车站,,38,17,63,9,19,121,121,103,103,8,11,8,8,0.4,0.4
2023-02-22T17:00:00,1462A,108.882,34.2749,西安市,高压开关厂,细颗粒物(PM2.5),134,117,116,102,85,67,42,22,22,46,50,7,7,0.6,0.5
2023-02-22T17:00:00,1463A,108.993,34.2629,西安市,兴庆小区,细颗粒物(PM2.5),133,81,81,101,90,76,19,13,13,55,45,6,7,0.9,0.7
2023-02-22T17:00:00,1464A,109.06,34.2572,西安市,纺织城,细颗粒物(PM2.5),142,97,92,108,88,66,24,14,14,58,54,4,7,0.8,0.7
2023-02-22T17:00:00,1465A,108.9356,34.2173,西安市,小寨,细颗粒物(PM2.5),133,128,127,101,87,73,20,21,21,55,51,5,7,0.7,0.6
2023-02-22T17:00:00,1466A,108.954,34.2713,西安市,市人民体育场,细颗粒物(PM2.5),140,100,90,107,93,65,16,12,12,55,46,7,9,0.9,0.7
2023-02-22T17:00:00,1467A,108.8922,34.2322,西安市,高新西区,,,,93,,88,21,,21,,,51,,7,,0.8
2023-02-22T17:00:00,1468A,108.935,34.3474,西安市,经开区,细颗粒物(PM2.5),142,87,87,108,93,75,38,22,22,50,41,6,6,0.7,0.6
2023-02-22T17:00:00,1469A,108.906,34.1546,西安市,长安区,细颗粒物(PM2.5),118,99,114,89,102,49,45,31,31,39,44,4,5,0.8,0.9
2023-02-22T17:00:00,1471A,109.2186,34.3731,西安市,临潼区,细颗粒物(PM2.5),123,96,99,93,87,91,43,23,23,,39,,10,1.0,0.8
2023-02-22T17:00:00,1472A,108.869,34.378,西安市,草滩,细颗粒物(PM2.5),69,82,80,50,48,52,38,29,29,48,34,8,9,0.4,0.4
2023-02-22T17:00:00,1473A,108.985,34.1978,西安市,曲江文化产业集团,细颗粒物(PM2.5),122,99,100,92,84,77,29,22,22,49,45,4,5,1.3,1.2
2023-02-22T17:00:00,1474A,109.051,34.3213,西安市,广运潭,细颗粒物(PM2.5),140,106,89,107,86,80,24,18,18,51,39,7,7,1.1,0.8
2023-02-22T17:00:00,1476A,103.631,36.1031,兰州市,兰炼宾馆,,,89,95,62,58,121,102,87,87,,64,,16,,1
2023-02-22T17:00:00,1477A,104.1373,35.9454,兰州市,榆中兰大校区,,,,,,,,,,,,,,,,
2023-02-22T17:00:00,1478A,103.8412,36.0726,兰州市,生物制品所,细颗粒物(PM2.5),53,53,68,37,41,102,102,65,65,34,60,5,9,0.4,0.6
2023-02-22T17:00:00,1479A,103.831,36.0464,兰州市,铁路设计院,细颗粒物(PM2.5),60,61,73,43,52,113,113,68,64,22,56,4,8,0.5,1
2023-02-22T17:00:00,1483A,101.524,36.6867,西宁市,第五水厂,,,,,,,,,,,,,,,,
2023-02-22T17:00:00,1484A,105.9512,38.6016,银川市,贺兰山马莲口,颗粒物(PM10),53,55,52,36,30,129,127,95,95,21,20,20,22,0.3,0.4
2023-02-22T17:00:00,1488A,106.2328,38.4975,银川市,贺兰山东路,细颗粒物(PM2.5),94,118,96,70,51,129,129,86,86,30,49,26,13,0.8,0.9
2023-02-22T17:00:00,1489A,106.1358,38.5036,银川市,学院路,颗粒物(PM10),66,82,92,43,41,115,115,75,75,24,45,13,14,1.0,1.2
2023-02-22T17:00:00,1490A,87.5801,43.8303,乌鲁木齐市,监测站,细颗粒物(PM2.5),320,325,271,270,202,79,75,38,31,101,98,8,6,2.7,2.9
2023-02-22T17:00:00,1491A,87.6046,43.768,乌鲁木齐市,收费所,,,,318,,206,27,,28,,,101,,5,,2.6
2023-02-22T17:00:00,1492A,87.4754,43.9469,乌鲁木齐市,新疆农科院农场,细颗粒物(PM2.5),387,307,256,337,263,129,129,63,63,51,79,10,11,2.6,2.6
2023-02-22T17:00:00,1493A,87.5525,43.8711,乌鲁木齐市,铁路局,细颗粒物(PM2.5),304,275,245,254,218,126,126,59,59,100,102,9,7,2.2,2.7
2023-02-22T17:00:00,1494A,87.6432,43.831,乌鲁木齐市,三十一中学,细颗粒物(PM2.5),297,286,257,247,200,103,88,69,69,76,72,12,10,2.3,2.5
2023-02-22T17:00:00,1496A,87.7216,44.1747,乌鲁木齐市,米东区环保局,细颗粒物(PM2.5),296,284,274,246,228,149,149,86,86,24,57,11,13,1.7,2.1
2023-02-22T17:00:00,1508A,112.9433,27.8614,湘潭市,板塘,细颗粒物(PM2.5),59,50,79,42,62,94,33,59,33,30,29,1,4,0.6,0.6
2023-02-22T17:00:00,1511A,112.9118,27.8403,湘潭市,市监测站,细颗粒物(PM2.5),59,59,86,42,59,95,34,64,35,34,30,6,8,0.5,0.5
2023-02-22T17:00:00,1512A,112.8937,27.8728,湘潭市,江麓,细颗粒物(PM2.5),59,63,88,42,62,107,47,77,45,17,16,7,8,0.7,0.8
2023-02-22T17:00:00,1513A,112.9227,27.8159,湘潭市,岳塘,细颗粒物(PM2.5),63,65,85,45,62,104,41,70,42,34,30,5,4,0.5,0.6
2023-02-22T17:00:00,1514A,112.9074,27.9119,湘潭市,科大,,,57,87,,63,102,35,66,34,20,28,4,6,0.3,0.4
2023-02-22T17:00:00,1515A,113.135,27.8244,株洲市,天台山庄,细颗粒物(PM2.5),70,80,118,51,62,105,33,53,35,27,29,4,6,0.7,0.7
2023-02-22T17:00:00,1518A,113.095,27.8867,株洲市,株冶医院,颗粒物(PM10),62,73,99,41,52,93,25,34,29,43,44,3,5,0.7,0.7
2023-02-22T17:00:00,1519A,113.167,27.8667,株洲市,市四中,,,87,95,57,62,106,32,49,35,31,37,,11,0.7,0.7
2023-02-22T17:00:00,1520A,113.143,27.8381,株洲市,火车站,细颗粒物(PM2.5),72,80,98,52,63,106,32,61,37,37,36,6,7,0.6,0.7
2023-02-22T17:00:00,1524A,113.13,27.8528,株洲市,市监测站,细颗粒物(PM2.5),80,80,96,59,74,102,30,48,35,34,35,10,10,0.8,0.8
2023-02-22T17:00:00,1552A,106.805,26.3003,贵阳市,桐木岭,,,,,,,,,,,,,,,,
2023-02-22T17:00:00,1559A,113.251,27.8336,株洲市,大京风景区,,,70,84,59,57,114,33,47,38,29,27,,6,0.5,0.6
2023-02-22T17:00:00,1562A,113.0048,27.9153,湘潭市,昭山,细颗粒物(PM2.5),70,70,94,51,64,92,30,57,33,18,17,1,3,0.4,0.5
2023-02-22T17:00:00,1564A,112.4876,27.9164,湘潭市,韶山,细颗粒物(PM2.5),52,45,65,36,56,49,8,37,8,18,17,5,8,0.6,0.7
2023-02-22T17:00:00,1585A,109.8756,40.6532,包头市,市环境监测站,颗粒物(PM10),68,86,68,47,50,109,109,60,60,34,39,23,14,1.5,1.1
2023-02-22T17:00:00,1587A,109.9991,40.5842,包头市,包头八中,颗粒物(PM10),65,79,76,38,62,113,113,71,71,25,36,17,17,0.8,1
2023-02-22T17:00:00,1588A,109.8538,40.6821,包头市,青山宾馆,细颗粒物(PM2.5),67,63,71,48,70,102,102,56,56,48,46,31,12,2.3,1.2
2023-02-22T17:00:00,1589A,109.8642,40.6288,包头市,惠龙物流,细颗粒物(PM2.5),82,82,70,60,44,109,109,61,61,32,45,21,11,0.6,0.7
2023-02-22T17:00:00,1590A,110.0377,40.5546,包头市,东河鸿龙湾,颗粒物(PM10),60,69,68,31,46,117,117,74,74,9,34,9,11,0.9,1.3
2023-02-22T17:00:00,1591A,110.0023,39.8129,鄂尔多斯市,综合楼,颗粒物(PM10),62,73,85,31,57,108,103,68,68,29,29,15,8,0.7,0.6
2023-02-22T17:00:00,1592A,109.9486,39.8261,鄂尔多斯市,巴音孟克林场办事处,颗粒物(PM10),53,56,76,29,54,114,113,75,75,15,26,16,11,0.7,0.8
2023-02-22T17:00:00,1593A,109.7736,39.5986,鄂尔多斯市,康泽苑,颗粒物(PM10),58,66,76,27,53,102,102,66,66,21,24,10,6,0.6,0.8
2023-02-22T17:00:00,1594A,109.8119,39.5989,鄂尔多斯市,华泰汽车城,颗粒物(PM10),56,61,75,31,58,108,108,72,72,17,23,9,8,0.6,0.7
2023-02-22T17:00:00,1595A,109.9734,39.7884,鄂尔多斯市,奥林花园,颗粒物(PM10),59,68,83,39,55,114,114,73,73,14,23,12,7,0.7,0.9
2023-02-22T17:00:00,1597A,122.2703,40.7094,营口市,大庆路,细颗粒物(PM2.5),64,66,35,46,23,76,67,72,72,36,27,12,10,0.9,0.7
2023-02-22T17:00:00,1598A,122.2150,40.6511,营口市,镜湖西路,"颗粒物(PM10),细颗粒物(PM2.5)",62,73,40,44,19,75,69,65,65,38,24,12,10,1.0,0.8
2023-02-22T17:00:00,1599A,122.1658,40.6789,营口市,西炮台,细颗粒物(PM2.5),62,68,32,44,17,84,74,77,77,39,23,12,11,1.1,0.6
2023-02-22T17:00:00,1600A,124.3303,40.0625,丹东市,江湾东路,,31,31,68,19,43,88,83,82,82,14,23,11,18,0.6,1.2
2023-02-22T17:00:00,1601A,124.4256,40.1503,丹东市,临江后街,,30,30,59,17,34,88,87,80,80,7,18,11,17,0.6,1
2023-02-22T17:00:00,1602A,124.3933,40.1461,丹东市,元宝山,,34,34,50,19,30,82,79,73,73,13,19,13,14,0.6,0.9
2023-02-22T17:00:00,1603A,124.3633,40.1092,丹东市,民主桥,,32,32,62,17,35,83,82,76,76,10,26,10,14,0.5,0.9
2023-02-22T17:00:00,1604A,122.0303,41.1489,盘锦市,开发区,细颗粒物(PM2.5),70,81,37,51,22,72,55,66,65,36,19,10,9,0.9,0.6
2023-02-22T17:00:00,1605A,122.0485,41.0883,盘锦市,兴隆台,颗粒物(PM10),63,76,37,44,22,68,51,62,62,39,27,12,11,0.8,0.4
2023-02-22T17:00:00,1606A,121.8297,41.1028,盘锦市,新生街道,细颗粒物(PM2.5),64,68,28,46,17,74,55,68,67,38,21,10,8,1.0,0.6
2023-02-22T17:00:00,1607A,120.9092,40.7136,葫芦岛市,龙港区,细颗粒物(PM2.5),87,92,54,64,30,72,64,60,60,38,22,13,14,1.3,1.2
2023-02-22T17:00:00,1608A,120.8392,40.7514,葫芦岛市,化工街,颗粒物(PM10),80,110,59,51,31,69,52,50,50,51,49,23,17,1.4,0.8
2023-02-22T17:00:00,1609A,120.8341,40.7073,葫芦岛市,新区,细颗粒物(PM2.5),84,99,54,62,33,70,61,54,54,40,35,17,25,1.4,1.2
2023-02-22T17:00:00,1610A,120.8695,40.7677,葫芦岛市,东城区,细颗粒物(PM2.5),102,106,58,76,33,63,56,51,51,46,41,22,19,1.4,1.1
2023-02-22T17:00:00,1611A,118.5819,24.9117,泉州市,涂山街,,49,49,34,24,13,108,75,103,79,27,15,10,9,0.4,0.4
2023-02-22T17:00:00,1612A,118.5972,24.8978,泉州市,津头埔,,41,41,32,25,13,107,75,103,76,31,20,10,8,0.4,0.3
2023-02-22T17:00:00,1613A,118.6663,24.9424,泉州市,万安,,48,47,37,33,14,110,84,102,81,21,14,9,8,0.4,0.3
2023-02-22T17:00:00,1614A,118.6117,24.9604,泉州市,清源山,,,,,,,,,,,,,,,,
2023-02-22T17:00:00,1616A,117.6795,36.229,济南市,技术学院,颗粒物(PM10),53,56,72,28,32,83,83,68,68,24,49,9,12,0.4,0.7
2023-02-22T17:00:00,1618A,118.3429,35.0532,临沂市,沂河小区,"颗粒物(PM10),细颗粒物(PM2.5)",63,75,52,45,29,77,63,65,63,30,22,23,14,0.6,0.5
2023-02-22T17:00:00,1619A,118.295,35.0583,临沂市,鲁南制药厂,颗粒物(PM10),59,68,53,37,23,74,72,70,65,27,30,23,18,0.3,0.3
2023-02-22T17:00:00,1620A,118.2794,34.9976,临沂市,新光毛纺厂,颗粒物(PM10),62,73,60,41,25,68,68,64,64,20,30,18,15,0.4,0.3
2023-02-22T17:00:00,1621A,118.3956,35.0888,临沂市,河东保险公司,颗粒物(PM10),63,75,58,43,31,80,63,71,71,38,34,26,13,0.8,0.8
2023-02-22T17:00:00,1622A,116.3032,37.4674,德州市,儿童乐园,颗粒物(PM10),69,88,77,44,36,88,87,74,74,24,34,7,11,0.4,0.5
2023-02-22T17:00:00,1624A,116.2991,37.4451,德州市,监理站,颗粒物(PM10),79,107,80,51,38,84,83,72,72,22,39,9,12,0.4,0.5
2023-02-22T17:00:00,1625A,115.9848,36.4372,聊城市,区政府,颗粒物(PM10),70,90,77,44,36,84,80,71,71,18,27,9,13,0.5,0.5
2023-02-22T17:00:00,1628A,118.0062,37.3803,滨州市,市环保局,颗粒物(PM10),65,79,83,33,45,74,74,60,60,22,48,7,18,0.4,0.8
2023-02-22T17:00:00,1629A,118.0018,37.3617,滨州市,第二水厂,颗粒物(PM10),65,80,88,31,42,76,76,61,61,24,51,5,15,0.6,1
2023-02-22T17:00:00,1630A,117.9776,37.393,滨州市,北中新校,颗粒物(PM10),63,75,83,29,39,76,74,61,61,26,45,14,18,0.4,0.8
2023-02-22T17:00:00,1631A,118.0414,36.8103,淄博市,人民公园,细颗粒物(PM2.5),68,80,79,49,37,70,66,65,65,32,47,15,18,0.5,0.8
2023-02-22T17:00:00,1633A,117.8525,36.4847,淄博市,双山,颗粒物(PM10),62,73,64,42,34,76,72,67,67,28,35,12,14,0.6,0.9
2023-02-22T17:00:00,1634A,117.9592,36.6331,淄博市,气象站,颗粒物(PM10),65,80,80,36,32,74,68,67,67,33,37,18,20,0.7,0.9
2023-02-22T17:00:00,1635A,118.3092,36.8194,淄博市,莆田园,颗粒物(PM10),65,80,68,34,35,90,67,74,74,38,38,30,16,0.7,1.1
2023-02-22T17:00:00,1637A,117.558,34.8438,枣庄市,市中区政府,颗粒物(PM10),54,58,66,22,25,76,75,70,70,28,34,11,32,0.5,0.6
2023-02-22T17:00:00,1638A,117.2852,34.7837,枣庄市,薛城环保局,颗粒物(PM10),55,59,62,27,27,79,62,69,69,37,34,12,24,0.6,0.5
2023-02-22T17:00:00,1639A,117.5852,34.7745,枣庄市,峄城区政府,颗粒物(PM10),52,53,57,14,19,77,75,72,72,22,23,10,15,0.3,0.4
2023-02-22T17:00:00,1640A,117.7276,34.5578,枣庄市,台儿庄区环保局,,34,34,54,14,24,81,80,67,67,16,25,14,11,0.6,0.7
2023-02-22T17:00:00,1641A,117.4518,35.0992,枣庄市,山亭区环保局,颗粒物(PM10),54,58,48,32,22,85,74,77,76,28,23,21,15,0.6,0.6
2023-02-22T17:00:00,1642A,121.2514,37.5639,烟台市,开发区,颗粒物(PM10),52,53,45,27,24,75,61,64,64,32,32,10,11,0.3,0.4
2023-02-22T17:00:00,1643A,121.3719,37.5433,烟台市,轴承厂,颗粒物(PM10),56,61,43,30,20,93,87,80,80,19,22,6,6,0.5,0.6
2023-02-22T17:00:00,1644A,121.3181,37.5436,烟台市,西郊化工站,颗粒物(PM10),70,90,49,23,22,92,73,80,80,36,22,9,9,0.9,0.9
2023-02-22T17:00:00,1645A,121.4478,37.4822,烟台市,莱山环保局,,,,44,,23,90,,79,79,,20,11,11,0.9,0.9
2023-02-22T17:00:00,1646A,121.2611,37.4967,烟台市,福山环保局,颗粒物(PM10),59,68,60,29,29,83,77,71,71,27,33,9,10,0.8,0.8
2023-02-22T17:00:00,1650A,119.1437,36.7023,潍坊市,环保局,颗粒物(PM10),69,88,66,39,31,71,66,60,60,32,33,10,9,0.6,0.7
2023-02-22T17:00:00,1653A,116.6251,35.4302,济宁市,火炬城,,42,42,52,29,30,85,83,71,71,16,25,8,12,0.4,0.5
2023-02-22T17:00:00,1655A,116.5491,35.4042,济宁市,电化厂,颗粒物(PM10),61,71,56,31,34,82,78,73,73,14,31,5,10,0.3,0.5
2023-02-22T17:00:00,1656A,117.1437,36.1937,泰安市,监测站,,46,46,64,25,36,74,74,65,65,15,24,7,12,0.7,0.8
2023-02-22T17:00:00,1657A,117.0885,36.2017,泰安市,人口学校,颗粒物(PM10),52,53,60,30,28,86,85,75,75,16,24,12,17,0.8,0.9
2023-02-22T17:00:00,1658A,117.1089,36.1758,泰安市,电力学校,,,,62,28,36,79,76,67,67,19,37,13,19,0.9,0.9
2023-02-22T17:00:00,1659A,119.471,35.4209,日照市,监测站,,,,51,31,20,71,52,55,55,,42,18,11,,0.8
2023-02-22T17:00:00,1660A,119.523,35.4216,日照市,市政府广场,颗粒物(PM10),62,73,49,33,20,78,27,52,52,57,34,10,7,1.0,0.9
2023-02-22T17:00:00,1661A,119.5587,35.4044,日照市,港务局,颗粒物(PM10),64,78,58,27,20,87,25,50,50,67,48,18,11,1.1,0.9
2023-02-22T17:00:00,1662A,122.1214,37.4236,威海市,华夏技校,,44,44,32,20,17,98,80,84,84,20,14,2,3,0.3,0.3
2023-02-22T17:00:00,1663A,122.0508,37.5236,威海市,山大分校,颗粒物(PM10),56,61,34,22,14,86,71,78,78,27,14,3,4,0.3,0.1
2023-02-22T17:00:00,1664A,122.1067,37.5072,威海市,市监测站,颗粒物(PM10),51,51,32,24,14,87,66,76,76,31,18,6,7,0.5,0.4
2023-02-22T17:00:00,1666A,118.6614,37.4309,东营市,市环保局,颗粒物(PM10),65,80,61,39,31,98,85,72,71,30,30,19,17,0.9,0.8
2023-02-22T17:00:00,1669A,113.5824,24.7733,韶关市,市八中,,46,46,55,32,37,130,130,112,112,13,20,11,15,0.5,0.6
2023-02-22T17:00:00,1671A,113.5917,24.7972,韶关市,园林处,,,44,51,24,42,137,133,116,116,,17,12,17,0.7,0.8
2023-02-22T17:00:00,1672A,113.6735,24.7791,韶关市,韶关学院,,43,39,56,24,41,139,136,117,117,15,24,17,24,0.5,0.6
2023-02-22T17:00:00,1673A,113.5971,24.6863,韶关市,曲江监测站,,,40,56,27,35,151,136,115,115,,31,14,20,0.4,0.7
2023-02-22T17:00:00,1674A,116.6794,23.3667,汕头市,金平子站,,45,45,39,27,15,114,99,91,91,19,18,12,13,0.6,0.6
2023-02-22T17:00:00,1675A,116.7244,23.3633,汕头市,龙湖子站,,,,37,,11,115,87,90,90,,19,4,12,0.6,0.5
2023-02-22T17:00:00,1676A,116.7258,23.2775,汕头市,濠江子站,,50,50,33,33,11,110,95,90,90,21,13,10,9,0.4,0.4
2023-02-22T17:00:00,1677A,116.7519,23.4714,汕头市,澄海子站,,45,45,39,25,17,115,109,96,96,19,22,6,7,0.5,0.5
2023-02-22T17:00:00,1678A,116.6092,23.2539,汕头市,潮阳子站,,43,43,34,16,8,102,89,80,79,17,15,6,6,0.5,0.5
2023-02-22T17:00:00,1680A,110.3539,21.2706,湛江市,湛江影剧院,颗粒物(PM10),51,52,53,21,24,134,114,129,108,8,10,6,7,0.4,0.5
2023-02-22T17:00:00,1681A,110.3928,21.2228,湛江市,市环境监测站,,50,50,51,21,21,132,118,129,112,8,10,6,7,0.4,0.5
2023-02-22T17:00:00,1682A,110.4019,21.1997,湛江市,环保局宿舍,,45,45,50,20,24,132,114,129,107,8,10,5,5,0.4,0.5
2023-02-22T17:00:00,1683A,110.4111,21.2028,湛江市,霞山游泳场,,46,46,46,20,24,137,115,133,111,9,9,6,7,0.5,0.5
2023-02-22T17:00:00,1684A,110.3316,21.2679,湛江市,麻章区环保局,颗粒物(PM10),53,55,56,22,28,139,116,134,112,11,12,6,7,0.4,0.5
2023-02-22T17:00:00,1685A,110.4558,21.2567,湛江市,坡头区环保局,,41,41,48,22,26,127,114,122,107,8,10,6,7,0.4,0.6
2023-02-22T17:00:00,1686A,111.0286,21.4688,茂名市,电白南海,颗粒物(PM10),53,56,62,27,27,134,128,123,116,15,13,6,7,0.4,0.5
2023-02-22T17:00:00,1687A,110.9294,21.6533,茂名市,茂石化七小,颗粒物(PM10),62,73,63,39,32,135,123,113,113,15,14,6,5,0.4,0.4
2023-02-22T17:00:00,1688A,110.9107,21.6687,茂名市,健康路,颗粒物(PM10),59,68,61,33,28,137,126,115,115,12,11,12,12,0.5,0.5
2023-02-22T17:00:00,1689A,110.8592,21.6828,茂名市,高岭,颗粒物(PM10),59,68,67,36,34,139,128,118,118,16,17,12,15,0.4,0.4
2023-02-22T17:00:00,1690A,116.1231,24.3284,梅州市,梅江月梅,,37,29,39,13,17,120,118,102,102,10,21,9,8,0.4,0.4
2023-02-22T17:00:00,1691A,116.0797,24.2719,梅州市,梅县新城,,36,26,43,13,18,115,115,99,99,15,36,10,10,0.6,0.7
2023-02-22T17:00:00,1692A,116.1248,24.2654,梅州市,环境监控中心,,40,40,40,14,17,117,117,101,101,15,26,10,11,0.5,0.5
2023-02-22T17:00:00,1693A,115.3653,22.775,汕尾市,市环保局,,36,27,35,12,11,124,114,100,100,8,9,10,10,0.6,0.5
2023-02-22T17:00:00,1694A,115.3706,22.7898,汕尾市,市政府,,,10,37,20,12,120,,95,95,11,12,10,9,0.4,0.4
2023-02-22T17:00:00,1695A,115.3622,22.7925,汕尾市,新城中学,颗粒物(PM10),56,61,43,15,13,119,114,102,102,9,9,8,8,0.4,0.3
2023-02-22T17:00:00,1696A,114.6778,23.7569,河源市,源西,,47,45,60,23,30,150,150,124,124,11,29,7,8,0.6,0.7
2023-02-22T17:00:00,1697A,114.6944,23.7586,河源市,东埔,颗粒物(PM10),58,65,69,21,32,143,140,114,114,16,20,5,5,0.5,0.5
2023-02-22T17:00:00,1698A,114.6892,23.7233,河源市,老城,颗粒物(PM10),59,68,78,25,32,148,148,118,118,12,24,6,7,0.6,0.7
2023-02-22T17:00:00,1699A,111.9797,21.8593,阳江市,鸳鸯湖,颗粒物(PM10),53,56,51,21,21,140,136,112,112,9,13,8,8,0.6,0.6
2023-02-22T17:00:00,1701A,111.9491,21.8658,阳江市,马南垌,颗粒物(PM10),56,61,58,23,20,137,132,112,112,11,17,7,7,0.5,0.5
2023-02-22T17:00:00,1702A,113.0426,23.691,清远市,环保大楼,,49,39,50,33,42,155,155,126,126,14,19,8,10,0.5,0.6
2023-02-22T17:00:00,1703A,113.0208,23.7106,清远市,凤城街办,,45,44,56,30,36,143,143,114,114,11,18,11,11,0.4,0.6
2023-02-22T17:00:00,1705A,116.6367,23.6719,潮州市,西园路,,43,43,44,28,23,122,111,89,89,12,12,4,5,0.5,0.5
2023-02-22T17:00:00,1706A,116.6447,23.6706,潮州市,档案局,细颗粒物(PM2.5),62,55,44,44,19,113,108,96,96,19,18,10,10,0.5,0.4
2023-02-22T17:00:00,1708A,116.3701,23.5345,揭阳市,新兴,颗粒物(PM10),51,52,43,26,17,126,123,104,104,16,15,12,14,0.6,0.5
2023-02-22T17:00:00,1709A,116.3264,23.5443,揭阳市,西马,颗粒物(PM10),51,51,54,24,19,137,134,113,113,12,17,11,12,0.5,0.4
2023-02-22T17:00:00,1710A,116.3611,23.5626,揭阳市,东兴,颗粒物(PM10),51,52,49,23,17,144,144,118,118,17,23,9,13,0.6,0.5
2023-02-22T17:00:00,1711A,116.4151,23.5294,揭阳市,渔湖,,46,46,44,25,23,126,120,104,104,18,19,12,14,0.5,0.4
2023-02-22T17:00:00,1712A,112.0392,22.9169,云浮市,新市府,细颗粒物(PM2.5),60,55,65,43,51,164,158,124,124,14,18,4,5,0.6,0.8
2023-02-22T17:00:00,1714A,112.0539,22.9539,云浮市,牧羊,颗粒物(PM10),57,64,72,36,45,164,157,126,126,18,26,8,10,0.5,0.6
2023-02-22T17:00:00,1715A,102.575,24.3711,玉溪市,东风水库,,50,50,38,32,28,105,105,80,80,12,16,5,6,0.9,1
2023-02-22T17:00:00,1718A,115.4208,35.2464,菏泽市,气象局,,50,50,67,33,35,83,69,64,64,16,29,5,9,0.4,0.5
2023-02-22T17:00:00,1719A,115.4747,35.2375,菏泽市,市政协,颗粒物(PM10),53,55,66,36,34,90,74,73,73,13,21,4,9,0.4,0.5
2023-02-22T17:00:00,1721A,113.3819,40.1097,大同市,果树场,,,,,,,,,,,,,,,,
2023-02-22T17:00:00,1723A,113.2994,40.0758,大同市,云冈宾馆,,44,44,101,24,57,99,99,81,81,18,41,9,16,0.4,0.7
2023-02-22T17:00:00,1724A,113.3444,40.0917,大同市,大同大学,颗粒物(PM10),54,57,84,23,51,86,84,68,68,18,42,8,15,0.4,0.7
2023-02-22T17:00:00,1725A,113.2661,40.1269,大同市,安家小村,颗粒物(PM10),52,53,106,13,55,94,94,73,73,6,36,5,17,0.2,0.7
2023-02-22T17:00:00,1726A,113.2711,40.0844,大同市,教育学院,颗粒物(PM10),52,54,97,24,47,86,84,71,71,19,39,7,13,0.6,0.6
2023-02-22T17:00:00,1727A,113.1147,36.1547,长治市,清华站,细颗粒物(PM2.5),73,54,67,53,55,90,90,74,74,16,20,7,10,0.8,1
2023-02-22T17:00:00,1728A,113.1031,36.1989,长治市,监测站,细颗粒物(PM2.5),77,64,66,56,56,89,89,70,70,22,23,11,7,1.0,0.7
2023-02-22T17:00:00,1730A,113.0886,36.2125,长治市,审计局,细颗粒物(PM2.5),77,50,64,56,59,93,93,73,73,19,25,13,10,1.1,1
2023-02-22T17:00:00,1731A,113.0844,36.1856,长治市,长治八中,细颗粒物(PM2.5),64,60,76,46,45,90,90,72,72,13,20,6,6,0.7,0.9
2023-02-22T17:00:00,1733A,111.5531,36.0783,临汾市,临钢医院,细颗粒物(PM2.5),102,86,106,76,77,95,92,72,72,20,33,7,8,0.8,1
2023-02-22T17:00:00,1734A,111.5028,36.0714,临汾市,技工学校,细颗粒物(PM2.5),97,100,108,72,77,88,88,68,68,17,27,9,11,0.9,1.2
2023-02-22T17:00:00,1736A,111.5018,36.0855,临汾市,市委,细颗粒物(PM2.5),103,97,108,77,76,92,92,72,72,19,29,5,7,0.7,1.1
2023-02-22T17:00:00,1738A,113.5758,37.8572,阳泉市,市中心,细颗粒物(PM2.5),104,112,101,78,48,86,80,74,74,32,48,13,17,0.9,1
2023-02-22T17:00:00,1739A,113.4894,37.8731,阳泉市,赛鱼,细颗粒物(PM2.5),92,88,89,68,57,84,83,72,72,35,51,14,15,0.9,0.9
2023-02-22T17:00:00,1740A,113.5819,37.8486,阳泉市,南庄,细颗粒物(PM2.5),100,118,111,75,47,91,85,71,71,32,43,14,17,0.9,0.9
2023-02-22T17:00:00,1742A,113.5614,37.8703,阳泉市,平坦,细颗粒物(PM2.5),114,103,96,86,56,88,83,76,76,36,54,13,17,0.9,0.9
2023-02-22T17:00:00,1743A,113.5158,37.8392,阳泉市,大阳泉,细颗粒物(PM2.5),90,84,87,67,53,90,87,78,78,35,33,13,14,0.7,0.7
2023-02-22T17:00:00,1744A,118.9233,42.2816,赤峰市,松山一中,颗粒物(PM10),58,65,46,32,23,83,81,67,66,28,24,15,14,0.7,0.8
2023-02-22T17:00:00,1745A,118.9576,42.2728,赤峰市,哈达街,颗粒物(PM10),51,52,42,30,25,88,88,71,71,22,23,13,13,0.7,0.7
2023-02-22T17:00:00,1746A,118.8788,42.2554,赤峰市,天义路,,46,46,36,20,19,87,84,70,70,25,21,13,14,0.6,0.6
2023-02-22T17:00:00,1748A,123.044,41.1196,鞍山市,深沟寺,颗粒物(PM10),56,62,57,35,28,83,79,79,79,16,24,12,15,0.7,1
2023-02-22T17:00:00,1749A,123.011,41.0931,鞍山市,太阳城,颗粒物(PM10),56,61,57,36,29,81,78,77,77,18,26,10,15,0.8,1
2023-02-22T17:00:00,1750A,123.0485,41.1442,鞍山市,太平,颗粒物(PM10),60,70,59,39,31,76,71,72,72,25,32,13,18,0.6,0.8
2023-02-22T17:00:00,1751A,122.9642,41.0971,鞍山市,铁西三道街,颗粒物(PM10),76,101,72,45,34,80,47,75,72,49,41,24,21,1.4,1.3
2023-02-22T17:00:00,1752A,122.9341,41.0833,鞍山市,铁西工业园区,颗粒物(PM10),60,70,61,41,34,80,60,76,75,36,33,23,18,0.8,1.1
2023-02-22T17:00:00,1753A,123.022,41.0821,鞍山市,明达新区,颗粒物(PM10),55,59,53,34,27,85,78,80,80,24,29,10,15,0.5,0.8
2023-02-22T17:00:00,1754A,123.1289,41.0228,鞍山市,千山,,,,,,,,,,,,,,,,
2023-02-22T17:00:00,1755A,123.7977,41.8491,抚顺市,望花区,细颗粒物(PM2.5),60,65,79,43,44,74,60,65,65,30,38,15,11,1.3,1.4
2023-02-22T17:00:00,1756A,123.9161,41.8822,抚顺市,顺城区,颗粒物(PM10),59,68,79,28,43,88,71,71,71,32,44,14,10,0.7,0.9
2023-02-22T17:00:00,1757A,124.0436,41.8611,抚顺市,东洲区,颗粒物(PM10),67,83,73,27,39,85,78,78,78,19,24,16,16,0.7,0.8
2023-02-22T17:00:00,1758A,123.9247,41.8642,抚顺市,新抚区,颗粒物(PM10),59,67,83,35,49,76,65,64,64,30,38,15,11,1.2,1.3
2023-02-22T17:00:00,1759A,124.0972,41.8961,抚顺市,大伙房水库,颗粒物(PM10),52,54,56,21,34,93,91,87,87,16,20,10,8,0.6,0.7
2023-02-22T17:00:00,1760A,123.7086,41.8391,抚顺市,沈抚新城,颗粒物(PM10),61,72,75,32,40,81,72,75,75,28,36,14,19,0.8,1.2
2023-02-22T17:00:00,1761A,123.8275,41.3064,本溪市,大峪,颗粒物(PM10),51,52,75,26,34,70,70,67,67,13,44,7,12,0.6,1.4
2023-02-22T17:00:00,1762A,123.7567,41.3325,本溪市,溪湖,颗粒物(PM10),54,57,82,28,39,72,67,64,64,25,45,18,20,0.7,1.3
2023-02-22T17:00:00,1763A,123.7169,41.3094,本溪市,彩屯,颗粒物(PM10),70,89,102,43,61,61,52,53,53,40,51,113,53,2.9,2.8
2023-02-22T17:00:00,1764A,123.7669,41.2864,本溪市,东明,,46,39,82,32,44,64,56,59,59,39,53,32,25,0.7,1.4
2023-02-22T17:00:00,1765A,123.7992,41.2664,本溪市,新立屯,,45,45,61,31,37,71,71,67,67,20,43,9,14,0.5,0.9
2023-02-22T17:00:00,1766A,123.8142,41.3472,本溪市,威宁,,38,38,87,26,49,71,69,65,65,18,46,13,9,0.6,1.3
2023-02-22T17:00:00,1767A,121.1115,41.0879,锦州市,南山,细颗粒物(PM2.5),83,86,59,61,41,71,59,56,56,48,49,14,23,0.8,0.9
2023-02-22T17:00:00,1768A,121.0533,40.8434,锦州市,开发区,细颗粒物(PM2.5),85,100,61,63,36,67,54,56,56,51,37,14,26,1.2,1.2
2023-02-22T17:00:00,1769A,121.1836,41.1119,锦州市,百股街道,颗粒物(PM10),68,85,67,44,33,71,61,55,55,40,44,12,17,0.8,0.9
2023-02-22T17:00:00,1770A,121.1178,41.1222,锦州市,天安街道,细颗粒物(PM2.5),75,78,64,55,42,64,48,50,50,49,47,15,22,1.3,1.1
2023-02-22T17:00:00,1771A,121.1303,41.1386,锦州市,北湖公园,细颗粒物(PM2.5),93,71,58,69,39,65,51,52,52,48,47,15,22,1.1,1.1
2023-02-22T17:00:00,1772A,126.54,43.8622,吉林市,哈达湾,,44,44,44,29,26,96,94,90,90,18,20,10,11,0.8,0.7
2023-02-22T17:00:00,1773A,126.5844,43.8358,吉林市,东局子,,48,48,39,32,23,92,85,84,84,22,16,11,10,0.7,0.6
2023-02-22T17:00:00,1774A,126.5052,43.8245,吉林市,电力学院,颗粒物(PM10),54,58,58,34,34,100,95,91,91,19,26,10,11,0.9,0.9
2023-02-22T17:00:00,1775A,126.6133,43.8972,吉林市,江北,,49,49,41,31,24,93,89,87,87,22,17,16,14,0.8,0.7
2023-02-22T17:00:00,1776A,126.555,43.8306,吉林市,江南公园,细颗粒物(PM2.5),52,52,42,36,28,97,92,88,88,19,17,10,10,0.7,0.6
2023-02-22T17:00:00,1778A,126.7061,43.7133,吉林市,丰满,,,,,,,,,,,,,,,,
2023-02-22T17:00:00,1779A,123.9305,47.3636,齐齐哈尔市,安居小区,臭氧1小时,103,25,47,17,25,205,205,98,98,26,14,5,6,0.4,0.3
2023-02-22T17:00:00,1780A,123.9488,47.3386,齐齐哈尔市,中心广场,,22,18,24,12,13,81,69,72,72,24,16,9,6,0.4,0.5
2023-02-22T17:00:00,1781A,123.9483,47.3227,齐齐哈尔市,农牧车辆厂,,27,27,36,7,14,78,68,68,68,23,18,10,4,0.3,0.4
2023-02-22T17:00:00,1783A,123.945,47.2988,齐齐哈尔市,市环境监测站,,26,26,36,8,19,89,74,79,79,26,17,15,9,0.6,0.6
2023-02-22T17:00:00,1784A,129.61,44.561,牡丹江市,环保大楼,,33,33,40,21,24,82,67,71,71,24,23,7,7,0.5,0.6
2023-02-22T17:00:00,1785A,129.6115,44.5782,牡丹江市,文化广场,,30,30,47,21,32,76,70,66,66,19,28,10,11,0.6,0.8
2023-02-22T17:00:00,1786A,129.5904,44.5963,牡丹江市,第一医院,,,34,48,25,38,84,72,76,76,20,26,5,6,,1
2023-02-22T17:00:00,1787A,129.6364,44.6075,牡丹江市,机车工厂,,42,42,57,19,31,84,66,72,72,23,25,2,3,0.5,0.8
2023-02-22T17:00:00,1788A,129.6386,44.5462,牡丹江市,第一中学,,41,41,32,21,23,82,79,75,75,14,22,5,5,0.3,0.6
2023-02-22T17:00:00,1789A,124.81117,46.03138,大庆市,大同区,,43,43,56,22,33,78,78,66,66,12,15,6,7,0.4,0.7
2023-02-22T17:00:00,1790A,125.129,46.533,大庆市,龙凤区,,42,42,46,14,26,72,62,61,61,27,17,9,10,0.9,0.8
2023-02-22T17:00:00,1791A,124.902,46.408,大庆市,红岗区,,47,47,44,24,25,87,74,73,73,21,19,11,8,0.4,0.4
2023-02-22T17:00:00,1792A,125.153,46.586,大庆市,萨尔图区,,42,42,48,23,31,68,47,57,57,43,20,19,12,0.3,0.2
2023-02-22T17:00:00,1793A,124.9042,46.6215,大庆市,让胡路区,,36,32,35,25,24,90,82,76,76,16,20,5,8,0.4,0.5
2023-02-22T17:00:00,1794A,118.3606,31.3519,芜湖市,监测站,颗粒物(PM10),56,62,49,35,27,67,38,49,49,52,33,7,5,0.8,0.6
2023-02-22T17:00:00,1795A,118.3714,31.4134,芜湖市,科创中心,颗粒物(PM10),57,63,51,38,29,66,42,53,50,42,31,6,5,0.4,0.3
2023-02-22T17:00:00,1796A,118.3673,31.3131,芜湖市,四水厂,颗粒物(PM10),56,61,54,35,28,69,48,52,52,38,28,7,7,0.5,0.6
2023-02-22T17:00:00,1798A,118.5092,31.6837,马鞍山市,湖东路四小,,50,50,40,35,26,71,51,62,53,31,19,7,7,0.6,0.6
2023-02-22T17:00:00,1799A,118.5024,31.6449,马鞍山市,开发区,颗粒物(PM10),64,77,49,33,25,73,49,61,48,34,24,8,8,0.6,0.6
2023-02-22T17:00:00,1800A,118.5228,31.7231,马鞍山市,慈湖,颗粒物(PM10),55,60,47,33,27,69,36,57,49,51,26,7,8,0.6,0.6
2023-02-22T17:00:00,1802A,118.6245,31.7241,马鞍山市,濮塘,颗粒物(PM10),52,53,47,26,22,66,50,58,53,30,20,4,4,0.7,0.7
2023-02-22T17:00:00,1803A,115.9872,29.6815,九江市,十里,,,,48,,24,73,,93,,,22,,8,,0.6
2023-02-22T17:00:00,1804A,115.9584,29.7046,九江市,茅山头,颗粒物(PM10),56,61,53,37,32,94,45,48,43,30,24,13,12,0.8,0.7
2023-02-22T17:00:00,1805A,115.9877,29.7295,九江市,西园,细颗粒物(PM2.5),64,63,55,46,32,85,36,43,38,35,28,9,8,0.6,0.6
2023-02-22T17:00:00,1806A,116.0172,29.6547,九江市,五七二七厂,细颗粒物(PM2.5),68,54,48,49,30,106,48,52,45,34,26,7,8,0.8,0.7
2023-02-22T17:00:00,1808A,115.9114,29.6038,九江市,综合工业园,细颗粒物(PM2.5),77,73,56,56,37,111,33,48,33,41,27,10,10,0.8,0.7
2023-02-22T17:00:00,1809A,116.0721,29.7535,九江市,石化总厂,,,65,54,33,26,91,,44,44,,29,,9,,0.6
2023-02-22T17:00:00,1810A,115.9773,29.5698,九江市,庐山气象台,,40,31,31,28,27,82,21,65,26,22,16,6,6,0.4,0.3
2023-02-22T17:00:00,1812A,112.3931,34.6516,洛阳市,市委党校,细颗粒物(PM2.5),57,57,79,40,47,82,82,63,63,14,30,6,7,0.5,0.5
2023-02-22T17:00:00,1814A,112.4657,34.6871,洛阳市,豫西宾馆,细颗粒物(PM2.5),75,47,75,55,55,86,86,68,68,12,30,1,5,0.7,0.7
2023-02-22T17:00:00,1815A,112.494,34.6886,洛阳市,河南林校,细颗粒物(PM2.5),70,56,95,51,58,90,90,70,70,19,40,5,5,0.5,0.6
2023-02-22T17:00:00,1816A,112.3844,34.623,洛阳市,开发区管委会,细颗粒物(PM2.5),65,53,71,47,50,87,87,66,66,16,28,4,6,0.3,0.4
2023-02-22T17:00:00,1817A,112.4267,34.6258,洛阳市,市委新办公区,细颗粒物(PM2.5),83,54,71,61,58,90,89,73,73,18,32,3,5,0.4,0.4
2023-02-22T17:00:00,1818A,114.4839,36.0621,安阳市,棉研所,,,,,,,,,,,,,,,,
2023-02-22T17:00:00,1819A,114.3551,36.1017,安阳市,红庙街,细颗粒物(PM2.5),104,117,75,78,47,86,82,57,57,35,41,11,12,0.7,0.7
2023-02-22T17:00:00,1820A,114.361,36.0681,安阳市,银杏小区,细颗粒物(PM2.5),89,113,73,66,43,83,82,58,58,26,31,12,12,0.6,0.6
2023-02-22T17:00:00,1824A,114.3389,34.7781,开封市,肿瘤医院,,49,47,64,34,35,75,62,63,63,13,23,3,5,0.4,0.4
2023-02-22T17:00:00,1826A,114.2885,34.7965,开封市,世纪星幼儿园,,48,36,55,33,35,76,66,63,63,11,21,6,8,0.5,0.5
2023-02-22T17:00:00,1828A,113.227,35.2125,焦作市,市环保局,细颗粒物(PM2.5),85,101,76,63,39,92,90,68,68,18,32,5,7,0.4,0.6
2023-02-22T17:00:00,1830A,113.1992,35.2590,焦作市,影视城,,,,,,,,,,,,,,,,
2023-02-22T17:00:00,1832A,113.3257,33.742,平顶山市,新华旅馆,颗粒物(PM10),56,62,74,34,40,73,56,49,45,19,25,43,22,0.5,0.5
2023-02-22T17:00:00,1833A,113.2919,33.737,平顶山市,规划设计院,细颗粒物(PM2.5),57,55,62,40,44,79,60,54,44,16,19,3,9,0.5,0.5
2023-02-22T17:00:00,1834A,113.182,33.774,平顶山市,平顶山工学院,细颗粒物(PM2.5),79,73,69,58,37,77,60,53,49,18,24,2,6,0.4,0.5
2023-02-22T17:00:00,1835A,111.1922,34.7752,三门峡市,市政府,细颗粒物(PM2.5),124,85,76,94,65,73,65,59,59,30,32,9,11,0.6,0.6
2023-02-22T17:00:00,1836A,111.1587,34.7942,三门峡市,开发区,细颗粒物(PM2.5),109,108,107,82,65,74,74,60,60,23,31,9,14,0.5,0.6
2023-02-22T17:00:00,1838A,111.143,34.7955,三门峡市,风景区,,,,,,,,,,,,,,,,
2023-02-22T17:00:00,1840A,111.2992,30.6981,宜昌市,白龙岗,细颗粒物(PM2.5),70,68,69,51,50,97,63,68,64,31,30,3,5,0.5,0.6
2023-02-22T17:00:00,1841A,111.3549,30.6465,宜昌市,伍家岗,细颗粒物(PM2.5),73,69,73,53,53,102,62,69,69,30,29,8,9,0.5,0.5
2023-02-22T17:00:00,1842A,111.2628,30.6961,宜昌市,点军区,细颗粒物(PM2.5),73,60,70,53,54,99,64,61,61,19,23,5,6,0.5,0.6
2023-02-22T17:00:00,1843A,111.3275,30.7819,宜昌市,夷陵区,细颗粒物(PM2.5),77,56,62,56,51,102,56,71,65,32,28,6,7,0.4,0.4
2023-02-22T17:00:00,1844A,112.2494,30.3197,荆州市,市图书馆,细颗粒物(PM2.5),82,47,73,60,67,100,66,64,64,24,27,5,7,0.6,0.6
2023-02-22T17:00:00,1845A,112.2008,30.3544,荆州市,市委党校,细颗粒物(PM2.5),58,46,74,41,62,102,67,65,65,19,23,5,7,0.6,0.6
2023-02-22T17:00:00,1847A,113.1094,29.3578,岳阳市,南湖风景区,,,,73,26,54,95,41,53,43,,31,5,7,0.6,0.7
2023-02-22T17:00:00,1848A,113.1493,29.4251,岳阳市,城陵矶,,,37,72,27,37,84,35,44,39,38,37,,6,0.4,0.6
2023-02-22T17:00:00,1849A,113.1497,29.3575,岳阳市,开发区,细颗粒物(PM2.5),69,41,61,50,56,96,41,52,39,24,27,6,8,0.7,0.8
2023-02-22T17:00:00,1850A,113.2621,29.4758,岳阳市,云溪区,,38,38,59,25,32,104,45,49,44,21,28,5,7,0.5,0.5
2023-02-22T17:00:00,1851A,112.9943,29.4402,岳阳市,君山区,,40,35,62,28,52,102,57,54,54,20,25,6,6,0.5,0.6
2023-02-22T17:00:00,1852A,113.2117,29.355,岳阳市,金凤水库,颗粒物(PM10),52,53,64,32,39,100,38,48,36,12,17,7,8,0.7,0.7
2023-02-22T17:00:00,1854A,111.6975,28.9703,常德市,市二中,细颗粒物(PM2.5),64,54,92,46,73,79,56,63,52,8,18,4,7,0.6,1
2023-02-22T17:00:00,1857A,111.7158,29.1456,常德市,白鹤山,颗粒物(PM10),54,57,86,33,51,87,61,67,60,9,14,4,5,0.5,0.6
2023-02-22T17:00:00,1858A,110.5319,29.1217,张家界市,永定新区,细颗粒物(PM2.5),87,73,71,64,55,93,43,52,46,20,19,3,4,0.6,0.6
2023-02-22T17:00:00,1859A,110.4697,29.1242,张家界市,电业局,,,64,72,54,53,97,49,81,54,9,21,4,5,,0.5
2023-02-22T17:00:00,1860A,110.5594,29.3547,张家界市,未央路,细颗粒物(PM2.5),68,59,65,49,49,82,59,54,54,9,11,5,5,0.5,0.5
2023-02-22T17:00:00,1861A,110.4417,29.315,张家界市,袁家界,细颗粒物(PM2.5),53,47,68,37,51,93,65,92,72,17,15,7,8,0.5,0.5
2023-02-22T17:00:00,1862A,110.4144,25.3167,桂林市,电子科大尧山校区,细颗粒物(PM2.5),68,68,66,49,44,125,125,116,116,16,16,9,9,0.8,0.7
2023-02-22T17:00:00,1863A,110.2819,25.2697,桂林市,监测站,细颗粒物(PM2.5),80,91,83,59,63,110,104,101,101,20,16,7,8,0.8,0.8
2023-02-22T17:00:00,1864A,110.3089,25.2708,桂林市,龙隐路小学,,,,74,,66,116,,104,104,,14,10,12,0.7,0.6
2023-02-22T17:00:00,1865A,110.2869,25.2178,桂林市,八中,细颗粒物(PM2.5),89,78,71,66,67,110,103,97,97,22,19,8,9,0.5,0.5
2023-02-22T17:00:00,1866A,109.2262,21.588,北海市,牛尾岭水库,,,52,55,,35,129,125,116,116,10,14,10,14,0.5,0.7
2023-02-22T17:00:00,1867A,109.1436,21.4086,北海市,海滩公园,颗粒物(PM10),52,53,56,29,28,142,138,131,131,6,8,6,7,0.5,0.5
2023-02-22T17:00:00,1868A,109.0981,21.4661,北海市,新市环保局,颗粒物(PM10),52,54,56,27,31,136,132,126,126,12,14,3,4,0.5,0.6
2023-02-22T17:00:00,1869A,109.1778,21.5233,北海市,北海工业园,颗粒物(PM10),62,74,67,34,40,130,130,124,124,8,13,6,9,0.5,0.7
2023-02-22T17:00:00,1870A,109.4856,24.3895,柳州市,柳东小学,细颗粒物(PM2.5),114,98,97,86,70,113,61,72,67,15,14,12,18,1.0,1
2023-02-22T17:00:00,1871A,109.4157,24.3277,柳州市,环保监测站,细颗粒物(PM2.5),133,118,96,101,66,114,,70,60,27,28,10,15,0.7,1
2023-02-22T17:00:00,1872A,109.389,24.341,柳州市,河西水厂,细颗粒物(PM2.5),112,96,97,84,71,99,59,62,62,18,24,8,15,1.0,1.1
2023-02-22T17:00:00,1873A,109.4311,24.2921,柳州市,市四中,细颗粒物(PM2.5),108,102,83,81,67,118,52,73,64,32,24,17,16,1.5,1.1
2023-02-22T17:00:00,1874A,109.4006,24.3631,柳州市,市九中,细颗粒物(PM2.5),124,116,92,94,71,102,22,70,40,63,41,36,20,2.3,1.1
2023-02-22T17:00:00,1875A,109.4958,24.3134,柳州市,古亭山,细颗粒物(PM2.5),92,94,76,68,53,120,64,86,73,20,17,13,16,0.5,0.5
2023-02-22T17:00:00,1876A,109.5078,18.2489,三亚市,河东子站,,45,45,41,18,19,106,101,103,102,6,6,4,3,0.4,0.5
2023-02-22T17:00:00,1877A,109.4964,18.2681,三亚市,河西子站,,49,49,40,19,20,108,107,102,102,4,5,3,3,0.3,0.4
2023-02-22T17:00:00,1878A,104.7778,31.4741,绵阳市,富乐山,,,13,14,,12,63,62,46,46,10,10,2,2,,0.6
2023-02-22T17:00:00,1879A,104.7563,31.4535,绵阳市,市人大,,20,20,17,13,13,61,56,46,43,14,16,2,4,0.5,0.5
2023-02-22T17:00:00,1880A,104.6697,31.4668,绵阳市,高新区自来水公司,,23,17,15,16,12,60,60,46,37,17,19,4,4,0.5,0.5
2023-02-22T17:00:00,1881A,104.7287,31.5075,绵阳市,三水厂,,19,15,17,10,12,61,60,48,48,14,10,2,2,0.3,0.4
2023-02-22T17:00:00,1882A,104.563,28.793,宜宾市,石马中学,,18,15,54,12,40,39,38,35,35,16,20,5,5,0.6,0.7
2023-02-22T17:00:00,1883A,104.6201,28.7728,宜宾市,市委,,19,17,58,13,48,34,22,27,27,33,29,7,8,0.6,0.7
2023-02-22T17:00:00,1884A,104.6055,28.793,宜宾市,宜宾四中,,20,19,65,14,49,36,31,27,27,31,32,8,8,0.6,0.7
2023-02-22T17:00:00,1885A,104.639,28.7562,宜宾市,市政府,,,,56,,46,42,37,33,33,,30,7,6,,0.6
2023-02-22T17:00:00,1886A,104.5742,28.7199,宜宾市,黄金嘴,,19,16,59,13,46,41,40,34,34,21,27,6,6,0.5,0.6
2023-02-22T17:00:00,1888A,101.6891,26.571,攀枝花市,弄弄坪,,48,45,61,33,36,119,114,103,103,13,29,6,18,0.6,1.2
2023-02-22T17:00:00,1889A,101.5769,26.5928,攀枝花市,河门口,颗粒物(PM10),52,54,57,33,33,128,117,93,93,19,26,14,16,1.0,1.1
2023-02-22T17:00:00,1890A,101.7169,26.585,攀枝花市,炳草岗,,50,50,54,24,29,122,108,90,90,16,42,5,11,0.5,0.7
2023-02-22T17:00:00,1891A,101.7369,26.5008,攀枝花市,仁和,,47,47,49,29,32,119,112,96,96,13,19,8,9,0.5,0.6
2023-02-22T17:00:00,1893A,105.4324,28.9634,泸州市,九狮山,颗粒物(PM10),51,51,52,24,38,36,31,33,33,22,24,8,8,0.4,0.4
2023-02-22T17:00:00,1894A,105.4427,28.9063,泸州市,小市上码头,,40,35,55,28,41,42,26,33,27,28,26,5,7,0.7,0.7
2023-02-22T17:00:00,1895A,105.4241,28.8573,泸州市,兰田宪桥,,36,29,52,25,47,36,30,31,25,28,28,5,8,0.6,0.6
2023-02-22T17:00:00,1896A,105.4379,28.8833,泸州市,市环监站,,32,32,52,19,35,41,25,32,21,24,24,3,4,0.7,0.6
2023-02-22T17:00:00,1901A,104.4239,31.1208,德阳市,东山公园,,,20,19,,14,59,52,52,41,16,16,1,1,,0.6
2023-02-22T17:00:00,1902A,104.3826,31.1317,德阳市,西小区,,26,26,27,17,17,56,54,50,38,18,19,2,2,0.5,0.5
2023-02-22T17:00:00,1904A,104.3553,31.1091,德阳市,耐火材料厂,,29,29,20,20,18,51,50,51,33,21,19,2,2,0.4,0.5
2023-02-22T17:00:00,1905A,106.056,30.8064,南充市,西山风景区,,,,,,,,,,,,,,,,
2023-02-22T17:00:00,1906A,106.0789,30.8023,南充市,南充市委,,31,31,41,19,26,62,60,55,55,19,16,8,8,0.5,0.5
2023-02-22T17:00:00,1907A,106.1031,30.8217,南充市,南充炼油厂,,34,34,38,22,25,69,65,60,60,15,14,7,8,0.5,0.4
2023-02-22T17:00:00,1908A,106.1064,30.7856,南充市,高坪区监测站,,36,36,35,20,31,68,59,59,59,20,17,7,7,0.4,0.4
2023-02-22T17:00:00,1909A,106.0642,30.7636,南充市,嘉陵区环保局,,32,32,42,22,27,65,65,55,51,21,21,7,7,0.4,0.5
2023-02-22T17:00:00,1910A,106.1087,30.8388,南充市,市环境监测站,,30,29,40,21,31,64,64,56,56,13,13,7,9,0.4,0.4
2023-02-22T17:00:00,1911A,106.9222,27.6869,遵义市,丁字口,,20,20,25,14,21,82,58,77,60,24,19,16,11,0.7,0.7
2023-02-22T17:00:00,1912A,106.9242,27.7019,遵义市,凤凰山,,19,18,23,12,17,79,58,72,60,16,15,4,4,0.6,0.6
2023-02-22T17:00:00,1913A,106.8906,27.6486,遵义市,忠庄,,23,19,30,16,21,73,59,71,56,16,15,2,2,0.7,0.5
2023-02-22T17:00:00,1914A,106.9231,27.6506,遵义市,舟水桥,,22,22,27,13,22,81,65,75,64,12,13,6,6,0.5,0.5
2023-02-22T17:00:00,1915A,106.9178,27.72,遵义市,干田坝,,25,25,22,17,19,84,59,78,56,30,24,11,7,0.6,0.6
2023-02-22T17:00:00,1916A,103.7897,25.5035,曲靖市,环境监测站,,48,48,41,28,28,128,124,108,108,8,10,4,5,0.9,0.9
2023-02-22T17:00:00,1917A,103.8,25.5364,曲靖市,烟厂办公区,颗粒物(PM10),51,51,42,26,26,136,132,114,114,8,9,4,4,0.6,0.7
2023-02-22T17:00:00,1918A,108.7197,34.3956,咸阳市,气象站,细颗粒物(PM2.5),138,68,71,105,91,56,40,36,36,36,36,7,8,0.6,0.6
2023-02-22T17:00:00,1919A,108.673,34.3155,咸阳市,实验中学,细颗粒物(PM2.5),142,110,110,108,98,54,38,29,28,36,32,4,5,0.7,0.8
2023-02-22T17:00:00,1920A,108.7233,34.3617,咸阳市,师范学院,细颗粒物(PM2.5),130,92,97,99,91,54,36,33,33,40,33,5,5,0.7,0.7
2023-02-22T17:00:00,1922A,109.0656,35.0994,铜川市,党校,"颗粒物(PM10),细颗粒物(PM2.5)",53,55,70,37,44,78,62,41,41,33,27,14,13,0.8,0.8
2023-02-22T17:00:00,1923A,109.0697,35.0697,铜川市,王益区政府,细颗粒物(PM2.5),93,64,80,69,80,74,57,42,40,36,30,7,6,0.7,0.7
2023-02-22T17:00:00,1924A,108.9344,34.9058,铜川市,新区管委会,细颗粒物(PM2.5),120,76,90,91,92,81,60,50,50,29,27,7,8,0.6,0.6
2023-02-22T17:00:00,1926A,109.4131,36.6275,延安市,枣园,细颗粒物(PM2.5),58,34,59,41,68,111,110,81,81,19,25,5,6,0.5,0.6
2023-02-22T17:00:00,1927A,109.4761,36.6028,延安市,延大医附院,,,25,65,37,64,104,98,75,75,,27,7,6,0.6,0.8
2023-02-22T17:00:00,1929A,109.5056,36.6106,延安市,百米大道,,48,48,72,31,70,102,101,78,78,23,29,4,7,0.4,0.8
2023-02-22T17:00:00,1930A,107.185,34.3063,宝鸡市,庙沟村,细颗粒物(PM2.5),118,103,104,89,107,53,38,31,31,31,36,4,4,0.9,0.9
2023-02-22T17:00:00,1931A,107.0708,34.3017,宝鸡市,竹园沟,细颗粒物(PM2.5),137,74,107,104,113,55,29,28,28,45,39,7,7,0.8,0.9
2023-02-22T17:00:00,1932A,107.1906,34.3672,宝鸡市,三陆医院,细颗粒物(PM2.5),129,94,106,98,112,52,50,33,33,29,38,8,6,1.0,0.8
2023-02-22T17:00:00,1933A,107.1431,34.3547,宝鸡市,监测站,细颗粒物(PM2.5),125,75,110,95,107,52,41,28,28,38,46,4,4,0.9,0.9
2023-02-22T17:00:00,1934A,107.1186,34.3739,宝鸡市,技工学校,细颗粒物(PM2.5),130,83,96,99,100,39,36,26,26,37,42,8,5,1.1,0.8
2023-02-22T17:00:00,1935A,107.3906,34.3528,宝鸡市,陈仓区环保局家属楼,细颗粒物(PM2.5),117,93,108,88,115,60,58,38,38,31,39,4,5,0.9,0.9
2023-02-22T17:00:00,1936A,107.2058,34.3497,宝鸡市,文理学院,细颗粒物(PM2.5),128,95,113,97,110,50,41,31,31,36,41,8,8,1.0,0.9
2023-02-22T17:00:00,1937A,107.2386,34.3622,宝鸡市,三迪小学,细颗粒物(PM2.5),124,85,113,94,107,55,39,33,33,41,39,8,9,0.9,0.8
2023-02-22T17:00:00,1938A,109.5293,34.5101,渭南市,农科所,细颗粒物(PM2.5),117,97,102,88,76,61,60,41,41,37,33,6,7,0.7,0.6
2023-02-22T17:00:00,1939A,109.4974,34.4877,渭南市,日报社,细颗粒物(PM2.5),122,92,103,92,86,57,51,39,39,46,36,10,10,0.8,0.7
2023-02-22T17:00:00,1940A,109.4636,34.493,渭南市,体育馆,,,,105,,87,61,58,42,42,42,36,5,5,0.6,0.6
2023-02-22T17:00:00,1941A,109.4259,34.5023,渭南市,高新一小,细颗粒物(PM2.5),124,81,93,94,90,56,55,43,43,40,34,8,9,0.6,0.6
2023-02-22T17:00:00,1943A,102.1725,38.5339,金昌市,新川苑,颗粒物(PM10),52,54,50,9,14,112,110,102,102,11,19,10,17,0.5,0.7
2023-02-22T17:00:00,1944A,102.1692,38.5167,金昌市,天庆家园,颗粒物(PM10),52,54,42,7,18,110,107,101,101,11,20,51,15,0.8,0.8
2023-02-22T17:00:00,1945A,98.2908,39.7711,嘉峪关市,气象局,颗粒物(PM10),64,78,85,22,28,109,105,76,76,9,35,5,21,0.2,0.5
2023-02-22T17:00:00,1947A,106.3394,38.817,石嘴山市,沙湖旅游区,颗粒物(PM10),246,382,246,58,58,122,122,72,72,24,38,21,27,0.7,1.3
2023-02-22T17:00:00,1948A,106.3668,39.0145,石嘴山市,大武口朝阳西街,,,,94,,55,112,,65,65,,48,20,35,0.8,1.1
2023-02-22T17:00:00,1949A,106.7704,39.2282,石嘴山市,惠农南大街,颗粒物(PM10),70,89,103,48,54,114,114,70,70,20,51,35,25,0.7,1.2
2023-02-22T17:00:00,1950A,106.7099,39.1325,石嘴山市,红果子镇惠新街,颗粒物(PM10),69,87,79,46,49,121,121,72,72,13,37,20,25,0.6,0.8
2023-02-22T17:00:00,1951A,84.895,45.6094,克拉玛依市,长征新村,颗粒物(PM10),74,97,93,48,59,102,97,91,63,31,49,10,7,0.8,0.8
2023-02-22T17:00:00,1952A,84.8988,45.5893,克拉玛依市,南林小区,,,87,90,68,63,104,,93,60,,40,6,2,,0.7
2023-02-22T17:00:00,1954A,84.905,44.3396,克拉玛依市,独山子区,细颗粒物(PM2.5),290,210,212,240,146,149,149,104,104,24,37,6,6,1.2,1.1
2023-02-22T17:00:00,1955A,85.6979,46.098,克拉玛依市,乌尔禾区商贸楼,细颗粒物(PM2.5),57,48,80,40,70,122,122,85,85,15,29,9,6,0.7,1.3
2023-02-22T17:00:00,1956A,86.1472,41.7538,巴音郭楞州,孔雀公园,颗粒物(PM10),144,237,402,52,84,102,102,64,64,10,49,3,4,0.4,0.6
2023-02-22T17:00:00,1957A,86.1972,41.7166,巴音郭楞州,棉纺厂,颗粒物(PM10),154,257,482,51,84,100,100,67,67,9,39,3,3,0.3,0.4
2023-02-22T17:00:00,1958A,86.2357,41.7173,巴音郭楞州,经济开发区,颗粒物(PM10),151,252,419,48,72,99,99,67,67,9,23,5,5,0.4,0.4
2023-02-22T17:00:00,1961A,117.532,36.6868,济南市,东山小学,,,,73,,30,79,71,73,73,,32,6,8,0.4,0.6
2023-02-22T17:00:00,1966A,120.0405,35.8735,青岛市,黄岛区4号,,,41,47,19,20,83,,70,70,,36,,7,,0.7
2023-02-22T17:00:00,1982A,122.0693,37.2174,威海市,文登开发区,,44,44,43,14,21,80,71,74,74,27,24,4,5,0.3,0.5
2023-02-22T17:00:00,2031A,113.1817,27.9958,株洲市,云田中学,细颗粒物(PM2.5),69,66,89,50,60,101,22,57,30,40,36,6,7,0.9,0.9
2023-02-22T17:00:00,2054A,114.1099,32.1059,信阳市,平桥分局,颗粒物(PM10),61,71,60,33,30,80,80,61,55,24,21,10,9,0.5,0.6
2023-02-22T17:00:00,2064A,113.9956,32.1271,信阳市,南湾水厂,颗粒物(PM10),61,72,61,41,28,77,77,64,62,22,18,8,8,0.6,0.5
2023-02-22T17:00:00,2065A,114.0775,32.1195,信阳市,市酿酒公司,细颗粒物(PM2.5),70,55,52,51,37,87,87,68,64,22,21,10,9,0.7,0.6
2023-02-22T17:00:00,2066A,114.0609,32.1399,信阳市,审计局,"颗粒物(PM10),细颗粒物(PM2.5)",63,75,55,45,34,80,80,62,62,25,23,8,8,0.6,0.5
2023-02-22T17:00:00,2067A,114.6613,33.6128,周口市,市环境监测站,细颗粒物(PM2.5),134,76,46,102,35,72,40,56,48,27,22,6,8,0.4,0.3
2023-02-22T17:00:00,2068A,114.6758,33.6347,周口市,周口师范,细颗粒物(PM2.5),125,64,52,95,32,85,45,59,51,24,22,6,9,0.4,0.2
2023-02-22T17:00:00,2069A,114.6546,33.5979,周口市,市运管处,细颗粒物(PM2.5),230,76,51,180,48,89,49,60,57,20,27,12,13,0.4,0.2
2023-02-22T17:00:00,2070A,114.6369,33.6406,周口市,川汇区环保局,细颗粒物(PM2.5),128,54,46,97,38,82,45,59,49,21,19,6,8,0.4,0.3
2023-02-22T17:00:00,2075A,117.6336,24.4674,漳州市,九湖,,,,,,,,,,,,,,,,
2023-02-22T17:00:00,2160A,112.85,35.5051,晋城市,自来水公司,颗粒物(PM10),79,108,76,56,38,97,91,76,76,26,28,11,10,0.6,0.6
2023-02-22T17:00:00,2161A,112.8318,35.4936,晋城市,白云商贸,颗粒物(PM10),71,92,76,51,37,93,87,73,73,30,27,9,9,0.6,0.7
2023-02-22T17:00:00,2162A,112.8508,35.4887,晋城市,市环保局,细颗粒物(PM2.5),85,113,76,63,41,99,92,71,71,27,30,13,11,0.7,0.7
2023-02-22T17:00:00,2163A,112.8676,35.4897,晋城市,技术学院,细颗粒物(PM2.5),85,116,82,63,45,96,89,70,70,24,31,10,9,0.7,0.7
2023-02-22T17:00:00,2165A,112.8453,35.546,晋城市,白马寺,,,,,,,,,,,,,,,,
2023-02-22T17:00:00,2166A,112.4397,39.3522,朔州市,平朔,,31,31,66,17,58,88,88,74,74,6,23,3,11,0.3,0.6
2023-02-22T17:00:00,2167A,112.4575,39.3617,朔州市,朔唯,,31,31,79,18,54,94,94,75,75,13,34,5,14,0.4,0.7
2023-02-22T17:00:00,2168A,112.4258,39.3197,朔州市,区政府,颗粒物(PM10),51,52,76,27,55,94,93,84,84,10,21,4,9,0.5,0.6
2023-02-22T17:00:00,2169A,112.4072,39.3278,朔州市,市环保局,,,,75,,54,85,84,79,79,16,23,7,13,,0.7
2023-02-22T17:00:00,2170A,112.4272,39.3681,朔州市,市二中,,30,26,80,17,53,93,93,81,81,7,23,4,10,0.3,0.5
2023-02-22T17:00:00,2171A,112.7532,37.6945,晋中市,锦纶小区,细颗粒物(PM2.5),124,104,114,94,85,97,92,74,74,42,48,12,19,0.7,0.8
2023-02-22T17:00:00,2173A,112.7249,37.7067,晋中市,南都小区,细颗粒物(PM2.5),97,115,129,72,69,102,100,81,81,28,39,11,21,0.7,0.8
2023-02-22T17:00:00,2174A,112.6991,37.6982,晋中市,榆次区政府,颗粒物(PM10),90,129,141,65,63,99,97,77,77,31,42,10,18,0.7,0.8
2023-02-22T17:00:00,2175A,110.9956,35.0147,运城市,运城中学,细颗粒物(PM2.5),92,106,91,68,59,85,85,67,67,16,18,8,9,0.6,0.5
2023-02-22T17:00:00,2178A,110.9686,35.0303,运城市,地区技校,细颗粒物(PM2.5),105,96,95,79,63,90,90,73,73,14,17,6,7,0.6,0.6
2023-02-22T17:00:00,2179A,111.0414,35.1147,运城市,空港新区,细颗粒物(PM2.5),105,108,90,79,66,98,98,78,78,13,18,6,8,0.5,0.6
2023-02-22T17:00:00,2181A,112.7383,38.4519,忻州市,开发区,细颗粒物(PM2.5),64,73,86,46,56,90,90,68,68,20,32,11,11,0.6,0.8
2023-02-22T17:00:00,2182A,112.7003,38.4928,忻州市,会展中心,颗粒物(PM10),66,81,88,47,57,80,80,64,64,28,45,8,8,0.6,1
2023-02-22T17:00:00,2183A,111.1406,37.5211,吕梁市,环保局,颗粒物(PM10),73,96,95,46,39,68,68,49,49,37,57,11,10,0.5,0.5
2023-02-22T17:00:00,2185A,111.1297,37.5136,吕梁市,自来水公司,颗粒物(PM10),74,98,92,46,38,65,64,48,48,39,49,12,13,0.6,0.7
2023-02-22T17:00:00,2187A,106.8174,39.6973,乌海市,市林业局,颗粒物(PM10),60,70,112,23,57,119,118,86,86,17,50,24,26,0.8,1.5
2023-02-22T17:00:00,2188A,106.7907,39.6667,乌海市,中海勃湾学校,颗粒物(PM10),60,69,121,29,55,118,115,78,78,26,57,22,38,0.7,1.3
2023-02-22T17:00:00,2191A,122.2532,43.6801,通辽市,艺术职业学校,,49,49,61,23,29,75,73,64,64,17,26,9,31,0.2,0.5
2023-02-22T17:00:00,2192A,119.7594,49.2261,呼伦贝尔市,区环保局,,24,24,37,14,22,75,71,66,66,11,20,5,5,0.4,0.5
2023-02-22T17:00:00,2195A,107.4212,40.761,巴彦淖尔市,附二中,颗粒物(PM10),64,78,98,24,36,91,90,71,71,12,36,3,10,0.6,0.9
2023-02-22T17:00:00,2196A,107.37,40.7372,巴彦淖尔市,市环保大楼,,,64,85,28,44,95,95,74,74,,40,6,12,0.5,0.8
2023-02-22T17:00:00,2197A,113.1306,40.9923,乌兰察布市,集宁新区,细颗粒物(PM2.5),69,74,82,50,56,89,84,78,78,19,26,6,10,0.6,0.6
2023-02-22T17:00:00,2200A,122.0392,46.0656,兴安盟,胜华新制药厂,,33,20,28,23,19,84,72,74,74,21,16,5,6,0.7,0.7
2023-02-22T17:00:00,2201A,121.9504,46.0741,兴安盟,科右前旗环保局,,30,20,30,21,19,87,81,77,77,14,20,2,4,0.5,0.8
2023-02-22T17:00:00,2202A,116.1042,43.9317,锡林郭勒盟,市环保监测站,,27,27,32,13,15,75,69,55,55,6,14,9,8,0.3,0.4
2023-02-22T17:00:00,2203A,116.0781,43.9311,锡林郭勒盟,市政府,,40,40,31,2,14,74,70,57,57,8,17,8,9,0.2,0.4
2023-02-22T17:00:00,2204A,105.6467,38.8363,阿拉善盟,西城区西花园,颗粒物(PM10),62,73,73,36,35,119,119,104,104,19,22,16,12,0.9,0.9
2023-02-22T17:00:00,2205A,105.6985,38.8411,阿拉善盟,蒙二幼,细颗粒物(PM2.5),85,69,64,63,42,122,122,104,104,16,16,15,12,0.7,0.7
2023-02-22T17:00:00,2206A,105.724,38.8516,阿拉善盟,环保局新楼,细颗粒物(PM2.5),54,50,59,38,40,120,117,106,106,12,12,12,11,0.6,0.5
2023-02-22T17:00:00,2207A,121.6094,41.998,阜新市,工业园区,细颗粒物(PM2.5),83,114,80,61,44,61,50,50,50,41,32,22,20,1.0,0.6
2023-02-22T17:00:00,2208A,121.6697,42.0279,阜新市,长青街,,,96,66,60,36,71,62,60,60,41,29,,26,1.3,1
2023-02-22T17:00:00,2209A,121.6673,42.0705,阜新市,农业园区,细颗粒物(PM2.5),98,71,59,73,46,66,61,57,57,34,24,26,20,1.1,0.9
2023-02-22T17:00:00,2210A,121.6717,42.0224,阜新市,东苑,细颗粒物(PM2.5),94,104,82,70,52,68,47,51,51,48,29,27,28,1.1,0.9
2023-02-22T17:00:00,2211A,121.6506,42.0498,阜新市,玉龙新城,细颗粒物(PM2.5),83,72,62,61,35,71,63,61,61,34,27,26,20,1.1,0.9
2023-02-22T17:00:00,2212A,123.2,41.1953,辽阳市,宏伟区,,41,41,43,27,24,75,65,70,70,17,28,11,15,0.6,0.8
2023-02-22T17:00:00,2213A,123.1683,41.2495,辽阳市,新华园,颗粒物(PM10),53,55,57,32,33,88,74,81,81,25,40,13,26,0.8,1.2
2023-02-22T17:00:00,2214A,123.2354,41.2639,辽阳市,滨河路,细颗粒物(PM2.5),62,44,51,44,35,71,62,65,65,20,32,10,12,0.6,1.3
2023-02-22T17:00:00,2215A,123.149,41.2991,辽阳市,铁西工业园,颗粒物(PM10),60,69,71,40,42,69,60,62,62,33,43,13,18,0.8,1.2
2023-02-22T17:00:00,2216A,123.8139,42.3022,铁岭市,汇工街西,颗粒物(PM10),70,89,73,38,33,75,70,69,69,29,38,20,21,0.7,0.8
2023-02-22T17:00:00,2217A,123.8649,42.2923,铁岭市,水上乐园,颗粒物(PM10),59,68,80,35,42,76,66,68,68,40,48,19,21,1.1,1.4
2023-02-22T17:00:00,2218A,123.8486,42.2867,铁岭市,银州路东段,颗粒物(PM10),69,87,71,29,34,72,68,66,66,39,43,14,14,0.9,1
2023-02-22T17:00:00,2219A,123.7153,42.2217,铁岭市,金沙江路北,颗粒物(PM10),69,88,72,41,32,71,60,65,65,42,46,17,18,0.8,0.9
2023-02-22T17:00:00,2220A,120.4318,41.5881,朝阳市,西梁,细颗粒物(PM2.5),82,82,60,60,34,69,69,57,57,30,27,14,17,0.8,0.7
2023-02-22T17:00:00,2221A,120.4521,41.5646,朝阳市,河畔小区,细颗粒物(PM2.5),78,73,58,57,34,83,83,68,68,26,23,12,15,0.9,0.8
2023-02-22T17:00:00,2222A,120.4176,41.5648,朝阳市,八里堡,,,99,60,58,33,73,72,60,60,,29,17,17,1.0,1
2023-02-22T17:00:00,2223A,120.3806,41.5969,朝阳市,农业园区,细颗粒物(PM2.5),102,92,66,76,39,70,66,59,59,26,23,19,18,1.1,0.9
2023-02-22T17:00:00,2225A,124.4002,43.1713,四平市,一商场,颗粒物(PM10),102,153,77,30,31,73,66,68,68,26,30,8,13,0.8,0.7
2023-02-22T17:00:00,2226A,124.388,43.193,四平市,境园,颗粒物(PM10),84,117,74,29,32,74,69,68,68,22,30,5,9,0.3,0.6
2023-02-22T17:00:00,2227A,125.1358,42.8845,辽源市,环保局,细颗粒物(PM2.5),53,48,54,37,41,91,81,83,83,25,36,16,14,0.8,0.8
2023-02-22T17:00:00,2229A,125.9358,41.7173,通化市,光明,,28,28,49,11,28,82,78,69,69,16,34,15,19,0.5,0.8
2023-02-22T17:00:00,2230A,125.9446,41.7325,通化市,铁路,,30,30,46,13,26,83,80,70,70,16,37,12,21,0.3,0.7
2023-02-22T17:00:00,2231A,126.4219,41.9171,白山市,喜丰,,43,43,58,17,26,82,77,71,71,16,30,9,17,1.0,0.9
2023-02-22T17:00:00,2232A,126.4077,41.9419,白山市,环保局,,47,47,81,25,32,73,70,62,62,16,38,11,16,1.0,1.2
2023-02-22T17:00:00,2233A,124.8006,45.1214,松原市,江南,,42,34,42,29,27,70,62,60,60,21,20,8,10,0.5,0.4
2023-02-22T17:00:00,2234A,124.7965,45.1722,松原市,江北,,,39,43,18,22,64,61,58,58,,14,4,6,0.6,0.6
2023-02-22T17:00:00,2235A,122.7911,45.6077,白城市,洮北区环保局,,,3,43,,24,75,72,64,64,15,14,5,5,0.3,0.4
2023-02-22T17:00:00,2236A,122.8738,45.5725,白城市,市环保局,,33,33,42,11,14,80,80,70,70,13,20,4,6,0.2,0.3
2023-02-22T17:00:00,2237A,129.47,42.8883,延边朝鲜族自治州,妇幼医院,,,19,30,,20,86,78,73,73,18,21,9,16,0.8,0.6
2023-02-22T17:00:00,2238A,129.5055,42.9108,延边朝鲜族自治州,延边医院,,23,19,37,10,22,83,73,58,58,24,31,15,25,0.5,0.7
2023-02-22T17:00:00,2239A,129.3964,42.8881,延边朝鲜族自治州,朝阳川镇医院,,29,29,32,17,16,83,70,72,72,21,14,26,10,0.4,0.5
2023-02-22T17:00:00,2240A,130.9762,45.3001,鸡西市,环保局,,27,27,33,14,20,82,77,76,76,18,17,5,6,0.3,0.4
2023-02-22T17:00:00,2243A,130.9429,45.3039,鸡西市,第一中学,,27,19,33,14,20,87,84,81,81,6,6,4,6,0.4,0.4
2023-02-22T17:00:00,2244A,130.2537,47.3416,鹤岗市,哈啤分公司,颗粒物(PM10),51,52,40,30,21,85,85,78,67,19,18,14,12,0.5,0.4
2023-02-22T17:00:00,2245A,130.2684,47.3086,鹤岗市,斯达机电,颗粒物(PM10),59,68,52,30,23,93,75,76,76,30,17,14,10,0.4,0.3
2023-02-22T17:00:00,2246A,130.3114,47.3388,鹤岗市,东山纸板厂,颗粒物(PM10),60,69,62,28,25,86,79,72,72,17,14,14,15,0.4,0.4
2023-02-22T17:00:00,2247A,130.1097,47.3382,鹤岗市,五号水库,,42,41,24,29,20,100,93,85,85,10,7,11,7,0.5,0.5
2023-02-22T17:00:00,2248A,131.1511,46.6937,双鸭山市,双合村,,45,45,38,22,24,98,90,89,89,14,11,15,13,0.8,0.7
2023-02-22T17:00:00,2249A,131.1652,46.6191,双鸭山市,南小市,,36,36,46,23,26,102,93,92,92,14,11,8,9,0.4,0.8
2023-02-22T17:00:00,2250A,131.1524,46.6554,双鸭山市,环保局,,39,39,48,24,32,101,92,90,90,20,18,15,16,0.6,0.7
2023-02-22T17:00:00,2251A,131.12,46.5656,双鸭山市,苗圃,细颗粒物(PM2.5),53,40,43,37,38,124,118,115,115,10,11,5,7,0.2,0.2
2023-02-22T17:00:00,2252A,128.5159,47.4311,伊春市,环保局,,49,49,35,33,31,78,75,66,66,24,18,10,9,0.6,0.6
2023-02-22T17:00:00,2253A,128.9102,47.7412,伊春市,电力嘉园,细颗粒物(PM2.5),54,42,38,38,25,93,91,75,75,14,14,12,10,0.6,0.7
2023-02-22T17:00:00,2254A,129.5029,48.471,伊春市,汤旺河国家公园,,47,47,39,27,22,81,76,74,73,6,5,9,7,0.2,0.3
2023-02-22T17:00:00,2255A,130.2751,46.8028,佳木斯市,佳纺,细颗粒物(PM2.5),69,80,53,50,39,87,76,78,78,29,21,11,8,0.8,0.6
2023-02-22T17:00:00,2256A,130.3995,46.8307,佳木斯市,发电厂,,46,42,34,32,28,96,85,87,87,23,22,6,7,0.6,0.5
2023-02-22T17:00:00,2257A,130.3258,46.7975,佳木斯市,环保局,,42,42,36,29,28,89,85,82,82,16,18,8,7,0.5,0.4
2023-02-22T17:00:00,2258A,130.3648,46.8032,佳木斯市,十一中,,48,48,36,33,29,88,66,78,78,40,22,11,6,0.7,0.5
2023-02-22T17:00:00,2259A,130.3794,46.7588,佳木斯市,四丰,臭氧1小时,55,29,28,16,21,167,164,156,156,9,7,1,1,0.4,0.3
2023-02-22T17:00:00,2262A,131.0518,45.8751,七台河市,新一中,,45,45,34,18,24,97,91,90,90,17,12,11,8,0.6,0.5
2023-02-22T17:00:00,2263A,127.4833,50.2524,黑河市,交通局,,29,29,24,14,18,77,73,67,67,18,16,11,10,0.5,0.5
2023-02-22T17:00:00,2264A,127.5144,50.2341,黑河市,环保局,,47,47,38,28,20,80,78,80,71,15,15,9,11,0.4,0.4
2023-02-22T17:00:00,2265A,127.5291,50.2472,黑河市,大黑河岛,,29,29,16,18,18,84,81,76,73,4,4,7,11,0.3,0.4
2023-02-22T17:00:00,2266A,126.9785,46.6365,绥化市,人和东街,细颗粒物(PM2.5),78,86,72,57,48,96,83,83,83,30,27,6,13,0.5,0.9
2023-02-22T17:00:00,2267A,126.964,46.6528,绥化市,党政办公中心,细颗粒物(PM2.5),82,75,60,60,50,95,93,82,82,20,20,5,7,0.4,0.4
2023-02-22T17:00:00,2269A,124.1069,50.4097,大兴安岭地区,科技局,,27,19,13,9,12,87,85,84,84,5,4,4,5,0.2,0.2
2023-02-22T17:00:00,2270A,117.396,32.939,蚌埠市,工人疗养院,,49,31,42,34,26,76,56,57,49,20,23,6,9,0.2,0.2
2023-02-22T17:00:00,2271A,117.3605,32.9427,蚌埠市,百货大楼,,49,37,50,34,21,71,49,56,44,24,26,1,3,0.4,0.3
2023-02-22T17:00:00,2273A,117.4185,32.8911,蚌埠市,蚌埠学院,细颗粒物(PM2.5),52,44,46,36,19,70,34,55,47,52,33,16,8,0.4,0.3
2023-02-22T17:00:00,2274A,117.3533,32.9673,蚌埠市,淮上区政府,,36,36,51,24,20,77,56,61,52,20,19,7,8,0.4,0.3
2023-02-22T17:00:00,2275A,117.3145,32.8977,蚌埠市,高新区,,36,36,44,24,20,75,58,64,48,21,22,4,5,0.4,0.4
2023-02-22T17:00:00,2277A,116.8305,32.7727,淮南市,潘集区政府,细颗粒物(PM2.5),54,52,53,38,32,60,46,54,47,24,19,5,5,0.3,0.3
2023-02-22T17:00:00,2278A,117.0067,32.6524,淮南市,师范学院,颗粒物(PM10),59,67,57,23,25,62,30,62,36,33,20,10,11,0.3,0.3
2023-02-22T17:00:00,2279A,116.8569,32.5951,淮南市,谢家集区政府,颗粒物(PM10),58,66,55,37,27,62,38,62,40,30,19,8,9,0.4,0.3
2023-02-22T17:00:00,2280A,116.8281,32.633,淮南市,八公山区政府,颗粒物(PM10),55,59,51,26,21,65,38,64,41,27,17,8,7,0.3,0.3
2023-02-22T17:00:00,2281A,116.6325,32.6201,淮南市,焦岗湖风景区管理处,颗粒物(PM10),62,73,54,41,27,49,27,46,31,30,21,5,5,0.6,0.6
2023-02-22T17:00:00,2282A,116.8004,33.975,淮北市,监测站,,44,44,52,18,23,81,78,69,69,10,15,5,5,0.4,0.4
2023-02-22T17:00:00,2283A,116.8091,33.9007,淮北市,烈山区政府,,44,44,57,14,24,84,73,65,65,18,28,6,6,0.3,0.3
2023-02-22T17:00:00,2284A,116.7856,33.9477,淮北市,职业技术学院,,45,45,54,22,26,86,78,70,70,17,19,6,6,0.3,0.3
2023-02-22T17:00:00,2285A,117.8177,30.9412,铜陵市,市第四中学,颗粒物(PM10),54,57,56,31,27,64,45,45,44,33,26,7,8,0.3,0.3
2023-02-22T17:00:00,2286A,117.8059,30.9273,铜陵市,市公路局,,,58,60,32,33,64,,44,41,30,24,3,12,0.7,0.6
2023-02-22T17:00:00,2287A,117.7807,30.9413,铜陵市,市新民污水厂,颗粒物(PM10),55,59,52,36,29,68,47,52,46,34,28,5,5,0.5,0.4
2023-02-22T17:00:00,2288A,117.7439,30.8792,铜陵市,市第九中学,颗粒物(PM10),63,76,64,37,32,64,37,36,36,39,31,7,9,0.8,0.8
2023-02-22T17:00:00,2289A,117.846,30.9413,铜陵市,车站新区,颗粒物(PM10),52,54,46,30,26,75,45,48,48,31,22,8,7,0.8,0.7
2023-02-22T17:00:00,2290A,117.8483,30.97,铜陵市,市职教基地,颗粒物(PM10),54,57,48,32,23,65,46,49,48,29,23,7,6,0.2,0.2
2023-02-22T17:00:00,2291A,117.0809,30.5177,安庆市,环科院,细颗粒物(PM2.5),67,63,55,48,35,85,45,54,43,27,24,6,8,0.5,0.5
2023-02-22T17:00:00,2292A,117.0331,30.5119,安庆市,马山宾馆,颗粒物(PM10),62,73,56,38,26,84,42,53,39,24,24,6,7,0.5,0.5
2023-02-22T17:00:00,2294A,116.9896,30.6145,安庆市,安庆大学,细颗粒物(PM2.5),64,67,57,46,29,85,48,57,46,26,24,7,8,0.6,0.6
2023-02-22T17:00:00,2295A,118.2903,29.6963,黄山市,延安路89号,,,90,37,40,28,105,92,81,81,,16,5,5,0.2,0.2
2023-02-22T17:00:00,2296A,118.327,29.7178,黄山市,黄山东路89号,,39,39,39,19,9,99,94,82,82,16,18,5,5,0.2,0.2
2023-02-22T17:00:00,2297A,118.1371,30.2756,黄山市,黄山区政府5号楼,颗粒物(PM10),59,68,60,39,34,90,59,65,65,23,23,7,7,0.3,0.6
2023-02-22T17:00:00,2298A,118.3093,32.3153,滁州市,老年大学,颗粒物(PM10),54,57,52,34,27,75,53,66,51,32,26,8,7,0.4,0.3
2023-02-22T17:00:00,2299A,118.3244,32.2786,滁州市,人大宾馆,颗粒物(PM10),56,61,55,31,28,72,59,59,50,20,19,7,6,0.3,0.3
2023-02-22T17:00:00,2301A,115.8277,32.8929,阜阳市,市监测站,颗粒物(PM10),64,78,51,45,31,74,48,52,46,19,17,5,5,0.4,0.3
2023-02-22T17:00:00,2303A,115.8554,32.8605,阜阳市,开发区,细颗粒物(PM2.5),70,88,63,51,30,70,47,53,46,23,22,7,7,0.6,0.5
2023-02-22T17:00:00,2307A,116.5079,31.737,六安市,监测大楼,,,74,54,48,34,64,33,46,39,,25,5,5,,0.3
2023-02-22T17:00:00,2308A,116.4738,31.7643,六安市,皖西学院,颗粒物(PM10),66,81,61,41,30,73,42,48,44,32,26,5,6,0.4,0.3
2023-02-22T17:00:00,2309A,116.4996,31.7905,六安市,朝阳厂,颗粒物(PM10),55,60,48,38,27,76,46,58,45,33,29,9,7,0.5,0.4
2023-02-22T17:00:00,2310A,116.5567,31.7886,六安市,开发区,颗粒物(PM10),67,83,63,42,31,63,46,48,41,19,17,6,6,0.5,0.3
2023-02-22T17:00:00,2311A,115.8072,33.8399,亳州市,污水处理厂,,29,27,48,20,30,73,72,65,65,3,10,5,6,0.2,0.3
2023-02-22T17:00:00,2312A,115.7789,33.8518,亳州市,三国揽胜宫,,29,29,53,17,26,81,81,69,69,3,10,3,4,0.1,0.2
2023-02-22T17:00:00,2314A,117.47,30.6618,池州市,池州学院,细颗粒物(PM2.5),78,83,61,57,38,72,46,41,39,24,25,7,10,0.5,0.5
2023-02-22T17:00:00,2316A,118.7581,30.9454,宣城市,鳌峰子站,,43,43,50,21,26,78,64,66,66,16,21,7,9,0.5,0.5
2023-02-22T17:00:00,2317A,118.7385,30.9743,宣城市,敬亭山子站,,39,39,51,23,27,71,61,59,59,29,29,8,8,0.3,0.3
2023-02-22T17:00:00,2318A,118.7173,30.9427,宣城市,开发区子站,,39,39,50,24,27,74,63,59,59,19,24,5,6,0.5,0.5
2023-02-22T17:00:00,2319A,119.0141,25.4325,莆田市,荔城区仓后路,,23,21,25,16,9,106,69,90,80,13,5,8,8,0.5,0.5
2023-02-22T17:00:00,2320A,119.0015,25.4553,莆田市,莆田市监测站,,,,26,,12,109,81,94,81,,10,,6,0.4,0.4
2023-02-22T17:00:00,2321A,119.1119,25.4561,莆田市,涵江区六中,,35,34,26,24,12,106,76,89,80,19,12,6,6,0.3,0.4
2023-02-22T17:00:00,2322A,119.1013,25.3215,莆田市,秀屿区政府,,42,42,32,20,12,99,75,86,76,15,9,5,5,0.4,0.3
2023-02-22T17:00:00,2323A,118.981,25.4792,莆田市,东圳水库,,,,,,,,,,,,,,,,
2023-02-22T17:00:00,2324A,117.6211,26.2625,三明市,三钢,,41,41,34,16,21,112,111,100,100,11,20,6,8,0.5,0.6
2023-02-22T17:00:00,2325A,117.635,26.2714,三明市,三明二中,,33,25,29,18,18,107,105,96,96,15,21,4,5,0.2,0.3
2023-02-22T17:00:00,2326A,117.6028,26.2378,三明市,三元区政府,,34,30,41,12,19,109,106,96,96,13,26,10,12,0.3,0.5
2023-02-22T17:00:00,2327A,117.7275,26.3108,三明市,洋溪,,,,,,,,,,,,,,,,
2023-02-22T17:00:00,2331A,118.0966,26.6761,南平市,茫荡山,,,,,,,,,,,,,,,,
2023-02-22T17:00:00,2332A,118.1681,26.6369,南平市,南平市监测站,,,,28,18,16,103,,98,96,9,14,,4,0.5,0.6
2023-02-22T17:00:00,2333A,118.1825,26.6489,南平市,南平铝业有限公司,,28,26,37,10,16,97,89,90,86,14,17,8,10,0.4,0.4
2023-02-22T17:00:00,2334A,118.1756,26.6272,南平市,南平七中,,34,29,33,13,12,112,107,104,100,10,14,4,4,0.5,0.6
2023-02-22T17:00:00,2335A,117.0189,25.1181,龙岩市,龙岩师专,,,,,,,,,,,,,,,,
2023-02-22T17:00:00,2336A,117.0217,25.1033,龙岩市,龙岩市监测站,,38,38,29,11,13,117,111,107,107,14,15,10,12,0.3,0.3
2023-02-22T17:00:00,2337A,117.0258,25.0661,龙岩市,闽西职业技术学院,,50,46,44,35,16,114,105,101,101,15,24,11,14,0.4,0.5
2023-02-22T17:00:00,2338A,117.0196,25.0306,龙岩市,龙岩学院,,35,33,32,20,15,114,109,99,99,15,18,6,4,0.5,0.4
2023-02-22T17:00:00,2339A,119.5001,26.6946,宁德市,金涵水库,,,,,,,,,,,,,,,,
2023-02-22T17:00:00,2341A,119.5388,26.6612,宁德市,宁德市监测站,,34,34,31,18,16,108,81,78,78,21,14,5,3,0.5,0.5
2023-02-22T17:00:00,2342A,117.3102,29.3867,景德镇市,王港中学,,,76,41,70,26,60,57,41,41,,12,4,4,0.2,0.1
2023-02-22T17:00:00,2343A,117.2117,29.2933,景德镇市,老干部活动中心,细颗粒物(PM2.5),90,105,69,67,33,96,66,69,69,16,21,8,8,0.6,0.6
2023-02-22T17:00:00,2344A,117.1894,29.2789,景德镇市,兽医站,细颗粒物(PM2.5),83,67,40,61,24,109,85,79,79,16,16,6,5,0.6,0.6
2023-02-22T17:00:00,2345A,117.1547,29.2617,景德镇市,台达陶瓷,,47,47,40,28,22,100,77,71,70,27,22,30,10,0.9,0.9
2023-02-22T17:00:00,2346A,117.2461,29.2956,景德镇市,陶研所,细颗粒物(PM2.5),77,81,55,56,24,104,73,75,75,11,20,6,5,0.8,0.7
2023-02-22T17:00:00,2347A,114.0997,27.5002,萍乡市,武功山,细颗粒物(PM2.5),57,55,37,40,28,116,77,77,77,27,17,16,11,0.6,0.6
2023-02-22T17:00:00,2348A,113.8385,27.6434,萍乡市,中医院,细颗粒物(PM2.5),94,106,79,70,44,112,44,105,65,36,16,23,22,0.7,0.6
2023-02-22T17:00:00,2349A,113.8493,27.6253,萍乡市,市政府车库,细颗粒物(PM2.5),75,89,79,55,52,118,56,101,68,28,17,15,18,1.2,1.1
2023-02-22T17:00:00,2350A,113.8676,27.6435,萍乡市,市环保局,颗粒物(PM10),69,88,78,45,52,114,52,104,71,35,17,23,25,0.7,0.5
2023-02-22T17:00:00,2351A,113.866,27.6198,萍乡市,安源区政府,细颗粒物(PM2.5),75,98,84,55,49,109,60,96,69,27,24,18,24,0.6,1
2023-02-22T17:00:00,2352A,115.0861,27.9317,新余市,北岗,,46,24,48,32,32,103,56,56,51,25,29,20,20,0.8,0.5
2023-02-22T17:00:00,2353A,114.9886,27.8431,新余市,飞宇,颗粒物(PM10),55,60,70,24,34,95,54,59,51,21,24,16,28,0.4,0.5
2023-02-22T17:00:00,2354A,114.9231,27.8246,新余市,第二水厂,颗粒物(PM10),58,65,69,26,35,89,51,57,45,24,24,15,18,0.3,0.2
2023-02-22T17:00:00,2355A,114.9308,27.8036,新余市,市气象局,颗粒物(PM10),59,68,77,34,35,96,58,62,44,28,30,17,17,0.2,0.4
2023-02-22T17:00:00,2357A,116.9822,28.1136,鹰潭市,龙虎山,颗粒物(PM10),54,58,45,28,26,125,95,90,90,8,5,12,7,0.4,0.7
2023-02-22T17:00:00,2358A,117.0564,28.2642,鹰潭市,新监测站,颗粒物(PM10),56,61,50,33,30,141,88,88,88,20,20,7,15,0.3,0.4
2023-02-22T17:00:00,2359A,117.0311,28.2475,鹰潭市,财苑宾馆,颗粒物(PM10),55,59,49,24,26,128,88,87,87,19,20,13,16,0.4,0.3
2023-02-22T17:00:00,2360A,117.0222,28.2264,鹰潭市,体育馆,颗粒物(PM10),55,60,47,34,28,115,90,88,88,20,20,11,13,0.2,0.1
2023-02-22T17:00:00,2361A,117.0017,28.2131,鹰潭市,三川水表,颗粒物(PM10),61,71,58,36,31,105,79,85,85,27,29,10,7,0.6,0.4
2023-02-22T17:00:00,2362A,114.9017,25.9149,赣州市,通天岩,颗粒物(PM10),54,58,55,27,29,133,125,120,120,3,3,9,10,0.9,0.9
2023-02-22T17:00:00,2363A,114.9367,25.8664,赣州市,地委,,47,47,64,24,33,135,129,117,117,17,21,6,15,1.1,1
2023-02-22T17:00:00,2364A,114.9461,25.8481,赣州市,气象台,,38,30,51,26,36,127,120,110,110,18,19,13,21,0.7,0.7
2023-02-22T17:00:00,2365A,114.9322,25.8333,赣州市,市图书馆,,40,38,60,27,35,127,126,114,114,13,15,17,21,1.0,1
2023-02-22T17:00:00,2366A,114.8905,25.8471,赣州市,华坚鞋城,颗粒物(PM10),58,65,64,21,32,125,125,100,100,28,24,7,10,0.8,0.8
2023-02-22T17:00:00,2367A,114.9754,27.0803,吉安市,红声器材厂,颗粒物(PM10),56,61,69,28,35,118,85,84,80,27,28,9,13,0.6,0.7
2023-02-22T17:00:00,2368A,114.9658,27.0999,吉安市,市森林工业局,颗粒物(PM10),53,55,64,35,39,126,84,94,77,22,21,7,10,0.6,0.5
2023-02-22T17:00:00,2369A,114.99,27.1312,吉安市,市环境监测站,颗粒物(PM10),54,57,63,28,36,122,91,89,83,26,26,9,11,0.5,0.5
2023-02-22T17:00:00,2370A,115.0093,27.0968,吉安市,青原区法院,颗粒物(PM10),55,59,63,33,36,125,92,98,83,27,26,8,12,0.5,0.6
2023-02-22T17:00:00,2371A,114.3408,27.8064,宜春市,槟榔水业,,,56,59,32,33,99,43,74,58,18,19,,15,0.5,0.5
2023-02-22T17:00:00,2373A,114.3956,27.7844,宜春市,市石油公司,,,76,74,47,40,123,66,73,73,27,26,,11,0.5,0.6
2023-02-22T17:00:00,2374A,114.3703,27.7914,宜春市,市气象局,颗粒物(PM10),57,64,65,27,37,117,68,80,74,35,30,16,15,0.4,0.4
2023-02-22T17:00:00,2375A,114.4013,27.8074,宜春市,市广电局,,,63,68,32,42,122,84,101,87,32,29,17,15,,0.8
2023-02-22T17:00:00,2376A,116.2127,28.0814,抚州市,桐源党溪,,48,48,50,24,28,131,91,85,85,1,1,2,2,0.2,0.3
2023-02-22T17:00:00,2377A,116.3544,27.9831,抚州市,市站,颗粒物(PM10),52,53,58,29,30,119,90,81,81,18,21,2,7,0.5,0.5
2023-02-22T17:00:00,2378A,116.3565,27.963,抚州市,血防站,颗粒物(PM10),53,56,66,29,31,113,86,78,78,16,18,9,11,0.5,0.5
2023-02-22T17:00:00,2379A,116.3564,28.0007,抚州市,采茶剧团,颗粒物(PM10),51,51,55,24,30,116,82,86,86,16,19,5,6,0.7,0.7
2023-02-22T17:00:00,2380A,116.385,27.9647,抚州市,医学分院,颗粒物(PM10),60,70,59,29,27,107,91,86,86,14,20,8,10,0.6,0.7
2023-02-22T17:00:00,2381A,118.005,28.4572,上饶市,百草园,,,,,,,,,,,,,,,,
2023-02-22T17:00:00,2382A,117.9756,28.4436,上饶市,市监测站,,50,50,48,23,20,114,100,87,87,24,20,7,10,0.4,0.4
2023-02-22T17:00:00,2383A,117.9519,28.4628,上饶市,凤凰光学,,41,41,52,24,22,108,98,86,86,14,18,8,15,0.5,0.5
2023-02-22T17:00:00,2385A,114.17,35.9019,鹤壁市,市监测站,细颗粒物(PM2.5),83,106,77,61,48,82,82,59,59,22,28,13,13,0.5,0.6
2023-02-22T17:00:00,2386A,114.2956,35.7511,鹤壁市,市交警支队,,,61,70,35,36,85,85,56,56,18,33,,18,0.3,0.3
2023-02-22T17:00:00,2387A,114.2878,35.7306,鹤壁市,迎宾馆,颗粒物(PM10),58,65,61,34,39,87,87,61,61,17,31,9,14,0.3,0.4
2023-02-22T17:00:00,2389A,113.836,35.311,新乡市,环保西院,,45,45,69,17,36,92,74,63,63,22,31,5,7,0.4,0.5
2023-02-22T17:00:00,2390A,113.884,35.272,新乡市,开发区,,39,39,72,17,38,89,82,66,66,13,28,6,9,0.3,0.5
2023-02-22T17:00:00,2391A,113.883,35.303,新乡市,环保东院,,,47,63,47,40,89,,63,63,10,26,6,9,0.4,0.6
2023-02-22T17:00:00,2392A,115.0312,35.7636,濮阳市,环保局,,46,40,46,32,36,85,80,71,71,9,19,6,10,0.3,0.4
2023-02-22T17:00:00,2394A,115.0574,35.7609,濮阳市,油田运输公司,颗粒物(PM10),63,75,70,35,39,90,79,72,72,13,19,5,8,0.3,0.4
2023-02-22T17:00:00,2395A,115.0866,35.7754,濮阳市,油田物探公司,颗粒物(PM10),54,58,55,34,42,86,79,73,73,10,21,8,11,0.4,0.5
2023-02-22T17:00:00,2396A,113.8276,34.0159,许昌市,监测站,细颗粒物(PM2.5),58,44,47,41,37,85,60,65,65,16,22,3,4,0.3,0.3
2023-02-22T17:00:00,2398A,113.7906,33.9953,许昌市,开发区,细颗粒物(PM2.5),58,25,42,41,33,80,56,62,61,12,21,3,3,0.4,0.4
2023-02-22T17:00:00,2399A,114.051,33.5699,漯河市,三五一五工厂,,42,24,49,29,32,80,62,58,52,14,19,4,7,0.3,0.3
2023-02-22T17:00:00,2400A,114.0055,33.5698,漯河市,漯河大学,,43,30,49,30,33,86,66,64,56,14,20,6,9,0.3,0.3
2023-02-22T17:00:00,2401A,114.0138,33.5828,漯河市,市水利局,,39,27,47,27,30,85,69,65,56,11,18,7,10,0.2,0.2
2023-02-22T17:00:00,2402A,114.0261,33.5698,漯河市,市广电局,,38,24,47,26,29,82,64,60,52,9,15,5,8,0.3,0.3
2023-02-22T17:00:00,2404A,112.5224,33.0122,南阳市,瓦房庄,细颗粒物(PM2.5),67,56,56,48,39,73,56,67,64,32,22,4,5,0.5,0.4
2023-02-22T17:00:00,2405A,112.5003,32.9735,南阳市,汉画馆,细颗粒物(PM2.5),65,54,54,47,38,76,58,70,60,26,19,4,4,0.5,0.5
2023-02-22T17:00:00,2406A,112.5573,33.027,南阳市,气象站,,,,54,,39,80,57,69,68,,17,4,5,,0.4
2023-02-22T17:00:00,2407A,112.5481,32.9689,南阳市,理工学院,细颗粒物(PM2.5),63,52,53,45,31,77,65,69,67,21,17,4,5,0.4,0.5
2023-02-22T17:00:00,2408A,115.6702,34.4285,商丘市,环境监测站,,43,43,51,30,30,76,68,64,64,14,19,4,5,0.1,0.1
2023-02-22T17:00:00,2409A,115.6458,34.4045,商丘市,粮食局,,,42,44,31,32,80,73,69,69,10,15,,5,0.4,0.4
2023-02-22T17:00:00,2410A,115.6293,34.3948,商丘市,睢阳区环保局,,48,48,52,30,27,74,65,62,62,18,21,4,6,0.2,0.2
