timepoint,stationcode,longitude,latitude,area,positionname,primarypollutant,aqi,pm10,pm10_24h,pm2_5,pm2_5_24h,o3,o3_24h,o3_8h,o3_8h_24h,no2,no2_24h,so2,so2_24h,co,co_24h
2026-02-05T1800,2568A,102.2503,31.8896,阿坝藏族羌族自治州,马师校,,41,41,27,11,11,76,,69,69,10,12,4,4,0.5,0.5
2026-02-05T1800,3994A,102.2174,31.9016,阿坝藏族羌族自治州,马尔康中学西区,颗粒物(PM10),59,68,36,7,11,80,,73,73,5,9,5,6,0.4,0.5
2026-02-05T1800,2695A,80.2899,41.1684,阿克苏地区,电视台,颗粒物(PM10),122,194,227,72,96,109,,70,70,16,48,14,11,1.0,2
2026-02-05T1800,2696A,80.2592,41.1541,阿克苏地区,艺术中心,颗粒物(PM10),115,179,213,86,101,112,,66,66,15,59,6,6,0.6,1.4
2026-02-05T1800,2205A,105.699,38.8409,阿拉善盟,蒙二幼,颗粒物(PM10),67,83,42,33,12,69,,85,72,12,11,13,10,0.5,0.5
2026-02-05T1800,2206A,105.7198,38.8508,阿拉善盟,环保局新楼,颗粒物(PM10),59,68,33,32,11,65,,88,70,12,8,12,9,0.6,0.5
2026-02-05T1800,2708A,88.1266,47.8515,阿勒泰地区,市站,细颗粒物(PM2.5),69,51,30,50,22,75,,67,67,21,25,4,3,0.4,0.4
2026-02-05T1800,4166A,88.1198,47.7931,阿勒泰地区,阿勒泰路33号,细颗粒物(PM2.5),77,65,37,56,26,84,,77,77,12,11,7,5,0.8,0.6
2026-02-05T1800,2630A,80.1171,32.4999,阿里地区,阿里监测站,,,6,3,3,5,85,,78,78,,6,,8,0.2,0.3
2026-02-05T1800,3192A,80.0906,32.5029,阿里地区,阿里藏医院,,28,6,9,3,3,88,,80,80,2,4,7,10,0.3,0.4
2026-02-05T1800,2644A,109.0088,32.6974,安康市,汉滨区检察院,颗粒物(PM10),61,71,75,41,50,66,,58,58,30,28,8,7,0.9,0.8
2026-02-05T1800,4054A,109.0324,32.6913,安康市,市邮政管理局,颗粒物(PM10),63,75,93,43,55,54,,58,58,40,35,5,7,1.1,1
2026-02-05T1800,2291A,117.0806,30.5181,安庆市,环科院,细颗粒物(PM2.5),89,83,78,66,62,19,,27,27,48,50,7,8,0.9,0.9
2026-02-05T1800,2292A,117.0331,30.5118,安庆市,马山宾馆,细颗粒物(PM2.5),88,83,74,65,62,22,,32,30,43,50,6,7,1.0,1
2026-02-05T1800,2294A,116.9897,30.6146,安庆市,安庆大学,细颗粒物(PM2.5),69,83,74,50,48,56,,36,36,23,41,5,5,0.7,0.8
2026-02-05T1800,3173A,117.0598,30.5351,安庆市,市人大,细颗粒物(PM2.5),74,93,79,54,46,13,,36,36,53,47,6,7,0.8,0.7
2026-02-05T1800,3123A,105.9408,26.2431,安顺市,凤凰山,细颗粒物(PM2.5),64,53,34,46,26,41,,51,42,14,13,15,14,0.9,0.8
2026-02-05T1800,3124A,105.9443,26.2567,安顺市,金钟山,细颗粒物(PM2.5),59,,26,42,26,39,,49,40,12,10,13,13,0.9,0.8
2026-02-05T1800,3125A,105.8983,26.248,安顺市,娄家坡,细颗粒物(PM2.5),62,55,29,44,26,32,,49,37,16,12,19,15,1.0,0.8
2026-02-05T1800,1819A,114.3552,36.1017,安阳市,红庙街,颗粒物(PM10),72,93,121,21,82,67,,71,71,20,41,1,8,0.4,1.1
2026-02-05T1800,1820A,114.361,36.0681,安阳市,银杏小区,颗粒物(PM10),71,91,125,27,81,67,,72,72,17,40,2,8,0.3,1
2026-02-05T1800,3141A,114.3921,36.0879,安阳市,信访局,颗粒物(PM10),70,90,122,25,71,72,,76,76,10,28,3,12,0.4,1
2026-02-05T1800,3669A,114.4706,36.0634,安阳市,左辅环卫站,颗粒物(PM10),92,134,159,24,87,68,,72,72,17,50,3,11,0.2,0.9
2026-02-05T1800,4117A,114.2918,36.0769,安阳市,钢三路198号,颗粒物(PM10),61,72,136,31,77,62,,67,67,20,30,2,8,0.4,0.9
2026-02-05T1800,1748A,123.0441,41.1201,鞍山市,深沟寺,颗粒物(PM10),140,230,160,13,75,69,,74,74,13,40,6,10,0.5,1.1
2026-02-05T1800,1749A,123.011,41.0931,鞍山市,太阳城,颗粒物(PM10),147,244,168,19,81,63,,68,68,16,40,12,19,0.6,1.3
2026-02-05T1800,1750A,123.0483,41.1445,鞍山市,太平,颗粒物(PM10),165,280,191,20,79,60,,66,66,14,37,8,14,0.4,1.1
2026-02-05T1800,1751A,122.964,41.0968,鞍山市,铁西三道街,颗粒物(PM10),180,310,187,28,91,66,,74,74,17,45,19,19,1.1,1.6
2026-02-05T1800,1753A,123.0219,41.0822,鞍山市,明达新区,颗粒物(PM10),129,208,148,19,79,70,,71,71,12,35,6,12,0.5,1.3
2026-02-05T1800,4201A,122.944647,41.082639,鞍山市,兴盛南路290号,颗粒物(PM10),189,328,192,21,89,73,,74,74,11,38,6,15,0.6,1.2
2026-02-05T1800,2195A,107.4206,40.7609,巴彦淖尔市,附二中,,48,48,78,16,15,75,,73,73,5,8,8,10,0.3,0.4
2026-02-05T1800,2196A,107.37,40.7372,巴彦淖尔市,市环保大楼,,47,47,73,10,16,72,,74,74,10,11,7,7,0.3,0.3
2026-02-05T1800,1956A,86.1476,41.7529,巴音郭楞蒙古自治州,孔雀公园,细颗粒物(PM2.5),75,96,100,55,58,86,,58,58,3,39,9,9,0.5,0.9
2026-02-05T1800,1957A,86.1971,41.7166,巴音郭楞蒙古自治州,棉纺厂,颗粒物(PM10),139,227,221,56,55,,,56,56,8,28,/,/,/,/
2026-02-05T1800,1958A,86.236,41.7172,巴音郭楞蒙古自治州,经济开发区,颗粒物(PM10),118,185,172,29,34,80,,58,58,9,27,7,6,0.5,0.6
2026-02-05T1800,3181A,106.776805,31.852614,巴中市,市五中,细颗粒物(PM2.5),90,84,98,67,74,7,,9,9,40,28,6,6,1.3,1.3
2026-02-05T1800,3183A,106.7419,31.8654,巴中市,圣泉水务公司,细颗粒物(PM2.5),88,88,83,65,63,4,,8,7,43,29,6,6,1.4,1.3
2026-02-05T1800,3616A,106.7617,31.8343,巴中市,市中心医院,细颗粒物(PM2.5),84,76,92,62,71,7,,11,11,46,30,6,6,1.5,1.4
2026-02-05T1800,2235A,122.7909,45.608,白城市,洮北区环保局,颗粒物(PM10),56,61,56,8,12,68,,76,74,8,10,3,7,0.3,0.3
2026-02-05T1800,2236A,122.8741,45.5725,白城市,市环保局,颗粒物(PM10),68,85,64,9,13,64,,71,70,5,9,5,5,0.3,0.3
2026-02-05T1800,2231A,126.4219,41.9172,白山市,喜丰,颗粒物(PM10),174,297,102,9,60,74,,81,76,10,18,7,13,0.5,1
2026-02-05T1800,2232A,126.4082,41.9416,白山市,环保局,颗粒物(PM10),127,203,95,8,67,76,,84,77,8,20,10,15,0.5,1.2
2026-02-05T1800,2647A,104.1727,36.5448,白银市,第三小学,,48,48,80,24,48,99,,80,80,15,41,15,63,0.2,1.1
2026-02-05T1800,2648A,104.1467,36.5482,白银市,动力公司,,41,41,61,24,36,94,,91,91,15,31,10,32,0.4,0.8
2026-02-05T1800,2512A,106.6102,23.901,百色市,市监测站,颗粒物(PM10),55,59,60,38,55,94,,91,91,12,17,10,10,0.7,0.9
2026-02-05T1800,2513A,106.6524,23.8842,百色市,市中心血站,,48,48,79,32,66,94,,88,88,11,26,9,11,0.9,1.1
2026-02-05T1800,4133A,106.6273,23.8798,百色市,龙景西路,颗粒物(PM10),58,65,81,32,60,104,,92,92,13,24,11,12,0.6,0.8
2026-02-05T1800,2270A,117.396,32.9389,蚌埠市,工人疗养院,细颗粒物(PM2.5),134,149,124,102,82,108,,108,108,41,51,6,7,0.8,0.9
2026-02-05T1800,2271A,117.3606,32.9428,蚌埠市,百货大楼,细颗粒物(PM2.5),119,141,126,90,80,110,,109,109,36,59,6,7,0.7,0.9
2026-02-05T1800,2273A,117.4183,32.8909,蚌埠市,蚌埠学院,细颗粒物(PM2.5),110,122,109,83,76,120,,114,114,30,44,6,7,0.8,0.8
2026-02-05T1800,2274A,117.3534,32.9672,蚌埠市,淮上区政府,细颗粒物(PM2.5),128,132,117,97,85,118,,124,124,28,61,6,8,0.7,0.8
2026-02-05T1800,2275A,117.3143,32.8977,蚌埠市,高新区,细颗粒物(PM2.5),127,127,114,96,87,113,,106,106,25,52,7,8,0.7,0.7
2026-02-05T1800,3715A,117.3091,32.9314,蚌埠市,蚌埠田家炳中学,细颗粒物(PM2.5),127,140,130,96,87,122,,113,113,25,54,6,28,0.7,0.7
2026-02-05T1800,1585A,109.8761,40.6533,包头市,市环境监测站,,25,11,45,3,11,78,,79,79,11,15,3,6,0.3,0.4
2026-02-05T1800,1587A,109.9992,40.5843,包头市,包头八中,,23,17,44,3,12,73,,70,68,8,17,6,6,0.4,0.5
2026-02-05T1800,1589A,109.8641,40.6288,包头市,惠龙物流,,26,13,38,3,10,81,,81,81,9,13,6,9,0.4,0.4
2026-02-05T1800,1590A,110.0376,40.5546,包头市,东河鸿龙湾,,21,14,42,3,7,67,,70,66,21,24,8,9,0.4,0.4
2026-02-05T1800,3283A,109.9154,40.5684,包头市,滨河大厦,,23,18,33,3,11,73,,72,72,15,17,9,8,0.4,0.5
2026-02-05T1800,3419A,109.9449,40.6259,包头市,包头市委党校,,25,18,36,3,9,80,,79,79,9,16,8,8,0.3,0.4
2026-02-05T1800,3683A,109.8332,40.6577,包头市,昆区政府,,25,16,38,6,12,80,,79,79,10,14,6,8,0.4,0.4
2026-02-05T1800,1931A,107.0802,34.3129,宝鸡市,竹园沟,细颗粒物(PM2.5),95,107,61,71,29,84,,71,71,36,22,13,8,0.7,0.6
2026-02-05T1800,1933A,107.1429,34.3549,宝鸡市,监测站,细颗粒物(PM2.5),165,139,82,125,52,91,,64,64,43,36,10,7,0.8,0.6
2026-02-05T1800,1934A,107.1172,34.3759,宝鸡市,技工学校,细颗粒物(PM2.5),132,149,92,100,53,93,,63,63,37,29,10,9,0.9,0.7
2026-02-05T1800,1936A,107.2025,34.3518,宝鸡市,文理学院,细颗粒物(PM2.5),142,140,88,108,52,100,,68,68,36,35,8,6,1.0,0.9
2026-02-05T1800,1937A,107.2396,34.3626,宝鸡市,三迪小学,细颗粒物(PM2.5),139,141,97,106,56,91,,65,65,47,48,8,6,0.9,0.8
2026-02-05T1800,4155A,107.1721,34.3558,宝鸡市,滨河北路,细颗粒物(PM2.5),129,163,96,98,54,77,,56,56,45,32,10,6,0.8,0.6
2026-02-05T1800,4308A,107.3898,34.3601,宝鸡市,陈仓区北开路21号,细颗粒物(PM2.5),169,167,125,128,80,70,,74,74,52,44,12,45,1.0,0.8
2026-02-05T1800,1051A,115.4803,38.8568,保定市,游泳馆,颗粒物(PM10),54,58,139,11,72,71,,72,72,10,45,3,10,0.5,0.8
2026-02-05T1800,1052A,115.509,38.8895,保定市,华电二区,颗粒物(PM10),52,53,119,10,68,66,,64,64,13,46,3,5,0.5,0.9
2026-02-05T1800,1053A,115.4588,38.9037,保定市,接待中心,,,63,113,12,64,66,,68,68,,38,2,5,0.1,0.5
2026-02-05T1800,1054A,115.4484,38.8344,保定市,地表水厂,颗粒物(PM10),67,83,145,9,62,72,,75,75,15,47,2,8,0.1,0.6
2026-02-05T1800,3581A,115.3136,38.9511,保定市,满城区生态环境分局,颗粒物(PM10),54,58,128,3,50,72,,70,70,12,36,1,5,0.2,0.6
2026-02-05T1800,3582A,115.4709,38.7628,保定市,清苑区第二中学,颗粒物(PM10),68,85,165,10,68,67,,72,72,19,41,5,11,0.2,0.7
2026-02-05T1800,3583A,115.6231,39.0223,保定市,徐水物探局,颗粒物(PM10),61,72,174,18,77,70,,75,75,14,45,5,11,0.4,0.8
2026-02-05T1800,4004A,115.4199,38.8665,保定市,双鹰农机,颗粒物(PM10),61,71,152,10,68,76,,77,77,5,43,3,9,0.2,0.7
2026-02-05T1800,4034A,115.515,38.8589,保定市,植保所站,颗粒物(PM10),63,75,131,10,66,70,,71,71,11,49,3,5,0.5,1
2026-02-05T1800,2594A,99.1589,25.1137,保山市,市环境监测站,,34,34,29,12,17,90,,90,90,6,9,4,4,0.3,0.3
2026-02-05T1800,2595A,99.1616,25.1381,保山市,市环保局,,40,40,35,15,17,90,,86,86,4,6,3,3,0.5,0.5
2026-02-05T1800,1867A,109.1435,21.4085,北海市,海滩公园,细颗粒物(PM2.5),83,,45,61,21,86,,103,103,35,12,2,6,1.0,0.9
2026-02-05T1800,1868A,109.0983,21.466,北海市,新市环保局,,30,29,38,14,19,94,,93,93,20,14,6,6,0.5,0.5
2026-02-05T1800,1869A,109.1775,21.5232,北海市,北海工业园,,37,37,48,13,22,92,,91,91,10,10,5,5,0.6,0.6
2026-02-05T1800,3400A,109.1844,21.4396,北海市,龙潭自来水厂,,30,29,38,10,24,96,,92,92,7,8,3,4,0.4,0.5
2026-02-05T1800,1001A,116.3611,39.8786,北京市,万寿西宫,,27,25,69,3,37,84,,83,83,3,22,2,3,0.4,0.5
2026-02-05T1800,1003A,116.4174,39.9289,北京市,东四,,23,23,68,3,35,62,,62,62,10,25,4,5,0.2,0.4
2026-02-05T1800,1004A,116.4073,39.8858,北京市,天坛,,29,29,66,3,34,72,,73,73,11,22,2,2,0.2,0.4
2026-02-05T1800,1005A,116.4622,39.9364,北京市,农展馆,,24,21,67,3,37,76,,76,76,6,20,5,5,0,0.4
2026-02-05T1800,1006A,116.3399,39.9293,北京市,官园,,26,26,68,3,34,69,,68,68,9,24,2,4,0.3,0.5
2026-02-05T1800,1007A,116.2879,39.9613,北京市,海淀万柳,,22,22,62,3,29,64,,63,63,12,34,2,3,0.2,0.5
2026-02-05T1800,1008A,116.6635,40.1349,北京市,顺义新城,,26,9,87,3,52,81,,82,82,6,35,4,6,0.2,0.7
2026-02-05T1800,1009A,116.6275,40.327,北京市,怀柔镇,,23,13,40,3,24,71,,76,76,9,20,4,4,0.4,0.5
2026-02-05T1800,1010A,116.2295,40.217,北京市,昌平镇,,20,19,60,3,25,42,,69,66,39,25,2,2,0.3,0.5
2026-02-05T1800,1011A,116.3968,39.982,北京市,奥体中心,,23,20,67,3,38,73,,74,74,10,33,5,6,0.2,0.4
2026-02-05T1800,3418A,116.8336,40.4095,北京市,密云新城,,25,11,57,3,33,77,,78,78,4,27,3,4,0.2,0.5
2026-02-05T1800,3671A,116.0879,39.9725,北京市,门头沟三家店,,23,14,45,3,22,72,,77,76,5,18,3,3,0.4,0.5
2026-02-05T1800,3672A,116.1507,39.8246,北京市,丰台云岗,,26,13,51,3,24,83,,83,83,9,27,2,3,0.3,0.5
2026-02-05T1800,3674A,115.9578,39.7602,北京市,房山燕山,,25,13,40,3,21,79,,80,80,8,15,3,5,0.1,0.4
2026-02-05T1800,3675A,116.4669,39.7734,北京市,大兴旧宫,,26,26,70,3,37,73,,74,74,11,27,3,4,0.4,0.6
2026-02-05T1800,3694A,115.9859,40.4562,北京市,延庆石河营,,24,13,45,3,18,75,,78,78,1,22,3,4,0.3,0.5
2026-02-05T1800,3695A,116.6151,40.3052,北京市,怀柔新城,,24,13,41,3,25,74,,78,77,4,11,2,2,0.3,0.4
2026-02-05T1800,3696A,116.2542,39.8764,北京市,丰台小屯,,22,22,67,3,32,60,,59,59,12,35,3,4,0.4,0.5
2026-02-05T1800,3697A,116.8399,40.3843,北京市,密云镇,,25,15,59,3,33,78,,80,80,6,37,3,3,0.3,0.5
2026-02-05T1800,4057A,115.9423,40.4431,北京市,延庆百泉,,23,15,48,3,16,72,,75,75,2,11,2,3,0.2,0.4
2026-02-05T1800,4058A,116.6598,39.9164,北京市,通州新华,,24,13,92,3,60,75,,72,72,8,32,2,4,0.4,0.8
2026-02-05T1800,4182A,116.1942,39.9158,北京市,石景山八角,,22,20,59,3,26,69,,68,68,3,29,5,3,0.1,0.3
2026-02-05T1800,4194A,117.078628,40.151726,北京市,平谷新城,,23,12,66,3,39,73,,70,70,6,27,3,4,0.2,0.7
2026-02-05T1800,1761A,123.8274146,41.31234549,本溪市,大峪,颗粒物(PM10),133,216,115,11,55,68,,72,72,8,32,7,9,0.4,0.8
2026-02-05T1800,1763A,123.7169,41.3094,本溪市,彩屯,颗粒物(PM10),102,154,111,12,65,74,,78,78,14,28,6,12,0.6,1.5
2026-02-05T1800,1764A,123.7672166,41.28649327,本溪市,东明,颗粒物(PM10),153,255,119,11,60,70,,73,73,12,25,8,10,0.7,1
2026-02-05T1800,1765A,123.799345,41.266614,本溪市,新立屯,颗粒物(PM10),163,275,123,11,57,71,,73,73,5,21,9,11,0.7,0.9
2026-02-05T1800,1766A,123.829144,41.336777,本溪市,威宁,颗粒物(PM10),163,275,143,12,54,66,,70,70,13,38,5,7,0.4,1
2026-02-05T1800,2587A,105.287,27.3133,毕节市,八中,颗粒物(PM10),53,55,28,35,19,55,,57,54,10,11,8,8,0.9,0.9
2026-02-05T1800,2588A,105.3079,27.2987,毕节市,师专,细颗粒物(PM2.5),59,59,23,42,16,56,,66,57,15,12,8,8,0.9,0.8
2026-02-05T1800,4263A,105.3688,27.3598,毕节市,工业大道,细颗粒物(PM2.5),59,47,26,42,19,60,,66,59,14,12,9,9,/,/
2026-02-05T1800,1629A,117.9961,37.3604,滨州市,第二水厂,颗粒物(PM10),85,119,189,8,121,68,,63,63,12,51,8,14,0.3,1
2026-02-05T1800,1630A,117.9789,37.3931,滨州市,北中新校,颗粒物(PM10),76,102,180,7,122,74,,66,66,12,36,5,10,0.3,1.1
2026-02-05T1800,3514A,117.9379,37.3959,滨州市,中海酒店,颗粒物(PM10),80,110,178,7,124,85,,79,79,11,45,7,11,0.4,1
2026-02-05T1800,3515A,117.9381509,37.35547456,滨州市,开发区一中,颗粒物(PM10),98,146,206,7,120,71,,64,64,8,56,9,18,0.5,1.1
2026-02-05T1800,3516A,118.0914,37.6938,滨州市,金海六路,,,,215,,166,,,54,,,72,,12,,1.4
2026-02-05T1800,4028A,117.9955,37.3752,滨州市,滨州市西街道办事处,颗粒物(PM10),84,117,185,14,118,75,,71,71,11,43,8,11,0.2,0.9
2026-02-05T1800,2311A,115.8071,33.8399,亳州市,污水处理厂,细颗粒物(PM2.5),152,158,141,116,104,104,,102,102,25,46,6,10,0.7,0.9
2026-02-05T1800,2312A,115.7789,33.8519,亳州市,三国揽胜宫,细颗粒物(PM2.5),155,180,157,118,100,99,,94,94,33,46,6,6,0.7,0.9
2026-02-05T1800,3332A,115.7631,33.803,亳州市,亳州学院,细颗粒物(PM2.5),150,166,142,115,99,93,,87,87,24,32,5,5,0.7,0.8
2026-02-05T1800,2693A,82.0482,44.8553,博尔塔拉蒙古自治州,市党校,"颗粒物(PM10),细颗粒物(PM2.5)",65,80,75,47,40,83,,74,73,18,16,2,3,1.2,0.9
2026-02-05T1800,2694A,82.0805,44.8966,博尔塔拉蒙古自治州,市环保局,细颗粒物(PM2.5),72,85,88,52,51,79,,78,78,25,24,5,6,1.0,1.1
2026-02-05T1800,1071A,116.8733,38.2922,沧州市,沧县城建局,颗粒物(PM10),79,108,171,28,103,70,,75,75,16,51,6,10,0.4,0.8
2026-02-05T1800,1072A,116.8462,38.3189,沧州市,电视转播站,颗粒物(PM10),83,116,160,41,118,69,,74,74,18,46,3,5,0.5,0.9
2026-02-05T1800,1073A,116.8588,38.3161,沧州市,市环保局,颗粒物(PM10),79,108,174,26,96,59,,64,64,18,44,7,9,0.5,0.9
2026-02-05T1800,3324A,116.8011,38.294,沧州市,河北水利电力学院,颗粒物(PM10),80,110,181,32,111,61,,65,65,13,39,5,9,0.4,0.8
2026-02-05T1800,2622A,97.1813,31.1289,昌都市,昌都监测站,,31,17,18,3,7,97,,89,89,2,7,3,3,0.2,0.3
2026-02-05T1800,3719A,97.1707,31.1428,昌都市,昌都会议中心,,31,31,15,9,8,88,,80,80,2,2,4,4,0.2,0.2
2026-02-05T1800,2692A,87.2722,44.0298,昌吉回族自治州,新区政务中心,细颗粒物(PM2.5),93,87,93,69,64,106,,59,59,18,49,9,9,1.3,1.3
2026-02-05T1800,3613A,87.3069,44.0093,昌吉回族自治州,亚心广场,细颗粒物(PM2.5),119,90,109,90,85,107,,55,55,17,42,8,9,1.2,1.2
2026-02-05T1800,4164A,87.2057,43.9289,昌吉回族自治州,财政所,细颗粒物(PM2.5),124,112,62,94,44,59,,58,57,34,21,6,6,1.1,0.8
2026-02-05T1800,1120A,125.2874,43.9024,长春市,客车厂,颗粒物(PM10),154,257,77,17,33,63,,66,66,10,31,5,8,0.3,0.6
2026-02-05T1800,1121A,125.2943,43.8508,长春市,邮电学院,颗粒物(PM10),139,228,73,16,35,61,,68,68,13,24,7,10,0.3,0.5
2026-02-05T1800,1122A,125.3648,43.8745,长春市,劳动公园,颗粒物(PM10),119,187,77,21,36,64,,71,71,12,25,3,6,0.6,0.7
2026-02-05T1800,1123A,125.3233,43.8781,长春市,园林处,颗粒物(PM10),121,191,68,24,40,61,,70,70,14,22,7,9,0.4,0.5
2026-02-05T1800,1124A,125.4604,43.7904,长春市,净月潭,颗粒物(PM10),130,209,65,12,31,66,,72,72,10,20,4,6,0.3,0.5
2026-02-05T1800,1126A,125.38,43.8422,长春市,经开区环卫处,颗粒物(PM10),141,231,70,16,34,62,,68,68,14,27,4,8,0.3,0.5
2026-02-05T1800,1127A,125.234,43.7761,长春市,高新区管委会,颗粒物(PM10),153,255,78,15,30,71,,77,77,8,27,5,9,0.3,0.5
2026-02-05T1800,1128A,125.1695,43.83,长春市,岱山公园,颗粒物(PM10),158,266,86,19,37,64,,71,71,16,34,4,7,0.3,0.4
2026-02-05T1800,4281A,125.334645,43.916281,长春市,北亚泰大街1068号,颗粒物(PM10),137,224,78,19,41,48,,67,64,24,28,9,9,0.4,0.5
2026-02-05T1800,1335A,113.082,28.2421,长沙市,经开区环保局,细颗粒物(PM2.5),68,71,103,49,70,10,,9,9,41,45,3,5,0.8,0.8
2026-02-05T1800,1336A,112.8873,28.2202,长沙市,高开区环保局,细颗粒物(PM2.5),98,,116,73,91,25,,4,,31,42,8,6,0.9,1.1
2026-02-05T1800,1337A,113.0785,28.2012,长沙市,马坡岭,细颗粒物(PM2.5),82,89,115,60,76,16,,14,14,36,46,4,6,0.9,1
2026-02-05T1800,1338A,112.9448,28.1894,长沙市,湖南师范大学,,,,126,,77,,,27,,,43,,5,,1.1
2026-02-05T1800,1339A,113.0177,28.1322,长沙市,雨花区环保局,细颗粒物(PM2.5),83,93,106,61,68,15,,14,14,39,54,7,9,0.9,1
2026-02-05T1800,1340A,112.9795,28.2593,长沙市,伍家岭,细颗粒物(PM2.5),70,,117,51,78,30,,19,19,27,43,4,6,0.8,0.9
2026-02-05T1800,1341A,113.002,28.1944,长沙市,火车新站,细颗粒物(PM2.5),72,72,114,52,76,33,,25,25,29,48,1,3,1.1,1.2
2026-02-05T1800,1342A,112.9846,28.1177,长沙市,天心区环保局,细颗粒物(PM2.5),85,101,113,63,78,26,,23,23,32,48,5,7,0.7,0.8
2026-02-05T1800,1343A,112.8906,28.1307,长沙市,湖南中医药大学,细颗粒物(PM2.5),84,92,121,62,78,31,,26,26,38,46,7,8,0.9,1
2026-02-05T1800,1727A,113.1146,36.1547,长治市,清华站,颗粒物(PM10),57,63,86,25,48,81,,69,69,21,40,9,17,0.7,1
2026-02-05T1800,1730A,113.0887,36.2126,长治市,审计局,颗粒物(PM10),55,60,83,36,49,85,,78,78,14,42,9,19,0.6,0.9
2026-02-05T1800,1731A,113.0845,36.1856,长治市,长治八中,颗粒物(PM10),67,84,108,35,55,85,,69,69,14,40,10,20,0.6,0.9
2026-02-05T1800,2845A,113.1561,36.1912,长治市,德盛苑,,,,66,,48,90,,82,82,13,24,9,17,0.6,1
2026-02-05T1800,3568A,113.0603,36.0464,长治市,向阳小学,颗粒物(PM10),74,97,109,36,52,81,,74,74,22,35,14,23,0.7,1
2026-02-05T1800,3569A,112.8788,36.315,长治市,屯留一中,颗粒物(PM10),72,93,80,30,48,76,,79,79,27,44,9,20,1.2,1
2026-02-05T1800,4189A,113.113092,36.199482,长治市,英华南巷50号,颗粒物(PM10),62,74,92,26,51,86,,71,71,20,40,8,20,0.5,1
2026-02-05T1800,4190A,113.23666,36.33435,长治市,学府街1号,颗粒物(PM10),62,74,98,33,52,83,,78,78,23,58,7,22,0.5,1.5
2026-02-05T1800,1854A,111.696,28.9725,常德市,市二中,细颗粒物(PM2.5),122,139,139,92,100,52,,31,31,19,29,5,5,1.2,1.4
2026-02-05T1800,3138A,111.7152,29.0288,常德市,武陵区永安,细颗粒物(PM2.5),117,149,141,88,106,55,,31,31,20,30,4,4,1.2,1.3
2026-02-05T1800,3139A,111.6891,28.9881,常德市,鼎城区玉霞,细颗粒物(PM2.5),120,136,136,91,102,54,,36,36,22,32,4,7,1.1,1.3
2026-02-05T1800,3140A,111.6651,29.0526,常德市,武陵区长庚,细颗粒物(PM2.5),137,139,135,104,113,48,,31,31,21,26,5,4,1.0,1.1
2026-02-05T1800,1196A,119.9524,31.7586,常州市,市监测站,细颗粒物(PM2.5),104,122,106,78,72,58,,56,56,64,66,10,10,0.7,0.8
2026-02-05T1800,1200A,119.9351,31.703,常州市,武进监测站,细颗粒物(PM2.5),99,112,97,74,68,48,,46,46,69,55,11,10,1.0,0.7
2026-02-05T1800,3002A,119.9701,31.813,常州市,行政中心,细颗粒物(PM2.5),132,138,106,100,74,59,,54,54,64,60,9,8,0.8,0.9
2026-02-05T1800,3003A,120.0434,31.7726,常州市,经开区,细颗粒物(PM2.5),115,142,116,87,70,31,,48,48,84,56,8,7,1.1,1
2026-02-05T1800,3010A,119.8919,31.7892,常州市,钟楼,细颗粒物(PM2.5),103,111,101,77,68,76,,60,60,47,63,10,9,0.7,0.8
2026-02-05T1800,3429A,119.8595,31.706,常州市,武进经发区,细颗粒物(PM2.5),112,103,97,84,74,39,,56,56,84,58,10,8,0.9,1.1
2026-02-05T1800,3430A,119.5812,31.7256,常州市,金坛城区,细颗粒物(PM2.5),107,114,94,80,72,49,,70,70,67,44,8,9,0.8,0.8
2026-02-05T1800,4089A,119.9551,31.863,常州市,崇义南街5-H号,细颗粒物(PM2.5),135,142,114,103,82,62,,57,57,59,72,8,8,1.1,1.1
2026-02-05T1800,2220A,120.4318,41.588,朝阳市,西梁,颗粒物(PM10),57,64,93,18,30,78,,81,80,9,30,4,12,0.3,0.6
2026-02-05T1800,2221A,120.452,41.565,朝阳市,河畔小区,颗粒物(PM10),59,68,85,8,29,77,,81,80,7,21,6,12,0.4,0.7
2026-02-05T1800,2222A,120.4176,41.5648,朝阳市,八里堡,颗粒物(PM10),66,82,97,8,34,72,,77,76,11,30,9,13,0.4,0.7
2026-02-05T1800,3026A,116.6179,23.6608,潮州市,市政府,颗粒物(PM10),57,64,70,34,41,111,,137,137,22,20,7,6,0.6,0.6
2026-02-05T1800,4036A,116.646,23.676,潮州市,金山,颗粒物(PM10),61,71,58,32,38,128,,141,141,23,19,5,4,0.6,0.6
2026-02-05T1800,2473A,113.0116,25.8228,郴州市,市职中,颗粒物(PM10),55,60,65,36,54,77,,79,79,20,23,8,11,0.6,0.8
2026-02-05T1800,2475A,113.0381,25.8074,郴州市,市审计局,,38,38,67,22,50,86,,74,74,14,32,7,6,/,/
2026-02-05T1800,2476A,113.0348,25.7757,郴州市,市环保局,细颗粒物(PM2.5),52,52,75,36,66,94,,83,83,16,32,16,16,0.3,0.6
2026-02-05T1800,4252A,113.0138,25.8011,郴州市,好美居路49号,,39,32,60,27,45,86,,79,79,18,26,2,8,/,/
2026-02-05T1800,1431A,103.9727,30.7242,成都市,金泉两河,细颗粒物(PM2.5),94,113,123,70,85,114,,89,89,37,55,2,3,1.0,1.4
2026-02-05T1800,1432A,104.1423,30.6765,成都市,十里店,颗粒物(PM10),85,119,141,57,84,116,,87,87,23,56,4,4,0.6,1
2026-02-05T1800,1433A,104.0594,30.5765,成都市,三瓦窑,细颗粒物(PM2.5),80,98,130,59,90,120,,93,93,22,59,2,4,0.7,1.2
2026-02-05T1800,1434A,104.1122,30.6306,成都市,沙河铺,颗粒物(PM10),78,106,126,56,83,107,,74,74,29,53,4,3,0.8,1.1
2026-02-05T1800,2880A,104.0219,30.6561,成都市,大石西路,细颗粒物(PM2.5),88,120,136,65,100,114,,85,85,26,52,5,5,0.9,1.2
2026-02-05T1800,3136A,104.2724,30.559,成都市,龙泉驿区区政府,细颗粒物(PM2.5),63,73,93,45,71,109,,96,96,12,20,6,6,0.8,1
2026-02-05T1800,3357A,104.0028,30.6891,成都市,金博路,细颗粒物(PM2.5),104,109,126,78,94,111,,86,86,28,56,5,5,0.9,1.2
2026-02-05T1800,3359A,104.056,30.5228,成都市,华阳,细颗粒物(PM2.5),78,90,113,57,85,106,,107,107,22,50,3,3,0.6,1.3
2026-02-05T1800,3488A,104.387954,30.746684,成都市,青石路225号,颗粒物(PM10),80,110,120,55,81,113,,93,93,23,47,2,2,1.0,1.2
2026-02-05T1800,3489A,104.0788,30.4054,成都市,科学城,细颗粒物(PM2.5),112,101,97,84,74,80,,62,62,12,25,7,6,0.8,1.1
2026-02-05T1800,4011A,103.8505,30.6946,成都市,光华大道三段,细颗粒物(PM2.5),100,135,140,75,84,123,,94,94,32,50,4,3,0.8,1.1
2026-02-05T1800,4144A,104.3257,30.6406,成都市,八角井街185号,细颗粒物(PM2.5),72,91,115,52,76,102,,79,79,21,31,3,3,0.7,0.8
2026-02-05T1800,4224A,104.2433276,30.53529463,成都市,鲸龙路1057号,细颗粒物(PM2.5),62,67,104,44,72,111,,98,98,16,38,5,5,0.7,1
2026-02-05T1800,1062A,117.9531,40.908,承德市,铁路,颗粒物(PM10),63,75,73,18,36,78,,82,82,5,24,3,5,0.2,0.7
2026-02-05T1800,1063A,117.9397,40.9763,承德市,中国银行,颗粒物(PM10),59,68,71,6,33,77,,81,81,6,30,1,3,0.2,0.8
2026-02-05T1800,4073A,117.9462,40.95,承德市,杏林街1号,颗粒物(PM10),54,57,69,13,36,78,,82,82,3,25,3,6,0.2,0.8
2026-02-05T1800,4274A,117.7994,40.9605,承德市,滨河大街98号,颗粒物(PM10),57,63,59,23,23,77,,81,81,6,19,2,4,0.2,0.4
2026-02-05T1800,2314A,117.4698,30.6617,池州市,池州学院,细颗粒物(PM2.5),64,65,62,46,46,29,,28,28,41,38,4,6,1.5,1.2
2026-02-05T1800,3237A,117.4918,30.6617,池州市,展览馆,细颗粒物(PM2.5),79,73,68,58,51,24,,24,24,39,37,2,5,1.2,1
2026-02-05T1800,3333A,117.5626,30.695,池州市,第八中学,颗粒物(PM10),56,61,65,39,44,24,,25,25,37,36,4,6,1.5,0.9
2026-02-05T1800,3334A,117.5037,30.6242,池州市,第十二中学,细颗粒物(PM2.5),63,64,62,45,44,27,,30,30,40,44,5,5,1.4,1.2
2026-02-05T1800,1744A,118.9229,42.2816,赤峰市,松山一中,颗粒物(PM10),318,434,101,13,18,68,,68,68,8,25,2,10,0.6,0.9
2026-02-05T1800,1745A,118.9588,42.2733,赤峰市,哈达街,颗粒物(PM10),60,70,63,7,19,65,,68,68,3,19,7,32,0.5,0.8
2026-02-05T1800,1746A,118.8792,42.2551,赤峰市,天义路,,26,26,46,13,15,71,,75,74,7,21,5,19,0.5,0.6
2026-02-05T1800,3058A,119.2656,42.0356,赤峰市,银河街,,,,80,47,19,67,,77,74,11,9,,14,0.7,0.7
2026-02-05T1800,3286A,118.9359,42.3146,赤峰市,桥北物流园区,,29,29,40,7,16,74,,78,78,10,17,4,4,0.4,0.6
2026-02-05T1800,2521A,107.3473,22.4137,崇左市,市环保局江州分局,细颗粒物(PM2.5),54,56,89,38,67,77,,62,62,12,28,5,5,0.8,1
2026-02-05T1800,4256A,107.375,22.3736,崇左市,石景林东路7号,细颗粒物(PM2.5),53,49,66,37,58,54,,42,42,14,26,2,2,0.7,0.8
2026-02-05T1800,3207A,118.31131,32.3033,滁州市,市政府原办公楼,细颗粒物(PM2.5),105,110,83,79,63,105,,96,96,26,43,6,6,0.5,0.6
2026-02-05T1800,3331A,118.3268,32.2633,滁州市,图书馆,,,93,68,58,42,104,,96,96,21,43,,8,0.6,0.7
2026-02-05T1800,4101A,118.3196,32.3335,滁州市,银山路666号,细颗粒物(PM2.5),107,100,74,80,61,113,,99,99,,39,11,12,0.7,0.7
2026-02-05T1800,4102A,118.3426,32.2979,滁州市,黄山路555号,细颗粒物(PM2.5),92,116,95,68,56,108,,94,94,34,53,4,6,0.6,0.6
2026-02-05T1800,2606A,101.5379,25.0492,楚雄彝族自治州,市经济开发区,,26,11,24,8,15,82,,74,74,7,31,2,3,0.4,0.5
2026-02-05T1800,4153A,101.5536,25.0343,楚雄彝族自治州,团结路562号,,,,21,,14,82,,79,79,,12,3,4,0.4,0.5
2026-02-05T1800,2549A,107.5087,31.2186,达州市,市环境监测站,细颗粒物(PM2.5),110,121,126,83,91,30,,26,26,34,37,,9,,1
2026-02-05T1800,2550A,107.4988,31.2132,达州市,凤凰小区,细颗粒物(PM2.5),108,114,130,81,90,39,,27,27,31,38,14,9,0.8,0.8
2026-02-05T1800,2551A,107.5081,31.1987,达州市,达县机关宾馆,细颗粒物(PM2.5),112,132,133,84,95,27,,27,27,43,41,12,10,1.0,1
2026-02-05T1800,2552A,107.4644,31.2124,达州市,市政中心,细颗粒物(PM2.5),99,108,140,74,89,39,,27,27,32,45,12,8,0.9,1.1
2026-02-05T1800,2614A,100.2168,25.5818,大理白族自治州,大理市环境监测站,,26,21,21,8,13,83,,79,79,7,8,7,7,0.5,0.5
2026-02-05T1800,2615A,100.1542,25.7055,大理白族自治州,大理古城,,29,29,22,14,13,86,,82,82,5,6,8,8,0.6,0.6
2026-02-05T1800,1109A,121.6119,38.974,大连市,甘井子,颗粒物(PM10),66,81,143,10,84,84,,87,87,8,47,7,7,0.5,0.7
2026-02-05T1800,1110A,121.565,38.9509,大连市,周水子,颗粒物(PM10),68,85,142,9,91,80,,81,81,9,45,8,10,0.3,1.2
2026-02-05T1800,1111A,121.5637,38.8849,大连市,星海三站,颗粒物(PM10),59,68,121,3,80,76,,77,77,13,30,5,5,0.4,0.9
2026-02-05T1800,1112A,121.6301,38.9117,大连市,青泥洼桥,颗粒物(PM10),58,65,131,9,82,79,,81,81,16,41,7,8,0.2,0.9
2026-02-05T1800,1113A,121.6248,38.8643,大连市,傅家庄,颗粒物(PM10),56,62,119,8,66,78,,78,78,8,30,6,8,0.6,1.1
2026-02-05T1800,1114A,121.5117,38.8636,大连市,七贤岭,颗粒物(PM10),75,100,140,9,86,78,,78,78,14,24,8,11,0.4,0.8
2026-02-05T1800,1116A,121.7507,39.1339,大连市,金州,,,56,142,12,57,75,,76,76,13,30,8,9,,0.9
2026-02-05T1800,1117A,121.7811,39.0495,大连市,开发区,颗粒物(PM10),70,89,126,9,70,78,,81,81,10,35,7,7,0.3,0.9
2026-02-05T1800,1118A,121.9762,39.0631,大连市,双D港,颗粒物(PM10),103,156,145,16,49,88,,91,91,12,25,8,9,,1
2026-02-05T1800,4082A,121.2548,38.8188,大连市,旅顺,颗粒物(PM10),51,51,126,7,80,72,,75,75,7,26,7,8,0.4,1
2026-02-05T1800,1789A,124.8085,46.0381,大庆市,大同区,,49,49,52,14,18,62,,73,70,8,10,6,6,0.4,0.4
2026-02-05T1800,1790A,125.1166,46.5255,大庆市,龙凤区,,49,49,45,13,18,60,,70,67,15,16,7,8,0.6,0.6
2026-02-05T1800,1791A,124.8894,46.4007,大庆市,红岗区,,42,42,47,14,17,58,,66,64,11,15,6,7,0.5,0.6
2026-02-05T1800,1792A,125.1391,46.578,大庆市,萨尔图区,,27,27,36,15,14,47,,65,60,23,14,11,9,0.4,0.3
2026-02-05T1800,1793A,124.9026,46.6217,大庆市,让胡路区,,34,34,32,17,14,61,,70,69,10,13,7,7,0.4,0.4
2026-02-05T1800,3481A,125.127,46.6277,大庆市,萨区政府监测点,,33,33,41,19,16,62,,74,70,4,4,9,8,0.5,0.5
2026-02-05T1800,1723A,113.2926,40.0759,大同市,云冈宾馆,,23,21,47,13,15,72,,74,74,9,17,7,7,0.4,0.5
2026-02-05T1800,1724A,113.3437,40.0921,大同市,大同大学,,24,19,52,13,15,76,,79,79,9,16,7,7,0.4,0.5
2026-02-05T1800,1725A,113.2637,40.129,大同市,安家小村,,23,16,50,7,17,72,,64,64,9,21,8,9,0.3,0.6
2026-02-05T1800,3282A,113.3399,40.0586,大同市,大同市卫生学校,,27,15,49,9,15,86,,90,90,10,17,5,6,0.4,0.6
2026-02-05T1800,3565A,113.1371,40.1122,大同市,云冈站,,23,16,46,3,13,73,,74,74,6,20,8,8,0.4,0.5
2026-02-05T1800,3566A,113.1186,40.2556,大同市,图书馆,,26,20,45,18,21,73,,74,74,11,12,9,6,0.6,0.7
2026-02-05T1800,3567A,113.5931,40.0459,大同市,区一中,颗粒物(PM10),140,230,170,27,37,58,,74,72,32,33,11,14,0.4,0.6
2026-02-05T1800,4199A,113.2798248,40.09972476,大同市,魏都大道141号,,,,65,,19,82,,83,83,,23,6,7,,0.7
2026-02-05T1800,2269A,124.1068,50.4091,大兴安岭地区,科技局,,31,31,30,13,15,58,,63,61,3,5,7,6,0.3,0.2
2026-02-05T1800,3663A,124.117,50.4279,大兴安岭地区,红旗社区,,23,14,21,12,18,71,,76,73,2,9,6,7,0.1,0.2
2026-02-05T1800,1600A,124.33,40.0625,丹东市,江湾东路,颗粒物(PM10),65,80,89,8,53,70,,69,69,12,20,6,9,0.5,0.8
2026-02-05T1800,1601A,124.4242,40.1513,丹东市,临江后街,颗粒物(PM10),57,63,101,6,69,73,,76,76,10,21,5,10,0.4,1
2026-02-05T1800,1602A,124.3935,40.1461,丹东市,元宝山,颗粒物(PM10),56,62,86,3,51,70,,72,72,10,20,6,10,0.3,0.8
2026-02-05T1800,1603A,124.3634,40.1093,丹东市,民主桥,颗粒物(PM10),61,71,90,8,57,65,,70,70,20,23,7,11,0.5,0.8
2026-02-05T1800,3541A,109.5726195,19.51688767,儋州市,第一中学子站,,30,30,32,15,19,95,,80,80,5,6,4,6,0.6,0.7
2026-02-05T1800,3542A,109.5567,19.5187,儋州市,东坡学校子站,,32,15,27,10,14,102,,80,80,8,6,4,4,0.5,0.6
2026-02-05T1800,2616A,98.5611,24.4273,德宏傣族景颇族自治州,德宏州监测站,,48,36,62,33,44,97,,83,83,10,27,6,6,0.7,1
2026-02-05T1800,3677A,98.5887,24.4366,德宏傣族景颇族自治州,芒市人民政府综合楼,颗粒物(PM10),55,59,63,19,38,90,,78,78,9,16,4,4,0.6,0.8
2026-02-05T1800,1901A,104.424,31.1209,德阳市,东山公园,细颗粒物(PM2.5),107,95,96,80,87,103,,81,81,14,22,2,2,0.9,1
2026-02-05T1800,1902A,104.3827,31.1318,德阳市,西小区,细颗粒物(PM2.5),112,99,118,84,94,107,,84,84,20,46,4,4,0.8,1
2026-02-05T1800,1904A,104.3553,31.1091,德阳市,耐火材料厂,细颗粒物(PM2.5),122,97,112,92,99,94,,74,74,25,51,2,3,0.8,1
2026-02-05T1800,4145A,104.4144,31.1495,德阳市,市林业局,,,,106,,88,97,,84,84,20,47,,4,1.0,1
2026-02-05T1800,1622A,116.3034,37.4675,德州市,儿童乐园,颗粒物(PM10),90,129,198,28,106,81,,77,77,22,46,13,15,0.9,1.4
2026-02-05T1800,1624A,116.2992,37.4449,德州市,监理站,颗粒物(PM10),90,129,205,28,106,87,,83,83,25,59,12,14,0.6,1.1
2026-02-05T1800,3066A,116.2722,37.438,德州市,九衢泉纯净水厂,颗粒物(PM10),87,124,204,32,119,85,,79,79,19,64,8,10,0.6,1.1
2026-02-05T1800,3371A,116.3693,37.44,德州市,开发区人民医院,颗粒物(PM10),90,129,204,26,105,81,,76,76,13,39,15,15,0.4,1
2026-02-05T1800,3511A,116.5687,37.3331,德州市,陵城艺术中心,颗粒物(PM10),93,136,208,21,119,69,,70,70,28,54,2,15,0.6,1.4
2026-02-05T1800,4292A,116.352738,37.420875,德州市,新河东路,颗粒物(PM10),85,119,195,22,97,79,,76,76,26,59,14,14,0.4,1.2
2026-02-05T1800,2621A,99.7054,27.8319,迪庆藏族自治州,迪庆州站,,27,22,20,13,11,86,,86,86,6,8,5,5,0.6,0.6
2026-02-05T1800,3180A,99.7122,27.8129,迪庆藏族自治州,质量技术监督局,,30,20,21,16,11,95,,96,96,5,8,4,4,0.4,0.4
2026-02-05T1800,4257A,104.6092,35.5962,定西市,将台街,,47,47,75,28,48,103,,84,84,9,29,10,15,0.4,1
2026-02-05T1800,4309A,104.6159,35.5701,定西市,正龙路62号,颗粒物(PM10),57,64,75,30,42,100,,84,84,5,14,6,11,0.4,0.9
2026-02-05T1800,1390A,113.7943,23.0132,东莞市,东城石井,,38,35,65,9,37,119,,162,162,19,43,6,6,0.5,0.6
2026-02-05T1800,1391A,113.7384,22.9659,东莞市,南城西平,,34,10,53,3,36,108,,142,142,22,47,7,6,0.4,0.6
2026-02-05T1800,3319A,113.7283,23.041,东莞市,万江金泰,,36,,72,10,42,113,,152,152,21,42,5,6,0.7,0.9
2026-02-05T1800,4129A,113.8666,23.1062,东莞市,裕兴路,,50,33,89,13,46,158,,156,156,18,46,5,7,0.8,0.9
2026-02-05T1800,4130A,114.0076,22.9739,东莞市,教育路1号,,37,19,66,6,35,116,,155,155,19,48,4,5,0.5,0.7
2026-02-05T1800,4131A,113.7981,22.8124,东莞市,长怡路1号,,30,20,65,6,34,93,,131,131,34,53,7,7,0.6,0.8
2026-02-05T1800,1666A,118.6612,37.4313,东营市,市环保局,颗粒物(PM10),54,58,176,3,124,82,,71,71,16,49,6,15,0.4,1.1
2026-02-05T1800,3036A,118.6903,37.4337,东营市,开发区管委会,颗粒物(PM10),60,69,180,3,123,88,,76,76,8,50,8,11,0.4,1
2026-02-05T1800,3365A,118.5721,37.5654,东营市,垦利区民丰路,颗粒物(PM10),53,56,171,3,124,88,,75,75,9,55,6,12,0.5,1.1
2026-02-05T1800,3498A,118.5063,37.8606,东营市,河口城区,颗粒物(PM10),54,58,190,3,124,88,,81,81,13,52,4,17,0.6,1.2
2026-02-05T1800,3646A,118.4979,37.4623,东营市,胜利站,颗粒物(PM10),54,57,178,3,108,79,,69,69,18,69,6,12,0.5,1.3
2026-02-05T1800,3734A,118.5753,37.4405,东营市,理想之城,,,61,178,,109,81,,72,72,7,62,3,10,0.4,1.1
2026-02-05T1800,1591A,110.0024,39.8127,鄂尔多斯市,综合楼,颗粒物(PM10),54,58,84,12,15,62,,70,70,19,23,6,8,0.3,0.4
2026-02-05T1800,1592A,109.9485,39.8259,鄂尔多斯市,巴音孟克林场办事处,,46,46,72,9,16,69,,70,70,15,20,6,8,0.3,0.3
2026-02-05T1800,1593A,109.7734,39.5987,鄂尔多斯市,康泽苑,,36,36,68,16,16,74,,72,72,15,15,7,6,0.4,0.4
2026-02-05T1800,1594A,109.8121,39.5987,鄂尔多斯市,华泰汽车城,,44,44,70,10,17,73,,68,68,16,19,7,6,0.2,0.3
2026-02-05T1800,1595A,109.9734,39.7884,鄂尔多斯市,奥林花园,,48,48,78,9,14,66,,64,64,18,22,3,5,0.3,0.4
2026-02-05T1800,2436A,114.894,30.3989,鄂州市,市政府,细颗粒物(PM2.5),85,104,77,63,52,15,,36,36,61,45,7,6,1.3,0.9
2026-02-05T1800,2437A,114.8986,30.3714,鄂州市,赵家坝,细颗粒物(PM2.5),94,111,75,70,51,22,,42,41,45,37,9,9,1.3,1.1
2026-02-05T1800,3654A,114.8093,30.4091,鄂州市,精准医疗中心,颗粒物(PM10),75,99,81,54,48,47,,44,44,26,43,4,12,0.8,1
2026-02-05T1800,2454A,109.4978,30.2979,恩施土家族苗族自治州,湖北民院,细颗粒物(PM2.5),124,102,104,94,88,10,,13,13,38,28,6,6,1.2,1.2
2026-02-05T1800,3549A,109.5061,30.3771,恩施土家族苗族自治州,龙凤新区,细颗粒物(PM2.5),99,106,91,74,66,1,,6,6,40,25,8,7,1.0,0.9
2026-02-05T1800,2499A,108.3411,21.6159,防城港市,沙万,颗粒物(PM10),63,75,54,21,28,37,,54,54,54,35,7,7,0.5,0.6
2026-02-05T1800,2500A,108.3515,21.7733,防城港市,防城档案局,,44,44,47,19,34,75,,69,67,20,16,6,5,0.6,0.9
2026-02-05T1800,2501A,108.3506,21.6414,防城港市,大海花园,颗粒物(PM10),51,52,47,22,30,71,,72,72,28,25,8,7,0.8,0.9
2026-02-05T1800,1371A,113.1293,23.0065,佛山市,湾梁,,50,44,60,15,29,157,,127,127,19,36,/,/,/,/
2026-02-05T1800,1372A,113.1082,23.0477,佛山市,华材职中,臭氧1小时(O3_1h),55,51,58,32,49,164,,128,128,18,25,6,6,0.7,0.8
2026-02-05T1800,1373A,113.1439,23.045,佛山市,南海气象局,,46,36,53,15,33,146,,121,121,22,35,/,/,/,/
2026-02-05T1800,1374A,113.2879,22.8094,佛山市,顺德苏岗,,41,40,52,8,26,130,,120,120,21,36,/,/,0.7,0.6
2026-02-05T1800,1376A,112.8384,22.8678,佛山市,高明孔堂,,44,25,43,18,26,139,,115,115,12,18,/,/,/,/
2026-02-05T1800,1377A,112.8835,23.1584,佛山市,三水监测站,,44,44,71,16,40,95,,111,111,56,59,3,3,0.5,0.6
2026-02-05T1800,1378A,112.8668,23.185,佛山市,三水云东海,,45,45,66,17,36,125,,129,129,35,46,/,/,/,/
2026-02-05T1800,3625A,113.2568,22.7629,佛山市,容桂街道办,,32,27,55,8,29,100,,112,112,21,33,/,/,/,/
2026-02-05T1800,1282A,119.2681,26.0506,福州市,师大,颗粒物(PM10),58,66,47,26,22,130,,133,133,33,28,6,4,0.6,0.5
2026-02-05T1800,1283A,119.2983,26.1028,福州市,五四北路,颗粒物(PM10),53,55,44,27,24,132,,124,124,27,27,6,5,0.6,0.6
2026-02-05T1800,1284A,119.2648,26.0769,福州市,杨桥西路,细颗粒物(PM2.5),65,,38,47,26,134,,135,135,29,27,6,5,/,/
2026-02-05T1800,3048A,119.5799,26.0937,福州市,九龙,,28,28,38,13,21,81,,101,101,26,27,5,5,0.5,0.7
2026-02-05T1800,3526A,119.5188,25.9666,福州市,吴航,,44,44,40,22,22,97,,116,116,31,28,6,6,0.7,0.7
2026-02-05T1800,4104A,119.3106,26.0648,福州市,路通桥巷6号,,46,46,46,26,23,123,,122,122,28,24,/,/,/,/
2026-02-05T1800,1755A,123.7974,41.8494,抚顺市,望花区,颗粒物(PM10),195,340,183,11,73,67,,73,73,12,41,2,13,0.4,1
2026-02-05T1800,1756A,123.9161,41.8827,抚顺市,顺城区,颗粒物(PM10),124,198,157,11,81,74,,79,79,14,40,6,13,0.5,1
2026-02-05T1800,1757A,124.0437,41.8615,抚顺市,东洲区,颗粒物(PM10),171,292,205,11,76,69,,72,72,10,44,13,19,0.4,1.1
2026-02-05T1800,1758A,123.9246,41.8638,抚顺市,新抚区,颗粒物(PM10),198,345,222,10,81,81,,85,85,14,44,4,8,0.6,1.2
2026-02-05T1800,1759A,124.0972,41.8961,抚顺市,大伙房水库,颗粒物(PM10),149,248,179,9,77,76,,78,78,10,46,8,13,0.4,1.2
2026-02-05T1800,1760A,123.708,41.8386,抚顺市,沈抚新城,颗粒物(PM10),199,347,181,11,63,74,,81,80,16,49,4,8,0.3,0.7
2026-02-05T1800,2377A,116.3544,27.9833,抚州市,市站,,,64,73,39,56,,,57,57,19,21,10,9,1.2,1.2
2026-02-05T1800,2378A,116.3562,27.9631,抚州市,血防站,细颗粒物(PM2.5),62,62,72,44,57,57,,54,54,21,21,9,8,1.1,1
2026-02-05T1800,2379A,116.3561,28.0007,抚州市,采茶剧团,"颗粒物(PM10),细颗粒物(PM2.5)",57,63,72,40,55,57,,50,50,17,17,6,8,1.3,1.3
2026-02-05T1800,2380A,116.3854,27.9648,抚州市,医学分院,细颗粒物(PM2.5),62,64,79,44,52,56,,52,51,19,20,7,8,1.2,1.2
2026-02-05T1800,2207A,121.6095,41.9978,阜新市,工业园区,颗粒物(PM10),100,149,160,6,28,74,,79,78,7,20,7,10,0.3,0.6
2026-02-05T1800,2208A,121.6567,42.0188,阜新市,长青街,颗粒物(PM10),64,78,115,3,29,78,,83,82,5,20,5,9,0.2,0.5
2026-02-05T1800,2209A,121.6672,42.07,阜新市,农业园区,颗粒物(PM10),80,109,136,8,20,70,,72,72,7,11,5,6,0.1,0.2
2026-02-05T1800,2211A,121.6343,42.0455,阜新市,玉龙新城,颗粒物(PM10),84,118,133,3,28,72,,76,76,6,24,4,9,0.3,0.6
2026-02-05T1800,2301A,115.8276,32.8929,阜阳市,市监测站,细颗粒物(PM2.5),113,153,136,85,87,76,,95,95,44,41,5,5,0.8,1
2026-02-05T1800,2303A,115.8551,32.8606,阜阳市,开发区,,,,131,,83,80,,92,92,,44,7,6,0.7,0.7
2026-02-05T1800,2875A,115.783962,32.889217,阜阳市,阜阳职业技术学院,细颗粒物(PM2.5),92,115,108,68,75,104,,104,104,22,31,6,7,0.8,0.8
2026-02-05T1800,3468A,115.79,32.8614,阜阳市,市规划展馆,细颗粒物(PM2.5),105,110,124,79,80,109,,107,107,19,27,7,7,0.7,0.9
2026-02-05T1800,3469A,115.835101,32.918568,阜阳市,枣园社区,细颗粒物(PM2.5),114,132,130,86,82,96,,101,101,26,44,7,7,0.9,0.9
2026-02-05T1800,2669A,102.9097,34.9841,甘南藏族自治州,州政府,,45,39,59,31,41,86,,76,76,9,19,9,9,0.5,0.8
2026-02-05T1800,3380A,102.8915,34.9618,甘南藏族自治州,甘肃民族师范学院,,,78,68,46,33,94,,88,88,15,25,,9,0.3,0.5
2026-02-05T1800,2570A,101.96,30.048,甘孜藏族自治州,水桥子,,26,21,14,15,9,82,,75,75,3,9,7,6,0.8,1
2026-02-05T1800,3065A,101.9534,29.9976,甘孜藏族自治州,州环保局,,28,18,14,14,11,88,,85,85,8,11,6,6,0.6,0.7
2026-02-05T1800,2363A,114.9368,25.8663,赣州市,地委,,40,40,55,19,23,99,,120,120,16,37,7,8,1.3,1.4
2026-02-05T1800,2364A,114.946,25.8483,赣州市,气象台,,39,39,51,19,27,102,,120,120,17,39,5,7,0.4,0.4
2026-02-05T1800,2365A,114.932,25.8332,赣州市,市图书馆,,35,35,48,19,26,82,,97,97,20,39,5,4,0.8,0.9
2026-02-05T1800,2366A,114.8905,25.8472,赣州市,华坚鞋城,,35,34,44,24,25,92,,108,108,16,34,6,9,0.4,0.6
2026-02-05T1800,3109A,115.0094,25.8614,赣州市,赣县区卫计委,,38,34,46,26,24,95,,106,105,13,34,7,8,0.6,0.8
2026-02-05T1800,2684A,106.2753,36.0057,固原市,监测站,,44,44,56,15,31,94,,88,88,10,28,8,12,0.4,1.1
2026-02-05T1800,2685A,106.2384,36.0189,固原市,新区,,40,40,68,21,31,90,,91,91,13,46,7,9,0.3,1.2
2026-02-05T1800,2544A,106.6307,30.4577,广安市,市委,细颗粒物(PM2.5),104,101,109,78,83,71,,60,60,19,31,8,7,1.0,1.1
2026-02-05T1800,2545A,106.6266,30.4662,广安市,友谊中学,细颗粒物(PM2.5),88,101,103,65,70,78,,78,78,17,26,7,6,1.0,1.1
2026-02-05T1800,2547A,106.6386,30.4551,广安市,广电花园,细颗粒物(PM2.5),114,,98,86,87,70,,57,57,17,26,7,7,0.8,1
2026-02-05T1800,2902A,106.6347,30.4868,广安市,北辰小学,细颗粒物(PM2.5),107,107,105,80,86,72,,54,54,14,19,9,8,0.9,1
2026-02-05T1800,2524A,105.8211,32.4444,广元市,老城,细颗粒物(PM2.5),113,138,94,85,60,32,,29,29,61,48,37,13,2.1,1.3
2026-02-05T1800,2526A,105.8629,32.429,广元市,监测站,细颗粒物(PM2.5),110,116,78,83,59,29,,32,32,61,33,15,9,1.8,1.9
2026-02-05T1800,3617A,105.8047,32.4167,广元市,经开区,细颗粒物(PM2.5),134,143,105,102,73,28,,18,18,62,46,54,19,2.2,1.7
2026-02-05T1800,1345A,113.2346,23.1423,广州市,广雅中学,,41,26,60,13,32,129,,105,105,26,46,2,3,1.0,1.1
2026-02-05T1800,1346A,113.2611,23.105,广州市,市五中,,50,30,59,14,30,158,,134,134,25,48,6,7,/,/
2026-02-05T1800,1348A,113.3477,23.0916,广州市,广东商学院,,42,22,60,13,38,133,,109,109,19,61,5,6,0.5,0.7
2026-02-05T1800,1349A,113.4332,23.105,广州市,市八十六中,,37,36,58,22,31,118,,140,140,56,77,8,10,/,/
2026-02-05T1800,1350A,113.3506,22.9488,广州市,番禺中学,,40,30,98,12,30,128,,115,115,17,42,3,3,0.7,0.8
2026-02-05T1800,1351A,113.2147,23.3918,广州市,花都师范,,39,26,75,16,41,123,,112,112,35,78,6,6,0.6,0.8
2026-02-05T1800,1352A,113.2599,23.1329,广州市,市监测站,,,31,60,13,33,131,,109,109,,46,2,2,/,/
2026-02-05T1800,1353A,113.5618,23.3119,广州市,九龙镇镇龙,臭氧1小时(O3_1h),60,48,78,26,46,168,,149,149,42,52,7,5,0.6,0.7
2026-02-05T1800,1354A,113.2764,23.1544,广州市,麓湖,,43,32,56,12,33,135,,115,115,24,64,4,4,0.5,0.8
2026-02-05T1800,2846A,113.3209,23.1323,广州市,体育西,,40,27,63,12,33,125,,110,110,26,52,6,7,0.7,0.9
2026-02-05T1800,3298A,113.5718,23.5493,广州市,从化街口,臭氧1小时(O3_1h),63,56,68,35,47,170,,137,137,37,47,7,7,0.7,0.8
2026-02-05T1800,3299A,113.3463,23.369,广州市,白云竹料,,44,35,87,18,50,138,,119,119,30,63,4,4,0.6,0.8
2026-02-05T1800,3300A,113.2981,23.2365,广州市,白云嘉禾,,39,39,77,17,42,116,,109,109,43,67,6,6,/,/
2026-02-05T1800,3301A,113.4256,23.1716,广州市,黄埔科学城,,40,33,72,20,45,125,,134,134,39,67,3,4,0.6,0.7
2026-02-05T1800,3302A,113.3942,23.0485,广州市,番禺大学城,,46,46,95,10,46,137,,124,124,20,49,8,9,0.5,0.6
2026-02-05T1800,3303A,113.4923,22.8169,广州市,南沙黄阁,颗粒物(PM10),55,60,54,24,34,130,,81,81,31,40,5,4,/,/
2026-02-05T1800,3304A,113.534,22.7893,广州市,南沙街,颗粒物(PM10),55,59,51,14,28,124,,110,110,48,39,6,4,0.6,0.6
2026-02-05T1800,3443A,113.2905,23.5541,广州市,花都梯面,,41,41,62,23,37,122,,105,105,29,43,5,5,/,/
2026-02-05T1800,3445A,113.786,23.7479,广州市,从化良口,,46,37,31,32,26,116,,117,117,18,21,8,7,/,/
2026-02-05T1800,3446A,113.805,23.2614,广州市,增城荔城,臭氧1小时(O3_1h),54,39,55,25,33,163,,153,153,22,28,7,6,0.5,0.6
2026-02-05T1800,2506A,109.604387,23.066791,贵港市,江南子站,颗粒物(PM10),63,75,73,32,45,62,,66,66,25,27,6,7,0.8,0.9
2026-02-05T1800,2508A,109.5669,23.1065,贵港市,荷城子站,颗粒物(PM10),68,85,69,45,41,27,,50,49,46,34,7,7,1.3,1.1
2026-02-05T1800,3405A,109.5886,23.1172,贵港市,新世纪学校,细颗粒物(PM2.5),85,92,81,63,56,39,,58,58,46,41,/,/,0.8,0.8
2026-02-05T1800,4260A,109.5933,23.095,贵港市,中山路155-3号,颗粒物(PM10),62,74,66,41,48,47,,61,61,33,26,/,/,1.1,0.9
2026-02-05T1800,1439A,106.6863,26.6035,贵阳市,马鞍山,,45,44,27,31,21,23,,28,28,20,16,7,5,/,/
2026-02-05T1800,1441A,106.6241,26.6266,贵阳市,鉴湖路,颗粒物(PM10),54,58,33,32,21,14,,31,24,35,19,3,3,0.8,0.7
2026-02-05T1800,1442A,106.7468,26.6344,贵阳市,燕子冲,,41,41,35,22,27,32,,35,35,16,17,8,8,0.7,0.7
2026-02-05T1800,1443A,106.6556,26.4362,贵阳市,碧云窝,颗粒物(PM10),63,75,42,35,24,15,,31,30,35,20,23,19,/,/
2026-02-05T1800,1445A,106.6963,26.6063,贵阳市,红边门,,48,48,36,29,26,22,,33,30,28,24,15,14,/,/
2026-02-05T1800,1446A,106.7162383,26.56964667,贵阳市,新华路,颗粒物(PM10),52,53,39,25,24,20,,32,32,31,28,13,9,0.7,0.8
2026-02-05T1800,1447A,106.6742,26.542,贵阳市,太慈桥,颗粒物(PM10),51,51,31,31,23,17,,32,30,37,22,6,4,/,/
2026-02-05T1800,4230A,106.688212,26.56952,贵阳市,花果园大街66号,,48,48,27,25,24,10,,25,20,36,24,8,4,/,/
2026-02-05T1800,4231A,106.687268,26.516892,贵阳市,漓江路57号,颗粒物(PM10),57,63,37,31,25,11,,27,26,37,25,14,9,1.0,0.9
2026-02-05T1800,1864A,110.3091,25.2705,桂林市,龙隐路小学,,,,104,,94,,,32,,,38,,11,,1.0
2026-02-05T1800,1865A,110.2849361,25.22909545,桂林市,八中,颗粒物(PM10),71,91,99,47,66,7,,7,7,52,39,6,5,1.2,1.2
2026-02-05T1800,3531A,110.296,25.1254,桂林市,旅游学院,细颗粒物(PM2.5),112,100,114,84,108,14,,11,11,52,35,6,6,,0.7
2026-02-05T1800,4222A,110.1835,25.2444,桂林市,环湖路276号,细颗粒物(PM2.5),114,95,103,86,89,8,,8,8,48,40,10,10,1.5,1.4
2026-02-05T1800,4301A,110.2803,25.2773,桂林市,信义路13号,细颗粒物(PM2.5),89,79,90,66,85,13,,13,13,45,38,10,16,1.5,1.4
2026-02-05T1800,2674A,100.2262,34.4854,果洛藏族自治州,玛沁县大武镇,颗粒物(PM10),54,57,48,11,15,111,,101,101,1,7,12,15,0.2,0.3
2026-02-05T1800,1130A,126.5557,45.8109,哈尔滨市,松北商大,,48,48,72,24,58,62,,70,70,14,25,9,9,0.6,0.8
2026-02-05T1800,1132A,126.6162,45.719,哈尔滨市,南岗学府路,颗粒物(PM10),52,54,62,10,35,78,,71,71,10,21,6,11,0.6,0.7
2026-02-05T1800,1133A,126.6894,45.7733,哈尔滨市,太平宏伟公园,颗粒物(PM10),52,54,78,22,66,64,,68,68,4,24,11,11,0.5,0.7
2026-02-05T1800,1134A,126.6361,45.7672,哈尔滨市,道外承德广场,颗粒物(PM10),63,75,111,19,52,63,,71,71,19,30,9,23,0.9,0.4
2026-02-05T1800,1136A,126.644,45.7261,哈尔滨市,动力和平路,,50,50,59,13,40,66,,70,70,10,19,5,8,0.7,0.9
2026-02-05T1800,1137A,126.5933,45.7479,哈尔滨市,道里建国路,,44,44,59,11,49,64,,68,68,17,28,5,12,0.4,0.3
2026-02-05T1800,1138A,126.6127,45.6119,哈尔滨市,平房东轻厂,,42,42,55,22,43,62,,71,71,16,35,3,9,0.6,0.7
2026-02-05T1800,1139A,126.5875,45.9827,哈尔滨市,呼兰师专,,50,50,85,8,55,60,,66,66,6,19,9,13,0.7,1
2026-02-05T1800,1140A,126.6299,45.6799,哈尔滨市,省农科院,颗粒物(PM10),51,51,59,20,40,66,,72,72,8,21,7,15,0.6,0.7
2026-02-05T1800,4282A,126.6769,45.7379,哈尔滨市,华山路1号,,,,63,44,46,63,,67,67,17,23,2,8,,0.8
2026-02-05T1800,4283A,126.9717,45.5356,哈尔滨市,解放大街52号,,46,46,55,16,39,53,,61,61,16,21,10,15,0.6,0.8
2026-02-05T1800,2688A,93.5124,42.8176,哈密市,地区监测站,,,,77,,38,86,,77,77,6,21,,9,0.2,0.5
2026-02-05T1800,2689A,93.5014,42.8312,哈密市,哈密师范学校,颗粒物(PM10),65,80,95,29,31,81,,73,73,10,34,5,5,0.4,0.9
2026-02-05T1800,2671A,100.9016,36.9464,海北藏族自治州,海晏县西海镇,,30,14,49,3,34,95,,91,91,1,9,8,11,0.4,0.7
2026-02-05T1800,3867A,102.074,36.5056,海东市,平安区公安局北苑,颗粒物(PM10),52,53,75,35,58,82,,75,75,20,16,12,17,0.8,0.9
2026-02-05T1800,4163A,102.0984,36.5119,海东市,滨河路,颗粒物(PM10),54,57,78,34,50,78,,85,85,44,37,9,23,0.7,0.9
2026-02-05T1800,1410A,110.3189,20.0596,海口市,海南大学,,33,25,34,12,16,105,,96,96,7,8,5,5,0.4,0.5
2026-02-05T1800,1411A,110.2827,20.0051,海口市,秀英海南医院,,32,32,37,16,19,96,,90,90,7,10,7,7,0.3,0.4
2026-02-05T1800,1412A,110.3391,19.9979,海口市,海南师范大学,,31,30,37,14,20,99,,96,96,6,8,6,5,0.4,0.5
2026-02-05T1800,1413A,110.3303,20.0359,海口市,龙华路环保局宿舍,,35,31,35,16,20,109,,103,103,10,10,/,/,0.7,0.8
2026-02-05T1800,3539A,110.5111,19.9737,海口市,桂林洋子站,,27,23,34,13,19,86,,89,89,12,8,/,/,/,/
2026-02-05T1800,4134A,110.1952,20.0451,海口市,长滨二路9号,,32,20,28,10,17,100,,93,93,7,9,/,/,/,/
2026-02-05T1800,2673A,100.6158,36.2985,海南藏族自治州,共和县恰卜恰镇,,31,31,36,18,17,95,,86,86,3,17,13,13,0.3,0.4
2026-02-05T1800,2676A,97.373,37.376,海西蒙古族藏族自治州,德令哈市,,35,24,25,11,10,109,,105,105,5,8,13,12,0.4,0.4
2026-02-05T1800,1049A,114.492,36.5712,邯郸市,矿院,颗粒物(PM10),87,124,130,39,95,67,,73,73,2,45,1,9,0.3,1.1
2026-02-05T1800,1050A,114.4839,36.6136,邯郸市,丛台公园,颗粒物(PM10),91,132,132,22,81,68,,76,75,16,44,2,14,0.4,1.3
2026-02-05T1800,3458A,114.7893,36.5592,邯郸市,香泉濮院小区,颗粒物(PM10),111,172,168,10,80,70,,72,72,11,35,1,11,0.2,1
2026-02-05T1800,3580A,114.1998,36.4439,邯郸市,峰峰矿区临水派出所,颗粒物(PM10),68,86,79,22,40,73,,86,83,11,10,4,15,0.5,0.8
2026-02-05T1800,4068A,114.5209,36.7697,邯郸市,建安街268号,,,75,133,19,86,58,,68,68,,56,1,9,0.1,1
2026-02-05T1800,4069A,114.5488,36.6177,邯郸市,丛台东路558号,颗粒物(PM10),82,113,145,28,90,71,,76,76,8,59,3,12,0.3,1.3
2026-02-05T1800,2635A,107.0155,33.0707,汉中市,市监测站,细颗粒物(PM2.5),70,82,98,51,71,66,,66,66,32,36,6,7,0.9,1.4
2026-02-05T1800,2636A,107.0083,33.114,汉中市,鑫源开发区,细颗粒物(PM2.5),75,74,98,55,77,66,,65,65,32,39,6,8,0.9,1.3
2026-02-05T1800,2637A,107.0072,33.0323,汉中市,南郑大河坎水厂,颗粒物(PM10),69,88,95,46,63,59,,64,64,38,30,7,7,0.9,1.1
2026-02-05T1800,1223A,120.2073,30.2111,杭州市,滨江,细颗粒物(PM2.5),102,95,115,76,78,35,,18,18,55,80,6,8,0.9,1
2026-02-05T1800,1224A,120.0625,30.2737,杭州市,西溪,细颗粒物(PM2.5),79,96,94,58,65,21,,11,11,39,49,8,9,1.0,1
2026-02-05T1800,1226A,120.3417,30.315,杭州市,下沙,细颗粒物(PM2.5),109,122,116,82,82,16,,17,17,74,91,8,9,0.7,0.7
2026-02-05T1800,1227A,120.1252,30.2465,杭州市,卧龙桥,细颗粒物(PM2.5),85,89,86,63,60,25,,17,17,47,55,9,9,0.5,0.5
2026-02-05T1800,1228A,120.1902,30.2691,杭州市,浙江农大,细颗粒物(PM2.5),97,102,110,72,73,23,,16,16,74,90,6,6,0.8,0.8
2026-02-05T1800,1230A,120.1195,30.3121,杭州市,和睦小学,细颗粒物(PM2.5),104,117,117,78,78,34,,18,18,51,75,5,6,0.9,1
2026-02-05T1800,1231A,120.3076,30.4146,杭州市,临平镇,细颗粒物(PM2.5),120,121,116,91,82,17,,21,21,59,72,6,7,1.0,0.9
2026-02-05T1800,1232A,120.2753,30.1839,杭州市,城厢镇,细颗粒物(PM2.5),93,101,115,69,79,44,,20,20,53,84,8,9,0.8,0.9
2026-02-05T1800,1233A,120.0883,30.1808,杭州市,云栖,"颗粒物(PM10),细颗粒物(PM2.5)",59,68,73,42,47,35,,29,29,46,56,5,5,0.7,0.6
2026-02-05T1800,3557A,119.9463,30.0496,杭州市,镇二中,细颗粒物(PM2.5),103,84,91,77,79,20,,16,16,62,66,5,6,1.1,1.2
2026-02-05T1800,3558A,119.7184,30.2367,杭州市,市府大楼,细颗粒物(PM2.5),84,,82,62,73,27,,14,14,43,46,10,11,0.9,1
2026-02-05T1800,3656A,120.1554,30.2863,杭州市,消防大队,细颗粒物(PM2.5),104,115,117,78,81,34,,19,19,51,78,6,7,0.9,0.9
2026-02-05T1800,1270A,117.1957,31.7845,合肥市,明珠广场,颗粒物(PM10),86,122,94,63,51,11,,56,56,96,92,7,7,0.8,0.9
2026-02-05T1800,1271A,117.307,31.8765,合肥市,三里街,细颗粒物(PM2.5),100,107,103,75,58,92,,78,78,36,76,7,7,0.9,1.2
2026-02-05T1800,1272A,117.2587,31.8703,合肥市,琥珀山庄,细颗粒物(PM2.5),95,112,96,71,52,97,,83,83,32,68,7,8,1.1,1.3
2026-02-05T1800,1275A,117.2593,31.9376,合肥市,庐阳区,细颗粒物(PM2.5),92,119,102,68,53,97,,98,98,40,71,7,7,1.0,1
2026-02-05T1800,1276A,117.345251,31.861615,合肥市,瑶海区,细颗粒物(PM2.5),85,117,92,63,47,83,,79,79,60,83,7,6,0.8,0.9
2026-02-05T1800,1277A,117.3033,31.7967,合肥市,包河区,颗粒物(PM10),87,124,91,61,48,49,,58,58,82,92,10,11,1.0,1.1
2026-02-05T1800,1278A,117.278,31.7392,合肥市,滨湖新区,颗粒物(PM10),75,100,81,52,47,39,,60,60,59,58,4,4,0.9,0.9
2026-02-05T1800,1279A,117.1324,31.8395,合肥市,高新区,,,110,85,62,45,93,,87,87,,62,6,5,0.8,0.8
2026-02-05T1800,3464A,117.3802,31.9148,合肥市,高教基地,细颗粒物(PM2.5),85,105,83,63,43,97,,94,94,29,55,10,10,0.7,0.7
2026-02-05T1800,4098A,117.2518,31.8404,合肥市,中国科学技术大学,细颗粒物(PM2.5),89,112,89,66,46,114,,87,87,23,69,10,10,1.0,1.1
2026-02-05T1800,3614A,79.9241,37.0878,和田地区,地区环保局,颗粒物(PM10),500,727,385,18,41,,,76,76,4,13,2,4,0.4,0.6
2026-02-05T1800,3615A,79.9132,37.1137,和田地区,市环保局,颗粒物(PM10),500,698,331,68,37,102,,97,97,2,32,1,3,0.5,0.6
2026-02-05T1800,2517A,108.0496,24.6957,河池市,市环保站,细颗粒物(PM2.5),172,153,128,130,117,21,,27,27,49,35,4,4,1.5,1.3
2026-02-05T1800,4302A,108.0901,24.6945,河池市,上任中路54号,细颗粒物(PM2.5),162,141,127,123,116,27,,23,23,37,30,6,6,1.6,1.6
2026-02-05T1800,1697A,114.6962,23.7538,河源市,东埔,,34,34,48,23,33,103,,117,117,16,43,5,6,0.6,0.9
2026-02-05T1800,1698A,114.6895,23.7232,河源市,老城,,46,37,41,32,27,95,,116,116,19,29,6,6,0.6,0.8
2026-02-05T1800,3374A,115.5562,35.089,菏泽市,定陶老年大学,颗粒物(PM10),115,180,184,62,135,,,60,,27,40,7,7,0.6,0.9
2026-02-05T1800,4114A,115.4239,35.2593,菏泽市,黄河路600号,颗粒物(PM10),116,181,201,29,132,70,,82,82,33,66,4,6,0.5,1.2
2026-02-05T1800,4115A,115.5025,35.2727,菏泽市,菏泽市人社局,颗粒物(PM10),104,158,196,44,136,62,,72,72,33,58,10,13,0.6,1.2
2026-02-05T1800,4184A,115.479691,35.244011,菏泽市,永昌路1号,颗粒物(PM10),118,185,197,46,136,72,,84,84,24,50,5,6,0.6,1
2026-02-05T1800,4193A,115.471542,35.280012,菏泽市,长城路999号,颗粒物(PM10),125,199,191,45,124,66,,76,76,32,57,5,8,0.7,1.3
2026-02-05T1800,2514A,111.5264,24.4178,贺州市,环保小区,,,,84,,51,28,,52,52,61,40,4,4,0.9,0.9
2026-02-05T1800,2515A,111.561,24.4074,贺州市,政协大楼,"颗粒物(PM10),细颗粒物(PM2.5)",59,68,54,42,39,45,,69,69,40,28,5,10,1.0,0.9
2026-02-05T1800,3534A,111.4744,24.455,贺州市,西湾,颗粒物(PM10),62,74,81,36,47,26,,55,55,63,42,5,5,0.8,0.9
2026-02-05T1800,2385A,114.17,35.9019,鹤壁市,市监测站,颗粒物(PM10),61,72,101,35,60,70,,74,74,32,26,5,8,0.5,0.9
2026-02-05T1800,2386A,114.2953,35.7512,鹤壁市,市交警支队,颗粒物(PM10),71,92,130,34,79,60,,65,65,26,47,1,10,0.3,0.9
2026-02-05T1800,2387A,114.2877,35.7302,鹤壁市,迎宾馆,颗粒物(PM10),87,124,136,41,72,64,,52,52,23,47,3,8,0.6,1
2026-02-05T1800,3474A,114.2616,35.6824,鹤壁市,大新区,颗粒物(PM10),72,94,125,39,80,73,,76,76,21,53,6,10,0.6,1.1
2026-02-05T1800,3596A,114.1573,35.9607,鹤壁市,南山宾馆,颗粒物(PM10),79,107,113,41,62,71,,80,76,18,18,5,13,0.3,0.7
2026-02-05T1800,2244A,130.2537,47.3416,鹤岗市,哈啤分公司,,26,20,25,12,15,83,,85,85,6,8,7,7,0.4,0.4
2026-02-05T1800,2245A,130.2683,47.3087,鹤岗市,斯达机电,,26,26,41,12,19,74,,74,74,7,16,4,7,0.6,0.7
2026-02-05T1800,2246A,130.3114,47.3388,鹤岗市,东山纸板厂,,42,42,59,11,28,77,,77,77,4,24,11,12,0.4,0.9
2026-02-05T1800,2263A,127.4832,50.2524,黑河市,交通局,,26,22,27,18,22,65,,68,68,8,12,6,7,0.4,0.4
2026-02-05T1800,2264A,127.5146,50.2339,黑河市,环保局,,35,,29,24,20,57,,63,62,14,18,6,7,0.6,0.6
2026-02-05T1800,1074A,115.6839,37.754,衡水市,电机北厂,颗粒物(PM10),94,138,171,66,93,79,,73,73,27,43,8,10,0.3,0.6
2026-02-05T1800,1075A,115.6303,37.7318,衡水市,市监测站,细颗粒物(PM2.5),102,132,157,76,86,77,,71,71,33,49,9,11,0.5,0.8
2026-02-05T1800,3188A,115.6684,37.7216,衡水市,市城管局,,,,183,,85,78,,72,72,28,52,,14,0.8,0.9
2026-02-05T1800,3459A,115.599,37.5491,衡水市,地表水厂,颗粒物(PM10),96,141,164,70,97,81,,75,75,20,60,7,12,0.7,0.9
2026-02-05T1800,2457A,112.6209,26.9268,衡阳市,衡阳化工总厂,细颗粒物(PM2.5),130,119,102,99,82,58,,54,54,23,31,14,18,1.3,1.2
2026-02-05T1800,2458A,112.621,26.8957,衡阳市,珠晖区环保局,细颗粒物(PM2.5),109,109,99,82,73,56,,53,53,31,41,10,14,1.5,1.4
2026-02-05T1800,2459A,112.628,26.8654,衡阳市,市委党校,细颗粒物(PM2.5),118,94,94,89,78,63,,52,52,23,31,15,21,1.5,1.5
2026-02-05T1800,2460A,112.6007,26.8977,衡阳市,市监测站,细颗粒物(PM2.5),115,133,125,87,76,57,,48,48,31,40,13,14,1.4,1.4
2026-02-05T1800,2461A,112.5658,26.9013,衡阳市,真空机电公司,细颗粒物(PM2.5),120,101,113,91,91,53,,47,47,34,46,10,20,1.5,1.5
2026-02-05T1800,3399A,112.6703,26.8817,衡阳市,师范学院,细颗粒物(PM2.5),97,102,104,72,67,60,,60,60,37,42,12,14,1.4,1.2
2026-02-05T1800,3038A,103.3757,23.3679,红河哈尼族彝族自治州,州图书馆,,29,22,41,18,30,90,,93,93,5,11,10,8,0.4,0.6
2026-02-05T1800,4154A,103.401,23.3561,红河哈尼族彝族自治州,蒙自市朝阳路,,29,29,23,18,24,92,,93,93,3,7,6,7,0.3,0.4
2026-02-05T1800,1090A,111.6506,40.7517,呼和浩特市,呼市一监,细颗粒物(PM2.5),52,,45,36,20,81,,79,79,7,15,6,8,0.3,0.4
2026-02-05T1800,1094A,111.7516,40.8369,呼和浩特市,如意水处理厂,,24,14,27,3,9,75,,79,79,9,10,9,9,0.2,0.1
2026-02-05T1800,1095A,111.727798,40.806187,呼和浩特市,二十九中,,24,14,35,3,10,76,,77,77,5,7,11,11,0.3,0.3
2026-02-05T1800,1097A,111.717,40.7617,呼和浩特市,化肥厂生活区,,24,13,37,3,12,74,,80,80,13,14,6,6,0.2,0.3
2026-02-05T1800,3699A,111.6519,40.8389,呼和浩特市,海东办,,25,6,26,3,9,79,,81,81,8,10,4,4,0.2,0.3
2026-02-05T1800,4275A,111.591512,40.827312,呼和浩特市,成吉思汗西街8号,,24,12,34,3,10,74,,74,74,7,11,4,5,0.2,0.3
2026-02-05T1800,4276A,111.6597,40.8077,呼和浩特市,公园东路75号,,23,7,32,3,10,71,,70,70,12,14,6,6,0.3,0.4
2026-02-05T1800,4277A,111.5427,40.7846,呼和浩特市,金海路35号,,24,16,46,3,12,75,,76,76,7,15,6,6,0.3,0.4
2026-02-05T1800,3061A,119.7511,49.1576,呼伦贝尔市,国华电力东,,32,32,26,16,11,63,,66,66,13,12,5,6,0.3,0.3
2026-02-05T1800,4279A,119.7569,49.2222,呼伦贝尔市,伊敏大街东7号,,,29,28,24,13,64,,73,69,13,3,,7,,0.5
2026-02-05T1800,1250A,120.075,30.867,湖州市,城西水厂,,,,91,,70,,,82,26,,71,,6,,0.7
2026-02-05T1800,2873A,120.083,30.8929,湖州市,仁皇山新区,细颗粒物(PM2.5),75,83,91,55,65,8,,28,28,72,70,6,6,1.5,1
2026-02-05T1800,2907A,120.1846,30.8592,湖州市,吴兴区站,细颗粒物(PM2.5),93,101,107,69,81,18,,23,23,66,63,6,6,1.0,0.8
2026-02-05T1800,3562A,120.4146,30.8538,湖州市,南浔区站,细颗粒物(PM2.5),109,124,112,82,78,9,,31,29,73,69,8,8,1.0,0.8
2026-02-05T1800,1607A,120.904878,40.721091,葫芦岛市,龙港区,颗粒物(PM10),71,92,197,9,68,70,,74,73,7,39,5,15,0.4,1
2026-02-05T1800,1608A,120.8382,40.7521,葫芦岛市,化工街,颗粒物(PM10),82,114,176,13,69,67,,72,72,12,45,12,22,0.3,0.7
2026-02-05T1800,1609A,120.8339,40.7078,葫芦岛市,新区,颗粒物(PM10),65,79,129,14,67,69,,76,75,15,45,9,15,0.5,0.9
2026-02-05T1800,1610A,120.8697,40.7679,葫芦岛市,东城区,颗粒物(PM10),63,75,134,25,66,68,,75,74,12,37,10,19,0.4,0.8
2026-02-05T1800,2483A,109.9297,27.5383,怀化市,河西地税局,细颗粒物(PM2.5),80,93,110,59,60,48,,42,42,16,25,1,2,/,/
2026-02-05T1800,2484A,109.9783,27.5342,怀化市,市四医院,颗粒物(PM10),73,95,116,50,60,39,,21,21,11,17,6,10,0.8,0.9
2026-02-05T1800,2485A,109.9971,27.5579,怀化市,监测楼,细颗粒物(PM2.5),79,82,106,58,68,41,,44,44,15,21,3,6,0.4,0.4
2026-02-05T1800,1210A,119.0566,33.5991,淮安市,钵池山,细颗粒物(PM2.5),152,158,124,116,103,126,,117,117,22,40,13,11,0.9,1
2026-02-05T1800,1211A,119.0083,33.578,淮安市,北京南路,细颗粒物(PM2.5),160,180,124,122,96,125,,114,114,23,57,11,9,0.9,1
2026-02-05T1800,1212A,118.9938,33.6083,淮安市,市监测站,细颗粒物(PM2.5),169,166,121,128,101,119,,109,109,26,51,13,11,0.9,0.9
2026-02-05T1800,1213A,119.135,33.5038,淮安市,楚州区监测站,细颗粒物(PM2.5),163,176,137,124,103,114,,102,102,23,56,9,9,1.0,0.9
2026-02-05T1800,3426A,118.8757,33.2897,淮安市,新华书店,细颗粒物(PM2.5),140,147,135,107,102,99,,96,96,31,47,10,10,,0.9
2026-02-05T1800,4092A,119.119691,33.550006,淮安市,枚皋中路89号,细颗粒物(PM2.5),180,147,127,136,102,122,,113,113,20,35,13,10,0.9,0.8
2026-02-05T1800,4206A,119.028838,33.631911,淮安市,承德北路606号,细颗粒物(PM2.5),155,193,150,118,97,128,,121,121,25,60,13,9,0.9,1
2026-02-05T1800,2282A,116.8005,33.9749,淮北市,监测站,细颗粒物(PM2.5),142,193,156,108,104,92,,98,98,44,42,7,6,0.9,1.1
2026-02-05T1800,2283A,116.8094,33.9008,淮北市,烈山区政府,,,,159,,108,113,,101,101,,47,,6,0.6,0.7
2026-02-05T1800,4017A,116.7926,33.9534,淮北市,市博物馆,细颗粒物(PM2.5),138,182,165,105,111,95,,97,97,38,44,6,5,0.9,1
2026-02-05T1800,4100A,116.8322,33.9884,淮北市,杜集区第一实验学校,细颗粒物(PM2.5),133,162,161,101,113,104,,96,96,29,34,7,5,0.7,0.9
2026-02-05T1800,2277A,116.8304,32.7726,淮南市,潘集区政府,细颗粒物(PM2.5),143,155,121,109,75,82,,83,83,38,46,8,8,,0.7
2026-02-05T1800,2279A,116.8569,32.5949,淮南市,谢家集区政府,细颗粒物(PM2.5),97,136,82,72,47,84,,94,94,47,23,9,9,0.9,0.8
2026-02-05T1800,2280A,116.8279,32.6333,淮南市,八公山区政府,细颗粒物(PM2.5),118,138,90,89,58,89,,98,97,38,18,6,5,0.8,0.7
2026-02-05T1800,2894A,117.0561,32.6536,淮南市,经济技术开发区消防队,细颗粒物(PM2.5),113,149,103,85,61,69,,89,89,56,58,7,7,0.6,0.6
2026-02-05T1800,3329A,117.011,32.5891,淮南市,山南新区,颗粒物(PM10),91,131,81,67,49,90,,96,96,40,32,9,9,0.7,0.7
2026-02-05T1800,4209A,117.003137,32.644456,淮南市,国庆中路369号,细颗粒物(PM2.5),109,120,91,82,59,79,,80,80,,45,8,7,0.6,0.8
2026-02-05T1800,2446A,114.9021,30.474,黄冈市,职工中心,细颗粒物(PM2.5),95,88,69,71,54,20,,39,36,49,28,6,5,1.0,0.9
2026-02-05T1800,2929A,114.8858,30.4519,黄冈市,红卫路,细颗粒物(PM2.5),88,93,72,65,52,30,,48,46,43,31,8,7,1.2,0.9
2026-02-05T1800,3398A,114.9134,30.4446,黄冈市,市林业局,细颗粒物(PM2.5),104,101,76,78,59,36,,40,40,37,29,4,4,1.0,0.8
2026-02-05T1800,2672A,102.02,35.5101,黄南藏族自治州,同仁县隆务镇,颗粒物(PM10),58,65,69,33,41,90,,86,86,12,8,11,10,0.6,0.7
2026-02-05T1800,2295A,118.2905,29.6965,黄山市,延安路89号,细颗粒物(PM2.5),67,62,54,48,45,41,,25,25,22,25,4,4,0.7,0.7
2026-02-05T1800,2297A,118.1369,30.2755,黄山市,黄山区政府5号楼,,38,33,32,26,26,26,,36,36,20,13,2,2,0.8,0.7
2026-02-05T1800,4210A,118.335445,29.720283,黄山市,滨江东路7-2号,细颗粒物(PM2.5),63,56,74,45,47,50,,20,20,22,29,/,/,/,/
2026-02-05T1800,2423A,115.0547,30.2332,黄石市,沈家营,细颗粒物(PM2.5),83,101,84,61,46,40,,54,54,40,31,7,7,1.5,1.2
2026-02-05T1800,2426A,114.899,30.211,黄石市,铁山,细颗粒物(PM2.5),133,118,84,101,68,4,,23,23,61,38,14,10,2.2,1.1
2026-02-05T1800,2427A,115.0259,30.2108,黄石市,团城山,细颗粒物(PM2.5),110,102,80,83,55,15,,36,36,36,27,6,6,1.5,1
2026-02-05T1800,3149A,115.0174,30.1591,黄石市,笔架山北路,细颗粒物(PM2.5),127,168,101,96,55,13,,40,38,56,28,8,7,1.6,1.2
2026-02-05T1800,4185A,115.078022,30.21118,黄石市,磁湖东路29号,颗粒物(PM10),123,195,86,,50,24,,41,39,,26,5,6,1.3,1.2
2026-02-05T1800,1392A,114.4181,23.0528,惠州市,河南岸金山湖子站,,33,21,53,12,29,104,,104,104,15,23,3,5,0.6,0.8
2026-02-05T1800,1393A,114.4055,23.0824,惠州市,下埔横江三路子站,,40,23,59,11,32,125,,124,124,15,30,6,8,0.4,0.6
2026-02-05T1800,1395A,114.4645,22.7832,惠州市,惠阳区承修路船湖子站,,30,24,46,12,24,95,,112,112,40,30,7,7,0.6,0.6
2026-02-05T1800,1396A,114.5316,22.7423,惠州市,大亚湾管委会子站,,32,21,48,10,24,100,,106,106,20,36,6,7,0.5,0.6
2026-02-05T1800,3314A,114.4334,22.8134,惠州市,惠阳秋长,,,,50,13,22,115,,132,132,,31,/,/,/,/
2026-02-05T1800,3452A,114.6521,22.7755,惠州市,大亚湾霞涌,,45,31,39,15,20,142,,140,140,18,24,/,/,/,/
2026-02-05T1800,4300A,114.4089,23.1147,惠州市,文华一路1号,,36,20,49,9,27,114,,120,120,21,31,/,/,/,/
2026-02-05T1800,2240A,130.9618,45.2926,鸡西市,环保局,,38,38,59,26,20,64,,68,68,14,12,8,9,0.4,0.3
2026-02-05T1800,2243A,130.9294,45.2959,鸡西市,第一中学,,43,43,45,21,26,62,,67,67,16,20,5,6,0.4,0.4
2026-02-05T1800,3707A,131.0069,45.2988,鸡西市,欧美日汽修厂,颗粒物(PM10),63,75,76,21,30,64,,69,68,8,10,8,11,0.6,0.6
2026-02-05T1800,2367A,114.9753,27.0803,吉安市,红声器材厂,细颗粒物(PM2.5),124,96,83,94,62,110,,102,102,24,26,16,13,1.0,0.9
2026-02-05T1800,2369A,114.9903,27.1313,吉安市,市环境监测站,细颗粒物(PM2.5),138,,75,105,66,105,,104,104,26,29,14,13,/,/
2026-02-05T1800,2370A,115.009527,27.096792,吉安市,青原区法院,细颗粒物(PM2.5),138,,76,105,63,105,,102,102,33,26,20,13,1.0,0.8
2026-02-05T1800,1772A,126.54,43.8622,吉林市,哈达湾,颗粒物(PM10),62,74,91,13,57,84,,84,84,12,29,6,15,0.5,1
2026-02-05T1800,1773A,126.5843,43.8358,吉林市,东局子,,34,34,55,15,51,66,,64,64,14,28,5,6,0.9,1.2
2026-02-05T1800,1774A,126.5051,43.8243,吉林市,电力学院,颗粒物(PM10),59,67,70,24,53,75,,78,78,12,28,6,19,0.6,0.9
2026-02-05T1800,1775A,126.6133,43.8971,吉林市,江北,,,50,65,12,48,66,,67,67,15,27,,8,0.4,0.9
2026-02-05T1800,1776A,126.5549,43.8304,吉林市,江南公园,,40,40,62,12,50,70,,71,71,14,30,8,14,0.4,0.7
2026-02-05T1800,2868A,126.4737,43.953,吉林市,九站,,46,46,69,16,54,65,,68,68,23,32,5,10,0.6,0.8
2026-02-05T1800,1299A,116.9866,36.6118,济南市,科干所,颗粒物(PM10),86,122,155,27,92,75,,80,65,18,32,6,12,0.4,0.9
2026-02-05T1800,1300A,116.9379,36.6652,济南市,农科所,颗粒物(PM10),102,154,182,20,114,66,,64,64,24,54,10,11,0.6,1.1
2026-02-05T1800,1301A,117.1265,36.6736,济南市,开发区,颗粒物(PM10),91,132,160,15,95,78,,86,73,30,45,4,7,0.4,0.9
2026-02-05T1800,1303A,117.0616,36.6865,济南市,省种子仓库,颗粒物(PM10),100,149,179,18,103,69,,65,65,22,58,6,10,0.4,1.1
2026-02-05T1800,1304A,116.9495185,36.644937,济南市,机床二厂,颗粒物(PM10),106,161,181,22,116,68,,66,66,22,51,7,21,0.2,0.8
2026-02-05T1800,1305A,117.0496,36.6629,济南市,市监测站,颗粒物(PM10),92,134,166,19,103,73,,66,66,21,49,5,7,0.5,1.1
2026-02-05T1800,1306A,116.7674,36.5458,济南市,长清党校,颗粒物(PM10),109,168,174,28,98,74,,64,64,41,59,6,7,0.8,1.1
2026-02-05T1800,1961A,117.5323,36.6865,济南市,东山小学,颗粒物(PM10),105,159,151,7,73,79,,74,74,20,47,3,6,0.3,0.8
2026-02-05T1800,3059A,117.7181,36.205,济南市,泰兴公司,颗粒物(PM10),91,132,201,43,124,85,,83,83,20,59,7,11,0.9,1.5
2026-02-05T1800,3064A,117.6861,36.2172,济南市,莱芜战役纪念馆,颗粒物(PM10),86,122,190,26,122,75,,78,78,23,65,12,15,0.6,1.5
2026-02-05T1800,3494A,117.1673,36.9782,济南市,济阳区政府,颗粒物(PM10),89,127,172,10,109,69,,68,68,11,48,6,9,0.5,1.1
2026-02-05T1800,3495A,117.1168,36.6299,济南市,锦屏中学,颗粒物(PM10),81,112,144,16,91,79,,82,71,17,28,4,6,0.2,0.7
2026-02-05T1800,4108A,117.7107,36.2385,济南市,山财大街5号,颗粒物(PM10),82,114,172,18,106,74,,82,82,32,71,8,12,0.7,1.3
2026-02-05T1800,4109A,116.9744,36.6889,济南市,无影山路12号,颗粒物(PM10),103,156,179,17,110,64,,62,62,17,43,8,14,0.8,1.3
2026-02-05T1800,1653A,116.6229,35.4288,济宁市,火炬城,细颗粒物(PM2.5),95,134,152,71,117,80,,95,95,28,39,5,5,0.8,1
2026-02-05T1800,3500A,116.5808,35.3703,济宁市,北湖一中,细颗粒物(PM2.5),109,143,152,82,123,96,,104,104,46,43,16,10,,0.9
2026-02-05T1800,3501A,116.8251,35.5592,济宁市,服务中心,颗粒物(PM10),104,158,185,70,119,68,,89,89,28,46,6,7,0.8,1.1
2026-02-05T1800,3678A,116.5907,35.4054,济宁市,市第七中学,细颗粒物(PM2.5),109,145,155,82,124,92,,107,107,32,43,16,15,0.8,1
2026-02-05T1800,4111A,116.6075,35.4566,济宁市,任和路,颗粒物(PM10),109,167,178,64,115,80,,98,98,28,49,10,8,0.7,1
2026-02-05T1800,4112A,116.5648,35.3921,济宁市,文体南路1号,细颗粒物(PM2.5),124,189,188,94,132,102,,110,109,28,46,9,8,0.8,1
2026-02-05T1800,2255A,130.2749,46.8028,佳木斯市,佳纺,,49,,55,34,32,45,,65,63,28,32,6,6,0.5,0.6
2026-02-05T1800,2257A,130.3258,46.7975,佳木斯市,环保局,,,21,57,,44,53,,57,57,21,37,7,8,0.5,0.6
2026-02-05T1800,4285A,130.363,46.806,佳木斯市,顺和街,,20,14,39,14,30,52,,64,63,24,28,5,6,0.5,0.5
2026-02-05T1800,4286A,130.3952,46.8268,佳木斯市,长安路196号,,36,,40,25,28,39,,68,66,42,29,8,5,0.6,0.7
2026-02-05T1800,1252A,120.7439,30.778,嘉兴市,清河小学,细颗粒物(PM2.5),109,104,111,82,80,5,,27,25,98,93,6,7,0.4,0.3
2026-02-05T1800,1253A,120.7261,30.7477,嘉兴市,嘉兴学院,细颗粒物(PM2.5),112,108,121,84,79,1,,24,23,95,87,5,6,0.9,1
2026-02-05T1800,2872A,120.7845,30.7524,嘉兴市,南湖区残联,,,,98,,82,7,,35,32,94,89,5,6,,0.7
2026-02-05T1800,3407A,120.6915,30.7741,嘉兴市,秀洲住建,细颗粒物(PM2.5),98,92,106,73,73,7,,34,33,69,79,6,7,0.8,0.8
2026-02-05T1800,1945A,98.291,39.7705,嘉峪关市,气象局,颗粒物(PM10),114,178,122,48,45,80,,80,80,7,13,4,5,0.6,0.3
2026-02-05T1800,2884A,98.2672,39.7978,嘉峪关市,酒钢宾馆,颗粒物(PM10),126,202,138,53,40,77,,80,80,9,13,17,14,0.8,0.5
2026-02-05T1800,3248A,98.2644,39.7723,嘉峪关市,雄关区,颗粒物(PM10),101,152,94,64,47,76,,76,76,12,21,11,13,0.4,0.5
2026-02-05T1800,1383A,113.1063,22.6058,江门市,北街,,38,38,46,10,28,119,,124,124,13,19,/,/,/,/
2026-02-05T1800,1384A,113.073,22.5835,江门市,西区,,42,42,46,11,27,123,,122,122,19,24,/,/,/,/
2026-02-05T1800,1385A,113.0218,22.531,江门市,圭峰西,,37,33,40,10,24,118,,119,119,14,17,/,/,/,/
2026-02-05T1800,1386A,113.0826,22.5947,江门市,东湖,,39,27,46,9,27,122,,123,123,16,19,8,8,0.4,0.6
2026-02-05T1800,3311A,113.1077,22.5647,江门市,江海富民,,42,42,69,12,28,127,,126,126,20,25,/,/,0.4,0.6
2026-02-05T1800,3449A,113.0496,22.4669,江门市,新会银湖,颗粒物(PM10),51,51,44,9,26,115,,111,111,18,27,7,6,0.4,0.6
2026-02-05T1800,3335A,113.3137,35.2643,焦作市,马村街道办,颗粒物(PM10),81,112,121,51,64,74,,69,69,18,29,7,12,0.5,1
2026-02-05T1800,3336A,113.2464,35.2374,焦作市,焦作技师学院,颗粒物(PM10),77,103,114,43,61,75,,68,68,21,41,8,12,0.5,1.1
2026-02-05T1800,3477A,113.1656,35.2536,焦作市,中站许衡医院,颗粒物(PM10),74,97,82,47,41,82,,80,80,20,24,7,11,0.7,0.8
2026-02-05T1800,3981A,113.2456,35.18,焦作市,原李万街道办,细颗粒物(PM2.5),94,123,125,70,70,73,,73,73,25,39,11,14,0.7,1
2026-02-05T1800,4264A,113.234,35.219,焦作市,新安路1731号,颗粒物(PM10),76,101,122,47,61,82,,73,73,20,40,12,12,0.5,0.9
2026-02-05T1800,4295A,113.2722,35.2121,焦作市,人民路3066号,颗粒物(PM10),88,125,131,48,76,78,,66,66,19,49,8,11,0.6,1.2
2026-02-05T1800,1708A,116.3701,23.5345,揭阳市,新兴,颗粒物(PM10),65,79,74,39,43,117,,116,116,36,37,8,9,0.8,0.9
2026-02-05T1800,1709A,116.3261,23.5442,揭阳市,西马,颗粒物(PM10),68,85,79,36,44,126,,126,126,29,32,6,7,0.8,0.9
2026-02-05T1800,1710A,116.361,23.5627,揭阳市,东兴,,,65,77,32,42,,,130,130,32,38,9,12,/,/
2026-02-05T1800,1711A,116.4151,23.5295,揭阳市,渔湖,,,94,75,34,45,135,,128,128,,35,7,7,/,/
2026-02-05T1800,3320A,116.4028,23.5699,揭阳市,曲溪,颗粒物(PM10),63,75,71,37,44,139,,141,141,29,33,9,7,1.4,1
2026-02-05T1800,1944A,102.1691,38.5166,金昌市,天庆家园,颗粒物(PM10),140,229,85,42,33,90,,80,80,4,18,4,12,0.3,0.6
2026-02-05T1800,4022A,102.1648,38.5369,金昌市,金川区人防中心,颗粒物(PM10),122,193,69,48,27,88,,82,82,4,12,6,13,0.4,0.5
2026-02-05T1800,4239A,102.193042,38.531887,金昌市,长春路96号,颗粒物(PM10),106,162,69,37,27,84,,75,75,4,17,5,13,0.6,0.9
2026-02-05T1800,1262A,119.6478,29.0773,金华市,十五中,细颗粒物(PM2.5),78,98,109,57,66,75,,62,62,45,63,5,4,1.0,1.2
2026-02-05T1800,1263A,119.6859,29.1032,金华市,监测站,细颗粒物(PM2.5),74,93,109,54,64,66,,52,52,50,71,3,4,0.8,0.8
2026-02-05T1800,3659A,119.656,29.1132,金华市,气象局,细颗粒物(PM2.5),88,100,119,65,76,57,,47,47,58,86,7,6,1.0,1.2
2026-02-05T1800,1767A,121.1114,41.0879,锦州市,南山,颗粒物(PM10),59,68,119,10,59,80,,87,87,6,24,6,17,0.5,0.9
2026-02-05T1800,1768A,121.060361,40.842794,锦州市,开发区,颗粒物(PM10),68,85,174,21,63,71,,75,74,9,29,4,11,0.4,0.9
2026-02-05T1800,1769A,121.1836,41.1118,锦州市,百股街道,颗粒物(PM10),61,71,155,18,61,76,,83,82,10,28,6,10,0.4,0.9
2026-02-05T1800,1770A,121.1176,41.1224,锦州市,天安街道,颗粒物(PM10),67,84,133,11,50,84,,91,90,10,22,4,8,0.5,0.8
2026-02-05T1800,1771A,121.1303,41.1385,锦州市,北湖公园,颗粒物(PM10),56,62,116,12,50,82,,86,86,6,18,7,11,0.4,0.7
2026-02-05T1800,2160A,112.8496,35.5051,晋城市,自来水公司,颗粒物(PM10),62,74,108,33,45,84,,78,78,16,30,9,13,0.5,1.4
2026-02-05T1800,2162A,112.8509,35.4886,晋城市,市环保局,颗粒物(PM10),71,91,97,37,48,89,,82,82,17,24,7,11,0.5,1.3
2026-02-05T1800,3620A,112.8258,35.4804,晋城市,泽州一中,,,,108,,49,93,,88,88,,21,,10,0.6,1.3
2026-02-05T1800,4078A,112.8246,35.5152,晋城市,前书院路,颗粒物(PM10),81,112,115,44,42,87,,81,81,14,25,9,12,0.7,1.4
2026-02-05T1800,4079A,112.8864,35.4773,晋城市,祥云街666号,颗粒物(PM10),78,105,105,45,59,87,,80,80,17,29,10,15,0.5,1
2026-02-05T1800,2174A,112.6992,37.6984,晋中市,榆次区政府,颗粒物(PM10),58,66,123,13,55,53,,59,59,36,58,8,22,0.4,1.1
2026-02-05T1800,2865A,112.7195,37.683,晋中市,榆次三中,颗粒物(PM10),58,66,123,21,55,57,,63,63,28,51,8,22,0.3,1
2026-02-05T1800,4080A,112.7375,37.7215,晋中市,广安街188号,颗粒物(PM10),62,73,123,24,55,63,,64,64,25,55,11,22,0.2,0.8
2026-02-05T1800,4200A,112.7478,37.6954,晋中市,迎宾街26号,颗粒物(PM10),67,83,124,16,60,56,,64,63,31,49,9,22,0.4,0.9
2026-02-05T1800,2439A,112.2012,31.048,荆门市,竹园小学,细颗粒物(PM2.5),158,147,163,120,115,47,,43,43,,44,,1,1.2,1.3
2026-02-05T1800,2440A,112.1968,30.9892,荆门市,掇刀,细颗粒物(PM2.5),172,159,186,130,144,37,,58,58,50,38,8,6,1.6,1.2
2026-02-05T1800,3012A,112.1849,31.0361,荆门市,西山林语,细颗粒物(PM2.5),127,132,153,96,105,42,,40,40,42,41,2,2,1.2,1.4
2026-02-05T1800,3547A,112.1631,31.0134,荆门市,龙泉中学南校,细颗粒物(PM2.5),124,145,177,94,119,57,,54,54,39,36,6,5,0,0.2
2026-02-05T1800,4124A,112.2213,31.0654,荆门市,新台西路6号,细颗粒物(PM2.5),179,195,175,135,135,42,,46,46,39,47,9,9,1.0,1.1
2026-02-05T1800,1844A,112.2493,30.3198,荆州市,市图书馆,细颗粒物(PM2.5),208,190,144,158,125,6,,22,21,71,50,7,10,1.3,1.2
2026-02-05T1800,1845A,112.2009,30.3543,荆州市,市委党校,细颗粒物(PM2.5),236,212,182,186,149,19,,22,22,52,48,7,9,1.5,1.4
2026-02-05T1800,3194A,112.2749,30.3124,荆州市,管委会,细颗粒物(PM2.5),220,192,147,170,127,2,,13,13,64,50,6,12,1.2,1.1
2026-02-05T1800,4268A,112.1722,30.3366,荆州市,学苑路85号,细颗粒物(PM2.5),218,194,177,168,148,29,,32,32,37,40,8,10,1.2,1
2026-02-05T1800,2343A,117.2114,29.2931,景德镇市,老干部活动中心,,37,37,53,25,33,26,,42,42,22,23,3,4,0.8,0.8
2026-02-05T1800,2344A,117.1893,29.2789,景德镇市,兽医站,,40,40,65,24,33,38,,53,51,18,24,5,4,0.7,0.6
2026-02-05T1800,2346A,117.246,29.2958,景德镇市,陶研所,,40,37,40,28,29,25,,45,45,28,21,3,3,0.8,0.8
2026-02-05T1800,4289A,117.154766,29.256967,景德镇市,青少年活动中心,,42,35,62,29,36,45,,46,46,21,34,4,5,/,/
2026-02-05T1800,1803A,115.9873,29.6816,九江市,十里,细颗粒物(PM2.5),87,86,95,64,63,15,,22,22,54,56,7,7,1.2,1.2
2026-02-05T1800,1804A,115.9583,29.7047,九江市,茅山头,细颗粒物(PM2.5),105,99,98,79,75,5,,11,11,63,55,4,4,1.1,0.9
2026-02-05T1800,1805A,115.9877,29.7295,九江市,西园,细颗粒物(PM2.5),85,93,109,63,75,18,,22,22,66,65,6,7,1.1,1.1
2026-02-05T1800,1808A,115.9112,29.6038,九江市,综合工业园,细颗粒物(PM2.5),88,110,83,65,54,10,,19,19,71,59,3,4,0.9,0.7
2026-02-05T1800,3190A,116.0254,29.6995,九江市,外国语学校,细颗粒物(PM2.5),103,,90,77,78,8,,18,17,65,59,4,6,1.0,1
2026-02-05T1800,4253A,116.010205,29.659402,九江市,莲花大道8号,细颗粒物(PM2.5),82,94,73,60,53,8,,33,24,57,39,4,4,1.0,0.8
2026-02-05T1800,4240A,98.495752,39.733935,酒泉市,玉门东路5号,颗粒物(PM10),142,234,161,62,56,76,,71,71,4,17,9,14,0.3,0.5
2026-02-05T1800,4241A,98.5099,39.7506,酒泉市,北大街108号,颗粒物(PM10),135,219,171,64,54,61,,54,54,,18,8,13,0.3,0.5
2026-02-05T1800,2698A,76.0071,39.466,喀什地区,巡警大队,颗粒物(PM10),115,180,118,70,53,97,,60,60,20,53,7,8,0.7,2.1
2026-02-05T1800,2699A,75.9756,39.4693,喀什地区,吾办,颗粒物(PM10),105,160,129,74,63,97,,68,68,22,54,12,10,0.8,2
2026-02-05T1800,4027A,75.9485,39.4688,喀什地区,老干局,颗粒物(PM10),105,160,138,55,57,101,,64,64,17,46,6,8,0.8,2.5
2026-02-05T1800,1824A,114.3389,34.778,开封市,肿瘤医院,细颗粒物(PM2.5),158,212,168,120,113,100,,86,86,37,62,13,12,1.1,1.2
2026-02-05T1800,1826A,114.2884,34.7966,开封市,世纪星幼儿园,细颗粒物(PM2.5),139,185,152,106,106,93,,78,78,37,59,13,13,0.9,1.1
2026-02-05T1800,3147A,114.3434,34.8101,开封市,龙亭公园,细颗粒物(PM2.5),129,191,168,98,105,91,,81,81,40,65,13,12,0.8,1
2026-02-05T1800,3210A,114.3645,34.7955,开封市,汴京公园,颗粒物(PM10),140,229,176,94,102,97,,82,82,36,66,10,8,0.8,1
2026-02-05T1800,3473A,114.2485,34.8306,开封市,技师学院,细颗粒物(PM2.5),128,183,136,97,96,95,,78,78,35,53,12,12,1.1,1.2
2026-02-05T1800,3592A,114.4518,34.7503,开封市,祥符区生态环境局,细颗粒物(PM2.5),153,229,202,117,120,86,,81,81,49,68,17,12,1.2,1.3
2026-02-05T1800,1951A,84.886,45.6029,克拉玛依市,长征新村,细颗粒物(PM2.5),53,46,126,37,90,86,,80,80,18,24,5,5,0.6,1.1
2026-02-05T1800,1952A,84.8894,45.5827,克拉玛依市,南林小区,,,44,126,39,98,83,,80,80,15,8,,2,0.6,1
2026-02-05T1800,1954A,84.896,44.3328,克拉玛依市,独山子区,细颗粒物(PM2.5),140,139,51,107,34,66,,78,56,11,14,3,3,1.1,0.7
2026-02-05T1800,1955A,85.6888,46.0909,克拉玛依市,乌尔禾区商贸楼,细颗粒物(PM2.5),64,71,120,46,101,75,,78,78,27,27,8,7,0.7,1.1
2026-02-05T1800,3612A,85.1045,45.6895,克拉玛依市,白碱滩区新站,细颗粒物(PM2.5),54,40,117,38,103,90,,87,87,13,19,8,9,0.7,1.1
2026-02-05T1800,2697A,76.1457,39.7143,克孜勒苏柯尔克孜自治州,市人民政府,颗粒物(PM10),120,189,73,64,40,105,,90,90,9,8,5,4,0.4,0.3
2026-02-05T1800,3665A,76.1654,39.7157,克孜勒苏柯尔克孜自治州,克州文化中心,颗粒物(PM10),112,173,97,65,37,104,,82,82,6,11,5,4,0.5,0.5
2026-02-05T1800,1450A,102.8203,24.889,昆明市,呈贡新区,,36,36,42,17,30,72,,83,83,15,18,4,6,0.2,0.5
2026-02-05T1800,1452A,102.7253,25.0904,昆明市,龙泉镇,,,,38,,28,85,,86,86,8,18,3,4,,0.5
2026-02-05T1800,1453A,102.7267,25.0378,昆明市,东风东路,,27,21,39,13,27,85,,87,87,16,19,7,7,0.4,0.4
2026-02-05T1800,1454A,102.6744,25.0671,昆明市,金鼎山,,27,27,46,10,29,85,,85,85,9,17,3,5,0.5,0.6
2026-02-05T1800,1455A,102.6643,25.0401,昆明市,碧鸡广场,,27,19,42,13,29,86,,88,88,13,27,5,5,0.4,0.5
2026-02-05T1800,3179A,102.7491,25.012,昆明市,官渡区博物馆,,34,34,41,8,28,83,,87,87,14,16,4,5,0.3,0.5
2026-02-05T1800,3375A,102.8016,24.8336,昆明市,青年创业园,,27,15,42,10,28,86,,91,91,4,17,5,9,0.4,0.6
2026-02-05T1800,3550A,102.8,24.9787,昆明市,昆明学院,,27,21,43,10,26,86,,94,94,10,15,3,5,0.5,0.6
2026-02-05T1800,3551A,102.5969,24.6738,昆明市,晋宁区生态环境分局,,30,21,46,12,31,94,,92,92,2,12,2,2,0.3,0.5
2026-02-05T1800,3552A,102.6673,24.9861,昆明市,云天化总部,,27,21,34,12,21,85,,89,89,13,10,6,7,0.3,0.4
2026-02-05T1800,1456A,91.132,29.6515,拉萨市,八廓街,,32,9,13,6,6,100,,98,98,5,5,8,7,0.3,0.3
2026-02-05T1800,1457A,91.1221,29.6748,拉萨市,市环保局,,31,11,17,6,9,97,,94,94,4,9,6,7,0.2,0.4
2026-02-05T1800,1458A,91.0874,29.6476,拉萨市,区监测站,,29,7,12,6,7,92,,92,92,6,6,4,4,0.8,0.8
2026-02-05T1800,1459A,91.1774,29.6541,拉萨市,西藏大学,,29,14,13,3,8,91,,89,89,7,9,4,4,0.2,0.2
2026-02-05T1800,1460A,90.9798,29.6586,拉萨市,区辐射站,,30,8,22,3,10,94,,92,92,5,13,3,4,0.2,0.3
2026-02-05T1800,1461A,91.0831,29.6292,拉萨市,拉萨火车站,,29,9,11,3,6,92,,91,91,3,3,4,4,0.3,0.3
2026-02-05T1800,2520A,109.2203,23.7252,来宾市,来宾技工学校,细颗粒物(PM2.5),69,70,156,50,157,68,,74,74,15,35,5,11,0.9,1.4
2026-02-05T1800,3535A,109.1781,23.7293,来宾市,兴宾区政府,细颗粒物(PM2.5),63,64,154,45,128,73,,62,62,16,37,6,8,0.9,1.3
2026-02-05T1800,4002A,109.2312,23.7428,来宾市,中南小学,细颗粒物(PM2.5),67,63,164,48,166,70,,60,60,15,36,5,5,0.9,1.5
2026-02-05T1800,1479A,103.8309,36.0467,兰州市,铁路设计院,,,,,,,,,,,,,,,,
2026-02-05T1800,3241A,103.7439,36.0841,兰州市,百合公园,"颗粒物(PM10),细颗粒物(PM2.5)",59,67,97,42,64,77,,59,59,35,64,13,17,0.7,1.4
2026-02-05T1800,3242A,103.9613,35.9985,兰州市,和平,颗粒物(PM10),57,64,79,33,42,95,,76,76,17,33,15,18,0.7,1.3
2026-02-05T1800,4236A,103.629272,36.093822,兰州市,庄浪东路808号,颗粒物(PM10),68,86,94,42,53,85,,78,78,41,56,24,26,0.8,1.2
2026-02-05T1800,4237A,103.7251,36.104344,兰州市,安宁西路88号,细颗粒物(PM2.5),64,73,107,46,59,87,,72,72,42,66,22,20,0.8,1.1
2026-02-05T1800,4238A,103.846982,36.067567,兰州市,北滨河东路1号,,50,46,100,35,56,102,,76,76,29,71,12,17,0.5,1.4
2026-02-05T1800,1067A,116.6712,39.5109,廊坊市,药材公司,,,42,115,3,49,72,,79,79,,33,3,3,0.3,0.6
2026-02-05T1800,1068A,116.7215,39.5592,廊坊市,开发区,,23,18,122,6,63,73,,78,78,11,35,3,4,0.3,0.7
2026-02-05T1800,1070A,116.7246,39.5273,廊坊市,北华航天学院,,23,20,117,3,62,71,,79,79,18,35,2,6,0.3,0.6
2026-02-05T1800,2919A,116.7022,39.5454,廊坊市,河北工业大学,,27,27,125,3,62,68,,75,74,10,35,3,5,0.2,0.6
2026-02-05T1800,2536A,103.7629,29.5844,乐山市,牛耳桥,细颗粒物(PM2.5),68,65,129,49,96,91,,71,71,25,32,4,5,0.8,0.9
2026-02-05T1800,2537A,103.7501,29.6002,乐山市,市第三水厂,细颗粒物(PM2.5),67,74,123,48,90,98,,73,73,21,41,3,3,0.9,1.1
2026-02-05T1800,2538A,103.7571,29.5664,乐山市,市监测站,,,,120,,91,95,,69,69,,30,5,6,0.9,1.1
2026-02-05T1800,3361A,103.7313,29.563,乐山市,理工大学,,,,96,44,86,98,,67,67,8,29,3,3,0.8,1.1
2026-02-05T1800,2599A,100.2497,26.8802,丽江市,丽江古城,,33,33,21,3,6,90,,87,87,8,9,6,6,0.4,0.4
2026-02-05T1800,2600A,100.2203,26.8906,丽江市,市中心,,32,32,13,16,9,91,,91,91,9,9,5,5,0.3,0.3
2026-02-05T1800,1267A,119.9141,28.4513,丽水市,监测站大楼,颗粒物(PM10),52,54,58,35,39,95,,88,88,26,38,6,6,0.7,0.9
2026-02-05T1800,1268A,119.93,28.4589,丽水市,莲都小学,颗粒物(PM10),52,54,66,30,36,102,,83,83,19,41,/,/,/,/
2026-02-05T1800,1269A,119.8794,28.4232,丽水市,余庄前,,47,47,48,28,31,90,,73,73,18,26,5,5,0.6,0.5
2026-02-05T1800,1173A,119.1759,34.5885,连云港市,市环境监测站,细颗粒物(PM2.5),218,280,145,168,108,111,,102,102,39,45,18,16,1.0,0.8
2026-02-05T1800,3000A,119.3577,34.6971,连云港市,德源药业,颗粒物(PM10),392,493,174,171,104,88,,101,101,32,56,7,9,1.2,1
2026-02-05T1800,3007A,119.178,34.8442,连云港市,新城一中,细颗粒物(PM2.5),242,229,149,192,120,94,,102,102,49,68,12,16,1.4,1.2
2026-02-05T1800,3008A,119.3607,34.7519,连云港市,胡沟管理处,细颗粒物(PM2.5),206,219,147,156,104,88,,93,93,32,52,11,17,1.1,1
2026-02-05T1800,3009A,119.1478,34.5913,连云港市,矿山设计院,细颗粒物(PM2.5),206,307,161,156,107,111,,96,96,36,47,,13,1.3,1.1
2026-02-05T1800,3434A,119.2414,34.6539,连云港市,工贸学校,细颗粒物(PM2.5),220,235,141,170,105,89,,92,92,47,43,16,15,1.2,0.8
2026-02-05T1800,3664A,119.4171,34.734,连云港市,连云街道,细颗粒物(PM2.5),222,240,148,172,105,83,,85,85,45,36,9,12,1.3,1.1
2026-02-05T1800,2573A,102.2629,27.8981,凉山彝族自治州,西昌市政府,,27,24,27,11,13,86,,82,82,5,9,4,12,0.3,0.7
2026-02-05T1800,2574A,102.2686,27.885,凉山彝族自治州,凉山州政府,,27,27,30,12,10,80,,76,76,4,8,6,13,0.5,0.6
2026-02-05T1800,4229A,102.2342,27.8859,凉山彝族自治州,凯乐南路30号,,30,30,31,8,9,86,,80,80,9,9,10,15,0.3,0.9
2026-02-05T1800,2212A,123.1978,41.2036,辽阳市,宏伟区,颗粒物(PM10),155,259,198,11,75,66,,70,70,5,26,5,8,0.4,1
2026-02-05T1800,2213A,123.1684,41.2497,辽阳市,新华园,颗粒物(PM10),161,271,204,14,77,70,,75,74,9,35,1,5,0.3,0.7
2026-02-05T1800,2214A,123.2355,41.2663,辽阳市,滨河路,颗粒物(PM10),165,280,188,12,70,70,,74,74,6,33,3,7,0.4,1
2026-02-05T1800,4083A,123.153,41.2874,辽阳市,铁西路150号,颗粒物(PM10),165,280,201,14,72,65,,67,67,6,33,4,9,0.4,0.9
2026-02-05T1800,2227A,125.1359,42.8845,辽源市,环保局,颗粒物(PM10),133,216,147,12,84,68,,72,72,11,34,2,3,0.4,1.2
2026-02-05T1800,4085A,125.0998,42.9134,辽源市,安宁大街333号,颗粒物(PM10),278,404,225,12,85,78,,79,79,7,26,2,4,0.4,0.9
2026-02-05T1800,1625A,115.9789,36.4372,聊城市,区政府,细颗粒物(PM2.5),178,205,198,134,125,63,,71,71,35,56,20,17,1.4,1.4
2026-02-05T1800,3200A,115.9772,36.4986,聊城市,监控中心,细颗粒物(PM2.5),192,193,203,144,127,68,,70,70,28,65,7,10,1.3,1.4
2026-02-05T1800,3513A,116.0443,36.436,聊城市,九州社区,细颗粒物(PM2.5),162,196,192,123,126,81,,86,86,15,32,4,8,1.0,1
2026-02-05T1800,4018A,116.0564,36.4609,聊城市,星美广场,细颗粒物(PM2.5),169,215,215,128,136,68,,74,74,23,42,9,10,1.2,1.2
2026-02-05T1800,4113A,116.0091,36.4495,聊城市,利民路,细颗粒物(PM2.5),166,217,199,126,121,66,,71,71,32,50,12,14,1.3,1.4
2026-02-05T1800,2632A,94.3683,29.6373,林芝市,林芝监测站,,29,,14,15,10,91,,94,89,2,1,5,5,0.4,0.4
2026-02-05T1800,2633A,94.3616,29.6634,林芝市,林芝人民医院,,28,12,18,10,12,89,,92,88,2,2,6,6,0.4,0.3
2026-02-05T1800,2603A,100.0779,23.8981,临沧市,市环保局,,30,30,34,12,22,92,,83,83,2,12,6,8,0.4,0.6
2026-02-05T1800,2604A,100.0894,23.882,临沧市,市气象局,,35,35,45,18,27,86,,75,75,4,12,12,11,0.3,0.5
2026-02-05T1800,1733A,111.5552,36.0791,临汾市,临钢医院,颗粒物(PM10),96,141,174,64,97,59,,62,62,42,45,22,14,1.4,1.8
2026-02-05T1800,1734A,111.4984,36.0734,临汾市,技工学校,细颗粒物(PM2.5),117,141,153,88,104,62,,65,65,47,51,29,17,1.2,1.6
2026-02-05T1800,1736A,111.5017,36.0857,临汾市,市委,颗粒物(PM10),97,143,164,70,97,60,,63,63,46,49,30,18,1.2,1.5
2026-02-05T1800,3018A,111.5048,36.1015,临汾市,唐尧大酒店,颗粒物(PM10),101,151,166,73,90,63,,62,62,56,54,31,16,1.2,1.9
2026-02-05T1800,4244A,111.4879,36.053,临汾市,启星学校,细颗粒物(PM2.5),105,130,156,79,98,58,,64,64,59,59,29,16,1.2,1.7
2026-02-05T1800,4271A,103.2464,35.6123,临夏回族自治州,滨河东路1号,,,89,184,,102,93,,82,82,,38,,10,0.4,1.7
2026-02-05T1800,4310A,103.207136,35.599807,临夏回族自治州,新华街21号,,42,38,161,29,102,89,,76,76,15,35,10,12,0.5,1.6
2026-02-05T1800,1618A,118.3429,35.0532,临沂市,沂河小区,颗粒物(PM10),156,261,181,118,112,75,,84,84,30,58,10,17,0.8,1
2026-02-05T1800,1619A,118.2962,35.0568,临沂市,鲁南制药厂,颗粒物(PM10),157,263,189,111,121,71,,78,78,40,81,12,24,0.8,1.2
2026-02-05T1800,1620A,118.2793,34.9976,临沂市,新光毛纺厂,细颗粒物(PM2.5),179,285,179,135,121,69,,80,80,38,71,11,21,1.0,1.2
2026-02-05T1800,1621A,118.3955,35.0889,临沂市,河东保险公司,细颗粒物(PM2.5),145,234,171,111,116,80,,83,83,38,64,10,15,1.0,1.2
2026-02-05T1800,3370A,118.3563,35.0215,临沂市,十里堡居委,细颗粒物(PM2.5),168,261,186,127,119,77,,91,91,39,73,10,24,1.0,1.3
2026-02-05T1800,3496A,118.359,35.1067,临沂市,南坊新区,颗粒物(PM10),136,222,154,94,104,81,,91,91,34,54,9,14,0.8,1
2026-02-05T1800,3860A,118.3915,35.0297,临沂市,皇山花园小区,细颗粒物(PM2.5),190,285,190,143,132,68,,88,88,44,71,13,22,1.1,1.3
2026-02-05T1800,1870A,109.4854,24.3898,柳州市,柳东小学,颗粒物(PM10),59,67,102,34,95,43,,31,31,12,19,8,8,0.7,1
2026-02-05T1800,1871A,109.4109,24.3304,柳州市,环保监测站,,,,156,29,144,73,,58,58,20,47,4,7,,1.9
2026-02-05T1800,1872A,109.3886,24.3408,柳州市,河西水厂,颗粒物(PM10),58,66,176,39,172,79,,67,67,21,39,6,8,0.6,1.4
2026-02-05T1800,1873A,109.4263,24.2951,柳州市,市四中,,49,49,167,34,151,76,,62,62,16,43,6,7,0.7,1.7
2026-02-05T1800,1874A,109.396,24.3658,柳州市,市九中,颗粒物(PM10),137,223,289,44,149,55,,50,50,37,41,11,12,1.1,1.7
2026-02-05T1800,1875A,109.4912,24.3164,柳州市,古亭山,颗粒物(PM10),51,52,116,27,120,83,,64,64,13,39,6,7,0.4,1
2026-02-05T1800,3402A,109.5422,24.3994,柳州市,市二中,颗粒物(PM10),58,65,102,33,98,85,,69,69,15,30,10,10,0.7,1
2026-02-05T1800,2307A,116.5078,31.7369,六安市,监测大楼,细颗粒物(PM2.5),75,92,72,55,49,76,,75,75,29,31,4,4,0.7,0.6
2026-02-05T1800,2308A,116.4738,31.7642,六安市,皖西学院,细颗粒物(PM2.5),80,103,81,59,49,82,,80,80,25,29,6,5,0.7,0.6
2026-02-05T1800,2309A,116.4997,31.7904,六安市,朝阳厂,细颗粒物(PM2.5),83,93,73,61,51,76,,78,78,33,32,6,6,0.8,0.6
2026-02-05T1800,2310A,116.5566,31.7885,六安市,开发区,细颗粒物(PM2.5),84,87,81,62,49,87,,85,85,28,28,7,6,0.7,0.6
2026-02-05T1800,2577A,104.8293,26.592,六盘水市,黄土坡,细颗粒物(PM2.5),60,66,59,43,42,80,,68,68,23,24,14,14,1.1,1.1
2026-02-05T1800,2579A,104.8481,26.5898,六盘水市,民中,细颗粒物(PM2.5),58,58,58,41,44,83,,72,72,16,20,7,8,0.9,1
2026-02-05T1800,2580A,104.9541,26.5506,六盘水市,双水,细颗粒物(PM2.5),55,53,49,39,35,85,,67,67,13,16,5,6,0.6,0.6
2026-02-05T1800,4151A,104.8899,26.5685,六盘水市,钟山大道中段564号,颗粒物(PM10),66,82,62,46,37,82,,67,67,12,14,10,10,1.2,1.2
2026-02-05T1800,2336A,117.022,25.1031,龙岩市,龙岩市监测站,,31,17,28,12,18,98,,100,100,7,23,6,14,0.5,0.7
2026-02-05T1800,2337A,117.0257,25.0662,龙岩市,闽西职业技术学院,,31,19,33,10,18,98,,102,102,8,19,4,6,0.5,0.6
2026-02-05T1800,2338A,117.0195,25.0306,龙岩市,龙岩学院,,30,28,28,8,16,95,,99,99,6,12,3,4,/,/
2026-02-05T1800,2885A,104.9344,33.3827,陇南市,滨江中学,颗粒物(PM10),60,70,79,34,44,76,,58,58,15,36,5,10,0.7,1.4
2026-02-05T1800,3247A,104.9551,33.3709,陇南市,市总工会,颗粒物(PM10),59,67,64,28,30,76,,62,62,12,26,2,5,0.9,1
2026-02-05T1800,2488A,111.9984,27.7346,娄底市,市监测站,细颗粒物(PM2.5),120,122,137,91,106,44,,38,38,25,33,10,10,1.0,1.2
2026-02-05T1800,2491A,111.9888,27.7035,娄底市,市政府,细颗粒物(PM2.5),103,126,134,77,96,37,,34,34,36,35,5,6,0.6,0.9
2026-02-05T1800,4127A,111.9812,27.7591,娄底市,涟钢职大,细颗粒物(PM2.5),114,122,131,86,92,44,,36,36,22,31,4,8,1.1,1.3
2026-02-05T1800,4128A,112.0303,27.7457,娄底市,娄底体校,细颗粒物(PM2.5),119,130,137,90,104,36,,33,33,20,29,2,2,,0.7
2026-02-05T1800,1894A,105.4427,28.9063,泸州市,小市上码头,,,69,107,49,86,99,,85,85,,31,6,6,1.0,1.2
2026-02-05T1800,1895A,105.4241,28.8573,泸州市,兰田宪桥,"颗粒物(PM10),细颗粒物(PM2.5)",58,66,107,41,70,92,,80,80,15,25,8,8,0.8,1
2026-02-05T1800,1896A,105.4378,28.8833,泸州市,市环监站,细颗粒物(PM2.5),83,72,121,61,90,89,,74,74,18,33,10,10,0.7,1
2026-02-05T1800,4272A,105.3689,28.7783,泸州市,纳溪中医医院,细颗粒物(PM2.5),79,82,91,58,81,87,,78,78,16,24,9,8,1.0,1.1
2026-02-05T1800,2183A,111.1447,37.5212,吕梁市,环保局,颗粒物(PM10),64,77,116,29,46,53,,45,45,27,60,8,10,0.5,0.8
2026-02-05T1800,2185A,111.1285,37.5338,吕梁市,自来水公司,颗粒物(PM10),65,79,133,36,52,53,,46,46,25,46,7,14,0.5,0.8
2026-02-05T1800,2867A,111.1225,37.5093,吕梁市,马茂庄小学,颗粒物(PM10),67,84,133,30,50,56,,41,41,27,59,6,14,0.3,0.7
2026-02-05T1800,1812A,112.3934,34.6517,洛阳市,市委党校,,,114,122,45,75,74,,64,64,,46,11,11,0.8,1.1
2026-02-05T1800,1815A,112.494,34.6883,洛阳市,河南林校,颗粒物(PM10),82,113,131,39,75,74,,64,64,37,60,15,16,0.6,1.1
2026-02-05T1800,1816A,112.3843,34.623,洛阳市,开发区管委会,颗粒物(PM10),95,140,138,3,71,78,,71,71,27,33,15,13,0.7,0.8
2026-02-05T1800,1817A,112.4263,34.6249,洛阳市,市委新办公区,颗粒物(PM10),85,119,132,44,69,75,,70,70,35,34,13,12,0.8,0.8
2026-02-05T1800,3340A,112.6005,34.6323,洛阳市,伊滨,颗粒物(PM10),86,122,132,38,63,81,,77,77,32,36,11,11,0.6,0.8
2026-02-05T1800,3341A,112.495,34.6338,洛阳市,中移产业园,颗粒物(PM10),86,122,117,40,70,75,,72,72,31,36,12,12,0.7,0.9
2026-02-05T1800,3593A,112.5736,34.8993,洛阳市,吉利监测站,颗粒物(PM10),88,125,110,37,59,72,,73,73,40,42,11,12,0.7,0.9
2026-02-05T1800,3635A,112.3678,34.6623,洛阳市,河科大西苑校区,颗粒物(PM10),85,119,127,41,76,78,,67,67,33,44,14,14,0.9,1.1
2026-02-05T1800,3636A,112.4387,34.678,洛阳市,英才小学,颗粒物(PM10),89,128,148,46,80,76,,66,66,35,57,14,17,0.9,1.2
2026-02-05T1800,4214A,112.460027,34.694929,洛阳市,春都路1号院,颗粒物(PM10),100,150,157,44,76,70,,60,60,28,50,12,15,0.7,1
2026-02-05T1800,2399A,114.051,33.5721,漯河市,三五一五工厂,细颗粒物(PM2.5),172,208,171,130,101,100,,86,86,35,38,8,7,1.0,1.1
2026-02-05T1800,2400A,114.0055,33.5698,漯河市,漯河大学,细颗粒物(PM2.5),168,178,140,127,95,104,,88,88,33,32,9,8,1.0,1
2026-02-05T1800,2401A,114.0134,33.5826,漯河市,市水利局,细颗粒物(PM2.5),168,195,154,127,100,84,,70,70,38,37,7,7,0.9,1
2026-02-05T1800,2402A,114.0261,33.5697,漯河市,市广电局,,,,151,,101,95,,81,81,33,29,10,8,0.9,0.8
2026-02-05T1800,3478A,113.9691,33.568,漯河市,市图书馆,细颗粒物(PM2.5),175,207,162,132,99,96,,82,82,37,28,10,8,1.1,1.1
2026-02-05T1800,4250A,114.089259,33.588274,漯河市,韶山路11号,细颗粒物(PM2.5),173,198,156,131,97,91,,91,91,45,38,9,8,0.8,0.9
2026-02-05T1800,1798A,118.5084,31.6838,马鞍山市,湖东路四小,细颗粒物(PM2.5),77,91,98,56,66,36,,56,56,71,65,6,9,0.9,0.9
2026-02-05T1800,1799A,118.5019,31.6449,马鞍山市,开发区,细颗粒物(PM2.5),84,108,102,62,64,36,,58,58,69,68,7,8,0.8,0.8
2026-02-05T1800,3633A,118.4914,31.681,马鞍山市,雨山,颗粒物(PM10),74,97,102,53,62,56,,56,56,56,66,5,11,0.9,1.1
2026-02-05T1800,4191A,118.527362,31.722269,马鞍山市,慈湖高新区,细颗粒物(PM2.5),82,95,111,60,63,52,,68,68,68,65,7,8,0.6,0.8
2026-02-05T1800,1686A,111.0285,21.469,茂名市,电白南海,,,34,48,13,18,,,96,96,9,12,7,8,0.7,1.1
2026-02-05T1800,1687A,110.9294,21.6533,茂名市,茂石化七小,,34,34,47,8,21,82,,86,86,10,10,5,6,0.4,0.5
2026-02-05T1800,1688A,110.9108,21.6688,茂名市,健康路,,29,27,40,9,20,92,,95,95,14,12,3,5,0.5,0.6
2026-02-05T1800,1689A,110.8592,21.6826,茂名市,高岭,颗粒物(PM10),65,80,63,14,23,84,,87,87,8,11,2,4,/,/
2026-02-05T1800,3450A,111.0101,21.5165,茂名市,电白水东,,31,31,43,12,20,97,,94,94,23,20,7,9,/,/
2026-02-05T1800,2540A,103.8414,30.0871,眉山市,气象局,"颗粒物(PM10),细颗粒物(PM2.5)",73,95,106,53,77,113,,90,90,17,30,12,13,0.9,1.1
2026-02-05T1800,3148A,103.829,30.0563,眉山市,区人社局,细颗粒物(PM2.5),82,99,113,60,99,101,,81,81,21,38,11,11,1.0,1.1
2026-02-05T1800,4148A,103.8836,30.0695,眉山市,眉职院,细颗粒物(PM2.5),72,75,112,52,78,111,,88,88,12,28,4,5,0.8,1
2026-02-05T1800,1690A,116.1248,24.3307,梅州市,梅江月梅,,32,22,48,17,30,101,,93,93,14,33,/,/,/,/
2026-02-05T1800,1691A,116.0798,24.2719,梅州市,梅县新城,,31,26,47,12,29,97,,91,91,16,38,7,7,0.6,0.7
2026-02-05T1800,3315A,116.1234,24.2994,梅州市,梅龙,,31,29,53,12,31,97,,89,89,12,33,7,9,0.6,0.8
2026-02-05T1800,1878A,104.7775,31.4741,绵阳市,富乐山,细颗粒物(PM2.5),87,91,90,64,66,92,,79,79,15,21,8,8,0.8,0.9
2026-02-05T1800,1880A,104.6698,31.4668,绵阳市,高新区自来水公司,细颗粒物(PM2.5),82,91,131,60,80,96,,92,92,27,49,7,9,1.0,1.2
2026-02-05T1800,3491A,104.6899,31.5324,绵阳市,西科大附属小学,细颗粒物(PM2.5),109,110,122,82,76,99,,78,78,33,46,9,9,0.5,0.9
2026-02-05T1800,3492A,104.5647,31.5343,绵阳市,安州区旅游局,细颗粒物(PM2.5),95,104,108,71,72,98,,70,70,24,30,10,11,1.0,1.1
2026-02-05T1800,4146A,104.7092,31.4972,绵阳市,科技城新区公安局,细颗粒物(PM2.5),83,99,111,61,69,107,,85,85,26,49,5,6,0.9,1.1
2026-02-05T1800,4226A,104.765114,31.453094,绵阳市,绵阳市气象局,细颗粒物(PM2.5),99,98,103,74,73,96,,76,76,16,32,9,9,0.9,1
2026-02-05T1800,1784A,129.61,44.561,牡丹江市,环保大楼,颗粒物(PM10),51,52,58,32,39,78,,79,79,12,25,2,6,0.3,0.5
2026-02-05T1800,1787A,129.6364,44.6075,牡丹江市,机车工厂,颗粒物(PM10),55,59,61,25,38,75,,74,74,10,25,6,10,0.4,0.6
2026-02-05T1800,1788A,129.6386,44.5462,牡丹江市,第一中学,,36,36,52,25,42,74,,74,74,10,28,4,7,0.3,0.6
2026-02-05T1800,4287A,129.5992,44.5964,牡丹江市,东晓云街98号,,47,47,57,26,38,75,,76,76,9,20,4,9,0.3,0.3
2026-02-05T1800,2531A,105.0703,29.61,内江市,市监测站,细颗粒物(PM2.5),105,97,84,79,73,102,,95,95,22,29,6,6,1.0,1.1
2026-02-05T1800,2533A,105.0657,29.5807,内江市,内江二中,细颗粒物(PM2.5),97,99,89,72,69,96,,82,82,17,37,8,8,0.7,0.8
2026-02-05T1800,2534A,105.0407,29.5828,内江市,内江日报社,细颗粒物(PM2.5),92,86,77,68,68,101,,87,87,23,36,8,7,0.6,0.7
2026-02-05T1800,4147A,105.0433,29.6105,内江市,玉峰路西段888号,细颗粒物(PM2.5),94,108,82,70,70,100,,89,89,25,33,6,6,0.7,0.7
2026-02-05T1800,2628A,92.0653,31.4846,那曲市,那曲监测站,,,58,36,19,25,93,,82,82,,2,7,6,0.7,0.8
2026-02-05T1800,4243A,92.0515,31.4787,那曲市,那曲市委宣传部,,44,44,33,17,14,102,,90,90,1,5,4,5,0.4,0.5
2026-02-05T1800,1291A,115.8887,28.7006,南昌市,省林业公司,细颗粒物(PM2.5),82,,68,60,52,26,,40,40,34,41,4,5,0.8,0.7
2026-02-05T1800,1292A,115.813,28.7443,南昌市,林科所,细颗粒物(PM2.5),65,48,70,47,48,23,,36,36,36,37,8,9,0.8,0.6
2026-02-05T1800,1294A,115.8518,28.687,南昌市,建工学校,细颗粒物(PM2.5),74,66,84,54,49,27,,36,35,41,38,8,10,0.9,0.8
2026-02-05T1800,1295A,115.8926,28.6425,南昌市,象湖,细颗粒物(PM2.5),77,57,75,56,56,41,,47,46,25,30,8,9,0.9,0.9
2026-02-05T1800,3046A,115.9084,28.6062,南昌市,机电学校,细颗粒物(PM2.5),70,66,86,51,51,47,,48,48,28,42,4,7,0.6,0.7
2026-02-05T1800,3690A,115.9718,28.7032,南昌市,外国语学校,细颗粒物(PM2.5),79,,78,58,55,44,,43,43,26,39,12,14,0.9,0.8
2026-02-05T1800,4106A,115.7923,28.6873,南昌市,工业二路,细颗粒物(PM2.5),72,59,88,52,53,37,,39,39,29,42,3,5,0.8,0.8
2026-02-05T1800,4192A,115.931587,28.686774,南昌市,南京东路235号,细颗粒物(PM2.5),72,69,82,52,55,40,,44,44,27,34,8,9,0.5,0.5
2026-02-05T1800,1906A,106.0791,30.8022,南充市,南充市委,细颗粒物(PM2.5),99,99,96,74,72,44,,29,29,19,30,4,4,0.8,0.9
2026-02-05T1800,1907A,106.1038,30.8215,南充市,南充炼油厂,细颗粒物(PM2.5),87,97,106,64,72,53,,35,35,15,29,6,6,0.7,0.8
2026-02-05T1800,4227A,106.108336,30.788436,南充市,梨树横街98号,细颗粒物(PM2.5),87,97,104,64,79,54,,36,36,24,34,6,7,0.7,0.8
2026-02-05T1800,4304A,106.1172,30.843,南充市,清泉寺北路188号,细颗粒物(PM2.5),84,101,90,62,72,62,,42,42,15,21,3,4,0.7,0.7
2026-02-05T1800,4305A,106.067,30.7616,南充市,同庆路1号,细颗粒物(PM2.5),92,95,90,68,70,52,,34,34,28,41,7,7,0.8,0.8
2026-02-05T1800,1151A,118.8033,32.1085,南京市,迈皋桥,细颗粒物(PM2.5),83,98,79,61,51,79,,83,83,41,60,8,8,0.4,0.5
2026-02-05T1800,1152A,118.7487,32.057,南京市,草场门,颗粒物(PM10),75,100,84,53,51,70,,61,61,36,82,5,5,0.9,1.3
2026-02-05T1800,1154A,118.770105,32.004342,南京市,中华门,细颗粒物(PM2.5),82,100,87,60,51,88,,86,86,32,62,5,5,0.7,1
2026-02-05T1800,1155A,118.8059,32.0329,南京市,瑞金路,细颗粒物(PM2.5),89,102,92,66,59,96,,90,90,18,59,4,4,1.0,0.6
2026-02-05T1800,1156A,118.7946,32.0774,南京市,玄武湖,细颗粒物(PM2.5),77,101,80,56,49,90,,87,87,45,68,1,6,0.7,1
2026-02-05T1800,1157A,118.6415,32.0964,南京市,浦口,,,121,78,66,46,92,,104,104,,34,,5,0.5,0.4
2026-02-05T1800,1158A,118.730129,32.000956,南京市,奥体中心,细颗粒物(PM2.5),88,114,94,65,56,110,,97,97,28,65,8,8,0.6,1
2026-02-05T1800,1159A,118.9072,32.1047,南京市,仙林大学城,细颗粒物(PM2.5),85,107,88,63,51,74,,84,84,51,65,8,9,0.7,1
2026-02-05T1800,3422A,118.8443,31.919,南京市,江宁彩虹桥,"颗粒物(PM10),细颗粒物(PM2.5)",79,108,92,58,47,100,,91,91,37,74,4,4,0.8,1.1
2026-02-05T1800,3427A,118.8497,32.3599,南京市,六合雄州,颗粒物(PM10),111,171,125,81,63,86,,92,92,36,63,1,10,0.9,1
2026-02-05T1800,4086A,118.7641,32.0841,南京市,新模范马路66号,,,110,95,72,56,108,,111,111,28,81,4,4,,1.3
2026-02-05T1800,4249A,118.8707617,31.34017673,南京市,汶溪路181号,细颗粒物(PM2.5),110,99,85,83,60,33,,39,38,44,42,6,8,1.2,1.1
2026-02-05T1800,4312A,119.019,31.6512,南京市,中山西路1号,细颗粒物(PM2.5),99,105,75,74,53,43,,66,66,40,38,4,4,1.2,1.2
2026-02-05T1800,1401A,108.3098,22.788,南宁市,二十一中,,44,44,42,22,34,57,,56,56,22,21,4,4,0.6,0.6
2026-02-05T1800,1402A,108.3135,22.8529,南宁市,北湖,,49,49,54,30,44,50,,56,55,35,34,3,8,0.7,0.7
2026-02-05T1800,1403A,108.3205,22.8222,南宁市,市监测站,,46,46,44,22,34,58,,58,58,28,26,6,6,0.8,0.9
2026-02-05T1800,1404A,108.3828,22.8038,南宁市,大自然花园,,36,36,48,18,31,81,,77,77,17,15,5,6,0.6,0.6
2026-02-05T1800,1406A,108.2397,22.8462,南宁市,区农职院,颗粒物(PM10),51,52,56,26,35,60,,61,61,29,35,4,4,1.0,1.1
2026-02-05T1800,1407A,108.3285,22.7356,南宁市,英华嘉园,,42,42,48,21,32,65,,61,61,24,28,6,5,0.5,0.6
2026-02-05T1800,3401A,108.4829,22.762,南宁市,红星社区,,,36,44,23,33,82,,74,74,9,16,4,4,,1
2026-02-05T1800,4132A,108.2927,23.1477,南宁市,起凤路9号,"颗粒物(PM10),细颗粒物(PM2.5)",53,56,52,37,41,54,,71,71,30,21,2,2,0.7,0.6
2026-02-05T1800,4221A,108.2177,22.7774,南宁市,乐贤路16号,,41,41,47,25,32,61,,67,67,25,33,2,3,0.8,0.9
2026-02-05T1800,2332A,118.1682,26.6371,南平市,南平市监测站,,29,29,49,16,33,84,,100,100,19,29,4,5,0.7,1
2026-02-05T1800,2334A,118.1757,26.6276,南平市,南平七中,,45,45,47,17,27,65,,97,97,35,27,3,4,1.0,0.8
2026-02-05T1800,1168A,120.9056,31.9669,南通市,狼山街道,细颗粒物(PM2.5),137,150,109,104,73,72,,47,47,55,80,8,6,0.8,0.9
2026-02-05T1800,1170A,120.8635,32.0231,南通市,城中,细颗粒物(PM2.5),166,153,130,126,87,93,,50,50,34,87,9,9,1.0,1.2
2026-02-05T1800,1171A,120.9376,31.9301,南通市,星湖花园,细颗粒物(PM2.5),129,137,112,98,71,75,,54,54,59,90,9,9,1.0,1.1
2026-02-05T1800,1172A,120.8053,32.046,南通市,紫琅学院,细颗粒物(PM2.5),133,149,138,101,86,84,,46,46,44,94,8,9,1.1,1.2
2026-02-05T1800,3291A,121.0631,32.0644,南通市,通州监测站,细颗粒物(PM2.5),132,124,121,100,85,108,,64,64,36,88,8,7,0.9,1.2
2026-02-05T1800,3432A,120.9348,31.9874,南通市,环境教育馆,细颗粒物(PM2.5),156,136,117,119,78,80,,46,46,52,88,9,9,1.1,1.2
2026-02-05T1800,4091A,120.8692,31.9885,南通市,洪江路,细颗粒物(PM2.5),148,140,109,113,81,71,,40,40,65,98,7,8,1.0,1.1
2026-02-05T1800,2404A,112.5338,33.0086,南阳市,瓦房庄,颗粒物(PM10),83,116,156,59,107,112,,88,88,22,34,9,5,0.9,1.2
2026-02-05T1800,2405A,112.5002,32.9734,南阳市,汉画馆,颗粒物(PM10),89,128,164,65,121,108,,79,79,24,43,10,7,0.8,1.1
2026-02-05T1800,2406A,112.5778,33.0144,南阳市,气象站,颗粒物(PM10),98,146,176,56,94,111,,90,90,23,36,10,7,0.9,1.1
2026-02-05T1800,2407A,112.548,32.9687,南阳市,理工学院,颗粒物(PM10),89,128,161,65,110,107,,82,82,24,41,10,7,0.8,1
2026-02-05T1800,4008A,112.5233,32.9921,南阳市,卧龙区政府,细颗粒物(PM2.5),82,104,183,60,118,106,,83,83,23,41,10,7,0.9,1.1
2026-02-05T1800,1234A,121.8352,29.9111,宁波市,区环保大楼,颗粒物(PM10),62,74,84,28,28,5,,37,37,103,81,7,9,0.5,0.6
2026-02-05T1800,1235A,121.5595,29.8208,宁波市,万里学院,颗粒物(PM10),52,54,59,35,37,86,,69,69,32,55,9,5,0.8,0.9
2026-02-05T1800,1236A,121.713,29.9564,宁波市,龙赛医院,颗粒物(PM10),52,53,73,28,34,28,,47,47,65,76,3,5,0.6,0.7
2026-02-05T1800,1240A,121.5855,29.8635,宁波市,太古小学,颗粒物(PM10),53,55,71,32,37,81,,73,73,33,54,7,5,0.6,0.7
2026-02-05T1800,1241A,121.5239,29.8673,宁波市,市环境监测中心,颗粒物(PM10),61,72,77,40,46,83,,62,62,26,59,5,4,0.6,0.7
2026-02-05T1800,2871A,121.6156,29.9015,宁波市,万里国际学校,颗粒物(PM10),57,64,76,39,50,57,,60,60,53,72,7,6,0.6,0.6
2026-02-05T1800,3710A,121.5593,29.8976,宁波市,白沙活动中心,细颗粒物(PM2.5),59,63,71,42,53,82,,64,64,33,65,8,6,0.5,0.5
2026-02-05T1800,4095A,121.8962,29.7529,宁波市,中科路88号,细颗粒物(PM2.5),53,47,42,37,26,63,,69,69,46,43,8,6,0.6,0.5
2026-02-05T1800,2341A,119.5387,26.6611,宁德市,宁德市监测站,,50,50,46,28,25,106,,90,90,33,33,5,4,1.0,1
2026-02-05T1800,3209A,119.5231,26.6562,宁德市,宁德一中,颗粒物(PM10),63,76,41,30,26,102,,89,89,36,24,5,4,0.7,0.8
2026-02-05T1800,2618A,98.859,25.8541,怒江傈僳族自治州,州监测站,,39,39,38,21,22,89,,78,78,8,16,6,6,0.4,0.2
2026-02-05T1800,2619A,98.8607,25.8168,怒江傈僳族自治州,泸水一中,,44,44,33,21,22,80,,71,71,13,21,5,5,0.7,0.7
2026-02-05T1800,1888A,101.6891,26.571,攀枝花市,弄弄坪,,30,30,66,14,28,71,,72,72,25,34,43,55,2.4,2.2
2026-02-05T1800,1889A,101.577,26.5914,攀枝花市,河门口,,29,20,44,9,17,91,,80,80,4,21,9,13,0.3,0.6
2026-02-05T1800,1891A,101.7365,26.4986,攀枝花市,仁和,,27,17,27,8,15,85,,79,79,8,16,7,8,0.6,0.6
2026-02-05T1800,2835A,101.7222,26.567,攀枝花市,四十中小,,30,30,38,6,16,81,,68,68,12,33,10,19,0.5,1.2
2026-02-05T1800,1604A,122.0303,41.1489,盘锦市,开发区,颗粒物(PM10),101,151,177,10,58,72,,76,76,9,18,2,5,0.1,0.5
2026-02-05T1800,1605A,122.0486,41.0883,盘锦市,兴隆台,颗粒物(PM10),94,138,168,10,54,69,,75,75,16,24,6,5,0.3,0.6
2026-02-05T1800,1606A,121.8297,41.1026,盘锦市,新生街道,颗粒物(PM10),69,88,145,6,61,64,,73,72,12,31,5,6,0.0,0.4
2026-02-05T1800,1832A,113.3257,33.7423,平顶山市,新华旅馆,细颗粒物(PM2.5),124,171,138,94,86,97,,96,96,39,34,14,8,1.0,0.6
2026-02-05T1800,1833A,113.2917,33.737,平顶山市,规划设计院,细颗粒物(PM2.5),127,173,155,96,88,96,,90,90,25,31,16,8,1.0,0.8
2026-02-05T1800,1834A,113.182,33.7738,平顶山市,平顶山工学院,,,,122,,80,97,,99,99,24,21,14,9,,0.7
2026-02-05T1800,3594A,112.8736,33.9068,平顶山市,石龙区,颗粒物(PM10),89,127,121,63,52,84,,99,99,22,34,10,7,0.6,0.7
2026-02-05T1800,4116A,113.284,33.7139,平顶山市,姚电大道23号,细颗粒物(PM2.5),124,175,154,94,93,108,,101,101,33,37,14,10,0.9,0.8
2026-02-05T1800,2656A,106.6633,35.5338,平凉市,聚贤嘉苑,颗粒物(PM10),59,67,55,36,26,100,,86,86,10,18,10,10,0.4,0.5
2026-02-05T1800,2657A,106.7021,35.5307,平凉市,博物馆,颗粒物(PM10),60,69,65,24,40,98,,85,85,15,30,10,12,0.4,0.7
2026-02-05T1800,2348A,113.8384,27.6436,萍乡市,中医院,细颗粒物(PM2.5),82,94,112,60,68,74,,71,71,30,37,10,13,1.1,1.2
2026-02-05T1800,2350A,113.8677,27.6438,萍乡市,市环保局,细颗粒物(PM2.5),80,86,107,59,72,84,,75,75,28,36,25,14,0.5,0.7
2026-02-05T1800,2351A,113.8663,27.6202,萍乡市,安源区政府,,,110,118,70,73,62,,54,54,29,38,,13,0.8,1
2026-02-05T1800,4107A,113.8686,27.6668,萍乡市,联洪村委会,细颗粒物(PM2.5),78,85,103,57,67,68,,61,61,24,32,8,11,0.5,0.6
2026-02-05T1800,2319A,119.0142,25.4324,莆田市,荔城区仓后路,颗粒物(PM10),63,75,68,28,38,105,,147,147,30,34,/,/,/,/
2026-02-05T1800,2320A,119.0016,25.4553,莆田市,莆田市监测站,颗粒物(PM10),60,69,54,24,34,124,,161,161,24,23,12,6,0.5,0.5
2026-02-05T1800,2321A,119.112,25.4561,莆田市,涵江区六中,颗粒物(PM10),51,51,50,20,28,95,,131,131,19,30,/,/,0.6,0.7
2026-02-05T1800,2322A,119.1014,25.3215,莆田市,秀屿区政府,,35,35,52,16,34,96,,125,125,18,19,4,7,0.5,0.7
2026-02-05T1800,2392A,115.0312,35.7636,濮阳市,环保局,颗粒物(PM10),78,106,142,30,103,61,,75,75,37,45,8,10,0.6,1.2
2026-02-05T1800,3021A,115,35.7667,濮阳市,濮水河管理处,颗粒物(PM10),95,140,171,34,108,64,,76,76,23,38,8,10,0.5,1.1
2026-02-05T1800,4118A,115.0552,35.7816,濮阳市,中原东路68号,颗粒物(PM10),100,149,184,38,106,63,,76,76,30,44,7,10,0.5,1.2
2026-02-05T1800,4216A,115.0923632,35.76857718,濮阳市,任丘路479号,,,134,178,,120,57,,74,74,,55,8,11,0.6,1.2
2026-02-05T1800,2601A,100.9801,22.7634,普洱市,市环保局,,49,49,57,18,25,98,,87,87,5,10,4,5,0.4,0.5
2026-02-05T1800,2602A,100.9763,22.8237,普洱市,普洱第二中学,,45,45,53,23,29,93,,84,84,7,23,5,5,0.4,0.6
2026-02-05T1800,3345A,131.0413,45.7795,七台河市,中波台,,40,37,25,28,16,51,,72,66,20,7,8,7,0.5,0.5
2026-02-05T1800,3637A,131.0136,45.7688,七台河市,人民广场,颗粒物(PM10),53,55,34,24,17,50,,69,64,26,18,8,8,0.6,0.5
2026-02-05T1800,3684A,130.8639,45.8144,七台河市,新建矿广场,,35,31,50,24,28,54,,67,64,16,22,4,7,0.3,0.3
2026-02-05T1800,1779A,123.9307,47.3641,齐齐哈尔市,安居小区,,41,41,38,14,9,59,,72,68,14,11,8,9,0.4,0.3
2026-02-05T1800,1780A,123.9497,47.3389,齐齐哈尔市,中心广场,,24,24,31,14,10,56,,72,65,17,11,5,6,0.5,0.5
2026-02-05T1800,1781A,123.9483,47.3229,齐齐哈尔市,农牧车辆厂,,20,19,43,10,9,61,,70,66,10,10,5,5,0.3,0.3
2026-02-05T1800,1783A,123.9442,47.2994,齐齐哈尔市,市环境监测站,,31,31,57,8,8,58,,74,68,18,11,4,4,0.5,0.4
2026-02-05T1800,3662A,123.6341,47.2079,齐齐哈尔市,富区青少年活动中心,,32,32,63,15,10,64,,74,72,11,8,6,4,0.5,0.4
2026-02-05T1800,2591A,107.9765,26.5724,黔东南苗族侗族自治州,市环境监测站,,45,38,46,31,38,22,,34,28,19,18,2,4,0.9,1
2026-02-05T1800,2881A,107.8909,26.531,黔东南苗族侗族自治州,凯里学院,颗粒物(PM10),52,53,44,33,33,28,,40,40,23,15,3,3,0.9,0.9
2026-02-05T1800,2593A,107.5223,26.2371,黔南布依族苗族自治州,小围寨,细颗粒物(PM2.5),58,51,37,41,35,21,,28,28,13,14,6,7,1.1,1.1
2026-02-05T1800,3538A,107.5175,26.2977,黔南布依族苗族自治州,沙坝,细颗粒物(PM2.5),55,51,40,39,33,24,,30,30,18,14,4,6,1.0,1
2026-02-05T1800,2589A,104.9022,25.0943,黔西南布依族苗族自治州,场坝街,细颗粒物(PM2.5),68,49,56,49,49,65,,57,57,10,13,4,4,0.8,1
2026-02-05T1800,2590A,104.8812,25.0994,黔西南布依族苗族自治州,坪东大道,细颗粒物(PM2.5),57,48,58,40,48,66,,60,60,11,13,6,5,0.9,1
2026-02-05T1800,2502A,108.6238,21.9667,钦州市,市环保站,,46,46,54,19,33,82,,75,75,18,20,5,3,0.4,0.6
2026-02-05T1800,2503A,108.655,21.9481,钦州市,沙埠小学,,49,49,56,22,30,81,,79,79,18,20,4,4,0.3,0.4
2026-02-05T1800,2504A,108.5989,21.7435,钦州市,港区一小,,43,43,71,19,25,83,,82,82,21,23,3,2,0.6,0.8
2026-02-05T1800,3404A,108.5959,21.9634,钦州市,北职校,,36,36,43,19,22,83,,75,75,17,20,3,2,0.6,0.6
2026-02-05T1800,1046A,119.5247,39.9346,秦皇岛市,建设大厦,颗粒物(PM10),54,58,107,11,53,69,,76,76,14,42,6,9,0.3,0.7
2026-02-05T1800,3132A,119.5979,39.938,秦皇岛市,文明里,颗粒物(PM10),57,64,111,9,50,66,,74,74,18,47,9,12,0.4,0.8
2026-02-05T1800,4066A,119.7458,39.9952,秦皇岛市,南园路157号,颗粒物(PM10),56,61,105,14,52,61,,76,75,26,53,6,10,0.3,0.7
2026-02-05T1800,4067A,119.5131,39.8858,秦皇岛市,翠岛大街1号,颗粒物(PM10),51,51,89,6,53,71,,74,74,12,42,8,11,0.3,0.6
2026-02-05T1800,4198A,119.509013,39.825305,秦皇岛市,北戴河轮滑馆,颗粒物(PM10),54,57,110,6,56,78,,80,79,11,47,6,7,0.2,0.7
2026-02-05T1800,1310A,120.404,36.0625,青岛市,市南区东部子站,颗粒物(PM10),95,139,161,38,120,77,,91,91,19,40,10,13,0.6,0.9
2026-02-05T1800,1311A,120.362344,36.10282,青岛市,四方区子站,颗粒物(PM10),97,144,146,28,129,78,,87,87,15,47,5,8,0.5,1.1
2026-02-05T1800,1312A,120.294373,36.054183,青岛市,市南区西部子站,颗粒物(PM10),92,134,156,32,130,76,,80,80,22,54,4,7,0.6,1.1
2026-02-05T1800,1313A,120.4581,36.0858,青岛市,崂山区子站,颗粒物(PM10),91,132,150,32,110,84,,98,98,19,37,11,13,0.6,0.9
2026-02-05T1800,1315A,120.3945,36.3083,青岛市,城阳区子站,颗粒物(PM10),91,132,161,20,119,80,,91,91,22,55,7,11,0.6,1.2
2026-02-05T1800,3642A,120.3454,36.0735,青岛市,市北区南部,颗粒物(PM10),123,195,166,32,129,71,,74,74,20,49,2,8,0.6,1.1
2026-02-05T1800,3643A,120.3897,36.18,青岛市,李沧区北部,颗粒物(PM10),103,156,163,23,121,71,,80,80,21,55,8,12,0.5,1.1
2026-02-05T1800,4110A,120.5222,36.4089,青岛市,盟旺路653号,颗粒物(PM10),79,107,165,14,110,78,,89,89,14,42,2,7,0.6,1.3
2026-02-05T1800,4290A,120.196923,35.954556,青岛市,珠江路669号,颗粒物(PM10),106,161,167,46,116,62,,76,76,37,62,,9,0.5,0.9
2026-02-05T1800,4291A,120.0424,35.8656,青岛市,黄岛区人民政府广场,颗粒物(PM10),106,161,162,50,116,78,,107,107,30,55,8,11,0.6,1
2026-02-05T1800,1703A,113.0218,23.7086,清远市,凤城街办,细颗粒物(PM2.5),65,64,85,47,62,138,,121,121,36,52,/,/,/,/
2026-02-05T1800,3025A,113.0479,23.6343,清远市,技师学院,,47,47,91,26,50,136,,122,122,39,60,6,6,0.5,0.7
2026-02-05T1800,3318A,112.9898,23.7403,清远市,清新太和,颗粒物(PM10),52,53,77,30,47,152,,136,136,32,40,11,10,0.7,0.8
2026-02-05T1800,3455A,113.076,23.72,清远市,清城东城,颗粒物(PM10),56,62,81,32,46,140,,126,126,37,43,/,/,/,/
2026-02-05T1800,2661A,107.6325,35.7357,庆阳市,庆阳五中,颗粒物(PM10),51,51,79,25,40,98,,89,89,20,26,14,12,0.5,0.8
2026-02-05T1800,2662A,107.6361,35.7067,庆阳市,市环保局,,50,50,74,19,38,105,,95,95,11,18,4,9,0.3,0.8
2026-02-05T1800,1916A,103.7897,25.5036,曲靖市,环境监测站,,36,36,34,10,20,102,,100,100,7,10,4,5,0.2,0.3
2026-02-05T1800,1917A,103.8013,25.5357,曲靖市,烟厂办公区,,,25,35,8,19,94,,94,94,5,10,,4,0.1,0.4
2026-02-05T1800,3376A,103.7926,25.4651,曲靖市,南苑二区,,27,24,33,8,19,86,,86,86,9,11,4,4,0.1,0.3
2026-02-05T1800,3377A,103.7442,25.5259,曲靖市,曲靖师范学院,,36,36,41,6,24,89,,92,92,6,12,3,5,0.2,0.3
2026-02-05T1800,1264A,118.8694,28.94,衢州市,环保大楼,细颗粒物(PM2.5),109,116,99,82,66,66,,75,75,53,58,/,/,/,/
2026-02-05T1800,1266A,118.8622,28.9809,衢州市,衢州学院,细颗粒物(PM2.5),95,103,89,71,59,78,,69,69,39,56,6,6,0.6,0.6
2026-02-05T1800,4097A,118.9646,28.9832,衢州市,衢州三中,细颗粒物(PM2.5),108,105,103,81,71,74,,75,75,46,56,6,6,0.8,0.9
2026-02-05T1800,1611A,118.5818,24.9116,泉州市,涂山街,,36,36,56,13,32,96,,121,121,20,37,3,4,0.6,0.6
2026-02-05T1800,1612A,118.597,24.8976,泉州市,津头埔,,35,35,59,14,35,85,,111,111,21,33,4,4,0.6,0.6
2026-02-05T1800,1613A,118.6669,24.9422,泉州市,万安,,39,39,61,14,33,83,,96,96,21,43,3,4,0.5,0.5
2026-02-05T1800,4105A,118.6355,24.9148,泉州市,霞新路6号,,25,22,53,11,32,78,,108,108,28,42,/,/,0.5,0.6
2026-02-05T1800,2626A,88.8873,29.2723,日喀则市,日喀则监测站,,30,9,16,3,9,95,,97,86,1,3,6,7,0.2,0.3
2026-02-05T1800,3726A,88.8775,29.2425,日喀则市,林业技术推广中心,,29,10,17,3,6,92,,90,90,2,3,3,3,0.2,0.2
2026-02-05T1800,1659A,119.4711,35.421,日照市,监测站,颗粒物(PM10),133,215,164,77,121,73,,105,101,30,65,9,15,0.9,1.5
2026-02-05T1800,1660A,119.523,35.4216,日照市,市政府广场,颗粒物(PM10),128,205,159,93,118,78,,98,98,29,64,9,13,0.7,1.1
2026-02-05T1800,1661A,119.5511,35.4113,日照市,港务局,颗粒物(PM10),137,224,175,92,123,75,,94,94,30,75,8,11,0.8,1.3
2026-02-05T1800,3507A,119.5326,35.4627,日照市,职业技术学院,颗粒物(PM10),131,212,158,87,117,78,,110,110,33,58,9,12,1.0,1.4
2026-02-05T1800,3604A,119.3267,35.1043,日照市,岚山环保分局,细颗粒物(PM2.5),188,241,192,141,124,77,,93,93,51,62,24,29,2.2,1.9
2026-02-05T1800,1835A,111.1922,34.7752,三门峡市,市政府,细颗粒物(PM2.5),128,121,118,97,78,41,,47,47,64,62,19,15,1.2,1.1
2026-02-05T1800,1836A,111.1588,34.794,三门峡市,开发区,细颗粒物(PM2.5),114,147,143,86,86,49,,48,48,54,49,14,10,0.9,0.9
2026-02-05T1800,3039A,111.1911,34.7829,三门峡市,三门峡市第一小学,细颗粒物(PM2.5),123,137,130,93,81,46,,47,47,67,66,24,18,1.2,1.1
2026-02-05T1800,3598A,111.1031,34.719,三门峡市,富达温泉假日酒店,,,,158,,102,46,,49,49,56,55,19,22,,1.3
2026-02-05T1800,2324A,117.621,26.2626,三明市,三钢,,32,26,41,22,56,81,,98,98,25,32,7,7,0.7,0.9
2026-02-05T1800,2325A,117.6352,26.2714,三明市,三明二中,,39,34,37,27,26,70,,97,97,26,29,5,5,1.1,1.1
2026-02-05T1800,2326A,117.6028,26.2377,三明市,三元区政府,,42,30,41,29,28,67,,98,98,31,31,4,6,0.9,0.9
2026-02-05T1800,1877A,109.4962,18.2682,三亚市,河西子站,,26,26,28,9,13,73,,74,74,12,13,3,2,0.4,0.4
2026-02-05T1800,3540A,109.7348,18.3443,三亚市,君悦子站,,32,32,31,11,16,80,,84,84,4,9,3,3,0.4,0.5
2026-02-05T1800,4135A,109.1714,18.3739,三亚市,城东小学站,,41,41,34,9,14,86,,90,90,6,9,/,/,/,/
2026-02-05T1800,2624A,91.7592,29.234,山南市,山南监测站,,33,33,16,6,4,89,,86,86,1,2,4,5,0.3,0.4
2026-02-05T1800,2625A,91.7701,29.2436,山南市,山南人民医院,,38,38,26,15,6,89,,86,86,2,4,5,4,0.5,0.5
2026-02-05T1800,1674A,116.6795,23.3666,汕头市,金平子站,,37,37,54,16,34,108,,126,126,23,31,6,6,0.6,0.7
2026-02-05T1800,1675A,116.7248,23.3632,汕头市,龙湖子站,,44,44,58,17,43,98,,109,109,23,28,10,12,/,/
2026-02-05T1800,1676A,116.7257,23.2774,汕头市,濠江子站,,41,41,52,14,33,93,,111,111,31,30,8,9,/,/
2026-02-05T1800,1677A,116.7518,23.4712,汕头市,澄海子站,,45,45,63,20,39,104,,116,116,22,23,6,8,0.6,0.7
2026-02-05T1800,1678A,116.6088,23.2539,汕头市,潮阳子站,,31,30,49,20,39,98,,126,126,24,21,6,8,0.6,0.8
2026-02-05T1800,3444A,116.4539,23.2684,汕头市,潮南峡山,,42,42,59,27,37,107,,139,139,23,21,7,7,0.6,0.9
2026-02-05T1800,3624A,116.4069,23.2533,汕头市,潮南子站,颗粒物(PM10),54,58,70,30,40,96,,121,121,32,23,8,7,/,/
2026-02-05T1800,1693A,115.3653,22.7751,汕尾市,市环保局,,46,30,37,24,24,147,,126,126,16,15,5,5,0.9,0.8
2026-02-05T1800,1695A,115.362,22.7926,汕尾市,新城中学,,49,49,43,30,24,144,,129,129,19,17,6,6,0.7,0.6
2026-02-05T1800,2645A,109.9155,33.8714,商洛市,监测站,,33,30,62,14,35,104,,92,92,10,20,6,5,0.5,0.8
2026-02-05T1800,3045A,109.9647,33.8486,商洛市,商州区中学,,46,46,69,13,30,86,,90,90,19,26,6,5,0.4,0.6
2026-02-05T1800,2408A,115.6701,34.4283,商丘市,环境监测站,细颗粒物(PM2.5),190,178,165,143,132,121,,96,96,31,45,4,3,0.6,0.8
2026-02-05T1800,2409A,115.6458,34.4047,商丘市,粮食局,细颗粒物(PM2.5),188,172,161,141,126,112,,89,89,32,41,5,2,0.9,0.9
2026-02-05T1800,3171A,115.6069,34.4465,商丘市,梁园区档案局,细颗粒物(PM2.5),170,153,155,129,118,113,,88,88,30,48,6,3,0.8,0.9
2026-02-05T1800,4119A,115.6701,34.3767,商丘市,北海东路185号,细颗粒物(PM2.5),168,188,187,127,124,129,,92,92,25,60,8,4,0.9,0.9
2026-02-05T1800,4120A,115.6172,34.3704,商丘市,中山大街3号,细颗粒物(PM2.5),188,200,213,141,136,129,,87,87,26,63,6,3,0.7,0.8
2026-02-05T1800,1141A,121.401,31.2382,上海市,普陀,细颗粒物(PM2.5),103,114,88,77,63,10,,23,17,110,101,10,9,1.0,1
2026-02-05T1800,1142A,121.4774,31.2043,上海市,十五厂,细颗粒物(PM2.5),99,127,89,74,55,4,,18,17,118,107,11,8,1.1,1
2026-02-05T1800,1143A,121.4673,31.3011,上海市,虹口,细颗粒物(PM2.5),112,121,96,84,64,2,,12,10,120,107,10,9,0.7,0.8
2026-02-05T1800,1147A,121.4253,31.226,上海市,静安监测站,细颗粒物(PM2.5),94,100,82,70,56,12,,23,22,108,93,11,9,1.0,1.1
2026-02-05T1800,1148A,121.7029,31.1905,上海市,浦东川沙,细颗粒物(PM2.5),125,131,104,95,71,6,,16,14,116,101,13,10,1.0,1
2026-02-05T1800,1149A,121.5339,31.229,上海市,浦东新区监测站,细颗粒物(PM2.5),118,124,83,89,63,2,,32,13,123,95,11,8,1.2,1.1
2026-02-05T1800,1150A,121.5776,31.2038,上海市,浦东张江,细颗粒物(PM2.5),109,124,94,82,62,12,,20,20,117,96,12,10,0.7,0.6
2026-02-05T1800,3265A,121.4242,31.3303,上海市,宝山庙行,细颗粒物(PM2.5),104,128,108,78,72,1,,10,10,117,111,12,11,0.8,1
2026-02-05T1800,3266A,121.8789,31.4662,上海市,崇明上实东滩,细颗粒物(PM2.5),117,114,74,88,56,46,,52,52,78,71,6,6,0.7,0.7
2026-02-05T1800,3268A,121.316,31.2839,上海市,嘉定南翔,细颗粒物(PM2.5),103,105,98,77,65,4,,14,13,116,112,8,7,1.0,0.7
2026-02-05T1800,3269A,121.3357,30.7455,上海市,金山新城,细颗粒物(PM2.5),83,79,54,61,47,2,,32,28,92,55,8,8,1.0,0.7
2026-02-05T1800,3270A,121.4996,31.0741,上海市,闵行浦江,细颗粒物(PM2.5),108,106,80,81,61,1,,11,10,111,85,13,9,1.2,0.9
2026-02-05T1800,3271A,121.2886,31.1663,上海市,青浦徐泾,细颗粒物(PM2.5),105,112,96,79,66,0,,13,13,,109,11,6,,0.8
2026-02-05T1800,3272A,121.2193,31.0382,上海市,松江图书馆,细颗粒物(PM2.5),114,125,89,86,65,3,,27,26,114,86,8,7,1.1,0.9
2026-02-05T1800,3273A,121.3904,31.206,上海市,长宁仙霞,细颗粒物(PM2.5),85,102,87,63,54,5,,20,15,101,89,10,9,1.2,1
2026-02-05T1800,3274A,121.7964,31.0507,上海市,浦东惠南,细颗粒物(PM2.5),128,128,75,97,54,18,,17,17,105,90,9,6,1.0,0.8
