timepoint,stationcode,longitude,latitude,area,positionname,primarypollutant,aqi,pm10,pm10_24h,pm2_5,pm2_5_24h,o3,o3_24h,o3_8h,o3_8h_24h,no2,no2_24h,so2,so2_24h,co,co_24h
2026-02-05T1400,2568A,102.2503,31.8896,阿坝藏族羌族自治州,马师校,,24,24,24,8,12,74,,45,45,4,12,4,4,0.4,0.5
2026-02-05T1400,3994A,102.2174,31.9016,阿坝藏族羌族自治州,马尔康中学西区,颗粒物(PM10),52,53,30,8,11,74,,52,52,4,9,5,7,0.4,0.5
2026-02-05T1400,2695A,80.2899,41.1684,阿克苏地区,电视台,颗粒物(PM10),109,167,230,75,98,67,,41,41,31,49,13,11,1.2,2.1
2026-02-05T1400,2696A,80.2592,41.1541,阿克苏地区,艺术中心,颗粒物(PM10),105,160,206,70,100,61,,40,40,37,58,7,6,0.7,1.3
2026-02-05T1400,2205A,105.699,38.8409,阿拉善盟,蒙二幼,颗粒物(PM10),51,51,41,7,11,84,,85,73,7,10,10,10,0.4,0.6
2026-02-05T1400,2206A,105.7198,38.8508,阿拉善盟,环保局新楼,,43,43,32,11,11,81,,88,73,6,7,9,9,0.5,0.5
2026-02-05T1400,2708A,88.1266,47.8515,阿勒泰地区,市站,,,,26,,15,69,,60,52,19,24,7,4,0.2,0.4
2026-02-05T1400,4166A,88.1198,47.7931,阿勒泰地区,阿勒泰路33号,细颗粒物(PM2.5),54,42,29,38,18,79,,77,70,8,10,5,5,0.7,0.5
2026-02-05T1400,2630A,80.1171,32.4999,阿里地区,阿里监测站,,25,,3,3,5,80,,62,62,2,6,9,8,0.3,0.3
2026-02-05T1400,3192A,80.0906,32.5029,阿里地区,阿里藏医院,,27,6,9,3,3,84,,75,67,2,4,10,10,0.4,0.4
2026-02-05T1400,2644A,109.0088,32.6974,安康市,汉滨区检察院,细颗粒物(PM2.5),65,57,79,47,52,63,,25,25,16,30,7,8,0.8,0.8
2026-02-05T1400,4054A,109.0324,32.6913,安康市,市邮政管理局,"颗粒物(PM10),细颗粒物(PM2.5)",57,63,98,40,58,68,,26,26,15,37,4,7,0.8,1
2026-02-05T1400,2291A,117.0806,30.5181,安庆市,环科院,细颗粒物(PM2.5),89,79,79,66,59,22,,11,11,54,47,11,8,0.9,0.8
2026-02-05T1400,2292A,117.0331,30.5118,安庆市,马山宾馆,细颗粒物(PM2.5),94,77,74,70,60,15,,18,18,61,49,8,7,0.9,1.1
2026-02-05T1400,2294A,116.9897,30.6146,安庆市,安庆大学,细颗粒物(PM2.5),74,82,70,54,45,31,,20,20,47,39,5,5,0.8,0.8
2026-02-05T1400,3173A,117.0598,30.5351,安庆市,市人大,细颗粒物(PM2.5),64,73,77,46,44,42,,20,20,37,43,8,8,0.7,0.7
2026-02-05T1400,3123A,105.9408,26.2431,安顺市,凤凰山,,45,35,34,31,26,44,,51,48,14,13,16,15,0.9,0.8
2026-02-05T1400,3124A,105.9443,26.2567,安顺市,金钟山,,40,,25,28,25,40,,49,45,12,10,17,13,0.9,0.8
2026-02-05T1400,3125A,105.8983,26.248,安顺市,娄家坡,,,32,26,26,25,37,,49,46,16,11,25,13,,0.8
2026-02-05T1400,1819A,114.3552,36.1017,安阳市,红庙街,细颗粒物(PM2.5),97,123,123,72,92,78,,50,50,24,42,5,9,0.7,1.2
2026-02-05T1400,1820A,114.361,36.0681,安阳市,银杏小区,细颗粒物(PM2.5),100,137,127,75,87,79,,48,48,26,41,6,9,0.7,1.1
2026-02-05T1400,3141A,114.3921,36.0879,安阳市,信访局,细颗粒物(PM2.5),100,124,126,75,80,84,,56,56,20,29,7,13,0.7,1.1
2026-02-05T1400,3669A,114.4706,36.0634,安阳市,左辅环卫站,颗粒物(PM10),115,180,159,82,96,81,,44,44,26,50,7,12,0.6,1
2026-02-05T1400,4117A,114.2918,36.0769,安阳市,钢三路198号,颗粒物(PM10),102,154,145,69,87,71,,51,51,25,32,7,10,0.7,0.9
2026-02-05T1400,1748A,123.0441,41.1201,鞍山市,深沟寺,颗粒物(PM10),97,143,153,8,96,77,,65,65,8,47,5,11,0.4,1.3
2026-02-05T1400,1749A,123.011,41.0931,鞍山市,太阳城,颗粒物(PM10),99,147,159,11,102,72,,61,61,11,47,10,20,0.6,1.4
2026-02-05T1400,1750A,123.0483,41.1445,鞍山市,太平,颗粒物(PM10),177,304,173,13,97,64,,60,60,12,43,7,16,0.3,1.2
2026-02-05T1400,1751A,122.964,41.0968,鞍山市,铁西三道街,颗粒物(PM10),107,164,172,12,110,78,,62,62,7,56,5,22,0.2,1.8
2026-02-05T1400,1753A,123.0219,41.0822,鞍山市,明达新区,颗粒物(PM10),89,128,145,13,100,73,,65,65,12,41,8,13,0.6,1.4
2026-02-05T1400,4201A,122.944647,41.082639,鞍山市,兴盛南路290号,颗粒物(PM10),118,185,175,15,110,77,,65,65,12,52,6,19,0.3,1.5
2026-02-05T1400,2195A,107.4206,40.7609,巴彦淖尔市,附二中,,39,39,83,6,17,75,,68,68,5,8,10,9,0.3,0.4
2026-02-05T1400,2196A,107.37,40.7372,巴彦淖尔市,市环保大楼,,38,38,79,10,17,76,,70,70,6,10,8,7,0.3,0.3
2026-02-05T1400,1956A,86.1476,41.7529,巴音郭楞蒙古自治州,孔雀公园,细颗粒物(PM2.5),88,105,112,65,57,72,,24,24,16,39,10,9,0.8,0.9
2026-02-05T1400,1957A,86.1971,41.7166,巴音郭楞蒙古自治州,棉纺厂,,,,214,,52,74,,36,36,,25,/,/,/,/
2026-02-05T1400,1958A,86.236,41.7172,巴音郭楞蒙古自治州,经济开发区,颗粒物(PM10),109,168,167,38,32,61,,35,29,15,28,9,6,0.6,0.6
2026-02-05T1400,3181A,106.776805,31.852614,巴中市,市五中,细颗粒物(PM2.5),103,90,100,77,74,10,,4,4,31,28,6,6,1.3,1.3
2026-02-05T1400,3183A,106.7419,31.8654,巴中市,圣泉水务公司,,,82,82,60,62,7,,7,7,,29,6,6,1.3,1.3
2026-02-05T1400,3616A,106.7617,31.8343,巴中市,市中心医院,细颗粒物(PM2.5),97,84,94,72,70,14,,4,4,28,29,6,6,1.3,1.4
2026-02-05T1400,2235A,122.7909,45.608,白城市,洮北区环保局,颗粒物(PM10),68,86,51,11,12,76,,76,76,5,11,8,7,0.2,0.3
2026-02-05T1400,2236A,122.8741,45.5725,白城市,市环保局,颗粒物(PM10),90,129,56,17,13,73,,71,71,3,9,3,5,0.2,0.3
2026-02-05T1400,2231A,126.4219,41.9172,白山市,喜丰,,43,43,90,12,71,78,,81,76,8,19,10,14,0.6,1.1
2026-02-05T1400,2232A,126.4082,41.9416,白山市,环保局,,31,31,87,15,79,78,,84,81,9,22,13,15,0.6,1.3
2026-02-05T1400,2647A,104.1727,36.5448,白银市,第三小学,颗粒物(PM10),69,88,88,46,53,91,,45,45,25,44,38,70,0.3,1.2
2026-02-05T1400,2648A,104.1467,36.5482,白银市,动力公司,颗粒物(PM10),78,105,69,46,40,100,,59,59,28,32,61,35,0.8,0.8
2026-02-05T1400,2512A,106.6102,23.901,百色市,市监测站,细颗粒物(PM2.5),80,67,61,59,56,104,,41,41,18,17,18,10,1.0,0.9
2026-02-05T1400,2513A,106.6524,23.8842,百色市,市中心血站,细颗粒物(PM2.5),103,106,81,77,70,117,,38,38,17,27,27,11,1.2,1
2026-02-05T1400,4133A,106.6273,23.8798,百色市,龙景西路,细颗粒物(PM2.5),98,,83,73,63,121,,38,38,22,24,30,12,0.9,0.8
2026-02-05T1400,2270A,117.396,32.9389,蚌埠市,工人疗养院,细颗粒物(PM2.5),124,125,115,94,74,126,,56,56,22,50,8,7,0.7,0.8
2026-02-05T1400,2271A,117.3606,32.9428,蚌埠市,百货大楼,细颗粒物(PM2.5),113,128,117,85,72,121,,52,52,28,59,8,7,0.6,0.9
2026-02-05T1400,2273A,117.4183,32.8909,蚌埠市,蚌埠学院,细颗粒物(PM2.5),110,95,102,83,69,124,,63,63,24,44,8,6,0.7,0.8
2026-02-05T1400,2274A,117.3534,32.9672,蚌埠市,淮上区政府,细颗粒物(PM2.5),125,107,110,95,77,130,,57,57,19,62,8,7,0.6,0.8
2026-02-05T1400,2275A,117.3143,32.8977,蚌埠市,高新区,细颗粒物(PM2.5),112,102,106,84,79,118,,52,52,16,51,9,8,0.6,0.7
2026-02-05T1400,3715A,117.3091,32.9314,蚌埠市,蚌埠田家炳中学,细颗粒物(PM2.5),120,114,122,91,80,125,,61,61,21,54,8,28,0.6,0.7
2026-02-05T1400,1585A,109.8761,40.6533,包头市,市环境监测站,,25,18,62,3,15,80,,72,72,7,17,5,7,0.3,0.5
2026-02-05T1400,1587A,109.9992,40.5843,包头市,包头八中,,31,31,62,14,19,73,,70,63,9,19,8,6,0.4,0.6
2026-02-05T1400,1589A,109.8641,40.6288,包头市,惠龙物流,,26,11,54,6,15,83,,75,75,7,15,8,10,0.3,0.5
2026-02-05T1400,1590A,110.0376,40.5546,包头市,东河鸿龙湾,,30,30,57,3,13,67,,70,56,16,24,10,10,0.5,0.5
2026-02-05T1400,3283A,109.9154,40.5684,包头市,滨河大厦,,24,17,46,8,15,76,,69,68,10,18,7,8,0.5,0.5
2026-02-05T1400,3419A,109.9449,40.6259,包头市,包头市委党校,,25,14,52,6,15,80,,72,72,7,18,9,9,0.4,0.5
2026-02-05T1400,3683A,109.8332,40.6577,包头市,昆区政府,,26,21,54,7,17,81,,74,74,8,16,6,8,0.4,0.5
2026-02-05T1400,1931A,107.0802,34.3129,宝鸡市,竹园沟,,,84,56,,25,75,,39,39,19,20,12,7,0.6,0.6
2026-02-05T1400,1933A,107.1429,34.3549,宝鸡市,监测站,细颗粒物(PM2.5),95,107,74,71,42,67,,29,29,32,34,8,6,0.7,0.6
2026-02-05T1400,1934A,107.1172,34.3759,宝鸡市,技工学校,颗粒物(PM10),81,111,84,55,46,62,,29,29,28,26,9,8,0.7,0.7
2026-02-05T1400,1936A,107.2025,34.3518,宝鸡市,文理学院,细颗粒物(PM2.5),80,103,80,59,43,67,,29,29,26,33,6,5,0.9,0.9
2026-02-05T1400,1937A,107.2396,34.3626,宝鸡市,三迪小学,细颗粒物(PM2.5),85,108,92,63,48,63,,28,28,36,45,7,5,0.8,0.8
2026-02-05T1400,4155A,107.1721,34.3558,宝鸡市,滨河北路,细颗粒物(PM2.5),80,106,83,59,47,59,,26,26,23,30,7,5,0.7,0.6
2026-02-05T1400,4308A,107.3898,34.3601,宝鸡市,陈仓区北开路21号,,,,113,,66,75,,55,55,32,41,47,43,1.1,0.8
2026-02-05T1400,1051A,115.4803,38.8568,保定市,游泳馆,颗粒物(PM10),117,184,142,13,86,77,,51,51,,51,3,12,0.4,0.8
2026-02-05T1400,1052A,115.509,38.8895,保定市,华电二区,颗粒物(PM10),70,89,121,3,79,68,,38,38,12,50,3,5,0.4,1
2026-02-05T1400,1053A,115.4588,38.9037,保定市,接待中心,颗粒物(PM10),61,72,118,11,74,72,,42,42,4,37,1,5,0,0.6
2026-02-05T1400,1054A,115.4484,38.8344,保定市,地表水厂,颗粒物(PM10),89,128,148,3,72,77,,49,49,17,50,2,9,0.1,0.7
2026-02-05T1400,3581A,115.3136,38.9511,保定市,满城区生态环境分局,颗粒物(PM10),104,158,133,8,61,76,,44,44,9,39,2,6,0.1,0.7
2026-02-05T1400,3582A,115.4709,38.7628,保定市,清苑区第二中学,颗粒物(PM10),104,158,167,13,78,75,,46,46,15,44,6,13,0.2,0.8
2026-02-05T1400,3583A,115.6231,39.0223,保定市,徐水物探局,颗粒物(PM10),92,134,187,9,91,78,,44,44,8,50,6,12,0.3,0.9
2026-02-05T1400,4004A,115.4199,38.8665,保定市,双鹰农机,颗粒物(PM10),107,164,157,16,79,79,,53,53,1,50,3,10,0.2,0.8
2026-02-05T1400,4034A,115.515,38.8589,保定市,植保所站,颗粒物(PM10),78,105,134,17,77,76,,44,44,7,54,3,5,0.5,1
2026-02-05T1400,2594A,99.1589,25.1137,保山市,市环境监测站,,29,29,28,8,17,91,,64,64,6,9,3,4,0.3,0.3
2026-02-05T1400,2595A,99.1616,25.1381,保山市,市环保局,,,43,34,,17,92,,68,66,3,6,3,3,0.4,0.5
2026-02-05T1400,1867A,109.1435,21.4085,北海市,海滩公园,,,45,47,23,20,103,,84,84,11,11,,7,,0.9
2026-02-05T1400,1868A,109.0983,21.466,北海市,新市环保局,,40,40,39,8,19,98,,86,81,10,14,6,6,0.5,0.5
2026-02-05T1400,1869A,109.1775,21.5232,北海市,北海工业园,,35,35,47,13,21,97,,75,75,4,10,5,5,0.5,0.6
2026-02-05T1400,3400A,109.1844,21.4396,北海市,龙潭自来水厂,,35,35,40,20,25,97,,77,77,6,9,5,5,0.4,0.5
2026-02-05T1400,1001A,116.3611,39.8786,北京市,万寿西宫,,35,35,82,7,46,84,,80,80,1,28,2,4,0.3,0.6
2026-02-05T1400,1003A,116.4174,39.9289,北京市,东四,,33,33,79,6,44,61,,60,60,9,30,4,6,0.2,0.5
2026-02-05T1400,1004A,116.4073,39.8858,北京市,天坛,,42,42,77,7,43,74,,70,70,8,27,2,3,0.2,0.5
2026-02-05T1400,1005A,116.4622,39.9364,北京市,农展馆,,29,29,78,6,46,77,,72,72,4,25,3,5,0.1,0.5
2026-02-05T1400,1006A,116.3399,39.9293,北京市,官园,,38,38,80,6,44,70,,64,64,8,29,3,4,0.3,0.5
2026-02-05T1400,1007A,116.2879,39.9613,北京市,海淀万柳,,32,32,74,3,40,63,,60,60,11,39,2,4,0.2,0.5
2026-02-05T1400,1008A,116.6635,40.1349,北京市,顺义新城,,26,8,95,3,57,83,,79,79,4,39,5,6,0.2,0.8
2026-02-05T1400,1009A,116.6275,40.327,北京市,怀柔镇,,25,11,46,3,28,77,,76,76,4,23,4,5,0.3,0.6
2026-02-05T1400,1010A,116.2295,40.217,北京市,昌平镇,,44,44,65,8,30,72,,66,66,5,27,2,3,0.4,0.6
2026-02-05T1400,1011A,116.3968,39.982,北京市,奥体中心,,28,28,79,6,46,75,,71,71,8,37,4,6,0.2,0.5
2026-02-05T1400,3418A,116.8336,40.4095,北京市,密云新城,,25,8,66,3,38,79,,73,73,4,31,3,4,0.2,0.5
2026-02-05T1400,3671A,116.0879,39.9725,北京市,门头沟三家店,,24,19,58,3,30,76,,76,76,2,23,3,4,0.3,0.5
2026-02-05T1400,3672A,116.1507,39.8246,北京市,丰台云岗,,26,19,66,3,36,83,,82,82,9,33,2,4,0.3,0.5
2026-02-05T1400,3674A,115.9578,39.7602,北京市,房山燕山,,25,11,53,3,30,80,,75,75,7,20,3,5,0.1,0.5
2026-02-05T1400,3675A,116.4669,39.7734,北京市,大兴旧宫,,39,39,80,7,47,74,,71,71,9,32,3,4,0.4,0.6
2026-02-05T1400,3694A,115.9859,40.4562,北京市,延庆石河营,,32,32,50,8,21,79,,75,75,1,24,4,4,0.3,0.5
2026-02-05T1400,3695A,116.6151,40.3052,北京市,怀柔新城,,25,11,47,3,29,78,,78,78,1,15,2,3,0.2,0.4
2026-02-05T1400,3696A,116.2542,39.8764,北京市,丰台小屯,,31,31,81,6,42,61,,57,56,10,40,3,4,0.3,0.6
2026-02-05T1400,3697A,116.8399,40.3843,北京市,密云镇,,26,10,68,3,39,81,,72,72,5,40,3,4,0.3,0.6
2026-02-05T1400,4057A,115.9423,40.4431,北京市,延庆百泉,,38,38,51,7,19,76,,70,70,2,12,3,4,0.2,0.4
2026-02-05T1400,4058A,116.6598,39.9164,北京市,通州新华,,23,16,106,3,68,72,,65,65,6,37,2,4,0.4,0.9
2026-02-05T1400,4182A,116.1942,39.9158,北京市,石景山八角,,29,29,73,8,35,71,,65,65,1,36,1,3,0.2,0.4
2026-02-05T1400,4194A,117.078628,40.151726,北京市,平谷新城,,11,9,73,3,44,34,,65,64,2,28,3,4,0.2,0.7
2026-02-05T1400,1761A,123.8274146,41.31234549,本溪市,大峪,颗粒物(PM10),55,59,115,3,68,75,,64,64,6,37,8,10,0.4,0.9
2026-02-05T1400,1763A,123.7169,41.3094,本溪市,彩屯,颗粒物(PM10),57,64,115,3,81,82,,68,68,10,32,6,14,0.5,1.8
2026-02-05T1400,1764A,123.7672166,41.28649327,本溪市,东明,颗粒物(PM10),87,123,102,3,71,77,,64,64,10,27,9,10,0.6,1
2026-02-05T1400,1765A,123.799345,41.266614,本溪市,新立屯,颗粒物(PM10),88,126,104,3,69,76,,64,64,5,25,10,11,0.6,1
2026-02-05T1400,1766A,123.829144,41.336777,本溪市,威宁,颗粒物(PM10),113,175,131,3,68,72,,61,61,,44,6,8,0.4,1.1
2026-02-05T1400,2587A,105.287,27.3133,毕节市,八中,颗粒物(PM10),51,52,27,26,20,54,,57,56,14,10,9,9,0.9,0.9
2026-02-05T1400,2588A,105.3079,27.2987,毕节市,师专,,38,38,22,21,16,56,,66,62,16,12,8,9,0.9,0.8
2026-02-05T1400,4263A,105.3688,27.3598,毕节市,工业大道,,,58,25,46,20,55,,66,60,,12,9,9,/,/
2026-02-05T1400,1629A,117.9961,37.3604,滨州市,第二水厂,颗粒物(PM10),102,153,194,56,138,75,,40,40,16,54,12,15,0.6,1.1
2026-02-05T1400,1630A,117.9789,37.3931,滨州市,北中新校,颗粒物(PM10),87,124,188,50,140,79,,42,42,15,38,10,12,0.7,1.2
2026-02-05T1400,3514A,117.9379,37.3959,滨州市,中海酒店,颗粒物(PM10),92,134,185,55,141,94,,50,50,16,48,14,12,0.5,1.2
2026-02-05T1400,3515A,117.9381509,37.35547456,滨州市,开发区一中,颗粒物(PM10),114,178,208,62,137,74,,37,37,13,59,15,20,0.8,1.2
2026-02-05T1400,3516A,118.0914,37.6938,滨州市,金海六路,颗粒物(PM10),94,137,206,18,159,86,,44,44,9,64,10,13,0.6,1.3
2026-02-05T1400,4028A,117.9955,37.3752,滨州市,滨州市西街道办事处,颗粒物(PM10),96,141,191,56,132,85,,44,44,13,45,13,13,0.4,1
2026-02-05T1400,2311A,115.8071,33.8399,亳州市,污水处理厂,细颗粒物(PM2.5),120,122,136,91,101,121,,46,46,19,47,8,9,0.7,0.9
2026-02-05T1400,2312A,115.7789,33.8519,亳州市,三国揽胜宫,细颗粒物(PM2.5),120,157,150,91,96,112,,44,44,28,46,8,6,0.6,0.9
2026-02-05T1400,3332A,115.7631,33.803,亳州市,亳州学院,细颗粒物(PM2.5),124,133,136,94,95,99,,51,51,22,32,7,5,0.7,0.8
2026-02-05T1400,2693A,82.0482,44.8553,博尔塔拉蒙古自治州,市党校,细颗粒物(PM2.5),113,134,69,85,33,65,,74,70,25,16,2,3,1.6,0.7
2026-02-05T1400,2694A,82.0805,44.8966,博尔塔拉蒙古自治州,市环保局,细颗粒物(PM2.5),124,130,83,94,46,78,,78,78,23,26,5,8,1.3,1
2026-02-05T1400,1071A,116.8733,38.2922,沧州市,沧县城建局,细颗粒物(PM2.5),156,178,174,119,111,76,,51,51,30,54,14,10,1.1,0.8
2026-02-05T1400,1072A,116.8462,38.3189,沧州市,电视转播站,细颗粒物(PM2.5),110,147,162,83,126,74,,43,43,30,47,8,5,1.2,0.9
2026-02-05T1400,1073A,116.8588,38.3161,沧州市,市环保局,细颗粒物(PM2.5),137,175,177,104,103,64,,38,38,30,46,11,9,1.2,0.9
2026-02-05T1400,3324A,116.8011,38.294,沧州市,河北水利电力学院,颗粒物(PM10),111,171,185,62,119,65,,44,44,23,41,10,10,0.9,0.8
2026-02-05T1400,2622A,97.1813,31.1289,昌都市,昌都监测站,,29,,17,14,7,90,,68,68,4,7,3,3,0.3,0.3
2026-02-05T1400,3719A,97.1707,31.1428,昌都市,昌都会议中心,,,10,11,8,8,74,,63,63,3,2,5,4,,0.2
2026-02-05T1400,2692A,87.2722,44.0298,昌吉回族自治州,新区政务中心,细颗粒物(PM2.5),73,63,94,53,64,50,,23,23,40,50,10,9,1.4,1.2
2026-02-05T1400,3613A,87.3069,44.0093,昌吉回族自治州,亚心广场,细颗粒物(PM2.5),97,102,112,72,84,41,,45,36,44,42,10,9,1.6,1.2
2026-02-05T1400,4164A,87.2057,43.9289,昌吉回族自治州,财政所,,43,35,66,30,43,63,,56,56,23,16,6,6,1.1,0.7
2026-02-05T1400,1120A,125.2874,43.9024,长春市,客车厂,,48,48,59,7,35,68,,57,57,12,35,6,9,0.4,0.6
2026-02-05T1400,1121A,125.2943,43.8508,长春市,邮电学院,颗粒物(PM10),52,53,53,6,38,72,,57,57,8,26,7,10,0.3,0.5
2026-02-05T1400,1122A,125.3648,43.8745,长春市,劳动公园,颗粒物(PM10),52,53,67,6,39,74,,60,60,8,29,3,6,0.5,0.7
2026-02-05T1400,1123A,125.3233,43.8781,长春市,园林处,,46,46,53,9,41,74,,60,60,6,23,6,10,0.3,0.5
2026-02-05T1400,1124A,125.4604,43.7904,长春市,净月潭,颗粒物(PM10),53,55,53,6,37,75,,61,61,8,22,4,7,0.3,0.5
2026-02-05T1400,1126A,125.38,43.8422,长春市,经开区环卫处,,46,46,54,6,38,72,,56,56,12,28,8,8,0.3,0.5
2026-02-05T1400,1127A,125.234,43.7761,长春市,高新区管委会,,49,49,58,6,34,80,,63,63,5,32,6,9,0.3,0.5
2026-02-05T1400,1128A,125.1695,43.83,长春市,岱山公园,,,63,61,11,39,73,,40,,,40,4,8,0.2,0.4
2026-02-05T1400,4281A,125.334645,43.916281,长春市,北亚泰大街1068号,,42,42,62,9,44,69,,56,56,11,28,6,9,0.3,0.5
2026-02-05T1400,1335A,113.082,28.2421,长沙市,经开区环保局,细颗粒物(PM2.5),99,106,105,74,69,7,,3,3,39,48,4,5,0.8,0.8
2026-02-05T1400,1336A,112.8873,28.2202,长沙市,高开区环保局,,,,117,,87,,,24,,,45,,6,,1.1
2026-02-05T1400,1337A,113.0785,28.2012,长沙市,马坡岭,细颗粒物(PM2.5),105,118,113,79,73,15,,9,9,35,46,6,7,1.0,1
2026-02-05T1400,1338A,112.9448,28.1894,长沙市,湖南师范大学,细颗粒物(PM2.5),97,113,122,72,74,36,,18,18,18,45,4,5,1.0,1.1
2026-02-05T1400,1339A,113.0177,28.1322,长沙市,雨花区环保局,细颗粒物(PM2.5),92,103,105,68,66,19,,5,5,36,57,8,9,1.0,1
2026-02-05T1400,1340A,112.9795,28.2593,长沙市,伍家岭,细颗粒物(PM2.5),107,115,123,80,78,15,,9,9,29,47,5,7,0.8,0.9
2026-02-05T1400,1341A,113.002,28.1944,长沙市,火车新站,细颗粒物(PM2.5),102,113,117,76,75,25,,15,15,30,53,2,4,1.1,1.2
2026-02-05T1400,1342A,112.9846,28.1177,长沙市,天心区环保局,细颗粒物(PM2.5),103,107,111,77,76,33,,13,13,28,52,7,7,0.7,0.8
2026-02-05T1400,1343A,112.8906,28.1307,长沙市,湖南中医药大学,细颗粒物(PM2.5),100,124,119,75,74,31,,16,16,32,49,9,7,0.9,1
2026-02-05T1400,1727A,113.1146,36.1547,长治市,清华站,细颗粒物(PM2.5),75,93,84,55,49,78,,32,32,32,40,42,16,1.3,1
2026-02-05T1400,1730A,113.0887,36.2126,长治市,审计局,颗粒物(PM10),76,102,82,54,50,84,,34,34,31,43,36,19,1.4,0.9
2026-02-05T1400,1731A,113.0845,36.1856,长治市,长治八中,颗粒物(PM10),79,107,106,53,56,86,,28,28,25,40,35,20,1.2,0.9
2026-02-05T1400,2845A,113.1561,36.1912,长治市,德盛苑,细颗粒物(PM2.5),74,82,65,54,46,88,,63,59,22,23,35,17,1.2,1
2026-02-05T1400,3568A,113.0603,36.0464,长治市,向阳小学,颗粒物(PM10),84,118,106,57,51,76,,46,45,41,36,43,22,1.2,1
2026-02-05T1400,3569A,112.8788,36.315,长治市,屯留一中,颗粒物(PM10),52,53,79,30,49,99,,43,43,12,43,12,19,0.8,0.9
2026-02-05T1400,4189A,113.113092,36.199482,长治市,英华南巷50号,颗粒物(PM10),75,99,90,54,52,85,,34,34,28,41,37,19,1.3,0.9
2026-02-05T1400,4190A,113.23666,36.33435,长治市,学府街1号,颗粒物(PM10),68,86,99,36,54,82,,42,42,25,59,19,23,0.8,1.6
2026-02-05T1400,1854A,111.696,28.9725,常德市,市二中,细颗粒物(PM2.5),158,166,131,120,93,30,,12,12,26,28,5,5,1.4,1.3
2026-02-05T1400,3138A,111.7152,29.0288,常德市,武陵区永安,细颗粒物(PM2.5),160,170,133,122,102,32,,14,12,25,30,5,4,1.3,1.3
2026-02-05T1400,3139A,111.6891,28.9881,常德市,鼎城区玉霞,细颗粒物(PM2.5),165,155,128,125,95,34,,14,14,,31,5,7,,1.3
2026-02-05T1400,3140A,111.6651,29.0526,常德市,武陵区长庚,细颗粒物(PM2.5),186,172,126,140,106,27,,16,13,25,26,5,4,1.2,1.1
2026-02-05T1400,1196A,119.9524,31.7586,常州市,市监测站,细颗粒物(PM2.5),94,102,101,70,68,70,,29,29,48,60,13,9,0.9,0.8
2026-02-05T1400,1200A,119.9351,31.703,常州市,武进监测站,细颗粒物(PM2.5),103,113,90,77,64,54,,29,24,57,48,14,9,1.0,0.6
2026-02-05T1400,3002A,119.9701,31.813,常州市,行政中心,细颗粒物(PM2.5),102,107,102,76,71,74,,32,29,52,54,13,8,1.0,0.9
2026-02-05T1400,3003A,120.0434,31.7726,常州市,经开区,细颗粒物(PM2.5),105,125,109,79,66,56,,35,29,58,47,11,7,1.1,1
2026-02-05T1400,3010A,119.8919,31.7892,常州市,钟楼,细颗粒物(PM2.5),84,94,98,62,65,76,,32,32,43,57,10,9,0.8,0.8
2026-02-05T1400,3429A,119.8595,31.706,常州市,武进经发区,细颗粒物(PM2.5),102,99,92,76,70,66,,30,30,46,51,10,8,1.3,1.1
2026-02-05T1400,3430A,119.5812,31.7256,常州市,金坛城区,细颗粒物(PM2.5),90,87,85,67,67,81,,41,41,30,38,12,9,0.8,0.8
2026-02-05T1400,4089A,119.9551,31.863,常州市,崇义南街5-H号,细颗粒物(PM2.5),94,95,108,70,77,80,,29,29,43,65,14,7,1.0,1.1
2026-02-05T1400,2220A,120.4318,41.588,朝阳市,西梁,,48,48,89,3,33,82,,78,78,6,32,5,13,0.3,0.6
2026-02-05T1400,2221A,120.452,41.565,朝阳市,河畔小区,颗粒物(PM10),58,66,77,7,30,81,,80,80,5,21,6,12,0.3,0.7
2026-02-05T1400,2222A,120.4176,41.5648,朝阳市,八里堡,颗粒物(PM10),71,91,88,3,38,78,,75,75,7,31,8,13,0.3,0.8
2026-02-05T1400,3026A,116.6179,23.6608,潮州市,市政府,颗粒物(PM10),59,68,71,27,42,142,,89,89,8,20,6,6,0.5,0.6
2026-02-05T1400,4036A,116.646,23.676,潮州市,金山,颗粒物(PM10),55,59,60,29,39,147,,88,88,12,19,4,4,0.6,0.6
2026-02-05T1400,2473A,113.0116,25.8228,郴州市,市职中,细颗粒物(PM2.5),53,54,64,37,53,99,,40,40,11,23,10,11,0.6,0.7
2026-02-05T1400,2475A,113.0381,25.8074,郴州市,市审计局,颗粒物(PM10),57,64,66,33,49,90,,35,35,14,32,8,6,/,/
2026-02-05T1400,2476A,113.0348,25.7757,郴州市,市环保局,颗粒物(PM10),60,69,74,41,64,98,,45,45,13,32,14,15,0.3,0.6
2026-02-05T1400,4252A,113.0138,25.8011,郴州市,好美居路49号,颗粒物(PM10),56,61,59,20,44,97,,46,46,13,26,4,8,/,/
2026-02-05T1400,1431A,103.9727,30.7242,成都市,金泉两河,细颗粒物(PM2.5),109,107,121,82,82,98,,32,32,30,54,3,3,1.0,1.4
2026-02-05T1400,1432A,104.1423,30.6765,成都市,十里店,细颗粒物(PM2.5),107,104,140,80,84,98,,30,30,36,56,5,4,0.9,1
2026-02-05T1400,1433A,104.0594,30.5765,成都市,三瓦窑,,,114,131,74,87,94,,27,27,,62,4,4,1.1,1.3
2026-02-05T1400,1434A,104.1122,30.6306,成都市,沙河铺,细颗粒物(PM2.5),110,97,126,83,83,81,,22,22,44,55,4,3,1.1,1.1
2026-02-05T1400,2880A,104.0219,30.6561,成都市,大石西路,细颗粒物(PM2.5),129,105,135,98,98,90,,29,29,31,52,7,5,1.0,1.2
2026-02-05T1400,3136A,104.2724,30.559,成都市,龙泉驿区区政府,细颗粒物(PM2.5),107,102,94,80,72,105,,57,57,18,20,8,6,1.0,1
2026-02-05T1400,3357A,104.0028,30.6891,成都市,金博路,细颗粒物(PM2.5),104,96,124,78,91,93,,30,30,33,55,7,5,1.0,1.2
2026-02-05T1400,3359A,104.056,30.5228,成都市,华阳,细颗粒物(PM2.5),105,105,113,79,85,102,,32,32,24,50,,3,1.4,1.3
2026-02-05T1400,3488A,104.387954,30.746684,成都市,青石路225号,细颗粒物(PM2.5),123,126,119,93,81,103,,38,38,26,46,2,1,1.3,1.2
2026-02-05T1400,3489A,104.0788,30.4054,成都市,科学城,细颗粒物(PM2.5),123,111,97,93,73,73,,22,22,15,27,7,6,1.0,1.2
2026-02-05T1400,4011A,103.8505,30.6946,成都市,光华大道三段,细颗粒物(PM2.5),103,101,138,77,82,107,,31,31,19,50,4,3,0.8,1.2
2026-02-05T1400,4144A,104.3257,30.6406,成都市,八角井街185号,细颗粒物(PM2.5),119,107,115,90,76,91,,34,34,27,31,4,3,0.8,0.8
2026-02-05T1400,4224A,104.2433276,30.53529463,成都市,鲸龙路1057号,细颗粒物(PM2.5),105,108,105,79,72,110,,44,44,15,38,7,5,0.9,1
2026-02-05T1400,1062A,117.9531,40.908,承德市,铁路,,33,33,80,3,43,84,,79,79,3,32,1,7,0.2,0.8
2026-02-05T1400,1063A,117.9397,40.9763,承德市,中国银行,,29,29,75,3,40,83,,78,78,2,37,1,6,0.2,0.9
2026-02-05T1400,4073A,117.9462,40.95,承德市,杏林街1号,,26,19,74,10,42,83,,80,80,2,30,3,8,0.2,0.9
2026-02-05T1400,4274A,117.7994,40.9605,承德市,滨河大街98号,,38,38,64,10,30,83,,78,78,3,25,2,14,0.2,0.7
2026-02-05T1400,2314A,117.4698,30.6617,池州市,池州学院,细颗粒物(PM2.5),63,64,62,45,46,27,,18,17,52,35,6,8,1.3,1.2
2026-02-05T1400,3237A,117.4918,30.6617,池州市,展览馆,细颗粒物(PM2.5),82,76,68,60,48,14,,17,17,63,33,6,6,1.1,1
2026-02-05T1400,3333A,117.5626,30.695,池州市,第八中学,细颗粒物(PM2.5),59,62,67,42,45,14,,18,18,61,34,6,7,1.0,0.9
2026-02-05T1400,3334A,117.5037,30.6242,池州市,第十二中学,细颗粒物(PM2.5),70,67,64,51,43,38,,20,20,44,41,7,6,1.2,1.1
2026-02-05T1400,1744A,118.9229,42.2816,赤峰市,松山一中,颗粒物(PM10),78,106,66,3,19,66,,63,63,9,28,2,11,0.5,0.9
2026-02-05T1400,1745A,118.9588,42.2733,赤峰市,哈达街,,45,45,60,3,21,68,,64,64,3,25,8,35,0.5,0.9
2026-02-05T1400,1746A,118.8792,42.2551,赤峰市,天义路,颗粒物(PM10),61,72,42,19,17,76,,73,73,2,24,5,21,0.5,0.6
2026-02-05T1400,3058A,119.2656,42.0356,赤峰市,银河街,颗粒物(PM10),57,63,66,14,20,78,,77,77,1,9,8,14,0.6,0.7
2026-02-05T1400,3286A,118.9359,42.3146,赤峰市,桥北物流园区,,25,24,41,11,18,78,,75,75,5,19,5,4,0.4,0.7
2026-02-05T1400,2521A,107.3473,22.4137,崇左市,市环保局江州分局,,,108,90,52,68,64,,17,17,12,28,7,5,,1
2026-02-05T1400,4256A,107.375,22.3736,崇左市,石景林东路7号,细颗粒物(PM2.5),79,79,67,58,60,50,,21,17,19,27,2,2,0.7,0.8
2026-02-05T1400,3207A,118.31131,32.3033,滁州市,市政府原办公楼,细颗粒物(PM2.5),98,96,77,73,58,111,,47,47,15,43,7,5,0.6,0.6
2026-02-05T1400,3331A,118.3268,32.2633,滁州市,图书馆,,,87,62,48,37,114,,47,47,,41,8,8,0.6,0.6
2026-02-05T1400,4101A,118.3196,32.3335,滁州市,银山路666号,细颗粒物(PM2.5),104,79,67,78,55,119,,40,40,13,36,,14,0.7,0.6
2026-02-05T1400,4102A,118.3426,32.2979,滁州市,黄山路555号,细颗粒物(PM2.5),98,104,88,73,52,114,,41,41,22,55,9,6,0.6,0.6
2026-02-05T1400,2606A,101.5379,25.0492,楚雄彝族自治州,市经济开发区,,25,7,24,3,15,77,,42,42,5,31,2,3,0.4,0.5
2026-02-05T1400,4153A,101.5536,25.0343,楚雄彝族自治州,团结路562号,,,12,21,3,14,76,,39,39,3,10,,4,0.4,0.5
2026-02-05T1400,2549A,107.5087,31.2186,达州市,市环境监测站,细颗粒物(PM2.5),119,112,125,90,88,24,,8,8,28,40,14,10,0.8,1
2026-02-05T1400,2550A,107.4988,31.2132,达州市,凤凰小区,细颗粒物(PM2.5),114,127,131,86,89,25,,8,8,29,42,14,9,0.6,0.8
2026-02-05T1400,2551A,107.5081,31.1987,达州市,达县机关宾馆,细颗粒物(PM2.5),118,132,133,89,94,30,,10,10,32,44,16,9,0.8,1
2026-02-05T1400,2552A,107.4644,31.2124,达州市,市政中心,细颗粒物(PM2.5),119,141,144,90,89,17,,6,6,48,51,13,8,1.0,1.1
2026-02-05T1400,2614A,100.2168,25.5818,大理白族自治州,大理市环境监测站,,25,19,21,6,13,80,,69,69,6,8,7,7,0.5,0.5
2026-02-05T1400,2615A,100.1542,25.7055,大理白族自治州,大理古城,,27,19,22,3,12,84,,68,68,2,6,7,8,0.5,0.6
2026-02-05T1400,1109A,121.6119,38.974,大连市,甘井子,颗粒物(PM10),83,115,153,15,104,89,,56,56,8,56,7,8,0.5,0.7
2026-02-05T1400,1110A,121.565,38.9509,大连市,周水子,颗粒物(PM10),87,124,151,14,110,83,,56,56,8,52,9,10,0.3,1.5
2026-02-05T1400,1111A,121.5637,38.8849,大连市,星海三站,颗粒物(PM10),74,98,132,11,100,80,,53,53,12,32,5,6,0.4,1
2026-02-05T1400,1112A,121.6301,38.9117,大连市,青泥洼桥,颗粒物(PM10),86,122,138,13,100,84,,55,55,13,44,7,9,0.2,1.1
2026-02-05T1400,1113A,121.6248,38.8643,大连市,傅家庄,颗粒物(PM10),57,63,135,11,84,81,,60,60,6,34,6,9,0.6,1.2
2026-02-05T1400,1114A,121.5117,38.8636,大连市,七贤岭,颗粒物(PM10),92,134,147,13,104,81,,58,58,11,28,8,12,0.3,1
2026-02-05T1400,1116A,121.7507,39.1339,大连市,金州,颗粒物(PM10),84,118,152,18,73,77,,58,58,13,33,7,10,0.2,0.9
2026-02-05T1400,1117A,121.7811,39.0495,大连市,开发区,颗粒物(PM10),76,101,135,12,89,83,,60,60,7,40,6,8,0.2,1
2026-02-05T1400,1118A,121.9762,39.0631,大连市,双D港,,,,126,11,67,93,,69,69,11,31,8,10,0.5,1.1
2026-02-05T1400,4082A,121.2548,38.8188,大连市,旅顺,颗粒物(PM10),59,67,143,10,99,79,,56,56,6,30,7,8,0.4,1.1
2026-02-05T1400,1789A,124.8085,46.0381,大庆市,大同区,颗粒物(PM10),74,98,45,12,18,72,,73,73,2,10,5,7,0.3,0.4
2026-02-05T1400,1790A,125.1166,46.5255,大庆市,龙凤区,,50,50,39,15,18,69,,70,70,10,17,8,8,0.5,0.6
2026-02-05T1400,1791A,124.8894,46.4007,大庆市,红岗区,颗粒物(PM10),60,69,40,9,16,65,,66,66,7,16,5,6,0.5,0.6
2026-02-05T1400,1792A,125.1391,46.578,大庆市,萨尔图区,,,76,34,,13,66,,65,65,7,15,8,9,0.3,0.3
2026-02-05T1400,1793A,124.9026,46.6217,大庆市,让胡路区,,44,44,29,12,14,71,,70,70,5,14,8,7,0.4,0.4
2026-02-05T1400,3481A,125.127,46.6277,大庆市,萨区政府监测点,颗粒物(PM10),55,60,39,17,15,72,,74,74,2,5,8,8,0.5,0.6
2026-02-05T1400,1723A,113.2926,40.0759,大同市,云冈宾馆,,29,29,53,3,16,75,,69,69,6,19,5,7,0.3,0.5
2026-02-05T1400,1724A,113.3437,40.0921,大同市,大同大学,,28,28,59,7,16,82,,73,73,3,17,3,7,0.3,0.6
2026-02-05T1400,1725A,113.2637,40.129,大同市,安家小村,,21,18,61,3,19,66,,55,55,7,21,7,8,0.3,0.6
2026-02-05T1400,3282A,113.3399,40.0586,大同市,大同市卫生学校,,30,9,58,3,17,93,,83,83,6,19,2,5,0.4,0.6
2026-02-05T1400,3565A,113.1371,40.1122,大同市,云冈站,,24,21,54,6,14,75,,71,71,5,21,6,7,0.4,0.5
2026-02-05T1400,3566A,113.1186,40.2556,大同市,图书馆,,,28,51,,21,74,,69,69,11,12,8,6,0.8,0.7
2026-02-05T1400,3567A,113.5931,40.0459,大同市,区一中,,36,36,166,12,37,79,,64,64,8,32,8,14,0.3,0.6
2026-02-05T1400,4199A,113.2798248,40.09972476,大同市,魏都大道141号,,40,40,71,3,20,85,,79,79,5,23,4,6,0.4,0.7
2026-02-05T1400,2269A,124.1068,50.4091,大兴安岭地区,科技局,,20,20,29,7,14,62,,63,62,1,5,7,6,0.2,0.2
2026-02-05T1400,3663A,124.117,50.4279,大兴安岭地区,红旗社区,,24,12,21,7,17,75,,76,74,1,10,6,7,0.1,0.2
2026-02-05T1400,1600A,124.33,40.0625,丹东市,江湾东路,,49,49,97,13,65,66,,55,55,12,21,5,9,0.5,0.9
2026-02-05T1400,1601A,124.4242,40.1513,丹东市,临江后街,,44,44,112,8,83,73,,62,62,10,23,4,12,0.4,1.1
2026-02-05T1400,1602A,124.3935,40.1461,丹东市,元宝山,,45,45,97,10,64,69,,59,,10,23,5,12,0.3,1
2026-02-05T1400,1603A,124.3634,40.1093,丹东市,民主桥,,36,36,102,13,70,67,,58,58,15,24,6,12,0.5,0.9
2026-02-05T1400,3541A,109.5726195,19.51688767,儋州市,第一中学子站,,25,12,31,8,19,77,,47,47,1,6,5,6,0.5,0.7
2026-02-05T1400,3542A,109.5567,19.5187,儋州市,东坡学校子站,,26,11,27,3,14,81,,58,58,2,6,4,4,0.4,0.6
2026-02-05T1400,2616A,98.5611,24.4273,德宏傣族景颇族自治州,德宏州监测站,,49,42,63,34,44,96,,37,37,13,27,7,6,0.9,1
2026-02-05T1400,3677A,98.5887,24.4366,德宏傣族景颇族自治州,芒市人民政府综合楼,颗粒物(PM10),54,58,65,30,39,90,,39,39,12,17,5,4,0.7,0.9
2026-02-05T1400,1901A,104.424,31.1209,德阳市,东山公园,细颗粒物(PM2.5),103,104,93,77,84,92,,45,45,16,21,2,2,0.9,1
2026-02-05T1400,1902A,104.3827,31.1318,德阳市,西小区,细颗粒物(PM2.5),108,123,116,81,92,89,,28,28,26,47,4,4,0.8,1.1
2026-02-05T1400,1904A,104.3553,31.1091,德阳市,耐火材料厂,细颗粒物(PM2.5),114,100,110,86,97,84,,25,25,25,51,3,3,0.8,1
2026-02-05T1400,4145A,104.4144,31.1495,德阳市,市林业局,细颗粒物(PM2.5),105,95,104,79,85,96,,33,33,22,45,5,4,0.9,1
2026-02-05T1400,1622A,116.3034,37.4675,德州市,儿童乐园,颗粒物(PM10),128,205,198,3,114,78,,46,46,20,48,9,16,0.7,1.4
2026-02-05T1400,1624A,116.2992,37.4449,德州市,监理站,颗粒物(PM10),137,224,204,3,114,84,,54,54,20,60,7,15,0.4,1.1
2026-02-05T1400,3066A,116.2722,37.438,德州市,九衢泉纯净水厂,颗粒物(PM10),134,217,205,3,129,80,,49,49,16,68,2,11,0.3,1.1
2026-02-05T1400,3371A,116.3693,37.44,德州市,开发区人民医院,颗粒物(PM10),131,212,202,3,112,77,,52,48,8,40,9,15,0.3,1
2026-02-05T1400,3511A,116.5687,37.3331,德州市,陵城艺术中心,颗粒物(PM10),130,210,204,20,125,69,,38,38,24,57,4,17,0.7,1.4
2026-02-05T1400,4292A,116.352738,37.420875,德州市,新河东路,颗粒物(PM10),124,197,194,3,105,76,,48,48,20,60,9,15,0.8,1.2
2026-02-05T1400,2621A,99.7054,27.8319,迪庆藏族自治州,迪庆州站,,28,14,20,11,10,88,,71,71,5,8,5,5,0.6,0.6
2026-02-05T1400,3180A,99.7122,27.8129,迪庆藏族自治州,质量技术监督局,,30,23,19,8,10,96,,69,68,4,8,4,4,0.4,0.4
2026-02-05T1400,4257A,104.6092,35.5962,定西市,将台街,,42,42,78,22,50,102,,36,36,4,29,10,16,0.4,1
2026-02-05T1400,4309A,104.6159,35.5701,定西市,正龙路62号,颗粒物(PM10),53,56,76,22,42,96,,44,44,7,14,6,11,0.5,1
2026-02-05T1400,1390A,113.7943,23.0132,东莞市,东城石井,臭氧1小时(O3_1h),73,43,69,22,40,178,,88,88,25,44,7,6,0.6,0.7
2026-02-05T1400,1391A,113.7384,22.9659,东莞市,南城西平,臭氧1小时(O3_1h),85,41,58,30,39,188,,74,74,29,48,7,7,0.6,0.6
2026-02-05T1400,3319A,113.7283,23.041,东莞市,万江金泰,臭氧1小时(O3_1h),78,49,76,41,44,182,,82,82,23,42,6,6,0.8,0.9
2026-02-05T1400,4129A,113.8666,23.1062,东莞市,裕兴路,臭氧1小时(O3_1h),88,56,92,29,47,190,,83,83,20,47,7,7,0.8,1
2026-02-05T1400,4130A,114.0076,22.9739,东莞市,教育路1号,臭氧1小时(O3_1h),73,39,72,18,39,178,,90,90,18,50,4,5,0.6,0.7
2026-02-05T1400,4131A,113.7981,22.8124,东莞市,长怡路1号,臭氧1小时(O3_1h),85,53,71,27,38,188,,76,76,31,54,7,7,0.7,0.8
2026-02-05T1400,1666A,118.6612,37.4313,东营市,市环保局,颗粒物(PM10),75,100,183,9,142,76,,44,44,14,53,8,17,0.5,1.2
2026-02-05T1400,3036A,118.6903,37.4337,东营市,开发区管委会,颗粒物(PM10),84,118,185,8,139,82,,48,48,6,54,8,12,0.3,1.1
2026-02-05T1400,3365A,118.5721,37.5654,东营市,垦利区民丰路,颗粒物(PM10),79,107,176,9,143,81,,41,41,8,60,7,13,0.6,1.2
2026-02-05T1400,3498A,118.5063,37.8606,东营市,河口城区,颗粒物(PM10),91,132,199,9,143,87,,47,47,13,55,6,18,0.6,1.3
2026-02-05T1400,3646A,118.4979,37.4623,东营市,胜利站,颗粒物(PM10),90,130,186,9,122,76,,35,35,17,71,7,14,0.5,1.4
2026-02-05T1400,3734A,118.5753,37.4405,东营市,理想之城,,,,186,9,122,78,,40,40,14,62,5,11,0.4,1.2
2026-02-05T1400,1591A,110.0024,39.8127,鄂尔多斯市,综合楼,,36,36,99,3,18,73,,51,,9,23,6,8,0.2,0.4
2026-02-05T1400,1592A,109.9485,39.8259,鄂尔多斯市,巴音孟克林场办事处,,27,27,85,9,19,80,,57,57,7,20,5,8,0.3,0.3
2026-02-05T1400,1593A,109.7734,39.5987,鄂尔多斯市,康泽苑,,44,44,79,9,17,70,,62,62,19,14,7,6,0.4,0.4
2026-02-05T1400,1594A,109.8121,39.5987,鄂尔多斯市,华泰汽车城,,48,48,78,8,19,64,,55,55,20,18,6,6,0.2,0.3
2026-02-05T1400,1595A,109.9734,39.7884,鄂尔多斯市,奥林花园,,34,34,91,7,15,74,,60,52,13,22,4,5,0.3,0.4
2026-02-05T1400,2436A,114.894,30.3989,鄂州市,市政府,细颗粒物(PM2.5),82,79,73,60,49,49,,28,28,34,43,7,6,1.0,0.9
2026-02-05T1400,2437A,114.8986,30.3714,鄂州市,赵家坝,,,89,70,61,47,50,,25,25,31,36,10,9,,1.1
2026-02-05T1400,3654A,114.8093,30.4091,鄂州市,精准医疗中心,细颗粒物(PM2.5),69,79,76,50,45,54,,27,27,27,43,30,13,1.2,0.9
2026-02-05T1400,2454A,109.4978,30.2979,恩施土家族苗族自治州,湖北民院,细颗粒物(PM2.5),109,99,100,82,84,12,,6,6,29,23,6,6,1.3,1.1
2026-02-05T1400,3549A,109.5061,30.3771,恩施土家族苗族自治州,龙凤新区,细颗粒物(PM2.5),83,84,89,61,62,12,,5,3,29,24,7,7,0.9,0.8
2026-02-05T1400,2499A,108.3411,21.6159,防城港市,沙万,颗粒物(PM10),52,54,49,26,28,67,,50,41,21,36,6,8,0.5,0.6
2026-02-05T1400,2500A,108.3515,21.7733,防城港市,防城档案局,,,,43,44,33,64,,69,40,14,15,6,5,,0.8
2026-02-05T1400,2501A,108.3506,21.6414,防城港市,大海花园,颗粒物(PM10),55,60,44,29,32,84,,67,49,17,28,8,8,1.0,0.9
2026-02-05T1400,1371A,113.1293,23.0065,佛山市,湾梁,,44,44,62,18,31,113,,54,54,23,38,/,/,/,/
2026-02-05T1400,1372A,113.1082,23.0477,佛山市,华材职中,细颗粒物(PM2.5),55,51,60,39,52,117,,71,71,20,26,8,6,0.7,0.8
2026-02-05T1400,1373A,113.1439,23.045,佛山市,南海气象局,,44,44,54,19,35,112,,63,63,24,36,/,/,/,/
2026-02-05T1400,1374A,113.2879,22.8094,佛山市,顺德苏岗,颗粒物(PM10),51,51,56,21,29,135,,64,64,27,37,/,/,0.5,0.6
2026-02-05T1400,1376A,112.8384,22.8678,佛山市,高明孔堂,,42,34,46,29,29,126,,65,65,22,20,/,/,/,/
2026-02-05T1400,1377A,112.8835,23.1584,佛山市,三水监测站,颗粒物(PM10),51,51,78,35,46,136,,57,57,23,62,3,3,0.5,0.6
2026-02-05T1400,1378A,112.8668,23.185,佛山市,三水云东海,,,,71,,42,138,,55,55,25,49,/,/,/,/
2026-02-05T1400,3625A,113.2568,22.7629,佛山市,容桂街道办,,41,41,59,19,32,121,,66,66,20,35,/,/,/,/
2026-02-05T1400,1282A,119.2681,26.0506,福州市,师大,颗粒物(PM10),51,52,45,29,20,153,,74,74,20,27,4,4,0.5,0.5
2026-02-05T1400,1283A,119.2983,26.1028,福州市,五四北路,,43,37,42,24,22,136,,71,71,17,26,5,5,0.5,0.6
2026-02-05T1400,1284A,119.2648,26.0769,福州市,杨桥西路,,46,,41,32,21,145,,69,69,17,26,5,5,/,/
2026-02-05T1400,3048A,119.5799,26.0937,福州市,九龙,,37,34,38,18,21,118,,64,64,14,26,7,5,0.7,0.7
2026-02-05T1400,3526A,119.5188,25.9666,福州市,吴航,,44,44,37,25,20,133,,76,76,22,28,8,6,0.8,0.7
2026-02-05T1400,4104A,119.3106,26.0648,福州市,路通桥巷6号,颗粒物(PM10),51,51,43,25,21,140,,68,68,15,23,/,/,/,/
2026-02-05T1400,1755A,123.7974,41.8494,抚顺市,望花区,颗粒物(PM10),110,170,170,3,94,77,,56,56,7,52,4,18,0.4,1.2
2026-02-05T1400,1756A,123.9161,41.8827,抚顺市,顺城区,颗粒物(PM10),77,104,156,3,101,81,,69,69,12,50,7,16,0.4,1.2
2026-02-05T1400,1757A,124.0437,41.8615,抚顺市,东洲区,,,,193,,96,73,,62,62,6,55,15,21,,1.2
2026-02-05T1400,1758A,123.9246,41.8638,抚顺市,新抚区,颗粒物(PM10),116,182,203,3,102,87,,74,74,12,56,5,11,0.6,1.4
2026-02-05T1400,1759A,124.0972,41.8961,抚顺市,大伙房水库,颗粒物(PM10),94,138,169,3,94,80,,70,70,9,54,9,14,0.4,1.4
2026-02-05T1400,1760A,123.708,41.8386,抚顺市,沈抚新城,颗粒物(PM10),100,149,161,3,81,84,,66,66,13,59,4,10,0.2,0.8
2026-02-05T1400,2377A,116.3544,27.9833,抚州市,市站,,,,72,,57,59,,56,48,23,21,8,10,1.2,1.2
2026-02-05T1400,2378A,116.3562,27.9631,抚州市,血防站,细颗粒物(PM2.5),87,80,71,64,57,57,,53,45,28,22,8,8,1.2,1
2026-02-05T1400,2379A,116.3561,28.0007,抚州市,采茶剧团,细颗粒物(PM2.5),85,76,72,63,54,53,,50,39,21,17,8,8,1.4,1.2
2026-02-05T1400,2380A,116.3854,27.9648,抚州市,医学分院,细颗粒物(PM2.5),78,91,77,57,51,55,,52,43,25,20,7,8,1.3,1.2
2026-02-05T1400,2207A,121.6095,41.9978,阜新市,工业园区,颗粒物(PM10),86,122,143,3,33,79,,78,78,4,23,6,11,0.3,0.6
2026-02-05T1400,2208A,121.6567,42.0188,阜新市,长青街,颗粒物(PM10),63,75,105,3,34,84,,83,83,3,23,5,10,0.2,0.6
2026-02-05T1400,2209A,121.6672,42.07,阜新市,农业园区,颗粒物(PM10),94,138,130,3,25,72,,72,72,5,13,5,7,0.1,0.2
2026-02-05T1400,2211A,121.6343,42.0455,阜新市,玉龙新城,颗粒物(PM10),69,87,121,3,33,77,,76,76,3,27,5,10,0.3,0.6
2026-02-05T1400,2301A,115.8276,32.8929,阜阳市,市监测站,细颗粒物(PM2.5),113,124,130,85,84,108,,58,58,22,39,7,5,0.8,1
2026-02-05T1400,2303A,115.8551,32.8606,阜阳市,开发区,细颗粒物(PM2.5),107,115,125,80,78,102,,55,55,33,42,7,6,0.7,0.7
2026-02-05T1400,2875A,115.783962,32.889217,阜阳市,阜阳职业技术学院,细颗粒物(PM2.5),103,99,105,77,71,116,,65,65,17,30,8,7,0.8,0.7
2026-02-05T1400,3468A,115.79,32.8614,阜阳市,市规划展馆,,,,118,,76,118,,66,66,,27,8,7,,0.9
2026-02-05T1400,3469A,115.835101,32.918568,阜阳市,枣园社区,细颗粒物(PM2.5),112,124,125,84,79,111,,57,57,18,44,7,7,0.8,0.9
2026-02-05T1400,2669A,102.9097,34.9841,甘南藏族自治州,州政府,,42,38,61,29,42,86,,43,43,7,19,9,9,0.5,0.8
2026-02-05T1400,3380A,102.8915,34.9618,甘南藏族自治州,甘肃民族师范学院,,48,48,61,18,31,95,,53,53,11,24,8,9,0.4,0.5
2026-02-05T1400,2570A,101.96,30.048,甘孜藏族自治州,水桥子,,26,26,13,3,9,82,,59,58,5,10,7,6,0.8,1
2026-02-05T1400,3065A,101.9534,29.9976,甘孜藏族自治州,州环保局,,29,18,18,10,11,90,,70,70,6,11,7,6,0.6,0.7
2026-02-05T1400,2363A,114.9368,25.8663,赣州市,地委,,49,49,57,22,24,143,,72,72,12,38,9,8,1.3,1.4
2026-02-05T1400,2364A,114.946,25.8483,赣州市,气象台,,45,41,52,31,27,142,,72,72,16,39,8,7,0.4,0.5
2026-02-05T1400,2365A,114.932,25.8332,赣州市,市图书馆,,42,42,50,20,26,114,,60,60,14,40,4,4,0.8,0.9
2026-02-05T1400,2366A,114.8905,25.8472,赣州市,华坚鞋城,,,42,45,20,24,125,,71,71,16,35,,9,0.5,0.6
2026-02-05T1400,3109A,115.0094,25.8614,赣州市,赣县区卫计委,,45,45,50,22,26,129,,65,65,14,34,7,8,0.7,0.8
2026-02-05T1400,2684A,106.2753,36.0057,固原市,监测站,,30,29,56,9,32,95,,55,55,6,28,8,13,0.4,1.2
2026-02-05T1400,2685A,106.2384,36.0189,固原市,新区,,38,38,69,13,30,91,,41,41,6,55,7,9,0.3,1.2
2026-02-05T1400,2544A,106.6307,30.4577,广安市,市委,细颗粒物(PM2.5),110,108,107,83,79,60,,29,29,15,31,10,7,1.0,1
2026-02-05T1400,2545A,106.6266,30.4662,广安市,友谊中学,细颗粒物(PM2.5),83,106,99,61,66,55,,42,42,7,25,8,6,1.2,1.1
2026-02-05T1400,2547A,106.6386,30.4551,广安市,广电花园,细颗粒物(PM2.5),120,101,96,91,83,54,,26,26,16,26,9,7,0.9,0.9
2026-02-05T1400,2902A,106.6347,30.4868,广安市,北辰小学,细颗粒物(PM2.5),130,128,101,99,82,42,,22,22,18,19,9,8,1.1,0.9
2026-02-05T1400,2524A,105.8211,32.4444,广元市,老城,细颗粒物(PM2.5),105,109,95,79,59,26,,11,11,60,47,21,12,1.7,1.2
2026-02-05T1400,2526A,105.8629,32.429,广元市,监测站,细颗粒物(PM2.5),84,69,77,62,58,32,,13,13,26,33,15,8,1.4,1.8
2026-02-05T1400,3617A,105.8047,32.4167,广元市,经开区,细颗粒物(PM2.5),124,130,98,94,65,16,,6,6,48,44,36,8,2.1,1.5
2026-02-05T1400,1345A,113.2346,23.1423,广州市,广雅中学,,46,46,64,23,34,109,,58,58,27,47,3,3,1.1,1.1
2026-02-05T1400,1346A,113.2611,23.105,广州市,市五中,,,46,62,20,32,136,,61,61,,49,8,7,/,/
2026-02-05T1400,1348A,113.3477,23.0916,广州市,广东商学院,,43,41,63,30,40,126,,49,49,34,63,9,6,0.7,0.7
2026-02-05T1400,1349A,113.4332,23.105,广州市,市八十六中,臭氧1小时(O3_1h),90,62,58,37,31,192,,60,60,48,74,16,9,/,/
2026-02-05T1400,1350A,113.3506,22.9488,广州市,番禺中学,,,86,101,27,32,111,,59,59,34,42,4,3,,0.9
2026-02-05T1400,1351A,113.2147,23.3918,广州市,花都师范,颗粒物(PM10),53,55,80,34,45,106,,42,42,40,78,7,6,0.7,0.8
2026-02-05T1400,1352A,113.2599,23.1329,广州市,市监测站,颗粒物(PM10),51,52,64,28,36,114,,61,61,30,44,4,2,/,/
2026-02-05T1400,1353A,113.5618,23.3119,广州市,九龙镇镇龙,细颗粒物(PM2.5),74,87,75,54,44,164,,61,61,34,50,6,5,0.7,0.7
2026-02-05T1400,1354A,113.2764,23.1544,广州市,麓湖,颗粒物(PM10),51,52,59,30,35,118,,48,48,38,64,6,4,0.7,0.8
2026-02-05T1400,2846A,113.3209,23.1323,广州市,体育西,颗粒物(PM10),54,57,67,30,36,121,,54,54,38,52,10,7,0.8,0.9
2026-02-05T1400,3298A,113.5718,23.5493,广州市,从化街口,,,66,67,47,46,144,,63,63,20,44,,6,0.7,0.8
2026-02-05T1400,3299A,113.3463,23.369,广州市,白云竹料,颗粒物(PM10),58,65,91,39,53,118,,53,53,35,63,5,4,0.7,0.8
2026-02-05T1400,3300A,113.2981,23.2365,广州市,白云嘉禾,颗粒物(PM10),51,52,80,29,43,117,,44,44,38,66,8,6,/,/
2026-02-05T1400,3301A,113.4256,23.1716,广州市,黄埔科学城,"颗粒物(PM10),细颗粒物(PM2.5)",54,57,73,38,46,156,,51,51,39,65,6,4,0.8,0.7
2026-02-05T1400,3302A,113.3942,23.0485,广州市,番禺大学城,颗粒物(PM10),67,84,94,40,46,152,,60,60,32,48,11,9,0.6,0.6
2026-02-05T1400,3303A,113.4923,22.8169,广州市,南沙黄阁,,29,24,55,20,36,79,,40,36,32,40,5,4,/,/
2026-02-05T1400,3304A,113.534,22.7893,广州市,南沙街,,35,25,54,14,31,111,,56,54,23,38,4,4,0.6,0.6
2026-02-05T1400,3443A,113.2905,23.5541,广州市,花都梯面,,49,49,66,31,39,108,,49,49,25,42,6,5,/,/
2026-02-05T1400,3445A,113.786,23.7479,广州市,从化良口,细颗粒物(PM2.5),55,46,29,39,24,137,,64,64,14,21,8,7,/,/
2026-02-05T1400,3446A,113.805,23.2614,广州市,增城荔城,臭氧1小时(O3_1h),63,60,54,40,32,170,,84,84,19,28,6,6,0.5,0.6
2026-02-05T1400,2506A,109.604387,23.066791,贵港市,江南子站,颗粒物(PM10),53,56,72,34,45,80,,40,40,10,27,8,7,0.7,0.8
2026-02-05T1400,2508A,109.5669,23.1065,贵港市,荷城子站,颗粒物(PM10),60,70,67,36,40,60,,42,40,23,35,10,8,1.1,1.1
2026-02-05T1400,3405A,109.5886,23.1172,贵港市,新世纪学校,颗粒物(PM10),64,78,81,43,53,68,,46,46,31,41,/,/,0.8,0.8
2026-02-05T1400,4260A,109.5933,23.095,贵港市,中山路155-3号,细颗粒物(PM2.5),69,75,65,50,47,69,,45,45,21,25,/,/,1.0,0.9
2026-02-05T1400,1439A,106.6863,26.6035,贵阳市,马鞍山,,27,27,27,18,23,33,,24,24,16,16,8,5,/,/
2026-02-05T1400,1441A,106.6241,26.6266,贵阳市,鉴湖路,,35,31,30,24,20,29,,31,29,19,17,4,3,0.8,0.7
2026-02-05T1400,1442A,106.7468,26.6344,贵阳市,燕子冲,,22,22,36,12,28,43,,28,28,11,18,9,8,0.7,0.7
2026-02-05T1400,1443A,106.6556,26.4362,贵阳市,碧云窝,,31,31,39,20,23,37,,29,29,17,17,16,17,/,/
2026-02-05T1400,1445A,106.6963,26.6063,贵阳市,红边门,,23,22,36,16,27,38,,33,28,14,25,11,13,/,/
2026-02-05T1400,1446A,106.7162383,26.56964667,贵阳市,新华路,,34,34,39,13,25,38,,31,31,18,28,8,9,0.7,0.8
2026-02-05T1400,1447A,106.6742,26.542,贵阳市,太慈桥,,29,29,30,17,22,34,,32,32,20,21,4,4,/,/
2026-02-05T1400,4230A,106.688212,26.56952,贵阳市,花果园大街66号,,23,17,27,16,24,27,,25,23,16,24,4,3,/,/
2026-02-05T1400,4231A,106.687268,26.516892,贵阳市,漓江路57号,,31,31,35,17,25,33,,26,26,20,23,10,10,0.8,0.9
2026-02-05T1400,1864A,110.3091,25.2705,桂林市,龙隐路小学,细颗粒物(PM2.5),114,94,103,86,94,7,,3,3,47,38,3,12,1.2,1
2026-02-05T1400,1865A,110.2849361,25.22909545,桂林市,八中,细颗粒物(PM2.5),84,97,102,62,68,8,,4,4,47,37,4,6,1.3,1.1
2026-02-05T1400,3531A,110.296,25.1254,桂林市,旅游学院,细颗粒物(PM2.5),152,,115,116,108,12,,5,5,39,33,,7,0.7,0.7
2026-02-05T1400,4222A,110.1835,25.2444,桂林市,环湖路276号,细颗粒物(PM2.5),132,105,102,100,88,8,,4,4,47,39,10,10,1.4,1.3
2026-02-05T1400,4301A,110.2803,25.2773,桂林市,信义路13号,细颗粒物(PM2.5),98,88,91,73,87,15,,7,7,42,37,5,17,1.5,1.4
2026-02-05T1400,2674A,100.2262,34.4854,果洛藏族自治州,玛沁县大武镇,,35,30,46,6,15,110,,62,62,2,7,12,15,0.1,0.4
2026-02-05T1400,1130A,126.5557,45.8109,哈尔滨市,松北商大,,30,30,72,15,62,74,,58,58,12,26,11,9,0.6,0.8
2026-02-05T1400,1132A,126.6162,45.719,哈尔滨市,南岗学府路,,34,34,61,11,38,73,,66,61,10,22,7,12,0.5,0.7
2026-02-05T1400,1133A,126.6894,45.7733,哈尔滨市,太平宏伟公园,,40,40,80,10,72,70,,62,62,4,26,10,11,0.4,0.7
2026-02-05T1400,1134A,126.6361,45.7672,哈尔滨市,道外承德广场,颗粒物(PM10),80,110,107,9,58,74,,61,61,15,32,9,23,0.2,0.3
2026-02-05T1400,1136A,126.644,45.7261,哈尔滨市,动力和平路,,33,33,59,7,44,73,,65,61,9,20,7,9,0.7,0.9
2026-02-05T1400,1137A,126.5933,45.7479,哈尔滨市,道里建国路,,23,20,59,10,53,72,,57,57,13,30,8,14,0,0.2
2026-02-05T1400,1138A,126.6127,45.6119,哈尔滨市,平房东轻厂,,24,12,61,3,47,74,,57,57,8,41,2,11,0.5,0.8
2026-02-05T1400,1139A,126.5875,45.9827,哈尔滨市,呼兰师专,,35,35,87,3,63,69,,58,58,6,21,10,14,0.6,1.1
2026-02-05T1400,1140A,126.6299,45.6799,哈尔滨市,省农科院,,26,26,59,13,42,75,,64,64,6,23,3,16,0.5,0.8
2026-02-05T1400,4282A,126.6769,45.7379,哈尔滨市,华山路1号,,27,27,62,14,49,66,,63,59,17,23,7,8,0.6,0.8
2026-02-05T1400,4283A,126.9717,45.5356,哈尔滨市,解放大街52号,,26,18,64,18,46,66,,55,55,12,23,12,17,0.5,0.8
2026-02-05T1400,2688A,93.5124,42.8176,哈密市,地区监测站,颗粒物(PM10),53,56,77,34,37,79,,60,60,6,21,9,9,0.1,0.5
2026-02-05T1400,2689A,93.5014,42.8312,哈密市,哈密师范学校,颗粒物(PM10),64,78,96,21,30,75,,55,55,8,36,4,5,0.3,0.9
2026-02-05T1400,2671A,100.9016,36.9464,海北藏族自治州,海晏县西海镇,细颗粒物(PM2.5),64,,50,46,34,96,,82,78,9,9,13,11,0.7,0.7
2026-02-05T1400,3867A,102.074,36.5056,海东市,平安区公安局北苑,细颗粒物(PM2.5),52,37,84,36,63,90,,61,52,8,17,12,21,0.7,1
2026-02-05T1400,4163A,102.0984,36.5119,海东市,滨河路,细颗粒物(PM2.5),53,47,86,37,55,102,,46,46,16,40,12,29,0.7,0.9
2026-02-05T1400,1410A,110.3189,20.0596,海口市,海南大学,,30,20,36,10,17,96,,83,83,5,8,5,5,0.4,0.5
2026-02-05T1400,1411A,110.2827,20.0051,海口市,秀英海南医院,,42,42,38,18,19,96,,78,78,6,10,8,8,0.3,0.4
2026-02-05T1400,1412A,110.3391,19.9979,海口市,海南师范大学,,35,35,39,13,20,99,,80,80,5,8,6,5,0.4,0.5
2026-02-05T1400,1413A,110.3303,20.0359,海口市,龙华路环保局宿舍,,33,33,36,14,21,105,,85,85,7,10,/,/,0.7,0.8
2026-02-05T1400,3539A,110.5111,19.9737,海口市,桂林洋子站,,29,20,35,12,20,92,,74,74,4,8,/,/,/,/
2026-02-05T1400,4134A,110.1952,20.0451,海口市,长滨二路9号,,30,18,29,10,18,95,,71,71,4,9,/,/,/,/
2026-02-05T1400,2673A,100.6158,36.2985,海南藏族自治州,共和县恰卜恰镇,,32,32,36,8,18,86,,57,57,2,18,14,13,0.3,0.4
2026-02-05T1400,2676A,97.373,37.376,海西蒙古族藏族自治州,德令哈市,,33,27,24,8,10,105,,95,91,2,9,14,12,0.4,0.5
2026-02-05T1400,1049A,114.492,36.5712,邯郸市,矿院,颗粒物(PM10),71,92,132,26,105,81,,50,50,1,50,2,11,0.3,1.2
2026-02-05T1400,1050A,114.4839,36.6136,邯郸市,丛台公园,颗粒物(PM10),65,80,134,34,91,83,,55,55,11,45,2,16,0.4,1.3
2026-02-05T1400,3458A,114.7893,36.5592,邯郸市,香泉濮院小区,颗粒物(PM10),92,133,170,24,92,83,,48,48,11,37,3,13,0.3,1.1
2026-02-05T1400,3580A,114.1998,36.4439,邯郸市,峰峰矿区临水派出所,颗粒物(PM10),60,70,83,32,48,88,,86,79,8,11,6,17,0.6,0.9
2026-02-05T1400,4068A,114.5209,36.7697,邯郸市,建安街268号,颗粒物(PM10),64,77,134,16,95,79,,41,41,14,56,2,10,0.2,1.1
2026-02-05T1400,4069A,114.5488,36.6177,邯郸市,丛台东路558号,颗粒物(PM10),67,83,150,24,100,86,,42,42,5,60,1,13,0.4,1.4
2026-02-05T1400,2635A,107.0155,33.0707,汉中市,市监测站,细颗粒物(PM2.5),74,91,99,54,71,70,,28,28,19,35,6,8,0.9,1.5
2026-02-05T1400,2636A,107.0083,33.114,汉中市,鑫源开发区,细颗粒物(PM2.5),73,73,101,53,78,72,,32,32,18,39,6,9,0.8,1.4
2026-02-05T1400,2637A,107.0072,33.0323,汉中市,南郑大河坎水厂,颗粒物(PM10),69,87,96,47,64,75,,31,31,19,28,8,7,0.9,1.1
2026-02-05T1400,1223A,120.2073,30.2111,杭州市,滨江,细颗粒物(PM2.5),109,107,112,82,74,11,,5,5,73,77,7,8,1.0,0.9
2026-02-05T1400,1224A,120.0625,30.2737,杭州市,西溪,细颗粒物(PM2.5),130,122,92,99,63,6,,2,2,64,48,9,9,1.1,1
2026-02-05T1400,1226A,120.3417,30.315,杭州市,下沙,细颗粒物(PM2.5),127,129,110,96,78,8,,7,5,88,86,8,9,0.8,0.7
2026-02-05T1400,1227A,120.1252,30.2465,杭州市,卧龙桥,细颗粒物(PM2.5),104,110,82,78,58,12,,8,8,63,51,10,9,0.6,0.5
2026-02-05T1400,1228A,120.1902,30.2691,杭州市,浙江农大,细颗粒物(PM2.5),109,108,106,82,69,6,,4,4,80,86,6,6,0.9,0.8
2026-02-05T1400,1230A,120.1195,30.3121,杭州市,和睦小学,细颗粒物(PM2.5),117,123,115,88,75,6,,5,5,65,74,6,6,1.0,1
2026-02-05T1400,1231A,120.3076,30.4146,杭州市,临平镇,细颗粒物(PM2.5),115,111,114,87,79,16,,12,8,68,69,7,8,,0.8
2026-02-05T1400,1232A,120.2753,30.1839,杭州市,城厢镇,细颗粒物(PM2.5),123,125,110,93,74,11,,12,6,86,80,8,9,1.2,0.9
2026-02-05T1400,1233A,120.0883,30.1808,杭州市,云栖,细颗粒物(PM2.5),79,78,71,58,44,36,,15,15,47,55,6,5,0.6,0.6
2026-02-05T1400,3557A,119.9463,30.0496,杭州市,镇二中,细颗粒物(PM2.5),114,96,84,86,73,18,,7,7,59,63,6,6,1.0,1.2
2026-02-05T1400,3558A,119.7184,30.2367,杭州市,市府大楼,细颗粒物(PM2.5),117,90,79,88,67,10,,6,6,41,42,11,11,1.1,1
2026-02-05T1400,3656A,120.1554,30.2863,杭州市,消防大队,细颗粒物(PM2.5),124,129,113,94,79,5,,4,4,70,75,7,7,1.1,0.9
2026-02-05T1400,1270A,117.1957,31.7845,合肥市,明珠广场,颗粒物(PM10),69,88,87,46,46,79,,28,28,51,86,7,7,0.6,0.9
2026-02-05T1400,1271A,117.307,31.8765,合肥市,三里街,细颗粒物(PM2.5),77,80,95,56,50,93,,28,28,24,76,6,7,0.8,1.2
2026-02-05T1400,1272A,117.2587,31.8703,合肥市,琥珀山庄,细颗粒物(PM2.5),77,90,88,56,46,102,,31,31,24,67,8,7,1.1,1.2
2026-02-05T1400,1275A,117.2593,31.9376,合肥市,庐阳区,细颗粒物(PM2.5),84,90,94,62,46,111,,44,44,23,71,7,6,0.9,0.9
2026-02-05T1400,1276A,117.345251,31.861615,合肥市,瑶海区,颗粒物(PM10),67,83,84,46,42,99,,30,30,31,86,6,6,0.6,0.8
2026-02-05T1400,1277A,117.3033,31.7967,合肥市,包河区,颗粒物(PM10),69,88,82,47,43,72,,22,22,52,86,9,11,0.8,1
2026-02-05T1400,1278A,117.278,31.7392,合肥市,滨湖新区,颗粒物(PM10),73,95,72,51,42,61,,30,30,63,51,5,4,0.8,0.9
2026-02-05T1400,1279A,117.1324,31.8395,合肥市,高新区,细颗粒物(PM2.5),69,80,78,50,40,104,,37,37,14,63,6,5,0.7,0.8
2026-02-05T1400,3464A,117.3802,31.9148,合肥市,高教基地,细颗粒物(PM2.5),67,78,74,48,36,111,,40,40,19,55,10,9,0.7,0.7
2026-02-05T1400,4098A,117.2518,31.8404,合肥市,中国科学技术大学,细颗粒物(PM2.5),72,88,81,52,40,100,,33,33,26,69,12,9,0.9,1.1
2026-02-05T1400,3614A,79.9241,37.0878,和田地区,地区环保局,,,,228,64,37,79,,70,70,6,14,3,4,0.4,0.6
2026-02-05T1400,3615A,79.9132,37.1137,和田地区,市环保局,颗粒物(PM10),273,401,234,28,38,104,,71,71,1,33,1,4,0.3,0.6
2026-02-05T1400,2517A,108.0496,24.6957,河池市,市环保站,细颗粒物(PM2.5),166,166,120,126,109,31,,13,13,26,33,4,4,1.2,1.3
2026-02-05T1400,4302A,108.0901,24.6945,河池市,上任中路54号,细颗粒物(PM2.5),142,137,124,108,110,28,,10,10,25,28,6,6,1.5,1.6
2026-02-05T1400,1697A,114.6962,23.7538,河源市,东埔,,44,37,49,29,34,139,,63,63,14,43,6,6,0.7,0.9
2026-02-05T1400,1698A,114.6895,23.7232,河源市,老城,,49,49,42,30,28,136,,67,67,13,29,6,6,0.7,0.8
2026-02-05T1400,3374A,115.5562,35.089,菏泽市,定陶老年大学,细颗粒物(PM2.5),185,193,172,139,130,84,,36,36,34,39,13,7,0.9,0.9
2026-02-05T1400,4114A,115.4239,35.2593,菏泽市,黄河路600号,细颗粒物(PM2.5),200,207,191,150,134,115,,38,38,35,65,11,6,1.0,1.2
2026-02-05T1400,4115A,115.5025,35.2727,菏泽市,菏泽市人社局,细颗粒物(PM2.5),199,195,190,149,137,108,,32,32,35,58,18,13,1.0,1.2
2026-02-05T1400,4184A,115.479691,35.244011,菏泽市,永昌路1号,细颗粒物(PM2.5),198,197,190,148,137,115,,39,39,27,50,13,6,0.8,1
2026-02-05T1400,4193A,115.471542,35.280012,菏泽市,长城路999号,细颗粒物(PM2.5),183,207,180,138,125,112,,32,32,36,57,14,9,1.2,1.3
2026-02-05T1400,2514A,111.5264,24.4178,贺州市,环保小区,颗粒物(PM10),56,61,83,34,51,73,,34,34,17,40,4,4,0.5,0.8
2026-02-05T1400,2515A,111.561,24.4074,贺州市,政协大楼,,45,33,52,31,38,85,,59,59,13,27,5,11,0.8,0.8
2026-02-05T1400,3534A,111.4744,24.455,贺州市,西湾,颗粒物(PM10),55,60,81,32,48,84,,43,43,16,40,5,5,0.7,0.9
2026-02-05T1400,2385A,114.17,35.9019,鹤壁市,市监测站,细颗粒物(PM2.5),93,118,108,69,67,77,,65,65,33,25,10,9,1.0,0.9
2026-02-05T1400,2386A,114.2953,35.7512,鹤壁市,市交警支队,细颗粒物(PM2.5),118,138,132,89,84,72,,39,39,33,47,10,11,0.7,1
2026-02-05T1400,2387A,114.2877,35.7302,鹤壁市,迎宾馆,颗粒物(PM10),107,163,132,79,77,43,,26,,32,48,,9,,1.1
2026-02-05T1400,3474A,114.2616,35.6824,鹤壁市,大新区,细颗粒物(PM2.5),114,122,121,86,87,83,,41,41,28,54,12,11,,1.2
2026-02-05T1400,3596A,114.1573,35.9607,鹤壁市,南山宾馆,细颗粒物(PM2.5),93,131,116,69,67,80,,80,74,23,19,10,14,0.7,0.7
2026-02-05T1400,2244A,130.2537,47.3416,鹤岗市,哈啤分公司,,28,14,28,3,18,87,,80,80,2,10,6,7,0.3,0.5
2026-02-05T1400,2245A,130.2683,47.3087,鹤岗市,斯达机电,,25,18,44,3,20,77,,63,63,4,18,5,8,0.5,0.7
2026-02-05T1400,2246A,130.3114,47.3388,鹤岗市,东山纸板厂,,36,36,62,3,31,79,,68,68,5,28,8,13,0.3,0.9
2026-02-05T1400,2263A,127.4832,50.2524,黑河市,交通局,,22,18,28,15,23,70,,66,66,1,14,6,7,0.3,0.4
2026-02-05T1400,2264A,127.5146,50.2339,黑河市,环保局,,22,22,29,7,19,64,,63,62,8,19,5,7,0.5,0.6
2026-02-05T1400,1074A,115.6839,37.754,衡水市,电机北厂,颗粒物(PM10),159,268,174,30,105,74,,47,47,18,46,4,11,0.0,0.7
2026-02-05T1400,1075A,115.6303,37.7318,衡水市,市监测站,颗粒物(PM10),142,233,159,15,98,73,,48,48,18,51,5,12,0.1,1
2026-02-05T1400,3188A,115.6684,37.7216,衡水市,市城管局,颗粒物(PM10),172,294,179,24,94,73,,50,50,,55,7,15,,1
2026-02-05T1400,3459A,115.599,37.5491,衡水市,地表水厂,颗粒物(PM10),118,186,160,16,108,75,,47,47,9,62,4,13,0.3,1
2026-02-05T1400,2457A,112.6209,26.9268,衡阳市,衡阳化工总厂,细颗粒物(PM2.5),123,103,101,93,79,62,,26,26,25,33,33,19,1.3,1.2
2026-02-05T1400,2458A,112.621,26.8957,衡阳市,珠晖区环保局,细颗粒物(PM2.5),109,101,100,82,72,58,,26,26,32,43,15,15,1.4,1.4
2026-02-05T1400,2459A,112.628,26.8654,衡阳市,市委党校,细颗粒物(PM2.5),128,117,94,97,75,63,,27,27,27,33,28,20,1.4,1.6
2026-02-05T1400,2460A,112.6007,26.8977,衡阳市,市监测站,细颗粒物(PM2.5),103,126,124,77,75,51,,23,23,35,42,14,14,1.3,1.5
2026-02-05T1400,2461A,112.5658,26.9013,衡阳市,真空机电公司,细颗粒物(PM2.5),118,107,114,89,90,55,,21,21,32,48,14,21,1.3,1.5
2026-02-05T1400,3399A,112.6703,26.8817,衡阳市,师范学院,细颗粒物(PM2.5),87,97,106,64,67,69,,26,26,31,44,8,16,1.2,1.2
2026-02-05T1400,3038A,103.3757,23.3679,红河哈尼族彝族自治州,州图书馆,,35,29,43,19,30,110,,63,63,5,11,10,8,0.5,0.6
2026-02-05T1400,4154A,103.401,23.3561,红河哈尼族彝族自治州,蒙自市朝阳路,,30,,23,20,25,96,,67,67,3,7,6,7,0.3,0.4
2026-02-05T1400,1090A,111.6506,40.7517,呼和浩特市,呼市一监,,25,12,66,3,28,80,,72,72,7,20,8,10,0.3,0.5
2026-02-05T1400,1094A,111.7516,40.8369,呼和浩特市,如意水处理厂,,26,11,44,6,18,82,,75,75,5,15,8,11,0.2,0.2
2026-02-05T1400,1095A,111.727798,40.806187,呼和浩特市,二十九中,,25,7,53,3,18,80,,73,73,2,12,10,13,0.3,0.4
2026-02-05T1400,1097A,111.717,40.7617,呼和浩特市,化肥厂生活区,,27,12,56,3,20,85,,76,76,5,19,4,7,0.2,0.4
2026-02-05T1400,3699A,111.6519,40.8389,呼和浩特市,海东办,,27,9,48,3,17,84,,76,76,5,15,5,6,0.2,0.4
2026-02-05T1400,4275A,111.591512,40.827312,呼和浩特市,成吉思汗西街8号,,24,7,57,6,18,76,,70,70,4,18,5,6,0.2,0.4
2026-02-05T1400,4276A,111.6597,40.8077,呼和浩特市,公园东路75号,,23,7,56,6,19,73,,65,65,8,19,6,8,0.3,0.5
2026-02-05T1400,4277A,111.5427,40.7846,呼和浩特市,金海路35号,,25,16,66,7,22,78,,72,72,6,21,6,8,0.3,0.4
2026-02-05T1400,3061A,119.7511,49.1576,呼伦贝尔市,国华电力东,,30,30,25,11,12,68,,66,65,10,12,5,6,0.3,0.3
2026-02-05T1400,4279A,119.7569,49.2222,呼伦贝尔市,伊敏大街东7号,,35,35,27,17,12,71,,73,68,2,2,7,7,0.4,0.5
2026-02-05T1400,1250A,120.075,30.867,湖州市,城西水厂,细颗粒物(PM2.5),119,113,86,90,66,16,,15,15,68,65,7,6,0.7,0.7
2026-02-05T1400,2873A,120.083,30.8929,湖州市,仁皇山新区,细颗粒物(PM2.5),103,111,89,77,65,12,,11,11,83,67,6,6,1.1,0.9
2026-02-05T1400,2907A,120.1846,30.8592,湖州市,吴兴区站,细颗粒物(PM2.5),120,118,104,91,77,27,,13,13,53,60,6,6,0.7,0.7
2026-02-05T1400,3562A,120.4146,30.8538,湖州市,南浔区站,细颗粒物(PM2.5),119,122,103,90,72,39,,19,19,,63,8,8,0.8,0.8
2026-02-05T1400,1607A,120.904878,40.721091,葫芦岛市,龙港区,颗粒物(PM10),65,80,203,3,79,76,,70,70,4,44,4,23,0.2,1.1
2026-02-05T1400,1608A,120.8382,40.7521,葫芦岛市,化工街,颗粒物(PM10),58,66,182,3,80,74,,68,68,10,49,10,24,0.3,0.8
2026-02-05T1400,1609A,120.8339,40.7078,葫芦岛市,新区,颗粒物(PM10),56,62,136,3,79,78,,72,72,10,49,6,22,0.4,1
2026-02-05T1400,1610A,120.8697,40.7679,葫芦岛市,东城区,颗粒物(PM10),59,67,137,9,78,77,,70,70,6,41,6,20,0.3,0.9
2026-02-05T1400,2483A,109.9297,27.5383,怀化市,河西地税局,颗粒物(PM10),89,128,111,58,60,48,,32,32,19,27,1,2,/,/
2026-02-05T1400,2484A,109.9783,27.5342,怀化市,市四医院,颗粒物(PM10),90,129,118,56,62,14,,7,7,14,19,9,10,0.8,0.9
2026-02-05T1400,2485A,109.9971,27.5579,怀化市,监测楼,细颗粒物(PM2.5),90,119,109,67,71,45,,28,28,15,23,6,6,0.3,0.4
2026-02-05T1400,1210A,119.0566,33.5991,淮安市,钵池山,细颗粒物(PM2.5),139,129,119,106,99,119,,65,65,20,40,12,10,0.7,1
2026-02-05T1400,1211A,119.0083,33.578,淮安市,北京南路,细颗粒物(PM2.5),135,122,117,103,92,113,,52,52,21,58,11,9,0.7,0.9
2026-02-05T1400,1212A,118.9938,33.6083,淮安市,市监测站,细颗粒物(PM2.5),149,124,114,114,95,110,,53,53,23,51,14,11,0.7,0.8
2026-02-05T1400,1213A,119.135,33.5038,淮安市,楚州区监测站,细颗粒物(PM2.5),137,129,129,104,97,109,,45,45,21,55,10,8,0.9,0.9
2026-02-05T1400,3426A,118.8757,33.2897,淮安市,新华书店,细颗粒物(PM2.5),142,146,126,108,95,104,,52,52,19,44,,10,0.9,0.9
2026-02-05T1400,4092A,119.119691,33.550006,淮安市,枚皋中路89号,细颗粒物(PM2.5),145,147,119,111,96,114,,52,52,19,35,12,9,0.7,0.7
2026-02-05T1400,4206A,119.028838,33.631911,淮安市,承德北路606号,细颗粒物(PM2.5),137,144,140,104,91,125,,58,58,20,60,13,9,0.7,1
2026-02-05T1400,2282A,116.8005,33.9749,淮北市,监测站,细颗粒物(PM2.5),163,164,144,124,97,109,,49,49,,38,6,6,0.8,1.1
2026-02-05T1400,2283A,116.8094,33.9008,淮北市,烈山区政府,细颗粒物(PM2.5),169,169,151,128,103,109,,55,55,24,46,3,6,0.7,0.7
2026-02-05T1400,4017A,116.7926,33.9534,淮北市,市博物馆,细颗粒物(PM2.5),160,166,144,122,106,107,,55,55,20,42,4,5,0.8,0.9
2026-02-05T1400,4100A,116.8322,33.9884,淮北市,杜集区第一实验学校,细颗粒物(PM2.5),188,177,151,141,106,107,,50,50,23,31,6,5,0.8,0.9
2026-02-05T1400,2277A,116.8304,32.7726,淮南市,潘集区政府,细颗粒物(PM2.5),119,122,113,90,65,97,,53,53,,43,8,8,0.7,0.7
2026-02-05T1400,2279A,116.8569,32.5949,淮南市,谢家集区政府,细颗粒物(PM2.5),89,106,73,66,40,103,,90,75,29,20,12,9,0.9,0.8
2026-02-05T1400,2280A,116.8279,32.6333,淮南市,八公山区政府,细颗粒物(PM2.5),110,124,79,83,50,100,,98,87,30,16,8,5,0.8,0.7
2026-02-05T1400,2894A,117.0561,32.6536,淮南市,经济技术开发区消防队,细颗粒物(PM2.5),109,123,91,82,52,98,,42,42,30,54,10,7,0.6,0.6
2026-02-05T1400,3329A,117.011,32.5891,淮南市,山南新区,细颗粒物(PM2.5),92,107,69,68,42,115,,69,69,21,31,11,8,0.7,0.6
2026-02-05T1400,4209A,117.003137,32.644456,淮南市,国庆中路369号,细颗粒物(PM2.5),107,113,80,80,51,97,,41,41,25,42,,8,0.6,0.7
2026-02-05T1400,2446A,114.9021,30.474,黄冈市,职工中心,细颗粒物(PM2.5),94,84,64,70,49,45,,28,28,27,27,6,5,0.9,0.8
2026-02-05T1400,2929A,114.8858,30.4519,黄冈市,红卫路,,,92,66,59,46,54,,40,40,20,29,7,6,,0.8
2026-02-05T1400,3398A,114.9134,30.4446,黄冈市,市林业局,细颗粒物(PM2.5),85,90,70,63,52,47,,34,34,22,27,4,4,0.9,0.7
2026-02-05T1400,2672A,102.02,35.5101,黄南藏族自治州,同仁县隆务镇,细颗粒物(PM2.5),57,60,70,40,43,93,,71,71,12,9,10,10,0.6,0.8
2026-02-05T1400,2295A,118.2905,29.6965,黄山市,延安路89号,细颗粒物(PM2.5),70,56,52,51,41,29,,10,10,23,24,4,4,0.7,0.7
2026-02-05T1400,2297A,118.1369,30.2755,黄山市,黄山区政府5号楼,,35,25,34,24,26,45,,26,26,12,12,2,2,0.6,0.7
2026-02-05T1400,4210A,118.335445,29.720283,黄山市,滨江东路7-2号,细颗粒物(PM2.5),73,79,74,53,44,12,,9,9,33,27,/,/,/,/
2026-02-05T1400,2423A,115.0547,30.2332,黄石市,沈家营,细颗粒物(PM2.5),75,94,83,55,43,58,,40,40,33,32,7,6,1.2,1.2
2026-02-05T1400,2426A,114.899,30.211,黄石市,铁山,细颗粒物(PM2.5),99,76,77,74,61,59,,17,17,27,35,15,8,2.0,0.9
2026-02-05T1400,2427A,115.0259,30.2108,黄石市,团城山,细颗粒物(PM2.5),82,81,81,60,53,44,,20,20,17,29,7,7,1.1,1
2026-02-05T1400,3149A,115.0174,30.1591,黄石市,笔架山北路,细颗粒物(PM2.5),103,103,100,77,54,53,,35,35,31,28,10,7,1.5,1.2
2026-02-05T1400,4185A,115.078022,30.21118,黄石市,磁湖东路29号,,,,79,,52,50,,23,23,20,28,7,7,,1.2
2026-02-05T1400,1392A,114.4181,23.0528,惠州市,河南岸金山湖子站,,40,40,57,24,32,122,,69,69,20,24,4,5,0.7,0.8
2026-02-05T1400,1393A,114.4055,23.0824,惠州市,下埔横江三路子站,,44,29,62,15,34,138,,78,78,12,31,6,8,0.4,0.6
2026-02-05T1400,1395A,114.4645,22.7832,惠州市,惠阳区承修路船湖子站,,39,22,48,14,26,122,,76,76,17,29,6,7,0.5,0.6
2026-02-05T1400,1396A,114.5316,22.7423,惠州市,大亚湾管委会子站,,33,27,51,13,26,105,,60,60,25,36,7,7,0.5,0.6
2026-02-05T1400,3314A,114.4334,22.8134,惠州市,惠阳秋长,,45,31,54,11,24,143,,96,96,18,31,/,/,/,/
2026-02-05T1400,3452A,114.6521,22.7755,惠州市,大亚湾霞涌,颗粒物(PM10),57,64,42,22,21,150,,100,100,22,24,/,/,/,/
2026-02-05T1400,4300A,114.4089,23.1147,惠州市,文华一路1号,,44,23,51,12,29,138,,84,84,14,32,/,/,/,/
2026-02-05T1400,2240A,130.9618,45.2926,鸡西市,环保局,颗粒物(PM10),64,77,64,8,20,73,,67,67,10,12,8,9,0.2,0.3
2026-02-05T1400,2243A,130.9294,45.2959,鸡西市,第一中学,,34,34,44,6,28,70,,64,62,13,20,5,6,0.3,0.4
2026-02-05T1400,3707A,131.0069,45.2988,鸡西市,欧美日汽修厂,,26,26,77,6,34,70,,67,67,6,11,11,12,0.5,0.6
2026-02-05T1400,2367A,114.9753,27.0803,吉安市,红声器材厂,,,92,81,55,58,114,,55,55,,25,11,13,0.8,0.8
2026-02-05T1400,2369A,114.9903,27.1313,吉安市,市环境监测站,细颗粒物(PM2.5),59,63,73,42,60,119,,55,55,17,29,10,12,/,/
2026-02-05T1400,2370A,115.009527,27.096792,吉安市,青原区法院,细颗粒物(PM2.5),72,66,75,52,57,120,,50,50,18,26,13,13,0.8,0.8
2026-02-05T1400,1772A,126.54,43.8622,吉林市,哈达湾,颗粒物(PM10),55,60,100,8,72,89,,73,73,9,33,6,18,0.5,1.2
2026-02-05T1400,1773A,126.5843,43.8358,吉林市,东局子,,22,9,73,9,67,69,,50,50,12,32,5,7,0.8,1.3
2026-02-05T1400,1774A,126.5051,43.8243,吉林市,电力学院,,31,31,80,9,65,82,,66,66,8,32,5,25,0.4,1
2026-02-05T1400,1775A,126.6133,43.8971,吉林市,江北,,,34,77,9,61,71,,56,56,,29,6,9,0.6,0.9
2026-02-05T1400,1776A,126.5549,43.8304,吉林市,江南公园,,,26,77,8,64,75,,53,53,9,34,8,16,,0.9
2026-02-05T1400,2868A,126.4737,43.953,吉林市,九站,,23,23,74,8,60,72,,57,57,17,34,5,14,0.5,0.8
2026-02-05T1400,1299A,116.9866,36.6118,济南市,科干所,颗粒物(PM10),107,163,144,39,90,68,,80,51,24,30,7,13,0.6,0.9
2026-02-05T1400,1300A,116.9379,36.6652,济南市,农科所,颗粒物(PM10),136,222,168,39,116,73,,50,37,24,54,7,11,0.8,1.1
2026-02-05T1400,1301A,117.1265,36.6736,济南市,开发区,颗粒物(PM10),112,173,146,48,95,82,,86,59,36,43,6,7,0.7,0.9
2026-02-05T1400,1303A,117.0616,36.6865,济南市,省种子仓库,颗粒物(PM10),130,210,164,48,104,73,,35,35,25,58,9,10,0.7,1.1
2026-02-05T1400,1304A,116.9495185,36.644937,济南市,机床二厂,颗粒物(PM10),131,212,166,47,115,75,,49,42,21,52,6,22,0.4,0.8
2026-02-05T1400,1305A,117.0496,36.6629,济南市,市监测站,颗粒物(PM10),120,190,152,46,103,74,,63,39,25,49,6,7,0.8,1.1
2026-02-05T1400,1306A,116.7674,36.5458,济南市,长清党校,颗粒物(PM10),134,217,160,21,100,70,,50,47,35,56,4,7,0.8,1
2026-02-05T1400,1961A,117.5323,36.6865,济南市,东山小学,颗粒物(PM10),193,335,143,82,78,74,,59,59,38,48,9,7,0.9,0.8
2026-02-05T1400,3059A,117.7181,36.205,济南市,泰兴公司,细颗粒物(PM2.5),110,156,181,83,121,92,,48,48,33,59,12,11,1.1,1.5
2026-02-05T1400,3064A,117.6861,36.2172,济南市,莱芜战役纪念馆,细颗粒物(PM2.5),98,141,174,73,121,91,,45,45,31,64,16,15,0.8,1.5
2026-02-05T1400,3494A,117.1673,36.9782,济南市,济阳区政府,细颗粒物(PM2.5),160,220,168,122,112,74,,44,44,29,50,11,10,1.5,1.1
2026-02-05T1400,3495A,117.1168,36.6299,济南市,锦屏中学,颗粒物(PM10),112,173,132,44,91,76,,82,67,24,28,6,7,0.5,0.7
2026-02-05T1400,4108A,117.7107,36.2385,济南市,山财大街5号,颗粒物(PM10),90,129,154,64,105,90,,50,50,50,71,16,13,0.9,1.3
2026-02-05T1400,4109A,116.9744,36.6889,济南市,无影山路12号,颗粒物(PM10),134,217,166,42,112,71,,56,41,18,43,7,14,0.9,1.3
2026-02-05T1400,1653A,116.6229,35.4288,济宁市,火炬城,细颗粒物(PM2.5),162,171,145,123,114,120,,46,46,22,37,8,5,1.0,1
2026-02-05T1400,3500A,116.5808,35.3703,济宁市,北湖一中,细颗粒物(PM2.5),155,163,143,118,120,121,,57,57,25,39,14,9,0.7,0.9
2026-02-05T1400,3501A,116.8251,35.5592,济宁市,服务中心,细颗粒物(PM2.5),180,192,178,136,117,108,,41,41,24,45,10,6,1.0,1
2026-02-05T1400,3678A,116.5907,35.4054,济宁市,市第七中学,细颗粒物(PM2.5),159,164,149,121,120,130,,57,57,23,42,18,14,0.9,1
2026-02-05T1400,4111A,116.6075,35.4566,济宁市,任和路,细颗粒物(PM2.5),166,189,170,126,111,124,,43,43,23,48,13,7,1.0,0.9
2026-02-05T1400,4112A,116.5648,35.3921,济宁市,文体南路1号,细颗粒物(PM2.5),169,190,180,128,127,121,,51,51,24,45,11,7,0.8,1
2026-02-05T1400,2255A,130.2749,46.8028,佳木斯市,佳纺,,24,24,61,10,37,68,,56,56,7,36,5,7,0.4,0.6
2026-02-05T1400,2257A,130.3258,46.7975,佳木斯市,环保局,,,,61,,43,62,,48,48,12,39,,8,0.4,0.6
2026-02-05T1400,4285A,130.363,46.806,佳木斯市,顺和街,,22,18,45,13,34,69,,56,56,7,30,4,6,0.3,0.5
2026-02-05T1400,4286A,130.3952,46.8268,佳木斯市,长安路196号,,24,22,44,3,32,74,,62,62,4,29,5,6,0.5,0.7
2026-02-05T1400,1252A,120.7439,30.778,嘉兴市,清河小学,细颗粒物(PM2.5),104,97,109,78,77,32,,19,19,77,86,7,7,0.2,0.3
2026-02-05T1400,1253A,120.7261,30.7477,嘉兴市,嘉兴学院,细颗粒物(PM2.5),98,112,118,73,76,26,,14,14,71,80,5,7,0.7,1
2026-02-05T1400,2872A,120.7845,30.7524,嘉兴市,南湖区残联,细颗粒物(PM2.5),113,85,95,85,78,37,,29,29,81,81,5,6,0.6,0.7
2026-02-05T1400,3407A,120.6915,30.7741,嘉兴市,秀洲住建,细颗粒物(PM2.5),99,98,104,74,70,40,,22,22,61,77,7,8,0.7,0.7
2026-02-05T1400,1945A,98.291,39.7705,嘉峪关市,气象局,颗粒物(PM10),128,205,105,74,43,82,,66,66,5,15,1,9,0.3,0.4
2026-02-05T1400,2884A,98.2672,39.7978,嘉峪关市,酒钢宾馆,颗粒物(PM10),140,229,112,49,37,82,,60,60,2,17,20,20,0.5,0.8
2026-02-05T1400,3248A,98.2644,39.7723,嘉峪关市,雄关区,细颗粒物(PM2.5),170,,90,129,39,73,,60,60,16,23,12,16,0.4,0.6
2026-02-05T1400,1383A,113.1063,22.6058,江门市,北街,,40,34,48,16,32,128,,84,84,14,20,/,/,/,/
2026-02-05T1400,1384A,113.073,22.5835,江门市,西区,,44,33,49,16,30,138,,86,86,14,25,/,/,/,/
2026-02-05T1400,1385A,113.0218,22.531,江门市,圭峰西,颗粒物(PM10),51,52,42,26,27,148,,79,79,13,18,/,/,/,/
2026-02-05T1400,1386A,113.0826,22.5947,江门市,东湖,,42,25,51,10,30,134,,84,84,11,20,8,8,0.4,0.6
2026-02-05T1400,3311A,113.1077,22.5647,江门市,江海富民,颗粒物(PM10),52,54,74,19,30,140,,84,84,14,26,/,/,0.4,0.6
2026-02-05T1400,3449A,113.0496,22.4669,江门市,新会银湖,,44,44,44,13,29,116,,62,62,11,27,6,6,0.4,0.6
2026-02-05T1400,3335A,113.3137,35.2643,焦作市,马村街道办,颗粒物(PM10),86,121,120,60,66,77,,45,45,26,30,16,12,0.9,1
2026-02-05T1400,3336A,113.2464,35.2374,焦作市,焦作技师学院,细颗粒物(PM2.5),85,106,112,63,64,80,,36,36,26,43,17,12,0.9,1.2
2026-02-05T1400,3477A,113.1656,35.2536,焦作市,中站许衡医院,细颗粒物(PM2.5),77,101,82,56,45,88,,78,72,23,26,19,11,1.0,0.8
2026-02-05T1400,3981A,113.2456,35.18,焦作市,原李万街道办,颗粒物(PM10),94,137,123,56,72,80,,44,44,25,40,19,14,0.9,1
2026-02-05T1400,4264A,113.234,35.219,焦作市,新安路1731号,细颗粒物(PM2.5),92,101,120,68,63,85,,40,40,23,41,18,11,0.8,0.9
2026-02-05T1400,4295A,113.2722,35.2121,焦作市,人民路3066号,颗粒物(PM10),81,111,127,58,79,71,,33,33,31,50,19,11,1.0,1.2
2026-02-05T1400,1708A,116.3701,23.5345,揭阳市,新兴,,41,41,78,20,45,118,,66,66,14,37,7,9,0.6,1
2026-02-05T1400,1709A,116.3261,23.5442,揭阳市,西马,,44,44,85,22,47,130,,76,76,11,33,6,8,0.6,0.9
2026-02-05T1400,1710A,116.361,23.5627,揭阳市,东兴,,,69,81,23,45,136,,77,77,15,36,,12,/,/
2026-02-05T1400,1711A,116.4151,23.5295,揭阳市,渔湖,,41,40,78,16,47,130,,73,73,10,35,6,7,/,/
2026-02-05T1400,3320A,116.4028,23.5699,揭阳市,曲溪,颗粒物(PM10),57,64,77,22,46,157,,86,86,13,34,4,8,0.7,1
2026-02-05T1400,1944A,102.1691,38.5166,金昌市,天庆家园,颗粒物(PM10),54,58,67,20,32,77,,54,54,4,19,4,17,0.3,0.6
2026-02-05T1400,4022A,102.1648,38.5369,金昌市,金川区人防中心,,,60,54,23,24,77,,65,61,,13,7,14,0.3,0.5
2026-02-05T1400,4239A,102.193042,38.531887,金昌市,长春路96号,颗粒物(PM10),58,66,56,20,25,73,,60,49,4,18,6,14,0.6,0.9
2026-02-05T1400,1262A,119.6478,29.0773,金华市,十五中,细颗粒物(PM2.5),104,121,103,78,63,61,,29,29,71,59,4,3,1.0,1.1
2026-02-05T1400,1263A,119.6859,29.1032,金华市,监测站,细颗粒物(PM2.5),92,112,103,68,60,73,,24,24,52,66,4,4,0.7,0.8
2026-02-05T1400,3659A,119.656,29.1132,金华市,气象局,细颗粒物(PM2.5),109,127,114,82,71,41,,17,17,89,82,6,5,1.1,1.2
2026-02-05T1400,1767A,121.1114,41.0879,锦州市,南山,颗粒物(PM10),53,55,121,6,66,87,,84,84,1,28,6,24,0.4,0.9
2026-02-05T1400,1768A,121.060361,40.842794,锦州市,开发区,,,,177,9,74,74,,71,71,,33,,12,0.3,1
2026-02-05T1400,1769A,121.1836,41.1118,锦州市,百股街道,颗粒物(PM10),60,70,153,7,68,84,,81,81,6,30,4,10,0.3,1
2026-02-05T1400,1770A,121.1176,41.1224,锦州市,天安街道,颗粒物(PM10),56,62,131,6,57,92,,87,87,5,25,3,9,0.4,0.8
2026-02-05T1400,1771A,121.1303,41.1385,锦州市,北湖公园,,49,49,118,7,57,86,,83,83,5,21,6,12,0.4,0.7
2026-02-05T1400,2160A,112.8496,35.5051,晋城市,自来水公司,颗粒物(PM10),59,67,106,3,45,90,,51,48,14,33,13,13,0.9,1.4
2026-02-05T1400,2162A,112.8509,35.4886,晋城市,市环保局,颗粒物(PM10),54,57,96,7,49,95,,51,46,14,25,12,11,1.0,1.2
2026-02-05T1400,3620A,112.8258,35.4804,晋城市,泽州一中,颗粒物(PM10),70,90,109,21,48,96,,65,62,11,21,10,9,0.9,1.3
2026-02-05T1400,4078A,112.8246,35.5152,晋城市,前书院路,颗粒物(PM10),53,56,116,11,43,96,,53,51,10,26,9,12,0.7,1.3
2026-02-05T1400,4079A,112.8864,35.4773,晋城市,祥云街666号,颗粒物(PM10),58,66,104,24,58,90,,57,50,19,29,14,14,0.9,1
2026-02-05T1400,2174A,112.6992,37.6984,晋中市,榆次区政府,颗粒物(PM10),54,58,134,14,63,68,,31,31,20,59,9,25,0.4,1.2
2026-02-05T1400,2865A,112.7195,37.683,晋中市,榆次三中,颗粒物(PM10),59,68,135,24,63,73,,34,34,18,52,10,24,0.4,1.1
2026-02-05T1400,4080A,112.7375,37.7215,晋中市,广安街188号,颗粒物(PM10),52,53,132,13,61,73,,34,34,13,57,12,24,0.1,0.9
2026-02-05T1400,4200A,112.7478,37.6954,晋中市,迎宾街26号,颗粒物(PM10),60,70,135,20,67,73,,40,40,19,51,10,25,0.4,1
2026-02-05T1400,2439A,112.2012,31.048,荆门市,竹园小学,细颗粒物(PM2.5),137,139,171,104,120,43,,22,22,34,45,1,1,1.1,1.3
2026-02-05T1400,2440A,112.1968,30.9892,荆门市,掇刀,细颗粒物(PM2.5),119,117,195,90,149,70,,31,31,20,38,6,6,0.9,1.2
2026-02-05T1400,3012A,112.1849,31.0361,荆门市,西山林语,细颗粒物(PM2.5),122,146,159,92,110,41,,35,22,40,41,2,2,1.4,1.4
2026-02-05T1400,3547A,112.1631,31.0134,荆门市,龙泉中学南校,细颗粒物(PM2.5),103,133,185,77,125,60,,37,34,30,37,5,5,0.0,0.2
2026-02-05T1400,4124A,112.2213,31.0654,荆门市,新台西路6号,细颗粒物(PM2.5),160,142,178,122,138,52,,18,18,25,49,10,9,0.9,1.1
2026-02-05T1400,1844A,112.2493,30.3198,荆州市,市图书馆,细颗粒物(PM2.5),226,,137,176,116,38,,16,16,48,48,7,10,1.3,1.2
2026-02-05T1400,1845A,112.2009,30.3543,荆州市,市委党校,细颗粒物(PM2.5),239,217,175,189,142,27,,11,11,41,50,7,9,1.5,1.4
2026-02-05T1400,3194A,112.2749,30.3124,荆州市,管委会,细颗粒物(PM2.5),234,188,138,184,119,26,,9,9,56,48,7,12,1.2,1.1
2026-02-05T1400,4268A,112.1722,30.3366,荆州市,学苑路85号,细颗粒物(PM2.5),249,211,175,199,142,34,,16,16,39,45,10,10,1.0,1
2026-02-05T1400,2343A,117.2114,29.2931,景德镇市,老干部活动中心,,41,41,55,26,35,48,,35,35,11,25,4,4,0.7,0.8
2026-02-05T1400,2344A,117.1893,29.2789,景德镇市,兽医站,颗粒物(PM10),103,155,68,28,37,53,,44,44,15,27,5,4,0.6,0.6
2026-02-05T1400,2346A,117.246,29.2958,景德镇市,陶研所,,35,29,42,24,30,56,,34,34,10,21,3,3,0.7,0.8
2026-02-05T1400,4289A,117.154766,29.256967,景德镇市,青少年活动中心,,48,48,65,24,40,48,,38,38,19,37,4,8,/,/
2026-02-05T1400,1803A,115.9873,29.6816,九江市,十里,细颗粒物(PM2.5),90,88,92,67,59,25,,16,16,47,58,7,7,1.4,1.2
2026-02-05T1400,1804A,115.9583,29.7047,九江市,茅山头,细颗粒物(PM2.5),115,,96,87,70,13,,7,7,52,57,4,4,1.1,0.8
2026-02-05T1400,1805A,115.9877,29.7295,九江市,西园,细颗粒物(PM2.5),98,103,107,73,73,26,,21,21,60,68,7,8,1.3,1.1
2026-02-05T1400,1808A,115.9112,29.6038,九江市,综合工业园,细颗粒物(PM2.5),77,93,78,56,50,30,,15,15,52,62,3,4,0.9,0.6
2026-02-05T1400,3190A,116.0254,29.6995,九江市,外国语学校,细颗粒物(PM2.5),114,,89,86,74,19,,16,15,,62,4,7,,1
2026-02-05T1400,4253A,116.010205,29.659402,九江市,莲花大道8号,细颗粒物(PM2.5),92,79,70,68,50,29,,33,25,45,41,4,4,1.0,0.7
2026-02-05T1400,4240A,98.495752,39.733935,酒泉市,玉门东路5号,颗粒物(PM10),113,175,114,59,55,72,,47,47,7,18,20,15,0.6,0.6
2026-02-05T1400,4241A,98.5099,39.7506,酒泉市,北大街108号,,,,103,,46,50,,37,36,6,17,,15,0.5,0.6
2026-02-05T1400,2698A,76.0071,39.466,喀什地区,巡警大队,颗粒物(PM10),106,161,110,69,47,59,,16,16,39,54,8,8,1.0,2.1
2026-02-05T1400,2699A,75.9756,39.4693,喀什地区,吾办,颗粒物(PM10),100,150,124,71,57,70,,22,22,28,56,9,10,1.0,2
2026-02-05T1400,4027A,75.9485,39.4688,喀什地区,老干局,颗粒物(PM10),130,209,131,50,50,72,,16,16,19,45,6,8,0.8,2.4
2026-02-05T1400,1824A,114.3389,34.778,开封市,肿瘤医院,细颗粒物(PM2.5),123,175,153,93,104,97,,43,43,35,61,21,11,1.4,1.1
2026-02-05T1400,1826A,114.2884,34.7966,开封市,世纪星幼儿园,细颗粒物(PM2.5),122,143,141,92,100,86,,41,41,35,57,21,12,1.2,1.1
2026-02-05T1400,3147A,114.3434,34.8101,开封市,龙亭公园,细颗粒物(PM2.5),123,179,153,93,97,91,,40,40,39,63,20,12,1.1,0.9
2026-02-05T1400,3210A,114.3645,34.7955,开封市,汴京公园,细颗粒物(PM2.5),117,171,161,88,95,93,,36,36,36,65,19,8,1.2,0.9
2026-02-05T1400,3473A,114.2485,34.8306,开封市,技师学院,细颗粒物(PM2.5),125,136,124,95,88,88,,36,36,36,50,18,11,1.4,1.2
2026-02-05T1400,3592A,114.4518,34.7503,开封市,祥符区生态环境局,细颗粒物(PM2.5),135,200,187,103,117,96,,34,34,36,71,19,10,1.6,1.3
2026-02-05T1400,1951A,84.886,45.6029,克拉玛依市,长征新村,细颗粒物(PM2.5),107,118,147,80,106,77,,74,73,20,29,5,5,1.0,1.3
2026-02-05T1400,1952A,84.8894,45.5827,克拉玛依市,南林小区,,,108,147,67,117,80,,75,75,,10,2,2,0.9,1.2
2026-02-05T1400,1954A,84.896,44.3328,克拉玛依市,独山子区,颗粒物(PM10),115,180,43,67,23,63,,78,50,7,14,5,3,0.8,0.7
2026-02-05T1400,1955A,85.6888,46.0909,克拉玛依市,乌尔禾区商贸楼,细颗粒物(PM2.5),74,63,134,54,117,82,,75,75,24,28,8,7,0.8,1.2
2026-02-05T1400,3612A,85.1045,45.6895,克拉玛依市,白碱滩区新站,细颗粒物(PM2.5),63,47,142,45,124,91,,80,80,16,23,9,9,0.8,1.2
2026-02-05T1400,2697A,76.1457,39.7143,克孜勒苏柯尔克孜自治州,市人民政府,细颗粒物(PM2.5),125,117,64,95,28,86,,73,67,8,9,4,3,0.3,0.2
2026-02-05T1400,3665A,76.1654,39.7157,克孜勒苏柯尔克孜自治州,克州文化中心,颗粒物(PM10),132,214,85,73,33,84,,67,58,12,12,4,4,0.6,0.5
2026-02-05T1400,1450A,102.8203,24.889,昆明市,呈贡新区,,39,39,41,10,29,89,,70,70,7,17,2,6,0,0.5
2026-02-05T1400,1452A,102.7253,25.0904,昆明市,龙泉镇,,,,36,11,26,87,,69,69,,18,3,4,0.3,0.5
2026-02-05T1400,1453A,102.7267,25.0378,昆明市,东风东路,,29,18,39,13,27,90,,66,66,8,19,8,7,0.3,0.4
2026-02-05T1400,1454A,102.6744,25.0671,昆明市,金鼎山,,28,21,47,7,29,88,,65,65,7,18,3,5,0.4,0.6
2026-02-05T1400,1455A,102.6643,25.0401,昆明市,碧鸡广场,,30,17,42,8,28,93,,62,62,6,27,4,5,0.3,0.5
2026-02-05T1400,3179A,102.7491,25.012,昆明市,官渡区博物馆,,29,25,39,11,28,91,,74,74,10,16,7,5,0.4,0.5
2026-02-05T1400,3375A,102.8016,24.8336,昆明市,青年创业园,,29,14,42,3,27,91,,69,69,3,17,5,9,0.4,0.6
2026-02-05T1400,3550A,102.8,24.9787,昆明市,昆明学院,,32,17,43,3,26,100,,74,73,7,15,4,5,0.4,0.6
2026-02-05T1400,3551A,102.5969,24.6738,昆明市,晋宁区生态环境分局,,30,9,46,8,32,94,,74,74,3,12,2,3,0.3,0.5
2026-02-05T1400,3552A,102.6673,24.9861,昆明市,云天化总部,,29,18,33,3,20,92,,80,80,8,10,11,6,0.4,0.4
2026-02-05T1400,1456A,91.132,29.6515,拉萨市,八廓街,,31,7,13,3,6,99,,95,95,4,5,7,7,0.3,0.3
2026-02-05T1400,1457A,91.1221,29.6748,拉萨市,市环保局,,30,9,17,7,9,94,,88,88,5,9,7,8,0.3,0.4
2026-02-05T1400,1458A,91.0874,29.6476,拉萨市,区监测站,,30,7,12,3,7,94,,88,86,4,7,4,4,0.8,0.8
2026-02-05T1400,1459A,91.1774,29.6541,拉萨市,西藏大学,,28,,13,6,7,89,,85,85,6,9,3,4,0.1,0.2
2026-02-05T1400,1460A,90.9798,29.6586,拉萨市,区辐射站,,29,8,22,3,11,92,,85,80,3,13,3,4,0.2,0.3
2026-02-05T1400,1461A,91.0831,29.6292,拉萨市,拉萨火车站,,29,6,11,3,6,92,,89,89,2,3,4,4,0.3,0.3
2026-02-05T1400,2520A,109.2203,23.7252,来宾市,来宾技工学校,颗粒物(PM10),68,85,173,44,179,80,,27,27,12,37,6,12,0.8,1.5
2026-02-05T1400,3535A,109.1781,23.7293,来宾市,兴宾区政府,细颗粒物(PM2.5),105,146,180,79,152,65,,26,26,27,39,14,8,1.2,1.4
2026-02-05T1400,4002A,109.2312,23.7428,来宾市,中南小学,细颗粒物(PM2.5),119,,180,90,186,54,,23,23,27,38,6,5,1.3,1.6
2026-02-05T1400,1479A,103.8309,36.0467,兰州市,铁路设计院,,,,,,,,,,,,,,,,
2026-02-05T1400,3241A,103.7439,36.0841,兰州市,百合公园,细颗粒物(PM2.5),83,93,102,61,68,70,,25,25,50,66,38,16,1.3,1.5
2026-02-05T1400,3242A,103.9613,35.9985,兰州市,和平,颗粒物(PM10),71,92,84,38,44,90,,43,40,24,34,40,18,1.1,1.3
2026-02-05T1400,4236A,103.629272,36.093822,兰州市,庄浪东路808号,细颗粒物(PM2.5),73,91,102,53,58,88,,37,37,37,59,51,25,1.3,1.2
2026-02-05T1400,4237A,103.7251,36.104344,兰州市,安宁西路88号,细颗粒物(PM2.5),84,91,113,62,61,78,,31,31,51,67,45,18,1.3,1.1
2026-02-05T1400,4238A,103.846982,36.067567,兰州市,北滨河东路1号,,,96,108,,59,82,,23,23,44,75,40,16,1.1,1.5
2026-02-05T1400,1067A,116.6712,39.5109,廊坊市,药材公司,,34,34,127,3,62,82,,71,71,9,38,3,4,0.3,0.7
2026-02-05T1400,1068A,116.7215,39.5592,廊坊市,开发区,,37,37,136,3,75,80,,71,71,6,41,3,5,0.3,0.7
2026-02-05T1400,1070A,116.7246,39.5273,廊坊市,北华航天学院,,35,35,130,3,74,80,,72,72,8,40,2,7,0.2,0.7
2026-02-05T1400,2919A,116.7022,39.5454,廊坊市,河北工业大学,,37,37,139,3,74,77,,69,69,1,39,3,5,0.2,0.7
2026-02-05T1400,2536A,103.7629,29.5844,乐山市,牛耳桥,细颗粒物(PM2.5),118,111,137,89,102,78,,26,26,20,35,5,5,0.9,1
2026-02-05T1400,2537A,103.7501,29.6002,乐山市,市第三水厂,细颗粒物(PM2.5),115,108,130,87,94,79,,24,24,26,42,4,4,1.0,1.1
2026-02-05T1400,2538A,103.7571,29.5664,乐山市,市监测站,细颗粒物(PM2.5),109,103,123,82,93,75,,24,24,15,30,,6,1.0,1.1
2026-02-05T1400,3361A,103.7313,29.563,乐山市,理工大学,细颗粒物(PM2.5),107,,104,80,91,80,,21,21,15,30,3,3,1.0,1.1
2026-02-05T1400,2599A,100.2497,26.8802,丽江市,丽江古城,,27,20,20,7,6,86,,77,77,7,9,6,6,0.4,0.3
2026-02-05T1400,2600A,100.2203,26.8906,丽江市,市中心,,29,12,12,6,8,90,,81,81,8,9,5,5,0.3,0.3
2026-02-05T1400,1267A,119.9141,28.4513,丽水市,监测站大楼,,,45,60,24,39,102,,1,,16,38,,6,0.5,0.9
2026-02-05T1400,1268A,119.93,28.4589,丽水市,莲都小学,,35,35,67,21,36,100,,35,35,9,43,/,/,/,/
2026-02-05T1400,1269A,119.8794,28.4232,丽水市,余庄前,,35,35,49,21,32,98,,30,30,11,27,5,5,0.5,0.5
2026-02-05T1400,1173A,119.1759,34.5885,连云港市,市环境监测站,细颗粒物(PM2.5),160,161,126,122,95,122,,52,52,30,43,19,15,0.8,0.7
2026-02-05T1400,3000A,119.3577,34.6971,连云港市,德源药业,细颗粒物(PM2.5),156,171,146,119,94,115,,44,44,31,62,11,9,1.0,0.8
2026-02-05T1400,3007A,119.178,34.8442,连云港市,新城一中,细颗粒物(PM2.5),201,180,135,151,107,112,,48,48,54,69,20,15,1.3,1.2
2026-02-05T1400,3008A,119.3607,34.7519,连云港市,胡沟管理处,细颗粒物(PM2.5),180,178,138,136,96,83,,62,62,49,59,19,16,1.1,0.9
2026-02-05T1400,3009A,119.1478,34.5913,连云港市,矿山设计院,细颗粒物(PM2.5),160,173,142,122,100,108,,40,40,37,45,17,12,1.2,1
2026-02-05T1400,3434A,119.2414,34.6539,连云港市,工贸学校,细颗粒物(PM2.5),196,185,124,147,94,86,,61,49,61,41,19,14,1.0,0.8
2026-02-05T1400,3664A,119.4171,34.734,连云港市,连云街道,细颗粒物(PM2.5),199,204,136,149,94,32,,83,50,97,40,14,11,1.3,1
2026-02-05T1400,2573A,102.2629,27.8981,凉山彝族自治州,西昌市政府,,26,23,28,11,13,82,,71,71,5,9,10,14,0.4,0.7
2026-02-05T1400,2574A,102.2686,27.885,凉山彝族自治州,凉山州政府,,25,25,31,10,10,78,,65,65,4,9,12,15,0.5,0.6
2026-02-05T1400,4229A,102.2342,27.8859,凉山彝族自治州,凯乐南路30号,,26,26,33,7,9,81,,69,69,9,9,12,15,0.5,1
2026-02-05T1400,2212A,123.1978,41.2036,辽阳市,宏伟区,颗粒物(PM10),180,309,169,3,93,73,,62,62,4,32,5,9,0.4,1.1
2026-02-05T1400,2213A,123.1684,41.2497,辽阳市,新华园,颗粒物(PM10),170,290,175,3,93,77,,66,66,6,41,3,6,0.3,0.8
2026-02-05T1400,2214A,123.2355,41.2663,辽阳市,滨河路,颗粒物(PM10),155,260,162,3,86,76,,63,63,4,39,3,8,0.4,1.1
2026-02-05T1400,4083A,123.153,41.2874,辽阳市,铁西路150号,颗粒物(PM10),183,316,169,6,87,68,,59,59,5,38,5,10,0.3,1
2026-02-05T1400,2227A,125.1359,42.8845,辽源市,环保局,颗粒物(PM10),103,155,126,3,99,74,,61,61,8,37,2,4,0.5,1.3
2026-02-05T1400,4085A,125.0998,42.9134,辽源市,安宁大街333号,颗粒物(PM10),292,414,159,3,102,81,,66,66,7,30,2,4,0.4,1
2026-02-05T1400,1625A,115.9789,36.4372,聊城市,区政府,颗粒物(PM10),101,151,191,39,130,77,,46,46,23,55,18,17,0.8,1.4
2026-02-05T1400,3200A,115.9772,36.4986,聊城市,监控中心,颗粒物(PM10),99,147,196,44,130,76,,42,42,24,66,9,10,0.8,1.4
2026-02-05T1400,3513A,116.0443,36.436,聊城市,九州社区,颗粒物(PM10),98,146,185,36,130,91,,64,64,4,32,5,8,0.4,1
2026-02-05T1400,4018A,116.0564,36.4609,聊城市,星美广场,颗粒物(PM10),105,159,206,40,141,80,,49,49,13,42,7,10,0.7,1.2
2026-02-05T1400,4113A,116.0091,36.4495,聊城市,利民路,颗粒物(PM10),102,153,187,41,124,75,,46,46,27,51,17,14,0.9,1.4
2026-02-05T1400,2632A,94.3683,29.6373,林芝市,林芝监测站,,,23,22,23,11,84,,94,90,2,1,2,5,,0.4
2026-02-05T1400,2633A,94.3616,29.6634,林芝市,林芝人民医院,,49,49,28,13,13,86,,92,89,2,1,6,6,0.4,0.3
2026-02-05T1400,2603A,100.0779,23.8981,临沧市,市环保局,,45,45,37,24,24,92,,51,51,7,12,6,8,0.4,0.6
2026-02-05T1400,2604A,100.0894,23.882,临沧市,市气象局,,38,38,46,17,28,87,,45,45,7,12,12,11,0.4,0.5
2026-02-05T1400,1733A,111.5552,36.0791,临汾市,临钢医院,细颗粒物(PM2.5),130,178,174,99,99,77,,34,34,36,45,28,12,1.7,1.9
2026-02-05T1400,1734A,111.4984,36.0734,临汾市,技工学校,细颗粒物(PM2.5),109,129,155,82,107,74,,34,34,45,50,33,16,1.3,1.6
2026-02-05T1400,1736A,111.5017,36.0857,临汾市,市委,细颗粒物(PM2.5),114,141,166,86,100,73,,31,31,32,49,34,16,1.3,1.5
2026-02-05T1400,3018A,111.5048,36.1015,临汾市,唐尧大酒店,细颗粒物(PM2.5),113,143,167,85,91,72,,32,32,40,52,34,13,1.4,2
2026-02-05T1400,4244A,111.4879,36.053,临汾市,启星学校,细颗粒物(PM2.5),100,137,157,75,101,76,,30,30,34,57,36,14,1.4,1.8
2026-02-05T1400,4271A,103.2464,35.6123,临夏回族自治州,滨河东路1号,颗粒物(PM10),90,130,192,45,105,88,,34,34,14,38,18,10,0.7,1.7
2026-02-05T1400,4310A,103.207136,35.599807,临夏回族自治州,新华街21号,颗粒物(PM10),66,82,176,43,110,89,,37,37,14,36,17,12,0.7,1.6
2026-02-05T1400,1618A,118.3429,35.0532,临沂市,沂河小区,细颗粒物(PM2.5),183,193,154,138,103,77,,45,45,53,56,17,16,1.0,1
2026-02-05T1400,1619A,118.2962,35.0568,临沂市,鲁南制药厂,细颗粒物(PM2.5),176,171,163,133,113,88,,37,37,51,80,20,24,0.9,1.1
2026-02-05T1400,1620A,118.2793,34.9976,临沂市,新光毛纺厂,细颗粒物(PM2.5),165,158,152,125,112,97,,38,38,40,68,18,20,1.0,1.1
2026-02-05T1400,1621A,118.3955,35.0889,临沂市,河东保险公司,细颗粒物(PM2.5),205,190,146,155,108,73,,37,37,71,62,21,15,1.3,1.2
2026-02-05T1400,3370A,118.3563,35.0215,临沂市,十里堡居委,细颗粒物(PM2.5),196,180,157,147,110,83,,41,41,60,72,18,24,1.2,1.2
2026-02-05T1400,3496A,118.359,35.1067,临沂市,南坊新区,细颗粒物(PM2.5),170,163,136,129,101,92,,55,55,54,55,17,14,1.1,1
2026-02-05T1400,3860A,118.3915,35.0297,临沂市,皇山花园小区,细颗粒物(PM2.5),205,171,154,155,122,88,,39,39,,64,22,22,1.3,1.2
2026-02-05T1400,1870A,109.4854,24.3898,柳州市,柳东小学,细颗粒物(PM2.5),100,90,109,75,107,36,,17,17,20,23,8,8,0.9,1.1
2026-02-05T1400,1871A,109.4109,24.3304,柳州市,环保监测站,细颗粒物(PM2.5),124,144,160,94,156,69,,18,18,36,51,,7,1.5,2.1
2026-02-05T1400,1872A,109.3886,24.3408,柳州市,河西水厂,细颗粒物(PM2.5),128,120,182,97,180,79,,20,20,24,45,,8,0.9,1.6
2026-02-05T1400,1873A,109.4263,24.2951,柳州市,市四中,细颗粒物(PM2.5),110,130,180,83,168,80,,21,21,20,49,8,8,1.0,1.9
2026-02-05T1400,1874A,109.396,24.3658,柳州市,市九中,颗粒物(PM10),138,225,254,96,159,72,,19,19,31,44,14,12,1.2,1.8
2026-02-05T1400,1875A,109.4912,24.3164,柳州市,古亭山,细颗粒物(PM2.5),98,120,128,73,136,83,,20,20,27,45,8,7,0.7,1.1
2026-02-05T1400,3402A,109.5422,24.3994,柳州市,市二中,细颗粒物(PM2.5),114,104,112,86,112,76,,26,26,35,34,13,10,1.0,1.1
2026-02-05T1400,2307A,116.5078,31.7369,六安市,监测大楼,细颗粒物(PM2.5),72,68,64,52,43,86,,48,48,16,29,5,4,0.6,0.6
2026-02-05T1400,2308A,116.4738,31.7642,六安市,皖西学院,细颗粒物(PM2.5),75,84,73,55,42,89,,48,48,14,28,6,5,0.6,0.5
2026-02-05T1400,2309A,116.4997,31.7904,六安市,朝阳厂,细颗粒物(PM2.5),89,81,65,66,44,89,,57,57,16,30,6,6,0.7,0.6
2026-02-05T1400,2310A,116.5566,31.7885,六安市,开发区,细颗粒物(PM2.5),83,94,74,61,43,94,,54,54,13,29,7,6,0.7,0.6
2026-02-05T1400,2577A,104.8293,26.592,六盘水市,黄土坡,细颗粒物(PM2.5),52,50,58,36,42,68,,40,40,18,25,14,14,1.0,1.1
2026-02-05T1400,2579A,104.8481,26.5898,六盘水市,民中,细颗粒物(PM2.5),52,39,58,36,43,68,,39,39,12,21,8,8,0.7,1
2026-02-05T1400,2580A,104.9541,26.5506,六盘水市,双水,,42,41,49,29,34,66,,37,37,9,15,5,6,0.5,0.7
2026-02-05T1400,4151A,104.8899,26.5685,六盘水市,钟山大道中段564号,颗粒物(PM10),53,56,60,32,36,65,,38,38,9,14,7,10,1.0,1.2
2026-02-05T1400,2336A,117.022,25.1031,龙岩市,龙岩市监测站,,33,30,28,11,17,105,,58,58,3,23,6,14,0.4,0.7
2026-02-05T1400,2337A,117.0257,25.0662,龙岩市,闽西职业技术学院,,34,23,33,9,17,108,,63,63,4,19,4,6,0.4,0.6
2026-02-05T1400,2338A,117.0195,25.0306,龙岩市,龙岩学院,,33,20,28,8,16,104,,64,64,4,13,4,4,/,/
2026-02-05T1400,2885A,104.9344,33.3827,陇南市,滨江中学,细颗粒物(PM2.5),68,68,83,49,46,59,,36,36,24,36,10,10,0.8,1.5
2026-02-05T1400,3247A,104.9551,33.3709,陇南市,市总工会,颗粒物(PM10),55,59,67,24,32,59,,37,37,23,28,9,5,1.0,1
2026-02-05T1400,2488A,111.9984,27.7346,娄底市,市监测站,细颗粒物(PM2.5),149,155,136,114,104,41,,23,23,32,35,8,11,1.1,1.2
2026-02-05T1400,2491A,111.9888,27.7035,娄底市,市政府,细颗粒物(PM2.5),124,137,136,94,98,37,,19,18,38,37,6,7,0.8,1
2026-02-05T1400,4127A,111.9812,27.7591,娄底市,涟钢职大,细颗粒物(PM2.5),140,129,130,107,90,36,,21,20,32,34,9,10,1.4,1.4
2026-02-05T1400,4128A,112.0303,27.7457,娄底市,娄底体校,细颗粒物(PM2.5),129,133,135,98,103,39,,16,16,20,30,3,3,0.6,0.8
2026-02-05T1400,1894A,105.4427,28.9063,泸州市,小市上码头,细颗粒物(PM2.5),97,90,106,72,86,93,,43,43,13,30,7,6,1.1,1.3
2026-02-05T1400,1895A,105.4241,28.8573,泸州市,兰田宪桥,细颗粒物(PM2.5),75,84,108,55,71,96,,44,44,16,26,10,8,0.9,1
2026-02-05T1400,1896A,105.4378,28.8833,泸州市,市环监站,细颗粒物(PM2.5),130,99,121,99,90,91,,40,40,20,34,11,10,0.9,1
2026-02-05T1400,4272A,105.3689,28.7783,泸州市,纳溪中医医院,细颗粒物(PM2.5),93,87,90,69,79,93,,34,34,16,24,9,8,1.0,1.1
2026-02-05T1400,2183A,111.1447,37.5212,吕梁市,环保局,颗粒物(PM10),84,118,115,54,47,39,,16,16,47,63,15,10,0.9,0.8
2026-02-05T1400,2185A,111.1285,37.5338,吕梁市,自来水公司,颗粒物(PM10),88,125,133,40,53,37,,16,16,43,49,14,15,1.0,0.8
2026-02-05T1400,2867A,111.1225,37.5093,吕梁市,马茂庄小学,颗粒物(PM10),96,142,135,58,52,26,,14,14,60,64,17,15,0.8,0.7
2026-02-05T1400,1812A,112.3934,34.6517,洛阳市,市委党校,细颗粒物(PM2.5),112,130,121,84,77,68,,34,34,47,44,15,11,1.1,1.1
2026-02-05T1400,1815A,112.494,34.6883,洛阳市,河南林校,细颗粒物(PM2.5),95,118,132,71,80,60,,31,31,53,61,18,15,0.9,1.1
2026-02-05T1400,1816A,112.3843,34.623,洛阳市,开发区管委会,细颗粒物(PM2.5),114,152,136,86,69,78,,44,44,41,31,19,12,0.9,0.8
2026-02-05T1400,1817A,112.4263,34.6249,洛阳市,市委新办公区,细颗粒物(PM2.5),93,129,132,69,72,75,,47,47,41,33,16,12,1.0,0.8
2026-02-05T1400,3340A,112.6005,34.6323,洛阳市,伊滨,细颗粒物(PM2.5),87,117,132,64,65,86,,53,53,30,35,15,10,0.8,0.8
2026-02-05T1400,3341A,112.495,34.6338,洛阳市,中移产业园,细颗粒物(PM2.5),90,105,115,67,74,78,,44,44,36,36,17,12,1.1,1
2026-02-05T1400,3593A,112.5736,34.8993,洛阳市,吉利监测站,颗粒物(PM10),87,124,105,61,59,68,,54,54,54,41,17,12,1.1,0.9
2026-02-05T1400,3635A,112.3678,34.6623,洛阳市,河科大西苑校区,细颗粒物(PM2.5),92,127,127,68,77,71,,34,34,48,42,18,14,1.1,1
2026-02-05T1400,3636A,112.4387,34.678,洛阳市,英才小学,细颗粒物(PM2.5),102,141,150,76,82,59,,32,32,57,58,17,17,1.3,1.2
2026-02-05T1400,4214A,112.460027,34.694929,洛阳市,春都路1号院,细颗粒物(PM2.5),112,156,158,84,80,56,,29,29,48,50,15,15,1.1,1.1
2026-02-05T1400,2399A,114.051,33.5721,漯河市,三五一五工厂,细颗粒物(PM2.5),104,152,160,78,93,89,,59,59,25,34,12,7,1.0,1
2026-02-05T1400,2400A,114.0055,33.5698,漯河市,漯河大学,细颗粒物(PM2.5),94,126,129,70,88,90,,58,58,21,28,13,7,1.0,0.9
2026-02-05T1400,2401A,114.0134,33.5826,漯河市,市水利局,细颗粒物(PM2.5),102,136,140,76,92,71,,45,45,28,34,10,7,0.9,0.9
2026-02-05T1400,2402A,114.0261,33.5697,漯河市,市广电局,细颗粒物(PM2.5),104,137,139,78,95,84,,58,58,20,25,13,8,0.7,0.7
2026-02-05T1400,3478A,113.9691,33.568,漯河市,市图书馆,颗粒物(PM10),100,150,150,69,91,84,,56,56,24,25,13,8,1.1,1
2026-02-05T1400,4250A,114.089259,33.588274,漯河市,韶山路11号,细颗粒物(PM2.5),113,169,145,85,88,89,,54,54,33,33,13,8,0.9,0.8
2026-02-05T1400,1798A,118.5084,31.6838,马鞍山市,湖东路四小,细颗粒物(PM2.5),74,80,94,54,63,74,,23,23,32,62,8,9,0.7,0.9
2026-02-05T1400,1799A,118.5019,31.6449,马鞍山市,开发区,细颗粒物(PM2.5),85,95,97,63,61,64,,20,20,43,65,13,8,0.9,0.8
2026-02-05T1400,3633A,118.4914,31.681,马鞍山市,雨山,"颗粒物(PM10),细颗粒物(PM2.5)",75,100,97,55,60,68,,20,20,43,62,12,11,1.2,1
2026-02-05T1400,4191A,118.527362,31.722269,马鞍山市,慈湖高新区,细颗粒物(PM2.5),70,81,107,51,60,88,,30,30,27,62,7,8,0.5,0.8
2026-02-05T1400,1686A,111.0285,21.469,茂名市,电白南海,,31,29,50,13,21,98,,84,84,10,12,9,8,1.1,1.1
2026-02-05T1400,1687A,110.9294,21.6533,茂名市,茂石化七小,,36,36,49,8,22,92,,73,73,6,10,5,6,0.4,0.5
2026-02-05T1400,1688A,110.9108,21.6688,茂名市,健康路,,32,24,41,8,20,101,,85,84,7,13,4,5,0.5,0.6
2026-02-05T1400,1689A,110.8592,21.6826,茂名市,高岭,颗粒物(PM10),52,53,62,12,24,93,,78,78,4,12,2,4,/,/
2026-02-05T1400,3450A,111.0101,21.5165,茂名市,电白水东,,30,27,47,10,22,94,,80,80,18,20,8,9,/,/
2026-02-05T1400,2540A,103.8414,30.0871,眉山市,气象局,细颗粒物(PM2.5),102,91,110,76,78,101,,33,33,21,31,14,13,1.0,1.1
2026-02-05T1400,3148A,103.829,30.0563,眉山市,区人社局,细颗粒物(PM2.5),110,95,116,83,102,94,,32,32,16,39,12,11,1.1,1.1
2026-02-05T1400,4148A,103.8836,30.0695,眉山市,眉职院,细颗粒物(PM2.5),95,110,115,71,79,100,,33,33,12,29,7,5,1.0,1
2026-02-05T1400,1690A,116.1248,24.3307,梅州市,梅江月梅,,45,45,50,14,31,106,,47,47,12,33,/,/,/,/
2026-02-05T1400,1691A,116.0798,24.2719,梅州市,梅县新城,,31,30,48,10,30,97,,42,42,13,38,7,8,0.5,0.7
2026-02-05T1400,3315A,116.1234,24.2994,梅州市,梅龙,,32,29,53,15,32,102,,50,50,14,34,8,9,0.6,0.9
2026-02-05T1400,1878A,104.7775,31.4741,绵阳市,富乐山,细颗粒物(PM2.5),104,96,88,78,64,88,,35,35,17,20,9,8,0.9,0.9
2026-02-05T1400,1880A,104.6698,31.4668,绵阳市,高新区自来水公司,细颗粒物(PM2.5),108,131,127,81,77,83,,26,26,23,46,,10,1.0,1.2
2026-02-05T1400,3491A,104.6899,31.5324,绵阳市,西科大附属小学,细颗粒物(PM2.5),132,145,118,100,71,86,,26,26,27,46,9,9,0.7,0.9
2026-02-05T1400,3492A,104.5647,31.5343,绵阳市,安州区旅游局,细颗粒物(PM2.5),109,100,105,82,69,71,,24,24,36,32,13,11,1.0,1.1
2026-02-05T1400,4146A,104.7092,31.4972,绵阳市,科技城新区公安局,细颗粒物(PM2.5),110,114,107,83,66,94,,30,30,30,49,5,6,1.0,1
2026-02-05T1400,4226A,104.765114,31.453094,绵阳市,绵阳市气象局,细颗粒物(PM2.5),119,108,100,90,71,90,,26,26,17,32,9,9,1.0,1
2026-02-05T1400,1784A,129.61,44.561,牡丹江市,环保大楼,,31,31,64,12,46,85,,72,72,11,27,2,6,0.3,0.5
2026-02-05T1400,1787A,129.6364,44.6075,牡丹江市,机车工厂,,41,41,68,19,45,83,,66,66,8,26,6,11,0.3,0.6
2026-02-05T1400,1788A,129.6386,44.5462,牡丹江市,第一中学,,26,25,57,11,48,81,,65,65,9,30,4,8,0.3,0.6
2026-02-05T1400,4287A,129.5992,44.5964,牡丹江市,东晓云街98号,,39,39,63,15,44,82,,72,72,6,23,4,10,0.2,0.3
2026-02-05T1400,2531A,105.0703,29.61,内江市,市监测站,细颗粒物(PM2.5),98,,82,73,70,100,,49,49,18,29,7,6,1.0,1.1
2026-02-05T1400,2533A,105.0657,29.5807,内江市,内江二中,细颗粒物(PM2.5),90,69,85,67,67,94,,34,34,20,37,8,8,0.7,0.8
2026-02-05T1400,2534A,105.0407,29.5828,内江市,内江日报社,细颗粒物(PM2.5),85,,73,63,66,102,,38,38,25,37,8,7,0.5,0.8
2026-02-05T1400,4147A,105.0433,29.6105,内江市,玉峰路西段888号,细颗粒物(PM2.5),87,79,79,64,67,100,,40,40,22,32,7,6,0.6,0.7
2026-02-05T1400,2628A,92.0653,31.4846,那曲市,那曲监测站,,,,33,,22,84,,70,68,2,2,5,6,0.7,0.8
2026-02-05T1400,4243A,92.0515,31.4787,那曲市,那曲市委宣传部,,37,37,25,10,13,92,,79,74,1,5,5,5,0.4,0.5
2026-02-05T1400,1291A,115.8887,28.7006,南昌市,省林业公司,,,58,73,45,53,43,,35,35,,46,,6,0.7,0.7
2026-02-05T1400,1292A,115.813,28.7443,南昌市,林科所,,,63,75,43,49,46,,30,14,,40,9,10,0.5,0.5
2026-02-05T1400,1294A,115.8518,28.687,南昌市,建工学校,颗粒物(PM10),59,68,87,41,49,47,,31,31,32,40,8,10,0.9,0.8
2026-02-05T1400,1295A,115.8926,28.6425,南昌市,象湖,细颗粒物(PM2.5),67,63,78,48,56,50,,39,39,27,34,8,10,0.9,0.9
2026-02-05T1400,3046A,115.9084,28.6062,南昌市,机电学校,颗粒物(PM10),64,78,91,41,52,58,,38,38,28,46,5,7,0.6,0.7
2026-02-05T1400,3690A,115.9718,28.7032,南昌市,外国语学校,细颗粒物(PM2.5),70,70,84,51,55,40,,31,31,35,41,14,15,0.8,0.8
2026-02-05T1400,4106A,115.7923,28.6873,南昌市,工业二路,细颗粒物(PM2.5),70,87,93,51,54,47,,29,20,42,45,4,6,0.8,0.8
2026-02-05T1400,4192A,115.931587,28.686774,南昌市,南京东路235号,细颗粒物(PM2.5),67,70,87,48,56,48,,39,39,26,36,8,10,0.5,0.6
2026-02-05T1400,1906A,106.0791,30.8022,南充市,南充市委,细颗粒物(PM2.5),112,113,92,84,69,24,,10,10,34,29,5,5,0.9,0.8
2026-02-05T1400,1907A,106.1038,30.8215,南充市,南充炼油厂,细颗粒物(PM2.5),112,112,102,84,68,29,,10,10,20,29,7,7,0.9,0.8
2026-02-05T1400,4227A,106.108336,30.788436,南充市,梨树横街98号,细颗粒物(PM2.5),119,120,99,90,75,36,,12,12,28,33,7,7,0.8,0.8
2026-02-05T1400,4304A,106.1172,30.843,南充市,清泉寺北路188号,细颗粒物(PM2.5),109,92,85,82,68,37,,16,16,16,20,4,4,0.8,0.7
2026-02-05T1400,4305A,106.067,30.7616,南充市,同庆路1号,细颗粒物(PM2.5),109,114,86,82,67,26,,10,10,37,40,7,7,0.9,0.8
2026-02-05T1400,1151A,118.8033,32.1085,南京市,迈皋桥,细颗粒物(PM2.5),67,78,73,48,47,106,,38,38,36,61,12,8,0.5,0.5
2026-02-05T1400,1152A,118.7487,32.057,南京市,草场门,颗粒物(PM10),64,78,77,44,47,74,,30,30,28,81,5,5,0.9,1.2
2026-02-05T1400,1154A,118.770105,32.004342,南京市,中华门,细颗粒物(PM2.5),80,97,80,59,45,98,,37,37,48,59,6,5,0.9,1
2026-02-05T1400,1155A,118.8059,32.0329,南京市,瑞金路,细颗粒物(PM2.5),87,100,85,64,54,116,,40,40,30,60,6,4,0.8,0.6
2026-02-05T1400,1156A,118.7946,32.0774,南京市,玄武湖,细颗粒物(PM2.5),72,80,72,52,45,113,,35,35,31,65,12,6,0.9,1
2026-02-05T1400,1157A,118.6415,32.0964,南京市,浦口,,,90,70,51,41,120,,74,74,17,32,6,5,,0.4
2026-02-05T1400,1158A,118.730129,32.000956,南京市,奥体中心,细颗粒物(PM2.5),72,83,86,52,50,115,,42,42,18,66,9,8,0.5,0.9
2026-02-05T1400,1159A,118.9072,32.1047,南京市,仙林大学城,细颗粒物(PM2.5),75,83,82,55,46,110,,34,34,27,64,10,8,0.7,0.9
2026-02-05T1400,3422A,118.8443,31.919,南京市,江宁彩虹桥,颗粒物(PM10),72,94,83,49,44,103,,38,38,36,72,4,5,1.1,1.2
2026-02-05T1400,3427A,118.8497,32.3599,南京市,六合雄州,,,,104,,56,94,,33,33,,59,2,11,0.8,0.9
2026-02-05T1400,4086A,118.7641,32.0841,南京市,新模范马路66号,细颗粒物(PM2.5),73,85,87,53,48,131,,52,52,22,73,4,4,1.0,1.3
2026-02-05T1400,4249A,118.8707617,31.34017673,南京市,汶溪路181号,细颗粒物(PM2.5),103,,84,77,53,46,,39,35,33,40,6,8,1.4,1
2026-02-05T1400,4312A,119.019,31.6512,南京市,中山西路1号,,,83,69,63,47,49,,29,29,,35,4,4,1.1,1.1
2026-02-05T1400,1401A,108.3098,22.788,南宁市,二十一中,,45,45,43,24,37,70,,44,42,14,22,4,4,0.6,0.6
2026-02-05T1400,1402A,108.3135,22.8529,南宁市,北湖,细颗粒物(PM2.5),54,55,53,38,46,72,,29,29,18,34,3,8,0.6,0.8
2026-02-05T1400,1403A,108.3205,22.8222,南宁市,市监测站,颗粒物(PM10),58,65,44,30,38,73,,43,35,19,27,6,6,0.8,0.9
2026-02-05T1400,1404A,108.3828,22.8038,南宁市,大自然花园,,46,46,53,26,35,90,,66,62,12,15,6,6,0.6,0.7
2026-02-05T1400,1406A,108.2397,22.8462,南宁市,区农职院,颗粒物(PM10),60,70,58,27,38,71,,27,,19,37,4,4,1.0,1.2
2026-02-05T1400,1407A,108.3285,22.7356,南宁市,英华嘉园,颗粒物(PM10),55,60,47,24,34,76,,44,44,18,28,3,5,0.5,0.6
2026-02-05T1400,3401A,108.4829,22.762,南宁市,红星社区,,32,32,48,21,37,88,,51,47,8,18,4,4,0.9,1
2026-02-05T1400,4132A,108.2927,23.1477,南宁市,起凤路9号,细颗粒物(PM2.5),57,50,52,40,41,78,,61,61,15,20,2,2,0.6,0.6
2026-02-05T1400,4221A,108.2177,22.7774,南宁市,乐贤路16号,,45,45,46,24,32,82,,44,44,12,33,4,3,1.0,0.9
2026-02-05T1400,2332A,118.1682,26.6371,南平市,南平市监测站,,,22,52,13,34,114,,53,53,,29,7,5,0.5,1
2026-02-05T1400,2334A,118.1757,26.6276,南平市,南平七中,,37,30,51,11,30,116,,53,53,6,27,6,4,0.5,0.8
2026-02-05T1400,1168A,120.9056,31.9669,南通市,狼山街道,细颗粒物(PM2.5),114,130,100,86,65,35,,17,17,88,78,9,6,0.9,0.9
2026-02-05T1400,1170A,120.8635,32.0231,南通市,城中,细颗粒物(PM2.5),125,139,122,95,77,36,,14,14,79,90,10,9,1.2,1.2
2026-02-05T1400,1171A,120.9376,31.9301,南通市,星湖花园,细颗粒物(PM2.5),104,111,104,78,64,50,,26,26,78,88,10,9,1.0,1
2026-02-05T1400,1172A,120.8053,32.046,南通市,紫琅学院,细颗粒物(PM2.5),122,142,128,92,77,39,,11,11,83,92,10,9,1.3,1.2
2026-02-05T1400,3291A,121.0631,32.0644,南通市,通州监测站,细颗粒物(PM2.5),119,124,113,90,75,64,,21,21,65,89,10,7,1.1,1.2
2026-02-05T1400,3432A,120.9348,31.9874,南通市,环境教育馆,细颗粒物(PM2.5),134,127,108,102,69,39,,13,13,87,89,12,9,1.2,1.2
2026-02-05T1400,4091A,120.8692,31.9885,南通市,洪江路,细颗粒物(PM2.5),117,112,101,88,73,33,,13,13,88,98,10,8,1.0,1.1
2026-02-05T1400,2404A,112.5338,33.0086,南阳市,瓦房庄,颗粒物(PM10),86,122,157,62,108,98,,39,39,15,33,5,5,0.9,1.1
2026-02-05T1400,2405A,112.5002,32.9734,南阳市,汉画馆,细颗粒物(PM2.5),140,151,165,107,127,85,,34,34,27,43,8,7,1.0,1.1
2026-02-05T1400,2406A,112.5778,33.0144,南阳市,气象站,颗粒物(PM10),94,138,179,65,97,94,,38,38,19,36,6,7,0.9,1.1
2026-02-05T1400,2407A,112.548,32.9687,南阳市,理工学院,细颗粒物(PM2.5),115,136,161,87,112,84,,35,35,28,41,7,6,0.9,1
2026-02-05T1400,4008A,112.5233,32.9921,南阳市,卧龙区政府,细颗粒物(PM2.5),113,136,187,85,121,92,,37,37,19,40,7,6,0.9,1.1
2026-02-05T1400,1234A,121.8352,29.9111,宁波市,区环保大楼,颗粒物(PM10),64,78,80,26,26,56,,18,18,49,84,10,9,0.5,0.6
2026-02-05T1400,1235A,121.5595,29.8208,宁波市,万里学院,,,81,54,56,32,68,,29,29,48,53,,5,0.9,0.9
2026-02-05T1400,1236A,121.713,29.9564,宁波市,龙赛医院,颗粒物(PM10),53,55,75,28,33,69,,23,23,34,80,4,5,0.6,0.7
2026-02-05T1400,1240A,121.5855,29.8635,宁波市,太古小学,细颗粒物(PM2.5),82,101,67,60,34,66,,32,32,59,54,7,4,0.7,0.6
2026-02-05T1400,1241A,121.5239,29.8673,宁波市,市环境监测中心,细颗粒物(PM2.5),74,84,71,54,42,71,,27,27,35,59,6,4,0.6,0.7
2026-02-05T1400,2871A,121.6156,29.9015,宁波市,万里国际学校,细颗粒物(PM2.5),88,90,71,65,46,59,,24,24,56,73,8,5,0.6,0.6
2026-02-05T1400,3710A,121.5593,29.8976,宁波市,白沙活动中心,细颗粒物(PM2.5),80,78,66,59,50,70,,27,27,41,66,7,5,0.5,0.5
2026-02-05T1400,4095A,121.8962,29.7529,宁波市,中科路88号,,42,42,38,29,21,87,,40,40,24,39,8,6,0.6,0.4
2026-02-05T1400,2341A,119.5387,26.6611,宁德市,宁德市监测站,颗粒物(PM10),61,72,44,29,23,76,,57,57,28,33,6,4,1.1,0.9
2026-02-05T1400,3209A,119.5231,26.6562,宁德市,宁德一中,颗粒物(PM10),53,56,37,32,24,83,,49,49,25,23,7,4,0.9,0.7
2026-02-05T1400,2618A,98.859,25.8541,怒江傈僳族自治州,州监测站,,31,31,38,19,22,84,,57,57,6,16,6,6,0.3,0.2
2026-02-05T1400,2619A,98.8607,25.8168,怒江傈僳族自治州,泸水一中,,34,34,33,9,22,77,,43,43,7,24,5,5,0.6,0.7
2026-02-05T1400,1888A,101.6891,26.571,攀枝花市,弄弄坪,,25,22,66,16,29,79,,36,36,12,34,30,51,1.4,2
2026-02-05T1400,1889A,101.577,26.5914,攀枝花市,河门口,,26,23,46,11,18,82,,39,39,4,22,9,15,0.3,0.8
2026-02-05T1400,1891A,101.7365,26.4986,攀枝花市,仁和,,27,16,28,11,16,86,,50,50,6,17,8,8,0.5,0.6
2026-02-05T1400,2835A,101.7222,26.567,攀枝花市,四十中小,,36,36,41,6,18,75,,33,32,13,34,14,19,0.6,1.2
2026-02-05T1400,1604A,122.0303,41.1489,盘锦市,开发区,颗粒物(PM10),123,196,177,8,71,78,,70,70,8,21,3,6,0.1,0.6
2026-02-05T1400,1605A,122.0486,41.0883,盘锦市,兴隆台,颗粒物(PM10),138,226,169,10,71,77,,70,70,10,29,3,6,0.3,0.7
2026-02-05T1400,1606A,121.8297,41.1026,盘锦市,新生街道,,,76,146,3,73,76,,67,67,8,34,,7,0.0,0.5
2026-02-05T1400,1832A,113.3257,33.7423,平顶山市,新华旅馆,细颗粒物(PM2.5),97,132,128,72,82,105,,67,67,24,31,11,7,0.6,0.6
2026-02-05T1400,1833A,113.2917,33.737,平顶山市,规划设计院,"颗粒物(PM10),细颗粒物(PM2.5)",89,127,146,66,83,97,,52,52,15,30,13,7,0.7,0.8
2026-02-05T1400,1834A,113.182,33.7738,平顶山市,平顶山工学院,颗粒物(PM10),85,120,116,61,78,111,,62,62,17,20,13,9,0.7,0.7
2026-02-05T1400,3594A,112.8736,33.9068,平顶山市,石龙区,颗粒物(PM10),78,105,122,44,53,111,,66,66,10,33,10,7,0.5,0.7
2026-02-05T1400,4116A,113.284,33.7139,平顶山市,姚电大道23号,细颗粒物(PM2.5),104,122,146,78,90,106,,54,54,,34,12,9,0.6,0.8
2026-02-05T1400,2656A,106.6633,35.5338,平凉市,聚贤嘉苑,颗粒物(PM10),53,56,54,24,25,90,,56,56,14,18,12,10,0.5,0.5
2026-02-05T1400,2657A,106.7021,35.5307,平凉市,博物馆,颗粒物(PM10),60,69,64,38,42,89,,56,56,14,30,13,12,0.5,0.7
2026-02-05T1400,2348A,113.8384,27.6436,萍乡市,中医院,细颗粒物(PM2.5),90,108,113,67,68,78,,37,37,24,39,18,13,1.2,1.3
2026-02-05T1400,2350A,113.8677,27.6438,萍乡市,市环保局,细颗粒物(PM2.5),100,101,109,75,72,76,,35,35,25,37,18,14,0.5,0.7
2026-02-05T1400,2351A,113.8663,27.6202,萍乡市,安源区政府,细颗粒物(PM2.5),95,113,119,71,73,60,,24,24,24,40,20,13,1.0,1.1
2026-02-05T1400,4107A,113.8686,27.6668,萍乡市,联洪村委会,细颗粒物(PM2.5),87,90,105,64,68,64,,32,32,21,33,14,11,0.5,0.7
2026-02-05T1400,2319A,119.0142,25.4324,莆田市,荔城区仓后路,臭氧1小时(O3_1h),100,69,63,44,35,200,,94,94,28,32,/,/,/,/
2026-02-05T1400,2320A,119.0016,25.4553,莆田市,莆田市监测站,臭氧1小时(O3_1h),112,77,50,47,31,224,,96,96,26,21,11,5,0.6,0.5
2026-02-05T1400,2321A,119.112,25.4561,莆田市,涵江区六中,颗粒物(PM10),54,58,47,31,27,152,,77,77,19,28,/,/,0.7,0.6
2026-02-05T1400,2322A,119.1014,25.3215,莆田市,秀屿区政府,臭氧1小时(O3_1h),65,46,52,31,34,172,,92,92,16,18,20,6,0.6,0.7
2026-02-05T1400,2392A,115.0312,35.7636,濮阳市,环保局,细颗粒物(PM2.5),168,199,139,127,109,98,,50,50,40,45,15,11,1.2,1.3
2026-02-05T1400,3021A,115,35.7667,濮阳市,濮水河管理处,细颗粒物(PM2.5),166,228,166,126,113,100,,47,47,32,40,15,11,1.1,1.1
2026-02-05T1400,4118A,115.0552,35.7816,濮阳市,中原东路68号,细颗粒物(PM2.5),166,245,179,126,112,100,,46,46,40,44,15,11,1.2,1.2
2026-02-05T1400,4216A,115.0923632,35.76857718,濮阳市,任丘路479号,细颗粒物(PM2.5),166,229,174,126,119,96,,47,47,43,54,16,12,1.2,1.3
2026-02-05T1400,2601A,100.9801,22.7634,普洱市,市环保局,,46,46,58,14,27,90,,53,53,5,10,5,5,0.4,0.5
2026-02-05T1400,2602A,100.9763,22.8237,普洱市,普洱第二中学,,36,36,55,16,30,87,,46,46,5,23,5,5,0.4,0.6
2026-02-05T1400,3345A,131.0413,45.7795,七台河市,中波台,,25,15,25,3,15,79,,70,70,2,5,7,7,0.3,0.5
2026-02-05T1400,3637A,131.0136,45.7688,七台河市,人民广场,,23,17,32,6,16,71,,68,68,13,16,8,9,0.4,0.5
2026-02-05T1400,3684A,130.8639,45.8144,七台河市,新建矿广场,,27,27,57,3,30,72,,64,64,8,22,4,7,0.2,0.3
2026-02-05T1400,1779A,123.9307,47.3641,齐齐哈尔市,安居小区,颗粒物(PM10),54,57,37,6,9,68,,72,70,4,12,8,10,0.3,0.3
2026-02-05T1400,1780A,123.9497,47.3389,齐齐哈尔市,中心广场,颗粒物(PM10),84,118,30,9,10,66,,72,68,6,11,5,6,0.3,0.5
2026-02-05T1400,1781A,123.9483,47.3229,齐齐哈尔市,农牧车辆厂,颗粒物(PM10),54,58,41,9,9,66,,70,67,4,10,5,5,0.3,0.3
2026-02-05T1400,1783A,123.9442,47.2994,齐齐哈尔市,市环境监测站,颗粒物(PM10),88,125,53,10,8,69,,74,71,5,11,3,4,0.4,0.4
2026-02-05T1400,3662A,123.6341,47.2079,齐齐哈尔市,富区青少年活动中心,颗粒物(PM10),74,98,62,3,9,75,,74,72,3,8,4,4,0.4,0.4
2026-02-05T1400,2591A,107.9765,26.5724,黔东南苗族侗族自治州,市环境监测站,细颗粒物(PM2.5),57,49,55,40,42,36,,34,23,22,20,5,4,1.1,1
2026-02-05T1400,2881A,107.8909,26.531,黔东南苗族侗族自治州,凯里学院,,34,34,51,20,38,44,,39,35,15,16,3,3,0.8,0.9
2026-02-05T1400,2593A,107.5223,26.2371,黔南布依族苗族自治州,小围寨,,,,36,37,34,36,,18,18,10,14,8,7,,1.1
2026-02-05T1400,3538A,107.5175,26.2977,黔南布依族苗族自治州,沙坝,颗粒物(PM10),51,51,38,32,32,36,,19,19,13,13,9,6,1.0,1
2026-02-05T1400,2589A,104.9022,25.0943,黔西南布依族苗族自治州,场坝街,细颗粒物(PM2.5),53,44,57,37,47,58,,41,41,7,13,3,3,0.7,1
2026-02-05T1400,2590A,104.8812,25.0994,黔西南布依族苗族自治州,坪东大道,颗粒物(PM10),58,65,59,27,46,54,,39,39,10,13,4,5,0.9,1
2026-02-05T1400,2502A,108.6238,21.9667,钦州市,市环保站,颗粒物(PM10),59,68,56,36,34,74,,58,54,19,21,4,3,0.5,0.6
2026-02-05T1400,2503A,108.655,21.9481,钦州市,沙埠小学,颗粒物(PM10),55,60,58,28,32,81,,52,52,13,21,5,4,0.4,0.4
2026-02-05T1400,2504A,108.5989,21.7435,钦州市,港区一小,颗粒物(PM10),61,72,71,3,27,81,,63,63,24,23,7,2,1.2,0.9
2026-02-05T1400,3404A,108.5959,21.9634,钦州市,北职校,颗粒物(PM10),56,62,45,16,24,79,,49,49,15,21,3,2,0.6,0.6
2026-02-05T1400,1046A,119.5247,39.9346,秦皇岛市,建设大厦,颗粒物(PM10),60,70,110,12,59,80,,54,54,7,45,5,10,0.2,0.8
2026-02-05T1400,3132A,119.5979,39.938,秦皇岛市,文明里,颗粒物(PM10),64,77,115,6,59,79,,51,51,9,51,8,13,0.3,0.8
2026-02-05T1400,4066A,119.7458,39.9952,秦皇岛市,南园路157号,颗粒物(PM10),63,75,108,3,58,80,,56,56,11,55,6,11,0.2,0.8
2026-02-05T1400,4067A,119.5131,39.8858,秦皇岛市,翠岛大街1号,颗粒物(PM10),55,60,91,3,59,77,,51,51,10,44,7,12,0.3,0.7
2026-02-05T1400,4198A,119.509013,39.825305,秦皇岛市,北戴河轮滑馆,颗粒物(PM10),56,61,113,3,62,83,,59,59,11,50,6,7,0.2,0.7
2026-02-05T1400,1310A,120.404,36.0625,青岛市,市南区东部子站,细颗粒物(PM2.5),202,210,144,152,114,107,,66,66,56,41,19,13,1.2,0.9
2026-02-05T1400,1311A,120.362344,36.10282,青岛市,四方区子站,细颗粒物(PM2.5),214,278,90,164,126,114,,50,50,47,49,14,8,1.3,1.1
2026-02-05T1400,1312A,120.294373,36.054183,青岛市,市南区西部子站,细颗粒物(PM2.5),228,200,141,178,127,102,,42,42,61,56,14,7,1.4,1.1
2026-02-05T1400,1313A,120.4581,36.0858,青岛市,崂山区子站,细颗粒物(PM2.5),144,168,136,110,104,131,,82,82,28,38,18,13,1.0,0.9
2026-02-05T1400,1315A,120.3945,36.3083,青岛市,城阳区子站,细颗粒物(PM2.5),233,263,151,183,120,106,,57,57,36,57,13,11,1.3,1.2
2026-02-05T1400,3642A,120.3454,36.0735,青岛市,市北区南部,细颗粒物(PM2.5),225,233,145,175,124,90,,39,39,63,49,12,7,1.4,1.1
2026-02-05T1400,3643A,120.3897,36.18,青岛市,李沧区北部,细颗粒物(PM2.5),198,207,144,148,119,123,,51,51,36,58,16,12,1.1,1.1
2026-02-05T1400,4110A,120.5222,36.4089,青岛市,盟旺路653号,细颗粒物(PM2.5),204,264,158,154,111,88,,55,55,24,43,5,8,1.2,1.3
2026-02-05T1400,4290A,120.196923,35.954556,青岛市,珠江路669号,细颗粒物(PM2.5),158,178,143,120,110,119,,44,44,52,60,,9,1.1,0.9
2026-02-05T1400,4291A,120.0424,35.8656,青岛市,黄岛区人民政府广场,细颗粒物(PM2.5),163,180,144,124,112,140,,67,67,36,58,18,11,1.0,1.1
2026-02-05T1400,1703A,113.0218,23.7086,清远市,凤城街办,细颗粒物(PM2.5),80,71,91,59,65,126,,60,60,28,54,/,/,/,/
2026-02-05T1400,3025A,113.0479,23.6343,清远市,技师学院,颗粒物(PM10),52,54,98,32,53,132,,60,60,25,60,6,6,0.5,0.7
2026-02-05T1400,3318A,112.9898,23.7403,清远市,清新太和,细颗粒物(PM2.5),70,80,81,51,50,142,,75,75,29,41,11,11,0.7,0.8
2026-02-05T1400,3455A,113.076,23.72,清远市,清城东城,颗粒物(PM10),57,63,86,37,49,135,,62,62,24,45,/,/,/,/
2026-02-05T1400,2661A,107.6325,35.7357,庆阳市,庆阳五中,颗粒物(PM10),55,59,81,20,41,90,,68,62,18,25,29,10,0.4,0.8
2026-02-05T1400,2662A,107.6361,35.7067,庆阳市,市环保局,颗粒物(PM10),53,55,77,19,40,98,,78,65,12,19,6,9,0.3,0.8
2026-02-05T1400,1916A,103.7897,25.5036,曲靖市,环境监测站,,33,14,34,7,20,103,,83,83,7,11,4,6,0.2,0.4
2026-02-05T1400,1917A,103.8013,25.5357,曲靖市,烟厂办公区,,31,24,36,6,18,99,,81,81,6,10,4,4,0.3,0.4
2026-02-05T1400,3376A,103.7926,25.4651,曲靖市,南苑二区,,29,22,33,3,20,90,,75,75,10,11,3,4,0.2,0.3
2026-02-05T1400,3377A,103.7442,25.5259,曲靖市,曲靖师范学院,,30,15,40,7,24,96,,78,78,5,12,5,5,0.3,0.3
2026-02-05T1400,1264A,118.8694,28.94,衢州市,环保大楼,细颗粒物(PM2.5),95,107,92,71,60,97,,37,37,32,55,/,/,/,/
2026-02-05T1400,1266A,118.8622,28.9809,衢州市,衢州学院,细颗粒物(PM2.5),102,112,83,76,55,76,,28,28,44,54,7,6,0.6,0.6
2026-02-05T1400,4097A,118.9646,28.9832,衢州市,衢州三中,细颗粒物(PM2.5),100,102,98,75,65,98,,32,32,29,55,7,6,0.7,0.9
2026-02-05T1400,1611A,118.5818,24.9116,泉州市,涂山街,颗粒物(PM10),65,79,56,42,32,137,,70,70,37,36,5,3,0.7,0.6
2026-02-05T1400,1612A,118.597,24.8976,泉州市,津头埔,细颗粒物(PM2.5),65,75,59,47,33,124,,66,66,29,32,6,4,0.6,0.6
2026-02-05T1400,1613A,118.6669,24.9422,泉州市,万安,细颗粒物(PM2.5),70,78,60,51,32,123,,52,52,25,42,5,3,0.6,0.5
2026-02-05T1400,4105A,118.6355,24.9148,泉州市,霞新路6号,细颗粒物(PM2.5),68,75,52,49,31,144,,60,60,29,41,/,/,0.7,0.6
2026-02-05T1400,2626A,88.8873,29.2723,日喀则市,日喀则监测站,,,,16,9,8,81,,97,84,1,3,,7,0.2,0.3
2026-02-05T1400,3726A,88.8775,29.2425,日喀则市,林业技术推广中心,,29,,17,6,6,91,,90,89,2,3,2,3,0.2,0.2
2026-02-05T1400,1659A,119.4711,35.421,日照市,监测站,细颗粒物(PM2.5),134,136,149,102,118,131,,60,60,25,69,15,15,1.0,1.5
2026-02-05T1400,1660A,119.523,35.4216,日照市,市政府广场,细颗粒物(PM2.5),145,139,151,111,115,131,,48,48,23,71,16,13,0.8,1.1
2026-02-05T1400,1661A,119.5511,35.4113,日照市,港务局,细颗粒物(PM2.5),182,180,160,137,117,118,,38,38,,79,13,11,,1.3
2026-02-05T1400,3507A,119.5326,35.4627,日照市,职业技术学院,细颗粒物(PM2.5),138,136,144,105,111,136,,56,56,24,63,16,12,1.2,1.4
2026-02-05T1400,3604A,119.3267,35.1043,日照市,岚山环保分局,细颗粒物(PM2.5),183,205,173,138,115,103,,52,52,57,62,28,27,2.0,1.7
2026-02-05T1400,1835A,111.1922,34.7752,三门峡市,市政府,细颗粒物(PM2.5),112,129,118,84,78,50,,24,24,54,60,18,14,1.0,1
2026-02-05T1400,1836A,111.1588,34.794,三门峡市,开发区,细颗粒物(PM2.5),115,153,141,87,87,56,,25,25,48,47,24,9,1.0,0.9
2026-02-05T1400,3039A,111.1911,34.7829,三门峡市,三门峡市第一小学,细颗粒物(PM2.5),114,134,131,86,83,51,,25,25,59,64,21,17,1.1,1.1
2026-02-05T1400,3598A,111.1031,34.719,三门峡市,富达温泉假日酒店,细颗粒物(PM2.5),122,147,158,92,103,67,,27,27,57,54,51,20,1.1,1.3
2026-02-05T1400,2324A,117.621,26.2626,三明市,三钢,,36,22,44,20,65,114,,56,56,6,33,9,7,0.4,1
2026-02-05T1400,2325A,117.6352,26.2714,三明市,三明二中,,36,35,40,16,27,114,,56,56,7,30,6,5,0.5,1.2
2026-02-05T1400,2326A,117.6028,26.2377,三明市,三元区政府,,36,33,43,14,29,114,,56,56,7,31,6,7,0.6,1
2026-02-05T1400,1877A,109.4962,18.2682,三亚市,河西子站,,26,9,30,3,14,82,,68,68,11,12,3,2,0.4,0.4
2026-02-05T1400,3540A,109.7348,18.3443,三亚市,君悦子站,,27,26,33,9,17,84,,60,60,5,9,3,2,0.4,0.5
2026-02-05T1400,4135A,109.1714,18.3739,三亚市,城东小学站,,30,29,33,7,15,96,,69,69,6,10,/,/,/,/
2026-02-05T1400,2624A,91.7592,29.234,山南市,山南监测站,,28,27,12,3,4,88,,80,78,1,2,5,5,0.3,0.4
2026-02-05T1400,2625A,91.7701,29.2436,山南市,山南人民医院,,31,31,21,6,6,87,,80,74,1,4,5,5,0.5,0.4
2026-02-05T1400,1674A,116.6795,23.3666,汕头市,金平子站,颗粒物(PM10),56,62,54,31,34,136,,78,78,17,31,8,6,0.6,0.7
2026-02-05T1400,1675A,116.7248,23.3632,汕头市,龙湖子站,颗粒物(PM10),60,70,56,41,42,117,,75,75,18,26,12,11,/,/
2026-02-05T1400,1676A,116.7257,23.2774,汕头市,濠江子站,颗粒物(PM10),51,52,52,29,34,126,,78,78,22,28,10,9,/,/
2026-02-05T1400,1677A,116.7518,23.4712,汕头市,澄海子站,颗粒物(PM10),78,105,64,44,40,130,,80,80,16,23,9,8,0.7,0.7
2026-02-05T1400,1678A,116.6088,23.2539,汕头市,潮阳子站,细颗粒物(PM2.5),77,92,50,56,39,151,,87,87,17,20,9,8,0.8,0.8
2026-02-05T1400,3444A,116.4539,23.2684,汕头市,潮南峡山,臭氧1小时(O3_1h),62,57,58,39,36,169,,94,94,15,20,8,7,1.0,0.9
2026-02-05T1400,3624A,116.4069,23.2533,汕头市,潮南子站,,47,47,70,23,39,138,,74,74,15,22,7,7,/,/
2026-02-05T1400,1693A,115.3653,22.7751,汕尾市,市环保局,,40,36,39,17,25,128,,93,93,10,15,5,9,0.8,0.7
2026-02-05T1400,1695A,115.362,22.7926,汕尾市,新城中学,颗粒物(PM10),51,52,43,21,24,138,,94,94,13,16,6,6,0.6,0.6
2026-02-05T1400,2645A,109.9155,33.8714,商洛市,监测站,,44,44,65,22,38,100,,58,58,8,21,5,4,0.6,0.8
2026-02-05T1400,3045A,109.9647,33.8486,商洛市,商州区中学,颗粒物(PM10),63,76,74,22,32,102,,49,49,10,26,5,5,0.5,0.6
2026-02-05T1400,2408A,115.6701,34.4283,商丘市,环境监测站,细颗粒物(PM2.5),169,165,156,128,126,106,,33,33,21,44,2,2,0.6,0.8
2026-02-05T1400,2409A,115.6458,34.4047,商丘市,粮食局,细颗粒物(PM2.5),166,171,154,126,120,94,,35,35,26,40,,2,0.8,0.9
2026-02-05T1400,3171A,115.6069,34.4465,商丘市,梁园区档案局,细颗粒物(PM2.5),142,151,146,108,113,101,,32,32,20,47,4,2,0.8,0.9
2026-02-05T1400,4119A,115.6701,34.3767,商丘市,北海东路185号,细颗粒物(PM2.5),145,178,178,111,118,106,,29,29,20,59,6,3,0.9,0.9
2026-02-05T1400,4120A,115.6172,34.3704,商丘市,中山大街3号,细颗粒物(PM2.5),152,196,205,116,130,97,,25,25,28,63,3,2,0.7,0.8
2026-02-05T1400,1141A,121.401,31.2382,上海市,普陀,细颗粒物(PM2.5),93,94,82,69,57,22,,23,13,101,89,9,7,0.9,0.9
2026-02-05T1400,1142A,121.4774,31.2043,上海市,十五厂,细颗粒物(PM2.5),79,101,82,58,50,23,,14,14,101,96,9,7,1.1,1
2026-02-05T1400,1143A,121.4673,31.3011,上海市,虹口,细颗粒物(PM2.5),100,112,88,75,58,7,,11,10,117,95,14,8,0.7,0.7
2026-02-05T1400,1147A,121.4253,31.226,上海市,静安监测站,细颗粒物(PM2.5),84,90,76,62,52,27,,23,20,96,82,9,8,0.9,1
2026-02-05T1400,1148A,121.7029,31.1905,上海市,浦东川沙,细颗粒物(PM2.5),102,106,95,76,64,13,,11,11,115,88,17,10,0.9,0.9
2026-02-05T1400,1149A,121.5339,31.229,上海市,浦东新区监测站,细颗粒物(PM2.5),100,101,78,75,59,4,,32,18,132,83,12,7,1.2,1.1
2026-02-05T1400,1150A,121.5776,31.2038,上海市,浦东张江,细颗粒物(PM2.5),94,109,88,70,57,9,,15,14,132,85,15,8,0.8,0.5
2026-02-05T1400,3265A,121.4242,31.3303,上海市,宝山庙行,细颗粒物(PM2.5),104,114,98,78,65,13,,8,8,107,98,16,10,0.7,0.9
2026-02-05T1400,3266A,121.8789,31.4662,上海市,崇明上实东滩,细颗粒物(PM2.5),104,97,66,78,49,50,,28,28,63,68,7,6,0.8,0.6
2026-02-05T1400,3268A,121.316,31.2839,上海市,嘉定南翔,细颗粒物(PM2.5),104,110,90,78,57,20,,12,12,107,98,8,6,0.9,0.6
2026-02-05T1400,3269A,121.3357,30.7455,上海市,金山新城,细颗粒物(PM2.5),83,65,53,61,46,51,,32,30,55,47,9,12,0.8,0.7
2026-02-05T1400,3270A,121.4996,31.0741,上海市,闵行浦江,细颗粒物(PM2.5),89,94,72,66,55,18,,10,10,97,72,10,8,1.0,0.8
2026-02-05T1400,3271A,121.2886,31.1663,上海市,青浦徐泾,细颗粒物(PM2.5),98,106,86,73,59,30,,9,9,94,96,6,6,0.6,0.7
2026-02-05T1400,3272A,121.2193,31.0382,上海市,松江图书馆,细颗粒物(PM2.5),94,99,78,70,57,54,,18,15,65,77,8,7,0.8,0.8
2026-02-05T1400,3273A,121.3904,31.206,上海市,长宁仙霞,细颗粒物(PM2.5),83,95,80,61,48,20,,20,11,97,79,9,8,0.9,0.9
2026-02-05T1400,3274A,121.7964,31.0507,上海市,浦东惠南,细颗粒物(PM2.5),87,80,69,64,48,10,,12,12,121,80,10,6,0.9,0.7
