timepoint,stationcode,longitude,latitude,area,positionname,primarypollutant,aqi,pm10,pm10_24h,pm2_5,pm2_5_24h,o3,o3_24h,o3_8h,o3_8h_24h,no2,no2_24h,so2,so2_24h,co,co_24h
2026-02-05T1200,2568A,102.2503,31.8896,阿坝藏族羌族自治州,马师校,,23,21,23,16,11,56,,41,38,10,12,4,4,0.5,0.5
2026-02-05T1200,3994A,102.2174,31.9016,阿坝藏族羌族自治州,马尔康中学西区,,,,27,,11,57,,45,44,9,9,,7,0.6,0.5
2026-02-05T1200,2695A,80.2899,41.1684,阿克苏地区,电视台,颗粒物(PM10),115,180,230,71,96,42,,26,26,29,49,10,12,1.4,2.1
2026-02-05T1200,2696A,80.2592,41.1541,阿克苏地区,艺术中心,颗粒物(PM10),98,145,206,68,101,44,,27,27,28,57,5,6,0.7,1.3
2026-02-05T1200,2205A,105.699,38.8409,阿拉善盟,蒙二幼,,,,43,,12,59,,85,76,,10,10,10,0.6,0.6
2026-02-05T1200,2206A,105.7198,38.8508,阿拉善盟,环保局新楼,,49,49,34,12,13,58,,88,77,18,7,9,9,0.6,0.5
2026-02-05T1200,2708A,88.1266,47.8515,阿勒泰地区,市站,,,34,25,18,14,,,60,51,,25,,4,,0.4
2026-02-05T1200,4166A,88.1198,47.7931,阿勒泰地区,阿勒泰路33号,,33,33,28,19,15,73,,77,70,12,11,4,5,0.5,0.5
2026-02-05T1200,2630A,80.1171,32.4999,阿里地区,阿里监测站,,22,,3,12,5,69,,61,56,6,6,8,8,0.4,0.3
2026-02-05T1200,3192A,80.0906,32.5029,阿里地区,阿里藏医院,,21,19,8,7,3,66,,75,66,11,4,16,10,0.6,0.4
2026-02-05T1200,2644A,109.0088,32.6974,安康市,汉滨区检察院,细颗粒物(PM2.5),77,68,80,56,52,37,,12,12,18,31,8,8,0.9,0.8
2026-02-05T1200,4054A,109.0324,32.6913,安康市,市邮政管理局,细颗粒物(PM2.5),80,94,100,59,58,39,,12,12,23,38,6,7,1.0,1
2026-02-05T1200,2291A,117.0806,30.5181,安庆市,环科院,细颗粒物(PM2.5),84,67,80,62,58,14,,7,7,59,46,8,8,0.8,0.8
2026-02-05T1200,2292A,117.0331,30.5118,安庆市,马山宾馆,细颗粒物(PM2.5),82,60,75,60,59,35,,14,14,38,46,6,7,0.8,1.1
2026-02-05T1200,2294A,116.9897,30.6146,安庆市,安庆大学,细颗粒物(PM2.5),64,76,69,46,43,22,,18,18,54,36,6,6,0.8,0.7
2026-02-05T1200,3173A,117.0598,30.5351,安庆市,市人大,细颗粒物(PM2.5),63,69,78,45,44,43,,11,11,40,41,8,8,0.7,0.7
2026-02-05T1200,3123A,105.9408,26.2431,安顺市,凤凰山,,31,31,34,16,25,41,,51,50,16,13,16,15,0.9,0.8
2026-02-05T1200,3124A,105.9443,26.2567,安顺市,金钟山,,29,22,25,20,25,38,,49,47,15,10,17,12,0.9,0.8
2026-02-05T1200,3125A,105.8983,26.248,安顺市,娄家坡,,,28,26,21,24,,,49,49,18,10,26,13,1.0,0.8
2026-02-05T1200,1819A,114.3552,36.1017,安阳市,红庙街,细颗粒物(PM2.5),107,126,123,80,95,63,,34,34,30,43,8,10,0.9,1.2
2026-02-05T1200,1820A,114.361,36.0681,安阳市,银杏小区,细颗粒物(PM2.5),103,151,127,77,87,64,,37,37,30,42,10,10,0.8,1.1
2026-02-05T1200,3141A,114.3921,36.0879,安阳市,信访局,细颗粒物(PM2.5),92,132,126,68,82,67,,46,46,26,30,11,13,0.9,1.2
2026-02-05T1200,3669A,114.4706,36.0634,安阳市,左辅环卫站,颗粒物(PM10),109,168,157,76,99,66,,28,28,33,51,11,13,0.8,1
2026-02-05T1200,4117A,114.2918,36.0769,安阳市,钢三路198号,颗粒物(PM10),87,123,148,60,90,61,,45,45,23,32,8,11,0.8,1
2026-02-05T1200,1748A,123.0441,41.1201,鞍山市,深沟寺,颗粒物(PM10),102,154,159,11,108,77,,52,52,8,52,6,13,0.4,1.5
2026-02-05T1200,1749A,123.011,41.0931,鞍山市,太阳城,颗粒物(PM10),107,164,166,13,116,72,,49,49,9,52,8,23,0.4,1.7
2026-02-05T1200,1750A,123.0483,41.1445,鞍山市,太平,颗粒物(PM10),124,198,171,16,109,73,,51,51,10,46,7,17,0.4,1.4
2026-02-05T1200,1751A,122.964,41.0968,鞍山市,铁西三道街,颗粒物(PM10),119,188,179,18,124,73,,48,48,,61,,28,0.8,2
2026-02-05T1200,1753A,123.0219,41.0822,鞍山市,明达新区,颗粒物(PM10),93,135,154,14,113,74,,54,54,11,46,6,15,0.5,1.6
2026-02-05T1200,4201A,122.944647,41.082639,鞍山市,兴盛南路290号,颗粒物(PM10),115,179,178,18,122,75,,52,52,14,58,8,22,0.4,1.6
2026-02-05T1200,2195A,107.4206,40.7609,巴彦淖尔市,附二中,,35,35,92,3,20,68,,68,66,7,8,11,9,0.4,0.4
2026-02-05T1200,2196A,107.37,40.7372,巴彦淖尔市,市环保大楼,,37,37,89,3,19,70,,70,68,8,10,8,6,0.3,0.3
2026-02-05T1200,1956A,86.1476,41.7529,巴音郭楞蒙古自治州,孔雀公园,细颗粒物(PM2.5),80,93,116,59,55,11,,10,10,68,38,10,9,1.4,0.8
2026-02-05T1200,1957A,86.1971,41.7166,巴音郭楞蒙古自治州,棉纺厂,颗粒物(PM10),150,250,210,54,51,35,,30,28,33,24,/,/,/,/
2026-02-05T1200,1958A,86.236,41.7172,巴音郭楞蒙古自治州,经济开发区,颗粒物(PM10),113,176,168,32,32,29,,35,24,43,29,6,6,0.8,0.6
2026-02-05T1200,3181A,106.776805,31.852614,巴中市,市五中,细颗粒物(PM2.5),82,73,101,60,74,4,,2,2,26,28,6,6,1.4,1.3
2026-02-05T1200,3183A,106.7419,31.8654,巴中市,圣泉水务公司,,,,82,,63,5,,6,6,24,30,,6,1.2,1.3
2026-02-05T1200,3616A,106.7617,31.8343,巴中市,市中心医院,细颗粒物(PM2.5),84,69,95,62,70,4,,2,2,24,29,6,6,1.3,1.4
2026-02-05T1200,2235A,122.7909,45.608,白城市,洮北区环保局,颗粒物(PM10),79,108,46,10,12,76,,76,76,6,11,8,7,0.2,0.3
2026-02-05T1200,2236A,122.8741,45.5725,白城市,市环保局,颗粒物(PM10),91,132,47,6,12,70,,69,69,4,9,4,6,0.3,0.3
2026-02-05T1200,2231A,126.4219,41.9172,白山市,喜丰,,44,44,94,17,77,77,,81,78,10,20,9,16,0.7,1.1
2026-02-05T1200,2232A,126.4082,41.9416,白山市,环保局,,,,90,16,84,78,,79,79,10,23,12,16,,1.4
2026-02-05T1200,2647A,104.1727,36.5448,白银市,第三小学,细颗粒物(PM2.5),135,122,86,103,52,54,,36,36,66,42,,66,,1.2
2026-02-05T1200,2648A,104.1467,36.5482,白银市,动力公司,细颗粒物(PM2.5),79,90,67,58,38,84,,48,47,49,31,136,31,1.3,0.8
2026-02-05T1200,2512A,106.6102,23.901,百色市,市监测站,,,,63,,56,,,22,22,16,18,13,10,1.0,0.9
2026-02-05T1200,2513A,106.6524,23.8842,百色市,市中心血站,细颗粒物(PM2.5),102,84,80,76,69,56,,14,14,15,26,14,10,1.1,1
2026-02-05T1200,4133A,106.6273,23.8798,百色市,龙景西路,细颗粒物(PM2.5),84,68,88,62,63,48,,14,14,17,23,12,11,0.8,0.8
2026-02-05T1200,2270A,117.396,32.9389,蚌埠市,工人疗养院,细颗粒物(PM2.5),123,134,113,93,71,85,,34,34,45,50,7,6,0.8,0.8
2026-02-05T1200,2271A,117.3606,32.9428,蚌埠市,百货大楼,细颗粒物(PM2.5),115,135,115,87,70,80,,23,23,50,58,9,7,0.6,0.9
2026-02-05T1200,2273A,117.4183,32.8909,蚌埠市,蚌埠学院,细颗粒物(PM2.5),128,112,100,97,66,92,,36,36,37,43,10,6,0.9,0.7
2026-02-05T1200,2274A,117.3534,32.9672,蚌埠市,淮上区政府,细颗粒物(PM2.5),124,100,108,94,74,100,,24,24,,62,8,7,,0.8
2026-02-05T1200,2275A,117.3143,32.8977,蚌埠市,高新区,细颗粒物(PM2.5),125,110,105,95,77,90,,27,27,31,51,10,8,0.7,0.7
2026-02-05T1200,3715A,117.3091,32.9314,蚌埠市,蚌埠田家炳中学,细颗粒物(PM2.5),129,137,120,98,77,89,,34,34,45,54,10,28,0.7,0.7
2026-02-05T1200,1585A,109.8761,40.6533,包头市,市环境监测站,,24,19,70,3,20,74,,70,70,10,20,5,9,0.4,0.7
2026-02-05T1200,1587A,109.9992,40.5843,包头市,包头八中,,,36,68,3,23,54,,70,63,16,20,8,7,,0.7
2026-02-05T1200,1589A,109.8641,40.6288,包头市,惠龙物流,,24,14,62,10,19,75,,73,73,11,18,8,12,0.4,0.6
2026-02-05T1200,1590A,110.0376,40.5546,包头市,东河鸿龙湾,,,40,63,9,15,61,,70,58,12,26,10,10,,0.6
2026-02-05T1200,3283A,109.9154,40.5684,包头市,滨河大厦,,20,16,52,8,18,64,,69,66,20,19,9,9,0.5,0.5
2026-02-05T1200,3419A,109.9449,40.6259,包头市,包头市委党校,,23,21,60,3,18,72,,72,71,13,21,10,11,0.4,0.6
2026-02-05T1200,3683A,109.8332,40.6577,包头市,昆区政府,,23,19,62,10,22,73,,72,72,12,20,7,11,0.4,0.7
2026-02-05T1200,1931A,107.0802,34.3129,宝鸡市,竹园沟,颗粒物(PM10),59,67,55,33,25,47,,26,26,24,19,8,6,0.6,0.6
2026-02-05T1200,1933A,107.1429,34.3549,宝鸡市,监测站,颗粒物(PM10),66,82,75,43,41,33,,19,19,32,33,8,6,0.6,0.6
2026-02-05T1200,1934A,107.1172,34.3759,宝鸡市,技工学校,颗粒物(PM10),74,97,85,42,45,35,,26,22,22,26,11,8,0.7,0.7
2026-02-05T1200,1936A,107.2025,34.3518,宝鸡市,文理学院,颗粒物(PM10),59,68,80,41,43,34,,21,20,28,33,6,5,0.9,0.9
2026-02-05T1200,1937A,107.2396,34.3626,宝鸡市,三迪小学,细颗粒物(PM2.5),62,69,91,44,48,31,,19,19,38,46,6,5,0.8,0.8
2026-02-05T1200,4155A,107.1721,34.3558,宝鸡市,滨河北路,颗粒物(PM10),64,78,81,43,46,26,,21,19,27,30,8,5,0.7,0.6
2026-02-05T1200,4308A,107.3898,34.3601,宝鸡市,陈仓区北开路21号,,,104,114,58,66,35,,45,45,,40,23,42,0.6,0.7
2026-02-05T1200,1051A,115.4803,38.8568,保定市,游泳馆,颗粒物(PM10),132,214,137,17,95,72,,32,32,11,54,3,13,0.3,0.8
2026-02-05T1200,1052A,115.509,38.8895,保定市,华电二区,颗粒物(PM10),103,155,123,3,88,61,,18,18,12,54,3,5,0.4,1
2026-02-05T1200,1053A,115.4588,38.9037,保定市,接待中心,颗粒物(PM10),80,109,122,7,82,68,,28,28,3,41,1,6,0.0,0.6
2026-02-05T1200,1054A,115.4484,38.8344,保定市,地表水厂,颗粒物(PM10),156,262,148,52,80,72,,29,29,,53,3,10,,0.8
2026-02-05T1200,3581A,115.3136,38.9511,保定市,满城区生态环境分局,颗粒物(PM10),119,188,130,12,68,66,,40,40,12,42,2,7,0.2,0.8
2026-02-05T1200,3582A,115.4709,38.7628,保定市,清苑区第二中学,颗粒物(PM10),172,294,165,19,86,71,,31,31,14,47,6,13,0.2,0.8
2026-02-05T1200,3583A,115.6231,39.0223,保定市,徐水物探局,颗粒物(PM10),141,231,187,7,99,78,,25,25,6,53,6,13,0.3,0.9
2026-02-05T1200,4004A,115.4199,38.8665,保定市,双鹰农机,,,,156,,86,71,,40,40,,55,,11,0.2,0.8
2026-02-05T1200,4034A,115.515,38.8589,保定市,植保所站,颗粒物(PM10),117,184,136,19,86,72,,25,25,7,59,3,6,0.5,1.1
2026-02-05T1200,2594A,99.1589,25.1137,保山市,市环境监测站,,,43,27,22,17,81,,62,56,,9,,4,0.4,0.3
2026-02-05T1200,2595A,99.1616,25.1381,保山市,市环保局,,,40,34,,17,83,,68,60,11,6,4,3,0.6,0.5
2026-02-05T1200,1867A,109.1435,21.4085,北海市,海滩公园,,,46,49,27,20,,,80,79,10,11,,7,0.9,0.9
2026-02-05T1200,1868A,109.0983,21.466,北海市,新市环保局,,40,40,40,18,19,85,,86,79,11,14,6,6,0.5,0.5
2026-02-05T1200,1869A,109.1775,21.5232,北海市,北海工业园,,39,39,52,15,22,81,,73,70,8,10,5,6,0.6,0.6
2026-02-05T1200,3400A,109.1844,21.4396,北海市,龙潭自来水厂,,42,42,42,29,26,79,,74,73,8,9,4,5,0.5,0.5
2026-02-05T1200,1001A,116.3611,39.8786,北京市,万寿西宫,,46,46,86,10,50,79,,79,79,3,33,2,4,0.4,0.6
2026-02-05T1200,1003A,116.4174,39.9289,北京市,东四,,32,32,83,6,46,61,,57,57,8,33,4,6,0.2,0.5
2026-02-05T1200,1004A,116.4073,39.8858,北京市,天坛,,45,45,81,9,47,70,,69,69,10,32,2,3,0.2,0.5
2026-02-05T1200,1005A,116.4622,39.9364,北京市,农展馆,,21,20,82,3,49,66,,66,66,3,27,4,5,0.1,0.5
2026-02-05T1200,1006A,116.3399,39.9293,北京市,官园,,42,42,84,8,48,64,,64,64,9,33,3,5,0.3,0.5
2026-02-05T1200,1007A,116.2879,39.9613,北京市,海淀万柳,,42,42,78,8,43,60,,60,60,13,42,3,4,0.2,0.6
2026-02-05T1200,1008A,116.6635,40.1349,北京市,顺义新城,,25,12,101,3,62,79,,68,68,5,41,5,6,0.2,0.8
2026-02-05T1200,1009A,116.6275,40.327,北京市,怀柔镇,,25,11,52,3,33,77,,74,74,4,25,4,5,0.3,0.6
2026-02-05T1200,1010A,116.2295,40.217,北京市,昌平镇,,43,43,65,9,31,63,,64,64,7,27,2,3,0.3,0.6
2026-02-05T1200,1011A,116.3968,39.982,北京市,奥体中心,,24,24,81,7,48,73,,63,63,7,39,5,6,0.2,0.5
2026-02-05T1200,3418A,116.8336,40.4095,北京市,密云新城,,24,9,71,3,42,76,,59,59,4,32,4,4,0.2,0.5
2026-02-05T1200,3671A,116.0879,39.9725,北京市,门头沟三家店,,25,17,62,6,33,77,,74,74,2,24,3,4,0.4,0.6
2026-02-05T1200,3672A,116.1507,39.8246,北京市,丰台云岗,,27,22,74,3,42,84,,81,81,9,36,3,4,0.3,0.6
2026-02-05T1200,3674A,115.9578,39.7602,北京市,房山燕山,,26,20,60,3,36,81,,73,73,6,22,3,6,0.2,0.5
2026-02-05T1200,3675A,116.4669,39.7734,北京市,大兴旧宫,,45,45,84,8,52,72,,69,69,9,37,3,4,0.4,0.6
2026-02-05T1200,3694A,115.9859,40.4562,北京市,延庆石河营,,32,32,53,8,24,77,,71,71,2,27,4,5,0.3,0.6
2026-02-05T1200,3695A,116.6151,40.3052,北京市,怀柔新城,,25,10,54,3,33,78,,77,77,2,17,2,3,0.2,0.5
2026-02-05T1200,3696A,116.2542,39.8764,北京市,丰台小屯,,50,50,88,8,48,55,,57,56,11,44,3,4,0.3,0.6
2026-02-05T1200,3697A,116.8399,40.3843,北京市,密云镇,,25,12,75,3,43,78,,53,53,5,41,4,4,0.3,0.6
2026-02-05T1200,4057A,115.9423,40.4431,北京市,延庆百泉,,44,44,53,9,22,73,,67,67,1,14,3,4,0.3,0.4
2026-02-05T1200,4058A,116.6598,39.9164,北京市,通州新华,,23,16,113,3,73,71,,53,53,5,41,2,4,0.4,0.9
2026-02-05T1200,4182A,116.1942,39.9158,北京市,石景山八角,,38,38,80,7,40,60,,62,62,5,40,3,3,0.1,0.4
2026-02-05T1200,4194A,117.078628,40.151726,北京市,平谷新城,,22,11,82,3,51,70,,58,58,5,31,4,4,0.3,0.8
2026-02-05T1200,1761A,123.8274146,41.31234549,本溪市,大峪,颗粒物(PM10),66,82,121,6,76,74,,52,52,8,40,7,10,0.4,1
2026-02-05T1200,1763A,123.7169,41.3094,本溪市,彩屯,颗粒物(PM10),58,66,120,7,89,80,,51,51,10,34,6,15,0.5,2
2026-02-05T1200,1764A,123.7672166,41.28649327,本溪市,东明,颗粒物(PM10),126,202,97,3,78,75,,56,50,12,28,8,10,0.6,1.1
2026-02-05T1200,1765A,123.799345,41.266614,本溪市,新立屯,颗粒物(PM10),135,220,101,6,77,74,,58,53,5,27,9,11,0.6,1
2026-02-05T1200,1766A,123.829144,41.336777,本溪市,威宁,颗粒物(PM10),156,262,123,,74,71,,42,42,12,43,,9,0.5,1.2
2026-02-05T1200,2587A,105.287,27.3133,毕节市,八中,,29,29,28,20,20,58,,57,57,15,11,8,9,0.9,0.9
2026-02-05T1200,2588A,105.3079,27.2987,毕节市,师专,,20,20,23,9,16,64,,66,66,15,12,8,10,0.8,0.8
2026-02-05T1200,4263A,105.3688,27.3598,毕节市,工业大道,,31,31,25,19,19,62,,66,64,14,12,10,10,/,/
2026-02-05T1200,1629A,117.9961,37.3604,滨州市,第二水厂,颗粒物(PM10),206,354,191,132,138,52,,29,29,37,54,12,16,1.2,1.1
2026-02-05T1200,1630A,117.9789,37.3931,滨州市,北中新校,细颗粒物(PM2.5),176,259,187,133,140,51,,39,38,34,38,11,13,1.4,1.2
2026-02-05T1200,3514A,117.9379,37.3959,滨州市,中海酒店,细颗粒物(PM2.5),172,271,183,130,140,67,,44,44,36,49,16,13,1.3,1.2
2026-02-05T1200,3515A,117.9381509,37.35547456,滨州市,开发区一中,颗粒物(PM10),202,351,204,116,136,56,,25,25,30,59,16,21,1.3,1.2
2026-02-05T1200,3516A,118.0914,37.6938,滨州市,金海六路,细颗粒物(PM2.5),221,193,205,171,166,46,,26,26,32,65,8,13,1.6,1.4
2026-02-05T1200,4028A,117.9955,37.3752,滨州市,滨州市西街道办事处,颗粒物(PM10),183,315,188,129,132,58,,34,34,32,45,13,13,1.1,1
2026-02-05T1200,2311A,115.8071,33.8399,亳州市,污水处理厂,细颗粒物(PM2.5),155,145,135,118,100,74,,19,18,40,48,8,9,0.9,0.9
2026-02-05T1200,2312A,115.7789,33.8519,亳州市,三国揽胜宫,细颗粒物(PM2.5),148,190,147,113,94,66,,36,22,50,46,7,6,0.9,0.8
2026-02-05T1200,3332A,115.7631,33.803,亳州市,亳州学院,细颗粒物(PM2.5),150,162,133,115,93,59,,47,40,40,31,5,4,0.9,0.9
2026-02-05T1200,2693A,82.0482,44.8553,博尔塔拉蒙古自治州,市党校,细颗粒物(PM2.5),100,124,63,75,29,69,,74,72,26,16,2,4,1.8,0.6
2026-02-05T1200,2694A,82.0805,44.8966,博尔塔拉蒙古自治州,市环保局,细颗粒物(PM2.5),140,146,78,107,42,79,,73,73,22,27,6,8,1.3,1
2026-02-05T1200,1071A,116.8733,38.2922,沧州市,沧县城建局,颗粒物(PM10),138,225,175,14,115,76,,36,36,9,55,7,9,0.1,0.8
2026-02-05T1200,1072A,116.8462,38.3189,沧州市,电视转播站,颗粒物(PM10),105,159,164,14,134,76,,28,28,13,48,1,5,0.4,0.9
2026-02-05T1200,1073A,116.8588,38.3161,沧州市,市环保局,颗粒物(PM10),118,186,178,19,107,65,,24,24,11,48,4,9,0.4,1
2026-02-05T1200,3324A,116.8011,38.294,沧州市,河北水利电力学院,颗粒物(PM10),159,268,186,15,127,68,,31,31,8,42,3,10,0.1,0.8
2026-02-05T1200,2622A,97.1813,31.1289,昌都市,昌都监测站,,24,15,18,12,6,74,,65,61,9,6,3,3,0.4,0.2
2026-02-05T1200,3719A,97.1707,31.1428,昌都市,昌都会议中心,,,9,11,7,7,,,63,59,4,2,4,4,0.3,0.1
2026-02-05T1200,2692A,87.2722,44.0298,昌吉回族自治州,新区政务中心,细颗粒物(PM2.5),112,130,98,84,66,31,,15,14,46,50,10,9,1.5,1.3
2026-02-05T1200,3613A,87.3069,44.0093,昌吉回族自治州,亚心广场,细颗粒物(PM2.5),158,149,116,120,87,22,,45,38,44,41,9,9,1.3,1.2
2026-02-05T1200,4164A,87.2057,43.9289,昌吉回族自治州,财政所,,42,42,70,22,46,59,,56,54,18,16,6,6,0.8,0.7
2026-02-05T1200,1120A,125.2874,43.9024,长春市,客车厂,颗粒物(PM10),64,78,59,7,37,68,,49,49,12,37,6,9,0.3,0.6
2026-02-05T1200,1121A,125.2943,43.8508,长春市,邮电学院,颗粒物(PM10),53,56,53,6,40,72,,47,47,9,27,7,10,0.3,0.5
2026-02-05T1200,1122A,125.3648,43.8745,长春市,劳动公园,颗粒物(PM10),57,64,68,7,41,73,,51,51,10,29,4,6,0.4,0.7
2026-02-05T1200,1123A,125.3233,43.8781,长春市,园林处,,50,50,52,10,43,74,,51,51,7,24,6,10,0.3,0.5
2026-02-05T1200,1124A,125.4604,43.7904,长春市,净月潭,颗粒物(PM10),60,70,56,7,42,74,,54,54,9,23,5,7,0.3,0.6
2026-02-05T1200,1126A,125.38,43.8422,长春市,经开区环卫处,,40,40,56,7,40,71,,48,48,13,29,8,8,0.3,0.5
2026-02-05T1200,1127A,125.234,43.7761,长春市,高新区管委会,颗粒物(PM10),83,116,61,3,38,80,,51,51,6,34,6,10,0.3,0.5
2026-02-05T1200,1128A,125.1695,43.83,长春市,岱山公园,,,144,60,10,41,,,40,,9,40,,8,0.2,0.4
2026-02-05T1200,4281A,125.334645,43.916281,长春市,北亚泰大街1068号,,,99,62,13,46,70,,47,47,9,29,6,9,,0.5
2026-02-05T1200,1335A,113.082,28.2421,长沙市,经开区环保局,,,116,104,72,67,,,1,1,34,47,4,5,0.8,0.8
2026-02-05T1200,1336A,112.8873,28.2202,长沙市,高开区环保局,细颗粒物(PM2.5),119,124,115,90,84,,,4,4,26,44,9,6,1.0,1.1
2026-02-05T1200,1337A,113.0785,28.2012,长沙市,马坡岭,细颗粒物(PM2.5),108,122,111,81,72,9,,6,6,36,46,7,7,1.0,1
2026-02-05T1200,1338A,112.9448,28.1894,长沙市,湖南师范大学,细颗粒物(PM2.5),100,123,121,75,72,28,,10,10,25,46,6,5,1.0,1.1
2026-02-05T1200,1339A,113.0177,28.1322,长沙市,雨花区环保局,细颗粒物(PM2.5),98,121,104,73,65,4,,1,1,44,57,8,9,1.0,1
2026-02-05T1200,1340A,112.9795,28.2593,长沙市,伍家岭,细颗粒物(PM2.5),112,124,121,84,76,10,,5,5,35,48,6,7,0.9,0.9
2026-02-05T1200,1341A,113.002,28.1944,长沙市,火车新站,细颗粒物(PM2.5),103,113,115,77,74,16,,10,10,36,54,3,4,1.1,1.2
2026-02-05T1200,1342A,112.9846,28.1177,长沙市,天心区环保局,细颗粒物(PM2.5),107,122,110,80,74,15,,6,6,36,54,7,7,0.8,0.8
2026-02-05T1200,1343A,112.8906,28.1307,长沙市,湖南中医药大学,细颗粒物(PM2.5),103,129,117,77,72,19,,10,10,38,51,8,7,1.0,1
2026-02-05T1200,1727A,113.1146,36.1547,长治市,清华站,颗粒物(PM10),84,118,82,53,48,37,,28,21,48,39,29,14,1.2,1
2026-02-05T1200,1730A,113.0887,36.2126,长治市,审计局,,,,80,,50,40,,22,13,,42,29,17,1.0,0.8
2026-02-05T1200,1731A,113.0845,36.1856,长治市,长治八中,细颗粒物(PM2.5),90,126,106,67,56,28,,17,10,53,40,32,18,1.2,0.9
2026-02-05T1200,2845A,113.1561,36.1912,长治市,德盛苑,,,108,63,68,46,,,63,54,56,22,24,15,1.4,0.9
2026-02-05T1200,3568A,113.0603,36.0464,长治市,向阳小学,颗粒物(PM10),96,141,104,64,50,54,,46,38,47,35,33,19,1.3,0.9
2026-02-05T1200,3569A,112.8788,36.315,长治市,屯留一中,细颗粒物(PM2.5),75,80,79,55,50,61,,27,27,28,42,45,18,1.1,0.9
2026-02-05T1200,4189A,113.113092,36.199482,长治市,英华南巷50号,细颗粒物(PM2.5),89,120,88,66,52,33,,23,16,49,41,26,16,1.2,0.9
2026-02-05T1200,4190A,113.23666,36.33435,长治市,学府街1号,细颗粒物(PM2.5),93,126,98,69,56,69,,24,24,45,59,55,22,2.0,1.6
2026-02-05T1200,1854A,111.696,28.9725,常德市,市二中,细颗粒物(PM2.5),150,154,131,115,92,7,,11,7,36,28,6,5,1.6,1.3
2026-02-05T1200,3138A,111.7152,29.0288,常德市,武陵区永安,细颗粒物(PM2.5),152,146,134,116,100,20,,14,8,32,30,4,5,1.4,1.3
2026-02-05T1200,3139A,111.6891,28.9881,常德市,鼎城区玉霞,细颗粒物(PM2.5),152,144,130,116,94,,,10,6,36,31,7,8,1.5,1.3
2026-02-05T1200,3140A,111.6651,29.0526,常德市,武陵区长庚,细颗粒物(PM2.5),176,158,123,133,102,19,,16,10,29,27,5,5,1.2,1
2026-02-05T1200,1196A,119.9524,31.7586,常州市,市监测站,细颗粒物(PM2.5),104,115,99,78,66,38,,20,18,68,58,12,9,1.0,0.8
2026-02-05T1200,1200A,119.9351,31.703,常州市,武进监测站,细颗粒物(PM2.5),103,111,88,77,62,30,,29,17,71,45,12,9,1.1,0.6
2026-02-05T1200,3002A,119.9701,31.813,常州市,行政中心,细颗粒物(PM2.5),114,113,100,86,70,32,,32,19,68,52,10,7,1.0,0.9
2026-02-05T1200,3003A,120.0434,31.7726,常州市,经开区,细颗粒物(PM2.5),99,116,105,74,63,39,,35,25,58,44,9,7,1.1,1
2026-02-05T1200,3010A,119.8919,31.7892,常州市,钟楼,细颗粒物(PM2.5),110,118,97,83,64,42,,24,18,62,56,11,9,1.0,0.8
2026-02-05T1200,3429A,119.8595,31.706,常州市,武进经发区,细颗粒物(PM2.5),108,107,92,81,70,55,,23,16,39,50,9,8,1.3,1.1
2026-02-05T1200,3430A,119.5812,31.7256,常州市,金坛城区,细颗粒物(PM2.5),110,101,88,83,68,71,,25,25,28,39,11,9,1.0,0.8
2026-02-05T1200,4089A,119.9551,31.863,常州市,崇义南街5-H号,细颗粒物(PM2.5),110,104,105,83,75,39,,12,12,56,63,8,7,1.1,1
2026-02-05T1200,2220A,120.4318,41.588,朝阳市,西梁,颗粒物(PM10),58,66,85,3,34,80,,71,71,9,33,7,13,0.3,0.7
2026-02-05T1200,2221A,120.452,41.565,朝阳市,河畔小区,颗粒物(PM10),63,76,74,3,31,83,,74,74,6,22,6,12,0.3,0.7
2026-02-05T1200,2222A,120.4176,41.5648,朝阳市,八里堡,颗粒物(PM10),68,86,83,6,38,79,,68,68,7,32,8,13,0.3,0.8
2026-02-05T1200,3026A,116.6179,23.6608,潮州市,市政府,颗粒物(PM10),70,89,72,44,43,133,,64,64,16,21,5,6,0.7,0.6
2026-02-05T1200,4036A,116.646,23.676,潮州市,金山,细颗粒物(PM2.5),64,68,59,46,39,132,,61,61,19,19,6,4,0.8,0.6
2026-02-05T1200,2473A,113.0116,25.8228,郴州市,市职中,细颗粒物(PM2.5),102,90,62,76,51,54,,36,26,28,22,22,10,0.9,0.7
2026-02-05T1200,2475A,113.0381,25.8074,郴州市,市审计局,细颗粒物(PM2.5),98,97,63,73,47,40,,20,20,32,32,15,5,/,/
2026-02-05T1200,2476A,113.0348,25.7757,郴州市,市环保局,细颗粒物(PM2.5),142,108,71,108,62,53,,28,28,38,31,42,14,1.0,0.6
2026-02-05T1200,4252A,113.0138,25.8011,郴州市,好美居路49号,细颗粒物(PM2.5),87,81,58,64,44,52,,42,36,36,25,16,8,/,/
2026-02-05T1200,1431A,103.9727,30.7242,成都市,金泉两河,细颗粒物(PM2.5),138,158,119,105,80,50,,11,11,41,54,6,2,1.2,1.4
2026-02-05T1200,1432A,104.1423,30.6765,成都市,十里店,细颗粒物(PM2.5),149,156,138,114,82,38,,17,17,66,55,5,4,1.1,1
2026-02-05T1200,1433A,104.0594,30.5765,成都市,三瓦窑,细颗粒物(PM2.5),143,133,130,109,87,,,4,4,67,62,5,4,1.5,1.3
2026-02-05T1200,1434A,104.1122,30.6306,成都市,沙河铺,细颗粒物(PM2.5),148,151,126,113,81,22,,9,9,83,55,4,3,1.3,1.1
2026-02-05T1200,2880A,104.0219,30.6561,成都市,大石西路,细颗粒物(PM2.5),162,145,134,123,96,45,,10,10,51,51,8,5,1.4,1.2
2026-02-05T1200,3136A,104.2724,30.559,成都市,龙泉驿区区政府,细颗粒物(PM2.5),119,119,92,90,71,63,,45,45,30,20,7,6,1.1,1
2026-02-05T1200,3357A,104.0028,30.6891,成都市,金博路,细颗粒物(PM2.5),129,125,123,98,89,42,,10,10,50,55,6,5,1.3,1.2
2026-02-05T1200,3359A,104.056,30.5228,成都市,华阳,细颗粒物(PM2.5),168,134,114,127,84,,,5,5,44,52,4,3,1.7,1.3
2026-02-05T1200,3488A,104.387954,30.746684,成都市,青石路225号,细颗粒物(PM2.5),137,136,117,104,79,57,,21,21,37,47,3,2,1.3,1.2
2026-02-05T1200,3489A,104.0788,30.4054,成都市,科学城,细颗粒物(PM2.5),119,118,97,90,72,34,,7,7,28,28,8,6,1.3,1.2
2026-02-05T1200,4011A,103.8505,30.6946,成都市,光华大道三段,细颗粒物(PM2.5),115,136,139,87,81,41,,8,8,46,51,7,8,1.1,1.2
2026-02-05T1200,4144A,104.3257,30.6406,成都市,八角井街185号,细颗粒物(PM2.5),139,124,114,106,74,45,,33,24,41,31,5,3,1.0,0.8
2026-02-05T1200,4224A,104.2433276,30.53529463,成都市,鲸龙路1057号,细颗粒物(PM2.5),118,123,105,89,72,68,,19,19,27,40,7,5,1.0,1
2026-02-05T1200,1062A,117.9531,40.908,承德市,铁路,,26,18,80,3,45,83,,68,68,3,35,1,9,0.2,0.9
2026-02-05T1200,1063A,117.9397,40.9763,承德市,中国银行,,26,26,81,8,44,82,,63,63,3,39,1,7,0.2,1
2026-02-05T1200,4073A,117.9462,40.95,承德市,杏林街1号,,26,16,79,8,46,83,,70,70,2,32,3,8,0.2,0.9
2026-02-05T1200,4274A,117.7994,40.9605,承德市,滨河大街98号,颗粒物(PM10),51,51,70,3,36,80,,76,76,4,29,2,24,0.2,0.9
2026-02-05T1200,2314A,117.4698,30.6617,池州市,池州学院,细颗粒物(PM2.5),64,64,62,46,46,31,,18,12,37,33,4,8,1.3,1.2
2026-02-05T1200,3237A,117.4918,30.6617,池州市,展览馆,,,64,68,50,47,37,,11,11,33,30,4,7,,1
2026-02-05T1200,3333A,117.5626,30.695,池州市,第八中学,细颗粒物(PM2.5),57,56,67,40,45,26,,14,14,41,31,6,7,1.0,0.9
2026-02-05T1200,3334A,117.5037,30.6242,池州市,第十二中学,细颗粒物(PM2.5),64,57,65,46,43,48,,9,9,28,40,6,6,1.2,1.1
2026-02-05T1200,1744A,118.9229,42.2816,赤峰市,松山一中,颗粒物(PM10),90,130,59,3,20,68,,63,63,8,29,2,13,0.6,1
2026-02-05T1200,1745A,118.9588,42.2733,赤峰市,哈达街,,34,34,59,7,23,66,,62,62,10,28,8,40,0.5,1
2026-02-05T1200,1746A,118.8792,42.2551,赤峰市,天义路,,48,48,38,3,17,76,,71,71,4,26,5,24,0.5,0.6
2026-02-05T1200,3058A,119.2656,42.0356,赤峰市,银河街,,43,43,63,6,19,77,,76,76,2,10,8,14,0.6,0.7
2026-02-05T1200,3286A,118.9359,42.3146,赤峰市,桥北物流园区,,25,21,39,3,19,79,,75,75,6,19,5,4,0.5,0.7
2026-02-05T1200,2521A,107.3473,22.4137,崇左市,市环保局江州分局,细颗粒物(PM2.5),109,99,91,82,69,,,14,4,39,28,11,5,1.0,1
2026-02-05T1200,4256A,107.375,22.3736,崇左市,石景林东路7号,细颗粒物(PM2.5),97,87,67,72,61,22,,21,10,36,27,2,2,0.9,0.8
2026-02-05T1200,3207A,118.31131,32.3033,滁州市,市政府原办公楼,细颗粒物(PM2.5),99,93,76,74,58,73,,27,27,34,44,13,5,0.6,0.6
2026-02-05T1200,3331A,118.3268,32.2633,滁州市,图书馆,细颗粒物(PM2.5),73,77,62,53,37,70,,30,28,42,41,10,8,0.8,0.6
2026-02-05T1200,4101A,118.3196,32.3335,滁州市,银山路666号,细颗粒物(PM2.5),105,87,65,79,53,57,,14,14,34,36,18,14,0.7,0.6
2026-02-05T1200,4102A,118.3426,32.2979,滁州市,黄山路555号,细颗粒物(PM2.5),110,111,86,83,50,55,,18,18,52,55,9,6,0.7,0.6
2026-02-05T1200,2606A,101.5379,25.0492,楚雄彝族自治州,市经济开发区,,23,18,24,12,15,71,,25,25,14,31,2,3,0.5,0.5
2026-02-05T1200,4153A,101.5536,25.0343,楚雄彝族自治州,团结路562号,,,24,22,14,14,,,39,26,4,10,4,4,0.4,0.5
2026-02-05T1200,2549A,107.5087,31.2186,达州市,市环境监测站,细颗粒物(PM2.5),103,109,127,77,88,8,,4,4,35,42,15,9,0.9,1
2026-02-05T1200,2550A,107.4988,31.2132,达州市,凤凰小区,细颗粒物(PM2.5),108,124,133,81,89,7,,4,4,38,45,14,9,0.8,0.9
2026-02-05T1200,2551A,107.5081,31.1987,达州市,达县机关宾馆,细颗粒物(PM2.5),94,112,136,70,94,12,,5,5,36,47,19,9,0.9,1.1
2026-02-05T1200,2552A,107.4644,31.2124,达州市,市政中心,细颗粒物(PM2.5),122,154,143,92,87,7,,4,4,62,51,9,7,1.2,1.1
2026-02-05T1200,2614A,100.2168,25.5818,大理白族自治州,大理市环境监测站,,23,23,21,12,14,73,,68,67,9,8,7,7,0.6,0.4
2026-02-05T1200,2615A,100.1542,25.7055,大理白族自治州,大理古城,,25,24,21,10,12,80,,68,64,6,7,8,8,0.6,0.6
2026-02-05T1200,1109A,121.6119,38.974,大连市,甘井子,,,72,158,12,113,,,35,35,9,59,4,9,0.5,0.7
2026-02-05T1200,1110A,121.565,38.9509,大连市,周水子,颗粒物(PM10),66,81,154,12,120,77,,36,36,7,54,9,10,0.3,1.7
2026-02-05T1200,1111A,121.5637,38.8849,大连市,星海三站,颗粒物(PM10),57,63,136,10,109,74,,38,38,12,33,6,6,0.4,1
2026-02-05T1200,1112A,121.6301,38.9117,大连市,青泥洼桥,颗粒物(PM10),58,66,141,12,110,78,,36,36,13,46,7,9,0.2,1.1
2026-02-05T1200,1113A,121.6248,38.8643,大连市,傅家庄,,31,31,143,10,93,74,,48,48,7,36,7,9,0.6,1.2
2026-02-05T1200,1114A,121.5117,38.8636,大连市,七贤岭,颗粒物(PM10),68,86,149,14,113,73,,50,49,10,30,9,13,0.5,1
2026-02-05T1200,1116A,121.7507,39.1339,大连市,金州,,50,50,157,13,82,74,,41,41,11,35,8,11,0.2,1
2026-02-05T1200,1117A,121.7811,39.0495,大连市,开发区,颗粒物(PM10),57,64,140,9,98,80,,40,40,6,42,7,8,0.3,1
2026-02-05T1200,1118A,121.9762,39.0631,大连市,双D港,颗粒物(PM10),158,266,119,8,77,89,,53,53,10,34,9,10,0.5,1.2
2026-02-05T1200,4082A,121.2548,38.8188,大连市,旅顺,颗粒物(PM10),54,58,149,11,107,74,,41,41,6,31,8,9,0.4,1.1
2026-02-05T1200,1789A,124.8085,46.0381,大庆市,大同区,颗粒物(PM10),66,81,40,9,18,74,,69,69,2,11,5,7,0.3,0.4
2026-02-05T1200,1790A,125.1166,46.5255,大庆市,龙凤区,,42,42,38,8,18,72,,66,66,9,17,8,8,0.5,0.6
2026-02-05T1200,1791A,124.8894,46.4007,大庆市,红岗区,颗粒物(PM10),56,62,37,9,16,68,,64,64,6,16,4,7,0.5,0.6
2026-02-05T1200,1792A,125.1391,46.578,大庆市,萨尔图区,,,36,31,9,13,,,59,59,,16,9,9,0.3,0.3
2026-02-05T1200,1793A,124.9026,46.6217,大庆市,让胡路区,,34,34,27,15,13,73,,68,68,6,14,6,7,0.4,0.4
2026-02-05T1200,3481A,125.127,46.6277,大庆市,萨区政府监测点,,35,35,38,12,15,77,,70,70,2,6,8,8,0.4,0.6
2026-02-05T1200,1723A,113.2926,40.0759,大同市,云冈宾馆,,23,23,57,6,17,72,,65,65,6,19,4,7,0.2,0.5
2026-02-05T1200,1724A,113.3437,40.0921,大同市,大同大学,,25,21,65,12,17,78,,69,69,5,18,4,7,0.3,0.6
2026-02-05T1200,1725A,113.2637,40.129,大同市,安家小村,,29,29,67,3,20,54,,52,51,11,22,5,8,0.2,0.6
2026-02-05T1200,3282A,113.3399,40.0586,大同市,大同市卫生学校,,28,17,65,10,18,87,,78,78,7,20,2,6,0.4,0.6
2026-02-05T1200,3565A,113.1371,40.1122,大同市,云冈站,,,,58,,15,73,,67,67,6,21,5,7,0.4,0.5
2026-02-05T1200,3566A,113.1186,40.2556,大同市,图书馆,,,34,56,,21,73,,65,65,12,12,9,5,0.8,0.7
2026-02-05T1200,3567A,113.5931,40.0459,大同市,区一中,颗粒物(PM10),53,56,173,3,39,76,,61,61,10,32,8,16,0.3,0.6
2026-02-05T1200,4199A,113.2798248,40.09972476,大同市,魏都大道141号,,43,43,77,3,22,82,,74,74,6,24,4,6,0.4,0.7
2026-02-05T1200,2269A,124.1068,50.4091,大兴安岭地区,科技局,,23,23,29,14,14,61,,63,62,1,5,6,6,0.2,0.2
2026-02-05T1200,3663A,124.117,50.4279,大兴安岭地区,红旗社区,,24,,21,16,17,74,,76,74,1,10,6,7,0.1,0.2
2026-02-05T1200,1600A,124.33,40.0625,丹东市,江湾东路,,42,42,102,13,70,71,,55,54,13,22,5,10,0.5,0.9
2026-02-05T1200,1601A,124.4242,40.1513,丹东市,临江后街,,34,34,118,14,90,75,,55,55,12,23,6,12,0.4,1.1
2026-02-05T1200,1602A,124.3935,40.1461,丹东市,元宝山,,32,32,103,12,69,71,,59,,12,24,7,13,0.4,1
2026-02-05T1200,1603A,124.3634,40.1093,丹东市,民主桥,,44,44,109,13,76,72,,57,57,16,25,8,12,0.5,0.9
2026-02-05T1200,3541A,109.5726195,19.51688767,儋州市,第一中学子站,,,,32,,18,,,44,33,3,6,,6,0.6,0.7
2026-02-05T1200,3542A,109.5567,19.5187,儋州市,东坡学校子站,,23,23,27,6,14,73,,54,50,4,7,3,4,0.5,0.6
2026-02-05T1200,2616A,98.5611,24.4273,德宏傣族景颇族自治州,德宏州监测站,细颗粒物(PM2.5),64,65,65,46,46,56,,17,17,20,28,6,6,0.9,1
2026-02-05T1200,3677A,98.5887,24.4366,德宏傣族景颇族自治州,芒市人民政府综合楼,细颗粒物(PM2.5),63,63,68,45,40,55,,30,26,20,18,4,4,0.8,0.9
2026-02-05T1200,1901A,104.424,31.1209,德阳市,东山公园,细颗粒物(PM2.5),153,,92,117,83,47,,45,35,32,22,2,2,1.1,1
2026-02-05T1200,1902A,104.3827,31.1318,德阳市,西小区,细颗粒物(PM2.5),162,138,116,123,91,41,,10,10,50,48,5,5,1.1,1.1
2026-02-05T1200,1904A,104.3553,31.1091,德阳市,耐火材料厂,细颗粒物(PM2.5),185,156,110,139,96,27,,8,8,66,52,4,3,1.1,1
2026-02-05T1200,4145A,104.4144,31.1495,德阳市,市林业局,细颗粒物(PM2.5),162,135,103,123,84,46,,12,12,44,46,5,4,1.1,1
2026-02-05T1200,1622A,116.3034,37.4675,德州市,儿童乐园,颗粒物(PM10),148,246,191,25,124,63,,43,41,28,49,11,16,0.8,1.5
2026-02-05T1200,1624A,116.2992,37.4449,德州市,监理站,颗粒物(PM10),142,234,198,25,124,70,,41,41,28,62,8,16,0.6,1.2
2026-02-05T1200,3066A,116.2722,37.438,德州市,九衢泉纯净水厂,颗粒物(PM10),140,229,199,31,139,63,,36,36,27,70,4,12,0.6,1.2
2026-02-05T1200,3371A,116.3693,37.44,德州市,开发区人民医院,颗粒物(PM10),163,276,195,21,121,60,,52,46,15,42,9,16,0.4,1.1
2026-02-05T1200,3511A,116.5687,37.3331,德州市,陵城艺术中心,颗粒物(PM10),151,251,195,26,134,60,,32,30,28,58,6,18,0.7,1.5
2026-02-05T1200,4292A,116.352738,37.420875,德州市,新河东路,颗粒物(PM10),150,249,189,19,115,63,,39,39,22,63,10,15,0.6,1.2
2026-02-05T1200,2621A,99.7054,27.8319,迪庆藏族自治州,迪庆州站,,27,10,19,7,9,86,,65,65,6,8,4,5,0.6,0.6
2026-02-05T1200,3180A,99.7122,27.8129,迪庆藏族自治州,质量技术监督局,,,23,19,21,9,,,69,60,5,8,,4,0.4,0.4
2026-02-05T1200,4257A,104.6092,35.5962,定西市,将台街,颗粒物(PM10),77,103,82,53,51,48,,17,17,27,30,17,16,1.5,1
2026-02-05T1200,4309A,104.6159,35.5701,定西市,正龙路62号,细颗粒物(PM2.5),64,69,79,46,43,63,,30,30,14,14,12,12,1.1,1
2026-02-05T1200,1390A,113.7943,23.0132,东莞市,东城石井,颗粒物(PM10),64,77,71,43,41,139,,45,45,40,45,8,6,0.7,0.7
2026-02-05T1200,1391A,113.7384,22.9659,东莞市,南城西平,细颗粒物(PM2.5),64,55,59,46,40,113,,32,32,46,48,8,6,0.7,0.6
2026-02-05T1200,3319A,113.7283,23.041,东莞市,万江金泰,细颗粒物(PM2.5),72,66,78,52,44,129,,45,45,31,42,7,6,0.9,0.9
2026-02-05T1200,4129A,113.8666,23.1062,东莞市,裕兴路,颗粒物(PM10),57,63,92,38,47,115,,43,43,25,47,10,7,0.9,1
2026-02-05T1200,4130A,114.0076,22.9739,东莞市,教育路1号,颗粒物(PM10),53,56,74,33,40,137,,57,57,32,50,6,5,0.6,0.7
2026-02-05T1200,4131A,113.7981,22.8124,东莞市,长怡路1号,颗粒物(PM10),56,62,71,36,37,117,,34,34,43,52,8,7,0.8,0.8
2026-02-05T1200,1666A,118.6612,37.4313,东营市,市环保局,细颗粒物(PM2.5),193,166,185,145,148,47,,34,34,36,54,9,17,1.1,1.2
2026-02-05T1200,3036A,118.6903,37.4337,东营市,开发区管委会,细颗粒物(PM2.5),189,170,184,142,146,51,,37,37,31,55,9,13,1.0,1.1
2026-02-05T1200,3365A,118.5721,37.5654,东营市,垦利区民丰路,细颗粒物(PM2.5),203,166,176,153,150,49,,29,29,28,61,9,13,1.3,1.2
2026-02-05T1200,3498A,118.5063,37.8606,东营市,河口城区,颗粒物(PM10),122,193,199,88,151,74,,33,33,26,57,9,18,1.0,1.3
2026-02-05T1200,3646A,118.4979,37.4623,东营市,胜利站,细颗粒物(PM2.5),183,250,183,138,128,40,,22,22,51,72,8,14,1.4,1.5
2026-02-05T1200,3734A,118.5753,37.4405,东营市,理想之城,细颗粒物(PM2.5),183,,178,138,128,46,,24,24,39,63,6,12,1.2,1.3
2026-02-05T1200,1591A,110.0024,39.8127,鄂尔多斯市,综合楼,,,,107,,18,,,51,,21,22,8,8,0.3,0.4
2026-02-05T1200,1592A,109.9485,39.8259,鄂尔多斯市,巴音孟克林场办事处,颗粒物(PM10),58,66,92,12,20,55,,51,51,19,20,8,8,0.3,0.3
2026-02-05T1200,1593A,109.7734,39.5987,鄂尔多斯市,康泽苑,,48,48,82,3,18,67,,60,60,15,13,7,6,0.4,0.4
2026-02-05T1200,1594A,109.8121,39.5987,鄂尔多斯市,华泰汽车城,,48,48,79,3,20,66,,53,53,14,17,6,6,0.2,0.3
2026-02-05T1200,1595A,109.9734,39.7884,鄂尔多斯市,奥林花园,颗粒物(PM10),68,85,96,14,16,49,,60,50,28,22,5,5,0.3,0.4
2026-02-05T1200,2436A,114.894,30.3989,鄂州市,市政府,细颗粒物(PM2.5),77,90,73,56,50,31,,18,18,40,43,6,6,0.9,0.9
2026-02-05T1200,2437A,114.8986,30.3714,鄂州市,赵家坝,,,85,70,62,46,,,12,12,32,35,,9,1.1,1.1
2026-02-05T1200,3654A,114.8093,30.4091,鄂州市,精准医疗中心,细颗粒物(PM2.5),79,83,77,58,46,39,,14,14,25,45,15,13,1.4,0.8
2026-02-05T1200,2454A,109.4978,30.2979,恩施土家族苗族自治州,湖北民院,细颗粒物(PM2.5),104,85,110,78,82,6,,4,4,21,21,6,6,1.2,1.1
2026-02-05T1200,3549A,109.5061,30.3771,恩施土家族苗族自治州,龙凤新区,细颗粒物(PM2.5),79,80,89,58,62,3,,5,1,26,24,6,7,0.9,0.8
2026-02-05T1200,2499A,108.3411,21.6159,防城港市,沙万,"颗粒物(PM10),细颗粒物(PM2.5)",52,53,47,36,28,29,,50,42,42,37,7,8,0.8,0.6
2026-02-05T1200,2500A,108.3515,21.7733,防城港市,防城档案局,细颗粒物(PM2.5),52,50,43,36,34,60,,69,43,12,15,5,5,0.8,0.9
2026-02-05T1200,2501A,108.3506,21.6414,防城港市,大海花园,颗粒物(PM10),53,56,42,36,32,52,,67,50,24,29,7,7,1.0,0.9
2026-02-05T1200,1371A,113.1293,23.0065,佛山市,湾梁,颗粒物(PM10),54,58,64,26,32,85,,50,43,32,39,/,/,/,/
2026-02-05T1200,1372A,113.1082,23.0477,佛山市,华材职中,细颗粒物(PM2.5),73,58,62,53,53,85,,68,60,28,26,8,6,0.8,0.8
2026-02-05T1200,1373A,113.1439,23.045,佛山市,南海气象局,颗粒物(PM10),53,56,55,29,37,81,,52,50,33,37,/,/,/,/
2026-02-05T1200,1374A,113.2879,22.8094,佛山市,顺德苏岗,,45,45,57,25,30,90,,42,39,38,37,/,/,0.5,0.6
2026-02-05T1200,1376A,112.8384,22.8678,佛山市,高明孔堂,,49,49,48,29,31,87,,41,41,24,21,/,/,/,/
2026-02-05T1200,1377A,112.8835,23.1584,佛山市,三水监测站,颗粒物(PM10),56,61,83,37,50,82,,29,29,34,65,4,3,0.5,0.6
2026-02-05T1200,1378A,112.8668,23.185,佛山市,三水云东海,,,47,73,30,45,,,25,25,31,50,/,/,/,/
2026-02-05T1200,3625A,113.2568,22.7629,佛山市,容桂街道办,颗粒物(PM10),52,53,61,28,34,81,,52,51,44,36,/,/,/,/
2026-02-05T1200,1282A,119.2681,26.0506,福州市,师大,,50,50,43,24,19,104,,49,49,22,26,4,4,0.5,0.5
2026-02-05T1200,1283A,119.2983,26.1028,福州市,五四北路,,48,48,41,31,22,101,,48,48,24,26,5,5,0.6,0.6
2026-02-05T1200,1284A,119.2648,26.0769,福州市,杨桥西路,,,,41,,20,88,,48,41,,25,5,5,/,/
2026-02-05T1200,3048A,119.5799,26.0937,福州市,九龙,,50,50,39,30,21,97,,43,43,22,26,10,5,1.3,0.7
2026-02-05T1200,3526A,119.5188,25.9666,福州市,吴航,,44,44,36,25,19,106,,54,54,24,27,9,5,0.9,0.7
2026-02-05T1200,4104A,119.3106,26.0648,福州市,路通桥巷6号,颗粒物(PM10),54,58,43,29,21,98,,49,47,21,23,/,/,/,/
2026-02-05T1200,1755A,123.7974,41.8494,抚顺市,望花区,颗粒物(PM10),188,326,166,3,103,75,,48,48,9,55,6,20,,1.2
2026-02-05T1200,1756A,123.9161,41.8827,抚顺市,顺城区,颗粒物(PM10),153,255,156,6,110,81,,60,60,13,53,7,17,0.4,1.2
2026-02-05T1200,1757A,124.0437,41.8615,抚顺市,东洲区,颗粒物(PM10),193,336,189,3,102,,,53,53,8,59,13,21,0.3,1.3
2026-02-05T1200,1758A,123.9246,41.8638,抚顺市,新抚区,颗粒物(PM10),348,458,198,6,112,86,,64,64,13,60,5,12,0.6,1.5
2026-02-05T1200,1759A,124.0972,41.8961,抚顺市,大伙房水库,颗粒物(PM10),263,394,163,6,103,81,,60,60,10,56,9,15,0.4,1.5
2026-02-05T1200,1760A,123.708,41.8386,抚顺市,沈抚新城,颗粒物(PM10),161,272,160,3,90,83,,56,56,15,63,5,12,0.2,0.9
2026-02-05T1200,2377A,116.3544,27.9833,抚州市,市站,,,80,72,68,56,50,,56,48,,21,8,10,1.2,1.2
2026-02-05T1200,2378A,116.3562,27.9631,抚州市,血防站,细颗粒物(PM2.5),82,72,70,60,55,50,,53,45,26,23,8,9,1.0,1
2026-02-05T1200,2379A,116.3561,28.0007,抚州市,采茶剧团,细颗粒物(PM2.5),69,72,71,50,54,35,,50,40,25,17,7,8,1.3,1.2
2026-02-05T1200,2380A,116.3854,27.9648,抚州市,医学分院,细颗粒物(PM2.5),70,75,76,51,50,41,,52,45,26,20,8,8,1.2,1.2
2026-02-05T1200,2207A,121.6095,41.9978,阜新市,工业园区,颗粒物(PM10),67,83,139,3,34,79,,71,71,5,24,6,12,0.3,0.6
2026-02-05T1200,2208A,121.6567,42.0188,阜新市,长青街,颗粒物(PM10),101,151,102,3,36,83,,74,74,3,24,5,11,0.2,0.6
2026-02-05T1200,2209A,121.6672,42.07,阜新市,农业园区,颗粒物(PM10),75,99,125,3,27,73,,69,69,5,14,5,7,0.1,0.3
2026-02-05T1200,2211A,121.6343,42.0455,阜新市,玉龙新城,颗粒物(PM10),66,82,120,3,34,77,,70,70,4,28,5,11,0.3,0.6
2026-02-05T1200,2301A,115.8276,32.8929,阜阳市,市监测站,细颗粒物(PM2.5),129,144,127,98,81,79,,45,45,25,38,7,5,0.9,1
2026-02-05T1200,2303A,115.8551,32.8606,阜阳市,开发区,细颗粒物(PM2.5),124,125,122,94,76,78,,44,39,34,41,7,6,0.7,0.7
2026-02-05T1200,2875A,115.783962,32.889217,阜阳市,阜阳职业技术学院,细颗粒物(PM2.5),125,115,103,95,69,90,,51,50,18,30,8,7,0.8,0.7
2026-02-05T1200,3468A,115.79,32.8614,阜阳市,市规划展馆,细颗粒物(PM2.5),130,149,114,99,74,89,,56,51,20,26,8,7,1.1,0.9
2026-02-05T1200,3469A,115.835101,32.918568,阜阳市,枣园社区,细颗粒物(PM2.5),134,143,121,102,76,82,,42,42,21,43,8,7,1.0,0.9
2026-02-05T1200,2669A,102.9097,34.9841,甘南藏族自治州,州政府,颗粒物(PM10),57,64,61,39,44,66,,32,30,15,19,10,9,0.8,0.8
2026-02-05T1200,3380A,102.8915,34.9618,甘南藏族自治州,甘肃民族师范学院,细颗粒物(PM2.5),63,62,63,45,31,76,,39,39,20,25,11,10,0.6,0.5
2026-02-05T1200,2570A,101.96,30.048,甘孜藏族自治州,水桥子,,20,8,13,8,10,64,,59,52,9,10,6,6,1.0,1
2026-02-05T1200,3065A,101.9534,29.9976,甘孜藏族自治州,州环保局,,25,,21,10,11,78,,65,64,8,11,6,6,0.7,0.7
2026-02-05T1200,2363A,114.9368,25.8663,赣州市,地委,颗粒物(PM10),56,62,58,18,25,120,,40,40,20,39,9,8,1.3,1.4
2026-02-05T1200,2364A,114.946,25.8483,赣州市,气象台,,50,50,53,26,28,119,,42,42,28,40,8,7,0.5,0.5
2026-02-05T1200,2365A,114.932,25.8332,赣州市,市图书馆,,46,46,52,24,27,96,,37,37,19,40,4,4,0.8,0.9
2026-02-05T1200,2366A,114.8905,25.8472,赣州市,华坚鞋城,,,50,47,20,25,,,42,42,,35,10,9,0.5,0.6
2026-02-05T1200,3109A,115.0094,25.8614,赣州市,赣县区卫计委,,49,49,52,26,27,97,,37,37,23,35,8,8,0.8,0.8
2026-02-05T1200,2684A,106.2753,36.0057,固原市,监测站,,35,35,58,19,33,81,,42,42,12,29,9,13,0.5,1.2
2026-02-05T1200,2685A,106.2384,36.0189,固原市,新区,,,58,70,,30,83,,18,18,,55,8,9,0.6,1.2
2026-02-05T1200,2544A,106.6307,30.4577,广安市,市委,细颗粒物(PM2.5),124,119,105,94,78,35,,22,22,21,32,7,7,1.1,1
2026-02-05T1200,2545A,106.6266,30.4662,广安市,友谊中学,细颗粒物(PM2.5),107,112,98,80,66,120,,36,36,,26,6,6,1.1,1.1
2026-02-05T1200,2547A,106.6386,30.4551,广安市,广电花园,细颗粒物(PM2.5),130,107,95,99,81,32,,19,19,17,26,7,7,0.9,0.9
2026-02-05T1200,2902A,106.6347,30.4868,广安市,北辰小学,细颗粒物(PM2.5),129,118,98,98,80,32,,16,16,16,19,8,8,1.0,0.9
2026-02-05T1200,2524A,105.8211,32.4444,广元市,老城,细颗粒物(PM2.5),107,115,96,80,59,12,,7,7,45,46,25,12,1.8,1.2
2026-02-05T1200,2526A,105.8629,32.429,广元市,监测站,,,,79,66,58,17,,7,7,31,35,15,8,1.7,1.8
2026-02-05T1200,3617A,105.8047,32.4167,广元市,经开区,细颗粒物(PM2.5),112,122,95,84,63,7,,2,2,47,43,21,7,1.9,1.4
2026-02-05T1200,1345A,113.2346,23.1423,广州市,广雅中学,,40,40,65,23,34,77,,35,35,25,47,3,3,1.0,1.1
2026-02-05T1200,1346A,113.2611,23.105,广州市,市五中,,,48,63,23,33,,,29,29,34,48,8,7,/,/
2026-02-05T1200,1348A,113.3477,23.0916,广州市,广东商学院,细颗粒物(PM2.5),62,62,64,44,41,62,,23,23,60,61,9,6,0.7,0.7
2026-02-05T1200,1349A,113.4332,23.105,广州市,市八十六中,颗粒物(PM10),58,66,58,36,31,77,,21,21,68,74,16,9,/,/
2026-02-05T1200,1350A,113.3506,22.9488,广州市,番禺中学,,,108,98,28,32,,,35,35,38,41,8,3,0.8,0.9
2026-02-05T1200,1351A,113.2147,23.3918,广州市,花都师范,,,80,82,41,46,71,,14,14,,77,,6,0.8,0.8
2026-02-05T1200,1352A,113.2599,23.1329,广州市,市监测站,颗粒物(PM10),51,52,65,30,37,76,,37,37,29,44,4,2,/,/
2026-02-05T1200,1353A,113.5618,23.3119,广州市,九龙镇镇龙,细颗粒物(PM2.5),75,87,73,55,43,106,,24,24,31,49,6,5,0.7,0.7
2026-02-05T1200,1354A,113.2764,23.1544,广州市,麓湖,,47,47,60,31,36,79,,22,22,34,64,5,4,0.7,0.8
2026-02-05T1200,2846A,113.3209,23.1323,广州市,体育西,颗粒物(PM10),59,68,68,36,36,66,,30,30,51,51,11,7,0.9,0.9
2026-02-05T1200,3298A,113.5718,23.5493,广州市,从化街口,细颗粒物(PM2.5),87,93,67,64,46,92,,25,25,32,44,8,6,0.8,0.8
2026-02-05T1200,3299A,113.3463,23.369,广州市,白云竹料,细颗粒物(PM2.5),85,104,91,63,53,97,,24,24,44,62,6,4,0.8,0.8
2026-02-05T1200,3300A,113.2981,23.2365,广州市,白云嘉禾,颗粒物(PM10),60,70,80,42,44,62,,19,19,52,66,8,6,/,/
2026-02-05T1200,3301A,113.4256,23.1716,广州市,黄埔科学城,细颗粒物(PM2.5),90,103,72,67,45,54,,18,18,77,63,6,3,0.8,0.7
2026-02-05T1200,3302A,113.3942,23.0485,广州市,番禺大学城,细颗粒物(PM2.5),83,108,94,61,46,84,,31,31,54,48,14,9,0.7,0.6
2026-02-05T1200,3303A,113.4923,22.8169,广州市,南沙黄阁,细颗粒物(PM2.5),67,53,58,48,38,52,,40,25,54,41,6,4,/,/
2026-02-05T1200,3304A,113.534,22.7893,广州市,南沙街,,50,50,56,35,32,73,,56,43,50,38,5,4,0.7,0.6
2026-02-05T1200,3443A,113.2905,23.5541,广州市,花都梯面,颗粒物(PM10),53,55,67,33,39,84,,24,24,25,41,6,5,/,/
2026-02-05T1200,3445A,113.786,23.7479,广州市,从化良口,细颗粒物(PM2.5),52,39,31,36,26,104,,35,35,13,21,7,7,/,/
2026-02-05T1200,3446A,113.805,23.2614,广州市,增城荔城,细颗粒物(PM2.5),62,66,54,44,31,115,,55,55,21,27,7,6,0.5,0.6
2026-02-05T1200,2506A,109.604387,23.066791,贵港市,江南子站,颗粒物(PM10),63,75,72,40,46,44,,35,32,31,26,17,7,1.0,0.8
2026-02-05T1200,2508A,109.5669,23.1065,贵港市,荷城子站,细颗粒物(PM2.5),55,56,67,39,40,45,,42,37,23,35,7,8,1.0,1.1
2026-02-05T1200,3405A,109.5886,23.1172,贵港市,新世纪学校,细颗粒物(PM2.5),69,61,80,50,54,56,,42,41,26,40,/,/,0.6,0.8
2026-02-05T1200,4260A,109.5933,23.095,贵港市,中山路155-3号,细颗粒物(PM2.5),73,70,63,53,48,51,,44,42,23,25,/,/,0.9,0.9
2026-02-05T1200,1439A,106.6863,26.6035,贵阳市,马鞍山,,26,,29,18,25,26,,21,21,16,17,5,5,/,/
2026-02-05T1200,1441A,106.6241,26.6266,贵阳市,鉴湖路,,35,31,31,24,20,24,,31,29,22,19,2,3,0.7,0.7
2026-02-05T1200,1442A,106.7468,26.6344,贵阳市,燕子冲,,24,24,37,16,29,32,,26,26,16,19,11,8,0.8,0.8
2026-02-05T1200,1443A,106.6556,26.4362,贵阳市,碧云窝,,29,29,40,18,24,34,,26,26,18,17,18,17,/,/
2026-02-05T1200,1445A,106.6963,26.6063,贵阳市,红边门,,29,27,38,20,29,32,,33,28,17,27,11,13,/,/
2026-02-05T1200,1446A,106.7162383,26.56964667,贵阳市,新华路,,24,24,41,16,26,35,,30,30,19,30,9,9,0.7,0.8
2026-02-05T1200,1447A,106.6742,26.542,贵阳市,太慈桥,,27,27,31,14,24,27,,32,31,24,22,5,4,/,/
2026-02-05T1200,4230A,106.688212,26.56952,贵阳市,花果园大街66号,,23,22,29,16,25,19,,25,24,20,25,5,3,/,/
2026-02-05T1200,4231A,106.687268,26.516892,贵阳市,漓江路57号,,29,29,37,12,25,33,,26,26,18,24,9,10,0.8,0.9
2026-02-05T1200,1864A,110.3091,25.2705,桂林市,龙隐路小学,细颗粒物(PM2.5),105,87,104,79,93,4,,2,2,43,38,4,13,1.1,1
2026-02-05T1200,1865A,110.2849361,25.22909545,桂林市,八中,细颗粒物(PM2.5),88,90,102,65,67,4,,3,3,41,38,5,6,1.3,1.1
2026-02-05T1200,3531A,110.296,25.1254,桂林市,旅游学院,细颗粒物(PM2.5),150,122,114,115,106,6,,3,3,37,33,7,7,0.8,0.7
2026-02-05T1200,4222A,110.1835,25.2444,桂林市,环湖路276号,细颗粒物(PM2.5),107,95,104,80,86,4,,3,3,40,39,8,13,1.5,1.3
2026-02-05T1200,4301A,110.2803,25.2773,桂林市,信义路13号,细颗粒物(PM2.5),97,78,92,72,86,10,,7,5,42,37,5,18,1.5,1.4
2026-02-05T1200,2674A,100.2262,34.4854,果洛藏族自治州,玛沁县大武镇,,35,35,50,3,18,95,,44,44,3,8,15,17,0.2,0.4
2026-02-05T1200,1130A,126.5557,45.8109,哈尔滨市,松北商大,,26,19,76,18,66,72,,52,52,12,26,6,9,0.6,0.9
2026-02-05T1200,1132A,126.6162,45.719,哈尔滨市,南岗学府路,,44,44,65,10,41,60,,66,62,19,23,21,12,0.6,0.8
2026-02-05T1200,1133A,126.6894,45.7733,哈尔滨市,太平宏伟公园,,,43,82,26,75,,,60,59,,26,13,10,0.4,0.7
2026-02-05T1200,1134A,126.6361,45.7672,哈尔滨市,道外承德广场,颗粒物(PM10),88,126,105,6,60,73,,59,59,13,32,8,23,0.2,0.3
2026-02-05T1200,1136A,126.644,45.7261,哈尔滨市,动力和平路,,30,30,61,14,46,71,,65,59,11,21,9,10,0.7,0.9
2026-02-05T1200,1137A,126.5933,45.7479,哈尔滨市,道里建国路,,22,15,63,11,57,68,,56,52,18,31,12,16,0,0.3
2026-02-05T1200,1138A,126.6127,45.6119,哈尔滨市,平房东轻厂,,23,16,65,7,51,71,,53,53,10,43,3,12,0.5,0.8
2026-02-05T1200,1139A,126.5875,45.9827,哈尔滨市,呼兰师专,颗粒物(PM10),79,107,89,3,67,67,,51,51,4,22,11,14,0.7,1.1
2026-02-05T1200,1140A,126.6299,45.6799,哈尔滨市,省农科院,,32,32,63,16,45,72,,61,61,7,25,5,18,0.6,0.8
2026-02-05T1200,4282A,126.6769,45.7379,哈尔滨市,华山路1号,,24,24,65,13,51,66,,63,59,13,24,5,8,0.6,0.9
2026-02-05T1200,4283A,126.9717,45.5356,哈尔滨市,解放大街52号,,33,28,69,23,49,60,,53,53,17,25,18,18,0.6,0.9
2026-02-05T1200,2688A,93.5124,42.8176,哈密市,地区监测站,颗粒物(PM10),62,73,78,29,37,64,,53,53,8,21,9,9,0.1,0.5
2026-02-05T1200,2689A,93.5014,42.8312,哈密市,哈密师范学校,颗粒物(PM10),65,80,96,23,30,61,,48,48,11,37,5,6,0.4,0.9
2026-02-05T1200,2671A,100.9016,36.9464,海北藏族自治州,海晏县西海镇,细颗粒物(PM2.5),67,61,46,48,31,88,,82,74,11,9,14,11,0.9,0.7
2026-02-05T1200,3867A,102.074,36.5056,海东市,平安区公安局北苑,细颗粒物(PM2.5),92,79,88,68,66,49,,61,46,31,18,19,22,1.2,1
2026-02-05T1200,4163A,102.0984,36.5119,海东市,滨河路,细颗粒物(PM2.5),69,84,90,50,57,60,,37,33,34,40,15,30,1.1,1
2026-02-05T1200,1410A,110.3189,20.0596,海口市,海南大学,,31,31,36,15,18,90,,76,76,6,8,5,5,0.4,0.5
2026-02-05T1200,1411A,110.2827,20.0051,海口市,秀英海南医院,,,45,37,27,18,78,,73,73,,10,7,8,,0.4
2026-02-05T1200,1412A,110.3391,19.9979,海口市,海南师范大学,,41,41,40,20,21,87,,72,72,9,8,5,5,0.4,0.5
2026-02-05T1200,1413A,110.3303,20.0359,海口市,龙华路环保局宿舍,,40,40,36,21,22,93,,79,77,11,10,/,/,0.7,0.8
2026-02-05T1200,3539A,110.5111,19.9737,海口市,桂林洋子站,,30,30,36,18,20,83,,69,69,9,8,/,/,/,/
2026-02-05T1200,4134A,110.1952,20.0451,海口市,长滨二路9号,,28,25,30,14,19,89,,65,63,5,9,/,/,/,/
2026-02-05T1200,2673A,100.6158,36.2985,海南藏族自治州,共和县恰卜恰镇,,34,34,36,8,18,77,,50,50,2,18,14,13,0.3,0.4
2026-02-05T1200,2676A,97.373,37.376,海西蒙古族藏族自治州,德令哈市,,33,20,23,12,10,103,,95,88,4,8,13,12,0.4,0.5
2026-02-05T1200,1049A,114.492,36.5712,邯郸市,矿院,,,94,134,59,108,68,,31,31,,51,5,13,0.6,1.3
2026-02-05T1200,1050A,114.4839,36.6136,邯郸市,丛台公园,颗粒物(PM10),95,139,137,64,96,70,,40,40,25,47,6,18,0.6,1.4
2026-02-05T1200,3458A,114.7893,36.5592,邯郸市,香泉濮院小区,颗粒物(PM10),109,167,174,60,98,67,,33,33,26,39,7,14,0.7,1.2
2026-02-05T1200,3580A,114.1998,36.4439,邯郸市,峰峰矿区临水派出所,颗粒物(PM10),65,79,85,28,51,77,,86,78,13,12,8,18,0.7,1
2026-02-05T1200,4068A,114.5209,36.7697,邯郸市,建安街268号,颗粒物(PM10),73,96,137,35,102,66,,22,22,21,57,4,12,0.3,1.2
2026-02-05T1200,4069A,114.5488,36.6177,邯郸市,丛台东路558号,颗粒物(PM10),81,112,155,42,106,71,,22,22,17,61,4,15,0.7,1.4
2026-02-05T1200,2635A,107.0155,33.0707,汉中市,市监测站,,,,99,68,71,41,,11,11,,36,,8,1.4,1.4
2026-02-05T1200,2636A,107.0083,33.114,汉中市,鑫源开发区,细颗粒物(PM2.5),92,87,101,68,78,48,,20,20,24,39,7,9,1.1,1.4
2026-02-05T1200,2637A,107.0072,33.0323,汉中市,南郑大河坎水厂,细颗粒物(PM2.5),83,86,99,61,65,48,,16,16,26,30,12,8,1.1,1
2026-02-05T1200,1223A,120.2073,30.2111,杭州市,滨江,细颗粒物(PM2.5),109,112,111,82,73,12,,4,2,69,74,7,8,1.0,0.9
2026-02-05T1200,1224A,120.0625,30.2737,杭州市,西溪,细颗粒物(PM2.5),113,109,90,85,60,2,,1,1,58,47,9,9,1.1,1
2026-02-05T1200,1226A,120.3417,30.315,杭州市,下沙,细颗粒物(PM2.5),128,130,108,97,76,6,,7,5,95,82,9,9,0.9,0.6
2026-02-05T1200,1227A,120.1252,30.2465,杭州市,卧龙桥,细颗粒物(PM2.5),98,111,80,73,57,12,,5,5,58,49,10,9,0.5,0.5
2026-02-05T1200,1228A,120.1902,30.2691,杭州市,浙江农大,细颗粒物(PM2.5),105,108,105,79,68,6,,3,3,82,83,6,7,1.0,0.8
2026-02-05T1200,1230A,120.1195,30.3121,杭州市,和睦小学,细颗粒物(PM2.5),113,120,113,85,74,5,,4,4,61,71,6,6,1.0,1
2026-02-05T1200,1231A,120.3076,30.4146,杭州市,临平镇,细颗粒物(PM2.5),109,106,114,82,78,10,,12,5,79,67,,8,0.9,0.8
2026-02-05T1200,1232A,120.2753,30.1839,杭州市,城厢镇,细颗粒物(PM2.5),119,119,108,90,71,10,,12,7,87,76,9,9,1.2,0.8
2026-02-05T1200,1233A,120.0883,30.1808,杭州市,云栖,细颗粒物(PM2.5),77,78,72,56,44,27,,8,8,49,54,6,5,0.7,0.6
2026-02-05T1200,3557A,119.9463,30.0496,杭州市,镇二中,细颗粒物(PM2.5),108,96,81,81,72,8,,4,4,62,62,6,6,1.1,1.1
2026-02-05T1200,3558A,119.7184,30.2367,杭州市,市府大楼,细颗粒物(PM2.5),119,97,76,90,64,8,,4,4,42,43,11,11,1.1,1
2026-02-05T1200,3656A,120.1554,30.2863,杭州市,消防大队,细颗粒物(PM2.5),114,123,110,86,78,4,,3,3,,74,8,8,1.0,0.9
2026-02-05T1200,1270A,117.1957,31.7845,合肥市,明珠广场,颗粒物(PM10),67,83,84,44,45,60,,9,9,66,84,7,7,0.7,0.9
2026-02-05T1200,1271A,117.307,31.8765,合肥市,三里街,细颗粒物(PM2.5),87,105,93,64,48,37,,6,6,67,76,6,7,0.8,1.2
2026-02-05T1200,1272A,117.2587,31.8703,合肥市,琥珀山庄,"颗粒物(PM10),细颗粒物(PM2.5)",84,117,85,62,44,40,,8,8,73,66,8,7,1.2,1.2
2026-02-05T1200,1275A,117.2593,31.9376,合肥市,庐阳区,细颗粒物(PM2.5),70,83,93,51,45,89,,18,18,26,73,7,6,0.8,0.9
2026-02-05T1200,1276A,117.345251,31.861615,合肥市,瑶海区,颗粒物(PM10),68,85,81,48,40,43,,9,9,77,85,6,6,0.7,0.8
2026-02-05T1200,1277A,117.3033,31.7967,合肥市,包河区,细颗粒物(PM2.5),82,100,80,60,41,33,,7,7,83,81,10,10,1.0,1
2026-02-05T1200,1278A,117.278,31.7392,合肥市,滨湖新区,,,102,68,59,39,,,16,9,72,46,5,4,1.0,0.8
2026-02-05T1200,1279A,117.1324,31.8395,合肥市,高新区,细颗粒物(PM2.5),74,90,76,54,39,56,,13,13,45,63,5,5,0.7,0.8
2026-02-05T1200,3464A,117.3802,31.9148,合肥市,高教基地,"颗粒物(PM10),细颗粒物(PM2.5)",62,73,72,44,35,69,,15,15,35,55,10,9,0.6,0.7
2026-02-05T1200,4098A,117.2518,31.8404,合肥市,中国科学技术大学,细颗粒物(PM2.5),77,90,77,56,38,58,,12,12,53,67,10,9,0.9,1
2026-02-05T1200,3614A,79.9241,37.0878,和田地区,地区环保局,颗粒物(PM10),103,156,237,30,42,68,,66,66,19,16,2,4,0.5,0.7
2026-02-05T1200,3615A,79.9132,37.1137,和田地区,市环保局,颗粒物(PM10),128,205,240,21,42,95,,62,62,10,34,1,4,0.1,0.6
2026-02-05T1200,2517A,108.0496,24.6957,河池市,市环保站,细颗粒物(PM2.5),130,121,116,99,105,16,,6,6,28,33,4,4,1.2,1.3
2026-02-05T1200,4302A,108.0901,24.6945,河池市,上任中路54号,细颗粒物(PM2.5),138,115,122,105,108,10,,9,5,34,28,6,6,1.6,1.6
2026-02-05T1200,1697A,114.6962,23.7538,河源市,东埔,细颗粒物(PM2.5),55,51,49,39,34,116,,29,29,17,43,7,6,1.1,0.9
2026-02-05T1200,1698A,114.6895,23.7232,河源市,老城,细颗粒物(PM2.5),53,51,42,37,27,114,,38,38,17,29,8,6,1.3,0.8
2026-02-05T1200,3374A,115.5562,35.089,菏泽市,定陶老年大学,细颗粒物(PM2.5),211,215,167,161,126,40,,28,22,53,38,9,6,1.1,0.8
2026-02-05T1200,4114A,115.4239,35.2593,菏泽市,黄河路600号,细颗粒物(PM2.5),210,218,186,160,130,49,,15,15,72,64,9,6,1.1,1.2
2026-02-05T1200,4115A,115.5025,35.2727,菏泽市,菏泽市人社局,细颗粒物(PM2.5),215,213,186,165,133,35,,16,11,75,57,15,12,1.2,1.2
2026-02-05T1200,4184A,115.479691,35.244011,菏泽市,永昌路1号,细颗粒物(PM2.5),204,218,186,154,132,57,,16,16,52,50,7,5,1.1,1
2026-02-05T1200,4193A,115.471542,35.280012,菏泽市,长城路999号,细颗粒物(PM2.5),183,205,174,138,121,42,,15,9,67,56,9,8,1.3,1.3
2026-02-05T1200,2514A,111.5264,24.4178,贺州市,环保小区,颗粒物(PM10),69,87,83,46,51,44,,30,22,37,41,5,4,0.8,0.8
2026-02-05T1200,2515A,111.561,24.4074,贺州市,政协大楼,,,,53,43,39,78,,48,48,19,28,,12,0.8,0.8
2026-02-05T1200,3534A,111.4744,24.455,贺州市,西湾,细颗粒物(PM2.5),68,74,81,49,49,55,,29,29,38,41,6,6,0.8,0.9
2026-02-05T1200,2385A,114.17,35.9019,鹤壁市,市监测站,颗粒物(PM10),69,87,118,32,70,72,,61,61,22,25,8,10,0.8,1
2026-02-05T1200,2386A,114.2953,35.7512,鹤壁市,市交警支队,颗粒物(PM10),84,117,134,45,88,62,,30,30,27,48,13,12,0.8,1
2026-02-05T1200,2387A,114.2877,35.7302,鹤壁市,迎宾馆,颗粒物(PM10),93,135,133,42,80,38,,26,,27,49,12,9,1.1,1.1
2026-02-05T1200,3474A,114.2616,35.6824,鹤壁市,大新区,,,116,125,56,90,72,,31,31,25,55,,11,1.1,1.2
2026-02-05T1200,3596A,114.1573,35.9607,鹤壁市,南山宾馆,颗粒物(PM10),92,134,115,44,69,75,,80,75,16,19,10,14,0.6,0.8
2026-02-05T1200,2244A,130.2537,47.3416,鹤岗市,哈啤分公司,,26,18,28,7,19,82,,79,79,3,11,6,7,0.3,0.5
2026-02-05T1200,2245A,130.2683,47.3087,鹤岗市,斯达机电,,26,26,45,3,23,73,,63,60,6,18,6,8,0.5,0.7
2026-02-05T1200,2246A,130.3114,47.3388,鹤岗市,东山纸板厂,,25,23,61,6,33,77,,59,59,4,29,10,13,0.3,0.9
2026-02-05T1200,2263A,127.4832,50.2524,黑河市,交通局,,,,28,,23,68,,64,64,7,14,,7,,0.4
2026-02-05T1200,2264A,127.5146,50.2339,黑河市,环保局,,29,29,28,13,19,62,,63,62,8,19,5,7,0.5,0.6
2026-02-05T1200,1074A,115.6839,37.754,衡水市,电机北厂,颗粒物(PM10),84,118,170,22,114,68,,34,34,16,48,4,12,0.1,0.7
2026-02-05T1200,1075A,115.6303,37.7318,衡水市,市监测站,颗粒物(PM10),79,108,157,11,107,67,,33,33,20,53,5,13,0.6,1
2026-02-05T1200,3188A,115.6684,37.7216,衡水市,市城管局,颗粒物(PM10),96,141,176,21,102,67,,35,35,21,56,7,15,0.4,1.1
2026-02-05T1200,3459A,115.599,37.5491,衡水市,地表水厂,颗粒物(PM10),78,105,162,23,119,71,,31,31,12,64,4,14,0.3,1
2026-02-05T1200,2457A,112.6209,26.9268,衡阳市,衡阳化工总厂,细颗粒物(PM2.5),120,113,100,91,77,43,,14,13,26,34,22,18,1.4,1.2
2026-02-05T1200,2458A,112.621,26.8957,衡阳市,珠晖区环保局,细颗粒物(PM2.5),104,100,100,78,71,38,,13,13,35,44,12,14,1.4,1.4
2026-02-05T1200,2459A,112.628,26.8654,衡阳市,市委党校,细颗粒物(PM2.5),115,98,93,87,74,38,,16,14,29,34,14,19,,1.6
2026-02-05T1200,2460A,112.6007,26.8977,衡阳市,市监测站,细颗粒物(PM2.5),102,112,124,76,74,38,,14,12,34,43,16,14,1.6,1.5
2026-02-05T1200,2461A,112.5658,26.9013,衡阳市,真空机电公司,细颗粒物(PM2.5),115,108,116,87,89,31,,13,9,34,50,21,20,1.4,1.5
2026-02-05T1200,3399A,112.6703,26.8817,衡阳市,师范学院,细颗粒物(PM2.5),99,107,105,74,66,35,,14,13,45,45,12,16,1.3,1.2
2026-02-05T1200,3038A,103.3757,23.3679,红河哈尼族彝族自治州,州图书馆,细颗粒物(PM2.5),59,53,42,42,30,85,,40,40,13,11,10,8,0.7,0.6
2026-02-05T1200,4154A,103.401,23.3561,红河哈尼族彝族自治州,蒙自市朝阳路,,42,,23,29,25,95,,54,54,7,7,8,7,0.4,0.4
2026-02-05T1200,1090A,111.6506,40.7517,呼和浩特市,呼市一监,,24,12,73,6,31,74,,70,70,8,22,8,11,0.3,0.5
2026-02-05T1200,1094A,111.7516,40.8369,呼和浩特市,如意水处理厂,,,,51,21,22,76,,74,74,,18,,12,0.1,0.2
2026-02-05T1200,1095A,111.727798,40.806187,呼和浩特市,二十九中,,24,9,60,8,22,74,,71,71,5,15,11,14,0.3,0.4
2026-02-05T1200,1097A,111.717,40.7617,呼和浩特市,化肥厂生活区,,25,17,62,7,23,78,,74,74,7,21,5,8,0.2,0.4
2026-02-05T1200,3699A,111.6519,40.8389,呼和浩特市,海东办,,25,,57,8,21,79,,76,76,7,17,5,6,0.2,0.4
2026-02-05T1200,4275A,111.591512,40.827312,呼和浩特市,成吉思汗西街8号,,22,9,66,8,23,70,,68,68,5,21,5,7,0.3,0.4
2026-02-05T1200,4276A,111.6597,40.8077,呼和浩特市,公园东路75号,,20,12,65,8,24,64,,65,64,10,22,5,9,0.3,0.6
2026-02-05T1200,4277A,111.5427,40.7846,呼和浩特市,金海路35号,,23,20,74,9,28,71,,70,70,7,23,6,9,0.3,0.5
2026-02-05T1200,3061A,119.7511,49.1576,呼伦贝尔市,国华电力东,,24,24,24,11,12,66,,66,65,11,12,5,6,0.4,0.3
2026-02-05T1200,4279A,119.7569,49.2222,呼伦贝尔市,伊敏大街东7号,,33,33,26,13,11,69,,73,69,1,2,7,7,0.5,0.5
2026-02-05T1200,1250A,120.075,30.867,湖州市,城西水厂,细颗粒物(PM2.5),110,103,83,83,63,22,,14,14,67,63,6,6,0.7,0.6
2026-02-05T1200,2873A,120.083,30.8929,湖州市,仁皇山新区,细颗粒物(PM2.5),110,114,86,83,62,16,,9,9,78,64,6,6,1.1,0.9
2026-02-05T1200,2907A,120.1846,30.8592,湖州市,吴兴区站,细颗粒物(PM2.5),124,121,104,94,76,24,,7,7,55,58,6,6,0.7,0.7
2026-02-05T1200,3562A,120.4146,30.8538,湖州市,南浔区站,细颗粒物(PM2.5),132,140,101,100,71,30,,9,9,70,61,9,8,,0.8
2026-02-05T1200,1607A,120.904878,40.721091,葫芦岛市,龙港区,颗粒物(PM10),111,171,199,3,82,72,,51,51,,46,5,28,0.3,1.1
2026-02-05T1200,1608A,120.8382,40.7521,葫芦岛市,化工街,颗粒物(PM10),73,95,179,8,82,74,,54,54,10,50,10,25,0.3,0.8
2026-02-05T1200,1609A,120.8339,40.7078,葫芦岛市,新区,颗粒物(PM10),69,88,134,6,82,78,,56,56,10,50,5,23,0.4,1.1
2026-02-05T1200,1610A,120.8697,40.7679,葫芦岛市,东城区,颗粒物(PM10),63,76,134,7,80,76,,59,59,6,42,7,21,0.4,0.9
2026-02-05T1200,2483A,109.9297,27.5383,怀化市,河西地税局,"颗粒物(PM10),细颗粒物(PM2.5)",82,114,109,60,60,36,,28,28,31,27,4,2,/,/
2026-02-05T1200,2484A,109.9783,27.5342,怀化市,市四医院,颗粒物(PM10),82,114,117,51,63,13,,4,4,14,20,9,10,0.9,0.9
2026-02-05T1200,2485A,109.9971,27.5579,怀化市,监测楼,细颗粒物(PM2.5),80,95,110,59,72,45,,21,21,18,24,6,6,0.3,0.5
2026-02-05T1200,1210A,119.0566,33.5991,淮安市,钵池山,细颗粒物(PM2.5),142,129,116,108,98,99,,45,45,26,42,11,11,0.8,1
2026-02-05T1200,1211A,119.0083,33.578,淮安市,北京南路,细颗粒物(PM2.5),133,124,114,101,90,96,,24,24,24,58,11,9,0.7,1
2026-02-05T1200,1212A,118.9938,33.6083,淮安市,市监测站,细颗粒物(PM2.5),147,136,111,112,93,91,,28,28,28,51,12,11,0.8,0.8
2026-02-05T1200,1213A,119.135,33.5038,淮安市,楚州区监测站,细颗粒物(PM2.5),143,139,125,109,95,80,,20,20,38,55,14,8,1.1,0.9
2026-02-05T1200,3426A,118.8757,33.2897,淮安市,新华书店,细颗粒物(PM2.5),123,122,122,93,93,88,,32,32,24,44,10,10,0.8,0.9
2026-02-05T1200,4092A,119.119691,33.550006,淮安市,枚皋中路89号,细颗粒物(PM2.5),144,146,117,110,95,88,,32,32,34,34,12,10,0.8,0.7
2026-02-05T1200,4206A,119.028838,33.631911,淮安市,承德北路606号,细颗粒物(PM2.5),138,151,137,105,90,97,,32,32,28,60,10,9,0.8,1
2026-02-05T1200,2282A,116.8005,33.9749,淮北市,监测站,细颗粒物(PM2.5),137,180,141,104,93,,,31,30,19,37,6,6,1.0,1.1
2026-02-05T1200,2283A,116.8094,33.9008,淮北市,烈山区政府,细颗粒物(PM2.5),145,137,146,111,99,83,,32,32,28,46,8,6,0.7,0.6
2026-02-05T1200,4017A,116.7926,33.9534,淮北市,市博物馆,细颗粒物(PM2.5),139,159,139,106,103,96,,37,37,22,42,6,5,1.0,0.9
2026-02-05T1200,4100A,116.8322,33.9884,淮北市,杜集区第一实验学校,细颗粒物(PM2.5),162,157,146,123,101,96,,30,30,19,31,6,5,0.9,0.9
2026-02-05T1200,2277A,116.8304,32.7726,淮南市,潘集区政府,细颗粒物(PM2.5),132,140,108,100,61,51,,34,34,45,40,,8,0.8,0.7
2026-02-05T1200,2279A,116.8569,32.5949,淮南市,谢家集区政府,细颗粒物(PM2.5),92,102,69,68,37,72,,90,68,28,18,11,9,1.0,0.7
2026-02-05T1200,2280A,116.8279,32.6333,淮南市,八公山区政府,细颗粒物(PM2.5),109,120,74,82,45,86,,98,88,20,15,9,5,0.8,0.7
2026-02-05T1200,2894A,117.0561,32.6536,淮南市,经济技术开发区消防队,细颗粒物(PM2.5),113,126,86,85,49,76,,17,17,,52,11,7,0.7,0.6
2026-02-05T1200,3329A,117.011,32.5891,淮南市,山南新区,细颗粒物(PM2.5),92,102,65,68,40,84,,63,52,26,32,10,8,0.7,0.6
2026-02-05T1200,4209A,117.003137,32.644456,淮南市,国庆中路369号,细颗粒物(PM2.5),108,101,76,81,47,71,,22,22,31,41,9,9,0.7,0.7
2026-02-05T1200,2446A,114.9021,30.474,黄冈市,职工中心,细颗粒物(PM2.5),97,81,63,72,48,31,,22,22,29,26,5,5,0.8,0.8
2026-02-05T1200,2929A,114.8858,30.4519,黄冈市,红卫路,,,,65,,45,,,28,28,28,29,6,6,1.0,0.8
2026-02-05T1200,3398A,114.9134,30.4446,黄冈市,市林业局,细颗粒物(PM2.5),85,85,68,63,51,40,,28,28,24,27,5,4,0.8,0.7
2026-02-05T1200,2672A,102.02,35.5101,黄南藏族自治州,同仁县隆务镇,颗粒物(PM10),58,65,72,35,45,76,,71,66,11,9,11,11,0.8,0.8
2026-02-05T1200,2295A,118.2905,29.6965,黄山市,延安路89号,细颗粒物(PM2.5),83,64,51,61,40,10,,6,6,29,23,5,4,0.8,0.6
2026-02-05T1200,2297A,118.1369,30.2755,黄山市,黄山区政府5号楼,,40,31,35,28,25,35,,20,20,12,12,2,3,0.6,0.7
2026-02-05T1200,4210A,118.335445,29.720283,黄山市,滨江东路7-2号,细颗粒物(PM2.5),77,81,72,56,43,12,,7,7,31,26,/,/,/,/
2026-02-05T1200,2423A,115.0547,30.2332,黄石市,沈家营,颗粒物(PM10),69,87,83,47,44,57,,30,30,33,32,7,7,1.2,1.2
2026-02-05T1200,2426A,114.899,30.211,黄石市,铁山,细颗粒物(PM2.5),110,105,76,83,60,16,,6,6,45,36,10,8,1.4,0.8
2026-02-05T1200,2427A,115.0259,30.2108,黄石市,团城山,细颗粒物(PM2.5),72,79,84,52,55,38,,11,11,23,31,7,7,1.0,1
2026-02-05T1200,3149A,115.0174,30.1591,黄石市,笔架山北路,细颗粒物(PM2.5),74,95,105,54,57,57,,32,28,20,30,6,7,1.1,1.2
2026-02-05T1200,4185A,115.078022,30.21118,黄石市,磁湖东路29号,,,,82,,56,37,,9,9,26,29,7,7,,1.2
2026-02-05T1200,1392A,114.4181,23.0528,惠州市,河南岸金山湖子站,颗粒物(PM10),51,52,59,32,33,85,,58,56,23,24,6,5,0.8,0.8
2026-02-05T1200,1393A,114.4055,23.0824,惠州市,下埔横江三路子站,颗粒物(PM10),55,59,63,34,34,102,,65,62,26,31,8,8,0.6,0.6
2026-02-05T1200,1395A,114.4645,22.7832,惠州市,惠阳区承修路船湖子站,,44,44,50,27,27,107,,50,50,30,29,8,7,0.7,0.6
2026-02-05T1200,1396A,114.5316,22.7423,惠州市,大亚湾管委会子站,颗粒物(PM10),53,56,52,30,27,117,,31,31,52,35,10,7,0.7,0.6
2026-02-05T1200,3314A,114.4334,22.8134,惠州市,惠阳秋长,,40,29,56,17,26,127,,69,69,19,32,/,/,/,/
2026-02-05T1200,3452A,114.6521,22.7755,惠州市,大亚湾霞涌,颗粒物(PM10),57,63,39,38,21,125,,68,68,34,23,/,/,/,/
2026-02-05T1200,4300A,114.4089,23.1147,惠州市,文华一路1号,颗粒物(PM10),55,60,52,35,30,108,,67,67,29,32,/,/,/,/
2026-02-05T1200,2240A,130.9618,45.2926,鸡西市,环保局,颗粒物(PM10),77,104,61,9,23,68,,66,66,13,13,8,9,0.2,0.3
2026-02-05T1200,2243A,130.9294,45.2959,鸡西市,第一中学,,30,30,45,7,30,66,,64,61,15,20,5,6,0.3,0.5
2026-02-05T1200,3707A,131.0069,45.2988,鸡西市,欧美日汽修厂,颗粒物(PM10),99,148,78,6,36,71,,65,65,3,13,9,12,0.4,0.7
2026-02-05T1200,2367A,114.9753,27.0803,吉安市,红声器材厂,,,,79,,59,67,,33,33,22,25,12,13,,0.8
2026-02-05T1200,2369A,114.9903,27.1313,吉安市,市环境监测站,细颗粒物(PM2.5),84,79,74,62,62,71,,34,34,23,29,10,12,/,/
2026-02-05T1200,2370A,115.009527,27.096792,吉安市,青原区法院,细颗粒物(PM2.5),84,83,75,62,58,64,,30,29,25,26,14,13,0.8,0.8
2026-02-05T1200,1772A,126.54,43.8622,吉林市,哈达湾,颗粒物(PM10),61,72,106,37,81,77,,64,64,16,35,8,19,0.7,1.3
2026-02-05T1200,1773A,126.5843,43.8358,吉林市,东局子,,49,,86,34,78,58,,41,41,22,35,7,8,1.0,1.4
2026-02-05T1200,1774A,126.5051,43.8243,吉林市,电力学院,颗粒物(PM10),51,51,90,34,74,69,,56,56,14,35,8,27,0.6,1.1
2026-02-05T1200,1775A,126.6133,43.8971,吉林市,江北,细颗粒物(PM2.5),58,56,89,41,72,62,,46,46,23,31,10,11,0.7,1.1
2026-02-05T1200,1776A,126.5549,43.8304,吉林市,江南公园,,,41,87,34,72,,,33,33,15,36,,16,0.5,1
2026-02-05T1200,2868A,126.4737,43.953,吉林市,九站,,50,47,82,35,67,65,,48,48,19,37,7,15,0.7,0.9
2026-02-05T1200,1299A,116.9866,36.6118,济南市,科干所,细颗粒物(PM2.5),110,156,142,83,94,64,,80,51,41,30,12,13,0.9,0.9
2026-02-05T1200,1300A,116.9379,36.6652,济南市,农科所,颗粒物(PM10),130,210,162,96,120,62,,50,32,43,54,13,12,0.9,1.1
2026-02-05T1200,1301A,117.1265,36.6736,济南市,开发区,细颗粒物(PM2.5),129,166,141,98,98,76,,86,63,46,43,10,8,0.9,0.9
2026-02-05T1200,1303A,117.0616,36.6865,济南市,省种子仓库,细颗粒物(PM2.5),124,188,158,94,107,65,,25,20,38,57,11,10,0.8,1.1
2026-02-05T1200,1304A,116.9495185,36.644937,济南市,机床二厂,细颗粒物(PM2.5),155,176,160,118,118,63,,49,36,43,52,13,23,0.6,0.8
2026-02-05T1200,1305A,117.0496,36.6629,济南市,市监测站,细颗粒物(PM2.5),128,171,148,97,107,68,,63,37,40,49,10,7,1.0,1.1
2026-02-05T1200,1306A,116.7674,36.5458,济南市,长清党校,细颗粒物(PM2.5),128,193,154,97,104,58,,50,42,60,56,11,8,1.1,1
2026-02-05T1200,1961A,117.5323,36.6865,济南市,东山小学,颗粒物(PM10),100,149,132,71,79,74,,59,56,37,47,13,7,0.8,0.8
2026-02-05T1200,3059A,117.7181,36.205,济南市,泰兴公司,细颗粒物(PM2.5),150,234,176,115,119,108,,26,26,27,57,18,11,1.2,1.5
2026-02-05T1200,3064A,117.6861,36.2172,济南市,莱芜战役纪念馆,细颗粒物(PM2.5),172,232,170,130,120,97,,23,23,37,63,24,14,1.2,1.5
2026-02-05T1200,3494A,117.1673,36.9782,济南市,济阳区政府,颗粒物(PM10),119,188,160,65,113,62,,36,36,30,49,8,10,0.9,1.1
2026-02-05T1200,3495A,117.1168,36.6299,济南市,锦屏中学,细颗粒物(PM2.5),119,137,128,90,93,74,,82,68,34,27,10,7,0.6,0.7
2026-02-05T1200,4108A,117.7107,36.2385,济南市,山财大街5号,细颗粒物(PM2.5),142,200,151,108,104,114,,28,28,40,70,25,13,1.3,1.3
2026-02-05T1200,4109A,116.9744,36.6889,济南市,无影山路12号,颗粒物(PM10),131,212,160,94,116,62,,56,38,36,43,12,15,1.1,1.3
2026-02-05T1200,1653A,116.6229,35.4288,济宁市,火炬城,细颗粒物(PM2.5),189,160,141,142,111,69,,28,28,41,36,5,5,1.0,1
2026-02-05T1200,3500A,116.5808,35.3703,济宁市,北湖一中,细颗粒物(PM2.5),201,166,138,151,116,87,,38,38,36,38,12,8,1.1,0.9
2026-02-05T1200,3501A,116.8251,35.5592,济宁市,服务中心,细颗粒物(PM2.5),183,213,172,138,112,68,,15,15,34,44,7,5,1.1,1
2026-02-05T1200,3678A,116.5907,35.4054,济宁市,市第七中学,细颗粒物(PM2.5),192,146,146,144,118,83,,37,37,39,42,15,13,1.0,1
2026-02-05T1200,4111A,116.6075,35.4566,济宁市,任和路,细颗粒物(PM2.5),192,202,166,144,108,60,,17,17,50,47,10,6,1.0,0.9
2026-02-05T1200,4112A,116.5648,35.3921,济宁市,文体南路1号,细颗粒物(PM2.5),233,204,174,183,123,65,,21,21,,44,13,7,,1
2026-02-05T1200,2255A,130.2749,46.8028,佳木斯市,佳纺,,30,30,67,11,40,64,,47,47,7,37,6,7,0.4,0.7
2026-02-05T1200,2257A,130.3258,46.7975,佳木斯市,环保局,,26,26,63,8,43,58,,40,40,12,41,7,9,0.2,0.6
2026-02-05T1200,4285A,130.363,46.806,佳木斯市,顺和街,,25,25,48,7,37,61,,48,48,10,32,5,7,0.4,0.6
2026-02-05T1200,4286A,130.3952,46.8268,佳木斯市,长安路196号,,22,22,46,11,34,68,,54,54,6,30,4,6,0.5,0.7
2026-02-05T1200,1252A,120.7439,30.778,嘉兴市,清河小学,细颗粒物(PM2.5),107,97,111,80,79,27,,9,9,89,85,7,8,0.3,0.3
2026-02-05T1200,1253A,120.7261,30.7477,嘉兴市,嘉兴学院,,,,119,,77,20,,5,5,103,78,8,7,,1.1
2026-02-05T1200,2872A,120.7845,30.7524,嘉兴市,南湖区残联,细颗粒物(PM2.5),112,,97,84,78,39,,20,20,86,77,8,6,0.8,0.7
2026-02-05T1200,3407A,120.6915,30.7741,嘉兴市,秀洲住建,细颗粒物(PM2.5),87,89,106,64,71,51,,12,12,54,76,7,8,0.6,0.7
2026-02-05T1200,1945A,98.291,39.7705,嘉峪关市,气象局,颗粒物(PM10),109,168,99,,36,80,,54,54,7,16,4,11,0.3,0.4
2026-02-05T1200,2884A,98.2672,39.7978,嘉峪关市,酒钢宾馆,颗粒物(PM10),118,185,108,51,37,81,,49,49,6,19,10,23,0.5,0.9
2026-02-05T1200,3248A,98.2644,39.7723,嘉峪关市,雄关区,颗粒物(PM10),96,142,87,49,34,76,,48,48,11,24,9,17,0.5,0.6
2026-02-05T1200,1383A,113.1063,22.6058,江门市,北街,细颗粒物(PM2.5),64,66,51,46,34,113,,67,67,32,21,/,/,/,/
2026-02-05T1200,1384A,113.073,22.5835,江门市,西区,"颗粒物(PM10),细颗粒物(PM2.5)",52,53,51,36,32,103,,69,69,27,26,/,/,/,/
2026-02-05T1200,1385A,113.0218,22.531,江门市,圭峰西,细颗粒物(PM2.5),52,49,44,36,27,102,,71,64,20,18,/,/,/,/
2026-02-05T1200,1386A,113.0826,22.5947,江门市,东湖,颗粒物(PM10),56,62,55,36,33,109,,67,67,27,21,8,8,0.6,0.6
2026-02-05T1200,3311A,113.1077,22.5647,江门市,江海富民,颗粒物(PM10),61,72,77,33,32,107,,69,69,25,27,/,/,0.5,0.6
2026-02-05T1200,3449A,113.0496,22.4669,江门市,新会银湖,细颗粒物(PM2.5),59,44,44,42,29,94,,34,34,30,27,7,6,0.7,0.6
2026-02-05T1200,3335A,113.3137,35.2643,焦作市,马村街道办,颗粒物(PM10),75,99,122,48,67,56,,44,36,35,31,18,12,1.2,1.1
2026-02-05T1200,3336A,113.2464,35.2374,焦作市,焦作技师学院,细颗粒物(PM2.5),83,108,113,61,65,52,,30,25,39,44,16,11,1.3,1.2
2026-02-05T1200,3477A,113.1656,35.2536,焦作市,中站许衡医院,颗粒物(PM10),59,67,84,40,47,75,,78,69,25,28,12,11,0.9,0.9
2026-02-05T1200,3981A,113.2456,35.18,焦作市,原李万街道办,颗粒物(PM10),99,147,123,59,73,54,,41,37,34,41,16,14,1.1,1
2026-02-05T1200,4264A,113.234,35.219,焦作市,新安路1731号,细颗粒物(PM2.5),83,109,121,61,64,45,,39,28,42,41,13,11,1.0,0.9
2026-02-05T1200,4295A,113.2722,35.2121,焦作市,人民路3066号,颗粒物(PM10),88,125,127,57,81,42,,20,20,41,51,13,10,1.2,1.1
2026-02-05T1200,1708A,116.3701,23.5345,揭阳市,新兴,细颗粒物(PM2.5),93,119,79,69,46,112,,40,40,43,37,9,9,1.1,1
2026-02-05T1200,1709A,116.3261,23.5442,揭阳市,西马,细颗粒物(PM2.5),82,101,85,60,48,136,,43,43,27,33,9,7,0.9,0.9
2026-02-05T1200,1710A,116.361,23.5627,揭阳市,东兴,细颗粒物(PM2.5),79,104,81,58,46,141,,45,45,29,36,11,12,/,/
2026-02-05T1200,1711A,116.4151,23.5295,揭阳市,渔湖,细颗粒物(PM2.5),105,128,80,79,48,130,,42,42,40,35,8,7,/,/
2026-02-05T1200,3320A,116.4028,23.5699,揭阳市,曲溪,细颗粒物(PM2.5),92,104,75,68,46,128,,54,54,48,33,6,8,1.2,1
2026-02-05T1200,1944A,102.1691,38.5166,金昌市,天庆家园,,48,48,68,14,32,74,,50,49,7,19,4,20,0.3,0.6
2026-02-05T1200,4022A,102.1648,38.5369,金昌市,金川区人防中心,,,,54,,24,74,,65,59,4,12,,15,,0.5
2026-02-05T1200,4239A,102.193042,38.531887,金昌市,长春路96号,,31,31,56,17,25,68,,60,50,6,18,6,14,0.6,0.9
2026-02-05T1200,1262A,119.6478,29.0773,金华市,十五中,细颗粒物(PM2.5),100,119,100,75,61,49,,15,15,57,56,4,3,0.9,1.1
2026-02-05T1200,1263A,119.6859,29.1032,金华市,监测站,细颗粒物(PM2.5),109,129,102,82,58,32,,8,8,71,65,4,4,0.8,0.8
2026-02-05T1200,3659A,119.656,29.1132,金华市,气象局,细颗粒物(PM2.5),113,130,111,85,69,30,,6,6,73,79,6,5,1.1,1.1
2026-02-05T1200,1767A,121.1114,41.0879,锦州市,南山,颗粒物(PM10),58,66,121,7,67,88,,74,74,2,29,6,25,0.4,0.9
2026-02-05T1200,1768A,121.060361,40.842794,锦州市,开发区,,,98,177,11,80,,,57,57,4,33,4,12,0.5,1
2026-02-05T1200,1769A,121.1836,41.1118,锦州市,百股街道,颗粒物(PM10),67,84,153,12,70,84,,71,71,6,32,5,11,0.3,1
2026-02-05T1200,1770A,121.1176,41.1224,锦州市,天安街道,颗粒物(PM10),58,65,129,7,58,90,,81,81,7,26,3,11,0.4,0.8
2026-02-05T1200,1771A,121.1303,41.1385,锦州市,北湖公园,颗粒物(PM10),65,79,118,8,59,87,,76,76,6,22,6,14,0.4,0.7
2026-02-05T1200,2160A,112.8496,35.5051,晋城市,自来水公司,颗粒物(PM10),74,98,106,34,45,55,,51,39,38,32,24,12,2.5,1.3
2026-02-05T1200,2162A,112.8509,35.4886,晋城市,市环保局,,,107,96,36,50,56,,51,36,,25,22,10,2.5,1.1
2026-02-05T1200,3620A,112.8258,35.4804,晋城市,泽州一中,颗粒物(PM10),87,123,108,37,48,74,,65,52,25,21,18,9,2.0,1.2
2026-02-05T1200,4078A,112.8246,35.5152,晋城市,前书院路,颗粒物(PM10),81,112,118,29,44,59,,53,40,34,26,26,11,2.7,1.3
2026-02-05T1200,4079A,112.8864,35.4773,晋城市,祥云街666号,颗粒物(PM10),79,107,105,46,60,63,,57,42,35,29,20,14,1.4,1
2026-02-05T1200,2174A,112.6992,37.6984,晋中市,榆次区政府,颗粒物(PM10),67,83,141,16,68,57,,15,15,27,61,13,27,0.4,1.2
2026-02-05T1200,2865A,112.7195,37.683,晋中市,榆次三中,颗粒物(PM10),73,95,142,18,67,60,,20,20,26,55,13,25,0.5,1.2
2026-02-05T1200,4080A,112.7375,37.7215,晋中市,广安街188号,颗粒物(PM10),71,92,138,28,66,57,,16,16,27,59,18,26,0.4,1
2026-02-05T1200,4200A,112.7478,37.6954,晋中市,迎宾街26号,,,105,140,37,71,59,,23,23,27,53,14,27,,1.1
2026-02-05T1200,2439A,112.2012,31.048,荆门市,竹园小学,细颗粒物(PM2.5),135,149,173,103,122,31,,15,15,37,45,1,1,1.3,1.3
2026-02-05T1200,2440A,112.1968,30.9892,荆门市,掇刀,细颗粒物(PM2.5),155,155,200,118,152,46,,23,23,25,39,6,6,1.1,1.2
2026-02-05T1200,3012A,112.1849,31.0361,荆门市,西山林语,细颗粒物(PM2.5),117,146,161,88,112,15,,35,22,51,40,2,2,1.7,1.4
2026-02-05T1200,3547A,112.1631,31.0134,荆门市,龙泉中学南校,细颗粒物(PM2.5),119,152,189,90,128,38,,37,32,39,37,5,5,0.3,0.2
2026-02-05T1200,4124A,112.2213,31.0654,荆门市,新台西路6号,细颗粒物(PM2.5),201,199,181,151,139,25,,6,6,31,51,8,9,1.0,1.1
2026-02-05T1200,1844A,112.2493,30.3198,荆州市,市图书馆,细颗粒物(PM2.5),225,200,133,175,110,19,,8,8,48,49,7,10,1.4,1.2
2026-02-05T1200,1845A,112.2009,30.3543,荆州市,市委党校,细颗粒物(PM2.5),230,226,171,180,138,17,,5,5,42,52,8,9,1.5,1.4
2026-02-05T1200,3194A,112.2749,30.3124,荆州市,管委会,细颗粒物(PM2.5),238,193,135,188,113,12,,3,3,52,48,7,12,1.2,1.1
2026-02-05T1200,4268A,112.1722,30.3366,荆州市,学苑路85号,细颗粒物(PM2.5),252,239,170,202,138,25,,10,10,36,46,9,10,1.0,1.1
2026-02-05T1200,2343A,117.2114,29.2931,景德镇市,老干部活动中心,,38,38,56,25,36,40,,32,32,11,25,3,5,0.7,0.8
2026-02-05T1200,2344A,117.1893,29.2789,景德镇市,兽医站,,,,58,20,37,45,,43,43,14,28,4,4,0.6,0.6
2026-02-05T1200,2346A,117.246,29.2958,景德镇市,陶研所,,33,33,43,23,30,46,,26,26,10,21,3,3,0.7,0.8
2026-02-05T1200,4289A,117.154766,29.256967,景德镇市,青少年活动中心,颗粒物(PM10),52,54,66,27,42,41,,37,37,19,39,4,10,/,/
2026-02-05T1200,1803A,115.9873,29.6816,九江市,十里,细颗粒物(PM2.5),79,75,90,58,57,26,,12,12,39,59,7,7,1.3,1.1
2026-02-05T1200,1804A,115.9583,29.7047,九江市,茅山头,细颗粒物(PM2.5),93,80,94,69,66,8,,5,5,42,56,4,5,0.9,0.8
2026-02-05T1200,1805A,115.9877,29.7295,九江市,西园,细颗粒物(PM2.5),112,93,104,84,70,23,,21,21,57,67,8,8,1.3,1
2026-02-05T1200,1808A,115.9112,29.6038,九江市,综合工业园,细颗粒物(PM2.5),69,58,74,50,48,15,,13,11,60,61,3,4,0.7,0.6
2026-02-05T1200,3190A,116.0254,29.6995,九江市,外国语学校,细颗粒物(PM2.5),104,,87,78,71,,,16,16,43,62,,8,0.8,0.9
2026-02-05T1200,4253A,116.010205,29.659402,九江市,莲花大道8号,细颗粒物(PM2.5),75,65,69,55,48,26,,33,27,40,41,4,4,0.9,0.7
2026-02-05T1200,4240A,98.495752,39.733935,酒泉市,玉门东路5号,颗粒物(PM10),102,153,109,58,55,64,,38,37,14,19,15,15,0.4,0.6
2026-02-05T1200,4241A,98.5099,39.7506,酒泉市,北大街108号,,,146,106,53,47,,,37,28,13,18,17,15,0.5,0.6
2026-02-05T1200,2698A,76.0071,39.466,喀什地区,巡警大队,颗粒物(PM10),110,170,118,66,51,12,,3,3,51,56,10,8,2.0,2.1
2026-02-05T1200,2699A,75.9756,39.4693,喀什地区,吾办,颗粒物(PM10),111,172,134,72,61,24,,6,6,49,59,12,11,1.9,2.1
2026-02-05T1200,4027A,75.9485,39.4688,喀什地区,老干局,颗粒物(PM10),215,360,133,134,53,6,,2,2,74,46,19,8,4.4,2.4
2026-02-05T1200,1824A,114.3389,34.778,开封市,肿瘤医院,细颗粒物(PM2.5),137,174,148,104,102,46,,22,22,52,60,14,10,1.2,1.1
2026-02-05T1200,1826A,114.2884,34.7966,开封市,世纪星幼儿园,细颗粒物(PM2.5),129,144,136,98,99,44,,23,23,51,56,15,11,1.1,1
2026-02-05T1200,3147A,114.3434,34.8101,开封市,龙亭公园,细颗粒物(PM2.5),132,162,148,100,95,44,,21,21,58,62,14,11,1.0,0.9
2026-02-05T1200,3210A,114.3645,34.7955,开封市,汴京公园,细颗粒物(PM2.5),123,177,158,93,93,41,,16,16,55,64,10,7,1.0,0.9
2026-02-05T1200,3473A,114.2485,34.8306,开封市,技师学院,细颗粒物(PM2.5),140,150,120,107,86,48,,28,18,50,50,14,11,1.4,1.2
2026-02-05T1200,3592A,114.4518,34.7503,开封市,祥符区生态环境局,细颗粒物(PM2.5),163,230,175,124,112,37,,13,13,58,71,15,9,1.5,1.2
2026-02-05T1200,1951A,84.886,45.6029,克拉玛依市,长征新村,细颗粒物(PM2.5),122,130,152,92,110,68,,74,72,24,31,4,5,1.1,1.3
2026-02-05T1200,1952A,84.8894,45.5827,克拉玛依市,南林小区,细颗粒物(PM2.5),139,134,153,106,122,72,,74,73,4,11,2,2,1.1,1.2
2026-02-05T1200,1954A,84.896,44.3328,克拉玛依市,独山子区,,49,49,38,22,23,31,,78,56,46,15,4,3,1.1,0.6
2026-02-05T1200,1955A,85.6888,46.0909,克拉玛依市,乌尔禾区商贸楼,细颗粒物(PM2.5),122,109,141,92,124,75,,70,70,22,29,6,7,1.0,1.3
2026-02-05T1200,3612A,85.1045,45.6895,克拉玛依市,白碱滩区新站,细颗粒物(PM2.5),83,70,155,61,134,83,,76,76,15,26,8,9,0.9,1.3
2026-02-05T1200,2697A,76.1457,39.7143,克孜勒苏柯尔克孜自治州,市人民政府,,,,73,,30,52,,73,69,8,10,,4,0.4,0.3
2026-02-05T1200,3665A,76.1654,39.7157,克孜勒苏柯尔克孜自治州,克州文化中心,颗粒物(PM10),71,91,87,29,35,38,,67,56,27,12,4,5,1.0,0.5
2026-02-05T1200,1450A,102.8203,24.889,昆明市,呈贡新区,,,31,40,26,29,86,,63,63,,17,2,6,0.2,0.5
2026-02-05T1200,1452A,102.7253,25.0904,昆明市,龙泉镇,,,26,37,,25,78,,60,60,,16,,4,0.4,0.5
2026-02-05T1200,1453A,102.7267,25.0378,昆明市,东风东路,,33,31,39,23,27,82,,61,60,16,19,12,7,0.5,0.4
2026-02-05T1200,1454A,102.6744,25.0671,昆明市,金鼎山,,26,24,48,18,29,83,,55,55,8,18,4,5,0.4,0.7
2026-02-05T1200,1455A,102.6643,25.0401,昆明市,碧鸡广场,,35,28,42,24,28,82,,51,51,14,27,7,5,0.5,0.5
2026-02-05T1200,3179A,102.7491,25.012,昆明市,官渡区博物馆,,35,35,39,24,28,85,,69,69,14,16,9,5,0.5,0.5
2026-02-05T1200,3375A,102.8016,24.8336,昆明市,青年创业园,,35,33,42,24,27,94,,61,61,6,17,7,9,0.5,0.6
2026-02-05T1200,3550A,102.8,24.9787,昆明市,昆明学院,,35,35,44,20,26,95,,74,68,9,15,4,5,0.6,0.6
2026-02-05T1200,3551A,102.5969,24.6738,昆明市,晋宁区生态环境分局,,29,27,46,19,32,90,,67,67,5,13,1,3,0.4,0.5
2026-02-05T1200,3552A,102.6673,24.9861,昆明市,云天化总部,,33,33,33,15,20,84,,80,78,14,10,10,6,0.5,0.4
2026-02-05T1200,1456A,91.132,29.6515,拉萨市,八廓街,,30,9,14,7,6,96,,93,93,5,5,7,7,0.3,0.3
2026-02-05T1200,1457A,91.1221,29.6748,拉萨市,市环保局,,30,14,17,3,9,95,,87,86,5,9,7,8,0.3,0.4
2026-02-05T1200,1458A,91.0874,29.6476,拉萨市,区监测站,,28,11,12,3,7,88,,88,85,6,7,4,4,0.8,0.8
2026-02-05T1200,1459A,91.1774,29.6541,拉萨市,西藏大学,,28,7,13,6,7,87,,84,84,7,9,4,4,0.1,0.3
2026-02-05T1200,1460A,90.9798,29.6586,拉萨市,区辐射站,,29,12,22,10,11,92,,85,79,4,14,3,4,0.2,0.3
2026-02-05T1200,1461A,91.0831,29.6292,拉萨市,拉萨火车站,,28,,11,9,6,89,,87,87,6,3,4,4,0.3,0.3
2026-02-05T1200,2520A,109.2203,23.7252,来宾市,来宾技工学校,细颗粒物(PM2.5),198,154,178,148,188,,,6,6,36,39,,12,1.4,1.5
2026-02-05T1200,3535A,109.1781,23.7293,来宾市,兴宾区政府,细颗粒物(PM2.5),168,162,185,127,160,45,,13,13,40,39,29,7,1.5,1.4
2026-02-05T1200,4002A,109.2312,23.7428,来宾市,中南小学,细颗粒物(PM2.5),188,164,187,141,192,44,,8,8,32,40,7,5,1.3,1.7
2026-02-05T1200,1479A,103.8309,36.0467,兰州市,铁路设计院,,,,,,,,,,,,,,,,
2026-02-05T1200,3241A,103.7439,36.0841,兰州市,百合公园,细颗粒物(PM2.5),92,89,103,68,68,35,,15,15,62,65,28,15,1.4,1.4
2026-02-05T1200,3242A,103.9613,35.9985,兰州市,和平,颗粒物(PM10),80,110,86,51,45,40,,43,31,42,33,36,16,2.1,1.3
2026-02-05T1200,4236A,103.629272,36.093822,兰州市,庄浪东路808号,细颗粒物(PM2.5),85,101,105,63,59,50,,24,21,39,61,75,22,1.5,1.2
2026-02-05T1200,4237A,103.7251,36.104344,兰州市,安宁西路88号,细颗粒物(PM2.5),93,107,114,69,60,52,,17,16,51,66,42,17,1.3,1
2026-02-05T1200,4238A,103.846982,36.067567,兰州市,北滨河东路1号,,,,107,,60,23,,5,5,,74,44,16,3.1,1.5
2026-02-05T1200,1067A,116.6712,39.5109,廊坊市,药材公司,颗粒物(PM10),69,87,136,7,73,82,,52,52,8,43,3,4,0.3,0.7
2026-02-05T1200,1068A,116.7215,39.5592,廊坊市,开发区,颗粒物(PM10),64,78,144,3,81,81,,52,52,5,45,3,5,0.3,0.8
2026-02-05T1200,1070A,116.7246,39.5273,廊坊市,北华航天学院,颗粒物(PM10),72,94,138,3,82,83,,52,52,7,43,2,7,0.2,0.8
2026-02-05T1200,2919A,116.7022,39.5454,廊坊市,河北工业大学,,,107,147,9,81,76,,49,49,,43,3,5,,0.8
2026-02-05T1200,2536A,103.7629,29.5844,乐山市,牛耳桥,细颗粒物(PM2.5),155,152,137,118,103,23,,12,12,33,34,5,6,1.1,1
2026-02-05T1200,2537A,103.7501,29.6002,乐山市,市第三水厂,细颗粒物(PM2.5),149,143,131,114,94,35,,7,7,38,41,4,4,1.2,1.1
2026-02-05T1200,2538A,103.7571,29.5664,乐山市,市监测站,细颗粒物(PM2.5),140,133,124,107,93,29,,10,10,28,30,6,6,1.2,1.1
2026-02-05T1200,3361A,103.7313,29.563,乐山市,理工大学,细颗粒物(PM2.5),148,,106,113,91,16,,9,9,36,29,3,3,1.4,1.1
2026-02-05T1200,2599A,100.2497,26.8802,丽江市,丽江古城,,27,24,20,3,6,85,,74,74,8,9,6,6,0.4,0.3
2026-02-05T1200,2600A,100.2203,26.8906,丽江市,市中心,,28,9,11,7,8,88,,78,78,9,9,5,5,0.3,0.3
2026-02-05T1200,1267A,119.9141,28.4513,丽水市,监测站大楼,,,51,59,41,39,66,,1,,,37,7,6,0.5,0.9
2026-02-05T1200,1268A,119.93,28.4589,丽水市,莲都小学,细颗粒物(PM2.5),58,62,66,41,36,58,,12,12,25,43,/,/,/,/
2026-02-05T1200,1269A,119.8794,28.4232,丽水市,余庄前,"颗粒物(PM10),细颗粒物(PM2.5)",54,58,49,38,32,48,,9,9,32,27,6,5,0.6,0.5
2026-02-05T1200,1173A,119.1759,34.5885,连云港市,市环境监测站,细颗粒物(PM2.5),178,185,121,134,92,51,,22,20,70,42,21,14,1.0,0.7
2026-02-05T1200,3000A,119.3577,34.6971,连云港市,德源药业,细颗粒物(PM2.5),149,175,142,114,91,77,,18,18,50,64,12,8,1.1,0.8
2026-02-05T1200,3007A,119.178,34.8442,连云港市,新城一中,细颗粒物(PM2.5),189,169,130,142,102,79,,26,26,60,67,22,14,1.4,1.1
2026-02-05T1200,3008A,119.3607,34.7519,连云港市,胡沟管理处,细颗粒物(PM2.5),163,168,133,124,93,80,,56,56,42,59,20,15,1.1,0.9
2026-02-05T1200,3009A,119.1478,34.5913,连云港市,矿山设计院,细颗粒物(PM2.5),168,190,137,127,96,48,,28,16,66,44,20,11,1.3,1
2026-02-05T1200,3434A,119.2414,34.6539,连云港市,工贸学校,细颗粒物(PM2.5),189,179,118,142,88,58,,61,44,76,38,21,14,1.1,0.7
2026-02-05T1200,3664A,119.4171,34.734,连云港市,连云街道,细颗粒物(PM2.5),175,180,131,132,90,67,,83,58,56,39,17,11,1.3,1
2026-02-05T1200,2573A,102.2629,27.8981,凉山彝族自治州,西昌市政府,,25,24,29,12,13,78,,66,66,5,9,6,13,0.4,0.7
2026-02-05T1200,2574A,102.2686,27.885,凉山彝族自治州,凉山州政府,,23,23,31,3,10,73,,60,60,4,9,8,15,0.5,0.5
2026-02-05T1200,4229A,102.2342,27.8859,凉山彝族自治州,凯乐南路30号,,,29,34,9,9,72,,65,65,9,9,14,15,,1
2026-02-05T1200,2212A,123.1978,41.2036,辽阳市,宏伟区,颗粒物(PM10),182,313,158,6,104,71,,53,53,5,35,5,10,0.4,1.2
2026-02-05T1200,2213A,123.1684,41.2497,辽阳市,新华园,颗粒物(PM10),198,345,162,8,104,76,,57,57,6,44,1,7,0.3,0.9
2026-02-05T1200,2214A,123.2355,41.2663,辽阳市,滨河路,颗粒物(PM10),168,285,150,6,95,75,,54,54,4,42,4,8,0.4,1.2
2026-02-05T1200,4083A,123.153,41.2874,辽阳市,铁西路150号,颗粒物(PM10),250,385,153,8,96,68,,53,53,5,40,5,11,0.4,1.1
2026-02-05T1200,2227A,125.1359,42.8845,辽源市,环保局,颗粒物(PM10),68,85,121,3,106,73,,49,49,10,38,2,5,0.4,1.4
2026-02-05T1200,4085A,125.0998,42.9134,辽源市,安宁大街333号,,,,135,3,110,81,,55,55,8,30,3,5,0.3,1.1
2026-02-05T1200,1625A,115.9789,36.4372,聊城市,区政府,颗粒物(PM10),150,249,190,99,134,70,,32,32,35,56,27,17,1.2,1.5
2026-02-05T1200,3200A,115.9772,36.4986,聊城市,监控中心,颗粒物(PM10),136,222,195,78,135,73,,29,29,27,66,10,10,1.0,1.4
2026-02-05T1200,3513A,116.0443,36.436,聊城市,九州社区,"颗粒物(PM10),细颗粒物(PM2.5)",135,219,184,103,135,87,,51,51,22,33,14,9,0.8,1
2026-02-05T1200,4018A,116.0564,36.4609,聊城市,星美广场,颗粒物(PM10),156,262,204,97,146,74,,41,41,25,42,14,10,1.0,1.3
2026-02-05T1200,4113A,116.0091,36.4495,聊城市,利民路,颗粒物(PM10),140,230,186,89,128,69,,34,34,33,51,24,14,1.2,1.4
2026-02-05T1200,2632A,94.3683,29.6373,林芝市,林芝监测站,,,9,22,3,10,,,94,92,,1,6,5,0.4,0.4
2026-02-05T1200,2633A,94.3616,29.6634,林芝市,林芝人民医院,,28,,27,14,13,89,,92,90,2,1,6,6,0.4,0.3
2026-02-05T1200,2603A,100.0779,23.8981,临沧市,市环保局,,,,36,,25,,,46,38,18,13,6,8,0.7,0.6
2026-02-05T1200,2604A,100.0894,23.882,临沧市,市气象局,颗粒物(PM10),55,59,47,27,28,59,,38,34,16,12,10,11,0.6,0.5
2026-02-05T1200,1733A,111.5552,36.0791,临汾市,临钢医院,细颗粒物(PM2.5),130,185,171,99,99,44,,20,20,38,45,13,11,1.8,1.9
2026-02-05T1200,1734A,111.4984,36.0734,临汾市,技工学校,细颗粒物(PM2.5),127,137,154,96,108,56,,18,18,42,50,25,14,1.6,1.7
2026-02-05T1200,1736A,111.5017,36.0857,临汾市,市委,细颗粒物(PM2.5),123,139,165,93,101,50,,16,16,34,48,24,15,1.6,1.5
2026-02-05T1200,3018A,111.5048,36.1015,临汾市,唐尧大酒店,,,,164,,91,41,,14,14,42,52,22,12,,2.1
2026-02-05T1200,4244A,111.4879,36.053,临汾市,启星学校,细颗粒物(PM2.5),107,148,156,80,101,51,,13,13,36,57,24,13,1.7,1.8
2026-02-05T1200,4271A,103.2464,35.6123,临夏回族自治州,滨河东路1号,颗粒物(PM10),138,225,194,102,107,44,,21,21,34,39,11,10,1.4,1.8
2026-02-05T1200,4310A,103.207136,35.599807,临夏回族自治州,新华街21号,细颗粒物(PM2.5),134,200,180,102,112,51,,26,24,36,37,12,12,1.4,1.7
2026-02-05T1200,1618A,118.3429,35.0532,临沂市,沂河小区,细颗粒物(PM2.5),175,188,147,132,98,74,,27,27,51,54,17,16,1.0,0.9
2026-02-05T1200,1619A,118.2962,35.0568,临沂市,鲁南制药厂,细颗粒物(PM2.5),188,175,157,141,108,64,,16,16,66,78,22,24,1.1,1.1
2026-02-05T1200,1620A,118.2793,34.9976,临沂市,新光毛纺厂,细颗粒物(PM2.5),208,210,146,158,108,57,,14,14,83,67,30,20,1.4,1.1
2026-02-05T1200,1621A,118.3955,35.0889,临沂市,河东保险公司,细颗粒物(PM2.5),209,200,139,159,102,65,,20,20,63,59,22,14,1.2,1.2
2026-02-05T1200,3370A,118.3563,35.0215,临沂市,十里堡居委,细颗粒物(PM2.5),190,180,150,143,105,75,,19,19,,69,18,24,1.2,1.2
2026-02-05T1200,3496A,118.359,35.1067,临沂市,南坊新区,细颗粒物(PM2.5),162,151,130,123,95,86,,40,40,45,53,17,13,1.0,1
2026-02-05T1200,3860A,118.3915,35.0297,临沂市,皇山花园小区,细颗粒物(PM2.5),212,185,148,162,116,,,16,16,59,62,23,22,1.3,1.2
2026-02-05T1200,1870A,109.4854,24.3898,柳州市,柳东小学,细颗粒物(PM2.5),133,,111,101,110,17,,16,12,31,25,8,8,1.0,1.1
2026-02-05T1200,1871A,109.4109,24.3304,柳州市,环保监测站,细颗粒物(PM2.5),215,,158,165,156,21,,4,4,61,53,9,7,2.2,2.1
2026-02-05T1200,1872A,109.3886,24.3408,柳州市,河西水厂,细颗粒物(PM2.5),249,,184,199,182,,,2,2,65,47,10,9,1.8,1.6
2026-02-05T1200,1873A,109.4263,24.2951,柳州市,市四中,细颗粒物(PM2.5),228,191,181,178,171,22,,4,4,56,52,10,8,1.8,1.9
2026-02-05T1200,1874A,109.396,24.3658,柳州市,市九中,,,,221,181,160,19,,5,5,60,45,16,12,2.0,1.8
2026-02-05T1200,1875A,109.4912,24.3164,柳州市,古亭山,细颗粒物(PM2.5),211,,129,161,138,23,,6,6,58,46,11,7,1.3,1.1
2026-02-05T1200,3402A,109.5422,24.3994,柳州市,市二中,细颗粒物(PM2.5),144,,112,110,114,31,,15,12,45,34,13,10,1.1,1.1
2026-02-05T1200,2307A,116.5078,31.7369,六安市,监测大楼,细颗粒物(PM2.5),83,89,61,61,40,68,,46,38,20,29,5,4,0.7,0.5
2026-02-05T1200,2308A,116.4738,31.7642,六安市,皖西学院,细颗粒物(PM2.5),87,88,69,64,39,70,,41,34,18,28,6,5,0.7,0.5
2026-02-05T1200,2309A,116.4997,31.7904,六安市,朝阳厂,,,91,61,71,40,66,,52,49,,28,7,6,0.7,0.5
2026-02-05T1200,2310A,116.5566,31.7885,六安市,开发区,细颗粒物(PM2.5),83,89,70,61,40,72,,54,46,16,30,6,5,0.7,0.6
2026-02-05T1200,2577A,104.8293,26.592,六盘水市,黄土坡,,45,37,58,31,41,52,,30,30,16,25,14,14,1.1,1.1
2026-02-05T1200,2579A,104.8481,26.5898,六盘水市,民中,,,,57,,43,53,,31,26,,21,7,8,0.7,1
2026-02-05T1200,2580A,104.9541,26.5506,六盘水市,双水,,36,34,49,25,34,45,,34,28,10,15,5,6,0.6,0.6
2026-02-05T1200,4151A,104.8899,26.5685,六盘水市,钟山大道中段564号,,47,47,61,30,36,49,,31,30,8,14,8,10,1.0,1.2
2026-02-05T1200,2336A,117.022,25.1031,龙岩市,龙岩市监测站,,43,43,30,11,18,98,,37,37,5,23,6,14,0.5,0.7
2026-02-05T1200,2337A,117.0257,25.0662,龙岩市,闽西职业技术学院,,32,29,35,8,18,102,,44,44,4,19,5,6,0.4,0.6
2026-02-05T1200,2338A,117.0195,25.0306,龙岩市,龙岩学院,,32,26,28,9,16,100,,46,46,4,13,3,4,/,/
2026-02-05T1200,2885A,104.9344,33.3827,陇南市,滨江中学,,,77,83,,42,46,,27,27,21,35,14,9,,1.5
2026-02-05T1200,3247A,104.9551,33.3709,陇南市,市总工会,颗粒物(PM10),60,69,67,34,33,48,,31,30,20,28,11,4,0.9,1
2026-02-05T1200,2488A,111.9984,27.7346,娄底市,市监测站,细颗粒物(PM2.5),160,157,135,122,101,27,,21,18,40,34,10,12,1.3,1.3
2026-02-05T1200,2491A,111.9888,27.7035,娄底市,市政府,细颗粒物(PM2.5),144,153,133,110,96,20,,19,15,45,37,7,8,1.0,1
2026-02-05T1200,4127A,111.9812,27.7591,娄底市,涟钢职大,细颗粒物(PM2.5),139,150,128,106,87,23,,21,15,36,35,13,12,1.4,1.4
2026-02-05T1200,4128A,112.0303,27.7457,娄底市,娄底体校,细颗粒物(PM2.5),153,148,134,117,101,20,,13,11,33,30,3,3,0.8,0.8
2026-02-05T1200,1894A,105.4427,28.9063,泸州市,小市上码头,细颗粒物(PM2.5),120,112,104,91,84,,,24,24,24,30,7,6,1.2,1.2
2026-02-05T1200,1895A,105.4241,28.8573,泸州市,兰田宪桥,,,112,105,75,69,52,,30,30,27,25,9,8,,1
2026-02-05T1200,1896A,105.4378,28.8833,泸州市,市环监站,细颗粒物(PM2.5),127,135,116,96,86,35,,28,28,42,33,11,10,1.3,0.9
2026-02-05T1200,4272A,105.3689,28.7783,泸州市,纳溪中医医院,细颗粒物(PM2.5),120,96,87,91,77,50,,15,15,22,24,8,8,1.1,1.1
2026-02-05T1200,2183A,111.1447,37.5212,吕梁市,环保局,颗粒物(PM10),92,134,112,51,46,16,,8,8,64,62,20,10,1.8,0.8
2026-02-05T1200,2185A,111.1285,37.5338,吕梁市,自来水公司,颗粒物(PM10),91,131,130,52,53,16,,8,8,62,48,29,14,2.3,0.8
2026-02-05T1200,2867A,111.1225,37.5093,吕梁市,马茂庄小学,颗粒物(PM10),99,147,130,60,51,20,,8,8,64,62,22,14,1.7,0.7
2026-02-05T1200,1812A,112.3934,34.6517,洛阳市,市委党校,细颗粒物(PM2.5),114,150,121,86,77,49,,28,21,54,44,22,11,1.3,1.1
2026-02-05T1200,1815A,112.494,34.6883,洛阳市,河南林校,细颗粒物(PM2.5),102,136,133,76,81,48,,16,16,53,61,25,15,,1.1
2026-02-05T1200,1816A,112.3843,34.623,洛阳市,开发区管委会,细颗粒物(PM2.5),103,144,134,77,67,53,,41,35,42,30,16,12,1.0,0.8
2026-02-05T1200,1817A,112.4263,34.6249,洛阳市,市委新办公区,细颗粒物(PM2.5),99,128,130,74,72,54,,44,38,41,33,16,11,1.0,0.8
2026-02-05T1200,3340A,112.6005,34.6323,洛阳市,伊滨,颗粒物(PM10),84,117,129,37,66,66,,41,40,31,36,12,10,0.7,0.8
2026-02-05T1200,3341A,112.495,34.6338,洛阳市,中移产业园,细颗粒物(PM2.5),89,112,115,66,75,58,,41,33,35,36,18,11,1.0,0.9
2026-02-05T1200,3593A,112.5736,34.8993,洛阳市,吉利监测站,细颗粒物(PM2.5),73,84,102,53,58,62,,50,47,39,38,14,12,0.9,0.9
2026-02-05T1200,3635A,112.3678,34.6623,洛阳市,河科大西苑校区,细颗粒物(PM2.5),132,166,128,100,78,40,,29,22,66,42,25,13,1.3,1
2026-02-05T1200,3636A,112.4387,34.678,洛阳市,英才小学,颗粒物(PM10),99,148,152,70,84,52,,26,19,51,59,18,16,1.2,1.2
2026-02-05T1200,4214A,112.460027,34.694929,洛阳市,春都路1号院,颗粒物(PM10),112,174,158,78,80,42,,18,18,53,50,22,15,1.3,1
2026-02-05T1200,2399A,114.051,33.5721,漯河市,三五一五工厂,细颗粒物(PM2.5),114,175,159,86,93,67,,51,51,25,33,10,6,0.9,1
2026-02-05T1200,2400A,114.0055,33.5698,漯河市,漯河大学,细颗粒物(PM2.5),97,142,128,72,88,69,,49,49,24,28,12,7,1.0,0.9
2026-02-05T1200,2401A,114.0134,33.5826,漯河市,市水利局,细颗粒物(PM2.5),113,158,140,85,93,53,,40,40,31,34,10,6,0.9,0.9
2026-02-05T1200,2402A,114.0261,33.5697,漯河市,市广电局,细颗粒物(PM2.5),114,154,137,86,95,63,,52,51,22,24,12,7,0.7,0.7
2026-02-05T1200,3478A,113.9691,33.568,漯河市,市图书馆,颗粒物(PM10),108,165,149,78,92,60,,54,50,27,24,12,7,1.1,1
2026-02-05T1200,4250A,114.089259,33.588274,漯河市,韶山路11号,,,,144,,88,,,53,46,31,32,12,7,0.8,0.8
2026-02-05T1200,1798A,118.5084,31.6838,马鞍山市,湖东路四小,细颗粒物(PM2.5),120,136,91,91,62,13,,8,8,77,60,24,9,1.3,0.9
2026-02-05T1200,1799A,118.5019,31.6449,马鞍山市,开发区,细颗粒物(PM2.5),115,105,94,87,59,18,,7,7,64,62,16,8,,0.8
2026-02-05T1200,3633A,118.4914,31.681,马鞍山市,雨山,细颗粒物(PM2.5),104,130,94,78,58,15,,7,7,80,59,28,11,1.6,1
2026-02-05T1200,4191A,118.527362,31.722269,马鞍山市,慈湖高新区,细颗粒物(PM2.5),90,109,105,67,59,50,,11,11,54,61,14,8,0.7,0.8
2026-02-05T1200,1686A,111.0285,21.469,茂名市,电白南海,,46,46,52,14,22,92,,78,77,12,13,11,9,1.1,1.1
2026-02-05T1200,1687A,110.9294,21.6533,茂名市,茂石化七小,,46,46,49,16,23,84,,72,67,10,10,6,6,0.5,0.5
2026-02-05T1200,1688A,110.9108,21.6688,茂名市,健康路,,44,44,42,17,21,91,,85,80,13,13,5,5,0.6,0.6
2026-02-05T1200,1689A,110.8592,21.6826,茂名市,高岭,颗粒物(PM10),59,68,62,22,25,89,,77,74,9,12,4,4,/,/
2026-02-05T1200,3450A,111.0101,21.5165,茂名市,电白水东,,48,48,47,11,23,91,,75,70,14,20,9,9,/,/
2026-02-05T1200,2540A,103.8414,30.0871,眉山市,气象局,细颗粒物(PM2.5),132,112,111,100,78,44,,11,11,36,31,15,12,1.1,1.1
2026-02-05T1200,3148A,103.829,30.0563,眉山市,区人社局,,,,115,,103,42,,10,10,,39,14,12,,1.1
2026-02-05T1200,4148A,103.8836,30.0695,眉山市,眉职院,细颗粒物(PM2.5),125,143,115,95,80,46,,11,11,20,29,11,5,1.2,1
2026-02-05T1200,1690A,116.1248,24.3307,梅州市,梅江月梅,细颗粒物(PM2.5),63,66,50,45,32,88,,21,21,33,33,/,/,/,/
2026-02-05T1200,1691A,116.0798,24.2719,梅州市,梅县新城,细颗粒物(PM2.5),62,61,48,44,31,78,,18,18,35,38,9,8,0.8,0.7
2026-02-05T1200,3315A,116.1234,24.2994,梅州市,梅龙,细颗粒物(PM2.5),59,58,55,42,33,74,,28,28,32,33,9,9,0.9,0.9
2026-02-05T1200,1878A,104.7775,31.4741,绵阳市,富乐山,细颗粒物(PM2.5),97,94,88,72,63,51,,22,22,17,21,9,8,0.9,0.9
2026-02-05T1200,1880A,104.6698,31.4668,绵阳市,高新区自来水公司,细颗粒物(PM2.5),107,128,125,80,75,,,1,1,38,47,9,10,1.2,1.2
2026-02-05T1200,3491A,104.6899,31.5324,绵阳市,西科大附属小学,细颗粒物(PM2.5),104,136,115,78,68,28,,6,6,38,46,9,9,0.9,0.9
2026-02-05T1200,3492A,104.5647,31.5343,绵阳市,安州区旅游局,细颗粒物(PM2.5),92,98,104,68,67,30,,10,10,28,30,12,11,1.0,1.1
2026-02-05T1200,4146A,104.7092,31.4972,绵阳市,科技城新区公安局,细颗粒物(PM2.5),103,126,107,77,64,44,,10,10,37,49,5,6,1.1,1
2026-02-05T1200,4226A,104.765114,31.453094,绵阳市,绵阳市气象局,细颗粒物(PM2.5),108,102,98,81,69,35,,9,9,22,32,9,9,1.0,1
2026-02-05T1200,1784A,129.61,44.561,牡丹江市,环保大楼,,40,36,68,28,49,69,,70,68,20,28,8,7,0.4,0.6
2026-02-05T1200,1787A,129.6364,44.6075,牡丹江市,机车工厂,颗粒物(PM10),54,58,70,28,48,63,,60,60,18,28,10,11,0.5,0.7
2026-02-05T1200,1788A,129.6386,44.5462,牡丹江市,第一中学,,42,38,60,29,52,62,,61,60,19,31,12,8,0.5,0.6
2026-02-05T1200,4287A,129.5992,44.5964,牡丹江市,东晓云街98号,,,42,66,14,47,71,,68,68,13,25,7,10,,0.4
2026-02-05T1200,2531A,105.0703,29.61,内江市,市监测站,细颗粒物(PM2.5),117,,81,88,69,66,,31,31,23,29,7,6,1.0,1.1
2026-02-05T1200,2533A,105.0657,29.5807,内江市,内江二中,细颗粒物(PM2.5),112,91,84,84,66,50,,17,17,34,37,8,7,0.9,0.8
2026-02-05T1200,2534A,105.0407,29.5828,内江市,内江日报社,细颗粒物(PM2.5),105,82,74,79,66,52,,16,16,33,37,7,7,0.7,0.8
2026-02-05T1200,4147A,105.0433,29.6105,内江市,玉峰路西段888号,细颗粒物(PM2.5),102,87,77,76,66,59,,23,22,27,32,6,5,0.7,0.7
2026-02-05T1200,2628A,92.0653,31.4846,那曲市,那曲监测站,颗粒物(PM10),53,56,31,19,21,74,,70,67,2,2,5,6,0.7,0.8
2026-02-05T1200,4243A,92.0515,31.4787,那曲市,那曲市委宣传部,,41,41,23,21,12,82,,79,74,4,5,5,5,0.4,0.5
2026-02-05T1200,1291A,115.8887,28.7006,南昌市,省林业公司,细颗粒物(PM2.5),67,61,75,48,54,47,,30,30,35,47,5,6,0.7,0.7
2026-02-05T1200,1292A,115.813,28.7443,南昌市,林科所,,,85,75,55,49,,,30,14,50,39,10,10,0.3,0.5
2026-02-05T1200,1294A,115.8518,28.687,南昌市,建工学校,细颗粒物(PM2.5),73,87,89,53,49,29,,29,28,45,41,10,11,0.9,0.8
2026-02-05T1200,1295A,115.8926,28.6425,南昌市,象湖,细颗粒物(PM2.5),74,71,78,54,56,46,,34,34,33,35,9,10,0.9,0.9
2026-02-05T1200,3046A,115.9084,28.6062,南昌市,机电学校,颗粒物(PM10),71,91,91,50,52,43,,33,33,45,46,7,8,0.7,0.7
2026-02-05T1200,3690A,115.9718,28.7032,南昌市,外国语学校,细颗粒物(PM2.5),69,75,85,50,55,44,,31,31,35,42,14,15,0.8,0.9
2026-02-05T1200,4106A,115.7923,28.6873,南昌市,工业二路,细颗粒物(PM2.5),84,105,91,62,53,26,,29,17,54,44,5,6,0.8,0.8
2026-02-05T1200,4192A,115.931587,28.686774,南昌市,南京东路235号,细颗粒物(PM2.5),68,83,90,49,57,57,,34,34,23,38,9,11,0.5,0.6
2026-02-05T1200,1906A,106.0791,30.8022,南充市,南充市委,细颗粒物(PM2.5),113,114,89,85,66,10,,5,5,27,29,4,5,1.0,0.8
2026-02-05T1200,1907A,106.1038,30.8215,南充市,南充炼油厂,细颗粒物(PM2.5),112,121,99,84,66,14,,4,4,22,28,7,7,0.9,0.8
2026-02-05T1200,4227A,106.108336,30.788436,南充市,梨树横街98号,细颗粒物(PM2.5),127,123,96,96,71,13,,6,6,32,32,6,7,1.0,0.8
2026-02-05T1200,4304A,106.1172,30.843,南充市,清泉寺北路188号,细颗粒物(PM2.5),119,96,82,90,66,17,,16,10,16,19,3,4,0.8,0.7
2026-02-05T1200,4305A,106.067,30.7616,南充市,同庆路1号,细颗粒物(PM2.5),108,105,83,81,65,14,,4,4,31,40,6,7,0.9,0.9
2026-02-05T1200,1151A,118.8033,32.1085,南京市,迈皋桥,细颗粒物(PM2.5),73,77,72,53,47,59,,15,15,77,61,16,8,0.6,0.5
2026-02-05T1200,1152A,118.7487,32.057,南京市,草场门,细颗粒物(PM2.5),85,112,75,63,46,37,,18,18,78,79,6,5,2.3,1.2
2026-02-05T1200,1154A,118.770105,32.004342,南京市,中华门,细颗粒物(PM2.5),79,102,76,58,43,56,,14,14,56,57,9,4,1.4,1
2026-02-05T1200,1155A,118.8059,32.0329,南京市,瑞金路,细颗粒物(PM2.5),98,100,81,73,52,44,,17,17,69,57,4,4,0.4,0.6
2026-02-05T1200,1156A,118.7946,32.0774,南京市,玄武湖,细颗粒物(PM2.5),87,94,71,64,44,42,,9,9,82,64,12,5,1.1,1
2026-02-05T1200,1157A,118.6415,32.0964,南京市,浦口,颗粒物(PM10),62,74,70,42,40,94,,53,53,23,33,7,5,0.4,0.4
2026-02-05T1200,1158A,118.730129,32.000956,南京市,奥体中心,细颗粒物(PM2.5),69,82,82,50,49,69,,17,17,44,66,12,8,0.8,1
2026-02-05T1200,1159A,118.9072,32.1047,南京市,仙林大学城,细颗粒物(PM2.5),79,92,79,58,44,52,,10,10,67,63,13,8,0.8,0.9
2026-02-05T1200,3422A,118.8443,31.919,南京市,江宁彩虹桥,颗粒物(PM10),74,97,82,46,43,69,,14,14,71,72,6,5,1.4,1.2
2026-02-05T1200,3427A,118.8497,32.3599,南京市,六合雄州,,,128,101,65,55,,,8,8,50,57,13,11,0.9,0.9
2026-02-05T1200,4086A,118.7641,32.0841,南京市,新模范马路66号,,,,87,,47,65,,14,14,80,72,,4,1.1,1.2
2026-02-05T1200,4249A,118.8707617,31.34017673,南京市,汶溪路181号,细颗粒物(PM2.5),94,86,84,70,50,44,,39,34,31,38,10,9,1.1,1
2026-02-05T1200,4312A,119.019,31.6512,南京市,中山西路1号,,,,67,,45,,,27,22,38,34,,4,1.3,1.1
2026-02-05T1200,1401A,108.3098,22.788,南宁市,二十一中,细颗粒物(PM2.5),64,51,44,46,39,33,,44,39,31,23,4,4,0.6,0.6
2026-02-05T1200,1402A,108.3135,22.8529,南宁市,北湖,,,60,55,53,48,38,,29,25,31,35,3,8,,0.8
2026-02-05T1200,1403A,108.3205,22.8222,南宁市,市监测站,细颗粒物(PM2.5),62,58,44,44,39,43,,43,33,28,27,7,6,0.9,0.9
2026-02-05T1200,1404A,108.3828,22.8038,南宁市,大自然花园,细颗粒物(PM2.5),52,50,56,36,37,52,,66,60,24,15,6,5,0.7,0.7
2026-02-05T1200,1406A,108.2397,22.8462,南宁市,区农职院,颗粒物(PM10),55,59,60,38,41,32,,27,,38,40,4,4,1.3,1.2
2026-02-05T1200,1407A,108.3285,22.7356,南宁市,英华嘉园,颗粒物(PM10),56,61,49,39,36,42,,42,38,31,29,5,5,0.6,0.6
2026-02-05T1200,3401A,108.4829,22.762,南宁市,红星社区,细颗粒物(PM2.5),52,46,52,36,41,48,,51,41,24,20,4,4,0.9,1
2026-02-05T1200,4132A,108.2927,23.1477,南宁市,起凤路9号,细颗粒物(PM2.5),54,48,53,38,41,76,,54,54,10,20,3,2,0.6,0.6
2026-02-05T1200,4221A,108.2177,22.7774,南宁市,乐贤路16号,颗粒物(PM10),51,52,46,34,33,56,,35,35,18,33,3,3,0.9,0.9
2026-02-05T1200,2332A,118.1682,26.6371,南平市,南平市监测站,,,37,53,26,36,88,,27,27,12,28,,5,0.6,1
2026-02-05T1200,2334A,118.1757,26.6276,南平市,南平七中,颗粒物(PM10),53,56,52,22,32,87,,27,27,13,27,4,4,0.5,0.8
2026-02-05T1200,1168A,120.9056,31.9669,南通市,狼山街道,细颗粒物(PM2.5),108,120,98,81,64,32,,8,8,81,74,14,6,1.2,0.9
2026-02-05T1200,1170A,120.8635,32.0231,南通市,城中,细颗粒物(PM2.5),123,141,119,93,74,19,,6,6,88,86,12,9,1.3,1.2
2026-02-05T1200,1171A,120.9376,31.9301,南通市,星湖花园,细颗粒物(PM2.5),105,110,101,79,62,42,,15,15,76,85,22,9,1.7,1
2026-02-05T1200,1172A,120.8053,32.046,南通市,紫琅学院,细颗粒物(PM2.5),134,162,124,102,74,12,,3,3,104,89,13,9,1.3,1.2
2026-02-05T1200,3291A,121.0631,32.0644,南通市,通州监测站,细颗粒物(PM2.5),128,129,109,97,71,28,,8,8,90,86,11,7,1.2,1.2
2026-02-05T1200,3432A,120.9348,31.9874,南通市,环境教育馆,细颗粒物(PM2.5),130,141,103,99,64,16,,4,4,104,85,14,9,1.4,1.2
2026-02-05T1200,4091A,120.8692,31.9885,南通市,洪江路,细颗粒物(PM2.5),122,109,99,92,71,21,,6,6,92,95,13,9,1.3,1.1
2026-02-05T1200,2404A,112.5338,33.0086,南阳市,瓦房庄,细颗粒物(PM2.5),139,165,156,106,110,62,,22,22,27,34,5,5,1.1,1.2
2026-02-05T1200,2405A,112.5002,32.9734,南阳市,汉画馆,细颗粒物(PM2.5),180,189,162,136,127,58,,16,16,44,42,9,7,1.2,1.1
2026-02-05T1200,2406A,112.5778,33.0144,南阳市,气象站,颗粒物(PM10),115,179,180,85,98,57,,18,18,24,37,6,7,1.0,1.1
2026-02-05T1200,2407A,112.548,32.9687,南阳市,理工学院,细颗粒物(PM2.5),135,171,160,103,112,54,,19,19,41,40,6,6,1.1,1
2026-02-05T1200,4008A,112.5233,32.9921,南阳市,卧龙区政府,细颗粒物(PM2.5),144,185,187,110,121,62,,20,20,34,40,7,6,1.1,1.1
2026-02-05T1200,1234A,121.8352,29.9111,宁波市,区环保大楼,颗粒物(PM10),84,117,77,47,24,30,,6,6,73,85,16,9,0.6,0.6
2026-02-05T1200,1235A,121.5595,29.8208,宁波市,万里学院,,,86,51,58,29,,,16,11,53,50,7,5,1.1,0.9
2026-02-05T1200,1236A,121.713,29.9564,宁波市,龙赛医院,颗粒物(PM10),77,104,74,54,32,37,,9,9,58,80,7,5,0.7,0.7
2026-02-05T1200,1240A,121.5855,29.8635,宁波市,太古小学,细颗粒物(PM2.5),85,105,62,63,31,49,,27,12,56,51,5,4,0.8,0.6
2026-02-05T1200,1241A,121.5239,29.8673,宁波市,市环境监测中心,细颗粒物(PM2.5),75,86,67,55,39,45,,11,11,49,57,4,4,0.7,0.6
2026-02-05T1200,2871A,121.6156,29.9015,宁波市,万里国际学校,细颗粒物(PM2.5),90,88,66,67,42,44,,15,10,61,69,7,5,0.7,0.6
2026-02-05T1200,3710A,121.5593,29.8976,宁波市,白沙活动中心,细颗粒物(PM2.5),87,82,62,64,46,44,,10,10,58,64,5,5,0.5,0.5
2026-02-05T1200,4095A,121.8962,29.7529,宁波市,中科路88号,细颗粒物(PM2.5),58,63,36,41,19,71,,21,21,34,37,8,6,0.6,0.4
2026-02-05T1200,2341A,119.5387,26.6611,宁德市,宁德市监测站,颗粒物(PM10),55,60,42,23,22,77,,35,35,19,33,6,4,0.8,0.9
2026-02-05T1200,3209A,119.5231,26.6562,宁德市,宁德一中,,45,45,37,28,24,80,,32,32,19,23,7,4,0.6,0.7
2026-02-05T1200,2618A,98.859,25.8541,怒江傈僳族自治州,州监测站,,,34,37,22,21,62,,47,47,8,16,6,5,,0.2
2026-02-05T1200,2619A,98.8607,25.8168,怒江傈僳族自治州,泸水一中,,43,43,32,12,22,55,,33,33,12,24,4,4,0.6,0.7
2026-02-05T1200,1888A,101.6891,26.571,攀枝花市,弄弄坪,,40,40,66,28,30,61,,18,18,30,34,28,50,2.1,1.9
2026-02-05T1200,1889A,101.577,26.5914,攀枝花市,河门口,,,,47,,19,50,,22,22,29,24,22,18,,1
2026-02-05T1200,1891A,101.7365,26.4986,攀枝花市,仁和,,26,26,30,18,17,69,,38,38,15,18,8,8,0.6,0.6
2026-02-05T1200,2835A,101.7222,26.567,攀枝花市,四十中小,,46,46,42,18,19,54,,33,21,36,35,17,20,1.0,1.2
2026-02-05T1200,1604A,122.0303,41.1489,盘锦市,开发区,颗粒物(PM10),259,391,162,15,76,77,,64,64,8,21,3,6,0.1,0.6
2026-02-05T1200,1605A,122.0486,41.0883,盘锦市,兴隆台,颗粒物(PM10),312,429,154,15,77,77,,65,65,10,31,2,6,0.3,0.7
2026-02-05T1200,1606A,121.8297,41.1026,盘锦市,新生街道,颗粒物(PM10),104,158,143,8,78,74,,56,56,8,35,5,7,0.0,0.5
2026-02-05T1200,1832A,113.3257,33.7423,平顶山市,新华旅馆,颗粒物(PM10),75,99,128,53,83,82,,55,55,20,31,10,7,0.5,0.6
2026-02-05T1200,1833A,113.2917,33.737,平顶山市,规划设计院,颗粒物(PM10),83,115,146,52,84,72,,36,36,15,30,11,7,0.6,0.8
2026-02-05T1200,1834A,113.182,33.7738,平顶山市,平顶山工学院,颗粒物(PM10),76,101,117,48,80,70,,60,52,18,20,12,8,0.6,0.7
2026-02-05T1200,3594A,112.8736,33.9068,平顶山市,石龙区,颗粒物(PM10),80,109,122,20,56,96,,47,47,5,35,7,6,0.6,0.8
2026-02-05T1200,4116A,113.284,33.7139,平顶山市,姚电大道23号,,,111,147,48,89,,,40,35,27,34,13,9,0.7,0.8
2026-02-05T1200,2656A,106.6633,35.5338,平凉市,聚贤嘉苑,,47,47,53,22,25,71,,47,47,16,18,10,10,0.5,0.5
2026-02-05T1200,2657A,106.7021,35.5307,平凉市,博物馆,,,,63,,41,65,,45,45,,30,9,12,,0.7
2026-02-05T1200,2348A,113.8384,27.6436,萍乡市,中医院,细颗粒物(PM2.5),99,124,113,74,67,53,,18,18,30,39,16,13,1.0,1.3
2026-02-05T1200,2350A,113.8677,27.6438,萍乡市,市环保局,细颗粒物(PM2.5),92,116,108,68,71,58,,18,18,33,36,13,14,0.5,0.8
2026-02-05T1200,2351A,113.8663,27.6202,萍乡市,安源区政府,细颗粒物(PM2.5),94,126,119,70,73,33,,11,11,31,40,19,13,0.9,1.1
2026-02-05T1200,4107A,113.8686,27.6668,萍乡市,联洪村委会,细颗粒物(PM2.5),97,111,104,72,67,49,,19,19,23,33,13,10,0.5,0.7
2026-02-05T1200,2319A,119.0142,25.4324,莆田市,荔城区仓后路,细颗粒物(PM2.5),83,93,60,61,32,124,,46,46,39,30,/,/,/,/
2026-02-05T1200,2320A,119.0016,25.4553,莆田市,莆田市监测站,细颗粒物(PM2.5),95,87,46,71,27,119,,55,55,36,19,7,4,0.7,0.5
2026-02-05T1200,2321A,119.112,25.4561,莆田市,涵江区六中,细颗粒物(PM2.5),82,82,45,60,25,132,,43,43,27,28,/,/,0.8,0.6
2026-02-05T1200,2322A,119.1014,25.3215,莆田市,秀屿区政府,颗粒物(PM10),61,71,51,34,32,131,,68,68,17,17,15,5,0.7,0.7
2026-02-05T1200,2392A,115.0312,35.7636,濮阳市,环保局,细颗粒物(PM2.5),152,155,135,116,106,64,,30,30,51,43,16,11,1.4,1.3
2026-02-05T1200,3021A,115,35.7667,濮阳市,濮水河管理处,细颗粒物(PM2.5),150,183,161,115,111,63,,34,29,42,39,16,11,1.2,1.1
2026-02-05T1200,4118A,115.0552,35.7816,濮阳市,中原东路68号,细颗粒物(PM2.5),148,207,173,113,109,61,,28,26,53,44,16,11,1.4,1.2
2026-02-05T1200,4216A,115.0923632,35.76857718,濮阳市,任丘路479号,细颗粒物(PM2.5),159,195,169,121,116,70,,28,28,51,54,18,12,1.4,1.3
2026-02-05T1200,2601A,100.9801,22.7634,普洱市,市环保局,颗粒物(PM10),56,62,59,24,28,83,,39,39,13,10,5,5,0.5,0.6
2026-02-05T1200,2602A,100.9763,22.8237,普洱市,普洱第二中学,颗粒物(PM10),53,56,57,29,31,82,,27,27,10,23,5,5,0.5,0.6
2026-02-05T1200,3345A,131.0413,45.7795,七台河市,中波台,,,,26,,16,71,,63,63,1,6,7,7,,0.5
2026-02-05T1200,3637A,131.0136,45.7688,七台河市,人民广场,,29,29,36,10,19,67,,64,64,12,17,8,9,0.4,0.5
2026-02-05T1200,3684A,130.8639,45.8144,七台河市,新建矿广场,,22,22,57,7,31,66,,57,57,11,22,6,8,0.2,0.3
2026-02-05T1200,1779A,123.9307,47.3641,齐齐哈尔市,安居小区,颗粒物(PM10),60,70,34,9,11,71,,72,71,5,12,8,10,0.3,0.3
2026-02-05T1200,1780A,123.9497,47.3389,齐齐哈尔市,中心广场,,,49,25,3,9,,,72,70,5,11,,6,0.4,0.5
2026-02-05T1200,1781A,123.9483,47.3229,齐齐哈尔市,农牧车辆厂,颗粒物(PM10),65,80,36,11,9,68,,70,68,6,10,4,5,0.2,0.3
2026-02-05T1200,1783A,123.9442,47.2994,齐齐哈尔市,市环境监测站,颗粒物(PM10),89,128,42,3,7,72,,74,72,5,11,3,4,0.4,0.4
2026-02-05T1200,3662A,123.6341,47.2079,齐齐哈尔市,富区青少年活动中心,颗粒物(PM10),94,138,55,9,9,74,,74,72,5,9,4,4,0.4,0.4
2026-02-05T1200,2591A,107.9765,26.5724,黔东南苗族侗族自治州,市环境监测站,,33,28,59,23,44,32,,34,24,18,20,2,4,0.9,1
2026-02-05T1200,2881A,107.8909,26.531,黔东南苗族侗族自治州,凯里学院,,,,53,,40,33,,39,35,14,16,2,3,,0.9
2026-02-05T1200,2593A,107.5223,26.2371,黔南布依族苗族自治州,小围寨,,,,36,35,34,24,,14,14,,14,,7,1.0,1.1
2026-02-05T1200,3538A,107.5175,26.2977,黔南布依族苗族自治州,沙坝,细颗粒物(PM2.5),53,51,38,37,32,20,,15,15,18,13,11,5,1.1,1
2026-02-05T1200,2589A,104.9022,25.0943,黔西南布依族苗族自治州,场坝街,细颗粒物(PM2.5),63,45,56,45,46,46,,37,36,10,14,4,3,0.8,1
2026-02-05T1200,2590A,104.8812,25.0994,黔西南布依族苗族自治州,坪东大道,,,64,55,40,45,49,,36,33,,13,,5,1.0,1
2026-02-05T1200,2502A,108.6238,21.9667,钦州市,市环保站,颗粒物(PM10),58,66,56,30,35,60,,58,49,18,22,4,3,0.5,0.6
2026-02-05T1200,2503A,108.655,21.9481,钦州市,沙埠小学,颗粒物(PM10),62,73,60,22,32,69,,41,41,11,22,4,4,0.4,0.4
2026-02-05T1200,2504A,108.5989,21.7435,钦州市,港区一小,,,,71,23,28,73,,57,55,,23,,2,,0.8
2026-02-05T1200,3404A,108.5959,21.9634,钦州市,北职校,颗粒物(PM10),55,60,45,30,27,59,,48,43,16,22,4,2,0.6,0.7
2026-02-05T1200,1046A,119.5247,39.9346,秦皇岛市,建设大厦,颗粒物(PM10),105,159,111,14,62,79,,35,35,7,47,5,11,0.2,0.8
2026-02-05T1200,3132A,119.5979,39.938,秦皇岛市,文明里,颗粒物(PM10),84,118,115,3,62,75,,32,32,11,53,9,14,0.3,0.8
2026-02-05T1200,4066A,119.7458,39.9952,秦皇岛市,南园路157号,颗粒物(PM10),87,123,107,9,61,77,,37,37,11,57,7,12,0.3,0.8
2026-02-05T1200,4067A,119.5131,39.8858,秦皇岛市,翠岛大街1号,颗粒物(PM10),64,78,91,10,62,74,,36,36,11,45,9,12,0.3,0.7
2026-02-05T1200,4198A,119.509013,39.825305,秦皇岛市,北戴河轮滑馆,,,,111,10,65,79,,41,41,12,53,6,8,,0.8
2026-02-05T1200,1310A,120.404,36.0625,青岛市,市南区东部子站,细颗粒物(PM2.5),172,168,134,130,107,94,,49,49,44,38,18,12,1.1,0.8
2026-02-05T1200,1311A,120.362344,36.10282,青岛市,四方区子站,细颗粒物(PM2.5),241,,42,191,121,71,,29,29,70,48,18,8,1.4,1.1
2026-02-05T1200,1312A,120.294373,36.054183,青岛市,市南区西部子站,细颗粒物(PM2.5),250,219,132,200,118,61,,29,22,79,53,13,6,1.6,1.1
2026-02-05T1200,1313A,120.4581,36.0858,青岛市,崂山区子站,细颗粒物(PM2.5),163,168,128,124,99,88,,65,65,57,37,17,12,1.2,0.9
2026-02-05T1200,1315A,120.3945,36.3083,青岛市,城阳区子站,细颗粒物(PM2.5),234,234,142,184,114,87,,36,35,73,57,23,11,1.5,1.2
2026-02-05T1200,3642A,120.3454,36.0735,青岛市,市北区南部,细颗粒物(PM2.5),248,216,134,198,115,67,,34,21,75,46,17,7,1.6,1.1
2026-02-05T1200,3643A,120.3897,36.18,青岛市,李沧区北部,细颗粒物(PM2.5),230,222,136,180,113,58,,48,32,93,57,18,12,1.5,1.1
2026-02-05T1200,4110A,120.5222,36.4089,青岛市,盟旺路653号,细颗粒物(PM2.5),178,218,147,134,105,104,,48,39,33,43,13,8,1.4,1.3
2026-02-05T1200,4290A,120.196923,35.954556,青岛市,珠江路669号,细颗粒物(PM2.5),170,210,134,129,106,62,,24,16,85,58,18,8,1.1,0.9
2026-02-05T1200,4291A,120.0424,35.8656,青岛市,黄岛区人民政府广场,细颗粒物(PM2.5),155,151,137,118,107,117,,34,34,31,57,18,11,1.0,1.1
2026-02-05T1200,1703A,113.0218,23.7086,清远市,凤城街办,细颗粒物(PM2.5),85,80,94,63,67,92,,36,36,33,55,/,/,/,/
2026-02-05T1200,3025A,113.0479,23.6343,清远市,技师学院,"颗粒物(PM10),细颗粒物(PM2.5)",67,84,101,48,55,94,,30,30,30,63,7,6,0.5,0.7
2026-02-05T1200,3318A,112.9898,23.7403,清远市,清新太和,细颗粒物(PM2.5),80,93,83,59,52,106,,50,50,32,42,12,11,0.8,0.8
2026-02-05T1200,3455A,113.076,23.72,清远市,清城东城,颗粒物(PM10),61,71,91,41,52,98,,37,37,29,47,/,/,/,/
2026-02-05T1200,2661A,107.6325,35.7357,庆阳市,庆阳五中,颗粒物(PM10),70,90,82,39,41,74,,68,57,21,25,10,9,0.8,0.8
2026-02-05T1200,2662A,107.6361,35.7067,庆阳市,市环保局,,,82,79,43,41,58,,78,60,,18,,9,0.5,0.9
2026-02-05T1200,1916A,103.7897,25.5036,曲靖市,环境监测站,,31,27,34,13,20,97,,77,77,8,11,6,6,0.3,0.4
2026-02-05T1200,1917A,103.8013,25.5357,曲靖市,烟厂办公区,,31,31,35,15,18,89,,75,75,6,10,4,4,0.3,0.4
2026-02-05T1200,3376A,103.7926,25.4651,曲靖市,南苑二区,,27,27,33,12,20,82,,74,71,10,10,3,4,0.3,0.3
2026-02-05T1200,3377A,103.7442,25.5259,曲靖市,曲靖师范学院,,39,39,40,12,24,89,,69,69,6,12,6,5,0.3,0.3
2026-02-05T1200,1264A,118.8694,28.94,衢州市,环保大楼,细颗粒物(PM2.5),103,125,88,77,58,63,,16,16,40,55,/,/,/,/
2026-02-05T1200,1266A,118.8622,28.9809,衢州市,衢州学院,细颗粒物(PM2.5),104,113,80,78,52,47,,12,12,51,54,6,6,0.6,0.6
2026-02-05T1200,4097A,118.9646,28.9832,衢州市,衢州三中,细颗粒物(PM2.5),109,119,96,82,63,50,,11,11,48,56,7,6,0.9,0.9
2026-02-05T1200,1611A,118.5818,24.9116,泉州市,涂山街,细颗粒物(PM2.5),74,84,52,54,29,121,,43,43,46,34,6,3,0.8,0.6
2026-02-05T1200,1612A,118.597,24.8976,泉州市,津头埔,细颗粒物(PM2.5),77,89,56,56,31,120,,42,42,40,30,6,3,0.7,0.6
2026-02-05T1200,1613A,118.6669,24.9422,泉州市,万安,颗粒物(PM10),58,65,58,39,29,82,,24,24,32,40,4,3,0.6,0.5
2026-02-05T1200,4105A,118.6355,24.9148,泉州市,霞新路6号,细颗粒物(PM2.5),69,79,47,50,28,90,,27,27,43,40,/,/,0.7,0.6
2026-02-05T1200,2626A,88.8873,29.2723,日喀则市,日喀则监测站,,,,17,14,8,,,97,92,2,3,5,7,0.3,0.3
2026-02-05T1200,3726A,88.8775,29.2425,日喀则市,林业技术推广中心,,28,,18,12,5,89,,90,89,2,3,3,3,0.2,0.3
2026-02-05T1200,1659A,119.4711,35.421,日照市,监测站,细颗粒物(PM2.5),183,163,150,138,119,110,,24,24,31,72,16,15,1.1,1.5
2026-02-05T1200,1660A,119.523,35.4216,日照市,市政府广场,细颗粒物(PM2.5),186,161,153,140,115,90,,21,21,45,75,16,13,0.9,1.1
2026-02-05T1200,1661A,119.5511,35.4113,日照市,港务局,细颗粒物(PM2.5),200,195,157,150,113,,,7,7,50,77,14,11,1.3,1.3
2026-02-05T1200,3507A,119.5326,35.4627,日照市,职业技术学院,细颗粒物(PM2.5),159,149,142,121,110,,,27,27,36,64,,11,1.3,1.4
2026-02-05T1200,3604A,119.3267,35.1043,日照市,岚山环保分局,细颗粒物(PM2.5),195,180,168,146,112,108,,32,32,41,62,25,26,1.4,1.7
2026-02-05T1200,1835A,111.1922,34.7752,三门峡市,市政府,细颗粒物(PM2.5),118,136,116,89,80,47,,14,14,50,60,32,16,1.3,1
2026-02-05T1200,1836A,111.1588,34.794,三门峡市,开发区,细颗粒物(PM2.5),105,146,139,79,88,32,,19,19,48,47,11,10,1.1,0.9
2026-02-05T1200,3039A,111.1911,34.7829,三门峡市,三门峡市第一小学,细颗粒物(PM2.5),112,149,129,84,83,35,,16,16,64,64,28,18,1.4,1.1
2026-02-05T1200,3598A,111.1031,34.719,三门峡市,富达温泉假日酒店,细颗粒物(PM2.5),130,167,158,99,104,27,,16,16,64,54,35,19,1.2,1.3
2026-02-05T1200,2324A,117.621,26.2626,三明市,三钢,,40,40,47,26,71,96,,30,30,12,34,11,7,0.7,1.1
2026-02-05T1200,2325A,117.6352,26.2714,三明市,三明二中,颗粒物(PM10),56,61,41,19,28,96,,31,31,16,30,10,5,0.6,1.2
2026-02-05T1200,2326A,117.6028,26.2377,三明市,三元区政府,,45,45,44,19,30,97,,30,30,12,33,12,8,0.7,1.1
2026-02-05T1200,1877A,109.4962,18.2682,三亚市,河西子站,,25,25,32,6,14,76,,65,65,19,13,1,2,0.4,0.4
2026-02-05T1200,3540A,109.7348,18.3443,三亚市,君悦子站,,34,34,35,12,17,90,,46,46,6,9,3,3,0.4,0.5
2026-02-05T1200,4135A,109.1714,18.3739,三亚市,城东小学站,,29,25,33,10,16,92,,50,50,8,10,/,/,/,/
2026-02-05T1200,2624A,91.7592,29.234,山南市,山南监测站,,26,18,11,3,4,83,,80,76,1,2,5,5,0.4,0.4
2026-02-05T1200,2625A,91.7701,29.2436,山南市,山南人民医院,,36,36,19,3,5,83,,80,72,2,4,6,5,0.5,0.4
2026-02-05T1200,1674A,116.6795,23.3666,汕头市,金平子站,颗粒物(PM10),72,94,52,51,33,120,,56,56,43,30,11,6,1.0,0.7
2026-02-05T1200,1675A,116.7248,23.3632,汕头市,龙湖子站,细颗粒物(PM2.5),82,84,54,60,40,99,,58,58,39,25,13,11,/,/
2026-02-05T1200,1676A,116.7257,23.2774,汕头市,濠江子站,"颗粒物(PM10),细颗粒物(PM2.5)",68,86,51,49,32,106,,61,60,41,28,12,9,/,/
2026-02-05T1200,1677A,116.7518,23.4712,汕头市,澄海子站,细颗粒物(PM2.5),79,100,60,58,38,107,,58,58,37,22,9,8,1.0,0.7
2026-02-05T1200,1678A,116.6088,23.2539,汕头市,潮阳子站,细颗粒物(PM2.5),73,70,47,53,37,120,,65,65,29,19,15,8,1.3,0.8
2026-02-05T1200,3444A,116.4539,23.2684,汕头市,潮南峡山,细颗粒物(PM2.5),63,71,58,45,36,132,,62,62,23,20,8,7,1.1,0.8
2026-02-05T1200,3624A,116.4069,23.2533,汕头市,潮南子站,"颗粒物(PM10),细颗粒物(PM2.5)",68,85,72,49,40,113,,48,48,24,22,9,7,/,/
2026-02-05T1200,1693A,115.3653,22.7751,汕尾市,市环保局,,35,35,41,22,26,110,,80,80,14,15,5,9,0.8,0.7
2026-02-05T1200,1695A,115.362,22.7926,汕尾市,新城中学,,42,42,44,24,25,113,,78,78,15,16,6,6,0.7,0.6
2026-02-05T1200,2645A,109.9155,33.8714,商洛市,监测站,颗粒物(PM10),58,65,67,33,40,69,,46,46,11,21,4,4,0.8,0.8
2026-02-05T1200,3045A,109.9647,33.8486,商洛市,商州区中学,颗粒物(PM10),61,72,76,35,33,72,,33,33,14,27,5,5,0.6,0.7
2026-02-05T1200,2408A,115.6701,34.4283,商丘市,环境监测站,细颗粒物(PM2.5),195,183,152,146,122,58,,19,12,49,43,2,2,0.7,0.7
2026-02-05T1200,2409A,115.6458,34.4047,商丘市,粮食局,细颗粒物(PM2.5),182,180,149,137,115,49,,31,23,53,39,,2,1.0,0.9
2026-02-05T1200,3171A,115.6069,34.4465,商丘市,梁园区档案局,细颗粒物(PM2.5),152,179,141,116,110,45,,27,20,57,45,3,2,1.1,0.9
2026-02-05T1200,4119A,115.6701,34.3767,商丘市,北海东路185号,细颗粒物(PM2.5),201,217,173,151,115,29,,8,8,53,58,4,3,1.0,0.9
2026-02-05T1200,4120A,115.6172,34.3704,商丘市,中山大街3号,细颗粒物(PM2.5),221,244,199,171,126,23,,7,7,60,61,1,2,0.9,0.8
2026-02-05T1200,1141A,121.401,31.2382,上海市,普陀,细颗粒物(PM2.5),83,82,80,61,55,18,,23,12,109,84,10,7,0.9,0.9
2026-02-05T1200,1142A,121.4774,31.2043,上海市,十五厂,细颗粒物(PM2.5),79,96,80,58,49,32,,10,10,88,90,12,7,1.2,1
2026-02-05T1200,1143A,121.4673,31.3011,上海市,虹口,细颗粒物(PM2.5),94,103,85,70,56,13,,10,10,104,89,10,8,0.6,0.7
2026-02-05T1200,1147A,121.4253,31.226,上海市,静安监测站,细颗粒物(PM2.5),83,85,75,61,51,24,,23,19,103,77,11,8,1.2,1
2026-02-05T1200,1148A,121.7029,31.1905,上海市,浦东川沙,,,100,92,74,62,21,,9,9,,80,11,10,,0.9
2026-02-05T1200,1149A,121.5339,31.229,上海市,浦东新区监测站,细颗粒物(PM2.5),94,85,76,70,57,27,,32,21,100,77,12,7,1.3,1.1
2026-02-05T1200,1150A,121.5776,31.2038,上海市,浦东张江,细颗粒物(PM2.5),83,86,86,61,55,30,,14,14,90,78,10,8,0.6,0.5
2026-02-05T1200,3265A,121.4242,31.3303,上海市,宝山庙行,细颗粒物(PM2.5),99,104,95,74,62,13,,5,5,105,93,10,10,0.8,0.9
2026-02-05T1200,3266A,121.8789,31.4662,上海市,崇明上实东滩,细颗粒物(PM2.5),85,77,64,63,47,46,,16,16,61,66,6,6,0.6,0.6
2026-02-05T1200,3268A,121.316,31.2839,上海市,嘉定南翔,,,101,88,68,55,16,,7,7,,93,7,6,,0.5
2026-02-05T1200,3269A,121.3357,30.7455,上海市,金山新城,细颗粒物(PM2.5),63,47,53,45,46,50,,32,21,51,45,9,13,0.8,0.7
2026-02-05T1200,3270A,121.4996,31.0741,上海市,闵行浦江,细颗粒物(PM2.5),73,72,71,53,54,17,,6,6,87,68,14,9,0.8,0.8
2026-02-05T1200,3271A,121.2886,31.1663,上海市,青浦徐泾,细颗粒物(PM2.5),90,96,84,67,57,17,,4,4,99,90,6,6,0.6,0.7
2026-02-05T1200,3272A,121.2193,31.0382,上海市,松江图书馆,细颗粒物(PM2.5),84,86,77,62,56,10,,18,5,93,74,7,7,0.8,0.8
2026-02-05T1200,3273A,121.3904,31.206,上海市,长宁仙霞,细颗粒物(PM2.5),79,86,78,58,46,19,,20,10,103,74,11,8,1.0,0.9
2026-02-05T1200,3274A,121.7964,31.0507,上海市,浦东惠南,细颗粒物(PM2.5),78,68,68,57,47,24,,8,8,81,72,6,6,0.9,0.7
