timepoint,stationcode,longitude,latitude,area,positionname,primarypollutant,aqi,pm10,pm10_24h,pm2_5,pm2_5_24h,o3,o3_24h,o3_8h,o3_8h_24h,no2,no2_24h,so2,so2_24h,co,co_24h
2026-02-05T1300,2568A,102.2503,31.8896,阿坝藏族羌族自治州,马师校,,23,18,24,16,12,66,,41,41,8,12,4,4,0.5,0.5
2026-02-05T1300,3994A,102.2174,31.9016,阿坝藏族羌族自治州,马尔康中学西区,,,22,28,9,11,69,,47,47,,9,5,7,0.5,0.5
2026-02-05T1300,2695A,80.2899,41.1684,阿克苏地区,电视台,颗粒物(PM10),120,189,230,77,97,61,,33,33,28,49,13,12,1.4,2.1
2026-02-05T1300,2696A,80.2592,41.1541,阿克苏地区,艺术中心,颗粒物(PM10),100,149,205,65,100,56,,34,34,32,57,8,6,0.7,1.3
2026-02-05T1300,2205A,105.699,38.8409,阿拉善盟,蒙二幼,,,56,42,6,11,74,,85,74,8,10,10,10,,0.6
2026-02-05T1300,2206A,105.7198,38.8508,阿拉善盟,环保局新楼,颗粒物(PM10),52,53,33,14,12,66,,88,74,12,7,10,9,0.6,0.5
2026-02-05T1300,2708A,88.1266,47.8515,阿勒泰地区,市站,,,,26,,14,62,,60,50,18,24,5,4,,0.4
2026-02-05T1300,4166A,88.1198,47.7931,阿勒泰地区,阿勒泰路33号,,33,32,28,23,16,77,,77,70,10,10,4,5,0.5,0.5
2026-02-05T1300,2630A,80.1171,32.4999,阿里地区,阿里监测站,,25,,3,7,5,78,,61,58,3,6,8,8,0.3,0.3
2026-02-05T1300,3192A,80.0906,32.5029,阿里地区,阿里藏医院,,25,11,9,3,3,77,,75,66,4,4,17,10,0.4,0.4
2026-02-05T1300,2644A,109.0088,32.6974,安康市,汉滨区检察院,细颗粒物(PM2.5),67,57,79,48,52,58,,18,18,13,31,7,8,0.8,0.8
2026-02-05T1300,4054A,109.0324,32.6913,安康市,市邮政管理局,细颗粒物(PM2.5),64,73,99,46,58,61,,20,20,16,38,5,7,0.8,1
2026-02-05T1300,2291A,117.0806,30.5181,安庆市,环科院,细颗粒物(PM2.5),90,78,79,67,58,19,,9,9,54,46,9,8,0.9,0.8
2026-02-05T1300,2292A,117.0331,30.5118,安庆市,马山宾馆,细颗粒物(PM2.5),87,68,74,64,60,16,,16,16,60,47,7,7,0.9,1.1
2026-02-05T1300,2294A,116.9897,30.6146,安庆市,安庆大学,细颗粒物(PM2.5),73,77,69,53,44,25,,18,18,55,38,5,5,0.8,0.7
2026-02-05T1300,3173A,117.0598,30.5351,安庆市,市人大,细颗粒物(PM2.5),64,73,78,46,44,30,,15,15,48,42,8,8,0.7,0.7
2026-02-05T1300,3123A,105.9408,26.2431,安顺市,凤凰山,,32,32,34,18,25,44,,51,49,13,13,14,15,0.9,0.8
2026-02-05T1300,3124A,105.9443,26.2567,安顺市,金钟山,,38,,25,26,25,39,,49,46,12,10,16,12,0.9,0.8
2026-02-05T1300,3125A,105.8983,26.248,安顺市,娄家坡,,,30,26,21,25,38,,49,47,,10,,13,1.0,0.8
2026-02-05T1300,1819A,114.3552,36.1017,安阳市,红庙街,细颗粒物(PM2.5),110,144,123,83,93,72,,42,42,30,42,6,9,0.9,1.2
2026-02-05T1300,1820A,114.361,36.0681,安阳市,银杏小区,细颗粒物(PM2.5),133,156,128,101,87,72,,42,42,32,41,9,10,0.8,1.1
2026-02-05T1300,3141A,114.3921,36.0879,安阳市,信访局,细颗粒物(PM2.5),103,143,126,77,81,78,,51,51,27,29,10,13,0.9,1.1
2026-02-05T1300,3669A,114.4706,36.0634,安阳市,左辅环卫站,颗粒物(PM10),113,176,158,84,97,77,,35,35,32,50,10,13,0.8,1
2026-02-05T1300,4117A,114.2918,36.0769,安阳市,钢三路198号,颗粒物(PM10),111,172,147,82,88,67,,48,48,28,32,8,10,0.8,1
2026-02-05T1300,1748A,123.0441,41.1201,鞍山市,深沟寺,颗粒物(PM10),93,135,156,8,102,76,,60,60,8,49,5,12,0.4,1.4
2026-02-05T1300,1749A,123.011,41.0931,鞍山市,太阳城,颗粒物(PM10),101,151,162,11,109,71,,57,57,12,49,11,21,0.6,1.5
2026-02-05T1300,1750A,123.0483,41.1445,鞍山市,太平,颗粒物(PM10),114,177,168,11,102,69,,58,58,11,44,7,16,0.3,1.3
2026-02-05T1300,1751A,122.964,41.0968,鞍山市,铁西三道街,颗粒物(PM10),109,167,175,16,116,77,,57,57,9,58,10,25,,1.9
2026-02-05T1300,1753A,123.0219,41.0822,鞍山市,明达新区,颗粒物(PM10),86,121,148,12,106,73,,61,61,11,43,7,13,0.6,1.5
2026-02-05T1300,4201A,122.944647,41.082639,鞍山市,兴盛南路290号,颗粒物(PM10),115,179,175,16,115,76,,61,61,13,54,7,21,0.4,1.6
2026-02-05T1300,2195A,107.4206,40.7609,巴彦淖尔市,附二中,,34,34,88,7,18,70,,68,67,6,8,11,9,0.4,0.4
2026-02-05T1300,2196A,107.37,40.7372,巴彦淖尔市,市环保大楼,,33,33,84,8,18,72,,70,69,8,10,9,6,0.3,0.3
2026-02-05T1300,1956A,86.1476,41.7529,巴音郭楞蒙古自治州,孔雀公园,细颗粒物(PM2.5),83,100,114,61,56,50,,16,16,30,38,11,9,0.8,0.9
2026-02-05T1300,1957A,86.1971,41.7166,巴音郭楞蒙古自治州,棉纺厂,颗粒物(PM10),139,227,213,40,51,58,,31,31,12,24,/,/,/,/
2026-02-05T1300,1958A,86.236,41.7172,巴音郭楞蒙古自治州,经济开发区,颗粒物(PM10),100,149,167,24,32,58,,35,26,16,28,8,6,0.5,0.6
2026-02-05T1300,3181A,106.776805,31.852614,巴中市,市五中,细颗粒物(PM2.5),88,77,100,65,74,8,,3,3,27,27,6,6,1.2,1.3
2026-02-05T1300,3183A,106.7419,31.8654,巴中市,圣泉水务公司,,,78,82,56,62,8,,7,7,,29,6,6,1.3,1.3
2026-02-05T1300,3616A,106.7617,31.8343,巴中市,市中心医院,细颗粒物(PM2.5),90,76,94,67,70,8,,2,2,26,29,5,6,1.3,1.4
2026-02-05T1300,2235A,122.7909,45.608,白城市,洮北区环保局,颗粒物(PM10),68,85,48,10,12,76,,76,76,6,11,9,7,0.2,0.3
2026-02-05T1300,2236A,122.8741,45.5725,白城市,市环保局,颗粒物(PM10),82,114,51,12,12,70,,71,71,3,9,3,5,0.3,0.3
2026-02-05T1300,2231A,126.4219,41.9172,白山市,喜丰,,30,30,91,10,74,79,,81,77,9,20,10,15,0.6,1.1
2026-02-05T1300,2232A,126.4082,41.9416,白山市,环保局,,30,30,89,11,82,82,,84,84,7,22,12,15,0.6,1.4
2026-02-05T1300,2647A,104.1727,36.5448,白银市,第三小学,细颗粒物(PM2.5),102,134,88,76,53,65,,39,39,59,44,118,69,1.5,1.2
2026-02-05T1300,2648A,104.1467,36.5482,白银市,动力公司,细颗粒物(PM2.5),97,138,69,72,40,94,,53,53,49,32,112,33,1.6,0.8
2026-02-05T1300,2512A,106.6102,23.901,百色市,市监测站,,,75,61,60,55,73,,29,29,,17,,10,1.1,0.9
2026-02-05T1300,2513A,106.6524,23.8842,百色市,市中心血站,细颗粒物(PM2.5),108,94,79,81,69,81,,24,24,18,26,20,10,1.1,1
2026-02-05T1300,4133A,106.6273,23.8798,百色市,龙景西路,细颗粒物(PM2.5),95,,85,71,62,85,,24,24,20,23,24,11,0.9,0.8
2026-02-05T1300,2270A,117.396,32.9389,蚌埠市,工人疗养院,细颗粒物(PM2.5),124,125,114,94,72,110,,44,44,28,50,7,6,0.7,0.8
2026-02-05T1300,2271A,117.3606,32.9428,蚌埠市,百货大楼,细颗粒物(PM2.5),112,125,116,84,71,111,,37,37,30,58,8,7,0.6,0.9
2026-02-05T1300,2273A,117.4183,32.8909,蚌埠市,蚌埠学院,细颗粒物(PM2.5),118,105,101,89,68,111,,48,48,28,43,8,6,0.8,0.8
2026-02-05T1300,2274A,117.3534,32.9672,蚌埠市,淮上区政府,细颗粒物(PM2.5),127,107,109,96,75,120,,40,40,21,62,8,7,0.6,0.8
2026-02-05T1300,2275A,117.3143,32.8977,蚌埠市,高新区,细颗粒物(PM2.5),123,107,105,93,78,103,,38,38,27,51,10,8,0.7,0.7
2026-02-05T1300,3715A,117.3091,32.9314,蚌埠市,蚌埠田家炳中学,细颗粒物(PM2.5),120,119,121,91,78,116,,47,47,26,54,8,28,0.6,0.7
2026-02-05T1300,1585A,109.8761,40.6533,包头市,市环境监测站,,25,15,67,3,17,78,,71,71,8,18,6,8,0.4,0.6
2026-02-05T1300,1587A,109.9992,40.5843,包头市,包头八中,,40,40,65,16,21,64,,70,62,16,20,10,7,0.5,0.7
2026-02-05T1300,1589A,109.8641,40.6288,包头市,惠龙物流,,25,20,59,3,17,80,,74,74,8,16,8,10,0.4,0.6
2026-02-05T1300,1590A,110.0376,40.5546,包头市,东河鸿龙湾,,38,38,59,6,14,64,,70,57,14,25,10,10,0.4,0.5
2026-02-05T1300,3283A,109.9154,40.5684,包头市,滨河大厦,,22,11,49,3,16,69,,69,66,15,19,11,9,0.5,0.5
2026-02-05T1300,3419A,109.9449,40.6259,包头市,包头市委党校,,25,21,56,3,17,79,,72,72,9,19,10,10,0.4,0.6
2026-02-05T1300,3683A,109.8332,40.6577,包头市,昆区政府,,25,24,59,10,20,77,,73,73,10,17,6,9,0.4,0.5
2026-02-05T1300,1931A,107.0802,34.3129,宝鸡市,竹园沟,,,80,56,,25,67,,32,32,26,20,16,7,0.7,0.6
2026-02-05T1300,1933A,107.1429,34.3549,宝鸡市,监测站,颗粒物(PM10),74,98,75,53,41,51,,22,22,30,33,9,6,0.6,0.6
2026-02-05T1300,1934A,107.1172,34.3759,宝鸡市,技工学校,颗粒物(PM10),73,95,84,48,45,56,,26,25,20,26,12,8,0.6,0.7
2026-02-05T1300,1936A,107.2025,34.3518,宝鸡市,文理学院,细颗粒物(PM2.5),69,79,80,50,43,54,,24,24,26,33,8,5,0.9,0.9
2026-02-05T1300,1937A,107.2396,34.3626,宝鸡市,三迪小学,细颗粒物(PM2.5),70,78,91,51,48,51,,23,23,34,46,6,5,0.8,0.8
2026-02-05T1300,4155A,107.1721,34.3558,宝鸡市,滨河北路,颗粒物(PM10),71,91,82,50,46,46,,22,22,24,30,9,5,0.6,0.6
2026-02-05T1300,4308A,107.3898,34.3601,宝鸡市,陈仓区北开路21号,,,110,114,69,66,60,,48,48,31,40,37,42,,0.7
2026-02-05T1300,1051A,115.4803,38.8568,保定市,游泳馆,颗粒物(PM10),109,168,139,20,91,75,,42,42,11,52,3,12,0.3,0.8
2026-02-05T1300,1052A,115.509,38.8895,保定市,华电二区,颗粒物(PM10),76,101,122,3,83,66,,28,28,12,52,3,5,0.4,1
2026-02-05T1300,1053A,115.4588,38.9037,保定市,接待中心,颗粒物(PM10),77,104,120,12,78,71,,34,34,5,39,1,6,0.0,0.6
2026-02-05T1300,1054A,115.4484,38.8344,保定市,地表水厂,颗粒物(PM10),110,169,149,12,76,75,,39,39,26,52,2,10,0.1,0.7
2026-02-05T1300,3581A,115.3136,38.9511,保定市,满城区生态环境分局,颗粒物(PM10),125,200,132,11,65,74,,40,39,11,40,3,7,0.1,0.8
2026-02-05T1300,3582A,115.4709,38.7628,保定市,清苑区第二中学,颗粒物(PM10),137,223,167,12,82,75,,38,38,14,45,5,13,0.2,0.8
2026-02-05T1300,3583A,115.6231,39.0223,保定市,徐水物探局,颗粒物(PM10),116,182,188,12,95,78,,34,34,7,51,6,13,0.3,0.9
2026-02-05T1300,4004A,115.4199,38.8665,保定市,双鹰农机,颗粒物(PM10),131,211,157,16,83,77,,44,44,3,52,3,11,,0.8
2026-02-05T1300,4034A,115.515,38.8589,保定市,植保所站,颗粒物(PM10),89,127,135,9,81,75,,34,34,7,56,3,5,0.5,1.1
2026-02-05T1300,2594A,99.1589,25.1137,保山市,市环境监测站,,,37,27,17,17,92,,62,60,9,9,3,4,,0.3
2026-02-05T1300,2595A,99.1616,25.1381,保山市,市环保局,,,39,34,,17,94,,68,63,8,6,4,3,0.5,0.5
2026-02-05T1300,1867A,109.1435,21.4085,北海市,海滩公园,,,46,48,20,20,95,,81,81,,11,3,7,,0.9
2026-02-05T1300,1868A,109.0983,21.466,北海市,新市环保局,,41,41,40,15,19,92,,86,80,11,14,6,6,0.5,0.5
2026-02-05T1300,1869A,109.1775,21.5232,北海市,北海工业园,,33,33,49,17,22,90,,73,72,6,10,5,6,0.5,0.6
2026-02-05T1300,3400A,109.1844,21.4396,北海市,龙潭自来水厂,,30,30,41,21,25,90,,74,74,6,9,5,5,0.4,0.5
2026-02-05T1300,1001A,116.3611,39.8786,北京市,万寿西宫,,38,38,84,8,48,82,,80,80,2,31,2,4,0.3,0.6
2026-02-05T1300,1003A,116.4174,39.9289,北京市,东四,,31,31,81,6,45,61,,59,59,9,32,4,6,0.2,0.5
2026-02-05T1300,1004A,116.4073,39.8858,北京市,天坛,,44,44,79,8,45,73,,70,70,8,30,2,3,0.2,0.5
2026-02-05T1300,1005A,116.4622,39.9364,北京市,农展馆,,26,26,79,6,47,72,,70,70,3,26,1,5,0.2,0.5
2026-02-05T1300,1006A,116.3399,39.9293,北京市,官园,,41,41,82,7,46,68,,64,64,8,31,3,4,0.3,0.5
2026-02-05T1300,1007A,116.2879,39.9613,北京市,海淀万柳,,35,35,76,7,42,61,,60,60,12,40,2,4,0.2,0.5
2026-02-05T1300,1008A,116.6635,40.1349,北京市,顺义新城,,26,10,97,3,59,81,,76,76,5,40,5,6,0.2,0.8
2026-02-05T1300,1009A,116.6275,40.327,北京市,怀柔镇,,24,12,49,3,30,75,,75,75,5,24,4,5,0.4,0.6
2026-02-05T1300,1010A,116.2295,40.217,北京市,昌平镇,,48,48,65,10,30,69,,65,65,7,27,2,3,0.4,0.6
2026-02-05T1300,1011A,116.3968,39.982,北京市,奥体中心,,28,28,79,7,47,73,,68,68,8,38,5,6,0.2,0.5
2026-02-05T1300,3418A,116.8336,40.4095,北京市,密云新城,,25,9,68,3,40,78,,68,68,4,32,3,4,0.2,0.5
2026-02-05T1300,3671A,116.0879,39.9725,北京市,门头沟三家店,,24,18,61,3,32,76,,74,74,2,24,3,4,0.4,0.6
2026-02-05T1300,3672A,116.1507,39.8246,北京市,丰台云岗,,27,23,70,3,39,84,,81,81,8,34,2,4,0.3,0.6
2026-02-05T1300,3674A,115.9578,39.7602,北京市,房山燕山,,25,13,56,3,33,80,,74,74,6,21,3,5,0.2,0.5
2026-02-05T1300,3675A,116.4669,39.7734,北京市,大兴旧宫,,36,36,82,6,50,74,,70,70,9,34,3,4,0.4,0.6
2026-02-05T1300,3694A,115.9859,40.4562,北京市,延庆石河营,,33,33,51,9,22,78,,73,73,2,25,4,4,0.3,0.5
2026-02-05T1300,3695A,116.6151,40.3052,北京市,怀柔新城,,24,12,50,3,31,75,,78,78,1,16,2,3,0.2,0.4
2026-02-05T1300,3696A,116.2542,39.8764,北京市,丰台小屯,,40,40,85,7,45,57,,57,56,10,42,3,4,0.3,0.6
2026-02-05T1300,3697A,116.8399,40.3843,北京市,密云镇,,25,10,71,3,40,80,,63,63,5,41,3,4,0.2,0.6
2026-02-05T1300,4057A,115.9423,40.4431,北京市,延庆百泉,,39,39,52,8,20,75,,69,69,2,13,3,4,0.3,0.4
2026-02-05T1300,4058A,116.6598,39.9164,北京市,通州新华,,23,15,109,3,70,71,,61,61,5,39,2,4,0.4,0.9
2026-02-05T1300,4182A,116.1942,39.9158,北京市,石景山八角,,31,31,76,12,37,65,,63,63,3,38,1,3,0.2,0.4
2026-02-05T1300,4194A,117.078628,40.151726,北京市,平谷新城,,24,10,76,3,47,74,,65,65,6,30,4,4,0.2,0.8
2026-02-05T1300,1761A,123.8274146,41.31234549,本溪市,大峪,颗粒物(PM10),55,60,118,3,72,75,,56,56,7,39,8,10,0.4,0.9
2026-02-05T1300,1763A,123.7169,41.3094,本溪市,彩屯,颗粒物(PM10),55,59,118,3,85,82,,59,59,12,33,6,14,0.5,1.9
2026-02-05T1300,1764A,123.7672166,41.28649327,本溪市,东明,颗粒物(PM10),104,157,100,3,74,77,,56,55,11,28,8,10,0.6,1
2026-02-05T1300,1765A,123.799345,41.266614,本溪市,新立屯,颗粒物(PM10),117,184,104,3,73,77,,58,57,4,26,10,11,0.6,1
2026-02-05T1300,1766A,123.829144,41.336777,本溪市,威宁,颗粒物(PM10),158,266,129,3,71,71,,51,51,,43,6,9,0.4,1.2
2026-02-05T1300,2587A,105.287,27.3133,毕节市,八中,,40,40,27,24,20,55,,57,57,17,11,9,9,0.9,0.9
2026-02-05T1300,2588A,105.3079,27.2987,毕节市,师专,,29,29,23,15,16,59,,66,64,16,12,9,10,0.9,0.8
2026-02-05T1300,4263A,105.3688,27.3598,毕节市,工业大道,,,46,25,19,19,56,,66,62,,12,10,9,/,/
2026-02-05T1300,1629A,117.9961,37.3604,滨州市,第二水厂,细颗粒物(PM2.5),210,188,193,160,140,45,,33,33,33,54,9,16,1.2,1.1
2026-02-05T1300,1630A,117.9789,37.3931,滨州市,北中新校,细颗粒物(PM2.5),206,193,189,156,142,48,,39,38,28,39,7,12,1.3,1.2
2026-02-05T1300,3514A,117.9379,37.3959,滨州市,中海酒店,细颗粒物(PM2.5),212,180,185,162,143,59,,46,46,31,49,11,13,1.3,1.2
2026-02-05T1300,3515A,117.9381509,37.35547456,滨州市,开发区一中,细颗粒物(PM2.5),208,205,206,158,138,44,,29,29,28,59,11,21,1.4,1.2
2026-02-05T1300,3516A,118.0914,37.6938,滨州市,金海六路,细颗粒物(PM2.5),117,176,207,88,164,80,,34,34,17,65,10,13,0.9,1.3
2026-02-05T1300,4028A,117.9955,37.3752,滨州市,滨州市西街道办事处,细颗粒物(PM2.5),195,183,190,146,134,53,,37,37,27,46,10,13,1.1,1
2026-02-05T1300,2311A,115.8071,33.8399,亳州市,污水处理厂,细颗粒物(PM2.5),137,130,135,104,102,102,,31,31,27,48,7,9,0.7,0.9
2026-02-05T1300,2312A,115.7789,33.8519,亳州市,三国揽胜宫,细颗粒物(PM2.5),134,172,149,102,95,94,,36,31,36,46,7,6,0.7,0.8
2026-02-05T1300,3332A,115.7631,33.803,亳州市,亳州学院,细颗粒物(PM2.5),135,143,135,103,94,82,,47,44,32,32,6,5,0.7,0.9
2026-02-05T1300,2693A,82.0482,44.8553,博尔塔拉蒙古自治州,市党校,细颗粒物(PM2.5),107,133,66,80,31,68,,74,71,23,16,2,4,1.3,0.7
2026-02-05T1300,2694A,82.0805,44.8966,博尔塔拉蒙古自治州,市环保局,细颗粒物(PM2.5),137,156,81,104,44,80,,76,76,20,27,5,8,1.3,1
2026-02-05T1300,1071A,116.8733,38.2922,沧州市,沧县城建局,颗粒物(PM10),80,110,173,23,111,74,,42,42,11,54,7,9,0.2,0.8
2026-02-05T1300,1072A,116.8462,38.3189,沧州市,电视转播站,颗粒物(PM10),79,107,162,14,128,73,,34,34,14,47,2,5,0.5,0.9
2026-02-05T1300,1073A,116.8588,38.3161,沧州市,市环保局,颗粒物(PM10),93,136,176,19,104,63,,30,30,13,46,5,9,0.4,0.9
2026-02-05T1300,3324A,116.8011,38.294,沧州市,河北水利电力学院,颗粒物(PM10),92,134,184,12,122,66,,38,38,9,41,3,10,0.2,0.8
2026-02-05T1300,2622A,97.1813,31.1289,昌都市,昌都监测站,,29,,18,20,7,83,,65,64,6,7,3,3,0.3,0.2
2026-02-05T1300,3719A,97.1707,31.1428,昌都市,昌都会议中心,,,9,11,6,7,70,,63,60,,2,4,4,0.3,0.2
2026-02-05T1300,2692A,87.2722,44.0298,昌吉回族自治州,新区政务中心,细颗粒物(PM2.5),97,80,96,72,65,52,,19,19,34,50,10,9,1.2,1.2
2026-02-05T1300,3613A,87.3069,44.0093,昌吉回族自治州,亚心广场,细颗粒物(PM2.5),93,85,113,69,85,35,,45,38,41,41,9,9,1.4,1.2
2026-02-05T1300,4164A,87.2057,43.9289,昌吉回族自治州,财政所,,31,31,68,20,44,65,,56,56,17,16,6,6,1.0,0.7
2026-02-05T1300,1120A,125.2874,43.9024,长春市,客车厂,,50,50,59,6,36,69,,53,53,11,36,6,9,0.3,0.6
2026-02-05T1300,1121A,125.2943,43.8508,长春市,邮电学院,,42,42,53,6,39,72,,53,53,8,26,7,10,0.3,0.5
2026-02-05T1300,1122A,125.3648,43.8745,长春市,劳动公园,,49,49,67,6,40,74,,56,56,9,29,3,6,0.6,0.7
2026-02-05T1300,1123A,125.3233,43.8781,长春市,园林处,,45,45,52,8,42,75,,56,56,6,24,6,10,0.3,0.5
2026-02-05T1300,1124A,125.4604,43.7904,长春市,净月潭,,45,45,53,6,39,76,,57,57,8,22,5,7,0.3,0.6
2026-02-05T1300,1126A,125.38,43.8422,长春市,经开区环卫处,,43,43,54,6,39,72,,52,52,12,28,7,8,0.3,0.5
2026-02-05T1300,1127A,125.234,43.7761,长春市,高新区管委会,,46,46,59,3,35,80,,58,58,5,33,6,10,0.3,0.5
2026-02-05T1300,1128A,125.1695,43.83,长春市,岱山公园,,,67,60,10,40,74,,40,,10,39,,8,0.2,0.4
2026-02-05T1300,4281A,125.334645,43.916281,长春市,北亚泰大街1068号,颗粒物(PM10),53,55,62,11,45,71,,52,52,8,29,6,9,0.3,0.5
2026-02-05T1300,1335A,113.082,28.2421,长沙市,经开区环保局,,,112,105,74,68,6,,2,2,,47,,5,0.9,0.8
2026-02-05T1300,1336A,112.8873,28.2202,长沙市,高开区环保局,,,,116,,85,,,24,,,45,,6,,1.1
2026-02-05T1300,1337A,113.0785,28.2012,长沙市,马坡岭,细颗粒物(PM2.5),107,123,112,80,72,12,,7,7,34,46,7,7,0.9,1
2026-02-05T1300,1338A,112.9448,28.1894,长沙市,湖南师范大学,细颗粒物(PM2.5),99,120,122,74,73,37,,15,15,20,46,6,5,1.0,1.1
2026-02-05T1300,1339A,113.0177,28.1322,长沙市,雨花区环保局,细颗粒物(PM2.5),94,107,104,70,66,14,,3,3,38,57,8,9,1.0,1
2026-02-05T1300,1340A,112.9795,28.2593,长沙市,伍家岭,细颗粒物(PM2.5),105,120,122,79,77,21,,7,7,27,48,6,7,0.8,0.9
2026-02-05T1300,1341A,113.002,28.1944,长沙市,火车新站,细颗粒物(PM2.5),104,119,116,78,74,26,,12,12,32,53,3,4,1.1,1.2
2026-02-05T1300,1342A,112.9846,28.1177,长沙市,天心区环保局,细颗粒物(PM2.5),104,112,111,78,76,26,,10,10,31,53,7,7,0.7,0.8
2026-02-05T1300,1343A,112.8906,28.1307,长沙市,湖南中医药大学,细颗粒物(PM2.5),102,121,118,76,73,30,,13,13,33,50,10,7,1.0,1
2026-02-05T1300,1727A,113.1146,36.1547,长治市,清华站,颗粒物(PM10),76,101,83,55,48,56,,28,25,45,40,38,15,1.2,1
2026-02-05T1300,1730A,113.0887,36.2126,长治市,审计局,,,108,81,,49,72,,22,22,38,42,38,18,1.4,0.9
2026-02-05T1300,1731A,113.0845,36.1856,长治市,长治八中,颗粒物(PM10),84,117,106,59,56,65,,17,17,32,40,34,19,1.3,0.9
2026-02-05T1300,2845A,113.1561,36.1912,长治市,德盛苑,细颗粒物(PM2.5),85,100,65,63,46,67,,63,54,40,23,41,16,1.6,0.9
2026-02-05T1300,3568A,113.0603,36.0464,长治市,向阳小学,颗粒物(PM10),83,116,105,59,50,78,,46,42,38,36,40,20,1.5,1
2026-02-05T1300,3569A,112.8788,36.315,长治市,屯留一中,颗粒物(PM10),66,82,80,46,50,71,,33,33,33,43,31,19,1.1,0.9
2026-02-05T1300,4189A,113.113092,36.199482,长治市,英华南巷50号,颗粒物(PM10),77,103,90,51,52,70,,24,24,34,41,55,18,1.3,0.9
2026-02-05T1300,4190A,113.23666,36.33435,长治市,学府街1号,颗粒物(PM10),78,106,99,48,55,81,,33,33,39,60,40,23,1.3,1.6
2026-02-05T1300,1854A,111.696,28.9725,常德市,市二中,细颗粒物(PM2.5),149,156,131,114,92,26,,11,9,27,28,5,5,1.4,1.3
2026-02-05T1300,3138A,111.7152,29.0288,常德市,武陵区永安,细颗粒物(PM2.5),159,157,133,121,100,24,,14,9,29,30,4,4,1.3,1.3
2026-02-05T1300,3139A,111.6891,28.9881,常德市,鼎城区玉霞,,,,128,,94,30,,10,9,28,31,,7,1.3,1.3
2026-02-05T1300,3140A,111.6651,29.0526,常德市,武陵区长庚,细颗粒物(PM2.5),185,164,125,139,104,23,,16,11,27,26,5,5,1.1,1
2026-02-05T1300,1196A,119.9524,31.7586,常州市,市监测站,细颗粒物(PM2.5),104,115,100,78,67,52,,22,22,60,59,13,9,0.9,0.8
2026-02-05T1300,1200A,119.9351,31.703,常州市,武进监测站,细颗粒物(PM2.5),107,116,89,80,63,45,,29,20,63,47,12,9,1.1,0.6
2026-02-05T1300,3002A,119.9701,31.813,常州市,行政中心,细颗粒物(PM2.5),108,103,101,81,71,58,,32,22,51,53,10,7,1.0,0.9
2026-02-05T1300,3003A,120.0434,31.7726,常州市,经开区,细颗粒物(PM2.5),104,124,107,78,64,42,,35,25,63,45,11,7,1.1,1
2026-02-05T1300,3010A,119.8919,31.7892,常州市,钟楼,细颗粒物(PM2.5),107,114,98,80,65,62,,24,24,50,56,14,9,0.9,0.8
2026-02-05T1300,3429A,119.8595,31.706,常州市,武进经发区,细颗粒物(PM2.5),117,116,92,88,70,60,,23,22,48,51,14,8,1.5,1.1
2026-02-05T1300,3430A,119.5812,31.7256,常州市,金坛城区,细颗粒物(PM2.5),104,95,87,78,68,81,,34,34,29,39,12,9,0.9,0.8
2026-02-05T1300,4089A,119.9551,31.863,常州市,崇义南街5-H号,细颗粒物(PM2.5),112,108,106,84,76,63,,19,19,51,64,11,7,1.4,1.1
2026-02-05T1300,2220A,120.4318,41.588,朝阳市,西梁,颗粒物(PM10),72,94,88,3,34,82,,77,77,8,32,6,13,0.3,0.7
2026-02-05T1300,2221A,120.452,41.565,朝阳市,河畔小区,颗粒物(PM10),73,95,76,3,30,82,,79,79,6,21,7,12,0.3,0.7
2026-02-05T1300,2222A,120.4176,41.5648,朝阳市,八里堡,颗粒物(PM10),69,88,86,6,38,79,,74,74,6,31,8,13,0.3,0.8
2026-02-05T1300,3026A,116.6179,23.6608,潮州市,市政府,颗粒物(PM10),68,86,72,36,43,144,,78,78,11,21,5,6,0.6,0.6
2026-02-05T1300,4036A,116.646,23.676,潮州市,金山,颗粒物(PM10),66,81,60,40,39,148,,75,75,16,19,5,4,0.7,0.6
2026-02-05T1300,2473A,113.0116,25.8228,郴州市,市职中,细颗粒物(PM2.5),85,79,63,63,52,82,,36,32,23,23,20,11,0.8,0.7
2026-02-05T1300,2475A,113.0381,25.8074,郴州市,市审计局,细颗粒物(PM2.5),83,87,65,61,49,73,,26,26,26,32,18,6,/,/
2026-02-05T1300,2476A,113.0348,25.7757,郴州市,市环保局,细颗粒物(PM2.5),98,95,73,73,64,82,,35,35,27,32,23,15,0.6,0.6
2026-02-05T1300,4252A,113.0138,25.8011,郴州市,好美居路49号,颗粒物(PM10),68,85,58,44,44,76,,42,39,32,26,13,8,/,/
2026-02-05T1300,1431A,103.9727,30.7242,成都市,金泉两河,细颗粒物(PM2.5),117,124,120,88,81,74,,20,20,32,54,4,2,1.0,1.4
2026-02-05T1300,1432A,104.1423,30.6765,成都市,十里店,细颗粒物(PM2.5),140,148,140,107,84,62,,22,22,60,56,5,4,1.1,1
2026-02-05T1300,1433A,104.0594,30.5765,成都市,三瓦窑,细颗粒物(PM2.5),132,118,131,100,88,70,,14,14,43,62,,4,1.2,1.3
2026-02-05T1300,1434A,104.1122,30.6306,成都市,沙河铺,细颗粒物(PM2.5),139,122,126,106,82,44,,13,13,75,55,4,3,1.3,1.1
2026-02-05T1300,2880A,104.0219,30.6561,成都市,大石西路,细颗粒物(PM2.5),142,114,135,108,97,67,,18,18,39,52,7,5,1.1,1.2
2026-02-05T1300,3136A,104.2724,30.559,成都市,龙泉驿区区政府,细颗粒物(PM2.5),113,110,93,85,71,88,,50,50,23,20,7,6,1.0,1
2026-02-05T1300,3357A,104.0028,30.6891,成都市,金博路,细颗粒物(PM2.5),93,92,124,69,90,71,,18,18,33,55,7,5,1.1,1.2
2026-02-05T1300,3359A,104.056,30.5228,成都市,华阳,细颗粒物(PM2.5),137,132,114,104,85,73,,16,16,37,51,,3,1.5,1.3
2026-02-05T1300,3488A,104.387954,30.746684,成都市,青石路225号,细颗粒物(PM2.5),133,134,117,101,79,84,,27,27,30,46,2,1,1.4,1.2
2026-02-05T1300,3489A,104.0788,30.4054,成都市,科学城,细颗粒物(PM2.5),129,121,97,98,72,57,,14,14,20,28,8,6,1.2,1.2
2026-02-05T1300,4011A,103.8505,30.6946,成都市,光华大道三段,细颗粒物(PM2.5),103,111,138,77,81,76,,18,18,30,50,4,3,0.9,1.2
2026-02-05T1300,4144A,104.3257,30.6406,成都市,八角井街185号,细颗粒物(PM2.5),129,104,114,98,75,73,,33,28,29,31,4,3,0.9,0.8
2026-02-05T1300,4224A,104.2433276,30.53529463,成都市,鲸龙路1057号,细颗粒物(PM2.5),113,116,105,85,72,94,,30,30,18,38,7,5,1.0,1
2026-02-05T1300,1062A,117.9531,40.908,承德市,铁路,,39,39,78,3,43,83,,78,78,3,33,1,8,0.2,0.9
2026-02-05T1300,1063A,117.9397,40.9763,承德市,中国银行,,27,21,78,3,42,84,,72,72,3,38,1,6,0.2,0.9
2026-02-05T1300,4073A,117.9462,40.95,承德市,杏林街1号,,27,13,77,6,44,84,,78,78,2,31,3,8,0.2,0.9
2026-02-05T1300,4274A,117.7994,40.9605,承德市,滨河大街98号,,26,24,67,3,32,81,,78,78,4,27,2,18,0.2,0.7
2026-02-05T1300,2314A,117.4698,30.6617,池州市,池州学院,细颗粒物(PM2.5),64,65,62,46,46,22,,18,14,52,34,5,8,1.3,1.2
2026-02-05T1300,3237A,117.4918,30.6617,池州市,展览馆,细颗粒物(PM2.5),74,68,67,54,47,27,,15,15,47,31,5,6,1.1,1
2026-02-05T1300,3333A,117.5626,30.695,池州市,第八中学,细颗粒物(PM2.5),53,53,67,37,45,35,,17,17,42,32,5,7,1.0,0.9
2026-02-05T1300,3334A,117.5037,30.6242,池州市,第十二中学,细颗粒物(PM2.5),67,60,65,48,43,47,,15,15,34,40,8,6,1.3,1.1
2026-02-05T1300,1744A,118.9229,42.2816,赤峰市,松山一中,颗粒物(PM10),88,125,63,6,20,65,,63,63,8,29,2,12,0.6,1
2026-02-05T1300,1745A,118.9588,42.2733,赤峰市,哈达街,,39,39,60,3,22,67,,63,63,5,26,8,38,0.5,1
2026-02-05T1300,1746A,118.8792,42.2551,赤峰市,天义路,颗粒物(PM10),52,53,40,6,16,76,,72,72,4,25,5,23,0.5,0.6
2026-02-05T1300,3058A,119.2656,42.0356,赤峰市,银河街,颗粒物(PM10),51,51,64,3,19,76,,76,76,1,10,8,14,0.6,0.7
2026-02-05T1300,3286A,118.9359,42.3146,赤峰市,桥北物流园区,,26,26,40,10,19,78,,75,75,5,19,4,4,0.4,0.7
2026-02-05T1300,2521A,107.3473,22.4137,崇左市,市环保局江州分局,,,,90,,68,39,,14,8,,28,,5,0.9,1
2026-02-05T1300,4256A,107.375,22.3736,崇左市,石景林东路7号,细颗粒物(PM2.5),92,92,67,68,60,41,,21,13,27,27,3,2,0.8,0.8
2026-02-05T1300,3207A,118.31131,32.3033,滁州市,市政府原办公楼,细颗粒物(PM2.5),100,94,76,75,58,107,,36,36,15,43,10,5,0.5,0.6
2026-02-05T1300,3331A,118.3268,32.2633,滁州市,图书馆,细颗粒物(PM2.5),69,82,62,50,37,107,,37,37,25,40,12,8,0.6,0.6
2026-02-05T1300,4101A,118.3196,32.3335,滁州市,银山路666号,细颗粒物(PM2.5),108,87,66,81,54,110,,26,26,16,36,,14,0.7,0.6
2026-02-05T1300,4102A,118.3426,32.2979,滁州市,黄山路555号,细颗粒物(PM2.5),109,107,87,82,51,96,,29,29,28,55,10,6,0.6,0.6
2026-02-05T1300,2606A,101.5379,25.0492,楚雄彝族自治州,市经济开发区,,24,11,24,3,15,76,,32,32,7,31,2,3,0.4,0.5
2026-02-05T1300,4153A,101.5536,25.0343,楚雄彝族自治州,团结路562号,,,,21,3,14,76,,39,31,3,10,,4,0.4,0.5
2026-02-05T1300,2549A,107.5087,31.2186,达州市,市环境监测站,细颗粒物(PM2.5),112,117,126,84,88,12,,5,5,35,41,15,10,0.8,1
2026-02-05T1300,2550A,107.4988,31.2132,达州市,凤凰小区,细颗粒物(PM2.5),107,119,132,80,89,14,,5,5,33,44,15,9,0.7,0.8
2026-02-05T1300,2551A,107.5081,31.1987,达州市,达县机关宾馆,细颗粒物(PM2.5),108,119,134,81,94,15,,6,6,39,46,17,9,0.9,1
2026-02-05T1300,2552A,107.4644,31.2124,达州市,市政中心,细颗粒物(PM2.5),124,152,144,94,88,10,,5,5,57,51,10,8,1.2,1.1
2026-02-05T1300,2614A,100.2168,25.5818,大理白族自治州,大理市环境监测站,,25,20,21,6,14,78,,68,68,6,8,7,7,0.5,0.5
2026-02-05T1300,2615A,100.1542,25.7055,大理白族自治州,大理古城,,27,25,21,3,12,85,,68,66,4,7,8,8,0.6,0.6
2026-02-05T1300,1109A,121.6119,38.974,大连市,甘井子,,,100,155,12,108,,,41,41,9,58,,8,0.5,0.7
2026-02-05T1300,1110A,121.565,38.9509,大连市,周水子,颗粒物(PM10),78,106,152,12,115,81,,46,46,6,53,8,10,0.3,1.6
2026-02-05T1300,1111A,121.5637,38.8849,大连市,星海三站,颗粒物(PM10),67,83,133,9,104,76,,45,45,13,33,5,6,0.4,1
2026-02-05T1300,1112A,121.6301,38.9117,大连市,青泥洼桥,颗粒物(PM10),73,95,139,11,105,81,,45,45,12,45,7,9,0.2,1.1
2026-02-05T1300,1113A,121.6248,38.8643,大连市,傅家庄,,49,49,139,9,89,78,,55,55,6,35,6,9,0.6,1.2
2026-02-05T1300,1114A,121.5117,38.8636,大连市,七贤岭,颗粒物(PM10),80,109,147,11,109,77,,52,52,10,29,9,13,0.4,1
2026-02-05T1300,1116A,121.7507,39.1339,大连市,金州,颗粒物(PM10),66,81,154,16,78,76,,50,50,12,34,7,11,0.2,0.9
2026-02-05T1300,1117A,121.7811,39.0495,大连市,开发区,颗粒物(PM10),67,83,137,11,93,81,,50,50,6,41,6,8,0.2,1
2026-02-05T1300,1118A,121.9762,39.0631,大连市,双D港,颗粒物(PM10),176,302,126,8,72,90,,61,61,10,33,8,10,0.5,1.1
2026-02-05T1300,4082A,121.2548,38.8188,大连市,旅顺,颗粒物(PM10),59,68,146,10,103,75,,49,49,6,31,7,8,0.4,1.1
2026-02-05T1300,1789A,124.8085,46.0381,大庆市,大同区,,,,41,10,18,73,,72,72,2,11,5,7,0.3,0.4
2026-02-05T1300,1790A,125.1166,46.5255,大庆市,龙凤区,,46,46,38,10,18,70,,69,69,14,17,8,8,0.5,0.6
2026-02-05T1300,1791A,124.8894,46.4007,大庆市,红岗区,颗粒物(PM10),56,62,38,9,16,66,,66,66,6,16,4,6,0.5,0.6
2026-02-05T1300,1792A,125.1391,46.578,大庆市,萨尔图区,,,45,32,11,13,68,,64,64,7,15,,9,,0.3
2026-02-05T1300,1793A,124.9026,46.6217,大庆市,让胡路区,,37,37,28,12,14,73,,70,70,5,14,7,7,0.4,0.4
2026-02-05T1300,3481A,125.127,46.6277,大庆市,萨区政府监测点,,43,43,38,14,15,74,,74,74,2,5,8,8,0.4,0.6
2026-02-05T1300,1723A,113.2926,40.0759,大同市,云冈宾馆,,25,25,55,3,17,73,,67,67,6,19,5,7,0.3,0.5
2026-02-05T1300,1724A,113.3437,40.0921,大同市,大同大学,,25,25,62,3,16,78,,71,71,5,18,3,7,0.3,0.6
2026-02-05T1300,1725A,113.2637,40.129,大同市,安家小村,,21,21,64,7,19,65,,52,52,7,21,6,8,0.3,0.6
2026-02-05T1300,3282A,113.3399,40.0586,大同市,大同市卫生学校,,28,18,61,3,18,89,,80,80,7,20,2,5,0.5,0.6
2026-02-05T1300,3565A,113.1371,40.1122,大同市,云冈站,,50,50,57,14,14,74,,70,70,5,21,6,7,0.4,0.5
2026-02-05T1300,3566A,113.1186,40.2556,大同市,图书馆,,,32,54,,21,73,,67,67,12,12,10,5,0.8,0.7
2026-02-05T1300,3567A,113.5931,40.0459,大同市,区一中,,45,45,169,12,38,74,,62,62,11,32,8,14,0.3,0.6
2026-02-05T1300,4199A,113.2798248,40.09972476,大同市,魏都大道141号,,33,33,74,3,21,82,,76,76,6,24,3,6,0.4,0.7
2026-02-05T1300,2269A,124.1068,50.4091,大兴安岭地区,科技局,,20,16,29,13,14,62,,63,62,1,5,7,6,0.2,0.2
2026-02-05T1300,3663A,124.117,50.4279,大兴安岭地区,红旗社区,,24,,21,11,17,74,,76,74,1,10,6,7,0.1,0.2
2026-02-05T1300,1600A,124.33,40.0625,丹东市,江湾东路,,42,42,99,14,68,66,,55,54,13,22,4,9,0.5,0.9
2026-02-05T1300,1601A,124.4242,40.1513,丹东市,临江后街,,33,33,114,10,86,74,,60,60,10,23,5,12,0.4,1.1
2026-02-05T1300,1602A,124.3935,40.1461,丹东市,元宝山,,33,33,100,10,67,70,,59,,10,23,6,12,0.3,1
2026-02-05T1300,1603A,124.3634,40.1093,丹东市,民主桥,,29,29,106,13,73,68,,58,58,16,25,6,12,0.5,0.9
2026-02-05T1300,3541A,109.5726195,19.51688767,儋州市,第一中学子站,,,12,32,6,18,77,,44,40,,6,4,6,,0.7
2026-02-05T1300,3542A,109.5567,19.5187,儋州市,东坡学校子站,,25,17,27,3,14,78,,54,54,3,7,4,4,0.5,0.6
2026-02-05T1300,2616A,98.5611,24.4273,德宏傣族景颇族自治州,德宏州监测站,,50,50,64,35,45,77,,26,26,15,27,7,6,0.9,1
2026-02-05T1300,3677A,98.5887,24.4366,德宏傣族景颇族自治州,芒市人民政府综合楼,"颗粒物(PM10),细颗粒物(PM2.5)",52,53,66,36,39,75,,32,32,14,17,4,4,0.8,0.9
2026-02-05T1300,1901A,104.424,31.1209,德阳市,东山公园,细颗粒物(PM2.5),132,113,92,100,84,67,,45,37,27,22,3,2,1.0,1
2026-02-05T1300,1902A,104.3827,31.1318,德阳市,西小区,细颗粒物(PM2.5),140,136,116,107,92,65,,18,18,39,47,6,5,0.9,1.1
2026-02-05T1300,1904A,104.3553,31.1091,德阳市,耐火材料厂,细颗粒物(PM2.5),130,110,110,99,97,64,,15,15,35,52,5,3,0.9,1
2026-02-05T1300,4145A,104.4144,31.1495,德阳市,市林业局,细颗粒物(PM2.5),135,110,104,103,85,75,,21,21,32,46,5,4,1.0,1
2026-02-05T1300,1622A,116.3034,37.4675,德州市,儿童乐园,颗粒物(PM10),172,293,196,7,119,74,,43,43,21,49,9,16,0.7,1.4
2026-02-05T1300,1624A,116.2992,37.4449,德州市,监理站,颗粒物(PM10),172,293,202,8,119,80,,46,46,21,61,8,16,0.5,1.2
2026-02-05T1300,3066A,116.2722,37.438,德州市,九衢泉纯净水厂,颗粒物(PM10),168,285,203,9,134,75,,41,41,17,69,3,12,0.3,1.2
2026-02-05T1300,3371A,116.3693,37.44,德州市,开发区人民医院,颗粒物(PM10),185,320,201,8,116,68,,52,46,9,41,8,16,0.3,1
2026-02-05T1300,3511A,116.5687,37.3331,德州市,陵城艺术中心,颗粒物(PM10),179,307,202,12,129,64,,33,33,22,58,8,17,0.6,1.5
2026-02-05T1300,4292A,116.352738,37.420875,德州市,新河东路,颗粒物(PM10),165,280,193,7,110,70,,42,42,20,62,9,15,0.7,1.2
2026-02-05T1300,2621A,99.7054,27.8319,迪庆藏族自治州,迪庆州站,,28,19,20,10,10,87,,68,68,5,8,5,5,0.6,0.6
2026-02-05T1300,3180A,99.7122,27.8129,迪庆藏族自治州,质量技术监督局,,,23,19,14,10,94,,69,64,,8,5,4,0.4,0.4
2026-02-05T1300,4257A,104.6092,35.5962,定西市,将台街,颗粒物(PM10),57,63,80,31,50,79,,26,26,12,30,11,16,0.6,1
2026-02-05T1300,4309A,104.6159,35.5701,定西市,正龙路62号,颗粒物(PM10),68,86,79,38,43,73,,36,36,19,14,9,12,0.9,1
2026-02-05T1300,1390A,113.7943,23.0132,东莞市,东城石井,臭氧1小时(O3_1h),70,69,71,38,41,176,,66,66,37,45,8,6,0.6,0.7
2026-02-05T1300,1391A,113.7384,22.9659,东莞市,南城西平,细颗粒物(PM2.5),57,48,58,40,39,150,,50,50,40,48,8,7,0.6,0.6
2026-02-05T1300,3319A,113.7283,23.041,东莞市,万江金泰,细颗粒物(PM2.5),69,61,77,50,44,165,,59,59,26,42,6,6,0.9,0.9
2026-02-05T1300,4129A,113.8666,23.1062,东莞市,裕兴路,颗粒物(PM10),55,60,92,34,47,156,,61,61,20,47,9,7,0.8,1
2026-02-05T1300,4130A,114.0076,22.9739,东莞市,教育路1号,臭氧1小时(O3_1h),67,50,73,28,40,173,,73,73,26,50,6,5,0.6,0.7
2026-02-05T1300,4131A,113.7981,22.8124,东莞市,长怡路1号,,,51,71,28,37,146,,52,52,,53,,7,0.8,0.8
2026-02-05T1300,1666A,118.6612,37.4313,东营市,市环保局,颗粒物(PM10),80,110,184,27,145,76,,39,39,17,54,12,17,0.6,1.2
2026-02-05T1300,3036A,118.6903,37.4337,东营市,开发区管委会,颗粒物(PM10),103,156,185,25,143,77,,42,42,11,54,11,13,0.5,1.1
2026-02-05T1300,3365A,118.5721,37.5654,东营市,垦利区民丰路,颗粒物(PM10),90,129,176,27,147,78,,35,35,11,60,9,13,0.7,1.2
2026-02-05T1300,3498A,118.5063,37.8606,东营市,河口城区,颗粒物(PM10),95,139,199,16,147,87,,40,40,14,56,7,18,0.6,1.3
2026-02-05T1300,3646A,118.4979,37.4623,东营市,胜利站,颗粒物(PM10),116,182,186,41,126,75,,27,27,21,72,11,14,0.8,1.4
2026-02-05T1300,3734A,118.5753,37.4405,东营市,理想之城,,,,182,33,126,80,,35,35,18,63,8,12,0.6,1.2
2026-02-05T1300,1591A,110.0024,39.8127,鄂尔多斯市,综合楼,颗粒物(PM10),54,58,104,7,18,61,,51,,14,22,7,8,0.2,0.4
2026-02-05T1300,1592A,109.9485,39.8259,鄂尔多斯市,巴音孟克林场办事处,,39,39,89,9,19,68,,54,54,11,20,7,8,0.3,0.3
2026-02-05T1300,1593A,109.7734,39.5987,鄂尔多斯市,康泽苑,,48,48,81,8,17,68,,61,61,17,13,8,6,0.4,0.4
2026-02-05T1300,1594A,109.8121,39.5987,鄂尔多斯市,华泰汽车城,,46,46,79,7,20,67,,55,55,16,18,6,6,0.2,0.3
2026-02-05T1300,1595A,109.9734,39.7884,鄂尔多斯市,奥林花园,颗粒物(PM10),54,58,94,9,16,60,,60,51,19,22,5,5,0.3,0.4
2026-02-05T1300,2436A,114.894,30.3989,鄂州市,市政府,细颗粒物(PM2.5),69,84,73,50,49,40,,22,22,36,43,6,6,0.9,0.9
2026-02-05T1300,2437A,114.8986,30.3714,鄂州市,赵家坝,,,88,70,60,46,50,,18,18,,35,11,9,,1.1
2026-02-05T1300,3654A,114.8093,30.4091,鄂州市,精准医疗中心,细颗粒物(PM2.5),80,85,77,59,46,54,,21,21,18,44,6,12,1.6,0.9
2026-02-05T1300,2454A,109.4978,30.2979,恩施土家族苗族自治州,湖北民院,细颗粒物(PM2.5),103,94,105,77,83,8,,5,5,25,22,6,6,1.3,1.1
2026-02-05T1300,3549A,109.5061,30.3771,恩施土家族苗族自治州,龙凤新区,细颗粒物(PM2.5),80,83,89,59,62,5,,5,2,28,24,8,7,0.9,0.8
2026-02-05T1300,2499A,108.3411,21.6159,防城港市,沙万,颗粒物(PM10),58,65,49,31,28,50,,50,39,32,36,7,8,0.7,0.6
2026-02-05T1300,2500A,108.3515,21.7733,防城港市,防城档案局,,,44,43,38,33,61,,69,40,,15,,5,0.7,0.8
2026-02-05T1300,2501A,108.3506,21.6414,防城港市,大海花园,颗粒物(PM10),56,62,43,38,32,55,,67,46,25,29,8,8,1.1,0.9
2026-02-05T1300,1371A,113.1293,23.0065,佛山市,湾梁,,48,48,63,20,31,98,,50,47,27,38,/,/,/,/
2026-02-05T1300,1372A,113.1082,23.0477,佛山市,华材职中,细颗粒物(PM2.5),68,61,61,49,52,113,,68,65,25,26,8,6,0.7,0.8
2026-02-05T1300,1373A,113.1439,23.045,佛山市,南海气象局,,43,43,54,22,36,108,,56,56,27,36,/,/,/,/
2026-02-05T1300,1374A,113.2879,22.8094,佛山市,顺德苏岗,,44,44,57,24,30,110,,48,48,36,37,/,/,0.5,0.6
2026-02-05T1300,1376A,112.8384,22.8678,佛山市,高明孔堂,,36,36,47,24,30,115,,52,52,17,20,/,/,/,/
2026-02-05T1300,1377A,112.8835,23.1584,佛山市,三水监测站,颗粒物(PM10),54,58,81,36,48,102,,40,40,28,64,3,3,0.5,0.6
2026-02-05T1300,1378A,112.8668,23.185,佛山市,三水云东海,,,53,71,29,43,108,,37,37,,50,/,/,/,/
2026-02-05T1300,3625A,113.2568,22.7629,佛山市,容桂街道办,颗粒物(PM10),54,58,60,25,33,98,,57,57,36,36,/,/,/,/
2026-02-05T1300,1282A,119.2681,26.0506,福州市,师大,,49,49,44,26,19,130,,59,59,19,26,4,4,0.5,0.5
2026-02-05T1300,1283A,119.2983,26.1028,福州市,五四北路,,41,41,41,28,22,122,,58,58,20,26,5,5,0.6,0.6
2026-02-05T1300,1284A,119.2648,26.0769,福州市,杨桥西路,,,,41,32,20,123,,52,52,,25,5,5,/,/
2026-02-05T1300,3048A,119.5799,26.0937,福州市,九龙,,34,33,39,16,21,107,,52,52,14,26,7,5,0.7,0.7
2026-02-05T1300,3526A,119.5188,25.9666,福州市,吴航,,39,38,36,22,20,123,,63,63,20,28,9,5,0.8,0.7
2026-02-05T1300,4104A,119.3106,26.0648,福州市,路通桥巷6号,颗粒物(PM10),53,55,43,26,21,125,,56,56,16,23,/,/,/,/
2026-02-05T1300,1755A,123.7974,41.8494,抚顺市,望花区,颗粒物(PM10),121,191,168,3,99,76,,52,52,7,54,5,19,0.3,1.2
2026-02-05T1300,1756A,123.9161,41.8827,抚顺市,顺城区,颗粒物(PM10),103,155,156,3,105,81,,65,65,13,52,8,16,0.4,1.2
2026-02-05T1300,1757A,124.0437,41.8615,抚顺市,东洲区,颗粒物(PM10),132,214,191,3,97,,,58,58,7,57,15,21,0.3,1.2
2026-02-05T1300,1758A,123.9246,41.8638,抚顺市,新抚区,颗粒物(PM10),141,231,201,3,107,87,,71,71,13,57,5,11,0.6,1.4
2026-02-05T1300,1759A,124.0972,41.8961,抚顺市,大伙房水库,颗粒物(PM10),160,270,169,3,99,81,,68,68,9,55,9,14,0.4,1.4
2026-02-05T1300,1760A,123.708,41.8386,抚顺市,沈抚新城,颗粒物(PM10),106,162,161,3,86,84,,60,60,14,61,4,11,0.2,0.9
2026-02-05T1300,2377A,116.3544,27.9833,抚州市,市站,,,76,73,63,56,56,,56,48,22,21,,10,,1.2
2026-02-05T1300,2378A,116.3562,27.9631,抚州市,血防站,细颗粒物(PM2.5),87,76,71,64,56,54,,53,44,28,22,8,8,1.0,1
2026-02-05T1300,2379A,116.3561,28.0007,抚州市,采茶剧团,细颗粒物(PM2.5),65,72,71,47,54,49,,50,39,23,17,7,8,1.3,1.2
2026-02-05T1300,2380A,116.3854,27.9648,抚州市,医学分院,细颗粒物(PM2.5),72,84,76,52,51,47,,52,43,26,20,8,8,1.2,1.2
2026-02-05T1300,2207A,121.6095,41.9978,阜新市,工业园区,颗粒物(PM10),70,90,140,3,33,79,,76,76,4,23,6,12,0.3,0.6
2026-02-05T1300,2208A,121.6567,42.0188,阜新市,长青街,颗粒物(PM10),63,76,103,3,35,83,,81,81,3,23,5,11,0.2,0.6
2026-02-05T1300,2209A,121.6672,42.07,阜新市,农业园区,颗粒物(PM10),85,119,127,3,26,72,,71,71,5,13,4,7,0.0,0.3
2026-02-05T1300,2211A,121.6343,42.0455,阜新市,玉龙新城,颗粒物(PM10),59,67,121,3,33,76,,74,74,4,28,5,10,0.3,0.6
2026-02-05T1300,2301A,115.8276,32.8929,阜阳市,市监测站,细颗粒物(PM2.5),122,134,129,92,82,94,,50,50,24,39,7,5,0.9,1
2026-02-05T1300,2303A,115.8551,32.8606,阜阳市,开发区,细颗粒物(PM2.5),113,113,124,85,77,92,,46,46,33,42,8,6,0.7,0.7
2026-02-05T1300,2875A,115.783962,32.889217,阜阳市,阜阳职业技术学院,细颗粒物(PM2.5),117,111,104,88,70,104,,56,56,19,30,8,7,0.8,0.7
2026-02-05T1300,3468A,115.79,32.8614,阜阳市,市规划展馆,细颗粒物(PM2.5),124,140,116,94,76,104,,58,58,18,26,,7,1.0,0.9
2026-02-05T1300,3469A,115.835101,32.918568,阜阳市,枣园社区,细颗粒物(PM2.5),124,134,123,94,78,98,,48,48,20,44,8,7,0.9,0.9
2026-02-05T1300,2669A,102.9097,34.9841,甘南藏族自治州,州政府,颗粒物(PM10),55,60,61,35,43,80,,36,36,12,19,10,9,0.7,0.8
2026-02-05T1300,3380A,102.8915,34.9618,甘南藏族自治州,甘肃民族师范学院,细颗粒物(PM2.5),58,55,62,41,31,90,,45,45,16,25,10,9,0.5,0.5
2026-02-05T1300,2570A,101.96,30.048,甘孜藏族自治州,水桥子,,25,17,13,3,9,79,,59,55,4,10,7,6,0.9,1
2026-02-05T1300,3065A,101.9534,29.9976,甘孜藏族自治州,州环保局,,27,12,19,8,11,86,,67,67,7,11,7,6,0.6,0.7
2026-02-05T1300,2363A,114.9368,25.8663,赣州市,地委,颗粒物(PM10),54,57,58,22,24,136,,55,55,15,38,9,8,1.3,1.4
2026-02-05T1300,2364A,114.946,25.8483,赣州市,气象台,,45,42,52,31,27,137,,56,56,21,40,8,7,0.4,0.5
2026-02-05T1300,2365A,114.932,25.8332,赣州市,市图书馆,,40,40,50,26,26,111,,48,48,17,40,5,4,0.8,0.9
2026-02-05T1300,2366A,114.8905,25.8472,赣州市,华坚鞋城,,,44,46,,24,119,,57,57,,35,,9,0.4,0.6
2026-02-05T1300,3109A,115.0094,25.8614,赣州市,赣县区卫计委,,47,47,51,22,26,117,,50,50,18,35,7,8,0.8,0.8
2026-02-05T1300,2684A,106.2753,36.0057,固原市,监测站,,29,29,56,11,32,89,,48,48,7,28,8,13,0.4,1.2
2026-02-05T1300,2685A,106.2384,36.0189,固原市,新区,,,40,70,14,30,89,,29,29,6,55,,9,,1.2
2026-02-05T1300,2544A,106.6307,30.4577,广安市,市委,细颗粒物(PM2.5),125,124,106,95,79,44,,25,25,20,32,7,7,1.0,1.1
2026-02-05T1300,2545A,106.6266,30.4662,广安市,友谊中学,,,,99,,66,43,,39,39,,26,7,6,1.2,1.1
2026-02-05T1300,2547A,106.6386,30.4551,广安市,广电花园,细颗粒物(PM2.5),132,111,96,100,82,41,,22,22,16,26,7,7,0.9,0.9
2026-02-05T1300,2902A,106.6347,30.4868,广安市,北辰小学,细颗粒物(PM2.5),143,144,100,109,81,31,,18,18,23,19,9,8,1.2,0.9
2026-02-05T1300,2524A,105.8211,32.4444,广元市,老城,细颗粒物(PM2.5),112,112,95,84,59,20,,9,9,47,46,23,12,1.9,1.2
2026-02-05T1300,2526A,105.8629,32.429,广元市,监测站,细颗粒物(PM2.5),84,82,78,62,58,28,,10,10,28,34,16,8,1.5,1.8
2026-02-05T1300,3617A,105.8047,32.4167,广元市,经开区,细颗粒物(PM2.5),119,128,96,90,64,13,,4,4,42,43,27,7,2.1,1.5
2026-02-05T1300,1345A,113.2346,23.1423,广州市,广雅中学,,45,45,64,25,34,84,,45,45,31,47,3,3,1.1,1.1
2026-02-05T1300,1346A,113.2611,23.105,广州市,市五中,,,53,63,23,32,104,,43,43,37,48,,7,/,/
2026-02-05T1300,1348A,113.3477,23.0916,广州市,广东商学院,细颗粒物(PM2.5),57,54,64,40,41,93,,35,35,50,62,9,6,0.7,0.7
2026-02-05T1300,1349A,113.4332,23.105,广州市,市八十六中,颗粒物(PM10),56,62,58,36,31,140,,36,36,53,74,16,9,/,/
2026-02-05T1300,1350A,113.3506,22.9488,广州市,番禺中学,,,121,100,33,32,111,,46,46,,42,,3,0.8,0.9
2026-02-05T1300,1351A,113.2147,23.3918,广州市,花都师范,颗粒物(PM10),58,66,81,38,45,89,,27,27,47,77,9,6,0.7,0.8
2026-02-05T1300,1352A,113.2599,23.1329,广州市,市监测站,颗粒物(PM10),52,54,65,31,36,91,,47,47,33,44,4,2,/,/
2026-02-05T1300,1353A,113.5618,23.3119,广州市,九龙镇镇龙,细颗粒物(PM2.5),73,85,74,53,44,137,,41,41,32,50,6,5,0.7,0.7
2026-02-05T1300,1354A,113.2764,23.1544,广州市,麓湖,颗粒物(PM10),53,56,59,35,36,92,,33,33,42,64,6,4,0.7,0.8
2026-02-05T1300,2846A,113.3209,23.1323,广州市,体育西,颗粒物(PM10),58,65,68,34,36,92,,40,40,49,52,10,7,0.8,0.9
2026-02-05T1300,3298A,113.5718,23.5493,广州市,从化街口,细颗粒物(PM2.5),79,84,67,58,46,122,,42,42,28,44,8,6,0.8,0.8
2026-02-05T1300,3299A,113.3463,23.369,广州市,白云竹料,细颗粒物(PM2.5),75,92,91,55,53,120,,39,39,42,63,6,4,0.7,0.8
2026-02-05T1300,3300A,113.2981,23.2365,广州市,白云嘉禾,颗粒物(PM10),56,61,80,36,43,84,,30,30,48,66,8,6,/,/
2026-02-05T1300,3301A,113.4256,23.1716,广州市,黄埔科学城,细颗粒物(PM2.5),80,91,73,59,46,104,,31,31,66,65,8,3,1.0,0.7
2026-02-05T1300,3302A,113.3942,23.0485,广州市,番禺大学城,颗粒物(PM10),73,95,94,52,46,115,,43,43,42,48,14,9,0.7,0.6
2026-02-05T1300,3303A,113.4923,22.8169,广州市,南沙黄阁,,48,39,57,33,37,65,,40,29,46,41,5,4,/,/
2026-02-05T1300,3304A,113.534,22.7893,广州市,南沙街,,38,38,55,26,31,94,,56,47,40,39,5,4,0.7,0.6
2026-02-05T1300,3443A,113.2905,23.5541,广州市,花都梯面,颗粒物(PM10),53,56,66,35,39,96,,36,36,27,42,6,5,/,/
2026-02-05T1300,3445A,113.786,23.7479,广州市,从化良口,细颗粒物(PM2.5),53,42,30,37,25,128,,49,49,12,21,8,7,/,/
2026-02-05T1300,3446A,113.805,23.2614,广州市,增城荔城,细颗粒物(PM2.5),57,61,54,40,31,148,,68,68,18,28,7,6,0.5,0.6
2026-02-05T1300,2506A,109.604387,23.066791,贵港市,江南子站,颗粒物(PM10),64,78,72,39,46,54,,35,33,25,27,15,7,0.8,0.8
2026-02-05T1300,2508A,109.5669,23.1065,贵港市,荷城子站,颗粒物(PM10),57,63,67,34,40,55,,42,38,23,35,9,8,1.1,1.1
2026-02-05T1300,3405A,109.5886,23.1172,贵港市,新世纪学校,颗粒物(PM10),68,85,81,40,53,65,,43,43,27,40,/,/,0.6,0.8
2026-02-05T1300,4260A,109.5933,23.095,贵港市,中山路155-3号,细颗粒物(PM2.5),75,68,64,55,47,60,,44,42,22,25,/,/,1.0,0.9
2026-02-05T1300,1439A,106.6863,26.6035,贵阳市,马鞍山,,26,24,28,18,24,32,,22,22,16,16,8,5,/,/
2026-02-05T1300,1441A,106.6241,26.6266,贵阳市,鉴湖路,,31,31,31,20,20,28,,31,29,20,18,2,3,0.7,0.7
2026-02-05T1300,1442A,106.7468,26.6344,贵阳市,燕子冲,,22,22,36,13,29,37,,26,26,13,19,10,8,0.7,0.7
2026-02-05T1300,1443A,106.6556,26.4362,贵阳市,碧云窝,,27,27,39,14,23,36,,27,27,17,17,17,17,/,/
2026-02-05T1300,1445A,106.6963,26.6063,贵阳市,红边门,,29,29,38,15,28,38,,33,28,14,26,12,13,/,/
2026-02-05T1300,1446A,106.7162383,26.56964667,贵阳市,新华路,,29,29,40,10,26,37,,31,31,19,29,9,9,0.7,0.8
2026-02-05T1300,1447A,106.6742,26.542,贵阳市,太慈桥,,25,19,30,17,23,37,,32,31,23,22,5,4,/,/
2026-02-05T1300,4230A,106.688212,26.56952,贵阳市,花果园大街66号,,25,19,28,17,25,26,,25,23,17,25,5,3,/,/
2026-02-05T1300,4231A,106.687268,26.516892,贵阳市,漓江路57号,,28,22,36,19,25,36,,26,26,17,24,10,10,0.8,0.9
2026-02-05T1300,1864A,110.3091,25.2705,桂林市,龙隐路小学,细颗粒物(PM2.5),110,,103,83,93,6,,2,2,44,38,3,13,1.1,1
2026-02-05T1300,1865A,110.2849361,25.22909545,桂林市,八中,细颗粒物(PM2.5),88,92,102,65,67,7,,3,3,44,37,4,6,1.3,1.1
2026-02-05T1300,3531A,110.296,25.1254,桂林市,旅游学院,细颗粒物(PM2.5),149,115,115,114,107,8,,4,4,37,33,7,7,0.8,0.7
2026-02-05T1300,4222A,110.1835,25.2444,桂林市,环湖路276号,细颗粒物(PM2.5),112,97,102,84,87,6,,4,4,43,38,8,11,1.5,1.3
2026-02-05T1300,4301A,110.2803,25.2773,桂林市,信义路13号,细颗粒物(PM2.5),99,79,92,74,86,13,,7,6,42,37,5,17,1.6,1.4
2026-02-05T1300,2674A,100.2262,34.4854,果洛藏族自治州,玛沁县大武镇,,35,35,48,6,16,108,,53,53,2,8,11,16,0.2,0.4
2026-02-05T1300,1130A,126.5557,45.8109,哈尔滨市,松北商大,,22,19,74,15,64,70,,54,54,16,26,11,9,0.6,0.9
2026-02-05T1300,1132A,126.6162,45.719,哈尔滨市,南岗学府路,,38,38,63,9,40,70,,66,61,12,22,9,12,0.6,0.7
2026-02-05T1300,1133A,126.6894,45.7733,哈尔滨市,太平宏伟公园,,,49,81,17,73,67,,60,60,,26,17,11,0.4,0.7
2026-02-05T1300,1134A,126.6361,45.7672,哈尔滨市,道外承德广场,颗粒物(PM10),84,118,106,13,59,70,,59,59,18,32,9,23,0.2,0.3
2026-02-05T1300,1136A,126.644,45.7261,哈尔滨市,动力和平路,颗粒物(PM10),51,52,60,12,45,70,,65,60,12,21,9,9,0.7,0.9
2026-02-05T1300,1137A,126.5933,45.7479,哈尔滨市,道里建国路,,46,46,61,13,55,67,,56,54,19,30,12,15,0,0.2
2026-02-05T1300,1138A,126.6127,45.6119,哈尔滨市,平房东轻厂,,23,15,63,10,49,71,,54,54,10,43,3,11,0.5,0.8
2026-02-05T1300,1139A,126.5875,45.9827,哈尔滨市,呼兰师专,颗粒物(PM10),57,64,89,3,65,68,,54,54,5,22,11,14,0.6,1.1
2026-02-05T1300,1140A,126.6299,45.6799,哈尔滨市,省农科院,,30,30,61,14,43,75,,62,62,7,24,3,17,0.6,0.8
2026-02-05T1300,4282A,126.6769,45.7379,哈尔滨市,华山路1号,,36,36,63,11,50,66,,63,59,13,23,4,8,0.6,0.9
2026-02-05T1300,4283A,126.9717,45.5356,哈尔滨市,解放大街52号,,28,19,67,19,47,63,,54,54,14,24,13,18,0.5,0.9
2026-02-05T1300,2688A,93.5124,42.8176,哈密市,地区监测站,颗粒物(PM10),61,71,78,33,37,69,,56,56,6,21,9,9,0.1,0.5
2026-02-05T1300,2689A,93.5014,42.8312,哈密市,哈密师范学校,颗粒物(PM10),72,93,96,21,30,65,,51,51,9,37,4,6,0.3,0.9
2026-02-05T1300,2671A,100.9016,36.9464,海北藏族自治州,海晏县西海镇,细颗粒物(PM2.5),65,68,48,47,32,95,,82,76,11,9,15,11,0.9,0.7
2026-02-05T1300,3867A,102.074,36.5056,海东市,平安区公安局北苑,细颗粒物(PM2.5),70,71,86,51,65,76,,61,48,13,18,18,21,0.9,1
2026-02-05T1300,4163A,102.0984,36.5119,海东市,滨河路,细颗粒物(PM2.5),63,59,88,45,56,88,,38,38,20,40,16,30,0.9,1
2026-02-05T1300,1410A,110.3189,20.0596,海口市,海南大学,,31,27,36,14,18,97,,79,79,7,8,5,5,0.4,0.5
2026-02-05T1300,1411A,110.2827,20.0051,海口市,秀英海南医院,,,44,37,24,19,88,,75,75,9,10,7,8,,0.4
2026-02-05T1300,1412A,110.3391,19.9979,海口市,海南师范大学,,39,39,39,16,20,97,,76,76,6,8,6,5,0.4,0.5
2026-02-05T1300,1413A,110.3303,20.0359,海口市,龙华路环保局宿舍,,38,38,36,17,21,104,,81,81,8,10,/,/,0.7,0.8
2026-02-05T1300,3539A,110.5111,19.9737,海口市,桂林洋子站,,28,23,35,13,20,87,,71,71,6,8,/,/,/,/
2026-02-05T1300,4134A,110.1952,20.0451,海口市,长滨二路9号,,28,22,30,12,19,89,,65,65,8,9,/,/,/,/
2026-02-05T1300,2673A,100.6158,36.2985,海南藏族自治州,共和县恰卜恰镇,,34,34,36,7,18,80,,53,53,3,18,14,13,0.3,0.4
2026-02-05T1300,2676A,97.373,37.376,海西蒙古族藏族自治州,德令哈市,,33,26,24,6,10,105,,95,90,3,9,13,12,0.4,0.5
2026-02-05T1300,1049A,114.492,36.5712,邯郸市,矿院,,,,134,,108,76,,40,40,,52,,12,0.4,1.2
2026-02-05T1300,1050A,114.4839,36.6136,邯郸市,丛台公园,颗粒物(PM10),83,116,136,33,93,78,,47,47,18,46,4,17,0.4,1.4
2026-02-05T1300,3458A,114.7893,36.5592,邯郸市,香泉濮院小区,颗粒物(PM10),94,138,171,31,94,79,,41,41,13,38,4,14,0.5,1.2
2026-02-05T1300,3580A,114.1998,36.4439,邯郸市,峰峰矿区临水派出所,颗粒物(PM10),61,72,84,32,49,83,,86,78,12,12,7,17,0.6,1
2026-02-05T1300,4068A,114.5209,36.7697,邯郸市,建安街268号,颗粒物(PM10),62,74,135,18,99,72,,31,31,17,56,3,11,0.2,1.1
2026-02-05T1300,4069A,114.5488,36.6177,邯郸市,丛台东路558号,颗粒物(PM10),71,92,152,24,102,80,,32,32,9,60,2,14,0.5,1.4
2026-02-05T1300,2635A,107.0155,33.0707,汉中市,市监测站,,,103,99,68,72,56,,18,18,27,36,8,8,,1.5
2026-02-05T1300,2636A,107.0083,33.114,汉中市,鑫源开发区,细颗粒物(PM2.5),87,83,101,64,79,61,,25,25,22,39,7,9,1.0,1.4
2026-02-05T1300,2637A,107.0072,33.0323,汉中市,南郑大河坎水厂,细颗粒物(PM2.5),79,86,97,58,65,63,,23,23,23,29,8,8,1.0,1.1
2026-02-05T1300,1223A,120.2073,30.2111,杭州市,滨江,细颗粒物(PM2.5),108,108,111,81,73,10,,4,4,73,75,7,8,1.1,0.9
2026-02-05T1300,1224A,120.0625,30.2737,杭州市,西溪,细颗粒物(PM2.5),122,115,91,92,62,4,,1,1,59,47,9,9,1.1,1
2026-02-05T1300,1226A,120.3417,30.315,杭州市,下沙,细颗粒物(PM2.5),127,128,109,96,77,8,,7,4,91,84,9,9,0.9,0.6
2026-02-05T1300,1227A,120.1252,30.2465,杭州市,卧龙桥,细颗粒物(PM2.5),102,111,81,76,57,12,,7,7,61,50,10,9,0.6,0.5
2026-02-05T1300,1228A,120.1902,30.2691,杭州市,浙江农大,细颗粒物(PM2.5),107,108,106,80,68,6,,4,4,79,84,6,7,0.9,0.8
2026-02-05T1300,1230A,120.1195,30.3121,杭州市,和睦小学,细颗粒物(PM2.5),119,126,114,90,75,5,,4,4,64,72,6,6,1.0,1
2026-02-05T1300,1231A,120.3076,30.4146,杭州市,临平镇,细颗粒物(PM2.5),119,114,114,90,78,6,,12,6,82,68,8,8,1.0,0.8
2026-02-05T1300,1232A,120.2753,30.1839,杭州市,城厢镇,细颗粒物(PM2.5),125,124,109,95,72,14,,12,6,88,78,9,9,1.2,0.8
2026-02-05T1300,1233A,120.0883,30.1808,杭州市,云栖,细颗粒物(PM2.5),74,75,71,54,44,23,,10,10,46,54,5,5,0.7,0.6
2026-02-05T1300,3557A,119.9463,30.0496,杭州市,镇二中,细颗粒物(PM2.5),110,94,82,83,72,15,,5,5,56,62,6,6,1.0,1.2
2026-02-05T1300,3558A,119.7184,30.2367,杭州市,市府大楼,细颗粒物(PM2.5),110,85,77,83,65,12,,5,5,38,42,11,11,1.0,1
2026-02-05T1300,3656A,120.1554,30.2863,杭州市,消防大队,细颗粒物(PM2.5),124,129,111,94,78,4,,3,3,63,74,8,8,1.2,0.9
2026-02-05T1300,1270A,117.1957,31.7845,合肥市,明珠广场,颗粒物(PM10),67,83,85,46,46,71,,18,18,58,85,7,7,0.6,0.9
2026-02-05T1300,1271A,117.307,31.8765,合肥市,三里街,细颗粒物(PM2.5),73,75,93,53,49,80,,16,16,28,76,6,7,0.7,1.2
2026-02-05T1300,1272A,117.2587,31.8703,合肥市,琥珀山庄,细颗粒物(PM2.5),72,92,86,52,45,84,,18,18,34,67,8,7,1.1,1.2
2026-02-05T1300,1275A,117.2593,31.9376,合肥市,庐阳区,细颗粒物(PM2.5),75,73,93,55,45,106,,31,31,19,72,7,6,0.9,0.9
2026-02-05T1300,1276A,117.345251,31.861615,合肥市,瑶海区,颗粒物(PM10),65,80,83,46,41,71,,18,18,48,86,5,6,0.6,0.8
2026-02-05T1300,1277A,117.3033,31.7967,合肥市,包河区,细颗粒物(PM2.5),77,97,82,56,42,48,,13,13,80,84,10,10,0.9,1
2026-02-05T1300,1278A,117.278,31.7392,合肥市,滨湖新区,,,92,70,57,41,63,,20,20,56,49,,4,,0.8
2026-02-05T1300,1279A,117.1324,31.8395,合肥市,高新区,细颗粒物(PM2.5),68,83,77,49,39,89,,24,24,21,63,6,5,0.7,0.8
2026-02-05T1300,3464A,117.3802,31.9148,合肥市,高教基地,颗粒物(PM10),67,83,73,47,35,97,,27,27,22,55,10,9,0.6,0.7
2026-02-05T1300,4098A,117.2518,31.8404,合肥市,中国科学技术大学,"颗粒物(PM10),细颗粒物(PM2.5)",78,105,79,57,39,70,,20,20,51,68,10,9,0.9,1.1
2026-02-05T1300,3614A,79.9241,37.0878,和田地区,地区环保局,颗粒物(PM10),195,339,234,27,39,82,,68,68,11,14,3,4,0.5,0.7
2026-02-05T1300,3615A,79.9132,37.1137,和田地区,市环保局,颗粒物(PM10),158,266,235,23,40,101,,66,66,6,33,2,4,0.2,0.6
2026-02-05T1300,2517A,108.0496,24.6957,河池市,市环保站,细颗粒物(PM2.5),147,134,117,112,107,26,,9,9,24,33,3,4,1.2,1.3
2026-02-05T1300,4302A,108.0901,24.6945,河池市,上任中路54号,细颗粒物(PM2.5),137,114,122,104,109,19,,9,7,30,28,6,6,1.5,1.6
2026-02-05T1300,1697A,114.6962,23.7538,河源市,东埔,,48,43,49,33,34,138,,46,46,15,43,6,6,0.8,0.9
2026-02-05T1300,1698A,114.6895,23.7232,河源市,老城,颗粒物(PM10),58,66,42,37,28,138,,53,53,15,29,7,6,1.0,0.8
2026-02-05T1300,3374A,115.5562,35.089,菏泽市,定陶老年大学,细颗粒物(PM2.5),199,195,169,149,128,66,,28,27,35,38,14,6,0.9,0.8
2026-02-05T1300,4114A,115.4239,35.2593,菏泽市,黄河路600号,细颗粒物(PM2.5),204,204,188,154,132,84,,25,25,46,65,11,6,0.9,1.2
2026-02-05T1300,4115A,115.5025,35.2727,菏泽市,菏泽市人社局,细颗粒物(PM2.5),207,199,188,157,135,75,,20,20,48,58,16,12,1.0,1.2
2026-02-05T1300,4184A,115.479691,35.244011,菏泽市,永昌路1号,细颗粒物(PM2.5),199,202,188,149,134,77,,25,25,41,51,12,6,0.9,1
2026-02-05T1300,4193A,115.471542,35.280012,菏泽市,长城路999号,细颗粒物(PM2.5),196,205,177,147,123,76,,18,18,49,57,13,8,1.2,1.3
2026-02-05T1300,2514A,111.5264,24.4178,贺州市,环保小区,颗粒物(PM10),59,67,83,40,51,66,,30,28,22,41,4,4,0.6,0.8
2026-02-05T1300,2515A,111.561,24.4074,贺州市,政协大楼,,,,53,37,38,80,,53,53,17,27,4,12,0.8,0.8
2026-02-05T1300,3534A,111.4744,24.455,贺州市,西湾,颗粒物(PM10),58,66,81,36,48,79,,36,36,20,41,6,6,0.7,0.9
2026-02-05T1300,2385A,114.17,35.9019,鹤壁市,市监测站,颗粒物(PM10),80,110,110,56,68,74,,62,62,27,25,6,9,0.8,1
2026-02-05T1300,2386A,114.2953,35.7512,鹤壁市,市交警支队,颗粒物(PM10),79,108,132,50,85,66,,34,34,29,48,11,12,0.7,1
2026-02-05T1300,2387A,114.2877,35.7302,鹤壁市,迎宾馆,颗粒物(PM10),89,128,131,47,78,42,,26,,29,48,8,9,0.9,1.1
2026-02-05T1300,3474A,114.2616,35.6824,鹤壁市,大新区,,,106,123,49,87,75,,36,36,24,54,,11,,1.2
2026-02-05T1300,3596A,114.1573,35.9607,鹤壁市,南山宾馆,颗粒物(PM10),86,122,116,62,68,77,,80,74,21,19,9,14,0.6,0.7
2026-02-05T1300,2244A,130.2537,47.3416,鹤岗市,哈啤分公司,,27,16,28,3,19,84,,79,79,2,11,6,7,0.3,0.5
2026-02-05T1300,2245A,130.2683,47.3087,鹤岗市,斯达机电,,24,20,45,3,22,75,,63,62,4,18,6,8,0.5,0.7
2026-02-05T1300,2246A,130.3114,47.3388,鹤岗市,东山纸板厂,,32,32,61,7,32,79,,63,63,3,28,8,13,0.3,0.9
2026-02-05T1300,2263A,127.4832,50.2524,黑河市,交通局,,22,20,28,14,23,69,,65,65,1,14,6,7,0.3,0.4
2026-02-05T1300,2264A,127.5146,50.2339,黑河市,环保局,,26,26,29,8,19,64,,63,62,8,19,6,7,0.5,0.6
2026-02-05T1300,1074A,115.6839,37.754,衡水市,电机北厂,颗粒物(PM10),123,196,170,28,109,68,,40,40,24,47,4,11,0.1,0.7
2026-02-05T1300,1075A,115.6303,37.7318,衡水市,市监测站,颗粒物(PM10),98,145,156,12,102,66,,40,40,20,52,6,12,0.5,1
2026-02-05T1300,3188A,115.6684,37.7216,衡水市,市城管局,颗粒物(PM10),115,180,174,25,98,67,,42,42,21,55,8,15,0.4,1
2026-02-05T1300,3459A,115.599,37.5491,衡水市,地表水厂,颗粒物(PM10),90,130,159,19,113,70,,39,39,13,63,4,13,0.3,1
2026-02-05T1300,2457A,112.6209,26.9268,衡阳市,衡阳化工总厂,细颗粒物(PM2.5),118,108,101,89,78,54,,19,19,23,34,33,18,1.3,1.2
2026-02-05T1300,2458A,112.621,26.8957,衡阳市,珠晖区环保局,细颗粒物(PM2.5),109,102,100,82,72,52,,19,19,31,43,22,15,1.5,1.4
2026-02-05T1300,2459A,112.628,26.8654,衡阳市,市委党校,,,,94,,74,57,,20,20,26,34,22,20,1.4,1.6
2026-02-05T1300,2460A,112.6007,26.8977,衡阳市,市监测站,细颗粒物(PM2.5),104,125,124,78,74,44,,17,17,35,42,19,14,1.5,1.5
2026-02-05T1300,2461A,112.5658,26.9013,衡阳市,真空机电公司,细颗粒物(PM2.5),119,107,115,90,89,44,,14,14,32,49,14,20,1.4,1.5
2026-02-05T1300,3399A,112.6703,26.8817,衡阳市,师范学院,细颗粒物(PM2.5),92,100,106,68,67,56,,19,19,36,45,8,16,1.2,1.2
2026-02-05T1300,3038A,103.3757,23.3679,红河哈尼族彝族自治州,州图书馆,,35,34,42,24,31,99,,51,51,6,11,10,8,0.5,0.6
2026-02-05T1300,4154A,103.401,23.3561,红河哈尼族彝族自治州,蒙自市朝阳路,,32,20,23,20,25,101,,60,60,5,7,7,7,0.4,0.4
2026-02-05T1300,1090A,111.6506,40.7517,呼和浩特市,呼市一监,,24,14,70,3,29,76,,71,71,7,21,7,10,0.3,0.5
2026-02-05T1300,1094A,111.7516,40.8369,呼和浩特市,如意水处理厂,,,14,47,6,19,78,,74,74,5,16,10,12,,0.2
2026-02-05T1300,1095A,111.727798,40.806187,呼和浩特市,二十九中,,25,13,56,7,20,77,,72,72,3,13,11,13,0.3,0.4
2026-02-05T1300,1097A,111.717,40.7617,呼和浩特市,化肥厂生活区,,25,16,59,6,22,79,,75,75,7,20,6,7,0.2,0.4
2026-02-05T1300,3699A,111.6519,40.8389,呼和浩特市,海东办,,25,7,52,7,19,78,,76,76,6,16,5,6,0.3,0.4
2026-02-05T1300,4275A,111.591512,40.827312,呼和浩特市,成吉思汗西街8号,,23,12,61,7,20,73,,69,69,4,19,5,7,0.3,0.4
2026-02-05T1300,4276A,111.6597,40.8077,呼和浩特市,公园东路75号,,21,9,61,8,21,67,,65,64,10,21,6,8,0.3,0.5
2026-02-05T1300,4277A,111.5427,40.7846,呼和浩特市,金海路35号,,24,18,70,8,24,74,,71,71,7,22,6,8,0.3,0.5
2026-02-05T1300,3061A,119.7511,49.1576,呼伦贝尔市,国华电力东,,30,30,24,13,12,66,,66,65,10,12,5,6,0.4,0.3
2026-02-05T1300,4279A,119.7569,49.2222,呼伦贝尔市,伊敏大街东7号,,38,38,26,15,12,70,,73,68,2,2,7,7,0.4,0.5
2026-02-05T1300,1250A,120.075,30.867,湖州市,城西水厂,细颗粒物(PM2.5),119,113,84,90,64,15,,14,14,71,64,7,6,0.8,0.7
2026-02-05T1300,2873A,120.083,30.8929,湖州市,仁皇山新区,细颗粒物(PM2.5),108,113,87,81,63,12,,10,10,84,65,6,6,1.1,0.9
2026-02-05T1300,2907A,120.1846,30.8592,湖州市,吴兴区站,细颗粒物(PM2.5),122,119,104,92,76,21,,9,9,59,59,6,6,0.7,0.7
2026-02-05T1300,3562A,120.4146,30.8538,湖州市,南浔区站,细颗粒物(PM2.5),125,129,101,95,71,33,,14,14,,62,,8,0.9,0.8
2026-02-05T1300,1607A,120.904878,40.721091,葫芦岛市,龙港区,,,,204,40,81,74,,62,62,4,45,5,26,0.3,1.1
2026-02-05T1300,1608A,120.8382,40.7521,葫芦岛市,化工街,颗粒物(PM10),79,107,181,11,81,75,,62,62,9,49,9,24,0.3,0.8
2026-02-05T1300,1609A,120.8339,40.7078,葫芦岛市,新区,颗粒物(PM10),61,71,135,3,81,79,,65,65,10,50,6,23,0.4,1.1
2026-02-05T1300,1610A,120.8697,40.7679,葫芦岛市,东城区,颗粒物(PM10),64,78,135,6,79,78,,67,67,5,41,6,20,0.4,0.9
2026-02-05T1300,2483A,109.9297,27.5383,怀化市,河西地税局,颗粒物(PM10),83,116,110,59,60,40,,30,30,27,27,3,2,/,/
2026-02-05T1300,2484A,109.9783,27.5342,怀化市,市四医院,颗粒物(PM10),88,125,118,52,62,14,,6,6,13,19,9,10,0.8,0.9
2026-02-05T1300,2485A,109.9971,27.5579,怀化市,监测楼,细颗粒物(PM2.5),83,101,110,61,71,46,,25,25,14,24,5,6,0.3,0.4
2026-02-05T1300,1210A,119.0566,33.5991,淮安市,钵池山,细颗粒物(PM2.5),142,129,117,108,98,108,,54,54,25,41,11,11,0.8,1
2026-02-05T1300,1211A,119.0083,33.578,淮安市,北京南路,细颗粒物(PM2.5),139,122,115,106,91,109,,37,37,21,58,10,9,0.7,1
2026-02-05T1300,1212A,118.9938,33.6083,淮安市,市监测站,细颗粒物(PM2.5),152,134,112,116,94,101,,40,40,27,51,12,11,0.8,0.8
2026-02-05T1300,1213A,119.135,33.5038,淮安市,楚州区监测站,细颗粒物(PM2.5),145,149,127,111,95,102,,32,32,28,55,12,8,0.9,0.9
2026-02-05T1300,3426A,118.8757,33.2897,淮安市,新华书店,细颗粒物(PM2.5),138,140,124,105,94,92,,41,41,20,44,,10,0.9,0.9
2026-02-05T1300,4092A,119.119691,33.550006,淮安市,枚皋中路89号,细颗粒物(PM2.5),150,146,118,115,95,106,,41,41,23,34,12,9,0.7,0.7
2026-02-05T1300,4206A,119.028838,33.631911,淮安市,承德北路606号,细颗粒物(PM2.5),138,144,138,105,90,114,,44,44,21,60,11,9,0.8,1
2026-02-05T1300,2282A,116.8005,33.9749,淮北市,监测站,细颗粒物(PM2.5),144,167,142,110,95,104,,40,40,18,37,,6,,1.1
2026-02-05T1300,2283A,116.8094,33.9008,淮北市,烈山区政府,细颗粒物(PM2.5),144,137,148,110,101,114,,43,43,16,46,7,6,0.7,0.7
2026-02-05T1300,4017A,116.7926,33.9534,淮北市,市博物馆,细颗粒物(PM2.5),144,157,140,110,104,106,,46,46,18,42,5,5,0.9,0.9
2026-02-05T1300,4100A,116.8322,33.9884,淮北市,杜集区第一实验学校,细颗粒物(PM2.5),172,163,148,130,103,105,,39,39,16,31,6,5,0.8,0.9
2026-02-05T1300,2277A,116.8304,32.7726,淮南市,潘集区政府,细颗粒物(PM2.5),122,130,111,92,63,68,,42,42,,41,8,8,0.7,0.7
2026-02-05T1300,2279A,116.8569,32.5949,淮南市,谢家集区政府,细颗粒物(PM2.5),90,96,71,67,38,102,,90,69,23,19,11,9,0.9,0.8
2026-02-05T1300,2280A,116.8279,32.6333,淮南市,八公山区政府,细颗粒物(PM2.5),105,110,76,79,47,99,,98,88,24,16,7,5,0.8,0.7
2026-02-05T1300,2894A,117.0561,32.6536,淮南市,经济技术开发区消防队,细颗粒物(PM2.5),110,120,88,83,50,87,,28,28,38,53,10,7,0.6,0.6
2026-02-05T1300,3329A,117.011,32.5891,淮南市,山南新区,细颗粒物(PM2.5),89,100,67,66,41,110,,63,59,20,31,11,8,0.7,0.6
2026-02-05T1300,4209A,117.003137,32.644456,淮南市,国庆中路369号,细颗粒物(PM2.5),107,101,77,80,49,87,,32,32,30,42,10,9,0.7,0.7
2026-02-05T1300,2446A,114.9021,30.474,黄冈市,职工中心,细颗粒物(PM2.5),92,83,64,68,48,37,,25,25,28,26,6,5,0.9,0.8
2026-02-05T1300,2929A,114.8858,30.4519,黄冈市,红卫路,,,,64,58,45,53,,34,34,,29,6,6,1.0,0.8
2026-02-05T1300,3398A,114.9134,30.4446,黄冈市,市林业局,细颗粒物(PM2.5),87,88,69,64,52,45,,31,31,23,27,5,4,0.8,0.7
2026-02-05T1300,2672A,102.02,35.5101,黄南藏族自治州,同仁县隆务镇,细颗粒物(PM2.5),63,68,71,45,44,89,,71,68,11,9,11,11,0.6,0.8
2026-02-05T1300,2295A,118.2905,29.6965,黄山市,延安路89号,细颗粒物(PM2.5),82,64,51,60,40,16,,8,8,29,23,5,4,0.7,0.6
2026-02-05T1300,2297A,118.1369,30.2755,黄山市,黄山区政府5号楼,,42,,35,29,26,42,,23,23,12,12,2,3,0.7,0.7
2026-02-05T1300,4210A,118.335445,29.720283,黄山市,滨江东路7-2号,细颗粒物(PM2.5),74,90,74,54,43,10,,8,8,33,26,/,/,/,/
2026-02-05T1300,2423A,115.0547,30.2332,黄石市,沈家营,细颗粒物(PM2.5),75,92,82,55,43,61,,36,36,34,32,7,7,1.2,1.2
2026-02-05T1300,2426A,114.899,30.211,黄石市,铁山,细颗粒物(PM2.5),95,82,77,71,60,54,,11,11,25,35,15,8,1.5,0.9
2026-02-05T1300,2427A,115.0259,30.2108,黄石市,团城山,细颗粒物(PM2.5),82,77,83,60,54,41,,15,15,20,30,6,7,1.0,1
2026-02-05T1300,3149A,115.0174,30.1591,黄石市,笔架山北路,细颗粒物(PM2.5),78,91,102,57,55,52,,32,32,26,29,7,7,1.1,1.2
2026-02-05T1300,4185A,115.078022,30.21118,黄石市,磁湖东路29号,,,,81,47,54,40,,15,15,22,29,7,7,,1.2
2026-02-05T1300,1392A,114.4181,23.0528,惠州市,河南岸金山湖子站,,35,35,58,22,32,104,,61,61,15,24,5,5,0.7,0.8
2026-02-05T1300,1393A,114.4055,23.0824,惠州市,下埔横江三路子站,,48,48,63,26,34,127,,68,68,19,31,7,8,0.5,0.6
2026-02-05T1300,1395A,114.4645,22.7832,惠州市,惠阳区承修路船湖子站,,40,38,49,23,27,126,,64,64,27,29,8,7,0.6,0.6
2026-02-05T1300,1396A,114.5316,22.7423,惠州市,大亚湾管委会子站,,39,32,52,16,27,124,,47,47,27,36,8,7,0.6,0.6
2026-02-05T1300,3314A,114.4334,22.8134,惠州市,惠阳秋长,,44,36,55,17,25,140,,82,82,21,32,/,/,/,/
2026-02-05T1300,3452A,114.6521,22.7755,惠州市,大亚湾霞涌,臭氧1小时(O3_1h),102,86,41,35,21,203,,88,88,34,24,/,/,/,/
2026-02-05T1300,4300A,114.4089,23.1147,惠州市,文华一路1号,,46,46,52,26,29,132,,74,74,22,32,/,/,/,/
2026-02-05T1300,2240A,130.9618,45.2926,鸡西市,环保局,颗粒物(PM10),76,102,63,10,21,71,,66,66,10,12,9,9,0.2,0.3
2026-02-05T1300,2243A,130.9294,45.2959,鸡西市,第一中学,,25,25,44,10,30,70,,64,62,11,19,5,6,0.3,0.5
2026-02-05T1300,3707A,131.0069,45.2988,鸡西市,欧美日汽修厂,颗粒物(PM10),66,82,79,7,35,69,,66,66,4,12,10,12,0.4,0.7
2026-02-05T1300,2367A,114.9753,27.0803,吉安市,红声器材厂,,,101,80,63,58,89,,42,42,,25,12,13,0.8,0.8
2026-02-05T1300,2369A,114.9903,27.1313,吉安市,市环境监测站,细颗粒物(PM2.5),63,72,74,45,61,100,,43,43,19,29,11,12,/,/
2026-02-05T1300,2370A,115.009527,27.096792,吉安市,青原区法院,细颗粒物(PM2.5),75,76,75,55,57,92,,38,38,20,26,13,13,0.8,0.8
2026-02-05T1300,1772A,126.54,43.8622,吉林市,哈达湾,颗粒物(PM10),58,65,103,18,76,82,,69,69,11,34,7,19,0.6,1.3
2026-02-05T1300,1773A,126.5843,43.8358,吉林市,东局子,,29,21,79,20,72,59,,46,46,18,34,6,8,0.9,1.4
2026-02-05T1300,1774A,126.5051,43.8243,吉林市,电力学院,,35,35,84,14,69,78,,63,63,9,34,6,26,0.4,1.1
2026-02-05T1300,1775A,126.6133,43.8971,吉林市,江北,,45,45,83,23,66,61,,51,51,18,30,8,10,0.6,1
2026-02-05T1300,1776A,126.5549,43.8304,吉林市,江南公园,,,30,81,17,68,68,,43,43,12,35,,16,0.4,0.9
2026-02-05T1300,2868A,126.4737,43.953,吉林市,九站,,26,26,78,14,64,67,,53,53,21,36,6,15,0.5,0.9
2026-02-05T1300,1299A,116.9866,36.6118,济南市,科干所,颗粒物(PM10),100,149,142,56,93,71,,80,51,28,30,10,13,0.7,0.9
2026-02-05T1300,1300A,116.9379,36.6652,济南市,农科所,颗粒物(PM10),114,178,164,54,118,70,,50,34,30,54,10,11,0.8,1.1
2026-02-05T1300,1301A,117.1265,36.6736,济南市,开发区,颗粒物(PM10),109,168,143,45,96,81,,86,61,35,43,6,8,0.7,0.9
2026-02-05T1300,1303A,117.0616,36.6865,济南市,省种子仓库,颗粒物(PM10),114,178,160,48,105,71,,27,27,27,57,8,10,0.7,1.1
2026-02-05T1300,1304A,116.9495185,36.644937,济南市,机床二厂,颗粒物(PM10),117,183,163,56,116,74,,49,38,26,52,8,23,0.4,0.8
2026-02-05T1300,1305A,117.0496,36.6629,济南市,市监测站,颗粒物(PM10),112,173,151,52,105,74,,63,37,28,50,7,7,0.8,1.1
2026-02-05T1300,1306A,116.7674,36.5458,济南市,长清党校,颗粒物(PM10),118,186,156,55,103,74,,50,45,39,56,7,7,0.9,1
2026-02-05T1300,1961A,117.5323,36.6865,济南市,东山小学,颗粒物(PM10),107,164,134,45,78,78,,59,58,28,47,7,7,0.6,0.8
2026-02-05T1300,3059A,117.7181,36.205,济南市,泰兴公司,细颗粒物(PM2.5),159,207,179,121,121,99,,37,37,36,58,23,11,1.3,1.5
2026-02-05T1300,3064A,117.6861,36.2172,济南市,莱芜战役纪念馆,细颗粒物(PM2.5),155,185,173,118,121,97,,35,35,36,63,27,15,1.1,1.5
2026-02-05T1300,3494A,117.1673,36.9782,济南市,济阳区政府,颗粒物(PM10),135,220,164,38,111,67,,40,40,23,49,6,10,0.8,1.1
2026-02-05T1300,3495A,117.1168,36.6299,济南市,锦屏中学,颗粒物(PM10),99,147,129,54,92,76,,82,67,27,27,8,7,0.5,0.7
2026-02-05T1300,4108A,117.7107,36.2385,济南市,山财大街5号,细颗粒物(PM2.5),134,175,154,102,105,94,,40,40,57,71,26,13,1.2,1.3
2026-02-05T1300,4109A,116.9744,36.6889,济南市,无影山路12号,颗粒物(PM10),117,183,163,48,114,70,,56,39,22,43,7,15,0.9,1.3
2026-02-05T1300,1653A,116.6229,35.4288,济宁市,火炬城,细颗粒物(PM2.5),182,183,143,137,113,85,,34,34,41,37,7,5,1.0,1
2026-02-05T1300,3500A,116.5808,35.3703,济宁市,北湖一中,细颗粒物(PM2.5),192,187,141,144,119,85,,46,46,50,39,12,8,1.0,0.9
2026-02-05T1300,3501A,116.8251,35.5592,济宁市,服务中心,细颗粒物(PM2.5),178,198,175,134,115,100,,28,28,25,45,8,5,1.0,1
2026-02-05T1300,3678A,116.5907,35.4054,济宁市,市第七中学,细颗粒物(PM2.5),186,171,147,140,119,94,,44,44,38,43,16,14,0.9,1
2026-02-05T1300,4111A,116.6075,35.4566,济宁市,任和路,细颗粒物(PM2.5),178,178,168,134,110,89,,28,28,38,48,12,6,1.0,0.9
2026-02-05T1300,4112A,116.5648,35.3921,济宁市,文体南路1号,细颗粒物(PM2.5),195,204,177,146,126,88,,34,34,39,45,10,7,0.9,1
2026-02-05T1300,2255A,130.2749,46.8028,佳木斯市,佳纺,,26,26,63,6,38,68,,52,52,6,36,5,7,0.4,0.6
2026-02-05T1300,2257A,130.3258,46.7975,佳木斯市,环保局,,,,62,,43,,,43,43,12,39,6,9,0.4,0.6
2026-02-05T1300,4285A,130.363,46.806,佳木斯市,顺和街,,21,20,46,7,36,66,,52,52,8,31,4,7,0.3,0.6
2026-02-05T1300,4286A,130.3952,46.8268,佳木斯市,长安路196号,,23,23,45,8,33,72,,59,59,4,30,4,6,0.5,0.7
2026-02-05T1300,1252A,120.7439,30.778,嘉兴市,清河小学,细颗粒物(PM2.5),98,92,110,73,78,43,,15,15,65,85,6,8,0.2,0.3
2026-02-05T1300,1253A,120.7261,30.7477,嘉兴市,嘉兴学院,,,117,119,71,76,37,,10,10,71,79,,7,0.7,1
2026-02-05T1300,2872A,120.7845,30.7524,嘉兴市,南湖区残联,细颗粒物(PM2.5),107,,95,80,78,38,,24,24,82,79,5,6,0.7,0.7
2026-02-05T1300,3407A,120.6915,30.7741,嘉兴市,秀洲住建,细颗粒物(PM2.5),90,91,105,67,70,45,,17,17,57,76,7,8,0.6,0.7
2026-02-05T1300,1945A,98.291,39.7705,嘉峪关市,气象局,细颗粒物(PM2.5),182,,101,137,41,81,,60,60,6,16,2,10,0.3,0.4
2026-02-05T1300,2884A,98.2672,39.7978,嘉峪关市,酒钢宾馆,颗粒物(PM10),106,161,108,46,37,81,,54,54,6,18,12,20,0.5,0.8
2026-02-05T1300,3248A,98.2644,39.7723,嘉峪关市,雄关区,颗粒物(PM10),83,115,89,42,35,77,,54,54,10,23,9,16,0.5,0.6
2026-02-05T1300,1383A,113.1063,22.6058,江门市,北街,颗粒物(PM10),55,59,50,32,33,131,,76,76,23,21,/,/,/,/
2026-02-05T1300,1384A,113.073,22.5835,江门市,西区,,47,47,50,30,31,135,,76,76,19,26,/,/,/,/
2026-02-05T1300,1385A,113.0218,22.531,江门市,圭峰西,颗粒物(PM10),51,52,42,34,27,128,,71,69,17,18,/,/,/,/
2026-02-05T1300,1386A,113.0826,22.5947,江门市,东湖,,44,44,54,21,31,131,,74,74,16,20,8,8,0.5,0.6
2026-02-05T1300,3311A,113.1077,22.5647,江门市,江海富民,颗粒物(PM10),55,59,76,23,31,129,,75,75,16,26,/,/,0.4,0.6
2026-02-05T1300,3449A,113.0496,22.4669,江门市,新会银湖,,48,48,44,31,29,122,,49,49,20,27,7,6,0.5,0.6
2026-02-05T1300,3335A,113.3137,35.2643,焦作市,马村街道办,颗粒物(PM10),78,105,121,54,66,75,,44,40,24,31,20,12,0.9,1
2026-02-05T1300,3336A,113.2464,35.2374,焦作市,焦作技师学院,颗粒物(PM10),82,114,113,54,64,73,,30,29,28,43,24,12,1.1,1.2
2026-02-05T1300,3477A,113.1656,35.2536,焦作市,中站许衡医院,细颗粒物(PM2.5),73,86,82,53,46,86,,78,70,22,27,16,11,0.9,0.8
2026-02-05T1300,3981A,113.2456,35.18,焦作市,原李万街道办,颗粒物(PM10),79,107,122,56,72,73,,41,40,25,41,17,14,0.9,1
2026-02-05T1300,4264A,113.234,35.219,焦作市,新安路1731号,颗粒物(PM10),81,112,121,52,63,80,,39,34,24,41,21,11,0.9,0.9
2026-02-05T1300,4295A,113.2722,35.2121,焦作市,人民路3066号,颗粒物(PM10),87,124,127,57,80,69,,27,27,29,50,23,11,1.2,1.2
2026-02-05T1300,1708A,116.3701,23.5345,揭阳市,新兴,颗粒物(PM10),73,96,79,46,46,128,,53,53,25,37,8,9,0.9,1
2026-02-05T1300,1709A,116.3261,23.5442,揭阳市,西马,颗粒物(PM10),70,89,86,46,48,155,,61,61,21,33,8,8,0.8,0.9
2026-02-05T1300,1710A,116.361,23.5627,揭阳市,东兴,,,101,81,46,46,154,,61,61,26,36,,12,/,/
2026-02-05T1300,1711A,116.4151,23.5295,揭阳市,渔湖,颗粒物(PM10),73,95,80,47,48,152,,59,59,24,35,8,7,/,/
2026-02-05T1300,3320A,116.4028,23.5699,揭阳市,曲溪,颗粒物(PM10),77,104,77,51,46,161,,70,70,31,34,7,8,1.0,1
2026-02-05T1300,1944A,102.1691,38.5166,金昌市,天庆家园,,46,46,68,22,32,75,,52,52,7,19,5,19,0.3,0.6
2026-02-05T1300,4022A,102.1648,38.5369,金昌市,金川区人防中心,,,52,54,,24,73,,65,59,,13,,15,0.3,0.5
2026-02-05T1300,4239A,102.193042,38.531887,金昌市,长春路96号,,40,40,56,19,25,67,,60,49,6,18,6,14,0.6,0.9
2026-02-05T1300,1262A,119.6478,29.0773,金华市,十五中,细颗粒物(PM2.5),103,118,101,77,62,65,,22,22,56,57,4,3,0.9,1.1
2026-02-05T1300,1263A,119.6859,29.1032,金华市,监测站,细颗粒物(PM2.5),103,122,103,77,59,56,,14,14,60,65,4,4,0.7,0.8
2026-02-05T1300,3659A,119.656,29.1132,金华市,气象局,细颗粒物(PM2.5),109,127,112,82,70,48,,12,12,71,80,7,5,1.1,1.1
2026-02-05T1300,1767A,121.1114,41.0879,锦州市,南山,颗粒物(PM10),67,84,122,7,66,89,,81,81,1,28,6,24,0.4,0.9
2026-02-05T1300,1768A,121.060361,40.842794,锦州市,开发区,,,,177,17,77,76,,65,65,5,33,4,12,,1
2026-02-05T1300,1769A,121.1836,41.1118,锦州市,百股街道,颗粒物(PM10),73,96,154,7,69,85,,79,79,6,31,4,11,0.3,1
2026-02-05T1300,1770A,121.1176,41.1224,锦州市,天安街道,颗粒物(PM10),58,66,130,6,58,92,,85,85,6,26,3,10,0.4,0.8
2026-02-05T1300,1771A,121.1303,41.1385,锦州市,北湖公园,颗粒物(PM10),54,58,118,7,58,87,,81,81,5,22,6,13,0.4,0.7
2026-02-05T1300,2160A,112.8496,35.5051,晋城市,自来水公司,颗粒物(PM10),77,103,107,33,46,72,,51,42,31,33,25,13,2.1,1.4
2026-02-05T1300,2162A,112.8509,35.4886,晋城市,市环保局,,,101,97,49,51,73,,51,39,,25,21,11,2.1,1.2
2026-02-05T1300,3620A,112.8258,35.4804,晋城市,泽州一中,颗粒物(PM10),81,112,109,36,48,89,,65,57,18,21,15,9,1.5,1.3
2026-02-05T1300,4078A,112.8246,35.5152,晋城市,前书院路,颗粒物(PM10),68,86,118,22,44,80,,53,44,22,26,19,11,1.6,1.3
2026-02-05T1300,4079A,112.8864,35.4773,晋城市,祥云街666号,颗粒物(PM10),74,97,105,40,59,77,,57,45,29,29,19,14,1.4,1
2026-02-05T1300,2174A,112.6992,37.6984,晋中市,榆次区政府,颗粒物(PM10),58,66,138,17,66,65,,23,23,21,61,10,26,0.4,1.2
2026-02-05T1300,2865A,112.7195,37.683,晋中市,榆次三中,颗粒物(PM10),60,70,139,14,65,68,,27,27,21,54,10,25,0.4,1.2
2026-02-05T1300,4080A,112.7375,37.7215,晋中市,广安街188号,颗粒物(PM10),54,57,135,20,64,69,,25,25,15,58,12,25,0.2,0.9
2026-02-05T1300,4200A,112.7478,37.6954,晋中市,迎宾街26号,颗粒物(PM10),64,78,138,22,69,67,,31,31,20,52,10,26,0.4,1.1
2026-02-05T1300,2439A,112.2012,31.048,荆门市,竹园小学,细颗粒物(PM2.5),133,150,172,101,121,40,,18,18,32,45,1,1,1.3,1.3
2026-02-05T1300,2440A,112.1968,30.9892,荆门市,掇刀,细颗粒物(PM2.5),127,130,198,96,150,59,,25,25,20,39,6,6,0.9,1.2
2026-02-05T1300,3012A,112.1849,31.0361,荆门市,西山林语,细颗粒物(PM2.5),133,143,160,101,111,35,,35,22,38,41,2,2,1.6,1.4
2026-02-05T1300,3547A,112.1631,31.0134,荆门市,龙泉中学南校,细颗粒物(PM2.5),105,128,187,79,127,57,,37,32,31,37,5,5,0.1,0.2
2026-02-05T1300,4124A,112.2213,31.0654,荆门市,新台西路6号,细颗粒物(PM2.5),183,141,179,138,139,46,,12,12,20,50,9,9,0.9,1.1
2026-02-05T1300,1844A,112.2493,30.3198,荆州市,市图书馆,细颗粒物(PM2.5),231,187,136,181,113,29,,12,12,48,48,7,10,1.4,1.2
2026-02-05T1300,1845A,112.2009,30.3543,荆州市,市委党校,细颗粒物(PM2.5),236,225,173,186,140,22,,8,8,40,51,8,9,1.5,1.4
2026-02-05T1300,3194A,112.2749,30.3124,荆州市,管委会,细颗粒物(PM2.5),241,,137,191,116,19,,6,6,55,49,7,12,1.2,1.1
2026-02-05T1300,4268A,112.1722,30.3366,荆州市,学苑路85号,细颗粒物(PM2.5),249,223,173,199,140,27,,12,12,40,45,10,10,1.0,1
2026-02-05T1300,2343A,117.2114,29.2931,景德镇市,老干部活动中心,,46,46,56,32,35,45,,34,34,10,25,3,4,0.7,0.8
2026-02-05T1300,2344A,117.1893,29.2789,景德镇市,兽医站,颗粒物(PM10),100,149,63,29,37,50,,44,44,15,28,4,4,0.6,0.6
2026-02-05T1300,2346A,117.246,29.2958,景德镇市,陶研所,,40,31,42,28,30,54,,30,30,10,21,3,3,0.7,0.8
2026-02-05T1300,4289A,117.154766,29.256967,景德镇市,青少年活动中心,,47,47,66,31,41,43,,37,37,19,38,4,9,/,/
2026-02-05T1300,1803A,115.9873,29.6816,九江市,十里,细颗粒物(PM2.5),87,81,91,64,58,26,,14,14,44,58,7,7,1.4,1.1
2026-02-05T1300,1804A,115.9583,29.7047,九江市,茅山头,细颗粒物(PM2.5),102,80,95,76,68,11,,6,6,49,56,4,4,1.0,0.8
2026-02-05T1300,1805A,115.9877,29.7295,九江市,西园,细颗粒物(PM2.5),118,103,106,89,72,19,,21,21,61,68,7,8,1.4,1
2026-02-05T1300,1808A,115.9112,29.6038,九江市,综合工业园,细颗粒物(PM2.5),77,87,76,56,49,28,,13,13,49,61,3,4,0.8,0.6
2026-02-05T1300,3190A,116.0254,29.6995,九江市,外国语学校,细颗粒物(PM2.5),118,,88,89,72,21,,16,16,,62,,7,1.0,0.9
2026-02-05T1300,4253A,116.010205,29.659402,九江市,莲花大道8号,细颗粒物(PM2.5),83,70,70,61,49,42,,33,27,32,42,5,4,1.0,0.7
2026-02-05T1300,4240A,98.495752,39.733935,酒泉市,玉门东路5号,颗粒物(PM10),112,173,112,57,55,69,,41,41,11,19,20,15,0.7,0.6
2026-02-05T1300,4241A,98.5099,39.7506,酒泉市,北大街108号,,,,104,,46,44,,37,32,9,17,,15,0.6,0.6
2026-02-05T1300,2698A,76.0071,39.466,喀什地区,巡警大队,颗粒物(PM10),106,162,114,62,49,44,,8,8,39,55,8,8,1.3,2.1
2026-02-05T1300,2699A,75.9756,39.4693,喀什地区,吾办,颗粒物(PM10),104,157,130,72,59,59,,14,14,28,57,9,11,1.1,2.1
2026-02-05T1300,4027A,75.9485,39.4688,喀什地区,老干局,颗粒物(PM10),195,339,133,86,51,39,,7,7,51,46,11,8,2.0,2.4
2026-02-05T1300,1824A,114.3389,34.778,开封市,肿瘤医院,细颗粒物(PM2.5),128,171,150,97,102,72,,31,31,47,61,19,11,1.4,1.1
2026-02-05T1300,1826A,114.2884,34.7966,开封市,世纪星幼儿园,细颗粒物(PM2.5),113,143,138,85,99,73,,31,31,43,56,22,11,1.3,1.1
2026-02-05T1300,3147A,114.3434,34.8101,开封市,龙亭公园,细颗粒物(PM2.5),120,171,149,91,96,72,,29,29,52,63,21,11,1.2,0.9
2026-02-05T1300,3210A,114.3645,34.7955,开封市,汴京公园,细颗粒物(PM2.5),110,167,159,83,94,70,,25,25,47,65,17,7,1.2,0.9
2026-02-05T1300,3473A,114.2485,34.8306,开封市,技师学院,细颗粒物(PM2.5),118,148,122,89,87,76,,28,26,42,50,18,11,1.4,1.2
2026-02-05T1300,3592A,114.4518,34.7503,开封市,祥符区生态环境局,细颗粒物(PM2.5),152,213,182,116,114,60,,22,22,50,71,12,9,1.3,1.2
2026-02-05T1300,1951A,84.886,45.6029,克拉玛依市,长征新村,细颗粒物(PM2.5),125,126,150,95,108,73,,74,72,20,30,4,5,1.1,1.3
2026-02-05T1300,1952A,84.8894,45.5827,克拉玛依市,南林小区,细颗粒物(PM2.5),133,127,151,101,120,78,,74,74,,10,2,2,1.0,1.2
2026-02-05T1300,1954A,84.896,44.3328,克拉玛依市,独山子区,颗粒物(PM10),65,80,38,32,22,54,,78,53,16,14,3,3,0.9,0.6
2026-02-05T1300,1955A,85.6888,46.0909,克拉玛依市,乌尔禾区商贸楼,细颗粒物(PM2.5),99,88,137,74,121,81,,73,73,22,28,6,7,0.9,1.3
2026-02-05T1300,3612A,85.1045,45.6895,克拉玛依市,白碱滩区新站,细颗粒物(PM2.5),67,56,149,48,129,87,,78,78,15,24,8,9,0.8,1.2
2026-02-05T1300,2697A,76.1457,39.7143,克孜勒苏柯尔克孜自治州,市人民政府,,,75,68,,27,59,,73,66,6,10,3,4,0.2,0.2
2026-02-05T1300,3665A,76.1654,39.7157,克孜勒苏柯尔克孜自治州,克州文化中心,颗粒物(PM10),86,122,85,34,34,60,,67,55,16,12,4,4,0.9,0.5
2026-02-05T1300,1450A,102.8203,24.889,昆明市,呈贡新区,,,,40,,29,87,,67,67,8,17,,6,0.1,0.5
2026-02-05T1300,1452A,102.7253,25.0904,昆明市,龙泉镇,,,,37,20,26,87,,65,65,,17,4,4,0.3,0.5
2026-02-05T1300,1453A,102.7267,25.0378,昆明市,东风东路,,28,22,39,14,27,88,,63,63,10,19,10,7,0.4,0.4
2026-02-05T1300,1454A,102.6744,25.0671,昆明市,金鼎山,,28,14,46,8,29,87,,60,60,8,18,4,5,0.5,0.6
2026-02-05T1300,1455A,102.6643,25.0401,昆明市,碧鸡广场,,28,21,42,14,28,89,,56,56,10,27,5,5,0.4,0.5
2026-02-05T1300,3179A,102.7491,25.012,昆明市,官渡区博物馆,,31,31,39,13,28,86,,71,71,12,16,9,5,0.5,0.5
2026-02-05T1300,3375A,102.8016,24.8336,昆明市,青年创业园,,30,19,42,11,27,94,,65,65,4,17,5,9,0.4,0.6
2026-02-05T1300,3550A,102.8,24.9787,昆明市,昆明学院,,30,24,43,8,26,95,,74,70,9,15,4,5,0.5,0.6
2026-02-05T1300,3551A,102.5969,24.6738,昆明市,晋宁区生态环境分局,,29,9,46,8,32,91,,70,70,2,12,1,3,0.3,0.5
2026-02-05T1300,3552A,102.6673,24.9861,昆明市,云天化总部,,28,19,33,10,20,88,,80,79,10,10,10,6,0.4,0.4
2026-02-05T1300,1456A,91.132,29.6515,拉萨市,八廓街,,31,9,13,6,6,98,,94,94,4,5,7,7,0.3,0.3
2026-02-05T1300,1457A,91.1221,29.6748,拉萨市,市环保局,,30,12,17,3,9,94,,87,87,4,9,7,8,0.3,0.4
2026-02-05T1300,1458A,91.0874,29.6476,拉萨市,区监测站,,29,9,12,3,7,92,,88,86,4,7,4,4,0.8,0.8
2026-02-05T1300,1459A,91.1774,29.6541,拉萨市,西藏大学,,28,6,13,6,7,88,,85,85,6,9,3,4,0.1,0.3
2026-02-05T1300,1460A,90.9798,29.6586,拉萨市,区辐射站,,29,9,22,7,11,90,,85,80,4,14,3,4,0.2,0.3
2026-02-05T1300,1461A,91.0831,29.6292,拉萨市,拉萨火车站,,29,7,11,3,6,92,,88,88,3,3,4,4,0.3,0.3
2026-02-05T1300,2520A,109.2203,23.7252,来宾市,来宾技工学校,,,136,178,72,184,64,,15,15,18,38,8,12,,1.5
2026-02-05T1300,3535A,109.1781,23.7293,来宾市,兴宾区政府,细颗粒物(PM2.5),155,154,183,118,157,50,,19,19,41,39,20,8,1.4,1.4
2026-02-05T1300,4002A,109.2312,23.7428,来宾市,中南小学,细颗粒物(PM2.5),100,79,184,75,189,68,,16,16,15,39,6,5,1.0,1.6
2026-02-05T1300,1479A,103.8309,36.0467,兰州市,铁路设计院,,,,,,,,,,,,,,,,
2026-02-05T1300,3241A,103.7439,36.0841,兰州市,百合公园,细颗粒物(PM2.5),88,91,102,65,68,54,,20,20,56,65,39,16,1.5,1.5
2026-02-05T1300,3242A,103.9613,35.9985,兰州市,和平,颗粒物(PM10),79,108,85,51,45,60,,43,33,36,34,44,17,1.8,1.3
2026-02-05T1300,4236A,103.629272,36.093822,兰州市,庄浪东路808号,细颗粒物(PM2.5),79,86,104,58,59,73,,28,28,33,60,64,24,1.1,1.2
2026-02-05T1300,4237A,103.7251,36.104344,兰州市,安宁西路88号,细颗粒物(PM2.5),92,118,114,68,60,67,,22,22,53,66,56,18,1.4,1.1
2026-02-05T1300,4238A,103.846982,36.067567,兰州市,北滨河东路1号,,,,108,,59,44,,11,11,70,75,,15,,1.5
2026-02-05T1300,1067A,116.6712,39.5109,廊坊市,药材公司,,50,50,132,3,68,82,,62,62,8,40,3,4,0.3,0.7
2026-02-05T1300,1068A,116.7215,39.5592,廊坊市,开发区,,48,48,140,3,78,81,,62,62,6,43,3,5,0.3,0.8
2026-02-05T1300,1070A,116.7246,39.5273,廊坊市,北华航天学院,颗粒物(PM10),54,57,134,3,77,83,,63,63,8,41,2,7,0.2,0.7
2026-02-05T1300,2919A,116.7022,39.5454,廊坊市,河北工业大学,颗粒物(PM10),58,66,143,3,77,78,,60,60,1,41,3,5,0.2,0.7
2026-02-05T1300,2536A,103.7629,29.5844,乐山市,牛耳桥,细颗粒物(PM2.5),132,127,137,100,103,54,,18,18,25,35,6,6,1.0,1
2026-02-05T1300,2537A,103.7501,29.6002,乐山市,市第三水厂,细颗粒物(PM2.5),135,126,131,103,94,56,,14,14,31,42,4,4,1.1,1.1
2026-02-05T1300,2538A,103.7571,29.5664,乐山市,市监测站,细颗粒物(PM2.5),122,115,123,92,93,50,,15,15,23,30,,6,1.1,1.1
2026-02-05T1300,3361A,103.7313,29.563,乐山市,理工大学,细颗粒物(PM2.5),147,,105,112,92,33,,11,11,39,30,3,3,1.3,1.1
2026-02-05T1300,2599A,100.2497,26.8802,丽江市,丽江古城,,28,20,20,3,6,88,,76,76,6,9,5,6,0.4,0.3
2026-02-05T1300,2600A,100.2203,26.8906,丽江市,市中心,,28,19,12,3,8,88,,79,79,8,9,5,5,0.3,0.3
2026-02-05T1300,1267A,119.9141,28.4513,丽水市,监测站大楼,,,49,60,32,39,86,,1,,,38,6,6,0.6,0.9
2026-02-05T1300,1268A,119.93,28.4589,丽水市,莲都小学,细颗粒物(PM2.5),53,54,67,37,36,83,,23,23,19,43,/,/,/,/
2026-02-05T1300,1269A,119.8794,28.4232,丽水市,余庄前,,48,48,49,30,32,72,,18,18,23,27,6,5,0.5,0.5
2026-02-05T1300,1173A,119.1759,34.5885,连云港市,市环境监测站,细颗粒物(PM2.5),156,151,123,119,93,124,,36,36,27,42,20,14,0.9,0.7
2026-02-05T1300,3000A,119.3577,34.6971,连云港市,德源药业,细颗粒物(PM2.5),147,163,144,112,92,118,,31,31,25,62,11,8,1.0,0.8
2026-02-05T1300,3007A,119.178,34.8442,连云港市,新城一中,细颗粒物(PM2.5),202,180,133,152,104,87,,35,35,65,68,22,15,1.4,1.1
2026-02-05T1300,3008A,119.3607,34.7519,连云港市,胡沟管理处,细颗粒物(PM2.5),170,175,135,129,94,85,,58,58,44,59,20,16,1.1,0.9
2026-02-05T1300,3009A,119.1478,34.5913,连云港市,矿山设计院,细颗粒物(PM2.5),153,168,139,117,97,101,,28,27,37,44,17,12,1.2,1
2026-02-05T1300,3434A,119.2414,34.6539,连云港市,工贸学校,细颗粒物(PM2.5),189,175,121,142,91,80,,61,45,62,40,19,14,1.0,0.8
2026-02-05T1300,3664A,119.4171,34.734,连云港市,连云街道,细颗粒物(PM2.5),180,189,133,136,92,55,,83,54,77,39,16,11,1.2,1
2026-02-05T1300,2573A,102.2629,27.8981,凉山彝族自治州,西昌市政府,,26,23,28,12,13,81,,69,69,5,9,9,14,0.4,0.7
2026-02-05T1300,2574A,102.2686,27.885,凉山彝族自治州,凉山州政府,,24,24,31,8,10,76,,63,63,4,9,11,15,0.5,0.6
2026-02-05T1300,4229A,102.2342,27.8859,凉山彝族自治州,凯乐南路30号,,27,27,34,8,9,77,,66,66,10,9,13,15,0.5,1
2026-02-05T1300,2212A,123.1978,41.2036,辽阳市,宏伟区,颗粒物(PM10),194,338,164,7,98,71,,60,60,4,33,5,10,0.4,1.2
2026-02-05T1300,2213A,123.1684,41.2497,辽阳市,新华园,颗粒物(PM10),210,357,170,9,98,76,,63,63,6,42,3,7,0.3,0.9
2026-02-05T1300,2214A,123.2355,41.2663,辽阳市,滨河路,颗粒物(PM10),189,328,157,8,90,75,,60,60,4,40,3,8,0.4,1.1
2026-02-05T1300,4083A,123.153,41.2874,辽阳市,铁西路150号,颗粒物(PM10),223,366,162,8,91,69,,57,57,5,39,6,11,0.3,1
2026-02-05T1300,2227A,125.1359,42.8845,辽源市,环保局,颗粒物(PM10),92,133,123,3,103,75,,56,56,8,38,2,4,0.4,1.4
2026-02-05T1300,4085A,125.0998,42.9134,辽源市,安宁大街333号,颗粒物(PM10),199,348,145,3,106,82,,61,61,7,30,3,5,0.3,1
2026-02-05T1300,1625A,115.9789,36.4372,聊城市,区政府,颗粒物(PM10),115,179,192,50,132,79,,39,39,23,56,21,17,0.9,1.5
2026-02-05T1300,3200A,115.9772,36.4986,聊城市,监控中心,颗粒物(PM10),118,185,196,44,133,79,,35,35,21,66,10,10,0.8,1.4
2026-02-05T1300,3513A,116.0443,36.436,聊城市,九州社区,颗粒物(PM10),116,181,185,50,133,94,,58,58,6,33,8,9,0.5,1
2026-02-05T1300,4018A,116.0564,36.4609,聊城市,星美广场,颗粒物(PM10),127,204,206,51,143,82,,46,46,14,42,8,10,0.7,1.3
2026-02-05T1300,4113A,116.0091,36.4495,聊城市,利民路,颗粒物(PM10),109,167,187,50,126,78,,40,40,25,51,19,14,0.9,1.4
2026-02-05T1300,2632A,94.3683,29.6373,林芝市,林芝监测站,,,7,22,3,10,92,,94,92,,1,,5,0.4,0.4
2026-02-05T1300,2633A,94.3616,29.6634,林芝市,林芝人民医院,,29,14,27,13,13,91,,92,90,2,1,6,6,0.4,0.3
2026-02-05T1300,2603A,100.0779,23.8981,临沧市,市环保局,,,66,36,3,24,86,,46,44,8,12,6,8,,0.6
2026-02-05T1300,2604A,100.0894,23.882,临沧市,市气象局,,48,48,46,17,28,74,,39,39,12,12,11,11,0.5,0.5
2026-02-05T1300,1733A,111.5552,36.0791,临汾市,临钢医院,细颗粒物(PM2.5),140,187,173,107,99,56,,25,25,40,45,19,12,1.8,1.9
2026-02-05T1300,1734A,111.4984,36.0734,临汾市,技工学校,细颗粒物(PM2.5),139,152,155,106,108,63,,26,26,47,50,25,15,1.6,1.7
2026-02-05T1300,1736A,111.5017,36.0857,临汾市,市委,细颗粒物(PM2.5),139,164,166,106,101,59,,23,23,40,49,26,15,1.6,1.5
2026-02-05T1300,3018A,111.5048,36.1015,临汾市,唐尧大酒店,细颗粒物(PM2.5),127,187,167,96,92,55,,22,22,46,52,26,12,1.6,2
2026-02-05T1300,4244A,111.4879,36.053,临汾市,启星学校,细颗粒物(PM2.5),125,146,157,95,101,65,,21,21,38,58,29,13,1.7,1.8
2026-02-05T1300,4271A,103.2464,35.6123,临夏回族自治州,滨河东路1号,颗粒物(PM10),117,183,193,67,106,75,,26,26,16,38,18,10,0.8,1.7
2026-02-05T1300,4310A,103.207136,35.599807,临夏回族自治州,新华街21号,细颗粒物(PM2.5),99,133,178,74,112,76,,29,29,21,37,16,12,1.0,1.6
2026-02-05T1300,1618A,118.3429,35.0532,临沂市,沂河小区,细颗粒物(PM2.5),178,185,150,134,100,80,,37,37,46,54,17,16,1.0,0.9
2026-02-05T1300,1619A,118.2962,35.0568,临沂市,鲁南制药厂,细颗粒物(PM2.5),176,168,160,133,110,86,,26,26,48,78,19,24,0.9,1.1
2026-02-05T1300,1620A,118.2793,34.9976,临沂市,新光毛纺厂,细颗粒物(PM2.5),172,171,149,130,110,89,,25,25,48,67,22,20,1.1,1.1
2026-02-05T1300,1621A,118.3955,35.0889,临沂市,河东保险公司,细颗粒物(PM2.5),208,188,142,158,104,68,,28,28,67,60,22,14,1.2,1.2
2026-02-05T1300,3370A,118.3563,35.0215,临沂市,十里堡居委,细颗粒物(PM2.5),196,180,153,147,107,81,,30,30,57,70,19,24,1.2,1.2
2026-02-05T1300,3496A,118.359,35.1067,临沂市,南坊新区,细颗粒物(PM2.5),170,163,133,129,98,88,,46,46,51,54,16,13,1.1,1
2026-02-05T1300,3860A,118.3915,35.0297,临沂市,皇山花园小区,细颗粒物(PM2.5),206,171,150,156,119,81,,27,27,56,63,22,22,1.3,1.2
2026-02-05T1300,1870A,109.4854,24.3898,柳州市,柳东小学,细颗粒物(PM2.5),123,93,110,93,109,29,,16,14,28,24,8,8,1.0,1.1
2026-02-05T1300,1871A,109.4109,24.3304,柳州市,环保监测站,细颗粒物(PM2.5),204,,159,154,157,43,,10,10,59,53,,7,2.1,2.1
2026-02-05T1300,1872A,109.3886,24.3408,柳州市,河西水厂,细颗粒物(PM2.5),203,181,184,153,182,51,,9,9,,47,10,9,,1.6
2026-02-05T1300,1873A,109.4263,24.2951,柳州市,市四中,细颗粒物(PM2.5),186,197,182,140,171,52,,11,11,40,51,10,8,1.4,1.9
2026-02-05T1300,1874A,109.396,24.3658,柳州市,市九中,颗粒物(PM10),325,440,247,158,161,45,,10,10,53,45,16,12,1.8,1.8
2026-02-05T1300,1875A,109.4912,24.3164,柳州市,古亭山,细颗粒物(PM2.5),200,161,129,150,139,46,,10,10,57,46,12,7,1.2,1.1
2026-02-05T1300,3402A,109.5422,24.3994,柳州市,市二中,细颗粒物(PM2.5),130,114,112,99,113,57,,17,17,40,34,14,10,1.1,1.1
2026-02-05T1300,2307A,116.5078,31.7369,六安市,监测大楼,细颗粒物(PM2.5),75,70,63,55,42,79,,46,42,17,29,5,4,0.7,0.5
2026-02-05T1300,2308A,116.4738,31.7642,六安市,皖西学院,细颗粒物(PM2.5),79,98,72,58,41,81,,41,41,16,28,6,5,0.7,0.5
2026-02-05T1300,2309A,116.4997,31.7904,六安市,朝阳厂,,,82,63,71,42,77,,52,52,,29,6,6,0.7,0.6
2026-02-05T1300,2310A,116.5566,31.7885,六安市,开发区,细颗粒物(PM2.5),82,80,71,60,41,83,,54,49,15,30,7,5,0.7,0.6
2026-02-05T1300,2577A,104.8293,26.592,六盘水市,黄土坡,,48,48,58,33,42,59,,34,34,16,25,13,14,1.0,1.1
2026-02-05T1300,2579A,104.8481,26.5898,六盘水市,民中,,48,43,57,33,43,58,,31,31,11,21,8,8,0.7,1
2026-02-05T1300,2580A,104.9541,26.5506,六盘水市,双水,,38,36,49,26,34,53,,34,31,10,15,5,6,0.6,0.7
2026-02-05T1300,4151A,104.8899,26.5685,六盘水市,钟山大道中段564号,,43,43,60,26,35,54,,33,33,8,14,7,10,1.0,1.2
2026-02-05T1300,2336A,117.022,25.1031,龙岩市,龙岩市监测站,,33,29,29,11,17,105,,47,47,4,23,6,14,0.5,0.7
2026-02-05T1300,2337A,117.0257,25.0662,龙岩市,闽西职业技术学院,,34,28,34,9,17,106,,53,53,4,19,5,6,0.4,0.6
2026-02-05T1300,2338A,117.0195,25.0306,龙岩市,龙岩学院,,33,22,28,9,16,104,,55,55,4,13,4,4,/,/
2026-02-05T1300,2885A,104.9344,33.3827,陇南市,滨江中学,细颗粒物(PM2.5),130,,84,99,45,51,,31,31,24,36,13,10,0.8,1.5
2026-02-05T1300,3247A,104.9551,33.3709,陇南市,市总工会,颗粒物(PM10),60,70,68,33,33,54,,33,33,19,28,11,5,0.9,1
2026-02-05T1300,2488A,111.9984,27.7346,娄底市,市监测站,细颗粒物(PM2.5),158,158,135,120,102,34,,21,20,39,34,8,11,1.3,1.2
2026-02-05T1300,2491A,111.9888,27.7035,娄底市,市政府,细颗粒物(PM2.5),137,154,134,104,97,30,,19,16,42,36,6,7,0.9,1
2026-02-05T1300,4127A,111.9812,27.7591,娄底市,涟钢职大,细颗粒物(PM2.5),133,146,129,101,88,32,,21,17,34,34,12,10,1.4,1.4
2026-02-05T1300,4128A,112.0303,27.7457,娄底市,娄底体校,细颗粒物(PM2.5),142,133,134,108,102,29,,13,13,28,30,3,3,0.6,0.8
2026-02-05T1300,1894A,105.4427,28.9063,泸州市,小市上码头,细颗粒物(PM2.5),122,113,105,92,85,72,,32,32,21,30,8,6,1.2,1.3
2026-02-05T1300,1895A,105.4241,28.8573,泸州市,兰田宪桥,细颗粒物(PM2.5),102,113,107,76,70,75,,36,36,26,25,10,8,1.0,1
2026-02-05T1300,1896A,105.4378,28.8833,泸州市,市环监站,细颗粒物(PM2.5),132,124,119,100,88,68,,32,32,32,34,13,10,1.1,1
2026-02-05T1300,4272A,105.3689,28.7783,泸州市,纳溪中医医院,细颗粒物(PM2.5),119,99,88,90,79,80,,24,24,16,24,9,8,1.1,1.1
2026-02-05T1300,2183A,111.1447,37.5212,吕梁市,环保局,颗粒物(PM10),92,134,114,51,46,27,,11,11,61,63,20,10,1.6,0.8
2026-02-05T1300,2185A,111.1285,37.5338,吕梁市,自来水公司,颗粒物(PM10),93,136,132,44,53,28,,12,12,53,49,17,15,1.1,0.8
2026-02-05T1300,2867A,111.1225,37.5093,吕梁市,马茂庄小学,颗粒物(PM10),99,148,133,61,52,27,,11,11,59,63,17,15,1.0,0.7
2026-02-05T1300,1812A,112.3934,34.6517,洛阳市,市委党校,细颗粒物(PM2.5),108,137,121,81,77,65,,28,27,49,44,17,11,1.2,1.1
2026-02-05T1300,1815A,112.494,34.6883,洛阳市,河南林校,细颗粒物(PM2.5),102,126,133,76,80,57,,23,23,52,61,23,15,1.1,1.1
2026-02-05T1300,1816A,112.3843,34.623,洛阳市,开发区管委会,细颗粒物(PM2.5),114,153,135,86,68,68,,41,38,50,31,20,12,1.1,0.8
2026-02-05T1300,1817A,112.4263,34.6249,洛阳市,市委新办公区,细颗粒物(PM2.5),105,137,131,79,72,68,,44,42,44,33,18,11,1.0,0.8
2026-02-05T1300,3340A,112.6005,34.6323,洛阳市,伊滨,,,124,132,,66,77,,45,45,31,36,15,10,0.8,0.8
2026-02-05T1300,3341A,112.495,34.6338,洛阳市,中移产业园,细颗粒物(PM2.5),95,106,115,71,74,73,,41,38,34,36,17,11,1.0,0.9
2026-02-05T1300,3593A,112.5736,34.8993,洛阳市,吉利监测站,细颗粒物(PM2.5),87,108,104,64,59,67,,51,51,51,40,15,12,1.0,0.9
2026-02-05T1300,3635A,112.3678,34.6623,洛阳市,河科大西苑校区,细颗粒物(PM2.5),109,128,126,82,77,59,,29,26,55,42,20,14,1.1,1
2026-02-05T1300,3636A,112.4387,34.678,洛阳市,英才小学,细颗粒物(PM2.5),103,135,151,77,83,66,,26,26,50,58,18,17,1.2,1.2
2026-02-05T1300,4214A,112.460027,34.694929,洛阳市,春都路1号院,细颗粒物(PM2.5),114,167,158,86,80,51,,23,23,52,50,17,15,1.2,1
2026-02-05T1300,2399A,114.051,33.5721,漯河市,三五一五工厂,颗粒物(PM10),107,164,160,73,93,77,,54,54,26,34,11,6,1.0,1
2026-02-05T1300,2400A,114.0055,33.5698,漯河市,漯河大学,细颗粒物(PM2.5),92,128,129,68,88,81,,54,54,22,28,12,7,1.0,0.9
2026-02-05T1300,2401A,114.0134,33.5826,漯河市,市水利局,细颗粒物(PM2.5),103,144,141,77,92,62,,42,42,30,34,10,6,0.9,0.9
2026-02-05T1300,2402A,114.0261,33.5697,漯河市,市广电局,细颗粒物(PM2.5),99,142,138,74,94,74,,54,54,20,25,12,7,0.7,0.7
2026-02-05T1300,3478A,113.9691,33.568,漯河市,市图书馆,颗粒物(PM10),103,155,149,73,92,79,,54,53,23,25,13,7,1.1,1
2026-02-05T1300,4250A,114.089259,33.588274,漯河市,韶山路11号,,,145,143,70,87,75,,53,49,,32,13,7,,0.8
2026-02-05T1300,1798A,118.5084,31.6838,马鞍山市,湖东路四小,细颗粒物(PM2.5),85,109,93,63,63,54,,14,14,47,61,13,9,0.8,0.9
2026-02-05T1300,1799A,118.5019,31.6449,马鞍山市,开发区,细颗粒物(PM2.5),107,110,96,80,60,32,,11,11,67,64,22,8,1.2,0.8
2026-02-05T1300,3633A,118.4914,31.681,马鞍山市,雨山,细颗粒物(PM2.5),94,122,96,70,59,36,,11,11,67,61,21,11,1.5,1
2026-02-05T1300,4191A,118.527362,31.722269,马鞍山市,慈湖高新区,细颗粒物(PM2.5),78,91,106,57,59,68,,19,19,38,61,8,8,0.5,0.8
2026-02-05T1300,1686A,111.0285,21.469,茂名市,电白南海,,39,39,51,14,22,97,,82,82,11,13,10,9,1.1,1.1
2026-02-05T1300,1687A,110.9294,21.6533,茂名市,茂石化七小,,36,36,49,11,22,93,,72,70,9,10,6,6,0.4,0.5
2026-02-05T1300,1688A,110.9108,21.6688,茂名市,健康路,,33,27,42,10,21,103,,85,82,9,13,4,5,0.5,0.6
2026-02-05T1300,1689A,110.8592,21.6826,茂名市,高岭,颗粒物(PM10),56,61,62,14,24,96,,77,76,4,12,2,4,/,/
2026-02-05T1300,3450A,111.0101,21.5165,茂名市,电白水东,,,31,47,10,23,94,,75,75,,20,8,9,/,/
2026-02-05T1300,2540A,103.8414,30.0871,眉山市,气象局,细颗粒物(PM2.5),128,109,111,97,78,77,,20,20,28,31,15,13,1.1,1.1
2026-02-05T1300,3148A,103.829,30.0563,眉山市,区人社局,细颗粒物(PM2.5),143,141,116,109,103,66,,19,19,28,39,13,12,1.2,1.1
2026-02-05T1300,4148A,103.8836,30.0695,眉山市,眉职院,细颗粒物(PM2.5),109,127,115,82,80,82,,21,21,16,29,8,5,1.0,1
2026-02-05T1300,1690A,116.1248,24.3307,梅州市,梅江月梅,,,62,50,32,32,104,,34,34,,34,/,/,/,/
2026-02-05T1300,1691A,116.0798,24.2719,梅州市,梅县新城,颗粒物(PM10),52,54,48,28,31,98,,30,30,24,38,8,8,0.7,0.7
2026-02-05T1300,3315A,116.1234,24.2994,梅州市,梅龙,颗粒物(PM10),51,51,54,33,32,100,,39,39,24,34,8,9,0.8,0.9
2026-02-05T1300,1878A,104.7775,31.4741,绵阳市,富乐山,细颗粒物(PM2.5),100,94,88,75,63,61,,26,26,21,20,9,8,0.9,0.9
2026-02-05T1300,1880A,104.6698,31.4668,绵阳市,高新区自来水公司,细颗粒物(PM2.5),110,134,126,83,76,66,,12,12,27,47,,10,1.1,1.2
2026-02-05T1300,3491A,104.6899,31.5324,绵阳市,西科大附属小学,细颗粒物(PM2.5),124,146,116,94,70,70,,15,15,25,46,10,9,0.8,0.9
2026-02-05T1300,3492A,104.5647,31.5343,绵阳市,安州区旅游局,细颗粒物(PM2.5),107,96,105,80,69,57,,16,16,31,32,13,11,1.0,1.1
2026-02-05T1300,4146A,104.7092,31.4972,绵阳市,科技城新区公安局,细颗粒物(PM2.5),112,118,107,84,65,68,,19,19,34,49,5,6,1.0,1
2026-02-05T1300,4226A,104.765114,31.453094,绵阳市,绵阳市气象局,细颗粒物(PM2.5),119,103,99,90,70,66,,15,15,19,32,10,9,1.0,1
2026-02-05T1300,1784A,129.61,44.561,牡丹江市,环保大楼,,43,43,66,15,48,87,,70,70,9,28,3,7,0.3,0.6
2026-02-05T1300,1787A,129.6364,44.6075,牡丹江市,机车工厂,,49,49,69,29,47,71,,63,63,15,27,10,11,0.4,0.6
2026-02-05T1300,1788A,129.6386,44.5462,牡丹江市,第一中学,,28,27,59,19,50,79,,62,62,10,31,6,8,0.4,0.6
2026-02-05T1300,4287A,129.5992,44.5964,牡丹江市,东晓云街98号,,34,34,64,14,46,82,,70,70,7,24,5,10,0.2,0.4
2026-02-05T1300,2531A,105.0703,29.61,内江市,市监测站,细颗粒物(PM2.5),107,,81,80,69,95,,39,39,19,29,7,6,1.0,1.1
2026-02-05T1300,2533A,105.0657,29.5807,内江市,内江二中,细颗粒物(PM2.5),102,76,84,76,66,81,,24,24,25,37,8,7,0.8,0.8
2026-02-05T1300,2534A,105.0407,29.5828,内江市,内江日报社,细颗粒物(PM2.5),92,,73,68,66,96,,27,27,19,37,8,7,0.6,0.8
2026-02-05T1300,4147A,105.0433,29.6105,内江市,玉峰路西段888号,细颗粒物(PM2.5),97,,78,72,66,82,,29,29,25,32,7,5,0.7,0.7
2026-02-05T1300,2628A,92.0653,31.4846,那曲市,那曲监测站,,36,36,32,19,21,82,,70,68,2,2,5,6,0.7,0.8
2026-02-05T1300,4243A,92.0515,31.4787,那曲市,那曲市委宣传部,,29,21,23,18,13,91,,79,74,1,5,4,5,0.4,0.5
2026-02-05T1300,1291A,115.8887,28.7006,南昌市,省林业公司,,,56,74,43,53,51,,33,33,,46,4,6,0.7,0.7
2026-02-05T1300,1292A,115.813,28.7443,南昌市,林科所,细颗粒物(PM2.5),73,80,76,53,49,26,,30,12,49,40,9,10,0.3,0.5
2026-02-05T1300,1294A,115.8518,28.687,南昌市,建工学校,细颗粒物(PM2.5),63,70,88,45,49,39,,30,30,44,41,9,11,0.8,0.8
2026-02-05T1300,1295A,115.8926,28.6425,南昌市,象湖,细颗粒物(PM2.5),68,76,78,49,56,55,,37,37,26,34,9,10,0.9,0.9
2026-02-05T1300,3046A,115.9084,28.6062,南昌市,机电学校,颗粒物(PM10),70,89,91,47,52,51,,36,36,38,46,6,8,0.7,0.7
2026-02-05T1300,3690A,115.9718,28.7032,南昌市,外国语学校,细颗粒物(PM2.5),74,78,84,54,55,41,,31,31,37,41,15,15,0.8,0.8
2026-02-05T1300,4106A,115.7923,28.6873,南昌市,工业二路,细颗粒物(PM2.5),84,113,92,62,54,32,,29,18,55,45,5,6,0.9,0.8
2026-02-05T1300,4192A,115.931587,28.686774,南昌市,南京东路235号,细颗粒物(PM2.5),67,76,88,48,57,49,,36,36,27,37,9,10,0.5,0.6
2026-02-05T1300,1906A,106.0791,30.8022,南充市,南充市委,细颗粒物(PM2.5),109,111,90,82,67,18,,7,7,29,28,5,5,0.9,0.8
2026-02-05T1300,1907A,106.1038,30.8215,南充市,南充炼油厂,细颗粒物(PM2.5),112,118,101,84,67,23,,6,6,23,29,7,7,0.9,0.8
2026-02-05T1300,4227A,106.108336,30.788436,南充市,梨树横街98号,细颗粒物(PM2.5),128,128,98,97,73,19,,8,8,33,33,7,7,1.0,0.8
2026-02-05T1300,4304A,106.1172,30.843,南充市,清泉寺北路188号,细颗粒物(PM2.5),114,94,84,86,67,28,,16,12,15,19,4,4,0.8,0.7
2026-02-05T1300,4305A,106.067,30.7616,南充市,同庆路1号,细颗粒物(PM2.5),109,103,84,82,66,20,,6,6,31,40,7,7,0.9,0.8
2026-02-05T1300,1151A,118.8033,32.1085,南京市,迈皋桥,细颗粒物(PM2.5),77,89,72,56,47,99,,26,26,53,62,15,8,0.5,0.5
2026-02-05T1300,1152A,118.7487,32.057,南京市,草场门,细颗粒物(PM2.5),89,107,77,66,47,52,,23,23,67,81,6,5,1.5,1.2
2026-02-05T1300,1154A,118.770105,32.004342,南京市,中华门,细颗粒物(PM2.5),80,100,78,59,44,81,,24,24,51,58,8,5,1.1,1
2026-02-05T1300,1155A,118.8059,32.0329,南京市,瑞金路,细颗粒物(PM2.5),100,105,83,75,53,86,,29,29,64,59,5,4,0.7,0.6
2026-02-05T1300,1156A,118.7946,32.0774,南京市,玄武湖,细颗粒物(PM2.5),78,90,71,57,44,96,,21,21,56,65,18,5,1.1,1
2026-02-05T1300,1157A,118.6415,32.0964,南京市,浦口,,,84,70,45,40,108,,62,62,22,32,6,5,,0.4
2026-02-05T1300,1158A,118.730129,32.000956,南京市,奥体中心,细颗粒物(PM2.5),75,92,86,55,49,89,,28,28,35,66,13,8,0.8,1
2026-02-05T1300,1159A,118.9072,32.1047,南京市,仙林大学城,细颗粒物(PM2.5),77,88,80,56,45,87,,21,21,38,64,10,8,0.7,0.9
2026-02-05T1300,3422A,118.8443,31.919,南京市,江宁彩虹桥,颗粒物(PM10),72,94,82,45,43,89,,25,25,45,72,8,5,1.3,1.2
2026-02-05T1300,3427A,118.8497,32.3599,南京市,六合雄州,,,123,102,64,55,75,,18,18,23,57,,11,,0.9
2026-02-05T1300,4086A,118.7641,32.0841,南京市,新模范马路66号,,,,87,72,47,105,,31,31,68,73,,4,1.4,1.2
2026-02-05T1300,4249A,118.8707617,31.34017673,南京市,汶溪路181号,细颗粒物(PM2.5),98,73,84,73,51,37,,39,34,34,39,8,9,1.3,1
2026-02-05T1300,4312A,119.019,31.6512,南京市,中山西路1号,,,,68,59,46,59,,27,25,,35,4,4,1.1,1.1
2026-02-05T1300,1401A,108.3098,22.788,南宁市,二十一中,颗粒物(PM10),51,51,44,35,38,53,,44,40,22,23,4,4,0.6,0.6
2026-02-05T1300,1402A,108.3135,22.8529,南宁市,北湖,细颗粒物(PM2.5),68,,54,49,47,53,,29,25,24,34,4,8,0.7,0.8
2026-02-05T1300,1403A,108.3205,22.8222,南宁市,市监测站,细颗粒物(PM2.5),58,54,44,41,38,50,,43,32,27,27,7,6,0.9,0.9
2026-02-05T1300,1404A,108.3828,22.8038,南宁市,大自然花园,,47,47,54,30,36,78,,66,61,12,15,6,5,0.6,0.7
2026-02-05T1300,1406A,108.2397,22.8462,南宁市,区农职院,颗粒物(PM10),66,81,59,35,40,52,,27,,28,39,5,4,1.2,1.2
2026-02-05T1300,1407A,108.3285,22.7356,南宁市,英华嘉园,,49,49,48,29,35,67,,42,41,20,29,4,5,0.6,0.6
2026-02-05T1300,3401A,108.4829,22.762,南宁市,红星社区,,42,41,50,29,39,74,,51,43,10,19,4,4,0.9,1
2026-02-05T1300,4132A,108.2927,23.1477,南宁市,起凤路9号,细颗粒物(PM2.5),52,45,52,36,41,80,,57,57,11,20,3,2,0.6,0.6
2026-02-05T1300,4221A,108.2177,22.7774,南宁市,乐贤路16号,,39,36,46,27,32,72,,39,39,12,33,3,3,0.9,0.9
2026-02-05T1300,2332A,118.1682,26.6371,南平市,南平市监测站,,,25,53,16,35,105,,39,39,10,28,,5,0.5,1
2026-02-05T1300,2334A,118.1757,26.6276,南平市,南平七中,,48,48,52,12,31,108,,39,39,7,27,4,4,0.5,0.8
2026-02-05T1300,1168A,120.9056,31.9669,南通市,狼山街道,细颗粒物(PM2.5),107,117,99,80,65,40,,13,13,80,75,10,6,1.0,0.9
2026-02-05T1300,1170A,120.8635,32.0231,南通市,城中,细颗粒物(PM2.5),117,120,120,88,75,30,,9,9,79,88,10,9,1.1,1.2
2026-02-05T1300,1171A,120.9376,31.9301,南通市,星湖花园,细颗粒物(PM2.5),102,114,103,76,63,50,,20,20,75,86,13,9,1.2,1
2026-02-05T1300,1172A,120.8053,32.046,南通市,紫琅学院,细颗粒物(PM2.5),125,142,126,95,76,25,,6,6,95,91,12,9,1.3,1.2
2026-02-05T1300,3291A,121.0631,32.0644,南通市,通州监测站,细颗粒物(PM2.5),127,122,111,96,73,47,,13,13,78,88,12,7,1.2,1.2
2026-02-05T1300,3432A,120.9348,31.9874,南通市,环境教育馆,细颗粒物(PM2.5),127,124,105,96,66,34,,8,8,89,87,12,9,1.2,1.2
2026-02-05T1300,4091A,120.8692,31.9885,南通市,洪江路,细颗粒物(PM2.5),114,104,100,86,72,32,,9,9,86,96,11,9,1.1,1.1
2026-02-05T1300,2404A,112.5338,33.0086,南阳市,瓦房庄,细颗粒物(PM2.5),108,148,157,81,110,78,,29,29,23,33,5,5,1.1,1.1
2026-02-05T1300,2405A,112.5002,32.9734,南阳市,汉画馆,细颗粒物(PM2.5),163,172,164,124,127,70,,24,24,42,43,9,7,1.1,1.1
2026-02-05T1300,2406A,112.5778,33.0144,南阳市,气象站,颗粒物(PM10),93,135,180,68,98,90,,27,27,14,37,6,7,0.9,1.1
2026-02-05T1300,2407A,112.548,32.9687,南阳市,理工学院,细颗粒物(PM2.5),105,134,160,79,112,82,,26,26,24,40,6,6,0.9,1
2026-02-05T1300,4008A,112.5233,32.9921,南阳市,卧龙区政府,细颗粒物(PM2.5),113,162,187,85,121,81,,28,28,25,40,7,6,1.0,1.1
2026-02-05T1300,1234A,121.8352,29.9111,宁波市,区环保大楼,颗粒物(PM10),72,94,79,36,25,39,,11,11,60,85,13,9,0.5,0.6
2026-02-05T1300,1235A,121.5595,29.8208,宁波市,万里学院,,,76,52,50,31,59,,19,19,,51,6,5,,0.9
2026-02-05T1300,1236A,121.713,29.9564,宁波市,龙赛医院,颗粒物(PM10),68,85,75,45,33,44,,15,15,51,81,5,6,0.6,0.7
2026-02-05T1300,1240A,121.5855,29.8635,宁波市,太古小学,细颗粒物(PM2.5),78,95,65,57,32,66,,27,21,49,52,6,4,0.7,0.6
2026-02-05T1300,1241A,121.5239,29.8673,宁波市,市环境监测中心,细颗粒物(PM2.5),73,84,69,53,41,58,,18,18,44,58,4,4,0.7,0.6
2026-02-05T1300,2871A,121.6156,29.9015,宁波市,万里国际学校,细颗粒物(PM2.5),103,101,69,77,44,60,,17,17,73,71,9,5,0.7,0.6
2026-02-05T1300,3710A,121.5593,29.8976,宁波市,白沙活动中心,细颗粒物(PM2.5),77,77,64,56,48,61,,18,18,47,65,6,5,0.5,0.5
2026-02-05T1300,4095A,121.8962,29.7529,宁波市,中科路88号,细颗粒物(PM2.5),58,61,37,41,20,70,,30,30,45,38,9,6,0.7,0.4
2026-02-05T1300,2341A,119.5387,26.6611,宁德市,宁德市监测站,颗粒物(PM10),55,60,43,26,22,79,,45,45,22,33,6,4,0.9,0.9
2026-02-05T1300,3209A,119.5231,26.6562,宁德市,宁德一中,,38,34,36,26,24,94,,42,42,16,23,6,4,0.6,0.7
2026-02-05T1300,2618A,98.859,25.8541,怒江傈僳族自治州,州监测站,,31,31,37,9,21,74,,52,52,7,16,6,6,0.4,0.2
2026-02-05T1300,2619A,98.8607,25.8168,怒江傈僳族自治州,泸水一中,,38,38,32,8,22,67,,37,37,9,24,5,4,0.6,0.7
2026-02-05T1300,1888A,101.6891,26.571,攀枝花市,弄弄坪,颗粒物(PM10),53,56,66,16,29,72,,26,26,20,34,40,51,3.3,2
2026-02-05T1300,1889A,101.577,26.5914,攀枝花市,河门口,,,,47,17,19,72,,30,30,,23,,17,0.8,0.9
2026-02-05T1300,1891A,101.7365,26.4986,攀枝花市,仁和,,27,19,29,14,16,84,,43,43,7,17,7,8,0.5,0.6
2026-02-05T1300,2835A,101.7222,26.567,攀枝花市,四十中小,,40,40,41,10,18,72,,33,25,20,35,23,19,1.6,1.2
2026-02-05T1300,1604A,122.0303,41.1489,盘锦市,开发区,颗粒物(PM10),191,331,173,14,74,77,,68,68,8,21,3,6,0.1,0.6
2026-02-05T1300,1605A,122.0486,41.0883,盘锦市,兴隆台,颗粒物(PM10),180,310,163,12,74,77,,68,68,10,30,2,6,0.3,0.7
2026-02-05T1300,1606A,121.8297,41.1026,盘锦市,新生街道,颗粒物(PM10),95,139,146,6,76,75,,62,62,8,34,4,7,0.0,0.5
2026-02-05T1300,1832A,113.3257,33.7423,平顶山市,新华旅馆,细颗粒物(PM2.5),80,106,127,59,82,88,,60,60,25,31,11,7,0.6,0.6
2026-02-05T1300,1833A,113.2917,33.737,平顶山市,规划设计院,颗粒物(PM10),84,118,145,56,83,86,,43,43,12,30,12,7,0.6,0.8
2026-02-05T1300,1834A,113.182,33.7738,平顶山市,平顶山工学院,颗粒物(PM10),76,102,116,50,79,94,,60,57,16,20,13,8,0.6,0.7
2026-02-05T1300,3594A,112.8736,33.9068,平顶山市,石龙区,颗粒物(PM10),72,94,122,18,54,103,,56,56,7,34,8,6,0.6,0.7
2026-02-05T1300,4116A,113.284,33.7139,平顶山市,姚电大道23号,,,,147,,90,92,,42,42,21,34,,9,,0.8
2026-02-05T1300,2656A,106.6633,35.5338,平凉市,聚贤嘉苑,颗粒物(PM10),52,54,53,25,25,88,,51,51,13,18,9,10,0.5,0.5
2026-02-05T1300,2657A,106.7021,35.5307,平凉市,博物馆,,,,63,50,42,85,,50,50,14,30,11,12,0.5,0.7
2026-02-05T1300,2348A,113.8384,27.6436,萍乡市,中医院,细颗粒物(PM2.5),87,89,113,64,67,76,,27,27,23,39,19,13,1.1,1.3
2026-02-05T1300,2350A,113.8677,27.6438,萍乡市,市环保局,细颗粒物(PM2.5),99,101,108,74,72,70,,26,26,28,37,18,14,0.5,0.7
2026-02-05T1300,2351A,113.8663,27.6202,萍乡市,安源区政府,细颗粒物(PM2.5),95,118,119,71,73,45,,17,17,29,40,19,13,1.1,1.1
2026-02-05T1300,4107A,113.8686,27.6668,萍乡市,联洪村委会,细颗粒物(PM2.5),85,86,104,63,67,57,,25,25,22,33,17,11,0.5,0.7
2026-02-05T1300,2319A,119.0142,25.4324,莆田市,荔城区仓后路,臭氧1小时(O3_1h),95,79,61,47,33,196,,70,70,30,31,/,/,/,/
2026-02-05T1300,2320A,119.0016,25.4553,莆田市,莆田市监测站,臭氧1小时(O3_1h),97,91,48,61,29,197,,74,74,27,20,11,4,0.6,0.5
2026-02-05T1300,2321A,119.112,25.4561,莆田市,涵江区六中,颗粒物(PM10),65,80,47,45,26,156,,60,60,22,28,/,/,0.8,0.6
2026-02-05T1300,2322A,119.1014,25.3215,莆田市,秀屿区政府,,50,50,52,22,33,129,,76,76,14,18,12,6,0.6,0.7
2026-02-05T1300,2392A,115.0312,35.7636,濮阳市,环保局,细颗粒物(PM2.5),168,157,136,127,108,88,,39,39,43,44,15,11,1.4,1.3
2026-02-05T1300,3021A,115,35.7667,濮阳市,濮水河管理处,细颗粒物(PM2.5),155,199,163,118,112,89,,37,37,34,39,16,11,1.2,1.1
2026-02-05T1300,4118A,115.0552,35.7816,濮阳市,中原东路68号,细颗粒物(PM2.5),180,229,175,136,110,90,,35,35,43,44,16,11,1.4,1.2
2026-02-05T1300,4216A,115.0923632,35.76857718,濮阳市,任丘路479号,细颗粒物(PM2.5),183,212,171,138,118,86,,36,36,50,54,18,12,1.5,1.3
2026-02-05T1300,2601A,100.9801,22.7634,普洱市,市环保局,颗粒物(PM10),53,55,59,17,27,93,,46,46,9,10,5,5,0.5,0.5
2026-02-05T1300,2602A,100.9763,22.8237,普洱市,普洱第二中学,,40,40,56,23,31,90,,37,37,5,23,5,5,0.4,0.6
2026-02-05T1300,3345A,131.0413,45.7795,七台河市,中波台,,,,25,,15,76,,68,68,2,6,7,7,0.1,0.5
2026-02-05T1300,3637A,131.0136,45.7688,七台河市,人民广场,,24,19,33,3,17,76,,67,67,8,16,7,9,0.4,0.5
2026-02-05T1300,3684A,130.8639,45.8144,七台河市,新建矿广场,,23,17,57,3,30,71,,61,61,8,22,6,8,0.2,0.3
2026-02-05T1300,1779A,123.9307,47.3641,齐齐哈尔市,安居小区,颗粒物(PM10),55,59,36,8,10,68,,72,71,4,12,8,10,0.3,0.3
2026-02-05T1300,1780A,123.9497,47.3389,齐齐哈尔市,中心广场,,,,25,,10,66,,72,69,,12,5,6,,0.5
2026-02-05T1300,1781A,123.9483,47.3229,齐齐哈尔市,农牧车辆厂,颗粒物(PM10),71,92,39,10,9,67,,70,68,4,10,4,5,0.2,0.3
2026-02-05T1300,1783A,123.9442,47.2994,齐齐哈尔市,市环境监测站,颗粒物(PM10),121,192,49,7,7,70,,74,72,4,11,3,4,0.4,0.4
2026-02-05T1300,3662A,123.6341,47.2079,齐齐哈尔市,富区青少年活动中心,颗粒物(PM10),89,128,59,8,9,74,,74,72,3,8,4,4,0.3,0.4
2026-02-05T1300,2591A,107.9765,26.5724,黔东南苗族侗族自治州,市环境监测站,颗粒物(PM10),51,51,57,35,43,27,,34,23,28,20,5,4,1.1,1
2026-02-05T1300,2881A,107.8909,26.531,黔东南苗族侗族自治州,凯里学院,,,29,52,16,39,38,,39,34,,16,2,3,0.7,0.9
2026-02-05T1300,2593A,107.5223,26.2371,黔南布依族苗族自治州,小围寨,,,39,36,32,34,28,,16,16,12,14,9,7,,1.1
2026-02-05T1300,3538A,107.5175,26.2977,黔南布依族苗族自治州,沙坝,细颗粒物(PM2.5),52,44,38,36,32,29,,17,17,16,13,11,6,1.1,1
2026-02-05T1300,2589A,104.9022,25.0943,黔西南布依族苗族自治州,场坝街,细颗粒物(PM2.5),65,49,56,47,46,52,,37,37,10,13,4,3,0.8,1
2026-02-05T1300,2590A,104.8812,25.0994,黔西南布依族苗族自治州,坪东大道,,,,57,,46,51,,36,35,10,13,4,5,0.9,1
2026-02-05T1300,2502A,108.6238,21.9667,钦州市,市环保站,颗粒物(PM10),60,70,55,35,34,63,,58,51,19,21,3,3,0.5,0.6
2026-02-05T1300,2503A,108.655,21.9481,钦州市,沙埠小学,颗粒物(PM10),56,61,59,34,33,68,,46,46,15,21,5,4,0.4,0.4
2026-02-05T1300,2504A,108.5989,21.7435,钦州市,港区一小,,38,38,70,20,28,77,,58,58,17,23,1,2,0.7,0.8
2026-02-05T1300,3404A,108.5959,21.9634,钦州市,北职校,颗粒物(PM10),61,72,45,24,26,62,,48,44,19,21,3,2,0.6,0.6
2026-02-05T1300,1046A,119.5247,39.9346,秦皇岛市,建设大厦,颗粒物(PM10),76,101,110,14,60,80,,44,44,7,45,5,10,0.2,0.8
2026-02-05T1300,3132A,119.5979,39.938,秦皇岛市,文明里,颗粒物(PM10),79,107,115,9,60,79,,42,42,9,52,9,13,0.3,0.8
2026-02-05T1300,4066A,119.7458,39.9952,秦皇岛市,南园路157号,颗粒物(PM10),73,96,108,10,60,78,,46,46,12,56,6,11,0.3,0.8
2026-02-05T1300,4067A,119.5131,39.8858,秦皇岛市,翠岛大街1号,颗粒物(PM10),59,68,91,3,61,77,,43,43,10,44,8,12,0.3,0.7
2026-02-05T1300,4198A,119.509013,39.825305,秦皇岛市,北戴河轮滑馆,颗粒物(PM10),90,129,113,3,63,83,,52,52,10,51,6,8,0.2,0.7
2026-02-05T1300,1310A,120.404,36.0625,青岛市,市南区东部子站,细颗粒物(PM2.5),208,217,139,158,111,92,,56,56,66,39,19,13,1.3,0.9
2026-02-05T1300,1311A,120.362344,36.10282,青岛市,四方区子站,细颗粒物(PM2.5),230,,42,180,123,96,,37,37,62,49,16,8,1.3,1.1
2026-02-05T1300,1312A,120.294373,36.054183,青岛市,市南区西部子站,细颗粒物(PM2.5),254,234,137,204,123,88,,31,31,82,55,14,7,1.6,1.1
2026-02-05T1300,1313A,120.4581,36.0858,青岛市,崂山区子站,细颗粒物(PM2.5),169,178,132,128,102,103,,71,71,56,38,18,13,1.2,0.9
2026-02-05T1300,1315A,120.3945,36.3083,青岛市,城阳区子站,细颗粒物(PM2.5),183,185,145,138,116,122,,46,46,34,57,17,11,1.2,1.2
2026-02-05T1300,3642A,120.3454,36.0735,青岛市,市北区南部,细颗粒物(PM2.5),238,227,139,188,120,76,,34,28,78,48,17,7,1.6,1.1
2026-02-05T1300,3643A,120.3897,36.18,青岛市,李沧区北部,细颗粒物(PM2.5),183,195,140,138,116,108,,48,40,55,58,18,12,1.2,1.1
2026-02-05T1300,4110A,120.5222,36.4089,青岛市,盟旺路653号,细颗粒物(PM2.5),180,183,151,136,108,121,,48,48,23,43,12,8,1.2,1.3
2026-02-05T1300,4290A,120.196923,35.954556,青岛市,珠江路669号,细颗粒物(PM2.5),170,197,139,129,108,101,,29,29,62,59,17,9,1.1,0.9
2026-02-05T1300,4291A,120.0424,35.8656,青岛市,黄岛区人民政府广场,细颗粒物(PM2.5),170,180,141,129,110,124,,50,50,37,58,18,11,1.0,1.1
2026-02-05T1300,1703A,113.0218,23.7086,清远市,凤城街办,细颗粒物(PM2.5),83,75,92,61,66,107,,47,47,31,54,/,/,/,/
2026-02-05T1300,3025A,113.0479,23.6343,清远市,技师学院,"颗粒物(PM10),细颗粒物(PM2.5)",62,74,99,44,54,115,,43,43,26,62,6,6,0.5,0.7
2026-02-05T1300,3318A,112.9898,23.7403,清远市,清新太和,细颗粒物(PM2.5),82,93,82,60,51,124,,61,61,34,42,11,11,0.8,0.8
2026-02-05T1300,3455A,113.076,23.72,清远市,清城东城,颗粒物(PM10),57,63,88,36,50,110,,48,48,26,46,/,/,/,/
2026-02-05T1300,2661A,107.6325,35.7357,庆阳市,庆阳五中,颗粒物(PM10),57,63,82,28,41,88,,68,59,12,25,7,9,0.5,0.8
2026-02-05T1300,2662A,107.6361,35.7067,庆阳市,市环保局,颗粒物(PM10),59,67,78,21,40,85,,78,61,16,19,6,9,0.4,0.9
2026-02-05T1300,1916A,103.7897,25.5036,曲靖市,环境监测站,,32,13,33,10,20,101,,80,80,8,11,6,6,0.3,0.4
2026-02-05T1300,1917A,103.8013,25.5357,曲靖市,烟厂办公区,,30,27,36,11,18,93,,77,77,7,10,5,4,0.3,0.4
2026-02-05T1300,3376A,103.7926,25.4651,曲靖市,南苑二区,,28,26,33,8,20,87,,74,73,11,11,3,4,0.2,0.3
2026-02-05T1300,3377A,103.7442,25.5259,曲靖市,曲靖师范学院,,30,22,40,12,24,95,,74,74,7,12,5,5,0.3,0.3
2026-02-05T1300,1264A,118.8694,28.94,衢州市,环保大楼,细颗粒物(PM2.5),103,119,90,77,59,85,,25,25,36,55,/,/,/,/
2026-02-05T1300,1266A,118.8622,28.9809,衢州市,衢州学院,细颗粒物(PM2.5),105,115,81,79,53,58,,19,19,51,55,7,6,0.6,0.6
2026-02-05T1300,4097A,118.9646,28.9832,衢州市,衢州三中,细颗粒物(PM2.5),114,121,97,86,64,65,,19,19,51,56,7,6,0.8,0.9
2026-02-05T1300,1611A,118.5818,24.9116,泉州市,涂山街,细颗粒物(PM2.5),74,80,54,54,31,128,,56,56,47,35,6,3,0.8,0.6
2026-02-05T1300,1612A,118.597,24.8976,泉州市,津头埔,细颗粒物(PM2.5),75,90,58,55,32,112,,53,53,40,31,5,3,0.7,0.6
2026-02-05T1300,1613A,118.6669,24.9422,泉州市,万安,细颗粒物(PM2.5),74,77,59,54,30,107,,37,37,36,41,4,3,0.6,0.5
2026-02-05T1300,4105A,118.6355,24.9148,泉州市,霞新路6号,细颗粒物(PM2.5),78,86,50,57,30,133,,42,42,42,41,/,/,0.8,0.6
2026-02-05T1300,2626A,88.8873,29.2723,日喀则市,日喀则监测站,,,,17,7,7,58,,97,86,,3,5,7,,0.3
2026-02-05T1300,3726A,88.8775,29.2425,日喀则市,林业技术推广中心,,29,,18,12,6,90,,90,89,2,3,2,3,0.2,0.3
2026-02-05T1300,1659A,119.4711,35.421,日照市,监测站,细颗粒物(PM2.5),156,151,150,119,119,121,,42,42,30,71,15,15,1.1,1.5
2026-02-05T1300,1660A,119.523,35.4216,日照市,市政府广场,细颗粒物(PM2.5),168,149,152,127,115,110,,33,33,30,73,14,13,0.8,1.1
2026-02-05T1300,1661A,119.5511,35.4113,日照市,港务局,细颗粒物(PM2.5),202,193,159,152,116,101,,22,22,,78,,11,1.3,1.3
2026-02-05T1300,3507A,119.5326,35.4627,日照市,职业技术学院,细颗粒物(PM2.5),155,151,144,118,111,125,,40,40,,64,15,11,1.2,1.4
2026-02-05T1300,3604A,119.3267,35.1043,日照市,岚山环保分局,细颗粒物(PM2.5),189,183,170,142,114,115,,44,44,44,62,27,26,2.0,1.7
2026-02-05T1300,1835A,111.1922,34.7752,三门峡市,市政府,细颗粒物(PM2.5),114,136,118,86,79,41,,19,19,61,60,27,16,1.2,1
2026-02-05T1300,1836A,111.1588,34.794,三门峡市,开发区,细颗粒物(PM2.5),103,144,140,77,87,42,,21,21,52,47,14,10,1.0,0.9
2026-02-05T1300,3039A,111.1911,34.7829,三门峡市,三门峡市第一小学,细颗粒物(PM2.5),110,153,131,83,83,46,,19,19,64,64,28,18,1.2,1.1
2026-02-05T1300,3598A,111.1031,34.719,三门峡市,富达温泉假日酒店,细颗粒物(PM2.5),137,177,158,104,104,37,,20,20,67,54,40,19,1.4,1.3
2026-02-05T1300,2324A,117.621,26.2626,三明市,三钢,,35,35,46,21,68,110,,42,42,6,34,7,7,0.4,1.1
2026-02-05T1300,2325A,117.6352,26.2714,三明市,三明二中,,39,39,41,16,27,108,,44,44,10,30,7,5,0.5,1.2
2026-02-05T1300,2326A,117.6028,26.2377,三明市,三元区政府,,35,26,44,16,29,110,,43,43,8,32,7,7,0.6,1
2026-02-05T1300,1877A,109.4962,18.2682,三亚市,河西子站,,26,12,31,6,14,82,,67,67,10,13,3,2,0.4,0.4
2026-02-05T1300,3540A,109.7348,18.3443,三亚市,君悦子站,,28,28,34,10,17,88,,54,54,5,9,3,2,0.4,0.5
2026-02-05T1300,4135A,109.1714,18.3739,三亚市,城东小学站,,32,24,33,8,15,101,,60,60,6,10,/,/,/,/
2026-02-05T1300,2624A,91.7592,29.234,山南市,山南监测站,,28,17,12,3,4,87,,80,77,1,2,4,5,0.3,0.4
2026-02-05T1300,2625A,91.7701,29.2436,山南市,山南人民医院,,28,24,20,6,5,89,,80,73,1,4,5,5,0.5,0.4
2026-02-05T1300,1674A,116.6795,23.3666,汕头市,金平子站,颗粒物(PM10),71,92,53,48,33,126,,66,66,38,30,9,6,0.8,0.7
2026-02-05T1300,1675A,116.7248,23.3632,汕头市,龙湖子站,"颗粒物(PM10),细颗粒物(PM2.5)",69,88,56,50,41,116,,66,66,21,25,13,11,/,/
2026-02-05T1300,1676A,116.7257,23.2774,汕头市,濠江子站,颗粒物(PM10),67,83,52,41,33,122,,68,68,24,28,10,9,/,/
2026-02-05T1300,1677A,116.7518,23.4712,汕头市,澄海子站,颗粒物(PM10),82,113,62,55,39,129,,68,68,21,23,10,8,0.8,0.7
2026-02-05T1300,1678A,116.6088,23.2539,汕头市,潮阳子站,细颗粒物(PM2.5),84,82,48,62,38,154,,76,76,27,20,12,8,1.1,0.8
2026-02-05T1300,3444A,116.4539,23.2684,汕头市,潮南峡山,细颗粒物(PM2.5),59,66,59,42,36,160,,77,77,20,20,9,7,1.1,0.9
2026-02-05T1300,3624A,116.4069,23.2533,汕头市,潮南子站,颗粒物(PM10),58,65,71,35,40,133,,61,61,19,22,8,7,/,/
2026-02-05T1300,1693A,115.3653,22.7751,汕尾市,市环保局,,39,39,40,24,25,124,,85,85,14,15,5,9,0.8,0.7
2026-02-05T1300,1695A,115.362,22.7926,汕尾市,新城中学,颗粒物(PM10),56,62,44,25,24,128,,85,85,13,16,6,6,0.6,0.6
2026-02-05T1300,2645A,109.9155,33.8714,商洛市,监测站,颗粒物(PM10),52,54,66,28,39,85,,51,51,10,21,4,4,0.7,0.8
2026-02-05T1300,3045A,109.9647,33.8486,商洛市,商州区中学,颗粒物(PM10),60,69,75,29,32,90,,40,40,11,26,5,5,0.6,0.6
2026-02-05T1300,2408A,115.6701,34.4283,商丘市,环境监测站,细颗粒物(PM2.5),178,181,155,134,124,70,,21,21,45,44,1,2,0.7,0.7
2026-02-05T1300,2409A,115.6458,34.4047,商丘市,粮食局,细颗粒物(PM2.5),180,197,152,136,118,55,,31,26,53,40,,2,0.9,0.9
2026-02-05T1300,3171A,115.6069,34.4465,商丘市,梁园区档案局,细颗粒物(PM2.5),152,182,144,116,112,56,,27,22,55,46,3,2,1.1,0.9
2026-02-05T1300,4119A,115.6701,34.3767,商丘市,北海东路185号,细颗粒物(PM2.5),179,199,176,135,117,64,,16,16,43,59,4,3,0.9,0.9
2026-02-05T1300,4120A,115.6172,34.3704,商丘市,中山大街3号,细颗粒物(PM2.5),176,220,203,133,128,52,,13,13,53,63,2,2,0.8,0.8
2026-02-05T1300,1141A,121.401,31.2382,上海市,普陀,细颗粒物(PM2.5),89,88,81,66,56,21,,23,12,101,87,8,7,0.8,0.9
2026-02-05T1300,1142A,121.4774,31.2043,上海市,十五厂,细颗粒物(PM2.5),82,100,81,60,50,19,,12,12,107,93,10,7,1.1,1
2026-02-05T1300,1143A,121.4673,31.3011,上海市,虹口,细颗粒物(PM2.5),94,102,86,70,57,15,,11,11,106,92,9,8,0.6,0.7
2026-02-05T1300,1147A,121.4253,31.226,上海市,静安监测站,细颗粒物(PM2.5),83,85,76,61,52,31,,23,20,91,79,9,8,0.9,1
2026-02-05T1300,1148A,121.7029,31.1905,上海市,浦东川沙,细颗粒物(PM2.5),100,104,94,75,63,6,,10,10,117,84,14,9,1.0,0.9
2026-02-05T1300,1149A,121.5339,31.229,上海市,浦东新区监测站,细颗粒物(PM2.5),103,88,76,77,58,26,,32,21,99,79,11,7,1.1,1.1
2026-02-05T1300,1150A,121.5776,31.2038,上海市,浦东张江,细颗粒物(PM2.5),88,96,86,65,56,17,,15,15,115,81,12,8,0.7,0.5
2026-02-05T1300,3265A,121.4242,31.3303,上海市,宝山庙行,细颗粒物(PM2.5),102,110,96,76,63,16,,7,7,100,95,11,10,0.8,0.9
2026-02-05T1300,3266A,121.8789,31.4662,上海市,崇明上实东滩,细颗粒物(PM2.5),93,85,65,69,48,50,,22,22,63,67,6,6,0.7,0.6
2026-02-05T1300,3268A,121.316,31.2839,上海市,嘉定南翔,细颗粒物(PM2.5),97,103,89,72,56,21,,9,9,104,96,6,6,0.9,0.6
2026-02-05T1300,3269A,121.3357,30.7455,上海市,金山新城,细颗粒物(PM2.5),73,55,53,53,46,60,,32,25,46,46,10,13,0.8,0.7
2026-02-05T1300,3270A,121.4996,31.0741,上海市,闵行浦江,细颗粒物(PM2.5),82,84,71,60,55,16,,7,7,94,70,10,8,1.0,0.8
2026-02-05T1300,3271A,121.2886,31.1663,上海市,青浦徐泾,细颗粒物(PM2.5),92,97,85,68,58,13,,5,5,111,93,6,6,0.6,0.7
2026-02-05T1300,3272A,121.2193,31.0382,上海市,松江图书馆,细颗粒物(PM2.5),80,83,77,59,56,26,,18,8,80,75,7,7,0.7,0.8
2026-02-05T1300,3273A,121.3904,31.206,上海市,长宁仙霞,细颗粒物(PM2.5),82,92,78,60,47,15,,20,10,99,77,9,8,0.9,0.9
2026-02-05T1300,3274A,121.7964,31.0507,上海市,浦东惠南,细颗粒物(PM2.5),82,74,68,60,47,17,,10,10,104,76,8,6,1.0,0.7
2026-02-05T1300,3544A,121.4891,30.925,上海市,奉贤南桥新城,细颗粒物(PM2.5),67,81,68,48,47,28,,19,17,84,71,5,5,0.6,0.5
