timepoint,stationcode,longitude,latitude,area,positionname,primarypollutant,aqi,pm10,pm10_24h,pm2_5,pm2_5_24h,o3,o3_24h,o3_8h,o3_8h_24h,no2,no2_24h,so2,so2_24h,co,co_24h
2024-03-17T2300,2566A,102.1879,31.914,阿坝藏族羌族自治州,州农科所,,27,27,28,16,9,32,,36,33,3,11,3,3,0,0.1
2024-03-17T2300,2568A,102.2502,31.8896,阿坝藏族羌族自治州,马师校,,31,18,18,18,11,99,,103,95,4,7,3,3,0.5,0.5
2024-03-17T2300,3994A,102.2165,31.9024,阿坝藏族羌族自治州,马尔康中学西区,,32,22,15,12,10,100,,104,99,4,8,4,4,0.4,0.4
2024-03-17T2300,2695A,80.292,41.1694,阿克苏地区,电视台,颗粒物(PM10),147,244,189,68,52,58,,103,96,29,8,5,4,0.9,0.6
2024-03-17T2300,2696A,80.2613,41.1551,阿克苏地区,艺术中心,颗粒物(PM10),149,247,190,64,44,59,,105,98,41,10,4,4,1.1,0.7
2024-03-17T2300,2204A,105.6467,38.8363,阿拉善盟,西城区西花园,颗粒物(PM10),62,74,71,24,18,89,,98,94,5,11,8,9,0.5,0.6
2024-03-17T2300,2205A,105.6985,38.8411,阿拉善盟,蒙二幼,颗粒物(PM10),90,130,90,29,25,86,,95,91,6,11,4,6,0.4,0.4
2024-03-17T2300,2206A,105.724,38.8516,阿拉善盟,环保局新楼,颗粒物(PM10),63,76,87,22,29,92,,98,97,5,8,6,7,0.5,0.5
2024-03-17T2300,2708A,88.1264,47.8517,阿勒泰地区,市站,,25,13,11,10,7,79,,85,82,8,7,4,6,0.2,0.1
2024-03-17T2300,2630A,80.1161,32.5,阿里地区,阿里监测站,,,,10,,6,97,,100,99,6,6,10,10,0.5,0.5
2024-03-17T2300,3192A,80.0903,32.5028,阿里地区,阿里藏医院,,33,23,16,4,7,105,,105,105,2,6,6,11,0.4,0.5
2024-03-17T2300,2642A,109.0318,32.6537,安康市,香溪洞,细颗粒物(PM2.5),89,82,92,66,46,94,,66,66,9,16,6,6,0.7,0.8
2024-03-17T2300,2643A,109.0281,32.6939,安康市,安康市监测站,细颗粒物(PM2.5),90,117,100,67,54,95,,54,52,11,25,7,8,0.6,0.7
2024-03-17T2300,2644A,109.0072,32.6975,安康市,汉滨区检察院,细颗粒物(PM2.5),98,116,96,73,51,103,,58,58,10,20,9,9,0.5,0.6
2024-03-17T2300,2291A,117.0809,30.5177,安庆市,环科院,颗粒物(PM10),112,174,73,16,37,63,,94,65,16,29,7,7,0.6,0.8
2024-03-17T2300,2292A,117.0331,30.5119,安庆市,马山宾馆,颗粒物(PM10),110,169,73,18,37,68,,101,69,12,24,7,7,0.2,0.5
2024-03-17T2300,2294A,116.9896,30.6145,安庆市,安庆大学,颗粒物(PM10),118,186,100,16,33,58,,97,62,19,20,8,8,0.4,0.5
2024-03-17T2300,3173A,117.0598,30.5351,安庆市,市人大,颗粒物(PM10),111,172,74,19,39,64,,95,64,11,22,6,5,0.7,1
2024-03-17T2300,3123A,105.9408,26.2431,安顺市,凤凰山,细颗粒物(PM2.5),54,46,48,38,40,45,,81,75,21,11,21,14,1.2,1
2024-03-17T2300,3124A,105.9439,26.2564,安顺市,金钟山,细颗粒物(PM2.5),58,52,52,41,42,46,,80,75,20,11,15,10,0.9,0.8
2024-03-17T2300,3125A,105.8983,26.2481,安顺市,娄家坡,细颗粒物(PM2.5),67,63,53,48,44,47,,81,75,20,10,32,14,0.9,0.8
2024-03-17T2300,1819A,114.3551,36.1017,安阳市,红庙街,颗粒物(PM10),58,65,110,15,22,78,,98,92,17,14,7,3,0.7,0.6
2024-03-17T2300,1820A,114.361,36.0681,安阳市,银杏小区,颗粒物(PM10),58,65,119,17,24,71,,93,85,13,9,4,5,0.2,0.2
2024-03-17T2300,3141A,114.3922,36.0878,安阳市,信访局,颗粒物(PM10),56,62,115,16,18,68,,94,85,17,9,3,2,0.5,0.5
2024-03-17T2300,3669A,114.4705,36.0637,安阳市,左辅环卫站,颗粒物(PM10),58,65,122,23,26,56,,87,75,23,13,4,4,0.2,0.2
2024-03-17T2300,3703A,114.2917,36.0949,安阳市,安钢职工学校,,,64,131,16,25,67,,93,86,24,17,14,6,,0.1
2024-03-17T2300,1748A,123.044,41.1196,鞍山市,深沟寺,颗粒物(PM10),75,99,126,54,29,58,,100,79,28,16,6,7,0.6,0.5
2024-03-17T2300,1749A,123.011,41.0931,鞍山市,太阳城,颗粒物(PM10),74,97,126,52,28,71,,108,89,23,19,10,11,0.6,1
2024-03-17T2300,1750A,123.0485,41.1442,鞍山市,太平,颗粒物(PM10),77,103,140,55,34,64,,100,76,32,21,6,6,0.7,0.6
2024-03-17T2300,1751A,122.9642,41.0971,鞍山市,铁西三道街,细颗粒物(PM2.5),108,144,160,81,42,34,,97,66,65,30,18,11,0.8,0.8
2024-03-17T2300,1752A,122.9341,41.0833,鞍山市,铁西工业园区,细颗粒物(PM2.5),132,154,154,100,51,16,,98,56,82,29,9,9,1.1,0.7
2024-03-17T2300,1753A,123.022,41.0821,鞍山市,明达新区,细颗粒物(PM2.5),73,94,146,53,27,62,,97,82,30,20,11,11,0.7,0.7
2024-03-17T2300,2195A,107.4212,40.761,巴彦淖尔市,附二中,颗粒物(PM10),220,364,197,80,47,88,,94,92,5,14,2,6,0.3,0.4
2024-03-17T2300,2196A,107.37,40.7372,巴彦淖尔市,市环保大楼,颗粒物(PM10),213,359,184,60,44,92,,97,95,3,11,3,5,0.2,0.3
2024-03-17T2300,1956A,86.1472,41.7538,巴音郭楞蒙古自治州,孔雀公园,颗粒物(PM10),199,347,241,87,54,58,,87,76,24,15,5,4,0.6,0.4
2024-03-17T2300,1957A,86.1972,41.7166,巴音郭楞蒙古自治州,棉纺厂,颗粒物(PM10),500,624,290,124,61,50,,89,75,32,17,3,2,0.5,0.3
2024-03-17T2300,1958A,86.2357,41.7173,巴音郭楞蒙古自治州,经济开发区,颗粒物(PM10),409,509,270,114,56,47,,90,77,40,15,4,4,0.5,0.3
2024-03-17T2300,2914A,106.7677,31.8794,巴中市,苏山坪,,19,2,45,1,19,58,,84,56,5,7,2,3,0.4,0.4
2024-03-17T2300,3182A,106.7656,31.8545,巴中市,丽阳花园,,12,11,42,8,21,30,,75,40,21,20,4,4,0.6,0.5
2024-03-17T2300,3183A,106.7418,31.8654,巴中市,圣泉水务公司,,18,2,39,2,18,56,,81,54,8,13,4,4,0.4,0.4
2024-03-17T2300,3616A,106.7616,31.8344,巴中市,市中心医院,,17,17,44,11,21,18,,69,40,26,20,5,5,0.5,0.5
2024-03-17T2300,2235A,122.7911,45.6077,白城市,洮北区环保局,,26,19,16,13,10,81,,91,88,7,8,5,6,0.3,0.3
2024-03-17T2300,2236A,122.8738,45.5725,白城市,市环保局,,27,24,27,16,12,85,,88,86,8,8,3,2,0.5,0.5
2024-03-17T2300,2231A,126.4219,41.9171,白山市,喜丰,,43,43,131,16,18,54,,90,68,17,13,7,8,0.7,0.6
2024-03-17T2300,2232A,126.4077,41.9419,白山市,环保局,颗粒物(PM10),55,60,120,22,21,47,,88,69,11,5,9,8,0.8,0.6
2024-03-17T2300,2647A,104.1724,36.5446,白银市,第三小学,颗粒物(PM10),191,332,143,75,42,93,,100,100,2,12,6,25,0.6,0.8
2024-03-17T2300,2648A,104.1465,36.5482,白银市,动力公司,颗粒物(PM10),160,270,124,64,34,95,,102,100,6,16,4,11,0.5,0.7
2024-03-17T2300,2512A,106.6103,23.9011,百色市,市监测站,颗粒物(PM10),61,72,87,39,51,53,,97,80,13,17,26,20,0.7,0.8
2024-03-17T2300,2513A,106.6538,23.8859,百色市,市中心血站,细颗粒物(PM2.5),63,64,76,45,53,50,,89,73,13,20,23,14,0.9,1
2024-03-17T2300,3406A,106.6085,23.8798,百色市,祈福高中,,,,78,,58,,,92,83,,19,,16,,1
2024-03-17T2300,2270A,117.396,32.939,蚌埠市,工人疗养院,颗粒物(PM10),79,108,209,29,59,68,,79,78,21,23,6,7,0.4,0.6
2024-03-17T2300,2271A,117.3605,32.9427,蚌埠市,百货大楼,颗粒物(PM10),83,115,221,33,60,71,,75,75,19,29,3,4,0.4,0.6
2024-03-17T2300,2273A,117.4185,32.8911,蚌埠市,蚌埠学院,颗粒物(PM10),82,114,223,35,59,45,,87,65,45,29,12,9,0.4,0.6
2024-03-17T2300,2274A,117.3533,32.9673,蚌埠市,淮上区政府,颗粒物(PM10),76,102,215,26,64,74,,79,76,16,24,4,5,0.3,0.5
2024-03-17T2300,2275A,117.3145,32.8977,蚌埠市,高新区,颗粒物(PM10),75,100,208,26,61,80,,83,83,20,27,5,9,0.4,0.6
2024-03-17T2300,3715A,117.3092,32.9314,蚌埠市,蚌埠田家炳中学,颗粒物(PM10),81,112,235,31,63,74,,79,79,21,38,5,7,0.4,0.6
2024-03-17T2300,1585A,109.8756,40.6532,包头市,市环境监测站,颗粒物(PM10),103,155,57,34,18,73,,77,62,26,34,9,15,0.6,0.8
2024-03-17T2300,1587A,109.9991,40.5842,包头市,包头八中,细颗粒物(PM2.5),112,151,65,84,31,6,,80,46,84,39,21,15,1.5,1
2024-03-17T2300,1588A,109.8538,40.6821,包头市,青山宾馆,颗粒物(PM10),107,163,58,42,25,85,,74,57,13,37,10,16,0.6,0.9
2024-03-17T2300,1589A,109.8642,40.6288,包头市,惠龙物流,颗粒物(PM10),104,158,54,57,23,58,,76,52,42,38,21,19,1.3,0.9
2024-03-17T2300,1590A,110.0377,40.5546,包头市,东河鸿龙湾,颗粒物(PM10),64,77,47,35,18,17,,82,57,73,35,12,13,0.9,0.7
2024-03-17T2300,3283A,109.9154,40.5685,包头市,滨河大厦,颗粒物(PM10),95,139,50,54,19,12,,83,64,74,34,53,14,1.3,0.7
2024-03-17T2300,3419A,109.9447,40.6261,包头市,包头市委党校,颗粒物(PM10),91,132,54,51,19,41,,83,58,55,39,19,19,1.2,1
2024-03-17T2300,3683A,109.8331,40.6576,包头市,昆区政府,颗粒物(PM10),102,154,54,46,24,86,,73,63,14,36,8,16,0.5,0.8
2024-03-17T2300,1930A,107.185,34.3063,宝鸡市,庙沟村,细颗粒物(PM2.5),98,122,213,73,82,26,,59,42,21,12,7,8,0.5,0.4
2024-03-17T2300,1931A,107.0708,34.3017,宝鸡市,竹园沟,细颗粒物(PM2.5),97,110,192,72,76,22,,69,49,30,23,4,4,0.7,0.6
2024-03-17T2300,1932A,107.1906,34.3672,宝鸡市,三陆医院,细颗粒物(PM2.5),94,106,206,70,82,42,,68,58,36,28,8,8,0.5,0.4
2024-03-17T2300,1933A,107.1431,34.3547,宝鸡市,监测站,细颗粒物(PM2.5),97,125,206,72,76,45,,64,52,30,26,2,3,0.5,0.5
2024-03-17T2300,1934A,107.1186,34.3739,宝鸡市,技工学校,细颗粒物(PM2.5),95,132,205,71,83,52,,66,58,19,25,6,6,0.6,0.5
2024-03-17T2300,1935A,107.3906,34.3528,宝鸡市,陈仓区环保局家属楼,细颗粒物(PM2.5),82,96,192,60,80,50,,68,56,26,28,7,7,0.7,0.5
2024-03-17T2300,1936A,107.2058,34.3497,宝鸡市,文理学院,细颗粒物(PM2.5),94,127,216,70,84,57,,68,57,16,23,4,8,0.3,0.2
2024-03-17T2300,1937A,107.2386,34.3622,宝鸡市,三迪小学,细颗粒物(PM2.5),89,112,204,66,82,56,,65,57,20,29,8,8,0.6,0.6
2024-03-17T2300,1051A,115.493,38.8632,保定市,游泳馆,颗粒物(PM10),53,55,66,11,10,73,,96,85,13,10,4,2,0.1,0.1
2024-03-17T2300,1052A,115.5213,38.8959,保定市,华电二区,颗粒物(PM10),53,56,58,14,13,68,,91,82,18,14,3,3,0.2,0.1
2024-03-17T2300,1053A,115.4713,38.9108,保定市,接待中心,颗粒物(PM10),52,53,59,19,8,62,,93,80,12,6,9,3,0.3,0.2
2024-03-17T2300,1054A,115.4612,38.8416,保定市,地表水厂,颗粒物(PM10),70,89,92,14,12,69,,94,81,14,9,4,3,0.5,0.4
2024-03-17T2300,3581A,115.31981,38.95208,保定市,满城区生态环境分局,颗粒物(PM10),75,100,71,24,13,56,,94,77,22,8,2,2,0.1,0
2024-03-17T2300,3582A,115.47694,38.76408,保定市,清苑区第二中学,颗粒物(PM10),60,70,79,10,10,60,,96,80,18,14,3,2,0.3,0.2
2024-03-17T2300,3583A,115.62909,39.02311,保定市,徐水物探局,颗粒物(PM10),65,80,75,17,9,38,,92,67,42,16,4,2,0.5,0.7
2024-03-17T2300,4004A,115.4202,38.8656,保定市,双鹰农机,颗粒物(PM10),65,79,62,23,16,46,,94,69,27,15,9,3,0.4,0.3
2024-03-17T2300,4034A,115.5150,38.8590,保定市,植保所站,颗粒物(PM10),64,77,64,29,19,66,,97,83,19,9,4,3,0.4,0.3
2024-03-17T2300,2594A,99.1678,25.1081,保山市,市环境监测站,颗粒物(PM10),55,60,69,33,44,103,,136,128,9,10,7,7,0.8,0.8
2024-03-17T2300,2595A,99.1711,25.1328,保山市,市环保局,颗粒物(PM10),56,61,70,36,43,112,,121,121,5,8,10,9,0.3,0.5
2024-03-17T2300,1867A,109.1436,21.4086,北海市,海滩公园,细颗粒物(PM2.5),62,64,48,44,28,46,,70,62,12,8,9,7,0.7,0.6
2024-03-17T2300,1868A,109.0981,21.4661,北海市,新市环保局,细颗粒物(PM2.5),67,55,47,48,29,46,,64,60,14,10,8,6,0.5,0.4
2024-03-17T2300,1869A,109.1778,21.5233,北海市,北海工业园,细颗粒物(PM2.5),64,55,49,46,31,41,,64,56,12,8,10,7,0.7,0.5
2024-03-17T2300,3400A,109.1911,21.4415,北海市,龙潭自来水厂,细颗粒物(PM2.5),70,59,46,51,32,44,,64,58,9,6,10,8,0.6,0.4
2024-03-17T2300,1001A,116.3621,39.8784,北京市,万寿西宫,颗粒物(PM10),62,74,41,19,7,47,,84,76,36,13,1,3,0.3,0.2
2024-03-17T2300,1003A,116.4174,39.9289,北京市,东四,颗粒物(PM10),65,79,43,22,10,51,,80,73,27,11,1,2,0.4,0.2
2024-03-17T2300,1004A,116.4072,39.8863,北京市,天坛,颗粒物(PM10),62,73,41,20,7,55,,86,78,24,11,2,2,0.4,0.2
2024-03-17T2300,1005A,116.462,39.9365,北京市,农展馆,颗粒物(PM10),66,82,39,19,7,53,,81,72,25,11,3,2,0.4,0.2
2024-03-17T2300,1006A,116.3392,39.9295,北京市,官园,颗粒物(PM10),59,67,44,23,8,70,,92,87,20,12,3,2,0.4,0.3
2024-03-17T2300,1007A,116.2878,39.9611,北京市,海淀万柳,颗粒物(PM10),62,73,47,16,7,66,,88,81,24,14,2,1,0.4,0.3
2024-03-17T2300,1008A,116.6636,40.135,北京市,顺义新城,颗粒物(PM10),65,80,41,23,8,55,,87,74,24,11,2,3,0.3,0.2
2024-03-17T2300,1009A,116.6275,40.3275,北京市,怀柔镇,颗粒物(PM10),63,75,38,23,7,52,,88,70,26,11,2,3,0.5,0.2
2024-03-17T2300,1010A,116.2296,40.217,北京市,昌平镇,颗粒物(PM10),58,66,43,15,7,57,,82,72,24,11,1,3,0.2,0.2
2024-03-17T2300,1011A,116.3966,39.9821,北京市,奥体中心,颗粒物(PM10),61,71,40,17,7,54,,78,74,26,12,1,3,0.3,0.2
2024-03-17T2300,1012A,116.184,39.9136,北京市,古城,颗粒物(PM10),68,85,52,22,8,61,,88,78,27,13,1,3,0.3,0.3
2024-03-17T2300,3281A,115.9718,40.4529,北京市,延庆夏都,颗粒物(PM10),51,51,38,13,8,64,,79,71,12,9,1,2,0.2,0.2
2024-03-17T2300,3417A,117.0709,40.1465,北京市,平谷新城,颗粒物(PM10),66,81,34,29,9,64,,95,81,29,16,2,3,0.5,0.2
2024-03-17T2300,3418A,116.8336,40.4095,北京市,密云新城,颗粒物(PM10),66,81,33,23,7,60,,90,77,21,8,2,3,0.4,0.2
2024-03-17T2300,3672A,116.1541,39.8204,北京市,丰台云岗,颗粒物(PM10),69,88,53,17,8,58,,85,74,20,11,1,3,0.3,0.2
2024-03-17T2300,3673A,116.6804,39.9081,北京市,通州东关,颗粒物(PM10),79,107,53,20,8,51,,96,82,38,13,2,3,0.5,0.2
2024-03-17T2300,3674A,115.9577,39.7603,北京市,房山燕山,颗粒物(PM10),54,57,43,13,7,76,,86,82,15,10,2,2,0.2,0.1
2024-03-17T2300,3675A,116.4672,39.7733,北京市,大兴旧宫,颗粒物(PM10),65,79,41,18,6,58,,86,78,20,9,1,3,0.4,0.2
2024-03-17T2300,3694A,115.986,40.4563,北京市,延庆石河营,,48,48,38,13,9,65,,88,80,11,9,3,3,0.2,0.2
2024-03-17T2300,3695A,116.6151,40.3053,北京市,怀柔新城,颗粒物(PM10),64,78,39,25,9,52,,89,71,29,12,3,1,0.4,0.1
2024-03-17T2300,3696A,116.2545,39.8768,北京市,丰台小屯,颗粒物(PM10),62,73,50,19,10,50,,83,73,29,8,1,3,0.2,0.2
2024-03-17T2300,3697A,116.84,40.3844,北京市,密云镇,颗粒物(PM10),65,80,34,19,6,62,,86,75,20,9,3,3,0.4,0.2
2024-03-17T2300,1761A,123.8275,41.3064,本溪市,大峪,颗粒物(PM10),53,56,105,20,15,44,,88,71,33,12,8,8,1.2,0.8
2024-03-17T2300,1762A,123.7567,41.3325,本溪市,溪湖,颗粒物(PM10),65,80,99,25,15,37,,91,66,31,12,4,6,0.7,0.4
2024-03-17T2300,1763A,123.7169,41.3094,本溪市,彩屯,颗粒物(PM10),60,69,76,37,20,41,,84,62,32,17,7,6,1.0,0.7
2024-03-17T2300,1764A,123.7669,41.2864,本溪市,东明,颗粒物(PM10),60,69,137,36,17,21,,90,65,61,19,10,7,1.4,0.6
2024-03-17T2300,1765A,123.7992,41.2664,本溪市,新立屯,,50,50,119,21,25,34,,93,57,44,14,12,10,1.7,0.9
2024-03-17T2300,1766A,123.8142,41.3472,本溪市,威宁,颗粒物(PM10),55,59,143,24,18,14,,85,48,54,19,5,6,0.7,0.5
2024-03-17T2300,2587A,105.2864,27.3125,毕节市,八中,细颗粒物(PM2.5),54,49,33,38,25,64,,97,85,8,11,7,9,0.7,0.7
2024-03-17T2300,2588A,105.31,27.2944,毕节市,师专,,50,50,30,35,25,65,,98,86,11,13,6,9,0.7,0.7
2024-03-17T2300,3537A,105.3631,27.3533,毕节市,长征村,细颗粒物(PM2.5),85,78,46,63,37,68,,103,87,10,12,7,8,0.7,0.7
2024-03-17T2300,1629A,118.0018,37.3617,滨州市,第二水厂,颗粒物(PM10),52,53,144,24,17,42,,98,76,42,18,8,6,0.8,0.5
2024-03-17T2300,1630A,117.9776,37.393,滨州市,北中新校,颗粒物(PM10),51,51,132,19,17,54,,96,79,34,18,23,11,0.8,0.5
2024-03-17T2300,3514A,117.9378,37.3956,滨州市,中海酒店,,41,41,121,22,21,56,,93,80,30,16,34,12,1.0,0.6
2024-03-17T2300,3515A,117.9378,37.3553,滨州市,开发区一中,颗粒物(PM10),52,53,143,29,19,39,,100,78,56,26,20,11,0.7,0.4
2024-03-17T2300,3516A,118.0917,37.694,滨州市,金海六路,,34,34,146,22,14,62,,100,82,28,12,12,8,0.5,0.5
2024-03-17T2300,4028A,117.9956,37.3753,滨州市,滨州市西街道办事处,,49,44,138,34,22,52,,96,77,32,17,20,12,0.8,0.5
2024-03-17T2300,2311A,115.8072,33.8399,亳州市,污水处理厂,颗粒物(PM10),103,156,199,30,54,54,,83,68,20,18,13,11,0.4,0.6
2024-03-17T2300,2312A,115.7789,33.8518,亳州市,三国揽胜宫,颗粒物(PM10),112,174,196,21,51,55,,90,67,20,16,14,11,0.5,0.6
2024-03-17T2300,3332A,115.7633,33.8034,亳州市,亳州学院,颗粒物(PM10),113,175,206,24,54,54,,100,68,16,14,8,9,0.4,0.5
2024-03-17T2300,2693A,82.0485,44.8556,博尔塔拉蒙古自治州,市党校,颗粒物(PM10),69,87,67,23,14,81,,85,85,10,8,7,9,0.3,0.2
2024-03-17T2300,2694A,82.0806,44.8969,博尔塔拉蒙古自治州,市环保局,颗粒物(PM10),122,194,79,19,15,48,,77,,25,12,6,7,0.5,0.5
2024-03-17T2300,1071A,116.8842,38.2991,沧州市,沧县城建局,颗粒物(PM10),71,92,105,44,25,71,,100,89,25,16,7,5,0.5,0.4
2024-03-17T2300,1072A,116.8584,38.3254,沧州市,电视转播站,颗粒物(PM10),67,84,101,36,17,65,,94,86,24,13,9,8,0.3,0.2
2024-03-17T2300,1073A,116.8709,38.3228,沧州市,市环保局,,,75,101,38,25,,,94,90,19,16,4,4,0.3,0.3
2024-03-17T2300,3324A,116.8136,38.3004,沧州市,河北水利电力学院,颗粒物(PM10),71,92,118,36,21,74,,94,87,16,12,9,8,0.4,0.3
2024-03-17T2300,2622A,97.1806,31.1273,昌都市,昌都监测站,,26,,14,9,9,83,,105,99,7,9,6,6,0.4,0.4
2024-03-17T2300,3719A,97.1714,31.1406,昌都市,昌都会议中心,,28,,8,10,7,89,,115,108,5,5,7,7,0.5,0.5
2024-03-17T2300,2690A,88.1236,43.8886,昌吉回族自治州,天山天池,,25,6,6,2,4,77,,90,83,5,5,6,6,0.5,0.5
2024-03-17T2300,2692A,87.2717,44.0297,昌吉回族自治州,新区政务中心,,22,21,28,9,19,69,,85,82,18,28,7,7,0.6,0.8
2024-03-17T2300,3613A,87.3095,44.0142,昌吉回族自治州,亚心广场,,21,19,31,7,16,65,,88,85,17,27,5,5,0.7,0.9
2024-03-17T2300,1119A,125.3325,43.9166,长春市,食品厂,,39,39,24,24,15,56,,82,64,31,16,9,7,0.4,0.3
2024-03-17T2300,1120A,125.2863,43.9027,长春市,客车厂,,28,27,21,19,16,58,,78,65,29,18,8,8,0.4,0.4
2024-03-17T2300,1121A,125.2841,43.8463,长春市,邮电学院,,41,41,22,21,15,63,,83,70,25,13,9,8,0.4,0.3
2024-03-17T2300,1122A,125.3716,43.8772,长春市,劳动公园,,29,29,22,15,14,70,,89,75,22,12,6,5,0.5,0.5
2024-03-17T2300,1123A,125.3297,43.8805,长春市,园林处,,36,36,21,16,10,61,,82,68,28,14,12,9,0.4,0.3
2024-03-17T2300,1124A,125.4605,43.79,长春市,净月潭,,23,18,20,16,10,70,,83,71,9,8,7,7,0.3,0.2
2024-03-17T2300,1126A,125.3863,43.8447,长春市,经开区环卫处,,36,36,22,17,11,53,,84,68,26,11,5,5,0.4,0.3
2024-03-17T2300,1127A,125.245,43.7783,长春市,高新区管委会,,29,29,26,16,11,61,,88,67,22,12,8,8,0.5,0.4
2024-03-17T2300,1128A,125.1761,43.8325,长春市,岱山公园,,45,45,22,25,16,38,,82,61,43,13,11,6,0.5,0.3
2024-03-17T2300,1335A,113.0833,28.2325,长沙市,经开区环保局,,42,,54,29,57,47,,44,44,24,25,4,4,0.7,0.7
2024-03-17T2300,1336A,112.8872,28.2189,长沙市,高开区环保局,,43,,58,30,63,62,,68,68,13,13,3,3,0.9,0.9
2024-03-17T2300,1337A,113.0792,28.2053,长沙市,马坡岭,细颗粒物(PM2.5),69,,59,50,73,41,,35,35,25,28,5,5,0.7,0.7
2024-03-17T2300,1338A,112.9394,28.19,长沙市,湖南师范大学,,25,18,66,17,62,65,,64,64,15,17,2,2,0.9,0.8
2024-03-17T2300,1339A,113.0178,28.1322,长沙市,雨花区环保局,,40,,57,28,39,53,,48,48,16,20,3,3,0.9,1
2024-03-17T2300,1340A,112.9792,28.2597,长沙市,伍家岭,,25,22,68,17,62,56,,51,51,21,23,4,4,0.9,0.8
2024-03-17T2300,1341A,113.0014,28.1944,长沙市,火车新站,,32,32,60,22,54,60,,56,56,16,18,2,3,0.9,0.8
2024-03-17T2300,1342A,112.9844,28.1178,长沙市,天心区环保局,,,28,68,16,37,57,,52,52,18,23,1,2,,0.4
2024-03-17T2300,1343A,112.8908,28.1308,长沙市,湖南中医药大学,,42,,61,29,74,63,,62,62,11,14,3,3,0.9,0.9
2024-03-17T2300,1344A,112.9581,28.3611,长沙市,沙坪,,21,21,66,7,28,44,,44,44,10,11,4,4,0.9,0.8
2024-03-17T2300,1727A,113.1147,36.1547,长治市,清华站,颗粒物(PM10),65,79,87,29,24,50,,88,80,36,22,11,9,0.8,0.6
2024-03-17T2300,1728A,113.1031,36.1989,长治市,监测站,颗粒物(PM10),63,75,85,36,29,72,,95,90,27,18,11,11,0.6,0.5
2024-03-17T2300,1730A,113.0886,36.2125,长治市,审计局,颗粒物(PM10),63,76,81,34,26,72,,92,88,22,15,12,12,0.4,0.4
2024-03-17T2300,1731A,113.0844,36.1856,长治市,长治八中,颗粒物(PM10),66,82,91,21,26,58,,98,86,42,23,7,7,0.5,0.5
2024-03-17T2300,2845A,113.1569,36.1911,长治市,德盛苑,颗粒物(PM10),60,69,80,29,27,71,,95,87,25,17,9,9,0.7,0.7
2024-03-17T2300,3568A,113.06,36.0464,长治市,向阳小学,颗粒物(PM10),83,115,113,29,38,47,,98,82,33,18,11,8,0.6,0.6
2024-03-17T2300,3569A,112.8792,36.3144,长治市,屯留一中,颗粒物(PM10),53,56,87,32,29,78,,95,89,14,16,5,9,0.3,0.5
2024-03-17T2300,3570A,113.235,36.3489,长治市,潞城四中,颗粒物(PM10),72,94,115,36,30,84,,96,94,18,19,7,7,0.2,0.3
2024-03-17T2300,1854A,111.6975,28.9703,常德市,市二中,颗粒物(PM10),53,55,60,16,37,93,,91,91,7,17,6,6,0.5,0.8
2024-03-17T2300,1857A,111.7158,29.1456,常德市,白鹤山,,41,41,69,27,57,42,,47,46,1,2,8,6,0.5,0.7
2024-03-17T2300,3138A,111.7153,29.0289,常德市,武陵区永安,,42,42,52,15,36,91,,90,90,10,21,6,6,0.5,0.7
2024-03-17T2300,3139A,111.6892,28.9881,常德市,鼎城区玉霞,颗粒物(PM10),52,53,67,16,36,94,,94,94,11,22,7,8,0.5,0.8
2024-03-17T2300,3140A,111.6625,29.0531,常德市,武陵区长庚,,46,46,59,18,40,90,,90,90,10,21,6,7,0.6,0.8
2024-03-17T2300,1196A,119.9633,31.762,常州市,市监测站,颗粒物(PM10),75,99,103,35,58,76,,78,78,17,33,7,8,0.3,0.3
2024-03-17T2300,1200A,119.9468,31.7069,常州市,武进监测站,颗粒物(PM10),70,89,103,30,50,68,,73,71,19,35,11,18,0.6,0.8
2024-03-17T2300,1201A,119.9255,31.9087,常州市,安家,颗粒物(PM10),68,85,87,35,54,82,,77,77,14,26,9,10,0.6,0.7
2024-03-17T2300,3002A,119.9805,31.8174,常州市,行政中心,颗粒物(PM10),70,90,85,28,53,84,,82,82,16,29,5,9,0.6,0.8
2024-03-17T2300,3003A,120.0522,31.7748,常州市,经开区,颗粒物(PM10),73,96,99,31,54,68,,75,73,24,39,6,7,0.3,0.5
2024-03-17T2300,3010A,119.9025,31.7964,常州市,钟楼,颗粒物(PM10),70,90,93,31,56,74,,76,75,15,22,8,8,0.6,0.8
2024-03-17T2300,3429A,119.8598,31.7066,常州市,武进经发区,颗粒物(PM10),86,122,97,19,39,70,,75,73,18,31,7,7,0.6,0.8
2024-03-17T2300,3430A,119.5826,31.7245,常州市,金坛城区,颗粒物(PM10),82,113,77,18,33,75,,77,76,14,21,6,7,0.6,0.7
2024-03-17T2300,2220A,120.4318,41.5881,朝阳市,西梁,,37,37,66,21,24,100,,104,102,11,10,10,9,0.5,0.4
2024-03-17T2300,2221A,120.4521,41.5646,朝阳市,河畔小区,,36,36,75,21,17,98,,100,100,8,7,8,5,0.5,0.5
2024-03-17T2300,2222A,120.4176,41.5648,朝阳市,八里堡,,42,42,90,25,30,84,,102,90,11,9,10,8,0.5,0.5
2024-03-17T2300,2223A,120.3806,41.5969,朝阳市,农业园区,颗粒物(PM10),58,66,86,27,28,81,,99,88,16,7,7,5,0.5,0.4
2024-03-17T2300,1705A,116.6367,23.6719,潮州市,西园路,细颗粒物(PM2.5),82,77,80,60,50,26,,95,74,36,26,7,9,1.0,0.8
2024-03-17T2300,3026A,116.6183,23.6608,潮州市,市政府,细颗粒物(PM2.5),77,69,96,56,65,33,,105,84,45,39,11,21,1.6,1.2
2024-03-17T2300,4036A,116.6461,23.6761,潮州市,金山,细颗粒物(PM2.5),85,80,72,63,51,23,,106,80,39,28,8,10,1.1,1
2024-03-17T2300,2472A,113.0073,25.9061,郴州市,马头岭,,27,27,55,15,26,41,,55,43,13,18,4,11,0.9,1
2024-03-17T2300,2473A,113.0116,25.8226,郴州市,市职中,,35,27,45,24,39,38,,69,45,12,16,4,11,0.9,0.9
2024-03-17T2300,2474A,113.0161,25.8001,郴州市,兴隆步行街,,32,31,52,22,38,39,,68,46,14,17,2,9,1.0,1.1
2024-03-17T2300,2475A,113.0383,25.8071,郴州市,市审计局,,38,30,45,26,38,39,,69,46,13,18,4,11,0.9,0.9
2024-03-17T2300,2476A,113.0348,25.7759,郴州市,市环保局,,41,41,57,27,46,35,,61,42,15,20,3,18,0.9,1
2024-03-17T2300,1431A,103.9728,30.7236,成都市,金泉两河,颗粒物(PM10),56,62,123,19,45,79,,82,77,8,14,1,1,0.3,0.3
2024-03-17T2300,1432A,104.176,30.6872,成都市,十里店,颗粒物(PM10),57,64,113,24,37,80,,90,89,12,15,1,2,0.4,0.4
2024-03-17T2300,1433A,104.079,30.5706,成都市,三瓦窑,颗粒物(PM10),56,61,118,30,39,80,,92,90,13,13,2,2,0.4,0.4
2024-03-17T2300,1434A,104.1114,30.63,成都市,沙河铺,颗粒物(PM10),51,52,108,34,37,78,,87,85,12,16,3,3,0.5,0.5
2024-03-17T2300,1437A,104.0786,30.6531,成都市,君平街,颗粒物(PM10),62,73,138,27,39,83,,89,88,18,21,5,5,0.3,0.3
2024-03-17T2300,1438A,103.613,31.0283,成都市,灵岩寺,颗粒物(PM10),58,65,85,27,30,76,,84,72,15,16,4,5,0.5,0.5
2024-03-17T2300,2880A,104.0239,30.65639,成都市,大石西路,颗粒物(PM10),57,63,129,25,38,90,,92,92,2,9,5,5,0.6,0.6
2024-03-17T2300,3136A,104.2725,30.5589,成都市,龙泉驿区区政府,,39,39,111,14,36,77,,98,95,7,13,1,2,0.6,0.6
2024-03-17T2300,3357A,104.0106,30.6931,成都市,金博路,颗粒物(PM10),56,61,134,34,45,82,,82,82,7,12,3,1,0.4,0.4
2024-03-17T2300,3359A,104.0578,30.5225,成都市,华阳,颗粒物(PM10),53,56,117,31,46,77,,93,90,10,14,1,2,0.5,0.4
2024-03-17T2300,3487A,104.2394,30.5319,成都市,车城东七路,颗粒物(PM10),57,63,128,33,43,76,,93,90,11,15,2,3,0.4,0.4
2024-03-17T2300,3488A,104.3853,30.7453,成都市,青白江技师分院,颗粒物(PM10),55,59,118,22,38,75,,92,86,9,16,3,3,0.6,0.6
2024-03-17T2300,3489A,104.0789,30.4072,成都市,科学城,颗粒物(PM10),54,57,134,28,43,89,,102,98,9,15,2,3,0.4,0.4
2024-03-17T2300,4011A,103.8506,30.6947,成都市,光华大道三段,颗粒物(PM10),58,66,135,25,47,69,,81,77,11,13,1,2,0.4,0.4
2024-03-17T2300,1062A,117.9531,40.9081,承德市,铁路,颗粒物(PM10),58,66,31,20,7,72,,90,80,23,14,8,6,0.4,0.2
2024-03-17T2300,1063A,117.9392,40.9763,承德市,中国银行,,45,45,25,20,8,79,,94,82,21,13,10,10,0.4,0.3
2024-03-17T2300,1064A,117.9503,40.928,承德市,开发区,,42,42,36,21,15,74,,90,84,18,12,8,7,0.4,0.3
2024-03-17T2300,1065A,117.8051,40.9655,承德市,文化中心,,47,47,36,17,10,46,,93,74,28,13,18,12,0.5,0.4
2024-03-17T2300,1066A,117.9268,41.0026,承德市,离宫,,28,22,18,19,14,68,,89,78,9,5,3,7,0.4,0.3
2024-03-17T2300,2314A,117.47,30.6618,池州市,池州学院,颗粒物(PM10),77,104,65,24,42,54,,80,61,25,40,4,8,0.6,0.8
2024-03-17T2300,3237A,117.4918,30.6617,池州市,展览馆,颗粒物(PM10),78,106,66,23,40,56,,81,64,21,28,4,5,0.6,0.8
2024-03-17T2300,3333A,117.5627,30.695,池州市,第八中学,颗粒物(PM10),78,105,61,19,37,53,,85,62,20,26,4,5,0.5,0.7
2024-03-17T2300,3334A,117.5038,30.6243,池州市,第十二中学,颗粒物(PM10),76,101,59,23,38,59,,94,64,15,24,4,4,0.5,0.7
2024-03-17T2300,1744A,118.9233,42.2816,赤峰市,松山一中,颗粒物(PM10),57,64,40,29,13,71,,87,65,16,18,8,10,0.5,0.5
2024-03-17T2300,1745A,118.9576,42.2728,赤峰市,哈达街,颗粒物(PM10),53,56,28,31,14,72,,87,74,18,16,10,11,0.5,0.5
2024-03-17T2300,1746A,118.8788,42.2554,赤峰市,天义路,颗粒物(PM10),52,53,25,26,11,62,,84,66,20,15,10,8,0.5,0.5
2024-03-17T2300,3058A,119.2658,42.0353,赤峰市,银河街,细颗粒物(PM2.5),64,65,55,46,27,52,,89,71,24,17,26,19,0.7,0.6
2024-03-17T2300,3286A,118.9359,42.3147,赤峰市,桥北物流园区,,37,37,28,17,20,74,,92,78,16,15,6,8,0.5,0.4
2024-03-17T2300,2521A,107.3476,22.4136,崇左市,市环保局江州分局,颗粒物(PM10),65,79,54,42,28,0,,41,28,29,16,7,7,0.8,0.6
2024-03-17T2300,2522A,107.3702,22.3707,崇左市,城南新区,颗粒物(PM10),61,71,41,38,26,2,,38,26,36,18,6,6,0.7,0.5
2024-03-17T2300,2298A,118.3093,32.3153,滁州市,老年大学,颗粒物(PM10),70,89,172,29,67,87,,83,83,18,22,6,10,0.4,0.6
2024-03-17T2300,2299A,118.3244,32.2786,滁州市,人大宾馆,颗粒物(PM10),66,82,176,20,59,83,,82,82,18,25,4,6,0.6,0.7
2024-03-17T2300,3207A,118.3118,32.3038,滁州市,市政府原办公楼,颗粒物(PM10),61,71,161,25,66,86,,82,82,16,24,3,6,0.5,0.6
2024-03-17T2300,3331A,118.3267,32.2634,滁州市,图书馆,颗粒物(PM10),67,83,176,21,59,84,,85,85,15,22,5,6,0.6,0.7
2024-03-17T2300,2605A,101.5482,25.0441,楚雄彝族自治州,州环境监测站,,45,41,55,31,42,98,,130,124,16,13,8,8,0.9,0.7
2024-03-17T2300,2606A,101.538,25.0492,楚雄彝族自治州,市经济开发区,"颗粒物(PM10),细颗粒物(PM2.5)",52,54,57,36,41,83,,121,113,26,15,7,7,1.0,0.8
2024-03-17T2300,2548A,107.5277,31.2827,达州市,达州职业技术学院,,20,20,83,10,27,51,,58,50,14,22,14,15,0.4,0.4
2024-03-17T2300,2549A,107.5086,31.2186,达州市,市环境监测站,,18,14,74,5,27,56,,58,48,17,29,9,12,0.6,0.7
2024-03-17T2300,2550A,107.4988,31.2132,达州市,凤凰小区,,20,12,74,7,32,63,,67,55,15,25,8,11,0.6,0.6
2024-03-17T2300,2551A,107.5082,31.1986,达州市,达县机关宾馆,,16,14,74,11,31,49,,59,44,23,34,7,10,0.5,0.5
2024-03-17T2300,2552A,107.4644,31.2124,达州市,市政中心,,17,16,65,2,28,52,,63,49,19,32,12,11,0.3,0.4
2024-03-17T2300,2614A,100.1542,25.7054,大理白族自治州,大理市环境监测站,,41,41,52,25,36,128,,132,132,7,10,7,7,0.6,0.7
2024-03-17T2300,2615A,100.2171,25.5811,大理白族自治州,大理古城,颗粒物(PM10),53,56,53,36,39,126,,136,131,7,13,7,7,0.6,0.7
2024-03-17T2300,1109A,121.612,38.9741,大连市,甘井子,颗粒物(PM10),62,73,90,41,23,70,,105,95,39,16,7,5,0.7,0.5
2024-03-17T2300,1110A,121.565,38.9511,大连市,周水子,,,57,77,32,23,74,,100,84,,14,,4,0.7,0.7
2024-03-17T2300,1111A,121.5637,38.8845,大连市,星海三站,颗粒物(PM10),56,62,87,37,24,71,,93,83,27,14,9,6,0.7,0.6
2024-03-17T2300,1112A,121.6302,38.9117,大连市,青泥洼桥,颗粒物(PM10),58,66,91,38,22,57,,100,82,50,18,19,9,1.0,0.7
2024-03-17T2300,1113A,121.6251,38.8638,大连市,傅家庄,颗粒物(PM10),58,65,83,30,21,76,,100,84,34,18,14,10,0.7,0.5
2024-03-17T2300,1114A,121.5213,38.8661,大连市,七贤岭,颗粒物(PM10),51,51,95,27,22,88,,112,105,19,13,11,11,0.6,0.5
2024-03-17T2300,1115A,121.2529,38.8061,大连市,旅顺,颗粒物(PM10),61,72,72,43,23,73,,96,92,25,10,9,8,1.0,0.7
2024-03-17T2300,1116A,121.7485,39.1311,大连市,金州,细颗粒物(PM2.5),69,84,89,50,25,84,,104,98,19,11,11,10,0.8,0.6
2024-03-17T2300,1117A,121.7811,39.0496,大连市,开发区,细颗粒物(PM2.5),69,85,93,50,23,65,,94,85,36,15,11,3,0.7,0.4
2024-03-17T2300,1118A,121.9762,39.0631,大连市,双D港,细颗粒物(PM2.5),59,58,111,42,25,94,,108,105,14,13,7,7,0.6,0.5
2024-03-17T2300,1789A,124.81117,46.03138,大庆市,大同区,,40,,24,28,26,64,,78,63,9,10,5,6,0.3,0.4
2024-03-17T2300,1790A,125.129,46.533,大庆市,龙凤区,,47,47,28,27,20,46,,79,65,18,14,5,5,0.5,0.4
2024-03-17T2300,1791A,124.902,46.408,大庆市,红岗区,,30,30,19,18,16,50,,83,64,23,11,6,5,0.5,0.4
2024-03-17T2300,1792A,125.153,46.586,大庆市,萨尔图区,,47,47,22,29,15,41,,77,58,32,15,9,8,0.5,0.5
2024-03-17T2300,1793A,124.9042,46.6215,大庆市,让胡路区,,39,39,25,26,16,69,,83,68,11,11,7,7,0.4,0.4
2024-03-17T2300,3481A,125.141,46.634,大庆市,萨区政府监测点,,46,34,16,32,14,54,,85,71,27,12,9,8,0.6,0.4
2024-03-17T2300,1723A,113.2994,40.0758,大同市,云冈宾馆,颗粒物(PM10),57,63,57,14,17,43,,91,71,41,21,18,13,0.5,0.7
2024-03-17T2300,1724A,113.3444,40.0917,大同市,大同大学,颗粒物(PM10),59,67,49,24,18,41,,91,68,40,18,19,17,0.6,0.5
2024-03-17T2300,1725A,113.2661,40.1269,大同市,安家小村,,46,46,55,20,16,78,,92,84,12,16,13,16,0.3,0.7
2024-03-17T2300,1726A,113.2711,40.0844,大同市,教育学院,颗粒物(PM10),55,59,57,14,18,35,,87,63,43,25,21,14,0.5,0.6
2024-03-17T2300,3282A,113.3397,40.0597,大同市,大同市卫生学校,颗粒物(PM10),58,66,52,36,19,28,,89,69,58,20,10,10,0.8,0.6
2024-03-17T2300,3565A,113.1367,40.1122,大同市,云冈站,颗粒物(PM10),59,68,54,19,16,16,,92,57,60,28,44,22,0.5,0.5
2024-03-17T2300,3566A,113.1186,40.2556,大同市,图书馆,颗粒物(PM10),52,53,49,30,19,66,,93,79,16,14,11,15,0.6,0.6
2024-03-17T2300,3567A,113.5931,40.0461,大同市,区一中,颗粒物(PM10),55,59,55,31,16,37,,82,62,28,15,21,8,0.9,0.5
2024-03-17T2300,3676A,113.2802,40.0995,大同市,第二人民医院,颗粒物(PM10),55,60,60,18,19,50,,95,73,38,24,19,15,0.6,0.7
2024-03-17T2300,2269A,124.1069,50.4097,大兴安岭地区,科技局,,36,28,17,25,17,59,,78,68,9,7,8,8,0.5,0.5
2024-03-17T2300,3663A,124.1164,50.4278,大兴安岭地区,红旗社区,,43,,16,30,11,46,,84,73,14,12,13,10,0.6,0.5
2024-03-17T2300,1600A,124.3303,40.0625,丹东市,江湾东路,颗粒物(PM10),54,57,68,26,17,62,,92,84,25,14,10,6,1.0,0.5
2024-03-17T2300,1601A,124.4256,40.1503,丹东市,临江后街,颗粒物(PM10),54,57,60,25,12,45,,86,74,39,14,9,8,0.6,0.6
2024-03-17T2300,1602A,124.3933,40.1461,丹东市,元宝山,,36,36,55,15,12,60,,83,79,25,11,8,7,0.6,0.5
2024-03-17T2300,1603A,124.3633,40.1092,丹东市,民主桥,,42,42,68,13,13,68,,81,70,20,16,13,9,0.5,0.4
2024-03-17T2300,3541A,109.5726,19.5167,儋州市,第一中学子站,,29,29,29,19,20,69,,70,70,6,6,7,8,0.5,0.6
2024-03-17T2300,3542A,109.5567,19.5187,儋州市,东坡学校子站,,29,29,28,17,19,71,,72,72,5,5,8,8,0.5,0.5
2024-03-17T2300,2616A,98.5842,24.428,德宏傣族景颇族自治州,德宏州监测站,细颗粒物(PM2.5),87,97,99,64,65,76,,152,122,28,31,3,8,1.0,0.9
2024-03-17T2300,3677A,98.5881,24.4368,德宏傣族景颇族自治州,芒市人民政府综合楼,细颗粒物(PM2.5),72,91,93,52,61,86,,154,128,16,18,3,7,0.8,0.9
2024-03-17T2300,1901A,104.4239,31.1208,德阳市,东山公园,,42,42,87,25,36,82,,94,92,7,10,1,1,0.4,0.3
2024-03-17T2300,1902A,104.3826,31.1317,德阳市,西小区,,47,47,90,24,35,75,,87,85,12,13,1,2,0.4,0.4
2024-03-17T2300,1904A,104.3553,31.1091,德阳市,耐火材料厂,,44,44,88,23,38,80,,85,84,8,12,2,4,0.3,0.3
2024-03-17T2300,3639A,104.4019,31.1244,德阳市,市教育局,,44,44,84,25,36,77,,88,86,11,11,2,1,0.3,0.3
2024-03-17T2300,1622A,116.3032,37.4674,德州市,儿童乐园,颗粒物(PM10),74,97,150,27,18,73,,90,86,21,16,16,8,0.5,0.4
2024-03-17T2300,1624A,116.2991,37.4451,德州市,监理站,颗粒物(PM10),68,85,143,24,15,79,,100,95,27,17,17,8,0.5,0.4
2024-03-17T2300,3066A,116.2721,37.4379,德州市,九衢泉纯净水厂,颗粒物(PM10),74,97,143,31,19,66,,96,89,38,20,13,7,0.6,0.4
2024-03-17T2300,3371A,116.3728,37.4403,德州市,开发区人民医院,颗粒物(PM10),69,88,153,27,17,70,,95,88,20,13,18,8,0.4,0.3
2024-03-17T2300,3372A,116.3572,37.4094,德州市,太阳城中学,颗粒物(PM10),69,88,155,31,20,51,,91,79,39,18,14,7,0.5,0.5
2024-03-17T2300,3511A,116.5652,37.3319,德州市,陵城艺术中心,颗粒物(PM10),67,83,148,27,18,70,,95,85,24,15,17,6,0.6,0.5
2024-03-17T2300,2621A,99.7056,27.8317,迪庆藏族自治州,迪庆州站,,40,40,40,24,25,101,,111,106,12,12,6,8,0.4,0.4
2024-03-17T2300,3180A,99.7136,27.8094,迪庆藏族自治州,质量技术监督局,,33,33,34,18,19,97,,108,102,11,10,6,6,0.6,0.6
2024-03-17T2300,2663A,104.6241,35.5734,定西市,东关小学,颗粒物(PM10),71,91,92,37,35,92,,98,89,11,15,8,10,0.4,0.4
2024-03-17T2300,2664A,104.6194,35.5934,定西市,供电公司,颗粒物(PM10),75,99,89,39,39,80,,97,87,16,13,8,9,0.2,0.2
2024-03-17T2300,1389A,113.7547,23.0494,东莞市,莞城梨川,,38,38,55,18,33,35,,73,54,30,36,7,8,0.6,0.7
2024-03-17T2300,1390A,113.7944,23.0128,东莞市,东城石井,,30,30,38,14,22,8,,73,47,26,24,7,7,0.6,0.7
2024-03-17T2300,1391A,113.7383,22.9658,东莞市,南城西平,,40,40,47,19,26,36,,68,53,27,32,7,9,0.6,0.7
2024-03-17T2300,3319A,113.7338,23.0381,东莞市,万江金泰,,46,46,62,24,38,16,,65,44,40,33,11,10,0.7,0.8
2024-03-17T2300,3626A,113.7533,23.0202,东莞市,南城元岭,,40,40,49,19,27,22,,59,,39,28,8,8,0.8,0.8
2024-03-17T2300,3627A,113.7875,23.0457,东莞市,东城主山,,35,35,46,20,27,26,,77,56,33,32,7,7,0.7,0.7
2024-03-17T2300,1666A,118.6614,37.4309,东营市,市环保局,,29,19,116,19,15,90,,105,99,15,11,6,6,0.2,0.2
2024-03-17T2300,3036A,118.6904,37.4338,东营市,开发区管委会,,30,30,127,9,18,85,,96,92,19,17,1,2,0.3,0.3
2024-03-17T2300,3365A,118.5719,37.565,东营市,垦利区民丰路,,21,19,114,12,14,67,,101,89,25,15,8,9,0.5,0.4
2024-03-17T2300,3498A,118.5055,37.8612,东营市,河口城区,,34,34,130,20,21,78,,93,90,12,10,6,4,0.5,0.5
2024-03-17T2300,3646A,118.4978,37.4623,东营市,胜利站,,32,32,125,17,15,80,,97,90,16,11,28,9,0.4,0.3
2024-03-17T2300,3734A,118.35,37.26,东营市,理想之城,,31,31,119,19,19,68,,96,82,19,15,2,3,0.5,0.5
2024-03-17T2300,1591A,110.0023,39.8129,鄂尔多斯市,综合楼,颗粒物(PM10),142,234,75,41,15,82,,92,87,13,23,2,5,0.5,0.6
2024-03-17T2300,1592A,109.9486,39.8261,鄂尔多斯市,巴音孟克林场办事处,颗粒物(PM10),131,212,67,39,16,82,,91,85,9,22,7,10,0.4,0.5
2024-03-17T2300,1593A,109.7736,39.5986,鄂尔多斯市,康泽苑,颗粒物(PM10),139,227,67,39,15,81,,98,92,16,19,5,7,0.4,0.5
2024-03-17T2300,1594A,109.8119,39.5989,鄂尔多斯市,华泰汽车城,颗粒物(PM10),117,183,65,39,19,82,,96,90,9,22,5,7,0.4,0.4
2024-03-17T2300,1595A,109.9734,39.7884,鄂尔多斯市,奥林花园,颗粒物(PM10),137,224,74,34,14,82,,86,76,12,28,6,9,0.5,0.6
2024-03-17T2300,2436A,114.8938,30.3994,鄂州市,市政府,颗粒物(PM10),55,60,63,30,39,76,,87,82,16,23,10,9,0.5,0.9
2024-03-17T2300,2437A,114.8989,30.3714,鄂州市,赵家坝,,43,43,63,24,41,71,,97,85,15,16,9,5,0.5,0.8
2024-03-17T2300,3654A,114.8094,30.4089,鄂州市,精准医疗中心,颗粒物(PM10),59,68,82,29,42,75,,85,85,13,24,4,6,0.6,0.7
2024-03-17T2300,2454A,109.4978,30.2981,恩施土家族苗族自治州,湖北民院,,48,46,51,33,31,39,,86,75,24,21,8,7,1.1,1.2
2024-03-17T2300,2455A,109.4707,30.2798,恩施土家族苗族自治州,州电力总公司,细颗粒物(PM2.5),52,50,38,36,30,30,,84,68,30,20,7,7,1.2,1
2024-03-17T2300,3549A,109.5061,30.3772,恩施土家族苗族自治州,龙凤新区,,35,33,38,24,31,74,,92,87,15,17,7,7,0.8,0.9
2024-03-17T2300,2499A,108.3411,21.6158,防城港市,沙万,颗粒物(PM10),52,54,53,31,34,8,,32,13,52,34,8,7,1.0,1
2024-03-17T2300,2500A,108.3514,21.7731,防城港市,防城档案局,,48,42,55,33,35,19,,43,34,16,19,6,6,1.0,1
2024-03-17T2300,2501A,108.3506,21.6414,防城港市,大海花园,颗粒物(PM10),51,51,42,28,25,28,,48,32,30,19,7,5,0.8,0.8
2024-03-17T2300,1371A,113.1294,23.0067,佛山市,湾梁,颗粒物(PM10),69,88,68,37,28,4,,68,46,67,42,8,8,1.2,0.8
2024-03-17T2300,1372A,113.1083,23.0478,佛山市,华材职中,颗粒物(PM10),64,78,74,42,37,4,,66,46,58,45,10,10,1.2,0.8
2024-03-17T2300,1373A,113.144,23.0453,佛山市,南海气象局,颗粒物(PM10),74,98,60,49,34,3,,65,48,71,44,8,8,1.6,0.7
2024-03-17T2300,1374A,113.2881,22.8094,佛山市,顺德苏岗,颗粒物(PM10),53,55,53,29,29,0,,67,41,53,38,4,4,0.7,0.6
2024-03-17T2300,1376A,112.8383,22.8678,佛山市,高明孔堂,,35,35,72,24,34,20,,53,37,20,39,4,4,0.6,0.8
2024-03-17T2300,1377A,112.8836,23.1588,佛山市,三水监测站,颗粒物(PM10),69,88,91,44,39,1,,29,8,68,58,9,9,1.3,1.1
2024-03-17T2300,1378A,112.867,23.185,佛山市,三水云东海,颗粒物(PM10),51,51,61,30,44,2,,43,14,17,30,3,5,0.6,0.8
2024-03-17T2300,3625A,113.2544,22.7642,佛山市,容桂街道办,颗粒物(PM10),58,66,59,29,29,5,,65,44,60,38,7,6,0.6,0.5
2024-03-17T2300,1282A,119.2681,26.0504,福州市,师大,,35,,34,24,31,90,,110,106,13,22,3,4,0.3,0.6
2024-03-17T2300,1283A,119.2984,26.1028,福州市,五四北路,,36,,26,25,32,85,,107,105,17,25,2,3,0.6,0.9
2024-03-17T2300,1284A,119.2648,26.0768,福州市,杨桥西路,,43,,31,30,29,87,,111,108,14,21,3,4,0.3,0.6
2024-03-17T2300,1285A,119.317,26.0746,福州市,紫阳,,40,,36,28,34,87,,105,104,14,23,2,2,0.5,0.9
2024-03-17T2300,3048A,119.5799,26.0936,福州市,九龙,,35,15,24,8,26,112,,119,119,10,22,3,3,0.3,0.5
2024-03-17T2300,3526A,119.5189,25.9664,福州市,吴航,,36,13,32,10,27,114,,117,117,10,25,2,4,0.4,0.7
2024-03-17T2300,1755A,123.7977,41.8491,抚顺市,望花区,颗粒物(PM10),67,84,133,45,26,50,,97,72,32,13,53,8,0.9,0.5
2024-03-17T2300,1756A,123.9161,41.8822,抚顺市,顺城区,细颗粒物(PM2.5),75,97,131,55,20,8,,101,63,67,18,6,5,0.9,0.5
2024-03-17T2300,1757A,124.0436,41.8611,抚顺市,东洲区,颗粒物(PM10),54,57,128,28,18,60,,97,64,17,10,16,7,0.7,0.5
2024-03-17T2300,1758A,123.9247,41.8642,抚顺市,新抚区,细颗粒物(PM2.5),78,88,130,57,17,17,,102,71,46,12,6,6,0.8,0.4
2024-03-17T2300,1759A,124.0972,41.8961,抚顺市,大伙房水库,,35,35,149,18,15,63,,98,72,11,10,5,5,0.4,0.3
2024-03-17T2300,1760A,123.7086,41.8391,抚顺市,沈抚新城,细颗粒物(PM2.5),87,97,136,64,21,28,,97,63,40,13,5,4,0.7,0.3
2024-03-17T2300,2376A,116.2127,28.0814,抚州市,桐源党溪,,28,28,29,16,19,61,,60,60,8,12,3,4,0.8,0.8
2024-03-17T2300,2377A,116.3544,27.9831,抚州市,市站,,26,23,39,18,26,69,,56,56,9,19,3,10,1.0,1.1
2024-03-17T2300,2378A,116.3565,27.963,抚州市,血防站,,25,20,38,15,26,79,,62,62,12,25,2,8,0.9,1.1
2024-03-17T2300,2379A,116.3564,28.0007,抚州市,采茶剧团,,28,22,37,19,27,68,,58,58,11,25,5,10,1.0,1.1
2024-03-17T2300,2380A,116.385,27.9647,抚州市,医学分院,,22,21,37,13,20,70,,57,57,13,26,7,10,1.2,1.3
2024-03-17T2300,2207A,121.6094,41.998,阜新市,工业园区,细颗粒物(PM2.5),67,67,105,48,24,73,,98,87,26,12,21,8,0.9,0.7
2024-03-17T2300,2208A,121.6697,42.0279,阜新市,长青街,细颗粒物(PM2.5),65,56,72,47,18,84,,97,91,22,11,9,6,0.6,0.4
2024-03-17T2300,2209A,121.6673,42.0705,阜新市,农业园区,颗粒物(PM10),58,65,85,31,17,97,,100,96,18,10,12,7,0.6,0.5
2024-03-17T2300,2210A,121.6717,42.0224,阜新市,东苑,细颗粒物(PM2.5),64,59,95,46,58,81,,92,86,25,14,17,9,1.0,0.9
2024-03-17T2300,2211A,121.6506,42.0498,阜新市,玉龙新城,颗粒物(PM10),53,56,87,32,17,82,,94,89,18,9,12,6,0.4,0.3
2024-03-17T2300,2301A,115.8277,32.8929,阜阳市,市监测站,颗粒物(PM10),130,210,183,40,69,55,,71,54,16,25,7,8,0.4,0.6
2024-03-17T2300,2303A,115.8554,32.8605,阜阳市,开发区,颗粒物(PM10),156,261,210,36,74,48,,65,46,23,28,5,6,0.5,0.6
2024-03-17T2300,2875A,115.784,32.8892,阜阳市,阜阳职业技术学院,颗粒物(PM10),123,195,179,36,64,58,,77,55,17,28,4,6,0.4,0.6
2024-03-17T2300,3468A,115.7901,32.8613,阜阳市,市规划展馆,颗粒物(PM10),144,237,165,18,53,62,,84,55,19,27,5,7,0.2,0.5
2024-03-17T2300,3469A,115.836,32.9183,阜阳市,枣园社区,颗粒物(PM10),141,231,168,19,58,62,,69,54,20,30,6,10,0.4,0.6
2024-03-17T2300,2669A,102.9099,34.9841,甘南藏族自治州,州政府,颗粒物(PM10),73,95,79,41,34,85,,97,85,9,11,8,9,0.3,0.4
2024-03-17T2300,3380A,102.8914,34.9617,甘南藏族自治州,甘肃民族师范学院,颗粒物(PM10),68,85,89,36,37,89,,100,91,11,14,3,12,0.4,0.5
2024-03-17T2300,2570A,101.9603,30.0475,甘孜藏族自治州,水桥子,,22,10,14,9,9,69,,86,81,10,15,11,11,0.5,0.4
2024-03-17T2300,3065A,101.9533,29.9972,甘孜藏族自治州,州环保局,,25,17,22,7,5,78,,88,82,10,18,8,8,0.4,0.4
2024-03-17T2300,3414A,115.8347,28.932,赣江新区,桑海产业园,颗粒物(PM10),56,61,49,38,36,55,,80,73,23,26,4,5,0.6,0.6
2024-03-17T2300,2363A,114.9367,25.8664,赣州市,地委,细颗粒物(PM2.5),52,39,46,36,26,41,,78,60,5,19,8,10,0.8,0.8
2024-03-17T2300,2364A,114.9461,25.8481,赣州市,气象台,,43,38,44,30,35,47,,86,68,15,24,13,15,0.6,0.6
2024-03-17T2300,2365A,114.9322,25.8333,赣州市,市图书馆,细颗粒物(PM2.5),59,59,50,42,30,45,,72,51,14,25,11,12,0.9,0.9
2024-03-17T2300,2366A,114.8905,25.8471,赣州市,华坚鞋城,细颗粒物(PM2.5),54,55,51,38,30,40,,81,56,10,22,7,9,0.8,0.8
2024-03-17T2300,3109A,115.0093,25.8613,赣州市,赣县区卫计委,细颗粒物(PM2.5),63,62,50,45,33,39,,70,48,17,21,8,8,0.6,0.8
2024-03-17T2300,2683A,106.2319,36.1417,固原市,马园,颗粒物(PM10),107,164,133,61,37,35,,92,73,44,28,5,4,0.3,0.1
2024-03-17T2300,2684A,106.2792,36.0022,固原市,监测站,颗粒物(PM10),118,185,129,79,41,39,,98,79,38,16,10,6,1.0,0.4
2024-03-17T2300,2685A,106.2375,36.0211,固原市,新区,颗粒物(PM10),117,184,126,72,36,37,,97,81,38,16,8,7,0.7,0.4
2024-03-17T2300,3522A,106.2177,35.9959,固原市,原州区十五小,颗粒物(PM10),121,192,141,67,39,61,,102,90,34,15,10,9,0.7,0.3
2024-03-17T2300,2544A,106.6303,30.4576,广安市,市委,细颗粒物(PM2.5),62,68,89,44,42,60,,80,66,11,13,4,4,0.6,0.6
2024-03-17T2300,2545A,106.6271,30.4663,广安市,友谊中学,颗粒物(PM10),53,55,76,30,41,64,,83,71,12,15,5,5,0.7,0.7
2024-03-17T2300,2547A,106.6388,30.4551,广安市,广电花园,细颗粒物(PM2.5),64,62,81,46,44,62,,82,69,11,14,6,6,0.6,0.6
2024-03-17T2300,2902A,106.6351,30.4865,广安市,北辰小学,细颗粒物(PM2.5),64,63,88,46,47,62,,81,68,12,14,8,8,0.6,0.7
2024-03-17T2300,2523A,105.8945,32.4535,广元市,黑石坡,,30,13,78,4,30,93,,93,89,10,9,4,4,0.3,0.3
2024-03-17T2300,2524A,105.821,32.4444,广元市,老城,,33,33,99,11,30,83,,82,73,9,11,3,2,0.4,0.4
2024-03-17T2300,2526A,105.8628,32.4287,广元市,监测站,,29,11,75,2,29,90,,89,83,6,6,4,5,0.4,0.4
2024-03-17T2300,3617A,105.8047,32.4166,广元市,经开区,,25,17,101,11,36,78,,81,75,13,12,3,3,0.5,0.4
2024-03-17T2300,1345A,113.2347,23.1423,广州市,广雅中学,颗粒物(PM10),69,87,65,43,35,3,,61,42,86,60,6,6,1.3,1
2024-03-17T2300,1346A,113.2612,23.105,广州市,市五中,"颗粒物(PM10),细颗粒物(PM2.5)",68,86,68,49,37,4,,56,39,77,60,6,6,1.4,1
2024-03-17T2300,1348A,113.3478,23.0916,广州市,广东商学院,颗粒物(PM10),61,72,66,35,35,2,,47,30,65,61,6,6,0.8,0.8
2024-03-17T2300,1349A,113.4332,23.1047,广州市,市八十六中,颗粒物(PM10),53,55,75,20,35,3,,41,22,67,66,6,7,0.6,0.8
2024-03-17T2300,1350A,113.3505,22.9483,广州市,番禺中学,颗粒物(PM10),51,51,58,24,28,2,,73,48,69,53,6,6,1.0,0.9
2024-03-17T2300,1351A,113.2146,23.3916,广州市,花都师范,细颗粒物(PM2.5),88,122,83,65,47,4,,50,36,80,58,6,6,1.7,1.1
2024-03-17T2300,1352A,113.2597,23.1331,广州市,市监测站,颗粒物(PM10),58,66,64,35,36,3,,63,44,86,67,6,6,0.9,0.8
2024-03-17T2300,1353A,113.5618,23.312,广州市,九龙镇镇龙,颗粒物(PM10),64,78,53,42,32,1,,52,21,48,45,6,6,0.9,0.8
2024-03-17T2300,1354A,113.2765,23.1544,广州市,麓湖,细颗粒物(PM2.5),62,71,62,44,36,2,,57,40,55,46,5,5,1.0,0.9
2024-03-17T2300,1355A,113.443,23.3035,广州市,帽峰山森林公园,,35,30,40,24,28,29,,57,47,38,30,7,6,0.6,0.6
2024-03-17T2300,2846A,113.3221,23.1322,广州市,体育西,颗粒物(PM10),56,62,68,32,37,3,,52,37,73,65,8,9,1.1,1
2024-03-17T2300,3298A,113.5717,23.5491,广州市,从化街口,细颗粒物(PM2.5),82,93,72,60,46,4,,62,33,47,33,6,7,1.2,1
2024-03-17T2300,3299A,113.3472,23.3692,广州市,白云竹料,颗粒物(PM10),74,98,85,49,46,3,,46,29,53,46,6,6,1.0,0.8
2024-03-17T2300,3300A,113.2981,23.237,广州市,白云嘉禾,颗粒物(PM10),70,90,83,41,43,3,,50,32,74,63,7,8,1.1,1
2024-03-17T2300,3301A,113.4256,23.1716,广州市,黄埔科学城,颗粒物(PM10),66,82,76,35,50,1,,50,30,54,52,4,6,0.9,0.9
2024-03-17T2300,3302A,113.3942,23.0483,广州市,番禺大学城,颗粒物(PM10),51,51,61,24,27,2,,50,33,62,57,4,5,1.0,0.9
2024-03-17T2300,3303A,113.4922,22.8168,广州市,南沙黄阁,,45,45,51,22,27,34,,61,52,35,45,5,5,0.8,0.9
2024-03-17T2300,3304A,113.5342,22.7896,广州市,南沙街,颗粒物(PM10),51,51,51,30,27,15,,61,46,44,42,5,7,0.8,0.7
2024-03-17T2300,3443A,113.2902,23.5544,广州市,花都梯面,颗粒物(PM10),54,58,66,29,37,2,,51,29,27,36,6,6,0.8,0.8
2024-03-17T2300,3445A,113.7858,23.7478,广州市,从化良口,,45,44,34,31,25,20,,60,44,17,14,4,4,0.8,0.8
2024-03-17T2300,3446A,113.8051,23.2614,广州市,增城荔城,细颗粒物(PM2.5),73,79,63,53,42,3,,87,49,43,27,5,6,0.8,0.7
2024-03-17T2300,2505A,109.568,23.1478,贵港市,德智高中,,39,31,56,27,40,11,,22,15,28,27,4,7,0.7,0.8
2024-03-17T2300,2506A,109.6047,23.0666,贵港市,江南子站,,46,39,64,32,41,0,,18,13,33,30,8,9,1.3,1
2024-03-17T2300,2507A,109.6014,23.0948,贵港市,贵城子站,,46,42,69,32,49,4,,12,6,31,31,8,10,0.8,0.9
2024-03-17T2300,2508A,109.5669,23.1065,贵港市,荷城子站,,39,29,57,27,43,9,,18,10,24,26,10,12,0.7,0.8
2024-03-17T2300,3405A,109.5886,23.1172,贵港市,新世纪学校,,40,31,59,28,43,10,,13,9,27,29,8,10,1.0,1.2
2024-03-17T2300,1439A,106.6899,26.5998,贵阳市,马鞍山,,39,39,35,24,24,32,,57,49,6,7,8,8,0.6,0.7
2024-03-17T2300,1440A,106.6971,26.5694,贵阳市,市环保站,,49,34,42,34,37,30,,59,51,15,20,6,8,0.5,0.6
2024-03-17T2300,1441A,106.6243,26.6266,贵阳市,鉴湖路,颗粒物(PM10),52,53,43,34,26,33,,57,49,15,15,3,4,0.5,0.5
2024-03-17T2300,1442A,106.7487,26.6343,贵阳市,燕子冲,,28,19,33,19,26,39,,59,52,9,12,5,7,0.6,0.7
2024-03-17T2300,1443A,106.6555,26.4365,贵阳市,碧云窝,颗粒物(PM10),59,68,48,41,26,37,,72,57,20,14,8,8,0.7,0.6
2024-03-17T2300,1444A,106.694,26.5161,贵阳市,中院村,"颗粒物(PM10),细颗粒物(PM2.5)",52,53,46,36,33,28,,60,49,19,22,10,12,0.7,0.7
2024-03-17T2300,1445A,106.7109,26.6027,贵阳市,红边门,,36,36,42,24,31,31,,54,46,10,14,5,8,0.5,0.6
2024-03-17T2300,1446A,106.7164,26.5699,贵阳市,新华路,,34,34,39,22,30,35,,61,52,12,14,4,6,0.6,0.6
2024-03-17T2300,1447A,106.674,26.5424,贵阳市,太慈桥,,42,39,40,29,30,32,,61,52,17,23,9,10,0.6,0.7
2024-03-17T2300,1862A,110.4144,25.3167,桂林市,电子科大尧山校区,细颗粒物(PM2.5),84,,42,62,28,53,,14,,6,8,8,4,0.7,0.8
2024-03-17T2300,1863A,110.2819,25.2697,桂林市,监测站,,50,,68,35,48,31,,54,42,12,25,7,10,0.8,1.2
2024-03-17T2300,1864A,110.3089,25.2708,桂林市,龙隐路小学,细颗粒物(PM2.5),57,,60,40,42,36,,61,52,10,21,4,7,0.7,0.9
2024-03-17T2300,1865A,110.2869,25.2178,桂林市,八中,,43,38,61,30,45,33,,56,45,11,25,5,7,0.8,1
2024-03-17T2300,3403A,110.1764,25.2381,桂林市,创业大厦,,39,36,64,27,44,35,,61,53,11,20,7,12,0.8,1
2024-03-17T2300,3531A,110.296,25.1253,桂林市,旅游学院,,49,34,47,34,36,35,,65,59,12,19,7,8,0.7,0.9
2024-03-17T2300,2674A,100.2561,34.4714,果洛藏族自治州,玛沁县大武镇,颗粒物(PM10),76,101,98,29,32,90,,94,90,21,23,9,10,0.4,0.5
2024-03-17T2300,1129A,126.5422,45.755,哈尔滨市,岭北,,38,32,14,26,11,35,,300,70,39,12,8,12,0.8,0.8
2024-03-17T2300,1130A,126.561,45.8167,哈尔滨市,松北商大,,31,31,18,17,10,44,,87,63,30,13,6,6,0.6,0.4
2024-03-17T2300,1131A,126.979,45.5419,哈尔滨市,阿城会宁,,43,,23,30,15,36,,84,64,38,18,12,20,0.5,0.4
2024-03-17T2300,1132A,126.599,45.7222,哈尔滨市,南岗学府路,颗粒物(PM10),54,57,26,28,10,4,,85,55,79,18,11,10,0.7,0.3
2024-03-17T2300,1133A,126.689,45.7733,哈尔滨市,太平宏伟公园,,48,43,18,33,12,18,,88,62,65,15,14,10,0.7,0.4
2024-03-17T2300,1134A,126.635,45.7667,哈尔滨市,道外承德广场,,32,31,19,22,10,31,,83,59,56,18,12,11,0.6,0.4
2024-03-17T2300,1135A,126.685,45.7319,哈尔滨市,香坊红旗大街,,45,39,19,31,14,30,,85,53,47,18,10,6,0.7,0.5
2024-03-17T2300,1136A,126.6411,45.7258,哈尔滨市,动力和平路,,40,40,19,28,15,20,,90,58,61,17,14,8,0.7,0.5
2024-03-17T2300,1137A,126.593,45.7478,哈尔滨市,道里建国路,,33,33,17,18,16,24,,79,54,59,20,12,4,2.2,0.4
2024-03-17T2300,1138A,126.615,45.61,哈尔滨市,平房东轻厂,,22,21,17,15,13,62,,80,62,9,15,5,6,0.4,0.2
2024-03-17T2300,1139A,126.595,45.9855,哈尔滨市,呼兰师专,,35,30,22,24,16,52,,86,64,34,14,11,10,0.7,0.5
2024-03-17T2300,1140A,126.6206,45.6842,哈尔滨市,省农科院,,49,48,20,34,18,8,,91,50,75,16,11,10,0.7,0.5
2024-03-17T2300,2688A,93.5128,42.8172,哈密市,地区监测站,,43,43,43,17,15,74,,89,87,18,11,3,6,0.3,0.3
2024-03-17T2300,2689A,93.4961,42.8328,哈密市,哈密师范学校,颗粒物(PM10),59,67,41,18,14,55,,85,80,28,13,6,7,0.4,0.3
2024-03-17T2300,2671A,100.9048,36.9639,海北藏族自治州,海晏县西海镇,颗粒物(PM10),83,115,107,40,30,88,,92,90,17,11,21,16,0.6,0.5
2024-03-17T2300,3867A,102.0738,36.5056,海东市,平安区公安北苑,颗粒物(PM10),136,221,107,42,33,90,,106,103,11,14,8,10,0.2,0.2
2024-03-17T2300,1410A,110.3232,20.0574,海口市,海南大学,,36,36,27,24,18,42,,66,55,7,5,7,7,0.4,0.3
2024-03-17T2300,1411A,110.283,20.0053,海口市,秀英海南医院,,33,33,26,22,17,45,,62,52,6,9,9,8,0.4,0.4
2024-03-17T2300,1412A,110.338,19.9969,海口市,海南师范大学,颗粒物(PM10),51,51,25,23,19,42,,65,54,8,4,8,8,0.4,0.4
2024-03-17T2300,1413A,110.33,20.0356,海口市,龙华路环保局宿舍,,37,37,28,22,18,41,,59,49,7,6,8,8,0.3,0.3
2024-03-17T2300,3539A,110.5111,19.9736,海口市,桂林洋子站,,33,32,27,23,18,41,,58,50,3,4,7,7,0.3,0.3
2024-03-17T2300,2673A,100.6188,36.2866,海南藏族自治州,共和县恰卜恰镇,细颗粒物(PM2.5),75,93,124,55,63,97,,99,97,10,13,12,12,0.5,0.5
2024-03-17T2300,2676A,97.3731,37.3753,海西蒙古族藏族自治州,德令哈市,颗粒物(PM10),91,132,147,30,33,105,,107,106,9,12,10,11,0.5,0.6
2024-03-17T2300,1048A,114.5302,36.6116,邯郸市,东污水处理厂,颗粒物(PM10),62,74,102,19,26,54,,86,75,22,14,2,3,0.3,0.3
2024-03-17T2300,1049A,114.4918,36.5713,邯郸市,矿院,,48,48,80,10,21,71,,84,78,14,13,2,2,0.4,0.4
2024-03-17T2300,1050A,114.484,36.6133,邯郸市,丛台公园,,30,30,83,8,21,74,,89,82,8,11,1,3,0.1,0.2
2024-03-17T2300,3458A,114.7895,36.5593,邯郸市,香泉濮院小区,颗粒物(PM10),70,89,112,28,25,59,,95,83,16,6,6,4,0.2,0.1
2024-03-17T2300,3579A,114.50634,36.77178,邯郸市,永年区实验高中,颗粒物(PM10),55,59,104,21,24,77,,96,83,14,20,2,4,0.3,0.3
2024-03-17T2300,3580A,114.20016,36.44293,邯郸市,峰峰矿区临水派出所,颗粒物(PM10),51,52,85,21,18,64,,96,89,16,7,6,5,0.4,0.5
2024-03-17T2300,2634A,106.9893,33.1842,汉中市,汉川机床厂子校,,37,37,81,23,34,56,,63,59,7,14,3,5,0.5,0.6
2024-03-17T2300,2635A,107.0154,33.0706,汉中市,市监测站,细颗粒物(PM2.5),58,53,95,41,44,50,,64,62,24,20,6,7,0.9,0.7
2024-03-17T2300,2636A,107.0089,33.1138,汉中市,鑫源开发区,颗粒物(PM10),71,91,104,44,43,57,,66,60,28,22,7,13,0.7,0.7
2024-03-17T2300,2637A,107.007,33.0323,汉中市,南郑大河坎水厂,细颗粒物(PM2.5),57,58,92,40,40,67,,61,58,16,16,7,7,0.7,0.6
2024-03-17T2300,1223A,120.2072,30.2111,杭州市,滨江,颗粒物(PM10),83,116,105,22,46,47,,77,66,31,58,4,5,0.5,0.7
2024-03-17T2300,1224A,120.0633,30.2747,杭州市,西溪,颗粒物(PM10),53,56,72,8,42,59,,67,61,27,40,7,7,0.5,0.9
2024-03-17T2300,1226A,120.3461,30.3153,杭州市,下沙,颗粒物(PM10),64,77,103,9,36,40,,75,56,36,52,6,6,0.5,0.7
2024-03-17T2300,1227A,120.1269,30.2456,杭州市,卧龙桥,颗粒物(PM10),66,81,68,17,42,47,,70,63,32,40,5,5,0.3,0.8
2024-03-17T2300,1228A,120.1903,30.2692,杭州市,浙江农大,颗粒物(PM10),57,63,103,12,49,42,,67,55,36,60,6,6,0.5,0.7
2024-03-17T2300,1230A,120.1197,30.3119,杭州市,和睦小学,颗粒物(PM10),55,59,121,9,48,50,,61,57,24,54,7,7,0.4,0.9
2024-03-17T2300,1231A,120.3019,30.4183,杭州市,临平镇,颗粒物(PM10),68,85,106,13,79,58,,76,63,19,38,5,5,0.2,0.5
2024-03-17T2300,1232A,120.2697,30.1819,杭州市,城厢镇,颗粒物(PM10),71,91,65,13,37,48,,79,66,24,30,7,8,0.5,0.8
2024-03-17T2300,1233A,120.0883,30.1808,杭州市,云栖,颗粒物(PM10),60,69,75,17,42,35,,69,59,23,33,8,8,0.5,0.8
2024-03-17T2300,3557A,119.9464,30.0494,杭州市,镇二中,颗粒物(PM10),53,56,48,12,27,54,,72,63,23,36,7,7,0.7,1
2024-03-17T2300,3558A,119.7183,30.2367,杭州市,市府大楼,颗粒物(PM10),62,73,66,31,42,60,,92,72,26,34,5,6,0.6,0.7
2024-03-17T2300,3656A,120.1556,30.2864,杭州市,消防大队,颗粒物(PM10),61,71,91,15,54,53,,70,62,31,71,9,10,0.6,1
2024-03-17T2300,1270A,117.1959,31.7848,合肥市,明珠广场,颗粒物(PM10),73,95,160,27,61,74,,95,62,19,31,1,1,0.6,0.8
2024-03-17T2300,1271A,117.3072,31.8764,合肥市,三里街,颗粒物(PM10),71,92,162,22,60,63,,53,51,18,31,5,5,0.5,0.7
2024-03-17T2300,1272A,117.2588,31.8707,合肥市,琥珀山庄,颗粒物(PM10),73,95,160,17,49,80,,73,69,20,29,4,4,0.2,0.5
2024-03-17T2300,1273A,117.1604,31.9052,合肥市,董铺水库,颗粒物(PM10),106,162,197,17,56,84,,83,75,9,21,2,2,0.2,0.4
2024-03-17T2300,1274A,117.25,31.8571,合肥市,长江中路,颗粒物(PM10),70,90,165,25,65,74,,90,66,16,22,7,8,0.7,1
2024-03-17T2300,1275A,117.266,31.9436,合肥市,庐阳区,颗粒物(PM10),89,127,185,19,59,72,,85,63,18,28,2,3,0.5,0.6
2024-03-17T2300,1276A,117.336,31.8586,合肥市,瑶海区,颗粒物(PM10),70,90,164,26,62,78,,81,65,13,24,6,7,0.5,0.8
2024-03-17T2300,1277A,117.3027,31.7964,合肥市,包河区,颗粒物(PM10),74,97,173,27,63,50,,50,44,41,60,5,6,0.2,0.4
2024-03-17T2300,1278A,117.2776,31.7385,合肥市,滨湖新区,颗粒物(PM10),75,100,175,22,59,72,,89,61,11,24,5,6,0.5,0.6
2024-03-17T2300,1279A,117.1318,31.8403,合肥市,高新区,颗粒物(PM10),73,95,162,24,71,75,,76,62,15,31,4,5,0.5,0.7
2024-03-17T2300,3464A,117.3803,31.9147,合肥市,高教基地,颗粒物(PM10),75,100,169,19,44,73,,73,68,16,27,3,4,0.2,0.4
2024-03-17T2300,3614A,79.924,37.0877,和田地区,地区环保局,颗粒物(PM10),255,388,724,96,171,72,,95,92,21,15,6,8,0.8,0.8
2024-03-17T2300,3615A,79.9131,37.113,和田地区,市环保局,颗粒物(PM10),253,387,738,75,139,77,,100,95,17,13,9,6,1.0,0.8
2024-03-17T2300,2516A,108.2011,24.715,河池市,东仁乐园,颗粒物(PM10),57,63,60,37,35,5,,11,10,21,11,5,5,0.6,0.6
2024-03-17T2300,2517A,108.0497,24.6947,河池市,市环保站,细颗粒物(PM2.5),55,49,57,39,38,9,,37,30,18,17,6,7,0.6,0.9
2024-03-17T2300,2518A,108.0983,24.6989,河池市,市疾控中心,细颗粒物(PM2.5),77,74,58,56,40,6,,41,31,33,23,8,8,0.7,1
2024-03-17T2300,1696A,114.6778,23.7569,河源市,源西,细颗粒物(PM2.5),62,65,43,44,29,7,,68,41,29,19,4,4,0.8,0.9
2024-03-17T2300,1697A,114.6944,23.7586,河源市,东埔,颗粒物(PM10),65,80,61,44,39,15,,69,48,34,20,7,6,0.9,1
2024-03-17T2300,1698A,114.6892,23.7233,河源市,老城,细颗粒物(PM2.5),59,,41,42,38,15,,64,40,13,18,5,6,0.6,0.7
2024-03-17T2300,1718A,115.4208,35.2464,菏泽市,气象局,颗粒物(PM10),66,82,166,29,33,70,,98,92,30,20,8,6,0.5,0.5
2024-03-17T2300,1719A,115.4747,35.2375,菏泽市,市政协,颗粒物(PM10),71,92,164,29,35,69,,94,88,29,20,6,6,0.4,0.4
2024-03-17T2300,3374A,115.5564,35.0891,菏泽市,定陶老年大学,颗粒物(PM10),117,183,170,29,39,59,,89,79,28,23,6,6,0.4,0.3
2024-03-17T2300,3647A,115.4702,35.2706,菏泽市,菏泽医专,颗粒物(PM10),79,107,172,44,33,63,,104,93,41,22,10,6,0.3,0.3
2024-03-17T2300,2514A,111.5264,24.4172,贺州市,环保小区,细颗粒物(PM2.5),63,70,54,45,32,6,,39,28,41,24,9,9,1.3,1
2024-03-17T2300,2515A,111.5608,24.4078,贺州市,政协大楼,细颗粒物(PM2.5),62,65,53,44,32,4,,33,19,38,27,8,8,0.9,0.7
2024-03-17T2300,3534A,111.4744,24.4553,贺州市,西湾,细颗粒物(PM2.5),59,46,45,42,33,3,,42,23,33,23,8,6,0.7,0.7
2024-03-17T2300,2385A,114.17,35.9019,鹤壁市,市监测站,颗粒物(PM10),58,66,114,18,39,73,,92,84,15,13,11,9,0.6,0.4
2024-03-17T2300,2386A,114.2956,35.7511,鹤壁市,市交警支队,颗粒物(PM10),55,59,105,10,23,56,,90,79,33,17,4,5,0.3,0.3
2024-03-17T2300,2387A,114.2878,35.7306,鹤壁市,迎宾馆,颗粒物(PM10),53,55,105,20,22,53,,90,78,35,18,4,7,0.4,0.4
2024-03-17T2300,3474A,114.2617,35.6822,鹤壁市,大新区,颗粒物(PM10),60,69,133,21,25,21,,92,74,59,20,6,8,0.4,0.5
2024-03-17T2300,3596A,114.1572,35.9603,鹤壁市,南山宾馆,颗粒物(PM10),75,100,138,22,38,56,,92,77,31,19,2,5,0.3,0.4
2024-03-17T2300,2244A,130.2537,47.3416,鹤岗市,哈啤分公司,,25,,18,16,14,80,,84,84,4,4,13,13,0.3,0.6
2024-03-17T2300,2245A,130.2684,47.3086,鹤岗市,斯达机电,,25,23,20,16,13,80,,84,83,6,5,9,10,0.3,0.2
2024-03-17T2300,2246A,130.3114,47.3388,鹤岗市,东山纸板厂,,26,8,41,6,12,83,,86,85,4,3,12,13,0.4,0.3
2024-03-17T2300,2247A,130.1097,47.3382,鹤岗市,五号水库,,30,30,18,17,12,76,,92,90,5,4,8,9,0.9,0.9
2024-03-17T2300,2263A,127.4833,50.2524,黑河市,交通局,,23,12,16,11,15,71,,83,77,5,4,5,6,0.3,0.3
2024-03-17T2300,2264A,127.5144,50.2341,黑河市,环保局,,30,,17,21,17,79,,83,79,6,8,3,5,0.3,0.3
2024-03-17T2300,1074A,115.6838,37.7541,衡水市,电机北厂,颗粒物(PM10),70,90,91,35,18,80,,93,85,11,7,3,3,0.4,0.2
2024-03-17T2300,1075A,115.6303,37.7316,衡水市,市监测站,颗粒物(PM10),67,84,83,20,15,64,,89,78,23,11,10,8,0.4,0.2
2024-03-17T2300,3188A,115.6683,37.7217,衡水市,市城管局,颗粒物(PM10),73,96,95,28,20,60,,88,75,29,14,5,3,0.5,0.3
2024-03-17T2300,3459A,115.5989,37.5491,衡水市,地表水厂,颗粒物(PM10),69,87,89,27,15,46,,94,74,31,8,4,2,0.4,0.2
2024-03-17T2300,2456A,112.5003,26.9167,衡阳市,原169医院,,27,27,35,18,20,65,,58,58,14,16,9,9,0.8,0.8
2024-03-17T2300,2457A,112.6194,26.9258,衡阳市,衡阳化工总厂,,28,28,45,17,32,25,,39,35,28,21,5,7,0.9,0.9
2024-03-17T2300,2458A,112.6211,26.8956,衡阳市,珠晖区环保局,,32,27,47,22,32,33,,40,38,21,17,6,7,1.1,1
2024-03-17T2300,2459A,112.6197,26.8733,衡阳市,市委党校,,41,41,45,17,27,19,,42,38,33,22,3,5,1.5,1.1
2024-03-17T2300,2460A,112.6006,26.8919,衡阳市,市监测站,,23,22,42,16,32,40,,41,41,22,19,6,7,1.1,1
2024-03-17T2300,2461A,112.5664,26.9056,衡阳市,真空机电公司,,29,24,42,20,26,46,,40,40,20,21,6,6,1.0,1
2024-03-17T2300,3399A,112.6703,26.882,衡阳市,师范学院,颗粒物(PM10),51,52,45,35,34,16,,48,42,28,20,7,7,1.9,1
2024-03-17T2300,2608A,103.3772,23.3993,红河哈尼族彝族自治州,污水处理厂,细颗粒物(PM2.5),87,91,101,64,75,101,,157,130,10,12,6,8,0.9,0.9
2024-03-17T2300,2609A,103.3861,23.35,红河哈尼族彝族自治州,监测站,细颗粒物(PM2.5),103,,96,77,74,101,,154,127,9,11,9,10,1.0,1
2024-03-17T2300,3038A,103.3758,23.368,红河哈尼族彝族自治州,州图书馆,细颗粒物(PM2.5),84,107,97,62,71,97,,145,120,8,10,5,6,1.0,1
2024-03-17T2300,1090A,111.6507,40.7517,呼和浩特市,呼市一监,细颗粒物(PM2.5),87,117,51,64,20,46,,96,74,30,21,16,12,0.8,0.5
2024-03-17T2300,1091A,111.6572,40.8033,呼和浩特市,小召,细颗粒物(PM2.5),103,153,61,77,23,41,,92,72,47,31,23,10,0.7,0.4
2024-03-17T2300,1094A,111.7516,40.8369,呼和浩特市,如意水处理厂,颗粒物(PM10),83,115,54,50,18,5,,84,59,87,34,15,11,0.8,0.4
2024-03-17T2300,1095A,111.7276,40.8062,呼和浩特市,二十九中,颗粒物(PM10),103,156,49,73,20,18,,88,66,64,30,22,12,0.9,0.5
2024-03-17T2300,1096A,111.5512,40.7866,呼和浩特市,工大金川校区,颗粒物(PM10),116,182,56,85,22,12,,84,56,78,33,21,10,1.0,0.5
2024-03-17T2300,1097A,111.717,40.7612,呼和浩特市,化肥厂生活区,颗粒物(PM10),91,132,58,61,20,35,,89,67,42,25,18,11,0.8,0.5
2024-03-17T2300,3698A,111.5968,40.8178,呼和浩特市,红旗小学,细颗粒物(PM2.5),132,207,62,100,22,14,,84,53,75,33,20,9,1.1,0.4
2024-03-17T2300,3699A,111.6518,40.8389,呼和浩特市,海东办,颗粒物(PM10),92,134,56,53,16,5,,88,56,87,43,15,9,0.8,0.4
2024-03-17T2300,2192A,119.7594,49.2261,呼伦贝尔市,区环保局,,32,29,22,22,18,84,,98,92,13,11,6,5,0.4,0.4
2024-03-17T2300,3061A,119.7512,49.1577,呼伦贝尔市,国华电力东,,28,26,24,19,18,83,,101,95,10,11,3,3,0.3,0.3
2024-03-17T2300,1250A,120.0751,30.8669,湖州市,城西水厂,颗粒物(PM10),62,74,89,13,52,71,,76,75,20,49,4,4,0.5,0.8
2024-03-17T2300,2873A,120.0875,30.8955,湖州市,仁皇山新区,颗粒物(PM10),61,72,85,16,56,66,,72,70,19,37,6,6,0.6,0.9
2024-03-17T2300,2907A,120.1844,30.8596,湖州市,吴兴区站,颗粒物(PM10),55,60,67,14,52,61,,70,65,20,45,6,7,0.6,1
2024-03-17T2300,3562A,120.4148,30.8538,湖州市,南浔区站,颗粒物(PM10),62,74,74,18,63,69,,80,69,17,39,7,8,0.5,0.9
2024-03-17T2300,1607A,120.9092,40.7136,葫芦岛市,龙港区,,30,30,94,16,17,93,,94,92,13,11,8,7,0.4,0.4
2024-03-17T2300,1608A,120.8392,40.7514,葫芦岛市,化工街,,46,46,113,29,18,48,,91,73,54,19,4,6,0.7,0.5
2024-03-17T2300,1609A,120.8341,40.7073,葫芦岛市,新区,,32,32,91,19,16,86,,95,87,22,14,11,8,0.5,0.4
2024-03-17T2300,1610A,120.8695,40.7677,葫芦岛市,东城区,,36,36,88,23,18,60,,95,78,44,17,10,7,0.9,0.7
2024-03-17T2300,2482A,109.5981,27.5721,怀化市,林科所,,27,18,14,6,7,86,,77,77,4,4,4,4,0.9,0.9
2024-03-17T2300,2483A,109.9453,27.5444,怀化市,河西地税局,,26,22,19,18,14,68,,59,59,10,12,3,4,0.8,0.8
2024-03-17T2300,2484A,109.9781,27.5342,怀化市,市四医院,,29,22,21,20,17,76,,63,63,10,12,4,5,1.0,1
2024-03-17T2300,2485A,109.9972,27.5578,怀化市,监测楼,,30,30,24,18,14,74,,63,63,10,12,5,7,0.8,0.8
2024-03-17T2300,2486A,110.0394,27.583,怀化市,市委党校,,33,33,21,17,16,71,,63,63,8,11,5,7,0.8,0.8
2024-03-17T2300,1210A,119.036,33.5981,淮安市,钵池山,颗粒物(PM10),86,122,181,33,49,50,,81,72,42,29,7,8,0.6,0.7
2024-03-17T2300,1211A,119.007,33.575,淮安市,北京南路,颗粒物(PM10),89,127,191,31,48,69,,87,84,26,27,6,7,0.5,0.7
2024-03-17T2300,1212A,118.989,33.6067,淮安市,市监测站,颗粒物(PM10),87,124,194,36,44,71,,88,85,30,30,6,7,0.5,0.6
2024-03-17T2300,1213A,119.135,33.5039,淮安市,楚州区监测站,颗粒物(PM10),106,161,212,32,48,53,,84,75,36,30,8,7,0.6,0.7
2024-03-17T2300,1214A,119.0186,33.6297,淮安市,淮阴区监测站,颗粒物(PM10),98,146,205,36,51,57,,81,72,36,34,4,5,0.4,0.4
2024-03-17T2300,3426A,118.8755,33.2894,淮安市,新华书店,颗粒物(PM10),98,145,204,39,30,57,,81,75,39,36,26,9,0.5,0.5
2024-03-17T2300,2282A,116.8004,33.975,淮北市,监测站,颗粒物(PM10),99,148,173,20,54,70,,93,79,17,20,6,7,0.6,0.7
2024-03-17T2300,2283A,116.8091,33.9007,淮北市,烈山区政府,颗粒物(PM10),109,167,253,28,66,74,,83,78,20,25,4,6,0.3,0.5
2024-03-17T2300,3330A,116.8873,33.9836,淮北市,杜集区检察院,颗粒物(PM10),107,164,211,34,70,69,,86,82,19,27,7,8,0.4,0.8
2024-03-17T2300,4017A,116.7923,33.9535,淮北市,市博物馆,颗粒物(PM10),107,163,186,18,42,61,,92,77,18,15,7,8,0.2,0.4
2024-03-17T2300,2277A,116.8305,32.7727,淮南市,潘集区政府,颗粒物(PM10),89,128,214,36,76,66,,63,63,19,22,2,2,0.3,0.4
2024-03-17T2300,2278A,117.0067,32.6524,淮南市,师范学院,颗粒物(PM10),92,133,218,29,76,66,,72,58,14,27,7,10,0.3,0.5
2024-03-17T2300,2279A,116.8569,32.5951,淮南市,谢家集区政府,颗粒物(PM10),104,157,224,26,66,71,,80,63,20,29,5,9,0.3,0.7
2024-03-17T2300,2280A,116.8281,32.633,淮南市,八公山区政府,颗粒物(PM10),101,152,217,21,68,70,,63,63,15,25,4,6,0.3,0.5
2024-03-17T2300,2281A,116.6325,32.6201,淮南市,焦岗湖风景区管理处,颗粒物(PM10),117,184,168,26,47,59,,71,71,25,37,3,3,0.0,0.2
2024-03-17T2300,2894A,117.0566,32.6531,淮南市,经济技术开发区消防队,颗粒物(PM10),90,130,216,28,66,72,,80,62,18,33,4,6,0.4,0.5
2024-03-17T2300,3329A,117.0108,32.5893,淮南市,山南新区,颗粒物(PM10),112,173,235,29,63,74,,113,69,22,31,5,7,0.5,0.7
2024-03-17T2300,2446A,114.9028,30.4742,黄冈市,职工中心,颗粒物(PM10),53,56,71,29,48,83,,92,86,7,12,8,9,0.4,0.7
2024-03-17T2300,2929A,114.8858,30.4519,黄冈市,红卫路,颗粒物(PM10),52,54,60,26,46,79,,97,90,12,15,6,7,0.4,0.6
2024-03-17T2300,3398A,114.9136,30.4445,黄冈市,市林业局,颗粒物(PM10),53,56,63,24,46,64,,96,86,17,11,6,6,0.4,0.5
2024-03-17T2300,2672A,102.0199,35.5102,黄南藏族自治州,同仁县隆务镇,颗粒物(PM10),71,92,122,44,52,83,,95,88,7,5,11,11,0.9,0.8
2024-03-17T2300,2295A,118.2903,29.6963,黄山市,延安路89号,颗粒物(PM10),64,77,71,39,38,68,,96,90,10,13,7,6,0.6,0.7
2024-03-17T2300,2296A,118.327,29.7178,黄山市,黄山东路89号,颗粒物(PM10),58,66,62,40,43,63,,89,84,14,17,6,5,0.6,0.8
2024-03-17T2300,2297A,118.1371,30.2756,黄山市,黄山区政府5号楼,细颗粒物(PM2.5),57,59,54,40,36,36,,76,55,17,17,4,4,0.7,0.8
2024-03-17T2300,2423A,115.0601,30.2313,黄石市,沈家营,颗粒物(PM10),53,56,88,20,37,95,,90,90,17,28,5,5,0.4,0.6
2024-03-17T2300,2424A,115.0817,30.2006,黄石市,陈家湾,颗粒物(PM10),58,65,79,36,53,78,,83,81,25,36,10,8,1.3,0.9
2024-03-17T2300,2426A,114.8988,30.2019,黄石市,铁山,颗粒物(PM10),56,62,59,20,44,104,,101,98,6,15,8,6,0.5,0.7
2024-03-17T2300,2427A,115.0307,30.2092,黄石市,团城山,,49,49,74,17,34,101,,94,94,13,27,7,7,0.4,0.7
2024-03-17T2300,3149A,115.0235,30.1578,黄石市,笔架山北路,,48,48,78,21,39,88,,99,96,14,17,4,5,0.5,0.8
2024-03-17T2300,1392A,114.4183,23.0528,惠州市,河南岸金山湖子站,颗粒物(PM10),67,84,62,46,37,15,,74,45,36,27,4,5,0.8,0.7
2024-03-17T2300,1393A,114.4053,23.0822,惠州市,下埔横江三路子站,细颗粒物(PM2.5),80,102,67,59,40,8,,89,50,61,26,6,6,1.5,0.8
2024-03-17T2300,1394A,114.4103,23.1142,惠州市,江北云山西路子站,颗粒物(PM10),64,77,59,41,26,30,,100,83,56,20,9,9,0.7,0.5
2024-03-17T2300,1395A,114.4645,22.7833,惠州市,惠阳区承修路船湖子站,,44,44,44,24,23,14,,67,45,44,20,7,7,0.7,0.6
2024-03-17T2300,1396A,114.5317,22.7422,惠州市,大亚湾管委会子站,颗粒物(PM10),53,55,61,21,27,4,,64,40,69,32,7,7,0.8,0.7
2024-03-17T2300,3314A,114.4338,22.8134,惠州市,惠阳秋长,,46,46,52,15,21,24,,77,54,40,29,8,7,0.7,0.6
2024-03-17T2300,3452A,114.6517,22.775,惠州市,大亚湾霞涌,,31,31,38,18,26,7,,77,53,35,19,7,8,0.5,0.6
2024-03-17T2300,2240A,130.9762,45.3001,鸡西市,环保局,,21,17,18,10,8,65,,64,64,7,8,5,5,0.2,0.1
2024-03-17T2300,2243A,130.9429,45.3039,鸡西市,第一中学,,27,16,18,12,8,86,,86,86,6,7,6,7,0.1,0.1
2024-03-17T2300,3707A,131.0207,45.3073,鸡西市,欧美日汽修厂,,24,20,20,15,10,75,,73,73,8,7,1,3,0.3,0.2
2024-03-17T2300,3709A,130.9967,45.3106,鸡西市,市政设施管理处,,26,20,18,16,9,81,,93,82,11,10,3,4,0.3,0.2
2024-03-17T2300,2367A,114.9754,27.0803,吉安市,红声器材厂,,32,32,48,17,28,51,,38,37,17,20,7,10,0.9,0.6
2024-03-17T2300,2368A,114.9658,27.0999,吉安市,市森林工业局,,26,23,39,18,32,57,,40,40,15,19,12,11,0.9,0.7
2024-03-17T2300,2369A,114.99,27.1312,吉安市,市环境监测站,,30,26,41,21,27,64,,40,40,15,20,6,8,0.9,0.8
2024-03-17T2300,2370A,115.0093,27.0968,吉安市,青原区法院,,,33,45,20,31,53,,41,39,,22,10,6,1.0,1
2024-03-17T2300,1772A,126.54,43.8622,吉林市,哈达湾,,23,23,22,14,12,65,,90,77,16,10,4,4,0.5,0.5
2024-03-17T2300,1773A,126.5844,43.8358,吉林市,东局子,,27,27,30,12,13,64,,88,70,16,13,6,6,0.6,0.5
2024-03-17T2300,1774A,126.5052,43.8245,吉林市,电力学院,,20,20,27,13,16,64,,96,67,18,12,7,7,0.5,0.5
2024-03-17T2300,1775A,126.6133,43.8972,吉林市,江北,,32,32,32,16,14,71,,90,73,16,14,18,10,0.5,0.5
2024-03-17T2300,1776A,126.555,43.8306,吉林市,江南公园,,28,28,28,18,16,63,,91,76,19,10,6,5,0.6,0.6
2024-03-17T2300,2868A,126.4739,43.953,吉林市,九站,,26,18,26,9,12,83,,98,84,15,12,7,8,0.5,0.5
2024-03-17T2300,1299A,116.9862,36.6114,济南市,科干所,颗粒物(PM10),68,85,150,24,22,95,,98,94,13,20,7,7,0.6,0.5
2024-03-17T2300,1300A,116.9376,36.665,济南市,农科所,颗粒物(PM10),72,93,157,24,22,37,,96,76,55,26,6,6,0.8,0.7
2024-03-17T2300,1301A,117.1265,36.6734,济南市,开发区,颗粒物(PM10),70,90,162,17,23,56,,100,81,45,22,7,8,0.5,0.5
2024-03-17T2300,1303A,117.0624,36.6868,济南市,省种子仓库,颗粒物(PM10),75,100,174,36,29,5,,92,64,86,26,6,5,0.5,0.3
2024-03-17T2300,1304A,116.9489,36.6447,济南市,机床二厂,颗粒物(PM10),85,120,169,29,25,39,,105,86,56,18,10,6,0.7,0.6
2024-03-17T2300,1305A,117.0495,36.663,济南市,市监测站,颗粒物(PM10),73,95,152,32,23,40,,101,82,67,28,10,10,0.7,0.6
2024-03-17T2300,1306A,116.7675,36.5484,济南市,长清党校,颗粒物(PM10),96,142,167,27,23,29,,103,82,71,28,5,5,0.6,0.5
2024-03-17T2300,1616A,117.6795,36.229,济南市,技术学院,颗粒物(PM10),57,63,186,27,32,70,,98,88,32,25,8,8,0.7,0.6
2024-03-17T2300,1961A,117.532,36.6868,济南市,东山小学,颗粒物(PM10),91,132,171,37,23,27,,100,72,64,23,11,8,0.6,0.4
2024-03-17T2300,3059A,117.7161,36.2049,济南市,泰兴公司,颗粒物(PM10),57,63,156,31,31,55,,96,76,37,21,9,9,0.6,0.6
2024-03-17T2300,3064A,117.6867,36.2171,济南市,莱芜战役纪念馆,颗粒物(PM10),60,70,179,24,31,64,,94,85,30,19,8,8,0.6,0.6
2024-03-17T2300,3494A,117.1673,36.9782,济南市,济阳区政府,颗粒物(PM10),72,93,138,44,33,50,,100,85,34,17,15,8,0.8,0.5
2024-03-17T2300,3495A,117.1171,36.63,济南市,锦屏中学,颗粒物(PM10),63,76,157,24,22,68,,93,83,18,15,6,7,0.5,0.4
2024-03-17T2300,3682A,116.9814,36.6819,济南市,济南四建,颗粒物(PM10),71,92,150,29,24,34,,87,67,62,30,9,8,0.7,0.5
2024-03-17T2300,1653A,116.6251,35.4302,济宁市,火炬城,颗粒物(PM10),66,82,128,9,31,66,,93,84,20,16,3,4,0.5,0.6
2024-03-17T2300,1655A,116.5491,35.4042,济宁市,电化厂,颗粒物(PM10),80,109,172,14,33,70,,92,81,22,16,5,5,0.5,0.6
2024-03-17T2300,3500A,116.5814,35.3707,济宁市,北湖一中,颗粒物(PM10),70,89,144,14,39,79,,84,84,13,15,6,8,0.6,0.5
2024-03-17T2300,3501A,116.8249,35.5593,济宁市,服务中心,颗粒物(PM10),83,115,147,20,29,64,,100,84,23,18,6,5,0.7,0.7
2024-03-17T2300,3678A,116.5907,35.4054,济宁市,市第七中学,颗粒物(PM10),71,91,149,12,31,78,,95,90,15,14,2,4,0.5,0.6
2024-03-17T2300,2255A,130.2751,46.8028,佳木斯市,佳纺,,17,17,17,8,7,48,,80,71,27,9,6,5,0.4,0.3
2024-03-17T2300,2256A,130.3995,46.8307,佳木斯市,发电厂,,24,13,15,8,6,75,,88,82,8,4,5,3,0.4,0.4
2024-03-17T2300,2257A,130.3258,46.7975,佳木斯市,环保局,,24,21,16,7,7,74,,86,76,16,9,3,4,0.5,0.5
2024-03-17T2300,2258A,130.3648,46.8032,佳木斯市,十一中,,,13,13,,11,76,,83,77,12,7,7,5,0.3,0.3
2024-03-17T2300,2259A,130.3794,46.7588,佳木斯市,四丰,,23,13,15,9,8,73,,93,84,16,7,1,1,0.5,0.5
2024-03-17T2300,1252A,120.7436,30.778,嘉兴市,清河小学,颗粒物(PM10),87,123,64,15,24,72,,80,69,12,32,6,7,0.8,0.9
2024-03-17T2300,1253A,120.726,30.7478,嘉兴市,嘉兴学院,颗粒物(PM10),66,82,63,14,40,71,,82,70,11,29,5,6,0.4,0.5
2024-03-17T2300,2872A,120.7846,30.7525,嘉兴市,南湖区残联,颗粒物(PM10),70,89,66,18,45,67,,78,70,15,33,6,7,0.5,0.6
2024-03-17T2300,3407A,120.6916,30.7739,嘉兴市,秀洲住建,颗粒物(PM10),91,132,66,20,29,68,,69,63,15,40,5,5,0.4,0.6
2024-03-17T2300,1945A,98.2908,39.7711,嘉峪关市,气象局,颗粒物(PM10),64,78,147,9,26,103,,102,102,1,16,2,25,0.1,0.5
2024-03-17T2300,2884A,98.2672,39.7978,嘉峪关市,酒钢宾馆,颗粒物(PM10),69,88,166,19,32,103,,102,102,1,18,7,31,0.2,0.7
2024-03-17T2300,3248A,98.2643,39.7724,嘉峪关市,雄关区,颗粒物(PM10),52,53,121,18,30,100,,100,100,2,21,4,20,0.2,0.5
2024-03-17T2300,1383A,113.1064,22.6058,江门市,北街,,43,42,46,30,28,18,,68,51,35,24,7,7,0.9,0.8
2024-03-17T2300,1384A,113.0731,22.5835,江门市,西区,,50,50,51,22,27,27,,69,51,35,29,6,7,0.6,0.6
2024-03-17T2300,1385A,113.0219,22.5311,江门市,圭峰西,,27,27,46,13,21,31,,68,52,22,25,6,6,0.7,0.7
2024-03-17T2300,1386A,113.0828,22.5947,江门市,东湖,,40,40,52,20,26,15,,68,49,32,23,5,6,0.6,0.5
2024-03-17T2300,3311A,113.1075,22.5647,江门市,江海富民,颗粒物(PM10),58,66,84,39,44,27,,74,55,38,27,7,7,0.6,0.5
2024-03-17T2300,3449A,113.05,22.4667,江门市,新会银湖,,39,34,44,27,38,34,,75,61,26,24,8,6,0.5,0.6
2024-03-17T2300,1828A,113.227,35.2125,焦作市,市环保局,颗粒物(PM10),62,74,114,16,28,38,,87,75,32,12,7,8,0.5,0.5
2024-03-17T2300,3169A,113.2725,35.2067,焦作市,太极体育中心,颗粒物(PM10),68,86,139,21,31,63,,88,76,23,16,7,8,0.4,0.5
2024-03-17T2300,3335A,113.3137,35.2641,焦作市,马村街道办,颗粒物(PM10),68,86,138,23,30,36,,87,69,42,17,9,8,0.2,0.3
2024-03-17T2300,3336A,113.2465,35.2373,焦作市,焦作技师学院,颗粒物(PM10),64,78,127,24,29,51,,83,73,30,17,5,5,0.4,0.4
2024-03-17T2300,3477A,113.1656,35.2539,焦作市,中站许衡医院,颗粒物(PM10),61,71,128,26,33,43,,95,68,42,17,7,6,0.3,0.4
2024-03-17T2300,3981A,113.2449,35.1803,焦作市,原李万街道办,颗粒物(PM10),77,103,121,24,24,31,,86,69,42,10,8,9,0.3,0.3
2024-03-17T2300,1708A,116.3701,23.5345,揭阳市,新兴,颗粒物(PM10),77,103,110,46,69,17,,85,61,54,32,11,10,2.2,1.2
2024-03-17T2300,1709A,116.3264,23.5443,揭阳市,西马,颗粒物(PM10),77,103,103,33,60,15,,77,60,54,29,10,10,2.3,1.1
2024-03-17T2300,1710A,116.3611,23.5626,揭阳市,东兴,细颗粒物(PM2.5),83,100,113,61,87,17,,85,64,51,30,16,10,1.9,1.2
2024-03-17T2300,1711A,116.4151,23.5294,揭阳市,渔湖,颗粒物(PM10),72,93,119,24,37,21,,96,73,44,29,13,10,1.4,1.1
2024-03-17T2300,3320A,116.403,23.5699,揭阳市,曲溪,颗粒物(PM10),69,88,78,44,50,6,,91,67,60,31,12,8,1.6,1.1
2024-03-17T2300,1944A,102.1692,38.5167,金昌市,天庆家园,颗粒物(PM10),66,81,80,13,9,87,,88,87,9,11,5,5,0.2,0.3
2024-03-17T2300,3170A,102.1864,38.5253,金昌市,市委党校,颗粒物(PM10),95,139,113,31,23,87,,92,90,5,6,10,11,0.3,0.4
2024-03-17T2300,4022A,102.1647,38.5371,金昌市,金川区人防中心,颗粒物(PM10),75,100,93,24,14,85,,91,90,8,8,11,11,0.2,0.3
2024-03-17T2300,1262A,119.647,29.077,金华市,十五中,细颗粒物(PM2.5),87,95,81,64,65,59,,83,78,30,47,3,4,0.7,1.1
2024-03-17T2300,1263A,119.686,29.1029,金华市,监测站,细颗粒物(PM2.5),83,102,88,61,52,54,,88,81,34,48,3,3,0.8,1.1
2024-03-17T2300,3659A,119.656,29.1131,金华市,气象局,细颗粒物(PM2.5),73,93,83,53,43,57,,83,78,29,42,2,3,0.3,0.8
2024-03-17T2300,1767A,121.1115,41.0879,锦州市,南山,,50,50,88,29,23,43,,101,78,58,16,12,9,0.7,0.6
2024-03-17T2300,1768A,121.0533,40.8434,锦州市,开发区,颗粒物(PM10),58,66,105,35,23,54,,89,66,55,22,57,13,0.7,0.5
2024-03-17T2300,1769A,121.1836,41.1119,锦州市,百股街道,颗粒物(PM10),54,58,112,29,22,76,,103,93,28,7,10,8,0.2,0.1
2024-03-17T2300,1770A,121.1178,41.1222,锦州市,天安街道,,49,45,93,34,18,61,,94,81,34,10,9,7,0.4,0.4
2024-03-17T2300,1771A,121.1303,41.1386,锦州市,北湖公园,,43,40,69,30,20,64,,92,81,38,16,12,10,0.5,0.4
2024-03-17T2300,2160A,112.85,35.5051,晋城市,自来水公司,颗粒物(PM10),69,87,110,19,35,58,,90,78,34,21,6,5,0.6,0.7
2024-03-17T2300,2161A,112.8318,35.4936,晋城市,白云商贸,颗粒物(PM10),68,85,120,27,32,50,,91,72,39,23,8,7,0.6,0.7
2024-03-17T2300,2162A,112.8508,35.4887,晋城市,市环保局,颗粒物(PM10),79,107,121,17,35,30,,89,68,61,25,7,5,0.7,0.8
2024-03-17T2300,2163A,112.8676,35.4897,晋城市,技术学院,颗粒物(PM10),70,90,119,19,32,42,,90,70,50,26,5,3,0.5,0.7
2024-03-17T2300,3620A,112.8271,35.4828,晋城市,泽州一中,颗粒物(PM10),75,99,125,17,33,35,,91,67,48,21,10,8,0.6,0.7
2024-03-17T2300,2171A,112.7532,37.6945,晋中市,锦纶小区,颗粒物(PM10),73,95,77,34,20,81,,97,88,20,19,11,12,0.7,0.5
2024-03-17T2300,2173A,112.7249,37.7067,晋中市,南都小区,颗粒物(PM10),81,111,73,46,23,83,,100,91,17,20,10,12,1.1,0.5
2024-03-17T2300,2174A,112.6991,37.6982,晋中市,榆次区政府,颗粒物(PM10),69,87,64,40,26,82,,102,92,16,20,10,10,0.4,0.3
2024-03-17T2300,2865A,112.7195,37.6828,晋中市,榆次三中,颗粒物(PM10),71,92,78,29,24,79,,97,88,16,19,11,12,0.6,0.5
2024-03-17T2300,2439A,112.2014,31.0481,荆门市,竹园小学,颗粒物(PM10),96,142,132,43,85,49,,83,67,25,22,7,8,0.6,0.7
2024-03-17T2300,2440A,112.1969,30.9891,荆门市,掇刀,颗粒物(PM10),92,134,123,51,83,56,,84,72,17,16,11,11,0.5,0.6
2024-03-17T2300,2441A,112.2213,31.0386,荆门市,石化一小,颗粒物(PM10),94,138,135,48,93,56,,83,73,16,20,11,14,0.5,0.6
2024-03-17T2300,3012A,112.1849,31.0362,荆门市,西山林语,颗粒物(PM10),89,127,124,34,78,63,,91,78,17,16,14,14,0.6,0.6
2024-03-17T2300,3547A,112.1632,31.0138,荆门市,龙泉中学南校,颗粒物(PM10),89,128,107,44,56,68,,97,82,13,12,14,9,0.5,0.7
2024-03-17T2300,1844A,112.2494,30.3197,荆州市,市图书馆,颗粒物(PM10),55,59,84,20,54,84,,92,92,14,22,6,7,0.5,0.7
2024-03-17T2300,1845A,112.2008,30.3544,荆州市,市委党校,颗粒物(PM10),64,77,95,27,56,54,,88,85,24,23,6,6,0.7,0.8
2024-03-17T2300,3194A,112.2747,30.3122,荆州市,管委会,颗粒物(PM10),55,59,86,25,53,91,,94,94,7,15,9,9,0.6,0.8
2024-03-17T2300,3548A,112.1655,30.3364,荆州市,学苑路,颗粒物(PM10),63,75,95,43,80,46,,81,77,38,34,7,7,0.8,0.9
2024-03-17T2300,2342A,117.3102,29.3867,景德镇市,王港中学,,24,23,30,10,25,74,,76,76,3,5,5,5,0.1,0.2
2024-03-17T2300,2343A,117.2117,29.2933,景德镇市,老干部活动中心,,23,20,40,16,31,63,,68,68,9,16,4,4,0.4,0.5
2024-03-17T2300,2344A,117.1894,29.2789,景德镇市,兽医站,,38,38,40,21,33,67,,78,78,12,18,6,6,0.7,0.7
2024-03-17T2300,2345A,117.1547,29.2617,景德镇市,台达陶瓷,,23,17,38,16,31,67,,76,76,10,17,6,9,0.7,0.8
2024-03-17T2300,2346A,117.2461,29.2956,景德镇市,陶研所,,33,,35,23,29,78,,70,70,11,18,3,4,0.6,0.6
2024-03-17T2300,1803A,115.9872,29.6815,九江市,十里,颗粒物(PM10),85,119,67,33,41,53,,97,69,22,26,9,9,0.6,0.8
2024-03-17T2300,1804A,115.9584,29.7046,九江市,茅山头,颗粒物(PM10),76,102,64,31,44,46,,91,64,27,31,9,9,0.7,0.8
2024-03-17T2300,1805A,115.9877,29.7295,九江市,西园,颗粒物(PM10),75,100,65,35,45,48,,93,66,25,30,9,8,0.7,0.8
2024-03-17T2300,1806A,116.0172,29.6547,九江市,五七二七厂,颗粒物(PM10),79,108,60,31,47,48,,86,62,20,20,9,8,0.6,0.7
2024-03-17T2300,1808A,115.9114,29.6038,九江市,综合工业园,颗粒物(PM10),81,112,59,46,48,55,,96,66,24,32,11,11,0.6,0.7
2024-03-17T2300,1809A,116.0721,29.7535,九江市,石化总厂,颗粒物(PM10),94,138,84,43,40,46,,89,62,20,30,10,10,0.7,0.9
2024-03-17T2300,1810A,115.9773,29.5698,九江市,庐山气象台,,26,,9,8,8,82,,100,84,8,8,7,10,0.9,0.7
2024-03-17T2300,3190A,116.0254,29.6994,九江市,外国语学校,颗粒物(PM10),71,92,60,33,36,50,,86,64,26,31,11,10,0.6,0.7
2024-03-17T2300,2658A,98.5061,39.7443,酒泉市,仓门街子站,颗粒物(PM10),65,80,137,26,32,89,,89,89,5,12,4,7,0.2,0.3
2024-03-17T2300,2659A,98.4989,39.7256,酒泉市,油田生活基地,颗粒物(PM10),92,134,134,32,32,96,,94,94,5,11,13,10,0.3,0.4
2024-03-17T2300,2698A,76.0072,39.4467,喀什地区,巡警大队,颗粒物(PM10),347,457,584,95,109,72,,96,93,28,18,2,2,0.5,0.4
2024-03-17T2300,2699A,75.9755,39.4694,喀什地区,吾办,颗粒物(PM10),375,480,584,114,143,75,,93,91,26,18,4,4,0.6,0.5
2024-03-17T2300,4027A,75.9483,39.4689,喀什地区,老干局,颗粒物(PM10),460,560,641,103,102,46,,100,93,55,17,7,2,1.1,0.5
2024-03-17T2300,1824A,114.3389,34.7781,开封市,肿瘤医院,颗粒物(PM10),57,63,153,25,65,61,,82,78,20,14,4,3,0.4,0.4
2024-03-17T2300,1826A,114.2885,34.7965,开封市,世纪星幼儿园,颗粒物(PM10),59,67,139,21,39,62,,90,84,28,19,1,3,0.3,0.4
2024-03-17T2300,3147A,114.3438,34.8106,开封市,龙亭公园,颗粒物(PM10),64,78,160,20,36,43,,77,68,31,18,4,4,0.3,0.4
2024-03-17T2300,3210A,114.3644,34.7964,开封市,汴京公园,颗粒物(PM10),60,69,151,18,36,60,,84,76,19,13,2,3,0.2,0.3
2024-03-17T2300,3473A,114.2485,34.8306,开封市,技师学院,颗粒物(PM10),72,94,152,22,36,35,,80,65,40,19,6,6,0.6,0.5
2024-03-17T2300,3592A,114.4644,34.7556,开封市,祥符区生态环境局,颗粒物(PM10),82,114,155,25,37,39,,78,61,46,34,8,7,0.4,0.5
2024-03-17T2300,1951A,84.895,45.6094,克拉玛依市,长征新村,,35,35,34,16,15,52,,83,78,31,16,8,8,0.5,0.3
2024-03-17T2300,1952A,84.8988,45.5893,克拉玛依市,南林小区,,37,37,35,20,21,22,,83,74,59,21,8,8,1.1,0.6
2024-03-17T2300,1954A,84.905,44.3396,克拉玛依市,独山子区,细颗粒物(PM2.5),70,80,83,51,26,61,,88,81,19,12,6,6,0.8,0.6
2024-03-17T2300,1955A,85.6979,46.098,克拉玛依市,乌尔禾区商贸楼,,47,47,34,23,16,61,,92,87,29,16,6,5,0.6,0.4
2024-03-17T2300,3612A,85.1045,45.6899,克拉玛依市,白碱滩区新站,,26,26,37,11,19,53,,85,81,24,12,7,7,0.3,0.3
2024-03-17T2300,2697A,76.1454,39.7142,克孜勒苏柯尔克孜自治州,市人民政府,颗粒物(PM10),223,366,547,96,132,49,,98,92,43,8,8,5,0.8,0.6
2024-03-17T2300,3665A,76.1658,39.7157,克孜勒苏柯尔克孜自治州,克州文化中心,颗粒物(PM10),295,416,566,107,135,73,,95,90,20,11,7,4,0.6,0.6
2024-03-17T2300,1450A,102.8204,24.8886,昆明市,呈贡新区,细颗粒物(PM2.5),67,63,61,48,52,116,,133,125,13,13,6,8,0.7,0.7
2024-03-17T2300,1451A,102.6251,24.9608,昆明市,西山森林公园,细颗粒物(PM2.5),55,58,58,39,38,130,,139,135,8,9,13,12,1.3,1.2
2024-03-17T2300,1452A,102.7252,25.0902,昆明市,龙泉镇,,,,59,48,41,46,,133,103,66,29,6,7,0.9,0.7
2024-03-17T2300,1453A,102.7266,25.0375,昆明市,东风东路,细颗粒物(PM2.5),67,72,69,48,47,118,,133,126,16,15,8,9,0.5,0.5
2024-03-17T2300,1454A,102.6742,25.0669,昆明市,金鼎山,细颗粒物(PM2.5),70,63,59,51,41,105,,130,118,25,19,7,6,0.8,0.8
2024-03-17T2300,1455A,102.6644,25.0401,昆明市,碧鸡广场,细颗粒物(PM2.5),77,76,61,56,46,94,,130,116,30,21,10,10,0.6,0.6
2024-03-17T2300,3179A,102.7494,25.0119,昆明市,官渡区博物馆,细颗粒物(PM2.5),65,75,69,47,45,106,,130,121,18,18,9,10,0.7,0.7
2024-03-17T2300,3375A,102.8017,24.8336,昆明市,青年创业园,细颗粒物(PM2.5),67,66,67,48,51,122,,141,133,8,12,9,11,0.6,0.6
2024-03-17T2300,3550A,102.7997,24.9786,昆明市,昆明学院,细颗粒物(PM2.5),68,75,70,49,47,103,,123,114,15,13,9,10,0.7,0.7
2024-03-17T2300,3551A,102.5967,24.6736,昆明市,晋宁区生态环境分局,细颗粒物(PM2.5),67,67,75,48,52,125,,143,137,9,9,4,6,0.8,0.8
2024-03-17T2300,3552A,102.6678,24.9856,昆明市,云天化总部,细颗粒物(PM2.5),60,68,63,43,44,129,,145,139,13,16,6,6,0.6,0.7
2024-03-17T2300,1456A,91.1319,29.6514,拉萨市,八廓街,,32,16,22,9,14,102,,117,110,11,18,6,6,0.4,0.4
2024-03-17T2300,1457A,91.1221,29.6747,拉萨市,市环保局,,30,28,21,19,14,94,,117,109,15,13,6,6,0.5,0.5
2024-03-17T2300,1458A,91.0874,29.6475,拉萨市,区监测站,,30,21,18,13,11,95,,117,105,18,13,5,5,0.3,0.4
2024-03-17T2300,1459A,91.1774,29.6541,拉萨市,西藏大学,,29,26,23,14,14,92,,116,108,17,14,4,3,0.1,0.2
2024-03-17T2300,1460A,90.9798,29.6588,拉萨市,区辐射站,,33,33,26,16,15,91,,113,105,16,16,5,5,0.4,0.4
2024-03-17T2300,1461A,91.0834,29.6292,拉萨市,拉萨火车站,,31,20,19,12,12,98,,115,106,13,8,2,3,0.3,0.3
2024-03-17T2300,2520A,109.2203,23.7256,来宾市,来宾技工学校,细颗粒物(PM2.5),52,40,60,36,41,17,,36,29,16,20,6,10,0.8,0.9
2024-03-17T2300,3535A,109.1781,23.7297,来宾市,兴宾区政府,,46,42,51,32,37,24,,47,37,17,16,4,7,0.8,0.7
2024-03-17T2300,4002A,109.2416,23.7461,来宾市,中南小学,,49,41,60,34,38,13,,40,26,23,22,6,10,0.8,1
2024-03-17T2300,1476A,103.631,36.1031,兰州市,兰炼宾馆,颗粒物(PM10),127,203,138,50,54,93,,94,92,7,18,4,10,0.2,0.3
2024-03-17T2300,1478A,103.8412,36.0726,兰州市,生物制品所,颗粒物(PM10),122,194,128,55,48,92,,95,95,9,24,8,11,0.2,0.5
2024-03-17T2300,1479A,103.831,36.0464,兰州市,铁路设计院,颗粒物(PM10),111,171,121,52,49,86,,90,88,18,30,6,9,0.3,0.5
2024-03-17T2300,3186A,103.7158,36.1058,兰州市,教育港,颗粒物(PM10),118,186,129,47,40,87,,95,92,17,23,6,8,0.3,0.4
2024-03-17T2300,3241A,103.7439,36.0842,兰州市,百合公园,颗粒物(PM10),118,186,125,44,40,90,,92,92,12,23,2,5,0.5,0.6
2024-03-17T2300,3242A,103.9611,35.998,兰州市,和平,颗粒物(PM10),117,184,126,53,47,94,,99,91,9,21,11,11,0.2,0.5
2024-03-17T2300,3245A,103.6633,36.533,兰州新区,新区管委会,颗粒物(PM10),164,278,129,65,39,91,,102,99,4,14,6,10,0.2,0.5
2024-03-17T2300,3246A,103.6975,36.4789,兰州新区,舟曲中学,颗粒物(PM10),150,249,153,61,44,85,,94,92,7,16,8,11,0.5,0.5
2024-03-17T2300,1067A,116.6708,39.5111,廊坊市,药材公司,颗粒物(PM10),73,96,58,44,14,52,,96,81,32,14,2,3,0.5,0.4
2024-03-17T2300,1068A,116.7214,39.5589,廊坊市,开发区,颗粒物(PM10),67,83,47,39,14,56,,95,80,31,15,8,3,0.5,0.3
2024-03-17T2300,1070A,116.7244,39.5269,廊坊市,北华航天学院,颗粒物(PM10),69,87,55,34,7,57,,98,82,29,13,9,3,0.4,0.3
2024-03-17T2300,2919A,116.7022,39.5453,廊坊市,河北工业大学,颗粒物(PM10),68,85,49,42,14,55,,94,80,30,12,6,2,0.4,0.3
2024-03-17T2300,2535A,103.7723,29.5462,乐山市,花湖湾,颗粒物(PM10),76,102,104,41,44,67,,73,70,17,17,4,5,0.4,0.4
2024-03-17T2300,2536A,103.7627,29.5844,乐山市,牛耳桥,颗粒物(PM10),87,123,134,47,47,75,,74,70,20,22,4,5,0.5,0.5
2024-03-17T2300,2537A,103.7508,29.6006,乐山市,市第三水厂,颗粒物(PM10),77,103,130,42,44,78,,80,75,21,24,3,5,0.5,0.5
2024-03-17T2300,2538A,103.7571,29.5664,乐山市,市监测站,颗粒物(PM10),80,109,128,36,46,75,,78,75,17,16,4,5,0.5,0.5
2024-03-17T2300,3361A,103.7311,29.5628,乐山市,理工大学,颗粒物(PM10),80,109,120,40,45,78,,78,75,14,17,5,6,0.5,0.5
2024-03-17T2300,2599A,100.2497,26.8802,丽江市,丽江古城,,40,40,45,26,26,98,,117,107,9,8,9,9,0.6,0.6
2024-03-17T2300,2600A,100.2203,26.8906,丽江市,市中心,,29,26,32,17,16,91,,108,100,12,11,8,8,0.8,0.8
2024-03-17T2300,1267A,119.914,28.4514,丽水市,监测站大楼,,38,38,43,16,26,77,,83,83,14,27,4,5,0.7,0.8
2024-03-17T2300,1268A,119.93,28.4586,丽水市,莲都小学,颗粒物(PM10),53,55,55,9,24,83,,89,89,14,26,3,3,0.6,0.6
2024-03-17T2300,1269A,119.879,28.4231,丽水市,余庄前,细颗粒物(PM2.5),69,65,46,50,30,66,,54,54,22,20,4,5,0.7,0.7
2024-03-17T2300,1173A,119.176,34.5885,连云港市,市环境监测站,颗粒物(PM10),96,141,191,31,33,80,,91,90,27,25,6,7,0.4,0.4
2024-03-17T2300,3000A,119.3581,34.6972,连云港市,德源药业,颗粒物(PM10),103,156,175,31,30,2,,92,68,101,31,5,4,0.5,0.5
2024-03-17T2300,3007A,119.178,34.844,连云港市,新城一中,颗粒物(PM10),85,119,106,32,25,25,,94,70,75,38,7,9,0.7,0.7
2024-03-17T2300,3008A,119.3608,34.7519,连云港市,胡沟管理处,颗粒物(PM10),85,119,154,27,26,45,,80,55,56,28,11,11,0.6,0.6
2024-03-17T2300,3009A,119.1478,34.5911,连云港市,矿山设计院,颗粒物(PM10),98,146,192,31,30,83,,89,89,22,25,4,5,0.6,0.7
2024-03-17T2300,3434A,119.2413,34.6539,连云港市,工贸学校,颗粒物(PM10),73,96,143,27,26,91,,106,104,13,19,8,8,0.5,0.7
2024-03-17T2300,3664A,119.4172,34.7341,连云港市,连云街道,颗粒物(PM10),74,97,142,25,25,49,,114,107,59,34,3,4,0.5,0.6
2024-03-17T2300,2571A,102.3431,27.8099,凉山彝族自治州,青龙寺,,41,38,40,6,8,131,,132,132,4,5,4,4,0.7,0.8
2024-03-17T2300,2572A,102.2721,27.8415,凉山彝族自治州,邛海宾馆,,39,32,42,20,27,122,,126,125,5,7,9,10,0.4,0.5
2024-03-17T2300,2573A,102.2625,27.898,凉山彝族自治州,西昌市政府,,38,37,46,26,30,114,,125,122,10,9,14,12,1.0,0.9
2024-03-17T2300,2574A,102.2685,27.8851,凉山彝族自治州,凉山州政府,,37,37,50,22,29,114,,123,121,8,8,9,10,0.7,0.7
2024-03-17T2300,2575A,102.237,27.8914,凉山彝族自治州,长安,,39,39,50,22,28,122,,131,128,9,12,13,16,1.0,1.2
2024-03-17T2300,2212A,123.2,41.1953,辽阳市,宏伟区,细颗粒物(PM2.5),69,62,152,50,30,72,,92,81,21,16,11,11,0.7,0.6
2024-03-17T2300,2213A,123.1683,41.2495,辽阳市,新华园,细颗粒物(PM2.5),128,139,170,97,40,19,,89,60,61,20,42,15,1.5,0.9
2024-03-17T2300,2214A,123.2354,41.2639,辽阳市,滨河路,细颗粒物(PM2.5),119,109,157,90,37,58,,90,73,30,15,12,11,0.9,0.6
2024-03-17T2300,2215A,123.149,41.2991,辽阳市,铁西工业园,细颗粒物(PM2.5),247,255,180,197,53,12,,98,55,68,23,15,12,1.6,0.7
2024-03-17T2300,2227A,125.1358,42.8845,辽源市,环保局,,38,36,45,26,16,46,,90,72,26,11,8,10,0.7,0.6
2024-03-17T2300,3239A,125.0764,42.9078,辽源市,银鹰制药,,35,33,53,24,18,56,,90,70,25,10,13,6,0.6,0.5
2024-03-17T2300,1625A,115.9848,36.4372,聊城市,区政府,颗粒物(PM10),97,143,146,45,26,68,,93,86,28,13,8,5,0.7,0.6
2024-03-17T2300,2878A,116.0072,36.4343,聊城市,聊大东校,颗粒物(PM10),89,127,144,42,29,76,,99,91,28,17,10,7,0.7,0.6
2024-03-17T2300,3200A,115.9819,36.4978,聊城市,监控中心,颗粒物(PM10),93,136,153,31,27,56,,98,81,44,16,8,7,0.7,0.7
2024-03-17T2300,3513A,116.0445,36.4361,聊城市,九州社区,颗粒物(PM10),89,128,155,38,25,68,,98,85,19,11,8,6,0.6,0.6
2024-03-17T2300,4018A,116.0567,36.4608,聊城市,星美广场,颗粒物(PM10),101,152,177,61,29,64,,95,82,34,20,10,7,0.7,0.6
2024-03-17T2300,2632A,94.3681,29.6376,林芝市,林芝监测站,,38,10,13,2,4,120,,128,126,2,2,5,5,0.7,0.7
2024-03-17T2300,2633A,94.3616,29.6616,林芝市,林芝人民医院,,36,13,15,10,9,114,,123,121,6,5,5,6,0.7,0.6
2024-03-17T2300,2603A,100.0781,23.8982,临沧市,市环保局,细颗粒物(PM2.5),65,60,62,47,53,94,,128,120,14,14,7,10,0.5,0.6
2024-03-17T2300,2604A,100.0894,23.8822,临沧市,市气象局,细颗粒物(PM2.5),64,61,67,46,50,86,,121,112,18,15,6,9,0.6,0.6
2024-03-17T2300,1733A,111.5531,36.0783,临汾市,临钢医院,颗粒物(PM10),67,84,124,31,36,68,,95,84,15,14,5,6,0.5,0.5
2024-03-17T2300,1734A,111.5028,36.0714,临汾市,技工学校,颗粒物(PM10),57,63,120,33,39,74,,96,85,11,16,6,8,0.7,0.7
2024-03-17T2300,1736A,111.5018,36.0855,临汾市,市委,颗粒物(PM10),62,74,119,23,29,77,,101,89,10,12,5,6,0.6,0.6
2024-03-17T2300,3018A,111.505,36.1014,临汾市,唐尧大酒店,颗粒物(PM10),59,67,105,25,30,74,,94,86,13,14,5,7,0.5,0.5
2024-03-17T2300,3668A,111.5036,36.0414,临汾市,城南,细颗粒物(PM2.5),63,60,118,45,42,43,,100,80,24,13,8,8,0.6,0.5
2024-03-17T2300,2667A,103.2069,35.5993,临夏回族自治州,环保局,细颗粒物(PM2.5),107,156,114,80,42,30,,83,68,39,9,6,3,1.1,0.5
2024-03-17T2300,2668A,103.2417,35.6057,临夏回族自治州,建设大厦,颗粒物(PM10),104,158,112,69,45,14,,81,62,53,16,2,1,0.8,0.4
2024-03-17T2300,1618A,118.3429,35.0532,临沂市,沂河小区,颗粒物(PM10),93,136,181,43,43,65,,93,84,33,23,8,5,0.7,0.6
2024-03-17T2300,1619A,118.295,35.0583,临沂市,鲁南制药厂,颗粒物(PM10),92,134,194,31,33,70,,102,94,37,24,8,6,0.6,0.5
2024-03-17T2300,1620A,118.2794,34.9976,临沂市,新光毛纺厂,颗粒物(PM10),87,124,181,29,37,75,,93,90,61,30,4,4,0.8,0.8
2024-03-17T2300,1621A,118.3956,35.0888,临沂市,河东保险公司,颗粒物(PM10),90,129,176,47,39,48,,96,76,53,31,5,4,0.6,0.6
2024-03-17T2300,3370A,118.3564,35.0215,临沂市,十里堡居委,颗粒物(PM10),86,122,186,24,36,81,,97,89,23,24,4,4,0.7,0.6
2024-03-17T2300,3496A,118.3604,35.1084,临沂市,南坊新区,颗粒物(PM10),102,153,173,44,37,55,,96,84,44,24,7,7,0.6,0.5
2024-03-17T2300,3860A,118.3920,35.0300,临沂市,皇山花园小区,颗粒物(PM10),108,166,216,52,40,53,,99,84,45,23,17,7,0.9,0.7
2024-03-17T2300,1870A,109.4856,24.3895,柳州市,柳东小学,,26,25,45,18,34,32,,55,46,20,20,6,8,0.5,0.5
2024-03-17T2300,1871A,109.4157,24.3277,柳州市,环保监测站,,35,33,50,24,35,24,,45,36,19,24,6,7,0.8,0.8
2024-03-17T2300,1872A,109.389,24.341,柳州市,河西水厂,,26,26,54,18,34,24,,47,36,17,22,3,4,0.8,1
2024-03-17T2300,1873A,109.4311,24.2921,柳州市,市四中,,40,40,67,23,36,20,,44,34,25,22,6,7,0.8,1
2024-03-17T2300,1874A,109.4006,24.3631,柳州市,市九中,,35,32,54,24,35,24,,54,44,24,28,7,8,0.8,0.8
2024-03-17T2300,1875A,109.4958,24.3134,柳州市,古亭山,,29,,47,20,30,22,,47,42,26,19,6,6,0.6,0.7
2024-03-17T2300,3402A,109.5422,24.3996,柳州市,市二中,,22,22,44,11,30,29,,53,46,18,22,6,9,0.8,0.9
2024-03-17T2300,2307A,116.5079,31.737,六安市,监测大楼,颗粒物(PM10),138,225,134,33,65,60,,89,56,22,28,4,5,0.4,0.6
2024-03-17T2300,2308A,116.4738,31.7643,六安市,皖西学院,颗粒物(PM10),154,257,156,37,63,64,,77,56,19,23,8,4,0.4,0.6
2024-03-17T2300,2309A,116.4996,31.7905,六安市,朝阳厂,颗粒物(PM10),120,189,126,30,67,65,,73,52,15,25,5,5,0.3,0.5
2024-03-17T2300,2310A,116.5567,31.7886,六安市,开发区,颗粒物(PM10),133,216,158,35,56,67,,70,53,14,26,4,4,0.4,0.6
2024-03-17T2300,2577A,104.83,26.5917,六盘水市,黄土坡,细颗粒物(PM2.5),78,73,70,57,52,77,,120,110,25,16,9,11,1.1,1.1
2024-03-17T2300,2578A,104.89,26.5939,六盘水市,水钢,细颗粒物(PM2.5),83,82,73,61,52,105,,125,118,14,14,10,9,0.8,0.8
2024-03-17T2300,2579A,104.8475,26.5894,六盘水市,民中,细颗粒物(PM2.5),79,73,65,58,52,89,,119,111,22,15,10,10,1.1,1
2024-03-17T2300,2580A,104.9544,26.5506,六盘水市,双水,细颗粒物(PM2.5),79,73,69,58,49,106,,124,119,14,11,10,8,0.9,0.8
2024-03-17T2300,2336A,117.0217,25.1033,龙岩市,龙岩市监测站,,46,46,45,32,36,6,,73,46,34,22,6,5,0.9,1.4
2024-03-17T2300,2337A,117.0258,25.0661,龙岩市,闽西职业技术学院,颗粒物(PM10),55,60,41,29,30,7,,71,46,34,21,19,6,0.6,1.2
2024-03-17T2300,2338A,117.0196,25.0306,龙岩市,龙岩学院,,32,32,32,20,21,26,,79,58,13,14,5,6,0.6,0.8
2024-03-17T2300,2885A,104.9339,33.3826,陇南市,滨江中学,颗粒物(PM10),66,82,104,36,40,65,,94,80,10,8,6,7,0.8,0.7
2024-03-17T2300,3247A,104.955,33.371,陇南市,市总工会,颗粒物(PM10),56,62,101,28,39,63,,90,75,10,11,7,8,0.6,0.5
2024-03-17T2300,2487A,111.9589,27.8901,娄底市,电视发射台,,25,23,28,8,13,78,,79,79,11,11,4,4,0.5,0.4
2024-03-17T2300,2488A,111.9975,27.725,娄底市,市监测站,,43,30,43,30,29,55,,61,61,30,29,8,6,0.5,0.8
2024-03-17T2300,2489A,112.0194,27.7314,娄底市,市委党校,,23,23,35,16,27,67,,61,61,15,18,5,6,0.6,0.8
2024-03-17T2300,2490A,111.9561,27.7569,娄底市,涟钢,,33,32,32,23,22,21,,41,38,32,21,8,8,0.8,0.7
2024-03-17T2300,2491A,111.9892,27.7044,娄底市,市政府,,33,28,26,23,21,27,,50,50,23,18,5,5,0.8,0.7
2024-03-17T2300,1893A,105.4324,28.9634,泸州市,九狮山,颗粒物(PM10),98,146,154,48,62,63,,83,80,18,17,5,6,0.3,0.4
2024-03-17T2300,1894A,105.4427,28.9063,泸州市,小市上码头,颗粒物(PM10),110,169,150,54,65,65,,74,73,15,24,8,9,0.5,0.6
2024-03-17T2300,1895A,105.4241,28.8573,泸州市,兰田宪桥,颗粒物(PM10),108,165,150,60,69,74,,79,79,12,15,6,8,0.4,0.5
2024-03-17T2300,1896A,105.4379,28.8833,泸州市,市环监站,颗粒物(PM10),105,159,141,62,63,62,,72,71,14,18,7,9,0.4,0.5
2024-03-17T2300,3490A,105.3617,28.7703,泸州市,纳溪区环保局,颗粒物(PM10),120,189,163,61,65,79,,84,84,14,18,3,5,0.6,0.7
2024-03-17T2300,2183A,111.1406,37.5211,吕梁市,环保局,颗粒物(PM10),64,78,132,36,41,73,,91,85,24,33,5,4,0.3,0.3
2024-03-17T2300,2185A,111.1297,37.5136,吕梁市,自来水公司,颗粒物(PM10),61,72,118,37,40,80,,92,84,18,31,2,6,0.5,0.5
2024-03-17T2300,2867A,111.1283,37.51,吕梁市,马茂庄小学,颗粒物(PM10),66,82,143,38,40,80,,93,86,21,36,2,3,0.5,0.5
2024-03-17T2300,1812A,112.3931,34.6516,洛阳市,市委党校,颗粒物(PM10),72,93,129,24,34,46,,100,72,42,21,4,3,0.3,0.3
2024-03-17T2300,1814A,112.4657,34.6871,洛阳市,豫西宾馆,颗粒物(PM10),77,103,160,23,35,53,,96,71,32,17,9,8,0.3,0.2
2024-03-17T2300,1815A,112.494,34.6886,洛阳市,河南林校,颗粒物(PM10),78,105,134,26,37,43,,88,67,39,19,8,7,0.2,0.2
2024-03-17T2300,1816A,112.3844,34.623,洛阳市,开发区管委会,颗粒物(PM10),69,88,147,24,39,58,,101,77,25,12,4,3,0.5,0.5
2024-03-17T2300,1817A,112.4267,34.6258,洛阳市,市委新办公区,颗粒物(PM10),68,85,134,23,38,57,,87,67,27,19,4,5,0.2,0.2
2024-03-17T2300,3340A,112.6005,34.6326,洛阳市,伊滨,颗粒物(PM10),68,85,137,23,33,45,,100,71,33,19,4,4,0.3,0.3
2024-03-17T2300,3341A,112.4951,34.6332,洛阳市,中移产业园,颗粒物(PM10),68,85,138,22,33,47,,92,68,33,19,6,5,0.2,0.2
2024-03-17T2300,3593A,112.5736,34.8993,洛阳市,吉利监测站,颗粒物(PM10),95,139,160,21,34,36,,84,68,48,27,16,9,0.4,0.5
2024-03-17T2300,3635A,112.3677,34.662,洛阳市,河科大西苑校区,颗粒物(PM10),75,99,143,22,33,39,,102,70,45,18,4,3,0.3,0.3
2024-03-17T2300,3636A,112.4388,34.6781,洛阳市,英才小学,颗粒物(PM10),67,84,135,22,33,55,,92,71,32,19,7,5,0.3,0.4
2024-03-17T2300,2399A,114.051,33.5699,漯河市,三五一五工厂,颗粒物(PM10),131,212,208,45,69,40,,91,56,25,19,16,14,0.4,0.5
2024-03-17T2300,2400A,114.0055,33.5698,漯河市,漯河大学,颗粒物(PM10),122,194,198,41,64,42,,92,60,22,18,10,8,0.5,0.5
2024-03-17T2300,2401A,114.0138,33.5828,漯河市,市水利局,颗粒物(PM10),135,219,213,41,65,50,,85,62,20,20,11,8,0.5,0.5
2024-03-17T2300,2402A,114.0261,33.5698,漯河市,市广电局,颗粒物(PM10),125,200,212,51,67,45,,91,62,20,16,7,5,0.5,0.6
2024-03-17T2300,3478A,113.9749,33.5664,漯河市,市图书馆,颗粒物(PM10),104,158,193,59,67,38,,93,66,26,19,15,14,0.5,0.5
2024-03-17T2300,3479A,114.0967,33.5906,漯河市,召陵区卫健委,颗粒物(PM10),112,173,189,46,64,42,,74,51,21,23,11,6,0.5,0.5
2024-03-17T2300,1798A,118.5092,31.6837,马鞍山市,湖东路四小,颗粒物(PM10),56,62,154,17,55,71,,82,72,16,28,6,7,0.5,0.8
2024-03-17T2300,1799A,118.5024,31.6449,马鞍山市,开发区,颗粒物(PM10),55,60,133,18,64,69,,77,74,22,30,5,6,0.5,0.7
2024-03-17T2300,1800A,118.5228,31.7231,马鞍山市,慈湖,,39,33,116,27,65,73,,84,72,20,32,8,9,0.7,0.8
2024-03-17T2300,1802A,118.6245,31.7241,马鞍山市,濮塘,颗粒物(PM10),61,72,136,24,57,64,,67,67,14,22,4,6,0.6,0.8
2024-03-17T2300,3633A,118.4918,31.6809,马鞍山市,雨山,颗粒物(PM10),62,74,119,15,48,72,,80,72,16,29,8,9,0.5,0.7
2024-03-17T2300,1686A,111.0286,21.4688,茂名市,电白南海,,28,24,38,19,23,54,,60,58,11,13,6,6,0.5,0.6
2024-03-17T2300,1687A,110.9294,21.6533,茂名市,茂石化七小,,39,39,45,27,36,44,,58,53,17,16,6,8,0.6,0.6
2024-03-17T2300,1688A,110.9107,21.6687,茂名市,健康路,,42,34,41,29,33,43,,56,51,14,13,8,10,0.5,0.5
2024-03-17T2300,1689A,110.8592,21.6828,茂名市,高岭,,39,39,49,27,32,40,,53,46,20,16,6,10,0.8,0.8
2024-03-17T2300,3450A,111.01,21.5165,茂名市,电白水东,,28,,29,19,22,60,,62,61,7,10,6,8,0.5,0.5
2024-03-17T2300,2539A,104.0308,30.0478,眉山市,黑龙滩水库,,50,50,116,30,37,98,,109,108,5,11,3,5,0.3,0.4
2024-03-17T2300,2540A,103.8416,30.0874,眉山市,气象局,颗粒物(PM10),55,59,132,14,39,93,,93,93,13,21,6,7,0.4,0.4
2024-03-17T2300,3137A,103.8578,30.0744,眉山市,市委党校,颗粒物(PM10),51,51,142,17,42,91,,90,90,14,23,7,8,0.3,0.4
2024-03-17T2300,3148A,103.8291,30.0564,眉山市,区人社局,颗粒物(PM10),51,51,117,19,42,90,,88,88,18,28,2,5,0.4,0.4
2024-03-17T2300,1690A,116.1231,24.3284,梅州市,梅江月梅,颗粒物(PM10),59,68,35,28,24,3,,73,50,36,17,8,8,0.7,0.6
2024-03-17T2300,1691A,116.0797,24.2719,梅州市,梅县新城,,50,50,36,20,27,3,,72,44,32,21,5,5,0.7,0.8
2024-03-17T2300,1692A,116.1248,24.2654,梅州市,环境监控中心,,35,35,35,10,23,10,,70,45,28,20,5,8,0.6,0.6
2024-03-17T2300,3315A,116.1233,24.2991,梅州市,梅龙,,48,48,31,27,22,3,,75,42,29,15,7,7,1.3,0.8
2024-03-17T2300,1878A,104.7778,31.4741,绵阳市,富乐山,,41,41,125,22,48,84,,95,92,8,9,6,7,0.5,0.5
2024-03-17T2300,1879A,104.7563,31.4535,绵阳市,市人大,颗粒物(PM10),52,53,134,22,42,77,,86,83,14,17,6,6,0.4,0.4
2024-03-17T2300,1880A,104.6697,31.4668,绵阳市,高新区自来水公司,,41,41,112,20,38,82,,92,91,15,17,7,7,0.5,0.5
2024-03-17T2300,1881A,104.7287,31.5075,绵阳市,三水厂,,44,44,106,27,43,79,,91,88,12,12,8,8,0.6,0.6
2024-03-17T2300,3491A,104.69,31.5322,绵阳市,西科大附属小学,,36,36,101,17,37,76,,87,86,17,17,6,7,0.7,0.6
2024-03-17T2300,3492A,104.5648,31.5343,绵阳市,安州区旅游局,,48,48,113,21,40,75,,85,84,14,16,4,5,0.5,0.5
2024-03-17T2300,1784A,129.61,44.561,牡丹江市,环保大楼,,39,31,31,27,22,78,,92,88,10,11,6,6,0.3,0.4
2024-03-17T2300,1785A,129.6115,44.5782,牡丹江市,文化广场,,38,32,30,26,27,70,,85,80,10,12,8,9,0.5,0.5
2024-03-17T2300,1786A,129.5904,44.5963,牡丹江市,第一医院,,46,,32,32,30,68,,88,82,11,8,7,7,0.5,0.5
2024-03-17T2300,1787A,129.6364,44.6075,牡丹江市,机车工厂,,37,37,38,18,24,59,,91,82,19,8,8,9,0.3,0.3
2024-03-17T2300,1788A,129.6386,44.5462,牡丹江市,第一中学,,35,,29,24,18,75,,89,85,9,10,7,8,0.4,0.4
2024-03-17T2300,2531A,105.0703,29.61,内江市,市监测站,细颗粒物(PM2.5),55,41,125,39,58,65,,70,68,14,18,7,8,0.3,0.3
2024-03-17T2300,2532A,105.0717,29.5947,内江市,东兴区政府,颗粒物(PM10),66,82,134,34,52,66,,73,72,13,15,9,9,0.3,0.3
2024-03-17T2300,2533A,105.0653,29.5817,内江市,内江二中,颗粒物(PM10),58,65,124,38,52,67,,71,70,17,20,6,6,0.6,0.6
2024-03-17T2300,2534A,105.0406,29.5822,内江市,内江日报社,颗粒物(PM10),58,66,131,34,51,73,,75,72,15,19,8,9,0.6,0.6
2024-03-17T2300,2628A,92.0657,31.4846,那曲市,那曲监测站,,26,24,40,10,24,82,,97,92,6,9,5,8,0.9,1.2
2024-03-17T2300,3128A,92.0506,31.4797,那曲市,那曲会议中心,,29,26,42,9,17,91,,102,100,6,11,6,7,0.2,0.5
2024-03-17T2300,1290A,115.8931,28.6843,南昌市,省外办,细颗粒物(PM2.5),52,50,47,36,44,59,,72,72,13,19,4,5,0.7,0.8
2024-03-17T2300,1291A,115.8886,28.7003,南昌市,省林业公司,细颗粒物(PM2.5),58,,40,41,37,54,,66,66,16,30,4,4,0.7,0.8
2024-03-17T2300,1292A,115.8126,28.7442,南昌市,林科所,,25,19,32,17,28,65,,81,80,19,26,4,5,0.8,0.6
2024-03-17T2300,1294A,115.8518,28.687,南昌市,建工学校,,49,41,46,34,37,55,,70,70,20,23,3,4,0.7,0.8
2024-03-17T2300,1295A,115.8921,28.6424,南昌市,象湖,,43,39,42,30,32,62,,76,76,14,20,4,4,0.9,1
2024-03-17T2300,1296A,115.7423,28.7996,南昌市,武术学校,细颗粒物(PM2.5),53,,16,37,28,61,,81,78,11,8,10,10,0.5,0.6
2024-03-17T2300,1298A,115.9314,28.6842,南昌市,省站,细颗粒物(PM2.5),53,51,44,37,40,61,,76,76,13,14,7,7,0.8,0.9
2024-03-17T2300,3046A,115.9084,28.6062,南昌市,机电学校,细颗粒物(PM2.5),52,40,44,36,34,64,,75,75,14,22,5,6,0.7,0.8
2024-03-17T2300,3690A,115.9721,28.7031,南昌市,外国语学校,细颗粒物(PM2.5),60,44,41,43,38,57,,73,73,17,17,3,3,0.6,0.6
2024-03-17T2300,1905A,106.056,30.8064,南充市,西山风景区,,33,33,71,15,36,54,,79,66,8,10,3,3,0.8,0.5
2024-03-17T2300,1906A,106.0789,30.8023,南充市,南充市委,,29,29,91,9,26,53,,73,59,14,20,5,5,0.5,0.4
2024-03-17T2300,1907A,106.1031,30.8217,南充市,南充炼油厂,,34,34,93,20,44,53,,74,60,13,18,4,5,0.3,0.3
2024-03-17T2300,1908A,106.1064,30.7856,南充市,高坪区监测站,,40,40,88,14,37,52,,73,60,12,16,4,5,0.1,0.2
2024-03-17T2300,1909A,106.0642,30.7636,南充市,嘉陵区环保局,,33,33,85,14,35,50,,71,58,12,17,4,5,0.3,0.3
2024-03-17T2300,1910A,106.1087,30.8388,南充市,市环境监测站,,41,41,91,23,40,58,,80,65,12,18,4,5,0.4,0.3
2024-03-17T2300,1151A,118.8086,32.1065,南京市,迈皋桥,颗粒物(PM10),75,100,159,24,56,63,,68,68,22,40,4,5,0.3,0.5
2024-03-17T2300,1152A,118.7538,32.0551,南京市,草场门,颗粒物(PM10),79,107,158,19,54,67,,68,68,26,34,2,2,0.3,0.5
2024-03-17T2300,1153A,118.7794,32.0745,南京市,山西路,颗粒物(PM10),81,112,170,29,66,69,,72,71,20,36,4,4,0.3,0.5
2024-03-17T2300,1154A,118.7752,32.0023,南京市,中华门,颗粒物(PM10),75,100,154,24,54,71,,70,70,17,36,7,7,0.4,0.6
2024-03-17T2300,1155A,118.8109,32.0309,南京市,瑞金路,颗粒物(PM10),74,97,150,24,47,68,,68,68,18,27,8,8,0.3,0.4
2024-03-17T2300,1156A,118.7997,32.0754,南京市,玄武湖,颗粒物(PM10),71,92,153,24,56,63,,64,64,19,68,10,8,0.1,0.3
2024-03-17T2300,1157A,118.6414,32.0931,南京市,浦口,颗粒物(PM10),69,88,156,19,52,68,,65,65,16,23,4,6,0.5,0.8
2024-03-17T2300,1158A,118.7356,31.9996,南京市,奥体中心,颗粒物(PM10),73,96,162,24,52,73,,84,71,17,25,8,8,0.4,0.6
2024-03-17T2300,1159A,118.9125,32.1028,南京市,仙林大学城,颗粒物(PM10),81,112,161,22,57,73,,69,69,13,43,6,7,0.4,0.6
2024-03-17T2300,3422A,118.8436,31.9198,南京市,江宁彩虹桥,颗粒物(PM10),71,91,127,27,52,72,,72,71,12,25,4,4,0.2,0.4
2024-03-17T2300,3423A,119.0138,31.6494,南京市,溧水永阳,颗粒物(PM10),65,80,133,25,46,70,,67,66,14,23,3,4,0.4,0.7
2024-03-17T2300,3424A,118.879,31.3302,南京市,高淳老职中,颗粒物(PM10),64,78,108,24,42,64,,82,68,11,18,5,6,0.4,0.7
2024-03-17T2300,3427A,118.8554,32.3578,南京市,六合雄州,颗粒物(PM10),90,130,164,18,47,79,,80,80,12,16,5,5,0.3,0.6
2024-03-17T2300,1401A,108.3103,22.7881,南宁市,二十一中,颗粒物(PM10),51,51,52,29,35,36,,52,45,16,16,4,5,0.9,0.8
2024-03-17T2300,1402A,108.3141,22.8528,南宁市,北湖,颗粒物(PM10),59,68,62,38,42,18,,45,36,33,22,5,6,1.1,1
2024-03-17T2300,1403A,108.3206,22.8225,南宁市,市监测站,颗粒物(PM10),53,56,55,29,38,30,,48,39,22,22,5,8,0.8,0.7
2024-03-17T2300,1404A,108.3829,22.8037,南宁市,大自然花园,,46,45,47,32,35,32,,51,43,16,12,5,6,0.7,0.8
2024-03-17T2300,1405A,108.4394,22.7904,南宁市,仙葫,细颗粒物(PM2.5),55,51,48,39,33,30,,56,45,22,17,7,7,0.4,0.5
2024-03-17T2300,1406A,108.2397,22.8467,南宁市,区农职院,"颗粒物(PM10),细颗粒物(PM2.5)",53,55,55,37,38,19,,44,34,35,26,6,6,1.0,0.8
2024-03-17T2300,1407A,108.3275,22.735,南宁市,英华嘉园,,50,50,52,32,35,24,,38,30,29,28,6,7,0.7,0.7
2024-03-17T2300,1408A,108.2257,22.7757,南宁市,沙井镇街道办,细颗粒物(PM2.5),55,58,54,39,33,8,,48,33,42,23,6,5,0.6,0.5
2024-03-17T2300,3401A,108.4834,22.7618,南宁市,红星社区,细颗粒物(PM2.5),54,48,46,38,33,14,,48,35,24,15,7,7,0.9,0.9
2024-03-17T2300,2332A,118.1681,26.6369,南平市,南平市监测站,,40,40,35,27,28,20,,73,51,25,20,4,5,1.1,1.1
2024-03-17T2300,2333A,118.1825,26.6489,南平市,南平铝业有限公司,,46,46,34,29,24,10,,67,45,33,20,7,7,1.1,0.8
2024-03-17T2300,2334A,118.1756,26.6272,南平市,南平七中,,45,44,33,31,28,9,,69,48,30,19,3,4,1.2,0.9
2024-03-17T2300,1168A,120.9098,31.9663,南通市,狼山街道,颗粒物(PM10),91,131,89,31,31,100,,96,96,11,14,8,8,0.4,0.5
2024-03-17T2300,1169A,120.86,32.0005,南通市,虹桥,颗粒物(PM10),84,117,82,32,35,88,,86,86,12,13,4,4,0.3,0.4
2024-03-17T2300,1170A,120.87,32.02,南通市,城中,颗粒物(PM10),101,151,96,27,29,90,,87,87,10,12,4,4,0.4,0.4
2024-03-17T2300,1171A,120.94,31.93,南通市,星湖花园,颗粒物(PM10),93,136,87,25,27,89,,90,90,17,17,5,5,0.4,0.5
2024-03-17T2300,1172A,120.81,32.0417,南通市,紫琅学院,颗粒物(PM10),94,138,86,20,25,94,,94,94,17,19,6,6,0.4,0.4
2024-03-17T2300,3291A,121.067,32.062,南通市,通州监测站,颗粒物(PM10),76,102,95,27,29,95,,92,92,7,10,7,7,0.3,0.5
2024-03-17T2300,3432A,120.9348,31.9883,南通市,环境教育馆,颗粒物(PM10),93,136,91,31,32,88,,90,90,15,16,6,6,0.3,0.3
2024-03-17T2300,2404A,112.5224,33.0122,南阳市,瓦房庄,颗粒物(PM10),85,119,144,23,46,64,,105,69,21,18,6,6,0.4,0.5
2024-03-17T2300,2405A,112.5003,32.9735,南阳市,汉画馆,颗粒物(PM10),92,134,152,32,50,70,,109,70,20,22,6,7,0.2,0.4
2024-03-17T2300,2406A,112.5573,33.027,南阳市,气象站,颗粒物(PM10),88,125,150,19,42,58,,100,66,24,22,5,6,0.4,0.6
2024-03-17T2300,2407A,112.5481,32.9689,南阳市,理工学院,颗粒物(PM10),93,136,161,23,43,68,,108,69,18,19,8,9,0.5,0.6
2024-03-17T2300,4008A,112.5234,32.9922,南阳市,卧龙区政府,颗粒物(PM10),92,134,159,23,47,65,,104,64,20,21,5,6,0.4,0.6
2024-03-17T2300,1234A,121.8358,29.911,宁波市,区环保大楼,颗粒物(PM10),110,170,78,24,29,73,,76,65,18,46,5,7,0.4,0.8
2024-03-17T2300,1235A,121.56,29.82,宁波市,万里学院,颗粒物(PM10),76,101,55,11,24,72,,77,72,19,44,7,9,0.5,0.7
2024-03-17T2300,1236A,121.713,29.9572,宁波市,龙赛医院,颗粒物(PM10),77,103,51,16,16,81,,73,73,15,45,5,6,0.3,0.4
2024-03-17T2300,1239A,121.633,29.7733,宁波市,钱湖水厂,颗粒物(PM10),86,122,51,10,24,78,,80,76,12,24,6,6,0.5,0.6
2024-03-17T2300,1240A,121.5856,29.8635,宁波市,太古小学,颗粒物(PM10),70,89,61,6,23,74,,78,71,12,41,7,8,0.5,0.7
2024-03-17T2300,1241A,121.524,29.8674,宁波市,市环境监测中心,颗粒物(PM10),70,89,54,12,26,80,,83,77,17,48,6,7,0.4,0.7
2024-03-17T2300,2871A,121.6147,29.9017,宁波市,万里国际学校,颗粒物(PM10),73,95,77,16,32,78,,81,74,19,50,8,8,0.6,0.8
2024-03-17T2300,3710A,121.5594,29.8975,宁波市,白沙活动中心,颗粒物(PM10),95,140,71,17,26,76,,76,70,18,46,7,7,0.4,0.5
2024-03-17T2300,2341A,119.5388,26.6612,宁德市,宁德市监测站,,46,,23,32,28,93,,100,100,16,20,5,6,0.3,0.5
2024-03-17T2300,3209A,119.5231,26.6562,宁德市,宁德一中,,38,,26,26,22,96,,104,104,15,17,6,6,0.4,0.6
2024-03-17T2300,2618A,98.8601,25.8567,怒江傈僳族自治州,州监测站,细颗粒物(PM2.5),74,74,61,54,45,116,,128,125,7,9,8,8,0.6,0.5
2024-03-17T2300,2619A,98.8546,25.8417,怒江傈僳族自治州,泸水一中,细颗粒物(PM2.5),84,63,61,62,50,104,,117,114,12,18,7,7,0.7,0.6
2024-03-17T2300,1888A,101.6891,26.571,攀枝花市,弄弄坪,颗粒物(PM10),52,54,52,27,36,94,,129,111,30,22,11,20,0.6,0.9
2024-03-17T2300,1889A,101.5769,26.5928,攀枝花市,河门口,,40,40,52,26,34,114,,129,124,10,20,7,12,0.5,0.6
2024-03-17T2300,1890A,101.7169,26.585,攀枝花市,炳草岗,,41,41,52,24,31,85,,134,113,33,32,13,15,0.7,0.8
2024-03-17T2300,1891A,101.7369,26.5008,攀枝花市,仁和,,50,50,54,29,36,83,,143,116,29,16,7,7,0.9,0.8
2024-03-17T2300,2835A,101.7227,26.567,攀枝花市,四十中小,,49,39,52,34,32,137,,140,132,9,21,8,11,0.4,0.6
2024-03-17T2300,1604A,122.0303,41.1489,盘锦市,开发区,,45,31,139,31,31,69,,107,94,26,14,5,5,0.8,0.7
2024-03-17T2300,1605A,122.0485,41.0883,盘锦市,兴隆台,,46,35,143,32,30,69,,103,86,26,16,6,7,0.6,0.5
2024-03-17T2300,1606A,121.8297,41.1028,盘锦市,新生街道,,38,,136,26,24,49,,101,76,33,22,7,7,0.6,0.6
2024-03-17T2300,1832A,113.3257,33.742,平顶山市,新华旅馆,颗粒物(PM10),80,110,163,20,44,64,,104,71,34,22,10,9,0.5,0.6
2024-03-17T2300,1833A,113.2919,33.737,平顶山市,规划设计院,颗粒物(PM10),73,96,144,21,47,71,,111,69,18,18,8,7,0.4,0.6
2024-03-17T2300,1834A,113.182,33.774,平顶山市,平顶山工学院,颗粒物(PM10),80,109,163,29,44,63,,88,66,19,16,4,6,0.4,0.5
2024-03-17T2300,3204A,113.3025,33.73,平顶山市,规划局,颗粒物(PM10),82,114,184,32,53,73,,108,81,25,17,9,9,0.3,0.4
2024-03-17T2300,3594A,112.8867,33.9116,平顶山市,石龙区,颗粒物(PM10),109,167,177,36,44,16,,95,57,67,26,7,7,0.3,0.4
2024-03-17T2300,2656A,106.6692,35.5461,平凉市,聚贤嘉苑,颗粒物(PM10),113,176,163,46,36,58,,101,78,35,27,3,5,0.6,0.4
2024-03-17T2300,2657A,106.7021,35.5307,平凉市,博物馆,颗粒物(PM10),139,228,175,57,39,27,,104,76,61,26,12,11,0.6,0.4
2024-03-17T2300,2347A,114.0997,27.5002,萍乡市,武功山,,12,10,20,8,7,22,,19,18,17,19,7,6,0.9,1
2024-03-17T2300,2348A,113.8385,27.6434,萍乡市,中医院,,25,,44,17,38,58,,16,16,12,25,7,8,0.8,1.1
2024-03-17T2300,2349A,113.8493,27.6253,萍乡市,市政府车库,,21,21,38,13,33,54,,14,14,14,26,8,9,1.0,1.2
2024-03-17T2300,2350A,113.8676,27.6435,萍乡市,市环保局,,26,24,39,18,32,51,,16,12,18,28,10,12,0.9,1.2
2024-03-17T2300,2351A,113.866,27.6198,萍乡市,安源区政府,,18,18,38,11,29,56,,19,19,18,25,5,9,1.4,1.2
2024-03-17T2300,2319A,119.0141,25.4325,莆田市,荔城区仓后路,,30,,64,17,54,93,,161,133,17,33,4,5,0.1,0.5
2024-03-17T2300,2320A,119.0015,25.4553,莆田市,莆田市监测站,,,18,63,15,47,,,162,147,13,30,5,6,0.6,0.9
2024-03-17T2300,2321A,119.1119,25.4561,莆田市,涵江区六中,,31,24,63,17,55,98,,163,135,12,34,5,6,0.6,0.9
2024-03-17T2300,2322A,119.1013,25.3215,莆田市,秀屿区政府,,30,19,52,17,60,96,,153,135,12,22,6,7,0.7,1
2024-03-17T2300,2392A,115.0312,35.7636,濮阳市,环保局,,49,49,115,16,26,79,,98,93,20,14,11,8,0.4,0.4
2024-03-17T2300,2394A,115.0574,35.7609,濮阳市,油田运输公司,,48,48,135,12,28,80,,101,96,21,14,10,9,0.3,0.3
2024-03-17T2300,2395A,115.0866,35.7754,濮阳市,油田物探公司,颗粒物(PM10),59,67,138,17,27,75,,92,87,20,14,10,6,0.3,0.3
2024-03-17T2300,3021A,115,35.7668,濮阳市,濮水河管理处,颗粒物(PM10),51,52,120,16,27,59,,91,83,31,17,7,7,0.2,0.2
2024-03-17T2300,2601A,100.98,22.7633,普洱市,市环保局,颗粒物(PM10),69,87,94,43,64,88,,149,122,16,16,7,8,0.5,0.5
2024-03-17T2300,2602A,100.9817,22.8322,普洱市,普洱第二中学,细颗粒物(PM2.5),108,,78,81,52,69,,152,123,39,33,7,7,1.0,0.7
2024-03-17T2300,2262A,131.0518,45.8751,七台河市,新一中,,29,12,10,10,8,92,,98,95,6,5,8,8,0.5,0.5
2024-03-17T2300,3345A,131.0577,45.7879,七台河市,中波台,,29,14,10,12,9,90,,94,89,11,11,4,5,0.7,0.6
2024-03-17T2300,3637A,131.0176,45.7761,七台河市,人民广场,,29,18,15,18,14,91,,90,83,12,13,7,8,0.7,0.7
2024-03-17T2300,3684A,130.8781,45.8222,七台河市,新建矿广场,,29,,9,20,20,80,,90,83,17,15,8,10,0.5,0.4
2024-03-17T2300,1779A,123.9305,47.3636,齐齐哈尔市,安居小区,,24,24,19,12,10,66,,87,71,12,11,8,7,0.3,0.3
2024-03-17T2300,1780A,123.9488,47.3386,齐齐哈尔市,中心广场,,23,14,14,7,11,72,,80,72,7,9,6,6,0.3,0.4
2024-03-17T2300,1781A,123.9483,47.3227,齐齐哈尔市,农牧车辆厂,,22,22,20,10,8,69,,79,70,7,9,7,8,0.3,0.3
2024-03-17T2300,1783A,123.945,47.2988,齐齐哈尔市,市环境监测站,,24,18,23,9,12,74,,85,74,6,9,3,4,0.2,0.2
2024-03-17T2300,3662A,123.6333,47.2075,齐齐哈尔市,富区青少年活动中心,,26,26,24,10,9,66,,78,61,10,14,7,19,0.3,0.7
2024-03-17T2300,2591A,107.9783,26.5747,黔东南苗族侗族自治州,市环境监测站,,19,18,27,13,19,44,,40,40,11,11,4,5,0.7,0.8
2024-03-17T2300,2881A,107.8908,26.5311,黔东南苗族侗族自治州,凯里学院,,21,21,22,11,15,56,,41,41,9,10,4,4,0.7,0.7
2024-03-17T2300,2593A,107.5228,26.2403,黔南布依族苗族自治州,小围寨,,25,24,30,17,22,40,,39,39,6,11,5,5,0.5,0.6
2024-03-17T2300,3538A,107.5175,26.2978,黔南布依族苗族自治州,沙坝,,27,27,30,12,22,30,,33,33,7,11,4,4,0.5,0.5
2024-03-17T2300,2589A,104.9022,25.0925,黔西南布依族苗族自治州,场坝街,细颗粒物(PM2.5),102,96,67,76,53,113,,139,135,11,15,2,2,0.7,0.6
2024-03-17T2300,2590A,104.8811,25.0992,黔西南布依族苗族自治州,坪东大道,细颗粒物(PM2.5),85,94,70,63,52,100,,127,120,14,22,3,2,0.7,0.7
2024-03-17T2300,2502A,108.6236,21.9667,钦州市,市环保站,颗粒物(PM10),57,63,72,29,36,26,,41,35,30,31,8,8,0.7,0.8
2024-03-17T2300,2503A,108.6549,21.9481,钦州市,沙埠小学,颗粒物(PM10),77,103,75,34,35,4,,53,36,51,27,7,6,0.8,0.7
2024-03-17T2300,2504A,108.5989,21.7431,钦州市,港区一小,颗粒物(PM10),70,90,91,37,35,37,,46,29,13,20,8,8,0.8,0.8
2024-03-17T2300,3404A,108.5959,21.9633,钦州市,北职校,颗粒物(PM10),55,59,67,34,40,27,,42,38,28,28,8,8,0.6,0.7
2024-03-17T2300,1042A,119.5134,39.8207,秦皇岛市,北戴河环保局,颗粒物(PM10),53,56,54,22,15,66,,101,93,38,21,9,6,0.5,0.2
2024-03-17T2300,1043A,119.7493,40.0116,秦皇岛市,第一关,颗粒物(PM10),62,73,57,34,25,5,,99,80,98,23,9,7,0.6,0.3
2024-03-17T2300,1044A,119.5897,39.9499,秦皇岛市,监测站,颗粒物(PM10),56,62,61,39,22,69,,100,94,33,19,8,5,0.6,0.3
2024-03-17T2300,1046A,119.5251,39.9041,秦皇岛市,建设大厦,颗粒物(PM10),58,65,53,37,21,58,,100,90,42,17,4,2,0.6,0.2
2024-03-17T2300,3132A,119.610547,39.943889,秦皇岛市,文明里,颗粒物(PM10),64,77,63,42,18,65,,96,91,32,21,7,4,0.8,0.4
2024-03-17T2300,1307A,120.6659,36.2403,青岛市,仰口,,39,39,167,22,28,71,,90,84,12,12,3,2,0.2,0.2
2024-03-17T2300,1310A,120.4134,36.0658,青岛市,市南区东部子站,颗粒物(PM10),59,68,153,17,24,75,,91,85,26,16,6,6,0.6,0.6
2024-03-17T2300,1311A,120.3664,36.1032,青岛市,四方区子站,颗粒物(PM10),65,80,151,31,30,34,,94,80,64,27,7,4,0.6,0.6
2024-03-17T2300,1312A,120.2994,36.054,青岛市,市南区西部子站,颗粒物(PM10),80,110,152,27,24,43,,92,76,55,26,7,6,0.7,0.6
2024-03-17T2300,1313A,120.4581,36.0858,青岛市,崂山区子站,颗粒物(PM10),63,75,157,22,22,57,,94,81,32,16,6,6,0.5,0.5
2024-03-17T2300,1314A,120.1983,35.9608,青岛市,黄岛区子站,颗粒物(PM10),68,85,154,29,27,86,,92,91,19,25,5,6,0.6,0.6
2024-03-17T2300,1315A,120.3999,36.3083,青岛市,城阳区子站,颗粒物(PM10),58,66,126,29,25,36,,96,74,41,19,7,7,0.8,0.7
2024-03-17T2300,1966A,120.0405,35.8735,青岛市,黄岛区4号,颗粒物(PM10),53,56,146,22,23,69,,104,92,27,18,7,7,0.5,0.5
2024-03-17T2300,3362A,120.5014,36.4034,青岛市,即墨2号,颗粒物(PM10),86,121,144,51,26,31,,90,71,49,22,8,5,0.8,0.5
2024-03-17T2300,3642A,120.3503,36.0736,青岛市,市北区南部,颗粒物(PM10),73,95,127,31,25,47,,91,80,53,30,6,6,0.5,0.4
2024-03-17T2300,3643A,120.3948,36.1805,青岛市,李沧区北部,颗粒物(PM10),64,78,170,34,30,46,,101,73,46,29,8,7,0.6,0.6
2024-03-17T2300,1702A,113.0426,23.691,清远市,环保大楼,颗粒物(PM10),70,90,71,43,35,11,,29,22,41,37,4,6,1.0,1.1
2024-03-17T2300,1703A,113.0208,23.7106,清远市,凤城街办,细颗粒物(PM2.5),72,90,94,52,64,3,,34,20,50,48,4,6,1.2,1.4
2024-03-17T2300,3025A,113.0477,23.6344,清远市,技师学院,颗粒物(PM10),76,102,86,53,48,5,,41,26,56,42,4,6,1.3,1.2
2024-03-17T2300,3318A,112.9903,23.7403,清远市,清新太和,颗粒物(PM10),64,78,84,44,47,24,,45,37,30,34,8,9,0.8,0.9
2024-03-17T2300,3455A,113.076,23.7198,清远市,清城东城,细颗粒物(PM2.5),70,83,71,51,49,3,,30,22,41,38,4,6,1.0,1
2024-03-17T2300,2661A,107.6325,35.7357,庆阳市,庆阳五中,细颗粒物(PM2.5),110,151,173,83,68,54,,86,65,21,14,13,7,0.5,0.4
2024-03-17T2300,2662A,107.6364,35.7067,庆阳市,市环保局,"颗粒物(PM10),细颗粒物(PM2.5)",103,156,176,77,61,56,,92,72,18,10,9,7,0.5,0.4
2024-03-17T2300,1916A,103.7897,25.5035,曲靖市,环境监测站,颗粒物(PM10),59,67,59,40,36,125,,146,135,11,12,10,12,0.4,0.5
2024-03-17T2300,1917A,103.8,25.5364,曲靖市,烟厂办公区,细颗粒物(PM2.5),69,74,62,50,35,126,,149,140,12,12,4,5,0.6,0.6
2024-03-17T2300,3376A,103.7947,25.462,曲靖市,南苑二区,颗粒物(PM10),63,76,59,35,33,114,,137,127,11,11,5,6,0.7,0.6
2024-03-17T2300,3377A,103.7444,25.5261,曲靖市,曲靖师范学院,细颗粒物(PM2.5),70,71,63,51,44,124,,140,133,9,17,4,17,0.6,0.7
2024-03-17T2300,1264A,118.8692,28.9398,衢州市,环保大楼,细颗粒物(PM2.5),64,59,58,46,45,79,,81,81,16,31,5,6,0.5,0.7
2024-03-17T2300,1265A,118.8709,28.9666,衢州市,实验学校,细颗粒物(PM2.5),65,60,59,47,36,87,,88,88,20,33,5,4,0.4,0.6
2024-03-17T2300,1266A,118.8621,28.9808,衢州市,衢州学院,细颗粒物(PM2.5),59,53,50,42,40,80,,82,82,19,31,4,4,0.4,0.6
2024-03-17T2300,1611A,118.5819,24.9117,泉州市,涂山街,,46,,71,32,59,94,,131,89,14,40,2,4,0.7,1.1
2024-03-17T2300,1612A,118.5972,24.8978,泉州市,津头埔,,43,,65,30,58,101,,126,94,16,44,4,6,0.8,1.1
2024-03-17T2300,1613A,118.6663,24.9424,泉州市,万安,,38,,49,26,40,112,,150,113,17,33,3,3,0.8,0.9
2024-03-17T2300,3529A,118.6333,24.9264,泉州市,城华南路,,43,36,56,30,43,102,,138,103,19,39,3,4,0.6,0.8
2024-03-17T2300,2626A,88.8876,29.2718,日喀则市,日喀则监测站,,27,27,21,14,9,66,,108,97,27,7,3,5,0.7,0.4
2024-03-17T2300,3726A,88.8781,29.2426,日喀则市,林业技术推广中心,,29,12,16,6,7,90,,99,96,4,4,7,7,0.4,0.4
2024-03-17T2300,1659A,119.471,35.4209,日照市,监测站,颗粒物(PM10),81,112,165,33,33,69,,98,79,39,30,8,9,0.5,0.6
2024-03-17T2300,1660A,119.523,35.4216,日照市,市政府广场,颗粒物(PM10),78,105,158,35,33,54,,100,82,44,22,7,7,0.7,0.6
2024-03-17T2300,1661A,119.5587,35.4044,日照市,港务局,颗粒物(PM10),96,141,170,33,27,36,,106,75,82,29,8,6,0.6,0.5
2024-03-17T2300,3507A,119.5328,35.4625,日照市,职业技术学院,颗粒物(PM10),52,53,160,19,26,56,,96,86,35,22,7,7,0.6,0.6
