timepoint,stationcode,longitude,latitude,area,positionname,primarypollutant,aqi,pm10,pm10_24h,pm2_5,pm2_5_24h,o3,o3_24h,o3_8h,o3_8h_24h,no2,no2_24h,so2,so2_24h,co,co_24h
2024-03-17T1800,2566A,102.1879,31.914,阿坝藏族羌族自治州,州农科所,,17,17,28,4,10,36,,35,35,7,12,3,3,0.1,0.1
2024-03-17T1800,2568A,102.2502,31.8896,阿坝藏族羌族自治州,马师校,,32,25,16,11,11,100,,97,97,10,10,3,3,0.5,0.5
2024-03-17T1800,3994A,102.2165,31.9024,阿坝藏族羌族自治州,马尔康中学西区,,32,16,14,14,9,102,,96,96,11,9,4,4,0.5,0.4
2024-03-17T1800,2695A,80.292,41.1694,阿克苏地区,电视台,颗粒物(PM10),115,180,200,39,54,107,,91,91,4,6,4,4,0.6,0.6
2024-03-17T1800,2696A,80.2613,41.1551,阿克苏地区,艺术中心,颗粒物(PM10),123,196,202,41,47,107,,93,93,6,8,4,3,0.6,0.7
2024-03-17T1800,2204A,105.6467,38.8363,阿拉善盟,西城区西花园,颗粒物(PM10),58,66,67,21,18,100,,96,96,8,12,9,10,0.6,0.7
2024-03-17T1800,2205A,105.6985,38.8411,阿拉善盟,蒙二幼,颗粒物(PM10),63,75,93,15,24,96,,94,94,10,12,6,7,0.4,0.5
2024-03-17T1800,2206A,105.724,38.8516,阿拉善盟,环保局新楼,颗粒物(PM10),57,63,84,16,28,101,,96,96,7,9,7,8,0.5,0.6
2024-03-17T1800,2708A,88.1264,47.8517,阿勒泰地区,市站,,28,11,10,7,6,87,,83,83,9,6,6,5,0.1,0.1
2024-03-17T1800,2630A,80.1161,32.5,阿里地区,阿里监测站,,31,13,10,9,6,98,,94,94,2,6,6,9,0.5,0.5
2024-03-17T1800,3192A,80.0903,32.5028,阿里地区,阿里藏医院,,,,18,,8,104,,98,98,,6,6,11,,0.5
2024-03-17T1800,2642A,109.0318,32.6537,安康市,香溪洞,颗粒物(PM10),74,97,86,46,42,52,,52,52,16,17,6,7,0.7,0.8
2024-03-17T1800,2643A,109.0281,32.6939,安康市,安康市监测站,颗粒物(PM10),82,114,95,48,55,30,,54,53,34,30,10,8,0.7,0.8
2024-03-17T1800,2644A,109.0072,32.6975,安康市,汉滨区检察院,颗粒物(PM10),79,107,90,45,50,30,,51,49,32,26,10,9,0.6,0.6
2024-03-17T1800,2291A,117.0809,30.5177,安庆市,环科院,颗粒物(PM10),74,97,54,31,38,65,,94,92,25,31,7,7,0.8,0.9
2024-03-17T1800,2292A,117.0331,30.5119,安庆市,马山宾馆,颗粒物(PM10),73,95,55,26,39,76,,101,99,18,24,6,7,0.3,0.6
2024-03-17T1800,2294A,116.9896,30.6145,安庆市,安庆大学,,,120,81,19,37,65,,97,90,21,23,8,8,,0.8
2024-03-17T1800,3173A,117.0598,30.5351,安庆市,市人大,颗粒物(PM10),75,99,53,29,41,68,,95,92,21,23,4,6,0.9,1
2024-03-17T1800,3122A,105.9606,26.2611,安顺市,伍家关,,,,,,,,,,,,,,,,
2024-03-17T1800,3123A,105.9408,26.2431,安顺市,凤凰山,细颗粒物(PM2.5),55,50,44,39,37,94,,73,72,12,10,13,13,1.1,1
2024-03-17T1800,3124A,105.9439,26.2564,安顺市,金钟山,细颗粒物(PM2.5),54,52,49,38,40,94,,76,72,11,8,8,9,0.8,0.7
2024-03-17T1800,3125A,105.8983,26.2481,安顺市,娄家坡,细颗粒物(PM2.5),60,57,49,43,41,93,,79,73,11,8,14,11,0.9,0.8
2024-03-17T1800,1818A,114.4839,36.0621,安阳市,棉研所,,,,,,,,,,,,,,,,
2024-03-17T1800,1819A,114.3551,36.1017,安阳市,红庙街,,45,45,133,9,34,102,,96,96,7,19,2,4,0.6,0.7
2024-03-17T1800,1820A,114.361,36.0681,安阳市,银杏小区,,48,48,141,10,37,96,,91,91,1,13,4,6,0.1,0.3
2024-03-17T1800,3141A,114.3922,36.0878,安阳市,信访局,,44,44,137,6,28,97,,93,93,2,13,2,3,0.5,0.6
2024-03-17T1800,3669A,114.4705,36.0637,安阳市,左辅环卫站,颗粒物(PM10),52,54,146,11,40,87,,85,85,12,15,4,4,0.1,0.3
2024-03-17T1800,3703A,114.2917,36.0949,安阳市,安钢职工学校,颗粒物(PM10),52,54,157,10,37,97,,91,91,9,18,4,7,0,0.2
2024-03-17T1800,1748A,123.044,41.1196,鞍山市,深沟寺,颗粒物(PM10),61,71,129,32,30,95,,99,99,17,17,7,9,0.5,0.7
2024-03-17T1800,1749A,123.011,41.0931,鞍山市,太阳城,颗粒物(PM10),65,79,126,32,29,106,,108,108,15,19,9,12,0.5,1.1
2024-03-17T1800,1750A,123.0485,41.1442,鞍山市,太平,颗粒物(PM10),82,113,141,58,34,97,,100,100,26,19,8,7,0.6,0.7
2024-03-17T1800,1751A,122.9642,41.0971,鞍山市,铁西三道街,颗粒物(PM10),78,106,147,42,36,98,,95,95,30,23,10,9,0.6,0.8
2024-03-17T1800,1752A,122.9341,41.0833,鞍山市,铁西工业园区,颗粒物(PM10),76,102,138,45,36,100,,98,98,23,18,7,9,0.6,0.6
2024-03-17T1800,1753A,123.022,41.0821,鞍山市,明达新区,颗粒物(PM10),83,115,142,32,31,98,,97,97,17,19,10,11,0.5,0.7
2024-03-17T1800,1754A,123.1289,41.0228,鞍山市,千山,,,,,,,,,,,,,,,,
2024-03-17T1800,2195A,107.4212,40.761,巴彦淖尔市,附二中,颗粒物(PM10),173,296,93,40,26,95,,90,90,8,16,2,9,0.3,0.4
2024-03-17T1800,2196A,107.37,40.7372,巴彦淖尔市,市环保大楼,颗粒物(PM10),181,311,93,37,26,98,,92,92,5,15,3,5,0.3,0.4
2024-03-17T1800,1956A,86.1472,41.7538,巴音郭楞蒙古自治州,孔雀公园,颗粒物(PM10),500,824,125,162,31,83,,81,81,4,15,4,4,0.3,0.3
2024-03-17T1800,1957A,86.1972,41.7166,巴音郭楞蒙古自治州,棉纺厂,颗粒物(PM10),500,836,115,183,33,87,,80,80,4,17,2,2,0.2,0.3
2024-03-17T1800,1958A,86.2357,41.7173,巴音郭楞蒙古自治州,经济开发区,颗粒物(PM10),500,955,127,165,28,88,,82,82,5,12,4,4,0.2,0.3
2024-03-17T1800,2914A,106.7677,31.8794,巴中市,苏山坪,,18,13,54,8,24,56,,84,64,9,7,3,3,0.4,0.4
2024-03-17T1800,3182A,106.7656,31.8545,巴中市,丽阳花园,,16,14,54,8,28,51,,75,57,17,28,4,4,0.5,0.6
2024-03-17T1800,3183A,106.7418,31.8654,巴中市,圣泉水务公司,,18,13,51,7,24,57,,81,62,16,15,4,4,0.5,0.4
2024-03-17T1800,3616A,106.7616,31.8344,巴中市,市中心医院,,18,18,57,10,28,52,,69,56,15,27,5,5,0.5,0.6
2024-03-17T1800,2235A,122.7911,45.6077,白城市,洮北区环保局,,29,16,17,12,11,91,,91,91,9,9,5,5,0.3,0.4
2024-03-17T1800,2236A,122.8738,45.5725,白城市,市环保局,,27,27,30,12,13,81,,88,88,14,8,1,2,0.5,0.4
2024-03-17T1800,2231A,126.4219,41.9171,白山市,喜丰,,28,24,134,15,19,87,,90,90,13,10,7,8,0.5,0.7
2024-03-17T1800,2232A,126.4077,41.9419,白山市,环保局,,41,41,122,16,22,85,,88,88,5,4,9,8,0.8,0.7
2024-03-17T1800,2647A,104.1724,36.5446,白银市,第三小学,颗粒物(PM10),87,124,122,29,39,103,,94,94,4,13,7,26,0.6,0.8
2024-03-17T1800,2648A,104.1465,36.5482,白银市,动力公司,颗粒物(PM10),80,110,107,24,31,103,,98,98,8,17,5,12,0.5,0.7
2024-03-17T1800,2512A,106.6103,23.9011,百色市,市监测站,颗粒物(PM10),68,86,88,36,51,90,,89,89,9,17,12,20,0.6,0.8
2024-03-17T1800,2513A,106.6538,23.8859,百色市,市中心血站,颗粒物(PM10),62,73,78,37,53,84,,84,84,9,20,6,14,0.8,1
2024-03-17T1800,3406A,106.6085,23.8798,百色市,祈福高中,颗粒物(PM10),67,83,76,44,58,87,,83,83,7,20,10,17,0.9,1
2024-03-17T1800,2270A,117.396,32.939,蚌埠市,工人疗养院,颗粒物(PM10),148,246,213,25,74,82,,77,69,13,28,4,7,0.3,0.6
2024-03-17T1800,2271A,117.3605,32.9427,蚌埠市,百货大楼,颗粒物(PM10),160,270,220,30,74,81,,70,66,16,35,2,4,0.4,0.7
2024-03-17T1800,2273A,117.4185,32.8911,蚌埠市,蚌埠学院,颗粒物(PM10),174,298,219,29,74,74,,87,63,21,37,11,10,0.4,0.6
2024-03-17T1800,2274A,117.3533,32.9673,蚌埠市,淮上区政府,颗粒物(PM10),144,237,214,24,79,83,,79,68,14,28,4,6,0.3,0.6
2024-03-17T1800,2275A,117.3145,32.8977,蚌埠市,高新区,颗粒物(PM10),156,261,201,29,76,88,,82,72,16,33,3,10,0.4,0.7
2024-03-17T1800,3715A,117.3092,32.9314,蚌埠市,蚌埠田家炳中学,颗粒物(PM10),156,262,233,28,77,86,,67,67,20,49,4,7,0.4,0.7
2024-03-17T1800,1585A,109.8756,40.6532,包头市,市环境监测站,颗粒物(PM10),63,75,40,19,13,73,,77,77,36,26,21,13,1.2,0.7
2024-03-17T1800,1587A,109.9991,40.5842,包头市,包头八中,,,,49,,20,73,,79,79,,29,,14,0.8,1
2024-03-17T1800,1588A,109.8538,40.6821,包头市,青山宾馆,颗粒物(PM10),65,80,37,29,16,77,,74,74,32,29,16,14,0.9,0.7
2024-03-17T1800,1589A,109.8642,40.6288,包头市,惠龙物流,颗粒物(PM10),58,65,36,24,16,73,,76,76,37,26,21,15,0.7,0.6
2024-03-17T1800,1590A,110.0377,40.5546,包头市,东河鸿龙湾,,46,46,40,15,16,79,,82,82,19,29,10,12,0.5,0.7
2024-03-17T1800,3283A,109.9154,40.5685,包头市,滨河大厦,颗粒物(PM10),54,57,36,15,13,85,,83,83,15,28,10,11,0.6,0.6
2024-03-17T1800,3419A,109.9447,40.6261,包头市,包头市委党校,颗粒物(PM10),63,75,38,19,12,83,,82,82,26,30,26,16,1.0,0.9
2024-03-17T1800,3683A,109.8331,40.6576,包头市,昆区政府,颗粒物(PM10),61,71,35,25,17,79,,73,73,33,29,20,14,1.1,0.7
2024-03-17T1800,1930A,107.185,34.3063,宝鸡市,庙沟村,颗粒物(PM10),109,168,252,69,86,50,,59,57,17,10,8,8,0.4,0.3
2024-03-17T1800,1931A,107.0708,34.3017,宝鸡市,竹园沟,颗粒物(PM10),114,177,215,72,78,57,,67,67,35,23,4,4,0.6,0.5
2024-03-17T1800,1932A,107.1906,34.3672,宝鸡市,三陆医院,颗粒物(PM10),111,171,239,74,84,66,,66,66,26,34,8,9,0.5,0.4
2024-03-17T1800,1933A,107.1431,34.3547,宝鸡市,监测站,颗粒物(PM10),112,174,230,75,77,57,,62,62,32,29,2,4,0.5,0.5
2024-03-17T1800,1934A,107.1186,34.3739,宝鸡市,技工学校,颗粒物(PM10),111,172,234,74,86,59,,64,64,31,29,5,7,0.5,0.5
2024-03-17T1800,1935A,107.3906,34.3528,宝鸡市,陈仓区环保局家属楼,颗粒物(PM10),100,150,234,70,87,61,,68,58,24,36,7,8,0.5,0.5
2024-03-17T1800,1936A,107.2058,34.3497,宝鸡市,文理学院,颗粒物(PM10),113,175,253,75,87,64,,65,65,24,30,8,8,0.2,0.3
2024-03-17T1800,1937A,107.2386,34.3622,宝鸡市,三迪小学,颗粒物(PM10),101,152,239,75,84,61,,65,61,32,39,8,8,0.6,0.6
2024-03-17T1800,1051A,115.493,38.8632,保定市,游泳馆,颗粒物(PM10),53,56,73,9,10,100,,96,96,9,9,2,2,0.2,0.1
2024-03-17T1800,1052A,115.5213,38.8959,保定市,华电二区,,39,39,65,15,16,93,,90,90,12,13,2,3,0.1,0.1
2024-03-17T1800,1053A,115.4713,38.9108,保定市,接待中心,,44,44,64,7,8,94,,92,92,4,5,2,2,0.2,0.2
2024-03-17T1800,1054A,115.4612,38.8416,保定市,地表水厂,颗粒物(PM10),68,86,95,15,11,95,,94,94,11,8,3,2,0.4,0.4
2024-03-17T1800,3581A,115.31981,38.95208,保定市,满城区生态环境分局,颗粒物(PM10),54,58,72,9,9,93,,94,94,6,5,1,2,0.0,0
2024-03-17T1800,3582A,115.47694,38.76408,保定市,清苑区第二中学,颗粒物(PM10),53,55,88,13,10,99,,96,96,9,13,1,2,0.3,0.2
2024-03-17T1800,3583A,115.62909,39.02311,保定市,徐水物探局,颗粒物(PM10),57,63,91,9,7,88,,92,92,16,9,2,2,0.3,0.8
2024-03-17T1800,4004A,115.4202,38.8656,保定市,双鹰农机,,44,44,64,22,17,96,,94,94,12,12,1,2,0.3,0.3
2024-03-17T1800,4034A,115.5150,38.8590,保定市,植保所站,,37,37,70,20,20,100,,97,97,7,7,1,3,0.3,0.3
2024-03-17T1800,2594A,99.1678,25.1081,保山市,市环境监测站,颗粒物(PM10),54,58,75,37,48,137,,134,134,8,11,7,7,0.6,0.8
2024-03-17T1800,2595A,99.1711,25.1328,保山市,市环保局,,,70,74,0,48,128,,118,,,8,12,9,0.7,0.6
2024-03-17T1800,1866A,109.2262,21.588,北海市,牛尾岭水库,,,,,,,,,,,,,,,,
2024-03-17T1800,1867A,109.1436,21.4086,北海市,海滩公园,,42,42,51,22,29,73,,70,70,7,8,7,7,0.5,0.6
2024-03-17T1800,1868A,109.0981,21.4661,北海市,新市环保局,,42,41,50,29,31,70,,62,62,12,9,6,6,0.2,0.4
2024-03-17T1800,1869A,109.1778,21.5233,北海市,北海工业园,,47,47,51,27,33,65,,62,62,7,8,6,6,0.5,0.5
2024-03-17T1800,3400A,109.1911,21.4415,北海市,龙潭自来水厂,,38,38,49,22,34,67,,61,61,5,6,8,8,0.4,0.4
2024-03-17T1800,1001A,116.3621,39.8784,北京市,万寿西宫,,44,44,59,8,8,83,,84,84,15,10,3,3,0.2,0.1
2024-03-17T1800,1002A,116.2202,40.2915,北京市,定陵,,,,,,,,,,,,,,,,
2024-03-17T1800,1003A,116.4174,39.9289,北京市,东四,,43,43,67,10,11,79,,80,80,13,8,1,2,0.2,0.2
2024-03-17T1800,1004A,116.4072,39.8863,北京市,天坛,,40,40,61,8,7,85,,86,86,10,9,3,2,0.2,0.2
2024-03-17T1800,1005A,116.462,39.9365,北京市,农展馆,,40,40,57,7,7,79,,81,81,11,8,1,2,0.2,0.1
2024-03-17T1800,1006A,116.3392,39.9295,北京市,官园,,48,48,69,12,9,91,,92,92,14,10,2,2,0.3,0.3
2024-03-17T1800,1007A,116.2878,39.9611,北京市,海淀万柳,颗粒物(PM10),51,52,64,9,8,86,,88,88,15,11,1,1,0.3,0.3
2024-03-17T1800,1008A,116.6636,40.135,北京市,顺义新城,,31,31,81,8,9,81,,87,87,13,8,3,3,0.2,0.2
2024-03-17T1800,1009A,116.6275,40.3275,北京市,怀柔镇,,34,34,68,7,8,84,,88,88,15,7,3,3,0.2,0.2
2024-03-17T1800,1010A,116.2296,40.217,北京市,昌平镇,颗粒物(PM10),53,56,72,9,8,80,,82,82,16,9,1,3,0.2,0.2
2024-03-17T1800,1011A,116.3966,39.9821,北京市,奥体中心,,42,42,61,8,8,77,,78,78,14,10,3,3,0.2,0.2
2024-03-17T1800,1012A,116.184,39.9136,北京市,古城,颗粒物(PM10),53,55,72,10,8,87,,88,88,16,9,3,3,0.3,0.2
2024-03-17T1800,3281A,115.9718,40.4529,北京市,延庆夏都,,43,43,69,10,10,79,,79,79,11,7,1,2,0.2,0.2
2024-03-17T1800,3417A,117.0709,40.1465,北京市,平谷新城,,31,31,60,9,8,96,,95,95,17,12,3,3,0.1,0.1
2024-03-17T1800,3418A,116.8336,40.4095,北京市,密云新城,,,,68,,8,,,89,,,4,,3,,0.2
2024-03-17T1800,3671A,116.088,39.9726,北京市,门头沟三家店,,,,,,,,,,,,,,,,
2024-03-17T1800,3672A,116.1541,39.8204,北京市,丰台云岗,,50,50,66,9,8,84,,85,85,12,8,3,3,0.2,0.2
2024-03-17T1800,3673A,116.6804,39.9081,北京市,通州东关,,,31,76,6,8,,,96,96,12,10,3,3,0.3,0.2
2024-03-17T1800,3674A,115.9577,39.7603,北京市,房山燕山,颗粒物(PM10),59,67,48,10,7,88,,85,85,12,8,1,2,0.2,0.1
2024-03-17T1800,3675A,116.4672,39.7733,北京市,大兴旧宫,,35,35,59,6,6,89,,85,85,8,6,3,3,0.2,0.2
2024-03-17T1800,3694A,115.986,40.4563,北京市,延庆石河营,,42,42,68,10,10,89,,87,87,6,7,3,3,0.2,0.2
2024-03-17T1800,3695A,116.6151,40.3053,北京市,怀柔新城,,40,40,71,8,10,86,,89,89,17,7,1,2,0.1,0
2024-03-17T1800,3696A,116.2545,39.8768,北京市,丰台小屯,,48,48,73,12,9,82,,83,83,8,4,3,3,0.2,0.2
2024-03-17T1800,3697A,116.84,40.3844,北京市,密云镇,,32,32,66,6,8,82,,86,86,14,6,3,3,0.2,0.2
2024-03-17T1800,1761A,123.8275,41.3064,本溪市,大峪,,43,43,113,12,21,84,,88,88,15,13,9,8,0.8,0.8
2024-03-17T1800,1762A,123.7567,41.3325,本溪市,溪湖,,45,45,105,11,19,90,,91,91,10,10,6,8,0.4,0.4
2024-03-17T1800,1763A,123.7169,41.3094,本溪市,彩屯,,42,42,80,16,23,84,,84,84,18,17,7,9,0.8,0.8
2024-03-17T1800,1764A,123.7669,41.2864,本溪市,东明,,31,31,148,10,21,92,,90,90,13,16,7,8,0.5,0.7
2024-03-17T1800,1765A,123.7992,41.2664,本溪市,新立屯,,28,27,127,17,31,87,,93,93,10,8,10,11,0.8,0.9
2024-03-17T1800,1766A,123.8142,41.3472,本溪市,威宁,,26,24,147,13,20,83,,85,85,14,14,6,6,0.5,0.6
2024-03-17T1800,2587A,105.2864,27.3125,毕节市,八中,细颗粒物(PM2.5),53,50,33,37,25,97,,97,97,16,10,13,9,0.7,0.7
2024-03-17T1800,2588A,105.31,27.2944,毕节市,师专,细颗粒物(PM2.5),60,50,30,43,26,93,,97,97,24,13,20,9,0.7,0.7
2024-03-17T1800,3537A,105.3631,27.3533,毕节市,长征村,细颗粒物(PM2.5),58,54,51,41,40,95,,103,102,16,12,9,8,0.8,0.7
2024-03-17T1800,1629A,118.0018,37.3617,滨州市,第二水厂,颗粒物(PM10),54,58,171,19,31,94,,98,98,16,18,6,6,0.5,0.6
2024-03-17T1800,1630A,117.9776,37.393,滨州市,北中新校,颗粒物(PM10),60,70,158,17,32,90,,96,96,21,20,10,10,0.5,0.6
2024-03-17T1800,3514A,117.9378,37.3956,滨州市,中海酒店,颗粒物(PM10),52,53,146,17,39,91,,93,93,14,22,10,11,0.5,0.6
2024-03-17T1800,3515A,117.9378,37.3553,滨州市,开发区一中,颗粒物(PM10),54,58,167,22,31,96,,100,100,23,27,11,12,0.4,0.4
2024-03-17T1800,3516A,118.0917,37.694,滨州市,金海六路,,49,49,176,17,23,96,,100,100,13,17,8,8,0.5,0.6
2024-03-17T1800,4028A,117.9956,37.3753,滨州市,滨州市西街道办事处,颗粒物(PM10),56,61,164,27,37,92,,96,96,16,18,11,12,0.5,0.6
2024-03-17T1800,2311A,115.8072,33.8399,亳州市,污水处理厂,颗粒物(PM10),156,262,179,30,62,74,,83,73,14,20,10,10,0.4,0.6
2024-03-17T1800,2312A,115.7789,33.8518,亳州市,三国揽胜宫,颗粒物(PM10),152,254,173,27,59,71,,90,71,14,17,8,10,0.4,0.7
2024-03-17T1800,3332A,115.7633,33.8034,亳州市,亳州学院,颗粒物(PM10),151,251,186,31,62,73,,100,72,12,15,7,9,0.4,0.6
2024-03-17T1800,2693A,82.0485,44.8556,博尔塔拉蒙古自治州,市党校,颗粒物(PM10),69,87,71,19,14,87,,78,78,10,8,10,8,0.3,0.2
2024-03-17T1800,2694A,82.0806,44.8969,博尔塔拉蒙古自治州,市环保局,颗粒物(PM10),67,84,70,19,15,81,,70,70,8,13,6,6,0.6,0.5
2024-03-17T1800,1071A,116.8842,38.2991,沧州市,沧县城建局,颗粒物(PM10),52,54,124,25,29,102,,100,100,15,18,7,5,0.4,0.4
2024-03-17T1800,1072A,116.8584,38.3254,沧州市,电视转播站,颗粒物(PM10),53,56,117,12,20,97,,92,92,11,14,10,7,0.2,0.2
2024-03-17T1800,1073A,116.8709,38.3228,沧州市,市环保局,颗粒物(PM10),52,53,115,24,31,96,,94,94,17,18,4,5,0.3,0.3
2024-03-17T1800,3324A,116.8136,38.3004,沧州市,河北水利电力学院,颗粒物(PM10),53,56,141,16,25,96,,94,94,12,14,8,8,0.3,0.3
2024-03-17T1800,2622A,97.1806,31.1273,昌都市,昌都监测站,,,,15,9,11,108,,98,98,,10,6,6,0.4,0.4
2024-03-17T1800,3719A,97.1714,31.1406,昌都市,昌都会议中心,,37,9,9,8,7,118,,109,109,4,5,7,7,0.5,0.5
2024-03-17T1800,2690A,88.1236,43.8886,昌吉回族自治州,天山天池,,29,6,9,0,10,91,,90,90,6,6,7,6,0.5,0.5
2024-03-17T1800,2692A,87.2717,44.0297,昌吉回族自治州,新区政务中心,,29,13,29,12,21,91,,77,77,10,27,7,6,0.5,0.8
2024-03-17T1800,3613A,87.3095,44.0142,昌吉回族自治州,亚心广场,,30,14,32,5,17,95,,78,78,7,26,6,4,0.7,0.9
2024-03-17T1800,1119A,125.3325,43.9166,长春市,食品厂,,23,23,49,12,28,72,,82,81,22,14,8,7,0.3,0.3
2024-03-17T1800,1120A,125.2863,43.9027,长春市,客车厂,,23,18,46,14,26,73,,78,78,19,16,12,7,0.4,0.4
2024-03-17T1800,1121A,125.2841,43.8463,长春市,邮电学院,,26,17,54,10,27,81,,83,83,13,12,10,8,0.2,0.3
2024-03-17T1800,1122A,125.3716,43.8772,长春市,劳动公园,,29,18,50,10,27,90,,89,89,8,10,5,5,0.4,0.5
2024-03-17T1800,1123A,125.3297,43.8805,长春市,园林处,,25,14,47,6,22,80,,82,82,13,13,10,8,0.3,0.4
2024-03-17T1800,1124A,125.4605,43.79,长春市,净月潭,,26,12,48,7,22,81,,83,83,8,9,6,7,0.2,0.3
2024-03-17T1800,1125A,125.7194,43.515,长春市,甩湾子,,,,,,,,,,,,,,,,
2024-03-17T1800,1126A,125.3863,43.8447,长春市,经开区环卫处,,26,16,50,8,23,83,,84,84,10,10,5,6,0.3,0.4
2024-03-17T1800,1127A,125.245,43.7783,长春市,高新区管委会,,26,22,57,10,22,83,,88,88,12,9,8,9,0.4,0.5
2024-03-17T1800,1128A,125.1761,43.8325,长春市,岱山公园,,24,21,49,13,27,76,,82,82,13,9,6,6,0.3,0.4
2024-03-17T1800,1335A,113.0833,28.2325,长沙市,经开区环保局,,46,,63,32,65,51,,34,34,26,29,4,4,0.8,0.7
2024-03-17T1800,1336A,112.8872,28.2189,长沙市,高开区环保局,细颗粒物(PM2.5),77,,67,56,72,64,,51,51,14,15,3,3,1.0,0.9
2024-03-17T1800,1337A,113.0792,28.2053,长沙市,马坡岭,细颗粒物(PM2.5),72,,64,52,78,37,,29,29,34,31,5,5,0.9,0.7
2024-03-17T1800,1338A,112.9394,28.19,长沙市,湖南师范大学,细颗粒物(PM2.5),72,,75,52,71,60,,51,51,18,23,2,2,1.0,0.8
2024-03-17T1800,1339A,113.0178,28.1322,长沙市,雨花区环保局,,39,30,63,27,42,48,,40,40,22,25,3,3,1.2,1
2024-03-17T1800,1340A,112.9792,28.2597,长沙市,伍家岭,细颗粒物(PM2.5),75,,78,55,74,44,,38,38,31,24,4,4,1.0,0.8
2024-03-17T1800,1341A,113.0014,28.1944,长沙市,火车新站,细颗粒物(PM2.5),58,42,67,41,62,54,,45,45,22,21,3,3,1.0,0.8
2024-03-17T1800,1342A,112.9844,28.1178,长沙市,天心区环保局,,41,41,74,25,41,50,,39,39,26,28,1,2,0.4,0.4
2024-03-17T1800,1343A,112.8908,28.1308,长沙市,湖南中医药大学,细颗粒物(PM2.5),90,,67,67,80,59,,48,48,16,19,3,2,1.0,0.9
2024-03-17T1800,1344A,112.9581,28.3611,长沙市,沙坪,颗粒物(PM10),51,52,79,27,32,39,,33,33,11,11,4,4,0.9,0.8
2024-03-17T1800,1727A,113.1147,36.1547,长治市,清华站,颗粒物(PM10),65,79,140,24,36,81,,88,86,27,22,9,10,0.6,0.7
2024-03-17T1800,1728A,113.1031,36.1989,长治市,监测站,颗粒物(PM10),69,87,121,34,39,93,,95,91,19,19,11,12,0.5,0.6
2024-03-17T1800,1730A,113.0886,36.2125,长治市,审计局,颗粒物(PM10),60,70,118,27,37,87,,92,88,17,17,11,13,0.4,0.5
2024-03-17T1800,1731A,113.0844,36.1856,长治市,长治八中,颗粒物(PM10),64,78,130,21,39,92,,98,90,26,23,6,8,0.5,0.6
2024-03-17T1800,2845A,113.1569,36.1911,长治市,德盛苑,细颗粒物(PM2.5),62,72,122,44,40,88,,95,92,22,17,9,9,0.7,0.7
2024-03-17T1800,3568A,113.06,36.0464,长治市,向阳小学,颗粒物(PM10),77,103,157,40,51,94,,98,97,21,18,7,9,0.5,0.6
2024-03-17T1800,3569A,112.8792,36.3144,长治市,屯留一中,颗粒物(PM10),65,80,124,28,42,104,,92,92,13,19,5,11,0.3,0.5
2024-03-17T1800,3570A,113.235,36.3489,长治市,潞城四中,颗粒物(PM10),73,95,150,31,43,88,,90,90,25,21,7,7,0.3,0.4
2024-03-17T1800,1854A,111.6975,28.9703,常德市,市二中,颗粒物(PM10),81,112,61,50,41,89,,78,78,14,21,6,6,0.8,0.8
2024-03-17T1800,1857A,111.7158,29.1456,常德市,白鹤山,细颗粒物(PM2.5),98,136,69,73,59,48,,46,46,4,3,7,5,0.8,0.7
2024-03-17T1800,3138A,111.7153,29.0289,常德市,武陵区永安,颗粒物(PM10),68,85,56,48,39,88,,81,81,16,24,5,6,0.8,0.8
2024-03-17T1800,3139A,111.6892,28.9881,常德市,鼎城区玉霞,颗粒物(PM10),81,112,70,44,40,93,,81,81,17,26,8,8,0.8,0.8
2024-03-17T1800,3140A,111.6625,29.0531,常德市,武陵区长庚,"颗粒物(PM10),细颗粒物(PM2.5)",70,90,60,51,43,88,,78,78,14,25,5,7,0.8,0.8
2024-03-17T1800,1196A,119.9633,31.762,常州市,市监测站,,48,48,121,27,71,80,,72,72,14,43,7,9,0.3,0.3
2024-03-17T1800,1200A,119.9468,31.7069,常州市,武进监测站,颗粒物(PM10),53,55,116,20,60,74,,69,69,15,44,9,19,0.5,0.9
2024-03-17T1800,1201A,119.9255,31.9087,常州市,安家,,45,45,106,24,69,73,,72,72,19,36,9,10,0.5,0.8
2024-03-17T1800,3002A,119.9805,31.8174,常州市,行政中心,,44,44,97,16,67,80,,74,74,19,35,8,10,0.6,1
2024-03-17T1800,3003A,120.0522,31.7748,常州市,经开区,,46,46,115,22,66,74,,71,71,20,54,7,7,0.3,0.6
2024-03-17T1800,3010A,119.9025,31.7964,常州市,钟楼,,48,48,105,26,67,74,,70,70,14,27,8,8,0.7,0.9
2024-03-17T1800,3429A,119.8598,31.7066,常州市,武进经发区,颗粒物(PM10),59,67,100,13,49,72,,68,68,18,44,8,8,0.6,0.9
2024-03-17T1800,3430A,119.5826,31.7245,常州市,金坛城区,颗粒物(PM10),62,73,77,11,43,76,,69,69,15,26,6,7,0.5,0.8
2024-03-17T1800,2220A,120.4318,41.5881,朝阳市,西梁,,33,24,141,17,27,103,,104,104,10,9,7,9,0.5,0.4
2024-03-17T1800,2221A,120.4521,41.5646,朝阳市,河畔小区,,32,20,168,11,18,102,,99,99,6,7,5,5,0.5,0.5
2024-03-17T1800,2222A,120.4176,41.5648,朝阳市,八里堡,,39,34,184,27,33,96,,102,102,13,7,8,8,0.5,0.4
2024-03-17T1800,2223A,120.3806,41.5969,朝阳市,农业园区,,30,24,174,21,29,92,,99,99,15,5,6,5,0.5,0.4
2024-03-17T1800,1705A,116.6367,23.6719,潮州市,西园路,细颗粒物(PM2.5),88,68,88,65,54,131,,88,88,28,27,8,9,0.9,0.9
2024-03-17T1800,3026A,116.6183,23.6608,潮州市,市政府,细颗粒物(PM2.5),87,66,108,64,76,146,,96,96,32,45,11,22,1.2,1.4
2024-03-17T1800,4036A,116.6461,23.6761,潮州市,金山,细颗粒物(PM2.5),103,,76,77,54,146,,98,98,30,28,10,10,1.1,1.1
2024-03-17T1800,2472A,113.0073,25.9061,郴州市,马头岭,颗粒物(PM10),53,56,56,33,25,33,,54,54,19,19,4,12,1.1,0.9
2024-03-17T1800,2473A,113.0116,25.8226,郴州市,市职中,细颗粒物(PM2.5),74,65,43,54,37,39,,69,69,17,15,7,12,1.0,0.9
2024-03-17T1800,2474A,113.0161,25.8001,郴州市,兴隆步行街,细颗粒物(PM2.5),74,68,50,54,36,44,,68,68,17,16,4,10,1.2,1.1
2024-03-17T1800,2475A,113.0383,25.8071,郴州市,市审计局,细颗粒物(PM2.5),77,77,42,56,36,40,,68,68,18,18,6,12,1.1,0.9
2024-03-17T1800,2476A,113.0348,25.7759,郴州市,市环保局,细颗粒物(PM2.5),87,78,57,64,45,42,,61,61,21,21,6,18,1.1,1
2024-03-17T1800,1431A,103.9728,30.7236,成都市,金泉两河,颗粒物(PM10),57,63,142,11,51,85,,75,75,17,13,2,2,0.3,0.4
2024-03-17T1800,1432A,104.176,30.6872,成都市,十里店,颗粒物(PM10),56,61,137,33,43,92,,83,83,14,18,1,2,0.4,0.4
2024-03-17T1800,1433A,104.079,30.5706,成都市,三瓦窑,颗粒物(PM10),57,64,142,34,46,95,,84,84,13,16,2,2,0.4,0.5
2024-03-17T1800,1434A,104.1114,30.63,成都市,沙河铺,,50,50,131,26,44,91,,81,81,15,18,2,3,0.5,0.5
2024-03-17T1800,1437A,104.0786,30.6531,成都市,君平街,颗粒物(PM10),53,56,159,22,45,94,,76,76,20,23,5,5,0.3,0.4
2024-03-17T1800,1438A,103.613,31.0283,成都市,灵岩寺,颗粒物(PM10),80,110,79,38,29,73,,84,63,19,15,4,5,0.5,0.5
2024-03-17T1800,2880A,104.0239,30.65639,成都市,大石西路,颗粒物(PM10),57,63,153,19,44,97,,77,77,5,11,5,5,0.5,0.6
2024-03-17T1800,3136A,104.2725,30.5589,成都市,龙泉驿区区政府,,34,34,132,17,43,102,,86,86,8,17,2,3,0.6,0.6
2024-03-17T1800,3357A,104.0106,30.6931,成都市,金博路,颗粒物(PM10),55,60,156,33,50,83,,73,73,17,14,1,2,0.4,0.5
2024-03-17T1800,3359A,104.0578,30.5225,成都市,华阳,,,,141,,52,95,,83,83,14,18,3,2,0.4,0.4
2024-03-17T1800,3487A,104.2394,30.5319,成都市,车城东七路,颗粒物(PM10),53,56,140,26,47,95,,83,83,13,20,3,4,0.4,0.4
2024-03-17T1800,3488A,104.3853,30.7453,成都市,青白江技师分院,颗粒物(PM10),55,60,141,18,45,94,,88,88,14,19,2,3,0.6,0.6
2024-03-17T1800,3489A,104.0789,30.4072,成都市,科学城,颗粒物(PM10),55,59,142,27,46,105,,89,89,12,19,3,3,0.4,0.4
2024-03-17T1800,4011A,103.8506,30.6947,成都市,光华大道三段,颗粒物(PM10),66,81,152,39,53,93,,75,75,15,11,3,2,0.4,0.4
2024-03-17T1800,1062A,117.9531,40.9081,承德市,铁路,,27,27,94,5,13,85,,90,90,15,10,7,6,0.2,0.2
2024-03-17T1800,1063A,117.9392,40.9763,承德市,中国银行,,30,22,88,18,13,93,,94,94,11,10,9,9,0.3,0.3
2024-03-17T1800,1064A,117.9503,40.928,承德市,开发区,,27,21,93,7,18,85,,90,90,16,11,8,6,0.3,0.3
2024-03-17T1800,1065A,117.8051,40.9655,承德市,文化中心,,38,38,94,18,12,92,,93,93,11,10,20,9,0.3,0.3
2024-03-17T1800,1066A,117.9268,41.0026,承德市,离宫,,27,16,70,9,19,84,,89,89,4,4,4,4,0.3,0.3
2024-03-17T1800,2314A,117.47,30.6618,池州市,池州学院,颗粒物(PM10),58,66,57,32,43,56,,80,77,32,41,4,9,0.7,0.9
2024-03-17T1800,3237A,117.4918,30.6617,池州市,展览馆,颗粒物(PM10),55,60,57,37,40,61,,81,78,23,29,3,6,0.7,0.9
2024-03-17T1800,3333A,117.5627,30.695,池州市,第八中学,颗粒物(PM10),54,58,53,28,38,57,,85,80,19,26,3,6,0.6,0.8
2024-03-17T1800,3334A,117.5038,30.6243,池州市,第十二中学,颗粒物(PM10),57,64,51,32,38,61,,94,89,20,27,3,6,0.6,0.8
2024-03-17T1800,1744A,118.9233,42.2816,赤峰市,松山一中,,33,33,66,10,8,77,,87,87,26,11,12,7,0.6,0.4
2024-03-17T1800,1745A,118.9576,42.2728,赤峰市,哈达街,,33,33,54,11,13,87,,87,87,16,13,9,8,0.5,0.4
2024-03-17T1800,1746A,118.8788,42.2554,赤峰市,天义路,,23,22,50,12,10,72,,84,83,22,11,5,5,0.4,0.4
2024-03-17T1800,3058A,119.2658,42.0353,赤峰市,银河街,颗粒物(PM10),52,53,93,32,25,87,,89,89,22,14,18,16,0.7,0.5
2024-03-17T1800,3286A,118.9359,42.3147,赤峰市,桥北物流园区,,32,32,44,19,16,80,,92,92,25,11,6,5,0.5,0.4
2024-03-17T1800,2521A,107.3476,22.4136,崇左市,市环保局江州分局,,48,48,50,29,26,42,,35,35,11,14,7,7,0.6,0.6
2024-03-17T1800,2522A,107.3702,22.3707,崇左市,城南新区,,40,33,38,28,24,36,,33,33,18,15,6,6,0.5,0.5
2024-03-17T1800,2298A,118.3093,32.3153,滁州市,老年大学,颗粒物(PM10),131,212,173,34,81,79,,72,72,19,25,6,11,0.4,0.6
2024-03-17T1800,2299A,118.3244,32.2786,滁州市,人大宾馆,颗粒物(PM10),119,188,186,16,73,80,,74,71,19,29,4,6,0.5,0.8
2024-03-17T1800,3207A,118.3118,32.3038,滁州市,市政府原办公楼,颗粒物(PM10),115,180,170,31,78,79,,73,70,20,27,3,7,0.4,0.6
2024-03-17T1800,3331A,118.3267,32.2634,滁州市,图书馆,颗粒物(PM10),153,256,174,16,72,85,,75,73,15,26,5,6,0.5,0.8
2024-03-17T1800,2605A,101.5482,25.0441,楚雄彝族自治州,州环境监测站,,43,35,57,21,45,135,,129,129,5,13,6,8,0.6,0.7
2024-03-17T1800,2606A,101.538,25.0492,楚雄彝族自治州,市经济开发区,,41,41,59,25,43,123,,120,120,9,14,6,7,0.6,0.8
2024-03-17T1800,2548A,107.5277,31.2827,达州市,达州职业技术学院,,50,50,92,17,32,51,,58,56,23,27,17,13,0.4,0.4
2024-03-17T1800,2549A,107.5086,31.2186,达州市,市环境监测站,颗粒物(PM10),52,54,81,17,31,40,,58,56,39,33,16,12,0.8,0.8
2024-03-17T1800,2550A,107.4988,31.2132,达州市,凤凰小区,,44,44,80,24,37,48,,67,64,34,28,15,12,0.7,0.7
2024-03-17T1800,2551A,107.5082,31.1986,达州市,达县机关宾馆,,46,46,82,19,36,40,,59,57,37,40,14,9,0.6,0.6
2024-03-17T1800,2552A,107.4644,31.2124,达州市,市政中心,,44,44,71,22,32,49,,63,59,30,37,12,11,0.4,0.4
2024-03-17T1800,2614A,100.1542,25.7054,大理白族自治州,大理市环境监测站,,44,44,54,26,38,136,,132,129,12,11,7,7,0.6,0.7
2024-03-17T1800,2615A,100.2171,25.5811,大理白族自治州,大理古城,,,53,53,32,40,136,,136,136,11,13,,7,0.6,0.7
2024-03-17T1800,1109A,121.612,38.9741,大连市,甘井子,颗粒物(PM10),60,70,94,21,29,104,,105,105,19,23,8,6,0.6,0.5
2024-03-17T1800,1110A,121.565,38.9511,大连市,周水子,颗粒物(PM10),54,57,82,21,29,103,,100,100,12,17,4,6,0.7,0.8
2024-03-17T1800,1111A,121.5637,38.8845,大连市,星海三站,颗粒物(PM10),58,66,87,28,28,89,,93,93,20,17,11,6,0.6,0.6
2024-03-17T1800,1112A,121.6302,38.9117,大连市,青泥洼桥,颗粒物(PM10),58,66,93,22,26,98,,100,100,18,19,9,9,0.7,0.7
2024-03-17T1800,1113A,121.6251,38.8638,大连市,傅家庄,颗粒物(PM10),54,57,83,20,25,102,,99,99,18,19,9,10,0.5,0.5
2024-03-17T1800,1114A,121.5213,38.8661,大连市,七贤岭,颗粒物(PM10),59,68,98,22,26,111,,111,111,17,18,19,10,0.5,0.5
2024-03-17T1800,1115A,121.2529,38.8061,大连市,旅顺,颗粒物(PM10),52,53,74,22,29,98,,93,93,11,14,7,8,0.7,0.7
2024-03-17T1800,1116A,121.7485,39.1311,大连市,金州,颗粒物(PM10),58,65,90,26,30,109,,102,102,12,18,9,12,0.6,0.7
2024-03-17T1800,1117A,121.7811,39.0496,大连市,开发区,颗粒物(PM10),65,79,93,30,26,90,,93,93,20,22,5,4,0.5,0.4
2024-03-17T1800,1118A,121.9762,39.0631,大连市,双D港,,50,50,111,27,25,110,,103,103,14,21,8,7,0.6,0.5
2024-03-17T1800,1789A,124.81117,46.03138,大庆市,大同区,,36,36,20,24,22,66,,78,78,21,7,6,6,0.4,0.3
2024-03-17T1800,1790A,125.129,46.533,大庆市,龙凤区,,28,28,24,17,19,75,,79,79,18,11,4,5,0.4,0.3
2024-03-17T1800,1791A,124.902,46.408,大庆市,红岗区,,25,22,19,16,17,78,,83,83,13,7,4,5,0.4,0.4
2024-03-17T1800,1792A,125.153,46.586,大庆市,萨尔图区,,31,31,15,11,10,67,,77,77,21,8,9,8,0.5,0.4
2024-03-17T1800,1793A,124.9042,46.6215,大庆市,让胡路区,,25,23,23,12,14,78,,83,83,13,6,6,7,0.4,0.3
2024-03-17T1800,3481A,125.141,46.634,大庆市,萨区政府监测点,,24,15,15,8,12,75,,85,85,15,7,7,7,0.4,0.4
2024-03-17T1800,1721A,113.3819,40.1097,大同市,果树场,,,,,,,,,,,,,,,,
2024-03-17T1800,1723A,113.2994,40.0758,大同市,云冈宾馆,,47,47,54,6,16,96,,89,89,13,16,4,12,0.3,0.8
2024-03-17T1800,1724A,113.3444,40.0917,大同市,大同大学,颗粒物(PM10),55,59,48,19,15,91,,89,89,14,12,10,16,0.3,0.4
2024-03-17T1800,1725A,113.2661,40.1269,大同市,安家小村,,45,45,56,2,14,97,,90,90,9,14,10,15,0.2,0.7
2024-03-17T1800,1726A,113.2711,40.0844,大同市,教育学院,颗粒物(PM10),54,57,55,5,16,88,,85,85,16,19,4,12,0.3,0.6
2024-03-17T1800,3282A,113.3397,40.0597,大同市,大同市卫生学校,颗粒物(PM10),56,61,50,22,16,82,,88,88,28,13,7,9,0.4,0.5
2024-03-17T1800,3565A,113.1367,40.1122,大同市,云冈站,,30,30,56,9,15,93,,91,91,14,20,6,18,0.3,0.5
2024-03-17T1800,3566A,113.1186,40.2556,大同市,图书馆,,38,38,48,11,17,92,,90,90,16,14,9,16,0.5,0.6
2024-03-17T1800,3567A,113.5931,40.0461,大同市,区一中,颗粒物(PM10),54,58,52,11,13,81,,82,82,19,11,19,5,0.5,0.5
2024-03-17T1800,3676A,113.2802,40.0995,大同市,第二人民医院,颗粒物(PM10),52,53,56,18,18,99,,94,94,13,18,7,13,0.4,0.7
2024-03-17T1800,2269A,124.1069,50.4097,大兴安岭地区,科技局,,24,19,16,16,17,76,,78,78,8,6,7,7,0.5,0.5
2024-03-17T1800,3663A,124.1164,50.4278,大兴安岭地区,红旗社区,,26,12,17,7,10,83,,81,81,6,13,10,10,0.4,0.5
2024-03-17T1800,1600A,124.3303,40.0625,丹东市,江湾东路,,46,46,66,13,18,90,,92,92,17,13,6,7,0.4,0.5
2024-03-17T1800,1601A,124.4256,40.1503,丹东市,临江后街,,35,35,61,6,15,85,,86,86,15,11,7,9,0.4,0.7
2024-03-17T1800,1602A,124.3933,40.1461,丹东市,元宝山,,32,32,57,6,16,86,,83,83,7,11,6,7,0.5,0.5
2024-03-17T1800,1603A,124.3633,40.1092,丹东市,民主桥,,45,45,68,6,14,77,,81,81,20,12,10,9,0.2,0.5
2024-03-17T1800,3541A,109.5726,19.5167,儋州市,第一中学子站,,20,19,32,10,21,64,,66,66,4,7,7,8,0.5,0.6
2024-03-17T1800,3542A,109.5567,19.5187,儋州市,东坡学校子站,,21,15,31,12,20,66,,68,68,3,6,8,9,0.5,0.5
2024-03-17T1800,2616A,98.5842,24.428,德宏傣族景颇族自治州,德宏州监测站,颗粒物(PM10),58,65,102,32,69,148,,142,142,13,31,3,8,0.6,0.9
2024-03-17T1800,3677A,98.5881,24.4368,德宏傣族景颇族自治州,芒市人民政府综合楼,细颗粒物(PM2.5),60,68,97,43,64,148,,145,145,10,18,3,7,0.5,0.9
2024-03-17T1800,1901A,104.4239,31.1208,德阳市,东山公园,,46,46,110,23,42,99,,89,89,8,14,1,2,0.3,0.4
2024-03-17T1800,1902A,104.3826,31.1317,德阳市,西小区,颗粒物(PM10),52,54,112,29,42,89,,84,84,17,15,3,3,0.4,0.4
2024-03-17T1800,1904A,104.3553,31.1091,德阳市,耐火材料厂,颗粒物(PM10),54,57,115,31,45,88,,82,82,12,12,3,4,0.3,0.3
2024-03-17T1800,3639A,104.4019,31.1244,德阳市,市教育局,,47,47,103,24,43,91,,86,86,15,12,1,1,0.3,0.3
2024-03-17T1800,1622A,116.3032,37.4674,德州市,儿童乐园,颗粒物(PM10),75,100,157,17,27,88,,88,88,18,23,8,7,0.5,0.4
2024-03-17T1800,1624A,116.2991,37.4451,德州市,监理站,颗粒物(PM10),67,83,150,12,22,99,,97,97,16,20,10,8,0.4,0.4
2024-03-17T1800,3066A,116.2721,37.4379,德州市,九衢泉纯净水厂,颗粒物(PM10),68,85,147,14,24,94,,94,94,20,22,8,7,0.5,0.4
2024-03-17T1800,3371A,116.3728,37.4403,德州市,开发区人民医院,颗粒物(PM10),67,83,159,12,23,97,,92,92,11,19,8,7,0.4,0.4
2024-03-17T1800,3372A,116.3572,37.4094,德州市,太阳城中学,颗粒物(PM10),70,90,158,17,25,94,,90,90,15,19,7,6,0.4,0.5
2024-03-17T1800,3511A,116.5652,37.3319,德州市,陵城艺术中心,颗粒物(PM10),86,122,155,14,28,101,,94,94,15,16,8,5,0.5,0.5
2024-03-17T1800,2621A,99.7056,27.8317,迪庆藏族自治州,迪庆州站,,35,31,40,16,25,109,,111,111,10,12,6,8,0.3,0.4
2024-03-17T1800,3180A,99.7136,27.8094,迪庆藏族自治州,质量技术监督局,,34,34,40,17,18,107,,108,108,8,10,6,6,0.5,0.6
2024-03-17T1800,2663A,104.6241,35.5734,定西市,东关小学,颗粒物(PM10),77,103,102,38,34,79,,97,97,22,13,24,9,0.4,0.4
2024-03-17T1800,2664A,104.6194,35.5934,定西市,供电公司,颗粒物(PM10),63,76,97,41,40,91,,96,96,6,14,9,9,0.2,0.2
2024-03-17T1800,1389A,113.7547,23.0494,东莞市,莞城梨川,,27,27,73,16,45,66,,72,72,22,48,7,8,0.5,0.8
2024-03-17T1800,1390A,113.7944,23.0128,东莞市,东城石井,,23,23,42,14,25,67,,72,72,13,25,8,7,0.6,0.7
2024-03-17T1800,1391A,113.7383,22.9658,东莞市,南城西平,,24,24,56,15,31,60,,66,66,13,41,7,9,0.6,0.7
2024-03-17T1800,3319A,113.7338,23.0381,东莞市,万江金泰,,32,32,84,19,52,58,,65,65,20,46,10,10,0.6,0.9
2024-03-17T1800,3626A,113.7533,23.0202,东莞市,南城元岭,,,27,67,15,37,,,57,57,14,42,8,8,0.7,0.9
2024-03-17T1800,3627A,113.7875,23.0457,东莞市,东城主山,,25,25,59,14,34,67,,75,75,12,40,8,7,0.5,0.7
2024-03-17T1800,1666A,118.6614,37.4309,东营市,市环保局,,33,31,139,17,24,105,,105,105,12,15,8,7,0.3,0.3
2024-03-17T1800,3036A,118.6904,37.4338,东营市,开发区管委会,,33,33,152,14,28,96,,96,96,18,24,3,3,0.4,0.4
2024-03-17T1800,3365A,118.5719,37.565,东营市,垦利区民丰路,,34,34,136,17,22,102,,100,100,15,19,8,10,0.4,0.5
2024-03-17T1800,3498A,118.5055,37.8612,东营市,河口城区,,41,41,161,19,26,95,,92,92,10,12,4,5,0.4,0.5
2024-03-17T1800,3646A,118.4978,37.4623,东营市,胜利站,,44,44,155,14,30,94,,97,97,14,15,7,9,0.4,0.4
2024-03-17T1800,3734A,118.35,37.26,东营市,理想之城,,36,36,148,14,30,93,,96,96,16,23,3,4,0.5,0.6
2024-03-17T1800,1591A,110.0023,39.8129,鄂尔多斯市,综合楼,颗粒物(PM10),75,100,58,17,12,96,,88,88,14,24,2,5,0.6,0.6
2024-03-17T1800,1592A,109.9486,39.8261,鄂尔多斯市,巴音孟克林场办事处,颗粒物(PM10),73,95,53,17,14,94,,88,88,10,29,7,10,0.4,0.5
2024-03-17T1800,1593A,109.7736,39.5986,鄂尔多斯市,康泽苑,颗粒物(PM10),68,85,54,19,12,99,,93,93,12,20,6,8,0.4,0.5
2024-03-17T1800,1594A,109.8119,39.5989,鄂尔多斯市,华泰汽车城,颗粒物(PM10),69,88,54,27,16,101,,91,91,10,27,6,8,0.4,0.4
2024-03-17T1800,1595A,109.9734,39.7884,鄂尔多斯市,奥林花园,颗粒物(PM10),79,107,57,22,11,82,,85,85,27,26,19,9,0.5,0.6
2024-03-17T1800,2436A,114.8938,30.3994,鄂州市,市政府,,47,47,75,26,47,73,,84,84,20,32,8,9,0.6,1
2024-03-17T1800,2437A,114.8989,30.3714,鄂州市,赵家坝,,44,44,75,26,49,89,,93,93,10,21,3,6,0.5,0.9
2024-03-17T1800,3654A,114.8094,30.4089,鄂州市,精准医疗中心,,50,50,88,29,50,74,,84,84,14,30,3,6,0.5,0.8
2024-03-17T1800,2454A,109.4978,30.2981,恩施土家族苗族自治州,湖北民院,,48,48,49,18,32,95,,73,73,19,21,7,7,1.0,1.2
2024-03-17T1800,2455A,109.4707,30.2798,恩施土家族苗族自治州,州电力总公司,,41,41,35,17,30,92,,72,72,13,20,7,8,0.9,1
2024-03-17T1800,3549A,109.5061,30.3772,恩施土家族苗族自治州,龙凤新区,,34,34,41,12,35,94,,80,80,16,20,7,7,0.8,0.9
2024-03-17T1800,2499A,108.3411,21.6158,防城港市,沙万,颗粒物(PM10),60,69,56,38,36,8,,32,31,66,34,15,7,1.4,1
2024-03-17T1800,2500A,108.3514,21.7731,防城港市,防城档案局,,43,43,53,29,33,50,,41,41,15,18,5,6,0.9,0.9
2024-03-17T1800,2501A,108.3506,21.6414,防城港市,大海花园,,47,47,46,23,26,42,,48,48,29,21,7,5,1.0,0.8
2024-03-17T1800,1371A,113.1294,23.0067,佛山市,湾梁,,48,48,84,23,33,68,,64,64,26,50,8,8,0.6,0.8
2024-03-17T1800,1372A,113.1083,23.0478,佛山市,华材职中,颗粒物(PM10),54,58,87,28,43,74,,61,61,34,50,10,10,0.5,0.8
2024-03-17T1800,1373A,113.144,23.0453,佛山市,南海气象局,,40,40,66,27,38,70,,59,59,24,51,8,8,0.5,0.7
2024-03-17T1800,1374A,113.2881,22.8094,佛山市,顺德苏岗,颗粒物(PM10),53,55,57,27,30,65,,64,64,32,39,4,4,0.6,0.6
2024-03-17T1800,1376A,112.8383,22.8678,佛山市,高明孔堂,,44,44,91,20,42,48,,52,52,20,49,4,4,0.6,0.9
2024-03-17T1800,1377A,112.8836,23.1588,佛山市,三水监测站,颗粒物(PM10),54,58,104,23,46,4,,29,29,81,63,10,8,0.8,1.1
2024-03-17T1800,1378A,112.867,23.185,佛山市,三水云东海,颗粒物(PM10),52,54,69,26,57,14,,43,43,52,33,6,5,0.7,0.9
2024-03-17T1800,3625A,113.2544,22.7642,佛山市,容桂街道办,颗粒物(PM10),57,63,61,31,30,63,,63,63,37,41,6,6,0.5,0.5
2024-03-17T1800,1280A,119.3903,26.0543,福州市,鼓山,,,,,,,,,,,,,,,,
2024-03-17T1800,1282A,119.2681,26.0504,福州市,师大,,45,,37,31,31,105,,86,86,15,30,4,4,0.4,0.7
2024-03-17T1800,1283A,119.2984,26.1028,福州市,五四北路,,30,,28,17,32,94,,81,81,18,32,3,3,0.8,1
2024-03-17T1800,1284A,119.2648,26.0768,福州市,杨桥西路,,34,23,32,22,29,107,,88,88,15,28,4,4,0.5,0.7
2024-03-17T1800,1285A,119.317,26.0746,福州市,紫阳,,32,24,43,16,39,102,,79,79,12,33,3,2,0.6,1
2024-03-17T1800,3048A,119.5799,26.0936,福州市,九龙,细颗粒物(PM2.5),53,,31,37,31,143,,90,90,17,25,4,3,0.5,0.6
2024-03-17T1800,3526A,119.5189,25.9664,福州市,吴航,,44,36,36,30,29,139,,88,88,11,28,3,4,0.5,0.8
2024-03-17T1800,1755A,123.7977,41.8491,抚顺市,望花区,,30,18,183,10,34,95,,97,97,13,10,3,7,0.4,0.5
2024-03-17T1800,1756A,123.9161,41.8822,抚顺市,顺城区,,31,24,162,10,21,98,,101,101,15,13,5,5,0.4,0.5
2024-03-17T1800,1757A,124.0436,41.8611,抚顺市,东洲区,,31,19,156,11,22,98,,97,97,6,8,9,7,0.5,0.5
2024-03-17T1800,1758A,123.9247,41.8642,抚顺市,新抚区,,31,23,165,10,23,98,,102,102,10,9,6,6,0.4,0.5
2024-03-17T1800,1759A,124.0972,41.8961,抚顺市,大伙房水库,,32,26,181,8,22,100,,98,98,6,9,5,6,0.2,0.4
2024-03-17T1800,1760A,123.7086,41.8391,抚顺市,沈抚新城,,30,22,184,15,23,96,,97,97,8,7,5,5,0.3,0.3
2024-03-17T1800,2376A,116.2127,28.0814,抚州市,桐源党溪,,42,42,30,28,19,40,,37,37,6,14,4,4,0.7,0.8
2024-03-17T1800,2377A,116.3544,27.9831,抚州市,市站,,44,44,41,30,27,37,,31,31,12,25,5,10,0.9,1.1
2024-03-17T1800,2378A,116.3565,27.963,抚州市,血防站,,46,46,40,31,26,40,,35,35,20,30,4,8,1.0,1.1
2024-03-17T1800,2379A,116.3564,28.0007,抚州市,采茶剧团,,44,44,38,28,27,38,,34,34,20,31,5,11,1.0,1.1
2024-03-17T1800,2380A,116.385,27.9647,抚州市,医学分院,,45,45,39,22,20,39,,36,36,18,33,7,10,1.1,1.3
2024-03-17T1800,2207A,121.6094,41.998,阜新市,工业园区,,36,33,248,25,20,98,,98,98,10,10,9,6,0.7,0.7
2024-03-17T1800,2208A,121.6697,42.0279,阜新市,长青街,,31,26,227,13,15,97,,97,97,15,9,6,4,0.5,0.4
2024-03-17T1800,2209A,121.6673,42.0705,阜新市,农业园区,,32,27,229,9,19,101,,100,100,10,8,9,5,0.5,0.4
2024-03-17T1800,2210A,121.6717,42.0224,阜新市,东苑,,29,27,238,19,63,90,,91,91,20,11,11,7,0.8,0.8
2024-03-17T1800,2211A,121.6506,42.0498,阜新市,玉龙新城,,30,28,226,16,14,96,,94,94,7,7,5,5,0.2,0.2
2024-03-17T1800,2301A,115.8277,32.8929,阜阳市,市监测站,颗粒物(PM10),132,214,164,38,80,46,,71,58,18,34,7,8,0.5,0.7
2024-03-17T1800,2303A,115.8554,32.8605,阜阳市,开发区,颗粒物(PM10),154,257,182,32,87,44,,65,53,25,35,5,6,0.5,0.6
2024-03-17T1800,2875A,115.784,32.8892,阜阳市,阜阳职业技术学院,颗粒物(PM10),132,214,161,40,74,49,,77,59,21,34,5,7,0.5,0.7
2024-03-17T1800,3468A,115.7901,32.8613,阜阳市,市规划展馆,颗粒物(PM10),119,188,134,18,66,49,,84,59,22,32,6,8,0.3,0.6
2024-03-17T1800,3469A,115.836,32.9183,阜阳市,枣园社区,颗粒物(PM10),127,204,140,18,73,47,,69,57,23,41,8,11,0.5,0.7
2024-03-17T1800,2669A,102.9099,34.9841,甘南藏族自治州,州政府,颗粒物(PM10),75,100,89,53,36,84,,97,97,10,11,9,9,0.4,0.4
2024-03-17T1800,3380A,102.8914,34.9617,甘南藏族自治州,甘肃民族师范学院,颗粒物(PM10),71,92,102,38,40,91,,99,99,9,15,15,12,0.5,0.5
2024-03-17T1800,2570A,101.9603,30.0475,甘孜藏族自治州,水桥子,,28,13,15,1,9,88,,84,84,4,15,11,11,0.5,0.4
2024-03-17T1800,3065A,101.9533,29.9972,甘孜藏族自治州,州环保局,,27,15,20,7,5,86,,86,86,9,18,7,8,0.4,0.4
2024-03-17T1800,3414A,115.8347,28.932,赣江新区,桑海产业园,细颗粒物(PM2.5),67,61,47,48,35,85,,69,69,25,30,4,5,0.7,0.6
2024-03-17T1800,2362A,114.9017,25.9149,赣州市,通天岩,,,,,,,,,,,,,,,,
2024-03-17T1800,2363A,114.9367,25.8664,赣州市,地委,,44,44,42,27,24,70,,76,76,18,20,10,11,0.8,0.8
2024-03-17T1800,2364A,114.9461,25.8481,赣州市,气象台,细颗粒物(PM2.5),82,,41,60,31,87,,84,84,12,22,14,15,0.5,0.6
2024-03-17T1800,2365A,114.9322,25.8333,赣州市,市图书馆,,47,47,43,31,25,56,,72,72,29,25,16,11,0.9,0.9
2024-03-17T1800,2366A,114.8905,25.8471,赣州市,华坚鞋城,颗粒物(PM10),51,52,47,29,27,70,,79,79,22,22,7,8,0.8,0.8
2024-03-17T1800,3109A,115.0093,25.8613,赣州市,赣县区卫计委,,43,40,50,30,32,67,,69,69,12,21,8,8,0.5,0.8
2024-03-17T1800,2683A,106.2319,36.1417,固原市,马园,颗粒物(PM10),95,139,139,37,37,94,,91,91,18,28,4,4,0.0,0.1
2024-03-17T1800,2684A,106.2792,36.0022,固原市,监测站,颗粒物(PM10),102,154,140,42,40,100,,97,97,12,16,6,6,0.3,0.3
2024-03-17T1800,2685A,106.2375,36.0211,固原市,新区,颗粒物(PM10),95,139,136,38,35,96,,95,95,14,14,8,7,0.4,0.4
2024-03-17T1800,3522A,106.2177,35.9959,固原市,原州区十五小,颗粒物(PM10),102,154,148,44,38,104,,102,102,15,12,9,9,0.3,0.3
2024-03-17T1800,2543A,106.6308,30.5278,广安市,小平旧居,,,,,,,,,,,,,,,,
2024-03-17T1800,2544A,106.6303,30.4576,广安市,市委,颗粒物(PM10),75,99,87,52,42,72,,80,80,15,18,4,4,0.6,0.7
2024-03-17T1800,2545A,106.6271,30.4663,广安市,友谊中学,颗粒物(PM10),70,90,74,49,41,77,,83,83,16,19,5,5,0.7,0.7
2024-03-17T1800,2547A,106.6388,30.4551,广安市,广电花园,细颗粒物(PM2.5),78,96,80,57,44,75,,82,82,16,18,6,6,0.6,0.7
2024-03-17T1800,2902A,106.6351,30.4865,广安市,北辰小学,颗粒物(PM10),74,97,86,49,47,74,,81,81,15,16,8,8,0.6,0.7
2024-03-17T1800,2523A,105.8945,32.4535,广元市,黑石坡,,47,47,133,29,46,85,,93,90,12,8,4,4,0.4,0.3
2024-03-17T1800,2524A,105.821,32.4444,广元市,老城,颗粒物(PM10),56,62,165,24,45,71,,82,78,16,13,3,2,0.4,0.4
2024-03-17T1800,2526A,105.8628,32.4287,广元市,监测站,颗粒物(PM10),53,56,130,23,43,80,,89,86,8,6,5,5,0.4,0.4
2024-03-17T1800,3617A,105.8047,32.4166,广元市,经开区,,41,41,182,21,54,78,,81,81,12,13,3,3,0.4,0.4
2024-03-17T1800,1345A,113.2347,23.1423,广州市,广雅中学,颗粒物(PM10),54,58,70,35,39,74,,54,54,41,63,5,6,0.7,1
2024-03-17T1800,1346A,113.2612,23.105,广州市,市五中,颗粒物(PM10),55,59,73,33,40,69,,52,52,39,62,6,6,0.8,1
2024-03-17T1800,1348A,113.3478,23.0916,广州市,广东商学院,,48,48,68,29,36,61,,43,43,32,63,5,6,0.7,0.9
2024-03-17T1800,1349A,113.4332,23.1047,广州市,市八十六中,,50,50,78,23,38,32,,40,40,58,70,5,8,0.6,0.9
2024-03-17T1800,1350A,113.3505,22.9483,广州市,番禺中学,颗粒物(PM10),54,57,60,28,30,87,,66,66,26,54,6,6,0.8,0.9
2024-03-17T1800,1351A,113.2146,23.3916,广州市,花都师范,,46,46,88,28,48,62,,45,45,42,61,5,6,0.7,1.2
2024-03-17T1800,1352A,113.2597,23.1331,广州市,市监测站,颗粒物(PM10),54,57,68,31,39,74,,54,54,40,69,5,6,0.7,0.8
2024-03-17T1800,1353A,113.5618,23.312,广州市,九龙镇镇龙,,43,43,59,25,36,39,,52,52,40,46,6,6,0.7,0.8
2024-03-17T1800,1354A,113.2765,23.1544,广州市,麓湖,颗粒物(PM10),51,52,67,30,39,65,,50,50,27,50,4,5,0.7,0.9
2024-03-17T1800,1355A,113.443,23.3035,广州市,帽峰山森林公园,,35,,49,24,31,62,,57,57,24,33,6,6,0.5,0.6
2024-03-17T1800,2846A,113.3221,23.1322,广州市,体育西,,48,48,75,27,40,63,,46,46,35,67,7,9,0.8,1
2024-03-17T1800,3298A,113.5717,23.5491,广州市,从化街口,细颗粒物(PM2.5),59,60,73,42,47,66,,62,62,32,33,6,7,0.8,1
2024-03-17T1800,3299A,113.3472,23.3692,广州市,白云竹料,,45,45,97,25,52,52,,44,44,35,51,6,6,0.6,0.9
2024-03-17T1800,3300A,113.2981,23.237,广州市,白云嘉禾,颗粒物(PM10),51,51,96,29,50,64,,46,46,39,68,7,8,0.7,1
2024-03-17T1800,3301A,113.4256,23.1716,广州市,黄埔科学城,,47,47,83,29,58,60,,47,47,31,58,4,6,0.7,0.9
2024-03-17T1800,3302A,113.3942,23.0483,广州市,番禺大学城,,44,44,72,21,31,47,,48,48,41,59,4,5,0.9,0.9
2024-03-17T1800,3303A,113.4922,22.8168,广州市,南沙黄阁,,46,46,52,20,28,65,,59,59,28,49,5,6,0.8,0.9
2024-03-17T1800,3304A,113.5342,22.7896,广州市,南沙街,,49,49,53,16,28,58,,61,61,21,47,6,8,0.6,0.8
2024-03-17T1800,3443A,113.2902,23.5544,广州市,花都梯面,颗粒物(PM10),55,59,68,30,39,60,,51,51,41,34,6,6,0.7,0.8
2024-03-17T1800,3445A,113.7858,23.7478,广州市,从化良口,,50,48,34,35,25,61,,60,60,23,15,4,4,0.9,0.8
2024-03-17T1800,3446A,113.8051,23.2614,广州市,增城荔城,细颗粒物(PM2.5),57,60,65,40,45,92,,85,85,24,25,10,6,0.6,0.7
2024-03-17T1800,2505A,109.568,23.1478,贵港市,德智高中,,50,42,63,35,43,10,,22,10,32,29,4,7,0.9,0.8
2024-03-17T1800,2506A,109.6047,23.0666,贵港市,江南子站,,34,34,76,20,45,21,,17,17,26,32,6,9,0.9,1.1
2024-03-17T1800,2507A,109.6014,23.0948,贵港市,贵城子站,,44,44,79,26,53,13,,12,9,31,31,7,10,0.9,0.9
2024-03-17T1800,2508A,109.5669,23.1065,贵港市,荷城子站,,42,41,65,29,46,8,,18,12,30,28,10,12,0.8,0.8
2024-03-17T1800,3405A,109.5886,23.1172,贵港市,新世纪学校,,48,39,65,33,46,8,,13,12,32,30,8,10,1.2,1.2
2024-03-17T1800,1439A,106.6899,26.5998,贵阳市,马鞍山,,20,17,36,12,25,64,,52,52,4,8,8,8,0.6,0.6
2024-03-17T1800,1440A,106.6971,26.5694,贵阳市,市环保站,,25,22,47,17,38,68,,53,53,10,23,6,8,0.5,0.6
2024-03-17T1800,1441A,106.6243,26.6266,贵阳市,鉴湖路,,31,31,46,17,26,65,,53,53,13,17,4,4,0.4,0.5
2024-03-17T1800,1442A,106.7487,26.6343,贵阳市,燕子冲,,21,14,37,14,30,67,,54,54,8,12,6,8,0.6,0.7
2024-03-17T1800,1443A,106.6555,26.4365,贵阳市,碧云窝,,36,36,46,14,26,70,,72,60,14,12,9,7,0.6,0.6
2024-03-17T1800,1444A,106.694,26.5161,贵阳市,中院村,,29,29,46,17,33,63,,55,55,14,22,12,12,0.6,0.7
2024-03-17T1800,1445A,106.7109,26.6027,贵阳市,红边门,,22,22,45,14,34,62,,50,50,10,17,6,8,0.5,0.6
2024-03-17T1800,1446A,106.7164,26.5699,贵阳市,新华路,,25,24,42,17,31,67,,56,56,9,15,6,7,0.6,0.6
2024-03-17T1800,1447A,106.674,26.5424,贵阳市,太慈桥,,22,14,44,9,31,68,,55,55,11,25,8,10,0.5,0.7
2024-03-17T1800,1552A,106.805,26.3003,贵阳市,桐木岭,,,,,,,,,,,,,,,,
2024-03-17T1800,1862A,110.4144,25.3167,桂林市,电子科大尧山校区,,,,42,,24,,,28,,,10,,4,,0.7
2024-03-17T1800,1863A,110.2819,25.2697,桂林市,监测站,细颗粒物(PM2.5),64,71,70,46,48,73,,52,52,21,26,8,13,0.8,1.2
2024-03-17T1800,1864A,110.3089,25.2708,桂林市,龙隐路小学,细颗粒物(PM2.5),59,66,58,42,40,76,,56,56,16,23,6,8,0.7,1
2024-03-17T1800,1865A,110.2869,25.2178,桂林市,八中,细颗粒物(PM2.5),59,59,62,42,46,66,,51,51,27,25,6,9,0.7,1
2024-03-17T1800,3403A,110.1764,25.2381,桂林市,创业大厦,颗粒物(PM10),57,63,60,39,43,82,,53,53,13,20,8,11,0.7,1
2024-03-17T1800,3531A,110.296,25.1253,桂林市,旅游学院,细颗粒物(PM2.5),62,48,43,44,34,72,,54,54,13,21,6,8,0.6,0.9
2024-03-17T1800,2674A,100.2561,34.4714,果洛藏族自治州,玛沁县大武镇,,33,33,102,13,33,92,,94,94,19,23,9,10,0.4,0.5
2024-03-17T1800,1129A,126.5422,45.755,哈尔滨市,岭北,,,15,10,8,9,77,,300,246,,9,5,14,0.5,0.8
2024-03-17T1800,1130A,126.561,45.8167,哈尔滨市,松北商大,,23,12,17,9,10,72,,87,86,18,10,4,8,0.4,0.4
2024-03-17T1800,1131A,126.979,45.5419,哈尔滨市,阿城会宁,,28,,24,19,14,72,,84,84,21,18,12,22,0.4,0.5
2024-03-17T1800,1132A,126.599,45.7222,哈尔滨市,南岗学府路,,24,23,23,7,7,76,,85,85,15,12,6,9,0.3,0.3
2024-03-17T1800,1133A,126.689,45.7733,哈尔滨市,太平宏伟公园,,26,18,16,16,11,82,,88,88,12,10,7,9,0.4,0.4
2024-03-17T1800,1134A,126.635,45.7667,哈尔滨市,道外承德广场,,23,16,20,16,9,72,,83,83,24,14,7,10,0.4,0.4
2024-03-17T1800,1135A,126.685,45.7319,哈尔滨市,香坊红旗大街,,32,23,17,22,10,77,,85,85,14,13,3,5,0.5,0.4
2024-03-17T1800,1136A,126.6411,45.7258,哈尔滨市,动力和平路,,25,,17,16,13,80,,90,90,16,11,6,7,0.4,0.4
2024-03-17T1800,1137A,126.593,45.7478,哈尔滨市,道里建国路,,,,17,16,18,68,,79,79,23,15,,3,0.2,0.2
2024-03-17T1800,1138A,126.615,45.61,哈尔滨市,平房东轻厂,,19,18,23,12,18,60,,80,79,24,17,5,6,0.3,0.3
2024-03-17T1800,1139A,126.595,45.9855,哈尔滨市,呼兰师专,,25,24,19,17,14,79,,86,86,12,9,9,10,0.5,0.5
2024-03-17T1800,1140A,126.6206,45.6842,哈尔滨市,省农科院,,40,36,17,28,16,75,,91,90,16,9,12,9,0.5,0.4
2024-03-17T1800,2688A,93.5128,42.8172,哈密市,地区监测站,颗粒物(PM10),94,137,44,17,16,92,,84,84,6,12,3,6,0.2,0.3
2024-03-17T1800,2689A,93.4961,42.8328,哈密市,哈密师范学校,颗粒物(PM10),76,101,43,6,14,90,,81,81,6,14,4,7,0.1,0.3
2024-03-17T1800,2671A,100.9048,36.9639,海北藏族自治州,海晏县西海镇,颗粒物(PM10),83,115,131,38,35,93,,91,91,13,11,17,16,0.5,0.5
2024-03-17T1800,3867A,102.0738,36.5056,海东市,平安区公安北苑,颗粒物(PM10),91,132,108,41,34,108,,98,98,11,14,10,10,0.2,0.2
2024-03-17T1800,1409A,110.576,19.9507,海口市,东寨港,,,,,,,,,,,,,,,,
2024-03-17T1800,1410A,110.3232,20.0574,海口市,海南大学,,27,27,27,17,17,62,,66,66,4,4,7,7,0.3,0.3
2024-03-17T1800,1411A,110.283,20.0053,海口市,秀英海南医院,,27,27,27,18,17,60,,62,62,5,10,9,8,0.3,0.4
2024-03-17T1800,1412A,110.338,19.9969,海口市,海南师范大学,,26,26,25,18,19,62,,65,65,3,3,7,8,0.4,0.4
2024-03-17T1800,1413A,110.33,20.0356,海口市,龙华路环保局宿舍,,32,32,29,18,18,57,,59,59,6,6,8,8,0.4,0.3
2024-03-17T1800,3539A,110.5111,19.9736,海口市,桂林洋子站,,31,31,26,17,17,54,,58,58,5,4,7,7,0.3,0.3
2024-03-17T1800,2673A,100.6188,36.2866,海南藏族自治州,共和县恰卜恰镇,细颗粒物(PM2.5),80,88,142,59,71,102,,98,98,10,12,10,12,0.6,0.4
2024-03-17T1800,2676A,97.3731,37.3753,海西蒙古族藏族自治州,德令哈市,颗粒物(PM10),90,129,146,32,33,108,,102,102,9,13,10,11,0.5,0.6
2024-03-17T1800,1048A,114.5302,36.6116,邯郸市,东污水处理厂,,44,44,125,12,36,93,,85,85,7,17,2,3,0.2,0.3
2024-03-17T1800,1049A,114.4918,36.5713,邯郸市,矿院,,33,33,98,8,30,91,,81,81,11,13,2,3,0.4,0.5
2024-03-17T1800,1050A,114.484,36.6133,邯郸市,丛台公园,,47,47,100,9,29,92,,87,87,5,13,3,4,0.1,0.2
2024-03-17T1800,3458A,114.7895,36.5593,邯郸市,香泉濮院小区,,49,49,130,10,32,94,,94,94,3,7,3,4,0.1,0.2
2024-03-17T1800,3579A,114.50634,36.77178,邯郸市,永年区实验高中,,38,38,130,7,38,99,,96,96,9,24,2,4,0.3,0.4
2024-03-17T1800,3580A,114.20016,36.44293,邯郸市,峰峰矿区临水派出所,,30,30,107,5,26,96,,94,94,6,8,4,6,0.2,0.6
2024-03-17T1800,2634A,106.9893,33.1842,汉中市,汉川机床厂子校,颗粒物(PM10),57,64,94,38,38,60,,61,56,11,16,3,6,0.6,0.6
2024-03-17T1800,2635A,107.0154,33.0706,汉中市,市监测站,颗粒物(PM10),63,75,113,41,46,65,,61,61,18,19,7,7,0.8,0.7
2024-03-17T1800,2636A,107.0089,33.1138,汉中市,鑫源开发区,颗粒物(PM10),63,75,121,35,45,69,,66,62,17,21,7,13,0.6,0.7
2024-03-17T1800,2637A,107.007,33.0323,汉中市,南郑大河坎水厂,颗粒物(PM10),63,76,115,43,42,58,,61,59,19,16,7,7,0.7,0.6
2024-03-17T1800,1223A,120.2072,30.2111,杭州市,滨江,颗粒物(PM10),55,60,96,31,45,71,,72,72,30,70,4,5,0.6,0.8
2024-03-17T1800,1224A,120.0633,30.2747,杭州市,西溪,颗粒物(PM10),51,52,66,31,42,60,,65,65,35,39,7,7,0.9,0.9
2024-03-17T1800,1226A,120.3461,30.3153,杭州市,下沙,颗粒物(PM10),66,81,107,25,44,62,,72,72,30,65,5,6,0.7,0.8
2024-03-17T1800,1227A,120.1269,30.2456,杭州市,卧龙桥,颗粒物(PM10),55,59,60,36,40,62,,67,67,32,45,5,5,0.8,0.8
2024-03-17T1800,1228A,120.1903,30.2692,杭州市,浙江农大,颗粒物(PM10),53,56,107,29,55,59,,64,64,39,72,6,6,0.7,0.8
2024-03-17T1800,1230A,120.1197,30.3119,杭州市,和睦小学,颗粒物(PM10),61,71,123,29,53,55,,59,59,28,66,6,7,0.8,0.9
2024-03-17T1800,1231A,120.3019,30.4183,杭州市,临平镇,颗粒物(PM10),63,75,107,44,91,62,,73,73,28,46,5,6,0.5,0.6
2024-03-17T1800,1232A,120.2697,30.1819,杭州市,城厢镇,颗粒物(PM10),53,55,60,28,39,65,,75,75,26,38,7,8,0.8,0.9
2024-03-17T1800,1233A,120.0883,30.1808,杭州市,云栖,颗粒物(PM10),61,71,64,38,39,68,,66,66,29,37,8,8,0.8,0.8
2024-03-17T1800,3557A,119.9464,30.0494,杭州市,镇二中,颗粒物(PM10),51,52,40,26,24,76,,72,72,26,37,7,7,0.9,1
2024-03-17T1800,3558A,119.7183,30.2367,杭州市,市府大楼,细颗粒物(PM2.5),62,59,59,44,39,76,,92,92,33,38,6,6,0.7,0.8
2024-03-17T1800,3656A,120.1556,30.2864,杭州市,消防大队,细颗粒物(PM2.5),57,59,92,40,59,60,,66,66,42,83,9,10,1.0,1.1
2024-03-17T1800,1270A,117.1959,31.7848,合肥市,明珠广场,颗粒物(PM10),172,293,147,39,73,56,,95,61,26,40,1,2,0.6,0.8
2024-03-17T1800,1271A,117.3072,31.8764,合肥市,三里街,颗粒物(PM10),168,285,154,39,73,45,,53,46,25,39,5,6,0.6,0.8
2024-03-17T1800,1272A,117.2588,31.8707,合肥市,琥珀山庄,颗粒物(PM10),169,288,150,29,60,63,,73,65,25,37,4,5,0.3,0.6
2024-03-17T1800,1273A,117.1604,31.9052,合肥市,董铺水库,颗粒物(PM10),180,309,165,31,65,70,,83,69,14,27,3,2,0.3,0.5
2024-03-17T1800,1274A,117.25,31.8571,合肥市,长江中路,颗粒物(PM10),172,293,154,35,79,62,,90,63,18,28,7,9,0.9,1
2024-03-17T1800,1275A,117.266,31.9436,合肥市,庐阳区,颗粒物(PM10),184,317,170,29,74,58,,85,61,25,37,4,4,0.5,0.7
2024-03-17T1800,1276A,117.336,31.8586,合肥市,瑶海区,颗粒物(PM10),173,295,158,32,78,55,,81,59,22,33,5,7,0.6,0.9
2024-03-17T1800,1277A,117.3027,31.7964,合肥市,包河区,颗粒物(PM10),181,312,168,36,78,39,,50,46,42,80,5,7,0.2,0.6
2024-03-17T1800,1278A,117.2776,31.7385,合肥市,滨湖新区,颗粒物(PM10),187,324,161,36,72,64,,89,59,14,35,6,6,0.4,0.8
2024-03-17T1800,1279A,117.1318,31.8403,合肥市,高新区,颗粒物(PM10),157,263,148,34,83,54,,76,56,24,36,4,5,0.5,0.8
2024-03-17T1800,3464A,117.3803,31.9147,合肥市,高教基地,颗粒物(PM10),182,314,156,23,52,62,,73,64,21,33,3,5,0.3,0.5
2024-03-17T1800,3614A,79.924,37.0877,和田地区,地区环保局,颗粒物(PM10),310,428,741,122,171,98,,83,83,3,16,6,8,0.6,0.8
2024-03-17T1800,3615A,79.9131,37.113,和田地区,市环保局,颗粒物(PM10),375,480,755,86,145,104,,90,90,1,14,4,6,0.5,0.9
2024-03-17T1800,2516A,108.2011,24.715,河池市,东仁乐园,颗粒物(PM10),54,58,61,34,33,11,,10,10,8,11,5,5,0.5,0.7
2024-03-17T1800,2517A,108.0497,24.6947,河池市,市环保站,颗粒物(PM10),53,55,57,36,38,40,,30,30,19,19,6,8,0.6,1
2024-03-17T1800,2518A,108.0983,24.6989,河池市,市疾控中心,,46,44,58,32,39,52,,37,37,12,23,8,8,0.6,1.1
2024-03-17T1800,1696A,114.6778,23.7569,河源市,源西,,42,42,40,26,28,71,,66,66,6,23,4,4,0.7,0.9
2024-03-17T1800,1697A,114.6944,23.7586,河源市,东埔,,46,43,65,32,41,72,,67,67,11,23,6,6,0.8,1.1
2024-03-17T1800,1698A,114.6892,23.7233,河源市,老城,,,,43,60,37,,,2,,13,21,5,6,0.5,0.8
2024-03-17T1800,1718A,115.4208,35.2464,菏泽市,气象局,颗粒物(PM10),65,79,179,14,42,101,,94,94,16,21,3,6,0.5,0.5
2024-03-17T1800,1719A,115.4747,35.2375,菏泽市,市政协,颗粒物(PM10),64,78,177,19,43,97,,91,91,17,21,3,6,0.3,0.4
2024-03-17T1800,3374A,115.5564,35.0891,菏泽市,定陶老年大学,颗粒物(PM10),79,107,178,19,51,94,,87,87,16,24,5,6,0.2,0.4
2024-03-17T1800,3647A,115.4702,35.2706,菏泽市,菏泽医专,颗粒物(PM10),64,77,182,16,43,107,,101,101,19,23,2,7,0.2,0.4
2024-03-17T1800,2514A,111.5264,24.4172,贺州市,环保小区,细颗粒物(PM2.5),62,72,49,44,27,41,,38,38,25,22,9,9,0.9,0.9
2024-03-17T1800,2515A,111.5608,24.4078,贺州市,政协大楼,细颗粒物(PM2.5),69,79,47,50,27,30,,33,33,32,25,8,8,0.7,0.7
2024-03-17T1800,3534A,111.4744,24.4553,贺州市,西湾,颗粒物(PM10),53,55,41,35,28,32,,40,40,28,23,6,7,0.7,0.7
2024-03-17T1800,2385A,114.17,35.9019,鹤壁市,市监测站,颗粒物(PM10),54,58,136,22,50,92,,90,90,10,16,7,9,0.3,0.4
2024-03-17T1800,2386A,114.2956,35.7511,鹤壁市,市交警支队,,50,50,127,6,34,92,,89,89,13,20,2,6,0.2,0.3
2024-03-17T1800,2387A,114.2878,35.7306,鹤壁市,迎宾馆,,38,38,125,12,31,91,,88,88,16,19,5,9,0.6,0.5
2024-03-17T1800,3474A,114.2617,35.6822,鹤壁市,大新区,颗粒物(PM10),56,61,153,14,33,93,,90,90,15,21,6,9,0.3,0.5
2024-03-17T1800,3596A,114.1572,35.9603,鹤壁市,南山宾馆,颗粒物(PM10),53,55,160,25,48,92,,90,90,12,18,3,6,0.2,0.4
2024-03-17T1800,2244A,130.2537,47.3416,鹤岗市,哈啤分公司,,30,24,19,21,14,85,,84,84,4,4,13,13,0.2,0.7
2024-03-17T1800,2245A,130.2684,47.3086,鹤岗市,斯达机电,,27,24,20,17,13,84,,84,84,6,5,10,10,0.2,0.2
2024-03-17T1800,2246A,130.3114,47.3388,鹤岗市,东山纸板厂,,49,49,42,24,12,85,,86,86,3,3,13,13,0.2,0.3
2024-03-17T1800,2247A,130.1097,47.3382,鹤岗市,五号水库,,30,19,19,11,12,93,,92,92,3,4,9,9,0.9,0.8
2024-03-17T1800,2263A,127.4833,50.2524,黑河市,交通局,,25,20,16,17,16,80,,83,83,6,4,6,6,0.3,0.3
2024-03-17T1800,2264A,127.5144,50.2341,黑河市,环保局,,25,24,18,17,17,76,,83,82,15,9,9,6,0.3,0.3
2024-03-17T1800,2265A,127.5291,50.2472,黑河市,大黑河岛,,,,,,,,,,,,,,,,
2024-03-17T1800,1074A,115.6838,37.7541,衡水市,电机北厂,,39,39,107,6,27,94,,92,92,6,12,3,3,0.2,0.3
2024-03-17T1800,1075A,115.6303,37.7316,衡水市,市监测站,,46,46,99,11,23,90,,89,89,12,15,7,7,0.2,0.3
2024-03-17T1800,3188A,115.6683,37.7217,衡水市,市城管局,,37,37,111,6,29,90,,88,88,12,16,3,3,0.3,0.3
2024-03-17T1800,3459A,115.5989,37.5491,衡水市,地表水厂,,40,40,104,10,25,96,,94,94,5,7,2,2,0.2,0.3
2024-03-17T1800,2456A,112.5003,26.9167,衡阳市,原169医院,,19,,37,13,21,54,,50,50,18,17,8,9,0.7,0.8
2024-03-17T1800,2457A,112.6194,26.9258,衡阳市,衡阳化工总厂,,20,20,47,12,36,50,,36,36,16,18,5,8,0.7,0.9
2024-03-17T1800,2458A,112.6211,26.8956,衡阳市,珠晖区环保局,,24,24,49,16,34,46,,34,34,14,16,5,8,0.9,1
2024-03-17T1800,2459A,112.6197,26.8733,衡阳市,市委党校,,25,25,47,9,30,51,,37,37,20,20,3,5,0.8,1
2024-03-17T1800,2460A,112.6006,26.8919,衡阳市,市监测站,,35,35,47,23,36,53,,38,38,13,17,6,8,0.8,1
2024-03-17T1800,2461A,112.5664,26.9056,衡阳市,真空机电公司,,47,47,45,19,28,40,,34,34,20,21,6,7,1.0,1
2024-03-17T1800,3399A,112.6703,26.882,衡阳市,师范学院,,22,,48,15,37,56,,40,40,15,19,5,7,0.8,1
2024-03-17T1800,2608A,103.3772,23.3993,红河哈尼族彝族自治州,污水处理厂,细颗粒物(PM2.5),90,111,102,67,76,150,,153,153,10,12,7,8,0.9,0.9
2024-03-17T1800,2609A,103.3861,23.35,红河哈尼族彝族自治州,监测站,细颗粒物(PM2.5),107,101,95,80,73,148,,153,153,12,11,15,10,1.1,1
2024-03-17T1800,3038A,103.3758,23.368,红河哈尼族彝族自治州,州图书馆,细颗粒物(PM2.5),94,98,96,70,71,137,,145,145,11,10,6,6,1.0,0.9
2024-03-17T1800,1090A,111.6507,40.7517,呼和浩特市,呼市一监,颗粒物(PM10),67,83,32,25,10,96,,96,96,17,16,13,10,0.5,0.4
2024-03-17T1800,1091A,111.6572,40.8033,呼和浩特市,小召,颗粒物(PM10),65,80,37,26,11,97,,92,92,26,23,11,8,0.3,0.3
2024-03-17T1800,1094A,111.7516,40.8369,呼和浩特市,如意水处理厂,颗粒物(PM10),56,62,38,22,9,89,,84,84,19,24,12,10,0.4,0.3
2024-03-17T1800,1095A,111.7276,40.8062,呼和浩特市,二十九中,颗粒物(PM10),52,54,31,20,10,93,,86,86,18,22,13,10,0.5,0.4
2024-03-17T1800,1096A,111.5512,40.7866,呼和浩特市,工大金川校区,颗粒物(PM10),59,67,35,24,10,88,,82,82,22,23,9,6,0.5,0.4
2024-03-17T1800,1097A,111.717,40.7612,呼和浩特市,化肥厂生活区,颗粒物(PM10),60,69,41,24,11,88,,88,88,22,19,13,9,0.4,0.4
2024-03-17T1800,3698A,111.5968,40.8178,呼和浩特市,红旗小学,颗粒物(PM10),64,78,35,23,10,88,,84,84,25,23,10,7,0.4,0.3
2024-03-17T1800,3699A,111.6518,40.8389,呼和浩特市,海东办,颗粒物(PM10),63,75,36,18,8,95,,87,87,23,31,9,8,0.3,0.3
2024-03-17T1800,2192A,119.7594,49.2261,呼伦贝尔市,区环保局,,30,25,22,21,19,94,,98,98,10,12,6,5,0.4,0.4
2024-03-17T1800,3061A,119.7512,49.1577,呼伦贝尔市,国华电力东,,34,34,25,20,18,101,,100,100,6,17,4,4,0.3,0.3
2024-03-17T1800,1250A,120.0751,30.8669,湖州市,城西水厂,颗粒物(PM10),72,93,92,19,61,81,,74,74,21,56,4,4,0.5,0.8
2024-03-17T1800,2873A,120.0875,30.8955,湖州市,仁皇山新区,颗粒物(PM10),74,98,87,23,64,74,,69,69,20,41,6,6,0.7,1
2024-03-17T1800,2907A,120.1844,30.8596,湖州市,吴兴区站,颗粒物(PM10),61,72,69,18,60,66,,69,69,26,53,6,7,0.7,1
2024-03-17T1800,3562A,120.4148,30.8538,湖州市,南浔区站,颗粒物(PM10),65,79,76,20,71,69,,79,79,26,43,7,8,0.5,1
2024-03-17T1800,1607A,120.9092,40.7136,葫芦岛市,龙港区,,35,35,167,19,25,95,,93,93,9,14,5,6,0.4,0.4
2024-03-17T1800,1608A,120.8392,40.7514,葫芦岛市,化工街,,39,39,239,14,24,92,,91,91,14,20,3,6,0.5,0.5
2024-03-17T1800,1609A,120.8341,40.7073,葫芦岛市,新区,,34,34,172,20,20,98,,95,95,12,16,8,7,0.4,0.4
2024-03-17T1800,1610A,120.8695,40.7677,葫芦岛市,东城区,,36,36,177,23,25,92,,95,95,21,17,6,6,0.8,0.8
2024-03-17T1800,2482A,109.5981,27.5721,怀化市,林科所,,21,,16,4,9,67,,52,52,4,4,4,4,0.8,0.9
2024-03-17T1800,2483A,109.9453,27.5444,怀化市,河西地税局,,18,10,22,3,16,57,,35,35,11,12,5,4,0.8,0.8
2024-03-17T1800,2484A,109.9781,27.5342,怀化市,市四医院,,22,16,23,15,18,47,,40,40,17,12,5,5,1.1,1
2024-03-17T1800,2485A,109.9972,27.5578,怀化市,监测楼,,19,19,26,10,16,54,,42,42,17,13,6,7,0.8,0.8
2024-03-17T1800,2486A,110.0394,27.583,怀化市,市委党校,,17,12,22,9,17,52,,41,41,15,12,6,10,0.8,0.8
2024-03-17T1800,1210A,119.036,33.5981,淮安市,钵池山,,,,175,25,61,89,,76,76,14,31,8,9,,0.7
2024-03-17T1800,1211A,119.007,33.575,淮安市,北京南路,颗粒物(PM10),78,105,184,29,59,92,,81,81,14,32,6,7,0.6,0.7
2024-03-17T1800,1212A,118.989,33.6067,淮安市,市监测站,颗粒物(PM10),81,112,188,24,51,91,,82,82,20,33,7,7,0.5,0.7
2024-03-17T1800,1213A,119.135,33.5039,淮安市,楚州区监测站,颗粒物(PM10),81,112,201,29,58,91,,81,81,16,33,6,6,0.6,0.7
2024-03-17T1800,1214A,119.0186,33.6297,淮安市,淮阴区监测站,颗粒物(PM10),89,127,200,32,60,87,,79,79,22,38,5,5,0.4,0.4
2024-03-17T1800,3426A,118.8755,33.2894,淮安市,新华书店,颗粒物(PM10),83,115,205,19,36,89,,78,78,22,39,5,9,0.4,0.6
2024-03-17T1800,2282A,116.8004,33.975,淮北市,监测站,颗粒物(PM10),108,165,167,13,71,93,,93,84,13,23,5,7,0.5,0.8
2024-03-17T1800,2283A,116.8091,33.9007,淮北市,烈山区政府,颗粒物(PM10),107,164,242,21,82,91,,82,82,14,27,6,7,0.3,0.6
2024-03-17T1800,3330A,116.8873,33.9836,淮北市,杜集区检察院,颗粒物(PM10),89,128,217,22,87,94,,85,85,13,30,7,9,0.4,0.9
2024-03-17T1800,4017A,116.7923,33.9535,淮北市,市博物馆,颗粒物(PM10),92,134,182,10,55,92,,92,82,6,25,5,8,0.1,0.6
2024-03-17T1800,2277A,116.8305,32.7727,淮南市,潘集区政府,颗粒物(PM10),180,309,213,53,91,63,,62,55,15,27,1,3,0.3,0.5
2024-03-17T1800,2278A,117.0067,32.6524,淮南市,师范学院,颗粒物(PM10),198,346,213,51,96,54,,72,52,20,37,7,10,0.3,0.6
2024-03-17T1800,2279A,116.8569,32.5951,淮南市,谢家集区政府,颗粒物(PM10),195,340,197,41,75,60,,80,54,23,35,5,11,0.4,0.7
2024-03-17T1800,2280A,116.8281,32.633,淮南市,八公山区政府,颗粒物(PM10),197,343,196,33,82,59,,54,54,22,26,3,6,0.3,0.6
2024-03-17T1800,2281A,116.6325,32.6201,淮南市,焦岗湖风景区管理处,颗粒物(PM10),131,211,146,30,52,42,,59,54,32,48,3,3,0.0,0.3
2024-03-17T1800,2894A,117.0566,32.6531,淮南市,经济技术开发区消防队,颗粒物(PM10),191,332,205,39,83,52,,80,52,31,43,4,7,0.4,0.6
2024-03-17T1800,3329A,117.0108,32.5893,淮南市,山南新区,颗粒物(PM10),300,420,201,39,74,63,,113,61,30,36,4,7,0.7,0.7
2024-03-17T1800,2446A,114.9028,30.4742,黄冈市,职工中心,颗粒物(PM10),53,56,87,31,59,79,,92,91,10,18,8,10,0.5,0.8
2024-03-17T1800,2929A,114.8858,30.4519,黄冈市,红卫路,,47,47,72,27,56,82,,96,96,11,23,6,8,0.4,0.8
2024-03-17T1800,3398A,114.9136,30.4445,黄冈市,市林业局,,50,50,75,25,56,85,,95,95,6,19,7,7,0.4,0.6
2024-03-17T1800,2672A,102.0199,35.5102,黄南藏族自治州,同仁县隆务镇,颗粒物(PM10),78,106,152,53,61,91,,95,95,12,5,11,10,0.8,0.8
2024-03-17T1800,2295A,118.2903,29.6963,黄山市,延安路89号,细颗粒物(PM2.5),64,76,76,46,41,101,,82,82,12,15,5,6,0.7,0.8
2024-03-17T1800,2296A,118.327,29.7178,黄山市,黄山东路89号,细颗粒物(PM2.5),57,61,66,40,44,94,,76,76,15,22,5,5,0.8,0.8
2024-03-17T1800,2297A,118.1371,30.2756,黄山市,黄山区政府5号楼,,,,56,,36,,,49,,,19,,4,,0.9
2024-03-17T1800,2423A,115.0601,30.2313,黄石市,沈家营,,48,48,100,20,42,85,,82,82,21,35,5,7,0.4,0.7
2024-03-17T1800,2424A,115.0817,30.2006,黄石市,陈家湾,细颗粒物(PM2.5),53,51,89,37,58,77,,72,72,31,40,5,8,0.6,0.9
2024-03-17T1800,2426A,114.8988,30.2019,黄石市,铁山,,45,45,71,26,54,91,,96,96,12,19,4,6,0.6,0.8
2024-03-17T1800,2427A,115.0307,30.2092,黄石市,团城山,,41,41,84,18,40,88,,84,84,17,33,4,9,0.5,0.9
2024-03-17T1800,3149A,115.0235,30.1578,黄石市,笔架山北路,"颗粒物(PM10),细颗粒物(PM2.5)",57,64,89,40,43,97,,90,90,20,20,4,6,0.7,0.8
2024-03-17T1800,1392A,114.4183,23.0528,惠州市,河南岸金山湖子站,,45,45,61,29,36,75,,74,74,23,21,4,5,0.7,0.7
2024-03-17T1800,1393A,114.4053,23.0822,惠州市,下埔横江三路子站,,42,42,66,26,38,93,,89,89,15,20,5,6,0.6,0.7
2024-03-17T1800,1394A,114.4103,23.1142,惠州市,江北云山西路子站,,,40,60,16,25,92,,88,88,15,18,9,9,,0.5
2024-03-17T1800,1395A,114.4645,22.7833,惠州市,惠阳区承修路船湖子站,,24,24,51,13,25,59,,67,67,25,18,7,7,0.6,0.6
2024-03-17T1800,1396A,114.5317,22.7422,惠州市,大亚湾管委会子站,,27,27,66,13,29,64,,63,63,27,32,6,7,0.7,0.7
2024-03-17T1800,3314A,114.4338,22.8134,惠州市,惠阳秋长,,44,44,56,13,23,66,,77,77,29,28,7,7,0.6,0.6
2024-03-17T1800,3452A,114.6517,22.775,惠州市,大亚湾霞涌,,25,21,43,12,26,77,,74,74,8,17,7,7,0.5,0.6
2024-03-17T1800,2240A,130.9762,45.3001,鸡西市,环保局,,20,17,18,10,9,62,,59,59,8,8,5,5,0.2,0.1
2024-03-17T1800,2243A,130.9429,45.3039,鸡西市,第一中学,,27,10,19,5,8,86,,86,86,6,9,7,8,0.1,0.1
2024-03-17T1800,3707A,131.0207,45.3073,鸡西市,欧美日汽修厂,,23,21,20,13,10,73,,72,72,8,6,3,3,0.4,0.2
2024-03-17T1800,3709A,130.9967,45.3106,鸡西市,市政设施管理处,,26,11,17,5,9,82,,93,92,10,9,4,4,0.2,0.2
2024-03-17T1800,2367A,114.9754,27.0803,吉安市,红声器材厂,,48,48,50,27,29,35,,34,34,20,20,7,11,0.7,0.6
2024-03-17T1800,2368A,114.9658,27.0999,吉安市,市森林工业局,,43,40,40,30,33,34,,32,32,19,21,2,14,0.8,0.7
2024-03-17T1800,2369A,114.99,27.1312,吉安市,市环境监测站,,40,40,42,20,27,34,,34,34,20,21,7,8,0.8,0.8
2024-03-17T1800,2370A,115.0093,27.0968,吉安市,青原区法院,颗粒物(PM10),52,53,44,29,31,34,,36,36,22,22,7,4,1.0,1
2024-03-17T1800,1772A,126.54,43.8622,吉林市,哈达湾,,27,16,37,7,20,86,,90,90,9,9,3,3,0.5,0.5
2024-03-17T1800,1773A,126.5844,43.8358,吉林市,东局子,,26,21,43,9,22,83,,88,88,13,11,4,6,0.4,0.5
2024-03-17T1800,1774A,126.5052,43.8245,吉林市,电力学院,,29,26,39,17,22,91,,96,96,11,8,7,7,0.5,0.5
2024-03-17T1800,1775A,126.6133,43.8972,吉林市,江北,,28,22,44,7,22,89,,90,90,11,13,9,10,0.3,0.5
2024-03-17T1800,1776A,126.555,43.8306,吉林市,江南公园,,28,18,43,12,25,87,,91,91,12,9,4,6,0.8,0.6
2024-03-17T1800,1778A,126.7061,43.7133,吉林市,丰满,,,,,,,,,,,,,,,,
2024-03-17T1800,2868A,126.4739,43.953,吉林市,九站,,29,21,41,12,22,90,,98,98,13,11,8,9,0.5,0.5
2024-03-17T1800,1299A,116.9862,36.6114,济南市,科干所,颗粒物(PM10),74,97,162,20,33,102,,97,97,19,22,7,7,0.5,0.6
2024-03-17T1800,1300A,116.9376,36.665,济南市,农科所,颗粒物(PM10),83,115,168,20,34,98,,95,95,26,25,7,6,0.6,0.7
2024-03-17T1800,1301A,117.1265,36.6734,济南市,开发区,颗粒物(PM10),72,93,172,12,35,101,,99,99,20,21,9,8,0.4,0.5
2024-03-17T1800,1303A,117.0624,36.6868,济南市,省种子仓库,颗粒物(PM10),107,163,183,27,43,88,,92,92,29,23,6,6,0.3,0.4
2024-03-17T1800,1304A,116.9489,36.6447,济南市,机床二厂,颗粒物(PM10),83,115,179,20,38,107,,104,104,18,17,6,6,0.5,0.6
2024-03-17T1800,1305A,117.0495,36.663,济南市,市监测站,颗粒物(PM10),72,93,163,20,33,100,,100,100,30,26,10,10,0.5,0.6
2024-03-17T1800,1306A,116.7675,36.5484,济南市,长清党校,颗粒物(PM10),89,127,174,24,34,110,,102,102,22,27,6,6,0.5,0.6
2024-03-17T1800,1616A,117.6795,36.229,济南市,技术学院,颗粒物(PM10),80,110,198,29,43,100,,97,97,24,27,8,9,0.6,0.7
2024-03-17T1800,1961A,117.532,36.6868,济南市,东山小学,颗粒物(PM10),77,103,176,17,35,95,,100,100,25,19,10,8,0.4,0.5
2024-03-17T1800,3059A,117.7161,36.2049,济南市,泰兴公司,颗粒物(PM10),80,110,169,24,44,100,,96,96,18,18,9,10,0.5,0.7
2024-03-17T1800,3064A,117.6867,36.2171,济南市,莱芜战役纪念馆,颗粒物(PM10),78,105,196,22,45,97,,93,93,17,19,7,9,0.5,0.7
2024-03-17T1800,3494A,117.1673,36.9782,济南市,济阳区政府,颗粒物(PM10),72,93,149,32,39,103,,98,98,16,22,10,7,0.5,0.5
2024-03-17T1800,3495A,117.1171,36.63,济南市,锦屏中学,颗粒物(PM10),70,90,166,17,34,95,,92,92,16,15,8,8,0.3,0.4
2024-03-17T1800,3682A,116.9814,36.6819,济南市,济南四建,颗粒物(PM10),81,112,157,20,35,89,,87,87,32,26,9,8,0.5,0.6
2024-03-17T1800,1653A,116.6251,35.4302,济宁市,火炬城,颗粒物(PM10),56,61,133,17,44,103,,90,90,14,16,5,5,0.5,0.7
2024-03-17T1800,1655A,116.5491,35.4042,济宁市,电化厂,颗粒物(PM10),64,78,177,7,45,99,,88,88,14,15,6,6,0.5,0.7
2024-03-17T1800,3500A,116.5814,35.3707,济宁市,北湖一中,颗粒物(PM10),57,64,151,17,58,103,,80,,12,16,7,9,0.8,0.5
2024-03-17T1800,3501A,116.8249,35.5593,济宁市,服务中心,颗粒物(PM10),55,60,156,8,42,102,,98,98,15,17,4,5,0.7,0.8
2024-03-17T1800,3678A,116.5907,35.4054,济宁市,市第七中学,颗粒物(PM10),63,75,152,12,46,105,,92,92,13,14,4,5,0.6,0.7
2024-03-17T1800,2255A,130.2751,46.8028,佳木斯市,佳纺,,24,24,18,13,8,76,,80,80,12,7,5,5,0.4,0.3
2024-03-17T1800,2256A,130.3995,46.8307,佳木斯市,发电厂,,28,15,16,5,7,87,,88,88,3,4,3,4,0.4,0.4
2024-03-17T1800,2257A,130.3258,46.7975,佳木斯市,环保局,,24,21,17,9,8,76,,86,85,15,10,3,4,0.6,0.5
2024-03-17T1800,2258A,130.3648,46.8032,佳木斯市,十一中,,24,24,14,9,10,75,,83,82,16,7,5,6,0.4,0.4
2024-03-17T1800,2259A,130.3794,46.7588,佳木斯市,四丰,,27,15,15,0,8,84,,93,92,12,6,1,1,0.5,0.5
2024-03-17T1800,1252A,120.7436,30.778,嘉兴市,清河小学,颗粒物(PM10),62,74,59,13,31,67,,80,80,19,38,6,7,0.8,0.9
2024-03-17T1800,1253A,120.726,30.7478,嘉兴市,嘉兴学院,颗粒物(PM10),62,73,64,15,49,70,,82,82,17,36,6,6,0.4,0.6
2024-03-17T1800,2872A,120.7846,30.7525,嘉兴市,南湖区残联,颗粒物(PM10),65,80,65,15,54,70,,77,77,19,40,6,7,0.4,0.7
2024-03-17T1800,3407A,120.6916,30.7739,嘉兴市,秀洲住建,颗粒物(PM10),71,92,56,20,34,64,,68,68,23,50,4,6,0.4,0.6
2024-03-17T1800,1945A,98.2908,39.7711,嘉峪关市,气象局,颗粒物(PM10),181,312,142,39,30,103,,85,85,3,20,3,26,0.1,0.6
2024-03-17T1800,2884A,98.2672,39.7978,嘉峪关市,酒钢宾馆,颗粒物(PM10),196,342,153,48,34,102,,83,83,4,21,6,32,0.3,0.7
2024-03-17T1800,3248A,98.2643,39.7724,嘉峪关市,雄关区,颗粒物(PM10),137,223,120,36,32,101,,81,81,4,24,4,21,0,0.6
2024-03-17T1800,1383A,113.1064,22.6058,江门市,北街,,34,34,56,19,35,67,,66,66,15,33,6,7,0.7,0.8
2024-03-17T1800,1384A,113.0731,22.5835,江门市,西区,,48,48,61,22,31,58,,67,67,28,34,6,7,0.5,0.6
2024-03-17T1800,1385A,113.0219,22.5311,江门市,圭峰西,,38,38,57,14,25,63,,66,66,19,32,7,6,0.7,0.7
2024-03-17T1800,1386A,113.0828,22.5947,江门市,东湖,,29,29,73,16,33,65,,67,67,17,28,6,7,0.5,0.5
2024-03-17T1800,3311A,113.1075,22.5647,江门市,江海富民,细颗粒物(PM2.5),53,40,102,37,52,68,,73,73,22,30,6,7,0.5,0.5
2024-03-17T1800,3449A,113.05,22.4667,江门市,新会银湖,,38,29,52,26,46,82,,74,74,15,32,6,6,0.7,0.6
2024-03-17T1800,1828A,113.227,35.2125,焦作市,市环保局,颗粒物(PM10),59,68,133,17,39,84,,87,81,9,13,3,9,0.4,0.6
2024-03-17T1800,1830A,113.1992,35.2590,焦作市,影视城,,,,,,,,,,,,,,,,
2024-03-17T1800,3169A,113.2725,35.2067,焦作市,太极体育中心,颗粒物(PM10),59,67,158,14,42,85,,88,84,13,18,3,10,0.4,0.6
2024-03-17T1800,3335A,113.3137,35.2641,焦作市,马村街道办,颗粒物(PM10),66,81,156,15,43,85,,87,85,14,19,8,8,0.2,0.4
2024-03-17T1800,3336A,113.2465,35.2373,焦作市,焦作技师学院,颗粒物(PM10),56,61,149,17,39,84,,82,82,14,19,2,6,0.3,0.5
2024-03-17T1800,3477A,113.1656,35.2539,焦作市,中站许衡医院,颗粒物(PM10),73,95,146,17,42,85,,95,85,14,15,6,7,0.3,0.5
2024-03-17T1800,3981A,113.2449,35.1803,焦作市,原李万街道办,颗粒物(PM10),57,64,141,9,35,80,,86,79,9,11,7,11,0.2,0.4
2024-03-17T1800,1708A,116.3701,23.5345,揭阳市,新兴,细颗粒物(PM2.5),63,52,128,45,84,103,,80,80,29,36,10,9,1.3,1.1
2024-03-17T1800,1709A,116.3264,23.5443,揭阳市,西马,颗粒物(PM10),55,59,116,14,74,60,,67,67,21,31,9,9,0.7,1
2024-03-17T1800,1710A,116.3611,23.5626,揭阳市,东兴,,42,31,132,29,104,81,,75,75,14,33,9,9,1.0,1.1
2024-03-17T1800,1711A,116.4151,23.5294,揭阳市,渔湖,颗粒物(PM10),75,99,143,23,40,132,,91,91,25,35,14,9,1.5,1
2024-03-17T1800,3320A,116.403,23.5699,揭阳市,曲溪,,43,43,90,24,54,120,,83,83,19,34,6,6,1.1,1
2024-03-17T1800,1944A,102.1692,38.5167,金昌市,天庆家园,颗粒物(PM10),73,95,77,6,9,85,,84,84,7,12,2,7,0.2,0.3
2024-03-17T1800,3170A,102.1864,38.5253,金昌市,市委党校,颗粒物(PM10),87,123,101,15,22,90,,87,87,1,7,8,16,0.3,0.4
2024-03-17T1800,4022A,102.1647,38.5371,金昌市,金川区人防中心,颗粒物(PM10),75,99,88,8,13,89,,86,86,4,9,10,12,0.2,0.3
2024-03-17T1800,1262A,119.647,29.077,金华市,十五中,细颗粒物(PM2.5),87,89,81,64,66,93,,57,57,32,54,4,4,0.8,1.2
2024-03-17T1800,1263A,119.686,29.1029,金华市,监测站,颗粒物(PM10),73,95,84,47,49,138,,64,64,52,55,2,4,0.8,1.2
2024-03-17T1800,3659A,119.656,29.1131,金华市,气象局,细颗粒物(PM2.5),69,76,83,50,41,97,,57,57,29,51,2,4,0.3,0.9
2024-03-17T1800,1767A,121.1115,41.0879,锦州市,南山,,,56,171,,29,97,,101,101,18,12,8,8,0.6,0.6
2024-03-17T1800,1768A,121.0533,40.8434,锦州市,开发区,颗粒物(PM10),62,74,198,26,30,67,,89,88,41,24,9,14,0.6,0.6
2024-03-17T1800,1769A,121.1836,41.1119,锦州市,百股街道,颗粒物(PM10),52,53,187,29,27,100,,103,103,12,6,7,7,0.2,0.1
2024-03-17T1800,1770A,121.1178,41.1222,锦州市,天安街道,,50,50,180,30,19,90,,94,94,15,9,7,7,0.4,0.4
2024-03-17T1800,1771A,121.1303,41.1386,锦州市,北湖公园,,43,39,131,30,20,91,,92,92,21,14,10,10,0.4,0.4
2024-03-17T1800,2160A,112.85,35.5051,晋城市,自来水公司,颗粒物(PM10),79,107,130,14,45,85,,90,83,19,20,5,5,0.5,0.8
2024-03-17T1800,2161A,112.8318,35.4936,晋城市,白云商贸,颗粒物(PM10),66,81,144,17,40,80,,91,79,22,22,9,7,0.6,0.8
2024-03-17T1800,2162A,112.8508,35.4887,晋城市,市环保局,颗粒物(PM10),72,93,140,14,44,79,,89,79,21,22,5,5,0.7,0.9
2024-03-17T1800,2163A,112.8676,35.4897,晋城市,技术学院,颗粒物(PM10),85,119,140,14,43,80,,90,78,22,25,4,3,0.5,0.7
2024-03-17T1800,2165A,112.8453,35.546,晋城市,白马寺,,,,,,,,,,,,,,,,
2024-03-17T1800,3620A,112.8271,35.4828,晋城市,泽州一中,颗粒物(PM10),79,108,148,14,44,75,,91,77,22,19,9,8,0.6,0.7
2024-03-17T1800,2171A,112.7532,37.6945,晋中市,锦纶小区,颗粒物(PM10),96,141,68,41,16,91,,97,97,26,17,16,10,0.7,0.5
2024-03-17T1800,2173A,112.7249,37.7067,晋中市,南都小区,颗粒物(PM10),87,124,63,34,18,97,,98,98,23,17,16,11,0.6,0.4
2024-03-17T1800,2174A,112.6991,37.6982,晋中市,榆次区政府,颗粒物(PM10),85,119,58,33,24,100,,100,100,23,19,15,9,0.5,0.3
2024-03-17T1800,2865A,112.7195,37.6828,晋中市,榆次三中,颗粒物(PM10),93,136,70,46,19,93,,96,96,23,17,17,11,0.6,0.5
2024-03-17T1800,2439A,112.2014,31.0481,荆门市,竹园小学,颗粒物(PM10),73,95,132,45,96,86,,83,83,19,22,12,9,0.5,0.8
2024-03-17T1800,2440A,112.1969,30.9891,荆门市,掇刀,细颗粒物(PM2.5),70,88,127,51,90,89,,84,84,15,17,13,11,0.4,0.7
2024-03-17T1800,2441A,112.2213,31.0386,荆门市,石化一小,颗粒物(PM10),71,92,135,46,103,91,,83,83,16,21,15,15,0.5,0.7
2024-03-17T1800,3012A,112.1849,31.0362,荆门市,西山林语,颗粒物(PM10),75,99,123,38,90,90,,91,91,17,17,16,14,0.4,0.7
2024-03-17T1800,3547A,112.1632,31.0138,荆门市,龙泉中学南校,细颗粒物(PM2.5),72,91,106,52,59,91,,97,94,12,13,10,9,0.5,0.8
2024-03-17T1800,1844A,112.2494,30.3197,荆州市,市图书馆,细颗粒物(PM2.5),97,90,90,72,59,92,,77,77,16,26,6,7,0.7,0.8
2024-03-17T1800,1845A,112.2008,30.3544,荆州市,市委党校,细颗粒物(PM2.5),83,97,98,61,62,90,,80,80,17,24,5,6,0.8,0.8
2024-03-17T1800,3194A,112.2747,30.3122,荆州市,管委会,细颗粒物(PM2.5),99,89,92,74,59,96,,80,80,11,18,8,9,0.7,0.8
2024-03-17T1800,3548A,112.1655,30.3364,荆州市,学苑路,细颗粒物(PM2.5),112,105,100,84,91,84,,76,76,31,36,7,7,0.8,0.9
2024-03-17T1800,2342A,117.3102,29.3867,景德镇市,王港中学,,35,,38,24,31,67,,41,41,6,6,5,6,0.3,0.2
2024-03-17T1800,2343A,117.2117,29.2933,景德镇市,老干部活动中心,,28,28,51,12,40,70,,43,43,13,18,5,6,0.5,0.5
2024-03-17T1800,2344A,117.1894,29.2789,景德镇市,兽医站,,26,18,51,14,42,81,,50,50,13,21,5,7,0.7,0.8
2024-03-17T1800,2345A,117.1547,29.2617,景德镇市,台达陶瓷,,25,25,52,14,40,79,,47,47,12,23,7,10,0.8,0.8
2024-03-17T1800,2346A,117.2461,29.2956,景德镇市,陶研所,,36,25,45,25,37,61,,34,34,18,19,3,6,0.7,0.6
2024-03-17T1800,1803A,115.9872,29.6815,九江市,十里,颗粒物(PM10),62,74,59,42,42,67,,97,97,21,28,9,9,0.7,0.9
2024-03-17T1800,1804A,115.9584,29.7046,九江市,茅山头,颗粒物(PM10),62,74,58,39,47,64,,91,91,26,35,9,9,0.7,0.8
2024-03-17T1800,1805A,115.9877,29.7295,九江市,西园,细颗粒物(PM2.5),70,71,59,51,47,68,,93,93,22,32,8,9,0.5,0.8
2024-03-17T1800,1806A,116.0172,29.6547,九江市,五七二七厂,细颗粒物(PM2.5),72,83,51,52,48,58,,86,86,22,19,8,8,0.7,0.7
2024-03-17T1800,1808A,115.9114,29.6038,九江市,综合工业园,细颗粒物(PM2.5),83,66,54,61,49,66,,95,95,27,35,10,11,0.6,0.7
2024-03-17T1800,1809A,116.0721,29.7535,九江市,石化总厂,颗粒物(PM10),75,99,71,36,41,63,,89,89,23,31,9,11,0.8,1
2024-03-17T1800,1810A,115.9773,29.5698,九江市,庐山气象台,,24,11,11,6,9,75,,100,100,13,8,18,10,0.4,0.7
2024-03-17T1800,3190A,116.0254,29.6994,九江市,外国语学校,细颗粒物(PM2.5),60,66,54,43,38,63,,86,86,27,33,11,10,0.6,0.7
2024-03-17T1800,2658A,98.5061,39.7443,酒泉市,仓门街子站,颗粒物(PM10),129,207,122,31,33,87,,84,84,9,17,10,8,0.3,0.4
2024-03-17T1800,2659A,98.4989,39.7256,酒泉市,油田生活基地,颗粒物(PM10),120,190,122,30,34,90,,86,86,10,16,14,10,0.4,0.4
2024-03-17T1800,2698A,76.0072,39.4467,喀什地区,巡警大队,颗粒物(PM10),243,380,641,70,116,100,,84,84,6,19,1,2,0.3,0.5
2024-03-17T1800,2699A,75.9755,39.4694,喀什地区,吾办,颗粒物(PM10),250,385,633,104,151,98,,82,82,8,20,3,4,0.3,0.5
2024-03-17T1800,4027A,75.9483,39.4689,喀什地区,老干局,颗粒物(PM10),302,421,690,65,106,104,,88,88,6,16,1,2,0.3,0.5
2024-03-17T1800,1824A,114.3389,34.7781,开封市,肿瘤医院,颗粒物(PM10),64,78,174,21,83,88,,79,79,8,19,2,4,0.3,0.6
2024-03-17T1800,1826A,114.2885,34.7965,开封市,世纪星幼儿园,颗粒物(PM10),62,73,158,20,50,97,,86,86,14,24,1,3,0.2,0.4
2024-03-17T1800,3147A,114.3438,34.8106,开封市,龙亭公园,颗粒物(PM10),60,70,179,10,48,83,,74,74,10,23,3,5,0.3,0.5
2024-03-17T1800,3210A,114.3644,34.7964,开封市,汴京公园,颗粒物(PM10),70,90,173,11,51,89,,82,82,8,20,2,3,0.2,0.4
2024-03-17T1800,3473A,114.2485,34.8306,开封市,技师学院,颗粒物(PM10),62,74,167,11,49,87,,78,78,10,21,5,7,0.2,0.6
2024-03-17T1800,3592A,114.4644,34.7556,开封市,祥符区生态环境局,颗粒物(PM10),74,98,170,12,51,81,,77,77,19,39,8,8,1.5,0.6
2024-03-17T1800,1951A,84.895,45.6094,克拉玛依市,长征新村,,37,37,33,11,14,91,,70,70,9,14,8,8,0.3,0.3
2024-03-17T1800,1952A,84.8988,45.5893,克拉玛依市,南林小区,,42,42,34,25,19,92,,68,68,8,17,8,8,0.5,0.5
2024-03-17T1800,1954A,84.905,44.3396,克拉玛依市,独山子区,颗粒物(PM10),71,92,76,38,21,83,,88,88,8,11,8,6,0.9,0.6
2024-03-17T1800,1955A,85.6979,46.098,克拉玛依市,乌尔禾区商贸楼,,40,40,30,27,14,96,,77,77,9,15,6,5,0.3,0.4
2024-03-17T1800,3612A,85.1045,45.6899,克拉玛依市,白碱滩区新站,,42,39,37,29,19,94,,70,70,8,12,7,6,0.3,0.3
2024-03-17T1800,2697A,76.1454,39.7142,克孜勒苏柯尔克孜自治州,市人民政府,颗粒物(PM10),199,347,606,85,144,100,,80,80,2,8,4,4,0.5,0.5
2024-03-17T1800,3665A,76.1658,39.7157,克孜勒苏柯尔克孜自治州,克州文化中心,颗粒物(PM10),198,346,634,110,142,99,,87,87,3,11,4,4,0.4,0.6
2024-03-17T1800,1450A,102.8204,24.8886,昆明市,呈贡新区,颗粒物(PM10),53,56,59,32,50,125,,133,133,10,15,6,8,0.6,0.7
2024-03-17T1800,1451A,102.6251,24.9608,昆明市,西山森林公园,,47,47,56,26,37,137,,139,139,5,8,9,12,1.1,1.2
2024-03-17T1800,1452A,102.7252,25.0902,昆明市,龙泉镇,,42,42,58,27,40,130,,133,133,10,26,6,7,0.6,0.7
2024-03-17T1800,1453A,102.7266,25.0375,昆明市,东风东路,细颗粒物(PM2.5),54,54,67,38,45,127,,133,133,14,15,7,9,0.4,0.5
2024-03-17T1800,1454A,102.6742,25.0669,昆明市,金鼎山,,47,47,57,23,39,129,,130,130,12,19,4,6,0.7,0.7
2024-03-17T1800,1455A,102.6644,25.0401,昆明市,碧鸡广场,,41,37,60,28,44,129,,130,130,12,21,8,10,0.5,0.6
2024-03-17T1800,3179A,102.7494,25.0119,昆明市,官渡区博物馆,,48,48,67,29,44,125,,130,130,11,18,8,10,0.5,0.7
2024-03-17T1800,3375A,102.8017,24.8336,昆明市,青年创业园,细颗粒物(PM2.5),58,46,65,41,49,134,,141,141,5,12,10,11,0.6,0.6
2024-03-17T1800,3550A,102.7997,24.9786,昆明市,昆明学院,,47,47,67,29,46,117,,123,123,9,12,9,10,0.6,0.7
2024-03-17T1800,3551A,102.5967,24.6736,昆明市,晋宁区生态环境分局,颗粒物(PM10),51,51,73,34,50,142,,143,143,6,10,4,7,0.8,0.8
2024-03-17T1800,3552A,102.6678,24.9856,昆明市,云天化总部,,45,43,61,29,43,141,,145,145,6,16,4,7,0.6,0.7
2024-03-17T1800,1456A,91.1319,29.6514,拉萨市,八廓街,,39,12,22,8,14,122,,116,116,11,19,7,6,0.3,0.4
2024-03-17T1800,1457A,91.1221,29.6747,拉萨市,市环保局,,38,17,22,6,15,121,,116,116,9,16,6,6,0.3,0.6
2024-03-17T1800,1458A,91.0874,29.6475,拉萨市,区监测站,,37,8,17,6,11,118,,116,116,8,13,5,5,0.3,0.4
2024-03-17T1800,1459A,91.1774,29.6541,拉萨市,西藏大学,,38,14,22,6,14,120,,114,114,5,14,3,3,0.1,0.2
2024-03-17T1800,1460A,90.9798,29.6588,拉萨市,区辐射站,,36,11,26,8,15,115,,110,110,5,19,5,5,0.4,0.4
2024-03-17T1800,1461A,91.0834,29.6292,拉萨市,拉萨火车站,,37,21,18,6,12,117,,114,114,6,7,2,3,0.3,0.3
2024-03-17T1800,2520A,109.2203,23.7256,来宾市,来宾技工学校,细颗粒物(PM2.5),60,62,66,43,42,32,,36,36,13,21,7,10,0.8,0.9
2024-03-17T1800,3535A,109.1781,23.7297,来宾市,兴宾区政府,颗粒物(PM10),56,61,59,39,41,31,,47,47,19,21,5,8,0.8,0.8
2024-03-17T1800,4002A,109.2416,23.7461,来宾市,中南小学,细颗粒物(PM2.5),62,54,67,44,41,30,,40,40,16,25,10,10,0.8,1.1
2024-03-17T1800,1476A,103.631,36.1031,兰州市,兰炼宾馆,颗粒物(PM10),96,142,134,49,53,96,,93,93,14,17,7,10,0.4,0.3
2024-03-17T1800,1477A,104.1373,35.9454,兰州市,榆中兰大校区,,,,,,,,,,,,,,,,
2024-03-17T1800,1478A,103.8412,36.0726,兰州市,生物制品所,颗粒物(PM10),87,124,124,45,47,99,,90,90,16,24,12,10,0.4,0.5
2024-03-17T1800,1479A,103.831,36.0464,兰州市,铁路设计院,颗粒物(PM10),91,132,119,52,49,88,,84,84,29,30,8,8,0.6,0.5
2024-03-17T1800,3186A,103.7158,36.1058,兰州市,教育港,颗粒物(PM10),96,141,125,43,40,95,,91,91,19,23,8,7,0.5,0.4
2024-03-17T1800,3241A,103.7439,36.0842,兰州市,百合公园,颗粒物(PM10),86,121,121,35,39,95,,86,86,17,23,4,4,0.5,0.5
2024-03-17T1800,3242A,103.9611,35.998,兰州市,和平,颗粒物(PM10),90,129,126,47,44,102,,93,93,15,18,12,9,0.5,0.4
2024-03-17T1800,3245A,103.6633,36.533,兰州新区,新区管委会,颗粒物(PM10),108,165,104,32,37,106,,92,92,5,14,6,11,0.3,0.5
2024-03-17T1800,3246A,103.6975,36.4789,兰州新区,舟曲中学,颗粒物(PM10),99,148,132,34,40,98,,88,88,8,16,6,10,0.4,0.5
2024-03-17T1800,1067A,116.6708,39.5111,廊坊市,药材公司,颗粒物(PM10),52,54,90,15,13,104,,96,96,13,11,1,3,0.4,0.3
2024-03-17T1800,1068A,116.7214,39.5589,廊坊市,开发区,,41,41,82,19,13,104,,95,95,16,12,1,3,0.3,0.2
2024-03-17T1800,1070A,116.7244,39.5269,廊坊市,北华航天学院,颗粒物(PM10),52,54,88,12,7,105,,98,98,16,9,1,3,0.3,0.2
2024-03-17T1800,2919A,116.7022,39.5453,廊坊市,河北工业大学,,44,44,78,21,13,104,,94,94,14,8,2,2,0.3,0.2
2024-03-17T1800,2535A,103.7723,29.5462,乐山市,花湖湾,颗粒物(PM10),121,192,85,57,41,63,,69,69,24,17,6,5,0.4,0.4
2024-03-17T1800,2536A,103.7627,29.5844,乐山市,牛耳桥,颗粒物(PM10),121,191,113,56,45,70,,70,70,26,22,6,6,0.5,0.5
2024-03-17T1800,2537A,103.7508,29.6006,乐山市,市第三水厂,颗粒物(PM10),118,185,113,53,41,75,,75,75,28,24,6,5,0.5,0.6
2024-03-17T1800,2538A,103.7571,29.5664,乐山市,市监测站,颗粒物(PM10),110,170,109,61,44,68,,75,75,23,16,7,6,0.5,0.5
2024-03-17T1800,3361A,103.7311,29.5628,乐山市,理工大学,颗粒物(PM10),114,178,102,60,43,72,,74,74,22,17,8,7,0.5,0.5
2024-03-17T1800,2598A,100.2143,26.8576,丽江市,西南郊,,,,,,,,,,,,,,,,
2024-03-17T1800,2599A,100.2497,26.8802,丽江市,丽江古城,,47,47,44,22,26,111,,117,117,8,8,9,9,0.6,0.6
2024-03-17T1800,2600A,100.2203,26.8906,丽江市,市中心,,33,26,32,5,16,103,,108,108,12,10,8,8,0.8,0.8
2024-03-17T1800,1267A,119.914,28.4514,丽水市,监测站大楼,,48,,46,33,28,94,,34,34,22,34,3,5,0.6,0.8
2024-03-17T1800,1268A,119.93,28.4586,丽水市,莲都小学,颗粒物(PM10),56,62,52,34,26,98,,40,40,21,32,3,4,0.5,0.7
2024-03-17T1800,1269A,119.879,28.4231,丽水市,余庄前,,33,33,40,23,25,69,,28,28,22,20,4,5,0.6,0.7
2024-03-17T1800,1173A,119.176,34.5885,连云港市,市环境监测站,颗粒物(PM10),93,136,180,29,39,91,,84,84,23,29,6,7,0.4,0.4
2024-03-17T1800,3000A,119.3581,34.6972,连云港市,德源药业,颗粒物(PM10),86,122,161,27,34,93,,88,88,20,27,4,5,0.4,0.5
2024-03-17T1800,3007A,119.178,34.844,连云港市,新城一中,颗粒物(PM10),84,118,99,24,30,97,,92,92,33,35,7,9,0.6,0.7
2024-03-17T1800,3008A,119.3608,34.7519,连云港市,胡沟管理处,颗粒物(PM10),93,136,155,27,31,62,,80,78,57,29,15,11,0.5,0.6
2024-03-17T1800,3009A,119.1478,34.5911,连云港市,矿山设计院,颗粒物(PM10),104,158,181,29,37,89,,84,84,23,27,4,5,0.5,0.7
2024-03-17T1800,3434A,119.2413,34.6539,连云港市,工贸学校,颗粒物(PM10),99,148,130,27,29,104,,96,96,18,20,8,9,0.5,0.7
2024-03-17T1800,3664A,119.4172,34.7341,连云港市,连云街道,颗粒物(PM10),89,127,150,24,31,130,,100,100,16,46,5,5,0.5,0.6
2024-03-17T1800,2571A,102.3431,27.8099,凉山彝族自治州,青龙寺,,44,44,39,9,7,131,,127,127,4,5,4,4,0.8,0.8
2024-03-17T1800,2572A,102.2721,27.8415,凉山彝族自治州,邛海宾馆,,40,39,42,23,26,127,,124,124,5,8,7,10,0.4,0.6
2024-03-17T1800,2573A,102.2625,27.898,凉山彝族自治州,西昌市政府,,47,47,46,32,29,127,,122,122,7,9,9,12,0.7,0.9
2024-03-17T1800,2574A,102.2685,27.8851,凉山彝族自治州,凉山州政府,,50,50,52,28,28,125,,120,120,6,8,7,10,0.6,0.7
2024-03-17T1800,2575A,102.237,27.8914,凉山彝族自治州,长安,颗粒物(PM10),51,51,49,27,28,135,,128,128,9,11,14,15,0.9,1.2
2024-03-17T1800,2212A,123.2,41.1953,辽阳市,宏伟区,颗粒物(PM10),57,64,160,33,31,98,,91,91,22,14,13,11,0.6,0.6
2024-03-17T1800,2213A,123.1683,41.2495,辽阳市,新华园,,44,44,166,26,34,90,,89,89,17,12,16,13,0.9,0.8
2024-03-17T1800,2214A,123.2354,41.2639,辽阳市,滨河路,细颗粒物(PM2.5),68,69,162,49,35,95,,90,90,21,11,9,8,0.7,0.6
2024-03-17T1800,2215A,123.149,41.2991,辽阳市,铁西工业园,,50,50,170,30,28,92,,98,98,19,13,12,11,0.5,0.6
2024-03-17T1800,2227A,125.1358,42.8845,辽源市,环保局,,27,16,66,10,19,86,,90,90,12,8,21,10,0.6,0.6
2024-03-17T1800,3239A,125.0764,42.9078,辽源市,银鹰制药,,28,11,86,9,22,88,,90,90,9,7,5,6,0.5,0.5
2024-03-17T1800,1625A,115.9848,36.4372,聊城市,区政府,颗粒物(PM10),60,69,154,18,36,94,,92,92,11,15,7,5,0.7,0.7
2024-03-17T1800,2878A,116.0072,36.4343,聊城市,聊大东校,颗粒物(PM10),62,73,150,14,40,99,,99,99,15,19,7,8,0.7,0.6
2024-03-17T1800,3200A,115.9819,36.4978,聊城市,监控中心,颗粒物(PM10),59,68,164,14,41,95,,98,98,10,20,6,7,0.7,0.7
2024-03-17T1800,3513A,116.0445,36.4361,聊城市,九州社区,颗粒物(PM10),65,80,164,13,35,96,,98,98,6,13,7,6,0.6,0.6
2024-03-17T1800,4018A,116.0567,36.4608,聊城市,星美广场,颗粒物(PM10),67,84,185,16,40,93,,95,95,16,23,6,8,0.6,0.7
2024-03-17T1800,2632A,94.3681,29.6376,林芝市,林芝监测站,,40,25,13,4,5,126,,126,126,3,2,5,5,0.7,0.7
2024-03-17T1800,2633A,94.3616,29.6616,林芝市,林芝人民医院,,39,21,16,12,9,122,,122,122,4,5,5,6,0.6,0.6
2024-03-17T1800,2603A,100.0781,23.8982,临沧市,市环保局,细颗粒物(PM2.5),58,,67,41,57,127,,121,121,7,15,7,10,0.4,0.6
2024-03-17T1800,2604A,100.0894,23.8822,临沧市,市气象局,,37,31,73,16,55,118,,117,117,7,15,5,9,0.4,0.6
2024-03-17T1800,1733A,111.5531,36.0783,临汾市,临钢医院,颗粒物(PM10),82,114,191,46,49,85,,95,95,15,14,5,6,0.5,0.4
2024-03-17T1800,1734A,111.5028,36.0714,临汾市,技工学校,颗粒物(PM10),82,113,187,39,50,87,,96,96,17,16,6,8,0.8,0.6
2024-03-17T1800,1736A,111.5018,36.0855,临汾市,市委,颗粒物(PM10),73,96,183,33,39,91,,101,101,15,12,5,6,0.6,0.5
2024-03-17T1800,3018A,111.505,36.1014,临汾市,唐尧大酒店,颗粒物(PM10),73,95,170,39,44,90,,80,,16,14,6,7,0.6,0.4
2024-03-17T1800,3668A,111.5036,36.0414,临汾市,城南,颗粒物(PM10),71,92,183,40,53,90,,100,100,13,13,8,8,0.6,0.5
2024-03-17T1800,2667A,103.2069,35.5993,临夏回族自治州,环保局,颗粒物(PM10),79,108,146,45,45,81,,81,81,13,5,3,3,0.4,0.4
2024-03-17T1800,2668A,103.2417,35.6057,临夏回族自治州,建设大厦,颗粒物(PM10),78,105,142,39,46,82,,80,80,11,11,2,1,0.3,0.4
2024-03-17T1800,1618A,118.3429,35.0532,临沂市,沂河小区,颗粒物(PM10),65,80,193,26,56,102,,91,91,14,24,4,7,0.5,0.7
2024-03-17T1800,1619A,118.295,35.0583,临沂市,鲁南制药厂,颗粒物(PM10),75,100,208,17,46,111,,99,99,15,27,4,7,0.4,0.6
2024-03-17T1800,1620A,118.2794,34.9976,临沂市,新光毛纺厂,颗粒物(PM10),69,88,192,20,51,102,,89,89,19,33,3,5,0.7,0.9
2024-03-17T1800,1621A,118.3956,35.0888,临沂市,河东保险公司,颗粒物(PM10),67,83,185,19,51,106,,95,95,19,30,3,5,0.5,0.6
2024-03-17T1800,3370A,118.3564,35.0215,临沂市,十里堡居委,颗粒物(PM10),65,80,196,24,48,105,,95,95,17,28,2,5,0.5,0.7
2024-03-17T1800,3496A,118.3604,35.1084,临沂市,南坊新区,颗粒物(PM10),64,78,182,17,50,105,,94,94,14,26,5,8,0.4,0.6
2024-03-17T1800,3860A,118.3920,35.0300,临沂市,皇山花园小区,颗粒物(PM10),73,95,219,22,51,107,,97,97,12,24,5,8,0.5,0.8
2024-03-17T1800,1870A,109.4856,24.3895,柳州市,柳东小学,,50,47,47,35,35,60,,54,54,8,20,6,8,0.4,0.5
2024-03-17T1800,1871A,109.4157,24.3277,柳州市,环保监测站,细颗粒物(PM2.5),52,43,55,36,37,41,,44,44,19,26,6,7,0.7,0.9
2024-03-17T1800,1872A,109.389,24.341,柳州市,河西水厂,细颗粒物(PM2.5),52,41,60,36,36,46,,46,46,14,25,3,4,0.8,1
2024-03-17T1800,1873A,109.4311,24.2921,柳州市,市四中,,49,47,67,34,38,41,,42,42,17,24,5,7,0.7,1
2024-03-17T1800,1874A,109.4006,24.3631,柳州市,市九中,细颗粒物(PM2.5),55,54,62,39,38,116,,53,53,22,32,9,8,0.6,0.9
2024-03-17T1800,1875A,109.4958,24.3134,柳州市,古亭山,,48,46,50,33,30,51,,45,45,12,21,6,6,0.5,0.8
2024-03-17T1800,3402A,109.5422,24.3996,柳州市,市二中,,40,38,48,28,32,57,,52,52,10,23,6,9,0.8,0.9
2024-03-17T1800,2307A,116.5079,31.737,六安市,监测大楼,颗粒物(PM10),127,204,101,30,72,56,,89,61,29,29,4,5,0.5,0.7
2024-03-17T1800,2308A,116.4738,31.7643,六安市,皖西学院,颗粒物(PM10),156,262,118,28,69,58,,77,64,24,25,4,4,0.5,0.7
2024-03-17T1800,2309A,116.4996,31.7905,六安市,朝阳厂,颗粒物(PM10),125,200,101,28,74,57,,73,60,22,28,5,5,0.4,0.6
2024-03-17T1800,2310A,116.5567,31.7886,六安市,开发区,颗粒物(PM10),153,255,125,39,59,57,,70,59,21,30,4,4,0.5,0.7
2024-03-17T1800,2576A,104.8,26.5892,六盘水市,窑上,,,,,,,,,,,,,,,,
2024-03-17T1800,2577A,104.83,26.5917,六盘水市,黄土坡,细颗粒物(PM2.5),65,74,66,47,47,122,,110,110,14,14,10,11,1.0,1
2024-03-17T1800,2578A,104.89,26.5939,六盘水市,水钢,细颗粒物(PM2.5),69,71,68,50,48,128,,117,117,9,13,8,9,0.7,0.8
2024-03-17T1800,2579A,104.8475,26.5894,六盘水市,民中,细颗粒物(PM2.5),77,70,61,56,48,119,,110,110,13,14,9,10,0.9,1
2024-03-17T1800,2580A,104.9544,26.5506,六盘水市,双水,细颗粒物(PM2.5),67,73,65,48,46,128,,116,116,11,9,7,8,0.8,0.8
2024-03-17T1800,2335A,117.0189,25.1181,龙岩市,龙岩师专,,,,,,,,,,,,,,,,
2024-03-17T1800,2336A,117.0217,25.1033,龙岩市,龙岩市监测站,,34,34,46,23,39,71,,69,69,8,26,4,5,0.6,1.9
2024-03-17T1800,2337A,117.0258,25.0661,龙岩市,闽西职业技术学院,,35,35,39,20,31,66,,67,67,9,24,3,5,0.6,1.5
2024-03-17T1800,2338A,117.0196,25.0306,龙岩市,龙岩学院,,37,37,30,18,21,72,,74,74,5,19,4,6,0.6,0.9
2024-03-17T1800,2665A,105.0822,33.3261,陇南市,汉王镇固水子,,,,,,,,,,,,,,,,
2024-03-17T1800,2885A,104.9339,33.3826,陇南市,滨江中学,颗粒物(PM10),86,122,149,38,47,96,,92,92,4,7,6,7,0.6,0.6
2024-03-17T1800,3247A,104.955,33.371,陇南市,市总工会,颗粒物(PM10),84,118,147,38,50,91,,88,88,8,10,7,7,0.5,0.5
2024-03-17T1800,2487A,111.9589,27.8901,娄底市,电视发射台,,29,23,28,8,13,92,,58,58,11,10,4,4,0.5,0.4
2024-03-17T1800,2488A,111.9975,27.725,娄底市,市监测站,,30,30,42,17,29,64,,36,36,26,28,7,6,0.6,0.8
2024-03-17T1800,2489A,112.0194,27.7314,娄底市,市委党校,,21,20,34,13,26,67,,41,41,17,16,6,5,0.7,0.8
2024-03-17T1800,2490A,111.9561,27.7569,娄底市,涟钢,,33,33,33,19,23,26,,35,30,29,22,9,8,0.6,0.6
2024-03-17T1800,2491A,111.9892,27.7044,娄底市,市政府,,33,33,26,15,20,46,,32,32,24,16,5,5,0.7,0.7
2024-03-17T1800,1893A,105.4324,28.9634,泸州市,九狮山,颗粒物(PM10),143,235,129,74,57,90,,75,75,16,19,6,6,0.3,0.5
2024-03-17T1800,1894A,105.4427,28.9063,泸州市,小市上码头,颗粒物(PM10),143,236,125,72,63,81,,67,67,17,24,9,10,0.5,0.6
2024-03-17T1800,1895A,105.4241,28.8573,泸州市,兰田宪桥,颗粒物(PM10),139,228,126,78,67,86,,74,74,14,18,7,8,0.4,0.5
2024-03-17T1800,1896A,105.4379,28.8833,泸州市,市环监站,颗粒物(PM10),134,217,118,70,61,76,,68,68,15,19,8,9,0.4,0.5
2024-03-17T1800,3490A,105.3617,28.7703,泸州市,纳溪区环保局,颗粒物(PM10),142,234,136,66,65,96,,77,77,12,25,4,5,0.6,0.8
2024-03-17T1800,2183A,111.1406,37.5211,吕梁市,环保局,颗粒物(PM10),92,133,137,48,41,88,,86,86,18,35,6,4,0.3,0.3
2024-03-17T1800,2185A,111.1297,37.5136,吕梁市,自来水公司,颗粒物(PM10),90,130,121,45,38,89,,87,87,17,30,3,7,0.4,0.4
2024-03-17T1800,2867A,111.1283,37.51,吕梁市,马茂庄小学,颗粒物(PM10),107,163,146,46,40,90,,87,87,19,37,3,3,0.5,0.4
2024-03-17T1800,1812A,112.3931,34.6516,洛阳市,市委党校,颗粒物(PM10),69,88,168,16,47,79,,100,77,20,27,2,4,0.2,0.4
2024-03-17T1800,1814A,112.4657,34.6871,洛阳市,豫西宾馆,颗粒物(PM10),82,114,198,20,46,79,,96,80,18,19,6,9,0.2,0.2
2024-03-17T1800,1815A,112.494,34.6886,洛阳市,河南林校,颗粒物(PM10),73,96,170,20,50,78,,88,79,18,22,5,8,0.1,0.3
2024-03-17T1800,1816A,112.3844,34.623,洛阳市,开发区管委会,颗粒物(PM10),77,103,195,22,54,83,,101,83,14,15,2,4,0.4,0.6
2024-03-17T1800,1817A,112.4267,34.6258,洛阳市,市委新办公区,颗粒物(PM10),72,94,180,23,52,76,,87,75,18,23,4,5,0.1,0.3
2024-03-17T1800,3340A,112.6005,34.6326,洛阳市,伊滨,颗粒物(PM10),66,81,188,17,48,80,,100,83,19,25,4,5,0.2,0.4
2024-03-17T1800,3341A,112.4951,34.6332,洛阳市,中移产业园,颗粒物(PM10),74,97,178,13,46,81,,92,83,12,23,4,6,0.1,0.3
2024-03-17T1800,3593A,112.5736,34.8993,洛阳市,吉利监测站,颗粒物(PM10),77,103,180,13,47,85,,83,82,22,27,7,9,0.2,0.6
2024-03-17T1800,3635A,112.3677,34.662,洛阳市,河科大西苑校区,颗粒物(PM10),78,105,184,14,44,82,,102,76,15,22,1,4,0.2,0.3
2024-03-17T1800,3636A,112.4388,34.6781,洛阳市,英才小学,颗粒物(PM10),67,84,175,19,45,80,,92,78,18,22,3,6,0.3,0.5
2024-03-17T1800,2399A,114.051,33.5699,漯河市,三五一五工厂,颗粒物(PM10),141,232,200,39,79,72,,91,69,16,21,13,14,0.3,0.5
2024-03-17T1800,2400A,114.0055,33.5698,漯河市,漯河大学,颗粒物(PM10),131,211,188,29,72,76,,92,72,12,18,6,9,0.3,0.6
2024-03-17T1800,2401A,114.0138,33.5828,漯河市,市水利局,颗粒物(PM10),142,234,200,36,72,75,,85,72,17,21,6,8,0.4,0.6
2024-03-17T1800,2402A,114.0261,33.5698,漯河市,市广电局,颗粒物(PM10),142,234,202,34,75,78,,91,74,12,16,3,6,0.4,0.6
2024-03-17T1800,3478A,113.9749,33.5664,漯河市,市图书馆,颗粒物(PM10),130,210,183,34,74,82,,93,76,14,20,11,15,0.3,0.6
2024-03-17T1800,3479A,114.0967,33.5906,漯河市,召陵区卫健委,颗粒物(PM10),129,208,182,30,74,66,,74,66,19,31,4,6,0.3,0.6
2024-03-17T1800,1798A,118.5092,31.6837,马鞍山市,湖东路四小,颗粒物(PM10),138,226,170,14,72,69,,82,68,20,42,6,8,0.5,0.9
2024-03-17T1800,1799A,118.5024,31.6449,马鞍山市,开发区,颗粒物(PM10),121,192,154,14,84,76,,77,68,16,51,5,7,0.5,0.8
2024-03-17T1800,1800A,118.5228,31.7231,马鞍山市,慈湖,,,,126,25,78,67,,84,65,23,49,8,10,0.6,0.9
2024-03-17T1800,1802A,118.6245,31.7241,马鞍山市,濮塘,颗粒物(PM10),111,172,139,41,64,65,,65,60,15,24,5,6,0.6,0.9
2024-03-17T1800,3633A,118.4918,31.6809,马鞍山市,雨山,颗粒物(PM10),130,209,114,11,65,70,,80,68,19,38,8,9,0.5,0.8
2024-03-17T1800,1686A,111.0286,21.4688,茂名市,电白南海,,44,44,40,22,24,67,,57,57,13,13,6,6,0.6,0.6
2024-03-17T1800,1687A,110.9294,21.6533,茂名市,茂石化七小,,42,39,49,29,39,60,,54,54,11,16,6,8,0.5,0.6
2024-03-17T1800,1688A,110.9107,21.6687,茂名市,健康路,,35,34,43,24,35,57,,54,54,10,13,7,10,0.5,0.5
2024-03-17T1800,1689A,110.8592,21.6828,茂名市,高岭,,48,48,52,29,35,49,,50,50,18,16,6,10,0.8,0.8
2024-03-17T1800,3450A,111.01,21.5165,茂名市,电白水东,,39,39,33,19,25,61,,61,58,14,9,5,8,0.5,0.5
2024-03-17T1800,2539A,104.0308,30.0478,眉山市,黑龙滩水库,颗粒物(PM10),54,58,119,26,40,117,,98,98,5,16,5,5,0.3,0.4
2024-03-17T1800,2540A,103.8416,30.0874,眉山市,气象局,颗粒物(PM10),59,67,134,19,44,94,,74,74,22,24,7,8,0.4,0.5
2024-03-17T1800,3137A,103.8578,30.0744,眉山市,市委党校,颗粒物(PM10),53,56,146,19,46,92,,72,72,24,28,7,8,0.3,0.4
2024-03-17T1800,3148A,103.8291,30.0564,眉山市,区人社局,颗粒物(PM10),56,62,117,22,47,84,,66,66,34,32,5,6,0.4,0.5
2024-03-17T1800,1690A,116.1231,24.3284,梅州市,梅江月梅,,34,34,34,23,25,74,,69,69,8,19,9,8,0.5,0.6
2024-03-17T1800,1691A,116.0797,24.2719,梅州市,梅县新城,,31,31,38,21,31,71,,70,70,9,22,6,5,0.5,0.9
2024-03-17T1800,1692A,116.1248,24.2654,梅州市,环境监控中心,,36,36,36,14,26,68,,67,67,9,20,6,8,0.4,0.6
2024-03-17T1800,3315A,116.1233,24.2991,梅州市,梅龙,,29,29,29,18,24,70,,73,73,7,15,8,7,0.6,0.7
2024-03-17T1800,1878A,104.7778,31.4741,绵阳市,富乐山,颗粒物(PM10),52,54,185,30,62,97,,92,92,11,11,7,7,0.5,0.5
2024-03-17T1800,1879A,104.7563,31.4535,绵阳市,市人大,颗粒物(PM10),55,60,185,34,56,88,,83,83,19,22,5,6,0.5,0.4
2024-03-17T1800,1880A,104.6697,31.4668,绵阳市,高新区自来水公司,颗粒物(PM10),57,64,147,27,44,94,,89,89,22,20,7,7,0.5,0.5
2024-03-17T1800,1881A,104.7287,31.5075,绵阳市,三水厂,颗粒物(PM10),52,54,141,34,52,94,,88,88,14,17,9,8,0.6,0.6
2024-03-17T1800,3491A,104.69,31.5322,绵阳市,西科大附属小学,颗粒物(PM10),53,55,122,27,43,89,,82,82,24,22,5,7,0.6,0.6
2024-03-17T1800,3492A,104.5648,31.5343,绵阳市,安州区旅游局,颗粒物(PM10),57,64,147,30,49,92,,80,80,14,17,4,5,0.5,0.5
2024-03-17T1800,1784A,129.61,44.561,牡丹江市,环保大楼,,42,31,33,29,21,88,,92,92,11,14,6,7,0.4,0.4
2024-03-17T1800,1785A,129.6115,44.5782,牡丹江市,文化广场,,33,23,34,23,27,81,,85,85,11,15,7,10,0.4,0.6
2024-03-17T1800,1786A,129.5904,44.5963,牡丹江市,第一医院,,40,29,34,28,30,89,,88,88,5,11,6,8,0.4,0.5
2024-03-17T1800,1787A,129.6364,44.6075,牡丹江市,机车工厂,,42,30,41,29,25,90,,91,91,3,9,8,9,0.3,0.3
2024-03-17T1800,1788A,129.6386,44.5462,牡丹江市,第一中学,,33,27,32,23,19,87,,88,88,8,13,7,9,0.4,0.5
2024-03-17T1800,2531A,105.0703,29.61,内江市,市监测站,颗粒物(PM10),79,108,120,51,60,67,,69,69,25,21,8,8,0.4,0.4
2024-03-17T1800,2532A,105.0717,29.5947,内江市,东兴区政府,颗粒物(PM10),82,114,130,50,52,78,,71,71,15,18,9,9,0.3,0.4
2024-03-17T1800,2533A,105.0653,29.5817,内江市,内江二中,颗粒物(PM10),76,102,120,54,52,73,,71,71,24,22,5,6,0.6,0.6
2024-03-17T1800,2534A,105.0406,29.5822,内江市,内江日报社,颗粒物(PM10),70,90,126,50,51,76,,74,74,24,22,9,9,0.6,0.6
2024-03-17T1800,2628A,92.0657,31.4846,那曲市,那曲监测站,,30,17,43,9,26,95,,92,92,5,10,7,8,0.7,1.3
2024-03-17T1800,3128A,92.0506,31.4797,那曲市,那曲会议中心,,32,26,40,6,16,102,,96,96,3,11,6,8,0.2,0.5
2024-03-17T1800,1290A,115.8931,28.6843,南昌市,省外办,细颗粒物(PM2.5),67,,49,48,44,89,,58,58,15,23,5,5,0.8,0.9
2024-03-17T1800,1291A,115.8886,28.7003,南昌市,省林业公司,细颗粒物(PM2.5),52,,42,36,36,84,,55,55,22,36,3,4,0.8,0.8
2024-03-17T1800,1292A,115.8126,28.7442,南昌市,林科所,,35,,36,24,31,98,,69,69,21,29,4,5,0.8,0.6
2024-03-17T1800,1294A,115.8518,28.687,南昌市,建工学校,细颗粒物(PM2.5),52,42,51,36,38,87,,58,58,21,29,4,4,0.8,0.8
2024-03-17T1800,1295A,115.8921,28.6424,南昌市,象湖,,40,40,46,24,33,96,,59,59,16,25,4,4,0.9,1.1
2024-03-17T1800,1296A,115.7423,28.7996,南昌市,武术学校,,49,,18,34,27,98,,68,68,12,8,10,10,0.6,0.5
2024-03-17T1800,1298A,115.9314,28.6842,南昌市,省站,颗粒物(PM10),53,56,45,36,39,95,,60,60,11,16,7,8,0.9,1
2024-03-17T1800,3046A,115.9084,28.6062,南昌市,机电学校,,32,31,46,22,34,95,,59,59,18,26,5,6,0.8,0.9
2024-03-17T1800,3690A,115.9721,28.7031,南昌市,外国语学校,细颗粒物(PM2.5),65,,38,47,36,90,,61,61,18,18,3,3,0.6,0.7
2024-03-17T1800,1905A,106.056,30.8064,南充市,西山风景区,,42,40,74,29,39,73,,79,74,12,10,3,4,0.6,0.5
2024-03-17T1800,1906A,106.0789,30.8023,南充市,南充市委,颗粒物(PM10),61,71,93,31,29,65,,73,69,26,20,5,6,0.5,0.4
2024-03-17T1800,1907A,106.1031,30.8217,南充市,南充炼油厂,颗粒物(PM10),58,66,96,39,46,66,,74,68,22,19,5,5,0.4,0.3
2024-03-17T1800,1908A,106.1064,30.7856,南充市,高坪区监测站,颗粒物(PM10),59,67,89,36,39,64,,73,68,22,18,5,5,0.2,0.2
2024-03-17T1800,1909A,106.0642,30.7636,南充市,嘉陵区环保局,颗粒物(PM10),56,61,88,31,38,61,,71,65,24,18,5,5,0.4,0.3
2024-03-17T1800,1910A,106.1087,30.8388,南充市,市环境监测站,颗粒物(PM10),55,59,93,28,42,68,,80,74,26,20,5,5,0.3,0.3
2024-03-17T1800,1151A,118.8086,32.1065,南京市,迈皋桥,颗粒物(PM10),108,166,162,17,66,70,,62,62,17,46,5,5,0.2,0.5
2024-03-17T1800,1152A,118.7538,32.0551,南京市,草场门,颗粒物(PM10),123,195,161,22,65,66,,63,63,25,44,1,2,0.3,0.7
2024-03-17T1800,1153A,118.7794,32.0745,南京市,山西路,颗粒物(PM10),122,193,174,27,79,68,,66,66,19,46,4,4,0.3,0.6
2024-03-17T1800,1154A,118.7752,32.0023,南京市,中华门,颗粒物(PM10),119,188,156,24,63,66,,65,65,23,44,6,7,0.4,0.8
2024-03-17T1800,1155A,118.8109,32.0309,南京市,瑞金路,颗粒物(PM10),108,166,154,22,56,65,,65,64,25,39,8,8,0.3,0.6
2024-03-17T1800,1156A,118.7997,32.0754,南京市,玄武湖,颗粒物(PM10),119,188,156,14,66,65,,62,62,20,84,8,9,0.1,0.5
2024-03-17T1800,1157A,118.6414,32.0931,南京市,浦口,颗粒物(PM10),137,223,152,18,60,63,,56,56,17,25,4,6,0.5,0.8
2024-03-17T1800,1158A,118.7356,31.9996,南京市,奥体中心,颗粒物(PM10),125,200,164,24,61,67,,84,67,23,31,8,9,0.4,0.7
2024-03-17T1800,1159A,118.9125,32.1028,南京市,仙林大学城,颗粒物(PM10),107,163,164,17,69,65,,63,63,22,51,6,8,0.4,0.8
2024-03-17T1800,3422A,118.8436,31.9198,南京市,江宁彩虹桥,颗粒物(PM10),119,187,125,22,58,71,,68,68,17,38,5,4,0.2,0.5
2024-03-17T1800,3423A,119.0138,31.6494,南京市,溧水永阳,颗粒物(PM10),125,200,140,34,53,62,,64,64,15,29,3,4,0.5,0.9
2024-03-17T1800,3424A,118.879,31.3302,南京市,高淳老职中,颗粒物(PM10),124,198,101,32,50,64,,82,62,14,25,6,6,0.4,0.8
2024-03-17T1800,3427A,118.8554,32.3578,南京市,六合雄州,颗粒物(PM10),104,158,159,20,61,84,,72,72,13,19,5,6,0.5,0.7
2024-03-17T1800,1401A,108.3103,22.7881,南宁市,二十一中,颗粒物(PM10),53,55,54,25,35,51,,50,50,16,16,3,5,0.8,0.8
2024-03-17T1800,1402A,108.3141,22.8528,南宁市,北湖,颗粒物(PM10),52,54,66,28,45,40,,44,44,22,24,7,7,0.9,1
2024-03-17T1800,1403A,108.3206,22.8225,南宁市,市监测站,,45,45,55,26,39,42,,46,46,23,22,7,8,0.7,0.7
2024-03-17T1800,1404A,108.3829,22.8037,南宁市,大自然花园,,39,39,48,24,36,48,,50,50,13,12,5,6,0.6,0.8
2024-03-17T1800,1405A,108.4394,22.7904,南宁市,仙葫,颗粒物(PM10),51,51,50,26,34,53,,54,54,16,17,7,7,0.4,0.5
2024-03-17T1800,1406A,108.2397,22.8467,南宁市,区农职院,,47,47,58,30,40,43,,42,42,23,26,5,7,0.7,0.8
2024-03-17T1800,1407A,108.3275,22.735,南宁市,英华嘉园,,37,37,55,22,34,37,,38,38,28,29,6,7,0.6,0.7
2024-03-17T1800,1408A,108.2257,22.7757,南宁市,沙井镇街道办,,35,33,55,24,33,41,,46,46,20,20,5,6,0.5,0.5
2024-03-17T1800,3401A,108.4834,22.7618,南宁市,红星社区,,46,46,46,22,33,43,,48,48,12,15,7,7,0.9,0.9
2024-03-17T1800,2331A,118.0966,26.6761,南平市,茫荡山,,,,,,,,,,,,,,,,
2024-03-17T1800,2332A,118.1681,26.6369,南平市,南平市监测站,,38,30,35,26,27,79,,68,68,18,22,5,5,1.0,1.2
2024-03-17T1800,2333A,118.1825,26.6489,南平市,南平铝业有限公司,,38,38,32,20,24,69,,63,63,17,21,7,6,0.9,0.9
2024-03-17T1800,2334A,118.1756,26.6272,南平市,南平七中,,39,39,32,27,29,58,,66,66,41,20,5,4,1.6,0.9
2024-03-17T1800,1168A,120.9098,31.9663,南通市,狼山街道,颗粒物(PM10),82,113,68,26,34,94,,92,92,12,23,8,8,0.4,0.6
2024-03-17T1800,1169A,120.86,32.0005,南通市,虹桥,颗粒物(PM10),69,88,75,22,45,83,,82,82,14,25,4,5,0.3,0.5
2024-03-17T1800,1170A,120.87,32.02,南通市,城中,颗粒物(PM10),83,116,82,16,37,82,,82,82,16,21,4,5,0.3,0.5
2024-03-17T1800,1171A,120.94,31.93,南通市,星湖花园,颗粒物(PM10),84,117,69,21,33,91,,86,86,17,30,5,6,0.4,0.7
2024-03-17T1800,1172A,120.81,32.0417,南通市,紫琅学院,颗粒物(PM10),77,103,69,18,31,93,,88,88,17,29,6,7,0.3,0.5
2024-03-17T1800,3291A,121.067,32.062,南通市,通州监测站,颗粒物(PM10),111,171,72,27,32,90,,87,87,10,13,7,7,0.4,0.5
2024-03-17T1800,3432A,120.9348,31.9883,南通市,环境教育馆,颗粒物(PM10),87,124,72,29,37,89,,86,86,14,25,6,6,0.2,0.4
2024-03-17T1800,2404A,112.5224,33.0122,南阳市,瓦房庄,颗粒物(PM10),94,138,140,24,53,72,,105,76,19,23,5,5,0.4,0.6
2024-03-17T1800,2405A,112.5003,32.9735,南阳市,汉画馆,颗粒物(PM10),106,162,142,31,54,75,,109,77,24,29,6,7,0.2,0.4
2024-03-17T1800,2406A,112.5573,33.027,南阳市,气象站,颗粒物(PM10),104,157,143,19,49,71,,100,74,22,26,5,6,0.4,0.6
2024-03-17T1800,2407A,112.5481,32.9689,南阳市,理工学院,颗粒物(PM10),115,179,152,23,49,72,,108,75,19,23,8,9,0.5,0.7
2024-03-17T1800,4008A,112.5234,32.9922,南阳市,卧龙区政府,颗粒物(PM10),108,166,150,25,53,66,,104,71,25,30,5,6,0.5,0.7
2024-03-17T1800,1234A,121.8358,29.911,宁波市,区环保大楼,,,69,71,21,31,65,,76,76,29,60,6,8,,0.9
2024-03-17T1800,1235A,121.56,29.82,宁波市,万里学院,,47,47,51,24,29,79,,74,74,26,52,8,9,0.7,0.8
2024-03-17T1800,1236A,121.713,29.9572,宁波市,龙赛医院,,38,38,50,12,17,67,,71,71,37,61,6,7,0.4,0.4
2024-03-17T1800,1239A,121.633,29.7733,宁波市,钱湖水厂,,39,39,42,9,29,81,,78,78,20,27,6,6,0.6,0.7
2024-03-17T1800,1240A,121.5856,29.8635,宁波市,太古小学,颗粒物(PM10),56,61,61,20,29,79,,75,75,22,46,8,8,0.6,0.8
2024-03-17T1800,1241A,121.524,29.8674,宁波市,市环境监测中心,,37,37,54,17,30,82,,78,78,27,55,6,8,0.6,0.8
2024-03-17T1800,2871A,121.6147,29.9017,宁波市,万里国际学校,颗粒物(PM10),54,57,76,23,38,81,,79,79,27,57,9,8,0.8,0.8
2024-03-17T1800,3710A,121.5594,29.8975,宁波市,白沙活动中心,颗粒物(PM10),56,61,70,20,30,79,,73,73,26,57,7,8,0.5,0.6
2024-03-17T1800,2339A,119.5001,26.6946,宁德市,金涵水库,,,,,,,,,,,,,,,,
2024-03-17T1800,2341A,119.5388,26.6612,宁德市,宁德市监测站,,40,,24,28,26,109,,67,67,22,28,6,6,0.4,0.6
2024-03-17T1800,3209A,119.5231,26.6562,宁德市,宁德一中,,36,33,27,25,21,109,,70,70,16,21,7,6,0.5,0.7
2024-03-17T1800,2618A,98.8601,25.8567,怒江傈僳族自治州,州监测站,"颗粒物(PM10),细颗粒物(PM2.5)",54,58,63,38,47,130,,119,119,5,11,8,8,0.4,0.5
2024-03-17T1800,2619A,98.8546,25.8417,怒江傈僳族自治州,泸水一中,细颗粒物(PM2.5),60,64,62,43,48,122,,108,108,11,20,7,7,0.5,0.6
2024-03-17T1800,1888A,101.6891,26.571,攀枝花市,弄弄坪,,42,34,50,27,37,133,,127,127,10,21,29,18,0.6,0.9
2024-03-17T1800,1889A,101.5769,26.5928,攀枝花市,河门口,,41,34,52,24,34,131,,124,124,8,20,6,12,0.4,0.6
2024-03-17T1800,1890A,101.7169,26.585,攀枝花市,炳草岗,,43,27,53,18,31,136,,130,130,8,33,9,15,0.5,0.8
2024-03-17T1800,1891A,101.7369,26.5008,攀枝花市,仁和,,45,33,53,22,36,143,,143,143,8,14,6,7,0.7,0.7
2024-03-17T1800,2835A,101.7227,26.567,攀枝花市,四十中小,,46,32,52,32,31,138,,138,138,14,20,11,11,0.5,0.5
2024-03-17T1800,1604A,122.0303,41.1489,盘锦市,开发区,颗粒物(PM10),60,70,148,40,25,110,,105,105,17,13,7,5,0.8,0.7
2024-03-17T1800,1605A,122.0485,41.0883,盘锦市,兴隆台,细颗粒物(PM2.5),77,72,157,56,23,110,,102,102,19,14,11,6,0.6,0.5
2024-03-17T1800,1606A,121.8297,41.1028,盘锦市,新生街道,颗粒物(PM10),53,55,178,36,29,107,,101,101,20,21,8,7,0.7,0.6
2024-03-17T1800,1832A,113.3257,33.742,平顶山市,新华旅馆,颗粒物(PM10),93,136,186,21,53,80,,104,84,20,25,7,10,0.5,0.7
2024-03-17T1800,1833A,113.2919,33.737,平顶山市,规划设计院,颗粒物(PM10),87,123,172,18,58,71,,111,78,10,24,5,8,0.4,0.7
2024-03-17T1800,1834A,113.182,33.774,平顶山市,平顶山工学院,颗粒物(PM10),88,125,197,19,54,67,,88,75,20,17,3,7,0.3,0.6
2024-03-17T1800,3204A,113.3025,33.73,平顶山市,规划局,颗粒物(PM10),96,141,209,25,62,88,,108,89,13,18,7,10,0.2,0.5
2024-03-17T1800,3594A,112.8867,33.9116,平顶山市,石龙区,颗粒物(PM10),82,114,232,18,57,86,,95,84,10,26,6,8,0.3,0.5
2024-03-17T1800,2656A,106.6692,35.5461,平凉市,聚贤嘉苑,颗粒物(PM10),128,205,172,47,37,98,,98,98,19,27,4,7,0.4,0.4
2024-03-17T1800,2657A,106.7021,35.5307,平凉市,博物馆,颗粒物(PM10),131,212,179,48,39,102,,100,100,15,23,8,11,0.3,0.4
2024-03-17T1800,2347A,114.0997,27.5002,萍乡市,武功山,,31,31,23,12,9,16,,19,18,28,20,8,6,1.0,1
2024-03-17T1800,2348A,113.8385,27.6434,萍乡市,中医院,,30,22,50,21,42,6,,14,10,32,26,5,9,1.0,1.1
2024-03-17T1800,2349A,113.8493,27.6253,萍乡市,市政府车库,,20,16,43,14,36,7,,13,13,32,28,10,9,1.0,1.2
2024-03-17T1800,2350A,113.8676,27.6435,萍乡市,市环保局,,32,,42,22,34,4,,16,12,36,28,8,12,1.3,1.1
2024-03-17T1800,2351A,113.866,27.6198,萍乡市,安源区政府,,20,20,43,12,33,7,,11,11,25,28,9,9,0.9,1.2
2024-03-17T1800,2319A,119.0141,25.4325,莆田市,荔城区仓后路,细颗粒物(PM2.5),114,126,68,86,56,178,,153,153,31,38,6,5,0.5,0.6
2024-03-17T1800,2320A,119.0015,25.4553,莆田市,莆田市监测站,细颗粒物(PM2.5),117,125,66,88,47,184,,150,150,35,32,8,6,1.0,1
2024-03-17T1800,2321A,119.1119,25.4561,莆田市,涵江区六中,细颗粒物(PM2.5),85,108,60,63,52,152,,155,155,32,39,7,6,1.1,0.9
2024-03-17T1800,2322A,119.1013,25.3215,莆田市,秀屿区政府,细颗粒物(PM2.5),99,111,51,74,60,170,,146,146,23,23,10,7,1.2,0.9
2024-03-17T1800,2323A,118.981,25.4792,莆田市,东圳水库,,,,,,,,,,,,,,,,
2024-03-17T1800,2392A,115.0312,35.7636,濮阳市,环保局,,46,46,129,8,38,98,,96,96,11,17,7,9,0.3,0.5
2024-03-17T1800,2394A,115.0574,35.7609,濮阳市,油田运输公司,,42,42,153,8,40,102,,98,98,9,16,7,9,0.2,0.4
2024-03-17T1800,2395A,115.0866,35.7754,濮阳市,油田物探公司,颗粒物(PM10),62,74,156,9,40,94,,91,91,10,16,5,7,0.2,0.4
2024-03-17T1800,3021A,115,35.7668,濮阳市,濮水河管理处,颗粒物(PM10),51,52,134,10,40,93,,88,88,12,18,7,8,0.1,0.3
2024-03-17T1800,2601A,100.98,22.7633,普洱市,市环保局,细颗粒物(PM2.5),70,75,97,51,68,146,,145,145,9,16,7,8,0.4,0.5
2024-03-17T1800,2602A,100.9817,22.8322,普洱市,普洱第二中学,细颗粒物(PM2.5),79,64,85,58,57,148,,145,145,12,37,7,7,0.5,0.8
2024-03-17T1800,2262A,131.0518,45.8751,七台河市,新一中,,30,9,10,8,7,96,,98,98,5,5,8,8,0.5,0.5
2024-03-17T1800,3345A,131.0577,45.7879,七台河市,中波台,,28,8,11,7,8,88,,94,93,14,12,6,5,0.7,0.6
2024-03-17T1800,3637A,131.0176,45.7761,七台河市,人民广场,,28,,15,19,13,77,,90,88,24,13,11,8,0.8,0.7
2024-03-17T1800,3684A,130.8781,45.8222,七台河市,新建矿广场,,48,,9,33,21,83,,90,90,18,15,12,10,0.5,0.4
2024-03-17T1800,1779A,123.9305,47.3636,齐齐哈尔市,安居小区,,23,17,18,9,8,73,,87,86,19,9,8,7,0.4,0.3
2024-03-17T1800,1780A,123.9488,47.3386,齐齐哈尔市,中心广场,,23,,13,15,11,73,,80,80,13,8,5,6,0.4,0.4
2024-03-17T1800,1781A,123.9483,47.3227,齐齐哈尔市,农牧车辆厂,,22,19,19,9,8,68,,79,79,17,8,7,8,0.3,0.3
2024-03-17T1800,1783A,123.945,47.2988,齐齐哈尔市,市环境监测站,,30,30,20,9,11,75,,85,85,15,8,4,4,0.2,0.2
2024-03-17T1800,3662A,123.6333,47.2075,齐齐哈尔市,富区青少年活动中心,,41,41,17,7,7,63,,78,76,22,10,36,16,1.4,0.5
2024-03-17T1800,2591A,107.9783,26.5747,黔东南苗族侗族自治州,市环境监测站,,30,30,31,21,22,34,,31,31,13,14,5,6,0.8,0.9
2024-03-17T1800,2881A,107.8908,26.5311,黔东南苗族侗族自治州,凯里学院,,30,30,22,17,16,34,,33,33,13,10,5,4,0.8,0.8
2024-03-17T1800,2593A,107.5228,26.2403,黔南布依族苗族自治州,小围寨,,32,31,32,22,25,39,,35,35,12,12,6,5,0.6,0.6
2024-03-17T1800,3538A,107.5175,26.2978,黔南布依族苗族自治州,沙坝,,35,34,33,24,24,31,,28,28,11,12,5,4,0.5,0.5
2024-03-17T1800,2589A,104.9022,25.0925,黔西南布依族苗族自治州,场坝街,细颗粒物(PM2.5),53,49,61,37,48,150,,124,124,9,15,2,2,0.5,0.6
2024-03-17T1800,2590A,104.8811,25.0992,黔西南布依族苗族自治州,坪东大道,,49,49,67,28,50,148,,123,123,8,21,2,2,0.5,0.7
2024-03-17T1800,2502A,108.6236,21.9667,钦州市,市环保站,,44,44,74,19,39,47,,40,40,19,30,7,9,0.6,0.8
2024-03-17T1800,2503A,108.6549,21.9481,钦州市,沙埠小学,,34,34,74,18,37,61,,51,51,8,28,5,6,0.6,0.8
2024-03-17T1800,2504A,108.5989,21.7431,钦州市,港区一小,颗粒物(PM10),67,84,96,28,36,38,,46,46,26,22,8,8,0.7,0.9
2024-03-17T1800,3404A,108.5959,21.9633,钦州市,北职校,颗粒物(PM10),55,60,68,25,40,43,,39,39,25,28,8,8,0.6,0.7
2024-03-17T1800,1042A,119.5134,39.8207,秦皇岛市,北戴河环保局,,42,42,104,14,23,105,,98,98,19,22,6,6,0.2,0.2
2024-03-17T1800,1043A,119.7493,40.0116,秦皇岛市,第一关,颗粒物(PM10),54,57,108,37,30,97,,98,98,21,21,8,7,0.3,0.3
2024-03-17T1800,1044A,119.5897,39.9499,秦皇岛市,监测站,颗粒物(PM10),53,56,110,27,28,103,,100,100,19,21,5,5,0.3,0.3
2024-03-17T1800,1046A,119.5251,39.9041,秦皇岛市,建设大厦,,48,42,113,33,25,101,,100,100,16,18,1,3,0.2,0.2
2024-03-17T1800,3132A,119.610547,39.943889,秦皇岛市,文明里,颗粒物(PM10),51,51,120,21,22,98,,96,96,27,26,4,4,0.4,0.4
2024-03-17T1800,1307A,120.6659,36.2403,青岛市,仰口,颗粒物(PM10),54,58,168,24,31,85,,90,90,13,14,2,3,0.2,0.2
2024-03-17T1800,1310A,120.4134,36.0658,青岛市,市南区东部子站,颗粒物(PM10),80,110,137,27,21,91,,90,90,17,13,5,7,0.6,0.6
2024-03-17T1800,1311A,120.3664,36.1032,青岛市,四方区子站,颗粒物(PM10),74,97,138,27,27,82,,94,94,37,23,4,4,0.7,0.7
2024-03-17T1800,1312A,120.2994,36.054,青岛市,市南区西部子站,颗粒物(PM10),76,102,129,20,20,87,,92,92,29,21,5,5,0.6,0.6
2024-03-17T1800,1313A,120.4581,36.0858,青岛市,崂山区子站,颗粒物(PM10),76,102,144,22,20,90,,93,93,20,14,6,6,0.4,0.4
2024-03-17T1800,1314A,120.1983,35.9608,青岛市,黄岛区子站,颗粒物(PM10),53,56,139,20,25,89,,88,88,24,26,5,6,0.5,0.6
2024-03-17T1800,1315A,120.3999,36.3083,青岛市,城阳区子站,颗粒物(PM10),51,51,124,17,25,97,,96,96,12,22,7,7,0.6,0.7
2024-03-17T1800,1966A,120.0405,35.8735,青岛市,黄岛区4号,颗粒物(PM10),51,51,138,19,22,103,,102,102,18,18,7,7,0.4,0.5
2024-03-17T1800,3362A,120.5014,36.4034,青岛市,即墨2号,,42,42,149,14,29,90,,90,90,15,27,4,5,0.5,0.5
2024-03-17T1800,3642A,120.3503,36.0736,青岛市,市北区南部,颗粒物(PM10),72,94,112,22,21,96,,88,88,25,26,6,6,0.5,0.4
2024-03-17T1800,3643A,120.3948,36.1805,青岛市,李沧区北部,,39,39,157,17,29,99,,101,101,16,25,7,7,0.6,0.6
2024-03-17T1800,1702A,113.0426,23.691,清远市,环保大楼,颗粒物(PM10),60,70,67,37,34,33,,27,27,44,37,6,6,1.0,1.2
2024-03-17T1800,1703A,113.0208,23.7106,清远市,凤城街办,细颗粒物(PM2.5),72,75,94,52,66,41,,32,32,52,48,5,5,0.8,1.6
2024-03-17T1800,3025A,113.0477,23.6344,清远市,技师学院,颗粒物(PM10),62,73,85,40,48,52,,41,41,40,41,4,5,1.0,1.2
2024-03-17T1800,3318A,112.9903,23.7403,清远市,清新太和,颗粒物(PM10),57,64,87,39,50,41,,42,42,34,38,9,9,0.8,1
2024-03-17T1800,3455A,113.076,23.7198,清远市,清城东城,细颗粒物(PM2.5),75,87,66,55,49,37,,28,28,46,39,6,6,0.9,1
2024-03-17T1800,2661A,107.6325,35.7357,庆阳市,庆阳五中,细颗粒物(PM2.5),130,206,176,99,64,75,,86,83,19,13,6,7,0.5,0.4
2024-03-17T1800,2662A,107.6364,35.7067,庆阳市,市环保局,颗粒物(PM10),142,234,176,99,53,78,,92,89,17,12,6,7,0.5,0.3
2024-03-17T1800,1916A,103.7897,25.5035,曲靖市,环境监测站,颗粒物(PM10),57,63,58,33,34,160,,145,145,8,11,11,12,0.6,0.5
2024-03-17T1800,1917A,103.8,25.5364,曲靖市,烟厂办公区,臭氧1小时,55,57,58,32,34,164,,148,148,7,11,4,5,0.5,0.6
2024-03-17T1800,3376A,103.7947,25.462,曲靖市,南苑二区,颗粒物(PM10),56,61,56,25,32,144,,136,136,10,10,6,6,0.6,0.6
2024-03-17T1800,3377A,103.7444,25.5261,曲靖市,曲靖师范学院,细颗粒物(PM2.5),58,60,61,41,42,154,,138,138,9,18,5,18,0.5,0.7
2024-03-17T1800,1264A,118.8692,28.9398,衢州市,环保大楼,细颗粒物(PM2.5),59,49,62,42,46,78,,52,52,26,37,5,6,0.7,0.8
2024-03-17T1800,1265A,118.8709,28.9666,衢州市,实验学校,细颗粒物(PM2.5),57,46,63,40,33,90,,57,57,26,39,5,5,0.6,0.7
2024-03-17T1800,1266A,118.8621,28.9808,衢州市,衢州学院,细颗粒物(PM2.5),54,43,51,38,40,84,,50,50,25,37,4,4,0.5,0.6
2024-03-17T1800,1611A,118.5819,24.9117,泉州市,涂山街,颗粒物(PM10),51,52,78,35,61,82,,,,36,47,4,4,1.1,1.2
2024-03-17T1800,1612A,118.5972,24.8978,泉州市,津头埔,,46,37,73,32,59,83,,124,124,38,51,5,6,0.9,1.2
2024-03-17T1800,1613A,118.6663,24.9424,泉州市,万安,,35,30,51,24,39,102,,146,146,24,35,3,3,0.8,0.9
2024-03-17T1800,1614A,118.6117,24.9604,泉州市,清源山,,,,,,,,,,,,,,,,
2024-03-17T1800,3529A,118.6333,24.9264,泉州市,城华南路,细颗粒物(PM2.5),53,39,58,37,43,96,,136,136,40,49,4,4,0.7,0.8
