timepoint,stationcode,longitude,latitude,area,positionname,primarypollutant,aqi,pm10,pm10_24h,pm2_5,pm2_5_24h,o3,o3_24h,o3_8h,o3_8h_24h,no2,no2_24h,so2,so2_24h,co,co_24h
2024-03-17T0800,2566A,102.1879,31.914,阿坝藏族羌族自治州,州农科所,,34,30,26,10,10,8,,20,20,67,12,4,3,0.5,0.1
2024-03-17T0800,2568A,102.2502,31.8896,阿坝藏族羌族自治州,马师校,,19,,13,13,9,34,,60,60,17,9,3,3,0.5,0.5
2024-03-17T0800,3994A,102.2165,31.9024,阿坝藏族羌族自治州,马尔康中学西区,,20,20,14,9,8,50,,70,70,8,9,4,4,0.4,0.4
2024-03-17T0800,2695A,80.292,41.1694,阿克苏地区,电视台,颗粒物(PM10),133,216,225,44,47,71,,76,76,6,7,2,3,0.6,0.7
2024-03-17T0800,2696A,80.2613,41.1551,阿克苏地区,艺术中心,颗粒物(PM10),134,217,230,44,49,73,,78,78,5,9,3,4,0.7,0.7
2024-03-17T0800,2204A,105.6467,38.8363,阿拉善盟,西城区西花园,颗粒物(PM10),57,64,93,18,21,74,,76,76,17,17,9,9,0.6,0.7
2024-03-17T0800,2205A,105.6985,38.8411,阿拉善盟,蒙二幼,颗粒物(PM10),68,85,121,45,30,70,,74,74,14,9,6,7,0.5,0.4
2024-03-17T0800,2206A,105.724,38.8516,阿拉善盟,环保局新楼,,,,129,,36,,,93,,,7,,7,,0.6
2024-03-17T0800,2708A,88.1264,47.8517,阿勒泰地区,市站,,26,,11,6,7,83,,82,82,2,6,4,5,0.1,0.1
2024-03-17T0800,2630A,80.1161,32.5,阿里地区,阿里监测站,,24,8,11,5,5,75,,81,81,8,6,15,10,0.5,0.5
2024-03-17T0800,3192A,80.0903,32.5028,阿里地区,阿里藏医院,,24,17,22,10,7,74,,84,84,8,6,15,11,0.5,0.5
2024-03-17T0800,2642A,109.0318,32.6537,安康市,香溪洞,颗粒物(PM10),73,96,70,40,42,47,,49,49,14,19,6,8,0.7,0.8
2024-03-17T0800,2643A,109.0281,32.6939,安康市,安康市监测站,细颗粒物(PM2.5),80,79,90,59,62,6,,14,14,24,32,8,10,0.8,0.8
2024-03-17T0800,2644A,109.0072,32.6975,安康市,汉滨区检察院,细颗粒物(PM2.5),75,86,86,55,57,13,,23,23,24,27,9,10,0.6,0.6
2024-03-17T0800,2291A,117.0809,30.5177,安庆市,环科院,细颗粒物(PM2.5),58,,54,41,40,49,,16,16,17,37,6,9,1.0,0.9
2024-03-17T0800,2292A,117.0331,30.5119,安庆市,马山宾馆,,49,,60,34,43,46,,20,20,17,32,6,8,0.6,0.7
2024-03-17T0800,2294A,116.9896,30.6145,安庆市,安庆大学,,,97,96,59,48,65,,40,40,19,33,7,10,,0.9
2024-03-17T0800,3173A,117.0598,30.5351,安庆市,市人大,细颗粒物(PM2.5),58,,54,41,46,50,,23,23,16,26,5,8,1.1,1
2024-03-17T0800,3122A,105.9606,26.2611,安顺市,伍家关,,,,,,,,,,,,,,,,
2024-03-17T0800,3123A,105.9408,26.2431,安顺市,凤凰山,细颗粒物(PM2.5),77,65,39,56,34,46,,73,73,12,9,17,13,1.2,0.9
2024-03-17T0800,3124A,105.9439,26.2564,安顺市,金钟山,细颗粒物(PM2.5),90,74,42,67,37,45,,76,76,9,8,10,9,0.8,0.7
2024-03-17T0800,3125A,105.8983,26.2481,安顺市,娄家坡,细颗粒物(PM2.5),92,72,44,68,37,46,,79,79,12,8,13,12,0.9,0.8
2024-03-17T0800,1818A,114.4839,36.0621,安阳市,棉研所,,,,,,,,,,,,,,,,
2024-03-17T0800,1819A,114.3551,36.1017,安阳市,红庙街,颗粒物(PM10),109,168,149,23,57,67,,77,77,13,27,5,8,0.6,0.8
2024-03-17T0800,1820A,114.361,36.0681,安阳市,银杏小区,颗粒物(PM10),125,199,154,17,62,66,,74,74,5,19,5,13,0.2,0.6
2024-03-17T0800,3141A,114.3922,36.0878,安阳市,信访局,颗粒物(PM10),120,190,150,10,49,65,,76,76,4,21,1,6,0.5,0.8
2024-03-17T0800,3669A,114.4705,36.0637,安阳市,左辅环卫站,颗粒物(PM10),127,203,163,19,66,55,,68,68,14,20,3,6,0.1,0.5
2024-03-17T0800,3703A,114.2917,36.0949,安阳市,安钢职工学校,颗粒物(PM10),131,212,174,16,58,64,,63,63,14,23,5,8,0,0.3
2024-03-17T0800,1748A,123.044,41.1196,鞍山市,深沟寺,颗粒物(PM10),53,56,148,11,55,69,,70,70,12,21,8,11,0.5,0.9
2024-03-17T0800,1749A,123.011,41.0931,鞍山市,太阳城,颗粒物(PM10),65,80,145,11,54,75,,62,62,12,24,8,14,0.7,1.4
2024-03-17T0800,1750A,123.0485,41.1442,鞍山市,太平,颗粒物(PM10),59,67,161,16,57,68,,70,70,14,24,5,9,0.6,0.9
2024-03-17T0800,1751A,122.9642,41.0971,鞍山市,铁西三道街,颗粒物(PM10),70,90,167,12,67,67,,73,73,20,25,6,8,0.8,0.7
2024-03-17T0800,1752A,122.9341,41.0833,鞍山市,铁西工业园区,颗粒物(PM10),79,107,158,12,67,69,,71,71,15,20,7,9,0.4,0.8
2024-03-17T0800,1753A,123.022,41.0821,鞍山市,明达新区,颗粒物(PM10),85,119,142,15,54,66,,61,61,15,23,9,13,0.5,0.9
2024-03-17T0800,1754A,123.1289,41.0228,鞍山市,千山,,,,,,,,,,,,,,,,
2024-03-17T0800,2195A,107.4212,40.761,巴彦淖尔市,附二中,颗粒物(PM10),54,58,59,24,25,52,,58,58,16,13,3,7,0.5,0.4
2024-03-17T0800,2196A,107.37,40.7372,巴彦淖尔市,市环保大楼,颗粒物(PM10),54,57,56,21,23,38,,60,60,31,13,4,4,0.4,0.3
2024-03-17T0800,1956A,86.1472,41.7538,巴音郭楞蒙古自治州,孔雀公园,,26,26,53,16,15,67,,71,71,11,10,4,4,0.4,0.3
2024-03-17T0800,1957A,86.1972,41.7166,巴音郭楞蒙古自治州,棉纺厂,,44,44,53,9,16,62,,69,69,12,11,2,2,0.3,0.4
2024-03-17T0800,1958A,86.2357,41.7173,巴音郭楞蒙古自治州,经济开发区,,40,40,42,18,14,72,,74,74,8,6,4,4,0.2,0.2
2024-03-17T0800,2914A,106.7677,31.8794,巴中市,苏山坪,颗粒物(PM10),54,57,61,23,30,83,,84,84,5,10,3,3,0.4,0.4
2024-03-17T0800,3182A,106.7656,31.8545,巴中市,丽阳花园,颗粒物(PM10),51,52,72,22,40,79,,56,56,8,39,3,4,0.4,0.8
2024-03-17T0800,3183A,106.7418,31.8654,巴中市,圣泉水务公司,,49,49,60,22,32,80,,80,80,11,23,4,4,0.4,0.5
2024-03-17T0800,3616A,106.7616,31.8344,巴中市,市中心医院,颗粒物(PM10),54,58,75,24,41,72,,50,50,11,37,5,6,0.4,0.7
2024-03-17T0800,2235A,122.7911,45.6077,白城市,洮北区环保局,,30,,26,21,16,73,,82,82,11,10,7,5,0.4,0.4
2024-03-17T0800,2236A,122.8738,45.5725,白城市,市环保局,,35,33,39,24,17,62,,76,76,15,10,3,4,0.6,0.5
2024-03-17T0800,2231A,126.4219,41.9171,白山市,喜丰,,39,39,158,15,30,74,,80,80,12,14,8,12,0.6,0.8
2024-03-17T0800,2232A,126.4077,41.9419,白山市,环保局,,39,39,139,14,34,76,,80,80,3,7,6,9,0.6,0.8
2024-03-17T0800,2647A,104.1724,36.5446,白银市,第三小学,颗粒物(PM10),79,108,128,38,37,59,,71,71,18,9,8,40,0.9,0.7
2024-03-17T0800,2648A,104.1465,36.5482,白银市,动力公司,颗粒物(PM10),81,112,111,34,31,25,,64,64,49,15,8,21,0.8,0.7
2024-03-17T0800,2512A,106.6103,23.9011,百色市,市监测站,细颗粒物(PM2.5),70,74,83,51,45,5,,18,18,21,16,13,18,0.9,0.8
2024-03-17T0800,2513A,106.6538,23.8859,百色市,市中心血站,细颗粒物(PM2.5),74,73,76,54,49,5,,15,15,26,20,6,15,1.1,1
2024-03-17T0800,3406A,106.6085,23.8798,百色市,祈福高中,细颗粒物(PM2.5),79,62,74,58,55,5,,10,10,18,20,8,16,0.9,1
2024-03-17T0800,2270A,117.396,32.939,蚌埠市,工人疗养院,颗粒物(PM10),108,165,150,73,100,63,,77,77,21,35,7,9,0.7,0.7
2024-03-17T0800,2271A,117.3605,32.9427,蚌埠市,百货大楼,颗粒物(PM10),113,175,150,69,95,60,,68,68,24,42,5,6,0.7,0.8
2024-03-17T0800,2273A,117.4185,32.8911,蚌埠市,蚌埠学院,"颗粒物(PM10),细颗粒物(PM2.5)",112,173,128,84,97,52,,87,87,34,37,13,9,0.7,0.7
2024-03-17T0800,2274A,117.3533,32.9673,蚌埠市,淮上区政府,颗粒物(PM10),103,156,141,66,105,63,,79,79,22,33,7,8,0.6,0.7
2024-03-17T0800,2275A,117.3145,32.8977,蚌埠市,高新区,细颗粒物(PM2.5),105,146,118,79,99,70,,82,82,24,37,8,12,0.8,0.9
2024-03-17T0800,3715A,117.3092,32.9314,蚌埠市,蚌埠田家炳中学,颗粒物(PM10),115,180,155,64,95,68,,56,56,31,57,7,9,0.7,0.8
2024-03-17T0800,1585A,109.8756,40.6532,包头市,市环境监测站,,47,47,73,21,16,21,,35,35,51,17,16,9,1.0,0.5
2024-03-17T0800,1587A,109.9991,40.5842,包头市,包头八中,颗粒物(PM10),61,72,92,42,16,17,,27,27,61,21,26,10,2.4,0.8
2024-03-17T0800,1588A,109.8538,40.6821,包头市,青山宾馆,颗粒物(PM10),51,51,65,30,12,8,,31,31,55,18,14,9,0.9,0.4
2024-03-17T0800,1589A,109.8642,40.6288,包头市,惠龙物流,,39,36,64,27,18,32,,43,43,44,18,17,10,0.8,0.5
2024-03-17T0800,1590A,110.0377,40.5546,包头市,东河鸿龙湾,颗粒物(PM10),51,51,76,19,18,16,,17,17,36,24,9,9,0.9,0.6
2024-03-17T0800,3283A,109.9154,40.5685,包头市,滨河大厦,颗粒物(PM10),53,55,51,28,14,9,,16,16,55,22,18,9,1.1,0.6
2024-03-17T0800,3419A,109.9447,40.6261,包头市,包头市委党校,,42,42,72,6,13,20,,35,35,53,22,16,11,1.4,0.8
2024-03-17T0800,3683A,109.8331,40.6576,包头市,昆区政府,,41,41,61,23,13,13,,39,39,51,18,14,9,1.0,0.5
2024-03-17T0800,1930A,107.185,34.3063,宝鸡市,庙沟村,颗粒物(PM10),129,208,350,82,94,,,,,11,7,7,8,0.3,0.3
2024-03-17T0800,1931A,107.0708,34.3017,宝鸡市,竹园沟,颗粒物(PM10),121,192,313,74,85,55,,66,66,17,21,4,4,0.5,0.5
2024-03-17T0800,1932A,107.1906,34.3672,宝鸡市,三陆医院,颗粒物(PM10),134,218,310,80,80,32,,55,55,40,37,10,11,0.4,0.5
2024-03-17T0800,1933A,107.1431,34.3547,宝鸡市,监测站,颗粒物(PM10),141,231,275,73,72,40,,58,58,27,29,6,5,0.5,0.7
2024-03-17T0800,1934A,107.1186,34.3739,宝鸡市,技工学校,颗粒物(PM10),137,224,275,81,86,43,,59,59,23,26,8,7,0.5,0.5
2024-03-17T0800,1935A,107.3906,34.3528,宝鸡市,陈仓区环保局家属楼,颗粒物(PM10),107,164,321,79,85,46,,68,68,31,36,7,9,0.5,0.5
2024-03-17T0800,1936A,107.2058,34.3497,宝鸡市,文理学院,颗粒物(PM10),140,229,307,83,80,40,,64,64,29,32,8,9,0.2,0.4
2024-03-17T0800,1937A,107.2386,34.3622,宝鸡市,三迪小学,颗粒物(PM10),120,189,299,82,78,52,,65,65,28,40,8,9,0.5,0.6
2024-03-17T0800,1051A,115.493,38.8632,保定市,游泳馆,颗粒物(PM10),56,61,117,7,39,70,,75,75,14,17,3,5,0.1,0.2
2024-03-17T0800,1052A,115.5213,38.8959,保定市,华电二区,颗粒物(PM10),57,64,98,16,44,49,,63,63,28,22,3,4,0.1,0.2
2024-03-17T0800,1053A,115.4713,38.9108,保定市,接待中心,,50,50,102,0,37,62,,68,68,11,14,2,3,0.2,0.4
2024-03-17T0800,1054A,115.4612,38.8416,保定市,地表水厂,颗粒物(PM10),72,94,130,4,36,66,,74,74,14,19,2,4,0.4,0.5
2024-03-17T0800,3581A,115.31981,38.95208,保定市,满城区生态环境分局,颗粒物(PM10),65,80,110,17,38,62,,72,72,12,12,1,4,0.1,0.1
2024-03-17T0800,3582A,115.47694,38.76408,保定市,清苑区第二中学,颗粒物(PM10),61,71,124,12,34,61,,66,66,21,23,3,3,0.2,0.3
2024-03-17T0800,3583A,115.62909,39.02311,保定市,徐水物探局,颗粒物(PM10),57,63,144,5,44,64,,70,70,17,15,2,5,0.9,0.9
2024-03-17T0800,4004A,115.4202,38.8656,保定市,双鹰农机,颗粒物(PM10),54,58,99,17,39,72,,76,76,11,19,3,4,0.3,0.4
2024-03-17T0800,4034A,115.5150,38.8590,保定市,植保所站,颗粒物(PM10),54,57,106,22,45,67,,73,73,13,17,3,4,0.5,0.5
2024-03-17T0800,2594A,99.1678,25.1081,保山市,市环境监测站,细颗粒物(PM2.5),67,74,71,48,45,91,,103,103,10,11,7,7,0.8,0.8
2024-03-17T0800,2595A,99.1711,25.1328,保山市,市环保局,细颗粒物(PM2.5),60,59,68,43,44,104,,118,118,5,8,8,8,0.5,0.6
2024-03-17T0800,1866A,109.2262,21.588,北海市,牛尾岭水库,,,,,,,,,,,,,,,,
2024-03-17T0800,1867A,109.1436,21.4086,北海市,海滩公园,,35,34,58,24,33,46,,49,49,6,8,7,8,0.6,0.7
2024-03-17T0800,1868A,109.0981,21.4661,北海市,新市环保局,,33,33,51,19,33,43,,48,48,8,9,6,6,0.5,0.5
2024-03-17T0800,1869A,109.1778,21.5233,北海市,北海工业园,,36,36,55,22,36,43,,47,47,7,8,6,7,0.5,0.5
2024-03-17T0800,3400A,109.1911,21.4415,北海市,龙潭自来水厂,,43,37,55,30,38,42,,47,47,6,6,7,8,0.4,0.5
2024-03-17T0800,1001A,116.3621,39.8784,北京市,万寿西宫,,29,29,89,5,32,70,,78,78,12,15,3,3,0.2,0.3
2024-03-17T0800,1002A,116.2202,40.2915,北京市,定陵,,,,,,,,,,,,,,,,
2024-03-17T0800,1003A,116.4174,39.9289,北京市,东四,,30,30,99,5,32,67,,74,74,10,13,3,2,0.2,0.4
2024-03-17T0800,1004A,116.4072,39.8863,北京市,天坛,,34,34,93,6,31,72,,80,80,11,14,1,3,0.2,0.4
2024-03-17T0800,1005A,116.462,39.9365,北京市,农展馆,,23,21,90,3,31,71,,75,75,9,13,3,3,0.1,0.3
2024-03-17T0800,1006A,116.3392,39.9295,北京市,官园,,34,34,100,5,30,77,,84,84,12,12,2,3,0.3,0.5
2024-03-17T0800,1007A,116.2878,39.9611,北京市,海淀万柳,,38,38,89,5,27,72,,76,76,12,12,2,2,0.3,0.4
2024-03-17T0800,1008A,116.6636,40.135,北京市,顺义新城,,26,26,118,5,32,73,,75,75,8,14,3,4,0.2,0.4
2024-03-17T0800,1009A,116.6275,40.3275,北京市,怀柔镇,,30,30,99,5,29,66,,76,76,14,9,3,4,0.2,0.3
2024-03-17T0800,1010A,116.2296,40.217,北京市,昌平镇,,33,33,105,5,27,68,,76,76,9,14,3,3,0.1,0.3
2024-03-17T0800,1011A,116.3966,39.9821,北京市,奥体中心,,27,27,90,5,31,68,,72,72,12,12,3,3,0.2,0.3
2024-03-17T0800,1012A,116.184,39.9136,北京市,古城,,39,39,101,6,27,65,,78,78,21,12,3,3,0.3,0.4
2024-03-17T0800,3281A,115.9718,40.4529,北京市,延庆夏都,,44,44,91,9,19,41,,65,65,21,7,1,3,0.2,0.2
2024-03-17T0800,3417A,117.0709,40.1465,北京市,平谷新城,,28,22,96,5,32,88,,87,87,12,17,3,4,0.1,0.4
2024-03-17T0800,3418A,116.8336,40.4095,北京市,密云新城,,26,23,107,5,32,83,,83,83,2,9,3,4,0.2,0.4
2024-03-17T0800,3671A,116.088,39.9726,北京市,门头沟三家店,,,,,,,,,,,,,,,,
2024-03-17T0800,3672A,116.1541,39.8204,北京市,丰台云岗,,30,30,96,4,31,70,,74,74,11,10,3,4,0.2,0.3
2024-03-17T0800,3673A,116.6804,39.9081,北京市,通州东关,,33,33,116,5,35,78,,84,84,13,14,3,4,0.2,0.4
2024-03-17T0800,3674A,115.9577,39.7603,北京市,房山燕山,,25,18,77,4,37,78,,85,85,12,13,3,3,0.1,0.4
2024-03-17T0800,3675A,116.4672,39.7733,北京市,大兴旧宫,,24,24,97,4,34,72,,75,75,9,11,3,3,0.2,0.4
2024-03-17T0800,3694A,115.986,40.4563,北京市,延庆石河营,颗粒物(PM10),55,59,88,13,19,36,,70,70,32,8,3,3,0.3,0.2
2024-03-17T0800,3695A,116.6151,40.3053,北京市,怀柔新城,,30,30,102,6,32,71,,80,80,13,10,1,3,0.1,0.2
2024-03-17T0800,3696A,116.2545,39.8768,北京市,丰台小屯,,42,42,104,6,29,58,,71,71,15,8,3,3,0.2,0.3
2024-03-17T0800,3697A,116.84,40.3844,北京市,密云镇,,27,27,110,4,34,76,,78,78,9,10,3,4,0.2,0.4
2024-03-17T0800,1761A,123.8275,41.3064,本溪市,大峪,,43,43,132,9,39,75,,74,74,8,15,8,9,0.7,0.8
2024-03-17T0800,1762A,123.7567,41.3325,本溪市,溪湖,颗粒物(PM10),57,63,134,8,43,74,,73,73,6,16,6,11,0.4,0.7
2024-03-17T0800,1763A,123.7169,41.3094,本溪市,彩屯,,33,33,120,9,53,65,,71,71,14,31,6,21,0.6,1.7
2024-03-17T0800,1764A,123.7669,41.2864,本溪市,东明,,32,32,172,10,45,72,,76,76,15,18,7,8,0.6,0.7
2024-03-17T0800,1765A,123.7992,41.2664,本溪市,新立屯,,38,,150,26,50,77,,78,78,5,11,9,12,0.9,0.9
2024-03-17T0800,1766A,123.8142,41.3472,本溪市,威宁,,28,28,184,6,42,72,,70,70,8,21,6,8,0.5,0.7
2024-03-17T0800,2587A,105.2864,27.3125,毕节市,八中,,29,9,35,5,28,92,,78,78,7,9,6,9,0.7,0.7
2024-03-17T0800,2588A,105.31,27.2944,毕节市,师专,,30,7,34,5,30,94,,80,80,9,12,6,10,0.7,0.6
2024-03-17T0800,3537A,105.3631,27.3533,毕节市,长征村,,33,27,63,22,50,103,,88,88,11,11,7,8,0.7,0.6
2024-03-17T0800,1629A,118.0018,37.3617,滨州市,第二水厂,,46,46,184,9,51,72,,77,77,21,24,5,9,0.5,0.8
2024-03-17T0800,1630A,117.9776,37.393,滨州市,北中新校,,41,41,167,7,48,70,,73,73,20,26,8,13,0.4,0.7
2024-03-17T0800,3514A,117.9378,37.3956,滨州市,中海酒店,,48,48,158,7,60,68,,70,70,17,28,12,15,0.5,0.8
2024-03-17T0800,3515A,117.9378,37.3553,滨州市,开发区一中,,41,41,177,7,49,79,,79,79,25,33,10,16,0.4,0.5
2024-03-17T0800,3516A,118.0917,37.694,滨州市,金海六路,,32,32,184,2,40,82,,80,80,8,23,6,12,0.6,0.7
2024-03-17T0800,4028A,117.9956,37.3753,滨州市,滨州市西街道办事处,,48,48,173,12,58,72,,76,76,19,23,10,14,0.5,0.7
2024-03-17T0800,2311A,115.8072,33.8399,亳州市,污水处理厂,细颗粒物(PM2.5),108,156,113,81,70,71,,83,83,22,22,12,10,0.8,0.7
2024-03-17T0800,2312A,115.7789,33.8518,亳州市,三国揽胜宫,颗粒物(PM10),112,174,129,82,67,68,,90,90,21,17,12,10,0.9,0.8
2024-03-17T0800,3332A,115.7633,33.8034,亳州市,亳州学院,颗粒物(PM10),114,177,129,76,71,75,,100,100,18,15,11,9,0.7,0.7
2024-03-17T0800,2693A,82.0485,44.8556,博尔塔拉蒙古自治州,市党校,,32,32,85,11,15,64,,69,69,4,7,6,6,0.2,0.3
2024-03-17T0800,2694A,82.0806,44.8969,博尔塔拉蒙古自治州,市环保局,,32,32,79,13,14,52,,58,58,9,14,5,6,0.4,0.5
2024-03-17T0800,1071A,116.8842,38.2991,沧州市,沧县城建局,颗粒物(PM10),52,54,143,14,43,72,,76,76,19,21,4,7,0.4,0.5
2024-03-17T0800,1072A,116.8584,38.3254,沧州市,电视转播站,,50,50,139,12,38,67,,68,68,18,17,7,7,0.2,0.3
2024-03-17T0800,1073A,116.8709,38.3228,沧州市,市环保局,颗粒物(PM10),54,58,132,25,47,69,,74,74,22,20,3,8,0.3,0.3
2024-03-17T0800,3324A,116.8136,38.3004,沧州市,河北水利电力学院,,41,41,164,15,42,72,,71,71,12,16,7,9,0.2,0.3
2024-03-17T0800,2622A,97.1806,31.1273,昌都市,昌都监测站,,19,12,16,7,11,59,,63,63,10,10,6,7,0.4,0.5
2024-03-17T0800,3719A,97.1714,31.1406,昌都市,昌都会议中心,,21,7,9,7,9,67,,76,76,4,6,7,7,0.4,0.5
2024-03-17T0800,2690A,88.1236,43.8886,昌吉回族自治州,天山天池,,25,,11,9,13,77,,78,78,4,6,6,6,0.5,0.5
2024-03-17T0800,2692A,87.2717,44.0297,昌吉回族自治州,新区政务中心,,42,36,37,29,24,1,,22,22,53,26,6,6,1.1,0.8
2024-03-17T0800,3613A,87.3095,44.0142,昌吉回族自治州,亚心广场,,42,39,39,29,19,27,,22,22,35,25,3,4,1.1,0.9
2024-03-17T0800,1119A,125.3325,43.9166,长春市,食品厂,,28,,83,19,50,70,,71,71,13,22,7,9,0.3,0.5
2024-03-17T0800,1120A,125.2863,43.9027,长春市,客车厂,,28,21,78,19,45,55,,60,60,26,23,13,8,0.4,0.5
2024-03-17T0800,1121A,125.2841,43.8463,长春市,邮电学院,,22,,90,15,49,68,,69,69,13,20,10,10,0.3,0.5
2024-03-17T0800,1122A,125.3716,43.8772,长春市,劳动公园,,23,16,83,13,48,73,,74,74,11,17,6,7,0.5,0.7
2024-03-17T0800,1123A,125.3297,43.8805,长春市,园林处,,21,9,78,8,45,65,,68,68,14,20,9,10,0.3,0.5
2024-03-17T0800,1124A,125.4605,43.79,长春市,净月潭,,22,9,77,8,48,69,,70,70,10,12,8,8,0.2,0.5
2024-03-17T0800,1125A,125.7194,43.515,长春市,甩湾子,,,,,,,,,,,,,,,,
2024-03-17T0800,1126A,125.3863,43.8447,长春市,经开区环卫处,,23,,80,9,44,71,,72,72,10,16,6,7,0.3,0.5
2024-03-17T0800,1127A,125.245,43.7783,长春市,高新区管委会,,23,11,90,8,48,71,,73,73,10,15,9,10,0.5,0.6
2024-03-17T0800,1128A,125.1761,43.8325,长春市,岱山公园,,23,19,81,16,50,68,,66,66,10,16,7,8,0.3,0.5
2024-03-17T0800,1335A,113.0833,28.2325,长沙市,经开区环保局,细颗粒物(PM2.5),105,,66,79,71,20,,27,27,29,31,4,4,0.6,0.6
2024-03-17T0800,1336A,112.8872,28.2189,长沙市,高开区环保局,细颗粒物(PM2.5),119,,74,90,77,43,,47,47,13,18,3,3,0.9,0.9
2024-03-17T0800,1337A,113.0792,28.2053,长沙市,马坡岭,细颗粒物(PM2.5),117,,68,88,77,18,,20,20,29,35,5,6,0.6,0.7
2024-03-17T0800,1338A,112.9394,28.19,长沙市,湖南师范大学,细颗粒物(PM2.5),119,91,82,90,81,45,,42,42,16,29,2,2,0.8,0.9
2024-03-17T0800,1339A,113.0178,28.1322,长沙市,雨花区环保局,细颗粒物(PM2.5),65,63,65,47,43,32,,27,27,16,30,3,4,1.0,1
2024-03-17T0800,1340A,112.9792,28.2597,长沙市,伍家岭,细颗粒物(PM2.5),118,,85,89,86,38,,34,34,18,25,4,4,0.7,0.8
2024-03-17T0800,1341A,113.0014,28.1944,长沙市,火车新站,细颗粒物(PM2.5),104,78,74,78,68,41,,39,39,17,26,3,3,0.8,0.8
2024-03-17T0800,1342A,112.9844,28.1178,长沙市,天心区环保局,细颗粒物(PM2.5),78,81,78,57,45,29,,26,26,26,32,2,2,0.3,0.4
2024-03-17T0800,1343A,112.8908,28.1308,长沙市,湖南中医药大学,细颗粒物(PM2.5),135,,70,103,81,42,,39,39,14,25,2,2,0.8,0.9
2024-03-17T0800,1344A,112.9581,28.3611,长沙市,沙坪,颗粒物(PM10),77,103,88,40,36,27,,29,29,9,11,4,4,0.7,0.8
2024-03-17T0800,1727A,113.1147,36.1547,长治市,清华站,,40,40,219,7,66,77,,88,88,18,24,9,11,0.4,0.8
2024-03-17T0800,1728A,113.1031,36.1989,长治市,监测站,,39,39,205,9,73,81,,95,95,16,22,11,14,0.3,0.7
2024-03-17T0800,1730A,113.0886,36.2125,长治市,审计局,,41,41,198,2,76,80,,92,92,13,19,11,22,0.3,0.6
2024-03-17T0800,1731A,113.0844,36.1856,长治市,长治八中,,44,44,215,14,65,85,,98,98,17,25,6,9,0.3,0.6
2024-03-17T0800,2845A,113.1569,36.1911,长治市,德盛苑,,48,48,203,7,72,84,,95,95,11,20,8,12,0.5,0.8
2024-03-17T0800,3568A,113.06,36.0464,长治市,向阳小学,,49,49,248,13,81,84,,98,98,13,21,6,10,0.3,0.7
2024-03-17T0800,3569A,112.8792,36.3144,长治市,屯留一中,颗粒物(PM10),62,73,215,22,75,76,,78,78,16,22,8,12,0.5,0.5
2024-03-17T0800,3570A,113.235,36.3489,长治市,潞城四中,颗粒物(PM10),79,108,229,14,71,76,,84,84,16,24,7,8,0.3,0.5
2024-03-17T0800,1854A,111.6975,28.9703,常德市,市二中,,48,39,65,33,44,12,,20,20,19,24,6,7,0.8,0.8
2024-03-17T0800,1857A,111.7158,29.1456,常德市,白鹤山,细颗粒物(PM2.5),99,,67,74,60,33,,18,18,2,6,5,5,0.6,0.6
2024-03-17T0800,3138A,111.7153,29.0289,常德市,武陵区永安,,50,43,60,35,42,16,,23,23,28,30,7,6,0.8,0.8
2024-03-17T0800,3139A,111.6892,28.9881,常德市,鼎城区玉霞,,50,46,77,35,43,6,,13,13,26,30,8,9,0.9,0.8
2024-03-17T0800,3140A,111.6625,29.0531,常德市,武陵区长庚,细颗粒物(PM2.5),57,51,62,40,45,3,,10,10,29,31,7,7,0.8,0.8
2024-03-17T0800,1196A,119.9633,31.762,常州市,市监测站,细颗粒物(PM2.5),74,86,125,54,72,63,,23,23,20,47,8,9,0.1,0.5
2024-03-17T0800,1200A,119.9468,31.7069,常州市,武进监测站,颗粒物(PM10),65,79,113,40,61,71,,27,27,17,46,22,19,0.8,0.9
2024-03-17T0800,1201A,119.9255,31.9087,常州市,安家,细颗粒物(PM2.5),93,107,109,69,71,12,,30,30,41,38,10,10,0.8,0.8
2024-03-17T0800,3002A,119.9805,31.8174,常州市,行政中心,细颗粒物(PM2.5),85,85,100,63,69,42,,25,25,26,38,8,11,0.9,1
2024-03-17T0800,3003A,120.0522,31.7748,常州市,经开区,颗粒物(PM10),78,105,116,55,66,22,,7,7,34,57,6,8,0.5,0.6
2024-03-17T0800,3010A,119.9025,31.7964,常州市,钟楼,细颗粒物(PM2.5),80,90,108,59,69,38,,39,39,26,29,9,9,0.8,0.9
2024-03-17T0800,3429A,119.8598,31.7066,常州市,武进经发区,颗粒物(PM10),65,80,94,38,53,32,,26,26,40,44,7,8,0.9,1
2024-03-17T0800,3430A,119.5826,31.7245,常州市,金坛城区,颗粒物(PM10),56,62,72,37,51,38,,46,46,26,26,8,8,0.8,0.9
2024-03-17T0800,2220A,120.4318,41.5881,朝阳市,西梁,细颗粒物(PM2.5),57,,231,40,49,80,,90,90,19,18,13,13,0.5,0.6
2024-03-17T0800,2221A,120.4521,41.5646,朝阳市,河畔小区,,37,37,260,22,43,75,,87,87,18,14,8,8,0.6,0.6
2024-03-17T0800,2222A,120.4176,41.5648,朝阳市,八里堡,细颗粒物(PM2.5),52,39,282,36,56,76,,89,89,19,17,12,12,0.6,0.6
2024-03-17T0800,2223A,120.3806,41.5969,朝阳市,农业园区,,49,35,280,34,56,78,,87,87,13,16,6,8,0.5,0.6
2024-03-17T0800,1705A,116.6367,23.6719,潮州市,西园路,,49,47,105,34,69,8,,10,10,16,36,4,9,0.7,1.1
2024-03-17T0800,3026A,116.6183,23.6608,潮州市,市政府,细颗粒物(PM2.5),68,,128,49,94,11,,8,8,28,55,8,26,1.3,1.7
2024-03-17T0800,4036A,116.6461,23.6761,潮州市,金山,细颗粒物(PM2.5),55,48,90,39,67,2,,6,6,24,37,7,10,1.0,1.2
2024-03-17T0800,2472A,113.0073,25.9061,郴州市,马头岭,颗粒物(PM10),51,51,45,28,18,13,,15,15,18,18,7,11,1.0,0.9
2024-03-17T0800,2473A,113.0116,25.8226,郴州市,市职中,细颗粒物(PM2.5),68,62,36,49,29,7,,11,11,19,14,8,10,1.0,0.8
2024-03-17T0800,2474A,113.0161,25.8001,郴州市,兴隆步行街,细颗粒物(PM2.5),64,66,44,46,31,8,,13,13,22,15,7,8,1.2,1
2024-03-17T0800,2475A,113.0383,25.8071,郴州市,市审计局,细颗粒物(PM2.5),63,57,34,45,29,4,,10,10,24,17,9,10,1.0,0.8
2024-03-17T0800,2476A,113.0348,25.7759,郴州市,市环保局,细颗粒物(PM2.5),84,69,50,62,40,8,,19,19,23,22,12,16,1.0,1
2024-03-17T0800,1431A,103.9728,30.7236,成都市,金泉两河,颗粒物(PM10),111,172,126,63,49,48,,69,69,18,13,1,2,0.3,0.4
2024-03-17T0800,1432A,104.176,30.6872,成都市,十里店,颗粒物(PM10),102,154,135,49,48,64,,70,70,17,22,2,2,0.4,0.5
2024-03-17T0800,1433A,104.079,30.5706,成都市,三瓦窑,颗粒物(PM10),90,130,140,44,52,74,,74,74,11,26,2,2,0.4,0.6
2024-03-17T0800,1434A,104.1114,30.63,成都市,沙河铺,颗粒物(PM10),92,134,131,48,51,69,,70,70,14,23,3,4,0.5,0.5
2024-03-17T0800,1437A,104.0786,30.6531,成都市,君平街,颗粒物(PM10),101,151,146,41,49,66,,75,75,19,25,5,4,0.3,0.5
2024-03-17T0800,1438A,103.613,31.0283,成都市,灵岩寺,颗粒物(PM10),59,67,53,24,24,74,,84,84,12,13,6,5,0.5,0.6
2024-03-17T0800,2880A,104.0239,30.65639,成都市,大石西路,颗粒物(PM10),98,146,143,48,46,63,,76,76,8,15,5,5,0.5,0.7
2024-03-17T0800,3136A,104.2725,30.5589,成都市,龙泉驿区区政府,颗粒物(PM10),113,175,136,56,52,57,,66,66,14,22,2,3,0.6,0.7
2024-03-17T0800,3357A,104.0106,30.6931,成都市,金博路,颗粒物(PM10),124,197,137,63,50,46,,70,70,19,14,1,2,0.5,0.5
2024-03-17T0800,3359A,104.0578,30.5225,成都市,华阳,颗粒物(PM10),92,134,141,58,58,73,,74,74,12,27,2,2,0.4,0.6
2024-03-17T0800,3487A,104.2394,30.5319,成都市,车城东七路,颗粒物(PM10),130,209,136,62,54,67,,68,68,14,25,3,4,0.4,0.5
2024-03-17T0800,3488A,104.3853,30.7453,成都市,青白江技师分院,颗粒物(PM10),104,158,150,58,56,34,,62,62,39,23,3,4,0.6,0.7
2024-03-17T0800,3489A,104.0789,30.4072,成都市,科学城,颗粒物(PM10),123,196,128,56,53,75,,78,78,12,25,3,3,0.4,0.5
2024-03-17T0800,4011A,103.8506,30.6947,成都市,光华大道三段,颗粒物(PM10),106,162,134,53,52,42,,62,62,15,10,3,2,0.4,0.5
2024-03-17T0800,1062A,117.9531,40.9081,承德市,铁路,,40,40,156,2,25,66,,81,81,22,15,5,7,0.3,0.3
2024-03-17T0800,1063A,117.9392,40.9763,承德市,中国银行,,24,24,157,4,23,48,,74,74,31,14,7,9,0.4,0.3
2024-03-17T0800,1064A,117.9503,40.928,承德市,开发区,,42,42,150,19,29,57,,81,81,29,15,5,8,0.4,0.4
2024-03-17T0800,1065A,117.8051,40.9655,承德市,文化中心,,46,46,166,6,25,77,,82,82,16,14,4,7,0.2,0.3
2024-03-17T0800,1066A,117.9268,41.0026,承德市,离宫,,40,,130,28,30,70,,80,80,6,6,1,4,0.3,0.3
2024-03-17T0800,2314A,117.47,30.6618,池州市,池州学院,细颗粒物(PM2.5),63,55,65,45,46,5,,22,22,59,41,7,13,0.9,1.2
2024-03-17T0800,3237A,117.4918,30.6617,池州市,展览馆,细颗粒物(PM2.5),59,61,60,42,40,6,,16,16,47,27,4,10,0.9,1.1
2024-03-17T0800,3333A,117.5627,30.695,池州市,第八中学,细颗粒物(PM2.5),69,72,59,50,38,11,,21,21,47,26,4,9,0.9,1
2024-03-17T0800,3334A,117.5038,30.6243,池州市,第十二中学,细颗粒物(PM2.5),59,52,58,42,40,5,,14,14,42,29,4,10,0.9,1
2024-03-17T0800,1744A,118.9233,42.2816,赤峰市,松山一中,,29,29,250,8,22,71,,80,80,17,11,6,7,0.4,0.4
2024-03-17T0800,1745A,118.9576,42.2728,赤峰市,哈达街,,25,25,229,5,30,62,,76,76,22,15,8,9,0.5,0.5
2024-03-17T0800,1746A,118.8788,42.2554,赤峰市,天义路,,18,18,234,11,26,52,,69,69,29,11,5,6,0.5,0.4
2024-03-17T0800,3058A,119.2658,42.0353,赤峰市,银河街,,35,35,124,24,47,59,,70,70,25,15,26,15,0.9,0.6
2024-03-17T0800,3286A,118.9359,42.3147,赤峰市,桥北物流园区,,33,,194,23,35,62,,78,78,28,10,6,5,0.3,0.3
2024-03-17T0800,2521A,107.3476,22.4136,崇左市,市环保局江州分局,,40,40,48,23,23,3,,3,3,13,12,7,7,0.6,0.7
2024-03-17T0800,2522A,107.3702,22.3707,崇左市,城南新区,,34,34,39,20,25,5,,8,8,16,14,6,6,0.5,0.6
2024-03-17T0800,2298A,118.3093,32.3153,滁州市,老年大学,细颗粒物(PM2.5),120,117,107,91,95,56,,70,70,27,30,28,12,0.7,0.8
2024-03-17T0800,2299A,118.3244,32.2786,滁州市,人大宾馆,细颗粒物(PM2.5),133,126,129,101,91,65,,74,74,26,34,7,8,0.9,0.9
2024-03-17T0800,3207A,118.3118,32.3038,滁州市,市政府原办公楼,细颗粒物(PM2.5),132,132,124,100,91,56,,73,73,32,32,15,8,0.8,0.8
2024-03-17T0800,3331A,118.3267,32.2634,滁州市,图书馆,细颗粒物(PM2.5),135,133,118,103,88,59,,75,75,34,31,7,8,1.0,1
2024-03-17T0800,2605A,101.5482,25.0441,楚雄彝族自治州,州环境监测站,细颗粒物(PM2.5),82,61,54,60,43,74,,123,123,31,12,11,8,0.9,0.7
2024-03-17T0800,2606A,101.538,25.0492,楚雄彝族自治州,市经济开发区,细颗粒物(PM2.5),74,66,56,54,41,62,,110,110,30,13,7,7,0.8,0.7
2024-03-17T0800,2548A,107.5277,31.2827,达州市,达州职业技术学院,颗粒物(PM10),91,131,80,34,30,43,,56,56,26,26,9,12,0.4,0.5
2024-03-17T0800,2549A,107.5086,31.2186,达州市,市环境监测站,颗粒物(PM10),88,126,72,41,30,41,,57,57,43,37,8,11,0.8,0.8
2024-03-17T0800,2550A,107.4988,31.2132,达州市,凤凰小区,颗粒物(PM10),96,141,74,51,36,50,,59,59,34,32,8,11,0.7,0.7
2024-03-17T0800,2551A,107.5082,31.1986,达州市,达县机关宾馆,颗粒物(PM10),90,129,66,39,34,52,,48,48,35,43,6,8,0.5,0.6
2024-03-17T0800,2552A,107.4644,31.2124,达州市,市政中心,颗粒物(PM10),88,125,68,39,33,52,,37,37,37,42,9,12,0.4,0.6
2024-03-17T0800,2614A,100.1542,25.7054,大理白族自治州,大理市环境监测站,细颗粒物(PM2.5),67,59,54,48,38,121,,132,132,11,11,8,7,0.7,0.6
2024-03-17T0800,2615A,100.2171,25.5811,大理白族自治州,大理古城,细颗粒物(PM2.5),59,54,48,42,36,73,,115,115,40,13,6,7,0.7,0.6
2024-03-17T0800,1109A,121.612,38.9741,大连市,甘井子,颗粒物(PM10),71,92,86,14,35,82,,90,90,11,31,4,6,0.5,0.6
2024-03-17T0800,1110A,121.565,38.9511,大连市,周水子,颗粒物(PM10),66,81,80,16,36,75,,85,85,9,26,4,12,0.7,0.8
2024-03-17T0800,1111A,121.5637,38.8845,大连市,星海三站,颗粒物(PM10),72,94,78,18,32,68,,78,78,10,24,4,6,0.6,0.6
2024-03-17T0800,1112A,121.6302,38.9117,大连市,青泥洼桥,颗粒物(PM10),73,95,87,14,32,79,,89,89,9,21,7,11,0.6,0.8
2024-03-17T0800,1113A,121.6251,38.8638,大连市,傅家庄,颗粒物(PM10),63,75,74,15,28,77,,85,85,11,26,8,11,0.5,0.5
2024-03-17T0800,1114A,121.5213,38.8661,大连市,七贤岭,颗粒物(PM10),77,104,89,18,31,84,,96,96,9,26,8,11,0.5,0.5
2024-03-17T0800,1115A,121.2529,38.8061,大连市,旅顺,颗粒物(PM10),75,99,68,21,34,70,,80,80,8,23,7,8,0.7,0.7
2024-03-17T0800,1116A,121.7485,39.1311,大连市,金州,颗粒物(PM10),63,75,84,14,36,76,,84,84,10,24,10,14,0.6,0.7
2024-03-17T0800,1117A,121.7811,39.0496,大连市,开发区,颗粒物(PM10),71,92,82,12,30,73,,79,79,10,31,2,6,0.4,0.4
2024-03-17T0800,1118A,121.9762,39.0631,大连市,双D港,颗粒物(PM10),57,63,106,12,26,78,,84,84,12,30,6,8,0.5,0.5
2024-03-17T0800,1789A,124.81117,46.03138,大庆市,大同区,,33,,23,23,23,62,,69,69,9,9,5,6,0.4,0.4
2024-03-17T0800,1790A,125.129,46.533,大庆市,龙凤区,,38,,29,26,19,56,,65,65,24,11,7,4,0.4,0.2
2024-03-17T0800,1791A,124.902,46.408,大庆市,红岗区,,19,12,24,11,20,60,,69,69,9,7,5,6,0.4,0.4
2024-03-17T0800,1792A,125.153,46.586,大庆市,萨尔图区,,18,,17,9,10,57,,66,66,17,6,8,8,0.5,0.4
2024-03-17T0800,1793A,124.9042,46.6215,大庆市,让胡路区,,23,23,31,15,16,60,,69,69,16,8,8,8,0.6,0.4
2024-03-17T0800,3481A,125.141,46.634,大庆市,萨区政府监测点,,20,,18,14,13,48,,67,67,28,8,7,9,0.4,0.4
2024-03-17T0800,1721A,113.3819,40.1097,大同市,果树场,,,,,,,,,,,,,,,,
2024-03-17T0800,1723A,113.2994,40.0758,大同市,云冈宾馆,颗粒物(PM10),54,57,78,17,19,40,,60,60,25,11,27,8,1.1,0.7
2024-03-17T0800,1724A,113.3444,40.0917,大同市,大同大学,颗粒物(PM10),52,54,90,17,21,33,,55,55,28,9,36,12,0.7,0.4
2024-03-17T0800,1725A,113.2661,40.1269,大同市,安家小村,颗粒物(PM10),63,75,97,28,17,22,,53,53,32,9,27,12,1.5,0.3
2024-03-17T0800,1726A,113.2711,40.0844,大同市,教育学院,颗粒物(PM10),60,70,97,18,21,14,,47,47,45,15,19,9,1.2,0.4
2024-03-17T0800,3282A,113.3397,40.0597,大同市,大同市卫生学校,颗粒物(PM10),52,54,104,19,20,31,,62,62,32,8,26,7,1.1,0.5
2024-03-17T0800,3565A,113.1367,40.1122,大同市,云冈站,颗粒物(PM10),54,58,95,21,22,17,,33,33,31,16,37,14,0.7,0.4
2024-03-17T0800,3566A,113.1186,40.2556,大同市,图书馆,颗粒物(PM10),51,52,99,23,24,25,,36,36,14,12,16,11,0.8,0.5
2024-03-17T0800,3567A,113.5931,40.0461,大同市,区一中,颗粒物(PM10),66,81,94,26,21,29,,47,47,19,10,8,4,0.7,0.5
2024-03-17T0800,3676A,113.2802,40.0995,大同市,第二人民医院,颗粒物(PM10),62,74,101,25,22,21,,52,52,42,14,23,10,1.2,0.6
2024-03-17T0800,2269A,124.1069,50.4097,大兴安岭地区,科技局,,29,,17,20,17,62,,62,62,4,6,7,7,0.5,0.5
2024-03-17T0800,3663A,124.1164,50.4278,大兴安岭地区,红旗社区,,28,22,15,19,9,42,,42,42,19,14,13,10,0.6,0.5
2024-03-17T0800,1600A,124.3303,40.0625,丹东市,江湾东路,颗粒物(PM10),67,83,69,16,31,67,,72,72,16,15,7,10,0.5,0.6
2024-03-17T0800,1601A,124.4256,40.1503,丹东市,临江后街,颗粒物(PM10),55,59,75,10,34,66,,71,71,14,14,8,11,0.7,1
2024-03-17T0800,1602A,124.3933,40.1461,丹东市,元宝山,颗粒物(PM10),54,57,67,12,31,64,,67,67,12,17,6,9,0.5,0.6
2024-03-17T0800,1603A,124.3633,40.1092,丹东市,民主桥,颗粒物(PM10),67,83,73,11,28,63,,67,67,15,14,8,10,0.5,0.6
2024-03-17T0800,3541A,109.5726,19.5167,儋州市,第一中学子站,,38,37,38,26,24,36,,45,45,10,7,10,8,0.7,0.6
2024-03-17T0800,3542A,109.5567,19.5187,儋州市,东坡学校子站,,33,32,35,23,23,31,,38,38,6,6,8,9,0.5,0.5
2024-03-17T0800,2616A,98.5842,24.428,德宏傣族景颇族自治州,德宏州监测站,细颗粒物(PM2.5),114,113,99,86,64,8,,39,39,55,31,25,5,1.0,0.9
2024-03-17T0800,3677A,98.5881,24.4368,德宏傣族景颇族自治州,芒市人民政府综合楼,细颗粒物(PM2.5),94,89,91,70,60,57,,70,70,19,18,7,6,1.0,0.9
2024-03-17T0800,1901A,104.4239,31.1208,德阳市,东山公园,颗粒物(PM10),60,70,123,26,56,80,,74,74,6,26,3,4,0.3,0.5
2024-03-17T0800,1902A,104.3826,31.1317,德阳市,西小区,颗粒物(PM10),70,89,126,35,58,72,,70,70,13,26,3,5,0.4,0.6
2024-03-17T0800,1904A,104.3553,31.1091,德阳市,耐火材料厂,颗粒物(PM10),63,75,128,38,58,66,,68,68,16,21,3,7,0.3,0.5
2024-03-17T0800,3639A,104.4019,31.1244,德阳市,市教育局,颗粒物(PM10),63,76,116,32,58,74,,72,72,10,23,1,5,0.3,0.5
2024-03-17T0800,1622A,116.3032,37.4674,德州市,儿童乐园,颗粒物(PM10),84,117,175,19,48,59,,67,67,25,25,7,9,0.3,0.6
2024-03-17T0800,1624A,116.2991,37.4451,德州市,监理站,颗粒物(PM10),79,107,171,12,45,71,,75,75,20,22,6,11,0.3,0.5
2024-03-17T0800,3066A,116.2721,37.4379,德州市,九衢泉纯净水厂,颗粒物(PM10),76,102,168,14,41,69,,74,74,24,24,6,8,0.3,0.6
2024-03-17T0800,3371A,116.3728,37.4403,德州市,开发区人民医院,颗粒物(PM10),87,124,178,9,41,64,,67,67,13,23,6,9,0.3,0.5
2024-03-17T0800,3372A,116.3572,37.4094,德州市,太阳城中学,颗粒物(PM10),82,114,178,14,46,65,,68,68,17,20,5,8,0.3,0.6
2024-03-17T0800,3511A,116.5652,37.3319,德州市,陵城艺术中心,颗粒物(PM10),80,110,166,9,47,67,,69,69,14,17,3,8,0.4,0.7
2024-03-17T0800,2621A,99.7056,27.8317,迪庆藏族自治州,迪庆州站,,39,37,40,27,25,79,,92,92,13,12,10,8,0.4,0.4
2024-03-17T0800,3180A,99.7136,27.8094,迪庆藏族自治州,质量技术监督局,,43,35,40,30,18,78,,96,96,14,11,6,6,0.7,0.5
2024-03-17T0800,2663A,104.6241,35.5734,定西市,东关小学,颗粒物(PM10),67,83,141,44,36,56,,58,58,15,12,8,8,0.4,0.4
2024-03-17T0800,2664A,104.6194,35.5934,定西市,供电公司,颗粒物(PM10),67,83,122,37,38,42,,56,56,24,12,10,9,0.3,0.2
2024-03-17T0800,1389A,113.7547,23.0494,东莞市,莞城梨川,颗粒物(PM10),55,59,88,37,53,17,,18,18,37,51,7,9,0.7,0.9
2024-03-17T0800,1390A,113.7944,23.0128,东莞市,东城石井,,41,41,60,26,36,6,,9,9,29,31,7,8,0.7,0.8
2024-03-17T0800,1391A,113.7383,22.9658,东莞市,南城西平,颗粒物(PM10),54,57,74,32,41,11,,7,7,39,51,9,9,0.7,0.8
2024-03-17T0800,3319A,113.7338,23.0381,东莞市,万江金泰,颗粒物(PM10),54,58,101,36,61,14,,16,16,30,53,9,10,0.8,1
2024-03-17T0800,3626A,113.7533,23.0202,东莞市,南城元岭,,,48,86,28,46,17,,19,19,,51,7,9,0.8,1
2024-03-17T0800,3627A,113.7875,23.0457,东莞市,东城主山,颗粒物(PM10),55,60,72,38,42,6,,10,10,39,47,7,8,0.7,0.8
2024-03-17T0800,1666A,118.6614,37.4309,东营市,市环保局,颗粒物(PM10),60,70,140,5,35,83,,84,84,14,21,7,10,0.4,0.4
2024-03-17T0800,3036A,118.6904,37.4338,东营市,开发区管委会,颗粒物(PM10),65,79,145,9,40,75,,76,76,22,30,2,5,0.5,0.5
2024-03-17T0800,3365A,118.5719,37.565,东营市,垦利区民丰路,颗粒物(PM10),56,61,135,7,34,70,,76,76,18,26,11,13,0.6,0.6
2024-03-17T0800,3498A,118.5055,37.8612,东营市,河口城区,颗粒物(PM10),58,66,168,17,44,75,,80,80,14,16,6,8,0.6,0.7
2024-03-17T0800,3646A,118.4978,37.4623,东营市,胜利站,颗粒物(PM10),60,70,165,9,43,74,,80,80,16,23,10,12,0.5,0.6
2024-03-17T0800,3734A,118.35,37.26,东营市,理想之城,颗粒物(PM10),59,68,150,12,42,66,,74,74,19,32,3,8,0.6,0.7
2024-03-17T0800,1591A,110.0023,39.8129,鄂尔多斯市,综合楼,颗粒物(PM10),53,56,92,7,21,52,,65,65,36,20,7,3,0.8,0.5
2024-03-17T0800,1592A,109.9486,39.8261,鄂尔多斯市,巴音孟克林场办事处,,46,46,92,9,20,54,,61,61,32,26,11,9,0.6,0.5
2024-03-17T0800,1593A,109.7736,39.5986,鄂尔多斯市,康泽苑,,48,48,77,9,17,24,,41,41,28,16,6,7,0.5,0.5
2024-03-17T0800,1594A,109.8119,39.5989,鄂尔多斯市,华泰汽车城,,36,36,80,17,22,11,,24,24,35,23,5,7,0.5,0.4
2024-03-17T0800,1595A,109.9734,39.7884,鄂尔多斯市,奥林花园,颗粒物(PM10),54,58,90,14,16,19,,53,53,59,22,8,7,0.8,0.6
2024-03-17T0800,2436A,114.8938,30.3994,鄂州市,市政府,细颗粒物(PM2.5),78,79,92,57,58,63,,42,42,17,37,9,13,1.1,1.2
2024-03-17T0800,2437A,114.8989,30.3714,鄂州市,赵家坝,细颗粒物(PM2.5),87,79,88,64,58,65,,50,50,12,28,5,9,1.0,1.1
2024-03-17T0800,3654A,114.8094,30.4089,鄂州市,精准医疗中心,细颗粒物(PM2.5),79,89,107,58,59,62,,38,38,13,29,4,8,0.7,0.9
2024-03-17T0800,2454A,109.4978,30.2981,恩施土家族苗族自治州,湖北民院,,49,49,54,32,40,10,,22,22,26,22,7,8,1.4,1.3
2024-03-17T0800,2455A,109.4707,30.2798,恩施土家族苗族自治州,州电力总公司,,49,,42,34,36,4,,14,14,20,21,7,8,1.1,1
2024-03-17T0800,3549A,109.5061,30.3772,恩施土家族苗族自治州,龙凤新区,,48,34,52,33,44,8,,19,19,16,24,7,7,0.9,0.9
2024-03-17T0800,2499A,108.3411,21.6158,防城港市,沙万,,32,29,56,22,36,21,,26,26,27,31,4,6,0.8,0.9
2024-03-17T0800,2500A,108.3514,21.7731,防城港市,防城档案局,,48,48,56,22,33,19,,13,13,19,20,5,6,0.9,1
2024-03-17T0800,2501A,108.3506,21.6414,防城港市,大海花园,,20,20,48,12,28,28,,37,37,17,20,3,4,0.7,0.8
2024-03-17T0800,1371A,113.1294,23.0067,佛山市,湾梁,颗粒物(PM10),58,66,107,27,42,4,,4,4,44,62,9,8,0.7,0.9
2024-03-17T0800,1372A,113.1083,23.0478,佛山市,华材职中,,46,46,106,29,55,5,,4,4,38,62,8,10,0.6,1
2024-03-17T0800,1373A,113.144,23.0453,佛山市,南海气象局,颗粒物(PM10),51,51,81,31,51,2,,1,1,48,62,9,8,0.7,0.9
2024-03-17T0800,1374A,113.2881,22.8094,佛山市,顺德苏岗,颗粒物(PM10),53,56,72,34,40,0,,4,4,52,51,4,4,0.8,0.7
2024-03-17T0800,1376A,112.8383,22.8678,佛山市,高明孔堂,颗粒物(PM10),62,73,127,34,62,7,,5,5,42,73,4,5,0.9,1.1
2024-03-17T0800,1377A,112.8836,23.1588,佛山市,三水监测站,颗粒物(PM10),78,105,111,40,58,2,,1,1,55,69,11,8,1.4,1.2
2024-03-17T0800,1378A,112.867,23.185,佛山市,三水云东海,细颗粒物(PM2.5),74,66,77,54,72,2,,2,2,16,42,5,4,1.1,1
2024-03-17T0800,3625A,113.2544,22.7642,佛山市,容桂街道办,颗粒物(PM10),56,61,78,31,38,5,,13,13,54,55,6,6,0.5,0.6
2024-03-17T0800,1280A,119.3903,26.0543,福州市,鼓山,,,,,,,,,,,,,,,,
2024-03-17T0800,1282A,119.2681,26.0504,福州市,师大,细颗粒物(PM2.5),55,39,31,39,29,8,,5,5,23,35,3,3,0.7,0.8
2024-03-17T0800,1283A,119.2984,26.1028,福州市,五四北路,细颗粒物(PM2.5),57,,27,40,32,10,,6,6,27,39,3,3,0.9,1.1
2024-03-17T0800,1284A,119.2648,26.0768,福州市,杨桥西路,细颗粒物(PM2.5),53,,26,37,26,8,,4,4,24,33,3,3,0.7,0.8
2024-03-17T0800,1285A,119.317,26.0746,福州市,紫阳,细颗粒物(PM2.5),55,,40,39,39,8,,6,6,26,40,2,2,0.9,1.1
2024-03-17T0800,3048A,119.5799,26.0936,福州市,九龙,,32,29,30,22,29,9,,14,14,34,30,2,3,0.6,0.6
2024-03-17T0800,3526A,119.5189,25.9664,福州市,吴航,,42,34,36,29,29,10,,9,9,27,32,4,3,0.9,0.8
2024-03-17T0800,1755A,123.7977,41.8491,抚顺市,望花区,,,26,230,,62,80,,80,80,6,20,6,10,0.4,0.7
2024-03-17T0800,1756A,123.9161,41.8822,抚顺市,顺城区,,27,23,200,8,46,84,,86,86,10,23,4,8,0.4,0.8
2024-03-17T0800,1757A,124.0436,41.8611,抚顺市,东洲区,,26,13,181,6,43,83,,82,82,6,13,7,8,0.4,0.6
2024-03-17T0800,1758A,123.9247,41.8642,抚顺市,新抚区,,26,23,215,8,52,82,,85,85,7,14,5,6,0.4,0.7
2024-03-17T0800,1759A,124.0972,41.8961,抚顺市,大伙房水库,,26,22,196,7,42,82,,82,82,7,13,5,6,0.3,0.5
2024-03-17T0800,1760A,123.7086,41.8391,抚顺市,沈抚新城,,28,28,242,8,59,78,,77,77,5,17,4,8,0.3,0.6
2024-03-17T0800,2376A,116.2127,28.0814,抚州市,桐源党溪,,26,25,25,18,16,12,,6,6,15,17,4,8,0.9,0.8
2024-03-17T0800,2377A,116.3544,27.9831,抚州市,市站,,30,29,35,21,21,8,,4,4,20,28,4,8,1.1,1.1
2024-03-17T0800,2378A,116.3565,27.963,抚州市,血防站,,29,28,35,20,21,8,,5,5,28,34,8,6,1.1,1.1
2024-03-17T0800,2379A,116.3564,28.0007,抚州市,采茶剧团,,40,32,32,28,22,11,,7,7,25,35,5,9,1.1,1.1
2024-03-17T0800,2380A,116.385,27.9647,抚州市,医学分院,,26,26,31,18,16,11,,8,8,29,36,8,9,1.3,1.2
2024-03-17T0800,2207A,121.6094,41.998,阜新市,工业园区,,30,30,308,18,72,63,,74,74,18,26,7,18,0.8,0.9
2024-03-17T0800,2208A,121.6697,42.0279,阜新市,长青街,,23,23,293,15,75,70,,74,74,12,25,4,16,0.4,0.7
2024-03-17T0800,2209A,121.6673,42.0705,阜新市,农业园区,,24,18,297,9,68,75,,79,79,11,22,8,15,0.5,0.7
2024-03-17T0800,2210A,121.6717,42.0224,阜新市,东苑,细颗粒物(PM2.5),235,,280,185,93,68,,74,74,14,30,7,21,0.9,1
2024-03-17T0800,2211A,121.6506,42.0498,阜新市,玉龙新城,,21,,303,10,60,66,,71,71,12,24,6,17,0.3,0.5
2024-03-17T0800,2301A,115.8277,32.8929,阜阳市,市监测站,细颗粒物(PM2.5),143,163,139,109,98,80,,65,65,22,38,10,9,0.8,0.8
2024-03-17T0800,2303A,115.8554,32.8605,阜阳市,开发区,细颗粒物(PM2.5),158,186,152,120,105,69,,64,64,27,37,8,8,0.7,0.7
2024-03-17T0800,2875A,115.784,32.8892,阜阳市,阜阳职业技术学院,细颗粒物(PM2.5),144,151,138,110,87,83,,66,66,23,36,9,7,0.8,0.8
2024-03-17T0800,3468A,115.7901,32.8613,阜阳市,市规划展馆,细颗粒物(PM2.5),132,118,104,100,88,83,,79,79,26,35,10,8,0.7,0.7
2024-03-17T0800,3469A,115.836,32.9183,阜阳市,枣园社区,细颗粒物(PM2.5),145,,106,111,95,74,,60,60,28,44,12,12,0.8,0.8
2024-03-17T0800,2669A,102.9099,34.9841,甘南藏族自治州,州政府,颗粒物(PM10),61,72,161,26,49,50,,72,72,29,11,16,10,0.5,0.3
2024-03-17T0800,3380A,102.8914,34.9617,甘南藏族自治州,甘肃民族师范学院,颗粒物(PM10),71,92,184,36,49,65,,68,68,21,13,6,11,0.5,0.4
2024-03-17T0800,2570A,101.9603,30.0475,甘孜藏族自治州,水桥子,,28,19,11,19,8,31,,36,36,24,16,10,11,0.4,0.4
2024-03-17T0800,3065A,101.9533,29.9972,甘孜藏族自治州,州环保局,,35,35,17,5,6,36,,39,39,27,17,8,8,0.4,0.4
2024-03-17T0800,3414A,115.8347,28.932,赣江新区,桑海产业园,,45,44,45,31,32,23,,17,17,23,33,5,6,0.5,0.6
2024-03-17T0800,2362A,114.9017,25.9149,赣州市,通天岩,,,,,,,,,,,,,,,,
2024-03-17T0800,2363A,114.9367,25.8664,赣州市,地委,,37,37,45,24,27,2,,4,4,23,24,10,13,0.9,0.9
2024-03-17T0800,2364A,114.9461,25.8481,赣州市,气象台,,49,43,40,34,29,2,,10,10,28,27,14,16,0.9,0.6
2024-03-17T0800,2365A,114.9322,25.8333,赣州市,市图书馆,,47,47,44,28,26,2,,8,8,26,28,7,10,1.0,0.9
2024-03-17T0800,2366A,114.8905,25.8471,赣州市,华坚鞋城,,50,50,50,25,30,0,,7,7,26,25,8,9,1.1,0.8
2024-03-17T0800,3109A,115.0093,25.8613,赣州市,赣县区卫计委,,33,33,47,22,32,8,,8,8,16,23,8,8,0.8,0.8
2024-03-17T0800,2683A,106.2319,36.1417,固原市,马园,颗粒物(PM10),80,109,196,33,49,20,,51,51,52,27,4,4,0.2,0.2
2024-03-17T0800,2684A,106.2792,36.0022,固原市,监测站,颗粒物(PM10),76,102,186,34,50,45,,70,70,23,18,6,6,0.5,0.4
2024-03-17T0800,2685A,106.2375,36.0211,固原市,新区,颗粒物(PM10),79,108,175,31,42,54,,73,73,23,14,7,7,0.5,0.4
2024-03-17T0800,3522A,106.2177,35.9959,固原市,原州区十五小,颗粒物(PM10),81,112,188,30,46,77,,88,88,18,13,8,8,0.3,0.3
2024-03-17T0800,2543A,106.6308,30.5278,广安市,小平旧居,,,,,,,,,,,,,,,,
2024-03-17T0800,2544A,106.6303,30.4576,广安市,市委,颗粒物(PM10),68,86,66,37,38,50,,66,66,20,21,4,5,0.7,0.7
2024-03-17T0800,2545A,106.6271,30.4663,广安市,友谊中学,颗粒物(PM10),65,80,58,39,38,51,,71,71,24,22,5,6,0.7,0.8
2024-03-17T0800,2547A,106.6388,30.4551,广安市,广电花园,细颗粒物(PM2.5),60,59,60,43,40,45,,65,65,25,22,7,7,0.8,0.7
2024-03-17T0800,2902A,106.6351,30.4865,广安市,北辰小学,颗粒物(PM10),75,100,68,44,44,45,,67,67,26,20,7,8,0.8,0.8
2024-03-17T0800,2523A,105.8945,32.4535,广元市,黑石坡,,31,31,221,9,70,92,,93,93,8,9,4,4,0.3,0.3
2024-03-17T0800,2524A,105.821,32.4444,广元市,老城,,38,38,280,19,68,76,,82,82,11,19,3,2,0.3,0.4
2024-03-17T0800,2526A,105.8628,32.4287,广元市,监测站,,41,41,233,24,68,86,,89,89,6,12,4,5,0.4,0.4
2024-03-17T0800,3617A,105.8047,32.4166,广元市,经开区,颗粒物(PM10),53,56,301,23,74,73,,81,81,16,21,3,4,0.4,0.5
2024-03-17T0800,1345A,113.2347,23.1423,广州市,广雅中学,颗粒物(PM10),55,60,84,33,48,4,,3,3,65,70,6,6,1.0,1.1
2024-03-17T0800,1346A,113.2612,23.105,广州市,市五中,颗粒物(PM10),57,64,86,35,48,2,,2,2,66,68,7,6,1.0,1.1
2024-03-17T0800,1348A,113.3478,23.0916,广州市,广东商学院,颗粒物(PM10),57,64,76,30,42,2,,2,2,62,65,6,6,0.9,0.9
2024-03-17T0800,1349A,113.4332,23.1047,广州市,市八十六中,颗粒物(PM10),60,70,85,28,43,4,,3,3,69,74,7,7,0.9,0.9
2024-03-17T0800,1350A,113.3505,22.9483,广州市,番禺中学,颗粒物(PM10),52,54,72,25,40,3,,2,2,57,59,6,6,1.0,1
2024-03-17T0800,1351A,113.2146,23.3916,广州市,花都师范,"颗粒物(PM10),细颗粒物(PM2.5)",69,87,100,50,54,3,,2,2,55,66,6,6,1.4,1.2
2024-03-17T0800,1352A,113.2597,23.1331,广州市,市监测站,颗粒物(PM10),55,60,80,35,46,4,,2,2,74,74,6,6,0.9,0.9
2024-03-17T0800,1353A,113.5618,23.312,广州市,九龙镇镇龙,,47,47,70,29,41,3,,1,1,40,48,6,6,0.8,0.8
2024-03-17T0800,1354A,113.2765,23.1544,广州市,麓湖,颗粒物(PM10),57,64,76,37,44,2,,1,1,49,51,6,5,1.0,1
2024-03-17T0800,1355A,113.443,23.3035,广州市,帽峰山森林公园,,45,41,58,31,31,7,,10,10,33,33,6,6,0.7,0.6
2024-03-17T0800,2846A,113.3221,23.1322,广州市,体育西,颗粒物(PM10),56,62,84,32,46,3,,3,3,66,69,9,8,1.0,1.1
2024-03-17T0800,3298A,113.5717,23.5491,广州市,从化街口,细颗粒物(PM2.5),67,80,73,48,48,2,,2,2,25,35,7,7,1.2,1.1
2024-03-17T0800,3299A,113.3472,23.3692,广州市,白云竹料,颗粒物(PM10),65,79,107,46,58,3,,5,5,31,55,6,6,0.9,0.9
2024-03-17T0800,3300A,113.2981,23.237,广州市,白云嘉禾,颗粒物(PM10),71,91,106,45,59,3,,3,3,80,72,9,8,1.0,1.1
2024-03-17T0800,3301A,113.4256,23.1716,广州市,黄埔科学城,细颗粒物(PM2.5),77,79,95,56,65,2,,1,1,59,61,6,6,1.1,1
2024-03-17T0800,3302A,113.3942,23.0483,广州市,番禺大学城,颗粒物(PM10),57,64,92,29,38,2,,2,2,55,63,5,6,1.1,1.2
2024-03-17T0800,3303A,113.4922,22.8168,广州市,南沙黄阁,,46,41,66,32,39,10,,6,6,51,58,5,6,1.0,1
2024-03-17T0800,3304A,113.5342,22.7896,广州市,南沙街,,49,48,61,34,34,3,,2,2,56,54,7,8,0.8,0.8
2024-03-17T0800,3443A,113.2902,23.5544,广州市,花都梯面,颗粒物(PM10),62,74,76,41,39,6,,7,7,33,31,6,6,0.9,0.8
2024-03-17T0800,3445A,113.7858,23.7478,广州市,从化良口,,25,23,30,17,22,4,,7,7,8,15,4,4,0.8,0.8
2024-03-17T0800,3446A,113.8051,23.2614,广州市,增城荔城,细颗粒物(PM2.5),53,54,70,37,48,2,,6,6,20,25,4,5,0.7,0.7
2024-03-17T0800,2505A,109.568,23.1478,贵港市,德智高中,细颗粒物(PM2.5),60,56,58,43,38,17,,22,22,22,30,8,7,0.8,0.8
2024-03-17T0800,2506A,109.6047,23.0666,贵港市,江南子站,细颗粒物(PM2.5),69,75,77,50,44,9,,8,8,29,33,8,8,1.1,1.1
2024-03-17T0800,2507A,109.6014,23.0948,贵港市,贵城子站,细颗粒物(PM2.5),72,71,75,52,47,8,,12,12,30,29,10,9,0.8,0.8
2024-03-17T0800,2508A,109.5669,23.1065,贵港市,荷城子站,细颗粒物(PM2.5),70,58,64,51,41,10,,18,18,28,26,13,11,0.8,0.9
2024-03-17T0800,3405A,109.5886,23.1172,贵港市,新世纪学校,细颗粒物(PM2.5),63,63,63,45,41,10,,12,12,32,27,11,10,1.1,1.1
2024-03-17T0800,1439A,106.6899,26.5998,贵阳市,马鞍山,细颗粒物(PM2.5),58,56,41,41,28,16,,16,16,8,10,9,7,0.9,0.6
2024-03-17T0800,1440A,106.6971,26.5694,贵阳市,市环保站,细颗粒物(PM2.5),78,63,50,57,41,18,,21,21,17,25,8,7,0.8,0.6
2024-03-17T0800,1441A,106.6243,26.6266,贵阳市,鉴湖路,,32,31,51,22,30,26,,51,51,10,18,2,4,0.3,0.5
2024-03-17T0800,1442A,106.7487,26.6343,贵阳市,燕子冲,,28,24,40,19,32,24,,29,29,9,14,5,8,0.6,0.7
2024-03-17T0800,1443A,106.6555,26.4365,贵阳市,碧云窝,细颗粒物(PM2.5),55,58,49,39,27,30,,72,72,16,13,6,7,0.6,0.6
2024-03-17T0800,1444A,106.694,26.5161,贵阳市,中院村,细颗粒物(PM2.5),85,73,51,63,36,19,,29,29,18,23,12,12,0.8,0.8
2024-03-17T0800,1445A,106.7109,26.6027,贵阳市,红边门,细颗粒物(PM2.5),58,53,50,41,38,18,,27,27,11,19,7,8,0.7,0.6
2024-03-17T0800,1446A,106.7164,26.5699,贵阳市,新华路,细颗粒物(PM2.5),67,56,47,48,35,22,,30,30,15,18,6,8,0.7,0.6
2024-03-17T0800,1447A,106.674,26.5424,贵阳市,太慈桥,细颗粒物(PM2.5),62,56,47,44,34,20,,13,13,16,27,10,9,0.6,0.7
2024-03-17T0800,1552A,106.805,26.3003,贵阳市,桐木岭,,,,,,,,,,,,,,,,
2024-03-17T0800,1862A,110.4144,25.3167,桂林市,电子科大尧山校区,,49,49,36,26,20,17,,13,13,8,9,10,7,0.8,0.7
2024-03-17T0800,1863A,110.2819,25.2697,桂林市,监测站,细颗粒物(PM2.5),69,63,65,50,38,4,,4,4,25,28,13,13,1.6,1.2
2024-03-17T0800,1864A,110.3089,25.2708,桂林市,龙隐路小学,细颗粒物(PM2.5),62,54,52,44,34,6,,6,6,20,27,7,8,1.0,1
2024-03-17T0800,1865A,110.2869,25.2178,桂林市,八中,细颗粒物(PM2.5),70,56,57,51,38,2,,2,2,26,28,9,9,1.3,1
2024-03-17T0800,3403A,110.1764,25.2381,桂林市,创业大厦,细颗粒物(PM2.5),64,63,55,46,38,2,,2,2,25,22,16,11,1.1,0.9
2024-03-17T0800,3531A,110.296,25.1253,桂林市,旅游学院,细颗粒物(PM2.5),62,53,34,44,24,1,,0,0,22,21,10,6,1.2,0.8
2024-03-17T0800,2674A,100.2561,34.4714,果洛藏族自治州,玛沁县大武镇,颗粒物(PM10),93,136,113,40,33,76,,83,83,26,22,12,13,0.5,0.5
2024-03-17T0800,1129A,126.5422,45.755,哈尔滨市,岭北,,,14,19,12,14,,,,,10,17,39,13,1.1,0.8
2024-03-17T0800,1130A,126.561,45.8167,哈尔滨市,松北商大,,21,16,21,10,14,65,,77,77,16,12,7,6,0.4,0.4
2024-03-17T0800,1131A,126.979,45.5419,哈尔滨市,阿城会宁,,22,17,27,13,17,68,,69,69,14,19,18,22,0.4,0.4
2024-03-17T0800,1132A,126.599,45.7222,哈尔滨市,南岗学府路,,21,15,32,6,12,67,,75,75,13,17,10,8,0.3,0.4
2024-03-17T0800,1133A,126.689,45.7733,哈尔滨市,太平宏伟公园,,18,,26,10,18,57,,75,75,24,20,14,8,0.4,0.5
2024-03-17T0800,1134A,126.635,45.7667,哈尔滨市,道外承德广场,,22,15,29,6,16,70,,78,78,11,25,26,9,0.4,0.5
2024-03-17T0800,1135A,126.685,45.7319,哈尔滨市,香坊红旗大街,,22,,27,9,16,69,,72,72,12,20,5,5,0.5,0.5
2024-03-17T0800,1136A,126.6411,45.7258,哈尔滨市,动力和平路,,22,16,26,7,18,70,,81,81,11,17,21,7,0.5,0.5
2024-03-17T0800,1137A,126.593,45.7478,哈尔滨市,道里建国路,,,,24,16,20,65,,72,72,14,22,3,3,0.2,0.6
2024-03-17T0800,1138A,126.615,45.61,哈尔滨市,平房东轻厂,,20,,33,14,23,40,,64,64,36,21,13,7,0.3,0.3
2024-03-17T0800,1139A,126.595,45.9855,哈尔滨市,呼兰师专,,32,22,26,22,18,66,,72,72,11,14,14,10,0.6,0.5
2024-03-17T0800,1140A,126.6206,45.6842,哈尔滨市,省农科院,,23,,25,11,20,73,,79,79,7,17,12,13,0.4,0.5
2024-03-17T0800,2688A,93.5128,42.8172,哈密市,地区监测站,,23,17,42,9,18,72,,69,69,10,14,10,6,0.2,0.4
2024-03-17T0800,2689A,93.4961,42.8328,哈密市,哈密师范学校,,23,,44,11,19,73,,65,65,10,16,9,8,0.1,0.4
2024-03-17T0800,2671A,100.9048,36.9639,海北藏族自治州,海晏县西海镇,颗粒物(PM10),74,97,166,25,43,81,,88,88,10,10,16,15,0.5,0.6
2024-03-17T0800,3867A,102.0738,36.5056,海东市,平安区公安北苑,颗粒物(PM10),71,92,201,35,58,52,,68,68,14,13,6,10,0.3,0.2
2024-03-17T0800,1409A,110.576,19.9507,海口市,东寨港,,,,,,,,,,,,,,,,
2024-03-17T0800,1410A,110.3232,20.0574,海口市,海南大学,,26,24,30,18,19,44,,48,48,6,4,7,7,0.3,0.3
2024-03-17T0800,1411A,110.283,20.0053,海口市,秀英海南医院,,29,24,30,20,20,37,,36,36,11,11,8,8,0.4,0.4
2024-03-17T0800,1412A,110.338,19.9969,海口市,海南师范大学,,32,22,34,22,22,39,,43,43,6,4,7,8,0.4,0.4
2024-03-17T0800,1413A,110.33,20.0356,海口市,龙华路环保局宿舍,,28,23,34,19,20,38,,44,44,8,5,8,8,0.3,0.3
2024-03-17T0800,3539A,110.5111,19.9736,海口市,桂林洋子站,,30,30,29,20,20,35,,38,38,6,4,7,7,0.3,0.3
2024-03-17T0800,2673A,100.6188,36.2866,海南藏族自治州,共和县恰卜恰镇,颗粒物(PM10),85,120,189,57,91,77,,81,81,22,13,14,12,0.4,0.4
2024-03-17T0800,2676A,97.3731,37.3753,海西蒙古族藏族自治州,德令哈市,颗粒物(PM10),98,145,139,37,32,74,,86,86,21,14,11,9,0.6,0.6
2024-03-17T0800,1048A,114.5302,36.6116,邯郸市,东污水处理厂,颗粒物(PM10),114,178,151,24,60,52,,54,54,11,22,2,6,0.2,0.6
2024-03-17T0800,1049A,114.4918,36.5713,邯郸市,矿院,颗粒物(PM10),92,134,122,25,51,64,,66,66,9,17,2,6,0.4,0.7
2024-03-17T0800,1050A,114.484,36.6133,邯郸市,丛台公园,颗粒物(PM10),99,148,128,21,51,59,,56,56,8,20,3,9,0.1,0.6
2024-03-17T0800,3458A,114.7895,36.5593,邯郸市,香泉濮院小区,颗粒物(PM10),134,218,152,27,55,64,,69,69,2,11,3,7,0.1,0.5
2024-03-17T0800,3579A,114.50634,36.77178,邯郸市,永年区实验高中,颗粒物(PM10),122,193,161,32,63,54,,58,58,21,31,3,8,0.3,0.6
2024-03-17T0800,3580A,114.20016,36.44293,邯郸市,峰峰矿区临水派出所,颗粒物(PM10),103,156,130,23,42,68,,72,72,5,10,3,10,0.4,0.7
2024-03-17T0800,2634A,106.9893,33.1842,汉中市,汉川机床厂子校,颗粒物(PM10),52,54,95,23,47,61,,55,55,11,16,4,6,0.7,0.6
2024-03-17T0800,2635A,107.0154,33.0706,汉中市,市监测站,颗粒物(PM10),75,99,117,42,51,48,,47,47,21,23,7,8,0.6,0.8
2024-03-17T0800,2636A,107.0089,33.1138,汉中市,鑫源开发区,颗粒物(PM10),63,76,126,32,55,69,,60,60,19,26,33,13,0.9,0.7
2024-03-17T0800,2637A,107.007,33.0323,汉中市,南郑大河坎水厂,颗粒物(PM10),68,86,123,37,51,58,,51,51,12,22,7,8,0.5,0.7
2024-03-17T0800,1223A,120.2072,30.2111,杭州市,滨江,颗粒物(PM10),95,139,73,64,35,6,,3,3,81,65,5,5,0.7,0.7
2024-03-17T0800,1224A,120.0633,30.2747,杭州市,西溪,细颗粒物(PM2.5),112,125,47,84,28,3,,2,2,47,31,7,8,0.9,0.7
2024-03-17T0800,1226A,120.3461,30.3153,杭州市,下沙,颗粒物(PM10),89,128,100,48,43,7,,17,17,73,63,6,7,0.8,0.7
2024-03-17T0800,1227A,120.1269,30.2456,杭州市,卧龙桥,细颗粒物(PM2.5),94,94,46,70,30,2,,1,1,51,38,6,5,0.9,0.7
2024-03-17T0800,1228A,120.1903,30.2692,杭州市,浙江农大,颗粒物(PM10),91,131,91,60,47,4,,4,4,73,66,6,7,0.8,0.7
2024-03-17T0800,1230A,120.1197,30.3119,杭州市,和睦小学,颗粒物(PM10),123,195,97,83,46,9,,6,6,83,62,8,8,0.8,0.7
2024-03-17T0800,1231A,120.3019,30.4183,杭州市,临平镇,细颗粒物(PM2.5),175,134,95,132,79,24,,31,31,53,43,6,6,0.6,0.5
2024-03-17T0800,1232A,120.2697,30.1819,杭州市,城厢镇,细颗粒物(PM2.5),113,100,50,85,30,25,,11,11,42,37,8,8,0.9,0.8
2024-03-17T0800,1233A,120.0883,30.1808,杭州市,云栖,细颗粒物(PM2.5),75,86,38,55,24,2,,2,2,31,32,8,8,0.9,0.6
2024-03-17T0800,3557A,119.9464,30.0494,杭州市,镇二中,,31,31,27,20,16,2,,5,5,37,35,8,7,1.0,0.8
2024-03-17T0800,3558A,119.7183,30.2367,杭州市,市府大楼,颗粒物(PM10),52,54,41,31,27,7,,8,8,37,37,6,6,0.7,0.7
2024-03-17T0800,3656A,120.1556,30.2864,杭州市,消防大队,细颗粒物(PM2.5),97,117,79,72,50,10,,11,11,98,72,10,11,1.0,0.9
2024-03-17T0800,1270A,117.1959,31.7848,合肥市,明珠广场,细颗粒物(PM2.5),128,119,131,97,89,90,,88,88,33,46,1,3,0.9,0.9
2024-03-17T0800,1271A,117.3072,31.8764,合肥市,三里街,细颗粒物(PM2.5),119,129,143,90,92,39,,53,53,37,47,5,7,0.9,1
2024-03-17T0800,1272A,117.2588,31.8707,合肥市,琥珀山庄,细颗粒物(PM2.5),110,132,133,83,72,63,,73,73,36,44,5,6,0.7,0.7
2024-03-17T0800,1273A,117.1604,31.9052,合肥市,董铺水库,细颗粒物(PM2.5),104,134,146,78,78,59,,81,81,28,32,3,3,0.6,0.6
2024-03-17T0800,1274A,117.25,31.8571,合肥市,长江中路,细颗粒物(PM2.5),142,144,135,108,97,70,,89,89,28,35,9,9,1.1,1.1
2024-03-17T0800,1275A,117.266,31.9436,合肥市,庐阳区,细颗粒物(PM2.5),122,141,147,92,93,78,,85,85,32,42,4,5,0.8,0.8
2024-03-17T0800,1276A,117.336,31.8586,合肥市,瑶海区,细颗粒物(PM2.5),150,144,149,115,100,76,,81,81,29,43,8,8,1.0,1
2024-03-17T0800,1277A,117.3027,31.7964,合肥市,包河区,细颗粒物(PM2.5),138,146,151,105,91,14,,25,25,89,79,7,8,0.7,0.7
2024-03-17T0800,1278A,117.2776,31.7385,合肥市,滨湖新区,细颗粒物(PM2.5),122,124,143,92,87,89,,89,89,22,38,6,7,0.8,0.8
2024-03-17T0800,1279A,117.1318,31.8403,合肥市,高新区,细颗粒物(PM2.5),165,136,130,125,97,59,,75,75,44,39,5,6,0.9,0.9
2024-03-17T0800,3464A,117.3803,31.9147,合肥市,高教基地,细颗粒物(PM2.5),98,114,139,73,68,69,,73,73,34,46,4,6,0.6,0.7
2024-03-17T0800,3614A,79.924,37.0877,和田地区,地区环保局,颗粒物(PM10),500,905,666,199,142,70,,67,67,7,17,6,8,0.7,0.8
2024-03-17T0800,3615A,79.9131,37.113,和田地区,市环保局,颗粒物(PM10),500,883,670,174,126,42,,73,73,21,16,5,6,0.8,0.9
2024-03-17T0800,2516A,108.2011,24.715,河池市,东仁乐园,颗粒物(PM10),56,61,44,34,23,4,,5,5,12,13,5,5,0.7,0.7
2024-03-17T0800,2517A,108.0497,24.6947,河池市,市环保站,,46,43,43,32,29,6,,6,6,12,20,7,7,1.1,1
2024-03-17T0800,2518A,108.0983,24.6989,河池市,市疾控中心,细颗粒物(PM2.5),59,59,45,42,30,2,,3,3,17,28,8,8,1.5,1.2
2024-03-17T0800,1696A,114.6778,23.7569,河源市,源西,,42,36,34,29,26,4,,3,3,24,29,4,4,1.1,1
2024-03-17T0800,1697A,114.6944,23.7586,河源市,东埔,细颗粒物(PM2.5),57,61,59,40,39,2,,1,1,21,25,6,6,1.2,1.2
2024-03-17T0800,1698A,114.6892,23.7233,河源市,老城,,,,39,,29,,,25,,,22,,6,,0.8
2024-03-17T0800,1718A,115.4208,35.2464,菏泽市,气象局,颗粒物(PM10),152,253,151,24,57,71,,80,80,15,23,3,8,0.3,0.6
2024-03-17T0800,1719A,115.4747,35.2375,菏泽市,市政协,颗粒物(PM10),164,277,152,24,60,65,,80,80,17,22,2,7,0.3,0.5
2024-03-17T0800,3374A,115.5564,35.0891,菏泽市,定陶老年大学,颗粒物(PM10),141,232,151,19,74,56,,76,76,20,25,4,7,0.2,0.6
2024-03-17T0800,3647A,115.4702,35.2706,菏泽市,菏泽医专,颗粒物(PM10),167,284,155,19,61,76,,78,78,14,24,2,9,0.2,0.5
2024-03-17T0800,2514A,111.5264,24.4172,贺州市,环保小区,,33,32,44,23,24,5,,14,14,21,25,8,8,0.9,1
2024-03-17T0800,2515A,111.5608,24.4078,贺州市,政协大楼,,40,40,40,18,23,0,,9,9,22,26,7,8,0.7,0.8
2024-03-17T0800,3534A,111.4744,24.4553,贺州市,西湾,,36,29,38,25,26,6,,8,8,17,25,6,7,0.8,0.8
2024-03-17T0800,2385A,114.17,35.9019,鹤壁市,市监测站,颗粒物(PM10),103,155,162,29,73,61,,60,60,10,23,8,10,0.2,0.6
2024-03-17T0800,2386A,114.2956,35.7511,鹤壁市,市交警支队,颗粒物(PM10),109,167,141,16,58,64,,68,68,11,25,4,9,0.1,0.5
2024-03-17T0800,2387A,114.2878,35.7306,鹤壁市,迎宾馆,颗粒物(PM10),108,165,135,17,54,66,,72,72,13,24,4,13,0.3,0.6
2024-03-17T0800,3474A,114.2617,35.6822,鹤壁市,大新区,颗粒物(PM10),125,200,151,17,57,66,,75,75,16,26,7,11,0.4,0.8
2024-03-17T0800,3596A,114.1572,35.9603,鹤壁市,南山宾馆,颗粒物(PM10),135,220,190,34,67,60,,62,62,15,21,2,9,0.3,0.6
2024-03-17T0800,2244A,130.2537,47.3416,鹤岗市,哈啤分公司,,26,16,18,13,13,81,,82,82,4,6,13,13,2.1,0.8
2024-03-17T0800,2245A,130.2684,47.3086,鹤岗市,斯达机电,,25,24,20,11,13,80,,81,81,5,6,10,9,0.2,0.3
2024-03-17T0800,2246A,130.3114,47.3388,鹤岗市,东山纸板厂,颗粒物(PM10),72,93,30,10,14,83,,83,83,3,6,13,13,0.3,0.2
2024-03-17T0800,2247A,130.1097,47.3382,鹤岗市,五号水库,,28,21,17,7,11,89,,89,89,4,5,10,9,0.9,0.8
2024-03-17T0800,2263A,127.4833,50.2524,黑河市,交通局,,22,11,17,10,14,70,,68,68,6,7,6,7,0.3,0.3
2024-03-17T0800,2264A,127.5144,50.2341,黑河市,环保局,,29,,17,20,16,76,,76,76,6,10,4,6,0.3,0.3
2024-03-17T0800,2265A,127.5291,50.2472,黑河市,大黑河岛,,,,,,,,,,,,,,,,
2024-03-17T0800,1074A,115.6838,37.7541,衡水市,电机北厂,,40,40,130,13,47,76,,71,71,6,16,3,4,0.2,0.4
2024-03-17T0800,1075A,115.6303,37.7316,衡水市,市监测站,,45,45,121,14,40,79,,72,72,9,17,7,10,0.2,0.4
2024-03-17T0800,3188A,115.6683,37.7217,衡水市,市城管局,颗粒物(PM10),51,51,134,9,53,75,,71,71,12,19,2,6,0.2,0.4
2024-03-17T0800,3459A,115.5989,37.5491,衡水市,地表水厂,,44,44,130,13,46,79,,72,72,4,11,1,5,0.2,0.4
2024-03-17T0800,2456A,112.5003,26.9167,衡阳市,原169医院,颗粒物(PM10),51,52,37,22,22,19,,18,18,13,16,9,9,0.8,0.8
2024-03-17T0800,2457A,112.6194,26.9258,衡阳市,衡阳化工总厂,细颗粒物(PM2.5),52,48,44,36,34,19,,16,16,16,17,6,8,0.8,0.9
2024-03-17T0800,2458A,112.6211,26.8956,衡阳市,珠晖区环保局,细颗粒物(PM2.5),54,41,43,38,31,12,,13,13,16,15,6,7,1.0,1
2024-03-17T0800,2459A,112.6197,26.8733,衡阳市,市委党校,,46,38,40,32,28,17,,17,17,20,20,5,5,1.1,1
2024-03-17T0800,2460A,112.6006,26.8919,衡阳市,市监测站,,42,36,40,29,31,17,,13,13,15,17,7,8,0.9,0.9
2024-03-17T0800,2461A,112.5664,26.9056,衡阳市,真空机电公司,,46,36,39,32,26,15,,6,6,19,20,6,7,1.1,1
2024-03-17T0800,3399A,112.6703,26.882,衡阳市,师范学院,细颗粒物(PM2.5),74,70,43,54,34,14,,15,15,21,18,9,7,1.1,1
2024-03-17T0800,2608A,103.3772,23.3993,红河哈尼族彝族自治州,污水处理厂,细颗粒物(PM2.5),119,115,93,90,67,61,,100,100,25,11,9,8,1.1,0.9
2024-03-17T0800,2609A,103.3861,23.35,红河哈尼族彝族自治州,监测站,细颗粒物(PM2.5),104,100,91,78,68,96,,109,109,15,11,8,10,1.1,0.9
2024-03-17T0800,3038A,103.3758,23.368,红河哈尼族彝族自治州,州图书馆,细颗粒物(PM2.5),93,103,96,69,64,91,,106,106,15,10,6,6,1.0,0.9
2024-03-17T0800,1090A,111.6507,40.7517,呼和浩特市,呼市一监,,24,24,38,9,8,49,,53,53,24,12,10,7,0.5,0.4
2024-03-17T0800,1091A,111.6572,40.8033,呼和浩特市,小召,,31,31,59,8,10,49,,50,50,34,19,8,7,0.4,0.2
2024-03-17T0800,1094A,111.7516,40.8369,呼和浩特市,如意水处理厂,颗粒物(PM10),54,57,49,10,8,28,,33,33,46,20,12,8,0.5,0.2
2024-03-17T0800,1095A,111.7276,40.8062,呼和浩特市,二十九中,,29,29,63,10,9,36,,40,40,39,17,11,9,0.5,0.3
2024-03-17T0800,1096A,111.5512,40.7866,呼和浩特市,工大金川校区,颗粒物(PM10),57,63,57,9,8,23,,36,36,48,17,5,4,0.5,0.3
2024-03-17T0800,1097A,111.717,40.7612,呼和浩特市,化肥厂生活区,,41,41,56,13,10,36,,45,45,29,14,8,7,0.5,0.3
2024-03-17T0800,3698A,111.5968,40.8178,呼和浩特市,红旗小学,,24,24,54,10,9,24,,48,48,44,17,6,5,0.4,0.2
2024-03-17T0800,3699A,111.6518,40.8389,呼和浩特市,海东办,,30,27,55,9,7,14,,21,21,59,27,8,7,0.4,0.2
2024-03-17T0800,2192A,119.7594,49.2261,呼伦贝尔市,区环保局,,26,23,29,18,20,75,,78,78,16,12,6,6,0.5,0.5
2024-03-17T0800,3061A,119.7512,49.1577,呼伦贝尔市,国华电力东,,28,20,33,19,17,78,,74,74,12,16,3,4,0.3,0.3
2024-03-17T0800,1250A,120.0751,30.8669,湖州市,城西水厂,细颗粒物(PM2.5),100,96,82,75,55,14,,33,33,67,56,4,5,1.3,0.7
2024-03-17T0800,2873A,120.0875,30.8955,湖州市,仁皇山新区,细颗粒物(PM2.5),109,99,77,82,59,11,,43,43,61,41,6,7,1.5,0.8
2024-03-17T0800,2907A,120.1844,30.8596,湖州市,吴兴区站,细颗粒物(PM2.5),99,,65,74,56,12,,44,44,80,50,9,7,1.5,0.9
2024-03-17T0800,3562A,120.4148,30.8538,湖州市,南浔区站,细颗粒物(PM2.5),103,,69,77,64,4,,29,29,79,38,9,8,1.2,0.8
2024-03-17T0800,1607A,120.9092,40.7136,葫芦岛市,龙港区,颗粒物(PM10),54,57,186,37,48,72,,80,80,16,18,10,6,0.5,0.5
2024-03-17T0800,1608A,120.8392,40.7514,葫芦岛市,化工街,颗粒物(PM10),52,53,271,22,39,71,,79,79,24,31,2,3,0.5,0.6
2024-03-17T0800,1609A,120.8341,40.7073,葫芦岛市,新区,,40,40,186,16,43,78,,84,84,15,22,7,8,0.4,0.5
2024-03-17T0800,1610A,120.8695,40.7677,葫芦岛市,东城区,,36,36,198,16,49,78,,85,85,12,26,4,9,0.7,0.8
2024-03-17T0800,2482A,109.5981,27.5721,怀化市,林科所,,,18,20,,11,38,,38,38,4,4,4,4,0.8,0.8
2024-03-17T0800,2483A,109.9453,27.5444,怀化市,河西地税局,,23,21,26,16,20,30,,34,34,11,11,4,4,0.8,0.8
2024-03-17T0800,2484A,109.9781,27.5342,怀化市,市四医院,,29,,26,20,21,33,,28,28,8,12,5,5,1.0,1
2024-03-17T0800,2485A,109.9972,27.5578,怀化市,监测楼,,23,23,30,16,18,32,,29,29,10,13,8,8,0.8,0.8
2024-03-17T0800,2486A,110.0394,27.583,怀化市,市委党校,,19,18,24,13,22,22,,23,23,12,12,6,12,0.8,0.8
2024-03-17T0800,1210A,119.036,33.5981,淮安市,钵池山,颗粒物(PM10),172,293,100,22,79,64,,25,25,13,34,8,9,0.5,0.9
2024-03-17T0800,1211A,119.007,33.575,淮安市,北京南路,颗粒物(PM10),195,339,102,28,75,64,,19,19,13,37,6,7,0.5,0.8
2024-03-17T0800,1212A,118.989,33.6067,淮安市,市监测站,颗粒物(PM10),191,332,106,34,64,66,,18,18,14,37,6,8,0.5,0.8
2024-03-17T0800,1213A,119.135,33.5039,淮安市,楚州区监测站,颗粒物(PM10),200,349,110,29,75,61,,22,22,18,38,7,7,0.6,0.8
2024-03-17T0800,1214A,119.0186,33.6297,淮安市,淮阴区监测站,颗粒物(PM10),197,344,119,34,73,63,,16,16,16,44,5,6,0.2,0.6
2024-03-17T0800,3426A,118.8755,33.2894,淮安市,新华书店,颗粒物(PM10),177,304,118,15,47,64,,20,20,23,42,6,10,0.5,0.7
2024-03-17T0800,2282A,116.8004,33.975,淮北市,监测站,颗粒物(PM10),96,141,118,70,100,70,,93,93,26,26,8,8,0.8,0.9
2024-03-17T0800,2283A,116.8091,33.9007,淮北市,烈山区政府,细颗粒物(PM2.5),123,186,150,93,111,68,,59,59,28,30,8,8,0.7,0.7
2024-03-17T0800,3330A,116.8873,33.9836,淮北市,杜集区检察院,颗粒物(PM10),140,230,162,75,110,62,,53,53,29,31,12,11,1.1,1.1
2024-03-17T0800,4017A,116.7923,33.9535,淮北市,市博物馆,颗粒物(PM10),101,152,126,56,76,68,,92,92,22,29,10,9,0.5,0.7
2024-03-17T0800,2277A,116.8305,32.7727,淮南市,潘集区政府,细颗粒物(PM2.5),138,171,165,105,114,72,,62,62,19,30,3,5,0.5,0.6
2024-03-17T0800,2278A,117.0067,32.6524,淮南市,师范学院,细颗粒物(PM2.5),152,178,178,116,122,70,,72,72,26,43,9,12,0.5,0.6
2024-03-17T0800,2279A,116.8569,32.5951,淮南市,谢家集区政府,细颗粒物(PM2.5),149,168,143,114,98,69,,80,80,29,40,7,12,0.7,0.8
2024-03-17T0800,2280A,116.8281,32.633,淮南市,八公山区政府,细颗粒物(PM2.5),143,160,171,109,118,,,,,24,30,9,8,0.6,0.7
2024-03-17T0800,2281A,116.6325,32.6201,淮南市,焦岗湖风景区管理处,颗粒物(PM10),100,149,137,70,65,60,,46,46,31,47,3,2,0.4,0.4
2024-03-17T0800,2894A,117.0566,32.6531,淮南市,经济技术开发区消防队,细颗粒物(PM2.5),147,171,158,112,108,72,,80,80,33,46,6,9,0.7,0.7
2024-03-17T0800,3329A,117.0108,32.5893,淮南市,山南新区,细颗粒物(PM2.5),135,154,137,103,93,85,,113,113,31,40,7,8,0.8,0.8
2024-03-17T0800,2446A,114.9028,30.4742,黄冈市,职工中心,细颗粒物(PM2.5),94,92,108,70,69,65,,56,56,11,26,9,14,0.8,1
2024-03-17T0800,2929A,114.8858,30.4519,黄冈市,红卫路,细颗粒物(PM2.5),97,77,89,72,64,76,,60,60,10,34,10,11,0.8,0.9
2024-03-17T0800,3398A,114.9136,30.4445,黄冈市,市林业局,细颗粒物(PM2.5),89,83,94,66,66,66,,60,60,5,31,7,9,0.6,0.8
2024-03-17T0800,2672A,102.0199,35.5102,黄南藏族自治州,同仁县隆务镇,颗粒物(PM10),85,120,252,38,92,73,,78,78,3,4,10,10,0.8,0.8
2024-03-17T0800,2295A,118.2903,29.6963,黄山市,延安路89号,颗粒物(PM10),52,53,77,34,41,2,,6,6,12,16,5,6,0.7,0.7
2024-03-17T0800,2296A,118.327,29.7178,黄山市,黄山东路89号,,50,50,65,32,40,4,,7,7,16,23,5,5,0.7,0.8
2024-03-17T0800,2297A,118.1371,30.2756,黄山市,黄山区政府5号楼,细颗粒物(PM2.5),54,43,55,38,34,11,,16,16,16,18,4,4,0.9,0.8
2024-03-17T0800,2423A,115.0601,30.2313,黄石市,沈家营,颗粒物(PM10),72,93,109,51,46,48,,36,36,20,37,5,10,0.8,0.9
2024-03-17T0800,2424A,115.0817,30.2006,黄石市,陈家湾,细颗粒物(PM2.5),88,92,98,65,65,38,,28,28,34,42,9,11,1.0,1
2024-03-17T0800,2426A,114.8988,30.2019,黄石市,铁山,细颗粒物(PM2.5),80,59,89,59,69,64,,43,43,17,22,9,8,0.9,0.9
2024-03-17T0800,2427A,115.0307,30.2092,黄石市,团城山,细颗粒物(PM2.5),68,82,91,49,45,51,,31,31,21,36,4,11,0.9,0.9
2024-03-17T0800,3149A,115.0235,30.1578,黄石市,笔架山北路,细颗粒物(PM2.5),65,70,99,47,47,61,,51,51,14,24,5,8,0.9,0.8
2024-03-17T0800,1392A,114.4183,23.0528,惠州市,河南岸金山湖子站,细颗粒物(PM2.5),67,78,69,48,39,17,,19,19,24,24,7,5,0.7,0.7
2024-03-17T0800,1393A,114.4053,23.0822,惠州市,下埔横江三路子站,细颗粒物(PM2.5),67,79,79,48,40,26,,29,29,19,23,6,6,0.7,0.7
2024-03-17T0800,1394A,114.4103,23.1142,惠州市,江北云山西路子站,颗粒物(PM10),60,70,76,31,27,22,,32,32,20,21,9,10,0.5,0.5
2024-03-17T0800,1395A,114.4645,22.7833,惠州市,惠阳区承修路船湖子站,颗粒物(PM10),58,65,68,35,30,33,,43,43,16,20,6,7,0.7,0.6
2024-03-17T0800,1396A,114.5317,22.7422,惠州市,大亚湾管委会子站,颗粒物(PM10),68,85,80,44,33,32,,34,34,20,35,7,7,0.8,0.8
2024-03-17T0800,3314A,114.4338,22.8134,惠州市,惠阳秋长,颗粒物(PM10),59,68,70,36,28,27,,44,44,30,32,7,7,0.7,0.7
2024-03-17T0800,3452A,114.6517,22.775,惠州市,大亚湾霞涌,颗粒物(PM10),52,53,53,32,27,11,,30,30,30,17,7,7,0.6,0.6
2024-03-17T0800,2240A,130.9762,45.3001,鸡西市,环保局,,22,22,19,5,11,54,,58,58,8,9,5,6,0.1,0.2
2024-03-17T0800,2243A,130.9429,45.3039,鸡西市,第一中学,,25,17,19,5,11,78,,79,79,6,11,7,9,0.1,0.1
2024-03-17T0800,3707A,131.0207,45.3073,鸡西市,欧美日汽修厂,颗粒物(PM10),51,52,21,13,13,66,,70,70,7,9,3,4,0.1,0.1
2024-03-17T0800,3709A,130.9967,45.3106,鸡西市,市政设施管理处,,28,27,18,14,10,87,,82,82,8,13,4,5,0.2,0.3
2024-03-17T0800,2367A,114.9754,27.0803,吉安市,红声器材厂,颗粒物(PM10),52,53,42,32,23,10,,16,16,20,20,9,10,0.7,0.6
2024-03-17T0800,2368A,114.9658,27.0999,吉安市,市森林工业局,细颗粒物(PM2.5),53,42,33,37,26,12,,17,17,19,22,12,12,0.7,0.7
2024-03-17T0800,2369A,114.99,27.1312,吉安市,市环境监测站,,48,48,34,31,22,11,,16,16,20,22,7,10,0.6,0.7
2024-03-17T0800,2370A,115.0093,27.0968,吉安市,青原区法院,细颗粒物(PM2.5),57,51,35,40,25,9,,16,16,26,22,7,2,0.9,0.9
2024-03-17T0800,1772A,126.54,43.8622,吉林市,哈达湾,,25,13,69,6,37,79,,76,76,6,13,3,4,0.4,0.6
2024-03-17T0800,1773A,126.5844,43.8358,吉林市,东局子,,24,24,66,10,35,72,,73,73,13,14,5,7,0.4,0.6
2024-03-17T0800,1774A,126.5052,43.8245,吉林市,电力学院,,27,17,70,12,39,84,,82,82,5,13,6,9,0.4,0.6
2024-03-17T0800,1775A,126.6133,43.8972,吉林市,江北,,26,26,77,9,41,78,,78,78,13,18,9,11,0.4,0.6
2024-03-17T0800,1776A,126.555,43.8306,吉林市,江南公园,,25,21,70,11,43,79,,78,78,8,13,5,7,0.9,0.6
2024-03-17T0800,1778A,126.7061,43.7133,吉林市,丰满,,,,,,,,,,,,,,,,
2024-03-17T0800,2868A,126.4739,43.953,吉林市,九站,,28,20,72,8,40,87,,86,86,10,16,10,10,0.4,0.6
2024-03-17T0800,1299A,116.9862,36.6114,济南市,科干所,颗粒物(PM10),87,124,168,15,41,81,,76,76,16,22,6,8,0.5,0.7
2024-03-17T0800,1300A,116.9376,36.665,济南市,农科所,颗粒物(PM10),79,107,167,10,53,76,,72,72,17,25,3,7,0.6,0.7
2024-03-17T0800,1301A,117.1265,36.6734,济南市,开发区,颗粒物(PM10),100,149,164,12,52,72,,72,72,19,22,8,8,0.5,0.6
2024-03-17T0800,1303A,117.0624,36.6868,济南市,省种子仓库,颗粒物(PM10),75,100,155,17,62,68,,69,69,20,23,4,6,0.3,0.4
2024-03-17T0800,1304A,116.9489,36.6447,济南市,机床二厂,颗粒物(PM10),92,134,180,12,62,82,,81,81,11,18,4,7,0.5,0.7
2024-03-17T0800,1305A,117.0495,36.663,济南市,市监测站,颗粒物(PM10),91,132,160,10,46,79,,77,77,21,26,9,11,0.6,0.7
2024-03-17T0800,1306A,116.7675,36.5484,济南市,长清党校,颗粒物(PM10),101,151,175,12,57,83,,74,74,15,30,3,7,0.4,0.7
2024-03-17T0800,1616A,117.6795,36.229,济南市,技术学院,颗粒物(PM10),123,195,193,22,64,76,,80,80,22,31,8,9,0.5,0.9
2024-03-17T0800,1961A,117.532,36.6868,济南市,东山小学,颗粒物(PM10),107,164,172,15,52,70,,79,79,24,20,15,8,0.4,0.6
2024-03-17T0800,3059A,117.7161,36.2049,济南市,泰兴公司,颗粒物(PM10),103,156,174,17,70,80,,76,76,13,21,8,11,0.5,0.9
2024-03-17T0800,3064A,117.6867,36.2171,济南市,莱芜战役纪念馆,颗粒物(PM10),129,207,200,19,69,75,,77,77,17,22,8,9,0.5,0.9
2024-03-17T0800,3494A,117.1673,36.9782,济南市,济阳区政府,颗粒物(PM10),64,78,153,17,55,66,,70,70,21,27,4,8,0.4,0.6
2024-03-17T0800,3495A,117.1171,36.63,济南市,锦屏中学,颗粒物(PM10),95,139,162,12,53,74,,70,70,10,15,6,8,0.4,0.5
2024-03-17T0800,3682A,116.9814,36.6819,济南市,济南四建,颗粒物(PM10),80,110,147,12,54,62,,71,71,28,23,5,8,0.4,0.7
2024-03-17T0800,1653A,116.6251,35.4302,济宁市,火炬城,颗粒物(PM10),142,234,122,22,72,67,,74,74,9,19,2,6,0.4,0.8
2024-03-17T0800,1655A,116.5491,35.4042,济宁市,电化厂,颗粒物(PM10),179,308,164,22,66,67,,74,74,10,18,3,7,0.4,0.9
2024-03-17T0800,3500A,116.5814,35.3707,济宁市,北湖一中,颗粒物(PM10),147,243,132,31,79,66,,80,80,10,19,6,10,0.2,0.6
2024-03-17T0800,3501A,116.8249,35.5593,济宁市,服务中心,颗粒物(PM10),154,258,155,29,69,65,,78,78,12,20,4,6,0.6,1
2024-03-17T0800,3678A,116.5907,35.4054,济宁市,市第七中学,颗粒物(PM10),164,278,127,27,73,68,,79,79,9,16,2,6,0.5,0.9
2024-03-17T0800,2255A,130.2751,46.8028,佳木斯市,佳纺,,24,12,20,6,10,76,,79,79,9,10,5,6,0.4,0.4
2024-03-17T0800,2256A,130.3995,46.8307,佳木斯市,发电厂,,27,11,19,6,10,86,,85,85,2,8,2,5,0.4,0.4
2024-03-17T0800,2257A,130.3258,46.7975,佳木斯市,环保局,,25,15,22,7,11,79,,81,81,12,17,4,4,0.4,0.5
2024-03-17T0800,2258A,130.3648,46.8032,佳木斯市,十一中,,25,11,18,8,12,80,,81,81,6,10,6,6,0.3,0.4
2024-03-17T0800,2259A,130.3794,46.7588,佳木斯市,四丰,,29,15,17,10,10,90,,89,89,4,9,1,1,0.4,0.5
2024-03-17T0800,1252A,120.7436,30.778,嘉兴市,清河小学,,49,49,51,24,28,5,,19,19,66,37,8,7,1.1,0.8
2024-03-17T0800,1253A,120.726,30.7478,嘉兴市,嘉兴学院,细颗粒物(PM2.5),74,59,56,54,43,0,,22,22,65,34,7,7,0.7,0.5
2024-03-17T0800,2872A,120.7846,30.7525,嘉兴市,南湖区残联,细颗粒物(PM2.5),92,,58,68,47,5,,20,20,60,36,7,7,0.8,0.7
2024-03-17T0800,3407A,120.6916,30.7739,嘉兴市,秀洲住建,,46,46,44,30,30,3,,4,4,65,48,6,6,0.8,0.6
2024-03-17T0800,1945A,98.2908,39.7711,嘉峪关市,气象局,颗粒物(PM10),122,193,96,39,24,54,,60,60,33,19,75,17,0.8,0.5
2024-03-17T0800,2884A,98.2672,39.7978,嘉峪关市,酒钢宾馆,颗粒物(PM10),131,212,102,39,28,53,,64,64,39,19,34,14,0.4,0.5
2024-03-17T0800,3248A,98.2643,39.7724,嘉峪关市,雄关区,颗粒物(PM10),115,180,84,33,27,44,,54,54,42,24,36,12,0.7,0.4
2024-03-17T0800,1383A,113.1064,22.6058,江门市,北街,,42,32,98,29,60,19,,20,20,27,56,6,7,0.8,1
2024-03-17T0800,1384A,113.0731,22.5835,江门市,西区,,39,38,98,27,46,27,,24,24,30,57,6,7,0.6,0.9
2024-03-17T0800,1385A,113.0219,22.5311,江门市,圭峰西,,36,34,84,25,37,26,,24,24,29,43,6,6,0.7,0.8
2024-03-17T0800,1386A,113.0828,22.5947,江门市,东湖,颗粒物(PM10),51,51,128,28,57,28,,22,22,19,51,6,7,0.5,0.7
2024-03-17T0800,3311A,113.1075,22.5647,江门市,江海富民,颗粒物(PM10),72,93,148,36,68,36,,27,27,24,48,6,7,0.5,0.7
2024-03-17T0800,3449A,113.05,22.4667,江门市,新会银湖,细颗粒物(PM2.5),62,,67,44,60,19,,15,15,33,39,5,6,0.6,0.7
2024-03-17T0800,1828A,113.227,35.2125,焦作市,市环保局,颗粒物(PM10),109,167,163,30,68,63,,87,87,12,19,10,13,0.6,0.9
2024-03-17T0800,1830A,113.1992,35.2590,焦作市,影视城,,,,,,,,,,,,,,,,
2024-03-17T0800,3169A,113.2725,35.2067,焦作市,太极体育中心,颗粒物(PM10),119,187,182,28,72,66,,88,88,14,25,3,14,0.4,0.8
2024-03-17T0800,3335A,113.3137,35.2641,焦作市,马村街道办,颗粒物(PM10),118,186,175,26,71,64,,87,87,14,26,5,11,0.3,0.6
2024-03-17T0800,3336A,113.2465,35.2373,焦作市,焦作技师学院,颗粒物(PM10),108,165,175,27,64,62,,82,82,17,24,6,9,0.4,0.8
2024-03-17T0800,3477A,113.1656,35.2539,焦作市,中站许衡医院,颗粒物(PM10),109,168,170,37,61,66,,95,95,15,19,5,9,0.4,0.8
2024-03-17T0800,3981A,113.2449,35.1803,焦作市,原李万街道办,颗粒物(PM10),106,162,165,22,62,62,,86,86,8,18,7,15,0.3,0.6
2024-03-17T0800,1708A,116.3701,23.5345,揭阳市,新兴,细颗粒物(PM2.5),120,117,164,91,108,5,,5,5,31,45,9,9,1.1,1.2
2024-03-17T0800,1709A,116.3264,23.5443,揭阳市,西马,细颗粒物(PM2.5),110,131,141,83,96,8,,8,8,31,41,9,9,1.0,1.1
2024-03-17T0800,1710A,116.3611,23.5626,揭阳市,东兴,细颗粒物(PM2.5),160,126,175,122,125,7,,5,5,33,43,11,10,1.2,1.1
2024-03-17T0800,1711A,116.4151,23.5294,揭阳市,渔湖,颗粒物(PM10),111,171,171,40,40,5,,3,3,34,42,10,8,1.1,1
2024-03-17T0800,3320A,116.403,23.5699,揭阳市,曲溪,细颗粒物(PM2.5),87,87,115,64,58,7,,5,5,36,44,9,6,1.2,1.1
2024-03-17T0800,1944A,102.1692,38.5167,金昌市,天庆家园,颗粒物(PM10),56,62,59,12,9,50,,66,66,22,12,7,7,0.5,0.3
2024-03-17T0800,3170A,102.1864,38.5253,金昌市,市委党校,颗粒物(PM10),73,95,78,28,21,56,,66,66,12,7,13,14,0.5,0.4
2024-03-17T0800,4022A,102.1647,38.5371,金昌市,金川区人防中心,颗粒物(PM10),61,71,65,13,12,51,,66,66,16,9,12,11,0.5,0.3
2024-03-17T0800,1262A,119.647,29.077,金华市,十五中,细颗粒物(PM2.5),89,68,72,66,54,2,,1,1,50,56,4,5,1.4,1.1
2024-03-17T0800,1263A,119.686,29.1029,金华市,监测站,细颗粒物(PM2.5),69,85,67,50,39,1,,2,2,48,55,4,4,1.4,1.1
2024-03-17T0800,3659A,119.656,29.1131,金华市,气象局,颗粒物(PM10),70,90,71,44,34,2,,2,2,44,51,4,5,1.1,0.8
2024-03-17T0800,1767A,121.1115,41.0879,锦州市,南山,,41,41,206,14,56,80,,88,88,11,27,7,15,0.6,0.7
2024-03-17T0800,1768A,121.0533,40.8434,锦州市,开发区,颗粒物(PM10),58,66,229,28,55,64,,75,75,22,36,8,17,0.6,0.7
2024-03-17T0800,1769A,121.1836,41.1119,锦州市,百股街道,,40,40,212,22,55,80,,88,88,6,16,8,10,0.1,0.2
2024-03-17T0800,1770A,121.1178,41.1222,锦州市,天安街道,,36,36,220,14,58,77,,83,83,5,22,6,12,0.3,0.6
2024-03-17T0800,1771A,121.1303,41.1386,锦州市,北湖公园,,40,40,161,18,57,72,,79,79,14,29,10,14,0.4,0.5
2024-03-17T0800,2160A,112.85,35.5051,晋城市,自来水公司,颗粒物(PM10),85,119,193,51,67,66,,90,90,27,22,4,6,0.9,0.8
2024-03-17T0800,2161A,112.8318,35.4936,晋城市,白云商贸,颗粒物(PM10),96,141,194,46,57,66,,91,91,28,23,6,8,0.9,0.9
2024-03-17T0800,2162A,112.8508,35.4887,晋城市,市环保局,颗粒物(PM10),87,124,205,53,66,68,,89,89,26,24,4,6,1.0,1
2024-03-17T0800,2163A,112.8676,35.4897,晋城市,技术学院,颗粒物(PM10),92,133,212,44,66,67,,90,90,28,27,2,4,0.9,0.8
2024-03-17T0800,2165A,112.8453,35.546,晋城市,白马寺,,,,,,,,,,,,,,,,
2024-03-17T0800,3620A,112.8271,35.4828,晋城市,泽州一中,颗粒物(PM10),90,130,188,51,63,80,,91,91,18,20,7,9,0.8,0.8
2024-03-17T0800,2171A,112.7532,37.6945,晋中市,锦纶小区,颗粒物(PM10),56,61,244,17,56,36,,70,70,34,17,10,10,0.5,0.5
2024-03-17T0800,2173A,112.7249,37.7067,晋中市,南都小区,颗粒物(PM10),52,54,240,16,55,47,,69,69,32,17,11,9,0.5,0.4
2024-03-17T0800,2174A,112.6991,37.6982,晋中市,榆次区政府,,47,47,210,18,56,51,,70,70,33,17,12,8,0.4,0.3
2024-03-17T0800,2865A,112.7195,37.6828,晋中市,榆次三中,颗粒物(PM10),63,75,257,22,57,21,,68,68,46,16,10,9,0.6,0.4
2024-03-17T0800,2439A,112.2014,31.0481,荆门市,竹园小学,细颗粒物(PM2.5),99,97,122,74,89,62,,71,71,19,20,8,10,0.7,0.8
2024-03-17T0800,2440A,112.1969,30.9891,荆门市,掇刀,细颗粒物(PM2.5),105,94,117,79,86,66,,84,84,16,16,10,12,0.6,0.7
2024-03-17T0800,2441A,112.2213,31.0386,荆门市,石化一小,细颗粒物(PM2.5),114,108,129,86,95,60,,68,68,18,19,16,17,0.7,0.6
2024-03-17T0800,3012A,112.1849,31.0362,荆门市,西山林语,细颗粒物(PM2.5),89,94,113,66,84,82,,83,83,12,16,13,13,0.5,0.7
2024-03-17T0800,3547A,112.1632,31.0138,荆门市,龙泉中学南校,细颗粒物(PM2.5),68,78,97,49,57,102,,94,94,6,12,10,10,0.8,0.7
2024-03-17T0800,1844A,112.2494,30.3197,荆州市,市图书馆,细颗粒物(PM2.5),84,108,102,62,67,45,,53,53,28,29,7,8,0.9,0.8
2024-03-17T0800,1845A,112.2008,30.3544,荆州市,市委党校,细颗粒物(PM2.5),89,111,103,66,68,37,,48,48,30,25,5,7,0.9,0.8
2024-03-17T0800,3194A,112.2747,30.3122,荆州市,管委会,细颗粒物(PM2.5),88,123,100,65,64,47,,43,43,16,21,10,11,0.9,0.8
2024-03-17T0800,3548A,112.1655,30.3364,荆州市,学苑路,细颗粒物(PM2.5),139,,112,106,98,39,,45,45,49,36,7,7,1.0,0.9
2024-03-17T0800,2342A,117.3102,29.3867,景德镇市,王港中学,,39,,42,27,32,8,,7,7,4,6,5,5,0.1,0.2
2024-03-17T0800,2343A,117.2117,29.2933,景德镇市,老干部活动中心,,33,29,63,23,52,22,,10,10,14,24,4,6,0.4,0.6
2024-03-17T0800,2344A,117.1894,29.2789,景德镇市,兽医站,,43,42,62,30,50,23,,10,10,19,28,6,8,0.7,0.8
2024-03-17T0800,2345A,117.1547,29.2617,景德镇市,台达陶瓷,细颗粒物(PM2.5),55,,68,39,50,17,,11,11,19,33,8,13,0.7,0.9
2024-03-17T0800,2346A,117.2461,29.2956,景德镇市,陶研所,,42,33,58,29,51,17,,5,5,17,21,4,6,0.5,0.6
2024-03-17T0800,1803A,115.9872,29.6815,九江市,十里,颗粒物(PM10),51,52,51,31,37,15,,12,12,29,32,9,10,1.0,0.9
2024-03-17T0800,1804A,115.9584,29.7046,九江市,茅山头,细颗粒物(PM2.5),54,47,56,38,42,11,,13,13,42,40,9,10,0.9,0.8
2024-03-17T0800,1805A,115.9877,29.7295,九江市,西园,细颗粒物(PM2.5),59,54,55,42,44,11,,13,13,38,38,8,11,0.8,0.9
2024-03-17T0800,1806A,116.0172,29.6547,九江市,五七二七厂,细颗粒物(PM2.5),57,,42,40,42,14,,9,9,16,19,8,9,0.7,0.7
2024-03-17T0800,1808A,115.9114,29.6038,九江市,综合工业园,细颗粒物(PM2.5),52,47,51,36,44,3,,12,12,41,40,12,12,0.7,0.6
2024-03-17T0800,1809A,116.0721,29.7535,九江市,石化总厂,颗粒物(PM10),61,71,62,38,37,14,,8,8,37,38,10,12,0.9,0.9
2024-03-17T0800,1810A,115.9773,29.5698,九江市,庐山气象台,,23,6,12,4,11,73,,78,78,7,8,12,9,0.6,0.7
2024-03-17T0800,3190A,116.0254,29.6994,九江市,外国语学校,细颗粒物(PM2.5),53,48,55,37,39,28,,13,13,29,34,10,11,0.7,0.7
2024-03-17T0800,2658A,98.5061,39.7443,酒泉市,仓门街子站,颗粒物(PM10),89,127,99,28,30,77,,61,61,4,17,4,6,0.2,0.3
2024-03-17T0800,2659A,98.4989,39.7256,酒泉市,油田生活基地,颗粒物(PM10),95,139,101,25,33,84,,67,67,3,16,6,7,0.2,0.4
2024-03-17T0800,2698A,76.0072,39.4467,喀什地区,巡警大队,颗粒物(PM10),500,632,621,120,110,59,,65,65,24,22,2,2,0.5,0.5
2024-03-17T0800,2699A,75.9755,39.4694,喀什地区,吾办,颗粒物(PM10),500,625,607,155,138,59,,61,61,21,24,4,3,0.5,0.6
2024-03-17T0800,4027A,75.9483,39.4689,喀什地区,老干局,颗粒物(PM10),500,690,657,108,100,77,,70,70,10,21,1,2,0.4,0.6
2024-03-17T0800,1824A,114.3389,34.7781,开封市,肿瘤医院,颗粒物(PM10),168,285,148,106,101,59,,71,71,11,24,3,6,0.4,0.7
2024-03-17T0800,1826A,114.2885,34.7965,开封市,世纪星幼儿园,颗粒物(PM10),164,277,136,32,73,66,,81,81,14,29,3,5,0.3,0.5
2024-03-17T0800,3147A,114.3438,34.8106,开封市,龙亭公园,颗粒物(PM10),179,307,149,17,76,53,,58,58,13,28,5,6,0.3,0.7
2024-03-17T0800,3210A,114.3644,34.7964,开封市,汴京公园,颗粒物(PM10),158,266,152,19,78,61,,72,72,10,23,3,5,0.2,0.6
2024-03-17T0800,3473A,114.2485,34.8306,开封市,技师学院,颗粒物(PM10),193,335,148,22,75,56,,63,63,12,25,6,9,0.4,0.7
2024-03-17T0800,3592A,114.4644,34.7556,开封市,祥符区生态环境局,颗粒物(PM10),110,170,156,19,82,47,,44,44,28,43,15,10,0.3,0.7
2024-03-17T0800,1951A,84.895,45.6094,克拉玛依市,长征新村,,34,34,23,16,12,40,,49,49,15,11,8,8,0.3,0.2
2024-03-17T0800,1952A,84.8988,45.5893,克拉玛依市,南林小区,,30,30,22,16,15,20,,44,44,30,14,8,8,0.7,0.5
2024-03-17T0800,1954A,84.905,44.3396,克拉玛依市,独山子区,颗粒物(PM10),54,57,95,10,24,60,,56,56,6,12,5,5,0.4,0.5
2024-03-17T0800,1955A,85.6979,46.098,克拉玛依市,乌尔禾区商贸楼,,28,28,20,2,9,31,,45,45,20,13,4,4,0.3,0.3
2024-03-17T0800,3612A,85.1045,45.6899,克拉玛依市,白碱滩区新站,,42,42,25,22,15,53,,59,59,6,9,6,6,0.3,0.2
2024-03-17T0800,2697A,76.1454,39.7142,克孜勒苏柯尔克孜自治州,市人民政府,颗粒物(PM10),500,654,559,154,128,57,,70,70,5,7,4,5,0.5,0.5
2024-03-17T0800,3665A,76.1658,39.7157,克孜勒苏柯尔克孜自治州,克州文化中心,颗粒物(PM10),500,632,647,143,127,53,,72,72,18,10,4,5,0.5,0.6
2024-03-17T0800,1450A,102.8204,24.8886,昆明市,呈贡新区,细颗粒物(PM2.5),90,76,56,67,45,90,,108,108,33,15,13,8,0.9,0.6
2024-03-17T0800,1451A,102.6251,24.9608,昆明市,西山森林公园,细颗粒物(PM2.5),62,66,53,44,34,135,,130,130,7,8,10,12,1.2,1.2
2024-03-17T0800,1452A,102.7252,25.0902,昆明市,龙泉镇,细颗粒物(PM2.5),77,84,54,56,37,51,,74,74,70,27,8,7,0.8,0.6
2024-03-17T0800,1453A,102.7266,25.0375,昆明市,东风东路,细颗粒物(PM2.5),77,77,61,56,41,116,,116,116,17,16,13,9,0.6,0.5
2024-03-17T0800,1454A,102.6742,25.0669,昆明市,金鼎山,细颗粒物(PM2.5),72,62,54,52,37,122,,106,106,16,19,10,7,0.8,0.7
2024-03-17T0800,1455A,102.6644,25.0401,昆明市,碧鸡广场,细颗粒物(PM2.5),80,76,58,59,42,108,,100,100,17,20,15,10,0.7,0.5
2024-03-17T0800,3179A,102.7494,25.0119,昆明市,官渡区博物馆,细颗粒物(PM2.5),74,82,63,54,42,93,,98,98,28,17,12,10,0.8,0.6
2024-03-17T0800,3375A,102.8017,24.8336,昆明市,青年创业园,细颗粒物(PM2.5),82,80,60,60,44,88,,100,100,22,12,14,11,0.7,0.6
2024-03-17T0800,3550A,102.7997,24.9786,昆明市,昆明学院,细颗粒物(PM2.5),82,82,63,60,43,88,,100,100,28,13,10,10,0.8,0.6
2024-03-17T0800,3551A,102.5967,24.6736,昆明市,晋宁区生态环境分局,细颗粒物(PM2.5),85,107,68,63,43,91,,114,114,16,10,4,7,0.9,0.8
2024-03-17T0800,3552A,102.6678,24.9856,昆明市,云天化总部,细颗粒物(PM2.5),77,78,58,56,40,102,,102,102,23,16,9,9,0.7,0.7
2024-03-17T0800,1456A,91.1319,29.6514,拉萨市,八廓街,,28,21,21,14,13,87,,91,91,20,18,6,6,0.4,0.4
2024-03-17T0800,1457A,91.1221,29.6747,拉萨市,市环保局,,29,27,21,20,13,78,,99,99,24,15,5,6,0.7,0.6
2024-03-17T0800,1458A,91.0874,29.6475,拉萨市,区监测站,,30,,18,19,11,93,,106,106,19,12,4,5,0.5,0.4
2024-03-17T0800,1459A,91.1774,29.6541,拉萨市,西藏大学,,29,29,21,16,11,85,,88,88,16,17,3,4,0.2,0.3
2024-03-17T0800,1460A,90.9798,29.6588,拉萨市,区辐射站,,28,23,24,19,12,53,,100,100,31,16,6,5,0.4,0.4
2024-03-17T0800,1461A,91.0834,29.6292,拉萨市,拉萨火车站,,33,,18,17,12,104,,109,109,6,7,3,3,0.4,0.3
2024-03-17T0800,2520A,109.2203,23.7256,来宾市,来宾技工学校,细颗粒物(PM2.5),58,55,76,41,41,9,,9,9,23,27,11,9,0.9,1.2
2024-03-17T0800,3535A,109.1781,23.7297,来宾市,兴宾区政府,细颗粒物(PM2.5),58,61,67,41,41,23,,23,23,17,27,11,9,0.7,1
2024-03-17T0800,4002A,109.2416,23.7461,来宾市,中南小学,颗粒物(PM10),53,56,76,35,40,4,,2,2,26,31,11,9,1.1,1.2
2024-03-17T0800,1476A,103.631,36.1031,兰州市,兰炼宾馆,颗粒物(PM10),90,129,134,45,49,25,,70,70,48,14,7,8,0.5,0.3
2024-03-17T0800,1477A,104.1373,35.9454,兰州市,榆中兰大校区,,,,,,,,,,,,,,,,
2024-03-17T0800,1478A,103.8412,36.0726,兰州市,生物制品所,颗粒物(PM10),103,155,141,50,48,12,,60,60,62,21,9,10,0.6,0.4
2024-03-17T0800,1479A,103.831,36.0464,兰州市,铁路设计院,颗粒物(PM10),88,125,135,47,49,27,,60,60,56,29,11,8,0.7,0.4
2024-03-17T0800,3186A,103.7158,36.1058,兰州市,教育港,颗粒物(PM10),75,99,134,40,38,38,,64,64,43,20,7,8,0.5,0.4
2024-03-17T0800,3241A,103.7439,36.0842,兰州市,百合公园,颗粒物(PM10),81,111,134,38,39,36,,62,62,45,21,3,5,0.7,0.5
2024-03-17T0800,3242A,103.9611,35.998,兰州市,和平,颗粒物(PM10),86,122,159,42,49,37,,62,62,40,18,8,12,0.5,0.4
2024-03-17T0800,3245A,103.6633,36.533,兰州新区,新区管委会,颗粒物(PM10),79,108,95,39,36,15,,42,42,36,11,10,11,0.7,0.4
2024-03-17T0800,3246A,103.6975,36.4789,兰州新区,舟曲中学,颗粒物(PM10),95,140,130,42,38,27,,52,52,33,12,11,11,0.6,0.5
2024-03-17T0800,1067A,116.6708,39.5111,廊坊市,药材公司,,26,26,163,7,46,73,,82,82,19,21,3,3,0.3,0.4
2024-03-17T0800,1068A,116.7214,39.5589,廊坊市,开发区,,23,23,166,6,46,73,,78,78,16,20,3,4,0.2,0.4
2024-03-17T0800,1070A,116.7244,39.5269,廊坊市,北华航天学院,,32,32,164,2,42,75,,82,82,13,15,3,4,0.2,0.5
2024-03-17T0800,2919A,116.7022,39.5453,廊坊市,河北工业大学,,29,29,151,9,45,71,,78,78,14,17,3,3,0.2,0.4
2024-03-17T0800,2535A,103.7723,29.5462,乐山市,花湖湾,颗粒物(PM10),73,96,57,41,39,42,,52,52,17,17,4,5,0.4,0.5
2024-03-17T0800,2536A,103.7627,29.5844,乐山市,牛耳桥,颗粒物(PM10),91,131,63,45,41,45,,59,59,22,22,4,6,0.5,0.6
2024-03-17T0800,2537A,103.7508,29.6006,乐山市,市第三水厂,颗粒物(PM10),93,135,67,43,38,39,,62,62,33,24,4,5,0.6,0.6
2024-03-17T0800,2538A,103.7571,29.5664,乐山市,市监测站,颗粒物(PM10),88,126,61,40,39,55,,63,63,13,17,4,5,0.5,0.6
2024-03-17T0800,3361A,103.7311,29.5628,乐山市,理工大学,颗粒物(PM10),80,109,57,39,37,39,,59,59,20,17,5,6,0.6,0.6
2024-03-17T0800,2598A,100.2143,26.8576,丽江市,西南郊,,,,,,,,,,,,,,,,
2024-03-17T0800,2599A,100.2497,26.8802,丽江市,丽江古城,,49,49,45,29,25,91,,102,102,18,8,7,9,0.7,0.5
2024-03-17T0800,2600A,100.2203,26.8906,丽江市,市中心,,32,32,30,22,14,82,,97,97,23,10,8,8,0.8,0.7
2024-03-17T0800,1267A,119.914,28.4514,丽水市,监测站大楼,,33,33,41,23,28,4,,3,3,21,32,5,5,0.8,0.8
2024-03-17T0800,1268A,119.93,28.4586,丽水市,莲都小学,颗粒物(PM10),51,52,47,23,27,3,,3,3,22,32,4,4,0.7,0.7
2024-03-17T0800,1269A,119.879,28.4231,丽水市,余庄前,,41,41,38,25,24,3,,3,3,13,20,5,5,0.7,0.6
2024-03-17T0800,1173A,119.176,34.5885,连云港市,市环境监测站,颗粒物(PM10),430,530,122,44,53,62,,44,44,19,33,7,7,0.6,0.4
2024-03-17T0800,3000A,119.3581,34.6972,连云港市,德源药业,颗粒物(PM10),262,393,125,34,45,73,,49,49,10,29,4,6,0.4,0.5
2024-03-17T0800,3007A,119.178,34.844,连云港市,新城一中,颗粒物(PM10),94,137,71,18,38,69,,51,51,28,41,7,9,0.5,0.7
2024-03-17T0800,3008A,119.3608,34.7519,连云港市,胡沟管理处,颗粒物(PM10),276,403,116,31,35,71,,61,61,7,35,9,12,0.4,0.7
2024-03-17T0800,3009A,119.1478,34.5911,连云港市,矿山设计院,颗粒物(PM10),427,527,126,34,51,55,,38,38,24,28,7,4,1.0,0.8
2024-03-17T0800,3434A,119.2413,34.6539,连云港市,工贸学校,颗粒物(PM10),172,294,80,22,43,74,,56,56,16,21,7,9,0.5,0.8
2024-03-17T0800,3664A,119.4172,34.7341,连云港市,连云街道,颗粒物(PM10),150,249,126,20,40,68,,46,46,24,68,3,7,0.4,0.7
2024-03-17T0800,2571A,102.3431,27.8099,凉山彝族自治州,青龙寺,,37,37,35,7,7,91,,106,106,5,5,4,4,0.8,0.7
2024-03-17T0800,2572A,102.2721,27.8415,凉山彝族自治州,邛海宾馆,颗粒物(PM10),54,58,39,37,25,95,,107,107,20,9,21,10,1.8,0.6
2024-03-17T0800,2573A,102.2625,27.898,凉山彝族自治州,西昌市政府,"颗粒物(PM10),细颗粒物(PM2.5)",52,54,43,36,27,90,,99,99,11,10,12,13,1.1,0.9
2024-03-17T0800,2574A,102.2685,27.8851,凉山彝族自治州,凉山州政府,颗粒物(PM10),56,61,54,36,27,101,,101,101,12,10,11,10,1.1,0.7
2024-03-17T0800,2575A,102.237,27.8914,凉山彝族自治州,长安,颗粒物(PM10),53,56,48,35,27,94,,106,106,22,14,13,15,1.0,1.2
2024-03-17T0800,2212A,123.2,41.1953,辽阳市,宏伟区,,26,,183,18,55,65,,67,67,10,15,10,11,0.5,0.7
2024-03-17T0800,2213A,123.1683,41.2495,辽阳市,新华园,,29,23,195,20,63,62,,66,66,10,17,12,14,0.8,0.9
2024-03-17T0800,2214A,123.2354,41.2639,辽阳市,滨河路,,26,23,179,18,65,65,,66,66,8,16,7,9,0.6,0.8
2024-03-17T0800,2215A,123.149,41.2991,辽阳市,铁西工业园,,21,18,211,11,61,67,,70,70,11,20,10,13,0.5,0.8
2024-03-17T0800,2227A,125.1358,42.8845,辽源市,环保局,,25,14,82,8,29,78,,79,79,9,13,14,10,0.5,0.7
2024-03-17T0800,3239A,125.0764,42.9078,辽源市,银鹰制药,,25,11,102,9,33,78,,78,78,5,11,5,8,0.4,0.6
2024-03-17T0800,1625A,115.9848,36.4372,聊城市,区政府,颗粒物(PM10),112,174,177,12,58,77,,72,72,6,17,2,7,0.5,0.8
2024-03-17T0800,2878A,116.0072,36.4343,聊城市,聊大东校,颗粒物(PM10),102,153,173,14,61,82,,76,76,10,21,3,9,0.4,0.8
2024-03-17T0800,3200A,115.9819,36.4978,聊城市,监控中心,颗粒物(PM10),136,222,188,19,67,68,,64,64,8,25,3,9,0.6,0.7
2024-03-17T0800,3513A,116.0445,36.4361,聊城市,九州社区,颗粒物(PM10),91,131,186,14,55,79,,75,75,6,15,8,7,0.6,0.7
2024-03-17T0800,4018A,116.0567,36.4608,聊城市,星美广场,颗粒物(PM10),101,152,204,13,60,70,,66,66,17,23,6,10,0.5,0.8
2024-03-17T0800,2632A,94.3681,29.6376,林芝市,林芝监测站,,38,10,12,0,7,121,,125,125,1,2,5,5,0.6,0.6
2024-03-17T0800,2633A,94.3616,29.6616,林芝市,林芝人民医院,,37,14,18,11,8,118,,120,120,4,5,6,5,0.6,0.6
2024-03-17T0800,2603A,100.0781,23.8982,临沧市,市环保局,细颗粒物(PM2.5),77,74,73,56,60,56,,73,73,20,15,14,10,0.7,0.6
2024-03-17T0800,2604A,100.0894,23.8822,临沧市,市气象局,细颗粒物(PM2.5),88,78,79,65,60,55,,68,68,19,15,13,9,0.7,0.7
2024-03-17T0800,1733A,111.5531,36.0783,临汾市,临钢医院,颗粒物(PM10),113,176,286,51,69,81,,74,74,14,18,4,6,0.4,0.4
2024-03-17T0800,1734A,111.5028,36.0714,临汾市,技工学校,颗粒物(PM10),116,181,285,61,69,73,,76,76,23,19,7,8,0.7,0.6
2024-03-17T0800,1736A,111.5018,36.0855,临汾市,市委,颗粒物(PM10),109,167,281,34,60,72,,81,81,21,14,5,6,0.5,0.5
2024-03-17T0800,3018A,111.505,36.1014,临汾市,唐尧大酒店,颗粒物(PM10),105,160,252,36,61,85,,80,80,13,13,6,7,0.4,0.4
2024-03-17T0800,3668A,111.5036,36.0414,临汾市,城南,颗粒物(PM10),117,184,278,60,70,73,,77,77,17,16,7,8,0.5,0.5
2024-03-17T0800,2667A,103.2069,35.5993,临夏回族自治州,环保局,颗粒物(PM10),66,81,262,39,56,54,,59,59,1,4,2,3,0.5,0.4
2024-03-17T0800,2668A,103.2417,35.6057,临夏回族自治州,建设大厦,颗粒物(PM10),68,85,257,40,60,50,,53,53,13,12,1,2,0.4,0.4
2024-03-17T0800,1618A,118.3429,35.0532,临沂市,沂河小区,颗粒物(PM10),279,405,184,29,76,72,,62,62,11,29,4,10,0.5,0.8
2024-03-17T0800,1619A,118.295,35.0583,临沂市,鲁南制药厂,颗粒物(PM10),322,437,196,20,64,77,,74,74,13,31,5,10,0.4,0.7
2024-03-17T0800,1620A,118.2794,34.9976,临沂市,新光毛纺厂,颗粒物(PM10),307,425,179,23,71,67,,66,66,17,36,2,9,0.7,1
2024-03-17T0800,1621A,118.3956,35.0888,临沂市,河东保险公司,颗粒物(PM10),238,376,178,27,74,76,,55,55,16,36,3,8,0.5,0.8
2024-03-17T0800,3370A,118.3564,35.0215,临沂市,十里堡居委,颗粒物(PM10),315,432,177,24,64,78,,63,63,14,33,2,8,0.5,0.8
2024-03-17T0800,3496A,118.3604,35.1084,临沂市,南坊新区,颗粒物(PM10),223,366,168,29,72,75,,60,60,10,32,6,11,0.4,0.8
2024-03-17T0800,3860A,118.3920,35.0300,临沂市,皇山花园小区,颗粒物(PM10),447,547,192,34,73,77,,57,57,8,30,5,11,0.5,1
2024-03-17T0800,1870A,109.4856,24.3895,柳州市,柳东小学,颗粒物(PM10),53,55,41,35,32,10,,18,18,29,21,12,9,0.7,0.6
2024-03-17T0800,1871A,109.4157,24.3277,柳州市,环保监测站,,49,39,54,34,37,11,,8,8,23,28,7,7,0.8,1
2024-03-17T0800,1872A,109.389,24.341,柳州市,河西水厂,颗粒物(PM10),51,51,59,34,33,2,,4,4,25,27,6,5,1.2,1.1
2024-03-17T0800,1873A,109.4311,24.2921,柳州市,市四中,颗粒物(PM10),58,66,70,40,34,6,,9,9,24,26,8,7,1.5,1.1
2024-03-17T0800,1874A,109.4006,24.3631,柳州市,市九中,颗粒物(PM10),52,53,58,28,31,4,,4,4,29,34,7,8,0.9,0.9
2024-03-17T0800,1875A,109.4958,24.3134,柳州市,古亭山,,38,38,47,26,27,2,,2,2,15,26,6,7,1.0,0.8
2024-03-17T0800,3402A,109.5422,24.3996,柳州市,市二中,细颗粒物(PM2.5),55,54,45,39,27,5,,6,6,27,26,12,9,1.0,0.9
2024-03-17T0800,2307A,116.5079,31.737,六安市,监测大楼,细颗粒物(PM2.5),147,,86,112,80,88,,89,89,26,31,6,6,0.8,0.8
2024-03-17T0800,2308A,116.4738,31.7643,六安市,皖西学院,细颗粒物(PM2.5),139,,97,106,76,51,,75,75,34,27,3,5,0.8,0.8
2024-03-17T0800,2309A,116.4996,31.7905,六安市,朝阳厂,细颗粒物(PM2.5),156,,87,119,82,41,,73,73,37,29,5,6,0.7,0.7
2024-03-17T0800,2310A,116.5567,31.7886,六安市,开发区,细颗粒物(PM2.5),102,97,101,76,63,56,,70,70,39,32,4,5,0.8,0.8
2024-03-17T0800,2576A,104.8,26.5892,六盘水市,窑上,,,,,,,,,,,,,,,,
2024-03-17T0800,2577A,104.83,26.5917,六盘水市,黄土坡,细颗粒物(PM2.5),77,70,58,56,40,57,,48,48,14,12,16,10,1.1,0.9
2024-03-17T0800,2578A,104.89,26.5939,六盘水市,水钢,细颗粒物(PM2.5),92,83,61,68,41,52,,71,71,19,12,8,9,1.0,0.7
2024-03-17T0800,2579A,104.8475,26.5894,六盘水市,民中,细颗粒物(PM2.5),77,64,55,56,40,47,,51,51,15,12,11,9,1.1,0.9
2024-03-17T0800,2580A,104.9544,26.5506,六盘水市,双水,细颗粒物(PM2.5),79,78,56,58,39,67,,80,80,9,8,7,8,0.8,0.7
2024-03-17T0800,2335A,117.0189,25.1181,龙岩市,龙岩师专,,,,,,,,,,,,,,,,
2024-03-17T0800,2336A,117.0217,25.1033,龙岩市,龙岩市监测站,细颗粒物(PM2.5),59,51,44,42,41,1,,1,1,23,37,5,4,2.1,2.2
2024-03-17T0800,2337A,117.0258,25.0661,龙岩市,闽西职业技术学院,,45,38,39,31,32,2,,2,2,24,36,4,3,1.6,1.7
2024-03-17T0800,2338A,117.0196,25.0306,龙岩市,龙岩学院,,25,,26,17,20,2,,1,1,20,28,6,5,1.0,1
2024-03-17T0800,2665A,105.0822,33.3261,陇南市,汉王镇固水子,,,,,,,,,,,,,,,,
2024-03-17T0800,2885A,104.9339,33.3826,陇南市,滨江中学,颗粒物(PM10),78,105,305,43,75,44,,68,68,17,9,10,6,0.7,0.6
2024-03-17T0800,3247A,104.955,33.371,陇南市,市总工会,颗粒物(PM10),71,92,295,39,90,42,,59,59,12,12,7,7,0.5,0.5
2024-03-17T0800,2487A,111.9589,27.8901,娄底市,电视发射台,,21,21,27,9,13,24,,17,17,9,10,4,4,0.4,0.5
2024-03-17T0800,2488A,111.9975,27.725,娄底市,市监测站,,50,50,40,32,29,19,,21,21,24,25,4,6,0.6,0.6
2024-03-17T0800,2489A,112.0194,27.7314,娄底市,市委党校,,48,41,32,33,24,25,,23,23,13,16,6,6,0.6,0.6
2024-03-17T0800,2490A,111.9561,27.7569,娄底市,涟钢,,46,43,34,32,23,44,,28,28,24,24,8,8,1.1,0.7
2024-03-17T0800,2491A,111.9892,27.7044,娄底市,市政府,,22,20,27,15,23,9,,12,12,14,16,5,5,0.7,0.7
2024-03-17T0800,1893A,105.4324,28.9634,泸州市,九狮山,颗粒物(PM10),72,94,72,48,48,47,,48,48,18,21,6,7,0.4,0.6
2024-03-17T0800,1894A,105.4427,28.9063,泸州市,小市上码头,细颗粒物(PM2.5),69,80,82,50,54,40,,45,45,23,26,9,11,0.6,0.7
2024-03-17T0800,1895A,105.4241,28.8573,泸州市,兰田宪桥,细颗粒物(PM2.5),80,84,84,59,59,49,,52,52,13,21,7,8,0.5,0.6
2024-03-17T0800,1896A,105.4379,28.8833,泸州市,市环监站,细颗粒物(PM2.5),65,74,78,47,59,44,,50,50,14,23,10,10,0.5,0.6
2024-03-17T0800,3490A,105.3617,28.7703,泸州市,纳溪区环保局,细颗粒物(PM2.5),77,91,78,56,59,46,,54,54,20,27,4,6,0.7,0.8
2024-03-17T0800,2183A,111.1406,37.5211,吕梁市,环保局,颗粒物(PM10),87,124,233,31,57,10,,4,4,43,31,3,3,0.4,0.3
2024-03-17T0800,2185A,111.1297,37.5136,吕梁市,自来水公司,,,122,213,36,54,10,,11,11,41,26,,7,0.4,0.4
2024-03-17T0800,2867A,111.1283,37.51,吕梁市,马茂庄小学,颗粒物(PM10),91,132,244,31,55,9,,3,3,46,34,3,2,0.5,0.4
2024-03-17T0800,1812A,112.3931,34.6516,洛阳市,市委党校,颗粒物(PM10),84,117,196,40,69,88,,100,100,20,29,3,5,0.4,0.5
2024-03-17T0800,1814A,112.4657,34.6871,洛阳市,豫西宾馆,颗粒物(PM10),119,187,218,39,65,89,,96,96,11,25,7,10,0.1,0.3
2024-03-17T0800,1815A,112.494,34.6886,洛阳市,河南林校,颗粒物(PM10),100,149,191,43,75,84,,88,88,12,28,7,10,0.3,0.5
2024-03-17T0800,1816A,112.3844,34.623,洛阳市,开发区管委会,颗粒物(PM10),94,138,229,44,76,96,,101,101,8,16,3,5,0.6,0.6
2024-03-17T0800,1817A,112.4267,34.6258,洛阳市,市委新办公区,颗粒物(PM10),89,127,215,45,72,82,,87,87,14,24,5,7,0.3,0.4
2024-03-17T0800,3340A,112.6005,34.6326,洛阳市,伊滨,颗粒物(PM10),85,120,206,34,69,78,,100,100,21,28,6,7,0.5,0.6
2024-03-17T0800,3341A,112.4951,34.6332,洛阳市,中移产业园,颗粒物(PM10),106,162,186,35,67,85,,91,91,16,27,6,8,0.3,0.5
2024-03-17T0800,3593A,112.5736,34.8993,洛阳市,吉利监测站,颗粒物(PM10),98,146,192,30,63,74,,83,83,22,28,10,10,0.5,0.7
2024-03-17T0800,3635A,112.3677,34.662,洛阳市,河科大西苑校区,颗粒物(PM10),92,133,214,38,64,88,,102,102,16,26,3,6,0.4,0.5
2024-03-17T0800,3636A,112.4388,34.6781,洛阳市,英才小学,颗粒物(PM10),94,137,207,39,64,86,,92,92,14,28,4,8,0.5,0.7
2024-03-17T0800,2399A,114.051,33.5699,漯河市,三五一五工厂,细颗粒物(PM2.5),140,166,141,107,102,78,,91,91,19,22,15,15,0.6,0.6
2024-03-17T0800,2400A,114.0055,33.5698,漯河市,漯河大学,细颗粒物(PM2.5),132,158,145,100,94,81,,92,92,18,20,10,10,0.7,0.7
2024-03-17T0800,2401A,114.0138,33.5828,漯河市,市水利局,细颗粒物(PM2.5),128,163,137,97,91,79,,85,85,20,21,10,10,0.7,0.8
2024-03-17T0800,2402A,114.0261,33.5698,漯河市,市广电局,细颗粒物(PM2.5),139,173,139,106,95,83,,91,91,15,16,7,7,0.7,0.8
2024-03-17T0800,3478A,113.9749,33.5664,漯河市,市图书馆,细颗粒物(PM2.5),144,157,145,110,96,86,,93,93,18,20,17,16,0.7,0.7
2024-03-17T0800,3479A,114.0967,33.5906,漯河市,召陵区卫健委,细颗粒物(PM2.5),127,157,147,96,90,72,,74,74,21,32,7,8,0.7,0.8
2024-03-17T0800,1798A,118.5092,31.6837,马鞍山市,湖东路四小,细颗粒物(PM2.5),139,168,141,106,77,60,,81,81,34,49,8,13,1.0,1.2
2024-03-17T0800,1799A,118.5024,31.6449,马鞍山市,开发区,细颗粒物(PM2.5),144,144,137,110,96,70,,77,77,27,56,6,9,1.0,1
2024-03-17T0800,1800A,118.5228,31.7231,马鞍山市,慈湖,细颗粒物(PM2.5),156,163,118,119,90,2,,84,84,78,60,9,19,1.1,1.5
2024-03-17T0800,1802A,118.6245,31.7241,马鞍山市,濮塘,细颗粒物(PM2.5),125,145,109,95,62,45,,65,65,24,29,6,11,1.0,1.1
2024-03-17T0800,3633A,118.4918,31.6809,马鞍山市,雨山,细颗粒物(PM2.5),122,,86,92,76,46,,80,80,41,44,9,13,1.0,1
2024-03-17T0800,1686A,111.0286,21.4688,茂名市,电白南海,,35,29,43,24,27,47,,56,56,11,13,6,6,0.7,0.6
2024-03-17T0800,1687A,110.9294,21.6533,茂名市,茂石化七小,细颗粒物(PM2.5),58,41,55,41,42,28,,36,36,19,16,10,8,0.7,0.6
2024-03-17T0800,1688A,110.9107,21.6687,茂名市,健康路,细颗粒物(PM2.5),52,44,50,36,37,31,,38,38,16,14,11,10,0.6,0.6
2024-03-17T0800,1689A,110.8592,21.6828,茂名市,高岭,细颗粒物(PM2.5),52,44,55,36,38,39,,43,43,18,20,15,11,0.8,0.8
2024-03-17T0800,3450A,111.01,21.5165,茂名市,电白水东,,35,27,35,24,26,54,,61,61,9,10,13,8,0.5,0.5
2024-03-17T0800,2539A,104.0308,30.0478,眉山市,黑龙滩水库,颗粒物(PM10),98,145,94,40,41,51,,52,52,14,18,4,5,0.4,0.5
2024-03-17T0800,2540A,103.8416,30.0874,眉山市,气象局,颗粒物(PM10),104,157,106,51,44,50,,65,65,26,23,7,9,0.5,0.6
2024-03-17T0800,3137A,103.8578,30.0744,眉山市,市委党校,颗粒物(PM10),115,180,110,56,47,54,,62,62,24,28,7,9,0.4,0.5
2024-03-17T0800,3148A,103.8291,30.0564,眉山市,区人社局,颗粒物(PM10),101,151,93,51,48,45,,63,63,35,31,8,6,0.5,0.6
2024-03-17T0800,1690A,116.1231,24.3284,梅州市,梅江月梅,,37,37,38,24,30,1,,2,2,17,25,8,9,0.7,0.7
2024-03-17T0800,1691A,116.0797,24.2719,梅州市,梅县新城,,42,34,40,29,34,4,,2,2,24,28,8,5,1.0,0.9
2024-03-17T0800,1692A,116.1248,24.2654,梅州市,环境监控中心,,48,,39,33,35,5,,6,6,19,25,7,8,0.6,0.7
2024-03-17T0800,3315A,116.1233,24.2991,梅州市,梅龙,,33,27,35,23,28,5,,8,8,13,20,7,7,0.8,0.8
2024-03-17T0800,1878A,104.7778,31.4741,绵阳市,富乐山,颗粒物(PM10),70,90,209,42,74,82,,83,83,8,19,6,7,0.5,0.6
2024-03-17T0800,1879A,104.7563,31.4535,绵阳市,市人大,颗粒物(PM10),82,113,208,32,65,75,,78,78,12,31,7,8,0.4,0.6
2024-03-17T0800,1880A,104.6697,31.4668,绵阳市,高新区自来水公司,颗粒物(PM10),58,65,165,32,51,75,,80,80,17,30,6,8,0.5,0.6
2024-03-17T0800,1881A,104.7287,31.5075,绵阳市,三水厂,颗粒物(PM10),68,85,167,41,65,75,,77,77,11,28,8,9,0.6,0.8
2024-03-17T0800,3491A,104.69,31.5322,绵阳市,西科大附属小学,颗粒物(PM10),66,82,122,32,48,74,,75,75,13,29,6,8,0.6,0.8
2024-03-17T0800,3492A,104.5648,31.5343,绵阳市,安州区旅游局,颗粒物(PM10),61,72,162,26,59,68,,66,66,13,22,5,5,0.4,0.7
2024-03-17T0800,1784A,129.61,44.561,牡丹江市,环保大楼,,26,20,36,16,20,82,,75,75,10,17,6,10,0.3,0.5
2024-03-17T0800,1785A,129.6115,44.5782,牡丹江市,文化广场,,38,38,39,24,32,71,,66,66,16,21,9,12,0.5,0.6
2024-03-17T0800,1786A,129.5904,44.5963,牡丹江市,第一医院,,45,,37,31,31,78,,67,67,7,16,8,10,0.4,0.6
2024-03-17T0800,1787A,129.6364,44.6075,牡丹江市,机车工厂,,28,28,39,9,24,83,,64,64,4,14,8,12,0.3,0.4
2024-03-17T0800,1788A,129.6386,44.5462,牡丹江市,第一中学,,31,31,34,20,20,79,,69,69,9,16,9,9,0.4,0.5
2024-03-17T0800,2531A,105.0703,29.61,内江市,市监测站,颗粒物(PM10),165,279,78,98,52,52,,67,67,19,21,8,8,0.3,0.5
2024-03-17T0800,2532A,105.0717,29.5947,内江市,东兴区政府,颗粒物(PM10),160,269,88,92,43,54,,69,69,17,18,9,10,0.3,0.4
2024-03-17T0800,2533A,105.0653,29.5817,内江市,内江二中,颗粒物(PM10),158,265,81,77,45,49,,69,69,28,20,6,7,0.6,0.7
2024-03-17T0800,2534A,105.0406,29.5822,内江市,内江日报社,颗粒物(PM10),172,293,82,76,42,57,,67,67,20,21,9,10,0.5,0.7
2024-03-17T0800,2628A,92.0657,31.4846,那曲市,那曲监测站,,27,27,36,17,22,35,,38,38,6,9,7,6,1.0,1.2
2024-03-17T0800,3128A,92.0506,31.4797,那曲市,那曲会议中心,颗粒物(PM10),53,56,41,25,17,24,,40,40,21,12,9,8,0.8,0.5
2024-03-17T0800,1290A,115.8931,28.6843,南昌市,省外办,细颗粒物(PM2.5),52,38,43,36,36,17,,10,10,16,29,5,5,0.8,0.8
2024-03-17T0800,1291A,115.8886,28.7003,南昌市,省林业公司,,39,29,35,27,30,15,,4,4,29,43,4,4,0.8,0.8
2024-03-17T0800,1292A,115.8126,28.7442,南昌市,林科所,,20,17,36,14,28,23,,14,14,21,34,5,6,0.4,0.4
2024-03-17T0800,1294A,115.8518,28.687,南昌市,建工学校,,43,43,46,30,32,14,,15,15,24,36,4,4,0.8,0.8
2024-03-17T0800,1295A,115.8921,28.6424,南昌市,象湖,,33,27,44,23,30,16,,13,13,19,32,5,4,0.9,1
2024-03-17T0800,1296A,115.7423,28.7996,南昌市,武术学校,,46,,17,32,23,24,,8,8,4,8,11,10,0.5,0.5
2024-03-17T0800,1298A,115.9314,28.6842,南昌市,省站,,49,,43,34,35,18,,18,18,15,22,7,8,0.9,0.9
2024-03-17T0800,3046A,115.9084,28.6062,南昌市,机电学校,,45,43,46,31,33,17,,9,9,22,31,6,6,0.8,0.9
2024-03-17T0800,3690A,115.9721,28.7031,南昌市,外国语学校,细颗粒物(PM2.5),58,,35,41,31,22,,24,24,17,18,3,3,0.6,0.6
2024-03-17T0800,1905A,106.056,30.8064,南充市,西山风景区,颗粒物(PM10),101,151,65,61,38,81,,77,77,8,12,3,5,0.5,0.6
2024-03-17T0800,1906A,106.0789,30.8023,南充市,南充市委,颗粒物(PM10),108,166,88,39,30,73,,73,73,17,22,5,6,0.4,0.5
2024-03-17T0800,1907A,106.1031,30.8217,南充市,南充炼油厂,颗粒物(PM10),106,162,90,69,44,73,,74,74,16,23,5,6,0.3,0.4
2024-03-17T0800,1908A,106.1064,30.7856,南充市,高坪区监测站,颗粒物(PM10),104,158,75,57,38,73,,72,72,14,21,4,6,0.1,0.2
2024-03-17T0800,1909A,106.0642,30.7636,南充市,嘉陵区环保局,颗粒物(PM10),103,155,84,53,38,72,,71,71,15,21,5,6,0.2,0.4
2024-03-17T0800,1910A,106.1087,30.8388,南充市,市环境监测站,颗粒物(PM10),105,160,88,57,42,82,,80,80,15,22,5,6,0.2,0.3
2024-03-17T0800,1151A,118.8086,32.1065,南京市,迈皋桥,细颗粒物(PM2.5),119,116,101,90,70,21,,14,14,42,47,5,5,0.6,0.6
2024-03-17T0800,1152A,118.7538,32.0551,南京市,草场门,细颗粒物(PM2.5),107,102,95,80,69,42,,48,48,34,46,3,3,0.7,0.9
2024-03-17T0800,1153A,118.7794,32.0745,南京市,山西路,细颗粒物(PM2.5),138,112,107,105,83,39,,38,38,45,50,3,4,0.5,0.7
2024-03-17T0800,1154A,118.7752,32.0023,南京市,中华门,细颗粒物(PM2.5),119,114,102,90,68,45,,62,62,61,46,7,7,0.8,1
2024-03-17T0800,1155A,118.8109,32.0309,南京市,瑞金路,细颗粒物(PM2.5),100,114,107,75,62,58,,65,65,42,43,8,8,0.5,0.7
2024-03-17T0800,1156A,118.7997,32.0754,南京市,玄武湖,细颗粒物(PM2.5),114,109,105,86,73,33,,32,32,126,82,8,9,0.5,0.6
2024-03-17T0800,1157A,118.6414,32.0931,南京市,浦口,细颗粒物(PM2.5),114,,90,86,66,33,,56,56,31,30,6,7,0.9,0.9
2024-03-17T0800,1158A,118.7356,31.9996,南京市,奥体中心,细颗粒物(PM2.5),119,130,106,90,67,52,,84,84,42,34,8,10,0.8,0.9
2024-03-17T0800,1159A,118.9125,32.1028,南京市,仙林大学城,细颗粒物(PM2.5),122,100,101,92,76,14,,15,15,56,53,8,8,0.8,0.9
2024-03-17T0800,3422A,118.8436,31.9198,南京市,江宁彩虹桥,细颗粒物(PM2.5),117,,76,88,61,36,,66,66,48,40,3,4,0.5,0.6
2024-03-17T0800,3423A,119.0138,31.6494,南京市,溧水永阳,颗粒物(PM10),76,102,101,47,51,42,,63,63,33,29,4,4,1.0,0.9
2024-03-17T0800,3424A,118.879,31.3302,南京市,高淳老职中,细颗粒物(PM2.5),60,52,80,43,51,75,,82,82,17,26,5,7,0.8,0.9
2024-03-17T0800,3427A,118.8554,32.3578,南京市,六合雄州,细颗粒物(PM2.5),104,112,86,78,75,28,,45,45,23,23,6,7,0.8,0.8
2024-03-17T0800,1401A,108.3103,22.7881,南宁市,二十一中,细颗粒物(PM2.5),63,54,53,45,31,29,,37,37,17,16,4,5,0.9,0.8
2024-03-17T0800,1402A,108.3141,22.8528,南宁市,北湖,细颗粒物(PM2.5),72,68,66,52,43,10,,26,26,29,25,6,6,1.1,1
2024-03-17T0800,1403A,108.3206,22.8225,南宁市,市监测站,细颗粒物(PM2.5),67,60,55,48,37,15,,31,31,31,23,7,8,0.8,0.8
2024-03-17T0800,1404A,108.3829,22.8037,南宁市,大自然花园,细颗粒物(PM2.5),58,46,49,41,34,32,,38,38,11,12,6,6,0.8,0.8
2024-03-17T0800,1405A,108.4394,22.7904,南宁市,仙葫,细颗粒物(PM2.5),57,40,48,40,28,19,,34,34,22,18,6,7,0.5,0.5
2024-03-17T0800,1406A,108.2397,22.8467,南宁市,区农职院,细颗粒物(PM2.5),69,61,57,50,35,15,,25,25,30,28,6,7,0.9,0.8
2024-03-17T0800,1407A,108.3275,22.735,南宁市,英华嘉园,细颗粒物(PM2.5),59,61,57,42,31,4,,21,21,42,28,7,7,0.8,0.7
2024-03-17T0800,1408A,108.2257,22.7757,南宁市,沙井镇街道办,颗粒物(PM10),64,77,53,41,33,7,,24,24,36,21,5,6,0.6,0.5
2024-03-17T0800,3401A,108.4834,22.7618,南宁市,红星社区,,50,45,44,35,31,3,,18,18,22,14,6,7,0.9,0.9
2024-03-17T0800,2331A,118.0966,26.6761,南平市,茫荡山,,,,,,,,,,,,,,,,
2024-03-17T0800,2332A,118.1681,26.6369,南平市,南平市监测站,,42,38,34,29,26,1,,1,1,18,27,4,5,1.3,1.3
2024-03-17T0800,2333A,118.1825,26.6489,南平市,南平铝业有限公司,,43,32,26,30,24,4,,3,3,19,26,6,7,0.9,0.9
2024-03-17T0800,2334A,118.1756,26.6272,南平市,南平七中,,49,,28,34,28,3,,2,2,17,23,4,4,0.8,0.9
2024-03-17T0800,1168A,120.9098,31.9663,南通市,狼山街道,,48,36,43,33,35,71,,61,61,13,33,8,10,0.6,0.7
2024-03-17T0800,1169A,120.86,32.0005,南通市,虹桥,细颗粒物(PM2.5),60,48,64,43,53,62,,56,56,11,43,4,8,0.5,0.8
2024-03-17T0800,1170A,120.87,32.02,南通市,城中,细颗粒物(PM2.5),53,51,64,37,43,61,,59,59,11,34,4,8,0.4,0.7
2024-03-17T0800,1171A,120.94,31.93,南通市,星湖花园,,38,35,48,26,35,59,,56,56,22,40,5,6,0.6,0.8
2024-03-17T0800,1172A,120.81,32.0417,南通市,紫琅学院,细颗粒物(PM2.5),62,51,52,44,36,52,,61,61,23,46,7,9,0.5,0.7
2024-03-17T0800,3291A,121.067,32.062,南通市,通州监测站,,45,41,46,31,36,70,,65,65,11,20,7,8,0.6,0.6
2024-03-17T0800,3432A,120.9348,31.9883,南通市,环境教育馆,细颗粒物(PM2.5),58,44,51,41,41,63,,60,60,16,38,6,9,0.4,0.6
2024-03-17T0800,2404A,112.5224,33.0122,南阳市,瓦房庄,颗粒物(PM10),95,140,115,66,60,109,,103,103,16,27,6,5,0.6,0.7
2024-03-17T0800,2405A,112.5003,32.9735,南阳市,汉画馆,颗粒物(PM10),90,130,105,64,58,114,,99,99,19,31,9,7,0.5,0.5
2024-03-17T0800,2406A,112.5573,33.027,南阳市,气象站,颗粒物(PM10),87,123,114,61,59,106,,97,97,20,29,8,6,0.7,0.7
2024-03-17T0800,2407A,112.5481,32.9689,南阳市,理工学院,颗粒物(PM10),89,128,110,60,54,108,,102,102,16,26,10,9,0.8,0.8
2024-03-17T0800,4008A,112.5234,32.9922,南阳市,卧龙区政府,颗粒物(PM10),94,138,112,68,59,106,,101,101,19,32,8,6,0.7,0.8
2024-03-17T0800,1234A,121.8358,29.911,宁波市,区环保大楼,颗粒物(PM10),65,79,64,43,27,21,,4,4,77,63,12,8,0.9,0.9
2024-03-17T0800,1235A,121.56,29.82,宁波市,万里学院,颗粒物(PM10),57,63,44,37,27,5,,4,4,59,49,9,9,0.9,0.7
2024-03-17T0800,1236A,121.713,29.9572,宁波市,龙赛医院,,39,39,52,15,18,11,,6,6,63,68,7,8,0.3,0.5
2024-03-17T0800,1239A,121.633,29.7733,宁波市,钱湖水厂,颗粒物(PM10),52,54,35,35,29,16,,18,18,22,22,7,7,0.8,0.7
2024-03-17T0800,1240A,121.5856,29.8635,宁波市,太古小学,颗粒物(PM10),86,122,59,43,27,8,,3,3,69,42,9,8,1.0,0.8
2024-03-17T0800,1241A,121.524,29.8674,宁波市,市环境监测中心,颗粒物(PM10),63,75,52,44,28,14,,7,7,74,53,11,8,0.9,0.8
2024-03-17T0800,2871A,121.6147,29.9017,宁波市,万里国际学校,颗粒物(PM10),75,100,65,46,37,21,,4,4,72,55,10,9,0.8,0.8
2024-03-17T0800,3710A,121.5594,29.8975,宁波市,白沙活动中心,颗粒物(PM10),60,69,67,31,29,55,,8,8,41,55,10,8,0.5,0.5
2024-03-17T0800,2339A,119.5001,26.6946,宁德市,金涵水库,,,,,,,,,,,,,,,,
2024-03-17T0800,2341A,119.5388,26.6612,宁德市,宁德市监测站,,22,,22,15,26,9,,6,6,14,34,5,6,0.4,0.6
2024-03-17T0800,3209A,119.5231,26.6562,宁德市,宁德一中,,20,,24,14,22,11,,9,9,13,27,6,6,0.6,0.7
2024-03-17T0800,2618A,98.8601,25.8567,怒江傈僳族自治州,州监测站,细颗粒物(PM2.5),60,55,59,43,44,64,,81,81,13,11,8,8,0.5,0.5
2024-03-17T0800,2619A,98.8546,25.8417,怒江傈僳族自治州,泸水一中,细颗粒物(PM2.5),63,57,59,45,46,38,,54,54,23,20,7,7,0.6,0.6
2024-03-17T0800,1888A,101.6891,26.571,攀枝花市,弄弄坪,细颗粒物(PM2.5),67,69,47,48,35,105,,107,107,18,20,9,16,0.5,0.9
2024-03-17T0800,1889A,101.5769,26.5928,攀枝花市,河门口,细颗粒物(PM2.5),82,91,47,60,30,46,,64,64,34,19,19,12,0.8,0.6
2024-03-17T0800,1890A,101.7169,26.585,攀枝花市,炳草岗,颗粒物(PM10),69,87,50,46,28,28,,64,64,69,30,14,15,1.0,0.9
2024-03-17T0800,1891A,101.7369,26.5008,攀枝花市,仁和,细颗粒物(PM2.5),63,66,50,45,32,76,,99,99,24,13,8,7,0.8,0.7
2024-03-17T0800,2835A,101.7227,26.567,攀枝花市,四十中小,颗粒物(PM10),60,69,48,37,28,88,,117,117,37,18,12,10,0.6,0.5
2024-03-17T0800,1604A,122.0303,41.1489,盘锦市,开发区,,24,16,162,14,42,76,,79,79,10,18,4,6,0.7,0.8
2024-03-17T0800,1605A,122.0485,41.0883,盘锦市,兴隆台,,24,,170,7,44,76,,80,80,11,17,5,7,0.5,0.6
2024-03-17T0800,1606A,121.8297,41.1028,盘锦市,新生街道,,22,,187,12,54,70,,73,73,18,24,6,7,0.5,0.6
2024-03-17T0800,1832A,113.3257,33.742,平顶山市,新华旅馆,颗粒物(PM10),114,177,202,59,73,100,,104,104,19,29,10,10,0.7,0.8
2024-03-17T0800,1833A,113.2919,33.737,平顶山市,规划设计院,细颗粒物(PM2.5),100,142,193,75,80,96,,111,111,20,29,8,9,0.8,0.9
2024-03-17T0800,1834A,113.182,33.774,平顶山市,平顶山工学院,颗粒物(PM10),104,158,211,61,78,96,,88,88,14,20,7,8,0.6,0.7
2024-03-17T0800,3204A,113.3025,33.73,平顶山市,规划局,颗粒物(PM10),119,188,216,77,84,101,,108,108,16,23,10,11,0.5,0.7
2024-03-17T0800,3594A,112.8867,33.9116,平顶山市,石龙区,颗粒物(PM10),102,154,282,54,77,97,,91,91,14,30,8,8,0.5,0.5
2024-03-17T0800,2656A,106.6692,35.5461,平凉市,聚贤嘉苑,颗粒物(PM10),86,121,192,30,37,21,,74,74,61,26,6,8,0.4,0.4
2024-03-17T0800,2657A,106.7021,35.5307,平凉市,博物馆,颗粒物(PM10),94,138,200,29,40,27,,75,75,54,20,16,10,0.4,0.3
2024-03-17T0800,2347A,114.0997,27.5002,萍乡市,武功山,,17,17,18,5,8,8,,6,6,13,17,5,6,0.9,0.9
2024-03-17T0800,2348A,113.8385,27.6434,萍乡市,中医院,细颗粒物(PM2.5),65,49,45,47,38,9,,14,14,23,29,7,9,1.2,1
2024-03-17T0800,2349A,113.8493,27.6253,萍乡市,市政府车库,,49,37,42,34,34,8,,10,10,22,29,8,8,1.5,1.2
2024-03-17T0800,2350A,113.8676,27.6435,萍乡市,市环保局,,43,34,42,30,33,6,,16,16,26,30,9,12,1.4,1
2024-03-17T0800,2351A,113.866,27.6198,萍乡市,安源区政府,,50,45,43,35,32,4,,10,10,22,30,6,7,1.4,1.3
2024-03-17T0800,2319A,119.0141,25.4325,莆田市,荔城区仓后路,细颗粒物(PM2.5),72,73,51,52,39,14,,6,6,32,38,4,5,0.4,0.6
2024-03-17T0800,2320A,119.0015,25.4553,莆田市,莆田市监测站,"颗粒物(PM10),细颗粒物(PM2.5)",53,55,55,37,36,11,,6,6,32,33,5,6,0.9,1
2024-03-17T0800,2321A,119.1119,25.4561,莆田市,涵江区六中,细颗粒物(PM2.5),79,67,43,58,33,10,,11,11,38,40,5,5,1.0,0.8
2024-03-17T0800,2322A,119.1013,25.3215,莆田市,秀屿区政府,细颗粒物(PM2.5),89,,36,66,37,20,,29,29,25,25,6,7,0.9,0.9
2024-03-17T0800,2323A,118.981,25.4792,莆田市,东圳水库,,,,,,,,,,,,,,,,
2024-03-17T0800,2392A,115.0312,35.7636,濮阳市,环保局,颗粒物(PM10),154,257,121,26,60,74,,84,84,10,20,6,10,0.3,0.6
2024-03-17T0800,2394A,115.0574,35.7609,濮阳市,油田运输公司,颗粒物(PM10),174,297,158,30,61,76,,82,82,8,19,7,12,0.2,0.6
2024-03-17T0800,2395A,115.0866,35.7754,濮阳市,油田物探公司,颗粒物(PM10),169,288,155,27,62,69,,77,77,9,18,4,10,0.2,0.5
2024-03-17T0800,3021A,115,35.7668,濮阳市,濮水河管理处,颗粒物(PM10),159,268,128,29,60,69,,78,78,11,20,6,10,0.1,0.5
2024-03-17T0800,2601A,100.98,22.7633,普洱市,市环保局,细颗粒物(PM2.5),90,96,100,67,69,60,,79,79,23,17,8,8,0.5,0.5
2024-03-17T0800,2602A,100.9817,22.8322,普洱市,普洱第二中学,细颗粒物(PM2.5),72,82,87,52,59,35,,33,33,44,38,6,7,0.8,0.8
2024-03-17T0800,2262A,131.0518,45.8751,七台河市,新一中,,29,12,10,8,7,92,,95,95,4,5,8,8,0.5,0.6
2024-03-17T0800,3345A,131.0577,45.7879,七台河市,中波台,,27,,12,8,9,86,,86,86,10,13,4,6,0.6,0.5
2024-03-17T0800,3637A,131.0176,45.7761,七台河市,人民广场,,27,15,17,8,15,84,,89,89,11,14,8,8,0.7,0.7
2024-03-17T0800,3684A,130.8781,45.8222,七台河市,新建矿广场,,30,,12,21,21,81,,85,85,17,17,11,11,0.4,0.4
2024-03-17T0800,1779A,123.9305,47.3636,齐齐哈尔市,安居小区,,23,23,28,15,9,65,,67,67,12,12,5,7,0.3,0.3
2024-03-17T0800,1780A,123.9488,47.3386,齐齐哈尔市,中心广场,,20,14,24,8,12,64,,68,68,9,11,4,5,0.4,0.4
2024-03-17T0800,1781A,123.9483,47.3227,齐齐哈尔市,农牧车辆厂,,24,24,27,10,9,59,,66,66,13,9,6,7,0.4,0.3
2024-03-17T0800,1783A,123.945,47.2988,齐齐哈尔市,市环境监测站,,26,26,33,16,12,59,,67,67,14,9,3,3,0.3,0.2
2024-03-17T0800,3662A,123.6333,47.2075,齐齐哈尔市,富区青少年活动中心,,27,27,25,11,15,62,,67,67,18,9,16,8,1.0,0.4
2024-03-17T0800,2591A,107.9783,26.5747,黔东南苗族侗族自治州,市环境监测站,,25,23,29,17,21,16,,23,23,12,16,6,6,0.8,0.9
2024-03-17T0800,2881A,107.8908,26.5311,黔东南苗族侗族自治州,凯里学院,,22,21,20,15,14,14,,23,23,11,10,5,4,0.8,0.7
2024-03-17T0800,2593A,107.5228,26.2403,黔南布依族苗族自治州,小围寨,,19,19,28,12,21,21,,17,17,10,12,6,4,0.6,0.6
2024-03-17T0800,3538A,107.5175,26.2978,黔南布依族苗族自治州,沙坝,,20,14,30,14,20,18,,10,10,8,12,4,4,0.4,0.5
2024-03-17T0800,2589A,104.9022,25.0925,黔西南布依族苗族自治州,场坝街,细颗粒物(PM2.5),79,88,51,58,40,39,,58,58,29,13,2,2,0.7,0.6
2024-03-17T0800,2590A,104.8811,25.0992,黔西南布依族苗族自治州,坪东大道,细颗粒物(PM2.5),83,85,59,61,44,22,,32,32,37,18,1,2,0.9,0.6
2024-03-17T0800,2502A,108.6236,21.9667,钦州市,市环保站,颗粒物(PM10),58,66,72,39,42,10,,6,6,27,30,7,9,0.7,0.9
2024-03-17T0800,2503A,108.6549,21.9481,钦州市,沙埠小学,细颗粒物(PM2.5),67,82,68,48,37,3,,2,2,30,28,6,7,0.9,0.8
2024-03-17T0800,2504A,108.5989,21.7431,钦州市,港区一小,颗粒物(PM10),68,85,95,33,38,12,,22,22,24,21,7,8,0.7,0.8
2024-03-17T0800,3404A,108.5959,21.9633,钦州市,北职校,细颗粒物(PM2.5),57,50,64,40,39,11,,6,6,24,28,6,9,0.7,0.8
2024-03-17T0800,1042A,119.5134,39.8207,秦皇岛市,北戴河环保局,,41,41,125,20,36,87,,89,89,16,31,7,7,0.2,0.4
2024-03-17T0800,1043A,119.7493,40.0116,秦皇岛市,第一关,颗粒物(PM10),56,61,141,29,51,62,,77,77,38,34,8,9,0.3,0.5
2024-03-17T0800,1044A,119.5897,39.9499,秦皇岛市,监测站,,47,47,144,16,50,86,,91,91,20,32,5,7,0.3,0.5
2024-03-17T0800,1046A,119.5251,39.9041,秦皇岛市,建设大厦,,26,26,151,15,44,81,,86,86,20,27,3,5,0.2,0.5
2024-03-17T0800,3132A,119.610547,39.943889,秦皇岛市,文明里,,50,50,150,11,38,86,,89,89,21,42,4,5,0.4,0.6
2024-03-17T0800,1307A,120.6659,36.2403,青岛市,仰口,颗粒物(PM10),120,190,134,24,31,71,,71,71,14,18,3,3,0.2,0.3
2024-03-17T0800,1310A,120.4134,36.0658,青岛市,市南区东部子站,颗粒物(PM10),123,195,97,19,16,79,,64,64,8,16,7,7,0.5,0.6
2024-03-17T0800,1311A,120.3664,36.1032,青岛市,四方区子站,颗粒物(PM10),125,200,102,17,25,79,,59,59,17,24,3,4,0.5,0.7
2024-03-17T0800,1312A,120.2994,36.054,青岛市,市南区西部子站,颗粒物(PM10),128,205,84,20,15,74,,54,54,15,27,5,6,0.6,0.6
2024-03-17T0800,1313A,120.4581,36.0858,青岛市,崂山区子站,颗粒物(PM10),120,190,101,14,16,76,,69,69,12,18,6,6,0.4,0.4
2024-03-17T0800,1314A,120.1983,35.9608,青岛市,黄岛区子站,颗粒物(PM10),129,207,106,22,22,60,,52,52,28,27,7,6,0.5,0.6
2024-03-17T0800,1315A,120.3999,36.3083,青岛市,城阳区子站,颗粒物(PM10),109,168,104,17,24,80,,61,61,10,28,6,7,0.6,0.7
2024-03-17T0800,1966A,120.0405,35.8735,青岛市,黄岛区4号,颗粒物(PM10),131,212,104,9,19,88,,74,74,14,20,7,7,0.4,0.5
2024-03-17T0800,3362A,120.5014,36.4034,青岛市,即墨2号,颗粒物(PM10),92,133,139,14,36,78,,64,64,12,35,4,6,0.4,0.6
2024-03-17T0800,3642A,120.3503,36.0736,青岛市,市北区南部,颗粒物(PM10),176,302,58,17,15,78,,58,58,22,25,6,6,0.3,0.7
2024-03-17T0800,3643A,120.3948,36.1805,青岛市,李沧区北部,颗粒物(PM10),133,215,125,22,27,84,,66,66,15,32,7,7,0.6,0.6
2024-03-17T0800,1702A,113.0426,23.691,清远市,环保大楼,颗粒物(PM10),55,60,52,27,31,2,,1,1,25,33,6,3,1.1,1.2
2024-03-17T0800,1703A,113.0208,23.7106,清远市,凤城街办,细颗粒物(PM2.5),74,82,83,54,58,1,,1,1,30,47,5,3,1.7,1.7
2024-03-17T0800,3025A,113.0477,23.6344,清远市,技师学院,颗粒物(PM10),60,70,76,39,45,4,,3,3,27,38,5,4,1.3,1.2
2024-03-17T0800,3318A,112.9903,23.7403,清远市,清新太和,颗粒物(PM10),63,76,72,42,43,3,,2,2,30,39,8,7,1.0,1.1
2024-03-17T0800,3455A,113.076,23.7198,清远市,清城东城,细颗粒物(PM2.5),54,50,54,38,41,1,,1,1,27,36,5,4,1.0,1
2024-03-17T0800,2661A,107.6325,35.7357,庆阳市,庆阳五中,颗粒物(PM10),97,144,224,48,67,83,,85,85,14,10,9,6,0.3,0.4
2024-03-17T0800,2662A,107.6364,35.7067,庆阳市,市环保局,颗粒物(PM10),93,136,230,37,53,92,,91,91,8,11,6,7,0.3,0.3
2024-03-17T0800,1916A,103.7897,25.5035,曲靖市,环境监测站,细颗粒物(PM2.5),70,75,53,51,31,114,,110,110,17,10,17,11,0.6,0.4
2024-03-17T0800,1917A,103.8,25.5364,曲靖市,烟厂办公区,细颗粒物(PM2.5),68,72,55,49,31,111,,106,106,18,11,4,5,0.7,0.5
