timepoint,stationcode,longitude,latitude,area,positionname,primarypollutant,aqi,pm10,pm10_24h,pm2_5,pm2_5_24h,o3,o3_24h,o3_8h,o3_8h_24h,no2,no2_24h,so2,so2_24h,co,co_24h
2026-01-20T1000,2568A,102.2503,31.8896,阿坝藏族羌族自治州,马师校,,36,,23,25,21,21,,30,28,24,20,5,4,0.7,0.6
2026-01-20T1000,3994A,102.2174,31.9016,阿坝藏族羌族自治州,马尔康中学西区,,19,,17,13,16,30,,36,36,17,17,6,6,0.6,0.5
2026-01-20T1000,2695A,80.2899,41.1684,阿克苏地区,电视台,颗粒物(PM10),418,518,423,53,53,19,,39,37,39,22,6,7,1.6,1.2
2026-01-20T1000,2696A,80.2592,41.1541,阿克苏地区,艺术中心,颗粒物(PM10),442,542,398,74,63,24,,50,44,35,19,4,5,0.8,0.7
2026-01-20T1000,2205A,105.699,38.8409,阿拉善盟,蒙二幼,颗粒物(PM10),61,72,46,43,17,25,,46,40,33,15,13,11,0.9,0.5
2026-01-20T1000,2206A,105.7198,38.8508,阿拉善盟,环保局新楼,,,47,40,21,17,,,39,37,18,12,9,10,0.9,0.7
2026-01-20T1000,2708A,88.1266,47.8515,阿勒泰地区,市站,,16,6,8,3,4,51,,73,70,32,17,2,2,0.7,0.4
2026-01-20T1000,4166A,88.1198,47.7931,阿勒泰地区,阿勒泰路33号,,22,7,9,3,2,70,,81,80,18,13,2,3,0.4,0.4
2026-01-20T1000,2630A,80.1171,32.4999,阿里地区,阿里监测站,,21,6,3,3,3,65,,66,63,5,3,4,4,0.5,0.5
2026-01-20T1000,3192A,80.0906,32.5029,阿里地区,阿里藏医院,,26,26,18,18,10,54,,75,67,14,5,11,11,0.8,0.6
2026-01-20T1000,2644A,109.0088,32.6974,安康市,汉滨区检察院,,36,,29,25,25,42,,39,39,11,16,4,5,0.7,0.7
2026-01-20T1000,4054A,109.0324,32.6913,安康市,市邮政管理局,细颗粒物(PM2.5),55,,23,39,25,39,,36,36,11,12,4,4,0.5,0.6
2026-01-20T1000,2291A,117.0806,30.5181,安庆市,环科院,颗粒物(PM10),65,80,27,34,12,50,,50,50,5,6,5,4,0.5,0.4
2026-01-20T1000,2292A,117.0331,30.5118,安庆市,马山宾馆,,48,37,16,33,11,51,,52,52,13,11,4,3,0.4,0.4
2026-01-20T1000,2294A,116.9897,30.6146,安庆市,安庆大学,,48,38,16,33,11,53,,53,53,5,7,3,3,0.6,0.4
2026-01-20T1000,3173A,117.0598,30.5351,安庆市,市人大,"颗粒物(PM10),细颗粒物(PM2.5)",54,58,32,38,13,49,,50,50,9,9,4,4,0.9,0.6
2026-01-20T1000,3123A,105.9408,26.2431,安顺市,凤凰山,,17,17,31,8,24,23,,33,26,18,14,11,11,0.7,0.5
2026-01-20T1000,3124A,105.9443,26.2567,安顺市,金钟山,,19,19,31,11,26,20,,29,23,13,10,8,11,0.6,0.5
2026-01-20T1000,3125A,105.8983,26.248,安顺市,娄家坡,,13,13,30,7,24,20,,30,23,16,12,19,13,0.9,0.7
2026-01-20T1000,1819A,114.3552,36.1017,安阳市,红庙街,,33,33,42,12,19,51,,37,37,8,12,1,2,0.7,0.7
2026-01-20T1000,1820A,114.361,36.0681,安阳市,银杏小区,,27,27,45,15,23,52,,36,36,11,15,2,3,0.2,0.3
2026-01-20T1000,3141A,114.3921,36.0879,安阳市,信访局,,37,37,40,20,25,49,,36,36,16,18,5,5,0.5,0.6
2026-01-20T1000,3669A,114.4706,36.0634,安阳市,左辅环卫站,,36,36,49,19,24,47,,33,33,16,18,3,4,0.4,0.4
2026-01-20T1000,4117A,114.2918,36.0769,安阳市,钢三路198号,,37,37,43,3,24,41,,25,23,13,14,4,3,0.3,0.4
2026-01-20T1000,1748A,123.0441,41.1201,鞍山市,深沟寺,,,41,47,17,16,,,29,29,15,21,,7,0.8,0.8
2026-01-20T1000,1749A,123.011,41.0931,鞍山市,太阳城,,33,33,42,12,14,59,,47,47,11,17,15,12,0.8,0.8
2026-01-20T1000,1750A,123.0483,41.1445,鞍山市,太平,,42,42,81,15,26,48,,25,25,13,27,14,12,0.7,0.8
2026-01-20T1000,1751A,122.964,41.0968,鞍山市,铁西三道街,颗粒物(PM10),64,77,64,43,23,44,,28,28,22,28,28,24,1.9,1.4
2026-01-20T1000,1753A,123.0219,41.0822,鞍山市,明达新区,,32,32,43,11,13,50,,39,39,14,17,16,13,0.6,0.5
2026-01-20T1000,4201A,122.944647,41.082639,鞍山市,兴盛南路290号,颗粒物(PM10),52,54,79,15,21,50,,36,36,14,23,12,14,1.4,1.1
2026-01-20T1000,2195A,107.4206,40.7609,巴彦淖尔市,附二中,,30,30,27,21,17,44,,44,44,13,10,1,2,0.6,0.5
2026-01-20T1000,2196A,107.37,40.7372,巴彦淖尔市,市环保大楼,,,31,27,11,15,47,,44,44,14,12,,4,0.6,0.5
2026-01-20T1000,1956A,86.1476,41.7529,巴音郭楞蒙古自治州,孔雀公园,颗粒物(PM10),76,102,123,22,24,42,,58,53,22,12,7,7,0.5,0.4
2026-01-20T1000,1957A,86.1971,41.7166,巴音郭楞蒙古自治州,棉纺厂,颗粒物(PM10),85,120,149,20,19,24,,21,21,41,31,/,/,/,/
2026-01-20T1000,1958A,86.236,41.7172,巴音郭楞蒙古自治州,经济开发区,颗粒物(PM10),66,81,118,16,14,36,,52,49,24,10,4,5,0.5,0.4
2026-01-20T1000,3181A,106.776805,31.852614,巴中市,市五中,,29,28,24,20,19,24,,22,22,19,14,5,5,1.0,0.8
2026-01-20T1000,3183A,106.7419,31.8654,巴中市,圣泉水务公司,,25,20,19,17,14,31,,36,35,16,13,4,5,0.7,0.7
2026-01-20T1000,3616A,106.7617,31.8343,巴中市,市中心医院,,26,26,13,16,11,28,,26,26,18,17,7,8,0.8,0.8
2026-01-20T1000,2235A,122.7909,45.608,白城市,洮北区环保局,细颗粒物(PM2.5),54,42,37,38,15,46,,44,42,23,18,6,6,0.6,0.4
2026-01-20T1000,2236A,122.8741,45.5725,白城市,市环保局,,48,48,45,29,17,49,,40,39,12,12,8,6,0.5,0.4
2026-01-20T1000,2231A,126.4219,41.9172,白山市,喜丰,颗粒物(PM10),58,66,47,39,24,39,,30,30,25,22,16,16,0.9,0.6
2026-01-20T1000,2232A,126.4082,41.9416,白山市,环保局,细颗粒物(PM2.5),62,50,32,44,24,38,,32,30,20,14,18,12,0.5,0.4
2026-01-20T1000,2647A,104.1727,36.5448,白银市,第三小学,细颗粒物(PM2.5),93,95,59,69,25,13,,33,27,86,26,68,29,1.1,0.6
2026-01-20T1000,2648A,104.1467,36.5482,白银市,动力公司,细颗粒物(PM2.5),68,65,47,49,21,46,,32,31,36,16,83,15,1.7,1
2026-01-20T1000,2512A,106.6102,23.901,百色市,市监测站,细颗粒物(PM2.5),64,73,62,46,41,28,,47,37,34,20,22,19,0.9,0.8
2026-01-20T1000,2513A,106.6524,23.8842,百色市,市中心血站,细颗粒物(PM2.5),75,81,66,55,48,27,,54,44,31,17,18,19,0.9,0.8
2026-01-20T1000,4133A,106.6273,23.8798,百色市,龙景西路,颗粒物(PM10),76,101,83,52,51,25,,46,36,32,21,23,19,0.7,0.6
2026-01-20T1000,2270A,117.396,32.9389,蚌埠市,工人疗养院,,33,33,38,18,27,62,,66,66,8,8,5,4,0.2,0.2
2026-01-20T1000,2271A,117.3606,32.9428,蚌埠市,百货大楼,,,,31,,23,64,,67,67,,8,,4,0.3,0.4
2026-01-20T1000,2273A,117.4183,32.8909,蚌埠市,蚌埠学院,,22,22,24,11,25,63,,68,68,11,13,4,3,0.3,0.4
2026-01-20T1000,2274A,117.3534,32.9672,蚌埠市,淮上区政府,,29,29,29,15,28,65,,68,68,6,7,2,1,0.3,0.3
2026-01-20T1000,2275A,117.3143,32.8977,蚌埠市,高新区,,29,24,27,20,27,60,,64,64,9,9,6,5,0.0,0.1
2026-01-20T1000,3715A,117.3091,32.9314,蚌埠市,蚌埠田家炳中学,,28,28,31,18,27,63,,65,65,10,11,4,3,0.4,0.4
2026-01-20T1000,1585A,109.8761,40.6533,包头市,市环境监测站,,33,33,30,3,6,41,,52,47,21,11,11,4,0.7,0.4
2026-01-20T1000,1587A,109.9992,40.5843,包头市,包头八中,,41,41,20,26,10,24,,39,32,36,15,7,3,1.1,0.7
2026-01-20T1000,1589A,109.8641,40.6288,包头市,惠龙物流,,18,14,15,7,7,56,,57,56,13,10,15,7,0.7,0.5
2026-01-20T1000,1590A,110.0376,40.5546,包头市,东河鸿龙湾,,45,45,21,26,8,25,,23,19,39,23,9,6,1.0,0.8
2026-01-20T1000,3283A,109.9154,40.5684,包头市,滨河大厦,,46,46,18,29,10,22,,34,26,36,14,10,6,1.1,0.7
2026-01-20T1000,3419A,109.9449,40.6259,包头市,包头市委党校,,40,37,25,28,8,23,,41,33,42,16,8,7,0.9,0.6
2026-01-20T1000,3683A,109.8332,40.6577,包头市,昆区政府,,,,16,,6,,,53,53,,12,,6,,0.6
2026-01-20T1000,1931A,107.0802,34.3129,宝鸡市,竹园沟,,50,,44,35,27,31,,34,33,13,17,5,5,0.4,0.4
2026-01-20T1000,1933A,107.1429,34.3549,宝鸡市,监测站,细颗粒物(PM2.5),62,,45,44,34,29,,35,34,20,20,3,4,0.4,0.4
2026-01-20T1000,1934A,107.1172,34.3759,宝鸡市,技工学校,,,43,42,40,33,30,,36,35,19,19,,3,1.0,1
2026-01-20T1000,1936A,107.2025,34.3518,宝鸡市,文理学院,细颗粒物(PM2.5),57,45,43,40,29,36,,40,38,16,20,3,3,0.5,0.5
2026-01-20T1000,1937A,107.2396,34.3626,宝鸡市,三迪小学,细颗粒物(PM2.5),68,,44,49,32,34,,41,39,15,20,2,2,0.6,0.5
2026-01-20T1000,4155A,107.1721,34.3558,宝鸡市,滨河北路,"颗粒物(PM10),细颗粒物(PM2.5)",52,53,53,36,26,30,,36,34,15,17,3,4,0.5,0.5
2026-01-20T1000,4308A,107.3898,34.3601,宝鸡市,陈仓区北开路21号,细颗粒物(PM2.5),57,40,47,40,30,42,,45,43,12,19,4,5,0.8,0.7
2026-01-20T1000,1051A,115.4803,38.8568,保定市,游泳馆,,43,43,41,9,16,42,,14,14,18,29,3,3,0.5,0.5
2026-01-20T1000,1052A,115.509,38.8895,保定市,华电二区,细颗粒物(PM2.5),54,52,39,38,29,18,,4,4,47,34,5,3,0.8,0.5
2026-01-20T1000,1053A,115.4588,38.9037,保定市,接待中心,,48,48,42,25,19,20,,4,4,36,32,1,3,0.5,0.3
2026-01-20T1000,1054A,115.4484,38.8344,保定市,地表水厂,,,64,59,20,22,,,6,5,26,38,5,5,0.3,0.3
2026-01-20T1000,3581A,115.3136,38.9511,保定市,满城区生态环境分局,颗粒物(PM10),54,58,55,29,21,23,,6,6,44,44,2,2,0.7,0.6
2026-01-20T1000,3582A,115.4709,38.7628,保定市,清苑区第二中学,颗粒物(PM10),51,51,53,17,20,37,,12,12,24,32,1,2,0.4,0.4
2026-01-20T1000,3583A,115.6231,39.0223,保定市,徐水物探局,颗粒物(PM10),63,76,49,43,24,14,,5,5,41,37,3,3,0.9,0.5
2026-01-20T1000,4004A,115.4199,38.8665,保定市,双鹰农机,,,,42,26,23,28,,9,9,46,40,5,4,0.5,0.3
2026-01-20T1000,4034A,115.515,38.8589,保定市,植保所站,,48,48,43,20,28,32,,11,11,40,32,3,2,0.6,0.6
2026-01-20T1000,2594A,99.1589,25.1137,保山市,市环境监测站,,40,33,28,28,19,30,,51,44,21,10,8,5,0.6,0.4
2026-01-20T1000,2595A,99.1616,25.1381,保山市,市环保局,,35,35,35,18,24,34,,62,54,20,7,5,4,0.6,0.5
2026-01-20T1000,1867A,109.1435,21.4085,北海市,海滩公园,,46,46,44,24,23,94,,111,104,11,9,10,7,0.7,0.8
2026-01-20T1000,1868A,109.0983,21.466,北海市,新市环保局,,45,44,41,31,28,94,,111,104,16,11,10,6,0.6,0.6
2026-01-20T1000,1869A,109.1775,21.5232,北海市,北海工业园,颗粒物(PM10),58,66,49,32,29,74,,95,85,24,13,10,7,0.8,0.8
2026-01-20T1000,3400A,109.1844,21.4396,北海市,龙潭自来水厂,,44,44,42,28,28,88,,103,97,10,7,8,5,1.1,1.1
2026-01-20T1000,1001A,116.3611,39.8786,北京市,万寿西宫,,19,19,19,6,8,52,,46,46,11,12,2,2,0.6,0.5
2026-01-20T1000,1003A,116.4174,39.9289,北京市,东四,,19,19,20,8,8,46,,42,42,13,15,4,4,0.3,0.3
2026-01-20T1000,1004A,116.4073,39.8858,北京市,天坛,,19,19,18,6,6,50,,46,46,11,11,3,3,0.7,0.5
2026-01-20T1000,1005A,116.4622,39.9364,北京市,农展馆,,18,18,17,3,1,49,,45,45,9,10,3,4,0.7,0.6
2026-01-20T1000,1006A,116.3399,39.9293,北京市,官园,,20,20,20,8,7,46,,41,41,12,11,5,5,0.2,0.2
2026-01-20T1000,1007A,116.2879,39.9613,北京市,海淀万柳,,16,13,18,3,7,50,,38,38,12,19,3,3,0.5,0.5
2026-01-20T1000,1008A,116.6635,40.1349,北京市,顺义新城,,20,15,19,3,5,62,,60,60,3,6,3,4,0.4,0.4
2026-01-20T1000,1009A,116.6275,40.327,北京市,怀柔镇,,18,10,11,3,5,56,,53,52,6,8,4,4,0.4,0.4
2026-01-20T1000,1010A,116.2295,40.217,北京市,昌平镇,,17,17,24,7,8,54,,51,50,12,9,2,2,0.6,0.5
2026-01-20T1000,1011A,116.3968,39.982,北京市,奥体中心,,18,16,18,6,8,56,,46,46,12,17,4,4,0.3,0.3
2026-01-20T1000,3418A,116.8336,40.4095,北京市,密云新城,,19,9,11,3,6,60,,59,59,2,3,2,2,0.4,0.4
2026-01-20T1000,3671A,116.0879,39.9725,北京市,门头沟三家店,,17,12,20,3,8,53,,37,37,6,20,3,3,0.3,0.3
2026-01-20T1000,3672A,116.1507,39.8246,北京市,丰台云岗,,33,33,22,14,8,31,,18,18,34,24,1,2,0.5,0.4
2026-01-20T1000,3674A,115.9578,39.7602,北京市,房山燕山,,24,24,15,15,8,37,,36,34,24,11,5,4,0.6,0.5
2026-01-20T1000,3675A,116.4669,39.7734,北京市,大兴旧宫,,16,9,19,3,6,49,,39,39,13,15,3,3,0.5,0.4
2026-01-20T1000,3694A,115.9859,40.4562,北京市,延庆石河营,,21,21,22,11,8,55,,52,52,6,8,3,3,0.5,0.4
2026-01-20T1000,3695A,116.6151,40.3052,北京市,怀柔新城,,19,13,14,10,8,59,,55,55,2,4,4,4,0.5,0.4
2026-01-20T1000,3696A,116.2542,39.8764,北京市,丰台小屯,,,,17,,6,,,54,37,,14,,3,,0.5
2026-01-20T1000,3697A,116.8399,40.3843,北京市,密云镇,,20,10,12,3,4,62,,62,62,3,4,3,2,0.6,0.5
2026-01-20T1000,4057A,115.9423,40.4431,北京市,延庆百泉,,20,20,20,11,9,44,,29,28,8,10,1,2,0.4,0.3
2026-01-20T1000,4058A,116.6598,39.9164,北京市,通州新华,,17,15,22,6,7,52,,50,50,9,10,1,2,0.5,0.5
2026-01-20T1000,4182A,116.1942,39.9158,北京市,石景山八角,,20,20,22,7,7,47,,34,34,11,17,1,2,0.3,0.2
2026-01-20T1000,4194A,117.078628,40.151726,北京市,平谷新城,,19,9,11,9,7,58,,57,57,3,3,1,1,0.1,0.2
2026-01-20T1000,1761A,123.8274146,41.31234549,本溪市,大峪,细颗粒物(PM2.5),90,120,63,67,28,22,,11,11,32,27,8,8,1.8,1
2026-01-20T1000,1763A,123.7169,41.3094,本溪市,彩屯,细颗粒物(PM2.5),90,102,60,67,29,19,,21,16,43,31,9,8,2.0,0.8
2026-01-20T1000,1764A,123.7672166,41.28649327,本溪市,东明,细颗粒物(PM2.5),75,94,58,55,28,19,,7,7,37,30,6,6,2.0,1.1
2026-01-20T1000,1765A,123.799345,41.266614,本溪市,新立屯,颗粒物(PM10),52,53,45,24,21,36,,20,20,20,24,14,10,0.7,0.6
2026-01-20T1000,1766A,123.829144,41.336777,本溪市,威宁,颗粒物(PM10),77,103,62,41,27,26,,10,10,21,29,6,6,1.4,0.9
2026-01-20T1000,2587A,105.287,27.3133,毕节市,八中,,,7,36,3,31,,,29,29,8,13,8,9,0.8,0.8
2026-01-20T1000,2588A,105.3079,27.2987,毕节市,师专,,10,8,38,3,29,32,,32,32,12,12,7,9,0.8,0.9
2026-01-20T1000,4263A,105.3688,27.3598,毕节市,工业大道,,10,8,41,3,30,30,,31,30,10,12,9,10,/,/
2026-01-20T1000,1629A,117.9961,37.3604,滨州市,第二水厂,,,24,33,18,10,,,29,29,17,17,10,10,0.7,0.6
2026-01-20T1000,1630A,117.9789,37.3931,滨州市,北中新校,,24,24,32,12,8,41,,30,30,16,16,5,5,0.6,0.5
2026-01-20T1000,3514A,117.9379,37.3959,滨州市,中海酒店,,28,24,30,19,12,40,,26,26,17,19,9,7,0.5,0.5
2026-01-20T1000,3515A,117.9381509,37.35547456,滨州市,开发区一中,,27,27,39,14,10,46,,28,28,13,17,13,11,0.5,0.5
2026-01-20T1000,3516A,118.0914,37.6938,滨州市,金海六路,,19,19,32,9,5,50,,24,24,18,18,3,3,0.4,0.3
2026-01-20T1000,4028A,117.9955,37.3752,滨州市,滨州市西街道办事处,,22,22,29,14,12,48,,35,35,14,15,9,9,0.6,0.5
2026-01-20T1000,2311A,115.8071,33.8399,亳州市,污水处理厂,,30,30,34,10,25,54,,53,52,10,13,4,3,0.2,0.3
2026-01-20T1000,2312A,115.7789,33.8519,亳州市,三国揽胜宫,,28,28,53,15,30,53,,50,50,2,6,3,2,0.2,0.3
2026-01-20T1000,3332A,115.7631,33.803,亳州市,亳州学院,,24,24,37,10,29,54,,52,51,11,14,5,4,0.3,0.4
2026-01-20T1000,2693A,82.0482,44.8553,博尔塔拉蒙古自治州,市党校,颗粒物(PM10),61,71,72,30,29,39,,48,48,26,22,2,3,0.9,1.4
2026-01-20T1000,2694A,82.0805,44.8966,博尔塔拉蒙古自治州,市环保局,,,,74,46,41,16,,25,21,42,28,7,7,1.1,1.1
2026-01-20T1000,1071A,116.8733,38.2922,沧州市,沧县城建局,,34,34,40,18,19,55,,37,37,16,24,6,6,0.3,0.4
2026-01-20T1000,1072A,116.8462,38.3189,沧州市,电视转播站,,32,32,38,9,12,50,,29,29,18,28,1,3,0.5,0.6
2026-01-20T1000,1073A,116.8588,38.3161,沧州市,市环保局,,30,30,40,15,23,45,,24,24,14,26,4,5,0.4,0.4
2026-01-20T1000,3324A,116.8011,38.294,沧州市,河北水利电力学院,,17,17,32,6,13,51,,26,26,14,27,3,3,0.2,0.3
2026-01-20T1000,2622A,97.1813,31.1289,昌都市,昌都监测站,,,,35,14,16,21,,45,42,30,19,4,4,0.5,0.6
2026-01-20T1000,3719A,97.1707,31.1428,昌都市,昌都会议中心,,19,18,16,13,14,34,,46,42,10,5,2,1,0.4,0.4
2026-01-20T1000,2692A,87.2722,44.0298,昌吉回族自治州,新区政务中心,颗粒物(PM10),57,63,66,39,47,5,,14,14,57,31,4,5,0.8,0.7
2026-01-20T1000,3613A,87.3069,44.0093,昌吉回族自治州,亚心广场,细颗粒物(PM2.5),64,63,74,46,56,30,,29,28,32,23,7,8,0.8,0.7
2026-01-20T1000,4164A,87.2057,43.9289,昌吉回族自治州,财政所,,35,,47,24,39,52,,55,55,14,15,4,4,0.5,0.6
2026-01-20T1000,1120A,125.2874,43.9024,长春市,客车厂,,49,49,46,26,26,35,,29,29,24,23,26,15,0.6,0.5
2026-01-20T1000,1121A,125.2943,43.8508,长春市,邮电学院,,,35,43,20,23,37,,23,23,21,27,,12,0.6,0.6
2026-01-20T1000,1122A,125.3648,43.8745,长春市,劳动公园,,,,42,,20,,,52,,,24,,11,,0.6
2026-01-20T1000,1123A,125.3233,43.8781,长春市,园林处,,44,44,42,19,21,39,,30,30,17,20,11,11,0.6,0.5
2026-01-20T1000,1124A,125.4604,43.7904,长春市,净月潭,细颗粒物(PM2.5),53,48,40,37,20,37,,29,29,20,18,10,7,0.7,0.5
2026-01-20T1000,1126A,125.38,43.8422,长春市,经开区环卫处,颗粒物(PM10),55,60,43,24,19,32,,19,19,27,27,9,7,0.6,0.5
2026-01-20T1000,1127A,125.234,43.7761,长春市,高新区管委会,,,114,48,36,28,46,,23,23,21,29,14,9,,0.4
2026-01-20T1000,1128A,125.1695,43.83,长春市,岱山公园,细颗粒物(PM2.5),57,50,45,40,26,48,,38,38,12,19,8,7,0.6,0.5
2026-01-20T1000,4281A,125.334645,43.916281,长春市,北亚泰大街1068号,,45,45,44,20,23,33,,25,25,25,25,21,14,0.5,0.4
2026-01-20T1000,1335A,113.082,28.2421,长沙市,经开区环保局,,20,16,15,14,8,35,,35,35,13,15,2,2,0.3,0.4
2026-01-20T1000,1336A,112.8873,28.2202,长沙市,高开区环保局,,26,22,15,18,6,39,,40,40,10,13,3,4,0.4,0.4
2026-01-20T1000,1337A,113.0785,28.2012,长沙市,马坡岭,,20,20,14,12,7,36,,36,36,15,17,3,3,0.6,0.7
2026-01-20T1000,1338A,112.9448,28.1894,长沙市,湖南师范大学,,25,21,15,17,8,42,,42,42,12,15,3,3,0.4,0.5
2026-01-20T1000,1339A,113.0177,28.1322,长沙市,雨花区环保局,,22,16,13,15,14,38,,37,37,14,16,6,6,0.6,0.7
2026-01-20T1000,1340A,112.9795,28.2593,长沙市,伍家岭,,27,27,15,15,9,38,,40,40,17,18,4,4,0.5,0.6
2026-01-20T1000,1341A,113.002,28.1944,长沙市,火车新站,,28,,12,19,12,40,,41,41,13,14,3,2,0.6,0.7
2026-01-20T1000,1342A,112.9846,28.1177,长沙市,天心区环保局,,20,17,13,14,8,39,,40,40,16,19,4,4,0.4,0.4
2026-01-20T1000,1343A,112.8906,28.1307,长沙市,湖南中医药大学,,22,18,14,15,8,41,,42,42,16,17,4,4,0.5,0.6
2026-01-20T1000,1727A,113.1146,36.1547,长治市,清华站,细颗粒物(PM2.5),92,,55,68,54,22,,21,20,23,21,8,9,1.1,1.1
2026-01-20T1000,1730A,113.0887,36.2126,长治市,审计局,细颗粒物(PM2.5),89,,58,66,60,19,,17,16,25,22,7,7,1.1,1.1
2026-01-20T1000,1731A,113.0845,36.1856,长治市,长治八中,细颗粒物(PM2.5),84,69,65,62,58,22,,20,19,18,19,8,8,1.2,1.2
2026-01-20T1000,2845A,113.1561,36.1912,长治市,德盛苑,细颗粒物(PM2.5),92,,53,68,54,23,,25,24,20,20,7,8,1.1,1.1
2026-01-20T1000,3568A,113.0603,36.0464,长治市,向阳小学,细颗粒物(PM2.5),94,100,84,70,64,28,,19,19,21,28,8,7,1.1,1.1
2026-01-20T1000,3569A,112.8788,36.315,长治市,屯留一中,,50,50,71,32,58,31,,18,18,26,39,7,9,0.9,1.4
2026-01-20T1000,4189A,113.113092,36.199482,长治市,英华南巷50号,细颗粒物(PM2.5),77,56,60,56,52,27,,22,21,18,20,6,6,1.1,1.1
2026-01-20T1000,4190A,113.23666,36.33435,长治市,学府街1号,细颗粒物(PM2.5),59,47,48,42,40,30,,20,20,24,29,15,11,0.9,1.1
2026-01-20T1000,1854A,111.696,28.9725,常德市,市二中,细颗粒物(PM2.5),67,50,36,48,30,39,,42,42,12,13,4,4,0.8,0.7
2026-01-20T1000,3138A,111.7152,29.0288,常德市,武陵区永安,细颗粒物(PM2.5),67,56,35,48,28,40,,43,43,18,18,4,4,0.7,0.6
2026-01-20T1000,3139A,111.6891,28.9881,常德市,鼎城区玉霞,细颗粒物(PM2.5),65,52,31,47,27,42,,44,44,12,13,6,6,0.7,0.6
2026-01-20T1000,3140A,111.6651,29.0526,常德市,武陵区长庚,细颗粒物(PM2.5),65,50,33,47,29,38,,42,42,16,16,3,3,0.7,0.7
2026-01-20T1000,1196A,119.9524,31.7586,常州市,市监测站,,29,28,21,20,14,47,,57,54,17,12,4,4,0.9,0.9
2026-01-20T1000,1200A,119.9351,31.703,常州市,武进监测站,,36,25,21,25,15,44,,55,51,20,13,10,9,0.9,0.9
2026-01-20T1000,3002A,119.9701,31.813,常州市,行政中心,,35,24,23,24,14,44,,56,53,22,14,4,4,0.5,0.5
2026-01-20T1000,3003A,120.0434,31.7726,常州市,经开区,,28,28,24,15,11,50,,55,53,14,12,2,2,0.5,0.4
2026-01-20T1000,3010A,119.8919,31.7892,常州市,钟楼,,29,22,18,20,12,42,,52,49,16,9,6,6,0.5,0.4
2026-01-20T1000,3429A,119.8595,31.706,常州市,武进经发区,,36,32,22,25,15,51,,57,56,16,13,5,4,0.8,0.6
2026-01-20T1000,3430A,119.5812,31.7256,常州市,金坛城区,,38,37,25,26,16,47,,54,52,13,9,6,6,0.9,0.7
2026-01-20T1000,4089A,119.9551,31.863,常州市,崇义南街5-H号,,30,24,18,21,10,47,,55,52,15,11,4,4,0.7,0.6
2026-01-20T1000,2220A,120.4318,41.588,朝阳市,西梁,颗粒物(PM10),89,127,54,53,27,20,,9,8,27,19,15,8,1.4,0.8
2026-01-20T1000,2221A,120.452,41.565,朝阳市,河畔小区,细颗粒物(PM2.5),63,70,41,45,16,26,,17,17,25,21,13,9,2.4,1.5
2026-01-20T1000,2222A,120.4176,41.5648,朝阳市,八里堡,细颗粒物(PM2.5),65,74,42,47,19,21,,16,12,34,21,16,8,1.4,0.6
2026-01-20T1000,3026A,116.6179,23.6608,潮州市,市政府,,48,48,61,25,38,65,,54,52,14,18,4,5,0.4,0.5
2026-01-20T1000,4036A,116.646,23.676,潮州市,金山,颗粒物(PM10),61,72,57,22,37,61,,30,28,19,18,3,4,0.4,0.5
2026-01-20T1000,2473A,113.0116,25.8228,郴州市,市职中,,8,7,19,3,12,13,,6,6,12,19,3,3,0.5,0.6
2026-01-20T1000,2475A,113.0381,25.8074,郴州市,市审计局,,8,6,21,3,14,13,,,,14,19,1,3,/,/
2026-01-20T1000,2476A,113.0348,25.7757,郴州市,市环保局,,13,13,26,3,10,14,,7,7,12,17,2,3,0.4,0.5
2026-01-20T1000,4252A,113.0138,25.8011,郴州市,好美居路49号,,9,,10,6,12,22,,15,15,11,18,1,2,/,/
2026-01-20T1000,1431A,103.9727,30.7242,成都市,金泉两河,,45,45,37,18,12,30,,39,36,33,28,2,2,0.8,0.8
2026-01-20T1000,1432A,104.1423,30.6765,成都市,十里店,,47,47,32,23,13,40,,43,42,23,20,3,3,0.6,0.6
2026-01-20T1000,1433A,104.0594,30.5765,成都市,三瓦窑,,45,45,30,26,15,40,,47,45,23,20,2,2,0.7,0.7
2026-01-20T1000,1434A,104.1122,30.6306,成都市,沙河铺,,50,50,37,28,17,35,,42,40,29,23,3,3,0.6,0.6
2026-01-20T1000,2880A,104.0219,30.6561,成都市,大石西路,,46,46,39,28,21,39,,39,39,12,12,4,5,0.6,0.6
2026-01-20T1000,3136A,104.2724,30.559,成都市,龙泉驿区区政府,,25,24,19,17,10,43,,40,40,13,15,6,6,0.7,0.6
2026-01-20T1000,3357A,104.0028,30.6891,成都市,金博路,,45,38,25,31,12,36,,42,40,23,24,4,5,1.0,0.9
2026-01-20T1000,3359A,104.056,30.5228,成都市,华阳,,32,31,26,22,16,36,,44,42,28,25,2,2,0.5,0.5
2026-01-20T1000,3488A,104.387954,30.746684,成都市,青石路225号,,45,34,30,31,18,42,,41,40,15,16,4,4,0.6,0.5
2026-01-20T1000,3489A,104.0788,30.4054,成都市,科学城,,28,28,15,17,10,34,,38,36,18,16,6,6,0.9,0.8
2026-01-20T1000,4011A,103.8505,30.6946,成都市,光华大道三段,,40,40,44,14,19,40,,44,41,27,25,2,3,0.4,0.3
2026-01-20T1000,4144A,104.3257,30.6406,成都市,八角井街185号,,39,37,33,27,12,32,,36,33,22,14,3,2,1.0,0.9
2026-01-20T1000,4224A,104.2433276,30.53529463,成都市,鲸龙路1057号,,34,34,19,22,11,41,,38,38,15,18,4,4,0.6,0.6
2026-01-20T1000,1062A,117.9531,40.908,承德市,铁路,,22,22,30,3,8,58,,53,52,6,5,4,4,0.2,0.2
2026-01-20T1000,1063A,117.9397,40.9763,承德市,中国银行,,,,33,69,10,,,48,45,2,3,2,2,0.2,0.2
2026-01-20T1000,4073A,117.9462,40.95,承德市,杏林街1号,,19,10,24,7,10,58,,51,49,4,4,4,3,0.3,0.2
2026-01-20T1000,4274A,117.7994,40.9605,承德市,滨河大街98号,,18,9,19,3,7,57,,53,53,8,6,2,2,0.2,0.2
2026-01-20T1000,2314A,117.4698,30.6617,池州市,池州学院,,42,35,16,29,14,48,,46,46,14,18,2,2,0.5,0.4
2026-01-20T1000,3237A,117.4918,30.6617,池州市,展览馆,颗粒物(PM10),52,54,19,27,12,48,,46,46,19,23,3,2,0.8,0.7
2026-01-20T1000,3333A,117.5626,30.695,池州市,第八中学,,48,48,23,31,15,46,,43,43,15,19,4,2,1.0,0.8
2026-01-20T1000,3334A,117.5037,30.6242,池州市,第十二中学,,40,40,17,25,11,45,,43,43,18,20,2,2,0.8,0.7
2026-01-20T1000,1744A,118.9229,42.2816,赤峰市,松山一中,,38,38,24,21,8,46,,36,32,19,16,5,5,0.7,0.6
2026-01-20T1000,1745A,118.9588,42.2733,赤峰市,哈达街,,23,23,28,6,8,50,,50,47,20,12,4,3,0.7,0.6
2026-01-20T1000,1746A,118.8792,42.2551,赤峰市,天义路,,,20,13,11,9,54,,55,54,,8,6,5,0.8,0.7
2026-01-20T1000,3058A,119.2656,42.0356,赤峰市,银河街,细颗粒物(PM2.5),80,89,31,59,16,34,,46,36,23,9,20,11,1.6,0.8
2026-01-20T1000,3286A,118.9359,42.3146,赤峰市,桥北物流园区,,29,,15,20,11,58,,45,42,14,11,5,5,0.4,0.4
2026-01-20T1000,2521A,107.3473,22.4137,崇左市,市环保局江州分局,细颗粒物(PM2.5),59,66,54,42,35,74,,50,50,16,19,15,11,1.1,0.9
2026-01-20T1000,4256A,107.375,22.3736,崇左市,石景林东路7号,细颗粒物(PM2.5),52,42,46,36,35,71,,53,53,13,18,8,8,0.7,0.6
2026-01-20T1000,3207A,118.31131,32.3033,滁州市,市政府原办公楼,,40,33,31,28,25,60,,58,58,12,13,4,4,0.4,0.3
2026-01-20T1000,3331A,118.3268,32.2633,滁州市,图书馆,,38,,26,26,28,54,,53,53,5,6,9,8,0.4,0.4
2026-01-20T1000,4101A,118.3196,32.3335,滁州市,银山路666号,,43,,27,30,31,55,,54,54,8,9,3,3,0.3,0.3
2026-01-20T1000,4102A,118.3426,32.2979,滁州市,黄山路555号,,43,32,33,30,30,58,,56,56,4,4,14,14,0.6,0.6
2026-01-20T1000,2606A,101.5379,25.0492,楚雄彝族自治州,市经济开发区,,39,36,30,27,20,17,,15,14,26,20,4,4,0.8,0.6
2026-01-20T1000,4153A,101.5536,25.0343,楚雄彝族自治州,团结路562号,,,24,26,17,17,,,13,13,22,18,4,4,0.6,0.4
2026-01-20T1000,2549A,107.5087,31.2186,达州市,市环境监测站,,30,30,23,19,10,24,,26,25,16,14,7,7,0.6,0.6
2026-01-20T1000,2550A,107.4988,31.2132,达州市,凤凰小区,,27,27,20,17,11,24,,26,25,17,15,5,5,0.6,0.6
2026-01-20T1000,2551A,107.5081,31.1987,达州市,达县机关宾馆,,36,34,19,25,14,17,,20,19,26,21,4,3,0.8,0.8
2026-01-20T1000,2552A,107.4644,31.2124,达州市,市政中心,,36,36,27,17,10,22,,27,26,23,21,7,7,0.6,0.5
2026-01-20T1000,2614A,100.2168,25.5818,大理白族自治州,大理市环境监测站,,25,25,25,11,17,63,,69,68,10,9,6,6,0.6,0.6
2026-01-20T1000,2615A,100.1542,25.7055,大理白族自治州,大理古城,,25,25,26,10,12,62,,68,64,12,6,8,8,0.8,0.7
2026-01-20T1000,1109A,121.6119,38.974,大连市,甘井子,,42,42,35,16,15,54,,44,44,10,11,9,9,0.5,0.5
2026-01-20T1000,1110A,121.565,38.9509,大连市,周水子,,44,44,37,20,14,48,,45,42,14,10,12,10,0.5,0.4
2026-01-20T1000,1111A,121.5637,38.8849,大连市,星海三站,,44,44,56,17,19,49,,44,42,15,13,10,8,0.7,0.5
2026-01-20T1000,1112A,121.6301,38.9117,大连市,青泥洼桥,,43,43,40,15,12,50,,46,45,9,7,11,10,0.6,0.5
2026-01-20T1000,1113A,121.6248,38.8643,大连市,傅家庄,,33,33,28,15,12,46,,43,42,14,12,9,7,0.5,0.3
2026-01-20T1000,1114A,121.5117,38.8636,大连市,七贤岭,,42,42,34,16,12,48,,45,43,9,7,9,7,0.8,0.6
2026-01-20T1000,1116A,121.7507,39.1339,大连市,金州,,42,42,41,18,16,56,,44,44,15,15,12,9,0.5,0.4
2026-01-20T1000,1117A,121.7811,39.0495,大连市,开发区,,30,30,30,14,15,57,,48,48,10,10,5,5,0.5,0.4
2026-01-20T1000,1118A,121.9762,39.0631,大连市,双D港,,35,35,47,15,13,63,,56,56,9,10,9,8,0.4,0.3
2026-01-20T1000,4082A,121.2548,38.8188,大连市,旅顺,,32,32,28,8,6,51,,50,47,7,6,8,6,0.7,0.6
2026-01-20T1000,1789A,124.8085,46.0381,大庆市,大同区,,25,25,37,12,15,52,,41,41,6,14,5,5,0.5,0.6
2026-01-20T1000,1790A,125.1166,46.5255,大庆市,龙凤区,,31,31,36,19,21,49,,46,45,16,21,10,9,0.3,0.3
2026-01-20T1000,1791A,124.8894,46.4007,大庆市,红岗区,,18,18,29,8,18,45,,41,41,8,13,6,4,0.2,0.3
2026-01-20T1000,1792A,125.1391,46.578,大庆市,萨尔图区,,25,25,32,11,16,46,,49,47,14,15,10,8,0.4,0.5
2026-01-20T1000,1793A,124.9026,46.6217,大庆市,让胡路区,,29,29,28,18,24,58,,58,56,9,9,11,8,0.6,0.6
2026-01-20T1000,3481A,125.127,46.6277,大庆市,萨区政府监测点,,20,,26,14,12,52,,50,49,8,12,10,8,0.4,0.5
2026-01-20T1000,1723A,113.2926,40.0759,大同市,云冈宾馆,颗粒物(PM10),56,61,38,31,21,19,,17,17,32,26,15,10,1.8,0.9
2026-01-20T1000,1724A,113.3437,40.0921,大同市,大同大学,,,46,32,34,20,,,30,26,22,21,12,8,2.2,1.2
2026-01-20T1000,1725A,113.2637,40.129,大同市,安家小村,颗粒物(PM10),65,79,40,35,19,22,,21,16,28,28,16,11,1.7,1
2026-01-20T1000,3282A,113.3399,40.0586,大同市,大同市卫生学校,,43,43,32,23,16,30,,26,24,26,25,13,8,2.1,1.2
2026-01-20T1000,3565A,113.1371,40.1122,大同市,云冈站,颗粒物(PM10),58,66,40,15,18,20,,6,6,27,30,23,12,1.0,0.7
2026-01-20T1000,3566A,113.1186,40.2556,大同市,图书馆,,,,37,42,22,23,,16,16,18,18,14,8,,0.8
2026-01-20T1000,3567A,113.5931,40.0459,大同市,区一中,颗粒物(PM10),77,103,40,33,23,45,,35,35,17,15,12,10,0.8,0.7
2026-01-20T1000,4199A,113.2798248,40.09972476,大同市,魏都大道141号,颗粒物(PM10),72,94,47,37,23,20,,14,14,35,33,14,9,2.0,1.2
2026-01-20T1000,2269A,124.1068,50.4091,大兴安岭地区,科技局,,18,18,14,9,11,54,,56,55,4,2,3,4,1.3,0.4
2026-01-20T1000,3663A,124.117,50.4279,大兴安岭地区,红旗社区,,18,6,6,3,4,57,,58,58,4,3,6,4,0.3,0.3
2026-01-20T1000,1600A,124.33,40.0625,丹东市,江湾东路,,36,36,38,14,13,48,,47,46,11,12,11,8,0.4,0.5
2026-01-20T1000,1601A,124.4242,40.1513,丹东市,临江后街,,32,32,31,11,10,50,,49,48,6,8,5,4,0.4,0.4
2026-01-20T1000,1602A,124.3935,40.1461,丹东市,元宝山,,27,27,26,11,10,52,,56,54,4,7,8,8,0.3,0.5
2026-01-20T1000,1603A,124.3634,40.1093,丹东市,民主桥,,36,36,36,13,10,49,,50,49,8,9,8,8,0.4,0.4
2026-01-20T1000,3541A,109.5726195,19.51688767,儋州市,第一中学子站,,39,39,33,24,20,68,,69,68,2,2,4,4,0.6,0.5
2026-01-20T1000,3542A,109.5567,19.5187,儋州市,东坡学校子站,,37,37,30,21,18,76,,75,75,1,2,4,5,0.5,0.5
2026-01-20T1000,2616A,98.5611,24.4273,德宏傣族景颇族自治州,德宏州监测站,细颗粒物(PM2.5),60,64,58,43,41,16,,14,12,26,27,6,6,0.7,0.7
2026-01-20T1000,3677A,98.5887,24.4366,德宏傣族景颇族自治州,芒市人民政府综合楼,颗粒物(PM10),54,58,48,35,29,10,,20,15,28,15,5,5,1.1,0.8
2026-01-20T1000,1901A,104.424,31.1209,德阳市,东山公园,,,32,27,15,15,,,46,45,12,10,4,5,0.6,0.6
2026-01-20T1000,1902A,104.3827,31.1318,德阳市,西小区,,43,43,39,27,20,36,,45,41,18,13,2,2,0.6,0.6
2026-01-20T1000,1904A,104.3553,31.1091,德阳市,耐火材料厂,,44,44,35,30,20,25,,41,36,35,21,1,1,0.8,0.7
2026-01-20T1000,4145A,104.4144,31.1495,德阳市,市林业局,,46,40,30,32,16,36,,42,39,19,16,2,2,0.5,0.4
2026-01-20T1000,1622A,116.3034,37.4675,德州市,儿童乐园,,36,36,38,7,11,49,,25,25,22,26,12,12,0.6,0.6
2026-01-20T1000,1624A,116.2992,37.4449,德州市,监理站,,19,19,28,3,5,58,,46,46,18,19,8,9,0.6,0.6
2026-01-20T1000,3066A,116.2722,37.438,德州市,九衢泉纯净水厂,,,29,30,19,10,,,38,37,24,23,6,5,0.6,0.6
2026-01-20T1000,3371A,116.3693,37.44,德州市,开发区人民医院,,29,29,37,7,11,49,,37,37,26,29,12,12,0.4,0.5
2026-01-20T1000,3511A,116.5687,37.3331,德州市,陵城艺术中心,,39,39,39,19,10,35,,24,24,20,19,18,14,0.4,0.4
2026-01-20T1000,4292A,116.352738,37.420875,德州市,新河东路,,,,35,,10,,,39,38,,17,,11,,0.7
2026-01-20T1000,2621A,99.7054,27.8319,迪庆藏族自治州,迪庆州站,颗粒物(PM10),54,57,29,37,20,53,,61,58,20,9,5,4,1.2,0.5
2026-01-20T1000,3180A,99.7122,27.8129,迪庆藏族自治州,质量技术监督局,细颗粒物(PM2.5),57,58,28,40,15,36,,71,61,45,10,7,4,1.0,0.4
2026-01-20T1000,4257A,104.6092,35.5962,定西市,将台街,颗粒物(PM10),59,68,55,34,23,16,,17,13,28,19,15,9,0.7,0.5
2026-01-20T1000,4309A,104.6159,35.5701,定西市,正龙路62号,,,91,62,,29,19,,25,22,12,9,8,5,0.9,0.5
2026-01-20T1000,1390A,113.7943,23.0132,东莞市,东城石井,,42,42,73,23,42,54,,47,47,41,43,6,7,0.5,0.6
2026-01-20T1000,1391A,113.7384,22.9659,东莞市,南城西平,,40,40,73,17,44,47,,26,23,48,54,6,7,0.7,0.8
2026-01-20T1000,3319A,113.7283,23.041,东莞市,万江金泰,,39,39,84,18,47,86,,75,75,19,39,5,6,0.9,1
2026-01-20T1000,4129A,113.8666,23.1062,东莞市,裕兴路,细颗粒物(PM2.5),88,114,99,65,48,37,,61,45,61,42,12,7,1.3,0.8
2026-01-20T1000,4130A,114.0076,22.9739,东莞市,教育路1号,细颗粒物(PM2.5),83,113,93,61,45,32,,56,39,85,51,7,6,0.8,0.7
2026-01-20T1000,4131A,113.7981,22.8124,东莞市,长怡路1号,,49,49,71,21,35,59,,36,33,34,51,6,6,0.8,0.9
2026-01-20T1000,1666A,118.6612,37.4313,东营市,市环保局,,29,29,25,17,8,39,,29,26,31,24,15,11,0.7,0.6
2026-01-20T1000,3036A,118.6903,37.4337,东营市,开发区管委会,,39,39,31,17,8,39,,29,26,27,20,14,11,0.4,0.3
2026-01-20T1000,3365A,118.5721,37.5654,东营市,垦利区民丰路,,36,36,29,17,11,41,,29,26,24,22,6,6,0.5,0.4
2026-01-20T1000,3498A,118.5063,37.8606,东营市,河口城区,,22,22,23,10,3,63,,48,48,13,16,4,3,0.7,0.7
2026-01-20T1000,3646A,118.4979,37.4623,东营市,胜利站,,32,32,27,9,8,36,,21,20,27,21,14,13,0.7,0.5
2026-01-20T1000,3734A,118.5753,37.4405,东营市,理想之城,,36,36,31,19,12,30,,20,18,24,18,13,7,0.5,0.4
2026-01-20T1000,1591A,110.0024,39.8127,鄂尔多斯市,综合楼,,29,29,30,7,8,48,,53,52,16,16,6,8,0.3,0.4
2026-01-20T1000,1592A,109.9485,39.8259,鄂尔多斯市,巴音孟克林场办事处,,19,19,25,7,7,51,,50,50,13,16,8,8,0.4,0.4
2026-01-20T1000,1593A,109.7734,39.5987,鄂尔多斯市,康泽苑,,19,19,15,9,10,57,,55,54,13,10,3,4,0.3,0.4
2026-01-20T1000,1594A,109.8121,39.5987,鄂尔多斯市,华泰汽车城,,18,17,14,9,9,56,,43,42,10,12,6,7,0.2,0.1
2026-01-20T1000,1595A,109.9734,39.7884,鄂尔多斯市,奥林花园,,19,19,32,3,6,50,,49,49,6,7,5,5,0.3,0.4
2026-01-20T1000,2436A,114.894,30.3989,鄂州市,市政府,,33,33,14,18,7,42,,43,43,17,19,4,4,0.3,0.4
2026-01-20T1000,2437A,114.8986,30.3714,鄂州市,赵家坝,颗粒物(PM10),51,52,19,22,10,45,,43,43,3,7,6,7,0.5,0.5
2026-01-20T1000,3654A,114.8093,30.4091,鄂州市,精准医疗中心,颗粒物(PM10),72,94,21,31,10,48,,48,48,6,9,4,6,1.0,1
2026-01-20T1000,2454A,109.4978,30.2979,恩施土家族苗族自治州,湖北民院,,46,33,25,32,18,58,,54,54,10,10,6,6,0.3,0.6
2026-01-20T1000,3549A,109.5061,30.3771,恩施土家族苗族自治州,龙凤新区,,23,18,20,16,18,46,,43,43,9,11,7,6,0.5,0.7
2026-01-20T1000,2499A,108.3411,21.6159,防城港市,沙万,颗粒物(PM10),54,58,78,30,31,66,,98,92,28,30,7,9,0.9,0.9
2026-01-20T1000,2500A,108.3515,21.7733,防城港市,防城档案局,细颗粒物(PM2.5),55,54,58,39,38,65,,89,80,19,17,7,5,0.6,0.6
2026-01-20T1000,2501A,108.3506,21.6414,防城港市,大海花园,颗粒物(PM10),51,51,54,29,32,78,,106,101,16,18,8,8,0.6,0.6
2026-01-20T1000,1371A,113.1293,23.0065,佛山市,湾梁,,46,46,74,17,36,64,,66,57,33,34,/,/,/,/
2026-01-20T1000,1372A,113.1082,23.0477,佛山市,华材职中,颗粒物(PM10),54,58,79,33,49,64,,67,59,35,35,6,7,0.5,0.6
2026-01-20T1000,1373A,113.1439,23.045,佛山市,南海气象局,颗粒物(PM10),53,56,63,26,42,68,,66,61,28,35,/,/,/,/
2026-01-20T1000,1374A,113.2879,22.8094,佛山市,顺德苏岗,,44,44,62,17,38,64,,62,60,28,34,/,/,0.7,0.8
2026-01-20T1000,1376A,112.8384,22.8678,佛山市,高明孔堂,颗粒物(PM10),69,87,60,46,40,27,,67,44,64,28,/,/,/,/
2026-01-20T1000,1377A,112.8835,23.1584,佛山市,三水监测站,颗粒物(PM10),90,129,110,59,56,33,,24,22,46,77,5,5,1.1,0.8
2026-01-20T1000,1378A,112.8668,23.185,佛山市,三水云东海,颗粒物(PM10),79,107,97,57,58,34,,33,27,46,48,/,/,/,/
2026-01-20T1000,3625A,113.2568,22.7629,佛山市,容桂街道办,,42,39,66,29,43,59,,62,57,27,38,/,/,/,/
2026-01-20T1000,1282A,119.2681,26.0506,福州市,师大,,26,26,31,3,12,59,,70,66,22,20,3,3,0.6,0.6
2026-01-20T1000,1283A,119.2983,26.1028,福州市,五四北路,,25,25,27,6,11,58,,68,65,18,17,5,4,0.6,0.6
2026-01-20T1000,1284A,119.2648,26.0769,福州市,杨桥西路,,22,22,30,3,12,59,,69,65,14,12,4,4,/,/
2026-01-20T1000,3048A,119.5799,26.0937,福州市,九龙,,22,20,26,3,9,69,,68,68,11,12,4,4,0.6,0.6
2026-01-20T1000,3526A,119.5188,25.9666,福州市,吴航,,22,16,26,6,12,70,,68,68,10,12,3,4,0.5,0.5
2026-01-20T1000,4104A,119.3106,26.0648,福州市,路通桥巷6号,,20,20,29,12,17,54,,67,63,17,13,/,/,/,/
2026-01-20T1000,1755A,123.7974,41.8494,抚顺市,望花区,细颗粒物(PM2.5),130,123,79,99,46,20,,6,6,44,34,2,4,1.8,1.1
2026-01-20T1000,1756A,123.9161,41.8827,抚顺市,顺城区,细颗粒物(PM2.5),80,94,66,59,40,23,,9,9,36,36,6,9,1.5,1.2
2026-01-20T1000,1757A,124.0437,41.8615,抚顺市,东洲区,细颗粒物(PM2.5),59,65,56,42,33,28,,28,27,18,18,11,9,1.0,0.8
2026-01-20T1000,1758A,123.9246,41.8638,抚顺市,新抚区,细颗粒物(PM2.5),80,88,70,59,39,27,,9,9,30,35,8,8,1.3,1
2026-01-20T1000,1759A,124.0972,41.8961,抚顺市,大伙房水库,,48,48,44,29,26,34,,12,12,12,21,17,11,0.6,0.6
2026-01-20T1000,1760A,123.708,41.8386,抚顺市,沈抚新城,细颗粒物(PM2.5),156,126,64,119,44,18,,8,8,31,29,6,8,2.4,1.4
2026-01-20T1000,2377A,116.3544,27.9833,抚州市,市站,,17,17,42,9,18,39,,38,38,9,14,3,6,0.9,0.9
2026-01-20T1000,2378A,116.3562,27.9631,抚州市,血防站,,22,22,41,11,19,38,,37,37,13,18,4,4,0.6,0.9
2026-01-20T1000,2379A,116.3561,28.0007,抚州市,采茶剧团,,20,20,42,12,22,38,,37,37,6,10,3,3,0.9,1
2026-01-20T1000,2380A,116.3854,27.9648,抚州市,医学分院,,24,24,48,8,16,36,,36,36,6,10,4,5,0.4,0.6
2026-01-20T1000,2207A,121.6095,41.9978,阜新市,工业园区,,,44,52,32,10,55,,53,52,10,7,10,8,,0.3
2026-01-20T1000,2208A,121.6567,42.0188,阜新市,长青街,,,33,36,,7,54,,54,53,8,5,10,7,0.6,0.3
2026-01-20T1000,2209A,121.6672,42.07,阜新市,农业园区,,31,31,40,9,7,60,,52,51,6,7,8,10,0.2,0.2
2026-01-20T1000,2211A,121.6343,42.0455,阜新市,玉龙新城,,40,40,48,15,8,54,,45,44,10,9,5,4,0.4,0.4
2026-01-20T1000,2301A,115.8276,32.8929,阜阳市,市监测站,,49,49,44,22,34,47,,46,46,18,17,4,4,0.3,0.4
2026-01-20T1000,2303A,115.8551,32.8606,阜阳市,开发区,,40,31,25,28,33,47,,47,47,18,15,5,4,0.4,0.4
2026-01-20T1000,2875A,115.783962,32.889217,阜阳市,阜阳职业技术学院,,41,41,36,24,32,54,,52,52,9,9,8,6,0.4,0.4
2026-01-20T1000,3468A,115.79,32.8614,阜阳市,市规划展馆,,26,26,57,18,34,53,,50,50,13,14,7,5,0.6,0.7
2026-01-20T1000,3469A,115.835101,32.918568,阜阳市,枣园社区,,36,36,56,17,32,52,,50,50,10,12,5,3,0.9,0.9
2026-01-20T1000,2669A,102.9097,34.9841,甘南藏族自治州,州政府,"颗粒物(PM10),细颗粒物(PM2.5)",77,104,81,56,40,22,,39,30,31,17,6,7,1.2,0.6
2026-01-20T1000,3380A,102.8915,34.9618,甘南藏族自治州,甘肃民族师范学院,颗粒物(PM10),90,129,102,63,40,20,,17,17,36,28,14,8,0.7,0.3
2026-01-20T1000,2570A,101.96,30.048,甘孜藏族自治州,水桥子,,19,13,26,9,16,23,,52,45,37,14,7,6,0.9,0.7
2026-01-20T1000,3065A,101.9534,29.9976,甘孜藏族自治州,州环保局,,28,28,30,18,19,46,,59,51,23,13,6,6,0.6,0.6
2026-01-20T1000,2363A,114.9368,25.8663,赣州市,地委,,22,22,77,9,53,21,,14,13,18,19,7,8,0.5,0.9
2026-01-20T1000,2364A,114.946,25.8483,赣州市,气象台,,33,33,84,3,49,20,,18,14,25,23,2,4,0.6,0.7
2026-01-20T1000,2365A,114.932,25.8332,赣州市,市图书馆,,15,15,76,7,50,20,,16,15,22,20,4,5,0.8,1.1
2026-01-20T1000,2366A,114.8905,25.8472,赣州市,华坚鞋城,,18,18,77,11,47,20,,18,16,18,20,4,7,0.3,0.6
2026-01-20T1000,3109A,115.0094,25.8614,赣州市,赣县区卫计委,,9,8,60,6,53,27,,26,24,15,17,7,7,0.8,0.9
2026-01-20T1000,2684A,106.2753,36.0057,固原市,监测站,颗粒物(PM10),57,64,57,30,22,25,,29,25,25,17,6,5,0.9,0.7
2026-01-20T1000,2685A,106.2384,36.0189,固原市,新区,"颗粒物(PM10),细颗粒物(PM2.5)",55,59,57,39,26,26,,27,24,25,17,7,7,1.2,0.8
2026-01-20T1000,2544A,106.6307,30.4577,广安市,市委,,18,17,21,12,20,21,,27,25,8,7,9,9,0.8,0.8
2026-01-20T1000,2545A,106.6266,30.4662,广安市,友谊中学,,23,,24,16,22,26,,30,28,15,12,6,7,1.2,1.2
2026-01-20T1000,2547A,106.6386,30.4551,广安市,广电花园,,22,19,23,15,22,22,,27,25,14,13,8,8,0.7,0.7
2026-01-20T1000,2902A,106.6347,30.4868,广安市,北辰小学,,23,,24,16,23,26,,28,27,11,10,4,6,1.0,1
2026-01-20T1000,2524A,105.8211,32.4444,广元市,老城,,37,37,39,23,20,44,,51,49,17,15,1,2,0.5,0.5
2026-01-20T1000,2526A,105.8629,32.429,广元市,监测站,,40,40,38,26,21,42,,48,47,16,13,6,7,0.5,0.5
2026-01-20T1000,3617A,105.8047,32.4167,广元市,经开区,,38,38,41,24,19,36,,46,44,18,13,1,1,0.5,0.5
2026-01-20T1000,1345A,113.2346,23.1423,广州市,广雅中学,"颗粒物(PM10),细颗粒物(PM2.5)",73,96,98,53,52,17,,50,46,74,44,3,4,0.4,0.4
2026-01-20T1000,1346A,113.2611,23.105,广州市,市五中,颗粒物(PM10),61,71,76,42,43,48,,68,68,57,49,7,9,/,/
2026-01-20T1000,1348A,113.3477,23.0916,广州市,广东商学院,细颗粒物(PM2.5),72,62,77,52,56,66,,34,33,20,46,6,7,0.7,0.9
2026-01-20T1000,1349A,113.4332,23.105,广州市,市八十六中,颗粒物(PM10),57,63,65,36,39,36,,26,21,57,68,9,10,/,/
2026-01-20T1000,1350A,113.3506,22.9488,广州市,番禺中学,颗粒物(PM10),54,57,66,32,37,55,,64,54,41,43,4,5,0.9,0.9
2026-01-20T1000,1351A,113.2147,23.3918,广州市,花都师范,颗粒物(PM10),53,56,136,34,82,24,,25,19,39,82,6,8,0.8,0.9
2026-01-20T1000,1352A,113.2599,23.1329,广州市,市监测站,细颗粒物(PM2.5),69,83,86,50,48,22,,63,60,79,49,2,3,/,/
2026-01-20T1000,1353A,113.5618,23.3119,广州市,九龙镇镇龙,,,,108,,65,,,182,6,,61,,6,,0.7
2026-01-20T1000,1354A,113.2764,23.1544,广州市,麓湖,细颗粒物(PM2.5),79,78,80,58,50,17,,13,10,77,69,9,10,0.7,0.6
2026-01-20T1000,2846A,113.3209,23.1323,广州市,体育西,颗粒物(PM10),73,95,94,52,52,24,,44,42,65,59,5,7,0.8,0.8
2026-01-20T1000,3298A,113.5718,23.5493,广州市,从化街口,"颗粒物(PM10),细颗粒物(PM2.5)",58,65,111,41,69,14,,12,9,40,58,14,10,1.0,1
2026-01-20T1000,3299A,113.3463,23.369,广州市,白云竹料,细颗粒物(PM2.5),68,76,116,49,67,23,,14,13,44,72,3,4,1.0,1
2026-01-20T1000,3300A,113.2981,23.2365,广州市,白云嘉禾,颗粒物(PM10),65,80,95,45,53,28,,18,16,54,74,7,7,/,/
2026-01-20T1000,3301A,113.4256,23.1716,广州市,黄埔科学城,细颗粒物(PM2.5),82,93,91,60,53,24,,35,24,58,57,4,5,0.9,0.8
2026-01-20T1000,3302A,113.3942,23.0485,广州市,番禺大学城,颗粒物(PM10),72,93,100,34,42,67,,63,53,35,41,11,11,0.5,0.6
2026-01-20T1000,3303A,113.4923,22.8169,广州市,南沙黄阁,,38,33,37,26,35,41,,39,30,53,43,5,6,/,/
2026-01-20T1000,3304A,113.534,22.7893,广州市,南沙街,颗粒物(PM10),53,56,60,16,30,65,,43,40,26,34,5,5,0.5,0.6
2026-01-20T1000,3443A,113.2905,23.5541,广州市,花都梯面,,41,41,107,25,57,25,,14,14,19,61,5,5,/,/
2026-01-20T1000,3445A,113.786,23.7479,广州市,从化良口,细颗粒物(PM2.5),75,66,66,55,51,38,,66,49,21,24,14,9,/,/
2026-01-20T1000,3446A,113.805,23.2614,广州市,增城荔城,细颗粒物(PM2.5),82,85,95,60,61,19,,6,5,40,40,6,7,0.8,0.8
2026-01-20T1000,2506A,109.604387,23.066791,贵港市,江南子站,细颗粒物(PM2.5),70,85,88,51,46,55,,49,49,21,30,7,10,1.0,0.9
2026-01-20T1000,2508A,109.5669,23.1065,贵港市,荷城子站,细颗粒物(PM2.5),70,78,77,51,47,36,,59,53,26,31,9,10,1.2,1
2026-01-20T1000,3405A,109.5886,23.1172,贵港市,新世纪学校,细颗粒物(PM2.5),68,80,79,49,51,42,,53,47,21,25,/,/,0.7,0.6
2026-01-20T1000,4260A,109.5933,23.095,贵港市,中山路155-3号,细颗粒物(PM2.5),70,71,78,51,47,59,,64,62,20,26,/,/,0.7,0.6
2026-01-20T1000,1439A,106.6863,26.6035,贵阳市,马鞍山,,7,6,26,3,21,22,,21,21,10,13,3,4,/,/
2026-01-20T1000,1441A,106.6241,26.6266,贵阳市,鉴湖路,,12,12,38,3,22,24,,24,24,13,14,2,5,0.6,0.5
2026-01-20T1000,1442A,106.7468,26.6344,贵阳市,燕子冲,,18,,32,12,27,20,,20,20,12,16,6,5,0.9,0.7
2026-01-20T1000,1443A,106.6556,26.4362,贵阳市,碧云窝,,24,24,39,3,20,38,,38,38,12,12,3,4,/,/
2026-01-20T1000,1445A,106.6963,26.6063,贵阳市,红边门,,9,9,32,3,22,19,,24,23,13,13,5,5,/,/
2026-01-20T1000,1446A,106.7162383,26.56964667,贵阳市,新华路,,17,17,36,3,22,23,,24,24,13,16,4,8,0.5,0.6
2026-01-20T1000,1447A,106.6742,26.542,贵阳市,太慈桥,,9,7,31,3,19,26,,29,29,16,16,3,4,/,/
2026-01-20T1000,4230A,106.688212,26.56952,贵阳市,花果园大街66号,,8,,28,3,26,16,,18,18,15,17,2,3,/,/
2026-01-20T1000,4231A,106.687268,26.516892,贵阳市,漓江路57号,,7,7,31,3,21,17,,18,18,14,16,6,7,0.5,0.5
2026-01-20T1000,1864A,110.3091,25.2705,桂林市,龙隐路小学,,8,8,22,3,15,17,,19,17,16,19,6,6,0.5,0.7
2026-01-20T1000,1865A,110.2849361,25.22909545,桂林市,八中,,9,,23,3,17,16,,19,17,16,18,6,6,0.9,0.8
2026-01-20T1000,3531A,110.296,25.1254,桂林市,旅游学院,,7,6,18,3,16,19,,21,20,13,17,3,4,0.4,0.5
2026-01-20T1000,4222A,110.1835,25.2444,桂林市,环湖路276号,,25,,24,17,23,14,,14,14,10,13,6,6,0.6,0.8
2026-01-20T1000,4301A,110.2803,25.2773,桂林市,信义路13号,,15,,20,10,21,16,,17,16,15,17,3,4,0.7,0.9
2026-01-20T1000,2674A,100.2262,34.4854,果洛藏族自治州,玛沁县大武镇,颗粒物(PM10),64,78,92,3,14,25,,36,32,15,6,15,16,0.7,0.4
2026-01-20T1000,1130A,126.5557,45.8109,哈尔滨市,松北商大,,27,27,36,14,22,33,,27,25,19,18,7,7,0.6,0.5
2026-01-20T1000,1132A,126.6162,45.719,哈尔滨市,南岗学府路,细颗粒物(PM2.5),54,54,45,38,25,34,,22,20,23,20,13,9,0.7,0.5
2026-01-20T1000,1133A,126.6894,45.7733,哈尔滨市,太平宏伟公园,,28,28,36,16,20,49,,39,39,10,12,15,13,0.7,0.7
2026-01-20T1000,1134A,126.6361,45.7672,哈尔滨市,道外承德广场,,41,41,46,16,21,45,,35,35,14,17,10,9,0.3,0.4
2026-01-20T1000,1136A,126.644,45.7261,哈尔滨市,动力和平路,,,,45,,23,,,45,19,,21,,13,,0.6
2026-01-20T1000,1137A,126.5933,45.7479,哈尔滨市,道里建国路,,24,24,37,7,22,38,,30,30,17,17,12,11,0.5,0.5
2026-01-20T1000,1138A,126.6127,45.6119,哈尔滨市,平房东轻厂,颗粒物(PM10),58,65,43,34,31,29,,21,20,25,27,20,9,1.2,1
2026-01-20T1000,1139A,126.5875,45.9827,哈尔滨市,呼兰师专,细颗粒物(PM2.5),79,64,47,58,39,35,,25,25,16,17,14,10,0.8,0.7
2026-01-20T1000,1140A,126.6299,45.6799,哈尔滨市,省农科院,颗粒物(PM10),62,73,54,42,40,29,,19,18,28,30,15,12,0.7,0.6
2026-01-20T1000,4282A,126.6769,45.7379,哈尔滨市,华山路1号,,41,41,36,22,21,33,,19,19,27,27,22,19,0.7,0.6
2026-01-20T1000,4283A,126.9717,45.5356,哈尔滨市,解放大街52号,细颗粒物(PM2.5),77,83,53,56,38,35,,33,32,15,18,13,11,0.7,0.5
2026-01-20T1000,2688A,93.5124,42.8176,哈密市,地区监测站,颗粒物(PM10),71,92,130,42,29,14,,20,20,38,23,5,2,0.9,0.6
2026-01-20T1000,2689A,93.5014,42.8312,哈密市,哈密师范学校,颗粒物(PM10),87,124,116,31,23,14,,28,24,46,24,1,2,0.9,0.5
2026-01-20T1000,2671A,100.9016,36.9464,海北藏族自治州,海晏县西海镇,颗粒物(PM10),73,95,78,39,37,25,,34,30,23,20,12,15,1.0,0.9
2026-01-20T1000,3867A,102.074,36.5056,海东市,平安区公安局北苑,细颗粒物(PM2.5),74,83,78,54,36,14,,29,24,31,18,14,32,1.1,0.8
2026-01-20T1000,4163A,102.0984,36.5119,海东市,滨河路,颗粒物(PM10),59,68,83,33,39,6,,10,7,43,38,12,36,1.0,0.9
2026-01-20T1000,1410A,110.3189,20.0596,海口市,海南大学,,38,38,39,19,21,103,,102,102,6,7,6,6,0.3,0.3
2026-01-20T1000,1411A,110.2827,20.0051,海口市,秀英海南医院,,39,39,37,19,19,95,,98,97,9,8,7,7,0.3,0.3
2026-01-20T1000,1412A,110.3391,19.9979,海口市,海南师范大学,,40,40,38,19,21,98,,97,96,9,9,6,6,0.6,0.6
2026-01-20T1000,1413A,110.3303,20.0359,海口市,龙华路环保局宿舍,,42,42,38,19,21,99,,98,97,8,9,/,/,0.6,0.8
2026-01-20T1000,3539A,110.5111,19.9737,海口市,桂林洋子站,,36,36,37,21,21,88,,85,83,7,7,/,/,/,/
2026-01-20T1000,4134A,110.1952,20.0451,海口市,长滨二路9号,,35,35,35,20,22,95,,96,96,6,6,/,/,/,/
2026-01-20T1000,2673A,100.6158,36.2985,海南藏族自治州,共和县恰卜恰镇,颗粒物(PM10),85,119,94,53,46,15,,15,15,36,25,13,14,1.3,0.9
2026-01-20T1000,2676A,97.373,37.376,海西蒙古族藏族自治州,德令哈市,,31,31,45,10,12,52,,79,71,20,9,12,11,0.7,0.7
2026-01-20T1000,1049A,114.492,36.5712,邯郸市,矿院,,35,29,32,24,23,45,,31,31,18,17,3,2,0.4,0.3
2026-01-20T1000,1050A,114.4839,36.6136,邯郸市,丛台公园,,28,20,26,19,20,56,,44,44,17,18,3,1,0.3,0.3
2026-01-20T1000,3458A,114.7893,36.5592,邯郸市,香泉濮院小区,,30,30,34,17,20,55,,34,34,10,15,3,2,0.4,0.3
2026-01-20T1000,3580A,114.1998,36.4439,邯郸市,峰峰矿区临水派出所,,,27,29,19,27,,,38,37,11,12,5,4,0.5,0.5
2026-01-20T1000,4068A,114.5209,36.7697,邯郸市,建安街268号,,25,25,34,3,12,45,,21,21,14,18,3,2,0.3,0.3
2026-01-20T1000,4069A,114.5488,36.6177,邯郸市,丛台东路558号,,26,26,26,3,16,49,,32,32,12,11,3,2,0.4,0.3
2026-01-20T1000,2635A,107.0155,33.0707,汉中市,市监测站,,32,25,40,22,35,34,,40,38,16,17,5,4,0.6,0.6
2026-01-20T1000,2636A,107.0083,33.114,汉中市,鑫源开发区,,36,32,45,25,32,36,,41,40,16,17,4,4,0.4,0.5
2026-01-20T1000,2637A,107.0072,33.0323,汉中市,南郑大河坎水厂,,36,36,53,24,38,32,,39,37,16,19,4,5,0.7,0.8
2026-01-20T1000,1223A,120.2073,30.2111,杭州市,滨江,,27,27,17,18,12,44,,55,52,24,18,5,5,0.4,0.3
2026-01-20T1000,1224A,120.0625,30.2737,杭州市,西溪,,26,26,27,11,7,34,,56,52,24,19,8,8,0.5,0.5
2026-01-20T1000,1226A,120.3417,30.315,杭州市,下沙,,32,32,34,20,18,39,,53,50,22,21,7,6,0.7,0.6
2026-01-20T1000,1227A,120.1252,30.2465,杭州市,卧龙桥,,,22,19,12,7,44,,58,56,18,19,,7,0.3,0.2
2026-01-20T1000,1228A,120.1902,30.2691,杭州市,浙江农大,,,38,20,19,12,,,59,57,22,20,4,4,0.5,0.5
2026-01-20T1000,1230A,120.1195,30.3121,杭州市,和睦小学,,26,26,20,15,14,43,,57,54,18,16,4,4,0.6,0.6
2026-01-20T1000,1231A,120.3076,30.4146,杭州市,临平镇,,33,33,18,19,11,47,,58,55,10,9,6,6,0.5,0.5
2026-01-20T1000,1232A,120.2753,30.1839,杭州市,城厢镇,,30,27,31,21,13,43,,57,54,22,18,6,7,0.5,0.5
2026-01-20T1000,1233A,120.0883,30.1808,杭州市,云栖,,21,21,23,14,10,50,,56,55,15,16,3,4,0.6,0.6
2026-01-20T1000,3557A,119.9463,30.0496,杭州市,镇二中,,15,10,8,7,5,46,,54,53,21,21,4,4,0.6,0.5
2026-01-20T1000,3558A,119.7184,30.2367,杭州市,市府大楼,,18,18,14,12,7,38,,54,50,16,12,9,9,0.8,0.7
2026-01-20T1000,3656A,120.1554,30.2863,杭州市,消防大队,,32,25,24,22,14,44,,55,53,18,16,5,5,0.5,0.5
2026-01-20T1000,1270A,117.1957,31.7845,合肥市,明珠广场,,45,39,22,31,19,55,,52,52,10,10,5,4,0.9,0.8
2026-01-20T1000,1271A,117.307,31.8765,合肥市,三里街,,35,29,20,24,17,56,,53,53,19,17,5,4,0.7,0.6
2026-01-20T1000,1272A,117.2587,31.8703,合肥市,琥珀山庄,,43,31,25,30,21,62,,55,55,12,13,7,7,0.7,0.6
2026-01-20T1000,1275A,117.2593,31.9376,合肥市,庐阳区,,29,29,23,17,19,64,,56,56,15,16,2,3,0.6,0.6
2026-01-20T1000,1276A,117.345251,31.861615,合肥市,瑶海区,,46,,16,32,17,58,,54,54,13,12,5,4,0.9,0.8
2026-01-20T1000,1277A,117.3033,31.7967,合肥市,包河区,,49,,21,34,22,51,,50,50,19,20,4,5,0.8,0.7
2026-01-20T1000,1278A,117.278,31.7392,合肥市,滨湖新区,,45,34,19,31,23,55,,51,51,16,16,1,2,0.7,0.5
2026-01-20T1000,1279A,117.1324,31.8395,合肥市,高新区,,,36,26,,19,56,,54,54,18,16,3,3,0.7,0.6
2026-01-20T1000,3464A,117.3802,31.9148,合肥市,高教基地,,36,,21,25,18,62,,56,56,11,8,7,6,0.7,0.5
2026-01-20T1000,4098A,117.2518,31.8404,合肥市,中国科学技术大学,,45,31,21,31,16,59,,54,54,11,11,7,7,0.4,0.4
2026-01-20T1000,3614A,79.9241,37.0878,和田地区,地区环保局,颗粒物(PM10),500,1738,1656,338,305,50,,51,51,12,12,1,2,0.7,0.4
2026-01-20T1000,3615A,79.9132,37.1137,和田地区,市环保局,颗粒物(PM10),500,1803,1800,308,296,48,,52,52,14,8,3,2,0.7,1
2026-01-20T1000,2517A,108.0496,24.6957,河池市,市环保站,,,,56,11,41,,,46,40,12,15,2,6,0.7,0.7
2026-01-20T1000,4302A,108.0901,24.6945,河池市,上任中路54号,,,,54,1,42,19,,40,34,8,13,4,8,0.8,0.8
2026-01-20T1000,1697A,114.6962,23.7538,河源市,东埔,细颗粒物(PM2.5),115,90,69,87,54,55,,73,57,28,30,7,7,1.2,1.2
2026-01-20T1000,1698A,114.6895,23.7232,河源市,老城,细颗粒物(PM2.5),88,71,64,65,44,37,,70,50,38,23,6,7,0.9,0.7
2026-01-20T1000,3374A,115.5562,35.089,菏泽市,定陶老年大学,,34,34,43,14,24,52,,48,48,15,14,5,5,0,0.1
2026-01-20T1000,4114A,115.4239,35.2593,菏泽市,黄河路600号,,34,34,47,12,24,59,,46,46,14,18,4,4,0.3,0.5
2026-01-20T1000,4115A,115.5025,35.2727,菏泽市,菏泽市人社局,,41,41,44,12,22,54,,44,44,12,15,2,2,0.1,0.2
2026-01-20T1000,4184A,115.479691,35.244011,菏泽市,永昌路1号,,42,42,47,18,30,59,,48,48,9,12,4,4,0.1,0.2
2026-01-20T1000,4193A,115.471542,35.280012,菏泽市,长城路999号,,,30,48,8,23,56,,44,44,9,14,7,10,,0.6
2026-01-20T1000,2514A,111.5264,24.4178,贺州市,环保小区,,25,25,61,11,47,12,,15,13,22,21,7,7,0.5,0.7
2026-01-20T1000,2515A,111.561,24.4074,贺州市,政协大楼,,32,32,57,9,45,9,,12,10,17,17,10,10,0.6,0.8
2026-01-20T1000,3534A,111.4744,24.455,贺州市,西湾,,,25,63,8,40,10,,11,10,16,18,,7,0.8,0.9
2026-01-20T1000,2385A,114.17,35.9019,鹤壁市,市监测站,颗粒物(PM10),52,54,50,26,30,36,,31,29,16,18,5,5,0.5,0.6
2026-01-20T1000,2386A,114.2953,35.7512,鹤壁市,市交警支队,,,59,53,30,29,,,30,28,14,16,3,4,,0.5
2026-01-20T1000,2387A,114.2877,35.7302,鹤壁市,迎宾馆,颗粒物(PM10),51,52,50,20,29,42,,36,35,20,22,7,6,0.6,0.6
2026-01-20T1000,3474A,114.2616,35.6824,鹤壁市,大新区,,45,45,53,16,20,45,,39,37,18,18,5,6,0.3,0.4
2026-01-20T1000,3596A,114.1573,35.9607,鹤壁市,南山宾馆,,46,46,51,24,28,42,,38,36,8,11,4,4,0.4,0.5
2026-01-20T1000,2244A,130.2537,47.3416,鹤岗市,哈啤分公司,,,,28,,22,,,72,58,,7,,6,,0.4
2026-01-20T1000,2245A,130.2683,47.3087,鹤岗市,斯达机电,,31,31,34,13,28,52,,52,51,10,9,6,6,0.6,0.5
2026-01-20T1000,2246A,130.3114,47.3388,鹤岗市,东山纸板厂,,25,,18,17,23,58,,54,54,6,8,6,8,0.6,0.7
2026-01-20T1000,2263A,127.4832,50.2524,黑河市,交通局,,22,,16,15,16,66,,64,64,13,12,4,5,0.2,0.2
2026-01-20T1000,2264A,127.5146,50.2339,黑河市,环保局,,21,12,14,8,14,66,,63,63,10,12,4,5,0.4,0.4
2026-01-20T1000,1074A,115.6839,37.754,衡水市,电机北厂,,32,32,39,21,17,33,,30,30,30,22,11,4,0.4,0.3
2026-01-20T1000,1075A,115.6303,37.7318,衡水市,市监测站,,40,40,37,15,15,33,,25,25,27,22,6,6,0.5,0.4
2026-01-20T1000,3188A,115.6684,37.7216,衡水市,市城管局,,39,39,41,15,18,47,,35,35,16,18,4,5,0.5,0.4
2026-01-20T1000,3459A,115.599,37.5491,衡水市,地表水厂,,21,21,32,9,11,43,,13,13,20,26,4,3,0.4,0.4
2026-01-20T1000,2457A,112.6209,26.9268,衡阳市,衡阳化工总厂,,16,16,14,9,8,29,,26,26,17,16,6,6,0.9,0.9
2026-01-20T1000,2458A,112.621,26.8957,衡阳市,珠晖区环保局,,18,18,15,12,18,29,,26,26,17,18,3,3,0.9,0.9
2026-01-20T1000,2459A,112.628,26.8654,衡阳市,市委党校,,16,16,16,9,10,29,,25,25,16,18,6,6,0.8,0.9
2026-01-20T1000,2460A,112.6007,26.8977,衡阳市,市监测站,,20,20,24,14,13,32,,28,28,6,9,4,4,1.0,1
2026-01-20T1000,2461A,112.5658,26.9013,衡阳市,真空机电公司,,20,20,22,10,6,34,,30,30,15,16,5,5,0.8,0.9
2026-01-20T1000,3399A,112.6703,26.8817,衡阳市,师范学院,,16,16,15,11,11,28,,26,26,14,16,1,1,1.1,1.1
2026-01-20T1000,3038A,103.3757,23.3679,红河哈尼族彝族自治州,州图书馆,,,38,42,31,26,,,48,39,22,10,8,7,0.8,0.5
2026-01-20T1000,4154A,103.401,23.3561,红河哈尼族彝族自治州,蒙自市朝阳路,颗粒物(PM10),54,57,28,33,24,32,,49,40,23,6,8,8,0.7,0.5
2026-01-20T1000,1090A,111.6506,40.7517,呼和浩特市,呼市一监,颗粒物(PM10),54,58,20,31,14,19,,39,28,28,15,11,11,0.7,0.3
2026-01-20T1000,1094A,111.7516,40.8369,呼和浩特市,如意水处理厂,,29,29,15,18,7,29,,50,40,39,13,9,8,0.9,0.4
2026-01-20T1000,1095A,111.727798,40.806187,呼和浩特市,二十九中,,,44,15,21,9,,,52,44,26,11,13,11,0.9,0.5
2026-01-20T1000,1097A,111.717,40.7617,呼和浩特市,化肥厂生活区,,23,23,20,14,11,36,,44,36,20,14,9,5,0.8,0.4
2026-01-20T1000,3699A,111.6519,40.8389,呼和浩特市,海东办,,15,9,11,9,8,46,,58,52,20,10,3,3,0.6,0.4
2026-01-20T1000,4275A,111.591512,40.827312,呼和浩特市,成吉思汗西街8号,,,48,14,24,7,18,,50,44,,10,,6,0.5,0.3
2026-01-20T1000,4276A,111.6597,40.8077,呼和浩特市,公园东路75号,,36,36,13,20,12,36,,56,53,27,11,23,6,0.7,0.4
2026-01-20T1000,4277A,111.5427,40.7846,呼和浩特市,金海路35号,颗粒物(PM10),62,74,26,29,13,18,,33,24,32,19,32,22,0.9,0.6
2026-01-20T1000,3061A,119.7511,49.1576,呼伦贝尔市,国华电力东,,,16,27,16,19,,,56,55,15,15,7,9,0.3,0.4
2026-01-20T1000,4279A,119.7569,49.2222,呼伦贝尔市,伊敏大街东7号,,36,32,27,25,22,51,,55,52,11,8,9,9,0.5,0.3
2026-01-20T1000,1250A,120.075,30.867,湖州市,城西水厂,,26,26,18,18,11,53,,66,61,17,11,5,4,0.5,0.5
2026-01-20T1000,2873A,120.083,30.8929,湖州市,仁皇山新区,,26,23,16,18,10,59,,67,64,18,15,4,4,0.5,0.5
2026-01-20T1000,2907A,120.1846,30.8592,湖州市,吴兴区站,,36,36,42,20,10,51,,63,59,17,12,4,4,0.3,0.2
2026-01-20T1000,3562A,120.4146,30.8538,湖州市,南浔区站,,,34,19,24,10,,,62,59,17,15,5,5,0.8,0.7
2026-01-20T1000,1607A,120.904878,40.721091,葫芦岛市,龙港区,,,57,46,22,16,,,22,19,24,25,23,18,0.7,0.6
2026-01-20T1000,1608A,120.8382,40.7521,葫芦岛市,化工街,颗粒物(PM10),52,53,44,31,13,39,,24,24,24,22,37,14,0.8,0.6
2026-01-20T1000,1609A,120.8339,40.7078,葫芦岛市,新区,,44,44,38,21,14,41,,40,36,27,18,21,16,0.9,0.7
2026-01-20T1000,1610A,120.8697,40.7679,葫芦岛市,东城区,颗粒物(PM10),59,68,40,37,18,36,,32,28,36,25,53,25,1.1,0.7
2026-01-20T1000,2483A,109.9297,27.5383,怀化市,河西地税局,,25,20,20,17,15,29,,24,24,12,14,2,2,/,/
2026-01-20T1000,2484A,109.9783,27.5342,怀化市,市四医院,,20,20,24,11,14,26,,21,21,12,12,3,4,0.5,0.5
2026-01-20T1000,2485A,109.9971,27.5579,怀化市,监测楼,,23,16,17,16,15,31,,26,26,12,12,1,2,0.1,0.1
2026-01-20T1000,1210A,119.0566,33.5991,淮安市,钵池山,,36,36,26,15,19,45,,50,47,14,13,7,6,0.4,0.3
2026-01-20T1000,1211A,119.0083,33.578,淮安市,北京南路,,41,41,31,15,17,45,,48,46,9,10,8,7,0.8,0.7
2026-01-20T1000,1212A,118.9938,33.6083,淮安市,市监测站,,20,14,19,14,18,49,,49,47,13,15,9,8,0.5,0.4
2026-01-20T1000,1213A,119.135,33.5038,淮安市,楚州区监测站,,46,46,24,20,17,47,,48,47,14,12,11,8,0.7,0.6
2026-01-20T1000,3426A,118.8757,33.2897,淮安市,新华书店,,46,46,30,21,21,44,,47,46,16,18,10,8,0.5,0.5
2026-01-20T1000,4092A,119.119691,33.550006,淮安市,枚皋中路89号,,45,45,32,20,20,51,,51,49,9,11,10,8,0.4,0.2
2026-01-20T1000,4206A,119.028838,33.631911,淮安市,承德北路606号,,46,46,30,17,20,51,,53,51,10,11,8,7,0.6,0.5
2026-01-20T1000,2282A,116.8005,33.9749,淮北市,监测站,,34,34,43,15,29,48,,55,52,18,18,5,4,0.4,0.5
2026-01-20T1000,2283A,116.8094,33.9008,淮北市,烈山区政府,,40,40,39,24,31,51,,57,56,13,12,5,3,0.3,0.4
2026-01-20T1000,4017A,116.7926,33.9534,淮北市,市博物馆,,,,96,16,30,49,,55,52,22,23,6,4,0.6,0.6
2026-01-20T1000,4100A,116.8322,33.9884,淮北市,杜集区第一实验学校,,44,43,43,15,29,139,,164,164,19,14,8,9,0.3,0.7
2026-01-20T1000,2277A,116.8304,32.7726,淮南市,潘集区政府,,36,28,38,25,36,57,,53,53,16,14,5,4,0.5,0.6
2026-01-20T1000,2279A,116.8569,32.5949,淮南市,谢家集区政府,,,39,30,13,25,58,,52,52,,14,6,6,,0.5
2026-01-20T1000,2280A,116.8279,32.6333,淮南市,八公山区政府,,30,26,30,21,27,64,,55,55,8,9,5,7,0.3,0.4
2026-01-20T1000,2894A,117.0561,32.6536,淮南市,经济技术开发区消防队,,39,33,35,27,30,56,,58,58,13,14,4,3,0.5,0.6
2026-01-20T1000,3329A,117.011,32.5891,淮南市,山南新区,,22,22,33,14,25,62,,60,60,11,12,3,3,0.3,0.4
2026-01-20T1000,4209A,117.003137,32.644456,淮南市,国庆中路369号,,18,18,44,6,25,49,,49,49,14,15,5,5,0.6,0.7
2026-01-20T1000,2446A,114.9021,30.474,黄冈市,职工中心,,38,29,14,26,12,44,,45,45,7,9,6,6,0.9,0.9
2026-01-20T1000,2929A,114.8858,30.4519,黄冈市,红卫路,,35,30,15,24,12,44,,45,45,8,10,6,6,0.3,0.3
2026-01-20T1000,3398A,114.9134,30.4446,黄冈市,市林业局,,40,29,14,28,13,55,,52,52,16,17,5,5,0.8,0.8
2026-01-20T1000,2672A,102.02,35.5101,黄南藏族自治州,同仁县隆务镇,,,82,78,35,37,,,44,42,6,6,10,11,0.6,0.5
2026-01-20T1000,2295A,118.2905,29.6965,黄山市,延安路89号,,16,,8,11,13,42,,47,47,13,15,3,3,0.5,0.6
2026-01-20T1000,2297A,118.1369,30.2755,黄山市,黄山区政府5号楼,,25,,11,17,10,47,,48,48,9,14,2,2,0.5,0.5
2026-01-20T1000,4210A,118.335445,29.720283,黄山市,滨江东路7-2号,,25,25,23,10,16,44,,48,48,13,14,/,/,/,/
2026-01-20T1000,2423A,115.0547,30.2332,黄石市,沈家营,,28,24,19,19,8,47,,41,41,8,14,6,6,1.2,1.2
2026-01-20T1000,2426A,114.899,30.211,黄石市,铁山,,35,35,21,22,12,47,,43,43,5,7,4,5,0.6,0.6
2026-01-20T1000,2427A,115.0259,30.2108,黄石市,团城山,,41,41,23,16,5,44,,42,42,16,15,6,6,0.6,0.6
2026-01-20T1000,3149A,115.0174,30.1591,黄石市,笔架山北路,,30,30,22,13,5,44,,40,40,9,15,7,7,0.9,1
2026-01-20T1000,4185A,115.078022,30.21118,黄石市,磁湖东路29号,,32,22,19,22,11,50,,45,45,7,13,6,7,1.1,1.1
2026-01-20T1000,1392A,114.4181,23.0528,惠州市,河南岸金山湖子站,颗粒物(PM10),52,54,61,29,35,56,,48,42,25,22,10,5,0.6,0.7
2026-01-20T1000,1393A,114.4055,23.0824,惠州市,下埔横江三路子站,颗粒物(PM10),51,51,60,27,33,66,,78,73,23,20,11,7,0.6,0.6
2026-01-20T1000,1395A,114.4645,22.7832,惠州市,惠阳区承修路船湖子站,,41,41,51,17,27,76,,66,58,19,23,6,7,0.5,0.5
2026-01-20T1000,1396A,114.5316,22.7423,惠州市,大亚湾管委会子站,,41,41,49,17,23,83,,71,69,9,18,6,6,0.5,0.6
2026-01-20T1000,3314A,114.4334,22.8134,惠州市,惠阳秋长,颗粒物(PM10),59,68,61,27,30,51,,51,36,42,28,/,/,/,/
2026-01-20T1000,3452A,114.6521,22.7755,惠州市,大亚湾霞涌,,47,47,43,19,20,84,,67,62,13,17,/,/,/,/
2026-01-20T1000,4300A,114.4089,23.1147,惠州市,文华一路1号,,50,50,58,30,33,68,,79,71,29,23,/,/,/,/
2026-01-20T1000,2240A,130.9618,45.2926,鸡西市,环保局,,30,23,32,21,20,49,,48,48,7,7,6,6,0.2,0.2
2026-01-20T1000,2243A,130.9294,45.2959,鸡西市,第一中学,,26,26,28,13,21,52,,51,51,6,8,4,3,0.3,0.4
2026-01-20T1000,3707A,131.0069,45.2988,鸡西市,欧美日汽修厂,,29,29,30,13,19,52,,53,52,9,7,8,7,0.6,0.5
2026-01-20T1000,2367A,114.9753,27.0803,吉安市,红声器材厂,,17,17,69,3,37,29,,22,22,18,25,8,8,0.3,0.7
2026-01-20T1000,2369A,114.9903,27.1313,吉安市,市环境监测站,,12,12,61,3,36,31,,26,26,12,24,7,9,/,/
2026-01-20T1000,2370A,115.009527,27.096792,吉安市,青原区法院,,13,13,65,7,37,27,,23,23,15,21,9,11,0.6,0.8
2026-01-20T1000,1772A,126.54,43.8622,吉林市,哈达湾,,34,34,32,19,19,55,,53,53,8,11,10,15,0.7,0.7
2026-01-20T1000,1773A,126.5843,43.8358,吉林市,东局子,,40,40,33,22,16,43,,43,41,13,15,6,4,1.1,0.9
2026-01-20T1000,1774A,126.5051,43.8243,吉林市,电力学院,,40,40,29,21,18,50,,48,47,10,12,12,11,0.8,0.7
2026-01-20T1000,1775A,126.6133,43.8971,吉林市,江北,,38,38,32,18,19,45,,42,41,10,13,8,10,1.0,1
2026-01-20T1000,1776A,126.5549,43.8304,吉林市,江南公园,,41,41,28,25,19,51,,50,50,8,9,9,8,0.6,0.5
2026-01-20T1000,2868A,126.4737,43.953,吉林市,九站,,35,35,31,16,20,49,,42,42,10,16,6,6,0.7,0.7
2026-01-20T1000,1299A,116.9866,36.6118,济南市,科干所,,31,31,34,12,11,43,,36,34,19,17,10,6,0.4,0.4
2026-01-20T1000,1300A,116.9379,36.6652,济南市,农科所,,32,32,32,10,9,43,,33,32,21,22,10,7,0.6,0.6
2026-01-20T1000,1301A,117.1265,36.6736,济南市,开发区,,39,39,34,17,15,43,,37,36,29,26,8,4,0.5,0.5
2026-01-20T1000,1303A,117.0616,36.6865,济南市,省种子仓库,,36,36,36,9,10,46,,39,37,22,20,10,6,0.5,0.5
2026-01-20T1000,1304A,116.9495185,36.644937,济南市,机床二厂,,29,29,34,10,11,46,,35,34,19,19,7,5,0.3,0.3
2026-01-20T1000,1305A,117.0496,36.6629,济南市,市监测站,,37,37,32,12,11,44,,41,39,25,20,11,6,0.5,0.5
2026-01-20T1000,1306A,116.7674,36.5458,济南市,长清党校,,32,32,36,10,10,45,,34,33,17,19,10,7,0.5,0.5
2026-01-20T1000,1961A,117.5323,36.6865,济南市,东山小学,,37,37,41,12,13,52,,42,41,17,17,6,5,0.3,0.3
2026-01-20T1000,3059A,117.7181,36.205,济南市,泰兴公司,,44,44,48,29,24,49,,40,40,21,24,9,6,0.9,0.8
2026-01-20T1000,3064A,117.6861,36.2172,济南市,莱芜战役纪念馆,,36,36,41,20,23,49,,42,42,16,20,9,9,0.6,0.6
2026-01-20T1000,3494A,117.1673,36.9782,济南市,济阳区政府,,39,39,36,12,9,43,,34,31,22,19,8,6,0.4,0.4
2026-01-20T1000,3495A,117.1168,36.6299,济南市,锦屏中学,,27,27,28,10,10,46,,37,36,23,20,5,4,0.7,0.7
2026-01-20T1000,4108A,117.7107,36.2385,济南市,山财大街5号,,31,31,36,13,14,44,,38,38,20,22,14,11,0.8,0.7
2026-01-20T1000,4109A,116.9744,36.6889,济南市,无影山路12号,,27,27,27,11,9,44,,39,38,17,14,8,6,0.5,0.5
2026-01-20T1000,1653A,116.6229,35.4288,济宁市,火炬城,,38,38,45,19,26,44,,49,46,15,11,3,3,0.3,0.3
2026-01-20T1000,3500A,116.5808,35.3703,济宁市,北湖一中,,35,24,39,24,28,45,,47,46,20,19,5,3,0.5,0.5
2026-01-20T1000,3501A,116.8251,35.5592,济宁市,服务中心,,36,36,41,12,20,44,,46,42,22,16,12,10,0.7,0.7
2026-01-20T1000,3678A,116.5907,35.4054,济宁市,市第七中学,,,32,44,14,19,49,,51,50,14,12,7,6,,0.4
2026-01-20T1000,4111A,116.6075,35.4566,济宁市,任和路,,34,34,46,12,18,42,,47,44,14,13,6,5,0.7,0.6
2026-01-20T1000,4112A,116.5648,35.3921,济宁市,文体南路1号,,34,34,43,11,21,47,,50,47,10,10,5,3,0.6,0.4
2026-01-20T1000,2255A,130.2749,46.8028,佳木斯市,佳纺,,,,37,,29,,,38,38,,15,,7,,0.5
2026-01-20T1000,2257A,130.3258,46.7975,佳木斯市,环保局,,33,33,30,18,29,52,,47,47,14,15,8,8,0.5,0.5
2026-01-20T1000,4285A,130.363,46.806,佳木斯市,顺和街,,25,25,31,15,23,46,,47,46,16,16,6,8,0.4,0.4
2026-01-20T1000,4286A,130.3952,46.8268,佳木斯市,长安路196号,,36,25,28,25,25,50,,44,44,10,13,6,7,0.5,0.5
2026-01-20T1000,1252A,120.7439,30.778,嘉兴市,清河小学,颗粒物(PM10),54,57,45,15,11,41,,68,63,16,9,4,4,0.9,0.6
2026-01-20T1000,1253A,120.7261,30.7477,嘉兴市,嘉兴学院,,42,42,26,22,9,44,,69,63,21,14,4,4,0.8,0.7
2026-01-20T1000,2872A,120.7845,30.7524,嘉兴市,南湖区残联,,30,25,21,21,8,48,,69,64,16,10,3,3,0.8,0.7
2026-01-20T1000,3407A,120.6915,30.7741,嘉兴市,秀洲住建,,42,40,20,29,12,38,,66,60,22,13,5,5,0.7,0.6
2026-01-20T1000,1945A,98.291,39.7705,嘉峪关市,气象局,颗粒物(PM10),54,58,58,17,21,38,,40,39,19,14,9,11,0.4,0.4
2026-01-20T1000,2884A,98.2672,39.7978,嘉峪关市,酒钢宾馆,颗粒物(PM10),63,75,61,19,20,16,,40,37,37,15,13,13,0.7,0.7
2026-01-20T1000,3248A,98.2644,39.7723,嘉峪关市,雄关区,颗粒物(PM10),51,52,45,24,20,10,,40,36,39,18,12,8,0.6,0.5
2026-01-20T1000,1383A,113.1063,22.6058,江门市,北街,颗粒物(PM10),51,51,53,18,35,68,,62,53,25,24,/,/,/,/
2026-01-20T1000,1384A,113.073,22.5835,江门市,西区,颗粒物(PM10),52,54,62,16,36,66,,58,50,25,32,/,/,/,/
2026-01-20T1000,1385A,113.0218,22.531,江门市,圭峰西,,,52,52,20,34,,,72,63,18,19,/,/,/,/
2026-01-20T1000,1386A,113.0826,22.5947,江门市,东湖,,46,,59,32,36,77,,71,65,13,19,7,7,0.4,0.6
2026-01-20T1000,3311A,113.1077,22.5647,江门市,江海富民,颗粒物(PM10),65,80,74,34,34,69,,81,69,25,26,/,/,0.5,0.6
2026-01-20T1000,3449A,113.0496,22.4669,江门市,新会银湖,,49,49,54,23,39,66,,18,18,27,31,8,7,0.3,0.4
2026-01-20T1000,3335A,113.3137,35.2643,焦作市,马村街道办,细颗粒物(PM2.5),70,63,91,51,38,30,,33,30,19,18,6,6,0.7,0.5
2026-01-20T1000,3336A,113.2464,35.2374,焦作市,焦作技师学院,细颗粒物(PM2.5),77,73,83,56,47,35,,29,29,15,18,11,10,1.0,1.1
2026-01-20T1000,3477A,113.1656,35.2536,焦作市,中站许衡医院,细颗粒物(PM2.5),74,67,78,54,51,36,,32,30,18,21,6,5,0.7,0.8
2026-01-20T1000,3981A,113.2456,35.18,焦作市,原李万街道办,细颗粒物(PM2.5),58,55,60,41,34,42,,37,37,14,19,4,4,0.5,0.5
2026-01-20T1000,4264A,113.234,35.219,焦作市,新安路1731号,细颗粒物(PM2.5),63,70,101,45,46,39,,34,34,12,16,7,5,0.6,0.6
2026-01-20T1000,4295A,113.2722,35.2121,焦作市,人民路3066号,细颗粒物(PM2.5),67,53,60,48,39,32,,31,30,16,20,5,4,1.0,0.9
2026-01-20T1000,1708A,116.3701,23.5345,揭阳市,新兴,颗粒物(PM10),56,61,60,21,37,71,,67,65,24,32,8,10,0.4,0.6
2026-01-20T1000,1709A,116.3261,23.5442,揭阳市,西马,颗粒物(PM10),52,54,65,23,37,66,,66,66,15,20,5,6,0.4,0.5
2026-01-20T1000,1710A,116.361,23.5627,揭阳市,东兴,,,53,59,25,37,,,,,16,18,9,10,/,/
2026-01-20T1000,1711A,116.4151,23.5295,揭阳市,渔湖,颗粒物(PM10),53,55,56,27,29,69,,61,59,18,24,4,6,/,/
2026-01-20T1000,3320A,116.4028,23.5699,揭阳市,曲溪,颗粒物(PM10),54,57,63,31,34,61,,48,48,21,26,10,9,0.5,0.7
2026-01-20T1000,1944A,102.1691,38.5166,金昌市,天庆家园,细颗粒物(PM2.5),82,107,81,60,35,28,,35,33,21,15,5,23,1.0,0.8
2026-01-20T1000,4022A,102.1648,38.5369,金昌市,金川区人防中心,颗粒物(PM10),68,86,76,11,31,40,,39,38,11,11,4,14,0.7,0.7
2026-01-20T1000,4239A,102.193042,38.531887,金昌市,长春路96号,颗粒物(PM10),61,71,71,21,22,33,,31,31,9,10,5,11,0.5,0.7
2026-01-20T1000,1262A,119.6478,29.0773,金华市,十五中,,,19,17,13,14,,,58,58,13,19,3,3,0.6,0.5
2026-01-20T1000,1263A,119.6859,29.1032,金华市,监测站,,22,22,17,15,10,50,,50,50,14,25,2,2,0.5,0.6
2026-01-20T1000,3659A,119.656,29.1132,金华市,气象局,,18,18,18,8,7,45,,46,46,15,24,2,2,0.5,0.5
2026-01-20T1000,1767A,121.1114,41.0879,锦州市,南山,,,,38,,13,47,,43,35,,11,12,10,1.0,0.6
2026-01-20T1000,1768A,121.060361,40.842794,锦州市,开发区,颗粒物(PM10),51,51,51,17,15,46,,26,26,18,24,15,25,0.4,0.5
2026-01-20T1000,1769A,121.1836,41.1118,锦州市,百股街道,颗粒物(PM10),61,71,42,34,14,48,,42,41,17,14,15,10,0.9,0.7
2026-01-20T1000,1770A,121.1176,41.1224,锦州市,天安街道,,28,22,35,19,12,59,,54,52,14,12,6,6,0.8,0.6
2026-01-20T1000,1771A,121.1303,41.1385,锦州市,北湖公园,,41,41,33,28,12,52,,53,51,13,7,12,9,0.7,0.6
2026-01-20T1000,2160A,112.8496,35.5051,晋城市,自来水公司,细颗粒物(PM2.5),64,61,92,46,46,26,,26,26,19,20,4,3,0.8,0.8
2026-01-20T1000,2162A,112.8509,35.4886,晋城市,市环保局,细颗粒物(PM2.5),67,56,70,48,45,34,,32,32,16,20,3,3,0.8,0.8
2026-01-20T1000,3620A,112.8258,35.4804,晋城市,泽州一中,细颗粒物(PM2.5),58,52,63,41,43,33,,32,32,16,20,3,2,0.7,0.7
2026-01-20T1000,4078A,112.8246,35.5152,晋城市,前书院路,,50,47,79,35,38,24,,24,24,20,20,3,3,0.7,0.6
2026-01-20T1000,4079A,112.8864,35.4773,晋城市,祥云街666号,细颗粒物(PM2.5),65,53,57,47,52,31,,30,30,9,11,2,2,0.6,0.6
2026-01-20T1000,2174A,112.6992,37.6984,晋中市,榆次区政府,,,53,48,18,16,,,33,28,39,28,,11,0.2,0.2
2026-01-20T1000,2865A,112.7195,37.683,晋中市,榆次三中,颗粒物(PM10),56,61,53,24,15,22,,20,17,23,21,12,10,0.4,0.3
2026-01-20T1000,4080A,112.7375,37.7215,晋中市,广安街188号,,49,49,57,18,25,27,,10,10,28,27,13,10,0.6,0.4
2026-01-20T1000,4200A,112.7478,37.6954,晋中市,迎宾街26号,颗粒物(PM10),57,63,51,31,21,22,,20,18,18,24,11,9,0.7,0.5
2026-01-20T1000,2439A,112.2012,31.048,荆门市,竹园小学,细颗粒物(PM2.5),80,72,116,59,44,44,,44,43,23,22,1,1,0.3,0.3
2026-01-20T1000,2440A,112.1968,30.9892,荆门市,掇刀,细颗粒物(PM2.5),73,79,68,53,43,36,,37,36,15,15,1,2,0.6,0.5
2026-01-20T1000,3012A,112.1849,31.0361,荆门市,西山林语,细颗粒物(PM2.5),79,65,60,58,41,37,,35,35,16,16,1,3,0.8,0.7
2026-01-20T1000,3547A,112.1631,31.0134,荆门市,龙泉中学南校,细颗粒物(PM2.5),85,66,64,63,51,42,,40,40,8,7,2,2,1.2,1.1
2026-01-20T1000,4124A,112.2213,31.0654,荆门市,新台西路6号,细颗粒物(PM2.5),94,115,107,70,58,38,,36,36,10,11,7,7,0.7,0.6
2026-01-20T1000,1844A,112.2493,30.3198,荆州市,市图书馆,细颗粒物(PM2.5),93,95,51,69,46,34,,37,36,18,16,4,4,0.9,0.8
2026-01-20T1000,1845A,112.2009,30.3543,荆州市,市委党校,细颗粒物(PM2.5),82,63,49,60,45,28,,32,30,17,17,2,2,0.9,0.8
2026-01-20T1000,3194A,112.2749,30.3124,荆州市,管委会,细颗粒物(PM2.5),79,59,50,58,44,33,,35,34,16,16,4,4,0.8,0.8
2026-01-20T1000,4268A,112.1722,30.3366,荆州市,学苑路85号,,,,34,,38,,,42,41,,12,,6,,0.7
2026-01-20T1000,2343A,117.2114,29.2931,景德镇市,老干部活动中心,,11,7,22,6,15,33,,32,32,8,10,4,4,0.5,0.7
2026-01-20T1000,2344A,117.1893,29.2789,景德镇市,兽医站,,15,15,30,7,13,39,,38,38,10,12,4,4,0.5,0.6
2026-01-20T1000,2346A,117.246,29.2958,景德镇市,陶研所,,13,,18,9,16,36,,35,35,6,10,3,3,0.4,0.5
2026-01-20T1000,4289A,117.154766,29.256967,景德镇市,青少年活动中心,,13,12,24,6,16,40,,39,39,8,12,2,3,/,/
2026-01-20T1000,1803A,115.9873,29.6816,九江市,十里,,,,16,30,14,,,65,65,13,16,3,4,0.8,0.8
2026-01-20T1000,1804A,115.9583,29.7047,九江市,茅山头,,50,,17,35,14,48,,48,48,7,10,7,6,0.6,0.6
2026-01-20T1000,1805A,115.9877,29.7295,九江市,西园,,30,,17,21,8,54,,54,54,13,22,3,3,0.5,0.7
2026-01-20T1000,1808A,115.9112,29.6038,九江市,综合工业园,,39,,17,27,13,51,,52,51,15,18,1,1,0.8,0.8
2026-01-20T1000,3190A,116.0254,29.6995,九江市,外国语学校,,39,,18,27,13,40,,44,43,11,14,7,8,0.7,0.7
2026-01-20T1000,4253A,116.010205,29.659402,九江市,莲花大道8号,,38,38,24,20,7,40,,41,41,2,7,3,3,0.8,0.4
2026-01-20T1000,4240A,98.495752,39.733935,酒泉市,玉门东路5号,颗粒物(PM10),60,70,50,23,19,27,,50,44,26,6,10,9,0.8,0.4
2026-01-20T1000,4241A,98.5099,39.7506,酒泉市,北大街108号,颗粒物(PM10),69,88,44,25,15,35,,51,48,22,8,10,8,0.9,0.4
2026-01-20T1000,2698A,76.0071,39.466,喀什地区,巡警大队,颗粒物(PM10),500,981,947,187,189,45,,59,55,18,12,3,3,0.7,0.6
2026-01-20T1000,2699A,75.9756,39.4693,喀什地区,吾办,颗粒物(PM10),500,833,789,190,192,55,,63,62,11,10,4,5,0.5,0.5
2026-01-20T1000,4027A,75.9485,39.4688,喀什地区,老干局,颗粒物(PM10),500,1017,958,175,170,50,,55,54,8,9,1,2,0.4,0.4
2026-01-20T1000,1824A,114.3389,34.778,开封市,肿瘤医院,,49,43,74,34,36,42,,40,40,20,22,5,5,0.6,0.7
2026-01-20T1000,1826A,114.2884,34.7966,开封市,世纪星幼儿园,,,,52,,39,,,44,43,,19,,6,,0.7
2026-01-20T1000,3147A,114.3434,34.8101,开封市,龙亭公园,颗粒物(PM10),52,54,58,30,38,45,,48,45,18,21,7,7,0.6,0.7
2026-01-20T1000,3210A,114.3645,34.7955,开封市,汴京公园,,50,50,58,30,37,40,,40,38,14,15,4,4,0.5,0.7
2026-01-20T1000,3473A,114.2485,34.8306,开封市,技师学院,细颗粒物(PM2.5),55,49,56,39,39,35,,40,37,16,17,7,6,0.8,0.9
2026-01-20T1000,3592A,114.4518,34.7503,开封市,祥符区生态环境局,,43,43,100,25,37,40,,41,40,28,27,7,5,0.5,0.7
2026-01-20T1000,1951A,84.886,45.6029,克拉玛依市,长征新村,,36,36,34,20,27,28,,34,33,25,23,5,5,0.7,0.5
2026-01-20T1000,1952A,84.8894,45.5827,克拉玛依市,南林小区,,32,32,32,22,20,25,,30,29,19,19,3,4,0.8,0.8
2026-01-20T1000,1954A,84.896,44.3328,克拉玛依市,独山子区,,42,42,83,13,55,16,,66,61,75,37,6,5,2.0,0.6
2026-01-20T1000,1955A,85.6888,46.0909,克拉玛依市,乌尔禾区商贸楼,细颗粒物(PM2.5),52,,28,36,20,7,,24,23,51,31,6,6,1.2,0.7
2026-01-20T1000,3612A,85.1045,45.6895,克拉玛依市,白碱滩区新站,,43,43,43,18,21,9,,14,10,37,32,7,8,0.4,0.2
2026-01-20T1000,2697A,76.1457,39.7143,克孜勒苏柯尔克孜自治州,市人民政府,颗粒物(PM10),500,864,1014,164,211,42,,63,59,11,7,3,3,0.3,0.3
2026-01-20T1000,3665A,76.1654,39.7157,克孜勒苏柯尔克孜自治州,克州文化中心,颗粒物(PM10),500,987,1038,188,198,42,,62,57,10,5,2,2,0.5,0.4
2026-01-20T1000,1450A,102.8203,24.889,昆明市,呈贡新区,,36,29,34,25,20,49,,39,39,25,23,6,6,0.9,0.8
2026-01-20T1000,1452A,102.7253,25.0904,昆明市,龙泉镇,颗粒物(PM10),58,65,43,37,22,17,,13,5,55,38,5,4,0.9,0.6
2026-01-20T1000,1453A,102.7267,25.0378,昆明市,东风东路,颗粒物(PM10),75,99,39,45,22,20,,50,37,58,23,10,7,1.0,0.4
2026-01-20T1000,1454A,102.6744,25.0671,昆明市,金鼎山,,39,36,36,27,20,46,,42,39,29,21,14,5,1.0,0.7
2026-01-20T1000,1455A,102.6643,25.0401,昆明市,碧鸡广场,颗粒物(PM10),53,56,37,30,21,42,,27,25,35,30,17,6,0.8,0.5
2026-01-20T1000,3179A,102.7491,25.012,昆明市,官渡区博物馆,细颗粒物(PM2.5),69,77,39,50,23,11,,39,27,68,25,6,5,1.2,0.6
2026-01-20T1000,3375A,102.8016,24.8336,昆明市,青年创业园,,45,45,29,26,18,42,,42,32,40,16,7,5,0.8,0.6
2026-01-20T1000,3550A,102.8,24.9787,昆明市,昆明学院,颗粒物(PM10),59,67,36,38,21,33,,54,41,41,18,6,5,0.8,0.4
2026-01-20T1000,3551A,102.5969,24.6738,昆明市,晋宁区生态环境分局,颗粒物(PM10),67,83,31,24,18,28,,33,27,23,12,3,3,0.7,0.6
2026-01-20T1000,3552A,102.6673,24.9861,昆明市,云天化总部,,48,48,29,30,17,33,,37,23,46,22,14,7,0.8,0.3
2026-01-20T1000,1456A,91.132,29.6515,拉萨市,八廓街,,18,18,26,8,15,51,,48,48,19,20,7,7,0.5,0.5
2026-01-20T1000,1457A,91.1221,29.6748,拉萨市,市环保局,,23,23,47,15,22,33,,32,32,30,34,7,10,0.9,1.3
2026-01-20T1000,1458A,91.0874,29.6476,拉萨市,区监测站,,19,17,20,6,11,36,,35,35,37,34,5,5,1.0,1
2026-01-20T1000,1459A,91.1774,29.6541,拉萨市,西藏大学,,17,15,22,8,13,54,,54,54,14,22,5,5,0.6,0.7
2026-01-20T1000,1460A,90.9798,29.6586,拉萨市,区辐射站,颗粒物(PM10),54,57,46,32,26,12,,34,34,57,36,6,5,1.0,0.8
2026-01-20T1000,1461A,91.0831,29.6292,拉萨市,拉萨火车站,,31,30,19,16,12,9,,38,29,61,28,7,5,1.1,0.6
2026-01-20T1000,2520A,109.2203,23.7252,来宾市,来宾技工学校,,31,31,72,11,44,17,,29,29,10,18,10,12,1.0,0.9
2026-01-20T1000,3535A,109.1781,23.7293,来宾市,兴宾区政府,,42,42,74,24,55,22,,36,36,12,15,7,8,0.9,0.8
2026-01-20T1000,4002A,109.2312,23.7428,来宾市,中南小学,,30,30,70,15,43,19,,31,31,12,26,8,8,0.8,0.9
2026-01-20T1000,1479A,103.8309,36.0467,兰州市,铁路设计院,,,,,,,,,,,,,,,,
2026-01-20T1000,3241A,103.7439,36.0841,兰州市,百合公园,颗粒物(PM10),59,67,63,31,24,13,,22,16,37,21,13,8,1.3,0.9
2026-01-20T1000,3242A,103.9613,35.9985,兰州市,和平,颗粒物(PM10),69,87,66,39,28,23,,22,17,34,22,16,9,1.3,0.8
2026-01-20T1000,4236A,103.629272,36.093822,兰州市,庄浪东路808号,颗粒物(PM10),64,78,72,34,32,22,,34,30,38,22,20,15,0.8,0.5
2026-01-20T1000,4237A,103.7251,36.104344,兰州市,安宁西路88号,颗粒物(PM10),67,84,73,27,27,17,,33,26,40,20,14,11,0.7,0.4
2026-01-20T1000,4238A,103.846982,36.067567,兰州市,北滨河东路1号,颗粒物(PM10),55,59,61,28,27,24,,32,28,33,21,19,9,0.9,0.7
2026-01-20T1000,1067A,116.6712,39.5109,廊坊市,药材公司,,,18,20,,5,48,,49,48,10,12,,2,0.4,0.4
2026-01-20T1000,1068A,116.7215,39.5592,廊坊市,开发区,,19,13,19,6,7,58,,48,48,8,14,3,2,0.3,0.2
2026-01-20T1000,1070A,116.7246,39.5273,廊坊市,北华航天学院,,17,11,23,3,7,54,,46,46,10,14,1,2,0.3,0.2
2026-01-20T1000,2919A,116.7022,39.5454,廊坊市,河北工业大学,,19,19,21,6,7,56,,46,46,4,10,3,3,0.3,0.3
2026-01-20T1000,2536A,103.7629,29.5844,乐山市,牛耳桥,,21,21,25,13,19,26,,34,32,21,18,4,4,0.6,0.6
2026-01-20T1000,2537A,103.7501,29.6002,乐山市,市第三水厂,,23,23,24,12,16,28,,35,33,23,18,6,5,0.7,0.6
2026-01-20T1000,2538A,103.7571,29.5664,乐山市,市监测站,,19,18,23,13,20,31,,34,33,15,15,5,5,0.6,0.6
2026-01-20T1000,3361A,103.7313,29.563,乐山市,理工大学,,20,20,23,13,17,30,,35,33,14,14,6,5,0.4,0.4
2026-01-20T1000,2599A,100.2497,26.8802,丽江市,丽江古城,,26,26,26,13,13,72,,74,72,10,10,9,9,0.4,0.4
2026-01-20T1000,2600A,100.2203,26.8906,丽江市,市中心,,26,18,13,3,5,81,,79,77,11,9,6,6,0.4,0.4
2026-01-20T1000,1267A,119.9141,28.4513,丽水市,监测站大楼,,15,6,16,3,10,47,,47,47,12,17,4,4,0.4,0.5
2026-01-20T1000,1268A,119.93,28.4589,丽水市,莲都小学,,,11,16,10,8,,,47,47,18,18,/,/,/,/
2026-01-20T1000,1269A,119.8794,28.4232,丽水市,余庄前,,13,13,22,8,12,40,,44,44,18,20,3,4,0.3,0.5
2026-01-20T1000,1173A,119.1759,34.5885,连云港市,市环境监测站,,36,36,30,17,17,43,,47,46,17,16,14,11,0.7,0.6
2026-01-20T1000,3000A,119.3577,34.6971,连云港市,德源药业,,36,36,44,22,19,48,,46,46,10,11,6,6,1.0,0.9
2026-01-20T1000,3007A,119.178,34.8442,连云港市,新城一中,,41,41,39,21,19,46,,50,48,25,18,16,14,1.0,0.9
2026-01-20T1000,3008A,119.3607,34.7519,连云港市,胡沟管理处,,,31,27,17,16,51,,50,50,13,13,,11,1.0,1
2026-01-20T1000,3009A,119.1478,34.5913,连云港市,矿山设计院,,34,34,28,17,14,47,,49,49,11,10,13,10,0.8,0.6
2026-01-20T1000,3434A,119.2414,34.6539,连云港市,工贸学校,,47,47,41,21,18,48,,46,46,10,12,12,11,0.9,0.7
2026-01-20T1000,3664A,119.4171,34.734,连云港市,连云街道,,,,38,,15,46,,47,47,18,21,3,4,,0.6
2026-01-20T1000,2573A,102.2629,27.8981,凉山彝族自治州,西昌市政府,细颗粒物(PM2.5),87,76,70,64,53,32,,40,36,30,21,8,10,0.9,0.8
2026-01-20T1000,2574A,102.2686,27.885,凉山彝族自治州,凉山州政府,,,,82,,56,,,32,29,38,27,9,12,1.0,0.8
2026-01-20T1000,4229A,102.2342,27.8859,凉山彝族自治州,凯乐南路30号,细颗粒物(PM2.5),72,72,80,52,52,33,,50,42,35,30,7,10,0.8,0.8
2026-01-20T1000,2212A,123.1978,41.2036,辽阳市,宏伟区,,40,33,64,28,28,51,,31,31,10,15,12,10,0.4,0.5
2026-01-20T1000,2213A,123.1684,41.2497,辽阳市,新华园,,21,21,68,12,25,52,,29,29,10,26,7,14,0.2,0.5
2026-01-20T1000,2214A,123.2355,41.2663,辽阳市,滨河路,,28,28,62,17,25,46,,19,19,11,24,8,6,0.3,0.5
2026-01-20T1000,4083A,123.153,41.2874,辽阳市,铁西路150号,,25,24,72,17,36,49,,14,14,16,30,10,10,0.7,1
2026-01-20T1000,2227A,125.1359,42.8845,辽源市,环保局,,,84,52,53,24,,,10,10,30,31,6,6,0.9,0.7
2026-01-20T1000,4085A,125.0998,42.9134,辽源市,安宁大街333号,细颗粒物(PM2.5),69,86,42,50,27,36,,16,15,22,20,7,6,0.8,0.7
2026-01-20T1000,1625A,115.9789,36.4372,聊城市,区政府,,38,38,39,11,11,51,,41,41,22,20,12,12,0.6,0.6
2026-01-20T1000,3200A,115.9772,36.4986,聊城市,监控中心,,33,33,35,12,14,49,,34,34,25,22,10,7,0.8,0.7
2026-01-20T1000,3513A,116.0443,36.436,聊城市,九州社区,,36,36,47,7,15,68,,51,51,7,9,4,6,0.4,0.5
2026-01-20T1000,4018A,116.0564,36.4609,聊城市,星美广场,,36,36,52,12,14,55,,37,37,13,15,5,10,0.3,0.4
2026-01-20T1000,4113A,116.0091,36.4495,聊城市,利民路,,26,26,37,7,10,50,,35,35,23,23,10,9,0.7,0.7
2026-01-20T1000,2632A,94.3683,29.6373,林芝市,林芝监测站,,18,18,18,11,9,54,,75,68,6,3,3,3,0.5,0.4
2026-01-20T1000,2633A,94.3616,29.6634,林芝市,林芝人民医院,,43,43,25,25,11,49,,69,62,20,7,2,2,0.7,0.4
2026-01-20T1000,2603A,100.0779,23.8981,临沧市,市环保局,细颗粒物(PM2.5),64,64,84,46,71,24,,20,19,15,19,5,6,1.1,1
2026-01-20T1000,2604A,100.0894,23.882,临沧市,市气象局,细颗粒物(PM2.5),60,63,90,43,66,18,,21,17,17,17,6,6,0.7,0.9
2026-01-20T1000,1733A,111.5552,36.0791,临汾市,临钢医院,,38,38,41,20,15,34,,30,28,16,17,4,3,0.7,0.8
2026-01-20T1000,1734A,111.4984,36.0734,临汾市,技工学校,,33,,41,23,17,34,,34,32,22,17,4,3,0.4,0.4
2026-01-20T1000,1736A,111.5017,36.0857,临汾市,市委,颗粒物(PM10),51,51,41,11,8,37,,38,36,18,16,5,5,0.8,0.7
2026-01-20T1000,3018A,111.5048,36.1015,临汾市,唐尧大酒店,,50,50,52,17,10,36,,36,35,17,18,2,2,0.6,0.6
2026-01-20T1000,4244A,111.4879,36.053,临汾市,启星学校,,22,21,40,15,15,39,,35,33,17,18,6,4,0.7,0.7
2026-01-20T1000,4271A,103.2464,35.6123,临夏回族自治州,滨河东路1号,颗粒物(PM10),84,117,107,60,46,8,,12,12,31,23,6,8,1.4,0.9
2026-01-20T1000,4310A,103.207136,35.599807,临夏回族自治州,新华街21号,颗粒物(PM10),86,122,90,63,34,15,,34,26,26,18,8,11,1.3,0.7
2026-01-20T1000,1618A,118.3429,35.0532,临沂市,沂河小区,,44,44,41,22,26,51,,51,50,12,17,12,10,0.6,0.6
2026-01-20T1000,1619A,118.2962,35.0568,临沂市,鲁南制药厂,,39,39,37,17,24,50,,53,52,15,15,12,10,0.6,0.5
2026-01-20T1000,1620A,118.2793,34.9976,临沂市,新光毛纺厂,,,31,36,16,22,,,54,53,16,20,10,9,0.6,0.6
2026-01-20T1000,1621A,118.3955,35.0889,临沂市,河东保险公司,,27,27,34,11,19,56,,56,55,10,14,12,9,0.6,0.6
2026-01-20T1000,3370A,118.3563,35.0215,临沂市,十里堡居委,,34,34,36,3,11,59,,60,59,12,19,10,9,0.5,0.5
2026-01-20T1000,3496A,118.359,35.1067,临沂市,南坊新区,,48,48,37,12,21,54,,53,52,12,15,11,10,2.6,1
2026-01-20T1000,3860A,118.3915,35.0297,临沂市,皇山花园小区,,44,44,38,15,19,56,,54,54,16,19,12,11,0.6,0.6
2026-01-20T1000,1870A,109.4854,24.3898,柳州市,柳东小学,,19,19,56,12,44,25,,39,33,16,19,7,10,0.7,0.8
2026-01-20T1000,1871A,109.4109,24.3304,柳州市,环保监测站,,20,20,62,6,34,12,,35,27,18,19,4,6,0.9,1
2026-01-20T1000,1872A,109.3886,24.3408,柳州市,河西水厂,,26,25,57,18,38,7,,35,25,22,17,8,6,1.1,0.9
2026-01-20T1000,1873A,109.4263,24.2951,柳州市,市四中,,15,11,54,10,36,19,,35,29,22,25,9,11,0.9,0.9
2026-01-20T1000,1874A,109.396,24.3658,柳州市,市九中,,21,21,56,9,41,10,,33,24,17,20,10,11,0.7,0.7
2026-01-20T1000,1875A,109.4912,24.3164,柳州市,古亭山,,12,12,60,3,34,21,,35,30,18,22,6,8,0.7,0.8
2026-01-20T1000,3402A,109.5422,24.3994,柳州市,市二中,,15,,42,10,35,20,,33,28,17,20,8,11,0.7,0.8
2026-01-20T1000,2307A,116.5078,31.7369,六安市,监测大楼,,48,35,25,33,24,48,,50,49,18,17,3,2,0.4,0.4
2026-01-20T1000,2308A,116.4738,31.7642,六安市,皖西学院,,50,48,29,35,23,55,,56,55,14,16,4,4,0.5,0.4
2026-01-20T1000,2309A,116.4997,31.7904,六安市,朝阳厂,,48,39,26,33,23,53,,54,53,14,16,4,4,0.5,0.5
2026-01-20T1000,2310A,116.5566,31.7885,六安市,开发区,细颗粒物(PM2.5),52,,21,36,27,59,,56,56,10,14,3,3,0.3,0.4
2026-01-20T1000,2577A,104.8293,26.592,六盘水市,黄土坡,,10,10,41,6,32,25,,46,38,15,17,6,9,0.9,0.8
2026-01-20T1000,2579A,104.8481,26.5898,六盘水市,民中,,17,17,43,3,31,21,,47,37,18,15,3,6,0.7,0.7
2026-01-20T1000,2580A,104.9541,26.5506,六盘水市,双水,,12,12,40,8,28,24,,49,39,12,12,3,4,0.8,0.6
2026-01-20T1000,4151A,104.8899,26.5685,六盘水市,钟山大道中段564号,,16,16,43,3,28,20,,42,34,15,12,4,6,1.0,0.7
2026-01-20T1000,2336A,117.022,25.1031,龙岩市,龙岩市监测站,,,29,47,15,32,65,,57,51,,25,15,12,0.5,0.6
2026-01-20T1000,2337A,117.0257,25.0662,龙岩市,闽西职业技术学院,,48,42,51,33,35,40,,61,48,31,21,12,11,0.7,0.7
2026-01-20T1000,2338A,117.0195,25.0306,龙岩市,龙岩学院,细颗粒物(PM2.5),54,56,45,38,32,32,,67,53,34,16,14,11,/,/
2026-01-20T1000,2885A,104.9344,33.3827,陇南市,滨江中学,颗粒物(PM10),63,76,65,34,29,27,,37,32,25,13,5,4,0.9,0.6
2026-01-20T1000,3247A,104.9551,33.3709,陇南市,市总工会,颗粒物(PM10),62,74,64,30,27,27,,40,34,25,13,8,7,0.7,0.5
2026-01-20T1000,2488A,111.9984,27.7346,娄底市,市监测站,,32,,13,22,15,32,,33,33,16,15,9,6,0.5,0.5
2026-01-20T1000,2491A,111.9888,27.7035,娄底市,市政府,,29,22,13,20,14,29,,31,31,16,14,5,4,0.7,0.7
2026-01-20T1000,4127A,111.9812,27.7591,娄底市,涟钢职大,,23,,19,16,11,32,,31,31,11,11,3,3,0.5,0.5
2026-01-20T1000,4128A,112.0303,27.7457,娄底市,娄底体校,,27,27,15,13,6,30,,28,28,9,11,2,2,0.3,0.3
2026-01-20T1000,1894A,105.4427,28.9063,泸州市,小市上码头,,10,8,59,6,52,19,,22,21,14,16,4,5,1.0,1.1
2026-01-20T1000,1895A,105.4241,28.8573,泸州市,兰田宪桥,,15,10,55,10,52,22,,26,25,4,7,6,7,1.1,1.1
2026-01-20T1000,1896A,105.4378,28.8833,泸州市,市环监站,,9,9,63,6,42,23,,27,26,13,14,8,9,0.9,1
2026-01-20T1000,4272A,105.3689,28.7783,泸州市,纳溪中医医院,,12,12,62,7,46,26,,26,26,9,10,7,7,0.9,1
2026-01-20T1000,2183A,111.1447,37.5212,吕梁市,环保局,,,,30,,18,,,48,,,6,,4,,0.2
2026-01-20T1000,2185A,111.1285,37.5338,吕梁市,自来水公司,颗粒物(PM10),61,71,52,22,18,24,,16,11,22,20,7,5,0.6,0.5
2026-01-20T1000,2867A,111.1225,37.5093,吕梁市,马茂庄小学,颗粒物(PM10),65,80,44,18,16,15,,16,12,31,20,8,4,0.5,0.3
2026-01-20T1000,1812A,112.3934,34.6517,洛阳市,市委党校,细颗粒物(PM2.5),77,63,45,56,48,29,,38,36,24,20,9,7,0.8,0.7
2026-01-20T1000,1815A,112.494,34.6883,洛阳市,河南林校,细颗粒物(PM2.5),60,55,47,43,39,37,,39,37,18,18,7,7,0.7,0.6
2026-01-20T1000,1816A,112.3843,34.623,洛阳市,开发区管委会,细颗粒物(PM2.5),68,56,48,49,41,33,,40,37,24,19,10,10,0.7,0.7
2026-01-20T1000,1817A,112.4263,34.6249,洛阳市,市委新办公区,细颗粒物(PM2.5),70,55,49,51,45,33,,39,37,24,22,7,7,0.6,0.5
2026-01-20T1000,3340A,112.6005,34.6323,洛阳市,伊滨,细颗粒物(PM2.5),78,,51,57,47,37,,40,38,14,15,6,6,0.7,0.7
2026-01-20T1000,3341A,112.495,34.6338,洛阳市,中移产业园,,,56,48,51,43,,,33,32,17,17,7,8,0.6,0.6
2026-01-20T1000,3593A,112.5736,34.8993,洛阳市,吉利监测站,细颗粒物(PM2.5),67,49,64,48,40,40,,40,40,19,18,8,7,0.9,0.8
2026-01-20T1000,3635A,112.3678,34.6623,洛阳市,河科大西苑校区,,,55,47,46,39,,,43,42,36,25,8,8,0.9,0.8
2026-01-20T1000,3636A,112.4387,34.678,洛阳市,英才小学,细颗粒物(PM2.5),73,54,49,53,48,34,,38,36,24,22,8,8,0.7,0.6
2026-01-20T1000,4214A,112.460027,34.694929,洛阳市,春都路1号院,细颗粒物(PM2.5),60,66,56,43,35,38,,40,38,12,14,7,7,0.8,0.8
2026-01-20T1000,2399A,114.051,33.5721,漯河市,三五一五工厂,细颗粒物(PM2.5),59,54,61,42,44,44,,49,48,10,12,7,6,0.9,0.8
2026-01-20T1000,2400A,114.0055,33.5698,漯河市,漯河大学,细颗粒物(PM2.5),70,61,50,51,44,44,,46,46,7,8,7,5,0.8,0.7
2026-01-20T1000,2401A,114.0134,33.5826,漯河市,市水利局,细颗粒物(PM2.5),79,63,48,58,49,40,,44,43,15,16,5,4,0.8,0.7
2026-01-20T1000,2402A,114.0261,33.5697,漯河市,市广电局,细颗粒物(PM2.5),69,63,48,50,44,43,,48,47,12,12,7,6,0.8,0.7
2026-01-20T1000,3478A,113.9691,33.568,漯河市,市图书馆,,,71,94,42,53,39,,42,42,12,12,6,4,,1
2026-01-20T1000,4250A,114.089259,33.588274,漯河市,韶山路11号,细颗粒物(PM2.5),70,60,54,51,46,37,,44,42,11,10,6,5,1.0,0.9
2026-01-20T1000,1798A,118.5084,31.6838,马鞍山市,湖东路四小,颗粒物(PM10),75,100,46,32,16,45,,48,47,20,16,4,2,0.8,0.5
2026-01-20T1000,1799A,118.5019,31.6449,马鞍山市,开发区,颗粒物(PM10),75,100,48,31,17,47,,50,48,24,15,5,3,0.6,0.5
2026-01-20T1000,3633A,118.4914,31.681,马鞍山市,雨山,颗粒物(PM10),56,61,37,29,15,47,,48,47,18,15,6,5,1.0,0.6
2026-01-20T1000,4191A,118.527362,31.722269,马鞍山市,慈湖高新区,颗粒物(PM10),54,58,26,27,17,42,,49,47,25,17,4,4,0.9,0.5
2026-01-20T1000,1686A,111.0285,21.469,茂名市,电白南海,颗粒物(PM10),54,58,54,27,29,93,,92,91,16,14,9,9,0.7,0.8
2026-01-20T1000,1687A,110.9294,21.6533,茂名市,茂石化七小,颗粒物(PM10),64,78,57,31,27,82,,88,86,18,16,10,8,0.8,0.7
2026-01-20T1000,1688A,110.9108,21.6688,茂名市,健康路,,46,46,47,24,26,86,,102,100,29,18,8,9,0.8,0.8
2026-01-20T1000,1689A,110.8592,21.6826,茂名市,高岭,颗粒物(PM10),57,63,70,19,27,94,,107,103,21,20,17,12,/,/
2026-01-20T1000,3450A,111.0101,21.5165,茂名市,电白水东,颗粒物(PM10),54,58,47,27,26,96,,98,96,11,11,11,9,/,/
2026-01-20T1000,2540A,103.8414,30.0871,眉山市,气象局,,36,36,39,14,16,22,,35,30,27,20,10,11,0.6,0.6
2026-01-20T1000,3148A,103.829,30.0563,眉山市,区人社局,,33,33,39,9,13,23,,28,24,22,20,6,8,0.6,0.5
2026-01-20T1000,4148A,103.8836,30.0695,眉山市,眉职院,,27,27,20,9,6,31,,28,26,14,15,1,1,0.7,0.7
2026-01-20T1000,1690A,116.1248,24.3307,梅州市,梅江月梅,"颗粒物(PM10),细颗粒物(PM2.5)",60,70,61,43,50,45,,67,52,35,25,/,/,/,/
2026-01-20T1000,1691A,116.0798,24.2719,梅州市,梅县新城,细颗粒物(PM2.5),78,83,69,57,52,42,,48,40,44,35,10,9,0.9,0.8
2026-01-20T1000,3315A,116.1234,24.2994,梅州市,梅龙,颗粒物(PM10),54,58,65,32,44,55,,68,58,25,24,12,12,0.9,0.9
2026-01-20T1000,1878A,104.7775,31.4741,绵阳市,富乐山,,42,36,29,29,17,45,,46,45,10,10,7,7,0.4,0.4
2026-01-20T1000,1880A,104.6698,31.4668,绵阳市,高新区自来水公司,,43,43,30,29,18,38,,41,40,18,16,8,8,0.7,0.6
2026-01-20T1000,3491A,104.6899,31.5324,绵阳市,西科大附属小学,,43,43,29,24,12,43,,46,45,17,15,8,7,0.6,0.5
2026-01-20T1000,3492A,104.5647,31.5343,绵阳市,安州区旅游局,,39,37,30,27,18,37,,38,38,15,15,9,9,0.4,0.4
2026-01-20T1000,4146A,104.7092,31.4972,绵阳市,科技城新区公安局,,42,42,35,25,14,45,,48,47,15,12,8,8,0.8,0.7
2026-01-20T1000,4226A,104.765114,31.453094,绵阳市,绵阳市气象局,,35,35,29,20,16,43,,45,44,15,15,15,10,0.5,0.5
2026-01-20T1000,1784A,129.61,44.561,牡丹江市,环保大楼,,,33,39,22,25,,,46,45,12,13,4,3,0.3,0.3
2026-01-20T1000,1787A,129.6364,44.6075,牡丹江市,机车工厂,,46,46,47,14,21,47,,44,44,14,14,4,2,0.4,0.3
2026-01-20T1000,1788A,129.6386,44.5462,牡丹江市,第一中学,,28,26,34,19,23,48,,45,45,7,9,5,4,0.5,0.5
2026-01-20T1000,4287A,129.5992,44.5964,牡丹江市,东晓云街98号,,49,44,48,34,36,39,,29,29,21,19,6,5,0.7,0.6
2026-01-20T1000,2531A,105.0703,29.61,内江市,市监测站,,32,23,35,22,25,33,,43,41,17,12,5,5,0.8,0.8
2026-01-20T1000,2533A,105.0657,29.5807,内江市,内江二中,,23,23,46,15,18,27,,34,32,24,20,4,4,0.8,0.8
2026-01-20T1000,2534A,105.0407,29.5828,内江市,内江日报社,,19,,26,13,16,30,,34,33,19,18,8,6,0.7,0.7
2026-01-20T1000,4147A,105.0433,29.6105,内江市,玉峰路西段888号,,34,34,36,17,17,33,,38,37,16,16,1,2,0.9,0.8
2026-01-20T1000,2628A,92.0653,31.4846,那曲市,那曲监测站,,46,45,37,32,21,23,,27,27,23,21,12,9,1.2,1.2
2026-01-20T1000,4243A,92.0515,31.4787,那曲市,那曲市委宣传部,细颗粒物(PM2.5),62,59,19,44,11,17,,29,24,26,12,11,5,1.6,0.9
2026-01-20T1000,1291A,115.8887,28.7006,南昌市,省林业公司,,28,19,24,19,15,56,,57,57,1,10,4,3,0.1,0.1
2026-01-20T1000,1292A,115.813,28.7443,南昌市,林科所,,18,17,14,12,7,37,,38,38,10,15,4,5,0.4,0.5
2026-01-20T1000,1294A,115.8518,28.687,南昌市,建工学校,,35,35,30,21,16,34,,36,36,17,22,12,11,0.9,0.9
2026-01-20T1000,1295A,115.8926,28.6425,南昌市,象湖,,,,32,19,15,,,37,37,13,16,7,7,0.4,0.4
2026-01-20T1000,3046A,115.9084,28.6062,南昌市,机电学校,,28,22,51,19,16,40,,41,41,10,15,3,3,0.6,0.5
2026-01-20T1000,3690A,115.9718,28.7032,南昌市,外国语学校,,30,25,73,21,21,37,,39,39,15,18,10,10,0.6,0.6
2026-01-20T1000,4106A,115.7923,28.6873,南昌市,工业二路,,20,20,56,9,9,36,,38,38,10,11,3,3,0.1,0.2
2026-01-20T1000,4192A,115.931587,28.686774,南昌市,南京东路235号,,28,25,56,19,13,41,,42,42,8,14,5,4,0.2,0.3
2026-01-20T1000,1906A,106.0791,30.8022,南充市,南充市委,,36,36,17,25,13,21,,26,25,26,22,4,4,0.8,0.8
2026-01-20T1000,1907A,106.1038,30.8215,南充市,南充炼油厂,,49,49,32,32,21,22,,28,27,21,16,5,5,1.0,1
2026-01-20T1000,4227A,106.108336,30.788436,南充市,梨树横街98号,,30,30,16,21,13,30,,32,31,16,18,5,5,0.7,0.7
2026-01-20T1000,4304A,106.1172,30.843,南充市,清泉寺北路188号,,,32,16,20,10,,,33,33,16,16,6,6,0.6,0.6
2026-01-20T1000,4305A,106.067,30.7616,南充市,同庆路1号,,34,34,16,19,15,19,,27,25,28,21,6,10,0.8,0.7
2026-01-20T1000,1151A,118.8033,32.1085,南京市,迈皋桥,,44,44,30,24,14,58,,60,59,6,5,4,3,0.7,0.6
2026-01-20T1000,1152A,118.7487,32.057,南京市,草场门,,34,34,20,17,17,31,,28,28,20,18,3,3,0.2,0.4
2026-01-20T1000,1154A,118.770105,32.004342,南京市,中华门,,35,29,22,24,16,45,,49,47,12,8,7,5,0.5,0.4
2026-01-20T1000,1155A,118.8059,32.0329,南京市,瑞金路,,36,36,17,24,17,41,,48,46,22,9,4,4,1.2,1
2026-01-20T1000,1156A,118.7946,32.0774,南京市,玄武湖,,33,28,21,23,11,48,,50,48,15,15,4,4,0.9,0.7
2026-01-20T1000,1157A,118.6415,32.0964,南京市,浦口,颗粒物(PM10),51,51,44,27,19,48,,48,47,15,16,7,7,1.1,1.2
2026-01-20T1000,1158A,118.730129,32.000956,南京市,奥体中心,,42,33,21,29,17,56,,57,56,16,12,6,6,0.5,0.5
2026-01-20T1000,1159A,118.9072,32.1047,南京市,仙林大学城,,39,34,21,27,14,42,,47,45,12,10,6,6,0.7,0.6
2026-01-20T1000,3422A,118.8443,31.919,南京市,江宁彩虹桥,,37,37,21,24,14,54,,61,59,19,11,3,3,0.6,0.5
2026-01-20T1000,3427A,118.8497,32.3599,南京市,六合雄州,,47,47,29,19,18,52,,53,52,11,10,4,3,0.4,0.3
2026-01-20T1000,4086A,118.7641,32.0841,南京市,新模范马路66号,,36,34,20,25,18,71,,73,71,2,2,4,4,1.4,1.2
2026-01-20T1000,4249A,118.8707617,31.34017673,南京市,汶溪路181号,,33,28,20,23,17,52,,54,54,18,16,8,5,0.7,0.7
2026-01-20T1000,4312A,119.019,31.6512,南京市,中山西路1号,,32,27,20,22,17,47,,51,51,16,13,4,4,0.7,0.6
2026-01-20T1000,1401A,108.3098,22.788,南宁市,二十一中,,,39,51,30,37,,,69,69,15,17,4,5,0.8,0.8
2026-01-20T1000,1402A,108.3135,22.8529,南宁市,北湖,,49,48,52,34,36,81,,69,69,22,21,4,3,0.6,0.7
2026-01-20T1000,1403A,108.3205,22.8222,南宁市,市监测站,,45,42,49,31,34,87,,81,81,17,17,7,6,0.6,0.7
2026-01-20T1000,1404A,108.3828,22.8038,南宁市,大自然花园,,48,48,53,31,37,90,,84,84,18,15,7,6,0.7,0.8
2026-01-20T1000,1406A,108.2397,22.8462,南宁市,区农职院,,,,53,,33,,,77,77,,23,,8,,0.8
2026-01-20T1000,1407A,108.3285,22.7356,南宁市,英华嘉园,颗粒物(PM10),64,77,67,29,37,80,,74,74,16,22,4,5,0.7,0.7
2026-01-20T1000,3401A,108.4829,22.762,南宁市,红星社区,,48,48,59,28,42,91,,82,82,8,14,5,4,0.5,0.6
2026-01-20T1000,4132A,108.2927,23.1477,南宁市,起凤路9号,,41,41,52,28,39,97,,87,87,11,12,3,4,0.6,0.6
2026-01-20T1000,4221A,108.2177,22.7774,南宁市,乐贤路16号,颗粒物(PM10),56,62,57,36,34,66,,57,57,28,25,6,5,0.8,0.8
2026-01-20T1000,2332A,118.1682,26.6371,南平市,南平市监测站,,22,18,37,10,25,70,,82,77,11,16,3,5,0.4,0.5
2026-01-20T1000,2334A,118.1757,26.6276,南平市,南平七中,,23,12,38,10,24,73,,83,81,8,14,2,3,0.5,0.6
2026-01-20T1000,1168A,120.9056,31.9669,南通市,狼山街道,,25,19,18,17,12,48,,58,53,12,7,2,2,0.4,0.3
2026-01-20T1000,1170A,120.8635,32.0231,南通市,城中,,25,19,21,17,10,46,,54,50,16,10,5,4,0.8,0.7
2026-01-20T1000,1171A,120.9376,31.9301,南通市,星湖花园,,29,,18,20,11,55,,65,60,17,13,3,3,0.3,0.2
2026-01-20T1000,1172A,120.8053,32.046,南通市,紫琅学院,,32,27,19,22,10,51,,60,56,14,10,3,2,0.5,0.4
2026-01-20T1000,3291A,121.0631,32.0644,南通市,通州监测站,,22,22,15,14,9,53,,68,63,15,11,2,2,0.5,0.5
2026-01-20T1000,3432A,120.9348,31.9874,南通市,环境教育馆,,28,22,22,19,12,50,,60,55,16,9,3,3,0.5,0.4
2026-01-20T1000,4091A,120.8692,31.9885,南通市,洪江路,,29,23,16,20,10,47,,56,51,13,10,3,2,0.4,0.2
2026-01-20T1000,2404A,112.5338,33.0086,南阳市,瓦房庄,细颗粒物(PM2.5),84,62,51,62,48,40,,45,44,17,13,6,6,0.9,0.8
2026-01-20T1000,2405A,112.5002,32.9734,南阳市,汉画馆,细颗粒物(PM2.5),70,58,50,51,43,47,,46,46,11,11,6,5,0.9,0.8
2026-01-20T1000,2406A,112.5778,33.0144,南阳市,气象站,细颗粒物(PM2.5),77,71,54,56,41,42,,44,44,17,15,4,4,0.7,0.6
2026-01-20T1000,2407A,112.548,32.9687,南阳市,理工学院,细颗粒物(PM2.5),69,61,49,50,37,40,,43,42,12,11,4,4,0.7,0.6
2026-01-20T1000,4008A,112.5233,32.9921,南阳市,卧龙区政府,细颗粒物(PM2.5),77,78,83,56,43,43,,45,44,21,18,5,5,0.7,0.6
2026-01-20T1000,1234A,121.8352,29.9111,宁波市,区环保大楼,,20,20,20,12,15,56,,62,61,19,25,3,4,0.6,0.6
2026-01-20T1000,1235A,121.5595,29.8208,宁波市,万里学院,,20,18,20,10,6,61,,66,65,12,12,2,3,0.4,0.5
2026-01-20T1000,1236A,121.713,29.9564,宁波市,龙赛医院,,22,22,20,8,7,55,,66,64,17,13,2,3,0.2,0.3
2026-01-20T1000,1240A,121.5855,29.8635,宁波市,太古小学,,21,21,15,6,6,64,,68,67,10,9,2,2,0.4,0.4
2026-01-20T1000,1241A,121.5239,29.8673,宁波市,市环境监测中心,,19,19,20,3,4,58,,60,60,11,12,5,5,0.4,0.5
2026-01-20T1000,2871A,121.6156,29.9015,宁波市,万里国际学校,,21,19,21,7,5,65,,69,68,12,14,2,2,0.4,0.5
2026-01-20T1000,3710A,121.5593,29.8976,宁波市,白沙活动中心,,20,16,22,8,7,61,,64,64,11,14,3,3,0.2,0.2
2026-01-20T1000,4095A,121.8962,29.7529,宁波市,中科路88号,,20,19,15,7,4,64,,71,70,14,16,4,4,0.2,0.3
2026-01-20T1000,2341A,119.5387,26.6611,宁德市,宁德市监测站,,20,11,28,3,15,61,,59,59,14,13,3,4,0.4,0.4
2026-01-20T1000,3209A,119.5231,26.6562,宁德市,宁德一中,,20,17,29,3,18,62,,60,60,14,13,3,4,0.3,0.3
2026-01-20T1000,2618A,98.859,25.8541,怒江傈僳族自治州,州监测站,,38,38,40,25,26,31,,38,37,13,12,5,5,0.5,0.5
2026-01-20T1000,2619A,98.8607,25.8168,怒江傈僳族自治州,泸水一中,,38,,35,26,26,18,,28,26,19,18,6,6,0.6,0.6
2026-01-20T1000,1888A,101.6891,26.571,攀枝花市,弄弄坪,细颗粒物(PM2.5),109,136,101,82,62,12,,2,2,57,46,112,76,5.2,4.1
2026-01-20T1000,1889A,101.577,26.5914,攀枝花市,河门口,颗粒物(PM10),75,99,69,50,40,19,,19,16,35,31,14,20,1.4,1.5
2026-01-20T1000,1891A,101.7365,26.4986,攀枝花市,仁和,颗粒物(PM10),59,67,68,40,41,21,,18,14,40,31,15,20,2.4,2
2026-01-20T1000,2835A,101.7222,26.567,攀枝花市,四十中小,颗粒物(PM10),66,81,79,45,51,9,,12,12,40,42,64,41,5.1,2.9
2026-01-20T1000,1604A,122.0303,41.1489,盘锦市,开发区,,23,23,56,13,18,48,,33,33,11,13,6,3,0.6,0.7
2026-01-20T1000,1605A,122.0486,41.0883,盘锦市,兴隆台,,23,23,60,9,21,45,,16,16,16,22,11,8,0.6,0.8
2026-01-20T1000,1606A,121.8297,41.1026,盘锦市,新生街道,,20,15,44,10,14,62,,38,38,6,19,7,7,0.4,0.5
2026-01-20T1000,1832A,113.3257,33.7423,平顶山市,新华旅馆,颗粒物(PM10),65,79,71,44,46,46,,41,41,13,16,7,5,0.7,0.7
2026-01-20T1000,1833A,113.2917,33.737,平顶山市,规划设计院,细颗粒物(PM2.5),57,45,55,40,45,49,,47,47,8,12,8,6,0.7,0.8
2026-01-20T1000,1834A,113.182,33.7738,平顶山市,平顶山工学院,细颗粒物(PM2.5),70,55,48,51,44,44,,44,44,16,16,8,7,0.6,0.6
2026-01-20T1000,3594A,112.8736,33.9068,平顶山市,石龙区,细颗粒物(PM2.5),74,58,50,54,46,46,,42,42,10,9,8,5,0.7,0.6
2026-01-20T1000,4116A,113.284,33.7139,平顶山市,姚电大道23号,细颗粒物(PM2.5),57,50,70,40,49,46,,46,46,15,16,9,6,0.9,0.9
2026-01-20T1000,2656A,106.6633,35.5338,平凉市,聚贤嘉苑,,39,39,49,24,21,37,,45,40,12,10,14,12,0.6,0.5
2026-01-20T1000,2657A,106.7021,35.5307,平凉市,博物馆,,45,45,48,26,22,42,,54,47,15,10,10,9,0.6,0.5
2026-01-20T1000,2348A,113.8384,27.6436,萍乡市,中医院,,30,30,28,19,17,14,,11,11,32,28,4,3,0.8,0.7
2026-01-20T1000,2350A,113.8677,27.6438,萍乡市,市环保局,,22,20,21,15,19,17,,14,14,21,22,12,12,0.8,0.8
2026-01-20T1000,2351A,113.8663,27.6202,萍乡市,安源区政府,,23,23,27,16,20,19,,15,15,17,21,9,9,0.8,0.8
2026-01-20T1000,4107A,113.8686,27.6668,萍乡市,联洪村委会,,28,28,24,14,17,19,,14,14,23,24,3,3,1.0,1
2026-01-20T1000,2319A,119.0142,25.4324,莆田市,荔城区仓后路,,28,28,30,6,9,64,,72,67,12,11,/,/,/,/
2026-01-20T1000,2320A,119.0016,25.4553,莆田市,莆田市监测站,,,18,24,7,8,66,,78,72,10,8,,2,,0.6
2026-01-20T1000,2321A,119.112,25.4561,莆田市,涵江区六中,,23,23,28,7,8,71,,72,69,9,8,/,/,0.3,0.3
2026-01-20T1000,2322A,119.1014,25.3215,莆田市,秀屿区政府,,31,31,36,3,11,67,,71,68,8,9,1,2,0.7,0.7
2026-01-20T1000,2392A,115.0312,35.7636,濮阳市,环保局,,25,25,35,11,15,50,,44,44,14,15,8,7,0.8,0.8
2026-01-20T1000,3021A,115,35.7667,濮阳市,濮水河管理处,,,23,37,6,11,,,48,48,14,17,10,7,0.7,0.8
2026-01-20T1000,4118A,115.0552,35.7816,濮阳市,中原东路68号,,34,34,43,10,20,50,,42,42,17,19,6,6,0.2,0.2
2026-01-20T1000,4216A,115.0923632,35.76857718,濮阳市,任丘路479号,,,31,45,12,18,,,39,39,16,18,8,7,0.5,0.6
2026-01-20T1000,2601A,100.9801,22.7634,普洱市,市环保局,颗粒物(PM10),58,65,53,17,19,10,,27,22,29,13,5,5,0.8,0.5
2026-01-20T1000,2602A,100.9763,22.8237,普洱市,普洱第二中学,颗粒物(PM10),64,77,48,36,23,22,,8,8,26,23,5,5,0.5,0.4
2026-01-20T1000,3345A,131.0413,45.7795,七台河市,中波台,,34,34,39,22,27,39,,40,40,16,15,9,7,0.5,0.5
2026-01-20T1000,3637A,131.0136,45.7688,七台河市,人民广场,颗粒物(PM10),58,66,49,39,34,40,,38,38,19,18,9,6,0.6,0.5
2026-01-20T1000,3684A,130.8639,45.8144,七台河市,新建矿广场,,31,31,32,18,26,41,,38,37,10,11,13,6,0.4,0.3
2026-01-20T1000,1779A,123.9307,47.3641,齐齐哈尔市,安居小区,,22,22,21,8,12,53,,50,50,13,10,4,4,0.4,0.4
2026-01-20T1000,1780A,123.9497,47.3389,齐齐哈尔市,中心广场,,18,14,15,12,6,49,,50,49,13,10,5,5,0.7,0.7
2026-01-20T1000,1781A,123.9483,47.3229,齐齐哈尔市,农牧车辆厂,,29,29,24,16,11,49,,50,49,13,7,6,5,0.4,0.3
2026-01-20T1000,1783A,123.9442,47.2994,齐齐哈尔市,市环境监测站,,28,28,24,16,9,51,,52,51,10,8,5,4,0.7,0.7
2026-01-20T1000,3662A,123.6341,47.2079,齐齐哈尔市,富区青少年活动中心,,47,47,30,19,12,47,,48,46,17,12,10,6,0.7,0.6
2026-01-20T1000,2591A,107.9765,26.5724,黔东南苗族侗族自治州,市环境监测站,,,6,19,3,16,,,24,24,10,14,4,4,0.4,0.6
2026-01-20T1000,2881A,107.8909,26.531,黔东南苗族侗族自治州,凯里学院,,9,6,25,3,18,27,,26,26,11,14,1,1,0.6,0.7
2026-01-20T1000,2593A,107.5223,26.2371,黔南布依族苗族自治州,小围寨,,9,6,25,3,20,15,,17,16,9,9,3,3,0.9,0.9
2026-01-20T1000,3538A,107.5175,26.2977,黔南布依族苗族自治州,沙坝,,9,7,30,3,23,21,,22,22,11,12,5,4,0.9,1
2026-01-20T1000,2589A,104.9022,25.0943,黔西南布依族苗族自治州,场坝街,细颗粒物(PM2.5),53,51,46,37,33,61,,65,63,9,7,3,3,0.5,0.5
2026-01-20T1000,2590A,104.8812,25.0994,黔西南布依族苗族自治州,坪东大道,细颗粒物(PM2.5),52,48,44,36,38,65,,66,64,8,8,5,6,0.6,0.6
2026-01-20T1000,2502A,108.6238,21.9667,钦州市,市环保站,颗粒物(PM10),58,66,61,27,30,79,,89,84,20,18,6,4,0.6,0.6
2026-01-20T1000,2503A,108.655,21.9481,钦州市,沙埠小学,,,79,61,31,35,,,86,79,22,17,7,5,0.5,0.5
2026-01-20T1000,2504A,108.5989,21.7435,钦州市,港区一小,颗粒物(PM10),59,67,61,32,26,69,,90,82,27,20,8,6,0.9,0.7
2026-01-20T1000,3404A,108.5959,21.9634,钦州市,北职校,颗粒物(PM10),55,59,48,32,31,78,,89,84,22,18,11,8,0.8,0.8
2026-01-20T1000,1046A,119.5247,39.9346,秦皇岛市,建设大厦,,,,40,,27,,,9,7,33,28,10,7,0.8,0.5
2026-01-20T1000,3132A,119.5979,39.938,秦皇岛市,文明里,颗粒物(PM10),53,56,40,20,19,35,,26,24,28,26,18,12,0.6,0.3
2026-01-20T1000,4066A,119.7458,39.9952,秦皇岛市,南园路157号,颗粒物(PM10),51,51,40,14,15,32,,19,19,29,31,17,10,0.7,0.5
2026-01-20T1000,4067A,119.5131,39.8858,秦皇岛市,翠岛大街1号,,45,45,43,16,10,32,,20,18,27,32,14,9,0.6,0.4
2026-01-20T1000,4198A,119.509013,39.825305,秦皇岛市,北戴河轮滑馆,颗粒物(PM10),54,58,35,22,20,36,,18,16,26,27,13,6,0.6,0.4
2026-01-20T1000,1310A,120.404,36.0625,青岛市,市南区东部子站,,29,29,22,17,12,54,,60,56,8,7,11,9,0.5,0.5
2026-01-20T1000,1311A,120.362344,36.10282,青岛市,四方区子站,,31,31,23,17,13,51,,54,50,11,7,1,2,0.6,0.5
2026-01-20T1000,1312A,120.294373,36.054183,青岛市,市南区西部子站,,31,31,24,15,9,49,,61,57,13,7,4,5,0.3,0.4
2026-01-20T1000,1313A,120.4581,36.0858,青岛市,崂山区子站,,29,29,18,9,8,56,,61,58,9,7,10,10,0.1,0.2
2026-01-20T1000,1315A,120.3945,36.3083,青岛市,城阳区子站,,27,27,23,15,12,64,,63,60,10,9,7,6,0.7,0.7
2026-01-20T1000,3642A,120.3454,36.0735,青岛市,市北区南部,,28,28,26,17,10,44,,52,48,16,10,2,2,0.7,0.7
2026-01-20T1000,3643A,120.3897,36.18,青岛市,李沧区北部,,,,21,,15,,,68,54,,5,,9,,0.5
2026-01-20T1000,4110A,120.5222,36.4089,青岛市,盟旺路653号,,40,40,31,14,13,58,,54,51,15,17,2,2,0.5,0.6
2026-01-20T1000,4290A,120.196923,35.954556,青岛市,珠江路669号,,41,41,24,24,12,40,,59,52,31,18,12,11,0.6,0.4
2026-01-20T1000,4291A,120.0424,35.8656,青岛市,黄岛区人民政府广场,,,,31,,8,,,74,56,,11,,8,,0.6
2026-01-20T1000,1703A,113.0218,23.7086,清远市,凤城街办,,42,42,114,28,76,38,,77,59,20,49,/,/,/,/
2026-01-20T1000,3025A,113.0479,23.6343,清远市,技师学院,,49,49,123,28,75,23,,26,23,28,60,4,9,0.7,0.7
2026-01-20T1000,3318A,112.9898,23.7403,清远市,清新太和,,33,33,95,23,62,40,,94,75,18,34,3,7,0.8,0.7
2026-01-20T1000,3455A,113.076,23.72,清远市,清城东城,,35,35,94,23,60,38,,73,60,22,38,/,/,/,/
2026-01-20T1000,2661A,107.6325,35.7357,庆阳市,庆阳五中,,40,40,39,22,19,49,,48,47,9,10,4,4,0.4,0.4
2026-01-20T1000,2662A,107.6361,35.7067,庆阳市,市环保局,,48,48,43,21,19,37,,47,43,18,15,5,8,0.6,0.5
2026-01-20T1000,1916A,103.7897,25.5036,曲靖市,环境监测站,,44,44,30,21,11,49,,62,55,22,12,12,5,0.5,0.4
2026-01-20T1000,1917A,103.8013,25.5357,曲靖市,烟厂办公区,颗粒物(PM10),61,72,32,36,12,50,,56,45,24,15,9,4,0.4,0.2
2026-01-20T1000,3376A,103.7926,25.4651,曲靖市,南苑二区,,47,47,29,22,13,60,,67,63,11,7,14,6,0.5,0.4
2026-01-20T1000,3377A,103.7442,25.5259,曲靖市,曲靖师范学院,颗粒物(PM10),55,60,35,34,20,43,,56,47,20,13,7,4,0.4,0.2
2026-01-20T1000,1264A,118.8694,28.94,衢州市,环保大楼,,15,9,24,7,17,47,,45,45,17,21,/,/,/,/
2026-01-20T1000,1266A,118.8622,28.9809,衢州市,衢州学院,,15,8,21,6,14,45,,44,44,17,21,4,4,0.5,0.5
2026-01-20T1000,4097A,118.9646,28.9832,衢州市,衢州三中,,14,10,22,7,16,43,,39,39,16,24,4,4,0.7,0.7
2026-01-20T1000,1611A,118.5818,24.9116,泉州市,涂山街,,26,26,33,9,14,63,,74,70,12,11,2,3,0.5,0.5
2026-01-20T1000,1612A,118.597,24.8976,泉州市,津头埔,,34,34,33,12,15,60,,72,68,13,12,4,4,0.5,0.5
2026-01-20T1000,1613A,118.6669,24.9422,泉州市,万安,,32,32,37,12,17,58,,66,63,10,11,2,3,0.6,0.5
2026-01-20T1000,4105A,118.6355,24.9148,泉州市,霞新路6号,,22,22,28,11,14,63,,72,68,13,12,/,/,0.5,0.4
2026-01-20T1000,2626A,88.8873,29.2723,日喀则市,日喀则监测站,,29,29,25,13,11,33,,78,63,23,10,12,10,0.7,0.5
2026-01-20T1000,3726A,88.8775,29.2425,日喀则市,林业技术推广中心,,36,36,22,12,6,44,,74,61,8,5,11,10,0.4,0.2
2026-01-20T1000,1659A,119.4711,35.421,日照市,监测站,,34,34,30,18,16,45,,46,44,15,12,9,8,0.7,0.6
2026-01-20T1000,1660A,119.523,35.4216,日照市,市政府广场,,44,44,33,23,14,46,,46,43,16,13,10,9,0.5,0.4
2026-01-20T1000,1661A,119.5511,35.4113,日照市,港务局,,39,39,35,25,24,47,,44,43,15,14,7,7,0.9,0.7
2026-01-20T1000,3507A,119.5326,35.4627,日照市,职业技术学院,,39,39,31,22,13,45,,44,41,18,14,10,8,0.8,0.6
2026-01-20T1000,3604A,119.3267,35.1043,日照市,岚山环保分局,颗粒物(PM10),52,53,43,34,28,49,,49,48,11,11,18,16,1.2,1
2026-01-20T1000,1835A,111.1922,34.7752,三门峡市,市政府,,42,42,52,24,44,46,,39,39,15,16,11,8,0.8,0.7
2026-01-20T1000,1836A,111.1588,34.794,三门峡市,开发区,,26,26,57,15,41,42,,34,34,13,17,9,6,0.6,0.6
2026-01-20T1000,3039A,111.1911,34.7829,三门峡市,三门峡市第一小学,,47,47,52,11,38,42,,36,36,17,18,9,6,0.7,0.7
2026-01-20T1000,3598A,111.1031,34.719,三门峡市,富达温泉假日酒店,,44,44,56,26,36,44,,37,37,14,15,7,5,0.6,0.6
2026-01-20T1000,2324A,117.621,26.2626,三明市,三钢,,28,25,43,19,31,75,,68,68,14,25,8,9,0.6,0.7
2026-01-20T1000,2325A,117.6352,26.2714,三明市,三明二中,,23,23,40,15,28,72,,65,65,13,17,5,5,0.6,0.7
2026-01-20T1000,2326A,117.6028,26.2377,三明市,三元区政府,,28,20,46,19,32,77,,69,69,16,29,8,8,0.8,0.9
2026-01-20T1000,1877A,109.4962,18.2682,三亚市,河西子站,,34,34,34,17,15,87,,84,84,4,9,3,3,0.3,0.3
2026-01-20T1000,3540A,109.7348,18.3443,三亚市,君悦子站,,,,34,,15,,,82,61,,7,,4,,0.4
2026-01-20T1000,4135A,109.1714,18.3739,三亚市,城东小学站,,36,36,27,15,15,61,,48,48,7,11,/,/,/,/
2026-01-20T1000,2624A,91.7592,29.234,山南市,山南监测站,,20,19,28,14,10,40,,63,54,14,5,5,6,0.3,0.2
2026-01-20T1000,2625A,91.7701,29.2436,山南市,山南人民医院,,35,35,36,19,12,42,,64,57,23,8,8,8,0.6,0.4
2026-01-20T1000,1674A,116.6795,23.3666,汕头市,金平子站,,23,18,36,10,20,73,,89,82,11,11,4,5,0.6,0.6
2026-01-20T1000,1675A,116.7248,23.3632,汕头市,龙湖子站,,26,26,37,11,19,71,,86,79,11,11,9,10,/,/
2026-01-20T1000,1676A,116.7257,23.2774,汕头市,濠江子站,,23,22,31,11,19,73,,88,81,11,11,7,7,/,/
2026-01-20T1000,1677A,116.7518,23.4712,汕头市,澄海子站,,46,46,44,10,23,75,,84,79,12,13,6,7,0.4,0.4
2026-01-20T1000,1678A,116.6088,23.2539,汕头市,潮阳子站,,30,30,32,10,14,77,,90,84,6,6,6,6,0.5,0.5
2026-01-20T1000,3444A,116.4539,23.2684,汕头市,潮南峡山,,25,22,34,11,17,79,,89,84,11,12,8,9,0.5,0.5
2026-01-20T1000,3624A,116.4069,23.2533,汕头市,潮南子站,,31,31,40,12,18,70,,80,76,14,14,6,7,/,/
2026-01-20T1000,1693A,115.3653,22.7751,汕尾市,市环保局,,43,43,47,17,28,80,,80,78,17,14,6,7,0.5,0.6
2026-01-20T1000,1695A,115.362,22.7926,汕尾市,新城中学,,35,35,44,14,29,82,,74,72,9,12,4,5,0.4,0.4
2026-01-20T1000,2645A,109.9155,33.8714,商洛市,监测站,,27,27,34,18,20,51,,55,54,12,13,5,4,0.4,0.4
2026-01-20T1000,3045A,109.9647,33.8486,商洛市,商州区中学,,39,39,37,24,31,50,,56,53,9,14,4,6,0.7,0.8
2026-01-20T1000,2408A,115.6701,34.4283,商丘市,环境监测站,颗粒物(PM10),63,76,80,11,31,52,,51,49,13,14,4,2,0.4,0.5
2026-01-20T1000,2409A,115.6458,34.4047,商丘市,粮食局,,27,27,69,16,30,46,,46,44,10,11,5,3,0.6,0.7
2026-01-20T1000,3171A,115.6069,34.4465,商丘市,梁园区档案局,,26,26,44,15,29,49,,47,46,12,14,7,5,0.3,0.4
2026-01-20T1000,4119A,115.6701,34.3767,商丘市,北海东路185号,,24,24,41,9,30,51,,48,47,7,11,4,2,0.5,0.5
2026-01-20T1000,4120A,115.6172,34.3704,商丘市,中山大街3号,,28,28,57,12,32,54,,51,50,10,12,3,2,0.4,0.4
2026-01-20T1000,1141A,121.401,31.2382,上海市,普陀,,22,17,18,15,12,52,,66,61,21,16,5,5,0.7,0.7
2026-01-20T1000,1142A,121.4774,31.2043,上海市,十五厂,,19,19,17,8,10,57,,69,65,22,16,5,5,0.7,0.6
2026-01-20T1000,1143A,121.4673,31.3011,上海市,虹口,,16,16,20,8,11,47,,63,58,22,12,6,6,0.4,0.4
2026-01-20T1000,1147A,121.4253,31.226,上海市,静安监测站,,22,18,17,15,11,51,,69,63,27,17,6,6,0.6,0.5
2026-01-20T1000,1148A,121.7029,31.1905,上海市,浦东川沙,,16,15,19,11,10,50,,61,57,20,15,6,6,0.2,0.2
2026-01-20T1000,1149A,121.5339,31.229,上海市,浦东新区监测站,,25,,18,17,14,58,,68,65,15,14,5,5,0.5,0.5
2026-01-20T1000,1150A,121.5776,31.2038,上海市,浦东张江,,20,11,16,6,8,63,,71,68,14,13,6,6,0.0,0.1
2026-01-20T1000,3265A,121.4242,31.3303,上海市,宝山庙行,,19,19,19,13,11,42,,60,54,26,15,6,6,0.5,0.4
2026-01-20T1000,3266A,121.8789,31.4662,上海市,崇明上实东滩,,21,8,15,3,7,66,,73,71,8,8,4,3,0.2,0.4
2026-01-20T1000,3268A,121.316,31.2839,上海市,嘉定南翔,,19,,16,13,11,53,,62,58,18,14,3,3,1.6,1.1
2026-01-20T1000,3269A,121.3357,30.7455,上海市,金山新城,,26,21,16,18,15,52,,64,61,23,20,7,7,0.7,0.6
2026-01-20T1000,3270A,121.4996,31.0741,上海市,闵行浦江,,18,17,17,10,10,57,,69,65,15,13,6,5,0.3,0.3
2026-01-20T1000,3271A,121.2886,31.1663,上海市,青浦徐泾,,17,14,16,10,13,54,,66,62,20,18,4,4,0.5,0.5
2026-01-20T1000,3272A,121.2193,31.0382,上海市,松江图书馆,,23,,18,16,13,53,,66,62,20,19,6,5,0.4,0.5
2026-01-20T1000,3273A,121.3904,31.206,上海市,长宁仙霞,,18,14,17,12,10,54,,65,61,12,8,6,6,0.3,0.3
2026-01-20T1000,3274A,121.7964,31.0507,上海市,浦东惠南,,18,18,18,11,11,48,,67,61,30,19,4,3,0.4,0.5
2026-01-20T1000,3544A,121.4891,30.925,上海市,奉贤南桥新城,,22,22,18,14,13,58,,72,68,23,18,3,2,0.4,0.4
2026-01-20T1000,4183A,121.417401,31.16637,上海市,冠生园路458号,,20,19,20,14,11,55,,71,66,22,15,4,4,0.7,0.6
2026-01-20T1000,4205A,121.541914,31.268301,上海市,宁武路151号,,19,10,18,10,12,58,,66,62,18,17,4,4,0.5,0.5
2026-01-20T1000,2382A,117.9758,28.4439,上饶市,市监测站,,20,20,34,11,19,52,,46,46,14,20,4,5,/,/
2026-01-20T1000,2383A,117.9521,28.4637,上饶市,凤凰光学,,26,26,36,3,16,45,,40,40,16,21,6,7,0.6,0.7
2026-01-20T1000,3685A,117.897,28.4316,上饶市,双创科技城,,,,37,,25,53,,47,47,,23,4,4,0.6,0.7
2026-01-20T1000,4211A,118.190438,28.444845,上饶市,裕丰大道,,30,,37,21,25,42,,41,41,20,25,8,9,0.6,0.8
2026-01-20T1000,1669A,113.5821,24.7733,韶关市,市八中,,19,19,49,9,33,10,,16,14,23,21,7,9,0.7,0.7
2026-01-20T1000,1671A,113.5916,24.7973,韶关市,园林处,,22,22,40,11,34,12,,18,15,23,23,9,10,/,/
2026-01-20T1000,1673A,113.5971,24.6864,韶关市,曲江监测站,,21,21,51,11,37,11,,18,15,23,25,10,18,0.6,0.8
2026-01-20T1000,2809A,113.6668,24.7756,韶关市,大学路288号,,22,21,41,15,33,9,,19,16,25,21,6,6,/,/
2026-01-20T1000,3622A,113.5556,24.8082,韶关市,碧湖山庄,,22,22,51,11,36,10,,16,13,23,21,6,9,0.7,0.7
2026-01-20T1000,2464A,111.5277,27.2442,邵阳市,市化工厂,,23,,16,16,12,33,,27,27,18,19,4,6,0.5,0.5
2026-01-20T1000,2466A,111.4327,27.2276,邵阳市,市环保局,,15,11,12,10,7,29,,29,29,15,13,1,1,0.8,0.9
2026-01-20T1000,4218A,111.446,27.2472,邵阳市,北塔二期4-26地块,,16,,6,11,13,29,,27,27,12,11,5,5,1.2,1.1
2026-01-20T1000,4219A,111.4739,27.2282,邵阳市,邵水西路287号,,32,,13,22,11,30,,27,27,16,17,7,6,0.8,0.8
2026-01-20T1000,1247A,120.6053,29.9927,绍兴市,城东开发委,,20,20,17,13,12,52,,57,56,15,19,7,7,0.4,0.5
2026-01-20T1000,2921A,120.5482,30.0003,绍兴市,树下王站,,18,18,15,10,9,52,,55,54,14,14,6,6,0.5,0.6
2026-01-20T1000,3408A,120.5685,29.936,绍兴市,绍兴中专,,17,14,13,11,8,53,,57,56,9,15,7,6,0.4,0.4
2026-01-20T1000,3409A,120.4905,30.086,绍兴市,柯桥区政府,,20,20,19,13,12,57,,58,58,14,17,4,4,0.3,0.4
2026-01-20T1000,3410A,120.8751,30.0249,绍兴市,重华小学,,18,18,17,12,9,52,,58,57,20,19,5,5,0.5,0.4
2026-01-20T1000,3411A,120.837,30.0137,绍兴市,上虞中学,,,18,18,10,10,,,61,61,15,14,,5,0.4,0.4
2026-01-20T1000,3560A,120.4715,30.0414,绍兴市,柯桥妇保,,20,20,15,9,8,58,,57,57,11,15,5,5,0.2,0.3
2026-01-20T1000,3658A,120.6156,30.0762,绍兴市,袍江中学,,18,9,7,6,4,57,,62,61,9,12,2,2,1.3,1.3
2026-01-20T1000,1356A,114.0948,22.5506,深圳市,通心岭子站,,31,31,36,14,22,83,,78,78,9,13,8,8,0.4,0.4
2026-01-20T1000,1357A,114.1153,22.5713,深圳市,洪湖,,34,34,40,14,22,84,,69,66,10,18,8,8,0.6,0.6
2026-01-20T1000,1358A,113.9823,22.5398,深圳市,华侨城,,32,32,42,16,24,74,,78,74,18,23,/,/,/,/
2026-01-20T1000,1359A,113.9181,22.517,深圳市,南海子站,,35,35,46,14,27,76,,85,80,15,25,6,7,0.7,0.8
2026-01-20T1000,1360A,114.2345,22.565,深圳市,盐田,,42,42,41,16,23,80,,58,58,18,33,8,9,0.6,0.7
2026-01-20T1000,1363A,114.4911,22.5381,深圳市,南澳,,30,30,33,13,20,91,,88,84,8,11,/,/,/,/
2026-01-20T1000,1364A,114.41,22.6346,深圳市,葵涌,,33,33,36,16,23,78,,50,44,14,18,8,8,0.6,0.7
2026-01-20T1000,1365A,114.2967,22.5978,深圳市,梅沙,,37,37,38,18,19,89,,76,74,9,13,/,/,/,/
2026-01-20T1000,1366A,114.0563,22.7353,深圳市,观澜,颗粒物(PM10),54,58,66,26,33,60,,50,42,38,39,8,9,0.6,0.7
2026-01-20T1000,3305A,114.0614,22.556,深圳市,莲花,,32,32,38,17,23,79,,73,73,14,20,/,/,/,/
2026-01-20T1000,3306A,114.0144,22.6163,深圳市,民治,,32,32,46,16,29,73,,56,56,18,31,/,/,/,/
2026-01-20T1000,3307A,114.1756,22.6421,深圳市,横岗,,36,36,44,19,26,73,,80,73,19,21,/,/,/,/
2026-01-20T1000,3447A,114.344,22.7115,深圳市,坪山,,38,38,45,18,24,76,,57,56,15,21,8,9,0.6,0.7
2026-01-20T1000,3623A,113.8952,22.586,深圳市,西乡,,35,35,50,14,25,68,,68,61,30,41,7,6,0.8,0.9
2026-01-20T1000,4220A,114.214113,22.713717,深圳市,黄阁路,,32,32,41,15,22,76,,69,63,13,15,6,7,0.7,0.7
2026-01-20T1000,1099A,123.5058,41.7084,沈阳市,浑南东路,细颗粒物(PM2.5),103,124,54,77,29,,,2,2,66,47,9,9,1.8,0.9
2026-01-20T1000,1100A,123.4238,41.6992,沈阳市,新秀街,颗粒物(PM10),52,54,57,30,21,16,,8,8,50,38,11,10,1.2,0.8
2026-01-20T1000,1102A,123.5903,41.8412,沈阳市,东陵路,细颗粒物(PM2.5),94,107,56,70,32,22,,9,9,35,32,9,6,1.6,0.9
2026-01-20T1000,1103A,123.4267,41.8466,沈阳市,陵东街,,34,34,45,12,17,48,,38,38,10,24,12,11,0.5,0.5
2026-01-20T1000,1104A,123.4116,41.7654,沈阳市,文化路,,33,33,44,15,17,45,,31,31,17,26,17,17,0.6,0.6
2026-01-20T1000,1105A,123.4673,41.787,沈阳市,小河沿,细颗粒物(PM2.5),97,94,46,72,25,6,,15,6,33,23,18,11,1.6,0.8
2026-01-20T1000,1106A,123.4019,41.7978,沈阳市,太原街,,,48,39,14,11,48,,36,36,,16,11,11,0.5,0.4
2026-01-20T1000,1108A,123.3778,41.9233,沈阳市,京沈街,,46,46,42,31,21,48,,33,33,20,26,7,6,0.5,0.5
2026-01-20T1000,2897A,123.2429,41.7341,沈阳市,沈辽西路,,38,38,53,17,21,50,,41,41,16,30,21,11,0.6,0.7
2026-01-20T1000,2900A,123.5951,41.9085,沈阳市,裕农路,细颗粒物(PM2.5),58,55,37,41,21,38,,19,19,27,27,12,7,1.5,0.6
2026-01-20T1000,2429A,110.78,32.6494,十堰市,滨河新村,细颗粒物(PM2.5),62,64,51,44,37,53,,56,54,9,11,/,/,1.0,0.9
2026-01-20T1000,2430A,110.7305,32.6408,十堰市,刘家沟,细颗粒物(PM2.5),57,42,44,40,35,51,,57,55,14,15,/,/,/,/
2026-01-20T1000,2431A,110.8843,32.5712,十堰市,铁二处,细颗粒物(PM2.5),55,58,45,39,33,46,,52,50,17,17,8,8,1.0,0.9
2026-01-20T1000,3545A,110.8053,32.8401,十堰市,郧阳区金沙路,细颗粒物(PM2.5),62,44,38,44,32,45,,54,51,16,15,6,6,0.9,0.8
2026-01-20T1000,2709A,86.0391,44.298,石河子市,艾青诗歌馆,细颗粒物(PM2.5),127,97,120,96,105,5,,14,14,68,53,12,18,1.3,1.1
2026-01-20T1000,3442A,86.047,44.2331,石河子市,南区管委会,,,29,91,,69,,,60,60,20,29,5,9,,1.1
2026-01-20T1000,4051A,86.0791,44.3018,石河子市,世纪广场,细颗粒物(PM2.5),63,60,92,45,70,11,,11,11,64,50,8,12,1.9,0.9
2026-01-20T1000,4167A,86.0126,44.2349,石河子市,城南景苑小区,,22,21,92,15,59,62,,60,60,8,20,4,7,0.5,0.8
2026-01-20T1000,1030A,114.5919,38.0328,石家庄市,高新区,颗粒物(PM10),53,55,54,29,29,30,,26,24,24,23,6,5,0.5,0.4
2026-01-20T1000,1032A,114.4556,38.0136,石家庄市,西南高教,颗粒物(PM10),60,69,67,41,30,21,,15,15,31,29,7,3,0.7,0.4
2026-01-20T1000,1033A,114.533,38.0177,石家庄市,世纪公园,颗粒物(PM10),57,63,56,33,33,30,,22,21,10,10,13,8,0.6,0.5
2026-01-20T1000,1034A,114.5105,38.0489,石家庄市,人民会堂,颗粒物(PM10),55,60,58,36,29,21,,22,20,30,22,3,2,0.7,0.5
2026-01-20T1000,3456A,114.2887,38.0905,石家庄市,鹿泉一中,细颗粒物(PM2.5),62,69,61,44,40,19,,9,9,24,26,4,2,1.0,0.6
2026-01-20T1000,4024A,114.6491,37.9014,石家庄市,栾城区星河路,,42,42,46,18,21,40,,29,29,19,19,7,5,0.5,0.4
2026-01-20T1000,4059A,114.4563,38.0365,石家庄市,裕华西路63号,细颗粒物(PM2.5),58,41,47,41,29,23,,13,13,25,26,2,2,0.8,0.5
