timepoint,stationcode,longitude,latitude,area,positionname,primarypollutant,aqi,pm10,pm10_24h,pm2_5,pm2_5_24h,o3,o3_24h,o3_8h,o3_8h_24h,no2,no2_24h,so2,so2_24h,co,co_24h
2026-01-20T1400,2568A,102.2503,31.8896,阿坝藏族羌族自治州,马师校,,24,13,23,12,22,75,,41,41,8,20,4,4,0.6,0.6
2026-01-20T1400,3994A,102.2174,31.9016,阿坝藏族羌族自治州,马尔康中学西区,,24,6,17,3,16,75,,46,46,6,18,6,6,0.4,0.5
2026-01-20T1400,2695A,80.2899,41.1684,阿克苏地区,电视台,颗粒物(PM10),500,1012,518,128,63,61,,42,42,10,22,7,7,0.9,1.2
2026-01-20T1400,2696A,80.2592,41.1541,阿克苏地区,艺术中心,颗粒物(PM10),500,881,473,143,75,58,,50,40,12,19,4,4,0.6,0.7
2026-01-20T1400,2205A,105.699,38.8409,阿拉善盟,蒙二幼,,30,30,46,9,18,72,,46,46,6,16,10,11,0.5,0.5
2026-01-20T1400,2206A,105.7198,38.8508,阿拉善盟,环保局新楼,,,,38,,16,64,,44,44,5,12,9,10,0.4,0.7
2026-01-20T1400,2708A,88.1266,47.8515,阿勒泰地区,市站,,25,13,7,9,4,80,,73,64,9,17,2,2,0.4,0.5
2026-01-20T1400,4166A,88.1198,47.7931,阿勒泰地区,阿勒泰路33号,,24,24,10,3,1,63,,81,72,25,14,8,4,0.5,0.4
2026-01-20T1400,2630A,80.1171,32.4999,阿里地区,阿里监测站,,22,6,3,3,3,68,,66,65,2,3,5,4,0.5,0.5
2026-01-20T1400,3192A,80.0906,32.5029,阿里地区,阿里藏医院,,26,8,17,8,9,82,,75,63,1,4,9,11,0.5,0.6
2026-01-20T1400,2644A,109.0088,32.6974,安康市,汉滨区检察院,,38,27,24,26,22,49,,44,44,10,14,4,4,0.7,0.7
2026-01-20T1400,4054A,109.0324,32.6913,安康市,市邮政管理局,细颗粒物(PM2.5),55,,21,39,26,45,,40,40,10,12,4,4,0.5,0.6
2026-01-20T1400,2291A,117.0806,30.5181,安庆市,环科院,,39,39,36,23,16,62,,53,53,3,5,4,4,0.4,0.4
2026-01-20T1400,2292A,117.0331,30.5118,安庆市,马山宾馆,,36,31,20,25,15,65,,56,56,12,11,4,4,0.3,0.3
2026-01-20T1400,2294A,116.9897,30.6146,安庆市,安庆大学,,,,21,29,15,66,,56,56,8,6,5,3,,0.4
2026-01-20T1400,3173A,117.0598,30.5351,安庆市,市人大,,38,30,37,26,18,61,,54,54,8,8,4,4,0.8,0.7
2026-01-20T1400,3123A,105.9408,26.2431,安顺市,凤凰山,,26,23,28,18,22,31,,33,26,16,15,9,11,0.7,0.6
2026-01-20T1400,3124A,105.9443,26.2567,安顺市,金钟山,,36,,29,25,24,27,,29,23,12,11,10,10,0.7,0.5
2026-01-20T1400,3125A,105.8983,26.248,安顺市,娄家坡,,23,20,28,16,22,27,,30,22,14,13,13,14,0.9,0.8
2026-01-20T1400,1819A,114.3552,36.1017,安阳市,红庙街,,,34,39,21,17,54,,43,43,10,11,6,2,,0.7
2026-01-20T1400,1820A,114.361,36.0681,安阳市,银杏小区,,39,39,40,22,20,60,,47,47,11,14,5,3,0.4,0.3
2026-01-20T1400,3141A,114.3921,36.0879,安阳市,信访局,,36,36,37,23,23,63,,48,48,14,17,8,5,0.6,0.5
2026-01-20T1400,3669A,114.4706,36.0634,安阳市,左辅环卫站,,35,31,45,24,22,64,,47,47,12,17,5,3,0.5,0.4
2026-01-20T1400,4117A,114.2918,36.0769,安阳市,钢三路198号,,42,42,40,20,20,53,,36,36,10,13,6,4,0.4,0.3
2026-01-20T1400,1748A,123.0441,41.1201,鞍山市,深沟寺,,39,39,50,14,17,56,,46,46,11,22,8,7,0.6,0.8
2026-01-20T1400,1749A,123.011,41.0931,鞍山市,太阳城,,29,29,44,14,15,62,,57,57,10,17,12,12,0.8,0.8
2026-01-20T1400,1750A,123.0483,41.1445,鞍山市,太平,,37,37,81,14,26,54,,43,43,11,27,10,12,0.6,0.8
2026-01-20T1400,1751A,122.964,41.0968,鞍山市,铁西三道街,颗粒物(PM10),52,54,67,29,24,54,,40,40,15,29,17,25,1.2,1.5
2026-01-20T1400,1753A,123.0219,41.0822,鞍山市,明达新区,,32,32,45,15,13,57,,50,50,13,17,13,14,0.5,0.5
2026-01-20T1400,4201A,122.944647,41.082639,鞍山市,兴盛南路290号,颗粒物(PM10),51,52,84,22,23,57,,50,50,12,23,13,15,1.0,1.2
2026-01-20T1400,2195A,107.4206,40.7609,巴彦淖尔市,附二中,,24,24,27,9,17,52,,48,48,8,10,2,2,0.5,0.5
2026-01-20T1400,2196A,107.37,40.7372,巴彦淖尔市,市环保大楼,,28,28,27,8,15,59,,51,51,5,11,6,4,0.3,0.5
2026-01-20T1400,1956A,86.1476,41.7529,巴音郭楞蒙古自治州,孔雀公园,颗粒物(PM10),112,174,133,33,27,54,,58,43,14,15,8,8,0.5,0.5
2026-01-20T1400,1957A,86.1971,41.7166,巴音郭楞蒙古自治州,棉纺厂,颗粒物(PM10),122,194,159,43,21,47,,32,32,17,32,/,/,/,/
2026-01-20T1400,1958A,86.236,41.7172,巴音郭楞蒙古自治州,经济开发区,颗粒物(PM10),103,155,125,21,14,43,,52,44,22,12,7,5,0.5,0.4
2026-01-20T1400,3181A,106.776805,31.852614,巴中市,市五中,,33,33,22,20,17,36,,27,27,14,14,5,5,0.8,0.8
2026-01-20T1400,3183A,106.7419,31.8654,巴中市,圣泉水务公司,,32,24,18,22,14,36,,36,34,13,13,4,4,0.7,0.7
2026-01-20T1400,3616A,106.7617,31.8343,巴中市,市中心医院,,28,27,15,19,12,38,,32,32,15,16,7,7,0.8,0.8
2026-01-20T1400,2235A,122.7909,45.608,白城市,洮北区环保局,,23,22,37,16,17,57,,44,44,2,17,5,6,0.1,0.3
2026-01-20T1400,2236A,122.8741,45.5725,白城市,市环保局,,21,19,43,11,18,66,,47,47,5,12,5,6,0.4,0.4
2026-01-20T1400,2231A,126.4219,41.9172,白山市,喜丰,,44,44,49,20,24,57,,42,42,11,23,33,18,0.5,0.6
2026-01-20T1400,2232A,126.4082,41.9416,白山市,环保局,,32,32,35,16,26,57,,39,39,8,16,14,13,0.3,0.4
2026-01-20T1400,2647A,104.1727,36.5448,白银市,第三小学,细颗粒物(PM2.5),119,116,75,90,41,45,,33,21,44,38,31,25,0.8,0.7
2026-01-20T1400,2648A,104.1467,36.5482,白银市,动力公司,细颗粒物(PM2.5),132,163,69,100,38,66,,41,41,36,24,26,15,1.1,1
2026-01-20T1400,2512A,106.6102,23.901,百色市,市监测站,,50,48,58,35,40,93,,47,47,12,19,13,18,0.6,0.8
2026-01-20T1400,2513A,106.6524,23.8842,百色市,市中心血站,细颗粒物(PM2.5),59,58,63,42,47,96,,56,56,8,16,11,19,0.7,0.8
2026-01-20T1400,4133A,106.6273,23.8798,百色市,龙景西路,颗粒物(PM10),57,64,79,36,49,98,,49,49,11,20,13,18,0.5,0.6
2026-01-20T1400,2270A,117.396,32.9389,蚌埠市,工人疗养院,,50,45,38,35,27,82,,67,67,8,8,7,5,0.3,0.2
2026-01-20T1400,2271A,117.3606,32.9428,蚌埠市,百货大楼,,44,44,32,25,24,84,,69,69,10,9,6,4,0.4,0.4
2026-01-20T1400,2273A,117.4183,32.8909,蚌埠市,蚌埠学院,,39,39,25,25,24,78,,69,69,13,12,5,3,0.4,0.4
2026-01-20T1400,2274A,117.3534,32.9672,蚌埠市,淮上区政府,颗粒物(PM10),51,51,31,33,28,87,,70,70,6,7,3,2,0.4,0.3
2026-01-20T1400,2275A,117.3143,32.8977,蚌埠市,高新区,,39,39,28,27,26,74,,64,64,11,9,7,5,0.1,0.1
2026-01-20T1400,3715A,117.3091,32.9314,蚌埠市,蚌埠田家炳中学,,48,48,33,33,27,78,,67,67,14,11,6,3,0.5,0.4
2026-01-20T1400,1585A,109.8761,40.6533,包头市,市环境监测站,,37,37,22,18,8,54,,52,50,31,13,9,5,1.2,0.5
2026-01-20T1400,1587A,109.9992,40.5843,包头市,包头八中,,35,27,24,24,12,59,,39,38,16,18,7,4,1.2,0.7
2026-01-20T1400,1589A,109.8641,40.6288,包头市,惠龙物流,,,46,16,39,9,45,,57,51,36,12,27,9,,0.6
2026-01-20T1400,1590A,110.0376,40.5546,包头市,东河鸿龙湾,,35,35,24,21,10,57,,32,32,21,26,16,7,1.8,0.9
2026-01-20T1400,3283A,109.9154,40.5684,包头市,滨河大厦,细颗粒物(PM2.5),87,,26,64,16,46,,34,29,32,18,25,9,3.7,1
2026-01-20T1400,3419A,109.9449,40.6259,包头市,包头市委党校,,45,,25,31,11,60,,41,40,15,18,8,7,0.8,0.6
2026-01-20T1400,3683A,109.8332,40.6577,包头市,昆区政府,细颗粒物(PM2.5),65,68,21,47,10,39,,54,48,46,16,33,9,3.8,0.8
2026-01-20T1400,1931A,107.0802,34.3129,宝鸡市,竹园沟,,49,38,36,34,27,44,,35,35,13,15,5,5,0.5,0.4
2026-01-20T1400,1933A,107.1429,34.3549,宝鸡市,监测站,,46,37,39,32,33,45,,35,35,18,20,4,4,0.4,0.4
2026-01-20T1400,1934A,107.1172,34.3759,宝鸡市,技工学校,,,38,37,33,32,44,,36,34,15,18,2,2,,1
2026-01-20T1400,1936A,107.2025,34.3518,宝鸡市,文理学院,,42,37,38,29,28,49,,40,39,17,19,3,3,0.5,0.5
2026-01-20T1400,1937A,107.2396,34.3626,宝鸡市,三迪小学,,48,37,39,33,33,49,,41,39,17,19,2,2,0.6,0.5
2026-01-20T1400,4155A,107.1721,34.3558,宝鸡市,滨河北路,,38,37,47,26,26,46,,36,36,13,16,4,3,0.5,0.5
2026-01-20T1400,4308A,107.3898,34.3601,宝鸡市,陈仓区北开路21号,,40,39,42,28,29,55,,48,48,15,17,5,5,0.8,0.7
2026-01-20T1400,1051A,115.4803,38.8568,保定市,游泳馆,,32,32,42,20,18,52,,34,34,18,32,3,3,0.5,0.5
2026-01-20T1400,1052A,115.509,38.8895,保定市,华电二区,,33,33,41,12,30,49,,25,25,23,37,4,3,0.5,0.5
2026-01-20T1400,1053A,115.4588,38.9037,保定市,接待中心,,48,48,45,25,22,40,,20,20,26,36,2,2,0.3,0.3
2026-01-20T1400,1054A,115.4484,38.8344,保定市,地表水厂,颗粒物(PM10),92,133,64,20,24,52,,30,30,17,40,6,5,0.3,0.3
2026-01-20T1400,3581A,115.3136,38.9511,保定市,满城区生态环境分局,颗粒物(PM10),54,58,59,24,25,44,,25,25,33,47,3,2,0.4,0.6
2026-01-20T1400,3582A,115.4709,38.7628,保定市,清苑区第二中学,,50,50,54,22,21,54,,33,33,15,34,1,2,0.4,0.4
2026-01-20T1400,3583A,115.6231,39.0223,保定市,徐水物探局,颗粒物(PM10),55,59,55,30,27,41,,22,22,26,40,3,3,0.6,0.6
2026-01-20T1400,4004A,115.4199,38.8665,保定市,双鹰农机,,45,45,45,3,24,58,,33,33,26,44,8,5,0.4,0.4
2026-01-20T1400,4034A,115.515,38.8589,保定市,植保所站,,40,40,45,20,29,44,,27,27,27,35,4,3,0.6,0.6
2026-01-20T1400,2594A,99.1589,25.1137,保山市,市环境监测站,,32,32,27,16,19,93,,55,55,13,10,10,6,0.3,0.4
2026-01-20T1400,2595A,99.1616,25.1381,保山市,市环保局,,,,33,,25,100,,62,59,11,7,4,4,,0.5
2026-01-20T1400,1867A,109.1435,21.4085,北海市,海滩公园,颗粒物(PM10),55,60,44,24,24,124,,111,105,9,9,10,8,0.8,0.8
2026-01-20T1400,1868A,109.0983,21.466,北海市,新市环保局,颗粒物(PM10),54,58,43,27,28,124,,111,106,11,12,8,7,0.6,0.6
2026-01-20T1400,1869A,109.1775,21.5232,北海市,北海工业园,颗粒物(PM10),55,59,51,24,29,117,,95,89,8,13,7,7,0.7,0.8
2026-01-20T1400,3400A,109.1844,21.4396,北海市,龙潭自来水厂,颗粒物(PM10),55,59,44,30,29,118,,103,99,6,7,8,6,1.1,1.1
2026-01-20T1400,1001A,116.3611,39.8786,北京市,万寿西宫,,20,14,18,7,8,64,,54,54,7,13,2,2,0.4,0.5
2026-01-20T1400,1003A,116.4174,39.9289,北京市,东四,,18,18,19,7,8,52,,47,47,9,15,4,4,0.3,0.3
2026-01-20T1400,1004A,116.4073,39.8858,北京市,天坛,,,16,17,,6,59,,52,52,6,11,2,3,0.3,0.5
2026-01-20T1400,1005A,116.4622,39.9364,北京市,农展馆,,,17,16,,1,65,,55,55,2,10,4,4,0.4,0.5
2026-01-20T1400,1006A,116.3399,39.9293,北京市,官园,,19,19,20,10,8,58,,50,50,5,11,5,4,0.1,0.1
2026-01-20T1400,1007A,116.2879,39.9613,北京市,海淀万柳,,17,17,18,3,7,54,,48,48,11,19,3,3,0.8,0.5
2026-01-20T1400,1008A,116.6635,40.1349,北京市,顺义新城,,20,13,18,3,5,62,,60,60,2,6,3,4,0.2,0.4
2026-01-20T1400,1009A,116.6275,40.327,北京市,怀柔镇,,18,10,11,3,5,57,,53,53,2,8,4,4,0.3,0.4
2026-01-20T1400,1010A,116.2295,40.217,北京市,昌平镇,,20,20,21,7,8,64,,55,55,4,9,2,2,0.4,0.5
2026-01-20T1400,1011A,116.3968,39.982,北京市,奥体中心,,21,16,17,7,8,67,,56,56,7,17,4,4,0.2,0.3
2026-01-20T1400,3418A,116.8336,40.4095,北京市,密云新城,,20,9,11,3,5,62,,60,60,2,3,1,2,0.4,0.4
2026-01-20T1400,3671A,116.0879,39.9725,北京市,门头沟三家店,,20,17,20,6,8,64,,57,57,1,20,3,3,0.2,0.3
2026-01-20T1400,3672A,116.1507,39.8246,北京市,丰台云岗,,24,24,24,12,9,60,,35,35,16,27,1,1,0.4,0.4
2026-01-20T1400,3674A,115.9578,39.7602,北京市,房山燕山,,28,28,18,16,10,54,,39,39,16,14,4,4,0.5,0.5
2026-01-20T1400,3675A,116.4669,39.7734,北京市,大兴旧宫,,20,9,17,3,6,64,,53,53,5,15,3,3,0.4,0.5
2026-01-20T1400,3694A,115.9859,40.4562,北京市,延庆石河营,,20,16,23,7,8,61,,53,53,4,8,4,3,0.3,0.4
2026-01-20T1400,3695A,116.6151,40.3052,北京市,怀柔新城,,20,12,14,6,8,63,,59,59,1,4,4,4,0.5,0.4
2026-01-20T1400,3696A,116.2542,39.8764,北京市,丰台小屯,,17,16,17,6,6,53,,45,45,8,15,3,3,0.4,0.5
2026-01-20T1400,3697A,116.8399,40.3843,北京市,密云镇,,20,,12,8,4,61,,62,61,3,4,1,2,0.2,0.5
2026-01-20T1400,4057A,115.9423,40.4431,北京市,延庆百泉,,18,15,19,7,9,57,,43,43,3,10,2,2,0.3,0.3
2026-01-20T1400,4058A,116.6598,39.9164,北京市,通州新华,,20,20,20,8,7,54,,51,51,8,10,2,1,0.5,0.5
2026-01-20T1400,4182A,116.1942,39.9158,北京市,石景山八角,,19,17,22,7,8,59,,48,48,3,18,1,2,0.2,0.3
2026-01-20T1400,4194A,117.078628,40.151726,北京市,平谷新城,,19,8,10,7,7,59,,57,57,1,2,1,1,0.2,0.2
2026-01-20T1400,1761A,123.8274146,41.31234549,本溪市,大峪,,22,22,67,8,29,56,,31,31,11,28,12,8,0.7,1.1
2026-01-20T1400,1763A,123.7169,41.3094,本溪市,彩屯,,35,35,64,11,31,57,,32,32,14,32,11,8,0.5,0.8
2026-01-20T1400,1764A,123.7672166,41.28649327,本溪市,东明,,41,41,62,8,29,52,,27,27,13,32,9,6,0.7,1.1
2026-01-20T1400,1765A,123.799345,41.266614,本溪市,新立屯,,45,45,49,19,22,52,,33,33,15,25,15,10,0.5,0.6
2026-01-20T1400,1766A,123.829144,41.336777,本溪市,威宁,,30,30,70,10,29,53,,29,29,12,30,11,6,0.5,1
2026-01-20T1400,2587A,105.287,27.3133,毕节市,八中,,21,21,30,9,26,34,,30,30,11,12,9,9,0.8,0.8
2026-01-20T1400,2588A,105.3079,27.2987,毕节市,师专,,13,12,32,7,24,40,,34,34,12,12,8,9,0.8,0.9
2026-01-20T1400,4263A,105.3688,27.3598,毕节市,工业大道,,18,17,31,12,23,33,,33,33,12,11,10,9,/,/
2026-01-20T1400,1629A,117.9961,37.3604,滨州市,第二水厂,,19,19,30,11,10,56,,42,42,9,18,9,10,0.6,0.6
2026-01-20T1400,1630A,117.9789,37.3931,滨州市,北中新校,,27,27,30,3,8,56,,42,42,9,16,5,5,0.5,0.5
2026-01-20T1400,3514A,117.9379,37.3959,滨州市,中海酒店,,25,,29,17,12,55,,40,40,10,19,6,7,0.5,0.6
2026-01-20T1400,3515A,117.9381509,37.35547456,滨州市,开发区一中,,,,38,,10,61,,40,40,,18,,11,0.4,0.5
2026-01-20T1400,3516A,118.0914,37.6938,滨州市,金海六路,,29,29,29,3,5,70,,50,50,9,19,4,3,0.4,0.3
2026-01-20T1400,4028A,117.9955,37.3752,滨州市,滨州市西街道办事处,,20,17,27,3,12,61,,46,46,7,15,8,8,0.6,0.5
2026-01-20T1400,2311A,115.8071,33.8399,亳州市,污水处理厂,,32,32,33,14,22,62,,56,56,12,12,4,3,0.2,0.3
2026-01-20T1400,2312A,115.7789,33.8519,亳州市,三国揽胜宫,,34,34,51,18,26,59,,54,54,5,6,4,3,0.2,0.3
2026-01-20T1400,3332A,115.7631,33.803,亳州市,亳州学院,,36,36,36,16,26,61,,55,55,14,14,5,4,0.3,0.4
2026-01-20T1400,2693A,82.0482,44.8553,博尔塔拉蒙古自治州,市党校,颗粒物(PM10),61,72,71,37,30,49,,48,45,19,23,11,4,1.3,1.1
2026-01-20T1400,2694A,82.0805,44.8966,博尔塔拉蒙古自治州,市环保局,,,,78,106,46,47,,25,25,22,30,11,8,0.9,1
2026-01-20T1400,1071A,116.8733,38.2922,沧州市,沧县城建局,,41,41,39,16,19,54,,48,48,12,25,8,6,0.3,0.4
2026-01-20T1400,1072A,116.8462,38.3189,沧州市,电视转播站,,23,23,36,9,12,56,,45,45,21,29,4,3,0.6,0.6
2026-01-20T1400,1073A,116.8588,38.3161,沧州市,市环保局,,24,24,36,15,22,50,,40,40,14,26,5,5,0.4,0.4
2026-01-20T1400,3324A,116.8011,38.294,沧州市,河北水利电力学院,,24,24,29,3,13,54,,40,40,14,27,3,3,0.2,0.3
2026-01-20T1400,2622A,97.1813,31.1289,昌都市,昌都监测站,颗粒物(PM10),51,51,39,3,15,72,,45,44,10,19,4,4,0.4,0.6
2026-01-20T1400,3719A,97.1707,31.1428,昌都市,昌都会议中心,,19,9,14,6,10,60,,46,45,9,3,1,1,0.4,0.3
2026-01-20T1400,2692A,87.2722,44.0298,昌吉回族自治州,新区政务中心,细颗粒物(PM2.5),75,81,62,55,45,42,,23,23,31,34,6,5,0.8,0.7
2026-01-20T1400,3613A,87.3069,44.0093,昌吉回族自治州,亚心广场,细颗粒物(PM2.5),85,80,68,63,49,39,,31,31,34,24,10,8,1.1,0.7
2026-01-20T1400,4164A,87.2057,43.9289,昌吉回族自治州,财政所,,43,42,46,30,35,73,,60,60,7,14,6,4,0.5,0.5
2026-01-20T1400,1120A,125.2874,43.9024,长春市,客车厂,细颗粒物(PM2.5),64,59,51,46,29,54,,38,38,14,24,12,16,0.5,0.5
2026-01-20T1400,1121A,125.2943,43.8508,长春市,邮电学院,,50,50,47,25,25,50,,34,34,14,29,12,12,0.3,0.6
2026-01-20T1400,1122A,125.3648,43.8745,长春市,劳动公园,颗粒物(PM10),51,52,49,20,21,49,,41,41,16,26,11,12,0.5,0.7
2026-01-20T1400,1123A,125.3233,43.8781,长春市,园林处,颗粒物(PM10),51,52,45,22,21,53,,38,38,10,22,10,11,0.5,0.5
2026-01-20T1400,1124A,125.4604,43.7904,长春市,净月潭,,45,45,44,13,20,53,,38,38,9,19,9,8,0.3,0.5
2026-01-20T1400,1126A,125.38,43.8422,长春市,经开区环卫处,颗粒物(PM10),53,56,47,20,19,51,,34,34,14,27,8,7,0.5,0.5
2026-01-20T1400,1127A,125.234,43.7761,长春市,高新区管委会,颗粒物(PM10),52,53,51,27,29,65,,48,48,8,30,8,9,0.3,0.5
2026-01-20T1400,1128A,125.1695,43.83,长春市,岱山公园,颗粒物(PM10),52,54,49,29,28,63,,49,49,7,19,6,7,0.5,0.5
2026-01-20T1400,4281A,125.334645,43.916281,长春市,北亚泰大街1068号,颗粒物(PM10),56,62,49,30,23,53,,36,36,16,26,11,14,0.4,0.4
2026-01-20T1400,1335A,113.082,28.2421,长沙市,经开区环保局,,46,36,17,32,10,30,,35,34,18,15,2,2,0.4,0.4
2026-01-20T1400,1336A,112.8873,28.2202,长沙市,高开区环保局,细颗粒物(PM2.5),59,,19,42,12,36,,40,39,11,12,4,4,0.5,0.4
2026-01-20T1400,1337A,113.0785,28.2012,长沙市,马坡岭,,46,38,16,32,10,33,,36,35,18,17,4,3,0.8,0.7
2026-01-20T1400,1338A,112.9448,28.1894,长沙市,湖南师范大学,,46,34,19,32,12,41,,43,42,12,14,4,3,0.5,0.5
2026-01-20T1400,1339A,113.0177,28.1322,长沙市,雨花区环保局,,,,14,28,16,34,,38,38,16,16,6,6,0.7,0.7
2026-01-20T1400,1340A,112.9795,28.2593,长沙市,伍家岭,,39,37,18,27,11,37,,41,39,16,17,4,4,0.6,0.5
2026-01-20T1400,1341A,113.002,28.1944,长沙市,火车新站,,49,34,15,34,15,38,,41,40,15,14,1,2,0.6,0.6
2026-01-20T1400,1342A,112.9846,28.1177,长沙市,天心区环保局,,43,32,16,30,11,39,,41,40,16,18,4,4,0.4,0.4
2026-01-20T1400,1343A,112.8906,28.1307,长沙市,湖南中医药大学,,,33,16,32,11,39,,43,42,16,17,,4,,0.6
2026-01-20T1400,1727A,113.1146,36.1547,长治市,清华站,细颗粒物(PM2.5),79,80,58,58,56,52,,29,29,16,21,9,9,0.7,1.1
2026-01-20T1400,1730A,113.0887,36.2126,长治市,审计局,细颗粒物(PM2.5),100,,60,75,61,47,,26,26,18,23,8,7,1.0,1.1
2026-01-20T1400,1731A,113.0845,36.1856,长治市,长治八中,细颗粒物(PM2.5),98,76,66,73,60,52,,28,28,12,18,10,8,1.0,1.2
2026-01-20T1400,2845A,113.1561,36.1912,长治市,德盛苑,细颗粒物(PM2.5),89,70,55,66,56,49,,30,30,18,20,8,7,1.0,1.1
2026-01-20T1400,3568A,113.0603,36.0464,长治市,向阳小学,细颗粒物(PM2.5),93,87,83,69,64,46,,31,31,20,26,7,7,0.9,1.1
2026-01-20T1400,3569A,112.8788,36.315,长治市,屯留一中,细颗粒物(PM2.5),75,66,72,55,59,55,,29,29,18,38,5,9,0.8,1.3
2026-01-20T1400,4189A,113.113092,36.199482,长治市,英华南巷50号,细颗粒物(PM2.5),83,83,63,61,53,50,,28,28,15,20,7,6,0.9,1.1
2026-01-20T1400,4190A,113.23666,36.33435,长治市,学府街1号,细颗粒物(PM2.5),108,,51,81,45,45,,30,30,18,29,8,11,1.1,1.1
2026-01-20T1400,1854A,111.696,28.9725,常德市,市二中,细颗粒物(PM2.5),67,56,39,48,34,49,,44,44,12,12,4,4,0.7,0.7
2026-01-20T1400,3138A,111.7152,29.0288,常德市,武陵区永安,细颗粒物(PM2.5),74,65,39,54,32,48,,44,44,12,18,4,4,0.7,0.6
2026-01-20T1400,3139A,111.6891,28.9881,常德市,鼎城区玉霞,细颗粒物(PM2.5),67,,34,48,31,53,,46,46,11,12,6,6,0.7,0.6
2026-01-20T1400,3140A,111.6651,29.0526,常德市,武陵区长庚,细颗粒物(PM2.5),68,,35,49,32,47,,42,42,14,15,3,3,0.7,0.7
2026-01-20T1400,1196A,119.9524,31.7586,常州市,市监测站,,42,40,24,29,18,43,,57,47,24,13,5,4,0.9,0.9
2026-01-20T1400,1200A,119.9351,31.703,常州市,武进监测站,,46,35,24,32,19,40,,55,44,26,14,10,9,0.9,0.9
2026-01-20T1400,3002A,119.9701,31.813,常州市,行政中心,,40,32,26,28,17,42,,56,45,27,16,4,4,0.5,0.5
2026-01-20T1400,3003A,120.0434,31.7726,常州市,经开区,,36,36,28,22,14,52,,55,51,17,12,2,2,0.5,0.4
2026-01-20T1400,3010A,119.8919,31.7892,常州市,钟楼,,,42,20,28,15,43,,52,44,24,10,6,6,,0.4
2026-01-20T1400,3429A,119.8595,31.706,常州市,武进经发区,,48,42,27,33,19,51,,57,52,20,14,4,4,0.7,0.6
2026-01-20T1400,3430A,119.5812,31.7256,常州市,金坛城区,,39,39,30,26,19,54,,54,51,14,10,6,6,0.9,0.7
2026-01-20T1400,4089A,119.9551,31.863,常州市,崇义南街5-H号,,36,36,22,25,14,47,,55,47,21,12,4,4,0.7,0.6
2026-01-20T1400,2220A,120.4318,41.588,朝阳市,西梁,,33,33,55,7,29,64,,30,30,11,21,6,9,0.5,0.9
2026-01-20T1400,2221A,120.452,41.565,朝阳市,河畔小区,,26,26,39,6,18,63,,37,37,11,22,7,10,1.8,1.8
2026-01-20T1400,2222A,120.4176,41.5648,朝阳市,八里堡,,26,26,41,9,20,62,,31,31,10,23,7,9,0.4,0.6
2026-01-20T1400,3026A,116.6179,23.6608,潮州市,市政府,,49,49,49,31,28,88,,65,65,7,15,10,4,0.4,0.4
2026-01-20T1400,4036A,116.646,23.676,潮州市,金山,,44,44,48,23,26,93,,57,57,8,17,7,4,0.4,0.4
2026-01-20T1400,2473A,113.0116,25.8228,郴州市,市职中,,16,,18,11,11,21,,14,14,11,18,3,3,0.5,0.6
2026-01-20T1400,2475A,113.0381,25.8074,郴州市,市审计局,,10,10,17,6,11,22,,14,14,14,18,1,3,/,/
2026-01-20T1400,2476A,113.0348,25.7757,郴州市,市环保局,,17,17,23,6,8,22,,15,15,12,17,2,2,0.4,0.5
2026-01-20T1400,4252A,113.0138,25.8011,郴州市,好美居路49号,,22,,10,15,12,30,,23,23,10,17,1,2,/,/
2026-01-20T1400,1431A,103.9727,30.7242,成都市,金泉两河,,44,44,39,19,14,46,,39,36,25,28,2,2,0.8,0.8
2026-01-20T1400,1432A,104.1423,30.6765,成都市,十里店,,46,46,34,27,16,49,,43,43,22,20,4,3,0.6,0.6
2026-01-20T1400,1433A,104.0594,30.5765,成都市,三瓦窑,,38,33,31,26,17,49,,47,44,22,20,2,2,0.8,0.7
2026-01-20T1400,1434A,104.1122,30.6306,成都市,沙河铺,,33,33,37,20,18,47,,42,39,23,23,3,3,0.7,0.6
2026-01-20T1400,2880A,104.0219,30.6561,成都市,大石西路,,50,50,40,32,23,41,,39,39,16,13,4,5,0.6,0.6
2026-01-20T1400,3136A,104.2724,30.559,成都市,龙泉驿区区政府,,25,24,20,17,11,52,,45,45,12,15,5,6,0.7,0.6
2026-01-20T1400,3357A,104.0028,30.6891,成都市,金博路,,28,27,26,19,15,41,,42,39,23,23,4,5,0.5,0.8
2026-01-20T1400,3359A,104.056,30.5228,成都市,华阳,,36,36,27,22,16,47,,44,40,25,25,2,2,0.6,0.5
2026-01-20T1400,3488A,104.387954,30.746684,成都市,青石路225号,,42,42,32,22,18,50,,45,45,14,16,5,4,0.6,0.5
2026-01-20T1400,3489A,104.0788,30.4054,成都市,科学城,,38,36,18,26,10,48,,40,40,14,15,6,6,1.0,0.9
2026-01-20T1400,4011A,103.8505,30.6946,成都市,光华大道三段,,49,49,43,24,19,49,,44,42,26,25,2,3,0.3,0.3
2026-01-20T1400,4144A,104.3257,30.6406,成都市,八角井街185号,,45,33,34,31,15,46,,38,38,12,14,2,2,1.0,0.9
2026-01-20T1400,4224A,104.2433276,30.53529463,成都市,鲸龙路1057号,,38,34,22,26,14,51,,42,42,13,17,5,4,0.7,0.6
2026-01-20T1400,1062A,117.9531,40.908,承德市,铁路,,20,18,29,3,8,64,,56,56,3,5,4,4,0.2,0.2
2026-01-20T1400,1063A,117.9397,40.9763,承德市,中国银行,,21,12,31,8,11,66,,55,55,5,4,2,2,0.3,0.3
2026-01-20T1400,4073A,117.9462,40.95,承德市,杏林街1号,,21,14,23,3,10,66,,54,54,1,4,4,3,0.3,0.3
2026-01-20T1400,4274A,117.7994,40.9605,承德市,滨河大街98号,,21,,19,3,8,65,,58,58,2,6,2,2,0.2,0.2
2026-01-20T1400,2314A,117.4698,30.6617,池州市,池州学院,,48,38,21,33,18,53,,50,50,16,17,3,2,0.4,0.4
2026-01-20T1400,3237A,117.4918,30.6617,池州市,展览馆,颗粒物(PM10),56,61,28,28,16,53,,50,50,23,22,3,2,0.8,0.7
2026-01-20T1400,3333A,117.5626,30.695,池州市,第八中学,,,49,28,32,19,52,,47,47,19,18,3,2,,0.8
2026-01-20T1400,3334A,117.5037,30.6242,池州市,第十二中学,,45,44,22,31,15,50,,47,47,22,19,2,2,0.8,0.7
2026-01-20T1400,1744A,118.9229,42.2816,赤峰市,松山一中,,19,19,22,3,9,59,,40,40,7,16,4,4,0.5,0.6
2026-01-20T1400,1745A,118.9588,42.2733,赤峰市,哈达街,,26,26,25,3,7,64,,51,51,8,12,1,3,0.5,0.6
2026-01-20T1400,1746A,118.8792,42.2551,赤峰市,天义路,,21,12,13,3,9,66,,58,58,4,8,5,5,0.4,0.7
2026-01-20T1400,3058A,119.2656,42.0356,赤峰市,银河街,,23,20,32,14,18,73,,46,46,1,9,8,11,0.6,0.8
2026-01-20T1400,3286A,118.9359,42.3146,赤峰市,桥北物流园区,,23,,12,11,11,71,,57,57,4,11,4,5,0.3,0.4
2026-01-20T1400,2521A,107.3473,22.4137,崇左市,市环保局江州分局,颗粒物(PM10),51,52,52,29,32,102,,76,76,11,18,8,11,1.0,0.9
2026-01-20T1400,4256A,107.375,22.3736,崇左市,石景林东路7号,,47,47,40,29,31,105,,77,77,10,16,7,7,0.6,0.6
2026-01-20T1400,3207A,118.31131,32.3033,滁州市,市政府原办公楼,,43,42,34,30,27,70,,62,62,10,12,4,4,0.4,0.4
2026-01-20T1400,3331A,118.3268,32.2633,滁州市,图书馆,,39,37,30,27,30,64,,56,56,4,6,9,8,0.4,0.4
2026-01-20T1400,4101A,118.3196,32.3335,滁州市,银山路666号,,50,,29,35,33,67,,58,58,7,8,3,3,0.4,0.3
2026-01-20T1400,4102A,118.3426,32.2979,滁州市,黄山路555号,细颗粒物(PM2.5),52,50,37,36,32,69,,61,61,4,4,15,14,0.6,0.6
2026-01-20T1400,2606A,101.5379,25.0492,楚雄彝族自治州,市经济开发区,,25,9,29,6,19,80,,38,38,3,19,2,4,0.5,0.6
2026-01-20T1400,4153A,101.5536,25.0343,楚雄彝族自治州,团结路562号,,25,15,25,3,17,80,,43,43,7,18,6,4,0.2,0.4
2026-01-20T1400,2549A,107.5087,31.2186,达州市,市环境监测站,,37,37,23,24,10,24,,26,25,18,14,6,7,0.6,0.6
2026-01-20T1400,2550A,107.4988,31.2132,达州市,凤凰小区,,39,34,19,27,11,25,,26,24,18,15,5,5,0.6,0.6
2026-01-20T1400,2551A,107.5081,31.1987,达州市,达县机关宾馆,,38,34,19,26,14,22,,20,18,23,21,3,3,0.8,0.8
2026-01-20T1400,2552A,107.4644,31.2124,达州市,市政中心,,47,47,27,22,10,24,,27,24,23,21,6,7,0.6,0.5
2026-01-20T1400,2614A,100.2168,25.5818,大理白族自治州,大理市环境监测站,,25,18,24,8,15,78,,70,70,6,9,6,6,0.6,0.6
2026-01-20T1400,2615A,100.1542,25.7055,大理白族自治州,大理古城,,27,16,23,3,12,86,,68,68,5,7,8,8,0.7,0.7
2026-01-20T1400,1109A,121.6119,38.974,大连市,甘井子,,30,30,38,10,15,65,,52,52,6,11,7,9,0.4,0.5
2026-01-20T1400,1110A,121.565,38.9509,大连市,周水子,,35,35,38,11,14,60,,49,49,9,10,10,10,0.4,0.4
2026-01-20T1400,1111A,121.5637,38.8849,大连市,星海三站,,33,33,56,10,19,61,,49,49,12,14,8,8,0.6,0.6
2026-01-20T1400,1112A,121.6301,38.9117,大连市,青泥洼桥,,26,26,42,10,13,59,,50,50,7,8,8,10,0.6,0.5
2026-01-20T1400,1113A,121.6248,38.8643,大连市,傅家庄,,29,29,30,11,13,52,,46,46,13,12,6,7,0.4,0.3
2026-01-20T1400,1114A,121.5117,38.8636,大连市,七贤岭,,35,35,36,9,13,59,,48,48,4,7,6,7,0.5,0.6
2026-01-20T1400,1116A,121.7507,39.1339,大连市,金州,,27,27,42,10,17,69,,56,56,9,15,6,9,0.3,0.4
2026-01-20T1400,1117A,121.7811,39.0495,大连市,开发区,,28,28,31,9,15,65,,56,56,7,10,4,5,0.4,0.4
2026-01-20T1400,1118A,121.9762,39.0631,大连市,双D港,,22,22,47,10,13,68,,62,62,9,10,6,8,0.3,0.3
2026-01-20T1400,4082A,121.2548,38.8188,大连市,旅顺,,,,30,,6,59,,50,50,5,6,,6,,0.6
2026-01-20T1400,1789A,124.8085,46.0381,大庆市,大同区,,,24,37,9,17,66,,54,54,2,14,,5,0.5,0.6
2026-01-20T1400,1790A,125.1166,46.5255,大庆市,龙凤区,,32,32,34,15,21,55,,48,48,14,21,13,9,0.3,0.3
2026-01-20T1400,1791A,124.8894,46.4007,大庆市,红岗区,,28,21,29,19,19,55,,46,46,7,13,6,5,0.2,0.3
2026-01-20T1400,1792A,125.1391,46.578,大庆市,萨尔图区,,18,18,30,9,15,57,,49,48,9,15,8,8,0.4,0.5
2026-01-20T1400,1793A,124.9026,46.6217,大庆市,让胡路区,,26,,27,18,23,66,,59,59,4,9,8,8,0.6,0.6
2026-01-20T1400,3481A,125.127,46.6277,大庆市,萨区政府监测点,,20,12,24,12,11,61,,53,53,3,12,9,8,0.3,0.5
2026-01-20T1400,1723A,113.2926,40.0759,大同市,云冈宾馆,,31,31,41,20,23,48,,28,28,15,27,12,11,0.8,1
2026-01-20T1400,1724A,113.3437,40.0921,大同市,大同大学,,,33,35,14,22,55,,38,38,14,23,,8,0.8,1.3
2026-01-20T1400,1725A,113.2637,40.129,大同市,安家小村,,37,37,45,14,20,55,,26,26,10,29,10,11,0.6,1
2026-01-20T1400,3282A,113.3399,40.0586,大同市,大同市卫生学校,,28,28,34,18,18,50,,31,31,18,27,9,8,0.9,1.2
2026-01-20T1400,3565A,113.1371,40.1122,大同市,云冈站,,38,37,42,26,20,48,,25,25,15,31,12,12,0.9,0.7
2026-01-20T1400,3566A,113.1186,40.2556,大同市,图书馆,,47,47,40,26,24,52,,30,30,14,18,8,8,0.9,0.9
2026-01-20T1400,3567A,113.5931,40.0459,大同市,区一中,,29,29,44,8,25,63,,48,48,13,16,16,12,0.7,0.8
2026-01-20T1400,4199A,113.2798248,40.09972476,大同市,魏都大道141号,,,38,51,14,24,16,,14,13,14,32,,9,1.0,1.3
2026-01-20T1400,2269A,124.1068,50.4091,大兴安岭地区,科技局,,19,13,14,7,11,60,,56,56,1,2,4,4,0.3,0.4
2026-01-20T1400,3663A,124.117,50.4279,大兴安岭地区,红旗社区,,20,,6,10,4,64,,59,59,2,3,5,4,1.8,0.3
2026-01-20T1400,1600A,124.33,40.0625,丹东市,江湾东路,,40,40,39,16,13,52,,47,46,11,12,8,9,0.5,0.5
2026-01-20T1400,1601A,124.4242,40.1513,丹东市,临江后街,,28,28,31,9,10,55,,49,49,6,8,4,4,0.4,0.4
2026-01-20T1400,1602A,124.3935,40.1461,丹东市,元宝山,,26,26,27,9,10,53,,56,53,8,7,7,8,0.2,0.5
2026-01-20T1400,1603A,124.3634,40.1093,丹东市,民主桥,,38,38,35,18,12,51,,50,49,11,9,10,8,0.4,0.4
2026-01-20T1400,3541A,109.5726195,19.51688767,儋州市,第一中学子站,,26,26,34,18,21,78,,71,71,1,2,4,4,0.5,0.5
2026-01-20T1400,3542A,109.5567,19.5187,儋州市,东坡学校子站,,29,29,31,16,18,85,,79,79,2,2,5,5,0.4,0.5
2026-01-20T1400,2616A,98.5611,24.4273,德宏傣族景颇族自治州,德宏州监测站,,46,41,54,32,39,82,,34,34,12,25,8,6,0.5,0.6
2026-01-20T1400,3677A,98.5887,24.4366,德宏傣族景颇族自治州,芒市人民政府综合楼,,,58,47,38,29,77,,32,32,,15,5,4,,0.8
2026-01-20T1400,1901A,104.424,31.1209,德阳市,东山公园,,36,33,28,25,16,47,,46,43,10,9,5,5,0.4,0.6
2026-01-20T1400,1902A,104.3827,31.1318,德阳市,西小区,颗粒物(PM10),51,51,39,29,21,49,,45,40,13,13,3,2,0.5,0.5
2026-01-20T1400,1904A,104.3553,31.1091,德阳市,耐火材料厂,,43,43,35,24,21,45,,41,36,20,21,1,1,0.7,0.7
2026-01-20T1400,4145A,104.4144,31.1495,德阳市,市林业局,,48,42,32,33,19,48,,42,40,14,16,2,2,0.4,0.4
2026-01-20T1400,1622A,116.3034,37.4675,德州市,儿童乐园,,34,34,37,12,12,58,,44,44,17,26,11,12,0.6,0.6
2026-01-20T1400,1624A,116.2992,37.4449,德州市,监理站,,27,27,28,9,6,68,,56,56,15,20,8,9,0.6,0.6
2026-01-20T1400,3066A,116.2722,37.438,德州市,九衢泉纯净水厂,,,27,30,,11,54,,43,43,,24,5,5,,0.6
2026-01-20T1400,3371A,116.3693,37.44,德州市,开发区人民医院,,34,34,38,12,11,67,,48,48,20,30,12,12,0.4,0.5
2026-01-20T1400,3511A,116.5687,37.3331,德州市,陵城艺术中心,,34,34,40,12,11,53,,35,35,15,19,12,14,0.3,0.4
2026-01-20T1400,4292A,116.352738,37.420875,德州市,新河东路,,,48,37,14,11,64,,52,52,,18,12,11,0.8,0.8
2026-01-20T1400,2621A,99.7054,27.8319,迪庆藏族自治州,迪庆州站,,27,21,28,16,18,86,,66,66,6,9,4,4,0.7,0.6
2026-01-20T1400,3180A,99.7122,27.8129,迪庆藏族自治州,质量技术监督局,,29,22,28,7,15,90,,71,66,6,10,5,4,0.3,0.4
2026-01-20T1400,4257A,104.6092,35.5962,定西市,将台街,颗粒物(PM10),51,51,55,29,26,76,,32,32,8,19,11,9,0.3,0.5
2026-01-20T1400,4309A,104.6159,35.5701,定西市,正龙路62号,,,60,65,,30,68,,33,33,5,10,8,6,0.5,0.6
2026-01-20T1400,1390A,113.7943,23.0132,东莞市,东城石井,细颗粒物(PM2.5),95,113,72,71,42,68,,50,50,38,44,8,7,0.6,0.6
2026-01-20T1400,1391A,113.7384,22.9659,东莞市,南城西平,细颗粒物(PM2.5),92,111,70,68,41,46,,36,36,60,53,6,6,1.0,0.7
2026-01-20T1400,3319A,113.7283,23.041,东莞市,万江金泰,细颗粒物(PM2.5),117,135,86,88,47,54,,75,63,52,41,6,6,1.3,1
2026-01-20T1400,4129A,113.8666,23.1062,东莞市,裕兴路,细颗粒物(PM2.5),94,120,98,70,50,90,,61,47,24,42,7,6,0.9,0.8
2026-01-20T1400,4130A,114.0076,22.9739,东莞市,教育路1号,颗粒物(PM10),63,75,91,37,44,90,,56,50,38,50,6,6,0.6,0.7
2026-01-20T1400,4131A,113.7981,22.8124,东莞市,长怡路1号,颗粒物(PM10),75,99,68,47,32,67,,49,49,55,51,6,6,0.9,0.9
2026-01-20T1400,1666A,118.6612,37.4313,东营市,市环保局,,22,9,24,3,7,68,,44,44,17,24,8,11,0.6,0.6
2026-01-20T1400,3036A,118.6903,37.4337,东营市,开发区管委会,,22,13,30,7,8,68,,45,45,10,20,8,10,0.3,0.3
2026-01-20T1400,3365A,118.5721,37.5654,东营市,垦利区民丰路,,22,9,26,3,10,69,,43,43,8,19,6,6,0.4,0.4
2026-01-20T1400,3498A,118.5063,37.8606,东营市,河口城区,,21,12,22,3,3,67,,58,58,16,16,6,3,0.5,0.6
2026-01-20T1400,3646A,118.4979,37.4623,东营市,胜利站,,21,21,26,3,8,67,,39,39,13,21,10,13,0.4,0.5
2026-01-20T1400,3734A,118.5753,37.4405,东营市,理想之城,,20,12,29,7,12,64,,36,36,10,18,4,7,0.4,0.4
2026-01-20T1400,1591A,110.0024,39.8127,鄂尔多斯市,综合楼,,22,12,33,3,8,68,,53,53,7,16,5,8,0.3,0.4
2026-01-20T1400,1592A,109.9485,39.8259,鄂尔多斯市,巴音孟克林场办事处,,22,17,21,7,7,70,,56,56,7,15,6,8,0.3,0.4
2026-01-20T1400,1593A,109.7734,39.5987,鄂尔多斯市,康泽苑,,27,7,15,7,10,84,,66,66,4,10,2,3,0.3,0.3
2026-01-20T1400,1594A,109.8121,39.5987,鄂尔多斯市,华泰汽车城,,25,12,15,3,9,80,,56,56,4,12,6,6,0.1,0.2
2026-01-20T1400,1595A,109.9734,39.7884,鄂尔多斯市,奥林花园,,22,22,31,3,5,66,,54,54,5,6,3,5,0.3,0.4
2026-01-20T1400,2436A,114.894,30.3989,鄂州市,市政府,细颗粒物(PM2.5),59,48,21,42,12,51,,46,46,15,17,4,4,0.5,0.4
2026-01-20T1400,2437A,114.8986,30.3714,鄂州市,赵家坝,颗粒物(PM10),93,136,34,34,14,50,,46,46,7,6,7,7,0.7,0.5
2026-01-20T1400,3654A,114.8093,30.4091,鄂州市,精准医疗中心,颗粒物(PM10),70,89,32,42,16,57,,51,51,4,7,12,6,1.1,1
2026-01-20T1400,2454A,109.4978,30.2979,恩施土家族苗族自治州,湖北民院,细颗粒物(PM2.5),52,40,26,36,20,62,,60,60,8,10,6,6,0.3,0.6
2026-01-20T1400,3549A,109.5061,30.3771,恩施土家族苗族自治州,龙凤新区,,43,35,20,30,17,52,,49,49,7,10,7,6,0.5,0.7
2026-01-20T1400,2499A,108.3411,21.6159,防城港市,沙万,颗粒物(PM10),68,86,79,24,30,102,,98,85,15,29,7,8,0.5,0.9
2026-01-20T1400,2500A,108.3515,21.7733,防城港市,防城档案局,颗粒物(PM10),51,52,53,24,34,102,,89,74,9,16,6,5,0.4,0.6
2026-01-20T1400,2501A,108.3506,21.6414,防城港市,大海花园,,49,49,54,27,32,118,,106,97,8,17,7,9,0.5,0.6
2026-01-20T1400,1371A,113.1293,23.0065,佛山市,湾梁,颗粒物(PM10),67,83,73,36,34,30,,66,43,39,33,/,/,/,/
2026-01-20T1400,1372A,113.1082,23.0477,佛山市,华材职中,细颗粒物(PM2.5),73,83,78,53,48,27,,67,40,42,35,7,6,0.8,0.6
2026-01-20T1400,1373A,113.1439,23.045,佛山市,南海气象局,颗粒物(PM10),59,67,61,41,40,25,,66,43,41,34,/,/,/,/
2026-01-20T1400,1374A,113.2879,22.8094,佛山市,顺德苏岗,细颗粒物(PM2.5),73,93,60,53,35,34,,62,54,54,34,/,/,1.0,0.8
2026-01-20T1400,1376A,112.8384,22.8678,佛山市,高明孔堂,细颗粒物(PM2.5),68,74,61,49,39,36,,67,38,36,27,/,/,/,/
2026-01-20T1400,1377A,112.8835,23.1584,佛山市,三水监测站,颗粒物(PM10),63,75,104,41,51,37,,25,22,22,72,2,4,0.8,0.8
2026-01-20T1400,1378A,112.8668,23.185,佛山市,三水云东海,颗粒物(PM10),56,61,87,39,50,38,,33,27,29,44,/,/,/,/
2026-01-20T1400,3625A,113.2568,22.7629,佛山市,容桂街道办,,,,60,,39,,,62,57,52,36,/,/,/,/
2026-01-20T1400,1282A,119.2681,26.0506,福州市,师大,,22,19,28,3,8,68,,70,63,18,20,3,3,0.5,0.5
2026-01-20T1400,1283A,119.2983,26.1028,福州市,五四北路,,21,16,25,3,8,66,,68,62,16,16,4,4,0.5,0.5
2026-01-20T1400,1284A,119.2648,26.0769,福州市,杨桥西路,,22,19,26,3,8,69,,69,64,11,11,4,4,/,/
2026-01-20T1400,3048A,119.5799,26.0937,福州市,九龙,,24,14,24,3,7,76,,70,70,11,12,4,4,0.4,0.6
2026-01-20T1400,3526A,119.5188,25.9666,福州市,吴航,,24,18,24,7,11,76,,71,71,10,11,4,4,0.5,0.5
2026-01-20T1400,4104A,119.3106,26.0648,福州市,路通桥巷6号,,21,18,23,11,14,66,,67,61,12,12,/,/,/,/
2026-01-20T1400,1755A,123.7974,41.8494,抚顺市,望花区,,37,37,91,11,52,59,,27,27,11,37,4,5,0.8,1.3
2026-01-20T1400,1756A,123.9161,41.8827,抚顺市,顺城区,颗粒物(PM10),53,56,78,14,46,59,,28,28,13,40,8,9,0.8,1.3
2026-01-20T1400,1757A,124.0437,41.8615,抚顺市,东洲区,颗粒物(PM10),68,86,65,46,39,48,,35,35,25,20,10,9,1.1,0.9
2026-01-20T1400,1758A,123.9246,41.8638,抚顺市,新抚区,颗粒物(PM10),73,95,84,22,47,57,,28,28,20,40,8,7,0.8,1.2
2026-01-20T1400,1759A,124.0972,41.8961,抚顺市,大伙房水库,颗粒物(PM10),54,58,48,33,30,53,,34,34,14,22,11,11,1.0,0.7
2026-01-20T1400,1760A,123.708,41.8386,抚顺市,沈抚新城,颗粒物(PM10),51,52,78,14,52,58,,27,27,7,31,7,8,1.3,1.5
2026-01-20T1400,2377A,116.3544,27.9833,抚州市,市站,,17,17,31,9,12,39,,39,39,9,13,5,6,1.0,0.9
2026-01-20T1400,2378A,116.3562,27.9631,抚州市,血防站,,24,24,32,7,12,39,,38,38,13,16,4,4,0.8,0.8
2026-01-20T1400,2379A,116.3561,28.0007,抚州市,采茶剧团,,16,16,32,10,16,39,,39,39,6,8,3,3,1.0,1
2026-01-20T1400,2380A,116.3854,27.9648,抚州市,医学分院,,28,28,38,9,10,38,,38,38,7,9,4,4,0.5,0.6
2026-01-20T1400,2207A,121.6095,41.9978,阜新市,工业园区,,29,29,43,8,12,65,,58,58,3,7,9,9,0.3,0.3
2026-01-20T1400,2208A,121.6567,42.0188,阜新市,长青街,,21,21,29,10,8,67,,58,58,3,5,6,7,0.3,0.4
2026-01-20T1400,2209A,121.6672,42.07,阜新市,农业园区,,25,25,32,3,7,65,,57,57,5,7,6,10,0.2,0.2
2026-01-20T1400,2211A,121.6343,42.0455,阜新市,玉龙新城,,27,27,40,3,8,64,,52,52,4,10,2,4,0.4,0.4
2026-01-20T1400,2301A,115.8276,32.8929,阜阳市,市监测站,,48,48,46,29,35,72,,55,55,17,17,4,4,0.4,0.4
2026-01-20T1400,2303A,115.8551,32.8606,阜阳市,开发区,,45,32,27,31,34,76,,55,55,15,15,6,4,0.4,0.4
2026-01-20T1400,2875A,115.783962,32.889217,阜阳市,阜阳职业技术学院,,41,41,40,21,32,76,,60,60,9,9,8,6,0.4,0.4
2026-01-20T1400,3468A,115.79,32.8614,阜阳市,市规划展馆,颗粒物(PM10),51,51,61,23,34,79,,60,60,12,14,8,6,0.6,0.7
2026-01-20T1400,3469A,115.835101,32.918568,阜阳市,枣园社区,,40,40,58,18,31,78,,59,59,9,11,6,4,0.8,0.9
2026-01-20T1400,2669A,102.9097,34.9841,甘南藏族自治州,州政府,颗粒物(PM10),59,68,80,34,41,75,,42,42,8,18,8,7,0.6,0.7
2026-01-20T1400,3380A,102.8915,34.9618,甘南藏族自治州,甘肃民族师范学院,颗粒物(PM10),64,78,101,26,42,76,,38,38,12,30,8,9,0.3,0.3
2026-01-20T1400,2570A,101.96,30.048,甘孜藏族自治州,水桥子,,21,10,21,3,14,66,,52,45,9,13,6,6,0.7,0.7
2026-01-20T1400,3065A,101.9534,29.9976,甘孜藏族自治州,州环保局,,23,21,28,8,18,71,,59,55,9,13,6,6,0.5,0.6
2026-01-20T1400,2363A,114.9368,25.8663,赣州市,地委,,22,22,64,6,41,33,,22,22,14,19,7,7,0.5,0.8
2026-01-20T1400,2364A,114.946,25.8483,赣州市,气象台,,,39,74,3,39,30,,20,20,15,23,4,3,,0.7
2026-01-20T1400,2365A,114.932,25.8332,赣州市,市图书馆,,11,11,61,3,38,33,,22,22,17,21,4,4,0.7,1
2026-01-20T1400,2366A,114.8905,25.8472,赣州市,华坚鞋城,,17,17,64,6,37,32,,22,22,13,20,4,6,0.2,0.5
2026-01-20T1400,3109A,115.0094,25.8614,赣州市,赣县区卫计委,,15,,47,9,42,46,,31,31,10,15,7,7,0.6,0.9
2026-01-20T1400,2684A,106.2753,36.0057,固原市,监测站,颗粒物(PM10),54,57,59,29,24,55,,32,32,14,18,5,5,0.7,0.7
2026-01-20T1400,2685A,106.2384,36.0189,固原市,新区,颗粒物(PM10),61,72,60,34,29,54,,31,31,15,19,7,7,0.8,0.8
2026-01-20T1400,2544A,106.6307,30.4577,广安市,市委,,38,,18,26,13,24,,27,23,9,6,9,9,0.9,0.8
2026-01-20T1400,2545A,106.6266,30.4662,广安市,友谊中学,,23,17,14,16,14,27,,30,26,16,12,6,7,1.2,1.2
2026-01-20T1400,2547A,106.6386,30.4551,广安市,广电花园,,26,25,15,18,14,24,,27,23,14,13,8,8,0.7,0.7
2026-01-20T1400,2902A,106.6347,30.4868,广安市,北辰小学,,25,19,15,17,15,27,,28,25,12,10,4,5,1.0,1
2026-01-20T1400,2524A,105.8211,32.4444,广元市,老城,,38,28,39,26,22,49,,51,46,15,15,1,2,0.6,0.5
2026-01-20T1400,2526A,105.8629,32.429,广元市,监测站,,36,28,39,25,23,49,,48,46,12,13,6,6,0.5,0.5
2026-01-20T1400,3617A,105.8047,32.4167,广元市,经开区,,40,40,40,27,21,42,,46,39,14,13,2,1,0.5,0.5
2026-01-20T1400,1345A,113.2346,23.1423,广州市,广雅中学,细颗粒物(PM2.5),70,86,93,51,51,26,,50,34,38,43,4,4,0.4,0.3
2026-01-20T1400,1346A,113.2611,23.105,广州市,市五中,细颗粒物(PM2.5),67,75,74,48,43,45,,68,46,36,48,9,8,/,/
2026-01-20T1400,1348A,113.3477,23.0916,广州市,广东商学院,细颗粒物(PM2.5),72,77,74,52,54,34,,34,31,34,40,8,7,1.1,0.9
2026-01-20T1400,1349A,113.4332,23.105,广州市,市八十六中,颗粒物(PM10),76,102,65,49,37,55,,32,32,32,64,10,9,/,/
2026-01-20T1400,1350A,113.3506,22.9488,广州市,番禺中学,颗粒物(PM10),71,91,63,51,35,32,,64,41,60,43,5,4,1.2,0.9
2026-01-20T1400,1351A,113.2147,23.3918,广州市,花都师范,颗粒物(PM10),52,54,123,32,74,48,,35,35,23,73,8,7,0.8,0.9
2026-01-20T1400,1352A,113.2599,23.1329,广州市,市监测站,"颗粒物(PM10),细颗粒物(PM2.5)",69,87,82,50,46,44,,63,39,35,46,4,3,/,/
2026-01-20T1400,1353A,113.5618,23.3119,广州市,九龙镇镇龙,,,,105,,63,,,182,,,65,,6,,0.7
2026-01-20T1400,1354A,113.2764,23.1544,广州市,麓湖,细颗粒物(PM2.5),65,75,74,47,47,46,,17,17,30,64,11,9,0.8,0.6
2026-01-20T1400,2846A,113.3209,23.1323,广州市,体育西,细颗粒物(PM2.5),74,92,88,54,49,37,,44,26,36,53,8,6,1.1,0.8
2026-01-20T1400,3298A,113.5718,23.5493,广州市,从化街口,颗粒物(PM10),53,56,104,33,64,31,,21,21,29,57,16,11,1.0,1.1
2026-01-20T1400,3299A,113.3463,23.369,广州市,白云竹料,,45,45,105,27,62,40,,23,23,23,68,4,4,0.9,1
2026-01-20T1400,3300A,113.2981,23.2365,广州市,白云嘉禾,颗粒物(PM10),70,89,89,33,47,44,,20,20,31,71,8,6,/,/
2026-01-20T1400,3301A,113.4256,23.1716,广州市,黄埔科学城,细颗粒物(PM2.5),68,73,83,49,48,58,,35,33,28,50,7,5,1.1,0.8
2026-01-20T1400,3302A,113.3942,23.0485,广州市,番禺大学城,颗粒物(PM10),83,115,97,48,38,49,,63,45,39,38,12,10,0.9,0.6
2026-01-20T1400,3303A,113.4923,22.8169,广州市,南沙黄阁,细颗粒物(PM2.5),67,,33,48,33,84,,53,53,62,42,7,5,/,/
2026-01-20T1400,3304A,113.534,22.7893,广州市,南沙街,颗粒物(PM10),59,68,57,32,28,76,,56,56,43,32,6,5,0.6,0.6
2026-01-20T1400,3443A,113.2905,23.5541,广州市,花都梯面,,42,42,95,25,51,31,,29,29,17,56,5,5,/,/
2026-01-20T1400,3445A,113.786,23.7479,广州市,从化良口,细颗粒物(PM2.5),87,80,69,64,54,49,,66,44,17,24,10,9,/,/
2026-01-20T1400,3446A,113.805,23.2614,广州市,增城荔城,,,102,95,,61,49,,21,21,29,41,8,6,0.8,0.8
2026-01-20T1400,2506A,109.604387,23.066791,贵港市,江南子站,颗粒物(PM10),59,68,86,35,45,56,,58,56,15,30,5,8,0.9,0.9
2026-01-20T1400,2508A,109.5669,23.1065,贵港市,荷城子站,颗粒物(PM10),62,73,72,24,42,42,,59,50,16,30,6,9,1.0,1
2026-01-20T1400,3405A,109.5886,23.1172,贵港市,新世纪学校,颗粒物(PM10),62,73,75,29,46,42,,53,49,18,25,/,/,0.6,0.6
2026-01-20T1400,4260A,109.5933,23.095,贵港市,中山路155-3号,颗粒物(PM10),54,57,68,31,43,52,,64,59,17,25,/,/,0.6,0.6
2026-01-20T1400,1439A,106.6863,26.6035,贵阳市,马鞍山,,18,12,22,12,18,21,,22,22,11,12,3,4,/,/
2026-01-20T1400,1441A,106.6241,26.6266,贵阳市,鉴湖路,,18,17,34,12,19,24,,24,24,13,14,4,4,0.6,0.6
2026-01-20T1400,1442A,106.7468,26.6344,贵阳市,燕子冲,,35,,27,24,24,20,,20,20,13,14,5,5,1.0,0.7
2026-01-20T1400,1443A,106.6556,26.4362,贵阳市,碧云窝,,35,34,36,24,17,36,,38,38,16,13,4,3,/,/
2026-01-20T1400,1445A,106.6963,26.6063,贵阳市,红边门,,,27,27,9,17,18,,24,21,,12,5,5,/,/
2026-01-20T1400,1446A,106.7162383,26.56964667,贵阳市,新华路,,34,34,32,12,18,22,,24,22,15,15,5,7,0.6,0.6
2026-01-20T1400,1447A,106.6742,26.542,贵阳市,太慈桥,,25,24,28,17,17,19,,29,24,14,16,4,4,/,/
2026-01-20T1400,4230A,106.688212,26.56952,贵阳市,花果园大街66号,,28,,23,19,23,16,,18,17,13,17,3,3,/,/
2026-01-20T1400,4231A,106.687268,26.516892,贵阳市,漓江路57号,,25,24,27,17,18,17,,18,17,14,16,8,7,0.6,0.5
2026-01-20T1400,1864A,110.3091,25.2705,桂林市,龙隐路小学,,9,9,17,3,10,24,,19,18,13,18,6,6,0.5,0.6
2026-01-20T1400,1865A,110.2849361,25.22909545,桂林市,八中,,11,11,17,3,13,22,,19,17,13,18,7,6,0.8,0.8
2026-01-20T1400,3531A,110.296,25.1254,桂林市,旅游学院,,9,6,12,3,12,27,,21,21,10,16,4,4,0.3,0.4
2026-01-20T1400,4222A,110.1835,25.2444,桂林市,环湖路276号,,25,17,20,17,21,18,,15,15,9,12,8,6,0.5,0.7
2026-01-20T1400,4301A,110.2803,25.2773,桂林市,信义路13号,,19,,13,13,18,22,,17,17,13,16,4,4,0.7,0.8
2026-01-20T1400,2674A,100.2262,34.4854,果洛藏族自治州,玛沁县大武镇,,28,22,71,16,11,89,,47,47,1,5,8,15,0.2,0.4
2026-01-20T1400,1130A,126.5557,45.8109,哈尔滨市,松北商大,,32,32,33,18,19,57,,38,38,10,17,6,6,0.4,0.5
2026-01-20T1400,1132A,126.6162,45.719,哈尔滨市,南岗学府路,,,36,42,11,23,63,,34,34,,20,8,9,0.5,0.5
2026-01-20T1400,1133A,126.6894,45.7733,哈尔滨市,太平宏伟公园,,35,35,34,17,18,62,,49,49,6,12,10,13,0.6,0.7
2026-01-20T1400,1134A,126.6361,45.7672,哈尔滨市,道外承德广场,,31,31,43,14,19,60,,46,46,10,17,8,9,0.3,0.4
2026-01-20T1400,1136A,126.644,45.7261,哈尔滨市,动力和平路,,,,44,,22,55,,23,,10,21,9,12,,0.6
2026-01-20T1400,1137A,126.5933,45.7479,哈尔滨市,道里建国路,,31,31,34,21,19,55,,40,40,9,16,10,10,0.3,0.5
2026-01-20T1400,1138A,126.6127,45.6119,哈尔滨市,平房东轻厂,,30,30,39,20,26,52,,33,33,15,25,11,9,0.7,0.9
2026-01-20T1400,1139A,126.5875,45.9827,哈尔滨市,呼兰师专,,37,37,42,21,34,51,,37,37,8,16,9,10,0.5,0.6
2026-01-20T1400,1140A,126.6299,45.6799,哈尔滨市,省农科院,,44,44,47,24,34,53,,32,32,15,29,13,12,0.5,0.6
2026-01-20T1400,4282A,126.6769,45.7379,哈尔滨市,华山路1号,,39,39,36,16,20,49,,34,34,17,26,15,19,0.5,0.6
2026-01-20T1400,4283A,126.9717,45.5356,哈尔滨市,解放大街52号,,35,35,48,22,31,54,,39,39,11,16,17,11,0.3,0.5
2026-01-20T1400,2688A,93.5124,42.8176,哈密市,地区监测站,颗粒物(PM10),67,84,111,30,29,60,,34,34,9,22,4,2,0.3,0.6
2026-01-20T1400,2689A,93.5014,42.8312,哈密市,哈密师范学校,颗粒物(PM10),65,80,102,28,22,60,,34,34,10,23,1,3,0.2,0.5
2026-01-20T1400,2671A,100.9016,36.9464,海北藏族自治州,海晏县西海镇,,48,48,77,24,37,72,,45,45,10,20,15,17,0.7,0.9
2026-01-20T1400,3867A,102.074,36.5056,海东市,平安区公安局北苑,颗粒物(PM10),54,58,80,32,38,54,,29,29,18,18,28,27,0.9,0.9
2026-01-20T1400,4163A,102.0984,36.5119,海东市,滨河路,颗粒物(PM10),64,78,82,40,41,58,,21,21,23,39,23,32,0.9,0.9
2026-01-20T1400,1410A,110.3189,20.0596,海口市,海南大学,,34,34,40,15,21,106,,104,104,4,6,6,6,0.2,0.3
2026-01-20T1400,1411A,110.2827,20.0051,海口市,秀英海南医院,,38,38,39,15,20,104,,98,98,6,8,7,7,0.3,0.3
2026-01-20T1400,1412A,110.3391,19.9979,海口市,海南师范大学,,38,38,40,14,22,103,,99,99,6,9,6,6,0.5,0.6
2026-01-20T1400,1413A,110.3303,20.0359,海口市,龙华路环保局宿舍,,44,44,40,15,21,104,,101,101,7,9,/,/,0.5,0.7
2026-01-20T1400,3539A,110.5111,19.9737,海口市,桂林洋子站,,31,28,38,15,22,97,,90,90,6,7,/,/,/,/
2026-01-20T1400,4134A,110.1952,20.0451,海口市,长滨二路9号,,35,35,37,16,22,103,,99,99,4,6,/,/,/,/
2026-01-20T1400,2673A,100.6158,36.2985,海南藏族自治州,共和县恰卜恰镇,颗粒物(PM10),60,69,91,41,46,86,,41,41,4,25,12,13,0.8,0.9
2026-01-20T1400,2676A,97.373,37.376,海西蒙古族藏族自治州,德令哈市,颗粒物(PM10),56,62,40,10,12,97,,79,72,8,9,11,11,0.9,0.8
2026-01-20T1400,1049A,114.492,36.5712,邯郸市,矿院,,45,44,33,31,25,63,,44,44,14,18,9,3,0.6,0.4
2026-01-20T1400,1050A,114.4839,36.6136,邯郸市,丛台公园,,39,31,28,27,22,64,,52,52,17,19,6,2,0.6,0.3
2026-01-20T1400,3458A,114.7893,36.5592,邯郸市,香泉濮院小区,,40,,32,28,21,65,,50,50,9,15,3,2,0.4,0.4
2026-01-20T1400,3580A,114.1998,36.4439,邯郸市,峰峰矿区临水派出所,,27,27,30,13,24,66,,48,48,4,11,8,5,0.7,0.5
2026-01-20T1400,4068A,114.5209,36.7697,邯郸市,建安街268号,,31,31,35,7,13,62,,39,39,6,19,5,3,0.5,0.3
2026-01-20T1400,4069A,114.5488,36.6177,邯郸市,丛台东路558号,,25,20,27,17,18,66,,47,47,8,12,6,2,0.6,0.4
2026-01-20T1400,2635A,107.0155,33.0707,汉中市,市监测站,,36,32,34,25,31,38,,40,36,15,17,5,4,0.6,0.6
2026-01-20T1400,2636A,107.0083,33.114,汉中市,鑫源开发区,,38,29,44,26,28,42,,41,40,15,17,4,4,0.4,0.5
2026-01-20T1400,2637A,107.0072,33.0323,汉中市,南郑大河坎水厂,,38,30,46,26,35,37,,39,34,15,18,5,5,0.7,0.7
2026-01-20T1400,1223A,120.2073,30.2111,杭州市,滨江,,29,26,19,20,13,43,,55,43,25,19,5,5,0.4,0.3
2026-01-20T1400,1224A,120.0625,30.2737,杭州市,西溪,,27,27,26,17,8,41,,56,42,22,18,8,8,0.5,0.5
2026-01-20T1400,1226A,120.3417,30.315,杭州市,下沙,,29,26,33,20,18,45,,53,43,21,20,6,6,0.6,0.6
2026-01-20T1400,1227A,120.1252,30.2465,杭州市,卧龙桥,,,21,19,14,8,40,,58,43,21,18,8,7,,0.3
2026-01-20T1400,1228A,120.1902,30.2691,杭州市,浙江农大,,38,38,25,20,15,35,,59,44,30,20,4,4,0.6,0.5
2026-01-20T1400,1230A,120.1195,30.3121,杭州市,和睦小学,,28,24,20,19,14,42,,57,45,20,16,4,4,0.6,0.6
2026-01-20T1400,1231A,120.3076,30.4146,杭州市,临平镇,,25,25,20,16,13,50,,58,50,11,9,6,6,0.5,0.5
2026-01-20T1400,1232A,120.2753,30.1839,杭州市,城厢镇,,,,29,20,15,47,,57,45,17,17,6,6,0.6,0.5
2026-01-20T1400,1233A,120.0883,30.1808,杭州市,云栖,,28,23,22,19,11,41,,56,46,20,16,3,4,0.7,0.6
2026-01-20T1400,3557A,119.9463,30.0496,杭州市,镇二中,,18,18,9,11,6,42,,54,45,22,20,4,4,0.6,0.5
2026-01-20T1400,3558A,119.7184,30.2367,杭州市,市府大楼,,,29,15,16,8,46,,54,44,16,12,10,9,,0.7
2026-01-20T1400,3656A,120.1554,30.2863,杭州市,消防大队,,32,25,23,22,16,36,,55,42,27,17,5,5,0.6,0.5
2026-01-20T1400,1270A,117.1957,31.7845,合肥市,明珠广场,,35,27,26,24,22,62,,56,56,13,10,5,5,1.0,0.8
2026-01-20T1400,1271A,117.307,31.8765,合肥市,三里街,,35,27,23,24,20,66,,59,59,17,17,4,4,0.6,0.6
2026-01-20T1400,1272A,117.2587,31.8703,合肥市,琥珀山庄,,36,31,29,25,25,69,,61,61,10,13,7,7,0.5,0.6
2026-01-20T1400,1275A,117.2593,31.9376,合肥市,庐阳区,,29,29,25,19,19,70,,64,64,15,16,3,3,0.6,0.6
2026-01-20T1400,1276A,117.345251,31.861615,合肥市,瑶海区,,,,19,20,20,68,,60,60,11,12,,4,0.8,0.8
2026-01-20T1400,1277A,117.3033,31.7967,合肥市,包河区,,35,27,25,24,25,59,,53,53,22,20,4,4,0.7,0.7
2026-01-20T1400,1278A,117.278,31.7392,合肥市,滨湖新区,,42,29,24,29,26,57,,55,55,21,16,2,2,0.6,0.6
2026-01-20T1400,1279A,117.1324,31.8395,合肥市,高新区,,,24,29,,22,71,,62,62,16,16,3,3,0.5,0.6
2026-01-20T1400,3464A,117.3802,31.9148,合肥市,高教基地,,29,29,24,20,20,69,,63,63,11,9,6,6,0.6,0.5
2026-01-20T1400,4098A,117.2518,31.8404,合肥市,中国科学技术大学,,25,22,25,17,20,68,,60,60,10,11,7,7,0.4,0.4
2026-01-20T1400,3614A,79.9241,37.0878,和田地区,地区环保局,颗粒物(PM10),500,1990,1652,419,314,45,,53,53,21,12,1,2,0.6,0.4
2026-01-20T1400,3615A,79.9132,37.1137,和田地区,市环保局,颗粒物(PM10),500,1812,1788,318,303,56,,53,53,8,8,1,2,0.5,1.1
2026-01-20T1400,2517A,108.0496,24.6957,河池市,市环保站,,10,10,51,3,37,22,,46,24,11,14,2,4,0.7,0.7
2026-01-20T1400,4302A,108.0901,24.6945,河池市,上任中路54号,,8,6,45,3,35,21,,40,22,9,12,4,7,0.8,0.8
2026-01-20T1400,1697A,114.6962,23.7538,河源市,东埔,细颗粒物(PM2.5),103,80,73,77,62,46,,73,41,19,30,,7,1.2,1.2
2026-01-20T1400,1698A,114.6895,23.7232,河源市,老城,细颗粒物(PM2.5),93,92,70,69,51,49,,70,40,16,22,6,7,0.9,0.7
2026-01-20T1400,3374A,115.5562,35.089,菏泽市,定陶老年大学,,27,27,38,9,18,67,,55,55,13,14,5,5,0,0.1
2026-01-20T1400,4114A,115.4239,35.2593,菏泽市,黄河路600号,,28,28,41,11,18,69,,59,59,13,17,3,4,0.3,0.4
2026-01-20T1400,4115A,115.5025,35.2727,菏泽市,菏泽市人社局,,23,23,38,9,17,66,,56,56,9,14,2,2,0.1,0.2
2026-01-20T1400,4184A,115.479691,35.244011,菏泽市,永昌路1号,,30,30,42,20,26,69,,60,60,7,12,4,4,0.1,0.2
2026-01-20T1400,4193A,115.471542,35.280012,菏泽市,长城路999号,,25,25,43,7,18,63,,52,52,12,14,2,9,0.2,0.5
2026-01-20T1400,2514A,111.5264,24.4178,贺州市,环保小区,,30,30,49,8,37,20,,15,14,17,21,7,7,0.5,0.6
2026-01-20T1400,2515A,111.561,24.4074,贺州市,政协大楼,,20,19,46,14,36,16,,12,10,15,16,10,10,0.6,0.8
2026-01-20T1400,3534A,111.4744,24.455,贺州市,西湾,,,,54,6,31,16,,11,11,15,17,7,7,0.7,0.9
2026-01-20T1400,2385A,114.17,35.9019,鹤壁市,市监测站,,50,50,46,35,27,53,,37,37,14,16,5,5,0.6,0.5
2026-01-20T1400,2386A,114.2953,35.7512,鹤壁市,市交警支队,,,47,50,20,26,50,,35,35,,15,6,3,0.4,0.4
2026-01-20T1400,2387A,114.2877,35.7302,鹤壁市,迎宾馆,,38,29,44,26,24,58,,42,42,16,20,9,6,0.6,0.6
2026-01-20T1400,3474A,114.2616,35.6824,鹤壁市,大新区,,50,50,46,18,18,59,,45,45,15,17,8,6,0.4,0.4
2026-01-20T1400,3596A,114.1573,35.9607,鹤壁市,南山宾馆,,43,33,46,30,25,61,,45,45,10,9,6,4,0.5,0.4
2026-01-20T1400,2244A,130.2537,47.3416,鹤岗市,哈啤分公司,,23,23,29,12,22,68,,58,,4,7,6,6,0.3,0.4
2026-01-20T1400,2245A,130.2683,47.3087,鹤岗市,斯达机电,,,,32,12,26,61,,54,54,6,9,6,6,0.5,0.5
2026-01-20T1400,2246A,130.3114,47.3388,鹤岗市,东山纸板厂,,50,,19,35,23,65,,58,58,4,8,6,7,0.5,0.6
2026-01-20T1400,2263A,127.4832,50.2524,黑河市,交通局,,21,10,16,7,15,67,,65,65,9,12,3,5,0.2,0.2
2026-01-20T1400,2264A,127.5146,50.2339,黑河市,环保局,,23,,14,16,14,66,,65,65,8,11,4,4,0.4,0.4
2026-01-20T1400,1074A,115.6839,37.754,衡水市,电机北厂,,,49,42,20,19,42,,31,31,26,25,,5,0.5,0.4
2026-01-20T1400,1075A,115.6303,37.7318,衡水市,市监测站,,40,40,39,19,16,40,,31,31,30,26,11,6,0.4,0.4
2026-01-20T1400,3188A,115.6684,37.7216,衡水市,市城管局,颗粒物(PM10),52,53,43,20,19,44,,40,40,26,22,7,5,0.4,0.4
2026-01-20T1400,3459A,115.599,37.5491,衡水市,地表水厂,,32,25,32,22,13,64,,38,38,8,26,4,4,0.4,0.4
2026-01-20T1400,2457A,112.6209,26.9268,衡阳市,衡阳化工总厂,,16,16,12,11,7,34,,30,30,17,16,5,6,0.9,0.9
2026-01-20T1400,2458A,112.621,26.8957,衡阳市,珠晖区环保局,,20,20,13,12,15,35,,30,30,16,18,3,3,0.9,0.9
2026-01-20T1400,2459A,112.628,26.8654,衡阳市,市委党校,,16,16,14,9,9,34,,31,31,16,18,7,6,0.8,0.9
2026-01-20T1400,2460A,112.6007,26.8977,衡阳市,市监测站,,22,22,21,10,11,36,,33,33,11,9,4,4,1.0,1
2026-01-20T1400,2461A,112.5658,26.9013,衡阳市,真空机电公司,,,,18,,6,39,,36,36,14,16,5,5,0.8,0.9
2026-01-20T1400,3399A,112.6703,26.8817,衡阳市,师范学院,,18,18,15,9,11,37,,30,30,12,16,1,1,1.0,1.1
2026-01-20T1400,3038A,103.3757,23.3679,红河哈尼族彝族自治州,州图书馆,,,29,41,,26,78,,54,54,5,10,6,7,0.5,0.5
2026-01-20T1400,4154A,103.401,23.3561,红河哈尼族彝族自治州,蒙自市朝阳路,,33,,28,23,25,79,,51,51,2,6,6,9,0.4,0.5
2026-01-20T1400,1090A,111.6506,40.7517,呼和浩特市,呼市一监,,27,27,24,13,16,56,,39,30,12,16,13,11,0.3,0.4
2026-01-20T1400,1094A,111.7516,40.8369,呼和浩特市,如意水处理厂,颗粒物(PM10),54,57,19,34,10,52,,50,32,15,16,12,8,0.5,0.5
2026-01-20T1400,1095A,111.727798,40.806187,呼和浩特市,二十九中,细颗粒物(PM2.5),58,,23,41,14,53,,52,35,13,13,14,11,0.3,0.5
2026-01-20T1400,1097A,111.717,40.7617,呼和浩特市,化肥厂生活区,,25,25,22,13,13,56,,44,36,10,15,7,6,0.4,0.5
2026-01-20T1400,3699A,111.6519,40.8389,呼和浩特市,海东办,颗粒物(PM10),51,51,17,32,12,51,,58,44,14,12,22,5,0.6,0.5
2026-01-20T1400,4275A,111.591512,40.827312,呼和浩特市,成吉思汗西街8号,细颗粒物(PM2.5),53,53,23,37,13,45,,50,37,23,14,14,10,0.4,0.3
2026-01-20T1400,4276A,111.6597,40.8077,呼和浩特市,公园东路75号,,41,41,19,28,15,44,,56,44,20,14,10,7,0.5,0.4
2026-01-20T1400,4277A,111.5427,40.7846,呼和浩特市,金海路35号,颗粒物(PM10),52,54,36,14,17,48,,33,25,14,20,12,25,0.6,0.6
2026-01-20T1400,3061A,119.7511,49.1576,呼伦贝尔市,国华电力东,,,9,26,,18,61,,57,57,9,14,8,8,0.3,0.4
2026-01-20T1400,4279A,119.7569,49.2222,呼伦贝尔市,伊敏大街东7号,,38,,27,26,22,59,,55,53,4,7,10,9,0.6,0.3
2026-01-20T1400,1250A,120.075,30.867,湖州市,城西水厂,,39,39,21,27,14,48,,66,53,25,12,5,4,0.4,0.5
2026-01-20T1400,2873A,120.083,30.8929,湖州市,仁皇山新区,,45,38,19,31,13,50,,67,57,25,16,4,4,0.5,0.5
2026-01-20T1400,2907A,120.1846,30.8592,湖州市,吴兴区站,,38,37,44,26,12,46,,63,52,25,13,4,4,0.2,0.2
2026-01-20T1400,3562A,120.4146,30.8538,湖州市,南浔区站,颗粒物(PM10),55,59,24,20,12,48,,62,,22,15,6,5,0.8,0.7
2026-01-20T1400,1607A,120.904878,40.721091,葫芦岛市,龙港区,,47,47,47,14,18,68,,43,43,7,26,12,19,0.5,0.7
2026-01-20T1400,1608A,120.8382,40.7521,葫芦岛市,化工街,,24,24,43,12,15,62,,40,40,6,23,9,16,0.4,0.6
2026-01-20T1400,1609A,120.8339,40.7078,葫芦岛市,新区,,30,30,37,15,15,65,,42,42,8,20,10,17,0.6,0.7
2026-01-20T1400,1610A,120.8697,40.7679,葫芦岛市,东城区,,,36,42,16,20,66,,35,35,,28,14,27,0.5,0.7
2026-01-20T1400,2483A,109.9297,27.5383,怀化市,河西地税局,,42,29,20,29,17,32,,29,29,12,14,2,2,/,/
2026-01-20T1400,2484A,109.9783,27.5342,怀化市,市四医院,,27,27,23,17,14,31,,26,26,11,12,4,3,0.5,0.5
2026-01-20T1400,2485A,109.9971,27.5579,怀化市,监测楼,,,26,18,,15,38,,32,32,7,12,2,2,0.1,0.1
2026-01-20T1400,1210A,119.0566,33.5991,淮安市,钵池山,,41,41,29,20,18,59,,50,50,12,13,7,6,0.4,0.3
2026-01-20T1400,1211A,119.0083,33.578,淮安市,北京南路,,41,41,33,20,17,57,,49,49,10,10,8,7,0.9,0.7
2026-01-20T1400,1212A,118.9938,33.6083,淮安市,市监测站,,39,31,22,27,19,62,,51,51,14,15,9,8,0.5,0.5
2026-01-20T1400,1213A,119.135,33.5038,淮安市,楚州区监测站,,39,39,27,27,18,58,,51,51,15,13,9,8,0.8,0.6
2026-01-20T1400,3426A,118.8757,33.2897,淮安市,新华书店,,45,45,32,28,21,59,,48,48,15,18,10,8,0.6,0.5
2026-01-20T1400,4092A,119.119691,33.550006,淮安市,枚皋中路89号,颗粒物(PM10),51,51,35,28,21,62,,54,54,12,11,10,9,0.5,0.3
2026-01-20T1400,4206A,119.028838,33.631911,淮安市,承德北路606号,,46,46,33,22,20,61,,53,53,11,11,8,7,0.5,0.6
2026-01-20T1400,2282A,116.8005,33.9749,淮北市,监测站,,43,43,43,19,27,64,,55,51,18,18,6,5,0.5,0.5
2026-01-20T1400,2283A,116.8094,33.9008,淮北市,烈山区政府,,42,42,40,29,29,63,,57,55,14,13,4,3,0.4,0.4
2026-01-20T1400,4017A,116.7926,33.9534,淮北市,市博物馆,,43,43,91,20,28,62,,55,51,9,22,7,4,0.4,0.6
2026-01-20T1400,4100A,116.8322,33.9884,淮北市,杜集区第一实验学校,,46,46,43,17,26,142,,168,152,17,15,9,8,0.5,0.6
2026-01-20T1400,2277A,116.8304,32.7726,淮南市,潘集区政府,,49,49,40,33,36,82,,64,64,12,14,6,4,0.6,0.6
2026-01-20T1400,2279A,116.8569,32.5949,淮南市,谢家集区政府,,40,40,33,12,23,70,,61,61,10,13,10,7,0.4,0.5
2026-01-20T1400,2280A,116.8279,32.6333,淮南市,八公山区政府,,31,31,32,15,25,76,,64,64,10,9,5,7,0.4,0.4
2026-01-20T1400,2894A,117.0561,32.6536,淮南市,经济技术开发区消防队,,48,43,37,33,29,72,,61,61,11,13,5,4,0.6,0.6
2026-01-20T1400,3329A,117.011,32.5891,淮南市,山南新区,,42,37,33,29,26,74,,64,64,10,11,3,2,0.3,0.4
2026-01-20T1400,4209A,117.003137,32.644456,淮南市,国庆中路369号,,32,32,43,19,23,64,,53,53,15,15,8,6,0.7,0.7
2026-01-20T1400,2446A,114.9021,30.474,黄冈市,职工中心,细颗粒物(PM2.5),52,41,18,36,16,52,,47,47,8,8,6,6,1.1,0.9
2026-01-20T1400,2929A,114.8858,30.4519,黄冈市,红卫路,细颗粒物(PM2.5),53,39,20,37,17,52,,47,47,8,8,6,6,0.4,0.3
2026-01-20T1400,3398A,114.9134,30.4446,黄冈市,市林业局,,,,16,,16,54,,54,54,14,15,3,4,,0.8
2026-01-20T1400,2672A,102.02,35.5101,黄南藏族自治州,同仁县隆务镇,"颗粒物(PM10),细颗粒物(PM2.5)",54,58,76,38,38,72,,51,51,6,6,12,11,0.6,0.5
2026-01-20T1400,2295A,118.2905,29.6965,黄山市,延安路89号,,33,,7,23,12,44,,47,45,12,14,3,3,0.5,0.6
2026-01-20T1400,2297A,118.1369,30.2755,黄山市,黄山区政府5号楼,,32,,13,22,12,54,,49,49,10,13,2,2,0.5,0.5
2026-01-20T1400,4210A,118.335445,29.720283,黄山市,滨江东路7-2号,,,,21,,14,43,,49,46,12,14,/,/,/,/
2026-01-20T1400,2423A,115.0547,30.2332,黄石市,沈家营,,40,40,21,28,10,53,,46,46,12,12,7,6,1.2,1.2
2026-01-20T1400,2426A,114.899,30.211,黄石市,铁山,细颗粒物(PM2.5),58,,24,41,16,50,,48,48,10,6,6,5,0.5,0.6
2026-01-20T1400,2427A,115.0259,30.2108,黄石市,团城山,,41,41,25,26,8,54,,47,47,10,13,6,6,0.7,0.6
2026-01-20T1400,3149A,115.0174,30.1591,黄石市,笔架山北路,,,,20,28,7,50,,45,45,,12,,7,1.0,0.9
2026-01-20T1400,4185A,115.078022,30.21118,黄石市,磁湖东路29号,,40,40,22,25,13,55,,50,50,10,10,6,7,1.1,1.1
2026-01-20T1400,1392A,114.4181,23.0528,惠州市,河南岸金山湖子站,颗粒物(PM10),56,62,59,33,32,51,,48,45,31,24,9,5,0.6,0.7
2026-01-20T1400,1393A,114.4055,23.0824,惠州市,下埔横江三路子站,颗粒物(PM10),58,66,57,33,31,52,,78,60,34,22,12,7,0.6,0.6
2026-01-20T1400,1395A,114.4645,22.7832,惠州市,惠阳区承修路船湖子站,颗粒物(PM10),51,51,47,23,23,90,,70,70,28,22,7,6,0.4,0.5
2026-01-20T1400,1396A,114.5316,22.7423,惠州市,大亚湾管委会子站,,40,40,45,17,20,100,,79,79,11,17,6,6,0.5,0.6
2026-01-20T1400,3314A,114.4334,22.8134,惠州市,惠阳秋长,颗粒物(PM10),57,63,57,28,26,99,,56,56,27,27,/,/,/,/
2026-01-20T1400,3452A,114.6521,22.7755,惠州市,大亚湾霞涌,,,37,41,23,18,,,67,,13,17,/,/,/,/
2026-01-20T1400,4300A,114.4089,23.1147,惠州市,文华一路1号,颗粒物(PM10),59,67,57,37,32,49,,79,56,43,26,/,/,/,/
2026-01-20T1400,2240A,130.9618,45.2926,鸡西市,环保局,,,81,33,26,19,57,,50,50,,7,6,6,0.1,0.2
2026-01-20T1400,2243A,130.9294,45.2959,鸡西市,第一中学,,19,13,27,11,20,59,,53,53,5,8,3,3,0.3,0.3
2026-01-20T1400,3707A,131.0069,45.2988,鸡西市,欧美日汽修厂,,45,45,30,27,21,61,,54,54,4,7,6,7,0.5,0.5
2026-01-20T1400,2367A,114.9753,27.0803,吉安市,红声器材厂,,20,20,52,9,26,31,,30,30,20,24,8,7,0.2,0.6
2026-01-20T1400,2369A,114.9903,27.1313,吉安市,市环境监测站,,14,14,45,7,25,34,,32,32,13,21,10,8,/,/
2026-01-20T1400,2370A,115.009527,27.096792,吉安市,青原区法院,,19,19,48,3,25,33,,28,28,15,20,10,10,0.6,0.7
2026-01-20T1400,1772A,126.54,43.8622,吉林市,哈达湾,,33,33,32,15,19,62,,56,56,5,10,8,16,0.6,0.7
2026-01-20T1400,1773A,126.5843,43.8358,吉林市,东局子,,37,37,35,15,16,52,,43,43,9,15,5,4,0.9,1
2026-01-20T1400,1774A,126.5051,43.8243,吉林市,电力学院,,24,24,30,10,17,60,,51,51,3,11,11,11,0.6,0.7
2026-01-20T1400,1775A,126.6133,43.8971,吉林市,江北,,28,28,34,9,19,57,,45,45,6,13,8,10,0.8,1
2026-01-20T1400,1776A,126.5549,43.8304,吉林市,江南公园,,28,28,30,14,19,58,,52,52,5,9,8,8,0.4,0.5
2026-01-20T1400,2868A,126.4737,43.953,吉林市,九站,,,50,32,,19,58,,47,47,,15,6,6,0.5,0.7
2026-01-20T1400,1299A,116.9866,36.6118,济南市,科干所,,24,24,31,7,8,61,,45,45,10,15,7,6,0.3,0.3
2026-01-20T1400,1300A,116.9379,36.6652,济南市,农科所,,,22,29,,6,59,,42,42,14,21,7,7,0.5,0.5
2026-01-20T1400,1301A,117.1265,36.6736,济南市,开发区,,,,31,,12,62,,45,45,,25,4,4,,0.5
2026-01-20T1400,1303A,117.0616,36.6865,济南市,省种子仓库,,27,27,33,7,8,65,,49,49,14,19,8,6,0.5,0.5
2026-01-20T1400,1304A,116.9495185,36.644937,济南市,机床二厂,,20,20,30,7,9,64,,46,46,12,18,5,5,0.3,0.3
2026-01-20T1400,1305A,117.0496,36.6629,济南市,市监测站,,21,17,28,3,7,65,,49,49,14,18,7,6,0.4,0.4
2026-01-20T1400,1306A,116.7674,36.5458,济南市,长清党校,,20,20,31,12,8,61,,46,46,11,17,8,7,0.4,0.5
2026-01-20T1400,1961A,117.5323,36.6865,济南市,东山小学,,24,15,35,3,9,75,,53,53,5,15,5,5,0.2,0.3
2026-01-20T1400,3059A,117.7181,36.205,济南市,泰兴公司,,24,19,43,12,19,75,,51,51,12,23,3,6,0.6,0.8
2026-01-20T1400,3064A,117.6861,36.2172,济南市,莱芜战役纪念馆,,23,14,34,14,18,73,,52,52,10,19,6,9,0.5,0.6
2026-01-20T1400,3494A,117.1673,36.9782,济南市,济阳区政府,,,17,35,7,8,63,,42,42,11,19,,6,,0.4
2026-01-20T1400,3495A,117.1168,36.6299,济南市,锦屏中学,,22,10,24,3,6,68,,49,49,12,18,4,4,0.6,0.6
2026-01-20T1400,4108A,117.7107,36.2385,济南市,山财大街5号,,23,9,30,3,9,71,,48,48,10,21,9,11,0.5,0.7
2026-01-20T1400,4109A,116.9744,36.6889,济南市,无影山路12号,,20,12,25,6,7,64,,48,48,6,13,5,6,0.5,0.5
2026-01-20T1400,1653A,116.6229,35.4288,济宁市,火炬城,,47,47,43,24,22,64,,49,49,10,12,4,3,0.2,0.3
2026-01-20T1400,3500A,116.5808,35.3703,济宁市,北湖一中,,34,34,36,20,25,61,,48,48,17,19,3,3,0.4,0.4
2026-01-20T1400,3501A,116.8251,35.5592,济宁市,服务中心,,,74,43,15,17,60,,46,45,,16,3,9,,0.7
2026-01-20T1400,3678A,116.5907,35.4054,济宁市,市第七中学,颗粒物(PM10),55,59,43,14,16,65,,53,53,11,13,5,6,0.3,0.4
2026-01-20T1400,4111A,116.6075,35.4566,济宁市,任和路,,35,35,42,15,15,59,,47,47,12,13,6,5,0.6,0.6
2026-01-20T1400,4112A,116.5648,35.3921,济宁市,文体南路1号,,36,36,40,10,16,61,,50,50,9,10,5,3,0.4,0.4
2026-01-20T1400,2255A,130.2749,46.8028,佳木斯市,佳纺,,,42,38,,27,51,,43,43,,15,7,7,0.6,0.5
2026-01-20T1400,2257A,130.3258,46.7975,佳木斯市,环保局,,29,22,28,20,25,60,,52,52,9,15,7,8,0.4,0.5
2026-01-20T1400,4285A,130.363,46.806,佳木斯市,顺和街,,29,20,28,20,22,54,,48,48,13,16,6,7,0.4,0.4
2026-01-20T1400,4286A,130.3952,46.8268,佳木斯市,长安路196号,,23,19,27,16,23,56,,50,50,9,13,6,7,0.4,0.5
2026-01-20T1400,1252A,120.7439,30.778,嘉兴市,清河小学,,37,37,51,18,12,43,,68,47,18,10,4,4,0.9,0.6
2026-01-20T1400,1253A,120.7261,30.7477,嘉兴市,嘉兴学院,,39,39,31,21,12,41,,69,47,23,15,4,4,0.9,0.7
2026-01-20T1400,2872A,120.7845,30.7524,嘉兴市,南湖区残联,,32,26,22,22,12,48,,69,50,16,11,3,3,0.9,0.7
2026-01-20T1400,3407A,120.6915,30.7741,嘉兴市,秀洲住建,,,31,23,24,15,43,,66,47,,15,,5,0.6,0.6
2026-01-20T1400,1945A,98.291,39.7705,嘉峪关市,气象局,颗粒物(PM10),65,80,59,34,22,52,,42,42,13,14,10,10,0.5,0.4
2026-01-20T1400,2884A,98.2672,39.7978,嘉峪关市,酒钢宾馆,颗粒物(PM10),65,80,61,34,21,53,,40,40,12,15,15,13,1.0,0.7
2026-01-20T1400,3248A,98.2644,39.7723,嘉峪关市,雄关区,,47,47,45,25,21,54,,40,39,17,18,12,8,0.6,0.5
2026-01-20T1400,1383A,113.1063,22.6058,江门市,北街,细颗粒物(PM2.5),68,62,50,49,30,49,,62,58,59,24,/,/,/,/
2026-01-20T1400,1384A,113.073,22.5835,江门市,西区,颗粒物(PM10),51,52,57,33,30,64,,58,52,43,31,/,/,/,/
2026-01-20T1400,1385A,113.0218,22.531,江门市,圭峰西,颗粒物(PM10),59,67,49,28,29,96,,75,75,19,18,/,/,/,/
2026-01-20T1400,1386A,113.0826,22.5947,江门市,东湖,颗粒物(PM10),63,75,51,25,32,65,,71,70,34,19,7,6,0.6,0.5
2026-01-20T1400,3311A,113.1077,22.5647,江门市,江海富民,颗粒物(PM10),60,69,68,26,31,76,,81,68,34,25,/,/,0.6,0.6
2026-01-20T1400,3449A,113.0496,22.4669,江门市,新会银湖,,47,47,52,23,34,88,,52,52,23,31,6,7,0.3,0.4
2026-01-20T1400,3335A,113.3137,35.2643,焦作市,马村街道办,细颗粒物(PM2.5),73,60,87,53,41,57,,39,39,16,18,7,6,0.5,0.5
2026-01-20T1400,3336A,113.2464,35.2374,焦作市,焦作技师学院,细颗粒物(PM2.5),70,56,77,51,48,57,,38,38,13,18,9,10,0.8,1
2026-01-20T1400,3477A,113.1656,35.2536,焦作市,中站许衡医院,颗粒物(PM10),68,86,76,47,51,58,,39,39,16,21,8,5,0.7,0.8
2026-01-20T1400,3981A,113.2456,35.18,焦作市,原李万街道办,颗粒物(PM10),51,51,59,34,34,65,,48,48,15,18,6,4,0.4,0.5
2026-01-20T1400,4264A,113.234,35.219,焦作市,新安路1731号,细颗粒物(PM2.5),65,66,87,47,47,60,,42,42,12,16,7,5,0.5,0.6
2026-01-20T1400,4295A,113.2722,35.2121,焦作市,人民路3066号,细颗粒物(PM2.5),62,53,57,44,39,54,,39,39,15,19,6,4,0.9,0.9
2026-01-20T1400,1708A,116.3701,23.5345,揭阳市,新兴,颗粒物(PM10),51,51,50,24,26,95,,75,75,20,28,8,9,0.4,0.5
2026-01-20T1400,1709A,116.3261,23.5442,揭阳市,西马,颗粒物(PM10),53,55,55,26,26,82,,71,71,20,18,4,6,0.4,0.5
2026-01-20T1400,1710A,116.361,23.5627,揭阳市,东兴,颗粒物(PM10),52,54,51,32,28,84,,,,16,16,9,10,/,/
2026-01-20T1400,1711A,116.4151,23.5295,揭阳市,渔湖,,38,38,47,22,24,91,,69,69,13,21,5,5,/,/
2026-01-20T1400,3320A,116.4028,23.5699,揭阳市,曲溪,,47,47,54,23,27,91,,64,64,17,23,4,6,0.5,0.6
2026-01-20T1400,1944A,102.1691,38.5166,金昌市,天庆家园,,,112,88,65,40,51,,37,37,,16,,19,0.6,0.8
2026-01-20T1400,4022A,102.1648,38.5369,金昌市,金川区人防中心,颗粒物(PM10),106,161,85,70,32,70,,44,44,20,12,155,21,0.9,0.7
2026-01-20T1400,4239A,102.193042,38.531887,金昌市,长春路96号,颗粒物(PM10),78,105,78,48,26,45,,35,35,13,11,66,14,1.0,0.7
2026-01-20T1400,1262A,119.6478,29.0773,金华市,十五中,,15,13,15,7,12,46,,58,54,15,17,4,3,0.6,0.5
2026-01-20T1400,1263A,119.6859,29.1032,金华市,监测站,,,19,17,15,10,46,,58,57,,21,6,2,0.6,0.6
2026-01-20T1400,3659A,119.656,29.1132,金华市,气象局,,15,14,15,6,6,46,,47,47,17,20,2,2,0.5,0.5
2026-01-20T1400,1767A,121.1114,41.0879,锦州市,南山,,30,30,36,13,14,70,,50,50,6,12,8,10,0.4,0.6
2026-01-20T1400,1768A,121.060361,40.842794,锦州市,开发区,,32,32,49,14,16,64,,42,42,6,25,13,26,0.4,0.5
2026-01-20T1400,1769A,121.1836,41.1118,锦州市,百股街道,,32,32,40,3,15,66,,49,49,5,14,6,11,0.6,0.7
2026-01-20T1400,1770A,121.1176,41.1224,锦州市,天安街道,,24,21,34,11,12,74,,57,57,6,13,4,6,0.6,0.7
2026-01-20T1400,1771A,121.1303,41.1385,锦州市,北湖公园,,,,34,,14,69,,54,54,,7,7,10,0.4,0.6
2026-01-20T1400,2160A,112.8496,35.5051,晋城市,自来水公司,细颗粒物(PM2.5),64,62,87,46,47,49,,33,33,16,21,4,3,0.8,0.8
2026-01-20T1400,2162A,112.8509,35.4886,晋城市,市环保局,细颗粒物(PM2.5),52,47,66,36,45,56,,38,38,15,20,4,3,0.8,0.8
2026-01-20T1400,3620A,112.8258,35.4804,晋城市,泽州一中,颗粒物(PM10),53,56,63,36,43,58,,39,39,13,20,3,2,0.7,0.7
2026-01-20T1400,4078A,112.8246,35.5152,晋城市,前书院路,,48,48,76,22,38,50,,32,32,15,20,4,3,0.6,0.6
2026-01-20T1400,4079A,112.8864,35.4773,晋城市,祥云街666号,,,56,58,35,51,47,,34,34,,12,2,2,0.6,0.6
2026-01-20T1400,2174A,112.6992,37.6984,晋中市,榆次区政府,颗粒物(PM10),54,58,48,29,17,46,,34,34,29,30,21,12,1.1,0.3
2026-01-20T1400,2865A,112.7195,37.683,晋中市,榆次三中,颗粒物(PM10),52,53,52,24,16,47,,30,30,24,23,21,12,0.8,0.3
2026-01-20T1400,4080A,112.7375,37.7215,晋中市,广安街188号,,46,46,55,26,26,49,,33,33,27,29,24,11,0.9,0.4
2026-01-20T1400,4200A,112.7478,37.6954,晋中市,迎宾街26号,颗粒物(PM10),52,53,50,27,22,50,,36,36,22,25,22,11,1.1,0.6
2026-01-20T1400,2439A,112.2012,31.048,荆门市,竹园小学,细颗粒物(PM2.5),78,62,118,57,47,60,,49,49,21,22,1,1,0.2,0.3
2026-01-20T1400,2440A,112.1968,30.9892,荆门市,掇刀,细颗粒物(PM2.5),77,71,71,56,45,52,,41,41,14,14,3,2,0.5,0.5
2026-01-20T1400,3012A,112.1849,31.0361,荆门市,西山林语,细颗粒物(PM2.5),74,68,63,54,44,53,,41,41,14,16,8,3,0.7,0.7
2026-01-20T1400,3547A,112.1631,31.0134,荆门市,龙泉中学南校,细颗粒物(PM2.5),79,62,65,58,52,59,,46,46,4,7,2,2,1.1,1.1
2026-01-20T1400,4124A,112.2213,31.0654,荆门市,新台西路6号,细颗粒物(PM2.5),90,74,111,67,60,56,,42,42,8,11,8,7,0.7,0.7
2026-01-20T1400,1844A,112.2493,30.3198,荆州市,市图书馆,细颗粒物(PM2.5),85,,61,63,50,50,,39,39,16,16,5,4,0.9,0.8
2026-01-20T1400,1845A,112.2009,30.3543,荆州市,市委党校,细颗粒物(PM2.5),83,,52,61,49,43,,33,33,15,16,3,2,0.9,0.8
2026-01-20T1400,3194A,112.2749,30.3124,荆州市,管委会,细颗粒物(PM2.5),77,57,53,56,47,50,,38,38,16,16,5,4,0.8,0.8
2026-01-20T1400,4268A,112.1722,30.3366,荆州市,学苑路85号,细颗粒物(PM2.5),75,56,37,55,40,54,,42,,14,11,8,7,0.7,0.7
2026-01-20T1400,2343A,117.2114,29.2931,景德镇市,老干部活动中心,,18,12,14,12,9,34,,33,33,6,9,4,4,0.5,0.6
2026-01-20T1400,2344A,117.1893,29.2789,景德镇市,兽医站,,16,16,23,9,8,40,,40,40,8,11,4,4,0.5,0.5
2026-01-20T1400,2346A,117.246,29.2958,景德镇市,陶研所,,18,,10,12,9,39,,37,37,7,9,3,3,0.4,0.5
2026-01-20T1400,4289A,117.154766,29.256967,景德镇市,青少年活动中心,,13,10,15,7,10,40,,40,40,9,11,3,2,/,/
2026-01-20T1400,1803A,115.9873,29.6816,九江市,十里,,,,17,,17,54,,65,58,18,15,5,4,0.7,0.8
2026-01-20T1400,1804A,115.9583,29.7047,九江市,茅山头,,42,,19,29,16,56,,50,50,7,8,7,6,0.7,0.6
2026-01-20T1400,1805A,115.9877,29.7295,九江市,西园,,32,,16,22,11,62,,56,56,16,19,3,3,0.5,0.6
2026-01-20T1400,1808A,115.9112,29.6038,九江市,综合工业园,,43,,17,30,15,55,,53,53,16,16,1,1,0.9,0.7
2026-01-20T1400,3190A,116.0254,29.6995,九江市,外国语学校,,39,35,19,27,16,47,,44,43,12,12,7,7,0.7,0.7
2026-01-20T1400,4253A,116.010205,29.659402,九江市,莲花大道8号,,42,39,29,29,11,46,,42,42,4,5,3,3,0.8,0.5
2026-01-20T1400,4240A,98.495752,39.733935,酒泉市,玉门东路5号,颗粒物(PM10),59,68,52,20,20,63,,50,45,3,7,10,9,0.4,0.5
2026-01-20T1400,4241A,98.5099,39.7506,酒泉市,北大街108号,颗粒物(PM10),56,61,49,22,18,60,,51,47,6,9,9,8,0.3,0.4
2026-01-20T1400,2698A,76.0071,39.466,喀什地区,巡警大队,颗粒物(PM10),92,134,885,27,178,7,,59,41,9,12,40,5,0.2,0.6
2026-01-20T1400,2699A,75.9756,39.4693,喀什地区,吾办,颗粒物(PM10),500,692,774,158,188,57,,63,56,10,10,4,5,0.5,0.5
2026-01-20T1400,4027A,75.9485,39.4688,喀什地区,老干局,颗粒物(PM10),500,831,938,133,167,54,,55,49,7,10,2,2,0.3,0.4
2026-01-20T1400,1824A,114.3389,34.778,开封市,肿瘤医院,,37,37,67,19,35,68,,49,49,17,22,5,5,0.4,0.7
2026-01-20T1400,1826A,114.2884,34.7966,开封市,世纪星幼儿园,,41,41,51,19,38,66,,44,,14,19,8,6,0.5,0.6
2026-01-20T1400,3147A,114.3434,34.8101,开封市,龙亭公园,,43,43,47,11,35,81,,56,56,16,20,8,7,0.4,0.7
2026-01-20T1400,3210A,114.3645,34.7955,开封市,汴京公园,颗粒物(PM10),54,57,56,18,34,68,,48,48,15,15,6,4,0.2,0.6
2026-01-20T1400,3473A,114.2485,34.8306,开封市,技师学院,,36,36,53,19,36,64,,44,44,14,17,8,7,0.7,0.9
2026-01-20T1400,3592A,114.4518,34.7503,开封市,祥符区生态环境局,,40,40,101,15,36,66,,47,47,16,26,14,6,0.3,0.9
2026-01-20T1400,1951A,84.886,45.6029,克拉玛依市,长征新村,细颗粒物(PM2.5),52,,34,36,26,47,,36,36,14,21,7,5,0.4,0.5
2026-01-20T1400,1952A,84.8894,45.5827,克拉玛依市,南林小区,,36,36,33,20,19,43,,33,33,22,17,5,3,0.8,0.7
2026-01-20T1400,1954A,84.896,44.3328,克拉玛依市,独山子区,细颗粒物(PM2.5),92,98,77,68,52,80,,66,52,18,36,8,5,0.5,0.6
2026-01-20T1400,1955A,85.6888,46.0909,克拉玛依市,乌尔禾区商贸楼,,33,33,32,13,24,48,,26,26,20,33,7,6,0.7,0.7
2026-01-20T1400,3612A,85.1045,45.6895,克拉玛依市,白碱滩区新站,,49,49,45,10,21,31,,15,15,30,33,10,8,0.3,0.3
2026-01-20T1400,2697A,76.1457,39.7143,克孜勒苏柯尔克孜自治州,市人民政府,颗粒物(PM10),500,895,947,163,193,53,,63,49,7,7,3,3,0.4,0.3
2026-01-20T1400,3665A,76.1654,39.7157,克孜勒苏柯尔克孜自治州,克州文化中心,颗粒物(PM10),500,853,950,156,186,51,,62,48,6,6,2,2,0.4,0.4
2026-01-20T1400,1450A,102.8203,24.889,昆明市,呈贡新区,,,,32,,20,83,,49,49,,24,5,6,0.3,0.8
2026-01-20T1400,1452A,102.7253,25.0904,昆明市,龙泉镇,,27,15,42,12,21,85,,41,41,11,37,7,5,0.4,0.5
2026-01-20T1400,1453A,102.7267,25.0378,昆明市,东风东路,,34,34,37,21,22,88,,50,44,16,22,11,7,0.4,0.4
2026-01-20T1400,1454A,102.6744,25.0671,昆明市,金鼎山,,28,28,35,3,18,83,,56,56,9,21,4,6,0.6,0.7
2026-01-20T1400,1455A,102.6643,25.0401,昆明市,碧鸡广场,,29,16,35,10,20,90,,53,53,9,29,6,7,0.3,0.5
2026-01-20T1400,3179A,102.7491,25.012,昆明市,官渡区博物馆,,34,34,38,15,23,94,,44,44,14,25,8,5,0.4,0.6
2026-01-20T1400,3375A,102.8016,24.8336,昆明市,青年创业园,,30,13,28,10,17,95,,53,53,6,16,6,5,0.5,0.6
2026-01-20T1400,3550A,102.8,24.9787,昆明市,昆明学院,,31,31,36,17,20,92,,54,52,11,18,6,5,0.3,0.4
2026-01-20T1400,3551A,102.5969,24.6738,昆明市,晋宁区生态环境分局,,16,11,34,3,17,51,,38,38,3,12,3,3,0.4,0.6
2026-01-20T1400,3552A,102.6673,24.9861,昆明市,云天化总部,,29,23,28,14,17,92,,51,51,12,22,10,8,0.4,0.4
2026-01-20T1400,1456A,91.132,29.6515,拉萨市,八廓街,,28,23,25,14,14,87,,61,61,10,20,7,7,0.3,0.5
2026-01-20T1400,1457A,91.1221,29.6748,拉萨市,市环保局,,27,21,43,13,21,85,,53,53,12,32,7,10,0.6,1.2
2026-01-20T1400,1458A,91.0874,29.6476,拉萨市,区监测站,,26,14,20,8,11,82,,53,53,12,32,5,5,0.8,1
2026-01-20T1400,1459A,91.1774,29.6541,拉萨市,西藏大学,,28,18,22,7,12,89,,64,64,15,21,5,5,0.5,0.7
2026-01-20T1400,1460A,90.9798,29.6586,拉萨市,区辐射站,,23,19,44,10,25,73,,46,46,17,36,4,5,0.5,0.8
2026-01-20T1400,1461A,91.0831,29.6292,拉萨市,拉萨火车站,,24,14,19,8,11,75,,38,34,15,29,5,5,0.3,0.6
2026-01-20T1400,2520A,109.2203,23.7252,来宾市,来宾技工学校,,29,29,61,3,36,14,,29,20,8,16,8,9,1.0,0.9
2026-01-20T1400,3535A,109.1781,23.7293,来宾市,兴宾区政府,,48,48,62,17,42,21,,36,26,12,14,5,7,0.8,0.8
2026-01-20T1400,4002A,109.2312,23.7428,来宾市,中南小学,,,,64,,38,14,,31,21,,25,5,6,0.9,0.9
2026-01-20T1400,1479A,103.8309,36.0467,兰州市,铁路设计院,,,,,,,,,,,,,,,,
2026-01-20T1400,3241A,103.7439,36.0841,兰州市,百合公园,颗粒物(PM10),57,64,66,27,26,38,,22,19,30,24,16,10,1.1,0.9
2026-01-20T1400,3242A,103.9613,35.9985,兰州市,和平,细颗粒物(PM2.5),68,84,70,49,33,58,,32,32,17,23,13,11,1.0,0.9
2026-01-20T1400,4236A,103.629272,36.093822,兰州市,庄浪东路808号,颗粒物(PM10),78,106,76,46,33,46,,34,28,44,25,24,16,1.5,0.6
2026-01-20T1400,4237A,103.7251,36.104344,兰州市,安宁西路88号,颗粒物(PM10),82,113,75,51,29,42,,33,24,35,23,17,13,0.8,0.5
2026-01-20T1400,4238A,103.846982,36.067567,兰州市,北滨河东路1号,颗粒物(PM10),54,57,62,24,29,53,,33,33,20,23,13,10,0.8,0.7
2026-01-20T1400,1067A,116.6712,39.5109,廊坊市,药材公司,,,,19,8,6,60,,53,53,7,13,1,2,0.4,0.4
2026-01-20T1400,1068A,116.7215,39.5592,廊坊市,开发区,,22,22,16,3,7,65,,56,56,8,15,1,2,0.3,0.3
2026-01-20T1400,1070A,116.7246,39.5273,廊坊市,北华航天学院,,19,18,20,6,7,60,,54,54,9,14,1,2,0.3,0.2
2026-01-20T1400,2919A,116.7022,39.5454,廊坊市,河北工业大学,,20,17,19,8,7,63,,54,54,3,10,3,3,0.3,0.3
2026-01-20T1400,2536A,103.7629,29.5844,乐山市,牛耳桥,,32,32,24,21,17,37,,34,31,18,18,4,4,0.6,0.6
2026-01-20T1400,2537A,103.7501,29.6002,乐山市,市第三水厂,,32,32,24,19,14,41,,35,32,19,18,6,6,0.6,0.6
2026-01-20T1400,2538A,103.7571,29.5664,乐山市,市监测站,,30,29,22,21,18,39,,34,33,14,15,6,5,0.6,0.6
2026-01-20T1400,3361A,103.7313,29.563,乐山市,理工大学,,29,29,22,20,16,39,,35,32,14,14,6,5,0.5,0.4
2026-01-20T1400,2599A,100.2497,26.8802,丽江市,丽江古城,,25,21,22,9,7,80,,75,75,7,8,10,9,0.4,0.4
2026-01-20T1400,2600A,100.2203,26.8906,丽江市,市中心,,26,16,13,3,5,82,,79,77,7,9,6,6,0.4,0.4
2026-01-20T1400,1267A,119.9141,28.4513,丽水市,监测站大楼,,17,8,9,3,5,52,,48,48,14,15,4,4,0.4,0.5
2026-01-20T1400,1268A,119.93,28.4589,丽水市,莲都小学,,17,12,11,9,7,52,,48,48,13,18,/,/,/,/
2026-01-20T1400,1269A,119.8794,28.4232,丽水市,余庄前,,15,15,13,9,8,45,,44,42,19,17,4,4,0.3,0.4
2026-01-20T1400,1173A,119.1759,34.5885,连云港市,市环境监测站,,36,36,33,22,19,57,,47,47,16,17,14,12,0.9,0.7
2026-01-20T1400,3000A,119.3577,34.6971,连云港市,德源药业,,44,44,43,22,19,58,,50,50,11,11,5,6,0.8,1
2026-01-20T1400,3007A,119.178,34.8442,连云港市,新城一中,颗粒物(PM10),51,52,41,26,20,62,,51,51,21,19,13,14,0.8,0.9
2026-01-20T1400,3008A,119.3607,34.7519,连云港市,胡沟管理处,,,24,28,17,16,61,,54,54,13,14,,11,1.0,1
2026-01-20T1400,3009A,119.1478,34.5913,连云港市,矿山设计院,,39,39,30,22,15,60,,51,51,11,11,13,11,1.0,0.7
2026-01-20T1400,3434A,119.2414,34.6539,连云港市,工贸学校,,45,45,44,22,19,61,,50,50,8,12,12,12,0.6,0.7
2026-01-20T1400,3664A,119.4171,34.734,连云港市,连云街道,颗粒物(PM10),60,70,47,23,16,59,,50,50,18,20,4,4,0.5,0.6
2026-01-20T1400,2573A,102.2629,27.8981,凉山彝族自治州,西昌市政府,细颗粒物(PM2.5),85,77,71,63,55,95,,51,51,16,20,10,9,0.8,0.8
2026-01-20T1400,2574A,102.2686,27.885,凉山彝族自治州,凉山州政府,,,112,91,62,59,95,,49,49,19,27,10,11,,0.8
2026-01-20T1400,4229A,102.2342,27.8859,凉山彝族自治州,凯乐南路30号,细颗粒物(PM2.5),89,87,80,66,54,84,,50,47,26,28,9,9,0.8,0.7
2026-01-20T1400,2212A,123.1978,41.2036,辽阳市,宏伟区,,36,36,64,21,29,65,,54,54,5,16,6,10,0.3,0.6
2026-01-20T1400,2213A,123.1684,41.2497,辽阳市,新华园,,21,21,69,10,26,61,,51,51,8,27,4,15,0.2,0.5
2026-01-20T1400,2214A,123.2355,41.2663,辽阳市,滨河路,,30,30,65,17,26,56,,41,41,10,26,7,7,0.5,0.5
2026-01-20T1400,4083A,123.153,41.2874,辽阳市,铁西路150号,,21,21,72,6,37,67,,44,44,7,31,8,10,0.5,1.1
2026-01-20T1400,2227A,125.1359,42.8845,辽源市,环保局,,25,25,54,8,26,61,,43,43,5,33,5,6,0.3,0.8
2026-01-20T1400,4085A,125.0998,42.9134,辽源市,安宁大街333号,,30,30,44,8,27,62,,38,38,5,20,6,6,0.4,0.7
2026-01-20T1400,1625A,115.9789,36.4372,聊城市,区政府,,27,27,36,9,11,61,,51,51,14,19,10,12,0.5,0.6
2026-01-20T1400,3200A,115.9772,36.4986,聊城市,监控中心,,22,18,33,12,14,68,,50,50,16,22,8,8,0.7,0.7
2026-01-20T1400,3513A,116.0443,36.436,聊城市,九州社区,,38,38,44,18,14,74,,62,62,9,8,11,5,0.6,0.5
2026-01-20T1400,4018A,116.0564,36.4609,聊城市,星美广场,,34,34,49,12,13,65,,49,49,9,14,10,10,0.5,0.4
2026-01-20T1400,4113A,116.0091,36.4495,聊城市,利民路,,20,10,34,7,8,62,,47,47,17,22,8,9,0.7,0.7
2026-01-20T1400,2632A,94.3683,29.6373,林芝市,林芝监测站,,26,13,18,3,9,81,,75,65,2,3,3,3,0.4,0.4
2026-01-20T1400,2633A,94.3616,29.6634,林芝市,林芝人民医院,,25,11,24,3,11,78,,69,62,6,7,2,2,0.4,0.4
2026-01-20T1400,2603A,100.0779,23.8981,临沧市,市环保局,,42,35,86,29,73,88,,40,40,6,19,5,6,0.6,1
2026-01-20T1400,2604A,100.0894,23.882,临沧市,市气象局,,34,34,92,12,68,86,,34,34,5,18,5,7,0.3,0.9
2026-01-20T1400,1733A,111.5552,36.0791,临汾市,临钢医院,,30,30,37,12,16,54,,37,37,15,17,5,3,0.7,0.8
2026-01-20T1400,1734A,111.4984,36.0734,临汾市,技工学校,,26,26,39,15,18,52,,38,38,16,17,4,3,0.4,0.4
2026-01-20T1400,1736A,111.5017,36.0857,临汾市,市委,,27,27,40,12,9,56,,41,41,14,16,6,5,0.8,0.7
2026-01-20T1400,3018A,111.5048,36.1015,临汾市,唐尧大酒店,,36,36,50,14,11,57,,42,42,15,17,3,2,0.6,0.6
2026-01-20T1400,4244A,111.4879,36.053,临汾市,启星学校,,,,39,15,17,57,,41,41,,17,,4,0.9,0.7
2026-01-20T1400,4271A,103.2464,35.6123,临夏回族自治州,滨河东路1号,颗粒物(PM10),78,105,113,44,48,51,,24,24,17,24,11,8,0.6,0.9
2026-01-20T1400,4310A,103.207136,35.599807,临夏回族自治州,新华街21号,颗粒物(PM10),72,94,97,46,39,61,,34,31,20,19,10,11,0.7,0.7
2026-01-20T1400,1618A,118.3429,35.0532,临沂市,沂河小区,,34,34,40,19,25,63,,54,54,11,16,11,10,0.6,0.6
2026-01-20T1400,1619A,118.2962,35.0568,临沂市,鲁南制药厂,,31,31,36,19,23,64,,55,55,11,15,12,10,0.6,0.5
2026-01-20T1400,1620A,118.2793,34.9976,临沂市,新光毛纺厂,,29,29,34,20,21,58,,54,53,14,19,10,9,0.6,0.6
2026-01-20T1400,1621A,118.3955,35.0889,临沂市,河东保险公司,,27,27,33,14,18,71,,60,60,10,14,13,10,0.6,0.6
2026-01-20T1400,3370A,118.3563,35.0215,临沂市,十里堡居委,,,29,34,,10,74,,63,63,9,17,12,10,0.5,0.5
2026-01-20T1400,3496A,118.359,35.1067,临沂市,南坊新区,,,31,38,14,20,68,,57,57,12,15,12,10,,1.1
2026-01-20T1400,3860A,118.3915,35.0297,临沂市,皇山花园小区,,36,36,37,17,17,69,,59,59,15,19,13,11,0.6,0.6
2026-01-20T1400,1870A,109.4854,24.3898,柳州市,柳东小学,,23,21,48,16,37,11,,39,20,11,16,7,8,0.7,0.8
2026-01-20T1400,1871A,109.4109,24.3304,柳州市,环保监测站,,9,6,51,3,26,13,,35,16,16,18,4,5,0.9,1
2026-01-20T1400,1872A,109.3886,24.3408,柳州市,河西水厂,,18,16,47,12,32,7,,35,11,20,18,9,6,1.2,1
2026-01-20T1400,1873A,109.4263,24.2951,柳州市,市四中,,,,43,5,29,13,,35,18,18,24,8,11,0.9,0.9
2026-01-20T1400,1874A,109.396,24.3658,柳州市,市九中,,10,8,45,7,31,11,,33,12,15,18,8,10,0.7,0.7
2026-01-20T1400,1875A,109.4912,24.3164,柳州市,古亭山,,10,10,48,3,26,13,,35,20,15,21,6,8,0.8,0.8
2026-01-20T1400,3402A,109.5422,24.3994,柳州市,市二中,,15,,31,10,27,14,,33,20,14,17,7,9,0.7,0.7
2026-01-20T1400,2307A,116.5078,31.7369,六安市,监测大楼,,49,36,30,34,29,63,,52,52,16,17,2,2,0.3,0.4
2026-01-20T1400,2308A,116.4738,31.7642,六安市,皖西学院,,48,33,35,33,27,71,,59,59,14,16,4,4,0.4,0.4
2026-01-20T1400,2309A,116.4997,31.7904,六安市,朝阳厂,,40,37,32,28,27,68,,56,56,12,15,3,4,0.4,0.5
2026-01-20T1400,2310A,116.5566,31.7885,六安市,开发区,,46,38,26,32,30,71,,60,60,12,13,3,3,0.3,0.3
2026-01-20T1400,2577A,104.8293,26.592,六盘水市,黄土坡,,22,21,37,15,29,36,,46,28,15,16,9,8,1.0,0.8
2026-01-20T1400,2579A,104.8481,26.5898,六盘水市,民中,,,35,40,,30,28,,47,25,15,15,3,5,0.8,0.8
2026-01-20T1400,2580A,104.9541,26.5506,六盘水市,双水,,19,19,36,13,25,39,,49,29,9,12,3,4,0.8,0.7
2026-01-20T1400,4151A,104.8899,26.5685,六盘水市,钟山大道中段564号,,29,29,41,16,24,33,,42,25,12,12,6,6,0.8,0.8
2026-01-20T1400,2336A,117.022,25.1031,龙岩市,龙岩市监测站,,45,42,47,31,31,104,,70,70,14,25,10,12,0.5,0.6
2026-01-20T1400,2337A,117.0257,25.0662,龙岩市,闽西职业技术学院,,48,48,47,30,33,101,,61,60,14,20,9,10,0.6,0.7
2026-01-20T1400,2338A,117.0195,25.0306,龙岩市,龙岩学院,细颗粒物(PM2.5),57,46,43,40,32,98,,67,59,13,16,11,11,/,/
2026-01-20T1400,2885A,104.9344,33.3827,陇南市,滨江中学,颗粒物(PM10),55,60,66,28,30,46,,37,33,13,15,3,4,0.8,0.7
2026-01-20T1400,3247A,104.9551,33.3709,陇南市,市总工会,颗粒物(PM10),57,63,65,30,28,46,,40,35,11,13,6,7,0.6,0.5
2026-01-20T1400,2488A,111.9984,27.7346,娄底市,市监测站,,35,31,16,24,16,35,,34,34,18,15,6,6,0.6,0.5
2026-01-20T1400,2491A,111.9888,27.7035,娄底市,市政府,,43,31,15,30,16,35,,32,32,12,14,5,4,0.7,0.7
2026-01-20T1400,4127A,111.9812,27.7591,娄底市,涟钢职大,,38,29,20,26,12,38,,34,34,9,11,3,3,0.6,0.6
2026-01-20T1400,4128A,112.0303,27.7457,娄底市,娄底体校,,45,,17,31,9,33,,30,30,9,11,2,2,0.3,0.3
2026-01-20T1400,1894A,105.4427,28.9063,泸州市,小市上码头,,12,9,44,8,38,21,,22,20,13,15,4,5,1.0,1.1
2026-01-20T1400,1895A,105.4241,28.8573,泸州市,兰田宪桥,,11,10,36,3,41,27,,26,23,3,6,6,7,1.1,1.1
2026-01-20T1400,1896A,105.4378,28.8833,泸州市,市环监站,,10,9,47,3,31,25,,27,24,12,12,8,9,1.0,1
2026-01-20T1400,4272A,105.3689,28.7783,泸州市,纳溪中医医院,,13,13,50,6,35,25,,26,26,10,10,7,7,0.9,1
2026-01-20T1400,2183A,111.1447,37.5212,吕梁市,环保局,,,,,,,,,,,,,,,,
2026-01-20T1400,2185A,111.1285,37.5338,吕梁市,自来水公司,颗粒物(PM10),54,58,57,14,19,44,,22,22,20,22,6,5,0.5,0.5
2026-01-20T1400,2867A,111.1225,37.5093,吕梁市,马茂庄小学,,48,48,49,12,17,45,,19,19,18,23,6,5,0.3,0.3
2026-01-20T1400,1812A,112.3934,34.6517,洛阳市,市委党校,细颗粒物(PM2.5),94,,48,70,51,37,,38,32,23,21,10,8,0.9,0.8
2026-01-20T1400,1815A,112.494,34.6883,洛阳市,河南林校,细颗粒物(PM2.5),78,70,50,57,41,49,,40,40,17,19,9,7,0.7,0.7
2026-01-20T1400,1816A,112.3843,34.623,洛阳市,开发区管委会,细颗粒物(PM2.5),78,68,52,57,44,42,,40,35,19,20,11,10,0.7,0.7
2026-01-20T1400,1817A,112.4263,34.6249,洛阳市,市委新办公区,细颗粒物(PM2.5),89,68,52,66,49,38,,39,35,24,23,8,7,0.6,0.6
2026-01-20T1400,3340A,112.6005,34.6323,洛阳市,伊滨,细颗粒物(PM2.5),92,,53,68,50,52,,42,42,15,16,8,6,0.8,0.7
2026-01-20T1400,3341A,112.495,34.6338,洛阳市,中移产业园,细颗粒物(PM2.5),93,69,51,69,47,39,,35,35,22,18,8,8,0.7,0.6
2026-01-20T1400,3593A,112.5736,34.8993,洛阳市,吉利监测站,细颗粒物(PM2.5),84,,62,62,42,60,,44,44,14,18,11,7,0.9,0.8
2026-01-20T1400,3635A,112.3678,34.6623,洛阳市,河科大西苑校区,,,,49,,42,52,,43,41,14,24,10,8,0.6,0.9
2026-01-20T1400,3636A,112.4387,34.678,洛阳市,英才小学,细颗粒物(PM2.5),100,76,52,75,51,42,,38,37,23,22,8,8,0.8,0.7
2026-01-20T1400,4214A,112.460027,34.694929,洛阳市,春都路1号院,细颗粒物(PM2.5),73,79,58,53,38,49,,41,41,14,14,7,7,0.9,0.8
2026-01-20T1400,2399A,114.051,33.5721,漯河市,三五一五工厂,,,60,63,20,42,72,,53,53,,12,,6,0.4,0.8
2026-01-20T1400,2400A,114.0055,33.5698,漯河市,漯河大学,,41,41,50,22,43,70,,51,51,6,9,6,5,0.5,0.7
2026-01-20T1400,2401A,114.0134,33.5826,漯河市,市水利局,,39,36,49,27,48,64,,48,48,13,16,4,4,0.5,0.7
2026-01-20T1400,2402A,114.0261,33.5697,漯河市,市广电局,,44,44,50,24,42,70,,52,52,9,12,7,6,0.5,0.7
2026-01-20T1400,3478A,113.9691,33.568,漯河市,市图书馆,,,79,92,65,55,62,,46,46,,13,5,4,0.7,1
2026-01-20T1400,4250A,114.089259,33.588274,漯河市,韶山路11号,,47,47,54,26,45,68,,48,48,3,9,6,6,0.7,0.9
2026-01-20T1400,1798A,118.5084,31.6838,马鞍山市,湖东路四小,颗粒物(PM10),55,59,56,38,21,46,,48,43,23,17,4,3,0.7,0.6
2026-01-20T1400,1799A,118.5019,31.6449,马鞍山市,开发区,细颗粒物(PM2.5),55,48,56,39,22,48,,50,46,28,17,4,3,0.6,0.5
2026-01-20T1400,3633A,118.4914,31.681,马鞍山市,雨山,细颗粒物(PM2.5),54,51,42,38,20,48,,48,45,23,16,6,5,0.9,0.7
2026-01-20T1400,4191A,118.527362,31.722269,马鞍山市,慈湖高新区,细颗粒物(PM2.5),57,62,35,40,22,43,,49,43,30,19,5,4,0.8,0.5
2026-01-20T1400,1686A,111.0285,21.469,茂名市,电白南海,颗粒物(PM10),52,53,54,19,27,106,,97,97,11,14,9,9,0.7,0.8
2026-01-20T1400,1687A,110.9294,21.6533,茂名市,茂石化七小,颗粒物(PM10),52,53,56,17,25,104,,92,92,10,16,5,7,0.7,0.7
2026-01-20T1400,1688A,110.9108,21.6688,茂名市,健康路,,41,41,47,17,25,117,,102,102,12,19,7,9,0.6,0.7
2026-01-20T1400,1689A,110.8592,21.6826,茂名市,高岭,颗粒物(PM10),70,90,72,19,25,116,,107,104,12,20,6,13,/,/
2026-01-20T1400,3450A,111.0101,21.5165,茂名市,电白水东,,41,41,46,12,25,103,,98,98,8,10,7,9,/,/
2026-01-20T1400,2540A,103.8414,30.0871,眉山市,气象局,,35,,38,24,16,51,,35,31,15,19,11,11,0.6,0.6
2026-01-20T1400,3148A,103.829,30.0563,眉山市,区人社局,,34,34,39,17,12,44,,28,26,16,19,6,7,0.6,0.5
2026-01-20T1400,4148A,103.8836,30.0695,眉山市,眉职院,,35,35,20,16,6,49,,31,31,12,14,1,1,0.7,0.7
2026-01-20T1400,1690A,116.1248,24.3307,梅州市,梅江月梅,细颗粒物(PM2.5),67,59,61,48,49,63,,67,54,22,25,/,/,/,/
2026-01-20T1400,1691A,116.0798,24.2719,梅州市,梅县新城,细颗粒物(PM2.5),68,59,67,49,51,70,,55,55,20,34,9,9,0.7,0.8
2026-01-20T1400,3315A,116.1234,24.2994,梅州市,梅龙,颗粒物(PM10),57,63,65,39,42,65,,68,59,18,24,10,12,0.9,0.9
2026-01-20T1400,1878A,104.7775,31.4741,绵阳市,富乐山,,36,34,30,25,19,50,,46,46,9,10,7,7,0.4,0.4
2026-01-20T1400,1880A,104.6698,31.4668,绵阳市,高新区自来水公司,,41,41,32,27,19,48,,41,41,16,16,7,8,0.6,0.6
2026-01-20T1400,3491A,104.6899,31.5324,绵阳市,西科大附属小学,,43,43,32,25,14,50,,46,45,15,14,8,7,0.6,0.6
2026-01-20T1400,3492A,104.5647,31.5343,绵阳市,安州区旅游局,,40,40,32,24,20,44,,39,39,12,13,8,9,0.3,0.4
2026-01-20T1400,4146A,104.7092,31.4972,绵阳市,科技城新区公安局,,43,43,36,24,16,54,,48,48,11,12,8,8,0.8,0.8
2026-01-20T1400,4226A,104.765114,31.453094,绵阳市,绵阳市气象局,,36,29,29,25,18,45,,45,44,14,14,17,11,0.5,0.5
2026-01-20T1400,1784A,129.61,44.561,牡丹江市,环保大楼,,,28,37,16,22,57,,48,48,,12,3,3,0.3,0.3
2026-01-20T1400,1787A,129.6364,44.6075,牡丹江市,机车工厂,,33,33,45,11,20,58,,47,47,6,14,3,2,0.3,0.3
2026-01-20T1400,1788A,129.6386,44.5462,牡丹江市,第一中学,,25,25,35,13,23,55,,48,48,5,8,4,4,0.5,0.5
2026-01-20T1400,4287A,129.5992,44.5964,牡丹江市,东晓云街98号,,23,23,45,15,34,59,,41,41,5,18,4,5,0.5,0.6
2026-01-20T1400,2531A,105.0703,29.61,内江市,市监测站,,36,36,32,22,22,38,,43,38,14,12,5,5,0.8,0.8
2026-01-20T1400,2533A,105.0657,29.5807,内江市,内江二中,,,,42,,17,28,,34,29,21,20,,4,,0.8
2026-01-20T1400,2534A,105.0407,29.5828,内江市,内江日报社,,36,36,24,17,14,30,,34,31,20,18,7,7,0.7,0.7
2026-01-20T1400,4147A,105.0433,29.6105,内江市,玉峰路西段888号,,33,33,34,19,16,36,,38,35,15,15,1,2,0.9,0.8
2026-01-20T1400,2628A,92.0653,31.4846,那曲市,那曲监测站,,34,34,40,18,24,73,,38,38,10,23,6,10,0.6,1.3
2026-01-20T1400,4243A,92.0515,31.4787,那曲市,那曲市委宣传部,,25,7,24,3,14,80,,38,38,5,15,4,6,0.4,1
2026-01-20T1400,1291A,115.8887,28.7006,南昌市,省林业公司,,32,,16,22,14,52,,58,56,3,7,4,3,0.2,0.1
2026-01-20T1400,1292A,115.813,28.7443,南昌市,林科所,,28,,12,19,8,42,,39,39,18,15,3,5,0.4,0.4
2026-01-20T1400,1294A,115.8518,28.687,南昌市,建工学校,,,,23,28,14,31,,36,33,,20,6,11,0.6,0.8
2026-01-20T1400,1295A,115.8926,28.6425,南昌市,象湖,,,25,24,24,14,34,,44,42,,15,7,7,0.5,0.4
2026-01-20T1400,3046A,115.9084,28.6062,南昌市,机电学校,,39,30,33,27,15,40,,41,40,11,13,3,3,0.6,0.5
2026-01-20T1400,3690A,115.9718,28.7032,南昌市,外国语学校,,48,,46,33,21,40,,39,38,14,16,10,10,0.6,0.6
2026-01-20T1400,4106A,115.7923,28.6873,南昌市,工业二路,,46,46,55,15,6,40,,38,38,9,10,3,3,0.2,0.1
2026-01-20T1400,4192A,115.931587,28.686774,南昌市,南京东路235号,,39,30,40,27,12,41,,42,41,9,12,4,4,0.3,0.2
2026-01-20T1400,1906A,106.0791,30.8022,南充市,南充市委,,40,36,21,28,15,22,,26,22,23,22,4,4,0.8,0.8
2026-01-20T1400,1907A,106.1038,30.8215,南充市,南充炼油厂,,42,40,32,29,23,24,,28,24,18,17,5,5,1.0,1
2026-01-20T1400,4227A,106.108336,30.788436,南充市,梨树横街98号,,40,33,19,28,14,28,,32,29,17,17,5,5,0.7,0.7
2026-01-20T1400,4304A,106.1172,30.843,南充市,清泉寺北路188号,,23,,17,16,10,31,,33,31,11,16,6,6,0.7,0.6
2026-01-20T1400,4305A,106.067,30.7616,南充市,同庆路1号,,32,,18,22,15,21,,27,21,26,23,7,6,0.8,0.8
2026-01-20T1400,1151A,118.8033,32.1085,南京市,迈皋桥,,,55,35,17,17,68,,60,60,,4,4,3,0.6,0.7
2026-01-20T1400,1152A,118.7487,32.057,南京市,草场门,,35,34,25,24,20,42,,33,33,19,18,1,3,0.2,0.3
2026-01-20T1400,1154A,118.770105,32.004342,南京市,中华门,,39,39,26,22,20,56,,49,47,12,8,6,5,0.5,0.4
2026-01-20T1400,1155A,118.8059,32.0329,南京市,瑞金路,,39,36,22,27,20,53,,48,45,21,12,4,4,1.2,1.1
2026-01-20T1400,1156A,118.7946,32.0774,南京市,玄武湖,,32,32,26,14,14,56,,50,49,16,15,4,4,0.8,0.8
2026-01-20T1400,1157A,118.6415,32.0964,南京市,浦口,,35,35,48,24,21,58,,51,51,18,16,8,7,1.1,1.1
2026-01-20T1400,1158A,118.730129,32.000956,南京市,奥体中心,,42,36,26,29,21,70,,58,58,15,13,6,6,0.5,0.5
2026-01-20T1400,1159A,118.9072,32.1047,南京市,仙林大学城,颗粒物(PM10),51,51,26,22,17,54,,47,44,12,10,6,6,0.7,0.6
2026-01-20T1400,3422A,118.8443,31.919,南京市,江宁彩虹桥,,45,33,26,31,18,61,,61,56,23,13,3,3,0.6,0.5
2026-01-20T1400,3427A,118.8497,32.3599,南京市,六合雄州,,42,42,34,18,19,64,,55,55,14,10,4,3,0.4,0.3
2026-01-20T1400,4086A,118.7641,32.0841,南京市,新模范马路66号,,34,34,25,20,20,89,,75,75,2,2,4,4,1.3,1.2
2026-01-20T1400,4249A,118.8707617,31.34017673,南京市,汶溪路181号,,39,28,22,27,20,50,,54,52,20,16,4,6,0.7,0.7
2026-01-20T1400,4312A,119.019,31.6512,南京市,中山西路1号,,40,,22,28,20,50,,51,49,17,14,4,4,0.7,0.7
2026-01-20T1400,1401A,108.3098,22.788,南宁市,二十一中,,,89,51,59,37,65,,74,74,25,18,4,5,,0.7
2026-01-20T1400,1402A,108.3135,22.8529,南宁市,北湖,颗粒物(PM10),64,77,53,40,35,57,,74,74,22,20,6,3,0.9,0.7
2026-01-20T1400,1403A,108.3205,22.8222,南宁市,市监测站,颗粒物(PM10),71,92,51,46,34,58,,85,79,26,18,8,7,1.0,0.7
2026-01-20T1400,1404A,108.3828,22.8038,南宁市,大自然花园,颗粒物(PM10),78,106,56,49,36,68,,87,84,25,16,6,6,1.1,0.8
2026-01-20T1400,1406A,108.2397,22.8462,南宁市,区农职院,颗粒物(PM10),64,77,53,45,32,59,,83,79,26,22,9,8,1.0,0.8
2026-01-20T1400,1407A,108.3285,22.7356,南宁市,英华嘉园,细颗粒物(PM2.5),82,84,62,60,36,67,,77,77,55,26,53,8,1.2,0.8
2026-01-20T1400,3401A,108.4829,22.762,南宁市,红星社区,细颗粒物(PM2.5),90,107,61,67,41,70,,86,83,21,15,6,5,1.1,0.7
2026-01-20T1400,4132A,108.2927,23.1477,南宁市,起凤路9号,细颗粒物(PM2.5),60,58,53,43,39,60,,90,85,13,12,3,4,0.8,0.6
2026-01-20T1400,4221A,108.2177,22.7774,南宁市,乐贤路16号,细颗粒物(PM2.5),72,76,57,52,34,64,,67,67,27,24,5,5,0.9,0.8
2026-01-20T1400,2332A,118.1682,26.6371,南平市,南平市监测站,,25,13,30,6,20,80,,82,74,9,15,2,4,0.3,0.5
2026-01-20T1400,2334A,118.1757,26.6276,南平市,南平七中,,25,14,30,7,19,77,,83,75,8,13,2,3,0.5,0.5
2026-01-20T1400,1168A,120.9056,31.9669,南通市,狼山街道,,28,28,20,17,13,51,,58,50,11,7,2,2,0.3,0.3
2026-01-20T1400,1170A,120.8635,32.0231,南通市,城中,,32,32,22,21,12,50,,54,48,15,11,5,4,0.7,0.7
2026-01-20T1400,1171A,120.9376,31.9301,南通市,星湖花园,,28,28,20,16,12,58,,65,57,16,13,4,4,0.2,0.2
2026-01-20T1400,1172A,120.8053,32.046,南通市,紫琅学院,,32,30,21,22,12,53,,60,54,15,10,3,3,0.5,0.4
2026-01-20T1400,3291A,121.0631,32.0644,南通市,通州监测站,,35,24,17,24,11,55,,68,56,16,12,2,2,0.5,0.5
2026-01-20T1400,3432A,120.9348,31.9874,南通市,环境教育馆,,31,31,24,19,14,53,,60,52,15,10,3,3,0.5,0.4
2026-01-20T1400,4091A,120.8692,31.9885,南通市,洪江路,,30,23,18,21,12,51,,56,48,12,10,2,2,0.3,0.3
2026-01-20T1400,2404A,112.5338,33.0086,南阳市,瓦房庄,细颗粒物(PM2.5),84,,53,62,51,62,,48,48,12,13,7,6,0.8,0.8
2026-01-20T1400,2405A,112.5002,32.9734,南阳市,汉画馆,细颗粒物(PM2.5),70,60,52,51,45,62,,51,51,10,11,7,6,0.9,0.9
2026-01-20T1400,2406A,112.5778,33.0144,南阳市,气象站,细颗粒物(PM2.5),67,63,57,48,44,64,,49,49,13,15,5,4,0.6,0.6
2026-01-20T1400,2407A,112.548,32.9687,南阳市,理工学院,细颗粒物(PM2.5),64,57,51,46,39,62,,48,48,10,11,5,4,0.6,0.7
2026-01-20T1400,4008A,112.5233,32.9921,南阳市,卧龙区政府,细颗粒物(PM2.5),73,80,86,53,46,59,,48,48,10,18,6,5,0.6,0.6
2026-01-20T1400,1234A,121.8352,29.9111,宁波市,区环保大楼,,18,13,17,10,14,57,,62,56,16,22,4,4,0.6,0.6
2026-01-20T1400,1235A,121.5595,29.8208,宁波市,万里学院,,25,24,19,17,8,44,,66,56,23,12,2,3,0.5,0.5
2026-01-20T1400,1236A,121.713,29.9564,宁波市,龙赛医院,,18,18,20,7,6,45,,66,54,24,14,2,2,0.3,0.2
2026-01-20T1400,1240A,121.5855,29.8635,宁波市,太古小学,,26,26,16,12,6,46,,68,58,19,10,2,2,0.5,0.4
2026-01-20T1400,1241A,121.5239,29.8673,宁波市,市环境监测中心,,19,19,19,7,4,39,,60,51,23,13,5,5,0.5,0.5
2026-01-20T1400,2871A,121.6156,29.9015,宁波市,万里国际学校,,22,22,19,15,5,44,,69,58,25,15,2,2,0.6,0.5
2026-01-20T1400,3710A,121.5593,29.8976,宁波市,白沙活动中心,,18,18,19,11,7,43,,64,55,22,14,3,3,0.3,0.2
2026-01-20T1400,4095A,121.8962,29.7529,宁波市,中科路88号,,17,11,13,3,3,54,,71,62,21,14,4,4,0.2,0.2
2026-01-20T1400,2341A,119.5387,26.6611,宁德市,宁德市监测站,,18,17,22,8,12,56,,59,58,15,13,3,3,0.4,0.4
2026-01-20T1400,3209A,119.5231,26.6562,宁德市,宁德一中,,19,17,24,7,14,60,,60,60,13,13,3,3,0.3,0.3
2026-01-20T1400,2618A,98.859,25.8541,怒江傈僳族自治州,州监测站,,,,40,22,25,80,,47,47,6,12,,5,,0.5
2026-01-20T1400,2619A,98.8607,25.8168,怒江傈僳族自治州,泸水一中,,46,36,35,32,27,73,,38,38,7,17,6,6,0.4,0.6
2026-01-20T1400,1888A,101.6891,26.571,攀枝花市,弄弄坪,,49,36,100,34,62,96,,37,37,17,45,26,76,0.9,3.9
2026-01-20T1400,1889A,101.577,26.5914,攀枝花市,河门口,,39,39,70,22,41,93,,36,36,18,32,32,23,1.7,1.6
2026-01-20T1400,1891A,101.7365,26.4986,攀枝花市,仁和,,30,30,64,20,38,95,,42,42,10,28,9,15,0.6,1.6
2026-01-20T1400,2835A,101.7222,26.567,攀枝花市,四十中小,"颗粒物(PM10),细颗粒物(PM2.5)",57,64,76,40,49,88,,33,33,12,40,23,43,1.0,3
2026-01-20T1400,1604A,122.0303,41.1489,盘锦市,开发区,,27,27,52,14,19,64,,46,46,5,13,3,4,0.5,0.7
2026-01-20T1400,1605A,122.0486,41.0883,盘锦市,兴隆台,,24,24,56,14,21,62,,40,40,5,22,6,9,0.5,0.8
2026-01-20T1400,1606A,121.8297,41.1026,盘锦市,新生街道,,22,16,39,14,14,69,,57,57,6,19,6,7,0.3,0.5
2026-01-20T1400,1832A,113.3257,33.7423,平顶山市,新华旅馆,,,47,68,30,45,61,,49,49,,16,7,6,0.4,0.7
2026-01-20T1400,1833A,113.2917,33.737,平顶山市,规划设计院,细颗粒物(PM2.5),54,46,53,38,45,63,,53,53,9,12,7,6,0.6,0.8
2026-01-20T1400,1834A,113.182,33.7738,平顶山市,平顶山工学院,细颗粒物(PM2.5),58,47,49,41,44,66,,50,50,12,15,8,7,0.5,0.6
2026-01-20T1400,3594A,112.8736,33.9068,平顶山市,石龙区,细颗粒物(PM2.5),67,58,51,48,47,65,,51,51,9,10,10,6,0.6,0.7
2026-01-20T1400,4116A,113.284,33.7139,平顶山市,姚电大道23号,细颗粒物(PM2.5),54,51,68,38,48,63,,52,52,12,16,8,7,0.8,0.9
2026-01-20T1400,2656A,106.6633,35.5338,平凉市,聚贤嘉苑,,46,46,47,26,22,60,,45,43,8,10,13,12,0.6,0.5
2026-01-20T1400,2657A,106.7021,35.5307,平凉市,博物馆,颗粒物(PM10),51,52,47,26,22,66,,54,49,10,10,12,9,0.6,0.5
2026-01-20T1400,2348A,113.8384,27.6436,萍乡市,中医院,,32,32,24,18,16,22,,17,17,30,30,4,4,0.7,0.7
2026-01-20T1400,2350A,113.8677,27.6438,萍乡市,市环保局,,32,,19,22,18,26,,20,20,19,22,12,12,0.8,0.8
2026-01-20T1400,2351A,113.8663,27.6202,萍乡市,安源区政府,,29,24,24,20,18,24,,20,20,17,20,8,9,0.8,0.8
2026-01-20T1400,4107A,113.8686,27.6668,萍乡市,联洪村委会,,30,30,25,16,15,25,,20,20,23,24,2,2,1.0,1
2026-01-20T1400,2319A,119.0142,25.4324,莆田市,荔城区仓后路,,36,36,29,7,8,72,,72,67,10,11,/,/,/,/
2026-01-20T1400,2320A,119.0016,25.4553,莆田市,莆田市监测站,,31,31,24,8,8,78,,78,71,7,8,2,2,0.5,0.5
2026-01-20T1400,2321A,119.112,25.4561,莆田市,涵江区六中,,24,22,27,10,9,75,,72,70,9,9,/,/,0.3,0.3
2026-01-20T1400,2322A,119.1014,25.3215,莆田市,秀屿区政府,,39,39,36,7,10,76,,71,70,7,9,2,2,0.6,0.7
2026-01-20T1400,2392A,115.0312,35.7636,濮阳市,环保局,,38,38,33,10,11,63,,51,51,10,14,6,7,0.8,0.8
2026-01-20T1400,3021A,115,35.7667,濮阳市,濮水河管理处,,30,30,32,16,8,65,,55,55,9,15,5,7,0.3,0.7
2026-01-20T1400,4118A,115.0552,35.7816,濮阳市,中原东路68号,,,,38,19,17,63,,51,51,11,18,6,5,0.3,0.2
2026-01-20T1400,4216A,115.0923632,35.76857718,濮阳市,任丘路479号,,,46,41,12,14,61,,48,48,,17,7,7,0.5,0.5
2026-01-20T1400,2601A,100.9801,22.7634,普洱市,市环保局,,,44,53,30,20,87,,42,42,8,13,,5,0.3,0.5
2026-01-20T1400,2602A,100.9763,22.8237,普洱市,普洱第二中学,,38,38,48,14,23,86,,42,42,4,22,5,5,0.2,0.3
2026-01-20T1400,3345A,131.0413,45.7795,七台河市,中波台,,22,22,36,14,25,56,,45,45,8,15,7,7,0.4,0.5
2026-01-20T1400,3637A,131.0136,45.7688,七台河市,人民广场,,36,36,48,19,34,56,,45,45,11,18,9,7,0.5,0.5
2026-01-20T1400,3684A,130.8639,45.8144,七台河市,新建矿广场,,,24,31,11,25,54,,43,43,,11,3,6,0.4,0.3
2026-01-20T1400,1779A,123.9307,47.3641,齐齐哈尔市,安居小区,,26,,21,18,11,63,,56,56,6,10,5,4,0.3,0.4
2026-01-20T1400,1780A,123.9497,47.3389,齐齐哈尔市,中心广场,,20,6,15,3,6,61,,53,53,7,10,5,5,0.6,0.7
2026-01-20T1400,1781A,123.9483,47.3229,齐齐哈尔市,农牧车辆厂,,19,14,24,7,11,60,,53,53,5,7,5,5,0.2,0.3
2026-01-20T1400,1783A,123.9442,47.2994,齐齐哈尔市,市环境监测站,,20,17,25,7,9,61,,54,54,4,8,6,4,0.6,0.7
2026-01-20T1400,3662A,123.6341,47.2079,齐齐哈尔市,富区青少年活动中心,,39,39,31,3,11,61,,51,51,6,12,5,6,0.5,0.6
2026-01-20T1400,2591A,107.9765,26.5724,黔东南苗族侗族自治州,市环境监测站,,,7,9,6,7,39,,28,28,8,12,4,4,,0.5
2026-01-20T1400,2881A,107.8909,26.531,黔东南苗族侗族自治州,凯里学院,,14,14,12,6,8,38,,29,29,11,13,1,1,0.5,0.6
2026-01-20T1400,2593A,107.5223,26.2371,黔南布依族苗族自治州,小围寨,,12,12,19,3,16,22,,18,18,9,10,4,2,0.8,0.9
2026-01-20T1400,3538A,107.5175,26.2977,黔南布依族苗族自治州,沙坝,,18,14,25,12,19,27,,23,23,9,12,6,4,0.8,1
2026-01-20T1400,2589A,104.9022,25.0943,黔西南布依族苗族自治州,场坝街,,25,17,45,13,33,78,,66,66,6,7,4,3,0.4,0.5
2026-01-20T1400,2590A,104.8812,25.0994,黔西南布依族苗族自治州,坪东大道,,33,28,45,23,39,78,,67,67,6,8,5,6,0.5,0.6
2026-01-20T1400,2502A,108.6238,21.9667,钦州市,市环保站,颗粒物(PM10),57,63,62,34,31,106,,89,86,13,18,6,4,0.6,0.6
2026-01-20T1400,2503A,108.655,21.9481,钦州市,沙埠小学,颗粒物(PM10),61,72,59,35,34,112,,88,88,12,17,7,5,0.5,0.5
2026-01-20T1400,2504A,108.5989,21.7435,钦州市,港区一小,颗粒物(PM10),53,56,61,25,25,105,,90,81,12,20,6,6,0.7,0.7
2026-01-20T1400,3404A,108.5959,21.9634,钦州市,北职校,,,58,50,27,30,102,,89,86,14,18,12,9,,0.8
2026-01-20T1400,1046A,119.5247,39.9346,秦皇岛市,建设大厦,,41,41,45,8,27,57,,29,29,4,30,6,7,0.3,0.6
2026-01-20T1400,3132A,119.5979,39.938,秦皇岛市,文明里,,38,38,45,20,21,51,,32,32,18,30,12,13,0.4,0.4
2026-01-20T1400,4066A,119.7458,39.9952,秦皇岛市,南园路157号,,32,32,42,13,17,54,,34,34,16,34,14,11,0.5,0.5
2026-01-20T1400,4067A,119.5131,39.8858,秦皇岛市,翠岛大街1号,,43,43,42,17,11,51,,29,29,14,32,12,10,0.4,0.5
2026-01-20T1400,4198A,119.509013,39.825305,秦皇岛市,北戴河轮滑馆,,42,42,38,14,22,55,,36,36,13,29,9,7,0.4,0.5
2026-01-20T1400,1310A,120.404,36.0625,青岛市,市南区东部子站,,48,48,26,29,12,60,,60,55,10,7,8,9,0.5,0.5
2026-01-20T1400,1311A,120.362344,36.10282,青岛市,四方区子站,,49,41,25,34,14,61,,54,53,8,7,1,1,0.6,0.5
2026-01-20T1400,1312A,120.294373,36.054183,青岛市,市南区西部子站,颗粒物(PM10),51,51,27,32,11,58,,61,54,15,8,5,4,0.4,0.3
2026-01-20T1400,1313A,120.4581,36.0858,青岛市,崂山区子站,,29,29,20,19,9,60,,61,57,12,8,10,10,0.2,0.2
2026-01-20T1400,1315A,120.3945,36.3083,青岛市,城阳区子站,,44,44,26,24,13,69,,63,63,12,9,7,6,0.7,0.7
2026-01-20T1400,3642A,120.3454,36.0735,青岛市,市北区南部,,,,26,,10,48,,52,43,17,11,4,2,0.5,0.7
2026-01-20T1400,3643A,120.3897,36.18,青岛市,李沧区北部,,49,44,23,34,16,61,,58,55,9,6,10,10,0.7,0.6
2026-01-20T1400,4110A,120.5222,36.4089,青岛市,盟旺路653号,颗粒物(PM10),65,79,34,16,14,66,,55,55,14,17,2,2,0.4,0.6
2026-01-20T1400,4290A,120.196923,35.954556,青岛市,珠江路669号,细颗粒物(PM2.5),53,51,29,37,14,55,,59,49,25,20,7,11,0.8,0.4
2026-01-20T1400,4291A,120.0424,35.8656,青岛市,黄岛区人民政府广场,,,,33,,7,,,74,,,11,,8,,0.7
2026-01-20T1400,1703A,113.0218,23.7086,清远市,凤城街办,,40,40,99,25,65,33,,77,36,18,44,/,/,/,/
2026-01-20T1400,3025A,113.0479,23.6343,清远市,技师学院,,42,42,115,24,68,34,,26,26,17,57,4,7,0.7,0.7
2026-01-20T1400,3318A,112.9898,23.7403,清远市,清新太和,,33,33,80,20,51,34,,94,42,18,29,3,7,0.7,0.7
2026-01-20T1400,3455A,113.076,23.72,清远市,清城东城,,40,40,87,24,54,37,,73,40,21,36,/,/,/,/
2026-01-20T1400,2661A,107.6325,35.7357,庆阳市,庆阳五中,,41,41,38,24,20,65,,52,52,11,10,5,4,0.4,0.4
2026-01-20T1400,2662A,107.6361,35.7067,庆阳市,市环保局,,44,44,43,26,20,63,,47,47,14,14,7,7,0.6,0.5
2026-01-20T1400,1916A,103.7897,25.5036,曲靖市,环境监测站,,31,,31,9,11,97,,65,65,6,12,4,5,0.2,0.3
2026-01-20T1400,1917A,103.8013,25.5357,曲靖市,烟厂办公区,,30,16,33,3,14,96,,56,56,6,15,4,4,0.1,0.2
2026-01-20T1400,3376A,103.7926,25.4651,曲靖市,南苑二区,,31,17,29,6,12,98,,72,72,2,6,4,5,0.3,0.4
2026-01-20T1400,3377A,103.7442,25.5259,曲靖市,曲靖师范学院,,30,,35,12,20,96,,58,58,6,13,4,5,0.1,0.2
2026-01-20T1400,1264A,118.8694,28.94,衢州市,环保大楼,,16,9,11,8,9,49,,48,48,17,19,/,/,/,/
2026-01-20T1400,1266A,118.8622,28.9809,衢州市,衢州学院,,17,8,9,6,6,52,,47,47,14,19,4,4,0.5,0.5
2026-01-20T1400,4097A,118.9646,28.9832,衢州市,衢州三中,,15,10,11,7,9,46,,44,44,16,21,4,4,0.7,0.7
2026-01-20T1400,1611A,118.5818,24.9116,泉州市,涂山街,,27,27,32,13,13,79,,74,68,11,12,2,3,0.5,0.5
2026-01-20T1400,1612A,118.597,24.8976,泉州市,津头埔,,30,30,33,16,14,79,,72,67,10,12,4,4,0.5,0.5
2026-01-20T1400,1613A,118.6669,24.9422,泉州市,万安,,31,31,37,13,16,75,,66,63,10,11,3,3,0.5,0.5
2026-01-20T1400,4105A,118.6355,24.9148,泉州市,霞新路6号,,28,28,29,15,14,81,,72,68,10,13,/,/,0.4,0.4
2026-01-20T1400,2626A,88.8873,29.2723,日喀则市,日喀则监测站,,32,19,24,8,10,100,,78,62,2,9,10,10,0.4,0.4
2026-01-20T1400,3726A,88.8775,29.2425,日喀则市,林业技术推广中心,,29,9,20,3,5,91,,74,62,3,4,9,10,0.2,0.2
2026-01-20T1400,1659A,119.4711,35.421,日照市,监测站,,38,34,32,26,17,67,,51,51,10,12,9,8,0.8,0.7
2026-01-20T1400,1660A,119.523,35.4216,日照市,市政府广场,,41,41,35,23,15,67,,50,50,12,13,10,10,0.5,0.4
2026-01-20T1400,1661A,119.5511,35.4113,日照市,港务局,颗粒物(PM10),51,51,37,28,24,62,,48,48,14,14,8,7,0.6,0.8
2026-01-20T1400,3507A,119.5326,35.4627,日照市,职业技术学院,,46,46,33,17,14,65,,49,49,15,15,10,9,0.8,0.7
2026-01-20T1400,3604A,119.3267,35.1043,日照市,岚山环保分局,,46,46,42,27,27,64,,52,52,9,11,14,15,0.8,0.9
2026-01-20T1400,1835A,111.1922,34.7752,三门峡市,市政府,,38,38,50,20,42,67,,47,47,12,16,10,9,0.6,0.7
2026-01-20T1400,1836A,111.1588,34.794,三门峡市,开发区,,22,22,52,12,38,64,,45,45,9,16,8,6,0.4,0.6
2026-01-20T1400,3039A,111.1911,34.7829,三门峡市,三门峡市第一小学,,44,44,50,10,36,61,,44,44,16,18,9,6,0.6,0.7
2026-01-20T1400,3598A,111.1031,34.719,三门峡市,富达温泉假日酒店,,34,34,53,15,36,65,,48,48,12,15,8,5,0.5,0.6
2026-01-20T1400,2324A,117.621,26.2626,三明市,三钢,细颗粒物(PM2.5),55,,39,39,29,67,,73,73,17,25,9,9,0.8,0.7
2026-01-20T1400,2325A,117.6352,26.2714,三明市,三明二中,,42,42,37,29,26,68,,69,69,12,16,5,6,0.6,0.7
2026-01-20T1400,2326A,117.6028,26.2377,三明市,三元区政府,,,60,44,52,30,58,,74,72,,29,5,8,,0.9
2026-01-20T1400,1877A,109.4962,18.2682,三亚市,河西子站,,30,29,33,20,15,94,,86,86,7,8,3,3,0.3,0.3
2026-01-20T1400,3540A,109.7348,18.3443,三亚市,君悦子站,,43,43,31,16,16,91,,66,,4,8,5,4,0.5,0.4
2026-01-20T1400,4135A,109.1714,18.3739,三亚市,城东小学站,,39,39,28,14,15,80,,62,62,6,10,/,/,/,/
2026-01-20T1400,2624A,91.7592,29.234,山南市,山南监测站,,25,15,26,7,9,78,,63,55,8,6,4,4,0.3,0.2
2026-01-20T1400,2625A,91.7701,29.2436,山南市,山南人民医院,,24,17,36,3,11,76,,64,55,10,8,9,8,0.5,0.4
2026-01-20T1400,1674A,116.6795,23.3666,汕头市,金平子站,,,20,31,11,14,95,,89,81,,10,,4,0.6,0.6
2026-01-20T1400,1675A,116.7248,23.3632,汕头市,龙湖子站,,29,25,33,12,16,90,,86,78,8,10,9,9,/,/
2026-01-20T1400,1676A,116.7257,23.2774,汕头市,濠江子站,,29,29,28,14,16,90,,88,79,11,11,7,7,/,/
2026-01-20T1400,1677A,116.7518,23.4712,汕头市,澄海子站,,29,16,38,7,17,92,,84,78,9,12,5,7,0.3,0.4
2026-01-20T1400,1678A,116.6088,23.2539,汕头市,潮阳子站,,30,20,29,9,12,94,,90,82,4,5,6,6,0.5,0.5
2026-01-20T1400,3444A,116.4539,23.2684,汕头市,潮南峡山,,30,26,29,13,14,95,,89,83,11,12,8,8,0.5,0.5
2026-01-20T1400,3624A,116.4069,23.2533,汕头市,潮南子站,,32,32,35,12,14,81,,80,73,17,13,6,6,/,/
2026-01-20T1400,1693A,115.3653,22.7751,汕尾市,市环保局,,34,34,43,18,21,85,,82,82,16,13,6,6,0.5,0.5
2026-01-20T1400,1695A,115.362,22.7926,汕尾市,新城中学,,47,47,37,19,23,89,,78,78,7,11,4,5,0.4,0.4
2026-01-20T1400,2645A,109.9155,33.8714,商洛市,监测站,,33,31,30,23,19,61,,55,55,9,12,4,4,0.4,0.4
2026-01-20T1400,3045A,109.9647,33.8486,商洛市,商州区中学,,46,46,34,23,27,62,,56,52,8,12,4,5,0.7,0.7
2026-01-20T1400,2408A,115.6701,34.4283,商丘市,环境监测站,颗粒物(PM10),81,112,83,23,27,70,,58,58,13,14,3,2,0.5,0.5
2026-01-20T1400,2409A,115.6458,34.4047,商丘市,粮食局,,43,43,63,23,27,61,,51,51,11,11,4,4,0.7,0.7
2026-01-20T1400,3171A,115.6069,34.4465,商丘市,梁园区档案局,,38,37,42,26,26,66,,54,54,12,14,7,6,0.3,0.4
2026-01-20T1400,4119A,115.6701,34.3767,商丘市,北海东路185号,,35,35,38,24,26,65,,55,55,9,10,4,2,0.5,0.5
2026-01-20T1400,4120A,115.6172,34.3704,商丘市,中山大街3号,,38,38,53,18,27,68,,58,58,12,13,3,2,0.3,0.4
2026-01-20T1400,1141A,121.401,31.2382,上海市,普陀,,27,27,20,18,13,39,,66,51,28,16,5,5,0.7,0.7
2026-01-20T1400,1142A,121.4774,31.2043,上海市,十五厂,,25,25,19,11,10,58,,69,58,21,17,5,5,0.7,0.6
2026-01-20T1400,1143A,121.4673,31.3011,上海市,虹口,,25,25,21,11,11,49,,63,50,17,11,6,6,0.5,0.4
2026-01-20T1400,1147A,121.4253,31.226,上海市,静安监测站,,28,28,19,16,12,44,,69,52,31,18,6,6,0.4,0.4
2026-01-20T1400,1148A,121.7029,31.1905,上海市,浦东川沙,,20,20,20,9,10,51,,61,50,18,15,6,6,0.1,0.2
2026-01-20T1400,1149A,121.5339,31.229,上海市,浦东新区监测站,,23,20,19,16,15,57,,68,57,16,13,5,5,0.5,0.5
2026-01-20T1400,1150A,121.5776,31.2038,上海市,浦东张江,,20,20,17,8,8,62,,71,62,14,13,6,6,0.0,0.1
2026-01-20T1400,3265A,121.4242,31.3303,上海市,宝山庙行,,26,26,21,12,12,42,,60,44,23,16,6,6,0.4,0.4
2026-01-20T1400,3266A,121.8789,31.4662,上海市,崇明上实东滩,,21,18,16,9,8,66,,73,67,7,8,3,3,0.2,0.3
2026-01-20T1400,3268A,121.316,31.2839,上海市,嘉定南翔,,26,25,17,18,12,43,,62,49,23,15,3,3,1.7,1.3
2026-01-20T1400,3269A,121.3357,30.7455,上海市,金山新城,,20,17,16,14,15,49,,64,52,23,20,7,7,0.6,0.6
2026-01-20T1400,3270A,121.4996,31.0741,上海市,闵行浦江,,20,20,18,12,11,58,,69,58,13,12,5,5,0.3,0.3
2026-01-20T1400,3271A,121.2886,31.1663,上海市,青浦徐泾,,25,22,16,17,13,44,,66,51,26,18,4,4,0.5,0.5
2026-01-20T1400,3272A,121.2193,31.0382,上海市,松江图书馆,,22,,16,15,13,50,,66,52,23,18,5,5,0.5,0.5
2026-01-20T1400,3273A,121.3904,31.206,上海市,长宁仙霞,,24,24,18,15,11,38,,65,50,22,9,6,6,0.2,0.3
2026-01-20T1400,3274A,121.7964,31.0507,上海市,浦东惠南,,21,21,19,7,11,49,,67,50,27,20,3,3,0.4,0.4
2026-01-20T1400,3544A,121.4891,30.925,上海市,奉贤南桥新城,,28,24,19,19,15,46,,72,55,29,19,2,2,0.5,0.4
2026-01-20T1400,4183A,121.417401,31.16637,上海市,冠生园路458号,,,25,20,19,13,31,,71,53,,15,,4,0.7,0.6
2026-01-20T1400,4205A,121.541914,31.268301,上海市,宁武路151号,,18,16,19,8,12,56,,66,57,18,16,4,4,0.6,0.5
2026-01-20T1400,2382A,117.9758,28.4439,上饶市,市监测站,,18,13,26,3,14,56,,52,52,15,19,4,5,/,/
2026-01-20T1400,2383A,117.9521,28.4637,上饶市,凤凰光学,,16,16,28,9,12,48,,44,44,14,20,4,6,0.5,0.6
2026-01-20T1400,3685A,117.897,28.4316,上饶市,双创科技城,,18,17,29,9,21,55,,53,53,16,23,3,4,0.6,0.7
2026-01-20T1400,4211A,118.190438,28.444845,上饶市,裕丰大道,,17,17,26,3,19,46,,44,44,20,24,8,8,0.6,0.7
2026-01-20T1400,1669A,113.5821,24.7733,韶关市,市八中,,17,17,37,7,23,16,,16,12,19,21,7,7,0.7,0.7
2026-01-20T1400,1671A,113.5916,24.7973,韶关市,园林处,,17,17,32,7,25,17,,18,13,19,22,4,8,/,/
2026-01-20T1400,1673A,113.5971,24.6864,韶关市,曲江监测站,,16,16,40,8,28,16,,18,13,19,24,11,15,0.6,0.8
2026-01-20T1400,2809A,113.6668,24.7756,韶关市,大学路288号,,16,16,33,9,25,14,,19,10,20,21,6,5,/,/
2026-01-20T1400,3622A,113.5556,24.8082,韶关市,碧湖山庄,,16,16,38,7,26,17,,16,12,19,21,6,6,0.6,0.7
2026-01-20T1400,2464A,111.5277,27.2442,邵阳市,市化工厂,,30,22,16,21,13,37,,33,33,15,19,6,6,0.5,0.5
2026-01-20T1400,2466A,111.4327,27.2276,邵阳市,市环保局,,26,22,12,18,8,36,,32,32,13,13,2,1,1.0,0.9
2026-01-20T1400,4218A,111.446,27.2472,邵阳市,北塔二期4-26地块,,36,,7,25,14,30,,29,29,11,11,6,5,1.3,1.1
2026-01-20T1400,4219A,111.4739,27.2282,邵阳市,邵水西路287号,,26,22,12,18,11,35,,31,31,14,16,8,6,0.8,0.8
2026-01-20T1400,1247A,120.6053,29.9927,绍兴市,城东开发委,,36,32,20,25,13,36,,57,49,24,18,6,7,0.6,0.5
2026-01-20T1400,2921A,120.5482,30.0003,绍兴市,树下王站,,33,29,16,23,11,36,,55,47,24,15,6,6,0.7,0.6
2026-01-20T1400,3408A,120.5685,29.936,绍兴市,绍兴中专,,29,24,14,20,10,38,,57,51,17,14,6,6,0.5,0.4
2026-01-20T1400,3409A,120.4905,30.086,绍兴市,柯桥区政府,,30,30,22,16,14,43,,58,49,21,17,7,4,0.4,0.4
2026-01-20T1400,3410A,120.8751,30.0249,绍兴市,重华小学,,33,32,18,23,10,33,,58,50,33,20,5,5,0.5,0.4
2026-01-20T1400,3411A,120.837,30.0137,绍兴市,上虞中学,,38,34,19,26,11,34,,61,51,26,15,5,5,0.5,0.4
2026-01-20T1400,3560A,120.4715,30.0414,绍兴市,柯桥妇保,,30,30,19,18,10,44,,57,50,19,14,5,5,0.4,0.3
2026-01-20T1400,3658A,120.6156,30.0762,绍兴市,袍江中学,,,,7,,5,,,62,53,,11,,2,,1.4
2026-01-20T1400,1356A,114.0948,22.5506,深圳市,通心岭子站,,,34,35,14,19,102,,86,86,,13,,8,0.6,0.4
2026-01-20T1400,1357A,114.1153,22.5713,深圳市,洪湖,,37,37,38,16,19,104,,87,87,9,17,8,8,0.6,0.6
2026-01-20T1400,1358A,113.9823,22.5398,深圳市,华侨城,,34,34,39,18,22,96,,80,80,12,22,/,/,/,/
2026-01-20T1400,1359A,113.9181,22.517,深圳市,南海子站,,,36,43,17,24,103,,85,84,,22,6,7,0.7,0.8
2026-01-20T1400,1360A,114.2345,22.565,深圳市,盐田,,37,37,39,13,20,102,,74,74,11,32,8,9,0.6,0.7
2026-01-20T1400,1363A,114.4911,22.5381,深圳市,南澳,,34,31,29,13,17,107,,88,88,8,10,/,/,/,/
2026-01-20T1400,1364A,114.41,22.6346,深圳市,葵涌,,34,34,33,14,19,94,,65,65,11,17,8,8,0.6,0.6
2026-01-20T1400,1365A,114.2967,22.5978,深圳市,梅沙,,39,39,35,17,17,113,,88,88,10,12,/,/,/,/
2026-01-20T1400,1366A,114.0563,22.7353,深圳市,观澜,颗粒物(PM10),51,52,61,22,29,101,,60,60,22,38,8,8,0.6,0.6
2026-01-20T1400,3305A,114.0614,22.556,深圳市,莲花,,34,34,36,18,21,97,,82,82,12,19,/,/,/,/
2026-01-20T1400,3306A,114.0144,22.6163,深圳市,民治,,43,43,42,23,25,88,,66,66,19,30,/,/,/,/
2026-01-20T1400,3307A,114.1756,22.6421,深圳市,横岗,,40,40,42,22,24,98,,80,80,14,20,/,/,/,/
2026-01-20T1400,3447A,114.344,22.7115,深圳市,坪山,,42,42,41,20,21,97,,72,72,16,21,9,9,0.6,0.7
2026-01-20T1400,3623A,113.8952,22.586,深圳市,西乡,,46,46,46,21,22,85,,68,66,27,39,6,6,0.8,0.8
2026-01-20T1400,4220A,114.214113,22.713717,深圳市,黄阁路,,42,42,38,20,20,96,,74,74,11,14,6,6,0.7,0.7
2026-01-20T1400,1099A,123.5058,41.7084,沈阳市,浑南东路,,,64,64,,35,45,,22,22,,53,10,9,,1
2026-01-20T1400,1100A,123.4238,41.6992,沈阳市,新秀街,,29,29,55,18,22,62,,30,30,8,40,14,12,0.5,0.8
2026-01-20T1400,1102A,123.5903,41.8412,沈阳市,东陵路,,29,,62,20,36,59,,29,29,11,35,7,7,0.5,1
2026-01-20T1400,1103A,123.4267,41.8466,沈阳市,陵东街,,27,27,45,6,15,63,,50,50,3,25,9,11,0.3,0.5
2026-01-20T1400,1104A,123.4116,41.7654,沈阳市,文化路,,26,26,45,14,17,59,,44,44,10,27,14,18,0.6,0.6
2026-01-20T1400,1105A,123.4673,41.787,沈阳市,小河沿,,38,38,52,20,29,61,,23,23,1,24,9,12,0.6,0.9
2026-01-20T1400,1106A,123.4019,41.7978,沈阳市,太原街,,31,31,40,10,12,64,,50,50,11,16,10,11,0.3,0.4
2026-01-20T1400,1108A,123.3778,41.9233,沈阳市,京沈街,,,,43,,22,73,,49,49,,29,4,6,0.4,0.5
2026-01-20T1400,2897A,123.2429,41.7341,沈阳市,沈辽西路,,31,31,52,16,21,62,,48,48,11,31,16,13,0.6,0.7
2026-01-20T1400,2900A,123.5951,41.9085,沈阳市,裕农路,,30,30,39,10,22,77,,45,45,6,28,6,7,0.4,0.6
2026-01-20T1400,2429A,110.78,32.6494,十堰市,滨河新村,细颗粒物(PM2.5),67,56,52,48,39,57,,56,53,8,10,/,/,0.9,0.9
2026-01-20T1400,2430A,110.7305,32.6408,十堰市,刘家沟,细颗粒物(PM2.5),67,58,47,48,37,54,,57,52,14,14,/,/,/,/
2026-01-20T1400,2431A,110.8843,32.5712,十堰市,铁二处,细颗粒物(PM2.5),74,66,48,54,36,44,,52,45,20,17,7,8,1.1,0.9
2026-01-20T1400,3545A,110.8053,32.8401,十堰市,郧阳区金沙路,细颗粒物(PM2.5),63,46,41,45,33,52,,54,49,14,14,6,6,0.9,0.8
2026-01-20T1400,2709A,86.0391,44.298,石河子市,艾青诗歌馆,细颗粒物(PM2.5),113,94,122,85,104,39,,20,20,44,55,11,18,1.2,1.1
2026-01-20T1400,3442A,86.047,44.2331,石河子市,南区管委会,细颗粒物(PM2.5),72,60,88,52,68,56,,60,57,16,28,12,9,0.7,1
2026-01-20T1400,4051A,86.0791,44.3018,石河子市,世纪广场,细颗粒物(PM2.5),73,79,88,53,69,62,,28,28,18,48,14,12,0.7,0.8
2026-01-20T1400,4167A,86.0126,44.2349,石河子市,城南景苑小区,,49,47,83,34,55,66,,63,63,13,19,6,7,0.6,0.8
2026-01-20T1400,1030A,114.5919,38.0328,石家庄市,高新区,,45,45,56,26,30,58,,36,36,12,23,7,6,0.5,0.4
2026-01-20T1400,1032A,114.4556,38.0136,石家庄市,西南高教,颗粒物(PM10),55,59,69,29,32,52,,29,29,18,30,6,3,0.5,0.5
2026-01-20T1400,1033A,114.533,38.0177,石家庄市,世纪公园,,30,30,53,15,31,56,,34,34,1,11,10,8,0.5,0.5
2026-01-20T1400,1034A,114.5105,38.0489,石家庄市,人民会堂,,50,50,61,29,31,51,,30,30,15,23,4,3,0.5,0.5
2026-01-20T1400,3456A,114.2887,38.0905,石家庄市,鹿泉一中,颗粒物(PM10),57,64,64,35,42,49,,24,24,23,27,7,2,0.6,0.7
2026-01-20T1400,4024A,114.6491,37.9014,石家庄市,栾城区星河路,,32,32,44,18,22,63,,41,41,8,19,7,6,0.5,0.5
2026-01-20T1400,4059A,114.4563,38.0365,石家庄市,裕华西路63号,细颗粒物(PM2.5),60,45,50,43,33,48,,25,25,21,28,5,3,0.6,0.6
2026-01-20T1400,4060A,114.5586,38.0581,石家庄市,和平路363号,,43,43,53,24,27,54,,33,33,15,27,5,3,0.5,0.5
2026-01-20T1400,4061A,114.8347,38.0213,石家庄市,廉州西路160号,,,,49,19,22,50,,35,35,3,13,2,2,0.4,0.5
2026-01-20T1400,4062A,114.4498,38.0729,石家庄市,北城路41号,颗粒物(PM10),62,74,67,29,28,48,,25,25,24,27,5,2,0.8,0.5
2026-01-20T1400,4314A,114.0494,38.059,石家庄市,矿区区委大楼,细颗粒物(PM2.5),57,59,62,40,34,48,,23,23,18,26,11,8,0.7,0.6
2026-01-20T1400,1948A,106.3668,39.0145,石嘴山市,大武口朝阳西街,颗粒物(PM10),87,123,42,57,18,47,,29,29,20,23,27,25,1.4,0.9
2026-01-20T1400,1949A,106.7713,39.2278,石嘴山市,惠农南大街,颗粒物(PM10),90,130,34,36,11,34,,39,30,43,22,39,12,2.2,0.5
