timepoint,stationcode,longitude,latitude,area,positionname,primarypollutant,aqi,pm10,pm10_24h,pm2_5,pm2_5_24h,o3,o3_24h,o3_8h,o3_8h_24h,no2,no2_24h,so2,so2_24h,co,co_24h
2024-01-02T1000,2566A,102.1879,31.914,阿坝藏族羌族自治州,州农科所,,,,,12,10,8,,10,9,22,18,7,7,1.0,0.7
2024-01-02T1000,2568A,102.2502,31.8896,阿坝藏族羌族自治州,马师校,,35,31,15,24,17,25,,23,23,20,17,3,2,0.7,0.6
2024-01-02T1000,3994A,102.2165,31.9024,阿坝藏族羌族自治州,马尔康中学西区,,17,17,22,7,12,33,,34,33,13,11,4,4,0.4,0.4
2024-01-02T1000,2695A,80.292,41.1694,阿克苏地区,电视台,颗粒物(PM10),123,195,209,71,65,9,,44,38,57,41,8,9,1.8,1.3
2024-01-02T1000,2696A,80.2613,41.1551,阿克苏地区,艺术中心,颗粒物(PM10),124,197,207,70,66,23,,38,36,35,37,7,9,1.2,1
2024-01-02T1000,2204A,105.6467,38.8363,阿拉善盟,西城区西花园,,41,41,38,12,16,63,,74,73,24,21,7,9,0.8,0.6
2024-01-02T1000,2205A,105.6985,38.8411,阿拉善盟,蒙二幼,,,,40,,13,74,,82,82,14,16,7,8,0.7,0.5
2024-01-02T1000,2206A,105.724,38.8516,阿拉善盟,环保局新楼,,25,23,32,9,13,80,,85,84,9,8,4,5,0.6,0.6
2024-01-02T1000,2708A,88.1264,47.8517,阿勒泰地区,市站,,22,,6,10,5,23,,33,33,44,34,4,4,0.4,0.3
2024-01-02T1000,2630A,80.1161,32.5,阿里地区,阿里监测站,,17,7,8,3,4,52,,55,54,18,12,5,10,0.5,0.5
2024-01-02T1000,3192A,80.0903,32.5028,阿里地区,阿里藏医院,,17,16,13,7,7,32,,32,30,33,20,14,13,0.6,0.6
2024-01-02T1000,2642A,109.0318,32.6537,安康市,香溪洞,细颗粒物(PM2.5),114,100,89,86,74,34,,44,42,16,18,6,7,0.7,0.6
2024-01-02T1000,2643A,109.0281,32.6939,安康市,安康市监测站,细颗粒物(PM2.5),122,113,120,92,82,14,,27,22,35,33,10,16,1.0,0.9
2024-01-02T1000,2644A,109.0072,32.6975,安康市,汉滨区检察院,细颗粒物(PM2.5),118,110,116,89,88,13,,29,25,29,25,8,10,0.9,0.8
2024-01-02T1000,2291A,117.0809,30.5177,安庆市,环科院,细颗粒物(PM2.5),175,185,181,132,125,34,,53,43,41,30,11,10,1.5,1.3
2024-01-02T1000,2292A,117.0331,30.5119,安庆市,马山宾馆,细颗粒物(PM2.5),149,175,175,114,115,40,,60,50,44,34,10,8,,1
2024-01-02T1000,2294A,116.9896,30.6145,安庆市,安庆大学,细颗粒物(PM2.5),153,154,166,117,122,59,,41,39,31,30,9,7,1.3,1.3
2024-01-02T1000,3173A,117.0598,30.5351,安庆市,市人大,细颗粒物(PM2.5),173,187,183,131,126,37,,54,46,45,36,8,6,1.5,1.3
2024-01-02T1000,3122A,105.9606,26.2611,安顺市,伍家关,,,,,,,,,,,,,,,,
2024-01-02T1000,3123A,105.9408,26.2431,安顺市,凤凰山,,,18,23,14,17,,,63,63,17,10,19,11,1.1,0.9
2024-01-02T1000,3124A,105.9439,26.2564,安顺市,金钟山,,22,22,24,14,15,48,,58,57,13,8,18,13,0.6,0.5
2024-01-02T1000,3125A,105.8983,26.2481,安顺市,娄家坡,,28,22,24,19,21,50,,58,57,16,9,23,12,0.8,0.6
2024-01-02T1000,1818A,114.4839,36.0621,安阳市,棉研所,,,,,,,,,,,,,,,,
2024-01-02T1000,1819A,114.3551,36.1017,安阳市,红庙街,细颗粒物(PM2.5),176,166,128,133,96,22,,11,11,54,52,16,10,1.6,1
2024-01-02T1000,1820A,114.361,36.0681,安阳市,银杏小区,细颗粒物(PM2.5),188,145,122,141,102,19,,7,7,52,48,8,5,1.9,1.5
2024-01-02T1000,3141A,114.3922,36.0878,安阳市,信访局,细颗粒物(PM2.5),190,166,131,143,103,23,,10,10,51,50,8,6,1.8,1.3
2024-01-02T1000,3669A,114.4705,36.0637,安阳市,左辅环卫站,细颗粒物(PM2.5),180,180,136,136,106,21,,10,10,52,45,8,5,1.3,0.9
2024-01-02T1000,3703A,114.2917,36.0949,安阳市,安钢职工学校,细颗粒物(PM2.5),195,195,160,146,107,15,,11,11,40,47,20,15,3.6,1.5
2024-01-02T1000,1748A,123.044,41.1196,鞍山市,深沟寺,细颗粒物(PM2.5),115,131,95,87,65,,,45,41,29,29,17,17,1.7,1.6
2024-01-02T1000,1749A,123.011,41.0931,鞍山市,太阳城,细颗粒物(PM2.5),104,113,88,78,64,43,,45,41,32,34,14,20,1.5,1.5
2024-01-02T1000,1750A,123.0485,41.1442,鞍山市,太平,细颗粒物(PM2.5),118,126,95,89,65,40,,46,41,36,32,13,17,1.5,1.3
2024-01-02T1000,1751A,122.9642,41.0971,鞍山市,铁西三道街,细颗粒物(PM2.5),127,129,100,96,74,30,,40,35,45,39,18,16,1.8,1.6
2024-01-02T1000,1752A,122.9341,41.0833,鞍山市,铁西工业园区,细颗粒物(PM2.5),124,124,94,94,70,42,,47,43,29,29,17,16,1.7,1.5
2024-01-02T1000,1753A,123.022,41.0821,鞍山市,明达新区,细颗粒物(PM2.5),104,103,82,78,60,46,,48,44,28,30,15,16,1.4,1.7
2024-01-02T1000,1754A,123.1289,41.0228,鞍山市,千山,,,,,,,,,,,,,,,,
2024-01-02T1000,2195A,107.4212,40.761,巴彦淖尔市,附二中,颗粒物(PM10),66,81,61,24,21,62,,72,70,16,18,3,4,0.6,0.5
2024-01-02T1000,2196A,107.37,40.7372,巴彦淖尔市,市环保大楼,,,85,64,37,20,63,,72,71,11,13,,4,,0.4
2024-01-02T1000,1956A,86.1472,41.7538,巴音郭楞州,孔雀公园,颗粒物(PM10),105,159,179,53,56,2,,24,24,80,54,4,5,2.1,1
2024-01-02T1000,1957A,86.1972,41.7166,巴音郭楞州,棉纺厂,颗粒物(PM10),110,169,220,36,60,1,,10,10,74,65,3,4,1.4,1.1
2024-01-02T1000,1958A,86.2357,41.7173,巴音郭楞州,经济开发区,颗粒物(PM10),102,154,169,30,51,23,,34,34,64,45,3,4,0.8,0.8
2024-01-02T1000,2914A,106.7677,31.8794,巴中市,苏山坪,,39,,106,27,65,13,,5,5,16,26,4,4,1.1,1.5
2024-01-02T1000,3182A,106.7656,31.8545,巴中市,丽阳花园,,50,39,112,35,101,5,,3,3,24,25,5,4,1.3,1.5
2024-01-02T1000,3183A,106.7418,31.8654,巴中市,圣泉水务公司,细颗粒物(PM2.5),54,40,101,38,95,2,,2,2,15,18,5,6,1.3,1.8
2024-01-02T1000,3616A,106.7616,31.8344,巴中市,市中心医院,,43,31,106,30,101,4,,2,2,16,19,3,3,0.9,1.3
2024-01-02T1000,2235A,122.7911,45.6077,白城市,洮北区环保局,细颗粒物(PM2.5),152,116,47,116,41,46,,41,38,30,17,9,9,1.5,0.8
2024-01-02T1000,2236A,122.8738,45.5725,白城市,市环保局,细颗粒物(PM2.5),168,,52,127,38,17,,17,13,48,28,10,8,1.3,0.7
2024-01-02T1000,2231A,126.4219,41.9171,白山市,喜丰,颗粒物(PM10),55,59,78,38,50,60,,69,68,23,29,26,23,1.3,1.4
2024-01-02T1000,2232A,126.4077,41.9419,白山市,环保局,颗粒物(PM10),65,79,110,41,75,65,,63,59,24,45,16,22,1.2,1.5
2024-01-02T1000,2647A,104.1724,36.5446,白银市,第三小学,,49,49,77,15,23,30,,29,28,37,45,3,27,0.8,1
2024-01-02T1000,2648A,104.1465,36.5482,白银市,动力公司,,44,44,69,19,30,39,,51,50,24,32,5,23,0.5,0.8
2024-01-02T1000,2512A,106.6103,23.9011,百色市,市监测站,"颗粒物(PM10),细颗粒物(PM2.5)",74,97,82,54,51,19,,48,36,35,26,13,19,1.2,0.9
2024-01-02T1000,2513A,106.6538,23.8859,百色市,市中心血站,细颗粒物(PM2.5),84,88,78,62,52,18,,60,43,36,22,14,23,1.2,1
2024-01-02T1000,3406A,106.6085,23.8798,百色市,祈福高中,细颗粒物(PM2.5),87,76,74,64,60,20,,37,27,28,27,12,19,1.1,1.1
2024-01-02T1000,2270A,117.396,32.939,蚌埠市,工人疗养院,细颗粒物(PM2.5),117,142,139,88,91,8,,23,19,49,41,10,8,0.8,0.8
2024-01-02T1000,2271A,117.3605,32.9427,蚌埠市,百货大楼,细颗粒物(PM2.5),118,153,142,89,93,5,,18,17,61,51,7,5,1.1,0.9
2024-01-02T1000,2273A,117.4185,32.8911,蚌埠市,蚌埠学院,细颗粒物(PM2.5),122,136,133,92,88,25,,46,39,37,31,3,3,0.7,0.8
2024-01-02T1000,2274A,117.3533,32.9673,蚌埠市,淮上区政府,细颗粒物(PM2.5),135,153,145,103,104,7,,20,17,55,43,8,7,0.9,0.8
2024-01-02T1000,2275A,117.3145,32.8977,蚌埠市,高新区,细颗粒物(PM2.5),124,132,129,94,96,18,,46,39,56,45,4,5,0.7,0.8
2024-01-02T1000,3715A,117.3092,32.9314,蚌埠市,蚌埠田家炳中学,,,,154,,106,6,,19,18,60,53,,5,1.2,1
2024-01-02T1000,1585A,109.8756,40.6532,包头市,市环境监测站,细颗粒物(PM2.5),114,133,218,86,173,8,,5,5,56,80,16,24,2.2,2.9
2024-01-02T1000,1587A,109.9991,40.5842,包头市,包头八中,细颗粒物(PM2.5),219,207,216,169,174,6,,3,3,61,71,17,34,3.2,2.6
2024-01-02T1000,1588A,109.8538,40.6821,包头市,青山宾馆,细颗粒物(PM2.5),105,92,186,79,158,10,,9,9,53,74,16,16,1.9,3
2024-01-02T1000,1589A,109.8642,40.6288,包头市,惠龙物流,细颗粒物(PM2.5),179,224,235,135,182,5,,3,3,72,83,17,30,3.2,2.9
2024-01-02T1000,1590A,110.0377,40.5546,包头市,东河鸿龙湾,细颗粒物(PM2.5),199,187,168,149,130,12,,9,9,67,65,16,28,2.6,2
2024-01-02T1000,3283A,109.9154,40.5685,包头市,滨河大厦,细颗粒物(PM2.5),216,184,166,166,138,5,,4,4,60,59,10,22,2.5,1.9
2024-01-02T1000,3419A,109.9447,40.6261,包头市,包头市委党校,细颗粒物(PM2.5),104,124,187,78,147,10,,8,8,57,81,16,26,2.4,3.3
2024-01-02T1000,3683A,109.8331,40.6576,包头市,昆区政府,细颗粒物(PM2.5),144,143,231,110,202,8,,4,4,59,83,22,24,2.6,3.2
2024-01-02T1000,1930A,107.185,34.3063,宝鸡市,庙沟村,,48,41,80,33,55,23,,27,27,33,43,7,8,0.5,0.7
2024-01-02T1000,1931A,107.0708,34.3017,宝鸡市,竹园沟,细颗粒物(PM2.5),83,63,76,61,63,27,,21,21,23,32,4,4,0.9,0.8
2024-01-02T1000,1932A,107.1906,34.3672,宝鸡市,三陆医院,颗粒物(PM10),64,77,115,39,82,19,,19,18,40,54,9,12,0.8,1
2024-01-02T1000,1933A,107.1431,34.3547,宝鸡市,监测站,细颗粒物(PM2.5),55,52,107,39,74,23,,13,13,31,51,4,6,0.6,0.8
2024-01-02T1000,1934A,107.1186,34.3739,宝鸡市,技工学校,细颗粒物(PM2.5),57,58,98,40,70,26,,25,25,27,42,8,8,0.6,0.9
2024-01-02T1000,1935A,107.3906,34.3528,宝鸡市,陈仓区环保局家属楼,细颗粒物(PM2.5),90,108,145,67,106,23,,21,21,43,61,45,38,1.3,1.5
2024-01-02T1000,1936A,107.2058,34.3497,宝鸡市,文理学院,颗粒物(PM10),60,70,112,39,79,20,,18,18,37,42,9,10,0.9,1.1
2024-01-02T1000,1937A,107.2386,34.3622,宝鸡市,三迪小学,颗粒物(PM10),64,77,122,37,80,17,,13,13,35,54,9,10,1.0,1.2
2024-01-02T1000,1051A,115.493,38.8632,保定市,游泳馆,细颗粒物(PM2.5),246,208,171,196,151,10,,7,7,41,42,4,3,1.9,1.5
2024-01-02T1000,1052A,115.5213,38.8959,保定市,华电二区,,26,0,137,0,134,6,,5,4,52,39,4,4,1.7,1.1
2024-01-02T1000,1053A,115.4713,38.9108,保定市,接待中心,细颗粒物(PM2.5),247,204,166,197,148,6,,3,2,50,41,3,3,2.0,1.4
2024-01-02T1000,1054A,115.4612,38.8416,保定市,地表水厂,细颗粒物(PM2.5),255,226,171,205,159,6,,5,5,60,61,3,3,1.6,1
2024-01-02T1000,1056A,115.5086,38.8639,保定市,监测站,细颗粒物(PM2.5),215,181,154,165,133,3,,5,3,71,57,5,5,2.0,1.1
2024-01-02T1000,3581A,115.31981,38.95208,保定市,满城区生态环境分局,细颗粒物(PM2.5),223,,150,173,151,6,,2,2,40,52,3,3,1.8,1.6
2024-01-02T1000,3582A,115.47694,38.76408,保定市,清苑区第二中学,细颗粒物(PM2.5),240,217,164,190,138,10,,9,8,55,48,1,2,1.7,1.2
2024-01-02T1000,3583A,115.62909,39.02311,保定市,徐水物探局,细颗粒物(PM2.5),206,202,166,156,130,7,,3,3,53,52,5,4,1.9,1.4
2024-01-02T1000,4004A,115.4202,38.8656,保定市,双鹰农机,细颗粒物(PM2.5),212,191,163,162,142,8,,3,3,55,54,5,3,1.8,1.3
2024-01-02T1000,2594A,99.1678,25.1081,保山市,市环境监测站,,50,,22,35,14,16,,34,26,25,10,6,5,1.0,0.5
2024-01-02T1000,2595A,99.1711,25.1328,保山市,市环保局,,35,32,27,24,18,11,,39,30,27,7,6,5,0.9,0.5
2024-01-02T1000,1866A,109.2262,21.588,北海市,牛尾岭水库,,,,,,,,,,,,,,,,
2024-01-02T1000,1867A,109.1436,21.4086,北海市,海滩公园,颗粒物(PM10),60,70,60,39,36,104,,111,110,13,11,10,9,0.7,0.7
2024-01-02T1000,1868A,109.0981,21.4661,北海市,新市环保局,细颗粒物(PM2.5),67,65,59,48,39,104,,115,114,18,14,9,8,0.8,0.7
2024-01-02T1000,1869A,109.1778,21.5233,北海市,北海工业园,,,96,72,56,44,,,91,89,21,12,12,8,0.8,0.6
2024-01-02T1000,3400A,109.1911,21.4415,北海市,龙潭自来水厂,细颗粒物(PM2.5),59,64,58,42,37,100,,107,106,13,10,14,9,0.6,0.5
2024-01-02T1000,1001A,116.3621,39.8784,北京市,万寿西宫,细颗粒物(PM2.5),122,128,153,92,115,5,,2,2,78,78,3,2,1.3,1
2024-01-02T1000,1002A,116.2202,40.2915,北京市,定陵,细颗粒物(PM2.5),99,100,78,74,53,12,,2,2,42,38,1,2,0.8,0.6
2024-01-02T1000,1003A,116.4174,39.9289,北京市,东四,细颗粒物(PM2.5),105,107,153,79,113,6,,3,3,65,65,5,3,1.3,1.3
2024-01-02T1000,1004A,116.4072,39.8863,北京市,天坛,细颗粒物(PM2.5),135,119,145,103,120,5,,3,3,60,61,1,2,1.5,1.1
2024-01-02T1000,1005A,116.462,39.9365,北京市,农展馆,细颗粒物(PM2.5),102,108,141,76,98,11,,9,9,72,76,3,2,1.2,0.9
2024-01-02T1000,1006A,116.3392,39.9295,北京市,官园,细颗粒物(PM2.5),114,114,147,86,108,7,,5,5,77,70,2,3,1.7,1
2024-01-02T1000,1007A,116.2878,39.9611,北京市,海淀万柳,细颗粒物(PM2.5),97,109,132,72,91,10,,8,8,65,63,3,3,1.4,1.1
2024-01-02T1000,1008A,116.6636,40.135,北京市,顺义新城,细颗粒物(PM2.5),74,77,113,54,75,14,,5,5,40,62,1,1,0.5,0.7
2024-01-02T1000,1009A,116.6275,40.3275,北京市,怀柔镇,细颗粒物(PM2.5),73,72,92,53,62,18,,11,11,30,44,2,2,0.8,0.8
2024-01-02T1000,1010A,116.2296,40.217,北京市,昌平镇,细颗粒物(PM2.5),87,104,87,64,48,6,,1,1,53,52,3,2,0.9,0.7
2024-01-02T1000,1011A,116.3966,39.9821,北京市,奥体中心,细颗粒物(PM2.5),88,93,122,65,87,8,,6,6,63,68,2,2,1.2,1.1
2024-01-02T1000,1012A,116.184,39.9136,北京市,古城,细颗粒物(PM2.5),93,107,122,69,80,5,,2,2,55,61,3,2,1.1,1
2024-01-02T1000,3281A,115.9718,40.4529,北京市,延庆夏都,细颗粒物(PM2.5),90,82,77,67,61,13,,4,4,29,39,2,5,1.0,0.9
2024-01-02T1000,3417A,117.0709,40.1465,北京市,平谷新城,细颗粒物(PM2.5),125,118,125,95,94,9,,3,3,42,58,3,2,1.3,1
2024-01-02T1000,3418A,116.8336,40.4095,北京市,密云新城,颗粒物(PM10),54,57,101,37,65,35,,26,26,16,38,3,3,0.4,0.6
2024-01-02T1000,3671A,116.088,39.9726,北京市,门头沟三家店,,,,,,,,,,,,,,,,
2024-01-02T1000,3672A,116.1541,39.8204,北京市,丰台云岗,细颗粒物(PM2.5),103,108,100,77,97,9,,2,2,55,66,1,2,0.8,0.8
2024-01-02T1000,3673A,116.6804,39.9081,北京市,通州东关,细颗粒物(PM2.5),77,81,149,56,107,8,,2,2,63,72,2,2,0.8,1.1
2024-01-02T1000,3674A,115.9577,39.7603,北京市,房山燕山,细颗粒物(PM2.5),95,79,113,71,93,12,,6,6,38,56,1,3,0.9,0.8
2024-01-02T1000,3675A,116.4672,39.7733,北京市,大兴旧宫,细颗粒物(PM2.5),190,167,165,143,131,3,,2,2,84,69,2,2,1.5,1.1
2024-01-02T1000,3694A,115.986,40.4563,北京市,延庆石河营,细颗粒物(PM2.5),89,85,77,66,60,11,,3,3,31,38,3,4,1.1,1.1
2024-01-02T1000,3695A,116.6151,40.3053,北京市,怀柔新城,细颗粒物(PM2.5),78,76,88,57,59,19,,13,13,21,36,3,2,0.5,0.6
2024-01-02T1000,3696A,116.2545,39.8768,北京市,丰台小屯,细颗粒物(PM2.5),107,120,142,80,100,3,,1,1,65,68,2,2,1.5,1.1
2024-01-02T1000,3697A,116.84,40.3844,北京市,密云镇,细颗粒物(PM2.5),77,74,107,56,72,14,,3,3,31,46,3,2,0.7,0.8
2024-01-02T1000,1761A,123.8275,41.3064,本溪市,大峪,细颗粒物(PM2.5),97,107,89,72,60,22,,42,34,56,35,9,10,1.7,1.8
2024-01-02T1000,1762A,123.7567,41.3325,本溪市,溪湖,细颗粒物(PM2.5),122,129,101,92,76,19,,22,17,54,45,22,24,3.0,2.1
2024-01-02T1000,1763A,123.7169,41.3094,本溪市,彩屯,细颗粒物(PM2.5),110,106,109,83,87,42,,42,42,44,57,12,26,1.4,2.7
2024-01-02T1000,1764A,123.7669,41.2864,本溪市,东明,细颗粒物(PM2.5),98,89,77,73,70,24,,47,38,58,42,14,17,1.3,1.3
2024-01-02T1000,1765A,123.7992,41.2664,本溪市,新立屯,细颗粒物(PM2.5),68,62,62,49,53,58,,56,53,24,28,10,10,0.9,1
2024-01-02T1000,1766A,123.8142,41.3472,本溪市,威宁,细颗粒物(PM2.5),109,120,98,82,76,,,29,26,60,43,5,6,1.6,1.4
2024-01-02T1000,2587A,105.2864,27.3125,毕节市,八中,,42,31,20,29,17,38,,63,52,28,12,9,6,1.3,1
2024-01-02T1000,2588A,105.31,27.2944,毕节市,师专,,32,32,19,20,15,35,,70,62,29,14,8,6,1.0,0.9
2024-01-02T1000,3537A,105.3631,27.3533,毕节市,长征村,,43,43,26,30,16,26,,64,50,29,10,7,6,1.4,0.9
2024-01-02T1000,1629A,118.0018,37.3617,滨州市,第二水厂,细颗粒物(PM2.5),206,224,155,156,98,11,,7,7,71,59,19,23,1.9,1.2
2024-01-02T1000,1630A,117.9776,37.393,滨州市,北中新校,细颗粒物(PM2.5),195,210,152,146,95,15,,5,5,65,67,21,30,1.5,1.1
2024-01-02T1000,3514A,117.9378,37.3956,滨州市,中海酒店,细颗粒物(PM2.5),224,213,136,174,97,31,,20,20,69,61,25,20,1.6,1.3
2024-01-02T1000,3515A,117.9378,37.3553,滨州市,开发区一中,细颗粒物(PM2.5),208,218,148,158,100,16,,10,10,72,63,26,25,1.4,1
2024-01-02T1000,3516A,118.0917,37.694,滨州市,金海六路,细颗粒物(PM2.5),206,221,126,156,83,7,,2,1,74,56,25,18,1.4,1.1
2024-01-02T1000,4028A,117.9956,37.3753,滨州市,滨州市西街道办事处,细颗粒物(PM2.5),208,219,141,158,97,11,,6,6,72,55,24,30,2.1,1.4
2024-01-02T1000,2311A,115.8072,33.8399,亳州市,污水处理厂,细颗粒物(PM2.5),149,181,184,114,122,30,,52,46,38,31,8,6,1.2,1.2
2024-01-02T1000,2312A,115.7789,33.8518,亳州市,三国揽胜宫,颗粒物(PM10),135,219,221,99,122,35,,53,43,40,37,7,8,1.3,1.4
2024-01-02T1000,3332A,115.7633,33.8034,亳州市,亳州学院,细颗粒物(PM2.5),132,180,190,100,113,52,,73,66,27,24,5,6,1.1,1.2
2024-01-02T1000,2693A,82.0485,44.8556,博尔塔拉蒙古自治州,市党校,,34,34,32,21,20,40,,43,43,12,13,11,13,0.4,0.4
2024-01-02T1000,2694A,82.0806,44.8969,博尔塔拉蒙古自治州,市环保局,,36,36,34,18,16,34,,48,44,21,16,8,9,0.4,0.4
2024-01-02T1000,1071A,116.8842,38.2991,沧州市,沧县城建局,细颗粒物(PM2.5),215,,135,165,115,13,,16,15,51,49,7,10,1.6,1.2
2024-01-02T1000,1072A,116.8584,38.3254,沧州市,电视转播站,细颗粒物(PM2.5),188,152,126,141,98,8,,12,9,57,46,7,10,1.8,1.1
2024-01-02T1000,1073A,116.8709,38.3228,沧州市,市环保局,细颗粒物(PM2.5),195,,132,146,110,10,,19,13,55,41,5,8,1.7,1.2
2024-01-02T1000,3324A,116.8136,38.3004,沧州市,河北水利电力学院,细颗粒物(PM2.5),182,161,137,137,105,9,,6,6,47,46,9,14,1.7,1.1
2024-01-02T1000,2622A,97.1806,31.1273,昌都市,昌都监测站,,21,21,41,12,19,23,,29,29,25,30,6,7,0.8,1.1
2024-01-02T1000,3719A,97.1714,31.1406,昌都市,昌都会议中心,,19,14,12,13,11,41,,51,48,10,9,5,4,0.5,0.5
2024-01-02T1000,2690A,88.1236,43.8886,昌吉州,天山天池,,24,2,5,0,1,76,,76,75,4,4,6,6,0.4,0.4
2024-01-02T1000,2692A,87.2717,44.0297,昌吉州,新区政务中心,,48,42,61,33,47,44,,48,47,22,31,6,4,0.8,0.9
2024-01-02T1000,3613A,87.3095,44.0142,昌吉州,亚心广场,,49,46,61,34,50,43,,48,48,31,26,6,6,0.9,1
2024-01-02T1000,1119A,125.3325,43.9166,长春市,食品厂,细颗粒物(PM2.5),120,,79,91,74,19,,22,20,46,41,22,17,1.3,1.1
2024-01-02T1000,1120A,125.2863,43.9027,长春市,客车厂,细颗粒物(PM2.5),115,87,76,87,79,25,,24,22,41,42,18,18,1.3,1.2
2024-01-02T1000,1121A,125.2841,43.8463,长春市,邮电学院,细颗粒物(PM2.5),139,,90,106,83,28,,23,23,40,43,23,22,1.2,1.1
2024-01-02T1000,1122A,125.3716,43.8772,长春市,劳动公园,细颗粒物(PM2.5),125,96,83,95,73,26,,20,20,44,45,30,24,1.1,1
2024-01-02T1000,1123A,125.3297,43.8805,长春市,园林处,细颗粒物(PM2.5),133,,78,101,74,23,,17,17,46,49,25,27,1.4,1.2
2024-01-02T1000,1124A,125.4605,43.79,长春市,净月潭,细颗粒物(PM2.5),103,95,72,77,61,32,,30,30,27,26,21,13,1.1,1
2024-01-02T1000,1125A,125.7194,43.515,长春市,甩湾子,,,,,,,,,,,,,,,,
2024-01-02T1000,1126A,125.3863,43.8447,长春市,经开区环卫处,细颗粒物(PM2.5),125,107,82,95,73,29,,20,20,34,40,15,15,1.2,1.1
2024-01-02T1000,1127A,125.245,43.7783,长春市,高新区管委会,细颗粒物(PM2.5),127,105,77,96,77,33,,21,21,30,38,16,14,1.3,1.2
2024-01-02T1000,1128A,125.1761,43.8325,长春市,岱山公园,细颗粒物(PM2.5),119,,77,90,74,33,,28,28,28,34,11,11,1.2,1.2
2024-01-02T1000,1335A,113.0833,28.2325,长沙市,经开区环保局,细颗粒物(PM2.5),98,98,139,73,98,42,,54,52,28,27,5,7,0.8,0.8
2024-01-02T1000,1336A,112.8872,28.2189,长沙市,高开区环保局,细颗粒物(PM2.5),89,84,138,66,91,52,,55,53,22,24,3,5,0.8,0.8
2024-01-02T1000,1337A,113.0792,28.2053,长沙市,马坡岭,细颗粒物(PM2.5),94,96,138,70,96,39,,49,47,32,33,5,8,0.9,0.8
2024-01-02T1000,1338A,112.9394,28.19,长沙市,湖南师范大学,细颗粒物(PM2.5),87,86,143,64,102,48,,56,52,20,21,3,5,0.9,0.9
2024-01-02T1000,1339A,113.0178,28.1322,长沙市,雨花区环保局,细颗粒物(PM2.5),104,87,136,78,98,,,51,49,24,28,,5,1.1,1.2
2024-01-02T1000,1340A,112.9792,28.2597,长沙市,伍家岭,颗粒物(PM10),76,102,150,55,95,45,,52,49,23,25,4,7,1.1,1.1
2024-01-02T1000,1341A,113.0014,28.1944,长沙市,火车新站,细颗粒物(PM2.5),77,82,138,56,97,50,,58,54,19,23,2,5,1.0,1
2024-01-02T1000,1342A,112.9844,28.1178,长沙市,天心区环保局,细颗粒物(PM2.5),88,78,137,65,95,45,,52,48,26,28,3,5,0.6,0.6
2024-01-02T1000,1343A,112.8908,28.1308,长沙市,湖南中医药大学,细颗粒物(PM2.5),87,77,137,64,94,50,,55,53,17,19,3,5,0.8,0.6
2024-01-02T1000,1344A,112.9581,28.3611,长沙市,沙坪,细颗粒物(PM2.5),88,86,121,65,87,48,,54,51,17,20,3,6,0.9,1
2024-01-02T1000,1727A,113.1147,36.1547,长治市,清华站,细颗粒物(PM2.5),122,121,97,92,67,14,,18,14,57,43,18,17,1.7,1.1
2024-01-02T1000,1728A,113.1031,36.1989,长治市,监测站,细颗粒物(PM2.5),128,100,89,97,73,10,,10,5,66,58,24,19,1.9,1.2
2024-01-02T1000,1730A,113.0886,36.2125,长治市,审计局,细颗粒物(PM2.5),113,109,96,85,78,20,,11,7,46,51,29,22,1.4,1.2
2024-01-02T1000,1731A,113.0844,36.1856,长治市,长治八中,细颗粒物(PM2.5),92,121,107,68,64,9,,8,3,56,55,31,24,1.9,1.4
2024-01-02T1000,2845A,113.1569,36.1911,长治市,德盛苑,细颗粒物(PM2.5),92,73,75,68,60,52,,46,46,20,27,16,18,0.9,0.9
2024-01-02T1000,3568A,113.06,36.0464,长治市,向阳小学,,,,100,,66,,,45,39,53,40,30,17,1.9,1.2
2024-01-02T1000,3569A,112.8792,36.3144,长治市,屯留一中,细颗粒物(PM2.5),103,95,91,77,68,41,,38,38,46,48,17,19,1.2,1.1
2024-01-02T1000,3570A,113.235,36.3489,长治市,潞城四中,细颗粒物(PM2.5),122,133,113,92,82,,,30,26,,35,,16,,1
2024-01-02T1000,1854A,111.6975,28.9703,常德市,市二中,细颗粒物(PM2.5),89,94,120,66,89,88,,82,82,18,20,6,7,0.8,0.9
2024-01-02T1000,1857A,111.7158,29.1456,常德市,白鹤山,细颗粒物(PM2.5),90,93,133,67,80,48,,46,46,9,15,3,4,0.7,0.7
2024-01-02T1000,3138A,111.7153,29.0289,常德市,武陵区永安,细颗粒物(PM2.5),97,88,122,72,88,83,,77,77,22,24,6,8,0.7,0.8
2024-01-02T1000,3139A,111.6892,28.9881,常德市,鼎城区玉霞,细颗粒物(PM2.5),103,93,121,77,92,90,,80,80,18,21,8,10,0.9,0.9
2024-01-02T1000,3140A,111.6625,29.0531,常德市,武陵区长庚,细颗粒物(PM2.5),84,88,123,62,80,72,,63,63,17,20,5,6,0.7,0.8
2024-01-02T1000,1196A,119.9633,31.762,常州市,市监测站,细颗粒物(PM2.5),73,77,139,53,98,23,,9,9,65,77,13,10,0.8,1
2024-01-02T1000,1200A,119.9468,31.7069,常州市,武进监测站,细颗粒物(PM2.5),65,78,139,47,89,24,,8,8,48,60,12,11,0.8,1.2
2024-01-02T1000,1201A,119.9255,31.9087,常州市,安家,细颗粒物(PM2.5),67,69,105,48,77,34,,9,9,38,54,10,8,0.9,1.1
2024-01-02T1000,3002A,119.9805,31.8174,常州市,行政中心,细颗粒物(PM2.5),70,77,119,51,75,28,,10,10,44,55,16,13,1.1,1.2
2024-01-02T1000,3003A,120.0522,31.7748,常州市,经开区,细颗粒物(PM2.5),80,91,129,59,83,21,,8,8,55,54,10,6,0.9,0.9
2024-01-02T1000,3010A,119.9025,31.7964,常州市,钟楼,细颗粒物(PM2.5),78,73,112,57,89,28,,8,8,52,61,13,9,1.2,1.2
2024-01-02T1000,3429A,119.8598,31.7066,常州市,武进经发区,细颗粒物(PM2.5),73,83,140,53,100,26,,9,9,55,67,10,10,1.0,1.5
2024-01-02T1000,3430A,119.5826,31.7245,常州市,金坛城区,细颗粒物(PM2.5),80,96,144,59,102,18,,6,6,51,47,12,9,1.0,1.1
2024-01-02T1000,2220A,120.4318,41.5881,朝阳市,西梁,细颗粒物(PM2.5),145,171,119,111,69,11,,6,6,42,37,23,29,2.4,1.8
2024-01-02T1000,2221A,120.4521,41.5646,朝阳市,河畔小区,细颗粒物(PM2.5),113,119,101,85,73,20,,8,8,33,37,14,17,1.8,1.5
2024-01-02T1000,2222A,120.4176,41.5648,朝阳市,八里堡,细颗粒物(PM2.5),119,114,102,90,66,13,,6,6,38,41,16,26,2.0,1.8
2024-01-02T1000,2223A,120.3806,41.5969,朝阳市,农业园区,细颗粒物(PM2.5),165,139,101,125,67,15,,8,8,48,40,20,26,2.3,1.5
2024-01-02T1000,1705A,116.6367,23.6719,潮州市,西园路,细颗粒物(PM2.5),85,,91,63,58,66,,54,47,22,21,9,5,0.7,0.6
2024-01-02T1000,1706A,116.6447,23.6706,潮州市,档案局,,,,77,,65,60,,54,45,,21,,8,1.0,0.8
2024-01-02T1000,3026A,116.6183,23.6608,潮州市,市政府,细颗粒物(PM2.5),98,106,82,73,60,63,,69,56,35,23,14,11,1.3,0.9
2024-01-02T1000,2472A,113.0073,25.9061,郴州市,马头岭,细颗粒物(PM2.5),88,,99,65,57,36,,41,41,27,32,5,8,1.3,1.1
2024-01-02T1000,2473A,113.0116,25.8226,郴州市,市职中,细颗粒物(PM2.5),88,71,83,65,71,38,,44,44,24,23,6,8,1.1,1
2024-01-02T1000,2474A,113.0161,25.8001,郴州市,兴隆步行街,细颗粒物(PM2.5),109,93,103,82,86,39,,46,46,23,25,3,5,1.1,1
2024-01-02T1000,2475A,113.0383,25.8071,郴州市,市审计局,"颗粒物(PM10),细颗粒物(PM2.5)",67,84,90,48,70,39,,42,42,18,21,4,7,0.9,0.9
2024-01-02T1000,2476A,113.0348,25.7759,郴州市,市环保局,细颗粒物(PM2.5),114,86,93,86,85,38,,38,38,20,27,3,10,1.0,1
2024-01-02T1000,1431A,103.9728,30.7236,成都市,金泉两河,细颗粒物(PM2.5),108,90,141,81,110,3,,0,0,26,33,3,3,1.3,1.3
2024-01-02T1000,1432A,104.176,30.6872,成都市,十里店,细颗粒物(PM2.5),109,110,130,82,108,7,,4,4,36,41,3,3,1.0,1
2024-01-02T1000,1433A,104.079,30.5706,成都市,三瓦窑,细颗粒物(PM2.5),125,121,150,95,118,0,,6,3,21,26,1,2,1.2,1
2024-01-02T1000,1434A,104.1114,30.63,成都市,沙河铺,细颗粒物(PM2.5),100,102,129,75,108,4,,5,5,35,34,3,3,1.0,1
2024-01-02T1000,1437A,104.0786,30.6531,成都市,君平街,细颗粒物(PM2.5),120,,138,91,126,4,,4,2,37,38,3,3,1.2,1
2024-01-02T1000,1438A,103.613,31.0283,成都市,灵岩寺,,42,42,44,25,60,51,,66,66,18,21,40,15,1.3,1.3
2024-01-02T1000,2880A,104.0239,30.65639,成都市,大石西路,细颗粒物(PM2.5),95,97,129,71,109,3,,1,1,47,43,2,2,1.1,1.1
2024-01-02T1000,3136A,104.2725,30.5589,成都市,龙泉驿区区政府,细颗粒物(PM2.5),70,68,111,51,89,14,,25,19,29,34,3,2,1.1,1.1
2024-01-02T1000,3357A,104.0106,30.6931,成都市,金博路,细颗粒物(PM2.5),88,95,126,65,109,3,,2,2,37,38,3,3,1.4,1.2
2024-01-02T1000,3359A,104.0578,30.5225,成都市,华阳,细颗粒物(PM2.5),98,107,130,73,106,0,,1,0,33,36,1,2,1.2,1
2024-01-02T1000,3487A,104.2394,30.5319,成都市,车城东七路,细颗粒物(PM2.5),97,87,128,72,113,8,,30,19,30,34,3,3,1.1,1
2024-01-02T1000,3488A,104.3853,30.7453,成都市,青白江技师分院,细颗粒物(PM2.5),100,112,144,75,124,11,,5,5,25,38,3,3,1.1,1.2
2024-01-02T1000,3489A,104.0789,30.4072,成都市,科学城,,50,50,114,35,101,11,,11,8,15,26,2,2,0.9,0.9
2024-01-02T1000,4011A,103.8506,30.6947,成都市,光华大道三段,细颗粒物(PM2.5),122,106,145,92,125,4,,2,2,29,37,3,3,1.2,1.1
2024-01-02T1000,1062A,117.9531,40.9081,承德市,铁路,细颗粒物(PM2.5),155,162,113,118,71,10,,8,8,58,54,11,13,2.0,1.5
2024-01-02T1000,1063A,117.9392,40.9763,承德市,中国银行,细颗粒物(PM2.5),85,108,95,63,56,16,,10,10,37,45,2,4,1.3,1.2
2024-01-02T1000,1064A,117.9503,40.928,承德市,开发区,细颗粒物(PM2.5),104,125,93,78,56,13,,10,10,50,52,10,13,1.8,1.3
2024-01-02T1000,1065A,117.8051,40.9655,承德市,文化中心,细颗粒物(PM2.5),94,129,143,70,75,11,,8,8,52,54,7,13,1.4,1.4
2024-01-02T1000,1066A,117.9268,41.0026,承德市,离宫,细颗粒物(PM2.5),92,86,89,68,58,9,,3,3,29,37,4,5,1.0,0.9
2024-01-02T1000,2314A,117.47,30.6618,池州市,池州学院,细颗粒物(PM2.5),169,174,178,128,132,50,,46,40,22,27,8,7,1.1,1.1
2024-01-02T1000,3237A,117.4918,30.6617,池州市,展览馆,细颗粒物(PM2.5),165,170,178,125,127,,,42,40,22,27,6,6,1.3,1.2
2024-01-02T1000,3333A,117.5627,30.695,池州市,第八中学,细颗粒物(PM2.5),156,163,172,119,126,,,41,35,,25,4,4,1.6,1.4
2024-01-02T1000,3334A,117.5038,30.6243,池州市,第十二中学,细颗粒物(PM2.5),170,172,167,129,130,42,,29,29,25,29,4,5,1.2,1.1
2024-01-02T1000,1744A,118.9233,42.2816,赤峰市,松山一中,,39,39,33,27,16,14,,30,25,52,36,15,13,1.5,0.9
2024-01-02T1000,1745A,118.9576,42.2728,赤峰市,哈达街,,49,49,37,30,17,15,,45,33,55,29,18,13,1.6,0.8
2024-01-02T1000,1746A,118.8788,42.2554,赤峰市,天义路,,30,30,20,20,11,33,,54,45,43,27,12,8,1.2,0.7
2024-01-02T1000,3058A,119.2658,42.0353,赤峰市,银河街,细颗粒物(PM2.5),216,220,173,166,119,17,,14,14,50,51,36,36,4.5,3.1
2024-01-02T1000,3286A,118.9359,42.3147,赤峰市,桥北物流园区,细颗粒物(PM2.5),65,49,36,47,22,15,,37,27,46,36,19,15,1.3,0.8
2024-01-02T1000,2521A,107.3476,22.4136,崇左市,市环保局江州分局,细颗粒物(PM2.5),63,72,51,45,27,40,,16,16,25,22,8,7,0.8,0.6
2024-01-02T1000,2522A,107.3702,22.3707,崇左市,城南新区,细颗粒物(PM2.5),89,81,47,66,30,20,,26,24,34,20,8,7,0.8,0.5
2024-01-02T1000,2298A,118.3093,32.3153,滁州市,老年大学,细颗粒物(PM2.5),115,122,115,87,83,15,,7,7,51,50,10,8,0.8,0.9
2024-01-02T1000,2299A,118.3244,32.2786,滁州市,人大宾馆,细颗粒物(PM2.5),130,148,124,99,88,18,,9,9,63,56,12,7,0.8,0.8
2024-01-02T1000,3207A,118.3118,32.3038,滁州市,市政府原办公楼,细颗粒物(PM2.5),105,122,111,79,74,17,,9,9,54,54,11,8,0.5,0.6
2024-01-02T1000,3331A,118.3267,32.2634,滁州市,图书馆,细颗粒物(PM2.5),107,122,113,80,67,20,,11,11,65,57,10,7,1.0,0.9
2024-01-02T1000,2605A,101.5482,25.0441,楚雄州,州环境监测站,,,,32,28,24,,,5,5,19,22,,6,0.8,0.7
2024-01-02T1000,2606A,101.538,25.0492,楚雄州,市经济开发区,,28,27,33,19,22,10,,7,7,19,22,7,6,0.7,0.6
2024-01-02T1000,2548A,107.5277,31.2827,达州市,达州职业技术学院,细颗粒物(PM2.5),57,60,123,40,97,9,,9,9,24,30,7,9,0.7,1.5
2024-01-02T1000,2549A,107.5086,31.2186,达州市,市环境监测站,细颗粒物(PM2.5),73,72,124,53,102,2,,4,4,37,43,8,9,1.2,1.7
2024-01-02T1000,2550A,107.4988,31.2132,达州市,凤凰小区,,,66,128,,114,5,,9,9,41,43,8,9,1.1,1.8
2024-01-02T1000,2551A,107.5082,31.1986,达州市,达县机关宾馆,细颗粒物(PM2.5),77,70,114,56,97,5,,8,8,50,48,7,7,1.1,1.6
2024-01-02T1000,2552A,107.4644,31.2124,达州市,市政中心,颗粒物(PM10),71,91,140,51,109,4,,5,5,47,47,7,9,1.3,2
2024-01-02T1000,2614A,100.1542,25.7054,大理州,大理市环境监测站,,26,23,19,18,16,57,,66,64,8,5,6,6,0.4,0.4
2024-01-02T1000,2615A,100.2171,25.5811,大理州,大理古城,,28,28,19,5,11,44,,53,48,20,11,6,6,0.6,0.4
2024-01-02T1000,1109A,121.612,38.9741,大连市,甘井子,细颗粒物(PM2.5),87,85,55,64,36,13,,37,28,65,31,19,10,1.2,0.7
2024-01-02T1000,1110A,121.565,38.9511,大连市,周水子,细颗粒物(PM2.5),87,82,52,64,37,23,,35,27,60,32,20,16,1.3,0.7
2024-01-02T1000,1111A,121.5637,38.8845,大连市,星海三站,,,84,50,64,34,33,,50,42,43,23,29,12,,0.7
2024-01-02T1000,1112A,121.6302,38.9117,大连市,青泥洼桥,细颗粒物(PM2.5),78,85,57,57,34,52,,50,43,36,30,15,14,0.9,0.7
2024-01-02T1000,1113A,121.6251,38.8638,大连市,傅家庄,细颗粒物(PM2.5),77,94,52,56,31,60,,60,56,27,21,19,16,1.2,1
2024-01-02T1000,1114A,121.5213,38.8661,大连市,七贤岭,细颗粒物(PM2.5),74,88,53,54,34,24,,46,34,44,23,10,10,1.5,0.8
2024-01-02T1000,1115A,121.2529,38.8061,大连市,旅顺,细颗粒物(PM2.5),84,90,53,62,34,54,,62,59,28,20,14,11,1.3,1
2024-01-02T1000,1116A,121.7485,39.1311,大连市,金州,细颗粒物(PM2.5),109,117,62,82,46,37,,48,44,40,27,20,13,1.6,1.2
2024-01-02T1000,1117A,121.7811,39.0496,大连市,开发区,颗粒物(PM10),67,84,60,46,28,40,,43,35,43,34,13,12,1.3,0.8
2024-01-02T1000,1118A,121.9762,39.0631,大连市,双D港,细颗粒物(PM2.5),77,75,57,56,35,58,,48,47,21,20,13,10,1.0,0.8
2024-01-02T1000,1789A,124.81117,46.03138,大庆市,大同区,细颗粒物(PM2.5),144,,62,110,58,24,,35,33,32,21,17,11,1.1,0.8
2024-01-02T1000,1790A,125.129,46.533,大庆市,龙凤区,,,,74,,48,12,,9,9,68,38,12,6,2.5,1
2024-01-02T1000,1791A,124.902,46.408,大庆市,红岗区,,36,36,44,22,30,30,,37,35,34,19,8,7,0.6,0.6
2024-01-02T1000,1792A,125.153,46.586,大庆市,萨尔图区,细颗粒物(PM2.5),83,70,66,61,49,24,,25,25,56,34,8,8,1.1,0.6
2024-01-02T1000,1793A,124.9042,46.6215,大庆市,让胡路区,颗粒物(PM10),54,57,59,26,32,17,,26,20,42,23,10,6,0.9,0.6
2024-01-02T1000,3481A,125.141,46.634,大庆市,萨区政府监测点,细颗粒物(PM2.5),105,88,56,79,44,17,,13,13,55,33,9,10,1.7,0.8
2024-01-02T1000,1721A,113.3819,40.1097,大同市,果树场,,,,,,,,,,,,,,,,
2024-01-02T1000,1723A,113.2994,40.0758,大同市,云冈宾馆,细颗粒物(PM2.5),99,129,138,74,84,14,,10,10,50,58,23,29,2.3,1.8
2024-01-02T1000,1724A,113.3444,40.0917,大同市,大同大学,颗粒物(PM10),83,116,128,58,71,11,,12,12,56,62,41,33,1.7,1.6
2024-01-02T1000,1725A,113.2661,40.1269,大同市,安家小村,细颗粒物(PM2.5),122,171,142,92,72,10,,9,9,56,57,39,37,4.0,2.1
2024-01-02T1000,1726A,113.2711,40.0844,大同市,教育学院,,,149,147,73,71,,,5,5,62,66,32,31,3.8,2.1
2024-01-02T1000,3282A,113.3397,40.0597,大同市,大同市卫生学校,细颗粒物(PM2.5),70,78,134,51,94,13,,10,10,45,58,26,26,1.4,1.4
2024-01-02T1000,3565A,113.1367,40.1122,大同市,云冈站,颗粒物(PM10),91,132,86,46,43,8,,6,6,45,45,45,41,1.1,0.8
2024-01-02T1000,3566A,113.1186,40.2556,大同市,图书馆,细颗粒物(PM2.5),137,134,118,104,90,16,,8,8,50,52,38,25,1.9,1.5
2024-01-02T1000,3567A,113.5931,40.0461,大同市,区一中,细颗粒物(PM2.5),132,173,176,100,104,18,,10,10,50,59,60,60,2.4,1.8
2024-01-02T1000,3676A,113.2802,40.0995,大同市,第二人民医院,细颗粒物(PM2.5),118,151,160,89,83,12,,8,8,54,62,27,31,3.2,2.5
2024-01-02T1000,2269A,124.1069,50.4097,大兴安岭地区,科技局,,29,21,33,20,29,40,,44,41,5,11,6,7,0.5,0.5
2024-01-02T1000,3663A,124.1164,50.4278,大兴安岭地区,红旗社区,,13,,35,9,31,36,,20,20,22,27,7,12,0.5,0.5
2024-01-02T1000,1600A,124.3303,40.0625,丹东市,江湾东路,细颗粒物(PM2.5),113,94,110,85,104,23,,19,18,59,48,28,25,1.5,2
2024-01-02T1000,1601A,124.4256,40.1503,丹东市,临江后街,细颗粒物(PM2.5),122,107,121,92,103,23,,16,16,51,55,24,21,1.7,2.1
2024-01-02T1000,1602A,124.3933,40.1461,丹东市,元宝山,细颗粒物(PM2.5),122,107,111,92,101,28,,17,17,37,46,23,18,1.8,2.2
2024-01-02T1000,1603A,124.3633,40.1092,丹东市,民主桥,细颗粒物(PM2.5),109,97,106,82,96,12,,19,13,66,53,21,20,1.5,1.9
2024-01-02T1000,3541A,109.5726,19.5167,儋州市,第一中学子站,,35,35,32,21,18,70,,72,70,2,2,4,4,0.8,0.8
2024-01-02T1000,3542A,109.5567,19.5187,儋州市,东坡学校子站,,35,35,33,18,16,76,,80,77,3,3,4,5,0.7,0.6
2024-01-02T1000,2616A,98.5842,24.428,德宏州,德宏州监测站,细颗粒物(PM2.5),62,59,50,44,33,11,,6,6,19,24,38,23,0.8,0.7
2024-01-02T1000,3677A,98.5881,24.4368,德宏州,芒市人民政府综合楼,,43,38,39,30,27,7,,10,6,23,19,11,13,0.8,0.5
2024-01-02T1000,1901A,104.4239,31.1208,德阳市,东山公园,细颗粒物(PM2.5),89,109,130,66,116,14,,15,12,40,46,1,1,1.0,1.1
2024-01-02T1000,1902A,104.3826,31.1317,德阳市,西小区,细颗粒物(PM2.5),178,134,152,134,154,,,3,3,40,48,3,3,,1.3
2024-01-02T1000,1904A,104.3553,31.1091,德阳市,耐火材料厂,细颗粒物(PM2.5),158,138,150,120,140,11,,4,4,35,42,3,2,1.1,1.2
2024-01-02T1000,3639A,104.4019,31.1244,德阳市,市教育局,细颗粒物(PM2.5),163,,137,124,135,11,,3,3,39,48,3,2,1.1,1.3
2024-01-02T1000,1622A,116.3032,37.4674,德州市,儿童乐园,,,,183,,130,,,38,,,52,,12,,1.4
2024-01-02T1000,1624A,116.2991,37.4451,德州市,监理站,细颗粒物(PM2.5),240,240,186,190,137,15,,10,10,77,64,15,11,2.3,1.4
2024-01-02T1000,3066A,116.2721,37.4379,德州市,九衢泉纯净水厂,细颗粒物(PM2.5),193,185,189,145,128,9,,6,6,54,60,5,7,2.0,1.3
2024-01-02T1000,3371A,116.3728,37.4403,德州市,开发区人民医院,细颗粒物(PM2.5),218,234,200,168,135,9,,5,5,64,60,10,7,2.4,1.6
2024-01-02T1000,3372A,116.3572,37.4094,德州市,太阳城中学,细颗粒物(PM2.5),218,223,196,168,144,12,,5,5,48,56,11,9,1.8,1.5
2024-01-02T1000,3511A,116.5652,37.3319,德州市,陵城艺术中心,细颗粒物(PM2.5),267,276,211,217,152,8,,10,10,60,48,13,12,3.3,1.7
2024-01-02T1000,2621A,99.7056,27.8317,迪庆州,迪庆州站,,41,41,26,23,17,42,,43,41,16,13,10,9,0.8,0.6
2024-01-02T1000,3180A,99.7136,27.8094,迪庆州,质量技术监督局,,,,23,,16,,,47,43,26,10,7,7,1.1,0.7
2024-01-02T1000,2663A,104.6241,35.5734,定西市,东关小学,细颗粒物(PM2.5),78,98,104,57,51,10,,14,14,15,23,26,25,1.2,1.2
2024-01-02T1000,2664A,104.6194,35.5934,定西市,供电公司,细颗粒物(PM2.5),115,148,100,87,57,10,,6,6,25,29,39,22,1.9,1.3
2024-01-02T1000,1389A,113.7547,23.0494,东莞市,莞城梨川,颗粒物(PM10),65,80,90,46,53,93,,103,100,25,24,7,8,0.9,0.9
2024-01-02T1000,1390A,113.7944,23.0128,东莞市,东城石井,颗粒物(PM10),64,77,79,45,51,79,,94,88,27,20,8,9,0.8,0.8
2024-01-02T1000,1391A,113.7383,22.9658,东莞市,南城西平,颗粒物(PM10),63,76,82,43,50,71,,84,81,34,25,8,7,0.9,0.9
2024-01-02T1000,3319A,113.7338,23.0381,东莞市,万江金泰,细颗粒物(PM2.5),67,82,90,48,60,80,,97,92,28,23,11,12,0.8,0.8
2024-01-02T1000,3626A,113.7533,23.0202,东莞市,南城元岭,颗粒物(PM10),64,77,83,43,50,80,,97,92,27,25,8,9,1.0,1
2024-01-02T1000,3627A,113.7875,23.0457,东莞市,东城主山,颗粒物(PM10),61,72,77,42,50,86,,102,96,31,23,7,8,0.8,0.9
2024-01-02T1000,1666A,118.6614,37.4309,东营市,市环保局,细颗粒物(PM2.5),218,229,102,168,73,22,,20,17,65,33,120,23,1.5,0.7
2024-01-02T1000,3036A,118.6904,37.4338,东营市,开发区管委会,细颗粒物(PM2.5),223,210,104,173,81,17,,18,16,82,43,77,16,1.9,0.9
2024-01-02T1000,3365A,118.5719,37.565,东营市,垦利区民丰路,细颗粒物(PM2.5),213,239,107,163,68,12,,10,8,81,52,25,13,1.6,0.9
2024-01-02T1000,3498A,118.5055,37.8612,东营市,河口城区,细颗粒物(PM2.5),175,195,115,132,72,19,,10,10,55,41,8,6,1.2,0.8
2024-01-02T1000,3646A,118.4978,37.4623,东营市,胜利站,细颗粒物(PM2.5),201,210,113,151,76,20,,20,18,74,54,24,19,1.2,0.7
2024-01-02T1000,3734A,118.35,37.26,东营市,理想之城,细颗粒物(PM2.5),156,185,102,119,66,11,,10,8,81,52,19,10,1.6,0.7
2024-01-02T1000,1591A,110.0023,39.8129,鄂尔多斯市,综合楼,,44,44,63,7,13,72,,70,70,15,27,4,8,0.3,0.4
2024-01-02T1000,1592A,109.9486,39.8261,鄂尔多斯市,巴音孟克林场办事处,,36,36,40,9,12,71,,67,67,9,16,6,10,0.4,0.4
2024-01-02T1000,1593A,109.7736,39.5986,鄂尔多斯市,康泽苑,,36,36,45,12,25,68,,57,57,16,27,7,8,0.5,0.6
2024-01-02T1000,1594A,109.8119,39.5989,鄂尔多斯市,华泰汽车城,,44,44,46,14,22,67,,34,34,18,39,7,8,0.4,0.6
2024-01-02T1000,1595A,109.9734,39.7884,鄂尔多斯市,奥林花园,,48,48,57,12,14,67,,63,63,15,33,6,10,0.5,0.7
2024-01-02T1000,2436A,114.8938,30.3994,鄂州市,市政府,细颗粒物(PM2.5),168,142,127,127,107,19,,21,21,36,46,6,8,1.6,1.5
2024-01-02T1000,2437A,114.8989,30.3714,鄂州市,赵家坝,细颗粒物(PM2.5),173,,121,131,107,15,,30,26,53,49,10,7,1.6,1.2
2024-01-02T1000,3654A,114.8094,30.4089,鄂州市,精准医疗中心,细颗粒物(PM2.5),163,180,156,124,102,28,,16,12,32,36,8,9,0.9,1
2024-01-02T1000,2499A,108.3411,21.6158,防城港市,沙万,细颗粒物(PM2.5),59,63,69,42,44,80,,94,88,23,19,7,6,0.9,0.8
2024-01-02T1000,2500A,108.3514,21.7731,防城港市,防城档案局,细颗粒物(PM2.5),73,63,65,53,42,48,,82,74,28,18,5,10,0.6,0.6
2024-01-02T1000,2501A,108.3506,21.6414,防城港市,大海花园,颗粒物(PM10),56,62,55,34,37,89,,92,89,19,17,4,6,0.8,0.8
2024-01-02T1000,1371A,113.1294,23.0067,佛山市,湾梁,颗粒物(PM10),85,119,98,36,45,64,,89,82,31,26,10,11,0.9,0.8
2024-01-02T1000,1372A,113.1083,23.0478,佛山市,华材职中,颗粒物(PM10),76,102,87,46,54,62,,90,84,38,28,9,10,0.6,0.7
2024-01-02T1000,1373A,113.144,23.0453,佛山市,南海气象局,颗粒物(PM10),76,102,82,44,53,64,,87,81,39,32,6,7,0.7,0.7
2024-01-02T1000,1374A,113.2881,22.8094,佛山市,顺德苏岗,"颗粒物(PM10),细颗粒物(PM2.5)",67,84,77,48,50,68,,89,79,39,26,8,9,0.9,0.9
2024-01-02T1000,1376A,112.8383,22.8678,佛山市,高明孔堂,颗粒物(PM10),58,65,76,32,42,92,,109,104,7,15,5,7,0.6,0.7
2024-01-02T1000,1377A,112.8836,23.1588,佛山市,三水监测站,颗粒物(PM10),70,90,94,48,60,60,,80,76,40,39,1,4,0.9,0.9
2024-01-02T1000,1378A,112.867,23.185,佛山市,三水云东海,细颗粒物(PM2.5),72,85,79,52,60,69,,94,88,38,26,5,7,0.8,0.8
2024-01-02T1000,3625A,113.2544,22.7642,佛山市,容桂街道办,颗粒物(PM10),73,95,83,44,48,69,,94,84,31,20,5,7,0.9,0.9
2024-01-02T1000,1280A,119.3903,26.0543,福州市,鼓山,,,,,,,,,,,,,,,,
2024-01-02T1000,1282A,119.2681,26.0504,福州市,师大,细颗粒物(PM2.5),99,83,80,74,70,58,,52,48,22,24,7,6,0.9,0.8
2024-01-02T1000,1283A,119.2984,26.1028,福州市,五四北路,细颗粒物(PM2.5),105,,75,79,82,64,,61,54,26,26,4,4,0.8,0.9
2024-01-02T1000,1284A,119.2648,26.0768,福州市,杨桥西路,细颗粒物(PM2.5),103,88,89,77,80,59,,52,48,23,22,5,4,1.0,1
2024-01-02T1000,1285A,119.317,26.0746,福州市,紫阳,,,83,80,71,77,55,,65,58,30,23,,7,1.0,1.1
2024-01-02T1000,3048A,119.5799,26.0936,福州市,九龙,细颗粒物(PM2.5),92,,63,68,61,82,,71,69,19,20,4,5,0.9,0.9
2024-01-02T1000,3526A,119.5189,25.9664,福州市,吴航,细颗粒物(PM2.5),98,108,90,73,55,50,,58,45,40,22,9,5,1.1,0.9
2024-01-02T1000,1755A,123.7977,41.8491,抚顺市,望花区,细颗粒物(PM2.5),180,160,143,136,123,12,,9,9,80,75,19,16,3.0,2.7
2024-01-02T1000,1756A,123.9161,41.8822,抚顺市,顺城区,细颗粒物(PM2.5),216,203,155,166,133,8,,4,4,74,72,15,13,2.8,2.5
2024-01-02T1000,1757A,124.0436,41.8611,抚顺市,东洲区,细颗粒物(PM2.5),180,158,132,136,110,31,,22,22,45,51,12,14,2.2,2.2
2024-01-02T1000,1758A,123.9247,41.8642,抚顺市,新抚区,细颗粒物(PM2.5),223,,150,173,134,12,,9,9,80,67,19,13,2.7,2.6
2024-01-02T1000,1759A,124.0972,41.8961,抚顺市,大伙房水库,细颗粒物(PM2.5),142,127,121,108,104,41,,18,18,34,54,13,13,1.9,2.3
2024-01-02T1000,1760A,123.7086,41.8391,抚顺市,沈抚新城,细颗粒物(PM2.5),156,163,158,119,107,16,,11,11,74,73,16,15,2.9,2.6
2024-01-02T1000,2376A,116.2127,28.0814,抚州市,桐源党溪,细颗粒物(PM2.5),122,132,97,92,67,44,,33,31,17,15,5,4,1.6,1.4
2024-01-02T1000,2377A,116.3544,27.9831,抚州市,市站,细颗粒物(PM2.5),138,149,123,105,81,38,,63,50,32,28,29,21,1.7,1.4
2024-01-02T1000,2378A,116.3565,27.963,抚州市,血防站,细颗粒物(PM2.5),144,146,122,110,82,38,,57,47,32,24,17,8,1.6,1.3
2024-01-02T1000,2379A,116.3564,28.0007,抚州市,采茶剧团,细颗粒物(PM2.5),145,134,113,111,83,36,,50,42,27,24,14,10,1.5,1.2
2024-01-02T1000,2380A,116.385,27.9647,抚州市,医学分院,细颗粒物(PM2.5),125,148,123,95,73,,,49,42,25,19,18,13,1.5,1.2
2024-01-02T1000,2207A,121.6094,41.998,阜新市,工业园区,细颗粒物(PM2.5),173,141,113,131,67,10,,5,5,65,54,19,21,2.7,1.6
2024-01-02T1000,2208A,121.6697,42.0279,阜新市,长青街,细颗粒物(PM2.5),162,175,121,123,98,7,,3,3,56,48,9,13,5.2,1.8
2024-01-02T1000,2209A,121.6673,42.0705,阜新市,农业园区,细颗粒物(PM2.5),70,83,76,51,66,54,,46,46,18,28,22,26,1.0,1
2024-01-02T1000,2210A,121.6717,42.0224,阜新市,东苑,细颗粒物(PM2.5),207,184,127,157,116,14,,11,11,63,52,16,19,6.9,3.2
2024-01-02T1000,2211A,121.6506,42.0498,阜新市,玉龙新城,细颗粒物(PM2.5),211,,89,161,81,17,,10,10,65,54,19,16,2.4,1.3
2024-01-02T1000,2301A,115.8277,32.8929,阜阳市,市监测站,,,,190,,154,,,31,31,51,40,,7,1.3,1.2
2024-01-02T1000,2303A,115.8554,32.8605,阜阳市,开发区,细颗粒物(PM2.5),176,187,220,133,144,8,,23,19,53,48,8,8,1.3,1.3
2024-01-02T1000,2875A,115.784,32.8892,阜阳市,阜阳职业技术学院,细颗粒物(PM2.5),138,140,169,105,130,43,,48,44,29,36,4,5,0.9,1.1
2024-01-02T1000,3468A,115.7901,32.8613,阜阳市,市规划展馆,细颗粒物(PM2.5),162,179,187,123,132,28,,61,48,42,31,6,7,1.1,1.1
2024-01-02T1000,3469A,115.836,32.9183,阜阳市,枣园社区,细颗粒物(PM2.5),189,175,199,142,147,12,,26,22,51,48,2,4,1.0,1.1
2024-01-02T1000,2669A,102.9099,34.9841,甘南州,州政府,细颗粒物(PM2.5),78,93,67,57,40,14,,4,4,32,37,17,18,1.5,0.9
2024-01-02T1000,3380A,102.8914,34.9617,甘南州,甘肃民族师范学院,颗粒物(PM10),67,84,68,36,29,12,,8,8,38,38,11,15,1.2,0.9
2024-01-02T1000,2570A,101.9603,30.0475,甘孜藏族自治州,水桥子,,41,41,23,16,14,11,,34,23,33,16,10,9,0.5,0.4
2024-01-02T1000,3065A,101.9533,29.9972,甘孜藏族自治州,州环保局,,18,18,21,3,5,40,,47,44,12,12,8,8,0.4,0.4
2024-01-02T1000,3414A,115.8347,28.932,赣江新区,桑海产业园,细颗粒物(PM2.5),170,180,169,129,118,37,,34,34,39,37,10,8,1.3,1
2024-01-02T1000,2362A,114.9017,25.9149,赣州市,通天岩,,,,,,,,,,,,,,,,
2024-01-02T1000,2363A,114.9367,25.8664,赣州市,地委,颗粒物(PM10),79,107,88,54,53,24,,42,34,35,20,18,12,1.0,0.9
2024-01-02T1000,2364A,114.9461,25.8481,赣州市,气象台,细颗粒物(PM2.5),88,92,92,65,62,21,,48,38,52,20,8,4,1.5,1.3
2024-01-02T1000,2365A,114.9322,25.8333,赣州市,市图书馆,细颗粒物(PM2.5),79,102,94,58,59,20,,54,41,42,24,17,12,1.1,0.9
2024-01-02T1000,2366A,114.8905,25.8471,赣州市,华坚鞋城,细颗粒物(PM2.5),95,98,87,71,55,18,,59,43,43,21,31,22,1.4,1.3
2024-01-02T1000,3109A,115.0093,25.8613,赣州市,赣县区卫计委,细颗粒物(PM2.5),82,93,86,60,57,35,,30,30,33,28,9,6,1.3,1.2
2024-01-02T1000,2683A,106.2319,36.1417,固原市,马园,细颗粒物(PM2.5),54,56,68,38,30,11,,13,13,42,35,9,7,1.5,1.1
2024-01-02T1000,2684A,106.2792,36.0022,固原市,监测站,颗粒物(PM10),56,61,67,10,37,57,,37,37,41,32,6,11,0.6,1.2
2024-01-02T1000,2685A,106.2375,36.0211,固原市,新区,,47,47,59,13,29,61,,36,36,19,34,6,7,0.4,0.9
2024-01-02T1000,3522A,106.2177,35.9959,固原市,原州区十五小,,38,38,50,12,19,70,,59,59,13,17,6,7,0.3,0.4
2024-01-02T1000,2543A,106.6308,30.5278,广安市,小平旧居,,,,,,,,,,,,,,,,
2024-01-02T1000,2544A,106.6303,30.4576,广安市,市委,细颗粒物(PM2.5),72,53,93,52,88,12,,9,9,23,27,7,8,1.2,1.2
2024-01-02T1000,2545A,106.6271,30.4663,广安市,友谊中学,细颗粒物(PM2.5),68,53,85,49,83,9,,6,6,27,32,8,10,1.3,1.4
2024-01-02T1000,2547A,106.6388,30.4551,广安市,广电花园,细颗粒物(PM2.5),73,,86,53,88,7,,4,4,28,30,4,5,1.0,1.6
2024-01-02T1000,2902A,106.6351,30.4865,广安市,北辰小学,细颗粒物(PM2.5),69,63,91,50,92,5,,3,3,26,30,7,8,1.3,1.4
2024-01-02T1000,2523A,105.8945,32.4535,广元市,黑石坡,,49,49,51,32,37,40,,43,42,26,20,5,5,0.6,0.6
2024-01-02T1000,2524A,105.821,32.4444,广元市,老城,颗粒物(PM10),58,66,62,29,38,43,,40,40,22,33,3,2,0.7,0.8
2024-01-02T1000,2526A,105.8628,32.4287,广元市,监测站,颗粒物(PM10),54,58,52,28,38,37,,32,30,30,34,3,2,0.7,0.7
2024-01-02T1000,3617A,105.8047,32.4166,广元市,经开区,"颗粒物(PM10),细颗粒物(PM2.5)",55,60,57,39,38,13,,35,34,56,38,4,3,1.0,0.7
2024-01-02T1000,1345A,113.2347,23.1423,广州市,广雅中学,颗粒物(PM10),60,69,81,40,53,77,,88,85,30,31,4,5,1.2,1.2
2024-01-02T1000,1346A,113.2612,23.105,广州市,市五中,颗粒物(PM10),60,70,84,39,59,82,,92,88,27,26,7,8,0.9,0.9
2024-01-02T1000,1348A,113.3478,23.0916,广州市,广东商学院,颗粒物(PM10),61,71,84,29,39,82,,82,82,30,30,6,7,0.8,0.8
2024-01-02T1000,1349A,113.4332,23.1047,广州市,市八十六中,颗粒物(PM10),67,83,91,47,56,64,,56,56,48,58,7,8,1.1,1.1
2024-01-02T1000,1350A,113.3505,22.9483,广州市,番禺中学,颗粒物(PM10),65,80,85,40,51,90,,98,96,38,33,4,7,0.9,0.9
2024-01-02T1000,1351A,113.2146,23.3916,广州市,花都师范,"颗粒物(PM10),细颗粒物(PM2.5)",68,86,89,49,61,82,,88,86,29,30,5,6,0.6,0.7
2024-01-02T1000,1352A,113.2597,23.1331,广州市,市监测站,颗粒物(PM10),61,71,82,42,56,79,,90,86,37,34,4,5,0.8,0.7
2024-01-02T1000,1353A,113.5618,23.312,广州市,九龙镇镇龙,颗粒物(PM10),68,86,85,47,56,68,,64,64,39,36,6,6,0.9,0.8
2024-01-02T1000,1354A,113.2765,23.1544,广州市,麓湖,颗粒物(PM10),59,67,74,40,51,84,,94,91,29,25,5,5,0.7,0.7
2024-01-02T1000,1355A,113.443,23.3035,广州市,帽峰山森林公园,"颗粒物(PM10),细颗粒物(PM2.5)",65,79,72,47,47,48,,72,62,37,19,9,9,0.6,0.5
2024-01-02T1000,2846A,113.3221,23.1322,广州市,体育西,颗粒物(PM10),62,74,83,42,53,84,,97,94,39,34,8,8,0.7,0.8
2024-01-02T1000,3298A,113.5717,23.5491,广州市,从化街口,细颗粒物(PM2.5),82,92,90,60,72,71,,43,43,33,36,6,7,0.8,1
2024-01-02T1000,3299A,113.3472,23.3692,广州市,白云竹料,细颗粒物(PM2.5),70,87,94,51,66,64,,74,72,39,28,6,7,1.0,1
2024-01-02T1000,3300A,113.2981,23.237,广州市,白云嘉禾,细颗粒物(PM2.5),63,73,87,45,59,80,,90,88,42,38,8,8,0.9,0.9
2024-01-02T1000,3301A,113.4256,23.1716,广州市,黄埔科学城,细颗粒物(PM2.5),77,87,84,56,63,50,,73,70,58,33,8,5,1.1,0.9
2024-01-02T1000,3302A,113.3942,23.0483,广州市,番禺大学城,颗粒物(PM10),71,91,98,41,51,88,,96,96,34,29,10,12,1.5,1.4
2024-01-02T1000,3303A,113.4922,22.8168,广州市,南沙黄阁,颗粒物(PM10),62,74,80,39,52,88,,97,94,27,29,4,5,0.8,0.9
2024-01-02T1000,3304A,113.5342,22.7896,广州市,南沙街,颗粒物(PM10),58,66,75,40,47,90,,98,96,26,26,4,6,0.7,0.8
2024-01-02T1000,3443A,113.2902,23.5544,广州市,花都梯面,颗粒物(PM10),78,106,89,52,66,60,,63,58,39,34,5,7,0.8,0.9
2024-01-02T1000,3445A,113.7858,23.7478,广州市,从化良口,细颗粒物(PM2.5),83,67,58,61,52,34,,25,23,16,13,5,6,1.0,0.9
2024-01-02T1000,3446A,113.8051,23.2614,广州市,增城荔城,细颗粒物(PM2.5),77,92,92,56,65,63,,72,68,32,22,8,8,0.7,0.7
2024-01-02T1000,2505A,109.568,23.1478,贵港市,德智高中,细颗粒物(PM2.5),65,66,82,47,65,62,,86,85,47,29,7,7,0.9,1
2024-01-02T1000,2506A,109.6047,23.0666,贵港市,江南子站,颗粒物(PM10),91,132,101,58,64,75,,77,77,41,26,19,15,1.4,1
2024-01-02T1000,2507A,109.6014,23.0948,贵港市,贵城子站,细颗粒物(PM2.5),70,68,84,51,63,79,,86,86,26,24,18,17,1.0,0.9
2024-01-02T1000,2508A,109.5669,23.1065,贵港市,荷城子站,颗粒物(PM10),63,75,83,41,58,69,,82,82,25,19,16,15,1.0,1.2
2024-01-02T1000,3405A,109.5886,23.1172,贵港市,新世纪学校,颗粒物(PM10),65,80,91,40,65,84,,,,24,29,13,18,1.2,1.2
2024-01-02T1000,1439A,106.6899,26.5998,贵阳市,马鞍山,,,17,17,12,14,,,33,32,21,14,1,3,1.0,0.9
2024-01-02T1000,1440A,106.6971,26.5694,贵阳市,市环保站,,,,,,,,,,,,,,,,
2024-01-02T1000,1441A,106.6243,26.6266,贵阳市,鉴湖路,,19,19,24,9,13,49,,54,54,16,16,5,4,0.7,0.6
2024-01-02T1000,1442A,106.7487,26.6343,贵阳市,燕子冲,,25,24,22,17,17,41,,43,41,21,14,10,7,0.8,0.8
2024-01-02T1000,1443A,106.6555,26.4365,贵阳市,碧云窝,,28,27,26,19,14,31,,38,38,27,16,16,9,0.9,0.7
2024-01-02T1000,1444A,106.694,26.5161,贵阳市,中院村,,29,29,25,19,17,44,,46,46,27,19,16,11,0.8,0.8
2024-01-02T1000,1445A,106.7109,26.6027,贵阳市,红边门,,29,29,23,19,19,48,,52,52,22,15,15,9,0.8,0.8
2024-01-02T1000,1446A,106.7164,26.5699,贵阳市,新华路,,29,29,24,19,20,47,,50,50,23,18,10,6,0.8,0.7
2024-01-02T1000,1447A,106.674,26.5424,贵阳市,太慈桥,,20,19,23,14,14,47,,40,40,25,22,6,5,0.8,0.7
2024-01-02T1000,1552A,106.805,26.3003,贵阳市,桐木岭,,,,,,,,,,,,,,,,
2024-01-02T1000,1862A,110.4144,25.3167,桂林市,电子科大尧山校区,,26,19,40,18,34,59,,69,66,10,13,6,8,0.9,0.8
2024-01-02T1000,1863A,110.2819,25.2697,桂林市,监测站,,48,,56,33,54,55,,69,63,25,20,6,7,1.3,1.2
2024-01-02T1000,1864A,110.3089,25.2708,桂林市,龙隐路小学,,50,,53,35,63,69,,68,65,22,22,5,7,1.0,1
2024-01-02T1000,1865A,110.2869,25.2178,桂林市,八中,,35,,51,24,54,55,,64,60,26,20,5,7,1.1,1
2024-01-02T1000,3403A,110.1764,25.2381,桂林市,创业大厦,,45,39,58,31,51,46,,70,60,23,18,16,8,0.7,0.6
2024-01-02T1000,3531A,110.296,25.1253,桂林市,旅游学院,,25,,55,17,56,49,,57,53,16,17,4,7,0.6,0.7
2024-01-02T1000,2674A,100.2561,34.4714,果洛藏族自治州,玛沁县大武镇,,21,21,25,6,13,27,,30,28,15,13,10,11,0.5,0.5
2024-01-02T1000,1129A,126.5422,45.755,哈尔滨市,岭北,细颗粒物(PM2.5),175,166,92,132,80,38,,44,40,41,32,20,17,0,0
2024-01-02T1000,1130A,126.561,45.8167,哈尔滨市,松北商大,细颗粒物(PM2.5),118,107,86,89,71,27,,35,29,49,36,7,9,1.1,0.9
2024-01-02T1000,1131A,126.979,45.5419,哈尔滨市,阿城会宁,细颗粒物(PM2.5),172,149,91,130,83,36,,37,33,37,29,5,3,1.6,1.1
2024-01-02T1000,1132A,126.599,45.7222,哈尔滨市,南岗学府路,细颗粒物(PM2.5),152,150,107,116,78,19,,24,17,57,45,14,13,1.5,0.9
2024-01-02T1000,1133A,126.689,45.7733,哈尔滨市,太平宏伟公园,细颗粒物(PM2.5),290,284,97,240,81,16,,31,23,76,37,20,15,2.8,1
2024-01-02T1000,1134A,126.635,45.7667,哈尔滨市,道外承德广场,细颗粒物(PM2.5),94,95,88,70,63,22,,28,25,48,44,57,14,1.0,0.9
2024-01-02T1000,1135A,126.685,45.7319,哈尔滨市,香坊红旗大街,细颗粒物(PM2.5),272,261,93,222,91,22,,18,16,82,51,25,21,2.6,1
2024-01-02T1000,1136A,126.6411,45.7258,哈尔滨市,动力和平路,细颗粒物(PM2.5),180,141,91,136,79,12,,19,13,61,47,17,19,1.6,0.9
2024-01-02T1000,1137A,126.593,45.7478,哈尔滨市,道里建国路,细颗粒物(PM2.5),129,,86,98,81,16,,27,22,49,37,3,4,1.0,0.6
2024-01-02T1000,1138A,126.615,45.61,哈尔滨市,平房东轻厂,细颗粒物(PM2.5),168,144,94,127,81,24,,29,26,52,38,10,10,1.5,1.1
2024-01-02T1000,1139A,126.595,45.9855,哈尔滨市,呼兰师专,细颗粒物(PM2.5),234,,86,184,77,32,,40,35,48,31,17,15,1.6,0.9
2024-01-02T1000,1140A,126.6206,45.6842,哈尔滨市,省农科院,,,,107,,87,24,,24,21,57,49,,22,1.6,1.1
2024-01-02T1000,2688A,93.5128,42.8172,哈密地区,地区监测站,颗粒物(PM10),67,83,106,29,50,22,,43,42,58,44,3,7,0.5,0.8
2024-01-02T1000,2689A,93.4961,42.8328,哈密地区,哈密师范学校,颗粒物(PM10),80,110,123,35,51,6,,22,22,70,52,5,10,1.7,1.3
2024-01-02T1000,2671A,100.9048,36.9639,海北藏族自治州,海晏县西海镇,,28,28,28,13,14,54,,66,62,10,6,12,12,0.5,0.4
2024-01-02T1000,3867A,102.0738,36.5056,海东地区,平安区公安北苑,细颗粒物(PM2.5),89,80,82,66,46,23,,22,16,23,35,18,28,0.9,0.9
2024-01-02T1000,1409A,110.576,19.9507,海口市,东寨港,,,,,,,,,,,,,,,,
2024-01-02T1000,1410A,110.3232,20.0574,海口市,海南大学,,47,47,47,24,22,81,,91,88,16,9,8,8,0.6,0.5
2024-01-02T1000,1411A,110.283,20.0053,海口市,秀英海南医院,,45,45,49,28,19,90,,101,98,10,8,8,8,0.6,0.5
2024-01-02T1000,1412A,110.338,19.9969,海口市,海南师范大学,,46,46,46,24,22,86,,95,91,9,7,6,6,0.5,0.5
2024-01-02T1000,1413A,110.33,20.0356,海口市,龙华路环保局宿舍,,40,40,45,21,21,90,,97,94,7,7,7,7,0.5,0.5
2024-01-02T1000,3539A,110.5111,19.9736,海口市,桂林洋子站,,43,43,39,23,20,87,,91,88,6,5,5,5,0.5,0.5
2024-01-02T1000,2673A,100.6188,36.2866,海南藏族自治州,共和县恰卜恰镇,颗粒物(PM10),68,86,37,32,17,22,,32,27,52,29,21,16,1.4,0.7
2024-01-02T1000,2676A,97.3731,37.3753,海西蒙古族藏族自治州,德令哈市,,25,25,34,11,10,70,,60,60,11,11,12,13,0.5,0.5
2024-01-02T1000,1048A,114.5302,36.6116,邯郸市,东污水处理厂,细颗粒物(PM2.5),203,177,131,153,114,14,,3,3,48,52,3,2,1.9,1.3
2024-01-02T1000,1049A,114.4918,36.5713,邯郸市,矿院,细颗粒物(PM2.5),190,153,119,143,103,4,,2,2,64,54,4,3,2.2,1.4
2024-01-02T1000,1050A,114.484,36.6133,邯郸市,丛台公园,细颗粒物(PM2.5),188,159,128,141,97,17,,9,9,52,50,4,2,2.0,1.4
2024-01-02T1000,3458A,114.7895,36.5593,邯郸市,香泉濮院小区,细颗粒物(PM2.5),213,182,171,163,134,19,,14,14,56,56,6,6,1.5,1.3
2024-01-02T1000,3579A,114.50634,36.77178,邯郸市,永年区实验高中,细颗粒物(PM2.5),160,160,140,122,101,,,3,3,51,56,10,8,2.2,1.2
2024-01-02T1000,3580A,114.20016,36.44293,邯郸市,峰峰矿区临水派出所,细颗粒物(PM2.5),166,163,120,126,93,21,,7,7,34,40,42,17,2.7,1.5
2024-01-02T1000,2634A,106.9893,33.1842,汉中市,汉川机床厂子校,细颗粒物(PM2.5),115,,86,87,76,25,,29,24,25,25,4,4,1.1,1.1
2024-01-02T1000,2635A,107.0154,33.0706,汉中市,市监测站,细颗粒物(PM2.5),125,108,98,95,92,20,,31,27,28,31,8,9,1.4,1.6
2024-01-02T1000,2636A,107.0089,33.1138,汉中市,鑫源开发区,细颗粒物(PM2.5),100,82,92,75,85,18,,26,23,29,21,8,9,1.1,1.4
2024-01-02T1000,2637A,107.007,33.0323,汉中市,南郑大河坎水厂,细颗粒物(PM2.5),118,117,114,89,92,19,,21,16,28,29,10,10,1.2,1.4
2024-01-02T1000,1223A,120.2072,30.2111,杭州市,滨江,细颗粒物(PM2.5),158,172,162,120,109,15,,10,5,49,50,11,10,1.1,0.9
2024-01-02T1000,1224A,120.0633,30.2747,杭州市,西溪,细颗粒物(PM2.5),148,167,138,113,91,14,,5,5,51,42,7,7,1.3,1.1
2024-01-02T1000,1226A,120.3461,30.3153,杭州市,下沙,细颗粒物(PM2.5),175,199,173,132,113,29,,7,7,72,72,8,8,1.1,1
2024-01-02T1000,1227A,120.1269,30.2456,杭州市,卧龙桥,细颗粒物(PM2.5),156,162,136,119,95,23,,10,10,49,35,5,5,1.2,1
2024-01-02T1000,1228A,120.1903,30.2692,杭州市,浙江农大,细颗粒物(PM2.5),172,189,166,130,109,,,4,3,59,55,9,9,1.1,0.8
2024-01-02T1000,1230A,120.1197,30.3119,杭州市,和睦小学,细颗粒物(PM2.5),162,185,155,123,108,18,,6,6,51,52,6,6,1.2,0.9
2024-01-02T1000,1231A,120.3019,30.4183,杭州市,临平镇,细颗粒物(PM2.5),155,179,162,118,105,30,,8,8,51,52,7,6,1.2,1.1
2024-01-02T1000,1232A,120.2697,30.1819,杭州市,城厢镇,细颗粒物(PM2.5),192,187,173,144,129,25,,14,9,50,54,6,7,1.2,1.1
2024-01-02T1000,1233A,120.0883,30.1808,杭州市,云栖,细颗粒物(PM2.5),147,168,143,112,88,18,,17,16,59,40,6,6,1.1,1
2024-01-02T1000,3557A,119.9464,30.0494,杭州市,镇二中,细颗粒物(PM2.5),155,132,131,118,107,14,,6,6,47,51,6,5,1.3,1.1
2024-01-02T1000,3558A,119.7183,30.2367,杭州市,市府大楼,细颗粒物(PM2.5),158,162,167,120,123,32,,16,16,34,36,6,5,1.2,1.1
2024-01-02T1000,3656A,120.1556,30.2864,杭州市,消防大队,细颗粒物(PM2.5),168,171,156,127,108,,,5,5,63,60,9,8,1.4,1.2
2024-01-02T1000,1270A,117.1959,31.7848,合肥市,明珠广场,细颗粒物(PM2.5),128,161,145,97,89,27,,18,16,59,52,8,9,1.3,1.3
2024-01-02T1000,1271A,117.3072,31.8764,合肥市,三里街,细颗粒物(PM2.5),147,153,148,112,97,13,,4,4,66,59,8,7,1.4,1.2
2024-01-02T1000,1272A,117.2588,31.8707,合肥市,琥珀山庄,细颗粒物(PM2.5),125,166,144,95,95,25,,13,9,66,55,8,9,1.6,1.3
2024-01-02T1000,1273A,117.1604,31.9052,合肥市,董铺水库,细颗粒物(PM2.5),128,153,169,97,94,16,,7,7,40,40,5,5,1.0,0.9
2024-01-02T1000,1274A,117.25,31.8571,合肥市,长江中路,细颗粒物(PM2.5),139,173,142,106,98,11,,14,6,67,49,9,10,1.8,1.5
2024-01-02T1000,1275A,117.266,31.9436,合肥市,庐阳区,细颗粒物(PM2.5),138,205,158,105,85,18,,8,8,51,53,7,6,1.2,1
2024-01-02T1000,1276A,117.336,31.8586,合肥市,瑶海区,细颗粒物(PM2.5),147,180,138,112,93,24,,8,8,62,64,5,4,1.3,1.1
2024-01-02T1000,1277A,117.3027,31.7964,合肥市,包河区,细颗粒物(PM2.5),140,171,157,107,107,15,,5,5,73,71,8,8,1.6,1.5
2024-01-02T1000,1278A,117.2776,31.7385,合肥市,滨湖新区,细颗粒物(PM2.5),134,161,148,102,92,36,,35,28,44,33,3,3,0.9,0.7
2024-01-02T1000,1279A,117.1318,31.8403,合肥市,高新区,细颗粒物(PM2.5),122,153,141,92,95,10,,18,10,77,54,12,11,1.6,1.2
2024-01-02T1000,3464A,117.3803,31.9147,合肥市,高教基地,细颗粒物(PM2.5),114,174,127,86,78,25,,8,8,56,57,7,5,0.9,0.9
2024-01-02T1000,3614A,79.924,37.0877,和田地区,地区环保局,颗粒物(PM10),161,271,180,66,63,42,,42,42,53,37,32,19,2.1,1.1
2024-01-02T1000,3615A,79.9131,37.113,和田地区,市环保局,颗粒物(PM10),100,150,158,56,64,18,,36,35,76,40,20,16,3.4,3
2024-01-02T1000,2516A,108.2011,24.715,河池市,东仁乐园,,25,,54,17,54,34,,33,33,7,11,5,5,0.7,0.9
2024-01-02T1000,2517A,108.0497,24.6947,河池市,市环保站,,,6,63,,68,40,,52,48,21,17,5,6,0.8,1
2024-01-02T1000,2518A,108.0983,24.6989,河池市,市疾控中心,,13,8,57,4,62,40,,51,49,21,23,6,6,0.9,1.1
2024-01-02T1000,1696A,114.6778,23.7569,河源市,源西,细颗粒物(PM2.5),74,80,73,54,52,36,,34,31,36,35,7,5,1.0,1
2024-01-02T1000,1697A,114.6944,23.7586,河源市,东埔,细颗粒物(PM2.5),97,90,80,72,67,30,,48,42,36,24,10,8,1.2,1.1
2024-01-02T1000,1698A,114.6892,23.7233,河源市,老城,细颗粒物(PM2.5),82,83,73,60,59,27,,44,42,31,19,8,7,1.1,0.9
2024-01-02T1000,1718A,115.4208,35.2464,菏泽市,气象局,细颗粒物(PM2.5),228,244,203,178,149,24,,49,38,61,43,4,3,1.5,1.1
2024-01-02T1000,1719A,115.4747,35.2375,菏泽市,市政协,细颗粒物(PM2.5),230,240,204,180,148,28,,33,26,51,45,6,5,1.6,1.3
2024-01-02T1000,3374A,115.5564,35.0891,菏泽市,定陶老年大学,细颗粒物(PM2.5),223,224,203,173,150,40,,32,32,40,41,4,3,1.3,1.1
2024-01-02T1000,3647A,115.4702,35.2706,菏泽市,菏泽医专,细颗粒物(PM2.5),223,238,198,173,137,27,,37,31,49,42,6,5,1.5,1.1
2024-01-02T1000,2514A,111.5264,24.4172,贺州市,环保小区,细颗粒物(PM2.5),82,65,99,60,84,42,,55,48,18,18,7,9,1.0,1.1
2024-01-02T1000,2515A,111.5608,24.4078,贺州市,政协大楼,细颗粒物(PM2.5),92,68,103,68,87,43,,59,51,18,17,7,10,0.9,1
2024-01-02T1000,3534A,111.4744,24.4553,贺州市,西湾,细颗粒物(PM2.5),75,60,100,55,90,49,,50,43,16,19,5,8,1.1,1.2
2024-01-02T1000,2385A,114.17,35.9019,鹤壁市,市监测站,细颗粒物(PM2.5),160,176,134,122,95,13,,4,4,47,46,21,6,2.0,1.2
2024-01-02T1000,2386A,114.2956,35.7511,鹤壁市,市交警支队,,,,133,,87,,,2,2,51,53,13,9,2.1,1.2
2024-01-02T1000,2387A,114.2878,35.7306,鹤壁市,迎宾馆,细颗粒物(PM2.5),137,149,114,104,84,16,,4,4,47,49,16,12,2.1,1.3
2024-01-02T1000,3474A,114.2617,35.6822,鹤壁市,大新区,细颗粒物(PM2.5),163,156,128,124,94,18,,6,6,50,56,23,10,2.3,1.2
2024-01-02T1000,3596A,114.1572,35.9603,鹤壁市,南山宾馆,细颗粒物(PM2.5),155,152,130,118,90,27,,17,17,30,39,23,16,2.1,1.4
2024-01-02T1000,2244A,130.2537,47.3416,鹤岗市,哈啤分公司,,50,49,53,35,36,50,,51,49,15,27,15,18,0.4,0.4
2024-01-02T1000,2245A,130.2684,47.3086,鹤岗市,斯达机电,,,67,58,51,38,42,,56,55,,25,,16,0.5,0.5
2024-01-02T1000,2246A,130.3114,47.3388,鹤岗市,东山纸板厂,细颗粒物(PM2.5),57,,64,40,46,48,,36,36,18,35,15,18,0.3,0.6
2024-01-02T1000,2247A,130.1097,47.3382,鹤岗市,五号水库,,40,37,40,28,29,51,,52,51,16,17,11,11,0.6,0.6
2024-01-02T1000,2263A,127.4833,50.2524,黑河市,交通局,,25,23,27,17,21,35,,42,39,12,10,4,6,0.5,0.5
2024-01-02T1000,2264A,127.5144,50.2341,黑河市,环保局,,,135,31,,23,21,,39,32,40,12,28,7,1.6,0.6
2024-01-02T1000,2265A,127.5291,50.2472,黑河市,大黑河岛,,22,21,28,15,22,24,,33,33,18,9,11,4,0.7,0.6
2024-01-02T1000,1074A,115.6838,37.7541,衡水市,电机北厂,细颗粒物(PM2.5),190,144,155,143,138,3,,0,0,41,44,3,4,1.8,1.4
2024-01-02T1000,1075A,115.6303,37.7316,衡水市,市监测站,细颗粒物(PM2.5),152,124,155,116,129,8,,2,2,48,55,5,7,1.6,1.3
2024-01-02T1000,3188A,115.6683,37.7217,衡水市,市城管局,细颗粒物(PM2.5),144,,150,110,135,7,,1,1,43,53,4,6,1.7,1.4
2024-01-02T1000,3459A,115.5989,37.5491,衡水市,地表水厂,细颗粒物(PM2.5),134,,146,102,135,11,,5,5,34,50,2,4,1.9,1.5
2024-01-02T1000,2456A,112.5003,26.9167,衡阳市,原169医院,细颗粒物(PM2.5),75,71,85,55,55,46,,48,48,17,22,5,6,0.9,0.9
2024-01-02T1000,2457A,112.6194,26.9258,衡阳市,衡阳化工总厂,细颗粒物(PM2.5),143,,114,109,92,52,,56,54,19,21,6,8,1.0,1
2024-01-02T1000,2458A,112.6211,26.8956,衡阳市,珠晖区环保局,细颗粒物(PM2.5),134,,104,102,89,48,,52,52,22,25,8,9,1.1,1.1
2024-01-02T1000,2459A,112.6197,26.8733,衡阳市,市委党校,细颗粒物(PM2.5),138,,104,105,88,56,,61,59,18,21,4,7,1.0,1
2024-01-02T1000,2460A,112.6006,26.8919,衡阳市,市监测站,细颗粒物(PM2.5),139,120,128,106,103,50,,62,58,28,23,9,10,1.1,1.1
2024-01-02T1000,2461A,112.5664,26.9056,衡阳市,真空机电公司,细颗粒物(PM2.5),124,,99,94,88,51,,58,55,19,22,8,10,1.2,1.1
2024-01-02T1000,3399A,112.6703,26.882,衡阳市,师范学院,细颗粒物(PM2.5),143,118,119,109,95,56,,59,58,13,18,8,11,1.2,1.1
2024-01-02T1000,2608A,103.3772,23.3993,红河州,污水处理厂,,45,37,36,31,31,68,,67,65,11,9,6,6,0.4,0.4
2024-01-02T1000,2609A,103.3861,23.35,红河州,监测站,细颗粒物(PM2.5),52,43,36,36,31,70,,69,69,12,10,7,7,0.6,0.6
2024-01-02T1000,3038A,103.3758,23.368,红河州,州图书馆,,50,35,35,35,29,68,,71,70,10,8,7,7,0.5,0.4
2024-01-02T1000,1090A,111.6507,40.7517,呼和浩特市,呼市一监,细颗粒物(PM2.5),134,117,112,102,96,6,,2,2,49,52,13,13,1.5,1.1
2024-01-02T1000,1091A,111.6572,40.8033,呼和浩特市,小召,细颗粒物(PM2.5),119,110,110,90,88,3,,1,1,65,65,13,11,1.6,0.9
2024-01-02T1000,1094A,111.7516,40.8369,呼和浩特市,如意水处理厂,细颗粒物(PM2.5),128,125,107,97,84,10,,5,5,61,58,13,13,1.6,1
2024-01-02T1000,1095A,111.7276,40.8062,呼和浩特市,二十九中,细颗粒物(PM2.5),112,114,105,84,84,10,,5,5,48,51,16,14,1.5,1
2024-01-02T1000,1096A,111.5512,40.7866,呼和浩特市,工大金川校区,细颗粒物(PM2.5),170,131,132,129,104,9,,8,8,59,57,10,8,1.6,1
2024-01-02T1000,1097A,111.717,40.7612,呼和浩特市,化肥厂生活区,细颗粒物(PM2.5),103,105,108,77,80,12,,8,8,56,56,14,14,1.4,1.1
2024-01-02T1000,3698A,111.5968,40.8178,呼和浩特市,红旗小学,细颗粒物(PM2.5),149,136,121,114,103,11,,9,9,73,66,15,11,1.5,1
2024-01-02T1000,3699A,111.6518,40.8389,呼和浩特市,海东办,细颗粒物(PM2.5),104,100,115,78,97,8,,6,6,67,67,17,12,1.1,0.8
2024-01-02T1000,2192A,119.7594,49.2261,呼伦贝尔市,区环保局,,20,20,20,9,17,60,,36,34,19,20,5,6,0.5,0.5
2024-01-02T1000,3061A,119.7512,49.1577,呼伦贝尔市,国华电力东,,,24,22,21,18,59,,67,64,16,8,,5,0.5,0.3
2024-01-02T1000,1250A,120.0751,30.8669,湖州市,城西水厂,细颗粒物(PM2.5),104,117,146,78,95,20,,8,8,67,55,6,6,0.7,0.8
2024-01-02T1000,2873A,120.0875,30.8955,湖州市,仁皇山新区,细颗粒物(PM2.5),97,99,138,72,96,36,,11,11,55,50,6,6,0.8,0.9
2024-01-02T1000,2907A,120.1844,30.8596,湖州市,吴兴区站,细颗粒物(PM2.5),97,102,138,72,97,21,,8,5,60,43,6,5,0.7,0.8
2024-01-02T1000,3562A,120.4148,30.8538,湖州市,南浔区站,细颗粒物(PM2.5),82,84,127,60,89,15,,14,8,61,48,8,6,0.7,0.9
2024-01-02T1000,1607A,120.9092,40.7136,葫芦岛市,龙港区,细颗粒物(PM2.5),426,431,173,389,150,12,,14,14,75,53,122,76,4.5,2.3
2024-01-02T1000,1608A,120.8392,40.7514,葫芦岛市,化工街,细颗粒物(PM2.5),228,244,170,178,110,9,,5,5,53,47,37,20,2.6,2.1
2024-01-02T1000,1609A,120.8341,40.7073,葫芦岛市,新区,细颗粒物(PM2.5),229,224,142,179,115,10,,8,8,85,66,62,28,3.2,2
2024-01-02T1000,1610A,120.8695,40.7677,葫芦岛市,东城区,细颗粒物(PM2.5),254,241,159,204,145,8,,5,5,60,53,34,20,3.0,2.5
2024-01-02T1000,2482A,109.5981,27.5721,怀化市,林科所,,23,20,46,16,40,73,,67,67,4,4,3,3,0.7,0.7
2024-01-02T1000,2483A,109.9453,27.5444,怀化市,河西地税局,,50,36,71,35,58,62,,62,60,19,16,3,2,0.8,0.8
2024-01-02T1000,2484A,109.9781,27.5342,怀化市,市四医院,,40,,73,28,46,57,,66,64,20,17,3,4,0.9,0.8
2024-01-02T1000,2485A,109.9972,27.5578,怀化市,监测楼,,35,34,75,24,57,54,,59,56,15,14,4,5,0.8,0.7
2024-01-02T1000,2486A,110.0394,27.583,怀化市,市委党校,细颗粒物(PM2.5),55,47,83,39,64,50,,58,55,17,14,8,6,0.8,0.7
2024-01-02T1000,1210A,119.036,33.5981,淮安市,钵池山,细颗粒物(PM2.5),92,107,122,68,86,33,,22,22,40,45,10,8,0.6,0.7
2024-01-02T1000,1211A,119.007,33.575,淮安市,北京南路,,,100,123,64,81,34,,5,5,,51,8,6,,1.2
2024-01-02T1000,1212A,118.989,33.6067,淮安市,市监测站,细颗粒物(PM2.5),92,114,134,68,91,40,,14,14,36,47,9,6,0.7,1
2024-01-02T1000,1213A,119.135,33.5039,淮安市,楚州区监测站,细颗粒物(PM2.5),103,125,127,77,78,16,,24,24,49,46,9,6,0.8,0.8
2024-01-02T1000,1214A,119.0186,33.6297,淮安市,淮阴区监测站,细颗粒物(PM2.5),99,146,153,74,82,23,,9,9,52,57,7,5,0.9,0.9
2024-01-02T1000,3426A,118.8755,33.2894,淮安市,新华书店,细颗粒物(PM2.5),105,122,109,79,68,14,,25,20,52,37,7,6,0.7,0.6
2024-01-02T1000,2282A,116.8004,33.975,淮北市,监测站,细颗粒物(PM2.5),138,176,185,105,129,47,,48,47,42,41,9,7,1.0,1.2
2024-01-02T1000,2283A,116.8091,33.9007,淮北市,烈山区政府,细颗粒物(PM2.5),125,147,166,95,115,46,,46,45,41,40,8,8,0.6,0.8
2024-01-02T1000,3330A,116.8873,33.9836,淮北市,杜集区检察院,细颗粒物(PM2.5),180,170,169,136,124,31,,50,47,48,34,8,8,1.0,1
2024-01-02T1000,4017A,116.7923,33.9535,淮北市,市博物馆,细颗粒物(PM2.5),137,171,182,104,124,39,,48,45,39,35,11,9,1.3,1.3
2024-01-02T1000,2277A,116.8305,32.7727,淮南市,潘集区政府,细颗粒物(PM2.5),150,169,178,115,130,6,,15,12,53,39,5,6,0.9,1
2024-01-02T1000,2278A,117.0067,32.6524,淮南市,师范学院,细颗粒物(PM2.5),147,181,163,112,101,35,,52,47,48,45,14,11,1.3,1
2024-01-02T1000,2279A,116.8569,32.5951,淮南市,谢家集区政府,细颗粒物(PM2.5),139,164,151,106,100,30,,58,49,52,37,14,14,1.0,0.9
2024-01-02T1000,2280A,116.8281,32.633,淮南市,八公山区政府,细颗粒物(PM2.5),139,169,155,106,104,29,,54,46,42,26,9,8,1.1,0.9
2024-01-02T1000,2281A,116.6325,32.6201,淮南市,焦岗湖风景区管理处,细颗粒物(PM2.5),113,127,138,85,94,32,,24,24,27,37,2,2,0,0.1
2024-01-02T1000,2894A,117.0566,32.6531,淮南市,经济技术开发区消防队,细颗粒物(PM2.5),145,171,134,111,88,26,,38,34,46,37,8,5,0.7,0.6
2024-01-02T1000,3329A,117.0108,32.5893,淮南市,山南新区,,,,143,,98,40,,,,,26,6,6,0.9,0.8
2024-01-02T1000,2446A,114.9028,30.4742,黄冈市,职工中心,细颗粒物(PM2.5),149,153,131,114,92,27,,24,24,26,26,8,11,0.9,0.8
2024-01-02T1000,2929A,114.8858,30.4519,黄冈市,红卫路,细颗粒物(PM2.5),155,150,131,118,97,31,,29,29,31,36,7,9,1.3,1.1
2024-01-02T1000,3398A,114.9136,30.4445,黄冈市,市林业局,细颗粒物(PM2.5),140,136,122,107,93,25,,31,31,39,38,7,7,1.1,0.9
2024-01-02T1000,2672A,102.0199,35.5102,黄南藏族自治州,同仁县隆务镇,,24,24,42,14,24,58,,58,58,5,11,6,9,0.3,0.6
2024-01-02T1000,2295A,118.2903,29.6963,黄山市,延安路89号,细颗粒物(PM2.5),102,109,120,76,76,14,,10,9,15,17,5,5,0.8,0.7
2024-01-02T1000,2296A,118.327,29.7178,黄山市,黄山东路89号,细颗粒物(PM2.5),93,91,116,69,85,11,,7,6,19,25,5,5,0.7,0.6
2024-01-02T1000,2297A,118.1371,30.2756,黄山市,黄山区政府5号楼,细颗粒物(PM2.5),67,71,100,48,69,24,,21,21,18,18,4,5,1.0,1
2024-01-02T1000,2423A,115.0601,30.2313,黄石市,沈家营,细颗粒物(PM2.5),139,141,136,106,96,17,,22,22,52,46,13,8,1.0,1.1
2024-01-02T1000,2424A,115.0817,30.2006,黄石市,陈家湾,细颗粒物(PM2.5),152,152,127,116,104,30,,32,29,54,42,11,10,1.1,1
2024-01-02T1000,2426A,114.8988,30.2019,黄石市,铁山,细颗粒物(PM2.5),159,139,112,121,95,21,,60,52,48,30,9,10,1.5,1.2
2024-01-02T1000,2427A,115.0307,30.2092,黄石市,团城山,细颗粒物(PM2.5),139,140,128,106,96,25,,35,27,51,45,7,8,0.8,0.9
2024-01-02T1000,3149A,115.0235,30.1578,黄石市,笔架山北路,细颗粒物(PM2.5),144,143,118,110,96,38,,62,56,40,23,4,4,1.2,1
2024-01-02T1000,1392A,114.4183,23.0528,惠州市,河南岸金山湖子站,细颗粒物(PM2.5),73,75,76,53,54,108,,99,99,19,17,7,7,0.9,0.9
2024-01-02T1000,1393A,114.4053,23.0822,惠州市,下埔横江三路子站,细颗粒物(PM2.5),70,84,79,51,53,103,,102,100,18,16,11,11,0.8,0.8
2024-01-02T1000,1394A,114.4103,23.1142,惠州市,江北云山西路子站,颗粒物(PM10),66,82,77,44,47,99,,108,103,19,14,9,9,0.7,0.8
2024-01-02T1000,1395A,114.4645,22.7833,惠州市,惠阳区承修路船湖子站,细颗粒物(PM2.5),69,80,82,50,46,94,,94,88,23,23,7,7,0.7,0.7
2024-01-02T1000,1396A,114.5317,22.7422,惠州市,大亚湾管委会子站,颗粒物(PM10),65,79,89,43,45,103,,92,88,23,34,6,6,0.8,0.8
2024-01-02T1000,3314A,114.4338,22.8134,惠州市,惠阳秋长,颗粒物(PM10),75,100,88,50,47,99,,102,95,25,20,8,7,0.8,0.8
2024-01-02T1000,3452A,114.6517,22.775,惠州市,大亚湾霞涌,细颗粒物(PM2.5),74,71,68,54,48,95,,92,88,14,14,10,7,0.6,0.6
2024-01-02T1000,2240A,130.9762,45.3001,鸡西市,环保局,细颗粒物(PM2.5),69,62,114,50,94,48,,27,27,18,47,12,15,1.1,1.5
2024-01-02T1000,2243A,130.9429,45.3039,鸡西市,第一中学,细颗粒物(PM2.5),62,64,77,44,60,60,,50,50,15,40,11,20,0.5,0.7
2024-01-02T1000,3707A,131.0207,45.3073,鸡西市,欧美日汽修厂,细颗粒物(PM2.5),123,133,164,93,130,22,,6,6,48,58,26,43,1.4,2
2024-01-02T1000,3709A,130.9967,45.3106,鸡西市,市政设施管理处,细颗粒物(PM2.5),104,95,128,78,114,20,,7,7,49,52,13,9,1.2,1.2
2024-01-02T1000,2367A,114.9754,27.0803,吉安市,红声器材厂,细颗粒物(PM2.5),109,119,116,82,68,59,,52,49,36,31,19,18,1.1,1
2024-01-02T1000,2368A,114.9658,27.0999,吉安市,市森林工业局,细颗粒物(PM2.5),109,112,103,82,68,68,,77,76,31,29,28,24,0.7,0.8
2024-01-02T1000,2369A,114.99,27.1312,吉安市,市环境监测站,细颗粒物(PM2.5),98,113,103,73,60,74,,82,79,31,30,18,18,0.9,1
2024-01-02T1000,2370A,115.0093,27.0968,吉安市,青原区法院,细颗粒物(PM2.5),102,114,106,76,66,63,,43,43,39,36,20,18,0.6,0.6
2024-01-02T1000,1772A,126.54,43.8622,吉林市,哈达湾,细颗粒物(PM2.5),120,116,60,91,50,29,,51,45,44,23,13,13,1.5,1.1
2024-01-02T1000,1773A,126.5844,43.8358,吉林市,东局子,细颗粒物(PM2.5),92,91,62,68,50,35,,40,33,36,26,11,10,1.2,0.9
2024-01-02T1000,1774A,126.5052,43.8245,吉林市,电力学院,细颗粒物(PM2.5),119,114,67,90,52,31,,42,34,41,27,20,16,1.7,1.2
2024-01-02T1000,1775A,126.6133,43.8972,吉林市,江北,细颗粒物(PM2.5),168,166,74,127,55,,,43,37,,27,,14,,1.1
2024-01-02T1000,1776A,126.555,43.8306,吉林市,江南公园,细颗粒物(PM2.5),94,83,62,70,56,47,,46,43,23,21,13,13,1.1,0.9
2024-01-02T1000,1778A,126.7061,43.7133,吉林市,丰满,,,,,,,,,,,,,,,,
2024-01-02T1000,2868A,126.4739,43.953,吉林市,九站,细颗粒物(PM2.5),117,111,78,88,64,39,,33,31,29,32,13,9,1.4,1.1
2024-01-02T1000,1299A,116.9862,36.6114,济南市,科干所,细颗粒物(PM2.5),178,197,159,134,109,71,,82,80,34,26,8,9,1.2,1
2024-01-02T1000,1300A,116.9376,36.665,济南市,农科所,细颗粒物(PM2.5),192,210,166,144,107,11,,33,27,72,43,11,9,1.6,1.1
2024-01-02T1000,1301A,117.1265,36.6734,济南市,开发区,细颗粒物(PM2.5),170,171,138,129,94,,,23,23,87,67,9,8,1.6,1.1
2024-01-02T1000,1303A,117.0624,36.6868,济南市,省种子仓库,细颗粒物(PM2.5),192,210,191,144,124,7,,7,7,78,58,,11,1.9,1.6
2024-01-02T1000,1304A,116.9489,36.6447,济南市,机床二厂,细颗粒物(PM2.5),192,208,168,144,119,33,,42,39,61,50,24,18,1.5,1.2
2024-01-02T1000,1305A,117.0495,36.663,济南市,市监测站,细颗粒物(PM2.5),199,208,158,149,109,10,,26,26,84,54,19,16,1.8,1
2024-01-02T1000,1306A,116.7675,36.5484,济南市,长清党校,细颗粒物(PM2.5),204,212,181,154,126,57,,68,64,47,39,9,9,1.4,1.3
2024-01-02T1000,1616A,117.6795,36.229,济南市,技术学院,细颗粒物(PM2.5),223,239,184,173,136,7,,6,6,63,50,15,12,3.1,2
2024-01-02T1000,1961A,117.532,36.6868,济南市,东山小学,细颗粒物(PM2.5),144,161,149,110,98,32,,46,39,58,41,7,8,0.8,0.8
2024-01-02T1000,3059A,117.7161,36.2049,济南市,泰兴公司,细颗粒物(PM2.5),228,261,201,178,146,7,,5,5,72,65,10,8,2.1,1.5
2024-01-02T1000,3064A,117.6867,36.2171,济南市,莱芜战役纪念馆,细颗粒物(PM2.5),218,241,190,168,135,6,,4,4,71,63,15,12,2.1,1.4
2024-01-02T1000,3494A,117.1673,36.9782,济南市,济阳区政府,细颗粒物(PM2.5),182,183,167,137,116,18,,8,8,68,57,6,9,1.3,1.2
2024-01-02T1000,3495A,117.1171,36.63,济南市,锦屏中学,细颗粒物(PM2.5),175,176,128,132,99,47,,67,65,41,27,7,7,1.2,0.9
2024-01-02T1000,3682A,116.9814,36.6819,济南市,济南四建,细颗粒物(PM2.5),201,195,151,151,115,8,,37,34,86,53,19,14,1.7,1.1
2024-01-02T1000,1653A,116.6251,35.4302,济宁市,火炬城,细颗粒物(PM2.5),140,168,152,107,88,33,,27,26,44,39,7,5,1.4,1.1
2024-01-02T1000,1655A,116.5491,35.4042,济宁市,电化厂,细颗粒物(PM2.5),192,215,173,144,112,32,,43,38,46,33,8,7,1.4,1.1
2024-01-02T1000,3500A,116.5814,35.3707,济宁市,北湖一中,细颗粒物(PM2.5),201,182,157,151,113,29,,39,32,44,35,5,5,1.7,1.3
2024-01-02T1000,3501A,116.8249,35.5593,济宁市,服务中心,细颗粒物(PM2.5),176,211,188,133,110,18,,8,8,50,43,4,4,1.5,1.1
2024-01-02T1000,3678A,116.5907,35.4054,济宁市,市第七中学,细颗粒物(PM2.5),188,176,167,141,111,26,,18,18,48,44,6,5,1.4,1.2
2024-01-02T1000,2255A,130.2751,46.8028,佳木斯市,佳纺,细颗粒物(PM2.5),137,126,63,104,52,37,,30,26,47,35,22,9,1.3,1
2024-01-02T1000,2256A,130.3995,46.8307,佳木斯市,发电厂,细颗粒物(PM2.5),74,66,50,54,37,43,,41,41,34,29,17,11,0.9,0.7
2024-01-02T1000,2257A,130.3258,46.7975,佳木斯市,环保局,细颗粒物(PM2.5),124,117,55,94,45,22,,41,32,55,32,17,9,1.1,0.7
2024-01-02T1000,2258A,130.3648,46.8032,佳木斯市,十一中,细颗粒物(PM2.5),107,,52,80,47,33,,38,36,43,35,12,8,1.1,0.8
2024-01-02T1000,2259A,130.3794,46.7588,佳木斯市,四丰,细颗粒物(PM2.5),75,82,49,55,30,38,,50,46,35,21,1,1,1.3,1
2024-01-02T1000,1252A,120.7436,30.778,嘉兴市,清河小学,颗粒物(PM10),64,78,100,37,55,20,,14,13,51,43,7,6,0.9,1
2024-01-02T1000,1253A,120.726,30.7478,嘉兴市,嘉兴学院,颗粒物(PM10),65,80,96,46,58,23,,16,16,51,42,8,7,0.6,0.8
2024-01-02T1000,2872A,120.7846,30.7525,嘉兴市,南湖区残联,"颗粒物(PM10),细颗粒物(PM2.5)",62,74,97,44,59,24,,12,12,53,49,8,7,0.6,0.8
2024-01-02T1000,3407A,120.6916,30.7739,嘉兴市,秀洲住建,细颗粒物(PM2.5),65,71,101,47,64,24,,6,6,48,50,9,8,0.7,0.8
2024-01-02T1000,1945A,98.2908,39.7711,嘉峪关市,气象局,颗粒物(PM10),52,53,52,14,19,19,,61,48,68,36,5,19,0.7,0.6
2024-01-02T1000,2884A,98.2672,39.7978,嘉峪关市,酒钢宾馆,,39,39,67,12,24,50,,68,63,24,28,11,36,0.5,0.7
2024-01-02T1000,3248A,98.2643,39.7724,嘉峪关市,雄关区,,36,36,57,8,22,30,,54,44,38,31,5,17,0.3,0.5
2024-01-02T1000,1383A,113.1064,22.6058,江门市,北街,细颗粒物(PM2.5),57,61,65,40,43,84,,106,101,26,22,7,7,0.8,0.8
2024-01-02T1000,1384A,113.0731,22.5835,江门市,西区,颗粒物(PM10),60,70,74,35,38,93,,110,105,25,23,6,7,0.7,0.7
2024-01-02T1000,1385A,113.0219,22.5311,江门市,圭峰西,,,64,65,41,43,,,114,110,20,21,,8,0.9,0.9
2024-01-02T1000,1386A,113.0828,22.5947,江门市,东湖,颗粒物(PM10),56,62,71,30,39,93,,110,105,20,18,6,7,0.6,0.6
2024-01-02T1000,3311A,113.1075,22.5647,江门市,江海富民,细颗粒物(PM2.5),72,79,90,52,48,93,,113,107,32,26,7,8,0.6,0.7
2024-01-02T1000,3449A,113.05,22.4667,江门市,新会银湖,颗粒物(PM10),56,61,63,39,45,91,,110,105,25,18,7,8,0.8,0.8
2024-01-02T1000,1828A,113.227,35.2125,焦作市,市环保局,细颗粒物(PM2.5),162,181,153,123,108,12,,11,8,47,47,13,13,1.7,1.2
2024-01-02T1000,1830A,113.1992,35.2590,焦作市,影视城,,,,,,,,,,,,,,,,
2024-01-02T1000,3169A,113.2725,35.2067,焦作市,太极体育中心,细颗粒物(PM2.5),176,199,153,133,111,13,,7,6,49,50,15,13,1.5,1.1
2024-01-02T1000,3335A,113.3137,35.2641,焦作市,马村街道办,细颗粒物(PM2.5),175,185,155,132,107,19,,8,8,40,48,16,14,1.3,1.1
2024-01-02T1000,3336A,113.2465,35.2373,焦作市,焦作技师学院,细颗粒物(PM2.5),163,173,153,124,111,20,,7,7,44,50,21,17,1.6,1.5
2024-01-02T1000,3477A,113.1656,35.2539,焦作市,中站许衡医院,细颗粒物(PM2.5),144,144,147,110,94,27,,14,14,40,59,18,24,1.1,1.3
2024-01-02T1000,3981A,113.2449,35.1803,焦作市,原李万街道办,细颗粒物(PM2.5),185,191,139,139,107,12,,12,9,43,43,17,13,1.8,1.1
2024-01-02T1000,1708A,116.3701,23.5345,揭阳市,新兴,细颗粒物(PM2.5),88,98,83,65,62,74,,82,75,39,27,19,14,0.8,0.8
2024-01-02T1000,1709A,116.3264,23.5443,揭阳市,西马,细颗粒物(PM2.5),82,110,87,60,58,79,,77,65,29,24,14,11,0.9,0.8
2024-01-02T1000,1710A,116.3611,23.5626,揭阳市,东兴,颗粒物(PM10),80,109,91,57,56,88,,84,80,27,23,15,14,0.8,0.8
2024-01-02T1000,1711A,116.4151,23.5294,揭阳市,渔湖,细颗粒物(PM2.5),84,110,87,62,52,77,,73,65,34,26,15,11,0.7,0.8
2024-01-02T1000,3320A,116.403,23.5699,揭阳市,曲溪,,,115,94,62,56,79,,56,53,33,27,,8,0.7,0.7
2024-01-02T1000,1944A,102.1692,38.5167,金昌市,天庆家园,,,83,52,26,19,28,,64,54,54,25,32,19,,0.5
2024-01-02T1000,3170A,102.1864,38.5253,金昌市,市委党校,颗粒物(PM10),55,60,54,25,21,44,,74,66,45,18,30,16,0.8,0.6
2024-01-02T1000,4022A,102.1647,38.5371,金昌市,金川区人防中心,颗粒物(PM10),68,86,53,32,20,31,,75,63,50,16,15,24,1.7,0.6
2024-01-02T1000,1262A,119.647,29.077,金华市,十五中,细颗粒物(PM2.5),150,157,161,115,110,41,,22,22,47,58,3,2,1.4,1.2
2024-01-02T1000,1263A,119.686,29.1029,金华市,监测站,细颗粒物(PM2.5),147,173,176,112,111,23,,8,8,53,62,5,4,1.2,1.1
2024-01-02T1000,3659A,119.656,29.1131,金华市,气象局,细颗粒物(PM2.5),147,173,174,112,111,25,,7,7,49,61,6,4,1.2,1.1
2024-01-02T1000,1767A,121.1115,41.0879,锦州市,南山,细颗粒物(PM2.5),268,,111,218,112,14,,9,9,66,56,22,18,3.2,2
2024-01-02T1000,1768A,121.0533,40.8434,锦州市,开发区,细颗粒物(PM2.5),308,361,158,258,125,16,,8,8,66,56,36,42,2.4,1.8
2024-01-02T1000,1769A,121.1836,41.1119,锦州市,百股街道,细颗粒物(PM2.5),230,,107,180,102,21,,10,10,55,54,41,26,2.0,1.8
2024-01-02T1000,1770A,121.1178,41.1222,锦州市,天安街道,细颗粒物(PM2.5),183,,106,138,99,11,,7,7,65,57,24,24,2.7,1.9
2024-01-02T1000,1771A,121.1303,41.1386,锦州市,北湖公园,细颗粒物(PM2.5),199,,91,149,100,29,,15,15,43,53,27,21,1.9,1.6
2024-01-02T1000,2160A,112.85,35.5051,晋城市,自来水公司,细颗粒物(PM2.5),85,91,106,63,68,52,,39,39,33,42,16,13,1.8,1.6
2024-01-02T1000,2161A,112.8318,35.4936,晋城市,白云商贸,颗粒物(PM10),88,126,110,46,56,47,,41,41,33,35,9,8,1.1,1.2
2024-01-02T1000,2162A,112.8508,35.4887,晋城市,市环保局,细颗粒物(PM2.5),89,113,121,66,68,43,,31,31,34,40,21,12,2.2,1.7
2024-01-02T1000,2163A,112.8676,35.4897,晋城市,技术学院,细颗粒物(PM2.5),79,104,114,58,67,50,,34,34,35,50,24,17,1.9,1.8
2024-01-02T1000,2165A,112.8453,35.546,晋城市,白马寺,,,,,,,,,,,,,,,,
2024-01-02T1000,3620A,112.8271,35.4828,晋城市,泽州一中,颗粒物(PM10),78,106,102,46,53,51,,49,49,36,37,9,9,1.3,1.3
2024-01-02T1000,2171A,112.7532,37.6945,晋中市,锦纶小区,颗粒物(PM10),74,97,152,53,102,21,,10,10,38,68,18,28,1.1,1.5
2024-01-02T1000,2173A,112.7249,37.7067,晋中市,南都小区,颗粒物(PM10),89,128,165,55,104,13,,6,6,50,65,17,24,1.7,1.6
2024-01-02T1000,2174A,112.6991,37.6982,晋中市,榆次区政府,细颗粒物(PM2.5),103,111,167,77,108,8,,6,6,58,65,17,24,2.1,1.7
2024-01-02T1000,2865A,112.7195,37.6828,晋中市,榆次三中,"颗粒物(PM10),细颗粒物(PM2.5)",89,127,162,66,103,11,,6,6,50,71,15,26,1.5,1.5
2024-01-02T1000,2439A,112.2014,31.0481,荆门市,竹园小学,细颗粒物(PM2.5),95,88,115,71,77,70,,82,82,24,24,6,8,0.9,0.9
2024-01-02T1000,2440A,112.1969,30.9891,荆门市,掇刀,细颗粒物(PM2.5),87,73,107,64,74,56,,92,86,24,17,12,15,0.8,0.8
2024-01-02T1000,2441A,112.2213,31.0386,荆门市,石化一小,细颗粒物(PM2.5),100,89,120,75,85,65,,82,79,32,24,8,14,0.7,0.6
2024-01-02T1000,3012A,112.1849,31.0362,荆门市,西山林语,细颗粒物(PM2.5),80,76,104,59,70,58,,92,85,18,18,8,9,0.6,0.7
2024-01-02T1000,3547A,112.1632,31.0138,荆门市,龙泉中学南校,细颗粒物(PM2.5),80,76,106,59,74,59,,84,80,16,16,6,9,1.0,1
2024-01-02T1000,1844A,112.2494,30.3197,荆州市,市图书馆,细颗粒物(PM2.5),99,79,94,74,88,66,,76,76,31,23,5,7,0.9,0.9
2024-01-02T1000,1845A,112.2008,30.3544,荆州市,市委党校,细颗粒物(PM2.5),100,77,106,75,86,62,,78,78,23,21,5,7,0.9,0.8
2024-01-02T1000,3194A,112.2747,30.3122,荆州市,管委会,细颗粒物(PM2.5),94,71,91,70,88,72,,77,77,22,20,6,8,0.8,0.8
2024-01-02T1000,3548A,112.1655,30.3364,荆州市,学苑路,细颗粒物(PM2.5),94,71,90,70,80,50,,64,63,26,20,6,7,0.7,0.7
2024-01-02T1000,2342A,117.3102,29.3867,景德镇市,王港中学,,,,,,,,,,,,,,,,
2024-01-02T1000,2343A,117.2117,29.2933,景德镇市,老干部活动中心,细颗粒物(PM2.5),89,74,80,66,67,47,,21,21,16,27,6,8,0.6,0.6
2024-01-02T1000,2344A,117.1894,29.2789,景德镇市,兽医站,颗粒物(PM10),65,79,86,44,53,51,,26,26,16,28,4,9,0.4,0.5
2024-01-02T1000,2345A,117.1547,29.2617,景德镇市,台达陶瓷,细颗粒物(PM2.5),64,76,89,46,59,54,,36,36,20,30,5,10,0.8,0.8
2024-01-02T1000,2346A,117.2461,29.2956,景德镇市,陶研所,,,71,74,44,47,27,,9,9,,26,,4,,0.9
2024-01-02T1000,1803A,115.9872,29.6815,九江市,十里,细颗粒物(PM2.5),137,166,154,104,108,50,,63,57,37,33,8,9,1.1,1.1
2024-01-02T1000,1804A,115.9584,29.7046,九江市,茅山头,细颗粒物(PM2.5),155,164,155,118,110,39,,53,48,50,42,11,7,1.3,1.2
2024-01-02T1000,1805A,115.9877,29.7295,九江市,西园,细颗粒物(PM2.5),144,141,152,110,111,55,,59,56,42,40,11,9,1.0,1
2024-01-02T1000,1806A,116.0172,29.6547,九江市,五七二七厂,,,,176,,112,,,61,55,,26,,10,,1
2024-01-02T1000,1808A,115.9114,29.6038,九江市,综合工业园,细颗粒物(PM2.5),169,150,146,128,132,37,,24,23,52,58,11,11,1.3,1.3
2024-01-02T1000,1809A,116.0721,29.7535,九江市,石化总厂,细颗粒物(PM2.5),134,169,162,102,106,54,,56,52,38,40,13,10,1.3,1.1
2024-01-02T1000,1810A,115.9773,29.5698,九江市,庐山气象台,,24,9,17,8,11,76,,89,87,8,4,6,7,1.1,0.6
2024-01-02T1000,3190A,116.0254,29.6994,九江市,外国语学校,细颗粒物(PM2.5),137,144,145,104,110,41,,55,47,43,38,11,8,0.5,1.4
2024-01-02T1000,2658A,98.5061,39.7443,酒泉市,仓门街子站,颗粒物(PM10),51,51,65,28,32,25,,54,43,43,21,4,10,0.4,0.5
2024-01-02T1000,2659A,98.4989,39.7256,酒泉市,油田生活基地,颗粒物(PM10),63,75,71,24,32,19,,45,33,41,28,4,9,0.5,0.6
2024-01-02T1000,2698A,76.0072,39.4467,喀什地区,巡警大队,颗粒物(PM10),144,238,262,61,79,24,,19,19,42,52,2,7,1.4,2
2024-01-02T1000,2699A,75.9755,39.4694,喀什地区,吾办,颗粒物(PM10),155,260,276,111,109,11,,18,16,71,66,1,5,2.5,2.4
2024-01-02T1000,4027A,75.9483,39.4689,喀什地区,老干局,细颗粒物(PM2.5),170,282,306,129,101,14,,17,16,55,53,3,6,3.3,3
2024-01-02T1000,1824A,114.3389,34.7781,开封市,肿瘤医院,细颗粒物(PM2.5),207,201,158,157,120,16,,16,12,33,36,2,3,1.3,1.1
2024-01-02T1000,1826A,114.2885,34.7965,开封市,世纪星幼儿园,细颗粒物(PM2.5),214,187,142,164,123,17,,28,22,38,35,3,4,1.2,0.9
2024-01-02T1000,3147A,114.3438,34.8106,开封市,龙亭公园,细颗粒物(PM2.5),214,212,156,164,123,19,,22,18,40,41,2,3,0.9,0.7
2024-01-02T1000,3210A,114.3644,34.7964,开封市,汴京公园,细颗粒物(PM2.5),221,204,160,171,128,16,,18,14,38,41,2,3,1.3,1.1
2024-01-02T1000,3473A,114.2485,34.8306,开封市,技师学院,细颗粒物(PM2.5),210,194,142,160,120,20,,33,25,31,31,3,2,1.1,0.9
2024-01-02T1000,3592A,114.4644,34.7556,开封市,祥符区生态环境局,细颗粒物(PM2.5),223,238,182,173,128,11,,15,12,45,44,4,4,1.0,0.8
2024-01-02T1000,1951A,84.895,45.6094,克拉玛依市,长征新村,,23,,12,16,10,50,,56,55,16,13,10,9,0.4,0.4
2024-01-02T1000,1952A,84.8988,45.5893,克拉玛依市,南林小区,,22,,13,15,15,48,,56,55,17,11,4,4,0.2,0.2
2024-01-02T1000,1954A,84.905,44.3396,克拉玛依市,独山子区,,14,7,32,5,28,44,,52,51,21,16,4,5,0.7,0.8
2024-01-02T1000,1955A,85.6979,46.098,克拉玛依市,乌尔禾区商贸楼,,19,11,9,9,14,58,,63,63,8,12,5,4,0.1,0.2
2024-01-02T1000,3612A,85.1045,45.6899,克拉玛依市,白碱滩区新站,,18,18,15,9,8,54,,57,56,16,11,9,8,0.2,0.3
2024-01-02T1000,2697A,76.1454,39.7142,克孜勒苏柯尔克孜自治州,市人民政府,颗粒物(PM10),125,199,202,72,68,43,,57,56,14,14,4,5,1.1,0.8
2024-01-02T1000,3665A,76.1658,39.7157,克孜勒苏柯尔克孜自治州,克州文化中心,颗粒物(PM10),132,213,216,64,62,49,,62,61,18,18,7,9,0.8,0.7
2024-01-02T1000,1450A,102.8204,24.8886,昆明市,呈贡新区,,42,30,22,29,15,32,,33,26,33,20,22,7,0.7,0.3
2024-01-02T1000,1451A,102.6251,24.9608,昆明市,西山森林公园,,21,12,15,9,10,67,,66,65,5,6,7,7,0.7,0.6
2024-01-02T1000,1452A,102.7252,25.0902,昆明市,龙泉镇,,43,43,35,19,20,9,,5,5,36,34,8,8,0.9,0.6
2024-01-02T1000,1453A,102.7266,25.0375,昆明市,东风东路,颗粒物(PM10),51,51,30,25,22,7,,16,12,39,27,10,9,1.0,0.6
2024-01-02T1000,1454A,102.6742,25.0669,昆明市,金鼎山,颗粒物(PM10),51,52,49,34,30,12,,6,6,47,33,25,18,1.6,0.9
2024-01-02T1000,1455A,102.6644,25.0401,昆明市,碧鸡广场,,45,45,33,27,20,18,,11,11,39,32,13,9,1.2,0.7
2024-01-02T1000,3179A,102.7494,25.0119,昆明市,官渡区博物馆,细颗粒物(PM2.5),59,61,34,42,21,7,,11,6,52,26,11,8,1.3,0.7
2024-01-02T1000,3375A,102.8017,24.8336,昆明市,青年创业园,细颗粒物(PM2.5),89,101,24,66,14,25,,27,21,35,18,22,11,1.4,0.7
2024-01-02T1000,3550A,102.7997,24.9786,昆明市,昆明学院,细颗粒物(PM2.5),68,80,31,49,18,10,,27,17,39,15,11,10,1.4,0.7
2024-01-02T1000,3551A,102.5967,24.6736,昆明市,晋宁区生态环境分局,,42,42,32,24,21,28,,32,28,29,15,14,13,0.7,0.5
2024-01-02T1000,3552A,102.6678,24.9856,昆明市,云天化总部,,36,36,25,21,14,23,,11,11,33,24,10,9,0.8,0.6
2024-01-02T1000,1456A,91.1319,29.6514,拉萨市,八廓街,,17,14,23,11,14,54,,62,60,28,25,6,9,0.4,0.5
2024-01-02T1000,1457A,91.1221,29.6747,拉萨市,市环保局,,37,37,30,20,17,31,,48,46,35,26,8,9,1.0,0.8
2024-01-02T1000,1458A,91.0874,29.6475,拉萨市,区监测站,,,15,16,7,9,46,,61,58,31,22,,8,0.6,0.5
2024-01-02T1000,1459A,91.1774,29.6541,拉萨市,西藏大学,,17,14,17,7,9,52,,64,61,17,12,5,8,0.6,0.7
2024-01-02T1000,1460A,90.9798,29.6588,拉萨市,区辐射站,细颗粒物(PM2.5),57,59,27,40,17,17,,41,38,57,28,9,7,1.3,0.8
2024-01-02T1000,1461A,91.0834,29.6292,拉萨市,拉萨火车站,,25,25,26,11,15,26,,43,39,44,28,5,7,1.0,0.7
2024-01-02T1000,2520A,109.2203,23.7256,来宾市,来宾技工学校,细颗粒物(PM2.5),118,129,118,89,101,18,,21,20,26,27,9,10,1.5,1.5
2024-01-02T1000,3535A,109.1781,23.7297,来宾市,兴宾区政府,细颗粒物(PM2.5),130,123,116,99,99,19,,30,25,30,23,10,10,1.5,1.4
2024-01-02T1000,4002A,109.2416,23.7461,来宾市,中南小学,细颗粒物(PM2.5),112,107,115,84,96,19,,20,18,24,25,12,12,1.4,1.5
2024-01-02T1000,1476A,103.631,36.1031,兰州市,兰炼宾馆,颗粒物(PM10),83,115,111,55,57,10,,7,7,49,67,50,34,1.5,1.5
2024-01-02T1000,1477A,104.1373,35.9454,兰州市,榆中兰大校区,,,,,,,,,,,,,,,,
2024-01-02T1000,1478A,103.8412,36.0726,兰州市,生物制品所,颗粒物(PM10),94,138,115,65,61,10,,8,8,57,69,25,22,2.1,1.5
2024-01-02T1000,1479A,103.831,36.0464,兰州市,铁路设计院,颗粒物(PM10),105,159,134,73,76,5,,4,4,68,83,54,31,4.3,2.8
2024-01-02T1000,3186A,103.7158,36.1058,兰州市,教育港,,,127,108,53,50,,,3,3,52,68,62,20,1.6,1.5
2024-01-02T1000,3241A,103.7439,36.0842,兰州市,百合公园,颗粒物(PM10),81,112,105,51,54,11,,8,8,58,70,30,19,1.6,1.6
2024-01-02T1000,3242A,103.9611,35.998,兰州市,和平,颗粒物(PM10),104,157,120,75,62,14,,20,19,70,61,39,25,3.2,1.9
2024-01-02T1000,3245A,103.6633,36.533,兰州新区,新区管委会,颗粒物(PM10),74,97,78,44,36,24,,34,30,32,28,36,19,0.9,0.8
2024-01-02T1000,3246A,103.6975,36.4789,兰州新区,舟曲中学,颗粒物(PM10),77,103,95,46,40,11,,39,32,57,40,16,22,1.3,0.9
2024-01-02T1000,1067A,116.6708,39.5111,廊坊市,药材公司,细颗粒物(PM2.5),190,202,189,143,114,5,,2,2,79,69,2,2,1.7,1.2
2024-01-02T1000,1068A,116.7214,39.5589,廊坊市,开发区,细颗粒物(PM2.5),169,164,168,128,135,4,,1,1,82,75,3,3,1.6,1.2
2024-01-02T1000,1070A,116.7244,39.5269,廊坊市,北华航天学院,细颗粒物(PM2.5),169,160,169,128,131,8,,2,2,66,63,3,4,1.5,1.2
2024-01-02T1000,2919A,116.7022,39.5453,廊坊市,河北工业大学,细颗粒物(PM2.5),169,172,178,128,126,4,,1,1,73,64,3,3,1.9,1.3
2024-01-02T1000,2535A,103.7723,29.5462,乐山市,花湖湾,细颗粒物(PM2.5),119,,221,90,161,1,,19,13,17,29,3,3,1.0,0.8
2024-01-02T1000,2536A,103.7627,29.5844,乐山市,牛耳桥,细颗粒物(PM2.5),115,110,172,87,148,3,,19,12,28,39,4,4,1.7,1.5
2024-01-02T1000,2537A,103.7508,29.6006,乐山市,市第三水厂,,,110,169,62,124,,,16,13,27,41,3,4,1.4,1.3
2024-01-02T1000,2538A,103.7571,29.5664,乐山市,市监测站,细颗粒物(PM2.5),127,115,160,96,143,4,,18,11,30,35,7,7,1.5,1.1
2024-01-02T1000,3361A,103.7311,29.5628,乐山市,理工大学,颗粒物(PM10),71,92,172,51,140,2,,12,8,24,37,7,7,1.5,1.3
2024-01-02T1000,2598A,100.2143,26.8576,丽江市,西南郊,,,,,,,,,,,,,,,,
2024-01-02T1000,2599A,100.2497,26.8802,丽江市,丽江古城,,38,38,29,23,15,56,,71,66,23,13,8,8,0.7,0.5
2024-01-02T1000,2600A,100.2203,26.8906,丽江市,市中心,,16,16,16,6,6,48,,63,58,14,14,6,6,0.7,0.6
2024-01-02T1000,1267A,119.914,28.4514,丽水市,监测站大楼,细颗粒物(PM2.5),107,80,102,80,88,37,,25,24,24,28,9,10,0.9,0.9
2024-01-02T1000,1268A,119.93,28.4586,丽水市,莲都小学,细颗粒物(PM2.5),93,103,115,69,78,26,,26,20,33,31,4,4,0.8,0.8
2024-01-02T1000,1269A,119.879,28.4231,丽水市,余庄前,细颗粒物(PM2.5),122,115,108,92,81,17,,9,9,42,26,4,4,0.8,0.7
2024-01-02T1000,1173A,119.176,34.5885,连云港市,市环境监测站,细颗粒物(PM2.5),140,168,122,107,75,16,,14,14,65,50,11,10,1.2,0.9
2024-01-02T1000,3000A,119.3581,34.6972,连云港市,德源药业,细颗粒物(PM2.5),125,173,115,95,64,3,,1,1,78,53,8,7,0.9,0.7
2024-01-02T1000,3007A,119.178,34.844,连云港市,新城一中,细颗粒物(PM2.5),182,162,105,137,77,9,,8,8,70,46,11,10,1.4,0.9
2024-01-02T1000,3008A,119.3608,34.7519,连云港市,胡沟管理处,细颗粒物(PM2.5),128,146,97,97,59,7,,55,45,72,34,12,8,1.1,0.8
2024-01-02T1000,3009A,119.1478,34.5911,连云港市,矿山设计院,细颗粒物(PM2.5),144,183,127,110,71,16,,5,5,55,49,14,8,1.2,1
2024-01-02T1000,3434A,119.2413,34.6539,连云港市,工贸学校,细颗粒物(PM2.5),144,174,133,110,77,14,,55,45,57,24,10,10,1.1,0.9
2024-01-02T1000,3664A,119.4172,34.7341,连云港市,连云街道,细颗粒物(PM2.5),156,200,118,119,91,3,,37,25,90,46,21,9,1.2,0.8
2024-01-02T1000,2571A,102.3431,27.8099,凉山彝族自治州,青龙寺,,32,32,24,12,11,38,,43,41,12,8,8,7,1.1,0.8
2024-01-02T1000,2572A,102.2721,27.8415,凉山彝族自治州,邛海宾馆,,,28,36,23,23,,,49,46,22,15,15,14,1.0,0.8
2024-01-02T1000,2573A,102.2625,27.898,凉山彝族自治州,西昌市政府,,48,40,34,33,22,39,,59,53,19,13,17,14,0.8,0.7
2024-01-02T1000,2574A,102.2685,27.8851,凉山彝族自治州,凉山州政府,,43,43,40,25,25,32,,43,40,24,16,12,10,1.0,0.8
2024-01-02T1000,2575A,102.237,27.8914,凉山彝族自治州,长安,颗粒物(PM10),55,59,42,28,24,24,,42,37,37,23,17,18,0.7,0.6
2024-01-02T1000,2212A,123.2,41.1953,辽阳市,宏伟区,细颗粒物(PM2.5),83,85,74,61,60,46,,52,48,25,27,13,15,1.0,1.1
2024-01-02T1000,2213A,123.1683,41.2495,辽阳市,新华园,细颗粒物(PM2.5),118,94,94,89,79,12,,35,27,70,45,10,12,1.9,1.6
2024-01-02T1000,2214A,123.2354,41.2639,辽阳市,滨河路,细颗粒物(PM2.5),120,,68,91,74,38,,59,53,33,31,11,15,1.2,1.1
2024-01-02T1000,2215A,123.149,41.2991,辽阳市,铁西工业园,细颗粒物(PM2.5),156,,97,119,89,12,,34,26,59,42,20,21,1.9,1.7
2024-01-02T1000,2227A,125.1358,42.8845,辽源市,环保局,,,57,58,49,44,,,52,52,22,23,14,14,,1.3
2024-01-02T1000,3239A,125.0764,42.9078,辽源市,银鹰制药,细颗粒物(PM2.5),72,70,68,52,54,60,,46,46,20,24,11,18,1.1,1.2
2024-01-02T1000,1625A,115.9848,36.4372,聊城市,区政府,细颗粒物(PM2.5),216,228,198,166,133,33,,36,32,41,37,5,5,1.5,1.2
2024-01-02T1000,2878A,116.0072,36.4343,聊城市,聊大东校,,,,181,,131,41,,38,36,25,25,5,5,1.0,0.9
2024-01-02T1000,3200A,115.9819,36.4978,聊城市,监控中心,细颗粒物(PM2.5),230,224,190,180,141,18,,31,24,48,40,1,2,1.5,1.1
2024-01-02T1000,3513A,116.0445,36.4361,聊城市,九州社区,细颗粒物(PM2.5),211,206,175,161,121,36,,39,35,37,30,2,2,1.4,1
2024-01-02T1000,4018A,116.0567,36.4608,聊城市,星美广场,细颗粒物(PM2.5),219,241,181,169,124,17,,41,34,60,24,2,2,1.3,0.9
2024-01-02T1000,2632A,94.3681,29.6376,林芝市,林芝监测站,,13,9,8,3,6,40,,50,46,14,8,7,7,0.5,0.5
2024-01-02T1000,2633A,94.3616,29.6616,林芝市,林芝人民医院,,23,23,14,16,7,35,,50,47,20,9,9,9,0.5,0.3
2024-01-02T1000,2603A,100.0781,23.8982,临沧市,市环保局,,18,18,30,8,23,16,,19,16,15,14,7,6,0.6,0.5
2024-01-02T1000,2604A,100.0894,23.8822,临沧市,市气象局,,,34,31,23,25,,,18,16,16,14,6,6,0.6,0.5
2024-01-02T1000,1733A,111.5531,36.0783,临汾市,临钢医院,细颗粒物(PM2.5),139,189,145,106,90,6,,8,6,44,39,8,10,1.6,1.3
2024-01-02T1000,1734A,111.5028,36.0714,临汾市,技工学校,细颗粒物(PM2.5),117,,149,88,96,10,,6,6,41,43,14,13,1.6,1.4
2024-01-02T1000,1736A,111.5018,36.0855,临汾市,市委,细颗粒物(PM2.5),133,164,152,101,97,11,,8,7,43,44,13,11,1.6,1.3
2024-01-02T1000,3018A,111.505,36.1014,临汾市,唐尧大酒店,细颗粒物(PM2.5),119,164,145,90,96,7,,4,4,43,42,10,10,1.5,1.3
2024-01-02T1000,3668A,111.5036,36.0414,临汾市,城南,细颗粒物(PM2.5),148,197,151,113,93,3,,1,1,45,44,9,10,1.7,1.3
2024-01-02T1000,2667A,103.2069,35.5993,临夏回族自治州,环保局,颗粒物(PM10),72,93,102,41,37,3,,3,2,49,48,29,23,3.1,2.6
2024-01-02T1000,2668A,103.2417,35.6057,临夏回族自治州,建设大厦,颗粒物(PM10),58,66,87,31,38,19,,27,23,27,30,13,13,1.5,1.4
2024-01-02T1000,1618A,118.3429,35.0532,临沂市,沂河小区,细颗粒物(PM2.5),179,190,149,135,96,33,,16,15,66,56,15,14,1.6,1.1
2024-01-02T1000,1619A,118.295,35.0583,临沂市,鲁南制药厂,细颗粒物(PM2.5),229,280,158,179,101,12,,12,12,82,56,46,20,2.6,1.3
2024-01-02T1000,1620A,118.2794,34.9976,临沂市,新光毛纺厂,细颗粒物(PM2.5),172,215,153,130,91,15,,10,10,73,60,15,18,2.0,1.2
2024-01-02T1000,1621A,118.3956,35.0888,临沂市,河东保险公司,细颗粒物(PM2.5),243,293,151,193,94,8,,6,4,95,48,18,11,2.6,1.5
2024-01-02T1000,3370A,118.3564,35.0215,临沂市,十里堡居委,细颗粒物(PM2.5),199,224,152,149,94,11,,10,7,66,54,15,13,2.0,1.2
2024-01-02T1000,3496A,118.3604,35.1084,临沂市,南坊新区,细颗粒物(PM2.5),195,239,146,146,88,5,,6,4,82,53,15,14,2.6,1.5
2024-01-02T1000,3860A,118.3920,35.0300,临沂市,皇山花园小区,细颗粒物(PM2.5),149,200,150,114,86,13,,14,9,74,53,13,16,1.6,1.2
2024-01-02T1000,1870A,109.4856,24.3895,柳州市,柳东小学,,42,38,79,29,74,41,,60,54,12,17,9,11,0.9,1
2024-01-02T1000,1871A,109.4157,24.3277,柳州市,环保监测站,细颗粒物(PM2.5),62,47,89,44,75,26,,58,48,22,23,6,9,1.0,1.1
2024-01-02T1000,1872A,109.389,24.341,柳州市,河西水厂,,,,97,,78,,,67,,,23,,10,,1.4
2024-01-02T1000,1873A,109.4311,24.2921,柳州市,市四中,,28,24,88,19,71,33,,57,50,22,23,5,8,1.1,1.2
2024-01-02T1000,1874A,109.4006,24.3631,柳州市,市九中,细颗粒物(PM2.5),54,,79,38,70,21,,48,38,21,20,4,6,1.0,1.1
2024-01-02T1000,1875A,109.4958,24.3134,柳州市,古亭山,,28,22,80,19,73,42,,38,38,17,21,9,13,1.0,1.1
2024-01-02T1000,3402A,109.5422,24.3996,柳州市,市二中,,23,22,79,16,68,39,,67,60,15,14,4,7,0.9,0.9
2024-01-02T1000,2307A,116.5079,31.737,六安市,监测大楼,细颗粒物(PM2.5),150,154,134,115,104,39,,52,43,44,36,7,6,1.1,1
2024-01-02T1000,2308A,116.4738,31.7643,六安市,皖西学院,细颗粒物(PM2.5),142,175,147,108,97,24,,28,20,51,36,6,6,1.1,1
2024-01-02T1000,2309A,116.4996,31.7905,六安市,朝阳厂,细颗粒物(PM2.5),145,153,142,111,108,15,,32,27,55,39,8,7,1.1,0.9
2024-01-02T1000,2310A,116.5567,31.7886,六安市,开发区,细颗粒物(PM2.5),132,169,164,100,102,17,,29,24,51,39,5,8,0.9,0.9
2024-01-02T1000,2576A,104.8,26.5892,六盘水市,窑上,,,,,,,,,,,,,,,,
2024-01-02T1000,2577A,104.83,26.5917,六盘水市,黄土坡,,33,33,30,13,22,54,,66,63,18,13,14,10,1.0,0.9
2024-01-02T1000,2578A,104.89,26.5939,六盘水市,水钢,细颗粒物(PM2.5),54,53,30,38,25,39,,62,57,34,17,38,7,2.8,0.9
2024-01-02T1000,2579A,104.8475,26.5894,六盘水市,民中,,25,19,30,17,21,53,,62,59,14,13,9,8,0.8,0.8
2024-01-02T1000,2580A,104.9544,26.5506,六盘水市,双水,,49,34,29,34,19,55,,74,70,15,10,10,7,1.1,0.8
2024-01-02T1000,2335A,117.0189,25.1181,龙岩市,龙岩师专,,,,,,,,,,,,,,,,
2024-01-02T1000,2336A,117.0217,25.1033,龙岩市,龙岩市监测站,细颗粒物(PM2.5),67,52,56,48,50,63,,39,39,12,20,8,10,0.7,0.8
2024-01-02T1000,2337A,117.0258,25.0661,龙岩市,闽西职业技术学院,细颗粒物(PM2.5),75,67,66,55,55,50,,24,24,15,20,4,8,0.9,0.9
2024-01-02T1000,2338A,117.0196,25.0306,龙岩市,龙岩学院,细颗粒物(PM2.5),84,64,56,62,51,26,,18,18,35,16,2,5,0.5,0.5
2024-01-02T1000,2665A,105.0822,33.3261,陇南市,汉王镇固水子,,,,,,,,,,,,,,,,
2024-01-02T1000,2885A,104.9339,33.3826,陇南市,滨江中学,颗粒物(PM10),73,95,86,49,52,10,,7,7,38,44,80,42,1.2,1.4
2024-01-02T1000,3247A,104.955,33.371,陇南市,市总工会,细颗粒物(PM2.5),77,101,82,56,52,17,,21,19,41,37,38,11,1.1,0.8
2024-01-02T1000,2487A,111.9589,27.8901,娄底市,电视发射台,细颗粒物(PM2.5),90,79,102,67,71,64,,71,68,20,20,4,6,1.1,1
2024-01-02T1000,2488A,111.9975,27.725,娄底市,市监测站,细颗粒物(PM2.5),124,98,115,94,88,60,,70,65,23,21,7,7,0.7,0.6
2024-01-02T1000,2489A,112.0194,27.7314,娄底市,市委党校,细颗粒物(PM2.5),115,106,114,87,84,53,,66,63,36,33,4,4,0.9,0.7
2024-01-02T1000,2490A,111.9561,27.7569,娄底市,涟钢,细颗粒物(PM2.5),128,109,120,97,86,45,,59,54,31,26,2,5,1.5,1.3
2024-01-02T1000,2491A,111.9892,27.7044,娄底市,市政府,细颗粒物(PM2.5),127,102,117,96,90,58,,70,66,37,30,5,7,0.7,0.5
2024-01-02T1000,1893A,105.4324,28.9634,泸州市,九狮山,细颗粒物(PM2.5),152,137,112,116,99,14,,20,16,23,22,6,5,0.8,0.6
2024-01-02T1000,1894A,105.4427,28.9063,泸州市,小市上码头,细颗粒物(PM2.5),150,135,114,115,92,13,,32,26,32,26,4,2,1.1,0.9
2024-01-02T1000,1895A,105.4241,28.8573,泸州市,兰田宪桥,细颗粒物(PM2.5),119,108,105,90,86,10,,29,24,31,21,4,4,,1
2024-01-02T1000,1896A,105.4379,28.8833,泸州市,市环监站,细颗粒物(PM2.5),128,113,102,97,91,11,,37,30,32,23,7,5,1.0,0.8
2024-01-02T1000,3490A,105.3617,28.7703,泸州市,纳溪区环保局,细颗粒物(PM2.5),134,111,96,102,83,7,,28,20,34,27,4,3,1.3,1
2024-01-02T1000,2183A,111.1406,37.5211,吕梁市,环保局,颗粒物(PM10),72,93,95,43,46,8,,2,2,44,52,5,8,0.9,0.7
2024-01-02T1000,2185A,111.1297,37.5136,吕梁市,自来水公司,颗粒物(PM10),77,103,99,55,55,16,,7,7,35,46,11,10,0.8,0.7
2024-01-02T1000,2867A,111.1283,37.51,吕梁市,马茂庄小学,细颗粒物(PM2.5),80,106,106,59,54,11,,3,3,35,49,5,7,0.9,0.8
2024-01-02T1000,1812A,112.3931,34.6516,洛阳市,市委党校,,,,154,,118,,,3,2,50,45,27,9,,1.4
2024-01-02T1000,1814A,112.4657,34.6871,洛阳市,豫西宾馆,细颗粒物(PM2.5),115,171,172,87,104,10,,6,6,54,48,23,9,1.7,1.4
2024-01-02T1000,1815A,112.494,34.6886,洛阳市,河南林校,细颗粒物(PM2.5),130,163,151,99,108,6,,3,3,59,48,14,9,1.6,1.2
2024-01-02T1000,1816A,112.3844,34.623,洛阳市,开发区管委会,,,124,124,75,92,12,,12,12,55,45,,3,1.3,1
2024-01-02T1000,1817A,112.4267,34.6258,洛阳市,市委新办公区,细颗粒物(PM2.5),147,142,143,112,126,14,,6,6,48,40,11,6,1.8,1.3
2024-01-02T1000,3340A,112.6005,34.6326,洛阳市,伊滨,细颗粒物(PM2.5),185,215,207,139,151,6,,2,2,46,44,7,5,1.9,1.5
2024-01-02T1000,3341A,112.4951,34.6332,洛阳市,中移产业园,细颗粒物(PM2.5),169,165,150,128,125,8,,5,5,48,43,12,8,2.1,1.4
2024-01-02T1000,3593A,112.5736,34.8993,洛阳市,吉利监测站,细颗粒物(PM2.5),84,80,112,62,88,30,,15,15,28,44,7,6,1.0,1
2024-01-02T1000,3635A,112.3677,34.662,洛阳市,河科大西苑校区,细颗粒物(PM2.5),172,214,161,130,113,6,,4,4,59,47,21,9,1.2,1
2024-01-02T1000,3636A,112.4388,34.6781,洛阳市,英才小学,细颗粒物(PM2.5),109,144,157,82,110,9,,4,4,37,39,17,8,1.6,1.3
2024-01-02T1000,2399A,114.051,33.5699,漯河市,三五一五工厂,细颗粒物(PM2.5),206,203,194,156,161,11,,28,18,58,40,4,5,1.3,1.2
2024-01-02T1000,2400A,114.0055,33.5698,漯河市,漯河大学,细颗粒物(PM2.5),182,178,184,137,151,27,,33,29,50,41,8,7,1.1,1.1
2024-01-02T1000,2401A,114.0138,33.5828,漯河市,市水利局,细颗粒物(PM2.5),178,171,194,134,152,39,,38,32,38,36,9,8,1.3,1.3
2024-01-02T1000,2402A,114.0261,33.5698,漯河市,市广电局,细颗粒物(PM2.5),159,166,190,121,143,48,,28,23,38,42,4,4,1.0,1.2
2024-01-02T1000,3478A,113.9749,33.5664,漯河市,市图书馆,细颗粒物(PM2.5),195,186,198,146,158,34,,42,36,36,31,7,7,1.0,1.1
2024-01-02T1000,3479A,114.0967,33.5906,漯河市,召陵区卫健委,细颗粒物(PM2.5),212,235,208,162,158,9,,32,19,61,36,7,6,1.2,1.1
2024-01-02T1000,1798A,118.5092,31.6837,马鞍山市,湖东路四小,,,0,136,,97,,,,,,44,,8,,1
2024-01-02T1000,1799A,118.5024,31.6449,马鞍山市,开发区,细颗粒物(PM2.5),144,165,142,110,106,30,,34,30,47,39,12,10,0.7,0.7
2024-01-02T1000,1800A,118.5228,31.7231,马鞍山市,慈湖,细颗粒物(PM2.5),153,140,131,117,104,19,,15,11,60,42,7,6,1.5,1.4
2024-01-02T1000,1802A,118.6245,31.7241,马鞍山市,濮塘,细颗粒物(PM2.5),124,152,127,94,77,21,,26,22,41,24,5,5,1.0,0.9
2024-01-02T1000,3633A,118.4918,31.6809,马鞍山市,雨山,细颗粒物(PM2.5),145,155,145,111,100,38,,37,30,42,34,12,9,1.1,1
2024-01-02T1000,1686A,111.0286,21.4688,茂名市,电白南海,颗粒物(PM10),63,75,74,44,39,102,,119,109,18,14,9,7,0.5,0.5
2024-01-02T1000,1687A,110.9294,21.6533,茂名市,茂石化七小,细颗粒物(PM2.5),67,75,71,48,45,99,,108,102,15,12,11,10,0.8,0.7
2024-01-02T1000,1688A,110.9107,21.6687,茂名市,健康路,颗粒物(PM10),62,73,68,34,38,97,,110,103,10,7,7,6,0.7,0.6
2024-01-02T1000,1689A,110.8592,21.6828,茂名市,高岭,颗粒物(PM10),68,85,75,44,43,99,,110,104,26,20,21,15,0.7,0.6
2024-01-02T1000,3450A,111.01,21.5165,茂名市,电白水东,细颗粒物(PM2.5),62,63,68,44,36,101,,115,108,15,13,6,5,0.8,0.7
2024-01-02T1000,2539A,104.0308,30.0478,眉山市,黑龙滩水库,"颗粒物(PM10),细颗粒物(PM2.5)",54,57,126,38,82,7,,30,21,6,15,5,5,0.7,0.8
2024-01-02T1000,2540A,103.8416,30.0874,眉山市,气象局,细颗粒物(PM2.5),58,46,112,41,109,7,,9,7,25,32,5,6,1.3,1.1
2024-01-02T1000,3137A,103.8578,30.0744,眉山市,市委党校,颗粒物(PM10),53,56,121,36,105,7,,9,6,25,39,8,7,1.2,0.9
2024-01-02T1000,3148A,103.8291,30.0564,眉山市,区人社局,细颗粒物(PM2.5),67,,107,48,113,5,,6,4,32,42,11,9,1.2,0.9
2024-01-02T1000,1690A,116.1231,24.3284,梅州市,梅江月梅,细颗粒物(PM2.5),79,70,62,58,55,51,,40,40,21,24,9,9,0.6,0.6
2024-01-02T1000,1691A,116.0797,24.2719,梅州市,梅县新城,细颗粒物(PM2.5),84,86,73,62,63,52,,53,45,26,30,7,6,0.9,0.9
2024-01-02T1000,1692A,116.1248,24.2654,梅州市,环境监控中心,细颗粒物(PM2.5),92,88,71,68,59,52,,60,52,24,29,7,10,0.8,0.7
2024-01-02T1000,3315A,116.1233,24.2991,梅州市,梅龙,细颗粒物(PM2.5),70,63,59,51,54,60,,74,67,15,18,6,7,0.7,0.8
2024-01-02T1000,1878A,104.7778,31.4741,绵阳市,富乐山,细颗粒物(PM2.5),118,109,124,89,105,4,,2,2,30,37,7,7,1.2,1.1
2024-01-02T1000,1879A,104.7563,31.4535,绵阳市,市人大,细颗粒物(PM2.5),122,139,144,92,115,4,,2,2,26,43,8,9,1.4,1.2
2024-01-02T1000,1880A,104.6697,31.4668,绵阳市,高新区自来水公司,细颗粒物(PM2.5),102,127,156,76,106,4,,2,2,24,35,8,8,1.2,1
2024-01-02T1000,1881A,104.7287,31.5075,绵阳市,三水厂,细颗粒物(PM2.5),109,105,148,82,114,5,,4,4,24,40,5,6,1.4,1.3
2024-01-02T1000,3491A,104.69,31.5322,绵阳市,西科大附属小学,细颗粒物(PM2.5),79,84,139,58,107,4,,2,2,20,36,1,3,1.5,1.4
2024-01-02T1000,3492A,104.5648,31.5343,绵阳市,安州区旅游局,细颗粒物(PM2.5),93,90,145,69,119,6,,4,4,24,37,9,9,1.2,1.1
2024-01-02T1000,1784A,129.61,44.561,牡丹江市,环保大楼,细颗粒物(PM2.5),122,119,77,92,58,25,,20,18,46,41,19,14,1.5,0.9
2024-01-02T1000,1785A,129.6115,44.5782,牡丹江市,文化广场,细颗粒物(PM2.5),159,,81,121,73,23,,14,13,52,49,25,18,1.7,1.3
2024-01-02T1000,1786A,129.5904,44.5963,牡丹江市,第一医院,细颗粒物(PM2.5),138,106,98,105,83,13,,6,6,62,55,20,17,1.6,1.3
2024-01-02T1000,1787A,129.6364,44.6075,牡丹江市,机车工厂,细颗粒物(PM2.5),190,185,91,143,77,,,8,8,80,57,25,19,2.2,1.2
2024-01-02T1000,1788A,129.6386,44.5462,牡丹江市,第一中学,,,,73,,60,,,20,16,,43,17,12,1.5,1
2024-01-02T1000,2531A,105.0703,29.61,内江市,市监测站,细颗粒物(PM2.5),132,,120,100,128,5,,11,9,42,39,9,8,1.5,1.3
2024-01-02T1000,2532A,105.0717,29.5947,内江市,东兴区政府,细颗粒物(PM2.5),113,95,124,85,119,5,,12,9,38,37,9,8,1.0,0.8
2024-01-02T1000,2533A,105.0653,29.5817,内江市,内江二中,细颗粒物(PM2.5),113,118,129,85,130,13,,15,13,44,38,8,7,1.2,1.1
2024-01-02T1000,2534A,105.0406,29.5822,内江市,内江日报社,细颗粒物(PM2.5),115,96,124,87,121,9,,14,11,42,35,14,11,1.1,1
2024-01-02T1000,1290A,115.8931,28.6843,南昌市,省外办,细颗粒物(PM2.5),195,202,183,146,126,38,,53,47,44,36,13,12,1.6,1.3
2024-01-02T1000,1291A,115.8886,28.7003,南昌市,省林业公司,细颗粒物(PM2.5),178,185,169,134,120,38,,39,36,46,47,16,13,1.4,1.2
2024-01-02T1000,1292A,115.8126,28.7442,南昌市,林科所,细颗粒物(PM2.5),168,171,140,127,97,54,,49,44,55,55,13,10,1.5,1.3
2024-01-02T1000,1294A,115.8518,28.687,南昌市,建工学校,细颗粒物(PM2.5),160,183,163,122,99,36,,55,48,44,30,19,15,1.6,1.2
2024-01-02T1000,1295A,115.8921,28.6424,南昌市,象湖,细颗粒物(PM2.5),188,159,140,141,118,36,,53,47,42,32,12,11,1.4,1.1
2024-01-02T1000,1296A,115.7423,28.7996,南昌市,武术学校,"颗粒物(PM10),细颗粒物(PM2.5)",70,90,81,51,51,29,,17,17,14,15,7,10,0.9,0.8
2024-01-02T1000,1298A,115.9314,28.6842,南昌市,省站,细颗粒物(PM2.5),185,195,172,139,119,37,,52,47,37,29,14,12,1.2,1
2024-01-02T1000,3046A,115.9084,28.6062,南昌市,机电学校,细颗粒物(PM2.5),180,200,175,136,118,42,,56,49,45,32,12,11,1.1,0.9
2024-01-02T1000,3690A,115.9721,28.7031,南昌市,外国语学校,细颗粒物(PM2.5),193,215,176,145,112,,,47,42,33,34,,9,1.1,1
2024-01-02T1000,1905A,106.056,30.8064,南充市,西山风景区,,,,,44,64,1,,0,0,17,20,6,4,1.1,1.1
2024-01-02T1000,1906A,106.0789,30.8023,南充市,南充市委,细颗粒物(PM2.5),77,66,74,56,70,4,,3,3,20,22,20,7,1.1,1.1
2024-01-02T1000,1907A,106.1031,30.8217,南充市,南充炼油厂,细颗粒物(PM2.5),103,85,91,77,82,0,,0,0,20,21,14,6,1.1,1
2024-01-02T1000,1908A,106.1064,30.7856,南充市,高坪区监测站,细颗粒物(PM2.5),90,77,91,67,79,4,,3,3,22,24,25,9,0.9,0.9
2024-01-02T1000,1909A,106.0642,30.7636,南充市,嘉陵区环保局,,,89,96,73,75,2,,1,1,18,21,,8,1.1,1
2024-01-02T1000,1910A,106.1087,30.8388,南充市,市环境监测站,细颗粒物(PM2.5),107,83,92,80,78,4,,3,3,16,19,11,6,1.0,1.1
2024-01-02T1000,1151A,118.8086,32.1065,南京市,迈皋桥,颗粒物(PM10),95,140,110,70,62,14,,4,3,48,40,6,5,0.9,0.7
2024-01-02T1000,1152A,118.7538,32.0551,南京市,草场门,细颗粒物(PM2.5),94,129,107,70,62,21,,12,8,62,50,5,4,0.9,0.7
2024-01-02T1000,1153A,118.7794,32.0745,南京市,山西路,细颗粒物(PM2.5),119,157,123,90,75,20,,14,10,50,34,9,6,1.1,1.1
2024-01-02T1000,1154A,118.7752,32.0023,南京市,中华门,,,,112,,68,,,4,4,60,56,10,9,1.4,1.2
2024-01-02T1000,1155A,118.8109,32.0309,南京市,瑞金路,细颗粒物(PM2.5),94,127,114,70,66,25,,9,9,52,45,18,11,1.1,1
2024-01-02T1000,1156A,118.7997,32.0754,南京市,玄武湖,细颗粒物(PM2.5),104,130,107,78,62,14,,7,5,57,42,9,7,1.1,0.9
2024-01-02T1000,1157A,118.6414,32.0931,南京市,浦口,细颗粒物(PM2.5),124,155,129,94,75,9,,16,10,70,50,6,5,1.0,0.8
2024-01-02T1000,1158A,118.7356,31.9996,南京市,奥体中心,细颗粒物(PM2.5),110,155,120,83,71,24,,9,9,68,60,8,6,1.2,1
2024-01-02T1000,1159A,118.9125,32.1028,南京市,仙林大学城,细颗粒物(PM2.5),89,107,104,66,65,23,,10,8,45,35,6,4,1.0,0.8
2024-01-02T1000,3422A,118.8436,31.9198,南京市,江宁彩虹桥,细颗粒物(PM2.5),104,147,127,78,73,22,,11,11,66,52,10,7,1.2,1
2024-01-02T1000,3423A,119.0138,31.6494,南京市,溧水永阳,细颗粒物(PM2.5),155,141,126,118,103,11,,8,4,58,42,4,4,1.2,1.1
2024-01-02T1000,3424A,118.879,31.3302,南京市,高淳老职中,细颗粒物(PM2.5),168,155,151,127,111,30,,31,26,54,43,10,8,1.1,0.9
2024-01-02T1000,3427A,118.8554,32.3578,南京市,六合雄州,细颗粒物(PM2.5),88,111,98,65,49,17,,12,12,42,39,7,4,0.9,0.8
2024-01-02T1000,1401A,108.3103,22.7881,南宁市,二十一中,颗粒物(PM10),55,59,59,38,37,93,,95,94,16,14,6,9,1.0,1
2024-01-02T1000,1402A,108.3141,22.8528,南宁市,北湖,颗粒物(PM10),55,59,60,35,36,89,,92,90,13,12,5,7,0.8,0.8
2024-01-02T1000,1403A,108.3206,22.8225,南宁市,市监测站,颗粒物(PM10),55,60,57,36,33,89,,96,94,19,16,6,9,1.0,1
2024-01-02T1000,1404A,108.3829,22.8037,南宁市,大自然花园,"颗粒物(PM10),细颗粒物(PM2.5)",57,64,58,40,38,84,,87,86,12,12,7,9,0.8,0.8
2024-01-02T1000,1405A,108.4394,22.7904,南宁市,仙葫,颗粒物(PM10),60,69,67,42,46,87,,84,84,14,15,6,7,0.8,0.8
2024-01-02T1000,1406A,108.2397,22.8467,南宁市,区农职院,颗粒物(PM10),57,64,61,38,39,87,,88,86,22,20,9,11,1.2,1.2
2024-01-02T1000,1407A,108.3275,22.735,南宁市,英华嘉园,颗粒物(PM10),60,70,62,38,37,74,,74,73,28,26,6,8,0.9,0.9
2024-01-02T1000,1408A,108.2257,22.7757,南宁市,沙井镇街道办,颗粒物(PM10),62,73,69,42,38,79,,71,71,21,27,5,7,0.9,0.8
2024-01-02T1000,3401A,108.4834,22.7618,南宁市,红星社区,细颗粒物(PM2.5),63,59,65,45,42,92,,75,75,10,14,8,9,0.8,0.8
2024-01-02T1000,2331A,118.0966,26.6761,南平市,茫荡山,,,,,,,,,,,,,,,,
2024-01-02T1000,2332A,118.1681,26.6369,南平市,南平市监测站,细颗粒物(PM2.5),93,84,74,69,58,33,,38,31,21,20,4,4,1.1,1
2024-01-02T1000,2333A,118.1825,26.6489,南平市,南平铝业有限公司,细颗粒物(PM2.5),88,79,65,65,52,26,,26,23,24,27,5,5,1.1,1
2024-01-02T1000,2334A,118.1756,26.6272,南平市,南平七中,细颗粒物(PM2.5),78,75,62,57,51,30,,41,35,24,17,6,6,1.0,0.8
2024-01-02T1000,1168A,120.9098,31.9663,南通市,狼山街道,细颗粒物(PM2.5),60,67,65,43,39,49,,22,22,31,34,8,7,0.6,0.4
2024-01-02T1000,1169A,120.86,32.0005,南通市,虹桥,颗粒物(PM10),60,70,69,41,40,52,,35,33,31,38,4,4,0.8,0.6
2024-01-02T1000,1170A,120.87,32.02,南通市,城中,颗粒物(PM10),68,86,71,39,36,45,,28,26,34,38,6,6,0.8,0.7
2024-01-02T1000,1171A,120.94,31.93,南通市,星湖花园,,,75,68,43,37,45,,25,25,,40,5,5,0.6,0.3
2024-01-02T1000,1172A,120.81,32.0417,南通市,紫琅学院,颗粒物(PM10),64,78,72,42,36,52,,23,22,28,41,6,6,0.5,0.4
2024-01-02T1000,3291A,121.067,32.062,南通市,通州监测站,颗粒物(PM10),68,85,65,39,33,54,,41,41,26,25,7,7,0.7,0.6
2024-01-02T1000,3432A,120.9348,31.9883,南通市,环境教育馆,细颗粒物(PM2.5),59,63,62,42,38,29,,8,8,50,46,6,6,0.7,0.6
2024-01-02T1000,2404A,112.5224,33.0122,南阳市,瓦房庄,细颗粒物(PM2.5),124,105,119,94,101,17,,49,35,47,39,6,6,1.0,1
2024-01-02T1000,2405A,112.5003,32.9735,南阳市,汉画馆,细颗粒物(PM2.5),122,113,136,92,99,27,,38,29,33,38,8,8,1.0,1
2024-01-02T1000,2406A,112.5573,33.027,南阳市,气象站,细颗粒物(PM2.5),132,112,125,100,101,18,,50,36,43,34,5,5,1.1,1
2024-01-02T1000,2407A,112.5481,32.9689,南阳市,理工学院,细颗粒物(PM2.5),115,105,123,87,96,30,,45,37,31,41,5,5,0.6,0.7
2024-01-02T1000,4008A,112.5234,32.9922,南阳市,卧龙区政府,细颗粒物(PM2.5),123,103,127,93,99,22,,44,34,43,43,6,6,0.8,0.9
2024-01-02T1000,1234A,121.8358,29.911,宁波市,区环保大楼,颗粒物(PM10),71,91,88,47,48,20,,23,21,71,42,13,5,1.3,0.9
2024-01-02T1000,1235A,121.56,29.82,宁波市,万里学院,细颗粒物(PM2.5),103,128,118,77,66,16,,8,8,45,44,6,5,1.1,0.9
2024-01-02T1000,1236A,121.713,29.9572,宁波市,龙赛医院,颗粒物(PM10),98,145,106,69,53,15,,12,12,64,54,14,8,1.2,1
2024-01-02T1000,1239A,121.633,29.7733,宁波市,钱湖水厂,细颗粒物(PM2.5),87,92,98,64,61,18,,22,18,31,25,7,8,0.8,0.7
2024-01-02T1000,1240A,121.5856,29.8635,宁波市,太古小学,细颗粒物(PM2.5),94,111,99,70,62,22,,7,7,52,54,7,7,1.2,0.9
2024-01-02T1000,1241A,121.524,29.8674,宁波市,市环境监测中心,细颗粒物(PM2.5),94,122,111,70,60,23,,18,14,57,48,11,10,1.1,0.9
2024-01-02T1000,2871A,121.6147,29.9017,宁波市,万里国际学校,细颗粒物(PM2.5),118,120,109,89,74,,,4,4,53,54,8,7,1.3,1
2024-01-02T1000,3710A,121.5594,29.8975,宁波市,白沙活动中心,细颗粒物(PM2.5),105,109,92,79,63,23,,10,7,55,51,8,7,1.2,1
2024-01-02T1000,2339A,119.5001,26.6946,宁德市,金涵水库,,,,,,,,,,,,,,,,
2024-01-02T1000,2341A,119.5388,26.6612,宁德市,宁德市监测站,细颗粒物(PM2.5),87,84,82,64,73,44,,56,50,31,19,5,6,0.9,0.8
2024-01-02T1000,3209A,119.5231,26.6562,宁德市,宁德一中,细颗粒物(PM2.5),77,76,82,56,68,59,,57,51,24,19,3,4,0.9,0.8
2024-01-02T1000,2618A,98.8601,25.8567,怒江州,州监测站,,30,30,35,19,21,21,,20,20,17,19,9,9,0.4,0.4
2024-01-02T1000,2619A,98.8546,25.8417,怒江州,泸水一中,,25,25,31,17,23,9,,9,8,21,21,7,7,0.5,0.5
2024-01-02T1000,1888A,101.6891,26.571,攀枝花市,弄弄坪,颗粒物(PM10),61,72,69,40,39,14,,5,5,44,44,56,46,3.6,2.5
2024-01-02T1000,1889A,101.5769,26.5928,攀枝花市,河门口,颗粒物(PM10),51,51,44,29,25,24,,22,21,26,26,11,17,1.1,1.4
2024-01-02T1000,1890A,101.7169,26.585,攀枝花市,炳草岗,颗粒物(PM10),71,91,59,39,33,8,,6,6,51,47,25,24,3.7,1.8
2024-01-02T1000,1891A,101.7369,26.5008,攀枝花市,仁和,颗粒物(PM10),51,52,39,24,24,17,,30,24,34,27,8,19,1.3,1.4
2024-01-02T1000,2835A,101.7227,26.567,攀枝花市,四十中小,颗粒物(PM10),63,75,57,37,36,9,,11,8,51,48,30,24,4.3,2.3
2024-01-02T1000,1604A,122.0303,41.1489,盘锦市,开发区,细颗粒物(PM2.5),122,,67,92,66,17,,16,14,56,47,12,13,2.0,1.5
2024-01-02T1000,1605A,122.0485,41.0883,盘锦市,兴隆台,细颗粒物(PM2.5),130,,74,99,67,12,,20,16,56,44,8,11,2.3,1.6
2024-01-02T1000,1606A,121.8297,41.1028,盘锦市,新生街道,细颗粒物(PM2.5),79,,54,58,51,17,,9,9,46,44,22,19,1.6,1.4
2024-01-02T1000,1832A,113.3257,33.742,平顶山市,新华旅馆,细颗粒物(PM2.5),153,214,179,117,114,19,,47,42,57,40,11,8,1.2,1
2024-01-02T1000,1833A,113.2919,33.737,平顶山市,规划设计院,细颗粒物(PM2.5),179,215,183,135,132,10,,28,25,62,48,14,9,1.4,1.1
2024-01-02T1000,1834A,113.182,33.774,平顶山市,平顶山工学院,细颗粒物(PM2.5),149,189,179,114,121,18,,25,21,45,36,7,6,1.2,1
2024-01-02T1000,3204A,113.3025,33.73,平顶山市,规划局,细颗粒物(PM2.5),182,212,193,137,138,11,,30,26,49,38,16,10,1.6,1.3
2024-01-02T1000,3594A,112.8867,33.9116,平顶山市,石龙区,细颗粒物(PM2.5),94,107,159,70,108,56,,23,23,31,63,10,9,0.7,1
2024-01-02T1000,2656A,106.6692,35.5461,平凉市,聚贤嘉苑,颗粒物(PM10),64,77,45,31,22,31,,45,42,41,30,20,9,1.1,0.6
2024-01-02T1000,2657A,106.7021,35.5307,平凉市,博物馆,颗粒物(PM10),60,69,60,36,29,26,,40,36,50,38,40,16,0.8,0.5
2024-01-02T1000,2347A,114.0997,27.5002,萍乡市,武功山,细颗粒物(PM2.5),132,130,70,100,54,50,,34,33,21,13,8,5,1.0,0.6
2024-01-02T1000,2348A,113.8385,27.6434,萍乡市,中医院,细颗粒物(PM2.5),147,140,116,112,82,47,,72,65,40,24,13,24,1.5,0.9
2024-01-02T1000,2349A,113.8493,27.6253,萍乡市,市政府车库,细颗粒物(PM2.5),153,126,111,117,82,56,,70,67,38,26,16,21,1.1,1
2024-01-02T1000,2350A,113.8676,27.6435,萍乡市,市环保局,细颗粒物(PM2.5),124,130,122,94,80,58,,73,69,36,28,12,21,1.3,1
2024-01-02T1000,2351A,113.866,27.6198,萍乡市,安源区政府,细颗粒物(PM2.5),142,131,124,108,89,63,,59,58,30,37,17,25,0.9,1.1
2024-01-02T1000,2319A,119.0141,25.4325,莆田市,荔城区仓后路,细颗粒物(PM2.5),73,78,73,53,58,75,,85,82,25,20,7,7,1.0,0.8
2024-01-02T1000,2320A,119.0015,25.4553,莆田市,莆田市监测站,颗粒物(PM10),59,68,71,41,55,93,,90,90,14,19,7,7,0.8,0.8
2024-01-02T1000,2321A,119.1119,25.4561,莆田市,涵江区六中,细颗粒物(PM2.5),67,82,72,48,53,82,,79,74,26,24,8,8,1.0,0.9
2024-01-02T1000,2322A,119.1013,25.3215,莆田市,秀屿区政府,细颗粒物(PM2.5),73,80,69,53,58,76,,73,66,25,23,9,9,0.8,0.8
2024-01-02T1000,2323A,118.981,25.4792,莆田市,东圳水库,,,,,,,,,,,,,,,,
2024-01-02T1000,2392A,115.0312,35.7636,濮阳市,环保局,细颗粒物(PM2.5),169,157,126,128,102,13,,24,18,48,32,4,3,1.4,1
2024-01-02T1000,2394A,115.0574,35.7609,濮阳市,油田运输公司,细颗粒物(PM2.5),180,191,145,136,108,18,,24,20,47,38,6,6,1.3,1
2024-01-02T1000,2395A,115.0866,35.7754,濮阳市,油田物探公司,细颗粒物(PM2.5),193,185,149,145,116,16,,25,19,46,39,,5,1.3,1
2024-01-02T1000,3021A,115,35.7668,濮阳市,濮水河管理处,细颗粒物(PM2.5),178,154,125,134,102,14,,25,18,47,27,2,2,1.4,1
2024-01-02T1000,2601A,100.98,22.7633,普洱市,市环保局,颗粒物(PM10),52,53,29,28,24,14,,13,12,17,12,6,6,0.7,0.5
2024-01-02T1000,2602A,100.9817,22.8322,普洱市,普洱第二中学,,47,47,32,13,13,13,,6,6,21,19,5,5,0.8,0.5
2024-01-02T1000,2262A,131.0518,45.8751,七台河市,新一中,细颗粒物(PM2.5),92,76,53,68,45,59,,59,53,30,23,12,15,0.7,0.7
2024-01-02T1000,3345A,131.0577,45.7879,七台河市,中波台,细颗粒物(PM2.5),105,88,64,79,52,44,,46,43,36,30,16,13,1.2,1.1
2024-01-02T1000,3637A,131.0176,45.7761,七台河市,人民广场,细颗粒物(PM2.5),160,127,78,122,64,40,,50,46,45,35,14,10,1.1,0.8
2024-01-02T1000,3684A,130.8781,45.8222,七台河市,新建矿广场,细颗粒物(PM2.5),109,85,85,82,61,55,,38,38,24,44,15,25,0.7,0.9
2024-01-02T1000,1779A,123.9305,47.3636,齐齐哈尔市,安居小区,细颗粒物(PM2.5),94,82,63,70,47,19,,24,18,40,30,11,8,1.0,0.8
2024-01-02T1000,1780A,123.9488,47.3386,齐齐哈尔市,中心广场,细颗粒物(PM2.5),110,113,64,83,53,13,,28,19,49,29,8,11,1.8,1
2024-01-02T1000,1781A,123.9483,47.3227,齐齐哈尔市,农牧车辆厂,细颗粒物(PM2.5),104,132,63,78,42,13,,20,11,50,31,16,14,1.8,0.9
2024-01-02T1000,1783A,123.945,47.2988,齐齐哈尔市,市环境监测站,,,,71,,52,18,,16,12,,30,,8,1.1,0.7
2024-01-02T1000,3662A,123.6333,47.2075,齐齐哈尔市,富区青少年活动中心,细颗粒物(PM2.5),77,78,81,56,49,33,,24,24,28,28,19,19,1.1,1.3
2024-01-02T1000,2591A,107.9783,26.5747,黔东南苗族侗族自治州,市环境监测站,,29,23,36,20,32,11,,38,29,38,19,8,5,1.1,0.8
2024-01-02T1000,2881A,107.8908,26.5311,黔东南苗族侗族自治州,凯里学院,,20,17,35,14,28,21,,47,39,30,17,4,3,0.8,0.7
2024-01-02T1000,2593A,107.5228,26.2403,黔南布依族苗族自治州,小围寨,,10,7,7,7,6,32,,35,32,10,9,5,4,0.7,0.8
2024-01-02T1000,3538A,107.5175,26.2978,黔南布依族苗族自治州,沙坝,,20,,10,14,10,24,,34,30,14,8,5,4,0.7,0.6
2024-01-02T1000,2589A,104.9022,25.0925,黔西南布依族苗族自治州,场坝街,,49,47,39,34,30,14,,18,17,25,15,8,3,0.7,0.4
2024-01-02T1000,2590A,104.8811,25.0992,黔西南布依族苗族自治州,坪东大道,,46,37,41,32,32,24,,14,14,16,18,7,3,0.4,0.3
2024-01-02T1000,2502A,108.6236,21.9667,钦州市,市环保站,颗粒物(PM10),68,85,71,48,39,92,,87,87,21,20,11,10,0.9,0.8
2024-01-02T1000,2503A,108.6549,21.9481,钦州市,沙埠小学,细颗粒物(PM2.5),67,79,71,48,44,91,,80,80,20,20,14,14,1.1,1
2024-01-02T1000,2504A,108.5989,21.7431,钦州市,港区一小,颗粒物(PM10),68,86,83,34,41,76,,86,82,27,19,9,10,1.1,1
2024-01-02T1000,3404A,108.5959,21.9633,钦州市,北职校,细颗粒物(PM2.5),75,98,72,55,49,88,,86,86,24,21,14,14,1.0,0.9
2024-01-02T1000,1042A,119.5134,39.8207,秦皇岛市,北戴河环保局,细颗粒物(PM2.5),145,138,140,111,104,24,,10,10,50,60,10,12,2.4,2
