timepoint,stationcode,longitude,latitude,area,positionname,primarypollutant,aqi,pm10,pm10_24h,pm2_5,pm2_5_24h,o3,o3_24h,o3_8h,o3_8h_24h,no2,no2_24h,so2,so2_24h,co,co_24h
2025-11-12T0500,2566A,102.1879,31.914,阿坝藏族羌族自治州,州农科所,,,,,,,,,,,,,,,,
2025-11-12T0500,2568A,102.2502,31.8896,阿坝藏族羌族自治州,马师校,,13,13,20,9,15,17,,,,11,20,6,7,0.7,0.8
2025-11-12T0500,3994A,102.2165,31.9024,阿坝藏族羌族自治州,马尔康中学西区,,22,,14,15,13,25,,,,10,17,5,5,0.4,0.5
2025-11-12T0500,2695A,80.292,41.1694,阿克苏地区,电视台,颗粒物(PM10),129,208,229,76,72,14,,,,52,49,6,8,1.5,1.4
2025-11-12T0500,2696A,80.2613,41.1551,阿克苏地区,艺术中心,颗粒物(PM10),125,199,211,73,77,23,,,,45,47,3,5,0.8,0.9
2025-11-12T0500,2204A,105.6467,38.8363,阿拉善盟,西城区西花园,,,,,,,,,,,,,,,,
2025-11-12T0500,2205A,105.6985,38.8411,阿拉善盟,蒙二幼,,50,50,46,10,19,90,,,,6,12,8,9,0.6,0.7
2025-11-12T0500,2206A,105.724,38.8516,阿拉善盟,环保局新楼,,38,38,37,11,15,88,,,,4,7,10,9,0.7,0.7
2025-11-12T0500,2708A,88.1264,47.8517,阿勒泰地区,市站,,25,,7,3,4,78,,,,2,6,2,3,0.2,0.3
2025-11-12T0500,2630A,80.1161,32.5,阿里地区,阿里监测站,,16,6,3,3,3,51,,,,12,8,9,7,0.4,0.4
2025-11-12T0500,3192A,80.0903,32.5028,阿里地区,阿里藏医院,,20,13,10,3,5,64,,,,10,6,12,8,0.6,0.5
2025-11-12T0500,2642A,109.0318,32.6537,安康市,香溪洞,,,,,,,,,,,,,,,,
2025-11-12T0500,2644A,109.0072,32.6975,安康市,汉滨区检察院,,43,43,54,22,24,12,,,,24,18,4,5,0.4,0.4
2025-11-12T0500,4054A,109.0325,32.6913,安康市,市邮政管理局,,46,46,61,21,22,15,,,,17,15,3,4,0.4,0.6
2025-11-12T0500,2291A,117.0809,30.5177,安庆市,环科院,,41,41,42,27,19,46,,,,19,14,6,5,0.4,0.4
2025-11-12T0500,2292A,117.0331,30.5119,安庆市,马山宾馆,,29,29,38,18,19,50,,,,20,19,5,5,0.2,0.3
2025-11-12T0500,2294A,116.9896,30.6145,安庆市,安庆大学,,38,38,40,22,18,41,,,,19,16,7,7,0.4,0.5
2025-11-12T0500,3173A,117.0598,30.5351,安庆市,市人大,,35,35,41,19,20,50,,,,19,19,5,6,0.4,0.5
2025-11-12T0500,3122A,105.9606,26.2611,安顺市,伍家关,,48,48,69,13,9,46,,,,6,8,10,10,0.3,0.5
2025-11-12T0500,3123A,105.9408,26.2431,安顺市,凤凰山,,33,24,16,23,13,40,,,,7,9,12,12,0.5,0.5
2025-11-12T0500,3124A,105.9439,26.2564,安顺市,金钟山,,36,,14,25,15,44,,,,6,7,11,12,0.6,0.6
2025-11-12T0500,3125A,105.8983,26.2481,安顺市,娄家坡,,32,25,17,22,14,39,,,,6,9,8,13,0.6,0.6
2025-11-12T0500,1818A,114.4839,36.0621,安阳市,棉研所,,,,,,,,,,,,,,,,
2025-11-12T0500,1819A,114.3551,36.1017,安阳市,红庙街,细颗粒物(PM2.5),122,108,112,92,82,20,,,,29,42,4,8,0.6,0.9
2025-11-12T0500,1820A,114.361,36.0681,安阳市,银杏小区,细颗粒物(PM2.5),122,103,110,92,85,23,,,,27,42,5,8,0.6,0.8
2025-11-12T0500,3141A,114.3922,36.0878,安阳市,信访局,细颗粒物(PM2.5),100,96,106,75,79,45,,,,19,35,3,7,0.5,0.7
2025-11-12T0500,3669A,114.4705,36.0637,安阳市,左辅环卫站,细颗粒物(PM2.5),117,138,152,88,82,17,,,,48,45,2,5,0.5,0.7
2025-11-12T0500,3703A,114.2917,36.0949,安阳市,安钢职工学校,细颗粒物(PM2.5),125,112,126,95,92,9,,,,35,41,2,9,0.7,0.9
2025-11-12T0500,1748A,123.044,41.1196,鞍山市,深沟寺,细颗粒物(PM2.5),60,64,45,43,29,71,,,,18,30,10,11,0.8,0.7
2025-11-12T0500,1749A,123.011,41.0931,鞍山市,太阳城,颗粒物(PM10),52,54,43,35,27,72,,,,14,28,11,13,0.5,0.5
2025-11-12T0500,1750A,123.0485,41.1442,鞍山市,太平,颗粒物(PM10),62,74,63,38,34,72,,,,11,36,11,13,0.7,0.8
2025-11-12T0500,1751A,122.9642,41.0971,鞍山市,铁西三道街,颗粒物(PM10),66,82,77,39,41,56,,,,24,44,14,17,1.7,1.3
2025-11-12T0500,1753A,123.022,41.0821,鞍山市,明达新区,颗粒物(PM10),55,60,44,37,25,74,,,,12,27,11,12,0.6,0.7
2025-11-12T0500,1754A,123.1289,41.0228,鞍山市,千山,,,,27,,13,,,44,,,19,,4,,0.3
2025-11-12T0500,4201A,122.9446,41.0826,鞍山市,兴盛南路290号,颗粒物(PM10),59,68,81,31,43,57,,,,27,51,12,17,1.1,1.2
2025-11-12T0500,2195A,107.4212,40.761,巴彦淖尔市,附二中,颗粒物(PM10),52,53,82,23,36,71,,,,4,20,5,10,0.3,0.6
2025-11-12T0500,2196A,107.37,40.7372,巴彦淖尔市,市环保大楼,颗粒物(PM10),52,53,76,23,34,74,,,,5,22,8,10,0.4,0.6
2025-11-12T0500,1956A,86.1472,41.7538,巴音郭楞蒙古自治州,孔雀公园,颗粒物(PM10),82,113,162,44,45,11,,,,72,60,10,9,1.1,0.9
2025-11-12T0500,1957A,86.1972,41.7166,巴音郭楞蒙古自治州,棉纺厂,颗粒物(PM10),93,136,197,35,40,51,,,,28,46,5,6,0.4,0.5
2025-11-12T0500,1958A,86.2357,41.7173,巴音郭楞蒙古自治州,经济开发区,颗粒物(PM10),70,89,159,20,35,51,,,,20,33,5,7,0.7,0.8
2025-11-12T0500,2914A,106.7677,31.8794,巴中市,苏山坪,,,,,,,,,,,,,,,,
2025-11-12T0500,3181A,106.7768,31.8526,巴中市,市五中,,45,45,42,26,21,2,,,,11,13,8,8,0.5,0.6
2025-11-12T0500,3183A,106.7418,31.8654,巴中市,圣泉水务公司,,36,36,39,20,19,12,,,,11,16,9,9,0.6,0.7
2025-11-12T0500,3616A,106.7616,31.8344,巴中市,市中心医院,,,42,46,25,23,0,,,,,15,4,4,0.6,0.5
2025-11-12T0500,2235A,122.7911,45.6077,白城市,洮北区环保局,,39,34,29,27,21,36,,,,9,13,7,5,0.2,0.3
2025-11-12T0500,2236A,122.8738,45.5725,白城市,市环保局,,50,44,32,35,24,30,,,,9,15,4,3,0.3,0.3
2025-11-12T0500,2231A,126.4219,41.9171,白山市,喜丰,颗粒物(PM10),63,75,72,29,26,4,,,,29,31,12,12,0.8,0.9
2025-11-12T0500,2232A,126.4077,41.9419,白山市,环保局,细颗粒物(PM2.5),54,41,46,38,29,6,,,,24,25,9,9,0.9,1
2025-11-12T0500,2647A,104.1724,36.5446,白银市,第三小学,颗粒物(PM10),55,60,79,19,42,50,,,,24,36,8,24,0.2,0.7
2025-11-12T0500,2648A,104.1465,36.5482,白银市,动力公司,颗粒物(PM10),51,52,68,11,33,67,,,,9,23,6,20,0.4,0.8
2025-11-12T0500,2512A,106.6103,23.9011,百色市,市监测站,,20,20,14,3,6,22,,,,12,10,9,8,0.5,0.6
2025-11-12T0500,2513A,106.6538,23.8859,百色市,市中心血站,,20,20,16,3,4,10,,,,33,16,14,6,0.7,0.7
2025-11-12T0500,3406A,106.6085,23.8798,百色市,祈福高中,,16,16,19,3,6,35,,,,10,12,5,5,0.5,0.6
2025-11-12T0500,2270A,117.396,32.939,蚌埠市,工人疗养院,,,51,47,24,17,10,,,,,26,6,5,0.2,0.2
2025-11-12T0500,2271A,117.3605,32.9427,蚌埠市,百货大楼,,,42,40,25,15,6,,,,,26,8,8,0.3,0.3
2025-11-12T0500,2273A,117.4185,32.8911,蚌埠市,蚌埠学院,,39,39,41,25,19,30,,,,26,44,4,7,0.3,0.3
2025-11-12T0500,2274A,117.3533,32.9673,蚌埠市,淮上区政府,,39,39,42,23,17,23,,,,35,24,6,7,0.2,0.2
2025-11-12T0500,2275A,117.3145,32.8977,蚌埠市,高新区,,29,29,36,20,17,27,,,,24,28,5,7,0.3,0.3
2025-11-12T0500,3715A,117.3092,32.9314,蚌埠市,蚌埠田家炳中学,,43,43,47,25,17,10,,,,53,25,8,5,0.3,0.4
2025-11-12T0500,1585A,109.8756,40.6532,包头市,市环境监测站,颗粒物(PM10),85,119,93,61,37,1,,,,61,59,18,19,2.6,1.4
2025-11-12T0500,1587A,109.9991,40.5842,包头市,包头八中,颗粒物(PM10),75,100,100,42,57,26,,,,36,56,29,21,1.0,1.5
2025-11-12T0500,1588A,109.8538,40.6821,包头市,青山宾馆,细颗粒物(PM2.5),80,78,83,59,57,17,,,,45,59,9,18,0.9,1.3
2025-11-12T0500,1589A,109.8642,40.6288,包头市,惠龙物流,,,108,91,,49,17,,,,45,60,32,21,2.5,1.6
2025-11-12T0500,1590A,110.0377,40.5546,包头市,东河鸿龙湾,颗粒物(PM10),62,73,89,38,50,24,,,,40,62,29,13,1.0,1.4
2025-11-12T0500,3283A,109.9154,40.5685,包头市,滨河大厦,颗粒物(PM10),68,86,80,30,39,27,,,,36,55,40,17,1.1,1.1
2025-11-12T0500,3419A,109.9447,40.6261,包头市,包头市委党校,颗粒物(PM10),73,96,77,39,40,3,,,,64,61,21,20,2.0,1.4
2025-11-12T0500,3683A,109.8331,40.6576,包头市,昆区政府,细颗粒物(PM2.5),87,119,95,64,61,4,,,,61,63,23,24,2.1,1.6
2025-11-12T0500,1930A,107.185,34.3063,宝鸡市,庙沟村,,,,,,,,,,,,,,,,
2025-11-12T0500,1931A,107.0708,34.3017,宝鸡市,竹园沟,,50,50,76,33,38,21,,,,16,22,7,9,0.4,0.4
2025-11-12T0500,1932A,107.1906,34.3672,宝鸡市,三陆医院,细颗粒物(PM2.5),69,78,98,50,50,7,,,,36,42,8,10,0.7,0.6
2025-11-12T0500,1933A,107.1431,34.3547,宝鸡市,监测站,细颗粒物(PM2.5),64,65,90,46,51,20,,,,19,26,5,7,0.5,0.5
2025-11-12T0500,1934A,107.1186,34.3739,宝鸡市,技工学校,细颗粒物(PM2.5),68,69,96,49,45,26,,,,17,25,6,8,0.6,0.6
2025-11-12T0500,1936A,107.2058,34.3497,宝鸡市,文理学院,,,73,90,48,48,25,,,,,28,7,8,0.6,0.6
2025-11-12T0500,1937A,107.2386,34.3622,宝鸡市,三迪小学,细颗粒物(PM2.5),74,69,97,54,51,18,,,,31,42,6,8,0.7,0.7
2025-11-12T0500,4308A,107.3898,34.3601,宝鸡市,陈仓区北开路21号,细颗粒物(PM2.5),95,108,118,71,60,12,,,,39,41,76,13,0.9,0.7
2025-11-12T0500,1051A,115.493,38.8632,保定市,游泳馆,细颗粒物(PM2.5),185,178,157,139,114,1,,,,64,68,7,7,1.1,1
2025-11-12T0500,1052A,115.5213,38.8959,保定市,华电二区,细颗粒物(PM2.5),193,186,139,145,112,0,,,,62,60,2,4,1.6,1.1
2025-11-12T0500,1053A,115.4713,38.9108,保定市,接待中心,细颗粒物(PM2.5),172,150,142,130,102,0,,,,48,59,2,4,1.1,1
2025-11-12T0500,1054A,115.4612,38.8416,保定市,地表水厂,细颗粒物(PM2.5),183,190,174,138,110,1,,,,59,72,6,7,0.9,0.8
2025-11-12T0500,3581A,115.31981,38.95208,保定市,满城区生态环境分局,细颗粒物(PM2.5),117,124,135,88,80,0,,,,39,55,3,3,0.7,0.8
2025-11-12T0500,3582A,115.47694,38.76408,保定市,清苑区第二中学,细颗粒物(PM2.5),199,219,196,149,108,23,,,,71,79,7,6,1.0,0.8
2025-11-12T0500,3583A,115.62909,39.02311,保定市,徐水物探局,细颗粒物(PM2.5),210,213,191,160,128,2,,,,49,64,9,8,1.2,0.9
2025-11-12T0500,4004A,115.4202,38.8656,保定市,双鹰农机,细颗粒物(PM2.5),172,215,174,130,102,5,,,,53,61,2,4,1.2,1
2025-11-12T0500,4034A,115.5150,38.8590,保定市,植保所站,细颗粒物(PM2.5),219,316,176,169,116,2,,,,73,67,2,3,1.8,1.3
2025-11-12T0500,2594A,99.1678,25.1081,保山市,市环境监测站,,18,,14,12,12,26,,,,6,7,2,4,0.3,0.4
2025-11-12T0500,2595A,99.1711,25.1328,保山市,市环保局,,28,,20,19,16,36,,,,3,5,6,6,0.4,0.4
2025-11-12T0500,1866A,109.2262,21.588,北海市,牛尾岭水库,,11,10,11,3,7,34,,,,9,10,3,3,0.3,0.5
2025-11-12T0500,1867A,109.1436,21.4086,北海市,海滩公园,,15,11,21,3,9,46,,,,7,8,8,8,0.6,0.7
2025-11-12T0500,1868A,109.0981,21.4661,北海市,新市环保局,,18,16,18,12,11,48,,,,7,8,5,5,0.6,0.6
2025-11-12T0500,1869A,109.1778,21.5233,北海市,北海工业园,,14,6,20,3,11,44,,,,8,9,5,5,0.3,0.4
2025-11-12T0500,3400A,109.1911,21.4415,北海市,龙潭自来水厂,,15,14,20,8,11,46,,,,4,6,4,5,0.6,0.7
2025-11-12T0500,1001A,116.3621,39.8784,北京市,万寿西宫,细颗粒物(PM2.5),80,95,115,59,68,0,,,,59,67,3,4,1.1,1
2025-11-12T0500,1002A,116.2202,40.2915,北京市,定陵,,,,,,,,,,,,,,,,
2025-11-12T0500,1003A,116.4174,39.9289,北京市,东四,细颗粒物(PM2.5),169,197,141,128,82,3,,,,87,65,5,5,2.2,1.1
2025-11-12T0500,1004A,116.4072,39.8863,北京市,天坛,细颗粒物(PM2.5),70,67,108,51,72,2,,,,26,49,1,2,0.9,0.9
2025-11-12T0500,1005A,116.462,39.9365,北京市,农展馆,细颗粒物(PM2.5),114,134,122,86,75,1,,,,54,61,4,4,1.4,1.1
2025-11-12T0500,1006A,116.3392,39.9295,北京市,官园,细颗粒物(PM2.5),118,153,124,89,71,0,,,,76,63,4,3,1.2,0.9
2025-11-12T0500,1007A,116.2878,39.9611,北京市,海淀万柳,细颗粒物(PM2.5),124,151,137,94,58,0,,,,69,64,4,5,1.1,0.9
2025-11-12T0500,1008A,116.6636,40.135,北京市,顺义新城,细颗粒物(PM2.5),110,143,128,83,73,0,,,,49,54,5,6,1.2,0.9
2025-11-12T0500,1009A,116.6275,40.3275,北京市,怀柔镇,细颗粒物(PM2.5),118,124,89,89,56,15,,,,28,37,4,5,1.0,0.9
2025-11-12T0500,1010A,116.2296,40.217,北京市,昌平镇,细颗粒物(PM2.5),175,189,88,132,53,18,,,,33,50,5,6,0.9,0.6
2025-11-12T0500,1011A,116.3966,39.9821,北京市,奥体中心,细颗粒物(PM2.5),140,166,118,107,72,0,,,,80,70,5,5,1.3,0.9
2025-11-12T0500,3281A,115.9718,40.4529,北京市,延庆夏都,细颗粒物(PM2.5),89,117,76,66,39,3,,,,37,43,2,4,0.9,0.8
2025-11-12T0500,3418A,116.8336,40.4095,北京市,密云新城,细颗粒物(PM2.5),132,162,104,100,59,1,,,,40,44,2,3,1.2,0.8
2025-11-12T0500,3671A,116.088,39.9726,北京市,门头沟三家店,细颗粒物(PM2.5),77,97,85,56,41,2,,,,36,39,3,2,0.6,0.6
2025-11-12T0500,3672A,116.1541,39.8204,北京市,丰台云岗,细颗粒物(PM2.5),102,131,128,76,75,1,,,,57,53,4,5,0.7,0.7
2025-11-12T0500,3673A,116.6804,39.9081,北京市,通州东关,颗粒物(PM10),59,68,140,38,79,3,,,,45,61,4,5,1.0,0.9
2025-11-12T0500,3674A,115.9577,39.7603,北京市,房山燕山,细颗粒物(PM2.5),122,138,94,92,53,8,,,,22,31,3,4,0.7,0.6
2025-11-12T0500,3675A,116.4672,39.7733,北京市,大兴旧宫,"颗粒物(PM10),细颗粒物(PM2.5)",82,113,130,60,69,0,,,,51,57,4,3,1.3,1
2025-11-12T0500,3694A,115.986,40.4563,北京市,延庆石河营,细颗粒物(PM2.5),83,101,74,61,39,1,,,,29,42,2,3,0.7,0.6
2025-11-12T0500,3695A,116.6151,40.3053,北京市,怀柔新城,细颗粒物(PM2.5),117,122,86,88,56,15,,,,26,33,4,4,0.9,0.7
2025-11-12T0500,3696A,116.2545,39.8768,北京市,丰台小屯,细颗粒物(PM2.5),132,163,122,100,69,1,,,,61,63,4,4,1.2,0.9
2025-11-12T0500,3697A,116.84,40.3844,北京市,密云镇,细颗粒物(PM2.5),133,154,114,101,63,1,,,,39,45,2,3,1.1,0.9
2025-11-12T0500,4182A,116.1942,39.9158,北京市,八角北路9号,细颗粒物(PM2.5),119,156,120,90,62,1,,,,65,72,1,1,1.0,0.8
2025-11-12T0500,4194A,117.0790,40.1518,北京市,洳河巡河路,细颗粒物(PM2.5),105,133,107,79,61,7,,,,18,36,3,6,1.0,0.9
2025-11-12T0500,1761A,123.8275,41.3064,本溪市,大峪,颗粒物(PM10),61,72,61,35,32,1,,,,44,36,9,9,1.2,1
2025-11-12T0500,1762A,123.7567,41.3325,本溪市,溪湖,颗粒物(PM10),72,94,88,48,42,0,,,,53,44,12,9,2.5,1.2
2025-11-12T0500,1763A,123.7169,41.3094,本溪市,彩屯,细颗粒物(PM2.5),112,140,84,84,51,0,,,,56,42,21,10,5.6,1.7
2025-11-12T0500,1764A,123.7669,41.2864,本溪市,东明,细颗粒物(PM2.5),63,70,76,45,43,2,,,,50,47,18,12,1.2,1.2
2025-11-12T0500,1765A,123.7992,41.2664,本溪市,新立屯,,30,30,50,15,32,59,,,,22,45,8,9,0.5,1
2025-11-12T0500,1766A,123.8142,41.3472,本溪市,威宁,颗粒物(PM10),71,91,91,44,41,5,,,,44,39,7,8,1.6,1.1
2025-11-12T0500,2587A,105.2864,27.3125,毕节市,八中,,40,,12,28,14,29,,,,6,8,7,7,0.7,0.7
2025-11-12T0500,2588A,105.31,27.2944,毕节市,师专,,38,34,17,26,10,31,,,,7,10,8,8,0.6,0.6
2025-11-12T0500,4263A,105.3688,27.3598,毕节市,工业大道,,23,23,14,16,8,30,,,,5,6,10,9,0.8,0.8
2025-11-12T0500,1629A,118.0018,37.3617,滨州市,第二水厂,细颗粒物(PM2.5),133,149,130,101,75,7,,,,76,59,17,19,0.6,0.6
2025-11-12T0500,1630A,117.9776,37.393,滨州市,北中新校,细颗粒物(PM2.5),128,146,117,97,72,2,,,,83,62,15,16,0.6,0.6
2025-11-12T0500,3514A,117.9378,37.3956,滨州市,中海酒店,细颗粒物(PM2.5),138,146,116,105,75,8,,,,90,64,8,11,0.8,0.8
2025-11-12T0500,3515A,117.9378,37.3553,滨州市,开发区一中,细颗粒物(PM2.5),147,171,145,112,82,14,,,,72,55,17,18,0.9,1.1
2025-11-12T0500,3516A,118.0917,37.694,滨州市,金海六路,细颗粒物(PM2.5),134,168,130,102,69,3,,,,95,60,20,16,0.8,0.5
2025-11-12T0500,4028A,117.9956,37.3753,滨州市,滨州市西街道办事处,细颗粒物(PM2.5),140,151,133,107,82,2,,,,70,56,12,15,0.8,0.7
2025-11-12T0500,2311A,115.8072,33.8399,亳州市,污水处理厂,细颗粒物(PM2.5),94,95,72,70,44,15,,,,60,40,32,18,0.7,0.6
2025-11-12T0500,2312A,115.7789,33.8518,亳州市,三国揽胜宫,细颗粒物(PM2.5),80,97,78,59,42,18,,,,51,43,8,12,0.6,0.5
2025-11-12T0500,3332A,115.7633,33.8034,亳州市,亳州学院,细颗粒物(PM2.5),89,81,63,66,40,34,,,,30,32,9,11,0.6,0.5
2025-11-12T0500,2693A,82.0485,44.8556,博尔塔拉蒙古自治州,市党校,,30,30,38,11,16,33,,,,12,16,5,3,0.0,0.1
2025-11-12T0500,2694A,82.0806,44.8969,博尔塔拉蒙古自治州,市环保局,,36,36,54,21,20,46,,,,13,23,1,3,0.4,0.5
2025-11-12T0500,1071A,116.8842,38.2991,沧州市,沧县城建局,细颗粒物(PM2.5),144,155,132,110,92,21,,,,63,55,6,9,0.7,0.6
2025-11-12T0500,1072A,116.8584,38.3254,沧州市,电视转播站,细颗粒物(PM2.5),140,135,129,107,92,42,,,,39,44,6,9,0.8,0.7
2025-11-12T0500,1073A,116.8709,38.3228,沧州市,市环保局,细颗粒物(PM2.5),143,148,134,109,96,34,,,,56,52,6,8,0.6,0.6
2025-11-12T0500,3324A,116.8136,38.3004,沧州市,河北水利电力学院,细颗粒物(PM2.5),138,171,149,105,76,20,,,,68,51,16,17,0.8,0.6
2025-11-12T0500,2622A,97.1806,31.1273,昌都市,昌都监测站,,15,10,30,3,18,48,,,,3,21,3,4,0.2,0.6
2025-11-12T0500,3719A,97.1714,31.1406,昌都市,昌都会议中心,,17,9,17,6,9,54,,,,1,6,3,3,0.1,0.1
2025-11-12T0500,2690A,88.1236,43.8886,昌吉回族自治州,天山天池,,,,,,,,,,,,,,,,
2025-11-12T0500,2692A,87.2717,44.0297,昌吉回族自治州,新区政务中心,,45,45,42,20,22,2,,,,40,37,7,9,0.9,0.8
2025-11-12T0500,3613A,87.3095,44.0142,昌吉回族自治州,亚心广场,,41,41,37,12,15,2,,,,47,31,8,8,1.1,0.7
2025-11-12T0500,1120A,125.2863,43.9027,长春市,客车厂,细颗粒物(PM2.5),150,,119,115,119,49,,,,23,46,10,10,0.8,1
2025-11-12T0500,1121A,125.2841,43.8463,长春市,邮电学院,细颗粒物(PM2.5),160,127,132,122,113,48,,,,28,46,9,10,0.7,0.8
2025-11-12T0500,1122A,125.3716,43.8772,长春市,劳动公园,细颗粒物(PM2.5),135,134,137,103,101,46,,,,30,50,16,13,1.0,1.1
2025-11-12T0500,1123A,125.3297,43.8805,长春市,园林处,细颗粒物(PM2.5),142,111,111,108,102,45,,,,25,42,8,8,0.7,0.8
2025-11-12T0500,1124A,125.4605,43.79,长春市,净月潭,细颗粒物(PM2.5),185,,126,139,104,52,,,,20,27,8,7,0.7,0.6
2025-11-12T0500,1125A,125.7194,43.515,长春市,甩湾子,细颗粒物(PM2.5),156,123,134,119,135,46,,,,18,24,8,7,0.9,0.9
2025-11-12T0500,1126A,125.3863,43.8447,长春市,经开区环卫处,细颗粒物(PM2.5),142,120,122,108,98,42,,,,27,51,8,8,0.6,0.8
2025-11-12T0500,1127A,125.245,43.7783,长春市,高新区管委会,细颗粒物(PM2.5),138,111,158,105,142,49,,,,23,44,8,8,0.6,0.9
2025-11-12T0500,1128A,125.1761,43.8325,长春市,岱山公园,细颗粒物(PM2.5),112,88,134,84,116,46,,,,22,45,9,10,0.7,0.8
2025-11-12T0500,4281A,125.3346,43.9164,长春市,北亚泰大街1068号,细颗粒物(PM2.5),142,108,119,108,111,38,,,,37,53,10,10,0.6,0.8
2025-11-12T0500,1335A,113.0833,28.2325,长沙市,经开区环保局,,,77,75,58,52,50,,,,,19,6,5,0.6,0.5
2025-11-12T0500,1336A,112.8872,28.2189,长沙市,高开区环保局,,,73,75,44,50,73,,,,,21,6,6,0.5,0.5
2025-11-12T0500,1337A,113.0792,28.2053,长沙市,马坡岭,,,79,77,44,40,50,,,,,17,6,6,0.6,0.6
2025-11-12T0500,1338A,112.9394,28.19,长沙市,湖南师范大学,,,91,86,31,38,70,,,,,13,10,8,0.5,0.6
2025-11-12T0500,1339A,113.0178,28.1322,长沙市,雨花区环保局,细颗粒物(PM2.5),75,92,75,55,46,59,,,,17,16,8,7,0.6,0.7
2025-11-12T0500,1340A,112.9792,28.2597,长沙市,伍家岭,,,84,78,53,46,56,,,,,18,6,5,0.5,0.5
2025-11-12T0500,1341A,113.0014,28.1944,长沙市,火车新站,细颗粒物(PM2.5),70,88,82,51,51,59,,,,18,21,11,10,0.7,0.7
2025-11-12T0500,1342A,112.9844,28.1178,长沙市,天心区环保局,颗粒物(PM10),69,88,78,44,40,65,,,,16,17,6,6,0.5,0.5
2025-11-12T0500,1343A,112.8908,28.1308,长沙市,湖南中医药大学,颗粒物(PM10),65,79,78,34,37,67,,,,13,16,5,5,0.6,0.6
2025-11-12T0500,1344A,112.9581,28.3611,长沙市,沙坪,,,,,,,,,,,,,,,,
2025-11-12T0500,1727A,113.1147,36.1547,长治市,清华站,细颗粒物(PM2.5),73,74,67,53,40,38,,,,35,37,5,13,0.8,0.9
2025-11-12T0500,1730A,113.0886,36.2125,长治市,审计局,细颗粒物(PM2.5),83,64,61,61,41,41,,,,32,33,10,14,0.9,0.9
2025-11-12T0500,1731A,113.0844,36.1856,长治市,长治八中,颗粒物(PM10),72,93,91,47,48,40,,,,25,29,9,14,0.9,1
2025-11-12T0500,2845A,113.1569,36.1911,长治市,德盛苑,,,68,61,53,39,100,,,,,22,8,14,0.8,1
2025-11-12T0500,3568A,113.06,36.0464,长治市,向阳小学,细颗粒物(PM2.5),79,103,101,58,48,74,,,,20,37,8,14,0.9,0.9
2025-11-12T0500,3569A,112.8792,36.3144,长治市,屯留一中,,49,49,57,16,25,4,,,,34,33,8,11,0.7,0.7
2025-11-12T0500,4189A,113.1131,36.19948,长治市,英华南巷50号,细颗粒物(PM2.5),64,70,68,46,37,62,,,,19,30,8,12,0.9,1
2025-11-12T0500,4190A,113.2367,36.3344,长治市,学府街1号,细颗粒物(PM2.5),84,84,79,62,40,39,,,,26,41,7,12,1.0,1.3
2025-11-12T0500,1854A,111.6975,28.9703,常德市,市二中,,,59,71,31,35,71,,,,,14,8,7,0.3,0.4
2025-11-12T0500,1857A,111.7158,29.1456,常德市,白鹤山,,,,,,,,,,,,,,,,
2025-11-12T0500,3138A,111.7153,29.0289,常德市,武陵区永安,颗粒物(PM10),56,61,56,29,34,72,,,,13,16,8,7,0.4,0.6
2025-11-12T0500,3139A,111.6892,28.9881,常德市,鼎城区玉霞,,,58,71,33,37,68,,,,,13,9,8,0.4,0.5
2025-11-12T0500,3140A,111.6625,29.0531,常德市,武陵区长庚,,,71,76,32,33,66,,,,,13,6,6,0.3,0.4
2025-11-12T0500,1196A,119.9633,31.762,常州市,市监测站,颗粒物(PM10),52,53,35,26,14,50,,,,25,27,6,7,0.4,0.4
2025-11-12T0500,1200A,119.9468,31.7069,常州市,武进监测站,颗粒物(PM10),51,52,35,16,12,52,,,,29,31,10,9,0.6,0.5
2025-11-12T0500,1201A,119.9255,31.9087,常州市,安家,颗粒物(PM10),53,56,37,25,13,23,,,,41,32,12,11,0.4,0.3
2025-11-12T0500,3002A,119.9805,31.8174,常州市,行政中心,颗粒物(PM10),55,60,44,24,17,44,,,,30,32,10,7,0.4,0.4
2025-11-12T0500,3003A,120.0522,31.7748,常州市,经开区,颗粒物(PM10),67,83,46,28,13,13,,,,48,42,13,13,0.7,0.7
2025-11-12T0500,3010A,119.9025,31.7964,常州市,钟楼,,48,48,38,28,19,44,,,,30,32,11,9,0.5,0.6
2025-11-12T0500,3429A,119.8598,31.7066,常州市,武进经发区,颗粒物(PM10),54,58,37,29,15,15,,,,55,40,10,9,0.8,0.7
2025-11-12T0500,3430A,119.5826,31.7245,常州市,金坛城区,,,54,42,30,18,30,,,,33,28,7,7,,0.6
2025-11-12T0500,2220A,120.4318,41.5881,朝阳市,西梁,细颗粒物(PM2.5),80,,46,59,27,20,,,,33,29,7,8,1.3,0.9
2025-11-12T0500,2221A,120.4521,41.5646,朝阳市,河畔小区,细颗粒物(PM2.5),72,,40,52,22,38,,,,23,26,6,7,0.9,0.5
2025-11-12T0500,2222A,120.4176,41.5648,朝阳市,八里堡,细颗粒物(PM2.5),63,,43,45,23,29,,,,30,31,8,10,1.1,0.6
2025-11-12T0500,2223A,120.3806,41.5969,朝阳市,农业园区,细颗粒物(PM2.5),87,,41,64,30,44,,,,21,32,9,10,1.0,0.6
2025-11-12T0500,1705A,116.6367,23.6719,潮州市,西园路,,,,,,,,,,,,,,,,
2025-11-12T0500,3026A,116.6183,23.6608,潮州市,市政府,,16,11,31,7,9,49,,,,2,3,4,4,0.3,0.4
2025-11-12T0500,4036A,116.6461,23.6761,潮州市,金山,,,,21,17,17,43,,,,,6,2,2,0.4,0.5
2025-11-12T0500,2472A,113.0073,25.9061,郴州市,马头岭,,,,,,,,,,,,,,,,
2025-11-12T0500,2473A,113.0116,25.8226,郴州市,市职中,,46,40,29,32,24,60,,,,9,10,2,2,0.7,0.6
2025-11-12T0500,2475A,113.0383,25.8071,郴州市,市审计局,,,35,31,28,22,59,,,,,13,1,1,0.3,0.3
2025-11-12T0500,2476A,113.0348,25.7759,郴州市,市环保局,,46,34,33,32,24,56,,,,9,12,2,2,0.5,0.5
2025-11-12T0500,4252A,113.0138,25.8011,郴州市,好美居路49号,,42,33,29,29,23,64,,,,11,13,3,3,0.7,0.7
2025-11-12T0500,1431A,103.9728,30.7236,成都市,金泉两河,,41,41,55,27,21,2,,,,33,32,2,3,0.6,0.5
2025-11-12T0500,1432A,104.176,30.6872,成都市,十里店,细颗粒物(PM2.5),67,73,58,48,30,4,,,,43,38,3,4,0.7,0.6
2025-11-12T0500,1433A,104.079,30.5706,成都市,三瓦窑,颗粒物(PM10),70,90,65,42,25,1,,,,43,41,4,4,0.6,0.5
2025-11-12T0500,1434A,104.1114,30.63,成都市,沙河铺,细颗粒物(PM2.5),79,62,53,58,34,0,,,,33,36,2,2,0.6,0.5
2025-11-12T0500,1437A,104.0786,30.6531,成都市,君平街,细颗粒物(PM2.5),63,69,55,45,28,5,,,,38,31,4,4,0.8,0.6
2025-11-12T0500,1438A,103.613,31.0283,成都市,灵岩寺,,,,,,,,,,,,,,,,
2025-11-12T0500,2880A,104.0239,30.65639,成都市,大石西路,细颗粒物(PM2.5),69,,44,50,30,1,,,,38,33,3,3,0.8,0.7
2025-11-12T0500,3136A,104.2725,30.5589,成都市,龙泉驿区区政府,,,41,33,24,15,6,,,,31,24,4,5,,0.5
2025-11-12T0500,3357A,104.0106,30.6931,成都市,金博路,细颗粒物(PM2.5),53,46,49,37,22,0,,,,35,33,5,5,0.8,0.6
2025-11-12T0500,3359A,104.0578,30.5225,成都市,华阳,细颗粒物(PM2.5),70,61,49,51,31,4,,,,42,36,4,5,0.7,0.5
2025-11-12T0500,3488A,104.3880,30.7467,成都市,青石路225号,,42,42,52,20,25,3,,,,36,28,5,5,0.9,0.8
2025-11-12T0500,3489A,104.0789,30.4072,成都市,科学城,颗粒物(PM10),52,54,47,32,26,7,,,,28,26,5,5,0.6,0.5
2025-11-12T0500,4011A,103.8506,30.6947,成都市,光华大道三段,细颗粒物(PM2.5),65,61,56,47,27,6,,,,32,33,1,1,0.9,0.8
2025-11-12T0500,4224A,104.2433,30.5353,成都市,鲸龙路1057号,细颗粒物(PM2.5),57,61,48,40,24,15,,,,18,22,5,6,0.6,0.6
2025-11-12T0500,1062A,117.9531,40.9081,承德市,铁路,细颗粒物(PM2.5),67,75,65,48,32,1,,,,43,42,2,5,1.0,0.8
2025-11-12T0500,1063A,117.9392,40.9763,承德市,中国银行,颗粒物(PM10),61,72,62,37,30,1,,,,33,34,2,4,0.8,0.7
2025-11-12T0500,1064A,117.9503,40.928,承德市,开发区,颗粒物(PM10),64,77,70,43,33,2,,,,41,38,5,7,0.8,0.7
2025-11-12T0500,1066A,117.9268,41.0026,承德市,离宫,,,,,,,,,,,,,,,,
2025-11-12T0500,4274A,117.7994,40.9605,承德市,滨河大街98号,细颗粒物(PM2.5),74,61,55,54,32,6,,,,27,32,3,8,0.8,0.9
2025-11-12T0500,2314A,117.47,30.6618,池州市,池州学院,,34,34,41,14,18,27,,,,38,32,11,9,0.6,0.6
2025-11-12T0500,3237A,117.4918,30.6617,池州市,展览馆,,35,35,40,16,18,27,,,,34,30,8,9,0.7,0.7
2025-11-12T0500,3333A,117.5627,30.695,池州市,第八中学,,36,36,39,15,15,42,,,,15,21,8,9,0.5,0.6
2025-11-12T0500,3334A,117.5038,30.6243,池州市,第十二中学,,,32,33,15,14,35,,,,,31,6,7,0.7,0.7
2025-11-12T0500,1744A,118.9233,42.2816,赤峰市,松山一中,颗粒物(PM10),62,73,46,40,22,49,,,,21,34,9,16,0.8,0.9
2025-11-12T0500,1745A,118.9576,42.2728,赤峰市,哈达街,颗粒物(PM10),59,68,37,30,21,44,,,,22,30,12,17,0.8,0.7
2025-11-12T0500,1746A,118.8788,42.2554,赤峰市,天义路,细颗粒物(PM2.5),78,,23,57,22,45,,,,26,27,9,13,0.9,0.8
2025-11-12T0500,3058A,119.2658,42.0353,赤峰市,银河街,"颗粒物(PM10),细颗粒物(PM2.5)",58,66,64,41,35,36,,,,27,25,32,25,0.9,0.9
2025-11-12T0500,3286A,118.9359,42.3147,赤峰市,桥北物流园区,细颗粒物(PM2.5),74,67,46,54,31,40,,,,21,40,9,17,0.8,0.9
2025-11-12T0500,2521A,107.3476,22.4136,崇左市,市环保局江州分局,,10,8,16,3,7,29,,,,9,7,2,2,0.7,0.8
2025-11-12T0500,4256A,107.3750,22.3736,崇左市,石景林东路7号,,13,9,10,3,6,39,,,,9,8,7,7,0.6,0.7
2025-11-12T0500,2298A,118.3093,32.3153,滁州市,老年大学,,32,32,37,12,16,28,,,,12,12,10,11,0.2,0.1
2025-11-12T0500,2299A,118.3244,32.2786,滁州市,人大宾馆,,26,26,33,16,11,36,,,,13,14,4,5,0.2,0.2
2025-11-12T0500,3207A,118.3118,32.3038,滁州市,市政府原办公楼,,33,33,42,17,17,34,,,,20,17,5,5,0.3,0.3
2025-11-12T0500,3331A,118.3267,32.2634,滁州市,图书馆,,24,24,29,14,10,38,,,,20,16,6,7,0.2,0.2
2025-11-12T0500,2605A,101.5482,25.0441,楚雄彝族自治州,州环境监测站,,12,12,16,6,10,0,,,,13,13,6,8,0.5,0.5
2025-11-12T0500,2606A,101.538,25.0492,楚雄彝族自治州,市经济开发区,,12,12,16,7,8,0,,,,14,13,6,7,0.5,0.7
2025-11-12T0500,2548A,107.5277,31.2827,达州市,达州职业技术学院,,,,,,,,,,,,,,,,
2025-11-12T0500,2549A,107.5086,31.2186,达州市,市环境监测站,,,,44,,17,,,23,,,28,,9,,0.6
2025-11-12T0500,2550A,107.4988,31.2132,达州市,凤凰小区,,,34,44,17,19,2,,,,,27,5,9,0.5,0.5
2025-11-12T0500,2551A,107.5082,31.1986,达州市,达县机关宾馆,,45,36,45,31,21,3,,,,21,29,5,9,0.5,0.5
2025-11-12T0500,2552A,107.4644,31.2124,达州市,市政中心,,,44,54,22,17,3,,,,,28,6,9,0.5,0.6
2025-11-12T0500,2614A,100.1542,25.7054,大理白族自治州,大理市环境监测站,,15,15,13,8,8,44,,,,7,8,5,6,0.3,0.3
2025-11-12T0500,2615A,100.2171,25.5811,大理白族自治州,大理古城,,,,15,14,12,53,,,,4,12,7,7,0.5,0.5
2025-11-12T0500,1109A,121.612,38.9741,大连市,甘井子,细颗粒物(PM2.5),88,118,52,65,26,60,,,,31,31,13,10,0.8,0.6
2025-11-12T0500,1110A,121.565,38.9511,大连市,周水子,细颗粒物(PM2.5),80,104,53,59,28,52,,,,44,43,3,4,0.7,0.6
2025-11-12T0500,1111A,121.5637,38.8845,大连市,星海三站,细颗粒物(PM2.5),87,96,50,64,28,61,,,,14,17,6,8,0.6,0.5
2025-11-12T0500,1112A,121.6302,38.9117,大连市,青泥洼桥,颗粒物(PM10),93,135,54,61,26,60,,,,20,25,11,12,0.8,0.5
2025-11-12T0500,1113A,121.6251,38.8638,大连市,傅家庄,颗粒物(PM10),98,146,76,64,25,62,,,,24,20,13,11,0.7,0.6
2025-11-12T0500,1114A,121.5213,38.8661,大连市,七贤岭,颗粒物(PM10),65,79,48,46,22,28,,,,20,25,5,7,0.8,0.6
2025-11-12T0500,1115A,121.2529,38.8061,大连市,旅顺,细颗粒物(PM2.5),92,118,52,68,30,60,,,,26,20,11,9,0.6,0.5
2025-11-12T0500,1116A,121.7485,39.1311,大连市,金州,颗粒物(PM10),85,119,48,57,27,69,,,,25,28,14,13,0.6,0.4
2025-11-12T0500,1117A,121.7811,39.0496,大连市,开发区,颗粒物(PM10),63,76,49,44,20,48,,,,32,33,5,5,0.6,0.5
2025-11-12T0500,1118A,121.9762,39.0631,大连市,双D港,,,,37,,16,,,65,,,17,,12,,0.6
2025-11-12T0500,1789A,124.81117,46.03138,大庆市,大同区,细颗粒物(PM2.5),127,121,71,96,45,39,,,,24,19,14,11,0.7,0.6
2025-11-12T0500,1790A,125.129,46.533,大庆市,龙凤区,细颗粒物(PM2.5),88,85,64,65,37,45,,,,17,22,10,10,0.7,0.6
2025-11-12T0500,1791A,124.902,46.408,大庆市,红岗区,细颗粒物(PM2.5),94,91,57,70,39,35,,,,21,22,8,6,0.8,0.6
2025-11-12T0500,1792A,125.153,46.586,大庆市,萨尔图区,细颗粒物(PM2.5),102,89,61,76,41,55,,,,17,26,9,9,0.5,0.5
2025-11-12T0500,1793A,124.9042,46.6215,大庆市,让胡路区,细颗粒物(PM2.5),89,93,48,66,34,43,,,,13,18,6,6,0.6,0.5
2025-11-12T0500,3481A,125.141,46.634,大庆市,萨区政府监测点,细颗粒物(PM2.5),85,94,55,63,33,55,,,,10,17,12,11,0.5,0.4
2025-11-12T0500,1721A,113.3819,40.1097,大同市,果树场,颗粒物(PM10),64,78,84,39,39,10,,,,42,45,9,12,0.7,1
2025-11-12T0500,1723A,113.2994,40.0758,大同市,云冈宾馆,颗粒物(PM10),79,108,110,40,35,4,,,,46,42,9,12,1.0,1.2
2025-11-12T0500,1724A,113.3444,40.0917,大同市,大同大学,颗粒物(PM10),75,100,89,48,34,7,,,,58,48,14,13,0.7,0.7
2025-11-12T0500,1725A,113.2661,40.1269,大同市,安家小村,颗粒物(PM10),76,101,104,27,35,19,,,,47,43,15,12,1.3,1
2025-11-12T0500,1726A,113.2711,40.0844,大同市,教育学院,颗粒物(PM10),89,127,126,48,41,1,,,,53,49,8,12,1.4,1.5
2025-11-12T0500,3282A,113.3397,40.0597,大同市,大同市卫生学校,细颗粒物(PM2.5),87,105,88,64,37,16,,,,44,48,14,12,0.7,0.8
2025-11-12T0500,3565A,113.1367,40.1122,大同市,云冈站,颗粒物(PM10),54,58,90,19,33,7,,,,30,34,8,13,0.5,0.6
2025-11-12T0500,3566A,113.1186,40.2556,大同市,图书馆,颗粒物(PM10),56,61,74,23,32,60,,,,16,19,40,16,0.5,0.6
2025-11-12T0500,3567A,113.5931,40.0461,大同市,区一中,颗粒物(PM10),72,93,94,33,39,37,,,,26,32,14,19,0.6,0.7
2025-11-12T0500,4199A,113.2798,40.0997,大同市,魏都大道141号,颗粒物(PM10),90,130,153,35,44,4,,,,56,49,8,12,2.0,1.6
2025-11-12T0500,2269A,124.1069,50.4097,大兴安岭地区,科技局,,24,24,18,15,13,36,,,,8,6,5,5,0.2,0.2
2025-11-12T0500,3663A,124.1164,50.4278,大兴安岭地区,红旗社区,,20,,14,14,7,26,,,,17,12,4,6,0.4,0.3
2025-11-12T0500,1600A,124.3303,40.0625,丹东市,江湾东路,,41,41,61,23,36,14,,,,25,37,11,15,1.2,1.2
2025-11-12T0500,1601A,124.4256,40.1503,丹东市,临江后街,颗粒物(PM10),52,53,53,27,26,7,,,,32,32,7,11,0.9,0.9
2025-11-12T0500,1602A,124.3933,40.1461,丹东市,元宝山,颗粒物(PM10),58,65,47,37,26,3,,,,38,26,8,11,1.1,0.8
2025-11-12T0500,1603A,124.3633,40.1092,丹东市,民主桥,颗粒物(PM10),52,53,53,26,29,3,,,,35,39,6,8,1.1,1.2
2025-11-12T0500,3541A,109.5726,19.5167,儋州市,第一中学子站,,22,22,28,10,13,42,,,,4,5,7,7,0.6,0.6
2025-11-12T0500,3542A,109.5567,19.5187,儋州市,东坡学校子站,,28,28,30,12,13,42,,,,9,9,4,4,0.7,0.7
2025-11-12T0500,2616A,98.5842,24.428,德宏傣族景颇族自治州,德宏州监测站,,19,,23,13,15,14,,,,18,15,8,8,0.5,0.5
2025-11-12T0500,3677A,98.5881,24.4368,德宏傣族景颇族自治州,芒市人民政府综合楼,,20,20,25,9,11,19,,,,10,11,6,7,0.6,0.6
2025-11-12T0500,1901A,104.4239,31.1208,德阳市,东山公园,,35,33,36,24,20,25,,,,10,13,1,2,0.6,0.6
2025-11-12T0500,1902A,104.3826,31.1317,德阳市,西小区,颗粒物(PM10),55,59,59,26,24,6,,,,28,27,1,2,0.6,0.6
2025-11-12T0500,1904A,104.3553,31.1091,德阳市,耐火材料厂,颗粒物(PM10),55,59,60,35,25,1,,,,37,33,2,2,0.7,0.7
2025-11-12T0500,3639A,104.4019,31.1244,德阳市,市教育局,,40,40,42,20,17,10,,,,16,24,1,2,0.5,0.6
2025-11-12T0500,1622A,116.3032,37.4674,德州市,儿童乐园,细颗粒物(PM2.5),92,117,139,68,74,41,,,,67,62,13,14,0.8,0.9
2025-11-12T0500,1624A,116.2991,37.4451,德州市,监理站,细颗粒物(PM2.5),98,117,133,73,74,38,,,,60,56,17,18,0.7,0.7
2025-11-12T0500,3066A,116.2721,37.4379,德州市,九衢泉纯净水厂,"颗粒物(PM10),细颗粒物(PM2.5)",92,134,150,68,72,13,,,,78,72,15,16,0.8,0.9
2025-11-12T0500,3371A,116.3728,37.4403,德州市,开发区人民医院,细颗粒物(PM2.5),98,134,134,73,67,23,,,,71,63,16,18,0.8,0.9
2025-11-12T0500,3511A,116.5652,37.3319,德州市,陵城艺术中心,细颗粒物(PM2.5),104,136,123,78,71,23,,,,73,57,23,18,0.9,1
2025-11-12T0500,4292A,116.3525,37.4209,德州市,新河东路,细颗粒物(PM2.5),104,144,142,78,74,13,,,,89,77,12,14,0.8,0.9
2025-11-12T0500,2621A,99.7056,27.8317,迪庆藏族自治州,迪庆州站,,19,14,24,13,15,28,,,,8,9,6,6,0.3,0.5
2025-11-12T0500,3180A,99.7136,27.8094,迪庆藏族自治州,质量技术监督局,,12,11,24,8,13,34,,,,7,12,8,8,0.5,0.5
2025-11-12T0500,4257A,104.6092,35.5962,定西市,将台街,颗粒物(PM10),61,71,60,41,33,52,,,,11,10,11,9,0.6,0.6
2025-11-12T0500,4309A,104.6159,35.5701,定西市,正龙路62号,颗粒物(PM10),60,70,65,34,34,60,,,,14,14,6,6,0.4,0.5
2025-11-12T0500,1389A,113.7547,23.0494,东莞市,莞城梨川,,28,28,28,15,14,57,,,,23,19,1,2,0.6,0.5
2025-11-12T0500,1390A,113.7944,23.0128,东莞市,东城石井,,27,27,25,16,13,63,,,,11,13,6,6,0.6,0.6
2025-11-12T0500,1391A,113.7383,22.9658,东莞市,南城西平,,,28,25,13,10,54,,,,,20,6,6,0.8,0.7
2025-11-12T0500,3319A,113.7338,23.0381,东莞市,万江金泰,,,26,27,13,11,63,,,,,15,5,5,0.8,0.7
2025-11-12T0500,3626A,113.7533,23.0202,东莞市,南城元岭,,24,24,26,16,11,64,,,,10,11,6,6,0.6,0.6
2025-11-12T0500,3627A,113.7875,23.0457,东莞市,东城主山,,25,25,33,14,12,63,,,,12,14,4,4,0.6,0.6
2025-11-12T0500,1666A,118.6614,37.4309,东营市,市环保局,细颗粒物(PM2.5),113,158,121,85,65,1,,,,78,48,23,22,1.2,0.9
2025-11-12T0500,3036A,118.6904,37.4338,东营市,开发区管委会,细颗粒物(PM2.5),122,154,127,92,70,1,,,,88,51,20,23,1.1,0.8
2025-11-12T0500,3365A,118.5719,37.565,东营市,垦利区民丰路,细颗粒物(PM2.5),117,163,123,88,65,1,,,,80,54,16,10,1.1,0.9
2025-11-12T0500,3498A,118.5055,37.8612,东营市,河口城区,细颗粒物(PM2.5),123,163,130,93,68,8,,,,69,42,12,13,0.9,0.7
2025-11-12T0500,3646A,118.4978,37.4623,东营市,胜利站,细颗粒物(PM2.5),128,154,116,97,65,1,,,,94,64,23,20,1.5,1.1
2025-11-12T0500,3734A,118.35,37.26,东营市,理想之城,,,136,124,75,68,0,,,,,61,7,14,0.8,0.8
2025-11-12T0500,1591A,110.0023,39.8129,鄂尔多斯市,综合楼,颗粒物(PM10),56,61,57,14,19,75,,,,4,28,8,13,0.4,0.5
2025-11-12T0500,1592A,109.9486,39.8261,鄂尔多斯市,巴音孟克林场办事处,颗粒物(PM10),65,80,58,22,23,79,,,,6,20,6,8,0.3,0.5
2025-11-12T0500,1593A,109.7736,39.5986,鄂尔多斯市,康泽苑,颗粒物(PM10),56,61,59,24,25,74,,,,7,21,6,11,0.3,0.3
2025-11-12T0500,1594A,109.8119,39.5989,鄂尔多斯市,华泰汽车城,颗粒物(PM10),60,70,58,22,24,81,,,,8,23,6,7,0.2,0.3
2025-11-12T0500,1595A,109.9734,39.7884,鄂尔多斯市,奥林花园,颗粒物(PM10),63,75,76,19,23,63,,,,17,41,8,10,0.3,0.5
2025-11-12T0500,2436A,114.8938,30.3994,鄂州市,市政府,,39,38,63,27,38,75,,,,18,24,8,10,0.5,0.6
2025-11-12T0500,2437A,114.8989,30.3714,鄂州市,赵家坝,,45,45,69,20,42,68,,,,16,20,9,9,0.7,0.8
2025-11-12T0500,3654A,114.8094,30.4089,鄂州市,精准医疗中心,,34,34,61,19,36,75,,,,11,17,4,7,0.5,0.8
2025-11-12T0500,2454A,109.4978,30.2981,恩施土家族苗族自治州,湖北民院,,31,31,37,18,21,15,,,,7,11,6,6,0.5,0.5
2025-11-12T0500,2455A,109.4707,30.2798,恩施土家族苗族自治州,州电力总公司,,33,33,40,21,24,6,,,,9,15,5,6,0.4,0.4
2025-11-12T0500,3549A,109.5061,30.3772,恩施土家族苗族自治州,龙凤新区,,19,16,27,13,17,2,,,,3,7,6,6,0.2,0.3
2025-11-12T0500,2499A,108.3411,21.6158,防城港市,沙万,,15,8,19,6,8,46,,,,6,8,6,6,0.5,0.5
2025-11-12T0500,2500A,108.3514,21.7731,防城港市,防城档案局,,24,24,30,3,9,42,,,,8,9,8,7,0.7,0.7
2025-11-12T0500,2501A,108.3506,21.6414,防城港市,大海花园,,15,14,17,9,10,48,,,,5,7,5,5,0.5,0.5
2025-11-12T0500,1371A,113.1294,23.0067,佛山市,湾梁,,13,7,19,3,6,39,,,,23,24,8,8,0.9,1
2025-11-12T0500,1372A,113.1083,23.0478,佛山市,华材职中,,17,17,21,3,8,36,,,,20,18,7,7,0.7,0.8
2025-11-12T0500,1373A,113.144,23.0453,佛山市,南海气象局,,19,19,18,7,8,41,,,,15,16,8,8,0.8,0.8
2025-11-12T0500,1374A,113.2881,22.8094,佛山市,顺德苏岗,,15,15,23,9,7,39,,,,19,20,8,8,0.5,0.6
2025-11-12T0500,1376A,112.8383,22.8678,佛山市,高明孔堂,,15,10,17,7,7,46,,,,16,18,4,5,0.4,0.5
2025-11-12T0500,1377A,112.8836,23.1588,佛山市,三水监测站,,,6,12,3,3,46,,,,,19,11,8,0.7,0.8
2025-11-12T0500,1378A,112.867,23.185,佛山市,三水云东海,,15,,16,8,7,46,,,,15,18,11,9,0.8,0.9
2025-11-12T0500,3625A,113.2544,22.7642,佛山市,容桂街道办,,17,17,18,9,10,35,,,,21,24,7,7,0.6,0.7
2025-11-12T0500,1280A,119.3903,26.0543,福州市,鼓山,,,,14,,7,,,76,,,6,,1,,0.5
2025-11-12T0500,1282A,119.2681,26.0504,福州市,师大,,19,6,18,3,4,58,,,,6,8,5,5,0.3,0.4
2025-11-12T0500,1283A,119.2984,26.1028,福州市,五四北路,,17,6,18,3,3,52,,,,7,8,3,4,0.3,0.3
2025-11-12T0500,1284A,119.2648,26.0768,福州市,杨桥西路,,18,6,16,3,3,56,,,,7,8,3,3,0.2,0.2
2025-11-12T0500,1285A,119.317,26.0746,福州市,紫阳,,17,6,25,3,4,53,,,,13,16,6,7,0.2,0.3
2025-11-12T0500,3048A,119.5799,26.0936,福州市,九龙,,19,7,17,3,3,58,,,,4,6,4,4,0.2,0.3
2025-11-12T0500,3526A,119.5189,25.9664,福州市,吴航,,20,6,15,3,6,62,,,,5,6,5,6,0.4,0.5
2025-11-12T0500,1755A,123.7977,41.8491,抚顺市,望花区,细颗粒物(PM2.5),82,100,118,60,76,5,,,,45,47,8,11,1.0,1.2
2025-11-12T0500,1756A,123.9161,41.8822,抚顺市,顺城区,细颗粒物(PM2.5),58,53,90,41,54,12,,,,39,44,7,9,0.7,1
2025-11-12T0500,1757A,124.0436,41.8611,抚顺市,东洲区,细颗粒物(PM2.5),63,52,60,45,49,14,,,,28,30,6,9,0.8,0.9
2025-11-12T0500,1758A,123.9247,41.8642,抚顺市,新抚区,细颗粒物(PM2.5),92,82,110,68,70,2,,,,42,44,7,8,0.8,1
2025-11-12T0500,1759A,124.0972,41.8961,抚顺市,大伙房水库,,40,37,49,28,38,39,,,,22,28,11,11,0.6,0.7
2025-11-12T0500,1760A,123.7086,41.8391,抚顺市,沈抚新城,颗粒物(PM10),79,108,120,53,80,14,,,,45,50,17,13,1.3,1.3
2025-11-12T0500,2376A,116.2127,28.0814,抚州市,桐源党溪,,,,,,,,,,,,,,,,
2025-11-12T0500,2377A,116.3544,27.9831,抚州市,市站,,36,36,54,15,26,61,,,,8,10,11,7,0.4,0.6
2025-11-12T0500,2378A,116.3565,27.963,抚州市,血防站,,37,37,53,17,27,64,,,,11,16,8,3,0.7,0.8
2025-11-12T0500,2379A,116.3564,28.0007,抚州市,采茶剧团,,32,32,57,15,27,62,,,,5,6,3,3,0.6,0.8
2025-11-12T0500,2380A,116.385,27.9647,抚州市,医学分院,,43,43,61,15,25,58,,,,6,9,5,7,0.6,1
2025-11-12T0500,2207A,121.6094,41.998,阜新市,工业园区,细颗粒物(PM2.5),64,56,71,46,47,13,,,,42,35,20,18,1.0,0.7
2025-11-12T0500,2208A,121.6697,42.0279,阜新市,长青街,细颗粒物(PM2.5),55,44,45,39,34,21,,,,34,30,22,17,0.9,0.5
2025-11-12T0500,2209A,121.6673,42.0705,阜新市,农业园区,颗粒物(PM10),62,74,44,27,25,28,,,,32,21,14,13,1.0,0.7
2025-11-12T0500,2210A,121.6717,42.0224,阜新市,东苑,细颗粒物(PM2.5),54,38,51,38,32,24,,,,36,34,22,16,1.0,0.7
2025-11-12T0500,2211A,121.6506,42.0498,阜新市,玉龙新城,颗粒物(PM10),52,54,56,21,29,18,,,,35,34,14,14,0.9,0.8
2025-11-12T0500,2301A,115.8277,32.8929,阜阳市,市监测站,颗粒物(PM10),52,54,53,35,27,25,,,,48,34,4,5,0.3,0.3
2025-11-12T0500,2303A,115.8554,32.8605,阜阳市,开发区,,,73,65,29,22,20,,,,,28,4,4,0.2,0.2
2025-11-12T0500,2875A,115.784,32.8892,阜阳市,阜阳职业技术学院,,47,47,38,30,24,48,,,,19,18,6,6,0.3,0.2
2025-11-12T0500,3468A,115.7901,32.8613,阜阳市,市规划展馆,,,49,46,31,20,50,,,,,16,6,6,0.5,0.5
2025-11-12T0500,3469A,115.836,32.9183,阜阳市,枣园社区,"颗粒物(PM10),细颗粒物(PM2.5)",60,69,53,43,23,20,,,,47,32,7,8,0.6,0.5
2025-11-12T0500,2669A,102.9099,34.9841,甘南藏族自治州,州政府,,48,44,37,33,28,57,,,,7,15,3,6,0.4,0.4
2025-11-12T0500,3380A,102.8914,34.9617,甘南藏族自治州,甘肃民族师范学院,,39,39,32,27,22,57,,,,6,18,4,13,0.5,0.5
2025-11-12T0500,2570A,101.9603,30.0475,甘孜藏族自治州,水桥子,,13,6,7,3,5,40,,,,8,13,7,8,0.5,0.5
2025-11-12T0500,3065A,101.9533,29.9972,甘孜藏族自治州,州环保局,,12,,7,7,5,37,,,,10,13,5,5,0.5,0.5
2025-11-12T0500,3414A,115.8347,28.932,赣江新区,桑海产业园,,41,41,60,19,27,57,,,,16,16,10,9,0.8,0.7
2025-11-12T0500,2362A,114.9017,25.9149,赣州市,通天岩,,39,34,54,27,30,81,,,,6,7,20,17,0.7,0.9
2025-11-12T0500,2363A,114.9367,25.8664,赣州市,地委,,45,45,54,23,27,74,,,,11,12,5,6,0.6,0.7
2025-11-12T0500,2364A,114.9461,25.8481,赣州市,气象台,,47,47,61,19,24,76,,,,8,11,6,6,0.6,0.8
2025-11-12T0500,2365A,114.9322,25.8333,赣州市,市图书馆,,40,40,55,24,30,77,,,,11,12,3,4,0.7,0.8
2025-11-12T0500,2366A,114.8905,25.8471,赣州市,华坚鞋城,,39,39,61,24,28,65,,,,11,15,4,5,0.5,0.6
2025-11-12T0500,3109A,115.0093,25.8613,赣州市,赣县区卫计委,,36,26,50,25,34,78,,,,4,6,7,7,0.5,0.6
2025-11-12T0500,2683A,106.2319,36.1417,固原市,马园,,,,,,,,,,,,,,,,
2025-11-12T0500,2684A,106.2792,36.0022,固原市,监测站,颗粒物(PM10),55,60,51,30,30,45,,,,21,23,7,5,0.6,0.7
2025-11-12T0500,2685A,106.2375,36.0211,固原市,新区,颗粒物(PM10),57,64,47,33,25,47,,,,23,26,9,7,0.5,0.6
2025-11-12T0500,3522A,106.2177,35.9959,固原市,原州区十五小,颗粒物(PM10),54,57,52,26,28,69,,,,5,21,6,6,0.6,0.8
2025-11-12T0500,2543A,106.6308,30.5278,广安市,小平旧居,,,,,,,,,,,,,,,,
2025-11-12T0500,2544A,106.6303,30.4576,广安市,市委,,33,28,39,23,22,11,,,,12,19,3,3,0.6,0.6
2025-11-12T0500,2545A,106.6271,30.4663,广安市,友谊中学,,33,33,36,19,18,16,,,,11,18,6,6,0.8,0.7
2025-11-12T0500,2547A,106.6388,30.4551,广安市,广电花园,,28,27,31,19,20,11,,,,12,19,2,2,0.6,0.6
2025-11-12T0500,2902A,106.6351,30.4865,广安市,北辰小学,,29,29,38,15,18,16,,,,8,14,8,8,0.5,0.5
2025-11-12T0500,2523A,105.8945,32.4535,广元市,黑石坡,,,,,,,,,,,,,,,,
2025-11-12T0500,2524A,105.821,32.4444,广元市,老城,,32,32,37,22,24,8,,,,28,30,4,6,0.7,0.8
2025-11-12T0500,2526A,105.8628,32.4287,广元市,监测站,,,,26,33,16,12,,,,,19,3,7,0.8,0.8
2025-11-12T0500,3617A,105.8047,32.4166,广元市,经开区,颗粒物(PM10),54,57,57,21,20,0,,,,33,30,3,3,0.6,0.6
2025-11-12T0500,1345A,113.2347,23.1423,广州市,广雅中学,,30,30,26,16,16,35,,,,22,23,7,7,0.2,0.3
2025-11-12T0500,1346A,113.2612,23.105,广州市,市五中,,22,22,21,14,11,47,,,,20,23,7,7,0.5,0.6
2025-11-12T0500,1348A,113.3478,23.0916,广州市,广东商学院,,25,25,22,14,12,42,,,,14,16,5,6,0.3,0.3
2025-11-12T0500,1349A,113.4332,23.1047,广州市,市八十六中,,25,21,21,17,13,55,,,,16,18,7,7,0.5,0.5
2025-11-12T0500,1350A,113.3505,22.9483,广州市,番禺中学,,28,28,29,12,11,44,,,,16,19,7,7,0.6,0.6
2025-11-12T0500,1351A,113.2146,23.3916,广州市,花都师范,,19,19,18,7,7,46,,,,13,15,6,6,0.7,0.7
2025-11-12T0500,1352A,113.2597,23.1331,广州市,市监测站,,,27,26,15,11,42,,,,,24,7,7,0.7,0.7
2025-11-12T0500,1353A,113.5618,23.312,广州市,九龙镇镇龙,,22,22,25,15,13,65,,,,9,13,7,7,0.6,0.6
2025-11-12T0500,1354A,113.2765,23.1544,广州市,麓湖,,23,23,22,14,13,33,,,,23,20,9,9,0.5,0.5
2025-11-12T0500,1355A,113.443,23.3035,广州市,帽峰山森林公园,,,,,,,,,,,,,,,,
2025-11-12T0500,2846A,113.3221,23.1322,广州市,体育西,,23,22,20,16,13,38,,,,16,16,8,8,0.5,0.6
2025-11-12T0500,3298A,113.5717,23.5491,广州市,从化街口,,23,23,23,15,14,65,,,,8,9,11,11,0.6,0.6
2025-11-12T0500,3299A,113.3472,23.3692,广州市,白云竹料,,21,21,18,12,10,46,,,,12,13,7,7,0.6,0.6
2025-11-12T0500,3300A,113.2981,23.237,广州市,白云嘉禾,,23,23,22,12,11,40,,,,16,18,7,8,0.7,0.7
2025-11-12T0500,3301A,113.4256,23.1716,广州市,黄埔科学城,,,27,25,17,13,64,,,,,11,6,6,0.8,0.8
2025-11-12T0500,3302A,113.3942,23.0483,广州市,番禺大学城,,23,23,17,12,10,49,,,,16,15,9,10,0.6,0.6
2025-11-12T0500,3303A,113.4922,22.8168,广州市,南沙黄阁,,30,30,26,18,13,58,,,,17,21,9,9,0.6,0.7
2025-11-12T0500,3304A,113.5342,22.7896,广州市,南沙街,,,34,28,19,14,51,,,,,20,9,8,,0.1
2025-11-12T0500,3443A,113.2902,23.5544,广州市,花都梯面,,15,15,13,9,8,47,,,,9,9,4,4,0.5,0.6
2025-11-12T0500,3445A,113.7858,23.7478,广州市,从化良口,,25,12,21,9,13,80,,,,10,9,6,6,0.7,0.6
2025-11-12T0500,3446A,113.8051,23.2614,广州市,增城荔城,,26,23,23,18,14,69,,,,9,10,7,7,0.5,0.5
2025-11-12T0500,2505A,109.568,23.1478,贵港市,德智高中,,,,,,,,,,,,,,,,
2025-11-12T0500,2506A,109.6047,23.0666,贵港市,江南子站,,15,14,17,8,9,47,,,,7,9,4,5,0.6,0.7
2025-11-12T0500,2508A,109.5669,23.1065,贵港市,荷城子站,,15,14,16,3,5,47,,,,8,9,3,4,0.7,0.8
2025-11-12T0500,3405A,109.5886,23.1172,贵港市,新世纪学校,,20,14,18,14,10,48,,,,4,6,2,3,0.5,0.6
2025-11-12T0500,4260A,109.5933,23.0951,贵港市,中山路155-3号,,18,17,15,12,11,50,,,,6,7,3,3,0.5,0.6
2025-11-12T0500,1439A,106.6899,26.5998,贵阳市,马鞍山,,15,7,15,3,8,45,,,,3,7,3,3,0.4,0.5
2025-11-12T0500,1441A,106.6243,26.6266,贵阳市,鉴湖路,,22,22,31,3,9,46,,,,5,8,3,4,0.4,0.5
2025-11-12T0500,1442A,106.7487,26.6343,贵阳市,燕子冲,,20,,11,14,14,58,,,,5,8,5,5,0.5,0.5
2025-11-12T0500,1443A,106.6555,26.4365,贵阳市,碧云窝,,27,27,29,3,7,57,,,,4,12,1,3,0.3,0.3
2025-11-12T0500,1445A,106.7109,26.6027,贵阳市,红边门,,18,7,14,3,8,57,,,,4,10,3,5,0.5,0.6
2025-11-12T0500,1446A,106.7164,26.5699,贵阳市,新华路,,22,22,21,9,9,70,,,,5,9,7,10,0.3,0.4
2025-11-12T0500,1447A,106.674,26.5424,贵阳市,太慈桥,,20,12,16,7,9,62,,,,5,11,2,4,0.2,0.3
2025-11-12T0500,1552A,106.805,26.3003,贵阳市,桐木岭,,22,22,24,9,13,63,,,,2,4,5,6,0.6,0.7
2025-11-12T0500,4230A,106.6882,26.5695,贵阳市,花果园大街66号,,19,7,13,7,12,59,,,,4,10,3,1,0.5,0.7
2025-11-12T0500,4231A,106.6873,26.5169,贵阳市,漓江路57号,,19,6,9,3,8,59,,,,3,9,6,8,0.3,0.4
2025-11-12T0500,1862A,110.4144,25.3167,桂林市,电子科大尧山校区,,,,,,,,,,,,,,,,
2025-11-12T0500,1864A,110.3089,25.2708,桂林市,龙隐路小学,颗粒物(PM10),51,52,20,17,10,66,,,,6,8,5,5,0.3,0.4
2025-11-12T0500,1865A,110.2869,25.2178,桂林市,八中,,45,45,20,19,12,66,,,,5,7,6,6,0.3,0.5
2025-11-12T0500,3531A,110.296,25.1253,桂林市,旅游学院,,46,46,18,19,10,70,,,,7,8,3,3,0.3,0.4
2025-11-12T0500,4222A,110.1835,25.2444,桂林市,环湖路276号,,48,48,21,29,14,65,,,,8,9,7,6,0.3,0.3
2025-11-12T0500,4301A,110.2803,25.2773,桂林市,信义路13号,颗粒物(PM10),54,58,23,24,14,71,,,,5,8,6,7,0.6,0.7
2025-11-12T0500,2674A,100.2561,34.4714,果洛藏族自治州,玛沁县大武镇,,40,40,45,9,15,79,,,,2,3,17,19,0.3,0.3
2025-11-12T0500,1129A,126.5422,45.755,哈尔滨市,岭北,,,,,,,,,,,,,,,,
2025-11-12T0500,1130A,126.561,45.8167,哈尔滨市,松北商大,细颗粒物(PM2.5),118,103,78,89,100,62,,,,18,26,8,8,0.8,0.8
2025-11-12T0500,1131A,126.979,45.5419,哈尔滨市,阿城会宁,细颗粒物(PM2.5),100,86,83,75,68,61,,,,12,20,12,11,0.6,0.6
2025-11-12T0500,1132A,126.599,45.7222,哈尔滨市,南岗学府路,细颗粒物(PM2.5),98,102,83,73,62,31,,,,34,26,13,12,0.6,0.5
2025-11-12T0500,1133A,126.689,45.7733,哈尔滨市,太平宏伟公园,细颗粒物(PM2.5),105,98,73,79,58,56,,,,19,26,12,11,1.0,0.8
2025-11-12T0500,1134A,126.635,45.7667,哈尔滨市,道外承德广场,细颗粒物(PM2.5),122,132,92,92,57,49,,,,40,35,38,12,0.9,0.8
2025-11-12T0500,1135A,126.685,45.7319,哈尔滨市,香坊红旗大街,细颗粒物(PM2.5),112,107,88,84,64,53,,,,19,32,15,12,0.8,0.7
2025-11-12T0500,1136A,126.6411,45.7258,哈尔滨市,动力和平路,细颗粒物(PM2.5),109,100,80,82,69,45,,,,23,33,10,7,0.9,0.7
2025-11-12T0500,1137A,126.593,45.7478,哈尔滨市,道里建国路,细颗粒物(PM2.5),120,116,71,91,61,37,,,,42,35,17,15,2.0,1
2025-11-12T0500,1138A,126.615,45.61,哈尔滨市,平房东轻厂,细颗粒物(PM2.5),98,99,75,73,61,50,,,,18,26,11,10,0.7,0.7
2025-11-12T0500,1139A,126.595,45.9855,哈尔滨市,呼兰师专,细颗粒物(PM2.5),137,112,70,104,70,44,,,,32,27,14,12,0.8,0.7
2025-11-12T0500,1140A,126.6206,45.6842,哈尔滨市,省农科院,细颗粒物(PM2.5),112,124,109,84,73,25,,,,47,49,11,11,0.9,0.8
2025-11-12T0500,2688A,93.5128,42.8172,哈密市,地区监测站,,34,34,91,16,29,51,,,,8,27,17,15,0.0,0.1
2025-11-12T0500,2689A,93.4961,42.8328,哈密市,哈密师范学校,,39,39,79,20,25,50,,,,9,31,5,5,0.2,0.5
2025-11-12T0500,2671A,100.9048,36.9639,海北藏族自治州,海晏县西海镇,细颗粒物(PM2.5),53,44,35,37,24,54,,,,10,11,11,12,0.7,0.5
2025-11-12T0500,3867A,102.0738,36.5056,海东市,平安区公安北苑,颗粒物(PM10),63,75,65,40,43,61,,,,13,21,33,16,0.7,0.8
2025-11-12T0500,1409A,110.576,19.9507,海口市,东寨港,,,,,,,,,,,,,,,,
2025-11-12T0500,1410A,110.3232,20.0574,海口市,海南大学,,22,22,30,12,18,42,,,,9,10,7,8,0.5,0.6
2025-11-12T0500,1411A,110.283,20.0053,海口市,秀英海南医院,,26,26,34,11,18,42,,,,13,14,8,9,0.5,0.6
2025-11-12T0500,1412A,110.338,19.9969,海口市,海南师范大学,,27,27,31,14,18,45,,,,12,13,8,9,0.7,0.8
2025-11-12T0500,1413A,110.33,20.0356,海口市,龙华路环保局宿舍,,25,25,31,13,18,42,,,,12,12,9,10,0.2,0.2
2025-11-12T0500,3539A,110.5111,19.9736,海口市,桂林洋子站,,25,25,39,14,21,43,,,,10,10,8,13,0.5,0.6
2025-11-12T0500,2673A,100.6188,36.2866,海南藏族自治州,共和县恰卜恰镇,,41,41,45,22,19,52,,,,7,15,10,12,0.6,0.5
2025-11-12T0500,2676A,97.3731,37.3753,海西蒙古族藏族自治州,德令哈市,,25,22,36,17,15,63,,,,2,8,19,21,0.4,0.5
2025-11-12T0500,1048A,114.5302,36.6116,邯郸市,东污水处理厂,细颗粒物(PM2.5),170,148,124,129,108,11,,,,51,54,12,11,1.8,1
2025-11-12T0500,1049A,114.4918,36.5713,邯郸市,矿院,细颗粒物(PM2.5),160,131,117,122,105,3,,,,56,55,8,10,1.4,0.9
2025-11-12T0500,1050A,114.484,36.6133,邯郸市,丛台公园,细颗粒物(PM2.5),156,147,124,119,98,26,,,,34,44,10,12,1.3,1
2025-11-12T0500,3458A,114.7895,36.5593,邯郸市,香泉濮院小区,细颗粒物(PM2.5),103,77,135,77,96,35,,,,34,39,8,9,0.5,0.9
2025-11-12T0500,3579A,114.50634,36.77178,邯郸市,永年区实验高中,细颗粒物(PM2.5),107,144,132,80,71,40,,,,34,50,11,13,1.4,1.1
2025-11-12T0500,3580A,114.20016,36.44293,邯郸市,峰峰矿区临水派出所,细颗粒物(PM2.5),85,,93,63,92,75,,,,17,34,9,16,1.1,1.3
2025-11-12T0500,2634A,106.9893,33.1842,汉中市,汉川机床厂子校,,,,,,,,,,,,,,,,
2025-11-12T0500,2635A,107.0154,33.0706,汉中市,市监测站,颗粒物(PM10),58,66,68,23,31,14,,,,36,25,5,5,0.7,0.6
2025-11-12T0500,2636A,107.0089,33.1138,汉中市,鑫源开发区,,,65,61,31,28,13,,,,,25,11,6,0.5,0.4
2025-11-12T0500,2637A,107.007,33.0323,汉中市,南郑大河坎水厂,细颗粒物(PM2.5),93,,66,69,41,7,,,,12,22,5,5,0.6,0.6
2025-11-12T0500,1223A,120.2072,30.2111,杭州市,滨江,,39,39,32,12,11,47,,,,27,30,7,6,0.4,0.4
2025-11-12T0500,1224A,120.0633,30.2747,杭州市,西溪,,35,35,32,11,10,43,,,,26,28,8,8,0.5,0.5
2025-11-12T0500,1226A,120.3417,30.3150,杭州市,下沙,,32,32,30,8,8,43,,,,24,28,6,5,0.4,0.3
2025-11-12T0500,1227A,120.1269,30.2456,杭州市,卧龙桥,,34,34,34,11,9,51,,,,20,26,9,9,0.3,0.3
2025-11-12T0500,1228A,120.1903,30.2692,杭州市,浙江农大,,38,38,37,13,12,50,,,,29,31,8,7,0.6,0.3
2025-11-12T0500,1230A,120.1197,30.3119,杭州市,和睦小学,,27,27,28,11,13,55,,,,25,29,9,9,0.6,0.6
2025-11-12T0500,1231A,120.3019,30.4183,杭州市,临平镇,,36,36,35,18,14,50,,,,18,26,7,7,0.3,0.3
2025-11-12T0500,1232A,120.2753,30.1839,杭州市,城厢镇,,30,30,33,15,10,51,,,,33,38,8,8,0.2,0.2
2025-11-12T0500,1233A,120.0883,30.1808,杭州市,云栖,,31,31,29,13,9,54,,,,20,23,7,7,0.5,0.5
2025-11-12T0500,3557A,119.9464,30.0494,杭州市,镇二中,,29,29,24,10,10,45,,,,22,24,6,5,0.6,0.5
2025-11-12T0500,3558A,119.7183,30.2367,杭州市,市府大楼,,20,19,28,9,13,64,,,,14,23,9,9,0.5,0.5
2025-11-12T0500,3656A,120.1556,30.2864,杭州市,消防大队,,34,34,34,13,12,51,,,,26,34,9,9,0.2,0.3
2025-11-12T0500,1270A,117.1959,31.7848,合肥市,明珠广场,,36,36,43,9,16,38,,,,28,29,7,8,0.5,0.6
2025-11-12T0500,1271A,117.3072,31.8764,合肥市,三里街,,34,34,39,17,17,28,,,,32,32,6,7,0.5,0.5
2025-11-12T0500,1272A,117.2588,31.8707,合肥市,琥珀山庄,,36,36,42,20,16,32,,,,26,24,5,6,0.5,0.5
2025-11-12T0500,1273A,117.1604,31.9052,合肥市,董铺水库,,,,,,,,,,,,,,,,
2025-11-12T0500,1274A,117.25,31.8571,合肥市,长江中路,,41,41,45,18,21,37,,,,23,23,6,6,0.5,0.5
2025-11-12T0500,1275A,117.266,31.9436,合肥市,庐阳区,,39,39,43,14,16,28,,,,36,31,5,5,0.7,0.7
2025-11-12T0500,1276A,117.3453,31.8616,合肥市,瑶海区,,31,31,42,15,16,25,,,,37,34,6,6,0.4,0.5
2025-11-12T0500,1277A,117.3027,31.7964,合肥市,包河区,,41,41,44,17,19,5,,,,68,56,8,8,0.6,0.6
2025-11-12T0500,1278A,117.2776,31.7385,合肥市,滨湖新区,,31,31,41,19,21,42,,,,28,26,6,6,0.4,0.5
2025-11-12T0500,1279A,117.1318,31.8403,合肥市,高新区,,31,31,43,9,15,44,,,,23,27,6,5,0.5,0.6
2025-11-12T0500,3464A,117.3803,31.9147,合肥市,高教基地,,27,27,36,14,17,22,,,,21,21,7,8,0.4,0.5
2025-11-12T0500,3614A,79.924,37.0877,和田地区,地区环保局,颗粒物(PM10),114,178,193,78,87,68,,,,19,24,4,9,1.3,1.4
2025-11-12T0500,3615A,79.9131,37.113,和田地区,市环保局,颗粒物(PM10),128,205,232,92,87,53,,,,42,47,2,5,1.1,1
2025-11-12T0500,2516A,108.2011,24.715,河池市,东仁乐园,,,,,,,,,,,,,,,,
2025-11-12T0500,2517A,108.0497,24.6947,河池市,市环保站,,15,7,10,3,3,48,,,,5,7,5,6,0.5,0.5
2025-11-12T0500,2518A,108.0983,24.6989,河池市,市疾控中心,,17,7,6,7,4,52,,,,8,6,3,3,0.6,0.6
2025-11-12T0500,1696A,114.6778,23.7569,河源市,源西,,,,,,,,,,,,,,,,
2025-11-12T0500,1697A,114.6944,23.7586,河源市,东埔,,24,,25,16,16,75,,,,9,9,4,5,0.7,0.7
2025-11-12T0500,1698A,114.6892,23.7233,河源市,老城,,,11,28,7,17,73,,,,,7,5,5,0.7,0.7
2025-11-12T0500,1718A,115.4208,35.2464,菏泽市,气象局,细颗粒物(PM2.5),97,107,98,72,54,49,,,,43,35,4,5,0.4,0.4
2025-11-12T0500,3374A,115.5564,35.0891,菏泽市,定陶老年大学,细颗粒物(PM2.5),98,102,83,73,47,44,,,,37,37,10,5,0.5,0.5
2025-11-12T0500,4184A,115.4797,35.24401,菏泽市,永昌路1号,细颗粒物(PM2.5),89,96,89,66,51,37,,,,52,44,5,5,0.4,0.4
2025-11-12T0500,4193A,115.4715,35.2800,菏泽市,长城路999号,细颗粒物(PM2.5),83,97,87,61,44,62,,,,32,36,4,4,0.4,0.4
2025-11-12T0500,2514A,111.5264,24.4172,贺州市,环保小区,颗粒物(PM10),52,53,22,31,13,73,,,,6,8,3,4,0.6,0.6
2025-11-12T0500,2515A,111.5608,24.4078,贺州市,政协大楼,颗粒物(PM10),53,55,24,25,12,66,,,,8,9,5,5,0.6,0.6
2025-11-12T0500,3534A,111.4744,24.4553,贺州市,西湾,,48,48,18,26,9,66,,,,8,8,4,4,0.7,0.8
2025-11-12T0500,2385A,114.17,35.9019,鹤壁市,市监测站,细颗粒物(PM2.5),108,107,126,81,84,34,,,,13,28,3,6,0.7,1
2025-11-12T0500,2386A,114.2956,35.7511,鹤壁市,市交警支队,细颗粒物(PM2.5),79,91,124,58,71,14,,,,54,47,3,5,0.4,0.6
2025-11-12T0500,2387A,114.2878,35.7306,鹤壁市,迎宾馆,细颗粒物(PM2.5),83,109,132,61,70,29,,,,37,40,3,9,0.5,0.6
2025-11-12T0500,3474A,114.2617,35.6822,鹤壁市,大新区,,,70,108,63,75,19,,,,,59,4,6,0.5,0.6
2025-11-12T0500,3596A,114.1572,35.9603,鹤壁市,南山宾馆,细颗粒物(PM2.5),127,134,148,96,92,59,,,,19,26,5,11,0.6,0.9
2025-11-12T0500,2244A,130.2537,47.3416,鹤岗市,哈啤分公司,,32,25,22,22,18,36,,,,16,9,12,12,0.6,0.6
2025-11-12T0500,2245A,130.2684,47.3086,鹤岗市,斯达机电,,37,37,29,24,17,45,,,,17,15,14,13,0.6,0.7
2025-11-12T0500,2246A,130.3114,47.3388,鹤岗市,东山纸板厂,颗粒物(PM10),79,108,43,29,21,10,,,,35,24,18,13,2.2,1.2
2025-11-12T0500,2247A,130.1097,47.3382,鹤岗市,五号水库,,,,,,,,,,,,,,,,
2025-11-12T0500,2263A,127.4833,50.2524,黑河市,交通局,,30,30,29,14,19,47,,,,12,24,4,4,0.4,0.4
2025-11-12T0500,2264A,127.5144,50.2341,黑河市,环保局,,25,24,21,17,18,48,,,,10,17,8,10,0.2,0.4
2025-11-12T0500,2265A,127.5291,50.2472,黑河市,大黑河岛,,,,,,,,,,,,,,,,
2025-11-12T0500,1074A,115.6838,37.7541,衡水市,电机北厂,细颗粒物(PM2.5),105,116,151,79,97,39,,,,32,43,6,12,0.4,0.7
2025-11-12T0500,1075A,115.6303,37.7316,衡水市,市监测站,细颗粒物(PM2.5),138,117,128,105,94,19,,,,58,55,9,12,0.5,0.7
2025-11-12T0500,3188A,115.6683,37.7217,衡水市,市城管局,细颗粒物(PM2.5),124,143,138,94,88,22,,,,,50,11,14,0.6,0.8
2025-11-12T0500,3459A,115.5989,37.5491,衡水市,地表水厂,细颗粒物(PM2.5),140,151,152,107,103,2,,,,72,74,7,10,0.6,0.6
2025-11-12T0500,2456A,112.5003,26.9167,衡阳市,原169医院,,,,,,,,,,,,,,,,
2025-11-12T0500,2457A,112.6194,26.9258,衡阳市,衡阳化工总厂,细颗粒物(PM2.5),60,49,58,43,35,70,,,,16,20,7,7,0.8,0.8
2025-11-12T0500,2458A,112.6211,26.8956,衡阳市,珠晖区环保局,细颗粒物(PM2.5),57,55,56,40,27,72,,,,15,18,10,10,1.1,1
2025-11-12T0500,2459A,112.6197,26.8733,衡阳市,市委党校,颗粒物(PM10),51,51,55,30,22,68,,,,15,14,6,6,0.9,0.8
2025-11-12T0500,2460A,112.6006,26.8919,衡阳市,市监测站,颗粒物(PM10),56,62,66,32,34,70,,,,15,15,5,5,0.9,0.9
2025-11-12T0500,2461A,112.5664,26.9056,衡阳市,真空机电公司,细颗粒物(PM2.5),55,58,58,39,35,72,,,,13,11,7,7,0.9,0.9
2025-11-12T0500,3399A,112.6703,26.882,衡阳市,师范学院,颗粒物(PM10),55,60,62,30,32,74,,,,14,14,9,8,0.9,0.9
2025-11-12T0500,2608A,103.3772,23.3993,红河哈尼族彝族自治州,污水处理厂,,25,24,21,17,16,13,,,,13,9,9,14,0.5,0.4
2025-11-12T0500,2609A,103.3861,23.35,红河哈尼族彝族自治州,监测站,,21,21,18,7,9,11,,,,10,5,42,8,0.6,0.5
2025-11-12T0500,3038A,103.3758,23.368,红河哈尼族彝族自治州,州图书馆,,37,37,12,9,6,9,,,,16,6,78,9,0.6,0.4
2025-11-12T0500,1090A,111.6507,40.7517,呼和浩特市,呼市一监,颗粒物(PM10),63,75,100,39,46,5,,,,51,50,6,10,0.8,0.9
2025-11-12T0500,1091A,111.6572,40.8033,呼和浩特市,小召,颗粒物(PM10),67,83,95,47,45,5,,,,62,61,8,12,0.7,0.9
2025-11-12T0500,1094A,111.7516,40.8369,呼和浩特市,如意水处理厂,颗粒物(PM10),68,85,95,42,42,0,,,,53,58,9,14,0.6,0.8
2025-11-12T0500,1095A,111.7276,40.8062,呼和浩特市,二十九中,颗粒物(PM10),67,83,91,39,42,3,,,,55,54,10,14,0.6,0.8
2025-11-12T0500,1096A,111.5512,40.7866,呼和浩特市,工大金川校区,颗粒物(PM10),74,98,105,42,40,0,,,,58,60,7,10,0.6,0.7
2025-11-12T0500,1097A,111.717,40.7612,呼和浩特市,化肥厂生活区,颗粒物(PM10),65,79,92,42,45,1,,,,55,55,5,10,0.8,0.9
2025-11-12T0500,3698A,111.5968,40.8178,呼和浩特市,红旗小学,"颗粒物(PM10),细颗粒物(PM2.5)",67,83,93,48,44,8,,,,50,59,8,13,0.6,0.7
2025-11-12T0500,3699A,111.6518,40.8389,呼和浩特市,海东办,颗粒物(PM10),69,88,94,42,43,4,,,,50,53,6,9,0.6,0.8
2025-11-12T0500,3061A,119.7512,49.1577,呼伦贝尔市,国华电力东,,21,21,20,14,11,52,,,,6,11,8,9,0.3,0.3
2025-11-12T0500,4279A,119.7569,49.2222,呼伦贝尔市,伊敏大街东7号,,30,27,20,21,15,49,,,,2,7,5,5,0.2,0.3
2025-11-12T0500,1250A,120.0751,30.8669,湖州市,城西水厂,,28,28,23,13,11,83,,,,16,19,8,8,0.3,0.3
2025-11-12T0500,2873A,120.0830,30.8929,湖州市,仁皇山新区,,,30,24,8,7,83,,,,,20,7,6,0.3,0.3
2025-11-12T0500,2907A,120.1844,30.8596,湖州市,吴兴区站,,34,34,29,12,8,54,,,,20,21,7,7,0.4,0.4
2025-11-12T0500,3562A,120.4148,30.8538,湖州市,南浔区站,,30,30,25,10,8,74,,,,16,27,10,10,0.4,0.4
2025-11-12T0500,1607A,120.9049,40.7211,葫芦岛市,龙港区,,43,40,33,30,19,57,,,,20,33,11,16,0.6,0.6
2025-11-12T0500,1608A,120.8392,40.7514,葫芦岛市,化工街,,44,44,51,19,26,22,,,,38,39,12,17,0.5,0.7
2025-11-12T0500,1609A,120.8341,40.7073,葫芦岛市,新区,,43,37,31,30,22,32,,,,36,36,12,10,0.6,0.7
2025-11-12T0500,1610A,120.8695,40.7677,葫芦岛市,东城区,,40,40,59,22,36,7,,,,58,43,11,32,0.9,0.8
2025-11-12T0500,2482A,109.5981,27.5721,怀化市,林科所,,,,,,,,,,,,,,,,
2025-11-12T0500,2483A,109.9453,27.5444,怀化市,河西地税局,,40,40,44,18,21,16,,,,8,14,6,6,0.3,0.4
2025-11-12T0500,2484A,109.9781,27.5342,怀化市,市四医院,颗粒物(PM10),54,57,55,20,22,33,,,,9,9,9,7,0.3,0.4
2025-11-12T0500,2485A,109.9972,27.5578,怀化市,监测楼,,46,46,48,23,22,23,,,,13,16,7,4,0.2,0.2
2025-11-12T0500,2486A,110.0394,27.583,怀化市,市委党校,颗粒物(PM10),52,53,45,22,23,38,,,,13,13,14,11,0.3,0.2
2025-11-12T0500,1210A,119.036,33.5981,淮安市,钵池山,,39,39,34,18,16,8,,,,69,32,8,8,0.5,0.4
2025-11-12T0500,1211A,119.007,33.575,淮安市,北京南路,,30,29,34,21,16,14,,,,30,26,7,8,0.5,0.4
2025-11-12T0500,1212A,118.989,33.6067,淮安市,市监测站,,,31,28,19,11,0,,,,,25,7,7,0.6,0.5
2025-11-12T0500,1213A,119.135,33.5039,淮安市,楚州区监测站,,32,32,30,17,13,26,,,,30,27,8,9,0.4,0.4
2025-11-12T0500,3426A,118.8755,33.2894,淮安市,新华书店,颗粒物(PM10),61,71,38,36,13,28,,,,49,31,21,12,0.7,0.5
2025-11-12T0500,4206A,119.0288,33.6319,淮安市,承德北路606号,颗粒物(PM10),58,66,45,19,17,3,,,,65,40,7,7,0.5,0.4
2025-11-12T0500,2282A,116.8004,33.975,淮北市,监测站,颗粒物(PM10),56,62,66,24,25,48,,,,20,34,8,9,0.5,0.5
2025-11-12T0500,2283A,116.8091,33.9007,淮北市,烈山区政府,,50,50,56,30,34,42,,,,29,32,8,9,0.5,0.4
2025-11-12T0500,3330A,116.8873,33.9836,淮北市,杜集区检察院,细颗粒物(PM2.5),65,71,70,47,38,4,,,,51,29,4,6,0.5,0.3
2025-11-12T0500,4017A,116.7923,33.9535,淮北市,市博物馆,颗粒物(PM10),60,70,66,25,18,44,,,,26,30,8,9,0.4,0.4
2025-11-12T0500,2277A,116.8305,32.7727,淮南市,潘集区政府,颗粒物(PM10),56,62,52,38,29,37,,,,26,21,8,6,0.5,0.4
2025-11-12T0500,2279A,116.8569,32.5951,淮南市,谢家集区政府,,20,13,33,9,13,61,,,,12,25,7,7,0.3,0.4
2025-11-12T0500,2280A,116.8281,32.633,淮南市,八公山区政府,,50,50,47,27,17,55,,,,19,22,10,9,0.4,0.3
2025-11-12T0500,2281A,116.6325,32.6201,淮南市,焦岗湖风景区管理处,,,,,,,,,,,,,,,,
2025-11-12T0500,2894A,117.0566,32.6531,淮南市,经济技术开发区消防队,,,46,47,14,12,42,,,,,25,6,7,0.1,0.1
2025-11-12T0500,3329A,117.0108,32.5893,淮南市,山南新区,,29,29,34,3,4,70,,,,20,21,4,4,0.3,0.2
2025-11-12T0500,4209A,117.0031,32.6445,淮南市,国庆中路369号,,34,34,36,13,15,53,,,,15,20,8,8,0.4,0.4
2025-11-12T0500,2446A,114.9028,30.4742,黄冈市,职工中心,,26,26,49,16,28,78,,,,11,16,4,4,0.5,0.6
2025-11-12T0500,2929A,114.8858,30.4519,黄冈市,红卫路,,28,25,48,19,33,79,,,,9,15,6,6,0.4,0.5
2025-11-12T0500,3398A,114.9136,30.4445,黄冈市,市林业局,,26,26,50,18,31,80,,,,11,16,5,4,0.4,0.5
2025-11-12T0500,2672A,102.0199,35.5102,黄南藏族自治州,同仁县隆务镇,颗粒物(PM10),60,69,46,32,22,56,,,,2,5,10,10,0.5,0.4
2025-11-12T0500,2295A,118.2903,29.6963,黄山市,延安路89号,,24,24,23,14,15,54,,,,10,11,4,4,0.4,0.4
2025-11-12T0500,2297A,118.1371,30.2756,黄山市,黄山区政府5号楼,,30,,33,21,23,18,,,,6,8,5,5,0.4,0.4
2025-11-12T0500,4210A,118.3354,29.7203,黄山市,滨江东路7-2号,,37,37,44,9,22,50,,,,11,11,4,4,0.3,0.3
2025-11-12T0500,2423A,115.0601,30.2313,黄石市,沈家营,,37,37,69,17,31,56,,,,3,9,9,8,0.5,0.6
2025-11-12T0500,2426A,114.8988,30.2019,黄石市,铁山,,36,36,61,24,37,62,,,,12,25,9,8,0.6,0.5
2025-11-12T0500,2427A,115.0307,30.2092,黄石市,团城山,,36,36,59,19,30,55,,,,11,13,10,8,0.5,0.7
2025-11-12T0500,3149A,115.0235,30.1578,黄石市,笔架山北路,,40,40,82,12,32,67,,,,6,11,8,6,0.7,0.8
2025-11-12T0500,4185A,115.0780,30.21118,黄石市,磁湖东路29号,,36,36,63,24,35,64,,,,6,13,8,10,0.4,0.6
2025-11-12T0500,1392A,114.4183,23.0528,惠州市,河南岸金山湖子站,,,18,29,10,15,64,,,,,17,11,11,0.7,0.6
2025-11-12T0500,1393A,114.4053,23.0822,惠州市,下埔横江三路子站,,28,20,30,12,16,88,,,,7,8,7,6,0.8,0.7
2025-11-12T0500,1394A,114.4103,23.1142,惠州市,江北云山西路子站,,23,20,28,12,16,71,,,,10,11,6,6,0.6,0.5
2025-11-12T0500,1395A,114.4645,22.7833,惠州市,惠阳区承修路船湖子站,,,15,31,10,17,74,,,,,14,10,10,0.8,0.8
2025-11-12T0500,1396A,114.5317,22.7422,惠州市,大亚湾管委会子站,,,14,28,9,18,71,,,,,11,10,11,0.6,0.6
2025-11-12T0500,3314A,114.4338,22.8134,惠州市,惠阳秋长,,,14,32,10,16,77,,,,8,10,,15,0.7,0.7
2025-11-12T0500,3452A,114.6517,22.775,惠州市,大亚湾霞涌,,,21,30,9,18,64,,,,8,8,,10,0.6,0.6
2025-11-12T0500,2240A,130.9762,45.3001,鸡西市,环保局,,42,35,30,29,22,12,,,,27,17,8,6,1.1,0.7
2025-11-12T0500,2243A,130.9429,45.3039,鸡西市,第一中学,,35,29,32,24,22,44,,,,9,10,6,6,0.6,0.6
2025-11-12T0500,3707A,131.0207,45.3073,鸡西市,欧美日汽修厂,,43,39,43,30,32,2,,,,32,23,9,9,0.9,0.7
2025-11-12T0500,3709A,130.9967,45.3106,鸡西市,市政设施管理处,,38,38,38,18,26,3,,,,36,28,9,9,0.9,0.8
2025-11-12T0500,2367A,114.9754,27.0803,吉安市,红声器材厂,,44,44,62,18,28,73,,,,16,19,8,9,0.5,0.6
2025-11-12T0500,2368A,114.9658,27.0999,吉安市,市森林工业局,,42,42,63,22,30,71,,,,13,16,9,9,0.4,0.5
2025-11-12T0500,2369A,114.99,27.1312,吉安市,市环境监测站,,41,41,58,22,28,70,,,,13,15,16,15,0.5,0.6
2025-11-12T0500,2370A,115.0093,27.0968,吉安市,青原区法院,,38,38,59,20,30,70,,,,16,16,11,11,0.7,0.7
2025-11-12T0500,1772A,126.54,43.8622,吉林市,哈达湾,细颗粒物(PM2.5),122,109,152,92,120,61,,,,20,39,10,16,0.8,1
2025-11-12T0500,1773A,126.5844,43.8358,吉林市,东局子,细颗粒物(PM2.5),109,99,140,82,118,60,,,,16,35,9,13,0.8,1.1
2025-11-12T0500,1774A,126.5052,43.8245,吉林市,电力学院,细颗粒物(PM2.5),180,147,171,136,149,19,,,,30,41,7,12,1.2,1.2
2025-11-12T0500,1775A,126.6133,43.8972,吉林市,江北,细颗粒物(PM2.5),124,111,151,94,125,35,,,,23,40,4,7,0.9,1
2025-11-12T0500,1776A,126.555,43.8306,吉林市,江南公园,细颗粒物(PM2.5),127,102,151,96,129,53,,,,20,42,7,12,0.6,1
2025-11-12T0500,1778A,126.7061,43.7133,吉林市,丰满,,,,,,,,,,,,,,,,
2025-11-12T0500,2868A,126.4739,43.953,吉林市,九站,细颗粒物(PM2.5),132,116,144,100,119,57,,,,27,44,8,13,0.6,0.8
2025-11-12T0500,1299A,116.9862,36.6114,济南市,科干所,颗粒物(PM10),63,75,71,37,32,93,,,,15,20,13,11,0.5,0.5
2025-11-12T0500,1300A,116.9376,36.665,济南市,农科所,颗粒物(PM10),66,81,86,37,36,30,,,,43,50,8,9,0.7,0.7
2025-11-12T0500,1301A,117.1265,36.6734,济南市,开发区,颗粒物(PM10),59,68,83,39,42,61,,,,26,45,4,5,0.6,0.7
2025-11-12T0500,1303A,117.0624,36.6868,济南市,省种子仓库,颗粒物(PM10),68,85,110,41,45,6,,,,79,64,8,9,0.7,0.9
2025-11-12T0500,1304A,116.9489,36.6447,济南市,机床二厂,颗粒物(PM10),75,100,108,49,51,23,,,,56,60,11,12,0.5,0.5
2025-11-12T0500,1305A,117.0495,36.663,济南市,市监测站,颗粒物(PM10),63,76,86,37,43,32,,,,54,59,4,5,0.9,1
2025-11-12T0500,1306A,116.7675,36.5484,济南市,长清党校,颗粒物(PM10),66,81,79,34,34,41,,,,54,43,11,11,0.6,0.6
2025-11-12T0500,1616A,117.6795,36.229,济南市,技术学院,细颗粒物(PM2.5),77,83,98,56,56,1,,,,68,57,11,16,0.8,0.9
2025-11-12T0500,1961A,117.532,36.6868,济南市,东山小学,颗粒物(PM10),74,98,93,49,43,64,,,,29,42,12,9,0.6,0.6
2025-11-12T0500,3059A,117.7161,36.2049,济南市,泰兴公司,细颗粒物(PM2.5),79,78,105,58,60,2,,,,44,51,8,11,0.6,0.9
2025-11-12T0500,3064A,117.6867,36.2171,济南市,莱芜战役纪念馆,细颗粒物(PM2.5),85,92,104,63,63,6,,,,61,52,10,14,0.9,1
2025-11-12T0500,3494A,117.1673,36.9782,济南市,济阳区政府,"颗粒物(PM10),细颗粒物(PM2.5)",85,120,105,63,49,4,,,,92,53,9,9,0.7,0.6
2025-11-12T0500,3495A,117.1171,36.63,济南市,锦屏中学,颗粒物(PM10),58,66,69,32,31,66,,,,19,22,3,4,0.5,0.6
2025-11-12T0500,3682A,116.9814,36.6819,济南市,济南四建,颗粒物(PM10),69,88,91,44,45,38,,,,45,50,8,8,0.9,0.9
2025-11-12T0500,1653A,116.6251,35.4302,济宁市,火炬城,细颗粒物(PM2.5),98,85,68,73,46,36,,,,34,26,9,9,0.3,0.3
2025-11-12T0500,1655A,116.5491,35.4042,济宁市,电化厂,,,105,95,56,45,13,,,,,38,11,9,0.4,0.3
2025-11-12T0500,3500A,116.5814,35.3707,济宁市,北湖一中,细颗粒物(PM2.5),77,72,61,56,43,2,,,,62,28,6,9,0.4,0.4
2025-11-12T0500,3501A,116.8249,35.5593,济宁市,服务中心,颗粒物(PM10),86,121,97,62,44,2,,,,57,45,7,9,0.7,0.6
2025-11-12T0500,3678A,116.5907,35.4054,济宁市,市第七中学,细颗粒物(PM2.5),85,100,81,63,40,5,,,,74,48,9,11,0.6,0.6
2025-11-12T0500,2255A,130.2751,46.8028,佳木斯市,佳纺,,40,37,55,28,44,14,,,,32,24,4,5,0.6,0.6
2025-11-12T0500,2256A,130.3995,46.8307,佳木斯市,发电厂,,48,37,40,33,32,30,,,,22,20,6,7,0.6,0.6
2025-11-12T0500,2257A,130.3258,46.7975,佳木斯市,环保局,,45,34,40,31,35,42,,,,15,20,5,4,0.4,0.4
2025-11-12T0500,2258A,130.3648,46.8032,佳木斯市,十一中,,43,31,38,30,36,30,,,,19,21,7,8,0.4,0.5
2025-11-12T0500,2259A,130.3794,46.7588,佳木斯市,四丰,,,,,,,,,,,,,,,,
2025-11-12T0500,1252A,120.7436,30.778,嘉兴市,清河小学,,,33,29,11,9,59,,,,,25,8,8,0.4,0.3
2025-11-12T0500,1253A,120.726,30.7478,嘉兴市,嘉兴学院,,34,34,28,11,10,53,,,,28,32,6,6,0.4,0.3
2025-11-12T0500,2872A,120.7846,30.7525,嘉兴市,南湖区残联,,27,27,26,11,8,53,,,,19,25,7,6,0.6,0.5
2025-11-12T0500,3407A,120.6916,30.7739,嘉兴市,秀洲住建,,35,35,29,14,9,58,,,,19,29,10,9,0.5,0.5
2025-11-12T0500,1945A,98.2908,39.7711,嘉峪关市,气象局,颗粒物(PM10),63,75,84,17,18,76,,,,11,19,7,24,0.3,0.6
2025-11-12T0500,2884A,98.2672,39.7978,嘉峪关市,酒钢宾馆,颗粒物(PM10),64,78,112,19,24,63,,,,11,14,15,42,0.6,0.8
2025-11-12T0500,3248A,98.2643,39.7724,嘉峪关市,雄关区,颗粒物(PM10),57,63,66,28,25,48,,,,38,24,14,26,0.5,0.6
2025-11-12T0500,1383A,113.1064,22.6058,江门市,北街,,16,14,20,11,9,42,,,,22,21,7,7,0.5,0.6
2025-11-12T0500,1384A,113.0731,22.5835,江门市,西区,,,14,17,3,8,43,,,,,19,7,6,0.7,0.8
2025-11-12T0500,1385A,113.0219,22.5311,江门市,圭峰西,,,15,19,8,8,50,,,,,14,6,6,0.6,0.6
2025-11-12T0500,1386A,113.0828,22.5947,江门市,东湖,,20,20,17,8,9,39,,,,15,18,8,8,0.4,0.5
2025-11-12T0500,3311A,113.1075,22.5647,江门市,江海富民,,19,19,19,6,9,43,,,,20,22,10,10,0.7,0.7
2025-11-12T0500,3449A,113.05,22.4667,江门市,新会银湖,,17,17,21,11,10,44,,,,13,17,6,6,0.6,0.7
2025-11-12T0500,1830A,113.1992,35.2590,焦作市,影视城,,,,124,,57,,,75,,,27,,17,,0.8
2025-11-12T0500,3335A,113.3137,35.2641,焦作市,马村街道办,细颗粒物(PM2.5),99,105,142,74,86,34,,,,22,32,4,8,0.6,0.8
2025-11-12T0500,3336A,113.2465,35.2373,焦作市,焦作技师学院,细颗粒物(PM2.5),94,118,141,70,81,28,,,,35,39,3,6,0.5,0.8
2025-11-12T0500,3477A,113.1656,35.2539,焦作市,中站许衡医院,细颗粒物(PM2.5),94,128,128,70,71,90,,,,14,29,8,10,0.5,0.7
2025-11-12T0500,3981A,113.2449,35.1803,焦作市,原李万街道办,细颗粒物(PM2.5),110,148,151,83,81,18,,,,34,34,8,10,0.6,0.7
2025-11-12T0500,4264A,113.2340,35.2190,焦作市,新安路1731号,细颗粒物(PM2.5),123,147,157,93,88,28,,,,27,32,6,9,1.0,1
2025-11-12T0500,4295A,113.2722,35.2121,焦作市,人民路3066号,,,129,146,71,73,28,,,,,34,5,7,0.9,1
2025-11-12T0500,1708A,116.3701,23.5345,揭阳市,新兴,,25,,27,17,16,43,,,,8,13,7,7,0.5,0.6
2025-11-12T0500,1709A,116.3264,23.5443,揭阳市,西马,,24,24,32,16,18,47,,,,6,12,3,4,0.6,0.6
2025-11-12T0500,1710A,116.3611,23.5626,揭阳市,东兴,,24,24,31,12,13,37,,,,11,17,6,6,0.4,0.4
2025-11-12T0500,1711A,116.4151,23.5294,揭阳市,渔湖,,22,17,26,15,14,41,,,,9,12,4,4,0.6,0.6
2025-11-12T0500,3320A,116.403,23.5699,揭阳市,曲溪,,16,12,24,11,14,41,,,,11,10,1,1,0.5,0.5
2025-11-12T0500,1944A,102.1692,38.5167,金昌市,天庆家园,颗粒物(PM10),67,83,97,17,29,66,,,,6,18,2,11,0.5,0.7
2025-11-12T0500,4022A,102.1647,38.5371,金昌市,金川区人防中心,颗粒物(PM10),58,65,82,17,33,69,,,,4,13,3,10,0.7,0.8
2025-11-12T0500,4239A,102.1930,38.5319,金昌市,长春路96号,颗粒物(PM10),62,73,71,17,22,72,,,,4,11,5,14,0.4,0.6
2025-11-12T0500,1262A,119.647,29.077,金华市,十五中,,32,32,30,10,12,45,,,,19,20,3,3,0.3,0.3
2025-11-12T0500,1263A,119.686,29.1029,金华市,监测站,,,32,29,14,11,49,,,,,24,2,2,0.4,0.4
2025-11-12T0500,3659A,119.656,29.1131,金华市,气象局,,,31,27,13,10,43,,,,,25,4,4,0.4,0.4
2025-11-12T0500,1767A,121.1115,41.0879,锦州市,南山,,45,40,35,31,30,9,,,,54,41,10,12,0.7,0.8
2025-11-12T0500,1768A,121.0604,40.8428,锦州市,开发区,颗粒物(PM10),55,60,51,36,25,7,,,,62,43,38,19,1.0,0.6
2025-11-12T0500,1769A,121.1836,41.1119,锦州市,百股街道,,39,39,37,27,25,25,,,,42,33,12,14,0.7,0.8
2025-11-12T0500,1770A,121.1178,41.1222,锦州市,天安街道,细颗粒物(PM2.5),54,47,50,38,39,1,,,,53,39,10,14,1.0,1.1
2025-11-12T0500,1771A,121.1303,41.1386,锦州市,北湖公园,,50,40,41,35,30,10,,,,52,43,9,12,0.7,0.8
2025-11-12T0500,2160A,112.85,35.5051,晋城市,自来水公司,细颗粒物(PM2.5),113,154,108,85,51,34,,,,27,38,7,9,1.2,1
2025-11-12T0500,2161A,112.8318,35.4936,晋城市,白云商贸,细颗粒物(PM2.5),110,151,119,83,43,26,,,,24,35,2,4,1.0,0.8
2025-11-12T0500,2162A,112.8508,35.4887,晋城市,市环保局,细颗粒物(PM2.5),104,135,114,78,50,19,,,,30,38,4,6,0.9,1
2025-11-12T0500,2163A,112.8676,35.4897,晋城市,技术学院,细颗粒物(PM2.5),94,127,111,70,51,8,,,,49,42,6,8,1.0,1
2025-11-12T0500,2165A,112.8453,35.546,晋城市,白马寺,细颗粒物(PM2.5),122,145,88,92,52,98,,,,16,16,11,11,0.9,0.6
2025-11-12T0500,3620A,112.8271,35.4828,晋城市,泽州一中,细颗粒物(PM2.5),119,149,101,90,51,36,,,,26,33,3,5,0.8,0.6
2025-11-12T0500,2173A,112.7249,37.7067,晋中市,南都小区,颗粒物(PM10),61,72,95,29,41,16,,,,37,48,12,15,0.7,0.9
2025-11-12T0500,2174A,112.6991,37.6982,晋中市,榆次区政府,,,63,102,38,49,14,,,,,45,10,13,0.6,1.2
2025-11-12T0500,2865A,112.7195,37.6828,晋中市,榆次三中,颗粒物(PM10),53,56,93,19,37,13,,,,25,42,10,16,0.3,0.8
2025-11-12T0500,4200A,112.7478,37.6954,晋中市,迎宾街26号,,48,48,87,19,36,25,,,,25,38,8,13,0.7,1
2025-11-12T0500,2439A,112.2014,31.0481,荆门市,竹园小学,颗粒物(PM10),52,53,82,29,38,62,,,,19,22,1,2,0.3,0.2
2025-11-12T0500,2440A,112.1969,30.9891,荆门市,掇刀,,,57,78,40,79,78,,,,13,15,,1,0.3,0.4
2025-11-12T0500,2441A,112.2213,31.0386,荆门市,石化一小,,,76,91,30,42,51,,,,21,20,11,7,,0.1
2025-11-12T0500,3012A,112.1849,31.0362,荆门市,西山林语,,,57,81,29,37,67,,,,14,14,,7,0.4,0.5
2025-11-12T0500,3547A,112.1632,31.0138,荆门市,龙泉中学南校,,,61,86,29,38,79,,,,16,17,,9,0.2,0.4
2025-11-12T0500,1844A,112.2494,30.3197,荆州市,市图书馆,,46,46,54,29,38,58,,,,22,21,8,7,0.6,0.6
2025-11-12T0500,1845A,112.2008,30.3544,荆州市,市委党校,,45,45,61,29,36,56,,,,22,23,8,8,0.5,0.6
2025-11-12T0500,3194A,112.2747,30.3122,荆州市,管委会,,39,36,56,27,37,61,,,,16,20,8,7,0.4,0.5
2025-11-12T0500,4268A,112.1722,30.3366,荆州市,学苑路85号,颗粒物(PM10),52,53,60,27,37,71,,,,15,17,11,11,0.2,0.2
2025-11-12T0500,2342A,117.3102,29.3867,景德镇市,王港中学,,,,,,,,,,,,,,,,
2025-11-12T0500,2343A,117.2117,29.2933,景德镇市,老干部活动中心,,17,16,36,11,21,52,,,,3,5,4,4,0.4,0.4
2025-11-12T0500,2344A,117.1894,29.2789,景德镇市,兽医站,,32,32,45,11,20,61,,,,7,8,5,6,0.3,0.4
2025-11-12T0500,2346A,117.2461,29.2956,景德镇市,陶研所,,23,,34,16,24,47,,,,2,5,7,7,0.2,0.3
2025-11-12T0500,4289A,117.1542,29.2566,景德镇市,青少年活动中心,,27,27,38,9,24,45,,,,19,10,3,3,0.4,0.5
2025-11-12T0500,1803A,115.9872,29.6815,九江市,十里,,40,40,47,27,26,66,,,,18,19,6,6,0.6,0.7
2025-11-12T0500,1804A,115.9584,29.7046,九江市,茅山头,,36,36,43,21,24,54,,,,16,16,5,5,0.6,0.7
2025-11-12T0500,1805A,115.9877,29.7295,九江市,西园,,36,36,38,16,19,63,,,,28,27,4,4,0.6,0.6
2025-11-12T0500,1808A,115.9114,29.6038,九江市,综合工业园,,33,32,46,23,26,65,,,,17,20,4,4,0.5,0.5
2025-11-12T0500,1809A,116.0721,29.7535,九江市,石化总厂,,42,42,53,23,22,57,,,,19,20,5,6,0.5,0.6
2025-11-12T0500,1810A,115.9773,29.5698,九江市,庐山气象台,,,,,,,,,,,,,,,,
2025-11-12T0500,3190A,116.0254,29.6994,九江市,外国语学校,,42,42,39,24,25,46,,,,29,30,4,4,0.5,0.5
2025-11-12T0500,4253A,116.0102,29.6594,九江市,莲花大道8号,,43,43,51,17,20,53,,,,15,14,7,7,0.5,0.5
2025-11-12T0500,4240A,98.4958,39.7339,酒泉市,玉门东路5号,颗粒物(PM10),67,83,100,25,22,57,,,,9,16,9,15,0.2,0.4
2025-11-12T0500,4241A,98.5099,39.7506,酒泉市,北大街108号,颗粒物(PM10),56,61,108,21,22,52,,,,10,15,12,16,0.2,0.5
2025-11-12T0500,2698A,76.0072,39.4467,喀什地区,巡警大队,颗粒物(PM10),153,256,310,104,116,22,,,,80,58,7,11,1.7,1.4
2025-11-12T0500,2699A,75.9755,39.4694,喀什地区,吾办,颗粒物(PM10),156,261,295,99,112,5,,,,88,63,5,10,2.0,1.5
2025-11-12T0500,4027A,75.9483,39.4689,喀什地区,老干局,颗粒物(PM10),165,280,273,104,91,3,,,,82,54,4,7,3.6,2
2025-11-12T0500,1824A,114.3389,34.7781,开封市,肿瘤医院,细颗粒物(PM2.5),80,98,89,59,52,10,,,,67,46,10,11,0.7,0.7
2025-11-12T0500,1826A,114.2885,34.7965,开封市,世纪星幼儿园,细颗粒物(PM2.5),99,91,80,74,67,8,,,,70,42,8,9,0.6,0.7
2025-11-12T0500,3147A,114.3438,34.8106,开封市,龙亭公园,细颗粒物(PM2.5),100,82,104,75,69,16,,,,40,40,9,11,0.4,0.5
2025-11-12T0500,3210A,114.3644,34.7964,开封市,汴京公园,细颗粒物(PM2.5),85,104,96,63,57,3,,,,71,48,9,9,0.7,0.7
2025-11-12T0500,3473A,114.2485,34.8306,开封市,技师学院,细颗粒物(PM2.5),74,67,72,54,56,41,,,,44,29,9,9,0.8,0.8
2025-11-12T0500,3592A,114.4644,34.7556,开封市,祥符区生态环境局,细颗粒物(PM2.5),84,112,101,62,60,2,,,,86,60,7,7,0.7,0.7
2025-11-12T0500,1951A,84.895,45.6094,克拉玛依市,长征新村,,13,,20,9,7,30,,,,6,12,5,4,0.1,0.4
2025-11-12T0500,1952A,84.8988,45.5893,克拉玛依市,南林小区,,11,11,18,6,10,21,,,,9,11,4,4,0.4,0.3
2025-11-12T0500,1954A,84.905,44.3396,克拉玛依市,独山子区,颗粒物(PM10),51,52,50,35,24,37,,,,17,27,4,6,0.5,0.6
2025-11-12T0500,1955A,85.6979,46.098,克拉玛依市,乌尔禾区商贸楼,,10,,14,7,5,21,,,,11,7,5,5,0.5,0.4
2025-11-12T0500,3612A,85.1045,45.6899,克拉玛依市,白碱滩区新站,,12,7,26,3,14,37,,,,5,12,5,6,0.3,0.3
2025-11-12T0500,2697A,76.1454,39.7142,克孜勒苏柯尔克孜自治州,市人民政府,颗粒物(PM10),142,234,247,99,116,66,,,,11,30,12,15,0.3,0.4
2025-11-12T0500,3665A,76.1658,39.7157,克孜勒苏柯尔克孜自治州,克州文化中心,颗粒物(PM10),137,224,247,85,92,65,,,,9,29,16,21,0.4,0.8
2025-11-12T0500,1450A,102.8204,24.8886,昆明市,呈贡新区,,23,,18,16,15,10,,,,27,19,4,4,0.7,0.7
2025-11-12T0500,1451A,102.6251,24.9608,昆明市,西山森林公园,,,,,,,,,,,,,,,,
2025-11-12T0500,1452A,102.7252,25.0902,昆明市,龙泉镇,,17,17,22,3,7,2,,,,13,18,2,3,0.4,0.5
2025-11-12T0500,1453A,102.7266,25.0375,昆明市,东风东路,,27,27,19,11,13,1,,,,26,18,1,2,0.5,0.5
2025-11-12T0500,1454A,102.6742,25.0669,昆明市,金鼎山,,25,25,35,9,10,5,,,,20,18,1,2,0.6,0.5
2025-11-12T0500,1455A,102.6644,25.0401,昆明市,碧鸡广场,,13,13,27,6,16,25,,,,14,23,2,2,0.4,0.5
2025-11-12T0500,3179A,102.7494,25.0119,昆明市,官渡区博物馆,,39,39,25,14,12,1,,,,33,19,3,3,0.8,0.6
2025-11-12T0500,3375A,102.8017,24.8336,昆明市,青年创业园,,13,13,13,3,7,7,,,,16,13,1,2,0.6,0.7
2025-11-12T0500,3550A,102.7997,24.9786,昆明市,昆明学院,颗粒物(PM10),53,55,27,26,14,1,,,,27,22,1,2,0.7,0.6
2025-11-12T0500,3551A,102.5967,24.6736,昆明市,晋宁区生态环境分局,,29,29,21,12,9,4,,,,27,15,7,7,0.6,0.5
2025-11-12T0500,3552A,102.6678,24.9856,昆明市,云天化总部,,11,11,14,7,9,27,,,,10,14,4,5,0.6,0.6
2025-11-12T0500,1456A,91.1319,29.6514,拉萨市,八廓街,,20,14,31,10,21,61,,,,10,27,6,7,0.2,0.4
2025-11-12T0500,1457A,91.1221,29.6747,拉萨市,市环保局,,16,16,41,11,21,36,,,,17,24,8,8,0.5,0.8
2025-11-12T0500,1458A,91.0874,29.6475,拉萨市,区监测站,,19,10,23,8,13,58,,,,20,39,5,6,0.3,0.5
2025-11-12T0500,1459A,91.1774,29.6541,拉萨市,西藏大学,,19,12,19,3,12,59,,,,12,25,5,6,0.2,0.3
2025-11-12T0500,1460A,90.9798,29.6588,拉萨市,区辐射站,,15,13,41,7,22,48,,,,16,36,5,7,0.3,0.5
2025-11-12T0500,1461A,91.0834,29.6292,拉萨市,拉萨火车站,,24,20,22,14,12,14,,,,48,31,6,6,1.1,0.7
2025-11-12T0500,2520A,109.2203,23.7256,来宾市,来宾技工学校,,15,13,12,3,4,47,,,,5,5,10,10,0.5,0.6
2025-11-12T0500,3535A,109.1781,23.7297,来宾市,兴宾区政府,,16,13,11,8,6,49,,,,4,5,9,9,0.5,0.5
2025-11-12T0500,4002A,109.2416,23.7461,来宾市,中南小学,,19,19,15,8,7,48,,,,5,7,8,9,0.5,0.6
2025-11-12T0500,1477A,104.1373,35.9454,兰州市,榆中兰大校区,,,,,,,,,,,,,,,,
2025-11-12T0500,1479A,103.831,36.0464,兰州市,铁路设计院,,,,,,,,,,,,,,,,
2025-11-12T0500,3241A,103.7439,36.0842,兰州市,百合公园,颗粒物(PM10),70,90,81,43,48,13,,,,44,48,5,10,1.2,1.3
2025-11-12T0500,3242A,103.9611,35.998,兰州市,和平,颗粒物(PM10),71,91,82,35,44,22,,,,38,36,6,7,0.5,0.7
2025-11-12T0500,4236A,103.6293,36.0938,兰州市,庄浪东路808号,颗粒物(PM10),73,95,90,48,50,22,,,,51,56,15,14,0.6,0.8
2025-11-12T0500,4237A,103.7251,36.1043,兰州市,安宁西路88号,颗粒物(PM10),75,99,85,50,51,19,,,,44,48,6,9,0.5,0.7
2025-11-12T0500,4238A,103.8470,36.0676,兰州市,北滨河东路1号,细颗粒物(PM2.5),72,91,79,52,44,6,,,,63,57,10,11,0.8,1.1
2025-11-12T0500,3245A,103.6633,36.533,兰州新区,新区管委会,颗粒物(PM10),55,59,87,31,48,64,,,,11,20,9,15,0.3,0.5
2025-11-12T0500,3246A,103.6975,36.4789,兰州新区,舟曲中学,颗粒物(PM10),52,54,79,18,40,61,,,,18,26,48,12,0.2,0.4
2025-11-12T0500,1067A,116.6708,39.5111,廊坊市,药材公司,颗粒物(PM10),55,60,164,36,109,1,,,,51,85,4,9,0.9,1.1
2025-11-12T0500,1068A,116.7214,39.5589,廊坊市,开发区,细颗粒物(PM2.5),67,71,144,48,96,1,,,,50,72,2,4,0.8,0.9
2025-11-12T0500,1070A,116.7244,39.5269,廊坊市,北华航天学院,颗粒物(PM10),64,78,179,39,108,1,,,,53,80,4,6,0.8,1.1
2025-11-12T0500,2919A,116.7022,39.5453,廊坊市,河北工业大学,颗粒物(PM10),66,81,169,47,100,0,,,,51,79,5,7,0.8,0.9
2025-11-12T0500,2535A,103.7723,29.5462,乐山市,花湖湾,,,,,,,,,,,,,,,,
2025-11-12T0500,2536A,103.7627,29.5844,乐山市,牛耳桥,,32,30,35,22,23,47,,,,11,25,5,7,0.5,0.6
2025-11-12T0500,2537A,103.7508,29.6006,乐山市,市第三水厂,,36,36,39,22,21,43,,,,12,23,5,6,0.6,0.7
2025-11-12T0500,2538A,103.7571,29.5664,乐山市,市监测站,,32,32,33,22,20,45,,,,8,15,7,7,0.6,0.7
2025-11-12T0500,3361A,103.7311,29.5628,乐山市,理工大学,,31,31,30,21,19,44,,,,9,18,7,8,0.4,0.5
2025-11-12T0500,2598A,100.2143,26.8576,丽江市,西南郊,,19,17,24,13,12,45,,,,7,9,6,6,0.6,0.9
2025-11-12T0500,2599A,100.2497,26.8802,丽江市,丽江古城,,21,21,24,11,8,45,,,,11,12,14,10,0.4,0.4
2025-11-12T0500,2600A,100.2203,26.8906,丽江市,市中心,,24,24,15,6,8,43,,,,9,14,11,11,0.3,0.4
2025-11-12T0500,1267A,119.914,28.4514,丽水市,监测站大楼,,15,15,20,10,12,43,,,,10,11,5,5,0.4,0.4
2025-11-12T0500,1268A,119.93,28.4586,丽水市,莲都小学,,15,14,19,6,9,45,,,,10,12,4,4,0.2,0.3
2025-11-12T0500,1269A,119.879,28.4231,丽水市,余庄前,,12,12,18,3,8,28,,,,9,13,4,3,0.3,0.4
2025-11-12T0500,1173A,119.176,34.5885,连云港市,市环境监测站,,39,39,40,19,16,0,,,,59,31,7,9,0.7,0.7
2025-11-12T0500,3000A,119.3581,34.6972,连云港市,德源药业,,34,34,42,9,12,0,,,,51,40,5,5,0.4,0.4
2025-11-12T0500,3007A,119.178,34.844,连云港市,新城一中,细颗粒物(PM2.5),80,78,56,59,28,23,,,,42,51,12,10,0.7,0.6
2025-11-12T0500,3008A,119.3608,34.7519,连云港市,胡沟管理处,,24,19,32,3,9,39,,,,48,42,7,10,0.4,0.4
2025-11-12T0500,3009A,119.1478,34.5911,连云港市,矿山设计院,,48,48,46,19,16,0,,,,31,20,6,7,0.7,0.5
2025-11-12T0500,3434A,119.2413,34.6539,连云港市,工贸学校,,23,23,33,8,13,62,,,,10,20,8,10,0.6,0.6
2025-11-12T0500,3664A,119.4172,34.7341,连云港市,连云街道,,22,22,34,8,12,70,,,,10,27,6,8,0.2,0.2
2025-11-12T0500,2571A,102.3431,27.8099,凉山彝族自治州,青龙寺,,,,,,,,,,,,,,,,
2025-11-12T0500,2572A,102.2721,27.8415,凉山彝族自治州,邛海宾馆,,16,16,17,10,10,48,,,,7,9,5,6,0.5,0.5
2025-11-12T0500,2573A,102.2625,27.898,凉山彝族自治州,西昌市政府,,17,17,19,7,15,29,,,,8,11,9,9,0.9,0.6
2025-11-12T0500,2574A,102.2685,27.8851,凉山彝族自治州,凉山州政府,,20,17,22,14,14,28,,,,8,9,9,9,0.8,0.7
2025-11-12T0500,4229A,102.2342,27.8859,凉山彝族自治州,凯乐南路30号,,16,16,22,8,11,33,,,,14,16,9,7,0.7,0.6
2025-11-12T0500,2212A,123.2,41.1953,辽阳市,宏伟区,颗粒物(PM10),54,57,67,37,37,70,,,,10,24,9,13,0.6,0.7
2025-11-12T0500,2213A,123.1683,41.2495,辽阳市,新华园,颗粒物(PM10),63,76,78,35,55,55,,,,18,35,8,11,0.4,0.7
2025-11-12T0500,2214A,123.2354,41.2639,辽阳市,滨河路,,38,31,65,26,40,52,,,,14,32,7,12,0.6,0.6
2025-11-12T0500,2215A,123.149,41.2991,辽阳市,铁西工业园,细颗粒物(PM2.5),65,58,77,47,58,55,,,,15,39,10,11,0.6,0.8
2025-11-12T0500,2227A,125.1358,42.8845,辽源市,环保局,细颗粒物(PM2.5),144,170,163,110,99,18,,,,37,42,6,8,1.2,1.1
2025-11-12T0500,3239A,125.0764,42.9078,辽源市,银鹰制药,细颗粒物(PM2.5),165,141,123,125,98,10,,,,43,44,5,7,1.2,1.1
2025-11-12T0500,1625A,115.9848,36.4372,聊城市,区政府,细颗粒物(PM2.5),99,124,111,74,62,22,,,,61,47,12,12,0.7,0.7
2025-11-12T0500,2878A,116.0072,36.4343,聊城市,聊大东校,细颗粒物(PM2.5),117,146,125,88,67,12,,,,74,50,9,11,0.8,0.8
2025-11-12T0500,3200A,115.9819,36.4978,聊城市,监控中心,细颗粒物(PM2.5),89,108,110,66,61,43,,,,47,44,13,13,0.7,0.8
2025-11-12T0500,3513A,116.0445,36.4361,聊城市,九州社区,细颗粒物(PM2.5),103,132,116,77,61,22,,,,62,39,6,6,0.6,0.6
2025-11-12T0500,4018A,116.0567,36.4608,聊城市,星美广场,细颗粒物(PM2.5),99,128,114,74,55,26,,,,50,34,6,6,0.6,0.5
2025-11-12T0500,2632A,94.3681,29.6376,林芝市,林芝监测站,,19,,10,3,5,59,,,,1,4,2,4,0.2,0.3
2025-11-12T0500,2633A,94.3616,29.6616,林芝市,林芝人民医院,,16,10,14,6,6,49,,,,2,5,5,6,0.3,0.3
2025-11-12T0500,2603A,100.0781,23.8982,临沧市,市环保局,,36,,18,25,25,14,,,,4,6,7,8,0.7,0.7
2025-11-12T0500,2604A,100.0894,23.8822,临沧市,市气象局,,13,13,18,8,10,15,,,,7,7,9,9,0.6,0.6
2025-11-12T0500,1733A,111.5531,36.0783,临汾市,临钢医院,细颗粒物(PM2.5),77,89,139,56,68,17,,,,19,39,6,12,1.2,1.4
2025-11-12T0500,1734A,111.5028,36.0714,临汾市,技工学校,"颗粒物(PM10),细颗粒物(PM2.5)",72,93,138,52,69,0,,,,46,48,9,16,0.8,1.1
2025-11-12T0500,1736A,111.5018,36.0855,临汾市,市委,颗粒物(PM10),88,125,159,53,66,0,,,,44,47,7,13,0.9,1.3
2025-11-12T0500,3018A,111.505,36.1014,临汾市,唐尧大酒店,颗粒物(PM10),79,108,137,47,62,0,,,,38,42,5,11,0.9,1.3
2025-11-12T0500,4244A,111.4879,36.0530,临汾市,启星学校,细颗粒物(PM2.5),95,124,146,71,69,0,,,,37,50,5,13,1.7,1.5
2025-11-12T0500,4271A,103.2464,35.6123,临夏回族自治州,滨河东路1号,细颗粒物(PM2.5),155,153,120,118,94,4,,,,22,28,3,5,1.2,1.2
2025-11-12T0500,4310A,103.2093,35.5995,临夏回族自治州,新华街21号,细颗粒物(PM2.5),82,100,112,60,84,49,,,,10,22,10,10,0.6,1.3
2025-11-12T0500,1618A,118.3429,35.0532,临沂市,沂河小区,细颗粒物(PM2.5),103,132,81,77,52,2,,,,78,50,11,14,0.9,0.6
2025-11-12T0500,1619A,118.295,35.0583,临沂市,鲁南制药厂,颗粒物(PM10),118,185,89,85,50,3,,,,86,54,17,15,1.2,0.7
2025-11-12T0500,1620A,118.2794,34.9976,临沂市,新光毛纺厂,颗粒物(PM10),96,141,83,64,49,2,,,,92,56,12,14,0.9,0.6
2025-11-12T0500,1621A,118.3956,35.0888,临沂市,河东保险公司,细颗粒物(PM2.5),93,105,94,69,51,5,,,,55,56,10,11,1.0,0.8
2025-11-12T0500,3370A,118.3564,35.0215,临沂市,十里堡居委,颗粒物(PM10),74,97,73,41,34,1,,,,83,57,13,16,0.8,0.7
2025-11-12T0500,3496A,118.3604,35.1084,临沂市,南坊新区,,,117,85,75,47,3,,,,,55,14,13,1.1,0.9
2025-11-12T0500,3860A,118.3920,35.0300,临沂市,皇山花园小区,细颗粒物(PM2.5),93,114,92,69,50,4,,,,58,52,11,16,0.9,0.8
2025-11-12T0500,1870A,109.4856,24.3895,柳州市,柳东小学,,17,17,12,10,6,46,,,,4,4,5,5,0.3,0.4
2025-11-12T0500,1871A,109.4157,24.3277,柳州市,环保监测站,,15,15,11,3,4,43,,,,8,6,8,8,0.6,0.6
2025-11-12T0500,1872A,109.389,24.341,柳州市,河西水厂,,26,26,17,12,9,34,,,,18,14,17,11,1.7,1.2
2025-11-12T0500,1873A,109.4311,24.2921,柳州市,市四中,,15,11,19,8,5,48,,,,6,8,8,8,0.6,0.6
2025-11-12T0500,1874A,109.4006,24.3631,柳州市,市九中,,19,19,17,13,9,46,,,,9,10,4,3,0.5,0.5
2025-11-12T0500,1875A,109.4958,24.3134,柳州市,古亭山,,15,6,10,3,4,45,,,,2,2,7,7,0.5,0.6
2025-11-12T0500,3402A,109.5422,24.3996,柳州市,市二中,,19,,12,13,7,44,,,,5,7,6,7,0.5,0.6
2025-11-12T0500,2307A,116.5079,31.737,六安市,监测大楼,,,43,43,24,20,33,,,,,23,3,4,0.3,0.4
2025-11-12T0500,2308A,116.4738,31.7643,六安市,皖西学院,,49,49,48,23,21,32,,,,28,24,3,3,0.3,0.4
2025-11-12T0500,2309A,116.4996,31.7905,六安市,朝阳厂,,,40,42,21,18,32,,,,,26,4,5,0.3,0.4
2025-11-12T0500,2310A,116.5567,31.7886,六安市,开发区,,,,44,29,23,29,,,,,30,1,2,0.3,0.4
2025-11-12T0500,2576A,104.8,26.5892,六盘水市,窑上,,17,17,28,10,15,37,,,,4,9,2,2,0.5,0.6
2025-11-12T0500,2577A,104.83,26.5917,六盘水市,黄土坡,,11,7,19,3,10,35,,,,6,15,3,5,0.5,0.7
2025-11-12T0500,2578A,104.89,26.5939,六盘水市,水钢,,22,,26,15,15,37,,,,6,14,5,8,0.5,0.7
2025-11-12T0500,2579A,104.8475,26.5894,六盘水市,民中,,11,10,25,3,11,34,,,,5,15,3,4,0.3,0.4
2025-11-12T0500,2580A,104.9544,26.5506,六盘水市,双水,,12,9,20,8,11,33,,,,6,11,4,6,0.5,0.5
2025-11-12T0500,2335A,117.0189,25.1181,龙岩市,龙岩师专,,,,,,,,,,,,,,,,
2025-11-12T0500,2336A,117.0217,25.1033,龙岩市,龙岩市监测站,,17,6,16,3,8,52,,,,6,8,6,6,0.3,0.3
2025-11-12T0500,2337A,117.0258,25.0661,龙岩市,闽西职业技术学院,,18,,14,3,8,56,,,,2,4,4,4,0.3,0.4
2025-11-12T0500,2338A,117.0196,25.0306,龙岩市,龙岩学院,,18,7,18,3,7,56,,,,4,6,6,6,0.3,0.4
2025-11-12T0500,2665A,105.0822,33.3261,陇南市,汉王镇固水子,,,,,,,,,,,,,,,,
2025-11-12T0500,2885A,104.9339,33.3826,陇南市,滨江中学,,49,49,57,30,26,23,,,,13,20,8,7,0.7,0.7
2025-11-12T0500,3247A,104.955,33.371,陇南市,市总工会,,39,39,45,23,22,23,,,,11,16,7,7,0.6,0.6
2025-11-12T0500,2487A,111.9589,27.8901,娄底市,电视发射台,,,,,,,,,,,,,,,,
2025-11-12T0500,2488A,111.9975,27.725,娄底市,市监测站,,,70,59,31,29,55,,,,,12,15,12,1.1,0.8
2025-11-12T0500,2489A,112.0194,27.7314,娄底市,市委党校,颗粒物(PM10),56,62,59,34,28,74,,,,13,11,7,6,1.1,0.8
2025-11-12T0500,2490A,111.9561,27.7569,娄底市,涟钢,颗粒物(PM10),65,79,56,39,24,69,,,,10,8,8,8,0.5,0.4
2025-11-12T0500,2491A,111.9892,27.7044,娄底市,市政府,细颗粒物(PM2.5),52,52,50,36,28,60,,,,9,11,10,10,0.8,0.8
2025-11-12T0500,1893A,105.4324,28.9634,泸州市,九狮山,,,,,,,,,,,,,,,,
2025-11-12T0500,1894A,105.4427,28.9063,泸州市,小市上码头,,32,32,24,16,15,3,,,,14,14,8,8,0.7,0.7
2025-11-12T0500,1895A,105.4241,28.8573,泸州市,兰田宪桥,,49,49,26,26,14,4,,,,16,14,9,6,0.6,0.5
2025-11-12T0500,1896A,105.4379,28.8833,泸州市,市环监站,,40,40,24,27,15,4,,,,16,17,6,6,0.6,0.5
2025-11-12T0500,4272A,105.3689,28.7783,泸州市,纳溪中医医院,,39,28,23,27,17,7,,,,17,19,5,8,0.6,0.6
2025-11-12T0500,2183A,111.1406,37.5211,吕梁市,环保局,颗粒物(PM10),76,101,89,26,25,1,,,,34,38,3,5,0.5,0.5
2025-11-12T0500,2185A,111.1297,37.5136,吕梁市,自来水公司,颗粒物(PM10),94,138,100,31,28,0,,,,37,34,6,5,0.5,0.5
2025-11-12T0500,2867A,111.1283,37.51,吕梁市,马茂庄小学,颗粒物(PM10),85,120,115,32,29,1,,,,39,41,11,6,0.4,0.6
2025-11-12T0500,1812A,112.3931,34.6516,洛阳市,市委党校,细颗粒物(PM2.5),102,100,122,76,73,4,,,,50,51,6,9,0.8,1
2025-11-12T0500,1815A,112.494,34.6886,洛阳市,河南林校,细颗粒物(PM2.5),97,101,126,72,68,8,,,,44,57,5,9,0.7,0.8
2025-11-12T0500,1816A,112.3844,34.623,洛阳市,开发区管委会,细颗粒物(PM2.5),82,96,119,60,66,20,,,,31,32,4,8,0.6,0.7
2025-11-12T0500,1817A,112.4267,34.6258,洛阳市,市委新办公区,颗粒物(PM10),82,114,126,51,55,16,,,,39,44,6,9,0.6,0.7
2025-11-12T0500,3340A,112.6005,34.6326,洛阳市,伊滨,颗粒物(PM10),81,112,141,52,58,15,,,,34,45,6,8,0.6,0.7
2025-11-12T0500,3341A,112.4951,34.6332,洛阳市,中移产业园,细颗粒物(PM2.5),82,108,122,60,62,15,,,,41,46,5,8,0.6,0.7
2025-11-12T0500,3593A,112.5736,34.8993,洛阳市,吉利监测站,细颗粒物(PM2.5),95,113,112,71,65,30,,,,26,40,6,8,0.8,0.8
2025-11-12T0500,3635A,112.3677,34.662,洛阳市,河科大西苑校区,细颗粒物(PM2.5),83,97,125,61,65,6,,,,50,50,8,10,1.5,1.4
2025-11-12T0500,3636A,112.4388,34.6781,洛阳市,英才小学,细颗粒物(PM2.5),113,147,146,85,81,,,,,66,62,10,10,1.3,1.2
2025-11-12T0500,4214A,112.4600,34.6949,洛阳市,春都路1号院,,,111,133,55,60,0,,,,,47,8,10,1.1,1.1
2025-11-12T0500,2399A,114.051,33.5699,漯河市,三五一五工厂,细颗粒物(PM2.5),87,97,90,64,52,1,,,,60,35,7,8,0.5,0.5
2025-11-12T0500,2400A,114.0055,33.5698,漯河市,漯河大学,细颗粒物(PM2.5),77,88,81,56,47,16,,,,56,35,7,7,0.4,0.4
2025-11-12T0500,2401A,114.0138,33.5828,漯河市,市水利局,细颗粒物(PM2.5),83,83,75,61,46,14,,,,55,34,8,8,0.6,0.6
2025-11-12T0500,2402A,114.0261,33.5698,漯河市,市广电局,细颗粒物(PM2.5),80,85,81,59,45,11,,,,59,34,7,7,0.5,0.5
2025-11-12T0500,3478A,113.9749,33.5664,漯河市,市图书馆,"颗粒物(PM10),细颗粒物(PM2.5)",74,97,85,54,43,8,,,,62,33,6,5,0.5,0.5
2025-11-12T0500,4250A,114.0892,33.5882,漯河市,韶山路11号,颗粒物(PM10),75,100,87,51,48,7,,,,65,48,9,9,0.6,0.6
2025-11-12T0500,1798A,118.5092,31.6837,马鞍山市,湖东路四小,,31,31,33,19,13,50,,,,20,20,7,5,0.4,0.4
2025-11-12T0500,1799A,118.5024,31.6449,马鞍山市,开发区,,24,24,34,16,12,57,,,,20,23,4,4,0.4,0.4
2025-11-12T0500,1802A,118.6245,31.7241,马鞍山市,濮塘,,,,,,,,,,,,,,,,
2025-11-12T0500,3633A,118.4918,31.6809,马鞍山市,雨山,,,34,33,14,11,48,,,,21,19,,6,0.4,0.4
2025-11-12T0500,4191A,118.5274,31.72227,马鞍山市,慈湖高新区,,32,32,32,16,15,43,,,,30,20,5,4,0.4,0.4
2025-11-12T0500,1686A,111.0286,21.4688,茂名市,电白南海,,27,27,38,9,15,43,,,,11,12,16,12,0.8,0.9
2025-11-12T0500,1687A,110.9294,21.6533,茂名市,茂石化七小,,,19,26,3,11,45,,,,,11,13,13,0.8,0.9
2025-11-12T0500,1688A,110.9107,21.6687,茂名市,健康路,,15,9,23,3,11,47,,,,9,11,17,15,0.7,0.9
2025-11-12T0500,1689A,110.8592,21.6828,茂名市,高岭,,17,17,33,3,9,43,,,,12,13,24,15,0.7,0.8
2025-11-12T0500,3450A,111.01,21.5165,茂名市,电白水东,,14,14,30,9,13,41,,,,11,13,15,10,0.9,1
2025-11-12T0500,2539A,104.0308,30.0478,眉山市,黑龙滩水库,,,,,,,,,,,,,,,,
2025-11-12T0500,2540A,103.8416,30.0874,眉山市,气象局,颗粒物(PM10),51,51,56,22,26,25,,,,16,28,8,9,0.4,0.5
2025-11-12T0500,3137A,103.8578,30.0744,眉山市,市委党校,,31,31,38,14,17,32,,,,16,27,6,7,0.6,0.7
2025-11-12T0500,3148A,103.8291,30.0564,眉山市,区人社局,,38,38,50,19,22,27,,,,14,28,18,18,0.9,0.9
2025-11-12T0500,1690A,116.1231,24.3284,梅州市,梅江月梅,,,11,22,8,12,55,,,,,10,5,5,0.6,0.6
2025-11-12T0500,1691A,116.0797,24.2719,梅州市,梅县新城,,,6,26,3,14,58,,,,,11,7,7,0.5,0.5
2025-11-12T0500,1692A,116.1248,24.2654,梅州市,环境监控中心,,18,,22,8,12,56,,,,7,9,4,5,0.5,0.5
2025-11-12T0500,3315A,116.1233,24.2991,梅州市,梅龙,,16,7,22,3,13,51,,,,6,7,7,7,0.6,0.7
2025-11-12T0500,1878A,104.7778,31.4741,绵阳市,富乐山,,43,43,38,25,21,4,,,,20,14,9,9,0.6,0.6
2025-11-12T0500,1880A,104.6697,31.4668,绵阳市,高新区自来水公司,颗粒物(PM10),62,74,58,31,25,0,,,,29,29,9,9,0.7,0.6
2025-11-12T0500,1881A,104.7287,31.5075,绵阳市,三水厂,颗粒物(PM10),56,62,47,34,25,1,,,,27,25,9,8,0.8,0.7
2025-11-12T0500,3491A,104.69,31.5322,绵阳市,西科大附属小学,颗粒物(PM10),64,77,61,34,25,2,,,,29,27,11,10,0.7,0.6
2025-11-12T0500,3492A,104.5648,31.5343,绵阳市,安州区旅游局,,39,39,42,22,21,6,,,,12,16,11,8,0.6,0.6
2025-11-12T0500,4226A,104.7651,31.4531,绵阳市,绵阳市气象局,颗粒物(PM10),55,59,47,35,22,8,,,,27,21,8,8,0.7,0.6
2025-11-12T0500,1784A,129.61,44.561,牡丹江市,环保大楼,,42,42,49,28,37,5,,,,30,29,4,6,0.6,0.5
2025-11-12T0500,1785A,129.6115,44.5782,牡丹江市,文化广场,细颗粒物(PM2.5),62,52,55,44,41,6,,,,30,28,7,8,0.6,0.6
2025-11-12T0500,1786A,129.5904,44.5963,牡丹江市,第一医院,细颗粒物(PM2.5),65,,54,47,44,12,,,,28,24,3,4,0.5,0.6
2025-11-12T0500,1787A,129.6364,44.6075,牡丹江市,机车工厂,颗粒物(PM10),57,64,58,38,38,5,,,,31,26,9,18,0.6,0.6
2025-11-12T0500,1788A,129.6386,44.5462,牡丹江市,第一中学,,35,35,36,18,28,10,,,,18,21,3,4,0.4,0.4
2025-11-12T0500,2531A,105.0703,29.61,内江市,市监测站,,,16,26,7,14,31,,,,,14,3,3,0.7,0.8
2025-11-12T0500,2532A,105.0717,29.5947,内江市,东兴区政府,,8,6,18,3,9,24,,,,10,17,6,6,0.3,0.3
2025-11-12T0500,2533A,105.0653,29.5817,内江市,内江二中,,19,19,22,12,16,24,,,,11,17,4,4,0.6,0.6
2025-11-12T0500,2534A,105.0406,29.5822,内江市,内江日报社,,24,24,20,11,14,21,,,,13,16,4,4,0.4,0.4
2025-11-12T0500,2628A,92.0657,31.4846,那曲市,那曲监测站,,26,26,60,14,36,31,,,,34,32,9,12,1.1,1.5
2025-11-12T0500,4243A,92.0515,31.4787,那曲市,那曲市委宣传部,,23,6,31,3,16,72,,,,2,20,6,8,0.5,1
2025-11-12T0500,1290A,115.8931,28.6843,南昌市,省外办,,45,38,52,31,30,54,,,,15,15,6,5,0.9,0.8
2025-11-12T0500,1291A,115.8886,28.7003,南昌市,省林业公司,,29,29,46,19,27,55,,,,13,14,5,5,0.7,0.8
2025-11-12T0500,1292A,115.8126,28.7442,南昌市,林科所,,34,34,49,19,24,60,,,,14,15,4,4,0.6,0.7
2025-11-12T0500,1294A,115.8518,28.687,南昌市,建工学校,,48,48,61,25,28,54,,,,18,20,10,10,0.7,0.7
2025-11-12T0500,1295A,115.8921,28.6424,南昌市,象湖,,44,44,52,27,28,55,,,,17,18,10,9,0.7,0.7
2025-11-12T0500,1296A,115.7423,28.7996,南昌市,武术学校,,,,,,,,,,,,,,,,
2025-11-12T0500,3046A,115.9084,28.6062,南昌市,机电学校,,48,48,63,24,30,60,,,,17,18,7,8,0.5,0.5
2025-11-12T0500,3690A,115.9721,28.7031,南昌市,外国语学校,,43,40,55,30,36,56,,,,18,20,10,10,0.5,0.6
2025-11-12T0500,4192A,115.9316,28.68677,南昌市,南京东路235号,,47,47,63,22,29,57,,,,19,19,7,7,0.6,0.6
2025-11-12T0500,1905A,106.056,30.8064,南充市,西山风景区,,,,,,,,,,,,,,,,
2025-11-12T0500,1906A,106.0789,30.8023,南充市,南充市委,,37,37,41,20,24,6,,,,18,23,4,4,0.4,0.5
2025-11-12T0500,1907A,106.1031,30.8217,南充市,南充炼油厂,,,44,49,28,28,5,,,,,20,6,6,0.4,0.5
2025-11-12T0500,4227A,106.1083,30.7884,南充市,梨树横街98号,,39,33,41,27,22,9,,,,16,20,5,5,0.4,0.4
2025-11-12T0500,4304A,106.1172,30.843,南充市,清泉寺北路188号,,37,37,38,18,17,8,,,,14,20,7,7,0.5,0.5
2025-11-12T0500,4305A,106.067,30.7616,南充市,同庆路1号,,35,35,39,22,20,7,,,,17,21,7,6,0.5,0.5
2025-11-12T0500,1151A,118.8086,32.1065,南京市,迈皋桥,,,19,26,9,11,6,,,,,27,3,4,1.0,0.9
2025-11-12T0500,1152A,118.7538,32.0551,南京市,草场门,,34,34,32,9,11,13,,,,57,32,3,3,0.4,0.4
2025-11-12T0500,1153A,118.7794,32.0745,南京市,山西路,,44,44,38,19,8,11,,,,59,32,4,4,0.2,0.2
2025-11-12T0500,1154A,118.7752,32.0023,南京市,中华门,,29,29,31,9,10,40,,,,25,24,4,4,0.3,0.3
2025-11-12T0500,1155A,118.8109,32.0309,南京市,瑞金路,,24,24,21,14,11,61,,,,23,18,4,4,0.6,0.7
2025-11-12T0500,1156A,118.7997,32.0754,南京市,玄武湖,,,28,31,9,8,8,,,,,20,4,4,0.4,0.4
2025-11-12T0500,1157A,118.6414,32.0931,南京市,浦口,,36,36,36,18,14,56,,,,19,28,8,7,0.3,0.2
2025-11-12T0500,1158A,118.7356,31.9996,南京市,奥体中心,,30,30,32,12,12,47,,,,33,27,6,6,0.4,0.5
2025-11-12T0500,1159A,118.9125,32.1028,南京市,仙林大学城,,41,41,38,19,9,11,,,,47,28,5,5,0.5,0.4
2025-11-12T0500,3422A,118.8436,31.9198,南京市,江宁彩虹桥,,31,31,31,12,11,33,,,,28,22,4,4,0.5,0.4
2025-11-12T0500,3427A,118.8554,32.3578,南京市,六合雄州,,40,40,33,16,9,44,,,,27,20,6,5,0.4,0.3
2025-11-12T0500,4249A,118.8708,31.3402,南京市,汶溪路181号,,,42,37,15,21,43,,,,,31,10,6,0.3,0.5
2025-11-12T0500,4312A,119.019,31.6512,南京市,中山西路1号,,36,36,32,21,16,24,,,,30,20,3,4,0.5,0.5
2025-11-12T0500,1401A,108.3103,22.7881,南宁市,二十一中,,13,7,14,3,7,39,,,,10,12,4,4,0.7,0.7
2025-11-12T0500,1402A,108.3141,22.8528,南宁市,北湖,,14,14,18,7,9,35,,,,10,12,9,10,0.6,0.6
2025-11-12T0500,1403A,108.3206,22.8225,南宁市,市监测站,,18,,18,12,12,31,,,,12,15,8,8,0.6,0.7
2025-11-12T0500,1404A,108.3829,22.8037,南宁市,大自然花园,,15,15,16,7,7,39,,,,8,10,7,7,0.6,0.6
2025-11-12T0500,1405A,108.4394,22.7904,南宁市,仙葫,,,,,,,,,,,,,,,,
2025-11-12T0500,1406A,108.2397,22.8467,南宁市,区农职院,,14,14,15,7,7,42,,,,7,9,4,4,0.7,0.7
2025-11-12T0500,1407A,108.3275,22.735,南宁市,英华嘉园,,13,6,16,3,8,39,,,,8,10,3,3,0.5,0.6
2025-11-12T0500,3401A,108.4834,22.7618,南宁市,红星社区,,12,12,11,8,7,33,,,,11,9,4,5,0.5,0.5
2025-11-12T0500,4221A,108.2177,22.7774,南宁市,乐贤路16号,,21,21,20,10,8,40,,,,8,9,10,6,0.5,0.5
2025-11-12T0500,2331A,118.0966,26.6761,南平市,茫荡山,,,,15,,,,,79,,,,,1,,0.3
2025-11-12T0500,2332A,118.1681,26.6369,南平市,南平市监测站,,13,6,19,3,11,41,,,,5,7,3,3,0.4,0.5
2025-11-12T0500,2333A,118.1825,26.6489,南平市,南平铝业有限公司,,14,8,20,3,12,42,,,,6,7,2,3,0.3,0.4
2025-11-12T0500,2334A,118.1756,26.6272,南平市,南平七中,,,,20,3,9,39,,,,5,6,4,5,0.4,0.4
2025-11-12T0500,1168A,120.9098,31.9663,南通市,狼山街道,,44,44,30,15,8,57,,,,20,20,3,3,0.5,0.5
2025-11-12T0500,1169A,120.86,32.0005,南通市,虹桥,,33,33,24,12,9,65,,,,19,19,4,4,0.5,0.5
2025-11-12T0500,1170A,120.87,32.02,南通市,城中,,44,44,36,15,10,52,,,,26,26,5,4,0.3,0.3
2025-11-12T0500,1171A,120.94,31.93,南通市,星湖花园,,44,44,28,16,11,54,,,,24,20,4,4,0.3,0.3
2025-11-12T0500,1172A,120.81,32.0417,南通市,紫琅学院,,50,50,38,24,10,24,,,,43,33,5,4,0.6,0.5
2025-11-12T0500,3291A,121.067,32.062,南通市,通州监测站,,29,29,16,14,7,77,,,,13,13,2,2,0.4,0.3
2025-11-12T0500,3432A,120.9348,31.9883,南通市,环境教育馆,,41,41,28,20,9,49,,,,22,22,4,4,0.4,0.4
2025-11-12T0500,2404A,112.5224,33.0122,南阳市,瓦房庄,颗粒物(PM10),60,69,85,40,47,61,,,,17,20,7,8,0.5,0.6
2025-11-12T0500,2405A,112.5003,32.9735,南阳市,汉画馆,颗粒物(PM10),58,66,76,38,42,43,,,,21,22,7,6,0.5,0.6
2025-11-12T0500,2406A,112.5573,33.027,南阳市,气象站,颗粒物(PM10),63,76,98,31,38,70,,,,16,22,6,7,0.3,0.4
2025-11-12T0500,2407A,112.5481,32.9689,南阳市,理工学院,颗粒物(PM10),62,73,86,32,34,66,,,,16,20,6,7,0.5,0.5
2025-11-12T0500,4008A,112.5234,32.9922,南阳市,卧龙区政府,颗粒物(PM10),64,78,85,42,47,63,,,,16,23,6,7,0.4,0.6
2025-11-12T0500,1234A,121.8358,29.911,宁波市,区环保大楼,,28,28,26,3,7,60,,,,24,22,5,5,0.4,0.4
2025-11-12T0500,1235A,121.56,29.82,宁波市,万里学院,,23,22,24,7,6,71,,,,15,17,7,7,0.5,0.5
2025-11-12T0500,1236A,121.713,29.9572,宁波市,龙赛医院,,,34,30,3,3,75,,,,,13,4,4,0.5,0.4
2025-11-12T0500,1239A,121.633,29.7733,宁波市,钱湖水厂,,25,25,22,6,6,69,,,,14,15,7,7,0.3,0.3
2025-11-12T0500,1240A,121.5856,29.8635,宁波市,太古小学,,26,26,23,3,6,72,,,,15,18,4,4,0.5,0.5
2025-11-12T0500,1241A,121.524,29.8674,宁波市,市环境监测中心,,22,22,22,3,5,64,,,,13,15,10,10,0.4,0.3
2025-11-12T0500,2871A,121.6147,29.9017,宁波市,万里国际学校,,24,20,23,3,5,74,,,,13,16,4,4,0.5,0.4
2025-11-12T0500,3710A,121.5594,29.8975,宁波市,白沙活动中心,,21,17,19,3,3,66,,,,10,14,6,6,0.3,0.3
2025-11-12T0500,2339A,119.5001,26.6946,宁德市,金涵水库,,,,14,,7,,,50,,,5,,2,,0.3
2025-11-12T0500,2341A,119.5388,26.6612,宁德市,宁德市监测站,,18,,14,3,9,55,,,,7,9,5,5,0.2,0.3
2025-11-12T0500,3209A,119.5231,26.6562,宁德市,宁德一中,,19,,15,3,11,60,,,,4,5,6,6,0.2,0.2
2025-11-12T0500,2618A,98.8601,25.8567,怒江傈僳族自治州,州监测站,,29,29,24,20,15,20,,,,10,10,8,7,0.3,0.3
2025-11-12T0500,2619A,98.8546,25.8417,怒江傈僳族自治州,泸水一中,,16,14,22,11,14,12,,,,10,16,6,6,0.5,0.6
2025-11-12T0500,1888A,101.6891,26.571,攀枝花市,弄弄坪,,,26,35,12,14,11,,,,,26,4,4,0.8,1.1
2025-11-12T0500,1889A,101.5769,26.5928,攀枝花市,河门口,,27,27,24,18,13,11,,,,26,16,14,13,1.5,0.9
2025-11-12T0500,1890A,101.7169,26.585,攀枝花市,炳草岗,,,38,40,24,16,5,,,,,31,15,12,0.7,1.1
2025-11-12T0500,1891A,101.7369,26.5008,攀枝花市,仁和,,,38,28,22,15,6,,,,,16,6,12,0.6,0.8
2025-11-12T0500,2835A,101.7227,26.567,攀枝花市,四十中小,,41,41,38,18,20,2,,,,35,32,14,27,0.9,1.4
2025-11-12T0500,1604A,122.0303,41.1489,盘锦市,开发区,,46,,48,32,45,28,,,,26,36,3,6,0.4,0.5
2025-11-12T0500,1605A,122.0485,41.0883,盘锦市,兴隆台,,43,32,47,30,37,24,,,,33,45,8,9,0.5,0.5
2025-11-12T0500,1606A,121.8297,41.1028,盘锦市,新生街道,,38,38,40,26,31,34,,,,24,39,8,10,0.4,0.3
2025-11-12T0500,1832A,113.3257,33.742,平顶山市,新华旅馆,颗粒物(PM10),71,92,110,47,60,0,,,,47,42,6,10,0.6,0.6
2025-11-12T0500,1833A,113.2919,33.737,平顶山市,规划设计院,,,119,118,60,63,1,,,,,39,5,9,0.5,0.7
2025-11-12T0500,1834A,113.182,33.774,平顶山市,平顶山工学院,细颗粒物(PM2.5),107,120,105,80,59,9,,,,,36,7,9,0.4,0.4
2025-11-12T0500,3204A,113.3025,33.73,平顶山市,规划局,,,,118,,60,,,75,,,27,,15,,0.6
2025-11-12T0500,3594A,112.8867,33.9116,平顶山市,石龙区,颗粒物(PM10),78,106,142,30,52,10,,,,80,52,7,9,0.3,0.5
2025-11-12T0500,2656A,106.6692,35.5461,平凉市,聚贤嘉苑,颗粒物(PM10),53,55,66,27,31,18,,,,27,27,4,5,0.6,0.6
2025-11-12T0500,2657A,106.7021,35.5307,平凉市,博物馆,颗粒物(PM10),51,52,66,31,37,20,,,,22,29,9,11,0.8,0.9
2025-11-12T0500,2347A,114.0997,27.5002,萍乡市,武功山,,,,,,,,,,,,,,,,
2025-11-12T0500,2348A,113.8385,27.6434,萍乡市,中医院,细颗粒物(PM2.5),75,91,61,55,32,24,,,,24,23,11,6,1.0,0.9
2025-11-12T0500,2349A,113.8493,27.6253,萍乡市,市政府车库,颗粒物(PM10),66,81,53,42,33,29,,,,20,22,14,7,0.8,0.7
2025-11-12T0500,2350A,113.8676,27.6435,萍乡市,市环保局,细颗粒物(PM2.5),69,68,45,50,26,29,,,,16,17,14,7,0.7,0.7
2025-11-12T0500,2351A,113.866,27.6198,萍乡市,安源区政府,细颗粒物(PM2.5),63,59,45,45,33,30,,,,16,19,14,11,0.8,0.7
2025-11-12T0500,2319A,119.0141,25.4325,莆田市,荔城区仓后路,,23,6,14,3,2,72,,,,3,7,4,4,0.3,0.4
2025-11-12T0500,2320A,119.0015,25.4553,莆田市,莆田市监测站,,24,6,9,3,1,74,,,,3,5,3,3,0.3,0.4
2025-11-12T0500,2321A,119.1119,25.4561,莆田市,涵江区六中,,,,13,0,1,70,,,,4,5,2,2,0.4,0.4
2025-11-12T0500,2322A,119.1013,25.3215,莆田市,秀屿区政府,,23,6,16,3,3,72,,,,4,6,4,4,0.3,0.3
2025-11-12T0500,2323A,118.981,25.4792,莆田市,东圳水库,,,,9,,3,,,91,,,5,,3,,0.6
2025-11-12T0500,2392A,115.0312,35.7636,濮阳市,环保局,,,75,78,59,55,38,,,,,49,10,10,0.6,0.7
2025-11-12T0500,2394A,115.0574,35.7609,濮阳市,油田运输公司,,,95,100,62,59,40,,,,,47,12,12,0.9,1
2025-11-12T0500,3021A,115,35.7668,濮阳市,濮水河管理处,细颗粒物(PM2.5),99,95,96,74,69,15,,,,47,36,7,8,0.4,0.3
2025-11-12T0500,4216A,115.0924,35.7686,濮阳市,任丘路479号,细颗粒物(PM2.5),107,116,104,80,62,20,,,,,54,10,12,0.6,0.7
2025-11-12T0500,2601A,100.98,22.7633,普洱市,市环保局,,18,18,25,3,16,9,,,,4,6,5,5,0.6,0.6
2025-11-12T0500,2602A,100.9817,22.8322,普洱市,普洱第二中学,,21,21,22,9,13,0,,,,10,8,5,5,0.4,0.3
2025-11-12T0500,2262A,131.0518,45.8751,七台河市,新一中,,,,,,,,,,,,,,,,
2025-11-12T0500,3345A,131.0577,45.7879,七台河市,中波台,,26,25,34,18,22,25,,,,19,17,10,8,0.8,0.5
2025-11-12T0500,3637A,131.0176,45.7761,七台河市,人民广场,,42,30,38,29,29,28,,,,19,25,7,7,0.6,0.6
2025-11-12T0500,3684A,130.8781,45.8222,七台河市,新建矿广场,,34,34,44,17,28,9,,,,34,21,10,8,0.6,0.4
2025-11-12T0500,1779A,123.9305,47.3636,齐齐哈尔市,安居小区,颗粒物(PM10),55,59,34,27,14,48,,,,10,15,7,6,0.5,0.5
2025-11-12T0500,1780A,123.9488,47.3386,齐齐哈尔市,中心广场,细颗粒物(PM2.5),52,51,29,36,16,50,,,,12,18,7,7,0.4,0.5
2025-11-12T0500,1781A,123.9483,47.3227,齐齐哈尔市,农牧车辆厂,颗粒物(PM10),57,63,42,19,14,47,,,,9,17,8,8,0.4,0.4
2025-11-12T0500,1783A,123.945,47.2988,齐齐哈尔市,市环境监测站,颗粒物(PM10),59,68,38,34,19,47,,,,11,15,7,7,0.4,0.5
2025-11-12T0500,3662A,123.6333,47.2075,齐齐哈尔市,富区青少年活动中心,,35,32,29,24,18,32,,,,10,20,5,6,0.4,0.5
2025-11-12T0500,2591A,107.9783,26.5747,黔东南苗族侗族自治州,市环境监测站,,37,37,26,23,17,44,,,,5,8,6,4,0.5,0.6
2025-11-12T0500,2881A,107.8908,26.5311,黔东南苗族侗族自治州,凯里学院,,29,29,20,14,12,50,,,,10,11,4,3,0.6,0.7
2025-11-12T0500,2593A,107.5228,26.2403,黔南布依族苗族自治州,小围寨,,13,7,4,3,2,39,,,,3,4,5,5,0.5,0.6
2025-11-12T0500,3538A,107.5175,26.2978,黔南布依族苗族自治州,沙坝,,17,17,9,3,4,47,,,,5,6,4,4,0.6,0.6
2025-11-12T0500,2589A,104.9022,25.0925,黔西南布依族苗族自治州,场坝街,,36,36,24,22,11,39,,,,7,9,3,7,0.5,0.5
2025-11-12T0500,2590A,104.8811,25.0992,黔西南布依族苗族自治州,坪东大道,,26,26,17,15,13,39,,,,5,8,2,3,0.5,0.6
2025-11-12T0500,2502A,108.6236,21.9667,钦州市,市环保站,,14,9,21,7,8,44,,,,10,11,5,4,1.4,1.1
2025-11-12T0500,2503A,108.6549,21.9481,钦州市,沙埠小学,,16,15,19,6,8,51,,,,6,8,4,4,0.4,0.5
2025-11-12T0500,2504A,108.5989,21.7431,钦州市,港区一小,,34,34,31,11,12,36,,,,18,20,7,7,0.7,0.8
2025-11-12T0500,3404A,108.5959,21.9633,钦州市,北职校,,15,8,15,3,7,45,,,,4,5,6,6,0.6,0.7
2025-11-12T0500,1043A,119.7493,40.0116,秦皇岛市,第一关,细颗粒物(PM2.5),68,79,31,49,24,21,,,,55,40,10,8,0.8,0.4
2025-11-12T0500,1044A,119.5897,39.9499,秦皇岛市,监测站,颗粒物(PM10),68,86,50,35,21,28,,,,46,45,11,9,1.1,0.7
2025-11-12T0500,1046A,119.5251,39.9041,秦皇岛市,建设大厦,颗粒物(PM10),67,84,45,38,22,44,,,,32,37,11,6,0.8,0.5
2025-11-12T0500,3132A,119.610547,39.943889,秦皇岛市,文明里,颗粒物(PM10),56,62,41,32,18,24,,,,38,35,12,10,0.8,0.3
2025-11-12T0500,4198A,119.5090,39.8253,秦皇岛市,北戴河轮滑馆,,50,50,27,18,11,46,,,,12,21,4,5,0.8,0.5
2025-11-12T0500,1307A,120.6659,36.2403,青岛市,仰口,,,,,,,,,,,,,,,,
2025-11-12T0500,1310A,120.4134,36.0658,青岛市,市南区东部子站,颗粒物(PM10),60,70,70,34,27,27,,,,52,46,10,11,0.7,0.7
2025-11-12T0500,1311A,120.3664,36.1032,青岛市,四方区子站,,,78,89,31,36,11,,,,,53,6,8,0.6,0.7
2025-11-12T0500,1312A,120.2994,36.054,青岛市,市南区西部子站,颗粒物(PM10),70,90,67,34,26,3,,,,80,49,9,12,1.0,0.8
2025-11-12T0500,1313A,120.4581,36.0858,青岛市,崂山区子站,,,58,64,24,21,48,,,,,44,11,11,0.7,0.7
2025-11-12T0500,1315A,120.3999,36.3083,青岛市,城阳区子站,颗粒物(PM10),62,73,80,34,31,39,,,,36,43,5,7,0.7,0.7
2025-11-12T0500,3362A,120.5014,36.4034,青岛市,即墨2号,颗粒物(PM10),69,87,86,46,40,59,,,,31,43,7,9,0.6,0.6
2025-11-12T0500,3642A,120.3503,36.0736,青岛市,市北区南部,颗粒物(PM10),66,82,71,34,26,6,,,,74,49,7,8,0.8,0.6
2025-11-12T0500,3643A,120.3948,36.1805,青岛市,李沧区北部,颗粒物(PM10),62,73,73,39,35,26,,,,54,48,10,10,0.8,0.7
2025-11-12T0500,4290A,120.1969,35.9546,青岛市,珠江路669号,,,83,72,46,34,0,,,,,47,16,14,0.8,0.7
2025-11-12T0500,4291A,120.0424,35.8656,青岛市,黄岛区人民政府广场,细颗粒物(PM2.5),67,75,77,48,36,4,,,,43,50,8,9,1.4,1.2
2025-11-12T0500,1702A,113.0426,23.691,清远市,环保大楼,,,,,,,,,,,,,,,,
2025-11-12T0500,1703A,113.0208,23.7106,清远市,凤城街办,,17,7,8,3,4,53,,,,12,14,6,6,0.6,0.7
2025-11-12T0500,3025A,113.0477,23.6344,清远市,技师学院,,17,7,10,3,5,53,,,,12,14,4,4,0.6,0.6
2025-11-12T0500,3318A,112.9903,23.7403,清远市,清新太和,,20,8,9,8,5,62,,,,8,10,10,11,0.3,0.3
2025-11-12T0500,3455A,113.076,23.7198,清远市,清城东城,,17,10,8,8,5,52,,,,12,12,4,5,0.5,0.6
2025-11-12T0500,2661A,107.6325,35.7357,庆阳市,庆阳五中,,48,48,66,28,32,65,,,,11,22,4,4,0.4,0.5
2025-11-12T0500,2662A,107.6364,35.7067,庆阳市,市环保局,颗粒物(PM10),53,55,62,26,24,70,,,,12,15,3,4,0.8,0.8
2025-11-12T0500,1916A,103.7897,25.5035,曲靖市,环境监测站,,18,17,23,12,11,20,,,,17,13,6,5,0.5,0.4
2025-11-12T0500,1917A,103.8,25.5364,曲靖市,烟厂办公区,,9,8,19,3,10,28,,,,11,13,4,5,0.4,0.5
2025-11-12T0500,3376A,103.7947,25.462,曲靖市,南苑二区,,29,29,20,16,10,20,,,,18,12,3,4,0.9,0.7
2025-11-12T0500,3377A,103.7444,25.5261,曲靖市,曲靖师范学院,,23,16,26,16,17,24,,,,11,11,3,4,0.5,0.5
2025-11-12T0500,1264A,118.8692,28.9398,衢州市,环保大楼,,25,25,30,8,11,42,,,,18,18,4,4,0.3,0.4
2025-11-12T0500,1265A,118.8709,28.9666,衢州市,实验学校,,,23,29,10,11,39,,,,,19,8,8,0.4,0.4
2025-11-12T0500,1266A,118.8621,28.9808,衢州市,衢州学院,,21,21,31,9,13,40,,,,18,18,6,6,0,0.1
2025-11-12T0500,1611A,118.5819,24.9117,泉州市,涂山街,,22,6,12,3,4,68,,,,4,5,2,2,0.3,0.3
2025-11-12T0500,1612A,118.5972,24.8978,泉州市,津头埔,,22,7,10,3,4,68,,,,3,5,2,2,0.2,0.2
2025-11-12T0500,1613A,118.6663,24.9424,泉州市,万安,,21,8,15,3,4,67,,,,6,6,2,2,0.2,0.3
2025-11-12T0500,1614A,118.6117,24.9604,泉州市,清源山,,,,7,,2,,,84,,,3,,3,,0.5
2025-11-12T0500,3529A,118.6333,24.9264,泉州市,城华南路,,22,6,9,3,4,68,,,,1,4,3,3,0.3,0.3
2025-11-12T0500,2626A,88.8876,29.2718,日喀则市,日喀则监测站,,23,6,17,3,5,72,,,,7,10,6,8,0.3,0.3
2025-11-12T0500,3726A,88.8781,29.2426,日喀则市,林业技术推广中心,,26,8,14,3,3,82,,,,2,5,6,6,0.2,0.3
2025-11-12T0500,1659A,119.471,35.4209,日照市,监测站,颗粒物(PM10),58,66,77,32,39,0,,,,42,53,8,12,1.0,1.3
2025-11-12T0500,1660A,119.523,35.4216,日照市,市政府广场,,,66,72,35,33,0,,,,,56,10,14,1.5,1.5
2025-11-12T0500,1661A,119.5587,35.4044,日照市,港务局,细颗粒物(PM2.5),69,66,79,50,47,2,,,,55,61,10,15,1.4,1.5
2025-11-12T0500,3507A,119.5328,35.4625,日照市,职业技术学院,颗粒物(PM10),53,56,64,22,26,3,,,,51,45,5,9,1.1,1.2
2025-11-12T0500,3604A,119.3266,35.1044,日照市,岚山环保分局,,46,46,62,22,25,69,,,,25,33,14,20,1.2,1
2025-11-12T0500,1835A,111.1922,34.7752,三门峡市,市政府,细颗粒物(PM2.5),92,79,109,68,71,1,,,,52,46,7,11,0.8,0.9
2025-11-12T0500,1836A,111.1587,34.7942,三门峡市,开发区,颗粒物(PM10),87,123,144,55,69,1,,,,46,46,8,13,0.6,0.8
2025-11-12T0500,1838A,111.143,34.7955,三门峡市,风景区,颗粒物(PM10),69,88,107,46,53,2,,,,47,36,7,10,0.8,0.9
2025-11-12T0500,3039A,111.1911,34.7829,三门峡市,三门峡市第一小学,,,108,124,58,69,3,,,,,43,11,15,0.6,0.8
2025-11-12T0500,3598A,111.1,34.7167,三门峡市,富达温泉假日酒店,细颗粒物(PM2.5),94,107,131,70,73,5,,,,35,35,10,15,0.7,0.8
2025-11-12T0500,2324A,117.6211,26.2625,三明市,三钢,,17,6,22,3,15,52,,,,5,8,1,2,0.5,0.6
2025-11-12T0500,2325A,117.635,26.2714,三明市,三明二中,,16,6,19,3,13,51,,,,2,5,4,5,0.5,0.5
2025-11-12T0500,2326A,117.6028,26.2378,三明市,三元区政府,,18,6,20,3,10,57,,,,5,8,3,3,0.8,0.6
2025-11-12T0500,2327A,117.7275,26.3108,三明市,洋溪,,,,19,,15,,,65,,,8,,12,,1.2
2025-11-12T0500,1876A,109.5078,18.2489,三亚市,河东子站,,40,40,27,13,14,15,,,,17,16,4,4,0.7,0.6
2025-11-12T0500,1877A,109.4964,18.2681,三亚市,河西子站,,38,38,34,14,16,22,,,,8,15,6,6,0.6,0.6
2025-11-12T0500,3540A,109.7348,18.3443,三亚市,君悦子站,,19,19,41,8,15,24,,,,7,12,4,4,0.6,0.6
2025-11-12T0500,2624A,91.7608,29.2313,山南市,山南监测站,,22,20,37,3,14,68,,,,4,10,5,5,0.2,0.2
2025-11-12T0500,2625A,91.7706,29.2436,山南市,山南人民医院,,26,26,42,8,17,58,,,,5,10,6,6,0.3,0.3
2025-11-12T0500,1674A,116.6794,23.3667,汕头市,金平子站,,18,18,36,10,17,44,,,,11,21,6,7,0.7,0.7
2025-11-12T0500,1675A,116.7244,23.3633,汕头市,龙湖子站,,16,11,28,11,14,38,,,,10,15,9,9,0.3,0.6
2025-11-12T0500,1676A,116.7258,23.2775,汕头市,濠江子站,,,12,25,10,15,38,,,,,14,8,7,0.6,0.8
2025-11-12T0500,1677A,116.7519,23.4714,汕头市,澄海子站,,23,23,25,7,13,46,,,,5,12,6,5,0.5,0.6
2025-11-12T0500,1678A,116.6092,23.2539,汕头市,潮阳子站,,,12,26,6,12,49,,,,,14,5,7,0.5,0.7
2025-11-12T0500,3444A,116.454,23.2684,汕头市,潮南峡山,,,22,26,15,15,44,,,,,8,7,8,0.6,0.6
2025-11-12T0500,3624A,116.4069,23.2533,汕头市,潮南子站,,,24,40,17,20,43,,,,,17,4,5,0.6,0.7
2025-11-12T0500,1693A,115.3653,22.775,汕尾市,市环保局,,19,17,23,12,14,59,,,,4,6,5,5,0.5,0.5
2025-11-12T0500,1694A,115.3706,22.7898,汕尾市,市政府,,20,17,21,8,14,62,,,,6,7,7,7,0.4,0.4
2025-11-12T0500,1695A,115.3622,22.7925,汕尾市,新城中学,,20,20,24,11,14,61,,,,3,5,7,7,0.6,0.6
2025-11-12T0500,2645A,109.9154,33.8715,商洛市,监测站,颗粒物(PM10),56,62,70,28,30,18,,,,24,30,3,4,0.5,0.6
2025-11-12T0500,3045A,109.9643,33.8471,商洛市,商州区中学,,,44,69,25,27,10,,,,,29,4,5,0.4,0.5
2025-11-12T0500,2408A,115.6702,34.4285,商丘市,环境监测站,细颗粒物(PM2.5),80,63,68,59,47,3,,,,56,42,2,2,0.5,0.4
2025-11-12T0500,2409A,115.6458,34.4045,商丘市,粮食局,,,59,60,45,40,16,,,,,39,1,3,0.5,0.5
2025-11-12T0500,2410A,115.6293,34.3948,商丘市,睢阳区环保局,细颗粒物(PM2.5),68,57,71,49,44,3,,,,35,43,2,3,0.7,0.5
2025-11-12T0500,3171A,115.6071,34.4465,商丘市,梁园区档案局,细颗粒物(PM2.5),84,84,63,62,42,2,,,,71,46,4,3,0.6,0.5
2025-11-12T0500,1141A,121.4,31.238,上海市,普陀,,27,27,22,8,7,68,,,,23,21,5,5,0.5,0.5
2025-11-12T0500,1142A,121.478,31.2036,上海市,十五厂,,24,24,27,8,8,70,,,,14,16,8,8,0.4,0.4
2025-11-12T0500,1143A,121.467,31.3008,上海市,虹口,,,26,23,6,6,50,,,,,13,9,9,0.4,0.4
2025-11-12T0500,1147A,121.425,31.2261,上海市,静安监测站,,26,26,24,10,7,68,,,,18,17,6,5,0.1,0.2
2025-11-12T0500,1148A,121.703,31.1907,上海市,浦东川沙,,24,24,22,8,5,71,,,,13,11,10,10,0.4,0.3
2025-11-12T0500,1149A,121.533,31.2284,上海市,浦东新区监测站,,23,23,23,12,12,65,,,,18,20,6,6,0.5,0.5
2025-11-12T0500,1150A,121.577,31.2071,上海市,浦东张江,,,25,23,8,7,68,,,,,17,6,6,0.2,0.2
2025-11-12T0500,3265A,121.4316,31.3322,上海市,宝山庙行,,,31,24,7,6,57,,,,,22,9,9,0.5,0.5
2025-11-12T0500,3266A,121.8791,31.4662,上海市,崇明上实东滩,,26,20,18,6,6,81,,,,6,5,4,4,0.4,0.3
2025-11-12T0500,3268A,121.3162,31.2838,上海市,嘉定南翔,,27,27,22,12,8,68,,,,20,20,6,6,0.3,0.3
2025-11-12T0500,3269A,121.3359,30.7456,上海市,金山新城,,,27,25,10,8,64,,,,,19,5,5,0.3,0.3
2025-11-12T0500,3270A,121.4996,31.0739,上海市,闵行浦江,,24,24,24,7,6,72,,,,12,15,5,5,0.5,0.5
2025-11-12T0500,3271A,121.2886,31.1663,上海市,青浦徐泾,,28,28,22,9,7,69,,,,21,24,8,8,0.3,0.5
2025-11-12T0500,3272A,121.2186,31.0378,上海市,松江图书馆,,24,24,19,8,6,67,,,,19,27,6,5,0.4,0.4
2025-11-12T0500,3273A,121.3902,31.2059,上海市,长宁仙霞,,26,26,24,9,7,67,,,,15,15,6,6,0.4,0.4
2025-11-12T0500,3274A,121.7965,31.0507,上海市,浦东惠南,,24,24,24,8,6,72,,,,14,14,8,7,0.1,0.1
2025-11-12T0500,3544A,121.4891,30.925,上海市,奉贤南桥新城,,25,25,25,11,8,77,,,,11,17,6,6,0.2,0.2
2025-11-12T0500,4183A,121.4174,31.16637,上海市,冠生园路458号,,25,25,22,14,12,77,,,,15,19,6,6,0.4,0.4
2025-11-12T0500,4205A,121.5419,31.2683,上海市,宁武路151号,,26,26,30,9,10,67,,,,18,22,6,6,0.6,0.6
2025-11-12T0500,2381A,118.005,28.4572,上饶市,百草园,,,,,,,,,,,,,,,,
2025-11-12T0500,2382A,117.9756,28.4436,上饶市,市监测站,,26,26,37,11,15,56,,,,11,12,10,6,0.2,0.3
2025-11-12T0500,2383A,117.9519,28.4628,上饶市,凤凰光学,,24,24,37,11,14,56,,,,11,13,12,9,0.4,0.3
2025-11-12T0500,3685A,117.897,28.4315,上饶市,双创科技城,,24,24,38,12,18,58,,,,17,18,11,8,0.3,0.3
2025-11-12T0500,4211A,118.1904,28.4448,上饶市,裕丰大道,,20,17,40,3,16,64,,,,11,15,3,4,0.2,0.3
2025-11-12T0500,1669A,113.5824,24.7733,韶关市,市八中,,16,8,10,3,4,50,,,,10,11,5,6,0.6,0.6
2025-11-12T0500,1671A,113.5917,24.7972,韶关市,园林处,,16,9,9,6,5,50,,,,8,8,6,7,0.8,0.8
2025-11-12T0500,1673A,113.5971,24.6863,韶关市,曲江监测站,,15,9,9,3,4,48,,,,8,9,8,9,0.7,0.7
2025-11-12T0500,2809A,113.6668,24.7756,韶关市,大学路288号,,15,8,11,3,6,45,,,,9,10,9,10,0.7,0.7
2025-11-12T0500,3622A,113.5556,24.8082,韶关市,碧湖山庄,,16,11,11,6,5,49,,,,9,10,7,8,0.6,0.7
2025-11-12T0500,2462A,111.5239,27.3033,邵阳市,市水土所,,,,,,,,,,,,,,,,
2025-11-12T0500,2464A,111.5283,27.2442,邵阳市,市化工厂,颗粒物(PM10),54,58,46,29,22,76,,,,14,14,13,10,0.6,0.5
2025-11-12T0500,2466A,111.4328,27.2272,邵阳市,市环保局,颗粒物(PM10),53,55,48,28,21,43,,,,16,13,4,3,0.6,0.6
2025-11-12T0500,4218A,111.4460,27.2472,邵阳市,北塔二期4-26地块,,50,50,43,25,24,39,,,,15,15,4,4,0.7,0.8
2025-11-12T0500,4219A,111.4739,27.2282,邵阳市,邵水西路287号,颗粒物(PM10),53,56,45,29,21,55,,,,15,14,9,9,0.3,0.3
2025-11-12T0500,1247A,120.6053,29.9928,绍兴市,城东开发委,,46,46,30,21,9,33,,,,29,24,8,7,0.4,0.3
2025-11-12T0500,2921A,120.5483,30.0003,绍兴市,树下王站,,34,34,24,3,3,35,,,,29,24,7,7,0.5,0.4
2025-11-12T0500,3408A,120.5683,29.9361,绍兴市,绍兴中专,,34,34,27,20,12,35,,,,25,19,5,4,0.5,0.4
2025-11-12T0500,3409A,120.4906,30.0861,绍兴市,柯桥区政府,,34,34,28,13,7,36,,,,34,29,6,6,0.4,0.4
2025-11-12T0500,3410A,120.8752,30.0249,绍兴市,重华小学,,27,27,26,10,8,48,,,,25,24,9,9,0.3,0.3
2025-11-12T0500,3411A,120.8369,30.0137,绍兴市,上虞中学,,36,36,23,17,8,29,,,,34,22,7,6,0.3,0.3
