timepoint,stationcode,longitude,latitude,area,positionname,primarypollutant,aqi,pm10,pm10_24h,pm2_5,pm2_5_24h,o3,o3_24h,o3_8h,o3_8h_24h,no2,no2_24h,so2,so2_24h,co,co_24h
2025-11-12T2300,2566A,102.1879,31.914,阿坝藏族羌族自治州,州农科所,,,,,,,,,,,,,,,,
2025-11-12T2300,2568A,102.2502,31.8896,阿坝藏族羌族自治州,马师校,,,40,19,,10,24,,45,26,14,16,6,7,,0.8
2025-11-12T2300,3994A,102.2165,31.9024,阿坝藏族羌族自治州,马尔康中学西区,,19,18,17,13,12,34,,56,39,16,15,5,5,0.5,0.5
2025-11-12T2300,2695A,80.292,41.1694,阿克苏地区,电视台,颗粒物(PM10),355,464,220,250,77,12,,78,57,93,46,15,8,5.1,1.7
2025-11-12T2300,2696A,80.2613,41.1551,阿克苏地区,艺术中心,颗粒物(PM10),140,230,186,95,73,6,,76,56,98,47,5,4,1.6,0.9
2025-11-12T2300,2204A,105.6467,38.8363,阿拉善盟,西城区西花园,,,,,,,,,,,,,,,,
2025-11-12T2300,2205A,105.6985,38.8411,阿拉善盟,蒙二幼,,30,30,45,7,12,76,,93,80,8,9,8,8,0.7,0.7
2025-11-12T2300,2206A,105.724,38.8516,阿拉善盟,环保局新楼,,25,19,37,6,11,78,,87,81,4,5,9,9,0.6,0.7
2025-11-12T2300,2708A,88.1264,47.8517,阿勒泰地区,市站,,21,21,10,3,4,55,,76,41,9,13,3,3,0.4,0.3
2025-11-12T2300,2630A,80.1161,32.5,阿里地区,阿里监测站,,20,6,3,3,3,64,,79,76,18,7,13,8,0.5,0.4
2025-11-12T2300,3192A,80.0903,32.5028,阿里地区,阿里藏医院,,29,6,9,3,4,90,,90,90,1,5,6,9,0.4,0.5
2025-11-12T2300,2642A,109.0318,32.6537,安康市,香溪洞,,,,,,,,,,,,,,,,
2025-11-12T2300,2644A,109.0072,32.6975,安康市,汉滨区检察院,颗粒物(PM10),58,65,59,24,28,8,,24,18,25,28,6,5,0.5,0.5
2025-11-12T2300,4054A,109.0325,32.6913,安康市,市邮政管理局,颗粒物(PM10),60,70,63,25,28,3,,29,16,26,24,4,4,0.5,0.6
2025-11-12T2300,2291A,117.0809,30.5177,安庆市,环科院,,46,46,41,26,22,83,,111,99,13,14,6,6,0.4,0.4
2025-11-12T2300,2292A,117.0331,30.5119,安庆市,马山宾馆,,37,37,36,23,19,80,,108,98,22,19,5,5,0.3,0.3
2025-11-12T2300,2294A,116.9896,30.6145,安庆市,安庆大学,,42,42,38,26,20,82,,106,98,15,15,7,7,0.5,0.5
2025-11-12T2300,3173A,117.0598,30.5351,安庆市,市人大,,43,43,38,24,20,76,,108,95,23,18,6,6,0.4,0.4
2025-11-12T2300,3122A,105.9606,26.2611,安顺市,伍家关,,36,36,39,19,16,50,,64,59,9,8,13,10,0.3,0.3
2025-11-12T2300,3123A,105.9408,26.2431,安顺市,凤凰山,,39,32,25,27,20,46,,58,55,9,8,13,12,0.5,0.5
2025-11-12T2300,3124A,105.9439,26.2564,安顺市,金钟山,,33,27,23,23,22,49,,62,59,8,6,13,13,0.6,0.6
2025-11-12T2300,3125A,105.8983,26.2481,安顺市,娄家坡,,33,28,27,23,22,45,,55,53,9,8,14,12,0.6,0.6
2025-11-12T2300,1818A,114.4839,36.0621,安阳市,棉研所,,,,,,,,,,,,,,,,
2025-11-12T2300,1819A,114.3551,36.1017,安阳市,红庙街,细颗粒物(PM2.5),155,167,113,118,88,6,,93,54,84,41,2,4,1.2,0.8
2025-11-12T2300,1820A,114.361,36.0681,安阳市,银杏小区,细颗粒物(PM2.5),165,147,114,125,90,3,,95,51,68,42,3,5,1.3,0.7
2025-11-12T2300,3141A,114.3922,36.0878,安阳市,信访局,细颗粒物(PM2.5),142,168,112,108,82,14,,96,60,63,34,1,3,1.1,0.6
2025-11-12T2300,3669A,114.4705,36.0637,安阳市,左辅环卫站,细颗粒物(PM2.5),153,214,158,117,87,35,,100,65,53,42,4,4,1.0,0.7
2025-11-12T2300,3703A,114.2917,36.0949,安阳市,安钢职工学校,细颗粒物(PM2.5),156,217,128,119,96,1,,92,53,71,38,2,4,1.1,0.8
2025-11-12T2300,1748A,123.044,41.1196,鞍山市,深沟寺,,34,34,116,13,77,53,,117,91,20,33,10,13,0.7,1
2025-11-12T2300,1749A,123.011,41.0931,鞍山市,太阳城,,45,45,111,20,70,43,,116,87,28,25,21,15,1.1,0.9
2025-11-12T2300,1750A,123.0485,41.1442,鞍山市,太平,,26,26,135,9,77,54,,115,83,14,25,12,15,0.7,1.1
2025-11-12T2300,1751A,122.9642,41.0971,鞍山市,铁西三道街,,23,23,144,8,77,50,,111,78,17,31,12,14,0.9,1.3
2025-11-12T2300,1753A,123.022,41.0821,鞍山市,明达新区,,37,37,115,16,72,48,,118,88,20,22,16,14,0.9,0.9
2025-11-12T2300,1754A,123.1289,41.0228,鞍山市,千山,,,,62,,48,,,102,,,16,,7,,0.6
2025-11-12T2300,4201A,122.9446,41.0826,鞍山市,兴盛南路290号,,26,26,137,8,75,54,,121,86,19,32,13,12,0.4,0.9
2025-11-12T2300,2195A,107.4212,40.761,巴彦淖尔市,附二中,,44,44,56,27,24,37,,72,57,24,9,9,5,0.5,0.4
2025-11-12T2300,2196A,107.37,40.7372,巴彦淖尔市,市环保大楼,,45,45,54,25,22,18,,74,47,47,15,8,8,0.6,0.4
2025-11-12T2300,1956A,86.1472,41.7538,巴音郭楞蒙古自治州,孔雀公园,颗粒物(PM10),104,157,131,47,40,48,,82,71,34,48,8,9,0.7,0.7
2025-11-12T2300,1957A,86.1972,41.7166,巴音郭楞蒙古自治州,棉纺厂,颗粒物(PM10),137,224,152,41,32,6,,81,62,76,37,7,6,0.4,0.4
2025-11-12T2300,1958A,86.2357,41.7173,巴音郭楞蒙古自治州,经济开发区,颗粒物(PM10),105,160,121,33,26,39,,76,60,40,31,8,6,0.7,0.7
2025-11-12T2300,2914A,106.7677,31.8794,巴中市,苏山坪,,,,,,,,,,,,,,,,
2025-11-12T2300,3181A,106.7768,31.8526,巴中市,市五中,颗粒物(PM10),59,68,50,37,27,1,,29,18,19,17,8,8,0.7,0.6
2025-11-12T2300,3183A,106.7418,31.8654,巴中市,圣泉水务公司,颗粒物(PM10),52,53,44,29,24,1,,35,19,25,18,9,9,0.6,0.7
2025-11-12T2300,3616A,106.7616,31.8344,巴中市,市中心医院,颗粒物(PM10),56,62,48,25,28,0,,27,14,23,20,4,4,0.8,0.6
2025-11-12T2300,2235A,122.7911,45.6077,白城市,洮北区环保局,,21,21,34,10,20,48,,64,57,4,8,7,5,0.1,0.2
2025-11-12T2300,2236A,122.8738,45.5725,白城市,市环保局,,22,22,36,8,20,43,,60,52,6,8,2,3,0.2,0.3
2025-11-12T2300,2231A,126.4219,41.9171,白山市,喜丰,,34,34,78,9,28,76,,93,89,7,20,7,10,0.6,0.8
2025-11-12T2300,2232A,126.4077,41.9419,白山市,环保局,,26,23,49,9,29,81,,91,88,7,18,8,8,0.8,0.9
2025-11-12T2300,2647A,104.1724,36.5446,白银市,第三小学,颗粒物(PM10),70,89,75,31,23,0,,71,46,58,30,8,14,0.6,0.3
2025-11-12T2300,2648A,104.1465,36.5482,白银市,动力公司,,,83,68,,11,16,,78,52,39,19,6,11,0.5,0.5
2025-11-12T2300,2512A,106.6103,23.9011,百色市,市监测站,,15,15,16,7,6,17,,49,27,11,11,5,8,0.5,0.5
2025-11-12T2300,2513A,106.6538,23.8859,百色市,市中心血站,,41,41,23,15,8,2,,53,20,34,21,6,8,0.7,0.7
2025-11-12T2300,3406A,106.6085,23.8798,百色市,祈福高中,颗粒物(PM10),51,51,25,16,8,9,,47,21,19,15,5,5,0.6,0.5
2025-11-12T2300,2270A,117.396,32.939,蚌埠市,工人疗养院,颗粒物(PM10),75,99,64,44,30,54,,95,79,57,32,6,5,0.3,0.3
2025-11-12T2300,2271A,117.3605,32.9427,蚌埠市,百货大楼,颗粒物(PM10),64,78,53,44,25,46,,99,80,61,33,10,8,0.7,0.4
2025-11-12T2300,2273A,117.4185,32.8911,蚌埠市,蚌埠学院,细颗粒物(PM2.5),70,78,49,51,28,48,,96,66,46,42,5,7,0.4,0.4
2025-11-12T2300,2274A,117.3533,32.9673,蚌埠市,淮上区政府,细颗粒物(PM2.5),75,83,55,55,29,76,,96,84,37,31,10,7,0.7,0.3
2025-11-12T2300,2275A,117.3145,32.8977,蚌埠市,高新区,细颗粒物(PM2.5),70,73,47,51,27,33,,90,79,58,31,7,8,0.5,0.4
2025-11-12T2300,3715A,117.3092,32.9314,蚌埠市,蚌埠田家炳中学,细颗粒物(PM2.5),72,80,62,52,29,66,,99,90,35,31,5,5,0.6,0.3
2025-11-12T2300,1585A,109.8756,40.6532,包头市,市环境监测站,,47,47,82,12,34,8,,72,46,62,38,7,12,0.9,1
2025-11-12T2300,1587A,109.9991,40.5842,包头市,包头八中,颗粒物(PM10),57,63,73,26,28,6,,74,40,63,37,7,11,0.7,0.7
2025-11-12T2300,1588A,109.8538,40.6821,包头市,青山宾馆,,33,33,66,21,32,11,,73,46,61,38,7,8,0.8,0.8
2025-11-12T2300,1589A,109.8642,40.6288,包头市,惠龙物流,,41,41,76,23,25,4,,78,56,69,35,8,15,1.0,0.9
2025-11-12T2300,1590A,110.0377,40.5546,包头市,东河鸿龙湾,颗粒物(PM10),52,54,65,3,21,14,,73,42,70,40,5,8,0.8,0.8
2025-11-12T2300,3283A,109.9154,40.5685,包头市,滨河大厦,颗粒物(PM10),51,52,61,29,25,5,,77,49,64,30,9,13,0.8,0.7
2025-11-12T2300,3419A,109.9447,40.6261,包头市,包头市委党校,,49,49,60,8,25,8,,78,45,65,37,7,12,0.5,0.8
2025-11-12T2300,3683A,109.8331,40.6576,包头市,昆区政府,,35,35,79,10,34,49,,73,60,26,36,9,16,0.5,1.1
2025-11-12T2300,1930A,107.185,34.3063,宝鸡市,庙沟村,,,,,,,,,,,,,,,,
2025-11-12T2300,1931A,107.0708,34.3017,宝鸡市,竹园沟,颗粒物(PM10),54,58,56,31,32,25,,70,50,23,19,8,8,0.4,0.4
2025-11-12T2300,1932A,107.1906,34.3672,宝鸡市,三陆医院,颗粒物(PM10),85,119,86,56,48,7,,54,27,58,45,8,8,0.8,0.7
2025-11-12T2300,1933A,107.1431,34.3547,宝鸡市,监测站,颗粒物(PM10),65,80,72,43,46,13,,55,,42,23,5,5,0.3,0.5
2025-11-12T2300,1934A,107.1186,34.3739,宝鸡市,技工学校,颗粒物(PM10),65,79,79,44,44,18,,63,37,42,28,10,7,0.6,0.6
2025-11-12T2300,1936A,107.2058,34.3497,宝鸡市,文理学院,"颗粒物(PM10),细颗粒物(PM2.5)",59,67,75,42,43,18,,62,38,49,33,7,6,0.7,0.6
2025-11-12T2300,1937A,107.2386,34.3622,宝鸡市,三迪小学,细颗粒物(PM2.5),87,114,90,64,53,1,,55,24,74,48,5,6,0.9,0.8
2025-11-12T2300,4308A,107.3898,34.3601,宝鸡市,陈仓区北开路21号,细颗粒物(PM2.5),104,134,108,78,62,2,,59,29,65,43,8,24,0.8,0.7
2025-11-12T2300,1051A,115.493,38.8632,保定市,游泳馆,细颗粒物(PM2.5),222,205,187,172,148,4,,28,8,92,78,5,7,1.6,1.2
2025-11-12T2300,1052A,115.5213,38.8959,保定市,华电二区,细颗粒物(PM2.5),211,171,168,161,146,0,,31,6,89,73,2,2,1.3,1.2
2025-11-12T2300,1053A,115.4713,38.9108,保定市,接待中心,细颗粒物(PM2.5),208,188,173,158,139,1,,37,8,91,68,2,3,1.5,1.1
2025-11-12T2300,1054A,115.4612,38.8416,保定市,地表水厂,细颗粒物(PM2.5),196,210,198,147,137,2,,29,6,95,76,5,6,1.1,1
2025-11-12T2300,3581A,115.31981,38.95208,保定市,满城区生态环境分局,颗粒物(PM10),57,63,161,34,106,43,,40,28,36,61,3,2,0.3,0.8
2025-11-12T2300,3582A,115.47694,38.76408,保定市,清苑区第二中学,细颗粒物(PM2.5),190,218,209,143,131,4,,35,8,106,79,4,6,1.0,1
2025-11-12T2300,3583A,115.62909,39.02311,保定市,徐水物探局,细颗粒物(PM2.5),229,254,224,179,160,1,,30,8,88,74,6,8,1.0,1.1
2025-11-12T2300,4004A,115.4202,38.8656,保定市,双鹰农机,细颗粒物(PM2.5),169,216,209,128,132,6,,39,15,81,66,2,3,1.4,1.2
2025-11-12T2300,4034A,115.5150,38.8590,保定市,植保所站,细颗粒物(PM2.5),221,211,210,171,149,2,,22,6,94,81,3,2,2.1,1.6
2025-11-12T2300,2594A,99.1678,25.1081,保山市,市环境监测站,,14,13,16,8,11,44,,75,57,7,8,5,4,0.4,0.3
2025-11-12T2300,2595A,99.1711,25.1328,保山市,市环保局,,29,,18,20,14,53,,82,67,3,5,6,6,0.4,0.4
2025-11-12T2300,1866A,109.2262,21.588,北海市,牛尾岭水库,,23,,14,16,9,53,,65,60,7,10,3,3,0.3,0.3
2025-11-12T2300,1867A,109.1436,21.4086,北海市,海滩公园,,33,33,24,17,11,72,,86,84,8,7,8,8,0.6,0.6
2025-11-12T2300,1868A,109.0981,21.4661,北海市,新市环保局,,32,32,23,19,14,74,,89,87,8,7,4,5,0.5,0.6
2025-11-12T2300,1869A,109.1778,21.5233,北海市,北海工业园,,26,26,25,17,14,71,,88,84,10,9,5,5,0.2,0.3
2025-11-12T2300,3400A,109.1911,21.4415,北海市,龙潭自来水厂,,33,33,23,20,13,71,,87,84,4,4,4,5,0.5,0.6
2025-11-12T2300,1001A,116.3621,39.8784,北京市,万寿西宫,,21,8,108,3,67,65,,72,71,15,51,2,4,0.3,1
2025-11-12T2300,1002A,116.2202,40.2915,北京市,定陵,,,,,,,,,,,,,,,,
2025-11-12T2300,1003A,116.4174,39.9289,北京市,东四,,18,12,126,3,80,57,,68,67,20,59,3,5,0.4,1.2
2025-11-12T2300,1004A,116.4072,39.8863,北京市,天坛,,16,10,86,3,62,49,,65,63,20,37,3,2,0.2,0.8
2025-11-12T2300,1005A,116.462,39.9365,北京市,农展馆,,16,11,95,3,61,51,,69,67,26,47,3,4,0.5,1.1
2025-11-12T2300,1006A,116.3392,39.9295,北京市,官园,,19,9,115,3,68,58,,70,69,14,50,1,3,0.1,0.8
2025-11-12T2300,1007A,116.2878,39.9611,北京市,海淀万柳,,20,8,108,3,65,64,,67,67,11,44,4,4,0.2,0.7
2025-11-12T2300,1008A,116.6636,40.135,北京市,顺义新城,,20,7,86,3,53,63,,69,67,9,34,4,6,0.2,0.8
2025-11-12T2300,1009A,116.6275,40.3275,北京市,怀柔镇,,21,6,86,3,60,67,,74,73,3,23,4,5,0.3,0.8
2025-11-12T2300,1010A,116.2296,40.217,北京市,昌平镇,,18,8,104,3,73,57,,65,62,14,33,4,5,0.2,0.6
2025-11-12T2300,1011A,116.3966,39.9821,北京市,奥体中心,,15,8,109,3,69,46,,60,58,26,56,4,5,0.2,0.9
2025-11-12T2300,3281A,115.9718,40.4529,北京市,延庆夏都,,15,13,70,3,40,47,,77,67,19,29,2,3,0.3,0.6
2025-11-12T2300,3418A,116.8336,40.4095,北京市,密云新城,,19,13,108,8,70,59,,69,67,9,26,2,3,0.3,0.8
2025-11-12T2300,3671A,116.088,39.9726,北京市,门头沟三家店,,21,6,72,3,43,67,,73,73,5,24,1,2,0.2,0.5
2025-11-12T2300,3672A,116.1541,39.8204,北京市,丰台云岗,,20,8,109,3,67,64,,73,72,12,39,3,4,0.2,0.6
2025-11-12T2300,3673A,116.6804,39.9081,北京市,通州东关,,19,10,80,3,46,60,,59,59,13,41,3,5,0.2,0.8
2025-11-12T2300,3674A,115.9577,39.7603,北京市,房山燕山,,20,6,96,3,67,61,,63,61,5,25,3,4,0.5,0.8
2025-11-12T2300,3675A,116.4672,39.7733,北京市,大兴旧宫,,20,8,95,3,52,63,,69,69,15,42,2,3,0.3,0.9
2025-11-12T2300,3694A,115.986,40.4563,北京市,延庆石河营,,15,11,66,3,38,41,,65,57,29,31,2,3,0.3,0.5
2025-11-12T2300,3695A,116.6151,40.3053,北京市,怀柔新城,,22,6,87,3,62,70,,80,78,5,20,3,4,0.2,0.7
2025-11-12T2300,3696A,116.2545,39.8768,北京市,丰台小屯,,20,7,118,3,74,62,,66,66,8,43,3,4,0.2,0.9
2025-11-12T2300,3697A,116.84,40.3844,北京市,密云镇,,19,14,116,3,77,24,,62,50,38,34,2,3,0.3,0.8
2025-11-12T2300,4182A,116.1942,39.9158,北京市,八角北路9号,,19,8,119,3,69,59,,65,65,10,48,3,2,0,0.7
2025-11-12T2300,4194A,117.0790,40.1518,北京市,洳河巡河路,,20,8,102,3,64,61,,72,69,12,20,3,4,0.3,0.8
2025-11-12T2300,1761A,123.8275,41.3064,本溪市,大峪,细颗粒物(PM2.5),82,102,88,60,48,20,,97,65,32,31,8,10,1.2,1
2025-11-12T2300,1762A,123.7567,41.3325,本溪市,溪湖,颗粒物(PM10),69,88,99,44,55,44,,82,64,26,37,10,12,0.6,1.4
2025-11-12T2300,1763A,123.7169,41.3094,本溪市,彩屯,颗粒物(PM10),52,53,111,27,70,54,,64,53,15,44,11,18,0.5,3
2025-11-12T2300,1764A,123.7669,41.2864,本溪市,东明,颗粒物(PM10),68,85,79,36,52,48,,86,63,24,34,14,13,0.5,0.9
2025-11-12T2300,1765A,123.7992,41.2664,本溪市,新立屯,细颗粒物(PM2.5),70,82,62,51,45,43,,91,63,25,31,10,9,0.8,0.7
2025-11-12T2300,1766A,123.8142,41.3472,本溪市,威宁,细颗粒物(PM2.5),63,70,97,45,52,6,,88,54,36,35,5,10,0.9,1.1
2025-11-12T2300,2587A,105.2864,27.3125,毕节市,八中,,16,16,15,10,13,38,,36,33,5,8,7,7,0.6,0.7
2025-11-12T2300,2588A,105.31,27.2944,毕节市,师专,,18,16,16,12,12,37,,36,36,7,9,9,8,0.7,0.6
2025-11-12T2300,4263A,105.3688,27.3598,毕节市,工业大道,,14,12,14,8,10,43,,41,41,4,6,8,9,0.7,0.7
2025-11-12T2300,1629A,118.0018,37.3617,滨州市,第二水厂,细颗粒物(PM2.5),127,161,136,96,77,30,,86,63,56,56,17,16,0.7,0.6
2025-11-12T2300,1630A,117.9776,37.393,滨州市,北中新校,细颗粒物(PM2.5),138,161,124,105,77,21,,94,62,68,57,16,16,0.7,0.4
2025-11-12T2300,3514A,117.9378,37.3956,滨州市,中海酒店,细颗粒物(PM2.5),132,166,129,100,81,14,,99,53,106,73,11,13,1.0,0.8
2025-11-12T2300,3515A,117.9378,37.3553,滨州市,开发区一中,细颗粒物(PM2.5),134,175,151,102,85,29,,94,62,58,51,16,17,1.1,1
2025-11-12T2300,3516A,118.0917,37.694,滨州市,金海六路,细颗粒物(PM2.5),132,173,137,100,75,4,,86,46,100,65,12,17,0.8,0.6
2025-11-12T2300,4028A,117.9956,37.3753,滨州市,滨州市西街道办事处,细颗粒物(PM2.5),134,163,135,102,83,32,,94,64,53,52,14,15,0.8,0.6
2025-11-12T2300,2311A,115.8072,33.8399,亳州市,污水处理厂,细颗粒物(PM2.5),73,74,71,53,48,56,,91,60,30,41,19,20,0.6,0.6
2025-11-12T2300,2312A,115.7789,33.8518,亳州市,三国揽胜宫,"颗粒物(PM10),细颗粒物(PM2.5)",62,73,73,44,41,71,,92,62,28,41,10,9,0.5,0.5
2025-11-12T2300,3332A,115.7633,33.8034,亳州市,亳州学院,细颗粒物(PM2.5),62,63,62,44,40,62,,96,69,38,31,11,9,0.5,0.6
2025-11-12T2300,2693A,82.0485,44.8556,博尔塔拉蒙古自治州,市党校,,,,36,,11,16,,47,39,26,16,2,4,0.5,0.2
2025-11-12T2300,2694A,82.0806,44.8969,博尔塔拉蒙古自治州,市环保局,颗粒物(PM10),82,113,53,34,21,5,,44,26,52,24,3,4,1.0,0.5
2025-11-12T2300,1071A,116.8842,38.2991,沧州市,沧县城建局,细颗粒物(PM2.5),88,111,145,65,105,47,,81,54,41,53,7,8,0.4,0.6
2025-11-12T2300,1072A,116.8584,38.3254,沧州市,电视转播站,细颗粒物(PM2.5),98,103,145,73,109,39,,79,49,44,44,8,8,0.5,0.7
2025-11-12T2300,1073A,116.8709,38.3228,沧州市,市环保局,细颗粒物(PM2.5),139,124,152,106,115,30,,82,54,60,52,5,8,0.5,0.6
2025-11-12T2300,3324A,116.8136,38.3004,沧州市,河北水利电力学院,"颗粒物(PM10),细颗粒物(PM2.5)",84,117,161,62,89,46,,78,58,40,48,12,17,0.4,0.7
2025-11-12T2300,2622A,97.1806,31.1273,昌都市,昌都监测站,,36,31,25,25,13,20,,78,58,38,16,4,3,0.9,0.5
2025-11-12T2300,3719A,97.1714,31.1406,昌都市,昌都会议中心,,19,17,16,10,8,60,,84,76,3,4,2,3,0.2,0.2
2025-11-12T2300,2690A,88.1236,43.8886,昌吉回族自治州,天山天池,,,,,,,,,,,,,,,,
2025-11-12T2300,2692A,87.2717,44.0297,昌吉回族自治州,新区政务中心,颗粒物(PM10),80,110,61,39,24,2,,34,22,59,43,10,9,1.4,1
2025-11-12T2300,3613A,87.3095,44.0142,昌吉回族自治州,亚心广场,颗粒物(PM10),73,95,62,51,26,3,,33,20,62,46,9,9,1.3,0.9
2025-11-12T2300,1120A,125.2863,43.9027,长春市,客车厂,颗粒物(PM10),52,54,105,13,84,57,,84,68,10,26,6,10,0.2,0.7
2025-11-12T2300,1121A,125.2841,43.8463,长春市,邮电学院,颗粒物(PM10),53,56,108,33,81,58,,84,69,16,28,6,11,0.3,0.6
2025-11-12T2300,1122A,125.3716,43.8772,长春市,劳动公园,颗粒物(PM10),52,53,113,9,66,55,,87,71,14,27,9,12,0.5,0.9
2025-11-12T2300,1123A,125.3297,43.8805,长春市,园林处,,,,99,,78,,,80,66,11,23,5,9,,0.7
2025-11-12T2300,1124A,125.4605,43.79,长春市,净月潭,,45,45,103,3,70,55,,90,71,12,18,6,8,0.3,0.6
2025-11-12T2300,1125A,125.7194,43.515,长春市,甩湾子,颗粒物(PM10),65,79,104,13,76,56,,97,77,10,15,4,8,0.3,0.7
2025-11-12T2300,1126A,125.3863,43.8447,长春市,经开区环卫处,,42,42,94,12,69,52,,81,63,13,27,7,10,0.2,0.6
2025-11-12T2300,1127A,125.245,43.7783,长春市,高新区管委会,颗粒物(PM10),81,112,118,18,86,62,,93,86,12,26,6,8,0.2,0.7
2025-11-12T2300,1128A,125.1761,43.8325,长春市,岱山公园,颗粒物(PM10),83,115,104,23,77,45,,78,60,13,25,6,9,0.3,0.7
2025-11-12T2300,4281A,125.3346,43.9164,长春市,北亚泰大街1068号,,48,48,104,14,76,46,,75,56,16,32,6,10,0.3,0.7
2025-11-12T2300,1335A,113.0833,28.2325,长沙市,经开区环保局,,42,42,60,21,37,57,,76,74,25,21,5,6,0.4,0.5
2025-11-12T2300,1336A,112.8872,28.2189,长沙市,高开区环保局,,,,57,27,33,,,85,84,15,19,9,7,0.3,0.5
2025-11-12T2300,1337A,113.0792,28.2053,长沙市,马坡岭,,44,44,62,19,29,58,,85,80,21,17,5,6,0.5,0.6
2025-11-12T2300,1338A,112.9394,28.19,长沙市,湖南师范大学,,49,49,66,17,25,75,,87,84,11,13,12,10,0.4,0.5
2025-11-12T2300,1339A,113.0178,28.1322,长沙市,雨花区环保局,,44,44,62,24,37,74,,88,86,17,16,8,8,0.4,0.5
2025-11-12T2300,1340A,112.9792,28.2597,长沙市,伍家岭,,43,43,60,26,34,66,,82,78,18,19,6,6,0.3,0.4
2025-11-12T2300,1341A,113.0014,28.1944,长沙市,火车新站,颗粒物(PM10),52,53,64,27,39,72,,86,83,19,20,11,11,0.5,0.6
2025-11-12T2300,1342A,112.9844,28.1178,长沙市,天心区环保局,,45,45,61,22,30,76,,89,86,18,17,6,6,0.3,0.4
2025-11-12T2300,1343A,112.8908,28.1308,长沙市,湖南中医药大学,,48,48,60,19,24,66,,86,80,18,16,8,6,0.5,0.6
2025-11-12T2300,1344A,112.9581,28.3611,长沙市,沙坪,,,,,,,,,,,,,,,,
2025-11-12T2300,1727A,113.1147,36.1547,长治市,清华站,,48,48,63,24,39,32,,90,62,40,29,11,9,0.8,0.8
2025-11-12T2300,1730A,113.0886,36.2125,长治市,审计局,颗粒物(PM10),54,58,62,29,43,31,,79,56,46,31,18,14,0.9,0.9
2025-11-12T2300,1731A,113.0844,36.1856,长治市,长治八中,颗粒物(PM10),59,68,88,31,50,36,,82,63,34,26,18,13,0.8,0.9
2025-11-12T2300,2845A,113.1569,36.1911,长治市,德盛苑,颗粒物(PM10),51,51,57,27,39,53,,90,72,29,19,23,11,1.3,0.9
2025-11-12T2300,3568A,113.06,36.0464,长治市,向阳小学,,,99,99,37,51,15,,95,,72,29,13,10,,0.9
2025-11-12T2300,3569A,112.8792,36.3144,长治市,屯留一中,颗粒物(PM10),69,88,63,45,33,14,,79,44,60,37,11,11,1.0,0.7
2025-11-12T2300,4189A,113.1131,36.19948,长治市,英华南巷50号,颗粒物(PM10),54,57,68,29,39,35,,86,60,40,29,14,11,0.9,1.1
2025-11-12T2300,4190A,113.2367,36.3344,长治市,学府街1号,,28,28,75,11,41,69,,83,75,14,31,8,12,0.4,1.1
2025-11-12T2300,1854A,111.6975,28.9703,常德市,市二中,颗粒物(PM10),55,59,56,34,30,71,,93,85,24,13,9,7,0.2,0.2
2025-11-12T2300,1857A,111.7158,29.1456,常德市,白鹤山,,,,,,,,,,,,,,,,
2025-11-12T2300,3138A,111.7153,29.0289,常德市,武陵区永安,颗粒物(PM10),52,54,54,20,17,76,,93,89,16,12,8,7,0.3,0.4
2025-11-12T2300,3139A,111.6892,28.9881,常德市,鼎城区玉霞,颗粒物(PM10),56,61,53,38,30,56,,94,78,22,14,10,8,0.4,0.4
2025-11-12T2300,3140A,111.6625,29.0531,常德市,武陵区长庚,颗粒物(PM10),58,65,61,34,27,55,,94,79,26,14,8,6,0.5,0.3
2025-11-12T2300,1196A,119.9633,31.762,常州市,市监测站,,48,48,49,15,20,48,,75,63,33,27,6,6,0.5,0.4
2025-11-12T2300,1200A,119.9468,31.7069,常州市,武进监测站,,42,42,49,17,16,53,,75,66,36,34,10,9,0.4,0.5
2025-11-12T2300,1201A,119.9255,31.9087,常州市,安家,,48,48,48,15,20,45,,83,70,40,39,14,12,0.6,0.4
2025-11-12T2300,3002A,119.9805,31.8174,常州市,行政中心,,50,50,55,22,24,50,,78,65,35,30,5,7,0.4,0.4
2025-11-12T2300,3003A,120.0522,31.7748,常州市,经开区,颗粒物(PM10),56,61,65,14,21,18,,70,48,52,43,8,12,0.6,0.7
2025-11-12T2300,3010A,119.9025,31.7964,常州市,钟楼,,41,41,49,20,25,56,,78,70,29,34,9,10,0.5,0.6
2025-11-12T2300,3429A,119.8598,31.7066,常州市,武进经发区,,42,42,51,16,24,40,,70,54,47,47,8,10,0.7,0.7
2025-11-12T2300,3430A,119.5826,31.7245,常州市,金坛城区,,50,50,43,20,23,39,,87,66,37,26,6,7,0.6,0.6
2025-11-12T2300,2220A,120.4318,41.5881,朝阳市,西梁,,38,38,87,3,52,57,,87,66,12,27,5,7,0.0,0.9
2025-11-12T2300,2221A,120.4521,41.5646,朝阳市,河畔小区,,45,45,66,3,45,60,,89,68,15,25,4,6,0.4,0.7
2025-11-12T2300,2222A,120.4176,41.5648,朝阳市,八里堡,,47,47,68,9,42,58,,86,68,15,28,9,9,0.4,0.8
2025-11-12T2300,2223A,120.3806,41.5969,朝阳市,农业园区,,33,33,59,8,50,55,,93,71,21,25,8,8,0.3,0.7
2025-11-12T2300,1705A,116.6367,23.6719,潮州市,西园路,,,,,,,,,,,,,,,,
2025-11-12T2300,3026A,116.6183,23.6608,潮州市,市政府,,31,31,24,10,7,36,,54,44,3,3,3,4,0.3,0.4
2025-11-12T2300,4036A,116.6461,23.6761,潮州市,金山,,25,,12,17,16,34,,49,41,4,5,2,2,0.4,0.4
2025-11-12T2300,2472A,113.0073,25.9061,郴州市,马头岭,,,,,,,,,,,,,,,,
2025-11-12T2300,2473A,113.0116,25.8226,郴州市,市职中,,50,40,51,35,41,63,,62,61,12,13,2,2,0.6,0.7
2025-11-12T2300,2475A,113.0383,25.8071,郴州市,市审计局,,46,46,56,30,39,69,,67,67,11,13,1,1,0.2,0.3
2025-11-12T2300,2476A,113.0348,25.7759,郴州市,市环保局,,45,45,53,25,38,64,,55,55,11,14,2,2,0.4,0.5
2025-11-12T2300,4252A,113.0138,25.8011,郴州市,好美居路49号,,50,50,47,26,36,70,,70,70,12,15,1,2,0.5,0.9
2025-11-12T2300,1431A,103.9728,30.7236,成都市,金泉两河,,49,47,54,34,30,1,,24,12,42,33,2,2,0.7,0.6
2025-11-12T2300,1432A,104.176,30.6872,成都市,十里店,细颗粒物(PM2.5),83,82,69,61,45,6,,31,14,50,42,3,3,0.9,0.7
2025-11-12T2300,1433A,104.079,30.5706,成都市,三瓦窑,颗粒物(PM10),69,87,72,33,34,1,,24,11,53,45,4,4,0.8,0.7
2025-11-12T2300,1434A,104.1114,30.63,成都市,沙河铺,"颗粒物(PM10),细颗粒物(PM2.5)",62,74,66,44,49,2,,14,6,38,41,2,2,0.8,0.7
2025-11-12T2300,1437A,104.0786,30.6531,成都市,君平街,颗粒物(PM10),59,67,62,38,37,4,,24,14,47,39,5,4,0.9,0.8
2025-11-12T2300,1438A,103.613,31.0283,成都市,灵岩寺,,,,,,,,,,,,,,,,
2025-11-12T2300,2880A,104.0239,30.65639,成都市,大石西路,细颗粒物(PM2.5),57,55,49,40,39,1,,26,13,53,40,3,3,0.9,0.8
2025-11-12T2300,3136A,104.2725,30.5589,成都市,龙泉驿区区政府,,36,36,42,24,24,1,,14,10,36,42,5,5,0.6,0.6
2025-11-12T2300,3357A,104.0106,30.6931,成都市,金博路,颗粒物(PM10),52,54,54,34,32,1,,25,15,52,39,5,5,0.8,0.7
2025-11-12T2300,3359A,104.0578,30.5225,成都市,华阳,颗粒物(PM10),52,53,54,31,36,2,,26,11,48,40,4,5,0.6,0.6
2025-11-12T2300,3488A,104.3880,30.7467,成都市,青石路225号,颗粒物(PM10),58,66,62,32,34,1,,14,4,39,39,3,5,1.1,0.9
2025-11-12T2300,3489A,104.0789,30.4072,成都市,科学城,,42,42,48,26,29,7,,28,20,31,26,4,4,0.6,0.6
2025-11-12T2300,4011A,103.8506,30.6947,成都市,光华大道三段,颗粒物(PM10),58,65,59,38,34,7,,38,25,41,30,2,2,0.9,0.8
2025-11-12T2300,4224A,104.2433,30.5353,成都市,鲸龙路1057号,"颗粒物(PM10),细颗粒物(PM2.5)",53,56,56,37,36,11,,26,19,24,23,5,5,0.7,0.7
2025-11-12T2300,1062A,117.9531,40.9081,承德市,铁路,,23,22,78,8,41,72,,76,74,8,32,2,4,0.1,0.7
2025-11-12T2300,1063A,117.9392,40.9763,承德市,中国银行,,34,34,72,13,31,50,,74,69,16,25,2,3,0.2,0.6
2025-11-12T2300,1064A,117.9503,40.928,承德市,开发区,,36,36,81,16,38,69,,78,75,5,30,4,6,0.0,0.6
2025-11-12T2300,1066A,117.9268,41.0026,承德市,离宫,,,,,,,,,,,,,,,,
2025-11-12T2300,4274A,117.7994,40.9605,承德市,滨河大街98号,,18,15,65,3,42,56,,69,60,8,25,3,6,0.2,0.7
2025-11-12T2300,2314A,117.47,30.6618,池州市,池州学院,颗粒物(PM10),53,56,42,30,20,30,,94,65,59,34,9,9,0.6,0.6
2025-11-12T2300,3237A,117.4918,30.6617,池州市,展览馆,,47,47,39,22,18,40,,95,71,37,28,7,8,0.6,0.7
2025-11-12T2300,3333A,117.5627,30.695,池州市,第八中学,,49,49,43,22,19,22,,95,69,65,23,8,9,0.6,0.6
2025-11-12T2300,3334A,117.5038,30.6243,池州市,第十二中学,,41,41,36,18,16,68,,100,85,27,28,7,7,0.8,0.7
2025-11-12T2300,1744A,118.9233,42.2816,赤峰市,松山一中,,22,22,70,10,30,65,,84,,14,22,8,9,0.4,0.6
2025-11-12T2300,1745A,118.9576,42.2728,赤峰市,哈达街,,21,21,64,6,24,54,,71,60,16,21,9,11,0.3,0.5
2025-11-12T2300,1746A,118.8788,42.2554,赤峰市,天义路,,19,16,51,9,32,58,,77,63,13,23,6,8,0.5,0.7
2025-11-12T2300,3058A,119.2658,42.0353,赤峰市,银河街,,25,25,81,14,45,67,,84,74,6,19,8,14,0.3,0.6
2025-11-12T2300,3286A,118.9359,42.3147,赤峰市,桥北物流园区,,18,17,64,12,36,45,,74,50,22,27,9,10,0.4,0.7
2025-11-12T2300,2521A,107.3476,22.4136,崇左市,市环保局江州分局,,16,13,15,8,5,50,,53,49,5,10,4,3,0.7,0.7
2025-11-12T2300,4256A,107.3750,22.3736,崇左市,石景林东路7号,,19,,12,12,8,60,,69,64,8,7,8,8,0.6,0.6
2025-11-12T2300,2298A,118.3093,32.3153,滁州市,老年大学,"颗粒物(PM10),细颗粒物(PM2.5)",55,60,45,39,23,48,,103,81,24,16,11,11,0.3,0.2
2025-11-12T2300,2299A,118.3244,32.2786,滁州市,人大宾馆,细颗粒物(PM2.5),63,69,43,45,23,52,,106,82,28,18,5,5,0.4,0.3
2025-11-12T2300,3207A,118.3118,32.3038,滁州市,市政府原办公楼,颗粒物(PM10),61,72,49,42,24,65,,108,87,28,20,8,7,0.5,0.4
2025-11-12T2300,3331A,118.3267,32.2634,滁州市,图书馆,颗粒物(PM10),60,69,40,39,20,58,,108,91,27,19,8,8,0.4,0.3
2025-11-12T2300,2605A,101.5482,25.0441,楚雄彝族自治州,州环境监测站,,,,16,,10,,,24,,,12,,7,,0.6
2025-11-12T2300,2606A,101.538,25.0492,楚雄彝族自治州,市经济开发区,,29,29,18,18,11,1,,48,34,33,13,40,8,0.8,0.6
2025-11-12T2300,2548A,107.5277,31.2827,达州市,达州职业技术学院,,,,,,,,,,,,,,,,
2025-11-12T2300,2549A,107.5086,31.2186,达州市,市环境监测站,,,,55,,23,,,11,,,38,,8,,0.7
2025-11-12T2300,2550A,107.4988,31.2132,达州市,凤凰小区,颗粒物(PM10),59,68,53,29,25,2,,15,10,38,34,7,7,0.8,0.7
2025-11-12T2300,2551A,107.5082,31.1986,达州市,达县机关宾馆,颗粒物(PM10),62,73,52,38,24,3,,16,8,33,32,7,7,0.7,0.7
2025-11-12T2300,2552A,107.4644,31.2124,达州市,市政中心,,,89,65,34,23,3,,14,9,39,34,,12,0.8,0.6
2025-11-12T2300,2614A,100.1542,25.7054,大理白族自治州,大理市环境监测站,,38,,13,26,11,60,,59,58,6,8,6,6,0.3,0.3
2025-11-12T2300,2615A,100.2171,25.5811,大理白族自治州,大理古城,,18,18,23,7,11,49,,79,60,13,11,7,7,0.6,0.5
2025-11-12T2300,1109A,121.612,38.9741,大连市,甘井子,细颗粒物(PM2.5),183,244,115,138,68,62,,125,107,38,34,10,12,1.2,0.8
2025-11-12T2300,1110A,121.565,38.9511,大连市,周水子,细颗粒物(PM2.5),178,220,107,134,64,73,,127,112,41,40,7,7,1.0,0.7
2025-11-12T2300,1111A,121.5637,38.8845,大连市,星海三站,细颗粒物(PM2.5),162,180,98,123,64,74,,109,101,19,19,9,9,1.0,0.6
2025-11-12T2300,1112A,121.6302,38.9117,大连市,青泥洼桥,细颗粒物(PM2.5),186,220,113,140,62,60,,114,,39,24,16,13,1.2,0.7
2025-11-12T2300,1113A,121.6251,38.8638,大连市,傅家庄,细颗粒物(PM2.5),147,202,131,112,64,71,,113,105,26,24,16,14,1.2,0.7
2025-11-12T2300,1114A,121.5213,38.8661,大连市,七贤岭,细颗粒物(PM2.5),168,209,97,127,59,75,,114,106,29,27,11,9,1.2,0.8
2025-11-12T2300,1115A,121.2529,38.8061,大连市,旅顺,细颗粒物(PM2.5),175,223,110,132,72,63,,99,89,24,31,10,11,1.1,0.7
2025-11-12T2300,1116A,121.7485,39.1311,大连市,金州,细颗粒物(PM2.5),178,255,113,134,65,60,,119,,40,34,15,15,0.5,0.5
2025-11-12T2300,1117A,121.7811,39.0496,大连市,开发区,细颗粒物(PM2.5),168,190,97,127,62,60,,104,90,30,34,4,6,0.8,0.6
2025-11-12T2300,1118A,121.9762,39.0631,大连市,双D港,,,,26,,12,,,72,,,20,,10,,0.5
2025-11-12T2300,1789A,124.81117,46.03138,大庆市,大同区,,22,22,176,12,102,50,,81,48,7,26,9,13,0.3,0.9
2025-11-12T2300,1790A,125.129,46.533,大庆市,龙凤区,,48,48,77,14,51,54,,48,39,8,23,5,11,0.4,0.8
2025-11-12T2300,1791A,124.902,46.408,大庆市,红岗区,,25,25,83,17,56,55,,51,43,7,22,4,7,0.5,0.8
2025-11-12T2300,1792A,125.153,46.586,大庆市,萨尔图区,,32,32,80,8,54,58,,49,41,9,26,7,10,0.2,0.5
2025-11-12T2300,1793A,124.9042,46.6215,大庆市,让胡路区,,33,33,70,15,50,59,,44,43,3,18,3,5,0.3,0.5
2025-11-12T2300,3481A,125.141,46.634,大庆市,萨区政府监测点,,31,31,74,3,39,60,,46,39,2,16,8,12,0.2,0.5
2025-11-12T2300,1721A,113.3819,40.1097,大同市,果树场,,30,30,60,21,31,41,,74,48,33,33,10,10,0.5,0.7
2025-11-12T2300,1723A,113.2994,40.0758,大同市,云冈宾馆,颗粒物(PM10),57,63,72,25,24,27,,73,44,36,32,9,8,1.0,0.6
2025-11-12T2300,1724A,113.3444,40.0917,大同市,大同大学,,40,40,70,19,29,18,,77,45,51,40,10,10,0.5,0.6
2025-11-12T2300,1725A,113.2661,40.1269,大同市,安家小村,颗粒物(PM10),64,78,79,12,24,30,,71,47,34,32,9,10,0.4,0.7
2025-11-12T2300,1726A,113.2711,40.0844,大同市,教育学院,颗粒物(PM10),55,60,74,27,27,18,,73,47,48,37,9,8,1.0,0.7
2025-11-12T2300,3282A,113.3397,40.0597,大同市,大同市卫生学校,,40,40,71,18,32,28,,74,50,41,37,10,9,0.6,0.7
2025-11-12T2300,3565A,113.1367,40.1122,大同市,云冈站,颗粒物(PM10),57,63,55,19,21,2,,76,40,49,26,6,7,0.5,0.4
2025-11-12T2300,3566A,113.1186,40.2556,大同市,图书馆,颗粒物(PM10),51,51,60,20,21,17,,73,45,29,18,4,11,0.6,0.5
2025-11-12T2300,3567A,113.5931,40.0461,大同市,区一中,,34,34,67,20,28,38,,75,58,14,24,6,12,0.5,0.6
2025-11-12T2300,4199A,113.2798,40.0997,大同市,魏都大道141号,颗粒物(PM10),77,104,92,37,30,12,,77,49,52,36,8,7,0.9,1
2025-11-12T2300,2269A,124.1069,50.4097,大兴安岭地区,科技局,,20,,28,14,16,58,,62,61,2,8,6,6,0.2,0.3
2025-11-12T2300,3663A,124.1164,50.4278,大兴安岭地区,红旗社区,,19,6,16,3,12,59,,60,60,2,10,4,5,0.2,0.4
2025-11-12T2300,1600A,124.3303,40.0625,丹东市,江湾东路,细颗粒物(PM2.5),102,140,83,76,46,38,,76,62,39,32,8,12,1.5,1.3
2025-11-12T2300,1601A,124.4256,40.1503,丹东市,临江后街,颗粒物(PM10),97,144,79,71,36,31,,80,74,40,29,8,11,1.6,1.1
2025-11-12T2300,1602A,124.3933,40.1461,丹东市,元宝山,颗粒物(PM10),93,135,79,52,37,72,,73,73,22,28,11,12,1.0,1.1
2025-11-12T2300,1603A,124.3633,40.1092,丹东市,民主桥,细颗粒物(PM2.5),103,139,82,77,42,5,,70,46,53,37,5,8,1.2,1.1
2025-11-12T2300,3541A,109.5726,19.5167,儋州市,第一中学子站,,35,35,26,18,12,54,,70,68,5,4,7,7,0.5,0.5
2025-11-12T2300,3542A,109.5567,19.5187,儋州市,东坡学校子站,,32,32,25,17,12,48,,72,68,11,8,3,4,0.7,0.7
2025-11-12T2300,2616A,98.5842,24.428,德宏傣族景颇族自治州,德宏州监测站,,38,31,26,26,17,36,,74,57,17,16,7,8,0.5,0.5
2025-11-12T2300,3677A,98.5881,24.4368,德宏傣族景颇族自治州,芒市人民政府综合楼,,,,24,,12,,,36,,,10,,6,,0.6
2025-11-12T2300,1901A,104.4239,31.1208,德阳市,东山公园,细颗粒物(PM2.5),70,70,55,51,37,1,,18,4,50,34,2,2,1.0,0.8
2025-11-12T2300,1902A,104.3826,31.1317,德阳市,西小区,细颗粒物(PM2.5),78,104,84,57,45,2,,13,8,53,45,3,3,0.9,0.8
2025-11-12T2300,1904A,104.3553,31.1091,德阳市,耐火材料厂,颗粒物(PM10),70,90,85,50,42,1,,17,8,54,46,3,4,1.0,0.9
2025-11-12T2300,3639A,104.4019,31.1244,德阳市,市教育局,颗粒物(PM10),65,79,64,45,35,0,,9,3,48,42,2,2,0.8,0.7
2025-11-12T2300,1622A,116.3032,37.4674,德州市,儿童乐园,细颗粒物(PM2.5),138,190,143,105,73,31,,90,56,83,66,19,13,1.1,0.9
2025-11-12T2300,1624A,116.2991,37.4451,德州市,监理站,细颗粒物(PM2.5),128,188,137,97,73,29,,94,59,81,60,19,16,0.9,0.7
2025-11-12T2300,3066A,116.2721,37.4379,德州市,九衢泉纯净水厂,细颗粒物(PM2.5),122,175,144,92,68,27,,67,41,79,74,18,15,1.1,0.9
2025-11-12T2300,3371A,116.3728,37.4403,德州市,开发区人民医院,细颗粒物(PM2.5),110,163,140,83,68,18,,87,43,81,68,14,16,0.9,0.8
2025-11-12T2300,3511A,116.5652,37.3319,德州市,陵城艺术中心,细颗粒物(PM2.5),149,173,141,114,82,21,,71,35,80,70,16,19,1.0,1
2025-11-12T2300,4292A,116.3525,37.4209,德州市,新河东路,,,,147,,74,,,43,,,77,,13,,0.8
2025-11-12T2300,2621A,99.7056,27.8317,迪庆藏族自治州,迪庆州站,,30,28,29,21,17,45,,65,55,12,9,6,6,0.7,0.5
2025-11-12T2300,3180A,99.7136,27.8094,迪庆藏族自治州,质量技术监督局,,18,15,26,11,13,57,,64,59,7,12,7,8,0.5,0.5
2025-11-12T2300,4257A,104.6092,35.5962,定西市,将台街,颗粒物(PM10),70,90,70,36,30,14,,85,64,37,13,10,10,0.7,0.5
2025-11-12T2300,4309A,104.6159,35.5701,定西市,正龙路62号,颗粒物(PM10),68,85,76,36,30,33,,84,68,27,14,6,6,0.6,0.4
2025-11-12T2300,1389A,113.7547,23.0494,东莞市,莞城梨川,,,,24,,14,,,66,,,16,,1,,0.5
2025-11-12T2300,1390A,113.7944,23.0128,东莞市,东城石井,,18,16,23,9,13,56,,75,60,10,11,6,6,0.5,0.6
2025-11-12T2300,1391A,113.7383,22.9658,东莞市,南城西平,,19,17,24,6,13,58,,76,61,12,17,6,6,0.5,0.7
2025-11-12T2300,3319A,113.7338,23.0381,东莞市,万江金泰,,19,17,25,10,14,58,,74,60,8,12,4,5,0.6,0.7
2025-11-12T2300,3626A,113.7533,23.0202,东莞市,南城元岭,,20,16,23,9,13,61,,82,65,6,9,5,6,0.4,0.5
2025-11-12T2300,3627A,113.7875,23.0457,东莞市,东城主山,,20,20,31,9,13,56,,77,61,11,12,4,4,0.4,0.5
2025-11-12T2300,1666A,118.6614,37.4309,东营市,市环保局,细颗粒物(PM2.5),113,144,137,85,72,56,,103,65,43,57,15,24,1.0,1
2025-11-12T2300,3036A,118.6904,37.4338,东营市,开发区管委会,细颗粒物(PM2.5),113,150,140,85,80,48,,102,60,50,63,13,24,0.8,0.9
2025-11-12T2300,3365A,118.5719,37.565,东营市,垦利区民丰路,细颗粒物(PM2.5),117,153,138,88,70,61,,96,66,36,55,8,11,1.0,0.9
2025-11-12T2300,3498A,118.5055,37.8612,东营市,河口城区,细颗粒物(PM2.5),108,146,142,81,73,57,,100,75,34,45,9,13,0.7,0.7
2025-11-12T2300,3646A,118.4978,37.4623,东营市,胜利站,细颗粒物(PM2.5),110,135,130,83,72,53,,90,57,45,68,14,21,1.2,1.2
2025-11-12T2300,3734A,118.35,37.26,东营市,理想之城,细颗粒物(PM2.5),119,156,139,90,74,44,,94,56,55,67,11,12,0.8,0.8
2025-11-12T2300,1591A,110.0023,39.8129,鄂尔多斯市,综合楼,,36,36,40,12,9,66,,82,72,15,10,9,9,0.5,0.4
2025-11-12T2300,1592A,109.9486,39.8261,鄂尔多斯市,巴音孟克林场办事处,,36,36,47,9,14,41,,87,64,40,13,5,6,0.5,0.4
2025-11-12T2300,1593A,109.7736,39.5986,鄂尔多斯市,康泽苑,,31,31,39,9,16,50,,89,70,19,13,5,6,0.3,0.3
2025-11-12T2300,1594A,109.8119,39.5989,鄂尔多斯市,华泰汽车城,,25,24,41,17,17,50,,81,60,17,15,6,7,0.3,0.2
2025-11-12T2300,1595A,109.9734,39.7884,鄂尔多斯市,奥林花园,,41,41,50,7,11,37,,86,70,44,20,6,7,0.4,0.3
2025-11-12T2300,2436A,114.8938,30.3994,鄂州市,市政府,,30,30,40,11,23,71,,88,74,20,22,10,10,0.5,0.5
2025-11-12T2300,2437A,114.8989,30.3714,鄂州市,赵家坝,,39,39,47,16,26,72,,97,82,14,18,8,10,0.7,0.8
2025-11-12T2300,3654A,114.8094,30.4089,鄂州市,精准医疗中心,,38,38,41,12,23,68,,96,81,14,19,4,7,0.6,0.6
2025-11-12T2300,2454A,109.4978,30.2981,恩施土家族苗族自治州,湖北民院,细颗粒物(PM2.5),54,,33,38,22,34,,74,56,14,12,6,7,0.4,0.5
2025-11-12T2300,2455A,109.4707,30.2798,恩施土家族苗族自治州,州电力总公司,细颗粒物(PM2.5),55,47,36,39,21,15,,66,46,28,16,6,6,0.5,0.4
2025-11-12T2300,3549A,109.5061,30.3772,恩施土家族苗族自治州,龙凤新区,,26,26,20,17,13,39,,68,56,5,6,6,6,0.1,0.2
2025-11-12T2300,2499A,108.3411,21.6158,防城港市,沙万,,37,37,20,23,11,67,,76,74,9,7,6,6,0.4,0.4
2025-11-12T2300,2500A,108.3514,21.7731,防城港市,防城档案局,,40,40,28,23,11,59,,68,66,12,9,8,8,0.5,0.6
2025-11-12T2300,2501A,108.3506,21.6414,防城港市,大海花园,,32,30,17,22,9,73,,83,80,9,6,5,5,0.4,0.4
2025-11-12T2300,1371A,113.1294,23.0067,佛山市,湾梁,,35,29,20,24,10,51,,66,60,24,24,7,7,0.5,0.8
2025-11-12T2300,1372A,113.1083,23.0478,佛山市,华材职中,,36,36,23,24,11,54,,74,62,19,18,6,6,0.7,0.7
2025-11-12T2300,1373A,113.144,23.0453,佛山市,南海气象局,,28,28,21,11,9,51,,74,64,17,16,8,8,0.8,0.8
2025-11-12T2300,1374A,113.2881,22.8094,佛山市,顺德苏岗,,29,29,23,12,9,54,,74,65,15,18,7,8,0.5,0.5
2025-11-12T2300,1376A,112.8383,22.8678,佛山市,高明孔堂,,39,39,21,16,9,70,,85,,14,16,5,5,0.5,0.4
2025-11-12T2300,1377A,112.8836,23.1588,佛山市,三水监测站,,29,29,16,8,4,63,,77,68,18,19,5,7,0.7,0.8
2025-11-12T2300,1378A,112.867,23.185,佛山市,三水云东海,,29,28,19,20,12,65,,78,70,16,16,6,8,0.8,0.8
2025-11-12T2300,3625A,113.2544,22.7642,佛山市,容桂街道办,,17,17,17,9,11,47,,65,57,20,23,6,6,0.6,0.6
2025-11-12T2300,1280A,119.3903,26.0543,福州市,鼓山,,,,3,,3,,,61,,,6,,1,,0.5
2025-11-12T2300,1282A,119.2681,26.0504,福州市,师大,,14,6,11,3,1,42,,59,36,8,10,5,5,0.3,0.3
2025-11-12T2300,1283A,119.2984,26.1028,福州市,五四北路,,14,6,12,3,1,42,,54,37,10,12,3,4,0.3,0.3
2025-11-12T2300,1284A,119.2648,26.0768,福州市,杨桥西路,,14,6,8,3,0,42,,58,38,12,12,3,3,0.2,0.2
2025-11-12T2300,1285A,119.317,26.0746,福州市,紫阳,,15,6,11,3,1,45,,53,38,11,16,6,6,0.3,0.3
2025-11-12T2300,3048A,119.5799,26.0936,福州市,九龙,,19,6,6,3,0,58,,61,56,5,5,3,3,0.3,0.3
2025-11-12T2300,3526A,119.5189,25.9664,福州市,吴航,,20,6,5,3,3,64,,64,64,8,7,5,5,0.5,0.5
2025-11-12T2300,1755A,123.7977,41.8491,抚顺市,望花区,颗粒物(PM10),56,61,144,3,76,60,,99,73,10,39,8,14,0.4,1.1
2025-11-12T2300,1756A,123.9161,41.8822,抚顺市,顺城区,颗粒物(PM10),51,51,105,3,58,61,,106,83,12,35,7,10,0.3,0.8
2025-11-12T2300,1757A,124.0436,41.8611,抚顺市,东洲区,颗粒物(PM10),53,56,105,3,64,63,,109,82,8,29,6,10,0.4,0.9
2025-11-12T2300,1758A,123.9247,41.8642,抚顺市,新抚区,,45,45,119,3,70,62,,109,84,8,32,8,11,0.4,0.9
2025-11-12T2300,1759A,124.0972,41.8961,抚顺市,大伙房水库,颗粒物(PM10),59,68,88,6,53,62,,118,91,12,24,10,13,0.4,0.8
2025-11-12T2300,1760A,123.7086,41.8391,抚顺市,沈抚新城,颗粒物(PM10),52,53,137,3,78,58,,109,82,17,38,7,13,0.3,1.1
2025-11-12T2300,2376A,116.2127,28.0814,抚州市,桐源党溪,,,,,,,,,,,,,,,,
2025-11-12T2300,2377A,116.3544,27.9831,抚州市,市站,,33,33,34,16,14,73,,77,73,12,9,9,7,0.4,0.3
2025-11-12T2300,2378A,116.3565,27.963,抚州市,血防站,,31,31,36,18,16,76,,80,77,16,14,3,4,0.9,0.8
2025-11-12T2300,2379A,116.3564,28.0007,抚州市,采茶剧团,,34,34,34,16,16,70,,81,76,9,6,3,5,0.6,0.6
2025-11-12T2300,2380A,116.385,27.9647,抚州市,医学分院,,34,34,37,14,15,64,,80,74,16,8,9,6,0.7,0.6
2025-11-12T2300,2207A,121.6094,41.998,阜新市,工业园区,,19,13,81,3,51,59,,81,69,14,32,6,17,0.2,0.7
2025-11-12T2300,2208A,121.6697,42.0279,阜新市,长青街,,20,6,75,3,45,61,,77,67,9,30,7,17,0.2,0.7
2025-11-12T2300,2209A,121.6673,42.0705,阜新市,农业园区,,20,9,71,3,35,61,,86,69,10,26,4,12,0.2,0.8
2025-11-12T2300,2210A,121.6717,42.0224,阜新市,东苑,,20,16,74,9,45,64,,80,70,9,31,3,16,0.2,0.7
2025-11-12T2300,2211A,121.6506,42.0498,阜新市,玉龙新城,,19,8,78,3,34,59,,82,69,12,32,8,14,0.2,0.7
2025-11-12T2300,2301A,115.8277,32.8929,阜阳市,市监测站,颗粒物(PM10),57,63,55,37,30,49,,86,53,35,42,5,5,0.3,0.3
2025-11-12T2300,2303A,115.8554,32.8605,阜阳市,开发区,颗粒物(PM10),66,81,69,27,26,42,,88,53,41,32,4,4,0.2,0.2
2025-11-12T2300,2875A,115.784,32.8892,阜阳市,阜阳职业技术学院,,46,46,39,25,25,63,,96,,26,23,6,6,0.3,0.3
2025-11-12T2300,3468A,115.7901,32.8613,阜阳市,市规划展馆,颗粒物(PM10),56,61,47,29,23,50,,100,80,35,18,6,6,0.6,0.5
2025-11-12T2300,3469A,115.836,32.9183,阜阳市,枣园社区,颗粒物(PM10),57,64,58,36,31,30,,92,58,51,36,4,8,0.4,0.5
2025-11-12T2300,2669A,102.9099,34.9841,甘南藏族自治州,州政府,,33,26,30,23,29,39,,62,56,24,11,2,3,0.5,0.5
2025-11-12T2300,3380A,102.8914,34.9617,甘南藏族自治州,甘肃民族师范学院,,35,35,30,9,19,39,,66,57,25,10,4,4,0.5,0.5
2025-11-12T2300,2570A,101.9603,30.0475,甘孜藏族自治州,水桥子,,19,,6,3,4,58,,62,60,8,11,8,8,0.6,0.6
2025-11-12T2300,3065A,101.9533,29.9972,甘孜藏族自治州,州环保局,,17,,5,7,5,53,,60,57,10,12,5,5,0.5,0.5
2025-11-12T2300,3414A,115.8347,28.932,赣江新区,桑海产业园,,48,48,42,24,19,82,,104,91,16,16,9,9,0.6,0.7
2025-11-12T2300,2362A,114.9017,25.9149,赣州市,通天岩,,27,27,35,16,23,75,,83,78,6,7,23,21,0.6,0.7
2025-11-12T2300,2363A,114.9367,25.8664,赣州市,地委,颗粒物(PM10),52,53,46,17,22,75,,78,77,12,14,5,6,0.5,0.6
2025-11-12T2300,2364A,114.9461,25.8481,赣州市,气象台,,38,38,46,17,18,66,,75,69,12,12,5,5,0.5,0.6
2025-11-12T2300,2365A,114.9322,25.8333,赣州市,市图书馆,,,19,37,16,21,62,,75,,13,13,3,4,,0.7
2025-11-12T2300,2366A,114.8905,25.8471,赣州市,华坚鞋城,,31,31,43,20,21,58,,63,57,14,16,4,5,0.5,0.5
2025-11-12T2300,3109A,115.0093,25.8613,赣州市,赣县区卫计委,,30,,31,21,25,62,,81,70,8,6,7,7,0.4,0.5
2025-11-12T2300,2683A,106.2319,36.1417,固原市,马园,,,,,,,,,,,,,,,,
2025-11-12T2300,2684A,106.2792,36.0022,固原市,监测站,颗粒物(PM10),76,102,67,50,21,20,,77,58,47,22,9,6,1.2,0.7
2025-11-12T2300,2685A,106.2375,36.0211,固原市,新区,颗粒物(PM10),72,94,68,37,25,8,,76,46,66,28,8,8,0.7,0.5
2025-11-12T2300,3522A,106.2177,35.9959,固原市,原州区十五小,颗粒物(PM10),68,86,63,33,24,28,,77,52,38,16,5,6,1.0,0.6
2025-11-12T2300,2543A,106.6308,30.5278,广安市,小平旧居,,,,,,,,,,,,,,,,
2025-11-12T2300,2544A,106.6303,30.4576,广安市,市委,,49,49,44,28,29,11,,24,20,28,22,3,3,0.7,0.7
2025-11-12T2300,2545A,106.6271,30.4663,广安市,友谊中学,,47,47,41,30,26,21,,30,26,19,18,6,6,0.9,0.9
2025-11-12T2300,2547A,106.6388,30.4551,广安市,广电花园,细颗粒物(PM2.5),53,,31,37,25,11,,21,,26,19,2,2,0.7,0.7
2025-11-12T2300,2902A,106.6351,30.4865,广安市,北辰小学,,48,48,44,29,24,19,,26,24,19,17,8,8,0.5,0.6
2025-11-12T2300,2523A,105.8945,32.4535,广元市,黑石坡,,,,,,,,,,,,,,,,
2025-11-12T2300,2524A,105.821,32.4444,广元市,老城,颗粒物(PM10),60,69,41,25,24,6,,60,23,43,35,4,3,0.8,0.8
2025-11-12T2300,2526A,105.8628,32.4287,广元市,监测站,,36,36,27,18,19,15,,54,25,26,24,2,4,0.7,0.8
2025-11-12T2300,3617A,105.8047,32.4166,广元市,经开区,颗粒物(PM10),61,71,62,28,23,1,,51,16,45,35,4,3,0.7,0.6
2025-11-12T2300,1345A,113.2347,23.1423,广州市,广雅中学,,31,31,27,19,15,34,,70,54,33,23,6,7,0.2,0.2
2025-11-12T2300,1346A,113.2612,23.105,广州市,市五中,,23,23,23,14,13,50,,77,66,28,24,6,7,0.6,0.6
2025-11-12T2300,1348A,113.3478,23.0916,广州市,广东商学院,,30,30,24,19,13,45,,71,60,17,15,6,5,0.4,0.3
2025-11-12T2300,1349A,113.4332,23.1047,广州市,市八十六中,,25,23,24,17,17,52,,70,61,13,16,10,8,0.5,0.5
2025-11-12T2300,1350A,113.3505,22.9483,广州市,番禺中学,,32,32,29,16,13,50,,75,62,17,17,6,6,0.4,0.5
2025-11-12T2300,1351A,113.2146,23.3916,广州市,花都师范,,,23,22,13,10,49,,72,62,18,15,7,6,,0.7
2025-11-12T2300,1352A,113.2597,23.1331,广州市,市监测站,,28,28,25,16,13,45,,64,,20,21,7,7,0.8,0.7
2025-11-12T2300,1353A,113.5618,23.312,广州市,九龙镇镇龙,,20,20,26,13,16,48,,64,56,10,10,6,7,0.6,0.6
2025-11-12T2300,1354A,113.2765,23.1544,广州市,麓湖,,23,23,22,15,14,41,,69,,24,18,8,8,0.5,0.5
2025-11-12T2300,1355A,113.443,23.3035,广州市,帽峰山森林公园,,,,,,,,,,,,,,,,
2025-11-12T2300,2846A,113.3221,23.1322,广州市,体育西,,,,23,,14,,,64,,,15,,8,,0.6
2025-11-12T2300,3298A,113.5717,23.5491,广州市,从化街口,,19,18,24,13,16,50,,64,54,9,9,9,11,0.5,0.6
2025-11-12T2300,3299A,113.3472,23.3692,广州市,白云竹料,,28,28,23,18,14,48,,73,62,16,12,8,7,0.7,0.6
2025-11-12T2300,3300A,113.2981,23.237,广州市,白云嘉禾,,29,29,27,17,13,46,,70,59,18,17,7,7,0.7,0.7
2025-11-12T2300,3301A,113.4256,23.1716,广州市,黄埔科学城,,28,28,27,18,17,57,,78,68,8,8,9,6,0.8,0.8
2025-11-12T2300,3302A,113.3942,23.0483,广州市,番禺大学城,,29,28,23,20,13,52,,78,66,14,14,12,9,0.6,0.6
2025-11-12T2300,3303A,113.4922,22.8168,广州市,南沙黄阁,,28,28,32,14,18,51,,76,57,17,20,8,9,0.6,0.6
2025-11-12T2300,3304A,113.5342,22.7896,广州市,南沙街,,30,30,32,13,17,49,,77,56,14,18,7,8,0.5,0.4
2025-11-12T2300,3443A,113.2902,23.5544,广州市,花都梯面,,17,14,17,10,11,53,,73,63,9,9,4,6,0.5,0.5
2025-11-12T2300,3445A,113.7858,23.7478,广州市,从化良口,,20,8,17,3,12,64,,79,61,8,10,6,6,0.4,0.6
2025-11-12T2300,3446A,113.8051,23.2614,广州市,增城荔城,,17,17,22,11,16,54,,74,61,12,10,7,7,0.4,0.5
2025-11-12T2300,2505A,109.568,23.1478,贵港市,德智高中,,,,,,,,,,,,,,,,
2025-11-12T2300,2506A,109.6047,23.0666,贵港市,江南子站,,34,34,28,20,15,70,,92,85,7,7,4,4,0.5,0.6
2025-11-12T2300,2508A,109.5669,23.1065,贵港市,荷城子站,,34,34,27,19,12,64,,84,75,9,8,3,3,0.5,0.6
2025-11-12T2300,3405A,109.5886,23.1172,贵港市,新世纪学校,,41,41,32,23,17,62,,88,79,6,5,2,3,0.4,0.5
2025-11-12T2300,4260A,109.5933,23.0951,贵港市,中山路155-3号,,33,33,26,13,14,69,,91,84,7,6,3,3,0.4,0.5
2025-11-12T2300,1439A,106.6899,26.5998,贵阳市,马鞍山,颗粒物(PM10),52,53,22,27,11,4,,44,21,15,9,4,4,0.6,0.4
2025-11-12T2300,1441A,106.6243,26.6266,贵阳市,鉴湖路,颗粒物(PM10),56,61,37,24,12,23,,48,31,24,11,6,5,0.7,0.5
2025-11-12T2300,1442A,106.7487,26.6343,贵阳市,燕子冲,细颗粒物(PM2.5),58,,20,41,21,3,,57,31,25,10,5,5,0.6,0.5
2025-11-12T2300,1443A,106.6555,26.4365,贵阳市,碧云窝,颗粒物(PM10),59,68,38,36,13,3,,56,25,26,13,2,3,0.6,0.4
2025-11-12T2300,1445A,106.7109,26.6027,贵阳市,红边门,颗粒物(PM10),53,56,28,34,15,11,,55,23,29,14,11,6,0.7,0.5
2025-11-12T2300,1446A,106.7164,26.5699,贵阳市,新华路,颗粒物(PM10),53,56,30,36,15,22,,67,39,28,11,10,9,0.6,0.4
2025-11-12T2300,1447A,106.674,26.5424,贵阳市,太慈桥,,49,48,25,34,14,4,,58,25,25,14,4,4,0.4,0.2
2025-11-12T2300,1552A,106.805,26.3003,贵阳市,桐木岭,,34,34,28,17,13,61,,75,56,3,4,16,8,0.6,0.6
2025-11-12T2300,4230A,106.6882,26.5695,贵阳市,花果园大街66号,细颗粒物(PM2.5),52,48,24,36,17,25,,58,29,24,12,4,2,0.9,0.7
2025-11-12T2300,4231A,106.6873,26.5169,贵阳市,漓江路57号,细颗粒物(PM2.5),52,48,20,36,16,4,,58,27,31,11,12,9,0.6,0.4
2025-11-12T2300,1862A,110.4144,25.3167,桂林市,电子科大尧山校区,,,,,,,,,,,,,,,,
2025-11-12T2300,1864A,110.3089,25.2708,桂林市,龙隐路小学,,50,50,50,34,26,52,,88,66,20,10,8,7,0.4,0.4
2025-11-12T2300,1865A,110.2869,25.2178,桂林市,八中,,40,40,47,28,23,64,,84,68,10,9,10,11,0.4,0.4
2025-11-12T2300,3531A,110.296,25.1253,桂林市,旅游学院,,46,46,48,27,24,63,,97,70,22,12,14,6,0.3,0.3
2025-11-12T2300,4222A,110.1835,25.2444,桂林市,环湖路276号,,39,39,48,27,28,56,,74,59,17,11,6,16,0.3,0.3
2025-11-12T2300,4301A,110.2803,25.2773,桂林市,信义路13号,,40,40,51,17,23,62,,84,70,15,9,7,12,0.5,0.6
2025-11-12T2300,2674A,100.2561,34.4714,果洛藏族自治州,玛沁县大武镇,,30,30,35,10,12,48,,88,74,6,2,11,17,0.3,0.3
2025-11-12T2300,1129A,126.5422,45.755,哈尔滨市,岭北,,,,,,,,,,,,,,,,
2025-11-12T2300,1130A,126.561,45.8167,哈尔滨市,松北商大,颗粒物(PM10),113,176,168,83,128,40,,78,58,24,30,8,11,0.8,1
2025-11-12T2300,1131A,126.979,45.5419,哈尔滨市,阿城会宁,细颗粒物(PM2.5),173,141,129,131,108,35,,82,63,34,24,11,11,0.7,0.7
2025-11-12T2300,1132A,126.599,45.7222,哈尔滨市,南岗学府路,细颗粒物(PM2.5),112,168,151,84,110,35,,78,62,22,29,13,14,0.5,0.7
2025-11-12T2300,1133A,126.689,45.7733,哈尔滨市,太平宏伟公园,细颗粒物(PM2.5),102,105,153,76,111,40,,87,73,23,25,25,13,0.7,1
2025-11-12T2300,1134A,126.635,45.7667,哈尔滨市,道外承德广场,细颗粒物(PM2.5),118,180,187,89,119,44,,78,66,21,36,9,18,0.7,1
2025-11-12T2300,1135A,126.685,45.7319,哈尔滨市,香坊红旗大街,细颗粒物(PM2.5),114,107,160,86,107,49,,85,73,20,28,12,16,0.6,0.8
2025-11-12T2300,1136A,126.6411,45.7258,哈尔滨市,动力和平路,细颗粒物(PM2.5),123,162,149,93,113,41,,81,66,21,29,9,10,0.6,0.9
2025-11-12T2300,1137A,126.593,45.7478,哈尔滨市,道里建国路,细颗粒物(PM2.5),145,170,150,111,121,36,,82,67,28,37,15,17,0.5,1.1
2025-11-12T2300,1138A,126.615,45.61,哈尔滨市,平房东轻厂,细颗粒物(PM2.5),139,137,132,106,102,27,,71,49,34,30,10,12,0.8,0.9
2025-11-12T2300,1139A,126.595,45.9855,哈尔滨市,呼兰师专,,35,35,174,23,151,42,,83,65,14,33,9,15,0.6,1
2025-11-12T2300,1140A,126.6206,45.6842,哈尔滨市,省农科院,细颗粒物(PM2.5),125,189,194,95,129,,,73,56,24,47,11,12,0.7,0.9
2025-11-12T2300,2688A,93.5128,42.8172,哈密市,地区监测站,颗粒物(PM10),66,82,62,36,25,7,,65,50,72,25,4,14,0.6,0.2
2025-11-12T2300,2689A,93.4961,42.8328,哈密市,哈密师范学校,颗粒物(PM10),77,103,68,40,24,6,,64,44,64,28,5,7,1.0,0.5
2025-11-12T2300,2671A,100.9048,36.9639,海北藏族自治州,海晏县西海镇,颗粒物(PM10),53,55,49,36,32,41,,80,66,20,11,13,13,0.7,0.6
2025-11-12T2300,3867A,102.0738,36.5056,海东市,平安区公安北苑,细颗粒物(PM2.5),55,,68,39,34,43,,79,59,8,17,14,26,0.6,0.7
2025-11-12T2300,1409A,110.576,19.9507,海口市,东寨港,,,,,,,,,,,,,,,,
2025-11-12T2300,1410A,110.3232,20.0574,海口市,海南大学,,37,37,25,21,14,87,,103,102,10,9,8,7,0.5,0.5
2025-11-12T2300,1411A,110.283,20.0053,海口市,秀英海南医院,,38,38,28,23,15,83,,98,96,16,13,8,8,0.5,0.5
2025-11-12T2300,1412A,110.338,19.9969,海口市,海南师范大学,,39,39,26,22,15,94,,106,104,13,12,8,8,0.7,0.7
2025-11-12T2300,1413A,110.33,20.0356,海口市,龙华路环保局宿舍,,40,40,27,23,16,89,,104,102,12,12,9,9,0.3,0.3
2025-11-12T2300,3539A,110.5111,19.9736,海口市,桂林洋子站,,47,47,29,26,16,95,,96,88,10,12,8,8,0.5,0.5
2025-11-12T2300,2673A,100.6188,36.2866,海南藏族自治州,共和县恰卜恰镇,颗粒物(PM10),53,55,45,16,23,28,,95,63,35,18,9,11,0.5,0.6
2025-11-12T2300,2676A,97.3731,37.3753,海西蒙古族藏族自治州,德令哈市,,,,29,22,15,,,92,,5,5,20,20,0.5,0.5
2025-11-12T2300,1048A,114.5302,36.6116,邯郸市,东污水处理厂,细颗粒物(PM2.5),169,158,121,128,108,15,,98,68,79,45,7,9,1.1,1
2025-11-12T2300,1049A,114.4918,36.5713,邯郸市,矿院,细颗粒物(PM2.5),160,137,116,122,105,25,,102,85,63,47,7,10,1.0,1
2025-11-12T2300,1050A,114.484,36.6133,邯郸市,丛台公园,细颗粒物(PM2.5),144,157,126,110,100,20,,106,81,71,38,8,11,1.0,1
2025-11-12T2300,3458A,114.7895,36.5593,邯郸市,香泉濮院小区,细颗粒物(PM2.5),149,184,122,114,85,10,,105,76,89,38,11,9,0.8,0.6
2025-11-12T2300,3579A,114.50634,36.77178,邯郸市,永年区实验高中,细颗粒物(PM2.5),103,153,127,77,68,7,,92,62,85,46,6,10,1.2,1.1
2025-11-12T2300,3580A,114.20016,36.44293,邯郸市,峰峰矿区临水派出所,细颗粒物(PM2.5),138,117,80,105,79,63,,113,91,45,29,10,11,1.0,1.1
2025-11-12T2300,2634A,106.9893,33.1842,汉中市,汉川机床厂子校,,,,,,,,,,,,,,,,
2025-11-12T2300,2635A,107.0154,33.0706,汉中市,市监测站,细颗粒物(PM2.5),74,85,68,54,33,10,,58,41,39,30,6,9,0.7,0.7
2025-11-12T2300,2636A,107.0089,33.1138,汉中市,鑫源开发区,颗粒物(PM10),69,88,64,41,30,5,,56,33,45,30,6,10,0.5,0.5
2025-11-12T2300,2637A,107.007,33.0323,汉中市,南郑大河坎水厂,细颗粒物(PM2.5),103,92,70,77,80,10,,52,35,29,27,2,6,0.7,0.7
2025-11-12T2300,1223A,120.2072,30.2111,杭州市,滨江,,48,48,46,16,13,49,,55,44,32,35,7,7,0.6,0.5
2025-11-12T2300,1224A,120.0633,30.2747,杭州市,西溪,,45,45,41,18,14,40,,61,49,33,29,8,8,0.6,0.6
2025-11-12T2300,1226A,120.3417,30.3150,杭州市,下沙,,37,37,34,16,12,50,,55,49,23,27,6,6,0.5,0.4
2025-11-12T2300,1227A,120.1269,30.2456,杭州市,卧龙桥,,44,44,41,18,15,42,,54,48,32,28,11,10,0.5,0.4
2025-11-12T2300,1228A,120.1903,30.2692,杭州市,浙江农大,,38,38,42,17,15,49,,59,43,35,37,8,8,0.5,0.6
2025-11-12T2300,1230A,120.1197,30.3119,杭州市,和睦小学,,36,36,35,17,16,45,,61,49,34,32,9,10,0.8,0.7
2025-11-12T2300,1231A,120.3019,30.4183,杭州市,临平镇,,43,43,43,20,19,50,,62,50,22,24,7,7,0.5,0.4
2025-11-12T2300,1232A,120.2753,30.1839,杭州市,城厢镇,,45,45,38,17,16,55,,56,51,34,40,7,8,0.3,0.2
2025-11-12T2300,1233A,120.0883,30.1808,杭州市,云栖,,44,44,38,18,15,55,,58,54,26,27,7,7,0.6,0.5
2025-11-12T2300,3557A,119.9464,30.0494,杭州市,镇二中,,40,40,35,20,15,52,,55,53,22,24,6,6,0.7,0.6
2025-11-12T2300,3558A,119.7183,30.2367,杭州市,市府大楼,,48,48,35,23,15,59,,73,60,22,19,10,9,0.6,0.6
2025-11-12T2300,3656A,120.1556,30.2864,杭州市,消防大队,,49,49,43,25,20,40,,56,41,42,38,9,9,0.5,0.4
2025-11-12T2300,1270A,117.1959,31.7848,合肥市,明珠广场,颗粒物(PM10),56,61,44,31,15,76,,98,88,28,27,7,7,0.5,0.5
2025-11-12T2300,1271A,117.3072,31.8764,合肥市,三里街,颗粒物(PM10),53,56,38,27,15,60,,92,77,40,30,6,6,0.5,0.5
2025-11-12T2300,1272A,117.2588,31.8707,合肥市,琥珀山庄,颗粒物(PM10),54,58,42,31,18,74,,96,83,29,23,5,6,0.5,0.5
2025-11-12T2300,1273A,117.1604,31.9052,合肥市,董铺水库,,,,,,,,,,,,,,,,
2025-11-12T2300,1274A,117.25,31.8571,合肥市,长江中路,颗粒物(PM10),59,68,46,40,21,77,,104,90,27,22,6,6,0.5,0.5
2025-11-12T2300,1275A,117.266,31.9436,合肥市,庐阳区,颗粒物(PM10),62,73,44,29,16,68,,96,79,32,28,4,5,0.7,0.7
2025-11-12T2300,1276A,117.3453,31.8616,合肥市,瑶海区,颗粒物(PM10),58,66,42,24,16,75,,99,86,31,28,5,5,0.4,0.4
2025-11-12T2300,1277A,117.3027,31.7964,合肥市,包河区,颗粒物(PM10),59,68,46,34,20,34,,83,41,75,56,8,8,0.6,0.6
2025-11-12T2300,1278A,117.2776,31.7385,合肥市,滨湖新区,颗粒物(PM10),57,63,42,39,23,72,,99,75,31,29,5,6,0.5,0.5
2025-11-12T2300,1279A,117.1318,31.8403,合肥市,高新区,,,68,44,31,17,,,96,,34,27,5,6,0.7,0.6
2025-11-12T2300,3464A,117.3803,31.9147,合肥市,高教基地,颗粒物(PM10),54,58,37,33,17,72,,103,82,19,20,5,7,0.5,0.4
2025-11-12T2300,3614A,79.924,37.0877,和田地区,地区环保局,细颗粒物(PM2.5),277,300,208,227,97,62,,84,66,54,30,16,11,2.8,1.8
2025-11-12T2300,3615A,79.9131,37.113,和田地区,市环保局,颗粒物(PM10),278,404,216,138,82,15,,88,61,96,47,26,6,6.4,1.6
2025-11-12T2300,2516A,108.2011,24.715,河池市,东仁乐园,,,,,,,,,,,,,,,,
2025-11-12T2300,2517A,108.0497,24.6947,河池市,市环保站,,31,31,22,13,8,50,,72,66,9,7,6,5,0.5,0.5
2025-11-12T2300,2518A,108.0983,24.6989,河池市,市疾控中心,,40,40,21,18,11,17,,75,63,34,11,5,4,0.6,0.6
2025-11-12T2300,1696A,114.6778,23.7569,河源市,源西,,,,,,,,,,,,,,,,
2025-11-12T2300,1697A,114.6944,23.7586,河源市,东埔,,22,,17,15,15,60,,74,63,9,10,4,4,0.5,0.6
2025-11-12T2300,1698A,114.6892,23.7233,河源市,老城,,19,,20,6,11,59,,71,61,7,8,5,5,0.5,0.6
2025-11-12T2300,1718A,115.4208,35.2464,菏泽市,气象局,细颗粒物(PM2.5),119,148,116,90,71,37,,119,83,63,40,5,6,0.5,0.4
2025-11-12T2300,3374A,115.5564,35.0891,菏泽市,定陶老年大学,细颗粒物(PM2.5),98,114,95,73,60,59,,106,82,36,35,5,6,0.5,0.5
2025-11-12T2300,4184A,115.4797,35.24401,菏泽市,永昌路1号,细颗粒物(PM2.5),119,139,99,90,63,31,,115,88,72,40,5,6,0.4,0.4
2025-11-12T2300,4193A,115.4715,35.2800,菏泽市,长城路999号,细颗粒物(PM2.5),97,119,95,72,54,65,,110,92,41,34,3,4,0.4,0.4
2025-11-12T2300,2514A,111.5264,24.4172,贺州市,环保小区,颗粒物(PM10),54,57,50,35,30,86,,81,81,14,11,4,3,0.5,0.6
2025-11-12T2300,2515A,111.5608,24.4078,贺州市,政协大楼,颗粒物(PM10),56,62,51,39,27,35,,74,56,39,14,6,5,0.7,0.6
2025-11-12T2300,3534A,111.4744,24.4553,贺州市,西湾,颗粒物(PM10),51,52,46,33,26,76,,80,80,15,9,6,5,0.7,0.7
2025-11-12T2300,2385A,114.17,35.9019,鹤壁市,市监测站,细颗粒物(PM2.5),128,146,123,97,88,21,,80,38,44,30,4,4,1.0,0.9
2025-11-12T2300,2386A,114.2956,35.7511,鹤壁市,市交警支队,细颗粒物(PM2.5),138,176,139,105,79,3,,91,60,86,47,4,5,1.1,0.7
2025-11-12T2300,2387A,114.2878,35.7306,鹤壁市,迎宾馆,细颗粒物(PM2.5),149,197,144,114,80,7,,97,66,77,42,4,7,1.1,0.8
2025-11-12T2300,3474A,114.2617,35.6822,鹤壁市,大新区,细颗粒物(PM2.5),135,140,116,103,84,6,,84,45,76,57,4,6,1.0,0.8
2025-11-12T2300,3596A,114.1572,35.9603,鹤壁市,南山宾馆,细颗粒物(PM2.5),112,136,140,84,93,60,,95,62,32,29,5,7,1.0,0.8
2025-11-12T2300,2244A,130.2537,47.3416,鹤岗市,哈啤分公司,"颗粒物(PM10),细颗粒物(PM2.5)",52,53,40,36,40,67,,39,30,9,27,15,15,0.6,0.7
2025-11-12T2300,2245A,130.2684,47.3086,鹤岗市,斯达机电,颗粒物(PM10),52,54,50,32,31,70,,55,51,14,24,15,15,0.8,0.7
2025-11-12T2300,2246A,130.3114,47.3388,鹤岗市,东山纸板厂,细颗粒物(PM2.5),85,85,63,63,41,31,,41,13,30,35,21,18,2.1,1.7
2025-11-12T2300,2247A,130.1097,47.3382,鹤岗市,五号水库,,,,,,,,,,,,,,,,
2025-11-12T2300,2263A,127.4833,50.2524,黑河市,交通局,,36,30,41,25,30,51,,53,41,8,21,4,5,0.4,0.5
2025-11-12T2300,2264A,127.5144,50.2341,黑河市,环保局,,35,35,39,24,29,48,,56,39,12,17,4,8,0.5,0.5
2025-11-12T2300,2265A,127.5291,50.2472,黑河市,大黑河岛,,,,,,,,,,,,,,,,
2025-11-12T2300,1074A,115.6838,37.7541,衡水市,电机北厂,细颗粒物(PM2.5),198,208,140,148,88,8,,64,34,68,46,11,8,1.0,0.5
2025-11-12T2300,1075A,115.6303,37.7316,衡水市,市监测站,细颗粒物(PM2.5),186,173,124,140,92,28,,67,36,59,56,13,10,1.0,0.6
2025-11-12T2300,3188A,115.6683,37.7217,衡水市,市城管局,细颗粒物(PM2.5),166,194,127,126,83,12,,61,37,72,50,22,13,1.1,0.6
2025-11-12T2300,3459A,115.5989,37.5491,衡水市,地表水厂,细颗粒物(PM2.5),175,172,139,132,94,29,,66,38,63,63,13,8,0.9,0.5
2025-11-12T2300,2456A,112.5003,26.9167,衡阳市,原169医院,,,,,,,,,,,,,,,,
2025-11-12T2300,2457A,112.6194,26.9258,衡阳市,衡阳化工总厂,,33,31,55,23,32,70,,88,81,18,19,8,9,0.8,0.8
2025-11-12T2300,2458A,112.6211,26.8956,衡阳市,珠晖区环保局,,45,40,56,31,37,73,,87,80,12,17,10,11,1.0,1.1
2025-11-12T2300,2459A,112.6197,26.8733,衡阳市,市委党校,,37,37,57,19,25,72,,92,84,15,15,7,8,0.7,0.8
2025-11-12T2300,2460A,112.6006,26.8919,衡阳市,市监测站,,48,48,65,25,33,75,,91,84,16,16,6,7,0.8,0.9
2025-11-12T2300,2461A,112.5664,26.9056,衡阳市,真空机电公司,,38,38,56,19,29,78,,90,85,13,13,8,8,0.7,0.9
2025-11-12T2300,3399A,112.6703,26.882,衡阳市,师范学院,,46,46,64,26,34,73,,93,83,15,16,10,11,0.8,0.9
2025-11-12T2300,2608A,103.3772,23.3993,红河哈尼族彝族自治州,污水处理厂,,26,26,21,17,15,30,,48,39,8,9,5,7,0.4,0.5
2025-11-12T2300,2609A,103.3861,23.35,红河哈尼族彝族自治州,监测站,,33,33,28,7,12,29,,45,38,7,6,12,12,0.3,0.5
2025-11-12T2300,3038A,103.3758,23.368,红河哈尼族彝族自治州,州图书馆,,12,,12,8,7,33,,48,42,5,6,3,9,0.4,0.4
2025-11-12T2300,1090A,111.6507,40.7517,呼和浩特市,呼市一监,,21,12,60,3,26,67,,72,68,10,30,2,6,0.3,0.6
2025-11-12T2300,1091A,111.6572,40.8033,呼和浩特市,小召,,22,22,63,6,32,60,,75,68,22,40,6,7,0.3,0.6
2025-11-12T2300,1094A,111.7516,40.8369,呼和浩特市,如意水处理厂,,37,37,52,14,23,17,,76,62,52,34,9,9,0.5,0.5
2025-11-12T2300,1095A,111.7276,40.8062,呼和浩特市,二十九中,颗粒物(PM10),51,52,61,20,26,8,,79,62,63,35,9,9,0.5,0.5
2025-11-12T2300,1096A,111.5512,40.7866,呼和浩特市,工大金川校区,,22,15,75,3,28,70,,68,62,9,38,6,8,0.3,0.5
2025-11-12T2300,1097A,111.717,40.7612,呼和浩特市,化肥厂生活区,颗粒物(PM10),59,67,60,33,29,3,,72,51,73,41,6,5,0.5,0.6
2025-11-12T2300,3698A,111.5968,40.8178,呼和浩特市,红旗小学,,21,14,61,3,30,66,,77,70,12,34,5,8,0.2,0.5
2025-11-12T2300,3699A,111.6518,40.8389,呼和浩特市,海东办,,17,17,58,6,26,46,,78,63,29,34,5,5,0.2,0.5
2025-11-12T2300,3061A,119.7512,49.1577,呼伦贝尔市,国华电力东,,26,26,23,15,13,62,,66,64,7,8,9,8,0.3,0.3
2025-11-12T2300,4279A,119.7569,49.2222,呼伦贝尔市,伊敏大街东7号,,23,22,26,16,16,60,,64,63,2,2,6,5,0.4,0.4
2025-11-12T2300,1250A,120.0751,30.8669,湖州市,城西水厂,,31,31,37,12,13,75,,80,76,22,27,8,9,0.4,0.4
2025-11-12T2300,2873A,120.0830,30.8929,湖州市,仁皇山新区,,30,30,36,11,14,71,,78,77,22,24,6,7,0.1,0.3
2025-11-12T2300,2907A,120.1844,30.8596,湖州市,吴兴区站,,38,38,39,13,15,50,,65,58,25,27,7,7,0.5,0.5
2025-11-12T2300,3562A,120.4148,30.8538,湖州市,南浔区站,,33,33,33,14,13,69,,77,75,25,26,10,10,0.6,0.4
2025-11-12T2300,1607A,120.9049,40.7211,葫芦岛市,龙港区,,36,36,86,6,61,60,,88,62,24,41,11,12,0.4,0.8
2025-11-12T2300,1608A,120.8392,40.7514,葫芦岛市,化工街,颗粒物(PM10),51,51,101,7,53,49,,65,44,26,50,10,18,0.3,0.7
2025-11-12T2300,1609A,120.8341,40.7073,葫芦岛市,新区,,31,31,68,7,52,46,,76,57,36,44,12,12,0.5,0.9
2025-11-12T2300,1610A,120.8695,40.7677,葫芦岛市,东城区,,47,47,86,6,58,46,,71,52,36,54,9,17,0.6,1
2025-11-12T2300,2482A,109.5981,27.5721,怀化市,林科所,,,,,,,,,,,,,,,,
2025-11-12T2300,2483A,109.9453,27.5444,怀化市,河西地税局,,35,35,43,23,21,5,,84,44,29,15,5,7,0.4,0.3
2025-11-12T2300,2484A,109.9781,27.5342,怀化市,市四医院,颗粒物(PM10),56,61,54,35,26,14,,82,52,28,13,5,8,0.6,0.4
2025-11-12T2300,2485A,109.9972,27.5578,怀化市,监测楼,颗粒物(PM10),58,65,48,34,24,0,,79,48,34,18,3,6,0.3,0.2
2025-11-12T2300,2486A,110.0394,27.583,怀化市,市委党校,颗粒物(PM10),51,52,48,30,23,5,,84,48,31,17,10,12,0.2,0.2
2025-11-12T2300,1210A,119.036,33.5981,淮安市,钵池山,颗粒物(PM10),69,88,52,44,24,4,,99,55,96,46,8,9,0.6,0.5
2025-11-12T2300,1211A,119.007,33.575,淮安市,北京南路,细颗粒物(PM2.5),79,102,58,58,27,3,,93,46,72,36,8,8,1.2,0.6
2025-11-12T2300,1212A,118.989,33.6067,淮安市,市监测站,细颗粒物(PM2.5),73,68,43,53,24,5,,95,,73,38,6,8,0.9,0.6
2025-11-12T2300,1213A,119.135,33.5039,淮安市,楚州区监测站,细颗粒物(PM2.5),60,68,51,43,25,37,,105,64,47,36,8,9,0.6,0.5
2025-11-12T2300,3426A,118.8755,33.2894,淮安市,新华书店,颗粒物(PM10),79,108,62,51,30,34,,97,74,52,34,22,13,0.6,0.5
2025-11-12T2300,4206A,119.0288,33.6319,淮安市,承德北路606号,颗粒物(PM10),78,105,64,48,26,2,,91,45,102,50,7,8,0.6,0.5
2025-11-12T2300,2282A,116.8004,33.975,淮北市,监测站,颗粒物(PM10),55,60,55,35,26,49,,95,58,38,32,8,9,0.6,0.5
2025-11-12T2300,2283A,116.8091,33.9007,淮北市,烈山区政府,颗粒物(PM10),53,56,50,28,31,34,,102,73,52,34,9,9,0.4,0.4
2025-11-12T2300,3330A,116.8873,33.9836,淮北市,杜集区检察院,细颗粒物(PM2.5),82,84,63,60,38,29,,104,74,48,34,4,5,0.4,0.3
2025-11-12T2300,4017A,116.7923,33.9535,淮北市,市博物馆,颗粒物(PM10),64,77,58,40,23,39,,98,66,47,31,8,8,0.7,0.4
2025-11-12T2300,2277A,116.8305,32.7727,淮南市,潘集区政府,,,109,68,57,35,53,,95,69,31,24,,7,0.5,0.5
2025-11-12T2300,2279A,116.8569,32.5951,淮南市,谢家集区政府,颗粒物(PM10),68,86,40,36,17,41,,95,66,44,22,7,7,0.4,0.4
2025-11-12T2300,2280A,116.8281,32.633,淮南市,八公山区政府,颗粒物(PM10),62,73,52,31,22,56,,96,73,26,21,6,8,0.4,0.3
2025-11-12T2300,2281A,116.6325,32.6201,淮南市,焦岗湖风景区管理处,,,,,,,,,,,,,,,,
2025-11-12T2300,2894A,117.0566,32.6531,淮南市,经济技术开发区消防队,颗粒物(PM10),64,77,54,39,17,51,,91,62,42,28,7,7,0.2,0.1
2025-11-12T2300,3329A,117.0108,32.5893,淮南市,山南新区,,,149,45,,6,63,,102,85,40,22,5,4,0.5,0.3
2025-11-12T2300,4209A,117.0031,32.6445,淮南市,国庆中路369号,细颗粒物(PM2.5),64,62,41,46,21,67,,89,69,30,23,9,8,0.6,0.5
2025-11-12T2300,2446A,114.9028,30.4742,黄冈市,职工中心,,27,27,32,12,18,77,,101,86,13,16,4,5,0.4,0.5
2025-11-12T2300,2929A,114.8858,30.4519,黄冈市,红卫路,,24,22,30,15,22,74,,96,82,11,14,5,6,0.3,0.4
2025-11-12T2300,3398A,114.9136,30.4445,黄冈市,市林业局,,30,30,33,17,20,77,,105,90,10,13,4,6,0.4,0.4
2025-11-12T2300,2672A,102.0199,35.5102,黄南藏族自治州,同仁县隆务镇,,41,41,53,21,28,50,,77,61,4,6,10,10,0.4,0.4
2025-11-12T2300,2295A,118.2903,29.6963,黄山市,延安路89号,,40,40,25,19,14,73,,81,76,9,11,4,4,0.4,0.4
2025-11-12T2300,2297A,118.1371,30.2756,黄山市,黄山区政府5号楼,,31,31,28,19,16,33,,87,,8,7,5,5,0.5,0.4
2025-11-12T2300,4210A,118.3354,29.7203,黄山市,滨江东路7-2号,,47,47,39,24,18,67,,76,68,11,12,4,4,0.4,0.3
2025-11-12T2300,2423A,115.0601,30.2313,黄石市,沈家营,颗粒物(PM10),52,54,43,16,19,51,,98,78,9,9,9,9,0.6,0.5
2025-11-12T2300,2426A,114.8988,30.2019,黄石市,铁山,,37,37,38,25,23,52,,93,76,23,20,8,8,0.6,0.5
2025-11-12T2300,2427A,115.0307,30.2092,黄石市,团城山,,48,48,42,18,18,62,,84,,13,13,7,7,0.5,0.5
2025-11-12T2300,3149A,115.0235,30.1578,黄石市,笔架山北路,颗粒物(PM10),61,71,56,17,16,59,,98,83,10,9,8,9,0.9,0.8
2025-11-12T2300,4185A,115.0780,30.21118,黄石市,磁湖东路29号,,43,43,41,25,23,53,,93,81,13,14,9,10,0.6,0.5
2025-11-12T2300,1392A,114.4183,23.0528,惠州市,河南岸金山湖子站,,26,26,24,14,13,51,,72,58,16,19,13,11,0.5,0.6
2025-11-12T2300,1393A,114.4053,23.0822,惠州市,下埔横江三路子站,,25,25,22,14,13,60,,96,62,8,8,6,6,0.7,0.7
2025-11-12T2300,1394A,114.4103,23.1142,惠州市,江北云山西路子站,,23,23,21,13,12,62,,78,65,11,11,5,6,0.5,0.5
2025-11-12T2300,1395A,114.4645,22.7833,惠州市,惠阳区承修路船湖子站,,27,27,23,15,13,59,,82,67,12,13,5,8,0.5,0.7
2025-11-12T2300,1396A,114.5317,22.7422,惠州市,大亚湾管委会子站,,24,24,20,14,12,58,,79,68,9,10,10,10,0.5,0.6
2025-11-12T2300,3314A,114.4338,22.8134,惠州市,惠阳秋长,,29,29,25,15,14,66,,86,71,9,10,10,14,0.6,0.7
2025-11-12T2300,3452A,114.6517,22.775,惠州市,大亚湾霞涌,,22,22,25,11,11,52,,70,61,9,9,10,9,0.5,0.6
2025-11-12T2300,2240A,130.9762,45.3001,鸡西市,环保局,细颗粒物(PM2.5),80,86,59,59,39,67,,34,26,16,37,9,10,0.8,1
2025-11-12T2300,2243A,130.9429,45.3039,鸡西市,第一中学,细颗粒物(PM2.5),83,80,46,61,32,67,,41,41,14,26,8,8,0.8,0.7
2025-11-12T2300,3707A,131.0207,45.3073,鸡西市,欧美日汽修厂,细颗粒物(PM2.5),80,93,81,59,54,17,,40,14,56,38,12,15,1.0,1.1
2025-11-12T2300,3709A,130.9967,45.3106,鸡西市,市政设施管理处,颗粒物(PM10),94,138,73,69,49,13,,38,13,58,45,13,14,0.8,1.1
2025-11-12T2300,2367A,114.9754,27.0803,吉安市,红声器材厂,,39,39,43,17,19,74,,86,84,20,18,8,8,0.5,0.5
2025-11-12T2300,2368A,114.9658,27.0999,吉安市,市森林工业局,,39,39,42,22,21,71,,82,81,16,15,8,9,0.4,0.4
2025-11-12T2300,2369A,114.99,27.1312,吉安市,市环境监测站,,43,43,42,18,20,58,,84,78,20,15,12,14,0.5,0.5
2025-11-12T2300,2370A,115.0093,27.0968,吉安市,青原区法院,,38,38,39,19,20,75,,87,86,18,16,13,11,0.6,0.7
2025-11-12T2300,1772A,126.54,43.8622,吉林市,哈达湾,,33,33,90,22,69,60,,106,88,10,20,7,14,0.5,0.8
2025-11-12T2300,1773A,126.5844,43.8358,吉林市,东局子,,22,22,87,3,66,57,,98,76,9,19,12,9,0.4,0.8
2025-11-12T2300,1774A,126.5052,43.8245,吉林市,电力学院,,23,16,102,16,89,57,,96,77,9,25,7,9,0.3,0.9
2025-11-12T2300,1775A,126.6133,43.8972,吉林市,江北,,,,91,,68,,,58,,,29,,5,,0.8
2025-11-12T2300,1776A,126.555,43.8306,吉林市,江南公园,,22,19,91,15,75,55,,99,80,9,20,4,8,0.3,0.6
2025-11-12T2300,1778A,126.7061,43.7133,吉林市,丰满,,22,18,74,15,68,48,,69,66,9,17,9,11,0.1,0.4
2025-11-12T2300,2868A,126.4739,43.953,吉林市,九站,,28,,103,19,77,51,,97,73,13,25,3,8,0.2,0.6
2025-11-12T2300,1299A,116.9862,36.6114,济南市,科干所,细颗粒物(PM2.5),89,107,81,66,39,47,,113,102,61,20,11,12,0.7,0.5
2025-11-12T2300,1300A,116.9376,36.665,济南市,农科所,颗粒物(PM10),78,105,92,54,40,60,,100,81,49,43,9,10,0.6,0.7
2025-11-12T2300,1301A,117.1265,36.6734,济南市,开发区,细颗粒物(PM2.5),85,117,79,63,44,14,,114,74,86,34,4,6,1.0,0.7
2025-11-12T2300,1303A,117.0624,36.6868,济南市,省种子仓库,细颗粒物(PM2.5),100,139,100,75,49,24,,110,86,84,55,9,10,1.0,0.8
2025-11-12T2300,1304A,116.9489,36.6447,济南市,机床二厂,细颗粒物(PM2.5),104,156,113,78,57,38,,93,68,76,54,11,13,0.5,0.4
2025-11-12T2300,1305A,117.0495,36.663,济南市,市监测站,细颗粒物(PM2.5),89,110,86,66,47,38,,111,88,70,46,5,6,1.1,0.9
2025-11-12T2300,1306A,116.7675,36.5484,济南市,长清党校,"颗粒物(PM10),细颗粒物(PM2.5)",80,110,93,59,43,79,,111,,39,42,12,12,0.7,0.6
2025-11-12T2300,1616A,117.6795,36.229,济南市,技术学院,细颗粒物(PM2.5),117,139,110,88,67,18,,110,78,90,55,15,16,1.2,1.1
2025-11-12T2300,1961A,117.532,36.6868,济南市,东山小学,颗粒物(PM10),73,95,97,51,50,27,,112,78,68,39,7,11,0.5,0.6
2025-11-12T2300,3059A,117.7161,36.2049,济南市,泰兴公司,细颗粒物(PM2.5),117,124,106,88,68,2,,110,69,88,47,9,12,0.8,0.7
2025-11-12T2300,3064A,117.6867,36.2171,济南市,莱芜战役纪念馆,细颗粒物(PM2.5),140,149,112,107,73,15,,106,79,82,50,14,13,1.1,1
2025-11-12T2300,3494A,117.1673,36.9782,济南市,济阳区政府,颗粒物(PM10),94,137,112,66,49,15,,99,74,106,59,12,10,0.6,0.6
2025-11-12T2300,3495A,117.1171,36.63,济南市,锦屏中学,细颗粒物(PM2.5),68,83,71,49,34,61,,114,86,30,23,3,5,0.7,0.6
2025-11-12T2300,3682A,116.9814,36.6819,济南市,济南四建,细颗粒物(PM2.5),95,127,94,71,49,26,,107,82,83,39,9,9,1.0,0.8
2025-11-12T2300,1653A,116.6251,35.4302,济宁市,火炬城,细颗粒物(PM2.5),110,86,84,83,68,58,,110,92,33,32,8,9,0.3,0.3
2025-11-12T2300,1655A,116.5491,35.4042,济宁市,电化厂,细颗粒物(PM2.5),85,114,117,63,63,82,,108,86,29,48,5,8,0.2,0.4
2025-11-12T2300,3500A,116.5814,35.3707,济宁市,北湖一中,细颗粒物(PM2.5),112,,76,84,64,56,,110,90,34,36,6,9,0.4,0.4
2025-11-12T2300,3501A,116.8249,35.5593,济宁市,服务中心,细颗粒物(PM2.5),128,146,115,97,59,23,,106,73,59,42,8,8,0.6,0.6
2025-11-12T2300,3678A,116.5907,35.4054,济宁市,市第七中学,细颗粒物(PM2.5),110,113,97,83,63,32,,116,80,78,55,9,11,0.6,0.6
2025-11-12T2300,2255A,130.2751,46.8028,佳木斯市,佳纺,细颗粒物(PM2.5),153,159,63,117,42,54,,63,54,14,24,6,5,0.7,0.7
2025-11-12T2300,2256A,130.3995,46.8307,佳木斯市,发电厂,细颗粒物(PM2.5),160,134,59,122,43,55,,58,45,14,28,8,8,0.7,0.7
2025-11-12T2300,2257A,130.3258,46.7975,佳木斯市,环保局,细颗粒物(PM2.5),110,104,41,83,34,54,,70,,18,18,5,5,0.5,0.4
2025-11-12T2300,2258A,130.3648,46.8032,佳木斯市,十一中,细颗粒物(PM2.5),112,110,43,84,37,55,,54,51,16,22,7,8,0.6,0.5
2025-11-12T2300,2259A,130.3794,46.7588,佳木斯市,四丰,,,,,,,,,,,,,,,,
2025-11-12T2300,1252A,120.7436,30.778,嘉兴市,清河小学,,34,34,38,15,13,63,,69,64,22,27,9,8,0.4,0.4
2025-11-12T2300,1253A,120.726,30.7478,嘉兴市,嘉兴学院,,35,35,39,15,14,60,,68,63,27,31,6,6,0.5,0.4
2025-11-12T2300,2872A,120.7846,30.7525,嘉兴市,南湖区残联,,32,32,34,18,15,65,,74,67,23,24,8,7,0.5,0.6
2025-11-12T2300,3407A,120.6916,30.7739,嘉兴市,秀洲住建,,37,37,41,15,16,64,,68,64,22,27,9,9,0.5,0.6
2025-11-12T2300,1945A,98.2908,39.7711,嘉峪关市,气象局,颗粒物(PM10),85,119,110,31,26,22,,81,60,55,25,2,10,0.6,0.5
2025-11-12T2300,2884A,98.2672,39.7978,嘉峪关市,酒钢宾馆,颗粒物(PM10),90,129,126,24,29,40,,78,62,24,18,14,20,0.7,0.7
2025-11-12T2300,3248A,98.2643,39.7724,嘉峪关市,雄关区,颗粒物(PM10),70,89,89,31,28,26,,75,56,46,32,15,19,0.7,0.6
2025-11-12T2300,1383A,113.1064,22.6058,江门市,北街,,25,24,23,17,12,57,,83,67,19,21,6,6,0.5,0.5
2025-11-12T2300,1384A,113.0731,22.5835,江门市,西区,,36,29,23,25,12,54,,85,65,19,18,5,6,0.5,0.6
2025-11-12T2300,1385A,113.0219,22.5311,江门市,圭峰西,,32,32,22,20,11,64,,91,72,16,15,5,6,0.6,0.6
2025-11-12T2300,1386A,113.0828,22.5947,江门市,东湖,,37,37,24,18,11,46,,71,56,20,19,7,8,0.4,0.5
2025-11-12T2300,3311A,113.1075,22.5647,江门市,江海富民,,34,34,24,9,8,58,,85,68,21,22,9,10,0.6,0.7
2025-11-12T2300,3449A,113.05,22.4667,江门市,新会银湖,,30,30,23,20,12,59,,86,65,16,18,5,6,0.6,0.7
2025-11-12T2300,1830A,113.1992,35.2590,焦作市,影视城,,,,120,,58,,,92,,,25,,10,,0.7
2025-11-12T2300,3335A,113.3137,35.2641,焦作市,马村街道办,细颗粒物(PM2.5),113,156,137,85,83,47,,92,62,30,31,5,7,0.7,0.8
2025-11-12T2300,3336A,113.2465,35.2373,焦作市,焦作技师学院,细颗粒物(PM2.5),117,150,145,88,86,43,,88,61,41,39,4,6,0.8,0.8
2025-11-12T2300,3477A,113.1656,35.2539,焦作市,中站许衡医院,颗粒物(PM10),125,199,128,86,75,51,,92,75,29,29,9,10,0.9,0.7
2025-11-12T2300,3981A,113.2449,35.1803,焦作市,原李万街道办,细颗粒物(PM2.5),149,207,157,114,87,13,,79,50,46,32,7,10,1.0,0.7
2025-11-12T2300,4264A,113.2340,35.2190,焦作市,新安路1731号,细颗粒物(PM2.5),139,172,156,106,95,29,,77,50,39,32,6,7,1.2,1.1
2025-11-12T2300,4295A,113.2722,35.2121,焦作市,人民路3066号,细颗粒物(PM2.5),137,200,145,104,79,6,,83,52,,29,4,7,1.1,1
2025-11-12T2300,1708A,116.3701,23.5345,揭阳市,新兴,,,,20,,13,,,47,,,11,,7,,0.6
2025-11-12T2300,1709A,116.3264,23.5443,揭阳市,西马,,11,10,18,7,11,35,,52,44,9,9,3,3,0.6,0.6
2025-11-12T2300,1710A,116.3611,23.5626,揭阳市,东兴,,12,12,22,7,10,27,,44,35,12,15,5,6,0.4,0.4
2025-11-12T2300,1711A,116.4151,23.5294,揭阳市,渔湖,,16,16,18,3,11,32,,53,43,11,11,4,4,0.6,0.6
2025-11-12T2300,3320A,116.403,23.5699,揭阳市,曲溪,,13,9,18,9,11,33,,54,45,10,11,1,1,0.5,0.5
2025-11-12T2300,1944A,102.1692,38.5167,金昌市,天庆家园,颗粒物(PM10),107,163,103,60,30,48,,71,56,24,16,9,12,0.8,0.6
2025-11-12T2300,4022A,102.1647,38.5371,金昌市,金川区人防中心,颗粒物(PM10),93,136,96,51,32,40,,78,61,20,13,6,8,0.8,0.7
2025-11-12T2300,4239A,102.1930,38.5319,金昌市,长春路96号,颗粒物(PM10),105,159,93,54,30,47,,76,61,30,14,24,15,1.3,0.7
2025-11-12T2300,1262A,119.647,29.077,金华市,十五中,,42,39,36,29,20,21,,45,20,30,29,3,3,0.5,0.4
2025-11-12T2300,1263A,119.686,29.1029,金华市,监测站,,39,39,34,21,16,17,,49,18,32,32,2,2,0.5,0.5
2025-11-12T2300,3659A,119.656,29.1131,金华市,气象局,,34,34,33,19,17,22,,40,20,28,30,4,4,0.6,0.5
2025-11-12T2300,1767A,121.1115,41.0879,锦州市,南山,,33,33,61,3,48,68,,92,78,10,41,7,11,0.4,0.8
2025-11-12T2300,1768A,121.0604,40.8428,锦州市,开发区,,44,44,104,14,69,58,,70,45,21,58,8,52,0.5,1.1
2025-11-12T2300,1769A,121.1836,41.1119,锦州市,百股街道,,46,46,63,7,36,58,,89,76,12,30,16,11,0.5,0.8
2025-11-12T2300,1770A,121.1178,41.1222,锦州市,天安街道,,46,46,68,9,45,68,,95,83,5,34,8,12,0.4,0.9
2025-11-12T2300,1771A,121.1303,41.1386,锦州市,北湖公园,,45,45,62,3,41,65,,90,78,10,37,7,11,0.4,0.7
2025-11-12T2300,2160A,112.85,35.5051,晋城市,自来水公司,颗粒物(PM10),76,101,123,53,63,50,,79,69,37,38,10,10,1.3,1.5
2025-11-12T2300,2161A,112.8318,35.4936,晋城市,白云商贸,颗粒物(PM10),71,92,126,36,53,61,,83,75,26,31,7,5,1.2,1.3
2025-11-12T2300,2162A,112.8508,35.4887,晋城市,市环保局,颗粒物(PM10),76,101,123,41,56,60,,84,75,25,34,8,7,1.2,1.3
2025-11-12T2300,2163A,112.8676,35.4897,晋城市,技术学院,颗粒物(PM10),75,100,112,46,58,48,,77,65,37,40,8,8,1.2,1.2
2025-11-12T2300,2165A,112.8453,35.546,晋城市,白马寺,颗粒物(PM10),64,78,110,41,72,76,,99,91,20,20,11,12,0.7,1.3
2025-11-12T2300,3620A,112.8271,35.4828,晋城市,泽州一中,细颗粒物(PM2.5),73,93,128,53,71,71,,91,84,24,31,6,6,1.0,1.2
2025-11-12T2300,2173A,112.7249,37.7067,晋中市,南都小区,颗粒物(PM10),58,66,73,22,32,32,,67,59,47,38,13,17,0.4,0.7
2025-11-12T2300,2174A,112.6991,37.6982,晋中市,榆次区政府,颗粒物(PM10),56,61,75,22,34,39,,66,58,45,38,8,15,0.3,0.7
2025-11-12T2300,2865A,112.7195,37.6828,晋中市,榆次三中,颗粒物(PM10),54,58,72,14,25,39,,68,59,38,35,8,14,0.3,0.6
2025-11-12T2300,4200A,112.7478,37.6954,晋中市,迎宾街26号,颗粒物(PM10),64,78,71,24,29,31,,69,62,44,32,14,15,0.7,0.9
2025-11-12T2300,2439A,112.2014,31.0481,荆门市,竹园小学,颗粒物(PM10),69,87,68,48,37,61,,81,68,31,27,1,1,0.4,0.3
2025-11-12T2300,2440A,112.1969,30.9891,荆门市,掇刀,颗粒物(PM10),71,92,66,50,42,64,,95,79,24,19,2,2,0.4,0.3
2025-11-12T2300,2441A,112.2213,31.0386,荆门市,石化一小,颗粒物(PM10),80,110,81,46,37,56,,78,65,28,26,7,10,0.3,0.2
2025-11-12T2300,3012A,112.1849,31.0362,荆门市,西山林语,颗粒物(PM10),64,78,66,45,34,74,,86,77,16,17,8,6,0.5,0.4
2025-11-12T2300,3547A,112.1632,31.0138,荆门市,龙泉中学南校,颗粒物(PM10),73,96,69,48,33,78,,91,84,18,19,10,8,0.5,0.3
2025-11-12T2300,1844A,112.2494,30.3197,荆州市,市图书馆,细颗粒物(PM2.5),58,49,43,41,33,68,,82,79,26,22,8,8,0.5,0.6
2025-11-12T2300,1845A,112.2008,30.3544,荆州市,市委党校,细颗粒物(PM2.5),60,65,49,43,32,51,,77,72,32,26,8,8,0.5,0.5
2025-11-12T2300,3194A,112.2747,30.3122,荆州市,管委会,细颗粒物(PM2.5),55,52,44,39,32,71,,80,78,19,19,8,8,0.4,0.4
2025-11-12T2300,4268A,112.1722,30.3366,荆州市,学苑路85号,"颗粒物(PM10),细颗粒物(PM2.5)",55,60,50,39,32,60,,93,85,26,19,12,11,0.4,0.2
2025-11-12T2300,2342A,117.3102,29.3867,景德镇市,王港中学,,,,,,,,,,,,,,,,
2025-11-12T2300,2343A,117.2117,29.2933,景德镇市,老干部活动中心,,23,,21,16,13,64,,76,61,2,4,4,4,0.4,0.4
2025-11-12T2300,2344A,117.1894,29.2789,景德镇市,兽医站,,33,33,29,13,11,73,,85,70,7,8,6,6,0.3,0.3
2025-11-12T2300,2346A,117.2461,29.2956,景德镇市,陶研所,,,,17,,13,,,58,,,3,,7,,0.2
2025-11-12T2300,4289A,117.1542,29.2566,景德镇市,青少年活动中心,,26,25,22,18,13,70,,80,68,7,10,3,4,0.4,0.4
2025-11-12T2300,1803A,115.9872,29.6815,九江市,十里,,43,39,37,30,23,96,,113,106,20,18,7,6,0.6,0.6
2025-11-12T2300,1804A,115.9584,29.7046,九江市,茅山头,,35,35,37,20,22,80,,93,88,16,17,4,5,0.6,0.6
2025-11-12T2300,1805A,115.9877,29.7295,九江市,西园,,39,37,33,27,17,89,,108,100,29,27,4,4,0.6,0.6
2025-11-12T2300,1808A,115.9114,29.6038,九江市,综合工业园,,40,40,36,22,23,94,,104,101,18,19,4,3,0.4,0.4
2025-11-12T2300,1809A,116.0721,29.7535,九江市,石化总厂,,41,41,43,14,20,87,,100,94,19,18,5,6,0.5,0.5
2025-11-12T2300,1810A,115.9773,29.5698,九江市,庐山气象台,,,,,,,,,,,,,,,,
2025-11-12T2300,3190A,116.0254,29.6994,九江市,外国语学校,,47,47,35,18,20,77,,80,75,26,28,5,4,0.4,0.5
2025-11-12T2300,4253A,116.0102,29.6594,九江市,莲花大道8号,颗粒物(PM10),52,53,40,16,13,84,,92,89,13,14,8,8,0.4,0.4
2025-11-12T2300,4240A,98.4958,39.7339,酒泉市,玉门东路5号,颗粒物(PM10),102,153,121,49,27,33,,77,58,44,23,9,12,0.6,0.5
2025-11-12T2300,4241A,98.5099,39.7506,酒泉市,北大街108号,颗粒物(PM10),89,127,118,39,29,26,,73,56,36,19,10,15,0.7,0.5
2025-11-12T2300,2698A,76.0072,39.4467,喀什地区,巡警大队,颗粒物(PM10),279,405,287,184,111,12,,80,63,116,61,29,10,5.8,1.6
2025-11-12T2300,2699A,75.9755,39.4694,喀什地区,吾办,颗粒物(PM10),177,304,256,120,98,9,,76,56,101,63,15,8,3.9,1.4
2025-11-12T2300,4027A,75.9483,39.4689,喀什地区,老干局,颗粒物(PM10),286,410,312,159,96,7,,76,62,115,59,13,6,4.2,2.2
2025-11-12T2300,1824A,114.3389,34.7781,开封市,肿瘤医院,颗粒物(PM10),70,89,88,48,48,32,,105,65,53,48,10,11,0.7,0.7
2025-11-12T2300,1826A,114.2885,34.7965,开封市,世纪星幼儿园,细颗粒物(PM2.5),92,84,83,68,66,40,,106,67,46,50,8,9,0.6,0.6
2025-11-12T2300,3147A,114.3438,34.8106,开封市,龙亭公园,细颗粒物(PM2.5),83,78,88,61,65,36,,107,69,48,43,9,10,0.3,0.4
2025-11-12T2300,3210A,114.3644,34.7964,开封市,汴京公园,颗粒物(PM10),71,91,93,49,57,30,,96,62,54,50,9,10,0.6,0.6
2025-11-12T2300,3473A,114.2485,34.8306,开封市,技师学院,细颗粒物(PM2.5),82,82,78,60,53,51,,108,80,38,32,10,10,0.8,0.7
2025-11-12T2300,3592A,114.4644,34.7556,开封市,祥符区生态环境局,细颗粒物(PM2.5),85,112,101,63,59,26,,102,62,63,57,6,8,0.7,0.7
2025-11-12T2300,1951A,84.895,45.6094,克拉玛依市,长征新村,颗粒物(PM10),58,65,26,28,11,4,,39,26,56,20,7,6,0.7,0.3
2025-11-12T2300,1952A,84.8988,45.5893,克拉玛依市,南林小区,,,76,25,27,12,3,,38,21,48,16,6,5,,0.6
2025-11-12T2300,1954A,84.905,44.3396,克拉玛依市,独山子区,颗粒物(PM10),62,73,57,34,29,18,,59,32,33,28,4,5,0.6,0.6
2025-11-12T2300,1955A,85.6979,46.098,克拉玛依市,乌尔禾区商贸楼,颗粒物(PM10),51,52,22,8,8,7,,44,37,52,16,7,6,0.8,0.5
2025-11-12T2300,3612A,85.1045,45.6899,克拉玛依市,白碱滩区新站,,33,33,22,15,10,33,,46,44,22,15,5,6,0.3,0.4
2025-11-12T2300,2697A,76.1454,39.7142,克孜勒苏柯尔克孜自治州,市人民政府,颗粒物(PM10),135,220,228,92,106,59,,101,86,40,25,8,18,0.6,0.4
2025-11-12T2300,3665A,76.1658,39.7157,克孜勒苏柯尔克孜自治州,克州文化中心,颗粒物(PM10),134,218,222,78,80,24,,97,80,72,24,8,16,1.0,0.5
2025-11-12T2300,1450A,102.8204,24.8886,昆明市,呈贡新区,细颗粒物(PM2.5),62,,21,44,20,26,,83,60,28,22,4,5,0.8,0.7
2025-11-12T2300,1451A,102.6251,24.9608,昆明市,西山森林公园,,,,,,,,,,,,,,,,
2025-11-12T2300,1452A,102.7252,25.0902,昆明市,龙泉镇,,40,40,24,28,10,21,,86,51,22,20,3,3,0.5,0.4
2025-11-12T2300,1453A,102.7266,25.0375,昆明市,东风东路,颗粒物(PM10),51,52,26,16,10,12,,84,64,41,21,2,2,0.6,0.4
2025-11-12T2300,1454A,102.6742,25.0669,昆明市,金鼎山,,35,35,37,13,12,34,,83,63,20,20,2,2,0.5,0.5
2025-11-12T2300,1455A,102.6644,25.0401,昆明市,碧鸡广场,颗粒物(PM10),51,52,28,23,14,19,,77,52,41,24,4,3,0.6,0.5
2025-11-12T2300,3179A,102.7494,25.0119,昆明市,官渡区博物馆,,39,39,26,9,11,5,,82,60,53,25,3,3,0.5,0.5
2025-11-12T2300,3375A,102.8017,24.8336,昆明市,青年创业园,,49,49,19,21,11,1,,82,49,32,16,2,2,0.8,0.7
2025-11-12T2300,3550A,102.7997,24.9786,昆明市,昆明学院,,46,46,37,22,18,16,,86,59,37,25,1,2,0.7,0.6
2025-11-12T2300,3551A,102.5967,24.6736,昆明市,晋宁区生态环境分局,,42,34,27,29,13,21,,77,60,28,17,8,8,0.5,0.5
2025-11-12T2300,3552A,102.6678,24.9856,昆明市,云天化总部,,26,26,16,16,10,29,,81,62,30,17,6,5,0.7,0.6
2025-11-12T2300,1456A,91.1319,29.6514,拉萨市,八廓街,,46,46,23,28,15,10,,104,74,66,27,6,6,0.8,0.4
2025-11-12T2300,1457A,91.1221,29.6747,拉萨市,市环保局,细颗粒物(PM2.5),72,80,38,52,23,9,,89,59,51,26,10,8,2.0,0.9
2025-11-12T2300,1458A,91.0874,29.6475,拉萨市,区监测站,,41,33,24,17,12,14,,96,58,82,42,6,5,1.0,0.5
2025-11-12T2300,1459A,91.1774,29.6541,拉萨市,西藏大学,颗粒物(PM10),57,64,18,38,11,9,,94,69,85,26,8,6,1.4,0.3
2025-11-12T2300,1460A,90.9798,29.6588,拉萨市,区辐射站,颗粒物(PM10),91,131,47,64,23,7,,82,53,87,40,10,6,1.4,0.6
2025-11-12T2300,1461A,91.0834,29.6292,拉萨市,拉萨火车站,,25,25,21,15,11,40,,92,79,49,30,5,6,0.8,0.7
2025-11-12T2300,2520A,109.2203,23.7256,来宾市,来宾技工学校,,39,39,29,24,12,70,,81,74,7,6,12,10,0.5,0.5
2025-11-12T2300,3535A,109.1781,23.7297,来宾市,兴宾区政府,,44,44,26,24,14,74,,84,78,6,5,11,9,0.4,0.5
2025-11-12T2300,4002A,109.2416,23.7461,来宾市,中南小学,,44,44,32,29,16,69,,79,70,7,7,10,9,0.5,0.5
2025-11-12T2300,1477A,104.1373,35.9454,兰州市,榆中兰大校区,,,,,,,,,,,,,,,,
2025-11-12T2300,1479A,103.831,36.0464,兰州市,铁路设计院,,,,,,,,,,,,,,,,
2025-11-12T2300,3241A,103.7439,36.0842,兰州市,百合公园,颗粒物(PM10),70,89,77,40,37,5,,62,35,55,36,11,9,0.7,0.9
2025-11-12T2300,3242A,103.9611,35.998,兰州市,和平,颗粒物(PM10),69,87,86,45,35,32,,70,,30,28,6,8,0.4,0.4
2025-11-12T2300,4236A,103.6293,36.0938,兰州市,庄浪东路808号,颗粒物(PM10),60,70,80,36,39,17,,61,36,58,46,8,11,0.5,0.5
2025-11-12T2300,4237A,103.7251,36.1043,兰州市,安宁西路88号,颗粒物(PM10),77,103,87,47,42,22,,74,50,47,36,5,7,0.5,0.5
2025-11-12T2300,4238A,103.8470,36.0676,兰州市,北滨河东路1号,颗粒物(PM10),71,92,79,36,36,5,,72,50,70,43,7,11,0.7,0.7
2025-11-12T2300,3245A,103.6633,36.533,兰州新区,新区管委会,细颗粒物(PM2.5),108,136,75,81,36,14,,82,55,33,17,11,18,0.5,0.4
2025-11-12T2300,3246A,103.6975,36.4789,兰州新区,舟曲中学,颗粒物(PM10),69,88,73,28,22,24,,91,70,51,21,32,19,0.7,0.2
2025-11-12T2300,1067A,116.6708,39.5111,廊坊市,药材公司,,26,26,112,3,68,61,,69,65,18,53,1,4,0.4,0.9
2025-11-12T2300,1068A,116.7214,39.5589,廊坊市,开发区,,26,26,97,9,61,53,,67,63,24,47,1,3,0.2,0.7
2025-11-12T2300,1070A,116.7244,39.5269,廊坊市,北华航天学院,,21,21,113,3,63,52,,68,64,23,51,2,5,0.2,0.8
2025-11-12T2300,2919A,116.7022,39.5453,廊坊市,河北工业大学,,20,20,110,11,63,55,,68,65,19,48,2,5,0.3,0.7
2025-11-12T2300,2535A,103.7723,29.5462,乐山市,花湖湾,,,,,,,,,,,,,,,,
2025-11-12T2300,2536A,103.7627,29.5844,乐山市,牛耳桥,,40,29,30,28,23,12,,37,28,33,25,6,6,0.6,0.6
2025-11-12T2300,2537A,103.7508,29.6006,乐山市,市第三水厂,,30,30,31,16,18,6,,39,28,42,24,5,5,0.7,0.6
2025-11-12T2300,2538A,103.7571,29.5664,乐山市,市监测站,,26,26,27,14,17,17,,39,33,23,17,7,7,0.7,0.7
2025-11-12T2300,3361A,103.7311,29.5628,乐山市,理工大学,,25,25,26,13,16,14,,44,34,24,17,8,7,0.6,0.5
2025-11-12T2300,2598A,100.2143,26.8576,丽江市,西南郊,,27,27,23,17,13,56,,80,76,13,10,7,7,0.7,0.8
2025-11-12T2300,2599A,100.2497,26.8802,丽江市,丽江古城,,34,34,27,17,13,48,,82,72,14,15,10,11,0.6,0.5
2025-11-12T2300,2600A,100.2203,26.8906,丽江市,市中心,,22,16,18,14,9,68,,81,78,15,14,12,11,0.4,0.4
2025-11-12T2300,1267A,119.914,28.4514,丽水市,监测站大楼,,20,,10,14,9,29,,42,33,18,15,6,5,0.5,0.5
2025-11-12T2300,1268A,119.93,28.4586,丽水市,莲都小学,,17,17,12,10,7,32,,44,36,18,16,4,4,0.4,0.3
2025-11-12T2300,1269A,119.879,28.4231,丽水市,余庄前,,28,24,15,19,9,22,,35,29,24,20,3,3,0.4,0.4
2025-11-12T2300,1173A,119.176,34.5885,连云港市,市环境监测站,细颗粒物(PM2.5),77,83,54,56,28,50,,104,78,38,35,9,10,1.0,0.7
2025-11-12T2300,3000A,119.3581,34.6972,连云港市,德源药业,颗粒物(PM10),119,188,67,58,22,12,,82,41,74,45,6,6,0.6,0.4
2025-11-12T2300,3007A,119.178,34.844,连云港市,新城一中,细颗粒物(PM2.5),77,83,64,56,38,27,,88,55,61,45,8,10,0.8,0.6
2025-11-12T2300,3008A,119.3608,34.7519,连云港市,胡沟管理处,颗粒物(PM10),52,53,40,34,16,82,,83,78,28,34,10,9,0.6,0.5
2025-11-12T2300,3009A,119.1478,34.5911,连云港市,矿山设计院,细颗粒物(PM2.5),70,83,57,51,26,66,,98,75,16,20,6,6,0.7,0.6
2025-11-12T2300,3434A,119.2413,34.6539,连云港市,工贸学校,颗粒物(PM10),63,75,50,41,24,84,,96,92,21,23,10,10,0.8,0.7
2025-11-12T2300,3664A,119.4172,34.7341,连云港市,连云街道,颗粒物(PM10),51,51,45,26,19,94,,88,88,16,23,7,7,0.3,0.3
2025-11-12T2300,2571A,102.3431,27.8099,凉山彝族自治州,青龙寺,,,,,,,,,,,,,,,,
2025-11-12T2300,2572A,102.2721,27.8415,凉山彝族自治州,邛海宾馆,,14,14,15,8,10,32,,52,,11,10,8,7,0.6,0.6
2025-11-12T2300,2573A,102.2625,27.898,凉山彝族自治州,西昌市政府,,25,25,28,3,17,32,,41,33,5,12,7,10,0.8,0.8
2025-11-12T2300,2574A,102.2685,27.8851,凉山彝族自治州,凉山州政府,,20,15,23,14,14,29,,45,,6,9,9,10,0.7,0.7
2025-11-12T2300,4229A,102.2342,27.8859,凉山彝族自治州,凯乐南路30号,,,14,23,7,11,34,,45,37,8,16,11,10,,0.6
2025-11-12T2300,2212A,123.2,41.1953,辽阳市,宏伟区,,42,42,126,14,75,54,,115,91,8,17,6,10,0.4,0.8
2025-11-12T2300,2213A,123.1683,41.2495,辽阳市,新华园,,47,47,130,6,75,46,,108,82,14,26,4,9,0.1,0.6
2025-11-12T2300,2214A,123.2354,41.2639,辽阳市,滨河路,颗粒物(PM10),57,64,131,15,69,46,,113,88,17,24,8,9,0.5,0.8
2025-11-12T2300,2215A,123.149,41.2991,辽阳市,铁西工业园,颗粒物(PM10),52,53,146,12,78,43,,106,76,13,27,7,12,0.3,0.9
2025-11-12T2300,2227A,125.1358,42.8845,辽源市,环保局,颗粒物(PM10),53,56,121,3,66,59,,113,90,16,30,3,7,0.4,1
2025-11-12T2300,3239A,125.0764,42.9078,辽源市,银鹰制药,,40,40,117,11,83,61,,110,87,13,30,2,7,0.3,0.9
2025-11-12T2300,1625A,115.9848,36.4372,聊城市,区政府,细颗粒物(PM2.5),132,147,110,100,64,32,,99,77,56,45,10,11,0.8,0.6
2025-11-12T2300,2878A,116.0072,36.4343,聊城市,聊大东校,细颗粒物(PM2.5),122,144,118,92,66,59,,107,86,49,49,9,10,0.7,0.7
2025-11-12T2300,3200A,115.9819,36.4978,聊城市,监控中心,细颗粒物(PM2.5),113,141,111,85,65,44,,110,80,62,43,10,12,0.8,0.7
2025-11-12T2300,3513A,116.0445,36.4361,聊城市,九州社区,细颗粒物(PM2.5),132,149,119,100,65,47,,107,81,46,42,6,6,0.6,0.5
2025-11-12T2300,4018A,116.0567,36.4608,聊城市,星美广场,细颗粒物(PM2.5),128,166,117,97,59,27,,109,82,80,38,5,5,0.6,0.5
2025-11-12T2300,2632A,94.3681,29.6376,林芝市,林芝监测站,,21,6,11,3,5,66,,72,68,1,5,4,4,0.3,0.3
2025-11-12T2300,2633A,94.3616,29.6616,林芝市,林芝人民医院,,19,11,16,6,6,58,,63,60,1,4,6,5,0.3,0.4
2025-11-12T2300,2603A,100.0781,23.8982,临沧市,市环保局,,,,26,39,26,25,,76,50,10,7,6,8,,0.8
2025-11-12T2300,2604A,100.0894,23.8822,临沧市,市气象局,,21,21,17,14,10,30,,70,52,13,8,10,9,0.6,0.6
2025-11-12T2300,1733A,111.5531,36.0783,临汾市,临钢医院,颗粒物(PM10),55,59,133,16,67,58,,61,43,16,35,6,11,0.4,1.4
2025-11-12T2300,1734A,111.5028,36.0714,临汾市,技工学校,颗粒物(PM10),64,77,123,44,65,28,,59,39,38,43,8,14,0.7,1.2
2025-11-12T2300,1736A,111.5018,36.0855,临汾市,市委,颗粒物(PM10),72,94,141,21,64,31,,58,37,34,44,5,12,0.8,1.3
2025-11-12T2300,3018A,111.505,36.1014,临汾市,唐尧大酒店,颗粒物(PM10),59,68,132,13,61,45,,62,42,25,40,4,10,0.5,1.2
2025-11-12T2300,4244A,111.4879,36.0530,临汾市,启星学校,颗粒物(PM10),75,100,132,48,67,14,,67,47,53,42,7,11,0.8,1.4
2025-11-12T2300,4271A,103.2464,35.6123,临夏回族自治州,滨河东路1号,细颗粒物(PM2.5),112,144,104,84,59,2,,58,24,39,26,2,3,1.1,0.8
2025-11-12T2300,4310A,103.2093,35.5995,临夏回族自治州,新华街21号,颗粒物(PM10),82,113,93,59,60,19,,60,43,28,17,8,10,1.0,0.7
2025-11-12T2300,1618A,118.3429,35.0532,临沂市,沂河小区,细颗粒物(PM2.5),137,134,97,104,67,35,,97,69,66,54,15,12,0.7,0.7
2025-11-12T2300,1619A,118.295,35.0583,临沂市,鲁南制药厂,细颗粒物(PM2.5),118,144,111,89,65,6,,103,64,104,64,14,14,0.9,0.8
2025-11-12T2300,1620A,118.2794,34.9976,临沂市,新光毛纺厂,细颗粒物(PM2.5),132,146,94,100,59,42,,98,74,60,58,17,14,0.8,0.7
2025-11-12T2300,1621A,118.3956,35.0888,临沂市,河东保险公司,细颗粒物(PM2.5),80,90,91,59,55,65,,111,85,41,50,9,10,0.9,0.9
2025-11-12T2300,3370A,118.3564,35.0215,临沂市,十里堡居委,细颗粒物(PM2.5),92,112,91,68,47,20,,99,52,90,67,15,15,0.9,0.8
2025-11-12T2300,3496A,118.3604,35.1084,临沂市,南坊新区,细颗粒物(PM2.5),89,105,99,66,56,49,,109,89,58,54,13,13,0.7,0.8
2025-11-12T2300,3860A,118.3920,35.0300,临沂市,皇山花园小区,细颗粒物(PM2.5),90,112,100,67,57,49,,108,74,58,49,16,14,0.8,0.8
2025-11-12T2300,1870A,109.4856,24.3895,柳州市,柳东小学,,48,48,26,24,14,79,,79,79,7,4,5,5,0.3,0.3
2025-11-12T2300,1871A,109.4157,24.3277,柳州市,环保监测站,颗粒物(PM10),58,65,30,3,6,76,,74,74,7,6,7,7,0.5,0.5
2025-11-12T2300,1872A,109.389,24.341,柳州市,河西水厂,颗粒物(PM10),51,51,34,23,17,54,,78,75,33,12,20,10,1.5,0.9
2025-11-12T2300,1873A,109.4311,24.2921,柳州市,市四中,,,48,29,20,12,75,,75,75,,8,8,8,0.5,0.5
2025-11-12T2300,1874A,109.4006,24.3631,柳州市,市九中,,50,50,37,24,16,71,,78,77,16,10,3,3,0.4,0.4
2025-11-12T2300,1875A,109.4958,24.3134,柳州市,古亭山,,36,36,28,15,10,56,,76,72,4,3,7,7,0.5,0.5
2025-11-12T2300,3402A,109.5422,24.3996,柳州市,市二中,,43,43,26,28,16,65,,78,75,13,7,7,7,0.4,0.4
2025-11-12T2300,2307A,116.5079,31.737,六安市,监测大楼,,40,40,39,18,19,66,,92,81,23,22,4,4,0.3,0.3
2025-11-12T2300,2308A,116.4738,31.7643,六安市,皖西学院,颗粒物(PM10),54,57,44,21,19,55,,95,77,30,23,3,3,0.3,0.3
2025-11-12T2300,2309A,116.4996,31.7905,六安市,朝阳厂,,41,41,40,20,17,63,,92,74,26,26,4,4,0.3,0.3
2025-11-12T2300,2310A,116.5567,31.7886,六安市,开发区,颗粒物(PM10),55,59,45,31,23,38,,89,60,40,28,2,2,0.3,0.3
2025-11-12T2300,2576A,104.8,26.5892,六盘水市,窑上,,23,23,26,11,11,36,,38,32,4,7,2,2,0.5,0.6
2025-11-12T2300,2577A,104.83,26.5917,六盘水市,黄土坡,,20,,16,14,11,44,,36,36,8,14,3,5,0.5,0.6
2025-11-12T2300,2578A,104.89,26.5939,六盘水市,水钢,,25,18,19,17,11,41,,42,40,10,8,6,6,0.5,0.6
2025-11-12T2300,2579A,104.8475,26.5894,六盘水市,民中,,21,21,19,9,8,38,,32,32,7,15,3,4,0.5,0.5
2025-11-12T2300,2580A,104.9544,26.5506,六盘水市,双水,,19,19,18,3,10,42,,42,41,5,9,3,4,0.4,0.5
2025-11-12T2300,2335A,117.0189,25.1181,龙岩市,龙岩师专,,,,,,,,,,,,,,,,
2025-11-12T2300,2336A,117.0217,25.1033,龙岩市,龙岩市监测站,,15,,5,3,2,46,,59,54,7,6,14,6,0.3,0.3
2025-11-12T2300,2337A,117.0258,25.0661,龙岩市,闽西职业技术学院,,17,6,6,3,4,52,,63,58,4,3,6,4,0.3,0.3
2025-11-12T2300,2338A,117.0196,25.0306,龙岩市,龙岩学院,,15,,6,3,3,46,,61,54,6,6,6,6,0.4,0.3
2025-11-12T2300,2665A,105.0822,33.3261,陇南市,汉王镇固水子,,,,,,,,,,,,,,,,
2025-11-12T2300,2885A,104.9339,33.3826,陇南市,滨江中学,颗粒物(PM10),74,98,71,42,32,12,,46,34,41,26,8,8,1.3,0.9
2025-11-12T2300,3247A,104.955,33.371,陇南市,市总工会,颗粒物(PM10),59,68,57,32,29,36,,51,49,19,18,7,8,0.6,0.7
2025-11-12T2300,2487A,111.9589,27.8901,娄底市,电视发射台,,,,,,,,,,,,,,,,
2025-11-12T2300,2488A,111.9975,27.725,娄底市,市监测站,,40,40,54,24,28,75,,96,89,21,17,17,14,0.5,0.9
2025-11-12T2300,2489A,112.0194,27.7314,娄底市,市委党校,,46,46,54,24,28,81,,84,82,10,14,5,6,0.3,0.7
2025-11-12T2300,2490A,111.9561,27.7569,娄底市,涟钢,,49,49,53,26,24,74,,87,82,8,12,8,8,0.5,0.5
2025-11-12T2300,2491A,111.9892,27.7044,娄底市,市政府,,47,47,46,25,25,83,,91,87,15,14,11,10,0.8,0.9
2025-11-12T2300,1893A,105.4324,28.9634,泸州市,九狮山,,,,,,,,,,,,,,,,
2025-11-12T2300,1894A,105.4427,28.9063,泸州市,小市上码头,,19,19,20,10,13,18,,16,16,12,16,7,8,0.7,0.7
2025-11-12T2300,1895A,105.4241,28.8573,泸州市,兰田宪桥,,28,28,22,10,13,19,,20,20,11,13,5,6,0.4,0.5
2025-11-12T2300,1896A,105.4379,28.8833,泸州市,市环监站,,18,17,19,12,12,22,,20,20,16,18,6,6,0.5,0.6
2025-11-12T2300,4272A,105.3689,28.7783,泸州市,纳溪中医医院,,25,20,21,17,14,25,,26,25,14,18,5,5,0.6,0.6
2025-11-12T2300,2183A,111.1406,37.5211,吕梁市,环保局,颗粒物(PM10),79,108,91,25,25,1,,62,30,54,34,4,5,0.3,0.5
2025-11-12T2300,2185A,111.1297,37.5136,吕梁市,自来水公司,颗粒物(PM10),89,128,95,29,26,2,,66,39,53,33,2,5,0.4,0.5
2025-11-12T2300,2867A,111.1283,37.51,吕梁市,马茂庄小学,颗粒物(PM10),89,127,102,31,27,1,,62,31,57,37,3,8,0.4,0.5
2025-11-12T2300,1812A,112.3931,34.6516,洛阳市,市委党校,细颗粒物(PM2.5),69,71,105,50,68,56,,93,81,29,40,9,9,0.6,0.9
2025-11-12T2300,1815A,112.494,34.6886,洛阳市,河南林校,颗粒物(PM10),76,101,111,55,64,50,,90,72,39,46,8,8,0.6,0.8
2025-11-12T2300,1816A,112.3844,34.623,洛阳市,开发区管委会,"颗粒物(PM10),细颗粒物(PM2.5)",67,83,106,48,63,56,,95,80,32,30,8,7,0.6,0.7
2025-11-12T2300,1817A,112.4267,34.6258,洛阳市,市委新办公区,颗粒物(PM10),68,85,113,46,53,60,,96,84,32,37,10,9,0.5,0.6
2025-11-12T2300,3340A,112.6005,34.6326,洛阳市,伊滨,颗粒物(PM10),85,120,125,51,60,61,,91,82,27,35,9,9,0.5,0.6
2025-11-12T2300,3341A,112.4951,34.6332,洛阳市,中移产业园,颗粒物(PM10),69,87,109,45,62,56,,96,86,30,39,8,8,0.4,0.7
2025-11-12T2300,3593A,112.5736,34.8993,洛阳市,吉利监测站,,,,102,43,65,57,,94,77,31,34,10,9,0.8,0.8
2025-11-12T2300,3635A,112.3677,34.662,洛阳市,河科大西苑校区,颗粒物(PM10),61,71,109,40,63,59,,101,87,27,38,10,11,1.1,1.3
2025-11-12T2300,3636A,112.4388,34.6781,洛阳市,英才小学,细颗粒物(PM2.5),87,103,131,64,77,42,,85,74,44,51,9,10,0.8,1.2
2025-11-12T2300,4214A,112.4600,34.6949,洛阳市,春都路1号院,颗粒物(PM10),76,102,122,40,58,41,,75,65,31,40,9,10,0.8,1.1
2025-11-12T2300,2399A,114.051,33.5699,漯河市,三五一五工厂,,,105,87,,44,38,,76,53,41,41,7,8,0.5,0.5
2025-11-12T2300,2400A,114.0055,33.5698,漯河市,漯河大学,细颗粒物(PM2.5),73,79,81,53,47,39,,79,54,44,44,6,7,0.5,0.5
2025-11-12T2300,2401A,114.0138,33.5828,漯河市,市水利局,细颗粒物(PM2.5),64,73,75,46,47,41,,80,59,35,41,8,8,0.5,0.6
2025-11-12T2300,2402A,114.0261,33.5698,漯河市,市广电局,细颗粒物(PM2.5),69,83,77,50,45,42,,81,58,42,43,7,7,0.4,0.5
2025-11-12T2300,3478A,113.9749,33.5664,漯河市,市图书馆,细颗粒物(PM2.5),74,92,88,54,47,47,,69,57,30,40,4,6,0.4,0.5
2025-11-12T2300,4250A,114.0892,33.5882,漯河市,韶山路11号,颗粒物(PM10),73,96,88,51,50,42,,71,52,41,47,8,9,0.6,0.6
2025-11-12T2300,1798A,118.5092,31.6837,马鞍山市,湖东路四小,细颗粒物(PM2.5),55,53,35,39,17,57,,94,70,35,24,5,5,0.5,0.4
2025-11-12T2300,1799A,118.5024,31.6449,马鞍山市,开发区,颗粒物(PM10),52,54,34,34,15,55,,97,78,39,24,4,4,0.5,0.4
2025-11-12T2300,1802A,118.6245,31.7241,马鞍山市,濮塘,,,,,,,,,,,,,,,,
2025-11-12T2300,3633A,118.4918,31.6809,马鞍山市,雨山,颗粒物(PM10),52,54,35,31,16,53,,95,71,38,25,4,6,0.5,0.4
2025-11-12T2300,4191A,118.5274,31.72227,马鞍山市,慈湖高新区,颗粒物(PM10),62,73,43,36,21,48,,95,77,46,27,4,4,0.4,0.4
2025-11-12T2300,1686A,111.0286,21.4688,茂名市,电白南海,,41,41,37,24,16,69,,107,91,11,11,8,12,0.7,0.8
2025-11-12T2300,1687A,110.9294,21.6533,茂名市,茂石化七小,,34,34,26,19,10,67,,95,,11,9,11,12,0.7,0.8
2025-11-12T2300,1688A,110.9107,21.6687,茂名市,健康路,,27,27,24,12,11,69,,95,84,11,10,12,16,0.7,0.7
2025-11-12T2300,1689A,110.8592,21.6828,茂名市,高岭,,39,39,35,17,10,65,,87,77,13,12,13,13,0.6,0.7
2025-11-12T2300,3450A,111.01,21.5165,茂名市,电白水东,,,,29,17,14,65,,97,81,11,12,6,10,0.8,0.9
2025-11-12T2300,2539A,104.0308,30.0478,眉山市,黑龙滩水库,,,,,,,,,,,,,,,,
2025-11-12T2300,2540A,103.8416,30.0874,眉山市,气象局,,42,42,48,22,20,5,,38,19,32,28,7,8,0.6,0.5
2025-11-12T2300,3137A,103.8578,30.0744,眉山市,市委党校,,34,34,34,14,14,3,,32,22,39,28,6,6,0.8,0.7
2025-11-12T2300,3148A,103.8291,30.0564,眉山市,区人社局,,49,49,46,17,16,14,,29,22,30,27,3,13,1.0,0.9
2025-11-12T2300,1690A,116.1231,24.3284,梅州市,梅江月梅,,15,10,11,10,9,32,,55,36,16,11,5,5,0.6,0.6
2025-11-12T2300,1691A,116.0797,24.2719,梅州市,梅县新城,,13,6,12,3,8,41,,56,45,11,10,7,7,0.5,0.5
2025-11-12T2300,1692A,116.1248,24.2654,梅州市,环境监控中心,,16,15,11,11,10,23,,54,39,16,9,4,4,0.5,0.5
2025-11-12T2300,3315A,116.1233,24.2991,梅州市,梅龙,,11,7,11,6,7,34,,51,40,9,7,6,7,0.6,0.6
2025-11-12T2300,1878A,104.7778,31.4741,绵阳市,富乐山,颗粒物(PM10),59,67,49,35,27,1,,23,12,37,23,9,9,1.0,0.7
2025-11-12T2300,1880A,104.6697,31.4668,绵阳市,高新区自来水公司,细颗粒物(PM2.5),85,117,86,63,38,0,,7,3,43,37,11,9,0.9,0.8
2025-11-12T2300,1881A,104.7287,31.5075,绵阳市,三水厂,颗粒物(PM10),62,74,62,41,32,1,,16,9,33,30,9,8,1.0,0.8
2025-11-12T2300,3491A,104.69,31.5322,绵阳市,西科大附属小学,颗粒物(PM10),77,104,74,51,31,2,,20,9,39,33,6,8,0.9,0.7
2025-11-12T2300,3492A,104.5648,31.5343,绵阳市,安州区旅游局,细颗粒物(PM2.5),89,96,59,66,37,2,,27,14,29,21,13,11,1.0,0.7
2025-11-12T2300,4226A,104.7651,31.4531,绵阳市,绵阳市气象局,颗粒物(PM10),79,108,66,57,32,0,,16,9,42,30,9,8,1.1,0.8
2025-11-12T2300,1784A,129.61,44.561,牡丹江市,环保大楼,细颗粒物(PM2.5),67,53,69,48,52,68,,69,65,14,29,7,9,0.6,0.6
2025-11-12T2300,1785A,129.6115,44.5782,牡丹江市,文化广场,"颗粒物(PM10),细颗粒物(PM2.5)",60,70,65,43,50,61,,70,64,18,28,9,10,0.6,0.7
2025-11-12T2300,1786A,129.5904,44.5963,牡丹江市,第一医院,细颗粒物(PM2.5),88,71,69,65,55,66,,77,73,14,25,4,5,0.4,0.5
2025-11-12T2300,1787A,129.6364,44.6075,牡丹江市,机车工厂,细颗粒物(PM2.5),75,68,72,55,46,57,,65,59,26,31,6,15,0.6,0.6
2025-11-12T2300,1788A,129.6386,44.5462,牡丹江市,第一中学,,,81,67,46,48,,,61,,18,25,6,6,0.6,0.6
2025-11-12T2300,2531A,105.0703,29.61,内江市,市监测站,,18,17,24,12,14,35,,35,32,11,13,2,3,0.8,0.8
2025-11-12T2300,2532A,105.0717,29.5947,内江市,东兴区政府,,16,16,18,8,9,27,,24,19,15,18,6,6,0.3,0.4
2025-11-12T2300,2533A,105.0653,29.5817,内江市,内江二中,,24,24,24,15,17,22,,24,18,19,19,4,4,0.7,0.7
2025-11-12T2300,2534A,105.0406,29.5822,内江市,内江日报社,,23,21,23,16,15,18,,28,19,22,17,4,4,0.5,0.5
2025-11-12T2300,2628A,92.0657,31.4846,那曲市,那曲监测站,细颗粒物(PM2.5),82,88,56,60,41,4,,98,64,82,43,27,16,3.7,1.9
2025-11-12T2300,4243A,92.0515,31.4787,那曲市,那曲市委宣传部,,38,38,30,26,18,25,,95,68,50,27,12,10,1.6,1
2025-11-12T2300,1290A,115.8931,28.6843,南昌市,省外办,,40,40,38,27,23,84,,90,88,13,16,5,5,0.8,0.8
2025-11-12T2300,1291A,115.8886,28.7003,南昌市,省林业公司,,36,36,33,24,20,86,,93,91,12,14,5,5,0.7,0.7
2025-11-12T2300,1292A,115.8126,28.7442,南昌市,林科所,,36,36,33,19,16,83,,92,89,14,15,4,4,0.6,0.6
2025-11-12T2300,1294A,115.8518,28.687,南昌市,建工学校,,,,44,,21,,,67,,,19,,10,,0.6
2025-11-12T2300,1295A,115.8921,28.6424,南昌市,象湖,,44,44,37,22,21,86,,96,93,16,17,9,9,0.7,0.6
2025-11-12T2300,1296A,115.7423,28.7996,南昌市,武术学校,,,,,,,,,,,,,,,,
2025-11-12T2300,3046A,115.9084,28.6062,南昌市,机电学校,颗粒物(PM10),51,52,46,22,21,92,,104,102,16,16,8,7,0.5,0.5
2025-11-12T2300,3690A,115.9721,28.7031,南昌市,外国语学校,,44,44,41,29,25,85,,98,95,20,20,10,9,0.6,0.5
2025-11-12T2300,4192A,115.9316,28.68677,南昌市,南京东路235号,颗粒物(PM10),51,52,47,23,22,90,,102,100,16,18,7,7,0.6,0.5
2025-11-12T2300,1905A,106.056,30.8064,南充市,西山风景区,,,,,,,,,,,,,,,,
2025-11-12T2300,1906A,106.0789,30.8023,南充市,南充市委,,50,50,44,28,24,0,,16,9,24,21,4,4,0.6,0.5
2025-11-12T2300,1907A,106.1031,30.8217,南充市,南充炼油厂,颗粒物(PM10),55,60,53,36,30,0,,13,9,20,19,6,7,0.5,0.5
2025-11-12T2300,4227A,106.1083,30.7884,南充市,梨树横街98号,,46,46,42,29,23,9,,18,14,22,20,5,6,0.4,0.4
2025-11-12T2300,4304A,106.1172,30.843,南充市,清泉寺北路188号,,50,50,43,22,21,0,,14,7,26,19,8,7,0.5,0.5
2025-11-12T2300,4305A,106.067,30.7616,南充市,同庆路1号,颗粒物(PM10),51,51,43,29,24,0,,16,10,29,23,7,8,0.6,0.5
2025-11-12T2300,1151A,118.8086,32.1065,南京市,迈皋桥,,46,46,33,31,17,13,,95,62,40,30,3,3,0.2,0.7
2025-11-12T2300,1152A,118.7538,32.0551,南京市,草场门,颗粒物(PM10),57,63,42,34,17,29,,86,69,59,40,3,4,0.5,0.4
2025-11-12T2300,1153A,118.7794,32.0745,南京市,山西路,颗粒物(PM10),63,75,49,29,15,26,,98,74,61,40,5,4,0.4,0.3
2025-11-12T2300,1154A,118.7752,32.0023,南京市,中华门,颗粒物(PM10),59,68,41,29,17,27,,97,64,50,30,4,4,0.5,0.3
2025-11-12T2300,1155A,118.8109,32.0309,南京市,瑞金路,颗粒物(PM10),53,56,35,29,18,62,,88,77,50,22,4,4,0.6,0.7
2025-11-12T2300,1156A,118.7997,32.0754,南京市,玄武湖,,50,50,37,29,16,8,,87,58,23,20,5,4,0.6,0.4
2025-11-12T2300,1157A,118.6414,32.0931,南京市,浦口,颗粒物(PM10),57,63,44,37,22,59,,96,82,35,27,8,9,0.5,0.4
2025-11-12T2300,1158A,118.7356,31.9996,南京市,奥体中心,颗粒物(PM10),57,64,43,34,18,47,,98,79,52,33,6,7,0.7,0.5
2025-11-12T2300,1159A,118.9125,32.1028,南京市,仙林大学城,颗粒物(PM10),56,61,46,29,17,5,,83,56,72,35,5,6,0.5,0.5
2025-11-12T2300,3422A,118.8436,31.9198,南京市,江宁彩虹桥,颗粒物(PM10),51,51,36,29,15,26,,103,74,70,29,4,4,0.6,0.5
2025-11-12T2300,3427A,118.8554,32.3578,南京市,六合雄州,颗粒物(PM10),61,72,50,36,19,54,,100,79,35,27,5,6,0.4,0.4
2025-11-12T2300,4249A,118.8708,31.3402,南京市,汶溪路181号,,38,35,34,26,19,50,,88,61,35,30,3,7,0.4,0.4
2025-11-12T2300,4312A,119.019,31.6512,南京市,中山西路1号,颗粒物(PM10),51,51,38,23,19,36,,86,67,32,23,4,4,0.5,0.6
2025-11-12T2300,1401A,108.3103,22.7881,南宁市,二十一中,,24,24,19,13,7,54,,80,66,10,10,4,5,0.6,0.7
2025-11-12T2300,1402A,108.3141,22.8528,南宁市,北湖,,29,29,20,15,11,30,,81,62,32,12,6,9,0.5,0.5
2025-11-12T2300,1403A,108.3206,22.8225,南宁市,市监测站,,22,21,22,15,11,45,,73,58,18,15,7,9,0.4,0.6
2025-11-12T2300,1404A,108.3829,22.8037,南宁市,大自然花园,,33,33,22,14,9,56,,83,68,11,9,11,7,0.4,0.5
2025-11-12T2300,1405A,108.4394,22.7904,南宁市,仙葫,,,,,,,,,,,,,,,,
2025-11-12T2300,1406A,108.2397,22.8467,南宁市,区农职院,,29,29,16,16,7,26,,75,,24,9,5,5,0.5,0.6
2025-11-12T2300,1407A,108.3275,22.735,南宁市,英华嘉园,,26,20,23,18,11,54,,82,68,11,10,10,4,0.4,0.5
2025-11-12T2300,3401A,108.4834,22.7618,南宁市,红星社区,,30,30,17,20,10,61,,80,71,13,9,7,5,0.3,0.4
2025-11-12T2300,4221A,108.2177,22.7774,南宁市,乐贤路16号,颗粒物(PM10),57,64,24,22,11,2,,76,55,48,12,6,6,0.7,0.5
2025-11-12T2300,2331A,118.0966,26.6761,南平市,茫荡山,,,,9,,,,,76,,,,,1,,0.3
2025-11-12T2300,2332A,118.1681,26.6369,南平市,南平市监测站,,12,6,4,3,3,38,,48,44,10,7,3,3,0.5,0.5
2025-11-12T2300,2333A,118.1825,26.6489,南平市,南平铝业有限公司,,14,6,5,3,2,43,,52,49,8,7,2,2,0.3,0.3
2025-11-12T2300,2334A,118.1756,26.6272,南平市,南平七中,,12,12,7,7,4,33,,49,43,8,7,4,5,0.4,0.4
2025-11-12T2300,1168A,120.9098,31.9663,南通市,狼山街道,,42,42,38,15,11,48,,83,70,29,20,3,3,0.6,0.5
2025-11-12T2300,1169A,120.86,32.0005,南通市,虹桥,,27,27,31,15,13,61,,84,74,25,20,5,4,0.5,0.6
2025-11-12T2300,1170A,120.87,32.02,南通市,城中,,49,49,46,17,15,45,,75,61,39,28,6,5,0.4,0.3
2025-11-12T2300,1171A,120.94,31.93,南通市,星湖花园,,49,49,39,21,13,46,,83,69,31,22,4,4,0.4,0.3
2025-11-12T2300,1172A,120.81,32.0417,南通市,紫琅学院,颗粒物(PM10),56,61,48,29,16,27,,76,56,48,33,6,5,0.7,0.6
2025-11-12T2300,3291A,121.067,32.062,南通市,通州监测站,,27,27,22,14,10,61,,91,80,22,15,2,2,0.4,0.4
2025-11-12T2300,3432A,120.9348,31.9883,南通市,环境教育馆,,36,36,36,19,14,35,,85,60,38,25,4,4,0.5,0.4
2025-11-12T2300,2404A,112.5224,33.0122,南阳市,瓦房庄,颗粒物(PM10),83,116,86,60,46,24,,80,56,42,24,12,8,1.0,0.7
2025-11-12T2300,2405A,112.5003,32.9735,南阳市,汉画馆,细颗粒物(PM2.5),73,94,80,53,44,22,,74,41,39,30,7,7,0.9,0.6
2025-11-12T2300,2406A,112.5573,33.027,南阳市,气象站,颗粒物(PM10),87,124,104,44,39,9,,79,52,63,30,8,7,0.8,0.5
2025-11-12T2300,2407A,112.5481,32.9689,南阳市,理工学院,颗粒物(PM10),77,104,84,50,34,27,,82,51,41,25,8,7,0.8,0.5
2025-11-12T2300,4008A,112.5234,32.9922,南阳市,卧龙区政府,颗粒物(PM10),79,108,86,45,46,15,,73,42,48,29,8,7,0.9,0.6
2025-11-12T2300,1234A,121.8358,29.911,宁波市,区环保大楼,,26,26,25,13,8,35,,56,29,39,43,6,5,0.6,0.5
2025-11-12T2300,1235A,121.56,29.82,宁波市,万里学院,,19,19,24,13,11,49,,69,53,22,24,6,7,0.7,0.6
2025-11-12T2300,1236A,121.713,29.9572,宁波市,龙赛医院,,28,28,29,9,5,56,,75,58,20,19,4,4,0.5,0.5
2025-11-12T2300,1239A,121.633,29.7733,宁波市,钱湖水厂,,18,13,24,6,9,55,,63,50,17,25,6,6,0.3,0.4
2025-11-12T2300,1240A,121.5856,29.8635,宁波市,太古小学,,18,14,25,9,10,57,,70,60,17,21,3,4,0.6,0.6
2025-11-12T2300,1241A,121.524,29.8674,宁波市,市环境监测中心,,16,16,24,3,5,38,,62,38,22,24,9,10,0.5,0.5
2025-11-12T2300,2871A,121.6147,29.9017,宁波市,万里国际学校,,19,16,18,13,10,57,,72,67,16,17,4,4,0.6,0.5
2025-11-12T2300,3710A,121.5594,29.8975,宁波市,白沙活动中心,,17,14,17,3,5,52,,64,54,16,18,5,5,0.3,0.3
2025-11-12T2300,2339A,119.5001,26.6946,宁德市,金涵水库,,,,8,,5,,,35,,,8,,2,,0.4
2025-11-12T2300,2341A,119.5388,26.6612,宁德市,宁德市监测站,,13,9,8,3,5,25,,58,25,26,16,6,5,0.3,0.3
2025-11-12T2300,3209A,119.5231,26.6562,宁德市,宁德一中,,15,6,8,6,6,45,,64,41,9,7,6,6,0.3,0.3
2025-11-12T2300,2618A,98.8601,25.8567,怒江傈僳族自治州,州监测站,,42,42,26,24,17,28,,67,49,14,10,8,7,0.4,0.3
2025-11-12T2300,2619A,98.8546,25.8417,怒江傈僳族自治州,泸水一中,,22,20,21,15,15,17,,46,28,19,17,7,6,0.7,0.6
2025-11-12T2300,1888A,101.6891,26.571,攀枝花市,弄弄坪,,20,20,36,13,18,32,,77,58,21,26,4,4,0.6,1.1
2025-11-12T2300,1889A,101.5769,26.5928,攀枝花市,河门口,,25,25,30,15,19,31,,82,62,13,17,11,16,0.7,1
2025-11-12T2300,1890A,101.7169,26.585,攀枝花市,炳草岗,颗粒物(PM10),59,67,43,33,20,6,,85,62,58,33,11,14,0.9,1.1
2025-11-12T2300,1891A,101.7369,26.5008,攀枝花市,仁和,,26,26,30,15,16,21,,72,47,18,17,6,13,0.6,0.9
2025-11-12T2300,2835A,101.7227,26.567,攀枝花市,四十中小,,49,49,41,27,21,13,,76,48,55,33,15,28,1.2,1.3
2025-11-12T2300,1604A,122.0303,41.1489,盘锦市,开发区,,20,6,74,3,81,63,,108,74,14,34,5,7,0.0,0.7
2025-11-12T2300,1605A,122.0485,41.0883,盘锦市,兴隆台,,40,40,76,6,81,60,,103,68,13,38,8,9,0.2,0.8
2025-11-12T2300,1606A,121.8297,41.1028,盘锦市,新生街道,,42,42,66,3,69,45,,111,64,36,38,7,11,0.1,0.6
2025-11-12T2300,1832A,113.3257,33.742,平顶山市,新华旅馆,"颗粒物(PM10),细颗粒物(PM2.5)",82,113,103,60,59,53,,73,45,34,42,10,9,0.8,0.7
2025-11-12T2300,1833A,113.2919,33.737,平顶山市,规划设计院,,,126,118,66,60,20,,73,37,,47,6,7,0.6,0.7
2025-11-12T2300,1834A,113.182,33.774,平顶山市,平顶山工学院,细颗粒物(PM2.5),89,118,103,66,59,56,,70,66,37,39,10,8,0.5,0.4
2025-11-12T2300,3204A,113.3025,33.73,平顶山市,规划局,颗粒物(PM10),85,119,105,61,48,28,,75,41,55,38,9,9,0.8,0.9
2025-11-12T2300,3594A,112.8867,33.9116,平顶山市,石龙区,颗粒物(PM10),73,96,117,32,43,74,,91,74,28,55,7,9,0.5,0.5
2025-11-12T2300,2656A,106.6692,35.5461,平凉市,聚贤嘉苑,颗粒物(PM10),55,59,61,21,25,17,,85,58,47,25,9,7,0.4,0.4
2025-11-12T2300,2657A,106.7021,35.5307,平凉市,博物馆,颗粒物(PM10),52,54,59,29,27,26,,85,65,37,22,11,11,0.8,0.7
2025-11-12T2300,2347A,114.0997,27.5002,萍乡市,武功山,,,,,,,,,,,,,,,,
2025-11-12T2300,2348A,113.8385,27.6434,萍乡市,中医院,颗粒物(PM10),59,67,73,37,39,45,,68,58,32,25,13,9,1.1,1.1
2025-11-12T2300,2349A,113.8493,27.6253,萍乡市,市政府车库,颗粒物(PM10),52,53,65,31,37,50,,66,53,24,24,10,11,0.6,0.8
2025-11-12T2300,2350A,113.8676,27.6435,萍乡市,市环保局,,46,46,60,31,37,50,,67,57,23,21,11,11,0.7,0.8
2025-11-12T2300,2351A,113.866,27.6198,萍乡市,安源区政府,细颗粒物(PM2.5),53,46,55,37,43,53,,67,58,21,21,13,15,0.6,0.9
2025-11-12T2300,2319A,119.0141,25.4325,莆田市,荔城区仓后路,,23,6,6,3,0,71,,72,68,3,4,4,4,0.3,0.3
2025-11-12T2300,2320A,119.0015,25.4553,莆田市,莆田市监测站,,24,6,4,3,0,74,,73,72,4,4,3,3,0.4,0.4
2025-11-12T2300,2321A,119.1119,25.4561,莆田市,涵江区六中,,22,6,7,3,0,69,,73,69,4,4,2,2,0.4,0.4
2025-11-12T2300,2322A,119.1013,25.3215,莆田市,秀屿区政府,,22,6,6,3,0,68,,73,70,6,6,3,3,0.4,0.3
2025-11-12T2300,2323A,118.981,25.4792,莆田市,东圳水库,,,,2,,2,,,82,,,3,,3,,0.6
2025-11-12T2300,2392A,115.0312,35.7636,濮阳市,环保局,细颗粒物(PM2.5),85,86,78,63,58,54,,100,78,50,47,9,10,0.6,0.6
2025-11-12T2300,2394A,115.0574,35.7609,濮阳市,油田运输公司,细颗粒物(PM2.5),90,105,105,67,63,48,,106,77,45,43,10,11,0.8,0.9
2025-11-12T2300,3021A,115,35.7668,濮阳市,濮水河管理处,细颗粒物(PM2.5),102,108,107,76,70,30,,96,57,38,36,6,8,0.4,0.4
2025-11-12T2300,4216A,115.0924,35.7686,濮阳市,任丘路479号,细颗粒物(PM2.5),110,125,113,83,70,29,,97,60,58,53,9,11,0.8,0.7
2025-11-12T2300,2601A,100.98,22.7633,普洱市,市环保局,,28,28,28,11,11,17,,55,37,7,6,5,5,0.4,0.5
2025-11-12T2300,2602A,100.9817,22.8322,普洱市,普洱第二中学,,28,28,23,11,13,9,,56,38,17,9,5,5,0.4,0.3
2025-11-12T2300,2262A,131.0518,45.8751,七台河市,新一中,,,,,,,,,,,,,,,,
2025-11-12T2300,3345A,131.0577,45.7879,七台河市,中波台,细颗粒物(PM2.5),87,86,41,64,23,65,,68,68,25,16,12,10,0.8,0.6
2025-11-12T2300,3637A,131.0176,45.7761,七台河市,人民广场,细颗粒物(PM2.5),153,,44,117,34,60,,69,67,28,22,14,8,0.9,0.6
2025-11-12T2300,3684A,130.8781,45.8222,七台河市,新建矿广场,细颗粒物(PM2.5),152,171,52,116,26,62,,66,64,20,20,8,7,0.9,0.5
2025-11-12T2300,1779A,123.9305,47.3636,齐齐哈尔市,安居小区,,19,11,44,8,21,59,,54,54,4,12,5,8,0.4,0.5
2025-11-12T2300,1780A,123.9488,47.3386,齐齐哈尔市,中心广场,,20,13,43,3,20,62,,56,56,6,15,5,7,0.3,0.5
2025-11-12T2300,1781A,123.9483,47.3227,齐齐哈尔市,农牧车辆厂,,27,27,49,3,20,58,,52,52,3,13,8,9,0.3,0.4
2025-11-12T2300,1783A,123.945,47.2988,齐齐哈尔市,市环境监测站,,18,8,46,3,24,56,,52,52,4,12,5,7,0.3,0.4
2025-11-12T2300,3662A,123.6333,47.2075,齐齐哈尔市,富区青少年活动中心,,19,13,41,3,23,58,,51,51,8,17,6,6,0.3,0.5
2025-11-12T2300,2591A,107.9783,26.5747,黔东南苗族侗族自治州,市环境监测站,,27,27,31,16,18,37,,77,55,14,7,4,5,0.5,0.5
2025-11-12T2300,2881A,107.8908,26.5311,黔东南苗族侗族自治州,凯里学院,,19,19,29,13,13,32,,79,54,13,11,3,3,0.4,0.5
2025-11-12T2300,2593A,107.5228,26.2403,黔南布依族苗族自治州,小围寨,,27,27,20,17,8,40,,74,55,7,4,7,5,0.6,0.5
2025-11-12T2300,3538A,107.5175,26.2978,黔南布依族苗族自治州,沙坝,,32,27,22,22,12,20,,64,43,12,7,4,4,0.6,0.6
2025-11-12T2300,2589A,104.9022,25.0925,黔西南布依族苗族自治州,场坝街,,50,38,33,35,23,43,,55,47,8,11,2,5,0.5,0.5
2025-11-12T2300,2590A,104.8811,25.0992,黔西南布依族苗族自治州,坪东大道,,45,41,26,31,19,30,,50,34,9,9,2,2,0.6,0.6
2025-11-12T2300,2502A,108.6236,21.9667,钦州市,市环保站,颗粒物(PM10),53,56,26,24,11,63,,87,79,15,10,4,4,0.8,0.8
2025-11-12T2300,2503A,108.6549,21.9481,钦州市,沙埠小学,,40,40,27,12,10,77,,88,84,7,8,4,4,0.4,0.5
2025-11-12T2300,2504A,108.5989,21.7431,钦州市,港区一小,颗粒物(PM10),51,52,31,17,12,56,,85,79,26,17,5,5,0.6,0.7
2025-11-12T2300,3404A,108.5959,21.9633,钦州市,北职校,颗粒物(PM10),52,54,23,22,11,62,,88,75,11,7,9,6,1.7,0.7
2025-11-12T2300,1043A,119.7493,40.0116,秦皇岛市,第一关,,45,38,116,31,88,13,,90,34,75,61,5,12,0.3,1.1
2025-11-12T2300,1044A,119.5897,39.9499,秦皇岛市,监测站,颗粒物(PM10),58,65,135,22,81,25,,82,40,73,62,8,15,0.7,1.4
2025-11-12T2300,1046A,119.5251,39.9041,秦皇岛市,建设大厦,,42,41,121,29,74,48,,77,49,37,50,4,13,0.3,1.1
2025-11-12T2300,3132A,119.610547,39.943889,秦皇岛市,文明里,细颗粒物(PM2.5),62,57,122,44,72,23,,74,37,67,58,9,15,0.3,1.1
2025-11-12T2300,4198A,119.5090,39.8253,秦皇岛市,北戴河轮滑馆,颗粒物(PM10),64,78,116,25,77,47,,80,56,32,37,6,8,0.4,1.1
2025-11-12T2300,1307A,120.6659,36.2403,青岛市,仰口,,,,,,,,,,,,,,,,
2025-11-12T2300,1310A,120.4134,36.0658,青岛市,市南区东部子站,,,,69,,27,,,125,,,33,,12,,0.7
2025-11-12T2300,1311A,120.3664,36.1032,青岛市,四方区子站,颗粒物(PM10),69,88,88,41,36,74,,115,,34,43,9,8,1.0,0.7
2025-11-12T2300,1312A,120.2994,36.054,青岛市,市南区西部子站,,,,73,,32,,,41,,,59,,12,,0.9
2025-11-12T2300,1313A,120.4581,36.0858,青岛市,崂山区子站,,,,63,,23,,,114,,,31,,12,,0.7
2025-11-12T2300,1315A,120.3999,36.3083,青岛市,城阳区子站,颗粒物(PM10),65,80,77,27,30,57,,106,86,51,41,9,7,1.0,0.8
2025-11-12T2300,3362A,120.5014,36.4034,青岛市,即墨2号,颗粒物(PM10),62,73,84,41,39,71,,94,83,45,46,10,8,1.0,0.8
2025-11-12T2300,3642A,120.3503,36.0736,青岛市,市北区南部,颗粒物(PM10),57,63,71,29,27,80,,113,103,28,41,10,8,0.8,0.7
2025-11-12T2300,3643A,120.3948,36.1805,青岛市,李沧区北部,颗粒物(PM10),67,83,76,41,36,56,,109,,57,44,9,10,0.9,0.8
2025-11-12T2300,4290A,120.1969,35.9546,青岛市,珠江路669号,,46,46,65,24,34,100,,124,113,14,37,15,16,0.6,0.8
2025-11-12T2300,4291A,120.0424,35.8656,青岛市,黄岛区人民政府广场,颗粒物(PM10),71,92,76,41,36,41,,112,66,54,48,8,10,1.2,1.4
2025-11-12T2300,1702A,113.0426,23.691,清远市,环保大楼,,,,,,,,,,,,,,,,
2025-11-12T2300,1703A,113.0208,23.7106,清远市,凤城街办,,22,18,14,10,11,68,,77,75,13,14,6,6,0.6,0.6
2025-11-12T2300,3025A,113.0477,23.6344,清远市,技师学院,,25,25,16,15,8,68,,73,71,12,13,4,4,0.5,0.6
2025-11-12T2300,3318A,112.9903,23.7403,清远市,清新太和,,25,25,16,14,10,80,,84,84,9,10,10,10,0.3,0.3
2025-11-12T2300,3455A,113.076,23.7198,清远市,清城东城,,21,17,14,12,10,66,,74,71,11,12,6,5,0.6,0.6
2025-11-12T2300,2661A,107.6325,35.7357,庆阳市,庆阳五中,颗粒物(PM10),57,63,57,23,25,55,,72,68,21,16,6,5,0.4,0.4
2025-11-12T2300,2662A,107.6364,35.7067,庆阳市,市环保局,颗粒物(PM10),55,60,58,19,21,72,,80,77,14,15,6,4,0.8,0.8
2025-11-12T2300,1916A,103.7897,25.5035,曲靖市,环境监测站,,28,28,21,14,12,43,,61,50,7,11,3,4,0.6,0.4
2025-11-12T2300,1917A,103.8,25.5364,曲靖市,烟厂办公区,,24,24,17,15,9,39,,54,46,10,11,4,4,0.4,0.4
2025-11-12T2300,3376A,103.7947,25.462,曲靖市,南苑二区,,32,28,22,22,14,45,,59,53,7,10,4,4,0.5,0.6
2025-11-12T2300,3377A,103.7444,25.5261,曲靖市,曲靖师范学院,,28,28,24,18,16,35,,61,51,11,10,2,2,0.4,0.4
2025-11-12T2300,1264A,118.8692,28.9398,衢州市,环保大楼,,41,41,33,23,15,31,,48,34,26,23,6,4,0.5,0.4
2025-11-12T2300,1265A,118.8709,28.9666,衢州市,实验学校,,36,36,31,22,17,30,,43,33,23,23,8,8,0.5,0.4
2025-11-12T2300,1266A,118.8621,28.9808,衢州市,衢州学院,,40,40,32,22,18,29,,45,36,25,20,6,6,0.4,0.2
2025-11-12T2300,1611A,118.5819,24.9117,泉州市,涂山街,,16,9,9,3,3,49,,66,60,10,6,3,2,0.4,0.3
2025-11-12T2300,1612A,118.5972,24.8978,泉州市,津头埔,,15,14,8,6,4,45,,66,60,11,6,2,2,0.3,0.3
2025-11-12T2300,1613A,118.6663,24.9424,泉州市,万安,,21,6,7,3,2,67,,67,63,6,7,2,2,0.2,0.2
2025-11-12T2300,1614A,118.6117,24.9604,泉州市,清源山,,,,2,,2,,,66,,,2,,3,,0.4
2025-11-12T2300,3529A,118.6333,24.9264,泉州市,城华南路,,22,6,4,3,2,69,,69,65,1,2,3,3,0.3,0.3
2025-11-12T2300,2626A,88.8876,29.2718,日喀则市,日喀则监测站,,34,10,14,3,5,107,,93,89,3,12,7,8,0.3,0.4
2025-11-12T2300,3726A,88.8781,29.2426,日喀则市,林业技术推广中心,,33,8,12,3,3,105,,98,98,2,5,6,6,0.2,0.3
2025-11-12T2300,1659A,119.471,35.4209,日照市,监测站,细颗粒物(PM2.5),68,80,69,49,36,0,,101,58,79,46,8,13,1.0,1.2
2025-11-12T2300,1660A,119.523,35.4216,日照市,市政府广场,颗粒物(PM10),70,90,77,48,33,43,,91,72,53,48,15,20,1.1,1.5
2025-11-12T2300,1661A,119.5587,35.4044,日照市,港务局,细颗粒物(PM2.5),82,102,82,60,48,24,,100,70,76,54,12,16,1.2,1.5
2025-11-12T2300,3507A,119.5328,35.4625,日照市,职业技术学院,颗粒物(PM10),71,92,69,39,27,13,,99,64,84,46,7,13,1.3,1.2
2025-11-12T2300,3604A,119.3266,35.1044,日照市,岚山环保分局,颗粒物(PM10),74,97,55,43,24,17,,114,93,77,26,11,15,1.0,0.9
2025-11-12T2300,1835A,111.1922,34.7752,三门峡市,市政府,细颗粒物(PM2.5),102,115,109,76,83,12,,61,38,59,54,7,11,0.8,0.9
2025-11-12T2300,1836A,111.1587,34.7942,三门峡市,开发区,细颗粒物(PM2.5),124,162,146,94,78,1,,76,56,80,45,9,11,0.8,0.7
2025-11-12T2300,1838A,111.143,34.7955,三门峡市,风景区,细颗粒物(PM2.5),95,125,107,71,64,6,,86,64,67,41,8,10,0.9,0.9
2025-11-12T2300,3039A,111.1911,34.7829,三门峡市,三门峡市第一小学,"颗粒物(PM10),细颗粒物(PM2.5)",80,110,123,59,78,20,,76,55,57,48,11,14,0.6,0.8
2025-11-12T2300,3598A,111.1,34.7167,三门峡市,富达温泉假日酒店,颗粒物(PM10),62,73,126,36,75,29,,74,59,34,39,11,14,0.6,0.8
2025-11-12T2300,2324A,117.6211,26.2625,三明市,三钢,颗粒物(PM10),96,142,13,3,5,48,,50,,9,8,1,1,0.5,0.6
2025-11-12T2300,2325A,117.635,26.2714,三明市,三明二中,,13,6,4,3,4,40,,49,41,10,6,5,4,0.5,0.5
2025-11-12T2300,2326A,117.6028,26.2378,三明市,三元区政府,,27,6,5,6,4,49,,54,48,9,8,4,2,2.7,0.9
2025-11-12T2300,2327A,117.7275,26.3108,三明市,洋溪,,,,5,,3,,,52,,,5,,10,,1.1
2025-11-12T2300,1876A,109.5078,18.2489,三亚市,河东子站,,22,21,26,12,11,68,,87,85,16,15,4,4,0.8,0.7
2025-11-12T2300,1877A,109.4964,18.2681,三亚市,河西子站,,20,18,31,12,13,63,,84,79,25,15,6,6,0.7,0.6
2025-11-12T2300,3540A,109.7348,18.3443,三亚市,君悦子站,,36,36,29,13,10,85,,95,95,8,8,5,4,0.7,0.7
2025-11-12T2300,2624A,91.7608,29.2313,山南市,山南监测站,,20,15,24,10,10,61,,89,73,21,16,5,5,0.3,0.3
2025-11-12T2300,2625A,91.7706,29.2436,山南市,山南人民医院,,24,11,24,3,10,76,,86,76,7,12,6,6,0.4,0.4
2025-11-12T2300,1674A,116.6794,23.3667,汕头市,金平子站,,15,15,24,10,9,31,,52,41,18,17,7,6,1.2,0.7
2025-11-12T2300,1675A,116.7244,23.3633,汕头市,龙湖子站,,12,11,18,8,10,34,,52,42,13,12,11,10,0.4,0.4
