timepoint,stationcode,longitude,latitude,area,positionname,primarypollutant,aqi,pm10,pm10_24h,pm2_5,pm2_5_24h,o3,o3_24h,o3_8h,o3_8h_24h,no2,no2_24h,so2,so2_24h,co,co_24h
2025-04-20T0000,2566A,102.1879,31.914,阿坝藏族羌族自治州,州农科所,,30,30,39,12,11,63,,104,82,14,10,13,13,0.5,0.5
2025-04-20T0000,2568A,102.2502,31.8896,阿坝藏族羌族自治州,马师校,,37,37,32,22,19,49,,113,84,23,12,5,5,0.4,0.4
2025-04-20T0000,3994A,102.2165,31.9024,阿坝藏族羌族自治州,马尔康中学西区,,30,28,26,17,14,93,,138,117,3,4,3,4,0.3,0.3
2025-04-20T0000,2695A,80.292,41.1694,阿克苏地区,电视台,颗粒物(PM10),500,1973,2706,402,504,36,,61,58,32,16,2,3,0.7,0.6
2025-04-20T0000,2696A,80.2613,41.1551,阿克苏地区,艺术中心,颗粒物(PM10),500,2179,3003,468,591,31,,53,48,36,23,3,4,0.2,0.3
2025-04-20T0000,2204A,105.6467,38.8363,阿拉善盟,西城区西花园,颗粒物(PM10),122,193,189,48,46,132,,124,124,8,10,7,9,0.7,0.8
2025-04-20T0000,2205A,105.6985,38.8411,阿拉善盟,蒙二幼,颗粒物(PM10),148,246,215,78,62,117,,109,109,7,9,8,8,0.6,0.5
2025-04-20T0000,2206A,105.724,38.8516,阿拉善盟,环保局新楼,颗粒物(PM10),143,235,197,81,62,127,,118,118,4,5,11,11,0.6,0.6
2025-04-20T0000,2708A,88.1264,47.8517,阿勒泰地区,市站,,27,11,10,3,6,84,,87,85,2,3,2,3,0.2,0.2
2025-04-20T0000,2630A,80.1161,32.5,阿里地区,阿里监测站,,35,12,22,7,8,111,,129,126,2,3,6,6,0.4,0.5
2025-04-20T0000,3192A,80.0903,32.5028,阿里地区,阿里藏医院,,39,24,38,6,9,122,,122,122,1,1,6,6,0.2,0.3
2025-04-20T0000,2642A,109.0318,32.6537,安康市,香溪洞,细颗粒物(PM2.5),64,68,91,46,39,118,,135,125,8,8,7,8,0.7,0.6
2025-04-20T0000,2644A,109.0072,32.6975,安康市,汉滨区检察院,颗粒物(PM10),71,92,109,37,39,124,,144,130,8,12,22,11,0.7,0.5
2025-04-20T0000,4054A,109.0325,32.6913,安康市,市邮政管理局,颗粒物(PM10),66,82,109,37,40,118,,141,125,7,10,6,9,0.6,0.4
2025-04-20T0000,2291A,117.0809,30.5177,安庆市,环科院,颗粒物(PM10),59,68,89,31,44,88,,144,133,38,40,8,9,0.7,0.8
2025-04-20T0000,2292A,117.0331,30.5119,安庆市,马山宾馆,细颗粒物(PM2.5),103,,90,77,81,104,,143,133,26,38,4,5,0.7,0.7
2025-04-20T0000,2294A,116.9896,30.6145,安庆市,安庆大学,颗粒物(PM10),60,70,84,30,44,127,,145,143,12,24,4,4,0.5,0.6
2025-04-20T0000,3173A,117.0598,30.5351,安庆市,市人大,颗粒物(PM10),63,75,92,31,50,116,,145,134,16,37,7,8,0.4,0.5
2025-04-20T0000,3122A,105.9606,26.2611,安顺市,伍家关,,,,32,,19,,,161,135,,7,,3,,0.5
2025-04-20T0000,3123A,105.9408,26.2431,安顺市,凤凰山,,39,37,35,10,18,124,,156,133,5,8,5,7,0.7,0.5
2025-04-20T0000,3124A,105.9439,26.2564,安顺市,金钟山,,40,18,28,10,19,127,,157,135,6,7,4,6,0.5,0.5
2025-04-20T0000,3125A,105.8983,26.2481,安顺市,娄家坡,,41,17,27,9,17,129,,157,135,6,9,6,7,0.5,0.6
2025-04-20T0000,1818A,114.4839,36.0621,安阳市,棉研所,,,,,,,,,,,,,,,,
2025-04-20T0000,1819A,114.3551,36.1017,安阳市,红庙街,细颗粒物(PM2.5),72,60,47,52,44,67,,102,83,7,6,3,4,0.7,0.7
2025-04-20T0000,1820A,114.361,36.0681,安阳市,银杏小区,细颗粒物(PM2.5),84,67,47,62,46,67,,106,84,14,9,5,6,0.6,0.6
2025-04-20T0000,3141A,114.3922,36.0878,安阳市,信访局,细颗粒物(PM2.5),68,82,48,49,41,71,,110,88,10,11,3,3,0.2,0.2
2025-04-20T0000,3669A,114.4705,36.0637,安阳市,左辅环卫站,细颗粒物(PM2.5),68,81,48,49,39,42,,105,75,28,12,3,3,0.4,0.4
2025-04-20T0000,3703A,114.2917,36.0949,安阳市,安钢职工学校,细颗粒物(PM2.5),84,70,69,62,52,60,,104,84,18,12,3,4,0.7,0.9
2025-04-20T0000,1748A,123.044,41.1196,鞍山市,深沟寺,细颗粒物(PM2.5),84,95,52,62,35,26,,89,57,41,27,10,9,1.2,0.9
2025-04-20T0000,1749A,123.011,41.0931,鞍山市,太阳城,细颗粒物(PM2.5),89,106,59,66,39,21,,80,46,35,22,6,3,1.3,1
2025-04-20T0000,1750A,123.0485,41.1442,鞍山市,太平,细颗粒物(PM2.5),89,110,63,66,37,28,,79,54,38,28,12,10,1.1,1.1
2025-04-20T0000,1751A,122.9642,41.0971,鞍山市,铁西三道街,细颗粒物(PM2.5),98,106,63,73,44,21,,84,54,56,31,8,4,1.3,1.1
2025-04-20T0000,1753A,123.022,41.0821,鞍山市,明达新区,细颗粒物(PM2.5),84,92,51,62,38,35,,86,50,31,22,10,6,1.0,0.7
2025-04-20T0000,1754A,123.1289,41.0228,鞍山市,千山,,,,18,,8,,,77,,,9,,4,,0.5
2025-04-20T0000,4201A,122.9446,41.0826,鞍山市,兴盛南路290号,细颗粒物(PM2.5),99,110,70,74,49,15,,82,48,60,33,10,7,1.2,1.1
2025-04-20T0000,2195A,107.4212,40.761,巴彦淖尔市,附二中,颗粒物(PM10),56,62,88,30,26,75,,120,96,12,13,5,5,0.4,0.4
2025-04-20T0000,2196A,107.37,40.7372,巴彦淖尔市,市环保大楼,颗粒物(PM10),57,63,82,21,24,88,,120,103,15,13,8,4,0.3,0.3
2025-04-20T0000,1956A,86.1472,41.7538,巴音郭楞蒙古自治州,孔雀公园,颗粒物(PM10),452,552,421,100,71,73,,98,80,18,16,6,6,0.3,0.3
2025-04-20T0000,1957A,86.1972,41.7166,巴音郭楞蒙古自治州,棉纺厂,颗粒物(PM10),462,562,502,101,67,42,,95,76,40,20,2,3,0.3,0.3
2025-04-20T0000,1958A,86.2357,41.7173,巴音郭楞蒙古自治州,经济开发区,颗粒物(PM10),322,437,358,80,54,76,,98,88,11,10,6,6,0.2,0.2
2025-04-20T0000,2914A,106.7677,31.8794,巴中市,苏山坪,颗粒物(PM10),63,75,84,43,37,134,,146,145,8,7,5,7,0.6,0.4
2025-04-20T0000,3181A,106.7768,31.8526,巴中市,市五中,颗粒物(PM10),69,87,87,49,36,71,,146,128,20,16,6,8,0.9,0.8
2025-04-20T0000,3183A,106.7418,31.8654,巴中市,圣泉水务公司,颗粒物(PM10),66,81,83,47,37,32,,148,109,67,23,4,6,0.8,0.6
2025-04-20T0000,3616A,106.7616,31.8344,巴中市,市中心医院,颗粒物(PM10),67,84,85,33,34,62,,147,122,27,19,7,9,0.9,0.8
2025-04-20T0000,2235A,122.7911,45.6077,白城市,洮北区环保局,,24,24,24,11,13,65,,92,80,12,11,2,2,0.3,0.3
2025-04-20T0000,2236A,122.8738,45.5725,白城市,市环保局,,44,44,17,18,12,48,,93,69,21,12,6,5,0.4,0.3
2025-04-20T0000,2231A,126.4219,41.9171,白山市,喜丰,,24,24,29,11,14,27,,79,56,30,26,6,12,1.1,1.1
2025-04-20T0000,2232A,126.4077,41.9419,白山市,环保局,,40,40,33,10,12,43,,82,58,16,20,10,11,0.7,0.7
2025-04-20T0000,2647A,104.1724,36.5446,白银市,第三小学,颗粒物(PM10),101,152,253,58,93,84,,114,101,20,18,274,86,0.6,0.8
2025-04-20T0000,2648A,104.1465,36.5482,白银市,动力公司,颗粒物(PM10),98,145,229,62,76,79,,117,99,28,17,61,37,0.5,0.7
2025-04-20T0000,2512A,106.6103,23.9011,百色市,市监测站,,38,36,56,26,36,30,,132,75,24,18,4,10,0.5,0.6
2025-04-20T0000,2513A,106.6538,23.8859,百色市,市中心血站,,42,42,71,27,41,18,,137,74,36,17,5,13,0.8,0.8
2025-04-20T0000,3406A,106.6085,23.8798,百色市,祈福高中,细颗粒物(PM2.5),104,,71,78,44,5,,127,60,40,23,5,13,0.9,0.9
2025-04-20T0000,2270A,117.396,32.939,蚌埠市,工人疗养院,颗粒物(PM10),62,73,107,39,52,115,,153,144,17,12,5,5,0.7,0.7
2025-04-20T0000,2271A,117.3605,32.9427,蚌埠市,百货大楼,细颗粒物(PM2.5),62,64,97,44,54,120,,153,146,17,15,6,7,0.7,0.7
2025-04-20T0000,2273A,117.4185,32.8911,蚌埠市,蚌埠学院,细颗粒物(PM2.5),69,61,86,50,59,119,,152,140,15,17,5,6,0.7,0.8
2025-04-20T0000,2274A,117.3533,32.9673,蚌埠市,淮上区政府,细颗粒物(PM2.5),58,53,89,41,57,115,,155,142,19,15,5,6,0.6,0.6
2025-04-20T0000,2275A,117.3145,32.8977,蚌埠市,高新区,细颗粒物(PM2.5),64,58,87,46,55,119,,156,146,18,14,7,7,0.7,0.7
2025-04-20T0000,3715A,117.3092,32.9314,蚌埠市,蚌埠田家炳中学,"颗粒物(PM10),细颗粒物(PM2.5)",59,68,104,42,51,123,,160,153,18,12,8,7,0.6,0.6
2025-04-20T0000,1585A,109.8756,40.6532,包头市,市环境监测站,颗粒物(PM10),65,80,72,40,26,55,,113,82,48,38,12,16,0.4,0.7
2025-04-20T0000,1587A,109.9991,40.5842,包头市,包头八中,颗粒物(PM10),68,85,81,32,28,96,,115,103,29,33,47,22,1.1,0.6
2025-04-20T0000,1588A,109.8538,40.6821,包头市,青山宾馆,颗粒物(PM10),66,82,70,31,24,53,,110,61,45,38,13,19,0.6,1.1
2025-04-20T0000,1589A,109.8642,40.6288,包头市,惠龙物流,颗粒物(PM10),68,86,71,38,29,65,,116,96,41,36,15,19,0.5,0.8
2025-04-20T0000,1590A,110.0377,40.5546,包头市,东河鸿龙湾,颗粒物(PM10),72,93,73,35,31,73,,115,87,37,30,26,16,0.4,0.5
2025-04-20T0000,3283A,109.9154,40.5685,包头市,滨河大厦,颗粒物(PM10),66,81,65,33,29,77,,112,88,40,35,26,17,0.5,0.6
2025-04-20T0000,3419A,109.9447,40.6261,包头市,包头市委党校,颗粒物(PM10),69,88,66,27,19,54,,120,95,52,33,11,15,0.1,0.2
2025-04-20T0000,3683A,109.8331,40.6576,包头市,昆区政府,颗粒物(PM10),65,80,76,35,28,63,,115,90,50,39,11,18,0.6,1
2025-04-20T0000,1930A,107.185,34.3063,宝鸡市,庙沟村,颗粒物(PM10),93,136,179,60,80,146,,174,167,22,13,8,8,0.8,0.6
2025-04-20T0000,1931A,107.0708,34.3017,宝鸡市,竹园沟,颗粒物(PM10),92,134,185,64,81,96,,174,148,31,18,8,8,0.7,0.5
2025-04-20T0000,1932A,107.1906,34.3672,宝鸡市,三陆医院,颗粒物(PM10),95,139,203,70,89,95,,176,158,36,28,6,8,0.9,0.6
2025-04-20T0000,1933A,107.1431,34.3547,宝鸡市,监测站,颗粒物(PM10),103,156,219,68,89,84,,174,146,46,26,9,10,0.6,0.4
2025-04-20T0000,1934A,107.1186,34.3739,宝鸡市,技工学校,颗粒物(PM10),105,159,211,71,99,115,,172,157,19,15,10,10,0.9,0.7
2025-04-20T0000,1935A,107.3906,34.3528,宝鸡市,陈仓区环保局家属楼,细颗粒物(PM2.5),97,117,194,72,83,85,,173,150,41,25,10,38,0.9,0.7
2025-04-20T0000,1936A,107.2058,34.3497,宝鸡市,文理学院,颗粒物(PM10),105,159,209,70,95,114,,180,163,28,21,7,8,0.7,0.6
2025-04-20T0000,1937A,107.2386,34.3622,宝鸡市,三迪小学,细颗粒物(PM2.5),104,152,224,78,100,99,,174,157,39,29,6,8,0.8,0.6
2025-04-20T0000,1051A,115.493,38.8632,保定市,游泳馆,细颗粒物(PM2.5),84,110,67,62,41,31,,115,91,52,19,3,3,0.2,0.2
2025-04-20T0000,1052A,115.5213,38.8959,保定市,华电二区,细颗粒物(PM2.5),78,61,44,57,33,69,,120,102,24,12,2,3,0.6,0.5
2025-04-20T0000,1053A,115.4713,38.9108,保定市,接待中心,细颗粒物(PM2.5),87,88,54,64,39,66,,119,105,23,12,2,2,0.7,0.6
2025-04-20T0000,1054A,115.4612,38.8416,保定市,地表水厂,颗粒物(PM10),67,84,53,42,32,65,,118,99,31,18,4,4,0.4,0.4
2025-04-20T0000,3581A,115.31981,38.95208,保定市,满城区生态环境分局,细颗粒物(PM2.5),79,73,51,58,38,65,,116,99,20,13,11,10,0.4,0.4
2025-04-20T0000,3582A,115.47694,38.76408,保定市,清苑区第二中学,细颗粒物(PM2.5),75,94,55,55,39,62,,115,92,25,16,4,4,0.4,0.3
2025-04-20T0000,3583A,115.62909,39.02311,保定市,徐水物探局,细颗粒物(PM2.5),85,96,57,63,32,37,,118,96,62,20,3,3,0.4,0.4
2025-04-20T0000,4004A,115.4202,38.8656,保定市,双鹰农机,,49,49,50,33,29,59,,112,93,30,19,4,4,0.3,0.3
2025-04-20T0000,4034A,115.5150,38.8590,保定市,植保所站,细颗粒物(PM2.5),82,94,50,60,37,50,,108,86,39,16,3,3,0.4,0.3
2025-04-20T0000,2594A,99.1678,25.1081,保山市,市环境监测站,,24,14,27,3,18,75,,108,98,6,9,5,6,0.4,0.5
2025-04-20T0000,2595A,99.1711,25.1328,保山市,市环保局,,26,,28,13,16,82,,117,105,6,8,6,7,0.5,0.5
2025-04-20T0000,1866A,109.2262,21.588,北海市,牛尾岭水库,,,,32,,18,,,70,53,,10,,7,,0.6
2025-04-20T0000,1867A,109.1436,21.4086,北海市,海滩公园,,47,47,54,15,17,54,,93,73,17,13,5,5,0.7,0.8
2025-04-20T0000,1868A,109.0981,21.4661,北海市,新市环保局,,45,45,44,27,20,44,,80,69,19,11,3,3,0.7,0.6
2025-04-20T0000,1869A,109.1778,21.5233,北海市,北海工业园,,37,37,47,20,23,57,,75,69,7,8,7,8,0.7,0.8
2025-04-20T0000,3400A,109.1911,21.4415,北海市,龙潭自来水厂,,43,43,39,22,23,75,,87,81,8,9,6,6,0.4,0.4
2025-04-20T0000,1001A,116.3621,39.8784,北京市,万寿西宫,"颗粒物(PM10),细颗粒物(PM2.5)",55,59,36,39,34,80,,123,109,34,19,7,7,0.7,0.6
2025-04-20T0000,1002A,116.2202,40.2915,北京市,定陵,,,,,,,,,,,,,,,,
2025-04-20T0000,1003A,116.4174,39.9289,北京市,东四,"颗粒物(PM10),细颗粒物(PM2.5)",63,75,45,45,34,89,,119,110,25,15,6,6,0.8,0.7
2025-04-20T0000,1004A,116.4072,39.8863,北京市,天坛,颗粒物(PM10),54,57,40,36,29,46,,106,83,24,17,2,2,0.8,0.8
2025-04-20T0000,1005A,116.462,39.9365,北京市,农展馆,颗粒物(PM10),59,68,40,38,29,96,,123,116,22,15,7,7,0.8,0.8
2025-04-20T0000,1006A,116.3392,39.9295,北京市,官园,颗粒物(PM10),60,69,41,37,30,88,,109,102,15,10,5,4,0.6,0.5
2025-04-20T0000,1007A,116.2878,39.9611,北京市,海淀万柳,颗粒物(PM10),61,72,39,42,28,96,,118,110,24,19,4,4,0.6,0.6
2025-04-20T0000,1008A,116.6636,40.135,北京市,顺义新城,细颗粒物(PM2.5),59,60,34,42,20,13,,111,81,80,20,6,6,0.5,0.4
2025-04-20T0000,1009A,116.6275,40.3275,北京市,怀柔镇,,44,44,26,28,19,43,,90,70,19,13,2,2,0.6,0.5
2025-04-20T0000,1010A,116.2296,40.217,北京市,昌平镇,颗粒物(PM10),54,57,33,31,21,61,,99,89,18,19,3,3,0.3,0.2
2025-04-20T0000,1011A,116.3966,39.9821,北京市,奥体中心,颗粒物(PM10),57,64,45,33,29,98,,113,110,24,19,3,3,0.7,0.7
2025-04-20T0000,3281A,115.9718,40.4529,北京市,延庆夏都,颗粒物(PM10),51,51,26,33,22,89,,114,109,18,16,2,2,0.4,0.4
2025-04-20T0000,3418A,116.8336,40.4095,北京市,密云新城,颗粒物(PM10),53,55,26,25,15,35,,90,75,31,13,5,4,0.6,0.5
2025-04-20T0000,3671A,116.088,39.9726,北京市,门头沟三家店,,34,34,41,23,26,24,,102,74,50,24,2,2,0.4,0.4
2025-04-20T0000,3672A,116.1541,39.8204,北京市,丰台云岗,,,,44,,36,,,32,,,14,,4,,0.5
2025-04-20T0000,3673A,116.6804,39.9081,北京市,通州东关,颗粒物(PM10),57,63,41,36,28,55,,107,99,53,18,5,5,0.6,0.6
2025-04-20T0000,3674A,115.9577,39.7603,北京市,房山燕山,,39,39,41,27,35,73,,116,94,16,15,5,4,0.5,0.6
2025-04-20T0000,3675A,116.4672,39.7733,北京市,大兴旧宫,颗粒物(PM10),89,127,62,35,29,50,,110,86,33,17,3,2,0.4,0.4
2025-04-20T0000,3694A,115.986,40.4563,北京市,延庆石河营,,48,48,26,30,19,84,,107,103,15,13,2,2,0.5,0.4
2025-04-20T0000,3695A,116.6151,40.3053,北京市,怀柔新城,,36,36,25,22,20,51,,84,69,11,10,3,3,0.7,0.6
2025-04-20T0000,3696A,116.2545,39.8768,北京市,丰台小屯,颗粒物(PM10),58,66,47,40,32,57,,102,86,37,17,1,1,0.4,0.4
2025-04-20T0000,3697A,116.84,40.3844,北京市,密云镇,颗粒物(PM10),56,61,25,31,16,27,,91,78,43,11,5,5,0.5,0.3
2025-04-20T0000,4182A,116.1942,39.9158,北京市,八角北路9号,颗粒物(PM10),72,93,57,38,29,56,,107,89,48,19,5,5,0.5,0.5
2025-04-20T0000,4194A,117.0790,40.1518,北京市,洳河巡河路,,46,41,25,32,18,48,,100,83,15,8,2,3,0.5,0.4
2025-04-20T0000,1761A,123.8275,41.3064,本溪市,大峪,,35,35,45,19,28,1,,71,40,45,31,6,6,0.8,1
2025-04-20T0000,1762A,123.7567,41.3325,本溪市,溪湖,细颗粒物(PM2.5),80,76,61,59,38,7,,75,44,36,28,5,6,1.9,1.3
2025-04-20T0000,1763A,123.7169,41.3094,本溪市,彩屯,细颗粒物(PM2.5),60,58,50,43,38,18,,85,37,31,31,8,9,1.8,1.3
2025-04-20T0000,1764A,123.7669,41.2864,本溪市,东明,,49,49,48,31,27,7,,72,39,38,30,5,6,1.2,1.2
2025-04-20T0000,1765A,123.7992,41.2664,本溪市,新立屯,,19,17,34,9,31,18,,69,24,37,36,7,7,0.6,1
2025-04-20T0000,1766A,123.8142,41.3472,本溪市,威宁,,40,40,50,19,25,3,,69,32,31,24,4,4,0.9,0.9
2025-04-20T0000,2587A,105.2864,27.3125,毕节市,八中,,33,17,20,14,14,103,,129,105,9,8,5,5,0.5,0.5
2025-04-20T0000,2588A,105.31,27.2944,毕节市,师专,,32,18,18,16,12,102,,134,112,10,10,7,7,0.3,0.4
2025-04-20T0000,4263A,105.3688,27.3598,毕节市,工业大道,,32,16,19,11,12,100,,121,104,11,11,6,6,0.7,0.7
2025-04-20T0000,1629A,118.0018,37.3617,滨州市,第二水厂,颗粒物(PM10),59,68,32,36,16,61,,114,86,35,16,9,8,0.7,0.5
2025-04-20T0000,1630A,117.9776,37.393,滨州市,北中新校,颗粒物(PM10),58,66,30,39,16,62,,119,97,30,15,3,3,0.6,0.5
2025-04-20T0000,3514A,117.9378,37.3956,滨州市,中海酒店,细颗粒物(PM2.5),58,46,25,41,21,78,,113,,28,12,8,7,0.7,0.6
2025-04-20T0000,3515A,117.9378,37.3553,滨州市,开发区一中,颗粒物(PM10),60,70,31,34,19,58,,114,94,39,17,4,4,0.3,0.2
2025-04-20T0000,3516A,118.0917,37.694,滨州市,金海六路,,42,41,22,29,12,62,,128,102,24,18,8,9,0.5,0.5
2025-04-20T0000,4028A,117.9956,37.3753,滨州市,滨州市西街道办事处,细颗粒物(PM2.5),67,61,25,48,22,69,,129,107,27,12,6,6,0.5,0.4
2025-04-20T0000,2311A,115.8072,33.8399,亳州市,污水处理厂,颗粒物(PM10),58,66,56,35,17,64,,113,93,27,12,6,4,0.5,0.3
2025-04-20T0000,2312A,115.7789,33.8518,亳州市,三国揽胜宫,,47,47,59,25,15,89,,118,108,17,12,4,4,0.4,0.3
2025-04-20T0000,3332A,115.7633,33.8034,亳州市,亳州学院,颗粒物(PM10),59,68,56,37,15,97,,124,115,12,11,3,2,0.5,0.3
2025-04-20T0000,2693A,82.0485,44.8556,博尔塔拉蒙古自治州,市党校,颗粒物(PM10),53,56,105,7,22,66,,79,75,23,14,2,2,0.2,0.2
2025-04-20T0000,2694A,82.0806,44.8969,博尔塔拉蒙古自治州,市环保局,颗粒物(PM10),60,69,125,15,18,74,,133,79,11,10,2,4,0.4,0.4
2025-04-20T0000,1071A,116.8842,38.2991,沧州市,沧县城建局,细颗粒物(PM2.5),69,77,44,50,28,71,,107,86,23,19,6,2,0.4,0.4
2025-04-20T0000,1072A,116.8584,38.3254,沧州市,电视转播站,细颗粒物(PM2.5),73,62,45,53,36,71,,107,90,21,19,8,3,0.3,0.3
2025-04-20T0000,1073A,116.8709,38.3228,沧州市,市环保局,颗粒物(PM10),60,69,43,39,32,55,,111,88,39,19,12,7,0.4,0.4
2025-04-20T0000,3324A,116.8136,38.3004,沧州市,河北水利电力学院,细颗粒物(PM2.5),55,56,35,39,26,48,,114,91,52,25,8,5,0.3,0.3
2025-04-20T0000,2622A,97.1806,31.1273,昌都市,昌都监测站,,33,17,33,15,22,104,,133,123,3,5,2,2,0.1,0.2
2025-04-20T0000,3719A,97.1714,31.1406,昌都市,昌都会议中心,,32,24,37,16,29,102,,131,123,6,4,2,2,0.3,0.2
2025-04-20T0000,2690A,88.1236,43.8886,昌吉回族自治州,天山天池,,22,16,41,3,5,69,,84,81,6,6,4,5,0.5,0.5
2025-04-20T0000,2692A,87.2717,44.0297,昌吉回族自治州,新区政务中心,颗粒物(PM10),61,72,71,10,11,73,,92,83,3,3,4,7,0.2,0.3
2025-04-20T0000,3613A,87.3095,44.0142,昌吉回族自治州,亚心广场,颗粒物(PM10),70,90,85,19,10,72,,89,80,6,6,7,7,0.2,0.2
2025-04-20T0000,1119A,125.3325,43.9166,长春市,食品厂,颗粒物(PM10),68,86,35,30,18,8,,100,56,63,23,8,8,0.6,0.3
2025-04-20T0000,1120A,125.2863,43.9027,长春市,客车厂,,50,50,29,24,18,7,,104,59,67,25,5,6,0.5,0.3
2025-04-20T0000,1121A,125.2841,43.8463,长春市,邮电学院,,40,37,26,28,17,30,,112,79,49,15,5,6,0.4,0.3
2025-04-20T0000,1122A,125.3716,43.8772,长春市,劳动公园,细颗粒物(PM2.5),74,,30,54,19,25,,109,72,40,15,6,6,0.8,0.5
2025-04-20T0000,1123A,125.3297,43.8805,长春市,园林处,,39,28,24,27,14,39,,103,74,36,14,7,7,0.5,0.3
2025-04-20T0000,1124A,125.4605,43.79,长春市,净月潭,,30,30,24,16,14,46,,104,75,14,12,5,6,0.2,0.3
2025-04-20T0000,1125A,125.7194,43.515,长春市,甩湾子,,,,,,,,,,,,,,,,
2025-04-20T0000,1126A,125.3863,43.8447,长春市,经开区环卫处,颗粒物(PM10),58,66,35,35,16,2,,102,54,78,21,6,6,0.5,0.3
2025-04-20T0000,1127A,125.245,43.7783,长春市,高新区管委会,,48,48,28,29,19,23,,107,66,49,22,6,7,0.5,0.4
2025-04-20T0000,1128A,125.1761,43.8325,长春市,岱山公园,,43,43,27,30,22,33,,116,69,55,25,5,5,0.5,0.4
2025-04-20T0000,1335A,113.0833,28.2325,长沙市,经开区环保局,细颗粒物(PM2.5),89,66,24,66,20,37,,96,76,28,13,6,6,0.5,0.4
2025-04-20T0000,1336A,112.8872,28.2189,长沙市,高开区环保局,细颗粒物(PM2.5),95,97,33,71,22,80,,96,85,12,8,6,4,1.0,0.8
2025-04-20T0000,1337A,113.0792,28.2053,长沙市,马坡岭,细颗粒物(PM2.5),72,68,23,52,17,45,,91,73,19,11,3,2,0.6,0.5
2025-04-20T0000,1338A,112.9394,28.19,长沙市,湖南师范大学,"颗粒物(PM10),细颗粒物(PM2.5)",75,99,31,55,20,56,,83,75,13,10,4,3,0.6,0.5
2025-04-20T0000,1339A,113.0178,28.1322,长沙市,雨花区环保局,细颗粒物(PM2.5),72,63,28,52,20,59,,93,87,18,12,3,2,0.5,0.4
2025-04-20T0000,1340A,112.9792,28.2597,长沙市,伍家岭,细颗粒物(PM2.5),94,92,32,70,22,52,,86,70,18,14,1,1,0.6,0.5
2025-04-20T0000,1341A,113.0014,28.1944,长沙市,火车新站,颗粒物(PM10),63,75,29,39,14,57,,91,80,20,15,6,6,0.8,0.7
2025-04-20T0000,1342A,112.9844,28.1178,长沙市,天心区环保局,细颗粒物(PM2.5),62,72,30,44,21,65,,91,84,15,11,2,2,0.8,0.7
2025-04-20T0000,1343A,112.8908,28.1308,长沙市,湖南中医药大学,细颗粒物(PM2.5),83,85,31,61,22,66,,85,74,22,13,1,3,0.8,0.6
2025-04-20T0000,1344A,112.9581,28.3611,长沙市,沙坪,颗粒物(PM10),69,87,44,34,16,45,,88,62,12,7,6,5,0.6,0.5
2025-04-20T0000,1727A,113.1147,36.1547,长治市,清华站,颗粒物(PM10),57,63,87,22,56,104,,138,125,12,18,5,6,0.4,0.8
2025-04-20T0000,1730A,113.0886,36.2125,长治市,审计局,,44,44,75,22,64,117,,143,134,13,20,8,9,0.3,0.6
2025-04-20T0000,1731A,113.0844,36.1856,长治市,长治八中,颗粒物(PM10),54,58,88,27,67,113,,142,132,13,19,9,9,0.5,0.8
2025-04-20T0000,2845A,113.1569,36.1911,长治市,德盛苑,颗粒物(PM10),51,52,80,22,56,103,,138,126,14,17,5,5,0.6,1.1
2025-04-20T0000,3568A,113.06,36.0464,长治市,向阳小学,颗粒物(PM10),57,64,90,30,54,115,,151,138,19,20,10,10,0.4,0.7
2025-04-20T0000,3569A,112.8792,36.3144,长治市,屯留一中,,,76,52,53,35,121,,140,133,20,23,10,8,,0.2
2025-04-20T0000,4189A,113.1131,36.19948,长治市,英华南巷50号,,46,46,81,22,62,104,,142,131,18,21,4,6,0.7,1
2025-04-20T0000,4190A,113.2367,36.3344,长治市,学府街1号,细颗粒物(PM2.5),75,80,105,55,74,33,,151,116,62,27,7,12,1.3,1.8
2025-04-20T0000,1854A,111.6975,28.9703,常德市,市二中,细颗粒物(PM2.5),78,64,39,57,35,31,,80,61,24,15,5,5,0.9,0.8
2025-04-20T0000,1857A,111.7158,29.1456,常德市,白鹤山,,,,,,,,,,,,,,,,
2025-04-20T0000,3138A,111.7153,29.0289,常德市,武陵区永安,细颗粒物(PM2.5),69,80,42,50,29,99,,93,93,11,10,1,2,0.7,0.6
2025-04-20T0000,3139A,111.6892,28.9881,常德市,鼎城区玉霞,细颗粒物(PM2.5),59,65,40,42,28,23,,80,62,26,14,3,3,1.0,0.9
2025-04-20T0000,3140A,111.6625,29.0531,常德市,武陵区长庚,细颗粒物(PM2.5),65,70,41,47,29,68,,92,82,20,14,6,7,0.9,0.7
2025-04-20T0000,1196A,119.9633,31.762,常州市,市监测站,颗粒物(PM10),80,109,150,54,53,104,,188,142,19,24,13,12,0.8,1
2025-04-20T0000,1200A,119.9468,31.7069,常州市,武进监测站,颗粒物(PM10),112,174,144,44,44,112,,199,152,24,26,6,11,0.6,0.7
2025-04-20T0000,1201A,119.9255,31.9087,常州市,安家,,,127,162,59,51,,,180,,22,26,11,16,0.2,0.8
2025-04-20T0000,3002A,119.9805,31.8174,常州市,行政中心,颗粒物(PM10),67,83,135,44,48,109,,178,137,16,25,17,18,0.5,0.7
2025-04-20T0000,3003A,120.0522,31.7748,常州市,经开区,颗粒物(PM10),68,85,92,39,42,119,,183,141,15,28,9,12,0.5,0.7
2025-04-20T0000,3010A,119.9025,31.7964,常州市,钟楼,颗粒物(PM10),67,83,122,43,46,110,,183,140,16,24,8,10,0.5,0.6
2025-04-20T0000,3429A,119.8598,31.7066,常州市,武进经发区,细颗粒物(PM2.5),69,73,108,50,52,126,,209,159,15,25,8,12,0.9,1.1
2025-04-20T0000,3430A,119.5826,31.7245,常州市,金坛城区,颗粒物(PM10),75,100,125,51,47,102,,206,156,17,22,8,11,0.7,0.9
2025-04-20T0000,2220A,120.4318,41.5881,朝阳市,西梁,,32,23,24,22,14,85,,109,96,12,12,9,8,0.5,0.4
2025-04-20T0000,2221A,120.4521,41.5646,朝阳市,河畔小区,,31,19,28,19,14,97,,112,103,11,11,12,10,0.6,0.5
2025-04-20T0000,2222A,120.4176,41.5648,朝阳市,八里堡,,28,19,22,19,12,81,,107,92,14,13,7,6,0.7,0.6
2025-04-20T0000,2223A,120.3806,41.5969,朝阳市,农业园区,,39,27,23,27,16,57,,110,88,31,13,8,8,0.8,0.7
2025-04-20T0000,1705A,116.6367,23.6719,潮州市,西园路,,49,49,40,30,25,4,,39,22,26,17,5,4,0.8,0.7
2025-04-20T0000,3026A,116.6183,23.6608,潮州市,市政府,,42,42,44,19,20,15,,45,29,20,19,5,5,0.6,0.6
2025-04-20T0000,4036A,116.6461,23.6761,潮州市,金山,颗粒物(PM10),52,53,44,26,26,9,,51,29,25,20,9,7,0.8,0.7
2025-04-20T0000,2472A,113.0073,25.9061,郴州市,马头岭,,34,34,22,11,7,8,,78,54,39,12,8,7,1.0,0.8
2025-04-20T0000,2473A,113.0116,25.8226,郴州市,市职中,,17,17,21,8,14,53,,93,66,12,9,2,2,0.6,0.6
2025-04-20T0000,2475A,113.0383,25.8071,郴州市,市审计局,,21,21,20,9,13,52,,96,74,17,9,2,2,0.5,0.4
2025-04-20T0000,2476A,113.0348,25.7759,郴州市,市环保局,,,25,24,13,15,62,,84,68,12,10,,4,0.6,0.5
2025-04-20T0000,4252A,113.0138,25.8011,郴州市,好美居路49号,,19,14,20,8,13,60,,96,74,13,10,3,3,0.6,0.6
2025-04-20T0000,1431A,103.9728,30.7236,成都市,金泉两河,颗粒物(PM10),67,84,61,37,21,112,,164,137,18,13,4,3,0.8,0.7
2025-04-20T0000,1432A,104.176,30.6872,成都市,十里店,颗粒物(PM10),62,73,69,26,25,124,,154,141,15,15,4,4,0.8,0.7
2025-04-20T0000,1433A,104.079,30.5706,成都市,三瓦窑,细颗粒物(PM2.5),67,70,65,48,30,107,,150,138,24,20,5,5,0.7,0.6
2025-04-20T0000,1434A,104.1114,30.63,成都市,沙河铺,颗粒物(PM10),65,80,68,34,28,91,,137,116,23,17,7,6,0.8,0.7
2025-04-20T0000,1437A,104.0786,30.6531,成都市,君平街,颗粒物(PM10),64,78,64,34,30,102,,140,124,22,19,7,7,0.7,0.7
2025-04-20T0000,1438A,103.613,31.0283,成都市,灵岩寺,,,,,,,,,,,,,,,,
2025-04-20T0000,2880A,104.0239,30.65639,成都市,大石西路,细颗粒物(PM2.5),79,74,64,58,30,109,,156,140,26,20,5,4,0.4,0.4
2025-04-20T0000,3136A,104.2725,30.5589,成都市,龙泉驿区区政府,,,,62,,24,,,153,153,,11,,5,,0.6
2025-04-20T0000,3357A,104.0106,30.6931,成都市,金博路,颗粒物(PM10),60,70,53,31,20,97,,124,,15,16,8,7,0.7,0.7
2025-04-20T0000,3359A,104.0578,30.5225,成都市,华阳,颗粒物(PM10),63,75,62,36,36,112,,150,139,20,17,7,7,0.7,0.6
2025-04-20T0000,3488A,104.3853,30.7453,成都市,青白江技师分院,颗粒物(PM10),73,95,74,40,30,149,,168,160,17,24,8,7,0.3,0.3
2025-04-20T0000,3489A,104.0789,30.4072,成都市,科学城,颗粒物(PM10),57,64,66,26,31,113,,140,133,12,10,5,4,0.4,0.3
2025-04-20T0000,4011A,103.8506,30.6947,成都市,光华大道三段,颗粒物(PM10),65,79,58,29,26,128,,178,155,20,16,3,2,0.7,0.6
2025-04-20T0000,4224A,104.2433,30.5353,成都市,鲸龙路1057号,颗粒物(PM10),71,92,73,42,32,133,,157,152,17,18,5,5,0.5,0.5
2025-04-20T0000,1062A,117.9531,40.9081,承德市,铁路,,26,25,17,18,8,38,,98,74,29,17,6,12,0.3,0.4
2025-04-20T0000,1063A,117.9392,40.9763,承德市,中国银行,,21,21,16,9,7,33,,105,72,20,10,2,7,0.3,0.3
2025-04-20T0000,1064A,117.9503,40.928,承德市,开发区,,22,21,16,15,17,47,,107,82,16,11,4,11,0.2,0.3
2025-04-20T0000,1065A,117.8051,40.9655,承德市,文化中心,,36,36,20,3,7,40,,102,70,24,12,11,13,0.3,0.3
2025-04-20T0000,1066A,117.9268,41.0026,承德市,离宫,,36,,17,25,20,45,,64,56,8,7,21,19,0.2,0.3
2025-04-20T0000,2314A,117.47,30.6618,池州市,池州学院,细颗粒物(PM2.5),79,98,92,58,49,83,,139,128,23,22,5,6,0.7,0.8
2025-04-20T0000,3237A,117.4918,30.6617,池州市,展览馆,颗粒物(PM10),74,97,92,48,46,82,,142,119,22,21,4,6,0.8,0.8
2025-04-20T0000,3333A,117.5627,30.695,池州市,第八中学,颗粒物(PM10),70,89,100,46,47,74,,144,130,29,26,4,9,0.7,0.7
2025-04-20T0000,3334A,117.5038,30.6243,池州市,第十二中学,颗粒物(PM10),71,92,93,50,46,82,,144,117,24,28,6,6,1.2,1.2
2025-04-20T0000,1744A,118.9233,42.2816,赤峰市,松山一中,,31,31,19,15,7,46,,96,75,35,19,13,11,0.6,0.5
2025-04-20T0000,1745A,118.9576,42.2728,赤峰市,哈达街,细颗粒物(PM2.5),55,,18,39,18,63,,104,89,24,17,11,11,0.5,0.5
2025-04-20T0000,1746A,118.8788,42.2554,赤峰市,天义路,,26,26,17,14,9,73,,104,88,19,15,9,10,0.5,0.5
2025-04-20T0000,3058A,119.2658,42.0353,赤峰市,银河街,颗粒物(PM10),59,67,32,28,15,51,,96,73,21,16,29,21,0.6,0.5
2025-04-20T0000,3286A,118.9359,42.3147,赤峰市,桥北物流园区,,50,50,21,19,14,19,,96,65,63,25,10,10,0.6,0.5
2025-04-20T0000,2521A,107.3476,22.4136,崇左市,市环保局江州分局,,47,47,50,30,29,93,,132,127,10,8,9,9,0.6,0.6
2025-04-20T0000,4256A,107.3750,22.3736,崇左市,石景林东路7号,,48,48,45,27,26,102,,138,133,14,9,8,8,0.5,0.4
2025-04-20T0000,2298A,118.3093,32.3153,滁州市,老年大学,细颗粒物(PM2.5),70,79,86,51,57,122,,168,151,14,15,3,4,0.4,0.5
2025-04-20T0000,2299A,118.3244,32.2786,滁州市,人大宾馆,细颗粒物(PM2.5),74,77,89,54,66,120,,173,148,18,19,8,9,0.4,0.5
2025-04-20T0000,3207A,118.3118,32.3038,滁州市,市政府原办公楼,细颗粒物(PM2.5),77,73,92,56,64,122,,168,148,6,9,4,5,0.4,0.6
2025-04-20T0000,3331A,118.3267,32.2634,滁州市,图书馆,细颗粒物(PM2.5),77,92,100,56,60,120,,165,145,9,14,7,9,0.5,0.6
2025-04-20T0000,2605A,101.5482,25.0441,楚雄彝族自治州,州环境监测站,,42,42,20,29,13,66,,119,102,29,10,9,8,0.7,0.5
2025-04-20T0000,2606A,101.538,25.0492,楚雄彝族自治州,市经济开发区,"颗粒物(PM10),细颗粒物(PM2.5)",55,59,23,39,15,53,,117,99,33,11,8,7,0.9,0.6
2025-04-20T0000,2548A,107.5277,31.2827,达州市,达州职业技术学院,颗粒物(PM10),51,52,61,25,25,34,,140,87,30,28,6,7,0.8,0.8
2025-04-20T0000,2549A,107.5086,31.2186,达州市,市环境监测站,颗粒物(PM10),57,64,65,27,26,49,,142,102,39,36,6,8,0.4,0.4
2025-04-20T0000,2550A,107.4988,31.2132,达州市,凤凰小区,细颗粒物(PM2.5),52,51,62,36,30,56,,142,,42,35,9,11,0.7,0.7
2025-04-20T0000,2551A,107.5082,31.1986,达州市,达县机关宾馆,颗粒物(PM10),52,53,64,22,26,26,,140,83,62,44,6,7,0.6,0.6
2025-04-20T0000,2552A,107.4644,31.2124,达州市,市政中心,颗粒物(PM10),62,73,66,29,24,49,,145,109,46,28,4,5,0.7,0.5
2025-04-20T0000,2614A,100.1542,25.7054,大理白族自治州,大理市环境监测站,,35,20,19,15,19,111,,111,111,5,7,7,7,0.5,0.5
2025-04-20T0000,2615A,100.2171,25.5811,大理白族自治州,大理古城,,34,21,20,14,14,107,,109,100,6,9,7,7,0.5,0.5
2025-04-20T0000,1109A,121.612,38.9741,大连市,甘井子,细颗粒物(PM2.5),74,72,39,54,30,67,,112,84,36,22,6,6,0.7,0.5
2025-04-20T0000,1110A,121.565,38.9511,大连市,周水子,细颗粒物(PM2.5),73,71,43,53,33,50,,106,72,31,20,5,6,0.7,0.5
2025-04-20T0000,1111A,121.5637,38.8845,大连市,星海三站,细颗粒物(PM2.5),83,69,37,61,31,65,,120,101,22,13,6,7,0.6,0.4
2025-04-20T0000,1112A,121.6302,38.9117,大连市,青泥洼桥,细颗粒物(PM2.5),90,89,46,67,33,49,,118,86,29,15,5,6,1.1,0.8
2025-04-20T0000,1113A,121.6251,38.8638,大连市,傅家庄,细颗粒物(PM2.5),72,75,40,52,29,70,,116,94,25,19,8,8,0.6,0.4
2025-04-20T0000,1114A,121.5213,38.8661,大连市,七贤岭,细颗粒物(PM2.5),72,71,39,52,28,59,,117,95,17,14,5,5,0.9,0.8
2025-04-20T0000,1115A,121.2529,38.8061,大连市,旅顺,细颗粒物(PM2.5),103,89,41,77,37,58,,94,72,27,21,7,8,0.8,0.6
2025-04-20T0000,1116A,121.7485,39.1311,大连市,金州,颗粒物(PM10),123,195,64,60,34,26,,103,61,38,22,8,8,0.8,0.5
2025-04-20T0000,1117A,121.7811,39.0496,大连市,开发区,细颗粒物(PM2.5),97,82,44,72,35,34,,102,64,46,24,4,7,1.0,0.8
2025-04-20T0000,1118A,121.9762,39.0631,大连市,双D港,细颗粒物(PM2.5),59,46,31,42,28,68,,122,91,11,15,7,7,0.7,0.5
2025-04-20T0000,1789A,124.81117,46.03138,大庆市,大同区,细颗粒物(PM2.5),57,47,28,40,25,67,,91,78,14,9,6,4,0.7,0.5
2025-04-20T0000,1790A,125.129,46.533,大庆市,龙凤区,颗粒物(PM10),51,51,40,33,18,53,,82,54,31,19,6,6,0.5,0.4
2025-04-20T0000,1791A,124.902,46.408,大庆市,红岗区,,50,39,24,35,20,60,,91,72,23,13,9,7,0.5,0.4
2025-04-20T0000,1792A,125.153,46.586,大庆市,萨尔图区,细颗粒物(PM2.5),54,50,41,38,20,53,,76,44,28,23,8,8,1.9,0.6
2025-04-20T0000,1793A,124.9042,46.6215,大庆市,让胡路区,,49,49,26,32,21,65,,79,53,18,15,6,6,0.4,0.3
2025-04-20T0000,3481A,125.141,46.634,大庆市,萨区政府监测点,,41,41,24,17,8,58,,83,62,31,15,5,5,0.5,0.4
2025-04-20T0000,1721A,113.3819,40.1097,大同市,果树场,,,,37,,20,,,104,71,,24,,6,,0.6
2025-04-20T0000,1723A,113.2994,40.0758,大同市,云冈宾馆,颗粒物(PM10),58,66,46,38,28,8,,116,64,73,40,10,9,1.4,0.7
2025-04-20T0000,1724A,113.3444,40.0917,大同市,大同大学,颗粒物(PM10),57,64,40,27,22,46,,112,79,26,21,18,15,0.6,0.6
2025-04-20T0000,1725A,113.2661,40.1269,大同市,安家小村,,45,45,40,14,21,49,,109,80,23,18,11,13,0.4,0.7
2025-04-20T0000,1726A,113.2711,40.0844,大同市,教育学院,颗粒物(PM10),76,101,58,34,29,31,,111,60,49,30,15,10,2.3,0.7
2025-04-20T0000,3282A,113.3397,40.0597,大同市,大同市卫生学校,颗粒物(PM10),63,76,49,26,29,27,,110,68,55,29,10,9,0.9,0.7
2025-04-20T0000,3565A,113.1367,40.1122,大同市,云冈站,颗粒物(PM10),58,66,37,23,19,3,,110,62,58,21,13,10,0.4,0.5
2025-04-20T0000,3566A,113.1186,40.2556,大同市,图书馆,,39,39,38,19,20,23,,105,65,19,12,9,10,0.7,0.7
2025-04-20T0000,3567A,113.5931,40.0461,大同市,区一中,,50,50,54,20,25,80,,115,83,14,18,14,17,0.5,0.7
2025-04-20T0000,4199A,113.2798,40.0997,大同市,魏都大道141号,颗粒物(PM10),77,104,56,28,27,20,,116,68,66,34,17,13,2.9,1.1
2025-04-20T0000,2269A,124.1069,50.4097,大兴安岭地区,科技局,,28,24,18,19,16,56,,79,72,5,4,4,3,0.3,0.3
2025-04-20T0000,3663A,124.1164,50.4278,大兴安岭地区,红旗社区,,20,,5,3,5,62,,83,73,1,2,4,4,0.3,0.3
2025-04-20T0000,1600A,124.3303,40.0625,丹东市,江湾东路,,39,31,27,27,15,31,,94,68,32,15,8,8,1.1,0.5
2025-04-20T0000,1601A,124.4256,40.1503,丹东市,临江后街,,40,40,30,26,15,34,,92,64,29,16,10,6,0.9,0.5
2025-04-20T0000,1602A,124.3933,40.1461,丹东市,元宝山,,28,24,22,19,13,54,,90,73,13,11,6,6,0.7,0.4
2025-04-20T0000,1603A,124.3633,40.1092,丹东市,民主桥,,36,35,30,25,14,16,,91,56,41,20,7,7,1.0,0.6
2025-04-20T0000,3541A,109.5726,19.5167,儋州市,第一中学子站,,29,29,32,16,21,39,,70,51,10,5,9,5,0.6,0.6
2025-04-20T0000,3542A,109.5567,19.5187,儋州市,东坡学校子站,,19,19,32,13,18,47,,82,57,5,5,5,4,0.6,0.6
2025-04-20T0000,2616A,98.5842,24.428,德宏傣族景颇族自治州,德宏州监测站,,44,44,40,30,31,32,,105,76,21,15,7,9,0.6,0.5
2025-04-20T0000,3677A,98.5881,24.4368,德宏傣族景颇族自治州,芒市人民政府综合楼,颗粒物(PM10),54,58,52,27,29,45,,120,89,12,13,6,8,0.6,0.5
2025-04-20T0000,1901A,104.4239,31.1208,德阳市,东山公园,颗粒物(PM10),67,84,68,40,32,118,,166,145,14,16,5,6,0.6,0.5
2025-04-20T0000,1902A,104.3826,31.1317,德阳市,西小区,颗粒物(PM10),69,88,75,40,34,111,,164,137,26,25,6,6,0.7,0.7
2025-04-20T0000,1904A,104.3553,31.1091,德阳市,耐火材料厂,颗粒物(PM10),74,97,80,47,33,110,,174,140,25,23,8,7,0.6,0.6
2025-04-20T0000,3639A,104.4019,31.1244,德阳市,市教育局,颗粒物(PM10),69,88,68,39,34,101,,173,139,26,22,6,7,0.5,0.4
2025-04-20T0000,1622A,116.3032,37.4674,德州市,儿童乐园,细颗粒物(PM2.5),58,63,51,41,32,53,,126,88,36,21,6,7,0.6,0.6
2025-04-20T0000,1624A,116.2991,37.4451,德州市,监理站,,48,48,39,31,26,78,,123,96,29,20,2,4,0.6,0.5
2025-04-20T0000,3066A,116.2721,37.4379,德州市,九衢泉纯净水厂,,48,48,38,24,26,67,,114,92,28,22,7,7,0.8,0.7
2025-04-20T0000,3371A,116.3728,37.4403,德州市,开发区人民医院,颗粒物(PM10),53,56,42,24,21,65,,108,77,32,19,8,7,0.6,0.6
2025-04-20T0000,3372A,116.3572,37.4094,德州市,太阳城中学,颗粒物(PM10),58,66,41,39,24,50,,114,78,39,18,5,4,0.6,0.5
2025-04-20T0000,3511A,116.5652,37.3319,德州市,陵城艺术中心,颗粒物(PM10),58,66,36,39,23,69,,105,92,26,17,8,3,0.6,0.6
2025-04-20T0000,2621A,99.7056,27.8317,迪庆藏族自治州,迪庆州站,,27,21,24,10,14,85,,99,90,9,11,9,9,0.5,0.5
2025-04-20T0000,3180A,99.7136,27.8094,迪庆藏族自治州,质量技术监督局,,23,13,24,12,13,73,,101,90,20,12,10,10,0.5,0.5
2025-04-20T0000,4257A,104.6092,35.5962,定西市,将台街,颗粒物(PM10),100,150,296,43,90,104,,129,119,11,17,6,6,0.0,0.1
2025-04-20T0000,4309A,104.6159,35.5701,定西市,正龙路62号,颗粒物(PM10),102,154,293,44,73,109,,129,122,4,8,9,9,0.2,0.2
2025-04-20T0000,1389A,113.7547,23.0494,东莞市,莞城梨川,,28,24,30,19,20,36,,59,40,9,9,4,4,0.5,0.5
2025-04-20T0000,1390A,113.7944,23.0128,东莞市,东城石井,,30,30,30,20,19,32,,60,38,15,14,4,4,0.3,0.3
2025-04-20T0000,1391A,113.7383,22.9658,东莞市,南城西平,,,41,36,16,16,40,,62,44,,10,2,3,0.5,0.4
2025-04-20T0000,3319A,113.7338,23.0381,东莞市,万江金泰,,26,24,29,18,16,18,,46,25,10,10,2,2,0.6,0.6
2025-04-20T0000,3626A,113.7533,23.0202,东莞市,南城元岭,,25,24,27,17,17,32,,55,35,8,8,5,5,0.7,0.7
2025-04-20T0000,3627A,113.7875,23.0457,东莞市,东城主山,,35,35,29,17,15,29,,57,38,17,14,3,3,0.5,0.5
2025-04-20T0000,1666A,118.6614,37.4309,东营市,市环保局,,35,24,17,12,7,110,,128,118,17,16,4,5,0.4,0.3
2025-04-20T0000,3036A,118.6904,37.4338,东营市,开发区管委会,,36,30,24,17,9,114,,134,120,31,23,3,4,0.6,0.4
2025-04-20T0000,3365A,118.5719,37.565,东营市,垦利区民丰路,,27,22,17,12,9,85,,123,101,26,16,4,3,0.8,0.6
2025-04-20T0000,3498A,118.5055,37.8612,东营市,河口城区,,33,19,21,10,8,105,,128,119,13,12,4,5,0.7,0.9
2025-04-20T0000,3646A,118.4978,37.4623,东营市,胜利站,,44,44,28,17,11,92,,126,112,19,18,9,8,0.7,0.5
2025-04-20T0000,3734A,118.35,37.26,东营市,理想之城,,39,39,24,19,11,90,,131,109,28,17,4,5,0.6,0.4
2025-04-20T0000,1591A,110.0023,39.8129,鄂尔多斯市,综合楼,颗粒物(PM10),62,73,98,22,20,98,,123,109,23,24,24,6,0.4,0.3
2025-04-20T0000,1592A,109.9486,39.8261,鄂尔多斯市,巴音孟克林场办事处,颗粒物(PM10),64,78,91,27,23,90,,118,108,27,23,16,8,0.7,0.6
2025-04-20T0000,1593A,109.7736,39.5986,鄂尔多斯市,康泽苑,颗粒物(PM10),70,90,77,29,20,71,,123,108,31,13,4,2,0.4,0.3
2025-04-20T0000,1594A,109.8119,39.5989,鄂尔多斯市,华泰汽车城,颗粒物(PM10),98,146,80,39,21,56,,118,99,41,22,9,6,0.5,0.4
2025-04-20T0000,1595A,109.9734,39.7884,鄂尔多斯市,奥林花园,颗粒物(PM10),67,83,91,29,22,84,,123,105,31,34,17,8,0.6,0.5
2025-04-20T0000,2436A,114.8938,30.3994,鄂州市,市政府,颗粒物(PM10),82,114,93,46,36,82,,108,98,18,18,9,8,0.7,0.5
2025-04-20T0000,2437A,114.8989,30.3714,鄂州市,赵家坝,颗粒物(PM10),81,111,104,47,35,92,,121,110,19,19,6,6,1.1,0.9
2025-04-20T0000,3654A,114.8094,30.4089,鄂州市,精准医疗中心,"颗粒物(PM10),细颗粒物(PM2.5)",69,87,80,50,34,95,,126,109,15,11,3,7,0.7,0.3
2025-04-20T0000,2454A,109.4978,30.2981,恩施土家族苗族自治州,湖北民院,,36,36,58,21,34,9,,64,45,24,16,6,6,0.5,0.5
2025-04-20T0000,2455A,109.4707,30.2798,恩施土家族苗族自治州,州电力总公司,,32,32,54,22,34,4,,47,33,24,24,4,5,0.7,0.8
2025-04-20T0000,3549A,109.5061,30.3772,恩施土家族苗族自治州,龙凤新区,,31,31,53,21,34,8,,55,38,16,15,6,6,0.5,0.5
2025-04-20T0000,2499A,108.3411,21.6158,防城港市,沙万,,38,38,48,17,22,43,,56,45,7,8,3,2,0.6,0.6
2025-04-20T0000,2500A,108.3514,21.7731,防城港市,防城档案局,,30,30,41,19,24,52,,67,56,2,3,5,3,0.4,0.4
2025-04-20T0000,2501A,108.3506,21.6414,防城港市,大海花园,,30,30,41,13,19,57,,72,54,2,3,2,2,0.4,0.4
2025-04-20T0000,1371A,113.1294,23.0067,佛山市,湾梁,,36,36,34,18,17,25,,51,36,20,22,7,7,0.7,0.6
2025-04-20T0000,1372A,113.1083,23.0478,佛山市,华材职中,,39,39,34,19,17,25,,53,39,18,22,6,6,0.5,0.5
2025-04-20T0000,1373A,113.144,23.0453,佛山市,南海气象局,,41,41,37,22,20,7,,44,32,34,24,7,6,0.6,0.6
2025-04-20T0000,1374A,113.2881,22.8094,佛山市,顺德苏岗,,32,32,39,17,15,32,,61,39,11,14,5,5,0.7,0.6
2025-04-20T0000,1376A,112.8383,22.8678,佛山市,高明孔堂,,49,49,30,16,18,32,,51,45,12,8,5,4,0.6,0.6
2025-04-20T0000,1377A,112.8836,23.1588,佛山市,三水监测站,,40,36,37,28,25,12,,44,32,32,30,3,4,0.4,0.5
2025-04-20T0000,1378A,112.867,23.185,佛山市,三水云东海,,44,44,42,25,22,19,,52,40,31,29,2,2,0.6,0.6
2025-04-20T0000,3625A,113.2544,22.7642,佛山市,容桂街道办,,32,24,28,22,20,25,,53,32,18,18,5,5,0.6,0.6
2025-04-20T0000,1280A,119.3903,26.0543,福州市,鼓山,,,,49,,30,,,89,,,4,,2,,0.3
2025-04-20T0000,1282A,119.2681,26.0504,福州市,师大,,15,6,64,3,38,46,,61,61,17,24,3,4,0.3,0.4
2025-04-20T0000,1283A,119.2984,26.1028,福州市,五四北路,,16,11,53,6,38,49,,68,66,21,23,3,4,0.5,0.5
2025-04-20T0000,1284A,119.2648,26.0768,福州市,杨桥西路,,15,14,56,3,38,48,,67,65,18,22,3,4,0.3,0.4
2025-04-20T0000,1285A,119.317,26.0746,福州市,紫阳,,19,,58,3,39,58,,58,58,15,30,4,4,0.4,0.4
2025-04-20T0000,3048A,119.5799,26.0936,福州市,九龙,,11,10,34,3,30,34,,56,55,11,14,3,3,0.2,0.3
2025-04-20T0000,3526A,119.5189,25.9664,福州市,吴航,,16,6,54,3,30,49,,77,64,9,17,3,4,0.4,0.5
2025-04-20T0000,1755A,123.7977,41.8491,抚顺市,望花区,细颗粒物(PM2.5),69,57,40,50,35,48,,91,72,36,28,13,14,0.9,0.9
2025-04-20T0000,1756A,123.9161,41.8822,抚顺市,顺城区,细颗粒物(PM2.5),140,108,54,107,38,6,,91,49,48,35,8,9,1.3,1
2025-04-20T0000,1757A,124.0436,41.8611,抚顺市,东洲区,,48,35,44,33,33,41,,94,65,17,18,9,6,0.8,0.8
2025-04-20T0000,1758A,123.9247,41.8642,抚顺市,新抚区,颗粒物(PM10),63,75,46,42,27,12,,88,52,38,26,6,8,1.1,0.9
2025-04-20T0000,1759A,124.0972,41.8961,抚顺市,大伙房水库,细颗粒物(PM2.5),68,55,33,49,32,41,,107,75,6,10,7,8,0.8,0.8
2025-04-20T0000,1760A,123.7086,41.8391,抚顺市,沈抚新城,细颗粒物(PM2.5),59,66,39,42,24,21,,85,60,50,30,6,7,1.1,0.9
2025-04-20T0000,2376A,116.2127,28.0814,抚州市,桐源党溪,,36,36,36,16,17,23,,63,35,2,3,3,4,0.8,0.7
2025-04-20T0000,2377A,116.3544,27.9831,抚州市,市站,,27,27,36,17,16,48,,66,59,12,9,4,6,1.2,1.2
2025-04-20T0000,2378A,116.3565,27.963,抚州市,血防站,,32,32,38,20,18,37,,68,55,18,9,9,10,1.5,1.4
2025-04-20T0000,2379A,116.3564,28.0007,抚州市,采茶剧团,,30,30,34,20,19,39,,62,54,10,5,1,3,1.2,1.2
2025-04-20T0000,2380A,116.385,27.9647,抚州市,医学分院,,31,31,30,17,16,27,,60,47,18,9,4,4,1.5,1.5
2025-04-20T0000,2207A,121.6094,41.998,阜新市,工业园区,细颗粒物(PM2.5),54,40,29,38,19,77,,121,99,22,12,21,20,0.7,0.7
2025-04-20T0000,2208A,121.6697,42.0279,阜新市,长青街,,43,34,28,30,14,87,,118,100,15,14,11,15,0.5,0.5
2025-04-20T0000,2209A,121.6673,42.0705,阜新市,农业园区,细颗粒物(PM2.5),55,,25,39,13,87,,115,100,15,11,18,13,0.6,0.4
2025-04-20T0000,2210A,121.6717,42.0224,阜新市,东苑,,35,26,30,24,16,89,,117,99,18,15,21,22,0.5,0.5
2025-04-20T0000,2211A,121.6506,42.0498,阜新市,玉龙新城,细颗粒物(PM2.5),58,49,33,41,16,79,,120,100,17,12,20,16,0.7,0.6
2025-04-20T0000,2301A,115.8277,32.8929,阜阳市,市监测站,颗粒物(PM10),53,55,60,34,27,74,,116,99,31,17,8,8,0.5,0.4
2025-04-20T0000,2303A,115.8554,32.8605,阜阳市,开发区,颗粒物(PM10),58,65,78,29,21,79,,120,101,20,16,6,6,0.3,0.2
2025-04-20T0000,2875A,115.784,32.8892,阜阳市,阜阳职业技术学院,颗粒物(PM10),54,57,66,25,23,84,,119,106,17,11,7,5,0.4,0.3
2025-04-20T0000,3468A,115.7901,32.8613,阜阳市,市规划展馆,颗粒物(PM10),56,62,67,39,28,101,,126,116,12,10,8,7,0.5,0.4
2025-04-20T0000,3469A,115.836,32.9183,阜阳市,枣园社区,颗粒物(PM10),71,91,70,45,27,86,,118,102,17,12,11,9,0.5,0.4
2025-04-20T0000,2669A,102.9099,34.9841,甘南藏族自治州,州政府,颗粒物(PM10),103,155,83,41,29,3,,99,60,83,31,14,12,,0.4
2025-04-20T0000,3380A,102.8914,34.9617,甘南藏族自治州,甘肃民族师范学院,颗粒物(PM10),126,201,136,48,36,0,,116,54,78,40,11,10,0.7,0.5
2025-04-20T0000,2570A,101.9603,30.0475,甘孜藏族自治州,水桥子,颗粒物(PM10),51,52,30,21,15,55,,118,102,36,17,4,5,0.4,0.4
2025-04-20T0000,3065A,101.9533,29.9972,甘孜藏族自治州,州环保局,,45,45,38,14,9,65,,119,100,31,19,2,1,0.4,0.4
2025-04-20T0000,3414A,115.8347,28.932,赣江新区,桑海产业园,,46,46,45,24,25,15,,97,64,62,26,7,8,0.5,0.5
2025-04-20T0000,2362A,114.9017,25.9149,赣州市,通天岩,,,,19,,5,,,97,83,,3,,1,,0.9
2025-04-20T0000,2363A,114.9367,25.8664,赣州市,地委,,25,25,23,12,11,50,,91,72,10,8,8,9,0.9,1
2025-04-20T0000,2364A,114.9461,25.8481,赣州市,气象台,,22,22,23,6,8,54,,90,73,15,11,8,9,0.6,0.6
2025-04-20T0000,2365A,114.9322,25.8333,赣州市,市图书馆,,19,14,18,9,10,59,,80,67,9,9,5,5,0.6,0.6
2025-04-20T0000,2366A,114.8905,25.8471,赣州市,华坚鞋城,,21,21,25,9,12,60,,87,73,12,10,4,5,0.4,0.4
2025-04-20T0000,3109A,115.0093,25.8613,赣州市,赣县区卫计委,,15,8,24,8,12,47,,76,60,9,8,4,5,0.5,0.5
2025-04-20T0000,2683A,106.2319,36.1417,固原市,马园,颗粒物(PM10),110,170,255,52,77,99,,118,111,33,28,5,5,0.8,0.6
2025-04-20T0000,2684A,106.2792,36.0022,固原市,监测站,颗粒物(PM10),94,137,209,54,87,125,,121,121,9,15,5,5,0.4,0.4
2025-04-20T0000,2685A,106.2375,36.0211,固原市,新区,颗粒物(PM10),97,144,217,53,75,118,,115,114,12,26,6,5,0.5,0.5
2025-04-20T0000,3522A,106.2177,35.9959,固原市,原州区十五小,颗粒物(PM10),106,161,216,62,80,115,,122,119,13,12,10,9,0.4,0.3
2025-04-20T0000,2543A,106.6308,30.5278,广安市,小平旧居,,,,,,,,,,,,,,,,
2025-04-20T0000,2544A,106.6303,30.4576,广安市,市委,颗粒物(PM10),72,94,80,51,36,87,,155,130,24,14,10,11,0.7,0.5
2025-04-20T0000,2545A,106.6271,30.4663,广安市,友谊中学,颗粒物(PM10),65,79,70,43,32,87,,157,132,29,18,4,4,1.0,0.9
2025-04-20T0000,2547A,106.6388,30.4551,广安市,广电花园,颗粒物(PM10),70,90,66,48,34,90,,155,128,25,16,5,6,0.5,0.4
2025-04-20T0000,2902A,106.6351,30.4865,广安市,北辰小学,颗粒物(PM10),72,93,83,41,34,94,,154,132,17,14,7,7,0.4,0.4
2025-04-20T0000,2523A,105.8945,32.4535,广元市,黑石坡,颗粒物(PM10),76,101,194,44,86,126,,125,124,11,9,4,2,0.4,0.3
2025-04-20T0000,2524A,105.821,32.4444,广元市,老城,颗粒物(PM10),74,97,171,47,62,124,,136,134,16,9,1,2,0.7,0.6
2025-04-20T0000,2526A,105.8628,32.4287,广元市,监测站,颗粒物(PM10),70,89,147,37,57,148,,140,140,6,7,8,7,0.5,0.4
2025-04-20T0000,3617A,105.8047,32.4166,广元市,经开区,颗粒物(PM10),85,119,178,57,79,156,,148,148,8,18,8,10,0.5,0.5
2025-04-20T0000,1345A,113.2347,23.1423,广州市,广雅中学,,,45,40,23,20,2,,30,11,,49,3,2,0.4,0.4
2025-04-20T0000,1346A,113.2612,23.105,广州市,市五中,,41,41,38,22,20,3,,40,12,38,31,2,1,0.6,0.7
2025-04-20T0000,1348A,113.3478,23.0916,广州市,广东商学院,,48,48,38,25,20,9,,29,15,36,33,3,3,0.5,0.6
2025-04-20T0000,1349A,113.4332,23.1047,广州市,市八十六中,,35,35,34,17,16,10,,21,12,36,39,5,4,0.5,0.5
2025-04-20T0000,1350A,113.3505,22.9483,广州市,番禺中学,,36,36,36,18,19,14,,70,34,29,24,4,4,0.5,0.5
2025-04-20T0000,1351A,113.2146,23.3916,广州市,花都师范,,37,37,44,20,27,14,,39,25,28,32,4,4,0.9,0.8
2025-04-20T0000,1352A,113.2597,23.1331,广州市,市监测站,,40,40,38,20,18,6,,32,17,38,35,5,4,0.5,0.6
2025-04-20T0000,1353A,113.5618,23.312,广州市,九龙镇镇龙,,42,42,42,21,22,19,,45,28,24,30,5,5,0.5,0.5
2025-04-20T0000,1354A,113.2765,23.1544,广州市,麓湖,,38,38,36,20,18,11,,38,18,32,28,3,3,0.5,0.5
2025-04-20T0000,1355A,113.443,23.3035,广州市,帽峰山森林公园,,33,33,32,22,22,19,,36,30,21,20,6,6,0.6,0.6
2025-04-20T0000,2846A,113.3221,23.1322,广州市,体育西,,44,44,41,24,25,5,,35,13,40,36,4,4,0.4,0.5
2025-04-20T0000,3298A,113.5717,23.5491,广州市,从化街口,,42,42,39,23,24,24,,61,45,19,19,8,9,0.6,0.6
2025-04-20T0000,3299A,113.3472,23.3692,广州市,白云竹料,颗粒物(PM10),51,52,46,27,22,14,,48,29,36,27,2,2,0.6,0.6
2025-04-20T0000,3300A,113.2981,23.237,广州市,白云嘉禾,,40,40,39,21,21,6,,29,17,41,37,4,4,0.8,0.8
2025-04-20T0000,3301A,113.4256,23.1716,广州市,黄埔科学城,,39,39,39,19,20,12,,37,19,33,32,6,6,0.2,0.2
2025-04-20T0000,3302A,113.3942,23.0483,广州市,番禺大学城,,40,40,39,17,17,12,,41,16,31,30,6,7,0.5,0.5
2025-04-20T0000,3303A,113.4922,22.8168,广州市,南沙黄阁,,32,27,33,22,19,27,,40,33,15,15,4,4,0.6,0.6
2025-04-20T0000,3304A,113.5342,22.7896,广州市,南沙街,,29,27,31,20,16,24,,40,30,15,16,4,4,0.5,0.5
2025-04-20T0000,3443A,113.2902,23.5544,广州市,花都梯面,,44,44,40,22,19,15,,38,31,26,26,4,4,0.7,0.7
2025-04-20T0000,3445A,113.7858,23.7478,广州市,从化良口,,46,36,32,32,26,7,,61,35,16,14,6,6,0.4,0.3
2025-04-20T0000,3446A,113.8051,23.2614,广州市,增城荔城,,36,36,36,20,20,18,,60,38,21,20,6,6,0.2,0.2
2025-04-20T0000,2505A,109.568,23.1478,贵港市,德智高中,,,,,,,,,,,,,,,,
2025-04-20T0000,2506A,109.6047,23.0666,贵港市,江南子站,,34,34,52,22,29,73,,103,82,11,11,4,4,0.6,0.6
2025-04-20T0000,2508A,109.5669,23.1065,贵港市,荷城子站,,45,45,54,19,22,63,,91,76,12,12,5,5,0.3,0.3
2025-04-20T0000,3405A,109.5886,23.1172,贵港市,新世纪学校,,36,36,52,21,28,73,,92,80,10,14,6,6,0.7,0.7
2025-04-20T0000,4260A,109.5933,23.0951,贵港市,中山路155-3号,,39,39,57,25,29,70,,100,81,11,12,6,6,0.5,0.5
2025-04-20T0000,1439A,106.6899,26.5998,贵阳市,马鞍山,,22,12,15,3,5,70,,137,93,8,8,4,5,0.3,0.3
2025-04-20T0000,1441A,106.6243,26.6266,贵阳市,鉴湖路,,27,27,29,17,11,69,,138,104,9,10,11,11,0.4,0.4
2025-04-20T0000,1442A,106.7487,26.6343,贵阳市,燕子冲,,24,,16,12,12,76,,133,110,13,11,3,6,0.4,0.3
2025-04-20T0000,1443A,106.6555,26.4365,贵阳市,碧云窝,,33,22,35,9,10,104,,154,120,10,11,5,6,0,0.4
2025-04-20T0000,1445A,106.7109,26.6027,贵阳市,红边门,,29,14,24,12,23,90,,142,115,14,17,3,4,0.2,0.2
2025-04-20T0000,1446A,106.7164,26.5699,贵阳市,新华路,,28,24,23,14,14,88,,144,114,10,10,11,27,0.1,0.3
2025-04-20T0000,1447A,106.674,26.5424,贵阳市,太慈桥,,30,14,24,12,12,95,,154,124,11,13,5,6,0.1,0.2
2025-04-20T0000,1552A,106.805,26.3003,贵阳市,桐木岭,,,,42,,24,,,158,132,,4,,6,,0.6
2025-04-20T0000,4230A,106.6882,26.5695,贵阳市,花果园大街66号,,30,,17,6,15,93,,160,130,8,9,5,6,0.4,0.4
2025-04-20T0000,4231A,106.6873,26.5169,贵阳市,漓江路57号,,29,12,23,9,13,91,,151,120,8,9,8,9,0.2,0.3
2025-04-20T0000,1862A,110.4144,25.3167,桂林市,电子科大尧山校区,,,,,,,,,,,,,,,,
2025-04-20T0000,1864A,110.3089,25.2708,桂林市,龙隐路小学,,32,29,70,16,44,102,,117,109,4,16,7,8,0.6,0.8
2025-04-20T0000,1865A,110.2869,25.2178,桂林市,八中,,29,21,71,20,46,90,,107,96,9,22,3,3,0.8,1
2025-04-20T0000,3531A,110.296,25.1253,桂林市,旅游学院,,26,12,60,7,35,82,,108,94,9,21,1,2,0.6,0.7
2025-04-20T0000,4222A,110.1835,25.2444,桂林市,环湖路276号,,27,14,67,14,41,85,,110,99,8,20,6,6,0.3,0.5
2025-04-20T0000,4301A,110.2803,25.2773,桂林市,信义路13号,,33,8,72,8,39,105,,124,113,8,20,3,2,1.0,1.2
2025-04-20T0000,2674A,100.2561,34.4714,果洛藏族自治州,玛沁县大武镇,颗粒物(PM10),52,53,51,29,18,66,,133,108,11,6,9,12,0.4,0.4
2025-04-20T0000,1129A,126.5422,45.755,哈尔滨市,岭北,细颗粒物(PM2.5),68,62,28,49,21,66,,99,81,24,15,16,13,0.9,0.8
2025-04-20T0000,1130A,126.561,45.8167,哈尔滨市,松北商大,细颗粒物(PM2.5),93,,30,69,22,38,,91,62,31,18,10,12,0.7,0.5
2025-04-20T0000,1131A,126.979,45.5419,哈尔滨市,阿城会宁,颗粒物(PM10),109,168,43,71,28,8,,98,53,49,18,2,6,0.7,0.4
2025-04-20T0000,1132A,126.599,45.7222,哈尔滨市,南岗学府路,细颗粒物(PM2.5),69,76,35,50,15,52,,92,76,31,16,8,8,0.7,0.5
2025-04-20T0000,1133A,126.689,45.7733,哈尔滨市,太平宏伟公园,,40,36,30,28,24,62,,99,82,27,15,5,5,0.7,0.6
2025-04-20T0000,1134A,126.635,45.7667,哈尔滨市,道外承德广场,细颗粒物(PM2.5),64,55,25,46,22,42,,90,73,39,18,6,6,0.6,0.5
2025-04-20T0000,1135A,126.685,45.7319,哈尔滨市,香坊红旗大街,细颗粒物(PM2.5),63,63,28,45,20,54,,96,81,33,17,7,8,0.7,0.5
2025-04-20T0000,1136A,126.6411,45.7258,哈尔滨市,动力和平路,细颗粒物(PM2.5),63,59,28,45,18,46,,88,74,35,16,8,8,0.7,0.4
2025-04-20T0000,1137A,126.593,45.7478,哈尔滨市,道里建国路,细颗粒物(PM2.5),73,63,27,53,20,47,,91,72,32,15,8,8,0.6,0.5
2025-04-20T0000,1138A,126.615,45.61,哈尔滨市,平房东轻厂,颗粒物(PM10),57,63,30,29,19,1,,80,45,75,22,9,9,0.8,0.5
2025-04-20T0000,1139A,126.595,45.9855,哈尔滨市,呼兰师专,,,,24,,24,,,80,59,,15,,6,,0.4
2025-04-20T0000,1140A,126.6206,45.6842,哈尔滨市,省农科院,细颗粒物(PM2.5),95,81,44,71,23,4,,90,62,73,20,9,8,0.8,0.5
2025-04-20T0000,2688A,93.5128,42.8172,哈密市,地区监测站,颗粒物(PM10),72,94,105,19,24,83,,101,91,10,24,3,7,0.3,0.3
2025-04-20T0000,2689A,93.4961,42.8328,哈密市,哈密师范学校,颗粒物(PM10),55,59,81,13,19,89,,106,100,7,23,4,5,0,0.1
2025-04-20T0000,2671A,100.9048,36.9639,海北藏族自治州,海晏县西海镇,颗粒物(PM10),78,105,85,41,30,101,,124,118,11,5,16,11,0.5,0.4
2025-04-20T0000,3867A,102.0738,36.5056,海东市,平安区公安北苑,颗粒物(PM10),81,111,145,47,54,93,,119,110,11,11,11,13,0.4,0.4
2025-04-20T0000,1409A,110.576,19.9507,海口市,东寨港,,,,,,,,,,,,,,,,
2025-04-20T0000,1410A,110.3232,20.0574,海口市,海南大学,,35,35,37,19,20,25,,95,69,10,12,2,2,0.4,0.4
2025-04-20T0000,1411A,110.283,20.0053,海口市,秀英海南医院,,45,45,41,17,24,18,,91,59,20,16,4,4,0.4,0.4
2025-04-20T0000,1412A,110.338,19.9969,海口市,海南师范大学,,40,40,38,21,22,19,,98,59,10,10,2,3,0.5,0.5
2025-04-20T0000,1413A,110.33,20.0356,海口市,龙华路环保局宿舍,,41,41,36,18,21,25,,99,68,6,8,4,4,0.4,0.4
2025-04-20T0000,3539A,110.5111,19.9736,海口市,桂林洋子站,,29,29,33,16,18,24,,88,44,8,7,4,3,0.2,0.3
2025-04-20T0000,2673A,100.6188,36.2866,海南藏族自治州,共和县恰卜恰镇,颗粒物(PM10),59,67,66,39,42,66,,129,100,38,15,19,13,0.5,0.4
2025-04-20T0000,2676A,97.3731,37.3753,海西蒙古族藏族自治州,德令哈市,颗粒物(PM10),51,51,110,28,30,101,,117,108,1,2,17,16,0.4,0.4
2025-04-20T0000,1048A,114.5302,36.6116,邯郸市,东污水处理厂,颗粒物(PM10),56,62,43,36,20,48,,101,86,38,19,1,2,0.7,0.6
2025-04-20T0000,1049A,114.4918,36.5713,邯郸市,矿院,颗粒物(PM10),60,69,37,39,21,31,,91,72,42,12,2,2,0.4,0.5
2025-04-20T0000,1050A,114.484,36.6133,邯郸市,丛台公园,细颗粒物(PM2.5),65,78,43,47,26,56,,102,89,26,14,4,7,0.4,0.5
2025-04-20T0000,3458A,114.7895,36.5593,邯郸市,香泉濮院小区,颗粒物(PM10),68,85,35,39,13,55,,105,82,28,12,9,4,0,0.2
2025-04-20T0000,3579A,114.50634,36.77178,邯郸市,永年区实验高中,颗粒物(PM10),63,76,53,44,33,62,,99,77,20,16,4,5,0.4,0.5
2025-04-20T0000,3580A,114.20016,36.44293,邯郸市,峰峰矿区临水派出所,细颗粒物(PM2.5),64,58,51,46,39,71,,125,90,8,5,4,4,0.6,0.9
2025-04-20T0000,2634A,106.9893,33.1842,汉中市,汉川机床厂子校,颗粒物(PM10),65,79,165,46,63,63,,143,101,14,8,7,7,0.5,1.3
2025-04-20T0000,2635A,107.0154,33.0706,汉中市,市监测站,颗粒物(PM10),84,117,162,51,63,70,,144,112,24,16,6,9,0.8,0.7
2025-04-20T0000,2636A,107.0089,33.1138,汉中市,鑫源开发区,颗粒物(PM10),96,142,170,64,72,27,,143,100,55,20,6,7,0.7,0.6
2025-04-20T0000,2637A,107.007,33.0323,汉中市,南郑大河坎水厂,细颗粒物(PM2.5),77,94,133,56,69,63,,147,112,28,16,5,5,0.7,0.6
2025-04-20T0000,1223A,120.2072,30.2111,杭州市,滨江,细颗粒物(PM2.5),113,139,94,85,48,102,,111,99,22,47,7,7,0.7,0.6
2025-04-20T0000,1224A,120.0633,30.2747,杭州市,西溪,细颗粒物(PM2.5),134,177,89,102,58,109,,118,103,17,26,6,5,1.2,0.8
2025-04-20T0000,1226A,120.3417,30.3150,杭州市,下沙,细颗粒物(PM2.5),200,229,126,150,68,83,,116,96,34,53,7,7,0.8,0.7
2025-04-20T0000,1227A,120.1269,30.2456,杭州市,卧龙桥,细颗粒物(PM2.5),113,164,85,85,53,113,,102,93,18,26,7,6,0.9,0.6
2025-04-20T0000,1228A,120.1903,30.2692,杭州市,浙江农大,细颗粒物(PM2.5),113,130,86,85,49,106,,108,95,20,43,3,2,0.7,0.5
2025-04-20T0000,1230A,120.1197,30.3119,杭州市,和睦小学,颗粒物(PM10),137,224,121,69,51,113,,126,104,16,36,8,7,1.0,0.7
2025-04-20T0000,1231A,120.3019,30.4183,杭州市,临平镇,细颗粒物(PM2.5),100,118,102,75,52,138,,126,110,14,44,7,6,1.0,0.8
2025-04-20T0000,1232A,120.2753,30.1839,杭州市,城厢镇,细颗粒物(PM2.5),119,144,89,90,51,81,,109,99,24,39,8,8,0.8,0.7
2025-04-20T0000,1233A,120.0883,30.1808,杭州市,云栖,细颗粒物(PM2.5),160,170,76,122,45,114,,101,95,24,38,11,10,1.2,0.8
2025-04-20T0000,3557A,119.9464,30.0494,杭州市,镇二中,颗粒物(PM10),123,196,76,90,47,132,,96,82,22,44,1,2,1.0,0.7
2025-04-20T0000,3558A,119.7183,30.2367,杭州市,市府大楼,细颗粒物(PM2.5),108,146,76,81,40,128,,113,87,21,22,8,7,0.8,0.5
2025-04-20T0000,3656A,120.1556,30.2864,杭州市,消防大队,细颗粒物(PM2.5),115,128,91,87,50,114,,112,97,20,38,4,4,1.1,0.8
2025-04-20T0000,1270A,117.1959,31.7848,合肥市,明珠广场,颗粒物(PM10),65,80,90,41,43,99,,156,136,34,19,3,3,0.6,0.5
2025-04-20T0000,1271A,117.3072,31.8764,合肥市,三里街,颗粒物(PM10),70,90,99,46,40,129,,153,140,15,21,6,6,0.7,0.6
2025-04-20T0000,1272A,117.2588,31.8707,合肥市,琥珀山庄,细颗粒物(PM2.5),72,85,89,52,49,136,,156,142,16,21,4,4,0.8,0.7
2025-04-20T0000,1273A,117.1604,31.9052,合肥市,董铺水库,颗粒物(PM10),57,63,93,31,37,97,,155,131,13,7,1,2,0.3,0.4
2025-04-20T0000,1274A,117.25,31.8571,合肥市,长江中路,颗粒物(PM10),75,100,100,50,44,138,,155,143,15,19,8,8,0.8,0.6
2025-04-20T0000,1275A,117.266,31.9436,合肥市,庐阳区,细颗粒物(PM2.5),79,95,94,58,45,126,,155,142,21,19,6,7,0.7,0.5
2025-04-20T0000,1276A,117.3453,31.8616,合肥市,瑶海区,颗粒物(PM10),76,102,101,54,46,118,,150,137,25,26,6,7,0.8,0.7
2025-04-20T0000,1277A,117.3027,31.7964,合肥市,包河区,颗粒物(PM10),74,97,97,51,45,82,,138,114,49,30,6,7,0.7,0.6
2025-04-20T0000,1278A,117.2776,31.7385,合肥市,滨湖新区,颗粒物(PM10),71,92,97,51,51,127,,147,131,18,24,7,7,0.6,0.5
2025-04-20T0000,1279A,117.1318,31.8403,合肥市,高新区,细颗粒物(PM2.5),67,75,91,48,46,82,,147,127,35,17,3,3,0.8,0.6
2025-04-20T0000,3464A,117.3803,31.9147,合肥市,高教基地,颗粒物(PM10),75,100,100,50,47,133,,151,140,14,23,7,6,0.6,0.5
2025-04-20T0000,3614A,79.924,37.0877,和田地区,地区环保局,颗粒物(PM10),500,1533,3960,380,983,59,,42,42,15,19,2,1,0.3,0.3
2025-04-20T0000,3615A,79.9131,37.113,和田地区,市环保局,颗粒物(PM10),500,1683,3793,394,732,69,,44,43,10,15,1,2,0.4,0.4
2025-04-20T0000,2516A,108.2011,24.715,河池市,东仁乐园,,,,,,,,,,,,,,,,
2025-04-20T0000,2517A,108.0497,24.6947,河池市,市环保站,,42,37,51,29,28,20,,106,61,26,10,4,8,0.6,0.6
2025-04-20T0000,2518A,108.0983,24.6989,河池市,市疾控中心,颗粒物(PM10),56,62,50,36,30,0,,113,57,50,19,6,8,0.6,0.6
2025-04-20T0000,1696A,114.6778,23.7569,河源市,源西,,38,27,27,26,23,37,,56,48,12,16,3,3,0.9,0.9
2025-04-20T0000,1697A,114.6944,23.7586,河源市,东埔,颗粒物(PM10),53,55,30,22,19,34,,47,42,16,21,4,3,0.5,0.7
2025-04-20T0000,1698A,114.6892,23.7233,河源市,老城,,35,30,36,24,28,32,,52,45,15,20,4,4,0.4,0.5
2025-04-20T0000,1718A,115.4208,35.2464,菏泽市,气象局,颗粒物(PM10),80,109,57,53,35,5,,118,89,80,18,5,7,0.6,0.4
2025-04-20T0000,3374A,115.5564,35.0891,菏泽市,定陶老年大学,颗粒物(PM10),68,85,44,44,25,26,,112,83,34,17,3,4,0.8,0.4
2025-04-20T0000,4184A,115.4797,35.24401,菏泽市,永昌路1号,细颗粒物(PM2.5),85,100,53,63,39,28,,100,74,51,19,4,7,0.6,0.3
2025-04-20T0000,4193A,115.4715,35.2800,菏泽市,长城路999号,颗粒物(PM10),85,119,55,56,32,0,,109,68,76,23,6,9,0.6,0.3
2025-04-20T0000,2514A,111.5264,24.4172,贺州市,环保小区,,35,32,54,24,24,66,,87,82,8,18,6,7,0.7,0.8
2025-04-20T0000,2515A,111.5608,24.4078,贺州市,政协大楼,,37,37,48,20,27,67,,94,85,10,15,7,8,0.7,0.8
2025-04-20T0000,3534A,111.4744,24.4553,贺州市,西湾,,39,33,50,27,31,58,,95,83,13,15,9,7,0.6,0.7
2025-04-20T0000,2385A,114.17,35.9019,鹤壁市,市监测站,细颗粒物(PM2.5),98,114,76,73,55,44,,93,76,26,18,5,5,0.6,0.8
2025-04-20T0000,2386A,114.2956,35.7511,鹤壁市,市交警支队,细颗粒物(PM2.5),75,96,71,55,44,47,,93,81,34,16,6,7,0.9,1
2025-04-20T0000,2387A,114.2878,35.7306,鹤壁市,迎宾馆,颗粒物(PM10),74,97,83,45,32,49,,94,80,35,14,3,3,0.7,0.7
2025-04-20T0000,3474A,114.2617,35.6822,鹤壁市,大新区,细颗粒物(PM2.5),99,94,69,74,63,12,,83,57,46,16,7,7,0.9,0.9
2025-04-20T0000,3596A,114.1572,35.9603,鹤壁市,南山宾馆,细颗粒物(PM2.5),104,106,81,78,54,39,,95,72,24,17,4,3,0.8,0.9
2025-04-20T0000,2244A,130.2537,47.3416,鹤岗市,哈啤分公司,,33,,28,23,20,53,,64,58,7,11,14,16,0.4,0.4
2025-04-20T0000,2245A,130.2684,47.3086,鹤岗市,斯达机电,,30,30,35,15,20,76,,70,70,6,9,11,11,0.2,0.2
2025-04-20T0000,2246A,130.3114,47.3388,鹤岗市,东山纸板厂,,38,32,41,26,26,58,,68,53,8,15,11,13,0.3,0.6
2025-04-20T0000,2247A,130.1097,47.3382,鹤岗市,五号水库,,,,,,,,,,,,,,,,
2025-04-20T0000,2263A,127.4833,50.2524,黑河市,交通局,,28,22,22,19,18,45,,69,50,7,10,6,7,0.6,0.6
2025-04-20T0000,2264A,127.5144,50.2341,黑河市,环保局,,42,39,21,29,22,54,,74,49,9,12,4,4,0.4,0.4
2025-04-20T0000,2265A,127.5291,50.2472,黑河市,大黑河岛,,,,,,,,,,,,,,,,
2025-04-20T0000,1074A,115.6838,37.7541,衡水市,电机北厂,细颗粒物(PM2.5),59,52,40,42,28,55,,114,84,30,14,6,7,0.4,0.3
2025-04-20T0000,1075A,115.6303,37.7316,衡水市,市监测站,颗粒物(PM10),53,55,39,34,22,71,,113,92,22,16,6,6,0.4,0.3
2025-04-20T0000,3188A,115.6683,37.7217,衡水市,市城管局,细颗粒物(PM2.5),73,62,38,53,30,54,,110,81,32,16,9,7,0.4,0.4
2025-04-20T0000,3459A,115.5989,37.5491,衡水市,地表水厂,颗粒物(PM10),54,57,39,31,22,36,,108,72,48,18,9,6,0.4,0.3
2025-04-20T0000,2456A,112.5003,26.9167,衡阳市,原169医院,,25,25,24,13,20,46,,108,80,21,12,2,4,0.5,0.5
2025-04-20T0000,2457A,112.6194,26.9258,衡阳市,衡阳化工总厂,细颗粒物(PM2.5),60,44,31,43,20,53,,106,84,14,8,11,6,0.7,0.5
2025-04-20T0000,2458A,112.6211,26.8956,衡阳市,珠晖区环保局,,,36,28,,,52,,109,82,17,12,6,7,0.7,0.7
2025-04-20T0000,2459A,112.6197,26.8733,衡阳市,市委党校,,,28,27,,,73,,104,92,7,9,3,3,0.5,0.6
2025-04-20T0000,2460A,112.6006,26.8919,衡阳市,市监测站,,26,22,28,18,18,70,,105,90,12,12,9,8,0.8,0.7
2025-04-20T0000,2461A,112.5664,26.9056,衡阳市,真空机电公司,,24,24,31,16,21,63,,102,89,15,9,6,5,0.8,0.8
2025-04-20T0000,3399A,112.6703,26.882,衡阳市,师范学院,,29,29,32,16,16,71,,111,95,11,10,5,5,0.6,0.6
2025-04-20T0000,2608A,103.3772,23.3993,红河哈尼族彝族自治州,污水处理厂,,50,43,34,35,30,94,,118,102,5,6,4,5,0.3,0.3
2025-04-20T0000,2609A,103.3861,23.35,红河哈尼族彝族自治州,监测站,细颗粒物(PM2.5),62,50,45,44,24,94,,118,101,5,6,6,7,0.4,0.3
2025-04-20T0000,3038A,103.3758,23.368,红河哈尼族彝族自治州,州图书馆,,39,36,29,27,24,95,,120,102,6,6,6,6,0.3,0.3
2025-04-20T0000,1090A,111.6507,40.7517,呼和浩特市,呼市一监,颗粒物(PM10),59,68,58,27,32,43,,118,88,49,24,9,10,0.6,0.6
2025-04-20T0000,1091A,111.6572,40.8033,呼和浩特市,小召,颗粒物(PM10),67,83,53,32,30,12,,110,86,90,34,7,8,0.7,0.6
2025-04-20T0000,1094A,111.7516,40.8369,呼和浩特市,如意水处理厂,,49,49,42,20,25,28,,112,81,59,27,7,8,0.6,0.6
2025-04-20T0000,1095A,111.7276,40.8062,呼和浩特市,二十九中,颗粒物(PM10),60,69,50,25,29,44,,116,89,44,26,3,4,0.6,0.6
2025-04-20T0000,1096A,111.5512,40.7866,呼和浩特市,工大金川校区,颗粒物(PM10),56,61,55,23,32,76,,114,89,29,34,7,8,0.5,0.6
2025-04-20T0000,1097A,111.717,40.7612,呼和浩特市,化肥厂生活区,颗粒物(PM10),53,55,51,23,31,47,,116,88,46,30,8,9,0.6,0.6
2025-04-20T0000,3698A,111.5968,40.8178,呼和浩特市,红旗小学,颗粒物(PM10),57,63,52,25,28,58,,114,84,48,36,6,6,0.6,0.6
2025-04-20T0000,3699A,111.6518,40.8389,呼和浩特市,海东办,颗粒物(PM10),51,51,47,24,28,26,,112,74,73,33,7,8,0.6,0.7
2025-04-20T0000,2192A,119.7594,49.2261,呼伦贝尔市,区环保局,,42,,24,29,19,78,,89,81,9,12,6,5,0.3,0.3
2025-04-20T0000,3061A,119.7512,49.1577,呼伦贝尔市,国华电力东,,32,32,25,15,13,59,,94,75,4,7,4,3,0.3,0.3
2025-04-20T0000,1250A,120.0751,30.8669,湖州市,城西水厂,细颗粒物(PM2.5),172,,128,130,94,130,,182,156,16,36,7,8,0.9,0.7
2025-04-20T0000,2873A,120.0830,30.8929,湖州市,仁皇山新区,,,115,114,70,61,,,205,171,18,40,5,5,1.2,1
2025-04-20T0000,2907A,120.1844,30.8596,湖州市,吴兴区站,细颗粒物(PM2.5),87,97,98,64,58,140,,188,162,15,32,6,7,0.6,0.6
2025-04-20T0000,3562A,120.4148,30.8538,湖州市,南浔区站,细颗粒物(PM2.5),82,109,91,60,51,140,,177,156,15,25,6,4,1.0,0.7
2025-04-20T0000,1607A,120.9049,40.7211,葫芦岛市,龙港区,细颗粒物(PM2.5),57,57,28,40,28,41,,99,75,41,19,9,11,0.9,0.6
2025-04-20T0000,1608A,120.8392,40.7514,葫芦岛市,化工街,细颗粒物(PM2.5),67,68,30,48,22,7,,106,70,88,32,8,11,1.0,0.6
2025-04-20T0000,1609A,120.8341,40.7073,葫芦岛市,新区,细颗粒物(PM2.5),79,,29,58,32,49,,96,79,31,21,8,9,1.0,0.7
2025-04-20T0000,1610A,120.8695,40.7677,葫芦岛市,东城区,细颗粒物(PM2.5),97,,28,72,37,20,,104,70,76,34,6,9,1.1,0.7
2025-04-20T0000,2482A,109.5981,27.5721,怀化市,林科所,,21,21,24,8,10,56,,96,76,6,6,10,10,0.1,0.1
2025-04-20T0000,2483A,109.9453,27.5444,怀化市,河西地税局,,22,22,22,15,14,53,,104,79,11,9,9,9,0.4,0.4
2025-04-20T0000,2484A,109.9781,27.5342,怀化市,市四医院,,22,15,33,8,17,68,,110,90,4,9,5,10,0.5,0.5
2025-04-20T0000,2485A,109.9972,27.5578,怀化市,监测楼,,26,26,28,17,16,66,,108,88,3,6,10,10,0.4,0.4
2025-04-20T0000,2486A,110.0394,27.583,怀化市,市委党校,,,28,23,19,15,55,,102,79,,11,18,19,0.6,0.6
2025-04-20T0000,1210A,119.036,33.5981,淮安市,钵池山,细颗粒物(PM2.5),70,61,83,51,73,114,,141,126,17,17,8,7,0.3,0.5
2025-04-20T0000,1211A,119.007,33.575,淮安市,北京南路,细颗粒物(PM2.5),68,,79,49,74,115,,145,130,18,16,8,8,0.5,0.7
2025-04-20T0000,1212A,118.989,33.6067,淮安市,市监测站,细颗粒物(PM2.5),70,53,77,51,65,112,,140,126,14,13,7,7,0.7,0.8
2025-04-20T0000,1213A,119.135,33.5039,淮安市,楚州区监测站,细颗粒物(PM2.5),74,56,92,54,79,104,,132,116,18,15,8,8,0.6,0.8
2025-04-20T0000,3426A,118.8755,33.2894,淮安市,新华书店,颗粒物(PM10),54,58,97,37,52,112,,145,120,14,18,8,9,0.4,0.7
2025-04-20T0000,4206A,119.0288,33.6319,淮安市,承德北路606号,细颗粒物(PM2.5),88,73,93,65,80,107,,137,121,19,16,8,8,0.5,0.5
2025-04-20T0000,2282A,116.8004,33.975,淮北市,监测站,细颗粒物(PM2.5),72,70,66,52,42,90,,130,118,22,15,7,7,0.7,0.6
2025-04-20T0000,2283A,116.8091,33.9007,淮北市,烈山区政府,细颗粒物(PM2.5),75,92,79,55,39,77,,133,113,25,15,4,5,0.9,0.8
2025-04-20T0000,3330A,116.8873,33.9836,淮北市,杜集区检察院,颗粒物(PM10),101,151,82,58,44,44,,128,100,58,20,6,7,0.9,0.9
2025-04-20T0000,4017A,116.7923,33.9535,淮北市,市博物馆,细颗粒物(PM2.5),68,70,64,49,40,101,,130,120,21,16,7,6,0.9,0.8
2025-04-20T0000,2277A,116.8305,32.7727,淮南市,潘集区政府,细颗粒物(PM2.5),72,86,82,52,45,117,,128,113,13,16,5,6,0.6,0.5
2025-04-20T0000,2279A,116.8569,32.5951,淮南市,谢家集区政府,细颗粒物(PM2.5),75,68,68,55,49,131,,136,124,16,19,5,8,0.7,0.7
2025-04-20T0000,2280A,116.8281,32.633,淮南市,八公山区政府,细颗粒物(PM2.5),83,113,96,61,48,109,,133,118,16,14,6,7,0.6,0.5
2025-04-20T0000,2281A,116.6325,32.6201,淮南市,焦岗湖风景区管理处,,,,,,,,,,,,,,,,
2025-04-20T0000,2894A,117.0566,32.6531,淮南市,经济技术开发区消防队,细颗粒物(PM2.5),85,80,83,63,54,125,,132,124,15,17,5,7,0.6,0.6
2025-04-20T0000,3329A,117.0108,32.5893,淮南市,山南新区,细颗粒物(PM2.5),70,82,95,51,47,137,,142,138,11,11,8,9,0.9,0.8
2025-04-20T0000,4209A,117.0031,32.6445,淮南市,国庆中路369号,颗粒物(PM10),75,99,94,51,49,133,,134,129,10,12,9,10,0.5,0.4
2025-04-20T0000,2446A,114.9028,30.4742,黄冈市,职工中心,,45,43,66,31,36,86,,124,112,18,15,6,8,0.7,0.7
2025-04-20T0000,2929A,114.8858,30.4519,黄冈市,红卫路,颗粒物(PM10),62,74,77,40,35,68,,120,103,22,12,6,7,0.8,0.6
2025-04-20T0000,3398A,114.9136,30.4445,黄冈市,市林业局,颗粒物(PM10),67,84,79,40,34,67,,123,107,25,11,7,8,0.7,0.6
2025-04-20T0000,2672A,102.0199,35.5102,黄南藏族自治州,同仁县隆务镇,颗粒物(PM10),82,114,85,38,27,83,,115,100,2,6,7,6,0.2,0.1
2025-04-20T0000,2295A,118.2903,29.6963,黄山市,延安路89号,,49,49,52,23,32,6,,94,56,15,12,5,6,0.6,0.5
2025-04-20T0000,2297A,118.1371,30.2756,黄山市,黄山区政府5号楼,颗粒物(PM10),74,97,76,53,33,66,,136,122,10,7,4,4,0.9,0.6
2025-04-20T0000,4210A,118.3354,29.7203,黄山市,滨江东路7-2号,颗粒物(PM10),55,59,56,34,25,34,,95,56,12,14,5,5,0.7,0.6
2025-04-20T0000,2423A,115.0601,30.2313,黄石市,沈家营,颗粒物(PM10),86,122,103,47,37,74,,122,109,20,19,10,9,0.7,0.9
2025-04-20T0000,2426A,114.8988,30.2019,黄石市,铁山,颗粒物(PM10),110,169,107,55,44,44,,106,81,30,25,10,10,0.2,0.4
2025-04-20T0000,2427A,115.0307,30.2092,黄石市,团城山,颗粒物(PM10),80,110,95,38,34,91,,113,106,23,22,17,12,0.7,0.8
2025-04-20T0000,3149A,115.0235,30.1578,黄石市,笔架山北路,颗粒物(PM10),73,96,102,40,35,96,,117,106,13,15,9,10,0.7,0.8
2025-04-20T0000,4185A,115.0780,30.21118,黄石市,磁湖东路29号,颗粒物(PM10),71,92,97,45,43,113,,132,124,11,17,7,10,0.7,0.9
2025-04-20T0000,1392A,114.4183,23.0528,惠州市,河南岸金山湖子站,,40,40,28,23,17,23,,55,34,17,16,7,7,0.4,0.4
2025-04-20T0000,1393A,114.4053,23.0822,惠州市,下埔横江三路子站,,45,45,31,27,17,22,,60,36,18,15,7,7,0.6,0.6
2025-04-20T0000,1394A,114.4103,23.1142,惠州市,江北云山西路子站,颗粒物(PM10),51,52,34,20,15,22,,65,40,17,14,9,9,0.4,0.4
2025-04-20T0000,1395A,114.4645,22.7833,惠州市,惠阳区承修路船湖子站,,35,35,26,22,16,26,,49,34,13,12,7,7,0.5,0.5
2025-04-20T0000,1396A,114.5317,22.7422,惠州市,大亚湾管委会子站,,37,37,26,18,14,23,,48,33,18,13,7,6,0.7,0.6
2025-04-20T0000,3314A,114.4338,22.8134,惠州市,惠阳秋长,,29,29,24,20,15,29,,56,39,14,13,11,11,0.5,0.5
2025-04-20T0000,3452A,114.6517,22.775,惠州市,大亚湾霞涌,,23,22,25,16,14,30,,48,45,15,18,6,7,0.3,0.4
2025-04-20T0000,2240A,130.9762,45.3001,鸡西市,环保局,,39,39,40,25,24,96,,96,87,12,18,7,8,0.4,0.5
2025-04-20T0000,2243A,130.9429,45.3039,鸡西市,第一中学,,50,50,28,29,18,78,,98,87,21,14,8,9,0.4,0.5
2025-04-20T0000,3707A,131.0207,45.3073,鸡西市,欧美日汽修厂,细颗粒物(PM2.5),54,44,40,38,24,104,,92,88,7,15,5,7,0.4,0.5
2025-04-20T0000,3709A,130.9967,45.3106,鸡西市,市政设施管理处,,44,44,41,30,22,97,,91,84,10,19,7,8,0.5,0.5
2025-04-20T0000,2367A,114.9754,27.0803,吉安市,红声器材厂,,29,29,30,17,13,66,,96,80,8,8,13,9,0.5,0.5
2025-04-20T0000,2368A,114.9658,27.0999,吉安市,市森林工业局,,21,20,26,12,13,65,,92,80,9,8,10,9,0.3,0.4
2025-04-20T0000,2369A,114.99,27.1312,吉安市,市环境监测站,,21,21,22,8,11,67,,95,80,8,7,11,10,0.6,0.6
2025-04-20T0000,2370A,115.0093,27.0968,吉安市,青原区法院,,23,23,26,12,15,62,,100,80,7,7,11,12,0.3,0.4
2025-04-20T0000,1772A,126.54,43.8622,吉林市,哈达湾,颗粒物(PM10),52,54,30,32,19,67,,112,89,22,15,15,8,0.5,0.4
2025-04-20T0000,1773A,126.5844,43.8358,吉林市,东局子,细颗粒物(PM2.5),60,53,29,43,20,36,,112,79,41,18,8,6,0.7,0.5
2025-04-20T0000,1774A,126.5052,43.8245,吉林市,电力学院,细颗粒物(PM2.5),53,53,28,37,21,51,,114,88,21,15,5,5,0.5,0.4
2025-04-20T0000,1775A,126.6133,43.8972,吉林市,江北,细颗粒物(PM2.5),85,87,40,63,22,42,,112,74,20,15,6,6,0.8,0.6
2025-04-20T0000,1776A,126.555,43.8306,吉林市,江南公园,细颗粒物(PM2.5),53,53,29,37,19,54,,111,85,24,13,12,7,0.5,0.4
2025-04-20T0000,1778A,126.7061,43.7133,吉林市,丰满,,,,,,,,,,,,,,,,
2025-04-20T0000,2868A,126.4739,43.953,吉林市,九站,细颗粒物(PM2.5),53,44,31,37,22,54,,111,77,23,14,7,8,0.6,0.6
2025-04-20T0000,1299A,116.9862,36.6114,济南市,科干所,颗粒物(PM10),51,51,37,24,20,61,,85,85,29,19,8,6,0.6,0.3
2025-04-20T0000,1300A,116.9376,36.665,济南市,农科所,颗粒物(PM10),73,95,52,39,19,7,,106,72,80,26,7,7,0.6,0.4
2025-04-20T0000,1301A,117.1265,36.6734,济南市,开发区,颗粒物(PM10),73,95,48,29,26,30,,118,81,66,24,7,7,0.7,0.6
2025-04-20T0000,1303A,117.0624,36.6868,济南市,省种子仓库,颗粒物(PM10),93,136,64,51,27,5,,115,78,91,24,6,5,1.1,0.8
2025-04-20T0000,1304A,116.9489,36.6447,济南市,机床二厂,颗粒物(PM10),70,90,48,37,23,10,,106,75,80,28,8,8,0.8,0.4
2025-04-20T0000,1305A,117.0495,36.663,济南市,市监测站,颗粒物(PM10),63,76,49,37,24,31,,110,83,62,25,8,8,0.7,0.5
2025-04-20T0000,1306A,116.7675,36.5484,济南市,长清党校,颗粒物(PM10),55,59,45,29,25,34,,108,77,54,28,5,5,0.6,0.6
2025-04-20T0000,1616A,117.6795,36.229,济南市,技术学院,,46,46,39,31,28,76,,118,98,43,25,11,10,0.7,0.6
2025-04-20T0000,1961A,117.532,36.6868,济南市,东山小学,,49,49,53,20,24,67,,121,96,48,21,12,8,0.3,0.4
2025-04-20T0000,3059A,117.7161,36.2049,济南市,泰兴公司,细颗粒物(PM2.5),58,63,44,41,27,55,,121,96,60,24,8,8,0.7,0.6
2025-04-20T0000,3064A,117.6867,36.2171,济南市,莱芜战役纪念馆,,45,34,29,31,23,71,,119,102,44,24,5,5,0.6,0.6
2025-04-20T0000,3494A,117.1673,36.9782,济南市,济阳区政府,"颗粒物(PM10),细颗粒物(PM2.5)",64,78,37,46,19,85,,120,113,26,13,7,6,0.6,0.4
2025-04-20T0000,3495A,117.1171,36.63,济南市,锦屏中学,,37,37,37,17,17,45,,122,87,32,20,4,4,0.3,0.2
2025-04-20T0000,3682A,116.9814,36.6819,济南市,济南四建,颗粒物(PM10),76,102,44,44,23,12,,108,76,83,25,6,5,0.8,0.5
2025-04-20T0000,1653A,116.6251,35.4302,济宁市,火炬城,细颗粒物(PM2.5),77,61,42,56,31,47,,107,86,27,14,6,4,0.6,0.4
2025-04-20T0000,1655A,116.5491,35.4042,济宁市,电化厂,细颗粒物(PM2.5),58,62,43,41,29,61,,101,81,26,19,3,3,0.6,0.4
2025-04-20T0000,3500A,116.5814,35.3707,济宁市,北湖一中,颗粒物(PM10),52,53,44,22,21,68,,110,90,21,17,3,2,0.4,0.3
2025-04-20T0000,3501A,116.8249,35.5593,济宁市,服务中心,细颗粒物(PM2.5),59,50,38,42,26,39,,115,89,44,19,1,2,0.6,0.5
2025-04-20T0000,3678A,116.5907,35.4054,济宁市,市第七中学,细颗粒物(PM2.5),58,52,44,41,27,70,,112,95,15,6,6,4,0.6,0.4
2025-04-20T0000,2255A,130.2751,46.8028,佳木斯市,佳纺,,31,31,24,19,15,50,,91,54,16,12,8,7,0.6,0.5
2025-04-20T0000,2256A,130.3995,46.8307,佳木斯市,发电厂,,25,25,21,17,15,66,,96,61,8,11,3,4,0.4,0.4
2025-04-20T0000,2257A,130.3258,46.7975,佳木斯市,环保局,,27,27,27,17,16,62,,96,61,15,12,3,3,0.4,0.4
2025-04-20T0000,2258A,130.3648,46.8032,佳木斯市,十一中,,25,25,23,16,13,73,,93,66,11,12,6,6,0.5,0.5
2025-04-20T0000,2259A,130.3794,46.7588,佳木斯市,四丰,,34,34,17,18,12,52,,85,45,13,10,1,1,1.0,1
2025-04-20T0000,1252A,120.7436,30.778,嘉兴市,清河小学,细颗粒物(PM2.5),102,104,88,76,40,85,,141,120,20,23,6,6,1.2,1.1
2025-04-20T0000,1253A,120.726,30.7478,嘉兴市,嘉兴学院,细颗粒物(PM2.5),93,116,83,69,44,91,,147,121,18,21,6,6,0.8,0.7
2025-04-20T0000,2872A,120.7846,30.7525,嘉兴市,南湖区残联,细颗粒物(PM2.5),95,100,71,71,44,96,,156,129,19,19,6,6,0.8,0.7
2025-04-20T0000,3407A,120.6916,30.7739,嘉兴市,秀洲住建,颗粒物(PM10),95,139,112,49,38,109,,161,132,14,21,7,7,0.8,0.7
2025-04-20T0000,1945A,98.2908,39.7711,嘉峪关市,气象局,颗粒物(PM10),63,75,99,19,24,112,,130,121,9,15,5,13,0.2,0.4
2025-04-20T0000,2884A,98.2672,39.7978,嘉峪关市,酒钢宾馆,颗粒物(PM10),70,90,112,24,29,96,,119,105,21,19,25,25,0.9,0.7
2025-04-20T0000,3248A,98.2643,39.7724,嘉峪关市,雄关区,颗粒物(PM10),66,82,87,28,22,111,,127,120,11,19,7,9,0.3,0.6
2025-04-20T0000,1383A,113.1064,22.6058,江门市,北街,,25,24,29,17,17,36,,58,42,4,4,2,2,0.4,0.4
2025-04-20T0000,1384A,113.0731,22.5835,江门市,西区,,28,28,29,18,17,36,,54,40,10,11,7,7,0.4,0.4
2025-04-20T0000,1385A,113.0219,22.5311,江门市,圭峰西,,29,22,36,20,18,30,,50,40,14,12,4,4,0.4,0.4
2025-04-20T0000,1386A,113.0828,22.5947,江门市,东湖,,36,36,32,20,18,38,,57,44,10,10,7,7,0.4,0.4
2025-04-20T0000,3311A,113.1075,22.5647,江门市,江海富民,,42,42,41,22,16,33,,55,40,9,7,6,6,0.4,0.4
2025-04-20T0000,3449A,113.05,22.4667,江门市,新会银湖,,44,44,31,21,19,36,,53,43,9,8,3,3,0.3,0.3
2025-04-20T0000,1830A,113.1992,35.2590,焦作市,影视城,,,,54,,37,,,,,,13,,7,,0.6
2025-04-20T0000,3169A,113.2725,35.2067,焦作市,太极体育中心,细颗粒物(PM2.5),122,130,91,92,69,89,,116,107,12,11,4,3,0.6,0.3
2025-04-20T0000,3335A,113.3137,35.2641,焦作市,马村街道办,细颗粒物(PM2.5),118,127,89,89,67,72,,99,89,19,15,9,8,0.9,0.4
2025-04-20T0000,3336A,113.2465,35.2373,焦作市,焦作技师学院,细颗粒物(PM2.5),94,120,94,70,64,93,,114,106,18,16,7,7,0.7,0.7
2025-04-20T0000,3477A,113.1656,35.2539,焦作市,中站许衡医院,细颗粒物(PM2.5),83,88,90,61,71,97,,121,104,17,17,9,9,0.7,0.9
2025-04-20T0000,3981A,113.2449,35.1803,焦作市,原李万街道办,细颗粒物(PM2.5),98,113,95,73,61,83,,116,105,18,16,13,11,0.4,0.3
2025-04-20T0000,4264A,113.2340,35.2190,焦作市,新安路1731号,细颗粒物(PM2.5),118,155,102,89,67,88,,117,106,16,13,11,7,1.1,0.8
2025-04-20T0000,1708A,116.3701,23.5345,揭阳市,新兴,,36,29,37,25,24,18,,42,29,16,14,5,5,0.7,0.7
2025-04-20T0000,1709A,116.3264,23.5443,揭阳市,西马,颗粒物(PM10),52,53,44,29,21,11,,43,28,21,12,9,7,0.8,0.7
2025-04-20T0000,1710A,116.3611,23.5626,揭阳市,东兴,,33,33,36,22,22,18,,48,32,14,10,5,6,1.0,0.8
2025-04-20T0000,1711A,116.4151,23.5294,揭阳市,渔湖,,27,27,38,16,19,22,,43,32,11,12,3,4,0.7,0.6
2025-04-20T0000,3320A,116.403,23.5699,揭阳市,曲溪,,30,30,35,18,17,21,,48,35,15,15,20,16,0.6,0.5
2025-04-20T0000,1944A,102.1692,38.5167,金昌市,天庆家园,颗粒物(PM10),136,222,137,71,50,104,,111,105,7,13,18,20,0.7,0.7
2025-04-20T0000,4022A,102.1647,38.5371,金昌市,金川区人防中心,颗粒物(PM10),199,347,197,72,55,111,,114,106,8,14,14,25,0.4,0.5
2025-04-20T0000,4239A,102.1930,38.5319,金昌市,长春路96号,颗粒物(PM10),147,244,212,82,67,111,,111,106,3,13,13,51,0.5,0.6
2025-04-20T0000,1262A,119.647,29.077,金华市,十五中,细颗粒物(PM2.5),67,82,88,48,47,38,,92,59,34,30,2,3,0.8,0.7
2025-04-20T0000,1263A,119.686,29.1029,金华市,监测站,细颗粒物(PM2.5),73,73,84,53,48,44,,98,60,28,38,4,4,0.7,0.6
2025-04-20T0000,3659A,119.656,29.1131,金华市,气象局,细颗粒物(PM2.5),69,82,82,50,45,41,,92,56,29,42,2,1,0.7,0.6
2025-04-20T0000,1767A,121.1115,41.0879,锦州市,南山,细颗粒物(PM2.5),92,,24,68,36,32,,107,76,56,18,12,11,1.0,0.7
2025-04-20T0000,1768A,121.0604,40.8428,锦州市,开发区,细颗粒物(PM2.5),103,,44,77,39,5,,86,41,84,42,14,15,1.3,0.8
2025-04-20T0000,1769A,121.1836,41.1119,锦州市,百股街道,,49,34,22,34,15,8,,101,61,58,26,6,3,1.4,0.6
2025-04-20T0000,1770A,121.1178,41.1222,锦州市,天安街道,细颗粒物(PM2.5),77,,27,56,22,23,,96,72,57,20,12,11,1.2,0.7
2025-04-20T0000,1771A,121.1303,41.1386,锦州市,北湖公园,细颗粒物(PM2.5),79,,25,58,24,40,,102,79,48,20,9,10,1.1,0.6
2025-04-20T0000,2160A,112.85,35.5051,晋城市,自来水公司,颗粒物(PM10),70,89,88,34,45,114,,150,142,15,17,7,11,0.6,1.2
2025-04-20T0000,2161A,112.8318,35.4936,晋城市,白云商贸,颗粒物(PM10),72,93,90,41,46,109,,148,139,20,19,7,10,0.6,1.2
2025-04-20T0000,2162A,112.8508,35.4887,晋城市,市环保局,颗粒物(PM10),77,103,90,34,43,99,,140,131,18,16,5,7,0,0.6
2025-04-20T0000,2163A,112.8676,35.4897,晋城市,技术学院,颗粒物(PM10),76,101,87,29,38,102,,146,138,25,20,6,9,0.6,1.1
2025-04-20T0000,2165A,112.8453,35.546,晋城市,白马寺,,,,79,,54,,,152,148,,14,,11,,1.3
2025-04-20T0000,3620A,112.8271,35.4828,晋城市,泽州一中,细颗粒物(PM2.5),85,87,77,63,51,106,,154,143,20,17,11,12,0.7,1.2
2025-04-20T0000,2173A,112.7249,37.7067,晋中市,南都小区,颗粒物(PM10),60,69,83,36,44,85,,132,107,23,22,9,7,0.5,0.9
2025-04-20T0000,2174A,112.6991,37.6982,晋中市,榆次区政府,颗粒物(PM10),62,73,85,28,41,84,,131,110,26,26,9,7,0.5,0.6
2025-04-20T0000,2865A,112.7195,37.6828,晋中市,榆次三中,颗粒物(PM10),65,80,85,36,46,90,,138,112,23,26,9,6,0.7,0.7
2025-04-20T0000,4200A,112.7478,37.6954,晋中市,迎宾街26号,颗粒物(PM10),64,78,80,29,37,82,,126,105,20,22,8,6,0.6,0.6
2025-04-20T0000,2439A,112.2014,31.0481,荆门市,竹园小学,细颗粒物(PM2.5),68,77,91,49,57,78,,123,111,19,15,4,6,0.6,0.5
2025-04-20T0000,2440A,112.1969,30.9891,荆门市,掇刀,细颗粒物(PM2.5),62,69,88,44,49,136,,144,142,13,12,12,11,0.5,0.4
2025-04-20T0000,2441A,112.2213,31.0386,荆门市,石化一小,细颗粒物(PM2.5),72,86,96,52,58,66,,118,111,30,16,6,8,0.9,0.8
2025-04-20T0000,3012A,112.1849,31.0362,荆门市,西山林语,"颗粒物(PM10),细颗粒物(PM2.5)",59,67,79,42,50,126,,126,126,8,10,8,7,0.3,0.3
2025-04-20T0000,3547A,112.1632,31.0138,荆门市,龙泉中学南校,颗粒物(PM10),52,54,75,33,38,89,,122,114,16,11,9,7,0.5,0.7
2025-04-20T0000,1844A,112.2494,30.3197,荆州市,市图书馆,颗粒物(PM10),58,65,69,33,38,76,,126,106,27,13,4,5,0.7,0.7
2025-04-20T0000,1845A,112.2008,30.3544,荆州市,市委党校,颗粒物(PM10),68,86,72,39,38,40,,118,86,39,14,6,7,0.7,0.6
2025-04-20T0000,3194A,112.2747,30.3122,荆州市,管委会,细颗粒物(PM2.5),63,65,66,45,42,52,,117,90,31,15,5,6,0.8,0.7
2025-04-20T0000,4268A,112.1722,30.3366,荆州市,学苑路85号,细颗粒物(PM2.5),89,75,62,66,45,50,,117,88,26,16,3,3,0.6,0.6
2025-04-20T0000,2342A,117.3102,29.3867,景德镇市,王港中学,,,,,,,,,,,,,,,,
2025-04-20T0000,2343A,117.2117,29.2933,景德镇市,老干部活动中心,,27,27,42,14,18,71,,93,81,16,19,21,11,0.4,0.5
2025-04-20T0000,2344A,117.1894,29.2789,景德镇市,兽医站,,45,45,50,18,20,59,,87,74,20,19,24,8,0.3,0.4
2025-04-20T0000,2345A,117.1547,29.2617,景德镇市,台达陶瓷,,32,28,53,22,26,62,,87,74,15,22,12,21,0.6,0.6
2025-04-20T0000,2346A,117.2461,29.2956,景德镇市,陶研所,,32,26,41,22,22,30,,86,58,10,16,6,8,0.4,0.5
2025-04-20T0000,1803A,115.9872,29.6815,九江市,十里,颗粒物(PM10),77,104,88,53,48,125,,143,135,11,24,5,6,0.9,0.7
2025-04-20T0000,1804A,115.9584,29.7046,九江市,茅山头,颗粒物(PM10),80,109,100,48,46,130,,127,123,15,42,8,11,1.0,0.8
2025-04-20T0000,1805A,115.9877,29.7295,九江市,西园,颗粒物(PM10),74,97,86,50,40,129,,120,115,22,61,9,12,1.0,1
2025-04-20T0000,1808A,115.9114,29.6038,九江市,综合工业园,颗粒物(PM10),83,116,96,51,42,133,,133,126,18,34,17,12,1.1,0.9
2025-04-20T0000,1809A,116.0721,29.7535,九江市,石化总厂,颗粒物(PM10),81,111,97,58,50,103,,116,114,29,32,8,12,1.1,0.9
2025-04-20T0000,1810A,115.9773,29.5698,九江市,庐山气象台,细颗粒物(PM2.5),60,61,70,43,41,135,,129,129,10,10,6,8,0.7,0.9
2025-04-20T0000,3190A,116.0254,29.6994,九江市,外国语学校,颗粒物(PM10),73,95,81,49,45,112,,124,121,18,25,6,9,1.0,0.9
2025-04-20T0000,4253A,116.0102,29.6594,九江市,莲花大道8号,细颗粒物(PM2.5),117,111,87,88,62,111,,125,122,11,12,10,6,0.9,0.7
2025-04-20T0000,4240A,98.4958,39.7339,酒泉市,玉门东路5号,颗粒物(PM10),63,75,104,31,30,106,,124,114,7,10,8,10,0.3,0.3
2025-04-20T0000,4241A,98.5099,39.7506,酒泉市,北大街108号,颗粒物(PM10),56,61,94,26,25,108,,130,118,8,13,10,11,0.3,0.4
2025-04-20T0000,2698A,76.0072,39.4467,喀什地区,巡警大队,颗粒物(PM10),315,432,1929,23,398,78,,64,64,14,21,3,3,0.4,0.5
2025-04-20T0000,2699A,75.9755,39.4694,喀什地区,吾办,颗粒物(PM10),401,501,1675,97,626,73,,63,63,17,26,3,3,0.6,0.6
2025-04-20T0000,4027A,75.9483,39.4689,喀什地区,老干局,颗粒物(PM10),338,450,1721,91,401,75,,64,64,12,18,2,2,0.4,0.4
2025-04-20T0000,1824A,114.3389,34.7781,开封市,肿瘤医院,细颗粒物(PM2.5),57,62,38,40,25,51,,122,93,33,11,7,7,0.5,0.5
2025-04-20T0000,1826A,114.2885,34.7965,开封市,世纪星幼儿园,细颗粒物(PM2.5),59,63,41,42,34,60,,137,109,33,16,4,4,0.7,0.7
2025-04-20T0000,3147A,114.3438,34.8106,开封市,龙亭公园,,46,46,37,27,24,66,,120,96,24,14,2,2,0.8,0.7
2025-04-20T0000,3210A,114.3644,34.7964,开封市,汴京公园,颗粒物(PM10),61,71,49,38,29,47,,117,86,29,12,2,3,0.9,0.8
2025-04-20T0000,3473A,114.2485,34.8306,开封市,技师学院,细颗粒物(PM2.5),83,,44,61,40,79,,116,107,19,15,4,4,0.9,0.9
2025-04-20T0000,3592A,114.4644,34.7556,开封市,祥符区生态环境局,颗粒物(PM10),65,80,48,34,25,6,,91,50,83,25,7,7,0.7,0.6
2025-04-20T0000,1951A,84.895,45.6094,克拉玛依市,长征新村,,24,11,25,9,7,74,,73,71,5,6,7,7,0.2,0.2
2025-04-20T0000,1952A,84.8988,45.5893,克拉玛依市,南林小区,,25,16,25,10,10,80,,80,78,7,4,3,2,0.3,0.3
2025-04-20T0000,1954A,84.905,44.3396,克拉玛依市,独山子区,,41,41,50,8,19,66,,77,74,6,6,7,8,0.2,0.2
2025-04-20T0000,1955A,85.6979,46.098,克拉玛依市,乌尔禾区商贸楼,颗粒物(PM10),69,87,24,17,7,80,,90,89,4,2,6,6,0.3,0.3
2025-04-20T0000,3612A,85.1045,45.6899,克拉玛依市,白碱滩区新站,,26,14,26,3,7,81,,78,78,2,3,10,10,0.3,0.3
2025-04-20T0000,2697A,76.1454,39.7142,克孜勒苏柯尔克孜自治州,市人民政府,颗粒物(PM10),500,1185,1867,251,488,83,,79,68,6,7,5,6,0.2,0.3
2025-04-20T0000,3665A,76.1658,39.7157,克孜勒苏柯尔克孜自治州,克州文化中心,细颗粒物(PM2.5),248,337,2167,198,497,112,,75,74,2,6,7,8,0.3,0.3
2025-04-20T0000,1450A,102.8204,24.8886,昆明市,呈贡新区,,46,32,33,32,24,90,,136,111,20,14,5,5,0.5,0.5
2025-04-20T0000,1451A,102.6251,24.9608,昆明市,西山森林公园,,,,,,,,,,,,,,,,
2025-04-20T0000,1452A,102.7252,25.0902,昆明市,龙泉镇,,50,50,30,17,15,25,,131,90,65,30,7,8,0.5,0.4
2025-04-20T0000,1453A,102.7266,25.0375,昆明市,东风东路,,32,32,28,22,20,99,,140,114,16,15,10,11,0.4,0.5
2025-04-20T0000,1454A,102.6742,25.0669,昆明市,金鼎山,,35,35,27,24,20,88,,143,113,27,17,7,6,0.4,0.3
2025-04-20T0000,1455A,102.6644,25.0401,昆明市,碧鸡广场,,48,48,42,26,21,64,,131,94,42,26,9,8,0.4,0.4
2025-04-20T0000,3179A,102.7494,25.0119,昆明市,官渡区博物馆,,35,33,27,24,19,91,,140,114,18,12,9,10,0.4,0.4
2025-04-20T0000,3375A,102.8017,24.8336,昆明市,青年创业园,,40,40,30,18,19,91,,134,113,18,10,9,8,0.5,0.4
2025-04-20T0000,3550A,102.7997,24.9786,昆明市,昆明学院,,38,38,30,25,18,94,,141,116,17,11,5,7,0.3,0.3
2025-04-20T0000,3551A,102.5967,24.6736,昆明市,晋宁区生态环境分局,,34,22,21,17,17,106,,124,114,7,8,6,7,0.7,0.7
2025-04-20T0000,3552A,102.6678,24.9856,昆明市,云天化总部,,33,31,26,20,17,103,,131,114,10,12,9,10,0.3,0.4
2025-04-20T0000,1456A,91.1319,29.6514,拉萨市,八廓街,,36,15,28,10,12,113,,143,132,11,11,6,7,0.5,0.6
2025-04-20T0000,1457A,91.1221,29.6747,拉萨市,市环保局,,35,22,33,11,14,112,,139,127,11,19,2,4,0.4,0.5
2025-04-20T0000,1458A,91.0874,29.6475,拉萨市,区监测站,,37,19,27,8,13,117,,138,130,7,20,5,6,0.6,0.7
2025-04-20T0000,1459A,91.1774,29.6541,拉萨市,西藏大学,,37,11,25,10,11,118,,139,131,6,11,6,7,0.2,0.2
2025-04-20T0000,1460A,90.9798,29.6588,拉萨市,区辐射站,,35,18,26,10,11,111,,133,121,10,15,8,9,0.4,0.4
2025-04-20T0000,1461A,91.0834,29.6292,拉萨市,拉萨火车站,,37,11,26,10,11,118,,135,128,4,14,4,4,0.3,0.4
2025-04-20T0000,2520A,109.2203,23.7256,来宾市,来宾技工学校,,30,22,50,21,30,73,,120,99,7,6,5,8,0.8,0.7
2025-04-20T0000,3535A,109.1781,23.7297,来宾市,兴宾区政府,细颗粒物(PM2.5),54,49,51,38,34,63,,114,94,21,8,6,5,0.7,0.7
2025-04-20T0000,4002A,109.2416,23.7461,来宾市,中南小学,,39,39,51,23,30,66,,107,88,7,7,8,8,0.6,0.7
2025-04-20T0000,1477A,104.1373,35.9454,兰州市,榆中兰大校区,,,,,,,,,,,,,,,,
2025-04-20T0000,1479A,103.831,36.0464,兰州市,铁路设计院,颗粒物(PM10),112,174,257,54,79,30,,116,54,65,53,8,15,0.6,0.8
2025-04-20T0000,3241A,103.7439,36.0842,兰州市,百合公园,颗粒物(PM10),149,247,225,84,64,3,,121,62,87,42,7,9,1.0,0.6
2025-04-20T0000,3242A,103.9611,35.998,兰州市,和平,颗粒物(PM10),166,282,297,114,103,88,,120,104,10,13,9,15,0.6,0.6
2025-04-20T0000,4236A,103.6293,36.0938,兰州市,庄浪东路808号,颗粒物(PM10),157,264,242,94,83,17,,140,66,83,45,11,18,0.6,0.6
2025-04-20T0000,4237A,103.7251,36.1043,兰州市,安宁西路88号,颗粒物(PM10),167,283,262,90,84,3,,146,82,88,36,7,13,0.6,0.5
2025-04-20T0000,4238A,103.8470,36.0676,兰州市,北滨河东路1号,颗粒物(PM10),150,249,260,76,80,20,,133,83,82,41,10,18,0.9,0.9
2025-04-20T0000,3245A,103.6633,36.533,兰州新区,新区管委会,颗粒物(PM10),108,165,178,52,67,97,,133,114,10,13,77,20,0.5,0.4
2025-04-20T0000,3246A,103.6975,36.4789,兰州新区,舟曲中学,颗粒物(PM10),136,222,249,69,78,101,,139,116,15,19,20,18,0.3,0.4
2025-04-20T0000,1067A,116.6708,39.5111,廊坊市,药材公司,细颗粒物(PM2.5),79,86,46,58,35,66,,109,93,31,17,2,2,0.5,0.4
2025-04-20T0000,1068A,116.7214,39.5589,廊坊市,开发区,颗粒物(PM10),65,79,49,39,29,86,,114,105,29,20,1,2,0.3,0.3
2025-04-20T0000,1070A,116.7244,39.5269,廊坊市,北华航天学院,颗粒物(PM10),68,86,59,41,42,83,,113,103,24,12,7,4,0.4,0.4
2025-04-20T0000,2919A,116.7022,39.5453,廊坊市,河北工业大学,颗粒物(PM10),77,104,55,47,36,82,,113,104,24,13,6,4,0.3,0.4
2025-04-20T0000,2535A,103.7723,29.5462,乐山市,花湖湾,颗粒物(PM10),67,84,64,42,34,128,,148,140,10,9,10,7,0.5,0.5
2025-04-20T0000,2536A,103.7627,29.5844,乐山市,牛耳桥,颗粒物(PM10),67,83,65,44,34,70,,147,120,36,15,7,7,0.6,0.5
2025-04-20T0000,2537A,103.7508,29.6006,乐山市,市第三水厂,颗粒物(PM10),70,89,66,37,31,50,,143,116,41,15,5,5,0.6,0.5
2025-04-20T0000,2538A,103.7571,29.5664,乐山市,市监测站,,,82,64,39,33,67,,139,119,,18,7,7,0.7,0.6
2025-04-20T0000,3361A,103.7311,29.5628,乐山市,理工大学,颗粒物(PM10),61,71,61,35,33,119,,150,134,12,11,7,5,0.5,0.5
2025-04-20T0000,2598A,100.2143,26.8576,丽江市,西南郊,,,,21,,10,,,118,112,,5,,5,,0.8
2025-04-20T0000,2599A,100.2497,26.8802,丽江市,丽江古城,,30,22,22,10,12,94,,111,99,6,11,6,8,0.4,0.4
2025-04-20T0000,2600A,100.2203,26.8906,丽江市,市中心,,27,,22,9,11,86,,107,92,5,11,5,5,0.3,0.3
2025-04-20T0000,1267A,119.914,28.4514,丽水市,监测站大楼,,34,34,44,19,26,11,,77,37,26,20,3,3,0.7,0.6
2025-04-20T0000,1268A,119.93,28.4586,丽水市,莲都小学,,38,38,44,17,21,8,,75,38,34,21,4,3,0.6,0.5
2025-04-20T0000,1269A,119.879,28.4231,丽水市,余庄前,,31,31,49,17,31,0,,65,20,15,17,3,3,0.6,0.6
2025-04-20T0000,1173A,119.176,34.5885,连云港市,市环境监测站,细颗粒物(PM2.5),67,68,83,48,56,127,,141,132,16,18,7,9,0.5,0.8
2025-04-20T0000,3000A,119.3581,34.6972,连云港市,德源药业,细颗粒物(PM2.5),64,53,74,46,51,118,,135,125,22,19,9,9,0.5,0.7
2025-04-20T0000,3007A,119.178,34.844,连云港市,新城一中,颗粒物(PM10),77,103,120,36,46,114,,132,124,27,28,8,10,0.6,0.9
2025-04-20T0000,3008A,119.3608,34.7519,连云港市,胡沟管理处,"颗粒物(PM10),细颗粒物(PM2.5)",52,53,62,36,41,84,,111,91,61,39,15,13,0.6,0.7
2025-04-20T0000,3009A,119.1478,34.5911,连云港市,矿山设计院,细颗粒物(PM2.5),64,75,93,46,53,119,,138,127,22,25,9,11,0.6,0.9
2025-04-20T0000,3434A,119.2413,34.6539,连云港市,工贸学校,,50,50,64,34,48,101,,140,128,19,19,9,11,0.7,1.1
2025-04-20T0000,3664A,119.4172,34.7341,连云港市,连云街道,,39,39,64,25,40,120,,138,134,15,23,6,7,0.4,0.6
2025-04-20T0000,2571A,102.3431,27.8099,凉山彝族自治州,青龙寺,,28,15,17,3,7,89,,127,112,9,5,7,7,0.4,0.4
2025-04-20T0000,2572A,102.2721,27.8415,凉山彝族自治州,邛海宾馆,,37,21,32,8,13,116,,122,111,6,11,8,5,0.4,0.5
2025-04-20T0000,2573A,102.2625,27.898,凉山彝族自治州,西昌市政府,,32,14,22,9,12,101,,123,107,7,10,8,9,0.4,0.5
2025-04-20T0000,2574A,102.2685,27.8851,凉山彝族自治州,凉山州政府,,32,16,20,9,12,100,,121,106,11,12,6,6,0.4,0.5
2025-04-20T0000,4229A,102.2342,27.8859,凉山彝族自治州,凯乐南路30号,,29,19,26,6,14,92,,112,97,13,15,9,9,0.5,0.6
2025-04-20T0000,2212A,123.2,41.1953,辽阳市,宏伟区,细颗粒物(PM2.5),68,65,33,49,28,26,,88,68,37,16,12,12,1.2,0.9
2025-04-20T0000,2213A,123.1683,41.2495,辽阳市,新华园,颗粒物(PM10),68,86,43,48,36,7,,91,61,56,26,11,10,1.3,1.1
2025-04-20T0000,2214A,123.2354,41.2639,辽阳市,滨河路,细颗粒物(PM2.5),52,37,35,36,29,34,,76,56,28,26,23,12,0.8,1
2025-04-20T0000,2215A,123.149,41.2991,辽阳市,铁西工业园,细颗粒物(PM2.5),120,126,55,91,45,4,,82,48,63,30,16,12,1.3,1
2025-04-20T0000,2227A,125.1358,42.8845,辽源市,环保局,细颗粒物(PM2.5),57,58,36,40,18,31,,123,92,40,22,6,6,0.7,0.5
2025-04-20T0000,3239A,125.0764,42.9078,辽源市,银鹰制药,细颗粒物(PM2.5),64,56,32,46,23,22,,128,90,46,24,5,6,0.6,0.5
2025-04-20T0000,1625A,115.9848,36.4372,聊城市,区政府,颗粒物(PM10),62,73,47,40,27,47,,120,90,41,19,9,12,0.9,0.8
2025-04-20T0000,2878A,116.0072,36.4343,聊城市,聊大东校,细颗粒物(PM2.5),72,70,57,52,34,52,,114,82,40,23,8,11,0.7,0.5
2025-04-20T0000,3200A,115.9819,36.4978,聊城市,监控中心,细颗粒物(PM2.5),64,73,45,46,26,12,,113,73,76,24,6,7,0.6,0.5
2025-04-20T0000,3513A,116.0445,36.4361,聊城市,九州社区,颗粒物(PM10),62,74,52,41,27,64,,121,89,32,19,5,9,0.5,0.5
2025-04-20T0000,4018A,116.0567,36.4608,聊城市,星美广场,颗粒物(PM10),66,82,59,31,23,57,,112,86,37,22,9,13,0.7,0.7
2025-04-20T0000,2632A,94.3681,29.6376,林芝市,林芝监测站,,30,9,17,8,8,95,,113,106,4,6,5,5,0.5,0.5
2025-04-20T0000,2633A,94.3616,29.6616,林芝市,林芝人民医院,,27,15,22,8,9,86,,107,100,1,3,5,5,0.5,0.4
2025-04-20T0000,2603A,100.0781,23.8982,临沧市,市环保局,细颗粒物(PM2.5),67,,35,48,26,75,,114,103,17,12,6,7,0.7,0.6
2025-04-20T0000,2604A,100.0894,23.8822,临沧市,市气象局,,48,44,30,33,25,94,,124,109,11,11,7,8,0.6,0.6
2025-04-20T0000,1733A,111.5531,36.0783,临汾市,临钢医院,,,,,,,,,,,,,,,,
2025-04-20T0000,1734A,111.5028,36.0714,临汾市,技工学校,颗粒物(PM10),86,121,97,53,58,62,,150,124,34,20,8,8,1.0,1
2025-04-20T0000,1736A,111.5018,36.0855,临汾市,市委,颗粒物(PM10),92,133,101,38,47,53,,154,123,49,23,8,8,0.9,0.9
2025-04-20T0000,3018A,111.505,36.1014,临汾市,唐尧大酒店,颗粒物(PM10),96,142,107,41,49,37,,140,98,56,30,10,11,0.9,0.9
2025-04-20T0000,4244A,111.4879,36.0530,临汾市,启星学校,颗粒物(PM10),90,129,95,50,54,60,,147,122,37,22,6,8,0.8,0.9
2025-04-20T0000,4271A,103.2464,35.6123,临夏回族自治州,滨河东路1号,颗粒物(PM10),166,282,324,103,100,0,,119,71,92,24,12,9,0.9,0.5
2025-04-20T0000,4310A,103.2093,35.5995,临夏回族自治州,新华街21号,颗粒物(PM10),127,204,250,90,97,47,,122,94,36,22,7,4,0.6,0.5
2025-04-20T0000,1618A,118.3429,35.0532,临沂市,沂河小区,细颗粒物(PM2.5),64,68,79,46,49,104,,128,112,19,22,8,9,0.6,0.7
2025-04-20T0000,1619A,118.295,35.0583,临沂市,鲁南制药厂,颗粒物(PM10),52,53,73,31,38,106,,137,119,22,24,10,11,0.3,0.4
2025-04-20T0000,1620A,118.2794,34.9976,临沂市,新光毛纺厂,细颗粒物(PM2.5),55,56,76,39,44,113,,135,121,38,30,8,8,0.4,0.6
2025-04-20T0000,1621A,118.3956,35.0888,临沂市,河东保险公司,"颗粒物(PM10),细颗粒物(PM2.5)",59,68,67,42,41,92,,130,111,30,26,2,3,0.5,0.6
2025-04-20T0000,3370A,118.3564,35.0215,临沂市,十里堡居委,细颗粒物(PM2.5),52,51,67,36,42,111,,132,116,20,25,3,4,0.4,0.6
2025-04-20T0000,3496A,118.3604,35.1084,临沂市,南坊新区,颗粒物(PM10),62,73,83,36,43,104,,130,114,20,23,7,7,0.8,0.8
2025-04-20T0000,3860A,118.3920,35.0300,临沂市,皇山花园小区,细颗粒物(PM2.5),62,56,73,44,47,102,,130,112,22,23,8,8,0.6,0.8
2025-04-20T0000,1870A,109.4856,24.3895,柳州市,柳东小学,,32,32,44,20,29,79,,128,106,16,14,11,11,0.6,0.6
2025-04-20T0000,1871A,109.4157,24.3277,柳州市,环保监测站,,45,45,53,28,33,76,,118,99,10,10,10,10,0.8,0.9
2025-04-20T0000,1872A,109.389,24.341,柳州市,河西水厂,,49,49,65,26,31,73,,119,98,11,11,5,6,0.7,0.7
2025-04-20T0000,1873A,109.4311,24.2921,柳州市,市四中,,42,41,62,29,33,69,,105,91,14,13,8,8,0.6,0.7
2025-04-20T0000,1874A,109.4006,24.3631,柳州市,市九中,颗粒物(PM10),52,54,55,20,30,77,,119,98,9,10,11,10,0.7,0.8
2025-04-20T0000,1875A,109.4958,24.3134,柳州市,古亭山,,42,42,61,22,30,77,,118,102,7,7,7,7,0.6,0.6
2025-04-20T0000,3402A,109.5422,24.3996,柳州市,市二中,,30,30,48,20,28,55,,115,86,19,13,12,12,0.4,0.5
2025-04-20T0000,2307A,116.5079,31.737,六安市,监测大楼,,40,39,71,28,39,91,,132,121,18,14,5,6,0.5,0.5
2025-04-20T0000,2308A,116.4738,31.7643,六安市,皖西学院,颗粒物(PM10),52,54,80,30,39,90,,131,120,19,13,6,6,0.6,0.6
2025-04-20T0000,2309A,116.4996,31.7905,六安市,朝阳厂,细颗粒物(PM2.5),59,,69,42,38,64,,124,106,39,17,4,4,0.4,0.4
2025-04-20T0000,2310A,116.5567,31.7886,六安市,开发区,颗粒物(PM10),53,55,86,33,37,68,,128,106,55,21,5,6,0.5,0.5
2025-04-20T0000,2576A,104.8,26.5892,六盘水市,窑上,,,,36,,26,,,118,64,,7,,6,,0.4
2025-04-20T0000,2577A,104.83,26.5917,六盘水市,黄土坡,,45,34,32,31,22,65,,139,95,20,14,8,10,0.4,0.5
2025-04-20T0000,2578A,104.89,26.5939,六盘水市,水钢,,30,30,44,14,20,88,,137,98,22,22,12,16,1.4,1
2025-04-20T0000,2579A,104.8475,26.5894,六盘水市,民中,,28,19,28,12,18,89,,138,97,9,13,8,10,0.5,0.5
2025-04-20T0000,2580A,104.9544,26.5506,六盘水市,双水,,34,34,35,9,13,83,,148,118,9,10,8,9,0.1,0.2
2025-04-20T0000,2335A,117.0189,25.1181,龙岩市,龙岩师专,,,,,,,,,,,,,,,,
2025-04-20T0000,2336A,117.0217,25.1033,龙岩市,龙岩市监测站,,19,9,25,7,20,60,,60,60,13,13,4,4,0.4,0.5
2025-04-20T0000,2337A,117.0258,25.0661,龙岩市,闽西职业技术学院,,16,14,27,11,20,49,,53,53,16,13,3,5,0.4,0.5
2025-04-20T0000,2338A,117.0196,25.0306,龙岩市,龙岩学院,,16,9,28,3,16,51,,60,59,8,9,5,5,0.4,0.5
2025-04-20T0000,2665A,105.0822,33.3261,陇南市,汉王镇固水子,,,,,,,,,,,,,,,,
2025-04-20T0000,2885A,104.9339,33.3826,陇南市,滨江中学,颗粒物(PM10),62,74,178,38,63,131,,109,109,2,6,8,9,0.4,0.4
2025-04-20T0000,3247A,104.955,33.371,陇南市,市总工会,颗粒物(PM10),59,68,184,31,80,155,,130,130,4,6,6,6,0.5,0.4
2025-04-20T0000,2487A,111.9589,27.8901,娄底市,电视发射台,,38,38,43,13,16,20,,62,45,4,5,1,2,0.3,0.3
2025-04-20T0000,2488A,111.9975,27.725,娄底市,市监测站,,46,46,32,25,19,84,,81,77,22,23,10,10,0.6,0.6
2025-04-20T0000,2489A,112.0194,27.7314,娄底市,市委党校,,46,42,34,32,23,86,,80,80,6,8,3,3,0.5,0.5
2025-04-20T0000,2490A,111.9561,27.7569,娄底市,涟钢,,40,35,41,28,25,72,,77,70,14,16,12,16,0.4,0.6
2025-04-20T0000,2491A,111.9892,27.7044,娄底市,市政府,,35,35,31,19,16,74,,81,76,8,9,2,2,0.5,0.4
2025-04-20T0000,1893A,105.4324,28.9634,泸州市,九狮山,,,,,,,,,,,,,,,,
2025-04-20T0000,1894A,105.4427,28.9063,泸州市,小市上码头,颗粒物(PM10),59,68,61,26,24,51,,85,72,31,25,8,6,0.6,0.6
2025-04-20T0000,1895A,105.4241,28.8573,泸州市,兰田宪桥,,45,45,41,29,29,51,,140,107,22,10,8,8,0.7,0.6
2025-04-20T0000,1896A,105.4379,28.8833,泸州市,市环监站,,,,,,,,,,,,,,,,
2025-04-20T0000,4272A,105.3689,28.7783,泸州市,纳溪中医医院,颗粒物(PM10),59,67,47,23,20,31,,129,81,34,16,6,6,0.8,0.7
2025-04-20T0000,2183A,111.1406,37.5211,吕梁市,环保局,颗粒物(PM10),103,155,81,55,36,13,,121,63,96,35,10,11,0.6,0.4
2025-04-20T0000,2185A,111.1297,37.5136,吕梁市,自来水公司,颗粒物(PM10),88,125,75,45,36,57,,121,87,51,25,7,7,0.7,0.6
2025-04-20T0000,2867A,111.1283,37.51,吕梁市,马茂庄小学,颗粒物(PM10),100,150,87,62,38,66,,121,88,52,31,6,5,0.8,0.6
2025-04-20T0000,1812A,112.3931,34.6516,洛阳市,市委党校,颗粒物(PM10),81,111,72,58,43,69,,133,110,25,14,3,4,0.9,0.8
2025-04-20T0000,1815A,112.494,34.6886,洛阳市,河南林校,细颗粒物(PM2.5),132,110,77,100,64,60,,139,106,29,19,5,4,0.7,0.6
2025-04-20T0000,1816A,112.3844,34.623,洛阳市,开发区管委会,细颗粒物(PM2.5),109,144,84,82,53,86,,139,122,16,9,6,8,0.6,0.6
2025-04-20T0000,1817A,112.4267,34.6258,洛阳市,市委新办公区,颗粒物(PM10),94,137,83,69,43,64,,138,112,31,17,4,6,1.0,0.9
2025-04-20T0000,3340A,112.6005,34.6326,洛阳市,伊滨,细颗粒物(PM2.5),100,127,71,75,52,50,,137,104,37,20,5,6,0.7,0.7
2025-04-20T0000,3341A,112.4951,34.6332,洛阳市,中移产业园,细颗粒物(PM2.5),115,139,88,87,51,55,,139,104,32,18,6,6,0.9,0.8
2025-04-20T0000,3593A,112.5736,34.8993,洛阳市,吉利监测站,细颗粒物(PM2.5),95,79,84,71,62,60,,138,109,27,17,6,5,0.8,0.8
2025-04-20T0000,3635A,112.3677,34.662,洛阳市,河科大西苑校区,细颗粒物(PM2.5),102,128,83,76,51,70,,138,111,25,14,8,9,0.7,0.6
2025-04-20T0000,3636A,112.4388,34.6781,洛阳市,英才小学,细颗粒物(PM2.5),92,129,82,68,46,61,,142,106,32,20,6,5,0.9,0.9
2025-04-20T0000,4214A,112.4600,34.6949,洛阳市,春都路1号院,细颗粒物(PM2.5),100,90,66,75,47,64,,150,107,27,16,4,3,0.9,0.9
2025-04-20T0000,2399A,114.051,33.5699,漯河市,三五一五工厂,,,,,32,31,41,,106,83,34,12,4,4,0.8,0.7
2025-04-20T0000,2400A,114.0055,33.5698,漯河市,漯河大学,颗粒物(PM10),61,72,52,41,36,16,,114,86,62,11,6,5,0.5,0.4
2025-04-20T0000,2401A,114.0138,33.5828,漯河市,市水利局,颗粒物(PM10),59,68,45,39,31,41,,108,85,30,8,6,4,0.5,0.5
2025-04-20T0000,2402A,114.0261,33.5698,漯河市,市广电局,颗粒物(PM10),58,66,46,34,33,41,,108,89,33,11,7,4,0.7,0.6
2025-04-20T0000,3478A,113.9749,33.5664,漯河市,市图书馆,"颗粒物(PM10),细颗粒物(PM2.5)",62,74,48,44,26,28,,107,83,43,15,4,3,0.6,0.5
2025-04-20T0000,4250A,114.0892,33.5882,漯河市,韶山路11号,细颗粒物(PM2.5),67,68,51,48,30,42,,104,73,35,17,8,3,0.6,0.5
2025-04-20T0000,1798A,118.5092,31.6837,马鞍山市,湖东路四小,细颗粒物(PM2.5),84,69,103,62,66,130,,183,153,14,23,9,14,0.8,1.1
2025-04-20T0000,1799A,118.5024,31.6449,马鞍山市,开发区,细颗粒物(PM2.5),109,,119,82,87,130,,187,155,16,27,8,12,0.8,1.1
2025-04-20T0000,1802A,118.6245,31.7241,马鞍山市,濮塘,颗粒物(PM10),71,92,107,44,55,120,,191,155,11,16,8,11,0.7,0.8
2025-04-20T0000,3633A,118.4918,31.6809,马鞍山市,雨山,"颗粒物(PM10),细颗粒物(PM2.5)",64,78,104,46,56,132,,178,150,12,24,8,13,0.9,1.2
2025-04-20T0000,4191A,118.5274,31.72227,马鞍山市,慈湖高新区,细颗粒物(PM2.5),85,103,127,63,63,131,,176,148,13,29,8,13,0.7,0.9
2025-04-20T0000,1686A,111.0286,21.4688,茂名市,电白南海,,35,34,38,24,20,31,,44,37,10,9,1,1,0.6,0.7
2025-04-20T0000,1687A,110.9294,21.6533,茂名市,茂石化七小,,39,39,44,14,17,30,,56,40,8,9,2,2,0.6,0.7
2025-04-20T0000,1688A,110.9107,21.6687,茂名市,健康路,,39,39,45,9,21,35,,64,45,5,7,2,2,0.7,0.7
2025-04-20T0000,1689A,110.8592,21.6828,茂名市,高岭,,39,39,47,9,16,32,,63,42,7,9,3,3,0.6,0.6
2025-04-20T0000,3450A,111.01,21.5165,茂名市,电白水东,,24,24,28,14,12,33,,48,41,11,11,1,1,0.5,0.5
2025-04-20T0000,2539A,104.0308,30.0478,眉山市,黑龙滩水库,颗粒物(PM10),55,59,45,22,14,94,,160,143,7,6,2,3,0.4,0.3
2025-04-20T0000,2540A,103.8416,30.0874,眉山市,气象局,颗粒物(PM10),69,87,72,36,28,117,,155,143,17,18,4,5,0.6,0.6
2025-04-20T0000,3137A,103.8578,30.0744,眉山市,市委党校,颗粒物(PM10),67,83,61,31,23,108,,146,134,22,18,8,9,0.8,0.7
2025-04-20T0000,3148A,103.8291,30.0564,眉山市,区人社局,颗粒物(PM10),56,62,55,29,25,113,,148,135,21,19,10,13,0.8,0.8
2025-04-20T0000,1690A,116.1231,24.3284,梅州市,梅江月梅,,15,11,25,10,19,34,,57,45,22,11,5,4,0.5,0.5
2025-04-20T0000,1691A,116.0797,24.2719,梅州市,梅县新城,,15,10,26,7,19,45,,51,46,12,13,5,6,0.6,0.6
2025-04-20T0000,1692A,116.1248,24.2654,梅州市,环境监控中心,,15,,25,10,20,37,,49,47,18,17,6,7,0.5,0.5
2025-04-20T0000,3315A,116.1233,24.2991,梅州市,梅龙,,12,,21,8,14,35,,53,48,21,11,6,6,0.5,0.5
2025-04-20T0000,1878A,104.7778,31.4741,绵阳市,富乐山,颗粒物(PM10),79,108,73,50,32,119,,145,134,14,14,14,9,0.5,0.5
2025-04-20T0000,1880A,104.6697,31.4668,绵阳市,高新区自来水公司,颗粒物(PM10),79,107,67,44,30,123,,146,126,16,21,6,5,0.4,0.4
2025-04-20T0000,1881A,104.7287,31.5075,绵阳市,三水厂,颗粒物(PM10),83,115,77,42,33,117,,144,127,20,22,10,8,0.5,0.5
2025-04-20T0000,3491A,104.69,31.5322,绵阳市,西科大附属小学,颗粒物(PM10),80,110,79,41,32,129,,152,136,17,25,8,8,0.6,0.6
2025-04-20T0000,3492A,104.5648,31.5343,绵阳市,安州区旅游局,颗粒物(PM10),75,100,75,39,30,66,,165,133,33,22,7,10,0.7,0.5
2025-04-20T0000,4226A,104.7651,31.4531,绵阳市,绵阳市气象局,颗粒物(PM10),85,120,74,47,33,120,,141,131,14,17,8,5,0.5,0.5
2025-04-20T0000,1784A,129.61,44.561,牡丹江市,环保大楼,,32,27,21,22,15,47,,94,70,21,14,6,5,0.4,0.3
2025-04-20T0000,1785A,129.6115,44.5782,牡丹江市,文化广场,,43,35,27,30,22,51,,92,70,21,18,10,10,0.6,0.5
2025-04-20T0000,1786A,129.5904,44.5963,牡丹江市,第一医院,细颗粒物(PM2.5),57,,27,40,20,39,,96,66,16,11,5,5,0.5,0.4
2025-04-20T0000,1787A,129.6364,44.6075,牡丹江市,机车工厂,细颗粒物(PM2.5),54,49,32,38,19,45,,97,70,17,14,20,11,0.6,0.5
2025-04-20T0000,1788A,129.6386,44.5462,牡丹江市,第一中学,,33,24,22,23,14,26,,97,68,33,13,7,7,0.5,0.5
2025-04-20T0000,2531A,105.0703,29.61,内江市,市监测站,细颗粒物(PM2.5),68,77,79,49,40,60,,162,134,48,15,8,7,0.7,0.6
2025-04-20T0000,2532A,105.0717,29.5947,内江市,东兴区政府,细颗粒物(PM2.5),57,53,71,40,32,75,,149,134,30,12,9,9,0.7,0.5
2025-04-20T0000,2533A,105.0653,29.5817,内江市,内江二中,细颗粒物(PM2.5),73,74,85,53,41,65,,144,123,37,17,8,8,0.7,0.5
2025-04-20T0000,2534A,105.0406,29.5822,内江市,内江日报社,细颗粒物(PM2.5),67,73,80,48,41,39,,148,122,76,17,11,9,0.6,0.4
2025-04-20T0000,2628A,92.0657,31.4846,那曲市,那曲监测站,,47,47,42,26,22,67,,117,95,31,20,6,6,1.1,0.8
2025-04-20T0000,4243A,92.0515,31.4787,那曲市,那曲市委宣传部,,32,32,48,17,22,92,,129,111,16,14,6,6,0.4,0.5
2025-04-20T0000,1290A,115.8931,28.6843,南昌市,省外办,,49,45,40,34,24,48,,76,60,25,26,6,5,0.5,0.5
2025-04-20T0000,1291A,115.8886,28.7003,南昌市,省林业公司,,45,39,32,31,20,51,,78,61,14,20,12,8,0.6,0.6
2025-04-20T0000,1292A,115.8126,28.7442,南昌市,林科所,,44,44,34,27,21,15,,77,44,38,34,3,2,0.4,0.4
2025-04-20T0000,1294A,115.8518,28.687,南昌市,建工学校,,48,44,35,33,22,37,,84,65,33,25,5,3,0.8,0.7
2025-04-20T0000,1295A,115.8921,28.6424,南昌市,象湖,,45,45,30,29,16,37,,93,66,26,20,17,7,0.7,0.6
2025-04-20T0000,1296A,115.7423,28.7996,南昌市,武术学校,,32,,30,22,21,0,,80,22,2,4,12,12,0.8,0.7
2025-04-20T0000,3046A,115.9084,28.6062,南昌市,机电学校,颗粒物(PM10),56,61,30,36,16,15,,82,49,37,18,3,2,0.5,0.4
2025-04-20T0000,3690A,115.9721,28.7031,南昌市,外国语学校,,43,43,39,29,20,54,,93,69,17,17,11,10,0.5,0.5
2025-04-20T0000,4192A,115.9316,28.68677,南昌市,南京东路235号,细颗粒物(PM2.5),58,60,45,41,22,46,,89,67,29,24,13,9,0.8,0.7
2025-04-20T0000,1905A,106.056,30.8064,南充市,西山风景区,颗粒物(PM10),69,88,98,48,42,139,,160,157,20,8,6,6,0.8,0.5
2025-04-20T0000,1906A,106.0789,30.8023,南充市,南充市委,颗粒物(PM10),82,114,126,54,51,78,,161,147,42,18,5,5,0.8,0.5
2025-04-20T0000,1907A,106.1031,30.8217,南充市,南充炼油厂,细颗粒物(PM2.5),89,115,126,66,53,117,,157,149,22,16,6,6,0.7,0.5
2025-04-20T0000,4227A,106.1083,30.7884,南充市,梨树横街98号,颗粒物(PM10),87,123,130,47,39,84,,154,141,46,18,6,4,0.6,0.3
2025-04-20T0000,4304A,106.1172,30.843,南充市,清泉寺北路188号,,,120,122,,40,119,,159,152,18,15,6,6,0.5,0.3
2025-04-20T0000,4305A,106.067,30.7616,南充市,同庆路1号,细颗粒物(PM2.5),77,97,112,56,56,96,,146,134,27,16,4,5,0.5,0.4
2025-04-20T0000,1151A,118.8086,32.1065,南京市,迈皋桥,颗粒物(PM10),57,64,78,36,45,108,,168,136,26,38,4,6,0.4,0.6
2025-04-20T0000,1152A,118.7538,32.0551,南京市,草场门,"颗粒物(PM10),细颗粒物(PM2.5)",58,66,94,41,49,113,,167,140,18,25,5,7,0.6,0.9
2025-04-20T0000,1153A,118.7794,32.0745,南京市,山西路,细颗粒物(PM2.5),77,78,108,56,56,115,,171,142,20,29,4,7,0.3,0.6
2025-04-20T0000,1154A,118.7752,32.0023,南京市,中华门,"颗粒物(PM10),细颗粒物(PM2.5)",67,83,102,48,51,102,,152,125,2,16,11,14,0.3,0.3
2025-04-20T0000,1155A,118.8109,32.0309,南京市,瑞金路,颗粒物(PM10),69,88,110,46,51,108,,169,137,15,18,7,6,0.2,0.4
2025-04-20T0000,1156A,118.7997,32.0754,南京市,玄武湖,细颗粒物(PM2.5),70,68,96,51,52,107,,161,135,12,13,6,7,0.5,0.7
2025-04-20T0000,1157A,118.6414,32.0931,南京市,浦口,细颗粒物(PM2.5),69,77,86,50,47,123,,164,143,19,22,7,7,0.7,0.7
2025-04-20T0000,1158A,118.7356,31.9996,南京市,奥体中心,颗粒物(PM10),75,100,113,48,51,120,,172,149,18,25,9,11,0.6,0.8
2025-04-20T0000,1159A,118.9125,32.1028,南京市,仙林大学城,细颗粒物(PM2.5),77,70,98,56,58,98,,168,134,25,26,10,13,0.9,1
2025-04-20T0000,3422A,118.8436,31.9198,南京市,江宁彩虹桥,细颗粒物(PM2.5),62,63,74,44,45,120,,136,136,14,16,4,4,0.7,0.8
2025-04-20T0000,3427A,118.8554,32.3578,南京市,六合雄州,细颗粒物(PM2.5),60,67,108,43,51,108,,153,132,4,10,6,6,0.6,0.7
2025-04-20T0000,4249A,118.8708,31.3402,南京市,汶溪路181号,颗粒物(PM10),76,102,81,36,48,124,,188,156,19,25,5,6,0.6,0.7
2025-04-20T0000,4312A,119.019,31.6512,南京市,中山西路1号,颗粒物(PM10),58,66,87,36,45,117,,210,159,16,22,5,9,0.6,0.8
2025-04-20T0000,1401A,108.3103,22.7881,南宁市,二十一中,,39,30,49,27,28,67,,116,85,12,11,3,4,0.6,0.7
2025-04-20T0000,1402A,108.3141,22.8528,南宁市,北湖,颗粒物(PM10),55,59,52,35,30,70,,124,89,10,10,5,6,0.5,0.6
2025-04-20T0000,1403A,108.3206,22.8225,南宁市,市监测站,,43,38,52,30,29,64,,108,79,8,9,4,5,0.5,0.5
2025-04-20T0000,1404A,108.3829,22.8037,南宁市,大自然花园,,39,38,46,27,27,74,,119,90,6,6,5,6,0.6,0.6
2025-04-20T0000,1405A,108.4394,22.7904,南宁市,仙葫,,40,31,48,28,29,67,,98,75,5,6,6,6,0.6,0.7
2025-04-20T0000,1406A,108.2397,22.8467,南宁市,区农职院,,50,,58,35,31,67,,118,82,13,14,4,4,0.6,0.7
2025-04-20T0000,1407A,108.3275,22.735,南宁市,英华嘉园,,43,43,47,30,27,61,,116,81,17,12,8,8,0.6,0.6
2025-04-20T0000,3401A,108.4834,22.7618,南宁市,红星社区,,43,37,47,30,33,79,,124,91,5,6,8,8,0.8,0.9
2025-04-20T0000,4221A,108.2177,22.7774,南宁市,乐贤路16号,,42,37,53,29,28,52,,107,73,17,16,7,8,0.5,0.6
2025-04-20T0000,2331A,118.0966,26.6761,南平市,茫荡山,,,,,,,,,,,,,,,,
2025-04-20T0000,2332A,118.1681,26.6369,南平市,南平市监测站,,23,20,40,16,31,28,,75,54,19,22,3,4,0.7,0.8
2025-04-20T0000,2333A,118.1825,26.6489,南平市,南平铝业有限公司,,23,,49,16,32,29,,76,53,22,24,4,4,0.7,0.8
2025-04-20T0000,2334A,118.1756,26.6272,南平市,南平七中,,28,,43,19,35,25,,73,50,21,19,4,5,0.6,0.7
2025-04-20T0000,1168A,120.9098,31.9663,南通市,狼山街道,颗粒物(PM10),55,59,62,26,29,130,,134,123,12,26,4,5,0.8,0.9
2025-04-20T0000,1169A,120.86,32.0005,南通市,虹桥,"颗粒物(PM10),细颗粒物(PM2.5)",58,65,68,41,36,130,,139,130,13,27,1,3,0.2,0.4
2025-04-20T0000,1170A,120.87,32.02,南通市,城中,细颗粒物(PM2.5),55,54,65,39,28,131,,137,129,14,25,2,4,0.6,0.7
2025-04-20T0000,1171A,120.94,31.93,南通市,星湖花园,,45,45,57,31,29,128,,137,123,21,32,3,5,0.5,0.6
2025-04-20T0000,1172A,120.81,32.0417,南通市,紫琅学院,细颗粒物(PM2.5),57,52,59,40,30,127,,133,126,14,26,4,5,0.4,0.6
2025-04-20T0000,3291A,121.067,32.062,南通市,通州监测站,颗粒物(PM10),54,58,55,29,23,129,,120,120,6,11,4,5,0.5,0.7
2025-04-20T0000,3432A,120.9348,31.9883,南通市,环境教育馆,细颗粒物(PM2.5),55,46,60,39,30,137,,139,130,9,20,3,4,0.2,0.3
2025-04-20T0000,2404A,112.5224,33.0122,南阳市,瓦房庄,颗粒物(PM10),64,78,69,37,32,72,,118,103,20,14,4,5,0.6,0.6
2025-04-20T0000,2405A,112.5003,32.9735,南阳市,汉画馆,颗粒物(PM10),57,63,59,36,35,66,,112,97,28,17,5,5,0.6,0.6
2025-04-20T0000,2406A,112.5573,33.027,南阳市,气象站,"颗粒物(PM10),细颗粒物(PM2.5)",62,73,66,44,38,67,,120,103,24,14,5,4,0.6,0.6
2025-04-20T0000,2407A,112.5481,32.9689,南阳市,理工学院,颗粒物(PM10),61,72,61,36,31,52,,118,99,38,15,4,3,0.7,0.6
2025-04-20T0000,4008A,112.5234,32.9922,南阳市,卧龙区政府,细颗粒物(PM2.5),70,67,62,51,38,77,,122,107,24,16,4,4,0.7,0.6
2025-04-20T0000,1234A,121.8358,29.911,宁波市,区环保大楼,颗粒物(PM10),59,67,42,32,18,6,,71,11,63,32,9,9,0.6,0.6
2025-04-20T0000,1235A,121.56,29.82,宁波市,万里学院,细颗粒物(PM2.5),62,56,44,44,22,21,,101,68,50,14,8,7,0.7,0.5
2025-04-20T0000,1236A,121.713,29.9572,宁波市,龙赛医院,颗粒物(PM10),54,58,45,18,18,22,,88,22,36,23,10,11,0.5,0.6
2025-04-20T0000,1239A,121.633,29.7733,宁波市,钱湖水厂,"颗粒物(PM10),细颗粒物(PM2.5)",54,58,35,38,19,25,,94,69,41,9,8,8,0.7,0.6
2025-04-20T0000,1240A,121.5856,29.8635,宁波市,太古小学,颗粒物(PM10),68,85,47,36,21,19,,99,59,49,16,10,9,0.7,0.7
2025-04-20T0000,1241A,121.524,29.8674,宁波市,市环境监测中心,颗粒物(PM10),70,90,52,44,21,20,,97,52,59,25,12,10,1.0,0.9
2025-04-20T0000,2871A,121.6147,29.9017,宁波市,万里国际学校,颗粒物(PM10),80,110,65,36,22,22,,97,35,39,18,10,8,0.6,0.6
2025-04-20T0000,3710A,121.5594,29.8975,宁波市,白沙活动中心,"颗粒物(PM10),细颗粒物(PM2.5)",58,66,41,41,22,24,,103,47,41,20,10,8,0.7,0.6
2025-04-20T0000,2339A,119.5001,26.6946,宁德市,金涵水库,,,,,,,,,,,,,,,,
2025-04-20T0000,2341A,119.5388,26.6612,宁德市,宁德市监测站,,28,,61,19,42,20,,86,48,31,23,4,6,0.7,0.8
2025-04-20T0000,3209A,119.5231,26.6562,宁德市,宁德一中,,26,,61,18,49,33,,94,55,12,15,5,6,0.5,0.8
2025-04-20T0000,2618A,98.8601,25.8567,怒江傈僳族自治州,州监测站,,39,39,34,23,22,104,,108,96,5,8,8,9,0.3,0.3
2025-04-20T0000,2619A,98.8546,25.8417,怒江傈僳族自治州,泸水一中,,45,45,33,27,23,88,,93,78,9,12,6,6,0.3,0.3
2025-04-20T0000,1888A,101.6891,26.571,攀枝花市,弄弄坪,,40,40,33,12,15,110,,130,116,11,13,5,7,0.4,0.5
2025-04-20T0000,1889A,101.5769,26.5928,攀枝花市,河门口,,35,31,41,18,24,112,,142,114,14,17,18,16,1.2,0.8
2025-04-20T0000,1890A,101.7169,26.585,攀枝花市,炳草岗,,36,36,35,14,16,111,,134,118,11,19,12,15,0.3,0.4
2025-04-20T0000,1891A,101.7369,26.5008,攀枝花市,仁和,,35,24,24,13,15,112,,131,111,10,11,8,8,0.4,0.4
2025-04-20T0000,2835A,101.7227,26.567,攀枝花市,四十中小,,40,29,27,14,15,126,,141,126,5,10,6,10,0.4,0.5
2025-04-20T0000,1604A,122.0303,41.1489,盘锦市,开发区,,39,,21,27,28,90,,99,90,15,19,8,8,0.5,0.4
2025-04-20T0000,1605A,122.0485,41.0883,盘锦市,兴隆台,,39,,23,27,30,87,,88,84,15,22,8,9,0.6,0.5
2025-04-20T0000,1606A,121.8297,41.1028,盘锦市,新生街道,,28,,14,19,22,82,,110,99,17,21,7,8,0.5,0.4
2025-04-20T0000,1832A,113.3257,33.742,平顶山市,新华旅馆,颗粒物(PM10),84,117,72,49,42,31,,120,87,44,20,5,5,0.7,0.5
2025-04-20T0000,1833A,113.2919,33.737,平顶山市,规划设计院,,,,67,,46,,,118,100,,16,,4,,0.6
2025-04-20T0000,1834A,113.182,33.774,平顶山市,平顶山工学院,细颗粒物(PM2.5),79,93,69,58,42,59,,120,99,26,15,3,6,0.5,0.5
2025-04-20T0000,3204A,113.3025,33.73,平顶山市,规划局,颗粒物(PM10),71,92,64,51,35,67,,122,101,27,15,6,5,0.5,0.4
2025-04-20T0000,3594A,112.8867,33.9116,平顶山市,石龙区,细颗粒物(PM2.5),80,93,87,59,48,74,,127,111,20,18,5,6,0.4,0.5
2025-04-20T0000,2656A,106.6692,35.5461,平凉市,聚贤嘉苑,颗粒物(PM10),101,151,219,46,59,150,,138,138,26,22,10,8,0.8,0.5
2025-04-20T0000,2657A,106.7021,35.5307,平凉市,博物馆,颗粒物(PM10),110,169,233,48,68,169,,144,144,13,19,13,12,0.6,0.5
2025-04-20T0000,2347A,114.0997,27.5002,萍乡市,武功山,,9,6,14,3,10,18,,83,49,5,6,14,14,0.9,0.7
2025-04-20T0000,2348A,113.8385,27.6434,萍乡市,中医院,,31,31,22,11,10,19,,85,61,21,8,10,10,1.1,0.9
2025-04-20T0000,2349A,113.8493,27.6253,萍乡市,市政府车库,,25,18,17,17,23,21,,83,55,18,12,6,6,0.8,0.7
2025-04-20T0000,2350A,113.8676,27.6435,萍乡市,市环保局,,32,32,24,19,17,17,,84,63,26,12,6,6,1.0,0.9
2025-04-20T0000,2351A,113.866,27.6198,萍乡市,安源区政府,,32,23,28,22,13,24,,75,52,15,12,12,14,0.9,0.9
2025-04-20T0000,2319A,119.0141,25.4325,莆田市,荔城区仓后路,,22,7,61,3,30,70,,62,54,9,27,3,3,0.5,0.6
2025-04-20T0000,2320A,119.0015,25.4553,莆田市,莆田市监测站,,20,6,64,3,31,61,,74,49,6,16,4,5,0.4,0.4
2025-04-20T0000,2321A,119.1119,25.4561,莆田市,涵江区六中,,19,9,58,3,33,58,,70,50,22,27,4,6,0.4,0.5
2025-04-20T0000,2322A,119.1013,25.3215,莆田市,秀屿区政府,,24,11,46,3,24,74,,54,54,8,16,4,6,0.5,0.5
2025-04-20T0000,2323A,118.981,25.4792,莆田市,东圳水库,,,,,,,,,,,,,,,,
2025-04-20T0000,2392A,115.0312,35.7636,濮阳市,环保局,细颗粒物(PM2.5),58,48,34,41,25,50,,125,93,31,14,6,6,0.8,0.6
2025-04-20T0000,2394A,115.0574,35.7609,濮阳市,油田运输公司,颗粒物(PM10),85,120,50,46,25,56,,129,99,32,18,5,5,1.0,0.7
2025-04-20T0000,3021A,115,35.7668,濮阳市,濮水河管理处,细颗粒物(PM2.5),69,68,39,50,26,21,,122,72,26,15,3,4,1.0,0.7
2025-04-20T0000,4216A,115.0924,35.7686,濮阳市,任丘路479号,细颗粒物(PM2.5),69,80,46,50,29,72,,131,105,20,10,5,6,0.8,0.6
2025-04-20T0000,2601A,100.98,22.7633,普洱市,市环保局,,,,43,24,17,,,116,,,9,,2,,0.6
2025-04-20T0000,2602A,100.9817,22.8322,普洱市,普洱第二中学,,42,41,31,29,20,79,,126,104,14,19,7,7,0.7,0.5
2025-04-20T0000,2262A,131.0518,45.8751,七台河市,新一中,,44,44,24,30,14,78,,109,97,13,12,10,12,0.8,0.7
2025-04-20T0000,3345A,131.0577,45.7879,七台河市,中波台,,42,40,23,29,11,61,,89,81,24,14,10,6,0.6,0.5
2025-04-20T0000,3637A,131.0176,45.7761,七台河市,人民广场,,50,50,30,29,20,80,,97,87,18,15,9,9,0.6,0.5
2025-04-20T0000,3684A,130.8781,45.8222,七台河市,新建矿广场,,46,36,38,32,18,65,,92,74,14,17,7,7,0.7,0.5
2025-04-20T0000,1779A,123.9305,47.3636,齐齐哈尔市,安居小区,细颗粒物(PM2.5),60,66,27,43,11,50,,84,62,21,16,4,4,0.5,0.4
2025-04-20T0000,1780A,123.9488,47.3386,齐齐哈尔市,中心广场,细颗粒物(PM2.5),67,80,35,48,12,57,,84,63,25,17,8,6,0.4,0.2
2025-04-20T0000,1781A,123.9483,47.3227,齐齐哈尔市,农牧车辆厂,颗粒物(PM10),60,70,31,38,12,48,,86,57,24,15,6,5,0.3,0.1
2025-04-20T0000,1783A,123.945,47.2988,齐齐哈尔市,市环境监测站,颗粒物(PM10),57,64,29,38,16,35,,85,55,37,15,3,2,0.6,0.4
2025-04-20T0000,3662A,123.6333,47.2075,齐齐哈尔市,富区青少年活动中心,细颗粒物(PM2.5),156,135,48,119,23,31,,86,65,48,16,6,3,1.0,0.6
2025-04-20T0000,2591A,107.9783,26.5747,黔东南苗族侗族自治州,市环境监测站,,28,20,24,14,16,87,,126,106,8,7,4,3,0.5,0.4
2025-04-20T0000,2881A,107.8908,26.5311,黔东南苗族侗族自治州,凯里学院,,31,,15,15,18,98,,134,114,7,6,3,2,0.2,0.2
2025-04-20T0000,2593A,107.5228,26.2403,黔南布依族苗族自治州,小围寨,,32,,21,9,13,100,,149,126,5,5,3,5,0.4,0.4
2025-04-20T0000,3538A,107.5175,26.2978,黔南布依族苗族自治州,沙坝,,28,9,26,7,13,87,,149,112,6,7,3,5,0.6,0.5
2025-04-20T0000,2589A,104.9022,25.0925,黔西南布依族苗族自治州,场坝街,细颗粒物(PM2.5),57,58,32,40,20,55,,144,98,28,19,2,9,0.4,0.3
2025-04-20T0000,2590A,104.8811,25.0992,黔西南布依族苗族自治州,坪东大道,,46,46,26,28,13,45,,134,81,37,20,3,4,0.4,0.3
2025-04-20T0000,2502A,108.6236,21.9667,钦州市,市环保站,,24,24,50,14,20,48,,81,47,12,16,2,3,0.8,1
2025-04-20T0000,2503A,108.6549,21.9481,钦州市,沙埠小学,,34,34,58,16,26,37,,82,43,23,17,7,8,0.9,1.1
2025-04-20T0000,2504A,108.5989,21.7431,钦州市,港区一小,,48,48,66,18,24,25,,61,35,27,19,9,8,1.0,0.6
2025-04-20T0000,3404A,108.5959,21.9633,钦州市,北职校,,31,31,51,19,29,48,,73,46,10,14,6,8,0.3,0.5
2025-04-20T0000,1043A,119.7493,40.0116,秦皇岛市,第一关,细颗粒物(PM2.5),52,44,40,36,30,3,,98,54,83,40,4,4,0.4,0.6
2025-04-20T0000,1044A,119.5897,39.9499,秦皇岛市,监测站,颗粒物(PM10),80,110,45,48,25,4,,100,59,78,26,4,3,0.9,0.7
2025-04-20T0000,1046A,119.5251,39.9041,秦皇岛市,建设大厦,颗粒物(PM10),60,70,41,41,22,44,,106,73,59,33,2,2,0.5,0.6
2025-04-20T0000,3132A,119.610547,39.943889,秦皇岛市,文明里,颗粒物(PM10),79,107,50,41,24,3,,86,52,86,32,3,3,0.7,0.6
2025-04-20T0000,4198A,119.5090,39.8253,秦皇岛市,北戴河轮滑馆,细颗粒物(PM2.5),70,80,39,51,26,42,,90,73,30,18,3,2,0.5,0.5
2025-04-20T0000,1307A,120.6659,36.2403,青岛市,仰口,细颗粒物(PM2.5),52,42,51,36,36,78,,122,104,17,14,6,6,0.4,0.4
2025-04-20T0000,1310A,120.4134,36.0658,青岛市,市南区东部子站,细颗粒物(PM2.5),70,83,77,51,37,73,,108,94,29,26,8,8,0.4,0.4
2025-04-20T0000,1311A,120.3664,36.1032,青岛市,四方区子站,细颗粒物(PM2.5),62,63,58,44,34,101,,122,104,25,21,7,7,0.6,0.6
2025-04-20T0000,1312A,120.2994,36.054,青岛市,市南区西部子站,细颗粒物(PM2.5),68,75,53,49,29,50,,110,86,61,30,7,8,0.7,0.7
2025-04-20T0000,1313A,120.4581,36.0858,青岛市,崂山区子站,细颗粒物(PM2.5),70,88,72,51,35,81,,113,106,20,22,9,9,0.5,0.6
2025-04-20T0000,1315A,120.3999,36.3083,青岛市,城阳区子站,颗粒物(PM10),52,53,60,24,26,42,,116,78,47,21,9,9,0.7,0.6
2025-04-20T0000,1966A,120.0405,35.8735,青岛市,黄岛区4号,颗粒物(PM10),54,58,49,36,24,104,,118,102,23,24,9,8,0.7,0.7
2025-04-20T0000,3362A,120.5014,36.4034,青岛市,即墨2号,颗粒物(PM10),52,54,50,33,28,60,,119,95,32,17,9,8,0.6,0.6
2025-04-20T0000,3642A,120.3503,36.0736,青岛市,市北区南部,细颗粒物(PM2.5),67,57,58,48,33,73,,101,84,26,21,9,8,0.7,0.7
2025-04-20T0000,3643A,120.3948,36.1805,青岛市,李沧区北部,细颗粒物(PM2.5),62,58,57,44,33,88,,113,86,34,29,8,8,0.6,0.6
2025-04-20T0000,4290A,120.1969,35.9546,青岛市,珠江路669号,细颗粒物(PM2.5),77,88,64,56,35,93,,112,84,28,39,7,8,0.6,0.6
2025-04-20T0000,1702A,113.0426,23.691,清远市,环保大楼,颗粒物(PM10),66,82,76,24,28,8,,54,31,35,26,5,8,0.9,0.9
2025-04-20T0000,1703A,113.0208,23.7106,清远市,凤城街办,,47,47,49,22,24,7,,40,23,40,32,4,5,0.7,0.7
2025-04-20T0000,3025A,113.0477,23.6344,清远市,技师学院,,48,48,42,25,24,4,,50,28,43,28,8,7,0.6,0.4
2025-04-20T0000,3318A,112.9903,23.7403,清远市,清新太和,,44,44,43,26,26,15,,44,31,33,26,8,7,0.6,0.6
2025-04-20T0000,3455A,113.076,23.7198,清远市,清城东城,,50,50,44,28,24,11,,43,26,32,23,7,6,0.7,0.9
