timepoint,stationcode,longitude,latitude,area,positionname,primarypollutant,aqi,pm10,pm10_24h,pm2_5,pm2_5_24h,o3,o3_24h,o3_8h,o3_8h_24h,no2,no2_24h,so2,so2_24h,co,co_24h
2025-06-22T1500,2566A,102.1879,31.914,阿坝藏族羌族自治州,州农科所,,30,21,17,3,6,95,,64,64,10,11,13,12,0.4,0.5
2025-06-22T1500,2568A,102.2502,31.8896,阿坝藏族羌族自治州,马师校,,38,,17,10,18,119,,70,70,3,8,6,6,0.4,0.5
2025-06-22T1500,3994A,102.2165,31.9024,阿坝藏族羌族自治州,马尔康中学西区,,36,9,17,8,16,113,,72,72,8,10,6,6,0.5,0.5
2025-06-22T1500,2695A,80.292,41.1694,阿克苏地区,电视台,,46,46,116,17,41,99,,106,96,6,11,8,7,0.6,0.6
2025-06-22T1500,2696A,80.2613,41.1551,阿克苏地区,艺术中心,,45,45,125,18,43,105,,110,106,2,11,3,3,0.3,0.3
2025-06-22T1500,2204A,105.6467,38.8363,阿拉善盟,西城区西花园,,46,21,76,16,41,147,,132,132,7,8,6,6,0.9,0.9
2025-06-22T1500,2205A,105.6985,38.8411,阿拉善盟,蒙二幼,,44,37,127,20,37,138,,127,127,8,9,9,10,0.6,0.6
2025-06-22T1500,2206A,105.724,38.8516,阿拉善盟,环保局新楼,,48,48,105,19,32,133,,120,120,4,5,9,9,0.5,0.5
2025-06-22T1500,2708A,88.1264,47.8517,阿勒泰地区,市站,,34,22,18,3,5,106,,86,86,6,7,1,1,0.2,0.3
2025-06-22T1500,2630A,80.1161,32.5,阿里地区,阿里监测站,,42,6,10,3,7,133,,96,96,3,16,8,8,0.3,0.4
2025-06-22T1500,3192A,80.0903,32.5028,阿里地区,阿里藏医院,,44,19,16,3,9,140,,113,113,6,6,7,8,0.4,0.4
2025-06-22T1500,2642A,109.0318,32.6537,安康市,香溪洞,,40,29,16,12,8,127,,87,87,3,3,5,5,0.6,0.6
2025-06-22T1500,2644A,109.0072,32.6975,安康市,汉滨区检察院,,37,21,21,16,11,117,,75,75,4,7,5,7,0.4,0.4
2025-06-22T1500,4054A,109.0325,32.6913,安康市,市邮政管理局,,37,24,24,17,13,117,,79,79,6,11,4,7,0.4,0.4
2025-06-22T1500,2291A,117.0809,30.5177,安庆市,环科院,,31,6,4,3,4,99,,92,92,4,4,3,2,0.6,0.5
2025-06-22T1500,2292A,117.0331,30.5119,安庆市,马山宾馆,,29,6,6,3,5,92,,87,87,5,5,4,4,0.6,0.5
2025-06-22T1500,2294A,116.9896,30.6145,安庆市,安庆大学,,30,6,4,3,2,95,,90,90,5,4,2,2,0.6,0.5
2025-06-22T1500,3173A,117.0598,30.5351,安庆市,市人大,,30,6,5,3,4,96,,93,93,6,4,3,2,0.5,0.4
2025-06-22T1500,3123A,105.9408,26.2431,安顺市,凤凰山,,33,17,21,10,13,103,,95,95,4,7,3,3,0.6,0.5
2025-06-22T1500,3124A,105.9439,26.2564,安顺市,金钟山,,32,13,20,10,15,100,,93,93,4,6,4,4,0.4,0.4
2025-06-22T1500,3125A,105.8983,26.2481,安顺市,娄家坡,,30,14,17,10,12,96,,91,91,6,6,3,4,0.5,0.5
2025-06-22T1500,1819A,114.3551,36.1017,安阳市,红庙街,臭氧1小时,63,31,49,10,21,170,,174,174,2,5,3,6,0.3,0.5
2025-06-22T1500,1820A,114.361,36.0681,安阳市,银杏小区,臭氧1小时,60,26,46,11,25,168,,179,179,2,11,3,7,0.2,0.5
2025-06-22T1500,3141A,114.3922,36.0878,安阳市,信访局,,,41,49,20,22,172,,180,180,4,9,2,4,,0.6
2025-06-22T1500,3669A,114.4705,36.0637,安阳市,左辅环卫站,臭氧1小时,78,26,55,8,27,182,,173,173,2,12,4,6,0.3,0.5
2025-06-22T1500,3703A,114.2917,36.0949,安阳市,安钢职工学校,臭氧1小时,55,25,53,10,25,164,,159,159,2,10,4,7,0.2,0.4
2025-06-22T1500,1748A,123.044,41.1196,鞍山市,深沟寺,,38,23,28,11,13,120,,113,113,8,19,8,15,0.5,1.1
2025-06-22T1500,1749A,123.011,41.0931,鞍山市,太阳城,,39,15,27,7,14,122,,116,116,9,18,9,14,0.6,1.1
2025-06-22T1500,1750A,123.0485,41.1442,鞍山市,太平,,38,26,35,10,15,119,,112,112,10,19,8,16,0.6,1.2
2025-06-22T1500,1751A,122.9642,41.0971,鞍山市,铁西三道街,,41,31,33,19,17,129,,113,113,16,22,16,14,1.0,1.1
2025-06-22T1500,1753A,123.022,41.0821,鞍山市,明达新区,,41,20,28,12,14,130,,113,113,8,16,11,15,0.6,1.1
2025-06-22T1500,4201A,122.9446,41.0826,鞍山市,兴盛南路290号,,50,34,32,15,14,157,,128,128,22,26,14,12,1.0,0.8
2025-06-22T1500,2195A,107.4212,40.761,巴彦淖尔市,附二中,颗粒物(PM10),59,68,42,25,19,138,,106,106,12,15,12,14,0.6,0.5
2025-06-22T1500,2196A,107.37,40.7372,巴彦淖尔市,市环保大楼,颗粒物(PM10),59,67,43,13,19,136,,108,108,15,15,9,10,0.5,0.5
2025-06-22T1500,1956A,86.1472,41.7538,巴音郭楞蒙古自治州,孔雀公园,,37,16,30,6,11,117,,108,108,5,10,9,9,0.2,0.2
2025-06-22T1500,1957A,86.1972,41.7166,巴音郭楞蒙古自治州,棉纺厂,,37,30,38,3,7,116,,103,103,4,14,3,4,0.2,0.2
2025-06-22T1500,1958A,86.2357,41.7173,巴音郭楞蒙古自治州,经济开发区,,37,10,30,10,7,117,,105,105,2,6,9,9,0.1,0.2
2025-06-22T1500,2914A,106.7677,31.8794,巴中市,苏山坪,,30,19,14,10,8,96,,79,79,4,5,5,5,0.4,0.4
2025-06-22T1500,3181A,106.7768,31.8526,巴中市,市五中,,32,22,15,14,10,101,,84,84,8,9,8,7,0.5,0.5
2025-06-22T1500,3183A,106.7418,31.8654,巴中市,圣泉水务公司,,35,22,18,14,10,110,,73,73,6,13,6,6,0.6,0.6
2025-06-22T1500,3616A,106.7616,31.8344,巴中市,市中心医院,,33,22,17,16,10,104,,72,72,7,13,7,6,0.4,0.5
2025-06-22T1500,2235A,122.7911,45.6077,白城市,洮北区环保局,,32,25,14,10,11,100,,89,89,4,13,4,5,0.3,0.4
2025-06-22T1500,2236A,122.8738,45.5725,白城市,市环保局,,32,14,16,11,7,100,,86,86,2,8,2,5,0.4,0.4
2025-06-22T1500,2231A,126.4219,41.9171,白山市,喜丰,,39,25,29,8,11,122,,96,96,11,20,6,10,0.5,0.8
2025-06-22T1500,2232A,126.4077,41.9419,白山市,环保局,,39,9,24,3,10,122,,95,95,6,12,9,10,0.6,0.8
2025-06-22T1500,2647A,104.1724,36.5446,白银市,第三小学,,40,6,25,3,18,125,,96,96,4,8,8,16,0.8,0.7
2025-06-22T1500,2648A,104.1465,36.5482,白银市,动力公司,,39,,22,3,17,122,,98,98,6,9,8,9,0.3,0.4
2025-06-22T1500,2512A,106.6103,23.9011,百色市,市监测站,,26,26,23,10,10,63,,39,39,7,13,7,5,0.4,0.4
2025-06-22T1500,2513A,106.6538,23.8859,百色市,市中心血站,,20,20,28,8,14,54,,33,33,7,18,3,4,0.5,0.7
2025-06-22T1500,3406A,106.6085,23.8798,百色市,祈福高中,颗粒物(PM10),51,52,27,8,15,58,,36,36,6,16,9,6,0.6,0.7
2025-06-22T1500,2270A,117.396,32.939,蚌埠市,工人疗养院,,44,27,24,18,15,140,,110,110,4,10,3,4,0.4,0.4
2025-06-22T1500,2271A,117.3605,32.9427,蚌埠市,百货大楼,,44,28,22,12,10,140,,112,112,6,10,5,5,0.3,0.4
2025-06-22T1500,2273A,117.4185,32.8911,蚌埠市,蚌埠学院,,42,17,14,14,11,133,,111,111,9,7,6,4,0.3,0.3
2025-06-22T1500,2274A,117.3533,32.9673,蚌埠市,淮上区政府,,45,19,21,18,14,143,,112,112,5,12,5,5,0.4,0.4
2025-06-22T1500,2275A,117.3145,32.8977,蚌埠市,高新区,,45,24,19,11,14,142,,112,112,9,16,6,6,0.4,0.4
2025-06-22T1500,3715A,117.3092,32.9314,蚌埠市,蚌埠田家炳中学,,44,38,30,19,15,138,,110,110,5,13,6,6,0.3,0.3
2025-06-22T1500,1585A,109.8756,40.6532,包头市,市环境监测站,臭氧1小时,54,10,31,8,14,163,,116,116,9,28,9,12,0.3,0.4
2025-06-22T1500,1587A,109.9991,40.5842,包头市,包头八中,,49,17,32,8,14,155,,116,116,6,18,9,21,0.4,0.7
2025-06-22T1500,1588A,109.8538,40.6821,包头市,青山宾馆,臭氧1小时,68,19,26,10,13,174,,123,123,5,26,9,11,0.3,0.5
2025-06-22T1500,1589A,109.8642,40.6288,包头市,惠龙物流,臭氧1小时,58,13,25,8,12,166,,120,120,7,21,6,11,0.3,0.4
2025-06-22T1500,1590A,110.0377,40.5546,包头市,东河鸿龙湾,,49,20,29,3,7,154,,120,120,9,20,7,13,0.4,0.4
2025-06-22T1500,3283A,109.9154,40.5685,包头市,滨河大厦,臭氧1小时,57,14,20,3,9,165,,124,124,6,18,8,13,0.4,0.5
2025-06-22T1500,3419A,109.9447,40.6261,包头市,包头市委党校,臭氧1小时,55,23,29,3,11,164,,118,118,7,23,14,15,0.4,0.5
2025-06-22T1500,3683A,109.8331,40.6576,包头市,昆区政府,臭氧1小时,60,13,24,8,14,168,,120,120,8,24,7,11,0.4,0.5
2025-06-22T1500,1930A,107.185,34.3063,宝鸡市,庙沟村,,32,,25,18,15,100,,114,95,6,8,5,5,0.4,0.4
2025-06-22T1500,1931A,107.0708,34.3017,宝鸡市,竹园沟,,29,11,23,3,13,91,,81,81,5,10,6,6,0.4,0.4
2025-06-22T1500,1932A,107.1906,34.3672,宝鸡市,三陆医院,,33,15,15,8,8,103,,,,7,7,5,5,0.4,0.4
2025-06-22T1500,1933A,107.1431,34.3547,宝鸡市,监测站,,31,15,27,9,17,98,,86,86,6,13,6,7,0.2,0.3
2025-06-22T1500,1934A,107.1186,34.3739,宝鸡市,技工学校,,34,11,28,7,19,107,,96,96,1,8,6,8,0.4,0.5
2025-06-22T1500,1935A,107.3906,34.3528,宝鸡市,陈仓区环保局家属楼,,31,22,33,12,21,99,,93,93,5,17,6,7,0.5,0.5
2025-06-22T1500,1936A,107.2058,34.3497,宝鸡市,文理学院,,34,,29,12,17,106,,94,94,6,13,5,6,0.5,0.5
2025-06-22T1500,1937A,107.2386,34.3622,宝鸡市,三迪小学,,33,19,29,8,21,104,,93,93,9,18,5,7,0.5,0.5
2025-06-22T1500,1051A,115.493,38.8632,保定市,游泳馆,,43,16,44,7,16,135,,121,121,7,23,1,3,0.0,0.2
2025-06-22T1500,1052A,115.5213,38.8959,保定市,华电二区,,37,6,29,3,11,116,,125,125,3,13,1,2,0.3,0.3
2025-06-22T1500,1053A,115.4713,38.9108,保定市,接待中心,,36,17,36,3,10,113,,114,114,2,13,3,2,0.2,0.3
2025-06-22T1500,1054A,115.4612,38.8416,保定市,地表水厂,,42,27,61,3,15,133,,122,122,6,30,3,3,0.0,0.2
2025-06-22T1500,3581A,115.31981,38.95208,保定市,满城区生态环境分局,,39,17,40,3,8,122,,121,121,2,14,2,2,0.1,0.2
2025-06-22T1500,3582A,115.47694,38.76408,保定市,清苑区第二中学,臭氧1小时,52,23,60,16,21,161,,139,139,2,16,1,2,0.2,0.3
2025-06-22T1500,3583A,115.62909,39.02311,保定市,徐水物探局,,47,28,56,9,10,148,,131,131,2,23,1,2,0.1,0.2
2025-06-22T1500,4004A,115.4202,38.8656,保定市,双鹰农机,,42,,37,13,17,132,,124,124,5,24,3,4,0.2,0.2
2025-06-22T1500,4034A,115.5150,38.8590,保定市,植保所站,,41,29,50,10,17,130,,127,127,8,21,3,3,0.2,0.3
2025-06-22T1500,2594A,99.1678,25.1081,保山市,市环境监测站,,20,,12,13,14,64,,52,52,5,6,7,7,0.4,0.4
2025-06-22T1500,2595A,99.1711,25.1328,保山市,市环保局,,21,10,12,3,7,67,,55,55,4,4,6,6,0.5,0.5
2025-06-22T1500,1867A,109.1436,21.4086,北海市,海滩公园,,34,34,30,10,7,71,,52,52,3,5,2,2,0.2,0.2
2025-06-22T1500,1868A,109.0981,21.4661,北海市,新市环保局,,25,19,21,12,11,78,,58,58,5,7,2,2,0.4,0.4
2025-06-22T1500,1869A,109.1778,21.5233,北海市,北海工业园,,25,25,26,15,12,75,,52,52,4,9,2,4,0.4,0.5
2025-06-22T1500,3400A,109.1911,21.4415,北海市,龙潭自来水厂,,25,19,19,16,11,80,,58,58,3,6,5,3,0.4,0.4
2025-06-22T1500,1001A,116.3621,39.8784,北京市,万寿西宫,,47,24,29,16,10,149,,127,127,9,28,4,3,0.3,0.3
2025-06-22T1500,1003A,116.4174,39.9289,北京市,东四,臭氧1小时,89,30,27,12,8,191,,140,140,17,32,3,2,0.2,0.2
2025-06-22T1500,1004A,116.4072,39.8863,北京市,天坛,臭氧1小时,57,33,25,14,11,165,,128,128,5,21,3,3,0.4,0.4
2025-06-22T1500,1005A,116.462,39.9365,北京市,农展馆,,46,27,27,13,9,147,,115,115,8,26,5,4,0.3,0.4
2025-06-22T1500,1006A,116.3392,39.9295,北京市,官园,臭氧1小时,52,34,30,16,10,161,,121,121,12,32,3,3,0.2,0.3
2025-06-22T1500,1007A,116.2878,39.9611,北京市,海淀万柳,臭氧1小时,64,25,29,11,9,171,,109,109,6,33,3,3,0.3,0.3
2025-06-22T1500,1008A,116.6636,40.135,北京市,顺义新城,,36,21,26,11,10,113,,108,108,4,25,2,2,0.2,0.3
2025-06-22T1500,1009A,116.6275,40.3275,北京市,怀柔镇,,39,24,17,13,8,123,,100,100,8,12,1,1,0.3,0.3
2025-06-22T1500,1010A,116.2296,40.217,北京市,昌平镇,,45,22,18,9,8,142,,104,104,7,12,4,4,0.3,0.2
2025-06-22T1500,1011A,116.3966,39.9821,北京市,奥体中心,,45,33,25,14,10,143,,105,105,9,27,3,3,0.5,0.6
2025-06-22T1500,3281A,115.9718,40.4529,北京市,延庆夏都,,45,19,21,10,10,144,,96,96,5,15,6,5,0.4,0.4
2025-06-22T1500,3418A,116.8336,40.4095,北京市,密云新城,,30,23,21,17,9,95,,83,83,7,11,2,1,0.2,0.2
2025-06-22T1500,3671A,116.088,39.9726,北京市,门头沟三家店,臭氧1小时,65,25,18,12,8,172,,106,106,7,10,3,3,0.5,0.5
2025-06-22T1500,3672A,116.1541,39.8204,北京市,丰台云岗,臭氧1小时,104,44,42,23,8,207,,123,123,9,28,3,3,0.4,0.3
2025-06-22T1500,3673A,116.6804,39.9081,北京市,通州东关,臭氧1小时,84,31,34,16,13,187,,124,124,11,33,3,3,0.2,0.3
2025-06-22T1500,3674A,115.9577,39.7603,北京市,房山燕山,,43,34,22,14,9,136,,118,118,7,12,2,2,0.3,0.3
2025-06-22T1500,3675A,116.4672,39.7733,北京市,大兴旧宫,臭氧1小时,77,29,39,17,14,181,,127,127,7,25,3,3,0.2,0.3
2025-06-22T1500,3694A,115.986,40.4563,北京市,延庆石河营,,41,20,18,9,10,131,,87,87,3,11,3,3,0.4,0.3
2025-06-22T1500,3695A,116.6151,40.3053,北京市,怀柔新城,,36,22,16,12,10,113,,95,95,5,9,2,2,0.3,0.3
2025-06-22T1500,3696A,116.2545,39.8768,北京市,丰台小屯,臭氧1小时,80,38,39,17,12,184,,112,112,11,37,2,2,0.4,0.4
2025-06-22T1500,3697A,116.84,40.3844,北京市,密云镇,,31,,21,15,8,97,,84,84,3,16,2,2,0.3,0.3
2025-06-22T1500,4182A,116.1942,39.9158,北京市,八角北路9号,臭氧1小时,93,40,36,15,10,194,,118,118,11,33,2,1,0.3,0.3
2025-06-22T1500,4194A,117.0790,40.1518,北京市,洳河巡河路,,32,22,23,11,9,101,,99,99,6,15,3,3,0.3,0.3
2025-06-22T1500,1761A,123.8275,41.3064,本溪市,大峪,,35,17,27,10,11,109,,96,96,3,19,8,10,0.4,0.8
2025-06-22T1500,1762A,123.7567,41.3325,本溪市,溪湖,,39,32,36,10,16,122,,100,100,6,25,9,13,0.7,1.9
2025-06-22T1500,1763A,123.7169,41.3094,本溪市,彩屯,,39,26,36,15,19,122,,98,98,10,35,11,17,0.5,1.6
2025-06-22T1500,1764A,123.7669,41.2864,本溪市,东明,,37,19,43,18,16,116,,95,95,5,31,7,14,0.6,1.5
2025-06-22T1500,1765A,123.7992,41.2664,本溪市,新立屯,,37,16,20,12,10,117,,105,105,5,22,6,8,0.5,0.7
2025-06-22T1500,1766A,123.8142,41.3472,本溪市,威宁,,36,16,38,6,14,113,,97,97,3,18,7,8,0.4,0.7
2025-06-22T1500,2587A,105.2864,27.3125,毕节市,八中,,30,12,18,9,13,95,,84,84,4,7,5,5,0.5,0.5
2025-06-22T1500,2588A,105.31,27.2944,毕节市,师专,,30,10,17,6,11,96,,86,86,8,9,4,5,0.4,0.4
2025-06-22T1500,4263A,105.3688,27.3598,毕节市,工业大道,,33,9,17,3,11,103,,81,81,8,14,6,6,0.5,0.5
2025-06-22T1500,1629A,118.0018,37.3617,滨州市,第二水厂,臭氧1小时,101,22,60,22,32,202,,166,166,4,15,4,8,0.2,0.5
2025-06-22T1500,1630A,117.9776,37.393,滨州市,北中新校,臭氧1小时,103,24,58,9,30,206,,172,172,5,14,15,19,0.4,0.8
2025-06-22T1500,3514A,117.9378,37.3956,滨州市,中海酒店,臭氧1小时,92,24,55,17,37,193,,161,161,28,23,10,14,0.6,0.9
2025-06-22T1500,3515A,117.9378,37.3553,滨州市,开发区一中,臭氧1小时,80,27,57,9,29,184,,159,159,7,20,11,13,0.1,0.6
2025-06-22T1500,3516A,118.0917,37.694,滨州市,金海六路,臭氧1小时,101,24,69,3,41,201,,171,171,11,23,10,13,0.0,0.5
2025-06-22T1500,4028A,117.9956,37.3753,滨州市,滨州市西街道办事处,臭氧1小时,104,27,50,14,34,208,,174,174,6,13,6,9,0.2,0.5
2025-06-22T1500,2311A,115.8072,33.8399,亳州市,污水处理厂,,46,22,23,10,16,145,,122,122,4,6,3,3,0.0,0.2
2025-06-22T1500,2312A,115.7789,33.8518,亳州市,三国揽胜宫,,45,21,19,8,11,142,,122,122,1,3,3,2,0.2,0.3
2025-06-22T1500,3332A,115.7633,33.8034,亳州市,亳州学院,,46,17,14,10,12,145,,126,126,3,5,3,3,0.4,0.5
2025-06-22T1500,2693A,82.0485,44.8556,博尔塔拉蒙古自治州,市党校,,39,11,24,11,16,123,,93,93,5,9,3,3,0,0
2025-06-22T1500,2694A,82.0806,44.8969,博尔塔拉蒙古自治州,市环保局,,38,18,30,9,11,119,,87,87,2,7,1,2,0.3,0.3
2025-06-22T1500,1071A,116.8842,38.2991,沧州市,沧县城建局,臭氧1小时,98,30,49,10,29,198,,182,182,10,20,3,7,0.2,0.4
2025-06-22T1500,1072A,116.8584,38.3254,沧州市,电视转播站,臭氧1小时,83,23,46,9,27,186,,174,174,6,15,1,3,0.2,0.4
2025-06-22T1500,1073A,116.8709,38.3228,沧州市,市环保局,臭氧1小时,88,48,59,13,30,190,,179,179,8,16,2,6,0.2,0.4
2025-06-22T1500,3324A,116.8136,38.3004,沧州市,河北水利电力学院,臭氧1小时,110,29,53,17,28,219,,194,194,10,22,4,5,0.2,0.4
2025-06-22T1500,2622A,97.1806,31.1273,昌都市,昌都监测站,,45,16,14,6,9,141,,94,94,2,7,5,5,0.2,0.2
2025-06-22T1500,3719A,97.1714,31.1406,昌都市,昌都会议中心,,47,21,18,10,11,150,,99,99,6,8,5,6,0.2,0.2
2025-06-22T1500,2690A,88.1236,43.8886,昌吉回族自治州,天山天池,,37,14,11,3,7,116,,97,97,6,5,5,5,0.6,0.6
2025-06-22T1500,2692A,87.2717,44.0297,昌吉回族自治州,新区政务中心,,42,18,23,10,10,132,,100,100,2,13,5,3,0.2,0.4
2025-06-22T1500,3613A,87.3095,44.0142,昌吉回族自治州,亚心广场,,40,24,33,7,12,126,,99,99,3,17,6,6,0.2,0.3
2025-06-22T1500,1120A,125.2863,43.9027,长春市,客车厂,,33,15,16,9,9,104,,88,88,11,19,6,5,0.2,0.3
2025-06-22T1500,1121A,125.2841,43.8463,长春市,邮电学院,,32,13,15,13,5,100,,85,85,5,17,6,6,0.3,0.4
2025-06-22T1500,1122A,125.3716,43.8772,长春市,劳动公园,,33,23,21,9,7,104,,88,88,8,18,3,3,0.2,0.3
2025-06-22T1500,1123A,125.3297,43.8805,长春市,园林处,,34,17,19,13,7,107,,88,88,4,13,5,5,0.4,0.4
2025-06-22T1500,1124A,125.4605,43.79,长春市,净月潭,,34,18,16,8,5,108,,91,91,4,13,6,6,0.2,0.2
2025-06-22T1500,1126A,125.3863,43.8447,长春市,经开区环卫处,,33,22,20,8,5,105,,90,90,3,13,5,5,0.2,0.2
2025-06-22T1500,1127A,125.245,43.7783,长春市,高新区管委会,,35,,16,20,9,110,,90,90,6,17,3,3,0.2,0.2
2025-06-22T1500,1128A,125.1761,43.8325,长春市,岱山公园,,35,19,15,10,7,109,,91,91,7,19,3,3,0.2,0.2
2025-06-22T1500,4281A,125.3346,43.9164,长春市,北亚泰大街1068号,,33,16,18,8,8,103,,87,87,8,17,4,4,0.2,0.3
2025-06-22T1500,1335A,113.0833,28.2325,长沙市,经开区环保局,,33,16,11,14,6,104,,92,92,8,10,4,4,0.3,0.3
2025-06-22T1500,1336A,112.8872,28.2189,长沙市,高开区环保局,,32,19,12,13,6,102,,99,99,5,5,3,3,0.5,0.5
2025-06-22T1500,1337A,113.0792,28.2053,长沙市,马坡岭,,31,22,13,21,8,99,,90,90,9,8,3,3,0.7,0.7
2025-06-22T1500,1338A,112.9394,28.19,长沙市,湖南师范大学,,34,15,10,14,6,106,,100,100,4,5,2,2,0.3,0.2
2025-06-22T1500,1339A,113.0178,28.1322,长沙市,雨花区环保局,,32,19,10,12,7,100,,96,96,6,6,4,4,0.6,0.5
2025-06-22T1500,1340A,112.9792,28.2597,长沙市,伍家岭,,32,19,12,14,6,100,,91,91,4,5,2,2,0.3,0.3
2025-06-22T1500,1341A,113.0014,28.1944,长沙市,火车新站,,32,19,11,12,5,101,,92,92,5,4,6,6,0.5,0.5
2025-06-22T1500,1342A,112.9844,28.1178,长沙市,天心区环保局,,35,20,11,13,7,111,,102,102,5,6,1,1,0.8,0.8
2025-06-22T1500,1343A,112.8908,28.1308,长沙市,湖南中医药大学,,31,16,10,6,8,99,,95,95,4,4,3,3,0.5,0.4
2025-06-22T1500,1344A,112.9581,28.3611,长沙市,沙坪,,30,15,17,15,5,93,,91,91,6,7,4,4,0.5,0.5
2025-06-22T1500,1727A,113.1147,36.1547,长治市,清华站,臭氧1小时,87,26,39,7,23,189,,168,168,9,14,8,7,0.6,0.7
2025-06-22T1500,1730A,113.0886,36.2125,长治市,审计局,臭氧1小时,90,26,37,7,24,192,,168,168,8,14,12,12,0.6,1.1
2025-06-22T1500,1731A,113.0844,36.1856,长治市,长治八中,臭氧1小时,95,30,44,19,30,196,,178,178,8,13,12,13,0.6,0.8
2025-06-22T1500,2845A,113.1569,36.1911,长治市,德盛苑,臭氧1小时,89,27,36,14,22,191,,173,173,7,10,10,10,0.6,1
2025-06-22T1500,3568A,113.06,36.0464,长治市,向阳小学,臭氧1小时,106,45,67,11,31,211,,184,184,7,11,7,7,0.7,0.8
2025-06-22T1500,3569A,112.8792,36.3144,长治市,屯留一中,臭氧1小时,118,30,48,24,30,235,,188,188,12,15,16,10,0.6,0.5
2025-06-22T1500,4189A,113.1131,36.19948,长治市,英华南巷50号,臭氧1小时,87,24,45,9,28,189,,171,171,11,14,10,10,0.5,1.3
2025-06-22T1500,4190A,113.2367,36.3344,长治市,学府街1号,臭氧1小时,68,28,47,6,21,174,,170,170,7,34,5,5,0.4,0.7
2025-06-22T1500,1854A,111.6975,28.9703,常德市,市二中,,34,21,12,12,10,107,,101,96,4,6,4,4,0.6,0.6
2025-06-22T1500,3138A,111.7153,29.0289,常德市,武陵区永安,,36,12,11,9,10,115,,113,104,3,4,2,2,0.3,0.3
2025-06-22T1500,3139A,111.6892,28.9881,常德市,鼎城区玉霞,,36,13,13,12,10,114,,110,104,3,5,3,4,0.5,0.5
2025-06-22T1500,3140A,111.6625,29.0531,常德市,武陵区长庚,,34,,11,11,11,108,,107,98,3,5,2,2,0.3,0.4
2025-06-22T1500,1196A,119.9633,31.762,常州市,市监测站,,34,,6,9,7,107,,96,95,22,7,3,8,0.7,0.6
2025-06-22T1500,1200A,119.9468,31.7069,常州市,武进监测站,,28,16,14,14,6,87,,88,86,19,16,7,6,1.0,0.9
2025-06-22T1500,1201A,119.9255,31.9087,常州市,安家,,31,23,19,10,9,97,,92,84,14,17,7,7,0.6,0.7
2025-06-22T1500,3002A,119.9805,31.8174,常州市,行政中心,,32,19,20,9,7,101,,91,91,12,14,8,8,0.5,0.4
2025-06-22T1500,3003A,120.0522,31.7748,常州市,经开区,,33,17,19,10,6,105,,94,94,15,16,7,6,0.8,0.5
2025-06-22T1500,3010A,119.9025,31.7964,常州市,钟楼,,31,9,6,6,5,99,,95,92,13,13,6,5,0.9,0.7
2025-06-22T1500,3429A,119.8598,31.7066,常州市,武进经发区,,28,19,17,11,9,87,,90,88,14,13,4,4,0.9,0.8
2025-06-22T1500,3430A,119.5826,31.7245,常州市,金坛城区,,34,11,11,8,9,106,,98,96,12,14,5,6,0.6,0.4
2025-06-22T1500,2220A,120.4318,41.5881,朝阳市,西梁,,34,12,35,10,14,108,,103,103,6,24,5,7,0.4,0.6
2025-06-22T1500,2221A,120.4521,41.5646,朝阳市,河畔小区,,35,17,27,9,10,111,,97,97,6,15,7,8,0.3,0.5
2025-06-22T1500,2222A,120.4176,41.5648,朝阳市,八里堡,,36,28,44,14,17,115,,96,96,8,24,6,8,0.3,0.6
2025-06-22T1500,2223A,120.3806,41.5969,朝阳市,农业园区,,32,11,25,10,13,100,,85,85,6,19,4,5,0.3,0.5
2025-06-22T1500,1705A,116.6367,23.6719,潮州市,西园路,,24,24,24,15,11,75,,54,54,7,12,5,6,0.4,0.5
2025-06-22T1500,3026A,116.6183,23.6608,潮州市,市政府,,40,40,26,12,8,67,,52,52,11,14,6,10,0.6,0.6
2025-06-22T1500,4036A,116.6461,23.6761,潮州市,金山,,,,24,20,13,84,,59,59,,11,8,9,0.5,0.6
2025-06-22T1500,2472A,113.0073,25.9061,郴州市,马头岭,,19,15,17,3,5,59,,50,50,7,14,12,8,0.3,0.3
2025-06-22T1500,2473A,113.0116,25.8226,郴州市,市职中,,19,13,14,10,8,60,,49,49,3,5,11,5,0.3,0.3
2025-06-22T1500,2475A,113.0383,25.8071,郴州市,市审计局,,20,12,11,10,7,61,,48,48,4,5,6,5,0.3,0.3
2025-06-22T1500,2476A,113.0348,25.7759,郴州市,市环保局,,23,9,14,9,11,71,,58,58,4,5,4,5,0,0
2025-06-22T1500,4252A,113.0138,25.8011,郴州市,好美居路49号,,22,18,14,11,9,68,,58,58,4,5,13,7,0.4,0.4
2025-06-22T1500,1431A,103.9728,30.7236,成都市,金泉两河,,49,28,29,6,13,156,,100,100,9,15,2,2,0.4,0.4
2025-06-22T1500,1432A,104.176,30.6872,成都市,十里店,,41,28,30,6,15,129,,102,102,4,10,4,4,0.5,0.5
2025-06-22T1500,1433A,104.079,30.5706,成都市,三瓦窑,,44,41,28,29,16,140,,106,106,12,21,4,4,0.6,0.6
2025-06-22T1500,1434A,104.1114,30.63,成都市,沙河铺,,39,39,28,9,14,105,,80,80,9,14,4,4,0.5,0.5
2025-06-22T1500,1437A,104.0786,30.6531,成都市,君平街,,47,25,30,19,17,148,,120,120,8,11,4,5,0.9,0.8
2025-06-22T1500,2880A,104.0239,30.65639,成都市,大石西路,,42,38,31,20,18,132,,104,104,10,14,5,5,0.7,0.6
2025-06-22T1500,3136A,104.2725,30.5589,成都市,龙泉驿区区政府,,,,17,12,12,128,,81,,10,9,3,4,0.5,0.6
2025-06-22T1500,3357A,104.0106,30.6931,成都市,金博路,,41,23,22,23,13,129,,95,95,10,18,4,4,0.7,0.6
2025-06-22T1500,3359A,104.0578,30.5225,成都市,华阳,,41,27,22,22,19,130,,107,107,9,12,7,7,0.7,0.6
2025-06-22T1500,3488A,104.3853,30.7453,成都市,青白江技师分院,,38,30,31,3,17,121,,99,99,13,13,6,6,0.6,0.6
2025-06-22T1500,3489A,104.0789,30.4072,成都市,科学城,,43,25,20,21,14,135,,102,102,5,10,3,3,0.6,0.6
2025-06-22T1500,4011A,103.8506,30.6947,成都市,光华大道三段,臭氧1小时,85,36,38,7,19,188,,119,119,11,13,4,5,0.2,0.3
2025-06-22T1500,4224A,104.2433,30.5353,成都市,鲸龙路1057号,,40,39,27,28,18,121,,104,104,9,12,7,7,0.7,0.7
2025-06-22T1500,1062A,117.9531,40.9081,承德市,铁路,,38,30,22,7,9,121,,87,87,4,14,2,3,0.3,0.3
2025-06-22T1500,1063A,117.9392,40.9763,承德市,中国银行,,39,15,22,11,12,122,,88,88,4,13,3,2,0.2,0.3
2025-06-22T1500,1064A,117.9503,40.928,承德市,开发区,,40,29,32,13,13,127,,92,92,5,13,4,4,0.3,0.3
2025-06-22T1500,1065A,117.8051,40.9655,承德市,文化中心,,43,21,43,3,13,135,,94,94,6,22,2,7,0.3,0.6
2025-06-22T1500,1066A,117.9268,41.0026,承德市,离宫,,36,12,20,11,18,114,,86,86,3,12,1,2,0.2,0.2
2025-06-22T1500,2314A,117.47,30.6618,池州市,池州学院,,31,6,7,3,4,99,,85,85,10,10,4,4,0.5,0.5
2025-06-22T1500,3237A,117.4918,30.6617,池州市,展览馆,,30,7,10,3,6,96,,70,70,12,10,7,4,0.6,0.7
2025-06-22T1500,3333A,117.5627,30.695,池州市,第八中学,,34,8,7,3,6,107,,88,88,11,10,6,5,0.5,0.6
2025-06-22T1500,3334A,117.5038,30.6243,池州市,第十二中学,,31,6,7,3,4,98,,85,85,11,8,3,2,0.8,0.9
2025-06-22T1500,1744A,118.9233,42.2816,赤峰市,松山一中,,36,8,17,7,7,113,,93,93,11,17,6,7,0.3,0.4
2025-06-22T1500,1745A,118.9576,42.2728,赤峰市,哈达街,,31,16,20,10,7,97,,82,82,22,18,9,10,0.4,0.4
2025-06-22T1500,1746A,118.8788,42.2554,赤峰市,天义路,,35,18,16,7,10,112,,91,91,5,13,7,10,0.3,0.3
2025-06-22T1500,3058A,119.2658,42.0353,赤峰市,银河街,,33,18,36,6,12,104,,86,86,2,14,6,17,0.4,0.6
2025-06-22T1500,3286A,118.9359,42.3147,赤峰市,桥北物流园区,,35,,23,20,16,109,,87,87,5,17,7,8,0.3,0.5
2025-06-22T1500,2521A,107.3476,22.4136,崇左市,市环保局江州分局,,15,15,22,7,8,42,,37,37,8,9,5,6,0.6,0.6
2025-06-22T1500,4256A,107.3750,22.3736,崇左市,石景林东路7号,,,,21,4,5,49,,41,41,6,11,3,4,0.6,0.9
2025-06-22T1500,2298A,118.3093,32.3153,滁州市,老年大学,,41,23,18,12,10,131,,114,114,6,8,9,10,0.2,0.2
2025-06-22T1500,2299A,118.3244,32.2786,滁州市,人大宾馆,,41,15,10,10,14,129,,108,108,5,5,4,4,0.2,0.2
2025-06-22T1500,3207A,118.3118,32.3038,滁州市,市政府原办公楼,,41,18,14,15,16,131,,114,114,1,4,4,4,0.3,0.3
2025-06-22T1500,3331A,118.3267,32.2634,滁州市,图书馆,,41,,10,15,12,130,,109,109,2,4,9,8,0.3,0.4
2025-06-22T1500,2605A,101.5482,25.0441,楚雄彝族自治州,州环境监测站,,23,9,16,3,15,72,,68,68,7,13,7,8,0.5,0.6
2025-06-22T1500,2606A,101.538,25.0492,楚雄彝族自治州,市经济开发区,,,,19,1,14,72,,71,71,6,12,6,8,0.7,0.7
2025-06-22T1500,2548A,107.5277,31.2827,达州市,达州职业技术学院,,37,20,21,3,2,116,,58,58,2,16,5,6,0.3,0.3
2025-06-22T1500,2549A,107.5086,31.2186,达州市,市环境监测站,,34,18,20,3,1,107,,58,58,24,23,4,5,0.2,0.3
2025-06-22T1500,2550A,107.4988,31.2132,达州市,凤凰小区,,37,17,15,7,4,117,,70,70,11,17,3,4,0.1,0.2
2025-06-22T1500,2551A,107.5082,31.1986,达州市,达县机关宾馆,,38,9,16,3,4,120,,66,66,10,24,5,5,0.2,0.3
2025-06-22T1500,2552A,107.4644,31.2124,达州市,市政中心,,35,21,23,3,2,110,,63,63,10,14,2,2,0.3,0.4
2025-06-22T1500,2614A,100.1542,25.7054,大理白族自治州,大理市环境监测站,,26,,7,9,12,82,,76,76,5,10,5,5,0.5,0.4
2025-06-22T1500,2615A,100.2171,25.5811,大理白族自治州,大理古城,,25,7,9,3,7,79,,74,74,3,6,8,8,0.7,0.7
2025-06-22T1500,1109A,121.612,38.9741,大连市,甘井子,臭氧1小时,85,30,21,18,11,188,,174,174,15,17,8,7,0.5,0.5
2025-06-22T1500,1110A,121.565,38.9511,大连市,周水子,臭氧1小时,103,29,21,20,14,206,,184,184,8,16,12,10,0.5,0.4
2025-06-22T1500,1111A,121.5637,38.8845,大连市,星海三站,臭氧1小时,108,45,24,31,13,216,,150,150,11,9,5,4,0.5,0.3
2025-06-22T1500,1112A,121.6302,38.9117,大连市,青泥洼桥,臭氧1小时,108,40,20,25,12,215,,178,178,10,13,11,9,0.4,0.2
2025-06-22T1500,1113A,121.6251,38.8638,大连市,傅家庄,臭氧1小时,111,50,22,45,15,222,,157,157,13,13,13,10,0.6,0.3
2025-06-22T1500,1114A,121.5213,38.8661,大连市,七贤岭,臭氧1小时,119,31,20,30,15,238,,193,193,12,11,11,7,0.5,0.6
2025-06-22T1500,1115A,121.2529,38.8061,大连市,旅顺,臭氧1小时,104,32,29,26,18,208,,158,158,18,21,8,6,0.5,0.4
2025-06-22T1500,1116A,121.7485,39.1311,大连市,金州,臭氧1小时,133,72,52,38,21,266,,203,203,19,20,15,11,0.6,0.4
2025-06-22T1500,1117A,121.7811,39.0496,大连市,开发区,臭氧1小时,130,49,34,35,18,260,,190,190,20,20,10,7,0.7,0.4
2025-06-22T1500,1118A,121.9762,39.0631,大连市,双D港,臭氧1小时,122,49,24,28,11,243,,197,197,14,18,14,10,0.6,0.4
2025-06-22T1500,1789A,124.81117,46.03138,大庆市,大同区,,28,23,16,6,10,89,,80,80,3,6,6,5,0.6,0.6
2025-06-22T1500,1790A,125.129,46.533,大庆市,龙凤区,,31,24,25,14,13,97,,92,92,4,10,5,5,0.2,0.3
2025-06-22T1500,1791A,124.902,46.408,大庆市,红岗区,,35,22,20,21,17,109,,92,92,2,4,9,8,0.3,0.4
2025-06-22T1500,1792A,125.153,46.586,大庆市,萨尔图区,,27,27,22,11,8,80,,76,76,6,11,8,8,0.4,0.5
2025-06-22T1500,1793A,124.9042,46.6215,大庆市,让胡路区,,29,22,19,17,17,92,,87,87,2,5,4,5,0.2,0.2
2025-06-22T1500,3481A,125.141,46.634,大庆市,萨区政府监测点,,30,22,20,7,4,96,,87,87,2,7,6,6,0.2,0.3
2025-06-22T1500,1723A,113.2994,40.0758,大同市,云冈宾馆,,40,23,29,12,11,126,,104,104,7,16,5,7,0.2,0.7
2025-06-22T1500,1724A,113.3444,40.0917,大同市,大同大学,,,,38,14,9,129,,103,103,5,16,11,15,0.3,0.5
2025-06-22T1500,1725A,113.2661,40.1269,大同市,安家小村,,39,12,24,3,8,122,,99,99,5,15,3,6,0.3,0.7
2025-06-22T1500,1726A,113.2711,40.0844,大同市,教育学院,,41,,29,21,12,129,,105,105,6,20,7,10,0.3,0.6
2025-06-22T1500,3282A,113.3397,40.0597,大同市,大同市卫生学校,,40,11,24,7,11,126,,104,104,7,17,6,9,0.4,0.6
2025-06-22T1500,3565A,113.1367,40.1122,大同市,云冈站,,39,19,41,11,14,123,,96,96,6,22,4,6,0.3,0.4
2025-06-22T1500,3566A,113.1186,40.2556,大同市,图书馆,,40,14,21,8,9,125,,96,96,4,7,7,7,0.5,0.5
2025-06-22T1500,3567A,113.5931,40.0461,大同市,区一中,,37,22,23,8,8,116,,90,90,5,10,11,12,0.3,0.4
2025-06-22T1500,4199A,113.2798,40.0997,大同市,魏都大道141号,,41,18,32,11,13,130,,104,104,4,18,6,9,0.3,0.9
2025-06-22T1500,2269A,124.1069,50.4097,大兴安岭地区,科技局,,25,21,28,8,14,78,,70,70,6,3,6,6,0.4,0.4
2025-06-22T1500,3663A,124.1164,50.4278,大兴安岭地区,红旗社区,,26,17,17,11,12,83,,72,72,3,6,5,5,0.3,0.3
2025-06-22T1500,1600A,124.3303,40.0625,丹东市,江湾东路,,43,33,40,13,24,137,,120,120,11,18,8,6,0.7,0.7
2025-06-22T1500,1601A,124.4256,40.1503,丹东市,临江后街,,44,42,58,9,14,138,,125,125,9,17,9,9,0.7,0.8
2025-06-22T1500,1602A,124.3933,40.1461,丹东市,元宝山,,39,26,32,16,16,122,,113,113,10,14,9,8,0.7,0.8
2025-06-22T1500,1603A,124.3633,40.1092,丹东市,民主桥,,42,32,31,9,20,134,,117,117,8,19,10,8,0.5,0.6
2025-06-22T1500,3541A,109.5726,19.5167,儋州市,第一中学子站,,10,6,12,3,6,29,,30,30,1,4,7,7,0.4,0.4
2025-06-22T1500,3542A,109.5567,19.5187,儋州市,东坡学校子站,,10,,12,3,5,32,,33,33,1,4,5,7,0.5,0.5
2025-06-22T1500,2616A,98.5842,24.428,德宏傣族景颇族自治州,德宏州监测站,,14,14,19,7,11,40,,25,25,6,8,6,8,0.7,0.6
2025-06-22T1500,3677A,98.5881,24.4368,德宏傣族景颇族自治州,芒市人民政府综合楼,,21,21,28,3,11,38,,24,24,5,8,7,9,0.5,0.5
2025-06-22T1500,1901A,104.4239,31.1208,德阳市,东山公园,,39,,19,11,16,123,,90,90,4,9,5,5,0.6,0.7
2025-06-22T1500,1902A,104.3826,31.1317,德阳市,西小区,,38,17,29,11,16,121,,93,93,6,11,5,5,0.8,0.8
2025-06-22T1500,1904A,104.3553,31.1091,德阳市,耐火材料厂,,39,16,26,7,16,122,,94,94,4,12,7,8,0.4,0.5
2025-06-22T1500,3639A,104.4019,31.1244,德阳市,市教育局,,41,14,24,7,15,129,,99,99,1,7,5,5,0.5,0.6
2025-06-22T1500,1622A,116.3032,37.4674,德州市,儿童乐园,臭氧1小时,64,27,51,7,21,171,,170,170,2,14,16,12,0.3,0.4
2025-06-22T1500,1624A,116.2991,37.4451,德州市,监理站,臭氧1小时,84,17,46,7,20,187,,174,174,6,16,12,11,0.2,0.3
2025-06-22T1500,3066A,116.2721,37.4379,德州市,九衢泉纯净水厂,臭氧1小时,67,19,48,14,22,173,,160,160,7,21,6,9,0.5,0.6
2025-06-22T1500,3371A,116.3728,37.4403,德州市,开发区人民医院,臭氧1小时,68,27,51,17,20,174,,164,164,8,20,11,11,0.3,0.5
2025-06-22T1500,3511A,116.5652,37.3319,德州市,陵城艺术中心,臭氧1小时,90,24,53,9,21,192,,168,168,4,14,7,10,0.3,0.6
2025-06-22T1500,2621A,99.7056,27.8317,迪庆藏族自治州,迪庆州站,,37,18,20,14,13,118,,68,68,6,9,7,8,0.3,0.4
2025-06-22T1500,3180A,99.7136,27.8094,迪庆藏族自治州,质量技术监督局,,37,15,16,6,7,117,,68,68,11,11,7,7,0.4,0.5
2025-06-22T1500,4257A,104.6092,35.5962,定西市,将台街,,42,13,33,7,15,132,,122,122,5,7,4,4,0.0,0.4
2025-06-22T1500,4309A,104.6159,35.5701,定西市,正龙路62号,,41,9,24,7,18,131,,122,122,3,3,3,3,0.2,0.3
2025-06-22T1500,1389A,113.7547,23.0494,东莞市,莞城梨川,,22,,13,10,8,68,,46,46,3,12,5,6,0.3,0.3
2025-06-22T1500,1390A,113.7944,23.0128,东莞市,东城石井,,17,10,15,6,6,54,,35,35,6,13,1,2,0.4,0.4
2025-06-22T1500,1391A,113.7383,22.9658,东莞市,南城西平,,18,,11,10,7,56,,42,42,6,12,2,2,0.6,0.5
2025-06-22T1500,3319A,113.7338,23.0381,东莞市,万江金泰,,19,12,14,7,7,59,,36,36,4,13,2,2,0.6,0.7
2025-06-22T1500,3626A,113.7533,23.0202,东莞市,南城元岭,,20,11,12,7,30,63,,42,42,5,14,5,5,0.5,0.5
2025-06-22T1500,3627A,113.7875,23.0457,东莞市,东城主山,,20,13,15,6,7,62,,43,43,7,12,6,6,0.5,0.5
2025-06-22T1500,1666A,118.6614,37.4309,东营市,市环保局,臭氧1小时,101,22,53,3,35,201,,181,181,15,21,6,10,0.4,0.6
2025-06-22T1500,3036A,118.6904,37.4338,东营市,开发区管委会,臭氧1小时,100,35,65,7,35,200,,179,179,13,22,7,9,0.3,0.5
2025-06-22T1500,3365A,118.5719,37.565,东营市,垦利区民丰路,臭氧1小时,107,27,75,12,42,214,,179,179,12,20,8,8,0.6,0.9
2025-06-22T1500,3498A,118.5055,37.8612,东营市,河口城区,臭氧1小时,69,27,71,7,43,175,,156,156,14,21,2,5,0.3,1
2025-06-22T1500,3646A,118.4978,37.4623,东营市,胜利站,臭氧1小时,88,26,59,3,36,190,,172,172,18,25,8,10,0.5,1
2025-06-22T1500,3734A,118.35,37.26,东营市,理想之城,臭氧1小时,104,17,65,3,39,208,,192,192,12,22,8,8,0.5,0.8
2025-06-22T1500,1591A,110.0023,39.8129,鄂尔多斯市,综合楼,臭氧1小时,77,27,28,22,8,181,,147,147,10,17,6,5,0.5,0.4
2025-06-22T1500,1592A,109.9486,39.8261,鄂尔多斯市,巴音孟克林场办事处,臭氧1小时,102,44,38,12,11,203,,162,162,10,16,9,7,0.6,0.6
2025-06-22T1500,1593A,109.7736,39.5986,鄂尔多斯市,康泽苑,臭氧1小时,93,36,43,9,11,194,,141,141,6,18,10,9,0.4,0.4
2025-06-22T1500,1594A,109.8119,39.5989,鄂尔多斯市,华泰汽车城,臭氧1小时,70,31,41,9,11,176,,130,130,8,28,8,7,0.5,0.4
2025-06-22T1500,1595A,109.9734,39.7884,鄂尔多斯市,奥林花园,臭氧1小时,100,36,35,12,12,200,,158,158,12,26,8,7,0.6,0.6
2025-06-22T1500,2436A,114.8938,30.3994,鄂州市,市政府,,26,6,6,3,1,82,,82,78,10,10,5,4,0.3,0.3
2025-06-22T1500,2437A,114.8989,30.3714,鄂州市,赵家坝,,29,,4,3,1,90,,83,81,3,4,8,8,0.3,0.3
2025-06-22T1500,3654A,114.8094,30.4089,鄂州市,精准医疗中心,,,2,4,,0,67,,62,62,2,2,3,4,0.4,0.4
2025-06-22T1500,2454A,109.4978,30.2981,恩施土家族苗族自治州,湖北民院,,30,20,18,11,4,95,,82,82,3,3,5,4,0.4,0.3
2025-06-22T1500,2455A,109.4707,30.2798,恩施土家族苗族自治州,州电力总公司,,22,,12,15,6,69,,59,59,5,5,6,6,0.3,0.3
2025-06-22T1500,3549A,109.5061,30.3772,恩施土家族苗族自治州,龙凤新区,,25,16,13,3,7,78,,63,63,4,2,3,3,0.4,0.4
2025-06-22T1500,2499A,108.3411,21.6158,防城港市,沙万,,31,31,21,7,10,47,,41,41,4,12,3,3,0.4,0.4
2025-06-22T1500,2500A,108.3514,21.7731,防城港市,防城档案局,,22,22,23,12,11,45,,37,37,4,7,1,2,0.3,0.4
2025-06-22T1500,2501A,108.3506,21.6414,防城港市,大海花园,,28,28,25,8,9,50,,47,44,2,8,2,3,0.4,0.4
2025-06-22T1500,1371A,113.1294,23.0067,佛山市,湾梁,,17,9,16,9,6,54,,46,46,10,24,8,9,0.4,0.4
2025-06-22T1500,1372A,113.1083,23.0478,佛山市,华材职中,,18,,12,7,6,55,,58,58,3,14,6,6,0.4,0.5
2025-06-22T1500,1373A,113.144,23.0453,佛山市,南海气象局,,37,37,20,9,8,60,,47,47,8,21,3,4,0.5,0.7
2025-06-22T1500,1374A,113.2881,22.8094,佛山市,顺德苏岗,,17,,16,3,4,52,,28,28,8,15,6,6,0.4,0.4
2025-06-22T1500,1376A,112.8383,22.8678,佛山市,高明孔堂,,15,11,14,7,6,46,,37,37,3,7,5,6,0.5,0.6
2025-06-22T1500,1377A,112.8836,23.1588,佛山市,三水监测站,,20,,18,14,9,47,,34,34,10,26,3,4,0.5,0.5
2025-06-22T1500,1378A,112.867,23.185,佛山市,三水云东海,,19,12,29,3,10,58,,41,41,8,24,3,1,0.5,0.6
2025-06-22T1500,3625A,113.2544,22.7642,佛山市,容桂街道办,,16,9,10,3,6,51,,28,28,11,21,6,6,0.6,0.7
2025-06-22T1500,1282A,119.2681,26.0504,福州市,师大,,26,11,26,3,7,81,,74,74,2,6,4,4,0.2,0.2
2025-06-22T1500,1283A,119.2984,26.1028,福州市,五四北路,,25,,27,3,8,79,,71,71,5,13,4,4,0.2,0.3
2025-06-22T1500,1284A,119.2648,26.0768,福州市,杨桥西路,,26,18,28,8,9,81,,72,72,3,10,4,4,0.2,0.2
2025-06-22T1500,1285A,119.317,26.0746,福州市,紫阳,,29,29,29,7,8,69,,66,66,23,14,4,4,0.2,0.2
2025-06-22T1500,3048A,119.5799,26.0936,福州市,九龙,颗粒物(PM10),54,58,25,34,13,158,,91,91,8,10,4,5,0.3,0.2
2025-06-22T1500,3526A,119.5189,25.9664,福州市,吴航,,40,28,23,17,12,126,,87,87,6,8,6,6,0.3,0.3
2025-06-22T1500,1755A,123.7977,41.8491,抚顺市,望花区,,42,32,36,10,16,134,,111,111,9,33,10,21,0.5,0.8
2025-06-22T1500,1756A,123.9161,41.8822,抚顺市,顺城区,,43,27,42,9,15,136,,116,116,9,38,9,10,0.5,0.9
2025-06-22T1500,1757A,124.0436,41.8611,抚顺市,东洲区,,,28,32,9,15,135,,145,145,,22,8,12,0.0,0.5
2025-06-22T1500,1758A,123.9247,41.8642,抚顺市,新抚区,,42,31,40,20,15,134,,109,109,8,22,9,9,0.4,0.7
2025-06-22T1500,1759A,124.0972,41.8961,抚顺市,大伙房水库,,37,27,25,10,12,117,,146,146,7,15,8,9,0.2,0.4
2025-06-22T1500,1760A,123.7086,41.8391,抚顺市,沈抚新城,,50,23,37,8,17,158,,107,107,11,40,8,25,0.5,0.7
2025-06-22T1500,2376A,116.2127,28.0814,抚州市,桐源党溪,,20,20,19,10,8,54,,38,38,3,3,4,4,0.4,0.3
2025-06-22T1500,2377A,116.3544,27.9831,抚州市,市站,,19,19,16,12,6,52,,43,43,2,2,1,1,0.7,0.6
2025-06-22T1500,2378A,116.3565,27.963,抚州市,血防站,,24,24,18,9,8,51,,43,43,4,4,5,3,0.6,0.5
2025-06-22T1500,2379A,116.3564,28.0007,抚州市,采茶剧团,,22,22,17,7,6,53,,44,44,2,2,4,4,0.4,0.3
2025-06-22T1500,2380A,116.385,27.9647,抚州市,医学分院,,25,25,17,6,5,57,,47,47,2,2,4,4,0.7,0.7
2025-06-22T1500,2207A,121.6094,41.998,阜新市,工业园区,,45,21,30,11,12,141,,104,104,9,25,8,12,0.3,0.4
2025-06-22T1500,2208A,121.6697,42.0279,阜新市,长青街,,43,21,26,8,11,135,,96,96,7,22,7,14,0.4,0.5
2025-06-22T1500,2209A,121.6673,42.0705,阜新市,农业园区,,43,25,24,7,7,135,,98,98,6,16,5,16,0.4,0.5
2025-06-22T1500,2210A,121.6717,42.0224,阜新市,东苑,,44,24,34,9,13,138,,99,99,8,24,9,22,0.4,0.6
2025-06-22T1500,2211A,121.6506,42.0498,阜新市,玉龙新城,,40,20,36,11,18,127,,89,89,6,25,6,8,0.4,0.5
2025-06-22T1500,2301A,115.8277,32.8929,阜阳市,市监测站,,46,32,22,13,10,145,,113,113,4,10,3,2,0.3,0.3
2025-06-22T1500,2303A,115.8554,32.8605,阜阳市,开发区,,44,33,14,9,7,139,,113,113,6,11,6,5,0.1,0.1
2025-06-22T1500,2875A,115.784,32.8892,阜阳市,阜阳职业技术学院,,46,13,8,11,8,146,,122,122,5,9,4,3,0.2,0.2
2025-06-22T1500,3468A,115.7901,32.8613,阜阳市,市规划展馆,,46,24,16,12,9,146,,120,120,6,7,3,3,0.3,0.3
2025-06-22T1500,3469A,115.836,32.9183,阜阳市,枣园社区,,46,34,19,13,10,147,,117,117,8,15,4,4,0.4,0.4
2025-06-22T1500,2669A,102.9099,34.9841,甘南藏族自治州,州政府,,41,10,14,10,15,129,,113,113,2,7,4,4,0.2,0.2
2025-06-22T1500,3380A,102.8914,34.9617,甘南藏族自治州,甘肃民族师范学院,,41,6,16,3,7,130,,115,115,2,4,8,8,0.3,0.3
2025-06-22T1500,2570A,101.9603,30.0475,甘孜藏族自治州,水桥子,,31,16,16,7,7,97,,55,55,5,20,5,5,0.2,0.2
2025-06-22T1500,3065A,101.9533,29.9972,甘孜藏族自治州,州环保局,,33,19,16,9,6,104,,72,72,6,14,2,2,0.3,0.3
2025-06-22T1500,3414A,115.8347,28.932,赣江新区,桑海产业园,,,,10,0,5,87,,79,79,8,10,7,7,0.5,0.4
2025-06-22T1500,2363A,114.9367,25.8664,赣州市,地委,,25,9,11,8,7,77,,56,56,7,7,2,6,0.6,0.6
2025-06-22T1500,2364A,114.9461,25.8481,赣州市,气象台,,23,19,14,7,3,71,,55,55,4,4,5,7,0.3,0.3
2025-06-22T1500,2365A,114.9322,25.8333,赣州市,市图书馆,,23,12,10,6,5,72,,52,52,3,4,4,4,0.4,0.4
2025-06-22T1500,2366A,114.8905,25.8471,赣州市,华坚鞋城,,25,18,16,6,6,79,,61,61,5,7,3,4,0.3,0.3
2025-06-22T1500,3109A,115.0093,25.8613,赣州市,赣县区卫计委,,21,8,11,3,6,67,,49,49,5,8,2,2,0.1,0.2
2025-06-22T1500,2683A,106.2319,36.1417,固原市,马园,,34,31,35,11,15,106,,122,122,16,27,7,16,0.7,0.6
2025-06-22T1500,2684A,106.2792,36.0022,固原市,监测站,,41,11,36,3,12,131,,118,118,7,11,5,6,0.2,0.2
2025-06-22T1500,2685A,106.2375,36.0211,固原市,新区,,36,,32,11,14,113,,117,117,5,9,3,4,0.4,0.4
2025-06-22T1500,3522A,106.2177,35.9959,固原市,原州区十五小,,39,12,32,7,16,123,,116,116,6,9,9,10,0.2,0.2
2025-06-22T1500,2544A,106.6303,30.4576,广安市,市委,,28,,7,9,12,88,,77,77,10,11,2,2,0.4,0.4
2025-06-22T1500,2545A,106.6271,30.4663,广安市,友谊中学,,33,11,14,6,7,103,,93,93,10,11,5,6,0.6,0.6
2025-06-22T1500,2547A,106.6388,30.4551,广安市,广电花园,,,6,12,,7,89,,77,77,5,8,7,8,0.4,0.5
2025-06-22T1500,2902A,106.6351,30.4865,广安市,北辰小学,,30,8,10,7,8,95,,84,84,5,7,7,7,0.6,0.6
2025-06-22T1500,2523A,105.8945,32.4535,广元市,黑石坡,,28,10,24,3,12,89,,68,58,5,10,7,8,0.4,0.4
2025-06-22T1500,2524A,105.821,32.4444,广元市,老城,,32,14,20,8,10,101,,79,76,10,15,3,4,1.9,0.8
2025-06-22T1500,2526A,105.8628,32.4287,广元市,监测站,,32,12,16,9,11,101,,81,77,9,13,7,8,0.5,0.5
2025-06-22T1500,3617A,105.8047,32.4166,广元市,经开区,,34,14,21,8,12,108,,80,77,9,12,3,4,0.5,0.5
2025-06-22T1500,1345A,113.2347,23.1423,广州市,广雅中学,,29,17,18,9,10,91,,58,58,11,21,2,3,0.6,0.5
2025-06-22T1500,1346A,113.2612,23.105,广州市,市五中,,31,23,19,12,9,99,,48,48,10,14,4,4,0.4,0.5
2025-06-22T1500,1348A,113.3478,23.0916,广州市,广东商学院,,21,13,19,8,10,66,,42,42,8,21,3,3,0.6,0.6
2025-06-22T1500,1349A,113.4332,23.1047,广州市,市八十六中,,15,13,14,6,7,46,,26,26,12,28,2,3,0.5,0.6
2025-06-22T1500,1350A,113.3505,22.9483,广州市,番禺中学,,18,10,16,6,7,57,,36,36,7,19,7,7,0.4,0.5
2025-06-22T1500,1351A,113.2146,23.3916,广州市,花都师范,,,25,25,11,11,78,,4,,10,26,3,4,,0.7
2025-06-22T1500,1352A,113.2597,23.1331,广州市,市监测站,,30,20,20,8,9,94,,50,50,6,14,6,6,0.3,0.4
2025-06-22T1500,1353A,113.5618,23.312,广州市,九龙镇镇龙,,29,23,27,12,13,90,,35,35,15,23,6,6,0.4,0.4
2025-06-22T1500,1354A,113.2765,23.1544,广州市,麓湖,,29,22,18,10,9,90,,48,48,10,16,2,2,0.6,0.6
2025-06-22T1500,1355A,113.443,23.3035,广州市,帽峰山森林公园,,32,14,11,3,4,100,,58,58,10,17,6,6,0.4,0.4
2025-06-22T1500,2846A,113.3221,23.1322,广州市,体育西,,30,23,20,16,10,94,,47,47,15,24,5,5,0.4,0.5
2025-06-22T1500,3298A,113.5717,23.5491,广州市,从化街口,,22,12,20,7,9,69,,50,50,8,18,8,8,0.6,0.7
2025-06-22T1500,3299A,113.3472,23.3692,广州市,白云竹料,,28,28,24,11,11,84,,55,55,11,20,3,3,0.6,0.7
2025-06-22T1500,3300A,113.2981,23.237,广州市,白云嘉禾,,31,31,21,16,11,99,,56,56,15,23,5,4,0.9,0.9
2025-06-22T1500,3301A,113.4256,23.1716,广州市,黄埔科学城,,21,19,21,10,8,66,,35,35,10,18,4,4,0.5,0.5
2025-06-22T1500,3302A,113.3942,23.0483,广州市,番禺大学城,,19,14,16,8,8,58,,37,37,9,21,4,4,0.6,0.6
2025-06-22T1500,3303A,113.4922,22.8168,广州市,南沙黄阁,,20,15,15,8,8,62,,36,36,1,9,4,4,0.4,0.5
2025-06-22T1500,3304A,113.5342,22.7896,广州市,南沙街,,20,13,14,3,6,63,,38,38,5,11,2,2,0.4,0.5
2025-06-22T1500,3443A,113.2902,23.5544,广州市,花都梯面,,33,20,19,11,9,103,,65,65,9,18,4,5,0.5,0.6
2025-06-22T1500,3445A,113.7858,23.7478,广州市,从化良口,,20,11,18,9,8,64,,47,47,3,8,6,6,0.5,0.6
2025-06-22T1500,3446A,113.8051,23.2614,广州市,增城荔城,,26,14,20,10,10,82,,46,46,6,16,6,6,0.4,0.4
2025-06-22T1500,2506A,109.6047,23.0666,贵港市,江南子站,,21,14,36,11,16,67,,47,47,2,15,5,7,0.4,0.6
2025-06-22T1500,2508A,109.5669,23.1065,贵港市,荷城子站,,19,15,25,3,7,60,,44,44,5,14,5,6,0.2,0.3
2025-06-22T1500,3405A,109.5886,23.1172,贵港市,新世纪学校,,21,12,18,9,11,65,,48,48,5,12,4,4,0.3,0.4
2025-06-22T1500,4260A,109.5933,23.0951,贵港市,中山路155-3号,,21,20,32,14,13,67,,47,47,5,15,3,5,0.2,0.5
2025-06-22T1500,1439A,106.6899,26.5998,贵阳市,马鞍山,,,17,15,,5,61,,49,49,8,8,3,3,0.4,0.3
2025-06-22T1500,1441A,106.6243,26.6266,贵阳市,鉴湖路,,21,14,17,3,3,67,,66,62,8,9,7,7,0.3,0.4
2025-06-22T1500,1442A,106.7487,26.6343,贵阳市,燕子冲,,25,19,22,17,20,74,,62,62,14,11,4,4,0.2,0.2
2025-06-22T1500,1443A,106.6555,26.4365,贵阳市,碧云窝,,27,14,21,3,8,84,,74,65,10,10,4,4,0.4,0.4
2025-06-22T1500,1445A,106.7109,26.6027,贵阳市,红边门,,25,7,14,3,7,78,,78,67,4,5,3,3,0.3,0.2
2025-06-22T1500,1446A,106.7164,26.5699,贵阳市,新华路,,23,,11,14,14,73,,75,64,14,12,3,3,0.5,0.4
2025-06-22T1500,1447A,106.674,26.5424,贵阳市,太慈桥,,20,12,13,3,7,62,,62,52,18,15,3,3,0.4,0.3
2025-06-22T1500,4230A,106.6882,26.5695,贵阳市,花果园大街66号,,22,,12,8,11,68,,81,61,9,9,2,3,0.4,0.4
2025-06-22T1500,4231A,106.6873,26.5169,贵阳市,漓江路57号,,22,9,14,3,4,70,,80,61,13,12,5,5,0.3,0.3
2025-06-22T1500,1864A,110.3089,25.2708,桂林市,龙隐路小学,,19,14,20,9,7,60,,48,48,6,8,8,9,0.5,0.5
2025-06-22T1500,1865A,110.2869,25.2178,桂林市,八中,,19,17,19,8,7,58,,46,46,7,12,6,7,0.4,0.4
2025-06-22T1500,3531A,110.296,25.1253,桂林市,旅游学院,,16,7,11,3,6,49,,42,42,2,9,2,4,0.2,0.3
2025-06-22T1500,4222A,110.1835,25.2444,桂林市,环湖路276号,,19,9,16,7,8,60,,45,45,5,17,4,4,0.4,0.4
2025-06-22T1500,4301A,110.2803,25.2773,桂林市,信义路13号,,,,19,11,11,58,,46,46,7,10,1,2,0.4,0.5
2025-06-22T1500,2674A,100.2561,34.4714,果洛藏族自治州,玛沁县大武镇,,45,19,20,6,13,142,,111,111,2,3,13,16,0.4,0.4
2025-06-22T1500,1129A,126.5422,45.755,哈尔滨市,岭北,,,20,9,10,5,,,103,103,7,9,8,10,0.7,0.8
2025-06-22T1500,1130A,126.561,45.8167,哈尔滨市,松北商大,,28,25,13,14,6,87,,84,84,6,8,4,4,0.4,0.5
2025-06-22T1500,1131A,126.979,45.5419,哈尔滨市,阿城会宁,,34,22,17,12,8,107,,100,100,9,14,8,10,0.4,0.5
2025-06-22T1500,1132A,126.599,45.7222,哈尔滨市,南岗学府路,,32,22,18,14,7,100,,90,90,6,8,7,7,0.4,0.5
2025-06-22T1500,1133A,126.689,45.7733,哈尔滨市,太平宏伟公园,,,35,15,16,8,93,,90,90,6,7,,5,0.1,0.3
2025-06-22T1500,1134A,126.635,45.7667,哈尔滨市,道外承德广场,,34,34,26,12,6,89,,85,85,7,9,7,6,0.4,0.5
2025-06-22T1500,1135A,126.685,45.7319,哈尔滨市,香坊红旗大街,,32,19,12,10,9,102,,96,96,5,8,2,2,0.4,0.6
2025-06-22T1500,1136A,126.6411,45.7258,哈尔滨市,动力和平路,,50,,16,35,10,101,,95,95,8,10,8,8,0.3,0.3
2025-06-22T1500,1137A,126.593,45.7478,哈尔滨市,道里建国路,,,,15,33,8,106,,96,96,3,4,15,4,0.3,0.6
2025-06-22T1500,1138A,126.615,45.61,哈尔滨市,平房东轻厂,,33,25,15,16,7,104,,89,89,8,14,9,9,0.3,0.3
2025-06-22T1500,1139A,126.595,45.9855,哈尔滨市,呼兰师专,,43,33,13,30,7,83,,85,85,5,6,6,7,0.2,0.3
2025-06-22T1500,1140A,126.6206,45.6842,哈尔滨市,省农科院,颗粒物(PM10),61,72,30,28,13,94,,86,86,10,13,7,8,0.4,0.6
2025-06-22T1500,2688A,93.5128,42.8172,哈密市,地区监测站,,42,,41,29,14,128,,99,97,3,8,20,11,0.1,0.2
2025-06-22T1500,2689A,93.4961,42.8328,哈密市,哈密师范学校,,39,22,32,3,10,124,,93,90,4,10,7,5,0.1,0.1
2025-06-22T1500,2671A,100.9048,36.9639,海北藏族自治州,海晏县西海镇,,48,7,12,6,10,151,,123,123,1,5,8,7,0.3,0.3
2025-06-22T1500,3867A,102.0738,36.5056,海东市,平安区公安北苑,,48,13,22,3,13,153,,103,103,2,11,9,10,0.4,0.7
2025-06-22T1500,1409A,110.576,19.9507,海口市,东寨港,,13,,10,6,6,41,,37,37,2,3,9,10,0.3,0.3
2025-06-22T1500,1410A,110.3232,20.0574,海口市,海南大学,,15,6,14,3,7,46,,43,43,2,3,3,3,0.3,0.3
2025-06-22T1500,1411A,110.283,20.0053,海口市,秀英海南医院,,14,12,20,6,7,44,,41,41,4,6,5,4,0.2,0.3
2025-06-22T1500,1412A,110.338,19.9969,海口市,海南师范大学,,15,12,15,3,7,48,,43,43,2,4,4,4,0.2,0.2
2025-06-22T1500,1413A,110.33,20.0356,海口市,龙华路环保局宿舍,,15,9,16,3,7,46,,43,43,3,5,5,5,0.2,0.2
2025-06-22T1500,3539A,110.5111,19.9736,海口市,桂林洋子站,,15,12,14,6,6,45,,41,41,4,4,4,4,0.2,0.2
2025-06-22T1500,2673A,100.6188,36.2866,海南藏族自治州,共和县恰卜恰镇,臭氧1小时,52,18,21,3,9,161,,134,134,1,10,10,12,0.5,0.5
2025-06-22T1500,2676A,97.3731,37.3753,海西蒙古族藏族自治州,德令哈市,臭氧1小时,63,18,20,13,12,170,,151,151,1,1,10,11,0.6,0.6
2025-06-22T1500,1048A,114.5302,36.6116,邯郸市,东污水处理厂,臭氧1小时,82,6,52,3,8,185,,165,165,7,29,4,13,0.3,0.8
2025-06-22T1500,1049A,114.4918,36.5713,邯郸市,矿院,臭氧1小时,90,18,38,3,12,192,,177,177,6,25,5,11,0.3,0.5
2025-06-22T1500,1050A,114.484,36.6133,邯郸市,丛台公园,臭氧1小时,90,10,41,6,16,192,,172,172,8,21,6,17,0.3,0.9
2025-06-22T1500,3458A,114.7895,36.5593,邯郸市,香泉濮院小区,臭氧1小时,82,22,57,3,10,185,,163,163,6,13,5,6,0.2,0.2
2025-06-22T1500,3579A,114.50634,36.77178,邯郸市,永年区实验高中,臭氧1小时,92,34,54,13,21,193,,167,167,6,25,5,12,0.5,0.8
2025-06-22T1500,3580A,114.20016,36.44293,邯郸市,峰峰矿区临水派出所,臭氧1小时,84,11,32,3,8,187,,172,172,6,16,6,12,0.3,0.8
2025-06-22T1500,2634A,106.9893,33.1842,汉中市,汉川机床厂子校,,27,23,24,13,12,84,,78,71,6,8,4,4,0.6,0.5
2025-06-22T1500,2635A,107.0154,33.0706,汉中市,市监测站,,34,34,25,14,14,98,,87,87,10,9,13,8,0.9,0.7
2025-06-22T1500,2636A,107.0089,33.1138,汉中市,鑫源开发区,,28,28,23,11,13,80,,88,76,12,10,9,8,0.9,0.7
2025-06-22T1500,2637A,107.007,33.0323,汉中市,南郑大河坎水厂,,30,27,22,14,13,95,,76,76,8,8,6,5,0.8,0.6
2025-06-22T1500,1223A,120.2072,30.2111,杭州市,滨江,,22,22,23,14,13,70,,56,56,32,20,6,6,0.8,0.7
2025-06-22T1500,1224A,120.0633,30.2747,杭州市,西溪,,20,8,15,6,14,63,,49,49,15,12,4,4,0.4,0.4
2025-06-22T1500,1226A,120.3417,30.3150,杭州市,下沙,,26,12,17,7,12,83,,70,70,22,17,4,4,0.4,0.4
2025-06-22T1500,1227A,120.1269,30.2456,杭州市,卧龙桥,,21,13,20,10,13,66,,54,54,19,13,7,7,0.8,0.7
2025-06-22T1500,1228A,120.1903,30.2692,杭州市,浙江农大,,19,13,22,10,15,60,,48,48,31,19,9,9,0.6,0.6
2025-06-22T1500,1230A,120.1197,30.3119,杭州市,和睦小学,,22,,17,8,10,68,,56,56,19,13,8,8,0.4,0.4
2025-06-22T1500,1231A,120.3019,30.4183,杭州市,临平镇,,28,8,28,3,8,87,,66,66,18,15,5,5,0.4,0.5
2025-06-22T1500,1232A,120.2753,30.1839,杭州市,城厢镇,,30,24,22,21,20,75,,55,55,25,15,8,7,0.7,0.7
2025-06-22T1500,1233A,120.0883,30.1808,杭州市,云栖,,19,16,20,7,7,58,,47,47,17,10,6,7,0.6,0.5
2025-06-22T1500,3557A,119.9464,30.0494,杭州市,镇二中,,25,17,23,17,18,60,,51,40,31,16,2,3,0.6,0.5
2025-06-22T1500,3558A,119.7183,30.2367,杭州市,市府大楼,,20,,8,3,7,63,,62,59,17,10,6,6,0.7,0.5
2025-06-22T1500,3656A,120.1556,30.2864,杭州市,消防大队,,24,11,18,10,16,74,,56,56,25,16,4,5,0.6,0.7
2025-06-22T1500,1270A,117.1959,31.7848,合肥市,明珠广场,,44,27,13,17,10,140,,103,103,13,14,5,4,0.5,0.4
2025-06-22T1500,1271A,117.3072,31.8764,合肥市,三里街,,40,17,9,9,6,126,,95,95,8,12,6,5,0.6,0.4
2025-06-22T1500,1272A,117.2588,31.8707,合肥市,琥珀山庄,,41,19,11,12,13,131,,102,102,8,11,6,6,0.6,0.5
2025-06-22T1500,1273A,117.1604,31.9052,合肥市,董铺水库,,,19,17,,8,118,,98,98,6,6,4,4,0.3,0.2
2025-06-22T1500,1274A,117.25,31.8571,合肥市,长江中路,,44,29,17,16,10,139,,107,107,8,9,6,6,0.6,0.5
2025-06-22T1500,1275A,117.266,31.9436,合肥市,庐阳区,,39,22,13,12,8,122,,106,106,8,10,8,8,0.7,0.6
2025-06-22T1500,1276A,117.3453,31.8616,合肥市,瑶海区,,44,27,13,17,8,138,,102,102,9,11,7,6,0.6,0.5
2025-06-22T1500,1277A,117.3027,31.7964,合肥市,包河区,,41,24,12,14,8,131,,88,88,15,32,5,4,0.7,0.5
2025-06-22T1500,1278A,117.2776,31.7385,合肥市,滨湖新区,,34,17,12,12,12,107,,87,87,8,10,8,8,0.5,0.5
2025-06-22T1500,1279A,117.1318,31.8403,合肥市,高新区,,41,22,14,16,10,129,,101,101,11,13,7,6,0.5,0.5
2025-06-22T1500,3464A,117.3803,31.9147,合肥市,高教基地,,43,14,12,11,7,135,,100,100,8,8,7,6,0.6,0.4
2025-06-22T1500,3614A,79.924,37.0877,和田地区,地区环保局,颗粒物(PM10),129,207,343,55,92,122,,97,97,6,14,1,2,0.5,0.5
2025-06-22T1500,3615A,79.9131,37.113,和田地区,市环保局,颗粒物(PM10),118,185,317,55,103,119,,79,79,5,18,1,1,0.3,0.3
2025-06-22T1500,2517A,108.0497,24.6947,河池市,市环保站,,16,,20,9,10,50,,40,40,5,7,3,3,0.5,0.6
2025-06-22T1500,2518A,108.0983,24.6989,河池市,市疾控中心,,18,10,17,8,8,56,,41,41,6,12,2,3,0.6,0.6
2025-06-22T1500,1696A,114.6778,23.7569,河源市,源西,,25,25,15,16,12,79,,55,55,9,10,4,4,0.4,0.5
2025-06-22T1500,1697A,114.6944,23.7586,河源市,东埔,,24,16,14,10,7,75,,50,50,8,11,4,4,0.3,0.4
2025-06-22T1500,1698A,114.6892,23.7233,河源市,老城,,25,,15,17,9,73,,52,52,3,7,4,4,0.1,0.2
2025-06-22T1500,1718A,115.4208,35.2464,菏泽市,气象局,臭氧1小时,83,28,44,13,23,186,,144,144,6,13,2,3,0.3,0.4
2025-06-22T1500,3374A,115.5564,35.0891,菏泽市,定陶老年大学,臭氧1小时,82,22,32,12,16,185,,148,148,9,14,3,3,0.2,0.3
2025-06-22T1500,4184A,115.4797,35.24401,菏泽市,永昌路1号,臭氧1小时,90,31,38,11,16,192,,149,149,7,10,5,5,0.2,0.2
2025-06-22T1500,4193A,115.4715,35.2800,菏泽市,长城路999号,臭氧1小时,103,29,41,11,19,205,,153,153,9,13,4,4,0.3,0.3
2025-06-22T1500,2514A,111.5264,24.4172,贺州市,环保小区,,21,16,20,3,14,66,,53,53,3,9,10,10,0.5,0.6
2025-06-22T1500,2515A,111.5608,24.4078,贺州市,政协大楼,,22,,18,11,11,69,,54,54,6,10,10,12,0.5,0.5
2025-06-22T1500,3534A,111.4744,24.4553,贺州市,西湾,,21,16,21,14,15,67,,48,48,7,10,10,10,0.4,0.5
2025-06-22T1500,2385A,114.17,35.9019,鹤壁市,市监测站,臭氧1小时,69,22,42,12,29,175,,173,173,6,12,6,8,0.7,0.8
2025-06-22T1500,2386A,114.2956,35.7511,鹤壁市,市交警支队,臭氧1小时,62,17,49,7,24,169,,163,163,10,21,4,4,0.3,0.6
2025-06-22T1500,2387A,114.2878,35.7306,鹤壁市,迎宾馆,臭氧1小时,57,24,55,10,29,165,,156,156,7,18,3,6,0.5,0.7
2025-06-22T1500,3474A,114.2617,35.6822,鹤壁市,大新区,臭氧1小时,63,27,53,7,30,170,,149,149,4,24,6,7,0.4,0.6
2025-06-22T1500,3596A,114.1572,35.9603,鹤壁市,南山宾馆,臭氧1小时,83,22,56,12,32,186,,180,180,2,11,6,6,0.4,0.5
2025-06-22T1500,2244A,130.2537,47.3416,鹤岗市,哈啤分公司,,30,22,13,7,5,96,,80,80,2,4,15,15,0.1,0.2
2025-06-22T1500,2245A,130.2684,47.3086,鹤岗市,斯达机电,,29,28,21,12,14,91,,77,77,4,7,13,15,0.2,0.3
2025-06-22T1500,2246A,130.3114,47.3388,鹤岗市,东山纸板厂,,29,29,22,17,10,86,,75,75,4,10,14,17,0.3,0.7
2025-06-22T1500,2247A,130.1097,47.3382,鹤岗市,五号水库,,30,10,9,8,6,94,,83,82,6,7,12,13,0.5,0.5
2025-06-22T1500,2263A,127.4833,50.2524,黑河市,交通局,,23,20,19,13,9,71,,55,55,11,7,7,7,0.3,0.4
2025-06-22T1500,2264A,127.5144,50.2341,黑河市,环保局,,25,11,17,3,11,80,,60,60,4,5,5,6,0.3,0.3
2025-06-22T1500,2265A,127.5291,50.2472,黑河市,大黑河岛,,20,20,7,14,13,64,,50,50,5,5,20,18,0.3,0.4
2025-06-22T1500,1074A,115.6838,37.7541,衡水市,电机北厂,臭氧1小时,72,21,47,3,14,177,,176,176,4,14,3,6,0.2,0.3
2025-06-22T1500,1075A,115.6303,37.7316,衡水市,市监测站,臭氧1小时,54,26,45,3,12,163,,172,172,2,14,6,7,0.2,0.2
2025-06-22T1500,3188A,115.6683,37.7217,衡水市,市城管局,臭氧1小时,67,24,47,10,17,173,,181,181,2,16,1,4,0.2,0.3
2025-06-22T1500,3459A,115.5989,37.5491,衡水市,地表水厂,臭氧1小时,75,33,55,7,13,180,,165,165,11,33,7,7,0.4,0.3
2025-06-22T1500,2456A,112.5003,26.9167,衡阳市,原169医院,,25,8,18,3,6,78,,70,70,8,9,1,2,0.5,0.5
2025-06-22T1500,2457A,112.6194,26.9258,衡阳市,衡阳化工总厂,,25,25,16,13,10,66,,67,66,7,7,5,4,0.5,0.4
2025-06-22T1500,2458A,112.6211,26.8956,衡阳市,珠晖区环保局,,,14,14,,,76,,72,72,6,8,6,6,0.6,0.5
2025-06-22T1500,2459A,112.6197,26.8733,衡阳市,市委党校,,24,13,14,3,6,74,,69,69,6,7,5,5,0.5,0.5
2025-06-22T1500,2460A,112.6006,26.8919,衡阳市,市监测站,,22,18,16,13,11,68,,69,68,7,7,6,6,0.5,0.4
2025-06-22T1500,2461A,112.5664,26.9056,衡阳市,真空机电公司,,24,24,15,12,12,64,,63,60,5,6,5,6,0.9,0.7
2025-06-22T1500,3399A,112.6703,26.882,衡阳市,师范学院,,26,8,16,3,7,81,,75,75,6,7,5,6,0.7,0.7
2025-06-22T1500,2608A,103.3772,23.3993,红河哈尼族彝族自治州,污水处理厂,,12,8,12,6,9,37,,31,31,2,5,7,7,0.3,0.4
2025-06-22T1500,2609A,103.3861,23.35,红河哈尼族彝族自治州,监测站,,28,,19,19,10,40,,32,32,1,4,5,5,0.3,0.3
2025-06-22T1500,3038A,103.3758,23.368,红河哈尼族彝族自治州,州图书馆,,16,,8,11,11,43,,35,35,2,5,1,2,0.2,0.2
2025-06-22T1500,1090A,111.6507,40.7517,呼和浩特市,呼市一监,,41,12,14,8,8,131,,111,111,3,11,8,8,0.3,0.4
2025-06-22T1500,1091A,111.6572,40.8033,呼和浩特市,小召,,43,17,14,10,8,137,,109,109,10,18,6,5,0.3,0.3
2025-06-22T1500,1094A,111.7516,40.8369,呼和浩特市,如意水处理厂,,42,20,20,12,12,134,,102,102,3,19,5,5,0.3,0.3
2025-06-22T1500,1095A,111.7276,40.8062,呼和浩特市,二十九中,,41,17,17,10,10,131,,107,107,4,14,5,5,0.4,0.5
2025-06-22T1500,1096A,111.5512,40.7866,呼和浩特市,工大金川校区,,42,16,21,8,9,133,,106,106,4,18,6,6,0.4,0.4
2025-06-22T1500,1097A,111.717,40.7612,呼和浩特市,化肥厂生活区,,45,22,21,9,8,143,,112,112,8,16,7,7,0.2,0.3
2025-06-22T1500,3698A,111.5968,40.8178,呼和浩特市,红旗小学,,44,14,13,8,8,138,,113,113,6,14,4,3,0.2,0.2
2025-06-22T1500,3699A,111.6518,40.8389,呼和浩特市,海东办,,43,17,16,9,8,136,,109,109,9,21,5,4,0.3,0.3
2025-06-22T1500,2192A,119.7594,49.2261,呼伦贝尔市,区环保局,,30,21,31,14,21,94,,80,80,7,17,4,5,0.4,0.4
2025-06-22T1500,3061A,119.7512,49.1577,呼伦贝尔市,国华电力东,,33,20,29,12,19,104,,87,87,4,10,4,4,0.3,0.4
2025-06-22T1500,1250A,120.0751,30.8669,湖州市,城西水厂,,30,26,20,21,14,83,,91,91,18,12,5,5,0.5,0.4
2025-06-22T1500,2873A,120.0830,30.8929,湖州市,仁皇山新区,,28,25,17,19,13,72,,88,88,23,13,4,4,0.7,0.5
2025-06-22T1500,2907A,120.1844,30.8596,湖州市,吴兴区站,,26,12,14,11,11,81,,87,87,20,13,6,6,0.4,0.4
2025-06-22T1500,3562A,120.4148,30.8538,湖州市,南浔区站,,22,15,19,14,14,68,,84,80,25,13,4,4,0.6,0.6
2025-06-22T1500,1607A,120.9049,40.7211,葫芦岛市,龙港区,,48,48,38,11,17,140,,114,114,14,28,10,24,0.4,0.6
2025-06-22T1500,1608A,120.8392,40.7514,葫芦岛市,化工街,,,31,26,7,8,147,,101,101,12,44,12,9,,0.5
2025-06-22T1500,1609A,120.8341,40.7073,葫芦岛市,新区,,45,22,29,11,11,144,,106,106,11,31,12,11,0.6,0.6
2025-06-22T1500,1610A,120.8695,40.7677,葫芦岛市,东城区,,50,50,43,11,13,132,,96,96,20,49,9,14,0.5,0.6
2025-06-22T1500,2482A,109.5981,27.5721,怀化市,林科所,,,6,6,3,3,61,,89,81,,2,3,4,0.3,0.3
2025-06-22T1500,2483A,109.9453,27.5444,怀化市,河西地税局,,22,6,4,3,3,68,,80,79,5,5,4,4,0.1,0.1
2025-06-22T1500,2484A,109.9781,27.5342,怀化市,市四医院,,19,10,7,8,5,58,,70,68,3,3,1,1,0.5,0.6
2025-06-22T1500,2485A,109.9972,27.5578,怀化市,监测楼,,20,11,7,3,4,63,,71,69,4,6,3,3,0.0,0.1
2025-06-22T1500,2486A,110.0394,27.583,怀化市,市委党校,,20,7,5,3,4,64,,76,73,3,3,3,4,0.2,0.2
2025-06-22T1500,1210A,119.036,33.5981,淮安市,钵池山,,50,22,25,17,20,160,,137,137,9,16,8,7,0.5,0.7
2025-06-22T1500,1211A,119.007,33.575,淮安市,北京南路,臭氧1小时,52,29,29,18,21,161,,133,133,2,20,7,7,0.5,0.7
2025-06-22T1500,1212A,118.989,33.6067,淮安市,市监测站,臭氧1小时,77,27,31,19,23,181,,151,151,8,21,11,9,0.4,0.5
2025-06-22T1500,1213A,119.135,33.5039,淮安市,楚州区监测站,,47,34,33,19,17,149,,125,125,2,19,8,7,0.7,0.7
2025-06-22T1500,3426A,118.8755,33.2894,淮安市,新华书店,臭氧1小时,72,34,21,17,15,177,,141,141,7,10,9,8,0.5,0.4
2025-06-22T1500,4206A,119.0288,33.6319,淮安市,承德北路606号,,,,39,20,17,155,,131,131,3,15,6,5,0.5,0.6
2025-06-22T1500,2282A,116.8004,33.975,淮北市,监测站,臭氧1小时,58,20,30,15,23,166,,128,128,2,5,8,6,0.7,0.7
2025-06-22T1500,2283A,116.8091,33.9007,淮北市,烈山区政府,臭氧1小时,55,45,54,18,23,164,,126,126,2,10,8,6,0.6,0.7
2025-06-22T1500,3330A,116.8873,33.9836,淮北市,杜集区检察院,臭氧1小时,54,31,44,10,31,163,,128,128,2,5,8,8,0.8,0.8
2025-06-22T1500,4017A,116.7923,33.9535,淮北市,市博物馆,臭氧1小时,57,23,30,11,21,165,,132,132,2,4,8,8,0.7,0.8
2025-06-22T1500,2277A,116.8305,32.7727,淮南市,潘集区政府,,44,35,19,27,17,139,,112,112,5,10,2,3,0.4,0.3
2025-06-22T1500,2279A,116.8569,32.5951,淮南市,谢家集区政府,,47,30,14,20,12,149,,113,113,9,10,6,6,0.3,0.2
2025-06-22T1500,2280A,116.8281,32.633,淮南市,八公山区政府,,48,32,16,19,9,151,,116,116,7,7,3,4,0.3,0.2
2025-06-22T1500,2894A,117.0566,32.6531,淮南市,经济技术开发区消防队,,41,34,18,21,11,130,,116,116,6,8,6,6,0.3,0.2
2025-06-22T1500,3329A,117.0108,32.5893,淮南市,山南新区,,45,,7,15,8,141,,119,119,4,4,6,6,0.4,0.3
2025-06-22T1500,4209A,117.0031,32.6445,淮南市,国庆中路369号,,,46,20,,14,147,,118,118,8,7,7,6,0.3,0.2
2025-06-22T1500,2446A,114.9028,30.4742,黄冈市,职工中心,,28,7,4,3,3,89,,94,87,2,2,7,7,0.4,0.4
2025-06-22T1500,2929A,114.8858,30.4519,黄冈市,红卫路,,28,12,11,12,11,89,,92,88,2,2,4,4,0.3,0.3
2025-06-22T1500,3398A,114.9136,30.4445,黄冈市,市林业局,,27,10,10,10,9,85,,86,83,2,2,6,6,0.3,0.3
2025-06-22T1500,2672A,102.0199,35.5102,黄南藏族自治州,同仁县隆务镇,颗粒物(PM10),57,63,24,3,5,104,,88,88,6,3,7,6,0.2,0.2
2025-06-22T1500,2295A,118.2903,29.6963,黄山市,延安路89号,,14,,8,3,5,44,,41,35,3,4,6,5,0.5,0.5
2025-06-22T1500,2297A,118.1371,30.2756,黄山市,黄山区政府5号楼,,17,16,8,3,7,53,,62,57,2,3,4,4,0.6,0.6
2025-06-22T1500,4210A,118.3354,29.7203,黄山市,滨江东路7-2号,,16,,14,8,6,49,,42,37,5,5,4,4,0.4,0.4
2025-06-22T1500,2423A,115.0601,30.2313,黄石市,沈家营,,27,6,8,3,0,85,,82,80,7,4,6,6,0.8,0.6
2025-06-22T1500,2426A,114.8988,30.2019,黄石市,铁山,,23,11,11,3,3,71,,79,74,23,10,3,4,0.8,0.6
2025-06-22T1500,2427A,115.0307,30.2092,黄石市,团城山,,,5,7,,0,97,,90,85,2,2,7,6,0.3,0.3
2025-06-22T1500,3149A,115.0235,30.1578,黄石市,笔架山北路,,28,11,7,3,0,89,,87,82,6,7,4,4,0.4,0.4
2025-06-22T1500,4185A,115.0780,30.21118,黄石市,磁湖东路29号,,25,13,8,3,1,78,,81,80,19,6,6,6,0.7,0.4
2025-06-22T1500,1392A,114.4183,23.0528,惠州市,河南岸金山湖子站,,10,10,19,3,10,31,,32,32,8,14,6,6,0.4,0.5
2025-06-22T1500,1393A,114.4053,23.0822,惠州市,下埔横江三路子站,,12,10,22,3,11,36,,36,36,8,17,4,5,0.1,0.3
2025-06-22T1500,1394A,114.4103,23.1142,惠州市,江北云山西路子站,,21,21,20,7,10,38,,36,36,8,15,5,8,0.4,0.5
2025-06-22T1500,1395A,114.4645,22.7833,惠州市,惠阳区承修路船湖子站,,19,9,18,3,8,58,,33,33,5,13,6,6,0.4,0.5
2025-06-22T1500,1396A,114.5317,22.7422,惠州市,大亚湾管委会子站,,18,6,14,3,6,56,,36,36,4,11,8,9,0.5,0.5
2025-06-22T1500,3314A,114.4338,22.8134,惠州市,惠阳秋长,,19,19,25,13,12,54,,39,39,15,18,9,9,0.4,0.5
2025-06-22T1500,3452A,114.6517,22.775,惠州市,大亚湾霞涌,,18,,13,8,6,57,,43,43,9,10,5,6,0.1,0.2
2025-06-22T1500,2240A,130.9762,45.3001,鸡西市,环保局,,27,17,12,7,7,86,,82,82,6,7,4,4,0.4,0.4
2025-06-22T1500,2243A,130.9429,45.3039,鸡西市,第一中学,,26,14,11,8,6,82,,81,81,3,5,8,7,0.2,0.2
2025-06-22T1500,3707A,131.0207,45.3073,鸡西市,欧美日汽修厂,,29,,16,9,7,91,,88,88,3,8,5,6,0.5,0.5
2025-06-22T1500,3709A,130.9967,45.3106,鸡西市,市政设施管理处,,28,14,14,3,8,88,,84,84,6,10,4,4,0.4,0.4
2025-06-22T1500,2367A,114.9754,27.0803,吉安市,红声器材厂,,23,20,18,3,6,73,,64,64,4,5,7,9,0.6,0.6
2025-06-22T1500,2368A,114.9658,27.0999,吉安市,市森林工业局,,25,20,18,3,6,78,,67,67,2,5,7,8,0.2,0.4
2025-06-22T1500,2369A,114.99,27.1312,吉安市,市环境监测站,,27,17,18,6,6,84,,72,72,1,2,12,15,0.3,0.3
2025-06-22T1500,2370A,115.0093,27.0968,吉安市,青原区法院,,24,20,18,6,6,74,,61,61,6,7,6,8,0.4,0.4
2025-06-22T1500,1772A,126.54,43.8622,吉林市,哈达湾,,36,,16,8,8,114,,93,93,4,13,6,7,0.2,0.2
2025-06-22T1500,1773A,126.5844,43.8358,吉林市,东局子,,34,16,18,9,11,106,,88,88,9,17,6,6,0.5,0.6
2025-06-22T1500,1774A,126.5052,43.8245,吉林市,电力学院,,36,7,14,3,7,113,,91,91,5,16,5,5,0.3,0.3
2025-06-22T1500,1775A,126.6133,43.8972,吉林市,江北,,36,20,23,8,9,115,,92,92,9,19,12,9,0.3,0.4
2025-06-22T1500,1776A,126.555,43.8306,吉林市,江南公园,,33,16,14,15,11,104,,84,84,7,15,4,4,1.1,0.5
2025-06-22T1500,2868A,126.4739,43.953,吉林市,九站,,38,14,13,3,5,120,,99,99,4,20,6,6,0.2,0.2
2025-06-22T1500,1299A,116.9862,36.6114,济南市,科干所,臭氧1小时,69,22,27,12,16,175,,164,164,8,14,5,6,0.5,0.5
2025-06-22T1500,1300A,116.9376,36.665,济南市,农科所,臭氧1小时,78,24,38,12,13,182,,166,166,11,21,8,8,0.2,0.3
2025-06-22T1500,1301A,117.1265,36.6734,济南市,开发区,臭氧1小时,92,27,33,12,18,193,,176,176,14,19,8,8,0.7,0.7
2025-06-22T1500,1303A,117.0624,36.6868,济南市,省种子仓库,臭氧1小时,105,34,39,12,15,209,,186,186,9,19,6,7,0.3,0.4
2025-06-22T1500,1304A,116.9489,36.6447,济南市,机床二厂,臭氧1小时,82,24,42,10,16,185,,171,171,12,29,6,6,0.5,0.5
2025-06-22T1500,1305A,117.0495,36.663,济南市,市监测站,臭氧1小时,79,22,33,12,15,183,,173,173,9,15,9,10,0.4,0.5
2025-06-22T1500,1306A,116.7675,36.5484,济南市,长清党校,臭氧1小时,58,,27,24,21,166,,164,164,10,23,5,6,0.4,0.4
2025-06-22T1500,1616A,117.6795,36.229,济南市,技术学院,,46,7,24,7,17,147,,134,134,5,29,7,9,0.5,0.8
2025-06-22T1500,1961A,117.532,36.6868,济南市,东山小学,臭氧1小时,80,22,30,10,14,184,,167,167,5,14,6,7,0.2,0.2
2025-06-22T1500,3059A,117.7161,36.2049,济南市,泰兴公司,,49,14,29,9,16,155,,136,136,6,34,8,9,0.5,0.7
2025-06-22T1500,3064A,117.6867,36.2171,济南市,莱芜战役纪念馆,,47,19,35,12,20,148,,133,133,2,28,9,8,0.6,1.2
2025-06-22T1500,3494A,117.1673,36.9782,济南市,济阳区政府,臭氧1小时,88,27,53,3,20,190,,170,170,9,18,9,9,0.3,0.5
2025-06-22T1500,3495A,117.1171,36.63,济南市,锦屏中学,臭氧1小时,77,20,26,12,13,181,,170,170,9,17,10,10,0.5,0.6
2025-06-22T1500,3682A,116.9814,36.6819,济南市,济南四建,臭氧1小时,93,22,33,15,20,194,,174,174,11,22,5,6,0.3,0.4
2025-06-22T1500,1653A,116.6251,35.4302,济宁市,火炬城,臭氧1小时,60,33,44,7,21,168,,132,132,5,9,5,6,0.3,0.5
2025-06-22T1500,1655A,116.5491,35.4042,济宁市,电化厂,臭氧1小时,84,35,46,17,31,187,,137,137,3,12,6,4,0.4,0.6
2025-06-22T1500,3500A,116.5814,35.3707,济宁市,北湖一中,臭氧1小时,100,46,49,21,34,200,,146,146,9,13,8,8,0.3,0.5
2025-06-22T1500,3501A,116.8249,35.5593,济宁市,服务中心,,49,17,36,7,20,155,,135,135,8,16,1,2,0.1,0.3
2025-06-22T1500,3678A,116.5907,35.4054,济宁市,市第七中学,臭氧1小时,83,33,47,12,22,186,,144,144,2,6,9,9,0.4,0.5
2025-06-22T1500,2255A,130.2751,46.8028,佳木斯市,佳纺,,20,12,10,3,6,64,,66,66,6,7,2,3,0.3,0.3
2025-06-22T1500,2256A,130.3995,46.8307,佳木斯市,发电厂,,22,19,12,6,7,70,,74,74,7,9,4,4,0.3,0.4
2025-06-22T1500,2257A,130.3258,46.7975,佳木斯市,环保局,,21,12,14,12,10,66,,69,69,5,10,3,3,0.4,0.4
2025-06-22T1500,2258A,130.3648,46.8032,佳木斯市,十一中,,23,13,13,7,9,71,,72,72,3,9,5,5,0.3,0.3
2025-06-22T1500,2259A,130.3794,46.7588,佳木斯市,四丰,,,13,9,,,,,,,5,6,1,1,0.4,0.4
2025-06-22T1500,1252A,120.7436,30.778,嘉兴市,清河小学,,31,16,23,9,13,97,,90,82,16,16,7,7,0.8,0.9
2025-06-22T1500,1253A,120.726,30.7478,嘉兴市,嘉兴学院,,29,14,21,12,16,91,,85,80,19,16,4,5,0.5,0.7
2025-06-22T1500,2872A,120.7846,30.7525,嘉兴市,南湖区残联,,30,25,28,12,15,95,,81,80,16,14,5,5,0.6,0.8
2025-06-22T1500,3407A,120.6916,30.7739,嘉兴市,秀洲住建,,29,13,16,9,11,91,,90,80,19,16,6,6,0.6,0.7
2025-06-22T1500,1945A,98.2908,39.7711,嘉峪关市,气象局,,,29,29,9,16,129,,108,108,15,17,52,26,,1
2025-06-22T1500,2884A,98.2672,39.7978,嘉峪关市,酒钢宾馆,,42,29,45,12,23,133,,110,110,4,18,47,60,0.3,0.7
2025-06-22T1500,3248A,98.2643,39.7724,嘉峪关市,雄关区,,41,39,39,25,24,131,,101,101,13,22,28,23,0.3,0.6
2025-06-22T1500,1383A,113.1064,22.6058,江门市,北街,,24,24,16,10,7,38,,29,29,4,11,2,2,0.3,0.4
2025-06-22T1500,1384A,113.0731,22.5835,江门市,西区,,18,,18,12,6,44,,35,35,2,12,8,8,0.3,0.4
2025-06-22T1500,1385A,113.0219,22.5311,江门市,圭峰西,,14,8,16,6,7,44,,33,33,3,8,4,3,0.4,0.4
2025-06-22T1500,1386A,113.0828,22.5947,江门市,东湖,,14,10,16,6,7,42,,33,33,5,11,6,6,0.4,0.5
2025-06-22T1500,3311A,113.1075,22.5647,江门市,江海富民,,17,17,23,3,12,43,,34,34,4,11,8,9,0.4,0.4
2025-06-22T1500,3449A,113.05,22.4667,江门市,新会银湖,,,,24,7,8,41,,28,28,2,8,2,2,0.3,0.3
2025-06-22T1500,3169A,113.2725,35.2067,焦作市,太极体育中心,臭氧1小时,123,53,52,19,26,245,,198,198,16,25,5,5,0.3,0.3
2025-06-22T1500,3335A,113.3137,35.2641,焦作市,马村街道办,臭氧1小时,109,36,46,28,25,218,,182,182,12,15,14,12,0.5,0.5
2025-06-22T1500,3336A,113.2465,35.2373,焦作市,焦作技师学院,臭氧1小时,110,47,43,17,17,219,,179,179,13,13,8,6,0.5,0.6
2025-06-22T1500,3477A,113.1656,35.2539,焦作市,中站许衡医院,臭氧1小时,118,37,46,31,29,236,,188,188,10,28,11,10,0.4,0.5
2025-06-22T1500,3981A,113.2449,35.1803,焦作市,原李万街道办,臭氧1小时,113,47,55,14,20,225,,175,175,12,20,11,12,0.8,0.8
2025-06-22T1500,4264A,113.2340,35.2190,焦作市,新安路1731号,臭氧1小时,115,43,45,22,20,229,,181,181,6,11,7,7,0.3,0.3
2025-06-22T1500,1708A,116.3701,23.5345,揭阳市,新兴,,29,29,18,13,10,43,,44,44,2,8,4,5,0.3,0.5
2025-06-22T1500,1709A,116.3264,23.5443,揭阳市,西马,,18,18,19,12,8,37,,38,38,5,8,2,2,0.5,0.5
2025-06-22T1500,1710A,116.3611,23.5626,揭阳市,东兴,,36,36,22,8,7,50,,50,50,4,11,2,2,0.2,0.4
2025-06-22T1500,1711A,116.4151,23.5294,揭阳市,渔湖,,18,15,25,12,9,44,,39,39,10,13,7,6,0.2,0.3
2025-06-22T1500,3320A,116.403,23.5699,揭阳市,曲溪,,17,6,15,6,7,54,,53,53,2,7,3,3,0.3,0.4
2025-06-22T1500,1944A,102.1692,38.5167,金昌市,天庆家园,,39,12,22,3,15,124,,82,82,5,12,13,14,0.6,0.8
2025-06-22T1500,4022A,102.1647,38.5371,金昌市,金川区人防中心,,43,16,29,6,16,135,,83,83,6,12,16,14,0.3,0.5
2025-06-22T1500,4239A,102.1930,38.5319,金昌市,长春路96号,,43,8,32,3,14,137,,92,92,4,12,9,8,0.4,0.6
2025-06-22T1500,1262A,119.647,29.077,金华市,十五中,,19,14,34,12,15,58,,62,62,9,18,2,2,0.4,0.5
2025-06-22T1500,1263A,119.686,29.1029,金华市,监测站,,16,16,34,9,16,50,,54,54,9,17,2,2,0.2,0.2
2025-06-22T1500,3659A,119.656,29.1131,金华市,气象局,,20,20,32,9,14,46,,48,48,22,22,2,2,0.5,0.4
2025-06-22T1500,1767A,121.1115,41.0879,锦州市,南山,,44,29,30,11,17,139,,107,107,6,27,9,20,0.4,0.6
2025-06-22T1500,1768A,121.0604,40.8428,锦州市,开发区,,50,25,40,7,17,157,,122,122,7,40,11,43,0.6,0.7
2025-06-22T1500,1769A,121.1836,41.1119,锦州市,百股街道,,46,35,32,7,10,146,,103,103,8,23,10,14,0.5,0.7
2025-06-22T1500,1770A,121.1178,41.1222,锦州市,天安街道,,45,23,30,9,13,143,,110,110,11,31,8,9,0.5,0.7
2025-06-22T1500,1771A,121.1303,41.1386,锦州市,北湖公园,,45,17,27,10,14,142,,104,104,6,23,8,10,0.4,0.5
2025-06-22T1500,2160A,112.85,35.5051,晋城市,自来水公司,臭氧1小时,110,47,48,27,23,220,,184,184,9,14,3,2,0,0.1
2025-06-22T1500,2161A,112.8318,35.4936,晋城市,白云商贸,臭氧1小时,105,44,51,9,13,210,,174,174,11,16,2,2,0.4,0.5
2025-06-22T1500,2162A,112.8508,35.4887,晋城市,市环保局,臭氧1小时,109,58,58,22,21,218,,178,178,9,17,9,8,0.0,0.1
2025-06-22T1500,2163A,112.8676,35.4897,晋城市,技术学院,臭氧1小时,94,39,47,17,20,195,,162,162,10,17,10,8,0.3,0.4
2025-06-22T1500,3620A,112.8271,35.4828,晋城市,泽州一中,臭氧1小时,111,44,41,22,18,221,,182,182,15,21,4,4,0.4,0.5
2025-06-22T1500,2173A,112.7249,37.7067,晋中市,南都小区,臭氧1小时,100,40,34,16,16,200,,166,166,2,12,1,3,0.5,0.4
2025-06-22T1500,2174A,112.6991,37.6982,晋中市,榆次区政府,臭氧1小时,100,39,36,19,14,200,,160,160,4,15,6,7,0.5,0.4
2025-06-22T1500,2865A,112.7195,37.6828,晋中市,榆次三中,臭氧1小时,104,36,34,14,10,208,,172,172,4,13,6,8,0.4,0.3
2025-06-22T1500,4200A,112.7478,37.6954,晋中市,迎宾街26号,臭氧1小时,105,36,34,12,11,209,,174,174,3,12,7,8,0.5,0.4
2025-06-22T1500,2439A,112.2014,31.0481,荆门市,竹园小学,,50,50,38,25,22,147,,115,115,6,9,6,6,0.3,0.5
2025-06-22T1500,2440A,112.1969,30.9891,荆门市,掇刀,,45,,31,29,22,141,,124,124,4,7,7,8,0.6,0.7
2025-06-22T1500,2441A,112.2213,31.0386,荆门市,石化一小,,47,40,39,27,15,150,,112,112,5,11,5,12,0.3,0.5
2025-06-22T1500,3012A,112.1849,31.0362,荆门市,西山林语,,48,35,26,23,19,151,,119,119,1,2,11,10,0.4,0.4
2025-06-22T1500,3547A,112.1632,31.0138,荆门市,龙泉中学南校,,46,35,25,28,18,145,,119,119,2,5,6,6,0.4,0.5
2025-06-22T1500,1844A,112.2494,30.3197,荆州市,市图书馆,,46,,23,19,11,147,,85,85,9,30,3,3,0.5,0.5
2025-06-22T1500,1845A,112.2008,30.3544,荆州市,市委党校,,42,25,26,21,16,132,,87,87,11,17,6,6,0.4,0.4
2025-06-22T1500,3194A,112.2747,30.3122,荆州市,管委会,,42,22,23,18,17,134,,81,81,6,24,6,5,0.6,0.8
2025-06-22T1500,4268A,112.1722,30.3366,荆州市,学苑路85号,,43,,20,22,17,135,,84,84,9,13,3,3,0.5,0.5
2025-06-22T1500,2343A,117.2117,29.2933,景德镇市,老干部活动中心,,18,17,17,3,5,55,,46,45,9,14,5,7,0.7,0.6
2025-06-22T1500,2344A,117.1894,29.2789,景德镇市,兽医站,,22,22,22,3,8,50,,41,41,5,12,4,7,0.5,0.4
2025-06-22T1500,2345A,117.1547,29.2617,景德镇市,台达陶瓷,,30,30,23,14,13,55,,44,44,19,18,78,33,0.9,1.3
2025-06-22T1500,2346A,117.2461,29.2956,景德镇市,陶研所,,17,17,17,7,6,51,,43,43,7,8,3,3,0.5,0.4
2025-06-22T1500,1803A,115.9872,29.6815,九江市,十里,,25,7,9,3,7,77,,85,75,11,8,2,2,0.7,0.5
2025-06-22T1500,1804A,115.9584,29.7046,九江市,茅山头,,26,6,9,3,7,83,,85,81,14,10,4,4,0.5,0.4
2025-06-22T1500,1805A,115.9877,29.7295,九江市,西园,,29,,9,9,5,91,,93,87,14,13,5,4,0.8,0.6
2025-06-22T1500,1808A,115.9114,29.6038,九江市,综合工业园,,24,6,9,3,3,74,,76,69,26,16,3,3,0.8,0.6
2025-06-22T1500,1809A,116.0721,29.7535,九江市,石化总厂,,27,,10,10,19,86,,84,77,5,7,6,6,0.9,0.7
2025-06-22T1500,1810A,115.9773,29.5698,九江市,庐山气象台,,23,6,6,3,6,73,,68,68,3,3,7,7,0.7,0.8
2025-06-22T1500,3190A,116.0254,29.6994,九江市,外国语学校,,26,,7,3,6,81,,79,76,9,8,5,6,0.7,0.5
2025-06-22T1500,4253A,116.0102,29.6594,九江市,莲花大道8号,,25,,5,6,8,79,,78,76,5,3,4,4,0.7,0.5
2025-06-22T1500,4240A,98.4958,39.7339,酒泉市,玉门东路5号,,42,,26,17,25,133,,120,120,3,8,10,10,0.1,0.2
2025-06-22T1500,4241A,98.5099,39.7506,酒泉市,北大街108号,,44,14,21,7,13,139,,122,122,3,7,11,11,0.1,0.2
2025-06-22T1500,2698A,76.0072,39.4467,喀什地区,巡警大队,颗粒物(PM10),81,112,130,34,33,116,,107,106,6,12,3,3,0.2,0.3
2025-06-22T1500,2699A,75.9755,39.4694,喀什地区,吾办,颗粒物(PM10),83,115,129,53,48,109,,104,103,10,13,4,3,0.3,0.4
2025-06-22T1500,4027A,75.9483,39.4689,喀什地区,老干局,颗粒物(PM10),79,108,143,36,34,107,,99,98,2,8,3,3,0.2,0.3
2025-06-22T1500,1824A,114.3389,34.7781,开封市,肿瘤医院,臭氧1小时,70,39,50,15,23,176,,129,129,8,18,3,3,0.2,0.4
2025-06-22T1500,1826A,114.2885,34.7965,开封市,世纪星幼儿园,臭氧1小时,70,29,49,9,36,176,,137,137,8,18,3,3,0.6,0.7
2025-06-22T1500,3147A,114.3438,34.8106,开封市,龙亭公园,臭氧1小时,82,38,42,11,24,185,,140,140,3,11,4,4,0.3,0.3
2025-06-22T1500,3210A,114.3644,34.7964,开封市,汴京公园,臭氧1小时,83,45,52,11,29,186,,140,140,12,19,5,5,0.2,0.4
2025-06-22T1500,3473A,114.2485,34.8306,开封市,技师学院,臭氧1小时,75,31,42,11,30,180,,139,139,8,14,5,5,0.3,0.5
2025-06-22T1500,3592A,114.4644,34.7556,开封市,祥符区生态环境局,臭氧1小时,67,41,44,17,23,173,,132,132,11,25,6,5,0.4,0.6
2025-06-22T1500,1951A,84.895,45.6094,克拉玛依市,长征新村,,38,26,24,3,8,119,,98,98,3,3,4,4,0.2,0.2
2025-06-22T1500,1952A,84.8988,45.5893,克拉玛依市,南林小区,,39,29,25,7,8,123,,100,100,2,5,4,3,0.1,0.1
2025-06-22T1500,1954A,84.905,44.3396,克拉玛依市,独山子区,,39,36,27,10,9,122,,101,101,3,5,7,7,0.3,0.2
2025-06-22T1500,1955A,85.6979,46.098,克拉玛依市,乌尔禾区商贸楼,,35,18,24,6,5,112,,85,85,2,6,4,4,0.3,0.3
2025-06-22T1500,3612A,85.1045,45.6899,克拉玛依市,白碱滩区新站,,40,14,22,14,13,128,,114,114,2,2,5,4,0.3,0.3
2025-06-22T1500,2697A,76.1454,39.7142,克孜勒苏柯尔克孜自治州,市人民政府,颗粒物(PM10),76,102,112,50,48,119,,120,110,1,4,3,7,0.1,0.2
2025-06-22T1500,3665A,76.1658,39.7157,克孜勒苏柯尔克孜自治州,克州文化中心,颗粒物(PM10),75,99,116,49,46,118,,120,112,1,4,2,6,0.3,0.3
2025-06-22T1500,1450A,102.8204,24.8886,昆明市,呈贡新区,,28,,7,12,8,88,,89,89,8,8,5,4,0.3,0.3
2025-06-22T1500,1452A,102.7252,25.0902,昆明市,龙泉镇,,30,6,10,3,6,94,,83,83,6,8,1,2,0.3,0.4
2025-06-22T1500,1453A,102.7266,25.0375,昆明市,东风东路,,30,13,15,8,11,94,,81,81,9,13,4,4,0.3,0.3
2025-06-22T1500,1454A,102.6742,25.0669,昆明市,金鼎山,,29,17,8,3,4,91,,82,82,10,11,3,2,0.3,0.4
2025-06-22T1500,1455A,102.6644,25.0401,昆明市,碧鸡广场,,28,9,11,3,6,87,,76,76,13,14,5,5,0.4,0.4
2025-06-22T1500,3179A,102.7494,25.0119,昆明市,官渡区博物馆,,27,21,12,8,9,86,,80,80,10,15,6,6,0.4,0.4
2025-06-22T1500,3375A,102.8017,24.8336,昆明市,青年创业园,,29,14,12,10,8,92,,88,88,8,10,7,7,0.4,0.5
2025-06-22T1500,3550A,102.7997,24.9786,昆明市,昆明学院,,31,11,12,7,9,98,,92,92,14,16,5,5,0.2,0.2
2025-06-22T1500,3551A,102.5967,24.6736,昆明市,晋宁区生态环境分局,,33,10,18,3,6,103,,89,89,5,4,2,2,0.3,0.4
2025-06-22T1500,3552A,102.6678,24.9856,昆明市,云天化总部,,26,9,11,6,8,82,,67,67,12,16,3,3,0.5,0.5
2025-06-22T1500,1456A,91.1319,29.6514,拉萨市,八廓街,臭氧1小时,57,22,19,10,10,165,,130,130,5,10,6,6,0.2,0.2
2025-06-22T1500,1457A,91.1221,29.6747,拉萨市,市环保局,臭氧1小时,65,20,30,12,11,172,,119,119,8,16,6,6,0.2,0.3
2025-06-22T1500,1458A,91.0874,29.6475,拉萨市,区监测站,臭氧1小时,55,10,22,8,8,164,,126,126,10,19,6,6,0.1,0.2
2025-06-22T1500,1459A,91.1774,29.6541,拉萨市,西藏大学,臭氧1小时,60,12,15,7,8,168,,128,128,9,11,3,3,0.2,0.2
2025-06-22T1500,1460A,90.9798,29.6588,拉萨市,区辐射站,,49,16,20,7,10,156,,111,111,10,18,6,6,0.2,0.2
2025-06-22T1500,1461A,91.0834,29.6292,拉萨市,拉萨火车站,臭氧1小时,54,10,16,9,8,163,,126,126,6,12,4,4,0.1,0.1
2025-06-22T1500,2520A,109.2203,23.7256,来宾市,来宾技工学校,,27,27,24,13,12,72,,49,49,4,11,6,8,0.4,0.4
2025-06-22T1500,3535A,109.1781,23.7297,来宾市,兴宾区政府,,25,,21,17,13,72,,51,51,4,10,4,6,0.6,0.6
2025-06-22T1500,4002A,109.2416,23.7461,来宾市,中南小学,,25,22,25,17,10,74,,51,51,5,11,7,7,0.3,1
2025-06-22T1500,1479A,103.831,36.0464,兰州市,铁路设计院,,40,22,31,20,23,125,,104,100,18,24,11,11,0.5,0.5
2025-06-22T1500,3241A,103.7439,36.0842,兰州市,百合公园,,41,11,27,7,14,129,,92,92,3,10,2,3,0.3,0.3
2025-06-22T1500,3242A,103.9611,35.998,兰州市,和平,,42,7,24,3,13,133,,119,113,6,7,9,9,0.7,0.6
2025-06-22T1500,4236A,103.6293,36.0938,兰州市,庄浪东路808号,,42,,32,22,24,134,,94,94,12,19,12,11,0.4,0.3
2025-06-22T1500,4237A,103.7251,36.1043,兰州市,安宁西路88号,,45,15,30,13,21,142,,107,107,2,7,6,7,0.3,0.3
2025-06-22T1500,4238A,103.8470,36.0676,兰州市,北滨河东路1号,,43,,30,17,19,136,,104,104,9,21,11,11,0.6,0.6
2025-06-22T1500,3245A,103.6633,36.533,兰州新区,新区管委会,,46,30,35,21,26,145,,112,112,5,7,7,10,0.4,0.4
2025-06-22T1500,3246A,103.6975,36.4789,兰州新区,舟曲中学,,45,9,31,9,19,143,,111,111,5,9,6,13,0.4,0.4
2025-06-22T1500,1067A,116.6708,39.5111,廊坊市,药材公司,臭氧1小时,103,25,39,16,14,206,,146,146,10,24,3,4,0.3,0.3
2025-06-22T1500,1068A,116.7214,39.5589,廊坊市,开发区,臭氧1小时,108,32,40,11,13,215,,156,156,8,19,2,2,0.3,0.3
2025-06-22T1500,1070A,116.7244,39.5269,廊坊市,北华航天学院,臭氧1小时,102,38,50,16,13,203,,151,151,6,17,2,3,0.3,0.3
2025-06-22T1500,2919A,116.7022,39.5453,廊坊市,河北工业大学,臭氧1小时,108,33,50,14,14,215,,153,153,8,19,4,4,0.3,0.3
2025-06-22T1500,2535A,103.7723,29.5462,乐山市,花湖湾,,42,14,20,11,15,133,,82,82,4,11,3,4,0.5,0.6
2025-06-22T1500,2536A,103.7627,29.5844,乐山市,牛耳桥,,45,19,22,17,17,142,,98,98,8,12,8,8,0.7,0.7
2025-06-22T1500,2537A,103.7508,29.6006,乐山市,市第三水厂,,44,,24,25,18,140,,101,101,9,15,5,6,0.6,0.7
2025-06-22T1500,2538A,103.7571,29.5664,乐山市,市监测站,,43,11,15,7,16,135,,91,91,3,7,6,6,0.5,0.6
2025-06-22T1500,2599A,100.2497,26.8802,丽江市,丽江古城,,24,13,14,3,4,76,,69,69,7,16,9,9,0.4,0.5
2025-06-22T1500,2600A,100.2203,26.8906,丽江市,市中心,,25,,7,3,5,78,,65,65,6,9,7,7,0.6,0.7
2025-06-22T1500,1267A,119.914,28.4514,丽水市,监测站大楼,,18,18,18,3,6,32,,21,21,17,23,2,3,0.3,0.4
2025-06-22T1500,1268A,119.93,28.4586,丽水市,莲都小学,,22,21,18,3,7,68,,48,48,6,16,4,3,0.3,0.3
2025-06-22T1500,1269A,119.879,28.4231,丽水市,余庄前,,16,10,16,3,9,51,,40,40,4,9,3,3,0.4,0.5
2025-06-22T1500,1173A,119.176,34.5885,连云港市,市环境监测站,臭氧1小时,98,31,36,22,31,198,,140,140,12,22,7,6,0.6,0.6
2025-06-22T1500,3000A,119.3581,34.6972,连云港市,德源药业,臭氧1小时,85,39,44,22,25,188,,136,136,6,15,10,8,0.9,0.9
2025-06-22T1500,3007A,119.178,34.844,连云港市,新城一中,臭氧1小时,114,48,40,44,31,228,,156,156,11,16,10,7,1.1,0.8
2025-06-22T1500,3008A,119.3608,34.7519,连云港市,胡沟管理处,臭氧1小时,94,46,31,24,25,195,,151,151,33,20,13,7,0.7,0.5
2025-06-22T1500,3009A,119.1478,34.5911,连云港市,矿山设计院,臭氧1小时,88,31,40,17,27,190,,127,127,7,15,8,7,0.5,0.6
2025-06-22T1500,3434A,119.2413,34.6539,连云港市,工贸学校,臭氧1小时,87,48,67,29,35,189,,149,149,4,5,9,8,0.6,0.7
2025-06-22T1500,3664A,119.4172,34.7341,连云港市,连云街道,臭氧1小时,103,41,40,26,26,205,,154,154,19,12,13,9,0.7,0.6
2025-06-22T1500,2571A,102.3431,27.8099,凉山彝族自治州,青龙寺,,31,6,10,3,2,98,,76,76,1,2,4,4,0.5,0.5
2025-06-22T1500,2572A,102.2721,27.8415,凉山彝族自治州,邛海宾馆,,36,36,24,18,9,115,,79,79,8,8,11,7,0.4,0.3
2025-06-22T1500,2573A,102.2625,27.898,凉山彝族自治州,西昌市政府,,37,,11,16,9,118,,82,82,6,9,10,9,0.5,0.4
2025-06-22T1500,2574A,102.2685,27.8851,凉山彝族自治州,凉山州政府,,37,15,10,12,12,117,,83,83,9,11,10,8,0.6,0.6
2025-06-22T1500,4229A,102.2342,27.8859,凉山彝族自治州,凯乐南路30号,,37,16,14,8,9,118,,81,81,8,12,11,8,0.5,0.5
2025-06-22T1500,2212A,123.2,41.1953,辽阳市,宏伟区,,37,18,29,11,8,117,,114,114,3,12,6,9,0.5,0.8
2025-06-22T1500,2213A,123.1683,41.2495,辽阳市,新华园,,41,23,40,9,11,130,,118,118,3,18,7,10,0.3,0.7
2025-06-22T1500,2214A,123.2354,41.2639,辽阳市,滨河路,,35,18,37,13,12,112,,106,106,5,20,10,14,0.3,0.6
2025-06-22T1500,2215A,123.149,41.2991,辽阳市,铁西工业园,,35,17,46,7,19,112,,101,101,5,25,6,16,0.5,1.3
2025-06-22T1500,2227A,125.1358,42.8845,辽源市,环保局,,44,23,19,3,5,139,,101,101,7,17,3,4,0.1,0.2
2025-06-22T1500,3239A,125.0764,42.9078,辽源市,银鹰制药,,46,11,17,3,7,146,,106,106,7,28,4,4,0.2,0.2
2025-06-22T1500,1625A,115.9848,36.4372,聊城市,区政府,臭氧1小时,70,16,38,7,17,176,,158,158,4,14,8,9,0.5,0.6
2025-06-22T1500,2878A,116.0072,36.4343,聊城市,聊大东校,臭氧1小时,73,,41,18,24,178,,162,162,5,17,9,8,0.4,0.6
2025-06-22T1500,3200A,115.9819,36.4978,聊城市,监控中心,臭氧1小时,78,17,36,9,16,182,,165,165,3,17,8,9,0.4,0.6
2025-06-22T1500,3513A,116.0445,36.4361,聊城市,九州社区,臭氧1小时,79,24,46,6,17,183,,179,179,5,14,6,6,0.7,0.6
2025-06-22T1500,4018A,116.0567,36.4608,聊城市,星美广场,臭氧1小时,69,27,46,12,17,175,,160,160,6,17,11,10,0.6,0.6
2025-06-22T1500,2632A,94.3681,29.6376,林芝市,林芝监测站,,32,19,16,3,7,100,,56,56,4,8,3,4,0.2,0.2
2025-06-22T1500,2633A,94.3616,29.6616,林芝市,林芝人民医院,,35,11,15,3,6,110,,58,58,2,3,5,4,0.0,0.1
2025-06-22T1500,2603A,100.0781,23.8982,临沧市,市环保局,,25,,16,17,17,40,,36,36,8,8,1,2,0.4,0.4
2025-06-22T1500,2604A,100.0894,23.8822,临沧市,市气象局,,12,12,16,3,10,30,,32,31,17,9,8,8,0.4,0.4
2025-06-22T1500,1733A,111.5531,36.0783,临汾市,临钢医院,臭氧1小时,101,29,44,16,17,202,,163,163,8,15,8,8,0.6,0.7
2025-06-22T1500,1734A,111.5028,36.0714,临汾市,技工学校,臭氧1小时,99,35,46,16,26,199,,158,158,5,14,7,8,0.6,0.7
2025-06-22T1500,1736A,111.5018,36.0855,临汾市,市委,臭氧1小时,101,45,56,13,17,201,,162,162,9,17,8,9,0.6,0.8
2025-06-22T1500,3018A,111.505,36.1014,临汾市,唐尧大酒店,臭氧1小时,88,52,60,20,18,190,,148,148,6,14,8,8,0.5,0.7
2025-06-22T1500,4244A,111.4879,36.0530,临汾市,启星学校,臭氧1小时,101,31,41,27,29,202,,160,160,6,13,6,5,0.6,0.8
2025-06-22T1500,4271A,103.2464,35.6123,临夏回族自治州,滨河东路1号,,38,11,20,3,8,120,,97,97,2,4,10,8,0.1,0.2
2025-06-22T1500,4310A,103.2093,35.5995,临夏回族自治州,新华街21号,,41,6,19,3,10,129,,106,106,2,6,5,5,0.2,0.2
2025-06-22T1500,1618A,118.3429,35.0532,临沂市,沂河小区,臭氧1小时,73,29,56,13,35,178,,151,151,16,25,8,9,0.3,0.5
2025-06-22T1500,1619A,118.295,35.0583,临沂市,鲁南制药厂,臭氧1小时,75,31,63,14,33,180,,155,155,17,25,8,10,0.4,0.6
2025-06-22T1500,1620A,118.2794,34.9976,临沂市,新光毛纺厂,臭氧1小时,74,17,54,13,32,179,,160,160,9,23,7,10,0.4,0.6
2025-06-22T1500,1621A,118.3956,35.0888,临沂市,河东保险公司,臭氧1小时,88,19,43,7,26,190,,156,156,12,17,6,8,0.4,0.5
2025-06-22T1500,3370A,118.3564,35.0215,临沂市,十里堡居委,臭氧1小时,99,22,48,7,37,199,,173,173,11,24,8,10,0.4,0.6
2025-06-22T1500,3496A,118.3604,35.1084,临沂市,南坊新区,臭氧1小时,92,22,56,7,30,193,,158,158,12,22,8,10,0.6,0.7
2025-06-22T1500,3860A,118.3920,35.0300,临沂市,皇山花园小区,臭氧1小时,80,,48,20,36,184,,160,160,10,20,10,12,0.3,0.6
2025-06-22T1500,1870A,109.4856,24.3895,柳州市,柳东小学,,21,16,20,13,8,67,,47,47,3,11,9,11,0.4,0.4
2025-06-22T1500,1871A,109.4157,24.3277,柳州市,环保监测站,,28,,22,19,11,64,,42,42,5,13,6,7,0.8,0.8
2025-06-22T1500,1872A,109.389,24.341,柳州市,河西水厂,,23,18,25,7,15,73,,45,45,6,17,4,5,0.5,0.5
2025-06-22T1500,1873A,109.4311,24.2921,柳州市,市四中,,21,14,23,13,11,67,,41,41,7,17,7,8,0.4,0.5
2025-06-22T1500,1874A,109.4006,24.3631,柳州市,市九中,,47,47,30,20,10,76,,48,48,5,15,10,10,0.5,0.6
2025-06-22T1500,1875A,109.4958,24.3134,柳州市,古亭山,,23,20,21,13,8,73,,46,46,4,10,4,5,0.5,0.5
2025-06-22T1500,3402A,109.5422,24.3996,柳州市,市二中,,22,18,21,9,8,69,,52,52,6,13,12,18,0.3,0.4
2025-06-22T1500,2307A,116.5079,31.737,六安市,监测大楼,,30,17,11,14,12,94,,88,88,6,2,4,7,0.2,0.3
2025-06-22T1500,2308A,116.4738,31.7643,六安市,皖西学院,,33,19,9,16,8,103,,102,102,5,3,4,4,0.3,0.2
2025-06-22T1500,2309A,116.4996,31.7905,六安市,朝阳厂,,29,13,8,8,9,92,,91,91,10,8,6,6,0.3,0.2
2025-06-22T1500,2310A,116.5567,31.7886,六安市,开发区,,32,23,12,10,10,100,,95,95,1,3,2,2,0.3,0.3
2025-06-22T1500,2577A,104.83,26.5917,六盘水市,黄土坡,,34,8,11,6,7,107,,90,90,6,9,10,9,0.5,0.5
2025-06-22T1500,2578A,104.89,26.5939,六盘水市,水钢,,33,12,23,7,8,105,,78,71,5,18,10,24,0.4,1.2
2025-06-22T1500,2579A,104.8475,26.5894,六盘水市,民中,,31,8,13,3,4,98,,90,90,11,12,9,9,0.3,0.4
2025-06-22T1500,2580A,104.9544,26.5506,六盘水市,双水,,30,,8,18,7,94,,80,80,13,17,10,10,0.4,0.5
2025-06-22T1500,2336A,117.0217,25.1033,龙岩市,龙岩市监测站,,17,17,13,3,9,51,,39,39,3,9,3,4,0.3,0.4
2025-06-22T1500,2337A,117.0258,25.0661,龙岩市,闽西职业技术学院,,15,,18,3,8,46,,36,36,2,8,3,12,0.4,0.5
2025-06-22T1500,2338A,117.0196,25.0306,龙岩市,龙岩学院,,17,17,14,3,5,48,,38,38,1,4,3,4,0.2,0.3
2025-06-22T1500,2885A,104.9339,33.3826,陇南市,滨江中学,,34,21,35,13,17,108,,104,104,2,4,4,4,0.6,0.6
2025-06-22T1500,3247A,104.955,33.371,陇南市,市总工会,,36,36,40,7,10,114,,109,109,2,5,6,6,0.6,0.6
2025-06-22T1500,2487A,111.9589,27.8901,娄底市,电视发射台,,27,16,8,8,2,85,,78,78,4,3,7,6,0.4,0.4
2025-06-22T1500,2488A,111.9975,27.725,娄底市,市监测站,,30,,7,21,6,85,,85,85,8,9,8,7,0.6,0.6
2025-06-22T1500,2489A,112.0194,27.7314,娄底市,市委党校,,29,14,9,9,5,91,,94,94,4,6,2,2,0.5,0.5
2025-06-22T1500,2490A,111.9561,27.7569,娄底市,涟钢,,29,7,14,6,7,92,,83,83,9,12,2,3,0.4,0.6
2025-06-22T1500,2491A,111.9892,27.7044,娄底市,市政府,,33,18,8,3,6,103,,102,102,5,5,5,5,0.4,0.4
2025-06-22T1500,1893A,105.4324,28.9634,泸州市,九狮山,,40,32,35,28,30,111,,56,56,16,22,5,5,0.3,0.3
2025-06-22T1500,1894A,105.4427,28.9063,泸州市,小市上码头,,,17,28,12,15,99,,50,50,,9,13,13,0.6,0.6
2025-06-22T1500,1895A,105.4241,28.8573,泸州市,兰田宪桥,,35,19,22,11,14,110,,53,53,5,13,8,8,0.5,0.6
2025-06-22T1500,1896A,105.4379,28.8833,泸州市,市环监站,,29,15,26,10,15,90,,88,77,7,17,8,8,0.2,0.2
2025-06-22T1500,4272A,105.3689,28.7783,泸州市,纳溪中医医院,,28,25,28,12,18,88,,48,48,14,18,4,4,0.8,0.9
2025-06-22T1500,2183A,111.1406,37.5211,吕梁市,环保局,臭氧1小时,105,29,56,15,19,209,,148,148,8,21,7,5,0.6,0.5
2025-06-22T1500,2185A,111.1297,37.5136,吕梁市,自来水公司,臭氧1小时,101,30,52,15,16,202,,138,138,7,22,8,7,0.6,0.5
2025-06-22T1500,2867A,111.1283,37.51,吕梁市,马茂庄小学,臭氧1小时,113,41,56,10,19,225,,149,149,13,32,8,7,0.7,0.5
2025-06-22T1500,1812A,112.3931,34.6516,洛阳市,市委党校,臭氧1小时,101,31,40,23,28,202,,162,162,8,15,8,11,0.5,0.6
2025-06-22T1500,1815A,112.494,34.6886,洛阳市,河南林校,臭氧1小时,109,44,48,26,29,218,,161,161,8,18,7,6,0.5,0.5
2025-06-22T1500,1816A,112.3844,34.623,洛阳市,开发区管委会,臭氧1小时,101,31,36,23,24,202,,157,157,8,13,11,12,0.5,0.5
2025-06-22T1500,1817A,112.4267,34.6258,洛阳市,市委新办公区,臭氧1小时,93,40,42,21,26,194,,155,155,8,12,10,12,0.2,0.3
2025-06-22T1500,3340A,112.6005,34.6326,洛阳市,伊滨,臭氧1小时,104,48,58,26,27,208,,156,156,9,20,7,6,0.5,0.5
2025-06-22T1500,3341A,112.4951,34.6332,洛阳市,中移产业园,臭氧1小时,102,42,45,24,26,204,,157,157,8,18,8,10,0.6,0.7
2025-06-22T1500,3593A,112.5736,34.8993,洛阳市,吉利监测站,臭氧1小时,63,26,45,13,23,170,,152,152,4,17,6,7,0.3,0.4
2025-06-22T1500,3635A,112.3677,34.662,洛阳市,河科大西苑校区,臭氧1小时,101,31,42,14,18,201,,154,154,7,16,9,13,0.4,0.5
2025-06-22T1500,3636A,112.4388,34.6781,洛阳市,英才小学,臭氧1小时,102,34,48,22,29,203,,148,148,8,16,10,10,0.6,0.8
2025-06-22T1500,4214A,112.4600,34.6949,洛阳市,春都路1号院,臭氧1小时,108,41,47,21,25,216,,157,157,6,12,5,6,0.6,0.7
2025-06-22T1500,2399A,114.051,33.5699,漯河市,三五一五工厂,臭氧1小时,59,17,26,16,19,167,,134,134,6,13,5,5,0.5,0.6
2025-06-22T1500,2400A,114.0055,33.5698,漯河市,漯河大学,臭氧1小时,59,27,29,9,15,167,,135,135,9,13,4,4,0.3,0.4
2025-06-22T1500,2401A,114.0138,33.5828,漯河市,市水利局,臭氧1小时,55,14,28,14,16,164,,134,134,7,10,5,5,0.4,0.5
2025-06-22T1500,2402A,114.0261,33.5698,漯河市,市广电局,臭氧1小时,59,15,24,9,17,167,,136,136,5,11,2,2,0.4,0.5
2025-06-22T1500,3478A,113.9749,33.5664,漯河市,市图书馆,臭氧1小时,55,26,30,3,16,164,,132,132,9,13,3,4,0.2,0.3
2025-06-22T1500,4250A,114.0892,33.5882,漯河市,韶山路11号,臭氧1小时,54,31,35,12,17,163,,130,130,10,13,2,3,0.4,0.5
2025-06-22T1500,1798A,118.5092,31.6837,马鞍山市,湖东路四小,,38,26,11,20,12,120,,113,113,7,5,7,7,0.6,0.5
2025-06-22T1500,1799A,118.5024,31.6449,马鞍山市,开发区,,39,22,11,18,8,122,,114,114,9,7,6,6,0.7,0.6
2025-06-22T1500,1802A,118.6245,31.7241,马鞍山市,濮塘,,37,19,9,13,8,116,,111,111,10,7,7,7,0.8,0.7
2025-06-22T1500,3633A,118.4918,31.6809,马鞍山市,雨山,,37,19,10,14,10,117,,110,110,10,8,6,6,0.6,0.5
2025-06-22T1500,4191A,118.5274,31.72227,马鞍山市,慈湖高新区,,38,28,15,19,10,120,,114,114,8,8,5,5,0.6,0.4
2025-06-22T1500,1686A,111.0286,21.4688,茂名市,电白南海,,15,12,15,9,8,45,,42,42,3,4,2,2,0.3,0.3
2025-06-22T1500,1687A,110.9294,21.6533,茂名市,茂石化七小,,13,12,15,3,4,41,,37,37,4,5,2,2,0.2,0.2
2025-06-22T1500,1688A,110.9107,21.6687,茂名市,健康路,,14,9,13,7,4,44,,40,40,5,6,2,3,0.2,0.3
2025-06-22T1500,1689A,110.8592,21.6828,茂名市,高岭,,17,17,18,3,1,40,,38,38,7,8,3,4,0.2,0.3
2025-06-22T1500,3450A,111.01,21.5165,茂名市,电白水东,,13,9,10,3,2,41,,39,39,4,4,4,4,0.3,0.3
2025-06-22T1500,2539A,104.0308,30.0478,眉山市,黑龙滩水库,,46,,13,13,16,146,,103,103,1,3,2,2,0.6,0.6
2025-06-22T1500,2540A,103.8416,30.0874,眉山市,气象局,,50,15,23,9,10,158,,107,107,8,16,3,3,0.4,0.4
2025-06-22T1500,3137A,103.8578,30.0744,眉山市,市委党校,,47,17,17,9,9,148,,104,104,8,14,4,4,0.6,0.6
2025-06-22T1500,3148A,103.8291,30.0564,眉山市,区人社局,,48,33,35,9,6,153,,114,114,9,14,7,7,0.6,0.6
2025-06-22T1500,1690A,116.1231,24.3284,梅州市,梅江月梅,,19,6,21,3,6,59,,42,42,3,7,6,6,0.5,0.5
2025-06-22T1500,1691A,116.0797,24.2719,梅州市,梅县新城,,15,12,14,3,4,48,,35,35,2,5,6,9,0.4,0.4
2025-06-22T1500,1692A,116.1248,24.2654,梅州市,环境监控中心,,15,11,17,3,6,46,,36,36,4,9,2,3,0.4,0.5
2025-06-22T1500,3315A,116.1233,24.2991,梅州市,梅龙,,17,6,14,3,6,53,,40,40,2,6,6,6,0.4,0.4
2025-06-22T1500,1878A,104.7778,31.4741,绵阳市,富乐山,,39,14,24,10,15,123,,98,98,5,9,8,8,0.4,0.5
2025-06-22T1500,1880A,104.6697,31.4668,绵阳市,高新区自来水公司,,38,18,26,3,8,121,,95,95,5,11,7,8,0.5,0.5
2025-06-22T1500,1881A,104.7287,31.5075,绵阳市,三水厂,,40,,26,6,16,127,,101,101,4,11,8,9,0.5,0.6
2025-06-22T1500,3491A,104.69,31.5322,绵阳市,西科大附属小学,,41,17,27,10,15,130,,101,101,5,15,8,8,0.2,0.2
2025-06-22T1500,3492A,104.5648,31.5343,绵阳市,安州区旅游局,,38,6,19,3,8,121,,95,95,5,13,6,6,0.2,0.2
2025-06-22T1500,4226A,104.7651,31.4531,绵阳市,绵阳市气象局,,36,11,21,9,13,114,,89,89,5,9,8,8,0.3,0.4
2025-06-22T1500,1784A,129.61,44.561,牡丹江市,环保大楼,,30,20,18,16,15,94,,90,90,6,12,8,8,0.3,0.3
2025-06-22T1500,1785A,129.6115,44.5782,牡丹江市,文化广场,,28,19,19,9,13,87,,87,87,10,14,6,6,0.3,0.3
2025-06-22T1500,1786A,129.5904,44.5963,牡丹江市,第一医院,,30,9,13,6,9,95,,92,92,6,12,6,6,0.4,0.4
2025-06-22T1500,1787A,129.6364,44.6075,牡丹江市,机车工厂,,28,12,17,9,7,88,,88,88,6,14,6,6,0.3,0.3
2025-06-22T1500,1788A,129.6386,44.5462,牡丹江市,第一中学,,29,10,17,3,10,92,,89,89,5,12,6,5,0.3,0.3
2025-06-22T1500,2531A,105.0703,29.61,内江市,市监测站,,36,22,23,17,17,113,,77,77,7,11,6,7,0.6,0.6
2025-06-22T1500,2532A,105.0717,29.5947,内江市,东兴区政府,,35,13,19,10,10,112,,78,78,7,13,3,2,0.4,0.5
2025-06-22T1500,2533A,105.0653,29.5817,内江市,内江二中,,36,16,21,15,20,113,,76,76,9,13,6,6,0.5,0.5
2025-06-22T1500,2534A,105.0406,29.5822,内江市,内江日报社,,38,24,22,19,18,120,,85,85,8,12,11,10,0.4,0.3
2025-06-22T1500,2628A,92.0657,31.4846,那曲市,那曲监测站,,46,36,46,12,18,145,,109,109,12,21,7,7,0.1,0.3
2025-06-22T1500,4243A,92.0515,31.4787,那曲市,那曲市委宣传部,,50,10,31,3,13,160,,,,4,15,8,9,0.2,0.3
2025-06-22T1500,1290A,115.8931,28.6843,南昌市,省外办,,31,8,12,7,8,98,,84,84,16,13,3,3,0.7,0.6
2025-06-22T1500,1291A,115.8886,28.7003,南昌市,省林业公司,,24,6,7,3,5,76,,65,64,11,12,8,8,0.8,0.6
2025-06-22T1500,1292A,115.8126,28.7442,南昌市,林科所,,21,6,7,3,3,66,,63,63,5,6,4,4,0.4,0.3
2025-06-22T1500,1294A,115.8518,28.687,南昌市,建工学校,,24,,11,3,14,76,,66,63,6,8,6,6,0.6,0.4
2025-06-22T1500,1295A,115.8921,28.6424,南昌市,象湖,,22,7,10,3,5,69,,63,60,10,11,6,6,0.8,0.6
2025-06-22T1500,1296A,115.7423,28.7996,南昌市,武术学校,,20,14,17,10,10,62,,57,57,5,4,8,8,0.4,0.3
2025-06-22T1500,3046A,115.9084,28.6062,南昌市,机电学校,,21,13,14,3,6,65,,57,54,14,14,3,4,0.6,0.5
2025-06-22T1500,3690A,115.9721,28.7031,南昌市,外国语学校,,26,,10,3,7,82,,72,70,5,8,9,9,0.7,0.6
2025-06-22T1500,4192A,115.9316,28.68677,南昌市,南京东路235号,,22,6,16,3,3,69,,66,62,12,12,2,8,0.6,0.5
2025-06-22T1500,1906A,106.0789,30.8023,南充市,南充市委,,44,17,10,12,6,138,,106,106,7,8,5,5,0.3,0.3
2025-06-22T1500,1907A,106.1031,30.8217,南充市,南充炼油厂,,40,14,14,9,7,127,,98,98,5,7,6,5,0.2,0.2
2025-06-22T1500,4227A,106.1083,30.7884,南充市,梨树横街98号,,40,16,11,16,8,127,,97,97,5,7,4,4,0.3,0.3
2025-06-22T1500,4304A,106.1172,30.843,南充市,清泉寺北路188号,,35,27,18,10,7,112,,89,89,21,8,4,3,0.3,0.3
2025-06-22T1500,4305A,106.067,30.7616,南充市,同庆路1号,,40,11,10,7,8,126,,96,96,5,6,3,3,0.2,0.2
2025-06-22T1500,1151A,118.8086,32.1065,南京市,迈皋桥,,37,21,14,17,10,116,,88,88,1,9,4,4,0.5,0.5
2025-06-22T1500,1152A,118.7538,32.0551,南京市,草场门,,40,24,14,12,11,128,,104,104,14,13,2,2,0.4,0.4
2025-06-22T1500,1153A,118.7794,32.0745,南京市,山西路,,44,27,16,7,6,140,,107,107,5,12,4,4,0.3,0.3
2025-06-22T1500,1154A,118.7752,32.0023,南京市,中华门,,38,17,8,12,6,120,,96,96,9,11,8,7,0.3,0.3
2025-06-22T1500,1155A,118.8109,32.0309,南京市,瑞金路,,39,22,8,19,9,124,,98,98,2,5,6,6,0.4,0.4
2025-06-22T1500,1156A,118.7997,32.0754,南京市,玄武湖,,38,22,24,3,6,121,,,,8,8,4,4,0.5,0.6
2025-06-22T1500,1157A,118.6414,32.0931,南京市,浦口,,39,27,19,14,7,122,,101,101,13,12,3,3,0.3,0.3
2025-06-22T1500,1158A,118.7356,31.9996,南京市,奥体中心,,40,23,12,12,8,128,,107,107,15,12,4,4,0.2,0.3
2025-06-22T1500,1159A,118.9125,32.1028,南京市,仙林大学城,,39,22,20,9,5,124,,99,99,6,9,6,6,0.5,0.5
2025-06-22T1500,3422A,118.8436,31.9198,南京市,江宁彩虹桥,,39,16,11,12,8,123,,103,103,9,10,3,4,0.5,0.5
2025-06-22T1500,3427A,118.8554,32.3578,南京市,六合雄州,,45,23,21,20,13,142,,122,122,10,16,4,3,0.6,0.5
2025-06-22T1500,4249A,118.8708,31.3402,南京市,汶溪路181号,,28,,4,10,4,89,,96,96,20,14,3,4,0.7,0.5
2025-06-22T1500,4312A,119.019,31.6512,南京市,中山西路1号,,28,,7,18,7,87,,88,88,15,8,4,4,1.0,0.7
2025-06-22T1500,1401A,108.3103,22.7881,南宁市,二十一中,,26,26,24,11,10,53,,46,46,10,9,1,2,0.4,0.5
2025-06-22T1500,1402A,108.3141,22.8528,南宁市,北湖,,20,17,22,7,12,62,,50,50,5,8,5,4,0.4,0.4
2025-06-22T1500,1403A,108.3206,22.8225,南宁市,市监测站,,20,20,21,12,13,52,,47,47,11,7,5,6,0.4,0.5
2025-06-22T1500,1404A,108.3829,22.8037,南宁市,大自然花园,,21,21,25,10,13,60,,54,54,2,5,4,4,0.4,0.5
2025-06-22T1500,1406A,108.2397,22.8467,南宁市,区农职院,,28,28,23,3,12,66,,51,51,6,10,13,4,0.4,0.5
2025-06-22T1500,1407A,108.3275,22.735,南宁市,英华嘉园,,17,,22,8,12,54,,49,49,7,10,7,7,0.5,0.5
2025-06-22T1500,3401A,108.4834,22.7618,南宁市,红星社区,,19,14,24,8,14,60,,46,46,2,5,1,2,0.4,0.5
2025-06-22T1500,4221A,108.2177,22.7774,南宁市,乐贤路16号,,21,21,24,9,12,65,,50,50,5,13,6,6,0.5,0.6
2025-06-22T1500,2332A,118.1681,26.6369,南平市,南平市监测站,,19,9,14,7,6,60,,48,48,2,8,4,5,0.4,0.5
2025-06-22T1500,2333A,118.1825,26.6489,南平市,南平铝业有限公司,,19,9,16,3,4,60,,50,50,2,6,4,5,0.6,0.6
2025-06-22T1500,2334A,118.1756,26.6272,南平市,南平七中,,21,,15,7,6,66,,51,51,1,6,5,5,0.4,0.5
2025-06-22T1500,1168A,120.9098,31.9663,南通市,狼山街道,,34,7,8,3,3,107,,100,100,6,6,3,3,0.6,0.6
2025-06-22T1500,1169A,120.86,32.0005,南通市,虹桥,,,15,10,14,8,105,,98,94,,12,1,1,1.1,0.6
2025-06-22T1500,1170A,120.87,32.02,南通市,城中,,33,18,10,10,4,104,,100,96,9,7,4,3,1.1,0.7
2025-06-22T1500,1171A,120.94,31.93,南通市,星湖花园,,31,8,3,8,6,98,,99,94,8,8,2,2,0.3,0.3
2025-06-22T1500,1172A,120.81,32.0417,南通市,紫琅学院,,31,14,7,8,2,99,,99,92,10,8,4,4,0.5,0.4
2025-06-22T1500,3291A,121.067,32.062,南通市,通州监测站,,35,7,4,3,2,111,,108,104,5,3,6,5,1.1,0.6
2025-06-22T1500,3432A,120.9348,31.9883,南通市,环境教育馆,,31,12,12,3,3,98,,96,93,7,7,2,2,0.1,0.1
2025-06-22T1500,2404A,112.5224,33.0122,南阳市,瓦房庄,臭氧1小时,62,34,37,20,21,169,,128,128,8,12,6,6,0.5,0.5
2025-06-22T1500,2405A,112.5003,32.9735,南阳市,汉画馆,,49,29,36,11,21,155,,123,123,6,13,6,6,0.5,0.6
2025-06-22T1500,2406A,112.5573,33.027,南阳市,气象站,臭氧1小时,60,27,34,14,18,168,,126,126,2,8,6,6,0.4,0.4
2025-06-22T1500,2407A,112.5481,32.9689,南阳市,理工学院,,50,29,35,17,22,157,,125,125,5,12,5,5,0.4,0.4
2025-06-22T1500,4008A,112.5234,32.9922,南阳市,卧龙区政府,臭氧1小时,58,20,36,19,22,166,,129,129,6,11,5,5,0.4,0.5
2025-06-22T1500,1234A,121.8358,29.911,宁波市,区环保大楼,,32,32,39,11,14,89,,68,68,38,36,5,5,0.5,0.6
2025-06-22T1500,1235A,121.56,29.82,宁波市,万里学院,,36,34,28,25,20,92,,73,69,36,20,2,3,0.7,0.6
2025-06-22T1500,1236A,121.713,29.9572,宁波市,龙赛医院,,28,28,31,6,10,83,,81,66,20,21,2,5,0.4,0.5
2025-06-22T1500,1240A,121.5856,29.8635,宁波市,太古小学,,33,33,35,15,14,90,,76,69,30,18,5,4,0.6,0.6
2025-06-22T1500,1241A,121.524,29.8674,宁波市,市环境监测中心,,30,30,26,15,12,86,,76,72,28,20,5,4,0.6,0.6
2025-06-22T1500,2871A,121.6147,29.9017,宁波市,万里国际学校,,32,32,26,16,12,88,,78,65,33,23,4,4,0.6,0.6
2025-06-22T1500,3710A,121.5594,29.8975,宁波市,白沙活动中心,,31,22,21,11,12,98,,84,79,22,16,4,4,0.4,0.4
2025-06-22T1500,2341A,119.5388,26.6612,宁德市,宁德市监测站,,16,16,23,8,12,46,,49,49,3,14,4,5,0.5,0.7
2025-06-22T1500,3209A,119.5231,26.6562,宁德市,宁德一中,,15,12,22,3,9,48,,44,44,2,8,4,5,0.2,0.4
2025-06-22T1500,2618A,98.8601,25.8567,怒江傈僳族自治州,州监测站,,15,14,19,3,13,46,,33,33,5,7,6,7,0.4,0.4
2025-06-22T1500,2619A,98.8546,25.8417,怒江傈僳族自治州,泸水一中,,10,6,14,3,9,32,,21,21,6,10,5,5,0.4,0.4
2025-06-22T1500,1888A,101.6891,26.571,攀枝花市,弄弄坪,,29,19,17,13,5,91,,75,75,10,11,4,5,0.6,0.7
2025-06-22T1500,1889A,101.5769,26.5928,攀枝花市,河门口,,,25,14,20,11,98,,62,62,17,21,16,7,,1.1
2025-06-22T1500,1890A,101.7169,26.585,攀枝花市,炳草岗,,31,27,16,14,6,98,,65,65,9,20,7,7,0.8,0.8
2025-06-22T1500,1891A,101.7369,26.5008,攀枝花市,仁和,,27,20,8,15,6,86,,72,72,8,8,9,7,0.5,0.5
2025-06-22T1500,2835A,101.7227,26.567,攀枝花市,四十中小,,34,13,12,7,7,108,,77,77,8,11,7,6,0.8,0.8
2025-06-22T1500,1604A,122.0303,41.1489,盘锦市,开发区,臭氧1小时,74,50,28,23,14,179,,142,142,20,22,6,6,0.5,0.5
2025-06-22T1500,1605A,122.0485,41.0883,盘锦市,兴隆台,,49,30,28,18,12,156,,146,146,17,21,6,5,0.4,0.4
2025-06-22T1500,1606A,121.8297,41.1028,盘锦市,新生街道,臭氧1小时,68,27,19,11,11,174,,135,135,8,17,9,9,0.5,0.5
2025-06-22T1500,1832A,113.3257,33.742,平顶山市,新华旅馆,臭氧1小时,73,44,50,19,28,178,,130,130,8,22,6,6,0.5,0.6
2025-06-22T1500,1833A,113.2919,33.737,平顶山市,规划设计院,臭氧1小时,68,23,49,22,33,174,,130,130,7,21,7,7,0.4,0.6
2025-06-22T1500,1834A,113.182,33.774,平顶山市,平顶山工学院,臭氧1小时,67,27,51,12,30,173,,147,147,5,14,3,4,0.4,0.5
2025-06-22T1500,3204A,113.3025,33.73,平顶山市,规划局,臭氧1小时,77,34,45,17,22,181,,135,135,5,18,6,6,0.4,0.6
2025-06-22T1500,3594A,112.8867,33.9116,平顶山市,石龙区,臭氧1小时,99,42,60,26,31,199,,163,163,8,35,9,12,0.4,0.6
2025-06-22T1500,2656A,106.6692,35.5461,平凉市,聚贤嘉苑,,34,30,44,10,17,108,,104,104,17,25,6,8,0.8,0.7
2025-06-22T1500,2657A,106.7021,35.5307,平凉市,博物馆,,36,33,50,11,20,113,,108,108,24,29,12,10,0.7,0.9
2025-06-22T1500,2347A,114.0997,27.5002,萍乡市,武功山,,21,6,4,3,3,65,,45,45,4,4,14,14,0.3,0.3
2025-06-22T1500,2348A,113.8385,27.6434,萍乡市,中医院,,23,16,25,14,16,73,,48,48,13,11,15,12,1.2,0.9
2025-06-22T1500,2349A,113.8493,27.6253,萍乡市,市政府车库,,20,6,14,3,12,64,,43,43,8,10,7,6,0.5,0.4
2025-06-22T1500,2350A,113.8676,27.6435,萍乡市,市环保局,,27,27,20,9,14,68,,44,44,10,9,10,8,1.0,0.8
2025-06-22T1500,2351A,113.866,27.6198,萍乡市,安源区政府,,22,10,21,9,9,69,,48,48,6,8,8,8,0.5,0.5
2025-06-22T1500,2319A,119.0141,25.4325,莆田市,荔城区仓后路,,40,38,28,8,11,126,,77,77,8,11,5,4,0.5,0.5
2025-06-22T1500,2320A,119.0015,25.4553,莆田市,莆田市监测站,,39,32,25,8,11,123,,78,78,9,11,5,4,0.4,0.3
2025-06-22T1500,2321A,119.1119,25.4561,莆田市,涵江区六中,,41,39,26,9,11,129,,80,80,8,14,2,2,0.4,0.4
2025-06-22T1500,2322A,119.1013,25.3215,莆田市,秀屿区政府,,42,35,25,19,11,133,,85,85,6,11,4,6,0.5,0.4
2025-06-22T1500,2392A,115.0312,35.7636,濮阳市,环保局,臭氧1小时,105,31,44,16,26,210,,188,188,10,15,8,7,0.2,0.4
2025-06-22T1500,2394A,115.0574,35.7609,濮阳市,油田运输公司,臭氧1小时,103,39,51,19,23,206,,185,185,11,17,7,7,0.4,0.6
2025-06-22T1500,3021A,115,35.7668,濮阳市,濮水河管理处,臭氧1小时,88,33,45,20,28,190,,161,161,13,23,7,5,0.3,0.4
2025-06-22T1500,4216A,115.0924,35.7686,濮阳市,任丘路479号,臭氧1小时,104,37,60,18,27,207,,176,176,4,13,10,8,0.6,0.8
2025-06-22T1500,2601A,100.98,22.7633,普洱市,市环保局,,18,18,22,6,13,34,,28,28,2,3,4,4,0.5,0.5
2025-06-22T1500,2602A,100.9817,22.8322,普洱市,普洱第二中学,,20,20,22,6,15,37,,29,29,4,5,6,6,0.5,0.5
2025-06-22T1500,2262A,131.0518,45.8751,七台河市,新一中,,31,11,9,3,8,97,,93,93,4,6,9,9,0.7,0.7
2025-06-22T1500,3345A,131.0577,45.7879,七台河市,中波台,,23,8,8,8,8,71,,68,68,6,10,8,6,0.3,0.3
2025-06-22T1500,3637A,131.0176,45.7761,七台河市,人民广场,,23,20,13,16,10,70,,69,69,7,11,11,11,0.4,0.5
2025-06-22T1500,3684A,130.8781,45.8222,七台河市,新建矿广场,,,,7,6,10,78,,75,75,7,10,10,10,0.4,0.4
2025-06-22T1500,1779A,123.9305,47.3636,齐齐哈尔市,安居小区,,33,16,22,10,9,104,,90,90,8,14,7,6,0.3,0.4
2025-06-22T1500,1780A,123.9488,47.3386,齐齐哈尔市,中心广场,,34,14,30,12,8,108,,91,91,10,16,6,6,0.4,0.5
2025-06-22T1500,1781A,123.9483,47.3227,齐齐哈尔市,农牧车辆厂,,33,22,25,12,9,103,,88,88,11,12,5,5,1.1,0.2
2025-06-22T1500,1783A,123.945,47.2988,齐齐哈尔市,市环境监测站,,35,12,18,3,8,109,,93,93,5,10,4,4,0.2,0.2
2025-06-22T1500,3662A,123.6333,47.2075,齐齐哈尔市,富区青少年活动中心,,34,26,35,7,13,106,,92,92,6,15,3,4,0.4,0.5
2025-06-22T1500,2591A,107.9783,26.5747,黔东南苗族侗族自治州,市环境监测站,,18,8,11,7,8,57,,67,62,6,10,2,2,0.6,0.6
2025-06-22T1500,2881A,107.8908,26.5311,黔东南苗族侗族自治州,凯里学院,,,,8,5,7,69,,67,66,4,8,2,2,0.4,0.4
2025-06-22T1500,2593A,107.5228,26.2403,黔南布依族苗族自治州,小围寨,,12,7,10,3,5,37,,38,36,6,6,3,2,0.5,0.5
2025-06-22T1500,3538A,107.5175,26.2978,黔南布依族苗族自治州,沙坝,,18,14,19,12,7,44,,32,32,9,9,5,4,0.7,0.7
2025-06-22T1500,2589A,104.9022,25.0925,黔西南布依族苗族自治州,场坝街,,27,11,20,6,10,84,,71,68,18,10,14,4,0.4,0.4
2025-06-22T1500,2590A,104.8811,25.0992,黔西南布依族苗族自治州,坪东大道,,26,12,22,7,13,81,,69,69,13,12,5,2,0.3,0.3
2025-06-22T1500,2502A,108.6236,21.9667,钦州市,市环保站,,22,22,20,9,8,52,,44,44,8,11,3,2,0.4,0.4
2025-06-22T1500,2503A,108.6549,21.9481,钦州市,沙埠小学,,31,31,26,9,12,49,,42,42,8,14,2,3,0.3,0.3
2025-06-22T1500,2504A,108.5989,21.7431,钦州市,港区一小,,24,24,30,9,12,45,,33,33,9,16,2,3,0.3,0.5
2025-06-22T1500,3404A,108.5959,21.9633,钦州市,北职校,,21,21,25,7,12,50,,46,46,5,9,3,2,0.4,0.4
2025-06-22T1500,1043A,119.7493,40.0116,秦皇岛市,第一关,臭氧1小时,109,43,44,19,16,217,,182,182,9,28,9,8,0.4,0.5
2025-06-22T1500,1044A,119.5897,39.9499,秦皇岛市,监测站,臭氧1小时,107,46,46,17,15,213,,170,170,10,34,9,10,0.5,0.7
2025-06-22T1500,1046A,119.5251,39.9041,秦皇岛市,建设大厦,臭氧1小时,98,46,49,15,15,198,,169,169,10,24,8,12,0.5,0.7
2025-06-22T1500,3132A,119.610547,39.943889,秦皇岛市,文明里,臭氧1小时,110,43,50,23,12,220,,176,176,10,27,9,11,0.5,0.7
2025-06-22T1500,4198A,119.5090,39.8253,秦皇岛市,北戴河轮滑馆,臭氧1小时,123,51,51,30,21,246,,198,198,9,18,7,10,0.7,0.8
2025-06-22T1500,1307A,120.6659,36.2403,青岛市,仰口,臭氧1小时,79,70,46,37,25,183,,150,150,19,13,8,8,0.9,0.9
2025-06-22T1500,1310A,120.4134,36.0658,青岛市,市南区东部子站,臭氧1小时,113,51,47,29,29,225,,195,195,19,15,11,11,0.5,0.5
2025-06-22T1500,1311A,120.3664,36.1032,青岛市,四方区子站,臭氧1小时,109,41,50,34,32,217,,206,206,20,19,10,9,0.6,0.6
2025-06-22T1500,1312A,120.2994,36.054,青岛市,市南区西部子站,臭氧1小时,95,51,54,34,33,196,,179,179,34,29,10,9,0.8,0.7
2025-06-22T1500,1313A,120.4581,36.0858,青岛市,崂山区子站,臭氧1小时,113,46,43,31,27,226,,182,182,22,19,10,9,0.4,0.4
2025-06-22T1500,1315A,120.3999,36.3083,青岛市,城阳区子站,,44,,42,12,22,138,,144,144,8,22,5,8,0.2,0.4
2025-06-22T1500,1966A,120.0405,35.8735,青岛市,黄岛区4号,臭氧1小时,132,66,56,44,35,263,,214,214,25,24,13,12,1.0,0.9
2025-06-22T1500,3362A,120.5014,36.4034,青岛市,即墨2号,,43,12,41,3,31,135,,130,130,3,16,3,13,0.2,0.3
2025-06-22T1500,3642A,120.3503,36.0736,青岛市,市北区南部,臭氧1小时,88,52,45,39,35,190,,174,174,20,21,11,9,0.6,0.6
2025-06-22T1500,3643A,120.3948,36.1805,青岛市,李沧区北部,臭氧1小时,64,44,49,29,32,171,,166,166,17,20,10,10,0.7,0.7
2025-06-22T1500,4290A,120.1969,35.9546,青岛市,珠江路669号,臭氧1小时,135,68,48,56,36,269,,222,222,16,20,10,9,0.6,0.5
2025-06-22T1500,1702A,113.0426,23.691,清远市,环保大楼,,30,,12,16,10,93,,58,58,10,20,8,6,0.2,0.3
2025-06-22T1500,1703A,113.0208,23.7106,清远市,凤城街办,,32,29,22,22,15,80,,54,54,12,22,7,7,0.3,0.4
2025-06-22T1500,3025A,113.0477,23.6344,清远市,技师学院,,25,21,23,10,10,80,,57,57,7,21,9,8,0.4,0.5
2025-06-22T1500,3318A,112.9903,23.7403,清远市,清新太和,,24,21,21,11,9,74,,56,56,10,20,8,8,0.4,0.5
2025-06-22T1500,3455A,113.076,23.7198,清远市,清城东城,,29,24,23,17,10,92,,57,57,6,18,10,9,0.3,0.4
2025-06-22T1500,2661A,107.6325,35.7357,庆阳市,庆阳五中,,41,36,36,12,23,130,,140,140,7,10,6,7,0.4,0.5
2025-06-22T1500,2662A,107.6364,35.7067,庆阳市,市环保局,,42,36,36,14,18,132,,,,4,7,7,8,0.4,0.4
2025-06-22T1500,1916A,103.7897,25.5035,曲靖市,环境监测站,,29,11,17,3,9,92,,87,87,6,9,2,2,0.5,0.5
2025-06-22T1500,1917A,103.8,25.5364,曲靖市,烟厂办公区,,31,14,14,3,9,97,,94,94,3,5,3,3,0.6,0.7
2025-06-22T1500,3376A,103.7947,25.462,曲靖市,南苑二区,,31,22,16,12,9,98,,94,94,8,10,4,4,0.6,0.6
2025-06-22T1500,3377A,103.7444,25.5261,曲靖市,曲靖师范学院,,25,8,10,8,6,80,,93,92,18,11,6,5,0.4,0.4
2025-06-22T1500,1264A,118.8692,28.9398,衢州市,环保大楼,,18,18,31,9,15,38,,24,24,12,15,4,4,0.3,0.3
2025-06-22T1500,1265A,118.8709,28.9666,衢州市,实验学校,,14,13,31,7,16,44,,29,29,6,17,4,4,0.2,0.3
2025-06-22T1500,1266A,118.8621,28.9808,衢州市,衢州学院,,15,11,26,6,14,47,,30,30,6,19,5,4,0.3,0.4
2025-06-22T1500,1611A,118.5819,24.9117,泉州市,涂山街,,40,40,26,12,11,122,,77,77,11,15,3,4,0.5,0.5
2025-06-22T1500,1612A,118.5972,24.8978,泉州市,津头埔,,39,38,23,16,9,122,,80,80,10,14,3,3,0.5,0.5
2025-06-22T1500,1613A,118.6663,24.9424,泉州市,万安,,39,36,22,13,8,124,,80,80,8,11,3,3,0.4,0.4
2025-06-22T1500,3529A,118.6333,24.9264,泉州市,城华南路,,38,26,19,12,9,120,,78,78,9,12,4,5,0.5,0.4
2025-06-22T1500,2626A,88.8876,29.2718,日喀则市,日喀则监测站,,50,6,14,3,7,159,,136,136,4,10,12,12,0.2,0.3
2025-06-22T1500,3726A,88.8781,29.2426,日喀则市,林业技术推广中心,,47,9,17,3,6,149,,120,120,3,5,8,8,0.3,0.3
2025-06-22T1500,1659A,119.471,35.4209,日照市,监测站,臭氧1小时,115,51,52,28,38,230,,174,174,21,27,10,6,0.8,0.8
2025-06-22T1500,1660A,119.523,35.4216,日照市,市政府广场,臭氧1小时,109,68,53,33,34,218,,165,165,12,23,10,10,0.7,0.9
2025-06-22T1500,1661A,119.5587,35.4044,日照市,港务局,臭氧1小时,117,61,64,44,43,234,,162,162,15,29,12,10,0.9,0.9
2025-06-22T1500,3507A,119.5328,35.4625,日照市,职业技术学院,臭氧1小时,129,58,60,34,33,257,,184,184,14,23,12,8,0.8,0.8
2025-06-22T1500,3604A,119.3266,35.1044,日照市,岚山环保分局,臭氧1小时,106,51,58,21,32,212,,176,176,16,23,11,12,0.8,1.1
2025-06-22T1500,1835A,111.1922,34.7752,三门峡市,市政府,臭氧1小时,77,29,42,20,24,181,,146,146,7,13,6,7,0.4,0.6
2025-06-22T1500,1836A,111.1587,34.7942,三门峡市,开发区,臭氧1小时,84,27,38,15,24,187,,157,157,14,16,6,7,0.4,0.5
2025-06-22T1500,3039A,111.1911,34.7829,三门峡市,三门峡市第一小学,臭氧1小时,80,35,42,19,30,184,,150,150,7,10,9,9,0.6,0.8
2025-06-22T1500,3598A,111.1,34.7167,三门峡市,富达温泉假日酒店,臭氧1小时,70,23,28,13,19,176,,145,145,5,13,9,9,0.2,0.2
2025-06-22T1500,2324A,117.6211,26.2625,三明市,三钢,,22,14,20,3,8,51,,41,41,8,13,13,15,2.2,2.6
2025-06-22T1500,2325A,117.635,26.2714,三明市,三明二中,,17,12,15,3,11,54,,41,41,6,12,4,6,0.6,0.9
2025-06-22T1500,2326A,117.6028,26.2378,三明市,三元区政府,,18,13,16,3,7,56,,44,44,4,10,5,7,0.0,0.2
2025-06-22T1500,1876A,109.5078,18.2489,三亚市,河东子站,,16,12,13,3,7,49,,50,50,1,3,3,3,0.3,0.4
2025-06-22T1500,1877A,109.4964,18.2681,三亚市,河西子站,,16,13,13,6,6,49,,49,49,5,8,2,2,0.3,0.3
2025-06-22T1500,3540A,109.7348,18.3443,三亚市,君悦子站,,17,10,12,3,4,54,,52,52,2,3,3,1,0.2,0.2
2025-06-22T1500,2624A,91.7608,29.2313,山南市,山南监测站,,50,,18,6,9,160,,110,110,2,10,8,8,0.2,0.2
2025-06-22T1500,2625A,91.7706,29.2436,山南市,山南人民医院,臭氧1小时,57,10,21,6,12,165,,111,111,2,9,6,6,0.1,0.2
2025-06-22T1500,1674A,116.6794,23.3667,汕头市,金平子站,,19,6,11,6,5,58,,49,49,1,4,6,4,0.4,0.4
2025-06-22T1500,1675A,116.7244,23.3633,汕头市,龙湖子站,,17,17,13,10,5,53,,45,45,6,7,6,5,0.4,0.4
2025-06-22T1500,1676A,116.7258,23.2775,汕头市,濠江子站,,19,19,15,3,4,45,,40,40,6,6,4,4,0.4,0.5
2025-06-22T1500,1677A,116.7519,23.4714,汕头市,澄海子站,,31,31,16,3,5,66,,52,52,5,6,3,2,0.5,0.5
2025-06-22T1500,1678A,116.6092,23.2539,汕头市,潮阳子站,,17,17,13,8,5,52,,45,45,2,3,4,4,0.5,0.6
2025-06-22T1500,3444A,116.454,23.2684,汕头市,潮南峡山,,27,27,12,13,6,49,,40,40,3,3,5,5,0.4,0.4
2025-06-22T1500,3624A,116.4069,23.2533,汕头市,潮南子站,,21,21,13,10,6,47,,40,40,1,2,4,4,0.4,0.5
2025-06-22T1500,1693A,115.3653,22.775,汕尾市,市环保局,,18,7,10,3,4,55,,46,46,3,5,2,2,0.3,0.3
2025-06-22T1500,1694A,115.3706,22.7898,汕尾市,市政府,,18,16,11,7,5,56,,47,47,3,4,4,3,0.4,0.4
2025-06-22T1500,1695A,115.3622,22.7925,汕尾市,新城中学,,18,8,11,3,4,55,,45,45,3,4,3,3,0.5,0.5
2025-06-22T1500,2645A,109.9154,33.8715,商洛市,监测站,,46,22,26,15,18,147,,102,102,6,12,8,8,0.4,0.5
2025-06-22T1500,3045A,109.9643,33.8471,商洛市,商州区中学,,46,23,32,14,14,146,,101,101,7,19,6,7,0.4,0.5
2025-06-22T1500,2408A,115.6702,34.4285,商丘市,环境监测站,臭氧1小时,59,22,30,11,21,167,,137,137,4,8,3,3,0.4,0.5
2025-06-22T1500,2409A,115.6458,34.4045,商丘市,粮食局,臭氧1小时,58,21,26,13,22,166,,136,136,6,8,4,3,0.2,0.3
2025-06-22T1500,2410A,115.6293,34.3948,商丘市,睢阳区环保局,臭氧1小时,52,28,31,12,18,161,,131,131,9,11,3,3,0.2,0.3
2025-06-22T1500,3171A,115.6071,34.4465,商丘市,梁园区档案局,臭氧1小时,62,32,26,12,20,169,,133,133,7,10,4,3,0.3,0.5
2025-06-22T1500,1141A,121.4,31.238,上海市,普陀,,30,11,17,7,9,93,,100,87,18,15,4,5,0.3,0.3
2025-06-22T1500,1142A,121.478,31.2036,上海市,十五厂,,30,9,13,8,7,96,,101,82,18,18,6,7,0.4,0.5
2025-06-22T1500,1143A,121.467,31.3008,上海市,虹口,,28,13,14,9,7,88,,95,82,16,10,8,8,0.3,0.4
2025-06-22T1500,1147A,121.425,31.2261,上海市,静安监测站,,30,,16,10,9,93,,97,80,17,17,4,4,0.6,0.6
2025-06-22T1500,1148A,121.703,31.1907,上海市,浦东川沙,,31,6,15,3,8,99,,93,91,12,17,7,7,0.6,0.6
2025-06-22T1500,1149A,121.533,31.2284,上海市,浦东新区监测站,,30,7,15,3,5,96,,90,84,11,13,7,7,0.5,0.6
2025-06-22T1500,1150A,121.577,31.2071,上海市,浦东张江,,33,12,17,3,8,104,,95,88,11,14,5,6,0.8,0.8
2025-06-22T1500,3265A,121.4316,31.3322,上海市,宝山庙行,,27,15,14,3,5,85,,96,84,23,15,8,8,0.3,0.4
2025-06-22T1500,3266A,121.8791,31.4662,上海市,崇明上实东滩,,36,14,13,6,6,115,,108,108,5,5,2,2,0.4,0.4
2025-06-22T1500,3268A,121.3162,31.2838,上海市,嘉定南翔,,24,24,20,14,9,68,,86,74,25,15,6,6,0.4,0.3
2025-06-22T1500,3269A,121.3359,30.7456,上海市,金山新城,,34,10,26,7,12,107,,68,68,14,18,2,3,0.5,1.1
2025-06-22T1500,3270A,121.4996,31.0739,上海市,闵行浦江,,28,13,19,6,9,87,,85,80,17,14,3,4,0.6,0.6
2025-06-22T1500,3271A,121.2886,31.1663,上海市,青浦徐泾,,29,,18,8,11,91,,84,76,13,17,5,6,0.5,0.7
2025-06-22T1500,3272A,121.2186,31.0378,上海市,松江图书馆,,28,6,21,6,12,87,,80,77,16,16,7,7,0.6,0.8
2025-06-22T1500,3273A,121.3902,31.2059,上海市,长宁仙霞,,27,9,16,3,8,86,,95,75,15,16,5,7,0.6,0.5
2025-06-22T1500,3274A,121.7965,31.0507,上海市,浦东惠南,,33,6,12,3,8,103,,99,99,6,14,9,9,0.5,0.5
2025-06-22T1500,3544A,121.4891,30.925,上海市,奉贤南桥新城,,31,12,21,10,12,98,,39,39,9,13,5,6,0.6,0.7
2025-06-22T1500,4183A,121.4174,31.16637,上海市,冠生园路458号,,26,12,16,8,10,83,,88,70,17,16,4,4,0.6,0.7
2025-06-22T1500,4205A,121.5419,31.2683,上海市,宁武路151号,,28,14,18,7,8,89,,89,74,26,21,6,7,0.3,0.3
2025-06-22T1500,2382A,117.9756,28.4436,上饶市,市监测站,,27,27,25,10,13,74,,47,47,10,13,13,13,0.4,0.4
2025-06-22T1500,2383A,117.9519,28.4628,上饶市,凤凰光学,,22,,13,10,11,68,,43,43,6,14,12,12,0.6,0.7
2025-06-22T1500,3685A,117.897,28.4315,上饶市,双创科技城,,,,21,10,10,73,,46,46,7,18,10,11,0.5,0.5
2025-06-22T1500,4211A,118.1904,28.4448,上饶市,裕丰大道,,31,14,18,3,7,98,,63,63,6,6,12,9,0.6,0.5
2025-06-22T1500,1669A,113.5824,24.7733,韶关市,市八中,,45,45,20,22,7,84,,56,56,10,13,13,11,0.3,0.5
2025-06-22T1500,1671A,113.5917,24.7972,韶关市,园林处,,27,,14,15,7,85,,53,53,5,10,8,9,0.4,0.6
2025-06-22T1500,1673A,113.5971,24.6863,韶关市,曲江监测站,,30,25,16,21,8,95,,63,63,9,12,6,6,0.7,0.8
2025-06-22T1500,2809A,113.6668,24.7756,韶关市,大学路288号,,33,33,17,11,7,94,,66,66,8,9,13,8,0.7,0.5
2025-06-22T1500,3622A,113.5556,24.8082,韶关市,碧湖山庄,,28,28,19,19,9,87,,50,50,10,13,11,8,0.5,0.5
2025-06-22T1500,2464A,111.5283,27.2442,邵阳市,市化工厂,,26,,12,9,8,83,,75,75,9,10,4,4,0.5,0.5
2025-06-22T1500,2466A,111.4328,27.2272,邵阳市,市环保局,,26,,8,3,6,82,,78,78,7,6,3,4,0.4,0.4
2025-06-22T1500,4218A,111.4460,27.2472,邵阳市,北塔二期4-26地块,,24,6,8,3,5,75,,67,67,6,7,4,4,0.4,0.4
2025-06-22T1500,4219A,111.4739,27.2282,邵阳市,邵水西路287号,,25,,11,8,8,77,,72,72,10,11,3,4,0.5,0.5
2025-06-22T1500,1247A,120.6053,29.9928,绍兴市,城东开发委,,31,31,33,21,17,84,,67,67,15,11,3,4,0.5,0.5
2025-06-22T1500,2921A,120.5483,30.0003,绍兴市,树下王站,,29,22,29,12,13,90,,74,74,17,12,6,6,0.5,0.5
2025-06-22T1500,3408A,120.5683,29.9361,绍兴市,绍兴中专,,33,33,35,9,11,85,,64,64,14,12,4,3,0.3,0.3
2025-06-22T1500,3409A,120.4906,30.0861,绍兴市,柯桥区政府,,26,23,27,14,13,81,,66,66,19,14,9,9,0.6,0.6
2025-06-22T1500,3410A,120.8752,30.0249,绍兴市,重华小学,,30,29,28,21,18,76,,69,69,10,10,5,6,0.3,0.4
2025-06-22T1500,3411A,120.8369,30.0137,绍兴市,上虞中学,,32,28,32,22,20,88,,78,78,13,12,6,6,0.4,0.4
2025-06-22T1500,3560A,120.4722,30.0415,绍兴市,柯桥妇保,,39,39,42,23,22,90,,72,72,19,14,5,6,0.6,0.6
2025-06-22T1500,3658A,120.6153,30.0764,绍兴市,袍江中学,,30,22,25,15,14,93,,80,80,19,14,3,4,0.5,0.5
2025-06-22T1500,1356A,114.1063,22.5545,深圳市,通心岭子站,,15,12,13,3,5,46,,36,36,2,8,7,7,0.5,0.5
2025-06-22T1500,1357A,114.117,22.5625,深圳市,洪湖,,16,11,14,3,5,49,,38,38,2,8,6,6,0.5,0.6
2025-06-22T1500,1358A,113.987,22.5417,深圳市,华侨城,,14,13,15,3,5,43,,34,34,4,9,6,6,0.5,0.5
2025-06-22T1500,1359A,113.9181,22.5171,深圳市,南海子站,,15,8,15,6,7,45,,34,34,8,17,8,8,0.6,0.6
2025-06-22T1500,1360A,114.2458,22.5689,深圳市,盐田,,22,22,21,7,7,19,,18,18,18,12,7,7,0.5,0.5
2025-06-22T1500,1361A,114.2283,22.7244,深圳市,龙岗,,22,22,19,8,8,41,,29,29,8,15,6,6,0.8,0.8
2025-06-22T1500,1363A,114.494,22.5422,深圳市,南澳,,20,8,16,3,1,64,,44,44,2,3,7,6,0.5,0.5
2025-06-22T1500,1364A,114.41,22.6342,深圳市,葵涌,,19,6,19,3,6,58,,38,38,7,9,8,7,0.5,0.6
2025-06-22T1500,1365A,114.297,22.5978,深圳市,梅沙,,18,17,19,3,5,57,,32,32,2,8,7,7,0.5,0.5
2025-06-22T1500,1366A,114.0678,22.738,深圳市,观澜,,22,22,27,9,8,47,,33,33,8,16,6,6,0.5,0.6
2025-06-22T1500,3305A,114.0731,22.559,深圳市,莲花,,9,,15,6,6,27,,20,20,6,8,2,2,0.7,0.7
2025-06-22T1500,3306A,114.0261,22.6198,深圳市,民治,,14,14,14,9,7,43,,34,34,6,13,8,8,0.5,0.5
