timepoint,stationcode,longitude,latitude,area,positionname,primarypollutant,aqi,pm10,pm10_24h,pm2_5,pm2_5_24h,o3,o3_24h,o3_8h,o3_8h_24h,no2,no2_24h,so2,so2_24h,co,co_24h
2025-06-22T0200,2566A,102.1879,31.914,阿坝藏族羌族自治州,州农科所,,15,,22,8,7,46,,,,6,9,12,12,0.4,0.6
2025-06-22T0200,2568A,102.2502,31.8896,阿坝藏族羌族自治州,马师校,,21,21,17,13,16,52,,,,4,8,6,6,0.5,0.5
2025-06-22T0200,3994A,102.2165,31.9024,阿坝藏族羌族自治州,马尔康中学西区,,26,25,17,18,16,46,,,,8,7,6,6,0.5,0.6
2025-06-22T0200,2695A,80.292,41.1694,阿克苏地区,电视台,颗粒物(PM10),106,162,119,54,40,74,,,,27,10,7,5,0.8,0.6
2025-06-22T0200,2696A,80.2613,41.1551,阿克苏地区,艺术中心,颗粒物(PM10),98,146,147,49,46,62,,,,28,12,4,3,0.4,0.3
2025-06-22T0200,2204A,105.6467,38.8363,阿拉善盟,西城区西花园,颗粒物(PM10),138,226,39,81,30,116,,,,7,10,6,6,0.8,0.8
2025-06-22T0200,2205A,105.6985,38.8411,阿拉善盟,蒙二幼,颗粒物(PM10),312,429,60,82,18,107,,,,7,10,9,10,0.5,0.6
2025-06-22T0200,2206A,105.724,38.8516,阿拉善盟,环保局新楼,颗粒物(PM10),166,281,41,78,16,105,,,,4,5,8,9,0.5,0.5
2025-06-22T0200,2708A,88.1264,47.8517,阿勒泰地区,市站,,20,18,26,3,6,61,,,,5,9,1,1,0.3,0.3
2025-06-22T0200,2630A,80.1161,32.5,阿里地区,阿里监测站,,23,17,7,8,6,72,,,,31,10,8,8,0.4,0.3
2025-06-22T0200,3192A,80.0903,32.5028,阿里地区,阿里藏医院,,30,16,15,14,7,96,,,,6,6,7,7,0.5,0.4
2025-06-22T0200,2642A,109.0318,32.6537,安康市,香溪洞,,28,9,15,7,7,88,,,,3,3,5,5,0.6,0.7
2025-06-22T0200,2644A,109.0072,32.6975,安康市,汉滨区检察院,,21,21,24,10,12,39,,,,8,7,5,7,0.4,0.5
2025-06-22T0200,4054A,109.0325,32.6913,安康市,市邮政管理局,,23,23,24,9,14,32,,,,15,9,11,10,0.4,0.5
2025-06-22T0200,2291A,117.0809,30.5177,安庆市,环科院,,28,6,7,3,6,89,,,,2,11,2,3,0.5,0.4
2025-06-22T0200,2292A,117.0331,30.5119,安庆市,马山宾馆,,27,6,12,3,7,86,,,,3,9,3,4,0.5,0.4
2025-06-22T0200,2294A,116.9896,30.6145,安庆市,安庆大学,,30,6,9,3,5,94,,,,4,8,2,3,0.6,0.4
2025-06-22T0200,3173A,117.0598,30.5351,安庆市,市人大,,29,6,9,3,7,92,,,,2,7,3,3,0.4,0.4
2025-06-22T0200,3122A,105.9606,26.2611,安顺市,伍家关,,20,10,22,8,11,64,,,,7,7,3,4,0.4,0.5
2025-06-22T0200,3123A,105.9408,26.2431,安顺市,凤凰山,,27,22,30,12,21,85,,,,5,7,4,4,0.5,0.5
2025-06-22T0200,3124A,105.9439,26.2564,安顺市,金钟山,,25,20,28,13,22,80,,,,5,6,4,5,0.4,0.4
2025-06-22T0200,3125A,105.8983,26.2481,安顺市,娄家坡,,25,14,23,9,17,80,,,,4,7,4,4,0.4,0.5
2025-06-22T0200,1818A,114.4839,36.0621,安阳市,棉研所,,,,,,,,,,,,,,,,
2025-06-22T0200,1819A,114.3551,36.1017,安阳市,红庙街,,44,44,52,23,22,132,,,,2,6,7,6,0.5,0.7
2025-06-22T0200,1820A,114.361,36.0681,安阳市,银杏小区,颗粒物(PM10),54,57,47,34,24,140,,,,5,7,9,5,0.5,0.6
2025-06-22T0200,3141A,114.3922,36.0878,安阳市,信访局,颗粒物(PM10),51,52,44,23,17,158,,,,2,10,2,5,0.6,0.7
2025-06-22T0200,3669A,114.4705,36.0637,安阳市,左辅环卫站,细颗粒物(PM2.5),64,65,41,46,22,121,,,,15,11,5,4,0.5,0.4
2025-06-22T0200,3703A,114.2917,36.0949,安阳市,安钢职工学校,细颗粒物(PM2.5),62,64,54,44,25,128,,,,10,10,5,6,0.4,0.5
2025-06-22T0200,1748A,123.044,41.1196,鞍山市,深沟寺,,34,34,29,16,15,76,,,,24,27,23,16,1.6,1.3
2025-06-22T0200,1749A,123.011,41.0931,鞍山市,太阳城,,39,39,31,21,18,70,,,,24,23,23,14,1.9,1.2
2025-06-22T0200,1750A,123.0485,41.1442,鞍山市,太平,,42,42,37,18,17,69,,,,24,24,23,15,1.7,1.3
2025-06-22T0200,1751A,122.9642,41.0971,鞍山市,铁西三道街,,40,40,34,21,17,63,,,,29,27,22,13,1.4,1.2
2025-06-22T0200,1753A,123.022,41.0821,鞍山市,明达新区,,37,37,31,18,14,77,,,,18,20,22,14,1.4,1.2
2025-06-22T0200,1754A,123.1289,41.0228,鞍山市,千山,,,,,,,,,,,,,,,,
2025-06-22T0200,4201A,122.9446,41.0826,鞍山市,兴盛南路290号,,43,43,36,20,16,72,,,,27,31,15,11,1.1,0.9
2025-06-22T0200,2195A,107.4212,40.761,巴彦淖尔市,附二中,,45,45,30,29,15,52,,,,42,16,12,15,0.5,0.5
2025-06-22T0200,2196A,107.37,40.7372,巴彦淖尔市,市环保大楼,,40,32,35,17,16,125,,,,19,16,12,11,0.6,0.5
2025-06-22T0200,1956A,86.1472,41.7538,巴音郭楞蒙古自治州,孔雀公园,,34,34,36,7,14,96,,,,11,18,10,10,0.3,0.2
2025-06-22T0200,1957A,86.1972,41.7166,巴音郭楞蒙古自治州,棉纺厂,颗粒物(PM10),52,54,48,3,8,91,,,,12,15,10,5,0.2,0.3
2025-06-22T0200,1958A,86.2357,41.7173,巴音郭楞蒙古自治州,经济开发区,,30,12,40,10,9,94,,,,7,7,11,9,0.2,0.1
2025-06-22T0200,2914A,106.7677,31.8794,巴中市,苏山坪,,26,10,16,7,12,82,,,,4,5,5,5,0.4,0.4
2025-06-22T0200,3181A,106.7768,31.8526,巴中市,市五中,,14,11,18,7,12,44,,,,8,9,7,7,0.5,0.5
2025-06-22T0200,3183A,106.7418,31.8654,巴中市,圣泉水务公司,,16,16,16,9,10,32,,,,16,13,6,6,0.6,0.5
2025-06-22T0200,3616A,106.7616,31.8344,巴中市,市中心医院,,13,12,16,3,10,40,,,,13,10,6,6,0.5,0.5
2025-06-22T0200,2235A,122.7911,45.6077,白城市,洮北区环保局,,22,20,14,15,10,50,,,,14,11,5,4,0.3,0.3
2025-06-22T0200,2236A,122.8738,45.5725,白城市,市环保局,,17,7,11,3,6,52,,,,8,7,4,5,0.4,0.4
2025-06-22T0200,2231A,126.4219,41.9171,白山市,喜丰,,38,38,29,10,11,16,,,,25,18,4,8,0.7,0.7
2025-06-22T0200,2232A,126.4077,41.9419,白山市,环保局,,38,38,24,11,9,26,,,,13,11,8,9,0.7,0.7
2025-06-22T0200,2647A,104.1724,36.5446,白银市,第三小学,,29,,46,20,20,88,,,,6,14,18,115,0.7,0.8
2025-06-22T0200,2648A,104.1465,36.5482,白银市,动力公司,,26,,37,17,17,81,,,,8,12,7,39,0.4,0.5
2025-06-22T0200,2512A,106.6103,23.9011,百色市,市监测站,,34,34,13,9,7,1,,,,20,10,4,4,0.4,0.4
2025-06-22T0200,2513A,106.6538,23.8859,百色市,市中心血站,,41,41,16,22,11,0,,,,25,16,6,2,0.8,0.6
2025-06-22T0200,3406A,106.6085,23.8798,百色市,祈福高中,,29,29,14,18,10,3,,,,21,12,4,4,0.8,0.6
2025-06-22T0200,2270A,117.396,32.939,蚌埠市,工人疗养院,,24,24,12,11,7,67,,,,10,6,4,4,0.5,0.4
2025-06-22T0200,2271A,117.3605,32.9427,蚌埠市,百货大楼,,22,20,14,8,5,70,,,,13,8,5,4,0.4,0.3
2025-06-22T0200,2273A,117.4185,32.8911,蚌埠市,蚌埠学院,,20,19,6,8,4,64,,,,7,5,3,3,0.3,0.3
2025-06-22T0200,2274A,117.3533,32.9673,蚌埠市,淮上区政府,,22,14,12,10,8,68,,,,15,9,5,4,0.4,0.4
2025-06-22T0200,2275A,117.3145,32.8977,蚌埠市,高新区,,29,29,9,16,8,47,,,,20,11,5,5,0.5,0.3
2025-06-22T0200,3715A,117.3092,32.9314,蚌埠市,蚌埠田家炳中学,,28,28,16,11,8,52,,,,21,10,6,5,0.3,0.2
2025-06-22T0200,1585A,109.8756,40.6532,包头市,市环境监测站,颗粒物(PM10),52,54,27,16,11,48,,,,54,25,13,11,0.4,0.5
2025-06-22T0200,1587A,109.9991,40.5842,包头市,包头八中,,36,36,37,20,17,52,,,,34,21,13,18,0.5,0.8
2025-06-22T0200,1588A,109.8538,40.6821,包头市,青山宾馆,,29,29,26,17,14,57,,,,35,22,10,10,0.6,0.4
2025-06-22T0200,1589A,109.8642,40.6288,包头市,惠龙物流,,32,32,28,19,14,62,,,,35,22,9,13,0.4,0.6
2025-06-22T0200,1590A,110.0377,40.5546,包头市,东河鸿龙湾,,30,30,32,8,10,53,,,,32,24,7,12,0.4,0.4
2025-06-22T0200,3283A,109.9154,40.5685,包头市,滨河大厦,,25,25,23,15,14,66,,,,25,20,9,13,0.5,0.5
2025-06-22T0200,3419A,109.9447,40.6261,包头市,包头市委党校,,32,32,32,13,12,48,,,,45,24,13,16,0.4,0.6
2025-06-22T0200,3683A,109.8331,40.6576,包头市,昆区政府,,30,28,26,21,15,64,,,,42,24,12,9,0.6,0.6
2025-06-22T0200,1930A,107.185,34.3063,宝鸡市,庙沟村,,41,21,27,13,14,131,,,,8,8,5,5,0.3,0.3
2025-06-22T0200,1931A,107.0708,34.3017,宝鸡市,竹园沟,,27,23,25,9,16,84,,,,9,10,5,6,0.3,0.4
2025-06-22T0200,1932A,107.1906,34.3672,宝鸡市,三陆医院,,,,29,,17,,,41,,,28,,8,,0.5
2025-06-22T0200,1933A,107.1431,34.3547,宝鸡市,监测站,,25,25,30,17,17,80,,,,16,13,6,7,0.3,0.3
2025-06-22T0200,1934A,107.1186,34.3739,宝鸡市,技工学校,,38,28,31,26,18,94,,,,10,9,8,8,0.5,0.5
2025-06-22T0200,1935A,107.3906,34.3528,宝鸡市,陈仓区环保局家属楼,,36,36,32,22,18,87,,,,25,15,6,7,0.5,0.5
2025-06-22T0200,1936A,107.2058,34.3497,宝鸡市,文理学院,,31,31,29,17,18,99,,,,14,12,6,6,0.5,0.5
2025-06-22T0200,1937A,107.2386,34.3622,宝鸡市,三迪小学,,30,27,30,20,19,95,,,,18,18,6,7,0.5,0.5
2025-06-22T0200,1051A,115.493,38.8632,保定市,游泳馆,,49,49,43,20,16,92,,,,23,22,2,2,0.2,0.1
2025-06-22T0200,1052A,115.5213,38.8959,保定市,华电二区,,40,40,33,20,13,99,,,,18,15,3,2,0.3,0.3
2025-06-22T0200,1053A,115.4713,38.9108,保定市,接待中心,,38,38,35,13,11,102,,,,15,14,1,1,0.3,0.2
2025-06-22T0200,1054A,115.4612,38.8416,保定市,地表水厂,颗粒物(PM10),77,104,64,18,15,27,,,,68,31,12,3,0.2,0.2
2025-06-22T0200,3581A,115.31981,38.95208,保定市,满城区生态环境分局,,37,34,42,3,8,116,,,,7,13,2,3,0.1,0.2
2025-06-22T0200,3582A,115.47694,38.76408,保定市,清苑区第二中学,颗粒物(PM10),64,78,63,30,22,81,,,,20,19,3,2,0.3,0.3
2025-06-22T0200,3583A,115.62909,39.02311,保定市,徐水物探局,颗粒物(PM10),60,69,54,17,9,59,,,,42,23,1,2,0.2,0.2
2025-06-22T0200,4004A,115.4202,38.8656,保定市,双鹰农机,,41,41,31,22,14,78,,,,34,23,5,4,0.1,0.3
2025-06-22T0200,4034A,115.5150,38.8590,保定市,植保所站,,48,48,51,17,17,105,,,,17,21,1,3,0.3,0.3
2025-06-22T0200,2594A,99.1678,25.1081,保山市,市环境监测站,,13,10,15,9,15,26,,,,9,6,8,8,0.4,0.4
2025-06-22T0200,2595A,99.1711,25.1328,保山市,市环保局,,11,9,15,6,10,34,,,,4,4,6,6,0.5,0.5
2025-06-22T0200,1866A,109.2262,21.588,北海市,牛尾岭水库,,22,20,18,15,11,25,,,,17,8,4,3,0.4,0.4
2025-06-22T0200,1867A,109.1436,21.4086,北海市,海滩公园,,29,29,33,12,7,30,,,,7,5,2,2,0.2,0.3
2025-06-22T0200,1868A,109.0981,21.4661,北海市,新市环保局,,42,30,24,29,13,24,,,,13,8,4,3,0.5,0.4
2025-06-22T0200,1869A,109.1778,21.5233,北海市,北海工业园,,35,32,27,24,14,10,,,,19,9,11,4,0.6,0.5
2025-06-22T0200,3400A,109.1911,21.4415,北海市,龙潭自来水厂,,27,27,21,16,13,15,,,,15,7,4,4,0.4,0.4
2025-06-22T0200,1001A,116.3621,39.8784,北京市,万寿西宫,颗粒物(PM10),58,66,21,11,7,31,,,,64,25,3,3,0.3,0.3
2025-06-22T0200,1002A,116.2202,40.2915,北京市,定陵,,,,,,,,,,,,,,,,
2025-06-22T0200,1003A,116.4174,39.9289,北京市,东四,,39,39,20,10,6,64,,,,41,26,2,2,0.2,0.2
2025-06-22T0200,1004A,116.4072,39.8863,北京市,天坛,,30,30,17,12,8,61,,,,32,18,3,3,0.4,0.4
2025-06-22T0200,1005A,116.462,39.9365,北京市,农展馆,,38,38,18,10,7,71,,,,29,19,4,4,0.4,0.3
2025-06-22T0200,1006A,116.3392,39.9295,北京市,官园,,39,39,21,13,7,35,,,,54,26,3,3,0.2,0.3
2025-06-22T0200,1007A,116.2878,39.9611,北京市,海淀万柳,,38,38,21,10,7,7,,,,69,28,3,3,0.5,0.3
2025-06-22T0200,1008A,116.6636,40.135,北京市,顺义新城,颗粒物(PM10),52,53,18,20,8,15,,,,57,21,2,2,0.4,0.3
2025-06-22T0200,1009A,116.6275,40.3275,北京市,怀柔镇,,17,13,11,7,6,54,,,,10,11,1,1,0.3,0.3
2025-06-22T0200,1010A,116.2296,40.217,北京市,昌平镇,,20,17,14,9,6,62,,,,13,13,4,4,0.2,0.2
2025-06-22T0200,1011A,116.3966,39.9821,北京市,奥体中心,,39,39,17,14,7,15,,,,71,24,3,3,0.7,0.6
2025-06-22T0200,3281A,115.9718,40.4529,北京市,延庆夏都,,23,23,20,9,8,25,,,,14,17,4,5,0.4,0.4
2025-06-22T0200,3418A,116.8336,40.4095,北京市,密云新城,,19,15,16,3,7,59,,,,3,10,2,2,0.2,0.2
2025-06-22T0200,3671A,116.088,39.9726,北京市,门头沟三家店,,24,16,15,7,7,75,,,,10,11,3,3,0.5,0.5
2025-06-22T0200,3672A,116.1541,39.8204,北京市,丰台云岗,,35,35,30,3,3,63,,,,17,22,3,3,0.3,0.3
2025-06-22T0200,3673A,116.6804,39.9081,北京市,通州东关,,50,50,22,16,8,75,,,,41,26,2,2,0.3,0.3
2025-06-22T0200,3674A,115.9577,39.7603,北京市,房山燕山,,19,15,14,7,6,58,,,,8,10,2,2,0.2,0.2
2025-06-22T0200,3675A,116.4672,39.7733,北京市,大兴旧宫,颗粒物(PM10),59,68,26,21,8,37,,,,46,23,3,2,0.3,0.3
2025-06-22T0200,3694A,115.986,40.4563,北京市,延庆石河营,,19,16,15,13,8,17,,,,11,12,2,2,0.3,0.3
2025-06-22T0200,3695A,116.6151,40.3053,北京市,怀柔新城,,19,13,11,9,7,58,,,,6,7,2,2,0.3,0.3
2025-06-22T0200,3696A,116.2545,39.8768,北京市,丰台小屯,颗粒物(PM10),56,61,27,14,7,2,,,,69,28,2,2,0.4,0.3
2025-06-22T0200,3697A,116.84,40.3844,北京市,密云镇,,23,23,16,6,6,39,,,,18,15,2,6,0.4,0.3
2025-06-22T0200,4182A,116.1942,39.9158,北京市,八角北路9号,,23,22,27,6,6,72,,,,16,24,1,1,0.2,0.3
2025-06-22T0200,4194A,117.0790,40.1518,北京市,洳河巡河路,,23,23,15,8,6,37,,,,17,12,3,3,0.3,0.3
2025-06-22T0200,1761A,123.8275,41.3064,本溪市,大峪,,31,31,22,11,6,34,,,,24,15,7,8,0.9,0.6
2025-06-22T0200,1762A,123.7567,41.3325,本溪市,溪湖,,39,39,31,21,11,27,,,,44,19,12,10,3.4,1.3
2025-06-22T0200,1763A,123.7169,41.3094,本溪市,彩屯,,35,35,31,18,14,12,,,,52,27,14,11,1.8,1
2025-06-22T0200,1764A,123.7669,41.2864,本溪市,东明,,47,47,32,16,11,23,,,,53,25,11,10,1.8,1
2025-06-22T0200,1765A,123.7992,41.2664,本溪市,新立屯,,26,26,19,8,8,62,,,,38,25,6,9,0.6,0.8
2025-06-22T0200,1766A,123.8142,41.3472,本溪市,威宁,,41,41,36,15,9,17,,,,27,16,6,7,0.6,0.5
2025-06-22T0200,2587A,105.2864,27.3125,毕节市,八中,,28,23,22,19,17,34,,,,8,6,5,5,0.5,0.5
2025-06-22T0200,2588A,105.31,27.2944,毕节市,师专,,19,19,27,11,15,46,,,,12,8,5,4,0.4,0.4
2025-06-22T0200,4263A,105.3688,27.3598,毕节市,工业大道,,18,18,25,12,16,30,,,,19,11,5,6,0.6,0.5
2025-06-22T0200,1629A,118.0018,37.3617,滨州市,第二水厂,颗粒物(PM10),69,88,53,46,28,129,,,,26,16,9,10,0.7,0.5
2025-06-22T0200,1630A,117.9776,37.393,滨州市,北中新校,"颗粒物(PM10),细颗粒物(PM2.5),臭氧1小时",62,73,49,44,26,169,,,,15,15,17,14,1.1,0.7
2025-06-22T0200,3514A,117.9378,37.3956,滨州市,中海酒店,细颗粒物(PM2.5),77,70,44,56,30,130,,,,20,19,9,12,1.0,0.8
2025-06-22T0200,3515A,117.9378,37.3553,滨州市,开发区一中,颗粒物(PM10),68,85,49,46,25,106,,,,47,22,12,14,0.8,0.6
2025-06-22T0200,3516A,118.0917,37.694,滨州市,金海六路,细颗粒物(PM2.5),113,115,55,85,31,110,,,,42,26,15,12,0.7,0.4
2025-06-22T0200,4028A,117.9956,37.3753,滨州市,滨州市西街道办事处,细颗粒物(PM2.5),70,63,42,51,29,150,,,,15,14,9,10,0.8,0.5
2025-06-22T0200,2311A,115.8072,33.8399,亳州市,污水处理厂,,31,20,25,17,20,98,,,,5,6,2,2,0,0.5
2025-06-22T0200,2312A,115.7789,33.8518,亳州市,三国揽胜宫,,29,13,20,3,12,92,,,,2,3,2,3,0.2,0.3
2025-06-22T0200,3332A,115.7633,33.8034,亳州市,亳州学院,,30,,13,8,17,96,,,,4,5,3,3,0.3,0.5
2025-06-22T0200,2693A,82.0485,44.8556,博尔塔拉蒙古自治州,市党校,,41,41,34,19,18,81,,,,10,8,3,2,0,0
2025-06-22T0200,2694A,82.0806,44.8969,博尔塔拉蒙古自治州,市环保局,,40,40,42,15,13,74,,,,10,5,3,2,0.4,0.3
2025-06-22T0200,1071A,116.8842,38.2991,沧州市,沧县城建局,细颗粒物(PM2.5),62,60,45,44,29,164,,,,20,19,11,6,0.6,0.4
2025-06-22T0200,1072A,116.8584,38.3254,沧州市,电视转播站,臭氧1小时,73,59,42,34,25,178,,,,14,13,5,4,0.6,0.4
2025-06-22T0200,1073A,116.8709,38.3228,沧州市,市环保局,臭氧1小时,64,53,56,40,29,171,,,,16,16,14,5,0.6,0.4
2025-06-22T0200,3324A,116.8136,38.3004,沧州市,河北水利电力学院,颗粒物(PM10),62,73,47,42,24,156,,,,35,22,8,4,0.6,0.5
2025-06-22T0200,2622A,97.1806,31.1273,昌都市,昌都监测站,,23,15,14,9,7,72,,,,7,8,6,5,0.2,0.3
2025-06-22T0200,3719A,97.1714,31.1406,昌都市,昌都会议中心,,27,15,16,10,9,84,,,,5,7,6,6,0.2,0.2
2025-06-22T0200,2690A,88.1236,43.8886,昌吉回族自治州,天山天池,,22,14,20,8,8,70,,,,5,6,5,5,0.6,0.6
2025-06-22T0200,2692A,87.2717,44.0297,昌吉回族自治州,新区政务中心,,29,29,29,14,12,57,,,,21,11,2,3,0.5,0.2
2025-06-22T0200,3613A,87.3095,44.0142,昌吉回族自治州,亚心广场,,29,29,41,14,14,50,,,,29,14,5,6,0.4,0.3
2025-06-22T0200,1120A,125.2863,43.9027,长春市,客车厂,,20,,15,9,8,64,,,,19,20,5,5,0.2,0.2
2025-06-22T0200,1121A,125.2841,43.8463,长春市,邮电学院,,19,15,13,7,4,58,,,,19,19,7,6,0.4,0.3
2025-06-22T0200,1122A,125.3716,43.8772,长春市,劳动公园,,20,18,18,3,6,64,,,,19,20,3,3,0.3,0.2
2025-06-22T0200,1123A,125.3297,43.8805,长春市,园林处,,20,20,22,3,5,59,,,,19,17,6,5,0.4,0.4
2025-06-22T0200,1124A,125.4605,43.79,长春市,净月潭,,17,17,15,6,2,48,,,,18,16,6,6,0.2,0.2
2025-06-22T0200,1125A,125.7194,43.515,长春市,甩湾子,,27,27,13,3,3,27,,,,51,25,2,2,0.6,0.5
2025-06-22T0200,1126A,125.3863,43.8447,长春市,经开区环卫处,,21,13,18,3,5,65,,,,15,15,5,5,0.2,0.2
2025-06-22T0200,1127A,125.245,43.7783,长春市,高新区管委会,,18,7,15,3,7,57,,,,22,19,4,3,0.2,0.2
2025-06-22T0200,1128A,125.1761,43.8325,长春市,岱山公园,,18,15,13,7,5,57,,,,22,21,3,3,0.2,0.2
2025-06-22T0200,4281A,125.3346,43.9164,长春市,北亚泰大街1068号,,19,12,15,7,7,60,,,,17,17,4,5,0.2,0.3
2025-06-22T0200,1335A,113.0833,28.2325,长沙市,经开区环保局,,26,6,20,3,12,81,,,,9,11,4,6,0.4,0.4
2025-06-22T0200,1336A,112.8872,28.2189,长沙市,高开区环保局,,28,8,20,3,10,87,,,,3,7,3,3,0.5,0.6
2025-06-22T0200,1337A,113.0792,28.2053,长沙市,马坡岭,,27,6,21,3,11,86,,,,6,10,3,4,0.7,0.7
2025-06-22T0200,1338A,112.9394,28.19,长沙市,湖南师范大学,,28,6,18,3,10,88,,,,7,9,2,3,0.2,0.3
2025-06-22T0200,1339A,113.0178,28.1322,长沙市,雨花区环保局,,29,,18,3,10,90,,,,4,7,4,6,0.5,0.5
2025-06-22T0200,1340A,112.9792,28.2597,长沙市,伍家岭,,27,6,21,3,14,84,,,,3,10,2,3,0.3,0.4
2025-06-22T0200,1341A,113.0014,28.1944,长沙市,火车新站,,27,6,19,3,8,84,,,,3,8,7,8,0.5,0.5
2025-06-22T0200,1342A,112.9844,28.1178,长沙市,天心区环保局,,28,6,18,3,9,89,,,,5,9,1,2,0.8,0.8
2025-06-22T0200,1343A,112.8908,28.1308,长沙市,湖南中医药大学,,27,9,18,3,11,86,,,,3,8,2,4,0.4,0.6
2025-06-22T0200,1344A,112.9581,28.3611,长沙市,沙坪,,26,17,22,3,9,82,,,,6,12,4,5,0.5,0.6
2025-06-22T0200,1727A,113.1147,36.1547,长治市,清华站,,47,37,42,31,30,150,,,,12,14,7,10,0.6,0.9
2025-06-22T0200,1730A,113.0886,36.2125,长治市,审计局,,45,34,41,27,32,142,,,,24,15,12,13,0.7,1
2025-06-22T0200,1731A,113.0844,36.1856,长治市,长治八中,,48,34,44,32,36,153,,,,17,14,14,15,0.8,0.9
2025-06-22T0200,2845A,113.1569,36.1911,长治市,德盛苑,,49,38,41,31,30,154,,,,13,11,10,10,0.9,1
2025-06-22T0200,3568A,113.06,36.0464,长治市,向阳小学,颗粒物(PM10),65,80,73,37,37,138,,,,16,13,10,7,0.9,0.9
2025-06-22T0200,3569A,112.8792,36.3144,长治市,屯留一中,颗粒物(PM10),60,69,49,28,34,125,,,,15,14,7,12,0.4,0.5
2025-06-22T0200,4189A,113.1131,36.19948,长治市,英华南巷50号,,49,49,47,34,33,136,,,,15,15,8,10,0.7,0.9
2025-06-22T0200,4190A,113.2367,36.3344,长治市,学府街1号,颗粒物(PM10),68,85,49,31,25,24,,,,118,30,4,6,1.2,0.8
2025-06-22T0200,1854A,111.6975,28.9703,常德市,市二中,,24,22,11,12,9,75,,,,6,5,4,3,0.7,0.7
2025-06-22T0200,1857A,111.7158,29.1456,常德市,白鹤山,,,,,,,,,,,,,,,,
2025-06-22T0200,3138A,111.7153,29.0289,常德市,武陵区永安,,26,,10,12,9,81,,,,5,4,2,2,0.4,0.3
2025-06-22T0200,3139A,111.6892,28.9881,常德市,鼎城区玉霞,,27,18,11,12,9,84,,,,5,4,4,3,0.5,0.5
2025-06-22T0200,3140A,111.6625,29.0531,常德市,武陵区长庚,,25,11,9,11,10,80,,,,4,4,2,1,0.4,0.4
2025-06-22T0200,1196A,119.9633,31.762,常州市,市监测站,,30,,12,3,6,95,,,,2,8,9,11,0.4,0.4
2025-06-22T0200,1200A,119.9468,31.7069,常州市,武进监测站,,25,12,19,3,7,80,,,,13,17,6,5,0.9,0.7
2025-06-22T0200,1201A,119.9255,31.9087,常州市,安家,,22,16,20,8,6,69,,,,13,17,6,6,0.5,0.5
2025-06-22T0200,3002A,119.9805,31.8174,常州市,行政中心,,,12,20,3,6,,,,,6,14,7,10,0.2,0.2
2025-06-22T0200,3003A,120.0522,31.7748,常州市,经开区,,32,10,23,3,6,101,,,,9,19,6,8,0.2,0.2
2025-06-22T0200,3010A,119.9025,31.7964,常州市,钟楼,,28,,11,3,5,88,,,,8,15,5,6,0.6,0.5
2025-06-22T0200,3429A,119.8598,31.7066,常州市,武进经发区,,25,14,20,9,9,77,,,,10,15,4,6,0.9,0.7
2025-06-22T0200,3430A,119.5826,31.7245,常州市,金坛城区,,28,6,14,3,9,89,,,,9,13,5,6,0.3,0.3
2025-06-22T0200,2220A,120.4318,41.5881,朝阳市,西梁,,21,21,30,14,12,31,,,,27,21,4,7,0.5,0.5
2025-06-22T0200,2221A,120.4521,41.5646,朝阳市,河畔小区,,18,18,23,9,7,55,,,,19,15,8,7,0.5,0.4
2025-06-22T0200,2222A,120.4176,41.5648,朝阳市,八里堡,,29,24,41,20,15,28,,,,36,22,5,6,0.5,0.5
2025-06-22T0200,2223A,120.3806,41.5969,朝阳市,农业园区,,16,16,21,9,10,25,,,,20,18,3,4,0.3,0.3
2025-06-22T0200,1705A,116.6367,23.6719,潮州市,西园路,,27,27,20,10,10,5,,,,14,11,6,5,0.5,0.5
2025-06-22T0200,3026A,116.6183,23.6608,潮州市,市政府,,15,15,23,6,8,11,,,,15,14,22,7,0.6,0.7
2025-06-22T0200,4036A,116.6461,23.6761,潮州市,金山,,26,26,21,14,10,2,,,,10,8,8,7,0.5,0.6
2025-06-22T0200,2472A,113.0073,25.9061,郴州市,马头岭,,17,17,15,3,6,30,,,,14,12,8,7,0.3,0.3
2025-06-22T0200,2473A,113.0116,25.8226,郴州市,市职中,,12,12,14,6,8,38,,,,4,4,3,4,0.3,0.2
2025-06-22T0200,2475A,113.0383,25.8071,郴州市,市审计局,,13,6,11,3,7,39,,,,4,6,8,4,0.4,0.3
2025-06-22T0200,2476A,113.0348,25.7759,郴州市,市环保局,,,9,14,8,9,,,,,5,5,11,3,0,0
2025-06-22T0200,4252A,113.0138,25.8011,郴州市,好美居路49号,,26,,14,7,9,81,,,,4,5,6,5,0.4,0.2
2025-06-22T0200,1431A,103.9728,30.7236,成都市,金泉两河,,27,27,27,15,12,76,,,,15,14,3,3,0.4,0.4
2025-06-22T0200,1432A,104.176,30.6872,成都市,十里店,,29,26,25,9,12,91,,,,8,11,4,4,0.5,0.5
2025-06-22T0200,1433A,104.079,30.5706,成都市,三瓦窑,,29,23,23,8,15,92,,,,15,22,3,4,0.5,0.5
2025-06-22T0200,1434A,104.1114,30.63,成都市,沙河铺,,26,20,25,13,11,81,,,,12,14,4,4,0.4,0.4
2025-06-22T0200,1437A,104.0786,30.6531,成都市,君平街,,32,20,28,12,16,102,,,,9,12,5,5,0.7,0.7
2025-06-22T0200,1438A,103.613,31.0283,成都市,灵岩寺,,,,,,,,,,,,,,,,
2025-06-22T0200,2880A,104.0239,30.65639,成都市,大石西路,,30,24,28,16,16,93,,,,12,15,5,5,0.5,0.6
2025-06-22T0200,3136A,104.2725,30.5589,成都市,龙泉驿区区政府,,,14,14,12,9,,,,,11,10,4,4,0.6,0.6
2025-06-22T0200,3357A,104.0106,30.6931,成都市,金博路,,27,13,17,3,8,86,,,,15,17,4,4,0.6,0.6
2025-06-22T0200,3359A,104.0578,30.5225,成都市,华阳,,30,14,20,12,16,94,,,,9,13,7,7,0.6,0.6
2025-06-22T0200,3488A,104.3853,30.7453,成都市,青白江技师分院,,35,29,29,24,17,98,,,,16,20,7,6,0.6,0.6
2025-06-22T0200,3489A,104.0789,30.4072,成都市,科学城,,30,12,20,7,14,96,,,,7,13,3,4,0.6,0.5
2025-06-22T0200,4011A,103.8506,30.6947,成都市,光华大道三段,,31,31,35,12,19,88,,,,12,14,6,5,0.3,0.5
2025-06-22T0200,4224A,104.2433,30.5353,成都市,鲸龙路1057号,,28,27,24,19,14,84,,,,16,13,7,7,0.7,0.6
2025-06-22T0200,1062A,117.9531,40.9081,承德市,铁路,,19,19,18,7,8,28,,,,10,11,2,3,0.2,0.3
2025-06-22T0200,1063A,117.9392,40.9763,承德市,中国银行,,30,29,21,21,10,10,,,,17,11,3,3,0.2,0.2
2025-06-22T0200,1064A,117.9503,40.928,承德市,开发区,,30,30,27,13,12,28,,,,16,11,3,4,0.4,0.3
2025-06-22T0200,1065A,117.8051,40.9655,承德市,文化中心,,43,43,31,15,8,20,,,,29,19,3,3,0.2,0.3
2025-06-22T0200,1066A,117.9268,41.0026,承德市,离宫,,35,35,19,21,15,15,,,,19,10,3,3,0.2,0.2
2025-06-22T0200,2314A,117.47,30.6618,池州市,池州学院,,22,6,10,3,6,68,,,,14,9,4,5,0.6,0.4
2025-06-22T0200,3237A,117.4918,30.6617,池州市,展览馆,,11,7,12,3,5,33,,,,11,8,4,4,0.9,0.5
2025-06-22T0200,3333A,117.5627,30.695,池州市,第八中学,,23,6,9,3,5,72,,,,9,8,4,5,0.7,0.4
2025-06-22T0200,3334A,117.5038,30.6243,池州市,第十二中学,,23,6,11,3,5,73,,,,7,6,2,3,0.9,0.8
2025-06-22T0200,1744A,118.9233,42.2816,赤峰市,松山一中,,18,18,17,8,6,35,,,,23,15,8,7,0.4,0.4
2025-06-22T0200,1745A,118.9576,42.2728,赤峰市,哈达街,,16,16,19,7,6,48,,,,14,14,9,9,0.4,0.4
2025-06-22T0200,1746A,118.8788,42.2554,赤峰市,天义路,,15,8,14,8,8,45,,,,15,11,10,8,0.3,0.3
2025-06-22T0200,3058A,119.2658,42.0353,赤峰市,银河街,,35,35,30,11,11,18,,,,21,12,10,15,0.6,0.5
2025-06-22T0200,3286A,118.9359,42.3147,赤峰市,桥北物流园区,,36,36,24,3,10,30,,,,20,16,8,8,0.6,0.5
2025-06-22T0200,2521A,107.3476,22.4136,崇左市,市环保局江州分局,,22,22,24,7,8,18,,,,9,9,5,5,0.5,0.6
2025-06-22T0200,4256A,107.3750,22.3736,崇左市,石景林东路7号,,18,18,24,3,6,23,,,,13,12,3,3,0.9,0.9
2025-06-22T0200,2298A,118.3093,32.3153,滁州市,老年大学,,21,21,13,7,6,50,,,,7,6,10,15,0.2,0.2
2025-06-22T0200,2299A,118.3244,32.2786,滁州市,人大宾馆,,23,,6,16,10,62,,,,1,3,4,3,0.3,0.2
2025-06-22T0200,3207A,118.3118,32.3038,滁州市,市政府原办公楼,,20,15,8,14,13,63,,,,2,3,3,3,0.3,0.3
2025-06-22T0200,3331A,118.3267,32.2634,滁州市,图书馆,,18,,7,9,8,55,,,,4,4,8,8,0.4,0.3
2025-06-22T0200,2605A,101.5482,25.0441,楚雄彝族自治州,州环境监测站,细颗粒物(PM2.5),63,,19,45,18,42,,,,17,13,9,7,0.8,0.5
2025-06-22T0200,2606A,101.538,25.0492,楚雄彝族自治州,市经济开发区,细颗粒物(PM2.5),54,,20,38,18,43,,,,13,13,8,8,0.9,0.7
2025-06-22T0200,2548A,107.5277,31.2827,达州市,达州职业技术学院,,30,30,20,3,2,14,,,,28,14,6,6,0.3,0.3
2025-06-22T0200,2549A,107.5086,31.2186,达州市,市环境监测站,,23,23,17,3,2,25,,,,25,18,5,5,0.3,0.3
2025-06-22T0200,2550A,107.4988,31.2132,达州市,凤凰小区,,19,19,13,3,4,33,,,,22,13,4,4,0.2,0.2
2025-06-22T0200,2551A,107.5082,31.1986,达州市,达县机关宾馆,,18,17,13,3,4,20,,,,36,20,5,5,0.2,0.4
2025-06-22T0200,2552A,107.4644,31.2124,达州市,市政中心,,19,19,20,3,2,53,,,,18,12,4,3,0.4,0.4
2025-06-22T0200,2614A,100.1542,25.7054,大理白族自治州,大理市环境监测站,,19,,12,13,14,24,,,,19,8,5,5,0.4,0.4
2025-06-22T0200,2615A,100.2171,25.5811,大理白族自治州,大理古城,,18,,14,12,9,40,,,,6,7,8,8,0.6,0.6
2025-06-22T0200,1109A,121.612,38.9741,大连市,甘井子,,24,17,24,7,13,75,,,,22,19,6,10,0.4,0.5
2025-06-22T0200,1110A,121.565,38.9511,大连市,周水子,,28,16,22,7,15,88,,,,14,20,8,10,0.3,0.4
2025-06-22T0200,1111A,121.5637,38.8845,大连市,星海三站,,31,17,23,3,12,99,,,,4,10,4,5,0.1,0.3
2025-06-22T0200,1112A,121.6302,38.9117,大连市,青泥洼桥,,32,10,21,7,14,101,,,,6,17,7,9,0.1,0.3
2025-06-22T0200,1113A,121.6251,38.8638,大连市,傅家庄,,32,16,22,6,13,101,,,,10,13,9,10,0.2,0.3
2025-06-22T0200,1114A,121.5213,38.8661,大连市,七贤岭,,27,20,20,18,15,84,,,,14,13,5,7,0.7,0.6
2025-06-22T0200,1115A,121.2529,38.8061,大连市,旅顺,,32,32,28,20,19,98,,,,18,19,6,6,0.3,0.3
2025-06-22T0200,1116A,121.7485,39.1311,大连市,金州,颗粒物(PM10),54,58,48,26,19,93,,,,16,18,8,9,0.3,0.4
2025-06-22T0200,1117A,121.7811,39.0496,大连市,开发区,,32,32,31,19,17,95,,,,15,19,4,5,0.3,0.4
2025-06-22T0200,1118A,121.9762,39.0631,大连市,双D港,,27,12,24,7,12,85,,,,20,20,7,9,0.3,0.3
2025-06-22T0200,1789A,124.81117,46.03138,大庆市,大同区,,17,14,15,10,6,53,,,,5,5,6,6,0.6,0.6
2025-06-22T0200,1790A,125.129,46.533,大庆市,龙凤区,,19,18,19,13,10,60,,,,5,8,5,4,0.3,0.4
2025-06-22T0200,1791A,124.902,46.408,大庆市,红岗区,,22,19,17,15,14,60,,,,3,3,8,8,0.4,0.4
2025-06-22T0200,1792A,125.153,46.586,大庆市,萨尔图区,,23,23,21,3,6,48,,,,11,10,8,9,0.5,0.5
2025-06-22T0200,1793A,124.9042,46.6215,大庆市,让胡路区,,26,,17,18,16,58,,,,2,4,4,4,0.2,0.2
2025-06-22T0200,3481A,125.141,46.634,大庆市,萨区政府监测点,,19,19,17,3,2,53,,,,6,5,5,6,0.3,0.3
2025-06-22T0200,1721A,113.3819,40.1097,大同市,果树场,,,,,,,,,,,,,,,,
2025-06-22T0200,1723A,113.2994,40.0758,大同市,云冈宾馆,,36,36,30,20,12,45,,,,24,17,6,7,1.2,0.9
2025-06-22T0200,1724A,113.3444,40.0917,大同市,大同大学,,25,25,28,6,9,49,,,,30,17,10,13,0.4,0.5
2025-06-22T0200,1725A,113.2661,40.1269,大同市,安家小村,,24,24,21,14,8,40,,,,26,14,5,5,1.0,0.8
2025-06-22T0200,1726A,113.2711,40.0844,大同市,教育学院,,44,44,30,19,11,40,,,,33,22,12,9,1.1,0.8
2025-06-22T0200,3282A,113.3397,40.0597,大同市,大同市卫生学校,,45,45,24,12,11,58,,,,19,17,8,9,0.8,0.8
2025-06-22T0200,3565A,113.1367,40.1122,大同市,云冈站,颗粒物(PM10),74,98,36,25,12,7,,,,46,20,6,6,0.5,0.4
2025-06-22T0200,3566A,113.1186,40.2556,大同市,图书馆,,23,23,23,8,10,36,,,,7,8,6,8,0.4,0.6
2025-06-22T0200,3567A,113.5931,40.0461,大同市,区一中,,17,12,19,7,8,54,,,,6,9,9,12,0.3,0.3
2025-06-22T0200,4199A,113.2798,40.0997,大同市,魏都大道141号,,41,41,32,17,14,34,,,,38,19,9,8,2.1,1
2025-06-22T0200,2269A,124.1069,50.4097,大兴安岭地区,科技局,,32,32,27,19,13,55,,,,2,3,5,6,0.4,0.4
2025-06-22T0200,3663A,124.1164,50.4278,大兴安岭地区,红旗社区,,19,,12,13,7,44,,,,11,5,5,5,0.3,0.3
2025-06-22T0200,1600A,124.3303,40.0625,丹东市,江湾东路,,44,44,24,30,14,43,,,,21,20,5,7,0.7,0.6
2025-06-22T0200,1601A,124.4256,40.1503,丹东市,临江后街,颗粒物(PM10),57,64,37,20,8,33,,,,23,17,8,9,0.8,0.7
2025-06-22T0200,1602A,124.3933,40.1461,丹东市,元宝山,,38,38,22,16,10,72,,,,15,14,7,8,1.0,0.6
2025-06-22T0200,1603A,124.3633,40.1092,丹东市,民主桥,,38,32,22,26,10,16,,,,45,20,7,9,0.7,0.6
2025-06-22T0200,3541A,109.5726,19.5167,儋州市,第一中学子站,,11,8,15,6,8,34,,,,2,4,6,7,0.4,0.4
2025-06-22T0200,3542A,109.5567,19.5187,儋州市,东坡学校子站,,12,10,16,3,8,36,,,,2,5,8,8,0.5,0.6
2025-06-22T0200,2616A,98.5842,24.428,德宏傣族景颇族自治州,德宏州监测站,,17,17,19,11,12,26,,,,8,8,8,8,0.7,0.6
2025-06-22T0200,3677A,98.5881,24.4368,德宏傣族景颇族自治州,芒市人民政府综合楼,,30,30,31,18,11,14,,,,8,7,8,9,0.5,0.5
2025-06-22T0200,1901A,104.4239,31.1208,德阳市,东山公园,,29,17,26,9,16,92,,,,8,14,5,6,0.7,0.7
2025-06-22T0200,1902A,104.3826,31.1317,德阳市,西小区,,33,25,38,14,20,104,,,,11,23,5,6,0.9,0.9
2025-06-22T0200,1904A,104.3553,31.1091,德阳市,耐火材料厂,,27,24,38,18,21,85,,,,19,26,8,9,0.5,0.5
2025-06-22T0200,3639A,104.4019,31.1244,德阳市,市教育局,,30,19,30,13,18,95,,,,8,16,5,5,0.6,0.6
2025-06-22T0200,1622A,116.3032,37.4674,德州市,儿童乐园,颗粒物(PM10),58,66,49,36,23,159,,,,20,13,11,10,0.6,0.5
2025-06-22T0200,1624A,116.2991,37.4451,德州市,监理站,颗粒物(PM10),59,68,44,34,21,159,,,,26,15,12,11,0.5,0.3
2025-06-22T0200,3066A,116.2721,37.4379,德州市,九衢泉纯净水厂,颗粒物(PM10),56,61,45,31,23,125,,,,41,25,10,8,0.8,0.7
2025-06-22T0200,3371A,116.3728,37.4403,德州市,开发区人民医院,"颗粒物(PM10),臭氧1小时",59,68,46,34,20,167,,,,21,18,13,10,0.8,0.6
2025-06-22T0200,3372A,116.3572,37.4094,德州市,太阳城中学,,,,,,,,,,,,,,,,
2025-06-22T0200,3511A,116.5652,37.3319,德州市,陵城艺术中心,臭氧1小时,74,53,46,27,19,179,,,,11,11,11,8,0.6,0.7
2025-06-22T0200,2621A,99.7056,27.8317,迪庆藏族自治州,迪庆州站,,20,20,16,11,11,22,,,,10,8,9,7,0.5,0.5
2025-06-22T0200,3180A,99.7136,27.8094,迪庆藏族自治州,质量技术监督局,,17,17,14,6,7,24,,,,11,10,7,7,0.5,0.5
2025-06-22T0200,4257A,104.6092,35.5962,定西市,将台街,,47,47,36,18,13,115,,,,7,14,6,5,0.5,0.4
2025-06-22T0200,4309A,104.6159,35.5701,定西市,正龙路62号,,38,35,32,26,23,114,,,,3,3,4,4,0.3,0.3
2025-06-22T0200,1389A,113.7547,23.0494,东莞市,莞城梨川,,15,15,17,6,9,14,,,,17,18,6,6,0.3,0.3
2025-06-22T0200,1390A,113.7944,23.0128,东莞市,东城石井,,22,22,16,8,7,0,,,,17,19,1,2,0.5,0.5
2025-06-22T0200,1391A,113.7383,22.9658,东莞市,南城西平,,11,11,14,3,7,22,,,,11,16,2,2,0.4,0.5
2025-06-22T0200,3319A,113.7338,23.0381,东莞市,万江金泰,,13,13,15,6,8,7,,,,14,17,2,2,0.7,0.7
2025-06-22T0200,3626A,113.7533,23.0202,东莞市,南城元岭,细颗粒物(PM2.5),58,,14,41,29,16,,,,17,20,5,5,0.5,0.6
2025-06-22T0200,3627A,113.7875,23.0457,东莞市,东城主山,,16,16,18,7,9,6,,,,22,19,6,6,0.5,0.6
2025-06-22T0200,1666A,118.6614,37.4309,东营市,市环保局,细颗粒物(PM2.5),83,68,41,61,27,136,,,,23,23,8,9,0.8,0.5
2025-06-22T0200,3036A,118.6904,37.4338,东营市,开发区管委会,细颗粒物(PM2.5),73,83,52,53,25,111,,,,36,24,7,9,0.6,0.4
2025-06-22T0200,3365A,118.5719,37.565,东营市,垦利区民丰路,细颗粒物(PM2.5),100,127,59,75,33,118,,,,27,25,8,10,1.1,0.9
2025-06-22T0200,3498A,118.5055,37.8612,东营市,河口城区,臭氧1小时,70,73,58,46,33,176,,,,18,23,3,10,1.2,0.9
2025-06-22T0200,3646A,118.4978,37.4623,东营市,胜利站,细颗粒物(PM2.5),98,82,45,73,27,127,,,,27,26,8,10,1.3,0.9
2025-06-22T0200,3734A,118.35,37.26,东营市,理想之城,细颗粒物(PM2.5),100,100,49,75,29,84,,,,35,23,5,8,1.0,0.7
2025-06-22T0200,1591A,110.0023,39.8129,鄂尔多斯市,综合楼,,34,34,25,9,7,84,,,,31,18,4,4,0.4,0.4
2025-06-22T0200,1592A,109.9486,39.8261,鄂尔多斯市,巴音孟克林场办事处,,44,44,38,12,12,104,,,,25,21,8,7,0.6,0.6
2025-06-22T0200,1593A,109.7736,39.5986,鄂尔多斯市,康泽苑,,24,24,35,12,9,59,,,,21,14,7,9,0.3,0.3
2025-06-22T0200,1594A,109.8119,39.5989,鄂尔多斯市,华泰汽车城,,36,36,36,9,11,14,,,,69,26,6,6,0.4,0.4
2025-06-22T0200,1595A,109.9734,39.7884,鄂尔多斯市,奥林花园,,39,39,32,12,11,82,,,,45,36,6,7,0.5,0.5
2025-06-22T0200,2436A,114.8938,30.3994,鄂州市,市政府,,28,6,14,3,4,87,,,,6,13,4,4,0.3,0.6
2025-06-22T0200,2437A,114.8989,30.3714,鄂州市,赵家坝,,,3,14,,3,90,,,,2,7,8,9,0.3,0.5
2025-06-22T0200,3654A,114.8094,30.4089,鄂州市,精准医疗中心,,,3,9,,2,65,,,,2,4,4,4,0.3,0.7
2025-06-22T0200,2454A,109.4978,30.2981,恩施土家族苗族自治州,湖北民院,,18,12,16,3,6,57,,,,2,3,4,4,0.3,0.3
2025-06-22T0200,2455A,109.4707,30.2798,恩施土家族苗族自治州,州电力总公司,,16,6,12,3,7,51,,,,2,4,6,6,0.3,0.3
2025-06-22T0200,3549A,109.5061,30.3772,恩施土家族苗族自治州,龙凤新区,,32,,12,22,9,44,,,,2,3,3,2,0.3,0.4
2025-06-22T0200,2499A,108.3411,21.6158,防城港市,沙万,,30,30,29,13,12,33,,,,24,13,1,3,0.5,0.4
2025-06-22T0200,2500A,108.3514,21.7731,防城港市,防城档案局,,27,27,26,8,15,41,,,,8,7,3,2,0.5,0.4
2025-06-22T0200,2501A,108.3506,21.6414,防城港市,大海花园,,29,29,30,9,12,53,,,,8,9,3,3,0.5,0.4
2025-06-22T0200,1371A,113.1294,23.0067,佛山市,湾梁,,12,12,13,3,6,11,,,,18,23,8,9,0.4,0.4
2025-06-22T0200,1372A,113.1083,23.0478,佛山市,华材职中,,9,9,10,3,6,14,,,,10,14,6,6,0.5,0.5
2025-06-22T0200,1373A,113.144,23.0453,佛山市,南海气象局,,11,11,17,7,7,6,,,,18,21,4,6,0.6,0.6
2025-06-22T0200,1374A,113.2881,22.8094,佛山市,顺德苏岗,,19,19,14,3,4,10,,,,13,15,6,6,0.4,0.4
2025-06-22T0200,1376A,112.8383,22.8678,佛山市,高明孔堂,,18,18,14,3,6,18,,,,7,6,5,6,0.6,0.5
2025-06-22T0200,1377A,112.8836,23.1588,佛山市,三水监测站,,22,22,15,6,9,0,,,,38,28,5,2,0.6,0.5
2025-06-22T0200,1378A,112.867,23.185,佛山市,三水云东海,,32,32,31,13,10,0,,,,34,24,1,1,0.7,0.6
2025-06-22T0200,3625A,113.2544,22.7642,佛山市,容桂街道办,,11,9,10,3,4,7,,,,22,21,6,5,0.7,0.7
2025-06-22T0200,1280A,119.3903,26.0543,福州市,鼓山,,,,,,,,,,,,,,,,
2025-06-22T0200,1282A,119.2681,26.0504,福州市,师大,,23,23,22,8,6,46,,,,7,6,4,4,0.2,0.2
2025-06-22T0200,1283A,119.2984,26.1028,福州市,五四北路,,24,24,21,10,7,32,,,,17,11,4,4,0.3,0.2
2025-06-22T0200,1284A,119.2648,26.0768,福州市,杨桥西路,,26,26,25,7,7,44,,,,11,9,4,4,0.2,0.2
2025-06-22T0200,1285A,119.317,26.0746,福州市,紫阳,,28,28,22,11,6,23,,,,22,10,4,4,0.2,0.2
2025-06-22T0200,3048A,119.5799,26.0936,福州市,九龙,,23,23,19,13,14,35,,,,14,8,5,5,0.2,0.2
2025-06-22T0200,3526A,119.5189,25.9664,福州市,吴航,,26,26,18,12,9,32,,,,9,6,5,5,0.3,0.3
2025-06-22T0200,1755A,123.7977,41.8491,抚顺市,望花区,颗粒物(PM10),51,52,30,21,12,38,,,,63,32,20,16,0.9,0.7
2025-06-22T0200,1756A,123.9161,41.8822,抚顺市,顺城区,颗粒物(PM10),53,56,29,14,12,4,,,,60,31,10,7,0.9,0.6
2025-06-22T0200,1757A,124.0436,41.8611,抚顺市,东洲区,,25,25,23,12,10,36,,,,25,20,10,10,0.3,0.4
2025-06-22T0200,1758A,123.9247,41.8642,抚顺市,新抚区,颗粒物(PM10),53,56,28,15,10,0,,,,44,16,6,8,0.6,0.5
2025-06-22T0200,1759A,124.0972,41.8961,抚顺市,大伙房水库,,16,10,20,7,8,49,,,,17,19,8,9,0.2,0.3
2025-06-22T0200,1760A,123.7086,41.8391,抚顺市,沈抚新城,颗粒物(PM10),57,63,31,30,13,26,,,,67,36,45,15,1.0,0.5
2025-06-22T0200,2376A,116.2127,28.0814,抚州市,桐源党溪,,13,13,18,8,6,28,,,,3,3,4,4,0.2,0.2
2025-06-22T0200,2377A,116.3544,27.9831,抚州市,市站,,10,9,15,3,5,31,,,,1,2,1,2,0.7,0.6
2025-06-22T0200,2378A,116.3565,27.963,抚州市,血防站,,11,11,17,3,7,34,,,,3,4,3,3,0.4,0.4
2025-06-22T0200,2379A,116.3564,28.0007,抚州市,采茶剧团,,15,15,16,3,5,34,,,,2,2,4,4,0.3,0.3
2025-06-22T0200,2380A,116.385,27.9647,抚州市,医学分院,,14,14,14,6,5,35,,,,2,2,5,4,0.7,0.7
2025-06-22T0200,2207A,121.6094,41.998,阜新市,工业园区,,43,43,25,27,11,1,,,,52,23,28,13,0.5,0.4
2025-06-22T0200,2208A,121.6697,42.0279,阜新市,长青街,,31,31,18,18,9,12,,,,35,17,14,15,0.6,0.4
2025-06-22T0200,2209A,121.6673,42.0705,阜新市,农业园区,,28,28,19,14,6,35,,,,30,14,58,12,0.9,0.4
2025-06-22T0200,2210A,121.6717,42.0224,阜新市,东苑,,38,38,24,24,9,20,,,,36,19,26,20,0.7,0.5
2025-06-22T0200,2211A,121.6506,42.0498,阜新市,玉龙新城,,48,48,31,15,16,2,,,,37,24,14,8,0.5,0.5
2025-06-22T0200,2301A,115.8277,32.8929,阜阳市,市监测站,,26,14,17,3,9,83,,,,6,8,3,2,0.2,0.3
2025-06-22T0200,2303A,115.8554,32.8605,阜阳市,开发区,,22,,7,8,8,69,,,,12,9,5,5,0.1,0.1
2025-06-22T0200,2875A,115.784,32.8892,阜阳市,阜阳职业技术学院,,32,,7,3,8,102,,,,4,5,3,3,0.1,0.2
2025-06-22T0200,3468A,115.7901,32.8613,阜阳市,市规划展馆,,30,10,15,3,11,95,,,,5,6,3,2,0.3,0.3
2025-06-22T0200,3469A,115.836,32.9183,阜阳市,枣园社区,,25,13,18,3,11,77,,,,17,11,3,3,0.3,0.4
2025-06-22T0200,2669A,102.9099,34.9841,甘南藏族自治州,州政府,,30,,26,17,18,96,,,,7,15,4,4,0.2,0.3
2025-06-22T0200,3380A,102.8914,34.9617,甘南藏族自治州,甘肃民族师范学院,,33,15,37,3,14,103,,,,2,10,8,8,0.3,0.3
2025-06-22T0200,2570A,101.9603,30.0475,甘孜藏族自治州,水桥子,,15,15,16,10,8,17,,,,23,30,4,5,0.2,0.2
2025-06-22T0200,3065A,101.9533,29.9972,甘孜藏族自治州,州环保局,,19,19,16,7,7,46,,,,8,20,2,2,0.3,0.3
2025-06-22T0200,3414A,115.8347,28.932,赣江新区,桑海产业园,,,,13,,6,,,69,,,10,,8,,0.2
2025-06-22T0200,2362A,114.9017,25.9149,赣州市,通天岩,,10,10,14,3,4,25,,,,3,3,1,2,0.3,0.3
2025-06-22T0200,2363A,114.9367,25.8664,赣州市,地委,,10,10,10,3,7,24,,,,7,7,9,5,0.6,0.6
2025-06-22T0200,2364A,114.9461,25.8481,赣州市,气象台,,13,13,13,3,3,27,,,,4,4,7,7,0.3,0.3
2025-06-22T0200,2365A,114.9322,25.8333,赣州市,市图书馆,,8,,9,3,5,21,,,,4,4,3,4,0.4,0.4
2025-06-22T0200,2366A,114.8905,25.8471,赣州市,华坚鞋城,,10,10,14,3,6,30,,,,6,6,5,3,0.3,0.3
2025-06-22T0200,3109A,115.0093,25.8613,赣州市,赣县区卫计委,,13,13,11,3,6,21,,,,7,8,2,2,0.1,0.2
2025-06-22T0200,2683A,106.2319,36.1417,固原市,马园,,30,30,28,16,12,69,,,,48,30,35,17,0.7,0.7
2025-06-22T0200,2684A,106.2792,36.0022,固原市,监测站,,39,24,24,3,10,124,,,,13,13,5,5,0.2,0.2
2025-06-22T0200,2685A,106.2375,36.0211,固原市,新区,,39,24,22,16,12,123,,,,10,11,3,3,0.4,0.4
2025-06-22T0200,3522A,106.2177,35.9959,固原市,原州区十五小,,39,28,24,19,14,122,,,,11,8,9,9,0.2,0.2
2025-06-22T0200,2543A,106.6308,30.5278,广安市,小平旧居,,,,,,,,,,,,,,,,
2025-06-22T0200,2544A,106.6303,30.4576,广安市,市委,,20,,11,13,11,63,,,,10,10,2,3,0.4,0.5
2025-06-22T0200,2545A,106.6271,30.4663,广安市,友谊中学,,25,14,18,6,8,78,,,,10,9,6,6,0.6,0.6
2025-06-22T0200,2547A,106.6388,30.4551,广安市,广电花园,,18,12,30,6,10,56,,,,8,6,7,8,0.4,0.5
2025-06-22T0200,2902A,106.6351,30.4865,广安市,北辰小学,,22,9,13,3,9,70,,,,6,6,6,7,0.6,0.6
2025-06-22T0200,2523A,105.8945,32.4535,广元市,黑石坡,,27,23,33,6,12,86,,,,10,12,8,8,0.4,0.4
2025-06-22T0200,2524A,105.821,32.4444,广元市,老城,,41,41,22,12,10,54,,,,21,16,3,6,0.8,0.7
2025-06-22T0200,2526A,105.8628,32.4287,广元市,监测站,,31,,17,13,13,97,,,,9,14,7,7,0.4,0.5
2025-06-22T0200,3617A,105.8047,32.4166,广元市,经开区,,29,16,33,10,18,92,,,,10,18,4,7,0.5,0.6
2025-06-22T0200,1345A,113.2347,23.1423,广州市,广雅中学,,16,16,18,10,9,8,,,,26,22,4,2,0.5,0.5
2025-06-22T0200,1346A,113.2612,23.105,广州市,市五中,,20,20,16,10,8,2,,,,17,15,3,4,0.6,0.5
2025-06-22T0200,1348A,113.3478,23.0916,广州市,广东商学院,,22,22,18,10,8,9,,,,27,23,3,2,0.6,0.6
2025-06-22T0200,1349A,113.4332,23.1047,广州市,市八十六中,,17,14,12,7,6,3,,,,34,30,3,3,0.6,0.6
2025-06-22T0200,1350A,113.3505,22.9483,广州市,番禺中学,,18,18,14,6,7,3,,,,25,19,7,6,0.5,0.5
2025-06-22T0200,1351A,113.2146,23.3916,广州市,花都师范,,29,29,22,13,9,2,,,,35,24,4,4,0.8,0.7
2025-06-22T0200,1352A,113.2597,23.1331,广州市,市监测站,,23,23,19,11,9,1,,,,21,14,5,5,0.4,0.3
2025-06-22T0200,1353A,113.5618,23.312,广州市,九龙镇镇龙,,35,35,24,15,13,0,,,,24,25,6,6,0.5,0.4
2025-06-22T0200,1354A,113.2765,23.1544,广州市,麓湖,,18,18,16,9,7,2,,,,24,16,2,2,0.6,0.6
2025-06-22T0200,1355A,113.443,23.3035,广州市,帽峰山森林公园,,13,11,11,3,4,16,,,,26,20,6,6,0.4,0.4
2025-06-22T0200,2846A,113.3221,23.1322,广州市,体育西,,21,21,18,9,9,0,,,,33,26,5,5,0.5,0.4
2025-06-22T0200,3298A,113.5717,23.5491,广州市,从化街口,,27,27,18,11,9,0,,,,25,19,8,8,0.8,0.7
2025-06-22T0200,3299A,113.3472,23.3692,广州市,白云竹料,,29,29,23,13,10,3,,,,28,22,3,3,0.7,0.7
2025-06-22T0200,3300A,113.2981,23.237,广州市,白云嘉禾,,21,21,19,11,9,0,,,,32,24,4,4,0.9,0.8
2025-06-22T0200,3301A,113.4256,23.1716,广州市,黄埔科学城,,24,24,21,8,8,0,,,,21,20,5,4,0.5,0.5
2025-06-22T0200,3302A,113.3942,23.0483,广州市,番禺大学城,,16,16,18,8,10,3,,,,29,21,4,4,0.6,0.6
2025-06-22T0200,3303A,113.4922,22.8168,广州市,南沙黄阁,,18,18,12,8,5,10,,,,14,9,4,4,0.5,0.5
2025-06-22T0200,3304A,113.5342,22.7896,广州市,南沙街,,16,16,11,6,5,9,,,,17,11,2,2,0.5,0.5
2025-06-22T0200,3443A,113.2902,23.5544,广州市,花都梯面,,22,22,17,8,8,4,,,,28,18,5,4,0.6,0.5
2025-06-22T0200,3445A,113.7858,23.7478,广州市,从化良口,,22,22,15,7,8,1,,,,9,9,6,6,0.6,0.6
2025-06-22T0200,3446A,113.8051,23.2614,广州市,增城荔城,,22,22,18,10,7,1,,,,23,16,6,6,0.4,0.4
2025-06-22T0200,2505A,109.568,23.1478,贵港市,德智高中,,,,,,,,,,,,,,,,
2025-06-22T0200,2506A,109.6047,23.0666,贵港市,江南子站,,46,46,31,17,14,8,,,,29,14,6,6,0.7,0.6
2025-06-22T0200,2508A,109.5669,23.1065,贵港市,荷城子站,,30,30,29,12,8,18,,,,21,14,8,6,0.6,0.3
2025-06-22T0200,3405A,109.5886,23.1172,贵港市,新世纪学校,,14,14,21,9,11,25,,,,15,13,5,5,0.4,0.4
2025-06-22T0200,4260A,109.5933,23.0951,贵港市,中山路155-3号,颗粒物(PM10),52,54,37,12,14,12,,,,25,15,8,5,0.7,0.4
2025-06-22T0200,1439A,106.6899,26.5998,贵阳市,马鞍山,,,12,22,,5,53,,,,5,8,3,3,0.3,0.4
2025-06-22T0200,1441A,106.6243,26.6266,贵阳市,鉴湖路,,25,12,27,3,9,78,,,,6,10,7,6,0.3,0.4
2025-06-22T0200,1442A,106.7487,26.6343,贵阳市,燕子冲,,28,24,29,19,23,74,,,,9,13,4,4,0.1,0.2
2025-06-22T0200,1443A,106.6555,26.4365,贵阳市,碧云窝,,26,17,29,3,13,82,,,,7,12,4,3,0.3,0.4
2025-06-22T0200,1445A,106.7109,26.6027,贵阳市,红边门,,30,9,23,3,12,93,,,,2,6,3,3,0.2,0.3
2025-06-22T0200,1446A,106.7164,26.5699,贵阳市,新华路,,28,7,17,7,19,87,,,,9,14,2,3,0.3,0.5
2025-06-22T0200,1447A,106.674,26.5424,贵阳市,太慈桥,,24,9,21,3,11,75,,,,11,15,3,3,0.3,0.4
2025-06-22T0200,1552A,106.805,26.3003,贵阳市,桐木岭,,39,36,43,27,26,88,,,,5,6,4,6,0.8,0.9
2025-06-22T0200,4230A,106.6882,26.5695,贵阳市,花果园大街66号,,30,9,22,7,18,93,,,,5,11,2,3,0.4,0.4
2025-06-22T0200,4231A,106.6873,26.5169,贵阳市,漓江路57号,,29,6,24,3,10,91,,,,7,16,5,6,0.2,0.4
2025-06-22T0200,1862A,110.4144,25.3167,桂林市,电子科大尧山校区,,,,,,,,,,,,,,,,
2025-06-22T0200,1864A,110.3089,25.2708,桂林市,龙隐路小学,,22,22,20,7,10,18,,,,10,7,13,9,0.4,0.5
2025-06-22T0200,1865A,110.2869,25.2178,桂林市,八中,,18,18,18,8,7,15,,,,16,11,6,7,0.4,0.4
2025-06-22T0200,3531A,110.296,25.1253,桂林市,旅游学院,,14,14,9,7,5,9,,,,12,7,4,3,0.3,0.2
2025-06-22T0200,4222A,110.1835,25.2444,桂林市,环湖路276号,,23,19,15,3,9,6,,,,45,10,5,5,0.4,0.4
2025-06-22T0200,4301A,110.2803,25.2773,桂林市,信义路13号,,36,26,18,25,10,20,,,,10,9,4,2,0.5,0.4
2025-06-22T0200,2674A,100.2561,34.4714,果洛藏族自治州,玛沁县大武镇,,30,21,14,14,12,94,,,,1,2,14,19,0.4,0.4
2025-06-22T0200,1129A,126.5422,45.755,哈尔滨市,岭北,,19,9,8,6,6,59,,,,11,10,10,11,0.8,0.8
2025-06-22T0200,1130A,126.561,45.8167,哈尔滨市,松北商大,,12,12,12,6,5,19,,,,12,8,4,4,0.4,0.4
2025-06-22T0200,1131A,126.979,45.5419,哈尔滨市,阿城会宁,,17,17,15,9,8,44,,,,15,16,10,9,0.4,0.4
2025-06-22T0200,1132A,126.599,45.7222,哈尔滨市,南岗学府路,,18,18,18,3,5,47,,,,7,11,6,6,0.4,0.4
2025-06-22T0200,1133A,126.689,45.7733,哈尔滨市,太平宏伟公园,,18,18,13,9,8,45,,,,8,9,5,5,0.3,0.3
2025-06-22T0200,1134A,126.635,45.7667,哈尔滨市,道外承德广场,,20,20,28,3,7,41,,,,9,13,6,6,0.5,0.6
2025-06-22T0200,1135A,126.685,45.7319,哈尔滨市,香坊红旗大街,,15,7,12,7,9,47,,,,8,11,2,2,0.6,0.6
2025-06-22T0200,1136A,126.6411,45.7258,哈尔滨市,动力和平路,,,16,16,,5,46,,,,11,13,8,8,0.3,0.3
2025-06-22T0200,1137A,126.593,45.7478,哈尔滨市,道里建国路,,18,18,16,3,5,45,,,,5,7,3,2,0.6,0.6
2025-06-22T0200,1138A,126.615,45.61,哈尔滨市,平房东轻厂,,12,11,13,3,6,32,,,,23,17,9,9,0.3,0.3
2025-06-22T0200,1139A,126.595,45.9855,哈尔滨市,呼兰师专,,13,13,11,3,5,39,,,,9,9,7,7,0.3,0.3
2025-06-22T0200,1140A,126.6206,45.6842,哈尔滨市,省农科院,,18,18,34,3,9,39,,,,11,22,9,9,0.6,0.5
2025-06-22T0200,2688A,93.5128,42.8172,哈密市,地区监测站,,39,18,35,12,14,122,,,,3,7,8,10,0.1,0.2
2025-06-22T0200,2689A,93.4961,42.8328,哈密市,哈密师范学校,,38,,28,11,12,120,,,,5,10,4,5,0.0,0.1
2025-06-22T0200,2671A,100.9048,36.9639,海北藏族自治州,海晏县西海镇,,25,18,17,17,13,72,,,,9,7,9,8,0.4,0.4
2025-06-22T0200,3867A,102.0738,36.5056,海东市,平安区公安北苑,,23,23,28,14,15,59,,,,10,13,9,11,0.6,0.8
2025-06-22T0200,1409A,110.576,19.9507,海口市,东寨港,,21,21,11,9,6,31,,,,3,3,8,10,0.3,0.3
2025-06-22T0200,1410A,110.3232,20.0574,海口市,海南大学,,15,15,16,3,8,35,,,,3,3,3,3,0.3,0.3
2025-06-22T0200,1411A,110.283,20.0053,海口市,秀英海南医院,,17,17,21,7,7,32,,,,4,6,4,4,0.2,0.2
2025-06-22T0200,1412A,110.338,19.9969,海口市,海南师范大学,,12,12,17,6,7,33,,,,4,4,4,4,0.2,0.2
2025-06-22T0200,1413A,110.33,20.0356,海口市,龙华路环保局宿舍,,23,23,17,7,7,33,,,,4,5,5,5,0.3,0.3
2025-06-22T0200,3539A,110.5111,19.9736,海口市,桂林洋子站,,14,14,16,3,7,31,,,,4,4,4,4,0.2,0.2
2025-06-22T0200,2673A,100.6188,36.2866,海南藏族自治州,共和县恰卜恰镇,,36,13,22,11,9,115,,,,4,10,13,12,0.5,0.5
2025-06-22T0200,2676A,97.3731,37.3753,海西蒙古族藏族自治州,德令哈市,,49,17,25,7,16,156,,,,1,2,11,11,0.6,0.6
2025-06-22T0200,1048A,114.5302,36.6116,邯郸市,东污水处理厂,颗粒物(PM10),59,68,45,14,6,96,,,,39,30,5,7,0.4,0.6
2025-06-22T0200,1049A,114.4918,36.5713,邯郸市,矿院,,49,49,35,19,11,110,,,,33,21,7,8,0.4,0.5
2025-06-22T0200,1050A,114.484,36.6133,邯郸市,丛台公园,,49,49,36,18,15,127,,,,18,18,8,11,0.4,0.7
2025-06-22T0200,3458A,114.7895,36.5593,邯郸市,香泉濮院小区,颗粒物(PM10),54,58,52,16,9,127,,,,15,13,6,6,0.3,0.2
2025-06-22T0200,3579A,114.50634,36.77178,邯郸市,永年区实验高中,颗粒物(PM10),58,65,52,25,23,97,,,,30,19,5,8,0.4,0.7
2025-06-22T0200,3580A,114.20016,36.44293,邯郸市,峰峰矿区临水派出所,颗粒物(PM10),51,51,33,13,9,122,,,,25,12,9,10,0.9,0.5
2025-06-22T0200,2634A,106.9893,33.1842,汉中市,汉川机床厂子校,,32,28,24,11,15,102,,,,6,9,3,3,0.5,0.5
2025-06-22T0200,2635A,107.0154,33.0706,汉中市,市监测站,,29,15,23,10,14,90,,,,4,9,5,6,0.5,0.5
2025-06-22T0200,2636A,107.0089,33.1138,汉中市,鑫源开发区,,31,11,22,8,12,98,,,,5,9,5,5,0.5,0.5
2025-06-22T0200,2637A,107.007,33.0323,汉中市,南郑大河坎水厂,,24,18,24,9,14,75,,,,3,8,4,4,0.5,0.5
2025-06-22T0200,1223A,120.2072,30.2111,杭州市,滨江,,24,24,21,12,10,63,,,,14,19,6,7,0.8,0.6
2025-06-22T0200,1224A,120.0633,30.2747,杭州市,西溪,,40,,14,28,11,50,,,,8,9,4,4,0.4,0.4
2025-06-22T0200,1226A,120.3417,30.3150,杭州市,下沙,,25,20,21,17,12,58,,,,14,16,4,5,0.5,0.4
2025-06-22T0200,1227A,120.1269,30.2456,杭州市,卧龙桥,,26,25,19,18,12,49,,,,9,10,7,7,0.7,0.7
2025-06-22T0200,1228A,120.1903,30.2692,杭州市,浙江农大,,34,34,20,22,12,52,,,,11,16,9,10,0.6,0.5
2025-06-22T0200,1230A,120.1197,30.3119,杭州市,和睦小学,,26,26,17,10,11,58,,,,8,9,8,8,0.4,0.4
2025-06-22T0200,1231A,120.3019,30.4183,杭州市,临平镇,,40,40,28,12,9,64,,,,10,15,5,5,0.4,0.4
2025-06-22T0200,1232A,120.2753,30.1839,杭州市,城厢镇,,30,,23,21,15,70,,,,6,12,7,7,0.7,0.6
2025-06-22T0200,1233A,120.0883,30.1808,杭州市,云栖,,18,18,19,3,8,30,,,,8,9,7,7,0.5,0.5
2025-06-22T0200,3557A,119.9464,30.0494,杭州市,镇二中,,26,20,22,18,16,68,,,,10,15,3,3,0.4,0.5
2025-06-22T0200,3558A,119.7183,30.2367,杭州市,市府大楼,,21,,15,7,8,67,,,,7,11,6,7,0.5,0.4
2025-06-22T0200,3656A,120.1556,30.2864,杭州市,消防大队,,38,,20,26,12,55,,,,12,15,5,5,0.7,0.6
2025-06-22T0200,1270A,117.1959,31.7848,合肥市,明珠广场,,28,7,5,7,5,89,,,,15,12,4,4,0.4,0.4
2025-06-22T0200,1271A,117.3072,31.8764,合肥市,三里街,,19,9,4,7,4,58,,,,22,10,5,5,0.4,0.4
2025-06-22T0200,1272A,117.2588,31.8707,合肥市,琥珀山庄,,23,,6,12,9,73,,,,12,10,6,6,0.5,0.4
2025-06-22T0200,1273A,117.1604,31.9052,合肥市,董铺水库,,17,14,7,7,3,52,,,,9,4,4,4,0.2,0.2
2025-06-22T0200,1274A,117.25,31.8571,合肥市,长江中路,,28,9,9,7,6,87,,,,9,8,6,5,0.4,0.5
2025-06-22T0200,1275A,117.266,31.9436,合肥市,庐阳区,,20,19,9,14,4,59,,,,21,8,9,9,0.6,0.5
2025-06-22T0200,1276A,117.3453,31.8616,合肥市,瑶海区,,24,7,6,7,4,74,,,,17,10,6,7,0.5,0.5
2025-06-22T0200,1277A,117.3027,31.7964,合肥市,包河区,,27,12,6,3,4,46,,,,54,28,4,4,0.5,0.5
2025-06-22T0200,1278A,117.2776,31.7385,合肥市,滨湖新区,,28,,6,12,8,88,,,,7,10,9,9,0.4,0.4
2025-06-22T0200,1279A,117.1318,31.8403,合肥市,高新区,,27,12,7,3,6,86,,,,12,10,9,6,0.4,0.4
2025-06-22T0200,3464A,117.3803,31.9147,合肥市,高教基地,,12,12,8,7,5,33,,,,9,7,6,6,0.4,0.3
2025-06-22T0200,3614A,79.924,37.0877,和田地区,地区环保局,颗粒物(PM10),303,422,492,104,111,98,,,,15,12,3,2,0.5,0.4
2025-06-22T0200,3615A,79.9131,37.113,和田地区,市环保局,颗粒物(PM10),262,393,439,95,107,72,,,,25,16,2,2,0.3,0.3
2025-06-22T0200,2516A,108.2011,24.715,河池市,东仁乐园,,,,,,,,,,,,,,,,
2025-06-22T0200,2517A,108.0497,24.6947,河池市,市环保站,,21,21,15,9,8,10,,,,10,7,2,2,0.6,0.6
2025-06-22T0200,2518A,108.0983,24.6989,河池市,市疾控中心,,22,22,17,8,7,7,,,,17,12,3,3,0.6,0.6
2025-06-22T0200,1696A,114.6778,23.7569,河源市,源西,,16,,12,11,12,20,,,,13,10,4,4,0.6,0.5
2025-06-22T0200,1697A,114.6944,23.7586,河源市,东埔,,14,14,11,6,5,16,,,,11,9,4,4,0.3,0.3
2025-06-22T0200,1698A,114.6892,23.7233,河源市,老城,,20,20,14,7,6,13,,,,7,7,4,4,0.2,0.2
2025-06-22T0200,1718A,115.4208,35.2464,菏泽市,气象局,颗粒物(PM10),54,58,47,30,25,97,,,,18,13,5,4,0.5,0.4
2025-06-22T0200,3374A,115.5564,35.0891,菏泽市,定陶老年大学,,45,41,42,31,22,75,,,,16,17,1,3,0.4,0.4
2025-06-22T0200,4184A,115.4797,35.24401,菏泽市,永昌路1号,颗粒物(PM10),53,55,43,24,19,92,,,,12,12,5,6,0.2,0.3
2025-06-22T0200,4193A,115.4715,35.2800,菏泽市,长城路999号,,50,50,44,27,22,113,,,,15,14,5,4,0.4,0.4
2025-06-22T0200,2514A,111.5264,24.4172,贺州市,环保小区,,30,,17,21,11,21,,,,15,9,9,10,0.6,0.5
2025-06-22T0200,2515A,111.5608,24.4078,贺州市,政协大楼,,28,19,15,19,10,34,,,,12,9,12,12,0.5,0.5
2025-06-22T0200,3534A,111.4744,24.4553,贺州市,西湾,,20,,18,14,8,22,,,,7,9,10,10,0.6,0.4
2025-06-22T0200,2385A,114.17,35.9019,鹤壁市,市监测站,"颗粒物(PM10),细颗粒物(PM2.5)",52,54,46,36,30,139,,,,13,14,7,7,0.8,0.8
2025-06-22T0200,2386A,114.2956,35.7511,鹤壁市,市交警支队,细颗粒物(PM2.5),52,48,50,36,27,138,,,,19,16,4,4,0.6,0.6
2025-06-22T0200,2387A,114.2878,35.7306,鹤壁市,迎宾馆,,49,49,44,30,23,143,,,,13,15,3,7,0.6,0.6
2025-06-22T0200,3474A,114.2617,35.6822,鹤壁市,大新区,细颗粒物(PM2.5),57,57,42,40,21,60,,,,55,13,7,7,0.7,0.7
2025-06-22T0200,3596A,114.1572,35.9603,鹤壁市,南山宾馆,颗粒物(PM10),60,69,48,37,33,138,,,,14,9,6,6,0.5,0.5
2025-06-22T0200,2244A,130.2537,47.3416,鹤岗市,哈啤分公司,,16,10,15,7,6,51,,,,3,6,15,16,0.2,0.2
2025-06-22T0200,2245A,130.2684,47.3086,鹤岗市,斯达机电,,27,27,21,11,14,57,,,,5,9,13,17,0.3,0.3
2025-06-22T0200,2246A,130.3114,47.3388,鹤岗市,东山纸板厂,,19,18,19,13,10,51,,,,8,12,15,17,1.2,0.7
2025-06-22T0200,2247A,130.1097,47.3382,鹤岗市,五号水库,,19,13,9,8,6,58,,,,8,8,13,13,0.5,0.5
2025-06-22T0200,2263A,127.4833,50.2524,黑河市,交通局,,17,17,17,7,6,35,,,,2,7,7,7,0.4,0.4
2025-06-22T0200,2264A,127.5144,50.2341,黑河市,环保局,,19,19,16,7,11,44,,,,3,7,6,6,0.3,0.3
2025-06-22T0200,2265A,127.5291,50.2472,黑河市,大黑河岛,,18,,5,12,12,36,,,,1,8,18,16,0.4,0.4
2025-06-22T0200,1074A,115.6838,37.7541,衡水市,电机北厂,,43,31,47,18,21,136,,,,15,11,6,5,0.3,0.3
2025-06-22T0200,1075A,115.6303,37.7316,衡水市,市监测站,,46,46,50,10,17,103,,,,24,12,8,6,0.2,0.3
2025-06-22T0200,3188A,115.6683,37.7217,衡水市,市城管局,,38,38,49,18,23,116,,,,23,13,4,3,0.2,0.4
2025-06-22T0200,3459A,115.5989,37.5491,衡水市,地表水厂,颗粒物(PM10),56,62,58,9,18,58,,,,61,29,9,7,0.2,0.3
2025-06-22T0200,2456A,112.5003,26.9167,衡阳市,原169医院,,19,15,28,8,9,59,,,,9,9,1,5,0.5,0.4
2025-06-22T0200,2457A,112.6194,26.9258,衡阳市,衡阳化工总厂,,25,8,18,3,11,79,,,,5,7,4,4,0.4,0.4
2025-06-22T0200,2458A,112.6211,26.8956,衡阳市,珠晖区环保局,,,7,17,,,78,,,,7,6,6,6,0.5,0.4
2025-06-22T0200,2459A,112.6197,26.8733,衡阳市,市委党校,,21,11,18,6,8,65,,,,8,6,6,6,0.5,0.4
2025-06-22T0200,2460A,112.6006,26.8919,衡阳市,市监测站,,24,,19,11,11,76,,,,6,7,5,6,0.3,0.3
2025-06-22T0200,2461A,112.5664,26.9056,衡阳市,真空机电公司,,24,,23,10,12,74,,,,3,7,6,6,0.6,0.7
2025-06-22T0200,3399A,112.6703,26.882,衡阳市,师范学院,,22,7,29,3,10,68,,,,7,7,6,6,0.7,0.6
2025-06-22T0200,2608A,103.3772,23.3993,红河哈尼族彝族自治州,污水处理厂,,10,8,18,6,12,31,,,,4,8,6,8,0.4,0.4
2025-06-22T0200,2609A,103.3861,23.35,红河哈尼族彝族自治州,监测站,,19,19,22,7,11,30,,,,4,7,8,5,0.3,0.3
2025-06-22T0200,3038A,103.3758,23.368,红河哈尼族彝族自治州,州图书馆,,13,,13,9,14,36,,,,4,8,1,3,0.2,0.3
2025-06-22T0200,1090A,111.6507,40.7517,呼和浩特市,呼市一监,,19,17,14,12,8,59,,,,24,12,8,7,0.5,0.3
2025-06-22T0200,1091A,111.6572,40.8033,呼和浩特市,小召,,19,19,13,9,8,55,,,,33,17,4,4,0.4,0.3
2025-06-22T0200,1094A,111.7516,40.8369,呼和浩特市,如意水处理厂,,20,20,20,11,12,46,,,,38,19,4,4,0.3,0.3
2025-06-22T0200,1095A,111.7276,40.8062,呼和浩特市,二十九中,,27,27,19,10,10,55,,,,29,14,5,5,0.5,0.4
2025-06-22T0200,1096A,111.5512,40.7866,呼和浩特市,工大金川校区,,30,30,22,9,9,35,,,,38,19,5,5,0.4,0.4
2025-06-22T0200,1097A,111.717,40.7612,呼和浩特市,化肥厂生活区,,26,26,20,10,8,65,,,,26,15,7,6,0.5,0.3
2025-06-22T0200,3698A,111.5968,40.8178,呼和浩特市,红旗小学,,25,9,12,6,8,77,,,,16,16,3,2,0.2,0.2
2025-06-22T0200,3699A,111.6518,40.8389,呼和浩特市,海东办,,27,17,14,8,8,27,,,,54,20,4,4,0.3,0.3
2025-06-22T0200,2192A,119.7594,49.2261,呼伦贝尔市,区环保局,,31,31,31,16,21,23,,,,24,15,5,5,0.5,0.4
2025-06-22T0200,3061A,119.7512,49.1577,呼伦贝尔市,国华电力东,,33,33,28,23,18,18,,,,16,9,3,5,0.4,0.4
2025-06-22T0200,1250A,120.0751,30.8669,湖州市,城西水厂,,26,19,20,16,11,82,,,,9,15,5,6,0.5,0.4
2025-06-22T0200,2873A,120.0830,30.8929,湖州市,仁皇山新区,,27,14,17,9,10,85,,,,11,12,4,4,0.5,0.5
2025-06-22T0200,2907A,120.1844,30.8596,湖州市,吴兴区站,,28,13,17,9,10,89,,,,7,15,6,6,0.3,0.4
2025-06-22T0200,3562A,120.4148,30.8538,湖州市,南浔区站,,26,16,24,9,14,81,,,,10,16,4,5,0.5,0.6
2025-06-22T0200,1607A,120.9049,40.7211,葫芦岛市,龙港区,,22,20,32,15,12,62,,,,33,27,5,7,0.4,0.4
2025-06-22T0200,1608A,120.8392,40.7514,葫芦岛市,化工街,,46,29,20,9,7,0,,,,92,37,7,10,0.4,0.4
2025-06-22T0200,1609A,120.8341,40.7073,葫芦岛市,新区,,26,26,25,7,9,52,,,,38,34,4,7,0.5,0.6
2025-06-22T0200,1610A,120.8695,40.7677,葫芦岛市,东城区,颗粒物(PM10),57,64,34,17,10,2,,,,87,37,38,15,0.6,0.6
2025-06-22T0200,2482A,109.5981,27.5721,怀化市,林科所,,26,6,10,3,3,83,,,,1,2,5,4,0.3,0.3
2025-06-22T0200,2483A,109.9453,27.5444,怀化市,河西地税局,,,,8,0,4,74,,,,4,5,4,4,0.2,0.1
2025-06-22T0200,2484A,109.9781,27.5342,怀化市,市四医院,,24,6,16,3,8,76,,,,3,5,1,1,0.5,0.6
2025-06-22T0200,2485A,109.9972,27.5578,怀化市,监测楼,,24,6,11,3,7,76,,,,4,14,3,2,0.0,0.1
2025-06-22T0200,2486A,110.0394,27.583,怀化市,市委党校,,,,8,4,6,80,,,,2,4,2,3,0.2,0.2
2025-06-22T0200,1210A,119.036,33.5981,淮安市,钵池山,,38,27,15,26,13,44,,,,24,14,6,6,0.7,0.6
2025-06-22T0200,1211A,119.007,33.575,淮安市,北京南路,,33,27,17,23,11,11,,,,45,14,6,6,0.7,0.5
2025-06-22T0200,1212A,118.989,33.6067,淮安市,市监测站,,39,31,19,27,16,18,,,,51,16,8,8,0.6,0.5
2025-06-22T0200,1213A,119.135,33.5039,淮安市,楚州区监测站,,27,27,19,18,13,0,,,,46,12,7,7,0.7,0.6
2025-06-22T0200,3426A,118.8755,33.2894,淮安市,新华书店,,22,19,12,15,11,55,,,,17,9,7,8,0.4,0.3
2025-06-22T0200,4206A,119.0288,33.6319,淮安市,承德北路606号,颗粒物(PM10),56,61,21,20,10,17,,,,30,10,4,4,0.8,0.5
2025-06-22T0200,2282A,116.8004,33.975,淮北市,监测站,,38,38,32,23,26,78,,,,4,7,5,6,0.6,0.7
2025-06-22T0200,2283A,116.8091,33.9007,淮北市,烈山区政府,颗粒物(PM10),52,54,51,25,24,44,,,,15,17,6,6,0.6,0.7
2025-06-22T0200,3330A,116.8873,33.9836,淮北市,杜集区检察院,细颗粒物(PM2.5),54,40,42,38,35,57,,,,7,6,8,8,0.9,0.9
2025-06-22T0200,4017A,116.7923,33.9535,淮北市,市博物馆,,32,28,30,22,26,74,,,,5,6,7,7,0.8,0.9
2025-06-22T0200,2277A,116.8305,32.7727,淮南市,潘集区政府,,20,14,12,14,12,63,,,,17,7,3,3,0.3,0.3
2025-06-22T0200,2279A,116.8569,32.5951,淮南市,谢家集区政府,,21,21,13,8,7,55,,,,13,8,5,5,0.2,0.1
2025-06-22T0200,2280A,116.8281,32.633,淮南市,八公山区政府,,19,13,10,8,6,60,,,,6,6,2,4,0.2,0.2
2025-06-22T0200,2281A,116.6325,32.6201,淮南市,焦岗湖风景区管理处,,,,,,,,,,,,,,,,
2025-06-22T0200,2894A,117.0566,32.6531,淮南市,经济技术开发区消防队,,20,10,10,3,7,61,,,,11,7,6,6,0.2,0.2
2025-06-22T0200,3329A,117.0108,32.5893,淮南市,山南新区,,27,,7,8,6,86,,,,1,2,6,6,0.3,0.3
2025-06-22T0200,4209A,117.0031,32.6445,淮南市,国庆中路369号,,27,13,12,8,12,85,,,,9,5,6,6,0.2,0.1
2025-06-22T0200,2446A,114.9028,30.4742,黄冈市,职工中心,,31,6,8,3,7,97,,,,2,3,6,7,0.3,0.4
2025-06-22T0200,2929A,114.8858,30.4519,黄冈市,红卫路,,31,9,14,3,10,98,,,,2,3,4,5,0.2,0.4
2025-06-22T0200,3398A,114.9136,30.4445,黄冈市,市林业局,,29,,15,7,12,91,,,,2,3,6,6,0.3,0.4
2025-06-22T0200,2672A,102.0199,35.5102,黄南藏族自治州,同仁县隆务镇,,26,9,24,3,7,83,,,,1,2,6,6,0.2,0.2
2025-06-22T0200,2295A,118.2903,29.6963,黄山市,延安路89号,,16,6,11,3,7,51,,,,3,4,5,6,0.5,0.5
2025-06-22T0200,2297A,118.1371,30.2756,黄山市,黄山区政府5号楼,,22,,11,3,10,70,,,,2,2,4,4,0.5,0.5
2025-06-22T0200,4210A,118.3354,29.7203,黄山市,滨江东路7-2号,,16,12,20,3,8,51,,,,3,4,4,4,0.3,0.4
2025-06-22T0200,2423A,115.0601,30.2313,黄石市,沈家营,,,6,27,,7,88,,,,2,8,7,6,0.6,0.7
2025-06-22T0200,2426A,114.8988,30.2019,黄石市,铁山,,29,9,19,3,8,90,,,,5,12,4,4,0.6,0.5
2025-06-22T0200,2427A,115.0307,30.2092,黄石市,团城山,,33,6,19,3,4,105,,,,2,4,7,7,0.2,0.4
2025-06-22T0200,3149A,115.0235,30.1578,黄石市,笔架山北路,,30,6,21,3,6,94,,,,7,8,4,4,0.3,0.5
2025-06-22T0200,4185A,115.0780,30.21118,黄石市,磁湖东路29号,,30,6,27,3,6,95,,,,2,9,6,7,0.4,0.2
2025-06-22T0200,1392A,114.4183,23.0528,惠州市,河南岸金山湖子站,,26,26,16,12,8,1,,,,21,13,7,6,0.6,0.5
2025-06-22T0200,1393A,114.4053,23.0822,惠州市,下埔横江三路子站,,29,29,17,14,8,2,,,,25,14,4,5,0.3,0.2
2025-06-22T0200,1394A,114.4103,23.1142,惠州市,江北云山西路子站,,26,26,15,15,7,0,,,,22,13,8,7,0.5,0.4
2025-06-22T0200,1395A,114.4645,22.7833,惠州市,惠阳区承修路船湖子站,,17,17,13,7,6,14,,,,12,10,6,6,0.5,0.4
2025-06-22T0200,1396A,114.5317,22.7422,惠州市,大亚湾管委会子站,,13,13,12,3,6,20,,,,10,11,8,8,0.5,0.5
2025-06-22T0200,3314A,114.4338,22.8134,惠州市,惠阳秋长,,46,46,15,17,8,3,,,,22,14,11,9,0.6,0.4
2025-06-22T0200,3452A,114.6517,22.775,惠州市,大亚湾霞涌,,,,12,2,5,32,,,,7,9,5,5,0.3,0.2
2025-06-22T0200,2240A,130.9762,45.3001,鸡西市,环保局,,21,15,12,10,7,67,,,,8,8,4,4,0.4,0.4
2025-06-22T0200,2243A,130.9429,45.3039,鸡西市,第一中学,,21,9,16,8,5,67,,,,9,5,7,6,0.2,0.2
2025-06-22T0200,3707A,131.0207,45.3073,鸡西市,欧美日汽修厂,,23,,14,11,7,73,,,,11,8,6,6,0.5,0.5
2025-06-22T0200,3709A,130.9967,45.3106,鸡西市,市政设施管理处,,22,,14,13,8,68,,,,12,10,4,4,0.5,0.4
2025-06-22T0200,2367A,114.9754,27.0803,吉安市,红声器材厂,,12,12,18,3,6,38,,,,6,5,9,9,0.6,0.6
2025-06-22T0200,2368A,114.9658,27.0999,吉安市,市森林工业局,,12,12,15,3,6,36,,,,7,3,8,8,0.3,0.4
2025-06-22T0200,2369A,114.99,27.1312,吉安市,市环境监测站,,13,12,16,3,6,41,,,,1,1,14,14,0.3,0.3
2025-06-22T0200,2370A,115.0093,27.0968,吉安市,青原区法院,,13,13,18,3,6,39,,,,7,6,8,8,0.3,0.4
2025-06-22T0200,1772A,126.54,43.8622,吉林市,哈达湾,,20,14,13,9,8,64,,,,17,12,6,6,0.2,0.2
2025-06-22T0200,1773A,126.5844,43.8358,吉林市,东局子,,19,19,17,10,6,57,,,,22,17,5,5,0.6,0.6
2025-06-22T0200,1774A,126.5052,43.8245,吉林市,电力学院,,17,14,12,7,5,53,,,,26,16,4,4,0.3,0.3
2025-06-22T0200,1775A,126.6133,43.8972,吉林市,江北,,20,20,20,8,8,53,,,,22,16,7,7,0.3,0.3
2025-06-22T0200,1776A,126.555,43.8306,吉林市,江南公园,,18,13,11,8,8,56,,,,22,13,4,4,0.3,0.2
2025-06-22T0200,1778A,126.7061,43.7133,吉林市,丰满,,,,,,,,,,,,,,,,
2025-06-22T0200,2868A,126.4739,43.953,吉林市,九站,,19,15,11,10,3,49,,,,38,16,5,5,0.3,0.2
2025-06-22T0200,1299A,116.9862,36.6114,济南市,科干所,,29,29,24,15,16,68,,,,31,18,4,5,0.6,0.6
2025-06-22T0200,1300A,116.9376,36.665,济南市,农科所,颗粒物(PM10),51,51,38,12,15,44,,,,44,32,7,8,0.2,0.3
2025-06-22T0200,1301A,117.1265,36.6734,济南市,开发区,,30,27,30,20,16,93,,,,21,22,8,8,0.6,0.7
2025-06-22T0200,1303A,117.0624,36.6868,济南市,省种子仓库,,36,36,43,14,18,92,,,,25,26,6,7,0.4,0.5
2025-06-22T0200,1304A,116.9489,36.6447,济南市,机床二厂,,46,46,45,17,18,34,,,,62,35,5,6,0.5,0.6
2025-06-22T0200,1305A,117.0495,36.663,济南市,市监测站,,26,22,33,10,16,82,,,,21,21,9,9,0.5,0.5
2025-06-22T0200,1306A,116.7675,36.5484,济南市,长清党校,,25,22,29,17,22,67,,,,45,28,6,6,0.4,0.5
2025-06-22T0200,1616A,117.6795,36.229,济南市,技术学院,,35,27,19,17,14,14,,,,70,20,7,8,0.7,0.7
2025-06-22T0200,1961A,117.532,36.6868,济南市,东山小学,,37,37,27,17,11,107,,,,26,15,7,7,0.3,0.2
2025-06-22T0200,3059A,117.7161,36.2049,济南市,泰兴公司,,39,39,24,17,15,11,,,,73,25,6,8,0.6,0.6
2025-06-22T0200,3064A,117.6867,36.2171,济南市,莱芜战役纪念馆,颗粒物(PM10),52,53,31,25,20,0,,,,78,18,5,6,1.3,1.1
2025-06-22T0200,3494A,117.1673,36.9782,济南市,济阳区政府,颗粒物(PM10),59,68,48,27,19,137,,,,22,18,9,8,0.7,0.5
2025-06-22T0200,3495A,117.1171,36.63,济南市,锦屏中学,,27,27,21,10,9,80,,,,22,17,9,9,0.6,0.6
2025-06-22T0200,3682A,116.9814,36.6819,济南市,济南四建,,44,44,38,22,22,61,,,,47,36,5,6,0.4,0.5
2025-06-22T0200,1653A,116.6251,35.4302,济宁市,火炬城,颗粒物(PM10),55,59,40,27,22,75,,,,10,10,5,6,0.6,0.6
2025-06-22T0200,1655A,116.5491,35.4042,济宁市,电化厂,细颗粒物(PM2.5),55,56,44,39,30,68,,,,18,11,4,5,0.7,0.7
2025-06-22T0200,3500A,116.5814,35.3707,济宁市,北湖一中,颗粒物(PM10),56,62,44,39,33,80,,,,13,12,7,10,0.5,0.5
2025-06-22T0200,3501A,116.8249,35.5593,济宁市,服务中心,颗粒物(PM10),56,62,36,28,18,90,,,,20,16,2,2,0.5,0.4
2025-06-22T0200,3678A,116.5907,35.4054,济宁市,市第七中学,颗粒物(PM10),54,57,43,31,21,85,,,,8,7,8,10,0.5,0.5
2025-06-22T0200,2255A,130.2751,46.8028,佳木斯市,佳纺,,20,9,10,7,6,61,,,,9,6,3,3,0.3,0.3
2025-06-22T0200,2256A,130.3995,46.8307,佳木斯市,发电厂,,23,16,12,6,8,73,,,,8,9,5,4,0.3,0.3
2025-06-22T0200,2257A,130.3258,46.7975,佳木斯市,环保局,,21,13,15,7,8,66,,,,11,9,3,3,0.4,0.4
2025-06-22T0200,2258A,130.3648,46.8032,佳木斯市,十一中,,23,8,13,7,8,71,,,,7,9,5,5,0.3,0.3
2025-06-22T0200,2259A,130.3794,46.7588,佳木斯市,四丰,,,9,8,,,,,,,7,5,1,1,0.4,0.4
2025-06-22T0200,1252A,120.7436,30.778,嘉兴市,清河小学,,29,20,26,10,11,92,,,,11,15,7,7,0.8,0.6
2025-06-22T0200,1253A,120.726,30.7478,嘉兴市,嘉兴学院,,29,20,26,12,13,90,,,,10,15,4,5,0.5,0.5
2025-06-22T0200,2872A,120.7846,30.7525,嘉兴市,南湖区残联,,32,18,25,11,13,100,,,,7,12,5,5,0.7,0.6
2025-06-22T0200,3407A,120.6916,30.7739,嘉兴市,秀洲住建,,27,13,20,7,10,86,,,,11,17,5,6,0.5,0.6
2025-06-22T0200,1945A,98.2908,39.7711,嘉峪关市,气象局,,30,17,24,7,14,94,,,,17,12,6,5,0.6,0.7
2025-06-22T0200,2884A,98.2672,39.7978,嘉峪关市,酒钢宾馆,,32,22,33,14,19,101,,,,15,15,29,41,0,0.8
2025-06-22T0200,3248A,98.2643,39.7724,嘉峪关市,雄关区,,30,29,31,18,18,96,,,,20,18,12,12,0.6,0.5
2025-06-22T0200,1383A,113.1064,22.6058,江门市,北街,,10,10,12,3,6,9,,,,10,10,2,2,0.4,0.4
2025-06-22T0200,1384A,113.0731,22.5835,江门市,西区,,14,14,12,3,4,9,,,,14,11,8,8,0.4,0.4
2025-06-22T0200,1385A,113.0219,22.5311,江门市,圭峰西,,23,23,14,7,7,12,,,,10,8,3,3,0.4,0.4
2025-06-22T0200,1386A,113.0828,22.5947,江门市,东湖,,18,18,11,3,6,9,,,,12,10,6,6,0.4,0.5
2025-06-22T0200,3311A,113.1075,22.5647,江门市,江海富民,,28,23,26,19,14,12,,,,13,11,9,9,0.4,0.4
2025-06-22T0200,3449A,113.05,22.4667,江门市,新会银湖,,18,18,16,3,7,9,,,,10,9,2,2,0.3,0.3
2025-06-22T0200,1830A,113.1992,35.2590,焦作市,影视城,,,,26,,13,,,,,,5,,11,,0.5
2025-06-22T0200,3169A,113.2725,35.2067,焦作市,太极体育中心,颗粒物(PM10),59,67,46,18,30,121,,,,22,21,3,4,0.3,0.3
2025-06-22T0200,3335A,113.3137,35.2641,焦作市,马村街道办,,46,46,47,19,25,127,,,,13,15,10,11,0.6,0.5
2025-06-22T0200,3336A,113.2465,35.2373,焦作市,焦作技师学院,,38,37,44,14,17,120,,,,11,12,4,5,0.6,0.7
2025-06-22T0200,3477A,113.1656,35.2539,焦作市,中站许衡医院,,46,45,48,32,28,108,,,,37,19,7,8,0.4,0.5
2025-06-22T0200,3981A,113.2449,35.1803,焦作市,原李万街道办,颗粒物(PM10),58,66,53,14,20,126,,,,17,18,10,10,0.8,0.7
2025-06-22T0200,4264A,113.2340,35.2190,焦作市,新安路1731号,,44,44,50,15,23,127,,,,10,11,4,5,0.3,0.3
2025-06-22T0200,1708A,116.3701,23.5345,揭阳市,新兴,,18,18,18,7,9,18,,,,11,9,5,5,0.5,0.5
2025-06-22T0200,1709A,116.3264,23.5443,揭阳市,西马,,23,23,22,6,8,12,,,,14,10,3,2,0.6,0.6
2025-06-22T0200,1710A,116.3611,23.5626,揭阳市,东兴,,18,18,21,7,8,20,,,,11,11,4,3,0.5,0.5
2025-06-22T0200,1711A,116.4151,23.5294,揭阳市,渔湖,,30,30,22,13,7,10,,,,18,12,7,6,0.4,0.3
2025-06-22T0200,3320A,116.403,23.5699,揭阳市,曲溪,,18,18,17,3,7,18,,,,11,8,4,4,0.4,0.4
2025-06-22T0200,1944A,102.1692,38.5167,金昌市,天庆家园,,20,9,30,7,11,61,,,,20,7,10,11,0.8,0.7
2025-06-22T0200,4022A,102.1647,38.5371,金昌市,金川区人防中心,,22,,38,6,12,69,,,,16,8,12,12,0.6,0.5
2025-06-22T0200,4239A,102.1930,38.5319,金昌市,长春路96号,,32,32,39,13,11,55,,,,31,7,8,8,0.5,0.7
2025-06-22T0200,1262A,119.647,29.077,金华市,十五中,,28,28,25,12,13,2,,,,31,14,2,2,0.4,0.4
2025-06-22T0200,1263A,119.686,29.1029,金华市,监测站,,33,33,25,14,11,0,,,,32,11,2,2,0.1,0.1
2025-06-22T0200,3659A,119.656,29.1131,金华市,气象局,,33,33,23,17,10,3,,,,19,21,3,3,0.4,0.4
2025-06-22T0200,1767A,121.1115,41.0879,锦州市,南山,颗粒物(PM10),55,59,26,35,15,24,,,,43,24,81,14,1.2,0.6
2025-06-22T0200,1768A,121.0604,40.8428,锦州市,开发区,二氧化硫,54,42,39,17,15,12,,,,85,36,176,39,0.6,0.6
2025-06-22T0200,1769A,121.1836,41.1119,锦州市,百股街道,,37,37,25,22,10,27,,,,35,19,50,10,1.5,0.6
2025-06-22T0200,1770A,121.1178,41.1222,锦州市,天安街道,,33,33,29,19,14,40,,,,33,26,6,9,0.8,0.6
2025-06-22T0200,1771A,121.1303,41.1386,锦州市,北湖公园,,35,35,25,17,14,48,,,,28,23,8,10,0.6,0.5
2025-06-22T0200,2160A,112.85,35.5051,晋城市,自来水公司,,44,44,57,24,28,89,,,,22,12,3,2,0,0.2
2025-06-22T0200,2161A,112.8318,35.4936,晋城市,白云商贸,颗粒物(PM10),53,55,55,7,17,72,,,,24,16,3,2,0.4,0.6
2025-06-22T0200,2162A,112.8508,35.4887,晋城市,市环保局,颗粒物(PM10),54,57,61,17,26,75,,,,29,13,7,8,0.0,0.2
2025-06-22T0200,2163A,112.8676,35.4897,晋城市,技术学院,,,49,51,22,24,,,,,25,14,7,7,0.3,0.5
2025-06-22T0200,2165A,112.8453,35.546,晋城市,白马寺,,48,31,38,26,41,153,,,,6,7,6,5,0.4,0.8
2025-06-22T0200,3620A,112.8271,35.4828,晋城市,泽州一中,,36,36,45,14,26,100,,,,24,19,4,7,0.5,0.7
2025-06-22T0200,2173A,112.7249,37.7067,晋中市,南都小区,,42,42,35,16,18,105,,,,17,15,3,3,0.4,0.4
2025-06-22T0200,2174A,112.6991,37.6982,晋中市,榆次区政府,,35,34,36,14,15,110,,,,16,17,9,6,0.4,0.4
2025-06-22T0200,2865A,112.7195,37.6828,晋中市,榆次三中,,39,34,36,7,12,124,,,,10,16,12,7,0.3,0.4
2025-06-22T0200,4200A,112.7478,37.6954,晋中市,迎宾街26号,,40,36,34,12,13,128,,,,12,15,12,7,0.4,0.3
2025-06-22T0200,2439A,112.2014,31.0481,荆门市,竹园小学,,40,40,28,22,17,60,,,,7,8,5,6,0.5,0.4
2025-06-22T0200,2440A,112.1969,30.9891,荆门市,掇刀,,33,33,23,18,17,50,,,,10,6,7,7,0.8,0.6
2025-06-22T0200,2441A,112.2213,31.0386,荆门市,石化一小,,35,35,28,11,13,47,,,,14,9,17,12,0.5,0.4
2025-06-22T0200,3012A,112.1849,31.0362,荆门市,西山林语,,28,24,21,19,17,46,,,,1,2,9,9,0.4,0.4
2025-06-22T0200,3547A,112.1632,31.0138,荆门市,龙泉中学南校,,32,,15,22,16,56,,,,6,5,6,6,0.4,0.4
2025-06-22T0200,1844A,112.2494,30.3197,荆州市,市图书馆,,26,19,17,3,12,7,,,,52,22,2,2,0.5,0.5
2025-06-22T0200,1845A,112.2008,30.3544,荆州市,市委党校,,28,24,20,19,14,38,,,,18,14,6,5,0.5,0.4
2025-06-22T0200,3194A,112.2747,30.3122,荆州市,管委会,,24,24,18,16,14,17,,,,32,17,5,5,0.8,0.7
2025-06-22T0200,4268A,112.1722,30.3366,荆州市,学苑路85号,,22,20,18,15,16,18,,,,20,9,3,3,0.5,0.5
2025-06-22T0200,2342A,117.3102,29.3867,景德镇市,王港中学,,,,,,,,,,,,,,,,
2025-06-22T0200,2343A,117.2117,29.2933,景德镇市,老干部活动中心,,19,15,16,13,5,17,,,,22,11,5,7,0.6,0.5
2025-06-22T0200,2344A,117.1894,29.2789,景德镇市,兽医站,,23,23,27,11,9,14,,,,15,14,4,12,0.5,0.4
2025-06-22T0200,2345A,117.1547,29.2617,景德镇市,台达陶瓷,,29,29,23,12,13,6,,,,32,15,51,28,0.7,0.8
2025-06-22T0200,2346A,117.2461,29.2956,景德镇市,陶研所,,21,21,16,8,5,14,,,,10,5,3,3,0.4,0.3
2025-06-22T0200,1803A,115.9872,29.6815,九江市,十里,,28,6,15,3,11,87,,,,7,11,3,4,0.5,0.5
2025-06-22T0200,1804A,115.9584,29.7046,九江市,茅山头,,27,6,15,3,9,86,,,,8,12,5,4,0.4,0.4
2025-06-22T0200,1805A,115.9877,29.7295,九江市,西园,,28,6,14,3,7,89,,,,17,19,4,6,0.6,0.6
2025-06-22T0200,1808A,115.9114,29.6038,九江市,综合工业园,,26,6,13,3,5,82,,,,14,8,3,3,0.7,0.6
2025-06-22T0200,1809A,116.0721,29.7535,九江市,石化总厂,,38,,16,26,23,87,,,,5,8,5,8,0.7,0.7
2025-06-22T0200,1810A,115.9773,29.5698,九江市,庐山气象台,,17,,8,9,3,53,,,,2,3,6,6,0.7,0.8
2025-06-22T0200,3190A,116.0254,29.6994,九江市,外国语学校,,25,,13,3,9,80,,,,8,12,8,8,0.5,0.5
2025-06-22T0200,4253A,116.0102,29.6594,九江市,莲花大道8号,,25,,8,6,10,78,,,,4,6,4,4,0.5,0.5
2025-06-22T0200,4240A,98.4958,39.7339,酒泉市,玉门东路5号,,33,24,34,23,27,72,,,,15,8,9,15,0.2,0.2
2025-06-22T0200,4241A,98.5099,39.7506,酒泉市,北大街108号,,29,17,21,11,15,90,,,,6,6,10,17,0.2,0.2
2025-06-22T0200,2698A,76.0072,39.4467,喀什地区,巡警大队,颗粒物(PM10),99,147,93,29,20,99,,,,20,12,3,3,0.4,0.3
2025-06-22T0200,2699A,75.9755,39.4694,喀什地区,吾办,颗粒物(PM10),94,138,91,49,32,94,,,,19,14,4,4,0.4,0.4
2025-06-22T0200,4027A,75.9483,39.4689,喀什地区,老干局,颗粒物(PM10),110,170,100,35,19,78,,,,23,8,2,3,0.3,0.3
2025-06-22T0200,1824A,114.3389,34.7781,开封市,肿瘤医院,颗粒物(PM10),57,63,59,30,25,61,,,,23,17,2,4,0.4,0.4
2025-06-22T0200,1826A,114.2885,34.7965,开封市,世纪星幼儿园,细颗粒物(PM2.5),99,75,53,74,36,63,,,,31,19,2,5,0.8,0.7
2025-06-22T0200,3147A,114.3438,34.8106,开封市,龙亭公园,细颗粒物(PM2.5),65,58,47,47,26,70,,,,17,13,4,5,0.4,0.4
2025-06-22T0200,3210A,114.3644,34.7964,开封市,汴京公园,细颗粒物(PM2.5),73,70,55,53,30,78,,,,21,19,3,5,0.5,0.5
2025-06-22T0200,3473A,114.2485,34.8306,开封市,技师学院,细颗粒物(PM2.5),87,67,48,64,31,84,,,,22,18,5,6,0.6,0.5
2025-06-22T0200,3592A,114.4644,34.7556,开封市,祥符区生态环境局,,42,42,56,26,26,65,,,,24,26,4,7,0.6,0.7
2025-06-22T0200,1951A,84.895,45.6094,克拉玛依市,长征新村,,29,16,21,16,7,90,,,,5,2,4,4,0.2,0.2
2025-06-22T0200,1952A,84.8988,45.5893,克拉玛依市,南林小区,,23,21,20,10,10,73,,,,12,3,3,3,0.1,0.1
2025-06-22T0200,1954A,84.905,44.3396,克拉玛依市,独山子区,,30,25,27,6,10,96,,,,3,4,6,7,0.2,0.2
2025-06-22T0200,1955A,85.6979,46.098,克拉玛依市,乌尔禾区商贸楼,,27,23,26,9,4,84,,,,4,3,4,4,0.3,0.2
2025-06-22T0200,3612A,85.1045,45.6899,克拉玛依市,白碱滩区新站,,29,26,31,11,14,90,,,,7,2,3,4,0.3,0.3
2025-06-22T0200,2697A,76.1454,39.7142,克孜勒苏柯尔克孜自治州,市人民政府,颗粒物(PM10),77,103,75,37,29,115,,,,7,4,16,6,0.3,0.3
2025-06-22T0200,3665A,76.1658,39.7157,克孜勒苏柯尔克孜自治州,克州文化中心,颗粒物(PM10),86,122,77,42,31,119,,,,5,3,6,7,0.3,0.3
2025-06-22T0200,1450A,102.8204,24.8886,昆明市,呈贡新区,,20,,10,3,13,61,,,,6,10,3,4,0.3,0.4
2025-06-22T0200,1451A,102.6251,24.9608,昆明市,西山森林公园,,,,,,,,,,,,,,,,
2025-06-22T0200,1452A,102.7252,25.0902,昆明市,龙泉镇,,20,,17,3,9,64,,,,5,9,3,3,0.4,0.4
2025-06-22T0200,1453A,102.7266,25.0375,昆明市,东风东路,,22,,24,7,16,68,,,,8,16,4,4,0.3,0.4
2025-06-22T0200,1454A,102.6742,25.0669,昆明市,金鼎山,,,,15,2,8,65,,,,6,15,3,3,0.3,0.4
2025-06-22T0200,1455A,102.6644,25.0401,昆明市,碧鸡广场,,21,6,20,3,12,65,,,,8,17,5,4,0.4,0.5
2025-06-22T0200,3179A,102.7494,25.0119,昆明市,官渡区博物馆,,12,12,17,6,12,37,,,,16,19,6,6,0.4,0.5
2025-06-22T0200,3375A,102.8017,24.8336,昆明市,青年创业园,,19,6,15,3,10,60,,,,10,11,8,7,0.5,0.5
2025-06-22T0200,3550A,102.7997,24.9786,昆明市,昆明学院,,19,6,23,3,17,59,,,,16,18,4,4,0.3,0.3
2025-06-22T0200,3551A,102.5967,24.6736,昆明市,晋宁区生态环境分局,,19,13,29,3,9,59,,,,7,8,2,2,0.4,0.5
2025-06-22T0200,3552A,102.6678,24.9856,昆明市,云天化总部,,17,6,19,3,14,54,,,,15,19,3,3,0.5,0.6
2025-06-22T0200,1456A,91.1319,29.6514,拉萨市,八廓街,,34,19,18,10,9,108,,,,20,12,6,7,0.2,0.3
2025-06-22T0200,1457A,91.1221,29.6747,拉萨市,市环保局,,32,31,28,10,10,100,,,,22,17,6,6,0.3,0.4
2025-06-22T0200,1458A,91.0874,29.6475,拉萨市,区监测站,,38,21,21,6,8,120,,,,27,20,6,6,0.2,0.2
2025-06-22T0200,1459A,91.1774,29.6541,拉萨市,西藏大学,,37,18,14,12,8,118,,,,18,12,2,3,0.2,0.2
2025-06-22T0200,1460A,90.9798,29.6588,拉萨市,区辐射站,,42,16,19,11,10,132,,,,10,19,6,7,0.2,0.3
2025-06-22T0200,1461A,91.0834,29.6292,拉萨市,拉萨火车站,,45,19,13,13,7,141,,,,6,11,4,4,0.1,0.2
2025-06-22T0200,2520A,109.2203,23.7256,来宾市,来宾技工学校,,24,24,22,10,12,22,,,,15,10,10,7,0.4,0.4
2025-06-22T0200,3535A,109.1781,23.7297,来宾市,兴宾区政府,,18,16,21,12,12,10,,,,12,8,4,5,0.8,0.6
2025-06-22T0200,4002A,109.2416,23.7461,来宾市,中南小学,,27,27,27,7,10,7,,,,20,10,8,10,1.2,0.8
2025-06-22T0200,1477A,104.1373,35.9454,兰州市,榆中兰大校区,,,,,,,,,,,,,,,,
2025-06-22T0200,1479A,103.831,36.0464,兰州市,铁路设计院,,34,22,48,18,27,107,,,,11,35,11,17,0.4,0.7
2025-06-22T0200,3241A,103.7439,36.0842,兰州市,百合公园,,31,23,40,16,18,98,,,,8,23,1,6,0.4,0.5
2025-06-22T0200,3242A,103.9611,35.998,兰州市,和平,,37,19,37,9,17,116,,,,6,10,10,11,0.7,0.6
2025-06-22T0200,4236A,103.6293,36.0938,兰州市,庄浪东路808号,,36,26,42,25,27,99,,,,10,21,10,13,0.3,0.3
2025-06-22T0200,4237A,103.7251,36.1043,兰州市,安宁西路88号,,33,24,43,19,24,105,,,,5,16,7,9,0.3,0.4
2025-06-22T0200,4238A,103.8470,36.0676,兰州市,北滨河东路1号,,34,30,42,17,22,108,,,,14,34,11,14,0.5,0.8
2025-06-22T0200,3245A,103.6633,36.533,兰州新区,新区管委会,,41,37,37,23,25,130,,,,5,9,6,17,0.3,0.4
2025-06-22T0200,3246A,103.6975,36.4789,兰州新区,舟曲中学,,35,26,37,16,17,110,,,,8,12,8,23,0.4,0.4
2025-06-22T0200,1067A,116.6708,39.5111,廊坊市,药材公司,颗粒物(PM10),51,51,32,18,13,59,,,,37,20,3,4,0.3,0.3
2025-06-22T0200,1068A,116.7214,39.5589,廊坊市,开发区,颗粒物(PM10),53,56,37,17,11,86,,,,25,17,2,2,0.2,0.3
2025-06-22T0200,1070A,116.7244,39.5269,廊坊市,北华航天学院,颗粒物(PM10),60,70,48,15,11,79,,,,27,14,3,3,0.3,0.3
2025-06-22T0200,2919A,116.7022,39.5453,廊坊市,河北工业大学,颗粒物(PM10),61,71,47,19,13,77,,,,28,17,4,4,0.2,0.3
2025-06-22T0200,2535A,103.7723,29.5462,乐山市,花湖湾,,21,21,21,14,14,67,,,,11,11,5,3,0.6,0.6
2025-06-22T0200,2536A,103.7627,29.5844,乐山市,牛耳桥,,25,23,22,17,17,67,,,,14,12,7,8,0.7,0.8
2025-06-22T0200,2537A,103.7508,29.6006,乐山市,市第三水厂,,28,28,24,14,16,67,,,,17,17,5,6,0.7,0.8
2025-06-22T0200,2538A,103.7571,29.5664,乐山市,市监测站,,26,18,19,18,17,73,,,,6,6,7,7,0.5,0.6
2025-06-22T0200,3361A,103.7311,29.5628,乐山市,理工大学,,21,18,23,14,16,67,,,,11,11,8,8,0.5,0.7
2025-06-22T0200,2598A,100.2143,26.8576,丽江市,西南郊,,18,14,12,3,7,56,,,,13,13,6,6,1.2,1.2
2025-06-22T0200,2599A,100.2497,26.8802,丽江市,丽江古城,,17,16,18,3,7,52,,,,17,15,8,9,0.5,0.5
2025-06-22T0200,2600A,100.2203,26.8906,丽江市,市中心,,19,6,11,3,8,59,,,,6,9,7,7,0.7,0.6
2025-06-22T0200,1267A,119.914,28.4514,丽水市,监测站大楼,,14,13,19,6,7,1,,,,27,19,2,3,0.4,0.4
2025-06-22T0200,1268A,119.93,28.4586,丽水市,莲都小学,,12,12,20,8,7,16,,,,15,18,3,3,0.3,0.4
2025-06-22T0200,1269A,119.879,28.4231,丽水市,余庄前,,19,19,17,12,10,0,,,,11,9,3,6,0.5,0.5
2025-06-22T0200,1173A,119.176,34.5885,连云港市,市环境监测站,细颗粒物(PM2.5),52,,18,36,14,83,,,,18,13,5,4,0.6,0.5
2025-06-22T0200,3000A,119.3581,34.6972,连云港市,德源药业,,48,48,25,29,12,45,,,,16,7,8,7,0.9,0.8
2025-06-22T0200,3007A,119.178,34.844,连云港市,新城一中,,42,37,23,29,19,63,,,,19,13,6,6,0.8,0.7
2025-06-22T0200,3008A,119.3608,34.7519,连云港市,胡沟管理处,,32,27,14,22,11,90,,,,19,13,6,6,0.5,0.4
2025-06-22T0200,3009A,119.1478,34.5911,连云港市,矿山设计院,,44,44,20,29,12,67,,,,14,8,6,5,0.6,0.5
2025-06-22T0200,3434A,119.2413,34.6539,连云港市,工贸学校,颗粒物(PM10),56,61,31,30,15,87,,,,4,3,7,7,0.7,0.6
2025-06-22T0200,3664A,119.4172,34.7341,连云港市,连云街道,,31,22,28,15,16,97,,,,5,13,6,7,0.5,0.5
2025-06-22T0200,2571A,102.3431,27.8099,凉山彝族自治州,青龙寺,,15,15,9,3,2,43,,,,2,3,4,3,0.5,0.5
2025-06-22T0200,2572A,102.2721,27.8415,凉山彝族自治州,邛海宾馆,,19,16,19,7,7,60,,,,7,8,7,7,0.3,0.4
2025-06-22T0200,2573A,102.2625,27.898,凉山彝族自治州,西昌市政府,,21,13,11,11,8,65,,,,9,9,8,9,0.4,0.4
2025-06-22T0200,2574A,102.2685,27.8851,凉山彝族自治州,凉山州政府,,32,,10,22,12,62,,,,15,12,8,8,0.7,0.6
2025-06-22T0200,4229A,102.2342,27.8859,凉山彝族自治州,凯乐南路30号,,20,14,11,9,8,61,,,,18,15,7,8,0.5,0.5
2025-06-22T0200,2212A,123.2,41.1953,辽阳市,宏伟区,,41,41,33,8,5,92,,,,13,18,14,8,1.1,0.9
2025-06-22T0200,2213A,123.1683,41.2495,辽阳市,新华园,颗粒物(PM10),60,70,40,14,9,72,,,,24,22,18,8,1.4,0.8
2025-06-22T0200,2214A,123.2354,41.2639,辽阳市,滨河路,,48,48,31,17,10,72,,,,24,21,22,12,1.2,0.6
2025-06-22T0200,2215A,123.149,41.2991,辽阳市,铁西工业园,颗粒物(PM10),70,90,47,29,24,49,,,,39,28,23,10,2.0,1.1
2025-06-22T0200,2227A,125.1358,42.8845,辽源市,环保局,,16,15,16,3,3,49,,,,18,15,3,4,0.1,0.1
2025-06-22T0200,3239A,125.0764,42.9078,辽源市,银鹰制药,,22,22,14,9,6,34,,,,44,25,4,4,0.2,0.2
2025-06-22T0200,1625A,115.9848,36.4372,聊城市,区政府,,40,40,35,20,18,107,,,,19,13,9,10,0.6,0.7
2025-06-22T0200,2878A,116.0072,36.4343,聊城市,聊大东校,,41,41,37,24,24,85,,,,25,14,8,9,0.6,0.6
2025-06-22T0200,3200A,115.9819,36.4978,聊城市,监控中心,,38,38,37,17,16,94,,,,30,18,10,9,0.6,0.6
2025-06-22T0200,3513A,116.0445,36.4361,聊城市,九州社区,颗粒物(PM10),52,53,42,18,17,105,,,,19,11,7,7,0.6,0.6
2025-06-22T0200,4018A,116.0567,36.4608,聊城市,星美广场,,49,49,46,17,18,112,,,,21,16,11,10,0.6,0.6
2025-06-22T0200,2632A,94.3681,29.6376,林芝市,林芝监测站,,15,15,14,6,6,41,,,,6,7,3,4,0.3,0.3
2025-06-22T0200,2633A,94.3616,29.6616,林芝市,林芝人民医院,,15,14,12,7,5,46,,,,2,3,4,4,0.1,0.2
2025-06-22T0200,2603A,100.0781,23.8982,临沧市,市环保局,,22,19,22,15,15,10,,,,8,9,3,2,0.4,0.3
2025-06-22T0200,2604A,100.0894,23.8822,临沧市,市气象局,,23,19,22,16,14,26,,,,8,10,8,8,0.4,0.4
2025-06-22T0200,1733A,111.5531,36.0783,临汾市,临钢医院,,25,25,43,14,16,74,,,,25,17,7,8,0.8,0.8
2025-06-22T0200,1734A,111.5028,36.0714,临汾市,技工学校,,48,44,45,33,27,98,,,,18,14,11,8,0.8,0.7
2025-06-22T0200,1736A,111.5018,36.0855,临汾市,市委,,45,45,54,16,16,94,,,,23,16,10,8,0.8,1
2025-06-22T0200,3018A,111.505,36.1014,临汾市,唐尧大酒店,颗粒物(PM10),64,77,61,22,17,70,,,,28,13,8,7,0.7,0.7
2025-06-22T0200,4244A,111.4879,36.0530,临汾市,启星学校,,49,35,36,34,29,96,,,,18,13,4,5,1.0,0.8
2025-06-22T0200,4271A,103.2464,35.6123,临夏回族自治州,滨河东路1号,,22,13,38,8,15,68,,,,5,7,8,9,0.2,0.3
2025-06-22T0200,4310A,103.2093,35.5995,临夏回族自治州,新华街21号,,25,,36,11,19,79,,,,6,11,5,5,0.2,0.4
2025-06-22T0200,1618A,118.3429,35.0532,临沂市,沂河小区,细颗粒物(PM2.5),68,58,46,49,34,71,,,,24,20,7,8,0.6,0.5
2025-06-22T0200,1619A,118.295,35.0583,临沂市,鲁南制药厂,颗粒物(PM10),64,78,49,45,28,61,,,,31,20,8,9,0.7,0.6
2025-06-22T0200,1620A,118.2794,34.9976,临沂市,新光毛纺厂,细颗粒物(PM2.5),54,48,45,38,27,65,,,,24,18,9,10,0.6,0.6
2025-06-22T0200,1621A,118.3956,35.0888,临沂市,河东保险公司,,46,46,38,31,22,87,,,,17,17,5,6,0.6,0.6
2025-06-22T0200,3370A,118.3564,35.0215,临沂市,十里堡居委,细颗粒物(PM2.5),73,,40,53,31,80,,,,23,21,9,9,0.6,0.7
2025-06-22T0200,3496A,118.3604,35.1084,临沂市,南坊新区,颗粒物(PM10),57,63,46,39,25,80,,,,22,20,11,8,0.8,0.7
2025-06-22T0200,3860A,118.3920,35.0300,临沂市,皇山花园小区,细颗粒物(PM2.5),60,48,44,43,32,76,,,,20,19,10,10,0.6,0.6
2025-06-22T0200,1870A,109.4856,24.3895,柳州市,柳东小学,,24,24,17,6,8,12,,,,16,8,17,11,0.5,0.4
2025-06-22T0200,1871A,109.4157,24.3277,柳州市,环保监测站,,40,40,19,10,10,3,,,,24,10,8,6,1.0,0.8
2025-06-22T0200,1872A,109.389,24.341,柳州市,河西水厂,,46,40,21,32,13,0,,,,29,15,6,5,0.7,0.5
2025-06-22T0200,1873A,109.4311,24.2921,柳州市,市四中,,41,41,20,10,11,2,,,,26,14,8,7,0.5,0.4
2025-06-22T0200,1874A,109.4006,24.3631,柳州市,市九中,,39,39,27,9,11,4,,,,24,13,12,10,0.7,0.5
2025-06-22T0200,1875A,109.4958,24.3134,柳州市,古亭山,,28,28,18,6,9,0,,,,16,8,5,5,0.5,0.5
2025-06-22T0200,3402A,109.5422,24.3996,柳州市,市二中,,24,24,18,10,8,5,,,,23,11,17,17,0.4,0.4
2025-06-22T0200,2307A,116.5079,31.737,六安市,监测大楼,,,,6,,8,,,82,,,2,,3,,0.3
2025-06-22T0200,2308A,116.4738,31.7643,六安市,皖西学院,,30,,6,3,8,95,,,,2,2,4,4,0.2,0.2
2025-06-22T0200,2309A,116.4996,31.7905,六安市,朝阳厂,,27,,5,7,8,84,,,,7,7,5,7,0.2,0.3
2025-06-22T0200,2310A,116.5567,31.7886,六安市,开发区,,24,15,8,7,8,74,,,,2,3,2,2,0.2,0.3
2025-06-22T0200,2576A,104.8,26.5892,六盘水市,窑上,,28,28,28,7,6,30,,,,4,5,3,3,0.2,0.3
2025-06-22T0200,2577A,104.83,26.5917,六盘水市,黄土坡,,21,,15,9,11,65,,,,9,8,8,10,0.5,0.5
2025-06-22T0200,2578A,104.89,26.5939,六盘水市,水钢,,22,17,21,3,9,70,,,,10,12,12,10,0.5,0.6
2025-06-22T0200,2579A,104.8475,26.5894,六盘水市,民中,,23,13,16,9,7,71,,,,8,12,7,9,0.3,0.4
2025-06-22T0200,2580A,104.9544,26.5506,六盘水市,双水,,26,6,13,3,8,81,,,,6,16,9,9,0.3,0.4
2025-06-22T0200,2335A,117.0189,25.1181,龙岩市,龙岩师专,,,,,,,,,,,,,,,,
2025-06-22T0200,2336A,117.0217,25.1033,龙岩市,龙岩市监测站,,20,,10,14,7,14,,,,12,7,6,4,0.4,0.3
2025-06-22T0200,2337A,117.0258,25.0661,龙岩市,闽西职业技术学院,,31,31,15,13,7,4,,,,18,7,42,9,0.5,0.4
2025-06-22T0200,2338A,117.0196,25.0306,龙岩市,龙岩学院,,9,9,14,3,7,15,,,,6,4,5,4,0.4,0.3
2025-06-22T0200,2665A,105.0822,33.3261,陇南市,汉王镇固水子,,,,,,,,,,,,,,,,
2025-06-22T0200,2885A,104.9339,33.3826,陇南市,滨江中学,,38,38,38,23,18,110,,,,2,6,4,4,0.6,0.7
2025-06-22T0200,3247A,104.955,33.371,陇南市,市总工会,,40,40,45,8,14,115,,,,2,6,6,6,0.6,0.6
2025-06-22T0200,2487A,111.9589,27.8901,娄底市,电视发射台,,,9,27,,6,58,,,,3,4,6,5,0.4,0.4
2025-06-22T0200,2488A,111.9975,27.725,娄底市,市监测站,,,4,16,,11,82,,,,7,11,6,8,0.5,0.6
2025-06-22T0200,2489A,112.0194,27.7314,娄底市,市委党校,,30,6,16,3,9,94,,,,6,8,2,4,0.4,0.5
2025-06-22T0200,2490A,111.9561,27.7569,娄底市,涟钢,,,,22,2,12,64,,,,14,14,2,5,0.7,0.6
2025-06-22T0200,2491A,111.9892,27.7044,娄底市,市政府,,31,,15,9,10,99,,,,5,6,5,5,0.4,0.4
2025-06-22T0200,1893A,105.4324,28.9634,泸州市,九狮山,,33,31,31,23,28,30,,,,23,20,5,5,0.3,0.3
2025-06-22T0200,1894A,105.4427,28.9063,泸州市,小市上码头,,24,24,27,16,13,35,,,,9,8,13,13,0.6,0.6
2025-06-22T0200,1895A,105.4241,28.8573,泸州市,兰田宪桥,,23,21,16,16,14,27,,,,14,11,8,8,0.6,0.6
2025-06-22T0200,1896A,105.4379,28.8833,泸州市,市环监站,,30,30,24,17,14,92,,,,24,15,8,8,0.3,0.1
2025-06-22T0200,4272A,105.3689,28.7783,泸州市,纳溪中医医院,,26,22,23,18,20,28,,,,24,14,4,4,0.9,0.9
2025-06-22T0200,2183A,111.1406,37.5211,吕梁市,环保局,颗粒物(PM10),62,73,40,27,16,68,,,,40,17,4,4,0.5,0.4
2025-06-22T0200,2185A,111.1297,37.5136,吕梁市,自来水公司,颗粒物(PM10),66,82,41,20,14,56,,,,31,17,7,6,0.4,0.4
2025-06-22T0200,2867A,111.1283,37.51,吕梁市,马茂庄小学,颗粒物(PM10),66,82,43,21,19,32,,,,71,26,5,5,0.5,0.4
2025-06-22T0200,1812A,112.3931,34.6516,洛阳市,市委党校,,44,44,36,30,25,135,,,,14,11,14,9,0.6,0.6
2025-06-22T0200,1815A,112.494,34.6886,洛阳市,河南林校,,47,43,38,28,23,149,,,,10,12,6,5,0.4,0.4
2025-06-22T0200,1816A,112.3844,34.623,洛阳市,开发区管委会,,44,44,31,28,22,124,,,,15,10,15,12,0.6,0.6
2025-06-22T0200,1817A,112.4267,34.6258,洛阳市,市委新办公区,,48,48,33,29,26,124,,,,13,8,14,11,0.4,0.4
2025-06-22T0200,3340A,112.6005,34.6326,洛阳市,伊滨,颗粒物(PM10),62,73,44,29,22,64,,,,36,12,8,4,0.5,0.5
2025-06-22T0200,3341A,112.4951,34.6332,洛阳市,中移产业园,,40,39,33,24,24,128,,,,16,9,7,8,0.7,0.7
2025-06-22T0200,3593A,112.5736,34.8993,洛阳市,吉利监测站,颗粒物(PM10),51,52,40,23,20,68,,,,27,13,6,7,0.4,0.4
2025-06-22T0200,3635A,112.3677,34.662,洛阳市,河科大西苑校区,,47,47,34,20,14,139,,,,12,11,14,11,0.5,0.5
2025-06-22T0200,3636A,112.4388,34.6781,洛阳市,英才小学,,45,43,40,27,23,141,,,,11,10,15,9,0.8,0.8
2025-06-22T0200,4214A,112.4600,34.6949,洛阳市,春都路1号院,,46,41,34,20,21,147,,,,7,6,9,4,0.7,0.6
2025-06-22T0200,2399A,114.051,33.5699,漯河市,三五一五工厂,,25,12,33,12,30,77,,,,16,13,4,5,0.5,0.6
2025-06-22T0200,2400A,114.0055,33.5698,漯河市,漯河大学,,26,11,40,7,23,81,,,,14,14,4,4,0.3,0.5
2025-06-22T0200,2401A,114.0138,33.5828,漯河市,市水利局,,26,14,43,7,23,83,,,,10,10,4,5,0.4,0.7
2025-06-22T0200,2402A,114.0261,33.5698,漯河市,市广电局,,25,,36,10,27,79,,,,11,10,2,2,0.4,0.6
2025-06-22T0200,3478A,113.9749,33.5664,漯河市,市图书馆,,22,9,38,7,26,70,,,,16,14,6,4,0.2,0.4
2025-06-22T0200,4250A,114.0892,33.5882,漯河市,韶山路11号,颗粒物(PM10),53,56,50,10,26,88,,,,9,14,2,4,0.4,0.6
2025-06-22T0200,1798A,118.5092,31.6837,马鞍山市,湖东路四小,,30,,11,14,12,94,,,,1,9,6,7,0.5,0.6
2025-06-22T0200,1799A,118.5024,31.6449,马鞍山市,开发区,,30,10,13,7,7,93,,,,4,11,5,6,0.6,0.8
2025-06-22T0200,1802A,118.6245,31.7241,马鞍山市,濮塘,,28,9,11,3,7,87,,,,6,9,7,7,0.7,0.7
2025-06-22T0200,3633A,118.4918,31.6809,马鞍山市,雨山,,30,,12,12,11,94,,,,4,13,6,9,0.4,0.7
2025-06-22T0200,4191A,118.5274,31.72227,马鞍山市,慈湖高新区,,25,24,16,15,9,80,,,,7,13,5,5,0.4,0.5
2025-06-22T0200,1686A,111.0286,21.4688,茂名市,电白南海,,12,12,17,3,9,37,,,,2,4,2,2,0.3,0.3
2025-06-22T0200,1687A,110.9294,21.6533,茂名市,茂石化七小,,17,17,18,3,5,29,,,,4,5,4,3,0.2,0.2
2025-06-22T0200,1688A,110.9107,21.6687,茂名市,健康路,,12,12,15,3,5,32,,,,6,7,4,3,0.3,0.4
2025-06-22T0200,1689A,110.8592,21.6828,茂名市,高岭,,,12,21,3,2,28,,,,,9,4,4,0.2,0.3
2025-06-22T0200,3450A,111.01,21.5165,茂名市,电白水东,,11,9,15,3,4,35,,,,3,5,4,4,0.3,0.3
2025-06-22T0200,2539A,104.0308,30.0478,眉山市,黑龙滩水库,,32,,12,11,14,102,,,,1,5,1,2,0.5,0.5
2025-06-22T0200,2540A,103.8416,30.0874,眉山市,气象局,,32,18,27,9,12,102,,,,9,18,3,3,0.4,0.4
2025-06-22T0200,3137A,103.8578,30.0744,眉山市,市委党校,,32,7,22,3,10,100,,,,9,17,4,6,0.6,0.6
2025-06-22T0200,3148A,103.8291,30.0564,眉山市,区人社局,,31,23,38,3,7,97,,,,11,18,6,10,0.6,0.7
2025-06-22T0200,1690A,116.1231,24.3284,梅州市,梅江月梅,,39,39,22,3,9,1,,,,10,8,6,7,0.5,0.5
2025-06-22T0200,1691A,116.0797,24.2719,梅州市,梅县新城,,18,18,14,3,5,4,,,,7,6,5,6,0.5,0.5
2025-06-22T0200,1692A,116.1248,24.2654,梅州市,环境监控中心,,31,31,18,3,7,0,,,,12,12,3,7,0.5,0.6
2025-06-22T0200,3315A,116.1233,24.2991,梅州市,梅龙,,17,17,14,6,6,1,,,,11,7,6,10,0.4,0.4
2025-06-22T0200,1878A,104.7778,31.4741,绵阳市,富乐山,,28,24,35,14,20,87,,,,9,17,8,9,0.5,0.5
2025-06-22T0200,1880A,104.6697,31.4668,绵阳市,高新区自来水公司,,30,30,41,14,13,84,,,,6,22,7,8,0.5,0.6
2025-06-22T0200,1881A,104.7287,31.5075,绵阳市,三水厂,,31,31,41,16,22,94,,,,7,23,9,10,0.6,0.7
2025-06-22T0200,3491A,104.69,31.5322,绵阳市,西科大附属小学,,30,30,44,18,21,95,,,,9,24,8,9,0.2,0.3
2025-06-22T0200,3492A,104.5648,31.5343,绵阳市,安州区旅游局,,26,23,29,12,13,82,,,,13,18,7,6,0.2,0.3
2025-06-22T0200,4226A,104.7651,31.4531,绵阳市,绵阳市气象局,,31,31,33,14,18,88,,,,7,18,7,10,0.4,0.4
2025-06-22T0200,1784A,129.61,44.561,牡丹江市,环保大楼,,22,,21,15,13,64,,,,16,10,8,8,0.2,0.2
2025-06-22T0200,1785A,129.6115,44.5782,牡丹江市,文化广场,,30,,18,21,14,61,,,,18,13,6,6,0.3,0.3
2025-06-22T0200,1786A,129.5904,44.5963,牡丹江市,第一医院,,21,12,15,6,9,65,,,,13,11,6,6,0.4,0.4
2025-06-22T0200,1787A,129.6364,44.6075,牡丹江市,机车工厂,,24,24,16,3,7,51,,,,22,13,5,6,0.3,0.3
2025-06-22T0200,1788A,129.6386,44.5462,牡丹江市,第一中学,,23,,15,16,11,57,,,,25,9,5,5,0.3,0.3
2025-06-22T0200,2531A,105.0703,29.61,内江市,市监测站,,22,16,23,15,14,66,,,,13,11,7,7,0.6,0.6
2025-06-22T0200,2532A,105.0717,29.5947,内江市,东兴区政府,,23,,20,16,9,61,,,,15,13,1,2,0.4,0.5
2025-06-22T0200,2533A,105.0653,29.5817,内江市,内江二中,,32,23,20,22,17,52,,,,20,13,6,6,0.5,0.5
2025-06-22T0200,2534A,105.0406,29.5822,内江市,内江日报社,,28,26,22,19,15,63,,,,19,10,8,9,0.4,0.3
2025-06-22T0200,2628A,92.0657,31.4846,那曲市,那曲监测站,,48,48,45,20,19,69,,,,23,18,8,10,0.4,0.3
2025-06-22T0200,4243A,92.0515,31.4787,那曲市,那曲市委宣传部,,47,47,30,18,14,74,,,,23,13,9,10,0.4,0.3
2025-06-22T0200,1290A,115.8931,28.6843,南昌市,省外办,,27,7,15,3,9,84,,,,11,13,3,4,0.6,0.5
2025-06-22T0200,1291A,115.8886,28.7003,南昌市,省林业公司,,21,,12,3,8,67,,,,15,11,8,12,0.6,0.5
2025-06-22T0200,1292A,115.8126,28.7442,南昌市,林科所,,20,6,12,3,4,64,,,,1,8,4,6,0.2,0.3
2025-06-22T0200,1294A,115.8518,28.687,南昌市,建工学校,,23,,15,8,15,73,,,,5,8,6,9,0.4,0.3
2025-06-22T0200,1295A,115.8921,28.6424,南昌市,象湖,,,6,12,,5,70,,,,9,9,6,8,0.7,0.5
2025-06-22T0200,1296A,115.7423,28.7996,南昌市,武术学校,,23,23,16,9,10,51,,,,4,5,8,10,0.3,0.3
2025-06-22T0200,3046A,115.9084,28.6062,南昌市,机电学校,,21,8,18,3,6,66,,,,11,10,4,6,0.5,0.4
2025-06-22T0200,3690A,115.9721,28.7031,南昌市,外国语学校,,25,6,16,3,6,77,,,,8,8,10,11,0.6,0.5
2025-06-22T0200,4192A,115.9316,28.68677,南昌市,南京东路235号,,24,13,22,3,4,74,,,,10,12,8,10,0.6,0.5
2025-06-22T0200,1905A,106.056,30.8064,南充市,西山风景区,,,,,,,,,,,,,,,,
2025-06-22T0200,1906A,106.0789,30.8023,南充市,南充市委,,27,6,14,3,8,86,,,,6,8,4,4,0.3,0.3
2025-06-22T0200,1907A,106.1031,30.8217,南充市,南充炼油厂,,22,,15,15,10,70,,,,6,7,5,5,0.2,0.2
2025-06-22T0200,4227A,106.1083,30.7884,南充市,梨树横街98号,,23,8,15,3,9,73,,,,12,7,3,3,0.3,0.3
2025-06-22T0200,4304A,106.1172,30.843,南充市,清泉寺北路188号,,20,18,20,3,8,62,,,,5,8,2,3,0.3,0.2
2025-06-22T0200,4305A,106.067,30.7616,南充市,同庆路1号,,25,10,15,7,10,79,,,,6,7,3,3,0.1,0.2
2025-06-22T0200,1151A,118.8086,32.1065,南京市,迈皋桥,,17,17,6,9,4,38,,,,6,7,4,5,0.4,0.4
2025-06-22T0200,1152A,118.7538,32.0551,南京市,草场门,,20,14,8,7,6,63,,,,12,13,2,2,0.3,0.4
2025-06-22T0200,1153A,118.7794,32.0745,南京市,山西路,,23,14,9,3,2,72,,,,10,15,4,4,0.2,0.2
2025-06-22T0200,1154A,118.7752,32.0023,南京市,中华门,,18,12,7,3,3,55,,,,7,12,7,7,0.5,0.6
2025-06-22T0200,1155A,118.8109,32.0309,南京市,瑞金路,,18,,5,12,5,55,,,,5,8,7,6,0.5,0.5
2025-06-22T0200,1156A,118.7997,32.0754,南京市,玄武湖,,,,12,,2,,,47,,,9,,4,,0.3
2025-06-22T0200,1157A,118.6414,32.0931,南京市,浦口,,20,20,14,10,4,37,,,,18,13,3,4,0.2,0.2
2025-06-22T0200,1158A,118.7356,31.9996,南京市,奥体中心,,23,11,10,7,6,71,,,,11,23,4,4,0.2,0.3
2025-06-22T0200,1159A,118.9125,32.1028,南京市,仙林大学城,,22,22,11,3,2,69,,,,5,10,6,6,0.5,0.5
2025-06-22T0200,3422A,118.8436,31.9198,南京市,江宁彩虹桥,,23,23,11,7,5,69,,,,10,11,3,4,0.6,0.5
2025-06-22T0200,3427A,118.8554,32.3578,南京市,六合雄州,,25,25,14,14,8,63,,,,17,16,4,6,0.5,0.6
2025-06-22T0200,4249A,118.8708,31.3402,南京市,汶溪路181号,,29,,9,3,6,91,,,,12,13,3,4,0.4,0.4
2025-06-22T0200,4312A,119.019,31.6512,南京市,中山西路1号,,25,6,6,3,6,80,,,,5,6,4,4,0.5,0.5
2025-06-22T0200,1401A,108.3103,22.7881,南宁市,二十一中,,22,22,23,8,10,54,,,,8,9,3,2,0.5,0.5
2025-06-22T0200,1402A,108.3141,22.8528,南宁市,北湖,,34,34,26,13,12,54,,,,7,8,3,4,0.4,0.5
2025-06-22T0200,1403A,108.3206,22.8225,南宁市,市监测站,,28,28,23,10,15,53,,,,6,7,5,5,0.5,0.5
2025-06-22T0200,1404A,108.3829,22.8037,南宁市,大自然花园,,22,22,25,12,15,58,,,,6,5,4,4,0.4,0.5
2025-06-22T0200,1405A,108.4394,22.7904,南宁市,仙葫,,26,26,21,15,12,62,,,,4,4,6,6,0.5,0.5
2025-06-22T0200,1406A,108.2397,22.8467,南宁市,区农职院,,25,25,24,16,13,51,,,,10,10,4,4,0.5,0.5
2025-06-22T0200,1407A,108.3275,22.735,南宁市,英华嘉园,,24,24,24,11,11,54,,,,10,10,7,7,0.4,0.5
2025-06-22T0200,3401A,108.4834,22.7618,南宁市,红星社区,,30,30,23,14,16,52,,,,6,5,2,2,0.5,0.5
2025-06-22T0200,4221A,108.2177,22.7774,南宁市,乐贤路16号,,26,26,26,9,13,32,,,,23,12,6,6,0.6,0.6
2025-06-22T0200,2331A,118.0966,26.6761,南平市,茫荡山,,,,,,,,,,,,,,,,
2025-06-22T0200,2332A,118.1681,26.6369,南平市,南平市监测站,,10,10,14,3,5,6,,,,15,8,4,5,0.5,0.5
2025-06-22T0200,2333A,118.1825,26.6489,南平市,南平铝业有限公司,,20,20,15,3,3,18,,,,7,7,6,5,0.6,0.6
2025-06-22T0200,2334A,118.1756,26.6272,南平市,南平七中,,17,17,15,3,6,6,,,,12,6,4,5,0.4,0.4
2025-06-22T0200,1168A,120.9098,31.9663,南通市,狼山街道,,32,6,15,3,8,102,,,,7,16,3,4,0.6,0.7
2025-06-22T0200,1169A,120.86,32.0005,南通市,虹桥,,32,,16,8,12,101,,,,11,26,1,3,0.5,0.6
2025-06-22T0200,1170A,120.87,32.02,南通市,城中,,33,9,18,3,7,104,,,,6,20,3,4,0.6,0.7
2025-06-22T0200,1171A,120.94,31.93,南通市,星湖花园,,34,,14,7,10,108,,,,6,25,2,3,0.3,0.3
2025-06-22T0200,1172A,120.81,32.0417,南通市,紫琅学院,,33,6,17,3,7,104,,,,6,22,4,5,0.3,0.4
2025-06-22T0200,3291A,121.067,32.062,南通市,通州监测站,,36,6,13,3,7,114,,,,2,13,5,7,0.5,0.6
2025-06-22T0200,3432A,120.9348,31.9883,南通市,环境教育馆,,31,12,20,3,8,98,,,,6,20,2,3,0.0,0.1
2025-06-22T0200,2404A,112.5224,33.0122,南阳市,瓦房庄,,33,33,41,16,23,63,,,,15,13,6,6,0.5,0.5
2025-06-22T0200,2405A,112.5003,32.9735,南阳市,汉画馆,,36,35,38,25,24,37,,,,28,14,6,6,0.6,0.6
2025-06-22T0200,2406A,112.5573,33.027,南阳市,气象站,,31,31,39,9,22,65,,,,8,8,6,6,0.4,0.5
2025-06-22T0200,2407A,112.5481,32.9689,南阳市,理工学院,,32,32,39,17,26,61,,,,12,12,5,5,0.4,0.4
2025-06-22T0200,4008A,112.5234,32.9922,南阳市,卧龙区政府,,33,29,51,23,25,56,,,,18,12,4,5,0.5,0.5
2025-06-22T0200,1234A,121.8358,29.911,宁波市,区环保大楼,,,27,36,14,12,47,,,,29,21,,4,0.5,0.6
2025-06-22T0200,1235A,121.56,29.82,宁波市,万里学院,,,23,23,16,15,,,,,11,10,2,2,0.6,0.6
2025-06-22T0200,1236A,121.713,29.9572,宁波市,龙赛医院,,23,21,28,6,11,72,,,,16,14,3,6,0.4,0.4
2025-06-22T0200,1239A,121.633,29.7733,宁波市,钱湖水厂,,33,33,26,21,15,56,,,,12,6,4,4,0.4,0.3
2025-06-22T0200,1240A,121.5856,29.8635,宁波市,太古小学,,23,23,26,9,11,72,,,,8,8,3,4,0.6,0.6
2025-06-22T0200,1241A,121.524,29.8674,宁波市,市环境监测中心,,19,17,22,9,11,58,,,,16,13,5,4,0.6,0.6
2025-06-22T0200,2871A,121.6147,29.9017,宁波市,万里国际学校,,24,19,19,6,11,75,,,,12,10,4,4,0.5,0.5
2025-06-22T0200,3710A,121.5594,29.8975,宁波市,白沙活动中心,,23,18,18,9,10,73,,,,10,8,5,4,0.3,0.4
2025-06-22T0200,2339A,119.5001,26.6946,宁德市,金涵水库,,,,,,,,,,,,,,,,
2025-06-22T0200,2341A,119.5388,26.6612,宁德市,宁德市监测站,,26,26,25,14,13,30,,,,18,14,5,5,0.6,0.7
2025-06-22T0200,3209A,119.5231,26.6562,宁德市,宁德一中,,29,29,23,19,8,38,,,,12,8,5,5,0.5,0.5
2025-06-22T0200,2618A,98.8601,25.8567,怒江傈僳族自治州,州监测站,,23,23,24,13,15,23,,,,9,8,7,7,0.4,0.4
2025-06-22T0200,2619A,98.8546,25.8417,怒江傈僳族自治州,泸水一中,,15,15,19,8,12,10,,,,10,11,5,5,0.4,0.4
2025-06-22T0200,1888A,101.6891,26.571,攀枝花市,弄弄坪,,24,9,20,3,6,74,,,,6,13,5,5,0.6,0.7
2025-06-22T0200,1889A,101.5769,26.5928,攀枝花市,河门口,,18,17,13,12,11,38,,,,23,19,4,7,1.1,1.1
2025-06-22T0200,1890A,101.7169,26.585,攀枝花市,炳草岗,,19,11,16,3,5,59,,,,13,21,6,7,0.8,0.9
2025-06-22T0200,1891A,101.7369,26.5008,攀枝花市,仁和,,20,6,7,3,4,61,,,,5,9,6,7,0.5,0.6
2025-06-22T0200,2835A,101.7227,26.567,攀枝花市,四十中小,,25,12,12,7,7,80,,,,4,10,6,7,0.8,0.8
2025-06-22T0200,1604A,122.0303,41.1489,盘锦市,开发区,,26,13,21,10,10,81,,,,22,25,4,8,0.5,0.4
2025-06-22T0200,1605A,122.0485,41.0883,盘锦市,兴隆台,,27,13,23,6,9,84,,,,22,26,3,8,0.3,0.3
2025-06-22T0200,1606A,121.8297,41.1028,盘锦市,新生街道,,19,,17,13,8,57,,,,24,22,8,12,0.5,0.5
2025-06-22T0200,1832A,113.3257,33.742,平顶山市,新华旅馆,颗粒物(PM10),51,52,40,28,24,26,,,,34,16,4,5,0.6,0.5
2025-06-22T0200,1833A,113.2919,33.737,平顶山市,规划设计院,颗粒物(PM10),55,59,45,29,28,55,,,,21,17,5,7,0.6,0.5
2025-06-22T0200,1834A,113.182,33.774,平顶山市,平顶山工学院,颗粒物(PM10),59,67,54,39,28,74,,,,18,14,2,5,0.6,0.6
2025-06-22T0200,3204A,113.3025,33.73,平顶山市,规划局,,44,44,41,15,22,49,,,,19,12,4,5,0.6,0.5
2025-06-22T0200,3594A,112.8867,33.9116,平顶山市,石龙区,颗粒物(PM10),64,78,52,32,29,42,,,,80,28,8,9,0.6,0.6
2025-06-22T0200,2656A,106.6692,35.5461,平凉市,聚贤嘉苑,颗粒物(PM10),59,67,40,18,15,48,,,,56,19,4,11,0.8,0.7
2025-06-22T0200,2657A,106.7021,35.5307,平凉市,博物馆,颗粒物(PM10),59,68,46,23,17,33,,,,70,22,12,8,1.3,0.8
2025-06-22T0200,2347A,114.0997,27.5002,萍乡市,武功山,,8,,3,3,4,18,,,,6,4,13,14,0.2,0.2
2025-06-22T0200,2348A,113.8385,27.6434,萍乡市,中医院,,16,14,24,11,12,28,,,,10,8,11,11,0.8,0.7
2025-06-22T0200,2349A,113.8493,27.6253,萍乡市,市政府车库,,13,9,17,9,13,28,,,,8,9,6,6,0.3,0.4
2025-06-22T0200,2350A,113.8676,27.6435,萍乡市,市环保局,,19,19,25,3,18,31,,,,5,8,7,8,0.6,0.7
2025-06-22T0200,2351A,113.866,27.6198,萍乡市,安源区政府,,11,11,28,3,9,26,,,,8,8,8,9,0.4,0.7
2025-06-22T0200,2319A,119.0141,25.4325,莆田市,荔城区仓后路,,21,21,23,9,7,21,,,,14,10,4,4,0.5,0.4
2025-06-22T0200,2320A,119.0015,25.4553,莆田市,莆田市监测站,,21,21,22,8,8,19,,,,16,9,4,4,0.4,0.3
2025-06-22T0200,2321A,119.1119,25.4561,莆田市,涵江区六中,,26,26,22,12,7,24,,,,16,12,2,2,0.6,0.4
2025-06-22T0200,2322A,119.1013,25.3215,莆田市,秀屿区政府,,13,13,20,9,6,32,,,,14,9,8,5,0.4,0.4
2025-06-22T0200,2323A,118.981,25.4792,莆田市,东圳水库,,,,,,,,,,,,,,,,
2025-06-22T0200,2392A,115.0312,35.7636,濮阳市,环保局,,47,47,35,27,22,135,,,,14,12,6,6,0.5,0.3
2025-06-22T0200,2394A,115.0574,35.7609,濮阳市,油田运输公司,,49,49,43,20,21,98,,,,20,14,6,6,0.6,0.6
2025-06-22T0200,3021A,115,35.7668,濮阳市,濮水河管理处,,40,40,35,26,24,94,,,,25,19,4,4,0.5,0.4
2025-06-22T0200,4216A,115.0924,35.7686,濮阳市,任丘路479号,颗粒物(PM10),52,53,49,21,26,107,,,,13,12,7,7,0.8,0.7
2025-06-22T0200,2601A,100.98,22.7633,普洱市,市环保局,,29,,31,20,13,32,,,,2,6,4,4,0.5,0.6
2025-06-22T0200,2602A,100.9817,22.8322,普洱市,普洱第二中学,,42,,31,29,18,29,,,,4,9,6,6,0.5,0.6
2025-06-22T0200,2262A,131.0518,45.8751,七台河市,新一中,,33,,11,9,8,103,,,,4,7,9,10,0.8,0.8
2025-06-22T0200,3345A,131.0577,45.7879,七台河市,中波台,,20,9,7,9,8,64,,,,8,10,6,6,0.3,0.3
2025-06-22T0200,3637A,131.0176,45.7761,七台河市,人民广场,,22,13,13,9,10,68,,,,9,10,11,11,0.4,0.4
2025-06-22T0200,3684A,130.8781,45.8222,七台河市,新建矿广场,,,,11,13,13,79,,,,6,11,9,10,0.2,0.5
2025-06-22T0200,1779A,123.9305,47.3636,齐齐哈尔市,安居小区,,22,22,16,9,8,30,,,,21,11,6,6,0.4,0.4
2025-06-22T0200,1780A,123.9488,47.3386,齐齐哈尔市,中心广场,,45,45,24,9,5,25,,,,29,12,7,6,0.7,0.5
2025-06-22T0200,1781A,123.9483,47.3227,齐齐哈尔市,农牧车辆厂,,29,29,20,8,5,24,,,,22,8,6,6,0.5,0.1
2025-06-22T0200,1783A,123.945,47.2988,齐齐哈尔市,市环境监测站,,13,13,13,7,4,32,,,,11,7,4,4,0.2,0.2
2025-06-22T0200,3662A,123.6333,47.2075,齐齐哈尔市,富区青少年活动中心,,21,21,23,12,9,30,,,,19,11,4,3,0.4,0.5
2025-06-22T0200,2591A,107.9783,26.5747,黔东南苗族侗族自治州,市环境监测站,,17,14,10,10,8,53,,,,3,11,2,2,0.5,0.6
2025-06-22T0200,2881A,107.8908,26.5311,黔东南苗族侗族自治州,凯里学院,,15,12,8,10,7,33,,,,7,10,1,2,0.5,0.5
2025-06-22T0200,2593A,107.5228,26.2403,黔南布依族苗族自治州,小围寨,,22,22,6,7,2,16,,,,9,5,1,2,0.5,0.4
2025-06-22T0200,3538A,107.5175,26.2978,黔南布依族苗族自治州,沙坝,,27,27,14,12,4,6,,,,11,8,5,4,0.7,0.7
2025-06-22T0200,2589A,104.9022,25.0925,黔西南布依族苗族自治州,场坝街,,25,25,24,3,12,67,,,,8,8,4,3,0.4,0.4
2025-06-22T0200,2590A,104.8811,25.0992,黔西南布依族苗族自治州,坪东大道,,28,28,26,16,18,52,,,,13,10,1,2,0.2,0.3
2025-06-22T0200,2502A,108.6236,21.9667,钦州市,市环保站,,31,31,24,19,10,37,,,,14,11,2,3,0.4,0.4
2025-06-22T0200,2503A,108.6549,21.9481,钦州市,沙埠小学,,46,46,32,17,15,23,,,,23,15,1,3,0.4,0.4
2025-06-22T0200,2504A,108.5989,21.7431,钦州市,港区一小,,45,45,37,14,14,44,,,,18,13,4,3,0.5,0.4
2025-06-22T0200,3404A,108.5959,21.9633,钦州市,北职校,,36,36,28,17,15,38,,,,14,10,2,2,0.4,0.3
2025-06-22T0200,1043A,119.7493,40.0116,秦皇岛市,第一关,,40,40,30,11,11,18,,,,67,29,6,5,0.4,0.3
2025-06-22T0200,1044A,119.5897,39.9499,秦皇岛市,监测站,颗粒物(PM10),55,60,38,15,10,48,,,,55,32,15,5,1.1,0.4
2025-06-22T0200,1046A,119.5251,39.9041,秦皇岛市,建设大厦,颗粒物(PM10),53,56,36,19,9,81,,,,28,27,20,6,1.3,0.4
2025-06-22T0200,3132A,119.610547,39.943889,秦皇岛市,文明里,颗粒物(PM10),59,67,37,12,11,71,,,,39,29,16,6,1.0,0.3
2025-06-22T0200,4198A,119.5090,39.8253,秦皇岛市,北戴河轮滑馆,,44,44,36,18,14,70,,,,26,16,8,4,0.6,0.4
2025-06-22T0200,1307A,120.6659,36.2403,青岛市,仰口,,42,38,35,21,19,133,,,,9,10,9,7,0.9,0.9
2025-06-22T0200,1310A,120.4134,36.0658,青岛市,市南区东部子站,,35,31,40,24,26,95,,,,4,22,9,10,0.5,0.4
2025-06-22T0200,1311A,120.3664,36.1032,青岛市,四方区子站,,48,48,45,29,29,98,,,,18,22,7,8,0.7,0.6
2025-06-22T0200,1312A,120.2994,36.054,青岛市,市南区西部子站,,41,41,46,27,28,101,,,,11,27,8,8,0.8,0.7
2025-06-22T0200,1313A,120.4581,36.0858,青岛市,崂山区子站,,31,31,41,19,26,77,,,,12,26,7,8,0.3,0.3
2025-06-22T0200,1315A,120.3999,36.3083,青岛市,城阳区子站,,41,41,42,22,21,103,,,,22,21,9,7,0.6,0.4
2025-06-22T0200,1966A,120.0405,35.8735,青岛市,黄岛区4号,细颗粒物(PM2.5),62,70,44,44,28,90,,,,23,23,11,10,1.1,0.8
2025-06-22T0200,3362A,120.5014,36.4034,青岛市,即墨2号,细颗粒物(PM2.5),60,44,38,43,29,104,,,,17,14,6,128,0.4,0.3
2025-06-22T0200,3642A,120.3503,36.0736,青岛市,市北区南部,细颗粒物(PM2.5),64,,41,46,32,90,,,,13,24,9,9,0.8,0.6
2025-06-22T0200,3643A,120.3948,36.1805,青岛市,李沧区北部,,45,39,45,31,28,110,,,,14,22,9,9,0.7,0.6
2025-06-22T0200,4290A,120.1969,35.9546,青岛市,珠江路669号,细颗粒物(PM2.5),59,53,42,42,30,88,,,,19,28,8,8,0.7,0.4
2025-06-22T0200,1702A,113.0426,23.691,清远市,环保大楼,,14,13,11,6,12,8,,,,27,18,6,6,0.3,0.3
2025-06-22T0200,1703A,113.0208,23.7106,清远市,凤城街办,,27,27,19,16,11,6,,,,35,20,7,7,0.4,0.4
2025-06-22T0200,3025A,113.0477,23.6344,清远市,技师学院,,33,33,22,12,9,2,,,,34,21,8,7,0.5,0.5
2025-06-22T0200,3318A,112.9903,23.7403,清远市,清新太和,,23,23,17,10,8,10,,,,30,19,8,7,0.5,0.4
2025-06-22T0200,3455A,113.076,23.7198,清远市,清城东城,,22,22,21,9,9,8,,,,24,15,9,8,0.4,0.4
2025-06-22T0200,2661A,107.6325,35.7357,庆阳市,庆阳五中,,47,36,33,27,19,150,,,,13,11,5,6,0.5,0.4
2025-06-22T0200,2662A,107.6364,35.7067,庆阳市,市环保局,,49,40,40,21,15,154,,,,7,8,8,8,0.4,0.4
2025-06-22T0200,1916A,103.7897,25.5035,曲靖市,环境监测站,,21,,24,9,12,66,,,,6,11,2,3,0.5,0.6
2025-06-22T0200,1917A,103.8,25.5364,曲靖市,烟厂办公区,,24,16,23,11,12,74,,,,4,8,3,4,0.6,0.7
2025-06-22T0200,3376A,103.7947,25.462,曲靖市,南苑二区,,23,13,25,9,13,71,,,,8,12,4,4,0.6,0.7
2025-06-22T0200,3377A,103.7444,25.5261,曲靖市,曲靖师范学院,,25,6,18,3,13,80,,,,6,12,5,6,0.4,0.5
2025-06-22T0200,1264A,118.8692,28.9398,衢州市,环保大楼,,27,27,27,13,11,19,,,,15,13,4,4,0.3,0.3
2025-06-22T0200,1265A,118.8709,28.9666,衢州市,实验学校,,35,35,25,16,12,2,,,,27,17,5,4,0.2,0.3
2025-06-22T0200,1266A,118.8621,28.9808,衢州市,衢州学院,,24,24,20,12,10,7,,,,27,18,4,5,0.3,0.4
2025-06-22T0200,1611A,118.5819,24.9117,泉州市,涂山街,,15,15,21,10,9,24,,,,18,12,3,3,0.5,0.5
2025-06-22T0200,1612A,118.5972,24.8978,泉州市,津头埔,,12,12,18,6,6,23,,,,19,12,2,2,0.5,0.4
2025-06-22T0200,1613A,118.6663,24.9424,泉州市,万安,,14,14,17,3,6,25,,,,15,8,3,2,0.5,0.4
2025-06-22T0200,1614A,118.6117,24.9604,泉州市,清源山,,,,,,,,,,,,,,,,
2025-06-22T0200,3529A,118.6333,24.9264,泉州市,城华南路,,14,14,14,8,7,20,,,,19,10,4,4,0.4,0.4
2025-06-22T0200,2626A,88.8876,29.2718,日喀则市,日喀则监测站,,39,10,10,8,5,124,,,,11,8,11,12,0.3,0.3
2025-06-22T0200,3726A,88.8781,29.2426,日喀则市,林业技术推广中心,,32,22,13,7,4,102,,,,6,5,8,8,0.4,0.4
2025-06-22T0200,1659A,119.471,35.4209,日照市,监测站,细颗粒物(PM2.5),68,56,44,49,33,72,,,,27,22,4,5,0.8,0.8
2025-06-22T0200,1660A,119.523,35.4216,日照市,市政府广场,细颗粒物(PM2.5),55,51,46,39,28,82,,,,18,23,11,10,0.8,0.9
2025-06-22T0200,1661A,119.5587,35.4044,日照市,港务局,细颗粒物(PM2.5),69,61,52,50,34,84,,,,23,26,10,10,0.9,0.9
2025-06-22T0200,3507A,119.5328,35.4625,日照市,职业技术学院,颗粒物(PM10),58,66,51,36,28,87,,,,21,20,7,7,0.8,0.8
2025-06-22T0200,3604A,119.3266,35.1044,日照市,岚山环保分局,,41,41,45,23,24,65,,,,25,20,10,10,1.3,0.9
2025-06-22T0200,1835A,111.1922,34.7752,三门峡市,市政府,,44,43,32,25,20,138,,,,11,9,7,5,0.6,0.6
2025-06-22T0200,1836A,111.1587,34.7942,三门峡市,开发区,,46,46,30,29,18,135,,,,17,14,8,5,0.6,0.6
2025-06-22T0200,1838A,111.143,34.7955,三门峡市,风景区,,49,49,28,15,15,133,,,,9,6,10,8,0.5,0.4
2025-06-22T0200,3039A,111.1911,34.7829,三门峡市,三门峡市第一小学,,46,38,34,32,39,138,,,,10,8,10,7,0.8,0.8
2025-06-22T0200,3598A,111.1,34.7167,三门峡市,富达温泉假日酒店,,40,38,25,28,21,108,,,,16,12,10,9,0.2,0.2
2025-06-22T0200,2324A,117.6211,26.2625,三明市,三钢,一氧化碳,52,20,20,3,9,6,,,,18,13,27,14,5.2,2.5
2025-06-22T0200,2325A,117.635,26.2714,三明市,三明二中,,15,14,16,10,12,11,,,,16,12,7,5,1.1,0.9
2025-06-22T0200,2326A,117.6028,26.2378,三明市,三元区政府,,15,15,21,8,9,10,,,,9,12,6,8,0.2,0.2
2025-06-22T0200,2327A,117.7275,26.3108,三明市,洋溪,,,,,,,,,,,,,,,,
2025-06-22T0200,1876A,109.5078,18.2489,三亚市,河东子站,,13,8,15,6,8,41,,,,1,2,3,3,0.4,0.4
2025-06-22T0200,1877A,109.4964,18.2681,三亚市,河西子站,,13,13,15,3,6,38,,,,8,8,2,2,0.3,0.3
2025-06-22T0200,3540A,109.7348,18.3443,三亚市,君悦子站,,15,15,14,3,6,47,,,,3,3,1,2,0.2,0.2
2025-06-22T0200,2624A,91.7608,29.2313,山南市,山南监测站,,28,,15,10,10,87,,,,14,8,7,7,0.3,0.3
2025-06-22T0200,2625A,91.7706,29.2436,山南市,山南人民医院,,40,17,18,10,11,127,,,,2,7,6,6,0.1,0.2
2025-06-22T0200,1674A,116.6794,23.3667,汕头市,金平子站,,10,,9,7,4,29,,,,5,4,3,4,0.4,0.4
2025-06-22T0200,1675A,116.7244,23.3633,汕头市,龙湖子站,,16,16,9,3,3,24,,,,9,6,6,5,0.4,0.4
2025-06-22T0200,1676A,116.7258,23.2775,汕头市,濠江子站,,13,13,16,3,4,27,,,,5,6,5,4,0.5,0.5
2025-06-22T0200,1677A,116.7519,23.4714,汕头市,澄海子站,,12,12,14,3,4,28,,,,6,6,2,2,0.4,0.5
2025-06-22T0200,1678A,116.6092,23.2539,汕头市,潮阳子站,,9,9,11,3,4,27,,,,5,3,4,4,0.6,0.6
2025-06-22T0200,3444A,116.454,23.2684,汕头市,潮南峡山,,10,10,11,6,6,28,,,,4,3,4,5,0.4,0.4
2025-06-22T0200,3624A,116.4069,23.2533,汕头市,潮南子站,,10,6,11,3,5,29,,,,3,3,4,4,0.4,0.5
2025-06-22T0200,1693A,115.3653,22.775,汕尾市,市环保局,,10,10,9,3,3,29,,,,5,4,2,2,0.3,0.3
2025-06-22T0200,1694A,115.3706,22.7898,汕尾市,市政府,,11,11,10,3,5,27,,,,5,4,3,3,0.4,0.4
2025-06-22T0200,1695A,115.3622,22.7925,汕尾市,新城中学,,13,13,10,3,3,29,,,,4,4,3,3,0.5,0.5
2025-06-22T0200,2645A,109.9154,33.8715,商洛市,监测站,,27,27,29,16,21,44,,,,18,12,12,8,0.6,0.5
2025-06-22T0200,3045A,109.9643,33.8471,商洛市,商州区中学,,40,40,36,11,18,40,,,,27,19,6,7,0.5,0.5
2025-06-22T0200,2408A,115.6702,34.4285,商丘市,环境监测站,细颗粒物(PM2.5),53,,51,37,35,77,,,,6,13,2,3,0.5,0.6
2025-06-22T0200,2409A,115.6458,34.4045,商丘市,粮食局,,29,,43,20,33,74,,,,6,11,1,4,0.3,0.4
2025-06-22T0200,2410A,115.6293,34.3948,商丘市,睢阳区环保局,,23,23,46,16,30,68,,,,8,12,3,4,0.3,0.4
2025-06-22T0200,3171A,115.6071,34.4465,商丘市,梁园区档案局,,30,,41,21,31,67,,,,8,16,2,3,0.6,0.6
2025-06-22T0200,1141A,121.4,31.238,上海市,普陀,,34,18,25,7,14,106,,,,10,16,4,5,0.2,0.3
2025-06-22T0200,1142A,121.478,31.2036,上海市,十五厂,,35,12,24,6,12,110,,,,8,18,7,8,0.4,0.4
2025-06-22T0200,1143A,121.467,31.3008,上海市,虹口,,33,16,23,3,11,103,,,,6,11,8,9,0.3,0.4
2025-06-22T0200,1147A,121.425,31.2261,上海市,静安监测站,,31,16,24,3,14,98,,,,11,16,4,7,0.5,0.6
2025-06-22T0200,1148A,121.703,31.1907,上海市,浦东川沙,,33,15,26,8,11,103,,,,11,17,8,8,0.6,0.6
2025-06-22T0200,1149A,121.533,31.2284,上海市,浦东新区监测站,,31,16,24,3,9,97,,,,11,13,8,8,0.6,0.7
2025-06-22T0200,1150A,121.577,31.2071,上海市,浦东张江,,31,20,31,3,14,99,,,,11,13,6,6,0.7,1
2025-06-22T0200,3265A,121.4316,31.3322,上海市,宝山庙行,,35,15,24,3,11,112,,,,10,15,8,9,0.3,0.4
2025-06-22T0200,3266A,121.8791,31.4662,上海市,崇明上实东滩,,35,10,21,3,11,109,,,,4,14,2,3,0.4,0.6
2025-06-22T0200,3268A,121.3162,31.2838,上海市,嘉定南翔,,,33,31,17,14,84,,,,15,15,7,6,,0.3
2025-06-22T0200,3269A,121.3359,30.7456,上海市,金山新城,,30,12,29,3,13,95,,,,12,15,3,4,0.5,1
2025-06-22T0200,3270A,121.4996,31.0739,上海市,闵行浦江,,28,26,27,6,12,88,,,,11,13,5,5,0.7,0.7
2025-06-22T0200,3271A,121.2886,31.1663,上海市,青浦徐泾,,31,31,28,10,13,82,,,,17,15,6,6,0.9,0.6
2025-06-22T0200,3272A,121.2186,31.0378,上海市,松江图书馆,,31,31,27,18,14,86,,,,12,14,7,7,0.9,0.7
2025-06-22T0200,3273A,121.3902,31.2059,上海市,长宁仙霞,,,,27,,12,,,,,10,17,6,9,,0.4
2025-06-22T0200,3274A,121.7965,31.0507,上海市,浦东惠南,,29,11,23,3,14,91,,,,20,21,9,10,0.4,0.5
2025-06-22T0200,3544A,121.4891,30.925,上海市,奉贤南桥新城,,,21,26,10,14,30,,,,12,12,6,7,,0.8
2025-06-22T0200,4183A,121.4174,31.16637,上海市,冠生园路458号,,28,15,25,9,14,87,,,,8,15,4,4,0.6,0.7
2025-06-22T0200,4205A,121.5419,31.2683,上海市,宁武路151号,,31,19,31,9,13,97,,,,17,18,7,7,0.3,0.4
2025-06-22T0200,2381A,118.005,28.4572,上饶市,百草园,,,,,,,,,,,,,,,,
2025-06-22T0200,2382A,117.9756,28.4436,上饶市,市监测站,,25,25,18,15,10,15,,,,17,10,20,7,0.4,0.4
2025-06-22T0200,2383A,117.9519,28.4628,上饶市,凤凰光学,,20,14,11,14,9,3,,,,25,12,12,8,0.6,0.7
2025-06-22T0200,3685A,117.897,28.4315,上饶市,双创科技城,,20,20,19,12,9,14,,,,26,15,9,9,0.5,0.5
2025-06-22T0200,4211A,118.1904,28.4448,上饶市,裕丰大道,,10,9,15,6,5,31,,,,6,4,6,6,0.5,0.5
2025-06-22T0200,1669A,113.5824,24.7733,韶关市,市八中,,9,9,22,3,8,22,,,,14,14,9,10,0.5,0.5
2025-06-22T0200,1671A,113.5917,24.7972,韶关市,园林处,,13,13,16,3,8,21,,,,10,10,11,8,0.6,0.6
2025-06-22T0200,1673A,113.5971,24.6863,韶关市,曲江监测站,,10,10,12,3,6,24,,,,12,11,6,6,0.7,0.7
2025-06-22T0200,2809A,113.6668,24.7756,韶关市,大学路288号,,9,9,17,3,8,24,,,,10,8,8,7,0.4,0.4
2025-06-22T0200,3622A,113.5556,24.8082,韶关市,碧湖山庄,,13,13,20,3,10,23,,,,13,12,8,10,0.4,0.5
2025-06-22T0200,2462A,111.5239,27.3033,邵阳市,市水土所,,,,,,,,,,,,,,,,
2025-06-22T0200,2464A,111.5283,27.2442,邵阳市,市化工厂,,23,9,23,3,12,72,,,,7,11,5,4,0.5,0.4
2025-06-22T0200,2466A,111.4328,27.2272,邵阳市,市环保局,,23,7,21,3,14,72,,,,4,9,3,6,0.4,0.3
2025-06-22T0200,4218A,111.4460,27.2472,邵阳市,北塔二期4-26地块,,20,,24,10,13,62,,,,6,9,4,4,0.4,0.4
2025-06-22T0200,4219A,111.4739,27.2282,邵阳市,邵水西路287号,,,7,23,,14,69,,,,8,13,3,3,0.5,0.4
2025-06-22T0200,1247A,120.6053,29.9928,绍兴市,城东开发委,,46,46,23,22,13,51,,,,13,7,4,4,0.5,0.4
2025-06-22T0200,2921A,120.5483,30.0003,绍兴市,树下王站,,37,37,22,16,11,56,,,,15,9,7,7,0.5,0.4
2025-06-22T0200,3408A,120.5683,29.9361,绍兴市,绍兴中专,,50,50,27,12,9,54,,,,14,9,3,4,0.4,0.2
2025-06-22T0200,3409A,120.4906,30.0861,绍兴市,柯桥区政府,,28,28,26,12,12,55,,,,13,9,9,9,0.7,0.6
2025-06-22T0200,3410A,120.8752,30.0249,绍兴市,重华小学,,36,32,24,25,14,53,,,,10,8,6,6,0.4,0.4
2025-06-22T0200,3411A,120.8369,30.0137,绍兴市,上虞中学,,46,46,25,30,15,60,,,,11,12,7,8,0.6,0.4
2025-06-22T0200,3560A,120.4722,30.0415,绍兴市,柯桥妇保,,42,42,25,23,13,61,,,,12,9,6,6,0.6,0.5
2025-06-22T0200,3658A,120.6153,30.0764,绍兴市,袍江中学,,30,30,21,18,11,50,,,,18,10,4,4,0.6,0.4
2025-06-22T0200,1356A,114.1063,22.5545,深圳市,通心岭子站,,14,14,12,3,5,18,,,,8,8,8,7,0.5,0.5
2025-06-22T0200,1357A,114.117,22.5625,深圳市,洪湖,,17,17,12,3,5,7,,,,15,8,6,6,0.6,0.5
2025-06-22T0200,1358A,113.987,22.5417,深圳市,华侨城,,15,15,14,3,5,12,,,,8,9,6,6,0.5,0.5
2025-06-22T0200,1359A,113.9181,22.5171,深圳市,南海子站,,11,6,12,3,5,10,,,,22,15,8,8,0.6,0.6
2025-06-22T0200,1360A,114.2458,22.5689,深圳市,盐田,,23,23,17,6,5,0,,,,15,9,7,6,0.5,0.5
2025-06-22T0200,1361A,114.2283,22.7244,深圳市,龙岗,,18,18,14,8,5,1,,,,23,13,7,6,0.9,0.8
2025-06-22T0200,1363A,114.494,22.5422,深圳市,南澳,,14,14,13,3,0,25,,,,3,3,6,6,0.4,0.5
2025-06-22T0200,1364A,114.41,22.6342,深圳市,葵涌,,27,27,14,9,4,3,,,,13,8,7,7,0.6,0.5
2025-06-22T0200,1365A,114.297,22.5978,深圳市,梅沙,,23,23,17,3,3,1,,,,10,7,7,7,0.4,0.5
2025-06-22T0200,1366A,114.0678,22.738,深圳市,观澜,,32,32,26,7,9,0,,,,21,17,6,6,0.6,0.6
2025-06-22T0200,3305A,114.0731,22.559,深圳市,莲花,,16,16,15,3,6,11,,,,9,9,2,2,0.6,0.7
2025-06-22T0200,3306A,114.0261,22.6198,深圳市,民治,,13,13,11,3,5,14,,,,17,12,7,7,0.5,0.5
2025-06-22T0200,3307A,114.1871,22.6451,深圳市,横岗,,15,15,14,6,7,6,,,,17,14,8,8,0.1,0.3
2025-06-22T0200,3447A,114.3551,22.7151,深圳市,坪山,,15,15,13,3,5,9,,,,15,11,7,7,0.5,0.5
2025-06-22T0200,3623A,113.8953,22.5861,深圳市,西乡,,10,10,16,3,7,16,,,,16,12,6,6,0.5,0.5
2025-06-22T0200,1098A,123.6836,41.9339,沈阳市,森林路,,,,,,,,,,,,,,,,
2025-06-22T0200,1099A,123.505,41.7406,沈阳市,浑南东路,,30,30,25,18,11,58,,,,29,27,31,10,1.2,0.5
2025-06-22T0200,1100A,123.4231,41.6989,沈阳市,新秀街,,32,32,20,11,14,54,,,,38,34,12,8,1.3,0.6
2025-06-22T0200,1102A,123.5903,41.8411,沈阳市,东陵路,,40,40,23,13,9,61,,,,29,27,9,6,1.0,0.6
2025-06-22T0200,1103A,123.4264,41.8467,沈阳市,陵东街,,20,18,14,9,7,63,,,,21,18,4,5,0.5,0.4
2025-06-22T0200,1104A,123.4114,41.7653,沈阳市,文化路,,39,39,22,19,7,65,,,,25,26,9,9,1.1,0.6
2025-06-22T0200,1105A,123.4678,41.7867,沈阳市,小河沿,,20,18,13,7,5,64,,,,20,19,8,8,0.9,0.6
2025-06-22T0200,1106A,123.4017,41.7972,沈阳市,太原街,,43,43,22,22,6,62,,,,24,27,4,6,0.7,0.4
2025-06-22T0200,1108A,123.3783,41.9228,沈阳市,京沈街,,33,33,20,20,7,55,,,,29,26,10,10,0.6,0.5
2025-06-22T0200,2897A,123.2444,41.7347,沈阳市,沈辽西路,,46,46,26,16,8,46,,,,26,20,6,9,0.7,0.6
2025-06-22T0200,2900A,123.5953,41.9086,沈阳市,裕农路,,22,19,11,15,14,47,,,,39,25,6,6,0.7,0.5
2025-06-22T0200,2428A,111.0419,32.395,十堰市,武当山,,23,15,19,14,12,73,,,,4,3,7,7,0.6,0.6
2025-06-22T0200,2429A,110.78,32.6494,十堰市,滨河新村,,37,37,27,22,17,22,,,,27,16,8,7,0.7,0.7
2025-06-22T0200,2430A,110.7258,32.6389,十堰市,刘家沟,,26,25,26,18,13,35,,,,10,9,4,6,0.4,0.3
2025-06-22T0200,2431A,110.8839,32.5714,十堰市,铁二处,,33,33,22,18,16,34,,,,5,6,7,7,0.5,0.5
2025-06-22T0200,3545A,110.8054,32.8401,十堰市,郧阳区金沙路,,24,24,30,16,17,48,,,,5,6,6,6,1.2,1.1
2025-06-22T0200,2709A,86.0497,44.2967,石河子市,艾青诗歌馆,,28,28,34,12,15,89,,,,12,6,9,9,0.1,0.1
2025-06-22T0200,3442A,86.047,44.2331,石河子市,南区管委会,,33,,41,15,17,105,,,,2,3,11,11,0.2,0.2
2025-06-22T0200,4051A,86.0791,44.3017,石河子市,世纪广场,,38,38,38,12,19,89,,,,4,6,6,7,0.1,0.2
2025-06-22T0200,1029A,114.4422,38.0444,石家庄市,职工医院,,46,46,36,22,20,123,,,,12,11,6,5,0.3,0.4
2025-06-22T0200,1030A,114.6063,38.0266,石家庄市,高新区,颗粒物(PM10),51,52,46,33,31,104,,,,18,16,3,2,0.3,0.3
2025-06-22T0200,1031A,114.4898,38.1328,石家庄市,西北水源,颗粒物(PM10),60,69,57,12,12,53,,,,30,16,3,2,0.3,0.3
2025-06-22T0200,1032A,114.4586,38.0058,石家庄市,西南高教,,40,40,39,9,13,115,,,,17,13,4,4,0.2,0.4
2025-06-22T0200,1033A,114.5331,38.0178,石家庄市,世纪公园,,42,42,37,17,22,100,,,,19,12,6,5,0.3,0.4
2025-06-22T0200,1034A,114.509,38.0457,石家庄市,人民会堂,,39,39,43,14,15,123,,,,15,13,6,5,0.2,0.4
2025-06-22T0200,1035A,114.3524,37.8911,石家庄市,封龙山,,48,36,27,28,20,151,,,,10,10,15,18,0.4,0.4
