timepoint,stationcode,longitude,latitude,area,positionname,primarypollutant,aqi,pm10,pm10_24h,pm2_5,pm2_5_24h,o3,o3_24h,o3_8h,o3_8h_24h,no2,no2_24h,so2,so2_24h,co,co_24h
2025-06-22T2100,2566A,102.1879,31.914,阿坝藏族羌族自治州,州农科所,,34,34,21,10,7,75,,97,96,8,11,12,12,0.5,0.5
2025-06-22T2100,2568A,102.2502,31.8896,阿坝藏族羌族自治州,马师校,,36,28,18,25,18,82,,113,111,11,8,6,6,0.4,0.5
2025-06-22T2100,3994A,102.2165,31.9024,阿坝藏族羌族自治州,马尔康中学西区,,36,31,19,25,17,87,,116,114,7,10,5,6,0.5,0.5
2025-06-22T2100,2695A,80.292,41.1694,阿克苏地区,电视台,,46,40,90,32,34,96,,106,100,7,11,7,7,0.7,0.6
2025-06-22T2100,2696A,80.2613,41.1551,阿克苏地区,艺术中心,,47,47,98,25,36,100,,110,106,1,11,3,3,0.3,0.3
2025-06-22T2100,2204A,105.6467,38.8363,阿拉善盟,西城区西花园,,43,,78,20,42,137,,142,142,10,8,5,6,0.9,0.9
2025-06-22T2100,2205A,105.6985,38.8411,阿拉善盟,蒙二幼,,43,10,128,8,39,136,,140,140,11,9,9,9,0.6,0.6
2025-06-22T2100,2206A,105.724,38.8516,阿拉善盟,环保局新楼,,43,14,108,8,34,137,,136,136,6,5,9,9,0.6,0.6
2025-06-22T2100,2708A,88.1264,47.8517,阿勒泰地区,市站,,34,30,21,3,5,107,,110,110,9,7,1,1,0.3,0.3
2025-06-22T2100,2630A,80.1161,32.5,阿里地区,阿里监测站,,44,13,10,3,6,138,,135,135,3,15,8,8,0.3,0.4
2025-06-22T2100,3192A,80.0903,32.5028,阿里地区,阿里藏医院,,,34,17,7,9,143,,141,141,,6,,8,0.4,0.4
2025-06-22T2100,2642A,109.0318,32.6537,安康市,香溪洞,,39,17,18,3,8,123,,124,124,3,3,5,5,0.5,0.6
2025-06-22T2100,2644A,109.0072,32.6975,安康市,汉滨区检察院,,35,19,22,3,10,110,,116,116,7,7,6,7,0.4,0.4
2025-06-22T2100,4054A,109.0325,32.6913,安康市,市邮政管理局,,35,18,24,13,12,110,,118,118,8,11,6,7,0.4,0.4
2025-06-22T2100,2291A,117.0809,30.5177,安庆市,环科院,,34,11,5,6,4,106,,102,102,4,4,2,2,0.5,0.6
2025-06-22T2100,2292A,117.0331,30.5119,安庆市,马山宾馆,,32,15,6,11,6,100,,97,97,4,5,3,4,0.6,0.6
2025-06-22T2100,2294A,116.9896,30.6145,安庆市,安庆大学,,33,16,6,11,3,103,,100,100,6,5,2,2,0.6,0.5
2025-06-22T2100,3173A,117.0598,30.5351,安庆市,市人大,,34,10,7,8,5,107,,102,102,6,5,2,2,0.5,0.5
2025-06-22T2100,3122A,105.9606,26.2611,安顺市,伍家关,,18,9,10,7,8,57,,82,74,11,7,3,3,0.5,0.5
2025-06-22T2100,3123A,105.9408,26.2431,安顺市,凤凰山,,24,22,20,14,12,75,,100,93,10,6,3,3,0.6,0.6
2025-06-22T2100,3124A,105.9439,26.2564,安顺市,金钟山,,23,16,17,15,13,73,,98,90,9,6,4,4,0.4,0.4
2025-06-22T2100,3125A,105.8983,26.2481,安顺市,娄家坡,,23,15,14,10,10,72,,94,86,7,6,4,4,0.5,0.5
2025-06-22T2100,1818A,114.4839,36.0621,安阳市,棉研所,,,,,,,,,,,,,,,,
2025-06-22T2100,1819A,114.3551,36.1017,安阳市,红庙街,臭氧1小时,73,41,48,10,22,178,,195,195,3,4,2,6,0.3,0.5
2025-06-22T2100,1820A,114.361,36.0681,安阳市,银杏小区,臭氧1小时,74,42,48,16,26,179,,200,199,6,11,3,8,0.3,0.5
2025-06-22T2100,3141A,114.3922,36.0878,安阳市,信访局,臭氧1小时,78,36,49,15,23,182,,202,202,19,10,2,4,0.5,0.6
2025-06-22T2100,3669A,114.4705,36.0637,安阳市,左辅环卫站,,,,59,,30,,,149,,,13,,6,,0.5
2025-06-22T2100,3703A,114.2917,36.0949,安阳市,安钢职工学校,臭氧1小时,62,34,54,18,26,169,,183,183,11,11,4,7,0.2,0.4
2025-06-22T2100,1748A,123.044,41.1196,鞍山市,深沟寺,,37,37,31,20,15,98,,131,128,24,19,8,15,1.0,1.1
2025-06-22T2100,1749A,123.011,41.0931,鞍山市,太阳城,,39,39,29,23,16,116,,129,129,14,17,10,15,0.9,1.2
2025-06-22T2100,1750A,123.0485,41.1442,鞍山市,太平,细颗粒物(PM2.5),84,113,42,62,19,70,,127,121,46,20,9,15,1.5,1.2
2025-06-22T2100,1751A,122.9642,41.0971,鞍山市,铁西三道街,,,57,37,32,20,,,120,,52,24,8,15,1.0,1.1
2025-06-22T2100,1753A,123.022,41.0821,鞍山市,明达新区,,40,40,31,22,16,83,,126,121,21,16,9,16,1.0,1.1
2025-06-22T2100,1754A,123.1289,41.0228,鞍山市,千山,,,,,,,,,,,,,,,,
2025-06-22T2100,4201A,122.9446,41.0826,鞍山市,兴盛南路290号,颗粒物(PM10),68,86,38,34,17,53,,136,123,75,28,6,13,0.7,0.9
2025-06-22T2100,2195A,107.4212,40.761,巴彦淖尔市,附二中,颗粒物(PM10),51,52,53,23,22,153,,147,147,10,15,16,15,0.5,0.5
2025-06-22T2100,2196A,107.37,40.7372,巴彦淖尔市,市环保大楼,颗粒物(PM10),51,52,52,25,20,151,,151,151,20,16,7,10,0.5,0.5
2025-06-22T2100,1956A,86.1472,41.7538,巴音郭楞蒙古自治州,孔雀公园,,33,24,28,13,11,104,,118,117,17,10,11,9,0.3,0.2
2025-06-22T2100,1957A,86.1972,41.7166,巴音郭楞蒙古自治州,棉纺厂,,36,22,36,11,9,115,,117,117,10,14,4,4,0.2,0.2
2025-06-22T2100,1958A,86.2357,41.7173,巴音郭楞蒙古自治州,经济开发区,,38,16,28,3,7,119,,118,118,4,6,9,9,0.2,0.2
2025-06-22T2100,2914A,106.7677,31.8794,巴中市,苏山坪,细颗粒物(PM2.5),53,37,15,37,9,115,,112,112,6,5,6,5,0.4,0.4
2025-06-22T2100,3181A,106.7768,31.8526,巴中市,市五中,,39,19,15,9,10,123,,124,124,8,10,8,8,0.4,0.5
2025-06-22T2100,3183A,106.7418,31.8654,巴中市,圣泉水务公司,,40,14,19,8,11,127,,126,126,7,13,6,6,0.5,0.6
2025-06-22T2100,3616A,106.7616,31.8344,巴中市,市中心医院,,40,13,17,13,12,126,,126,126,4,13,6,6,0.4,0.5
2025-06-22T2100,2235A,122.7911,45.6077,白城市,洮北区环保局,,28,21,16,16,12,88,,111,106,22,14,4,5,0.4,0.3
2025-06-22T2100,2236A,122.8738,45.5725,白城市,市环保局,,31,22,17,11,8,97,,106,104,5,8,6,5,0.4,0.4
2025-06-22T2100,2231A,126.4219,41.9171,白山市,喜丰,,45,45,30,17,11,33,,116,100,50,22,7,9,0.7,0.8
2025-06-22T2100,2232A,126.4077,41.9419,白山市,环保局,,40,40,25,12,10,65,,114,107,16,13,10,10,0.7,0.7
2025-06-22T2100,2647A,104.1724,36.5446,白银市,第三小学,,30,11,20,6,17,96,,112,111,14,10,10,18,0.8,0.9
2025-06-22T2100,2648A,104.1465,36.5482,白银市,动力公司,,30,16,18,8,16,95,,116,114,16,10,24,20,0.4,0.5
2025-06-22T2100,2512A,106.6103,23.9011,百色市,市监测站,,21,21,22,7,9,21,,53,46,14,12,4,5,0.3,0.4
2025-06-22T2100,2513A,106.6538,23.8859,百色市,市中心血站,,34,34,29,14,14,7,,51,41,26,17,2,4,0.7,0.7
2025-06-22T2100,3406A,106.6085,23.8798,百色市,祈福高中,,28,28,28,11,15,22,,52,46,12,14,4,7,0.7,0.7
2025-06-22T2100,2270A,117.396,32.939,蚌埠市,工人疗养院,,40,29,24,15,15,127,,139,139,11,9,4,4,0.4,0.4
2025-06-22T2100,2271A,117.3605,32.9427,蚌埠市,百货大楼,,37,37,23,14,11,115,,138,136,19,10,4,5,0.4,0.4
2025-06-22T2100,2273A,117.4185,32.8911,蚌埠市,蚌埠学院,,35,34,18,20,13,111,,134,132,18,9,4,4,0.4,0.3
2025-06-22T2100,2274A,117.3533,32.9673,蚌埠市,淮上区政府,,40,34,23,20,16,126,,142,141,16,12,5,5,0.4,0.4
2025-06-22T2100,2275A,117.3145,32.8977,蚌埠市,高新区,,33,27,23,16,14,104,,136,133,19,17,6,7,0.4,0.4
2025-06-22T2100,3715A,117.3092,32.9314,蚌埠市,蚌埠田家炳中学,,37,35,31,21,17,118,,139,137,12,12,6,6,0.3,0.3
2025-06-22T2100,1585A,109.8756,40.6532,包头市,市环境监测站,,36,28,31,8,15,114,,151,145,34,29,16,14,0.4,0.4
2025-06-22T2100,1587A,109.9991,40.5842,包头市,包头八中,,40,39,34,15,14,126,,145,143,23,19,22,22,0.9,0.7
2025-06-22T2100,1588A,109.8538,40.6821,包头市,青山宾馆,,43,22,28,9,12,135,,161,159,20,27,10,12,0.3,0.5
2025-06-22T2100,1589A,109.8642,40.6288,包头市,惠龙物流,,43,30,25,8,12,137,,154,153,16,21,11,11,0.3,0.4
2025-06-22T2100,1590A,110.0377,40.5546,包头市,东河鸿龙湾,颗粒物(PM10),51,52,31,7,6,103,,148,140,33,21,18,14,0.5,0.4
2025-06-22T2100,3283A,109.9154,40.5685,包头市,滨河大厦,,39,29,21,10,8,124,,154,149,25,18,10,13,0.5,0.5
2025-06-22T2100,3419A,109.9447,40.6261,包头市,包头市委党校,,44,26,30,8,10,138,,152,151,19,23,10,16,0.3,0.5
2025-06-22T2100,3683A,109.8331,40.6576,包头市,昆区政府,,40,28,25,14,15,126,,154,151,23,24,18,12,0.7,0.6
2025-06-22T2100,1930A,107.185,34.3063,宝鸡市,庙沟村,,,,25,14,14,81,,114,100,10,9,5,5,0.4,0.4
2025-06-22T2100,1931A,107.0708,34.3017,宝鸡市,竹园沟,,20,15,18,6,9,64,,96,90,8,10,6,6,0.4,0.4
2025-06-22T2100,1932A,107.1906,34.3672,宝鸡市,三陆医院,,33,26,17,15,10,104,,99,99,12,8,6,5,0.5,0.4
2025-06-22T2100,1933A,107.1431,34.3547,宝鸡市,监测站,,29,26,23,20,16,80,,93,91,17,13,6,6,0.4,0.3
2025-06-22T2100,1934A,107.1186,34.3739,宝鸡市,技工学校,,26,24,25,16,17,83,,103,100,11,7,7,8,0.5,0.5
2025-06-22T2100,1935A,107.3906,34.3528,宝鸡市,陈仓区环保局家属楼,,29,29,32,20,21,80,,104,98,16,17,6,7,0.5,0.5
2025-06-22T2100,1936A,107.2058,34.3497,宝鸡市,文理学院,,34,31,26,14,16,106,,104,104,11,12,6,6,0.5,0.5
2025-06-22T2100,1937A,107.2386,34.3622,宝鸡市,三迪小学,,34,24,26,18,19,108,,103,103,13,17,6,6,0.5,0.5
2025-06-22T2100,1051A,115.493,38.8632,保定市,游泳馆,,41,40,43,17,16,129,,141,140,17,23,3,3,0.2,0.2
2025-06-22T2100,1052A,115.5213,38.8959,保定市,华电二区,,43,43,27,20,10,132,,133,133,13,13,3,2,0.4,0.3
2025-06-22T2100,1053A,115.4713,38.9108,保定市,接待中心,,40,29,34,13,10,125,,125,125,13,12,3,2,0.4,0.3
2025-06-22T2100,1054A,115.4612,38.8416,保定市,地表水厂,,45,45,56,8,15,128,,141,140,24,29,3,3,0.2,0.2
2025-06-22T2100,3581A,115.31981,38.95208,保定市,满城区生态环境分局,,48,48,35,9,8,115,,134,127,14,13,3,2,0.2,0.2
2025-06-22T2100,3582A,115.47694,38.76408,保定市,清苑区第二中学,,48,48,56,22,22,139,,160,156,11,15,1,2,0.2,0.3
2025-06-22T2100,3583A,115.62909,39.02311,保定市,徐水物探局,颗粒物(PM10),61,72,56,14,14,98,,146,137,26,23,2,2,0.2,0.2
2025-06-22T2100,4004A,115.4202,38.8656,保定市,双鹰农机,,45,45,37,30,19,120,,138,137,24,23,3,4,0.2,0.2
2025-06-22T2100,4034A,115.5150,38.8590,保定市,植保所站,,41,41,46,18,15,125,,142,140,21,21,2,3,0.4,0.3
2025-06-22T2100,2594A,99.1678,25.1081,保山市,市环境监测站,,23,,11,16,14,41,,55,54,9,7,8,7,0.4,0.4
2025-06-22T2100,2595A,99.1711,25.1328,保山市,市环保局,,15,15,11,8,7,47,,60,59,7,5,6,6,0.6,0.5
2025-06-22T2100,1866A,109.2262,21.588,北海市,牛尾岭水库,,15,14,16,6,10,48,,82,75,10,8,2,3,0.4,0.4
2025-06-22T2100,1867A,109.1436,21.4086,北海市,海滩公园,,23,23,31,3,7,62,,70,69,4,5,2,2,0.1,0.2
2025-06-22T2100,1868A,109.0981,21.4661,北海市,新市环保局,,22,15,21,12,11,68,,74,72,11,7,2,2,0.4,0.4
2025-06-22T2100,1869A,109.1778,21.5233,北海市,北海工业园,,19,,25,10,11,58,,68,67,5,8,2,4,0.4,0.4
2025-06-22T2100,3400A,109.1911,21.4415,北海市,龙潭自来水厂,,,,19,,11,,,56,,,6,,4,,0.4
2025-06-22T2100,1001A,116.3621,39.8784,北京市,万寿西宫,,39,39,34,26,13,114,,177,170,31,29,4,4,0.4,0.3
2025-06-22T2100,1002A,116.2202,40.2915,北京市,定陵,,,,,,,,,,,,,,,,
2025-06-22T2100,1003A,116.4174,39.9289,北京市,东四,,43,43,32,16,10,121,,194,186,39,33,2,2,0.3,0.2
2025-06-22T2100,1004A,116.4072,39.8863,北京市,天坛,,48,33,30,33,14,78,,174,160,16,21,2,3,0.5,0.4
2025-06-22T2100,1005A,116.462,39.9365,北京市,农展馆,,44,44,33,17,12,77,,153,140,30,27,6,5,0.6,0.4
2025-06-22T2100,1006A,116.3392,39.9295,北京市,官园,,43,43,36,30,14,129,,177,174,25,32,3,3,0.4,0.3
2025-06-22T2100,1007A,116.2878,39.9611,北京市,海淀万柳,颗粒物(PM10),55,59,35,16,11,107,,163,157,39,34,3,3,0.6,0.4
2025-06-22T2100,1008A,116.6636,40.135,北京市,顺义新城,细颗粒物(PM2.5),73,,30,53,14,63,,123,105,28,24,2,2,0.4,0.3
2025-06-22T2100,1009A,116.6275,40.3275,北京市,怀柔镇,,30,26,20,21,11,86,,122,114,11,12,1,1,0.4,0.3
2025-06-22T2100,1010A,116.2296,40.217,北京市,昌平镇,,35,34,21,21,10,111,,148,147,10,12,4,4,0.3,0.2
2025-06-22T2100,1011A,116.3966,39.9821,北京市,奥体中心,,41,41,31,18,12,97,,142,135,24,28,4,4,0.7,0.6
2025-06-22T2100,3281A,115.9718,40.4529,北京市,延庆夏都,,37,35,25,18,11,116,,142,139,15,16,5,5,0.6,0.4
2025-06-22T2100,3418A,116.8336,40.4095,北京市,密云新城,颗粒物(PM10),59,67,27,25,13,48,,94,88,28,12,1,1,0.2,0.2
2025-06-22T2100,3671A,116.088,39.9726,北京市,门头沟三家店,细颗粒物(PM2.5),77,71,25,56,12,67,,148,142,30,11,3,3,0.7,0.5
2025-06-22T2100,3672A,116.1541,39.8204,北京市,丰台云岗,颗粒物(PM10),53,56,47,27,13,119,,181,173,22,28,3,3,0.4,0.4
2025-06-22T2100,3673A,116.6804,39.9081,北京市,通州东关,颗粒物(PM10),62,74,41,33,17,60,,162,142,56,35,3,3,0.5,0.3
2025-06-22T2100,3674A,115.9577,39.7603,北京市,房山燕山,颗粒物(PM10),53,56,28,17,11,104,,134,121,18,12,1,2,0.3,0.3
2025-06-22T2100,3675A,116.4672,39.7733,北京市,大兴旧宫,,37,37,43,24,18,106,,175,162,14,25,2,3,0.3,0.3
2025-06-22T2100,3694A,115.986,40.4563,北京市,延庆石河营,,36,33,22,20,12,114,,128,126,10,11,2,3,0.4,0.4
2025-06-22T2100,3695A,116.6151,40.3053,北京市,怀柔新城,,30,29,20,19,13,94,,114,108,8,8,2,2,0.3,0.3
2025-06-22T2100,3696A,116.2545,39.8768,北京市,丰台小屯,,41,41,44,19,15,114,,161,155,28,38,3,2,0.5,0.4
2025-06-22T2100,3697A,116.84,40.3844,北京市,密云镇,颗粒物(PM10),58,66,25,19,11,59,,98,93,26,16,2,2,0.5,0.3
2025-06-22T2100,4182A,116.1942,39.9158,北京市,八角北路9号,颗粒物(PM10),53,56,41,21,13,85,,175,164,47,34,1,2,0.5,0.3
2025-06-22T2100,4194A,117.0790,40.1518,北京市,洳河巡河路,,43,43,28,25,12,117,,116,116,15,14,4,3,0.5,0.4
2025-06-22T2100,1761A,123.8275,41.3064,本溪市,大峪,,34,34,29,16,12,79,,119,108,14,18,7,10,0.5,0.8
2025-06-22T2100,1762A,123.7567,41.3325,本溪市,溪湖,,44,44,39,18,18,84,,130,122,21,26,9,14,0.8,1.9
2025-06-22T2100,1763A,123.7169,41.3094,本溪市,彩屯,,49,49,38,24,21,39,,124,98,53,37,11,18,0.6,1.6
2025-06-22T2100,1764A,123.7669,41.2864,本溪市,东明,颗粒物(PM10),55,60,47,25,19,72,,134,127,42,32,10,14,1.0,1.4
2025-06-22T2100,1765A,123.7992,41.2664,本溪市,新立屯,,29,29,23,19,12,84,,120,107,35,24,7,8,0.6,0.7
2025-06-22T2100,1766A,123.8142,41.3472,本溪市,威宁,,42,42,36,13,14,61,,123,105,25,19,6,8,0.4,0.7
2025-06-22T2100,2587A,105.2864,27.3125,毕节市,八中,,26,25,19,18,13,49,,90,78,21,8,5,5,0.6,0.5
2025-06-22T2100,2588A,105.31,27.2944,毕节市,师专,,23,22,17,16,11,58,,93,79,23,11,4,5,0.5,0.4
2025-06-22T2100,4263A,105.3688,27.3598,毕节市,工业大道,,20,20,17,12,10,51,,93,78,18,15,5,6,0.6,0.6
2025-06-22T2100,1629A,118.0018,37.3617,滨州市,第二水厂,,37,36,52,17,28,118,,192,182,32,15,5,7,0.3,0.4
2025-06-22T2100,1630A,117.9776,37.393,滨州市,北中新校,,39,39,51,17,28,119,,199,187,31,14,18,19,0.5,0.8
2025-06-22T2100,3514A,117.9378,37.3956,滨州市,中海酒店,,44,22,48,19,34,138,,190,185,19,26,8,13,0.7,0.8
2025-06-22T2100,3515A,117.9378,37.3553,滨州市,开发区一中,,37,36,51,17,26,116,,187,179,23,20,9,12,0.5,0.5
2025-06-22T2100,3516A,118.0917,37.694,滨州市,金海六路,臭氧1小时,64,44,62,17,36,171,,190,179,26,24,10,11,0.3,0.4
2025-06-22T2100,4028A,117.9956,37.3753,滨州市,滨州市西街道办事处,,39,34,44,19,30,123,,201,188,24,13,7,8,0.2,0.5
2025-06-22T2100,2311A,115.8072,33.8399,亳州市,污水处理厂,,46,33,23,21,14,146,,152,152,10,7,2,3,0.7,0.1
2025-06-22T2100,2312A,115.7789,33.8518,亳州市,三国揽胜宫,,48,28,19,20,10,151,,152,152,6,3,3,3,0.2,0.3
2025-06-22T2100,3332A,115.7633,33.8034,亳州市,亳州学院,,46,25,14,17,10,147,,155,155,9,6,3,3,0.4,0.4
2025-06-22T2100,2693A,82.0485,44.8556,博尔塔拉蒙古自治州,市党校,,32,27,25,17,15,100,,120,118,22,10,3,3,0.0,0
2025-06-22T2100,2694A,82.0806,44.8969,博尔塔拉蒙古自治州,市环保局,,45,45,32,16,11,103,,121,120,12,7,1,2,0.4,0.3
2025-06-22T2100,1071A,116.8842,38.2991,沧州市,沧县城建局,,39,37,46,25,29,124,,187,148,32,20,2,6,0.3,0.4
2025-06-22T2100,1072A,116.8584,38.3254,沧州市,电视转播站,,,39,44,7,26,,,177,146,22,14,1,3,0.3,0.4
2025-06-22T2100,1073A,116.8709,38.3228,沧州市,市环保局,颗粒物(PM10),51,51,55,23,28,127,,182,149,17,15,2,6,0.3,0.4
2025-06-22T2100,3324A,116.8136,38.3004,沧州市,河北水利电力学院,,47,36,50,26,27,148,,203,167,27,22,3,5,0.3,0.4
2025-06-22T2100,2622A,97.1806,31.1273,昌都市,昌都监测站,,31,19,14,13,9,99,,132,130,22,8,5,5,0.4,0.2
2025-06-22T2100,3719A,97.1714,31.1406,昌都市,昌都会议中心,,35,23,22,15,12,112,,147,144,10,8,5,6,0.2,0.2
2025-06-22T2100,2690A,88.1236,43.8886,昌吉回族自治州,天山天池,,28,20,10,3,4,87,,117,113,6,6,5,5,0.6,0.6
2025-06-22T2100,2692A,87.2717,44.0297,昌吉回族自治州,新区政务中心,,37,12,22,3,9,117,,134,131,6,12,4,3,0.2,0.4
2025-06-22T2100,3613A,87.3095,44.0142,昌吉回族自治州,亚心广场,,36,27,31,3,10,113,,128,125,9,16,6,6,0.2,0.3
2025-06-22T2100,1120A,125.2863,43.9027,长春市,客车厂,颗粒物(PM10),54,58,19,28,11,6,,99,81,94,24,5,5,0.7,0.3
2025-06-22T2100,1121A,125.2841,43.8463,长春市,邮电学院,颗粒物(PM10),72,94,21,14,8,54,,100,95,40,17,6,6,0.5,0.4
2025-06-22T2100,1122A,125.3716,43.8772,长春市,劳动公园,颗粒物(PM10),72,93,26,38,9,35,,101,93,56,19,3,3,0.7,0.3
2025-06-22T2100,1123A,125.3297,43.8805,长春市,园林处,颗粒物(PM10),67,83,22,17,9,46,,101,94,36,13,5,5,0.6,0.4
2025-06-22T2100,1124A,125.4605,43.79,长春市,净月潭,,,,17,,6,,,76,,,12,,6,,0.2
2025-06-22T2100,1125A,125.7194,43.515,长春市,甩湾子,,31,26,17,10,6,32,,110,95,61,27,2,2,0.6,0.5
2025-06-22T2100,1126A,125.3863,43.8447,长春市,经开区环卫处,,36,36,21,20,7,48,,103,94,30,13,6,5,0.4,0.2
2025-06-22T2100,1127A,125.245,43.7783,长春市,高新区管委会,细颗粒物(PM2.5),57,59,19,40,12,25,,105,94,57,18,3,3,0.6,0.3
2025-06-22T2100,1128A,125.1761,43.8325,长春市,岱山公园,,28,26,16,19,9,58,,107,99,38,19,3,3,0.3,0.2
2025-06-22T2100,4281A,125.3346,43.9164,长春市,北亚泰大街1068号,颗粒物(PM10),53,55,21,36,10,14,,98,86,67,19,4,4,0.8,0.3
2025-06-22T2100,1335A,113.0833,28.2325,长沙市,经开区环保局,,32,29,13,22,9,76,,100,95,18,10,4,4,0.4,0.3
2025-06-22T2100,1336A,112.8872,28.2189,长沙市,高开区环保局,,25,24,14,13,8,79,,101,94,10,5,3,3,0.5,0.5
2025-06-22T2100,1337A,113.0792,28.2053,长沙市,马坡岭,,38,28,14,26,11,72,,99,94,18,8,3,3,0.8,0.7
2025-06-22T2100,1338A,112.9394,28.19,长沙市,湖南师范大学,,27,27,10,17,8,72,,104,97,10,5,2,2,0.3,0.2
2025-06-22T2100,1339A,113.0178,28.1322,长沙市,雨花区环保局,,28,25,12,11,7,88,,103,99,8,6,4,4,0.6,0.5
2025-06-22T2100,1340A,112.9792,28.2597,长沙市,伍家岭,,,27,13,13,6,,,96,95,,5,,2,,0.3
2025-06-22T2100,1341A,113.0014,28.1944,长沙市,火车新站,,32,28,12,22,7,81,,98,95,11,4,6,6,0.6,0.5
2025-06-22T2100,1342A,112.9844,28.1178,长沙市,天心区环保局,,29,23,12,17,9,92,,107,104,9,6,1,1,0.8,0.8
2025-06-22T2100,1343A,112.8908,28.1308,长沙市,湖南中医药大学,,26,20,11,14,8,81,,99,92,9,4,3,3,0.5,0.4
2025-06-22T2100,1344A,112.9581,28.3611,长沙市,沙坪,,28,28,17,13,7,69,,93,84,10,7,4,4,0.5,0.5
2025-06-22T2100,1727A,113.1147,36.1547,长治市,清华站,臭氧1小时,63,34,38,14,20,170,,187,181,13,14,8,7,0.5,0.6
2025-06-22T2100,1730A,113.0886,36.2125,长治市,审计局,臭氧1小时,82,27,35,17,22,185,,191,184,11,14,11,12,0.6,1.1
2025-06-22T2100,1731A,113.0844,36.1856,长治市,长治八中,臭氧1小时,92,47,43,21,28,193,,197,194,14,13,14,13,0.8,0.8
2025-06-22T2100,2845A,113.1569,36.1911,长治市,德盛苑,,48,28,34,9,20,152,,180,171,10,10,11,9,0.6,0.9
2025-06-22T2100,3568A,113.06,36.0464,长治市,向阳小学,臭氧1小时,87,61,64,27,28,189,,211,206,11,11,7,7,0.6,0.8
2025-06-22T2100,3569A,112.8792,36.3144,长治市,屯留一中,臭氧1小时,72,46,48,25,29,177,,226,215,13,15,8,11,0.3,0.5
2025-06-22T2100,4189A,113.1131,36.19948,长治市,英华南巷50号,臭氧1小时,68,36,43,12,25,174,,184,177,13,14,9,10,0.5,1.3
2025-06-22T2100,4190A,113.2367,36.3344,长治市,学府街1号,臭氧1小时,55,45,47,11,20,164,,178,175,13,32,4,5,0.3,0.7
2025-06-22T2100,1854A,111.6975,28.9703,常德市,市二中,,21,18,13,14,10,66,,101,89,11,6,3,4,0.7,0.6
2025-06-22T2100,1857A,111.7158,29.1456,常德市,白鹤山,,,,,,,,,,,,,,,,
2025-06-22T2100,3138A,111.7153,29.0289,常德市,武陵区永安,,27,20,12,15,10,86,,113,99,6,4,2,2,0.4,0.3
2025-06-22T2100,3139A,111.6892,28.9881,常德市,鼎城区玉霞,,22,21,14,14,10,69,,110,91,9,6,7,4,0.5,0.5
2025-06-22T2100,3140A,111.6625,29.0531,常德市,武陵区长庚,,25,20,11,14,11,77,,107,93,7,5,2,2,0.4,0.4
2025-06-22T2100,1196A,119.9633,31.762,常州市,市监测站,,26,22,9,18,9,73,,99,88,27,15,1,7,1.0,0.7
2025-06-22T2100,1200A,119.9468,31.7069,常州市,武进监测站,,22,19,14,8,8,68,,88,78,20,18,7,7,1.1,1
2025-06-22T2100,1201A,119.9255,31.9087,常州市,安家,,30,30,23,14,13,59,,92,83,27,20,6,7,0.6,0.9
2025-06-22T2100,3002A,119.9805,31.8174,常州市,行政中心,,20,16,22,13,9,62,,95,86,20,15,6,8,0.3,0.4
2025-06-22T2100,3003A,120.0522,31.7748,常州市,经开区,,28,28,21,18,8,67,,96,83,19,18,5,6,0.8,0.5
2025-06-22T2100,3010A,119.9025,31.7964,常州市,钟楼,,24,24,8,7,7,69,,96,88,18,14,5,5,0.7,0.8
2025-06-22T2100,3429A,119.8598,31.7066,常州市,武进经发区,,26,26,19,13,11,67,,90,78,16,14,4,4,1.0,0.9
2025-06-22T2100,3430A,119.5826,31.7245,常州市,金坛城区,,32,30,12,22,11,69,,99,92,22,15,5,6,0.6,0.5
2025-06-22T2100,2220A,120.4318,41.5881,朝阳市,西梁,颗粒物(PM10),73,96,34,41,17,22,,107,90,55,23,5,7,0.9,0.6
2025-06-22T2100,2221A,120.4521,41.5646,朝阳市,河畔小区,,27,17,25,10,10,84,,113,102,10,14,6,8,0.3,0.5
2025-06-22T2100,2222A,120.4176,41.5648,朝阳市,八里堡,颗粒物(PM10),68,85,40,26,18,32,,115,97,54,24,5,8,0.7,0.6
2025-06-22T2100,2223A,120.3806,41.5969,朝阳市,农业园区,,30,30,26,18,14,24,,101,78,44,20,4,6,0.4,0.5
2025-06-22T2100,1705A,116.6367,23.6719,潮州市,西园路,,31,31,23,8,11,28,,67,57,16,12,12,6,0.5,0.5
2025-06-22T2100,3026A,116.6183,23.6608,潮州市,市政府,,28,28,26,13,9,26,,62,50,16,14,17,10,0.7,0.6
2025-06-22T2100,4036A,116.6461,23.6761,潮州市,金山,,23,23,25,10,13,32,,74,62,14,13,13,9,0.6,0.6
2025-06-22T2100,2472A,113.0073,25.9061,郴州市,马头岭,,20,20,19,12,6,58,,62,62,7,10,7,8,0.4,0.3
2025-06-22T2100,2473A,113.0116,25.8226,郴州市,市职中,,32,26,16,22,10,55,,61,61,8,5,3,6,0.5,0.3
2025-06-22T2100,2475A,113.0383,25.8071,郴州市,市审计局,,31,31,14,18,8,52,,60,59,10,5,3,5,0.5,0.4
2025-06-22T2100,2476A,113.0348,25.7759,郴州市,市环保局,细颗粒物(PM2.5),57,,16,40,15,64,,69,69,11,6,2,5,0.3,0
2025-06-22T2100,4252A,113.0138,25.8011,郴州市,好美居路49号,,22,21,16,10,10,69,,71,71,9,5,6,8,0.6,0.4
2025-06-22T2100,1431A,103.9728,30.7236,成都市,金泉两河,,30,29,29,8,14,96,,131,125,12,16,2,2,0.4,0.4
2025-06-22T2100,1432A,104.176,30.6872,成都市,十里店,,38,36,32,26,17,85,,126,117,13,10,4,4,0.6,0.5
2025-06-22T2100,1433A,104.079,30.5706,成都市,三瓦窑,,28,19,29,19,17,88,,134,126,16,20,3,4,0.6,0.6
2025-06-22T2100,1434A,104.1114,30.63,成都市,沙河铺,,27,27,29,11,15,73,,102,100,16,14,4,4,0.5,0.5
2025-06-22T2100,1437A,104.0786,30.6531,成都市,君平街,,40,,30,28,17,102,,144,138,15,11,4,5,0.9,0.8
2025-06-22T2100,1438A,103.613,31.0283,成都市,灵岩寺,,,,,,,,,,,,,,,,
2025-06-22T2100,2880A,104.0239,30.65639,成都市,大石西路,,28,27,31,19,18,82,,126,120,14,13,4,5,0.6,0.6
2025-06-22T2100,3136A,104.2725,30.5589,成都市,龙泉驿区区政府,,22,19,17,12,12,70,,121,114,15,9,3,4,0.6,0.6
2025-06-22T2100,3357A,104.0106,30.6931,成都市,金博路,,32,31,23,22,14,93,,125,119,18,18,4,4,0.7,0.7
2025-06-22T2100,3359A,104.0578,30.5225,成都市,华阳,,26,14,22,14,20,82,,127,115,15,13,6,7,0.7,0.7
2025-06-22T2100,3488A,104.3853,30.7453,成都市,青白江技师分院,,27,27,30,16,15,83,,114,105,18,14,6,6,0.6,0.6
2025-06-22T2100,3489A,104.0789,30.4072,成都市,科学城,,32,22,21,15,14,100,,132,128,13,10,3,3,0.7,0.6
2025-06-22T2100,4011A,103.8506,30.6947,成都市,光华大道三段,细颗粒物(PM2.5),55,40,36,39,21,88,,163,147,14,13,4,5,0.1,0.2
2025-06-22T2100,4224A,104.2433,30.5353,成都市,鲸龙路1057号,,36,34,29,25,20,74,,125,115,26,14,6,7,0.8,0.7
2025-06-22T2100,1062A,117.9531,40.9081,承德市,铁路,,46,46,23,22,10,53,,116,102,16,13,2,3,0.4,0.3
2025-06-22T2100,1063A,117.9392,40.9763,承德市,中国银行,颗粒物(PM10),51,51,21,34,13,52,,122,109,20,13,3,2,0.4,0.3
2025-06-22T2100,1064A,117.9503,40.928,承德市,开发区,,30,30,34,14,14,66,,123,111,18,14,3,4,0.3,0.4
2025-06-22T2100,1065A,117.8051,40.9655,承德市,文化中心,颗粒物(PM10),53,56,44,24,14,56,,131,118,31,21,1,7,0.4,0.6
2025-06-22T2100,1066A,117.9268,41.0026,承德市,离宫,,40,35,22,28,19,46,,112,92,20,12,3,2,0.3,0.3
2025-06-22T2100,2314A,117.47,30.6618,池州市,池州学院,,30,16,8,11,5,94,,99,99,11,11,4,4,0.7,0.6
2025-06-22T2100,3237A,117.4918,30.6617,池州市,展览馆,,28,18,10,7,6,87,,93,93,12,12,4,4,0.9,0.7
2025-06-22T2100,3333A,117.5627,30.695,池州市,第八中学,,28,24,10,14,7,87,,99,98,16,12,5,5,0.8,0.7
2025-06-22T2100,3334A,117.5038,30.6243,池州市,第十二中学,,30,15,8,9,5,96,,98,98,10,9,3,2,1.0,0.9
2025-06-22T2100,1744A,118.9233,42.2816,赤峰市,松山一中,,31,23,18,13,8,99,,114,111,17,16,9,8,0.4,0.4
2025-06-22T2100,1745A,118.9576,42.2728,赤峰市,哈达街,,32,24,20,17,8,102,,99,99,17,19,12,11,0.6,0.4
2025-06-22T2100,1746A,118.8788,42.2554,赤峰市,天义路,,33,,17,22,10,103,,113,113,15,12,13,10,0.4,0.3
2025-06-22T2100,3058A,119.2658,42.0353,赤峰市,银河街,,47,47,36,21,14,64,,106,98,25,13,53,17,0.6,0.6
2025-06-22T2100,3286A,118.9359,42.3147,赤峰市,桥北物流园区,,34,34,23,18,16,91,,107,103,17,13,12,8,0.5,0.5
2025-06-22T2100,2521A,107.3476,22.4136,崇左市,市环保局江州分局,,28,28,23,7,8,27,,43,39,11,10,6,6,0.6,0.6
2025-06-22T2100,4256A,107.3750,22.3736,崇左市,石景林东路7号,,13,12,18,3,5,22,,50,45,25,11,3,4,0.7,0.8
2025-06-22T2100,2298A,118.3093,32.3153,滁州市,老年大学,,36,36,22,22,12,112,,133,132,25,10,12,10,0.5,0.3
2025-06-22T2100,2299A,118.3244,32.2786,滁州市,人大宾馆,,38,30,15,26,16,108,,129,128,16,7,5,4,0.5,0.3
2025-06-22T2100,3207A,118.3118,32.3038,滁州市,市政府原办公楼,,40,35,20,28,18,118,,135,134,12,5,6,4,0.6,0.4
2025-06-22T2100,3331A,118.3267,32.2634,滁州市,图书馆,,36,28,14,25,15,104,,130,129,13,6,9,9,0.5,0.4
2025-06-22T2100,2605A,101.5482,25.0441,楚雄彝族自治州,州环境监测站,,16,10,13,10,12,51,,73,67,19,12,7,7,0.6,0.6
2025-06-22T2100,2606A,101.538,25.0492,楚雄彝族自治州,市经济开发区,,29,29,15,13,11,52,,75,68,13,10,10,7,0.8,0.7
2025-06-22T2100,2548A,107.5277,31.2827,达州市,达州职业技术学院,,23,23,22,3,2,49,,107,102,37,18,5,6,0.3,0.3
2025-06-22T2100,2549A,107.5086,31.2186,达州市,市环境监测站,,25,25,23,3,2,68,,104,98,44,28,4,5,0.3,0.3
2025-06-22T2100,2550A,107.4988,31.2132,达州市,凤凰小区,,32,12,17,3,4,100,,118,116,19,17,3,3,0.1,0.2
2025-06-22T2100,2551A,107.5082,31.1986,达州市,达县机关宾馆,,25,14,17,3,4,80,,116,112,30,24,5,5,0.3,0.3
2025-06-22T2100,2552A,107.4644,31.2124,达州市,市政中心,,29,22,24,3,2,91,,112,110,18,14,2,2,0.4,0.4
2025-06-22T2100,2614A,100.1542,25.7054,大理白族自治州,大理市环境监测站,,,,6,17,11,,,79,75,13,11,6,5,0.6,0.5
2025-06-22T2100,2615A,100.2171,25.5811,大理白族自治州,大理古城,,26,,7,18,5,65,,76,74,10,6,9,8,0.8,0.7
2025-06-22T2100,1109A,121.612,38.9741,大连市,甘井子,臭氧1小时,108,56,26,50,18,215,,216,216,23,18,12,8,0.8,0.5
2025-06-22T2100,1110A,121.565,38.9511,大连市,周水子,臭氧1小时,109,45,25,34,18,217,,231,231,24,17,13,11,0.6,0.4
2025-06-22T2100,1111A,121.5637,38.8845,大连市,星海三站,臭氧1小时,105,40,27,27,17,209,,212,212,12,10,4,4,0.5,0.3
2025-06-22T2100,1112A,121.6302,38.9117,大连市,青泥洼桥,臭氧1小时,107,56,26,37,16,213,,219,219,19,12,11,9,0.6,0.3
2025-06-22T2100,1113A,121.6251,38.8638,大连市,傅家庄,臭氧1小时,108,33,27,21,20,215,,221,221,15,13,13,10,0.5,0.4
2025-06-22T2100,1114A,121.5213,38.8661,大连市,七贤岭,臭氧1小时,115,45,23,35,19,229,,244,244,16,11,11,8,0.7,0.6
2025-06-22T2100,1115A,121.2529,38.8061,大连市,旅顺,,48,32,29,23,21,151,,207,199,23,22,6,6,0.5,0.4
2025-06-22T2100,1116A,121.7485,39.1311,大连市,金州,臭氧1小时,118,121,62,59,29,235,,270,266,22,21,12,12,0.5,0.5
2025-06-22T2100,1117A,121.7811,39.0496,大连市,开发区,臭氧1小时,130,73,41,58,26,259,,268,268,21,20,9,8,0.7,0.5
2025-06-22T2100,1118A,121.9762,39.0631,大连市,双D港,臭氧1小时,108,62,35,49,19,215,,244,242,23,18,10,11,0.7,0.5
2025-06-22T2100,1789A,124.81117,46.03138,大庆市,大同区,颗粒物(PM10),65,80,20,11,9,60,,91,83,23,8,6,5,0.8,0.6
2025-06-22T2100,1790A,125.129,46.533,大庆市,龙凤区,,40,40,28,14,12,69,,101,93,25,11,13,6,0.4,0.3
2025-06-22T2100,1791A,124.902,46.408,大庆市,红岗区,,37,37,23,22,18,75,,108,102,14,5,10,9,0.4,0.4
2025-06-22T2100,1792A,125.153,46.586,大庆市,萨尔图区,,47,47,27,21,10,71,,84,80,22,12,9,8,0.5,0.5
2025-06-22T2100,1793A,124.9042,46.6215,大庆市,让胡路区,,49,34,20,34,18,64,,100,93,30,7,5,5,0.4,0.2
2025-06-22T2100,3481A,125.141,46.634,大庆市,萨区政府监测点,,46,46,23,14,6,88,,98,95,15,8,7,6,0.4,0.3
2025-06-22T2100,1721A,113.3819,40.1097,大同市,果树场,,,,,,,,,,,,,,,,
2025-06-22T2100,1723A,113.2994,40.0758,大同市,云冈宾馆,,37,37,32,23,13,92,,120,115,18,17,5,7,0.4,0.7
2025-06-22T2100,1724A,113.3444,40.0917,大同市,大同大学,,27,27,38,12,10,81,,125,119,26,16,14,15,0.4,0.5
2025-06-22T2100,1725A,113.2661,40.1269,大同市,安家小村,,32,32,27,15,9,80,,119,114,24,15,4,6,0.4,0.8
2025-06-22T2100,1726A,113.2711,40.0844,大同市,教育学院,,46,34,31,32,16,81,,124,116,35,22,7,10,0.6,0.6
2025-06-22T2100,3282A,113.3397,40.0597,大同市,大同市卫生学校,,30,28,26,10,12,95,,120,116,19,18,6,9,0.4,0.7
2025-06-22T2100,3565A,113.1367,40.1122,大同市,云冈站,,25,19,42,12,15,79,,126,118,8,22,3,6,0.3,0.4
2025-06-22T2100,3566A,113.1186,40.2556,大同市,图书馆,,23,20,21,11,11,72,,124,118,13,8,8,7,0.5,0.5
2025-06-22T2100,3567A,113.5931,40.0461,大同市,区一中,,,,25,13,9,89,,120,116,8,10,12,12,0.3,0.4
2025-06-22T2100,4199A,113.2798,40.0997,大同市,魏都大道141号,,25,23,34,13,14,79,,124,117,30,19,6,9,0.5,0.9
2025-06-22T2100,2269A,124.1069,50.4097,大兴安岭地区,科技局,,47,47,28,19,13,48,,76,69,9,4,8,6,0.5,0.4
2025-06-22T2100,3663A,124.1164,50.4278,大兴安岭地区,红旗社区,,31,31,17,16,12,43,,80,73,9,7,5,5,0.4,0.3
2025-06-22T2100,1600A,124.3303,40.0625,丹东市,江湾东路,,34,34,41,22,23,80,,136,126,28,19,11,7,0.8,0.7
2025-06-22T2100,1601A,124.4256,40.1503,丹东市,临江后街,颗粒物(PM10),95,140,72,22,16,94,,144,130,26,18,9,9,1.1,0.8
2025-06-22T2100,1602A,124.3933,40.1461,丹东市,元宝山,,43,43,34,18,18,99,,123,115,20,15,9,8,1.0,0.8
2025-06-22T2100,1603A,124.3633,40.1092,丹东市,民主桥,,39,39,35,22,22,101,,135,127,14,18,8,9,0.7,0.6
2025-06-22T2100,3541A,109.5726,19.5167,儋州市,第一中学子站,,15,15,10,8,6,29,,34,34,7,3,8,7,0.5,0.4
2025-06-22T2100,3542A,109.5567,19.5187,儋州市,东坡学校子站,,12,12,10,3,4,31,,36,35,6,4,6,6,0.6,0.5
2025-06-22T2100,2616A,98.5842,24.428,德宏傣族景颇族自治州,德宏州监测站,,20,20,18,8,10,31,,38,36,10,9,6,8,0.8,0.7
2025-06-22T2100,3677A,98.5881,24.4368,德宏傣族景颇族自治州,芒市人民政府综合楼,,20,20,27,10,11,19,,35,32,8,8,7,9,0.6,0.5
2025-06-22T2100,1901A,104.4239,31.1208,德阳市,东山公园,,29,,14,12,13,92,,109,107,12,8,5,5,0.7,0.7
2025-06-22T2100,1902A,104.3826,31.1317,德阳市,西小区,,30,18,25,12,15,94,,110,108,12,11,5,5,0.8,0.9
2025-06-22T2100,1904A,104.3553,31.1091,德阳市,耐火材料厂,,29,23,24,16,16,90,,109,107,12,12,7,8,0.5,0.5
2025-06-22T2100,3639A,104.4019,31.1244,德阳市,市教育局,,33,22,21,15,14,104,,118,117,10,7,4,5,0.6,0.6
2025-06-22T2100,1622A,116.3032,37.4674,德州市,儿童乐园,臭氧1小时,72,36,47,17,21,177,,190,187,11,13,7,12,0.4,0.4
2025-06-22T2100,1624A,116.2991,37.4451,德州市,监理站,臭氧1小时,58,48,44,17,21,166,,192,188,25,16,9,11,0.3,0.3
2025-06-22T2100,3066A,116.2721,37.4379,德州市,九衢泉纯净水厂,颗粒物(PM10),57,63,48,17,23,111,,180,163,59,26,5,9,0.6,0.6
2025-06-22T2100,3371A,116.3728,37.4403,德州市,开发区人民医院,臭氧1小时,53,44,48,17,20,162,,183,180,30,19,8,11,0.4,0.5
2025-06-22T2100,3372A,116.3572,37.4094,德州市,太阳城中学,,,,,,,,,,,,,,,,
2025-06-22T2100,3511A,116.5652,37.3319,德州市,陵城艺术中心,,48,48,50,12,22,147,,190,184,22,14,7,10,0.3,0.5
2025-06-22T2100,2621A,99.7056,27.8317,迪庆藏族自治州,迪庆州站,,29,17,21,11,13,91,,102,102,6,9,7,9,0.4,0.4
2025-06-22T2100,3180A,99.7136,27.8094,迪庆藏族自治州,质量技术监督局,,28,16,17,8,7,89,,99,98,8,11,7,7,0.5,0.5
2025-06-22T2100,4257A,104.6092,35.5962,定西市,将台街,,36,29,30,15,15,114,,136,134,13,7,4,4,0.1,0.3
2025-06-22T2100,4309A,104.6159,35.5701,定西市,正龙路62号,,39,26,23,16,16,122,,136,135,4,3,3,4,0.2,0.3
2025-06-22T2100,1389A,113.7547,23.0494,东莞市,莞城梨川,,21,21,14,10,9,32,,56,53,16,11,6,6,0.3,0.3
2025-06-22T2100,1390A,113.7944,23.0128,东莞市,东城石井,,21,21,16,9,7,21,,43,39,20,13,2,2,0.5,0.4
2025-06-22T2100,1391A,113.7383,22.9658,东莞市,南城西平,,15,12,11,10,8,31,,51,49,17,11,3,2,0.6,0.5
2025-06-22T2100,3319A,113.7338,23.0381,东莞市,万江金泰,,19,19,15,8,7,25,,48,45,14,11,2,2,0.7,0.7
2025-06-22T2100,3626A,113.7533,23.0202,东莞市,南城元岭,,16,16,13,7,19,25,,52,48,23,14,5,5,0.5,0.5
2025-06-22T2100,3627A,113.7875,23.0457,东莞市,东城主山,,23,23,16,10,7,32,,51,47,14,12,6,6,0.5,0.5
2025-06-22T2100,1666A,118.6614,37.4309,东营市,市环保局,,44,22,48,3,29,138,,212,200,17,21,5,10,0.3,0.6
2025-06-22T2100,3036A,118.6904,37.4338,东营市,开发区管委会,,46,27,60,3,29,146,,215,205,16,22,7,9,0.3,0.5
2025-06-22T2100,3365A,118.5719,37.565,东营市,垦利区民丰路,,45,29,66,12,35,143,,212,208,22,20,8,9,0.6,0.9
2025-06-22T2100,3498A,118.5055,37.8612,东营市,河口城区,臭氧1小时,57,41,60,3,35,165,,190,190,19,21,1,3,0.5,0.8
2025-06-22T2100,3646A,118.4978,37.4623,东营市,胜利站,,43,29,54,9,31,135,,196,188,25,26,9,10,0.6,0.9
2025-06-22T2100,3734A,118.35,37.26,东营市,理想之城,,45,29,57,17,35,144,,218,203,18,21,5,8,0.5,0.8
2025-06-22T2100,1591A,110.0023,39.8129,鄂尔多斯市,综合楼,,48,48,29,9,9,127,,174,166,30,17,5,5,0.4,0.4
2025-06-22T2100,1592A,109.9486,39.8261,鄂尔多斯市,巴音孟克林场办事处,,48,48,41,17,12,136,,192,182,29,17,7,8,0.7,0.6
2025-06-22T2100,1593A,109.7736,39.5986,鄂尔多斯市,康泽苑,,46,29,44,7,12,147,,192,186,12,18,8,9,0.3,0.4
2025-06-22T2100,1594A,109.8119,39.5989,鄂尔多斯市,华泰汽车城,,42,36,42,12,12,134,,175,169,14,27,6,7,0.3,0.4
2025-06-22T2100,1595A,109.9734,39.7884,鄂尔多斯市,奥林花园,颗粒物(PM10),53,56,37,12,13,136,,189,179,37,26,6,7,0.5,0.6
2025-06-22T2100,2436A,114.8938,30.3994,鄂州市,市政府,,,32,9,20,2,66,,85,81,5,11,4,4,,0.4
2025-06-22T2100,2437A,114.8989,30.3714,鄂州市,赵家坝,,23,23,6,6,3,70,,95,91,10,5,9,8,0.8,0.4
2025-06-22T2100,3654A,114.8094,30.4089,鄂州市,精准医疗中心,,17,15,5,3,0,53,,65,63,7,2,4,4,0.6,0.4
2025-06-22T2100,2454A,109.4978,30.2981,恩施土家族苗族自治州,湖北民院,,23,23,20,10,7,62,,94,84,4,3,4,4,0.4,0.3
2025-06-22T2100,2455A,109.4707,30.2798,恩施土家族苗族自治州,州电力总公司,,22,22,18,10,9,40,,69,60,8,5,6,6,0.3,0.3
2025-06-22T2100,3549A,109.5061,30.3772,恩施土家族苗族自治州,龙凤新区,,20,20,16,6,8,30,,67,53,2,3,4,3,0.4,0.3
2025-06-22T2100,2499A,108.3411,21.6158,防城港市,沙万,,20,20,21,11,9,47,,47,47,6,11,3,2,0.4,0.4
2025-06-22T2100,2500A,108.3514,21.7731,防城港市,防城档案局,,25,19,22,17,10,43,,47,46,6,7,2,2,0.4,0.4
2025-06-22T2100,2501A,108.3506,21.6414,防城港市,大海花园,,36,36,24,7,8,46,,52,51,12,8,3,3,0.4,0.4
2025-06-22T2100,1371A,113.1294,23.0067,佛山市,湾梁,,24,24,16,8,6,17,,61,48,32,22,10,9,0.4,0.4
2025-06-22T2100,1372A,113.1083,23.0478,佛山市,华材职中,,20,17,15,14,7,29,,73,52,18,14,7,6,0.5,0.5
2025-06-22T2100,1373A,113.144,23.0453,佛山市,南海气象局,,28,28,21,10,8,18,,60,47,26,18,5,4,0.6,0.6
2025-06-22T2100,1374A,113.2881,22.8094,佛山市,顺德苏岗,,32,32,17,3,4,28,,45,43,11,13,6,6,0.4,0.4
2025-06-22T2100,1376A,112.8383,22.8678,佛山市,高明孔堂,,22,22,18,7,6,13,,44,31,7,7,5,6,0.6,0.6
2025-06-22T2100,1377A,112.8836,23.1588,佛山市,三水监测站,,29,29,18,6,9,1,,39,25,45,28,4,4,0.7,0.6
2025-06-22T2100,1378A,112.867,23.185,佛山市,三水云东海,,27,27,28,12,10,1,,43,24,27,23,3,2,0.7,0.6
2025-06-22T2100,3625A,113.2544,22.7642,佛山市,容桂街道办,,14,14,9,3,6,24,,41,40,18,18,6,6,0.7,0.7
2025-06-22T2100,1280A,119.3903,26.0543,福州市,鼓山,,,,,,,,,,,,,,,,
2025-06-22T2100,1282A,119.2681,26.0504,福州市,师大,,18,18,25,12,9,34,,88,72,17,8,4,4,0.3,0.2
2025-06-22T2100,1283A,119.2984,26.1028,福州市,五四北路,,19,17,24,12,9,58,,85,78,16,14,4,4,0.3,0.3
2025-06-22T2100,1284A,119.2648,26.0768,福州市,杨桥西路,,27,27,26,10,9,44,,85,71,19,11,3,4,0.3,0.2
2025-06-22T2100,1285A,119.317,26.0746,福州市,紫阳,,22,22,29,10,10,45,,86,74,18,16,4,4,0.3,0.2
2025-06-22T2100,3048A,119.5799,26.0936,福州市,九龙,,28,28,28,9,13,75,,110,97,10,11,4,5,0.2,0.2
2025-06-22T2100,3526A,119.5189,25.9664,福州市,吴航,,23,23,24,9,13,38,,111,90,13,9,5,5,0.4,0.3
2025-06-22T2100,1755A,123.7977,41.8491,抚顺市,望花区,,45,31,37,31,17,50,,137,126,58,35,10,21,0.7,0.8
2025-06-22T2100,1756A,123.9161,41.8822,抚顺市,顺城区,颗粒物(PM10),57,64,47,20,17,25,,136,108,74,42,8,11,0.6,0.9
2025-06-22T2100,1757A,124.0436,41.8611,抚顺市,东洲区,,29,,33,14,16,91,,147,125,16,22,12,12,0.3,0.4
2025-06-22T2100,1758A,123.9247,41.8642,抚顺市,新抚区,颗粒物(PM10),51,52,43,26,18,23,,131,110,62,26,6,9,0.9,0.7
2025-06-22T2100,1759A,124.0972,41.8961,抚顺市,大伙房水库,,24,18,25,11,13,74,,153,114,14,15,7,9,0.3,0.5
2025-06-22T2100,1760A,123.7086,41.8391,抚顺市,沈抚新城,,30,30,40,21,18,59,,146,139,50,41,7,25,0.7,0.7
2025-06-22T2100,2376A,116.2127,28.0814,抚州市,桐源党溪,,16,,20,11,10,43,,52,51,2,3,3,4,0.5,0.3
2025-06-22T2100,2377A,116.3544,27.9831,抚州市,市站,,17,17,18,3,7,54,,61,61,6,3,2,2,1.0,0.7
2025-06-22T2100,2378A,116.3565,27.963,抚州市,血防站,,19,17,20,13,8,52,,58,57,8,5,2,3,0.6,0.5
2025-06-22T2100,2379A,116.3564,28.0007,抚州市,采茶剧团,,17,15,19,6,8,52,,60,59,4,2,4,4,0.5,0.3
2025-06-22T2100,2380A,116.385,27.9647,抚州市,医学分院,,18,14,18,8,7,55,,63,62,3,2,7,4,0.9,0.7
2025-06-22T2100,2207A,121.6094,41.998,阜新市,工业园区,颗粒物(PM10),57,64,34,18,14,76,,138,130,32,24,13,13,0.6,0.4
2025-06-22T2100,2208A,121.6697,42.0279,阜新市,长青街,,33,33,29,17,12,92,,130,127,25,23,34,16,0.7,0.5
2025-06-22T2100,2209A,121.6673,42.0705,阜新市,农业园区,,37,29,26,14,8,116,,131,131,14,15,14,17,0.6,0.5
2025-06-22T2100,2210A,121.6717,42.0224,阜新市,东苑,,35,33,37,14,14,110,,132,131,22,25,19,24,0.6,0.6
2025-06-22T2100,2211A,121.6506,42.0498,阜新市,玉龙新城,,42,42,38,23,15,71,,123,118,42,24,11,9,1.1,0.5
2025-06-22T2100,2301A,115.8277,32.8929,阜阳市,市监测站,颗粒物(PM10),53,55,25,16,10,114,,149,146,17,11,2,3,0.4,0.3
2025-06-22T2100,2303A,115.8554,32.8605,阜阳市,开发区,,42,40,20,16,8,132,,147,147,17,13,6,6,0.2,0.1
2025-06-22T2100,2875A,115.784,32.8892,阜阳市,阜阳职业技术学院,,43,31,12,13,9,137,,149,149,11,10,4,4,0.2,0.2
2025-06-22T2100,3468A,115.7901,32.8613,阜阳市,市规划展馆,,46,46,22,29,12,119,,147,144,14,8,3,3,0.4,0.3
2025-06-22T2100,3469A,115.836,32.9183,阜阳市,枣园社区,颗粒物(PM10),52,54,24,33,14,132,,148,147,14,15,4,4,0.4,0.4
2025-06-22T2100,2669A,102.9099,34.9841,甘南藏族自治州,州政府,,26,21,14,17,14,83,,123,116,20,8,5,4,0.3,0.2
2025-06-22T2100,3380A,102.8914,34.9617,甘南藏族自治州,甘肃民族师范学院,,25,24,15,17,7,76,,124,117,22,6,8,8,0.4,0.3
2025-06-22T2100,2570A,101.9603,30.0475,甘孜藏族自治州,水桥子,,29,13,15,12,8,92,,96,96,8,15,5,5,0.2,0.2
2025-06-22T2100,3065A,101.9533,29.9972,甘孜藏族自治州,州环保局,,30,11,16,6,5,93,,102,102,15,11,2,2,0.4,0.3
2025-06-22T2100,3414A,115.8347,28.932,赣江新区,桑海产业园,,25,6,2,3,1,78,,86,86,12,9,5,6,0.3,0.4
2025-06-22T2100,2362A,114.9017,25.9149,赣州市,通天岩,,19,19,14,3,3,51,,66,65,4,3,1,2,0.4,0.3
2025-06-22T2100,2363A,114.9367,25.8664,赣州市,地委,,21,21,12,10,8,60,,74,73,9,7,1,5,0.6,0.6
2025-06-22T2100,2364A,114.9461,25.8481,赣州市,气象台,,19,19,14,3,4,57,,71,70,4,4,7,7,0.3,0.3
2025-06-22T2100,2365A,114.9322,25.8333,赣州市,市图书馆,,19,13,11,9,6,58,,71,70,5,4,4,4,0.4,0.4
2025-06-22T2100,2366A,114.8905,25.8471,赣州市,华坚鞋城,,22,19,18,13,7,70,,78,77,8,7,3,4,0.4,0.3
2025-06-22T2100,3109A,115.0093,25.8613,赣州市,赣县区卫计委,,20,16,12,10,6,61,,67,67,7,8,2,2,0.2,0.1
2025-06-22T2100,2683A,106.2319,36.1417,固原市,马园,,24,21,32,8,14,65,,122,102,48,26,9,13,0.7,0.7
2025-06-22T2100,2684A,106.2792,36.0022,固原市,监测站,,35,18,33,6,10,110,,124,119,9,12,5,6,0.2,0.2
2025-06-22T2100,2685A,106.2375,36.0211,固原市,新区,,33,21,30,14,15,103,,118,107,12,11,3,4,0.4,0.4
2025-06-22T2100,3522A,106.2177,35.9959,固原市,原州区十五小,,34,22,32,13,16,107,,119,114,10,10,9,10,0.3,0.3
2025-06-22T2100,2543A,106.6308,30.5278,广安市,小平旧居,,,,,,,,,,,,,,,,
2025-06-22T2100,2544A,106.6303,30.4576,广安市,市委,,29,,7,14,11,91,,93,93,10,10,2,2,0.4,0.4
2025-06-22T2100,2545A,106.6271,30.4663,广安市,友谊中学,,33,13,11,8,7,104,,108,108,10,11,5,5,0.6,0.6
2025-06-22T2100,2547A,106.6388,30.4551,广安市,广电花园,,,12,11,,7,85,,93,93,11,8,8,8,0.4,0.4
2025-06-22T2100,2902A,106.6351,30.4865,广安市,北辰小学,,31,,9,9,6,98,,102,102,6,7,7,7,0.6,0.6
2025-06-22T2100,2523A,105.8945,32.4535,广元市,黑石坡,,27,21,22,15,11,84,,83,83,6,9,8,8,0.3,0.4
2025-06-22T2100,2524A,105.821,32.4444,广元市,老城,,28,19,18,17,10,89,,98,98,14,15,2,3,0.9,0.9
2025-06-22T2100,2526A,105.8628,32.4287,广元市,监测站,,28,22,16,16,11,88,,99,99,14,13,7,7,0.5,0.5
2025-06-22T2100,3617A,105.8047,32.4166,广元市,经开区,,27,25,19,14,11,85,,106,105,16,13,3,4,0.6,0.5
2025-06-22T2100,1345A,113.2347,23.1423,广州市,广雅中学,,31,31,20,15,10,28,,82,69,32,21,2,3,0.6,0.6
2025-06-22T2100,1346A,113.2612,23.105,广州市,市五中,,,22,20,12,10,20,,74,68,,14,3,4,0.7,0.5
2025-06-22T2100,1348A,113.3478,23.0916,广州市,广东商学院,,18,18,19,9,10,36,,65,65,26,20,3,3,0.6,0.6
2025-06-22T2100,1349A,113.4332,23.1047,广州市,市八十六中,,21,15,14,6,7,11,,41,39,41,27,3,3,0.6,0.6
2025-06-22T2100,1350A,113.3505,22.9483,广州市,番禺中学,,22,22,16,12,8,12,,58,53,38,19,6,7,0.5,0.5
2025-06-22T2100,1351A,113.2146,23.3916,广州市,花都师范,,47,47,31,24,14,8,,76,46,68,33,3,4,0.8,0.8
2025-06-22T2100,1352A,113.2597,23.1331,广州市,市监测站,,24,24,20,11,9,25,,76,69,18,13,5,6,0.4,0.4
2025-06-22T2100,1353A,113.5618,23.312,广州市,九龙镇镇龙,,28,28,27,12,12,21,,59,58,32,22,6,6,0.4,0.4
2025-06-22T2100,1354A,113.2765,23.1544,广州市,麓湖,,21,21,19,10,9,29,,70,63,21,16,2,2,0.6,0.6
2025-06-22T2100,1355A,113.443,23.3035,广州市,帽峰山森林公园,,26,26,13,8,5,40,,69,64,22,16,7,6,0.5,0.4
2025-06-22T2100,2846A,113.3221,23.1322,广州市,体育西,,25,25,21,13,11,21,,70,65,33,24,5,5,0.4,0.4
2025-06-22T2100,3298A,113.5717,23.5491,广州市,从化街口,,27,27,21,15,10,35,,70,62,26,18,8,8,0.8,0.7
2025-06-22T2100,3299A,113.3472,23.3692,广州市,白云竹料,,47,47,28,25,12,15,,62,47,42,20,3,3,1.0,0.7
2025-06-22T2100,3300A,113.2981,23.237,广州市,白云嘉禾,,25,25,25,10,12,24,,74,58,33,25,5,5,0.9,0.9
2025-06-22T2100,3301A,113.4256,23.1716,广州市,黄埔科学城,,34,34,22,12,9,4,,52,48,43,18,5,4,0.6,0.5
2025-06-22T2100,3302A,113.3942,23.0483,广州市,番禺大学城,,15,15,16,7,8,26,,58,56,26,21,5,4,0.6,0.6
2025-06-22T2100,3303A,113.4922,22.8168,广州市,南沙黄阁,,20,20,16,6,8,32,,50,50,8,8,4,4,0.5,0.5
2025-06-22T2100,3304A,113.5342,22.7896,广州市,南沙街,,22,22,15,6,6,31,,50,49,11,11,2,2,0.5,0.5
2025-06-22T2100,3443A,113.2902,23.5544,广州市,花都梯面,,21,21,20,10,9,15,,71,49,17,19,4,5,0.6,0.6
2025-06-22T2100,3445A,113.7858,23.7478,广州市,从化良口,,20,20,20,12,9,29,,66,57,13,8,6,6,0.6,0.6
2025-06-22T2100,3446A,113.8051,23.2614,广州市,增城荔城,,20,20,20,8,11,31,,61,59,17,15,5,6,0.3,0.4
2025-06-22T2100,2505A,109.568,23.1478,贵港市,德智高中,,,,,,,,,,,,,,,,
2025-06-22T2100,2506A,109.6047,23.0666,贵港市,江南子站,,39,39,35,11,15,23,,58,51,28,15,4,6,0.5,0.5
2025-06-22T2100,2508A,109.5669,23.1065,贵港市,荷城子站,,34,34,25,9,6,27,,53,46,24,14,5,6,0.4,0.3
2025-06-22T2100,3405A,109.5886,23.1172,贵港市,新世纪学校,,19,19,18,12,11,29,,59,49,18,12,4,4,0.4,0.4
2025-06-22T2100,4260A,109.5933,23.0951,贵港市,中山路155-3号,,48,48,32,17,14,26,,61,53,23,15,3,5,0.6,0.5
2025-06-22T2100,1439A,106.6899,26.5998,贵阳市,马鞍山,,,14,11,,2,19,,58,51,11,8,3,3,0.3,0.3
2025-06-22T2100,1441A,106.6243,26.6266,贵阳市,鉴湖路,,22,22,14,3,1,44,,70,64,15,9,7,7,0.4,0.4
2025-06-22T2100,1442A,106.7487,26.6343,贵阳市,燕子冲,,20,19,18,14,16,59,,71,68,10,11,3,4,0.2,0.2
2025-06-22T2100,1443A,106.6555,26.4365,贵阳市,碧云窝,,17,14,16,7,4,52,,78,73,16,10,5,4,0.5,0.4
2025-06-22T2100,1445A,106.7109,26.6027,贵阳市,红边门,,23,9,10,3,4,71,,78,76,5,5,3,3,0.3,0.3
2025-06-22T2100,1446A,106.7164,26.5699,贵阳市,新华路,,20,9,8,9,11,64,,75,70,14,12,1,2,0.5,0.4
2025-06-22T2100,1447A,106.674,26.5424,贵阳市,太慈桥,,14,14,9,7,4,40,,62,56,21,15,4,3,0.5,0.3
2025-06-22T2100,1552A,106.805,26.3003,贵阳市,桐木岭,,25,19,28,9,17,78,,84,84,6,5,3,4,0.8,0.8
2025-06-22T2100,4230A,106.6882,26.5695,贵阳市,花果园大街66号,,18,14,8,8,8,56,,81,68,17,10,3,2,0.5,0.4
2025-06-22T2100,4231A,106.6873,26.5169,贵阳市,漓江路57号,,20,12,10,3,2,62,,80,67,16,12,5,5,0.4,0.3
2025-06-22T2100,1862A,110.4144,25.3167,桂林市,电子科大尧山校区,,,,,,,,,,,,,,,,
2025-06-22T2100,1864A,110.3089,25.2708,桂林市,龙隐路小学,,15,10,20,7,7,48,,56,53,4,7,8,9,0.5,0.5
2025-06-22T2100,1865A,110.2869,25.2178,桂林市,八中,,19,19,19,6,7,48,,55,52,8,11,6,7,0.4,0.4
2025-06-22T2100,3531A,110.296,25.1253,桂林市,旅游学院,,14,,11,3,7,42,,49,49,5,8,1,4,0.3,0.3
2025-06-22T2100,4222A,110.1835,25.2444,桂林市,环湖路276号,,14,9,17,9,9,44,,54,52,8,17,7,5,0.5,0.4
2025-06-22T2100,4301A,110.2803,25.2773,桂林市,信义路13号,,16,16,20,10,10,42,,55,49,11,11,1,2,0.5,0.5
2025-06-22T2100,2674A,100.2561,34.4714,果洛藏族自治州,玛沁县大武镇,,40,28,22,20,15,125,,137,135,1,3,13,14,0.4,0.4
2025-06-22T2100,1129A,126.5422,45.755,哈尔滨市,岭北,,27,27,13,17,8,73,,103,94,22,10,7,9,0.8,0.8
2025-06-22T2100,1130A,126.561,45.8167,哈尔滨市,松北商大,,48,48,16,18,8,40,,88,80,39,10,4,4,0.7,0.5
2025-06-22T2100,1131A,126.979,45.5419,哈尔滨市,阿城会宁,,50,50,21,33,12,31,,107,86,62,18,8,10,0.6,0.6
2025-06-22T2100,1132A,126.599,45.7222,哈尔滨市,南岗学府路,颗粒物(PM10),55,60,22,33,10,42,,96,88,43,11,7,7,0.8,0.5
2025-06-22T2100,1133A,126.689,45.7733,哈尔滨市,太平宏伟公园,,,65,21,22,13,,,92,89,,7,,5,,0.3
2025-06-22T2100,1134A,126.635,45.7667,哈尔滨市,道外承德广场,颗粒物(PM10),52,54,28,23,9,52,,90,85,43,11,8,7,0.7,0.5
2025-06-22T2100,1135A,126.685,45.7319,哈尔滨市,香坊红旗大街,颗粒物(PM10),67,83,18,46,12,35,,101,92,55,10,4,2,1.0,0.6
2025-06-22T2100,1136A,126.6411,45.7258,哈尔滨市,动力和平路,,43,43,17,9,14,59,,101,94,36,12,8,8,0.5,0.3
2025-06-22T2100,1137A,126.593,45.7478,哈尔滨市,道里建国路,细颗粒物(PM2.5),74,,18,54,17,15,,98,82,64,9,7,7,1.2,0.6
2025-06-22T2100,1138A,126.615,45.61,哈尔滨市,平房东轻厂,二氧化氮,52,27,19,6,8,1,,100,79,103,22,11,9,0.4,0.3
2025-06-22T2100,1139A,126.595,45.9855,哈尔滨市,呼兰师专,,32,32,17,21,14,30,,85,74,55,10,9,7,0.4,0.3
2025-06-22T2100,1140A,126.6206,45.6842,哈尔滨市,省农科院,颗粒物(PM10),67,84,31,25,16,6,,89,74,71,15,11,9,0.7,0.6
2025-06-22T2100,2688A,93.5128,42.8172,哈密市,地区监测站,,39,39,38,3,15,116,,124,124,12,7,18,13,0.2,0.1
2025-06-22T2100,2689A,93.4961,42.8328,哈密市,哈密师范学校,,37,23,30,9,10,118,,119,119,10,9,4,6,0.1,0.1
2025-06-22T2100,2671A,100.9048,36.9639,海北藏族自治州,海晏县西海镇,,43,18,12,16,10,135,,146,144,9,5,11,8,0.4,0.3
2025-06-22T2100,3867A,102.0738,36.5056,海东市,平安区公安北苑,,43,33,23,8,14,135,,149,149,7,9,11,11,0.5,0.6
2025-06-22T2100,1409A,110.576,19.9507,海口市,东寨港,,15,15,10,6,7,35,,41,40,3,3,7,9,0.4,0.3
2025-06-22T2100,1410A,110.3232,20.0574,海口市,海南大学,,21,21,14,11,6,37,,48,46,5,3,3,3,0.4,0.3
2025-06-22T2100,1411A,110.283,20.0053,海口市,秀英海南医院,,22,22,20,12,7,28,,46,42,14,6,5,4,0.3,0.3
2025-06-22T2100,1412A,110.338,19.9969,海口市,海南师范大学,,20,18,14,14,7,36,,50,47,6,4,4,4,0.3,0.2
2025-06-22T2100,1413A,110.33,20.0356,海口市,龙华路环保局宿舍,,21,21,15,12,7,36,,48,46,8,4,5,5,0.3,0.2
2025-06-22T2100,3539A,110.5111,19.9736,海口市,桂林洋子站,,14,14,14,7,6,36,,45,42,6,4,5,4,0.2,0.2
2025-06-22T2100,2673A,100.6188,36.2866,海南藏族自治州,共和县恰卜恰镇,,46,22,22,3,8,146,,159,158,7,10,12,12,0.5,0.5
2025-06-22T2100,2676A,97.3731,37.3753,海西蒙古族藏族自治州,德令哈市,臭氧1小时,63,29,18,19,11,170,,170,170,1,1,14,11,0.6,0.6
2025-06-22T2100,1048A,114.5302,36.6116,邯郸市,东污水处理厂,,48,48,51,3,9,146,,188,173,24,29,3,13,0.3,0.8
2025-06-22T2100,1049A,114.4918,36.5713,邯郸市,矿院,臭氧1小时,59,44,39,9,13,167,,202,189,19,25,5,10,0.3,0.5
2025-06-22T2100,1050A,114.484,36.6133,邯郸市,丛台公园,,50,32,40,12,15,157,,193,180,18,21,4,17,0.3,0.9
2025-06-22T2100,3458A,114.7895,36.5593,邯郸市,香泉濮院小区,颗粒物(PM10),51,52,57,3,9,130,,175,163,12,13,5,7,0.0,0.2
2025-06-22T2100,3579A,114.50634,36.77178,邯郸市,永年区实验高中,,47,46,55,18,21,150,,191,177,17,25,4,12,0.4,0.8
2025-06-22T2100,3580A,114.20016,36.44293,邯郸市,峰峰矿区临水派出所,臭氧1小时,106,35,32,16,8,212,,202,202,14,16,6,12,0.7,0.8
2025-06-22T2100,2634A,106.9893,33.1842,汉中市,汉川机床厂子校,,32,32,26,20,13,60,,85,82,16,9,4,4,0.6,0.6
2025-06-22T2100,2635A,107.0154,33.0706,汉中市,市监测站,,27,27,27,15,14,80,,96,94,9,9,6,8,0.7,0.7
2025-06-22T2100,2636A,107.0089,33.1138,汉中市,鑫源开发区,,31,31,25,14,14,61,,88,80,20,12,7,9,0.7,0.8
2025-06-22T2100,2637A,107.007,33.0323,汉中市,南郑大河坎水厂,,24,24,24,16,13,64,,87,84,14,9,6,5,0.6,0.7
2025-06-22T2100,1223A,120.2072,30.2111,杭州市,滨江,,20,16,24,11,14,30,,65,58,40,26,6,6,0.9,0.8
2025-06-22T2100,1224A,120.0633,30.2747,杭州市,西溪,,14,14,14,8,13,44,,52,45,22,17,4,4,0.4,0.4
2025-06-22T2100,1226A,120.3417,30.3150,杭州市,下沙,,22,20,17,15,13,56,,82,78,31,21,4,4,0.5,0.5
2025-06-22T2100,1227A,120.1269,30.2456,杭州市,卧龙桥,,15,12,18,10,13,37,,60,52,19,16,7,7,0.8,0.8
2025-06-22T2100,1228A,120.1903,30.2692,杭州市,浙江农大,,26,12,23,11,17,18,,60,52,51,24,10,10,0.7,0.6
2025-06-22T2100,1230A,120.1197,30.3119,杭州市,和睦小学,,17,10,15,10,9,37,,62,58,33,17,8,8,0.4,0.4
2025-06-22T2100,1231A,120.3019,30.4183,杭州市,临平镇,,20,17,26,11,9,63,,81,80,19,18,5,5,0.5,0.5
2025-06-22T2100,1232A,120.2753,30.1839,杭州市,城厢镇,细颗粒物(PM2.5),64,51,25,46,25,36,,67,64,43,21,7,7,0.9,0.7
2025-06-22T2100,1233A,120.0883,30.1808,杭州市,云栖,,13,9,19,3,7,30,,56,49,25,13,6,6,0.7,0.6
2025-06-22T2100,3557A,119.9464,30.0494,杭州市,镇二中,,18,14,22,12,19,24,,56,51,32,21,3,3,0.8,0.5
2025-06-22T2100,3558A,119.7183,30.2367,杭州市,市府大楼,,18,,4,3,7,56,,62,59,17,13,6,6,0.7,0.6
2025-06-22T2100,3656A,120.1556,30.2864,杭州市,消防大队,,16,13,16,8,17,40,,66,61,31,21,5,5,0.7,0.7
2025-06-22T2100,1270A,117.1959,31.7848,合肥市,明珠广场,,35,19,17,9,12,109,,127,126,16,15,5,4,0.6,0.4
2025-06-22T2100,1271A,117.3072,31.8764,合肥市,三里街,,29,27,14,12,8,92,,116,114,21,13,6,5,0.6,0.5
2025-06-22T2100,1272A,117.2588,31.8707,合肥市,琥珀山庄,,33,24,16,15,14,105,,126,125,14,12,6,6,0.6,0.5
2025-06-22T2100,1273A,117.1604,31.9052,合肥市,董铺水库,,,24,21,,10,86,,117,114,13,7,4,4,0.3,0.3
2025-06-22T2100,1274A,117.25,31.8571,合肥市,长江中路,,34,24,21,18,12,107,,132,130,14,10,6,6,0.7,0.6
2025-06-22T2100,1275A,117.266,31.9436,合肥市,庐阳区,,30,27,16,19,9,93,,126,123,17,10,8,8,0.7,0.6
2025-06-22T2100,1276A,117.3453,31.8616,合肥市,瑶海区,,31,22,18,10,9,97,,122,120,18,12,6,6,0.6,0.5
2025-06-22T2100,1277A,117.3027,31.7964,合肥市,包河区,,35,17,15,12,9,109,,120,120,10,26,4,4,0.7,0.6
2025-06-22T2100,1278A,117.2776,31.7385,合肥市,滨湖新区,,33,17,14,14,14,104,,116,116,14,10,8,8,0.6,0.5
2025-06-22T2100,1279A,117.1318,31.8403,合肥市,高新区,,30,24,18,14,11,93,,117,115,17,14,6,7,0.5,0.5
2025-06-22T2100,3464A,117.3803,31.9147,合肥市,高教基地,,26,24,16,14,9,82,,121,115,14,9,6,6,0.6,0.4
2025-06-22T2100,3614A,79.924,37.0877,和田地区,地区环保局,颗粒物(PM10),153,256,297,62,80,111,,123,122,14,14,1,2,0.5,0.5
2025-06-22T2100,3615A,79.9131,37.113,和田地区,市环保局,颗粒物(PM10),159,268,278,97,93,105,,118,118,15,18,1,1,0.3,0.3
2025-06-22T2100,2516A,108.2011,24.715,河池市,东仁乐园,,,,,,,,,,,,,,,,
2025-06-22T2100,2517A,108.0497,24.6947,河池市,市环保站,,12,9,20,3,10,36,,49,46,6,6,3,3,0.5,0.6
2025-06-22T2100,2518A,108.0983,24.6989,河池市,市疾控中心,,11,9,17,6,8,35,,54,49,16,11,2,3,0.6,0.6
2025-06-22T2100,1696A,114.6778,23.7569,河源市,源西,,20,17,17,14,13,32,,64,54,19,12,3,4,0.6,0.5
2025-06-22T2100,1697A,114.6944,23.7586,河源市,东埔,,17,17,15,9,7,35,,64,58,16,12,4,4,0.5,0.4
2025-06-22T2100,1698A,114.6892,23.7233,河源市,老城,,20,20,17,11,10,30,,64,55,16,8,3,4,0.3,0.2
2025-06-22T2100,1718A,115.4208,35.2464,菏泽市,气象局,,45,45,42,14,22,124,,183,175,24,13,2,3,0.4,0.4
2025-06-22T2100,3374A,115.5564,35.0891,菏泽市,定陶老年大学,,43,29,32,9,15,135,,182,171,19,14,2,3,0.2,0.3
2025-06-22T2100,4184A,115.4797,35.24401,菏泽市,永昌路1号,,42,30,38,9,15,132,,185,174,18,10,4,5,0.2,0.2
2025-06-22T2100,4193A,115.4715,35.2800,菏泽市,长城路999号,,47,33,41,8,18,148,,194,186,19,13,3,4,0.3,0.3
2025-06-22T2100,2514A,111.5264,24.4172,贺州市,环保小区,,18,16,19,8,14,57,,65,64,5,8,10,10,0.6,0.6
2025-06-22T2100,2515A,111.5608,24.4078,贺州市,政协大楼,,25,25,18,3,12,48,,66,63,12,10,12,12,0.6,0.5
2025-06-22T2100,3534A,111.4744,24.4553,贺州市,西湾,,23,23,22,12,16,28,,62,55,27,11,10,10,0.6,0.5
2025-06-22T2100,2385A,114.17,35.9019,鹤壁市,市监测站,臭氧1小时,62,48,43,29,28,169,,190,189,15,12,9,8,0.8,0.8
2025-06-22T2100,2386A,114.2956,35.7511,鹤壁市,市交警支队,臭氧1小时,58,46,48,23,24,166,,185,185,18,21,10,5,0.6,0.6
2025-06-22T2100,2387A,114.2878,35.7306,鹤壁市,迎宾馆,臭氧1小时,58,35,54,32,30,166,,182,182,15,18,6,5,0.6,0.7
2025-06-22T2100,3474A,114.2617,35.6822,鹤壁市,大新区,,48,42,55,17,30,152,,183,178,18,24,7,7,0.5,0.6
2025-06-22T2100,3596A,114.1572,35.9603,鹤壁市,南山宾馆,臭氧1小时,79,52,55,31,31,183,,200,200,12,11,5,6,0.5,0.5
2025-06-22T2100,2244A,130.2537,47.3416,鹤岗市,哈啤分公司,,28,22,14,19,7,32,,88,76,22,5,14,15,0.2,0.2
2025-06-22T2100,2245A,130.2684,47.3086,鹤岗市,斯达机电,,35,35,23,23,15,52,,85,79,12,6,13,13,0.4,0.3
2025-06-22T2100,2246A,130.3114,47.3388,鹤岗市,东山纸板厂,颗粒物(PM10),52,54,29,10,11,9,,82,66,25,9,15,14,0.6,0.6
2025-06-22T2100,2247A,130.1097,47.3382,鹤岗市,五号水库,,15,15,10,6,6,41,,85,75,13,7,12,12,0.5,0.5
2025-06-22T2100,2263A,127.4833,50.2524,黑河市,交通局,,34,34,22,17,11,57,,66,66,13,7,6,6,0.4,0.3
2025-06-22T2100,2264A,127.5144,50.2341,黑河市,环保局,,42,42,20,9,10,63,,74,74,9,5,8,6,0.4,0.3
2025-06-22T2100,2265A,127.5291,50.2472,黑河市,大黑河岛,,28,,9,19,12,57,,63,63,7,4,30,19,0.4,0.4
2025-06-22T2100,1074A,115.6838,37.7541,衡水市,电机北厂,臭氧1小时,55,38,43,24,15,164,,190,178,10,13,3,5,0.3,0.3
2025-06-22T2100,1075A,115.6303,37.7316,衡水市,市监测站,,50,43,45,11,13,159,,188,173,11,14,6,7,0.3,0.2
2025-06-22T2100,3188A,115.6683,37.7217,衡水市,市城管局,臭氧1小时,59,46,47,26,18,167,,196,182,10,15,3,4,0.3,0.3
2025-06-22T2100,3459A,115.5989,37.5491,衡水市,地表水厂,颗粒物(PM10),56,61,52,13,13,144,,186,171,30,33,7,8,0.4,0.3
2025-06-22T2100,2456A,112.5003,26.9167,衡阳市,原169医院,,21,14,15,3,5,66,,79,77,15,9,3,2,0.6,0.5
2025-06-22T2100,2457A,112.6194,26.9258,衡阳市,衡阳化工总厂,,22,22,16,15,9,70,,70,70,12,7,4,4,0.7,0.5
2025-06-22T2100,2458A,112.6211,26.8956,衡阳市,珠晖区环保局,,,13,12,,,80,,77,77,12,8,6,6,0.8,0.5
2025-06-22T2100,2459A,112.6197,26.8733,衡阳市,市委党校,,26,14,12,3,5,82,,76,76,8,7,6,5,0.6,0.5
2025-06-22T2100,2460A,112.6006,26.8919,衡阳市,市监测站,,25,14,14,13,11,80,,73,73,10,7,6,6,0.6,0.4
2025-06-22T2100,2461A,112.5664,26.9056,衡阳市,真空机电公司,,23,,14,11,11,72,,66,66,9,6,6,6,1.2,0.8
2025-06-22T2100,3399A,112.6703,26.882,衡阳市,师范学院,,27,,11,8,6,86,,84,84,8,7,5,5,0.8,0.7
2025-06-22T2100,2608A,103.3772,23.3993,红河哈尼族彝族自治州,污水处理厂,,23,23,12,11,9,21,,35,33,8,4,7,7,0.5,0.4
2025-06-22T2100,2609A,103.3861,23.35,红河哈尼族彝族自治州,监测站,,17,17,18,7,10,27,,37,35,5,4,8,6,0.3,0.3
2025-06-22T2100,3038A,103.3758,23.368,红河哈尼族彝族自治州,州图书馆,,18,12,7,12,9,27,,39,37,8,5,4,2,0.3,0.2
2025-06-22T2100,1090A,111.6507,40.7517,呼和浩特市,呼市一监,,36,36,17,13,9,97,,131,125,19,12,8,8,0.4,0.4
2025-06-22T2100,1091A,111.6572,40.8033,呼和浩特市,小召,,36,31,16,14,9,115,,134,132,18,18,6,5,0.4,0.3
2025-06-22T2100,1094A,111.7516,40.8369,呼和浩特市,如意水处理厂,,35,35,22,15,12,100,,132,129,24,18,5,5,0.3,0.3
2025-06-22T2100,1095A,111.7276,40.8062,呼和浩特市,二十九中,,37,30,19,14,11,116,,136,134,13,14,5,5,0.4,0.5
2025-06-22T2100,1096A,111.5512,40.7866,呼和浩特市,工大金川校区,,40,40,23,16,10,98,,134,130,25,19,7,6,0.4,0.4
2025-06-22T2100,1097A,111.717,40.7612,呼和浩特市,化肥厂生活区,,34,33,24,10,9,106,,138,133,28,17,7,7,0.2,0.3
2025-06-22T2100,3698A,111.5968,40.8178,呼和浩特市,红旗小学,,36,31,16,12,9,114,,140,137,24,15,4,3,0.3,0.3
2025-06-22T2100,3699A,111.6518,40.8389,呼和浩特市,海东办,,36,27,18,13,9,114,,136,134,16,22,4,4,0.3,0.3
2025-06-22T2100,2192A,119.7594,49.2261,呼伦贝尔市,区环保局,,46,,29,32,22,67,,94,88,15,15,5,5,0.4,0.4
2025-06-22T2100,3061A,119.7512,49.1577,呼伦贝尔市,国华电力东,,31,31,28,10,15,58,,103,94,9,9,4,4,0.4,0.4
2025-06-22T2100,1250A,120.0751,30.8669,湖州市,城西水厂,,25,6,18,3,14,79,,91,79,13,14,5,5,0.5,0.5
2025-06-22T2100,2873A,120.0830,30.8929,湖州市,仁皇山新区,,25,6,14,3,11,77,,88,75,15,15,4,4,0.6,0.6
2025-06-22T2100,2907A,120.1844,30.8596,湖州市,吴兴区站,,24,9,12,3,10,74,,87,75,15,14,6,6,0.4,0.4
2025-06-22T2100,3562A,120.4148,30.8538,湖州市,南浔区站,,21,8,16,6,14,66,,84,68,17,16,4,4,0.5,0.6
2025-06-22T2100,1607A,120.9049,40.7211,葫芦岛市,龙港区,,43,,40,17,16,137,,139,139,21,28,11,25,0.5,0.6
2025-06-22T2100,1608A,120.8392,40.7514,葫芦岛市,化工街,,,83,30,19,9,116,,130,130,35,46,,11,0.5,0.5
2025-06-22T2100,1609A,120.8341,40.7073,葫芦岛市,新区,,45,29,34,16,14,142,,150,150,17,31,11,13,0.6,0.7
2025-06-22T2100,1610A,120.8695,40.7677,葫芦岛市,东城区,颗粒物(PM10),51,51,43,25,15,117,,126,125,34,49,12,17,0.8,0.7
2025-06-22T2100,2482A,109.5981,27.5721,怀化市,林科所,,22,7,7,3,3,69,,89,65,4,2,4,5,0.3,0.3
2025-06-22T2100,2483A,109.9453,27.5444,怀化市,河西地税局,,17,9,6,7,4,52,,80,62,6,4,4,5,0.2,0.1
2025-06-22T2100,2484A,109.9781,27.5342,怀化市,市四医院,,15,9,8,3,5,48,,70,55,4,3,1,1,0.6,0.6
2025-06-22T2100,2485A,109.9972,27.5578,怀化市,监测楼,,16,6,7,3,4,49,,71,57,5,5,3,3,0.1,0
2025-06-22T2100,2486A,110.0394,27.583,怀化市,市委党校,,21,8,5,3,4,66,,76,61,3,3,3,3,0.2,0.2
2025-06-22T2100,1210A,119.036,33.5981,淮安市,钵池山,,45,39,28,26,22,143,,164,162,20,16,8,8,0.6,0.7
2025-06-22T2100,1211A,119.007,33.575,淮安市,北京南路,,45,34,31,28,22,141,,160,157,7,17,7,7,0.6,0.6
2025-06-22T2100,1212A,118.989,33.6067,淮安市,市监测站,臭氧1小时,52,44,33,27,24,161,,182,179,14,20,10,9,0.5,0.5
2025-06-22T2100,1213A,119.135,33.5039,淮安市,楚州区监测站,,50,44,36,35,19,117,,150,147,9,18,8,8,0.7,0.7
2025-06-22T2100,3426A,118.8755,33.2894,淮安市,新华书店,,39,39,25,21,15,120,,160,152,17,10,8,9,0.5,0.4
2025-06-22T2100,4206A,119.0288,33.6319,淮安市,承德北路606号,,44,41,42,23,20,140,,160,157,11,14,6,5,0.6,0.6
2025-06-22T2100,2282A,116.8004,33.975,淮北市,监测站,,43,26,29,16,20,137,,163,158,10,6,7,7,0.8,0.7
2025-06-22T2100,2283A,116.8091,33.9007,淮北市,烈山区政府,,43,43,52,17,19,130,,161,159,12,8,8,7,0.6,0.6
2025-06-22T2100,3330A,116.8873,33.9836,淮北市,杜集区检察院,,40,40,41,16,26,124,,161,156,8,5,8,8,0.8,0.8
2025-06-22T2100,4017A,116.7923,33.9535,淮北市,市博物馆,,44,35,33,16,17,138,,166,163,8,4,8,8,0.7,0.8
2025-06-22T2100,2277A,116.8305,32.7727,淮南市,潘集区政府,,36,26,23,25,20,110,,142,140,7,10,3,3,0.4,0.4
2025-06-22T2100,2279A,116.8569,32.5951,淮南市,谢家集区政府,,31,26,21,7,14,99,,132,127,13,10,5,6,0.3,0.2
2025-06-22T2100,2280A,116.8281,32.633,淮南市,八公山区政府,,33,23,20,8,11,105,,135,132,9,7,6,4,0.3,0.2
2025-06-22T2100,2281A,116.6325,32.6201,淮南市,焦岗湖风景区管理处,,,,,,,,,,,,,,,,
2025-06-22T2100,2894A,117.0566,32.6531,淮南市,经济技术开发区消防队,,35,23,22,8,11,111,,132,126,11,8,7,6,0.3,0.3
2025-06-22T2100,3329A,117.0108,32.5893,淮南市,山南新区,,32,25,10,8,8,101,,132,126,10,5,7,7,0.5,0.4
2025-06-22T2100,4209A,117.0031,32.6445,淮南市,国庆中路369号,,50,50,22,15,15,112,,135,132,14,8,7,7,0.4,0.2
2025-06-22T2100,2446A,114.9028,30.4742,黄冈市,职工中心,,24,14,6,11,4,76,,94,85,2,2,8,7,0.6,0.4
2025-06-22T2100,2929A,114.8858,30.4519,黄冈市,红卫路,,26,26,13,11,11,66,,92,85,8,2,5,4,0.5,0.3
2025-06-22T2100,3398A,114.9136,30.4445,黄冈市,市林业局,,33,33,11,18,9,66,,86,80,7,2,8,6,0.8,0.3
2025-06-22T2100,2672A,102.0199,35.5102,黄南藏族自治州,同仁县隆务镇,,31,29,17,3,4,99,,116,116,2,2,6,6,0.2,0.2
2025-06-22T2100,2295A,118.2903,29.6963,黄山市,延安路89号,,10,7,4,3,4,31,,41,39,5,4,5,5,0.5,0.5
2025-06-22T2100,2297A,118.1371,30.2756,黄山市,黄山区政府5号楼,,24,,6,3,6,74,,64,64,4,3,4,4,0.5,0.6
2025-06-22T2100,4210A,118.3354,29.7203,黄山市,滨江东路7-2号,,14,14,12,3,5,35,,44,42,4,5,4,4,0.4,0.4
2025-06-22T2100,2423A,115.0601,30.2313,黄石市,沈家营,,17,15,9,3,0,53,,89,82,7,4,6,6,0.9,0.7
2025-06-22T2100,2426A,114.8988,30.2019,黄石市,铁山,,13,13,12,3,3,41,,79,68,17,13,4,4,0.6,0.6
2025-06-22T2100,2427A,115.0307,30.2092,黄石市,团城山,,25,18,7,3,0,78,,94,90,2,2,6,7,0.3,0.3
2025-06-22T2100,3149A,115.0235,30.1578,黄石市,笔架山北路,,,7,8,,0,62,,87,80,6,7,5,4,0.5,0.4
2025-06-22T2100,4185A,115.0780,30.21118,黄石市,磁湖东路29号,,23,18,8,8,1,73,,87,84,14,7,7,6,0.7,0.5
2025-06-22T2100,1392A,114.4183,23.0528,惠州市,河南岸金山湖子站,,27,27,20,12,10,24,,40,34,21,15,6,6,0.6,0.5
2025-06-22T2100,1393A,114.4053,23.0822,惠州市,下埔横江三路子站,,36,36,24,17,12,29,,45,40,27,18,5,5,0.3,0.3
2025-06-22T2100,1394A,114.4103,23.1142,惠州市,江北云山西路子站,,31,31,24,19,12,28,,46,41,25,16,14,8,0.6,0.5
2025-06-22T2100,1395A,114.4645,22.7833,惠州市,惠阳区承修路船湖子站,,,,18,,8,,,28,,,13,,6,,0.5
2025-06-22T2100,1396A,114.5317,22.7422,惠州市,大亚湾管委会子站,,15,12,13,6,6,48,,52,52,6,10,9,9,0.5,0.5
2025-06-22T2100,3314A,114.4338,22.8134,惠州市,惠阳秋长,,22,22,26,8,12,38,,55,52,14,18,9,10,0.4,0.5
2025-06-22T2100,3452A,114.6517,22.775,惠州市,大亚湾霞涌,,14,,13,8,6,44,,55,53,11,10,5,6,0.2,0.2
2025-06-22T2100,2240A,130.9762,45.3001,鸡西市,环保局,,23,20,13,11,7,73,,85,82,11,8,4,4,0.4,0.4
2025-06-22T2100,2243A,130.9429,45.3039,鸡西市,第一中学,,18,14,13,10,6,56,,83,74,14,5,7,7,0.3,0.2
2025-06-22T2100,3707A,131.0207,45.3073,鸡西市,欧美日汽修厂,,23,20,14,7,6,71,,91,84,12,7,6,6,0.6,0.5
2025-06-22T2100,3709A,130.9967,45.3106,鸡西市,市政设施管理处,,25,25,14,15,8,60,,87,78,18,10,4,4,0.5,0.4
2025-06-22T2100,2367A,114.9754,27.0803,吉安市,红声器材厂,,18,13,17,12,6,57,,73,66,9,6,7,9,1.0,0.6
2025-06-22T2100,2368A,114.9658,27.0999,吉安市,市森林工业局,,18,18,19,11,6,54,,78,69,10,7,7,8,0.5,0.4
2025-06-22T2100,2369A,114.99,27.1312,吉安市,市环境监测站,,20,16,17,12,7,61,,83,72,5,3,13,15,0.9,0.4
2025-06-22T2100,2370A,115.0093,27.0968,吉安市,青原区法院,,20,20,17,8,5,54,,74,63,10,8,6,8,0.5,0.4
2025-06-22T2100,1772A,126.54,43.8622,吉林市,哈达湾,颗粒物(PM10),80,109,19,19,9,53,,117,110,35,14,8,7,0.5,0.2
2025-06-22T2100,1773A,126.5844,43.8358,吉林市,东局子,,38,,18,26,12,49,,105,95,46,19,6,6,0.9,0.6
2025-06-22T2100,1774A,126.5052,43.8245,吉林市,电力学院,颗粒物(PM10),61,71,17,37,8,36,,110,96,35,16,5,5,0.6,0.4
2025-06-22T2100,1775A,126.6133,43.8972,吉林市,江北,,38,38,23,16,9,68,,111,103,28,18,7,9,0.5,0.4
2025-06-22T2100,1776A,126.555,43.8306,吉林市,江南公园,,29,29,16,19,12,65,,104,99,22,16,4,4,0.4,0.6
2025-06-22T2100,1778A,126.7061,43.7133,吉林市,丰满,,,,,,,,,,,,,,,,
2025-06-22T2100,2868A,126.4739,43.953,吉林市,九站,,26,19,14,14,7,82,,119,111,37,22,4,6,0.2,0.2
2025-06-22T2100,1299A,116.9862,36.6114,济南市,科干所,,46,14,29,12,17,146,,177,170,9,13,6,6,0.5,0.6
2025-06-22T2100,1300A,116.9376,36.665,济南市,农科所,,38,34,38,15,14,120,,180,159,26,20,7,8,0.3,0.3
2025-06-22T2100,1301A,117.1265,36.6734,济南市,开发区,,43,24,32,15,18,136,,183,166,20,18,7,8,0.7,0.7
2025-06-22T2100,1303A,117.0624,36.6868,济南市,省种子仓库,,42,31,39,9,15,134,,198,180,24,18,6,7,0.4,0.4
2025-06-22T2100,1304A,116.9489,36.6447,济南市,机床二厂,,44,29,42,7,17,140,,187,173,19,27,4,6,0.5,0.5
2025-06-22T2100,1305A,117.0495,36.663,济南市,市监测站,,,32,34,10,16,140,,185,170,,14,9,10,0.4,0.5
2025-06-22T2100,1306A,116.7675,36.5484,济南市,长清党校,,45,,28,24,23,143,,176,168,22,22,5,6,0.4,0.4
2025-06-22T2100,1616A,117.6795,36.229,济南市,技术学院,,31,31,25,17,17,84,,147,130,32,30,7,9,0.6,0.8
2025-06-22T2100,1961A,117.532,36.6868,济南市,东山小学,,38,17,30,7,14,120,,185,170,17,14,7,7,0.2,0.2
2025-06-22T2100,3059A,117.7161,36.2049,济南市,泰兴公司,,23,22,29,7,16,72,,156,132,42,36,6,9,0.5,0.7
2025-06-22T2100,3064A,117.6867,36.2171,济南市,莱芜战役纪念馆,,29,29,35,17,19,90,,148,132,21,28,6,8,0.9,1.2
2025-06-22T2100,3494A,117.1673,36.9782,济南市,济阳区政府,颗粒物(PM10),61,71,52,12,19,138,,193,183,36,19,8,9,0.4,0.5
2025-06-22T2100,3495A,117.1171,36.63,济南市,锦屏中学,,40,27,28,20,14,127,,180,168,19,16,10,10,0.6,0.6
2025-06-22T2100,3682A,116.9814,36.6819,济南市,济南四建,,42,24,33,17,21,132,,186,169,23,22,6,6,0.4,0.4
2025-06-22T2100,1653A,116.6251,35.4302,济宁市,火炬城,,45,29,42,12,21,141,,168,166,12,9,5,5,0.4,0.5
2025-06-22T2100,1655A,116.5491,35.4042,济宁市,电化厂,,43,38,46,22,31,135,,182,177,16,11,4,4,0.6,0.6
2025-06-22T2100,3500A,116.5814,35.3707,济宁市,北湖一中,,46,34,50,24,33,146,,197,190,20,14,8,8,0.3,0.4
2025-06-22T2100,3501A,116.8249,35.5593,济宁市,服务中心,,44,35,37,20,21,139,,162,160,25,16,3,2,0.3,0.3
2025-06-22T2100,3678A,116.5907,35.4054,济宁市,市第七中学,,47,23,46,12,22,148,,180,178,7,6,9,9,0.4,0.5
2025-06-22T2100,2255A,130.2751,46.8028,佳木斯市,佳纺,,30,30,12,11,6,48,,67,61,12,8,5,3,0.4,0.3
2025-06-22T2100,2256A,130.3995,46.8307,佳木斯市,发电厂,,41,41,16,13,7,47,,74,63,16,9,4,4,0.4,0.4
2025-06-22T2100,2257A,130.3258,46.7975,佳木斯市,环保局,,29,29,15,7,9,37,,70,60,21,10,3,3,0.4,0.4
2025-06-22T2100,2258A,130.3648,46.8032,佳木斯市,十一中,,28,28,14,17,9,46,,73,66,16,8,6,5,0.5,0.3
2025-06-22T2100,2259A,130.3794,46.7588,佳木斯市,四丰,,,34,11,,,,,,,10,8,1,1,0.5,0.4
2025-06-22T2100,1252A,120.7436,30.778,嘉兴市,清河小学,,28,12,20,8,12,89,,93,93,10,16,7,7,0.8,0.9
2025-06-22T2100,1253A,120.726,30.7478,嘉兴市,嘉兴学院,,27,15,18,12,16,85,,88,88,11,16,4,4,0.5,0.6
2025-06-22T2100,2872A,120.7846,30.7525,嘉兴市,南湖区残联,,25,18,26,9,13,79,,87,87,11,14,5,5,0.6,0.7
2025-06-22T2100,3407A,120.6916,30.7739,嘉兴市,秀洲住建,,26,10,15,7,10,83,,90,89,14,17,5,6,0.7,0.7
2025-06-22T2100,1945A,98.2908,39.7711,嘉峪关市,气象局,,,24,28,9,14,126,,131,131,11,16,14,33,,1.1
2025-06-22T2100,2884A,98.2672,39.7978,嘉峪关市,酒钢宾馆,,41,27,46,12,19,129,,134,134,7,14,25,57,0.4,0.6
2025-06-22T2100,3248A,98.2643,39.7724,嘉峪关市,雄关区,,41,32,38,12,22,131,,131,131,10,21,13,24,0.0,0.5
2025-06-22T2100,1383A,113.1064,22.6058,江门市,北街,,,,19,6,9,28,,39,38,8,10,2,2,0.4,0.4
2025-06-22T2100,1384A,113.0731,22.5835,江门市,西区,,24,24,19,13,8,30,,45,42,8,9,8,8,0.4,0.4
2025-06-22T2100,1385A,113.0219,22.5311,江门市,圭峰西,,10,7,17,6,7,30,,44,41,7,7,3,3,0.4,0.4
2025-06-22T2100,1386A,113.0828,22.5947,江门市,东湖,,16,16,16,7,7,29,,43,40,10,10,6,6,0.4,0.4
2025-06-22T2100,3311A,113.1075,22.5647,江门市,江海富民,,29,29,23,12,9,30,,44,41,9,9,8,9,0.4,0.4
2025-06-22T2100,3449A,113.05,22.4667,江门市,新会银湖,,15,10,25,10,8,29,,39,36,5,7,2,2,0.3,0.3
2025-06-22T2100,1830A,113.1992,35.2590,焦作市,影视城,,,,,,,,,,,,,,,,
2025-06-22T2100,3169A,113.2725,35.2067,焦作市,太极体育中心,臭氧1小时,64,70,58,22,27,171,,246,233,32,27,4,5,0.3,0.3
2025-06-22T2100,3335A,113.3137,35.2641,焦作市,马村街道办,颗粒物(PM10),64,77,49,32,28,166,,220,211,20,16,15,12,0.6,0.5
2025-06-22T2100,3336A,113.2465,35.2373,焦作市,焦作技师学院,颗粒物(PM10),54,57,44,17,17,161,,213,207,16,14,5,6,0.6,0.6
2025-06-22T2100,3477A,113.1656,35.2539,焦作市,中站许衡医院,臭氧1小时,83,50,46,36,29,186,,223,220,14,27,7,10,0.4,0.5
2025-06-22T2100,3981A,113.2449,35.1803,焦作市,原李万街道办,"颗粒物(PM10),臭氧1小时",59,68,56,19,21,167,,224,216,23,21,11,13,0.8,0.8
2025-06-22T2100,4264A,113.2340,35.2190,焦作市,新安路1731号,臭氧1小时,65,55,47,25,21,172,,222,216,15,12,5,7,0.3,0.3
2025-06-22T2100,1708A,116.3701,23.5345,揭阳市,新兴,,18,,18,12,10,39,,53,47,9,8,4,5,0.5,0.5
2025-06-22T2100,1709A,116.3264,23.5443,揭阳市,西马,,24,24,21,10,9,32,,45,40,11,9,1,2,0.6,0.5
2025-06-22T2100,1710A,116.3611,23.5626,揭阳市,东兴,,20,20,24,13,8,43,,60,53,10,10,2,2,0.5,0.4
2025-06-22T2100,1711A,116.4151,23.5294,揭阳市,渔湖,,20,,26,14,11,32,,49,44,12,13,9,7,0.3,0.3
2025-06-22T2100,3320A,116.403,23.5699,揭阳市,曲溪,,18,16,15,12,7,47,,63,58,4,6,3,4,0.4,0.4
2025-06-22T2100,1944A,102.1692,38.5167,金昌市,天庆家园,,36,36,21,22,14,82,,116,114,28,13,24,15,0.7,0.7
2025-06-22T2100,4022A,102.1647,38.5371,金昌市,金川区人防中心,,37,37,26,13,15,107,,128,128,13,12,19,15,0.6,0.6
2025-06-22T2100,4239A,102.1930,38.5319,金昌市,长春路96号,,35,26,26,8,12,111,,130,129,10,12,37,12,0.4,0.5
2025-06-22T2100,1262A,119.647,29.077,金华市,十五中,,48,48,38,30,18,72,,78,77,18,19,2,2,0.6,0.5
2025-06-22T2100,1263A,119.686,29.1029,金华市,监测站,颗粒物(PM10),54,57,39,33,20,64,,64,63,14,20,1,2,0.3,0.2
2025-06-22T2100,3659A,119.656,29.1131,金华市,气象局,,44,44,35,26,17,45,,58,54,24,23,2,3,0.4,0.4
2025-06-22T2100,1767A,121.1115,41.0879,锦州市,南山,,35,,29,24,17,56,,130,112,47,28,8,19,0.5,0.6
2025-06-22T2100,1768A,121.0604,40.8428,锦州市,开发区,,,118,44,,17,106,,139,133,47,38,155,44,1.5,0.8
2025-06-22T2100,1769A,121.1836,41.1119,锦州市,百股街道,,17,,37,7,11,49,,130,112,34,26,4,14,0.5,0.7
2025-06-22T2100,1770A,121.1178,41.1222,锦州市,天安街道,,31,31,30,12,13,71,,135,122,35,31,5,9,0.6,0.7
2025-06-22T2100,1771A,121.1303,41.1386,锦州市,北湖公园,,24,,26,13,13,74,,129,121,28,23,5,10,0.5,0.5
2025-06-22T2100,2160A,112.85,35.5051,晋城市,自来水公司,臭氧1小时,110,56,50,27,23,219,,224,224,14,14,2,2,0.0,0.1
2025-06-22T2100,2161A,112.8318,35.4936,晋城市,白云商贸,臭氧1小时,104,63,51,17,13,207,,213,213,16,16,1,2,0.4,0.4
2025-06-22T2100,2162A,112.8508,35.4887,晋城市,市环保局,臭氧1小时,107,76,60,27,21,213,,221,221,16,17,8,8,0.0,0.1
2025-06-22T2100,2163A,112.8676,35.4897,晋城市,技术学院,臭氧1小时,93,68,48,22,20,194,,199,199,16,18,9,8,0.4,0.4
2025-06-22T2100,2165A,112.8453,35.546,晋城市,白马寺,臭氧1小时,113,43,32,34,26,226,,226,226,12,7,6,6,0.5,0.6
2025-06-22T2100,3620A,112.8271,35.4828,晋城市,泽州一中,臭氧1小时,110,30,42,19,17,220,,224,224,19,21,3,4,0.4,0.5
2025-06-22T2100,2173A,112.7249,37.7067,晋中市,南都小区,,45,36,37,20,18,144,,198,188,4,12,3,3,0.4,0.4
2025-06-22T2100,2174A,112.6991,37.6982,晋中市,榆次区政府,,46,31,40,18,16,147,,198,190,4,15,5,7,0.4,0.5
2025-06-22T2100,2865A,112.7195,37.6828,晋中市,榆次三中,,46,36,40,3,12,147,,207,198,7,13,6,8,0.3,0.4
2025-06-22T2100,4200A,112.7478,37.6954,晋中市,迎宾街26号,,49,34,36,9,12,154,,210,200,6,12,7,9,0.4,0.4
2025-06-22T2100,2439A,112.2014,31.0481,荆门市,竹园小学,,47,47,43,31,26,84,,138,126,13,9,5,6,0.5,0.5
2025-06-22T2100,2440A,112.1969,30.9891,荆门市,掇刀,,50,39,36,35,25,108,,140,133,14,9,8,8,0.6,0.7
2025-06-22T2100,2441A,112.2213,31.0386,荆门市,石化一小,,40,40,44,22,20,101,,144,136,11,12,12,12,0.4,0.5
2025-06-22T2100,3012A,112.1849,31.0362,荆门市,西山林语,,46,,29,32,22,79,,139,125,1,2,10,10,0.4,0.4
2025-06-22T2100,3547A,112.1632,31.0138,荆门市,龙泉中学南校,细颗粒物(PM2.5),58,,29,41,21,54,,136,117,18,5,5,6,0.5,0.5
2025-06-22T2100,1844A,112.2494,30.3197,荆州市,市图书馆,,29,26,25,18,13,90,,132,124,19,28,2,3,0.5,0.5
2025-06-22T2100,1845A,112.2008,30.3544,荆州市,市委党校,,30,30,28,19,18,92,,131,126,19,16,6,7,0.5,0.4
2025-06-22T2100,3194A,112.2747,30.3122,荆州市,管委会,,28,24,24,12,18,87,,126,118,20,22,6,6,0.7,0.8
2025-06-22T2100,4268A,112.1722,30.3366,荆州市,学苑路85号,,39,32,22,27,20,80,,129,122,18,13,3,4,0.5,0.5
2025-06-22T2100,2342A,117.3102,29.3867,景德镇市,王港中学,,,,,,,,,,,,,,,,
2025-06-22T2100,2343A,117.2117,29.2933,景德镇市,老干部活动中心,,21,6,15,3,5,65,,61,61,8,14,5,7,0.7,0.7
2025-06-22T2100,2344A,117.1894,29.2789,景德镇市,兽医站,,27,27,19,3,6,55,,56,56,8,10,4,5,0.5,0.4
2025-06-22T2100,2345A,117.1547,29.2617,景德镇市,台达陶瓷,,20,20,24,11,13,52,,57,57,13,19,26,36,0.7,1.3
2025-06-22T2100,2346A,117.2461,29.2956,景德镇市,陶研所,,18,13,15,8,6,56,,55,55,9,9,3,3,0.6,0.4
2025-06-22T2100,1803A,115.9872,29.6815,九江市,十里,,23,8,5,8,5,71,,85,81,14,9,2,2,0.6,0.5
2025-06-22T2100,1804A,115.9584,29.7046,九江市,茅山头,,27,11,6,10,6,84,,89,89,15,11,4,4,0.5,0.4
2025-06-22T2100,1805A,115.9877,29.7295,九江市,西园,,28,12,7,3,3,89,,93,93,18,13,5,4,0.7,0.7
2025-06-22T2100,1808A,115.9114,29.6038,九江市,综合工业园,,29,7,6,7,2,32,,78,70,58,22,4,3,0.9,0.7
2025-06-22T2100,1809A,116.0721,29.7535,九江市,石化总厂,,32,,8,22,15,79,,84,83,12,7,5,6,0.8,0.8
2025-06-22T2100,1810A,115.9773,29.5698,九江市,庐山气象台,,30,6,3,3,6,93,,82,82,3,3,6,6,0.9,0.8
2025-06-22T2100,3190A,116.0254,29.6994,九江市,外国语学校,,22,18,5,7,4,70,,79,78,15,10,6,6,0.6,0.5
2025-06-22T2100,4253A,116.0102,29.6594,九江市,莲花大道8号,,19,6,4,6,6,60,,78,73,12,5,4,4,0.6,0.5
2025-06-22T2100,4240A,98.4958,39.7339,酒泉市,玉门东路5号,,41,29,24,21,23,131,,136,136,4,7,9,10,0.1,0.1
2025-06-22T2100,4241A,98.5099,39.7506,酒泉市,北大街108号,,41,12,20,9,11,130,,140,139,4,6,10,11,0.0,0.1
2025-06-22T2100,2698A,76.0072,39.4467,喀什地区,巡警大队,颗粒物(PM10),60,69,151,10,33,127,,123,123,15,12,3,3,0.3,0.3
2025-06-22T2100,2699A,75.9755,39.4694,喀什地区,吾办,颗粒物(PM10),73,96,156,20,51,122,,120,120,13,13,4,4,0.4,0.4
2025-06-22T2100,4027A,75.9483,39.4689,喀什地区,老干局,颗粒物(PM10),72,93,160,20,36,121,,119,119,6,8,2,3,0.2,0.3
2025-06-22T2100,1824A,114.3389,34.7781,开封市,肿瘤医院,,43,36,42,21,20,135,,170,165,21,17,3,3,0.3,0.3
2025-06-22T2100,1826A,114.2885,34.7965,开封市,世纪星幼儿园,颗粒物(PM10),51,51,46,17,31,137,,176,171,24,18,4,3,0.7,0.7
2025-06-22T2100,3147A,114.3438,34.8106,开封市,龙亭公园,,49,30,38,11,21,156,,180,179,12,10,4,4,0.3,0.3
2025-06-22T2100,3210A,114.3644,34.7964,开封市,汴京公园,,43,29,46,17,25,135,,179,173,31,19,4,4,0.4,0.4
2025-06-22T2100,3473A,114.2485,34.8306,开封市,技师学院,臭氧1小时,62,25,39,22,28,169,,180,179,13,14,5,5,0.4,0.5
2025-06-22T2100,3592A,114.4644,34.7556,开封市,祥符区生态环境局,颗粒物(PM10),58,66,42,19,21,63,,168,148,72,27,5,5,0.6,0.5
2025-06-22T2100,1951A,84.895,45.6094,克拉玛依市,长征新村,,34,21,24,3,6,107,,117,116,10,4,5,4,0.3,0.2
2025-06-22T2100,1952A,84.8988,45.5893,克拉玛依市,南林小区,,38,38,25,6,7,57,,115,105,34,7,5,4,0.1,0.1
2025-06-22T2100,1954A,84.905,44.3396,克拉玛依市,独山子区,,35,29,30,11,10,111,,125,125,8,5,7,7,0.3,0.3
2025-06-22T2100,1955A,85.6979,46.098,克拉玛依市,乌尔禾区商贸楼,,22,17,20,11,5,68,,108,101,5,6,4,4,0.4,0.4
2025-06-22T2100,3612A,85.1045,45.6899,克拉玛依市,白碱滩区新站,,42,30,21,29,15,122,,129,128,3,2,4,4,0.3,0.3
2025-06-22T2100,2697A,76.1454,39.7142,克孜勒苏柯尔克孜自治州,市人民政府,颗粒物(PM10),55,60,148,15,49,152,,137,137,6,5,4,7,0.1,0.2
2025-06-22T2100,3665A,76.1658,39.7157,克孜勒苏柯尔克孜自治州,克州文化中心,,49,39,120,14,49,154,,141,141,2,4,5,5,0.3,0.3
2025-06-22T2100,1450A,102.8204,24.8886,昆明市,呈贡新区,,23,7,5,6,6,71,,89,77,8,8,5,4,0.2,0.3
2025-06-22T2100,1451A,102.6251,24.9608,昆明市,西山森林公园,,,,,,,,,,,,,,,,
2025-06-22T2100,1452A,102.7252,25.0902,昆明市,龙泉镇,,24,24,10,7,5,69,,90,86,9,7,3,1,0.4,0.3
2025-06-22T2100,1453A,102.7266,25.0375,昆明市,东风东路,,26,26,13,14,10,51,,90,85,29,11,4,4,0.4,0.3
2025-06-22T2100,1454A,102.6742,25.0669,昆明市,金鼎山,,22,20,8,6,3,70,,88,84,18,10,3,2,0.3,0.3
2025-06-22T2100,1455A,102.6644,25.0401,昆明市,碧鸡广场,,24,24,10,14,5,43,,85,78,37,13,5,5,0.5,0.4
2025-06-22T2100,3179A,102.7494,25.0119,昆明市,官渡区博物馆,,24,24,12,8,8,52,,88,79,22,14,6,6,0.4,0.4
2025-06-22T2100,3375A,102.8017,24.8336,昆明市,青年创业园,,23,6,8,3,6,71,,91,84,13,10,6,7,0.4,0.5
2025-06-22T2100,3550A,102.7997,24.9786,昆明市,昆明学院,,20,17,10,10,7,62,,96,82,15,15,5,6,0.2,0.2
2025-06-22T2100,3551A,102.5967,24.6736,昆明市,晋宁区生态环境分局,,24,13,12,7,4,75,,98,95,9,5,2,2,0.4,0.4
2025-06-22T2100,3552A,102.6678,24.9856,昆明市,云天化总部,,18,18,9,11,6,50,,76,73,21,14,3,3,0.5,0.5
2025-06-22T2100,1456A,91.1319,29.6514,拉萨市,八廓街,,46,24,18,9,10,145,,163,162,18,10,7,6,0.3,0.2
2025-06-22T2100,1457A,91.1221,29.6747,拉萨市,市环保局,,43,24,28,7,11,137,,170,168,20,15,8,6,0.3,0.3
2025-06-22T2100,1458A,91.0874,29.6475,拉萨市,区监测站,,40,21,22,6,8,127,,162,159,35,19,6,6,0.2,0.2
2025-06-22T2100,1459A,91.1774,29.6541,拉萨市,西藏大学,,49,15,15,7,8,154,,164,164,15,12,4,3,0.3,0.2
2025-06-22T2100,1460A,90.9798,29.6588,拉萨市,区辐射站,,46,15,18,6,9,146,,151,151,11,16,6,6,0.2,0.2
2025-06-22T2100,1461A,91.0834,29.6292,拉萨市,拉萨火车站,,47,10,15,6,8,148,,161,161,17,13,4,4,0.2,0.1
2025-06-22T2100,2520A,109.2203,23.7256,来宾市,来宾技工学校,,22,22,23,15,12,44,,68,63,12,10,6,7,0.5,0.4
2025-06-22T2100,3535A,109.1781,23.7297,来宾市,兴宾区政府,,20,20,22,10,14,40,,67,62,6,9,4,6,0.6,0.6
2025-06-22T2100,4002A,109.2416,23.7461,来宾市,中南小学,,,26,26,12,13,42,,69,65,11,10,9,8,,0.8
2025-06-22T2100,1477A,104.1373,35.9454,兰州市,榆中兰大校区,,,,,,,,,,,,,,,,
2025-06-22T2100,1479A,103.831,36.0464,兰州市,铁路设计院,,33,29,24,23,22,104,,124,124,27,20,10,11,0.4,0.5
2025-06-22T2100,3241A,103.7439,36.0842,兰州市,百合公园,,37,16,20,13,12,116,,130,130,6,8,3,3,0.2,0.3
2025-06-22T2100,3242A,103.9611,35.998,兰州市,和平,,34,16,20,14,11,108,,137,135,16,7,9,10,0.8,0.7
2025-06-22T2100,4236A,103.6293,36.0938,兰州市,庄浪东路808号,,35,27,23,20,23,110,,132,132,25,17,10,10,0.4,0.3
2025-06-22T2100,4237A,103.7251,36.1043,兰州市,安宁西路88号,,41,27,22,14,19,131,,142,142,2,6,5,7,0.2,0.3
2025-06-22T2100,4238A,103.8470,36.0676,兰州市,北滨河东路1号,,38,19,22,13,18,120,,138,138,17,15,9,11,0.5,0.6
2025-06-22T2100,3245A,103.6633,36.533,兰州新区,新区管委会,,43,27,32,13,24,136,,144,144,6,7,28,12,0.4,0.4
2025-06-22T2100,3246A,103.6975,36.4789,兰州新区,舟曲中学,,40,6,24,3,17,128,,139,139,8,8,17,12,0.4,0.4
2025-06-22T2100,1067A,116.6708,39.5111,廊坊市,药材公司,颗粒物(PM10),51,52,42,23,16,126,,195,184,27,25,3,4,0.4,0.3
2025-06-22T2100,1068A,116.7214,39.5589,廊坊市,开发区,,47,47,42,26,16,93,,201,179,22,19,2,2,0.3,0.3
2025-06-22T2100,1070A,116.7244,39.5269,廊坊市,北华航天学院,颗粒物(PM10),58,66,51,20,16,76,,196,174,42,20,2,3,0.4,0.3
2025-06-22T2100,2919A,116.7022,39.5453,廊坊市,河北工业大学,颗粒物(PM10),57,63,53,36,17,104,,205,190,25,20,5,4,0.4,0.3
2025-06-22T2100,2535A,103.7723,29.5462,乐山市,花湖湾,,38,22,20,16,15,121,,132,132,8,10,3,4,0.5,0.6
2025-06-22T2100,2536A,103.7627,29.5844,乐山市,牛耳桥,,40,30,22,22,18,125,,139,138,8,12,7,8,0.7,0.7
2025-06-22T2100,2537A,103.7508,29.6006,乐山市,市第三水厂,,37,27,24,16,18,116,,136,134,12,15,5,5,0.7,0.7
2025-06-22T2100,2538A,103.7571,29.5664,乐山市,市监测站,,36,18,15,10,14,115,,130,129,4,6,6,6,0.6,0.6
2025-06-22T2100,3361A,103.7311,29.5628,乐山市,理工大学,,40,20,21,16,16,128,,140,140,6,10,7,9,0.4,0.5
2025-06-22T2100,2598A,100.2143,26.8576,丽江市,西南郊,,23,6,7,6,4,73,,84,81,8,11,6,5,1.2,1.1
2025-06-22T2100,2599A,100.2497,26.8802,丽江市,丽江古城,,22,11,13,3,3,70,,76,74,9,12,9,9,0.4,0.4
2025-06-22T2100,2600A,100.2203,26.8906,丽江市,市中心,,20,,7,9,5,62,,76,73,10,8,7,7,0.8,0.7
2025-06-22T2100,1267A,119.914,28.4514,丽水市,监测站大楼,,12,12,19,7,8,20,,34,32,20,23,2,3,0.4,0.4
2025-06-22T2100,1268A,119.93,28.4586,丽水市,莲都小学,,15,14,21,7,8,48,,74,72,10,16,3,3,0.4,0.3
2025-06-22T2100,1269A,119.879,28.4231,丽水市,余庄前,,,18,16,12,10,,,59,56,8,10,3,3,0.5,0.5
2025-06-22T2100,1173A,119.176,34.5885,连云港市,市环境监测站,,47,46,42,29,34,150,,192,190,18,22,9,7,0.7,0.6
2025-06-22T2100,3000A,119.3581,34.6972,连云港市,德源药业,,49,39,46,24,27,155,,178,177,2,14,8,9,1.0,0.9
2025-06-22T2100,3007A,119.178,34.844,连云港市,新城一中,臭氧1小时,88,48,44,29,31,190,,212,212,15,17,7,8,1.1,0.9
2025-06-22T2100,3008A,119.3608,34.7519,连云港市,胡沟管理处,细颗粒物(PM2.5),55,44,37,39,29,142,,171,158,41,32,8,9,0.7,0.6
2025-06-22T2100,3009A,119.1478,34.5911,连云港市,矿山设计院,,44,44,44,27,29,139,,185,182,11,14,9,8,0.7,0.6
2025-06-22T2100,3434A,119.2413,34.6539,连云港市,工贸学校,颗粒物(PM10),59,67,76,34,40,156,,193,192,6,6,11,10,0.8,0.7
2025-06-22T2100,3664A,119.4172,34.7341,连云港市,连云街道,颗粒物(PM10),53,56,39,36,26,146,,198,196,23,11,8,9,0.6,0.6
2025-06-22T2100,2571A,102.3431,27.8099,凉山彝族自治州,青龙寺,,15,15,10,3,3,41,,90,82,16,3,3,4,0.6,0.5
2025-06-22T2100,2572A,102.2721,27.8415,凉山彝族自治州,邛海宾馆,,26,26,25,10,10,57,,99,93,11,8,8,8,0.4,0.3
2025-06-22T2100,2573A,102.2625,27.898,凉山彝族自治州,西昌市政府,,25,8,12,3,10,78,,111,107,6,8,9,10,0.3,0.5
2025-06-22T2100,2574A,102.2685,27.8851,凉山彝族自治州,凉山州政府,,25,10,11,10,12,79,,107,104,8,10,8,9,0.5,0.6
2025-06-22T2100,4229A,102.2342,27.8859,凉山彝族自治州,凯乐南路30号,,24,15,15,9,10,75,,107,101,6,12,8,9,0.4,0.5
2025-06-22T2100,2212A,123.2,41.1953,辽阳市,宏伟区,,36,36,31,13,9,89,,129,125,31,12,7,9,1.0,0.8
2025-06-22T2100,2213A,123.1683,41.2495,辽阳市,新华园,颗粒物(PM10),61,72,45,25,13,50,,134,125,61,19,4,10,0.7,0.8
2025-06-22T2100,2214A,123.2354,41.2639,辽阳市,滨河路,颗粒物(PM10),51,52,40,17,13,62,,121,110,47,22,10,15,0.7,0.7
2025-06-22T2100,2215A,123.149,41.2991,辽阳市,铁西工业园,,41,41,48,18,19,63,,118,109,28,24,5,16,0.7,1.4
2025-06-22T2100,2227A,125.1358,42.8845,辽源市,环保局,,22,22,20,11,6,61,,130,124,40,18,3,4,0.3,0.2
2025-06-22T2100,3239A,125.0764,42.9078,辽源市,银鹰制药,,25,25,17,14,7,74,,136,130,46,30,4,4,0.3,0.2
2025-06-22T2100,1625A,115.9848,36.4372,聊城市,区政府,臭氧1小时,57,30,37,14,18,165,,184,183,14,14,8,9,0.5,0.6
2025-06-22T2100,2878A,116.0072,36.4343,聊城市,聊大东校,,50,31,40,11,24,157,,185,181,16,16,6,8,0.5,0.6
2025-06-22T2100,3200A,115.9819,36.4978,聊城市,监控中心,,48,31,35,14,17,151,,180,177,30,18,9,10,0.6,0.6
2025-06-22T2100,3513A,116.0445,36.4361,聊城市,九州社区,,47,36,47,17,19,150,,185,181,22,15,4,6,0.8,0.7
2025-06-22T2100,4018A,116.0567,36.4608,聊城市,星美广场,臭氧1小时,52,40,47,11,18,161,,179,178,19,17,10,11,0.6,0.6
2025-06-22T2100,2632A,94.3681,29.6376,林芝市,林芝监测站,,35,,18,9,7,110,,113,113,4,7,3,4,0.2,0.2
2025-06-22T2100,2633A,94.3616,29.6616,林芝市,林芝人民医院,,37,17,15,7,6,116,,122,122,2,3,4,5,0.0,0.1
2025-06-22T2100,2603A,100.0781,23.8982,临沧市,市环保局,,40,,15,28,18,20,,37,35,13,8,2,2,0.6,0.4
2025-06-22T2100,2604A,100.0894,23.8822,临沧市,市气象局,,28,,15,19,10,26,,32,31,13,10,8,8,0.5,0.4
2025-06-22T2100,1733A,111.5531,36.0783,临汾市,临钢医院,臭氧1小时,60,41,44,13,17,168,,204,199,13,15,9,9,0.6,0.7
2025-06-22T2100,1734A,111.5028,36.0714,临汾市,技工学校,臭氧1小时,54,49,46,33,27,163,,202,198,14,14,8,9,0.5,0.7
2025-06-22T2100,1736A,111.5018,36.0855,临汾市,市委,颗粒物(PM10),58,66,58,11,18,162,,204,198,18,17,8,9,0.5,0.8
2025-06-22T2100,3018A,111.505,36.1014,临汾市,唐尧大酒店,颗粒物(PM10),61,71,61,14,19,153,,193,189,14,15,7,8,0.5,0.7
2025-06-22T2100,4244A,111.4879,36.0530,临汾市,启星学校,,,,43,,30,,,129,,,14,,5,,0.8
2025-06-22T2100,4271A,103.2464,35.6123,临夏回族自治州,滨河东路1号,,29,18,14,8,7,90,,116,112,8,3,9,8,0.2,0.2
2025-06-22T2100,4310A,103.2093,35.5995,临夏回族自治州,新华街21号,,30,20,12,8,8,93,,125,122,20,5,5,5,0.2,0.2
2025-06-22T2100,1618A,118.3429,35.0532,临沂市,沂河小区,"颗粒物(PM10),臭氧1小时",60,70,52,42,32,168,,183,181,30,25,8,9,0.6,0.5
2025-06-22T2100,1619A,118.295,35.0583,临沂市,鲁南制药厂,臭氧1小时,63,68,56,19,28,170,,188,184,31,26,10,9,0.8,0.6
2025-06-22T2100,1620A,118.2794,34.9976,临沂市,新光毛纺厂,臭氧1小时,67,56,45,22,27,173,,190,186,28,22,9,9,0.7,0.6
2025-06-22T2100,1621A,118.3956,35.0888,临沂市,河东保险公司,臭氧1小时,88,48,41,26,25,190,,190,190,22,18,8,8,0.6,0.5
2025-06-22T2100,3370A,118.3564,35.0215,临沂市,十里堡居委,臭氧1小时,82,63,44,34,33,185,,206,201,28,24,10,10,0.8,0.6
2025-06-22T2100,3496A,118.3604,35.1084,临沂市,南坊新区,臭氧1小时,95,66,53,34,28,196,,197,197,25,22,9,10,0.8,0.7
2025-06-22T2100,3860A,118.3920,35.0300,临沂市,皇山花园小区,臭氧1小时,72,61,47,44,34,177,,167,160,31,23,8,20,0.4,0.5
2025-06-22T2100,1870A,109.4856,24.3895,柳州市,柳东小学,,14,12,20,3,9,43,,67,64,8,10,10,11,0.5,0.4
2025-06-22T2100,1871A,109.4157,24.3277,柳州市,环保监测站,,17,17,23,3,13,32,,61,58,12,12,6,7,0.8,0.8
2025-06-22T2100,1872A,109.389,24.341,柳州市,河西水厂,,15,15,26,3,14,36,,67,64,16,16,4,5,0.5,0.5
2025-06-22T2100,1873A,109.4311,24.2921,柳州市,市四中,,23,23,25,14,12,35,,64,60,18,16,6,8,0.5,0.5
2025-06-22T2100,1874A,109.4006,24.3631,柳州市,市九中,,27,27,31,10,10,38,,69,65,15,14,9,10,0.6,0.6
2025-06-22T2100,1875A,109.4958,24.3134,柳州市,古亭山,,13,13,22,8,9,24,,65,58,7,10,4,5,0.6,0.5
2025-06-22T2100,3402A,109.5422,24.3996,柳州市,市二中,,15,15,23,8,9,39,,69,64,10,11,11,17,0.4,0.3
2025-06-22T2100,2307A,116.5079,31.737,六安市,监测大楼,,27,17,14,16,13,84,,98,95,3,3,4,6,0.3,0.2
2025-06-22T2100,2308A,116.4738,31.7643,六安市,皖西学院,,31,17,12,12,9,99,,108,103,3,3,5,4,0.3,0.3
2025-06-22T2100,2309A,116.4996,31.7905,六安市,朝阳厂,,27,13,11,13,11,84,,97,91,8,9,5,6,0.3,0.3
2025-06-22T2100,2310A,116.5567,31.7886,六安市,开发区,,25,,15,17,11,75,,102,94,6,3,2,2,0.3,0.3
2025-06-22T2100,2576A,104.8,26.5892,六盘水市,窑上,,10,10,22,6,3,30,,88,72,3,4,2,3,0.2,0.2
2025-06-22T2100,2577A,104.83,26.5917,六盘水市,黄土坡,,18,18,11,8,7,35,,97,84,24,11,9,9,0.7,0.5
2025-06-22T2100,2578A,104.89,26.5939,六盘水市,水钢,,35,27,26,24,11,72,,90,86,11,17,9,24,0.4,1.1
2025-06-22T2100,2579A,104.8475,26.5894,六盘水市,民中,,23,12,12,3,4,71,,93,85,17,13,10,9,0.6,0.4
2025-06-22T2100,2580A,104.9544,26.5506,六盘水市,双水,,16,7,7,6,6,50,,92,84,7,15,9,10,0.4,0.5
2025-06-22T2100,2335A,117.0189,25.1181,龙岩市,龙岩师专,,,,,,,,,,,,,,,,
2025-06-22T2100,2336A,117.0217,25.1033,龙岩市,龙岩市监测站,,15,,14,10,8,43,,50,48,8,9,3,5,0.4,0.4
2025-06-22T2100,2337A,117.0258,25.0661,龙岩市,闽西职业技术学院,,19,19,17,3,7,54,,48,48,3,8,4,13,0.4,0.5
2025-06-22T2100,2338A,117.0196,25.0306,龙岩市,龙岩学院,,,,15,12,5,34,,48,46,10,4,5,4,0.4,0.3
2025-06-22T2100,2665A,105.0822,33.3261,陇南市,汉王镇固水子,,,,,,,,,,,,,,,,
2025-06-22T2100,2885A,104.9339,33.3826,陇南市,滨江中学,,30,30,31,14,15,66,,106,92,9,4,4,4,0.7,0.6
2025-06-22T2100,3247A,104.955,33.371,陇南市,市总工会,,42,42,38,10,8,71,,113,97,3,4,6,6,0.6,0.6
2025-06-22T2100,2487A,111.9589,27.8901,娄底市,电视发射台,,18,18,10,7,3,22,,83,60,3,3,7,6,0.4,0.4
2025-06-22T2100,2488A,111.9975,27.725,娄底市,市监测站,,23,16,9,8,6,71,,87,80,9,8,6,6,0.6,0.6
2025-06-22T2100,2489A,112.0194,27.7314,娄底市,市委党校,,26,12,9,7,6,81,,96,90,6,6,2,2,0.5,0.5
2025-06-22T2100,2490A,111.9561,27.7569,娄底市,涟钢,,22,22,14,8,7,59,,86,76,15,12,1,3,0.9,0.6
2025-06-22T2100,2491A,111.9892,27.7044,娄底市,市政府,,22,21,9,13,8,68,,103,89,8,5,5,5,0.4,0.4
2025-06-22T2100,1893A,105.4324,28.9634,泸州市,九狮山,,40,,34,28,28,82,,104,104,20,21,4,5,0.3,0.3
2025-06-22T2100,1894A,105.4427,28.9063,泸州市,小市上码头,,,16,27,9,15,86,,94,94,,8,13,13,0.6,0.6
2025-06-22T2100,1895A,105.4241,28.8573,泸州市,兰田宪桥,,22,19,23,12,14,70,,93,93,18,12,7,8,0.6,0.6
2025-06-22T2100,1896A,105.4379,28.8833,泸州市,市环监站,,,17,25,10,14,52,,88,80,14,16,8,8,,0.2
2025-06-22T2100,4272A,105.3689,28.7783,泸州市,纳溪中医医院,,24,19,26,16,17,75,,91,91,15,17,4,4,1.0,0.9
2025-06-22T2100,2183A,111.1406,37.5211,吕梁市,环保局,颗粒物(PM10),63,76,60,32,20,111,,204,188,31,22,4,6,0.5,0.5
2025-06-22T2100,2185A,111.1297,37.5136,吕梁市,自来水公司,,40,28,54,28,18,118,,199,187,24,22,5,8,0.6,0.5
2025-06-22T2100,2867A,111.1283,37.51,吕梁市,马茂庄小学,,50,50,58,32,19,85,,208,189,62,33,7,8,0.5,0.6
2025-06-22T2100,1812A,112.3931,34.6516,洛阳市,市委党校,臭氧1小时,70,48,43,29,30,176,,203,199,15,15,16,12,0.6,0.6
2025-06-22T2100,1815A,112.494,34.6886,洛阳市,河南林校,,,50,51,33,31,,,209,208,,18,7,7,0.6,0.5
2025-06-22T2100,1816A,112.3844,34.623,洛阳市,开发区管委会,臭氧1小时,73,45,38,26,25,178,,201,198,14,13,14,13,0.6,0.6
2025-06-22T2100,1817A,112.4267,34.6258,洛阳市,市委新办公区,臭氧1小时,67,53,44,26,26,173,,197,193,12,12,12,12,0.2,0.3
2025-06-22T2100,3340A,112.6005,34.6326,洛阳市,伊滨,臭氧1小时,72,68,59,21,28,177,,205,200,12,20,8,7,0.5,0.5
2025-06-22T2100,3341A,112.4951,34.6332,洛阳市,中移产业园,臭氧1小时,68,50,49,26,27,174,,203,197,12,18,8,10,0.6,0.7
2025-06-22T2100,3593A,112.5736,34.8993,洛阳市,吉利监测站,,48,48,45,27,23,152,,192,182,18,18,7,7,0.4,0.4
2025-06-22T2100,3635A,112.3677,34.662,洛阳市,河科大西苑校区,臭氧1小时,79,52,46,18,20,183,,204,200,13,16,14,13,0.5,0.5
2025-06-22T2100,3636A,112.4388,34.6781,洛阳市,英才小学,臭氧1小时,68,57,52,30,30,174,,198,193,15,17,18,11,0.8,0.8
2025-06-22T2100,4214A,112.4600,34.6949,洛阳市,春都路1号院,臭氧1小时,70,55,50,26,26,176,,208,203,12,14,7,6,0.6,0.7
2025-06-22T2100,2399A,114.051,33.5699,漯河市,三五一五工厂,,40,34,23,21,14,127,,164,156,26,14,8,5,0.6,0.6
2025-06-22T2100,2400A,114.0055,33.5698,漯河市,漯河大学,,44,25,23,17,11,139,,165,160,16,13,4,4,0.4,0.4
2025-06-22T2100,2401A,114.0138,33.5828,漯河市,市水利局,,44,29,25,19,13,138,,164,160,14,10,5,5,0.5,0.5
2025-06-22T2100,2402A,114.0261,33.5698,漯河市,市广电局,,,,22,16,13,134,,166,160,14,10,2,2,0.5,0.5
2025-06-22T2100,3478A,113.9749,33.5664,漯河市,市图书馆,,38,26,25,18,12,121,,164,156,21,13,4,4,0.3,0.3
2025-06-22T2100,4250A,114.0892,33.5882,漯河市,韶山路11号,,37,25,29,20,13,116,,161,152,30,15,2,3,0.5,0.5
2025-06-22T2100,1798A,118.5092,31.6837,马鞍山市,湖东路四小,,29,26,15,20,15,84,,119,109,11,6,7,7,0.7,0.5
2025-06-22T2100,1799A,118.5024,31.6449,马鞍山市,开发区,,31,31,16,17,11,80,,119,107,16,8,6,6,0.9,0.7
2025-06-22T2100,1802A,118.6245,31.7241,马鞍山市,濮塘,,36,,13,25,11,69,,117,104,12,8,8,7,1.0,0.7
2025-06-22T2100,3633A,118.4918,31.6809,马鞍山市,雨山,,34,34,14,16,13,84,,117,108,13,8,6,6,0.7,0.5
2025-06-22T2100,4191A,118.5274,31.72227,马鞍山市,慈湖高新区,,35,33,20,24,13,78,,120,109,13,8,5,5,0.8,0.5
2025-06-22T2100,1686A,111.0286,21.4688,茂名市,电白南海,,,17,14,14,8,,,44,43,6,4,2,2,0.2,0.3
2025-06-22T2100,1687A,110.9294,21.6533,茂名市,茂石化七小,,17,17,15,3,3,32,,39,37,8,5,2,2,0.3,0.2
2025-06-22T2100,1688A,110.9107,21.6687,茂名市,健康路,,14,14,12,3,4,38,,44,42,9,6,3,3,0.2,0.3
2025-06-22T2100,1689A,110.8592,21.6828,茂名市,高岭,,22,22,17,3,1,35,,41,39,10,9,4,4,0.3,0.2
2025-06-22T2100,3450A,111.01,21.5165,茂名市,电白水东,,14,14,9,3,3,42,,41,41,5,4,4,4,0.3,0.3
2025-06-22T2100,2539A,104.0308,30.0478,眉山市,黑龙滩水库,,36,22,14,21,18,114,,140,139,1,3,2,2,0.6,0.6
2025-06-22T2100,2540A,103.8416,30.0874,眉山市,气象局,,38,27,23,19,12,119,,154,150,11,16,3,3,0.4,0.4
2025-06-22T2100,3137A,103.8578,30.0744,眉山市,市委党校,,37,27,18,9,10,117,,145,142,12,14,4,4,0.6,0.6
2025-06-22T2100,3148A,103.8291,30.0564,眉山市,区人社局,,43,43,37,12,7,118,,148,144,13,14,7,7,0.6,0.6
2025-06-22T2100,1690A,116.1231,24.3284,梅州市,梅江月梅,,20,20,22,14,5,5,,50,38,18,8,6,6,0.6,0.5
2025-06-22T2100,1691A,116.0797,24.2719,梅州市,梅县新城,,11,11,15,6,4,25,,44,39,11,6,6,9,0.5,0.4
2025-06-22T2100,1692A,116.1248,24.2654,梅州市,环境监控中心,,14,14,18,9,6,6,,43,34,24,10,3,3,0.5,0.5
2025-06-22T2100,3315A,116.1233,24.2991,梅州市,梅龙,,24,24,15,12,8,12,,47,40,18,7,7,7,0.5,0.4
2025-06-22T2100,1878A,104.7778,31.4741,绵阳市,富乐山,,32,27,20,9,13,100,,122,119,14,9,8,8,0.5,0.5
2025-06-22T2100,1880A,104.6697,31.4668,绵阳市,高新区自来水公司,,28,27,24,3,5,88,,113,108,11,10,8,7,0.6,0.5
2025-06-22T2100,1881A,104.7287,31.5075,绵阳市,三水厂,,30,21,20,14,13,94,,122,119,15,9,10,8,0.6,0.6
2025-06-22T2100,3491A,104.69,31.5322,绵阳市,西科大附属小学,,32,32,23,19,13,96,,120,117,13,14,10,8,0.2,0.2
2025-06-22T2100,3492A,104.5648,31.5343,绵阳市,安州区旅游局,,28,23,17,9,7,88,,112,108,11,13,8,7,0.3,0.2
2025-06-22T2100,4226A,104.7651,31.4531,绵阳市,绵阳市气象局,,30,28,17,8,11,96,,114,113,14,9,8,8,0.5,0.4
2025-06-22T2100,1784A,129.61,44.561,牡丹江市,环保大楼,,38,31,18,26,16,63,,100,91,27,13,8,8,0.4,0.3
2025-06-22T2100,1785A,129.6115,44.5782,牡丹江市,文化广场,,42,,19,29,15,62,,96,87,29,14,6,6,0.5,0.3
2025-06-22T2100,1786A,129.5904,44.5963,牡丹江市,第一医院,,43,43,16,14,10,41,,100,86,32,13,6,6,0.6,0.4
2025-06-22T2100,1787A,129.6364,44.6075,牡丹江市,机车工厂,,49,49,21,23,8,54,,96,83,19,14,10,6,0.4,0.4
2025-06-22T2100,1788A,129.6386,44.5462,牡丹江市,第一中学,,42,42,17,29,11,26,,98,80,42,15,6,6,0.4,0.3
2025-06-22T2100,2531A,105.0703,29.61,内江市,市监测站,,39,39,23,20,17,110,,120,120,13,11,6,7,0.6,0.6
2025-06-22T2100,2532A,105.0717,29.5947,内江市,东兴区政府,,34,31,19,20,11,108,,120,120,16,13,1,2,0.5,0.5
2025-06-22T2100,2533A,105.0653,29.5817,内江市,内江二中,,35,,21,24,21,106,,120,119,18,14,6,6,0.5,0.5
2025-06-22T2100,2534A,105.0406,29.5822,内江市,内江日报社,,36,31,22,20,19,114,,126,125,12,13,9,9,0.4,0.4
2025-06-22T2100,2628A,92.0657,31.4846,那曲市,那曲监测站,,40,29,45,10,18,126,,141,139,20,21,10,7,0.3,0.3
2025-06-22T2100,4243A,92.0515,31.4787,那曲市,那曲市委宣传部,,46,13,28,7,12,147,,156,154,5,15,8,9,0.2,0.3
2025-06-22T2100,1290A,115.8931,28.6843,南昌市,省外办,,25,,8,7,6,78,,94,93,16,14,3,3,0.6,0.6
2025-06-22T2100,1291A,115.8886,28.7003,南昌市,省林业公司,,22,6,2,3,3,70,,75,75,13,12,8,8,0.7,0.6
2025-06-22T2100,1292A,115.8126,28.7442,南昌市,林科所,,18,6,3,3,1,57,,66,63,8,4,4,4,0.3,0.3
2025-06-22T2100,1294A,115.8518,28.687,南昌市,建工学校,,22,17,9,13,13,70,,73,73,8,8,6,6,0.4,0.4
2025-06-22T2100,1295A,115.8921,28.6424,南昌市,象湖,,23,6,7,3,2,73,,71,71,10,11,6,6,0.7,0.7
2025-06-22T2100,1296A,115.7423,28.7996,南昌市,武术学校,,18,,15,12,10,37,,59,54,2,4,8,8,0.4,0.3
2025-06-22T2100,3046A,115.9084,28.6062,南昌市,机电学校,,23,12,10,9,4,71,,68,68,11,14,3,4,0.6,0.6
2025-06-22T2100,3690A,115.9721,28.7031,南昌市,外国语学校,,25,,5,6,5,80,,81,81,10,8,9,8,0.6,0.6
2025-06-22T2100,4192A,115.9316,28.68677,南昌市,南京东路235号,,24,9,16,3,0,76,,76,76,14,13,3,6,0.4,0.5
2025-06-22T2100,1905A,106.056,30.8064,南充市,西山风景区,,,,,,,,,,,,,,,,
2025-06-22T2100,1906A,106.0789,30.8023,南充市,南充市委,,35,15,11,9,6,112,,122,121,11,8,5,5,0.3,0.3
2025-06-22T2100,1907A,106.1031,30.8217,南充市,南充炼油厂,,34,14,14,13,8,107,,112,112,8,7,5,5,0.2,0.2
2025-06-22T2100,4227A,106.1083,30.7884,南充市,梨树横街98号,,33,27,12,9,7,103,,112,111,9,7,4,4,0.3,0.3
2025-06-22T2100,4304A,106.1172,30.843,南充市,清泉寺北路188号,,35,,18,17,8,111,,113,113,7,9,3,3,0.2,0.3
2025-06-22T2100,4305A,106.067,30.7616,南充市,同庆路1号,,32,18,11,7,7,101,,112,110,8,6,3,3,0.2,0.2
2025-06-22T2100,1151A,118.8086,32.1065,南京市,迈皋桥,,,24,18,19,12,,,106,103,14,10,4,4,0.6,0.5
2025-06-22T2100,1152A,118.7538,32.0551,南京市,草场门,,30,27,18,19,14,96,,118,113,16,13,1,2,0.4,0.4
2025-06-22T2100,1153A,118.7794,32.0745,南京市,山西路,,33,22,21,12,9,104,,125,120,16,11,3,4,0.2,0.3
2025-06-22T2100,1154A,118.7752,32.0023,南京市,中华门,,25,22,13,17,8,80,,108,102,14,11,7,7,0.3,0.4
2025-06-22T2100,1155A,118.8109,32.0309,南京市,瑞金路,,28,22,13,17,11,89,,110,106,7,5,6,6,0.4,0.4
2025-06-22T2100,1156A,118.7997,32.0754,南京市,玄武湖,,31,31,27,12,9,90,,111,106,9,9,4,4,0.5,0.5
2025-06-22T2100,1157A,118.6414,32.0931,南京市,浦口,,33,33,22,16,10,88,,118,110,19,13,3,3,0.3,0.3
2025-06-22T2100,1158A,118.7356,31.9996,南京市,奥体中心,,30,30,16,19,11,90,,117,111,18,13,4,4,0.3,0.3
2025-06-22T2100,1159A,118.9125,32.1028,南京市,仙林大学城,,29,29,23,12,8,91,,114,109,10,8,6,6,0.6,0.5
2025-06-22T2100,3422A,118.8436,31.9198,南京市,江宁彩虹桥,,28,19,16,19,11,83,,114,105,11,10,4,4,0.7,0.6
2025-06-22T2100,3427A,118.8554,32.3578,南京市,六合雄州,,50,50,26,26,16,95,,140,130,25,17,5,4,0.6,0.6
2025-06-22T2100,4249A,118.8708,31.3402,南京市,汶溪路181号,,26,,4,14,5,82,,96,89,17,15,2,3,0.6,0.5
2025-06-22T2100,4312A,119.019,31.6512,南京市,中山西路1号,,27,27,10,17,9,66,,89,82,15,10,3,4,1.1,0.8
2025-06-22T2100,1401A,108.3103,22.7881,南宁市,二十一中,,12,12,24,8,10,33,,60,55,18,12,1,2,0.5,0.5
2025-06-22T2100,1402A,108.3141,22.8528,南宁市,北湖,,43,43,26,12,12,23,,62,49,31,12,5,5,0.5,0.5
2025-06-22T2100,1403A,108.3206,22.8225,南宁市,市监测站,,37,37,25,7,12,29,,57,49,27,11,6,6,0.6,0.5
2025-06-22T2100,1404A,108.3829,22.8037,南宁市,大自然花园,,27,27,24,16,13,54,,63,59,6,6,5,4,0.5,0.5
2025-06-22T2100,1405A,108.4394,22.7904,南宁市,仙葫,,21,21,21,10,14,57,,63,62,7,4,6,6,0.6,0.5
2025-06-22T2100,1406A,108.2397,22.8467,南宁市,区农职院,,14,14,22,9,11,41,,63,58,12,10,4,5,0.5,0.5
2025-06-22T2100,1407A,108.3275,22.735,南宁市,英华嘉园,,20,20,20,8,12,38,,57,50,13,11,7,7,0.5,0.5
2025-06-22T2100,3401A,108.4834,22.7618,南宁市,红星社区,,37,37,23,16,13,51,,59,57,7,5,3,2,0.6,0.5
2025-06-22T2100,4221A,108.2177,22.7774,南宁市,乐贤路16号,,19,19,23,9,11,40,,65,62,15,13,6,6,0.6,0.6
2025-06-22T2100,2331A,118.0966,26.6761,南平市,茫荡山,,,,,,,,,,,,,,,,
2025-06-22T2100,2332A,118.1681,26.6369,南平市,南平市监测站,,16,16,15,6,7,24,,61,49,14,9,4,5,0.6,0.5
2025-06-22T2100,2333A,118.1825,26.6489,南平市,南平铝业有限公司,,16,16,16,6,4,13,,62,46,21,7,4,5,0.8,0.6
2025-06-22T2100,2334A,118.1756,26.6272,南平市,南平七中,,19,19,16,3,6,32,,64,54,11,7,5,5,0.5,0.5
2025-06-22T2100,1168A,120.9098,31.9663,南通市,狼山街道,,32,11,9,3,4,100,,106,105,9,7,4,3,0.6,0.6
2025-06-22T2100,1169A,120.86,32.0005,南通市,虹桥,,30,13,12,13,10,95,,102,101,15,13,1,1,0.6,0.6
2025-06-22T2100,1170A,120.87,32.02,南通市,城中,,30,14,13,9,6,96,,103,102,11,8,3,3,0.7,0.7
2025-06-22T2100,1171A,120.94,31.93,南通市,星湖花园,,,9,5,8,8,92,,99,96,13,9,2,2,,0.3
2025-06-22T2100,1172A,120.81,32.0417,南通市,紫琅学院,,,8,10,3,3,92,,99,98,14,9,,4,0.4,0.4
2025-06-22T2100,3291A,121.067,32.062,南通市,通州监测站,,35,9,6,7,4,110,,114,114,5,4,6,5,0.5,0.6
2025-06-22T2100,3432A,120.9348,31.9883,南通市,环境教育馆,,30,17,13,3,3,96,,102,101,11,8,2,2,0.1,0.1
2025-06-22T2100,2404A,112.5224,33.0122,南阳市,瓦房庄,,37,36,36,16,19,116,,165,157,18,12,5,6,0.5,0.5
2025-06-22T2100,2405A,112.5003,32.9735,南阳市,汉画馆,,33,31,34,10,18,105,,157,149,21,13,6,6,0.5,0.6
2025-06-22T2100,2406A,112.5573,33.027,南阳市,气象站,,35,27,31,9,15,112,,162,154,16,8,6,6,0.4,0.4
2025-06-22T2100,2407A,112.5481,32.9689,南阳市,理工学院,,35,31,33,15,19,110,,160,150,20,12,6,5,0.4,0.4
2025-06-22T2100,4008A,112.5234,32.9922,南阳市,卧龙区政府,,,24,29,,19,121,,164,157,16,11,5,5,0.4,0.4
2025-06-22T2100,1234A,121.8358,29.911,宁波市,区环保大楼,,46,46,37,15,14,37,,72,55,46,37,3,5,0.6,0.6
2025-06-22T2100,1235A,121.56,29.82,宁波市,万里学院,,29,28,30,20,22,65,,73,70,24,26,2,3,0.6,0.7
2025-06-22T2100,1236A,121.713,29.9572,宁波市,龙赛医院,,48,48,34,10,7,8,,81,54,69,28,4,4,0.6,0.5
2025-06-22T2100,1239A,121.633,29.7733,宁波市,钱湖水厂,,30,30,33,18,17,76,,63,,14,15,4,4,0.4,0.4
2025-06-22T2100,1240A,121.5856,29.8635,宁波市,太古小学,,27,27,36,15,14,57,,76,70,25,23,4,4,0.6,0.7
2025-06-22T2100,1241A,121.524,29.8674,宁波市,市环境监测中心,,30,30,29,15,13,53,,76,70,33,26,3,4,0.7,0.7
2025-06-22T2100,2871A,121.6147,29.9017,宁波市,万里国际学校,,21,21,27,12,12,66,,78,74,22,27,3,4,0.5,0.6
2025-06-22T2100,3710A,121.5594,29.8975,宁波市,白沙活动中心,,20,20,22,13,12,60,,84,75,22,21,3,4,0.4,0.4
2025-06-22T2100,2339A,119.5001,26.6946,宁德市,金涵水库,,,,,,,,,,,,,,,,
2025-06-22T2100,2341A,119.5388,26.6612,宁德市,宁德市监测站,,45,45,23,15,12,81,,72,72,25,14,9,6,1.3,0.7
2025-06-22T2100,3209A,119.5231,26.6562,宁德市,宁德一中,,35,35,22,11,10,79,,68,68,12,8,7,6,0.7,0.5
2025-06-22T2100,2618A,98.8601,25.8567,怒江傈僳族自治州,州监测站,,16,12,18,9,11,51,,51,51,6,7,7,7,0.4,0.4
2025-06-22T2100,2619A,98.8546,25.8417,怒江傈僳族自治州,泸水一中,,11,6,11,3,7,34,,38,38,9,9,5,5,0.4,0.4
2025-06-22T2100,1888A,101.6891,26.571,攀枝花市,弄弄坪,颗粒物(PM10),53,55,20,34,9,52,,84,79,29,11,7,5,0.8,0.7
2025-06-22T2100,1889A,101.5769,26.5928,攀枝花市,河门口,,33,33,19,11,11,44,,78,76,23,19,7,8,0.9,1
2025-06-22T2100,1890A,101.7169,26.585,攀枝花市,炳草岗,,34,34,18,18,11,44,,87,82,19,17,7,7,0.8,0.8
2025-06-22T2100,1891A,101.7369,26.5008,攀枝花市,仁和,,26,26,10,14,7,30,,77,67,18,8,9,7,0.7,0.5
2025-06-22T2100,2835A,101.7227,26.567,攀枝花市,四十中小,,24,21,13,12,7,74,,93,91,24,10,12,7,1.0,0.8
2025-06-22T2100,1604A,122.0303,41.1489,盘锦市,开发区,,35,29,30,24,16,79,,159,142,39,24,6,6,0.6,0.5
2025-06-22T2100,1605A,122.0485,41.0883,盘锦市,兴隆台,,32,32,28,17,13,70,,149,122,46,24,4,5,0.5,0.4
2025-06-22T2100,1606A,121.8297,41.1028,盘锦市,新生街道,,34,34,22,19,13,48,,156,121,36,23,8,9,0.6,0.5
2025-06-22T2100,1832A,113.3257,33.742,平顶山市,新华旅馆,,41,27,49,19,26,130,,178,172,17,22,5,5,0.4,0.6
2025-06-22T2100,1833A,113.2919,33.737,平顶山市,规划设计院,,43,33,48,15,32,135,,173,167,15,21,5,6,0.4,0.6
2025-06-22T2100,1834A,113.182,33.774,平顶山市,平顶山工学院,,46,37,50,14,28,145,,188,178,13,15,2,4,0.4,0.5
2025-06-22T2100,3204A,113.3025,33.73,平顶山市,规划局,,43,27,45,11,21,135,,184,178,15,17,4,5,0.4,0.5
2025-06-22T2100,3594A,112.8867,33.9116,平顶山市,石龙区,颗粒物(PM10),61,72,60,24,30,138,,196,182,34,36,9,12,0.5,0.6
2025-06-22T2100,2656A,106.6692,35.5461,平凉市,聚贤嘉苑,,33,31,44,10,15,105,,113,110,7,25,6,7,0.7,0.8
2025-06-22T2100,2657A,106.7021,35.5307,平凉市,博物馆,,36,30,50,11,19,115,,121,118,7,29,10,11,0.7,0.9
2025-06-22T2100,2347A,114.0997,27.5002,萍乡市,武功山,,14,8,3,3,3,44,,58,57,4,5,13,13,0.4,0.3
2025-06-22T2100,2348A,113.8385,27.6434,萍乡市,中医院,,28,28,24,15,16,62,,74,74,13,12,15,13,1.1,1
2025-06-22T2100,2349A,113.8493,27.6253,萍乡市,市政府车库,,17,10,14,10,12,53,,62,62,15,12,10,7,0.4,0.5
2025-06-22T2100,2350A,113.8676,27.6435,萍乡市,市环保局,,19,16,20,12,12,58,,66,66,16,11,18,9,0.9,0.9
2025-06-22T2100,2351A,113.866,27.6198,萍乡市,安源区政府,,,8,17,,9,57,,66,66,9,9,9,8,0.5,0.5
2025-06-22T2100,2319A,119.0141,25.4325,莆田市,荔城区仓后路,,39,39,32,17,12,59,,106,98,14,11,4,4,0.6,0.5
2025-06-22T2100,2320A,119.0015,25.4553,莆田市,莆田市监测站,,38,38,30,21,12,55,,109,100,14,12,5,4,0.4,0.4
2025-06-22T2100,2321A,119.1119,25.4561,莆田市,涵江区六中,,36,36,29,13,12,44,,109,96,21,14,2,2,0.6,0.5
2025-06-22T2100,2322A,119.1013,25.3215,莆田市,秀屿区政府,,30,30,24,16,13,56,,109,94,12,11,6,5,0.5,0.5
2025-06-22T2100,2323A,118.981,25.4792,莆田市,东圳水库,,,,,,,,,,,,,,,,
2025-06-22T2100,2392A,115.0312,35.7636,濮阳市,环保局,臭氧1小时,70,21,43,17,26,176,,219,205,18,15,5,7,0.3,0.4
2025-06-22T2100,2394A,115.0574,35.7609,濮阳市,油田运输公司,臭氧1小时,72,44,51,15,23,177,,214,201,20,17,6,7,0.5,0.6
2025-06-22T2100,3021A,115,35.7668,濮阳市,濮水河管理处,,44,30,44,17,28,140,,192,182,27,23,4,5,0.4,0.4
2025-06-22T2100,4216A,115.0924,35.7686,濮阳市,任丘路479号,臭氧1小时,55,41,56,20,26,164,,208,198,14,12,6,8,0.7,0.8
2025-06-22T2100,2601A,100.98,22.7633,普洱市,市环保局,,21,21,21,11,10,18,,34,32,7,4,4,4,0.6,0.5
2025-06-22T2100,2602A,100.9817,22.8322,普洱市,普洱第二中学,,22,20,21,15,13,16,,34,30,6,5,6,6,0.5,0.5
2025-06-22T2100,2262A,131.0518,45.8751,七台河市,新一中,,24,,9,12,8,75,,97,89,9,5,10,9,0.8,0.7
2025-06-22T2100,3345A,131.0577,45.7879,七台河市,中波台,,16,9,8,7,8,49,,72,64,20,9,8,7,0.3,0.3
2025-06-22T2100,3637A,131.0176,45.7761,七台河市,人民广场,,35,35,15,14,11,49,,73,64,21,10,11,11,0.6,0.5
2025-06-22T2100,3684A,130.8781,45.8222,七台河市,新建矿广场,,29,,7,20,9,67,,78,73,10,8,10,10,0.4,0.4
2025-06-22T2100,1779A,123.9305,47.3636,齐齐哈尔市,安居小区,,41,41,25,17,9,80,,104,97,18,15,7,6,0.5,0.4
2025-06-22T2100,1780A,123.9488,47.3386,齐齐哈尔市,中心广场,,37,37,27,9,9,92,,110,106,14,15,7,6,0.5,0.5
2025-06-22T2100,1781A,123.9483,47.3227,齐齐哈尔市,农牧车辆厂,,31,31,29,13,9,87,,105,101,12,12,5,6,0.1,0.3
2025-06-22T2100,1783A,123.945,47.2988,齐齐哈尔市,市环境监测站,,30,26,20,6,8,96,,112,110,11,10,4,4,0.2,0.2
2025-06-22T2100,3662A,123.6333,47.2075,齐齐哈尔市,富区青少年活动中心,,29,25,37,14,15,91,,109,106,10,14,6,5,0.7,0.5
2025-06-22T2100,2591A,107.9783,26.5747,黔东南苗族侗族自治州,市环境监测站,,13,8,10,6,7,39,,67,52,8,8,3,2,0.6,0.6
2025-06-22T2100,2881A,107.8908,26.5311,黔东南苗族侗族自治州,凯里学院,,16,7,6,6,6,50,,67,56,10,6,2,2,0.5,0.4
2025-06-22T2100,2593A,107.5228,26.2403,黔南布依族苗族自治州,小围寨,,10,7,11,3,6,31,,38,37,8,7,2,2,0.4,0.5
2025-06-22T2100,3538A,107.5175,26.2978,黔南布依族苗族自治州,沙坝,,19,19,20,9,8,26,,37,36,10,9,5,5,0.8,0.7
2025-06-22T2100,2589A,104.9022,25.0925,黔西南布依族苗族自治州,场坝街,,24,9,18,3,8,74,,88,87,9,10,3,5,0.4,0.4
2025-06-22T2100,2590A,104.8811,25.0992,黔西南布依族苗族自治州,坪东大道,,16,,19,11,9,44,,82,78,23,12,1,2,0.4,0.3
2025-06-22T2100,2502A,108.6236,21.9667,钦州市,市环保站,,19,19,19,7,8,40,,52,49,10,11,2,2,0.3,0.4
2025-06-22T2100,2503A,108.6549,21.9481,钦州市,沙埠小学,,15,15,25,8,10,40,,51,47,10,13,3,2,0.3,0.3
2025-06-22T2100,2504A,108.5989,21.7431,钦州市,港区一小,,23,23,31,8,11,34,,46,43,28,17,2,3,0.4,0.5
2025-06-22T2100,3404A,108.5959,21.9633,钦州市,北职校,,30,30,25,13,12,32,,52,47,14,10,2,3,0.3,0.4
2025-06-22T2100,1043A,119.7493,40.0116,秦皇岛市,第一关,颗粒物(PM10),59,67,46,31,19,120,,207,193,98,32,9,9,0.6,0.5
2025-06-22T2100,1044A,119.5897,39.9499,秦皇岛市,监测站,臭氧1小时,82,79,51,28,18,185,,211,207,43,36,9,11,0.8,0.7
2025-06-22T2100,1046A,119.5251,39.9041,秦皇岛市,建设大厦,臭氧1小时,112,79,55,30,16,223,,204,204,27,25,10,13,0.8,0.8
2025-06-22T2100,3132A,119.610547,39.943889,秦皇岛市,文明里,臭氧1小时,115,76,56,24,15,230,,226,226,27,28,10,13,0.7,0.7
2025-06-22T2100,4198A,119.5090,39.8253,秦皇岛市,北戴河轮滑馆,臭氧1小时,107,92,64,46,27,214,,264,258,24,19,5,11,0.7,0.9
2025-06-22T2100,1307A,120.6659,36.2403,青岛市,仰口,,34,28,46,18,26,108,,173,154,8,13,7,8,0.8,0.9
2025-06-22T2100,1310A,120.4134,36.0658,青岛市,市南区东部子站,臭氧1小时,84,53,51,36,30,187,,226,214,8,15,10,11,0.5,0.5
2025-06-22T2100,1311A,120.3664,36.1032,青岛市,四方区子站,臭氧1小时,98,61,52,36,33,198,,224,212,20,19,12,9,0.6,0.7
2025-06-22T2100,1312A,120.2994,36.054,青岛市,市南区西部子站,臭氧1小时,78,63,58,37,35,182,,213,204,20,29,8,9,0.8,0.8
2025-06-22T2100,1313A,120.4581,36.0858,青岛市,崂山区子站,臭氧1小时,80,51,46,39,29,184,,216,216,13,18,8,9,0.4,0.4
2025-06-22T2100,1315A,120.3999,36.3083,青岛市,城阳区子站,,49,39,37,22,21,154,,155,151,23,19,6,7,0.4,0.4
2025-06-22T2100,1966A,120.0405,35.8735,青岛市,黄岛区4号,臭氧1小时,118,78,65,53,43,236,,256,254,15,24,8,12,0.9,1
2025-06-22T2100,3362A,120.5014,36.4034,青岛市,即墨2号,,45,22,35,8,30,144,,143,143,5,13,3,5,0.2,0.3
2025-06-22T2100,3642A,120.3503,36.0736,青岛市,市北区南部,细颗粒物(PM2.5),70,,47,51,38,166,,198,185,21,22,12,10,0.6,0.7
2025-06-22T2100,3643A,120.3948,36.1805,青岛市,李沧区北部,颗粒物(PM10),56,61,50,29,31,162,,178,166,20,19,9,10,0.7,0.7
2025-06-22T2100,4290A,120.1969,35.9546,青岛市,珠江路669号,臭氧1小时,111,63,56,51,42,222,,250,243,13,19,7,10,0.5,0.6
2025-06-22T2100,1702A,113.0426,23.691,清远市,环保大楼,,20,14,13,14,11,47,,84,75,20,20,5,6,0.3,0.3
2025-06-22T2100,1703A,113.0208,23.7106,清远市,凤城街办,,24,24,24,9,15,52,,74,69,23,23,6,7,0.4,0.4
2025-06-22T2100,3025A,113.0477,23.6344,清远市,技师学院,,34,34,26,16,12,35,,74,62,30,22,8,8,0.5,0.5
2025-06-22T2100,3318A,112.9903,23.7403,清远市,清新太和,,23,23,23,9,10,37,,74,66,20,20,8,8,0.5,0.5
2025-06-22T2100,3455A,113.076,23.7198,清远市,清城东城,,24,24,24,9,12,32,,81,69,22,18,10,9,0.4,0.4
2025-06-22T2100,2661A,107.6325,35.7357,庆阳市,庆阳五中,,39,22,36,11,23,123,,141,128,9,10,4,7,0.4,0.5
2025-06-22T2100,2662A,107.6364,35.7067,庆阳市,市环保局,,42,24,37,13,20,134,,138,133,5,7,6,8,0.8,0.5
2025-06-22T2100,1916A,103.7897,25.5035,曲靖市,环境监测站,,27,27,16,7,8,60,,88,77,15,9,2,2,0.6,0.5
2025-06-22T2100,1917A,103.8,25.5364,曲靖市,烟厂办公区,,19,15,13,3,7,60,,94,84,11,5,3,3,0.7,0.6
2025-06-22T2100,3376A,103.7947,25.462,曲靖市,南苑二区,,19,17,15,10,8,59,,94,82,16,10,3,4,0.7,0.6
2025-06-22T2100,3377A,103.7444,25.5261,曲靖市,曲靖师范学院,,21,17,9,11,5,38,,93,72,41,13,6,5,0.5,0.4
2025-06-22T2100,1264A,118.8692,28.9398,衢州市,环保大楼,,42,42,33,28,18,33,,43,43,20,17,3,4,0.4,0.3
2025-06-22T2100,1265A,118.8709,28.9666,衢州市,实验学校,,46,42,32,32,18,30,,46,45,22,19,4,4,0.4,0.3
2025-06-22T2100,1266A,118.8621,28.9808,衢州市,衢州学院,,42,42,28,27,16,31,,47,46,25,21,4,4,0.5,0.4
2025-06-22T2100,1611A,118.5819,24.9117,泉州市,涂山街,,35,35,27,17,12,48,,100,87,19,16,4,4,0.5,0.5
2025-06-22T2100,1612A,118.5972,24.8978,泉州市,津头埔,,34,34,25,12,12,53,,103,89,15,14,2,3,0.5,0.5
2025-06-22T2100,1613A,118.6663,24.9424,泉州市,万安,,30,30,26,10,9,47,,104,90,19,12,3,3,0.5,0.5
2025-06-22T2100,1614A,118.6117,24.9604,泉州市,清源山,,,,,,,,,,,,,,,,
2025-06-22T2100,3529A,118.6333,24.9264,泉州市,城华南路,,24,24,21,13,11,58,,98,86,11,12,4,5,0.4,0.4
2025-06-22T2100,2626A,88.8876,29.2718,日喀则市,日喀则监测站,,47,12,14,3,7,148,,156,156,8,10,14,12,0.3,0.3
2025-06-22T2100,3726A,88.8781,29.2426,日喀则市,林业技术推广中心,,42,27,18,6,6,134,,147,146,3,5,9,8,0.3,0.3
2025-06-22T2100,1659A,119.471,35.4209,日照市,监测站,臭氧1小时,109,63,53,53,40,218,,234,234,20,25,5,6,0.8,0.8
2025-06-22T2100,1660A,119.523,35.4216,日照市,市政府广场,臭氧1小时,105,63,55,51,36,209,,223,223,11,17,8,10,0.9,0.8
2025-06-22T2100,1661A,119.5587,35.4044,日照市,港务局,臭氧1小时,109,63,60,61,46,218,,232,232,9,20,7,9,0.9,0.9
2025-06-22T2100,3507A,119.5328,35.4625,日照市,职业技术学院,臭氧1小时,108,75,61,48,36,216,,244,244,19,19,5,8,0.8,0.8
2025-06-22T2100,3604A,119.3266,35.1044,日照市,岚山环保分局,臭氧1小时,105,66,60,44,31,209,,206,203,17,25,10,13,0.9,1.1
2025-06-22T2100,1835A,111.1922,34.7752,三门峡市,市政府,颗粒物(PM10),51,51,43,31,25,146,,178,173,22,14,6,7,0.5,0.5
2025-06-22T2100,1836A,111.1587,34.7942,三门峡市,开发区,,45,41,39,19,24,143,,184,176,24,17,8,8,0.5,0.5
2025-06-22T2100,1838A,111.143,34.7955,三门峡市,风景区,,45,42,38,15,19,141,,191,184,12,8,9,9,0.4,0.4
2025-06-22T2100,3039A,111.1911,34.7829,三门峡市,三门峡市第一小学,,50,44,41,16,25,157,,181,177,20,11,8,10,0.7,0.7
2025-06-22T2100,3598A,111.1,34.7167,三门峡市,富达温泉假日酒店,,43,33,27,18,20,135,,178,168,22,13,10,10,0.2,0.2
2025-06-22T2100,2324A,117.6211,26.2625,三明市,三钢,,24,17,19,15,10,33,,52,48,17,13,17,15,2.4,2.9
2025-06-22T2100,2325A,117.635,26.2714,三明市,三明二中,,12,12,15,3,9,28,,54,49,19,11,4,5,0.7,0.8
2025-06-22T2100,2326A,117.6028,26.2378,三明市,三元区政府,,13,13,17,3,7,40,,59,54,9,10,6,7,0.1,0.2
2025-06-22T2100,2327A,117.7275,26.3108,三明市,洋溪,,,,,,,,,,,,,,,,
2025-06-22T2100,1876A,109.5078,18.2489,三亚市,河东子站,,20,20,13,7,6,37,,50,44,4,3,3,3,0.3,0.4
2025-06-22T2100,1877A,109.4964,18.2681,三亚市,河西子站,,15,14,13,10,5,38,,50,44,7,7,2,2,0.3,0.3
2025-06-22T2100,3540A,109.7348,18.3443,三亚市,君悦子站,,17,17,11,3,4,49,,54,51,3,3,1,2,0.3,0.3
2025-06-22T2100,2624A,91.7608,29.2313,山南市,山南监测站,,43,14,17,3,9,136,,156,155,9,9,8,8,0.2,0.2
2025-06-22T2100,2625A,91.7706,29.2436,山南市,山南人民医院,,48,26,20,14,11,152,,162,162,4,8,6,7,0.1,0.2
2025-06-22T2100,1674A,116.6794,23.3667,汕头市,金平子站,,13,11,12,3,6,40,,57,52,6,4,6,4,0.4,0.4
2025-06-22T2100,1675A,116.7244,23.3633,汕头市,龙湖子站,,16,16,14,7,7,37,,52,47,6,7,5,5,0.4,0.4
2025-06-22T2100,1676A,116.7258,23.2775,汕头市,濠江子站,,12,12,15,7,5,36,,45,41,6,6,4,4,0.5,0.5
2025-06-22T2100,1677A,116.7519,23.4714,汕头市,澄海子站,,14,14,17,9,6,38,,61,55,8,7,2,2,0.5,0.5
2025-06-22T2100,1678A,116.6092,23.2539,汕头市,潮阳子站,,16,16,14,8,7,43,,51,48,2,3,4,4,0.5,0.6
2025-06-22T2100,3444A,116.454,23.2684,汕头市,潮南峡山,,25,17,16,17,9,39,,48,46,4,4,4,5,0.4,0.4
2025-06-22T2100,3624A,116.4069,23.2533,汕头市,潮南子站,,15,14,14,10,7,39,,48,46,3,2,4,4,0.5,0.5
2025-06-22T2100,1693A,115.3653,22.775,汕尾市,市环保局,,13,,10,3,5,40,,53,51,5,5,3,2,0.3,0.3
2025-06-22T2100,1694A,115.3706,22.7898,汕尾市,市政府,,14,10,12,3,5,42,,55,52,5,4,3,4,0.4,0.4
2025-06-22T2100,1695A,115.3622,22.7925,汕尾市,新城中学,,13,12,12,9,5,41,,53,51,5,4,3,3,0.5,0.5
2025-06-22T2100,2645A,109.9154,33.8715,商洛市,监测站,,40,27,28,18,17,128,,143,142,12,12,10,9,0.5,0.5
2025-06-22T2100,3045A,109.9643,33.8471,商洛市,商州区中学,,39,27,33,16,15,124,,141,139,14,19,6,8,0.4,0.5
2025-06-22T2100,2408A,115.6702,34.4285,商丘市,环境监测站,,42,33,24,18,17,132,,160,157,12,7,3,2,0.5,0.5
2025-06-22T2100,2409A,115.6458,34.4045,商丘市,粮食局,,45,37,24,21,20,141,,162,160,9,7,4,3,0.4,0.3
2025-06-22T2100,2410A,115.6293,34.3948,商丘市,睢阳区环保局,,45,45,28,20,16,122,,155,149,18,11,2,2,0.3,0.3
2025-06-22T2100,3171A,115.6071,34.4465,商丘市,梁园区档案局,,40,34,23,24,16,127,,159,155,17,10,3,3,0.4,0.5
2025-06-22T2100,1141A,121.4,31.238,上海市,普陀,,25,,14,6,7,79,,100,86,18,16,4,4,0.3,0.3
2025-06-22T2100,1142A,121.478,31.2036,上海市,十五厂,,24,,10,6,6,75,,101,87,23,19,7,7,0.5,0.4
2025-06-22T2100,1143A,121.467,31.3008,上海市,虹口,,23,6,11,3,6,73,,95,79,17,13,8,8,0.3,0.3
2025-06-22T2100,1147A,121.425,31.2261,上海市,静安监测站,,24,,12,9,7,76,,97,85,19,18,4,4,0.6,0.5
2025-06-22T2100,1148A,121.703,31.1907,上海市,浦东川沙,,25,6,10,3,6,78,,96,90,17,15,7,7,0.6,0.6
2025-06-22T2100,1149A,121.533,31.2284,上海市,浦东新区监测站,,25,6,10,3,4,79,,92,90,12,12,7,7,0.5,0.5
2025-06-22T2100,1150A,121.577,31.2071,上海市,浦东张江,,,9,13,3,6,,,100,100,,14,,5,,0.7
2025-06-22T2100,3265A,121.4316,31.3322,上海市,宝山庙行,,22,8,11,6,4,68,,96,78,26,18,8,8,0.3,0.3
2025-06-22T2100,3266A,121.8791,31.4662,上海市,崇明上实东滩,,34,8,11,3,5,106,,112,109,4,5,1,2,0.4,0.4
2025-06-22T2100,3268A,121.3162,31.2838,上海市,嘉定南翔,,21,7,17,6,9,67,,86,72,20,18,5,6,0.4,0.4
2025-06-22T2100,3269A,121.3359,30.7456,上海市,金山新城,,29,12,20,8,10,92,,104,104,12,17,2,3,0.4,1.1
2025-06-22T2100,3270A,121.4996,31.0739,上海市,闵行浦江,,22,18,15,8,8,69,,88,84,19,15,3,4,0.6,0.6
2025-06-22T2100,3271A,121.2886,31.1663,上海市,青浦徐泾,,,,15,,10,74,,84,80,,19,,6,,0.7
