timepoint,stationcode,longitude,latitude,area,positionname,primarypollutant,aqi,pm10,pm10_24h,pm2_5,pm2_5_24h,o3,o3_24h,o3_8h,o3_8h_24h,no2,no2_24h,so2,so2_24h,co,co_24h
2024-03-04T2300,2566A,102.1879,31.914,阿坝藏族羌族自治州,州农科所,,20,20,27,9,11,18,,30,28,4,8,8,8,1.4,1.4
2024-03-04T2300,2568A,102.2502,31.8896,阿坝藏族羌族自治州,马师校,,21,14,12,12,9,67,,89,86,4,10,4,4,0.5,0.5
2024-03-04T2300,3994A,102.2165,31.9024,阿坝藏族羌族自治州,马尔康中学西区,,22,18,14,12,8,68,,87,85,5,8,5,5,0.5,0.4
2024-03-04T2300,2695A,80.292,41.1694,阿克苏地区,电视台,颗粒物(PM10),173,295,216,78,50,28,,91,80,60,16,6,4,1.3,0.9
2024-03-04T2300,2696A,80.2613,41.1551,阿克苏地区,艺术中心,颗粒物(PM10),167,283,204,72,52,36,,89,77,52,16,9,7,1.2,0.8
2024-03-04T2300,2204A,105.6467,38.8363,阿拉善盟,西城区西花园,颗粒物(PM10),175,299,168,44,47,75,,83,83,14,21,9,9,0.8,1
2024-03-04T2300,2205A,105.6985,38.8411,阿拉善盟,蒙二幼,颗粒物(PM10),243,380,181,31,40,89,,82,82,8,18,6,11,0.6,0.9
2024-03-04T2300,2206A,105.724,38.8516,阿拉善盟,环保局新楼,颗粒物(PM10),115,180,122,30,43,96,,88,88,7,16,6,11,0.6,0.9
2024-03-04T2300,2708A,88.1264,47.8517,阿勒泰地区,市站,,31,31,31,20,16,71,,89,86,26,18,4,6,0.5,0.5
2024-03-04T2300,2630A,80.1161,32.5,阿里地区,阿里监测站,,33,5,17,3,4,103,,108,108,5,2,8,7,0.4,0.3
2024-03-04T2300,3192A,80.0903,32.5028,阿里地区,阿里藏医院,,34,10,28,3,7,108,,110,110,2,2,7,7,0.4,0.4
2024-03-04T2300,2642A,109.0318,32.6537,安康市,香溪洞,,45,41,58,31,46,65,,65,65,8,17,6,8,0.7,0.8
2024-03-04T2300,2643A,109.0281,32.6939,安康市,安康市监测站,细颗粒物(PM2.5),55,54,75,39,52,53,,58,56,20,31,7,11,0.8,1
2024-03-04T2300,2644A,109.0072,32.6975,安康市,汉滨区检察院,细颗粒物(PM2.5),59,54,66,42,49,58,,68,68,18,26,19,9,0.7,0.8
2024-03-04T2300,2291A,117.0809,30.5177,安庆市,环科院,,35,25,34,24,30,23,,32,12,34,50,5,6,1.3,1
2024-03-04T2300,2292A,117.0331,30.5119,安庆市,马山宾馆,,32,32,37,22,28,26,,39,15,36,50,5,7,1.2,0.9
2024-03-04T2300,2294A,116.9896,30.6145,安庆市,安庆大学,,29,22,36,20,26,31,,50,19,32,42,7,9,1.1,1
2024-03-04T2300,3173A,117.0598,30.5351,安庆市,市人大,,36,28,38,25,30,19,,29,11,34,44,4,5,1.3,1.1
2024-03-04T2300,3123A,105.9408,26.2431,安顺市,凤凰山,细颗粒物(PM2.5),57,44,34,40,28,56,,79,74,13,12,24,16,0.9,0.8
2024-03-04T2300,3124A,105.9439,26.2564,安顺市,金钟山,细颗粒物(PM2.5),63,47,32,45,28,63,,84,79,10,10,18,12,0.8,0.7
2024-03-04T2300,3125A,105.8983,26.2481,安顺市,娄家坡,细颗粒物(PM2.5),55,50,35,39,28,59,,87,82,10,10,25,16,0.8,0.7
2024-03-04T2300,1819A,114.3551,36.1017,安阳市,红庙街,颗粒物(PM10),74,98,140,51,73,42,,53,51,39,39,4,10,0.6,1.5
2024-03-04T2300,1820A,114.361,36.0681,安阳市,银杏小区,颗粒物(PM10),71,92,128,47,74,42,,51,50,34,37,8,9,0.7,0.9
2024-03-04T2300,3141A,114.3922,36.0878,安阳市,信访局,细颗粒物(PM2.5),79,105,143,58,74,39,,55,52,38,40,7,8,0.8,0.8
2024-03-04T2300,3669A,114.4705,36.0637,安阳市,左辅环卫站,"颗粒物(PM10),细颗粒物(PM2.5)",88,125,146,65,75,41,,61,56,34,39,8,8,0.7,0.7
2024-03-04T2300,3703A,114.2917,36.0949,安阳市,安钢职工学校,,,124,152,55,81,,,47,,38,36,11,14,1.0,1.3
2024-03-04T2300,1748A,123.044,41.1196,鞍山市,深沟寺,细颗粒物(PM2.5),94,117,73,70,42,30,,88,64,58,29,13,11,1.2,0.8
2024-03-04T2300,1749A,123.011,41.0931,鞍山市,太阳城,细颗粒物(PM2.5),77,97,67,56,37,41,,93,75,43,26,16,16,1.0,0.9
2024-03-04T2300,1750A,123.0485,41.1442,鞍山市,太平,细颗粒物(PM2.5),98,127,93,73,49,30,,84,60,58,40,13,11,1.1,1
2024-03-04T2300,1751A,122.9642,41.0971,鞍山市,铁西三道街,细颗粒物(PM2.5),75,90,96,55,54,44,,90,60,44,51,13,16,1.0,1.3
2024-03-04T2300,1752A,122.9341,41.0833,鞍山市,铁西工业园区,颗粒物(PM10),71,91,114,50,63,40,,88,55,54,54,16,15,1.1,1.2
2024-03-04T2300,1753A,123.022,41.0821,鞍山市,明达新区,细颗粒物(PM2.5),78,84,60,57,37,36,,87,67,50,33,15,14,0.8,0.7
2024-03-04T2300,2195A,107.4212,40.761,巴彦淖尔市,附二中,,48,48,115,23,48,55,,64,63,12,28,4,13,0.4,0.8
2024-03-04T2300,2196A,107.37,40.7372,巴彦淖尔市,市环保大楼,颗粒物(PM10),52,53,106,23,49,58,,66,66,9,24,4,13,0.4,0.7
2024-03-04T2300,1956A,86.1472,41.7538,巴音郭楞蒙古自治州,孔雀公园,颗粒物(PM10),126,202,206,39,42,63,,89,79,24,18,5,6,0.4,0.4
2024-03-04T2300,1957A,86.1972,41.7166,巴音郭楞蒙古自治州,棉纺厂,颗粒物(PM10),170,290,264,49,45,66,,91,81,15,16,2,3,0.3,0.4
2024-03-04T2300,1958A,86.2357,41.7173,巴音郭楞蒙古自治州,经济开发区,颗粒物(PM10),145,239,224,34,42,82,,95,90,10,13,5,5,0.3,0.4
2024-03-04T2300,2914A,106.7677,31.8794,巴中市,苏山坪,,38,34,41,26,32,61,,67,60,10,10,3,3,0.5,0.5
2024-03-04T2300,3182A,106.7656,31.8545,巴中市,丽阳花园,细颗粒物(PM2.5),74,82,60,54,44,3,,34,22,43,37,5,5,1.1,0.9
2024-03-04T2300,3183A,106.7418,31.8654,巴中市,圣泉水务公司,细颗粒物(PM2.5),68,70,54,49,40,15,,32,27,47,38,5,4,0.8,0.7
2024-03-04T2300,3616A,106.7616,31.8344,巴中市,市中心医院,细颗粒物(PM2.5),80,85,69,59,49,2,,36,26,47,36,5,5,0.8,0.9
2024-03-04T2300,2235A,122.7911,45.6077,白城市,洮北区环保局,,34,34,36,12,17,64,,75,62,6,9,4,6,0.5,0.4
2024-03-04T2300,2236A,122.8738,45.5725,白城市,市环保局,,50,50,42,21,20,57,,84,48,18,21,4,5,0.5,0.5
2024-03-04T2300,2231A,126.4219,41.9171,白山市,喜丰,颗粒物(PM10),58,66,52,31,22,28,,88,58,51,24,26,17,1.0,0.8
2024-03-04T2300,2232A,126.4077,41.9419,白山市,环保局,颗粒物(PM10),66,81,71,32,27,37,,76,45,30,24,15,15,1.1,1
2024-03-04T2300,2647A,104.1724,36.5446,白银市,第三小学,颗粒物(PM10),59,67,64,12,18,91,,100,98,6,10,7,43,0.3,0.7
2024-03-04T2300,2648A,104.1465,36.5482,白银市,动力公司,颗粒物(PM10),52,54,60,12,24,93,,100,98,9,14,4,15,0.2,0.5
2024-03-04T2300,2512A,106.6103,23.9011,百色市,市监测站,,48,48,86,29,52,38,,99,74,26,27,8,15,1.0,1
2024-03-04T2300,2513A,106.6538,23.8859,百色市,市中心血站,颗粒物(PM10),61,72,81,37,61,16,,95,67,59,35,7,12,1.1,1
2024-03-04T2300,3406A,106.6085,23.8798,百色市,祈福高中,颗粒物(PM10),58,65,78,39,63,25,,104,78,43,26,21,18,1.0,1.1
2024-03-04T2300,2270A,117.396,32.939,蚌埠市,工人疗养院,细颗粒物(PM2.5),85,100,88,63,60,39,,52,42,22,39,5,9,0.8,0.8
2024-03-04T2300,2271A,117.3605,32.9427,蚌埠市,百货大楼,细颗粒物(PM2.5),92,105,90,68,65,34,,56,37,23,41,3,5,0.6,0.7
2024-03-04T2300,2273A,117.4185,32.8911,蚌埠市,蚌埠学院,细颗粒物(PM2.5),95,85,79,71,62,35,,70,26,27,37,4,8,0.7,0.7
2024-03-04T2300,2274A,117.3533,32.9673,蚌埠市,淮上区政府,细颗粒物(PM2.5),88,90,86,65,64,34,,63,38,25,35,4,7,0.8,0.8
2024-03-04T2300,2275A,117.3145,32.8977,蚌埠市,高新区,细颗粒物(PM2.5),99,92,75,74,61,34,,73,40,29,35,4,7,0.8,0.8
2024-03-04T2300,3715A,117.3092,32.9314,蚌埠市,蚌埠田家炳中学,细颗粒物(PM2.5),90,106,93,67,64,29,,73,38,30,36,4,7,0.6,0.7
2024-03-04T2300,1585A,109.8756,40.6532,包头市,市环境监测站,颗粒物(PM10),52,54,108,26,49,48,,40,38,24,62,14,33,0.6,1.4
2024-03-04T2300,1587A,109.9991,40.5842,包头市,包头八中,"颗粒物(PM10),细颗粒物(PM2.5)",64,78,103,46,48,40,,41,37,43,59,14,29,0.8,1
2024-03-04T2300,1588A,109.8538,40.6821,包头市,青山宾馆,颗粒物(PM10),53,55,92,25,47,55,,37,37,20,59,12,29,0.7,1.4
2024-03-04T2300,1589A,109.8642,40.6288,包头市,惠龙物流,颗粒物(PM10),58,66,96,38,44,47,,43,41,27,56,13,27,0.7,0.9
2024-03-04T2300,1590A,110.0377,40.5546,包头市,东河鸿龙湾,颗粒物(PM10),62,73,86,35,37,26,,44,30,46,54,12,16,0.7,0.7
2024-03-04T2300,3283A,109.9154,40.5685,包头市,滨河大厦,颗粒物(PM10),64,77,88,33,39,9,,42,26,63,49,16,18,1.1,0.9
2024-03-04T2300,3419A,109.9447,40.6261,包头市,包头市委党校,颗粒物(PM10),55,60,93,25,39,33,,35,34,43,61,17,35,0.6,1.1
2024-03-04T2300,3683A,109.8331,40.6576,包头市,昆区政府,颗粒物(PM10),53,56,89,25,49,52,,41,41,17,56,12,29,1.0,1.7
2024-03-04T2300,1930A,107.185,34.3063,宝鸡市,庙沟村,细颗粒物(PM2.5),107,,76,80,69,18,,52,40,41,22,8,8,1.0,0.9
2024-03-04T2300,1931A,107.0708,34.3017,宝鸡市,竹园沟,细颗粒物(PM2.5),97,84,81,72,68,22,,54,43,33,31,7,8,0.9,0.9
2024-03-04T2300,1932A,107.1906,34.3672,宝鸡市,三陆医院,细颗粒物(PM2.5),147,146,100,112,77,9,,47,33,68,45,8,9,1.2,0.9
2024-03-04T2300,1933A,107.1431,34.3547,宝鸡市,监测站,细颗粒物(PM2.5),123,107,92,93,73,6,,46,28,52,40,5,5,0.9,0.8
2024-03-04T2300,1934A,107.1186,34.3739,宝鸡市,技工学校,细颗粒物(PM2.5),124,113,89,94,69,16,,52,40,45,37,6,7,0.9,0.8
2024-03-04T2300,1935A,107.3906,34.3528,宝鸡市,陈仓区环保局家属楼,细颗粒物(PM2.5),176,177,114,133,90,12,,43,33,66,54,10,13,1.3,1.1
2024-03-04T2300,1936A,107.2058,34.3497,宝鸡市,文理学院,细颗粒物(PM2.5),112,118,93,84,70,7,,39,26,61,49,7,8,0.9,0.8
2024-03-04T2300,1937A,107.2386,34.3622,宝鸡市,三迪小学,细颗粒物(PM2.5),124,119,93,94,73,7,,40,31,67,49,8,9,1.0,0.8
2024-03-04T2300,1051A,115.493,38.8632,保定市,游泳馆,颗粒物(PM10),70,90,84,44,43,54,,71,62,26,28,12,11,0.5,0.5
2024-03-04T2300,1052A,115.5213,38.8959,保定市,华电二区,颗粒物(PM10),69,87,69,42,40,42,,66,53,39,36,6,5,0.4,0.5
2024-03-04T2300,1053A,115.4713,38.9108,保定市,接待中心,颗粒物(PM10),59,68,76,41,36,48,,65,55,31,28,6,5,0.7,0.7
2024-03-04T2300,1054A,115.4612,38.8416,保定市,地表水厂,颗粒物(PM10),85,119,96,46,40,57,,59,59,27,28,8,7,0.9,0.8
2024-03-04T2300,3581A,115.31981,38.95208,保定市,满城区生态环境分局,颗粒物(PM10),76,102,91,48,40,60,,65,59,27,30,8,6,0.9,0.8
2024-03-04T2300,3582A,115.47694,38.76408,保定市,清苑区第二中学,颗粒物(PM10),77,103,96,46,38,53,,62,50,31,36,12,11,0.8,0.8
2024-03-04T2300,3583A,115.62909,39.02311,保定市,徐水物探局,颗粒物(PM10),71,92,82,39,36,36,,72,52,33,33,8,7,0.6,0.6
2024-03-04T2300,4004A,115.4202,38.8656,保定市,双鹰农机,颗粒物(PM10),66,82,71,43,35,54,,71,63,28,24,8,8,0.8,0.8
2024-03-04T2300,4034A,115.5150,38.8590,保定市,植保所站,细颗粒物(PM2.5),73,86,78,53,44,42,,67,54,35,32,8,7,0.6,0.6
2024-03-04T2300,2594A,99.1678,25.1081,保山市,市环境监测站,,36,36,39,21,24,92,,99,96,6,8,6,6,0.7,0.7
2024-03-04T2300,2595A,99.1711,25.1328,保山市,市环保局,,46,46,47,20,29,100,,95,95,4,6,8,7,0.5,0.5
2024-03-04T2300,1867A,109.1436,21.4086,北海市,海滩公园,颗粒物(PM10),93,136,45,27,21,36,,75,58,39,20,6,7,0.6,0.8
2024-03-04T2300,1868A,109.0981,21.4661,北海市,新市环保局,,25,13,31,7,21,79,,89,82,8,15,6,6,0.4,0.7
2024-03-04T2300,1869A,109.1778,21.5233,北海市,北海工业园,,32,32,42,17,28,74,,92,85,9,15,6,7,0.7,0.9
2024-03-04T2300,3400A,109.1911,21.4415,北海市,龙潭自来水厂,,,,29,37,28,48,,84,64,11,12,6,8,1.5,1
2024-03-04T2300,1001A,116.3621,39.8784,北京市,万寿西宫,颗粒物(PM10),57,64,60,33,32,45,,64,55,40,34,3,5,0.6,0.7
2024-03-04T2300,1002A,116.2202,40.2915,北京市,定陵,,45,43,53,31,34,62,,78,70,10,15,3,3,0.5,0.6
2024-03-04T2300,1003A,116.4174,39.9289,北京市,东四,颗粒物(PM10),58,65,61,35,35,38,,66,57,42,31,5,7,0.7,0.9
2024-03-04T2300,1004A,116.4072,39.8863,北京市,天坛,颗粒物(PM10),61,71,60,40,33,44,,67,52,40,31,3,4,0.7,0.8
2024-03-04T2300,1005A,116.462,39.9365,北京市,农展馆,颗粒物(PM10),60,70,58,36,31,35,,70,55,51,35,4,5,0.6,0.7
2024-03-04T2300,1006A,116.3392,39.9295,北京市,官园,颗粒物(PM10),54,57,63,31,35,56,,75,66,35,32,4,6,0.6,0.7
2024-03-04T2300,1007A,116.2878,39.9611,北京市,海淀万柳,颗粒物(PM10),52,54,64,26,34,57,,70,62,37,39,3,4,0.7,0.8
2024-03-04T2300,1008A,116.6636,40.135,北京市,顺义新城,"颗粒物(PM10),细颗粒物(PM2.5)",78,106,64,57,33,57,,78,63,27,26,4,3,0.8,0.8
2024-03-04T2300,1009A,116.6275,40.3275,北京市,怀柔镇,颗粒物(PM10),59,67,51,38,29,45,,83,69,34,18,6,6,0.6,0.5
2024-03-04T2300,1010A,116.2296,40.217,北京市,昌平镇,颗粒物(PM10),52,53,61,27,31,61,,81,67,24,26,2,4,0.4,0.6
2024-03-04T2300,1011A,116.3966,39.9821,北京市,奥体中心,颗粒物(PM10),54,58,55,31,31,38,,64,52,45,30,3,4,0.6,0.7
2024-03-04T2300,1012A,116.184,39.9136,北京市,古城,颗粒物(PM10),52,53,65,25,34,42,,69,60,46,39,2,4,0.7,0.8
2024-03-04T2300,3281A,115.9718,40.4529,北京市,延庆夏都,颗粒物(PM10),55,59,53,33,27,39,,82,72,38,19,2,3,0.6,0.5
2024-03-04T2300,3417A,117.0709,40.1465,北京市,平谷新城,颗粒物(PM10),76,101,58,55,31,45,,79,62,32,25,6,4,0.8,0.6
2024-03-04T2300,3418A,116.8336,40.4095,北京市,密云新城,颗粒物(PM10),64,77,59,27,26,39,,82,61,27,24,1,2,0.4,0.5
2024-03-04T2300,3672A,116.1541,39.8204,北京市,丰台云岗,颗粒物(PM10),57,64,70,30,34,47,,65,56,33,39,1,3,0.5,0.6
2024-03-04T2300,3673A,116.6804,39.9081,北京市,通州东关,颗粒物(PM10),72,93,70,50,40,79,,78,68,19,31,4,6,0.6,0.8
2024-03-04T2300,3674A,115.9577,39.7603,北京市,房山燕山,细颗粒物(PM2.5),65,75,59,47,34,41,,66,58,40,32,2,3,0.7,0.6
2024-03-04T2300,3675A,116.4672,39.7733,北京市,大兴旧宫,颗粒物(PM10),79,107,64,56,37,55,,67,61,28,29,3,4,0.7,0.8
2024-03-04T2300,3694A,115.986,40.4563,北京市,延庆石河营,颗粒物(PM10),60,69,54,36,26,19,,85,65,54,22,1,3,0.6,0.4
2024-03-04T2300,3695A,116.6151,40.3053,北京市,怀柔新城,细颗粒物(PM2.5),59,66,52,42,33,36,,85,71,43,18,2,2,0.5,0.4
2024-03-04T2300,3696A,116.2545,39.8768,北京市,丰台小屯,颗粒物(PM10),52,53,67,25,33,52,,65,58,37,41,3,3,0.5,0.7
2024-03-04T2300,3697A,116.84,40.3844,北京市,密云镇,细颗粒物(PM2.5),59,62,55,42,39,7,,72,47,60,27,2,3,0.5,0.5
2024-03-04T2300,1761A,123.8275,41.3064,本溪市,大峪,,,69,57,41,26,64,,76,72,,32,9,11,1.0,1.3
2024-03-04T2300,1762A,123.7567,41.3325,本溪市,溪湖,颗粒物(PM10),74,98,66,51,32,29,,84,71,48,34,15,11,1.2,1
2024-03-04T2300,1763A,123.7169,41.3094,本溪市,彩屯,颗粒物(PM10),76,101,71,55,36,37,,82,63,44,40,14,16,1.1,1.3
2024-03-04T2300,1764A,123.7669,41.2864,本溪市,东明,细颗粒物(PM2.5),67,73,67,48,32,22,,82,61,63,42,11,14,1.0,1
2024-03-04T2300,1765A,123.7992,41.2664,本溪市,新立屯,,48,48,44,28,20,10,,81,39,68,43,10,11,0.8,0.8
2024-03-04T2300,1766A,123.8142,41.3472,本溪市,威宁,细颗粒物(PM2.5),89,102,76,66,38,25,,71,44,43,39,7,9,1.3,1.1
2024-03-04T2300,2587A,105.2864,27.3125,毕节市,八中,,17,12,38,9,28,52,,68,58,7,10,6,8,0.7,0.7
2024-03-04T2300,2588A,105.31,27.2944,毕节市,师专,,17,13,33,9,28,53,,66,56,8,12,7,10,0.7,0.7
2024-03-04T2300,3537A,105.3631,27.3533,毕节市,长征村,,20,14,50,11,40,64,,64,58,8,11,7,8,0.9,0.9
2024-03-04T2300,1629A,118.0018,37.3617,滨州市,第二水厂,颗粒物(PM10),65,80,127,36,75,61,,105,81,35,37,9,17,0.8,1.1
2024-03-04T2300,1630A,117.9776,37.393,滨州市,北中新校,颗粒物(PM10),68,85,137,44,78,70,,104,83,32,41,12,17,0.8,1.1
2024-03-04T2300,3514A,117.9378,37.3956,滨州市,中海酒店,细颗粒物(PM2.5),64,70,123,46,81,68,,110,89,36,39,13,18,0.8,1
2024-03-04T2300,3515A,117.9378,37.3553,滨州市,开发区一中,颗粒物(PM10),67,83,120,46,73,56,,111,82,41,35,16,21,0.6,0.8
2024-03-04T2300,3516A,118.0917,37.694,滨州市,金海六路,"颗粒物(PM10),细颗粒物(PM2.5)",70,90,110,51,65,62,,114,93,29,25,12,15,0.6,0.9
2024-03-04T2300,4028A,117.9956,37.3753,滨州市,滨州市西街道办事处,细颗粒物(PM2.5),67,78,130,48,86,67,,102,81,28,34,13,22,1.0,1.2
2024-03-04T2300,2311A,115.8072,33.8399,亳州市,污水处理厂,细颗粒物(PM2.5),100,112,92,75,64,40,,69,50,26,23,8,9,1.0,0.9
2024-03-04T2300,2312A,115.7789,33.8518,亳州市,三国揽胜宫,细颗粒物(PM2.5),97,137,112,72,61,41,,66,49,30,28,8,10,0.8,0.7
2024-03-04T2300,3332A,115.7633,33.8034,亳州市,亳州学院,细颗粒物(PM2.5),100,125,100,75,61,44,,70,50,24,22,8,9,0.8,0.8
2024-03-04T2300,2693A,82.0485,44.8556,博尔塔拉蒙古自治州,市党校,颗粒物(PM10),61,72,77,41,36,71,,98,84,16,14,7,8,0.4,0.3
2024-03-04T2300,2694A,82.0806,44.8969,博尔塔拉蒙古自治州,市环保局,颗粒物(PM10),71,91,89,33,29,48,,94,77,45,19,10,12,0.9,0.6
2024-03-04T2300,1071A,116.8842,38.2991,沧州市,沧县城建局,细颗粒物(PM2.5),72,65,83,52,48,58,,66,64,25,30,6,7,0.5,0.5
2024-03-04T2300,1072A,116.8584,38.3254,沧州市,电视转播站,颗粒物(PM10),63,75,83,39,48,48,,59,56,33,36,10,11,0.5,0.6
2024-03-04T2300,1073A,116.8709,38.3228,沧州市,市环保局,,,63,78,35,45,45,,55,52,26,30,,7,0.6,0.7
2024-03-04T2300,3324A,116.8136,38.3004,沧州市,河北水利电力学院,细颗粒物(PM2.5),63,66,82,45,46,51,,59,57,26,26,8,10,0.4,0.5
2024-03-04T2300,2622A,97.1806,31.1273,昌都市,昌都监测站,,26,8,15,8,9,83,,90,87,4,13,8,8,0.0,0.3
2024-03-04T2300,3719A,97.1714,31.1406,昌都市,昌都会议中心,,29,7,9,6,7,90,,99,97,2,5,6,5,0.3,0.3
2024-03-04T2300,2690A,88.1236,43.8886,昌吉回族自治州,天山天池,,27,20,17,7,7,84,,98,93,5,5,8,8,0.5,0.5
2024-03-04T2300,2692A,87.2717,44.0297,昌吉回族自治州,新区政务中心,细颗粒物(PM2.5),75,98,82,55,40,72,,98,94,37,34,6,8,0.9,0.8
2024-03-04T2300,3613A,87.3095,44.0142,昌吉回族自治州,亚心广场,细颗粒物(PM2.5),83,114,98,61,39,87,,97,96,26,25,4,7,0.9,0.9
2024-03-04T2300,1119A,125.3325,43.9166,长春市,食品厂,颗粒物(PM10),58,66,40,32,24,8,,72,40,70,34,7,12,0.7,0.5
2024-03-04T2300,1120A,125.2863,43.9027,长春市,客车厂,细颗粒物(PM2.5),58,64,40,41,27,11,,71,36,69,32,8,11,1.5,0.9
2024-03-04T2300,1121A,125.2841,43.8463,长春市,邮电学院,颗粒物(PM10),51,51,40,29,24,29,,80,47,49,34,24,19,0.5,0.4
2024-03-04T2300,1122A,125.3716,43.8772,长春市,劳动公园,,44,44,33,22,19,45,,82,60,36,27,6,10,1.0,0.7
2024-03-04T2300,1123A,125.3297,43.8805,长春市,园林处,,25,25,31,16,18,42,,78,57,36,25,7,12,0.5,0.5
2024-03-04T2300,1124A,125.4605,43.79,长春市,净月潭,,25,19,29,17,16,41,,82,61,23,16,6,6,0.4,0.4
2024-03-04T2300,1126A,125.3863,43.8447,长春市,经开区环卫处,,35,33,39,24,20,25,,75,52,49,39,5,7,0.5,0.5
2024-03-04T2300,1127A,125.245,43.7783,长春市,高新区管委会,,48,48,41,26,22,13,,87,46,59,36,12,9,0.5,0.5
2024-03-04T2300,1128A,125.1761,43.8325,长春市,岱山公园,,40,40,38,23,27,15,,81,43,65,29,3,4,0.5,0.5
2024-03-04T2300,1335A,113.0833,28.2325,长沙市,经开区环保局,,33,26,36,23,28,16,,34,8,24,24,4,4,0.7,0.7
2024-03-04T2300,1336A,112.8872,28.2189,长沙市,高开区环保局,,29,,32,20,26,30,,37,19,18,25,3,3,0.8,0.9
2024-03-04T2300,1337A,113.0792,28.2053,长沙市,马坡岭,,30,29,35,21,26,16,,27,8,24,29,5,6,0.7,0.8
2024-03-04T2300,1338A,112.9394,28.19,长沙市,湖南师范大学,,28,26,36,19,30,30,,37,16,17,25,2,3,0.9,1
2024-03-04T2300,1339A,113.0178,28.1322,长沙市,雨花区环保局,,35,,33,24,26,16,,35,7,24,29,3,3,0.6,0.8
2024-03-04T2300,1340A,112.9792,28.2597,长沙市,伍家岭,,25,19,35,17,31,22,,24,9,21,30,4,5,1.0,1.1
2024-03-04T2300,1341A,113.0014,28.1944,长沙市,火车新站,,23,23,34,14,26,30,,38,16,20,28,2,2,0.7,0.7
2024-03-04T2300,1342A,112.9844,28.1178,长沙市,天心区环保局,,19,,33,13,23,20,,36,8,16,26,3,4,0.2,0.7
2024-03-04T2300,1343A,112.8908,28.1308,长沙市,湖南中医药大学,,33,,40,23,30,30,,18,14,14,30,4,3,0.3,0.7
2024-03-04T2300,1344A,112.9581,28.3611,长沙市,沙坪,,17,17,30,10,20,23,,21,18,22,20,3,3,0.8,0.8
2024-03-04T2300,1727A,113.1147,36.1547,长治市,清华站,细颗粒物(PM2.5),110,101,89,83,66,50,,68,66,36,28,9,10,1.1,1.2
2024-03-04T2300,1728A,113.1031,36.1989,长治市,监测站,细颗粒物(PM2.5),117,112,107,88,72,69,,68,68,29,30,11,13,0.9,1
2024-03-04T2300,1730A,113.0886,36.2125,长治市,审计局,细颗粒物(PM2.5),104,84,90,78,71,81,,74,74,19,24,12,15,0.7,0.8
2024-03-04T2300,1731A,113.0844,36.1856,长治市,长治八中,细颗粒物(PM2.5),103,121,100,77,61,57,,67,65,39,38,6,8,0.8,0.8
2024-03-04T2300,2845A,113.1569,36.1911,长治市,德盛苑,细颗粒物(PM2.5),107,101,78,80,67,60,,71,62,22,23,8,9,1.1,1.1
2024-03-04T2300,3568A,113.06,36.0464,长治市,向阳小学,细颗粒物(PM2.5),147,172,116,112,77,23,,74,46,52,34,14,13,1.5,1
2024-03-04T2300,3569A,112.8792,36.3144,长治市,屯留一中,细颗粒物(PM2.5),133,120,108,101,83,40,,66,51,44,33,18,17,1.2,1.4
2024-03-04T2300,3570A,113.235,36.3489,长治市,潞城四中,细颗粒物(PM2.5),147,155,119,112,92,21,,71,52,48,27,10,11,2.1,1.2
2024-03-04T2300,1854A,111.6975,28.9703,常德市,市二中,,42,,50,29,38,38,,33,33,21,23,5,6,0.8,1
2024-03-04T2300,1857A,111.7158,29.1456,常德市,白鹤山,,39,27,45,27,35,26,,24,21,13,12,4,3,0.8,0.9
2024-03-04T2300,3138A,111.7153,29.0289,常德市,武陵区永安,,42,,43,29,35,39,,34,34,22,25,6,7,0.8,1
2024-03-04T2300,3139A,111.6892,28.9881,常德市,鼎城区玉霞,,35,27,46,24,35,40,,34,34,25,27,6,7,0.8,1
2024-03-04T2300,3140A,111.6625,29.0531,常德市,武陵区长庚,,33,23,50,23,37,33,,34,28,22,23,5,5,0.8,0.9
2024-03-04T2300,1196A,119.9633,31.762,常州市,市监测站,颗粒物(PM10),64,77,70,37,38,4,,74,10,71,52,9,9,1.2,1
2024-03-04T2300,1200A,119.9468,31.7069,常州市,武进监测站,颗粒物(PM10),58,66,61,32,32,3,,70,10,75,46,10,7,1.0,0.8
2024-03-04T2300,1201A,119.9255,31.9087,常州市,安家,颗粒物(PM10),61,72,68,29,36,5,,83,16,71,43,7,8,1.0,0.8
2024-03-04T2300,3002A,119.9805,31.8174,常州市,行政中心,颗粒物(PM10),55,60,56,37,33,2,,76,14,78,50,9,9,1.0,0.9
2024-03-04T2300,3003A,120.0522,31.7748,常州市,经开区,颗粒物(PM10),69,88,72,35,34,3,,77,14,71,48,5,6,0.8,0.8
2024-03-04T2300,3010A,119.9025,31.7964,常州市,钟楼,颗粒物(PM10),60,69,61,39,36,3,,73,12,67,46,7,8,1.1,1
2024-03-04T2300,3429A,119.8598,31.7066,常州市,武进经发区,细颗粒物(PM2.5),54,50,56,38,37,5,,74,13,81,51,7,8,0.9,0.8
2024-03-04T2300,3430A,119.5826,31.7245,常州市,金坛城区,,46,36,51,32,34,2,,81,18,74,36,8,9,1.1,0.7
2024-03-04T2300,2220A,120.4318,41.5881,朝阳市,西梁,颗粒物(PM10),76,102,85,54,39,41,,90,74,46,34,18,17,1.2,1.1
2024-03-04T2300,2221A,120.4521,41.5646,朝阳市,河畔小区,颗粒物(PM10),63,76,71,44,40,64,,90,80,21,25,50,14,0.9,0.9
2024-03-04T2300,2222A,120.4176,41.5648,朝阳市,八里堡,颗粒物(PM10),69,87,71,48,36,45,,87,72,41,32,20,18,1.1,1.1
2024-03-04T2300,2223A,120.3806,41.5969,朝阳市,农业园区,颗粒物(PM10),66,81,78,44,42,60,,81,69,29,33,13,18,0.8,1
2024-03-04T2300,1705A,116.6367,23.6719,潮州市,西园路,细颗粒物(PM2.5),109,96,55,82,40,30,,95,68,42,22,6,8,1.8,0.7
2024-03-04T2300,3026A,116.6183,23.6608,潮州市,市政府,细颗粒物(PM2.5),118,99,49,89,39,15,,94,67,70,23,8,10,2.8,1
2024-03-04T2300,4036A,116.6461,23.6761,潮州市,金山,细颗粒物(PM2.5),109,86,48,82,42,32,,91,65,35,21,8,10,1.4,0.8
2024-03-04T2300,2472A,113.0073,25.9061,郴州市,马头岭,,18,7,19,4,10,57,,73,67,15,16,3,5,0.5,0.7
2024-03-04T2300,2473A,113.0116,25.8226,郴州市,市职中,,17,6,10,6,9,54,,78,71,16,13,6,6,0.7,0.7
2024-03-04T2300,2474A,113.0161,25.8001,郴州市,兴隆步行街,,20,,15,8,9,64,,76,70,12,14,4,4,0.6,0.6
2024-03-04T2300,2475A,113.0383,25.8071,郴州市,市审计局,,17,12,12,3,8,53,,79,70,20,15,2,3,0.6,0.6
2024-03-04T2300,2476A,113.0348,25.7759,郴州市,市环保局,,17,10,17,4,9,53,,75,68,18,14,3,4,0.6,0.6
2024-03-04T2300,1431A,103.9728,30.7236,成都市,金泉两河,细颗粒物(PM2.5),89,81,83,66,69,0,,58,36,60,33,1,2,1.0,0.8
2024-03-04T2300,1432A,104.176,30.6872,成都市,十里店,细颗粒物(PM2.5),90,90,89,67,68,12,,53,42,65,41,2,2,1.0,0.8
2024-03-04T2300,1433A,104.079,30.5706,成都市,三瓦窑,细颗粒物(PM2.5),84,105,88,62,58,4,,48,40,70,45,2,2,0.9,0.9
2024-03-04T2300,1434A,104.1114,30.63,成都市,沙河铺,细颗粒物(PM2.5),88,84,87,65,66,6,,50,39,58,40,3,2,0.9,0.7
2024-03-04T2300,1437A,104.0786,30.6531,成都市,君平街,细颗粒物(PM2.5),87,89,92,64,69,5,,56,38,72,43,5,5,0.9,0.8
2024-03-04T2300,1438A,103.613,31.0283,成都市,灵岩寺,,47,47,65,31,42,64,,70,70,16,18,7,5,1.2,1.2
2024-03-04T2300,2880A,104.0239,30.65639,成都市,大石西路,细颗粒物(PM2.5),104,89,94,78,69,3,,58,37,73,41,3,4,1.1,0.8
2024-03-04T2300,3136A,104.2725,30.5589,成都市,龙泉驿区区政府,细颗粒物(PM2.5),83,78,81,61,50,16,,64,48,40,30,1,2,0.8,0.8
2024-03-04T2300,3357A,104.0106,30.6931,成都市,金博路,细颗粒物(PM2.5),85,98,87,63,66,1,,49,26,64,41,2,3,0.9,0.9
2024-03-04T2300,3359A,104.0578,30.5225,成都市,华阳,细颗粒物(PM2.5),85,97,90,63,62,0,,47,40,81,51,2,2,0.9,0.8
2024-03-04T2300,3487A,104.2394,30.5319,成都市,车城东七路,细颗粒物(PM2.5),83,89,87,61,65,10,,63,44,58,39,2,2,0.9,0.8
2024-03-04T2300,3488A,104.3853,30.7453,成都市,青白江技师分院,细颗粒物(PM2.5),73,84,82,53,57,2,,65,40,61,35,3,3,0.7,0.8
2024-03-04T2300,3489A,104.0789,30.4072,成都市,科学城,细颗粒物(PM2.5),93,98,96,69,72,9,,57,49,68,44,3,3,0.9,0.8
2024-03-04T2300,4011A,103.8506,30.6947,成都市,光华大道三段,细颗粒物(PM2.5),102,96,89,76,69,9,,62,42,53,26,1,2,1.1,0.9
2024-03-04T2300,1062A,117.9531,40.9081,承德市,铁路,颗粒物(PM10),68,86,61,42,27,18,,76,50,55,37,14,10,1.1,0.8
2024-03-04T2300,1063A,117.9392,40.9763,承德市,中国银行,颗粒物(PM10),66,82,63,42,24,13,,82,50,64,35,10,10,0.9,0.6
2024-03-04T2300,1064A,117.9503,40.928,承德市,开发区,颗粒物(PM10),62,74,62,33,30,14,,79,48,54,36,10,10,0.8,0.7
2024-03-04T2300,1065A,117.8051,40.9655,承德市,文化中心,颗粒物(PM10),71,91,74,38,26,3,,80,42,74,42,8,8,0.9,0.7
2024-03-04T2300,1066A,117.9268,41.0026,承德市,离宫,细颗粒物(PM2.5),62,53,54,44,29,28,,80,58,40,25,5,6,0.7,0.5
2024-03-04T2300,2314A,117.47,30.6618,池州市,池州学院,,33,,39,23,31,9,,41,8,43,38,4,6,1.0,0.9
2024-03-04T2300,3237A,117.4918,30.6617,池州市,展览馆,,26,24,41,18,27,15,,33,14,42,40,3,4,1.0,0.9
2024-03-04T2300,3333A,117.5627,30.695,池州市,第八中学,,25,21,41,17,29,17,,55,12,38,36,2,4,0.9,0.8
2024-03-04T2300,3334A,117.5038,30.6243,池州市,第十二中学,,23,18,39,16,27,13,,29,13,35,40,2,4,1.0,1
2024-03-04T2300,1744A,118.9233,42.2816,赤峰市,松山一中,,35,35,47,11,15,70,,62,60,17,33,7,18,0.6,0.8
2024-03-04T2300,1745A,118.9576,42.2728,赤峰市,哈达街,,35,35,45,15,21,72,,65,65,13,29,8,14,0.5,0.7
2024-03-04T2300,1746A,118.8788,42.2554,赤峰市,天义路,,26,26,37,16,22,67,,62,61,12,27,6,10,0.5,0.7
2024-03-04T2300,3058A,119.2658,42.0353,赤峰市,银河街,颗粒物(PM10),62,74,88,32,52,50,,61,58,23,32,18,26,0.7,1
2024-03-04T2300,3286A,118.9359,42.3147,赤峰市,桥北物流园区,,36,36,38,14,24,69,,74,72,17,27,7,11,0.6,0.7
2024-03-04T2300,2521A,107.3476,22.4136,崇左市,市环保局江州分局,,42,42,80,25,52,84,,102,100,15,22,8,8,0.7,0.8
2024-03-04T2300,2522A,107.3702,22.3707,崇左市,城南新区,细颗粒物(PM2.5),58,48,86,41,68,86,,98,96,9,23,7,7,0.4,0.7
2024-03-04T2300,2298A,118.3093,32.3153,滁州市,老年大学,细颗粒物(PM2.5),70,51,69,51,50,15,,52,33,43,47,8,10,0.8,0.8
2024-03-04T2300,2299A,118.3244,32.2786,滁州市,人大宾馆,细颗粒物(PM2.5),82,68,71,60,53,16,,65,29,52,44,5,7,0.9,0.9
2024-03-04T2300,3207A,118.3118,32.3038,滁州市,市政府原办公楼,细颗粒物(PM2.5),67,63,65,48,46,16,,64,30,51,46,5,7,0.8,0.8
2024-03-04T2300,3331A,118.3267,32.2634,滁州市,图书馆,细颗粒物(PM2.5),75,65,71,55,50,14,,64,31,54,43,6,7,1.0,1
2024-03-04T2300,2605A,101.5482,25.0441,楚雄彝族自治州,州环境监测站,,32,24,28,21,21,101,,105,102,4,8,6,6,0.5,0.5
2024-03-04T2300,2606A,101.538,25.0492,楚雄彝族自治州,市经济开发区,,37,37,34,21,23,94,,98,95,5,9,6,7,0.4,0.5
2024-03-04T2300,2548A,107.5277,31.2827,达州市,达州职业技术学院,细颗粒物(PM2.5),82,102,75,60,50,5,,37,22,39,33,9,12,1.0,0.9
2024-03-04T2300,2549A,107.5086,31.2186,达州市,市环境监测站,细颗粒物(PM2.5),70,81,78,51,47,4,,23,15,56,51,9,10,1.5,1.2
2024-03-04T2300,2550A,107.4988,31.2132,达州市,凤凰小区,细颗粒物(PM2.5),73,85,82,53,54,5,,25,18,55,49,10,11,1.5,1.2
2024-03-04T2300,2551A,107.5082,31.1986,达州市,达县机关宾馆,细颗粒物(PM2.5),78,83,79,57,52,3,,26,14,50,50,6,8,0.9,1
2024-03-04T2300,2552A,107.4644,31.2124,达州市,市政中心,细颗粒物(PM2.5),83,114,82,61,52,5,,32,22,74,55,11,11,2.1,1.2
2024-03-04T2300,2614A,100.1542,25.7054,大理白族自治州,大理市环境监测站,,,32,32,24,25,,,88,,7,9,6,6,0.5,0.5
2024-03-04T2300,2615A,100.2171,25.5811,大理白族自治州,大理古城,,48,,28,33,20,109,,102,99,4,4,7,7,0.5,0.4
2024-03-04T2300,1109A,121.612,38.9741,大连市,甘井子,,44,44,47,30,30,86,,89,83,16,20,6,6,0.6,0.6
2024-03-04T2300,1110A,121.565,38.9511,大连市,周水子,,42,42,49,25,28,76,,90,83,19,23,3,7,0.5,0.6
2024-03-04T2300,1111A,121.5637,38.8845,大连市,星海三站,,38,34,37,26,25,88,,102,90,21,16,12,8,0.6,0.6
2024-03-04T2300,1112A,121.6302,38.9117,大连市,青泥洼桥,,39,39,39,26,25,87,,95,90,16,19,12,13,0.7,0.7
2024-03-04T2300,1113A,121.6251,38.8638,大连市,傅家庄,,34,34,36,21,22,105,,106,102,10,11,9,8,0.7,0.7
2024-03-04T2300,1114A,121.5213,38.8661,大连市,七贤岭,,38,38,39,22,22,76,,85,74,14,14,13,11,0.6,0.6
2024-03-04T2300,1115A,121.2529,38.8061,大连市,旅顺,,33,33,33,22,20,102,,102,102,12,15,8,8,0.7,0.7
2024-03-04T2300,1116A,121.7485,39.1311,大连市,金州,,36,33,40,25,31,95,,107,98,10,14,9,9,1.0,0.9
2024-03-04T2300,1117A,121.7811,39.0496,大连市,开发区,,41,41,50,25,32,92,,96,88,15,21,3,6,0.5,0.6
2024-03-04T2300,1118A,121.9762,39.0631,大连市,双D港,,36,36,49,20,32,99,,101,99,10,12,8,8,0.6,0.7
2024-03-04T2300,1789A,124.81117,46.03138,大庆市,大同区,细颗粒物(PM2.5),78,60,52,57,36,51,,79,58,22,18,14,10,0.7,0.6
2024-03-04T2300,1790A,125.129,46.533,大庆市,龙凤区,细颗粒物(PM2.5),58,43,44,41,27,40,,76,55,34,26,7,10,0.8,0.6
2024-03-04T2300,1791A,124.902,46.408,大庆市,红岗区,,43,34,35,30,25,50,,83,60,29,17,7,6,0.6,0.5
2024-03-04T2300,1792A,125.153,46.586,大庆市,萨尔图区,,36,33,34,25,19,52,,74,60,27,19,10,11,0.5,0.5
2024-03-04T2300,1793A,124.9042,46.6215,大庆市,让胡路区,细颗粒物(PM2.5),53,47,36,37,28,44,,81,59,36,18,8,8,0.5,0.4
2024-03-04T2300,3481A,125.141,46.634,大庆市,萨区政府监测点,,28,26,30,19,20,42,,78,62,44,31,16,11,0.5,0.5
2024-03-04T2300,1723A,113.2994,40.0758,大同市,云冈宾馆,细颗粒物(PM2.5),139,171,130,106,64,52,,61,45,42,42,8,7,1.0,1
2024-03-04T2300,1724A,113.3444,40.0917,大同市,大同大学,细颗粒物(PM2.5),203,231,123,153,69,29,,66,42,64,47,15,13,0.8,0.6
2024-03-04T2300,1725A,113.2661,40.1269,大同市,安家小村,细颗粒物(PM2.5),132,203,128,100,58,62,,63,54,38,37,14,15,0.9,0.8
2024-03-04T2300,1726A,113.2711,40.0844,大同市,教育学院,细颗粒物(PM2.5),124,193,127,94,58,56,,59,50,29,40,10,10,1.1,1.1
2024-03-04T2300,3282A,113.3397,40.0597,大同市,大同市卫生学校,细颗粒物(PM2.5),188,206,88,141,72,27,,61,39,72,46,9,8,1.0,0.8
2024-03-04T2300,3565A,113.1367,40.1122,大同市,云冈站,细颗粒物(PM2.5),117,161,118,88,58,38,,63,52,54,44,19,24,1.1,1.1
2024-03-04T2300,3566A,113.1186,40.2556,大同市,图书馆,细颗粒物(PM2.5),117,138,103,88,56,38,,63,56,53,34,21,27,1.2,0.8
2024-03-04T2300,3567A,113.5931,40.0461,大同市,区一中,细颗粒物(PM2.5),172,203,133,130,68,34,,72,57,46,28,14,13,1.4,1.1
2024-03-04T2300,3676A,113.2802,40.0995,大同市,第二人民医院,颗粒物(PM10),127,203,130,87,60,64,,61,53,34,44,10,11,1.0,1
2024-03-04T2300,2269A,124.1069,50.4097,大兴安岭地区,科技局,,38,,18,26,19,58,,78,67,8,5,7,6,0.5,0.5
2024-03-04T2300,3663A,124.1164,50.4278,大兴安岭地区,红旗社区,,42,36,18,29,13,20,,79,49,32,19,10,9,0.7,0.4
2024-03-04T2300,1600A,124.3303,40.0625,丹东市,江湾东路,细颗粒物(PM2.5),155,147,64,118,46,21,,86,46,48,29,25,18,1.7,1.1
2024-03-04T2300,1601A,124.4256,40.1503,丹东市,临江后街,细颗粒物(PM2.5),158,175,60,120,39,16,,86,59,58,26,24,15,2.6,1.3
2024-03-04T2300,1602A,124.3933,40.1461,丹东市,元宝山,细颗粒物(PM2.5),115,109,46,87,32,18,,78,49,50,22,22,13,1.9,1
2024-03-04T2300,1603A,124.3633,40.1092,丹东市,民主桥,细颗粒物(PM2.5),97,102,55,72,35,13,,79,45,59,30,18,16,1.3,0.8
2024-03-04T2300,3541A,109.5726,19.5167,儋州市,第一中学子站,,33,33,29,17,13,75,,86,82,2,4,6,6,0.6,0.6
2024-03-04T2300,3542A,109.5567,19.5187,儋州市,东坡学校子站,,35,35,30,16,15,84,,96,93,3,6,6,6,0.6,0.7
2024-03-04T2300,2616A,98.5842,24.428,德宏傣族景颇族自治州,德宏州监测站,颗粒物(PM10),56,62,61,30,34,46,,116,86,33,29,11,14,0.6,0.6
2024-03-04T2300,3677A,98.5881,24.4368,德宏傣族景颇族自治州,芒市人民政府综合楼,颗粒物(PM10),56,62,57,34,35,52,,104,84,19,18,7,10,0.7,0.6
2024-03-04T2300,1901A,104.4239,31.1208,德阳市,东山公园,细颗粒物(PM2.5),74,69,67,54,56,2,,73,55,86,33,3,2,1.3,0.7
2024-03-04T2300,1902A,104.3826,31.1317,德阳市,西小区,细颗粒物(PM2.5),92,92,82,68,65,3,,58,38,65,43,3,3,1.1,0.9
2024-03-04T2300,1904A,104.3553,31.1091,德阳市,耐火材料厂,细颗粒物(PM2.5),93,106,82,69,68,2,,60,42,66,36,4,3,1.0,0.8
2024-03-04T2300,3639A,104.4019,31.1244,德阳市,市教育局,细颗粒物(PM2.5),78,84,75,57,61,1,,57,38,77,44,4,3,1.4,0.7
2024-03-04T2300,1622A,116.3032,37.4674,德州市,儿童乐园,细颗粒物(PM2.5),94,107,136,70,75,52,,49,47,28,36,8,12,0.6,0.7
2024-03-04T2300,1624A,116.2991,37.4451,德州市,监理站,细颗粒物(PM2.5),94,105,134,70,76,49,,54,44,39,46,10,15,0.6,0.7
2024-03-04T2300,3066A,116.2721,37.4379,德州市,九衢泉纯净水厂,,,107,130,66,68,,,52,,32,40,7,11,0.6,1
2024-03-04T2300,3371A,116.3728,37.4403,德州市,开发区人民医院,细颗粒物(PM2.5),92,114,135,68,69,39,,46,40,47,43,8,10,0.7,0.8
2024-03-04T2300,3372A,116.3572,37.4094,德州市,太阳城中学,细颗粒物(PM2.5),94,110,131,70,76,41,,45,41,36,35,9,11,0.9,1
2024-03-04T2300,3511A,116.5652,37.3319,德州市,陵城艺术中心,细颗粒物(PM2.5),85,102,136,63,77,41,,56,51,30,28,6,11,0.8,0.9
2024-03-04T2300,2621A,99.7056,27.8317,迪庆藏族自治州,迪庆州站,,32,26,26,22,17,86,,96,91,14,14,9,9,0.5,0.5
2024-03-04T2300,3180A,99.7136,27.8094,迪庆藏族自治州,质量技术监督局,,27,18,21,9,11,84,,92,88,6,6,9,9,0.6,0.6
2024-03-04T2300,2663A,104.6241,35.5734,定西市,东关小学,颗粒物(PM10),128,206,57,40,29,91,,51,,9,14,4,11,0.5,0.7
2024-03-04T2300,2664A,104.6194,35.5934,定西市,供电公司,颗粒物(PM10),129,208,58,45,33,87,,74,74,13,12,9,10,0.3,0.5
2024-03-04T2300,1389A,113.7547,23.0494,东莞市,莞城梨川,颗粒物(PM10),57,63,43,33,26,17,,72,41,60,36,7,7,0.6,0.6
2024-03-04T2300,1390A,113.7944,23.0128,东莞市,东城石井,颗粒物(PM10),55,59,42,31,26,10,,81,43,48,33,6,7,0.7,0.6
2024-03-04T2300,1391A,113.7383,22.9658,东莞市,南城西平,颗粒物(PM10),52,53,41,25,24,24,,74,45,41,38,4,5,0.8,0.9
2024-03-04T2300,3319A,113.7338,23.0381,东莞市,万江金泰,颗粒物(PM10),57,63,45,35,28,18,,64,34,45,32,10,9,1.1,1
2024-03-04T2300,3626A,113.7533,23.0202,东莞市,南城元岭,颗粒物(PM10),53,56,41,27,23,27,,73,46,35,27,7,7,0.9,0.9
2024-03-04T2300,3627A,113.7875,23.0457,东莞市,东城主山,颗粒物(PM10),55,60,43,32,26,24,,58,28,43,39,7,7,0.8,0.8
2024-03-04T2300,1666A,118.6614,37.4309,东营市,市环保局,细颗粒物(PM2.5),62,70,106,44,69,96,,115,106,21,29,8,11,0.3,0.5
2024-03-04T2300,3036A,118.6904,37.4338,东营市,开发区管委会,细颗粒物(PM2.5),64,67,101,46,71,90,,104,96,27,33,4,7,0.6,0.8
2024-03-04T2300,3365A,118.5719,37.565,东营市,垦利区民丰路,颗粒物(PM10),62,73,102,41,61,82,,115,99,27,30,14,13,0.7,0.9
2024-03-04T2300,3498A,118.5055,37.8612,东营市,河口城区,细颗粒物(PM2.5),70,85,110,51,60,66,,109,88,21,17,4,5,0.7,0.8
2024-03-04T2300,3646A,118.4978,37.4623,东营市,胜利站,颗粒物(PM10),66,82,119,46,67,89,,106,95,22,32,10,11,0.7,0.9
2024-03-04T2300,3734A,118.35,37.26,东营市,理想之城,细颗粒物(PM2.5),62,70,112,44,64,90,,110,96,19,31,4,7,0.6,0.9
2024-03-04T2300,1591A,110.0023,39.8129,鄂尔多斯市,综合楼,细颗粒物(PM2.5),77,97,99,56,41,12,,56,36,73,47,13,18,1.0,0.9
2024-03-04T2300,1592A,109.9486,39.8261,鄂尔多斯市,巴音孟克林场办事处,细颗粒物(PM2.5),83,83,86,61,39,5,,62,35,62,37,10,15,1.1,0.9
2024-03-04T2300,1593A,109.7736,39.5986,鄂尔多斯市,康泽苑,细颗粒物(PM2.5),70,53,82,51,44,24,,55,36,37,46,5,9,0.9,0.9
2024-03-04T2300,1594A,109.8119,39.5989,鄂尔多斯市,华泰汽车城,细颗粒物(PM2.5),67,58,81,48,42,6,,52,28,55,50,7,10,1.0,0.9
2024-03-04T2300,1595A,109.9734,39.7884,鄂尔多斯市,奥林花园,细颗粒物(PM2.5),77,75,96,56,44,7,,50,33,64,47,6,16,0.9,1
2024-03-04T2300,2436A,114.8938,30.3994,鄂州市,市政府,,18,,27,12,19,44,,56,26,20,24,6,7,1.1,1.2
2024-03-04T2300,2437A,114.8989,30.3714,鄂州市,赵家坝,,22,20,27,15,21,45,,51,31,15,22,3,6,0.9,1.1
2024-03-04T2300,3654A,114.8094,30.4089,鄂州市,精准医疗中心,,31,31,44,14,22,52,,39,33,12,29,4,11,0.5,1.1
2024-03-04T2300,2454A,109.4978,30.2981,恩施土家族苗族自治州,湖北民院,细颗粒物(PM2.5),67,76,73,48,40,3,,38,28,43,35,10,10,1.4,1.3
2024-03-04T2300,2455A,109.4707,30.2798,恩施土家族苗族自治州,州电力总公司,细颗粒物(PM2.5),88,77,66,65,59,6,,36,28,48,30,8,7,1.6,1.2
2024-03-04T2300,3549A,109.5061,30.3772,恩施土家族苗族自治州,龙凤新区,细颗粒物(PM2.5),69,60,72,50,58,7,,28,22,29,29,6,7,1.2,1.2
2024-03-04T2300,2499A,108.3411,21.6158,防城港市,沙万,细颗粒物(PM2.5),55,53,38,39,23,38,,44,42,34,40,6,5,0.7,1
2024-03-04T2300,2500A,108.3514,21.7731,防城港市,防城档案局,,30,30,32,18,21,68,,66,66,8,28,5,7,0.6,1
2024-03-04T2300,2501A,108.3506,21.6414,防城港市,大海花园,,48,,31,33,24,50,,56,54,25,34,5,6,0.8,1.1
2024-03-04T2300,1371A,113.1294,23.0067,佛山市,湾梁,,29,29,50,20,31,13,,8,8,44,52,8,9,0.6,1
2024-03-04T2300,1372A,113.1083,23.0478,佛山市,华材职中,,29,29,51,17,35,30,,19,19,30,53,8,8,0.5,0.9
2024-03-04T2300,1373A,113.144,23.0453,佛山市,南海气象局,,39,37,49,27,37,20,,14,14,40,52,7,6,0.6,1
2024-03-04T2300,1374A,113.2881,22.8094,佛山市,顺德苏岗,,25,23,44,17,34,14,,17,17,39,53,8,9,0.6,0.9
2024-03-04T2300,1376A,112.8383,22.8678,佛山市,高明孔堂,,22,16,51,15,34,56,,32,32,6,47,4,6,0.5,1
2024-03-04T2300,1377A,112.8836,23.1588,佛山市,三水监测站,,34,34,66,19,36,1,,3,2,65,51,7,8,0.9,1.2
2024-03-04T2300,1378A,112.867,23.185,佛山市,三水云东海,,49,42,48,34,44,2,,2,2,23,42,5,6,1.2,1
2024-03-04T2300,3625A,113.2544,22.7642,佛山市,容桂街道办,,28,27,55,19,38,24,,13,13,36,62,5,6,0.6,1.1
2024-03-04T2300,1282A,119.2681,26.0504,福州市,师大,颗粒物(PM10),68,85,54,47,28,24,,77,50,56,28,4,4,0.8,0.7
2024-03-04T2300,1283A,119.2984,26.1028,福州市,五四北路,细颗粒物(PM2.5),64,74,48,46,30,7,,69,28,70,37,4,4,1.0,0.7
2024-03-04T2300,1284A,119.2648,26.0768,福州市,杨桥西路,颗粒物(PM10),65,79,53,46,29,25,,72,46,46,30,4,4,0.8,0.7
2024-03-04T2300,1285A,119.317,26.0746,福州市,紫阳,颗粒物(PM10),71,92,57,48,28,3,,73,25,79,37,4,4,1.0,0.7
2024-03-04T2300,3048A,119.5799,26.0936,福州市,九龙,颗粒物(PM10),53,56,49,27,25,61,,88,76,12,17,3,4,0.6,0.6
2024-03-04T2300,3526A,119.5189,25.9664,福州市,吴航,颗粒物(PM10),75,100,64,49,29,70,,87,81,18,24,6,5,0.7,0.6
2024-03-04T2300,1755A,123.7977,41.8491,抚顺市,望花区,细颗粒物(PM2.5),55,56,75,39,38,79,,87,82,19,38,10,12,0.6,0.8
2024-03-04T2300,1756A,123.9161,41.8822,抚顺市,顺城区,细颗粒物(PM2.5),100,89,80,75,56,12,,95,47,80,47,12,9,1.0,1
2024-03-04T2300,1757A,124.0436,41.8611,抚顺市,东洲区,细颗粒物(PM2.5),60,59,63,43,41,81,,97,78,14,18,9,11,0.5,0.6
2024-03-04T2300,1758A,123.9247,41.8642,抚顺市,新抚区,细颗粒物(PM2.5),84,93,68,62,39,20,,103,58,57,39,8,8,0.9,0.7
2024-03-04T2300,1759A,124.0972,41.8961,抚顺市,大伙房水库,细颗粒物(PM2.5),54,52,58,38,38,85,,103,92,17,18,12,11,0.5,0.6
2024-03-04T2300,1760A,123.7086,41.8391,抚顺市,沈抚新城,细颗粒物(PM2.5),64,61,73,46,38,54,,86,67,37,36,12,12,0.7,1
2024-03-04T2300,2376A,116.2127,28.0814,抚州市,桐源党溪,,49,46,38,34,23,6,,12,6,17,23,4,5,0.5,0.5
2024-03-04T2300,2377A,116.3544,27.9831,抚州市,市站,"颗粒物(PM10),细颗粒物(PM2.5)",57,64,51,40,29,0,,10,5,26,31,2,2,0.9,1
2024-03-04T2300,2378A,116.3565,27.963,抚州市,血防站,细颗粒物(PM2.5),69,77,54,50,28,2,,14,6,29,31,3,2,0.8,0.9
2024-03-04T2300,2379A,116.3564,28.0007,抚州市,采茶剧团,"颗粒物(PM10),细颗粒物(PM2.5)",63,76,46,45,28,4,,10,6,31,34,7,8,1.2,1.1
2024-03-04T2300,2380A,116.385,27.9647,抚州市,医学分院,颗粒物(PM10),55,59,47,32,21,1,,16,,24,26,6,7,0.9,1
2024-03-04T2300,2207A,121.6094,41.998,阜新市,工业园区,颗粒物(PM10),69,88,95,47,55,66,,99,75,25,35,20,24,1.0,1.2
2024-03-04T2300,2208A,121.6697,42.0279,阜新市,长青街,细颗粒物(PM2.5),70,73,86,51,58,66,,101,75,24,36,19,29,0.9,1.1
2024-03-04T2300,2209A,121.6673,42.0705,阜新市,农业园区,颗粒物(PM10),54,57,71,34,44,59,,85,76,25,23,19,31,0.6,0.8
2024-03-04T2300,2210A,121.6717,42.0224,阜新市,东苑,颗粒物(PM10),79,108,88,56,58,62,,90,70,27,40,31,34,0.8,1.3
2024-03-04T2300,2211A,121.6506,42.0498,阜新市,玉龙新城,颗粒物(PM10),55,59,76,37,48,68,,96,82,22,38,26,24,0.6,0.9
2024-03-04T2300,2301A,115.8277,32.8929,阜阳市,市监测站,细颗粒物(PM2.5),103,95,89,77,70,37,,54,45,25,27,5,6,0.8,0.7
2024-03-04T2300,2303A,115.8554,32.8605,阜阳市,开发区,细颗粒物(PM2.5),98,110,107,73,65,37,,54,43,25,30,4,6,0.5,0.5
2024-03-04T2300,2875A,115.784,32.8892,阜阳市,阜阳职业技术学院,细颗粒物(PM2.5),108,93,92,81,63,42,,62,48,21,25,5,6,0.8,0.7
2024-03-04T2300,3468A,115.7901,32.8613,阜阳市,市规划展馆,细颗粒物(PM2.5),104,85,92,78,64,40,,62,46,24,28,5,6,0.9,0.7
2024-03-04T2300,3469A,115.836,32.9183,阜阳市,枣园社区,细颗粒物(PM2.5),102,81,90,76,63,38,,59,46,22,26,5,6,0.7,0.7
2024-03-04T2300,2669A,102.9099,34.9841,甘南藏族自治州,州政府,细颗粒物(PM2.5),67,59,94,48,44,65,,77,70,12,24,10,15,0.9,1.2
2024-03-04T2300,3380A,102.8914,34.9617,甘南藏族自治州,甘肃民族师范学院,细颗粒物(PM2.5),62,63,104,44,36,70,,80,72,15,27,4,10,0.7,0.8
2024-03-04T2300,2570A,101.9603,30.0475,甘孜藏族自治州,水桥子,,25,19,19,17,8,34,,96,71,45,25,11,11,0.3,0.3
2024-03-04T2300,3065A,101.9533,29.9972,甘孜藏族自治州,州环保局,,22,16,22,1,5,68,,98,87,16,13,8,8,0.4,0.3
2024-03-04T2300,3414A,115.8347,28.932,赣江新区,桑海产业园,,39,39,33,26,23,20,,39,10,17,26,4,4,0.3,0.6
2024-03-04T2300,2363A,114.9367,25.8664,赣州市,地委,颗粒物(PM10),65,80,49,43,31,7,,21,17,51,38,14,15,2.4,1.8
2024-03-04T2300,2364A,114.9461,25.8481,赣州市,气象台,细颗粒物(PM2.5),77,92,50,56,35,4,,17,10,51,39,12,10,2.6,1.7
2024-03-04T2300,2365A,114.9322,25.8333,赣州市,市图书馆,细颗粒物(PM2.5),65,68,48,47,29,3,,18,10,61,44,7,6,1.8,1.4
2024-03-04T2300,2366A,114.8905,25.8471,赣州市,华坚鞋城,细颗粒物(PM2.5),60,63,45,43,29,3,,20,12,57,39,8,6,2.5,2
2024-03-04T2300,3109A,115.0093,25.8613,赣州市,赣县区卫计委,细颗粒物(PM2.5),53,54,43,37,33,8,,34,22,49,38,8,7,1.2,0.8
2024-03-04T2300,2683A,106.2319,36.1417,固原市,马园,颗粒物(PM10),132,214,84,27,31,64,,67,67,25,27,5,4,,0.5
2024-03-04T2300,2684A,106.2792,36.0022,固原市,监测站,颗粒物(PM10),123,196,75,36,38,75,,80,73,21,20,7,7,0.4,0.7
2024-03-04T2300,2685A,106.2375,36.0211,固原市,新区,颗粒物(PM10),115,179,64,32,34,81,,77,77,16,20,8,7,0.4,0.6
2024-03-04T2300,3522A,106.2177,35.9959,固原市,原州区十五小,颗粒物(PM10),98,146,65,29,33,91,,84,84,13,17,9,9,0.3,0.5
2024-03-04T2300,2544A,106.6303,30.4576,广安市,市委,细颗粒物(PM2.5),110,100,86,83,67,30,,35,35,30,29,13,13,0.9,0.9
2024-03-04T2300,2545A,106.6271,30.4663,广安市,友谊中学,细颗粒物(PM2.5),115,,70,87,65,27,,41,41,42,34,5,6,1.0,1
2024-03-04T2300,2547A,106.6388,30.4551,广安市,广电花园,细颗粒物(PM2.5),107,84,72,80,66,25,,40,40,41,31,6,8,1.1,1.1
2024-03-04T2300,2902A,106.6351,30.4865,广安市,北辰小学,细颗粒物(PM2.5),123,100,78,93,68,38,,47,47,26,26,7,9,1.0,1
2024-03-04T2300,2523A,105.8945,32.4535,广元市,黑石坡,,28,25,49,19,33,71,,76,76,14,37,3,5,0.6,0.7
2024-03-04T2300,2524A,105.821,32.4444,广元市,老城,,41,41,65,18,38,47,,52,52,26,41,1,3,0.7,0.8
2024-03-04T2300,2526A,105.8628,32.4287,广元市,监测站,,40,33,57,28,40,54,,57,57,23,32,2,4,0.6,0.8
2024-03-04T2300,3617A,105.8047,32.4166,广元市,经开区,,34,34,61,12,40,51,,56,56,23,35,3,5,0.6,0.7
2024-03-04T2300,1345A,113.2347,23.1423,广州市,广雅中学,,23,18,45,11,34,18,,21,21,46,52,4,5,0.9,1.2
2024-03-04T2300,1346A,113.2612,23.105,广州市,市五中,,40,,54,28,42,18,,19,19,41,52,5,8,0.8,1.2
2024-03-04T2300,1348A,113.3478,23.0916,广州市,广东商学院,,23,22,49,16,35,14,,36,36,46,46,4,5,0.7,1
2024-03-04T2300,1349A,113.4332,23.1047,广州市,市八十六中,,35,21,34,11,24,5,,27,25,69,58,6,6,0.5,0.7
2024-03-04T2300,1350A,113.3505,22.9483,广州市,番禺中学,,15,15,44,10,33,43,,54,54,27,47,4,4,0.6,1
2024-03-04T2300,1351A,113.2146,23.3916,广州市,花都师范,,42,38,47,29,37,2,,14,14,59,46,5,5,1.0,1
2024-03-04T2300,1352A,113.2597,23.1331,广州市,市监测站,,22,22,49,9,30,38,,40,40,28,48,4,5,0.7,1.1
2024-03-04T2300,1353A,113.5618,23.312,广州市,九龙镇镇龙,颗粒物(PM10),51,51,37,29,23,36,,49,31,29,35,5,6,0.7,0.7
2024-03-04T2300,1354A,113.2765,23.1544,广州市,麓湖,,21,19,40,11,31,20,,40,40,42,41,4,5,0.6,0.9
2024-03-04T2300,1355A,113.443,23.3035,广州市,帽峰山森林公园,,35,35,26,24,21,31,,64,35,39,32,7,7,0.6,0.6
2024-03-04T2300,2846A,113.3221,23.1322,广州市,体育西,,26,26,42,14,29,16,,32,32,46,47,6,7,0.8,1
2024-03-04T2300,3298A,113.5717,23.5491,广州市,从化街口,,28,28,33,19,25,58,,78,65,14,21,6,6,0.6,0.8
2024-03-04T2300,3299A,113.3472,23.3692,广州市,白云竹料,,43,43,51,26,37,23,,23,23,46,49,6,6,0.6,0.8
2024-03-04T2300,3300A,113.2981,23.237,广州市,白云嘉禾,,28,23,53,13,35,20,,34,33,56,55,6,6,0.8,1
2024-03-04T2300,3301A,113.4256,23.1716,广州市,黄埔科学城,颗粒物(PM10),52,53,43,30,31,2,,30,18,70,54,6,5,0.9,0.9
2024-03-04T2300,3302A,113.3942,23.0483,广州市,番禺大学城,,28,28,59,7,20,33,,58,57,35,42,9,9,1.0,1
2024-03-04T2300,3303A,113.4922,22.8168,广州市,南沙黄阁,,24,24,46,11,31,59,,69,67,18,41,4,5,0.7,1
2024-03-04T2300,3304A,113.5342,22.7896,广州市,南沙街,,22,22,41,8,23,55,,59,58,15,41,4,5,0.6,0.8
2024-03-04T2300,3443A,113.2902,23.5544,广州市,花都梯面,,46,46,34,27,23,35,,46,46,30,32,6,6,0.6,0.7
2024-03-04T2300,3445A,113.7858,23.7478,广州市,从化良口,,25,17,18,11,14,78,,87,81,6,13,4,4,0.7,0.7
2024-03-04T2300,3446A,113.8051,23.2614,广州市,增城荔城,,47,47,43,24,25,57,,76,65,16,17,4,4,0.7,0.8
2024-03-04T2300,2505A,109.568,23.1478,贵港市,德智高中,,35,25,32,24,26,75,,43,43,19,38,3,4,0.5,0.9
2024-03-04T2300,2506A,109.6047,23.0666,贵港市,江南子站,,35,29,38,24,24,84,,60,60,7,23,6,7,0.7,1
2024-03-04T2300,2507A,109.6014,23.0948,贵港市,贵城子站,,30,28,35,21,24,72,,49,49,10,24,6,7,0.4,1
2024-03-04T2300,2508A,109.5669,23.1065,贵港市,荷城子站,,35,27,34,24,20,72,,39,39,9,26,10,10,1.0,1.3
2024-03-04T2300,3405A,109.5886,23.1172,贵港市,新世纪学校,,29,29,34,20,24,79,,28,28,10,26,8,8,0.9,1.3
2024-03-04T2300,1439A,106.6899,26.5998,贵阳市,马鞍山,细颗粒物(PM2.5),62,53,27,44,18,40,,87,62,18,17,12,9,0.8,0.7
2024-03-04T2300,1440A,106.6971,26.5694,贵阳市,市环保站,细颗粒物(PM2.5),72,,29,52,29,48,,83,67,19,23,12,8,0.7,0.7
2024-03-04T2300,1441A,106.6243,26.6266,贵阳市,鉴湖路,细颗粒物(PM2.5),64,68,37,46,19,46,,86,72,18,15,7,5,0.7,0.6
2024-03-04T2300,1442A,106.7487,26.6343,贵阳市,燕子冲,细颗粒物(PM2.5),62,51,26,44,22,50,,91,76,15,14,12,10,0.9,0.8
2024-03-04T2300,1443A,106.6555,26.4365,贵阳市,碧云窝,颗粒物(PM10),57,63,37,31,19,39,,86,70,34,14,24,12,1.1,0.8
2024-03-04T2300,1444A,106.694,26.5161,贵阳市,中院村,细颗粒物(PM2.5),64,48,32,46,24,53,,83,71,21,19,17,14,0.8,0.7
2024-03-04T2300,1445A,106.7109,26.6027,贵阳市,红边门,细颗粒物(PM2.5),62,58,34,44,27,44,,76,62,16,23,12,10,0.8,0.8
2024-03-04T2300,1446A,106.7164,26.5699,贵阳市,新华路,细颗粒物(PM2.5),64,58,35,46,23,46,,83,70,21,20,11,8,0.8,0.7
2024-03-04T2300,1447A,106.674,26.5424,贵阳市,太慈桥,细颗粒物(PM2.5),58,58,31,41,21,43,,84,66,26,19,12,9,0.7,0.6
2024-03-04T2300,1862A,110.4144,25.3167,桂林市,电子科大尧山校区,,35,33,28,24,26,9,,22,15,10,11,3,4,1.0,1
2024-03-04T2300,1863A,110.2819,25.2697,桂林市,监测站,,,104,57,,39,4,,13,5,30,28,10,11,2.8,1.6
2024-03-04T2300,1864A,110.3089,25.2708,桂林市,龙隐路小学,细颗粒物(PM2.5),77,77,45,56,40,8,,18,8,33,31,7,7,2.3,1.3
2024-03-04T2300,1865A,110.2869,25.2178,桂林市,八中,细颗粒物(PM2.5),75,69,39,55,32,3,,12,3,31,32,7,7,2.0,1.3
2024-03-04T2300,3403A,110.1764,25.2381,桂林市,创业大厦,,45,39,28,31,22,2,,27,2,30,24,9,10,1.4,1.1
2024-03-04T2300,3531A,110.296,25.1253,桂林市,旅游学院,细颗粒物(PM2.5),52,41,29,36,28,0,,12,1,29,27,7,6,1.4,1
2024-03-04T2300,2674A,100.2561,34.4714,果洛藏族自治州,玛沁县大武镇,,37,37,46,16,19,53,,90,82,13,16,14,15,0.6,0.5
2024-03-04T2300,1129A,126.5422,45.755,哈尔滨市,岭北,颗粒物(PM10),63,76,38,40,23,70,,106,98,42,22,13,15,0.8,0.5
2024-03-04T2300,1130A,126.561,45.8167,哈尔滨市,松北商大,,47,47,38,30,22,57,,88,63,28,24,9,8,0.7,0.6
2024-03-04T2300,1131A,126.979,45.5419,哈尔滨市,阿城会宁,细颗粒物(PM2.5),69,61,54,50,38,45,,86,59,32,22,11,11,0.6,0.5
2024-03-04T2300,1132A,126.599,45.7222,哈尔滨市,南岗学府路,颗粒物(PM10),53,56,54,19,25,57,,79,63,25,27,11,11,0.5,0.5
2024-03-04T2300,1133A,126.689,45.7733,哈尔滨市,太平宏伟公园,,42,42,41,25,24,50,,89,72,36,23,10,10,0.7,0.6
2024-03-04T2300,1134A,126.635,45.7667,哈尔滨市,道外承德广场,颗粒物(PM10),54,58,41,36,23,12,,89,62,85,36,13,9,0.7,0.5
2024-03-04T2300,1135A,126.685,45.7319,哈尔滨市,香坊红旗大街,细颗粒物(PM2.5),60,58,48,43,29,18,,84,57,69,40,11,11,1.0,0.7
2024-03-04T2300,1136A,126.6411,45.7258,哈尔滨市,动力和平路,颗粒物(PM10),51,51,45,34,25,47,,89,68,43,31,8,9,0.8,0.7
2024-03-04T2300,1137A,126.593,45.7478,哈尔滨市,道里建国路,颗粒物(PM10),60,69,45,31,29,26,,82,55,61,33,9,10,0.8,0.4
2024-03-04T2300,1138A,126.615,45.61,哈尔滨市,平房东轻厂,颗粒物(PM10),51,51,48,34,29,28,,74,32,47,36,10,8,0.7,0.5
2024-03-04T2300,1139A,126.595,45.9855,哈尔滨市,呼兰师专,,45,35,44,31,31,58,,82,68,29,24,12,12,0.6,0.5
2024-03-04T2300,1140A,126.6206,45.6842,哈尔滨市,省农科院,颗粒物(PM10),51,51,59,35,40,21,,88,50,73,43,24,20,0.8,0.7
2024-03-04T2300,2688A,93.5128,42.8172,哈密市,地区监测站,,35,35,122,22,31,77,,95,87,20,18,3,6,0.3,0.5
2024-03-04T2300,2689A,93.4961,42.8328,哈密市,哈密师范学校,颗粒物(PM10),53,55,123,26,32,56,,93,82,43,19,4,9,0.5,0.6
2024-03-04T2300,2671A,100.9048,36.9639,海北藏族自治州,海晏县西海镇,细颗粒物(PM2.5),78,100,112,57,35,82,,88,83,13,21,21,21,1.2,0.7
2024-03-04T2300,3867A,102.0738,36.5056,海东市,平安区公安北苑,颗粒物(PM10),65,79,94,28,58,86,,71,71,16,26,9,16,0.2,0.7
2024-03-04T2300,1410A,110.3232,20.0574,海口市,海南大学,,29,29,23,11,10,66,,88,77,6,7,8,7,0.2,0.3
2024-03-04T2300,1411A,110.283,20.0053,海口市,秀英海南医院,,31,31,28,12,9,61,,87,73,4,5,8,8,0.3,0.4
2024-03-04T2300,1412A,110.338,19.9969,海口市,海南师范大学,,26,26,25,11,9,60,,87,73,6,5,7,7,0.4,0.5
2024-03-04T2300,1413A,110.33,20.0356,海口市,龙华路环保局宿舍,,30,30,26,12,9,60,,79,68,5,6,8,8,0.3,0.4
2024-03-04T2300,3539A,110.5111,19.9736,海口市,桂林洋子站,,30,30,19,13,10,59,,83,70,4,4,7,7,0.3,0.3
2024-03-04T2300,2673A,100.6188,36.2866,海南藏族自治州,共和县恰卜恰镇,细颗粒物(PM2.5),102,110,109,76,35,82,,96,88,12,18,13,11,0.6,0.5
2024-03-04T2300,2676A,97.3731,37.3753,海西蒙古族藏族自治州,德令哈市,颗粒物(PM10),65,80,105,27,15,68,,94,85,18,12,15,13,0.8,0.7
2024-03-04T2300,1048A,114.5302,36.6116,邯郸市,东污水处理厂,细颗粒物(PM2.5),77,95,118,56,59,28,,46,35,33,31,6,6,0.8,0.7
2024-03-04T2300,1049A,114.4918,36.5713,邯郸市,矿院,细颗粒物(PM2.5),78,101,114,57,59,35,,49,44,30,30,5,5,1.0,0.8
2024-03-04T2300,1050A,114.484,36.6133,邯郸市,丛台公园,细颗粒物(PM2.5),87,100,109,64,59,39,,51,46,32,33,6,6,0.9,0.7
2024-03-04T2300,3458A,114.7895,36.5593,邯郸市,香泉濮院小区,颗粒物(PM10),82,114,126,59,71,28,,56,44,31,24,8,8,0.6,0.5
2024-03-04T2300,3579A,114.50634,36.77178,邯郸市,永年区实验高中,细颗粒物(PM2.5),83,102,110,61,63,42,,57,47,35,35,8,8,0.7,0.5
2024-03-04T2300,3580A,114.20016,36.44293,邯郸市,峰峰矿区临水派出所,颗粒物(PM10),71,91,112,35,58,44,,54,53,29,24,13,14,0.7,0.7
2024-03-04T2300,2634A,106.9893,33.1842,汉中市,汉川机床厂子校,细颗粒物(PM2.5),77,68,52,56,44,27,,68,50,16,14,4,6,0.9,0.9
2024-03-04T2300,2635A,107.0154,33.0706,汉中市,市监测站,细颗粒物(PM2.5),93,80,62,69,52,38,,67,52,29,28,7,8,1.1,1
2024-03-04T2300,2636A,107.0089,33.1138,汉中市,鑫源开发区,细颗粒物(PM2.5),109,94,63,82,58,32,,64,47,39,29,8,8,1.0,0.8
2024-03-04T2300,2637A,107.007,33.0323,汉中市,南郑大河坎水厂,细颗粒物(PM2.5),95,96,74,71,58,31,,53,47,30,31,8,8,1.1,1
2024-03-04T2300,1223A,120.2072,30.2111,杭州市,滨江,颗粒物(PM10),67,84,66,30,32,3,,62,12,57,44,5,5,0.8,0.6
2024-03-04T2300,1224A,120.0633,30.2747,杭州市,西溪,细颗粒物(PM2.5),64,66,71,46,43,3,,37,10,45,50,7,7,1.2,0.9
2024-03-04T2300,1226A,120.3461,30.3153,杭州市,下沙,颗粒物(PM10),64,78,66,43,35,3,,70,9,66,56,6,7,0.7,0.6
2024-03-04T2300,1227A,120.1269,30.2456,杭州市,卧龙桥,细颗粒物(PM2.5),55,54,56,39,37,2,,43,14,35,36,5,5,0.9,0.7
2024-03-04T2300,1228A,120.1903,30.2692,杭州市,浙江农大,颗粒物(PM10),61,72,64,41,36,1,,48,5,67,54,6,6,1.1,0.8
2024-03-04T2300,1230A,120.1197,30.3119,杭州市,和睦小学,细颗粒物(PM2.5),73,94,74,53,42,4,,39,8,31,29,7,6,1.0,0.8
2024-03-04T2300,1231A,120.3019,30.4183,杭州市,临平镇,细颗粒物(PM2.5),59,56,65,42,43,2,,53,14,66,46,5,5,0.9,0.7
2024-03-04T2300,1232A,120.2697,30.1819,杭州市,城厢镇,细颗粒物(PM2.5),67,75,64,48,38,2,,72,11,82,53,9,8,0.9,0.7
2024-03-04T2300,1233A,120.0883,30.1808,杭州市,云栖,细颗粒物(PM2.5),52,51,57,36,35,3,,38,8,30,37,7,7,0.8,0.8
2024-03-04T2300,3557A,119.9464,30.0494,杭州市,镇二中,细颗粒物(PM2.5),64,69,64,46,52,2,,44,13,76,54,8,8,0.8,0.9
2024-03-04T2300,3558A,119.7183,30.2367,杭州市,市府大楼,细颗粒物(PM2.5),62,57,78,44,54,10,,55,32,37,37,5,6,1.1,0.8
2024-03-04T2300,3656A,120.1556,30.2864,杭州市,消防大队,细颗粒物(PM2.5),70,78,69,51,44,4,,46,9,85,67,10,10,1.2,0.9
2024-03-04T2300,1270A,117.1959,31.7848,合肥市,明珠广场,细颗粒物(PM2.5),79,68,75,58,49,1,,53,7,49,44,4,7,1.1,0.9
2024-03-04T2300,1271A,117.3072,31.8764,合肥市,三里街,细颗粒物(PM2.5),83,66,77,61,55,20,,50,20,39,45,5,7,0.8,0.8
2024-03-04T2300,1272A,117.2588,31.8707,合肥市,琥珀山庄,细颗粒物(PM2.5),67,70,75,48,42,21,,61,26,47,48,4,5,1.0,0.8
2024-03-04T2300,1273A,117.1604,31.9052,合肥市,董铺水库,细颗粒物(PM2.5),70,73,80,51,45,15,,64,24,41,39,2,3,0.8,0.7
2024-03-04T2300,1274A,117.25,31.8571,合肥市,长江中路,细颗粒物(PM2.5),83,63,73,61,55,17,,57,25,40,40,6,8,0.9,0.8
2024-03-04T2300,1275A,117.266,31.9436,合肥市,庐阳区,细颗粒物(PM2.5),85,68,81,63,52,27,,52,26,33,47,3,7,0.8,1
2024-03-04T2300,1276A,117.336,31.8586,合肥市,瑶海区,细颗粒物(PM2.5),78,66,76,57,53,14,,51,27,42,42,5,7,1.0,1
2024-03-04T2300,1277A,117.3027,31.7964,合肥市,包河区,细颗粒物(PM2.5),70,63,76,51,51,7,,59,8,54,55,5,7,0.8,0.7
2024-03-04T2300,1278A,117.2776,31.7385,合肥市,滨湖新区,细颗粒物(PM2.5),73,58,72,53,49,13,,61,16,43,35,6,7,0.8,0.7
2024-03-04T2300,1279A,117.1318,31.8403,合肥市,高新区,细颗粒物(PM2.5),92,85,73,68,51,14,,63,16,46,44,4,5,1.0,0.8
2024-03-04T2300,3464A,117.3803,31.9147,合肥市,高教基地,细颗粒物(PM2.5),57,59,71,40,41,22,,60,30,40,42,4,5,0.8,0.7
2024-03-04T2300,3614A,79.924,37.0877,和田地区,地区环保局,颗粒物(PM10),197,344,339,87,81,36,,76,,32,22,15,10,0.9,0.7
2024-03-04T2300,3615A,79.9131,37.113,和田地区,市环保局,颗粒物(PM10),186,322,301,78,75,50,,80,71,28,20,8,7,0.7,1
2024-03-04T2300,2516A,108.2011,24.715,河池市,东仁乐园,,39,28,22,27,21,5,,24,21,11,11,4,4,1.0,1
2024-03-04T2300,2517A,108.0497,24.6947,河池市,市环保站,细颗粒物(PM2.5),59,,27,42,23,21,,46,42,12,18,7,8,0.7,0.9
2024-03-04T2300,2518A,108.0983,24.6989,河池市,市疾控中心,,45,40,25,31,20,21,,51,49,28,23,8,8,0.9,1
2024-03-04T2300,1696A,114.6778,23.7569,河源市,源西,细颗粒物(PM2.5),65,47,39,47,36,5,,20,6,58,39,4,4,1.2,1.2
2024-03-04T2300,1697A,114.6944,23.7586,河源市,东埔,细颗粒物(PM2.5),72,83,63,52,43,18,,16,13,43,34,6,6,0.9,1.1
2024-03-04T2300,1698A,114.6892,23.7233,河源市,老城,"颗粒物(PM10),细颗粒物(PM2.5)",60,70,44,43,41,7,,16,7,44,29,6,5,1.0,1.1
2024-03-04T2300,1718A,115.4208,35.2464,菏泽市,气象局,细颗粒物(PM2.5),122,144,135,92,80,24,,87,30,43,37,4,6,0.8,0.8
2024-03-04T2300,1719A,115.4747,35.2375,菏泽市,市政协,,,,135,,83,18,,68,24,,34,,8,,0.5
2024-03-04T2300,3374A,115.5564,35.0891,菏泽市,定陶老年大学,细颗粒物(PM2.5),122,153,132,92,81,15,,63,27,48,38,7,7,0.9,0.8
2024-03-04T2300,3647A,115.4702,35.2706,菏泽市,菏泽医专,细颗粒物(PM2.5),112,146,135,84,75,21,,68,26,42,38,5,7,0.8,0.8
2024-03-04T2300,2514A,111.5264,24.4172,贺州市,环保小区,,29,25,23,20,15,47,,55,52,15,18,8,8,0.7,0.8
2024-03-04T2300,2515A,111.5608,24.4078,贺州市,政协大楼,,30,30,24,14,13,45,,54,49,19,20,9,8,0.6,0.6
2024-03-04T2300,3534A,111.4744,24.4553,贺州市,西湾,,26,26,23,17,18,42,,45,44,22,26,7,8,0.8,0.9
2024-03-04T2300,2385A,114.17,35.9019,鹤壁市,市监测站,细颗粒物(PM2.5),84,110,152,62,86,36,,53,52,43,41,11,11,0.7,0.8
2024-03-04T2300,2386A,114.2956,35.7511,鹤壁市,市交警支队,颗粒物(PM10),80,110,150,52,79,38,,54,49,38,39,10,13,0.6,0.9
2024-03-04T2300,2387A,114.2878,35.7306,鹤壁市,迎宾馆,颗粒物(PM10),72,93,130,42,73,39,,53,48,39,40,5,11,0.7,1
2024-03-04T2300,3474A,114.2617,35.6822,鹤壁市,大新区,颗粒物(PM10),72,94,150,44,76,43,,58,54,41,43,15,15,0.7,1
2024-03-04T2300,3596A,114.1572,35.9603,鹤壁市,南山宾馆,"颗粒物(PM10),细颗粒物(PM2.5)",82,114,161,60,84,37,,50,50,37,35,12,14,0.9,1.1
2024-03-04T2300,2244A,130.2537,47.3416,鹤岗市,哈啤分公司,,48,42,30,33,22,80,,79,79,7,7,14,14,0.4,0.4
2024-03-04T2300,2245A,130.2684,47.3086,鹤岗市,斯达机电,,49,39,34,34,22,84,,81,79,9,12,8,10,0.4,0.4
2024-03-04T2300,2246A,130.3114,47.3388,鹤岗市,东山纸板厂,,49,,30,34,22,83,,83,81,10,10,14,14,0.7,0.6
2024-03-04T2300,2247A,130.1097,47.3382,鹤岗市,五号水库,,36,31,29,25,17,95,,87,87,6,10,9,8,0.4,0.4
2024-03-04T2300,2263A,127.4833,50.2524,黑河市,交通局,,26,23,21,18,17,71,,84,70,7,7,6,7,0.4,0.4
2024-03-04T2300,2264A,127.5144,50.2341,黑河市,环保局,,32,,17,22,19,73,,80,70,8,8,4,4,0.3,0.3
2024-03-04T2300,2265A,127.5291,50.2472,黑河市,大黑河岛,,,23,22,15,13,,,,,5,132,7,8,,
2024-03-04T2300,1074A,115.6838,37.7541,衡水市,电机北厂,细颗粒物(PM2.5),99,128,99,74,58,12,,32,15,46,34,5,4,1.0,0.7
2024-03-04T2300,1075A,115.6303,37.7316,衡水市,市监测站,细颗粒物(PM2.5),97,119,99,72,54,11,,34,20,51,42,9,8,1.0,0.6
2024-03-04T2300,3188A,115.6683,37.7217,衡水市,市城管局,细颗粒物(PM2.5),105,129,104,79,63,13,,35,17,54,39,8,7,1.0,0.8
2024-03-04T2300,3459A,115.5989,37.5491,衡水市,地表水厂,细颗粒物(PM2.5),99,114,102,74,64,20,,37,24,42,30,6,5,1.0,0.7
2024-03-04T2300,2456A,112.5003,26.9167,衡阳市,原169医院,,45,39,42,31,30,11,,59,33,30,24,4,6,0.8,0.7
2024-03-04T2300,2457A,112.6194,26.9258,衡阳市,衡阳化工总厂,细颗粒物(PM2.5),65,62,45,47,34,13,,69,41,23,15,12,12,1.0,0.8
2024-03-04T2300,2458A,112.6211,26.8956,衡阳市,珠晖区环保局,细颗粒物(PM2.5),57,41,42,40,31,10,,66,38,33,24,6,9,1.0,0.9
2024-03-04T2300,2459A,112.6197,26.8733,衡阳市,市委党校,细颗粒物(PM2.5),57,49,43,40,32,6,,70,42,38,22,6,9,1.1,1
2024-03-04T2300,2460A,112.6006,26.8919,衡阳市,市监测站,细颗粒物(PM2.5),59,54,46,42,38,12,,70,42,25,19,9,10,1.0,0.9
2024-03-04T2300,2461A,112.5664,26.9056,衡阳市,真空机电公司,细颗粒物(PM2.5),63,,41,45,36,7,,65,36,34,23,9,11,1.2,1
2024-03-04T2300,3399A,112.6703,26.882,衡阳市,师范学院,细颗粒物(PM2.5),52,48,41,36,31,6,,64,39,34,19,8,9,1.2,1
2024-03-04T2300,2608A,103.3772,23.3993,红河哈尼族彝族自治州,污水处理厂,细颗粒物(PM2.5),62,50,57,44,44,101,,119,112,8,7,6,10,0.5,0.6
2024-03-04T2300,2609A,103.3861,23.35,红河哈尼族彝族自治州,监测站,细颗粒物(PM2.5),73,69,58,53,44,85,,118,107,17,9,20,11,0.6,0.6
2024-03-04T2300,3038A,103.3758,23.368,红河哈尼族彝族自治州,州图书馆,细颗粒物(PM2.5),54,48,51,38,36,82,,113,104,14,8,6,8,0.5,0.6
2024-03-04T2300,1090A,111.6507,40.7517,呼和浩特市,呼市一监,细颗粒物(PM2.5),64,58,74,46,37,52,,61,48,31,42,11,11,0.8,0.8
2024-03-04T2300,1091A,111.6572,40.8033,呼和浩特市,小召,细颗粒物(PM2.5),54,53,80,38,34,59,,64,58,43,57,11,12,0.7,0.9
2024-03-04T2300,1094A,111.7516,40.8369,呼和浩特市,如意水处理厂,颗粒物(PM10),58,66,72,35,32,66,,58,58,32,56,11,13,0.6,0.7
2024-03-04T2300,1095A,111.7276,40.8062,呼和浩特市,二十九中,颗粒物(PM10),51,52,70,34,32,70,,56,56,27,46,13,14,0.7,0.8
2024-03-04T2300,1096A,111.5512,40.7866,呼和浩特市,工大金川校区,细颗粒物(PM2.5),60,55,85,43,36,55,,47,47,30,59,6,10,0.6,0.7
2024-03-04T2300,1097A,111.717,40.7612,呼和浩特市,化肥厂生活区,颗粒物(PM10),64,77,78,41,34,67,,53,47,28,43,14,15,0.6,0.7
2024-03-04T2300,3698A,111.5968,40.8178,呼和浩特市,红旗小学,细颗粒物(PM2.5),59,48,87,42,39,48,,39,39,41,64,9,13,0.7,0.9
2024-03-04T2300,3699A,111.6518,40.8389,呼和浩特市,海东办,细颗粒物(PM2.5),58,48,84,41,39,28,,46,43,64,65,11,14,0.7,0.8
2024-03-04T2300,2192A,119.7594,49.2261,呼伦贝尔市,区环保局,,27,27,32,17,27,73,,86,81,19,23,5,5,0.4,0.4
2024-03-04T2300,3061A,119.7512,49.1577,呼伦贝尔市,国华电力东,,26,24,18,17,16,83,,88,86,5,7,5,5,0.3,0.2
2024-03-04T2300,1250A,120.0751,30.8669,湖州市,城西水厂,细颗粒物(PM2.5),53,52,57,37,37,6,,66,28,71,45,5,5,0.8,0.7
2024-03-04T2300,2873A,120.0875,30.8955,湖州市,仁皇山新区,细颗粒物(PM2.5),57,50,51,40,35,7,,68,27,58,43,6,7,0.7,0.7
2024-03-04T2300,2907A,120.1844,30.8596,湖州市,吴兴区站,细颗粒物(PM2.5),55,52,50,39,34,4,,81,26,68,40,6,7,0.8,0.7
2024-03-04T2300,3562A,120.4148,30.8538,湖州市,南浔区站,细颗粒物(PM2.5),63,53,47,45,32,19,,81,36,40,30,7,8,0.8,0.6
2024-03-04T2300,1607A,120.9092,40.7136,葫芦岛市,龙港区,细颗粒物(PM2.5),123,155,84,93,56,14,,93,50,92,40,184,67,1.8,0.9
2024-03-04T2300,1608A,120.8392,40.7514,葫芦岛市,化工街,细颗粒物(PM2.5),144,173,90,110,51,9,,92,47,96,56,32,23,1.7,1.1
2024-03-04T2300,1609A,120.8341,40.7073,葫芦岛市,新区,细颗粒物(PM2.5),122,105,84,92,61,12,,98,50,110,63,71,46,1.3,1.1
2024-03-04T2300,1610A,120.8695,40.7677,葫芦岛市,东城区,细颗粒物(PM2.5),165,172,83,125,57,6,,94,45,94,60,46,35,2.0,1.3
2024-03-04T2300,2482A,109.5981,27.5721,怀化市,林科所,,16,14,15,11,13,43,,47,46,4,4,4,4,0.9,0.9
2024-03-04T2300,2483A,109.9453,27.5444,怀化市,河西地税局,,16,16,22,10,18,38,,40,38,6,10,3,4,0.8,0.8
2024-03-04T2300,2484A,109.9781,27.5342,怀化市,市四医院,,19,19,19,12,15,34,,41,38,10,12,4,4,0.9,0.8
2024-03-04T2300,2485A,109.9972,27.5578,怀化市,监测楼,,18,17,22,12,13,37,,42,38,10,12,4,4,0.9,0.9
2024-03-04T2300,2486A,110.0394,27.583,怀化市,市委党校,,20,20,20,12,16,36,,39,37,8,11,5,5,0.8,0.8
2024-03-04T2300,1210A,119.036,33.5981,淮安市,钵池山,,49,,65,34,53,59,,66,61,17,26,7,8,0.7,0.7
2024-03-04T2300,1211A,119.007,33.575,淮安市,北京南路,,50,,63,35,53,66,,68,65,13,24,6,8,0.6,0.7
2024-03-04T2300,1212A,118.989,33.6067,淮安市,市监测站,,35,,67,24,51,68,,71,67,18,26,6,8,0.7,0.7
2024-03-04T2300,1213A,119.135,33.5039,淮安市,楚州区监测站,细颗粒物(PM2.5),63,,69,45,52,61,,68,63,18,26,5,6,0.6,0.7
2024-03-04T2300,1214A,119.0186,33.6297,淮安市,淮阴区监测站,细颗粒物(PM2.5),54,,81,38,56,60,,69,62,22,26,4,5,0.5,0.6
2024-03-04T2300,3426A,118.8755,33.2894,淮安市,新华书店,,49,43,75,34,53,51,,64,60,30,37,4,6,0.6,0.7
2024-03-04T2300,2282A,116.8004,33.975,淮北市,监测站,"颗粒物(PM10),细颗粒物(PM2.5)",87,123,112,64,67,47,,86,54,28,27,6,6,0.6,0.8
2024-03-04T2300,2283A,116.8091,33.9007,淮北市,烈山区政府,细颗粒物(PM2.5),92,108,99,68,70,53,,86,61,24,28,5,7,0.5,0.6
2024-03-04T2300,3330A,116.8873,33.9836,淮北市,杜集区检察院,细颗粒物(PM2.5),87,115,106,64,73,53,,95,64,24,23,6,7,0.7,0.8
2024-03-04T2300,4017A,116.7923,33.9535,淮北市,市博物馆,细颗粒物(PM2.5),90,115,105,67,72,43,,87,56,26,19,8,7,0.9,1
2024-03-04T2300,2277A,116.8305,32.7727,淮南市,潘集区政府,,,124,94,,53,34,,57,34,21,27,3,2,0.6,0.6
2024-03-04T2300,2278A,117.0067,32.6524,淮南市,师范学院,细颗粒物(PM2.5),102,111,90,76,66,19,,68,26,39,33,7,8,0.6,0.7
2024-03-04T2300,2279A,116.8569,32.5951,淮南市,谢家集区政府,细颗粒物(PM2.5),110,109,72,83,56,22,,76,33,42,31,4,6,0.8,0.8
2024-03-04T2300,2280A,116.8281,32.633,淮南市,八公山区政府,细颗粒物(PM2.5),115,121,88,87,59,23,,72,34,34,28,2,4,0.7,0.7
2024-03-04T2300,2281A,116.6325,32.6201,淮南市,焦岗湖风景区管理处,细颗粒物(PM2.5),88,123,81,65,41,17,,68,25,35,27,2,2,0.5,0.5
2024-03-04T2300,2894A,117.0566,32.6531,淮南市,经济技术开发区消防队,细颗粒物(PM2.5),98,99,76,73,52,20,,65,32,44,33,3,5,0.6,0.6
2024-03-04T2300,3329A,117.0108,32.5893,淮南市,山南新区,细颗粒物(PM2.5),84,98,77,62,51,26,,77,40,38,27,3,4,0.8,0.7
2024-03-04T2300,2446A,114.9028,30.4742,黄冈市,职工中心,,30,23,29,21,23,60,,59,38,6,14,8,10,0.5,0.7
2024-03-04T2300,2929A,114.8858,30.4519,黄冈市,红卫路,,29,20,28,20,23,59,,59,38,7,17,5,6,0.7,0.8
2024-03-04T2300,3398A,114.9136,30.4445,黄冈市,市林业局,,29,21,27,20,26,54,,56,34,9,18,7,6,0.5,0.6
2024-03-04T2300,2672A,102.0199,35.5102,黄南藏族自治州,同仁县隆务镇,细颗粒物(PM2.5),68,75,89,49,53,69,,74,73,6,14,9,12,0.8,1
2024-03-04T2300,2295A,118.2903,29.6963,黄山市,延安路89号,,,55,47,39,26,3,,18,14,28,19,6,6,,0.7
2024-03-04T2300,2296A,118.327,29.7178,黄山市,黄山东路89号,细颗粒物(PM2.5),68,62,47,49,32,0,,25,7,30,22,5,5,1.3,0.8
2024-03-04T2300,2297A,118.1371,30.2756,黄山市,黄山区政府5号楼,,10,9,30,3,19,32,,32,19,13,18,4,4,0.6,0.7
2024-03-04T2300,2423A,115.0601,30.2313,黄石市,沈家营,,32,32,42,14,25,16,,40,12,32,35,6,15,0.7,1.3
2024-03-04T2300,2424A,115.0817,30.2006,黄石市,陈家湾,,49,38,41,34,37,7,,52,9,47,36,8,9,1.1,0.9
2024-03-04T2300,2426A,114.8988,30.2019,黄石市,铁山,,34,34,38,7,21,7,,55,13,41,24,8,7,0.7,1
2024-03-04T2300,2427A,115.0307,30.2092,黄石市,团城山,,37,37,37,11,18,9,,61,13,38,23,6,7,0.7,0.8
2024-03-04T2300,3149A,115.0235,30.1578,黄石市,笔架山北路,,27,27,32,11,20,10,,49,16,39,27,4,7,0.8,0.8
2024-03-04T2300,1392A,114.4183,23.0528,惠州市,河南岸金山湖子站,颗粒物(PM10),55,59,42,35,26,34,,75,54,32,17,5,5,0.9,0.7
2024-03-04T2300,1393A,114.4053,23.0822,惠州市,下埔横江三路子站,颗粒物(PM10),55,60,44,33,27,54,,80,66,26,20,5,5,0.9,0.8
2024-03-04T2300,1394A,114.4103,23.1142,惠州市,江北云山西路子站,,48,48,43,13,23,71,,86,79,11,16,8,8,0.7,0.8
2024-03-04T2300,1395A,114.4645,22.7833,惠州市,惠阳区承修路船湖子站,,42,42,34,20,19,76,,89,86,17,15,7,7,0.6,0.7
2024-03-04T2300,1396A,114.5317,22.7422,惠州市,大亚湾管委会子站,颗粒物(PM10),53,55,38,25,22,68,,96,83,32,24,8,8,0.7,0.7
2024-03-04T2300,3314A,114.4338,22.8134,惠州市,惠阳秋长,,48,48,45,19,19,81,,98,94,23,22,6,7,0.7,0.7
2024-03-04T2300,2240A,130.9762,45.3001,鸡西市,环保局,,39,39,35,19,16,75,,71,70,9,10,5,6,0.4,0.4
2024-03-04T2300,2243A,130.9429,45.3039,鸡西市,第一中学,,32,29,31,22,16,83,,86,83,9,8,8,8,0.2,0.2
2024-03-04T2300,3707A,131.0207,45.3073,鸡西市,欧美日汽修厂,细颗粒物(PM2.5),53,52,42,37,23,67,,70,66,19,20,8,18,1.1,0.9
2024-03-04T2300,3709A,130.9967,45.3106,鸡西市,市政设施管理处,,42,42,40,25,19,64,,84,67,25,19,2,2,0.6,0.5
2024-03-04T2300,2367A,114.9754,27.0803,吉安市,红声器材厂,,30,30,41,13,20,61,,70,65,14,22,8,10,0.5,0.7
2024-03-04T2300,2368A,114.9658,27.0999,吉安市,市森林工业局,,23,23,32,12,20,54,,71,63,22,24,10,11,0.7,0.2
2024-03-04T2300,2369A,114.99,27.1312,吉安市,市环境监测站,,23,22,34,11,18,71,,80,77,13,21,5,8,0.3,0.6
2024-03-04T2300,2370A,115.0093,27.0968,吉安市,青原区法院,,23,21,35,14,20,73,,73,72,12,24,10,14,0.6,0.8
2024-03-04T2300,1772A,126.54,43.8622,吉林市,哈达湾,,49,48,31,34,20,52,,86,70,34,17,11,8,0.7,0.5
2024-03-04T2300,1773A,126.5844,43.8358,吉林市,东局子,,43,43,31,28,18,48,,83,62,33,21,7,8,0.8,0.5
2024-03-04T2300,1774A,126.5052,43.8245,吉林市,电力学院,细颗粒物(PM2.5),70,67,41,51,28,35,,85,70,36,18,12,8,1.3,0.8
2024-03-04T2300,1775A,126.6133,43.8972,吉林市,江北,细颗粒物(PM2.5),52,48,42,36,25,52,,81,66,25,22,11,16,1.2,0.8
2024-03-04T2300,1776A,126.555,43.8306,吉林市,江南公园,细颗粒物(PM2.5),59,60,32,42,23,25,,83,61,59,21,9,7,1.0,0.7
2024-03-04T2300,2868A,126.4739,43.953,吉林市,九站,细颗粒物(PM2.5),62,48,40,44,27,22,,89,62,55,26,15,13,0.8,0.6
2024-03-04T2300,1299A,116.9862,36.6114,济南市,科干所,细颗粒物(PM2.5),165,193,148,125,91,21,,86,34,66,60,11,12,1.2,1.1
2024-03-04T2300,1300A,116.9376,36.665,济南市,农科所,细颗粒物(PM2.5),150,186,204,115,112,30,,30,30,45,74,10,13,1.1,1.5
2024-03-04T2300,1301A,117.1265,36.6734,济南市,开发区,细颗粒物(PM2.5),168,186,151,127,96,17,,81,34,60,58,10,11,1.0,1
2024-03-04T2300,1303A,117.0624,36.6868,济南市,省种子仓库,细颗粒物(PM2.5),168,197,224,127,117,18,,32,26,54,73,9,14,0.9,1.2
2024-03-04T2300,1304A,116.9489,36.6447,济南市,机床二厂,细颗粒物(PM2.5),175,186,199,132,120,36,,34,34,46,79,9,15,1.0,1.3
2024-03-04T2300,1305A,117.0495,36.663,济南市,市监测站,细颗粒物(PM2.5),175,195,200,132,116,26,,35,32,59,83,15,18,1.1,1.4
2024-03-04T2300,1306A,116.7675,36.5484,济南市,长清党校,细颗粒物(PM2.5),182,210,161,137,101,41,,59,38,50,69,12,10,1.1,0.9
2024-03-04T2300,1616A,117.6795,36.229,济南市,技术学院,颗粒物(PM10),69,88,114,44,76,89,,110,96,21,36,6,10,0.6,0.9
2024-03-04T2300,1961A,117.532,36.6868,济南市,东山小学,颗粒物(PM10),77,103,142,46,80,53,,98,65,42,54,11,10,0.6,0.8
2024-03-04T2300,3059A,117.7161,36.2049,济南市,泰兴公司,颗粒物(PM10),67,83,120,44,77,85,,106,92,20,39,8,10,0.7,0.9
2024-03-04T2300,3064A,117.6867,36.2171,济南市,莱芜战役纪念馆,颗粒物(PM10),68,85,128,44,76,79,,99,87,22,38,6,9,0.7,1
2024-03-04T2300,3494A,117.1673,36.9782,济南市,济阳区政府,细颗粒物(PM2.5),132,139,182,100,115,47,,52,49,31,54,8,23,0.9,1.3
2024-03-04T2300,3495A,117.1171,36.63,济南市,锦屏中学,细颗粒物(PM2.5),189,212,127,142,87,8,,100,44,73,38,10,9,1.1,0.9
2024-03-04T2300,3682A,116.9814,36.6819,济南市,济南四建,细颗粒物(PM2.5),153,168,186,117,112,26,,29,28,45,68,12,16,0.9,1.3
2024-03-04T2300,1653A,116.6251,35.4302,济宁市,火炬城,细颗粒物(PM2.5),89,79,92,66,64,37,,70,61,36,31,6,8,0.8,0.9
2024-03-04T2300,1655A,116.5491,35.4042,济宁市,电化厂,细颗粒物(PM2.5),144,184,119,110,62,18,,79,65,60,38,8,8,1.2,0.9
2024-03-04T2300,3500A,116.5814,35.3707,济宁市,北湖一中,细颗粒物(PM2.5),83,84,92,61,63,46,,74,64,33,30,8,10,0.6,0.7
2024-03-04T2300,3501A,116.8249,35.5593,济宁市,服务中心,颗粒物(PM10),67,84,120,35,63,68,,79,74,21,36,3,4,0.6,0.9
2024-03-04T2300,3678A,116.5907,35.4054,济宁市,市第七中学,细颗粒物(PM2.5),104,93,97,78,65,33,,74,62,40,33,4,5,1.0,0.9
2024-03-04T2300,2255A,130.2751,46.8028,佳木斯市,佳纺,,40,40,44,25,28,56,,90,72,43,18,14,7,0.5,0.5
2024-03-04T2300,2256A,130.3995,46.8307,佳木斯市,发电厂,,26,25,32,16,21,83,,93,86,14,14,3,4,0.4,0.5
2024-03-04T2300,2257A,130.3258,46.7975,佳木斯市,环保局,,40,40,42,19,27,70,,88,75,22,19,6,6,0.4,0.5
2024-03-04T2300,2258A,130.3648,46.8032,佳木斯市,十一中,,35,35,38,19,23,75,,87,76,17,16,7,6,0.4,0.4
2024-03-04T2300,2259A,130.3794,46.7588,佳木斯市,四丰,,31,24,31,13,17,99,,107,101,4,5,1,1,0.3,0.3
2024-03-04T2300,1945A,98.2908,39.7711,嘉峪关市,气象局,颗粒物(PM10),100,149,130,29,26,71,,79,79,18,21,5,10,0.5,0.6
2024-03-04T2300,2884A,98.2672,39.7978,嘉峪关市,酒钢宾馆,颗粒物(PM10),102,153,135,27,28,58,,77,77,25,25,7,19,0.4,0.5
2024-03-04T2300,3248A,98.2643,39.7724,嘉峪关市,雄关区,颗粒物(PM10),89,127,103,29,24,54,,77,74,34,25,5,10,0.4,0.5
2024-03-04T2300,1383A,113.1064,22.6058,江门市,北街,,31,31,43,12,31,35,,36,36,22,47,6,7,0.5,1
2024-03-04T2300,1384A,113.0731,22.5835,江门市,西区,,32,22,46,22,36,56,,49,49,13,51,6,8,0.4,1
2024-03-04T2300,1385A,113.0219,22.5311,江门市,圭峰西,,31,31,33,11,25,57,,64,64,15,44,6,6,0.7,1
2024-03-04T2300,1386A,113.0828,22.5947,江门市,东湖,,20,20,47,10,32,30,,19,19,16,45,6,7,0.6,1.1
2024-03-04T2300,3311A,113.1075,22.5647,江门市,江海富民,,42,42,65,15,42,60,,63,63,10,48,6,7,0.7,1.1
2024-03-04T2300,3449A,113.05,22.4667,江门市,新会银湖,,26,20,37,18,35,69,,79,78,9,34,6,6,0.7,1
2024-03-04T2300,1828A,113.227,35.2125,焦作市,市环保局,细颗粒物(PM2.5),117,143,129,88,86,,,67,54,,38,,13,0.9,1
2024-03-04T2300,3169A,113.2725,35.2067,焦作市,太极体育中心,细颗粒物(PM2.5),128,176,150,97,92,28,,71,54,48,32,8,13,1.0,1
2024-03-04T2300,3335A,113.3137,35.2641,焦作市,马村街道办,细颗粒物(PM2.5),134,174,146,102,88,16,,66,48,63,32,12,13,1.0,0.9
2024-03-04T2300,3336A,113.2465,35.2373,焦作市,焦作技师学院,细颗粒物(PM2.5),138,157,136,105,88,46,,70,56,32,29,11,9,1.4,1
2024-03-04T2300,3477A,113.1656,35.2539,焦作市,中站许衡医院,细颗粒物(PM2.5),124,173,121,94,71,21,,81,42,56,27,13,9,1.3,0.9
2024-03-04T2300,3981A,113.2449,35.1803,焦作市,原李万街道办,细颗粒物(PM2.5),113,154,141,85,84,27,,74,54,55,36,11,13,1.1,1.2
2024-03-04T2300,1708A,116.3701,23.5345,揭阳市,新兴,细颗粒物(PM2.5),93,87,55,69,44,50,,99,75,39,26,18,14,1.1,0.9
2024-03-04T2300,1709A,116.3264,23.5443,揭阳市,西马,细颗粒物(PM2.5),103,88,55,77,38,45,,107,83,40,23,24,13,1.0,0.7
2024-03-04T2300,1710A,116.3611,23.5626,揭阳市,东兴,细颗粒物(PM2.5),99,102,59,74,39,35,,105,79,45,23,16,14,1.1,0.7
2024-03-04T2300,1711A,116.4151,23.5294,揭阳市,渔湖,颗粒物(PM10),63,75,52,39,26,53,,103,80,33,23,15,12,0.8,0.7
2024-03-04T2300,3320A,116.403,23.5699,揭阳市,曲溪,细颗粒物(PM2.5),68,72,54,49,33,42,,102,80,40,23,16,10,1.0,0.7
2024-03-04T2300,1944A,102.1692,38.5167,金昌市,天庆家园,颗粒物(PM10),56,61,66,15,19,82,,90,86,10,14,7,8,0.4,0.5
2024-03-04T2300,3170A,102.1864,38.5253,金昌市,市委党校,颗粒物(PM10),68,85,68,16,26,90,,99,,3,7,9,10,0.6,0.5
2024-03-04T2300,4022A,102.1647,38.5371,金昌市,金川区人防中心,颗粒物(PM10),76,101,69,7,21,88,,98,94,8,9,5,7,0.5,0.6
2024-03-04T2300,1262A,119.647,29.077,金华市,十五中,细颗粒物(PM2.5),83,70,54,61,40,2,,78,6,64,45,4,4,0.9,0.7
2024-03-04T2300,1263A,119.686,29.1029,金华市,监测站,细颗粒物(PM2.5),69,68,56,50,39,1,,60,3,68,53,4,4,0.7,0.5
2024-03-04T2300,3659A,119.656,29.1131,金华市,气象局,细颗粒物(PM2.5),72,67,50,52,33,2,,52,6,64,53,4,3,0.9,0.8
2024-03-04T2300,1767A,121.1115,41.0879,锦州市,南山,细颗粒物(PM2.5),117,114,80,88,69,42,,99,68,60,46,16,16,1.0,1.1
2024-03-04T2300,1768A,121.0533,40.8434,锦州市,开发区,细颗粒物(PM2.5),234,191,110,184,69,13,,94,54,107,68,25,18,1.6,0.9
2024-03-04T2300,1769A,121.1836,41.1119,锦州市,百股街道,细颗粒物(PM2.5),134,124,86,102,68,46,,105,51,37,33,20,33,1.0,0.9
2024-03-04T2300,1770A,121.1178,41.1222,锦州市,天安街道,细颗粒物(PM2.5),84,90,79,62,57,57,,86,60,42,48,11,14,0.9,1.1
2024-03-04T2300,1771A,121.1303,41.1386,锦州市,北湖公园,细颗粒物(PM2.5),88,76,68,65,59,55,,92,69,38,39,17,23,1.0,0.9
2024-03-04T2300,2160A,112.85,35.5051,晋城市,自来水公司,细颗粒物(PM2.5),122,148,68,92,47,45,,109,80,35,20,13,5,1.9,0.9
2024-03-04T2300,2161A,112.8318,35.4936,晋城市,白云商贸,细颗粒物(PM2.5),110,134,75,83,40,50,,109,82,33,22,11,5,1.7,0.9
2024-03-04T2300,2162A,112.8508,35.4887,晋城市,市环保局,细颗粒物(PM2.5),117,148,78,88,42,45,,108,82,37,19,11,5,1.8,0.8
2024-03-04T2300,2163A,112.8676,35.4897,晋城市,技术学院,细颗粒物(PM2.5),119,137,72,90,40,48,,106,78,35,22,11,5,1.6,1
2024-03-04T2300,3620A,112.8271,35.4828,晋城市,泽州一中,细颗粒物(PM2.5),98,120,63,73,36,51,,105,83,30,18,14,7,1.7,1
2024-03-04T2300,2171A,112.7532,37.6945,晋中市,锦纶小区,细颗粒物(PM2.5),98,129,133,73,70,31,,61,39,54,37,9,10,0.8,0.8
2024-03-04T2300,2173A,112.7249,37.7067,晋中市,南都小区,细颗粒物(PM2.5),104,143,138,78,68,5,,55,16,80,48,10,10,0.9,0.8
2024-03-04T2300,2174A,112.6991,37.6982,晋中市,榆次区政府,细颗粒物(PM2.5),98,135,123,73,65,8,,55,21,74,46,13,11,0.7,0.7
2024-03-04T2300,2865A,112.7195,37.6828,晋中市,榆次三中,细颗粒物(PM2.5),100,134,140,75,66,23,,59,32,61,40,9,10,0.8,0.8
2024-03-04T2300,2439A,112.2014,31.0481,荆门市,竹园小学,细颗粒物(PM2.5),78,77,78,57,53,51,,54,45,21,24,9,8,0.8,0.8
2024-03-04T2300,2440A,112.1969,30.9891,荆门市,掇刀,细颗粒物(PM2.5),79,76,79,58,54,58,,52,48,16,24,6,8,0.7,0.7
2024-03-04T2300,2441A,112.2213,31.0386,荆门市,石化一小,细颗粒物(PM2.5),82,80,79,60,50,58,,56,48,16,26,12,15,0.7,0.8
2024-03-04T2300,3012A,112.1849,31.0362,荆门市,西山林语,细颗粒物(PM2.5),77,72,70,56,53,60,,52,50,20,25,12,13,0.7,0.7
2024-03-04T2300,3547A,112.1632,31.0138,荆门市,龙泉中学南校,细颗粒物(PM2.5),79,76,76,58,52,62,,52,52,16,24,8,9,0.6,0.6
2024-03-04T2300,1844A,112.2494,30.3197,荆州市,市图书馆,细颗粒物(PM2.5),83,81,52,61,46,35,,41,39,25,24,5,6,0.8,0.8
2024-03-04T2300,1845A,112.2008,30.3544,荆州市,市委党校,细颗粒物(PM2.5),78,76,51,57,45,42,,45,44,27,26,4,4,0.9,0.9
2024-03-04T2300,3194A,112.2747,30.3122,荆州市,管委会,细颗粒物(PM2.5),79,79,50,58,42,38,,42,41,26,29,7,8,0.8,0.8
2024-03-04T2300,3548A,112.1655,30.3364,荆州市,学苑路,细颗粒物(PM2.5),79,75,46,58,43,39,,46,43,30,25,9,7,0.8,0.8
2024-03-04T2300,2342A,117.3102,29.3867,景德镇市,王港中学,,17,17,16,8,13,14,,25,20,7,6,4,4,0.2,0.3
2024-03-04T2300,2343A,117.2117,29.2933,景德镇市,老干部活动中心,,20,16,25,14,17,18,,24,18,12,19,4,4,0.4,0.4
2024-03-04T2300,2344A,117.1894,29.2789,景德镇市,兽医站,,22,,30,15,17,17,,34,24,24,23,5,5,0.7,0.7
2024-03-04T2300,2345A,117.1547,29.2617,景德镇市,台达陶瓷,,23,18,29,16,16,15,,30,20,16,22,4,5,0.5,0.6
2024-03-04T2300,2346A,117.2461,29.2956,景德镇市,陶研所,,15,15,23,8,12,13,,16,10,14,20,5,4,0.5,0.5
2024-03-04T2300,1803A,115.9872,29.6815,九江市,十里,,29,28,33,20,25,17,,36,25,36,38,9,10,1.1,0.9
2024-03-04T2300,1804A,115.9584,29.7046,九江市,茅山头,,25,19,31,16,22,8,,26,21,50,52,10,12,1.5,1.1
2024-03-04T2300,1805A,115.9877,29.7295,九江市,西园,,,,33,21,21,11,,41,28,45,41,,10,1.2,0.9
2024-03-04T2300,1806A,116.0172,29.6547,九江市,五七二七厂,,42,30,31,29,23,18,,34,23,30,22,6,8,1.0,0.8
2024-03-04T2300,1808A,115.9114,29.6038,九江市,综合工业园,,40,40,37,28,29,5,,19,8,50,54,11,12,1.0,0.9
2024-03-04T2300,1809A,116.0721,29.7535,九江市,石化总厂,,25,22,28,17,20,18,,56,21,39,28,10,13,1.3,0.9
2024-03-04T2300,1810A,115.9773,29.5698,九江市,庐山气象台,,25,,6,7,6,77,,79,79,6,6,7,6,0.9,0.9
2024-03-04T2300,3190A,116.0254,29.6994,九江市,外国语学校,,32,32,37,18,24,21,,34,24,38,44,12,11,1.2,1
2024-03-04T2300,2658A,98.5061,39.7443,酒泉市,仓门街子站,颗粒物(PM10),125,200,128,39,29,41,,75,64,32,20,8,10,0.5,0.4
2024-03-04T2300,2659A,98.4989,39.7256,酒泉市,油田生活基地,颗粒物(PM10),122,193,127,43,33,33,,77,67,41,22,9,10,0.6,0.4
2024-03-04T2300,2698A,76.0072,39.4467,喀什地区,巡警大队,颗粒物(PM10),187,323,288,72,72,48,,77,72,43,35,3,3,1.0,1.2
2024-03-04T2300,2699A,75.9755,39.4694,喀什地区,吾办,颗粒物(PM10),183,315,276,72,85,55,,72,69,38,37,3,3,0.8,1.4
2024-03-04T2300,4027A,75.9483,39.4689,喀什地区,老干局,颗粒物(PM10),186,321,302,70,68,54,,82,79,32,25,6,4,1.1,1.7
2024-03-04T2300,1824A,114.3389,34.7781,开封市,肿瘤医院,细颗粒物(PM2.5),108,112,124,81,81,51,,52,52,21,28,6,6,0.9,1
2024-03-04T2300,1826A,114.2885,34.7965,开封市,世纪星幼儿园,细颗粒物(PM2.5),94,105,114,70,75,53,,57,54,26,29,9,9,0.6,0.6
2024-03-04T2300,3147A,114.3438,34.8106,开封市,龙亭公园,细颗粒物(PM2.5),100,116,120,75,80,50,,51,50,21,28,6,6,0.9,0.7
2024-03-04T2300,3210A,114.3644,34.7964,开封市,汴京公园,细颗粒物(PM2.5),113,117,122,85,83,53,,54,54,19,27,4,4,0.8,0.8
2024-03-04T2300,3473A,114.2485,34.8306,开封市,技师学院,细颗粒物(PM2.5),83,106,115,61,75,46,,54,51,27,28,10,7,0.8,0.8
2024-03-04T2300,3592A,114.4644,34.7556,开封市,祥符区生态环境局,细颗粒物(PM2.5),120,159,140,91,82,44,,50,48,24,33,5,5,0.9,0.9
2024-03-04T2300,1951A,84.895,45.6094,克拉玛依市,长征新村,,45,45,68,29,43,58,,93,83,35,26,9,9,0.4,0.5
2024-03-04T2300,1952A,84.8988,45.5893,克拉玛依市,南林小区,,49,46,74,34,51,49,,94,82,51,25,7,2,0.2,0.3
2024-03-04T2300,1954A,84.905,44.3396,克拉玛依市,独山子区,"颗粒物(PM10),细颗粒物(PM2.5)",59,68,71,42,25,76,,84,74,19,21,6,6,0.6,0.6
2024-03-04T2300,1955A,85.6979,46.098,克拉玛依市,乌尔禾区商贸楼,,39,31,45,27,25,82,,103,98,22,21,7,7,0.5,0.4
2024-03-04T2300,3612A,85.1045,45.6899,克拉玛依市,白碱滩区新站,,47,47,64,13,40,59,,98,87,22,19,10,10,0.5,0.6
2024-03-04T2300,2697A,76.1454,39.7142,克孜勒苏柯尔克孜自治州,市人民政府,颗粒物(PM10),173,295,232,76,62,40,,78,70,36,10,5,5,0.5,0.9
2024-03-04T2300,3665A,76.1658,39.7157,克孜勒苏柯尔克孜自治州,克州文化中心,颗粒物(PM10),184,317,254,75,61,32,,78,71,38,10,6,6,1.0,0.7
2024-03-04T2300,1450A,102.8204,24.8886,昆明市,呈贡新区,,32,29,31,22,22,83,,101,93,14,8,8,6,0.5,0.6
2024-03-04T2300,1451A,102.6251,24.9608,昆明市,西山森林公园,,35,31,33,14,18,110,,110,108,5,7,6,8,0.9,1
2024-03-04T2300,1452A,102.7252,25.0902,昆明市,龙泉镇,,39,39,35,21,18,91,,104,98,10,8,9,9,0.3,0.4
2024-03-04T2300,1453A,102.7266,25.0375,昆明市,东风东路,,37,37,37,20,22,87,,98,92,11,12,8,6,0.5,0.5
2024-03-04T2300,1454A,102.6742,25.0669,昆明市,金鼎山,,30,26,31,21,17,92,,103,97,9,9,4,5,0.4,0.4
2024-03-04T2300,1455A,102.6644,25.0401,昆明市,碧鸡广场,,39,38,32,27,21,93,,104,99,9,8,8,8,0.6,0.5
2024-03-04T2300,3179A,102.7494,25.0119,昆明市,官渡区博物馆,,41,41,44,22,25,77,,98,89,19,12,9,8,0.5,0.6
2024-03-04T2300,3375A,102.8017,24.8336,昆明市,青年创业园,,36,36,34,18,21,101,,108,105,3,4,8,10,0.5,0.5
2024-03-04T2300,3550A,102.7997,24.9786,昆明市,昆明学院,,41,41,39,21,21,87,,97,92,8,8,7,9,0.4,0.4
2024-03-04T2300,3551A,102.5967,24.6736,昆明市,晋宁区生态环境分局,,45,45,35,22,19,98,,105,101,4,4,3,2,0.5,0.5
2024-03-04T2300,3552A,102.6678,24.9856,昆明市,云天化总部,,35,35,38,22,24,98,,109,102,8,7,8,9,0.5,0.6
2024-03-04T2300,1456A,91.1319,29.6514,拉萨市,八廓街,,50,50,19,14,10,91,,94,92,10,13,7,7,0.4,0.5
2024-03-04T2300,1457A,91.1221,29.6747,拉萨市,市环保局,颗粒物(PM10),57,64,21,20,10,88,,95,94,10,10,8,7,0.4,0.3
2024-03-04T2300,1458A,91.0874,29.6475,拉萨市,区监测站,颗粒物(PM10),54,58,18,15,8,93,,96,96,4,6,5,5,0.2,0.3
2024-03-04T2300,1459A,91.1774,29.6541,拉萨市,西藏大学,,46,46,20,8,8,95,,94,92,4,8,6,5,0.2,0.2
2024-03-04T2300,1460A,90.9798,29.6588,拉萨市,区辐射站,,41,41,21,17,9,93,,92,92,10,9,5,5,0.5,0.5
2024-03-04T2300,1461A,91.0834,29.6292,拉萨市,拉萨火车站,,46,46,19,12,10,96,,97,97,3,5,3,3,0.2,0.3
2024-03-04T2300,2520A,109.2203,23.7256,来宾市,来宾技工学校,,40,39,31,28,23,56,,79,77,23,17,6,6,0.8,1
2024-03-04T2300,3535A,109.1781,23.7297,来宾市,兴宾区政府,,34,34,27,23,19,90,,86,86,9,19,3,3,0.7,0.9
2024-03-04T2300,4002A,109.2416,23.7461,来宾市,中南小学,,39,38,28,27,21,64,,72,71,17,21,3,3,0.9,1.1
2024-03-04T2300,1476A,103.631,36.1031,兰州市,兰炼宾馆,颗粒物(PM10),88,125,81,39,40,93,,92,92,12,22,7,12,0.3,0.6
2024-03-04T2300,1478A,103.8412,36.0726,兰州市,生物制品所,颗粒物(PM10),88,126,79,42,46,89,,91,91,15,25,8,13,0.4,0.7
2024-03-04T2300,1479A,103.831,36.0464,兰州市,铁路设计院,颗粒物(PM10),91,131,76,44,45,85,,88,88,25,28,11,10,0.4,0.6
2024-03-04T2300,3186A,103.7158,36.1058,兰州市,教育港,颗粒物(PM10),84,117,74,37,40,93,,92,92,19,27,7,12,0.3,0.7
2024-03-04T2300,3241A,103.7439,36.0842,兰州市,百合公园,颗粒物(PM10),81,111,73,28,34,89,,93,93,21,25,5,9,0.6,0.8
2024-03-04T2300,3242A,103.9611,35.998,兰州市,和平,颗粒物(PM10),102,153,75,33,35,94,,98,98,14,18,15,10,0.3,0.6
2024-03-04T2300,3245A,103.6633,36.533,兰州新区,新区管委会,颗粒物(PM10),54,58,59,31,35,81,,95,94,14,14,9,12,0.7,0.7
2024-03-04T2300,3246A,103.6975,36.4789,兰州新区,舟曲中学,颗粒物(PM10),61,72,60,13,28,82,,97,96,11,16,5,13,0.4,0.7
2024-03-04T2300,1067A,116.6708,39.5111,廊坊市,药材公司,颗粒物(PM10),80,110,92,51,47,72,,72,67,24,37,5,7,0.8,1.1
2024-03-04T2300,1068A,116.7214,39.5589,廊坊市,开发区,颗粒物(PM10),64,78,84,39,46,75,,73,68,20,37,4,7,0.5,0.9
2024-03-04T2300,1070A,116.7244,39.5269,廊坊市,北华航天学院,颗粒物(PM10),66,81,84,39,43,72,,73,67,16,34,5,9,0.5,0.9
2024-03-04T2300,2919A,116.7022,39.5453,廊坊市,河北工业大学,颗粒物(PM10),66,82,82,42,49,71,,71,66,21,33,4,7,0.5,0.9
2024-03-04T2300,2535A,103.7723,29.5462,乐山市,花湖湾,细颗粒物(PM2.5),145,169,110,111,89,26,,78,65,44,27,5,5,0.9,0.8
2024-03-04T2300,2536A,103.7627,29.5844,乐山市,牛耳桥,细颗粒物(PM2.5),144,136,109,110,89,26,,72,58,53,39,5,5,1.3,1.2
2024-03-04T2300,2537A,103.7508,29.6006,乐山市,市第三水厂,细颗粒物(PM2.5),132,144,110,100,68,20,,74,53,58,40,4,5,1.0,0.9
2024-03-04T2300,2538A,103.7571,29.5664,乐山市,市监测站,细颗粒物(PM2.5),124,121,103,94,81,34,,74,63,39,31,5,5,1.1,1
2024-03-04T2300,3361A,103.7311,29.5628,乐山市,理工大学,细颗粒物(PM2.5),144,128,106,110,90,29,,75,60,41,31,5,5,0.8,0.8
2024-03-04T2300,2600A,100.2203,26.8906,丽江市,市中心,,29,12,21,7,12,92,,98,95,7,9,6,6,0.4,0.4
2024-03-04T2300,1267A,119.914,28.4514,丽水市,监测站大楼,细颗粒物(PM2.5),72,59,42,52,37,4,,78,12,44,34,4,4,1.5,0.8
2024-03-04T2300,1268A,119.93,28.4586,丽水市,莲都小学,细颗粒物(PM2.5),67,60,51,48,37,3,,88,11,59,37,4,4,1.0,0.7
2024-03-04T2300,1269A,119.879,28.4231,丽水市,余庄前,,48,45,48,33,34,3,,64,10,34,32,3,4,0.8,0.7
2024-03-04T2300,1173A,119.176,34.5885,连云港市,市环境监测站,,29,,67,14,44,90,,86,86,13,22,6,7,0.7,0.8
2024-03-04T2300,3000A,119.3581,34.6972,连云港市,德源药业,,32,,67,9,38,100,,98,98,8,19,4,4,0.4,0.5
2024-03-04T2300,3007A,119.178,34.844,连云港市,新城一中,,41,41,64,16,41,105,,103,101,16,30,7,8,0.7,0.8
2024-03-04T2300,3008A,119.3608,34.7519,连云港市,胡沟管理处,,27,12,64,9,33,86,,83,78,22,34,7,12,0.5,0.6
2024-03-04T2300,3009A,119.1478,34.5911,连云港市,矿山设计院,,27,19,75,12,40,84,,83,82,14,22,4,6,0.6,0.6
2024-03-04T2300,3434A,119.2413,34.6539,连云港市,工贸学校,,32,9,70,7,43,101,,103,101,13,18,7,9,0.6,0.7
2024-03-04T2300,3664A,119.4172,34.7341,连云港市,连云街道,,35,8,54,6,34,111,,112,112,8,13,2,4,0.5,0.7
2024-03-04T2300,2571A,102.3431,27.8099,凉山彝族自治州,青龙寺,,,,36,6,6,104,,107,107,2,3,4,5,0.9,0.9
2024-03-04T2300,2572A,102.2721,27.8415,凉山彝族自治州,邛海宾馆,,31,22,24,12,18,98,,103,102,3,5,6,10,0.7,0.7
2024-03-04T2300,2573A,102.2625,27.898,凉山彝族自治州,西昌市政府,,31,29,31,11,14,97,,101,100,3,7,7,12,0.5,0.8
2024-03-04T2300,2574A,102.2685,27.8851,凉山彝族自治州,凉山州政府,,30,23,28,11,14,95,,98,98,3,7,4,10,0.5,0.8
2024-03-04T2300,2575A,102.237,27.8914,凉山彝族自治州,长安,,32,27,35,10,15,100,,104,103,3,6,8,12,0.6,0.8
2024-03-04T2300,2212A,123.2,41.1953,辽阳市,宏伟区,细颗粒物(PM2.5),70,64,62,51,37,34,,80,58,44,26,16,16,1.0,1
2024-03-04T2300,2213A,123.1683,41.2495,辽阳市,新华园,细颗粒物(PM2.5),78,64,71,57,44,37,,76,58,47,33,19,48,1.0,1.2
2024-03-04T2300,2214A,123.2354,41.2639,辽阳市,滨河路,细颗粒物(PM2.5),79,70,59,58,43,31,,76,49,47,30,12,21,0.9,0.9
2024-03-04T2300,2215A,123.149,41.2991,辽阳市,铁西工业园,细颗粒物(PM2.5),83,109,90,61,58,8,,84,47,70,42,16,22,0.8,1
2024-03-04T2300,2227A,125.1358,42.8845,辽源市,环保局,,45,45,41,31,25,22,,94,60,46,34,10,10,1.7,0.9
2024-03-04T2300,3239A,125.0764,42.9078,辽源市,银鹰制药,,46,41,38,32,26,32,,93,63,38,30,11,14,0.9,0.8
2024-03-04T2300,1625A,115.9848,36.4372,聊城市,区政府,细颗粒物(PM2.5),99,136,179,74,98,12,,25,21,48,51,6,9,1.2,1.2
2024-03-04T2300,2878A,116.0072,36.4343,聊城市,聊大东校,细颗粒物(PM2.5),108,127,167,81,109,15,,29,24,49,54,8,10,0.9,0.9
2024-03-04T2300,3200A,115.9819,36.4978,聊城市,监控中心,细颗粒物(PM2.5),98,125,183,73,110,13,,30,23,45,51,9,10,1.1,1.1
2024-03-04T2300,3513A,116.0445,36.4361,聊城市,九州社区,细颗粒物(PM2.5),97,135,180,72,103,14,,28,24,42,45,5,8,0.9,1.1
2024-03-04T2300,4018A,116.0567,36.4608,聊城市,星美广场,细颗粒物(PM2.5),93,131,180,69,99,16,,30,26,41,47,4,7,0.9,1
2024-03-04T2300,2632A,94.3681,29.6376,林芝市,林芝监测站,,28,,11,8,4,88,,103,96,1,3,5,5,0.5,0.5
2024-03-04T2300,2633A,94.3616,29.6616,林芝市,林芝人民医院,,27,13,12,5,6,85,,99,93,3,5,5,5,0.5,0.5
2024-03-04T2300,2603A,100.0781,23.8982,临沧市,市环保局,,46,35,41,32,35,77,,98,94,10,11,7,7,0.4,0.5
2024-03-04T2300,2604A,100.0894,23.8822,临沧市,市气象局,,43,37,48,30,38,79,,99,93,9,12,5,6,0.4,0.5
2024-03-04T2300,1733A,111.5531,36.0783,临汾市,临钢医院,细颗粒物(PM2.5),125,142,106,95,67,22,,68,26,39,31,7,7,1.3,1
2024-03-04T2300,1734A,111.5028,36.0714,临汾市,技工学校,细颗粒物(PM2.5),137,127,97,104,68,28,,71,38,36,25,6,6,1.2,0.9
2024-03-04T2300,1736A,111.5018,36.0855,临汾市,市委,细颗粒物(PM2.5),122,128,99,92,64,22,,77,37,38,25,8,8,1.3,1
2024-03-04T2300,3018A,111.505,36.1014,临汾市,唐尧大酒店,细颗粒物(PM2.5),125,127,95,95,64,22,,77,38,42,29,6,6,1.2,0.9
2024-03-04T2300,3668A,111.5036,36.0414,临汾市,城南,细颗粒物(PM2.5),130,119,94,99,70,25,,72,33,35,25,7,7,1.0,0.9
2024-03-04T2300,2667A,103.2069,35.5993,临夏回族自治州,环保局,颗粒物(PM10),67,84,92,34,28,84,,55,55,12,20,6,8,0.5,1
2024-03-04T2300,2668A,103.2417,35.6057,临夏回族自治州,建设大厦,颗粒物(PM10),59,67,79,28,42,92,,66,66,6,17,4,4,0.4,0.8
2024-03-04T2300,1618A,118.3429,35.0532,临沂市,沂河小区,细颗粒物(PM2.5),55,41,96,39,66,81,,84,84,10,27,3,7,0.6,0.8
2024-03-04T2300,1619A,118.295,35.0583,临沂市,鲁南制药厂,,42,39,91,29,54,89,,93,93,17,29,2,8,0.4,0.7
2024-03-04T2300,1620A,118.2794,34.9976,临沂市,新光毛纺厂,,39,39,90,27,56,92,,91,91,10,31,3,6,0.6,0.9
2024-03-04T2300,1621A,118.3956,35.0888,临沂市,河东保险公司,,41,41,96,22,58,80,,91,90,17,41,3,6,0.6,0.8
2024-03-04T2300,3370A,118.3564,35.0215,临沂市,十里堡居委,,34,34,86,19,52,92,,96,95,14,26,1,5,0.5,0.8
2024-03-04T2300,3496A,118.3604,35.1084,临沂市,南坊新区,,39,39,92,27,55,87,,93,93,18,37,5,9,0.8,0.9
2024-03-04T2300,3860A,118.3920,35.0300,临沂市,皇山花园小区,,34,34,90,22,54,92,,95,94,13,31,5,9,0.8,1
2024-03-04T2300,1870A,109.4856,24.3895,柳州市,柳东小学,,40,28,12,28,16,55,,24,20,24,21,7,6,0.9,0.8
2024-03-04T2300,1871A,109.4157,24.3277,柳州市,环保监测站,细颗粒物(PM2.5),63,62,36,45,28,3,,11,3,27,28,11,8,1.8,1.3
2024-03-04T2300,1872A,109.389,24.341,柳州市,河西水厂,,48,48,33,30,22,0,,11,1,24,24,13,8,1.5,1.2
2024-03-04T2300,1873A,109.4311,24.2921,柳州市,市四中,细颗粒物(PM2.5),58,62,56,41,25,5,,8,6,30,29,10,6,1.9,1.4
2024-03-04T2300,1874A,109.4006,24.3631,柳州市,市九中,细颗粒物(PM2.5),55,56,32,39,27,2,,18,3,29,28,10,7,1.4,1
2024-03-04T2300,1875A,109.4958,24.3134,柳州市,古亭山,,45,45,27,30,17,7,,8,4,34,29,6,6,1.4,1.1
2024-03-04T2300,3402A,109.5422,24.3996,柳州市,市二中,,40,40,21,24,13,23,,19,5,41,26,7,6,1.0,1
2024-03-04T2300,2307A,116.5079,31.737,六安市,监测大楼,细颗粒物(PM2.5),118,119,63,89,50,16,,66,26,43,29,4,5,1.0,0.8
2024-03-04T2300,2308A,116.4738,31.7643,六安市,皖西学院,细颗粒物(PM2.5),119,120,68,90,48,24,,68,32,34,27,4,4,0.9,0.7
2024-03-04T2300,2309A,116.4996,31.7905,六安市,朝阳厂,细颗粒物(PM2.5),125,114,64,95,52,20,,64,28,31,24,4,5,,0.7
2024-03-04T2300,2310A,116.5567,31.7886,六安市,开发区,细颗粒物(PM2.5),94,112,72,70,42,17,,60,30,37,30,4,6,0.9,0.7
2024-03-04T2300,2577A,104.83,26.5917,六盘水市,黄土坡,,35,35,35,20,19,78,,101,92,23,14,15,12,0.8,0.8
2024-03-04T2300,2578A,104.89,26.5939,六盘水市,水钢,,32,32,69,18,19,99,,94,94,6,15,4,12,0.4,0.9
2024-03-04T2300,2579A,104.8475,26.5894,六盘水市,民中,,37,37,31,12,20,82,,98,87,19,14,8,9,0.7,0.8
2024-03-04T2300,2580A,104.9544,26.5506,六盘水市,双水,,36,36,32,14,14,86,,100,74,16,18,10,10,0.4,0.6
2024-03-04T2300,2336A,117.0217,25.1033,龙岩市,龙岩市监测站,,33,33,50,21,42,27,,25,17,35,40,4,5,0.9,1.2
2024-03-04T2300,2337A,117.0258,25.0661,龙岩市,闽西职业技术学院,,32,32,56,16,40,37,,41,21,27,36,4,4,0.6,1.1
2024-03-04T2300,2338A,117.0196,25.0306,龙岩市,龙岩学院,,23,23,38,10,30,55,,42,35,12,20,7,5,0.5,0.7
2024-03-04T2300,2885A,104.9339,33.3826,陇南市,滨江中学,细颗粒物(PM2.5),75,89,48,55,25,0,,69,36,53,20,16,7,2.9,1.3
2024-03-04T2300,3247A,104.955,33.371,陇南市,市总工会,颗粒物(PM10),58,65,39,31,18,23,,62,37,34,18,7,5,1.1,0.8
2024-03-04T2300,2487A,111.9589,27.8901,娄底市,电视发射台,,32,32,50,18,33,21,,32,25,15,14,4,5,0.8,0.7
2024-03-04T2300,2488A,111.9975,27.725,娄底市,市监测站,,26,21,57,18,44,21,,32,14,23,26,7,5,0.8,0.9
2024-03-04T2300,2489A,112.0194,27.7314,娄底市,市委党校,,23,19,52,16,42,23,,25,14,20,24,6,6,0.7,0.7
2024-03-04T2300,2490A,111.9561,27.7569,娄底市,涟钢,,34,34,60,22,42,18,,23,18,14,25,5,4,1.0,1
2024-03-04T2300,2491A,111.9892,27.7044,娄底市,市政府,,26,22,59,18,40,21,,30,12,15,20,6,6,0.8,0.9
2024-03-04T2300,1893A,105.4324,28.9634,泸州市,九狮山,细颗粒物(PM2.5),114,102,92,86,64,49,,87,73,26,19,7,7,0.3,0.3
2024-03-04T2300,1894A,105.4427,28.9063,泸州市,小市上码头,细颗粒物(PM2.5),109,106,89,82,69,46,,69,62,26,22,6,6,0.7,0.6
2024-03-04T2300,1895A,105.4241,28.8573,泸州市,兰田宪桥,细颗粒物(PM2.5),107,101,89,80,76,55,,72,67,22,20,6,5,0.7,0.6
2024-03-04T2300,1896A,105.4379,28.8833,泸州市,市环监站,细颗粒物(PM2.5),105,105,96,79,72,41,,58,52,33,28,6,6,0.7,0.7
2024-03-04T2300,3490A,105.3617,28.7703,泸州市,纳溪区环保局,细颗粒物(PM2.5),92,94,85,68,75,63,,74,67,16,21,4,3,0.6,0.6
2024-03-04T2300,2183A,111.1406,37.5211,吕梁市,环保局,细颗粒物(PM2.5),99,89,86,74,52,24,,64,,42,41,3,5,0.8,0.7
2024-03-04T2300,2185A,111.1297,37.5136,吕梁市,自来水公司,细颗粒物(PM2.5),108,98,84,81,52,16,,67,28,44,36,9,8,1.0,0.8
2024-03-04T2300,2867A,111.1283,37.51,吕梁市,马茂庄小学,细颗粒物(PM2.5),107,105,97,80,55,14,,52,20,46,47,4,4,1.0,0.9
2024-03-04T2300,1812A,112.3931,34.6516,洛阳市,市委党校,细颗粒物(PM2.5),155,167,118,118,86,35,,56,53,54,44,14,9,1.1,0.9
2024-03-04T2300,1814A,112.4657,34.6871,洛阳市,豫西宾馆,细颗粒物(PM2.5),132,169,138,100,79,40,,59,53,42,35,9,9,0.7,0.5
2024-03-04T2300,1815A,112.494,34.6886,洛阳市,河南林校,细颗粒物(PM2.5),127,150,115,96,79,45,,62,55,38,35,8,7,0.7,0.6
2024-03-04T2300,1816A,112.3844,34.623,洛阳市,开发区管委会,细颗粒物(PM2.5),129,146,110,98,74,53,,66,63,36,36,8,7,1.0,0.8
2024-03-04T2300,1817A,112.4267,34.6258,洛阳市,市委新办公区,细颗粒物(PM2.5),132,149,115,100,78,45,,59,54,40,39,7,7,0.9,0.8
2024-03-04T2300,3340A,112.6005,34.6326,洛阳市,伊滨,细颗粒物(PM2.5),140,183,122,107,79,34,,70,62,47,35,7,7,0.8,0.7
2024-03-04T2300,3341A,112.4951,34.6332,洛阳市,中移产业园,细颗粒物(PM2.5),142,143,108,108,85,46,,63,56,46,45,9,9,1.1,1
2024-03-04T2300,3593A,112.5736,34.8993,洛阳市,吉利监测站,细颗粒物(PM2.5),153,203,137,117,92,7,,51,37,65,42,8,8,1.0,0.9
2024-03-04T2300,3635A,112.3677,34.662,洛阳市,河科大西苑校区,细颗粒物(PM2.5),137,169,120,104,78,42,,58,54,50,42,18,6,0.6,0.5
2024-03-04T2300,3636A,112.4388,34.6781,洛阳市,英才小学,细颗粒物(PM2.5),127,161,131,96,77,52,,55,52,31,36,7,6,0.8,0.8
2024-03-04T2300,2399A,114.051,33.5699,漯河市,三五一五工厂,细颗粒物(PM2.5),162,176,118,123,82,38,,65,49,27,24,10,10,0.7,0.7
2024-03-04T2300,2400A,114.0055,33.5698,漯河市,漯河大学,细颗粒物(PM2.5),149,159,108,114,78,42,,64,50,30,28,8,9,0.7,0.6
2024-03-04T2300,2401A,114.0138,33.5828,漯河市,市水利局,细颗粒物(PM2.5),149,168,111,114,77,42,,71,50,26,25,8,8,0.7,0.7
2024-03-04T2300,2402A,114.0261,33.5698,漯河市,市广电局,细颗粒物(PM2.5),142,168,110,108,73,40,,67,50,25,22,5,5,0.8,0.7
2024-03-04T2300,3478A,113.9749,33.5664,漯河市,市图书馆,细颗粒物(PM2.5),144,169,103,110,68,42,,73,51,28,27,12,12,0.8,0.7
2024-03-04T2300,3479A,114.0967,33.5906,漯河市,召陵区卫健委,细颗粒物(PM2.5),142,178,117,108,76,31,,60,44,31,27,5,6,0.8,0.7
2024-03-04T2300,1798A,118.5092,31.6837,马鞍山市,湖东路四小,,33,26,57,23,36,12,,77,28,51,35,4,5,0.9,0.8
2024-03-04T2300,1799A,118.5024,31.6449,马鞍山市,开发区,细颗粒物(PM2.5),54,,59,38,47,13,,68,24,41,36,4,5,0.9,0.8
2024-03-04T2300,1800A,118.5228,31.7231,马鞍山市,慈湖,细颗粒物(PM2.5),57,,52,40,51,0,,80,27,62,38,6,6,0.9,0.8
2024-03-04T2300,1802A,118.6245,31.7241,马鞍山市,濮塘,,27,27,51,13,29,31,,72,42,21,23,5,5,0.6,0.5
2024-03-04T2300,3633A,118.4918,31.6809,马鞍山市,雨山,,43,,54,30,38,9,,80,27,53,39,7,8,0.7,0.6
2024-03-04T2300,1686A,111.0286,21.4688,茂名市,电白南海,,36,36,37,14,13,62,,83,73,8,11,6,6,0.3,0.4
2024-03-04T2300,1687A,110.9294,21.6533,茂名市,茂石化七小,,,,35,,19,,,80,73,11,12,6,6,0.4,0.5
2024-03-04T2300,1688A,110.9107,21.6687,茂名市,健康路,,29,29,28,19,15,56,,78,68,9,11,8,8,0.3,0.4
2024-03-04T2300,1689A,110.8592,21.6828,茂名市,高岭,,31,31,37,17,20,47,,72,61,15,14,7,8,0.8,0.8
2024-03-04T2300,3450A,111.01,21.5165,茂名市,电白水东,,24,24,27,12,12,62,,75,68,6,12,4,6,0.4,0.5
2024-03-04T2300,2539A,104.0308,30.0478,眉山市,黑龙滩水库,细颗粒物(PM2.5),92,111,76,68,54,15,,80,61,43,24,5,6,0.8,0.6
2024-03-04T2300,2540A,103.8416,30.0874,眉山市,气象局,细颗粒物(PM2.5),122,102,107,92,81,31,,59,38,41,48,6,7,0.9,0.9
2024-03-04T2300,3137A,103.8578,30.0744,眉山市,市委党校,细颗粒物(PM2.5),122,107,104,92,79,37,,58,36,44,54,6,9,0.6,0.5
2024-03-04T2300,3148A,103.8291,30.0564,眉山市,区人社局,细颗粒物(PM2.5),122,118,94,92,82,39,,57,37,37,53,7,12,0.7,0.9
2024-03-04T2300,1690A,116.1231,24.3284,梅州市,梅江月梅,,40,32,30,28,26,83,,95,89,8,13,10,10,0.6,0.6
2024-03-04T2300,1691A,116.0797,24.2719,梅州市,梅县新城,细颗粒物(PM2.5),69,59,39,50,27,20,,98,70,61,28,6,6,1.2,0.9
2024-03-04T2300,1692A,116.1248,24.2654,梅州市,环境监控中心,,48,48,38,30,26,26,,95,68,57,29,6,5,0.7,0.7
2024-03-04T2300,3315A,116.1233,24.2991,梅州市,梅龙,,43,34,36,30,24,55,,86,74,25,28,7,7,0.7,0.7
2024-03-04T2300,1878A,104.7778,31.4741,绵阳市,富乐山,细颗粒物(PM2.5),67,58,66,48,55,7,,69,52,57,29,7,7,1.0,0.8
2024-03-04T2300,1879A,104.7563,31.4535,绵阳市,市人大,细颗粒物(PM2.5),85,86,84,63,57,4,,49,32,58,40,10,11,1.4,0.9
2024-03-04T2300,1880A,104.6697,31.4668,绵阳市,高新区自来水公司,颗粒物(PM10),82,114,87,59,60,3,,61,39,58,38,10,8,1.0,0.8
2024-03-04T2300,1881A,104.7287,31.5075,绵阳市,三水厂,细颗粒物(PM2.5),83,86,80,61,63,1,,54,35,61,39,8,7,1.2,1
2024-03-04T2300,3491A,104.69,31.5322,绵阳市,西科大附属小学,细颗粒物(PM2.5),78,80,72,57,54,4,,56,36,60,37,7,7,0.8,0.8
2024-03-04T2300,3492A,104.5648,31.5343,绵阳市,安州区旅游局,细颗粒物(PM2.5),98,99,78,73,55,5,,65,40,44,24,6,7,1.4,1.1
2024-03-04T2300,1784A,129.61,44.561,牡丹江市,环保大楼,,39,38,41,27,22,92,,94,87,10,14,8,9,0.4,0.4
2024-03-04T2300,1785A,129.6115,44.5782,牡丹江市,文化广场,,41,41,41,25,26,69,,80,72,23,17,8,9,0.5,0.5
2024-03-04T2300,1786A,129.5904,44.5963,牡丹江市,第一医院,,50,50,42,28,30,62,,84,77,22,18,10,10,0.6,0.6
2024-03-04T2300,1787A,129.6364,44.6075,牡丹江市,机车工厂,,50,50,50,34,30,60,,85,79,16,17,10,10,0.4,0.6
2024-03-04T2300,1788A,129.6386,44.5462,牡丹江市,第一中学,细颗粒物(PM2.5),54,39,36,38,25,87,,88,84,8,13,8,9,0.4,0.4
2024-03-04T2300,2531A,105.0703,29.61,内江市,市监测站,细颗粒物(PM2.5),98,96,74,73,66,44,,66,58,34,28,8,9,0.6,0.6
2024-03-04T2300,2532A,105.0717,29.5947,内江市,东兴区政府,细颗粒物(PM2.5),85,82,74,63,51,38,,70,60,41,28,10,10,0.8,0.7
2024-03-04T2300,2533A,105.0653,29.5817,内江市,内江二中,细颗粒物(PM2.5),92,78,74,68,59,39,,68,60,44,27,5,6,0.9,0.9
2024-03-04T2300,2534A,105.0406,29.5822,内江市,内江日报社,细颗粒物(PM2.5),85,90,67,63,55,48,,71,64,35,28,8,8,0.8,0.8
2024-03-04T2300,2628A,92.0657,31.4846,那曲市,那曲监测站,,48,48,40,18,14,68,,93,90,5,5,6,4,1.0,0.8
2024-03-04T2300,3128A,92.0506,31.4797,那曲市,那曲会议中心,,46,46,44,12,9,76,,97,95,7,5,6,6,0.3,0.4
2024-03-04T2300,1290A,115.8931,28.6843,南昌市,省外办,细颗粒物(PM2.5),52,37,54,36,39,6,,13,7,33,46,4,6,0.7,0.8
2024-03-04T2300,1291A,115.8886,28.7003,南昌市,省林业公司,,42,31,43,29,32,1,,9,5,41,50,4,6,0.9,1
2024-03-04T2300,1292A,115.8126,28.7442,南昌市,林科所,,35,27,39,24,28,18,,9,8,34,51,4,6,0.5,0.6
2024-03-04T2300,1294A,115.8518,28.687,南昌市,建工学校,细颗粒物(PM2.5),54,,47,38,32,13,,9,8,32,51,5,5,0.8,0.9
2024-03-04T2300,1295A,115.8921,28.6424,南昌市,象湖,,45,37,51,31,38,5,,8,3,33,52,5,6,0.6,0.8
2024-03-04T2300,1296A,115.7423,28.7996,南昌市,武术学校,,45,,13,31,16,1,,28,7,30,10,8,7,0.7,0.5
2024-03-04T2300,1298A,115.9314,28.6842,南昌市,省站,颗粒物(PM10),51,52,62,34,40,6,,17,7,28,46,6,8,0.8,0.8
2024-03-04T2300,3046A,115.9084,28.6062,南昌市,机电学校,,45,42,65,31,40,5,,10,6,36,50,8,9,1.1,1.3
2024-03-04T2300,3690A,115.9721,28.7031,南昌市,外国语学校,,43,35,46,30,32,10,,24,18,27,37,3,4,0.5,0.5
2024-03-04T2300,1905A,106.056,30.8064,南充市,西山风景区,细颗粒物(PM2.5),82,79,62,60,54,51,,59,59,14,15,5,5,0.8,0.7
2024-03-04T2300,1906A,106.0789,30.8023,南充市,南充市委,颗粒物(PM10),87,123,87,61,47,12,,43,37,45,30,5,6,0.8,0.7
2024-03-04T2300,1907A,106.1031,30.8217,南充市,南充炼油厂,细颗粒物(PM2.5),94,95,83,70,59,26,,45,42,35,31,5,6,0.5,0.5
2024-03-04T2300,1908A,106.1064,30.7856,南充市,高坪区监测站,细颗粒物(PM2.5),89,93,78,66,56,12,,46,40,51,33,5,5,0.8,0.6
2024-03-04T2300,1909A,106.0642,30.7636,南充市,嘉陵区环保局,细颗粒物(PM2.5),85,100,76,63,51,4,,42,34,57,35,10,6,0.8,0.8
2024-03-04T2300,1910A,106.1087,30.8388,南充市,市环境监测站,细颗粒物(PM2.5),92,88,81,68,57,11,,53,45,50,26,6,8,0.8,0.6
2024-03-04T2300,1151A,118.8086,32.1065,南京市,迈皋桥,,45,39,54,31,31,0,,73,11,53,32,5,4,0.7,0.6
2024-03-04T2300,1152A,118.7538,32.0551,南京市,草场门,细颗粒物(PM2.5),63,,52,45,43,2,,76,16,80,39,2,2,0.8,1
2024-03-04T2300,1153A,118.7794,32.0745,南京市,山西路,细颗粒物(PM2.5),58,,50,41,37,2,,74,21,83,38,4,4,0.7,0.5
2024-03-04T2300,1154A,118.7752,32.0023,南京市,中华门,,49,36,48,34,34,2,,78,16,78,35,7,8,1.2,0.8
2024-03-04T2300,1155A,118.8109,32.0309,南京市,瑞金路,,38,34,53,24,33,0,,73,24,75,33,6,6,0.6,0.5
2024-03-04T2300,1156A,118.7997,32.0754,南京市,玄武湖,,49,37,55,34,29,1,,78,14,65,34,7,7,0.7,0.5
2024-03-04T2300,1157A,118.6414,32.0931,南京市,浦口,,43,43,63,21,32,6,,52,13,54,38,3,4,0.6,0.5
2024-03-04T2300,1158A,118.7356,31.9996,南京市,奥体中心,细颗粒物(PM2.5),52,44,57,36,34,4,,78,25,80,37,6,6,0.8,0.6
2024-03-04T2300,1159A,118.9125,32.1028,南京市,仙林大学城,,45,44,49,31,31,0,,76,14,88,43,7,7,0.8,0.7
2024-03-04T2300,3422A,118.8436,31.9198,南京市,江宁彩虹桥,,42,32,58,29,31,6,,75,30,70,35,3,4,1.0,0.8
2024-03-04T2300,3423A,119.0138,31.6494,南京市,溧水永阳,,30,27,46,21,35,7,,78,23,49,30,4,4,0.7,0.6
2024-03-04T2300,3424A,118.879,31.3302,南京市,高淳老职中,,29,26,51,20,40,4,,65,24,51,31,5,6,0.9,0.8
2024-03-04T2300,3427A,118.8554,32.3578,南京市,六合雄州,,38,38,53,19,28,20,,58,30,32,35,4,6,0.8,0.7
2024-03-04T2300,1401A,108.3103,22.7881,南宁市,二十一中,,35,30,49,24,34,71,,86,85,22,26,3,3,0.6,0.9
2024-03-04T2300,1402A,108.3141,22.8528,南宁市,北湖,,46,45,60,32,37,27,,68,64,53,32,5,5,1.1,1.1
2024-03-04T2300,1403A,108.3206,22.8225,南宁市,市监测站,,29,23,54,20,31,60,,76,76,30,30,5,6,1.0,1.2
2024-03-04T2300,1404A,108.3829,22.8037,南宁市,大自然花园,,35,30,37,24,27,72,,85,84,18,18,4,4,0.8,1
2024-03-04T2300,1405A,108.4394,22.7904,南宁市,仙葫,,32,31,47,22,31,64,,83,81,16,20,6,7,1.0,1.2
2024-03-04T2300,1406A,108.2397,22.8467,南宁市,区农职院,,42,42,49,27,29,32,,78,67,48,34,6,6,0.8,0.8
2024-03-04T2300,1407A,108.3275,22.735,南宁市,英华嘉园,细颗粒物(PM2.5),57,61,52,40,30,10,,66,58,69,31,6,6,0.9,1
2024-03-04T2300,1408A,108.2257,22.7757,南宁市,沙井镇街道办,,49,49,55,22,28,40,,80,63,47,33,5,6,0.7,1
2024-03-04T2300,3401A,108.4834,22.7618,南宁市,红星社区,,33,32,41,23,28,75,,81,80,14,20,6,6,0.9,1
2024-03-04T2300,2332A,118.1681,26.6369,南平市,南平市监测站,,48,43,33,33,25,22,,61,42,23,19,5,5,0.6,0.7
2024-03-04T2300,2333A,118.1825,26.6489,南平市,南平铝业有限公司,细颗粒物(PM2.5),53,,32,37,21,18,,54,37,22,19,7,7,0.8,0.8
2024-03-04T2300,2334A,118.1756,26.6272,南平市,南平七中,,48,,29,33,24,22,,68,45,23,17,5,4,0.5,0.5
2024-03-04T2300,1168A,120.9098,31.9663,南通市,狼山街道,,25,,35,14,24,79,,88,66,16,31,8,9,0.6,0.6
2024-03-04T2300,1169A,120.86,32.0005,南通市,虹桥,,28,,39,19,28,67,,80,54,18,33,3,5,0.5,0.5
2024-03-04T2300,1170A,120.87,32.02,南通市,城中,,23,16,46,12,21,71,,79,55,17,32,3,5,0.4,0.4
2024-03-04T2300,1171A,120.94,31.93,南通市,星湖花园,,20,9,33,9,18,64,,74,53,22,36,5,6,0.3,0.4
2024-03-04T2300,1172A,120.81,32.0417,南通市,紫琅学院,,22,9,35,8,20,70,,78,53,19,35,6,8,0.5,0.5
2024-03-04T2300,3291A,121.067,32.062,南通市,通州监测站,,26,9,36,7,22,82,,94,77,8,18,8,8,0.5,0.6
2024-03-04T2300,3432A,120.9348,31.9883,南通市,环境教育馆,,23,17,38,10,24,72,,81,57,18,33,7,8,0.4,0.5
2024-03-04T2300,2404A,112.5224,33.0122,南阳市,瓦房庄,细颗粒物(PM2.5),135,140,78,103,56,55,,68,66,30,28,6,6,0.7,0.6
2024-03-04T2300,2405A,112.5003,32.9735,南阳市,汉画馆,细颗粒物(PM2.5),128,137,80,97,52,53,,67,66,30,28,7,7,0.6,0.5
2024-03-04T2300,2406A,112.5573,33.027,南阳市,气象站,细颗粒物(PM2.5),134,137,74,102,52,49,,66,64,37,33,6,6,0.7,0.5
2024-03-04T2300,2407A,112.5481,32.9689,南阳市,理工学院,细颗粒物(PM2.5),118,142,74,89,51,53,,66,64,34,32,8,8,0.6,0.6
2024-03-04T2300,4008A,112.5234,32.9922,南阳市,卧龙区政府,细颗粒物(PM2.5),130,143,75,99,51,54,,62,62,30,32,8,8,0.9,0.8
2024-03-04T2300,1234A,121.8358,29.911,宁波市,区环保大楼,,45,45,33,24,16,1,,102,32,73,27,10,6,0.7,0.7
2024-03-04T2300,1235A,121.56,29.82,宁波市,万里学院,,33,26,36,23,22,40,,91,54,29,23,8,8,0.7,0.6
2024-03-04T2300,1236A,121.713,29.9572,宁波市,龙赛医院,,45,45,35,21,18,3,,100,40,70,28,9,5,0.7,0.5
2024-03-04T2300,1239A,121.633,29.7733,宁波市,钱湖水厂,,29,,26,20,17,52,,99,61,10,9,6,6,0.6,0.6
2024-03-04T2300,1240A,121.5856,29.8635,宁波市,太古小学,,42,35,32,29,20,25,,97,44,53,28,8,7,0.7,0.6
2024-03-04T2300,1241A,121.524,29.8674,宁波市,市环境监测中心,,48,48,32,25,15,3,,99,44,63,29,6,6,1.1,0.7
2024-03-04T2300,2871A,121.6147,29.9017,宁波市,万里国际学校,细颗粒物(PM2.5),52,40,36,36,18,2,,106,46,79,22,13,7,0.8,0.5
2024-03-04T2300,3710A,121.5594,29.8975,宁波市,白沙活动中心,颗粒物(PM10),54,57,34,22,17,1,,98,40,61,23,8,7,0.8,0.5
2024-03-04T2300,2341A,119.5388,26.6612,宁德市,宁德市监测站,细颗粒物(PM2.5),75,,40,55,35,1,,55,17,56,30,7,6,0.8,0.5
2024-03-04T2300,3209A,119.5231,26.6562,宁德市,宁德一中,细颗粒物(PM2.5),57,43,41,40,28,6,,67,23,29,19,5,6,1.1,0.8
2024-03-04T2300,2618A,98.8601,25.8567,怒江傈僳族自治州,州监测站,,,,36,34,24,41,,94,73,34,19,9,8,0.8,0.6
2024-03-04T2300,2619A,98.8546,25.8417,怒江傈僳族自治州,泸水一中,细颗粒物(PM2.5),53,43,43,37,26,40,,84,61,28,21,6,6,0.8,0.6
2024-03-04T2300,1888A,101.6891,26.571,攀枝花市,弄弄坪,颗粒物(PM10),52,54,58,23,27,71,,89,82,33,28,44,29,2.4,1.6
2024-03-04T2300,1889A,101.5769,26.5928,攀枝花市,河门口,,42,42,50,18,24,89,,100,98,10,15,7,13,0.4,0.6
2024-03-04T2300,1890A,101.7169,26.585,攀枝花市,炳草岗,,30,29,46,15,18,94,,102,101,9,19,19,19,1.0,0.9
2024-03-04T2300,1891A,101.7369,26.5008,攀枝花市,仁和,,32,24,25,16,18,100,,107,105,7,7,6,6,0.6,0.5
2024-03-04T2300,2835A,101.7227,26.567,攀枝花市,四十中小,,33,33,34,20,18,97,,107,104,12,17,10,12,0.9,0.8
2024-03-04T2300,1604A,122.0303,41.1489,盘锦市,开发区,细颗粒物(PM2.5),84,82,63,62,43,56,,96,69,39,47,12,18,0.9,0.9
2024-03-04T2300,1605A,122.0485,41.0883,盘锦市,兴隆台,细颗粒物(PM2.5),85,76,64,63,44,62,,90,67,35,50,15,23,1.0,1
2024-03-04T2300,1606A,121.8297,41.1028,盘锦市,新生街道,细颗粒物(PM2.5),88,,53,65,37,27,,93,53,53,45,12,16,0.9,0.8
2024-03-04T2300,1832A,113.3257,33.742,平顶山市,新华旅馆,细颗粒物(PM2.5),118,162,127,89,66,54,,58,56,28,28,10,9,0.9,0.7
2024-03-04T2300,1833A,113.2919,33.737,平顶山市,规划设计院,细颗粒物(PM2.5),134,158,107,102,72,49,,60,56,40,30,10,7,1.0,0.8
2024-03-04T2300,1834A,113.182,33.774,平顶山市,平顶山工学院,细颗粒物(PM2.5),125,171,109,95,64,44,,63,52,29,23,6,7,0.8,0.6
2024-03-04T2300,3204A,113.3025,33.73,平顶山市,规划局,细颗粒物(PM2.5),135,163,120,103,72,58,,68,61,31,27,10,9,0.5,0.3
2024-03-04T2300,3594A,112.8867,33.9116,平顶山市,石龙区,细颗粒物(PM2.5),119,151,104,90,66,60,,69,57,38,30,9,8,0.8,0.6
2024-03-04T2300,2656A,106.6692,35.5461,平凉市,聚贤嘉苑,颗粒物(PM10),125,200,87,44,43,93,,91,66,13,21,8,8,0.5,0.7
2024-03-04T2300,2657A,106.7021,35.5307,平凉市,博物馆,颗粒物(PM10),118,186,96,52,54,73,,95,60,35,37,11,10,0.6,0.8
2024-03-04T2300,2347A,114.0997,27.5002,萍乡市,武功山,颗粒物(PM10),53,56,37,33,21,18,,38,30,27,14,11,9,0.9,0.7
2024-03-04T2300,2348A,113.8385,27.6434,萍乡市,中医院,细颗粒物(PM2.5),59,53,44,42,29,1,,30,16,38,20,14,14,1.1,0.8
2024-03-04T2300,2349A,113.8493,27.6253,萍乡市,市政府车库,颗粒物(PM10),58,65,48,39,32,5,,32,18,39,24,11,12,1.4,1.5
2024-03-04T2300,2350A,113.8676,27.6435,萍乡市,市环保局,细颗粒物(PM2.5),53,47,41,37,31,8,,32,21,37,22,17,15,1.2,0.8
2024-03-04T2300,2351A,113.866,27.6198,萍乡市,安源区政府,细颗粒物(PM2.5),53,47,44,37,29,7,,32,23,36,25,10,13,1.0,0.8
2024-03-04T2300,2319A,119.0141,25.4325,莆田市,荔城区仓后路,细颗粒物(PM2.5),84,89,55,62,41,32,,98,72,44,23,6,5,0.9,0.8
2024-03-04T2300,2320A,119.0015,25.4553,莆田市,莆田市监测站,细颗粒物(PM2.5),63,65,46,45,31,36,,102,75,40,20,6,6,0.6,0.5
2024-03-04T2300,2321A,119.1119,25.4561,莆田市,涵江区六中,颗粒物(PM10),58,66,47,37,28,14,,93,62,74,26,5,5,0.8,0.7
2024-03-04T2300,2322A,119.1013,25.3215,莆田市,秀屿区政府,细颗粒物(PM2.5),57,60,49,40,37,80,,103,91,19,26,7,8,0.9,0.9
2024-03-04T2300,2392A,115.0312,35.7636,濮阳市,环保局,细颗粒物(PM2.5),103,102,109,77,80,28,,48,37,35,31,7,7,0.7,0.7
2024-03-04T2300,2394A,115.0574,35.7609,濮阳市,油田运输公司,细颗粒物(PM2.5),103,126,134,77,83,29,,44,38,29,28,10,10,0.7,0.6
2024-03-04T2300,2395A,115.0866,35.7754,濮阳市,油田物探公司,细颗粒物(PM2.5),103,125,132,77,84,26,,48,34,37,33,8,8,0.7,0.6
2024-03-04T2300,3021A,115,35.7668,濮阳市,濮水河管理处,细颗粒物(PM2.5),104,108,118,78,82,30,,43,38,30,30,8,8,0.7,0.6
2024-03-04T2300,2601A,100.98,22.7633,普洱市,市环保局,细颗粒物(PM2.5),52,46,61,36,42,92,,110,101,10,12,6,6,0.6,0.7
2024-03-04T2300,2602A,100.9817,22.8322,普洱市,普洱第二中学,,40,36,50,28,32,97,,111,103,9,24,5,5,0.7,0.8
2024-03-04T2300,2262A,131.0518,45.8751,七台河市,新一中,,37,37,34,25,21,100,,105,100,10,9,11,10,0.7,0.6
2024-03-04T2300,3345A,131.0577,45.7879,七台河市,中波台,,37,37,42,22,24,81,,93,84,27,25,10,10,0.9,0.9
2024-03-04T2300,3637A,131.0176,45.7761,七台河市,人民广场,,45,45,52,28,30,77,,89,79,27,24,10,11,0.7,0.7
2024-03-04T2300,3684A,130.8781,45.8222,七台河市,新建矿广场,细颗粒物(PM2.5),53,,36,37,31,90,,103,92,17,19,10,8,0.7,0.6
2024-03-04T2300,1779A,123.9305,47.3636,齐齐哈尔市,安居小区,,29,29,28,18,16,62,,82,66,16,12,9,9,0.6,0.6
2024-03-04T2300,1780A,123.9488,47.3386,齐齐哈尔市,中心广场,,30,30,26,9,14,60,,72,65,13,10,7,6,0.5,0.5
2024-03-04T2300,1781A,123.9483,47.3227,齐齐哈尔市,农牧车辆厂,,29,29,27,19,12,55,,75,61,17,10,10,9,0.5,0.4
2024-03-04T2300,1783A,123.945,47.2988,齐齐哈尔市,市环境监测站,,44,44,29,25,16,53,,78,66,21,9,9,5,0.5,0.4
2024-03-04T2300,3662A,123.6333,47.2075,齐齐哈尔市,富区青少年活动中心,,,92,41,,12,36,,77,60,36,15,49,16,0.6,0.5
2024-03-04T2300,2591A,107.9783,26.5747,黔东南苗族侗族自治州,市环境监测站,,42,35,31,29,24,42,,74,64,16,21,7,6,0.9,0.9
2024-03-04T2300,2881A,107.8908,26.5311,黔东南苗族侗族自治州,凯里学院,,32,29,21,22,16,50,,83,73,10,11,4,4,0.7,0.8
2024-03-04T2300,2593A,107.5228,26.2403,黔南布依族苗族自治州,小围寨,,36,36,14,24,11,36,,57,51,16,12,6,4,0.6,0.6
2024-03-04T2300,3538A,107.5175,26.2978,黔南布依族苗族自治州,沙坝,,49,36,14,34,11,31,,59,51,18,12,7,5,0.7,0.7
2024-03-04T2300,2589A,104.9022,25.0925,黔西南布依族苗族自治州,场坝街,,32,32,26,18,16,93,,109,100,7,8,2,2,0.2,0.3
2024-03-04T2300,2590A,104.8811,25.0992,黔西南布依族苗族自治州,坪东大道,,32,32,28,22,18,91,,109,101,6,8,2,2,0.2,0.3
2024-03-04T2300,2502A,108.6236,21.9667,钦州市,市环保站,,31,31,32,14,19,59,,60,59,18,30,7,9,0.7,1
2024-03-04T2300,2503A,108.6549,21.9481,钦州市,沙埠小学,,38,38,38,22,26,48,,65,57,28,30,8,6,0.9,0.8
2024-03-04T2300,2504A,108.5989,21.7431,钦州市,港区一小,,46,46,51,21,22,42,,63,51,19,21,7,7,0.7,0.9
2024-03-04T2300,3404A,108.5959,21.9633,钦州市,北职校,,31,31,33,17,21,52,,59,58,18,32,8,10,0.8,1.1
2024-03-04T2300,1042A,119.5134,39.8207,秦皇岛市,北戴河环保局,颗粒物(PM10),78,106,57,45,27,65,,99,93,48,35,11,10,0.5,0.3
2024-03-04T2300,1043A,119.7493,40.0116,秦皇岛市,第一关,细颗粒物(PM2.5),160,141,69,122,43,10,,90,46,94,54,23,13,0.9,0.6
2024-03-04T2300,1044A,119.5897,39.9499,秦皇岛市,监测站,细颗粒物(PM2.5),125,138,61,95,37,15,,88,64,87,41,14,10,0.9,0.5
2024-03-04T2300,1046A,119.5251,39.9041,秦皇岛市,建设大厦,颗粒物(PM10),71,92,60,51,36,60,,92,83,50,38,7,6,0.7,0.6
2024-03-04T2300,3132A,119.610547,39.943889,秦皇岛市,文明里,细颗粒物(PM2.5),100,142,70,75,33,11,,80,62,102,43,20,9,0.9,0.6
2024-03-04T2300,1307A,120.6659,36.2403,青岛市,仰口,细颗粒物(PM2.5),92,90,96,68,69,87,,107,100,20,21,3,3,0.5,0.5
2024-03-04T2300,1310A,120.4134,36.0658,青岛市,市南区东部子站,"颗粒物(PM10),细颗粒物(PM2.5)",58,66,72,41,41,98,,104,102,24,25,6,6,0.8,0.9
2024-03-04T2300,1311A,120.3664,36.1032,青岛市,四方区子站,颗粒物(PM10),51,51,68,31,46,103,,112,110,23,26,4,4,0.7,0.7
2024-03-04T2300,1312A,120.2994,36.054,青岛市,市南区西部子站,,46,46,64,32,39,107,,111,110,16,21,6,6,0.7,0.8
2024-03-04T2300,1313A,120.4581,36.0858,青岛市,崂山区子站,颗粒物(PM10),59,68,76,31,41,109,,113,112,16,20,6,6,0.6,0.6
2024-03-04T2300,1314A,120.1983,35.9608,青岛市,黄岛区子站,颗粒物(PM10),56,61,68,37,44,97,,101,98,28,30,5,6,0.8,0.9
2024-03-04T2300,1315A,120.3999,36.3083,青岛市,城阳区子站,颗粒物(PM10),63,75,94,44,46,85,,105,93,20,26,7,8,0.8,0.9
2024-03-04T2300,1966A,120.0405,35.8735,青岛市,黄岛区4号,颗粒物(PM10),53,56,59,31,36,103,,112,102,25,27,6,6,0.9,0.9
2024-03-04T2300,3362A,120.5014,36.4034,青岛市,即墨2号,细颗粒物(PM2.5),82,88,100,60,67,95,,108,104,19,22,4,5,0.8,0.8
2024-03-04T2300,3642A,120.3503,36.0736,青岛市,市北区南部,颗粒物(PM10),62,73,84,31,41,110,,112,111,18,21,3,4,0.7,0.8
2024-03-04T2300,3643A,120.3948,36.1805,青岛市,李沧区北部,细颗粒物(PM2.5),58,63,71,41,48,94,,115,111,30,31,7,8,0.8,0.8
2024-03-04T2300,1702A,113.0426,23.691,清远市,环保大楼,,42,41,28,29,24,1,,8,1,61,37,3,3,1.4,1.4
2024-03-04T2300,1703A,113.0208,23.7106,清远市,凤城街办,,48,43,35,33,29,0,,2,1,65,46,4,4,1.4,1.2
2024-03-04T2300,3025A,113.0477,23.6344,清远市,技师学院,,44,44,29,29,20,3,,5,3,67,42,6,5,1.0,0.8
2024-03-04T2300,3318A,112.9903,23.7403,清远市,清新太和,,48,48,27,31,20,25,,19,18,41,44,7,7,0.6,0.8
2024-03-04T2300,3455A,113.076,23.7198,清远市,清城东城,细颗粒物(PM2.5),52,43,26,36,21,0,,4,0,56,39,4,4,1.5,1.1
2024-03-04T2300,2661A,107.6325,35.7357,庆阳市,庆阳五中,细颗粒物(PM2.5),113,110,88,85,64,62,,66,61,21,22,6,9,0.9,0.8
2024-03-04T2300,2662A,107.6364,35.7067,庆阳市,市环保局,细颗粒物(PM2.5),104,105,75,78,61,60,,76,62,25,22,9,13,0.9,0.7
2024-03-04T2300,1916A,103.7897,25.5035,曲靖市,环境监测站,,35,35,34,20,15,93,,105,100,8,7,4,5,0.4,0.4
2024-03-04T2300,1917A,103.8,25.5364,曲靖市,烟厂办公区,,39,39,37,18,15,89,,103,99,11,7,4,4,0.3,0.3
2024-03-04T2300,3376A,103.7947,25.462,曲靖市,南苑二区,,40,40,34,17,16,92,,98,97,7,7,4,5,0.4,0.5
2024-03-04T2300,3377A,103.7444,25.5261,曲靖市,曲靖师范学院,,41,41,35,22,20,90,,101,98,8,7,4,12,0.5,0.6
2024-03-04T2300,1264A,118.8692,28.9398,衢州市,环保大楼,细颗粒物(PM2.5),59,54,52,42,35,2,,49,5,54,44,7,6,1.0,0.7
2024-03-04T2300,1265A,118.8709,28.9666,衢州市,实验学校,细颗粒物(PM2.5),59,52,44,42,33,8,,56,16,43,35,2,5,0.7,0.5
2024-03-04T2300,1266A,118.8621,28.9808,衢州市,衢州学院,,49,42,43,34,31,2,,51,8,44,38,4,5,0.8,0.6
2024-03-04T2300,1611A,118.5819,24.9117,泉州市,涂山街,颗粒物(PM10),68,85,59,45,33,11,,106,66,87,35,4,3,0.8,0.6
2024-03-04T2300,1612A,118.5972,24.8978,泉州市,津头埔,细颗粒物(PM2.5),79,95,52,58,34,12,,95,60,78,37,5,5,1.1,0.8
2024-03-04T2300,1613A,118.6663,24.9424,泉州市,万安,"颗粒物(PM10),细颗粒物(PM2.5)",62,73,47,44,29,32,,95,74,45,28,3,3,0.8,0.7
2024-03-04T2300,3529A,118.6333,24.9264,泉州市,城华南路,细颗粒物(PM2.5),63,73,54,45,31,17,,92,63,71,39,4,4,0.7,0.6
2024-03-04T2300,2626A,88.8876,29.2718,日喀则市,日喀则监测站,,33,33,32,9,7,87,,94,92,6,7,4,4,0.4,0.4
2024-03-04T2300,3726A,88.8781,29.2426,日喀则市,林业技术推广中心,,28,11,29,6,10,88,,91,91,3,4,7,7,0.4,0.4
2024-03-04T2300,1659A,119.471,35.4209,日照市,监测站,,34,34,68,23,40,98,,102,102,22,44,8,9,0.5,0.7
2024-03-04T2300,1660A,119.523,35.4216,日照市,市政府广场,,41,41,67,23,33,98,,109,102,14,27,6,7,0.7,0.7
2024-03-04T2300,1661A,119.5587,35.4044,日照市,港务局,颗粒物(PM10),51,51,70,19,31,106,,116,111,19,29,5,7,0.5,0.5
2024-03-04T2300,3507A,119.5328,35.4625,日照市,职业技术学院,,34,34,63,22,32,91,,104,96,20,27,6,7,0.6,0.6
2024-03-04T2300,3604A,119.3266,35.1044,日照市,岚山环保分局,,32,14,67,10,35,101,,105,105,14,27,4,7,0.6,0.6
2024-03-04T2300,1835A,111.1922,34.7752,三门峡市,市政府,细颗粒物(PM2.5),122,118,77,92,69,63,,70,60,29,24,12,10,1.1,0.9
2024-03-04T2300,1836A,111.1587,34.7942,三门峡市,开发区,细颗粒物(PM2.5),129,144,103,98,73,49,,69,57,40,26,9,7,1.2,0.9
2024-03-04T2300,3039A,111.1911,34.7829,三门峡市,三门峡市第一小学,细颗粒物(PM2.5),122,111,74,92,69,64,,71,63,31,25,10,7,1.0,0.8
2024-03-04T2300,3598A,111.1,34.7167,三门峡市,富达温泉假日酒店,细颗粒物(PM2.5),119,126,95,90,73,62,,63,57,37,31,10,8,1.1,1
