timepoint,stationcode,longitude,latitude,area,positionname,primarypollutant,aqi,pm10,pm10_24h,pm2_5,pm2_5_24h,o3,o3_24h,o3_8h,o3_8h_24h,no2,no2_24h,so2,so2_24h,co,co_24h
2024-11-04T2200,2568A,102.2502,31.8896,阿坝藏族羌族自治州,马师校,,,,15,22,12,,,70,,12,8,4,4,0.3,0.3
2024-11-04T2200,3994A,102.2165,31.9024,阿坝藏族羌族自治州,马尔康中学西区,,23,23,17,12,15,33,,68,54,9,7,6,6,0.4,0.4
2024-11-04T2200,2695A,80.292,41.1694,阿克苏地区,电视台,颗粒物(PM10),191,332,139,108,46,7,,101,86,103,44,13,7,3.8,1.4
2024-11-04T2200,2696A,80.2613,41.1551,阿克苏地区,艺术中心,颗粒物(PM10),92,134,112,41,33,6,,102,87,102,45,4,4,1.7,1
2024-11-04T2200,2204A,105.6467,38.8363,阿拉善盟,西城区西花园,颗粒物(PM10),52,53,42,29,20,68,,100,90,35,17,9,9,1.0,0.7
2024-11-04T2200,2205A,105.6985,38.8411,阿拉善盟,蒙二幼,,36,36,37,18,10,79,,98,91,15,13,7,8,0.6,0.5
2024-11-04T2200,2206A,105.724,38.8516,阿拉善盟,环保局新楼,,33,33,28,10,8,100,,97,97,8,8,9,8,0.5,0.5
2024-11-04T2200,2708A,88.1264,47.8517,阿勒泰地区,市站,颗粒物(PM10),57,64,19,12,7,35,,59,47,24,16,8,7,0.4,0.3
2024-11-04T2200,2630A,80.1161,32.5,阿里地区,阿里监测站,,22,10,14,8,6,70,,90,88,13,12,10,8,0.5,0.5
2024-11-04T2200,3192A,80.0903,32.5028,阿里地区,阿里藏医院,,28,13,14,10,7,88,,99,99,9,12,7,9,0.4,0.5
2024-11-04T2200,2642A,109.0318,32.6537,安康市,香溪洞,,40,40,31,24,20,5,,15,14,26,17,9,8,0.6,0.5
2024-11-04T2200,2644A,109.0072,32.6975,安康市,汉滨区检察院,,39,39,47,21,29,4,,16,13,21,21,6,8,0.5,0.7
2024-11-04T2200,4054A,109.0325,32.6913,安康市,市邮政管理局,,39,39,48,19,26,2,,13,10,21,21,6,8,0.8,0.8
2024-11-04T2200,2291A,117.0809,30.5177,安庆市,环科院,颗粒物(PM10),51,52,63,34,44,105,,168,153,19,27,10,11,0.7,0.8
2024-11-04T2200,2292A,117.0331,30.5119,安庆市,马山宾馆,颗粒物(PM10),51,52,61,31,43,103,,172,154,21,28,9,9,0.6,0.8
2024-11-04T2200,2294A,116.9896,30.6145,安庆市,安庆大学,,41,41,61,19,41,85,,167,148,21,21,9,10,0.5,0.6
2024-11-04T2200,3173A,117.0598,30.5351,安庆市,市人大,颗粒物(PM10),52,54,62,35,47,94,,163,146,27,37,13,13,0.5,0.7
2024-11-04T2200,3122A,105.9606,26.2611,安顺市,伍家关,,18,16,38,6,35,55,,64,58,9,9,8,7,0.7,0.7
2024-11-04T2200,3123A,105.9408,26.2431,安顺市,凤凰山,,21,15,44,6,36,66,,76,67,7,8,9,10,0.5,0.6
2024-11-04T2200,3124A,105.9439,26.2564,安顺市,金钟山,,20,7,41,6,36,64,,75,67,7,8,9,10,0.6,0.6
2024-11-04T2200,3125A,105.8983,26.2481,安顺市,娄家坡,,21,12,44,8,38,66,,74,65,8,10,10,12,0.6,0.6
2024-11-04T2200,1818A,114.4839,36.0621,安阳市,棉研所,,49,49,61,20,51,25,,64,47,42,35,6,6,0.3,0.5
2024-11-04T2200,1819A,114.3551,36.1017,安阳市,红庙街,,46,46,55,17,29,17,,57,43,38,20,1,3,0.4,0.4
2024-11-04T2200,1820A,114.361,36.0681,安阳市,银杏小区,颗粒物(PM10),55,59,55,15,29,6,,61,37,45,21,3,3,0.6,0.6
2024-11-04T2200,3141A,114.3922,36.0878,安阳市,信访局,,36,36,54,13,31,22,,56,44,28,16,2,4,0.4,0.5
2024-11-04T2200,3669A,114.4705,36.0637,安阳市,左辅环卫站,,50,50,74,17,31,32,,60,48,27,21,1,2,0.5,0.5
2024-11-04T2200,3703A,114.2917,36.0949,安阳市,安钢职工学校,颗粒物(PM10),70,90,60,30,29,4,,55,39,46,24,2,5,0.4,0.6
2024-11-04T2200,1748A,123.044,41.1196,鞍山市,深沟寺,,27,27,28,18,18,23,,54,40,31,20,7,6,1.0,0.7
2024-11-04T2200,1749A,123.011,41.0931,鞍山市,太阳城,,22,22,31,15,19,33,,60,52,28,24,13,13,0.9,0.9
2024-11-04T2200,1750A,123.0485,41.1442,鞍山市,太平,颗粒物(PM10),51,51,34,31,19,22,,53,40,36,22,18,14,1.0,0.7
2024-11-04T2200,1751A,122.9642,41.0971,鞍山市,铁西三道街,,44,44,32,22,16,11,,45,37,51,28,21,13,1.1,0.8
2024-11-04T2200,1752A,122.9341,41.0833,鞍山市,铁西工业园区,细颗粒物(PM2.5),82,90,39,60,22,9,,46,25,53,31,12,10,1.7,0.8
2024-11-04T2200,1753A,123.022,41.0821,鞍山市,明达新区,,22,22,31,13,18,31,,56,48,23,18,14,13,0.8,0.8
2024-11-04T2200,2195A,107.4212,40.761,巴彦淖尔市,附二中,细颗粒物(PM2.5),75,89,54,55,24,10,,52,43,57,23,13,10,0.9,0.5
2024-11-04T2200,2196A,107.37,40.7372,巴彦淖尔市,市环保大楼,颗粒物(PM10),58,66,43,28,19,16,,52,45,50,23,8,6,0.9,0.7
2024-11-04T2200,1956A,86.1472,41.7538,巴音郭楞蒙古自治州,孔雀公园,颗粒物(PM10),97,144,117,39,33,2,,81,67,87,53,4,5,1.2,0.7
2024-11-04T2200,1957A,86.1972,41.7166,巴音郭楞蒙古自治州,棉纺厂,颗粒物(PM10),94,138,141,25,31,28,,82,69,49,37,2,2,0.4,0.5
2024-11-04T2200,1958A,86.2357,41.7173,巴音郭楞蒙古自治州,经济开发区,颗粒物(PM10),106,162,133,29,30,17,,82,66,50,26,2,2,0.6,0.3
2024-11-04T2200,2914A,106.7677,31.8794,巴中市,苏山坪,,21,20,23,13,16,65,,63,63,9,13,5,4,0.3,0.4
2024-11-04T2200,3182A,106.7656,31.8545,巴中市,丽阳花园,颗粒物(PM10),51,51,45,34,31,6,,41,32,35,29,3,4,0.6,0.7
2024-11-04T2200,3183A,106.7418,31.8654,巴中市,圣泉水务公司,,43,43,33,28,23,3,,48,34,41,26,5,4,0.6,0.6
2024-11-04T2200,3616A,106.7616,31.8344,巴中市,市中心医院,,40,40,42,26,29,2,,46,34,34,24,3,4,0.7,0.7
2024-11-04T2200,2235A,122.7911,45.6077,白城市,洮北区环保局,,15,7,16,7,12,46,,55,48,7,12,6,6,0.2,0.4
2024-11-04T2200,2236A,122.8738,45.5725,白城市,市环保局,,18,12,12,10,9,55,,63,53,6,9,4,3,0.3,0.3
2024-11-04T2200,2231A,126.4219,41.9171,白山市,喜丰,,30,30,23,14,11,26,,61,44,17,12,8,8,0.6,0.6
2024-11-04T2200,2232A,126.4077,41.9419,白山市,环保局,,49,49,36,24,15,25,,58,41,17,11,6,5,0.7,0.6
2024-11-04T2200,2647A,104.1724,36.5446,白银市,第三小学,颗粒物(PM10),55,60,81,20,28,44,,92,85,51,29,31,21,0.7,0.8
2024-11-04T2200,2648A,104.1465,36.5482,白银市,动力公司,,39,39,68,13,27,83,,90,88,12,20,3,11,0.6,0.9
2024-11-04T2200,2512A,106.6103,23.9011,百色市,市监测站,颗粒物(PM10),55,60,42,34,28,37,,94,79,27,15,9,9,0.8,0.7
2024-11-04T2200,2513A,106.6538,23.8859,百色市,市中心血站,颗粒物(PM10),76,102,61,53,38,26,,102,79,43,24,9,9,1.0,0.7
2024-11-04T2200,3406A,106.6085,23.8798,百色市,祈福高中,颗粒物(PM10),70,89,62,47,33,7,,93,64,49,24,5,5,0.9,0.7
2024-11-04T2200,2270A,117.396,32.939,蚌埠市,工人疗养院,颗粒物(PM10),74,97,117,43,72,53,,78,70,30,41,8,6,0.4,0.7
2024-11-04T2200,2271A,117.3605,32.9427,蚌埠市,百货大楼,颗粒物(PM10),70,89,117,43,66,55,,76,70,32,53,6,6,0.4,0.8
2024-11-04T2200,2273A,117.4185,32.8911,蚌埠市,蚌埠学院,颗粒物(PM10),69,88,89,45,59,55,,81,71,31,35,7,7,0.3,0.4
2024-11-04T2200,2274A,117.3533,32.9673,蚌埠市,淮上区政府,颗粒物(PM10),78,105,115,55,74,49,,78,68,37,50,9,9,0.4,0.6
2024-11-04T2200,2275A,117.3145,32.8977,蚌埠市,高新区,颗粒物(PM10),63,75,92,40,64,62,,79,74,28,43,7,9,0.3,0.5
2024-11-04T2200,3715A,117.3092,32.9314,蚌埠市,蚌埠田家炳中学,颗粒物(PM10),75,100,119,44,70,50,,79,71,37,54,7,14,0.3,0.5
2024-11-04T2200,1585A,109.8756,40.6532,包头市,市环境监测站,,41,41,16,12,7,10,,60,34,54,28,17,13,0.6,0.5
2024-11-04T2200,1587A,109.9991,40.5842,包头市,包头八中,颗粒物(PM10),51,51,23,18,6,24,,57,33,39,26,35,17,0.6,0.6
2024-11-04T2200,1588A,109.8538,40.6821,包头市,青山宾馆,细颗粒物(PM2.5),62,,17,44,18,7,,55,29,60,33,16,14,0.6,0.5
2024-11-04T2200,1589A,109.8642,40.6288,包头市,惠龙物流,,48,48,16,23,8,14,,60,35,51,28,16,12,0.4,0.4
2024-11-04T2200,1590A,110.0377,40.5546,包头市,东河鸿龙湾,,26,26,16,13,4,16,,57,36,40,21,10,11,0.5,0.4
2024-11-04T2200,3283A,109.9154,40.5685,包头市,滨河大厦,,33,33,14,19,6,20,,61,40,42,24,18,13,0.6,0.5
2024-11-04T2200,3419A,109.9447,40.6261,包头市,包头市委党校,颗粒物(PM10),52,54,22,20,8,15,,59,32,52,28,44,18,0.9,0.6
2024-11-04T2200,3683A,109.8331,40.6576,包头市,昆区政府,颗粒物(PM10),52,54,18,16,6,14,,55,33,51,27,17,13,0.6,0.6
2024-11-04T2200,1930A,107.185,34.3063,宝鸡市,庙沟村,细颗粒物(PM2.5),74,96,54,54,27,34,,67,61,42,21,8,9,0.7,0.6
2024-11-04T2200,1931A,107.0708,34.3017,宝鸡市,竹园沟,细颗粒物(PM2.5),94,84,54,70,37,33,,74,61,18,22,6,7,0.6,0.5
2024-11-04T2200,1932A,107.1906,34.3672,宝鸡市,三陆医院,细颗粒物(PM2.5),127,98,65,96,49,10,,68,58,62,37,9,8,0.8,0.7
2024-11-04T2200,1933A,107.1431,34.3547,宝鸡市,监测站,细颗粒物(PM2.5),110,90,64,83,46,15,,75,57,37,30,7,8,0.7,0.6
2024-11-04T2200,1934A,107.1186,34.3739,宝鸡市,技工学校,细颗粒物(PM2.5),108,91,60,81,41,36,,75,65,35,31,8,8,0.8,0.7
2024-11-04T2200,1935A,107.3906,34.3528,宝鸡市,陈仓区环保局家属楼,细颗粒物(PM2.5),102,97,71,76,50,21,,64,53,42,37,10,18,0.6,0.7
2024-11-04T2200,1936A,107.2058,34.3497,宝鸡市,文理学院,细颗粒物(PM2.5),97,101,62,72,37,13,,70,58,49,30,9,10,0.6,0.5
2024-11-04T2200,1937A,107.2386,34.3622,宝鸡市,三迪小学,细颗粒物(PM2.5),113,114,66,85,44,7,,67,54,74,44,9,10,0.9,0.7
2024-11-04T2200,1051A,115.493,38.8632,保定市,游泳馆,,,,30,31,5,10,,59,42,61,24,3,3,0.9,0.6
2024-11-04T2200,1052A,115.5213,38.8959,保定市,华电二区,,,40,29,25,16,,,54,51,38,17,5,3,0.3,0.1
2024-11-04T2200,1053A,115.4713,38.9108,保定市,接待中心,颗粒物(PM10),76,101,31,27,6,4,,52,39,52,16,2,2,0.5,0
2024-11-04T2200,1054A,115.4612,38.8416,保定市,地表水厂,颗粒物(PM10),90,129,44,40,7,3,,54,35,63,24,5,2,0.3,0
2024-11-04T2200,3581A,115.31981,38.95208,保定市,满城区生态环境分局,颗粒物(PM10),56,61,34,29,10,4,,56,34,64,33,3,3,0.4,0.2
2024-11-04T2200,3582A,115.47694,38.76408,保定市,清苑区第二中学,,50,50,42,25,12,19,,57,40,54,23,1,2,0.4,0.3
2024-11-04T2200,3583A,115.62909,39.02311,保定市,徐水物探局,颗粒物(PM10),53,55,25,17,2,3,,55,35,64,22,2,2,0.5,0.3
2024-11-04T2200,4004A,115.4202,38.8656,保定市,双鹰农机,颗粒物(PM10),75,100,36,40,15,6,,60,36,62,24,3,2,0.4,0.2
2024-11-04T2200,4034A,115.5150,38.8590,保定市,植保所站,细颗粒物(PM2.5),54,55,37,38,19,20,,56,40,46,14,1,3,0.3,0.1
2024-11-04T2200,2594A,99.1678,25.1081,保山市,市环境监测站,,35,35,32,6,13,34,,76,60,8,8,4,5,0.5,0.5
2024-11-04T2200,2595A,99.1711,25.1328,保山市,市环保局,,29,26,30,20,17,45,,78,61,4,6,5,5,0.4,0.5
2024-11-04T2200,1866A,109.2262,21.588,北海市,牛尾岭水库,,,21,28,20,26,37,,44,40,,4,3,3,0.6,0.6
2024-11-04T2200,1867A,109.1436,21.4086,北海市,海滩公园,,29,26,36,20,28,60,,65,64,9,9,7,7,0.8,0.7
2024-11-04T2200,1868A,109.0981,21.4661,北海市,新市环保局,,45,,39,31,36,66,,68,67,9,10,5,6,0.7,0.8
2024-11-04T2200,1869A,109.1778,21.5233,北海市,北海工业园,,42,31,40,29,34,58,,61,60,12,13,5,6,0.9,0.8
2024-11-04T2200,3400A,109.1911,21.4415,北海市,龙潭自来水厂,,42,29,38,29,37,54,,62,60,9,12,6,7,0.8,0.7
2024-11-04T2200,1001A,116.3621,39.8784,北京市,万寿西宫,,35,25,9,10,3,0,,45,24,70,21,2,2,0.5,0.3
2024-11-04T2200,1002A,116.2202,40.2915,北京市,定陵,,9,9,5,3,2,12,,30,20,14,12,3,2,0.3,0.2
2024-11-04T2200,1003A,116.4174,39.9289,北京市,东四,,32,32,12,13,4,12,,47,33,42,13,3,3,0.5,0.2
2024-11-04T2200,1004A,116.4072,39.8863,北京市,天坛,,19,19,8,9,3,1,,46,24,35,11,3,2,0.5,0.2
2024-11-04T2200,1005A,116.462,39.9365,北京市,农展馆,,26,26,9,9,2,11,,46,31,49,17,1,2,0.5,0.2
2024-11-04T2200,1006A,116.3392,39.9295,北京市,官园,,29,28,10,11,3,0,,41,26,57,17,5,4,0.4,0.2
2024-11-04T2200,1007A,116.2878,39.9611,北京市,海淀万柳,,29,29,8,9,3,7,,50,27,50,20,3,3,0.8,0.5
2024-11-04T2200,1008A,116.6636,40.135,北京市,顺义新城,,26,26,7,9,2,2,,51,31,45,11,3,3,0.4,0.2
2024-11-04T2200,1009A,116.6275,40.3275,北京市,怀柔镇,,12,8,5,3,3,37,,52,43,7,7,1,1,0.5,0.5
2024-11-04T2200,1010A,116.2296,40.217,北京市,昌平镇,,13,13,8,3,2,34,,46,38,13,14,4,4,0.3,0.3
2024-11-04T2200,1011A,116.3966,39.9821,北京市,奥体中心,,31,30,9,12,3,4,,46,27,61,22,3,2,0.8,0.4
2024-11-04T2200,1012A,116.184,39.9136,北京市,古城,颗粒物(PM10),60,69,25,25,9,5,,48,26,50,12,4,4,0.6,0.1
2024-11-04T2200,3281A,115.9718,40.4529,北京市,延庆夏都,,37,37,10,16,4,6,,47,31,31,9,3,2,0.3,0.1
2024-11-04T2200,3417A,117.0709,40.1465,北京市,平谷新城,,38,38,10,20,4,2,,46,19,34,16,1,2,0.4,0.2
2024-11-04T2200,3418A,116.8336,40.4095,北京市,密云新城,,41,41,9,10,3,4,,50,32,34,7,1,1,0.3,0.2
2024-11-04T2200,3671A,116.088,39.9726,北京市,门头沟三家店,,22,22,10,8,4,11,,49,24,39,18,6,6,0.2,0.2
2024-11-04T2200,3672A,116.1541,39.8204,北京市,丰台云岗,,23,23,8,8,3,17,,46,32,37,14,4,2,0.2,0.1
2024-11-04T2200,3673A,116.6804,39.9081,北京市,通州东关,,30,30,14,10,3,11,,48,29,44,15,3,3,0.4,0.3
2024-11-04T2200,3674A,115.9577,39.7603,北京市,房山燕山,,14,14,6,6,2,18,,47,36,25,10,1,2,0.2,0.1
2024-11-04T2200,3675A,116.4672,39.7733,北京市,大兴旧宫,,18,18,8,6,3,0,,46,28,29,11,3,3,0.3,0.1
2024-11-04T2200,3694A,115.986,40.4563,北京市,延庆石河营,,34,34,9,18,4,3,,46,28,37,13,3,3,0.3,0.1
2024-11-04T2200,3695A,116.6151,40.3053,北京市,怀柔新城,,11,10,4,6,2,34,,50,42,5,3,3,2,0.2,0.1
2024-11-04T2200,3696A,116.2545,39.8768,北京市,丰台小屯,颗粒物(PM10),60,69,14,16,4,2,,44,22,74,21,3,1,0.6,0.3
2024-11-04T2200,3697A,116.84,40.3844,北京市,密云镇,,38,38,10,13,4,0,,50,23,43,15,3,3,0.4,0.2
2024-11-04T2200,1761A,123.8275,41.3064,本溪市,大峪,,20,20,20,13,17,31,,55,47,21,18,10,10,0.4,0.7
2024-11-04T2200,1762A,123.7567,41.3325,本溪市,溪湖,,50,50,41,18,16,6,,56,38,40,20,9,10,0.6,0.6
2024-11-04T2200,1763A,123.7169,41.3094,本溪市,彩屯,,25,25,29,16,20,9,,50,28,37,23,7,8,0.5,0.6
2024-11-04T2200,1764A,123.7669,41.2864,本溪市,东明,,46,46,29,19,14,8,,55,38,50,26,8,8,0.7,0.7
2024-11-04T2200,1765A,123.7992,41.2664,本溪市,新立屯,,18,11,18,8,10,14,,56,34,36,23,5,6,0.6,0.6
2024-11-04T2200,1766A,123.8142,41.3472,本溪市,威宁,,47,47,31,14,16,10,,56,32,41,26,8,8,0.6,0.6
2024-11-04T2200,2587A,105.2864,27.3125,毕节市,八中,,21,,20,13,17,65,,73,72,8,9,6,6,0.5,0.6
2024-11-04T2200,2588A,105.31,27.2944,毕节市,师专,,23,17,24,12,17,71,,72,72,8,10,4,4,0.5,0.5
2024-11-04T2200,3537A,105.3631,27.3533,毕节市,长征村,,21,18,25,14,20,67,,80,77,7,8,6,7,0.5,0.5
2024-11-04T2200,1629A,118.0018,37.3617,滨州市,第二水厂,,31,31,40,7,4,25,,58,42,36,18,11,8,0.5,0.3
2024-11-04T2200,1630A,117.9776,37.393,滨州市,北中新校,,36,36,37,9,5,4,,60,37,52,23,6,6,0.6,0.3
2024-11-04T2200,3514A,117.9378,37.3956,滨州市,中海酒店,,41,41,35,14,10,10,,68,42,44,18,4,4,0.8,0.4
2024-11-04T2200,3515A,117.9378,37.3553,滨州市,开发区一中,,34,34,44,7,5,29,,62,51,42,17,10,6,0.6,0.2
2024-11-04T2200,3516A,118.0917,37.694,滨州市,金海六路,,44,44,36,7,4,4,,63,35,61,19,8,4,0.4,0.3
2024-11-04T2200,4028A,117.9956,37.3753,滨州市,滨州市西街道办事处,,29,29,36,12,8,18,,62,41,44,22,7,6,0.7,0.4
2024-11-04T2200,2311A,115.8072,33.8399,亳州市,污水处理厂,颗粒物(PM10),54,58,96,16,50,42,,70,57,22,30,6,8,0.3,0.6
2024-11-04T2200,2312A,115.7789,33.8518,亳州市,三国揽胜宫,颗粒物(PM10),52,54,105,13,56,45,,71,60,17,25,4,4,0.2,0.6
2024-11-04T2200,3332A,115.7633,33.8034,亳州市,亳州学院,颗粒物(PM10),56,62,98,15,51,48,,76,62,18,28,5,5,0.2,0.5
2024-11-04T2200,2693A,82.0485,44.8556,博尔塔拉蒙古自治州,市党校,细颗粒物(PM2.5),59,62,64,42,47,48,,56,56,16,19,4,5,0.4,0.5
2024-11-04T2200,2694A,82.0806,44.8969,博尔塔拉蒙古自治州,市环保局,颗粒物(PM10),68,86,78,41,33,26,,53,50,26,22,6,4,0.5,0.6
2024-11-04T2200,1071A,116.8842,38.2991,沧州市,沧县城建局,颗粒物(PM10),55,59,50,29,22,11,,52,31,45,21,4,2,0.5,0.2
2024-11-04T2200,1072A,116.8584,38.3254,沧州市,电视转播站,颗粒物(PM10),55,59,38,31,8,3,,52,35,60,23,4,3,0.5,0.3
2024-11-04T2200,1073A,116.8709,38.3228,沧州市,市环保局,,48,48,37,29,18,19,,48,32,42,21,3,2,0.5,0.3
2024-11-04T2200,3324A,116.8136,38.3004,沧州市,河北水利电力学院,,34,34,36,23,14,31,,56,41,44,24,5,4,0.5,0.2
2024-11-04T2200,2622A,97.1806,31.1273,昌都市,昌都监测站,,36,32,12,25,9,19,,70,50,35,12,8,7,0.9,0.5
2024-11-04T2200,3719A,97.1714,31.1406,昌都市,昌都会议中心,,17,13,9,9,5,53,,79,72,8,5,7,7,0.5,0.4
2024-11-04T2200,2690A,88.1236,43.8886,昌吉回族自治州,天山天池,,18,6,4,3,2,55,,71,62,2,2,8,8,0.3,0.3
2024-11-04T2200,2692A,87.2717,44.0297,昌吉回族自治州,新区政务中心,细颗粒物(PM2.5),85,106,90,63,46,12,,47,35,60,39,6,8,0.5,0.7
2024-11-04T2200,3613A,87.3095,44.0142,昌吉回族自治州,亚心广场,颗粒物(PM10),69,88,103,46,60,15,,49,39,64,42,5,7,0.9,0.9
2024-11-04T2200,1119A,125.3325,43.9166,长春市,食品厂,,48,48,23,29,19,9,,45,23,47,24,8,7,0.4,0.3
2024-11-04T2200,1120A,125.2863,43.9027,长春市,客车厂,,46,44,21,32,20,9,,47,30,52,25,10,8,0.6,0.4
2024-11-04T2200,1121A,125.2841,43.8463,长春市,邮电学院,颗粒物(PM10),54,57,21,34,21,11,,54,34,53,25,10,11,0.5,0.3
2024-11-04T2200,1122A,125.3716,43.8772,长春市,劳动公园,,48,48,20,30,15,11,,57,41,56,22,16,10,0.6,0.3
2024-11-04T2200,1123A,125.3297,43.8805,长春市,园林处,,44,44,19,24,18,11,,50,32,48,20,21,9,0.7,0.5
2024-11-04T2200,1124A,125.4605,43.79,长春市,净月潭,,42,36,20,29,16,16,,55,37,22,13,7,8,0.4,0.3
2024-11-04T2200,1126A,125.3863,43.8447,长春市,经开区环卫处,,44,44,20,25,16,7,,54,36,51,21,10,11,0.5,0.4
2024-11-04T2200,1127A,125.245,43.7783,长春市,高新区管委会,,43,43,24,27,16,8,,52,29,42,20,8,8,0.5,0.5
2024-11-04T2200,1128A,125.1761,43.8325,长春市,岱山公园,,46,42,19,32,17,8,,49,26,41,18,8,6,0.5,0.4
2024-11-04T2200,1335A,113.0833,28.2325,长沙市,经开区环保局,"颗粒物(PM10),细颗粒物(PM2.5)",72,94,109,52,74,144,,171,163,17,33,4,5,0.6,0.7
2024-11-04T2200,1336A,112.8872,28.2189,长沙市,高开区环保局,细颗粒物(PM2.5),103,101,112,77,106,120,,170,157,18,26,7,8,0.6,0.7
2024-11-04T2200,1337A,113.0792,28.2053,长沙市,马坡岭,细颗粒物(PM2.5),84,85,98,62,90,174,,207,197,22,38,6,6,0.6,0.7
2024-11-04T2200,1338A,112.9394,28.19,长沙市,湖南师范大学,细颗粒物(PM2.5),97,114,124,72,90,132,,179,164,19,22,8,7,0.8,0.8
2024-11-04T2200,1339A,113.0178,28.1322,长沙市,雨花区环保局,细颗粒物(PM2.5),85,103,108,63,84,132,,180,161,14,23,8,8,0.7,0.7
2024-11-04T2200,1340A,112.9792,28.2597,长沙市,伍家岭,细颗粒物(PM2.5),100,112,114,75,101,110,,167,152,25,30,7,6,0.9,0.9
2024-11-04T2200,1341A,113.0014,28.1944,长沙市,火车新站,细颗粒物(PM2.5),92,86,97,68,77,123,,168,156,23,23,8,8,0.8,0.9
2024-11-04T2200,1342A,112.9844,28.1178,长沙市,天心区环保局,细颗粒物(PM2.5),85,100,116,63,78,106,,170,154,18,33,11,7,0.5,0.8
2024-11-04T2200,1343A,112.8908,28.1308,长沙市,湖南中医药大学,细颗粒物(PM2.5),100,113,126,75,126,138,,187,173,19,24,8,8,0.9,0.9
2024-11-04T2200,1344A,112.9581,28.3611,长沙市,沙坪,细颗粒物(PM2.5),67,70,76,48,53,140,,171,160,14,16,10,11,0.8,0.9
2024-11-04T2200,1727A,113.1147,36.1547,长治市,清华站,颗粒物(PM10),51,52,46,22,21,40,,74,62,27,32,10,13,0.7,0.6
2024-11-04T2200,1728A,113.1031,36.1989,长治市,监测站,颗粒物(PM10),54,58,45,22,22,26,,68,55,33,28,12,17,1.0,0.7
2024-11-04T2200,1730A,113.0886,36.2125,长治市,审计局,颗粒物(PM10),52,54,38,27,21,33,,70,59,31,26,8,13,0.9,0.7
2024-11-04T2200,1731A,113.0844,36.1856,长治市,长治八中,颗粒物(PM10),59,67,48,21,18,30,,72,60,36,31,9,13,0.9,0.6
2024-11-04T2200,2845A,113.1569,36.1911,长治市,德盛苑,细颗粒物(PM2.5),55,55,43,39,23,55,,71,62,25,30,10,14,1.0,0.8
2024-11-04T2200,3568A,113.06,36.0464,长治市,向阳小学,颗粒物(PM10),62,73,60,30,27,41,,76,61,33,32,11,13,0.4,0.5
2024-11-04T2200,3569A,112.8792,36.3144,长治市,屯留一中,,45,45,36,24,17,33,,67,51,31,26,8,10,1.2,0.9
2024-11-04T2200,3570A,113.235,36.3489,长治市,潞城四中,颗粒物(PM10),113,175,65,14,22,14,,70,47,48,35,10,10,0.7,0.8
2024-11-04T2200,1854A,111.6975,28.9703,常德市,市二中,细颗粒物(PM2.5),88,105,97,65,62,100,,129,123,18,29,7,7,0.8,0.8
2024-11-04T2200,3138A,111.7153,29.0289,常德市,武陵区永安,细颗粒物(PM2.5),75,96,86,55,57,102,,130,124,20,31,8,8,0.9,1
2024-11-04T2200,3139A,111.6892,28.9881,常德市,鼎城区玉霞,细颗粒物(PM2.5),85,110,96,63,57,101,,131,124,19,31,8,7,1.0,1
2024-11-04T2200,3140A,111.6625,29.0531,常德市,武陵区长庚,细颗粒物(PM2.5),82,106,92,60,59,96,,129,121,23,30,6,6,0.8,0.8
2024-11-04T2200,1196A,119.9633,31.762,常州市,市监测站,,35,34,114,24,74,79,,139,106,20,56,9,10,0.6,1.1
2024-11-04T2200,1200A,119.9468,31.7069,常州市,武进监测站,,48,48,120,20,64,78,,137,103,9,44,10,11,0.5,1
2024-11-04T2200,1201A,119.9255,31.9087,常州市,安家,,28,28,106,13,64,77,,123,94,16,48,8,10,0.4,0.8
2024-11-04T2200,3002A,119.9805,31.8174,常州市,行政中心,,33,31,105,23,75,74,,128,96,16,55,4,8,0.5,0.9
2024-11-04T2200,3003A,120.0522,31.7748,常州市,经开区,颗粒物(PM10),53,55,102,19,73,80,,141,105,18,64,7,10,0.4,1
2024-11-04T2200,3010A,119.9025,31.7964,常州市,钟楼,,36,36,117,21,73,76,,130,101,18,52,8,12,0.8,1.9
2024-11-04T2200,3429A,119.8598,31.7066,常州市,武进经发区,,31,31,93,12,49,77,,138,103,15,47,8,10,0.5,0.9
2024-11-04T2200,3430A,119.5826,31.7245,常州市,金坛城区,,28,20,58,10,42,87,,141,107,10,30,6,9,0.5,0.9
2024-11-04T2200,2220A,120.4318,41.5881,朝阳市,西梁,颗粒物(PM10),55,59,33,35,11,6,,58,32,42,13,7,6,1.0,0.6
2024-11-04T2200,2221A,120.4521,41.5646,朝阳市,河畔小区,,41,41,25,18,9,10,,57,37,38,12,6,7,0.8,0.5
2024-11-04T2200,2222A,120.4176,41.5648,朝阳市,八里堡,颗粒物(PM10),52,53,34,20,12,5,,61,34,46,15,8,8,1.0,0.7
2024-11-04T2200,2223A,120.3806,41.5969,朝阳市,农业园区,,21,21,20,13,7,21,,62,38,30,12,5,5,0.6,0.6
2024-11-04T2200,1705A,116.6367,23.6719,潮州市,西园路,,,,53,24,30,110,,138,120,12,14,6,7,0.6,0.6
2024-11-04T2200,3026A,116.6183,23.6608,潮州市,市政府,,42,42,56,22,31,103,,143,114,21,24,8,14,0.8,0.9
2024-11-04T2200,4036A,116.6461,23.6761,潮州市,金山,,41,41,48,24,30,111,,146,122,11,15,10,11,0.6,0.7
2024-11-04T2200,2472A,113.0073,25.9061,郴州市,马头岭,颗粒物(PM10),56,61,74,39,36,24,,92,70,23,19,7,9,0.6,0.9
2024-11-04T2200,2473A,113.0116,25.8226,郴州市,市职中,细颗粒物(PM2.5),87,87,71,64,61,15,,94,58,29,19,6,7,1.0,0.9
2024-11-04T2200,2474A,113.0161,25.8001,郴州市,兴隆步行街,细颗粒物(PM2.5),83,96,77,61,55,14,,92,63,37,23,6,8,1.0,0.9
2024-11-04T2200,2475A,113.0383,25.8071,郴州市,市审计局,细颗粒物(PM2.5),92,94,76,68,61,11,,91,62,44,19,6,9,0.9,0.8
2024-11-04T2200,2476A,113.0348,25.7759,郴州市,市环保局,细颗粒物(PM2.5),95,102,79,71,62,16,,85,59,38,24,10,12,1.2,0.9
2024-11-04T2200,1431A,103.9728,30.7236,成都市,金泉两河,,41,41,38,18,19,4,,75,54,52,28,2,2,0.8,0.4
2024-11-04T2200,1432A,104.176,30.6872,成都市,十里店,,24,24,35,14,18,23,,85,66,48,30,2,2,0.5,0.5
2024-11-04T2200,1433A,104.079,30.5706,成都市,三瓦窑,,31,31,36,21,19,47,,70,63,34,35,2,2,0.5,0.6
2024-11-04T2200,1434A,104.1114,30.63,成都市,沙河铺,,,,35,,20,,,74,65,30,27,2,1,0.5,0.4
2024-11-04T2200,1437A,104.0786,30.6531,成都市,君平街,,35,34,33,24,17,51,,84,74,34,27,3,4,0.5,0.5
2024-11-04T2200,2880A,104.0239,30.65639,成都市,大石西路,,48,48,36,32,21,23,,82,65,43,24,4,3,0.7,0.6
2024-11-04T2200,3136A,104.2725,30.5589,成都市,龙泉驿区区政府,,22,19,24,9,17,70,,80,80,13,20,3,3,0.3,0.4
2024-11-04T2200,3357A,104.0106,30.6931,成都市,金博路,,50,50,33,31,20,18,,77,65,56,25,1,2,1.0,0.6
2024-11-04T2200,3359A,104.0578,30.5225,成都市,华阳,,27,27,32,17,19,41,,74,71,30,24,1,2,0.6,0.6
2024-11-04T2200,3487A,104.2394,30.5319,成都市,车城东七路,,25,24,31,17,22,76,,80,80,14,20,2,2,0.3,0.5
2024-11-04T2200,3488A,104.3853,30.7453,成都市,青白江技师分院,,39,,38,27,24,69,,78,76,18,28,2,3,0.4,0.5
2024-11-04T2200,3489A,104.0789,30.4072,成都市,科学城,,22,22,29,14,21,35,,80,70,27,18,4,4,0.5,0.5
2024-11-04T2200,4011A,103.8506,30.6947,成都市,光华大道三段,,35,35,35,18,20,39,,90,80,38,22,4,4,0.5,0.5
2024-11-04T2200,1062A,117.9531,40.9081,承德市,铁路,,26,26,31,9,8,6,,50,22,39,19,8,7,0.5,0.3
2024-11-04T2200,1063A,117.9392,40.9763,承德市,中国银行,颗粒物(PM10),55,60,32,23,7,3,,54,23,38,17,2,3,0.6,0.3
2024-11-04T2200,1064A,117.9503,40.928,承德市,开发区,,47,47,46,18,13,8,,54,25,40,18,8,5,0.6,0.3
2024-11-04T2200,1065A,117.8051,40.9655,承德市,文化中心,颗粒物(PM10),63,75,39,11,8,0,,52,25,46,16,3,6,0.5,0.3
2024-11-04T2200,1066A,117.9268,41.0026,承德市,离宫,,48,38,22,33,18,10,,50,36,26,6,1,3,0.5,0.3
2024-11-04T2200,2314A,117.47,30.6618,池州市,池州学院,,44,44,68,18,41,74,,158,139,24,38,9,12,0.5,0.9
2024-11-04T2200,3237A,117.4918,30.6617,池州市,展览馆,,37,37,62,18,39,74,,158,139,24,31,8,8,0.5,0.8
2024-11-04T2200,3333A,117.5627,30.695,池州市,第八中学,,27,27,63,13,37,64,,154,134,29,32,8,8,0.6,0.9
2024-11-04T2200,3334A,117.5038,30.6243,池州市,第十二中学,,33,33,58,16,39,74,,163,141,23,32,6,6,0.6,1
2024-11-04T2200,1744A,118.9233,42.2816,赤峰市,松山一中,颗粒物(PM10),61,72,25,28,8,9,,60,31,50,20,28,12,1.5,0.5
2024-11-04T2200,1745A,118.9576,42.2728,赤峰市,哈达街,颗粒物(PM10),55,59,21,32,8,9,,60,36,35,16,10,7,0.9,0.5
2024-11-04T2200,1746A,118.8788,42.2554,赤峰市,天义路,,50,50,19,35,10,10,,60,31,40,18,8,7,0.6,0.3
2024-11-04T2200,3058A,119.2658,42.0353,赤峰市,银河街,细颗粒物(PM2.5),63,72,33,45,14,16,,58,34,33,15,28,16,0.8,0.4
2024-11-04T2200,3286A,118.9359,42.3147,赤峰市,桥北物流园区,,42,33,20,29,9,8,,65,34,32,17,8,8,1.1,0.7
2024-11-04T2200,2521A,107.3476,22.4136,崇左市,市环保局江州分局,,45,38,61,31,37,74,,100,86,7,13,5,5,0.7,0.7
2024-11-04T2200,2522A,107.3702,22.3707,崇左市,城南新区,,48,,54,33,40,85,,102,89,6,14,5,6,0.6,0.6
2024-11-04T2200,2298A,118.3093,32.3153,滁州市,老年大学,颗粒物(PM10),51,52,55,13,33,68,,95,80,18,23,1,3,0.3,0.4
2024-11-04T2200,2299A,118.3244,32.2786,滁州市,人大宾馆,颗粒物(PM10),52,53,71,8,36,64,,96,81,24,28,7,8,0.4,0.5
2024-11-04T2200,3207A,118.3118,32.3038,滁州市,市政府原办公楼,,44,44,59,18,41,66,,93,78,19,25,6,7,0.3,0.4
2024-11-04T2200,3331A,118.3267,32.2634,滁州市,图书馆,颗粒物(PM10),53,55,73,8,34,65,,95,79,18,26,5,6,0.4,0.4
2024-11-04T2200,2605A,101.5482,25.0441,楚雄彝族自治州,州环境监测站,,50,32,28,31,29,18,,68,49,36,22,149,17,0.8,0.7
2024-11-04T2200,2606A,101.538,25.0492,楚雄彝族自治州,市经济开发区,,50,39,33,35,27,9,,67,44,47,24,16,13,0.8,0.7
2024-11-04T2200,2548A,107.5277,31.2827,达州市,达州职业技术学院,,24,24,38,12,23,1,,12,8,26,26,5,5,0.6,0.6
2024-11-04T2200,2549A,107.5086,31.2186,达州市,市环境监测站,,23,23,38,9,20,5,,23,20,34,30,10,9,0.4,0.5
2024-11-04T2200,2550A,107.4988,31.2132,达州市,凤凰小区,,27,27,36,14,24,10,,35,31,35,27,14,12,0.4,0.5
2024-11-04T2200,2551A,107.5082,31.1986,达州市,达县机关宾馆,,29,29,39,15,30,5,,19,16,38,32,17,8,0.4,0.6
2024-11-04T2200,2552A,107.4644,31.2124,达州市,市政中心,,22,22,40,9,21,15,,32,30,35,30,9,7,0.4,0.6
2024-11-04T2200,2614A,100.1542,25.7054,大理白族自治州,大理市环境监测站,,,29,25,26,20,,,77,76,13,11,6,7,0.5,0.5
2024-11-04T2200,2615A,100.2171,25.5811,大理白族自治州,大理古城,细颗粒物(PM2.5),52,38,26,36,15,44,,76,53,15,14,7,7,0.5,0.4
2024-11-04T2200,1109A,121.612,38.9741,大连市,甘井子,,26,26,54,8,20,50,,65,56,27,23,8,8,0.4,0.3
2024-11-04T2200,1110A,121.565,38.9511,大连市,周水子,,28,28,54,10,22,29,,58,48,41,22,9,8,0.5,0.6
2024-11-04T2200,1111A,121.5637,38.8845,大连市,星海三站,,28,28,47,8,20,40,,68,51,22,13,9,8,0.4,0.3
2024-11-04T2200,1112A,121.6302,38.9117,大连市,青泥洼桥,,18,18,43,9,20,43,,63,53,28,17,11,8,0.4,0.6
2024-11-04T2200,1113A,121.6251,38.8638,大连市,傅家庄,,24,24,46,7,20,47,,68,58,25,17,11,10,0.3,0.4
2024-11-04T2200,1114A,121.5213,38.8661,大连市,七贤岭,,22,22,46,7,20,48,,75,64,27,14,15,8,0.5,0.5
2024-11-04T2200,1115A,121.2529,38.8061,大连市,旅顺,,20,14,41,6,11,61,,74,66,18,18,7,7,0.4,0.6
2024-11-04T2200,1116A,121.7485,39.1311,大连市,金州,,22,22,43,9,16,45,,61,54,26,16,9,8,0.5,0.5
2024-11-04T2200,1117A,121.7811,39.0496,大连市,开发区,,22,22,51,6,19,56,,60,55,10,13,6,6,0.1,0.2
2024-11-04T2200,1118A,121.9762,39.0631,大连市,双D港,,18,18,41,9,18,56,,72,61,15,14,8,9,0.5,0.5
2024-11-04T2200,1789A,124.81117,46.03138,大庆市,大同区,,29,29,34,16,23,33,,54,43,9,11,3,3,0.4,0.4
2024-11-04T2200,1790A,125.129,46.533,大庆市,龙凤区,细颗粒物(PM2.5),93,81,47,69,27,32,,46,40,25,15,4,4,0.7,0.4
2024-11-04T2200,1791A,124.902,46.408,大庆市,红岗区,,49,43,34,34,25,33,,54,46,18,15,6,6,0.3,0.3
2024-11-04T2200,1792A,125.153,46.586,大庆市,萨尔图区,细颗粒物(PM2.5),70,55,33,51,23,38,,48,45,22,16,8,7,0.3,0.1
2024-11-04T2200,1793A,124.9042,46.6215,大庆市,让胡路区,,46,36,30,32,26,39,,51,47,14,10,5,5,0.2,0.2
2024-11-04T2200,3481A,125.141,46.634,大庆市,萨区政府监测点,,40,40,26,24,19,41,,48,43,15,17,7,6,0.3,0.3
2024-11-04T2200,1721A,113.3819,40.1097,大同市,果树场,颗粒物(PM10),67,84,38,27,15,2,,42,17,44,26,9,9,0.9,0.5
2024-11-04T2200,1723A,113.2994,40.0758,大同市,云冈宾馆,颗粒物(PM10),76,102,27,36,11,5,,48,22,57,22,13,11,1.0,0.7
2024-11-04T2200,1724A,113.3444,40.0917,大同市,大同大学,颗粒物(PM10),55,60,25,27,10,4,,51,24,60,25,10,8,0.8,0.5
2024-11-04T2200,1725A,113.2661,40.1269,大同市,安家小村,颗粒物(PM10),86,122,39,45,12,9,,49,22,54,25,18,15,0.7,0.4
2024-11-04T2200,1726A,113.2711,40.0844,大同市,教育学院,颗粒物(PM10),104,157,43,57,15,5,,46,21,69,28,18,11,0.9,0.6
2024-11-04T2200,3282A,113.3397,40.0597,大同市,大同市卫生学校,颗粒物(PM10),57,64,25,25,10,9,,50,31,66,24,14,10,0.5,0.3
2024-11-04T2200,3565A,113.1367,40.1122,大同市,云冈站,颗粒物(PM10),71,92,40,34,14,7,,47,22,44,30,18,19,0.9,0.8
2024-11-04T2200,3566A,113.1186,40.2556,大同市,图书馆,颗粒物(PM10),69,87,30,21,12,6,,51,27,36,18,10,16,0.6,0.5
2024-11-04T2200,3567A,113.5931,40.0461,大同市,区一中,颗粒物(PM10),60,69,29,19,7,10,,53,29,42,23,20,15,1.0,0.5
2024-11-04T2200,3676A,113.2802,40.0995,大同市,第二人民医院,颗粒物(PM10),85,119,39,50,14,10,,46,,58,27,17,14,1.0,0.6
2024-11-04T2200,2269A,124.1069,50.4097,大兴安岭地区,科技局,,26,,14,18,15,51,,52,51,3,4,4,4,0.2,0.2
2024-11-04T2200,3663A,124.1164,50.4278,大兴安岭地区,红旗社区,,15,6,5,3,4,48,,50,49,2,4,2,2,0.4,0.4
2024-11-04T2200,1600A,124.3303,40.0625,丹东市,江湾东路,,24,24,24,12,10,46,,52,50,12,12,10,9,0.4,0.4
2024-11-04T2200,1601A,124.4256,40.1503,丹东市,临江后街,,22,22,19,8,10,53,,59,57,7,10,5,6,0.3,0.5
2024-11-04T2200,1602A,124.3933,40.1461,丹东市,元宝山,,22,22,18,11,10,39,,58,53,20,10,6,5,0.8,0.6
2024-11-04T2200,1603A,124.3633,40.1092,丹东市,民主桥,,25,25,28,8,8,46,,55,51,11,11,6,6,0.4,0.3
2024-11-04T2200,3541A,109.5726,19.5167,儋州市,第一中学子站,颗粒物(PM10),55,59,16,32,11,85,,86,86,6,4,5,5,0.8,0.5
2024-11-04T2200,3542A,109.5567,19.5187,儋州市,东坡学校子站,,50,50,15,35,10,96,,96,96,7,5,5,6,0.7,0.6
2024-11-04T2200,2616A,98.5842,24.428,德宏傣族景颇族自治州,德宏州监测站,,29,29,40,18,22,43,,78,66,14,16,4,8,0.6,0.6
2024-11-04T2200,3677A,98.5881,24.4368,德宏傣族景颇族自治州,芒市人民政府综合楼,,37,37,43,23,25,37,,77,67,14,14,4,6,0.8,0.8
2024-11-04T2200,1901A,104.4239,31.1208,德阳市,东山公园,,34,34,40,14,17,75,,98,93,10,15,3,3,0.3,0.4
2024-11-04T2200,1902A,104.3826,31.1317,德阳市,西小区,,36,36,39,21,19,63,,89,83,16,21,3,2,0.5,0.5
2024-11-04T2200,1904A,104.3553,31.1091,德阳市,耐火材料厂,,33,33,32,17,21,46,,86,78,31,23,3,3,0.4,0.4
2024-11-04T2200,3639A,104.4019,31.1244,德阳市,市教育局,,27,27,32,15,16,46,,91,80,36,24,1,2,0.5,0.5
2024-11-04T2200,1622A,116.3032,37.4674,德州市,儿童乐园,颗粒物(PM10),57,63,64,14,18,6,,52,27,66,36,8,8,0.5,0.4
2024-11-04T2200,1624A,116.2991,37.4451,德州市,监理站,,34,34,49,12,15,17,,56,40,52,29,5,7,0.6,0.5
2024-11-04T2200,3066A,116.2721,37.4379,德州市,九衢泉纯净水厂,,39,39,57,17,17,9,,52,32,60,31,7,8,0.6,0.4
2024-11-04T2200,3371A,116.3728,37.4403,德州市,开发区人民医院,,36,36,51,9,13,13,,52,28,63,32,7,6,0.4,0.4
2024-11-04T2200,3372A,116.3572,37.4094,德州市,太阳城中学,,48,48,55,17,15,3,,55,28,62,32,6,4,0.5,0.4
2024-11-04T2200,3511A,116.5652,37.3319,德州市,陵城艺术中心,颗粒物(PM10),59,68,51,31,17,17,,54,40,46,19,10,9,0.6,0.5
2024-11-04T2200,2621A,99.7056,27.8317,迪庆藏族自治州,迪庆州站,,24,20,28,13,17,76,,86,82,11,14,8,9,0.4,0.5
2024-11-04T2200,3180A,99.7136,27.8094,迪庆藏族自治州,质量技术监督局,,28,22,31,19,13,72,,82,78,8,16,7,7,0.5,0.6
2024-11-04T2200,2663A,104.6241,35.5734,定西市,东关小学,颗粒物(PM10),75,99,74,36,27,31,,86,74,33,19,15,13,0.8,0.5
2024-11-04T2200,2664A,104.6194,35.5934,定西市,供电公司,颗粒物(PM10),65,80,62,40,23,6,,84,68,65,25,9,8,0.6,0.5
2024-11-04T2200,1389A,113.7547,23.0494,东莞市,莞城梨川,颗粒物(PM10),57,64,58,31,31,67,,117,87,25,31,11,10,0.8,0.6
2024-11-04T2200,1390A,113.7944,23.0128,东莞市,东城石井,,44,44,45,26,27,73,,120,96,19,27,10,10,0.7,0.7
2024-11-04T2200,1391A,113.7383,22.9658,东莞市,南城西平,,49,49,54,26,29,64,,118,90,29,45,8,8,0.7,0.7
2024-11-04T2200,3319A,113.7338,23.0381,东莞市,万江金泰,颗粒物(PM10),53,56,56,32,30,70,,115,88,20,31,11,11,0.8,0.7
2024-11-04T2200,3626A,113.7533,23.0202,东莞市,南城元岭,颗粒物(PM10),53,56,58,33,31,68,,117,88,16,26,11,11,0.8,0.7
2024-11-04T2200,3627A,113.7875,23.0457,东莞市,东城主山,,44,44,54,28,31,73,,122,91,18,30,9,10,0.6,0.6
2024-11-04T2200,1666A,118.6614,37.4309,东营市,市环保局,,22,22,32,3,4,33,,66,54,44,20,3,3,0.4,0.4
2024-11-04T2200,3036A,118.6904,37.4338,东营市,开发区管委会,,30,30,39,7,7,31,,67,55,34,17,3,5,0.4,0.1
2024-11-04T2200,3365A,118.5719,37.565,东营市,垦利区民丰路,,24,24,27,7,3,25,,59,41,41,19,8,7,0.4,0.2
2024-11-04T2200,3498A,118.5055,37.8612,东营市,河口城区,,34,34,35,7,3,43,,70,54,22,12,2,2,0.5,0.4
2024-11-04T2200,3646A,118.4978,37.4623,东营市,胜利站,,39,39,41,9,7,30,,65,50,36,17,4,5,0.5,0.3
2024-11-04T2200,3734A,118.35,37.26,东营市,理想之城,,36,36,36,17,9,31,,64,43,40,23,6,3,0.5,0.4
2024-11-04T2200,1591A,110.0023,39.8129,鄂尔多斯市,综合楼,,27,27,34,3,8,78,,66,59,19,26,12,14,0.4,0.4
2024-11-04T2200,1592A,109.9486,39.8261,鄂尔多斯市,巴音孟克林场办事处,,29,29,30,9,11,72,,60,60,24,26,7,11,0.5,0.6
2024-11-04T2200,1593A,109.7736,39.5986,鄂尔多斯市,康泽苑,,46,46,30,14,10,65,,81,81,26,21,9,9,0.3,0.3
2024-11-04T2200,1594A,109.8119,39.5989,鄂尔多斯市,华泰汽车城,颗粒物(PM10),56,61,30,17,11,44,,76,73,50,27,12,9,0.5,0.4
2024-11-04T2200,1595A,109.9734,39.7884,鄂尔多斯市,奥林花园,,46,46,30,12,8,58,,63,63,27,25,8,9,0.5,0.6
2024-11-04T2200,2436A,114.8938,30.3994,鄂州市,市政府,细颗粒物(PM2.5),97,96,98,72,73,107,,131,124,30,47,6,6,0.8,1
2024-11-04T2200,2437A,114.8989,30.3714,鄂州市,赵家坝,细颗粒物(PM2.5),79,90,106,58,72,132,,150,146,22,41,6,8,0.6,1
2024-11-04T2200,3654A,114.8094,30.4089,鄂州市,精准医疗中心,细颗粒物(PM2.5),103,110,105,77,86,103,,152,144,22,35,10,10,0.7,0.9
2024-11-04T2200,2454A,109.4978,30.2981,恩施土家族苗族自治州,湖北民院,,44,44,71,26,58,57,,50,50,10,21,6,6,0.5,0.7
2024-11-04T2200,2455A,109.4707,30.2798,恩施土家族苗族自治州,州电力总公司,,32,32,69,21,56,64,,53,53,14,29,7,7,0.5,0.8
2024-11-04T2200,3549A,109.5061,30.3772,恩施土家族苗族自治州,龙凤新区,,33,33,74,23,57,41,,31,31,10,17,6,6,0.7,0.9
2024-11-04T2200,2499A,108.3411,21.6158,防城港市,沙万,,32,30,56,22,48,79,,93,82,10,13,3,4,0.6,0.8
2024-11-04T2200,2500A,108.3514,21.7731,防城港市,防城档案局,,39,39,65,27,51,73,,77,73,14,18,4,5,0.8,0.8
2024-11-04T2200,2501A,108.3506,21.6414,防城港市,大海花园,,35,30,55,24,47,81,,95,84,11,13,2,3,0.9,1
2024-11-04T2200,1371A,113.1294,23.0067,佛山市,湾梁,颗粒物(PM10),52,53,49,29,28,73,,115,103,29,29,10,10,0.7,0.8
2024-11-04T2200,1372A,113.1083,23.0478,佛山市,华材职中,颗粒物(PM10),52,53,51,34,37,64,,108,94,36,34,10,10,0.6,0.6
2024-11-04T2200,1373A,113.144,23.0453,佛山市,南海气象局,,50,50,43,33,30,69,,115,99,24,24,11,10,0.6,0.7
2024-11-04T2200,1374A,113.2881,22.8094,佛山市,顺德苏岗,颗粒物(PM10),54,58,49,31,28,62,,117,101,30,24,11,10,0.8,0.8
2024-11-04T2200,1376A,112.8383,22.8678,佛山市,高明孔堂,,48,48,52,27,37,66,,96,85,22,24,10,9,0.7,0.8
2024-11-04T2200,1377A,112.8836,23.1588,佛山市,三水监测站,,46,39,44,32,40,65,,90,80,21,29,10,10,0.7,0.7
2024-11-04T2200,1378A,112.867,23.185,佛山市,三水云东海,,43,40,42,30,37,57,,78,66,22,29,10,7,0.7,0.7
2024-11-04T2200,3625A,113.2544,22.7642,佛山市,容桂街道办,细颗粒物(PM2.5),52,51,43,36,32,67,,124,108,28,28,11,9,0.7,0.7
2024-11-04T2200,1282A,119.2681,26.0504,福州市,师大,,44,41,42,26,26,139,,141,139,10,15,5,3,0.5,0.5
2024-11-04T2200,1283A,119.2984,26.1028,福州市,五四北路,,41,39,38,27,26,129,,135,134,18,17,3,2,0.5,0.5
2024-11-04T2200,1284A,119.2648,26.0768,福州市,杨桥西路,,44,44,40,28,27,131,,138,138,13,13,3,2,0.5,0.5
2024-11-04T2200,1285A,119.317,26.0746,福州市,紫阳,,50,50,49,30,28,114,,125,118,30,22,5,4,0.6,0.7
2024-11-04T2200,3048A,119.5799,26.0936,福州市,九龙,,37,29,37,12,26,116,,142,138,4,8,1,3,0.2,0.4
2024-11-04T2200,3526A,119.5189,25.9664,福州市,吴航,,35,22,37,13,25,110,,143,138,8,16,2,3,0.2,0.5
2024-11-04T2200,1755A,123.7977,41.8491,抚顺市,望花区,颗粒物(PM10),52,53,25,35,16,6,,55,32,42,18,5,5,0.8,0.4
2024-11-04T2200,1756A,123.9161,41.8822,抚顺市,顺城区,颗粒物(PM10),59,68,28,35,18,7,,56,29,39,21,6,6,0.7,0.4
2024-11-04T2200,1757A,124.0436,41.8611,抚顺市,东洲区,,46,46,27,22,18,13,,53,32,30,16,12,9,0.5,0.4
2024-11-04T2200,1758A,123.9247,41.8642,抚顺市,新抚区,颗粒物(PM10),56,62,24,35,13,6,,57,31,39,19,5,5,0.5,0.1
2024-11-04T2200,1759A,124.0972,41.8961,抚顺市,大伙房水库,,36,32,24,25,15,8,,58,41,40,16,10,7,0.6,0.4
2024-11-04T2200,1760A,123.7086,41.8391,抚顺市,沈抚新城,,46,38,25,32,16,6,,57,29,41,20,6,6,0.6,0.2
2024-11-04T2200,2376A,116.2127,28.0814,抚州市,桐源党溪,,,66,64,39,36,12,,85,55,,17,7,8,0.6,1.1
2024-11-04T2200,2377A,116.3544,27.9831,抚州市,市站,细颗粒物(PM2.5),75,80,61,55,38,19,,75,57,49,21,13,16,1.5,1.1
2024-11-04T2200,2378A,116.3565,27.963,抚州市,血防站,细颗粒物(PM2.5),68,76,61,49,36,6,,71,53,42,18,6,10,1.5,1
2024-11-04T2200,2379A,116.3564,28.0007,抚州市,采茶剧团,细颗粒物(PM2.5),79,84,58,58,40,7,,70,49,42,15,6,7,1.3,1.1
2024-11-04T2200,2380A,116.385,27.9647,抚州市,医学分院,细颗粒物(PM2.5),74,78,51,54,36,5,,66,48,39,16,3,9,1.0,0.9
2024-11-04T2200,2207A,121.6094,41.998,阜新市,工业园区,细颗粒物(PM2.5),77,96,40,56,15,5,,56,26,39,18,18,10,1.2,0.5
2024-11-04T2200,2208A,121.6697,42.0279,阜新市,长青街,颗粒物(PM10),73,96,25,41,12,4,,55,30,38,18,9,7,1.0,0.5
2024-11-04T2200,2209A,121.6673,42.0705,阜新市,农业园区,,40,40,12,22,5,19,,56,46,46,12,28,7,0.5,0.3
2024-11-04T2200,2210A,121.6717,42.0224,阜新市,东苑,颗粒物(PM10),67,84,29,31,11,8,,56,33,47,16,11,5,1.6,0.6
2024-11-04T2200,2211A,121.6506,42.0498,阜新市,玉龙新城,颗粒物(PM10),77,103,34,39,13,10,,58,30,32,14,8,7,0.7,0.3
2024-11-04T2200,2301A,115.8277,32.8929,阜阳市,市监测站,,46,43,91,32,69,50,,81,67,30,42,8,8,0.4,0.7
2024-11-04T2200,2303A,115.8554,32.8605,阜阳市,开发区,颗粒物(PM10),62,73,113,28,64,47,,74,65,28,40,9,8,0.6,0.8
2024-11-04T2200,2875A,115.784,32.8892,阜阳市,阜阳职业技术学院,颗粒物(PM10),53,56,96,26,71,51,,80,68,24,32,8,7,0.4,0.6
2024-11-04T2200,3468A,115.7901,32.8613,阜阳市,市规划展馆,,46,46,90,14,62,56,,94,71,25,32,8,9,0.4,0.6
2024-11-04T2200,3469A,115.836,32.9183,阜阳市,枣园社区,颗粒物(PM10),53,55,84,17,56,45,,78,66,28,46,9,9,0.3,0.6
2024-11-04T2200,2669A,102.9099,34.9841,甘南藏族自治州,州政府,,35,35,28,17,17,5,,86,49,60,17,4,4,1.1,0.7
2024-11-04T2200,3380A,102.8914,34.9617,甘南藏族自治州,甘肃民族师范学院,颗粒物(PM10),57,63,22,28,16,2,,90,56,60,23,5,4,0.9,0.7
2024-11-04T2200,2570A,101.9603,30.0475,甘孜藏族自治州,水桥子,,20,20,9,9,7,26,,78,26,25,17,6,6,0.5,0.4
2024-11-04T2200,3065A,101.9533,29.9972,甘孜藏族自治州,州环保局,,22,8,8,3,5,18,,80,31,44,19,3,3,0.4,0.3
2024-11-04T2200,3414A,115.8347,28.932,赣江新区,桑海产业园,细颗粒物(PM2.5),107,124,79,80,46,136,,161,153,20,29,12,14,0.9,0.7
2024-11-04T2200,2362A,114.9017,25.9149,赣州市,通天岩,细颗粒物(PM2.5),59,48,40,42,34,107,,116,114,11,9,2,4,1.1,1.1
2024-11-04T2200,2363A,114.9367,25.8664,赣州市,地委,细颗粒物(PM2.5),54,40,49,38,34,108,,114,113,10,10,2,2,0.7,0.6
2024-11-04T2200,2364A,114.9461,25.8481,赣州市,气象台,细颗粒物(PM2.5),54,43,45,38,34,103,,108,107,8,12,1,5,0.9,0.9
2024-11-04T2200,2365A,114.9322,25.8333,赣州市,市图书馆,,50,50,46,31,28,122,,120,114,13,11,7,8,0.7,0.7
2024-11-04T2200,2366A,114.8905,25.8471,赣州市,华坚鞋城,,46,46,47,23,28,100,,107,105,12,12,6,7,0.7,0.7
2024-11-04T2200,3109A,115.0093,25.8613,赣州市,赣县区卫计委,细颗粒物(PM2.5),57,41,47,40,34,95,,94,94,7,12,6,7,0.6,0.6
2024-11-04T2200,2683A,106.2319,36.1417,固原市,马园,颗粒物(PM10),76,102,53,41,18,26,,78,56,48,34,12,9,0.7,0.5
2024-11-04T2200,2684A,106.2792,36.0022,固原市,监测站,颗粒物(PM10),61,72,47,37,19,58,,90,77,33,24,9,6,0.5,0.5
2024-11-04T2200,2685A,106.2375,36.0211,固原市,新区,颗粒物(PM10),66,81,49,25,16,52,,86,76,31,28,8,5,0.5,0.5
2024-11-04T2200,3522A,106.2177,35.9959,固原市,原州区十五小,颗粒物(PM10),67,84,48,32,16,71,,98,89,27,18,12,6,0.5,0.4
2024-11-04T2200,2544A,106.6303,30.4576,广安市,市委,,26,26,71,15,50,41,,65,61,20,24,7,7,0.4,0.6
2024-11-04T2200,2545A,106.6271,30.4663,广安市,友谊中学,,22,22,61,14,46,37,,64,58,20,24,2,3,0.4,0.7
2024-11-04T2200,2547A,106.6388,30.4551,广安市,广电花园,,25,25,62,15,44,36,,61,56,23,25,3,4,0.3,0.5
2024-11-04T2200,2902A,106.6351,30.4865,广安市,北辰小学,,28,25,64,19,45,46,,64,59,12,18,3,4,0.5,0.7
2024-11-04T2200,2523A,105.8945,32.4535,广元市,黑石坡,,32,31,30,22,18,60,,71,70,6,11,4,5,0.3,0.4
2024-11-04T2200,2524A,105.821,32.4444,广元市,老城,,44,44,34,26,18,3,,76,55,58,30,2,2,0.7,0.8
2024-11-04T2200,2526A,105.8628,32.4287,广元市,监测站,,29,29,28,18,18,37,,83,73,20,19,3,2,0.5,0.6
2024-11-04T2200,3617A,105.8047,32.4166,广元市,经开区,,38,38,39,18,17,28,,84,70,36,27,4,4,0.5,0.6
2024-11-04T2200,1345A,113.2347,23.1423,广州市,广雅中学,细颗粒物(PM2.5),52,50,52,36,33,64,,98,90,29,38,10,10,1.0,1.1
2024-11-04T2200,1346A,113.2612,23.105,广州市,市五中,,50,40,38,35,35,73,,119,106,26,27,8,8,0.9,0.9
2024-11-04T2200,1348A,113.3478,23.0916,广州市,广东商学院,颗粒物(PM10),51,52,46,31,33,80,,115,101,21,28,10,9,0.6,0.6
2024-11-04T2200,1349A,113.4332,23.1047,广州市,市八十六中,颗粒物(PM10),56,62,56,30,28,82,,110,102,18,31,7,6,0.6,0.6
2024-11-04T2200,1350A,113.3505,22.9483,广州市,番禺中学,,,67,50,42,38,76,,118,104,,30,10,9,,0.6
2024-11-04T2200,1351A,113.2146,23.3916,广州市,花都师范,,41,41,49,26,34,80,,110,101,17,22,8,12,0.8,0.9
2024-11-04T2200,1352A,113.2597,23.1331,广州市,市监测站,颗粒物(PM10),52,53,49,29,29,54,,105,91,37,32,9,9,0.6,0.7
2024-11-04T2200,1353A,113.5618,23.312,广州市,九龙镇镇龙,,43,43,51,26,28,87,,102,97,12,21,8,8,0.6,0.6
2024-11-04T2200,1354A,113.2765,23.1544,广州市,麓湖,颗粒物(PM10),51,52,47,33,22,67,,113,100,29,31,8,7,0.7,0.7
2024-11-04T2200,1355A,113.443,23.3035,广州市,帽峰山森林公园,,37,37,33,21,21,89,,115,108,14,14,12,10,0.6,0.6
2024-11-04T2200,2846A,113.3221,23.1322,广州市,体育西,颗粒物(PM10),54,57,55,30,32,71,,106,93,19,27,10,11,0.8,0.8
2024-11-04T2200,3298A,113.5717,23.5491,广州市,从化街口,,32,32,38,21,24,92,,106,103,9,17,11,11,0.5,0.6
2024-11-04T2200,3299A,113.3472,23.3692,广州市,白云竹料,,36,36,45,25,29,86,,115,105,12,18,10,10,0.7,0.7
2024-11-04T2200,3300A,113.2981,23.237,广州市,白云嘉禾,颗粒物(PM10),52,53,53,27,31,79,,108,94,23,34,10,10,0.8,1
2024-11-04T2200,3301A,113.4256,23.1716,广州市,黄埔科学城,,46,46,49,27,29,86,,110,102,13,22,12,10,0.7,0.8
2024-11-04T2200,3302A,113.3942,23.0483,广州市,番禺大学城,,47,47,48,28,26,79,,108,98,19,30,11,9,0.7,0.7
2024-11-04T2200,3303A,113.4922,22.8168,广州市,南沙黄阁,颗粒物(PM10),54,57,53,34,32,78,,123,100,28,38,11,9,0.8,0.8
2024-11-04T2200,3304A,113.5342,22.7896,广州市,南沙街,颗粒物(PM10),56,62,52,34,30,71,,126,100,30,32,10,9,0.8,0.7
2024-11-04T2200,3443A,113.2902,23.5544,广州市,花都梯面,,44,44,45,30,31,81,,112,101,10,16,9,14,0.3,0.8
2024-11-04T2200,3445A,113.7858,23.7478,广州市,从化良口,,30,28,31,18,21,96,,105,101,10,9,7,7,0.7,0.7
2024-11-04T2200,3446A,113.8051,23.2614,广州市,增城荔城,,38,38,42,25,26,84,,103,92,13,16,8,8,0.6,0.6
2024-11-04T2200,2506A,109.6047,23.0666,贵港市,江南子站,细颗粒物(PM2.5),78,66,62,57,54,46,,76,69,22,20,6,10,1.0,1
2024-11-04T2200,2507A,109.6014,23.0948,贵港市,贵城子站,细颗粒物(PM2.5),78,70,72,57,55,70,,70,70,16,17,6,11,1.0,0.9
2024-11-04T2200,2508A,109.5669,23.1065,贵港市,荷城子站,细颗粒物(PM2.5),70,53,62,51,49,75,,71,71,15,18,10,13,0.8,0.7
2024-11-04T2200,3405A,109.5886,23.1172,贵港市,新世纪学校,细颗粒物(PM2.5),72,61,62,52,50,71,,72,72,16,18,8,11,1.0,0.9
2024-11-04T2200,1439A,106.6899,26.5998,贵阳市,马鞍山,,25,24,52,17,38,53,,62,59,17,15,4,5,0.6,0.9
2024-11-04T2200,1440A,106.6971,26.5694,贵阳市,市环保站,,22,17,56,15,48,64,,69,62,14,17,4,7,0.4,0.5
2024-11-04T2200,1441A,106.6243,26.6266,贵阳市,鉴湖路,,28,24,48,19,36,57,,62,56,12,12,6,6,0.5,0.6
2024-11-04T2200,1442A,106.7487,26.6343,贵阳市,燕子冲,,32,,51,22,48,68,,71,69,10,12,6,8,0.5,0.6
2024-11-04T2200,1443A,106.6555,26.4365,贵阳市,碧云窝,,20,14,62,9,40,61,,66,60,16,18,6,7,0.5,0.6
2024-11-04T2200,1444A,106.694,26.5161,贵阳市,中院村,,20,17,56,12,43,62,,67,62,13,16,4,6,0.7,0.7
2024-11-04T2200,1445A,106.7109,26.6027,贵阳市,红边门,,39,27,54,27,47,61,,66,65,16,16,5,7,0.7,0.9
2024-11-04T2200,1446A,106.7164,26.5699,贵阳市,新华路,,21,14,54,7,46,67,,64,63,11,15,7,8,0.5,0.6
2024-11-04T2200,1447A,106.674,26.5424,贵阳市,太慈桥,,21,17,49,9,39,65,,68,62,14,16,3,4,0.5,0.6
2024-11-04T2200,1552A,106.805,26.3003,贵阳市,桐木岭,颗粒物(PM10),54,58,65,34,46,89,,138,124,6,6,10,8,0.7,0.7
2024-11-04T2200,1862A,110.4144,25.3167,桂林市,电子科大尧山校区,细颗粒物(PM2.5),63,61,57,45,41,156,,150,150,10,10,8,7,0.7,0.7
2024-11-04T2200,1863A,110.2819,25.2697,桂林市,监测站,细颗粒物(PM2.5),69,69,68,50,58,142,,143,135,16,15,10,11,0.9,0.9
2024-11-04T2200,1864A,110.3089,25.2708,桂林市,龙隐路小学,细颗粒物(PM2.5),72,63,62,52,52,150,,149,144,13,12,10,17,0.8,0.7
2024-11-04T2200,1865A,110.2869,25.2178,桂林市,八中,细颗粒物(PM2.5),75,70,65,55,50,136,,139,131,15,14,9,12,0.9,0.9
2024-11-04T2200,3403A,110.1764,25.2381,桂林市,创业大厦,细颗粒物(PM2.5),79,75,74,58,57,150,,148,143,13,17,10,22,0.6,0.6
2024-11-04T2200,3531A,110.296,25.1253,桂林市,旅游学院,细颗粒物(PM2.5),67,66,68,48,52,134,,144,138,15,20,17,13,0.6,0.6
2024-11-04T2200,2674A,100.2561,34.4714,果洛藏族自治州,玛沁县大武镇,细颗粒物(PM2.5),72,55,26,52,21,57,,91,83,11,4,11,11,0.5,0.4
2024-11-04T2200,1129A,126.5422,45.755,哈尔滨市,岭北,,33,,39,23,48,67,,70,60,15,17,10,8,0.4,0.2
2024-11-04T2200,1130A,126.561,45.8167,哈尔滨市,松北商大,颗粒物(PM10),71,91,59,43,46,34,,47,33,23,26,9,10,0.6,0.7
2024-11-04T2200,1131A,126.979,45.5419,哈尔滨市,阿城会宁,,40,40,50,24,34,14,,50,32,27,20,7,10,0.7,0.8
2024-11-04T2200,1132A,126.599,45.7222,哈尔滨市,南岗学府路,颗粒物(PM10),66,81,73,37,44,21,,50,40,39,22,12,10,1.0,0.6
2024-11-04T2200,1133A,126.689,45.7733,哈尔滨市,太平宏伟公园,细颗粒物(PM2.5),74,90,59,54,44,38,,48,43,29,21,8,11,0.6,0.5
2024-11-04T2200,1134A,126.635,45.7667,哈尔滨市,道外承德广场,"颗粒物(PM10),细颗粒物(PM2.5)",72,94,75,52,44,12,,50,41,62,25,9,12,0.7,0.7
2024-11-04T2200,1135A,126.685,45.7319,哈尔滨市,香坊红旗大街,细颗粒物(PM2.5),82,83,68,60,45,16,,53,43,52,22,11,11,0.9,0.7
2024-11-04T2200,1136A,126.6411,45.7258,哈尔滨市,动力和平路,细颗粒物(PM2.5),65,75,60,47,46,23,,48,38,41,24,11,13,0.8,0.6
2024-11-04T2200,1137A,126.593,45.7478,哈尔滨市,道里建国路,细颗粒物(PM2.5),69,67,65,50,51,17,,49,35,43,21,17,17,0.6,0.3
2024-11-04T2200,1138A,126.615,45.61,哈尔滨市,平房东轻厂,,29,29,47,19,38,11,,51,25,40,22,8,7,0.2,0.3
2024-11-04T2200,1139A,126.595,45.9855,哈尔滨市,呼兰师专,,,164,47,,33,29,,40,32,53,22,8,7,1.1,0.5
2024-11-04T2200,1140A,126.6206,45.6842,哈尔滨市,省农科院,颗粒物(PM10),51,52,65,27,39,13,,51,28,40,23,9,9,0.7,0.7
2024-11-04T2200,2688A,93.5128,42.8172,哈密市,地区监测站,颗粒物(PM10),109,167,97,55,34,11,,84,64,99,41,8,7,1.6,0.5
2024-11-04T2200,2689A,93.4961,42.8328,哈密市,哈密师范学校,颗粒物(PM10),107,163,95,55,36,13,,87,66,92,51,4,6,1.5,0.7
2024-11-04T2200,2671A,100.9048,36.9639,海北藏族自治州,海晏县西海镇,,21,21,35,14,23,57,,94,87,8,10,5,8,0.3,0.5
2024-11-04T2200,3867A,102.0738,36.5056,海东市,平安区公安北苑,,,,61,,25,,,84,72,28,27,26,11,1.0,0.6
2024-11-04T2200,1410A,110.3232,20.0574,海口市,海南大学,,43,39,36,30,23,90,,114,110,9,10,6,5,0.6,0.6
2024-11-04T2200,1411A,110.283,20.0053,海口市,秀英海南医院,,46,40,31,32,25,100,,110,110,13,12,8,6,0.6,0.5
2024-11-04T2200,1412A,110.338,19.9969,海口市,海南师范大学,,46,41,30,32,24,103,,118,118,11,10,8,7,0.6,0.6
2024-11-04T2200,1413A,110.33,20.0356,海口市,龙华路环保局宿舍,,42,42,34,29,24,94,,114,113,10,10,6,5,0.5,0.5
2024-11-04T2200,3539A,110.5111,19.9736,海口市,桂林洋子站,,49,45,36,34,25,101,,128,127,8,8,7,6,0.5,0.4
2024-11-04T2200,2673A,100.6188,36.2866,海南藏族自治州,共和县恰卜恰镇,颗粒物(PM10),54,57,34,6,15,18,,82,61,40,22,17,11,0.6,0.5
2024-11-04T2200,2676A,97.3731,37.3753,海西蒙古族藏族自治州,德令哈市,,36,36,29,11,12,58,,92,80,10,6,9,9,0.5,0.5
2024-11-04T2200,1048A,114.5302,36.6116,邯郸市,东污水处理厂,,34,34,31,17,12,7,,50,36,49,22,2,2,0.4,0.2
2024-11-04T2200,1049A,114.4918,36.5713,邯郸市,矿院,,41,41,37,19,17,2,,51,35,48,23,3,4,0.7,0.6
2024-11-04T2200,1050A,114.484,36.6133,邯郸市,丛台公园,,47,47,36,16,16,4,,51,38,56,23,3,5,0.5,0.3
2024-11-04T2200,3458A,114.7895,36.5593,邯郸市,香泉濮院小区,,41,41,55,16,25,4,,58,36,49,17,4,4,0,0.2
2024-11-04T2200,3579A,114.50634,36.77178,邯郸市,永年区实验高中,颗粒物(PM10),71,91,55,39,23,4,,52,36,42,21,5,4,0.4,0.3
2024-11-04T2200,3580A,114.20016,36.44293,邯郸市,峰峰矿区临水派出所,,18,18,26,3,11,42,,53,46,10,13,3,4,0.5,0.4
2024-11-04T2200,2634A,106.9893,33.1842,汉中市,汉川机床厂子校,,21,21,34,3,20,34,,65,63,8,14,5,5,0.4,0.6
2024-11-04T2200,2635A,107.0154,33.0706,汉中市,市监测站,颗粒物(PM10),52,53,53,30,29,28,,53,47,26,22,9,11,0.8,0.9
2024-11-04T2200,2636A,107.0089,33.1138,汉中市,鑫源开发区,,32,32,52,17,32,48,,57,57,16,23,10,12,0.6,0.9
2024-11-04T2200,2637A,107.007,33.0323,汉中市,南郑大河坎水厂,,48,48,45,24,28,34,,52,48,18,23,9,9,0.7,0.8
2024-11-04T2200,1223A,120.2072,30.2111,杭州市,滨江,颗粒物(PM10),58,65,89,34,53,94,,152,141,24,52,7,7,0.8,1
2024-11-04T2200,1224A,120.0633,30.2747,杭州市,西溪,颗粒物(PM10),53,56,57,32,44,91,,163,131,29,34,6,6,0.8,0.9
2024-11-04T2200,1226A,120.3461,30.3153,杭州市,下沙,,45,45,107,22,57,75,,168,143,46,69,8,8,0.8,1.1
2024-11-04T2200,1227A,120.1269,30.2456,杭州市,卧龙桥,细颗粒物(PM2.5),73,76,66,53,49,93,,165,123,33,24,7,7,0.8,0.9
2024-11-04T2200,1228A,120.1903,30.2692,杭州市,浙江农大,细颗粒物(PM2.5),70,62,79,51,53,84,,170,148,26,45,5,5,0.9,1
2024-11-04T2200,1230A,120.1197,30.3119,杭州市,和睦小学,,46,46,70,32,46,96,,184,164,27,46,9,9,0.6,0.8
2024-11-04T2200,1231A,120.3019,30.4183,杭州市,临平镇,细颗粒物(PM2.5),57,53,103,40,82,82,,185,162,30,45,6,7,0.8,1
2024-11-04T2200,1232A,120.2697,30.1819,杭州市,城厢镇,"颗粒物(PM10),细颗粒物(PM2.5)",53,56,90,37,63,103,,180,167,24,44,6,6,0.8,1
2024-11-04T2200,1233A,120.0883,30.1808,杭州市,云栖,细颗粒物(PM2.5),88,88,64,65,44,80,,153,126,45,31,8,8,0.9,0.9
2024-11-04T2200,3557A,119.9464,30.0494,杭州市,镇二中,细颗粒物(PM2.5),78,100,67,57,43,119,,174,162,28,31,6,6,1.2,1.1
2024-11-04T2200,3558A,119.7183,30.2367,杭州市,市府大楼,细颗粒物(PM2.5),95,115,70,71,45,75,,171,144,50,33,7,7,1.1,0.9
2024-11-04T2200,3656A,120.1556,30.2864,杭州市,消防大队,颗粒物(PM10),59,68,85,41,58,98,,175,154,28,46,8,8,0.5,0.6
2024-11-04T2200,1270A,117.1959,31.7848,合肥市,明珠广场,,44,44,89,14,51,60,,128,95,26,52,8,8,0.4,0.6
2024-11-04T2200,1271A,117.3072,31.8764,合肥市,三里街,颗粒物(PM10),59,68,95,14,51,50,,110,78,23,55,5,6,0.4,0.9
2024-11-04T2200,1272A,117.2588,31.8707,合肥市,琥珀山庄,颗粒物(PM10),51,51,80,10,45,56,,117,85,30,49,10,9,0.6,0.9
2024-11-04T2200,1273A,117.1604,31.9052,合肥市,董铺水库,颗粒物(PM10),57,63,76,9,38,50,,108,78,22,42,4,4,0.4,0.5
2024-11-04T2200,1274A,117.25,31.8571,合肥市,长江中路,颗粒物(PM10),51,51,91,18,57,57,,119,87,27,49,8,8,0.4,0.7
2024-11-04T2200,1275A,117.266,31.9436,合肥市,庐阳区,颗粒物(PM10),53,56,100,14,50,52,,116,82,21,51,2,4,0.7,0.8
2024-11-04T2200,1276A,117.336,31.8586,合肥市,瑶海区,颗粒物(PM10),53,56,106,16,59,54,,115,81,25,66,5,7,0.3,0.9
2024-11-04T2200,1277A,117.3027,31.7964,合肥市,包河区,颗粒物(PM10),53,56,95,17,52,44,,109,74,36,67,5,8,0.5,0.9
2024-11-04T2200,1278A,117.2776,31.7385,合肥市,滨湖新区,颗粒物(PM10),57,63,95,14,45,55,,123,90,19,55,5,8,0.4,0.7
2024-11-04T2200,1279A,117.1318,31.8403,合肥市,高新区,颗粒物(PM10),52,53,89,17,58,49,,119,83,28,51,1,2,0.8,0.9
2024-11-04T2200,3464A,117.3803,31.9147,合肥市,高教基地,,44,44,82,8,39,53,,115,81,24,43,6,6,0.4,0.6
2024-11-04T2200,3614A,79.924,37.0877,和田地区,地区环保局,颗粒物(PM10),103,156,158,54,41,41,,90,80,49,21,6,7,0.8,0.8
2024-11-04T2200,3615A,79.9131,37.113,和田地区,市环保局,颗粒物(PM10),98,146,138,46,44,25,,89,74,64,32,9,7,1.0,1.1
2024-11-04T2200,2516A,108.2011,24.715,河池市,东仁乐园,细颗粒物(PM2.5),74,64,60,54,48,41,,92,71,20,13,5,5,0.8,0.7
2024-11-04T2200,2517A,108.0497,24.6947,河池市,市环保站,细颗粒物(PM2.5),73,62,52,53,41,22,,115,91,47,22,10,14,0.9,0.7
2024-11-04T2200,2518A,108.0983,24.6989,河池市,市疾控中心,细颗粒物(PM2.5),60,60,66,43,48,32,,104,75,48,35,11,10,0.7,0.7
2024-11-04T2200,1696A,114.6778,23.7569,河源市,源西,,35,27,34,24,23,90,,101,98,10,13,6,7,0.5,0.5
2024-11-04T2200,1697A,114.6944,23.7586,河源市,东埔,,35,34,37,24,29,96,,107,102,11,14,4,6,0.5,0.7
2024-11-04T2200,1698A,114.6892,23.7233,河源市,老城,,33,33,38,18,22,92,,106,101,9,11,4,7,0.5,0.6
2024-11-04T2200,1718A,115.4208,35.2464,菏泽市,气象局,颗粒物(PM10),53,55,86,16,38,35,,73,53,32,24,3,4,0.3,0.4
2024-11-04T2200,1719A,115.4747,35.2375,菏泽市,市政协,,45,45,85,19,38,35,,72,51,22,20,5,6,0.2,0.4
2024-11-04T2200,3374A,115.5564,35.0891,菏泽市,定陶老年大学,,48,48,80,9,34,28,,58,44,32,29,8,7,0.1,0.2
2024-11-04T2200,3647A,115.4702,35.2706,菏泽市,菏泽医专,颗粒物(PM10),54,58,84,11,33,35,,71,52,27,24,3,5,0.4,0.5
2024-11-04T2200,2514A,111.5264,24.4172,贺州市,环保小区,细颗粒物(PM2.5),78,88,68,57,53,29,,94,79,28,18,6,6,1.1,1.1
2024-11-04T2200,2515A,111.5608,24.4078,贺州市,政协大楼,细颗粒物(PM2.5),92,91,72,68,54,35,,91,77,26,19,7,7,1.1,0.9
2024-11-04T2200,3534A,111.4744,24.4553,贺州市,西湾,细颗粒物(PM2.5),74,75,59,54,55,27,,84,65,18,16,6,6,0.9,0.8
2024-11-04T2200,2385A,114.17,35.9019,鹤壁市,市监测站,颗粒物(PM10),58,65,58,18,29,4,,52,29,48,25,1,4,0.4,0.5
2024-11-04T2200,2386A,114.2956,35.7511,鹤壁市,市交警支队,颗粒物(PM10),53,56,64,14,35,4,,56,33,60,33,5,4,0.2,0.3
2024-11-04T2200,2387A,114.2878,35.7306,鹤壁市,迎宾馆,颗粒物(PM10),58,66,73,21,34,2,,59,38,59,28,2,4,0.5,0.6
2024-11-04T2200,3474A,114.2617,35.6822,鹤壁市,大新区,,37,37,55,11,31,24,,55,40,32,24,5,4,0.2,0.4
2024-11-04T2200,3596A,114.1572,35.9603,鹤壁市,南山宾馆,,38,38,47,14,30,40,,59,50,17,18,1,3,0.2,0.5
2024-11-04T2200,2244A,130.2537,47.3416,鹤岗市,哈啤分公司,,19,19,22,12,20,47,,49,43,3,7,14,14,0.4,0.4
2024-11-04T2200,2245A,130.2684,47.3086,鹤岗市,斯达机电,,23,18,29,16,22,43,,49,42,8,12,12,12,0.2,0.3
2024-11-04T2200,2246A,130.3114,47.3388,鹤岗市,东山纸板厂,,42,42,35,22,23,44,,48,42,6,13,12,12,0.3,0.5
2024-11-04T2200,2247A,130.1097,47.3382,鹤岗市,五号水库,,18,17,10,12,13,54,,60,55,5,5,8,8,0.5,0.5
2024-11-04T2200,2263A,127.4833,50.2524,黑河市,交通局,,23,16,15,16,14,38,,48,39,23,9,8,7,0.4,0.4
2024-11-04T2200,2264A,127.5144,50.2341,黑河市,环保局,,25,,10,17,15,50,,54,49,6,5,4,4,0.1,0.2
2024-11-04T2200,2265A,127.5291,50.2472,黑河市,大黑河岛,,20,,12,14,10,37,,45,37,11,10,1,2,0.5,0.5
2024-11-04T2200,1074A,115.6838,37.7541,衡水市,电机北厂,,44,44,53,23,27,33,,54,39,27,23,6,6,0.3,0.3
2024-11-04T2200,1075A,115.6303,37.7316,衡水市,市监测站,,46,46,52,10,23,13,,54,36,58,31,1,2,0.3,0.3
2024-11-04T2200,3188A,115.6683,37.7217,衡水市,市城管局,,43,43,49,13,26,10,,52,32,53,25,3,2,0.5,0.4
2024-11-04T2200,3459A,115.5989,37.5491,衡水市,地表水厂,颗粒物(PM10),58,65,56,27,24,2,,54,26,44,29,10,3,0.4,0.3
2024-11-04T2200,2456A,112.5003,26.9167,衡阳市,原169医院,细颗粒物(PM2.5),65,72,74,47,51,99,,140,120,12,17,10,8,0.6,0.6
2024-11-04T2200,2457A,112.6194,26.9258,衡阳市,衡阳化工总厂,细颗粒物(PM2.5),113,,89,85,77,126,,156,146,12,17,29,11,0.8,0.9
2024-11-04T2200,2458A,112.6211,26.8956,衡阳市,珠晖区环保局,细颗粒物(PM2.5),99,76,85,74,72,120,,152,142,32,30,24,12,0.9,1
2024-11-04T2200,2459A,112.6197,26.8733,衡阳市,市委党校,细颗粒物(PM2.5),85,85,87,63,56,137,,162,156,18,18,20,16,1.0,1.1
2024-11-04T2200,2460A,112.6006,26.8919,衡阳市,市监测站,细颗粒物(PM2.5),84,85,85,62,66,140,,164,156,17,23,9,13,0.9,1
2024-11-04T2200,2461A,112.5664,26.9056,衡阳市,真空机电公司,细颗粒物(PM2.5),80,81,80,59,65,145,,162,158,13,26,7,9,0.9,1
2024-11-04T2200,3399A,112.6703,26.882,衡阳市,师范学院,细颗粒物(PM2.5),95,103,89,71,64,123,,162,152,22,18,16,14,1.0,1
2024-11-04T2200,2608A,103.3772,23.3993,红河哈尼族彝族自治州,污水处理厂,细颗粒物(PM2.5),52,48,45,36,35,74,,104,92,8,8,9,8,0.5,0.5
2024-11-04T2200,2609A,103.3861,23.35,红河哈尼族彝族自治州,监测站,细颗粒物(PM2.5),53,46,55,37,43,80,,108,96,10,11,6,7,0.6,0.6
2024-11-04T2200,3038A,103.3758,23.368,红河哈尼族彝族自治州,州图书馆,细颗粒物(PM2.5),64,,40,46,33,74,,95,85,5,7,8,9,0.4,0.4
2024-11-04T2200,1090A,111.6507,40.7517,呼和浩特市,呼市一监,颗粒物(PM10),56,61,20,29,7,10,,50,42,51,19,8,8,0.5,0.4
2024-11-04T2200,1091A,111.6572,40.8033,呼和浩特市,小召,,46,46,24,19,6,10,,55,34,64,26,12,10,0.5,0.3
2024-11-04T2200,1094A,111.7516,40.8369,呼和浩特市,如意水处理厂,,48,48,16,16,5,2,,45,26,54,25,4,4,0.5,0.3
2024-11-04T2200,1095A,111.7276,40.8062,呼和浩特市,二十九中,颗粒物(PM10),57,64,21,24,6,5,,49,32,63,24,9,7,0.8,0.5
2024-11-04T2200,1096A,111.5512,40.7866,呼和浩特市,工大金川校区,颗粒物(PM10),53,56,25,12,5,4,,47,32,57,27,6,6,0.5,0.4
2024-11-04T2200,1097A,111.717,40.7612,呼和浩特市,化肥厂生活区,颗粒物(PM10),62,73,18,31,7,12,,49,35,61,23,12,9,0.8,0.3
2024-11-04T2200,3698A,111.5968,40.8178,呼和浩特市,红旗小学,,36,36,23,11,6,14,,43,29,53,31,7,7,0.5,0.4
2024-11-04T2200,3699A,111.6518,40.8389,呼和浩特市,海东办,颗粒物(PM10),52,53,24,22,7,4,,46,27,62,29,8,8,0.8,0.5
2024-11-04T2200,2192A,119.7594,49.2261,呼伦贝尔市,区环保局,,25,25,25,11,12,36,,47,40,13,9,6,6,0.5,0.5
2024-11-04T2200,3061A,119.7512,49.1577,呼伦贝尔市,国华电力东,,29,26,19,20,14,43,,50,46,7,5,5,5,0.4,0.4
2024-11-04T2200,1250A,120.0751,30.8669,湖州市,城西水厂,,33,27,78,14,52,105,,180,151,14,46,6,8,0.6,0.8
2024-11-04T2200,2873A,120.0875,30.8955,湖州市,仁皇山新区,,34,24,69,16,55,107,,191,161,15,42,6,7,0.8,1
2024-11-04T2200,2907A,120.1844,30.8596,湖州市,吴兴区站,,29,26,83,14,63,90,,172,142,13,42,7,8,0.7,1
2024-11-04T2200,3562A,120.4148,30.8538,湖州市,南浔区站,,28,25,84,15,66,87,,150,129,20,41,4,5,0.5,0.9
2024-11-04T2200,1607A,120.9092,40.7136,葫芦岛市,龙港区,,41,41,34,18,8,20,,62,43,43,17,25,17,0.5,0.4
2024-11-04T2200,1608A,120.8392,40.7514,葫芦岛市,化工街,颗粒物(PM10),122,193,56,88,17,11,,59,31,61,22,58,18,0.9,0.2
2024-11-04T2200,1609A,120.8341,40.7073,葫芦岛市,新区,细颗粒物(PM2.5),139,127,38,106,11,9,,61,34,64,22,21,13,1.0,0.4
2024-11-04T2200,1610A,120.8695,40.7677,葫芦岛市,东城区,"颗粒物(PM10),细颗粒物(PM2.5)",89,127,39,66,13,12,,61,30,41,18,86,15,1.2,0.5
2024-11-04T2200,2482A,109.5981,27.5721,怀化市,林科所,,48,41,44,33,35,122,,135,126,10,12,11,17,1.1,1.1
2024-11-04T2200,2483A,109.9453,27.5444,怀化市,河西地税局,细颗粒物(PM2.5),59,61,59,42,42,106,,134,122,17,17,10,11,0.6,0.6
2024-11-04T2200,2484A,109.9781,27.5342,怀化市,市四医院,细颗粒物(PM2.5),57,61,65,40,43,102,,135,121,14,19,17,15,0.6,0.7
2024-11-04T2200,2485A,109.9972,27.5578,怀化市,监测楼,"颗粒物(PM10),细颗粒物(PM2.5)",59,67,66,42,38,90,,135,118,18,22,15,10,0.6,0.6
2024-11-04T2200,2486A,110.0394,27.583,怀化市,市委党校,细颗粒物(PM2.5),62,66,72,44,41,92,,131,114,23,25,49,20,0.7,0.6
2024-11-04T2200,1210A,119.036,33.5981,淮安市,钵池山,,44,44,81,18,57,52,,75,65,27,33,5,7,0.4,0.8
2024-11-04T2200,1211A,119.007,33.575,淮安市,北京南路,颗粒物(PM10),54,58,100,14,53,54,,75,66,25,40,7,8,0.2,0.5
2024-11-04T2200,1212A,118.989,33.6067,淮安市,市监测站,,48,48,76,9,53,58,,76,67,22,31,8,10,0.5,0.7
2024-11-04T2200,1213A,119.135,33.5039,淮安市,楚州区监测站,颗粒物(PM10),52,54,87,3,48,52,,74,63,23,43,7,7,0.4,0.6
2024-11-04T2200,1214A,119.0186,33.6297,淮安市,淮阴区监测站,颗粒物(PM10),54,58,91,22,60,53,,74,63,28,42,5,9,0.5,0.6
2024-11-04T2200,3426A,118.8755,33.2894,淮安市,新华书店,颗粒物(PM10),57,64,79,8,35,49,,78,63,31,37,8,7,0.6,0.6
2024-11-04T2200,2282A,116.8004,33.975,淮北市,监测站,颗粒物(PM10),51,52,93,10,58,33,,68,58,30,31,5,4,0.4,0.6
2024-11-04T2200,2283A,116.8091,33.9007,淮北市,烈山区政府,颗粒物(PM10),60,70,95,13,60,38,,79,63,33,37,4,4,0.2,0.4
2024-11-04T2200,3330A,116.8873,33.9836,淮北市,杜集区检察院,颗粒物(PM10),57,63,100,10,59,30,,76,59,30,33,3,4,0.3,0.6
2024-11-04T2200,4017A,116.7923,33.9535,淮北市,市博物馆,颗粒物(PM10),52,54,92,3,53,37,,75,60,30,40,6,6,0.6,1
2024-11-04T2200,2277A,116.8305,32.7727,淮南市,潘集区政府,颗粒物(PM10),74,97,136,45,86,40,,74,56,35,46,8,12,0.3,0.6
2024-11-04T2200,2278A,117.0067,32.6524,淮南市,师范学院,颗粒物(PM10),65,80,112,29,69,47,,81,66,39,48,11,12,0.3,0.6
2024-11-04T2200,2279A,116.8569,32.5951,淮南市,谢家集区政府,颗粒物(PM10),72,94,99,39,56,38,,99,60,30,26,11,13,0.5,0.6
2024-11-04T2200,2280A,116.8281,32.633,淮南市,八公山区政府,颗粒物(PM10),76,101,101,41,57,37,,139,65,35,23,10,12,0.4,0.5
2024-11-04T2200,2281A,116.6325,32.6201,淮南市,焦岗湖风景区管理处,颗粒物(PM10),62,73,96,35,58,30,,66,47,39,64,4,6,0.2,0.3
2024-11-04T2200,2894A,117.0566,32.6531,淮南市,经济技术开发区消防队,颗粒物(PM10),68,85,120,38,72,32,,78,59,56,46,6,8,0.4,0.7
2024-11-04T2200,3329A,117.0108,32.5893,淮南市,山南新区,颗粒物(PM10),68,86,95,25,52,65,,119,73,22,24,3,5,0.3,0.6
2024-11-04T2200,2446A,114.9028,30.4742,黄冈市,职工中心,细颗粒物(PM2.5),119,121,104,90,79,112,,144,137,21,30,10,10,0.8,0.8
2024-11-04T2200,2929A,114.8858,30.4519,黄冈市,红卫路,细颗粒物(PM2.5),118,118,98,89,75,115,,145,139,22,31,8,9,0.8,0.8
2024-11-04T2200,3398A,114.9136,30.4445,黄冈市,市林业局,细颗粒物(PM2.5),112,132,117,84,76,118,,150,144,24,30,9,10,0.7,0.7
2024-11-04T2200,2672A,102.0199,35.5102,黄南藏族自治州,同仁县隆务镇,,33,33,45,10,23,72,,86,81,2,6,8,9,0.4,0.6
2024-11-04T2200,2295A,118.2903,29.6963,黄山市,延安路89号,细颗粒物(PM2.5),72,84,43,52,20,157,,134,134,11,11,9,7,0.6,0.4
2024-11-04T2200,2296A,118.327,29.7178,黄山市,黄山东路89号,细颗粒物(PM2.5),78,83,47,57,25,150,,134,132,12,11,7,6,0.6,0.4
2024-11-04T2200,2297A,118.1371,30.2756,黄山市,黄山区政府5号楼,细颗粒物(PM2.5),64,64,41,46,28,89,,139,118,12,10,7,8,0.6,0.5
2024-11-04T2200,2423A,115.0601,30.2313,黄石市,沈家营,细颗粒物(PM2.5),75,78,87,55,55,111,,152,141,28,28,6,10,0.7,0.8
2024-11-04T2200,2424A,115.0817,30.2006,黄石市,陈家湾,细颗粒物(PM2.5),84,73,85,62,67,100,,147,131,25,27,9,15,0.6,0.6
2024-11-04T2200,2426A,114.8988,30.2019,黄石市,铁山,细颗粒物(PM2.5),98,80,84,73,76,142,,157,148,14,26,9,11,0.9,1.3
2024-11-04T2200,2427A,115.0307,30.2092,黄石市,团城山,细颗粒物(PM2.5),84,86,98,62,66,98,,153,139,30,32,6,9,0.8,0.9
2024-11-04T2200,3149A,115.0235,30.1578,黄石市,笔架山北路,细颗粒物(PM2.5),75,62,83,55,62,120,,168,152,25,31,8,14,0.7,1
2024-11-04T2200,1392A,114.4183,23.0528,惠州市,河南岸金山湖子站,,43,43,45,26,27,87,,112,100,11,13,9,8,0.7,0.7
2024-11-04T2200,1393A,114.4053,23.0822,惠州市,下埔横江三路子站,,44,44,47,28,28,89,,114,103,12,19,7,7,0.8,0.8
2024-11-04T2200,1394A,114.4103,23.1142,惠州市,江北云山西路子站,,48,48,49,28,28,90,,122,109,12,20,9,8,0.6,0.7
2024-11-04T2200,1395A,114.4645,22.7833,惠州市,惠阳区承修路船湖子站,,46,46,51,18,24,101,,133,129,12,14,8,8,0.5,0.5
2024-11-04T2200,1396A,114.5317,22.7422,惠州市,大亚湾管委会子站,,46,46,50,18,26,108,,166,155,17,20,11,12,0.7,0.7
2024-11-04T2200,3314A,114.4338,22.8134,惠州市,惠阳秋长,,35,34,36,21,24,111,,132,126,19,17,7,7,0.6,0.6
2024-11-04T2200,3452A,114.6517,22.775,惠州市,大亚湾霞涌,,43,43,40,20,19,74,,162,144,21,15,6,7,0.4,0.4
2024-11-04T2200,2240A,130.9762,45.3001,鸡西市,环保局,,39,39,32,26,24,41,,51,48,5,7,6,6,0.2,0.2
2024-11-04T2200,2243A,130.9429,45.3039,鸡西市,第一中学,,42,42,33,27,24,45,,57,54,11,10,6,5,0.3,0.3
2024-11-04T2200,3707A,131.0207,45.3073,鸡西市,欧美日汽修厂,,50,46,36,35,32,36,,54,48,20,16,9,8,0.2,0.2
2024-11-04T2200,3709A,130.9967,45.3106,鸡西市,市政设施管理处,,46,46,38,31,28,28,,47,38,24,21,6,6,0.3,0.4
2024-11-04T2200,2367A,114.9754,27.0803,吉安市,红声器材厂,细颗粒物(PM2.5),78,85,75,57,46,40,,93,84,42,33,15,16,0.8,0.7
2024-11-04T2200,2368A,114.9658,27.0999,吉安市,市森林工业局,细颗粒物(PM2.5),73,70,66,53,46,56,,97,90,38,31,14,19,0.9,0.8
2024-11-04T2200,2369A,114.99,27.1312,吉安市,市环境监测站,细颗粒物(PM2.5),69,72,63,50,42,62,,96,90,35,31,20,20,0.9,0.8
2024-11-04T2200,2370A,115.0093,27.0968,吉安市,青原区法院,细颗粒物(PM2.5),78,75,70,57,48,18,,88,70,54,41,12,16,0.7,0.7
2024-11-04T2200,1772A,126.54,43.8622,吉林市,哈达湾,,32,30,36,22,27,27,,56,44,28,20,8,9,0.6,0.5
2024-11-04T2200,1773A,126.5844,43.8358,吉林市,东局子,,38,37,38,26,35,20,,55,37,34,23,6,6,0.8,0.6
2024-11-04T2200,1774A,126.5052,43.8245,吉林市,电力学院,细颗粒物(PM2.5),53,44,46,37,42,10,,58,32,34,20,6,6,1.0,0.7
2024-11-04T2200,1775A,126.6133,43.8972,吉林市,江北,颗粒物(PM10),51,52,44,31,35,12,,56,32,45,22,8,9,0.9,0.6
2024-11-04T2200,1776A,126.555,43.8306,吉林市,江南公园,,42,34,36,29,33,24,,55,40,29,19,8,8,0.6,0.7
2024-11-04T2200,1778A,126.7061,43.7133,吉林市,丰满,,17,8,33,8,35,52,,58,54,6,12,7,8,0.6,0.6
2024-11-04T2200,2868A,126.4739,43.953,吉林市,九站,,17,17,34,10,27,32,,54,35,28,23,6,10,0.5,0.6
2024-11-04T2200,1299A,116.9862,36.6114,济南市,科干所,,41,41,53,12,14,21,,58,41,51,33,7,7,0.7,0.7
2024-11-04T2200,1300A,116.9376,36.665,济南市,农科所,,46,46,63,7,15,8,,57,34,64,35,5,5,0.6,0.7
2024-11-04T2200,1301A,117.1265,36.6734,济南市,开发区,,42,42,57,15,22,22,,58,38,51,32,6,5,0.5,0.5
2024-11-04T2200,1303A,117.0624,36.6868,济南市,省种子仓库,,46,46,64,12,21,24,,56,36,40,27,4,3,0.4,0.4
2024-11-04T2200,1304A,116.9489,36.6447,济南市,机床二厂,,46,46,61,12,15,16,,62,39,55,31,5,4,0.5,0.4
2024-11-04T2200,1305A,117.0495,36.663,济南市,市监测站,,42,42,57,10,20,32,,58,42,42,31,6,5,0.7,0.6
2024-11-04T2200,1306A,116.7675,36.5484,济南市,长清党校,颗粒物(PM10),57,63,65,12,22,7,,60,38,69,36,7,6,0.7,0.7
2024-11-04T2200,1616A,117.6795,36.229,济南市,技术学院,,41,41,50,14,20,28,,64,52,45,25,10,8,0.7,0.7
2024-11-04T2200,1961A,117.532,36.6868,济南市,东山小学,,46,46,60,17,16,13,,56,39,53,27,6,8,0.7,0.7
2024-11-04T2200,3059A,117.7161,36.2049,济南市,泰兴公司,,36,36,53,12,20,40,,66,55,30,25,10,8,0.3,0.3
2024-11-04T2200,3064A,117.6867,36.2171,济南市,莱芜战役纪念馆,颗粒物(PM10),56,61,58,12,18,26,,66,55,57,30,9,8,0.5,0.4
2024-11-04T2200,3494A,117.1673,36.9782,济南市,济阳区政府,,46,46,48,20,12,12,,52,33,46,23,5,6,0.4,0.4
2024-11-04T2200,3495A,117.1171,36.63,济南市,锦屏中学,,27,27,43,7,15,20,,62,45,43,29,4,5,0.5,0.4
2024-11-04T2200,3682A,116.9814,36.6819,济南市,济南四建,,39,39,53,15,15,15,,54,30,53,33,4,3,0.6,0.6
2024-11-04T2200,1653A,116.6251,35.4302,济宁市,火炬城,,35,35,62,14,35,29,,64,47,33,29,8,9,0.4,0.6
2024-11-04T2200,1655A,116.5491,35.4042,济宁市,电化厂,,49,49,84,9,41,28,,59,42,35,37,7,8,0.7,0.7
2024-11-04T2200,3500A,116.5814,35.3707,济宁市,北湖一中,,42,42,62,14,38,33,,65,48,32,28,3,5,0.5,0.5
2024-11-04T2200,3501A,116.8249,35.5593,济宁市,服务中心,,50,50,73,16,36,30,,62,44,29,43,10,8,0.5,0.5
2024-11-04T2200,3678A,116.5907,35.4054,济宁市,市第七中学,,41,41,64,14,37,34,,66,50,31,28,4,4,0.5,0.6
2024-11-04T2200,2255A,130.2751,46.8028,佳木斯市,佳纺,,45,40,39,31,27,37,,48,35,19,21,7,8,0.6,0.6
2024-11-04T2200,2256A,130.3995,46.8307,佳木斯市,发电厂,,27,27,30,17,25,38,,50,41,20,14,8,5,0.6,0.6
2024-11-04T2200,2257A,130.3258,46.7975,佳木斯市,环保局,细颗粒物(PM2.5),54,56,35,38,24,24,,47,28,30,20,10,9,0.5,0.5
2024-11-04T2200,2258A,130.3648,46.8032,佳木斯市,十一中,,39,34,31,27,24,37,,50,40,25,18,7,6,0.5,0.5
2024-11-04T2200,2259A,130.3794,46.7588,佳木斯市,四丰,,,55,33,,62,48,,48,44,,,1,1,0.2,0.2
2024-11-04T2200,1252A,120.7436,30.778,嘉兴市,清河小学,,33,33,66,12,44,85,,150,128,24,46,8,9,0.2,0.5
2024-11-04T2200,1253A,120.726,30.7478,嘉兴市,嘉兴学院,,32,30,68,22,68,86,,148,128,18,44,5,6,0.7,1
2024-11-04T2200,2872A,120.7846,30.7525,嘉兴市,南湖区残联,,40,40,72,19,60,93,,159,140,23,42,7,7,0.5,0.8
2024-11-04T2200,3407A,120.6916,30.7739,嘉兴市,秀洲住建,,28,28,58,17,44,85,,64,64,18,37,8,9,0.6,0.9
2024-11-04T2200,1945A,98.2908,39.7711,嘉峪关市,气象局,颗粒物(PM10),67,83,66,27,21,59,,96,86,28,23,12,17,0.5,0.4
2024-11-04T2200,2884A,98.2672,39.7978,嘉峪关市,酒钢宾馆,颗粒物(PM10),62,73,67,24,22,78,,98,90,30,27,34,32,0.6,0.5
2024-11-04T2200,3248A,98.2643,39.7724,嘉峪关市,雄关区,颗粒物(PM10),63,76,62,29,22,61,,99,89,48,31,12,15,0.7,0.4
2024-11-04T2200,1383A,113.1064,22.6058,江门市,北街,颗粒物(PM10),52,53,52,31,37,74,,130,111,25,30,9,9,0.6,0.7
2024-11-04T2200,1384A,113.0731,22.5835,江门市,西区,颗粒物(PM10),57,64,57,35,33,65,,124,103,29,32,10,10,0.6,0.6
2024-11-04T2200,1385A,113.0219,22.5311,江门市,圭峰西,,50,46,46,35,35,73,,132,113,23,24,7,7,0.8,0.8
2024-11-04T2200,1386A,113.0828,22.5947,江门市,东湖,颗粒物(PM10),51,51,55,29,29,69,,122,104,23,27,10,10,0.6,0.6
2024-11-04T2200,3311A,113.1075,22.5647,江门市,江海富民,颗粒物(PM10),52,54,62,29,31,70,,133,116,26,30,10,10,0.6,0.6
2024-11-04T2200,3449A,113.05,22.4667,江门市,新会银湖,细颗粒物(PM2.5),57,52,50,40,38,68,,132,115,24,28,9,8,0.5,0.5
2024-11-04T2200,1828A,113.227,35.2125,焦作市,市环保局,颗粒物(PM10),53,55,59,18,22,28,,59,41,37,24,5,4,0.1,0.3
2024-11-04T2200,1830A,113.1992,35.2590,焦作市,影视城,,42,42,43,26,31,46,,74,57,21,18,6,6,0.4,0.5
2024-11-04T2200,3169A,113.2725,35.2067,焦作市,太极体育中心,颗粒物(PM10),52,53,60,18,21,25,,57,40,39,26,6,7,0.4,0.5
2024-11-04T2200,3335A,113.3137,35.2641,焦作市,马村街道办,颗粒物(PM10),56,61,54,14,20,20,,60,40,34,21,6,5,0.2,0.2
2024-11-04T2200,3336A,113.2465,35.2373,焦作市,焦作技师学院,,50,50,57,14,19,30,,60,44,31,20,6,5,0.4,0.4
2024-11-04T2200,3477A,113.1656,35.2539,焦作市,中站许衡医院,,48,48,52,22,27,18,,62,42,35,15,5,5,0.2,0.3
2024-11-04T2200,3981A,113.2449,35.1803,焦作市,原李万街道办,颗粒物(PM10),56,61,68,21,17,22,,56,41,33,19,9,6,0.3,0.4
2024-11-04T2200,1708A,116.3701,23.5345,揭阳市,新兴,,40,36,56,28,36,105,,159,130,17,24,8,10,0.7,0.7
2024-11-04T2200,1709A,116.3264,23.5443,揭阳市,西马,,44,44,61,19,36,111,,175,144,11,18,8,10,0.8,0.8
2024-11-04T2200,1710A,116.3611,23.5626,揭阳市,东兴,颗粒物(PM10),51,52,62,23,34,104,,168,140,14,18,10,11,0.8,0.9
2024-11-04T2200,1711A,116.4151,23.5294,揭阳市,渔湖,,45,45,56,24,27,103,,162,135,17,20,8,10,0.6,0.7
2024-11-04T2200,3320A,116.403,23.5699,揭阳市,曲溪,,48,48,56,32,33,103,,169,138,17,22,4,8,0.7,0.8
2024-11-04T2200,1944A,102.1692,38.5167,金昌市,天庆家园,,50,50,66,28,34,39,,98,87,44,24,13,15,0.8,0.8
2024-11-04T2200,3170A,102.1864,38.5253,金昌市,市委党校,颗粒物(PM10),69,88,86,33,35,53,,101,93,45,26,7,11,0.9,0.7
2024-11-04T2200,4022A,102.1647,38.5371,金昌市,金川区人防中心,"颗粒物(PM10),细颗粒物(PM2.5)",53,56,84,37,29,35,,97,87,53,21,9,12,0.8,0.7
2024-11-04T2200,1262A,119.647,29.077,金华市,十五中,细颗粒物(PM2.5),113,112,95,85,70,67,,122,90,44,52,4,4,1.3,1.1
2024-11-04T2200,1263A,119.686,29.1029,金华市,监测站,细颗粒物(PM2.5),130,124,86,99,61,42,,135,94,58,43,4,4,1.2,0.9
2024-11-04T2200,3659A,119.656,29.1131,金华市,气象局,细颗粒物(PM2.5),105,130,100,79,61,41,,114,76,63,65,5,5,1.5,1.3
2024-11-04T2200,1767A,121.1115,41.0879,锦州市,南山,细颗粒物(PM2.5),92,100,25,68,8,13,,59,40,57,17,12,12,1.6,0.4
2024-11-04T2200,1768A,121.0533,40.8434,锦州市,开发区,颗粒物(PM10),113,175,45,54,14,10,,58,38,82,31,37,14,1.1,0.7
2024-11-04T2200,1769A,121.1836,41.1119,锦州市,百股街道,细颗粒物(PM2.5),64,54,24,46,8,7,,57,35,45,15,10,10,1.2,0.6
2024-11-04T2200,1770A,121.1178,41.1222,锦州市,天安街道,颗粒物(PM10),64,77,28,36,11,12,,56,33,46,18,15,10,1.5,0.6
2024-11-04T2200,1771A,121.1303,41.1386,锦州市,北湖公园,,46,38,23,32,11,13,,58,33,45,17,12,10,0.8,0.5
2024-11-04T2200,2160A,112.85,35.5051,晋城市,自来水公司,,47,47,50,22,26,41,,70,60,34,34,7,8,0.5,0.8
2024-11-04T2200,2161A,112.8318,35.4936,晋城市,白云商贸,颗粒物(PM10),54,57,63,12,24,39,,69,58,33,32,6,6,0.5,0.9
2024-11-04T2200,2162A,112.8508,35.4887,晋城市,市环保局,,48,48,60,19,27,37,,69,57,33,30,8,8,0.6,0.9
2024-11-04T2200,2163A,112.8676,35.4897,晋城市,技术学院,,36,36,53,7,21,32,,74,56,42,35,6,7,0.6,1
2024-11-04T2200,2165A,112.8453,35.546,晋城市,白马寺,颗粒物(PM10),51,52,48,19,25,37,,69,59,30,22,12,15,0.6,1
2024-11-04T2200,3620A,112.8271,35.4828,晋城市,泽州一中,,38,38,56,14,25,39,,68,57,31,25,7,8,0.6,1
2024-11-04T2200,2171A,112.7532,37.6945,晋中市,锦纶小区,颗粒物(PM10),53,56,47,7,12,36,,66,50,41,42,6,8,0.2,0.3
2024-11-04T2200,2173A,112.7249,37.7067,晋中市,南都小区,颗粒物(PM10),51,52,45,21,18,16,,66,48,61,42,10,8,0.2,0.2
2024-11-04T2200,2174A,112.6991,37.6982,晋中市,榆次区政府,,48,48,52,26,19,20,,68,49,55,43,10,8,0.3,0.4
2024-11-04T2200,2865A,112.7195,37.6828,晋中市,榆次三中,,46,46,48,3,10,33,,70,53,36,34,8,9,0.4,0.4
2024-11-04T2200,2439A,112.2014,31.0481,荆门市,竹园小学,颗粒物(PM10),75,100,86,51,49,71,,103,94,26,26,11,13,0.6,0.7
2024-11-04T2200,2440A,112.1969,30.9891,荆门市,掇刀,颗粒物(PM10),75,99,77,50,49,82,,107,100,23,26,5,7,0.6,0.6
2024-11-04T2200,2441A,112.2213,31.0386,荆门市,石化一小,颗粒物(PM10),77,104,93,55,54,75,,104,97,24,25,11,14,0.5,0.6
2024-11-04T2200,3012A,112.1849,31.0362,荆门市,西山林语,颗粒物(PM10),73,96,77,46,49,81,,106,101,24,23,7,9,0.5,0.5
2024-11-04T2200,3547A,112.1632,31.0138,荆门市,龙泉中学南校,细颗粒物(PM2.5),85,96,74,63,44,83,,108,102,21,20,10,11,0.5,0.5
2024-11-04T2200,1844A,112.2494,30.3197,荆州市,市图书馆,细颗粒物(PM2.5),94,80,72,70,52,76,,106,96,25,39,7,8,0.8,0.9
2024-11-04T2200,1845A,112.2008,30.3544,荆州市,市委党校,细颗粒物(PM2.5),110,90,74,83,51,79,,113,104,25,29,8,9,0.7,0.8
2024-11-04T2200,3194A,112.2747,30.3122,荆州市,管委会,细颗粒物(PM2.5),78,75,74,57,55,80,,110,101,23,38,12,11,0.8,0.8
2024-11-04T2200,3548A,112.1655,30.3364,荆州市,学苑路,细颗粒物(PM2.5),90,108,83,67,65,80,,113,105,22,24,9,11,0.8,0.8
2024-11-04T2200,2343A,117.2117,29.2933,景德镇市,老干部活动中心,,50,42,35,35,22,107,,97,96,19,18,8,8,0.3,0.3
2024-11-04T2200,2344A,117.1894,29.2789,景德镇市,兽医站,颗粒物(PM10),56,62,41,31,19,115,,95,93,12,14,7,7,0.5,0.4
2024-11-04T2200,2345A,117.1547,29.2617,景德镇市,台达陶瓷,颗粒物(PM10),52,53,43,34,23,113,,83,80,8,20,6,22,0.5,0.5
2024-11-04T2200,2346A,117.2461,29.2956,景德镇市,陶研所,颗粒物(PM10),51,52,36,34,20,51,,88,73,24,19,7,7,0.3,0.2
2024-11-04T2200,1803A,115.9872,29.6815,九江市,十里,细颗粒物(PM2.5),90,89,82,67,57,155,,171,167,23,42,7,10,0.7,0.8
2024-11-04T2200,1804A,115.9584,29.7046,九江市,茅山头,细颗粒物(PM2.5),75,92,79,55,55,142,,156,153,18,36,10,14,0.8,0.9
2024-11-04T2200,1805A,115.9877,29.7295,九江市,西园,细颗粒物(PM2.5),84,84,85,62,58,152,,166,161,13,38,8,17,0.6,0.7
2024-11-04T2200,1806A,116.0172,29.6547,九江市,五七二七厂,细颗粒物(PM2.5),97,100,71,72,54,142,,153,149,18,21,12,12,0.7,0.8
2024-11-04T2200,1808A,115.9114,29.6038,九江市,综合工业园,细颗粒物(PM2.5),112,87,85,84,70,163,,166,165,14,39,18,24,0.7,0.8
2024-11-04T2200,1809A,116.0721,29.7535,九江市,石化总厂,细颗粒物(PM2.5),84,106,102,62,69,139,,152,148,19,48,9,17,0.8,0.9
2024-11-04T2200,1810A,115.9773,29.5698,九江市,庐山气象台,细颗粒物(PM2.5),114,,47,86,52,172,,174,173,14,10,6,12,1.4,1
2024-11-04T2200,3190A,116.0254,29.6994,九江市,外国语学校,细颗粒物(PM2.5),89,94,84,66,59,137,,157,152,20,41,8,13,0.5,0.7
2024-11-04T2200,2658A,98.5061,39.7443,酒泉市,仓门街子站,颗粒物(PM10),84,117,68,44,28,48,,100,87,44,17,20,11,0.9,0.5
2024-11-04T2200,2659A,98.4989,39.7256,酒泉市,油田生活基地,颗粒物(PM10),95,139,77,53,33,16,,101,84,80,21,34,19,0.8,0.4
2024-11-04T2200,2698A,76.0072,39.4467,喀什地区,巡警大队,颗粒物(PM10),133,216,200,66,48,5,,84,78,120,53,10,6,2.0,1.2
2024-11-04T2200,2699A,75.9755,39.4694,喀什地区,吾办,颗粒物(PM10),119,187,190,61,67,2,,73,66,103,58,1,2,2.0,1.5
2024-11-04T2200,4027A,75.9483,39.4689,喀什地区,老干局,颗粒物(PM10),119,188,217,68,50,18,,94,88,93,50,3,3,2.1,1.6
2024-11-04T2200,1824A,114.3389,34.7781,开封市,肿瘤医院,,44,44,77,13,48,42,,61,54,27,26,4,5,0.2,0.5
2024-11-04T2200,1826A,114.2885,34.7965,开封市,世纪星幼儿园,,42,42,73,7,30,38,,62,53,24,24,3,3,0.1,0.4
2024-11-04T2200,3147A,114.3438,34.8106,开封市,龙亭公园,颗粒物(PM10),54,57,79,9,33,33,,61,50,26,23,1,3,0.3,0.5
2024-11-04T2200,3210A,114.3644,34.7964,开封市,汴京公园,,41,41,75,9,38,35,,62,51,26,23,2,4,0.1,0.4
2024-11-04T2200,3473A,114.2485,34.8306,开封市,技师学院,,47,47,57,13,17,32,,66,52,27,24,15,7,0.1,0.3
2024-11-04T2200,3592A,114.4644,34.7556,开封市,祥符区生态环境局,,41,41,60,10,34,9,,60,44,43,26,2,7,0.2,0.5
2024-11-04T2200,1951A,84.895,45.6094,克拉玛依市,长征新村,颗粒物(PM10),64,78,37,9,12,12,,63,42,40,18,6,6,0.6,0.4
2024-11-04T2200,1952A,84.8988,45.5893,克拉玛依市,南林小区,颗粒物(PM10),53,55,34,17,18,5,,65,45,59,24,4,2,0.8,0.6
2024-11-04T2200,1954A,84.905,44.3396,克拉玛依市,独山子区,,39,39,43,22,30,53,,74,68,24,20,8,9,0.5,0.5
2024-11-04T2200,1955A,85.6979,46.098,克拉玛依市,乌尔禾区商贸楼,,46,46,26,14,16,12,,68,48,40,15,4,4,0.6,0.4
2024-11-04T2200,3612A,85.1045,45.6899,克拉玛依市,白碱滩区新站,,28,28,31,8,12,20,,67,54,38,20,9,9,0.3,0.2
2024-11-04T2200,2697A,76.1454,39.7142,克孜勒苏柯尔克孜自治州,市人民政府,颗粒物(PM10),84,118,118,34,39,88,,114,109,32,14,4,11,0.4,0.4
2024-11-04T2200,3665A,76.1658,39.7157,克孜勒苏柯尔克孜自治州,克州文化中心,颗粒物(PM10),96,142,118,36,35,70,,105,99,52,20,7,15,0.6,0.4
2024-11-04T2200,1450A,102.8204,24.8886,昆明市,呈贡新区,,40,40,35,24,23,66,,93,87,20,16,4,3,0.5,0.6
2024-11-04T2200,1452A,102.7252,25.0902,昆明市,龙泉镇,,26,26,37,13,23,49,,100,88,18,18,8,7,0.7,0.7
2024-11-04T2200,1453A,102.7266,25.0375,昆明市,东风东路,,39,34,37,27,27,51,,100,82,19,24,8,7,0.7,0.7
2024-11-04T2200,1454A,102.6742,25.0669,昆明市,金鼎山,,45,45,40,15,24,56,,103,94,23,25,4,3,0.6,0.6
2024-11-04T2200,1455A,102.6644,25.0401,昆明市,碧鸡广场,,37,37,38,23,28,60,,99,86,23,23,6,5,0.5,0.5
2024-11-04T2200,3179A,102.7494,25.0119,昆明市,官渡区博物馆,,39,39,40,19,26,43,,97,76,26,29,8,7,0.5,0.6
2024-11-04T2200,3375A,102.8017,24.8336,昆明市,青年创业园,,41,41,36,27,27,18,,101,72,51,24,4,4,0.6,0.5
2024-11-04T2200,3550A,102.7997,24.9786,昆明市,昆明学院,,43,43,37,26,26,26,,101,76,41,23,9,7,0.6,0.5
2024-11-04T2200,3551A,102.5967,24.6736,昆明市,晋宁区生态环境分局,细颗粒物(PM2.5),128,117,52,97,42,40,,104,84,37,20,3,3,0.9,0.8
2024-11-04T2200,3552A,102.6678,24.9856,昆明市,云天化总部,,33,33,33,23,25,62,,109,96,27,13,6,4,0.6,0.6
2024-11-04T2200,1456A,91.1319,29.6514,拉萨市,八廓街,,31,15,19,9,8,99,,103,101,8,13,6,7,0.4,0.4
2024-11-04T2200,1457A,91.1221,29.6747,拉萨市,市环保局,,30,20,34,12,11,93,,94,,13,17,7,8,0.2,0.6
2024-11-04T2200,1458A,91.0874,29.6475,拉萨市,区监测站,,28,16,19,9,8,87,,92,91,14,18,6,6,0.4,0.4
2024-11-04T2200,1459A,91.1774,29.6541,拉萨市,西藏大学,,32,,7,6,8,100,,102,102,2,7,5,5,0.4,0.4
2024-11-04T2200,1460A,90.9798,29.6588,拉萨市,区辐射站,,27,27,34,9,12,83,,92,89,17,29,8,9,0.4,0.4
2024-11-04T2200,1461A,91.0834,29.6292,拉萨市,拉萨火车站,,26,17,16,9,8,81,,92,90,16,12,7,6,0.4,0.4
2024-11-04T2200,2520A,109.2203,23.7256,来宾市,来宾技工学校,细颗粒物(PM2.5),77,66,81,56,59,88,,130,118,17,19,4,11,0.9,1.1
2024-11-04T2200,3535A,109.1781,23.7297,来宾市,兴宾区政府,细颗粒物(PM2.5),69,62,71,50,53,72,,130,113,9,12,3,6,0.8,0.9
2024-11-04T2200,4002A,109.2416,23.7461,来宾市,中南小学,细颗粒物(PM2.5),77,57,82,56,60,91,,126,117,11,17,1,9,0.9,1.1
2024-11-04T2200,1476A,103.631,36.1031,兰州市,兰炼宾馆,细颗粒物(PM2.5),94,122,92,70,40,10,,86,61,98,53,13,18,1.4,0.7
2024-11-04T2200,1478A,103.8412,36.0726,兰州市,生物制品所,颗粒物(PM10),78,106,89,48,34,3,,53,38,82,63,11,13,0.9,0.7
2024-11-04T2200,1479A,103.831,36.0464,兰州市,铁路设计院,细颗粒物(PM2.5),89,114,88,66,46,4,,44,28,103,70,12,10,1.5,0.9
2024-11-04T2200,3186A,103.7158,36.1058,兰州市,教育港,细颗粒物(PM2.5),80,102,95,59,40,2,,87,62,94,47,13,17,1.1,0.7
2024-11-04T2200,3241A,103.7439,36.0842,兰州市,百合公园,颗粒物(PM10),71,92,82,46,32,5,,79,57,86,47,12,13,1.2,0.8
2024-11-04T2200,3242A,103.9611,35.998,兰州市,和平,颗粒物(PM10),61,72,86,32,34,37,,75,68,56,37,14,16,0.6,0.5
2024-11-04T2200,3245A,103.6633,36.533,兰州新区,新区管委会,颗粒物(PM10),62,74,70,26,27,79,,95,93,18,23,5,9,0.4,0.5
2024-11-04T2200,3246A,103.6975,36.4789,兰州新区,舟曲中学,颗粒物(PM10),52,53,75,16,27,79,,90,86,20,27,22,13,0.3,0.5
2024-11-04T2200,1067A,116.6708,39.5111,廊坊市,药材公司,颗粒物(PM10),54,58,39,37,13,4,,50,25,56,26,3,2,0.7,0.4
2024-11-04T2200,1068A,116.7214,39.5589,廊坊市,开发区,颗粒物(PM10),52,54,25,23,6,0,,47,22,50,26,3,2,0.9,0.4
2024-11-04T2200,1070A,116.7244,39.5269,廊坊市,北华航天学院,颗粒物(PM10),59,68,32,18,6,2,,50,22,41,19,4,3,0.9,0.4
2024-11-04T2200,2919A,116.7022,39.5453,廊坊市,河北工业大学,颗粒物(PM10),55,59,38,37,10,3,,51,28,59,23,4,3,0.9,0.4
2024-11-04T2200,2535A,103.7723,29.5462,乐山市,花湖湾,,34,34,29,18,17,22,,64,50,37,21,4,4,0.7,0.7
2024-11-04T2200,2536A,103.7627,29.5844,乐山市,牛耳桥,,31,31,31,17,23,15,,57,35,43,32,5,4,0.6,0.6
2024-11-04T2200,2537A,103.7508,29.6006,乐山市,市第三水厂,,29,29,31,17,24,27,,67,50,47,32,4,4,0.7,0.6
2024-11-04T2200,2538A,103.7571,29.5664,乐山市,市监测站,,42,42,37,29,28,32,,64,52,29,21,4,4,0.7,0.7
2024-11-04T2200,3361A,103.7311,29.5628,乐山市,理工大学,,32,32,32,22,26,27,,68,51,31,25,5,4,0.6,0.6
2024-11-04T2200,2598A,100.2143,26.8576,丽江市,西南郊,,25,19,28,17,16,69,,90,82,15,14,5,16,1.0,1.2
2024-11-04T2200,1267A,119.914,28.4514,丽水市,监测站大楼,细颗粒物(PM2.5),100,,44,75,31,143,,124,124,17,30,1,3,0.8,0.6
2024-11-04T2200,1268A,119.93,28.4586,丽水市,莲都小学,细颗粒物(PM2.5),102,91,54,76,35,132,,138,138,21,26,6,5,0.9,0.6
2024-11-04T2200,1269A,119.879,28.4231,丽水市,余庄前,细颗粒物(PM2.5),58,56,42,41,28,63,,106,87,17,20,5,5,0.6,0.5
2024-11-04T2200,1173A,119.176,34.5885,连云港市,市环境监测站,,29,29,95,3,41,64,,68,60,17,31,7,10,0.3,0.6
2024-11-04T2200,3000A,119.3581,34.6972,连云港市,德源药业,,39,39,72,3,29,60,,70,66,16,27,6,7,0.1,0.3
2024-11-04T2200,3007A,119.178,34.844,连云港市,新城一中,,40,40,69,3,34,52,,60,51,25,35,10,10,0.9,0.8
2024-11-04T2200,3008A,119.3608,34.7519,连云港市,胡沟管理处,,27,27,66,3,27,65,,70,68,10,16,8,10,0.1,0.3
2024-11-04T2200,3009A,119.1478,34.5911,连云港市,矿山设计院,,34,34,93,3,42,64,,70,64,15,31,7,8,0.5,0.7
2024-11-04T2200,3434A,119.2413,34.6539,连云港市,工贸学校,,34,34,56,3,36,64,,73,68,16,24,7,11,0.3,0.8
2024-11-04T2200,3664A,119.4172,34.7341,连云港市,连云街道,,19,17,51,3,27,58,,73,60,16,22,5,8,0.3,0.5
2024-11-04T2200,2571A,102.3431,27.8099,凉山彝族自治州,青龙寺,,17,9,14,3,5,52,,42,38,7,6,9,9,0.7,0.7
2024-11-04T2200,2572A,102.2721,27.8415,凉山彝族自治州,邛海宾馆,,19,11,17,7,11,58,,45,43,8,13,12,10,0.7,0.7
2024-11-04T2200,2573A,102.2625,27.898,凉山彝族自治州,西昌市政府,,17,10,18,3,11,52,,48,48,9,11,6,6,0.8,0.8
2024-11-04T2200,2574A,102.2685,27.8851,凉山彝族自治州,凉山州政府,,17,8,14,6,9,53,,51,51,9,12,8,8,0.8,0.8
2024-11-04T2200,2575A,102.237,27.8914,凉山彝族自治州,长安,,18,18,31,8,12,51,,47,47,13,17,10,10,0.5,0.6
2024-11-04T2200,2212A,123.2,41.1953,辽阳市,宏伟区,,47,47,23,21,17,8,,49,35,46,20,8,7,0.6,0.3
2024-11-04T2200,2213A,123.1683,41.2495,辽阳市,新华园,,43,43,27,29,22,10,,48,34,49,24,15,8,0.9,0.7
2024-11-04T2200,2214A,123.2354,41.2639,辽阳市,滨河路,,38,37,27,26,20,10,,51,38,45,21,14,11,0.7,0.4
2024-11-04T2200,2215A,123.149,41.2991,辽阳市,铁西工业园,,50,47,23,35,17,2,,45,23,45,19,11,10,0.6,0.4
2024-11-04T2200,2227A,125.1358,42.8845,辽源市,环保局,,20,18,31,14,21,36,,54,44,21,20,6,8,0.5,0.6
2024-11-04T2200,3239A,125.0764,42.9078,辽源市,银鹰制药,,21,21,29,10,22,26,,56,37,28,19,17,10,0.5,0.6
2024-11-04T2200,1625A,115.9848,36.4372,聊城市,区政府,,30,30,60,8,20,35,,61,43,22,22,8,8,0.5,0.5
2024-11-04T2200,2878A,116.0072,36.4343,聊城市,聊大东校,,41,41,64,11,22,34,,45,38,12,37,7,9,0.5,0.6
2024-11-04T2200,3200A,115.9819,36.4978,聊城市,监控中心,颗粒物(PM10),56,61,64,27,27,13,,57,32,57,31,7,7,0.4,0.4
2024-11-04T2200,3513A,116.0445,36.4361,聊城市,九州社区,,47,47,64,19,21,20,,56,38,40,24,9,8,0.5,0.5
2024-11-04T2200,4018A,116.0567,36.4608,聊城市,星美广场,颗粒物(PM10),60,69,76,14,20,15,,61,37,46,27,12,9,0.4,0.4
2024-11-04T2200,2632A,94.3681,29.6376,林芝市,林芝监测站,,23,13,13,8,6,73,,83,82,5,4,6,6,0.3,0.3
2024-11-04T2200,2633A,94.3616,29.6616,林芝市,林芝人民医院,,22,15,11,8,7,70,,83,82,4,3,6,6,0.5,0.4
2024-11-04T2200,2603A,100.0781,23.8982,临沧市,市环保局,,39,32,22,27,15,35,,63,55,11,10,6,7,0.6,0.5
2024-11-04T2200,2604A,100.0894,23.8822,临沧市,市气象局,,40,35,23,28,17,31,,70,57,14,11,8,8,0.7,0.6
2024-11-04T2200,1733A,111.5531,36.0783,临汾市,临钢医院,,43,43,78,19,41,11,,50,34,48,38,4,5,0.5,1.2
2024-11-04T2200,1734A,111.5028,36.0714,临汾市,技工学校,颗粒物(PM10),64,78,86,37,50,6,,56,42,66,40,6,6,0.8,1.4
2024-11-04T2200,1736A,111.5018,36.0855,临汾市,市委,颗粒物(PM10),58,66,87,20,45,4,,60,41,57,39,7,6,0.7,1.4
2024-11-04T2200,3018A,111.505,36.1014,临汾市,唐尧大酒店,颗粒物(PM10),61,71,79,23,41,6,,56,38,61,38,7,5,0.6,1.3
2024-11-04T2200,3668A,111.5036,36.0414,临汾市,城南,颗粒物(PM10),87,124,77,33,42,1,,62,38,45,33,5,6,0.6,1.3
2024-11-04T2200,2667A,103.2069,35.5993,临夏回族自治州,环保局,颗粒物(PM10),74,97,53,30,15,17,,79,60,53,24,8,6,1.4,0.7
2024-11-04T2200,2668A,103.2417,35.6057,临夏回族自治州,建设大厦,颗粒物(PM10),65,80,49,39,22,9,,81,57,52,27,4,5,1.0,0.6
2024-11-04T2200,1618A,118.3429,35.0532,临沂市,沂河小区,,31,31,68,16,32,53,,72,63,15,23,6,9,0.3,0.4
2024-11-04T2200,1619A,118.295,35.0583,临沂市,鲁南制药厂,,34,34,67,8,26,47,,71,62,20,26,4,7,0.5,0.7
2024-11-04T2200,1620A,118.2794,34.9976,临沂市,新光毛纺厂,,29,29,65,7,25,52,,69,63,22,31,4,6,0.5,0.7
2024-11-04T2200,1621A,118.3956,35.0888,临沂市,河东保险公司,,27,27,60,6,27,54,,73,62,16,21,3,5,0.5,0.6
2024-11-04T2200,3370A,118.3564,35.0215,临沂市,十里堡居委,,,19,58,3,23,,,73,66,16,26,5,6,0.2,0.4
2024-11-04T2200,3496A,118.3604,35.1084,临沂市,南坊新区,,29,29,58,7,27,50,,77,67,28,27,3,7,0.4,0.6
2024-11-04T2200,3860A,118.3920,35.0300,临沂市,皇山花园小区,,24,24,76,3,28,54,,69,59,20,29,2,4,0.3,0.4
2024-11-04T2200,1870A,109.4856,24.3895,柳州市,柳东小学,细颗粒物(PM2.5),90,88,72,67,60,89,,127,121,22,13,10,11,0.8,0.8
2024-11-04T2200,1871A,109.4157,24.3277,柳州市,环保监测站,细颗粒物(PM2.5),99,99,99,74,69,92,,122,112,27,28,11,15,0.9,1.2
2024-11-04T2200,1872A,109.389,24.341,柳州市,河西水厂,细颗粒物(PM2.5),107,148,111,80,70,34,,114,93,62,31,13,25,1.5,1.3
2024-11-04T2200,1873A,109.4311,24.2921,柳州市,市四中,细颗粒物(PM2.5),93,112,89,69,59,58,,122,103,44,26,10,13,1.3,1
2024-11-04T2200,1874A,109.4006,24.3631,柳州市,市九中,颗粒物(PM10),101,152,106,73,67,43,,128,106,68,32,8,13,1.0,0.9
2024-11-04T2200,1875A,109.4958,24.3134,柳州市,古亭山,细颗粒物(PM2.5),79,89,76,58,52,72,,119,96,30,30,11,12,1.1,1.1
2024-11-04T2200,3402A,109.5422,24.3996,柳州市,市二中,细颗粒物(PM2.5),73,72,81,53,60,82,,117,104,26,26,10,10,0.9,1
2024-11-04T2200,2307A,116.5079,31.737,六安市,监测大楼,颗粒物(PM10),53,56,87,21,62,52,,139,94,27,33,3,6,0.4,0.7
2024-11-04T2200,2308A,116.4738,31.7643,六安市,皖西学院,颗粒物(PM10),64,78,97,27,65,50,,133,92,28,32,5,5,0.5,0.7
2024-11-04T2200,2309A,116.4996,31.7905,六安市,朝阳厂,颗粒物(PM10),52,53,85,25,63,48,,134,90,27,33,2,2,0.4,0.7
2024-11-04T2200,2310A,116.5567,31.7886,六安市,开发区,颗粒物(PM10),65,79,107,32,57,48,,137,88,30,39,5,7,0.3,0.6
2024-11-04T2200,2576A,104.8,26.5892,六盘水市,窑上,,27,27,43,16,33,58,,58,58,6,8,5,5,0.6,0.6
2024-11-04T2200,2577A,104.83,26.5917,六盘水市,黄土坡,,21,18,24,13,21,65,,69,68,10,10,7,6,0.6,0.6
2024-11-04T2200,2578A,104.89,26.5939,六盘水市,水钢,,27,27,33,13,22,62,,66,66,17,16,4,5,0.6,0.6
2024-11-04T2200,2579A,104.8475,26.5894,六盘水市,民中,,,,26,,18,112,,69,69,21,16,7,7,0.5,0.5
2024-11-04T2200,2580A,104.9544,26.5506,六盘水市,双水,,21,19,32,9,21,66,,69,69,10,11,8,8,0.6,0.6
2024-11-04T2200,2336A,117.0217,25.1033,龙岩市,龙岩市监测站,,28,20,20,19,16,69,,90,83,10,11,5,8,0.5,0.5
2024-11-04T2200,2337A,117.0258,25.0661,龙岩市,闽西职业技术学院,,23,16,21,14,13,72,,89,84,3,6,3,7,0.5,0.6
2024-11-04T2200,2338A,117.0196,25.0306,龙岩市,龙岩学院,,20,14,21,14,15,60,,89,79,11,11,3,7,0.5,0.6
2024-11-04T2200,2885A,104.9339,33.3826,陇南市,滨江中学,颗粒物(PM10),55,59,54,22,19,56,,80,66,18,12,5,5,0.6,0.6
2024-11-04T2200,3247A,104.955,33.371,陇南市,市总工会,,43,43,43,7,7,57,,87,76,13,8,4,4,0.5,0.5
2024-11-04T2200,2487A,111.9589,27.8901,娄底市,电视发射台,细颗粒物(PM2.5),74,58,56,54,54,114,,152,132,14,13,8,7,1.3,1.2
2024-11-04T2200,2488A,111.9975,27.725,娄底市,市监测站,细颗粒物(PM2.5),80,87,96,59,66,131,,163,150,23,35,9,17,0.6,1.1
2024-11-04T2200,2489A,112.0194,27.7314,娄底市,市委党校,细颗粒物(PM2.5),80,75,94,59,69,134,,151,141,18,33,6,6,0.7,1.1
2024-11-04T2200,2490A,111.9561,27.7569,娄底市,涟钢,细颗粒物(PM2.5),70,78,80,51,57,110,,146,134,25,23,9,12,0.7,1.1
2024-11-04T2200,2491A,111.9892,27.7044,娄底市,市政府,细颗粒物(PM2.5),75,68,83,55,62,130,,154,147,19,22,8,8,0.8,0.9
2024-11-04T2200,1893A,105.4324,28.9634,泸州市,九狮山,,45,45,69,18,42,10,,30,25,17,17,5,5,0.3,0.5
2024-11-04T2200,1894A,105.4427,28.9063,泸州市,小市上码头,,34,34,69,21,49,35,,49,48,25,24,6,5,0.5,0.6
2024-11-04T2200,1895A,105.4241,28.8573,泸州市,兰田宪桥,,33,27,57,23,56,35,,50,48,16,18,5,5,0.5,0.7
2024-11-04T2200,1896A,105.4379,28.8833,泸州市,市环监站,,36,35,68,25,57,38,,48,47,22,22,7,6,0.5,0.6
2024-11-04T2200,3490A,105.3617,28.7703,泸州市,纳溪区环保局,,42,42,60,19,44,30,,46,41,26,27,4,4,0.3,0.6
2024-11-04T2200,2183A,111.1406,37.5211,吕梁市,环保局,颗粒物(PM10),57,64,64,14,13,7,,60,38,54,37,1,3,0.2,0.3
2024-11-04T2200,2185A,111.1297,37.5136,吕梁市,自来水公司,颗粒物(PM10),54,57,57,9,12,21,,55,44,37,35,2,2,0.4,0.1
2024-11-04T2200,2867A,111.1283,37.51,吕梁市,马茂庄小学,颗粒物(PM10),66,82,65,15,13,4,,58,36,67,44,1,3,0.3,0.4
2024-11-04T2200,1812A,112.3931,34.6516,洛阳市,市委党校,颗粒物(PM10),54,58,72,18,48,34,,62,50,34,29,2,3,0.3,0.6
2024-11-04T2200,1814A,112.4657,34.6871,洛阳市,豫西宾馆,颗粒物(PM10),55,60,80,17,42,34,,68,54,31,31,3,5,0.2,0.5
2024-11-04T2200,1815A,112.494,34.6886,洛阳市,河南林校,颗粒物(PM10),52,54,70,25,50,27,,58,42,30,28,3,4,0.2,0.5
2024-11-04T2200,1816A,112.3844,34.623,洛阳市,开发区管委会,,50,50,68,19,41,35,,67,53,26,22,3,2,0.3,0.4
2024-11-04T2200,1817A,112.4267,34.6258,洛阳市,市委新办公区,颗粒物(PM10),55,59,71,27,46,28,,60,44,31,24,3,2,0.0,0.3
2024-11-04T2200,3340A,112.6005,34.6326,洛阳市,伊滨,颗粒物(PM10),57,63,66,21,37,23,,63,45,32,24,3,4,0.1,0.4
2024-11-04T2200,3341A,112.4951,34.6332,洛阳市,中移产业园,颗粒物(PM10),59,68,65,19,39,27,,66,49,36,26,3,3,0.0,0.3
2024-11-04T2200,3593A,112.5736,34.8993,洛阳市,吉利监测站,颗粒物(PM10),51,52,56,11,22,31,,55,47,30,32,3,2,0.2,0.4
2024-11-04T2200,3635A,112.3677,34.662,洛阳市,河科大西苑校区,颗粒物(PM10),53,56,71,15,47,31,,65,52,34,31,2,3,0.4,0.7
2024-11-04T2200,3636A,112.4388,34.6781,洛阳市,英才小学,颗粒物(PM10),51,51,80,17,41,31,,61,48,30,31,2,4,0.2,0.6
2024-11-04T2200,2399A,114.051,33.5699,漯河市,三五一五工厂,颗粒物(PM10),57,63,95,20,47,46,,69,61,28,22,7,8,0.2,0.5
2024-11-04T2200,2400A,114.0055,33.5698,漯河市,漯河大学,颗粒物(PM10),58,65,96,22,47,49,,70,63,24,23,7,7,0.3,0.5
2024-11-04T2200,2401A,114.0138,33.5828,漯河市,市水利局,颗粒物(PM10),59,68,96,19,43,45,,67,59,22,20,7,8,0.6,0.7
2024-11-04T2200,2402A,114.0261,33.5698,漯河市,市广电局,颗粒物(PM10),55,59,91,18,52,50,,70,63,24,22,6,7,0.3,0.6
2024-11-04T2200,3478A,113.9749,33.5664,漯河市,市图书馆,颗粒物(PM10),51,52,90,8,42,51,,69,62,16,15,5,6,0.3,0.6
2024-11-04T2200,3479A,114.0967,33.5906,漯河市,召陵区卫健委,颗粒物(PM10),56,62,94,24,46,34,,66,55,30,22,10,10,0.3,0.5
2024-11-04T2200,1798A,118.5092,31.6837,马鞍山市,湖东路四小,,27,27,68,6,40,69,,123,92,20,41,5,7,0.6,1.3
2024-11-04T2200,1799A,118.5024,31.6449,马鞍山市,开发区,,42,42,78,7,49,68,,128,95,22,46,8,9,0.7,1.2
2024-11-04T2200,1800A,118.5228,31.7231,马鞍山市,慈湖,,26,26,81,13,51,68,,111,78,19,44,9,11,0.6,1.2
2024-11-04T2200,1802A,118.6245,31.7241,马鞍山市,濮塘,,39,39,53,6,36,70,,126,98,20,22,7,7,0.7,1.1
2024-11-04T2200,3633A,118.4918,31.6809,马鞍山市,雨山,,40,40,73,6,40,68,,118,86,16,41,5,8,0.8,1.6
2024-11-04T2200,1686A,111.0286,21.4688,茂名市,电白南海,,48,48,53,29,34,46,,72,60,15,15,8,8,0.5,0.8
2024-11-04T2200,1687A,110.9294,21.6533,茂名市,茂石化七小,,42,39,45,29,35,41,,66,52,12,14,14,16,0.8,0.9
2024-11-04T2200,1688A,110.9107,21.6687,茂名市,健康路,,45,34,37,31,28,44,,71,58,11,12,35,24,0.8,0.7
2024-11-04T2200,1689A,110.8592,21.6828,茂名市,高岭,,45,44,39,31,30,32,,59,44,18,16,31,21,0.7,0.7
2024-11-04T2200,3450A,111.01,21.5165,茂名市,电白水东,,,53,38,34,32,,,74,57,14,15,10,13,0.8,0.9
2024-11-04T2200,2539A,104.0308,30.0478,眉山市,黑龙滩水库,,28,28,36,19,29,63,,87,82,1,6,3,3,0.3,0.4
2024-11-04T2200,2540A,103.8416,30.0874,眉山市,气象局,,36,36,30,19,21,44,,80,71,29,24,7,7,0.5,0.5
2024-11-04T2200,3137A,103.8578,30.0744,眉山市,市委党校,,35,34,26,24,16,38,,77,66,35,24,6,5,0.6,0.6
2024-11-04T2200,3148A,103.8291,30.0564,眉山市,区人社局,,37,37,30,19,15,42,,79,65,31,27,4,2,0.6,0.6
2024-11-04T2200,1690A,116.1231,24.3284,梅州市,梅江月梅,,46,37,38,32,28,51,,83,70,38,26,9,9,0.6,0.6
2024-11-04T2200,1691A,116.0797,24.2719,梅州市,梅县新城,,42,42,36,28,26,78,,88,76,9,17,6,6,0.5,0.5
2024-11-04T2200,1692A,116.1248,24.2654,梅州市,环境监控中心,,36,36,40,22,27,58,,88,73,29,26,7,9,0.5,0.6
2024-11-04T2200,3315A,116.1233,24.2991,梅州市,梅龙,,39,36,36,27,23,56,,86,70,26,24,7,7,0.6,0.6
2024-11-04T2200,1878A,104.7778,31.4741,绵阳市,富乐山,,22,21,25,15,18,39,,94,78,30,13,2,2,0.5,0.4
2024-11-04T2200,1879A,104.7563,31.4535,绵阳市,市人大,,33,30,34,23,19,66,,91,84,15,19,3,3,0.4,0.3
2024-11-04T2200,1880A,104.6697,31.4668,绵阳市,高新区自来水公司,,27,27,28,14,13,56,,88,73,21,24,3,3,0.5,0.5
2024-11-04T2200,1881A,104.7287,31.5075,绵阳市,三水厂,,29,28,29,20,20,54,,96,83,25,20,5,5,0.5,0.4
2024-11-04T2200,3491A,104.69,31.5322,绵阳市,西科大附属小学,,32,32,25,22,18,37,,90,73,37,20,5,5,0.5,0.4
2024-11-04T2200,3492A,104.5648,31.5343,绵阳市,安州区旅游局,,40,40,28,19,19,34,,97,79,30,14,6,7,0.5,0.5
2024-11-04T2200,1784A,129.61,44.561,牡丹江市,环保大楼,,31,31,33,10,25,46,,50,45,9,20,4,6,0.2,0.4
2024-11-04T2200,1785A,129.6115,44.5782,牡丹江市,文化广场,,32,32,37,16,25,38,,46,38,17,24,8,9,0.4,0.5
2024-11-04T2200,1786A,129.5904,44.5963,牡丹江市,第一医院,,48,,33,33,36,42,,55,48,16,19,5,5,0.3,0.4
2024-11-04T2200,1787A,129.6364,44.6075,牡丹江市,机车工厂,,40,40,36,23,28,29,,49,39,22,22,6,6,0.3,0.4
2024-11-04T2200,1788A,129.6386,44.5462,牡丹江市,第一中学,,15,14,32,7,24,48,,54,46,11,21,4,6,0.2,0.4
2024-11-04T2200,2531A,105.0703,29.61,内江市,市监测站,,49,34,38,34,37,23,,64,49,34,23,7,7,0.6,0.6
2024-11-04T2200,2532A,105.0717,29.5947,内江市,东兴区政府,,33,33,30,23,28,30,,67,60,36,20,6,6,0.7,0.7
2024-11-04T2200,2533A,105.0653,29.5817,内江市,内江二中,,41,41,43,24,35,35,,64,56,39,28,7,7,0.6,0.6
2024-11-04T2200,2534A,105.0406,29.5822,内江市,内江日报社,,37,37,46,24,33,19,,63,52,38,26,8,8,0.6,0.5
2024-11-04T2200,2628A,92.0657,31.4846,那曲市,那曲监测站,细颗粒物(PM2.5),75,92,46,55,26,44,,89,74,32,16,12,8,1.3,0.7
2024-11-04T2200,3128A,92.0506,31.4797,那曲市,那曲会议中心,,40,40,46,18,20,68,,87,81,8,10,4,4,1.3,1.2
2024-11-04T2200,1290A,115.8931,28.6843,南昌市,省外办,细颗粒物(PM2.5),107,106,82,80,57,132,,148,147,24,31,14,15,0.8,0.9
2024-11-04T2200,1291A,115.8886,28.7003,南昌市,省林业公司,细颗粒物(PM2.5),100,102,85,75,50,131,,156,151,27,34,9,11,0.7,0.8
2024-11-04T2200,1292A,115.8126,28.7442,南昌市,林科所,细颗粒物(PM2.5),92,105,65,68,39,159,,171,169,23,26,10,10,0.7,0.7
2024-11-04T2200,1294A,115.8518,28.687,南昌市,建工学校,细颗粒物(PM2.5),83,98,77,61,42,142,,156,155,23,28,11,13,0.6,0.7
2024-11-04T2200,1295A,115.8921,28.6424,南昌市,象湖,细颗粒物(PM2.5),95,79,70,71,51,148,,170,169,25,32,11,13,0.6,0.7
2024-11-04T2200,1296A,115.7423,28.7996,南昌市,武术学校,颗粒物(PM10),77,103,51,47,23,103,,109,99,13,10,2,2,0.7,0.7
2024-11-04T2200,1298A,115.9314,28.6842,南昌市,省站,细颗粒物(PM2.5),107,106,80,80,57,126,,149,147,19,29,11,12,0.8,0.8
2024-11-04T2200,3046A,115.9084,28.6062,南昌市,机电学校,细颗粒物(PM2.5),98,117,98,73,53,135,,158,157,32,39,10,11,0.5,0.6
2024-11-04T2200,3690A,115.9721,28.7031,南昌市,外国语学校,细颗粒物(PM2.5),90,112,83,67,50,137,,156,155,23,32,9,11,0.9,0.9
2024-11-04T2200,1905A,106.056,30.8064,南充市,西山风景区,,20,19,22,14,26,57,,60,60,25,27,3,3,0.8,0.9
2024-11-04T2200,1906A,106.0789,30.8023,南充市,南充市委,,33,32,38,23,27,7,,61,48,39,21,2,2,0.5,0.5
2024-11-04T2200,1907A,106.1031,30.8217,南充市,南充炼油厂,,38,38,43,22,30,22,,58,53,35,21,2,3,0.5,0.5
2024-11-04T2200,1908A,106.1064,30.7856,南充市,高坪区监测站,,46,46,41,27,28,2,,56,44,43,24,2,3,0.6,0.4
2024-11-04T2200,1909A,106.0642,30.7636,南充市,嘉陵区环保局,,38,38,41,19,24,2,,59,47,53,29,3,3,0.6,0.5
2024-11-04T2200,1910A,106.1087,30.8388,南充市,市环境监测站,,38,35,40,26,30,44,,59,58,15,17,3,4,0.4,0.4
2024-11-04T2200,1151A,118.8086,32.1065,南京市,迈皋桥,,34,34,55,7,32,62,,96,77,22,46,4,4,0.3,0.4
2024-11-04T2200,1152A,118.7538,32.0551,南京市,草场门,,48,48,68,7,36,65,,96,80,27,57,4,6,0.3,0.7
2024-11-04T2200,1153A,118.7794,32.0745,南京市,山西路,,46,46,71,12,39,68,,100,82,14,38,4,4,0.4,0.7
2024-11-04T2200,1154A,118.7752,32.0023,南京市,中华门,,46,46,74,9,41,69,,100,81,20,52,6,8,0.4,0.8
2024-11-04T2200,1155A,118.8109,32.0309,南京市,瑞金路,,44,44,64,9,32,64,,97,78,12,32,6,7,0.6,0.7
2024-11-04T2200,1156A,118.7997,32.0754,南京市,玄武湖,,44,44,59,6,35,59,,89,73,33,62,6,6,0.5,0.8
2024-11-04T2200,1157A,118.6414,32.0931,南京市,浦口,,44,44,56,15,38,61,,92,74,18,21,11,8,1.0,0.9
2024-11-04T2200,1158A,118.7356,31.9996,南京市,奥体中心,,48,48,74,12,40,72,,107,88,22,47,8,8,0.3,0.8
2024-11-04T2200,1159A,118.9125,32.1028,南京市,仙林大学城,,48,48,60,9,34,69,,105,81,18,30,6,6,0.5,0.7
2024-11-04T2200,3422A,118.8436,31.9198,南京市,江宁彩虹桥,,47,47,58,9,33,66,,110,84,17,53,4,5,0.5,0.8
2024-11-04T2200,3423A,119.0138,31.6494,南京市,溧水永阳,,34,34,61,11,30,71,,131,99,16,38,3,4,0.4,0.7
2024-11-04T2200,3424A,118.879,31.3302,南京市,高淳老职中,,50,50,54,8,37,73,,151,118,17,25,4,5,0.5,0.8
2024-11-04T2200,3427A,118.8554,32.3578,南京市,六合雄州,,19,8,40,3,22,58,,80,70,18,22,4,4,0.6,0.6
2024-11-04T2200,1401A,108.3103,22.7881,南宁市,二十一中,,50,35,64,35,51,86,,98,96,16,25,2,7,1.1,1.1
2024-11-04T2200,1402A,108.3141,22.8528,南宁市,北湖,细颗粒物(PM2.5),52,42,65,36,50,83,,96,90,19,30,4,10,1.0,1
2024-11-04T2200,1403A,108.3206,22.8225,南宁市,市监测站,细颗粒物(PM2.5),55,,66,39,51,76,,82,79,20,28,6,10,0.9,0.9
2024-11-04T2200,1404A,108.3829,22.8037,南宁市,大自然花园,,50,45,58,35,50,73,,93,89,16,19,5,8,0.8,0.8
2024-11-04T2200,1405A,108.4394,22.7904,南宁市,仙葫,细颗粒物(PM2.5),58,,63,41,54,75,,86,82,16,20,9,8,0.7,0.7
2024-11-04T2200,1406A,108.2397,22.8467,南宁市,区农职院,,46,41,71,32,47,71,,88,85,14,25,4,12,0.8,0.9
2024-11-04T2200,1407A,108.3275,22.735,南宁市,英华嘉园,,48,,64,33,51,70,,94,90,17,22,4,9,0.8,0.8
2024-11-04T2200,1408A,108.2257,22.7757,南宁市,沙井镇街道办,细颗粒物(PM2.5),58,,83,41,62,66,,82,81,32,37,6,10,0.8,0.9
2024-11-04T2200,3401A,108.4834,22.7618,南宁市,红星社区,,45,33,56,31,53,86,,95,91,9,16,6,9,0.8,0.9
2024-11-04T2200,2332A,118.1681,26.6369,南平市,南平市监测站,,26,26,23,12,17,68,,84,78,9,12,4,4,0.7,0.7
2024-11-04T2200,2333A,118.1825,26.6489,南平市,南平铝业有限公司,,29,27,21,20,17,75,,85,82,10,14,4,3,0.4,0.5
2024-11-04T2200,2334A,118.1756,26.6272,南平市,南平七中,,29,22,23,20,16,67,,83,76,12,13,6,4,0.6,0.6
2024-11-04T2200,1168A,120.9098,31.9663,南通市,狼山街道,,39,39,53,14,32,85,,137,109,11,18,7,7,0.5,0.8
2024-11-04T2200,1169A,120.86,32.0005,南通市,虹桥,,41,41,60,13,41,82,,128,102,12,26,6,7,0.3,0.6
2024-11-04T2200,1170A,120.87,32.02,南通市,城中,,48,48,68,15,38,82,,129,104,17,28,7,8,0.5,0.8
2024-11-04T2200,1171A,120.94,31.93,南通市,星湖花园,,39,39,57,13,35,79,,132,103,16,32,5,6,0.5,0.7
2024-11-04T2200,1172A,120.81,32.0417,南通市,紫琅学院,,42,42,56,12,36,72,,120,93,16,32,3,4,0.4,0.7
2024-11-04T2200,3291A,121.067,32.062,南通市,通州监测站,,41,41,51,17,31,90,,136,111,9,15,2,2,0.4,0.7
2024-11-04T2200,3432A,120.9348,31.9883,南通市,环境教育馆,,34,34,55,16,35,79,,139,108,19,28,3,4,0.4,0.7
2024-11-04T2200,2404A,112.5224,33.0122,南阳市,瓦房庄,颗粒物(PM10),57,63,75,28,47,55,,92,69,23,25,5,5,0.5,0.7
2024-11-04T2200,2405A,112.5003,32.9735,南阳市,汉画馆,颗粒物(PM10),61,71,82,24,43,56,,92,69,24,29,8,8,0.3,0.6
2024-11-04T2200,2406A,112.5573,33.027,南阳市,气象站,颗粒物(PM10),59,68,75,19,36,56,,92,68,25,27,6,6,0.5,0.6
2024-11-04T2200,2407A,112.5481,32.9689,南阳市,理工学院,颗粒物(PM10),58,66,71,26,40,49,,89,64,23,27,5,5,0.3,0.6
2024-11-04T2200,4008A,112.5234,32.9922,南阳市,卧龙区政府,颗粒物(PM10),63,75,78,25,43,57,,92,68,25,28,5,5,0.4,0.7
2024-11-04T2200,1234A,121.8358,29.911,宁波市,区环保大楼,,39,39,64,19,36,97,,131,102,43,34,8,9,0.7,0.9
2024-11-04T2200,1235A,121.56,29.82,宁波市,万里学院,,39,37,61,25,51,122,,159,132,19,37,7,8,0.7,1
2024-11-04T2200,1236A,121.713,29.9572,宁波市,龙赛医院,,43,43,64,22,38,125,,140,121,17,46,10,10,0.7,0.9
2024-11-04T2200,1239A,121.633,29.7733,宁波市,钱湖水厂,,30,29,62,20,45,96,,150,126,27,30,10,10,0.7,0.9
2024-11-04T2200,1240A,121.5856,29.8635,宁波市,太古小学,,38,38,69,21,38,117,,149,125,15,40,9,9,1.0,1.2
2024-11-04T2200,1241A,121.524,29.8674,宁波市,市环境监测中心,,37,29,56,21,35,116,,157,131,21,37,11,13,0.9,1.1
2024-11-04T2200,2871A,121.6147,29.9017,宁波市,万里国际学校,,40,31,54,22,38,126,,152,130,21,47,8,9,0.7,0.9
2024-11-04T2200,3710A,121.5594,29.8975,宁波市,白沙活动中心,,40,32,49,19,33,125,,154,126,17,38,9,11,0.7,1
2024-11-04T2200,2341A,119.5388,26.6612,宁德市,宁德市监测站,,47,44,37,32,28,149,,147,147,14,13,2,2,0.5,0.5
2024-11-04T2200,3209A,119.5231,26.6562,宁德市,宁德一中,,50,48,38,29,28,158,,149,149,12,11,4,4,0.4,0.4
2024-11-04T2200,2618A,98.8601,25.8567,怒江傈僳族自治州,州监测站,,45,45,30,23,18,35,,73,65,25,12,6,6,0.5,0.4
2024-11-04T2200,2619A,98.8546,25.8417,怒江傈僳族自治州,泸水一中,,29,29,27,20,18,27,,63,53,24,17,8,7,0.6,0.5
2024-11-04T2200,1888A,101.6891,26.571,攀枝花市,弄弄坪,,41,41,37,19,18,26,,70,51,31,28,15,13,0.6,0.8
2024-11-04T2200,1889A,101.5769,26.5928,攀枝花市,河门口,,26,26,29,11,19,52,,79,68,20,23,9,16,0.9,1.4
2024-11-04T2200,1890A,101.7169,26.585,攀枝花市,炳草岗,细颗粒物(PM2.5),60,62,40,43,22,18,,76,59,53,29,21,10,0.9,0.8
2024-11-04T2200,1891A,101.7369,26.5008,攀枝花市,仁和,,18,18,25,11,17,29,,66,52,20,18,4,5,0.5,0.6
2024-11-04T2200,2835A,101.7227,26.567,攀枝花市,四十中小,,39,39,39,23,22,24,,83,62,23,13,17,14,0.8,0.9
2024-11-04T2200,1604A,122.0303,41.1489,盘锦市,开发区,,50,46,23,35,13,13,,60,37,47,19,20,7,0.8,0.5
2024-11-04T2200,1605A,122.0485,41.0883,盘锦市,兴隆台,,48,48,19,25,10,7,,59,35,56,26,9,9,1.1,0.5
2024-11-04T2200,1606A,121.8297,41.1028,盘锦市,新生街道,,26,22,16,18,10,15,,61,38,46,30,9,9,0.5,0.3
2024-11-04T2200,1832A,113.3257,33.742,平顶山市,新华旅馆,颗粒物(PM10),58,66,84,23,39,39,,66,54,26,17,8,9,0.2,0.4
2024-11-04T2200,1833A,113.2919,33.737,平顶山市,规划设计院,颗粒物(PM10),61,71,80,16,33,44,,73,60,28,21,7,9,0.3,0.5
2024-11-04T2200,1834A,113.182,33.774,平顶山市,平顶山工学院,颗粒物(PM10),57,63,64,17,27,36,,68,55,21,14,6,9,0.5,0.6
2024-11-04T2200,3204A,113.3025,33.73,平顶山市,规划局,颗粒物(PM10),67,83,88,22,39,43,,70,58,26,19,7,8,0.6,0.8
2024-11-04T2200,3594A,112.8867,33.9116,平顶山市,石龙区,颗粒物(PM10),63,75,80,26,30,37,,76,59,21,16,11,10,0.7,0.7
2024-11-04T2200,2656A,106.6692,35.5461,平凉市,聚贤嘉苑,颗粒物(PM10),58,66,54,38,23,15,,103,83,78,42,10,10,0.5,0.3
2024-11-04T2200,2347A,114.0997,27.5002,萍乡市,武功山,,24,24,25,8,4,53,,111,94,10,8,8,9,0.3,0.3
2024-11-04T2200,2348A,113.8385,27.6434,萍乡市,中医院,细颗粒物(PM2.5),100,111,69,75,40,23,,123,93,80,40,9,15,1.0,0.9
2024-11-04T2200,2349A,113.8493,27.6253,萍乡市,市政府车库,细颗粒物(PM2.5),88,75,59,65,46,30,,126,99,54,28,6,10,1.1,0.9
2024-11-04T2200,2350A,113.8676,27.6435,萍乡市,市环保局,细颗粒物(PM2.5),73,82,62,53,43,52,,123,107,44,27,11,15,0.7,0.7
2024-11-04T2200,2351A,113.866,27.6198,萍乡市,安源区政府,颗粒物(PM10),72,93,71,50,37,52,,124,105,25,24,13,17,0.8,1
2024-11-04T2200,2319A,119.0141,25.4325,莆田市,荔城区仓后路,,38,27,30,18,16,121,,121,116,8,8,1,1,0.5,0.6
2024-11-04T2200,2320A,119.0015,25.4553,莆田市,莆田市监测站,,41,23,26,19,15,129,,122,122,4,5,2,2,0.3,0.4
2024-11-04T2200,2321A,119.1119,25.4561,莆田市,涵江区六中,,40,32,31,17,18,127,,124,122,5,9,2,2,0.4,0.5
2024-11-04T2200,2322A,119.1013,25.3215,莆田市,秀屿区政府,,47,47,35,21,22,111,,127,118,16,15,2,4,0.6,0.7
2024-11-04T2200,2392A,115.0312,35.7636,濮阳市,环保局,,30,30,56,13,40,34,,59,48,24,16,3,3,0.3,0.5
2024-11-04T2200,2394A,115.0574,35.7609,濮阳市,油田运输公司,,39,39,71,15,39,25,,58,43,34,22,4,3,0.2,0.4
2024-11-04T2200,2395A,115.0866,35.7754,濮阳市,油田物探公司,颗粒物(PM10),56,61,77,22,41,8,,56,36,47,25,2,1,0.2,0.3
2024-11-04T2200,3021A,115,35.7668,濮阳市,濮水河管理处,颗粒物(PM10),51,51,83,27,41,3,,52,30,45,24,2,2,0.3,0.4
2024-11-04T2200,2601A,100.98,22.7633,普洱市,市环保局,,46,43,34,32,31,42,,73,60,9,7,6,6,0.5,0.6
2024-11-04T2200,2602A,100.9817,22.8322,普洱市,普洱第二中学,,46,46,39,31,18,20,,75,56,26,11,7,7,0.6,0.5
2024-11-04T2200,2262A,131.0518,45.8751,七台河市,新一中,,42,38,34,29,28,42,,59,51,18,14,11,11,1.1,1
2024-11-04T2200,3345A,131.0577,45.7879,七台河市,中波台,细颗粒物(PM2.5),70,68,38,51,30,30,,48,38,34,18,10,7,1.0,0.7
2024-11-04T2200,3637A,131.0176,45.7761,七台河市,人民广场,细颗粒物(PM2.5),127,,46,96,40,34,,48,37,31,22,8,8,1.0,0.7
2024-11-04T2200,3684A,130.8781,45.8222,七台河市,新建矿广场,细颗粒物(PM2.5),165,151,62,125,43,25,,42,30,39,26,9,9,0.9,0.6
2024-11-04T2200,1779A,123.9305,47.3636,齐齐哈尔市,安居小区,细颗粒物(PM2.5),57,60,26,40,14,15,,54,41,43,14,5,3,0.5,0.3
2024-11-04T2200,1780A,123.9488,47.3386,齐齐哈尔市,中心广场,细颗粒物(PM2.5),65,59,19,47,12,18,,49,37,43,13,7,3,0.6,0.3
2024-11-04T2200,1781A,123.9483,47.3227,齐齐哈尔市,农牧车辆厂,颗粒物(PM10),65,80,31,28,11,8,,49,34,46,14,7,4,0.7,0.4
2024-11-04T2200,1783A,123.945,47.2988,齐齐哈尔市,市环境监测站,细颗粒物(PM2.5),85,105,29,63,16,20,,53,38,41,14,8,3,0.7,0.3
2024-11-04T2200,3662A,123.6333,47.2075,齐齐哈尔市,富区青少年活动中心,,,,34,28,12,14,,47,28,42,17,9,7,0.9,0.3
2024-11-04T2200,2591A,107.9783,26.5747,黔东南苗族侗族自治州,市环境监测站,,46,41,45,32,34,110,,110,110,15,25,5,6,0.4,0.5
2024-11-04T2200,2881A,107.8908,26.5311,黔东南苗族侗族自治州,凯里学院,,43,31,37,30,32,121,,117,117,14,17,7,5,0.6,0.6
2024-11-04T2200,2593A,107.5228,26.2403,黔南布依族苗族自治州,小围寨,细颗粒物(PM2.5),79,66,42,58,35,60,,118,97,13,11,11,7,0.5,0.5
2024-11-04T2200,3538A,107.5175,26.2978,黔南布依族苗族自治州,沙坝,细颗粒物(PM2.5),77,70,49,56,35,65,,122,102,15,14,9,5,0.7,0.6
2024-11-04T2200,2589A,104.9022,25.0925,黔西南布依族苗族自治州,场坝街,,43,43,47,27,36,62,,101,92,18,17,6,9,0.5,0.5
2024-11-04T2200,2590A,104.8811,25.0992,黔西南布依族苗族自治州,坪东大道,,48,47,42,33,38,71,,99,93,11,18,4,5,0.4,0.4
2024-11-04T2200,2502A,108.6236,21.9667,钦州市,市环保站,细颗粒物(PM2.5),64,,67,46,56,84,,78,76,10,15,6,7,0.9,1.2
2024-11-04T2200,2503A,108.6549,21.9481,钦州市,沙埠小学,细颗粒物(PM2.5),59,56,74,42,56,67,,80,68,24,22,6,6,2.0,1.7
2024-11-04T2200,2504A,108.5989,21.7431,钦州市,港区一小,细颗粒物(PM2.5),58,50,77,41,61,66,,79,63,22,24,7,7,1.0,1
2024-11-04T2200,3404A,108.5959,21.9633,钦州市,北职校,细颗粒物(PM2.5),74,,64,54,66,83,,79,74,11,14,7,7,1.0,1
2024-11-04T2200,1042A,119.5134,39.8207,秦皇岛市,北戴河环保局,,35,35,24,13,8,28,,61,51,28,10,3,3,0.6,0.3
2024-11-04T2200,1043A,119.7493,40.0116,秦皇岛市,第一关,,35,33,25,15,19,0,,60,27,70,26,3,2,0.4,0.3
2024-11-04T2200,1044A,119.5897,39.9499,秦皇岛市,监测站,颗粒物(PM10),52,54,42,19,11,0,,61,35,64,14,3,2,0.6,0.3
2024-11-04T2200,1046A,119.5251,39.9041,秦皇岛市,建设大厦,,46,46,29,30,14,3,,62,36,66,18,1,3,0.4,0.2
2024-11-04T2200,3132A,119.610547,39.943889,秦皇岛市,文明里,颗粒物(PM10),58,66,39,34,20,3,,62,38,73,23,2,1,0.6,0.2
2024-11-04T2200,1307A,120.6659,36.2403,青岛市,仰口,,20,,44,12,18,61,,75,65,4,7,7,7,0.3,0.5
2024-11-04T2200,1310A,120.4134,36.0658,青岛市,市南区东部子站,,29,29,68,3,20,50,,64,57,24,27,8,7,0.5,0.5
2024-11-04T2200,1311A,120.3664,36.1032,青岛市,四方区子站,,29,29,62,9,23,31,,74,50,25,27,8,10,0.2,0.4
2024-11-04T2200,1312A,120.2994,36.054,青岛市,市南区西部子站,,20,19,55,3,18,61,,72,66,12,23,8,10,0.4,0.6
2024-11-04T2200,1313A,120.4581,36.0858,青岛市,崂山区子站,,19,14,47,7,14,59,,73,66,18,24,8,9,0.6,0.7
2024-11-04T2200,1314A,120.1983,35.9608,青岛市,黄岛区子站,,17,12,63,3,22,52,,67,53,24,34,9,8,0.5,0.7
2024-11-04T2200,1315A,120.3999,36.3083,青岛市,城阳区子站,,27,27,55,10,22,46,,74,60,23,28,9,9,0.5,0.6
2024-11-04T2200,1966A,120.0405,35.8735,青岛市,黄岛区4号,,24,24,59,3,20,50,,77,63,24,25,8,8,0.4,0.5
2024-11-04T2200,3362A,120.5014,36.4034,青岛市,即墨2号,,35,35,55,12,16,29,,66,50,34,23,8,7,0.5,0.5
2024-11-04T2200,3642A,120.3503,36.0736,青岛市,市北区南部,,30,30,57,3,18,44,,68,58,33,36,6,8,0.5,0.6
2024-11-04T2200,3643A,120.3948,36.1805,青岛市,李沧区北部,,27,27,65,14,29,39,,68,55,33,32,9,10,0.6,0.7
2024-11-04T2200,1702A,113.0426,23.691,清远市,环保大楼,,38,29,36,26,35,79,,92,90,10,10,5,7,0.8,0.8
2024-11-04T2200,1703A,113.0208,23.7106,清远市,凤城街办,,32,30,40,22,28,79,,90,87,5,9,9,11,0.7,0.8
2024-11-04T2200,3025A,113.0477,23.6344,清远市,技师学院,,33,33,42,22,26,74,,88,83,7,9,7,9,0.9,1
2024-11-04T2200,3318A,112.9903,23.7403,清远市,清新太和,,32,28,37,22,28,86,,96,94,3,10,3,4,0.7,0.8
2024-11-04T2200,3455A,113.076,23.7198,清远市,清城东城,,32,30,41,22,28,79,,89,87,2,5,5,7,0.8,0.9
2024-11-04T2200,2661A,107.6325,35.7357,庆阳市,庆阳五中,颗粒物(PM10),51,52,47,34,16,73,,94,85,31,20,23,18,0.4,0.3
2024-11-04T2200,2662A,107.6364,35.7067,庆阳市,市环保局,颗粒物(PM10),51,51,46,32,15,85,,96,92,14,14,8,10,0.3,0.2
2024-11-04T2200,1916A,103.7897,25.5035,曲靖市,环境监测站,,42,42,38,27,22,32,,98,64,22,14,5,2,0.9,0.7
2024-11-04T2200,1917A,103.8,25.5364,曲靖市,烟厂办公区,,37,37,36,23,23,36,,91,62,20,13,4,4,0.8,0.6
2024-11-04T2200,3376A,103.7947,25.462,曲靖市,南苑二区,,34,34,39,18,25,37,,104,72,19,11,7,5,1.1,0.8
2024-11-04T2200,3377A,103.7444,25.5261,曲靖市,曲靖师范学院,,38,38,34,26,26,41,,101,69,16,10,9,6,1.2,0.7
2024-11-04T2200,1264A,118.8692,28.9398,衢州市,环保大楼,细颗粒物(PM2.5),113,125,86,85,55,53,,120,88,51,47,5,5,1.0,0.8
2024-11-04T2200,1265A,118.8709,28.9666,衢州市,实验学校,细颗粒物(PM2.5),128,119,76,97,56,73,,113,90,36,39,5,5,0.8,0.7
2024-11-04T2200,1266A,118.8621,28.9808,衢州市,衢州学院,细颗粒物(PM2.5),113,129,77,85,50,71,,116,87,38,41,6,6,0.8,0.6
2024-11-04T2200,1611A,118.5819,24.9117,泉州市,涂山街,,38,26,36,18,20,119,,131,125,10,15,1,2,0.4,0.5
2024-11-04T2200,1612A,118.5972,24.8978,泉州市,津头埔,,35,26,39,18,21,111,,126,120,12,16,2,2,0.5,0.6
2024-11-04T2200,1613A,118.6663,24.9424,泉州市,万安,,37,34,37,19,19,116,,135,124,7,15,2,1,0.5,0.5
2024-11-04T2200,3529A,118.6333,24.9264,泉州市,城华南路,,43,34,34,30,22,115,,128,120,9,14,1,1,0.6,0.6
2024-11-04T2200,2626A,88.8876,29.2718,日喀则市,日喀则监测站,,33,33,38,12,14,72,,88,79,16,20,3,4,0.5,0.5
2024-11-04T2200,3726A,88.8781,29.2426,日喀则市,林业技术推广中心,,26,24,25,10,5,82,,94,91,5,3,6,6,0.5,0.4
2024-11-04T2200,1659A,119.471,35.4209,日照市,监测站,,18,17,58,12,23,54,,79,64,20,25,6,6,0.3,0.4
2024-11-04T2200,1660A,119.523,35.4216,日照市,市政府广场,,19,19,59,3,20,58,,80,68,10,21,5,6,0.3,0.5
2024-11-04T2200,1661A,119.5587,35.4044,日照市,港务局,,20,14,57,10,25,61,,81,70,19,22,2,5,0.5,0.6
2024-11-04T2200,3507A,119.5328,35.4625,日照市,职业技术学院,,22,22,60,7,18,65,,82,72,14,22,4,5,0.2,0.4
2024-11-04T2200,3604A,119.3266,35.1044,日照市,岚山环保分局,,29,29,73,10,29,49,,79,64,26,25,27,16,2.0,0.9
2024-11-04T2200,1835A,111.1922,34.7752,三门峡市,市政府,颗粒物(PM10),55,60,58,25,39,50,,79,71,24,29,8,6,0.5,0.7
2024-11-04T2200,1836A,111.1587,34.7942,三门峡市,开发区,,,44,77,18,46,,,77,76,20,27,7,6,0.4,0.6
2024-11-04T2200,3039A,111.1911,34.7829,三门峡市,三门峡市第一小学,颗粒物(PM10),58,65,64,12,31,50,,75,69,21,28,8,10,0.4,0.7
2024-11-04T2200,3598A,111.1,34.7167,三门峡市,富达温泉假日酒店,颗粒物(PM10),63,76,92,34,54,43,,75,69,21,20,25,24,0.4,0.5
2024-11-04T2200,2324A,117.6211,26.2625,三明市,三钢,,27,27,24,16,17,71,,79,73,12,13,4,3,0.4,0.4
2024-11-04T2200,2325A,117.635,26.2714,三明市,三明二中,,25,21,29,17,15,64,,78,74,16,13,2,3,0.6,0.5
2024-11-04T2200,2326A,117.6028,26.2378,三明市,三元区政府,,27,22,28,15,17,86,,79,79,8,14,5,3,0.7,0.7
2024-11-04T2200,1876A,109.5078,18.2489,三亚市,河东子站,,30,,13,7,6,94,,74,74,2,4,2,1,0.4,0.3
2024-11-04T2200,1877A,109.4964,18.2681,三亚市,河西子站,,27,7,11,6,6,84,,68,68,4,7,3,3,0.4,0.4
2024-11-04T2200,3540A,109.7348,18.3443,三亚市,君悦子站,,31,15,15,9,5,98,,80,80,4,6,4,3,0.5,0.5
2024-11-04T2200,2624A,91.7608,29.2313,山南市,山南监测站,,26,6,13,3,7,82,,87,87,6,6,6,6,0.4,0.4
2024-11-04T2200,2625A,91.7706,29.2436,山南市,山南人民医院,,26,10,27,3,9,81,,86,86,5,6,4,5,0.5,0.5
2024-11-04T2200,1674A,116.6794,23.3667,汕头市,金平子站,,33,29,36,16,22,104,,132,124,5,10,7,7,0.7,0.7
2024-11-04T2200,1675A,116.7244,23.3633,汕头市,龙湖子站,,31,30,37,15,20,97,,122,114,7,10,8,9,0.6,0.7
2024-11-04T2200,1676A,116.7258,23.2775,汕头市,濠江子站,,32,27,35,22,23,95,,130,117,5,9,6,7,0.5,0.6
2024-11-04T2200,1677A,116.7519,23.4714,汕头市,澄海子站,,31,26,40,18,26,99,,132,123,15,16,9,9,0.9,0.8
2024-11-04T2200,1678A,116.6092,23.2539,汕头市,潮阳子站,,34,29,35,13,18,106,,128,122,2,6,5,6,0.6,0.7
