timepoint,stationcode,longitude,latitude,area,positionname,primarypollutant,aqi,pm10,pm10_24h,pm2_5,pm2_5_24h,o3,o3_24h,o3_8h,o3_8h_24h,no2,no2_24h,so2,so2_24h,co,co_24h
2025-04-09T1000,2566A,102.1879,31.914,阿坝藏族羌族自治州,州农科所,颗粒物(PM10),53,56,31,21,14,60,,57,51,12,9,13,13,0.4,0.4
2025-04-09T1000,2568A,102.2502,31.8896,阿坝藏族羌族自治州,马师校,,,18,26,8,14,,,63,54,,8,,5,,0.4
2025-04-09T1000,3994A,102.2165,31.9024,阿坝藏族羌族自治州,马尔康中学西区,,24,20,23,7,13,75,,77,65,14,8,4,3,0.7,0.5
2025-04-09T1000,2695A,80.292,41.1694,阿克苏地区,电视台,颗粒物(PM10),101,151,194,33,52,54,,42,42,27,27,7,6,0.7,0.7
2025-04-09T1000,2696A,80.2613,41.1551,阿克苏地区,艺术中心,颗粒物(PM10),104,157,211,48,59,51,,34,34,26,35,4,4,0.7,0.9
2025-04-09T1000,2204A,105.6467,38.8363,阿拉善盟,西城区西花园,,36,36,152,8,41,99,,92,90,6,6,10,9,0.6,0.6
2025-04-09T1000,2205A,105.6985,38.8411,阿拉善盟,蒙二幼,,,24,169,10,46,89,,88,87,,7,6,6,0.4,0.5
2025-04-09T1000,2206A,105.724,38.8516,阿拉善盟,环保局新楼,,30,14,172,3,48,95,,94,92,4,4,9,9,0.4,0.3
2025-04-09T1000,2708A,88.1264,47.8517,阿勒泰地区,市站,,24,24,17,8,6,61,,94,85,13,5,2,2,0.6,0.5
2025-04-09T1000,2630A,80.1161,32.5,阿里地区,阿里监测站,,27,27,10,13,6,51,,67,58,24,12,9,8,0.6,0.5
2025-04-09T1000,3192A,80.0903,32.5028,阿里地区,阿里藏医院,,39,39,14,11,5,52,,84,73,32,5,11,8,0.7,0.5
2025-04-09T1000,2642A,109.0318,32.6537,安康市,香溪洞,,41,41,56,19,21,64,,73,66,11,7,13,8,0.5,0.4
2025-04-09T1000,2644A,109.0072,32.6975,安康市,汉滨区检察院,颗粒物(PM10),51,52,47,19,24,54,,51,47,16,15,13,10,0.4,0.4
2025-04-09T1000,4054A,109.0325,32.6913,安康市,市邮政管理局,颗粒物(PM10),58,66,62,24,23,50,,40,39,21,21,20,16,0.5,0.6
2025-04-09T1000,2291A,117.0809,30.5177,安庆市,环科院,细颗粒物(PM2.5),68,75,73,49,44,91,,42,42,30,48,11,11,0.7,0.7
2025-04-09T1000,2292A,117.0331,30.5119,安庆市,马山宾馆,细颗粒物(PM2.5),64,64,66,46,41,82,,52,51,37,39,8,8,0.7,0.6
2025-04-09T1000,2294A,116.9896,30.6145,安庆市,安庆大学,细颗粒物(PM2.5),69,80,74,50,46,106,,57,57,24,30,12,8,0.7,0.6
2025-04-09T1000,3173A,117.0598,30.5351,安庆市,市人大,细颗粒物(PM2.5),65,78,69,47,43,107,,78,78,21,25,10,9,0.7,0.7
2025-04-09T1000,3122A,105.9606,26.2611,安顺市,伍家关,颗粒物(PM10),57,64,56,36,32,48,,52,49,11,9,3,6,1.0,1
2025-04-09T1000,3123A,105.9408,26.2431,安顺市,凤凰山,细颗粒物(PM2.5),75,64,55,55,47,55,,50,50,13,16,7,10,0.7,0.8
2025-04-09T1000,3124A,105.9439,26.2564,安顺市,金钟山,细颗粒物(PM2.5),87,68,56,64,54,56,,57,55,11,11,4,9,0.9,0.9
2025-04-09T1000,3125A,105.8983,26.2481,安顺市,娄家坡,细颗粒物(PM2.5),89,,48,66,52,48,,53,50,17,12,7,9,1.1,1.1
2025-04-09T1000,1818A,114.4839,36.0621,安阳市,棉研所,,,,,,,,,,,,,,,,
2025-04-09T1000,1819A,114.3551,36.1017,安阳市,红庙街,细颗粒物(PM2.5),79,78,58,58,37,58,,55,54,32,18,11,6,1.1,0.7
2025-04-09T1000,1820A,114.361,36.0681,安阳市,银杏小区,细颗粒物(PM2.5),88,88,70,65,52,49,,50,48,36,30,10,7,0.7,0.4
2025-04-09T1000,3141A,114.3922,36.0878,安阳市,信访局,,,141,62,64,38,44,,65,61,,21,,5,1.0,0.7
2025-04-09T1000,3669A,114.4705,36.0637,安阳市,左辅环卫站,细颗粒物(PM2.5),94,95,75,70,42,62,,42,42,24,19,8,6,0.5,0.4
2025-04-09T1000,3703A,114.2917,36.0949,安阳市,安钢职工学校,细颗粒物(PM2.5),79,89,74,58,36,58,,44,44,37,26,13,6,1.3,0.8
2025-04-09T1000,1748A,123.044,41.1196,鞍山市,深沟寺,细颗粒物(PM2.5),77,85,102,56,71,91,,66,63,36,32,23,16,1.6,1.1
2025-04-09T1000,1749A,123.011,41.0931,鞍山市,太阳城,细颗粒物(PM2.5),88,101,116,65,73,86,,57,57,36,31,17,13,1.8,1.4
2025-04-09T1000,1750A,123.0485,41.1442,鞍山市,太平,细颗粒物(PM2.5),77,92,116,56,68,83,,69,64,35,28,23,15,1.6,1.2
2025-04-09T1000,1751A,122.9642,41.0971,鞍山市,铁西三道街,,,122,128,74,81,,,44,44,44,50,20,16,,1.5
2025-04-09T1000,1753A,123.022,41.0821,鞍山市,明达新区,细颗粒物(PM2.5),83,90,111,61,75,89,,59,59,31,30,20,16,1.7,1.2
2025-04-09T1000,1754A,123.1289,41.0228,鞍山市,千山,,,,54,,28,,,106,,,14,,4,,0.8
2025-04-09T1000,4201A,122.9446,41.0826,鞍山市,兴盛南路290号,细颗粒物(PM2.5),99,116,137,74,80,77,,47,47,49,50,28,22,1.8,1.5
2025-04-09T1000,2195A,107.4212,40.761,巴彦淖尔市,附二中,,46,46,128,20,37,75,,88,82,11,7,15,12,0.5,0.4
2025-04-09T1000,2196A,107.37,40.7372,巴彦淖尔市,市环保大楼,颗粒物(PM10),52,54,136,18,36,78,,81,76,10,6,9,7,0.2,0.1
2025-04-09T1000,1956A,86.1472,41.7538,巴音郭楞蒙古自治州,孔雀公园,颗粒物(PM10),57,64,85,9,23,64,,68,68,31,37,13,11,0.3,0.3
2025-04-09T1000,1957A,86.1972,41.7166,巴音郭楞蒙古自治州,棉纺厂,颗粒物(PM10),57,63,94,7,18,73,,72,72,20,19,4,4,0.2,0.3
2025-04-09T1000,1958A,86.2357,41.7173,巴音郭楞蒙古自治州,经济开发区,颗粒物(PM10),56,62,72,6,13,96,,93,93,6,11,5,6,0.1,0.2
2025-04-09T1000,2914A,106.7677,31.8794,巴中市,苏山坪,颗粒物(PM10),60,70,60,33,27,73,,103,95,18,11,4,4,0.4,0.4
2025-04-09T1000,3181A,106.7768,31.8526,巴中市,市五中,颗粒物(PM10),77,103,81,39,32,27,,17,17,54,31,7,6,1.2,0.6
2025-04-09T1000,3183A,106.7418,31.8654,巴中市,圣泉水务公司,颗粒物(PM10),56,61,60,30,30,54,,49,48,26,28,4,3,0.6,0.5
2025-04-09T1000,3616A,106.7616,31.8344,巴中市,市中心医院,颗粒物(PM10),64,77,73,39,36,36,,17,17,50,33,7,6,1.0,0.7
2025-04-09T1000,2235A,122.7911,45.6077,白城市,洮北区环保局,,,,28,44,21,,,64,,14,12,5,5,0.2,0.3
2025-04-09T1000,2236A,122.8738,45.5725,白城市,市环保局,细颗粒物(PM2.5),57,56,28,40,18,90,,66,66,15,14,7,5,0.3,0.3
2025-04-09T1000,2231A,126.4219,41.9171,白山市,喜丰,,,87,64,45,32,,,15,14,37,26,7,7,1.4,1.2
2025-04-09T1000,2232A,126.4077,41.9419,白山市,环保局,颗粒物(PM10),65,79,62,43,31,20,,19,18,34,22,7,6,1.2,0.9
2025-04-09T1000,2647A,104.1724,36.5446,白银市,第三小学,颗粒物(PM10),92,134,275,53,75,102,,73,72,7,10,10,12,0.4,0.5
2025-04-09T1000,2648A,104.1465,36.5482,白银市,动力公司,颗粒物(PM10),89,128,266,39,73,101,,69,69,7,8,7,10,0.3,0.3
2025-04-09T1000,2512A,106.6103,23.9011,百色市,市监测站,细颗粒物(PM2.5),79,94,63,58,41,31,,41,33,21,16,15,13,1.0,0.9
2025-04-09T1000,2513A,106.6538,23.8859,百色市,市中心血站,细颗粒物(PM2.5),104,113,65,78,46,25,,48,38,32,15,14,8,1.3,1
2025-04-09T1000,3406A,106.6085,23.8798,百色市,祈福高中,,,107,70,,49,26,,35,29,29,18,11,10,1.1,1
2025-04-09T1000,2270A,117.396,32.939,蚌埠市,工人疗养院,颗粒物(PM10),100,149,132,69,58,54,,68,56,53,25,9,8,0.8,0.7
2025-04-09T1000,2271A,117.3605,32.9427,蚌埠市,百货大楼,细颗粒物(PM2.5),104,134,127,78,62,66,,65,59,43,26,10,8,,0.6
2025-04-09T1000,2273A,117.4185,32.8911,蚌埠市,蚌埠学院,细颗粒物(PM2.5),92,102,115,68,64,79,,63,61,26,29,8,8,0.8,0.8
2025-04-09T1000,2274A,117.3533,32.9673,蚌埠市,淮上区政府,细颗粒物(PM2.5),98,114,122,73,63,71,,70,61,29,24,10,7,0.5,0.5
2025-04-09T1000,2275A,117.3145,32.8977,蚌埠市,高新区,细颗粒物(PM2.5),95,112,113,71,67,69,,67,60,40,23,11,9,0.8,0.7
2025-04-09T1000,3715A,117.3092,32.9314,蚌埠市,蚌埠田家炳中学,细颗粒物(PM2.5),107,156,136,80,65,58,,68,58,46,25,11,8,0.5,0.5
2025-04-09T1000,1585A,109.8756,40.6532,包头市,市环境监测站,,38,38,54,9,23,82,,61,61,11,26,12,19,0.4,0.8
2025-04-09T1000,1587A,109.9991,40.5842,包头市,包头八中,颗粒物(PM10),54,57,61,14,36,84,,45,45,9,26,10,22,0.5,0.8
2025-04-09T1000,1588A,109.8538,40.6821,包头市,青山宾馆,,38,38,55,13,33,78,,52,52,10,25,11,17,0.4,0.7
2025-04-09T1000,1589A,109.8642,40.6288,包头市,惠龙物流,,38,38,56,20,25,65,,50,50,10,22,8,17,0.4,0.7
2025-04-09T1000,1590A,110.0377,40.5546,包头市,东河鸿龙湾,颗粒物(PM10),58,65,55,17,26,81,,42,42,10,24,11,17,0.5,0.7
2025-04-09T1000,3283A,109.9154,40.5685,包头市,滨河大厦,,41,41,56,15,23,84,,40,40,9,27,11,15,0.4,0.6
2025-04-09T1000,3419A,109.9447,40.6261,包头市,包头市委党校,,,,48,,25,80,,54,54,,21,6,13,0.2,0.5
2025-04-09T1000,3683A,109.8331,40.6576,包头市,昆区政府,,34,34,56,13,34,82,,65,65,10,25,5,13,0.5,0.8
2025-04-09T1000,1930A,107.185,34.3063,宝鸡市,庙沟村,颗粒物(PM10),94,137,123,46,41,75,,84,81,10,10,7,7,0.4,0.4
2025-04-09T1000,1931A,107.0708,34.3017,宝鸡市,竹园沟,颗粒物(PM10),94,137,117,47,39,59,,63,60,18,14,7,7,0.4,0.3
2025-04-09T1000,1932A,107.1906,34.3672,宝鸡市,三陆医院,颗粒物(PM10),105,160,127,59,55,45,,38,38,28,23,8,6,0.6,0.5
2025-04-09T1000,1933A,107.1431,34.3547,宝鸡市,监测站,颗粒物(PM10),93,135,126,43,42,52,,47,47,17,14,8,8,0.4,0.3
2025-04-09T1000,1934A,107.1186,34.3739,宝鸡市,技工学校,颗粒物(PM10),93,135,127,50,49,62,,54,53,10,12,7,6,0.4,0.4
2025-04-09T1000,1935A,107.3906,34.3528,宝鸡市,陈仓区环保局家属楼,颗粒物(PM10),106,161,128,53,45,,,43,41,31,30,,22,0.6,0.6
2025-04-09T1000,1936A,107.2058,34.3497,宝鸡市,文理学院,颗粒物(PM10),88,126,122,56,52,54,,49,49,20,21,7,6,0.5,0.4
2025-04-09T1000,1937A,107.2386,34.3622,宝鸡市,三迪小学,颗粒物(PM10),91,132,125,62,50,48,,43,43,26,26,8,7,0.5,0.4
2025-04-09T1000,1051A,115.493,38.8632,保定市,游泳馆,颗粒物(PM10),68,86,88,41,38,66,,75,71,36,25,4,3,0.4,0.4
2025-04-09T1000,1052A,115.5213,38.8959,保定市,华电二区,,40,40,70,24,38,94,,55,55,15,25,5,3,0.8,0.8
2025-04-09T1000,1053A,115.4713,38.9108,保定市,接待中心,颗粒物(PM10),55,59,77,18,24,77,,60,55,23,23,2,3,0.5,0.4
2025-04-09T1000,1054A,115.4612,38.8416,保定市,地表水厂,,,,95,,37,,,71,63,31,27,,4,0.4,0.4
2025-04-09T1000,3581A,115.31981,38.95208,保定市,满城区生态环境分局,,,73,85,44,42,,,56,50,27,31,3,2,0.4,0.4
2025-04-09T1000,3582A,115.47694,38.76408,保定市,清苑区第二中学,颗粒物(PM10),67,83,106,38,42,80,,64,64,31,29,5,5,0.4,0.4
2025-04-09T1000,3583A,115.62909,39.02311,保定市,徐水物探局,颗粒物(PM10),59,68,82,34,26,78,,54,48,23,25,8,8,0.1,0.2
2025-04-09T1000,4004A,115.4202,38.8656,保定市,双鹰农机,颗粒物(PM10),59,68,81,38,37,71,,67,61,37,32,6,5,0.2,0.3
2025-04-09T1000,4034A,115.5150,38.8590,保定市,植保所站,颗粒物(PM10),75,100,88,28,47,77,,61,60,30,28,1,2,0.6,0.5
2025-04-09T1000,2594A,99.1678,25.1081,保山市,市环境监测站,细颗粒物(PM2.5),80,87,86,59,56,67,,96,88,33,12,6,6,1.0,0.8
2025-04-09T1000,2595A,99.1711,25.1328,保山市,市环保局,细颗粒物(PM2.5),80,82,87,59,50,81,,114,105,29,11,6,6,1.0,0.8
2025-04-09T1000,1866A,109.2262,21.588,北海市,牛尾岭水库,,,33,27,17,20,71,,47,47,,8,5,5,0.6,0.6
2025-04-09T1000,1867A,109.1436,21.4086,北海市,海滩公园,,,49,41,12,19,,,71,71,8,22,6,7,0.7,0.8
2025-04-09T1000,1868A,109.0981,21.4661,北海市,新市环保局,,47,47,40,27,23,88,,74,74,12,16,3,4,0.4,0.5
2025-04-09T1000,1869A,109.1778,21.5233,北海市,北海工业园,颗粒物(PM10),58,65,50,27,27,88,,76,76,9,13,7,7,0.4,0.5
2025-04-09T1000,3400A,109.1911,21.4415,北海市,龙潭自来水厂,,39,39,37,15,24,92,,82,82,9,11,6,7,0.4,0.4
2025-04-09T1000,1001A,116.3621,39.8784,北京市,万寿西宫,颗粒物(PM10),51,51,63,26,24,86,,86,82,21,20,7,7,0.6,0.5
2025-04-09T1000,1002A,116.2202,40.2915,北京市,定陵,,,,,,,,,,,,,,,,
2025-04-09T1000,1003A,116.4174,39.9289,北京市,东四,颗粒物(PM10),52,53,89,31,28,84,,81,78,16,16,6,7,0.5,0.5
2025-04-09T1000,1004A,116.4072,39.8863,北京市,天坛,细颗粒物(PM2.5),55,49,61,39,45,80,,77,75,21,20,1,2,0.8,0.7
2025-04-09T1000,1005A,116.462,39.9365,北京市,农展馆,,45,45,62,28,28,85,,75,75,14,19,7,8,0.8,0.6
2025-04-09T1000,1006A,116.3392,39.9295,北京市,官园,,44,44,64,23,24,76,,74,72,18,15,7,9,0.5,0.4
2025-04-09T1000,1007A,116.2878,39.9611,北京市,海淀万柳,,49,49,63,24,22,67,,61,61,24,21,5,5,0.5,0.5
2025-04-09T1000,1008A,116.6636,40.135,北京市,顺义新城,,37,37,69,22,31,85,,80,80,9,17,6,7,0.4,0.5
2025-04-09T1000,1009A,116.6275,40.3275,北京市,怀柔镇,,45,45,69,27,26,74,,73,70,13,15,3,4,0.4,0.4
2025-04-09T1000,1010A,116.2296,40.217,北京市,昌平镇,,38,38,52,22,20,75,,80,74,17,13,2,2,0.4,0.3
2025-04-09T1000,1011A,116.3966,39.9821,北京市,奥体中心,细颗粒物(PM2.5),54,43,56,38,22,78,,75,75,23,22,3,4,0.7,0.6
2025-04-09T1000,3281A,115.9718,40.4529,北京市,延庆夏都,,46,43,41,32,21,65,,64,62,18,14,7,6,0.5,0.4
2025-04-09T1000,3418A,116.8336,40.4095,北京市,密云新城,,29,29,56,20,23,84,,82,79,4,8,3,4,0.3,0.4
2025-04-09T1000,3671A,116.088,39.9726,北京市,门头沟三家店,颗粒物(PM10),61,72,78,24,21,56,,54,47,30,21,5,5,0.5,0.4
2025-04-09T1000,3672A,116.1541,39.8204,北京市,丰台云岗,颗粒物(PM10),59,68,69,30,33,76,,62,62,29,25,8,8,0.5,0.4
2025-04-09T1000,3673A,116.6804,39.9081,北京市,通州东关,颗粒物(PM10),58,65,78,19,18,69,,48,48,25,32,7,8,0.6,0.7
2025-04-09T1000,3674A,115.9577,39.7603,北京市,房山燕山,颗粒物(PM10),58,65,62,24,26,87,,59,59,22,23,5,6,0.4,0.4
2025-04-09T1000,3675A,116.4672,39.7733,北京市,大兴旧宫,颗粒物(PM10),55,59,71,28,22,66,,51,46,27,21,1,2,0.3,0.3
2025-04-09T1000,3694A,115.986,40.4563,北京市,延庆石河营,,44,44,40,28,18,63,,57,57,19,15,5,5,0.5,0.4
2025-04-09T1000,3695A,116.6151,40.3053,北京市,怀柔新城,,41,41,57,25,27,73,,75,72,14,17,6,7,0.7,0.6
2025-04-09T1000,3696A,116.2545,39.8768,北京市,丰台小屯,颗粒物(PM10),51,52,72,26,28,72,,71,68,22,18,3,3,0.4,0.4
2025-04-09T1000,3697A,116.84,40.3844,北京市,密云镇,,40,40,73,23,32,88,,88,84,6,12,5,7,0.4,0.5
2025-04-09T1000,4182A,116.1942,39.9158,北京市,八角北路9号,颗粒物(PM10),56,62,68,22,26,77,,65,65,27,24,4,4,0.5,0.4
2025-04-09T1000,4194A,117.0790,40.1518,北京市,洳河巡河路,,34,34,57,20,25,97,,88,88,7,17,2,5,0.5,0.5
2025-04-09T1000,1761A,123.8275,41.3064,本溪市,大峪,,,,,,,,,,,,,,,,
2025-04-09T1000,1762A,123.7567,41.3325,本溪市,溪湖,颗粒物(PM10),63,76,112,38,69,98,,38,38,28,41,16,9,1.7,1.2
2025-04-09T1000,1763A,123.7169,41.3094,本溪市,彩屯,颗粒物(PM10),57,64,108,37,65,91,,41,41,28,34,17,11,1.9,1.4
2025-04-09T1000,1764A,123.7669,41.2864,本溪市,东明,颗粒物(PM10),54,58,85,32,49,106,,52,52,12,36,6,7,0.8,0.9
2025-04-09T1000,1765A,123.7992,41.2664,本溪市,新立屯,,48,44,60,33,54,103,,86,86,22,40,7,7,0.7,0.8
2025-04-09T1000,1766A,123.8142,41.3472,本溪市,威宁,细颗粒物(PM2.5),118,168,134,89,82,43,,26,26,43,26,,4,,1
2025-04-09T1000,2587A,105.2864,27.3125,毕节市,八中,细颗粒物(PM2.5),67,58,48,48,40,70,,28,28,14,13,6,5,0.8,0.8
2025-04-09T1000,2588A,105.31,27.2944,毕节市,师专,细颗粒物(PM2.5),75,71,61,55,44,49,,20,20,25,23,9,7,0.9,0.8
2025-04-09T1000,4263A,105.3688,27.3598,毕节市,工业大道,细颗粒物(PM2.5),55,53,56,39,44,86,,26,26,12,24,10,8,0.8,0.8
2025-04-09T1000,1629A,118.0018,37.3617,滨州市,第二水厂,颗粒物(PM10),54,58,61,36,23,77,,43,43,16,18,12,10,0.5,0.4
2025-04-09T1000,1630A,117.9776,37.393,滨州市,北中新校,颗粒物(PM10),54,58,56,36,22,81,,47,47,19,21,11,8,0.6,0.5
2025-04-09T1000,3514A,117.9378,37.3956,滨州市,中海酒店,细颗粒物(PM2.5),64,48,49,46,24,82,,50,50,16,16,14,9,0.6,0.5
2025-04-09T1000,3515A,117.9378,37.3553,滨州市,开发区一中,细颗粒物(PM2.5),64,58,70,46,35,78,,47,47,23,24,17,12,0.4,0.2
2025-04-09T1000,3516A,118.0917,37.694,滨州市,金海六路,,,41,45,19,11,,,43,36,17,19,15,12,0.4,0.4
2025-04-09T1000,4028A,117.9956,37.3753,滨州市,滨州市西街道办事处,细颗粒物(PM2.5),94,,59,70,33,84,,52,52,16,16,13,7,0.4,0.2
2025-04-09T1000,2311A,115.8072,33.8399,亳州市,污水处理厂,细颗粒物(PM2.5),124,154,113,94,64,,,75,65,21,14,,6,0.8,0.7
2025-04-09T1000,2312A,115.7789,33.8518,亳州市,三国揽胜宫,细颗粒物(PM2.5),117,118,100,88,64,87,,83,76,33,18,6,6,0.8,0.7
2025-04-09T1000,3332A,115.7633,33.8034,亳州市,亳州学院,颗粒物(PM10),110,169,128,82,64,109,,102,97,19,12,7,8,0.7,0.7
2025-04-09T1000,2693A,82.0485,44.8556,博尔塔拉蒙古自治州,市党校,颗粒物(PM10),127,203,95,30,23,55,,83,74,41,29,1,2,0.2,0.2
2025-04-09T1000,2694A,82.0806,44.8969,博尔塔拉蒙古自治州,市环保局,颗粒物(PM10),131,211,97,23,19,38,,75,65,31,17,4,3,0.5,0.4
2025-04-09T1000,1071A,116.8842,38.2991,沧州市,沧县城建局,细颗粒物(PM2.5),54,47,65,38,27,114,,67,67,16,19,3,3,0.2,0.2
2025-04-09T1000,1072A,116.8584,38.3254,沧州市,电视转播站,颗粒物(PM10),51,51,63,31,33,116,,60,60,17,19,7,5,0.2,0.2
2025-04-09T1000,1073A,116.8709,38.3228,沧州市,市环保局,,48,48,61,27,32,116,,66,66,14,18,4,5,0.3,0.3
2025-04-09T1000,3324A,116.8136,38.3004,沧州市,河北水利电力学院,细颗粒物(PM2.5),64,51,68,46,35,108,,64,64,17,20,6,5,0.4,0.3
2025-04-09T1000,2622A,97.1806,31.1273,昌都市,昌都监测站,,30,11,12,8,7,93,,97,93,7,4,2,2,0.3,0.3
2025-04-09T1000,3719A,97.1714,31.1406,昌都市,昌都会议中心,,31,15,15,6,7,97,,101,97,7,5,3,3,0.3,0.2
2025-04-09T1000,2690A,88.1236,43.8886,昌吉回族自治州,天山天池,,30,30,39,9,8,78,,83,81,5,5,4,12,0.5,0.5
2025-04-09T1000,2692A,87.2717,44.0297,昌吉回族自治州,新区政务中心,颗粒物(PM10),75,100,138,25,21,66,,66,64,32,25,7,5,0.7,0.5
2025-04-09T1000,3613A,87.3095,44.0142,昌吉回族自治州,亚心广场,颗粒物(PM10),74,97,147,12,19,78,,63,63,29,25,9,8,0.6,0.6
2025-04-09T1000,1119A,125.3325,43.9166,长春市,食品厂,细颗粒物(PM2.5),72,68,64,52,52,82,,70,70,31,34,8,8,0.7,0.6
2025-04-09T1000,1120A,125.2863,43.9027,长春市,客车厂,细颗粒物(PM2.5),87,68,56,64,52,88,,82,82,34,32,8,6,0.8,0.6
2025-04-09T1000,1121A,125.2841,43.8463,长春市,邮电学院,细颗粒物(PM2.5),74,73,60,54,50,90,,71,71,24,25,7,6,0.6,0.5
2025-04-09T1000,1122A,125.3716,43.8772,长春市,劳动公园,细颗粒物(PM2.5),70,68,60,51,58,83,,67,67,18,23,7,7,0.7,0.6
2025-04-09T1000,1123A,125.3297,43.8805,长春市,园林处,,,68,56,47,47,,,80,80,23,19,7,7,0.7,0.6
2025-04-09T1000,1124A,125.4605,43.79,长春市,净月潭,细颗粒物(PM2.5),63,56,56,45,47,91,,78,78,12,13,7,6,0.5,0.4
2025-04-09T1000,1125A,125.7194,43.515,长春市,甩湾子,,,,,,,,,,,,,,,,
2025-04-09T1000,1126A,125.3863,43.8447,长春市,经开区环卫处,细颗粒物(PM2.5),63,61,67,45,52,77,,54,54,19,25,7,6,0.7,0.6
2025-04-09T1000,1127A,125.245,43.7783,长春市,高新区管委会,,,91,56,53,51,98,,50,50,,32,,7,0.7,0.6
2025-04-09T1000,1128A,125.1761,43.8325,长春市,岱山公园,细颗粒物(PM2.5),75,64,57,55,50,105,,74,74,26,38,8,5,0.7,0.5
2025-04-09T1000,1335A,113.0833,28.2325,长沙市,经开区环保局,细颗粒物(PM2.5),72,73,82,52,59,65,,42,40,18,19,10,11,0.7,0.8
2025-04-09T1000,1336A,112.8872,28.2189,长沙市,高开区环保局,细颗粒物(PM2.5),79,72,79,58,55,67,,55,52,20,16,11,8,1.1,0.9
2025-04-09T1000,1337A,113.0792,28.2053,长沙市,马坡岭,细颗粒物(PM2.5),84,86,89,62,60,40,,30,28,34,28,7,8,0.7,0.8
2025-04-09T1000,1338A,112.9394,28.19,长沙市,湖南师范大学,细颗粒物(PM2.5),80,85,80,59,52,42,,42,38,42,21,9,7,1.1,0.9
2025-04-09T1000,1339A,113.0178,28.1322,长沙市,雨花区环保局,细颗粒物(PM2.5),77,78,82,56,55,41,,33,26,36,28,11,10,0.7,0.8
2025-04-09T1000,1340A,112.9792,28.2597,长沙市,伍家岭,细颗粒物(PM2.5),88,107,96,65,57,46,,22,14,39,31,6,6,1.1,0.9
2025-04-09T1000,1341A,113.0014,28.1944,长沙市,火车新站,细颗粒物(PM2.5),77,85,90,56,52,52,,28,19,40,31,10,10,1.1,1
2025-04-09T1000,1342A,112.9844,28.1178,长沙市,天心区环保局,细颗粒物(PM2.5),72,73,79,52,55,62,,58,54,27,22,9,8,1.0,1
2025-04-09T1000,1343A,112.8908,28.1308,长沙市,湖南中医药大学,细颗粒物(PM2.5),69,56,85,50,53,60,,13,13,22,32,7,5,1.1,1
2025-04-09T1000,1344A,112.9581,28.3611,长沙市,沙坪,细颗粒物(PM2.5),69,86,83,50,51,60,,35,35,24,20,10,8,1.1,1.1
2025-04-09T1000,1727A,113.1147,36.1547,长治市,清华站,,,,53,,32,66,,29,29,,26,,6,,0.9
2025-04-09T1000,1730A,113.0886,36.2125,长治市,审计局,细颗粒物(PM2.5),67,75,46,48,35,78,,31,31,29,26,11,9,0.8,0.6
2025-04-09T1000,1731A,113.0844,36.1856,长治市,长治八中,颗粒物(PM10),72,94,55,46,35,82,,39,39,26,21,13,9,1.0,0.8
2025-04-09T1000,2845A,113.1569,36.1911,长治市,德盛苑,"颗粒物(PM10),细颗粒物(PM2.5)",58,66,46,41,29,86,,91,82,22,13,8,5,1.2,0.9
2025-04-09T1000,3568A,113.06,36.0464,长治市,向阳小学,细颗粒物(PM2.5),77,101,80,56,40,80,,76,76,36,21,14,11,1.2,0.9
2025-04-09T1000,3569A,112.8792,36.3144,长治市,屯留一中,"颗粒物(PM10),细颗粒物(PM2.5)",60,70,58,43,35,53,,22,20,34,33,13,12,0.5,0.6
2025-04-09T1000,4189A,113.1131,36.19948,长治市,英华南巷50号,颗粒物(PM10),70,89,52,46,33,78,,42,41,31,24,8,5,1.0,0.8
2025-04-09T1000,4190A,113.2367,36.3344,长治市,学府街1号,细颗粒物(PM2.5),93,128,76,69,50,76,,27,27,37,38,11,9,1.6,1.4
2025-04-09T1000,1854A,111.6975,28.9703,常德市,市二中,细颗粒物(PM2.5),74,67,57,54,52,62,,47,42,11,13,9,8,1.0,0.9
2025-04-09T1000,1857A,111.7158,29.1456,常德市,白鹤山,,,,,,,,,,,,,,,,
2025-04-09T1000,3138A,111.7153,29.0289,常德市,武陵区永安,细颗粒物(PM2.5),79,75,70,58,52,70,,52,49,15,15,9,4,0.9,0.9
2025-04-09T1000,3139A,111.6892,28.9881,常德市,鼎城区玉霞,细颗粒物(PM2.5),79,75,68,58,51,74,,33,33,9,14,7,5,1.0,1
2025-04-09T1000,3140A,111.6625,29.0531,常德市,武陵区长庚,细颗粒物(PM2.5),74,81,70,54,54,77,,49,48,12,16,14,8,1.0,1
2025-04-09T1000,1196A,119.9633,31.762,常州市,市监测站,颗粒物(PM10),95,140,110,66,55,114,,64,64,43,50,15,12,1.0,1
2025-04-09T1000,1200A,119.9468,31.7069,常州市,武进监测站,颗粒物(PM10),92,133,90,56,43,116,,79,79,38,39,20,18,0.9,0.9
2025-04-09T1000,1201A,119.9255,31.9087,常州市,安家,细颗粒物(PM2.5),130,169,129,99,68,100,,70,68,60,46,25,15,0.8,0.6
2025-04-09T1000,3002A,119.9805,31.8174,常州市,行政中心,细颗粒物(PM2.5),88,118,96,65,53,108,,71,68,49,41,23,20,0.9,0.8
2025-04-09T1000,3003A,120.0522,31.7748,常州市,经开区,颗粒物(PM10),90,130,111,54,56,109,,68,65,52,48,17,14,1.1,0.9
2025-04-09T1000,3010A,119.9025,31.7964,常州市,钟楼,颗粒物(PM10),98,146,101,70,52,120,,74,74,39,37,14,12,1.1,1.1
2025-04-09T1000,3429A,119.8598,31.7066,常州市,武进经发区,细颗粒物(PM2.5),93,129,101,69,54,113,,76,76,35,39,15,13,1.0,1
2025-04-09T1000,3430A,119.5826,31.7245,常州市,金坛城区,颗粒物(PM10),79,108,89,44,38,118,,98,97,32,27,17,13,1.1,0.8
2025-04-09T1000,2220A,120.4318,41.5881,朝阳市,西梁,,38,22,34,17,16,119,,102,102,9,11,11,12,0.7,0.8
2025-04-09T1000,2221A,120.4521,41.5646,朝阳市,河畔小区,,37,33,34,16,19,118,,105,105,8,10,7,8,0.5,0.5
2025-04-09T1000,2222A,120.4176,41.5648,朝阳市,八里堡,,36,25,32,14,17,114,,95,95,8,12,7,9,0.6,0.7
2025-04-09T1000,2223A,120.3806,41.5969,朝阳市,农业园区,,,40,39,26,19,,,99,99,13,15,10,10,0.8,0.7
2025-04-09T1000,1705A,116.6367,23.6719,潮州市,西园路,,,,,,,,,,,,,,,,
2025-04-09T1000,3026A,116.6183,23.6608,潮州市,市政府,细颗粒物(PM2.5),127,182,99,96,64,76,,47,47,69,37,50,13,1.6,1.1
2025-04-09T1000,4036A,116.6461,23.6761,潮州市,金山,细颗粒物(PM2.5),92,116,91,68,66,86,,44,44,32,28,12,10,1.1,0.8
2025-04-09T1000,2472A,113.0073,25.9061,郴州市,马头岭,颗粒物(PM10),60,69,65,26,31,32,,44,37,38,30,7,7,1.0,1
2025-04-09T1000,2473A,113.0116,25.8226,郴州市,市职中,细颗粒物(PM2.5),74,72,79,54,50,4,,4,3,39,36,8,8,1.0,0.9
2025-04-09T1000,2475A,113.0383,25.8071,郴州市,市审计局,细颗粒物(PM2.5),72,68,67,52,48,23,,33,28,33,28,6,5,1.1,0.8
2025-04-09T1000,2476A,113.0348,25.7759,郴州市,市环保局,细颗粒物(PM2.5),85,80,73,63,46,25,,20,20,49,35,8,6,1.0,0.8
2025-04-09T1000,4252A,113.0138,25.8011,郴州市,好美居路49号,,,,75,,47,,,4,3,35,38,5,6,1.1,1
2025-04-09T1000,1431A,103.9728,30.7236,成都市,金泉两河,颗粒物(PM10),67,84,78,28,41,80,,20,20,28,42,4,3,1.0,1.1
2025-04-09T1000,1432A,104.176,30.6872,成都市,十里店,颗粒物(PM10),71,92,84,38,41,83,,30,30,47,46,7,4,0.9,0.8
2025-04-09T1000,1433A,104.079,30.5706,成都市,三瓦窑,颗粒物(PM10),71,91,85,38,44,75,,19,19,42,67,7,5,0.8,0.9
2025-04-09T1000,1434A,104.1114,30.63,成都市,沙河铺,细颗粒物(PM2.5),77,79,81,56,46,57,,16,16,41,52,7,6,1.1,1.1
2025-04-09T1000,1437A,104.0786,30.6531,成都市,君平街,颗粒物(PM10),62,73,87,35,51,80,,28,28,36,62,9,7,1.0,1.1
2025-04-09T1000,1438A,103.613,31.0283,成都市,灵岩寺,,,,,,,,,,,,,,,,
2025-04-09T1000,2880A,104.0239,30.65639,成都市,大石西路,颗粒物(PM10),68,86,91,44,51,71,,22,22,41,58,6,5,0.9,0.9
2025-04-09T1000,3136A,104.2725,30.5589,成都市,龙泉驿区区政府,颗粒物(PM10),74,97,62,48,27,80,,84,72,38,19,6,4,1.0,0.8
2025-04-09T1000,3357A,104.0106,30.6931,成都市,金博路,颗粒物(PM10),70,90,78,34,37,76,,23,23,36,54,9,8,0.7,0.8
2025-04-09T1000,3359A,104.0578,30.5225,成都市,华阳,细颗粒物(PM2.5),77,100,77,56,50,65,,18,18,51,55,7,6,1.2,1.2
2025-04-09T1000,3488A,104.3853,30.7453,成都市,青白江技师分院,细颗粒物(PM2.5),89,100,71,66,41,83,,68,60,58,38,8,7,1.0,0.7
2025-04-09T1000,3489A,104.0789,30.4072,成都市,科学城,细颗粒物(PM2.5),89,102,70,66,41,68,,26,26,33,34,8,5,0.9,0.8
2025-04-09T1000,4011A,103.8506,30.6947,成都市,光华大道三段,颗粒物(PM10),54,57,79,30,41,107,,62,62,25,36,2,3,0.8,0.8
2025-04-09T1000,4224A,104.2433,30.5353,成都市,鲸龙路1057号,细颗粒物(PM2.5),99,128,74,74,38,81,,60,60,46,41,6,4,1.2,1
2025-04-09T1000,1062A,117.9531,40.9081,承德市,铁路,,,,39,,16,90,,83,82,16,18,,12,,0.4
2025-04-09T1000,1063A,117.9392,40.9763,承德市,中国银行,,30,17,33,6,16,94,,98,95,11,10,4,11,0.3,0.4
2025-04-09T1000,1064A,117.9503,40.928,承德市,开发区,,33,32,39,23,19,96,,90,90,13,13,7,14,0.4,0.5
2025-04-09T1000,1065A,117.8051,40.9655,承德市,文化中心,,39,34,43,27,20,93,,92,90,12,13,5,17,0.3,0.4
2025-04-09T1000,1066A,117.9268,41.0026,承德市,离宫,,43,,33,30,26,65,,59,59,10,8,23,27,0.3,0.3
2025-04-09T1000,2314A,117.47,30.6618,池州市,池州学院,"颗粒物(PM10),细颗粒物(PM2.5)",63,76,72,45,40,109,,66,66,13,17,14,8,1.1,0.8
2025-04-09T1000,3237A,117.4918,30.6617,池州市,展览馆,细颗粒物(PM2.5),67,76,69,48,38,116,,62,62,16,21,17,7,1.5,0.9
2025-04-09T1000,3333A,117.5627,30.695,池州市,第八中学,颗粒物(PM10),61,72,71,41,39,118,,62,62,14,22,9,9,0.8,0.7
2025-04-09T1000,3334A,117.5038,30.6243,池州市,第十二中学,颗粒物(PM10),65,79,74,46,42,97,,70,67,18,22,7,9,1.1,1
2025-04-09T1000,1744A,118.9233,42.2816,赤峰市,松山一中,颗粒物(PM10),53,55,46,20,19,93,,96,94,24,24,12,11,0.5,0.5
2025-04-09T1000,1745A,118.9576,42.2728,赤峰市,哈达街,,49,49,38,20,16,98,,96,96,15,18,8,9,0.5,0.6
2025-04-09T1000,1746A,118.8788,42.2554,赤峰市,天义路,,39,38,30,27,20,98,,102,99,16,16,8,9,0.4,0.4
2025-04-09T1000,3058A,119.2658,42.0353,赤峰市,银河街,颗粒物(PM10),61,71,54,42,27,83,,80,80,23,18,20,21,0.5,0.5
2025-04-09T1000,3286A,118.9359,42.3147,赤峰市,桥北物流园区,颗粒物(PM10),51,51,38,16,26,89,,93,92,22,28,10,14,0.7,0.7
2025-04-09T1000,2521A,107.3476,22.4136,崇左市,市环保局江州分局,颗粒物(PM10),51,51,60,31,29,37,,45,39,15,14,7,7,0.9,1.1
2025-04-09T1000,4256A,107.3750,22.3736,崇左市,石景林东路7号,,50,43,41,35,28,38,,51,44,20,13,5,5,0.8,0.9
2025-04-09T1000,2298A,118.3093,32.3153,滁州市,老年大学,细颗粒物(PM2.5),93,75,93,69,63,105,,78,78,23,23,6,5,0.8,0.8
2025-04-09T1000,2299A,118.3244,32.2786,滁州市,人大宾馆,细颗粒物(PM2.5),88,85,100,65,70,113,,91,91,33,27,12,11,0.7,0.7
2025-04-09T1000,3207A,118.3118,32.3038,滁州市,市政府原办公楼,细颗粒物(PM2.5),98,78,96,73,65,102,,85,85,10,12,5,6,0.7,0.6
2025-04-09T1000,3331A,118.3267,32.2634,滁州市,图书馆,,,86,101,63,62,,,87,87,15,17,13,9,0.6,0.6
2025-04-09T1000,2605A,101.5482,25.0441,楚雄彝族自治州,州环境监测站,,,73,61,60,49,,,92,81,35,16,,8,0.8,0.6
2025-04-09T1000,2606A,101.538,25.0492,楚雄彝族自治州,市经济开发区,细颗粒物(PM2.5),82,95,66,60,50,81,,84,72,33,18,10,8,0.9,0.7
2025-04-09T1000,2548A,107.5277,31.2827,达州市,达州职业技术学院,颗粒物(PM10),65,80,73,39,31,46,,13,13,33,33,21,8,0.2,0.2
2025-04-09T1000,2549A,107.5086,31.2186,达州市,市环境监测站,颗粒物(PM10),69,88,74,29,29,33,,19,19,50,41,14,8,0.8,0.7
2025-04-09T1000,2550A,107.4988,31.2132,达州市,凤凰小区,颗粒物(PM10),68,85,74,31,33,41,,26,26,42,41,16,10,0.6,0.6
2025-04-09T1000,2551A,107.5082,31.1986,达州市,达县机关宾馆,颗粒物(PM10),70,90,81,39,30,44,,16,16,42,50,14,8,0.6,0.6
2025-04-09T1000,2552A,107.4644,31.2124,达州市,市政中心,颗粒物(PM10),68,86,82,39,30,33,,14,14,45,48,6,5,0.8,0.8
2025-04-09T1000,2614A,100.1542,25.7054,大理白族自治州,大理市环境监测站,细颗粒物(PM2.5),67,59,66,48,46,117,,119,117,13,11,7,7,0.8,0.8
2025-04-09T1000,2615A,100.2171,25.5811,大理白族自治州,大理古城,细颗粒物(PM2.5),72,68,57,52,48,106,,97,94,16,13,8,8,1.0,0.8
2025-04-09T1000,1109A,121.612,38.9741,大连市,甘井子,,49,49,54,34,29,62,,83,82,48,35,7,7,0.7,0.8
2025-04-09T1000,1110A,121.565,38.9511,大连市,周水子,,49,49,62,33,34,51,,62,62,49,48,8,8,0.4,0.5
2025-04-09T1000,1111A,121.5637,38.8845,大连市,星海三站,,45,45,45,30,22,47,,59,53,33,24,5,7,0.5,0.5
2025-04-09T1000,1112A,121.6302,38.9117,大连市,青泥洼桥,颗粒物(PM10),51,52,45,31,23,54,,76,66,41,34,8,9,0.5,0.4
2025-04-09T1000,1113A,121.6251,38.8638,大连市,傅家庄,,45,45,41,29,20,51,,58,52,36,29,6,7,0.2,0.2
2025-04-09T1000,1114A,121.5213,38.8661,大连市,七贤岭,颗粒物(PM10),52,53,42,35,21,52,,63,56,36,22,7,6,0.4,0.4
2025-04-09T1000,1115A,121.2529,38.8061,大连市,旅顺,,39,35,35,27,24,54,,61,52,43,32,8,8,0.5,0.5
2025-04-09T1000,1116A,121.7485,39.1311,大连市,金州,颗粒物(PM10),53,56,75,31,31,62,,66,62,45,35,7,9,1.0,1
2025-04-09T1000,1117A,121.7811,39.0496,大连市,开发区,颗粒物(PM10),52,54,62,25,29,20,,62,56,82,40,10,11,0.8,0.7
2025-04-09T1000,1118A,121.9762,39.0631,大连市,双D港,,33,28,47,23,25,38,,37,26,51,37,8,9,0.5,0.5
2025-04-09T1000,1789A,124.81117,46.03138,大庆市,大同区,细颗粒物(PM2.5),77,78,41,56,30,76,,69,69,11,10,6,5,0.5,0.4
2025-04-09T1000,1790A,125.129,46.533,大庆市,龙凤区,,45,38,41,31,21,72,,59,59,20,17,10,7,2.2,0.7
2025-04-09T1000,1791A,124.902,46.408,大庆市,红岗区,,27,27,31,10,26,86,,72,72,9,12,6,7,0.3,0.3
2025-04-09T1000,1792A,125.153,46.586,大庆市,萨尔图区,,49,49,44,26,24,69,,65,64,20,19,8,8,0.7,0.8
2025-04-09T1000,1793A,124.9042,46.6215,大庆市,让胡路区,,,35,25,,23,78,,68,67,11,13,6,6,0.3,0.2
2025-04-09T1000,3481A,125.141,46.634,大庆市,萨区政府监测点,,34,34,36,12,13,88,,77,76,9,12,6,6,0.3,0.4
2025-04-09T1000,1721A,113.3819,40.1097,大同市,果树场,,50,,49,35,32,43,,11,11,21,29,18,12,0.8,0.9
2025-04-09T1000,1723A,113.2994,40.0758,大同市,云冈宾馆,细颗粒物(PM2.5),58,51,65,41,32,35,,31,28,36,30,16,10,2.0,0.8
2025-04-09T1000,1724A,113.3444,40.0917,大同市,大同大学,,50,47,46,35,30,41,,19,19,23,28,19,13,0.9,0.8
2025-04-09T1000,1725A,113.2661,40.1269,大同市,安家小村,,,69,57,52,37,,,25,21,29,27,,11,1.9,1.1
2025-04-09T1000,1726A,113.2711,40.0844,大同市,教育学院,细颗粒物(PM2.5),77,65,51,56,34,24,,29,24,39,30,15,11,1.7,0.9
2025-04-09T1000,3282A,113.3397,40.0597,大同市,大同市卫生学校,细颗粒物(PM2.5),59,57,51,42,34,33,,20,20,35,32,12,8,1.2,0.9
2025-04-09T1000,3565A,113.1367,40.1122,大同市,云冈站,细颗粒物(PM2.5),65,61,48,47,34,24,,16,14,34,24,17,11,1.0,0.6
2025-04-09T1000,3566A,113.1186,40.2556,大同市,图书馆,细颗粒物(PM2.5),67,,42,48,30,27,,21,21,26,23,12,10,1.5,0.9
2025-04-09T1000,3567A,113.5931,40.0461,大同市,区一中,颗粒物(PM10),55,60,49,34,32,59,,44,44,13,20,17,14,0.6,0.6
2025-04-09T1000,4199A,113.2798,40.0997,大同市,魏都大道141号,细颗粒物(PM2.5),67,72,62,48,31,39,,27,26,31,30,21,14,2.5,1
2025-04-09T1000,2269A,124.1069,50.4097,大兴安岭地区,科技局,,33,33,30,17,16,80,,92,90,3,4,8,8,0.4,0.4
2025-04-09T1000,3663A,124.1164,50.4278,大兴安岭地区,红旗社区,,,12,18,3,7,,,90,89,1,3,4,4,0.4,0.4
2025-04-09T1000,1600A,124.3303,40.0625,丹东市,江湾东路,细颗粒物(PM2.5),62,70,66,44,45,80,,46,46,24,22,12,11,0.7,0.9
2025-04-09T1000,1601A,124.4256,40.1503,丹东市,临江后街,细颗粒物(PM2.5),80,89,66,59,43,31,,41,39,39,22,11,6,1.0,0.9
2025-04-09T1000,1602A,124.3933,40.1461,丹东市,元宝山,细颗粒物(PM2.5),75,92,63,55,39,39,,40,40,45,22,9,7,0.9,0.7
2025-04-09T1000,1603A,124.3633,40.1092,丹东市,民主桥,细颗粒物(PM2.5),77,86,68,56,40,49,,39,39,37,30,15,12,1.1,1.1
2025-04-09T1000,3541A,109.5726,19.5167,儋州市,第一中学子站,,30,30,34,17,18,76,,69,69,5,7,6,5,0.6,0.6
2025-04-09T1000,3542A,109.5567,19.5187,儋州市,东坡学校子站,,48,48,31,17,21,86,,75,75,4,6,5,5,0.5,0.5
2025-04-09T1000,2616A,98.5842,24.428,德宏傣族景颇族自治州,德宏州监测站,细颗粒物(PM2.5),130,133,110,99,84,33,,44,33,46,30,11,10,1.4,1.2
2025-04-09T1000,3677A,98.5881,24.4368,德宏傣族景颇族自治州,芒市人民政府综合楼,细颗粒物(PM2.5),142,190,128,108,81,41,,71,60,39,19,8,8,1.3,1
2025-04-09T1000,1901A,104.4239,31.1208,德阳市,东山公园,颗粒物(PM10),70,89,81,48,42,85,,85,85,29,23,10,9,0.9,0.8
2025-04-09T1000,1902A,104.3826,31.1317,德阳市,西小区,颗粒物(PM10),93,136,109,56,60,66,,46,46,58,48,12,9,1.0,0.9
2025-04-09T1000,1904A,104.3553,31.1091,德阳市,耐火材料厂,颗粒物(PM10),82,114,114,56,61,82,,40,40,43,59,16,11,0.8,0.8
2025-04-09T1000,3639A,104.4019,31.1244,德阳市,市教育局,"颗粒物(PM10),细颗粒物(PM2.5)",77,104,87,56,52,89,,54,54,42,50,14,10,0.9,0.8
2025-04-09T1000,1622A,116.3032,37.4674,德州市,儿童乐园,细颗粒物(PM2.5),94,107,103,70,47,80,,68,61,30,21,20,9,0.6,0.6
2025-04-09T1000,1624A,116.2991,37.4451,德州市,监理站,细颗粒物(PM2.5),104,114,96,78,49,73,,66,60,37,20,33,16,0.6,0.5
2025-04-09T1000,3066A,116.2721,37.4379,德州市,九衢泉纯净水厂,细颗粒物(PM2.5),107,132,97,80,45,63,,49,42,47,30,37,12,0.9,0.7
2025-04-09T1000,3371A,116.3728,37.4403,德州市,开发区人民医院,颗粒物(PM10),74,97,93,53,36,72,,64,58,26,21,18,8,0.9,0.7
2025-04-09T1000,3372A,116.3572,37.4094,德州市,太阳城中学,细颗粒物(PM2.5),85,100,94,63,46,68,,52,51,28,21,11,7,0.6,0.4
2025-04-09T1000,3511A,116.5652,37.3319,德州市,陵城艺术中心,细颗粒物(PM2.5),73,63,90,53,40,72,,61,57,17,20,14,6,0.6,0.6
2025-04-09T1000,2621A,99.7056,27.8317,迪庆藏族自治州,迪庆州站,颗粒物(PM10),51,51,50,28,25,101,,83,79,12,11,9,11,0.6,0.5
2025-04-09T1000,3180A,99.7136,27.8094,迪庆藏族自治州,质量技术监督局,,50,50,35,26,19,93,,93,85,22,11,12,11,0.6,0.5
2025-04-09T1000,4257A,104.6092,35.5962,定西市,将台街,颗粒物(PM10),151,252,133,48,34,36,,31,29,38,19,6,6,0.8,0.5
2025-04-09T1000,4309A,104.6159,35.5701,定西市,正龙路62号,颗粒物(PM10),196,341,148,75,37,55,,38,38,18,12,11,11,0.4,0.3
2025-04-09T1000,1389A,113.7547,23.0494,东莞市,莞城梨川,,46,46,76,31,43,66,,28,28,36,41,6,5,0.7,0.6
2025-04-09T1000,1390A,113.7944,23.0128,东莞市,东城石井,颗粒物(PM10),54,57,61,34,34,69,,21,21,33,31,6,6,0.7,0.7
2025-04-09T1000,1391A,113.7383,22.9658,东莞市,南城西平,,33,33,55,20,29,85,,29,29,21,40,7,7,0.7,0.7
2025-04-09T1000,3319A,113.7338,23.0381,东莞市,万江金泰,,37,37,66,16,34,73,,19,19,24,40,7,7,0.9,0.8
2025-04-09T1000,3626A,113.7533,23.0202,东莞市,南城元岭,颗粒物(PM10),51,51,65,27,34,67,,22,22,29,38,7,6,0.9,0.8
2025-04-09T1000,3627A,113.7875,23.0457,东莞市,东城主山,,38,38,85,20,40,72,,28,28,33,46,3,4,0.7,0.8
2025-04-09T1000,1666A,118.6614,37.4309,东营市,市环保局,,46,46,30,31,9,94,,50,50,21,18,18,7,0.6,0.5
2025-04-09T1000,3036A,118.6904,37.4338,东营市,开发区管委会,,48,48,38,29,13,98,,46,46,20,23,11,6,0.5,0.5
2025-04-09T1000,3365A,118.5719,37.565,东营市,垦利区民丰路,,46,46,28,31,11,81,,51,51,15,16,6,6,0.9,0.7
2025-04-09T1000,3498A,118.5055,37.8612,东营市,河口城区,,48,48,37,24,9,89,,59,59,20,16,12,5,0.9,0.7
2025-04-09T1000,3646A,118.4978,37.4623,东营市,胜利站,颗粒物(PM10),53,55,44,27,12,87,,52,52,16,18,16,10,0.7,0.6
2025-04-09T1000,3734A,118.35,37.26,东营市,理想之城,颗粒物(PM10),51,51,38,27,12,88,,44,44,19,20,14,8,0.5,0.4
2025-04-09T1000,1591A,110.0023,39.8129,鄂尔多斯市,综合楼,颗粒物(PM10),56,61,121,17,34,78,,81,79,18,19,5,6,0.4,0.4
2025-04-09T1000,1592A,109.9486,39.8261,鄂尔多斯市,巴音孟克林场办事处,颗粒物(PM10),51,51,136,19,37,83,,78,76,10,15,7,8,0.2,0.3
2025-04-09T1000,1593A,109.7736,39.5986,鄂尔多斯市,康泽苑,颗粒物(PM10),52,53,144,14,40,90,,74,74,5,12,4,4,0.2,0.2
2025-04-09T1000,1594A,109.8119,39.5989,鄂尔多斯市,华泰汽车城,颗粒物(PM10),59,68,145,12,40,85,,73,73,6,14,4,4,0.4,0.5
2025-04-09T1000,1595A,109.9734,39.7884,鄂尔多斯市,奥林花园,颗粒物(PM10),57,63,126,12,31,85,,78,78,10,19,4,6,0.3,0.3
2025-04-09T1000,2436A,114.8938,30.3994,鄂州市,市政府,细颗粒物(PM2.5),95,126,97,71,57,43,,36,26,60,33,33,15,1.0,1
2025-04-09T1000,2437A,114.8989,30.3714,鄂州市,赵家坝,颗粒物(PM10),92,134,100,60,47,53,,35,32,52,31,17,11,1.3,1.1
2025-04-09T1000,3654A,114.8094,30.4089,鄂州市,精准医疗中心,细颗粒物(PM2.5),118,152,108,89,59,104,,58,58,58,40,35,13,1.2,1
2025-04-09T1000,2454A,109.4978,30.2981,恩施土家族苗族自治州,湖北民院,细颗粒物(PM2.5),57,59,58,40,35,50,,39,39,31,23,1,1,0.2,0.3
2025-04-09T1000,2455A,109.4707,30.2798,恩施土家族苗族自治州,州电力总公司,颗粒物(PM10),57,64,62,32,39,25,,14,14,33,26,6,5,0.3,0.2
2025-04-09T1000,3549A,109.5061,30.3772,恩施土家族苗族自治州,龙凤新区,,50,42,52,35,30,64,,29,29,11,15,6,6,0.5,0.5
2025-04-09T1000,2499A,108.3411,21.6158,防城港市,沙万,颗粒物(PM10),65,79,52,28,27,19,,56,41,61,29,2,3,0.8,0.6
2025-04-09T1000,2500A,108.3514,21.7731,防城港市,防城档案局,,40,40,47,24,30,35,,48,43,22,14,5,4,0.7,0.6
2025-04-09T1000,2501A,108.3506,21.6414,防城港市,大海花园,,47,47,46,17,27,49,,60,52,36,26,3,2,0.7,0.7
2025-04-09T1000,1371A,113.1294,23.0067,佛山市,湾梁,颗粒物(PM10),54,58,76,24,30,83,,60,57,27,34,8,8,0.8,0.8
2025-04-09T1000,1372A,113.1083,23.0478,佛山市,华材职中,颗粒物(PM10),52,53,72,32,35,81,,70,67,31,37,7,7,0.6,0.6
2025-04-09T1000,1373A,113.144,23.0453,佛山市,南海气象局,颗粒物(PM10),57,63,71,29,36,75,,55,51,28,34,8,7,0.7,0.7
2025-04-09T1000,1374A,113.2881,22.8094,佛山市,顺德苏岗,颗粒物(PM10),54,57,65,24,28,73,,58,58,26,26,7,7,0.8,0.7
2025-04-09T1000,1376A,112.8383,22.8678,佛山市,高明孔堂,,35,27,62,24,37,86,,61,61,7,21,5,6,0.6,0.7
2025-04-09T1000,1377A,112.8836,23.1588,佛山市,三水监测站,细颗粒物(PM2.5),72,75,95,52,46,45,,16,16,48,72,8,5,0.7,0.8
2025-04-09T1000,1378A,112.867,23.185,佛山市,三水云东海,细颗粒物(PM2.5),73,67,83,53,52,56,,15,15,46,56,7,3,0.7,0.7
2025-04-09T1000,3625A,113.2544,22.7642,佛山市,容桂街道办,,45,41,58,31,34,76,,64,62,30,30,8,8,0.9,0.8
2025-04-09T1000,1280A,119.3903,26.0543,福州市,鼓山,,,,65,,34,,,115,,,11,,2,,0.6
2025-04-09T1000,1282A,119.2681,26.0504,福州市,师大,颗粒物(PM10),60,69,69,32,36,98,,56,54,10,16,5,5,0.5,0.5
2025-04-09T1000,1283A,119.2984,26.1028,福州市,五四北路,颗粒物(PM10),60,69,68,40,39,94,,55,55,16,23,5,5,0.7,0.7
2025-04-09T1000,1284A,119.2648,26.0768,福州市,杨桥西路,颗粒物(PM10),68,86,74,44,38,91,,54,51,17,21,5,5,0.7,0.6
2025-04-09T1000,1285A,119.317,26.0746,福州市,紫阳,,,86,76,46,40,73,,55,55,,34,,6,0.7,0.6
2025-04-09T1000,3048A,119.5799,26.0936,福州市,九龙,颗粒物(PM10),56,62,55,37,31,86,,43,43,20,15,7,5,0.5,0.4
2025-04-09T1000,3526A,119.5189,25.9664,福州市,吴航,细颗粒物(PM2.5),63,73,69,45,36,81,,40,40,21,20,5,5,0.7,0.6
2025-04-09T1000,1755A,123.7977,41.8491,抚顺市,望花区,细颗粒物(PM2.5),133,159,101,101,75,74,,38,38,53,39,29,12,1.6,0.9
2025-04-09T1000,1756A,123.9161,41.8822,抚顺市,顺城区,细颗粒物(PM2.5),90,99,89,67,59,51,,42,42,54,44,14,9,1.1,0.8
2025-04-09T1000,1757A,124.0436,41.8611,抚顺市,东洲区,细颗粒物(PM2.5),97,83,79,72,59,55,,52,51,36,22,8,6,1.2,0.7
2025-04-09T1000,1758A,123.9247,41.8642,抚顺市,新抚区,细颗粒物(PM2.5),104,126,87,78,54,55,,30,30,51,40,10,6,1.3,0.8
2025-04-09T1000,1759A,124.0972,41.8961,抚顺市,大伙房水库,细颗粒物(PM2.5),77,,60,56,55,75,,58,58,17,15,8,7,0.9,0.6
2025-04-09T1000,1760A,123.7086,41.8391,抚顺市,沈抚新城,细颗粒物(PM2.5),119,171,107,90,73,86,,35,35,52,46,30,11,1.7,1.1
2025-04-09T1000,2376A,116.2127,28.0814,抚州市,桐源党溪,颗粒物(PM10),58,65,59,38,34,38,,21,18,7,6,10,9,0.7,0.6
2025-04-09T1000,2377A,116.3544,27.9831,抚州市,市站,颗粒物(PM10),54,57,66,34,37,56,,40,40,20,24,8,9,1.1,1.2
2025-04-09T1000,2378A,116.3565,27.963,抚州市,血防站,颗粒物(PM10),56,62,63,38,35,42,,29,29,20,23,10,9,0.6,1.2
2025-04-09T1000,2379A,116.3564,28.0007,抚州市,采茶剧团,,,59,61,32,35,48,,26,26,13,16,3,2,,1.4
2025-04-09T1000,2380A,116.385,27.9647,抚州市,医学分院,颗粒物(PM10),58,65,79,34,33,50,,34,34,23,26,5,6,0.6,0.7
2025-04-09T1000,2207A,121.6094,41.998,阜新市,工业园区,,,39,49,18,39,,,64,62,23,19,11,14,,0.5
2025-04-09T1000,2208A,121.6697,42.0279,阜新市,长青街,,32,23,32,18,32,101,,81,80,17,18,12,14,0.6,0.6
2025-04-09T1000,2209A,121.6673,42.0705,阜新市,农业园区,,,58,45,31,25,101,,87,86,14,14,,14,0.5,0.5
2025-04-09T1000,2210A,121.6717,42.0224,阜新市,东苑,颗粒物(PM10),52,53,47,20,32,90,,81,78,25,20,16,18,0.5,0.5
2025-04-09T1000,2211A,121.6506,42.0498,阜新市,玉龙新城,,38,38,48,24,33,96,,58,58,14,18,17,13,0.7,0.6
2025-04-09T1000,2301A,115.8277,32.8929,阜阳市,市监测站,细颗粒物(PM2.5),98,111,88,73,52,61,,65,58,45,22,10,9,0.5,0.4
2025-04-09T1000,2303A,115.8554,32.8605,阜阳市,开发区,细颗粒物(PM2.5),94,131,99,70,47,64,,65,59,41,20,9,9,0.7,0.5
2025-04-09T1000,2875A,115.784,32.8892,阜阳市,阜阳职业技术学院,颗粒物(PM10),79,107,91,57,44,99,,60,60,19,19,8,9,0.5,0.5
2025-04-09T1000,3468A,115.7901,32.8613,阜阳市,市规划展馆,颗粒物(PM10),77,104,94,54,55,112,,77,77,14,15,9,9,0.6,0.6
2025-04-09T1000,3469A,115.836,32.9183,阜阳市,枣园社区,,,,113,,64,,,56,44,37,24,,8,,0.6
2025-04-09T1000,2669A,102.9099,34.9841,甘南藏族自治州,州政府,颗粒物(PM10),88,126,115,41,35,58,,27,27,18,20,10,8,0.6,0.4
2025-04-09T1000,3380A,102.8914,34.9617,甘南藏族自治州,甘肃民族师范学院,颗粒物(PM10),101,151,130,51,35,44,,24,24,29,27,10,8,0.9,0.6
2025-04-09T1000,2570A,101.9603,30.0475,甘孜藏族自治州,水桥子,,39,39,34,13,12,20,,14,13,27,19,3,3,0.6,0.4
2025-04-09T1000,3065A,101.9533,29.9972,甘孜藏族自治州,州环保局,颗粒物(PM10),51,51,38,9,9,53,,55,48,29,15,4,4,0.4,0.3
2025-04-09T1000,3414A,115.8347,28.932,赣江新区,桑海产业园,颗粒物(PM10),63,75,78,39,41,75,,35,35,25,40,24,17,0.8,0.6
2025-04-09T1000,2362A,114.9017,25.9149,赣州市,通天岩,颗粒物(PM10),51,52,56,7,11,124,,126,120,6,6,14,8,1.0,1
2025-04-09T1000,2363A,114.9367,25.8664,赣州市,地委,细颗粒物(PM2.5),65,70,72,47,44,25,,12,12,32,33,6,4,1.3,1.3
2025-04-09T1000,2364A,114.9461,25.8481,赣州市,气象台,颗粒物(PM10),64,77,77,42,39,47,,26,26,50,44,18,12,1.0,0.9
2025-04-09T1000,2365A,114.9322,25.8333,赣州市,市图书馆,颗粒物(PM10),72,94,78,46,46,36,,19,19,51,43,12,8,1.1,1
2025-04-09T1000,2366A,114.8905,25.8471,赣州市,华坚鞋城,细颗粒物(PM2.5),73,93,83,53,45,41,,36,36,46,44,17,14,0.7,0.7
2025-04-09T1000,3109A,115.0093,25.8613,赣州市,赣县区卫计委,颗粒物(PM10),58,65,63,40,42,43,,30,30,30,27,10,9,0.5,0.6
2025-04-09T1000,2683A,106.2319,36.1417,固原市,马园,颗粒物(PM10),167,284,265,73,71,75,,20,20,14,32,5,5,0.6,0.6
2025-04-09T1000,2684A,106.2792,36.0022,固原市,监测站,颗粒物(PM10),141,232,226,58,61,95,,60,60,,18,,6,0.2,0.3
2025-04-09T1000,2685A,106.2375,36.0211,固原市,新区,颗粒物(PM10),136,221,229,55,60,96,,71,71,9,20,6,6,0.4,0.4
2025-04-09T1000,3522A,106.2177,35.9959,固原市,原州区十五小,颗粒物(PM10),118,186,212,55,62,100,,92,92,6,11,8,7,0.2,0.2
2025-04-09T1000,2543A,106.6308,30.5278,广安市,小平旧居,,,,,,,,,,,,,,,,
2025-04-09T1000,2544A,106.6303,30.4576,广安市,市委,颗粒物(PM10),80,109,83,44,43,45,,27,27,45,32,10,10,0.9,0.6
2025-04-09T1000,2545A,106.6271,30.4663,广安市,友谊中学,颗粒物(PM10),64,78,72,35,38,43,,30,30,44,28,4,3,1.0,0.7
2025-04-09T1000,2547A,106.6388,30.4551,广安市,广电花园,颗粒物(PM10),84,118,81,44,43,30,,25,25,46,33,10,10,1.0,0.8
2025-04-09T1000,2902A,106.6351,30.4865,广安市,北辰小学,,,92,73,40,39,66,,36,36,25,20,,9,,0.9
2025-04-09T1000,2523A,105.8945,32.4535,广元市,黑石坡,颗粒物(PM10),68,86,94,17,23,72,,98,97,20,11,3,5,0.3,0.4
2025-04-09T1000,2524A,105.821,32.4444,广元市,老城,颗粒物(PM10),69,87,81,25,27,40,,42,42,51,38,3,3,1.0,1
2025-04-09T1000,2526A,105.8628,32.4287,广元市,监测站,,,,59,,25,39,,64,55,55,21,,11,0.8,0.5
2025-04-09T1000,3617A,105.8047,32.4166,广元市,经开区,颗粒物(PM10),91,132,86,57,33,33,,35,34,61,35,12,9,1.0,0.8
2025-04-09T1000,1345A,113.2347,23.1423,广州市,广雅中学,颗粒物(PM10),51,52,75,22,34,54,,55,53,27,53,4,5,0.8,0.8
2025-04-09T1000,1346A,113.2612,23.105,广州市,市五中,,45,45,71,21,31,77,,55,55,23,37,4,3,0.8,0.8
2025-04-09T1000,1348A,113.3478,23.0916,广州市,广东商学院,,46,46,65,24,35,73,,28,28,27,50,5,5,0.7,0.6
2025-04-09T1000,1349A,113.4332,23.1047,广州市,市八十六中,,50,50,57,19,23,49,,18,18,34,59,4,5,0.8,0.8
2025-04-09T1000,1350A,113.3505,22.9483,广州市,番禺中学,,50,50,57,30,31,83,,49,49,25,32,5,5,0.6,0.6
2025-04-09T1000,1351A,113.2146,23.3916,广州市,花都师范,颗粒物(PM10),61,72,97,32,46,51,,14,14,41,74,4,6,0.7,0.8
2025-04-09T1000,1352A,113.2597,23.1331,广州市,市监测站,,43,43,68,22,32,70,,52,52,28,46,9,6,0.6,0.6
2025-04-09T1000,1353A,113.5618,23.312,广州市,九龙镇镇龙,颗粒物(PM10),58,65,78,37,45,45,,24,23,46,47,9,6,0.7,0.7
2025-04-09T1000,1354A,113.2765,23.1544,广州市,麓湖,,43,43,62,23,33,76,,44,44,26,48,5,5,0.7,0.7
2025-04-09T1000,1355A,113.443,23.3035,广州市,帽峰山森林公园,颗粒物(PM10),54,58,63,23,26,52,,47,47,40,35,4,5,0.6,0.7
2025-04-09T1000,2846A,113.3221,23.1322,广州市,体育西,颗粒物(PM10),53,55,75,28,39,72,,28,28,20,42,4,5,0.7,0.7
2025-04-09T1000,3298A,113.5717,23.5491,广州市,从化街口,细颗粒物(PM2.5),55,57,90,39,58,76,,22,22,21,43,10,9,0.9,1
2025-04-09T1000,3299A,113.3472,23.3692,广州市,白云竹料,颗粒物(PM10),52,53,98,29,53,77,,31,31,28,54,8,9,0.6,0.8
2025-04-09T1000,3300A,113.2981,23.237,广州市,白云嘉禾,颗粒物(PM10),53,56,90,31,45,70,,20,20,32,74,6,6,0.7,0.7
2025-04-09T1000,3301A,113.4256,23.1716,广州市,黄埔科学城,,46,46,66,25,33,78,,31,31,27,40,6,6,0.4,0.4
2025-04-09T1000,3302A,113.3942,23.0483,广州市,番禺大学城,颗粒物(PM10),52,53,73,22,27,82,,50,50,28,36,12,11,0.6,0.5
2025-04-09T1000,3303A,113.4922,22.8168,广州市,南沙黄阁,,46,46,54,26,23,77,,60,60,25,26,5,5,0.7,0.7
2025-04-09T1000,3304A,113.5342,22.7896,广州市,南沙街,,38,36,50,26,22,85,,63,63,20,23,5,4,0.6,0.6
2025-04-09T1000,3443A,113.2902,23.5544,广州市,花都梯面,颗粒物(PM10),54,58,67,35,40,68,,25,25,30,46,5,6,0.8,0.8
2025-04-09T1000,3445A,113.7858,23.7478,广州市,从化良口,细颗粒物(PM2.5),58,50,60,41,41,86,,36,36,15,20,7,7,0.7,0.7
2025-04-09T1000,3446A,113.8051,23.2614,广州市,增城荔城,,,84,90,57,55,,,16,10,39,31,8,7,0.5,0.5
2025-04-09T1000,2505A,109.568,23.1478,贵港市,德智高中,,,,,,,,,,,,,,,,
2025-04-09T1000,2506A,109.6047,23.0666,贵港市,江南子站,细颗粒物(PM2.5),59,58,78,42,45,45,,26,26,21,32,4,4,0.7,0.7
2025-04-09T1000,2508A,109.5669,23.1065,贵港市,荷城子站,颗粒物(PM10),60,69,85,39,45,42,,33,33,24,40,5,5,0.4,0.6
2025-04-09T1000,3405A,109.5886,23.1172,贵港市,新世纪学校,细颗粒物(PM2.5),65,70,77,47,49,41,,27,27,38,48,8,7,0.8,0.9
2025-04-09T1000,4260A,109.5933,23.0951,贵港市,中山路155-3号,颗粒物(PM10),63,76,87,43,49,40,,30,30,27,32,7,7,1.0,1
2025-04-09T1000,1439A,106.6899,26.5998,贵阳市,马鞍山,细颗粒物(PM2.5),62,58,50,44,38,7,,6,6,20,16,3,5,0.8,0.7
2025-04-09T1000,1441A,106.6243,26.6266,贵阳市,鉴湖路,颗粒物(PM10),58,66,62,39,38,42,,50,48,25,16,12,11,0.8,0.7
2025-04-09T1000,1442A,106.7487,26.6343,贵阳市,燕子冲,细颗粒物(PM2.5),89,80,60,66,52,7,,6,5,32,24,8,4,1.3,0.8
2025-04-09T1000,1443A,106.6555,26.4365,贵阳市,碧云窝,细颗粒物(PM2.5),73,85,69,53,42,8,,12,11,34,21,8,6,0.9,0.7
2025-04-09T1000,1445A,106.7109,26.6027,贵阳市,红边门,,,,71,,55,14,,16,16,,34,,11,0.8,1.2
2025-04-09T1000,1446A,106.7164,26.5699,贵阳市,新华路,细颗粒物(PM2.5),77,75,74,56,52,15,,12,12,38,35,13,15,1.0,0.9
2025-04-09T1000,1447A,106.674,26.5424,贵阳市,太慈桥,细颗粒物(PM2.5),73,70,62,53,45,8,,7,7,33,30,8,6,1.1,0.9
2025-04-09T1000,1552A,106.805,26.3003,贵阳市,桐木岭,细颗粒物(PM2.5),64,75,60,46,43,62,,67,67,8,6,4,4,0.9,0.9
2025-04-09T1000,4230A,106.6882,26.5695,贵阳市,花果园大街66号,细颗粒物(PM2.5),75,68,66,55,57,8,,18,17,46,38,9,8,1.0,0.7
2025-04-09T1000,4231A,106.6873,26.5169,贵阳市,漓江路57号,细颗粒物(PM2.5),77,78,70,56,51,14,,12,12,44,33,14,12,1.1,0.8
2025-04-09T1000,1862A,110.4144,25.3167,桂林市,电子科大尧山校区,,,,,,,,,,,,,,,,
2025-04-09T1000,1864A,110.3089,25.2708,桂林市,龙隐路小学,细颗粒物(PM2.5),133,134,132,101,110,24,,28,23,22,30,8,27,1.1,1.1
2025-04-09T1000,1865A,110.2869,25.2178,桂林市,八中,细颗粒物(PM2.5),133,127,140,101,108,22,,20,20,31,41,8,18,1.0,1.1
2025-04-09T1000,3531A,110.296,25.1253,桂林市,旅游学院,细颗粒物(PM2.5),132,110,118,100,105,14,,11,11,30,34,8,11,1.0,0.9
2025-04-09T1000,4222A,110.1835,25.2444,桂林市,环湖路276号,细颗粒物(PM2.5),140,129,144,107,118,17,,17,14,30,40,48,56,0.8,0.8
2025-04-09T1000,4301A,110.2803,25.2773,桂林市,信义路13号,细颗粒物(PM2.5),142,154,140,108,124,11,,22,19,31,36,8,36,1.2,1.1
2025-04-09T1000,2674A,100.2561,34.4714,果洛藏族自治州,玛沁县大武镇,颗粒物(PM10),64,77,72,27,27,73,,58,53,19,4,27,15,0.8,0.4
2025-04-09T1000,1129A,126.5422,45.755,哈尔滨市,岭北,细颗粒物(PM2.5),64,60,43,46,35,119,,88,88,18,19,21,17,0.9,0.8
2025-04-09T1000,1130A,126.561,45.8167,哈尔滨市,松北商大,,,62,49,40,35,,,72,71,13,17,10,9,0.7,0.7
2025-04-09T1000,1131A,126.979,45.5419,哈尔滨市,阿城会宁,细颗粒物(PM2.5),82,69,72,60,59,121,,77,77,13,15,4,7,0.7,0.7
2025-04-09T1000,1132A,126.599,45.7222,哈尔滨市,南岗学府路,"颗粒物(PM10),细颗粒物(PM2.5)",65,80,69,47,41,112,,75,75,16,19,9,8,0.7,0.7
2025-04-09T1000,1133A,126.689,45.7733,哈尔滨市,太平宏伟公园,细颗粒物(PM2.5),62,72,54,44,39,114,,81,81,19,19,10,6,0.7,0.7
2025-04-09T1000,1134A,126.635,45.7667,哈尔滨市,道外承德广场,细颗粒物(PM2.5),58,53,53,41,44,108,,74,74,21,25,8,7,0.6,0.6
2025-04-09T1000,1135A,126.685,45.7319,哈尔滨市,香坊红旗大街,颗粒物(PM10),71,92,68,48,48,106,,66,66,20,27,10,8,0.7,0.7
2025-04-09T1000,1136A,126.6411,45.7258,哈尔滨市,动力和平路,颗粒物(PM10),81,112,70,49,44,102,,69,69,18,22,10,8,0.7,0.6
2025-04-09T1000,1137A,126.593,45.7478,哈尔滨市,道里建国路,,,71,56,39,45,115,,72,72,18,24,,12,0.4,0.5
2025-04-09T1000,1138A,126.615,45.61,哈尔滨市,平房东轻厂,颗粒物(PM10),69,88,64,48,44,118,,72,72,12,19,10,9,0.7,0.7
2025-04-09T1000,1139A,126.595,45.9855,哈尔滨市,呼兰师专,颗粒物(PM10),57,64,46,38,37,103,,85,85,18,20,8,8,0.5,0.6
2025-04-09T1000,1140A,126.6206,45.6842,哈尔滨市,省农科院,颗粒物(PM10),81,111,85,53,53,108,,67,67,18,24,9,9,0.6,0.6
2025-04-09T1000,2688A,93.5128,42.8172,哈密市,地区监测站,颗粒物(PM10),54,58,49,15,14,63,,67,66,17,14,3,6,0.2,0.2
2025-04-09T1000,2689A,93.4961,42.8328,哈密市,哈密师范学校,颗粒物(PM10),54,57,44,11,13,70,,69,69,22,20,6,6,0.3,0.3
2025-04-09T1000,2671A,100.9048,36.9639,海北藏族自治州,海晏县西海镇,颗粒物(PM10),55,60,54,20,22,88,,75,74,5,3,10,9,0.6,0.5
2025-04-09T1000,3867A,102.0738,36.5056,海东市,平安区公安北苑,颗粒物(PM10),73,95,103,47,36,45,,65,54,26,9,13,12,0.8,0.7
2025-04-09T1000,1409A,110.576,19.9507,海口市,东寨港,,32,32,28,15,20,17,,11,11,5,6,5,5,0.6,0.6
2025-04-09T1000,1410A,110.3232,20.0574,海口市,海南大学,,41,41,46,23,24,82,,69,69,12,12,2,2,0.6,0.5
2025-04-09T1000,1411A,110.283,20.0053,海口市,秀英海南医院,细颗粒物(PM2.5),63,,35,45,28,85,,84,84,11,10,4,4,0.4,0.4
2025-04-09T1000,1412A,110.338,19.9969,海口市,海南师范大学,,34,34,38,21,22,84,,81,81,7,7,3,4,0.5,0.5
2025-04-09T1000,1413A,110.33,20.0356,海口市,龙华路环保局宿舍,,34,34,37,23,22,80,,75,75,10,6,4,4,0.5,0.4
2025-04-09T1000,3539A,110.5111,19.9736,海口市,桂林洋子站,,29,29,37,19,22,84,,62,62,6,8,4,4,0.4,0.3
2025-04-09T1000,2673A,100.6188,36.2866,海南藏族自治州,共和县恰卜恰镇,,,,111,,37,75,,74,67,25,12,,13,0.5,0.4
2025-04-09T1000,2676A,97.3731,37.3753,海西蒙古族藏族自治州,德令哈市,颗粒物(PM10),75,100,80,28,22,69,,94,83,30,5,8,9,1.0,0.4
2025-04-09T1000,1048A,114.5302,36.6116,邯郸市,东污水处理厂,,,,57,,14,,,86,,,30,,5,,0.6
2025-04-09T1000,1049A,114.4918,36.5713,邯郸市,矿院,细颗粒物(PM2.5),55,49,53,39,30,58,,31,31,12,22,6,4,0.7,0.6
2025-04-09T1000,1050A,114.484,36.6133,邯郸市,丛台公园,细颗粒物(PM2.5),60,43,56,43,31,82,,52,52,19,23,13,9,0.8,0.6
2025-04-09T1000,3458A,114.7895,36.5593,邯郸市,香泉濮院小区,细颗粒物(PM2.5),64,72,70,46,29,82,,59,59,12,17,6,4,0.6,0.3
2025-04-09T1000,3579A,114.50634,36.77178,邯郸市,永年区实验高中,细颗粒物(PM2.5),90,120,74,67,35,35,,32,26,41,33,7,5,1.1,0.7
2025-04-09T1000,3580A,114.20016,36.44293,邯郸市,峰峰矿区临水派出所,细颗粒物(PM2.5),87,98,58,64,33,52,,34,34,31,23,19,12,1.8,1.1
2025-04-09T1000,2634A,106.9893,33.1842,汉中市,汉川机床厂子校,颗粒物(PM10),62,74,69,35,30,68,,60,60,11,6,11,8,0.6,0.5
2025-04-09T1000,2635A,107.0154,33.0706,汉中市,市监测站,颗粒物(PM10),79,108,88,42,34,63,,36,36,25,22,17,9,0.8,0.6
2025-04-09T1000,2636A,107.0089,33.1138,汉中市,鑫源开发区,颗粒物(PM10),72,94,88,37,35,54,,45,44,22,27,10,11,0.6,0.6
2025-04-09T1000,2637A,107.007,33.0323,汉中市,南郑大河坎水厂,,,91,77,42,31,56,,43,42,27,18,10,6,,0.5
2025-04-09T1000,1223A,120.2072,30.2111,杭州市,滨江,颗粒物(PM10),63,75,83,35,40,112,,57,57,32,43,8,8,0.5,0.5
2025-04-09T1000,1224A,120.0633,30.2747,杭州市,西溪,细颗粒物(PM2.5),65,75,66,47,39,102,,38,38,34,29,7,6,0.5,0.4
2025-04-09T1000,1226A,120.3417,30.3150,杭州市,下沙,颗粒物(PM10),66,81,85,41,45,101,,48,48,40,53,8,9,0.6,0.5
2025-04-09T1000,1227A,120.1269,30.2456,杭州市,卧龙桥,细颗粒物(PM2.5),64,75,62,46,41,90,,49,49,40,28,8,6,0.6,0.5
2025-04-09T1000,1228A,120.1903,30.2692,杭州市,浙江农大,,,74,82,,44,,,31,31,39,49,6,6,0.6,0.5
2025-04-09T1000,1230A,120.1197,30.3119,杭州市,和睦小学,,,70,76,45,41,,,32,32,29,41,,8,0.8,0.7
2025-04-09T1000,1231A,120.3019,30.4183,杭州市,临平镇,颗粒物(PM10),72,94,93,35,45,119,,34,34,32,50,7,7,0.7,0.7
2025-04-09T1000,1232A,120.2753,30.1839,杭州市,城厢镇,颗粒物(PM10),65,79,82,44,42,110,,70,70,32,41,9,10,0.7,0.6
2025-04-09T1000,1233A,120.0883,30.1808,杭州市,云栖,颗粒物(PM10),63,75,67,38,32,102,,35,35,46,49,12,10,0.9,0.7
2025-04-09T1000,3557A,119.9464,30.0494,杭州市,镇二中,细颗粒物(PM2.5),62,67,66,44,42,79,,43,43,37,42,8,7,0.9,0.8
2025-04-09T1000,3558A,119.7183,30.2367,杭州市,市府大楼,细颗粒物(PM2.5),60,59,66,43,39,88,,58,58,26,26,9,8,0.8,0.7
2025-04-09T1000,3656A,120.1556,30.2864,杭州市,消防大队,颗粒物(PM10),65,80,80,46,46,107,,60,60,36,40,5,5,0.7,0.6
2025-04-09T1000,1270A,117.1959,31.7848,合肥市,明珠广场,颗粒物(PM10),68,85,73,41,36,105,,84,81,29,27,6,6,0.6,0.5
2025-04-09T1000,1271A,117.3072,31.8764,合肥市,三里街,颗粒物(PM10),73,95,83,36,35,110,,87,87,34,36,8,8,1.0,0.8
2025-04-09T1000,1272A,117.2588,31.8707,合肥市,琥珀山庄,颗粒物(PM10),76,102,79,47,42,116,,88,88,36,28,5,4,0.7,0.6
2025-04-09T1000,1273A,117.1604,31.9052,合肥市,董铺水库,颗粒物(PM10),76,102,81,44,40,127,,98,95,17,18,3,3,0.5,0.4
2025-04-09T1000,1274A,117.25,31.8571,合肥市,长江中路,颗粒物(PM10),73,95,79,45,42,114,,95,95,33,25,10,10,0.8,0.7
2025-04-09T1000,1275A,117.266,31.9436,合肥市,庐阳区,颗粒物(PM10),71,92,82,46,36,113,,94,90,28,28,8,7,0.6,0.5
2025-04-09T1000,1276A,117.3453,31.8616,合肥市,瑶海区,颗粒物(PM10),84,117,91,42,38,108,,86,86,40,36,9,9,0.8,0.6
2025-04-09T1000,1277A,117.3027,31.7964,合肥市,包河区,颗粒物(PM10),74,97,74,48,37,111,,90,85,42,33,8,8,0.7,0.5
2025-04-09T1000,1278A,117.2776,31.7385,合肥市,滨湖新区,细颗粒物(PM2.5),138,,77,105,47,97,,88,81,42,22,8,7,0.6,0.6
2025-04-09T1000,1279A,117.1318,31.8403,合肥市,高新区,颗粒物(PM10),75,100,79,47,37,121,,100,99,30,23,5,4,0.7,0.6
2025-04-09T1000,3464A,117.3803,31.9147,合肥市,高教基地,颗粒物(PM10),74,98,84,39,44,124,,80,80,33,28,7,7,0.6,0.5
2025-04-09T1000,3614A,79.924,37.0877,和田地区,地区环保局,颗粒物(PM10),165,280,256,45,52,62,,80,80,24,15,2,2,0.4,0.4
2025-04-09T1000,3615A,79.9131,37.113,和田地区,市环保局,颗粒物(PM10),176,302,232,74,40,23,,67,67,43,17,1,2,1.0,0.5
2025-04-09T1000,2516A,108.2011,24.715,河池市,东仁乐园,细颗粒物(PM2.5),119,167,119,90,82,20,,31,29,28,22,10,10,1.4,1.3
2025-04-09T1000,2517A,108.0497,24.6947,河池市,市环保站,细颗粒物(PM2.5),122,148,108,92,80,24,,42,34,19,15,8,9,0.9,0.8
2025-04-09T1000,2518A,108.0983,24.6989,河池市,市疾控中心,细颗粒物(PM2.5),118,116,100,89,79,13,,26,22,37,28,11,9,1.0,1
2025-04-09T1000,1696A,114.6778,23.7569,河源市,源西,细颗粒物(PM2.5),57,59,62,40,36,51,,18,18,26,39,5,4,0.7,0.8
2025-04-09T1000,1697A,114.6944,23.7586,河源市,东埔,细颗粒物(PM2.5),64,52,72,46,43,52,,15,15,30,44,6,5,0.8,0.9
2025-04-09T1000,1698A,114.6892,23.7233,河源市,老城,细颗粒物(PM2.5),65,65,61,47,46,61,,19,19,26,30,7,5,0.7,0.7
2025-04-09T1000,1718A,115.4208,35.2464,菏泽市,气象局,细颗粒物(PM2.5),147,142,135,112,75,92,,76,70,22,20,6,6,0.6,0.5
2025-04-09T1000,3374A,115.5564,35.0891,菏泽市,定陶老年大学,细颗粒物(PM2.5),149,156,127,114,69,83,,68,64,24,23,6,6,0.7,0.6
2025-04-09T1000,4184A,115.4797,35.24401,菏泽市,永昌路1号,颗粒物(PM10),112,173,166,79,75,91,,70,68,22,20,8,8,0.5,0.4
2025-04-09T1000,4193A,115.4715,35.2800,菏泽市,长城路999号,细颗粒物(PM2.5),128,143,130,97,70,99,,68,64,24,26,16,11,0.6,0.6
2025-04-09T1000,2514A,111.5264,24.4172,贺州市,环保小区,颗粒物(PM10),100,149,97,59,59,54,,49,49,34,36,10,9,0.8,0.9
2025-04-09T1000,2515A,111.5608,24.4078,贺州市,政协大楼,细颗粒物(PM2.5),70,82,78,51,53,37,,50,50,34,32,11,10,0.8,0.8
2025-04-09T1000,3534A,111.4744,24.4553,贺州市,西湾,细颗粒物(PM2.5),73,70,83,53,55,34,,48,44,35,32,6,7,1.0,0.8
2025-04-09T1000,2385A,114.17,35.9019,鹤壁市,市监测站,,,,71,,36,,,42,36,32,24,12,9,1.0,0.9
2025-04-09T1000,2386A,114.2956,35.7511,鹤壁市,市交警支队,颗粒物(PM10),78,105,78,42,29,54,,44,42,47,37,10,10,1.0,0.8
2025-04-09T1000,2387A,114.2878,35.7306,鹤壁市,迎宾馆,颗粒物(PM10),80,110,80,52,31,76,,48,48,27,27,10,7,0.8,0.8
2025-04-09T1000,3474A,114.2617,35.6822,鹤壁市,大新区,细颗粒物(PM2.5),80,98,72,59,37,68,,42,42,31,30,14,9,0.9,0.8
2025-04-09T1000,3596A,114.1572,35.9603,鹤壁市,南山宾馆,细颗粒物(PM2.5),74,95,71,54,40,68,,44,44,23,25,6,7,0.7,0.7
2025-04-09T1000,2244A,130.2537,47.3416,鹤岗市,哈啤分公司,颗粒物(PM10),51,52,37,32,25,70,,80,74,22,11,24,15,0.3,0.3
2025-04-09T1000,2245A,130.2684,47.3086,鹤岗市,斯达机电,颗粒物(PM10),57,63,47,23,27,87,,92,82,13,12,16,16,0.5,0.4
2025-04-09T1000,2246A,130.3114,47.3388,鹤岗市,东山纸板厂,颗粒物(PM10),79,108,65,23,34,78,,58,58,11,17,13,14,0.3,0.7
2025-04-09T1000,2247A,130.1097,47.3382,鹤岗市,五号水库,,,,,,,,,,,,,,,,
2025-04-09T1000,2263A,127.4833,50.2524,黑河市,交通局,,,41,39,18,22,,,84,83,6,9,,7,0.3,0.4
2025-04-09T1000,2264A,127.5144,50.2341,黑河市,环保局,,38,38,31,16,21,89,,89,89,7,8,2,4,0.4,0.5
2025-04-09T1000,2265A,127.5291,50.2472,黑河市,大黑河岛,,,,16,,9,,,94,,,6,,2,,0.3
2025-04-09T1000,1074A,115.6838,37.7541,衡水市,电机北厂,细颗粒物(PM2.5),85,107,95,63,55,64,,67,56,31,19,5,6,0.5,0.5
2025-04-09T1000,1075A,115.6303,37.7316,衡水市,市监测站,细颗粒物(PM2.5),83,93,81,61,49,83,,62,59,22,21,10,11,0.5,0.5
2025-04-09T1000,3188A,115.6683,37.7217,衡水市,市城管局,细颗粒物(PM2.5),77,81,81,56,54,72,,64,57,29,23,11,12,0.5,0.5
2025-04-09T1000,3459A,115.5989,37.5491,衡水市,地表水厂,细颗粒物(PM2.5),85,84,93,63,52,71,,38,38,19,28,10,13,0.4,0.5
2025-04-09T1000,2456A,112.5003,26.9167,衡阳市,原169医院,细颗粒物(PM2.5),79,100,77,58,47,16,,10,8,39,23,30,10,0.9,0.7
2025-04-09T1000,2457A,112.6194,26.9258,衡阳市,衡阳化工总厂,细颗粒物(PM2.5),93,97,90,69,54,28,,22,22,26,22,11,10,1.1,1
2025-04-09T1000,2458A,112.6211,26.8956,衡阳市,珠晖区环保局,细颗粒物(PM2.5),73,86,78,53,46,36,,26,26,20,17,19,10,1.2,0.9
2025-04-09T1000,2459A,112.6197,26.8733,衡阳市,市委党校,颗粒物(PM10),73,96,86,52,47,33,,29,29,30,21,8,6,1.0,0.8
2025-04-09T1000,2460A,112.6006,26.8919,衡阳市,市监测站,细颗粒物(PM2.5),78,89,78,57,50,33,,30,30,29,24,19,10,1.1,0.9
2025-04-09T1000,2461A,112.5664,26.9056,衡阳市,真空机电公司,细颗粒物(PM2.5),89,110,87,66,50,15,,20,20,46,28,35,13,1.8,1.2
2025-04-09T1000,3399A,112.6703,26.882,衡阳市,师范学院,颗粒物(PM10),83,116,82,56,54,40,,44,44,20,15,12,13,0.9,0.8
2025-04-09T1000,2608A,103.3772,23.3993,红河哈尼族彝族自治州,污水处理厂,,50,48,60,35,46,96,,88,88,11,9,8,9,0.4,0.5
2025-04-09T1000,2609A,103.3861,23.35,红河哈尼族彝族自治州,监测站,颗粒物(PM10),57,63,65,35,44,100,,86,86,10,9,11,11,0.3,0.3
2025-04-09T1000,3038A,103.3758,23.368,红河哈尼族彝族自治州,州图书馆,颗粒物(PM10),51,52,56,34,43,100,,88,88,10,9,6,6,0.4,0.4
2025-04-09T1000,1090A,111.6507,40.7517,呼和浩特市,呼市一监,细颗粒物(PM2.5),88,83,62,65,39,29,,27,25,28,22,11,10,0.8,0.7
2025-04-09T1000,1091A,111.6572,40.8033,呼和浩特市,小召,细颗粒物(PM2.5),80,85,60,59,37,35,,34,32,37,31,15,7,0.8,0.7
2025-04-09T1000,1094A,111.7516,40.8369,呼和浩特市,如意水处理厂,细颗粒物(PM2.5),75,87,72,55,41,39,,22,22,37,37,7,7,1.0,0.7
2025-04-09T1000,1095A,111.7276,40.8062,呼和浩特市,二十九中,细颗粒物(PM2.5),77,86,63,56,40,42,,26,26,28,27,6,4,0.7,0.6
2025-04-09T1000,1096A,111.5512,40.7866,呼和浩特市,工大金川校区,细颗粒物(PM2.5),80,88,61,59,37,21,,29,26,43,33,9,7,0.7,0.6
2025-04-09T1000,1097A,111.717,40.7612,呼和浩特市,化肥厂生活区,,,86,72,61,41,,,35,34,36,30,9,8,0.8,0.7
2025-04-09T1000,3698A,111.5968,40.8178,呼和浩特市,红旗小学,细颗粒物(PM2.5),78,88,55,57,34,18,,20,19,45,38,12,6,0.8,0.6
2025-04-09T1000,3699A,111.6518,40.8389,呼和浩特市,海东办,细颗粒物(PM2.5),73,75,52,53,36,38,,27,26,35,30,12,7,0.8,0.7
2025-04-09T1000,2192A,119.7594,49.2261,呼伦贝尔市,区环保局,细颗粒物(PM2.5),97,73,53,72,37,92,,74,74,10,9,5,5,0.4,0.3
2025-04-09T1000,3061A,119.7512,49.1577,呼伦贝尔市,国华电力东,细颗粒物(PM2.5),70,76,55,51,31,96,,79,79,5,5,4,4,0.4,0.3
2025-04-09T1000,1250A,120.0751,30.8669,湖州市,城西水厂,颗粒物(PM10),60,70,70,36,42,93,,50,44,48,45,9,9,0.6,0.6
2025-04-09T1000,2873A,120.0830,30.8929,湖州市,仁皇山新区,颗粒物(PM10),60,70,79,36,43,109,,51,51,32,35,15,7,0.8,0.7
2025-04-09T1000,2907A,120.1844,30.8596,湖州市,吴兴区站,颗粒物(PM10),60,70,90,31,42,108,,67,63,32,33,8,9,0.6,0.6
2025-04-09T1000,3562A,120.4148,30.8538,湖州市,南浔区站,颗粒物(PM10),74,97,95,52,51,101,,66,62,53,38,7,7,0.6,0.5
2025-04-09T1000,1607A,120.9049,40.7211,葫芦岛市,龙港区,,37,37,39,20,23,100,,91,91,15,21,9,10,0.5,0.4
2025-04-09T1000,1608A,120.8392,40.7514,葫芦岛市,化工街,,32,22,36,14,21,101,,83,83,18,31,14,16,0.6,0.6
2025-04-09T1000,1609A,120.8341,40.7073,葫芦岛市,新区,,33,25,35,14,20,104,,90,90,17,24,9,10,0.6,0.7
2025-04-09T1000,1610A,120.8695,40.7677,葫芦岛市,东城区,,33,22,37,14,26,105,,87,87,18,33,5,8,0.5,0.6
2025-04-09T1000,2482A,109.5981,27.5721,怀化市,林科所,细颗粒物(PM2.5),90,75,79,67,55,39,,18,16,15,16,14,8,0.9,0.9
2025-04-09T1000,2483A,109.9453,27.5444,怀化市,河西地税局,细颗粒物(PM2.5),79,78,71,58,59,20,,7,7,19,12,15,11,0.5,0.4
2025-04-09T1000,2484A,109.9781,27.5342,怀化市,市四医院,细颗粒物(PM2.5),99,90,99,74,62,25,,11,10,24,23,10,8,0.8,0.7
2025-04-09T1000,2485A,109.9972,27.5578,怀化市,监测楼,细颗粒物(PM2.5),88,91,78,65,57,31,,15,15,26,18,12,8,0.9,0.7
2025-04-09T1000,2486A,110.0394,27.583,怀化市,市委党校,细颗粒物(PM2.5),97,84,72,72,57,35,,8,8,19,17,10,5,1.1,1
2025-04-09T1000,1210A,119.036,33.5981,淮安市,钵池山,,,119,106,61,52,,,81,73,29,21,13,12,1.0,0.9
2025-04-09T1000,1211A,119.007,33.575,淮安市,北京南路,细颗粒物(PM2.5),83,110,114,61,55,103,,87,81,25,20,12,11,0.7,0.6
2025-04-09T1000,1212A,118.989,33.6067,淮安市,市监测站,细颗粒物(PM2.5),85,107,106,63,51,89,,85,76,33,22,12,11,0.7,0.6
2025-04-09T1000,1213A,119.135,33.5039,淮安市,楚州区监测站,,,,115,,58,,,80,75,34,20,,9,0.8,0.6
2025-04-09T1000,3426A,118.8755,33.2894,淮安市,新华书店,细颗粒物(PM2.5),98,111,106,73,60,92,,85,77,25,21,13,11,0.6,0.6
2025-04-09T1000,4206A,119.0288,33.6319,淮安市,承德北路606号,颗粒物(PM10),238,376,137,63,52,88,,71,65,28,22,11,9,1.5,0.7
2025-04-09T1000,2282A,116.8004,33.975,淮北市,监测站,细颗粒物(PM2.5),95,121,111,71,56,105,,81,75,30,20,9,8,0.8,0.7
2025-04-09T1000,2283A,116.8091,33.9007,淮北市,烈山区政府,细颗粒物(PM2.5),123,124,113,93,65,94,,86,80,32,21,12,9,1.2,0.9
2025-04-09T1000,3330A,116.8873,33.9836,淮北市,杜集区检察院,细颗粒物(PM2.5),139,122,108,106,64,108,,73,69,25,21,10,9,1.1,0.9
2025-04-09T1000,4017A,116.7923,33.9535,淮北市,市博物馆,细颗粒物(PM2.5),95,123,104,71,59,83,,78,70,35,20,8,8,1.2,1.1
2025-04-09T1000,2277A,116.8305,32.7727,淮南市,潘集区政府,细颗粒物(PM2.5),83,98,107,61,62,80,,72,66,30,20,6,6,0.7,0.6
2025-04-09T1000,2279A,116.8569,32.5951,淮南市,谢家集区政府,细颗粒物(PM2.5),79,93,105,58,55,107,,79,76,19,20,8,10,0.5,0.5
2025-04-09T1000,2280A,116.8281,32.633,淮南市,八公山区政府,细颗粒物(PM2.5),84,97,109,62,56,84,,79,75,15,13,6,8,0.6,0.5
2025-04-09T1000,2281A,116.6325,32.6201,淮南市,焦岗湖风景区管理处,颗粒物(PM10),72,93,90,48,48,49,,26,23,27,25,10,9,0.6,0.7
2025-04-09T1000,2894A,117.0566,32.6531,淮南市,经济技术开发区消防队,细颗粒物(PM2.5),84,96,90,62,50,63,,77,65,28,17,9,8,0.6,0.5
2025-04-09T1000,3329A,117.0108,32.5893,淮南市,山南新区,细颗粒物(PM2.5),82,75,103,60,55,104,,89,85,11,11,10,9,0.7,0.7
2025-04-09T1000,4209A,117.0031,32.6445,淮南市,国庆中路369号,颗粒物(PM10),78,105,102,52,57,100,,80,78,19,18,14,13,0.4,0.4
2025-04-09T1000,2446A,114.9028,30.4742,黄冈市,职工中心,细颗粒物(PM2.5),95,102,79,71,55,103,,78,77,27,23,21,14,1.0,0.8
2025-04-09T1000,2929A,114.8858,30.4519,黄冈市,红卫路,细颗粒物(PM2.5),99,111,84,74,52,108,,65,65,28,19,17,12,1.4,1.2
2025-04-09T1000,3398A,114.9136,30.4445,黄冈市,市林业局,细颗粒物(PM2.5),104,130,91,78,53,104,,64,59,46,24,16,15,1.1,1
2025-04-09T1000,2672A,102.0199,35.5102,黄南藏族自治州,同仁县隆务镇,颗粒物(PM10),66,81,112,17,35,71,,72,70,11,3,19,18,0.3,0.2
2025-04-09T1000,2295A,118.2903,29.6963,黄山市,延安路89号,,,58,57,39,37,,,21,19,16,13,,7,0.5,0.4
2025-04-09T1000,2297A,118.1371,30.2756,黄山市,黄山区政府5号楼,颗粒物(PM10),52,54,59,30,33,66,,31,31,6,7,4,4,0.6,0.7
2025-04-09T1000,4210A,118.3354,29.7203,黄山市,滨江东路7-2号,颗粒物(PM10),57,64,63,30,32,61,,20,20,11,11,6,6,0.7,0.6
2025-04-09T1000,2423A,115.0601,30.2313,黄石市,沈家营,细颗粒物(PM2.5),77,97,105,56,48,114,,49,49,28,34,24,12,0.9,0.9
2025-04-09T1000,2426A,114.8988,30.2019,黄石市,铁山,细颗粒物(PM2.5),95,102,91,71,51,128,,67,67,30,22,31,17,0.5,0.3
2025-04-09T1000,2427A,115.0307,30.2092,黄石市,团城山,细颗粒物(PM2.5),79,104,88,58,45,66,,52,49,68,31,27,15,1.2,0.8
2025-04-09T1000,3149A,115.0235,30.1578,黄石市,笔架山北路,颗粒物(PM10),71,91,76,51,45,132,,67,67,15,16,16,14,1.3,1
2025-04-09T1000,4185A,115.0780,30.21118,黄石市,磁湖东路29号,细颗粒物(PM2.5),120,128,105,91,55,92,,43,43,54,36,49,16,1.6,0.9
2025-04-09T1000,1392A,114.4183,23.0528,惠州市,河南岸金山湖子站,颗粒物(PM10),51,52,62,29,34,69,,46,46,33,26,9,9,0.7,0.7
2025-04-09T1000,1393A,114.4053,23.0822,惠州市,下埔横江三路子站,颗粒物(PM10),51,51,63,28,34,87,,63,63,25,22,9,9,0.8,0.7
2025-04-09T1000,1394A,114.4103,23.1142,惠州市,江北云山西路子站,颗粒物(PM10),52,53,63,26,31,97,,65,65,22,23,10,11,0.6,0.6
2025-04-09T1000,1395A,114.4645,22.7833,惠州市,惠阳区承修路船湖子站,颗粒物(PM10),51,52,59,24,28,82,,88,80,34,23,9,9,0.7,0.6
2025-04-09T1000,1396A,114.5317,22.7422,惠州市,大亚湾管委会子站,,50,50,60,22,29,98,,72,62,22,27,8,8,0.5,0.6
2025-04-09T1000,3314A,114.4338,22.8134,惠州市,惠阳秋长,颗粒物(PM10),58,66,65,28,29,74,,57,47,32,20,8,8,0.9,0.8
2025-04-09T1000,3452A,114.6517,22.775,惠州市,大亚湾霞涌,,,59,55,34,36,,,75,65,15,23,9,9,0.7,0.7
2025-04-09T1000,2240A,130.9762,45.3001,鸡西市,环保局,,,64,57,42,41,,,81,78,15,18,7,7,0.6,0.6
2025-04-09T1000,2243A,130.9429,45.3039,鸡西市,第一中学,细颗粒物(PM2.5),69,73,60,50,45,107,,87,87,10,14,7,7,0.9,0.8
2025-04-09T1000,3707A,131.0207,45.3073,鸡西市,欧美日汽修厂,细颗粒物(PM2.5),67,82,77,48,59,115,,67,67,12,25,8,8,0.7,0.8
2025-04-09T1000,3709A,130.9967,45.3106,鸡西市,市政设施管理处,颗粒物(PM10),72,93,75,48,47,102,,51,51,15,26,7,7,0.7,0.7
2025-04-09T1000,2367A,114.9754,27.0803,吉安市,红声器材厂,细颗粒物(PM2.5),62,72,73,44,42,28,,34,34,29,23,14,15,0.7,0.6
2025-04-09T1000,2368A,114.9658,27.0999,吉安市,市森林工业局,细颗粒物(PM2.5),69,73,75,50,46,35,,28,28,33,30,16,13,0.5,0.7
2025-04-09T1000,2369A,114.99,27.1312,吉安市,市环境监测站,细颗粒物(PM2.5),62,63,70,44,41,44,,24,24,26,29,22,17,0.7,0.7
2025-04-09T1000,2370A,115.0093,27.0968,吉安市,青原区法院,细颗粒物(PM2.5),64,76,73,46,45,37,,30,30,29,35,15,13,0.6,0.6
2025-04-09T1000,1772A,126.54,43.8622,吉林市,哈达湾,颗粒物(PM10),53,56,68,34,44,91,,70,70,15,18,7,7,0.8,0.8
2025-04-09T1000,1773A,126.5844,43.8358,吉林市,东局子,颗粒物(PM10),52,54,59,35,44,89,,73,73,15,20,6,6,0.6,0.7
2025-04-09T1000,1774A,126.5052,43.8245,吉林市,电力学院,,,46,65,32,52,,,66,64,14,20,5,5,0.8,0.8
2025-04-09T1000,1775A,126.6133,43.8972,吉林市,江北,颗粒物(PM10),54,57,68,33,45,92,,84,84,16,19,5,6,0.6,0.7
2025-04-09T1000,1776A,126.555,43.8306,吉林市,江南公园,细颗粒物(PM2.5),52,49,61,36,48,91,,70,70,15,17,6,6,0.5,0.5
2025-04-09T1000,1778A,126.7061,43.7133,吉林市,丰满,细颗粒物(PM2.5),54,42,50,38,46,91,,72,72,9,10,5,6,1.1,1.1
2025-04-09T1000,2868A,126.4739,43.953,吉林市,九站,,49,49,62,32,49,94,,71,71,11,17,6,7,0.6,0.6
2025-04-09T1000,1299A,116.9862,36.6114,济南市,科干所,,,100,117,44,47,,,54,54,19,40,9,11,0.7,0.8
2025-04-09T1000,1300A,116.9376,36.665,济南市,农科所,颗粒物(PM10),88,125,121,44,54,55,,13,13,45,44,8,11,0.6,0.6
2025-04-09T1000,1301A,117.1265,36.6734,济南市,开发区,颗粒物(PM10),80,110,107,49,43,35,,32,23,61,43,9,11,0.8,0.8
2025-04-09T1000,1303A,117.0624,36.6868,济南市,省种子仓库,颗粒物(PM10),96,141,126,68,51,29,,26,17,52,44,6,10,0.9,1
2025-04-09T1000,1304A,116.9489,36.6447,济南市,机床二厂,颗粒物(PM10),81,112,127,54,60,85,,28,28,30,47,11,12,0.6,0.6
2025-04-09T1000,1305A,117.0495,36.663,济南市,市监测站,颗粒物(PM10),94,137,120,63,50,29,,28,20,63,48,9,12,0.9,0.7
2025-04-09T1000,1306A,116.7675,36.5484,济南市,长清党校,颗粒物(PM10),83,115,130,49,51,94,,46,46,25,40,10,10,0.6,0.7
2025-04-09T1000,1616A,117.6795,36.229,济南市,技术学院,颗粒物(PM10),79,107,93,51,36,83,,52,52,39,31,37,15,3.1,1.1
2025-04-09T1000,1961A,117.532,36.6868,济南市,东山小学,,,105,118,39,40,57,,30,30,37,33,,11,0.7,0.5
2025-04-09T1000,3059A,117.7161,36.2049,济南市,泰兴公司,颗粒物(PM10),80,110,94,48,39,78,,35,35,41,35,20,13,1.9,1
2025-04-09T1000,3064A,117.6867,36.2171,济南市,莱芜战役纪念馆,颗粒物(PM10),79,107,90,46,31,82,,53,53,44,32,21,9,2.6,1
2025-04-09T1000,3494A,117.1673,36.9782,济南市,济阳区政府,颗粒物(PM10),70,90,103,42,41,69,,47,42,28,25,10,10,0.6,0.6
2025-04-09T1000,3495A,117.1171,36.63,济南市,锦屏中学,颗粒物(PM10),77,103,101,42,38,68,,42,42,40,30,10,12,0.7,0.6
2025-04-09T1000,3682A,116.9814,36.6819,济南市,济南四建,颗粒物(PM10),80,110,104,44,44,27,,25,16,59,44,6,8,0.6,0.6
2025-04-09T1000,1653A,116.6251,35.4302,济宁市,火炬城,,,,104,,55,,,147,,,10,,9,,0.5
2025-04-09T1000,1655A,116.5491,35.4042,济宁市,电化厂,细颗粒物(PM2.5),98,129,123,73,70,75,,72,68,29,19,7,8,0.5,0.5
2025-04-09T1000,3500A,116.5814,35.3707,济宁市,北湖一中,颗粒物(PM10),74,98,98,41,39,80,,70,66,32,23,15,14,0.6,0.5
2025-04-09T1000,3501A,116.8249,35.5593,济宁市,服务中心,颗粒物(PM10),69,87,100,39,38,56,,37,31,32,26,5,6,0.6,0.6
2025-04-09T1000,3678A,116.5907,35.4054,济宁市,市第七中学,颗粒物(PM10),77,103,100,41,37,85,,70,69,23,19,8,8,0.6,0.5
2025-04-09T1000,2255A,130.2751,46.8028,佳木斯市,佳纺,颗粒物(PM10),57,63,60,39,31,106,,91,91,9,13,8,7,0.6,0.5
2025-04-09T1000,2256A,130.3995,46.8307,佳木斯市,发电厂,"颗粒物(PM10),细颗粒物(PM2.5)",54,58,47,38,31,108,,90,89,13,15,4,3,0.8,0.7
2025-04-09T1000,2257A,130.3258,46.7975,佳木斯市,环保局,细颗粒物(PM2.5),64,68,51,46,36,106,,97,97,15,18,4,4,0.5,0.5
2025-04-09T1000,2258A,130.3648,46.8032,佳木斯市,十一中,细颗粒物(PM2.5),64,76,49,46,32,105,,91,89,12,14,7,7,0.6,0.6
2025-04-09T1000,2259A,130.3794,46.7588,佳木斯市,四丰,颗粒物(PM10),55,59,40,32,21,98,,86,86,5,6,1,1,1.0,1
2025-04-09T1000,1252A,120.7436,30.778,嘉兴市,清河小学,颗粒物(PM10),67,84,93,38,43,98,,61,61,48,36,11,9,1.0,0.8
2025-04-09T1000,1253A,120.726,30.7478,嘉兴市,嘉兴学院,颗粒物(PM10),67,84,82,43,43,97,,68,68,56,35,12,12,1.1,1
2025-04-09T1000,2872A,120.7846,30.7525,嘉兴市,南湖区残联,颗粒物(PM10),66,82,77,41,43,114,,85,85,48,33,12,13,0.9,0.8
2025-04-09T1000,3407A,120.6916,30.7739,嘉兴市,秀洲住建,细颗粒物(PM2.5),73,78,90,53,42,119,,68,68,32,32,9,10,0.9,0.8
2025-04-09T1000,1945A,98.2908,39.7711,嘉峪关市,气象局,,36,36,95,12,21,85,,70,70,14,14,1,10,0.4,0.6
2025-04-09T1000,2884A,98.2672,39.7978,嘉峪关市,酒钢宾馆,颗粒物(PM10),60,70,118,12,27,77,,72,70,18,15,7,29,0.3,0.4
2025-04-09T1000,3248A,98.2643,39.7724,嘉峪关市,雄关区,,,,82,,26,,,63,57,23,18,4,5,,0.5
2025-04-09T1000,1383A,113.1064,22.6058,江门市,北街,细颗粒物(PM2.5),54,56,53,38,31,79,,58,58,12,13,4,3,0.7,0.6
2025-04-09T1000,1384A,113.0731,22.5835,江门市,西区,,,52,57,28,29,81,,60,59,,21,,8,0.6,0.6
2025-04-09T1000,1385A,113.0219,22.5311,江门市,圭峰西,颗粒物(PM10),56,62,58,27,34,83,,58,58,21,21,5,6,0.4,0.5
2025-04-09T1000,1386A,113.0828,22.5947,江门市,东湖,颗粒物(PM10),75,99,78,34,30,88,,63,62,15,15,6,6,0.5,0.5
2025-04-09T1000,3311A,113.1075,22.5647,江门市,江海富民,颗粒物(PM10),67,83,75,36,35,79,,64,63,15,16,8,7,0.7,0.6
2025-04-09T1000,3449A,113.05,22.4667,江门市,新会银湖,,,,61,,32,86,,38,36,,20,,2,0.3,0.3
2025-04-09T1000,1830A,113.1992,35.2590,焦作市,影视城,,,,67,,35,,,,,,20,,3,,1.3
2025-04-09T1000,3169A,113.2725,35.2067,焦作市,太极体育中心,细颗粒物(PM2.5),104,137,94,78,45,63,,35,35,31,31,16,12,1.4,0.7
2025-04-09T1000,3335A,113.3137,35.2641,焦作市,马村街道办,细颗粒物(PM2.5),113,116,90,85,47,61,,35,35,39,32,,12,,0.8
2025-04-09T1000,3336A,113.2465,35.2373,焦作市,焦作技师学院,细颗粒物(PM2.5),98,139,108,73,37,66,,39,39,33,24,16,11,1.8,1
2025-04-09T1000,3477A,113.1656,35.2539,焦作市,中站许衡医院,颗粒物(PM10),86,122,81,53,41,87,,56,56,26,27,14,10,1.5,1
2025-04-09T1000,3981A,113.2449,35.1803,焦作市,原李万街道办,细颗粒物(PM2.5),113,125,97,85,43,63,,26,26,33,35,22,16,1.1,0.7
2025-04-09T1000,4264A,113.2340,35.2190,焦作市,新安路1731号,细颗粒物(PM2.5),110,137,99,83,49,62,,26,26,30,29,14,13,1.6,0.9
2025-04-09T1000,1708A,116.3701,23.5345,揭阳市,新兴,细颗粒物(PM2.5),105,148,106,79,63,86,,40,39,32,39,11,11,1.1,1.1
2025-04-09T1000,1709A,116.3264,23.5443,揭阳市,西马,细颗粒物(PM2.5),104,139,107,78,67,78,,41,40,32,33,14,13,1.1,1
2025-04-09T1000,1710A,116.3611,23.5626,揭阳市,东兴,颗粒物(PM10),113,175,121,82,66,77,,37,37,34,36,12,14,1.2,1.2
2025-04-09T1000,1711A,116.4151,23.5294,揭阳市,渔湖,颗粒物(PM10),101,151,105,58,46,77,,38,36,41,37,13,14,1.2,1.1
2025-04-09T1000,3320A,116.403,23.5699,揭阳市,曲溪,颗粒物(PM10),91,132,100,65,53,84,,32,32,42,43,14,18,1.2,1
2025-04-09T1000,1944A,102.1692,38.5167,金昌市,天庆家园,颗粒物(PM10),52,54,173,13,37,107,,93,90,5,6,7,7,0.6,0.8
2025-04-09T1000,4022A,102.1647,38.5371,金昌市,金川区人防中心,颗粒物(PM10),60,70,276,14,42,106,,91,89,6,5,14,12,0.4,0.5
2025-04-09T1000,4239A,102.1930,38.5319,金昌市,长春路96号,,,,251,11,39,104,,88,86,3,4,14,12,0.5,0.6
2025-04-09T1000,1262A,119.647,29.077,金华市,十五中,细颗粒物(PM2.5),88,107,80,65,44,89,,54,54,40,31,10,7,0.8,0.6
2025-04-09T1000,1263A,119.686,29.1029,金华市,监测站,,,110,82,57,45,,,40,40,42,41,8,6,0.7,0.5
2025-04-09T1000,3659A,119.656,29.1131,金华市,气象局,细颗粒物(PM2.5),92,111,88,68,45,75,,19,19,44,44,10,7,0.8,0.7
2025-04-09T1000,1767A,121.1115,41.0879,锦州市,南山,,,,37,,28,89,,80,80,18,24,10,12,,0.7
2025-04-09T1000,1768A,121.0604,40.8428,锦州市,开发区,,34,34,53,18,27,90,,80,80,28,37,14,19,0.6,0.6
2025-04-09T1000,1769A,121.1836,41.1119,锦州市,百股街道,,31,31,40,12,19,93,,90,90,19,22,6,9,0.5,0.5
2025-04-09T1000,1770A,121.1178,41.1222,锦州市,天安街道,,41,41,41,20,30,90,,80,80,20,24,10,12,0.6,0.6
2025-04-09T1000,1771A,121.1303,41.1386,锦州市,北湖公园,,38,38,38,19,26,89,,84,84,20,22,9,11,0.6,0.6
2025-04-09T1000,2160A,112.85,35.5051,晋城市,自来水公司,细颗粒物(PM2.5),100,134,94,75,45,62,,27,27,31,25,15,10,2.2,1.4
2025-04-09T1000,2161A,112.8318,35.4936,晋城市,白云商贸,颗粒物(PM10),106,162,99,68,43,61,,,,33,42,11,8,2.0,1.6
2025-04-09T1000,2162A,112.8508,35.4887,晋城市,市环保局,细颗粒物(PM2.5),83,107,94,61,40,61,,27,27,30,27,10,7,1.7,1
2025-04-09T1000,2163A,112.8676,35.4897,晋城市,技术学院,颗粒物(PM10),90,129,92,61,37,59,,25,25,36,31,13,10,2.1,1.2
2025-04-09T1000,2165A,112.8453,35.546,晋城市,白马寺,,,150,94,,59,69,,60,53,26,20,11,9,2.8,1.8
2025-04-09T1000,3620A,112.8271,35.4828,晋城市,泽州一中,细颗粒物(PM2.5),100,134,90,75,47,64,,42,42,29,22,4,4,2.0,1.5
2025-04-09T1000,2173A,112.7249,37.7067,晋中市,南都小区,颗粒物(PM10),85,120,95,51,40,61,,24,24,31,33,35,10,1.0,0.7
2025-04-09T1000,2174A,112.6991,37.6982,晋中市,榆次区政府,颗粒物(PM10),91,132,99,37,37,60,,28,28,37,35,34,10,1.0,0.7
2025-04-09T1000,2865A,112.7195,37.6828,晋中市,榆次三中,颗粒物(PM10),97,144,97,58,43,61,,21,21,37,34,46,9,0.9,0.6
2025-04-09T1000,4200A,112.7478,37.6954,晋中市,迎宾街26号,颗粒物(PM10),96,141,93,53,44,66,,23,23,32,31,42,9,0.7,0.5
2025-04-09T1000,2439A,112.2014,31.0481,荆门市,竹园小学,颗粒物(PM10),105,159,108,65,65,87,,51,51,26,24,10,8,0.7,0.6
2025-04-09T1000,2440A,112.1969,30.9891,荆门市,掇刀,颗粒物(PM10),80,109,93,50,57,134,,73,73,14,22,9,10,0.5,0.5
2025-04-09T1000,2441A,112.2213,31.0386,荆门市,石化一小,颗粒物(PM10),123,196,112,86,65,78,,44,44,36,30,16,10,0.4,0.4
2025-04-09T1000,3012A,112.1849,31.0362,荆门市,西山林语,细颗粒物(PM2.5),87,122,82,64,51,67,,64,61,38,12,9,7,0.5,0.3
2025-04-09T1000,3547A,112.1632,31.0138,荆门市,龙泉中学南校,细颗粒物(PM2.5),75,94,87,55,51,83,,65,57,37,21,9,9,0.9,0.7
2025-04-09T1000,1844A,112.2494,30.3197,荆州市,市图书馆,细颗粒物(PM2.5),78,78,78,57,55,98,,36,36,23,34,11,7,0.8,0.7
2025-04-09T1000,1845A,112.2008,30.3544,荆州市,市委党校,细颗粒物(PM2.5),75,83,84,55,55,85,,38,38,21,27,12,8,0.9,0.9
2025-04-09T1000,3194A,112.2747,30.3122,荆州市,管委会,细颗粒物(PM2.5),85,88,86,63,55,94,,43,43,22,31,12,9,0.9,0.8
2025-04-09T1000,4268A,112.1722,30.3366,荆州市,学苑路85号,细颗粒物(PM2.5),94,83,68,70,59,93,,40,40,26,24,17,11,0.8,0.8
2025-04-09T1000,2342A,117.3102,29.3867,景德镇市,王港中学,,,,,,,,,,,,,,,,
2025-04-09T1000,2343A,117.2117,29.2933,景德镇市,老干部活动中心,,,80,67,,42,71,,30,30,21,23,8,10,,0.6
2025-04-09T1000,2344A,117.1894,29.2789,景德镇市,兽医站,颗粒物(PM10),63,75,72,40,38,62,,33,33,26,20,4,6,0.6,0.6
2025-04-09T1000,2345A,117.1547,29.2617,景德镇市,台达陶瓷,颗粒物(PM10),59,67,85,39,43,78,,39,39,19,34,6,16,0.6,0.7
2025-04-09T1000,2346A,117.2461,29.2956,景德镇市,陶研所,细颗粒物(PM2.5),63,63,62,45,44,78,,28,28,19,20,6,8,0.8,0.8
2025-04-09T1000,1803A,115.9872,29.6815,九江市,十里,细颗粒物(PM2.5),67,72,73,48,47,117,,37,37,16,34,6,5,0.7,0.8
2025-04-09T1000,1804A,115.9584,29.7046,九江市,茅山头,颗粒物(PM10),65,79,80,44,46,82,,52,52,35,45,9,8,0.6,0.6
2025-04-09T1000,1805A,115.9877,29.7295,九江市,西园,颗粒物(PM10),73,96,79,51,43,97,,38,38,54,66,24,12,1.1,1.1
2025-04-09T1000,1808A,115.9114,29.6038,九江市,综合工业园,颗粒物(PM10),59,67,77,40,44,109,,58,53,51,44,12,12,0.9,0.9
2025-04-09T1000,1809A,116.0721,29.7535,九江市,石化总厂,,,,59,,55,,,43,36,93,33,24,17,1.4,1
2025-04-09T1000,1810A,115.9773,29.5698,九江市,庐山气象台,细颗粒物(PM2.5),59,63,55,42,38,135,,127,127,12,11,27,9,1.2,0.8
2025-04-09T1000,3190A,116.0254,29.6994,九江市,外国语学校,细颗粒物(PM2.5),69,74,61,50,48,95,,49,49,32,32,18,19,1.2,1.1
2025-04-09T1000,4253A,116.0102,29.6594,九江市,莲花大道8号,,,,66,,48,,,56,47,36,13,8,7,,0.7
2025-04-09T1000,4240A,98.4958,39.7339,酒泉市,玉门东路5号,颗粒物(PM10),63,75,122,25,32,73,,76,72,19,8,11,11,0.3,0.2
2025-04-09T1000,4241A,98.5099,39.7506,酒泉市,北大街108号,颗粒物(PM10),71,92,127,11,27,71,,75,69,23,10,14,12,0.2,0.1
2025-04-09T1000,2698A,76.0072,39.4467,喀什地区,巡警大队,颗粒物(PM10),87,124,118,30,28,24,,35,30,46,39,6,5,0.8,0.7
2025-04-09T1000,2699A,75.9755,39.4694,喀什地区,吾办,颗粒物(PM10),77,104,102,32,34,25,,34,31,34,29,7,7,0.7,0.6
2025-04-09T1000,4027A,75.9483,39.4689,喀什地区,老干局,颗粒物(PM10),106,161,102,55,27,16,,42,33,43,24,4,3,0.8,0.6
2025-04-09T1000,1824A,114.3389,34.7781,开封市,肿瘤医院,,,132,95,46,43,80,,52,51,,24,12,11,,0.4
2025-04-09T1000,1826A,114.2885,34.7965,开封市,世纪星幼儿园,颗粒物(PM10),85,119,88,49,44,70,,42,39,42,31,10,11,0.8,0.7
2025-04-09T1000,3147A,114.3438,34.8106,开封市,龙亭公园,颗粒物(PM10),102,153,103,67,51,85,,48,48,36,29,8,7,0.7,0.7
2025-04-09T1000,3210A,114.3644,34.7964,开封市,汴京公园,颗粒物(PM10),114,177,126,58,53,90,,60,60,34,27,7,7,0.5,0.6
2025-04-09T1000,3473A,114.2485,34.8306,开封市,技师学院,细颗粒物(PM2.5),84,102,89,62,60,74,,34,34,33,35,7,7,1.0,1.1
2025-04-09T1000,3592A,114.4644,34.7556,开封市,祥符区生态环境局,"颗粒物(PM10),细颗粒物(PM2.5)",92,134,121,68,61,72,,46,46,36,32,11,12,0.7,0.9
2025-04-09T1000,1951A,84.895,45.6094,克拉玛依市,长征新村,颗粒物(PM10),103,156,64,27,12,83,,80,80,9,10,7,8,0.2,0.2
2025-04-09T1000,1952A,84.8988,45.5893,克拉玛依市,南林小区,颗粒物(PM10),109,167,57,24,13,83,,68,68,2,5,2,3,0.1,0.2
2025-04-09T1000,1954A,84.905,44.3396,克拉玛依市,独山子区,颗粒物(PM10),86,121,69,20,20,71,,86,78,22,7,7,7,0.3,0.2
2025-04-09T1000,1955A,85.6979,46.098,克拉玛依市,乌尔禾区商贸楼,颗粒物(PM10),61,71,48,16,13,33,,54,42,29,10,7,7,0.5,0.3
2025-04-09T1000,3612A,85.1045,45.6899,克拉玛依市,白碱滩区新站,颗粒物(PM10),83,115,67,22,14,78,,77,75,6,7,10,10,0.3,0.3
2025-04-09T1000,2697A,76.1454,39.7142,克孜勒苏柯尔克孜自治州,市人民政府,,34,34,96,7,28,79,,87,86,1,6,4,7,0.3,0.3
2025-04-09T1000,3665A,76.1658,39.7157,克孜勒苏柯尔克孜自治州,克州文化中心,,48,48,97,15,29,67,,85,79,11,5,7,7,0.3,0.3
2025-04-09T1000,1450A,102.8204,24.8886,昆明市,呈贡新区,细颗粒物(PM2.5),73,66,65,53,47,113,,98,98,13,19,10,9,0.8,0.7
2025-04-09T1000,1451A,102.6251,24.9608,昆明市,西山森林公园,,,,,,,,,,,,,,,,
2025-04-09T1000,1452A,102.7252,25.0902,昆明市,龙泉镇,细颗粒物(PM2.5),69,68,63,50,42,104,,50,48,20,29,12,9,0.8,0.7
2025-04-09T1000,1453A,102.7266,25.0375,昆明市,东风东路,细颗粒物(PM2.5),79,75,64,58,50,107,,101,100,23,19,14,10,0.8,0.7
2025-04-09T1000,1454A,102.6742,25.0669,昆明市,金鼎山,细颗粒物(PM2.5),70,70,66,51,38,97,,94,90,28,24,15,11,0.9,0.8
2025-04-09T1000,1455A,102.6644,25.0401,昆明市,碧鸡广场,细颗粒物(PM2.5),90,81,67,67,47,101,,87,87,23,23,13,9,0.9,0.8
2025-04-09T1000,3179A,102.7494,25.0119,昆明市,官渡区博物馆,细颗粒物(PM2.5),62,62,62,44,40,111,,91,89,19,17,10,8,0.7,0.5
2025-04-09T1000,3375A,102.8017,24.8336,昆明市,青年创业园,细颗粒物(PM2.5),64,63,66,46,46,116,,96,96,10,17,11,11,0.3,0.3
2025-04-09T1000,3550A,102.7997,24.9786,昆明市,昆明学院,细颗粒物(PM2.5),74,73,69,54,48,106,,100,96,14,14,7,7,0.7,0.6
2025-04-09T1000,3551A,102.5967,24.6736,昆明市,晋宁区生态环境分局,细颗粒物(PM2.5),79,58,48,58,43,123,,105,105,8,9,8,8,1.0,0.9
2025-04-09T1000,3552A,102.6678,24.9856,昆明市,云天化总部,细颗粒物(PM2.5),72,67,60,52,44,119,,104,100,14,14,11,9,0.8,0.7
2025-04-09T1000,1456A,91.1319,29.6514,拉萨市,八廓街,,27,27,32,18,13,75,,83,74,15,12,7,6,0.5,0.4
2025-04-09T1000,1457A,91.1221,29.6747,拉萨市,市环保局,颗粒物(PM10),51,51,28,35,13,66,,67,58,24,17,4,8,0.6,0.3
2025-04-09T1000,1458A,91.0874,29.6475,拉萨市,区监测站,,35,35,19,13,8,61,,82,72,27,14,7,6,0.4,0.1
2025-04-09T1000,1459A,91.1774,29.6541,拉萨市,西藏大学,,31,31,25,19,10,69,,77,68,15,13,6,6,0.2,0.3
2025-04-09T1000,1460A,90.9798,29.6588,拉萨市,区辐射站,,23,23,22,12,9,70,,86,77,20,11,9,8,0.4,0.3
2025-04-09T1000,1461A,91.0834,29.6292,拉萨市,拉萨火车站,,28,28,19,17,8,50,,,,35,14,4,4,0.4,0.2
2025-04-09T1000,2520A,109.2203,23.7256,来宾市,来宾技工学校,细颗粒物(PM2.5),104,120,96,78,66,34,,25,23,24,24,9,10,1.2,1.1
2025-04-09T1000,3535A,109.1781,23.7297,来宾市,兴宾区政府,细颗粒物(PM2.5),110,108,78,83,54,26,,23,22,30,20,8,8,1.3,1.1
2025-04-09T1000,4002A,109.2416,23.7461,来宾市,中南小学,细颗粒物(PM2.5),107,111,100,80,63,30,,22,20,23,25,9,8,1.2,1.1
2025-04-09T1000,1477A,104.1373,35.9454,兰州市,榆中兰大校区,,,,,,,,,,,,,,,,
2025-04-09T1000,1479A,103.831,36.0464,兰州市,铁路设计院,颗粒物(PM10),199,348,177,87,46,28,,25,25,68,46,16,13,1.2,0.9
2025-04-09T1000,3241A,103.7439,36.0842,兰州市,百合公园,颗粒物(PM10),195,339,189,77,46,40,,35,35,35,29,12,9,0.9,0.5
2025-04-09T1000,3242A,103.9611,35.998,兰州市,和平,颗粒物(PM10),308,426,239,142,83,46,,78,70,43,14,24,11,1.5,0.8
2025-04-09T1000,4236A,103.6293,36.0938,兰州市,庄浪东路808号,颗粒物(PM10),298,418,250,122,80,56,,47,45,23,27,46,12,0.7,0.4
2025-04-09T1000,4237A,103.7251,36.1043,兰州市,安宁西路88号,颗粒物(PM10),412,512,278,125,74,49,,50,46,40,18,15,8,0.6,0.5
2025-04-09T1000,4238A,103.8470,36.0676,兰州市,北滨河东路1号,颗粒物(PM10),223,366,206,97,58,34,,20,18,54,40,18,12,1.2,0.6
2025-04-09T1000,3245A,103.6633,36.533,兰州新区,新区管委会,颗粒物(PM10),102,153,202,37,64,,,68,67,7,12,10,11,0.4,0.1
2025-04-09T1000,3246A,103.6975,36.4789,兰州新区,舟曲中学,颗粒物(PM10),145,239,314,55,69,92,,70,70,19,18,5,10,0.1,0.1
2025-04-09T1000,1067A,116.6708,39.5111,廊坊市,药材公司,,47,47,58,24,23,77,,81,73,25,20,3,3,0.4,0.4
2025-04-09T1000,1068A,116.7214,39.5589,廊坊市,开发区,,47,47,72,29,25,87,,67,63,20,18,2,3,0.3,0.4
2025-04-09T1000,1070A,116.7244,39.5269,廊坊市,北华航天学院,,,111,76,,20,80,,79,74,17,18,,6,0.3,0.4
2025-04-09T1000,2919A,116.7022,39.5453,廊坊市,河北工业大学,,44,44,59,24,24,83,,85,79,20,19,4,6,0.3,0.4
2025-04-09T1000,2535A,103.7723,29.5462,乐山市,花湖湾,颗粒物(PM10),64,77,58,30,33,30,,25,21,45,30,12,8,1.3,0.7
2025-04-09T1000,2536A,103.7627,29.5844,乐山市,牛耳桥,细颗粒物(PM2.5),67,67,66,48,43,40,,15,15,41,37,13,9,1.4,0.8
2025-04-09T1000,2537A,103.7508,29.6006,乐山市,市第三水厂,细颗粒物(PM2.5),64,64,63,46,38,51,,20,20,34,38,10,6,1.3,0.8
2025-04-09T1000,2538A,103.7571,29.5664,乐山市,市监测站,,,83,63,60,44,,,23,21,47,32,6,5,1.8,0.7
2025-04-09T1000,3361A,103.7311,29.5628,乐山市,理工大学,细颗粒物(PM2.5),74,82,63,54,38,41,,29,28,45,28,24,7,1.7,0.8
2025-04-09T1000,2598A,100.2143,26.8576,丽江市,西南郊,颗粒物(PM10),56,62,40,28,21,125,,124,123,4,3,6,5,0.7,0.6
2025-04-09T1000,2599A,100.2497,26.8802,丽江市,丽江古城,,48,48,37,26,20,112,,110,108,12,10,7,8,0.7,0.6
2025-04-09T1000,2600A,100.2203,26.8906,丽江市,市中心,,38,37,30,26,21,105,,106,104,19,14,8,8,0.6,0.5
2025-04-09T1000,1267A,119.914,28.4514,丽水市,监测站大楼,颗粒物(PM10),54,57,60,36,37,75,,36,36,24,28,4,4,0.6,0.6
2025-04-09T1000,1268A,119.93,28.4586,丽水市,莲都小学,颗粒物(PM10),57,63,62,27,28,69,,44,44,20,24,4,4,0.6,0.5
2025-04-09T1000,1269A,119.879,28.4231,丽水市,余庄前,细颗粒物(PM2.5),60,68,57,43,33,82,,24,24,28,20,6,3,0.7,0.6
2025-04-09T1000,1173A,119.176,34.5885,连云港市,市环境监测站,,,90,99,34,31,108,,90,87,18,17,,12,0.6,0.6
2025-04-09T1000,3000A,119.3581,34.6972,连云港市,德源药业,,,88,88,34,26,102,,89,89,22,16,,10,0.5,0.5
2025-04-09T1000,3007A,119.178,34.844,连云港市,新城一中,细颗粒物(PM2.5),68,84,89,49,38,86,,68,68,32,32,11,9,0.8,0.8
2025-04-09T1000,3008A,119.3608,34.7519,连云港市,胡沟管理处,颗粒物(PM10),59,68,62,29,22,71,,74,64,51,34,13,11,0.5,0.4
2025-04-09T1000,3009A,119.1478,34.5911,连云港市,矿山设计院,颗粒物(PM10),71,92,102,36,30,89,,79,74,27,22,10,11,0.6,0.6
2025-04-09T1000,3434A,119.2413,34.6539,连云港市,工贸学校,细颗粒物(PM2.5),70,80,83,51,27,110,,89,84,26,20,10,10,0.7,0.6
2025-04-09T1000,3664A,119.4172,34.7341,连云港市,连云街道,颗粒物(PM10),75,99,77,33,23,76,,82,75,45,21,7,7,0.6,0.5
2025-04-09T1000,2571A,102.3431,27.8099,凉山彝族自治州,青龙寺,颗粒物(PM10),51,51,47,16,14,88,,72,72,9,11,9,10,0.9,0.8
2025-04-09T1000,2572A,102.2721,27.8415,凉山彝族自治州,邛海宾馆,颗粒物(PM10),63,76,50,39,29,72,,70,63,18,22,6,9,0.5,0.6
2025-04-09T1000,2573A,102.2625,27.898,凉山彝族自治州,西昌市政府,,50,47,45,35,36,84,,95,86,25,14,10,10,0.7,0.7
2025-04-09T1000,2574A,102.2685,27.8851,凉山彝族自治州,凉山州政府,,,51,46,25,27,76,,73,69,,18,,7,0.8,0.7
2025-04-09T1000,4229A,102.2342,27.8859,凉山彝族自治州,凯乐南路30号,颗粒物(PM10),55,59,52,28,26,76,,50,50,28,27,10,11,0.8,0.8
2025-04-09T1000,2212A,123.2,41.1953,辽阳市,宏伟区,细颗粒物(PM2.5),78,76,78,57,71,101,,69,66,28,25,21,16,1.3,1
2025-04-09T1000,2213A,123.1683,41.2495,辽阳市,新华园,颗粒物(PM10),74,98,119,41,76,94,,59,59,39,42,29,22,1.6,1
2025-04-09T1000,2214A,123.2354,41.2639,辽阳市,滨河路,,,70,78,49,72,93,,58,58,30,37,,18,1.3,1
2025-04-09T1000,2215A,123.149,41.2991,辽阳市,铁西工业园,颗粒物(PM10),82,114,118,57,81,95,,59,59,39,43,30,17,1.6,1.2
2025-04-09T1000,2227A,125.1358,42.8845,辽源市,环保局,颗粒物(PM10),67,84,70,46,44,76,,42,42,34,34,8,9,0.8,0.8
2025-04-09T1000,3239A,125.0764,42.9078,辽源市,银鹰制药,,,60,55,42,41,,,28,28,23,35,7,6,0.7,0.7
2025-04-09T1000,1625A,115.9848,36.4372,聊城市,区政府,颗粒物(PM10),86,121,112,45,54,69,,69,63,33,31,13,14,0.5,0.6
2025-04-09T1000,2878A,116.0072,36.4343,聊城市,聊大东校,颗粒物(PM10),92,134,119,62,67,72,,63,59,26,26,14,13,0.8,0.8
2025-04-09T1000,3200A,115.9819,36.4978,聊城市,监控中心,,,,117,,69,,,48,44,26,31,,18,0.7,1
2025-04-09T1000,3513A,116.0445,36.4361,聊城市,九州社区,,,,113,46,54,79,,67,63,27,23,10,11,0.5,0.7
2025-04-09T1000,4018A,116.0567,36.4608,聊城市,星美广场,颗粒物(PM10),91,132,120,42,50,79,,63,60,21,22,13,14,0.7,0.8
2025-04-09T1000,2632A,94.3681,29.6376,林芝市,林芝监测站,,19,15,23,13,18,59,,86,76,16,6,5,5,0.4,0.3
2025-04-09T1000,2633A,94.3616,29.6616,林芝市,林芝人民医院,,22,22,26,14,14,57,,75,68,13,3,8,8,0.5,0.4
2025-04-09T1000,2603A,100.0781,23.8982,临沧市,市环保局,细颗粒物(PM2.5),72,85,85,52,60,73,,78,71,27,17,6,7,0.9,0.8
2025-04-09T1000,2604A,100.0894,23.8822,临沧市,市气象局,细颗粒物(PM2.5),92,95,82,68,69,56,,77,66,35,21,7,8,1.0,0.9
2025-04-09T1000,1733A,111.5531,36.0783,临汾市,临钢医院,颗粒物(PM10),74,98,89,42,33,40,,32,26,31,23,7,7,0.8,0.6
2025-04-09T1000,1734A,111.5028,36.0714,临汾市,技工学校,,,,77,,40,39,,39,30,,19,5,9,,0.8
2025-04-09T1000,1736A,111.5018,36.0855,临汾市,市委,颗粒物(PM10),82,114,86,43,33,48,,46,38,29,22,8,7,1.0,0.8
2025-04-09T1000,3018A,111.505,36.1014,临汾市,唐尧大酒店,颗粒物(PM10),81,112,94,46,36,51,,38,33,20,20,11,12,0.9,0.8
2025-04-09T1000,4244A,111.4879,36.0530,临汾市,启星学校,颗粒物(PM10),80,109,88,45,39,34,,23,15,28,21,5,6,0.8,0.6
2025-04-09T1000,4271A,103.2464,35.6123,临夏回族自治州,滨河东路1号,颗粒物(PM10),111,171,168,50,50,51,,29,29,25,19,6,6,0.6,0.4
2025-04-09T1000,4310A,103.2093,35.5995,临夏回族自治州,新华街21号,颗粒物(PM10),119,187,153,71,49,51,,40,40,28,15,12,11,0.7,0.4
2025-04-09T1000,1618A,118.3429,35.0532,临沂市,沂河小区,颗粒物(PM10),79,107,97,48,30,89,,72,72,25,17,12,8,0.7,0.5
2025-04-09T1000,1619A,118.295,35.0583,临沂市,鲁南制药厂,颗粒物(PM10),79,107,96,57,30,95,,75,75,44,26,14,10,0.8,0.7
2025-04-09T1000,1620A,118.2794,34.9976,临沂市,新光毛纺厂,颗粒物(PM10),79,107,93,52,36,98,,76,76,32,26,11,8,0.5,0.3
2025-04-09T1000,1621A,118.3956,35.0888,临沂市,河东保险公司,颗粒物(PM10),73,95,95,40,35,103,,62,62,35,31,7,5,0.5,0.4
2025-04-09T1000,3370A,118.3564,35.0215,临沂市,十里堡居委,,,,87,,29,,,71,70,,23,9,5,0.8,0.6
2025-04-09T1000,3496A,118.3604,35.1084,临沂市,南坊新区,颗粒物(PM10),76,102,97,48,34,86,,60,60,29,22,9,7,0.8,0.6
2025-04-09T1000,3860A,118.3920,35.0300,临沂市,皇山花园小区,颗粒物(PM10),69,88,99,42,31,98,,67,67,20,19,11,8,0.6,0.4
2025-04-09T1000,1870A,109.4856,24.3895,柳州市,柳东小学,细颗粒物(PM2.5),82,79,87,60,68,17,,26,21,23,26,9,11,1.0,1
2025-04-09T1000,1871A,109.4157,24.3277,柳州市,环保监测站,细颗粒物(PM2.5),102,108,103,76,76,30,,25,25,22,26,10,12,1.2,1.1
2025-04-09T1000,1872A,109.389,24.341,柳州市,河西水厂,细颗粒物(PM2.5),97,124,127,72,72,23,,21,21,30,33,6,12,1.4,1.2
2025-04-09T1000,1873A,109.4311,24.2921,柳州市,市四中,细颗粒物(PM2.5),92,95,102,68,66,22,,29,25,25,23,8,9,1.2,1.1
2025-04-09T1000,1874A,109.4006,24.3631,柳州市,市九中,细颗粒物(PM2.5),92,97,116,68,71,31,,30,30,18,25,7,10,1.0,1.1
2025-04-09T1000,1875A,109.4958,24.3134,柳州市,古亭山,细颗粒物(PM2.5),89,88,96,66,60,17,,30,26,26,19,16,11,1.1,1
2025-04-09T1000,3402A,109.5422,24.3996,柳州市,市二中,细颗粒物(PM2.5),87,66,88,64,66,19,,21,16,23,25,19,15,0.9,0.9
2025-04-09T1000,2307A,116.5079,31.737,六安市,监测大楼,颗粒物(PM10),61,72,65,40,36,103,,97,94,27,15,9,7,0.8,0.7
2025-04-09T1000,2308A,116.4738,31.7643,六安市,皖西学院,颗粒物(PM10),68,86,74,34,34,100,,95,94,21,14,7,6,0.6,0.5
2025-04-09T1000,2309A,116.4996,31.7905,六安市,朝阳厂,颗粒物(PM10),61,72,64,35,34,105,,91,88,24,20,7,6,0.7,0.6
2025-04-09T1000,2310A,116.5567,31.7886,六安市,开发区,颗粒物(PM10),69,87,81,40,38,115,,92,92,26,27,8,6,0.8,0.7
2025-04-09T1000,2576A,104.8,26.5892,六盘水市,窑上,颗粒物(PM10),57,64,69,29,36,55,,56,44,13,13,5,6,1.2,1
2025-04-09T1000,2577A,104.83,26.5917,六盘水市,黄土坡,细颗粒物(PM2.5),83,81,70,61,49,57,,78,66,36,23,16,14,1.7,1.2
2025-04-09T1000,2578A,104.89,26.5939,六盘水市,水钢,,,,68,58,45,72,,90,83,24,13,10,10,0.8,0.7
2025-04-09T1000,2579A,104.8475,26.5894,六盘水市,民中,细颗粒物(PM2.5),83,85,66,61,51,46,,88,75,40,19,12,12,1.4,1.1
2025-04-09T1000,2580A,104.9544,26.5506,六盘水市,双水,细颗粒物(PM2.5),75,90,67,55,35,63,,95,87,26,13,13,10,0.5,0.5
2025-04-09T1000,2335A,117.0189,25.1181,龙岩市,龙岩师专,,,,,,,,,,,,,,,,
2025-04-09T1000,2336A,117.0217,25.1033,龙岩市,龙岩市监测站,颗粒物(PM10),65,80,56,44,37,52,,35,34,35,27,10,10,1.0,0.7
2025-04-09T1000,2337A,117.0258,25.0661,龙岩市,闽西职业技术学院,,,,62,,36,,,28,24,34,30,,30,0.8,0.6
2025-04-09T1000,2338A,117.0196,25.0306,龙岩市,龙岩学院,颗粒物(PM10),58,65,47,38,35,56,,46,44,28,16,19,5,0.6,0.5
2025-04-09T1000,2665A,105.0822,33.3261,陇南市,汉王镇固水子,,,,,,,,,,,,,,,,
2025-04-09T1000,2885A,104.9339,33.3826,陇南市,滨江中学,颗粒物(PM10),52,54,81,25,26,66,,78,72,10,4,11,8,0.5,0.4
2025-04-09T1000,3247A,104.955,33.371,陇南市,市总工会,,,,68,,23,,,86,78,,5,12,9,0.5,0.5
2025-04-09T1000,2487A,111.9589,27.8901,娄底市,电视发射台,颗粒物(PM10),77,103,89,37,43,34,,15,15,8,8,9,8,0.8,0.7
2025-04-09T1000,2488A,111.9975,27.725,娄底市,市监测站,细颗粒物(PM2.5),107,130,94,80,64,15,,23,15,50,25,18,16,1.5,0.8
2025-04-09T1000,2489A,112.0194,27.7314,娄底市,市委党校,,,112,94,66,65,11,,28,20,,16,4,4,1.0,0.6
2025-04-09T1000,2490A,111.9561,27.7569,娄底市,涟钢,细颗粒物(PM2.5),102,115,94,76,65,25,,20,20,20,22,5,16,0.6,0.9
2025-04-09T1000,2491A,111.9892,27.7044,娄底市,市政府,细颗粒物(PM2.5),97,96,87,72,63,27,,18,17,20,17,6,6,0.6,0.5
2025-04-09T1000,1893A,105.4324,28.9634,泸州市,九狮山,,,,,,,,,,,,,,,,
2025-04-09T1000,1894A,105.4427,28.9063,泸州市,小市上码头,细颗粒物(PM2.5),102,118,85,76,49,48,,53,41,45,28,12,12,1.2,0.8
2025-04-09T1000,1895A,105.4241,28.8573,泸州市,兰田宪桥,细颗粒物(PM2.5),114,126,76,86,54,27,,14,14,33,24,10,8,1.2,0.9
2025-04-09T1000,1896A,105.4379,28.8833,泸州市,市环监站,,,,,,,,,,,,,,,,
2025-04-09T1000,4272A,105.3689,28.7783,泸州市,纳溪中医医院,细颗粒物(PM2.5),115,107,76,87,53,14,,14,13,42,29,9,7,1.1,0.8
2025-04-09T1000,2183A,111.1406,37.5211,吕梁市,环保局,颗粒物(PM10),71,91,74,32,29,33,,14,14,34,34,8,5,0.7,0.4
2025-04-09T1000,2185A,111.1297,37.5136,吕梁市,自来水公司,颗粒物(PM10),71,91,60,22,24,33,,10,10,30,28,6,5,1.0,0.6
2025-04-09T1000,2867A,111.1283,37.51,吕梁市,马茂庄小学,,,,74,,30,,,8,8,,38,5,4,0.8,0.6
2025-04-09T1000,1812A,112.3931,34.6516,洛阳市,市委党校,颗粒物(PM10),92,133,114,56,63,45,,38,38,35,37,6,8,1.0,0.9
2025-04-09T1000,1815A,112.494,34.6886,洛阳市,河南林校,细颗粒物(PM2.5),93,117,127,69,61,51,,48,42,30,32,7,10,1.0,0.9
2025-04-09T1000,1816A,112.3844,34.623,洛阳市,开发区管委会,颗粒物(PM10),88,125,118,59,60,49,,42,42,27,30,8,11,0.5,0.5
2025-04-09T1000,1817A,112.4267,34.6258,洛阳市,市委新办公区,颗粒物(PM10),86,121,122,49,47,62,,47,43,25,32,6,8,0.6,0.6
2025-04-09T1000,3340A,112.6005,34.6326,洛阳市,伊滨,细颗粒物(PM2.5),99,142,120,74,60,65,,41,41,35,35,22,11,0.9,0.7
2025-04-09T1000,3341A,112.4951,34.6332,洛阳市,中移产业园,颗粒物(PM10),94,138,143,59,57,54,,39,35,26,33,9,11,0.9,0.8
2025-04-09T1000,3593A,112.5736,34.8993,洛阳市,吉利监测站,颗粒物(PM10),73,96,94,50,46,73,,53,53,18,25,9,11,0.8,0.8
2025-04-09T1000,3635A,112.3677,34.662,洛阳市,河科大西苑校区,细颗粒物(PM2.5),97,142,117,72,56,48,,34,34,50,40,11,11,1.0,0.8
2025-04-09T1000,3636A,112.4388,34.6781,洛阳市,英才小学,颗粒物(PM10),91,132,121,61,46,34,,37,28,50,35,10,12,1.1,0.9
2025-04-09T1000,4214A,112.4600,34.6949,洛阳市,春都路1号院,,,138,115,58,47,44,,41,34,46,33,10,11,,1
2025-04-09T1000,2399A,114.051,33.5699,漯河市,三五一五工厂,细颗粒物(PM2.5),122,147,136,92,73,71,,58,54,25,21,9,8,0.7,0.6
2025-04-09T1000,2400A,114.0055,33.5698,漯河市,漯河大学,细颗粒物(PM2.5),100,148,135,75,68,70,,59,52,26,22,10,9,0.7,0.6
2025-04-09T1000,2401A,114.0138,33.5828,漯河市,市水利局,"颗粒物(PM10),细颗粒物(PM2.5)",100,149,145,75,69,68,,56,52,27,22,9,8,0.5,0.4
2025-04-09T1000,2402A,114.0261,33.5698,漯河市,市广电局,细颗粒物(PM2.5),110,142,137,83,73,69,,58,52,23,20,9,8,0.8,0.8
2025-04-09T1000,3478A,113.9749,33.5664,漯河市,市图书馆,颗粒物(PM10),101,152,147,74,74,72,,50,44,23,26,9,7,0.7,0.7
2025-04-09T1000,4250A,114.0892,33.5882,漯河市,韶山路11号,细颗粒物(PM2.5),110,148,138,83,73,67,,48,44,27,29,8,8,0.7,0.8
2025-04-09T1000,1798A,118.5092,31.6837,马鞍山市,湖东路四小,颗粒物(PM10),73,95,83,41,40,112,,61,59,27,33,12,15,0.8,0.9
2025-04-09T1000,1799A,118.5024,31.6449,马鞍山市,开发区,,,111,96,,47,,,44,32,,47,,10,,0.9
2025-04-09T1000,1802A,118.6245,31.7241,马鞍山市,濮塘,颗粒物(PM10),80,110,79,52,43,106,,73,70,42,21,19,12,1.1,0.7
2025-04-09T1000,3633A,118.4918,31.6809,马鞍山市,雨山,颗粒物(PM10),72,93,86,47,44,111,,58,53,26,35,15,14,0.9,1
2025-04-09T1000,4191A,118.5274,31.72227,马鞍山市,慈湖高新区,颗粒物(PM10),76,101,100,50,49,93,,48,44,56,51,35,13,2.3,0.9
2025-04-09T1000,1686A,111.0286,21.4688,茂名市,电白南海,颗粒物(PM10),53,56,54,31,35,90,,73,73,9,14,1,2,0.8,0.8
2025-04-09T1000,1687A,110.9294,21.6533,茂名市,茂石化七小,颗粒物(PM10),54,58,52,27,27,90,,79,78,16,11,4,4,0.9,0.9
2025-04-09T1000,1688A,110.9107,21.6687,茂名市,健康路,颗粒物(PM10),51,51,48,31,28,105,,94,94,13,9,4,4,0.8,0.8
2025-04-09T1000,1689A,110.8592,21.6828,茂名市,高岭,颗粒物(PM10),52,53,56,24,26,102,,85,85,10,12,5,6,0.7,0.7
2025-04-09T1000,3450A,111.01,21.5165,茂名市,电白水东,,39,39,43,22,24,79,,76,73,17,14,3,4,0.8,0.7
2025-04-09T1000,2539A,104.0308,30.0478,眉山市,黑龙滩水库,,46,46,30,17,17,75,,40,40,23,13,14,2,0.7,0.7
2025-04-09T1000,2540A,103.8416,30.0874,眉山市,气象局,细颗粒物(PM2.5),79,102,82,58,44,42,,22,22,62,47,10,5,1.0,0.8
2025-04-09T1000,3137A,103.8578,30.0744,眉山市,市委党校,细颗粒物(PM2.5),70,85,69,51,37,32,,16,16,58,45,19,9,1.1,0.9
2025-04-09T1000,3148A,103.8291,30.0564,眉山市,区人社局,细颗粒物(PM2.5),64,59,57,46,38,54,,22,22,54,55,19,12,1.0,0.9
2025-04-09T1000,1690A,116.1231,24.3284,梅州市,梅江月梅,,,,51,,34,,,,,32,20,,5,0.8,0.7
2025-04-09T1000,1691A,116.0797,24.2719,梅州市,梅县新城,细颗粒物(PM2.5),58,61,52,41,35,43,,15,15,30,29,8,7,0.8,0.6
2025-04-09T1000,1692A,116.1248,24.2654,梅州市,环境监控中心,颗粒物(PM10),66,82,53,43,39,36,,14,,36,31,10,8,0.9,0.8
2025-04-09T1000,3315A,116.1233,24.2991,梅州市,梅龙,"颗粒物(PM10),细颗粒物(PM2.5)",58,66,54,41,35,55,,25,25,26,25,14,10,0.9,0.8
2025-04-09T1000,1878A,104.7778,31.4741,绵阳市,富乐山,颗粒物(PM10),60,69,71,31,36,90,,63,63,19,26,3,3,0.5,0.6
2025-04-09T1000,1880A,104.6697,31.4668,绵阳市,高新区自来水公司,颗粒物(PM10),68,85,97,29,41,66,,26,26,40,53,4,3,0.6,0.7
2025-04-09T1000,1881A,104.7287,31.5075,绵阳市,三水厂,颗粒物(PM10),84,117,97,47,47,64,,32,32,37,46,6,6,0.6,0.8
2025-04-09T1000,3491A,104.69,31.5322,绵阳市,西科大附属小学,,,,87,,38,,,54,49,37,37,,7,0.6,0.7
2025-04-09T1000,3492A,104.5648,31.5343,绵阳市,安州区旅游局,颗粒物(PM10),85,120,80,39,37,55,,52,47,51,32,9,9,0.6,0.5
2025-04-09T1000,4226A,104.7651,31.4531,绵阳市,绵阳市气象局,颗粒物(PM10),57,63,90,19,45,72,,43,43,36,44,6,4,0.3,0.5
2025-04-09T1000,1784A,129.61,44.561,牡丹江市,环保大楼,细颗粒物(PM2.5),59,52,40,42,26,70,,64,61,18,16,5,6,0.5,0.4
2025-04-09T1000,1785A,129.6115,44.5782,牡丹江市,文化广场,颗粒物(PM10),59,68,49,38,29,69,,60,57,18,20,13,10,0.6,0.6
2025-04-09T1000,1786A,129.5904,44.5963,牡丹江市,第一医院,细颗粒物(PM2.5),53,51,46,37,31,72,,50,50,14,16,13,12,0.5,0.4
2025-04-09T1000,1787A,129.6364,44.6075,牡丹江市,机车工厂,颗粒物(PM10),54,57,62,36,31,68,,36,36,26,27,8,8,0.6,0.7
2025-04-09T1000,1788A,129.6386,44.5462,牡丹江市,第一中学,,,49,43,35,27,,,50,47,8,14,9,8,,0.5
2025-04-09T1000,2531A,105.0703,29.61,内江市,市监测站,细颗粒物(PM2.5),64,67,53,46,40,55,,36,36,42,34,9,6,1.0,0.9
2025-04-09T1000,2532A,105.0717,29.5947,内江市,东兴区政府,颗粒物(PM10),61,71,50,42,32,50,,28,28,40,36,11,4,0.9,0.8
2025-04-09T1000,2533A,105.0653,29.5817,内江市,内江二中,细颗粒物(PM2.5),72,77,57,52,42,54,,29,29,35,40,13,8,0.7,0.7
2025-04-09T1000,2534A,105.0406,29.5822,内江市,内江日报社,细颗粒物(PM2.5),73,55,58,53,39,60,,40,40,32,44,11,6,0.6,0.6
2025-04-09T1000,2628A,92.0657,31.4846,那曲市,那曲监测站,细颗粒物(PM2.5),84,100,49,62,27,56,,52,50,30,20,14,7,1.1,0.9
2025-04-09T1000,4243A,92.0515,31.4787,那曲市,那曲市委宣传部,细颗粒物(PM2.5),88,99,39,65,19,52,,52,44,35,16,12,6,1.2,0.6
2025-04-09T1000,1290A,115.8931,28.6843,南昌市,省外办,细颗粒物(PM2.5),85,104,88,63,57,60,,16,16,54,52,25,11,0.8,0.9
2025-04-09T1000,1291A,115.8886,28.7003,南昌市,省林业公司,颗粒物(PM10),74,97,84,53,47,35,,14,14,60,41,15,12,0.8,0.7
2025-04-09T1000,1292A,115.8126,28.7442,南昌市,林科所,颗粒物(PM10),70,90,66,48,39,96,,50,50,24,45,16,12,0.5,0.5
2025-04-09T1000,1294A,115.8518,28.687,南昌市,建工学校,颗粒物(PM10),77,104,88,52,51,73,,23,23,39,45,16,8,0.9,0.9
2025-04-09T1000,1295A,115.8921,28.6424,南昌市,象湖,细颗粒物(PM2.5),85,107,90,63,46,64,,16,16,45,46,40,12,0.8,0.8
2025-04-09T1000,1296A,115.7423,28.7996,南昌市,武术学校,,39,39,39,8,20,104,,19,19,3,7,12,12,0.9,0.8
2025-04-09T1000,3046A,115.9084,28.6062,南昌市,机电学校,细颗粒物(PM2.5),89,115,104,66,56,80,,26,26,36,46,34,8,0.8,0.8
2025-04-09T1000,3690A,115.9721,28.7031,南昌市,外国语学校,,,118,92,59,46,84,,20,20,49,42,17,9,,0.5
2025-04-09T1000,4192A,115.9316,28.68677,南昌市,南京东路235号,颗粒物(PM10),92,134,121,64,59,67,,18,18,58,57,45,15,0.9,1.1
2025-04-09T1000,1905A,106.056,30.8064,南充市,西山风景区,颗粒物(PM10),67,83,54,40,32,43,,63,60,24,16,6,6,0.9,0.8
2025-04-09T1000,1906A,106.0789,30.8023,南充市,南充市委,颗粒物(PM10),76,102,79,53,41,39,,28,27,37,36,5,4,0.9,0.8
2025-04-09T1000,1907A,106.1031,30.8217,南充市,南充炼油厂,,,94,87,48,43,,,16,15,26,34,,4,0.6,0.6
2025-04-09T1000,4227A,106.1083,30.7884,南充市,梨树横街98号,颗粒物(PM10),74,98,82,35,35,43,,15,15,32,40,7,6,0.5,0.5
2025-04-09T1000,4304A,106.1172,30.843,南充市,清泉寺北路188号,细颗粒物(PM2.5),73,91,83,53,38,63,,39,32,21,26,6,4,0.5,0.5
2025-04-09T1000,4305A,106.067,30.7616,南充市,同庆路1号,颗粒物(PM10),74,98,78,46,37,37,,29,28,44,37,5,4,0.7,0.6
2025-04-09T1000,1151A,118.8086,32.1065,南京市,迈皋桥,细颗粒物(PM2.5),98,120,97,73,58,111,,68,68,68,63,5,7,0.8,0.8
2025-04-09T1000,1152A,118.7538,32.0551,南京市,草场门,颗粒物(PM10),75,100,87,51,55,126,,81,81,30,37,8,8,0.9,0.9
2025-04-09T1000,1153A,118.7794,32.0745,南京市,山西路,细颗粒物(PM2.5),89,107,101,66,49,127,,85,83,28,29,8,8,0.6,0.5
2025-04-09T1000,1154A,118.7752,32.0023,南京市,中华门,颗粒物(PM10),76,102,91,53,47,105,,70,70,41,34,18,14,0.7,0.6
2025-04-09T1000,1155A,118.8109,32.0309,南京市,瑞金路,颗粒物(PM10),86,122,103,53,48,115,,71,71,39,35,6,7,0.5,0.6
2025-04-09T1000,1156A,118.7997,32.0754,南京市,玄武湖,细颗粒物(PM2.5),95,136,94,71,49,86,,63,61,28,24,10,10,0.6,0.6
2025-04-09T1000,1157A,118.6414,32.0931,南京市,浦口,颗粒物(PM10),83,115,108,55,49,128,,91,91,27,31,9,9,0.7,0.6
2025-04-09T1000,1158A,118.7356,31.9996,南京市,奥体中心,颗粒物(PM10),84,117,97,56,50,104,,69,69,40,35,22,12,0.9,0.7
2025-04-09T1000,1159A,118.9125,32.1028,南京市,仙林大学城,细颗粒物(PM2.5),117,141,105,88,64,95,,67,62,55,34,16,13,1.4,1.2
2025-04-09T1000,3422A,118.8436,31.9198,南京市,江宁彩虹桥,细颗粒物(PM2.5),85,110,90,63,50,108,,74,71,42,32,13,5,1.3,0.8
2025-04-09T1000,3427A,118.8554,32.3578,南京市,六合雄州,颗粒物(PM10),70,90,109,44,50,124,,75,75,8,14,10,8,0.8,0.7
2025-04-09T1000,4249A,118.8708,31.3402,南京市,汶溪路181号,细颗粒物(PM2.5),75,74,62,55,43,107,,71,67,119,83,9,7,1.4,0.8
2025-04-09T1000,4312A,119.019,31.6512,南京市,中山西路1号,颗粒物(PM10),67,83,65,41,39,111,,52,52,26,27,7,7,0.9,0.6
2025-04-09T1000,1401A,108.3103,22.7881,南宁市,二十一中,,,52,50,30,34,29,,47,40,29,19,,3,1.2,1.3
2025-04-09T1000,1402A,108.3141,22.8528,南宁市,北湖,,47,47,60,32,37,33,,51,45,30,21,9,6,1.0,1
2025-04-09T1000,1403A,108.3206,22.8225,南宁市,市监测站,,50,50,50,28,34,36,,49,43,24,18,7,6,0.8,1
2025-04-09T1000,1404A,108.3829,22.8037,南宁市,大自然花园,,,47,50,30,33,,,52,51,17,12,7,5,1.3,1.3
2025-04-09T1000,1405A,108.4394,22.7904,南宁市,仙葫,颗粒物(PM10),52,54,48,25,34,44,,39,36,11,16,3,3,0.9,1
2025-04-09T1000,1406A,108.2397,22.8467,南宁市,区农职院,,46,46,64,25,33,35,,36,31,24,24,3,3,0.9,1
2025-04-09T1000,1407A,108.3275,22.735,南宁市,英华嘉园,,,,49,,33,,,78,,,16,,6,,0.9
2025-04-09T1000,3401A,108.4834,22.7618,南宁市,红星社区,,40,40,50,23,32,57,,42,39,9,15,8,8,1.0,1.1
2025-04-09T1000,4221A,108.2177,22.7774,南宁市,乐贤路16号,颗粒物(PM10),52,54,53,24,35,32,,22,19,26,32,7,7,0.8,0.9
2025-04-09T1000,2331A,118.0966,26.6761,南平市,茫荡山,,,,,,,,,,,,,,,,
2025-04-09T1000,2332A,118.1681,26.6369,南平市,南平市监测站,,,58,65,40,49,71,,30,30,17,27,,6,0.8,0.9
2025-04-09T1000,2333A,118.1825,26.6489,南平市,南平铝业有限公司,颗粒物(PM10),56,62,61,38,44,64,,27,27,15,25,5,5,0.9,0.9
2025-04-09T1000,2334A,118.1756,26.6272,南平市,南平七中,颗粒物(PM10),62,73,56,42,43,54,,18,18,18,23,8,6,0.9,0.8
2025-04-09T1000,1168A,120.9098,31.9663,南通市,狼山街道,细颗粒物(PM2.5),93,132,104,69,56,70,,62,49,82,40,17,11,1.7,1.1
2025-04-09T1000,1169A,120.86,32.0005,南通市,虹桥,细颗粒物(PM2.5),135,159,112,103,79,52,,87,64,99,43,20,13,1.5,1.1
2025-04-09T1000,1170A,120.87,32.02,南通市,城中,细颗粒物(PM2.5),125,162,121,95,71,72,,94,74,91,40,19,14,1.6,1.2
2025-04-09T1000,1171A,120.94,31.93,南通市,星湖花园,细颗粒物(PM2.5),105,129,98,79,61,74,,78,59,81,40,18,12,1.2,0.7
2025-04-09T1000,1172A,120.81,32.0417,南通市,紫琅学院,细颗粒物(PM2.5),145,167,110,111,69,48,,72,50,100,43,26,9,2.0,0.6
2025-04-09T1000,3291A,121.067,32.062,南通市,通州监测站,细颗粒物(PM2.5),107,132,104,80,64,57,,84,65,56,25,13,8,1.2,0.8
2025-04-09T1000,3432A,120.9348,31.9883,南通市,环境教育馆,细颗粒物(PM2.5),123,139,102,93,70,70,,53,44,75,35,18,12,1.4,0.9
2025-04-09T1000,2404A,112.5224,33.0122,南阳市,瓦房庄,颗粒物(PM10),96,142,113,48,47,52,,64,56,41,24,8,7,0.9,0.7
2025-04-09T1000,2405A,112.5003,32.9735,南阳市,汉画馆,,,119,98,52,49,,,42,36,41,28,6,6,0.8,0.7
2025-04-09T1000,2406A,112.5573,33.027,南阳市,气象站,颗粒物(PM10),104,158,114,68,50,73,,76,73,30,20,12,8,0.9,0.7
2025-04-09T1000,2407A,112.5481,32.9689,南阳市,理工学院,颗粒物(PM10),92,134,109,57,49,53,,75,74,42,23,5,6,0.8,0.7
2025-04-09T1000,4008A,112.5234,32.9922,南阳市,卧龙区政府,颗粒物(PM10),90,130,109,60,58,69,,61,59,29,24,6,6,0.8,0.7
2025-04-09T1000,1234A,121.8358,29.911,宁波市,区环保大楼,颗粒物(PM10),53,55,86,17,31,72,,13,13,63,80,17,14,0.8,0.8
2025-04-09T1000,1235A,121.56,29.82,宁波市,万里学院,,46,46,59,21,32,103,,69,69,12,22,9,8,0.9,0.8
2025-04-09T1000,1236A,121.713,29.9572,宁波市,龙赛医院,颗粒物(PM10),52,54,82,27,32,109,,59,59,12,40,8,10,0.6,0.6
2025-04-09T1000,1239A,121.633,29.7733,宁波市,钱湖水厂,,43,43,51,24,26,100,,78,77,14,12,8,8,0.6,0.6
2025-04-09T1000,1240A,121.5856,29.8635,宁波市,太古小学,,49,49,66,23,27,106,,79,79,15,21,13,10,0.7,0.6
2025-04-09T1000,1241A,121.524,29.8674,宁波市,市环境监测中心,颗粒物(PM10),51,51,63,22,30,95,,67,65,32,38,10,11,0.6,0.5
2025-04-09T1000,2871A,121.6147,29.9017,宁波市,万里国际学校,颗粒物(PM10),52,54,64,24,27,103,,90,86,15,17,10,9,0.6,0.5
2025-04-09T1000,3710A,121.5594,29.8975,宁波市,白沙活动中心,,39,39,53,16,27,103,,76,75,18,24,10,9,0.6,0.6
2025-04-09T1000,2339A,119.5001,26.6946,宁德市,金涵水库,,,,,,,,,,,,,,,,
2025-04-09T1000,2341A,119.5388,26.6612,宁德市,宁德市监测站,颗粒物(PM10),59,68,54,29,31,82,,40,40,15,19,6,5,0.9,0.7
2025-04-09T1000,3209A,119.5231,26.6562,宁德市,宁德一中,颗粒物(PM10),57,63,52,36,32,77,,50,50,18,13,7,7,0.8,0.6
2025-04-09T1000,2618A,98.8601,25.8567,怒江傈僳族自治州,州监测站,"颗粒物(PM10),细颗粒物(PM2.5)",59,68,73,42,46,65,,71,69,12,10,6,7,0.5,0.5
2025-04-09T1000,2619A,98.8546,25.8417,怒江傈僳族自治州,泸水一中,细颗粒物(PM2.5),75,62,78,55,52,43,,49,47,27,17,7,7,0.6,0.6
2025-04-09T1000,1888A,101.6891,26.571,攀枝花市,弄弄坪,,,144,81,66,47,,,35,32,79,40,48,19,3.4,1.5
2025-04-09T1000,1889A,101.5769,26.5928,攀枝花市,河门口,颗粒物(PM10),81,111,75,54,41,54,,51,44,39,22,44,22,1.4,1.2
2025-04-09T1000,1890A,101.7169,26.585,攀枝花市,炳草岗,,,135,84,71,43,44,,34,34,,44,34,19,1.5,1.2
2025-04-09T1000,1891A,101.7369,26.5008,攀枝花市,仁和,细颗粒物(PM2.5),73,,68,53,47,73,,70,65,37,21,34,14,1.8,0.8
2025-04-09T1000,2835A,101.7227,26.567,攀枝花市,四十中小,颗粒物(PM10),76,101,77,50,44,50,,37,32,61,38,28,14,1.8,1.2
2025-04-09T1000,1604A,122.0303,41.1489,盘锦市,开发区,,,29,40,14,37,,,79,79,17,24,9,11,,0.5
2025-04-09T1000,1605A,122.0485,41.0883,盘锦市,兴隆台,,30,26,49,14,38,96,,76,76,18,30,9,8,0.5,0.6
2025-04-09T1000,1606A,121.8297,41.1028,盘锦市,新生街道,,33,22,33,10,33,105,,79,79,13,24,9,9,0.7,0.8
2025-04-09T1000,1832A,113.3257,33.742,平顶山市,新华旅馆,颗粒物(PM10),111,172,146,,52,,,58,46,30,26,,7,0.9,0.7
2025-04-09T1000,1833A,113.2919,33.737,平顶山市,规划设计院,细颗粒物(PM2.5),127,178,141,96,70,66,,62,53,29,21,14,7,0.9,0.7
2025-04-09T1000,1834A,113.182,33.774,平顶山市,平顶山工学院,细颗粒物(PM2.5),117,170,137,88,67,65,,53,51,31,21,8,7,0.9,0.7
2025-04-09T1000,3204A,113.3025,33.73,平顶山市,规划局,细颗粒物(PM2.5),113,168,140,85,66,69,,64,55,32,23,13,8,1.3,1.1
2025-04-09T1000,3594A,112.8867,33.9116,平顶山市,石龙区,颗粒物(PM10),112,174,178,77,71,64,,38,32,35,46,9,11,0.8,0.6
2025-04-09T1000,2656A,106.6692,35.5461,平凉市,聚贤嘉苑,颗粒物(PM10),141,231,191,50,41,81,,60,60,,21,19,18,0.5,0.5
2025-04-09T1000,2657A,106.7021,35.5307,平凉市,博物馆,颗粒物(PM10),149,248,188,55,39,64,,56,56,28,17,10,9,0.8,0.6
2025-04-09T1000,2347A,114.0997,27.5002,萍乡市,武功山,,40,,29,28,26,31,,32,29,9,7,13,12,0.6,0.6
2025-04-09T1000,2348A,113.8385,27.6434,萍乡市,中医院,细颗粒物(PM2.5),87,111,76,64,43,18,,15,15,45,27,17,12,1.7,1.1
2025-04-09T1000,2349A,113.8493,27.6253,萍乡市,市政府车库,细颗粒物(PM2.5),84,72,54,62,46,29,,28,27,35,20,7,8,1.1,0.8
2025-04-09T1000,2350A,113.8676,27.6435,萍乡市,市环保局,细颗粒物(PM2.5),73,87,66,53,47,19,,22,22,50,22,12,9,1.8,0.9
2025-04-09T1000,2351A,113.866,27.6198,萍乡市,安源区政府,细颗粒物(PM2.5),70,71,69,51,39,28,,29,26,29,18,13,13,1.0,0.6
2025-04-09T1000,2319A,119.0141,25.4325,莆田市,荔城区仓后路,细颗粒物(PM2.5),89,112,82,66,51,94,,44,44,26,25,5,4,0.9,0.8
2025-04-09T1000,2320A,119.0015,25.4553,莆田市,莆田市监测站,细颗粒物(PM2.5),90,99,68,67,46,88,,48,48,26,16,6,5,0.8,0.6
2025-04-09T1000,2321A,119.1119,25.4561,莆田市,涵江区六中,细颗粒物(PM2.5),80,84,64,59,40,91,,35,35,22,28,5,4,0.8,0.7
2025-04-09T1000,2322A,119.1013,25.3215,莆田市,秀屿区政府,细颗粒物(PM2.5),90,90,66,67,49,104,,63,63,22,17,14,7,0.8,0.7
2025-04-09T1000,2323A,118.981,25.4792,莆田市,东圳水库,,,,,,,,,,,,,,,,
2025-04-09T1000,2392A,115.0312,35.7636,濮阳市,环保局,细颗粒物(PM2.5),77,82,78,56,56,92,,74,73,21,22,11,15,0.7,0.7
2025-04-09T1000,2394A,115.0574,35.7609,濮阳市,油田运输公司,,,90,98,65,56,,,72,70,24,23,,15,0.9,0.8
2025-04-09T1000,3021A,115,35.7668,濮阳市,濮水河管理处,细颗粒物(PM2.5),83,109,101,61,55,95,,64,64,23,26,8,10,0.9,0.9
2025-04-09T1000,4216A,115.0924,35.7686,濮阳市,任丘路479号,细颗粒物(PM2.5),98,117,110,73,59,99,,80,80,23,21,10,15,1.3,1.2
2025-04-09T1000,2601A,100.98,22.7633,普洱市,市环保局,颗粒物(PM10),79,107,81,23,36,40,,39,36,31,15,4,4,1.1,0.7
2025-04-09T1000,2602A,100.9817,22.8322,普洱市,普洱第二中学,,,71,58,47,36,,,,,46,27,7,6,0.8,0.6
2025-04-09T1000,2262A,131.0518,45.8751,七台河市,新一中,,45,44,78,31,56,124,,95,95,15,21,14,14,1.1,1.2
2025-04-09T1000,3345A,131.0577,45.7879,七台河市,中波台,,,,67,,45,,,95,,,28,,8,,0.6
2025-04-09T1000,3637A,131.0176,45.7761,七台河市,人民广场,,,,86,,58,,,91,91,,34,9,11,0.7,0.8
2025-04-09T1000,3684A,130.8781,45.8222,七台河市,新建矿广场,颗粒物(PM10),57,63,104,27,54,105,,82,82,15,28,8,9,0.6,0.7
2025-04-09T1000,1779A,123.9305,47.3636,齐齐哈尔市,安居小区,颗粒物(PM10),56,62,58,22,35,94,,58,58,10,18,3,4,0.4,0.5
2025-04-09T1000,1780A,123.9488,47.3386,齐齐哈尔市,中心广场,颗粒物(PM10),55,59,59,24,35,84,,56,56,10,17,6,7,0.4,0.5
2025-04-09T1000,1781A,123.9483,47.3227,齐齐哈尔市,农牧车辆厂,颗粒物(PM10),58,66,59,34,26,95,,56,56,10,15,5,7,0.4,0.4
2025-04-09T1000,1783A,123.945,47.2988,齐齐哈尔市,市环境监测站,颗粒物(PM10),59,68,62,38,40,90,,55,55,11,15,3,4,0.4,0.4
2025-04-09T1000,3662A,123.6333,47.2075,齐齐哈尔市,富区青少年活动中心,细颗粒物(PM2.5),79,83,82,58,50,94,,46,46,16,21,5,11,0.5,0.9
2025-04-09T1000,2591A,107.9783,26.5747,黔东南苗族侗族自治州,市环境监测站,细颗粒物(PM2.5),73,65,59,53,49,22,,24,21,26,19,3,2,1.0,0.7
2025-04-09T1000,2881A,107.8908,26.5311,黔东南苗族侗族自治州,凯里学院,,,,47,59,53,,,20,17,14,12,,1,0.7,0.7
2025-04-09T1000,2593A,107.5228,26.2403,黔南布依族苗族自治州,小围寨,细颗粒物(PM2.5),64,51,40,46,38,30,,40,39,14,8,4,4,0.6,0.6
2025-04-09T1000,3538A,107.5175,26.2978,黔南布依族苗族自治州,沙坝,颗粒物(PM10),62,73,47,41,39,9,,8,6,25,14,4,4,0.8,0.7
2025-04-09T1000,2589A,104.9022,25.0925,黔西南布依族苗族自治州,场坝街,细颗粒物(PM2.5),65,50,51,47,38,64,,41,41,13,13,4,4,0.7,0.7
2025-04-09T1000,2590A,104.8811,25.0992,黔西南布依族苗族自治州,坪东大道,细颗粒物(PM2.5),64,52,46,46,37,68,,27,27,12,18,3,3,0.5,0.6
2025-04-09T1000,2502A,108.6236,21.9667,钦州市,市环保站,颗粒物(PM10),54,58,53,27,32,46,,41,41,36,32,13,9,0.8,0.9
2025-04-09T1000,2503A,108.6549,21.9481,钦州市,沙埠小学,颗粒物(PM10),57,63,63,24,33,52,,18,18,21,36,7,10,0.9,1.1
2025-04-09T1000,2504A,108.5989,21.7431,钦州市,港区一小,,,93,75,33,30,31,,33,33,54,43,,9,0.8,0.9
2025-04-09T1000,3404A,108.5959,21.9633,钦州市,北职校,颗粒物(PM10),51,52,46,34,40,44,,31,31,38,32,12,8,0.9,0.9
2025-04-09T1000,1043A,119.7493,40.0116,秦皇岛市,第一关,,38,23,31,17,21,121,,90,90,9,27,4,5,0.3,0.3
2025-04-09T1000,1044A,119.5897,39.9499,秦皇岛市,监测站,,44,44,39,21,16,116,,93,93,9,14,3,4,0.4,0.4
2025-04-09T1000,1046A,119.5251,39.9041,秦皇岛市,建设大厦,,36,33,37,23,20,114,,80,80,16,26,3,4,0.5,0.5
2025-04-09T1000,3132A,119.610547,39.943889,秦皇岛市,文明里,,38,38,45,13,18,111,,91,91,9,15,3,5,0.2,0.3
2025-04-09T1000,4198A,119.5090,39.8253,秦皇岛市,北戴河轮滑馆,,34,28,41,20,19,107,,92,92,11,15,6,7,0.4,0.4
2025-04-09T1000,1307A,120.6659,36.2403,青岛市,仰口,颗粒物(PM10),54,58,47,24,19,98,,90,90,14,10,5,4,0.6,0.5
2025-04-09T1000,1310A,120.4134,36.0658,青岛市,市南区东部子站,,48,48,54,17,14,101,,80,80,14,24,7,8,0.5,0.5
2025-04-09T1000,1311A,120.3664,36.1032,青岛市,四方区子站,,44,44,53,17,17,118,,90,90,14,24,6,6,0.5,0.5
2025-04-09T1000,1312A,120.2994,36.054,青岛市,市南区西部子站,,39,39,50,15,14,95,,71,71,26,37,9,8,0.6,0.6
2025-04-09T1000,1313A,120.4581,36.0858,青岛市,崂山区子站,,,,43,,8,,,100,,,18,,8,,0.4
2025-04-09T1000,1315A,120.3999,36.3083,青岛市,城阳区子站,颗粒物(PM10),54,58,54,17,13,108,,88,88,27,24,10,8,0.6,0.5
2025-04-09T1000,1966A,120.0405,35.8735,青岛市,黄岛区4号,颗粒物(PM10),52,53,55,17,12,90,,89,88,25,20,8,8,0.7,0.6
