timepoint,stationcode,longitude,latitude,area,positionname,primarypollutant,aqi,pm10,pm10_24h,pm2_5,pm2_5_24h,o3,o3_24h,o3_8h,o3_8h_24h,no2,no2_24h,so2,so2_24h,co,co_24h
2025-01-04T0700,2566A,102.1879,31.914,阿坝藏族羌族自治州,州农科所,,14,13,55,3,17,42,,,,12,22,5,7,0.8,0.9
2025-01-04T0700,2568A,102.2502,31.8896,阿坝藏族羌族自治州,马师校,,10,6,17,3,16,23,,,,20,24,5,5,0.3,0.4
2025-01-04T0700,3994A,102.2165,31.9024,阿坝藏族羌族自治州,马尔康中学西区,,13,12,25,9,15,40,,,,9,19,4,5,0.4,0.5
2025-01-04T0700,2695A,80.292,41.1694,阿克苏地区,电视台,细颗粒物(PM2.5),107,107,150,80,101,21,,,,42,54,4,5,2.0,2.2
2025-01-04T0700,2696A,80.2613,41.1551,阿克苏地区,艺术中心,细颗粒物(PM2.5),103,97,141,77,90,36,,,,24,53,4,5,1.3,1.6
2025-01-04T0700,2204A,105.6467,38.8363,阿拉善盟,西城区西花园,,46,46,64,26,33,84,,,,12,23,8,10,0.8,1
2025-01-04T0700,2205A,105.6985,38.8411,阿拉善盟,蒙二幼,,33,33,51,10,20,85,,,,12,19,5,6,0.4,0.5
2025-01-04T0700,2206A,105.724,38.8516,阿拉善盟,环保局新楼,,30,16,43,7,17,96,,,,6,11,8,10,0.6,0.7
2025-01-04T0700,2708A,88.1264,47.8517,阿勒泰地区,市站,,30,30,21,17,16,23,,,,44,46,8,8,0.3,0.3
2025-01-04T0700,2630A,80.1161,32.5,阿里地区,阿里监测站,,21,6,8,3,4,67,,,,3,7,6,9,0.4,0.5
2025-01-04T0700,3192A,80.0903,32.5028,阿里地区,阿里藏医院,,20,11,13,3,6,64,,,,6,9,14,10,0.6,0.6
2025-01-04T0700,2642A,109.0318,32.6537,安康市,香溪洞,细颗粒物(PM2.5),125,96,84,95,76,4,,,,56,50,9,9,1.1,0.8
2025-01-04T0700,2644A,109.0072,32.6975,安康市,汉滨区检察院,细颗粒物(PM2.5),139,129,111,106,88,6,,,,36,44,6,6,1.2,1.1
2025-01-04T0700,4054A,109.0325,32.6913,安康市,市邮政管理局,细颗粒物(PM2.5),135,129,122,103,91,4,,,,40,45,6,6,1.1,1.1
2025-01-04T0700,2291A,117.0809,30.5177,安庆市,环科院,细颗粒物(PM2.5),110,137,161,83,105,1,,,,68,39,8,9,1.2,1.1
2025-01-04T0700,2292A,117.0331,30.5119,安庆市,马山宾馆,细颗粒物(PM2.5),122,133,160,92,109,0,,,,58,32,8,11,1.0,1
2025-01-04T0700,2294A,116.9896,30.6145,安庆市,安庆大学,细颗粒物(PM2.5),134,145,180,102,134,13,,,,66,42,10,12,1.0,1.1
2025-01-04T0700,3173A,117.0598,30.5351,安庆市,市人大,细颗粒物(PM2.5),132,149,162,100,107,17,,,,55,45,7,9,1.1,1
2025-01-04T0700,3123A,105.9408,26.2431,安顺市,凤凰山,细颗粒物(PM2.5),69,54,65,50,60,84,,,,10,28,10,29,0.6,0.8
2025-01-04T0700,3124A,105.9439,26.2564,安顺市,金钟山,细颗粒物(PM2.5),67,57,66,48,57,83,,,,9,17,13,24,0.7,0.9
2025-01-04T0700,1819A,114.3551,36.1017,安阳市,红庙街,细颗粒物(PM2.5),125,123,95,95,71,5,,,,43,33,4,7,1.2,0.9
2025-01-04T0700,1820A,114.361,36.0681,安阳市,银杏小区,细颗粒物(PM2.5),122,108,94,92,69,4,,,,49,42,3,6,1.0,0.8
2025-01-04T0700,3141A,114.3922,36.0878,安阳市,信访局,细颗粒物(PM2.5),112,114,94,84,66,4,,,,56,41,2,4,0.7,0.6
2025-01-04T0700,3669A,114.4705,36.0637,安阳市,左辅环卫站,细颗粒物(PM2.5),125,131,109,95,72,5,,,,57,39,7,8,0.9,0.8
2025-01-04T0700,3703A,114.2917,36.0949,安阳市,安钢职工学校,细颗粒物(PM2.5),133,133,111,101,80,6,,,,42,41,4,7,1.2,1
2025-01-04T0700,1748A,123.044,41.1196,鞍山市,深沟寺,,35,30,45,24,28,48,,,,16,23,9,13,0.6,0.8
2025-01-04T0700,1749A,123.011,41.0931,鞍山市,太阳城,,21,21,43,13,27,50,,,,15,23,7,11,0.6,0.8
2025-01-04T0700,1750A,123.0485,41.1442,鞍山市,太平,,31,31,50,14,28,39,,,,30,32,10,17,0.6,1
2025-01-04T0700,1751A,122.9642,41.0971,鞍山市,铁西三道街,,37,37,63,17,35,7,,,,57,39,4,13,1.1,1.1
2025-01-04T0700,1752A,122.9341,41.0833,鞍山市,铁西工业园区,颗粒物(PM10),56,62,77,29,49,16,,,,58,48,8,13,1.1,1.2
2025-01-04T0700,1753A,123.022,41.0821,鞍山市,明达新区,,20,19,41,13,27,62,,,,6,16,8,13,0.5,0.8
2025-01-04T0700,2195A,107.4212,40.761,巴彦淖尔市,附二中,,47,47,59,26,26,63,,,,9,22,4,6,0.3,0.4
2025-01-04T0700,2196A,107.37,40.7372,巴彦淖尔市,市环保大楼,,,49,61,22,21,51,,,,,22,6,5,0.3,0.5
2025-01-04T0700,1956A,86.1472,41.7538,巴音郭楞蒙古自治州,孔雀公园,细颗粒物(PM2.5),115,105,91,87,63,47,,,,29,47,6,5,1.0,0.9
2025-01-04T0700,1957A,86.1972,41.7166,巴音郭楞蒙古自治州,棉纺厂,颗粒物(PM10),93,136,113,68,58,41,,,,38,47,4,4,1.0,0.9
2025-01-04T0700,1958A,86.2357,41.7173,巴音郭楞蒙古自治州,经济开发区,细颗粒物(PM2.5),103,107,83,77,50,53,,,,29,38,4,3,0.9,0.8
2025-01-04T0700,2914A,106.7677,31.8794,巴中市,苏山坪,细颗粒物(PM2.5),65,55,82,47,71,63,,,,8,11,2,4,0.6,0.7
2025-01-04T0700,3182A,106.7656,31.8545,巴中市,丽阳花园,细颗粒物(PM2.5),124,115,134,94,103,2,,,,30,43,3,4,1.0,1.2
2025-01-04T0700,3183A,106.7418,31.8654,巴中市,圣泉水务公司,细颗粒物(PM2.5),112,94,102,84,87,7,,,,35,40,4,3,0.8,0.7
2025-01-04T0700,3616A,106.7616,31.8344,巴中市,市中心医院,细颗粒物(PM2.5),152,123,136,116,114,2,,,,31,45,3,4,1.0,1.2
2025-01-04T0700,2235A,122.7911,45.6077,白城市,洮北区环保局,,39,32,37,27,31,42,,,,18,21,6,6,0.6,0.7
2025-01-04T0700,2236A,122.8738,45.5725,白城市,市环保局,细颗粒物(PM2.5),57,48,42,40,28,34,,,,18,27,8,6,0.6,0.6
2025-01-04T0700,2231A,126.4219,41.9171,白山市,喜丰,颗粒物(PM10),60,69,71,29,34,14,,,,38,35,28,22,1.0,1
2025-01-04T0700,2232A,126.4077,41.9419,白山市,环保局,颗粒物(PM10),64,78,71,27,31,13,,,,30,23,7,10,0.9,1
2025-01-04T0700,2647A,104.1724,36.5446,白银市,第三小学,二氧化硫,82,72,71,58,46,35,,,,50,46,369,101,2.1,1.3
2025-01-04T0700,2648A,104.1465,36.5482,白银市,动力公司,颗粒物(PM10),51,52,55,33,35,30,,,,24,36,13,49,0.8,0.7
2025-01-04T0700,2512A,106.6103,23.9011,百色市,市监测站,细颗粒物(PM2.5),82,69,81,60,61,9,,,,38,33,9,10,1.0,1.1
2025-01-04T0700,2513A,106.6538,23.8859,百色市,市中心血站,细颗粒物(PM2.5),130,107,120,99,87,7,,,,48,48,17,13,1.2,1.3
2025-01-04T0700,3406A,106.6085,23.8798,百色市,祈福高中,细颗粒物(PM2.5),90,74,100,67,67,4,,,,37,37,5,7,1.1,1.1
2025-01-04T0700,2270A,117.396,32.939,蚌埠市,工人疗养院,细颗粒物(PM2.5),93,102,115,69,75,6,,,,74,45,13,7,0.7,0.7
2025-01-04T0700,2271A,117.3605,32.9427,蚌埠市,百货大楼,细颗粒物(PM2.5),94,99,114,70,75,4,,,,65,42,8,7,0.8,0.8
2025-01-04T0700,2273A,117.4185,32.8911,蚌埠市,蚌埠学院,细颗粒物(PM2.5),82,85,107,60,71,30,,,,40,41,6,10,0.6,0.6
2025-01-04T0700,2274A,117.3533,32.9673,蚌埠市,淮上区政府,细颗粒物(PM2.5),93,107,122,69,79,6,,,,64,41,11,9,0.7,0.7
2025-01-04T0700,2275A,117.3145,32.8977,蚌埠市,高新区,细颗粒物(PM2.5),82,83,101,60,68,33,,,,45,43,8,9,0.7,0.7
2025-01-04T0700,3715A,117.3092,32.9314,蚌埠市,蚌埠田家炳中学,细颗粒物(PM2.5),89,94,111,66,73,23,,,,46,31,8,7,0.7,0.7
2025-01-04T0700,1585A,109.8756,40.6532,包头市,市环境监测站,颗粒物(PM10),57,63,72,24,30,10,,,,47,61,11,29,0.7,1.5
2025-01-04T0700,1587A,109.9991,40.5842,包头市,包头八中,颗粒物(PM10),64,78,86,37,42,7,,,,62,60,12,19,1.3,1.4
2025-01-04T0700,1588A,109.8538,40.6821,包头市,青山宾馆,颗粒物(PM10),51,51,67,35,34,12,,,,42,55,12,31,0.8,1.6
2025-01-04T0700,1589A,109.8642,40.6288,包头市,惠龙物流,颗粒物(PM10),70,90,79,43,36,4,,,,62,61,15,25,2.3,1.9
2025-01-04T0700,1590A,110.0377,40.5546,包头市,东河鸿龙湾,颗粒物(PM10),72,93,64,45,28,7,,,,66,53,15,18,2.3,1.3
2025-01-04T0700,3283A,109.9154,40.5685,包头市,滨河大厦,颗粒物(PM10),65,79,61,41,29,5,,,,60,55,13,15,1.5,1.1
2025-01-04T0700,3419A,109.9447,40.6261,包头市,包头市委党校,颗粒物(PM10),71,91,81,34,30,7,,,,61,59,13,23,1.4,1.5
2025-01-04T0700,3683A,109.8331,40.6576,包头市,昆区政府,颗粒物(PM10),51,51,63,28,31,20,,,,37,54,12,27,0.8,1.4
2025-01-04T0700,1930A,107.185,34.3063,宝鸡市,庙沟村,细颗粒物(PM2.5),72,64,82,52,67,32,,,,31,40,6,10,0.6,0.7
2025-01-04T0700,1931A,107.0708,34.3017,宝鸡市,竹园沟,细颗粒物(PM2.5),63,53,82,45,65,23,,,,25,34,6,8,0.6,0.7
2025-01-04T0700,1932A,107.1906,34.3672,宝鸡市,三陆医院,细颗粒物(PM2.5),80,73,107,59,80,12,,,,45,44,6,12,0.9,1
2025-01-04T0700,1933A,107.1431,34.3547,宝鸡市,监测站,细颗粒物(PM2.5),77,75,105,56,71,10,,,,42,47,7,10,0.8,0.9
2025-01-04T0700,1934A,107.1186,34.3739,宝鸡市,技工学校,细颗粒物(PM2.5),85,86,108,63,75,14,,,,33,37,9,12,0.8,0.9
2025-01-04T0700,1935A,107.3906,34.3528,宝鸡市,陈仓区环保局家属楼,细颗粒物(PM2.5),89,91,114,66,80,18,,,,36,48,62,46,1.0,1
2025-01-04T0700,1936A,107.2058,34.3497,宝鸡市,文理学院,细颗粒物(PM2.5),75,80,102,55,70,16,,,,36,44,7,11,0.8,0.9
2025-01-04T0700,1937A,107.2386,34.3622,宝鸡市,三迪小学,细颗粒物(PM2.5),79,73,98,58,73,14,,,,39,49,7,13,0.8,0.9
2025-01-04T0700,1051A,115.493,38.8632,保定市,游泳馆,细颗粒物(PM2.5),110,107,83,83,54,6,,,,59,52,12,10,1.4,0.9
2025-01-04T0700,1052A,115.5213,38.8959,保定市,华电二区,细颗粒物(PM2.5),133,123,69,101,51,2,,,,70,48,6,5,1.0,0.6
2025-01-04T0700,1053A,115.4713,38.9108,保定市,接待中心,细颗粒物(PM2.5),123,133,81,93,54,7,,,,58,43,4,6,1.5,1
2025-01-04T0700,1054A,115.4612,38.8416,保定市,地表水厂,细颗粒物(PM2.5),127,137,125,96,56,12,,,,70,51,7,6,1.3,0.7
2025-01-04T0700,3581A,115.31981,38.95208,保定市,满城区生态环境分局,细颗粒物(PM2.5),77,92,82,56,52,5,,,,56,49,3,5,1.2,0.6
2025-01-04T0700,3582A,115.47694,38.76408,保定市,清苑区第二中学,细颗粒物(PM2.5),123,134,106,93,62,6,,,,70,51,10,9,1.5,0.9
2025-01-04T0700,3583A,115.62909,39.02311,保定市,徐水物探局,细颗粒物(PM2.5),117,127,72,88,45,3,,,,60,48,12,7,1.2,0.6
2025-01-04T0700,4004A,115.4202,38.8656,保定市,双鹰农机,细颗粒物(PM2.5),117,133,84,88,51,10,,,,49,46,8,8,1.4,0.8
2025-01-04T0700,4034A,115.5150,38.8590,保定市,植保所站,细颗粒物(PM2.5),144,152,88,110,59,3,,,,71,52,9,7,1.8,1
2025-01-04T0700,2594A,99.1678,25.1081,保山市,市环境监测站,,24,24,31,12,19,25,,,,14,13,4,5,0.5,0.5
2025-01-04T0700,2595A,99.1711,25.1328,保山市,市环保局,,26,22,32,18,22,42,,,,5,9,5,5,0.5,0.6
2025-01-04T0700,1867A,109.1436,21.4086,北海市,海滩公园,细颗粒物(PM2.5),102,88,86,76,63,100,,,,29,20,105,21,0.9,0.9
2025-01-04T0700,1868A,109.0981,21.4661,北海市,新市环保局,细颗粒物(PM2.5),107,91,85,80,68,82,,,,37,25,123,18,0.9,0.7
2025-01-04T0700,1869A,109.1778,21.5233,北海市,北海工业园,细颗粒物(PM2.5),147,131,99,112,78,62,,,,35,23,36,25,1.0,0.9
2025-01-04T0700,3400A,109.1911,21.4415,北海市,龙潭自来水厂,细颗粒物(PM2.5),160,,97,122,88,57,,,,30,23,32,13,0.9,0.8
2025-01-04T0700,1001A,116.3621,39.8784,北京市,万寿西宫,,40,40,56,17,27,4,,,,57,58,3,4,0.4,0.4
2025-01-04T0700,1003A,116.4174,39.9289,北京市,东四,,37,37,54,19,25,6,,,,53,42,2,2,0.3,0.3
2025-01-04T0700,1004A,116.4072,39.8863,北京市,天坛,,30,30,49,18,27,2,,,,48,43,3,2,0.5,0.5
2025-01-04T0700,1005A,116.462,39.9365,北京市,农展馆,,43,43,58,19,27,5,,,,62,52,1,2,0.6,0.6
2025-01-04T0700,1006A,116.3392,39.9295,北京市,官园,,42,42,53,22,27,0,,,,63,49,4,4,0.6,0.6
2025-01-04T0700,1007A,116.2878,39.9611,北京市,海淀万柳,颗粒物(PM10),54,57,55,26,23,7,,,,66,49,4,3,0.8,0.6
2025-01-04T0700,1008A,116.6636,40.135,北京市,顺义新城,,34,34,50,18,19,3,,,,45,49,1,2,0.3,0.4
2025-01-04T0700,1009A,116.6275,40.3275,北京市,怀柔镇,,29,29,36,17,17,14,,,,32,31,1,2,0.4,0.4
2025-01-04T0700,1010A,116.2296,40.217,北京市,昌平镇,,42,42,40,20,16,1,,,,55,33,3,2,1.0,0.6
2025-01-04T0700,1011A,116.3966,39.9821,北京市,奥体中心,,49,49,56,26,26,2,,,,59,44,4,4,0.5,0.5
2025-01-04T0700,3281A,115.9718,40.4529,北京市,延庆夏都,,36,36,33,20,15,13,,,,21,22,1,2,0.6,0.4
2025-01-04T0700,3417A,117.0709,40.1465,北京市,平谷新城,,42,42,47,25,22,2,,,,30,33,1,2,0.5,0.5
2025-01-04T0700,3418A,116.8336,40.4095,北京市,密云新城,,33,33,30,16,13,23,,,,24,27,1,1,0.3,0.3
2025-01-04T0700,3671A,116.088,39.9726,北京市,门头沟三家店,,23,23,48,10,18,27,,,,19,38,10,7,0.2,0.4
2025-01-04T0700,3672A,116.1541,39.8204,北京市,丰台云岗,,32,32,52,11,22,17,,,,37,40,2,3,0.2,0.3
2025-01-04T0700,3673A,116.6804,39.9081,北京市,通州东关,,47,47,62,22,29,1,,,,60,51,3,3,0.5,0.5
2025-01-04T0700,3674A,115.9577,39.7603,北京市,房山燕山,,21,21,29,13,15,25,,,,25,24,1,2,0.4,0.4
2025-01-04T0700,3675A,116.4672,39.7733,北京市,大兴旧宫,颗粒物(PM10),60,70,59,35,26,1,,,,71,43,2,2,0.7,0.4
2025-01-04T0700,3694A,115.986,40.4563,北京市,延庆石河营,,37,37,34,22,16,4,,,,27,23,3,2,0.9,0.5
2025-01-04T0700,3695A,116.6151,40.3053,北京市,怀柔新城,,31,31,34,15,16,27,,,,12,21,3,2,0.3,0.3
2025-01-04T0700,3697A,116.84,40.3844,北京市,密云镇,,39,39,40,18,20,0,,,,47,44,2,2,0.4,0.5
2025-01-04T0700,1761A,123.8275,41.3064,本溪市,大峪,颗粒物(PM10),60,70,67,38,39,9,,,,51,43,10,13,1.5,1.5
2025-01-04T0700,1762A,123.7567,41.3325,本溪市,溪湖,颗粒物(PM10),67,83,78,45,41,6,,,,48,38,13,15,2.3,1.6
2025-01-04T0700,1763A,123.7169,41.3094,本溪市,彩屯,细颗粒物(PM2.5),92,97,68,68,51,6,,,,53,39,13,13,4.7,1.8
2025-01-04T0700,1764A,123.7669,41.2864,本溪市,东明,颗粒物(PM10),61,71,72,40,45,8,,,,54,48,9,15,1.5,1.4
2025-01-04T0700,1765A,123.7992,41.2664,本溪市,新立屯,,29,29,40,19,30,10,,,,46,45,5,11,0.7,0.9
2025-01-04T0700,1766A,123.8142,41.3472,本溪市,威宁,颗粒物(PM10),70,89,88,41,36,16,,,,39,37,2,5,1.4,1.1
2025-01-04T0700,2587A,105.2864,27.3125,毕节市,八中,,27,17,76,14,60,86,,,,13,23,6,13,0.7,0.8
2025-01-04T0700,2588A,105.31,27.2944,毕节市,师专,,27,15,72,13,58,84,,,,10,22,6,19,0.8,0.9
2025-01-04T0700,3537A,105.3631,27.3533,毕节市,长征村,,29,18,72,16,63,92,,,,13,15,7,11,0.8,0.8
2025-01-04T0700,1629A,118.0018,37.3617,滨州市,第二水厂,细颗粒物(PM2.5),89,102,80,66,48,5,,,,77,55,20,18,0.8,0.6
2025-01-04T0700,1630A,117.9776,37.393,滨州市,北中新校,细颗粒物(PM2.5),83,100,83,61,48,3,,,,82,65,22,14,0.9,0.8
2025-01-04T0700,3514A,117.9378,37.3956,滨州市,中海酒店,细颗粒物(PM2.5),73,83,75,53,50,9,,,,64,53,18,13,1.0,0.8
2025-01-04T0700,3515A,117.9378,37.3553,滨州市,开发区一中,细颗粒物(PM2.5),83,102,83,61,49,8,,,,77,64,26,18,0.9,0.7
2025-01-04T0700,3516A,118.0917,37.694,滨州市,金海六路,细颗粒物(PM2.5),83,98,82,61,51,4,,,,78,61,18,15,0.8,0.8
2025-01-04T0700,4028A,117.9956,37.3753,滨州市,滨州市西街道办事处,细颗粒物(PM2.5),98,102,85,73,57,5,,,,69,53,18,16,1.2,1.1
2025-01-04T0700,2311A,115.8072,33.8399,亳州市,污水处理厂,细颗粒物(PM2.5),132,135,131,100,87,35,,,,33,32,5,8,0.6,0.7
2025-01-04T0700,2312A,115.7789,33.8518,亳州市,三国揽胜宫,细颗粒物(PM2.5),148,157,147,113,88,30,,,,37,33,8,7,0.6,0.7
2025-01-04T0700,3332A,115.7633,33.8034,亳州市,亳州学院,细颗粒物(PM2.5),122,119,131,92,90,50,,,,23,28,5,6,0.7,0.9
2025-01-04T0700,2693A,82.0485,44.8556,博尔塔拉蒙古自治州,市党校,细颗粒物(PM2.5),107,90,75,80,55,59,,,,19,28,7,9,1.5,1.5
2025-01-04T0700,2694A,82.0806,44.8969,博尔塔拉蒙古自治州,市环保局,颗粒物(PM10),86,122,92,61,54,61,,,,17,34,6,8,1.5,1.5
2025-01-04T0700,1071A,116.8842,38.2991,沧州市,沧县城建局,细颗粒物(PM2.5),150,143,84,115,55,7,,,,66,57,10,8,1.2,0.8
2025-01-04T0700,1072A,116.8584,38.3254,沧州市,电视转播站,细颗粒物(PM2.5),132,134,74,100,48,4,,,,72,61,10,10,,0.8
2025-01-04T0700,1073A,116.8709,38.3228,沧州市,市环保局,细颗粒物(PM2.5),140,141,70,107,50,5,,,,63,54,10,8,1.1,0.8
2025-01-04T0700,3324A,116.8136,38.3004,沧州市,河北水利电力学院,细颗粒物(PM2.5),138,153,83,105,53,4,,,,64,57,16,14,1.1,0.7
2025-01-04T0700,2622A,97.1806,31.1273,昌都市,昌都监测站,,16,16,34,3,12,43,,,,7,16,6,6,0.5,0.7
2025-01-04T0700,3719A,97.1714,31.1406,昌都市,昌都会议中心,,16,9,11,7,8,51,,,,2,5,3,5,0.6,0.7
2025-01-04T0700,2690A,88.1236,43.8886,昌吉回族自治州,天山天池,,,,7,0,5,96,,,,1,2,7,7,0.3,0.5
2025-01-04T0700,2692A,87.2717,44.0297,昌吉回族自治州,新区政务中心,细颗粒物(PM2.5),254,269,236,204,175,16,,,,53,72,3,4,2.0,2
2025-01-04T0700,3613A,87.3095,44.0142,昌吉回族自治州,亚心广场,细颗粒物(PM2.5),269,266,250,219,208,22,,,,49,76,7,8,1.9,2.2
2025-01-04T0700,1119A,125.3325,43.9166,长春市,食品厂,细颗粒物(PM2.5),57,55,46,40,30,7,,,,50,37,31,15,0.7,0.6
2025-01-04T0700,1120A,125.2863,43.9027,长春市,客车厂,颗粒物(PM10),68,85,45,46,32,12,,,,48,38,15,14,0.7,0.6
2025-01-04T0700,1121A,125.2841,43.8463,长春市,邮电学院,细颗粒物(PM2.5),52,52,47,36,31,22,,,,28,34,10,16,0.5,0.5
2025-01-04T0700,1122A,125.3716,43.8772,长春市,劳动公园,颗粒物(PM10),51,52,43,32,25,10,,,,48,37,11,18,0.9,0.6
2025-01-04T0700,1123A,125.3297,43.8805,长春市,园林处,,41,41,38,28,24,17,,,,39,30,16,16,0.7,0.6
2025-01-04T0700,1124A,125.4605,43.79,长春市,净月潭,,39,39,29,22,18,43,,,,10,12,7,8,0.5,0.4
2025-01-04T0700,1126A,125.3863,43.8447,长春市,经开区环卫处,,40,40,40,28,22,5,,,,48,35,11,14,0.5,0.5
2025-01-04T0700,1127A,125.245,43.7783,长春市,高新区管委会,颗粒物(PM10),52,54,53,35,40,8,,,,43,34,6,8,0.8,0.8
2025-01-04T0700,1128A,125.1761,43.8325,长春市,岱山公园,颗粒物(PM10),62,73,49,43,33,9,,,,57,40,10,9,0.9,0.7
2025-01-04T0700,1335A,113.0833,28.2325,长沙市,经开区环保局,细颗粒物(PM2.5),252,274,232,202,160,44,,,,47,60,5,7,1.1,1.1
2025-01-04T0700,1336A,112.8872,28.2189,长沙市,高开区环保局,细颗粒物(PM2.5),233,249,220,183,154,58,,,,39,41,7,9,0.9,1
2025-01-04T0700,1337A,113.0792,28.2053,长沙市,马坡岭,细颗粒物(PM2.5),239,245,212,189,158,17,,,,65,60,4,7,1.1,1.1
2025-01-04T0700,1338A,112.9394,28.19,长沙市,湖南师范大学,细颗粒物(PM2.5),235,252,221,185,155,53,,,,36,38,5,9,1.2,1.1
2025-01-04T0700,1339A,113.0178,28.1322,长沙市,雨花区环保局,细颗粒物(PM2.5),245,247,207,195,151,32,,,,56,52,6,9,1.2,1.2
2025-01-04T0700,1340A,112.9792,28.2597,长沙市,伍家岭,细颗粒物(PM2.5),225,259,228,175,153,34,,,,50,52,4,7,1.1,1.1
2025-01-04T0700,1341A,113.0014,28.1944,长沙市,火车新站,细颗粒物(PM2.5),243,257,214,193,159,48,,,,47,48,5,7,1.2,1.1
2025-01-04T0700,1342A,112.9844,28.1178,长沙市,天心区环保局,细颗粒物(PM2.5),236,262,221,186,151,38,,,,51,43,5,7,1.6,1.5
2025-01-04T0700,1343A,112.8908,28.1308,长沙市,湖南中医药大学,细颗粒物(PM2.5),238,262,219,188,159,72,,,,35,44,8,10,1.2,1.1
2025-01-04T0700,1344A,112.9581,28.3611,长沙市,沙坪,细颗粒物(PM2.5),246,,132,196,153,58,,,,25,28,7,10,1.7,1.5
2025-01-04T0700,1727A,113.1147,36.1547,长治市,清华站,细颗粒物(PM2.5),100,93,107,75,72,14,,,,44,49,21,21,1.5,1.5
2025-01-04T0700,1728A,113.1031,36.1989,长治市,监测站,细颗粒物(PM2.5),117,122,105,88,80,12,,,,48,44,20,20,2.0,1.7
2025-01-04T0700,1730A,113.0886,36.2125,长治市,审计局,细颗粒物(PM2.5),125,135,108,95,80,2,,,,60,56,18,25,1.8,1.5
2025-01-04T0700,1731A,113.0844,36.1856,长治市,长治八中,细颗粒物(PM2.5),134,140,125,102,92,7,,,,52,46,20,22,1.7,1.5
2025-01-04T0700,2845A,113.1569,36.1911,长治市,德盛苑,细颗粒物(PM2.5),64,65,96,46,66,47,,,,25,34,18,20,1.4,1.6
2025-01-04T0700,3568A,113.06,36.0464,长治市,向阳小学,细颗粒物(PM2.5),113,100,123,85,84,42,,,,25,36,53,37,1.5,1.5
2025-01-04T0700,3569A,112.8792,36.3144,长治市,屯留一中,细颗粒物(PM2.5),123,102,67,93,48,14,,,,56,58,21,22,1.5,1.2
2025-01-04T0700,3570A,113.235,36.3489,长治市,潞城四中,细颗粒物(PM2.5),97,109,125,72,77,6,,,,59,55,34,44,2.2,2.3
2025-01-04T0700,1854A,111.6975,28.9703,常德市,市二中,细颗粒物(PM2.5),261,249,235,211,193,35,,,,28,36,5,11,1.3,1.3
2025-01-04T0700,3138A,111.7153,29.0289,常德市,武陵区永安,细颗粒物(PM2.5),282,280,240,232,185,37,,,,31,32,8,11,1.5,1.4
2025-01-04T0700,3139A,111.6892,28.9881,常德市,鼎城区玉霞,细颗粒物(PM2.5),252,255,253,202,187,11,,,,31,37,3,10,1.3,1.3
2025-01-04T0700,3140A,111.6625,29.0531,常德市,武陵区长庚,细颗粒物(PM2.5),278,303,255,228,186,38,,,,30,33,7,10,1.4,1.3
2025-01-04T0700,1196A,119.9633,31.762,常州市,市监测站,颗粒物(PM10),55,60,86,33,51,23,,,,54,44,10,9,0.8,0.8
2025-01-04T0700,1200A,119.9468,31.7069,常州市,武进监测站,颗粒物(PM10),56,61,78,36,48,27,,,,46,45,15,11,0.9,0.8
2025-01-04T0700,1201A,119.9255,31.9087,常州市,安家,颗粒物(PM10),51,52,82,32,53,23,,,,39,51,8,10,0.7,0.8
2025-01-04T0700,3002A,119.9805,31.8174,常州市,行政中心,细颗粒物(PM2.5),55,48,74,39,52,26,,,,43,39,8,9,0.4,0.5
2025-01-04T0700,3003A,120.0522,31.7748,常州市,经开区,颗粒物(PM10),60,69,88,42,50,14,,,,55,50,19,12,0.4,0.5
2025-01-04T0700,3010A,119.9025,31.7964,常州市,钟楼,细颗粒物(PM2.5),59,56,78,42,50,27,,,,47,40,9,9,0.8,0.7
2025-01-04T0700,3429A,119.8598,31.7066,常州市,武进经发区,颗粒物(PM10),53,56,89,36,53,28,,,,49,54,6,7,0.5,0.7
2025-01-04T0700,3430A,119.5826,31.7245,常州市,金坛城区,细颗粒物(PM2.5),62,66,100,44,64,26,,,,32,40,8,9,0.7,0.8
2025-01-04T0700,2220A,120.4318,41.5881,朝阳市,西梁,细颗粒物(PM2.5),97,,67,72,43,12,,,,40,42,8,13,1.8,1.4
2025-01-04T0700,2221A,120.4521,41.5646,朝阳市,河畔小区,,50,50,54,29,37,11,,,,33,30,9,11,1.3,1.2
2025-01-04T0700,2222A,120.4176,41.5648,朝阳市,八里堡,颗粒物(PM10),54,57,76,34,48,10,,,,34,40,11,17,1.1,1.2
2025-01-04T0700,2223A,120.3806,41.5969,朝阳市,农业园区,细颗粒物(PM2.5),69,72,47,50,32,10,,,,43,36,9,12,1.4,0.9
2025-01-04T0700,1705A,116.6367,23.6719,潮州市,西园路,细颗粒物(PM2.5),67,60,67,48,41,31,,,,20,21,4,6,0.2,0.3
2025-01-04T0700,3026A,116.6183,23.6608,潮州市,市政府,细颗粒物(PM2.5),59,61,69,42,38,24,,,,38,25,6,10,0.5,0.4
2025-01-04T0700,4036A,116.6461,23.6761,潮州市,金山,细颗粒物(PM2.5),58,43,62,41,40,26,,,,23,22,5,7,0.6,0.6
2025-01-04T0700,2472A,113.0073,25.9061,郴州市,马头岭,细颗粒物(PM2.5),122,134,160,92,97,41,,,,29,33,8,12,1.0,1
2025-01-04T0700,2473A,113.0116,25.8226,郴州市,市职中,细颗粒物(PM2.5),148,134,145,113,114,6,,,,56,53,5,8,1.0,1
2025-01-04T0700,2474A,113.0161,25.8001,郴州市,兴隆步行街,细颗粒物(PM2.5),153,153,162,117,123,7,,,,60,51,5,9,1.1,1.1
2025-01-04T0700,2475A,113.0383,25.8071,郴州市,市审计局,细颗粒物(PM2.5),158,130,146,120,120,6,,,,59,43,3,8,1.8,1.3
2025-01-04T0700,2476A,113.0348,25.7759,郴州市,市环保局,细颗粒物(PM2.5),169,138,146,128,124,9,,,,64,50,6,9,1.2,1.1
2025-01-04T0700,1431A,103.9728,30.7236,成都市,金泉两河,细颗粒物(PM2.5),198,149,148,148,122,9,,,,52,52,3,4,0.9,1
2025-01-04T0700,1432A,104.176,30.6872,成都市,十里店,细颗粒物(PM2.5),204,180,157,154,127,5,,,,66,57,3,4,0.9,0.9
2025-01-04T0700,1433A,104.079,30.5706,成都市,三瓦窑,细颗粒物(PM2.5),192,172,156,144,124,0,,,,82,58,2,2,1.0,1
2025-01-04T0700,1434A,104.1114,30.63,成都市,沙河铺,细颗粒物(PM2.5),179,156,148,135,124,5,,,,58,53,4,2,0.9,0.9
2025-01-04T0700,1437A,104.0786,30.6531,成都市,君平街,细颗粒物(PM2.5),182,156,145,137,121,33,,,,45,56,6,6,1.0,1.1
2025-01-04T0700,2880A,104.0239,30.65639,成都市,大石西路,细颗粒物(PM2.5),188,151,146,141,119,24,,,,42,53,2,4,1.0,1.1
2025-01-04T0700,3136A,104.2725,30.5589,成都市,龙泉驿区区政府,细颗粒物(PM2.5),168,151,141,127,119,28,,,,37,33,4,4,0.8,0.7
2025-01-04T0700,3357A,104.0106,30.6931,成都市,金博路,细颗粒物(PM2.5),189,172,150,142,117,6,,,,58,52,2,3,1.1,1.1
2025-01-04T0700,3359A,104.0578,30.5225,成都市,华阳,细颗粒物(PM2.5),199,188,150,149,119,11,,,,63,51,3,2,1.2,1
2025-01-04T0700,3487A,104.2394,30.5319,成都市,车城东七路,细颗粒物(PM2.5),175,156,143,132,119,32,,,,31,45,2,2,0.9,0.9
2025-01-04T0700,3488A,104.3853,30.7453,成都市,青白江技师分院,细颗粒物(PM2.5),210,178,149,160,131,4,,,,47,49,1,2,0.8,0.8
2025-01-04T0700,3489A,104.0789,30.4072,成都市,科学城,细颗粒物(PM2.5),180,156,150,136,120,7,,,,44,35,4,5,1.0,0.9
2025-01-04T0700,4011A,103.8506,30.6947,成都市,光华大道三段,细颗粒物(PM2.5),169,150,149,128,115,16,,,,41,43,2,2,1.0,0.9
2025-01-04T0700,1062A,117.9531,40.9081,承德市,铁路,细颗粒物(PM2.5),60,56,50,43,29,5,,,,41,40,8,13,1.2,1
2025-01-04T0700,1063A,117.9392,40.9763,承德市,中国银行,颗粒物(PM10),52,54,52,27,26,2,,,,48,45,2,6,0.7,0.8
2025-01-04T0700,1064A,117.9503,40.928,承德市,开发区,"颗粒物(PM10),细颗粒物(PM2.5)",54,57,50,38,30,8,,,,42,39,6,10,0.9,0.9
2025-01-04T0700,1065A,117.8051,40.9655,承德市,文化中心,颗粒物(PM10),73,95,79,46,31,4,,,,47,43,8,16,1.1,0.9
2025-01-04T0700,1066A,117.9268,41.0026,承德市,离宫,,49,38,37,34,30,9,,,,34,26,5,8,0.6,0.6
2025-01-04T0700,2314A,117.47,30.6618,池州市,池州学院,细颗粒物(PM2.5),119,121,176,90,123,21,,,,35,39,5,9,0.9,1
2025-01-04T0700,3237A,117.4918,30.6617,池州市,展览馆,细颗粒物(PM2.5),119,130,164,90,115,27,,,,29,38,5,8,1.0,1.1
2025-01-04T0700,3333A,117.5627,30.695,池州市,第八中学,细颗粒物(PM2.5),122,137,170,92,118,33,,,,31,38,4,7,1.0,1
2025-01-04T0700,3334A,117.5038,30.6243,池州市,第十二中学,细颗粒物(PM2.5),120,120,154,91,115,11,,,,46,41,4,6,1.1,1
2025-01-04T0700,1744A,118.9233,42.2816,赤峰市,松山一中,,33,33,46,18,18,8,,,,50,47,14,21,1.2,1.2
2025-01-04T0700,1745A,118.9576,42.2728,赤峰市,哈达街,,30,30,35,18,22,8,,,,48,42,8,15,1.3,1.1
2025-01-04T0700,1746A,118.8788,42.2554,赤峰市,天义路,,22,12,25,9,8,9,,,,43,32,9,10,1.2,0.8
2025-01-04T0700,3058A,119.2658,42.0353,赤峰市,银河街,细颗粒物(PM2.5),78,90,66,57,40,8,,,,41,35,23,20,2.2,1.5
2025-01-04T0700,3286A,118.9359,42.3147,赤峰市,桥北物流园区,,22,19,27,12,23,6,,,,43,45,8,13,1.0,0.9
2025-01-04T0700,2521A,107.3476,22.4136,崇左市,市环保局江州分局,细颗粒物(PM2.5),93,98,113,69,67,16,,,,39,41,4,7,0.7,0.8
2025-01-04T0700,2522A,107.3702,22.3707,崇左市,城南新区,细颗粒物(PM2.5),88,92,94,65,64,31,,,,39,37,5,8,0.8,0.9
2025-01-04T0700,2298A,118.3093,32.3153,滁州市,老年大学,细颗粒物(PM2.5),79,84,98,58,64,6,,,,61,50,7,7,0.6,0.6
2025-01-04T0700,2299A,118.3244,32.2786,滁州市,人大宾馆,细颗粒物(PM2.5),84,85,93,62,64,5,,,,65,42,9,10,0.7,0.6
2025-01-04T0700,3207A,118.3118,32.3038,滁州市,市政府原办公楼,细颗粒物(PM2.5),78,71,88,57,62,6,,,,60,44,6,7,0.4,0.4
2025-01-04T0700,3331A,118.3267,32.2634,滁州市,图书馆,细颗粒物(PM2.5),77,96,101,56,58,3,,,,62,39,7,7,1.4,1.3
2025-01-04T0700,2605A,101.5482,25.0441,楚雄彝族自治州,州环境监测站,,49,,33,34,28,8,,,,22,21,4,6,0.5,0.5
2025-01-04T0700,2606A,101.538,25.0492,楚雄彝族自治州,市经济开发区,,48,,35,33,28,10,,,,21,19,5,7,0.5,0.6
2025-01-04T0700,2548A,107.5277,31.2827,达州市,达州职业技术学院,细颗粒物(PM2.5),113,91,140,85,129,8,,,,17,23,6,11,0.8,1
2025-01-04T0700,2549A,107.5086,31.2186,达州市,市环境监测站,细颗粒物(PM2.5),89,92,133,66,103,6,,,,49,52,8,15,0.8,0.9
2025-01-04T0700,2550A,107.4988,31.2132,达州市,凤凰小区,细颗粒物(PM2.5),98,85,130,73,105,5,,,,50,51,10,17,0.8,0.9
2025-01-04T0700,2551A,107.5082,31.1986,达州市,达县机关宾馆,细颗粒物(PM2.5),110,102,122,83,98,4,,,,52,52,9,14,1.4,1.4
2025-01-04T0700,2552A,107.4644,31.2124,达州市,市政中心,细颗粒物(PM2.5),94,85,136,70,106,8,,,,49,57,7,12,1.0,1.3
2025-01-04T0700,2614A,100.1542,25.7054,大理白族自治州,大理市环境监测站,,33,24,25,23,20,67,,,,5,11,7,7,0.6,0.6
2025-01-04T0700,2615A,100.2171,25.5811,大理白族自治州,大理古城,,36,,26,25,19,46,,,,15,16,5,5,0.5,0.6
2025-01-04T0700,1109A,121.612,38.9741,大连市,甘井子,,38,38,32,24,16,38,,,,40,35,12,10,0.9,0.8
2025-01-04T0700,1110A,121.565,38.9511,大连市,周水子,细颗粒物(PM2.5),54,41,31,38,18,11,,,,57,37,16,13,1.0,0.7
2025-01-04T0700,1111A,121.5637,38.8845,大连市,星海三站,,35,32,25,24,13,34,,,,35,20,28,11,0.5,0.5
2025-01-04T0700,1112A,121.6302,38.9117,大连市,青泥洼桥,,43,43,31,23,14,18,,,,50,23,28,14,0.6,0.6
2025-01-04T0700,1113A,121.6251,38.8638,大连市,傅家庄,,36,36,27,22,12,45,,,,26,20,17,19,0.6,0.5
2025-01-04T0700,1114A,121.5213,38.8661,大连市,七贤岭,,38,38,28,23,13,17,,,,43,20,10,10,0.9,0.7
2025-01-04T0700,1115A,121.2529,38.8061,大连市,旅顺,,39,36,20,27,11,48,,,,23,16,11,11,0.7,0.7
2025-01-04T0700,1116A,121.7485,39.1311,大连市,金州,,38,38,36,23,20,42,,,,24,22,10,8,0.8,0.8
2025-01-04T0700,1117A,121.7811,39.0496,大连市,开发区,颗粒物(PM10),56,61,37,35,24,13,,,,63,42,24,12,1.1,0.8
2025-01-04T0700,1118A,121.9762,39.0631,大连市,双D港,,35,35,22,19,10,42,,,,25,14,10,9,0.8,0.7
2025-01-04T0700,1789A,124.81117,46.03138,大庆市,大同区,细颗粒物(PM2.5),88,75,75,65,60,7,,,,42,35,8,9,1.0,0.9
2025-01-04T0700,1790A,125.129,46.533,大庆市,龙凤区,细颗粒物(PM2.5),118,,65,89,43,24,,,,45,41,5,7,0.7,0.7
2025-01-04T0700,1791A,124.902,46.408,大庆市,红岗区,细颗粒物(PM2.5),83,80,57,61,39,11,,,,40,34,9,9,0.7,0.6
2025-01-04T0700,1792A,125.153,46.586,大庆市,萨尔图区,细颗粒物(PM2.5),68,70,38,49,28,30,,,,45,41,8,5,0.9,0.6
2025-01-04T0700,1793A,124.9042,46.6215,大庆市,让胡路区,细颗粒物(PM2.5),52,40,42,36,35,27,,,,39,35,7,7,0.9,0.7
2025-01-04T0700,3481A,125.141,46.634,大庆市,萨区政府监测点,细颗粒物(PM2.5),52,44,37,36,22,37,,,,23,33,4,6,0.6,0.7
2025-01-04T0700,1723A,113.2994,40.0758,大同市,云冈宾馆,颗粒物(PM10),51,52,55,18,19,4,,,,45,45,12,20,1.0,0.8
2025-01-04T0700,1724A,113.3444,40.0917,大同市,大同大学,颗粒物(PM10),55,59,56,26,22,6,,,,51,44,21,22,1.2,1
2025-01-04T0700,1725A,113.2661,40.1269,大同市,安家小村,颗粒物(PM10),69,88,81,34,26,7,,,,49,42,28,28,4.0,1.7
2025-01-04T0700,1726A,113.2711,40.0844,大同市,教育学院,颗粒物(PM10),57,63,65,21,24,3,,,,63,54,31,22,0.8,0.8
2025-01-04T0700,3282A,113.3397,40.0597,大同市,大同市卫生学校,颗粒物(PM10),60,69,62,23,25,2,,,,58,52,17,18,1.1,0.9
2025-01-04T0700,3565A,113.1367,40.1122,大同市,云冈站,颗粒物(PM10),56,61,54,27,20,6,,,,47,40,38,33,0.8,0.6
2025-01-04T0700,3566A,113.1186,40.2556,大同市,图书馆,,50,50,39,14,22,10,,,,40,25,23,23,0.8,0.7
2025-01-04T0700,3567A,113.5931,40.0461,大同市,区一中,颗粒物(PM10),55,59,65,21,19,6,,,,50,48,23,32,1.3,1
2025-01-04T0700,3676A,113.2802,40.0995,大同市,第二人民医院,颗粒物(PM10),66,82,72,38,26,7,,,,55,52,20,25,1.7,0.9
2025-01-04T0700,2269A,124.1069,50.4097,大兴安岭地区,科技局,,25,17,27,17,21,45,,,,6,9,5,6,0.3,0.4
2025-01-04T0700,3663A,124.1164,50.4278,大兴安岭地区,红旗社区,细颗粒物(PM2.5),64,53,41,46,34,5,,,,41,30,11,9,0.6,0.5
2025-01-04T0700,1600A,124.3303,40.0625,丹东市,江湾东路,颗粒物(PM10),53,56,79,33,57,18,,,,32,36,24,27,1.3,1.8
2025-01-04T0700,1601A,124.4256,40.1503,丹东市,临江后街,细颗粒物(PM2.5),78,69,76,57,56,8,,,,43,36,33,21,1.5,1.3
2025-01-04T0700,1602A,124.3933,40.1461,丹东市,元宝山,细颗粒物(PM2.5),70,74,58,51,39,5,,,,40,29,23,14,1.8,1.2
2025-01-04T0700,1603A,124.3633,40.1092,丹东市,民主桥,细颗粒物(PM2.5),60,64,65,43,42,5,,,,52,41,15,16,1.5,1.3
2025-01-04T0700,3541A,109.5726,19.5167,儋州市,第一中学子站,,44,44,45,29,28,115,,,,14,13,7,8,0.6,0.6
2025-01-04T0700,3542A,109.5567,19.5187,儋州市,东坡学校子站,颗粒物(PM10),52,53,50,32,29,115,,,,15,13,7,8,0.7,0.7
2025-01-04T0700,2616A,98.5842,24.428,德宏傣族景颇族自治州,德宏州监测站,颗粒物(PM10),51,51,58,34,31,14,,,,26,25,9,10,0.6,0.6
2025-01-04T0700,3677A,98.5881,24.4368,德宏傣族景颇族自治州,芒市人民政府综合楼,,42,42,47,23,28,11,,,,23,18,5,7,0.6,0.6
2025-01-04T0700,1901A,104.4239,31.1208,德阳市,东山公园,细颗粒物(PM2.5),192,156,144,144,128,38,,,,41,43,2,3,1.0,1
2025-01-04T0700,1904A,104.3553,31.1091,德阳市,耐火材料厂,细颗粒物(PM2.5),203,162,158,153,144,4,,,,51,50,6,6,1.3,1
2025-01-04T0700,3639A,104.4019,31.1244,德阳市,市教育局,细颗粒物(PM2.5),189,,142,142,134,2,,,,52,55,4,5,1.0,1.1
2025-01-04T0700,1622A,116.3032,37.4674,德州市,儿童乐园,细颗粒物(PM2.5),153,175,115,117,67,26,,,,56,46,9,13,1.2,1
2025-01-04T0700,1624A,116.2991,37.4451,德州市,监理站,细颗粒物(PM2.5),147,173,104,112,65,29,,,,57,52,16,16,1.1,0.9
2025-01-04T0700,3066A,116.2721,37.4379,德州市,九衢泉纯净水厂,细颗粒物(PM2.5),140,168,111,107,69,9,,,,76,63,12,15,1.2,1
2025-01-04T0700,3371A,116.3728,37.4403,德州市,开发区人民医院,细颗粒物(PM2.5),140,173,112,107,67,14,,,,72,54,14,14,1.0,0.9
2025-01-04T0700,3372A,116.3572,37.4094,德州市,太阳城中学,细颗粒物(PM2.5),149,163,115,114,74,8,,,,75,56,14,15,1.0,0.9
2025-01-04T0700,3511A,116.5652,37.3319,德州市,陵城艺术中心,细颗粒物(PM2.5),132,151,106,100,61,27,,,,45,43,22,18,1.8,1
2025-01-04T0700,2621A,99.7056,27.8317,迪庆藏族自治州,迪庆州站,,23,23,35,11,21,50,,,,8,15,8,8,0.5,0.7
2025-01-04T0700,3180A,99.7136,27.8094,迪庆藏族自治州,质量技术监督局,,18,18,30,6,17,46,,,,9,16,7,8,0.5,0.6
2025-01-04T0700,2663A,104.6241,35.5734,定西市,东关小学,细颗粒物(PM2.5),75,93,87,55,54,9,,,,32,35,19,22,1.7,1.2
2025-01-04T0700,2664A,104.6194,35.5934,定西市,供电公司,细颗粒物(PM2.5),72,75,82,52,52,2,,,,39,40,9,17,1.5,1.6
2025-01-04T0700,1389A,113.7547,23.0494,东莞市,莞城梨川,颗粒物(PM10),57,63,57,37,31,43,,,,52,45,7,7,0.7,0.6
2025-01-04T0700,1390A,113.7944,23.0128,东莞市,东城石井,颗粒物(PM10),54,57,50,37,30,37,,,,51,36,8,7,0.6,0.5
2025-01-04T0700,1391A,113.7383,22.9658,东莞市,南城西平,颗粒物(PM10),65,79,66,46,36,5,,,,106,60,7,5,0.7,0.6
2025-01-04T0700,3319A,113.7338,23.0381,东莞市,万江金泰,颗粒物(PM10),56,61,57,34,29,38,,,,52,40,9,9,0.7,0.7
2025-01-04T0700,3626A,113.7533,23.0202,东莞市,南城元岭,颗粒物(PM10),56,61,59,37,32,37,,,,51,41,8,9,0.7,0.7
2025-01-04T0700,3627A,113.7875,23.0457,东莞市,东城主山,颗粒物(PM10),54,57,57,36,31,7,,,,82,45,11,11,0.7,0.7
2025-01-04T0700,1666A,118.6614,37.4309,东营市,市环保局,细颗粒物(PM2.5),98,119,77,73,48,5,,,,73,57,33,19,1.5,0.9
2025-01-04T0700,3036A,118.6904,37.4338,东营市,开发区管委会,细颗粒物(PM2.5),94,122,82,70,50,6,,,,93,72,36,18,1.5,0.9
2025-01-04T0700,3365A,118.5719,37.565,东营市,垦利区民丰路,细颗粒物(PM2.5),89,112,77,66,47,0,,,,78,58,36,19,1.2,0.7
2025-01-04T0700,3498A,118.5055,37.8612,东营市,河口城区,细颗粒物(PM2.5),102,124,77,76,44,9,,,,88,54,20,12,1.0,0.7
2025-01-04T0700,3646A,118.4978,37.4623,东营市,胜利站,细颗粒物(PM2.5),107,118,85,80,53,4,,,,82,63,34,18,1.6,0.9
2025-01-04T0700,3734A,118.35,37.26,东营市,理想之城,细颗粒物(PM2.5),117,141,89,88,55,8,,,,81,64,25,18,1.1,0.4
2025-01-04T0700,1591A,110.0023,39.8129,鄂尔多斯市,综合楼,,41,41,44,9,11,79,,,,9,24,5,12,0.4,0.6
2025-01-04T0700,1592A,109.9486,39.8261,鄂尔多斯市,巴音孟克林场办事处,,41,41,37,14,14,70,,,,11,20,8,12,0.4,0.5
2025-01-04T0700,1593A,109.7736,39.5986,鄂尔多斯市,康泽苑,,44,44,35,17,16,39,,,,21,20,5,8,0.5,0.6
2025-01-04T0700,1594A,109.8119,39.5989,鄂尔多斯市,华泰汽车城,颗粒物(PM10),51,51,36,24,17,27,,,,33,27,7,9,0.6,0.6
2025-01-04T0700,1595A,109.9734,39.7884,鄂尔多斯市,奥林花园,,44,44,46,14,12,72,,,,11,32,7,12,0.5,0.6
2025-01-04T0700,2436A,114.8938,30.3994,鄂州市,市政府,细颗粒物(PM2.5),200,193,209,150,161,21,,,,70,60,22,13,1.0,1.1
2025-01-04T0700,2437A,114.8989,30.3714,鄂州市,赵家坝,细颗粒物(PM2.5),169,158,211,128,150,45,,,,46,56,8,16,0.8,1.2
2025-01-04T0700,3654A,114.8094,30.4089,鄂州市,精准医疗中心,细颗粒物(PM2.5),229,239,205,179,170,31,,,,65,62,14,19,1.2,1.2
2025-01-04T0700,2454A,109.4978,30.2981,恩施土家族苗族自治州,湖北民院,细颗粒物(PM2.5),253,,139,203,170,14,,,,30,30,7,8,1.7,1.5
2025-01-04T0700,2455A,109.4707,30.2798,恩施土家族苗族自治州,州电力总公司,细颗粒物(PM2.5),215,189,174,165,155,9,,,,40,40,8,8,1.9,1.7
2025-01-04T0700,3549A,109.5061,30.3772,恩施土家族苗族自治州,龙凤新区,细颗粒物(PM2.5),223,206,164,173,141,7,,,,30,30,6,6,1.9,1.6
2025-01-04T0700,2499A,108.3411,21.6158,防城港市,沙万,细颗粒物(PM2.5),110,106,87,83,64,68,,,,38,28,14,12,0.9,0.9
2025-01-04T0700,2500A,108.3514,21.7731,防城港市,防城档案局,细颗粒物(PM2.5),127,160,139,96,66,55,,,,51,44,10,9,1.0,0.8
2025-01-04T0700,2501A,108.3506,21.6414,防城港市,大海花园,细颗粒物(PM2.5),113,120,87,85,64,59,,,,34,23,12,11,0.9,0.9
2025-01-04T0700,1371A,113.1294,23.0067,佛山市,湾梁,颗粒物(PM10),63,75,68,42,30,35,,,,75,49,9,10,0.4,0.4
2025-01-04T0700,1372A,113.1083,23.0478,佛山市,华材职中,细颗粒物(PM2.5),77,85,84,56,48,21,,,,97,67,12,12,0.7,0.7
2025-01-04T0700,1373A,113.144,23.0453,佛山市,南海气象局,颗粒物(PM10),58,65,60,40,36,22,,,,90,51,9,11,0.6,0.6
2025-01-04T0700,1374A,113.2881,22.8094,佛山市,顺德苏岗,颗粒物(PM10),52,54,57,31,33,12,,,,78,48,8,9,0.8,0.7
2025-01-04T0700,1376A,112.8383,22.8678,佛山市,高明孔堂,细颗粒物(PM2.5),59,65,73,42,48,57,,,,33,37,14,12,0.6,0.5
2025-01-04T0700,1377A,112.8836,23.1588,佛山市,三水监测站,细颗粒物(PM2.5),73,78,78,53,49,54,,,,63,48,20,12,0.8,0.7
2025-01-04T0700,1378A,112.867,23.185,佛山市,三水云东海,细颗粒物(PM2.5),79,96,64,58,46,32,,,,73,46,18,13,0.7,0.7
2025-01-04T0700,3625A,113.2544,22.7642,佛山市,容桂街道办,细颗粒物(PM2.5),62,63,65,44,36,2,,,,96,51,7,8,0.7,0.7
2025-01-04T0700,1282A,119.2681,26.0504,福州市,师大,,43,43,43,25,23,76,,,,25,19,3,4,0.4,0.4
2025-01-04T0700,1283A,119.2984,26.1028,福州市,五四北路,,39,39,40,20,22,78,,,,17,16,1,2,0.5,0.5
2025-01-04T0700,1284A,119.2648,26.0768,福州市,杨桥西路,,40,40,40,21,23,83,,,,19,16,1,2,0.3,0.3
2025-01-04T0700,1285A,119.317,26.0746,福州市,紫阳,,50,50,43,21,23,77,,,,29,21,3,4,0.4,0.4
2025-01-04T0700,3048A,119.5799,26.0936,福州市,九龙,,39,39,39,18,21,86,,,,7,11,2,2,0.5,0.5
2025-01-04T0700,3526A,119.5189,25.9664,福州市,吴航,,44,44,41,24,22,92,,,,11,14,3,2,0.5,0.4
2025-01-04T0700,1755A,123.7977,41.8491,抚顺市,望花区,细颗粒物(PM2.5),77,77,83,56,48,10,,,,44,42,6,9,1.0,1.1
2025-01-04T0700,1756A,123.9161,41.8822,抚顺市,顺城区,颗粒物(PM10),52,54,92,30,50,18,,,,41,47,8,10,0.8,1.2
2025-01-04T0700,1757A,124.0436,41.8611,抚顺市,东洲区,,49,49,67,32,39,29,,,,23,29,5,7,0.7,0.9
2025-01-04T0700,1758A,123.9247,41.8642,抚顺市,新抚区,细颗粒物(PM2.5),64,63,84,46,49,13,,,,44,40,8,7,0.8,0.9
2025-01-04T0700,1759A,124.0972,41.8961,抚顺市,大伙房水库,细颗粒物(PM2.5),54,49,59,38,39,26,,,,28,32,14,11,0.8,0.9
2025-01-04T0700,1760A,123.7086,41.8391,抚顺市,沈抚新城,细颗粒物(PM2.5),64,70,79,46,47,12,,,,46,41,16,9,1.9,1.1
2025-01-04T0700,2376A,116.2127,28.0814,抚州市,桐源党溪,细颗粒物(PM2.5),128,124,125,97,86,16,,,,10,8,3,3,0.8,0.6
2025-01-04T0700,2377A,116.3544,27.9831,抚州市,市站,细颗粒物(PM2.5),138,146,129,105,89,53,,,,30,28,6,9,1.8,1.4
2025-01-04T0700,2378A,116.3565,27.963,抚州市,血防站,细颗粒物(PM2.5),122,131,129,92,86,45,,,,32,26,9,10,1.2,1.1
2025-01-04T0700,2379A,116.3564,28.0007,抚州市,采茶剧团,细颗粒物(PM2.5),149,133,125,114,89,39,,,,26,22,11,6,1.4,1.5
2025-01-04T0700,2380A,116.385,27.9647,抚州市,医学分院,细颗粒物(PM2.5),118,134,128,89,79,26,,,,42,30,8,12,1.1,1.1
2025-01-04T0700,2207A,121.6094,41.998,阜新市,工业园区,颗粒物(PM10),63,76,93,34,56,8,,,,36,36,8,23,1.1,1.2
2025-01-04T0700,2208A,121.6697,42.0279,阜新市,长青街,颗粒物(PM10),74,98,85,52,50,5,,,,40,34,23,22,2.5,1.4
2025-01-04T0700,2209A,121.6673,42.0705,阜新市,农业园区,,39,35,52,27,29,45,,,,16,23,21,24,1.2,0.8
2025-01-04T0700,2210A,121.6717,42.0224,阜新市,东苑,细颗粒物(PM2.5),95,128,88,71,53,16,,,,32,33,42,35,3.2,2.2
2025-01-04T0700,2211A,121.6506,42.0498,阜新市,玉龙新城,颗粒物(PM10),55,60,90,34,41,10,,,,35,35,6,13,1.3,1.2
2025-01-04T0700,2301A,115.8277,32.8929,阜阳市,市监测站,细颗粒物(PM2.5),144,136,170,110,135,19,,,,39,43,6,7,0.7,0.9
2025-01-04T0700,2303A,115.8554,32.8605,阜阳市,开发区,细颗粒物(PM2.5),140,173,208,107,128,14,,,,41,40,7,9,0.8,1
2025-01-04T0700,2875A,115.784,32.8892,阜阳市,阜阳职业技术学院,细颗粒物(PM2.5),149,154,175,114,128,18,,,,39,38,7,9,0.8,1
2025-01-04T0700,3468A,115.7901,32.8613,阜阳市,市规划展馆,细颗粒物(PM2.5),140,160,186,107,130,25,,,,34,33,6,7,1.0,1.1
2025-01-04T0700,3469A,115.836,32.9183,阜阳市,枣园社区,细颗粒物(PM2.5),142,161,189,108,134,15,,,,47,44,4,6,0.8,1
2025-01-04T0700,2669A,102.9099,34.9841,甘南藏族自治州,州政府,颗粒物(PM10),55,59,54,36,31,32,,,,30,26,9,14,1.1,1
2025-01-04T0700,3380A,102.8914,34.9617,甘南藏族自治州,甘肃民族师范学院,颗粒物(PM10),61,72,62,33,28,17,,,,48,38,6,9,0.8,0.6
2025-01-04T0700,2570A,101.9603,30.0475,甘孜藏族自治州,水桥子,,23,23,34,10,17,7,,,,43,41,2,3,0.4,0.5
2025-01-04T0700,3065A,101.9533,29.9972,甘孜藏族自治州,州环保局,,23,23,32,8,9,22,,,,35,26,4,4,0.3,0.4
2025-01-04T0700,3414A,115.8347,28.932,赣江新区,桑海产业园,细颗粒物(PM2.5),148,151,188,113,134,5,,,,62,57,9,14,1.0,1
2025-01-04T0700,2362A,114.9017,25.9149,赣州市,通天岩,细颗粒物(PM2.5),80,78,68,59,45,59,,,,7,7,2,5,0.7,0.6
2025-01-04T0700,2363A,114.9367,25.8664,赣州市,地委,细颗粒物(PM2.5),74,84,76,54,48,36,,,,30,28,4,8,1.3,1.2
2025-01-04T0700,2364A,114.9461,25.8481,赣州市,气象台,颗粒物(PM10),76,101,92,52,45,22,,,,62,46,11,15,0.9,0.9
2025-01-04T0700,2365A,114.9322,25.8333,赣州市,市图书馆,细颗粒物(PM2.5),73,88,81,53,49,31,,,,53,38,5,7,0.8,0.9
2025-01-04T0700,2366A,114.8905,25.8471,赣州市,华坚鞋城,细颗粒物(PM2.5),80,91,79,59,48,66,,,,25,19,8,9,0.6,0.6
2025-01-04T0700,3109A,115.0093,25.8613,赣州市,赣县区卫计委,细颗粒物(PM2.5),93,87,89,69,64,31,,,,29,32,9,7,0.5,0.5
2025-01-04T0700,2683A,106.2319,36.1417,固原市,马园,颗粒物(PM10),61,72,111,41,55,8,,,,40,42,6,9,1.5,1.5
2025-01-04T0700,2684A,106.2792,36.0022,固原市,监测站,,33,33,78,22,48,35,,,,31,38,16,14,1.6,1.3
2025-01-04T0700,2685A,106.2375,36.0211,固原市,新区,,46,46,90,25,44,4,,,,57,51,6,8,1.5,1.1
2025-01-04T0700,3522A,106.2177,35.9959,固原市,原州区十五小,,23,23,78,15,41,56,,,,21,29,8,11,0.8,0.8
2025-01-04T0700,2544A,106.6303,30.4576,广安市,市委,细颗粒物(PM2.5),166,135,160,126,144,37,,,,22,24,4,4,1.0,1.2
2025-01-04T0700,2545A,106.6271,30.4663,广安市,友谊中学,细颗粒物(PM2.5),175,145,169,132,149,34,,,,25,27,5,5,1.1,1.3
2025-01-04T0700,2547A,106.6388,30.4551,广安市,广电花园,细颗粒物(PM2.5),162,128,152,123,145,31,,,,23,25,4,5,0.9,1.1
2025-01-04T0700,2902A,106.6351,30.4865,广安市,北辰小学,细颗粒物(PM2.5),152,132,159,116,147,37,,,,28,28,6,5,1.4,1.5
2025-01-04T0700,2523A,105.8945,32.4535,广元市,黑石坡,细颗粒物(PM2.5),53,54,64,37,61,68,,,,9,18,12,11,0.6,0.7
2025-01-04T0700,2524A,105.821,32.4444,广元市,老城,细颗粒物(PM2.5),57,60,93,40,58,65,,,,21,44,1,5,0.8,1.2
2025-01-04T0700,2526A,105.8628,32.4287,广元市,监测站,细颗粒物(PM2.5),68,51,74,49,61,69,,,,20,40,1,2,0.9,1.1
2025-01-04T0700,3617A,105.8047,32.4166,广元市,经开区,细颗粒物(PM2.5),70,57,188,51,79,55,,,,32,42,4,11,0.8,1.2
2025-01-04T0700,1345A,113.2347,23.1423,广州市,广雅中学,颗粒物(PM10),63,76,72,44,39,47,,,,67,54,10,12,0.6,0.7
2025-01-04T0700,1346A,113.2612,23.105,广州市,市五中,细颗粒物(PM2.5),65,64,66,47,42,88,,,,29,33,6,6,0.5,0.6
2025-01-04T0700,1348A,113.3478,23.0916,广州市,广东商学院,"颗粒物(PM10),细颗粒物(PM2.5)",55,60,55,39,32,88,,,,27,31,6,6,0.4,0.5
2025-01-04T0700,1349A,113.4332,23.1047,广州市,市八十六中,颗粒物(PM10),60,70,60,41,32,25,,,,92,47,6,6,0.7,0.6
2025-01-04T0700,1350A,113.3505,22.9483,广州市,番禺中学,颗粒物(PM10),55,60,63,34,34,35,,,,83,54,4,5,0.7,0.7
2025-01-04T0700,1351A,113.2146,23.3916,广州市,花都师范,"颗粒物(PM10),细颗粒物(PM2.5)",55,60,65,39,41,92,,,,28,32,11,11,0.6,0.6
2025-01-04T0700,1352A,113.2597,23.1331,广州市,市监测站,细颗粒物(PM2.5),62,65,67,44,37,73,,,,43,39,8,8,0.8,0.8
2025-01-04T0700,1353A,113.5618,23.312,广州市,九龙镇镇龙,颗粒物(PM10),55,59,58,36,32,63,,,,28,37,5,6,0.6,0.6
2025-01-04T0700,1354A,113.2765,23.1544,广州市,麓湖,细颗粒物(PM2.5),60,64,59,43,37,54,,,,54,42,6,6,0.6,0.6
2025-01-04T0700,1355A,113.443,23.3035,广州市,帽峰山森林公园,,48,48,39,26,22,97,,,,16,14,8,8,0.5,0.4
2025-01-04T0700,2846A,113.3221,23.1322,广州市,体育西,"颗粒物(PM10),细颗粒物(PM2.5)",59,68,64,42,35,80,,,,29,30,7,7,0.8,0.8
2025-01-04T0700,3298A,113.5717,23.5491,广州市,从化街口,颗粒物(PM10),56,62,56,38,33,58,,,,42,36,8,7,0.6,0.6
2025-01-04T0700,3299A,113.3472,23.3692,广州市,白云竹料,颗粒物(PM10),54,58,59,35,34,63,,,,39,36,9,9,0.7,0.6
2025-01-04T0700,3300A,113.2981,23.237,广州市,白云嘉禾,颗粒物(PM10),60,69,80,40,38,50,,,,64,55,9,10,0.6,0.6
2025-01-04T0700,3301A,113.4256,23.1716,广州市,黄埔科学城,"颗粒物(PM10),细颗粒物(PM2.5)",55,59,49,39,30,81,,,,24,24,8,8,0.6,0.6
2025-01-04T0700,3302A,113.3942,23.0483,广州市,番禺大学城,颗粒物(PM10),61,72,99,34,31,23,,,,90,52,7,9,0.7,0.7
2025-01-04T0700,3303A,113.4922,22.8168,广州市,南沙黄阁,细颗粒物(PM2.5),68,73,70,49,35,17,,,,86,65,13,11,0.7,0.6
2025-01-04T0700,3304A,113.5342,22.7896,广州市,南沙街,颗粒物(PM10),62,73,67,41,33,19,,,,74,56,7,8,0.7,0.5
2025-01-04T0700,3443A,113.2902,23.5544,广州市,花都梯面,细颗粒物(PM2.5),54,54,55,38,36,86,,,,24,22,16,15,0.6,0.6
2025-01-04T0700,3445A,113.7858,23.7478,广州市,从化良口,,36,36,32,24,23,70,,,,19,13,6,7,0.6,0.5
2025-01-04T0700,3446A,113.8051,23.2614,广州市,增城荔城,,43,43,38,30,25,88,,,,15,20,6,5,0.9,0.9
2025-01-04T0700,2506A,109.6047,23.0666,贵港市,江南子站,细颗粒物(PM2.5),114,,120,86,84,29,,,,64,51,18,12,1.4,1
2025-01-04T0700,2507A,109.6014,23.0948,贵港市,贵城子站,细颗粒物(PM2.5),98,90,89,73,65,55,,,,36,29,16,12,0.9,0.9
2025-01-04T0700,2508A,109.5669,23.1065,贵港市,荷城子站,细颗粒物(PM2.5),83,83,89,61,58,71,,,,30,30,18,14,0.8,0.8
2025-01-04T0700,3405A,109.5886,23.1172,贵港市,新世纪学校,细颗粒物(PM2.5),75,83,89,55,59,72,,,,29,27,17,15,0.7,0.8
2025-01-04T0700,1439A,106.6899,26.5998,贵阳市,马鞍山,细颗粒物(PM2.5),70,66,76,51,52,6,,,,29,31,3,8,1.0,0.7
2025-01-04T0700,1440A,106.6971,26.5694,贵阳市,市环保站,细颗粒物(PM2.5),112,97,100,84,70,4,,,,57,55,22,23,1.5,1.1
2025-01-04T0700,1441A,106.6243,26.6266,贵阳市,鉴湖路,细颗粒物(PM2.5),73,,68,53,50,53,,,,21,23,6,9,0.6,0.7
2025-01-04T0700,1442A,106.7487,26.6343,贵阳市,燕子冲,细颗粒物(PM2.5),79,61,70,58,59,21,,,,34,34,13,16,0.9,0.9
2025-01-04T0700,1443A,106.6555,26.4365,贵阳市,碧云窝,细颗粒物(PM2.5),83,78,76,61,53,5,,,,32,23,12,14,1.0,0.8
2025-01-04T0700,1444A,106.694,26.5161,贵阳市,中院村,细颗粒物(PM2.5),119,114,117,90,79,6,,,,49,52,55,40,1.7,1.6
2025-01-04T0700,1445A,106.7109,26.6027,贵阳市,红边门,细颗粒物(PM2.5),98,78,91,73,71,9,,,,51,51,49,43,1.1,1.5
2025-01-04T0700,1446A,106.7164,26.5699,贵阳市,新华路,细颗粒物(PM2.5),92,85,85,68,60,7,,,,53,44,13,17,1.2,1
2025-01-04T0700,1447A,106.674,26.5424,贵阳市,太慈桥,细颗粒物(PM2.5),70,63,71,51,51,8,,,,28,33,7,11,0.9,0.8
2025-01-04T0700,1862A,110.4144,25.3167,桂林市,电子科大尧山校区,细颗粒物(PM2.5),87,75,70,64,54,100,,,,16,17,6,12,0.7,0.6
2025-01-04T0700,1863A,110.2819,25.2697,桂林市,监测站,细颗粒物(PM2.5),115,99,83,87,66,110,,,,26,27,20,16,0.9,1.1
2025-01-04T0700,1864A,110.3089,25.2708,桂林市,龙隐路小学,细颗粒物(PM2.5),108,87,78,81,66,127,,,,24,23,21,15,0.9,0.8
2025-01-04T0700,1865A,110.2869,25.2178,桂林市,八中,细颗粒物(PM2.5),114,92,78,86,69,90,,,,35,24,19,14,1.0,0.9
2025-01-04T0700,3403A,110.1764,25.2381,桂林市,创业大厦,细颗粒物(PM2.5),128,119,92,97,68,76,,,,43,26,,16,0.7,0.7
2025-01-04T0700,3531A,110.296,25.1253,桂林市,旅游学院,细颗粒物(PM2.5),113,124,88,85,70,45,,,,39,27,13,13,1.1,1
2025-01-04T0700,2674A,100.2561,34.4714,果洛藏族自治州,玛沁县大武镇,,27,27,39,10,16,70,,,,2,8,14,14,0.4,0.6
2025-01-04T0700,1129A,126.5422,45.755,哈尔滨市,岭北,细颗粒物(PM2.5),123,120,62,93,53,9,,,,64,38,18,15,0.4,0.3
2025-01-04T0700,1130A,126.561,45.8167,哈尔滨市,松北商大,细颗粒物(PM2.5),104,109,57,78,42,16,,,,57,37,4,4,1.3,0.7
2025-01-04T0700,1131A,126.979,45.5419,哈尔滨市,阿城会宁,细颗粒物(PM2.5),89,77,81,66,68,7,,,,34,31,6,9,1.2,1
2025-01-04T0700,1132A,126.599,45.7222,哈尔滨市,南岗学府路,细颗粒物(PM2.5),120,126,78,91,54,6,,,,57,39,8,9,1.2,0.8
2025-01-04T0700,1133A,126.689,45.7733,哈尔滨市,太平宏伟公园,细颗粒物(PM2.5),120,129,80,91,59,2,,,,52,38,1,4,1.1,0.9
2025-01-04T0700,1134A,126.635,45.7667,哈尔滨市,道外承德广场,细颗粒物(PM2.5),109,124,74,82,47,9,,,,51,38,12,10,1.2,0.6
2025-01-04T0700,1135A,126.685,45.7319,哈尔滨市,香坊红旗大街,细颗粒物(PM2.5),135,127,77,103,64,10,,,,51,38,21,12,1.5,0.9
2025-01-04T0700,1136A,126.6411,45.7258,哈尔滨市,动力和平路,细颗粒物(PM2.5),119,114,68,90,51,3,,,,49,37,13,13,1.2,0.8
2025-01-04T0700,1137A,126.593,45.7478,哈尔滨市,道里建国路,细颗粒物(PM2.5),127,105,61,96,50,6,,,,58,39,8,4,2.1,0.6
2025-01-04T0700,1138A,126.615,45.61,哈尔滨市,平房东轻厂,细颗粒物(PM2.5),83,80,65,61,49,8,,,,42,42,2,10,0.9,0.7
2025-01-04T0700,1139A,126.595,45.9855,哈尔滨市,呼兰师专,细颗粒物(PM2.5),165,134,78,125,71,7,,,,51,39,9,11,1.5,0.7
2025-01-04T0700,1140A,126.6206,45.6842,哈尔滨市,省农科院,细颗粒物(PM2.5),168,135,89,127,77,10,,,,54,48,4,8,1.9,1
2025-01-04T0700,2688A,93.5128,42.8172,哈密市,地区监测站,颗粒物(PM10),78,106,148,53,64,34,,,,27,38,4,9,0.6,0.8
2025-01-04T0700,2689A,93.4961,42.8328,哈密市,哈密师范学校,颗粒物(PM10),82,114,137,54,63,31,,,,32,44,9,11,1.0,1.1
2025-01-04T0700,2671A,100.9048,36.9639,海北藏族自治州,海晏县西海镇,,40,34,30,28,17,68,,,,14,13,14,12,0.9,0.7
2025-01-04T0700,3867A,102.0738,36.5056,海东市,平安区公安北苑,细颗粒物(PM2.5),68,62,68,49,42,11,,,,42,38,15,25,1.1,1
2025-01-04T0700,1409A,110.576,19.9507,海口市,东寨港,细颗粒物(PM2.5),58,,53,41,35,89,,,,12,10,10,12,0.8,0.8
2025-01-04T0700,1410A,110.3232,20.0574,海口市,海南大学,颗粒物(PM10),54,57,54,32,34,142,,,,14,19,7,10,0.6,0.6
2025-01-04T0700,1411A,110.283,20.0053,海口市,秀英海南医院,颗粒物(PM10),52,54,60,33,31,136,,,,12,19,5,6,0.5,0.5
2025-01-04T0700,1412A,110.338,19.9969,海口市,海南师范大学,颗粒物(PM10),52,54,64,35,32,133,,,,12,16,7,9,0.5,0.6
2025-01-04T0700,1413A,110.33,20.0356,海口市,龙华路环保局宿舍,颗粒物(PM10),51,52,63,34,33,134,,,,13,16,7,9,0.5,0.6
2025-01-04T0700,3539A,110.5111,19.9736,海口市,桂林洋子站,细颗粒物(PM2.5),57,61,51,40,33,125,,,,8,14,5,8,0.4,0.5
2025-01-04T0700,2673A,100.6188,36.2866,海南藏族自治州,共和县恰卜恰镇,,30,30,37,12,21,44,,,,18,28,6,7,1.0,1.1
2025-01-04T0700,2676A,97.3731,37.3753,海西蒙古族藏族自治州,德令哈市,,44,44,36,30,10,70,,,,12,13,14,17,0.6,0.6
2025-01-04T0700,1048A,114.5302,36.6116,邯郸市,东污水处理厂,细颗粒物(PM2.5),107,120,89,80,74,2,,,,64,51,5,6,1.2,1
2025-01-04T0700,1049A,114.4918,36.5713,邯郸市,矿院,细颗粒物(PM2.5),134,149,104,102,66,1,,,,62,46,4,6,1.2,0.9
2025-01-04T0700,1050A,114.484,36.6133,邯郸市,丛台公园,细颗粒物(PM2.5),124,163,98,94,60,3,,,,66,49,6,6,1.2,0.9
2025-01-04T0700,3458A,114.7895,36.5593,邯郸市,香泉濮院小区,细颗粒物(PM2.5),139,141,121,106,76,12,,,,55,37,7,11,1.1,1.1
2025-01-04T0700,3579A,114.50634,36.77178,邯郸市,永年区实验高中,细颗粒物(PM2.5),127,171,125,96,65,6,,,,59,54,10,11,2.3,1.5
2025-01-04T0700,3580A,114.20016,36.44293,邯郸市,峰峰矿区临水派出所,颗粒物(PM10),69,87,106,49,75,22,,,,46,38,34,19,1.5,1.1
2025-01-04T0700,2634A,106.9893,33.1842,汉中市,汉川机床厂子校,细颗粒物(PM2.5),99,,76,74,75,22,,,,19,18,6,6,1.0,1
2025-01-04T0700,2635A,107.0154,33.0706,汉中市,市监测站,细颗粒物(PM2.5),159,122,113,121,99,10,,,,49,51,6,7,2.0,1.6
2025-01-04T0700,2636A,107.0089,33.1138,汉中市,鑫源开发区,细颗粒物(PM2.5),199,,115,149,116,5,,,,36,45,5,8,1.6,1.4
2025-01-04T0700,2637A,107.007,33.0323,汉中市,南郑大河坎水厂,细颗粒物(PM2.5),145,125,126,111,104,11,,,,37,39,3,5,1.8,1.7
2025-01-04T0700,1223A,120.2072,30.2111,杭州市,滨江,细颗粒物(PM2.5),99,112,104,74,67,3,,,,65,62,6,7,0.9,0.8
2025-01-04T0700,1224A,120.0633,30.2747,杭州市,西溪,细颗粒物(PM2.5),79,100,92,58,55,8,,,,50,48,6,7,0.9,0.8
2025-01-04T0700,1226A,120.3461,30.3153,杭州市,下沙,细颗粒物(PM2.5),69,66,81,50,57,4,,,,70,65,7,8,0.7,0.8
2025-01-04T0700,1227A,120.1269,30.2456,杭州市,卧龙桥,细颗粒物(PM2.5),84,86,82,62,55,3,,,,47,50,6,6,1.2,1
2025-01-04T0700,1228A,120.1903,30.2692,杭州市,浙江农大,细颗粒物(PM2.5),85,104,104,63,66,10,,,,62,64,6,7,0.7,0.8
2025-01-04T0700,1230A,120.1197,30.3119,杭州市,和睦小学,细颗粒物(PM2.5),93,103,100,69,63,2,,,,68,65,7,8,1.0,0.9
2025-01-04T0700,1231A,120.3019,30.4183,杭州市,临平镇,颗粒物(PM10),65,79,96,46,58,4,,,,61,54,6,7,0.7,0.9
2025-01-04T0700,1232A,120.2697,30.1819,杭州市,城厢镇,细颗粒物(PM2.5),100,128,113,75,61,2,,,,73,76,6,7,1.0,1
2025-01-04T0700,1233A,120.0883,30.1808,杭州市,云栖,颗粒物(PM10),78,105,98,54,51,3,,,,51,51,6,7,0.7,0.8
2025-01-04T0700,3557A,119.9464,30.0494,杭州市,镇二中,细颗粒物(PM2.5),97,86,85,72,64,3,,,,48,53,7,7,1.0,0.9
2025-01-04T0700,3558A,119.7183,30.2367,杭州市,市府大楼,细颗粒物(PM2.5),100,100,97,75,73,8,,,,54,52,6,7,1.0,1
2025-01-04T0700,3656A,120.1556,30.2864,杭州市,消防大队,细颗粒物(PM2.5),102,114,109,76,70,4,,,,65,63,8,9,1.1,1
2025-01-04T0700,1270A,117.1959,31.7848,合肥市,明珠广场,细颗粒物(PM2.5),122,134,167,92,115,14,,,,62,61,12,11,1.1,1.2
2025-01-04T0700,1271A,117.3072,31.8764,合肥市,三里街,细颗粒物(PM2.5),128,136,154,97,103,4,,,,63,65,6,6,1.0,1.1
2025-01-04T0700,1272A,117.2588,31.8707,合肥市,琥珀山庄,细颗粒物(PM2.5),137,136,157,104,118,11,,,,69,60,6,6,1.0,1
2025-01-04T0700,1273A,117.1604,31.9052,合肥市,董铺水库,细颗粒物(PM2.5),122,161,182,92,105,6,,,,60,57,4,5,0.7,0.9
2025-01-04T0700,1274A,117.25,31.8571,合肥市,长江中路,细颗粒物(PM2.5),127,136,158,96,111,9,,,,63,55,7,8,1.1,1.2
2025-01-04T0700,1275A,117.266,31.9436,合肥市,庐阳区,细颗粒物(PM2.5),117,151,161,88,92,6,,,,61,56,5,5,0.9,0.9
2025-01-04T0700,1276A,117.336,31.8586,合肥市,瑶海区,细颗粒物(PM2.5),125,141,158,95,99,13,,,,64,68,6,7,1.1,1.2
2025-01-04T0700,1277A,117.3027,31.7964,合肥市,包河区,细颗粒物(PM2.5),128,144,169,97,112,2,,,,80,77,8,7,1.0,1.1
2025-01-04T0700,1278A,117.2776,31.7385,合肥市,滨湖新区,细颗粒物(PM2.5),107,144,169,80,97,30,,,,36,45,9,9,0.7,0.8
2025-01-04T0700,1279A,117.1318,31.8403,合肥市,高新区,细颗粒物(PM2.5),129,141,177,98,124,1,,,,82,77,1,2,1.3,1.4
2025-01-04T0700,3464A,117.3803,31.9147,合肥市,高教基地,细颗粒物(PM2.5),119,124,139,90,97,8,,,,64,56,8,7,0.7,0.8
2025-01-04T0700,3614A,79.924,37.0877,和田地区,地区环保局,细颗粒物(PM2.5),89,103,144,66,70,45,,,,18,28,12,18,0.7,1
2025-01-04T0700,3615A,79.9131,37.113,和田地区,市环保局,细颗粒物(PM2.5),88,,110,65,61,45,,,,24,46,13,17,1.0,2.1
2025-01-04T0700,2516A,108.2011,24.715,河池市,东仁乐园,颗粒物(PM10),168,285,145,74,66,14,,,,43,41,12,14,1.1,1
2025-01-04T0700,2517A,108.0497,24.6947,河池市,市环保站,细颗粒物(PM2.5),80,75,70,59,55,28,,,,27,23,7,9,0.8,0.8
2025-01-04T0700,2518A,108.0983,24.6989,河池市,市疾控中心,颗粒物(PM10),160,269,136,76,61,12,,,,38,40,5,7,0.8,0.8
2025-01-04T0700,1696A,114.6778,23.7569,河源市,源西,细颗粒物(PM2.5),59,59,52,42,37,57,,,,31,26,8,8,0.5,0.5
2025-01-04T0700,1697A,114.6944,23.7586,河源市,东埔,细颗粒物(PM2.5),68,63,57,49,41,80,,,,26,24,8,7,0.7,0.7
2025-01-04T0700,1698A,114.6892,23.7233,河源市,老城,细颗粒物(PM2.5),59,56,56,42,40,54,,,,34,24,6,7,0.6,0.6
2025-01-04T0700,1718A,115.4208,35.2464,菏泽市,气象局,细颗粒物(PM2.5),183,204,194,138,120,25,,,,50,46,4,10,0.8,1
2025-01-04T0700,1719A,115.4747,35.2375,菏泽市,市政协,细颗粒物(PM2.5),180,202,182,136,116,26,,,,54,51,5,11,1.0,1.2
2025-01-04T0700,3374A,115.5564,35.0891,菏泽市,定陶老年大学,细颗粒物(PM2.5),163,173,170,124,112,27,,,,56,48,8,13,0.8,0.9
2025-01-04T0700,3647A,115.4702,35.2706,菏泽市,菏泽医专,细颗粒物(PM2.5),162,184,172,123,104,37,,,,48,44,9,14,0.9,1
2025-01-04T0700,2514A,111.5264,24.4172,贺州市,环保小区,细颗粒物(PM2.5),118,90,108,89,87,57,,,,23,26,8,9,0.8,0.9
2025-01-04T0700,2515A,111.5608,24.4078,贺州市,政协大楼,细颗粒物(PM2.5),93,102,103,69,73,47,,,,26,35,5,8,0.8,0.8
2025-01-04T0700,3534A,111.4744,24.4553,贺州市,西湾,细颗粒物(PM2.5),130,132,117,99,86,46,,,,29,28,8,9,1.6,0.9
2025-01-04T0700,2385A,114.17,35.9019,鹤壁市,市监测站,颗粒物(PM10),142,234,142,98,83,3,,,,46,40,5,7,0.9,0.8
2025-01-04T0700,2386A,114.2956,35.7511,鹤壁市,市交警支队,细颗粒物(PM2.5),115,150,109,87,62,2,,,,67,48,8,7,1.1,0.8
2025-01-04T0700,2387A,114.2878,35.7306,鹤壁市,迎宾馆,细颗粒物(PM2.5),113,163,116,85,61,1,,,,53,46,7,6,1.1,0.8
2025-01-04T0700,3474A,114.2617,35.6822,鹤壁市,大新区,细颗粒物(PM2.5),129,131,104,98,76,2,,,,63,58,7,10,1.0,0.8
2025-01-04T0700,3596A,114.1572,35.9603,鹤壁市,南山宾馆,细颗粒物(PM2.5),148,137,130,113,92,19,,,,48,42,8,7,1.0,0.9
2025-01-04T0700,2244A,130.2537,47.3416,鹤岗市,哈啤分公司,细颗粒物(PM2.5),60,49,55,43,47,42,,,,11,26,14,16,0.6,0.8
2025-01-04T0700,2245A,130.2684,47.3086,鹤岗市,斯达机电,细颗粒物(PM2.5),62,59,54,44,44,45,,,,15,26,13,17,0.4,0.4
2025-01-04T0700,2246A,130.3114,47.3388,鹤岗市,东山纸板厂,细颗粒物(PM2.5),67,,38,48,64,25,,,,30,41,15,17,0.6,1.7
2025-01-04T0700,2247A,130.1097,47.3382,鹤岗市,五号水库,,46,42,45,32,25,57,,,,12,16,6,8,0.5,0.5
2025-01-04T0700,2263A,127.4833,50.2524,黑河市,交通局,,26,26,39,18,25,35,,,,12,14,6,7,0.6,0.6
2025-01-04T0700,2264A,127.5144,50.2341,黑河市,环保局,,26,24,43,18,31,30,,,,14,18,4,8,0.5,0.7
2025-01-04T0700,2265A,127.5291,50.2472,黑河市,大黑河岛,,,14,40,12,30,29,,,,8,10,1,2,,
2025-01-04T0700,1074A,115.6838,37.7541,衡水市,电机北厂,细颗粒物(PM2.5),160,171,92,122,56,11,,,,58,36,16,14,1.1,0.8
2025-01-04T0700,1075A,115.6303,37.7316,衡水市,市监测站,细颗粒物(PM2.5),152,146,88,116,60,4,,,,69,51,14,13,1.1,0.8
2025-01-04T0700,3188A,115.6683,37.7217,衡水市,市城管局,细颗粒物(PM2.5),147,163,91,112,58,2,,,,65,41,18,14,1.3,0.9
2025-01-04T0700,3459A,115.5989,37.5491,衡水市,地表水厂,细颗粒物(PM2.5),168,149,100,127,72,6,,,,75,62,15,16,1.5,0.9
2025-01-04T0700,2456A,112.5003,26.9167,衡阳市,原169医院,细颗粒物(PM2.5),149,,117,114,105,54,,,,26,34,6,29,0.8,0.8
2025-01-04T0700,2457A,112.6194,26.9258,衡阳市,衡阳化工总厂,细颗粒物(PM2.5),202,183,159,152,132,47,,,,39,37,11,13,1.2,1.1
2025-01-04T0700,2458A,112.6211,26.8956,衡阳市,珠晖区环保局,细颗粒物(PM2.5),203,158,144,153,126,56,,,,36,38,14,15,1.2,1.1
2025-01-04T0700,2459A,112.6197,26.8733,衡阳市,市委党校,细颗粒物(PM2.5),196,160,149,147,123,70,,,,33,33,14,15,1.2,1.2
2025-01-04T0700,2460A,112.6006,26.8919,衡阳市,市监测站,细颗粒物(PM2.5),202,193,175,152,137,71,,,,28,35,14,14,1.1,1.1
2025-01-04T0700,2461A,112.5664,26.9056,衡阳市,真空机电公司,细颗粒物(PM2.5),169,161,171,128,119,37,,,,45,39,6,10,1.0,1.1
2025-01-04T0700,3399A,112.6703,26.882,衡阳市,师范学院,细颗粒物(PM2.5),216,204,176,166,141,65,,,,34,30,15,15,1.2,1.1
2025-01-04T0700,2608A,103.3772,23.3993,红河哈尼族彝族自治州,污水处理厂,细颗粒物(PM2.5),73,77,68,53,58,89,,,,8,11,9,7,0.5,0.5
2025-01-04T0700,2609A,103.3861,23.35,红河哈尼族彝族自治州,监测站,细颗粒物(PM2.5),92,,61,68,56,113,,,,8,11,7,8,0.8,0.7
2025-01-04T0700,3038A,103.3758,23.368,红河哈尼族彝族自治州,州图书馆,细颗粒物(PM2.5),74,63,57,54,50,95,,,,12,10,7,7,0.6,0.6
2025-01-04T0700,1090A,111.6507,40.7517,呼和浩特市,呼市一监,细颗粒物(PM2.5),63,73,80,45,41,10,,,,34,38,10,15,1.2,1
2025-01-04T0700,1091A,111.6572,40.8033,呼和浩特市,小召,,48,48,63,27,30,7,,,,58,54,10,15,2.1,1
2025-01-04T0700,1094A,111.7516,40.8369,呼和浩特市,如意水处理厂,,49,49,56,26,27,3,,,,50,45,15,15,0.9,0.8
2025-01-04T0700,1095A,111.7276,40.8062,呼和浩特市,二十九中,,46,46,56,21,25,5,,,,54,50,11,14,0.6,0.7
2025-01-04T0700,1096A,111.5512,40.7866,呼和浩特市,工大金川校区,,47,47,65,27,27,4,,,,60,54,8,13,0.8,0.8
2025-01-04T0700,1097A,111.717,40.7612,呼和浩特市,化肥厂生活区,颗粒物(PM10),54,58,71,32,33,3,,,,49,50,9,13,1.0,1
2025-01-04T0700,3698A,111.5968,40.8178,呼和浩特市,红旗小学,颗粒物(PM10),57,63,61,34,25,3,,,,60,55,10,12,0.8,0.7
2025-01-04T0700,3699A,111.6518,40.8389,呼和浩特市,海东办,颗粒物(PM10),52,53,56,34,26,4,,,,60,55,10,13,1.0,0.9
2025-01-04T0700,2192A,119.7594,49.2261,呼伦贝尔市,区环保局,,29,26,48,20,40,38,,,,19,43,6,9,0.4,0.7
2025-01-04T0700,3061A,119.7512,49.1577,呼伦贝尔市,国华电力东,,19,19,26,11,20,45,,,,12,10,3,4,0.3,0.3
2025-01-04T0700,1250A,120.0751,30.8669,湖州市,城西水厂,细颗粒物(PM2.5),67,80,107,48,63,18,,,,51,54,7,8,0.6,0.8
2025-01-04T0700,2873A,120.0875,30.8955,湖州市,仁皇山新区,颗粒物(PM10),56,61,84,39,52,23,,,,69,70,7,7,0.5,0.8
2025-01-04T0700,2907A,120.1844,30.8596,湖州市,吴兴区站,"颗粒物(PM10),细颗粒物(PM2.5)",55,59,89,39,54,18,,,,48,43,6,6,0.4,0.7
2025-01-04T0700,3562A,120.4148,30.8538,湖州市,南浔区站,"颗粒物(PM10),细颗粒物(PM2.5)",52,54,87,36,58,20,,,,52,49,8,9,0.2,0.5
2025-01-04T0700,1607A,120.9092,40.7136,葫芦岛市,龙港区,细颗粒物(PM2.5),129,131,51,98,37,29,,,,58,32,280,42,2.2,0.9
2025-01-04T0700,1608A,120.8392,40.7514,葫芦岛市,化工街,颗粒物(PM10),70,90,88,48,44,6,,,,66,43,45,42,1.4,1.1
2025-01-04T0700,1609A,120.8341,40.7073,葫芦岛市,新区,细颗粒物(PM2.5),73,83,60,53,38,6,,,,58,43,76,31,1.8,1.1
2025-01-04T0700,1610A,120.8695,40.7677,葫芦岛市,东城区,细颗粒物(PM2.5),62,60,71,44,47,7,,,,48,43,42,52,1.1,0.9
2025-01-04T0700,2482A,109.5981,27.5721,怀化市,林科所,细颗粒物(PM2.5),133,107,90,101,79,99,,,,38,36,27,16,1.2,1.1
2025-01-04T0700,2483A,109.9453,27.5444,怀化市,河西地税局,细颗粒物(PM2.5),183,158,146,138,119,39,,,,24,33,6,10,1.3,1.3
2025-01-04T0700,2484A,109.9781,27.5342,怀化市,市四医院,细颗粒物(PM2.5),204,193,161,154,122,61,,,,27,25,8,12,1.4,1.3
2025-01-04T0700,2485A,109.9972,27.5578,怀化市,监测楼,细颗粒物(PM2.5),156,162,156,119,114,46,,,,28,35,4,8,0.9,0.9
2025-01-04T0700,2486A,110.0394,27.583,怀化市,市委党校,细颗粒物(PM2.5),173,168,158,131,113,37,,,,30,32,10,18,1.1,1.1
2025-01-04T0700,1210A,119.036,33.5981,淮安市,钵池山,,45,39,48,31,38,59,,,,25,36,7,7,0.6,0.7
2025-01-04T0700,1211A,119.007,33.575,淮安市,北京南路,,43,39,53,30,35,51,,,,26,33,8,8,0.3,0.5
2025-01-04T0700,1212A,118.989,33.6067,淮安市,市监测站,细颗粒物(PM2.5),52,36,47,36,37,58,,,,24,32,7,7,0.5,0.6
2025-01-04T0700,1213A,119.135,33.5039,淮安市,楚州区监测站,颗粒物(PM10),53,56,54,36,30,9,,,,59,43,7,7,0.5,0.5
2025-01-04T0700,1214A,119.0186,33.6297,淮安市,淮阴区监测站,,46,46,59,30,38,64,,,,24,42,8,7,0.5,0.6
2025-01-04T0700,3426A,118.8755,33.2894,淮安市,新华书店,细颗粒物(PM2.5),58,63,61,41,36,29,,,,44,38,8,9,0.7,0.5
2025-01-04T0700,2282A,116.8004,33.975,淮北市,监测站,细颗粒物(PM2.5),75,82,99,55,59,56,,,,23,28,8,9,0.7,0.9
2025-01-04T0700,2283A,116.8091,33.9007,淮北市,烈山区政府,细颗粒物(PM2.5),84,86,103,62,65,52,,,,36,37,10,9,0.7,0.8
2025-01-04T0700,3330A,116.8873,33.9836,淮北市,杜集区检察院,细颗粒物(PM2.5),85,93,96,63,63,53,,,,20,22,6,6,0.3,0.3
2025-01-04T0700,4017A,116.7923,33.9535,淮北市,市博物馆,细颗粒物(PM2.5),79,90,98,58,61,56,,,,27,30,8,9,0.6,0.8
2025-01-04T0700,2277A,116.8305,32.7727,淮南市,潘集区政府,细颗粒物(PM2.5),135,131,161,103,115,21,,,,40,40,10,11,0.6,0.8
2025-01-04T0700,2278A,117.0067,32.6524,淮南市,师范学院,细颗粒物(PM2.5),112,129,146,84,92,30,,,,37,34,6,7,0.8,0.8
2025-01-04T0700,2279A,116.8569,32.5951,淮南市,谢家集区政府,细颗粒物(PM2.5),117,130,143,88,95,38,,,,29,31,9,7,0.8,0.9
2025-01-04T0700,2280A,116.8281,32.633,淮南市,八公山区政府,细颗粒物(PM2.5),117,143,151,88,98,16,,,,45,31,6,7,0.7,0.8
2025-01-04T0700,2281A,116.6325,32.6201,淮南市,焦岗湖风景区管理处,细颗粒物(PM2.5),94,113,136,70,82,6,,,,32,27,5,4,0.5,0.6
2025-01-04T0700,2894A,117.0566,32.6531,淮南市,经济技术开发区消防队,细颗粒物(PM2.5),90,117,133,67,85,22,,,,44,31,6,7,0.5,0.7
2025-01-04T0700,3329A,117.0108,32.5893,淮南市,山南新区,细颗粒物(PM2.5),119,133,139,90,88,41,,,,37,31,9,9,0.8,0.8
2025-01-04T0700,2446A,114.9028,30.4742,黄冈市,职工中心,细颗粒物(PM2.5),209,208,213,159,155,17,,,,87,70,10,12,1.1,1.2
2025-01-04T0700,2929A,114.8858,30.4519,黄冈市,红卫路,细颗粒物(PM2.5),203,211,205,153,150,19,,,,62,51,9,10,1.3,1.4
2025-01-04T0700,3398A,114.9136,30.4445,黄冈市,市林业局,细颗粒物(PM2.5),206,196,201,156,155,12,,,,77,53,13,14,1.0,1.2
2025-01-04T0700,2672A,102.0199,35.5102,黄南藏族自治州,同仁县隆务镇,细颗粒物(PM2.5),52,52,49,36,29,66,,,,4,7,8,9,0.7,0.8
2025-01-04T0700,2295A,118.2903,29.6963,黄山市,延安路89号,细颗粒物(PM2.5),63,48,71,45,50,19,,,,20,26,4,5,0.4,0.5
2025-01-04T0700,2296A,118.327,29.7178,黄山市,黄山东路89号,细颗粒物(PM2.5),59,60,80,42,52,20,,,,20,26,5,7,0.5,0.6
2025-01-04T0700,2297A,118.1371,30.2756,黄山市,黄山区政府5号楼,细颗粒物(PM2.5),109,96,105,82,71,15,,,,19,21,7,8,0.7,0.8
2025-01-04T0700,2423A,115.0601,30.2313,黄石市,沈家营,细颗粒物(PM2.5),165,184,188,125,129,14,,,,61,50,12,17,1.2,1.2
2025-01-04T0700,2424A,115.0817,30.2006,黄石市,陈家湾,细颗粒物(PM2.5),180,166,187,136,141,14,,,,78,54,9,15,0.8,0.9
2025-01-04T0700,2426A,114.8988,30.2019,黄石市,铁山,细颗粒物(PM2.5),134,110,144,102,136,69,,,,27,41,10,14,1.1,1.1
2025-01-04T0700,2427A,115.0307,30.2092,黄石市,团城山,细颗粒物(PM2.5),139,139,173,106,129,50,,,,43,51,9,13,1.0,1.2
2025-01-04T0700,3149A,115.0235,30.1578,黄石市,笔架山北路,细颗粒物(PM2.5),133,116,159,101,131,56,,,,34,41,11,15,1.0,1.2
2025-01-04T0700,1392A,114.4183,23.0528,惠州市,河南岸金山湖子站,细颗粒物(PM2.5),63,67,64,45,40,62,,,,30,22,10,10,0.6,0.6
2025-01-04T0700,1393A,114.4053,23.0822,惠州市,下埔横江三路子站,细颗粒物(PM2.5),60,64,61,43,40,89,,,,22,21,11,10,0.7,0.7
2025-01-04T0700,1394A,114.4103,23.1142,惠州市,江北云山西路子站,细颗粒物(PM2.5),59,62,62,42,40,100,,,,21,23,12,11,0.6,0.6
2025-01-04T0700,1395A,114.4645,22.7833,惠州市,惠阳区承修路船湖子站,颗粒物(PM10),65,79,77,39,38,58,,,,27,25,13,11,0.6,0.6
2025-01-04T0700,1396A,114.5317,22.7422,惠州市,大亚湾管委会子站,颗粒物(PM10),63,76,61,44,33,17,,,,74,38,12,13,0.6,0.5
2025-01-04T0700,3314A,114.4338,22.8134,惠州市,惠阳秋长,细颗粒物(PM2.5),62,61,72,44,42,67,,,,31,29,8,8,0.7,0.7
2025-01-04T0700,3452A,114.6517,22.775,惠州市,大亚湾霞涌,细颗粒物(PM2.5),59,64,62,42,43,67,,,,20,23,8,9,0.6,0.7
2025-01-04T0700,2240A,130.9762,45.3001,鸡西市,环保局,,22,20,26,15,16,50,,,,11,10,6,7,0.3,0.4
2025-01-04T0700,2243A,130.9429,45.3039,鸡西市,第一中学,,24,24,25,14,14,51,,,,10,7,6,7,0.1,0.1
2025-01-04T0700,3707A,131.0207,45.3073,鸡西市,欧美日汽修厂,细颗粒物(PM2.5),59,58,36,42,29,21,,,,32,14,24,17,1.1,0.6
2025-01-04T0700,3709A,130.9967,45.3106,鸡西市,市政设施管理处,,31,31,35,19,19,17,,,,46,19,6,6,0.7,0.7
2025-01-04T0700,2367A,114.9754,27.0803,吉安市,红声器材厂,细颗粒物(PM2.5),112,123,116,84,78,38,,,,42,38,12,15,0.8,0.8
2025-01-04T0700,2368A,114.9658,27.0999,吉安市,市森林工业局,细颗粒物(PM2.5),110,111,112,83,78,45,,,,39,38,18,19,0.9,0.8
2025-01-04T0700,2369A,114.99,27.1312,吉安市,市环境监测站,细颗粒物(PM2.5),117,122,113,88,82,60,,,,32,33,15,18,0.8,0.8
2025-01-04T0700,2370A,115.0093,27.0968,吉安市,青原区法院,细颗粒物(PM2.5),125,125,118,95,84,31,,,,52,44,10,16,0.9,0.8
2025-01-04T0700,1772A,126.54,43.8622,吉林市,哈达湾,,35,35,32,18,19,22,,,,34,22,10,9,0.7,0.6
2025-01-04T0700,1773A,126.5844,43.8358,吉林市,东局子,,43,43,31,26,17,17,,,,34,22,5,7,0.8,0.6
2025-01-04T0700,1774A,126.5052,43.8245,吉林市,电力学院,,50,47,44,35,35,8,,,,40,30,12,11,1.1,1.1
2025-01-04T0700,1775A,126.6133,43.8972,吉林市,江北,细颗粒物(PM2.5),78,101,41,57,23,24,,,,33,22,9,10,1.1,0.8
2025-01-04T0700,1776A,126.555,43.8306,吉林市,江南公园,,38,35,32,26,23,9,,,,42,23,9,10,0.9,0.7
2025-01-04T0700,2868A,126.4739,43.953,吉林市,九站,细颗粒物(PM2.5),60,60,42,43,31,11,,,,48,36,24,12,1.0,0.8
2025-01-04T0700,1299A,116.9862,36.6114,济南市,科干所,细颗粒物(PM2.5),83,95,70,61,42,76,,,,24,31,10,11,0.9,0.8
2025-01-04T0700,1300A,116.9376,36.665,济南市,农科所,细颗粒物(PM2.5),85,107,84,63,38,48,,,,49,54,12,14,0.9,0.9
2025-01-04T0700,1301A,117.1265,36.6734,济南市,开发区,细颗粒物(PM2.5),98,98,68,73,43,77,,,,24,46,10,9,0.8,0.8
2025-01-04T0700,1303A,117.0624,36.6868,济南市,省种子仓库,细颗粒物(PM2.5),98,127,88,73,39,6,,,,89,62,14,11,1.4,1.1
2025-01-04T0700,1304A,116.9489,36.6447,济南市,机床二厂,细颗粒物(PM2.5),92,120,96,68,49,60,,,,16,36,19,26,1.1,1.1
2025-01-04T0700,1305A,117.0495,36.663,济南市,市监测站,细颗粒物(PM2.5),89,100,72,66,41,70,,,,28,37,9,9,0.9,0.9
2025-01-04T0700,1306A,116.7675,36.5484,济南市,长清党校,细颗粒物(PM2.5),92,110,86,68,55,72,,,,32,41,11,10,1.1,1.1
2025-01-04T0700,1616A,117.6795,36.229,济南市,技术学院,细颗粒物(PM2.5),110,117,81,83,56,6,,,,71,55,23,18,1.8,1.4
2025-01-04T0700,1961A,117.532,36.6868,济南市,东山小学,细颗粒物(PM2.5),98,110,72,73,39,53,,,,35,40,11,10,0.9,0.8
2025-01-04T0700,3059A,117.7161,36.2049,济南市,泰兴公司,细颗粒物(PM2.5),104,124,107,78,66,8,,,,60,55,16,17,1.3,1.2
2025-01-04T0700,3064A,117.6867,36.2171,济南市,莱芜战役纪念馆,细颗粒物(PM2.5),98,117,102,73,57,9,,,,70,58,16,15,1.4,1.2
2025-01-04T0700,3494A,117.1673,36.9782,济南市,济阳区政府,"颗粒物(PM10),细颗粒物(PM2.5)",83,115,84,61,37,6,,,,116,93,12,14,1.0,0.9
2025-01-04T0700,3495A,117.1171,36.63,济南市,锦屏中学,细颗粒物(PM2.5),89,95,60,66,39,81,,,,24,31,9,8,0.6,0.6
2025-01-04T0700,3682A,116.9814,36.6819,济南市,济南四建,细颗粒物(PM2.5),80,90,74,59,43,56,,,,35,50,11,16,1.1,1.1
2025-01-04T0700,1653A,116.6251,35.4302,济宁市,火炬城,细颗粒物(PM2.5),113,105,101,85,73,24,,,,55,43,13,14,1.2,1.1
2025-01-04T0700,1655A,116.5491,35.4042,济宁市,电化厂,细颗粒物(PM2.5),104,115,116,78,69,28,,,,59,46,15,16,1.1,1.1
2025-01-04T0700,3500A,116.5814,35.3707,济宁市,北湖一中,细颗粒物(PM2.5),113,112,97,85,72,21,,,,63,45,12,12,1.6,1.4
2025-01-04T0700,3501A,116.8249,35.5593,济宁市,服务中心,细颗粒物(PM2.5),115,130,127,87,72,9,,,,70,59,15,19,1.3,1.1
2025-01-04T0700,3678A,116.5907,35.4054,济宁市,市第七中学,细颗粒物(PM2.5),117,121,100,88,71,16,,,,70,45,10,11,1.4,1.3
2025-01-04T0700,2255A,130.2751,46.8028,佳木斯市,佳纺,细颗粒物(PM2.5),83,70,111,61,95,13,,,,49,49,12,9,1.1,1.2
2025-01-04T0700,2256A,130.3995,46.8307,佳木斯市,发电厂,细颗粒物(PM2.5),67,52,81,48,82,15,,,,42,41,6,9,0.8,0.9
2025-01-04T0700,2257A,130.3258,46.7975,佳木斯市,环保局,细颗粒物(PM2.5),62,57,104,44,88,23,,,,36,56,11,12,0.7,1.2
2025-01-04T0700,2258A,130.3648,46.8032,佳木斯市,十一中,细颗粒物(PM2.5),60,46,87,43,84,29,,,,35,50,16,12,0.6,1
2025-01-04T0700,2259A,130.3794,46.7588,佳木斯市,四丰,,50,50,90,23,58,39,,,,16,32,1,1,0.7,1
2025-01-04T0700,1252A,120.7436,30.778,嘉兴市,清河小学,,48,48,65,28,38,17,,,,54,44,9,10,0.4,0.4
2025-01-04T0700,1253A,120.726,30.7478,嘉兴市,嘉兴学院,颗粒物(PM10),52,53,73,29,37,29,,,,42,38,6,7,0.5,0.6
2025-01-04T0700,2872A,120.7846,30.7525,嘉兴市,南湖区残联,颗粒物(PM10),56,61,75,31,40,32,,,,45,40,8,8,0.6,0.6
2025-01-04T0700,3407A,120.6916,30.7739,嘉兴市,秀洲住建,,44,44,75,28,43,23,,,,51,44,6,7,0.5,0.6
2025-01-04T0700,1945A,98.2908,39.7711,嘉峪关市,气象局,颗粒物(PM10),115,180,141,31,43,74,,,,10,29,6,35,0.3,0.8
2025-01-04T0700,2884A,98.2672,39.7978,嘉峪关市,酒钢宾馆,颗粒物(PM10),123,195,193,39,48,72,,,,11,28,8,48,0.6,0.9
2025-01-04T0700,3248A,98.2643,39.7724,嘉峪关市,雄关区,颗粒物(PM10),98,146,106,23,36,77,,,,14,32,6,19,0.4,0.6
2025-01-04T0700,1383A,113.1064,22.6058,江门市,北街,细颗粒物(PM2.5),69,63,69,50,41,37,,,,71,59,9,8,0.9,0.9
2025-01-04T0700,1384A,113.0731,22.5835,江门市,西区,颗粒物(PM10),68,86,88,48,37,22,,,,75,54,12,12,0.7,0.7
2025-01-04T0700,1385A,113.0219,22.5311,江门市,圭峰西,细颗粒物(PM2.5),72,57,66,52,43,36,,,,61,40,8,9,0.7,0.6
2025-01-04T0700,1386A,113.0828,22.5947,江门市,东湖,细颗粒物(PM2.5),78,82,74,57,45,28,,,,66,50,12,10,0.6,0.7
2025-01-04T0700,3311A,113.1075,22.5647,江门市,江海富民,颗粒物(PM10),71,91,79,26,36,18,,,,87,65,11,10,0.6,0.6
2025-01-04T0700,3449A,113.05,22.4667,江门市,新会银湖,细颗粒物(PM2.5),84,72,80,62,54,4,,,,53,50,5,8,0.7,0.6
2025-01-04T0700,1828A,113.227,35.2125,焦作市,市环保局,细颗粒物(PM2.5),158,185,142,120,88,8,,,,62,52,17,12,1.6,1.2
2025-01-04T0700,3169A,113.2725,35.2067,焦作市,太极体育中心,细颗粒物(PM2.5),152,167,143,116,89,11,,,,61,57,16,13,1.5,1.1
2025-01-04T0700,3335A,113.3137,35.2641,焦作市,马村街道办,细颗粒物(PM2.5),127,151,135,96,89,18,,,,42,46,15,16,1.8,1.3
2025-01-04T0700,3336A,113.2465,35.2373,焦作市,焦作技师学院,细颗粒物(PM2.5),144,178,145,110,87,15,,,,67,55,18,16,1.6,1.1
2025-01-04T0700,3477A,113.1656,35.2539,焦作市,中站许衡医院,,,101,128,71,81,42,,,,32,41,15,15,,1.1
2025-01-04T0700,3981A,113.2449,35.1803,焦作市,原李万街道办,细颗粒物(PM2.5),149,183,148,114,92,11,,,,52,51,14,14,1.6,1.3
2025-01-04T0700,1708A,116.3701,23.5345,揭阳市,新兴,细颗粒物(PM2.5),79,89,74,58,45,4,,,,68,33,12,10,0.7,0.6
2025-01-04T0700,1709A,116.3264,23.5443,揭阳市,西马,细颗粒物(PM2.5),89,89,83,66,43,13,,,,55,34,9,10,0.8,0.8
2025-01-04T0700,1710A,116.3611,23.5626,揭阳市,东兴,细颗粒物(PM2.5),67,82,81,48,42,14,,,,61,36,12,12,0.8,0.9
2025-01-04T0700,1711A,116.4151,23.5294,揭阳市,渔湖,颗粒物(PM10),63,75,69,44,36,4,,,,68,35,14,13,0.8,0.7
2025-01-04T0700,3320A,116.403,23.5699,揭阳市,曲溪,细颗粒物(PM2.5),69,81,78,50,45,9,,,,70,41,1,7,0.8,0.8
2025-01-04T0700,1944A,102.1692,38.5167,金昌市,天庆家园,细颗粒物(PM2.5),67,74,84,48,50,37,,,,33,32,82,40,1.4,1.2
2025-01-04T0700,3170A,102.1864,38.5253,金昌市,市委党校,颗粒物(PM10),64,77,104,33,49,72,,,,22,31,81,46,0.9,1
2025-01-04T0700,4022A,102.1647,38.5371,金昌市,金川区人防中心,颗粒物(PM10),64,77,91,39,49,57,,,,19,22,55,32,1.0,0.9
2025-01-04T0700,1262A,119.647,29.077,金华市,十五中,细颗粒物(PM2.5),90,102,100,67,62,4,,,,79,57,4,4,0.6,0.7
2025-01-04T0700,1263A,119.686,29.1029,金华市,监测站,细颗粒物(PM2.5),84,107,110,62,65,1,,,,72,72,5,6,0.7,0.7
2025-01-04T0700,3659A,119.656,29.1131,金华市,气象局,细颗粒物(PM2.5),87,114,114,64,65,0,,,,76,69,5,5,0.7,0.7
2025-01-04T0700,1767A,121.1115,41.0879,锦州市,南山,细颗粒物(PM2.5),79,71,49,58,46,12,,,,46,38,16,17,1.3,1.1
2025-01-04T0700,1768A,121.0533,40.8434,锦州市,开发区,细颗粒物(PM2.5),117,100,86,88,47,8,,,,52,60,23,27,1.3,0.9
2025-01-04T0700,1769A,121.1836,41.1119,锦州市,百股街道,细颗粒物(PM2.5),83,70,58,61,46,12,,,,54,47,66,25,1.1,0.8
2025-01-04T0700,1770A,121.1178,41.1222,锦州市,天安街道,细颗粒物(PM2.5),68,72,49,49,32,9,,,,50,39,17,16,1.1,0.9
2025-01-04T0700,1771A,121.1303,41.1386,锦州市,北湖公园,细颗粒物(PM2.5),64,54,45,46,30,9,,,,40,32,13,16,0.8,0.7
2025-01-04T0700,2160A,112.85,35.5051,晋城市,自来水公司,细颗粒物(PM2.5),128,145,162,97,114,42,,,,35,50,26,20,2.1,1.9
2025-01-04T0700,2161A,112.8318,35.4936,晋城市,白云商贸,细颗粒物(PM2.5),128,142,167,97,111,14,,,,55,53,20,16,2.5,2
2025-01-04T0700,2162A,112.8508,35.4887,晋城市,市环保局,细颗粒物(PM2.5),122,141,167,92,110,45,,,,38,54,26,19,2.1,1.9
2025-01-04T0700,2163A,112.8676,35.4897,晋城市,技术学院,细颗粒物(PM2.5),125,127,154,95,107,17,,,,56,56,24,19,2.0,1.8
2025-01-04T0700,3620A,112.8271,35.4828,晋城市,泽州一中,细颗粒物(PM2.5),138,141,174,105,114,31,,,,47,52,26,17,2.1,1.9
2025-01-04T0700,2171A,112.7532,37.6945,晋中市,锦纶小区,颗粒物(PM10),73,95,81,46,36,5,,,,43,46,27,17,1.0,0.9
2025-01-04T0700,2173A,112.7249,37.7067,晋中市,南都小区,颗粒物(PM10),88,125,87,59,43,4,,,,58,51,47,21,1.1,0.9
2025-01-04T0700,2174A,112.6991,37.6982,晋中市,榆次区政府,颗粒物(PM10),82,114,90,47,37,4,,,,55,51,33,18,1.2,0.9
2025-01-04T0700,2865A,112.7195,37.6828,晋中市,榆次三中,颗粒物(PM10),69,88,82,44,35,4,,,,45,46,21,17,1.2,1
2025-01-04T0700,2439A,112.2014,31.0481,荆门市,竹园小学,细颗粒物(PM2.5),175,183,185,132,123,82,,,,28,34,14,16,1.0,0.9
2025-01-04T0700,2440A,112.1969,30.9891,荆门市,掇刀,细颗粒物(PM2.5),168,181,179,127,116,95,,,,24,32,12,14,0.9,0.9
2025-01-04T0700,2441A,112.2213,31.0386,荆门市,石化一小,细颗粒物(PM2.5),158,184,194,120,118,82,,,,29,36,11,13,0.7,0.8
2025-01-04T0700,3012A,112.1849,31.0362,荆门市,西山林语,细颗粒物(PM2.5),175,185,174,132,119,99,,,,20,28,11,14,0.7,0.7
2025-01-04T0700,3547A,112.1632,31.0138,荆门市,龙泉中学南校,细颗粒物(PM2.5),179,184,178,135,120,92,,,,23,26,17,17,0.9,0.9
2025-01-04T0700,1844A,112.2494,30.3197,荆州市,市图书馆,细颗粒物(PM2.5),189,152,170,142,150,61,,,,26,47,9,10,0.9,1.1
2025-01-04T0700,1845A,112.2008,30.3544,荆州市,市委党校,细颗粒物(PM2.5),185,161,179,139,148,63,,,,27,42,10,11,0.9,1
2025-01-04T0700,3194A,112.2747,30.3122,荆州市,管委会,细颗粒物(PM2.5),198,171,188,148,155,59,,,,26,48,8,10,1.0,1.1
2025-01-04T0700,3548A,112.1655,30.3364,荆州市,学苑路,细颗粒物(PM2.5),175,159,179,132,143,68,,,,34,56,12,15,1.1,1.2
2025-01-04T0700,2343A,117.2117,29.2933,景德镇市,老干部活动中心,细颗粒物(PM2.5),62,59,67,44,47,20,,,,37,33,6,7,0.7,0.7
2025-01-04T0700,2344A,117.1894,29.2789,景德镇市,兽医站,细颗粒物(PM2.5),53,52,72,37,38,41,,,,23,32,3,4,0.1,0.2
2025-01-04T0700,2345A,117.1547,29.2617,景德镇市,台达陶瓷,二氧化氮,82,65,76,50,41,22,,,,164,82,150,40,1.0,0.7
2025-01-04T0700,2346A,117.2461,29.2956,景德镇市,陶研所,细颗粒物(PM2.5),67,,59,48,48,9,,,,28,33,4,4,0.7,0.7
2025-01-04T0700,1803A,115.9872,29.6815,九江市,十里,细颗粒物(PM2.5),112,122,146,84,101,5,,,,51,37,6,9,1.1,1.1
2025-01-04T0700,1804A,115.9584,29.7046,九江市,茅山头,细颗粒物(PM2.5),118,109,151,89,97,19,,,,59,52,2,8,1.1,1.2
2025-01-04T0700,1805A,115.9877,29.7295,九江市,西园,细颗粒物(PM2.5),113,112,151,85,109,34,,,,40,50,7,10,0.7,0.9
2025-01-04T0700,1806A,116.0172,29.6547,九江市,五七二七厂,细颗粒物(PM2.5),115,124,168,87,104,44,,,,34,35,5,9,1.0,0.9
2025-01-04T0700,1808A,115.9114,29.6038,九江市,综合工业园,细颗粒物(PM2.5),152,119,162,116,136,18,,,,55,61,6,11,1.0,1.1
2025-01-04T0700,1809A,116.0721,29.7535,九江市,石化总厂,细颗粒物(PM2.5),109,116,160,82,111,48,,,,40,47,10,11,1.0,1.1
2025-01-04T0700,1810A,115.9773,29.5698,九江市,庐山气象台,,37,37,57,17,44,115,,,,8,14,12,7,0.3,0.9
2025-01-04T0700,3190A,116.0254,29.6994,九江市,外国语学校,细颗粒物(PM2.5),117,147,175,88,111,25,,,,43,36,7,10,0.8,0.8
2025-01-04T0700,2658A,98.5061,39.7443,酒泉市,仓门街子站,颗粒物(PM10),179,307,143,42,38,49,,,,13,20,83,41,0.6,0.8
2025-01-04T0700,2659A,98.4989,39.7256,酒泉市,油田生活基地,颗粒物(PM10),170,290,156,37,39,39,,,,18,27,81,34,0.6,0.7
2025-01-04T0700,2698A,76.0072,39.4467,喀什地区,巡警大队,细颗粒物(PM2.5),144,,162,110,125,17,,,,48,74,3,6,2.5,3.3
2025-01-04T0700,2699A,75.9755,39.4694,喀什地区,吾办,细颗粒物(PM2.5),168,158,193,127,141,26,,,,46,68,1,3,2.2,2.9
2025-01-04T0700,4027A,75.9483,39.4689,喀什地区,老干局,细颗粒物(PM2.5),125,163,221,95,125,23,,,,30,61,3,5,2.4,3.6
2025-01-04T0700,1824A,114.3389,34.7781,开封市,肿瘤医院,细颗粒物(PM2.5),220,216,164,170,120,3,,,,82,65,3,6,1.3,1.1
2025-01-04T0700,1826A,114.2885,34.7965,开封市,世纪星幼儿园,细颗粒物(PM2.5),233,188,148,183,130,6,,,,80,55,5,6,1.0,0.9
2025-01-04T0700,3147A,114.3438,34.8106,开封市,龙亭公园,细颗粒物(PM2.5),226,206,152,176,129,6,,,,80,59,2,6,1.5,1.3
2025-01-04T0700,3210A,114.3644,34.7964,开封市,汴京公园,细颗粒物(PM2.5),242,226,178,192,136,3,,,,77,66,3,7,1.3,1.1
2025-01-04T0700,3473A,114.2485,34.8306,开封市,技师学院,细颗粒物(PM2.5),175,191,151,132,99,14,,,,82,57,7,7,1.0,0.9
2025-01-04T0700,3592A,114.4644,34.7556,开封市,祥符区生态环境局,细颗粒物(PM2.5),240,258,189,190,133,7,,,,72,60,4,7,1.0,0.9
2025-01-04T0700,1951A,84.895,45.6094,克拉玛依市,长征新村,细颗粒物(PM2.5),178,211,179,134,112,66,,,,28,30,6,6,1.1,1
2025-01-04T0700,1952A,84.8988,45.5893,克拉玛依市,南林小区,细颗粒物(PM2.5),166,175,172,126,112,70,,,,22,23,1,1,1.4,1.3
2025-01-04T0700,1954A,84.905,44.3396,克拉玛依市,独山子区,细颗粒物(PM2.5),138,116,60,105,51,35,,,,40,42,5,5,1.5,0.8
2025-01-04T0700,1955A,85.6979,46.098,克拉玛依市,乌尔禾区商贸楼,细颗粒物(PM2.5),190,176,180,143,154,76,,,,26,28,4,5,1.2,1.1
2025-01-04T0700,3612A,85.1045,45.6899,克拉玛依市,白碱滩区新站,细颗粒物(PM2.5),182,195,208,137,127,75,,,,23,27,8,9,1.3,1.4
2025-01-04T0700,2697A,76.1454,39.7142,克孜勒苏柯尔克孜自治州,市人民政府,细颗粒物(PM2.5),129,120,145,98,102,47,,,,17,28,3,5,1.2,1.6
2025-01-04T0700,3665A,76.1658,39.7157,克孜勒苏柯尔克孜自治州,克州文化中心,细颗粒物(PM2.5),127,122,143,96,101,53,,,,20,42,8,9,1.2,1.5
2025-01-04T0700,1450A,102.8204,24.8886,昆明市,呈贡新区,,46,38,34,32,25,35,,,,27,20,23,9,0.8,0.6
2025-01-04T0700,1452A,102.7252,25.0902,昆明市,龙泉镇,,29,29,37,17,28,3,,,,35,29,6,7,0.7,0.6
2025-01-04T0700,1453A,102.7266,25.0375,昆明市,东风东路,,39,39,38,27,26,25,,,,26,23,8,6,0.7,0.7
2025-01-04T0700,1454A,102.6742,25.0669,昆明市,金鼎山,,44,44,47,27,28,6,,,,39,30,7,8,0.6,0.6
2025-01-04T0700,1455A,102.6644,25.0401,昆明市,碧鸡广场,,43,40,38,30,29,22,,,,28,30,10,8,0.9,0.7
2025-01-04T0700,3179A,102.7494,25.0119,昆明市,官渡区博物馆,颗粒物(PM10),60,70,44,37,28,2,,,,39,25,8,7,1.6,0.7
2025-01-04T0700,3375A,102.8017,24.8336,昆明市,青年创业园,,41,41,30,26,24,8,,,,41,21,18,11,1.3,1
2025-01-04T0700,3550A,102.7997,24.9786,昆明市,昆明学院,颗粒物(PM10),64,78,42,44,28,2,,,,38,25,10,9,0.9,0.6
2025-01-04T0700,3551A,102.5967,24.6736,昆明市,晋宁区生态环境分局,细颗粒物(PM2.5),52,40,44,36,30,30,,,,20,19,3,3,1.0,0.7
2025-01-04T0700,3552A,102.6678,24.9856,昆明市,云天化总部,,42,42,34,25,22,19,,,,40,25,8,6,0.5,0.4
2025-01-04T0700,1456A,91.1319,29.6514,拉萨市,八廓街,,16,9,44,3,27,51,,,,13,35,5,7,0.2,0.9
2025-01-04T0700,1457A,91.1221,29.6747,拉萨市,市环保局,,38,38,71,24,48,7,,,,36,38,5,8,1.8,1.8
2025-01-04T0700,1458A,91.0874,29.6475,拉萨市,区监测站,,15,10,35,3,22,46,,,,19,45,5,7,0.3,0.9
2025-01-04T0700,1459A,91.1774,29.6541,拉萨市,西藏大学,,17,13,31,6,14,54,,,,7,23,4,5,0.3,0.5
2025-01-04T0700,1460A,90.9798,29.6588,拉萨市,区辐射站,,25,25,53,12,37,21,,,,35,52,7,10,0.9,1.2
2025-01-04T0700,1461A,91.0834,29.6292,拉萨市,拉萨火车站,,28,28,31,18,19,15,,,,49,40,4,5,1.5,1.1
2025-01-04T0700,2520A,109.2203,23.7256,来宾市,来宾技工学校,细颗粒物(PM2.5),206,,116,156,87,10,,,,55,49,12,14,1.2,1
2025-01-04T0700,3535A,109.1781,23.7297,来宾市,兴宾区政府,细颗粒物(PM2.5),163,146,105,124,75,20,,,,49,29,16,10,1.4,1.2
2025-01-04T0700,4002A,109.2416,23.7461,来宾市,中南小学,细颗粒物(PM2.5),169,155,117,128,81,8,,,,62,47,7,10,1.3,1
2025-01-04T0700,1476A,103.631,36.1031,兰州市,兰炼宾馆,细颗粒物(PM2.5),77,88,102,56,61,8,,,,58,72,48,46,1.3,1.4
2025-01-04T0700,1478A,103.8412,36.0726,兰州市,生物制品所,颗粒物(PM10),77,104,102,54,61,4,,,,69,81,22,28,2.1,1.8
2025-01-04T0700,1479A,103.831,36.0464,兰州市,铁路设计院,细颗粒物(PM2.5),73,94,114,53,70,4,,,,73,85,24,36,2.1,2.4
2025-01-04T0700,3186A,103.7158,36.1058,兰州市,教育港,细颗粒物(PM2.5),87,95,102,64,61,0,,,,70,75,51,40,1.3,1.5
2025-01-04T0700,3241A,103.7439,36.0842,兰州市,百合公园,细颗粒物(PM2.5),69,78,94,50,56,7,,,,63,73,33,34,2.1,1.9
2025-01-04T0700,3242A,103.9611,35.998,兰州市,和平,细颗粒物(PM2.5),62,70,99,44,62,8,,,,68,68,27,29,1.9,1.6
2025-01-04T0700,3245A,103.6633,36.533,兰州新区,新区管委会,细颗粒物(PM2.5),57,52,70,40,44,32,,,,17,36,17,26,0.6,0.8
2025-01-04T0700,3246A,103.6975,36.4789,兰州新区,舟曲中学,颗粒物(PM10),58,65,81,40,46,26,,,,29,41,17,25,0.8,0.9
2025-01-04T0700,1067A,116.6708,39.5111,廊坊市,药材公司,细颗粒物(PM2.5),105,128,69,79,43,7,,,,79,58,9,5,1.3,0.7
2025-01-04T0700,1068A,116.7214,39.5589,廊坊市,开发区,细颗粒物(PM2.5),67,79,59,48,34,7,,,,71,53,7,6,0.7,0.6
2025-01-04T0700,1070A,116.7244,39.5269,廊坊市,北华航天学院,细颗粒物(PM2.5),83,106,65,61,38,10,,,,70,51,10,9,1.2,0.7
2025-01-04T0700,2919A,116.7022,39.5453,廊坊市,河北工业大学,细颗粒物(PM2.5),75,86,67,55,36,10,,,,81,57,8,6,0.8,0.6
2025-01-04T0700,2535A,103.7723,29.5462,乐山市,花湖湾,细颗粒物(PM2.5),186,182,163,140,130,17,,,,46,44,5,6,0.9,0.8
2025-01-04T0700,2536A,103.7627,29.5844,乐山市,牛耳桥,细颗粒物(PM2.5),202,178,168,152,144,4,,,,42,53,5,6,1.0,1.1
2025-01-04T0700,2537A,103.7508,29.6006,乐山市,市第三水厂,细颗粒物(PM2.5),199,175,165,149,139,12,,,,52,56,4,4,1.3,1.4
2025-01-04T0700,2538A,103.7571,29.5664,乐山市,市监测站,细颗粒物(PM2.5),175,156,148,132,122,16,,,,41,38,4,4,1.6,1.5
2025-01-04T0700,3361A,103.7311,29.5628,乐山市,理工大学,细颗粒物(PM2.5),206,173,164,156,143,14,,,,46,42,7,7,1.1,1.1
2025-01-04T0700,2599A,100.2497,26.8802,丽江市,丽江古城,,32,31,49,22,30,54,,,,11,17,9,10,0.5,0.6
2025-01-04T0700,2600A,100.2203,26.8906,丽江市,市中心,,29,,28,20,22,43,,,,15,14,11,12,0.7,0.7
2025-01-04T0700,1267A,119.914,28.4514,丽水市,监测站大楼,细颗粒物(PM2.5),75,,63,55,54,12,,,,33,36,7,5,0.6,0.5
2025-01-04T0700,1268A,119.93,28.4586,丽水市,莲都小学,细颗粒物(PM2.5),74,76,76,54,50,10,,,,37,28,6,7,0.5,0.5
2025-01-04T0700,1269A,119.879,28.4231,丽水市,余庄前,细颗粒物(PM2.5),73,60,64,53,49,6,,,,24,29,3,4,0.4,0.4
2025-01-04T0700,1173A,119.176,34.5885,连云港市,市环境监测站,,32,29,48,22,27,60,,,,23,32,9,10,0.6,0.8
2025-01-04T0700,3000A,119.3581,34.6972,连云港市,德源药业,,22,22,42,9,22,63,,,,24,37,10,11,0.1,0.4
2025-01-04T0700,3007A,119.178,34.844,连云港市,新城一中,,35,35,56,14,30,60,,,,29,46,9,13,0.5,0.9
2025-01-04T0700,3008A,119.3608,34.7519,连云港市,胡沟管理处,,26,17,33,7,17,82,,,,9,27,5,9,0.5,0.6
2025-01-04T0700,3009A,119.1478,34.5911,连云港市,矿山设计院,,31,31,49,19,28,61,,,,23,33,8,9,0.4,0.7
2025-01-04T0700,3434A,119.2413,34.6539,连云港市,工贸学校,,28,19,38,11,25,87,,,,9,22,8,10,0.4,0.6
2025-01-04T0700,3664A,119.4172,34.7341,连云港市,连云街道,,28,18,34,11,21,87,,,,7,20,5,10,0.3,0.5
2025-01-04T0700,2571A,102.3431,27.8099,凉山彝族自治州,青龙寺,,34,34,40,13,15,40,,,,9,11,5,8,0.9,1
2025-01-04T0700,2572A,102.2721,27.8415,凉山彝族自治州,邛海宾馆,,43,43,50,30,32,28,,,,27,19,12,14,0.9,0.9
2025-01-04T0700,2573A,102.2625,27.898,凉山彝族自治州,西昌市政府,细颗粒物(PM2.5),53,46,43,37,31,24,,,,27,18,11,12,1.0,0.9
2025-01-04T0700,2574A,102.2685,27.8851,凉山彝族自治州,凉山州政府,细颗粒物(PM2.5),54,48,49,38,35,22,,,,28,22,9,10,0.8,0.7
2025-01-04T0700,2575A,102.237,27.8914,凉山彝族自治州,长安,细颗粒物(PM2.5),58,57,57,41,36,6,,,,44,26,9,12,0.8,0.8
2025-01-04T0700,2212A,123.2,41.1953,辽阳市,宏伟区,,21,21,42,12,22,54,,,,6,19,12,17,0.4,0.6
2025-01-04T0700,2213A,123.1683,41.2495,辽阳市,新华园,,43,42,70,30,48,18,,,,48,46,34,33,1.0,1.2
2025-01-04T0700,2214A,123.2354,41.2639,辽阳市,滨河路,,35,28,47,24,33,41,,,,25,30,19,19,0.7,0.8
2025-01-04T0700,2215A,123.149,41.2991,辽阳市,铁西工业园,,39,35,73,27,47,35,,,,21,37,27,19,0.9,1.2
2025-01-04T0700,2227A,125.1358,42.8845,辽源市,环保局,颗粒物(PM10),52,54,54,34,33,7,,,,35,34,20,10,1.2,1.2
2025-01-04T0700,3239A,125.0764,42.9078,辽源市,银鹰制药,细颗粒物(PM2.5),54,52,53,38,36,6,,,,37,32,10,15,1.3,1
2025-01-04T0700,1625A,115.9848,36.4372,聊城市,区政府,细颗粒物(PM2.5),124,135,117,94,74,33,,,,50,44,18,18,1.2,1.2
2025-01-04T0700,2878A,116.0072,36.4343,聊城市,聊大东校,细颗粒物(PM2.5),149,163,134,114,85,26,,,,56,48,16,16,1.1,1.1
2025-01-04T0700,3200A,115.9819,36.4978,聊城市,监控中心,细颗粒物(PM2.5),132,153,133,100,85,39,,,,48,51,19,18,1.2,1.3
2025-01-04T0700,3513A,116.0445,36.4361,聊城市,九州社区,细颗粒物(PM2.5),139,134,110,106,76,24,,,,45,42,16,17,1.0,0.9
2025-01-04T0700,4018A,116.0567,36.4608,聊城市,星美广场,细颗粒物(PM2.5),128,136,115,97,71,39,,,,42,38,14,15,1.1,1
2025-01-04T0700,2632A,94.3681,29.6376,林芝市,林芝监测站,,14,13,20,3,11,44,,,,4,20,6,7,0.3,0.5
2025-01-04T0700,2633A,94.3616,29.6616,林芝市,林芝人民医院,,13,12,21,3,14,40,,,,4,11,5,6,0.3,0.5
2025-01-04T0700,2603A,100.0781,23.8982,临沧市,市环保局,,26,26,31,14,22,21,,,,12,14,8,9,0.5,0.5
2025-01-04T0700,2604A,100.0894,23.8822,临沧市,市气象局,,39,30,33,27,25,11,,,,16,15,9,9,0.6,0.5
2025-01-04T0700,1733A,111.5531,36.0783,临汾市,临钢医院,细颗粒物(PM2.5),87,120,88,64,48,2,,,,40,45,6,18,1.5,1
2025-01-04T0700,1734A,111.5028,36.0714,临汾市,技工学校,细颗粒物(PM2.5),99,130,109,74,60,2,,,,44,50,12,26,1.3,1.2
2025-01-04T0700,1736A,111.5018,36.0855,临汾市,市委,颗粒物(PM10),90,129,111,63,54,4,,,,45,51,9,24,1.3,1.2
2025-01-04T0700,3018A,111.505,36.1014,临汾市,唐尧大酒店,颗粒物(PM10),81,112,100,57,55,4,,,,43,48,12,24,1.2,1.2
2025-01-04T0700,3668A,111.5036,36.0414,临汾市,城南,颗粒物(PM10),90,130,103,63,56,1,,,,44,49,6,21,1.4,1.1
2025-01-04T0700,2667A,103.2069,35.5993,临夏回族自治州,环保局,细颗粒物(PM2.5),92,105,100,68,70,10,,,,36,34,10,17,1.9,1.6
2025-01-04T0700,2668A,103.2417,35.6057,临夏回族自治州,建设大厦,颗粒物(PM10),66,81,97,44,64,30,,,,16,29,12,17,1.3,1.4
2025-01-04T0700,1618A,118.3429,35.0532,临沂市,沂河小区,细颗粒物(PM2.5),79,75,62,58,47,19,,,,54,36,18,27,0.7,0.6
2025-01-04T0700,1619A,118.295,35.0583,临沂市,鲁南制药厂,细颗粒物(PM2.5),75,80,74,55,42,15,,,,60,48,17,21,0.9,0.8
2025-01-04T0700,1620A,118.2794,34.9976,临沂市,新光毛纺厂,细颗粒物(PM2.5),74,70,71,54,48,27,,,,45,47,12,23,0.8,0.8
2025-01-04T0700,1621A,118.3956,35.0888,临沂市,河东保险公司,细颗粒物(PM2.5),107,124,76,80,46,5,,,,81,51,24,25,1.1,0.8
2025-01-04T0700,3370A,118.3564,35.0215,临沂市,十里堡居委,细颗粒物(PM2.5),70,61,59,51,43,22,,,,45,34,17,30,1.0,0.9
2025-01-04T0700,3496A,118.3604,35.1084,临沂市,南坊新区,细颗粒物(PM2.5),92,95,56,68,38,5,,,,83,42,27,22,0.8,0.5
2025-01-04T0700,3860A,118.3920,35.0300,临沂市,皇山花园小区,细颗粒物(PM2.5),72,80,66,52,39,11,,,,105,51,17,22,0.6,0.8
2025-01-04T0700,1870A,109.4856,24.3895,柳州市,柳东小学,细颗粒物(PM2.5),78,81,79,57,61,87,,,,36,22,16,14,0.5,0.4
2025-01-04T0700,1871A,109.4157,24.3277,柳州市,环保监测站,细颗粒物(PM2.5),80,94,111,59,71,107,,,,24,35,17,16,0.8,1
2025-01-04T0700,1872A,109.389,24.341,柳州市,河西水厂,细颗粒物(PM2.5),123,121,141,93,88,34,,,,56,53,41,19,1.2,1.1
2025-01-04T0700,1873A,109.4311,24.2921,柳州市,市四中,细颗粒物(PM2.5),99,82,86,74,64,118,,,,20,27,17,13,1.1,1.4
2025-01-04T0700,1874A,109.4006,24.3631,柳州市,市九中,细颗粒物(PM2.5),98,90,116,73,80,76,,,,32,39,11,11,0.9,0.9
2025-01-04T0700,1875A,109.4958,24.3134,柳州市,古亭山,细颗粒物(PM2.5),92,78,73,68,56,121,,,,19,35,33,21,0.7,0.8
2025-01-04T0700,3402A,109.5422,24.3996,柳州市,市二中,细颗粒物(PM2.5),97,77,84,72,67,13,,,,65,47,10,11,0.9,0.9
2025-01-04T0700,2307A,116.5079,31.737,六安市,监测大楼,细颗粒物(PM2.5),156,148,168,119,135,34,,,,38,38,5,7,1.0,1.2
2025-01-04T0700,2308A,116.4738,31.7643,六安市,皖西学院,细颗粒物(PM2.5),160,155,182,122,134,20,,,,53,46,5,7,1.3,1.3
2025-01-04T0700,2309A,116.4996,31.7905,六安市,朝阳厂,细颗粒物(PM2.5),153,154,163,117,129,23,,,,49,45,2,4,1.4,1.4
2025-01-04T0700,2310A,116.5567,31.7886,六安市,开发区,细颗粒物(PM2.5),148,174,204,113,127,23,,,,38,46,4,6,1.2,1.2
2025-01-04T0700,2579A,104.8475,26.5894,六盘水市,民中,细颗粒物(PM2.5),64,61,60,46,50,53,,,,13,24,9,11,0.9,1.1
2025-01-04T0700,2580A,104.9544,26.5506,六盘水市,双水,细颗粒物(PM2.5),72,63,67,52,48,58,,,,12,16,7,9,0.8,0.8
2025-01-04T0700,2336A,117.0217,25.1033,龙岩市,龙岩市监测站,,29,23,43,19,28,90,,,,15,21,8,11,0.4,0.6
2025-01-04T0700,2337A,117.0258,25.0661,龙岩市,闽西职业技术学院,,32,30,53,22,30,91,,,,9,23,6,9,0.5,0.6
2025-01-04T0700,2338A,117.0196,25.0306,龙岩市,龙岩学院,,,52,43,,29,87,,,,16,19,7,8,0.4,0.4
2025-01-04T0700,2885A,104.9339,33.3826,陇南市,滨江中学,"颗粒物(PM10),细颗粒物(PM2.5)",62,73,77,44,45,30,,,,36,39,199,71,1.0,1.4
2025-01-04T0700,3247A,104.955,33.371,陇南市,市总工会,细颗粒物(PM2.5),63,67,65,45,38,50,,,,23,25,82,36,0.6,0.6
2025-01-04T0700,2487A,111.9589,27.8901,娄底市,电视发射台,细颗粒物(PM2.5),147,,102,112,104,88,,,,30,29,6,10,0.9,0.9
2025-01-04T0700,2488A,111.9975,27.725,娄底市,市监测站,细颗粒物(PM2.5),178,184,177,134,131,34,,,,50,39,14,16,1.2,1
2025-01-04T0700,2489A,112.0194,27.7314,娄底市,市委党校,细颗粒物(PM2.5),178,171,177,134,128,26,,,,65,45,9,10,1.2,1
2025-01-04T0700,2490A,111.9561,27.7569,娄底市,涟钢,细颗粒物(PM2.5),162,158,169,123,125,35,,,,26,30,6,12,2.4,1.3
2025-01-04T0700,2491A,111.9892,27.7044,娄底市,市政府,细颗粒物(PM2.5),160,152,166,122,124,27,,,,31,35,5,9,1.1,1
2025-01-04T0700,1894A,105.4427,28.9063,泸州市,小市上码头,细颗粒物(PM2.5),188,164,146,141,121,52,,,,28,27,3,4,0.8,0.7
2025-01-04T0700,1895A,105.4241,28.8573,泸州市,兰田宪桥,细颗粒物(PM2.5),208,162,141,158,124,28,,,,27,27,3,4,0.9,0.8
2025-01-04T0700,1896A,105.4379,28.8833,泸州市,市环监站,细颗粒物(PM2.5),198,168,140,148,103,47,,,,27,30,5,5,0.8,0.8
2025-01-04T0700,3490A,105.3617,28.7703,泸州市,纳溪区环保局,细颗粒物(PM2.5),178,146,128,134,113,8,,,,50,32,5,6,1.2,1.1
2025-01-04T0700,2183A,111.1406,37.5211,吕梁市,环保局,颗粒物(PM10),81,112,92,32,26,2,,,,44,47,3,7,0.6,0.6
2025-01-04T0700,2185A,111.1297,37.5136,吕梁市,自来水公司,颗粒物(PM10),115,180,132,43,34,3,,,,41,44,7,10,0.6,0.6
2025-01-04T0700,2867A,111.1283,37.51,吕梁市,马茂庄小学,颗粒物(PM10),74,98,100,25,26,3,,,,47,50,4,11,0.5,0.5
2025-01-04T0700,1812A,112.3931,34.6516,洛阳市,市委党校,细颗粒物(PM2.5),152,163,188,116,124,11,,,,45,58,6,11,1.2,1.4
2025-01-04T0700,1814A,112.4657,34.6871,洛阳市,豫西宾馆,细颗粒物(PM2.5),173,195,197,131,121,4,,,,56,60,7,11,1.5,1.3
2025-01-04T0700,1815A,112.494,34.6886,洛阳市,河南林校,细颗粒物(PM2.5),203,160,173,153,147,10,,,,41,54,1,5,1.3,1.3
2025-01-04T0700,1816A,112.3844,34.623,洛阳市,开发区管委会,细颗粒物(PM2.5),190,186,203,143,149,16,,,,37,53,5,9,1.1,1.3
2025-01-04T0700,1817A,112.4267,34.6258,洛阳市,市委新办公区,细颗粒物(PM2.5),188,204,221,141,146,22,,,,36,55,5,8,1.1,1.3
2025-01-04T0700,3340A,112.6005,34.6326,洛阳市,伊滨,细颗粒物(PM2.5),180,195,217,136,118,8,,,,50,59,7,9,1.2,1.2
2025-01-04T0700,3341A,112.4951,34.6332,洛阳市,中移产业园,细颗粒物(PM2.5),198,161,168,148,129,19,,,,36,53,6,11,1.2,1.2
2025-01-04T0700,3593A,112.5736,34.8993,洛阳市,吉利监测站,细颗粒物(PM2.5),147,122,145,112,105,3,,,,51,58,4,7,1.0,1.1
2025-01-04T0700,3635A,112.3677,34.662,洛阳市,河科大西苑校区,细颗粒物(PM2.5),168,180,202,127,132,5,,,,50,61,7,11,1.6,1.5
2025-01-04T0700,3636A,112.4388,34.6781,洛阳市,英才小学,细颗粒物(PM2.5),172,194,199,130,124,0,,,,58,63,7,11,1.4,1.3
2025-01-04T0700,2399A,114.051,33.5699,漯河市,三五一五工厂,细颗粒物(PM2.5),252,249,203,202,157,5,,,,62,47,8,11,1.3,1.2
2025-01-04T0700,2400A,114.0055,33.5698,漯河市,漯河大学,细颗粒物(PM2.5),243,233,194,193,145,2,,,,68,49,6,10,1.1,1
2025-01-04T0700,2401A,114.0138,33.5828,漯河市,市水利局,细颗粒物(PM2.5),240,249,203,190,145,2,,,,62,48,8,11,1.2,1.1
2025-01-04T0700,2402A,114.0261,33.5698,漯河市,市广电局,细颗粒物(PM2.5),258,244,198,208,154,2,,,,62,45,8,11,1.2,1
2025-01-04T0700,3478A,113.9749,33.5664,漯河市,市图书馆,细颗粒物(PM2.5),247,271,210,197,148,3,,,,70,53,6,9,1.2,1
2025-01-04T0700,3479A,114.0967,33.5906,漯河市,召陵区卫健委,细颗粒物(PM2.5),256,250,212,206,155,3,,,,69,60,9,12,1.1,0.9
2025-01-04T0700,1798A,118.5092,31.6837,马鞍山市,湖东路四小,细颗粒物(PM2.5),99,124,120,74,69,11,,,,68,55,4,4,0.9,0.9
2025-01-04T0700,1799A,118.5024,31.6449,马鞍山市,开发区,细颗粒物(PM2.5),124,121,125,94,86,13,,,,52,43,8,7,0.8,0.8
2025-01-04T0700,1800A,118.5228,31.7231,马鞍山市,慈湖,细颗粒物(PM2.5),110,131,118,83,84,4,,,,66,44,5,7,1.0,0.9
2025-01-04T0700,1802A,118.6245,31.7241,马鞍山市,濮塘,细颗粒物(PM2.5),90,91,101,67,69,7,,,,71,45,6,8,0.4,0.4
2025-01-04T0700,3633A,118.4918,31.6809,马鞍山市,雨山,细颗粒物(PM2.5),103,130,121,77,73,7,,,,63,43,5,6,1.0,0.9
2025-01-04T0700,1686A,111.0286,21.4688,茂名市,电白南海,颗粒物(PM10),57,63,72,39,39,72,,,,24,30,13,12,0.9,0.8
2025-01-04T0700,1687A,110.9294,21.6533,茂名市,茂石化七小,颗粒物(PM10),69,88,76,48,34,44,,,,34,22,24,19,0.8,0.7
2025-01-04T0700,1688A,110.9107,21.6687,茂名市,健康路,细颗粒物(PM2.5),73,68,72,53,47,55,,,,27,24,23,14,0.9,0.8
2025-01-04T0700,1689A,110.8592,21.6828,茂名市,高岭,细颗粒物(PM2.5),85,88,89,63,58,22,,,,43,33,42,23,0.9,1
2025-01-04T0700,3450A,111.01,21.5165,茂名市,电白水东,颗粒物(PM10),53,56,69,36,39,86,,,,20,18,19,16,0.7,0.7
2025-01-04T0700,2539A,104.0308,30.0478,眉山市,黑龙滩水库,细颗粒物(PM2.5),149,155,118,114,86,32,,,,28,15,3,3,1.0,0.9
2025-01-04T0700,2540A,103.8416,30.0874,眉山市,气象局,细颗粒物(PM2.5),199,264,140,149,133,8,,,,44,42,4,5,0.9,0.9
2025-01-04T0700,3137A,103.8578,30.0744,眉山市,市委党校,细颗粒物(PM2.5),192,161,143,144,121,7,,,,49,47,9,7,0.7,0.7
2025-01-04T0700,3148A,103.8291,30.0564,眉山市,区人社局,细颗粒物(PM2.5),206,,117,156,121,16,,,,56,52,9,9,1.0,0.9
2025-01-04T0700,1690A,116.1231,24.3284,梅州市,梅江月梅,颗粒物(PM10),55,59,61,38,42,22,,,,44,37,11,11,0.7,0.7
2025-01-04T0700,1691A,116.0797,24.2719,梅州市,梅县新城,,46,41,69,32,45,50,,,,20,44,6,7,0.6,0.8
2025-01-04T0700,1692A,116.1248,24.2654,梅州市,环境监控中心,细颗粒物(PM2.5),60,56,70,43,47,4,,,,38,41,8,8,0.7,0.8
2025-01-04T0700,3315A,116.1233,24.2991,梅州市,梅龙,细颗粒物(PM2.5),55,53,66,39,44,19,,,,38,34,8,8,0.7,0.9
2025-01-04T0700,1878A,104.7778,31.4741,绵阳市,富乐山,细颗粒物(PM2.5),148,146,126,113,101,8,,,,41,41,2,3,1.0,1
2025-01-04T0700,1879A,104.7563,31.4535,绵阳市,市人大,细颗粒物(PM2.5),170,188,152,129,108,3,,,,48,55,3,3,1.3,1.2
2025-01-04T0700,1880A,104.6697,31.4668,绵阳市,高新区自来水公司,细颗粒物(PM2.5),170,156,154,129,119,2,,,,44,48,3,4,0.8,0.8
2025-01-04T0700,1881A,104.7287,31.5075,绵阳市,三水厂,细颗粒物(PM2.5),176,165,149,133,116,3,,,,40,49,6,6,1.2,1
2025-01-04T0700,3491A,104.69,31.5322,绵阳市,西科大附属小学,细颗粒物(PM2.5),166,156,154,126,119,7,,,,35,43,5,5,1.3,1.1
2025-01-04T0700,3492A,104.5648,31.5343,绵阳市,安州区旅游局,细颗粒物(PM2.5),168,151,164,127,131,10,,,,25,41,6,9,1.1,1.2
2025-01-04T0700,1784A,129.61,44.561,牡丹江市,环保大楼,,44,44,47,18,32,20,,,,26,27,9,10,0.6,0.6
2025-01-04T0700,1785A,129.6115,44.5782,牡丹江市,文化广场,细颗粒物(PM2.5),54,53,60,38,39,20,,,,31,32,8,10,0.9,1
2025-01-04T0700,1786A,129.5904,44.5963,牡丹江市,第一医院,细颗粒物(PM2.5),74,54,50,54,45,10,,,,41,26,7,8,0.7,0.5
2025-01-04T0700,1787A,129.6364,44.6075,牡丹江市,机车工厂,颗粒物(PM10),92,133,65,56,38,13,,,,39,32,17,14,1.0,0.9
2025-01-04T0700,1788A,129.6386,44.5462,牡丹江市,第一中学,,39,37,39,27,28,10,,,,32,24,6,8,0.6,0.6
2025-01-04T0700,2531A,105.0703,29.61,内江市,市监测站,细颗粒物(PM2.5),158,,112,120,125,50,,,,33,26,6,7,0.9,0.9
2025-01-04T0700,2532A,105.0717,29.5947,内江市,东兴区政府,细颗粒物(PM2.5),139,122,115,106,112,56,,,,31,27,4,4,0.9,1
2025-01-04T0700,2533A,105.0653,29.5817,内江市,内江二中,细颗粒物(PM2.5),153,126,130,117,122,58,,,,30,27,9,9,0.9,1
2025-01-04T0700,2534A,105.0406,29.5822,内江市,内江日报社,细颗粒物(PM2.5),149,,122,114,121,27,,,,54,32,11,11,1.0,1.1
2025-01-04T0700,2628A,92.0657,31.4846,那曲市,那曲监测站,,20,10,35,7,17,63,,,,9,11,4,7,0.6,0.7
2025-01-04T0700,3128A,92.0506,31.4797,那曲市,那曲会议中心,,27,6,39,3,14,86,,,,1,7,2,4,0.3,0.5
2025-01-04T0700,1290A,115.8931,28.6843,南昌市,省外办,细颗粒物(PM2.5),178,177,183,134,137,51,,,,55,54,12,11,1.1,1.1
2025-01-04T0700,1291A,115.8886,28.7003,南昌市,省林业公司,细颗粒物(PM2.5),168,163,180,127,129,34,,,,66,56,13,13,1.0,1
2025-01-04T0700,1292A,115.8126,28.7442,南昌市,林科所,细颗粒物(PM2.5),156,158,170,119,124,42,,,,61,50,7,15,1.0,1.1
2025-01-04T0700,1294A,115.8518,28.687,南昌市,建工学校,细颗粒物(PM2.5),138,167,184,105,120,57,,,,50,45,13,14,1.2,1.2
2025-01-04T0700,1295A,115.8921,28.6424,南昌市,象湖,细颗粒物(PM2.5),179,139,155,135,131,54,,,,36,38,11,12,1.1,1
2025-01-04T0700,1296A,115.7423,28.7996,南昌市,武术学校,细颗粒物(PM2.5),94,,105,70,89,13,,,,16,23,3,3,0.9,1
2025-01-04T0700,1298A,115.9314,28.6842,南昌市,省站,细颗粒物(PM2.5),178,174,183,134,136,49,,,,36,36,13,13,1.0,1
2025-01-04T0700,3046A,115.9084,28.6062,南昌市,机电学校,细颗粒物(PM2.5),180,193,190,136,129,31,,,,51,41,12,14,1.0,0.9
2025-01-04T0700,3690A,115.9721,28.7031,南昌市,外国语学校,细颗粒物(PM2.5),148,175,183,113,121,43,,,,42,43,10,11,1.0,0.9
2025-01-04T0700,1905A,106.056,30.8064,南充市,西山风景区,细颗粒物(PM2.5),100,80,120,75,118,70,,,,7,13,1,2,0.9,1.1
2025-01-04T0700,1906A,106.0789,30.8023,南充市,南充市委,细颗粒物(PM2.5),118,102,146,89,129,23,,,,35,29,3,4,0.8,0.9
2025-01-04T0700,1907A,106.1031,30.8217,南充市,南充炼油厂,细颗粒物(PM2.5),107,97,139,80,125,56,,,,21,25,6,4,0.7,0.8
2025-01-04T0700,1908A,106.1064,30.7856,南充市,高坪区监测站,细颗粒物(PM2.5),112,98,145,84,119,37,,,,35,30,3,3,0.7,0.8
2025-01-04T0700,1909A,106.0642,30.7636,南充市,嘉陵区环保局,细颗粒物(PM2.5),117,111,145,88,123,16,,,,52,33,4,5,0.9,1
2025-01-04T0700,1910A,106.1087,30.8388,南充市,市环境监测站,细颗粒物(PM2.5),98,109,144,73,109,57,,,,17,21,7,6,0.6,0.8
2025-01-04T0700,1151A,118.8086,32.1065,南京市,迈皋桥,颗粒物(PM10),57,64,86,39,48,18,,,,60,66,6,8,0.7,0.7
2025-01-04T0700,1152A,118.7538,32.0551,南京市,草场门,细颗粒物(PM2.5),62,70,89,44,49,21,,,,45,39,7,8,0.5,0.5
2025-01-04T0700,1153A,118.7794,32.0745,南京市,山西路,细颗粒物(PM2.5),73,78,100,53,56,45,,,,33,37,4,4,0.7,0.8
2025-01-04T0700,1154A,118.7752,32.0023,南京市,中华门,细颗粒物(PM2.5),64,70,91,46,51,16,,,,52,48,9,9,0.7,0.7
2025-01-04T0700,1155A,118.8109,32.0309,南京市,瑞金路,细颗粒物(PM2.5),64,75,98,46,54,11,,,,40,41,5,6,0.9,1
2025-01-04T0700,1156A,118.7997,32.0754,南京市,玄武湖,"颗粒物(PM10),细颗粒物(PM2.5)",62,74,96,44,52,21,,,,30,32,8,8,0.9,0.8
2025-01-04T0700,1157A,118.6414,32.0931,南京市,浦口,颗粒物(PM10),70,90,107,50,54,10,,,,37,37,7,8,0.9,0.8
2025-01-04T0700,1158A,118.7356,31.9996,南京市,奥体中心,颗粒物(PM10),65,79,98,41,51,19,,,,56,52,10,10,0.7,0.7
2025-01-04T0700,1159A,118.9125,32.1028,南京市,仙林大学城,细颗粒物(PM2.5),64,63,89,46,55,25,,,,38,36,6,7,0.7,0.6
2025-01-04T0700,3422A,118.8436,31.9198,南京市,江宁彩虹桥,细颗粒物(PM2.5),67,79,101,48,54,13,,,,49,48,6,8,0.5,0.6
2025-01-04T0700,3423A,119.0138,31.6494,南京市,溧水永阳,细颗粒物(PM2.5),72,63,94,52,66,17,,,,45,46,4,4,0.4,0.5
2025-01-04T0700,3424A,118.879,31.3302,南京市,高淳老职中,细颗粒物(PM2.5),105,106,100,79,71,11,,,,64,45,6,6,0.6,0.6
2025-01-04T0700,3427A,118.8554,32.3578,南京市,六合雄州,颗粒物(PM10),56,62,76,35,46,8,,,,33,24,4,4,0.9,0.8
2025-01-04T0700,1401A,108.3103,22.7881,南宁市,二十一中,细颗粒物(PM2.5),109,84,90,82,66,50,,,,47,45,8,8,1.1,1.2
2025-01-04T0700,1402A,108.3141,22.8528,南宁市,北湖,细颗粒物(PM2.5),103,110,99,77,70,20,,,,70,61,18,15,1.0,1
2025-01-04T0700,1403A,108.3206,22.8225,南宁市,市监测站,细颗粒物(PM2.5),98,83,96,73,70,79,,,,38,46,13,14,0.9,1
2025-01-04T0700,1404A,108.3829,22.8037,南宁市,大自然花园,细颗粒物(PM2.5),107,88,78,80,59,50,,,,48,32,8,10,0.8,0.7
2025-01-04T0700,1405A,108.4394,22.7904,南宁市,仙葫,细颗粒物(PM2.5),140,,82,107,70,18,,,,53,52,4,7,1.0,0.9
2025-01-04T0700,1406A,108.2397,22.8467,南宁市,区农职院,细颗粒物(PM2.5),87,103,95,64,68,39,,,,37,41,20,16,0.9,1
2025-01-04T0700,1407A,108.3275,22.735,南宁市,英华嘉园,细颗粒物(PM2.5),137,117,101,104,69,34,,,,62,65,13,12,1.1,1.1
2025-01-04T0700,1408A,108.2257,22.7757,南宁市,沙井镇街道办,细颗粒物(PM2.5),149,177,130,114,77,8,,,,69,69,5,7,0.9,1
2025-01-04T0700,3401A,108.4834,22.7618,南宁市,红星社区,细颗粒物(PM2.5),117,107,80,88,60,8,,,,66,44,9,11,1.0,0.9
2025-01-04T0700,2332A,118.1681,26.6369,南平市,南平市监测站,,39,39,39,25,28,40,,,,30,29,5,4,0.4,0.5
2025-01-04T0700,2333A,118.1825,26.6489,南平市,南平铝业有限公司,细颗粒物(PM2.5),53,39,41,37,28,21,,,,40,29,5,5,0.5,0.5
2025-01-04T0700,2334A,118.1756,26.6272,南平市,南平七中,,35,26,46,24,32,44,,,,11,20,2,3,0.5,0.5
2025-01-04T0700,1168A,120.9098,31.9663,南通市,狼山街道,,33,32,47,23,32,25,,,,33,22,4,5,0.5,0.5
2025-01-04T0700,1169A,120.86,32.0005,南通市,虹桥,,33,25,44,23,30,55,,,,25,20,4,5,0.4,0.5
2025-01-04T0700,1170A,120.87,32.02,南通市,城中,,27,27,55,16,29,64,,,,20,26,5,6,0.6,0.6
2025-01-04T0700,1171A,120.94,31.93,南通市,星湖花园,,32,28,47,22,29,36,,,,30,23,6,5,0.6,0.6
2025-01-04T0700,1172A,120.81,32.0417,南通市,紫琅学院,,27,27,46,14,28,44,,,,36,33,2,3,0.5,0.6
2025-01-04T0700,3291A,121.067,32.062,南通市,通州监测站,,29,29,44,17,27,67,,,,18,20,2,3,0.3,0.5
2025-01-04T0700,3432A,120.9348,31.9883,南通市,环境教育馆,,39,39,50,24,32,15,,,,50,37,3,4,0.5,0.6
2025-01-04T0700,2404A,112.5224,33.0122,南阳市,瓦房庄,细颗粒物(PM2.5),216,206,175,166,130,24,,,,43,34,7,9,1.1,1
2025-01-04T0700,2405A,112.5003,32.9735,南阳市,汉画馆,细颗粒物(PM2.5),192,188,161,144,112,20,,,,43,39,6,8,1.1,1
2025-01-04T0700,2406A,112.5573,33.027,南阳市,气象站,细颗粒物(PM2.5),178,202,186,134,120,42,,,,36,32,9,9,1.2,1.1
2025-01-04T0700,2407A,112.5481,32.9689,南阳市,理工学院,细颗粒物(PM2.5),198,182,154,148,117,18,,,,44,34,6,9,1.2,1
2025-01-04T0700,4008A,112.5234,32.9922,南阳市,卧龙区政府,细颗粒物(PM2.5),206,204,167,156,115,18,,,,45,37,6,8,1.2,1
2025-01-04T0700,1234A,121.8358,29.911,宁波市,区环保大楼,细颗粒物(PM2.5),75,85,72,55,39,2,,,,56,44,6,8,0.8,0.6
2025-01-04T0700,1235A,121.56,29.82,宁波市,万里学院,细颗粒物(PM2.5),74,89,89,54,48,0,,,,47,48,5,5,0.8,0.7
2025-01-04T0700,1236A,121.713,29.9572,宁波市,龙赛医院,细颗粒物(PM2.5),85,114,85,63,43,2,,,,53,48,9,9,0.8,0.6
2025-01-04T0700,1239A,121.633,29.7733,宁波市,钱湖水厂,细颗粒物(PM2.5),74,85,76,54,43,12,,,,27,34,6,6,0.9,0.8
2025-01-04T0700,1240A,121.5856,29.8635,宁波市,太古小学,颗粒物(PM10),71,92,89,49,44,2,,,,53,47,8,8,1.0,1
2025-01-04T0700,1241A,121.524,29.8674,宁波市,市环境监测中心,细颗粒物(PM2.5),74,80,85,54,52,0,,,,52,48,8,9,0.8,0.7
2025-01-04T0700,2871A,121.6147,29.9017,宁波市,万里国际学校,颗粒物(PM10),75,100,78,40,34,1,,,,51,46,6,7,0.9,0.8
2025-01-04T0700,3710A,121.5594,29.8975,宁波市,白沙活动中心,颗粒物(PM10),69,87,79,41,37,4,,,,59,55,8,9,0.7,0.6
2025-01-04T0700,2341A,119.5388,26.6612,宁德市,宁德市监测站,,39,39,44,27,31,49,,,,29,21,3,5,0.4,0.5
2025-01-04T0700,3209A,119.5231,26.6562,宁德市,宁德一中,,35,30,42,24,29,59,,,,12,13,2,4,0.5,0.5
2025-01-04T0700,2618A,98.8601,25.8567,怒江傈僳族自治州,州监测站,,35,35,41,21,24,32,,,,12,15,4,4,0.4,0.5
2025-01-04T0700,2619A,98.8546,25.8417,怒江傈僳族自治州,泸水一中,,30,21,39,21,26,16,,,,16,22,7,7,0.6,0.8
2025-01-04T0700,1888A,101.6891,26.571,攀枝花市,弄弄坪,颗粒物(PM10),54,58,67,37,44,6,,,,39,43,20,27,1.7,1.8
2025-01-04T0700,1889A,101.5769,26.5928,攀枝花市,河门口,颗粒物(PM10),57,63,62,38,40,14,,,,34,33,10,20,1.5,1.4
2025-01-04T0700,1890A,101.7169,26.585,攀枝花市,炳草岗,细颗粒物(PM2.5),74,82,79,54,49,5,,,,47,53,17,23,1.1,1.2
2025-01-04T0700,1891A,101.7369,26.5008,攀枝花市,仁和,,42,40,57,29,39,10,,,,26,29,5,16,0.7,1
2025-01-04T0700,2835A,101.7227,26.567,攀枝花市,四十中小,细颗粒物(PM2.5),67,80,80,48,49,4,,,,48,54,19,27,1.4,1.4
2025-01-04T0700,1604A,122.0303,41.1489,盘锦市,开发区,细颗粒物(PM2.5),130,106,61,99,46,10,,,,53,37,22,18,2.8,1.1
2025-01-04T0700,1605A,122.0485,41.0883,盘锦市,兴隆台,"颗粒物(PM10),细颗粒物(PM2.5)",75,100,64,55,46,6,,,,55,43,29,26,2.5,1.2
2025-01-04T0700,1606A,121.8297,41.1028,盘锦市,新生街道,细颗粒物(PM2.5),122,115,52,92,36,10,,,,57,45,18,21,2.3,0.9
2025-01-04T0700,1832A,113.3257,33.742,平顶山市,新华旅馆,细颗粒物(PM2.5),219,234,205,169,129,3,,,,63,50,11,13,1.1,0.8
2025-01-04T0700,1833A,113.2919,33.737,平顶山市,规划设计院,细颗粒物(PM2.5),217,262,232,167,146,9,,,,57,55,7,9,1.0,0.9
2025-01-04T0700,1834A,113.182,33.774,平顶山市,平顶山工学院,细颗粒物(PM2.5),203,263,245,153,138,11,,,,54,52,3,2,1.3,1.2
2025-01-04T0700,3204A,113.3025,33.73,平顶山市,规划局,细颗粒物(PM2.5),207,219,205,157,139,8,,,,56,54,10,12,1.4,1.1
2025-01-04T0700,3594A,112.8867,33.9116,平顶山市,石龙区,细颗粒物(PM2.5),149,180,179,114,112,17,,,,60,52,11,12,1.1,1.2
2025-01-04T0700,2656A,106.6692,35.5461,平凉市,聚贤嘉苑,,40,40,69,27,38,23,,,,56,51,14,17,0.7,0.8
2025-01-04T0700,2657A,106.7021,35.5307,平凉市,博物馆,颗粒物(PM10),63,75,92,36,53,33,,,,34,50,18,19,1.2,1.1
2025-01-04T0700,2347A,114.0997,27.5002,萍乡市,武功山,细颗粒物(PM2.5),62,53,90,44,77,43,,,,12,21,10,9,0.2,0.4
2025-01-04T0700,2348A,113.8385,27.6434,萍乡市,中医院,细颗粒物(PM2.5),135,157,174,103,115,22,,,,39,43,9,16,1.4,1.5
2025-01-04T0700,2349A,113.8493,27.6253,萍乡市,市政府车库,细颗粒物(PM2.5),144,117,157,110,139,27,,,,32,44,9,14,1.3,1.6
2025-01-04T0700,2350A,113.8676,27.6435,萍乡市,市环保局,细颗粒物(PM2.5),170,164,175,129,132,20,,,,64,44,15,20,1.5,1.4
2025-01-04T0700,2351A,113.866,27.6198,萍乡市,安源区政府,细颗粒物(PM2.5),143,131,168,109,124,32,,,,26,38,11,13,1.0,1.3
2025-01-04T0700,2319A,119.0141,25.4325,莆田市,荔城区仓后路,,38,38,40,18,19,98,,,,7,10,2,2,0.4,0.4
2025-01-04T0700,2320A,119.0015,25.4553,莆田市,莆田市监测站,,40,40,36,18,17,102,,,,6,9,3,3,0.5,0.5
2025-01-04T0700,2321A,119.1119,25.4561,莆田市,涵江区六中,,36,36,45,21,20,95,,,,9,8,1,2,0.3,0.3
2025-01-04T0700,2322A,119.1013,25.3215,莆田市,秀屿区政府,,45,45,43,24,22,88,,,,14,13,3,2,0.6,0.5
2025-01-04T0700,2392A,115.0312,35.7636,濮阳市,环保局,细颗粒物(PM2.5),165,164,106,125,87,21,,,,53,35,4,8,,1.2
2025-01-04T0700,2394A,115.0574,35.7609,濮阳市,油田运输公司,细颗粒物(PM2.5),188,188,131,141,87,18,,,,46,42,3,7,1.1,0.9
2025-01-04T0700,2395A,115.0866,35.7754,濮阳市,油田物探公司,细颗粒物(PM2.5),206,192,135,156,99,22,,,,37,44,3,8,1.2,1.1
2025-01-04T0700,3021A,115,35.7668,濮阳市,濮水河管理处,细颗粒物(PM2.5),186,202,139,140,88,25,,,,32,34,6,11,1.2,1
2025-01-04T0700,2601A,100.98,22.7633,普洱市,市环保局,,32,32,38,16,19,38,,,,9,8,5,5,0.5,0.5
2025-01-04T0700,2602A,100.9817,22.8322,普洱市,普洱第二中学,,37,37,35,14,19,3,,,,27,15,5,4,0.6,0.6
2025-01-04T0700,2262A,131.0518,45.8751,七台河市,新一中,颗粒物(PM10),53,55,58,35,41,50,,,,19,24,10,10,1.9,1.9
2025-01-04T0700,3345A,131.0577,45.7879,七台河市,中波台,细颗粒物(PM2.5),67,53,79,48,57,28,,,,36,41,11,14,0.9,1.1
2025-01-04T0700,3637A,131.0176,45.7761,七台河市,人民广场,细颗粒物(PM2.5),58,55,87,41,62,30,,,,37,44,7,8,0.8,1.1
2025-01-04T0700,3684A,130.8781,45.8222,七台河市,新建矿广场,细颗粒物(PM2.5),94,,88,70,68,10,,,,55,42,11,12,0.7,0.8
2025-01-04T0700,1779A,123.9305,47.3636,齐齐哈尔市,安居小区,细颗粒物(PM2.5),143,122,66,109,51,25,,,,39,37,11,12,0.9,0.7
2025-01-04T0700,1780A,123.9488,47.3386,齐齐哈尔市,中心广场,细颗粒物(PM2.5),127,136,59,96,40,20,,,,42,35,5,7,0.9,0.7
2025-01-04T0700,1781A,123.9483,47.3227,齐齐哈尔市,农牧车辆厂,细颗粒物(PM2.5),94,90,60,70,40,18,,,,44,42,6,10,0.8,0.7
2025-01-04T0700,1783A,123.945,47.2988,齐齐哈尔市,市环境监测站,细颗粒物(PM2.5),119,114,73,90,52,22,,,,45,39,6,7,0.7,0.7
2025-01-04T0700,3662A,123.6333,47.2075,齐齐哈尔市,富区青少年活动中心,细颗粒物(PM2.5),138,140,74,105,40,29,,,,34,32,6,13,1.0,0.8
2025-01-04T0700,2591A,107.9783,26.5747,黔东南苗族侗族自治州,市环境监测站,细颗粒物(PM2.5),88,78,80,65,63,83,,,,15,33,10,7,0.8,0.8
2025-01-04T0700,2881A,107.8908,26.5311,黔东南苗族侗族自治州,凯里学院,细颗粒物(PM2.5),78,70,67,57,51,104,,,,10,17,9,6,0.7,0.6
2025-01-04T0700,2593A,107.5228,26.2403,黔南布依族苗族自治州,小围寨,细颗粒物(PM2.5),67,58,53,48,45,11,,,,30,22,7,7,0.9,0.8
2025-01-04T0700,3538A,107.5175,26.2978,黔南布依族苗族自治州,沙坝,细颗粒物(PM2.5),62,53,63,44,48,15,,,,22,24,6,7,0.7,0.7
2025-01-04T0700,2589A,104.9022,25.0925,黔西南布依族苗族自治州,场坝街,细颗粒物(PM2.5),88,,64,65,52,53,,,,8,21,3,6,0.6,0.8
2025-01-04T0700,2590A,104.8811,25.0992,黔西南布依族苗族自治州,坪东大道,细颗粒物(PM2.5),70,53,57,51,50,50,,,,8,21,3,5,0.6,0.8
2025-01-04T0700,2502A,108.6236,21.9667,钦州市,市环保站,细颗粒物(PM2.5),113,141,129,85,73,60,,,,35,39,20,14,1.1,1.3
2025-01-04T0700,2503A,108.6549,21.9481,钦州市,沙埠小学,细颗粒物(PM2.5),123,123,123,93,69,28,,,,61,44,17,13,0.9,0.8
2025-01-04T0700,2504A,108.5989,21.7431,钦州市,港区一小,细颗粒物(PM2.5),113,140,137,85,70,40,,,,61,46,21,15,1.1,1
2025-01-04T0700,3404A,108.5959,21.9633,钦州市,北职校,细颗粒物(PM2.5),147,134,118,112,85,31,,,,58,47,26,16,1.2,1.5
2025-01-04T0700,1042A,119.5134,39.8207,秦皇岛市,北戴河环保局,颗粒物(PM10),64,78,47,41,22,7,,,,68,40,8,5,0.9,0.6
2025-01-04T0700,1043A,119.7493,40.0116,秦皇岛市,第一关,,44,44,28,23,20,2,,,,55,44,7,5,0.8,0.6
2025-01-04T0700,1044A,119.5897,39.9499,秦皇岛市,监测站,颗粒物(PM10),56,62,44,35,22,1,,,,62,42,10,8,0.9,0.7
2025-01-04T0700,1046A,119.5251,39.9041,秦皇岛市,建设大厦,颗粒物(PM10),59,68,49,39,26,6,,,,72,44,15,7,1.0,0.6
2025-01-04T0700,3132A,119.610547,39.943889,秦皇岛市,文明里,颗粒物(PM10),66,81,53,39,25,3,,,,72,47,12,8,1.0,0.6
2025-01-04T0700,1310A,120.4134,36.0658,青岛市,市南区东部子站,颗粒物(PM10),54,58,65,36,32,27,,,,59,46,17,16,1.0,1
2025-01-04T0700,1311A,120.3664,36.1032,青岛市,四方区子站,颗粒物(PM10),52,53,67,34,43,7,,,,76,68,14,17,1.6,1.3
2025-01-04T0700,1312A,120.2994,36.054,青岛市,市南区西部子站,颗粒物(PM10),57,63,55,27,28,26,,,,60,55,19,16,1.2,1.1
2025-01-04T0700,1313A,120.4581,36.0858,青岛市,崂山区子站,,41,41,70,27,30,17,,,,58,49,12,12,1.1,1.5
2025-01-04T0700,1314A,120.1983,35.9608,青岛市,黄岛区子站,细颗粒物(PM2.5),53,48,44,37,27,48,,,,33,33,15,12,1.1,1.1
2025-01-04T0700,1315A,120.3999,36.3083,青岛市,城阳区子站,颗粒物(PM10),51,51,78,27,39,9,,,,65,57,10,13,1.5,1.3
2025-01-04T0700,1966A,120.0405,35.8735,青岛市,黄岛区4号,颗粒物(PM10),51,51,54,31,28,34,,,,53,43,15,13,1.3,1.1
2025-01-04T0700,3362A,120.5014,36.4034,青岛市,即墨2号,颗粒物(PM10),60,70,88,40,51,21,,,,56,55,15,15,1.2,1.1
2025-01-04T0700,3642A,120.3503,36.0736,青岛市,市北区南部,颗粒物(PM10),51,52,66,34,33,22,,,,69,60,14,13,1.2,1.1
2025-01-04T0700,3643A,120.3948,36.1805,青岛市,李沧区北部,,49,48,72,34,47,31,,,,53,59,18,17,1.6,1.4
2025-01-04T0700,1702A,113.0426,23.691,清远市,环保大楼,细颗粒物(PM2.5),54,56,55,38,36,94,,,,14,15,8,8,0.9,0.8
2025-01-04T0700,1703A,113.0208,23.7106,清远市,凤城街办,细颗粒物(PM2.5),58,60,56,41,39,100,,,,18,22,11,11,0.7,0.7
2025-01-04T0700,3025A,113.0477,23.6344,清远市,技师学院,颗粒物(PM10),55,59,67,35,36,81,,,,24,30,11,11,0.7,0.7
2025-01-04T0700,3318A,112.9903,23.7403,清远市,清新太和,颗粒物(PM10),54,57,53,33,32,83,,,,31,18,12,12,0.6,0.6
2025-01-04T0700,3455A,113.076,23.7198,清远市,清城东城,颗粒物(PM10),51,51,54,35,35,95,,,,15,15,16,15,0.7,0.7
2025-01-04T0700,2661A,107.6325,35.7357,庆阳市,庆阳五中,颗粒物(PM10),60,70,77,34,45,62,,,,21,22,7,9,0.9,0.8
2025-01-04T0700,2662A,107.6364,35.7067,庆阳市,市环保局,颗粒物(PM10),57,64,77,31,44,57,,,,28,27,10,12,0.7,0.7
2025-01-04T0700,1916A,103.7897,25.5035,曲靖市,环境监测站,,46,41,36,32,22,19,,,,29,20,18,7,0.8,0.8
2025-01-04T0700,1917A,103.8,25.5364,曲靖市,烟厂办公区,颗粒物(PM10),54,58,42,34,26,6,,,,42,19,6,4,0.4,0.3
2025-01-04T0700,3376A,103.7947,25.462,曲靖市,南苑二区,颗粒物(PM10),54,57,35,27,22,34,,,,21,13,18,6,0.9,0.7
2025-01-04T0700,3377A,103.7444,25.5261,曲靖市,曲靖师范学院,细颗粒物(PM2.5),69,53,40,50,31,13,,,,39,20,14,10,0.8,0.7
2025-01-04T0700,1264A,118.8692,28.9398,衢州市,环保大楼,细颗粒物(PM2.5),112,130,123,84,76,7,,,,72,51,5,5,0.6,0.5
2025-01-04T0700,1265A,118.8709,28.9666,衢州市,实验学校,细颗粒物(PM2.5),117,111,105,88,78,7,,,,65,46,4,5,0.8,0.6
2025-01-04T0700,1266A,118.8621,28.9808,衢州市,衢州学院,细颗粒物(PM2.5),104,105,104,78,73,13,,,,57,46,4,6,0.4,0.4
2025-01-04T0700,1611A,118.5819,24.9117,泉州市,涂山街,,38,38,44,21,19,90,,,,15,12,1,2,0.3,0.3
2025-01-04T0700,1612A,118.5972,24.8978,泉州市,津头埔,,37,37,45,20,20,90,,,,16,16,2,2,0.3,0.3
2025-01-04T0700,1613A,118.6663,24.9424,泉州市,万安,,38,38,47,18,19,106,,,,11,14,1,2,0.4,0.3
2025-01-04T0700,3529A,118.6333,24.9264,泉州市,城华南路,,39,39,46,18,19,100,,,,6,13,2,3,0.3,0.3
2025-01-04T0700,2626A,88.8876,29.2718,日喀则市,日喀则监测站,,37,37,46,22,30,5,,,,35,33,4,4,0.7,1.1
2025-01-04T0700,3726A,88.8781,29.2426,日喀则市,林业技术推广中心,,14,14,25,8,12,30,,,,6,10,7,8,0.6,0.6
2025-01-04T0700,1659A,119.471,35.4209,日照市,监测站,颗粒物(PM10),58,66,70,40,40,2,,,,58,52,10,11,1.7,1.2
2025-01-04T0700,1660A,119.523,35.4216,日照市,市政府广场,,36,36,54,24,28,28,,,,54,50,10,9,1.2,1.2
2025-01-04T0700,1661A,119.5587,35.4044,日照市,港务局,颗粒物(PM10),52,53,62,30,32,7,,,,76,63,4,4,1.1,1
2025-01-04T0700,3507A,119.5328,35.4625,日照市,职业技术学院,"颗粒物(PM10),细颗粒物(PM2.5)",52,53,54,36,29,11,,,,63,53,10,8,1.2,0.9
2025-01-04T0700,3604A,119.3266,35.1044,日照市,岚山环保分局,,48,48,60,31,36,25,,,,69,47,13,18,1.3,1.4
2025-01-04T0700,1835A,111.1922,34.7752,三门峡市,市政府,细颗粒物(PM2.5),125,118,142,95,112,2,,,,57,54,12,15,1.4,1.3
2025-01-04T0700,1836A,111.1587,34.7942,三门峡市,开发区,细颗粒物(PM2.5),144,152,172,110,116,3,,,,43,43,2,8,1.2,1.2
2025-01-04T0700,1838A,111.143,34.7955,三门峡市,风景区,细颗粒物(PM2.5),139,137,156,106,106,0,,,,49,44,8,14,1.3,1.1
2025-01-04T0700,3039A,111.1911,34.7829,三门峡市,三门峡市第一小学,细颗粒物(PM2.5),119,132,149,90,113,4,,,,55,50,10,13,1.2,1.2
2025-01-04T0700,3598A,111.1,34.7167,三门峡市,富达温泉假日酒店,细颗粒物(PM2.5),178,191,165,134,124,1,,,,67,60,14,14,1.6,1.3
2025-01-04T0700,2324A,117.6211,26.2625,三明市,三钢,细颗粒物(PM2.5),57,43,44,40,35,42,,,,29,29,3,4,0.5,0.7
2025-01-04T0700,2325A,117.635,26.2714,三明市,三明二中,,32,24,42,22,31,49,,,,20,27,2,3,0.5,0.5
2025-01-04T0700,2326A,117.6028,26.2378,三明市,三元区政府,,40,40,53,28,30,23,,,,26,32,4,5,1.0,0.8
2025-01-04T0700,1876A,109.5078,18.2489,三亚市,河东子站,,42,40,45,24,28,132,,,,6,9,4,5,0.5,0.5
2025-01-04T0700,1877A,109.4964,18.2681,三亚市,河西子站,,40,35,43,22,27,125,,,,8,12,5,5,0.5,0.5
2025-01-04T0700,2624A,91.7608,29.2313,山南市,山南监测站,,16,16,30,9,18,20,,,,20,24,4,5,0.4,0.6
2025-01-04T0700,2625A,91.7706,29.2436,山南市,山南人民医院,,18,18,30,7,15,20,,,,20,25,2,3,0.5,0.6
2025-01-04T0700,1674A,116.6794,23.3667,汕头市,金平子站,,35,35,54,22,30,70,,,,28,24,7,7,0.9,0.8
2025-01-04T0700,1675A,116.7244,23.3633,汕头市,龙湖子站,,31,31,54,18,25,80,,,,19,18,4,6,0.5,0.5
2025-01-04T0700,1676A,116.7258,23.2775,汕头市,濠江子站,,37,37,46,24,32,90,,,,12,14,4,5,0.6,0.7
