timepoint,stationcode,longitude,latitude,area,positionname,primarypollutant,aqi,pm10,pm10_24h,pm2_5,pm2_5_24h,o3,o3_24h,o3_8h,o3_8h_24h,no2,no2_24h,so2,so2_24h,co,co_24h
2024-11-07T0400,2566A,102.1879,31.914,阿坝藏族羌族自治州,州农科所,,16,11,19,11,9,19,,,,25,12,7,10,0,0.1
2024-11-07T0400,2568A,102.2502,31.8896,阿坝藏族羌族自治州,马师校,,13,11,14,9,18,6,,,,24,14,4,4,0.4,0.3
2024-11-07T0400,3994A,102.2165,31.9024,阿坝藏族羌族自治州,马尔康中学西区,,17,17,18,9,13,22,,,,16,11,6,6,0.5,0.5
2024-11-07T0400,2695A,80.292,41.1694,阿克苏地区,电视台,颗粒物(PM10),89,127,137,47,43,53,,,,31,48,6,7,0.7,0.9
2024-11-07T0400,2696A,80.2613,41.1551,阿克苏地区,艺术中心,颗粒物(PM10),80,109,133,42,38,61,,,,24,47,3,4,0.9,1
2024-11-07T0400,2204A,105.6467,38.8363,阿拉善盟,西城区西花园,,35,35,43,24,25,92,,,,10,20,10,12,0.6,0.7
2024-11-07T0400,2205A,105.6985,38.8411,阿拉善盟,蒙二幼,,,,37,,16,,,89,,,17,,9,,0.6
2024-11-07T0400,2206A,105.724,38.8516,阿拉善盟,环保局新楼,,31,30,30,15,14,98,,,,6,11,10,10,0.4,0.5
2024-11-07T0400,2708A,88.1264,47.8517,阿勒泰地区,市站,,32,32,29,3,7,38,,,,6,17,7,8,0.5,0.4
2024-11-07T0400,2630A,80.1161,32.5,阿里地区,阿里监测站,,22,22,21,6,8,38,,,,18,16,6,9,0.6,0.6
2024-11-07T0400,3192A,80.0903,32.5028,阿里地区,阿里藏医院,,20,20,17,12,7,40,,,,21,14,10,8,0.7,0.5
2024-11-07T0400,2642A,109.0318,32.6537,安康市,香溪洞,,35,35,35,21,21,63,,,,9,13,9,9,0.3,0.4
2024-11-07T0400,2644A,109.0072,32.6975,安康市,汉滨区检察院,,43,43,45,28,31,22,,,,17,21,6,8,0.4,0.5
2024-11-07T0400,4054A,109.0325,32.6913,安康市,市邮政管理局,颗粒物(PM10),52,53,49,33,27,10,,,,30,22,11,10,0.6,0.6
2024-11-07T0400,2291A,117.0809,30.5177,安庆市,环科院,颗粒物(PM10),51,51,53,29,30,59,,,,30,28,11,12,0.6,0.6
2024-11-07T0400,2292A,117.0331,30.5119,安庆市,马山宾馆,,48,48,54,28,31,76,,,,28,29,10,10,0.4,0.5
2024-11-07T0400,2294A,116.9896,30.6145,安庆市,安庆大学,颗粒物(PM10),56,61,50,39,27,56,,,,21,18,10,11,0.5,0.5
2024-11-07T0400,3173A,117.0598,30.5351,安庆市,市人大,,49,49,54,27,30,64,,,,37,36,13,14,0.4,0.5
2024-11-07T0400,3122A,105.9606,26.2611,安顺市,伍家关,,,,47,,42,,,66,,,14,,19,,0.8
2024-11-07T0400,3123A,105.9408,26.2431,安顺市,凤凰山,细颗粒物(PM2.5),52,46,57,36,47,93,,,,8,17,14,21,0.5,0.6
2024-11-07T0400,3124A,105.9439,26.2564,安顺市,金钟山,,43,40,57,30,49,97,,,,7,14,12,23,0.6,0.7
2024-11-07T0400,3125A,105.8983,26.2481,安顺市,娄家坡,,48,44,58,33,48,84,,,,8,16,16,21,0.5,0.7
2024-11-07T0400,1818A,114.4839,36.0621,安阳市,棉研所,细颗粒物(PM2.5),108,123,99,81,61,33,,,,45,42,8,9,0.5,0.5
2024-11-07T0400,1819A,114.3551,36.1017,安阳市,红庙街,细颗粒物(PM2.5),104,94,83,78,60,48,,,,37,33,5,5,0.5,0.5
2024-11-07T0400,1820A,114.361,36.0681,安阳市,银杏小区,细颗粒物(PM2.5),102,90,82,76,57,40,,,,49,36,4,4,0.7,0.7
2024-11-07T0400,3141A,114.3922,36.0878,安阳市,信访局,细颗粒物(PM2.5),105,114,91,79,62,44,,,,33,32,7,6,0.5,0.5
2024-11-07T0400,3669A,114.4705,36.0637,安阳市,左辅环卫站,细颗粒物(PM2.5),110,123,120,83,73,34,,,,34,32,2,4,0.6,0.6
2024-11-07T0400,3703A,114.2917,36.0949,安阳市,安钢职工学校,细颗粒物(PM2.5),119,121,96,90,71,32,,,,52,36,4,6,0.5,0.5
2024-11-07T0400,1748A,123.044,41.1196,鞍山市,深沟寺,,33,33,40,18,22,43,,,,16,27,9,8,0.7,0.6
2024-11-07T0400,1749A,123.011,41.0931,鞍山市,太阳城,,34,34,35,21,22,55,,,,12,26,8,9,0.4,0.5
2024-11-07T0400,1750A,123.0485,41.1442,鞍山市,太平,,36,36,53,18,30,31,,,,31,36,14,16,0.6,0.7
2024-11-07T0400,1751A,122.9642,41.0971,鞍山市,铁西三道街,,49,49,70,21,37,27,,,,28,45,13,17,0.8,1
2024-11-07T0400,1752A,122.9341,41.0833,鞍山市,铁西工业园区,,45,45,94,16,55,28,,,,27,50,11,21,1.0,1.5
2024-11-07T0400,1753A,123.022,41.0821,鞍山市,明达新区,,33,33,36,18,21,50,,,,10,24,10,10,0.6,0.7
2024-11-07T0400,1754A,123.1289,41.0228,鞍山市,千山,,,,18,,8,,,41,,,12,,3,,0.5
2024-11-07T0400,2195A,107.4212,40.761,巴彦淖尔市,附二中,细颗粒物(PM2.5),78,100,138,57,69,0,,,,58,58,7,16,0.8,0.9
2024-11-07T0400,2196A,107.37,40.7372,巴彦淖尔市,市环保大楼,细颗粒物(PM2.5),85,92,114,63,58,4,,,,54,53,4,7,0.7,0.9
2024-11-07T0400,1956A,86.1472,41.7538,巴音郭楞蒙古自治州,孔雀公园,颗粒物(PM10),85,119,133,32,34,57,,,,48,50,4,5,0.5,0.6
2024-11-07T0400,1957A,86.1972,41.7166,巴音郭楞蒙古自治州,棉纺厂,颗粒物(PM10),107,163,198,40,44,76,,,,25,41,3,3,0.4,0.5
2024-11-07T0400,1958A,86.2357,41.7173,巴音郭楞蒙古自治州,经济开发区,颗粒物(PM10),90,129,174,35,40,86,,,,13,27,4,3,0.5,0.4
2024-11-07T0400,2914A,106.7677,31.8794,巴中市,苏山坪,,35,30,37,24,28,56,,,,7,10,4,4,0.4,0.4
2024-11-07T0400,3182A,106.7656,31.8545,巴中市,丽阳花园,,45,40,47,31,36,5,,,,27,32,3,4,0.6,0.7
2024-11-07T0400,3183A,106.7418,31.8654,巴中市,圣泉水务公司,,40,33,34,28,26,13,,,,21,26,4,4,0.5,0.5
2024-11-07T0400,3616A,106.7616,31.8344,巴中市,市中心医院,细颗粒物(PM2.5),53,51,54,37,37,2,,,,28,32,4,4,0.6,0.7
2024-11-07T0400,2235A,122.7911,45.6077,白城市,洮北区环保局,,20,20,27,13,22,41,,,,11,19,5,6,0.1,0.3
2024-11-07T0400,2236A,122.8738,45.5725,白城市,市环保局,,20,19,38,14,20,46,,,,9,21,3,4,0.4,0.4
2024-11-07T0400,2231A,126.4219,41.9171,白山市,喜丰,,45,45,40,13,14,12,,,,24,21,12,10,0.5,0.5
2024-11-07T0400,2232A,126.4077,41.9419,白山市,环保局,,40,40,50,10,17,22,,,,15,16,5,5,0.5,0.6
2024-11-07T0400,2647A,104.1724,36.5446,白银市,第三小学,,43,43,71,30,51,23,,,,30,38,8,23,1.2,1.2
2024-11-07T0400,2648A,104.1465,36.5482,白银市,动力公司,,39,32,72,27,54,27,,,,17,30,3,15,1.6,1.3
2024-11-07T0400,2512A,106.6103,23.9011,百色市,市监测站,,46,42,50,32,35,28,,,,14,17,4,6,0.7,0.8
2024-11-07T0400,2513A,106.6538,23.8859,百色市,市中心血站,细颗粒物(PM2.5),63,69,64,45,38,5,,,,48,30,6,6,0.9,0.9
2024-11-07T0400,3406A,106.6085,23.8798,百色市,祈福高中,细颗粒物(PM2.5),57,62,65,40,37,26,,,,21,23,4,4,0.7,0.8
2024-11-07T0400,2270A,117.396,32.939,蚌埠市,工人疗养院,,48,48,67,26,38,38,,,,45,37,9,9,0.4,0.5
2024-11-07T0400,2271A,117.3605,32.9427,蚌埠市,百货大楼,,44,44,64,21,34,49,,,,31,38,6,7,0.3,0.4
2024-11-07T0400,2273A,117.4185,32.8911,蚌埠市,蚌埠学院,,36,36,64,24,39,60,,,,24,35,6,8,0.3,0.3
2024-11-07T0400,2274A,117.3533,32.9673,蚌埠市,淮上区政府,颗粒物(PM10),53,56,74,33,43,38,,,,48,38,8,8,0.3,0.4
2024-11-07T0400,2275A,117.3145,32.8977,蚌埠市,高新区,,39,39,58,25,34,68,,,,21,38,6,9,0.3,0.3
2024-11-07T0400,3715A,117.3092,32.9314,蚌埠市,蚌埠田家炳中学,,40,40,70,20,38,64,,,,19,27,6,7,0.3,0.4
2024-11-07T0400,1585A,109.8756,40.6532,包头市,市环境监测站,颗粒物(PM10),63,76,72,35,32,6,,,,57,62,13,26,1.4,1.3
2024-11-07T0400,1587A,109.9991,40.5842,包头市,包头八中,颗粒物(PM10),78,106,81,54,40,5,,,,59,59,20,28,3.6,1.6
2024-11-07T0400,1588A,109.8538,40.6821,包头市,青山宾馆,细颗粒物(PM2.5),65,62,80,47,59,4,,,,51,62,12,24,1.3,1.5
2024-11-07T0400,1589A,109.8642,40.6288,包头市,惠龙物流,颗粒物(PM10),69,88,68,40,31,4,,,,65,64,18,23,1.3,1.2
2024-11-07T0400,1590A,110.0377,40.5546,包头市,东河鸿龙湾,颗粒物(PM10),72,93,79,49,34,6,,,,48,49,12,16,2.1,1.1
2024-11-07T0400,3283A,109.9154,40.5685,包头市,滨河大厦,颗粒物(PM10),58,66,54,34,27,5,,,,66,57,19,19,2.0,1.1
2024-11-07T0400,3419A,109.9447,40.6261,包头市,包头市委党校,,43,43,63,20,32,7,,,,63,62,10,29,1.4,1.4
2024-11-07T0400,3683A,109.8331,40.6576,包头市,昆区政府,颗粒物(PM10),63,76,72,43,47,4,,,,58,62,17,29,1.5,1.5
2024-11-07T0400,1930A,107.185,34.3063,宝鸡市,庙沟村,细颗粒物(PM2.5),114,100,100,86,67,48,,,,19,23,8,8,0.8,0.7
2024-11-07T0400,1931A,107.0708,34.3017,宝鸡市,竹园沟,细颗粒物(PM2.5),118,,92,89,86,18,,,,13,19,6,8,0.8,0.7
2024-11-07T0400,1932A,107.1906,34.3672,宝鸡市,三陆医院,细颗粒物(PM2.5),160,,119,122,112,11,,,,35,42,10,10,0.9,0.9
2024-11-07T0400,1933A,107.1431,34.3547,宝鸡市,监测站,细颗粒物(PM2.5),130,,107,99,96,10,,,,23,31,7,9,0.8,0.8
2024-11-07T0400,1934A,107.1186,34.3739,宝鸡市,技工学校,细颗粒物(PM2.5),137,,103,104,97,24,,,,26,37,9,11,1.0,1
2024-11-07T0400,1935A,107.3906,34.3528,宝鸡市,陈仓区环保局家属楼,细颗粒物(PM2.5),165,136,124,125,106,2,,,,43,46,6,9,0.8,0.9
2024-11-07T0400,1936A,107.2058,34.3497,宝鸡市,文理学院,细颗粒物(PM2.5),139,,102,106,93,12,,,,30,35,9,10,0.8,0.6
2024-11-07T0400,1937A,107.2386,34.3622,宝鸡市,三迪小学,细颗粒物(PM2.5),145,,115,111,104,9,,,,39,50,9,11,0.9,1
2024-11-07T0400,1051A,115.493,38.8632,保定市,游泳馆,细颗粒物(PM2.5),123,137,107,93,67,5,,,,71,60,8,11,0.6,0.8
2024-11-07T0400,1052A,115.5213,38.8959,保定市,华电二区,细颗粒物(PM2.5),130,132,92,99,62,1,,,,66,57,8,8,0.8,0.7
2024-11-07T0400,1053A,115.4713,38.9108,保定市,接待中心,细颗粒物(PM2.5),103,123,97,77,56,3,,,,67,54,5,8,0.5,0.6
2024-11-07T0400,1054A,115.4612,38.8416,保定市,地表水厂,细颗粒物(PM2.5),123,116,111,93,66,3,,,,71,60,3,7,0.5,0.5
2024-11-07T0400,3581A,115.31981,38.95208,保定市,满城区生态环境分局,细颗粒物(PM2.5),94,119,106,70,60,2,,,,59,61,4,7,0.7,0.7
2024-11-07T0400,3582A,115.47694,38.76408,保定市,清苑区第二中学,细颗粒物(PM2.5),97,114,102,72,59,5,,,,71,55,5,7,0.6,0.7
2024-11-07T0400,3583A,115.62909,39.02311,保定市,徐水物探局,细颗粒物(PM2.5),117,132,96,88,53,2,,,,61,55,10,7,0.7,1
2024-11-07T0400,4004A,115.4202,38.8656,保定市,双鹰农机,细颗粒物(PM2.5),130,149,108,99,63,4,,,,52,51,6,8,0.7,0.6
2024-11-07T0400,4034A,115.5150,38.8590,保定市,植保所站,细颗粒物(PM2.5),160,164,110,122,67,3,,,,64,53,6,5,0.8,0.7
2024-11-07T0400,2594A,99.1678,25.1081,保山市,市环境监测站,,14,14,20,3,8,40,,,,12,12,5,5,0.5,0.5
2024-11-07T0400,2595A,99.1711,25.1328,保山市,市环保局,,14,14,21,8,11,44,,,,4,8,5,5,0.4,0.5
2024-11-07T0400,1866A,109.2262,21.588,北海市,牛尾岭水库,,,55,49,52,47,51,,,,,9,5,6,0.7,0.7
2024-11-07T0400,1867A,109.1436,21.4086,北海市,海滩公园,细颗粒物(PM2.5),80,75,64,59,47,112,,,,13,13,11,10,0.9,0.9
2024-11-07T0400,1868A,109.0981,21.4661,北海市,新市环保局,细颗粒物(PM2.5),83,79,67,61,53,105,,,,13,14,7,8,0.8,0.8
2024-11-07T0400,1869A,109.1778,21.5233,北海市,北海工业园,细颗粒物(PM2.5),85,79,71,63,51,79,,,,18,14,7,9,0.7,0.7
2024-11-07T0400,3400A,109.1911,21.4415,北海市,龙潭自来水厂,细颗粒物(PM2.5),95,71,61,71,53,54,,,,20,14,7,8,0.8,0.8
2024-11-07T0400,1001A,116.3621,39.8784,北京市,万寿西宫,颗粒物(PM10),73,95,85,50,45,0,,,,75,67,4,4,1.0,0.9
2024-11-07T0400,1002A,116.2202,40.2915,北京市,定陵,细颗粒物(PM2.5),59,66,48,42,27,15,,,,26,32,2,3,0.6,0.5
2024-11-07T0400,1003A,116.4174,39.9289,北京市,东四,颗粒物(PM10),75,100,85,54,45,1,,,,70,61,9,8,1.0,0.8
2024-11-07T0400,1004A,116.4072,39.8863,北京市,天坛,细颗粒物(PM2.5),74,76,70,54,48,0,,,,43,47,1,3,1.2,0.8
2024-11-07T0400,1005A,116.462,39.9365,北京市,农展馆,细颗粒物(PM2.5),84,110,84,62,45,1,,,,71,60,2,3,1.1,0.8
2024-11-07T0400,1006A,116.3392,39.9295,北京市,官园,颗粒物(PM10),72,94,82,44,42,0,,,,68,63,7,8,0.9,0.8
2024-11-07T0400,1007A,116.2878,39.9611,北京市,海淀万柳,颗粒物(PM10),66,82,77,44,38,7,,,,43,45,4,4,0.7,0.7
2024-11-07T0400,1008A,116.6636,40.135,北京市,顺义新城,颗粒物(PM10),63,76,60,40,33,1,,,,54,44,3,3,0.6,0.5
2024-11-07T0400,1009A,116.6275,40.3275,北京市,怀柔镇,"颗粒物(PM10),细颗粒物(PM2.5)",55,60,43,39,24,19,,,,23,30,2,3,0.3,0.4
2024-11-07T0400,1010A,116.2296,40.217,北京市,昌平镇,颗粒物(PM10),63,76,63,43,29,16,,,,30,43,4,6,0.5,0.5
2024-11-07T0400,1011A,116.3966,39.9821,北京市,奥体中心,颗粒物(PM10),68,86,91,45,45,2,,,,67,66,4,4,1.1,1
2024-11-07T0400,1012A,116.184,39.9136,北京市,古城,颗粒物(PM10),78,105,93,56,45,9,,,,35,43,5,6,1.4,1
2024-11-07T0400,3281A,115.9718,40.4529,北京市,延庆夏都,细颗粒物(PM2.5),63,71,51,45,28,11,,,,27,33,3,2,0.5,0.4
2024-11-07T0400,3417A,117.0709,40.1465,北京市,平谷新城,"颗粒物(PM10),细颗粒物(PM2.5)",59,68,52,42,30,4,,,,23,26,3,3,0.6,0.5
2024-11-07T0400,3418A,116.8336,40.4095,北京市,密云新城,颗粒物(PM10),64,78,53,37,22,2,,,,64,34,2,3,0.6,0.4
2024-11-07T0400,3671A,116.088,39.9726,北京市,门头沟三家店,颗粒物(PM10),67,83,77,41,34,2,,,,51,49,5,6,0.5,0.5
2024-11-07T0400,3672A,116.1541,39.8204,北京市,丰台云岗,"颗粒物(PM10),细颗粒物(PM2.5)",68,85,77,49,41,0,,,,59,57,3,4,0.6,0.5
2024-11-07T0400,3673A,116.6804,39.9081,北京市,通州东关,细颗粒物(PM2.5),105,156,108,79,53,2,,,,72,63,4,4,0.9,0.7
2024-11-07T0400,3674A,115.9577,39.7603,北京市,房山燕山,细颗粒物(PM2.5),82,78,65,60,40,19,,,,19,28,1,3,0.6,0.4
2024-11-07T0400,3675A,116.4672,39.7733,北京市,大兴旧宫,细颗粒物(PM2.5),85,113,78,63,44,1,,,,71,49,3,3,0.8,0.5
2024-11-07T0400,3694A,115.986,40.4563,北京市,延庆石河营,颗粒物(PM10),58,65,48,40,25,3,,,,31,36,3,3,0.5,0.4
2024-11-07T0400,3695A,116.6151,40.3053,北京市,怀柔新城,细颗粒物(PM2.5),58,62,42,41,26,19,,,,23,26,3,3,0.5,0.4
2024-11-07T0400,3696A,116.2545,39.8768,北京市,丰台小屯,颗粒物(PM10),70,90,93,46,44,2,,,,68,70,2,3,0.8,0.8
2024-11-07T0400,3697A,116.84,40.3844,北京市,密云镇,颗粒物(PM10),62,74,58,38,26,0,,,,48,39,3,3,0.5,0.5
2024-11-07T0400,1761A,123.8275,41.3064,本溪市,大峪,,36,36,37,14,15,8,,,,40,28,10,10,0.8,0.6
2024-11-07T0400,1762A,123.7567,41.3325,本溪市,溪湖,颗粒物(PM10),55,60,45,25,20,6,,,,41,30,9,9,1.1,0.7
2024-11-07T0400,1763A,123.7169,41.3094,本溪市,彩屯,颗粒物(PM10),52,53,39,31,24,6,,,,44,32,10,8,1.4,0.7
2024-11-07T0400,1764A,123.7669,41.2864,本溪市,东明,,41,41,45,17,21,6,,,,46,37,8,8,0.8,0.8
2024-11-07T0400,1765A,123.7992,41.2664,本溪市,新立屯,,20,18,37,14,15,5,,,,40,33,5,5,1.0,0.8
2024-11-07T0400,1766A,123.8142,41.3472,本溪市,威宁,颗粒物(PM10),52,54,59,19,22,8,,,,32,30,8,8,1.2,1
2024-11-07T0400,2587A,105.2864,27.3125,毕节市,八中,细颗粒物(PM2.5),77,68,60,56,46,77,,,,13,17,8,8,0.6,0.7
2024-11-07T0400,2588A,105.31,27.2944,毕节市,师专,细颗粒物(PM2.5),74,65,50,54,40,80,,,,13,16,10,11,0.6,0.7
2024-11-07T0400,3537A,105.3631,27.3533,毕节市,长征村,细颗粒物(PM2.5),72,65,57,52,48,75,,,,11,14,9,11,0.7,0.7
2024-11-07T0400,1629A,118.0018,37.3617,滨州市,第二水厂,颗粒物(PM10),62,73,63,36,31,2,,,,78,53,16,13,0.7,0.5
2024-11-07T0400,1630A,117.9776,37.393,滨州市,北中新校,颗粒物(PM10),70,90,65,39,30,4,,,,78,56,13,8,0.9,0.7
2024-11-07T0400,3514A,117.9378,37.3956,滨州市,中海酒店,细颗粒物(PM2.5),70,85,68,51,38,13,,,,72,47,13,16,0.8,0.7
2024-11-07T0400,3515A,117.9378,37.3553,滨州市,开发区一中,颗粒物(PM10),73,95,69,44,32,18,,,,84,56,21,14,0.9,0.6
2024-11-07T0400,3516A,118.0917,37.694,滨州市,金海六路,颗粒物(PM10),70,90,65,48,31,4,,,,66,44,11,9,0.6,0.5
2024-11-07T0400,4028A,117.9956,37.3753,滨州市,滨州市西街道办事处,颗粒物(PM10),65,80,62,44,37,2,,,,75,55,14,11,0.9,0.7
2024-11-07T0400,2311A,115.8072,33.8399,亳州市,污水处理厂,细颗粒物(PM2.5),72,74,83,52,53,40,,,,24,29,9,12,0.4,0.5
2024-11-07T0400,2312A,115.7789,33.8518,亳州市,三国揽胜宫,细颗粒物(PM2.5),70,74,84,51,53,47,,,,19,22,6,7,0.5,0.5
2024-11-07T0400,3332A,115.7633,33.8034,亳州市,亳州学院,颗粒物(PM10),58,65,81,35,40,60,,,,21,27,4,7,0.3,0.5
2024-11-07T0400,2693A,82.0485,44.8556,博尔塔拉蒙古自治州,市党校,颗粒物(PM10),69,88,59,46,31,8,,,,24,24,6,9,0.6,0.5
2024-11-07T0400,2694A,82.0806,44.8969,博尔塔拉蒙古自治州,市环保局,颗粒物(PM10),58,66,62,28,28,23,,,,24,26,3,6,0.7,0.6
2024-11-07T0400,1071A,116.8842,38.2991,沧州市,沧县城建局,细颗粒物(PM2.5),64,76,65,46,38,16,,,,50,45,19,10,0.6,0.6
2024-11-07T0400,1072A,116.8584,38.3254,沧州市,电视转播站,颗粒物(PM10),58,65,59,39,33,18,,,,56,48,12,9,0.6,0.5
2024-11-07T0400,1073A,116.8709,38.3228,沧州市,市环保局,细颗粒物(PM2.5),59,58,62,42,42,4,,,,63,58,11,7,0.6,0.6
2024-11-07T0400,3324A,116.8136,38.3004,沧州市,河北水利电力学院,细颗粒物(PM2.5),70,61,63,51,40,25,,,,56,46,14,11,0.5,0.4
2024-11-07T0400,2622A,97.1806,31.1273,昌都市,昌都监测站,,14,11,14,3,9,44,,,,4,13,7,8,0.5,0.6
2024-11-07T0400,3719A,97.1714,31.1406,昌都市,昌都会议中心,,16,6,10,3,6,49,,,,2,6,6,7,0.4,0.5
2024-11-07T0400,2690A,88.1236,43.8886,昌吉回族自治州,天山天池,,,,10,0,4,64,,,,3,5,8,9,0.5,0.5
2024-11-07T0400,2692A,87.2717,44.0297,昌吉回族自治州,新区政务中心,细颗粒物(PM2.5),97,124,98,72,51,10,,,,52,47,7,9,0.8,0.8
2024-11-07T0400,3613A,87.3095,44.0142,昌吉回族自治州,亚心广场,细颗粒物(PM2.5),100,132,112,75,57,12,,,,56,49,5,7,0.9,0.9
2024-11-07T0400,1119A,125.3325,43.9166,长春市,食品厂,颗粒物(PM10),55,60,50,36,30,11,,,,42,39,8,10,0.4,0.4
2024-11-07T0400,1120A,125.2863,43.9027,长春市,客车厂,细颗粒物(PM2.5),53,42,41,37,32,24,,,,34,37,10,10,0.1,0.3
2024-11-07T0400,1121A,125.2841,43.8463,长春市,邮电学院,细颗粒物(PM2.5),54,48,43,38,27,24,,,,34,34,10,22,0.5,0.3
2024-11-07T0400,1122A,125.3716,43.8772,长春市,劳动公园,,50,49,40,35,27,26,,,,32,31,10,13,0.8,0.6
2024-11-07T0400,1123A,125.3297,43.8805,长春市,园林处,颗粒物(PM10),53,55,39,31,22,19,,,,37,30,9,15,0.5,0.4
2024-11-07T0400,1124A,125.4605,43.79,长春市,净月潭,,50,50,30,35,21,15,,,,19,17,7,7,0.4,0.3
2024-11-07T0400,1125A,125.7194,43.515,长春市,甩湾子,,,,36,28,28,9,,,,17,18,6,7,0.9,0.9
2024-11-07T0400,1126A,125.3863,43.8447,长春市,经开区环卫处,,48,47,42,33,23,23,,,,30,34,10,12,0.5,0.5
2024-11-07T0400,1127A,125.245,43.7783,长春市,高新区管委会,细颗粒物(PM2.5),83,102,59,61,41,11,,,,43,33,8,8,0.8,0.7
2024-11-07T0400,1128A,125.1761,43.8325,长春市,岱山公园,颗粒物(PM10),62,73,70,42,48,8,,,,46,36,8,8,0.5,0.6
2024-11-07T0400,1335A,113.0833,28.2325,长沙市,经开区环保局,颗粒物(PM10),69,87,95,34,58,59,,,,31,38,2,5,0.5,0.6
2024-11-07T0400,1336A,112.8872,28.2189,长沙市,高开区环保局,细颗粒物(PM2.5),112,113,99,84,78,45,,,,43,27,6,7,0.6,0.6
2024-11-07T0400,1337A,113.0792,28.2053,长沙市,马坡岭,细颗粒物(PM2.5),83,102,90,61,70,54,,,,35,40,8,6,0.6,0.7
2024-11-07T0400,1338A,112.9394,28.19,长沙市,湖南师范大学,细颗粒物(PM2.5),117,125,108,88,68,39,,,,45,24,4,6,0.7,0.7
2024-11-07T0400,1339A,113.0178,28.1322,长沙市,雨花区环保局,细颗粒物(PM2.5),78,67,86,57,67,10,,,,90,32,6,6,0.6,0.6
2024-11-07T0400,1340A,112.9792,28.2597,长沙市,伍家岭,细颗粒物(PM2.5),90,116,108,67,70,3,,,,66,37,4,5,0.8,0.8
2024-11-07T0400,1341A,113.0014,28.1944,长沙市,火车新站,细颗粒物(PM2.5),92,96,90,68,65,29,,,,66,31,4,6,0.7,0.7
2024-11-07T0400,1342A,112.9844,28.1178,长沙市,天心区环保局,细颗粒物(PM2.5),65,65,99,47,58,34,,,,78,37,7,6,0.5,0.5
2024-11-07T0400,1343A,112.8908,28.1308,长沙市,湖南中医药大学,细颗粒物(PM2.5),189,,110,142,93,52,,,,35,30,8,9,0.9,0.8
2024-11-07T0400,1344A,112.9581,28.3611,长沙市,沙坪,"颗粒物(PM10),细颗粒物(PM2.5)",60,70,78,43,48,58,,,,14,15,7,10,0.5,0.6
2024-11-07T0400,1727A,113.1147,36.1547,长治市,清华站,细颗粒物(PM2.5),92,80,69,68,44,63,,,,32,31,9,11,0.5,0.6
2024-11-07T0400,1728A,113.1031,36.1989,长治市,监测站,细颗粒物(PM2.5),92,72,63,68,46,72,,,,18,26,11,13,0.7,0.8
2024-11-07T0400,1730A,113.0886,36.2125,长治市,审计局,细颗粒物(PM2.5),98,,72,73,51,95,,,,14,26,8,8,0.7,0.8
2024-11-07T0400,1731A,113.0844,36.1856,长治市,长治八中,颗粒物(PM10),68,85,83,45,36,88,,,,23,31,9,10,0.7,0.7
2024-11-07T0400,2845A,113.1569,36.1911,长治市,德盛苑,细颗粒物(PM2.5),98,,55,73,42,105,,,,18,24,6,8,0.7,0.7
2024-11-07T0400,3568A,113.06,36.0464,长治市,向阳小学,细颗粒物(PM2.5),89,104,78,66,49,89,,,,25,27,14,14,0.6,0.5
2024-11-07T0400,3569A,112.8792,36.3144,长治市,屯留一中,细颗粒物(PM2.5),64,57,67,46,49,8,,,,50,30,6,8,1.3,1.4
2024-11-07T0400,3570A,113.235,36.3489,长治市,潞城四中,细颗粒物(PM2.5),105,88,79,79,53,70,,,,29,34,9,10,0.7,0.9
2024-11-07T0400,1854A,111.6975,28.9703,常德市,市二中,细颗粒物(PM2.5),89,110,109,66,62,31,,,,37,33,6,7,0.8,0.8
2024-11-07T0400,1857A,111.7158,29.1456,常德市,白鹤山,,,,,,,,,,,,,,,,
2024-11-07T0400,3138A,111.7153,29.0289,常德市,武陵区永安,细颗粒物(PM2.5),92,112,96,68,55,66,,,,30,30,17,10,1.0,0.9
2024-11-07T0400,3139A,111.6892,28.9881,常德市,鼎城区玉霞,细颗粒物(PM2.5),90,110,107,67,56,14,,,,39,33,6,8,1.0,1
2024-11-07T0400,3140A,111.6625,29.0531,常德市,武陵区长庚,细颗粒物(PM2.5),87,116,116,64,60,66,,,,27,30,21,8,0.8,0.8
2024-11-07T0400,1196A,119.9633,31.762,常州市,市监测站,,29,29,32,18,18,41,,,,38,28,8,8,0.4,0.4
2024-11-07T0400,1200A,119.9468,31.7069,常州市,武进监测站,,36,34,30,25,17,32,,,,38,20,13,12,0.5,0.4
2024-11-07T0400,1201A,119.9255,31.9087,常州市,安家,,30,30,34,15,17,24,,,,49,36,8,9,0.3,0.4
2024-11-07T0400,3002A,119.9805,31.8174,常州市,行政中心,,31,31,29,17,15,43,,,,35,26,1,2,0.6,0.5
2024-11-07T0400,3003A,120.0522,31.7748,常州市,经开区,二氧化氮,85,48,44,27,19,8,,,,169,55,9,9,0.4,0.4
2024-11-07T0400,3010A,119.9025,31.7964,常州市,钟楼,,23,23,31,12,16,56,,,,23,26,7,8,0.5,0.5
2024-11-07T0400,3429A,119.8598,31.7066,常州市,武进经发区,,50,50,38,27,18,12,,,,62,33,10,9,0.6,0.4
2024-11-07T0400,3430A,119.5826,31.7245,常州市,金坛城区,,45,45,37,17,19,47,,,,34,25,7,7,0.3,0.3
2024-11-07T0400,2220A,120.4318,41.5881,朝阳市,西梁,细颗粒物(PM2.5),62,69,51,44,32,5,,,,35,27,10,14,0.8,0.7
2024-11-07T0400,2221A,120.4521,41.5646,朝阳市,河畔小区,颗粒物(PM10),57,64,52,39,26,4,,,,37,27,10,12,1.0,0.8
2024-11-07T0400,2222A,120.4176,41.5648,朝阳市,八里堡,细颗粒物(PM2.5),57,58,47,40,25,4,,,,36,28,8,13,1.3,0.9
2024-11-07T0400,2223A,120.3806,41.5969,朝阳市,农业园区,细颗粒物(PM2.5),72,54,71,52,41,10,,,,32,29,8,10,0.7,0.9
2024-11-07T0400,1705A,116.6367,23.6719,潮州市,西园路,,37,37,39,20,26,63,,,,13,12,5,7,0.1,0.3
2024-11-07T0400,3026A,116.6183,23.6608,潮州市,市政府,,34,34,42,14,21,58,,,,20,14,7,8,0.4,0.6
2024-11-07T0400,4036A,116.6461,23.6761,潮州市,金山,,26,26,41,12,21,59,,,,12,12,9,10,0.5,0.6
2024-11-07T0400,2472A,113.0073,25.9061,郴州市,马头岭,颗粒物(PM10),60,70,73,40,33,32,,,,26,23,12,16,0.6,0.8
2024-11-07T0400,2473A,113.0116,25.8226,郴州市,市职中,颗粒物(PM10),51,52,64,34,48,28,,,,15,25,5,11,0.7,0.8
2024-11-07T0400,2474A,113.0161,25.8001,郴州市,兴隆步行街,颗粒物(PM10),53,56,70,35,47,35,,,,18,24,6,12,0.6,0.7
2024-11-07T0400,2475A,113.0383,25.8071,郴州市,市审计局,细颗粒物(PM2.5),52,46,62,36,48,34,,,,24,19,9,13,0.6,0.7
2024-11-07T0400,2476A,113.0348,25.7759,郴州市,市环保局,颗粒物(PM10),54,58,75,35,44,6,,,,36,27,6,13,0.6,0.7
2024-11-07T0400,1431A,103.9728,30.7236,成都市,金泉两河,细颗粒物(PM2.5),55,52,60,39,40,13,,,,23,35,2,3,0.5,0.5
2024-11-07T0400,1432A,104.176,30.6872,成都市,十里店,,35,31,38,24,26,10,,,,47,36,2,2,0.5,0.5
2024-11-07T0400,1433A,104.079,30.5706,成都市,三瓦窑,细颗粒物(PM2.5),55,56,45,39,29,11,,,,37,32,3,2,0.4,0.4
2024-11-07T0400,1434A,104.1114,30.63,成都市,沙河铺,细颗粒物(PM2.5),60,51,47,43,32,12,,,,31,31,3,4,0.5,0.5
2024-11-07T0400,1437A,104.0786,30.6531,成都市,君平街,,48,48,47,24,30,27,,,,23,35,5,5,0.6,0.6
2024-11-07T0400,1438A,103.613,31.0283,成都市,灵岩寺,,,,,,,,,,,,,,,,
2024-11-07T0400,2880A,104.0239,30.65639,成都市,大石西路,颗粒物(PM10),54,58,55,28,31,21,,,,20,34,3,4,0.6,0.6
2024-11-07T0400,3136A,104.2725,30.5589,成都市,龙泉驿区区政府,,32,29,28,22,21,31,,,,14,18,2,3,0.4,0.4
2024-11-07T0400,3357A,104.0106,30.6931,成都市,金博路,细颗粒物(PM2.5),62,64,56,44,36,18,,,,23,33,2,2,0.5,0.5
2024-11-07T0400,3359A,104.0578,30.5225,成都市,华阳,细颗粒物(PM2.5),52,51,40,36,27,22,,,,18,20,2,1,0.5,0.5
2024-11-07T0400,3487A,104.2394,30.5319,成都市,车城东七路,细颗粒物(PM2.5),63,59,45,45,31,39,,,,15,26,2,2,0.4,0.6
2024-11-07T0400,3488A,104.3853,30.7453,成都市,青白江技师分院,,43,36,36,30,24,9,,,,29,27,1,3,0.5,0.5
2024-11-07T0400,3489A,104.0789,30.4072,成都市,科学城,细颗粒物(PM2.5),70,55,47,51,37,20,,,,18,22,4,4,0.5,0.5
2024-11-07T0400,4011A,103.8506,30.6947,成都市,光华大道三段,细颗粒物(PM2.5),74,63,60,54,40,35,,,,12,25,4,5,0.5,0.5
2024-11-07T0400,1062A,117.9531,40.9081,承德市,铁路,,38,38,39,19,18,5,,,,35,37,3,7,0.7,0.6
2024-11-07T0400,1063A,117.9392,40.9763,承德市,中国银行,,45,45,41,19,15,2,,,,36,34,2,4,0.7,0.6
2024-11-07T0400,1064A,117.9503,40.928,承德市,开发区,颗粒物(PM10),52,54,54,31,19,4,,,,45,25,3,6,0.7,0.6
2024-11-07T0400,1065A,117.8051,40.9655,承德市,文化中心,颗粒物(PM10),53,55,61,29,21,0,,,,42,38,3,19,0.6,0.8
2024-11-07T0400,1066A,117.9268,41.0026,承德市,离宫,,50,41,29,35,24,1,,,,41,31,2,5,0.5,0.5
2024-11-07T0400,2314A,117.47,30.6618,池州市,池州学院,,41,41,55,27,27,52,,,,24,27,7,9,0.7,0.6
2024-11-07T0400,3237A,117.4918,30.6617,池州市,展览馆,,47,47,53,29,29,40,,,,24,24,5,6,0.7,0.6
2024-11-07T0400,3333A,117.5627,30.695,池州市,第八中学,,50,50,51,30,28,42,,,,26,24,5,6,0.9,0.6
2024-11-07T0400,3334A,117.5038,30.6243,池州市,第十二中学,,41,41,53,27,27,20,,,,35,24,3,5,0.7,0.6
2024-11-07T0400,1744A,118.9233,42.2816,赤峰市,松山一中,颗粒物(PM10),54,57,63,28,27,6,,,,34,41,13,19,1.0,1.2
2024-11-07T0400,1745A,118.9576,42.2728,赤峰市,哈达街,细颗粒物(PM2.5),64,71,53,46,28,6,,,,29,31,8,12,1.2,0.9
2024-11-07T0400,1746A,118.8788,42.2554,赤峰市,天义路,,38,38,38,24,21,3,,,,38,34,7,9,0.6,0.7
2024-11-07T0400,3058A,119.2658,42.0353,赤峰市,银河街,颗粒物(PM10),58,65,77,30,32,8,,,,32,28,19,29,0.8,1
2024-11-07T0400,3286A,118.9359,42.3147,赤峰市,桥北物流园区,,45,43,47,31,27,5,,,,22,34,12,23,1.3,1.2
2024-11-07T0400,2521A,107.3476,22.4136,崇左市,市环保局江州分局,细颗粒物(PM2.5),65,74,70,47,42,41,,,,13,13,4,4,0.8,0.8
2024-11-07T0400,2522A,107.3702,22.3707,崇左市,城南新区,细颗粒物(PM2.5),65,61,60,47,44,48,,,,19,16,5,6,0.6,0.6
2024-11-07T0400,2298A,118.3093,32.3153,滁州市,老年大学,,46,46,42,30,22,9,,,,48,31,3,3,0.3,0.3
2024-11-07T0400,2299A,118.3244,32.2786,滁州市,人大宾馆,,45,45,46,24,22,18,,,,45,35,6,8,0.4,0.4
2024-11-07T0400,3207A,118.3118,32.3038,滁州市,市政府原办公楼,,43,42,40,30,25,10,,,,52,33,5,6,0.4,0.4
2024-11-07T0400,3331A,118.3267,32.2634,滁州市,图书馆,颗粒物(PM10),52,54,50,23,21,22,,,,43,28,5,5,0.4,0.4
2024-11-07T0400,2605A,101.5482,25.0441,楚雄彝族自治州,州环境监测站,,22,,45,14,41,70,,,,4,18,6,13,0.6,0.8
2024-11-07T0400,2606A,101.538,25.0492,楚雄彝族自治州,市经济开发区,,22,17,45,14,40,68,,,,6,20,5,9,0.6,0.8
2024-11-07T0400,2548A,107.5277,31.2827,达州市,达州职业技术学院,颗粒物(PM10),51,51,44,35,31,1,,,,26,34,4,5,0.8,0.9
2024-11-07T0400,2549A,107.5086,31.2186,达州市,市环境监测站,,43,43,49,24,22,1,,,,31,41,5,7,0.6,0.8
2024-11-07T0400,2550A,107.4988,31.2132,达州市,凤凰小区,,45,41,47,31,26,4,,,,32,41,6,9,0.6,0.8
2024-11-07T0400,2551A,107.5082,31.1986,达州市,达县机关宾馆,细颗粒物(PM2.5),53,41,48,37,29,4,,,,33,40,5,7,0.7,0.8
2024-11-07T0400,2552A,107.4644,31.2124,达州市,市政中心,,,,50,,24,,,21,,,44,,6,,0.9
2024-11-07T0400,2614A,100.1542,25.7054,大理白族自治州,大理市环境监测站,,19,,26,13,22,48,,,,7,21,6,6,0.5,0.6
2024-11-07T0400,2615A,100.2171,25.5811,大理白族自治州,大理古城,,18,10,22,3,15,57,,,,3,12,5,6,0.4,0.5
2024-11-07T0400,1109A,121.612,38.9741,大连市,甘井子,,40,38,29,28,17,40,,,,40,42,10,12,0.9,0.8
2024-11-07T0400,1110A,121.565,38.9511,大连市,周水子,细颗粒物(PM2.5),57,53,39,40,26,3,,,,70,55,8,11,0.9,0.7
2024-11-07T0400,1111A,121.5637,38.8845,大连市,星海三站,,42,40,30,29,18,20,,,,33,33,18,14,0.6,0.6
2024-11-07T0400,1112A,121.6302,38.9117,大连市,青泥洼桥,颗粒物(PM10),51,52,28,30,15,47,,,,18,29,8,10,0.5,0.3
2024-11-07T0400,1113A,121.6251,38.8638,大连市,傅家庄,,46,40,19,32,11,68,,,,18,18,12,11,0.4,0.3
2024-11-07T0400,1114A,121.5213,38.8661,大连市,七贤岭,,38,38,29,21,13,25,,,,16,26,6,10,0.5,0.6
2024-11-07T0400,1115A,121.2529,38.8061,大连市,旅顺,,45,44,27,31,14,58,,,,41,24,9,9,0.6,0.5
2024-11-07T0400,1116A,121.7485,39.1311,大连市,金州,,36,31,29,25,20,58,,,,19,30,8,7,0.5,0.5
2024-11-07T0400,1117A,121.7811,39.0496,大连市,开发区,,49,49,29,30,16,18,,,,52,34,7,6,0.3,0.3
2024-11-07T0400,1118A,121.9762,39.0631,大连市,双D港,,30,,19,21,11,56,,,,22,18,8,9,0.5,0.5
2024-11-07T0400,1789A,124.81117,46.03138,大庆市,大同区,细颗粒物(PM2.5),75,,64,55,50,26,,,,15,24,5,6,0.5,0.5
2024-11-07T0400,1790A,125.129,46.533,大庆市,龙凤区,细颗粒物(PM2.5),236,200,81,186,65,38,,,,33,22,12,6,0.8,0.6
2024-11-07T0400,1791A,124.902,46.408,大庆市,红岗区,细颗粒物(PM2.5),195,153,69,146,54,17,,,,29,27,8,7,0.7,0.5
2024-11-07T0400,1792A,125.153,46.586,大庆市,萨尔图区,细颗粒物(PM2.5),295,267,101,245,88,56,,,,28,24,10,8,0.7,0.4
2024-11-07T0400,1793A,124.9042,46.6215,大庆市,让胡路区,细颗粒物(PM2.5),214,233,76,164,64,39,,,,31,24,14,7,0.6,0.4
2024-11-07T0400,3481A,125.141,46.634,大庆市,萨区政府监测点,细颗粒物(PM2.5),328,,97,278,97,36,,,,32,24,10,7,0.8,0.5
2024-11-07T0400,1721A,113.3819,40.1097,大同市,果树场,颗粒物(PM10),55,59,71,29,37,2,,,,38,38,9,11,1.1,0.9
2024-11-07T0400,1723A,113.2994,40.0758,大同市,云冈宾馆,颗粒物(PM10),67,83,72,44,32,6,,,,54,44,27,19,1.2,1
2024-11-07T0400,1724A,113.3444,40.0917,大同市,大同大学,颗粒物(PM10),54,57,54,34,27,17,,,,51,47,23,18,0.7,0.7
2024-11-07T0400,1725A,113.2661,40.1269,大同市,安家小村,颗粒物(PM10),86,121,75,39,31,8,,,,54,48,23,21,1.8,1.2
2024-11-07T0400,1726A,113.2711,40.0844,大同市,教育学院,颗粒物(PM10),75,100,85,43,39,2,,,,63,57,25,19,1.7,1.5
2024-11-07T0400,3282A,113.3397,40.0597,大同市,大同市卫生学校,颗粒物(PM10),58,66,56,34,27,20,,,,53,47,44,21,0.5,0.5
2024-11-07T0400,3565A,113.1367,40.1122,大同市,云冈站,颗粒物(PM10),82,114,82,56,36,7,,,,43,41,17,22,0.8,0.6
2024-11-07T0400,3566A,113.1186,40.2556,大同市,图书馆,细颗粒物(PM2.5),72,64,63,52,35,11,,,,24,28,9,28,0.7,0.6
2024-11-07T0400,3567A,113.5931,40.0461,大同市,区一中,,49,49,46,16,14,53,,,,19,28,16,19,0.5,0.6
2024-11-07T0400,3676A,113.2802,40.0995,大同市,第二人民医院,颗粒物(PM10),74,98,89,36,37,7,,,,53,48,30,22,1.1,1.4
2024-11-07T0400,2269A,124.1069,50.4097,大兴安岭地区,科技局,,25,19,19,17,18,31,,,,5,8,4,5,0.3,0.3
2024-11-07T0400,3663A,124.1164,50.4278,大兴安岭地区,红旗社区,,14,12,21,8,13,2,,,,28,16,3,4,0.3,0.4
2024-11-07T0400,1600A,124.3303,40.0625,丹东市,江湾东路,,46,46,38,24,24,17,,,,33,29,12,12,0.8,0.8
2024-11-07T0400,1601A,124.4256,40.1503,丹东市,临江后街,,38,38,40,21,17,8,,,,32,20,8,7,0.6,0.5
2024-11-07T0400,1602A,124.3933,40.1461,丹东市,元宝山,,42,42,29,20,13,12,,,,31,16,5,5,0.7,0.5
2024-11-07T0400,1603A,124.3633,40.1092,丹东市,民主桥,,42,42,32,21,16,14,,,,26,21,7,7,0.6,0.6
2024-11-07T0400,3541A,109.5726,19.5167,儋州市,第一中学子站,颗粒物(PM10),52,53,50,30,31,115,,,,6,7,5,6,0.7,0.7
2024-11-07T0400,3542A,109.5567,19.5187,儋州市,东坡学校子站,颗粒物(PM10),52,53,47,30,29,130,,,,7,9,5,6,0.7,0.7
2024-11-07T0400,2616A,98.5842,24.428,德宏傣族景颇族自治州,德宏州监测站,,21,21,28,14,17,38,,,,14,20,8,14,0.6,0.6
2024-11-07T0400,3677A,98.5881,24.4368,德宏傣族景颇族自治州,芒市人民政府综合楼,,22,22,26,12,13,26,,,,16,18,9,9,0.7,0.7
2024-11-07T0400,1901A,104.4239,31.1208,德阳市,东山公园,颗粒物(PM10),57,63,49,29,24,23,,,,13,14,1,1,0.6,0.5
2024-11-07T0400,1902A,104.3826,31.1317,德阳市,西小区,细颗粒物(PM2.5),65,66,49,47,33,5,,,,40,29,3,2,0.7,0.6
2024-11-07T0400,1904A,104.3553,31.1091,德阳市,耐火材料厂,颗粒物(PM10),54,57,46,37,29,3,,,,38,28,3,4,0.6,0.5
2024-11-07T0400,3639A,104.4019,31.1244,德阳市,市教育局,,43,42,41,30,23,9,,,,29,25,2,2,0.6,0.6
2024-11-07T0400,1622A,116.3032,37.4674,德州市,儿童乐园,细颗粒物(PM2.5),73,90,81,53,40,53,,,,40,49,17,16,0.6,0.6
2024-11-07T0400,1624A,116.2991,37.4451,德州市,监理站,"颗粒物(PM10),细颗粒物(PM2.5)",67,83,71,48,40,51,,,,39,47,15,15,0.7,0.7
2024-11-07T0400,3066A,116.2721,37.4379,德州市,九衢泉纯净水厂,颗粒物(PM10),68,85,84,44,41,34,,,,52,55,13,15,0.6,0.6
2024-11-07T0400,3371A,116.3728,37.4403,德州市,开发区人民医院,"颗粒物(PM10),细颗粒物(PM2.5)",67,83,72,48,39,32,,,,50,51,15,16,0.6,0.7
2024-11-07T0400,3372A,116.3572,37.4094,德州市,太阳城中学,细颗粒物(PM2.5),73,85,76,53,42,14,,,,75,61,12,16,0.7,0.7
2024-11-07T0400,3511A,116.5652,37.3319,德州市,陵城艺术中心,颗粒物(PM10),67,83,62,46,32,56,,,,31,38,15,13,0.8,0.7
2024-11-07T0400,2621A,99.7056,27.8317,迪庆藏族自治州,迪庆州站,,23,16,26,8,15,72,,,,7,12,7,9,0.2,0.3
2024-11-07T0400,3180A,99.7136,27.8094,迪庆藏族自治州,质量技术监督局,,20,12,25,10,14,64,,,,5,12,7,7,0.4,0.5
2024-11-07T0400,2663A,104.6241,35.5734,定西市,东关小学,,36,36,49,16,23,41,,,,8,15,1,2,0.3,0.3
2024-11-07T0400,2664A,104.6194,35.5934,定西市,供电公司,,39,36,41,27,28,43,,,,8,17,6,6,0.3,0.3
2024-11-07T0400,1389A,113.7547,23.0494,东莞市,莞城梨川,,34,34,49,22,34,99,,,,14,17,9,9,0.6,0.8
2024-11-07T0400,1390A,113.7944,23.0128,东莞市,东城石井,,35,34,46,24,31,76,,,,20,18,9,10,0.7,0.8
2024-11-07T0400,1391A,113.7383,22.9658,东莞市,南城西平,,40,40,49,23,30,54,,,,57,31,8,8,0.6,0.7
2024-11-07T0400,3319A,113.7338,23.0381,东莞市,万江金泰,,35,35,46,21,31,92,,,,13,15,8,8,0.7,0.8
2024-11-07T0400,3626A,113.7533,23.0202,东莞市,南城元岭,,35,35,46,20,29,92,,,,7,11,10,9,0.7,0.7
2024-11-07T0400,3627A,113.7875,23.0457,东莞市,东城主山,,35,35,48,23,32,83,,,,26,20,12,10,0.7,0.7
2024-11-07T0400,1666A,118.6614,37.4309,东营市,市环保局,颗粒物(PM10),54,58,60,27,30,8,,,,72,58,6,10,0.6,0.7
2024-11-07T0400,3036A,118.6904,37.4338,东营市,开发区管委会,颗粒物(PM10),58,65,67,39,32,10,,,,64,47,9,13,0.7,0.7
2024-11-07T0400,3365A,118.5719,37.565,东营市,垦利区民丰路,颗粒物(PM10),56,61,59,34,28,11,,,,66,52,10,11,0.6,0.5
2024-11-07T0400,3498A,118.5055,37.8612,东营市,河口城区,颗粒物(PM10),64,78,70,34,30,15,,,,61,46,8,11,0.7,0.5
2024-11-07T0400,3646A,118.4978,37.4623,东营市,胜利站,颗粒物(PM10),62,73,65,39,30,13,,,,64,57,8,11,0.7,0.6
2024-11-07T0400,3734A,118.35,37.26,东营市,理想之城,颗粒物(PM10),60,70,64,36,36,6,,,,67,55,6,10,0.6,0.7
2024-11-07T0400,1591A,110.0023,39.8129,鄂尔多斯市,综合楼,颗粒物(PM10),51,51,77,24,30,57,,,,30,50,13,17,0.6,0.8
2024-11-07T0400,1592A,109.9486,39.8261,鄂尔多斯市,巴音孟克林场办事处,颗粒物(PM10),53,56,67,24,28,54,,,,32,46,12,17,0.6,0.7
2024-11-07T0400,1593A,109.7736,39.5986,鄂尔多斯市,康泽苑,,39,39,57,19,23,27,,,,21,41,6,9,0.3,0.5
2024-11-07T0400,1594A,109.8119,39.5989,鄂尔多斯市,华泰汽车城,颗粒物(PM10),51,51,66,19,25,7,,,,46,48,6,11,0.5,0.6
2024-11-07T0400,1595A,109.9734,39.7884,鄂尔多斯市,奥林花园,颗粒物(PM10),57,63,84,29,38,10,,,,61,60,7,13,0.9,1
2024-11-07T0400,2436A,114.8938,30.3994,鄂州市,市政府,颗粒物(PM10),59,67,53,35,29,50,,,,48,29,13,9,0.7,0.7
2024-11-07T0400,2437A,114.8989,30.3714,鄂州市,赵家坝,,46,46,52,30,29,64,,,,32,30,7,10,0.5,0.6
2024-11-07T0400,3654A,114.8094,30.4089,鄂州市,精准医疗中心,颗粒物(PM10),61,71,61,39,34,56,,,,44,28,19,13,1.9,0.9
2024-11-07T0400,2454A,109.4978,30.2981,恩施土家族苗族自治州,湖北民院,细颗粒物(PM2.5),53,47,48,37,36,23,,,,14,21,6,6,0.4,0.5
2024-11-07T0400,2455A,109.4707,30.2798,恩施土家族苗族自治州,州电力总公司,细颗粒物(PM2.5),58,57,58,41,39,9,,,,28,31,7,7,0.6,0.7
2024-11-07T0400,3549A,109.5061,30.3772,恩施土家族苗族自治州,龙凤新区,,43,40,42,30,29,15,,,,11,14,6,6,0.7,0.7
2024-11-07T0400,2499A,108.3411,21.6158,防城港市,沙万,细颗粒物(PM2.5),69,61,64,50,49,115,,,,16,15,6,6,0.7,0.7
2024-11-07T0400,2500A,108.3514,21.7731,防城港市,防城档案局,颗粒物(PM10),73,95,92,48,55,103,,,,28,26,6,6,0.6,0.8
2024-11-07T0400,2501A,108.3506,21.6414,防城港市,大海花园,细颗粒物(PM2.5),68,60,71,49,47,120,,,,17,15,5,5,0.8,0.7
2024-11-07T0400,1371A,113.1294,23.0067,佛山市,湾梁,颗粒物(PM10),51,51,57,24,31,77,,,,35,29,8,8,0.7,0.8
2024-11-07T0400,1372A,113.1083,23.0478,佛山市,华材职中,颗粒物(PM10),51,51,59,31,35,72,,,,42,31,9,10,0.6,0.7
2024-11-07T0400,1373A,113.144,23.0453,佛山市,南海气象局,,43,43,53,27,32,64,,,,36,24,9,9,0.4,0.6
2024-11-07T0400,1374A,113.2881,22.8094,佛山市,顺德苏岗,,48,48,52,22,30,66,,,,32,24,8,8,0.7,0.8
2024-11-07T0400,1376A,112.8383,22.8678,佛山市,高明孔堂,,48,48,55,30,36,79,,,,25,22,12,8,0.6,0.7
2024-11-07T0400,1377A,112.8836,23.1588,佛山市,三水监测站,,46,46,52,31,36,70,,,,32,26,9,9,0.6,0.7
2024-11-07T0400,1378A,112.867,23.185,佛山市,三水云东海,颗粒物(PM10),52,54,48,29,36,54,,,,29,28,14,11,0.7,0.7
2024-11-07T0400,3625A,113.2544,22.7642,佛山市,容桂街道办,,39,39,45,24,32,73,,,,32,23,8,8,0.6,0.7
2024-11-07T0400,1280A,119.3903,26.0543,福州市,鼓山,,,,29,,10,,,112,,,9,,1,,0.3
2024-11-07T0400,1282A,119.2681,26.0504,福州市,师大,,31,27,32,9,11,97,,,,8,8,4,3,0.3,0.4
2024-11-07T0400,1283A,119.2984,26.1028,福州市,五四北路,,29,16,27,7,12,92,,,,10,12,2,2,0.3,0.4
2024-11-07T0400,1284A,119.2648,26.0768,福州市,杨桥西路,,31,31,34,8,12,89,,,,9,7,2,2,0.3,0.4
2024-11-07T0400,1285A,119.317,26.0746,福州市,紫阳,,30,25,45,8,13,93,,,,8,12,4,4,0.5,0.5
2024-11-07T0400,3048A,119.5799,26.0936,福州市,九龙,,,,42,,19,,,92,,,6,,2,,0.2
2024-11-07T0400,3526A,119.5189,25.9664,福州市,吴航,,28,26,26,10,11,88,,,,12,10,5,3,0.3,0.1
2024-11-07T0400,1755A,123.7977,41.8491,抚顺市,望花区,,47,47,63,27,34,11,,,,32,34,4,5,0.6,1
2024-11-07T0400,1756A,123.9161,41.8822,抚顺市,顺城区,,27,27,47,17,26,22,,,,27,33,6,7,0.3,0.5
2024-11-07T0400,1757A,124.0436,41.8611,抚顺市,东洲区,,33,32,38,23,23,8,,,,25,26,7,7,0.4,0.5
2024-11-07T0400,1758A,123.9247,41.8642,抚顺市,新抚区,,38,32,50,26,27,9,,,,29,29,5,8,0.2,0.3
2024-11-07T0400,1759A,124.0972,41.8961,抚顺市,大伙房水库,,25,25,30,17,19,27,,,,18,19,9,7,0.4,0.4
2024-11-07T0400,1760A,123.7086,41.8391,抚顺市,沈抚新城,颗粒物(PM10),55,60,61,25,36,8,,,,34,30,21,9,1.6,0.8
2024-11-07T0400,2376A,116.2127,28.0814,抚州市,桐源党溪,细颗粒物(PM2.5),53,48,55,37,29,34,,,,11,8,5,6,0.5,0.5
2024-11-07T0400,2377A,116.3544,27.9831,抚州市,市站,,50,50,52,20,24,64,,,,23,18,18,13,0.7,0.8
2024-11-07T0400,2378A,116.3565,27.963,抚州市,血防站,颗粒物(PM10),51,51,52,24,24,65,,,,17,12,26,8,0.5,0.4
2024-11-07T0400,2379A,116.3564,28.0007,抚州市,采茶剧团,,49,49,49,26,26,59,,,,14,10,20,10,0.9,0.9
2024-11-07T0400,2380A,116.385,27.9647,抚州市,医学分院,,49,49,54,24,23,62,,,,14,11,17,10,0.6,0.6
2024-11-07T0400,2207A,121.6094,41.998,阜新市,工业园区,细颗粒物(PM2.5),124,165,91,94,43,4,,,,42,31,18,20,1.1,0.7
2024-11-07T0400,2208A,121.6697,42.0279,阜新市,长青街,细颗粒物(PM2.5),85,95,66,63,38,3,,,,38,29,18,20,1.5,1.4
2024-11-07T0400,2209A,121.6673,42.0705,阜新市,农业园区,细颗粒物(PM2.5),77,76,50,56,34,11,,,,52,28,32,25,0.9,0.6
2024-11-07T0400,2210A,121.6717,42.0224,阜新市,东苑,细颗粒物(PM2.5),74,80,65,54,32,6,,,,40,32,24,23,1.8,1.7
2024-11-07T0400,2211A,121.6506,42.0498,阜新市,玉龙新城,颗粒物(PM10),71,92,83,46,40,6,,,,41,35,12,16,0.8,0.9
2024-11-07T0400,2301A,115.8277,32.8929,阜阳市,市监测站,细颗粒物(PM2.5),59,58,84,42,62,34,,,,37,35,6,8,0.5,0.6
2024-11-07T0400,2303A,115.8554,32.8605,阜阳市,开发区,颗粒物(PM10),64,77,110,42,56,32,,,,41,42,7,9,0.5,0.6
2024-11-07T0400,2875A,115.784,32.8892,阜阳市,阜阳职业技术学院,颗粒物(PM10),52,53,74,33,51,52,,,,24,27,6,8,0.4,0.5
2024-11-07T0400,3468A,115.7901,32.8613,阜阳市,市规划展馆,,46,43,69,32,46,58,,,,25,28,7,8,0.4,0.4
2024-11-07T0400,3469A,115.836,32.9183,阜阳市,枣园社区,颗粒物(PM10),53,56,83,30,53,55,,,,23,31,8,9,0.4,0.5
2024-11-07T0400,2669A,102.9099,34.9841,甘南藏族自治州,州政府,,31,31,30,20,15,1,,,,34,28,1,3,0.6,0.6
2024-11-07T0400,3380A,102.8914,34.9617,甘南藏族自治州,甘肃民族师范学院,,23,23,25,15,15,1,,,,33,31,5,7,0.3,0.7
2024-11-07T0400,2570A,101.9603,30.0475,甘孜藏族自治州,水桥子,,12,11,17,8,8,22,,,,17,20,6,6,0.3,0.3
2024-11-07T0400,3065A,101.9533,29.9972,甘孜藏族自治州,州环保局,,20,,14,14,5,12,,,,36,22,3,3,0.2,0.2
2024-11-07T0400,3414A,115.8347,28.932,赣江新区,桑海产业园,颗粒物(PM10),57,63,63,36,30,52,,,,35,24,13,13,0.8,0.8
2024-11-07T0400,2362A,114.9017,25.9149,赣州市,通天岩,,35,35,44,23,30,53,,,,6,8,2,22,0.5,1
2024-11-07T0400,2363A,114.9367,25.8664,赣州市,地委,,45,45,55,30,35,93,,,,11,12,1,1,0.5,0.6
2024-11-07T0400,2364A,114.9461,25.8481,赣州市,气象台,,50,38,49,35,36,92,,,,11,13,14,7,0.5,0.6
2024-11-07T0400,2365A,114.9322,25.8333,赣州市,市图书馆,,43,43,50,25,27,101,,,,11,13,9,7,0.5,0.6
2024-11-07T0400,2366A,114.8905,25.8471,赣州市,华坚鞋城,,40,40,50,14,28,97,,,,8,11,6,7,0.5,0.6
2024-11-07T0400,3109A,115.0093,25.8613,赣州市,赣县区卫计委,,35,34,48,24,31,48,,,,20,16,4,5,0.5,0.6
2024-11-07T0400,2683A,106.2319,36.1417,固原市,马园,颗粒物(PM10),58,66,41,39,23,4,,,,35,26,6,6,0.9,0.7
2024-11-07T0400,2684A,106.2792,36.0022,固原市,监测站,,22,22,36,15,28,10,,,,42,36,5,6,0.5,0.7
2024-11-07T0400,2685A,106.2375,36.0211,固原市,新区,,46,37,36,32,21,8,,,,39,33,4,4,0.8,0.7
2024-11-07T0400,3522A,106.2177,35.9959,固原市,原州区十五小,,24,24,26,13,12,70,,,,16,13,5,5,0.4,0.4
2024-11-07T0400,2543A,106.6308,30.5278,广安市,小平旧居,,,,,,,,,,,,,,,,
2024-11-07T0400,2544A,106.6303,30.4576,广安市,市委,,48,46,45,33,29,21,,,,14,18,1,2,0.5,0.5
2024-11-07T0400,2545A,106.6271,30.4663,广安市,友谊中学,,48,40,40,33,28,21,,,,14,20,2,2,0.6,0.6
2024-11-07T0400,2547A,106.6388,30.4551,广安市,广电花园,,48,43,41,33,27,20,,,,14,19,3,4,0.3,0.4
2024-11-07T0400,2902A,106.6351,30.4865,广安市,北辰小学,,45,44,42,31,28,23,,,,12,15,3,3,0.6,0.6
2024-11-07T0400,2523A,105.8945,32.4535,广元市,黑石坡,,46,40,32,32,20,23,,,,12,15,5,5,0.5,0.5
2024-11-07T0400,2524A,105.821,32.4444,广元市,老城,,47,47,48,20,22,22,,,,19,33,4,10,0.8,1
2024-11-07T0400,2526A,105.8628,32.4287,广元市,监测站,,39,37,41,27,30,22,,,,25,34,3,8,0.7,0.9
2024-11-07T0400,3617A,105.8047,32.4166,广元市,经开区,,46,46,58,30,36,18,,,,24,35,4,26,0.6,1
2024-11-07T0400,1345A,113.2347,23.1423,广州市,广雅中学,颗粒物(PM10),51,52,62,29,37,92,,,,21,28,8,8,0.8,1
2024-11-07T0400,1346A,113.2612,23.105,广州市,市五中,,42,40,60,29,38,94,,,,19,19,7,6,0.6,0.7
2024-11-07T0400,1348A,113.3478,23.0916,广州市,广东商学院,,39,39,47,25,33,95,,,,17,20,8,8,0.5,0.6
2024-11-07T0400,1349A,113.4332,23.1047,广州市,市八十六中,,46,46,55,29,35,71,,,,32,23,5,5,0.6,0.7
2024-11-07T0400,1350A,113.3505,22.9483,广州市,番禺中学,,42,42,39,20,26,85,,,,30,26,7,7,0.5,0.6
2024-11-07T0400,1351A,113.2146,23.3916,广州市,花都师范,,36,36,50,21,32,110,,,,11,16,9,8,0.9,1.1
2024-11-07T0400,1352A,113.2597,23.1331,广州市,市监测站,,49,49,55,29,34,68,,,,33,20,6,6,0.5,0.6
2024-11-07T0400,1353A,113.5618,23.312,广州市,九龙镇镇龙,,35,35,45,22,31,89,,,,13,13,6,6,0.6,0.7
2024-11-07T0400,1354A,113.2765,23.1544,广州市,麓湖,,43,41,52,30,36,71,,,,29,24,5,5,0.6,0.7
2024-11-07T0400,1355A,113.443,23.3035,广州市,帽峰山森林公园,,34,34,41,15,24,101,,,,14,14,8,8,0.6,0.7
2024-11-07T0400,2846A,113.3221,23.1322,广州市,体育西,,42,42,50,24,34,90,,,,12,15,7,7,0.7,0.8
2024-11-07T0400,3298A,113.5717,23.5491,广州市,从化街口,,33,33,45,20,32,103,,,,11,12,10,9,0.5,0.7
2024-11-07T0400,3299A,113.3472,23.3692,广州市,白云竹料,,38,38,59,24,34,101,,,,12,14,8,8,0.6,0.8
2024-11-07T0400,3300A,113.2981,23.237,广州市,白云嘉禾,,47,47,59,27,36,65,,,,44,29,8,8,0.7,0.9
2024-11-07T0400,3301A,113.4256,23.1716,广州市,黄埔科学城,,42,42,47,28,33,84,,,,16,15,7,7,0.7,0.7
2024-11-07T0400,3302A,113.3942,23.0483,广州市,番禺大学城,颗粒物(PM10),60,69,88,26,31,66,,,,39,23,7,7,0.5,0.6
2024-11-07T0400,3303A,113.4922,22.8168,广州市,南沙黄阁,,47,47,62,28,37,86,,,,26,32,17,10,0.8,0.8
2024-11-07T0400,3304A,113.5342,22.7896,广州市,南沙街,颗粒物(PM10),54,58,59,32,39,83,,,,23,26,9,9,0.6,0.7
2024-11-07T0400,3443A,113.2902,23.5544,广州市,花都梯面,,33,33,44,23,32,104,,,,11,12,12,11,0.6,0.7
2024-11-07T0400,3445A,113.7858,23.7478,广州市,从化良口,,34,34,41,22,29,80,,,,9,10,6,6,0.7,0.7
2024-11-07T0400,3446A,113.8051,23.2614,广州市,增城荔城,,32,32,44,22,33,102,,,,16,16,8,8,0.6,0.7
2024-11-07T0400,2505A,109.568,23.1478,贵港市,德智高中,,,,,,,,,,,,,,,,
2024-11-07T0400,2506A,109.6047,23.0666,贵港市,江南子站,细颗粒物(PM2.5),93,119,79,69,52,38,,,,44,20,9,9,1.0,0.9
2024-11-07T0400,2507A,109.6014,23.0948,贵港市,贵城子站,细颗粒物(PM2.5),77,72,70,56,51,81,,,,20,16,9,8,0.9,0.9
2024-11-07T0400,2508A,109.5669,23.1065,贵港市,荷城子站,细颗粒物(PM2.5),70,70,69,51,47,81,,,,28,16,11,11,0.8,0.7
2024-11-07T0400,3405A,109.5886,23.1172,贵港市,新世纪学校,细颗粒物(PM2.5),65,70,71,47,48,97,,,,14,13,9,9,0.8,0.8
2024-11-07T0400,1439A,106.6899,26.5998,贵阳市,马鞍山,,35,31,40,24,27,78,,,,10,12,4,4,0.6,0.7
2024-11-07T0400,1440A,106.6971,26.5694,贵阳市,市环保站,细颗粒物(PM2.5),53,44,48,37,38,110,,,,7,13,5,5,0.4,0.4
2024-11-07T0400,1441A,106.6243,26.6266,贵阳市,鉴湖路,,49,46,47,34,32,93,,,,9,11,5,5,0.5,0.5
2024-11-07T0400,1442A,106.7487,26.6343,贵阳市,燕子冲,细颗粒物(PM2.5),52,36,41,36,37,105,,,,8,10,6,6,0.5,0.5
2024-11-07T0400,1443A,106.6555,26.4365,贵阳市,碧云窝,颗粒物(PM10),52,53,58,34,34,98,,,,15,20,8,7,0.5,0.5
2024-11-07T0400,1444A,106.694,26.5161,贵阳市,中院村,细颗粒物(PM2.5),55,46,53,39,36,99,,,,12,18,6,5,0.6,0.7
2024-11-07T0400,1445A,106.7109,26.6027,贵阳市,红边门,细颗粒物(PM2.5),52,44,48,36,39,110,,,,13,16,5,5,0.6,0.7
2024-11-07T0400,1446A,106.7164,26.5699,贵阳市,新华路,,45,39,46,31,37,105,,,,9,13,7,5,0.4,0.5
2024-11-07T0400,1447A,106.674,26.5424,贵阳市,太慈桥,,44,44,45,27,32,100,,,,12,18,6,5,0.4,0.4
2024-11-07T0400,1552A,106.805,26.3003,贵阳市,桐木岭,,,,66,,44,,,77,,,4,,8,,0.7
2024-11-07T0400,1862A,110.4144,25.3167,桂林市,电子科大尧山校区,细颗粒物(PM2.5),70,78,60,51,38,123,,,,14,12,66,16,0.6,0.6
2024-11-07T0400,1863A,110.2819,25.2697,桂林市,监测站,细颗粒物(PM2.5),57,52,63,40,50,131,,,,12,16,22,12,0.7,0.8
2024-11-07T0400,1864A,110.3089,25.2708,桂林市,龙隐路小学,细颗粒物(PM2.5),58,52,59,41,46,128,,,,13,13,22,15,0.7,0.7
2024-11-07T0400,1865A,110.2869,25.2178,桂林市,八中,细颗粒物(PM2.5),54,52,60,38,40,130,,,,12,15,14,12,0.8,0.8
2024-11-07T0400,3403A,110.1764,25.2381,桂林市,创业大厦,细颗粒物(PM2.5),64,63,66,46,48,119,,,,17,15,19,10,0.5,0.5
2024-11-07T0400,3531A,110.296,25.1253,桂林市,旅游学院,颗粒物(PM10),56,61,61,39,43,120,,,,13,14,12,10,0.6,0.6
2024-11-07T0400,2674A,100.2561,34.4714,果洛藏族自治州,玛沁县大武镇,,12,,30,8,18,33,,,,5,8,11,15,0.4,0.5
2024-11-07T0400,1129A,126.5422,45.755,哈尔滨市,岭北,细颗粒物(PM2.5),159,125,84,121,75,75,,,,29,25,12,11,0.5,0.5
2024-11-07T0400,1130A,126.561,45.8167,哈尔滨市,松北商大,细颗粒物(PM2.5),134,126,93,102,74,13,,,,49,40,10,10,0.6,0.7
2024-11-07T0400,1131A,126.979,45.5419,哈尔滨市,阿城会宁,细颗粒物(PM2.5),123,116,87,93,70,1,,,,29,26,7,8,1.1,1
2024-11-07T0400,1132A,126.599,45.7222,哈尔滨市,南岗学府路,细颗粒物(PM2.5),117,124,102,88,75,9,,,,60,31,23,12,0.9,0.7
2024-11-07T0400,1133A,126.689,45.7733,哈尔滨市,太平宏伟公园,细颗粒物(PM2.5),135,111,82,103,69,4,,,,60,33,9,12,0.9,0.6
2024-11-07T0400,1134A,126.635,45.7667,哈尔滨市,道外承德广场,细颗粒物(PM2.5),299,,96,249,71,48,,,,39,32,8,9,1.2,0.8
2024-11-07T0400,1135A,126.685,45.7319,哈尔滨市,香坊红旗大街,细颗粒物(PM2.5),128,110,91,97,73,35,,,,39,28,13,11,0.7,0.6
2024-11-07T0400,1136A,126.6411,45.7258,哈尔滨市,动力和平路,细颗粒物(PM2.5),128,124,91,97,71,6,,,,61,33,10,13,0.7,0.6
2024-11-07T0400,1137A,126.593,45.7478,哈尔滨市,道里建国路,细颗粒物(PM2.5),229,207,93,179,86,23,,,,50,32,14,13,1.7,0.5
2024-11-07T0400,1138A,126.615,45.61,哈尔滨市,平房东轻厂,细颗粒物(PM2.5),103,81,88,77,71,33,,,,25,39,8,10,0.5,0.8
2024-11-07T0400,1139A,126.595,45.9855,哈尔滨市,呼兰师专,细颗粒物(PM2.5),298,,131,248,134,11,,,,60,41,5,7,1.2,0.9
2024-11-07T0400,1140A,126.6206,45.6842,哈尔滨市,省农科院,细颗粒物(PM2.5),134,142,110,102,82,7,,,,64,38,7,9,0.8,0.7
2024-11-07T0400,2688A,93.5128,42.8172,哈密市,地区监测站,颗粒物(PM10),65,79,103,28,40,40,,,,28,44,5,10,0.4,0.7
2024-11-07T0400,2689A,93.4961,42.8328,哈密市,哈密师范学校,颗粒物(PM10),61,71,103,38,45,28,,,,40,48,7,9,0.7,1
2024-11-07T0400,2671A,100.9048,36.9639,海北藏族自治州,海晏县西海镇,,16,,18,9,16,49,,,,4,8,8,10,0.3,0.4
2024-11-07T0400,3867A,102.0738,36.5056,海东市,平安区公安北苑,,48,46,59,33,33,34,,,,12,31,7,13,0.5,0.8
2024-11-07T0400,1409A,110.576,19.9507,海口市,东寨港,,,,,,,,,,,,,,,,
2024-11-07T0400,1410A,110.3232,20.0574,海口市,海南大学,臭氧1小时,89,61,53,40,33,191,,,,12,12,5,6,0.6,0.6
2024-11-07T0400,1411A,110.283,20.0053,海口市,秀英海南医院,臭氧1小时,85,54,49,41,34,188,,,,12,12,7,8,0.6,0.5
2024-11-07T0400,1412A,110.338,19.9969,海口市,海南师范大学,臭氧1小时,83,52,51,38,33,186,,,,12,12,8,8,0.6,0.6
2024-11-07T0400,1413A,110.33,20.0356,海口市,龙华路环保局宿舍,臭氧1小时,85,53,49,41,33,188,,,,10,10,6,6,0.5,0.5
2024-11-07T0400,3539A,110.5111,19.9736,海口市,桂林洋子站,臭氧1小时,74,58,52,41,36,179,,,,10,10,7,7,0.5,0.5
2024-11-07T0400,2673A,100.6188,36.2866,海南藏族自治州,共和县恰卜恰镇,,28,28,31,6,13,39,,,,11,20,8,12,0.6,0.5
2024-11-07T0400,2676A,97.3731,37.3753,海西蒙古族藏族自治州,德令哈市,,26,26,26,12,10,54,,,,8,8,7,9,0.4,0.5
2024-11-07T0400,1048A,114.5302,36.6116,邯郸市,东污水处理厂,细颗粒物(PM2.5),107,127,96,80,61,42,,,,25,29,4,6,0.5,0.7
2024-11-07T0400,1049A,114.4918,36.5713,邯郸市,矿院,细颗粒物(PM2.5),117,126,96,88,61,23,,,,45,36,10,5,0.5,0.6
2024-11-07T0400,1050A,114.484,36.6133,邯郸市,丛台公园,细颗粒物(PM2.5),89,100,86,66,56,46,,,,32,34,5,6,0.4,0.6
2024-11-07T0400,3458A,114.7895,36.5593,邯郸市,香泉濮院小区,细颗粒物(PM2.5),75,89,93,55,50,50,,,,27,28,9,9,0.4,0.6
2024-11-07T0400,3579A,114.50634,36.77178,邯郸市,永年区实验高中,细颗粒物(PM2.5),90,126,116,67,60,40,,,,45,37,5,6,0.3,0.5
2024-11-07T0400,3580A,114.20016,36.44293,邯郸市,峰峰矿区临水派出所,细颗粒物(PM2.5),104,96,79,78,52,75,,,,17,26,8,11,0.9,1
2024-11-07T0400,2634A,106.9893,33.1842,汉中市,汉川机床厂子校,,38,29,30,26,23,11,,,,16,12,5,5,0.6,0.5
2024-11-07T0400,2635A,107.0154,33.0706,汉中市,市监测站,颗粒物(PM10),60,70,51,34,30,8,,,,33,22,18,10,0.7,0.7
2024-11-07T0400,2636A,107.0089,33.1138,汉中市,鑫源开发区,颗粒物(PM10),70,89,53,45,31,6,,,,36,25,14,11,1.2,0.8
2024-11-07T0400,2637A,107.007,33.0323,汉中市,南郑大河坎水厂,细颗粒物(PM2.5),64,65,50,46,33,9,,,,26,25,9,8,0.8,0.7
2024-11-07T0400,1223A,120.2072,30.2111,杭州市,滨江,,29,29,34,15,17,47,,,,28,30,7,7,0.3,0.3
2024-11-07T0400,1224A,120.0633,30.2747,杭州市,西溪,,35,,26,24,17,3,,,,43,38,6,6,0.6,0.6
2024-11-07T0400,1226A,120.3461,30.3153,杭州市,下沙,,45,45,37,13,15,4,,,,79,53,8,8,0.6,0.5
2024-11-07T0400,1227A,120.1269,30.2456,杭州市,卧龙桥,,26,26,30,16,16,10,,,,33,28,6,7,0.5,0.5
2024-11-07T0400,1228A,120.1903,30.2692,杭州市,浙江农大,,34,34,35,15,17,18,,,,51,36,4,5,0.5,0.5
2024-11-07T0400,1230A,120.1197,30.3119,杭州市,和睦小学,,47,47,38,23,21,3,,,,59,45,8,9,0.6,0.5
2024-11-07T0400,1231A,120.3019,30.4183,杭州市,临平镇,,37,37,35,15,15,17,,,,67,39,7,6,0.3,0.4
2024-11-07T0400,1232A,120.2697,30.1819,杭州市,城厢镇,,32,32,34,13,15,50,,,,35,34,6,6,0.4,0.5
2024-11-07T0400,1233A,120.0883,30.1808,杭州市,云栖,,26,26,29,11,13,8,,,,50,38,6,7,0.4,0.4
2024-11-07T0400,3557A,119.9464,30.0494,杭州市,镇二中,,40,38,37,28,21,15,,,,38,30,6,6,0.6,0.6
2024-11-07T0400,3558A,119.7183,30.2367,杭州市,市府大楼,,23,17,35,16,23,23,,,,28,30,6,7,0.6,0.6
2024-11-07T0400,3656A,120.1556,30.2864,杭州市,消防大队,,50,50,39,28,19,5,,,,66,39,7,8,0.4,0.3
2024-11-07T0400,1270A,117.1959,31.7848,合肥市,明珠广场,,44,44,52,17,22,17,,,,68,51,8,8,0.4,0.4
2024-11-07T0400,1271A,117.3072,31.8764,合肥市,三里街,,44,44,52,22,24,11,,,,62,44,6,6,0.5,0.5
2024-11-07T0400,1272A,117.2588,31.8707,合肥市,琥珀山庄,,36,36,46,20,24,40,,,,38,31,9,10,0.7,0.7
2024-11-07T0400,1273A,117.1604,31.9052,合肥市,董铺水库,,46,46,53,17,19,20,,,,60,36,5,5,0.4,0.4
2024-11-07T0400,1274A,117.25,31.8571,合肥市,长江中路,,41,41,51,22,27,34,,,,49,36,10,9,0.6,0.6
2024-11-07T0400,1275A,117.266,31.9436,合肥市,庐阳区,颗粒物(PM10),52,53,58,24,22,33,,,,41,41,3,4,0.7,0.7
2024-11-07T0400,1276A,117.336,31.8586,合肥市,瑶海区,,41,41,53,21,24,23,,,,60,45,7,7,0.7,0.4
2024-11-07T0400,1277A,117.3027,31.7964,合肥市,包河区,颗粒物(PM10),56,61,64,29,27,2,,,,86,70,6,7,0.5,0.6
2024-11-07T0400,1278A,117.2776,31.7385,合肥市,滨湖新区,颗粒物(PM10),52,53,53,22,21,29,,,,42,34,6,8,0.5,0.5
2024-11-07T0400,1279A,117.1318,31.8403,合肥市,高新区,,46,46,48,25,23,33,,,,48,33,2,2,0.7,0.7
2024-11-07T0400,3464A,117.3803,31.9147,合肥市,高教基地,,38,38,47,20,24,18,,,,39,33,5,7,0.4,0.4
2024-11-07T0400,3614A,79.924,37.0877,和田地区,地区环保局,颗粒物(PM10),130,210,147,42,36,54,,,,20,18,7,8,0.5,0.5
2024-11-07T0400,3615A,79.9131,37.113,和田地区,市环保局,颗粒物(PM10),100,150,131,57,45,39,,,,21,36,12,9,0.7,1.6
2024-11-07T0400,2516A,108.2011,24.715,河池市,东仁乐园,细颗粒物(PM2.5),58,51,60,41,37,38,,,,14,12,4,5,0.6,0.7
2024-11-07T0400,2517A,108.0497,24.6947,河池市,市环保站,细颗粒物(PM2.5),63,58,59,45,40,25,,,,35,24,10,10,0.7,0.7
2024-11-07T0400,2518A,108.0983,24.6989,河池市,市疾控中心,细颗粒物(PM2.5),67,63,68,48,45,25,,,,33,32,9,9,0.7,0.7
2024-11-07T0400,1696A,114.6778,23.7569,河源市,源西,,40,38,44,28,35,80,,,,17,14,10,8,0.5,0.7
2024-11-07T0400,1697A,114.6944,23.7586,河源市,东埔,,39,27,44,27,36,92,,,,14,15,7,6,0.6,0.7
2024-11-07T0400,1698A,114.6892,23.7233,河源市,老城,,44,44,49,21,31,89,,,,12,12,6,6,0.5,0.6
2024-11-07T0400,1718A,115.4208,35.2464,菏泽市,气象局,细颗粒物(PM2.5),79,91,100,58,54,65,,,,31,37,6,7,0.5,0.6
2024-11-07T0400,1719A,115.4747,35.2375,菏泽市,市政协,细颗粒物(PM2.5),63,74,97,45,54,75,,,,22,36,7,9,0.3,0.4
2024-11-07T0400,3374A,115.5564,35.0891,菏泽市,定陶老年大学,细颗粒物(PM2.5),83,83,88,61,52,52,,,,32,37,8,9,0.4,0.3
2024-11-07T0400,3647A,115.4702,35.2706,菏泽市,菏泽医专,颗粒物(PM10),64,77,95,40,47,78,,,,28,42,8,12,0.4,0.5
2024-11-07T0400,2514A,111.5264,24.4172,贺州市,环保小区,细颗粒物(PM2.5),55,50,68,39,50,51,,,,17,19,6,6,0.7,0.9
2024-11-07T0400,2515A,111.5608,24.4078,贺州市,政协大楼,颗粒物(PM10),53,55,73,29,47,59,,,,15,21,7,8,0.7,0.8
2024-11-07T0400,3534A,111.4744,24.4553,贺州市,西湾,细颗粒物(PM2.5),57,51,71,40,54,53,,,,20,17,7,8,0.6,0.7
2024-11-07T0400,2385A,114.17,35.9019,鹤壁市,市监测站,细颗粒物(PM2.5),75,88,100,55,59,49,,,,32,36,2,6,0.6,0.6
2024-11-07T0400,2386A,114.2956,35.7511,鹤壁市,市交警支队,细颗粒物(PM2.5),98,113,99,73,51,24,,,,60,40,7,7,0.7,0.7
2024-11-07T0400,2387A,114.2878,35.7306,鹤壁市,迎宾馆,细颗粒物(PM2.5),99,116,111,74,52,33,,,,60,48,8,4,0.7,0.6
2024-11-07T0400,3474A,114.2617,35.6822,鹤壁市,大新区,细颗粒物(PM2.5),114,110,91,86,70,6,,,,80,48,8,6,0.6,0.6
2024-11-07T0400,3596A,114.1572,35.9603,鹤壁市,南山宾馆,细颗粒物(PM2.5),94,96,100,70,66,67,,,,20,26,14,13,0.7,0.6
2024-11-07T0400,2244A,130.2537,47.3416,鹤岗市,哈啤分公司,,26,18,15,18,14,39,,,,3,3,12,12,0.4,0.4
2024-11-07T0400,2245A,130.2684,47.3086,鹤岗市,斯达机电,,22,16,17,15,14,37,,,,5,8,10,11,0.2,0.2
2024-11-07T0400,2246A,130.3114,47.3388,鹤岗市,东山纸板厂,颗粒物(PM10),57,63,37,18,14,21,,,,14,8,11,11,1.1,0.5
2024-11-07T0400,2247A,130.1097,47.3382,鹤岗市,五号水库,,16,15,14,6,8,49,,,,4,5,7,7,0.5,0.5
2024-11-07T0400,2263A,127.4833,50.2524,黑河市,交通局,,14,12,23,7,15,42,,,,6,15,6,7,0.3,0.4
2024-11-07T0400,2264A,127.5144,50.2341,黑河市,环保局,,18,15,28,12,19,26,,,,10,17,4,7,0.4,0.4
2024-11-07T0400,2265A,127.5291,50.2472,黑河市,大黑河岛,,12,8,20,3,14,38,,,,5,14,3,4,0.5,0.5
2024-11-07T0400,1074A,115.6838,37.7541,衡水市,电机北厂,细颗粒物(PM2.5),69,84,67,50,39,48,,,,30,34,7,8,0.5,0.5
2024-11-07T0400,1075A,115.6303,37.7316,衡水市,市监测站,颗粒物(PM10),66,82,71,39,35,37,,,,46,44,6,8,0.5,0.5
2024-11-07T0400,3188A,115.6683,37.7217,衡水市,市城管局,细颗粒物(PM2.5),68,74,70,49,39,36,,,,42,41,10,10,0.5,0.5
2024-11-07T0400,3459A,115.5989,37.5491,衡水市,地表水厂,细颗粒物(PM2.5),73,71,69,53,44,25,,,,44,49,6,8,0.5,0.5
2024-11-07T0400,2456A,112.5003,26.9167,衡阳市,原169医院,细颗粒物(PM2.5),63,63,61,45,40,74,,,,9,17,11,10,0.6,0.6
2024-11-07T0400,2457A,112.6194,26.9258,衡阳市,衡阳化工总厂,细颗粒物(PM2.5),112,101,83,84,63,78,,,,18,17,17,17,0.8,0.8
2024-11-07T0400,2458A,112.6211,26.8956,衡阳市,珠晖区环保局,细颗粒物(PM2.5),102,87,71,76,57,84,,,,27,29,12,11,1.0,0.9
2024-11-07T0400,2459A,112.6197,26.8733,衡阳市,市委党校,细颗粒物(PM2.5),85,77,70,63,47,95,,,,21,18,14,13,0.9,0.8
2024-11-07T0400,2460A,112.6006,26.8919,衡阳市,市监测站,细颗粒物(PM2.5),85,94,77,63,50,91,,,,21,19,18,17,1.0,0.9
2024-11-07T0400,2461A,112.5664,26.9056,衡阳市,真空机电公司,细颗粒物(PM2.5),95,,66,71,57,79,,,,25,23,12,17,0.9,0.9
2024-11-07T0400,3399A,112.6703,26.882,衡阳市,师范学院,颗粒物(PM10),76,102,76,46,51,88,,,,23,19,19,14,0.9,0.8
2024-11-07T0400,2608A,103.3772,23.3993,红河哈尼族彝族自治州,污水处理厂,细颗粒物(PM2.5),54,40,52,38,51,58,,,,6,12,8,8,0.6,0.6
2024-11-07T0400,2609A,103.3861,23.35,红河哈尼族彝族自治州,监测站,细颗粒物(PM2.5),58,44,54,41,47,65,,,,6,12,4,7,0.5,0.5
2024-11-07T0400,3038A,103.3758,23.368,红河哈尼族彝族自治州,州图书馆,细颗粒物(PM2.5),52,38,49,36,38,67,,,,5,10,7,11,0.6,0.6
2024-11-07T0400,1090A,111.6507,40.7517,呼和浩特市,呼市一监,颗粒物(PM10),51,51,56,30,28,6,,,,64,55,10,12,1.1,0.8
2024-11-07T0400,1091A,111.6572,40.8033,呼和浩特市,小召,,48,48,60,32,30,6,,,,69,58,10,13,0.8,0.8
2024-11-07T0400,1094A,111.7516,40.8369,呼和浩特市,如意水处理厂,颗粒物(PM10),57,63,67,31,29,1,,,,66,58,8,9,0.8,0.7
2024-11-07T0400,1095A,111.7276,40.8062,呼和浩特市,二十九中,颗粒物(PM10),53,56,58,33,28,5,,,,62,53,8,10,1.1,0.9
2024-11-07T0400,1096A,111.5512,40.7866,呼和浩特市,工大金川校区,颗粒物(PM10),55,59,65,30,30,3,,,,66,58,5,9,0.6,0.6
2024-11-07T0400,1097A,111.717,40.7612,呼和浩特市,化肥厂生活区,颗粒物(PM10),56,62,70,32,29,9,,,,66,57,11,13,1.3,0.9
2024-11-07T0400,3698A,111.5968,40.8178,呼和浩特市,红旗小学,颗粒物(PM10),56,61,67,36,31,2,,,,67,60,8,11,0.8,0.7
2024-11-07T0400,3699A,111.6518,40.8389,呼和浩特市,海东办,颗粒物(PM10),63,75,66,42,33,4,,,,65,58,9,10,1.2,1
2024-11-07T0400,2192A,119.7594,49.2261,呼伦贝尔市,区环保局,,29,25,33,20,17,29,,,,14,19,6,6,0.4,0.4
2024-11-07T0400,3061A,119.7512,49.1577,呼伦贝尔市,国华电力东,,22,21,24,15,13,36,,,,6,12,5,6,0.1,0.2
2024-11-07T0400,1250A,120.0751,30.8669,湖州市,城西水厂,,35,35,35,17,17,37,,,,47,36,6,7,0.4,0.4
2024-11-07T0400,2873A,120.0875,30.8955,湖州市,仁皇山新区,,25,24,29,13,14,34,,,,50,35,5,6,0.3,0.4
2024-11-07T0400,2907A,120.1844,30.8596,湖州市,吴兴区站,,31,31,28,15,15,46,,,,31,22,7,7,0.4,0.5
2024-11-07T0400,3562A,120.4148,30.8538,湖州市,南浔区站,,37,37,25,19,12,40,,,,37,29,4,4,0.3,0.3
2024-11-07T0400,1607A,120.9092,40.7136,葫芦岛市,龙港区,颗粒物(PM10),60,70,44,37,28,8,,,,48,27,11,22,0.8,0.7
2024-11-07T0400,1608A,120.8392,40.7514,葫芦岛市,化工街,颗粒物(PM10),59,68,62,34,31,6,,,,49,35,50,39,0.5,0.4
2024-11-07T0400,1609A,120.8341,40.7073,葫芦岛市,新区,颗粒物(PM10),55,60,47,29,31,5,,,,59,34,15,20,0.8,0.7
2024-11-07T0400,1610A,120.8695,40.7677,葫芦岛市,东城区,颗粒物(PM10),51,51,52,30,34,8,,,,44,36,21,28,0.9,0.9
2024-11-07T0400,2482A,109.5981,27.5721,怀化市,林科所,细颗粒物(PM2.5),57,54,50,40,38,107,,,,16,15,62,21,1.0,1
2024-11-07T0400,2483A,109.9453,27.5444,怀化市,河西地税局,"颗粒物(PM10),细颗粒物(PM2.5)",54,58,65,38,43,51,,,,14,20,8,18,0.6,0.6
2024-11-07T0400,2484A,109.9781,27.5342,怀化市,市四医院,细颗粒物(PM2.5),59,64,66,42,43,66,,,,17,14,27,18,0.6,0.6
2024-11-07T0400,2485A,109.9972,27.5578,怀化市,监测楼,颗粒物(PM10),59,68,71,38,39,42,,,,28,20,13,10,0.6,0.6
2024-11-07T0400,2486A,110.0394,27.583,怀化市,市委党校,细颗粒物(PM2.5),62,64,69,44,42,42,,,,28,22,41,24,0.6,0.6
2024-11-07T0400,1210A,119.036,33.5981,淮安市,钵池山,,48,48,51,30,29,39,,,,51,43,7,6,0.5,0.6
2024-11-07T0400,1211A,119.007,33.575,淮安市,北京南路,颗粒物(PM10),52,53,58,31,29,27,,,,41,39,7,8,0.5,0.5
2024-11-07T0400,1212A,118.989,33.6067,淮安市,市监测站,,39,36,49,27,33,34,,,,37,36,8,9,0.6,0.7
2024-11-07T0400,1213A,119.135,33.5039,淮安市,楚州区监测站,细颗粒物(PM2.5),67,71,62,48,39,8,,,,64,48,6,7,0.6,0.6
2024-11-07T0400,1214A,119.0186,33.6297,淮安市,淮阴区监测站,颗粒物(PM10),53,56,64,33,34,26,,,,57,53,4,6,0.7,0.7
2024-11-07T0400,3426A,118.8755,33.2894,淮安市,新华书店,,44,44,50,23,24,17,,,,58,47,5,6,0.5,0.6
2024-11-07T0400,2282A,116.8004,33.975,淮北市,监测站,,49,49,75,33,45,72,,,,19,30,3,5,0.5,0.6
2024-11-07T0400,2283A,116.8091,33.9007,淮北市,烈山区政府,细颗粒物(PM2.5),63,66,73,45,47,66,,,,33,40,5,6,0.3,0.3
2024-11-07T0400,3330A,116.8873,33.9836,淮北市,杜集区检察院,颗粒物(PM10),63,75,79,43,48,70,,,,19,26,3,6,0.5,0.5
2024-11-07T0400,4017A,116.7923,33.9535,淮北市,市博物馆,颗粒物(PM10),56,62,78,31,44,75,,,,22,31,7,9,0.5,0.6
2024-11-07T0400,2277A,116.8305,32.7727,淮南市,潘集区政府,细颗粒物(PM2.5),92,116,91,68,54,41,,,,38,36,14,12,0.6,0.5
2024-11-07T0400,2278A,117.0067,32.6524,淮南市,师范学院,细颗粒物(PM2.5),92,,69,68,38,60,,,,22,26,13,12,0.5,0.5
2024-11-07T0400,2279A,116.8569,32.5951,淮南市,谢家集区政府,,37,37,57,20,29,63,,,,19,26,10,10,0.4,0.5
2024-11-07T0400,2280A,116.8281,32.633,淮南市,八公山区政府,,38,38,63,18,32,68,,,,16,25,11,11,0.3,0.4
2024-11-07T0400,2281A,116.6325,32.6201,淮南市,焦岗湖风景区管理处,,34,34,49,17,28,60,,,,22,41,4,5,0.1,0.2
2024-11-07T0400,2894A,117.0566,32.6531,淮南市,经济技术开发区消防队,颗粒物(PM10),56,61,75,17,38,56,,,,23,32,8,7,0.4,0.5
2024-11-07T0400,3329A,117.0108,32.5893,淮南市,山南新区,,43,43,58,21,27,67,,,,18,20,5,4,0.3,0.4
2024-11-07T0400,2446A,114.9028,30.4742,黄冈市,职工中心,,47,47,57,26,38,82,,,,19,20,11,12,0.6,0.6
2024-11-07T0400,2929A,114.8858,30.4519,黄冈市,红卫路,,46,46,50,28,29,78,,,,27,24,10,10,0.5,0.5
2024-11-07T0400,3398A,114.9136,30.4445,黄冈市,市林业局,颗粒物(PM10),52,53,68,34,32,85,,,,26,22,12,12,0.6,0.6
2024-11-07T0400,2672A,102.0199,35.5102,黄南藏族自治州,同仁县隆务镇,,27,27,33,3,8,62,,,,1,7,6,6,0.4,0.5
2024-11-07T0400,2295A,118.2903,29.6963,黄山市,延安路89号,,19,19,31,13,16,30,,,,10,11,7,7,0.2,0.3
2024-11-07T0400,2296A,118.327,29.7178,黄山市,黄山东路89号,,30,29,43,21,17,39,,,,10,13,5,6,0.2,0.3
2024-11-07T0400,2297A,118.1371,30.2756,黄山市,黄山区政府5号楼,,38,31,38,26,23,18,,,,8,10,7,8,0.4,0.4
2024-11-07T0400,2423A,115.0601,30.2313,黄石市,沈家营,,43,43,49,20,23,72,,,,28,21,7,12,0.8,0.7
2024-11-07T0400,2424A,115.0817,30.2006,黄石市,陈家湾,,39,39,46,25,27,105,,,,12,18,11,12,0.6,0.6
2024-11-07T0400,2426A,114.8988,30.2019,黄石市,铁山,颗粒物(PM10),51,52,45,28,28,91,,,,18,19,7,8,0.9,0.7
2024-11-07T0400,2427A,115.0307,30.2092,黄石市,团城山,,47,47,49,25,20,93,,,,18,20,8,10,0.6,0.6
2024-11-07T0400,3149A,115.0235,30.1578,黄石市,笔架山北路,,47,47,42,21,20,77,,,,26,23,7,10,0.7,0.8
2024-11-07T0400,1392A,114.4183,23.0528,惠州市,河南岸金山湖子站,,36,36,49,24,34,94,,,,9,10,9,8,0.7,0.8
2024-11-07T0400,1393A,114.4053,23.0822,惠州市,下埔横江三路子站,,38,38,49,23,33,94,,,,10,11,9,8,0.5,0.8
2024-11-07T0400,1394A,114.4103,23.1142,惠州市,江北云山西路子站,,38,38,48,26,33,98,,,,11,12,10,8,0.6,0.7
2024-11-07T0400,1395A,114.4645,22.7833,惠州市,惠阳区承修路船湖子站,,43,43,58,22,33,88,,,,8,11,12,10,0.5,0.6
2024-11-07T0400,1396A,114.5317,22.7422,惠州市,大亚湾管委会子站,,40,40,50,28,33,98,,,,10,14,4,6,0.5,0.7
2024-11-07T0400,3314A,114.4338,22.8134,惠州市,惠阳秋长,,36,36,45,23,34,91,,,,11,14,8,8,0.5,0.6
2024-11-07T0400,3452A,114.6517,22.775,惠州市,大亚湾霞涌,细颗粒物(PM2.5),63,59,52,45,30,89,,,,10,11,8,7,0.4,0.5
2024-11-07T0400,2240A,130.9762,45.3001,鸡西市,环保局,,38,37,21,26,11,39,,,,1,5,5,7,0.2,0.1
2024-11-07T0400,2243A,130.9429,45.3039,鸡西市,第一中学,,40,37,22,28,13,28,,,,16,13,5,7,0.3,0.2
2024-11-07T0400,3707A,131.0207,45.3073,鸡西市,欧美日汽修厂,,46,40,32,32,17,21,,,,26,17,11,8,0.4,0.4
2024-11-07T0400,3709A,130.9967,45.3106,鸡西市,市政设施管理处,,40,40,25,28,14,18,,,,25,17,9,6,0.3,0.3
2024-11-07T0400,2367A,114.9754,27.0803,吉安市,红声器材厂,颗粒物(PM10),53,55,53,26,24,74,,,,30,26,16,14,0.5,0.5
2024-11-07T0400,2368A,114.9658,27.0999,吉安市,市森林工业局,,49,49,49,30,26,74,,,,22,23,16,16,0.7,0.6
2024-11-07T0400,2369A,114.99,27.1312,吉安市,市环境监测站,颗粒物(PM10),52,53,47,28,24,76,,,,26,26,15,15,0.6,0.5
2024-11-07T0400,2370A,115.0093,27.0968,吉安市,青原区法院,颗粒物(PM10),51,51,52,27,25,68,,,,27,24,21,15,0.6,0.5
2024-11-07T0400,1772A,126.54,43.8622,吉林市,哈达湾,细颗粒物(PM2.5),57,53,37,40,28,15,,,,34,27,10,9,0.8,0.6
2024-11-07T0400,1773A,126.5844,43.8358,吉林市,东局子,,48,47,40,33,26,9,,,,33,29,6,7,0.8,0.6
2024-11-07T0400,1774A,126.5052,43.8245,吉林市,电力学院,细颗粒物(PM2.5),54,48,53,38,40,6,,,,29,28,8,8,1.0,1
2024-11-07T0400,1775A,126.6133,43.8972,吉林市,江北,,36,34,64,25,37,26,,,,17,29,9,10,0.6,0.8
2024-11-07T0400,1776A,126.555,43.8306,吉林市,江南公园,细颗粒物(PM2.5),53,54,49,37,34,7,,,,34,28,9,10,0.8,0.6
2024-11-07T0400,1778A,126.7061,43.7133,吉林市,丰满,细颗粒物(PM2.5),53,46,19,37,17,26,,,,22,7,11,8,1.1,0.7
2024-11-07T0400,2868A,126.4739,43.953,吉林市,九站,细颗粒物(PM2.5),67,68,51,48,33,6,,,,41,30,41,11,0.9,0.7
2024-11-07T0400,1299A,116.9862,36.6114,济南市,科干所,颗粒物(PM10),54,58,42,29,17,95,,,,20,32,11,8,0.8,0.7
2024-11-07T0400,1300A,116.9376,36.665,济南市,农科所,颗粒物(PM10),57,63,60,29,20,58,,,,42,58,8,6,0.8,0.8
2024-11-07T0400,1301A,117.1265,36.6734,济南市,开发区,颗粒物(PM10),52,54,43,34,22,43,,,,46,51,8,6,0.7,0.6
2024-11-07T0400,1303A,117.0624,36.6868,济南市,省种子仓库,颗粒物(PM10),56,61,58,31,21,47,,,,54,58,7,4,0.6,0.7
2024-11-07T0400,1304A,116.9489,36.6447,济南市,机床二厂,颗粒物(PM10),58,66,71,37,24,56,,,,43,54,8,6,0.6,0.7
2024-11-07T0400,1305A,117.0495,36.663,济南市,市监测站,颗粒物(PM10),53,56,50,32,22,96,,,,21,57,9,6,0.8,1
2024-11-07T0400,1306A,116.7675,36.5484,济南市,长清党校,颗粒物(PM10),53,56,43,34,26,83,,,,32,40,12,9,0.8,0.7
2024-11-07T0400,1616A,117.6795,36.229,济南市,技术学院,,39,39,48,24,26,35,,,,39,46,7,10,0.7,1
2024-11-07T0400,1961A,117.532,36.6868,济南市,东山小学,颗粒物(PM10),56,61,45,34,15,67,,,,28,41,12,9,0.9,0.8
2024-11-07T0400,3059A,117.7161,36.2049,济南市,泰兴公司,,44,44,63,29,29,7,,,,67,56,8,11,0.3,0.6
2024-11-07T0400,3064A,117.6867,36.2171,济南市,莱芜战役纪念馆,,44,44,63,19,26,23,,,,58,56,6,9,0.5,0.8
2024-11-07T0400,3494A,117.1673,36.9782,济南市,济阳区政府,颗粒物(PM10),67,83,63,29,22,6,,,,86,53,9,9,0.5,0.5
2024-11-07T0400,3495A,117.1171,36.63,济南市,锦屏中学,,46,42,27,32,17,90,,,,23,30,10,6,0.5,0.4
2024-11-07T0400,3682A,116.9814,36.6819,济南市,济南四建,颗粒物(PM10),54,58,49,34,23,30,,,,66,53,6,5,0.9,0.9
2024-11-07T0400,1653A,116.6251,35.4302,济宁市,火炬城,细颗粒物(PM2.5),67,67,59,48,36,49,,,,36,35,13,11,0.8,0.7
2024-11-07T0400,1655A,116.5491,35.4042,济宁市,电化厂,颗粒物(PM10),63,76,66,41,33,46,,,,39,37,10,10,0.9,0.9
2024-11-07T0400,3500A,116.5814,35.3707,济宁市,北湖一中,细颗粒物(PM2.5),67,61,64,48,39,45,,,,36,40,7,6,0.7,0.7
2024-11-07T0400,3501A,116.8249,35.5593,济宁市,服务中心,颗粒物(PM10),61,72,79,40,38,24,,,,51,41,12,11,0.7,0.7
2024-11-07T0400,3678A,116.5907,35.4054,济宁市,市第七中学,细颗粒物(PM2.5),62,69,57,44,37,42,,,,42,34,8,6,0.8,0.8
2024-11-07T0400,2255A,130.2751,46.8028,佳木斯市,佳纺,,35,35,25,16,15,7,,,,35,28,3,6,0.7,0.6
2024-11-07T0400,2256A,130.3995,46.8307,佳木斯市,发电厂,,22,19,13,15,9,10,,,,33,15,5,5,0.4,0.4
2024-11-07T0400,2257A,130.3258,46.7975,佳木斯市,环保局,,36,36,26,18,15,4,,,,37,28,9,11,0.5,0.4
2024-11-07T0400,2258A,130.3648,46.8032,佳木斯市,十一中,,28,27,18,19,13,8,,,,39,28,6,7,0.4,0.5
2024-11-07T0400,2259A,130.3794,46.7588,佳木斯市,四丰,,,,,,,35,,,,,,1,1,0.2,0.2
2024-11-07T0400,1252A,120.7436,30.778,嘉兴市,清河小学,,33,33,25,12,7,36,,,,41,28,8,8,0.3,0.2
2024-11-07T0400,1253A,120.726,30.7478,嘉兴市,嘉兴学院,,26,26,24,9,10,48,,,,26,24,5,5,0.5,0.5
2024-11-07T0400,2872A,120.7846,30.7525,嘉兴市,南湖区残联,,28,28,29,11,10,55,,,,31,28,6,6,0.3,0.2
2024-11-07T0400,3407A,120.6916,30.7739,嘉兴市,秀洲住建,,32,32,26,16,12,30,,,,42,25,8,8,0.3,0.3
2024-11-07T0400,1945A,98.2908,39.7711,嘉峪关市,气象局,颗粒物(PM10),67,83,90,27,23,32,,,,42,37,63,22,1.1,0.5
2024-11-07T0400,2884A,98.2672,39.7978,嘉峪关市,酒钢宾馆,颗粒物(PM10),69,88,84,27,28,33,,,,46,37,67,35,0.5,0.6
2024-11-07T0400,3248A,98.2643,39.7724,嘉峪关市,雄关区,,48,48,64,18,23,32,,,,44,44,19,15,0.4,0.4
2024-11-07T0400,1383A,113.1064,22.6058,江门市,北街,,43,43,58,27,37,75,,,,31,28,7,7,0.6,0.7
2024-11-07T0400,1384A,113.0731,22.5835,江门市,西区,,49,49,65,27,34,65,,,,29,27,8,8,0.4,0.6
2024-11-07T0400,1385A,113.0219,22.5311,江门市,圭峰西,,38,38,53,26,38,84,,,,26,25,5,5,0.4,0.5
2024-11-07T0400,1386A,113.0828,22.5947,江门市,东湖,,41,41,59,19,34,72,,,,24,24,7,7,0.6,0.6
2024-11-07T0400,3311A,113.1075,22.5647,江门市,江海富民,颗粒物(PM10),54,57,62,30,32,68,,,,32,29,7,7,0.6,0.7
2024-11-07T0400,3449A,113.05,22.4667,江门市,新会银湖,,43,39,55,30,41,70,,,,29,30,7,7,0.5,0.6
2024-11-07T0400,1828A,113.227,35.2125,焦作市,市环保局,细颗粒物(PM2.5),105,122,105,79,65,60,,,,32,36,5,6,0.5,0.4
2024-11-07T0400,1830A,113.1992,35.2590,焦作市,影视城,细颗粒物(PM2.5),85,87,83,63,63,108,,,,10,17,8,10,0.8,0.8
2024-11-07T0400,3169A,113.2725,35.2067,焦作市,太极体育中心,细颗粒物(PM2.5),105,150,101,79,60,28,,,,58,38,12,7,0.7,0.6
2024-11-07T0400,3335A,113.3137,35.2641,焦作市,马村街道办,细颗粒物(PM2.5),104,107,101,78,67,51,,,,32,30,4,8,0.6,0.6
2024-11-07T0400,3336A,113.2465,35.2373,焦作市,焦作技师学院,细颗粒物(PM2.5),83,100,98,61,55,51,,,,24,29,4,6,0.6,0.6
2024-11-07T0400,3477A,113.1656,35.2539,焦作市,中站许衡医院,细颗粒物(PM2.5),78,75,92,57,56,96,,,,12,23,7,9,0.4,0.4
2024-11-07T0400,3981A,113.2449,35.1803,焦作市,原李万街道办,细颗粒物(PM2.5),107,151,116,80,58,42,,,,41,38,22,6,0.6,0.5
2024-11-07T0400,1708A,116.3701,23.5345,揭阳市,新兴,,42,42,49,20,27,67,,,,22,21,22,11,0.5,0.6
2024-11-07T0400,1709A,116.3264,23.5443,揭阳市,西马,,40,40,52,18,25,68,,,,18,15,16,11,0.4,0.6
2024-11-07T0400,1710A,116.3611,23.5626,揭阳市,东兴,,43,43,53,21,26,52,,,,35,19,23,15,0.7,0.8
2024-11-07T0400,1711A,116.4151,23.5294,揭阳市,渔湖,,35,35,49,19,24,69,,,,20,20,27,11,0.4,0.6
2024-11-07T0400,3320A,116.403,23.5699,揭阳市,曲溪,,46,46,54,26,29,62,,,,27,21,24,17,0.6,0.7
2024-11-07T0400,1944A,102.1692,38.5167,金昌市,天庆家园,颗粒物(PM10),56,62,127,31,68,37,,,,26,48,13,44,0.7,1
2024-11-07T0400,3170A,102.1864,38.5253,金昌市,市委党校,颗粒物(PM10),69,88,149,48,77,58,,,,16,44,18,36,0.7,1.1
2024-11-07T0400,4022A,102.1647,38.5371,金昌市,金川区人防中心,细颗粒物(PM2.5),58,50,148,41,86,46,,,,15,35,13,35,0.7,1
2024-11-07T0400,1262A,119.647,29.077,金华市,十五中,,45,45,56,22,26,17,,,,52,42,4,4,0.5,0.5
2024-11-07T0400,1263A,119.686,29.1029,金华市,监测站,,40,40,58,21,28,14,,,,44,40,4,5,0.3,0.5
2024-11-07T0400,3659A,119.656,29.1131,金华市,气象局,,44,44,51,25,23,11,,,,54,47,4,5,0.8,0.7
2024-11-07T0400,1767A,121.1115,41.0879,锦州市,南山,细颗粒物(PM2.5),59,61,43,42,30,7,,,,68,41,189,35,1.0,0.8
2024-11-07T0400,1768A,121.0533,40.8434,锦州市,开发区,颗粒物(PM10),70,89,46,37,27,5,,,,54,30,25,18,1.0,0.8
2024-11-07T0400,1769A,121.1836,41.1119,锦州市,百股街道,细颗粒物(PM2.5),62,53,47,44,29,5,,,,60,42,51,60,1.3,0.9
2024-11-07T0400,1770A,121.1178,41.1222,锦州市,天安街道,细颗粒物(PM2.5),58,58,45,41,29,6,,,,61,41,41,51,1.1,0.9
2024-11-07T0400,1771A,121.1303,41.1386,锦州市,北湖公园,细颗粒物(PM2.5),55,53,46,39,31,5,,,,64,40,24,24,1.0,0.8
2024-11-07T0400,2160A,112.85,35.5051,晋城市,自来水公司,细颗粒物(PM2.5),104,105,84,78,54,27,,,,54,42,6,8,0.9,1
2024-11-07T0400,2161A,112.8318,35.4936,晋城市,白云商贸,细颗粒物(PM2.5),94,121,101,70,55,35,,,,50,42,4,6,0.7,0.7
2024-11-07T0400,2162A,112.8508,35.4887,晋城市,市环保局,细颗粒物(PM2.5),104,133,96,78,57,21,,,,51,41,5,7,0.8,0.9
2024-11-07T0400,2163A,112.8676,35.4897,晋城市,技术学院,细颗粒物(PM2.5),85,107,86,63,47,6,,,,80,44,5,7,0.8,0.9
2024-11-07T0400,2165A,112.8453,35.546,晋城市,白马寺,细颗粒物(PM2.5),87,103,86,64,51,98,,,,25,24,13,13,0.7,0.7
2024-11-07T0400,3620A,112.8271,35.4828,晋城市,泽州一中,细颗粒物(PM2.5),104,101,86,78,57,51,,,,31,40,4,8,0.9,0.9
2024-11-07T0400,2171A,112.7532,37.6945,晋中市,锦纶小区,颗粒物(PM10),60,70,81,41,41,6,,,,62,52,9,11,0.7,0.6
2024-11-07T0400,2173A,112.7249,37.7067,晋中市,南都小区,细颗粒物(PM2.5),65,64,82,47,39,5,,,,67,57,7,10,0.6,0.6
2024-11-07T0400,2174A,112.6991,37.6982,晋中市,榆次区政府,颗粒物(PM10),64,78,83,38,35,10,,,,63,54,8,9,0.7,0.7
2024-11-07T0400,2865A,112.7195,37.6828,晋中市,榆次三中,颗粒物(PM10),65,80,95,34,41,4,,,,57,49,10,12,0.9,0.8
2024-11-07T0400,2439A,112.2014,31.0481,荆门市,竹园小学,细颗粒物(PM2.5),74,79,96,54,58,59,,,,17,36,12,13,0.6,0.8
2024-11-07T0400,2440A,112.1969,30.9891,荆门市,掇刀,细颗粒物(PM2.5),114,119,97,86,67,52,,,,38,45,10,11,0.8,0.7
2024-11-07T0400,2441A,112.2213,31.0386,荆门市,石化一小,细颗粒物(PM2.5),110,132,111,83,63,9,,,,85,48,12,14,0.9,0.7
2024-11-07T0400,3012A,112.1849,31.0362,荆门市,西山林语,细颗粒物(PM2.5),74,73,87,54,54,99,,,,17,27,6,9,0.5,0.5
2024-11-07T0400,3547A,112.1632,31.0138,荆门市,龙泉中学南校,细颗粒物(PM2.5),85,83,108,63,65,131,,,,19,34,12,12,0.6,0.7
2024-11-07T0400,1844A,112.2494,30.3197,荆州市,市图书馆,细颗粒物(PM2.5),94,88,81,70,63,43,,,,57,48,6,8,1.0,0.9
2024-11-07T0400,1845A,112.2008,30.3544,荆州市,市委党校,细颗粒物(PM2.5),85,85,82,63,64,3,,,,81,55,6,9,1.1,0.9
2024-11-07T0400,3194A,112.2747,30.3122,荆州市,管委会,细颗粒物(PM2.5),87,98,81,64,63,38,,,,67,51,10,12,0.9,0.8
2024-11-07T0400,3548A,112.1655,30.3364,荆州市,学苑路,,,101,106,73,64,8,,,,77,39,,10,0.9,0.8
2024-11-07T0400,2342A,117.3102,29.3867,景德镇市,王港中学,,,,,,,,,,,,,,,,
2024-11-07T0400,2343A,117.2117,29.2933,景德镇市,老干部活动中心,,25,20,36,17,19,69,,,,13,14,6,7,0.2,0.2
2024-11-07T0400,2344A,117.1894,29.2789,景德镇市,兽医站,,30,30,43,9,16,77,,,,8,10,7,7,0.1,0.2
2024-11-07T0400,2345A,117.1547,29.2617,景德镇市,台达陶瓷,,29,29,35,13,16,72,,,,6,12,5,6,0.4,0.4
2024-11-07T0400,2346A,117.2461,29.2956,景德镇市,陶研所,,26,26,34,9,18,38,,,,17,14,6,6,0.3,0.3
2024-11-07T0400,1803A,115.9872,29.6815,九江市,十里,,45,45,56,28,30,76,,,,21,24,9,9,0.5,0.6
2024-11-07T0400,1804A,115.9584,29.7046,九江市,茅山头,,32,32,49,21,25,68,,,,20,20,13,10,0.6,0.6
2024-11-07T0400,1805A,115.9877,29.7295,九江市,西园,,41,41,49,24,24,73,,,,23,21,9,10,0.4,0.5
2024-11-07T0400,1806A,116.0172,29.6547,九江市,五七二七厂,,38,38,51,25,27,79,,,,17,19,13,12,0.6,0.7
2024-11-07T0400,1808A,115.9114,29.6038,九江市,综合工业园,,43,31,51,30,34,77,,,,28,25,22,21,0.4,0.5
2024-11-07T0400,1809A,116.0721,29.7535,九江市,石化总厂,,36,36,53,22,28,70,,,,24,26,10,10,0.6,0.7
2024-11-07T0400,1810A,115.9773,29.5698,九江市,庐山气象台,,37,14,37,8,24,116,,,,1,6,7,9,0.2,1
2024-11-07T0400,3190A,116.0254,29.6994,九江市,外国语学校,,40,40,46,26,28,64,,,,18,20,7,9,0.4,0.5
2024-11-07T0400,2658A,98.5061,39.7443,酒泉市,仓门街子站,颗粒物(PM10),53,56,86,23,32,32,,,,26,31,120,31,0.5,0.6
2024-11-07T0400,2659A,98.4989,39.7256,酒泉市,油田生活基地,颗粒物(PM10),58,66,96,29,35,34,,,,31,33,134,28,0.6,0.6
2024-11-07T0400,2698A,76.0072,39.4467,喀什地区,巡警大队,颗粒物(PM10),218,362,209,97,57,0,,,,79,60,12,9,3.6,1.8
2024-11-07T0400,2699A,75.9755,39.4694,喀什地区,吾办,颗粒物(PM10),159,268,201,100,76,0,,,,68,58,3,4,2.2,1.8
2024-11-07T0400,4027A,75.9483,39.4689,喀什地区,老干局,颗粒物(PM10),180,310,233,63,54,4,,,,74,55,3,4,2.9,1.8
2024-11-07T0400,1824A,114.3389,34.7781,开封市,肿瘤医院,细颗粒物(PM2.5),94,85,95,70,73,47,,,,30,48,4,8,0.6,0.6
2024-11-07T0400,1826A,114.2885,34.7965,开封市,世纪星幼儿园,细颗粒物(PM2.5),89,82,81,66,68,51,,,,30,36,3,4,0.3,0.4
2024-11-07T0400,3147A,114.3438,34.8106,开封市,龙亭公园,细颗粒物(PM2.5),99,87,91,74,74,52,,,,29,38,6,6,0.6,0.7
2024-11-07T0400,3210A,114.3644,34.7964,开封市,汴京公园,细颗粒物(PM2.5),93,79,95,69,70,49,,,,29,37,6,6,0.4,0.5
2024-11-07T0400,3473A,114.2485,34.8306,开封市,技师学院,细颗粒物(PM2.5),79,74,80,58,59,62,,,,24,30,6,7,0.4,0.4
2024-11-07T0400,3592A,114.4644,34.7556,开封市,祥符区生态环境局,细颗粒物(PM2.5),90,93,113,67,75,40,,,,34,47,4,6,0.5,0.5
2024-11-07T0400,1951A,84.895,45.6094,克拉玛依市,长征新村,,46,46,60,19,20,39,,,,15,32,7,7,0.4,0.6
2024-11-07T0400,1952A,84.8988,45.5893,克拉玛依市,南林小区,,48,48,59,28,30,25,,,,30,37,2,3,0.7,1
2024-11-07T0400,1954A,84.905,44.3396,克拉玛依市,独山子区,细颗粒物(PM2.5),89,83,73,66,43,57,,,,14,23,9,13,0.6,0.6
2024-11-07T0400,1955A,85.6979,46.098,克拉玛依市,乌尔禾区商贸楼,,41,41,53,19,20,26,,,,29,26,4,5,0.7,0.6
2024-11-07T0400,3612A,85.1045,45.6899,克拉玛依市,白碱滩区新站,颗粒物(PM10),58,65,56,25,18,6,,,,48,29,10,9,0.4,0.4
2024-11-07T0400,2697A,76.1454,39.7142,克孜勒苏柯尔克孜自治州,市人民政府,颗粒物(PM10),103,156,144,61,53,73,,,,20,26,14,18,0.8,0.7
2024-11-07T0400,3665A,76.1658,39.7157,克孜勒苏柯尔克孜自治州,克州文化中心,颗粒物(PM10),84,117,139,47,46,83,,,,32,39,9,14,0.6,0.8
2024-11-07T0400,1450A,102.8204,24.8886,昆明市,呈贡新区,,36,27,36,25,31,61,,,,6,9,1,3,0.6,0.6
2024-11-07T0400,1451A,102.6251,24.9608,昆明市,西山森林公园,,,,,,,,,,,,,,,,
2024-11-07T0400,1452A,102.7252,25.0902,昆明市,龙泉镇,,32,27,44,22,30,61,,,,9,19,6,7,0.7,0.7
2024-11-07T0400,1453A,102.7266,25.0375,昆明市,东风东路,,40,37,51,28,34,51,,,,12,22,6,7,0.7,0.7
2024-11-07T0400,1454A,102.6742,25.0669,昆明市,金鼎山,,44,44,48,24,31,62,,,,10,23,3,3,0.6,0.7
2024-11-07T0400,1455A,102.6644,25.0401,昆明市,碧鸡广场,,46,42,47,32,35,51,,,,18,24,4,4,0.5,0.6
2024-11-07T0400,3179A,102.7494,25.0119,昆明市,官渡区博物馆,,43,,45,30,36,51,,,,14,26,6,7,0.6,0.6
2024-11-07T0400,3375A,102.8017,24.8336,昆明市,青年创业园,,33,28,38,23,31,61,,,,7,16,3,4,0.5,0.5
2024-11-07T0400,3550A,102.7997,24.9786,昆明市,昆明学院,细颗粒物(PM2.5),52,42,51,36,39,58,,,,13,22,6,6,0.5,0.5
2024-11-07T0400,3551A,102.5967,24.6736,昆明市,晋宁区生态环境分局,,49,44,46,34,37,72,,,,8,16,1,2,0.9,0.8
2024-11-07T0400,3552A,102.6678,24.9856,昆明市,云天化总部,,46,37,46,32,36,64,,,,9,18,4,5,0.4,0.6
2024-11-07T0400,1456A,91.1319,29.6514,拉萨市,八廓街,,20,8,15,3,10,63,,,,12,20,7,6,0.1,0.3
2024-11-07T0400,1457A,91.1221,29.6747,拉萨市,市环保局,,18,17,35,12,18,55,,,,16,24,8,7,0.2,0.3
2024-11-07T0400,1458A,91.0874,29.6475,拉萨市,区监测站,,18,9,15,7,10,56,,,,16,27,6,5,0.4,0.5
2024-11-07T0400,1459A,91.1774,29.6541,拉萨市,西藏大学,,19,17,17,3,10,59,,,,9,14,6,3,0.5,0.6
2024-11-07T0400,1460A,90.9798,29.6588,拉萨市,区辐射站,,18,18,14,11,8,40,,,,27,20,7,8,0.4,0.4
2024-11-07T0400,1461A,91.0834,29.6292,拉萨市,拉萨火车站,,17,15,10,8,7,34,,,,34,18,5,5,0.6,0.4
2024-11-07T0400,2520A,109.2203,23.7256,来宾市,来宾技工学校,,49,49,74,33,50,96,,,,17,19,9,8,0.8,0.9
2024-11-07T0400,3535A,109.1781,23.7297,来宾市,兴宾区政府,细颗粒物(PM2.5),65,63,75,47,52,76,,,,11,13,5,7,0.8,1
2024-11-07T0400,4002A,109.2416,23.7461,来宾市,中南小学,颗粒物(PM10),54,58,72,35,49,91,,,,14,17,9,4,0.7,0.8
2024-11-07T0400,1476A,103.631,36.1031,兰州市,兰炼宾馆,细颗粒物(PM2.5),85,104,111,63,61,9,,,,61,69,14,17,0.9,1.1
2024-11-07T0400,1477A,104.1373,35.9454,兰州市,榆中兰大校区,,,,,,,,,,,,,,,,
2024-11-07T0400,1478A,103.8412,36.0726,兰州市,生物制品所,细颗粒物(PM2.5),69,80,82,50,47,3,,,,62,60,10,15,0.7,1
2024-11-07T0400,1479A,103.831,36.0464,兰州市,铁路设计院,细颗粒物(PM2.5),79,84,88,58,58,3,,,,67,72,7,14,1.1,1.4
2024-11-07T0400,3186A,103.7158,36.1058,兰州市,教育港,颗粒物(PM10),68,85,105,48,54,1,,,,54,63,9,14,0.8,1.2
2024-11-07T0400,3241A,103.7439,36.0842,兰州市,百合公园,细颗粒物(PM2.5),68,56,82,49,41,17,,,,40,57,5,14,1.0,1.2
2024-11-07T0400,3242A,103.9611,35.998,兰州市,和平,,47,47,72,31,45,34,,,,28,38,10,13,0.4,0.5
2024-11-07T0400,3245A,103.6633,36.533,兰州新区,新区管委会,颗粒物(PM10),64,77,82,42,48,22,,,,30,37,10,16,0.6,0.7
2024-11-07T0400,3246A,103.6975,36.4789,兰州新区,舟曲中学,细颗粒物(PM2.5),85,105,95,63,51,6,,,,54,43,11,18,0.7,0.7
2024-11-07T0400,1067A,116.6708,39.5111,廊坊市,药材公司,细颗粒物(PM2.5),144,155,101,110,64,4,,,,88,69,11,7,0.9,0.8
2024-11-07T0400,1068A,116.7214,39.5589,廊坊市,开发区,细颗粒物(PM2.5),123,132,97,93,58,0,,,,76,68,4,5,0.7,0.7
2024-11-07T0400,1070A,116.7244,39.5269,廊坊市,北华航天学院,细颗粒物(PM2.5),105,127,101,79,56,3,,,,60,59,9,7,0.7,0.8
2024-11-07T0400,2919A,116.7022,39.5453,廊坊市,河北工业大学,细颗粒物(PM2.5),130,148,107,99,62,3,,,,83,66,13,8,0.8,0.8
2024-11-07T0400,2535A,103.7723,29.5462,乐山市,花湖湾,细颗粒物(PM2.5),79,68,57,58,45,5,,,,13,16,4,4,0.8,0.7
2024-11-07T0400,2536A,103.7627,29.5844,乐山市,牛耳桥,细颗粒物(PM2.5),72,61,59,52,53,13,,,,19,27,4,5,0.6,0.6
2024-11-07T0400,2537A,103.7508,29.6006,乐山市,市第三水厂,细颗粒物(PM2.5),77,64,58,56,49,20,,,,21,26,4,5,0.7,0.7
2024-11-07T0400,2538A,103.7571,29.5664,乐山市,市监测站,细颗粒物(PM2.5),65,65,54,47,45,13,,,,16,18,4,5,0.8,0.8
2024-11-07T0400,3361A,103.7311,29.5628,乐山市,理工大学,细颗粒物(PM2.5),53,44,53,37,46,17,,,,16,18,4,5,0.7,0.7
2024-11-07T0400,2598A,100.2143,26.8576,丽江市,西南郊,,20,,17,10,14,63,,,,6,11,5,6,1.0,1.1
2024-11-07T0400,2599A,100.2497,26.8802,丽江市,丽江古城,,18,14,23,10,16,56,,,,12,11,9,10,0.5,0.6
2024-11-07T0400,2600A,100.2203,26.8906,丽江市,市中心,,23,,15,9,15,73,,,,3,10,6,8,0.6,0.7
2024-11-07T0400,1267A,119.914,28.4514,丽水市,监测站大楼,,41,41,37,3,11,30,,,,34,23,10,3,0.1,0.2
2024-11-07T0400,1268A,119.93,28.4586,丽水市,莲都小学,,22,22,36,13,19,28,,,,38,26,4,5,0.3,0.3
2024-11-07T0400,1269A,119.879,28.4231,丽水市,余庄前,,19,18,29,13,20,16,,,,14,14,5,5,0.2,0.2
2024-11-07T0400,1173A,119.176,34.5885,连云港市,市环境监测站,,36,36,48,24,23,63,,,,20,32,7,9,0.2,0.3
2024-11-07T0400,3000A,119.3581,34.6972,连云港市,德源药业,,31,31,40,19,18,58,,,,16,33,6,6,0.2,0.2
2024-11-07T0400,3007A,119.178,34.844,连云港市,新城一中,细颗粒物(PM2.5),55,50,55,39,30,1,,,,75,60,8,15,0.8,1.2
2024-11-07T0400,3008A,119.3608,34.7519,连云港市,胡沟管理处,,29,22,30,7,15,91,,,,11,20,10,10,0.2,0.3
2024-11-07T0400,3009A,119.1478,34.5911,连云港市,矿山设计院,,41,41,49,19,26,47,,,,20,34,6,8,0.6,0.7
2024-11-07T0400,3434A,119.2413,34.6539,连云港市,工贸学校,,27,21,37,12,20,85,,,,10,21,7,8,0.4,0.5
2024-11-07T0400,3664A,119.4172,34.7341,连云港市,连云街道,,32,23,29,12,16,100,,,,7,17,8,7,0.4,0.4
2024-11-07T0400,2571A,102.3431,27.8099,凉山彝族自治州,青龙寺,,20,20,23,10,11,30,,,,4,8,9,9,0.7,0.9
2024-11-07T0400,2572A,102.2721,27.8415,凉山彝族自治州,邛海宾馆,,36,31,41,25,29,26,,,,8,15,6,11,0.7,1.1
2024-11-07T0400,2573A,102.2625,27.898,凉山彝族自治州,西昌市政府,,33,28,30,23,24,45,,,,5,14,6,9,0.8,1.1
2024-11-07T0400,2574A,102.2685,27.8851,凉山彝族自治州,凉山州政府,,26,25,37,18,26,36,,,,10,15,6,11,0.8,0.9
2024-11-07T0400,2575A,102.237,27.8914,凉山彝族自治州,长安,,28,28,39,19,22,36,,,,8,19,8,13,0.5,0.8
2024-11-07T0400,2212A,123.2,41.1953,辽阳市,宏伟区,,29,22,37,20,24,45,,,,9,26,8,13,0.4,0.5
2024-11-07T0400,2213A,123.1683,41.2495,辽阳市,新华园,,36,35,51,25,27,21,,,,28,39,12,17,0.7,0.7
2024-11-07T0400,2214A,123.2354,41.2639,辽阳市,滨河路,,30,26,49,21,27,33,,,,22,34,12,17,0.5,0.5
2024-11-07T0400,2215A,123.149,41.2991,辽阳市,铁西工业园,,30,30,59,19,44,26,,,,21,32,12,15,0.7,0.8
2024-11-07T0400,2227A,125.1358,42.8845,辽源市,环保局,,45,45,37,28,18,5,,,,23,21,8,8,0.7,0.8
2024-11-07T0400,3239A,125.0764,42.9078,辽源市,银鹰制药,,32,32,30,13,19,4,,,,28,29,6,14,0.8,0.6
2024-11-07T0400,1625A,115.9848,36.4372,聊城市,区政府,颗粒物(PM10),59,68,72,39,39,57,,,,31,35,11,12,0.7,0.8
2024-11-07T0400,2878A,116.0072,36.4343,聊城市,聊大东校,"颗粒物(PM10),细颗粒物(PM2.5)",64,78,73,46,40,57,,,,30,35,10,12,0.6,0.6
2024-11-07T0400,3200A,115.9819,36.4978,聊城市,监控中心,颗粒物(PM10),64,77,70,41,43,67,,,,32,45,10,12,0.5,0.5
2024-11-07T0400,3513A,116.0445,36.4361,聊城市,九州社区,细颗粒物(PM2.5),67,75,64,48,29,48,,,,36,40,10,9,0.7,0.6
2024-11-07T0400,4018A,116.0567,36.4608,聊城市,星美广场,颗粒物(PM10),72,94,74,44,33,60,,,,31,34,10,11,0.7,0.6
2024-11-07T0400,2632A,94.3681,29.6376,林芝市,林芝监测站,,15,,12,9,8,45,,,,2,6,6,6,0.2,0.3
2024-11-07T0400,2633A,94.3616,29.6616,林芝市,林芝人民医院,,15,7,13,3,7,47,,,,2,5,6,6,0.4,0.4
2024-11-07T0400,2603A,100.0781,23.8982,临沧市,市环保局,,15,11,25,8,19,47,,,,7,12,8,8,0.6,0.6
2024-11-07T0400,2604A,100.0894,23.8822,临沧市,市气象局,,18,14,29,12,23,46,,,,7,13,8,9,0.5,0.6
2024-11-07T0400,1733A,111.5531,36.0783,临汾市,临钢医院,细颗粒物(PM2.5),77,72,96,56,50,20,,,,45,52,7,9,0.5,0.9
2024-11-07T0400,1734A,111.5028,36.0714,临汾市,技工学校,细颗粒物(PM2.5),88,98,95,65,53,48,,,,31,55,6,11,0.7,1
2024-11-07T0400,1736A,111.5018,36.0855,临汾市,市委,细颗粒物(PM2.5),90,102,97,67,49,46,,,,31,49,6,11,0.6,0.9
2024-11-07T0400,3018A,111.505,36.1014,临汾市,唐尧大酒店,细颗粒物(PM2.5),87,89,88,64,49,52,,,,29,48,5,9,0.7,0.9
2024-11-07T0400,3668A,111.5036,36.0414,临汾市,城南,细颗粒物(PM2.5),67,80,92,48,54,1,,,,44,50,5,9,0.8,1
2024-11-07T0400,2667A,103.2069,35.5993,临夏回族自治州,环保局,颗粒物(PM10),65,79,75,13,20,1,,,,40,41,5,8,1.6,1.2
2024-11-07T0400,2668A,103.2417,35.6057,临夏回族自治州,建设大厦,颗粒物(PM10),54,57,54,23,25,23,,,,14,27,4,6,0.7,0.8
2024-11-07T0400,1618A,118.3429,35.0532,临沂市,沂河小区,细颗粒物(PM2.5),57,51,53,40,35,43,,,,36,33,8,10,0.4,0.5
2024-11-07T0400,1619A,118.295,35.0583,临沂市,鲁南制药厂,颗粒物(PM10),51,51,50,32,29,40,,,,36,46,7,8,0.7,0.8
2024-11-07T0400,1620A,118.2794,34.9976,临沂市,新光毛纺厂,"颗粒物(PM10),细颗粒物(PM2.5)",53,56,56,37,34,6,,,,76,44,7,9,0.8,0.8
2024-11-07T0400,1621A,118.3956,35.0888,临沂市,河东保险公司,细颗粒物(PM2.5),70,78,62,51,37,5,,,,63,48,5,6,0.9,0.8
2024-11-07T0400,3370A,118.3564,35.0215,临沂市,十里堡居委,,45,41,44,31,26,37,,,,56,34,8,11,0.4,0.5
2024-11-07T0400,3496A,118.3604,35.1084,临沂市,南坊新区,细颗粒物(PM2.5),62,58,51,44,33,23,,,,55,44,7,7,0.7,0.7
2024-11-07T0400,3860A,118.3920,35.0300,临沂市,皇山花园小区,细颗粒物(PM2.5),74,85,62,54,34,5,,,,85,51,12,8,0.8,0.7
2024-11-07T0400,1870A,109.4856,24.3895,柳州市,柳东小学,,46,41,58,32,47,114,,,,8,10,10,10,0.4,0.5
2024-11-07T0400,1871A,109.4157,24.3277,柳州市,环保监测站,颗粒物(PM10),51,52,65,28,44,85,,,,21,15,10,10,0.6,0.7
2024-11-07T0400,1872A,109.389,24.341,柳州市,河西水厂,颗粒物(PM10),53,56,74,35,48,78,,,,20,16,10,10,0.9,1
2024-11-07T0400,1873A,109.4311,24.2921,柳州市,市四中,,42,37,61,29,44,113,,,,10,16,10,10,0.5,0.7
2024-11-07T0400,1874A,109.4006,24.3631,柳州市,市九中,颗粒物(PM10),54,58,77,33,48,61,,,,35,22,7,7,0.7,0.8
2024-11-07T0400,1875A,109.4958,24.3134,柳州市,古亭山,,42,42,60,24,39,114,,,,14,18,12,12,0.9,1
2024-11-07T0400,3402A,109.5422,24.3996,柳州市,市二中,,43,39,59,30,42,100,,,,16,19,11,11,0.6,0.7
2024-11-07T0400,2307A,116.5079,31.737,六安市,监测大楼,,50,45,59,35,31,56,,,,25,30,6,7,0.6,0.6
2024-11-07T0400,2308A,116.4738,31.7643,六安市,皖西学院,颗粒物(PM10),53,56,68,34,33,58,,,,27,30,6,7,0.6,0.7
2024-11-07T0400,2309A,116.4996,31.7905,六安市,朝阳厂,颗粒物(PM10),53,55,58,34,31,46,,,,31,33,2,4,0.5,0.6
2024-11-07T0400,2310A,116.5567,31.7886,六安市,开发区,颗粒物(PM10),72,93,80,42,38,22,,,,38,36,4,6,0.4,0.5
2024-11-07T0400,2576A,104.8,26.5892,六盘水市,窑上,,,,43,,35,,,55,,,10,,5,,0.6
2024-11-07T0400,2577A,104.83,26.5917,六盘水市,黄土坡,,43,43,39,25,31,76,,,,9,13,6,6,0.6,0.7
2024-11-07T0400,2578A,104.89,26.5939,六盘水市,水钢,,49,43,62,34,46,82,,,,6,11,3,4,0.5,0.5
2024-11-07T0400,2579A,104.8475,26.5894,六盘水市,民中,,39,38,39,27,30,71,,,,13,13,8,7,0.7,0.6
2024-11-07T0400,2580A,104.9544,26.5506,六盘水市,双水,,36,36,41,25,31,87,,,,6,10,6,6,0.4,0.4
2024-11-07T0400,2335A,117.0189,25.1181,龙岩市,龙岩师专,,,,,,,,,,,,,,,,
2024-11-07T0400,2336A,117.0217,25.1033,龙岩市,龙岩市监测站,,32,22,31,11,19,100,,,,10,12,5,7,0.3,0.4
2024-11-07T0400,2337A,117.0258,25.0661,龙岩市,闽西职业技术学院,,33,27,33,14,19,103,,,,5,7,3,3,0.4,0.5
2024-11-07T0400,2338A,117.0196,25.0306,龙岩市,龙岩学院,,33,19,30,10,18,104,,,,7,10,11,7,0.4,0.5
2024-11-07T0400,2665A,105.0822,33.3261,陇南市,汉王镇固水子,,,,,,,,,,,,,,,,
2024-11-07T0400,2885A,104.9339,33.3826,陇南市,滨江中学,,33,33,42,17,21,23,,,,15,18,6,7,0.7,0.7
2024-11-07T0400,3247A,104.955,33.371,陇南市,市总工会,,29,29,35,12,10,38,,,,5,10,4,5,0.7,0.8
2024-11-07T0400,2487A,111.9589,27.8901,娄底市,电视发射台,,46,41,51,32,43,82,,,,14,16,7,7,1.7,1.6
2024-11-07T0400,2488A,111.9975,27.725,娄底市,市监测站,细颗粒物(PM2.5),83,96,82,61,62,46,,,,44,28,16,10,1.5,1
2024-11-07T0400,2489A,112.0194,27.7314,娄底市,市委党校,细颗粒物(PM2.5),84,82,78,62,53,37,,,,31,26,5,5,0.9,0.8
2024-11-07T0400,2490A,111.9561,27.7569,娄底市,涟钢,细颗粒物(PM2.5),90,94,74,67,51,46,,,,19,20,6,9,0.9,1.1
2024-11-07T0400,2491A,111.9892,27.7044,娄底市,市政府,细颗粒物(PM2.5),79,76,73,58,52,30,,,,16,20,6,8,0.9,0.8
2024-11-07T0400,1893A,105.4324,28.9634,泸州市,九狮山,,33,33,63,17,38,11,,,,14,17,4,5,0.4,0.4
2024-11-07T0400,1894A,105.4427,28.9063,泸州市,小市上码头,,49,49,73,33,47,21,,,,17,29,5,5,0.5,0.7
2024-11-07T0400,1895A,105.4241,28.8573,泸州市,兰田宪桥,,40,32,52,28,46,18,,,,15,20,4,4,0.5,0.7
2024-11-07T0400,1896A,105.4379,28.8833,泸州市,市环监站,细颗粒物(PM2.5),55,50,76,39,57,18,,,,14,25,5,5,0.5,0.7
2024-11-07T0400,3490A,105.3617,28.7703,泸州市,纳溪区环保局,,32,27,43,22,37,9,,,,20,28,3,4,0.5,0.7
2024-11-07T0400,2183A,111.1406,37.5211,吕梁市,环保局,颗粒物(PM10),86,121,110,44,35,2,,,,45,46,3,4,0.6,0.6
2024-11-07T0400,2185A,111.1297,37.5136,吕梁市,自来水公司,颗粒物(PM10),104,157,105,48,35,2,,,,44,42,7,7,0.9,0.8
2024-11-07T0400,2867A,111.1283,37.51,吕梁市,马茂庄小学,颗粒物(PM10),93,136,111,41,35,2,,,,50,55,7,6,0.8,0.8
2024-11-07T0400,1812A,112.3931,34.6516,洛阳市,市委党校,细颗粒物(PM2.5),123,115,114,93,76,7,,,,56,61,2,6,0.7,0.7
2024-11-07T0400,1814A,112.4657,34.6871,洛阳市,豫西宾馆,细颗粒物(PM2.5),105,143,128,79,65,0,,,,65,51,5,7,0.6,0.5
2024-11-07T0400,1815A,112.494,34.6886,洛阳市,河南林校,细颗粒物(PM2.5),140,124,108,107,81,2,,,,62,43,3,7,0.3,0.2
2024-11-07T0400,1816A,112.3844,34.623,洛阳市,开发区管委会,细颗粒物(PM2.5),124,127,112,94,73,7,,,,44,45,6,10,0.5,0.5
2024-11-07T0400,1817A,112.4267,34.6258,洛阳市,市委新办公区,细颗粒物(PM2.5),137,150,123,104,76,15,,,,42,51,3,6,0.5,0.5
2024-11-07T0400,3340A,112.6005,34.6326,洛阳市,伊滨,细颗粒物(PM2.5),109,130,124,82,67,1,,,,60,50,3,7,0.5,0.4
2024-11-07T0400,3341A,112.4951,34.6332,洛阳市,中移产业园,细颗粒物(PM2.5),119,106,105,90,73,8,,,,57,55,4,7,0.7,0.6
2024-11-07T0400,3593A,112.5736,34.8993,洛阳市,吉利监测站,细颗粒物(PM2.5),114,122,99,86,74,4,,,,69,50,3,8,0.6,0.6
2024-11-07T0400,3635A,112.3677,34.662,洛阳市,河科大西苑校区,细颗粒物(PM2.5),118,118,118,89,75,13,,,,49,53,8,7,0.7,0.6
2024-11-07T0400,3636A,112.4388,34.6781,洛阳市,英才小学,细颗粒物(PM2.5),108,138,123,81,64,1,,,,63,53,6,7,0.7,0.6
2024-11-07T0400,2399A,114.051,33.5699,漯河市,三五一五工厂,细颗粒物(PM2.5),97,90,116,72,78,58,,,,27,35,8,10,0.6,0.6
2024-11-07T0400,2400A,114.0055,33.5698,漯河市,漯河大学,细颗粒物(PM2.5),83,88,116,61,71,62,,,,28,35,8,9,0.6,0.6
2024-11-07T0400,2401A,114.0138,33.5828,漯河市,市水利局,细颗粒物(PM2.5),79,88,111,58,70,61,,,,22,30,9,10,0.6,0.6
2024-11-07T0400,2402A,114.0261,33.5698,漯河市,市广电局,细颗粒物(PM2.5),89,88,108,66,76,60,,,,27,32,9,11,0.6,0.6
2024-11-07T0400,3478A,113.9749,33.5664,漯河市,市图书馆,细颗粒物(PM2.5),89,93,112,66,70,63,,,,23,26,6,8,0.5,0.6
2024-11-07T0400,3479A,114.0967,33.5906,漯河市,召陵区卫健委,细颗粒物(PM2.5),94,103,125,70,77,46,,,,33,37,11,12,0.6,0.6
2024-11-07T0400,1798A,118.5092,31.6837,马鞍山市,湖东路四小,,32,32,37,16,18,39,,,,23,28,4,4,0.7,0.6
2024-11-07T0400,1799A,118.5024,31.6449,马鞍山市,开发区,,46,46,58,30,29,14,,,,53,45,6,7,0.8,0.7
2024-11-07T0400,1800A,118.5228,31.7231,马鞍山市,慈湖,,30,30,27,21,22,47,,,,28,29,7,8,0.7,0.6
2024-11-07T0400,1802A,118.6245,31.7241,马鞍山市,濮塘,,30,30,34,19,19,26,,,,20,15,8,8,0.7,0.7
2024-11-07T0400,3633A,118.4918,31.6809,马鞍山市,雨山,,34,34,37,15,18,41,,,,26,26,5,5,0.6,0.6
2024-11-07T0400,1686A,111.0286,21.4688,茂名市,电白南海,细颗粒物(PM2.5),58,63,62,41,34,79,,,,17,20,17,10,0.6,0.6
2024-11-07T0400,1687A,110.9294,21.6533,茂名市,茂石化七小,细颗粒物(PM2.5),58,51,54,41,39,91,,,,15,14,20,12,0.8,0.8
2024-11-07T0400,1688A,110.9107,21.6687,茂名市,健康路,,49,48,58,34,40,86,,,,14,16,28,22,0.6,0.8
2024-11-07T0400,1689A,110.8592,21.6828,茂名市,高岭,细颗粒物(PM2.5),70,85,71,51,45,23,,,,31,21,16,15,0.8,0.8
2024-11-07T0400,3450A,111.01,21.5165,茂名市,电白水东,细颗粒物(PM2.5),55,46,50,39,35,90,,,,13,14,12,13,0.7,0.7
2024-11-07T0400,2539A,104.0308,30.0478,眉山市,黑龙滩水库,细颗粒物(PM2.5),59,47,44,42,40,40,,,,4,5,3,3,0.5,0.5
2024-11-07T0400,2540A,103.8416,30.0874,眉山市,气象局,细颗粒物(PM2.5),67,59,54,48,47,8,,,,29,25,7,7,0.5,0.6
2024-11-07T0400,3137A,103.8578,30.0744,眉山市,市委党校,细颗粒物(PM2.5),52,51,58,36,37,39,,,,17,26,6,7,0.5,0.5
2024-11-07T0400,3148A,103.8291,30.0564,眉山市,区人社局,,42,41,53,29,40,59,,,,14,30,4,4,0.6,0.7
2024-11-07T0400,1690A,116.1231,24.3284,梅州市,梅江月梅,,44,44,43,22,31,26,,,,37,22,8,8,0.6,0.7
2024-11-07T0400,1691A,116.0797,24.2719,梅州市,梅县新城,,44,44,43,23,27,57,,,,16,15,6,6,0.5,0.6
2024-11-07T0400,1692A,116.1248,24.2654,梅州市,环境监控中心,,42,42,43,21,26,65,,,,17,19,6,7,0.3,0.5
2024-11-07T0400,3315A,116.1233,24.2991,梅州市,梅龙,,33,31,40,23,30,48,,,,16,16,6,6,0.5,0.6
2024-11-07T0400,1878A,104.7778,31.4741,绵阳市,富乐山,细颗粒物(PM2.5),58,47,33,41,25,22,,,,11,16,2,2,0.6,0.6
2024-11-07T0400,1879A,104.7563,31.4535,绵阳市,市人大,细颗粒物(PM2.5),62,57,43,44,31,26,,,,17,24,3,3,0.5,0.5
2024-11-07T0400,1880A,104.6697,31.4668,绵阳市,高新区自来水公司,,48,48,41,24,22,2,,,,38,34,3,4,0.7,0.7
2024-11-07T0400,1881A,104.7287,31.5075,绵阳市,三水厂,细颗粒物(PM2.5),58,56,46,41,34,2,,,,29,32,6,6,0.7,0.6
2024-11-07T0400,3491A,104.69,31.5322,绵阳市,西科大附属小学,,47,47,50,27,28,7,,,,29,32,5,5,0.9,0.7
2024-11-07T0400,3492A,104.5648,31.5343,绵阳市,安州区旅游局,,49,36,34,34,27,10,,,,22,22,6,7,0.7,0.7
2024-11-07T0400,1784A,129.61,44.561,牡丹江市,环保大楼,,48,44,43,33,31,12,,,,24,18,6,5,0.4,0.4
2024-11-07T0400,1785A,129.6115,44.5782,牡丹江市,文化广场,细颗粒物(PM2.5),63,45,47,45,33,4,,,,33,22,7,8,0.5,0.4
2024-11-07T0400,1786A,129.5904,44.5963,牡丹江市,第一医院,细颗粒物(PM2.5),52,40,45,36,45,30,,,,13,15,5,5,0.4,0.4
2024-11-07T0400,1787A,129.6364,44.6075,牡丹江市,机车工厂,,46,43,50,32,35,10,,,,24,14,12,29,0.5,0.4
2024-11-07T0400,1788A,129.6386,44.5462,牡丹江市,第一中学,,48,34,39,33,32,5,,,,28,14,5,4,0.4,0.3
2024-11-07T0400,2531A,105.0703,29.61,内江市,市监测站,,46,43,34,32,38,42,,,,7,15,9,9,0.6,0.6
2024-11-07T0400,2532A,105.0717,29.5947,内江市,东兴区政府,,38,31,32,26,30,48,,,,8,16,6,7,0.7,0.8
2024-11-07T0400,2533A,105.0653,29.5817,内江市,内江二中,,49,,41,34,41,45,,,,12,23,6,6,0.5,0.6
2024-11-07T0400,2534A,105.0406,29.5822,内江市,内江日报社,细颗粒物(PM2.5),54,38,41,38,40,42,,,,20,26,6,6,0.6,0.5
2024-11-07T0400,2628A,92.0657,31.4846,那曲市,那曲监测站,,36,36,75,18,39,28,,,,19,29,5,10,1.1,1.2
2024-11-07T0400,3128A,92.0506,31.4797,那曲市,那曲会议中心,,,,67,,28,,,33,,,18,,5,,0.7
2024-11-07T0400,1290A,115.8931,28.6843,南昌市,省外办,细颗粒物(PM2.5),55,53,60,39,37,70,,,,29,26,14,14,0.7,0.7
2024-11-07T0400,1291A,115.8886,28.7003,南昌市,省林业公司,颗粒物(PM10),53,56,61,31,32,66,,,,29,25,10,10,0.5,0.6
2024-11-07T0400,1292A,115.8126,28.7442,南昌市,林科所,,41,41,51,22,27,86,,,,20,21,11,11,0.5,0.6
2024-11-07T0400,1294A,115.8518,28.687,南昌市,建工学校,颗粒物(PM10),55,60,60,32,31,80,,,,20,21,12,12,0.5,0.5
2024-11-07T0400,1295A,115.8921,28.6424,南昌市,象湖,,49,48,51,34,32,81,,,,27,26,12,12,0.6,0.6
2024-11-07T0400,1296A,115.7423,28.7996,南昌市,武术学校,,35,,36,24,14,16,,,,11,13,1,2,0.6,0.6
2024-11-07T0400,1298A,115.9314,28.6842,南昌市,省站,颗粒物(PM10),52,53,64,35,34,69,,,,24,20,12,11,0.6,0.7
2024-11-07T0400,3046A,115.9084,28.6062,南昌市,机电学校,颗粒物(PM10),55,60,66,34,30,70,,,,33,28,10,9,0.4,0.4
2024-11-07T0400,3690A,115.9721,28.7031,南昌市,外国语学校,颗粒物(PM10),55,60,61,38,31,71,,,,26,23,10,10,0.7,0.7
2024-11-07T0400,1905A,106.056,30.8064,南充市,西山风景区,细颗粒物(PM2.5),55,,26,39,32,23,,,,14,14,3,2,0.5,0.5
2024-11-07T0400,1906A,106.0789,30.8023,南充市,南充市委,细颗粒物(PM2.5),53,45,43,37,32,2,,,,20,24,3,3,0.5,0.5
2024-11-07T0400,1907A,106.1031,30.8217,南充市,南充炼油厂,细颗粒物(PM2.5),60,51,51,43,36,14,,,,15,25,2,3,0.6,0.6
2024-11-07T0400,1908A,106.1064,30.7856,南充市,高坪区监测站,颗粒物(PM10),52,54,45,32,33,15,,,,16,26,3,3,0.4,0.4
2024-11-07T0400,1909A,106.0642,30.7636,南充市,嘉陵区环保局,"颗粒物(PM10),细颗粒物(PM2.5)",52,54,43,36,28,6,,,,26,28,5,4,0.5,0.6
2024-11-07T0400,1910A,106.1087,30.8388,南充市,市环境监测站,细颗粒物(PM2.5),57,46,46,40,35,12,,,,14,20,4,4,0.4,0.5
2024-11-07T0400,1151A,118.8086,32.1065,南京市,迈皋桥,,16,16,27,9,13,49,,,,17,34,4,4,0.4,0.2
2024-11-07T0400,1152A,118.7538,32.0551,南京市,草场门,,22,22,33,9,14,64,,,,25,39,5,5,0.4,0.3
2024-11-07T0400,1153A,118.7794,32.0745,南京市,山西路,,24,24,36,9,16,67,,,,6,22,3,4,0.6,0.5
2024-11-07T0400,1154A,118.7752,32.0023,南京市,中华门,,34,34,35,14,14,40,,,,38,36,4,4,0.4,0.5
2024-11-07T0400,1155A,118.8109,32.0309,南京市,瑞金路,,24,24,35,12,15,49,,,,12,25,4,4,0.3,0.3
2024-11-07T0400,1156A,118.7997,32.0754,南京市,玄武湖,,24,24,35,3,8,62,,,,24,48,6,6,0.6,0.5
2024-11-07T0400,1157A,118.6414,32.0931,南京市,浦口,,25,25,37,14,19,55,,,,20,30,6,7,0.7,0.7
2024-11-07T0400,1158A,118.7356,31.9996,南京市,奥体中心,,32,32,40,17,17,50,,,,29,35,7,8,0.2,0.3
2024-11-07T0400,1159A,118.9125,32.1028,南京市,仙林大学城,,20,14,33,7,12,63,,,,12,32,4,6,0.3,0.4
2024-11-07T0400,3422A,118.8436,31.9198,南京市,江宁彩虹桥,,36,36,36,17,14,36,,,,29,37,3,5,0.5,0.6
2024-11-07T0400,3423A,119.0138,31.6494,南京市,溧水永阳,,25,24,31,17,17,42,,,,27,28,3,4,0.5,0.4
2024-11-07T0400,3424A,118.879,31.3302,南京市,高淳老职中,,36,36,37,17,22,42,,,,28,25,5,6,0.5,0.4
2024-11-07T0400,3427A,118.8554,32.3578,南京市,六合雄州,,43,37,41,30,18,31,,,,20,29,5,23,0.4,0.7
2024-11-07T0400,1401A,108.3103,22.7881,南宁市,二十一中,细颗粒物(PM2.5),93,99,67,69,50,2,,,,79,27,13,7,1.3,1.2
2024-11-07T0400,1402A,108.3141,22.8528,南宁市,北湖,细颗粒物(PM2.5),79,92,73,58,53,63,,,,56,33,15,12,0.9,1.1
2024-11-07T0400,1403A,108.3206,22.8225,南宁市,市监测站,细颗粒物(PM2.5),79,67,69,58,51,74,,,,34,25,8,10,0.8,0.8
2024-11-07T0400,1404A,108.3829,22.8037,南宁市,大自然花园,细颗粒物(PM2.5),70,59,60,51,47,90,,,,18,18,12,10,0.7,0.7
2024-11-07T0400,1405A,108.4394,22.7904,南宁市,仙葫,细颗粒物(PM2.5),85,71,63,63,52,24,,,,71,22,11,7,0.9,0.8
2024-11-07T0400,1406A,108.2397,22.8467,南宁市,区农职院,细颗粒物(PM2.5),62,54,66,44,46,74,,,,15,20,6,11,1.0,0.9
2024-11-07T0400,1407A,108.3275,22.735,南宁市,英华嘉园,细颗粒物(PM2.5),94,83,66,70,50,36,,,,50,26,24,9,1.0,0.9
2024-11-07T0400,1408A,108.2257,22.7757,南宁市,沙井镇街道办,细颗粒物(PM2.5),79,78,78,58,52,12,,,,46,37,6,9,0.9,0.8
2024-11-07T0400,3401A,108.4834,22.7618,南宁市,红星社区,细颗粒物(PM2.5),77,68,66,56,55,98,,,,17,19,14,10,0.9,0.9
2024-11-07T0400,2331A,118.0966,26.6761,南平市,茫荡山,,,,30,,15,,,117,,,,,1,,0.3
2024-11-07T0400,2332A,118.1681,26.6369,南平市,南平市监测站,,21,21,27,10,18,55,,,,17,11,4,4,0.4,0.4
2024-11-07T0400,2333A,118.1825,26.6489,南平市,南平铝业有限公司,,27,27,32,6,17,46,,,,21,13,4,4,0.3,0.3
2024-11-07T0400,2334A,118.1756,26.6272,南平市,南平七中,,20,17,30,14,18,58,,,,14,12,3,5,0.4,0.4
2024-11-07T0400,1168A,120.9098,31.9663,南通市,狼山街道,,27,27,22,15,9,55,,,,14,11,8,7,0.4,0.4
2024-11-07T0400,1169A,120.86,32.0005,南通市,虹桥,,19,19,25,11,13,59,,,,24,20,6,6,0.3,0.3
2024-11-07T0400,1170A,120.87,32.02,南通市,城中,,,,29,,10,,,75,,,22,,7,,0.5
2024-11-07T0400,1171A,120.94,31.93,南通市,星湖花园,,25,25,22,16,11,57,,,,21,20,6,5,0.4,0.4
2024-11-07T0400,1172A,120.81,32.0417,南通市,紫琅学院,,26,26,29,13,13,34,,,,42,31,6,5,0.4,0.3
2024-11-07T0400,3291A,121.067,32.062,南通市,通州监测站,,36,36,27,19,12,66,,,,12,16,2,2,0.3,0.3
2024-11-07T0400,3432A,120.9348,31.9883,南通市,环境教育馆,,34,34,28,18,12,42,,,,26,21,5,4,0.4,0.4
2024-11-07T0400,2404A,112.5224,33.0122,南阳市,瓦房庄,细颗粒物(PM2.5),90,84,82,67,59,61,,,,28,25,5,6,0.8,0.8
2024-11-07T0400,2405A,112.5003,32.9735,南阳市,汉画馆,细颗粒物(PM2.5),70,81,85,51,45,55,,,,29,28,7,8,0.5,0.5
2024-11-07T0400,2406A,112.5573,33.027,南阳市,气象站,细颗粒物(PM2.5),79,89,85,58,50,66,,,,28,28,6,7,0.8,0.7
2024-11-07T0400,2407A,112.5481,32.9689,南阳市,理工学院,细颗粒物(PM2.5),79,74,80,58,56,68,,,,21,23,5,7,0.6,0.5
2024-11-07T0400,4008A,112.5234,32.9922,南阳市,卧龙区政府,细颗粒物(PM2.5),79,82,86,58,53,71,,,,22,29,5,6,0.6,0.6
2024-11-07T0400,1234A,121.8358,29.911,宁波市,区环保大楼,,26,19,23,3,8,81,,,,13,22,6,7,0.3,0.4
2024-11-07T0400,1235A,121.56,29.82,宁波市,万里学院,,32,32,29,14,12,43,,,,33,27,7,7,0.5,0.5
2024-11-07T0400,1236A,121.713,29.9572,宁波市,龙赛医院,,26,24,23,3,5,82,,,,13,18,7,8,0.4,0.4
2024-11-07T0400,1239A,121.633,29.7733,宁波市,钱湖水厂,,41,41,34,21,15,38,,,,30,28,10,9,0.4,0.4
2024-11-07T0400,1240A,121.5856,29.8635,宁波市,太古小学,,28,28,28,9,7,52,,,,22,23,8,8,0.7,0.7
2024-11-07T0400,1241A,121.524,29.8674,宁波市,市环境监测中心,,18,17,24,6,8,56,,,,24,26,12,11,0.6,0.6
2024-11-07T0400,2871A,121.6147,29.9017,宁波市,万里国际学校,,26,26,23,13,11,50,,,,34,34,8,8,0.5,0.5
2024-11-07T0400,3710A,121.5594,29.8975,宁波市,白沙活动中心,,23,23,25,11,10,47,,,,28,27,10,9,0.5,0.5
2024-11-07T0400,2339A,119.5001,26.6946,宁德市,金涵水库,,,,,,,,,,,,,,,,
2024-11-07T0400,2341A,119.5388,26.6612,宁德市,宁德市监测站,,25,18,34,16,19,80,,,,12,15,2,4,0.4,0.4
2024-11-07T0400,3209A,119.5231,26.6562,宁德市,宁德一中,,28,21,35,14,18,89,,,,8,13,2,5,0.2,0.3
2024-11-07T0400,2618A,98.8601,25.8567,怒江傈僳族自治州,州监测站,,18,18,23,7,16,23,,,,5,13,6,6,0.4,0.4
2024-11-07T0400,2619A,98.8546,25.8417,怒江傈僳族自治州,泸水一中,,6,6,17,3,14,17,,,,8,15,7,7,0.4,0.5
2024-11-07T0400,1888A,101.6891,26.571,攀枝花市,弄弄坪,细颗粒物(PM2.5),52,,45,36,33,25,,,,27,23,12,12,1.8,1
2024-11-07T0400,1889A,101.5769,26.5928,攀枝花市,河门口,,35,35,51,22,34,31,,,,19,23,6,14,0.8,1.5
2024-11-07T0400,1890A,101.7169,26.585,攀枝花市,炳草岗,细颗粒物(PM2.5),54,,45,38,33,28,,,,24,23,10,14,1.6,1.1
2024-11-07T0400,1891A,101.7369,26.5008,攀枝花市,仁和,,42,37,52,29,41,30,,,,12,23,5,12,0.8,1.5
2024-11-07T0400,2835A,101.7227,26.567,攀枝花市,四十中小,颗粒物(PM10),54,57,49,30,26,33,,,,10,12,7,15,1.6,1.3
2024-11-07T0400,1604A,122.0303,41.1489,盘锦市,开发区,细颗粒物(PM2.5),103,103,47,77,34,8,,,,52,33,41,14,1.9,0.7
2024-11-07T0400,1605A,122.0485,41.0883,盘锦市,兴隆台,细颗粒物(PM2.5),95,123,47,71,32,7,,,,52,38,42,16,2.2,0.8
2024-11-07T0400,1606A,121.8297,41.1028,盘锦市,新生街道,细颗粒物(PM2.5),80,83,40,59,29,9,,,,55,38,49,16,2.0,0.7
2024-11-07T0400,1832A,113.3257,33.742,平顶山市,新华旅馆,颗粒物(PM10),81,112,137,57,66,41,,,,48,46,9,10,0.5,0.5
2024-11-07T0400,1833A,113.2919,33.737,平顶山市,规划设计院,细颗粒物(PM2.5),93,114,140,69,78,48,,,,39,46,9,10,0.6,0.7
2024-11-07T0400,1834A,113.182,33.774,平顶山市,平顶山工学院,细颗粒物(PM2.5),85,104,116,63,66,58,,,,26,32,10,11,0.7,0.7
2024-11-07T0400,3204A,113.3025,33.73,平顶山市,规划局,细颗粒物(PM2.5),95,105,129,71,78,53,,,,39,42,9,10,0.5,0.7
2024-11-07T0400,3594A,112.8867,33.9116,平顶山市,石龙区,细颗粒物(PM2.5),142,169,173,108,78,7,,,,70,50,13,19,1.0,0.9
2024-11-07T0400,2656A,106.6692,35.5461,平凉市,聚贤嘉苑,细颗粒物(PM2.5),62,56,69,44,45,21,,,,36,47,8,12,0.6,0.6
2024-11-07T0400,2657A,106.7021,35.5307,平凉市,博物馆,,,,,,,,,,,,,,,,
2024-11-07T0400,2347A,114.0997,27.5002,萍乡市,武功山,,15,,24,6,3,48,,,,5,7,6,8,0.2,0.2
2024-11-07T0400,2348A,113.8385,27.6434,萍乡市,中医院,颗粒物(PM10),59,68,60,36,32,83,,,,15,14,44,36,0.5,0.6
2024-11-07T0400,2349A,113.8493,27.6253,萍乡市,市政府车库,颗粒物(PM10),60,69,59,41,36,53,,,,34,16,17,25,2.2,1
2024-11-07T0400,2350A,113.8676,27.6435,萍乡市,市环保局,颗粒物(PM10),56,61,58,39,35,59,,,,29,14,14,35,0.6,0.5
2024-11-07T0400,2351A,113.866,27.6198,萍乡市,安源区政府,颗粒物(PM10),53,55,58,24,30,66,,,,21,18,19,20,0.6,1
2024-11-07T0400,2319A,119.0141,25.4325,莆田市,荔城区仓后路,,31,21,33,6,11,98,,,,6,8,1,1,0.4,0.4
2024-11-07T0400,2320A,119.0015,25.4553,莆田市,莆田市监测站,,32,19,34,7,11,100,,,,4,5,2,2,0.3,0.2
2024-11-07T0400,2321A,119.1119,25.4561,莆田市,涵江区六中,,31,22,34,3,10,98,,,,5,6,2,2,0.3,0.3
2024-11-07T0400,2322A,119.1013,25.3215,莆田市,秀屿区政府,,,,44,4,11,92,,,,7,8,2,2,0.1,0.2
2024-11-07T0400,2323A,118.981,25.4792,莆田市,东圳水库,,,,,,,,,,,,,,,,
2024-11-07T0400,2392A,115.0312,35.7636,濮阳市,环保局,细颗粒物(PM2.5),92,71,65,68,54,48,,,,28,32,7,6,0.5,0.5
2024-11-07T0400,2394A,115.0574,35.7609,濮阳市,油田运输公司,细颗粒物(PM2.5),88,90,82,65,53,49,,,,33,36,6,7,0.5,0.5
2024-11-07T0400,2395A,115.0866,35.7754,濮阳市,油田物探公司,细颗粒物(PM2.5),93,91,90,69,57,46,,,,30,36,6,6,0.3,0.3
2024-11-07T0400,3021A,115,35.7668,濮阳市,濮水河管理处,细颗粒物(PM2.5),89,105,91,66,51,48,,,,31,34,8,6,0.4,0.5
2024-11-07T0400,2601A,100.98,22.7633,普洱市,市环保局,,39,33,30,27,26,66,,,,4,8,6,6,0.5,0.6
2024-11-07T0400,2602A,100.9817,22.8322,普洱市,普洱第二中学,,31,31,29,19,18,75,,,,4,10,7,7,0.6,0.6
2024-11-07T0400,2262A,131.0518,45.8751,七台河市,新一中,,12,11,13,8,8,28,,,,9,10,9,10,0.9,0.9
2024-11-07T0400,3345A,131.0577,45.7879,七台河市,中波台,,36,36,20,24,13,6,,,,46,23,10,10,0.8,0.8
2024-11-07T0400,3637A,131.0176,45.7761,七台河市,人民广场,,43,,23,30,19,31,,,,17,21,7,6,0.7,0.7
2024-11-07T0400,3684A,130.8781,45.8222,七台河市,新建矿广场,颗粒物(PM10),69,88,59,33,23,5,,,,38,27,6,8,0.8,0.5
2024-11-07T0400,1779A,123.9305,47.3636,齐齐哈尔市,安居小区,,49,45,47,34,33,32,,,,21,19,7,6,0.4,0.4
2024-11-07T0400,1780A,123.9488,47.3386,齐齐哈尔市,中心广场,,40,30,34,28,25,27,,,,18,16,5,4,0.4,0.4
2024-11-07T0400,1781A,123.9483,47.3227,齐齐哈尔市,农牧车辆厂,,39,39,40,13,24,23,,,,24,17,7,6,0.6,0.5
2024-11-07T0400,1783A,123.945,47.2988,齐齐哈尔市,市环境监测站,,43,43,39,25,26,31,,,,18,16,5,4,0.3,0.3
2024-11-07T0400,3662A,123.6333,47.2075,齐齐哈尔市,富区青少年活动中心,,30,30,42,20,25,38,,,,11,11,4,5,0.2,0.2
2024-11-07T0400,2591A,107.9783,26.5747,黔东南苗族侗族自治州,市环境监测站,细颗粒物(PM2.5),55,49,60,39,46,74,,,,21,20,5,6,0.4,0.5
2024-11-07T0400,2881A,107.8908,26.5311,黔东南苗族侗族自治州,凯里学院,,48,44,52,33,39,75,,,,15,18,4,6,0.6,0.6
2024-11-07T0400,2593A,107.5228,26.2403,黔南布依族苗族自治州,小围寨,细颗粒物(PM2.5),52,41,44,36,36,77,,,,12,11,6,5,0.4,0.4
2024-11-07T0400,3538A,107.5175,26.2978,黔南布依族苗族自治州,沙坝,,48,48,50,31,34,55,,,,13,13,4,4,0.6,0.6
2024-11-07T0400,2589A,104.9022,25.0925,黔西南布依族苗族自治州,场坝街,细颗粒物(PM2.5),77,63,54,56,42,17,,,,30,21,48,10,0.6,0.6
2024-11-07T0400,2590A,104.8811,25.0992,黔西南布依族苗族自治州,坪东大道,细颗粒物(PM2.5),60,59,49,43,44,16,,,,21,22,2,2,0.5,0.6
2024-11-07T0400,2502A,108.6236,21.9667,钦州市,市环保站,细颗粒物(PM2.5),85,114,88,63,54,54,,,,49,25,17,12,4.4,1.4
2024-11-07T0400,2503A,108.6549,21.9481,钦州市,沙埠小学,细颗粒物(PM2.5),78,84,86,57,55,80,,,,33,27,8,8,0.8,0.9
2024-11-07T0400,2504A,108.5989,21.7431,钦州市,港区一小,颗粒物(PM10),86,121,99,63,57,73,,,,30,26,9,9,1.9,1.1
2024-11-07T0400,3404A,108.5959,21.9633,钦州市,北职校,细颗粒物(PM2.5),92,80,81,68,65,94,,,,16,20,9,11,1.1,1.3
2024-11-07T0400,1042A,119.5134,39.8207,秦皇岛市,北戴河环保局,颗粒物(PM10),53,55,28,20,12,2,,,,54,26,4,4,0.8,0.5
2024-11-07T0400,1043A,119.7493,40.0116,秦皇岛市,第一关,颗粒物(PM10),53,55,34,21,24,0,,,,42,40,2,3,0.6,0.4
2024-11-07T0400,1044A,119.5897,39.9499,秦皇岛市,监测站,颗粒物(PM10),56,62,40,24,13,0,,,,39,36,4,4,0.5,0.4
2024-11-07T0400,1046A,119.5251,39.9041,秦皇岛市,建设大厦,细颗粒物(PM2.5),54,56,46,38,24,0,,,,41,37,5,4,0.5,0.4
2024-11-07T0400,3132A,119.610547,39.943889,秦皇岛市,文明里,颗粒物(PM10),59,67,45,29,22,2,,,,43,38,2,3,0.4,0.4
2024-11-07T0400,1307A,120.6659,36.2403,青岛市,仰口,细颗粒物(PM2.5),52,47,52,36,34,83,,,,13,17,9,9,0.5,0.5
2024-11-07T0400,1310A,120.4134,36.0658,青岛市,市南区东部子站,,46,46,78,27,33,36,,,,52,61,10,13,0.6,0.8
2024-11-07T0400,1311A,120.3664,36.1032,青岛市,四方区子站,颗粒物(PM10),56,61,83,39,47,17,,,,65,73,10,13,0.8,0.9
2024-11-07T0400,1312A,120.2994,36.054,青岛市,市南区西部子站,颗粒物(PM10),51,51,55,24,26,17,,,,93,52,11,13,0.6,0.6
2024-11-07T0400,1313A,120.4581,36.0858,青岛市,崂山区子站,,31,31,57,17,27,64,,,,31,50,9,12,0.5,0.7
2024-11-07T0400,1314A,120.1983,35.9608,青岛市,黄岛区子站,,34,34,51,22,28,91,,,,15,34,9,11,0.6,0.7
2024-11-07T0400,1315A,120.3999,36.3083,青岛市,城阳区子站,颗粒物(PM10),51,51,69,29,34,33,,,,48,56,9,12,0.6,0.8
2024-11-07T0400,1966A,120.0405,35.8735,青岛市,黄岛区4号,,46,46,55,29,28,83,,,,30,40,10,12,0.4,0.5
2024-11-07T0400,3362A,120.5014,36.4034,青岛市,即墨2号,细颗粒物(PM2.5),57,61,88,40,50,61,,,,32,57,9,12,0.5,0.7
2024-11-07T0400,3642A,120.3503,36.0736,青岛市,市北区南部,颗粒物(PM10),56,62,66,29,34,34,,,,68,58,11,13,0.7,0.7
2024-11-07T0400,3643A,120.3948,36.1805,青岛市,李沧区北部,细颗粒物(PM2.5),55,58,76,39,43,25,,,,67,59,12,13,0.9,0.9
2024-11-07T0400,1702A,113.0426,23.691,清远市,环保大楼,,34,34,38,23,31,103,,,,14,15,10,8,0.8,0.8
2024-11-07T0400,1703A,113.0208,23.7106,清远市,凤城街办,,35,27,41,16,27,110,,,,7,11,11,11,0.7,0.8
2024-11-07T0400,3025A,113.0477,23.6344,清远市,技师学院,,36,36,45,21,28,81,,,,13,13,16,10,0.8,0.8
2024-11-07T0400,3318A,112.9903,23.7403,清远市,清新太和,,37,24,34,17,26,118,,,,4,7,5,5,0.6,0.8
2024-11-07T0400,3455A,113.076,23.7198,清远市,清城东城,,30,30,44,20,29,93,,,,10,7,11,8,0.8,0.8
2024-11-07T0400,2661A,107.6325,35.7357,庆阳市,庆阳五中,细颗粒物(PM2.5),88,80,80,65,63,85,,,,23,27,16,16,0.5,0.5
2024-11-07T0400,2662A,107.6364,35.7067,庆阳市,市环保局,细颗粒物(PM2.5),74,79,76,54,53,96,,,,13,20,7,13,0.5,0.5
2024-11-07T0400,1916A,103.7897,25.5035,曲靖市,环境监测站,,45,37,46,31,29,54,,,,20,23,4,3,0.8,0.7
2024-11-07T0400,1917A,103.8,25.5364,曲靖市,烟厂办公区,,43,43,47,26,31,59,,,,12,16,4,4,0.6,0.6
2024-11-07T0400,3376A,103.7947,25.462,曲靖市,南苑二区,颗粒物(PM10),54,58,48,36,31,56,,,,14,13,5,5,0.8,0.6
2024-11-07T0400,3377A,103.7444,25.5261,曲靖市,曲靖师范学院,细颗粒物(PM2.5),52,41,48,36,35,59,,,,13,16,8,10,0.7,0.7
2024-11-07T0400,1264A,118.8692,28.9398,衢州市,环保大楼,,38,38,57,24,33,45,,,,31,34,4,5,0.3,0.5
2024-11-07T0400,1265A,118.8709,28.9666,衢州市,实验学校,,29,29,50,18,29,38,,,,35,31,7,9,0.4,0.5
2024-11-07T0400,1266A,118.8621,28.9808,衢州市,衢州学院,,32,32,54,19,29,38,,,,44,35,8,8,0.3,0.4
2024-11-07T0400,1611A,118.5819,24.9117,泉州市,涂山街,,32,21,35,10,14,101,,,,8,10,3,1,0.4,0.4
2024-11-07T0400,1612A,118.5972,24.8978,泉州市,津头埔,,30,21,38,9,14,96,,,,5,10,1,2,0.2,0.4
2024-11-07T0400,1613A,118.6663,24.9424,泉州市,万安,,32,22,40,10,14,100,,,,6,8,1,2,0.3,0.3
2024-11-07T0400,1614A,118.6117,24.9604,泉州市,清源山,,,,,,,,,,,,,,,,
2024-11-07T0400,3529A,118.6333,24.9264,泉州市,城华南路,,32,23,35,8,17,100,,,,2,7,1,2,0.1,0.2
2024-11-07T0400,2626A,88.8876,29.2718,日喀则市,日喀则监测站,,24,24,25,15,15,33,,,,20,23,5,5,0.4,0.6
2024-11-07T0400,3726A,88.8781,29.2426,日喀则市,林业技术推广中心,,19,19,15,6,5,42,,,,7,6,7,7,0.5,0.5
2024-11-07T0400,1659A,119.471,35.4209,日照市,监测站,颗粒物(PM10),53,56,53,34,33,3,,,,56,49,5,7,0.5,0.7
2024-11-07T0400,1660A,119.523,35.4216,日照市,市政府广场,细颗粒物(PM2.5),62,68,52,44,28,4,,,,59,48,7,7,0.9,0.7
2024-11-07T0400,1661A,119.5587,35.4044,日照市,港务局,颗粒物(PM10),56,61,57,38,34,2,,,,74,56,8,7,0.8,0.8
2024-11-07T0400,3507A,119.5328,35.4625,日照市,职业技术学院,,31,31,41,17,22,54,,,,31,34,4,5,0.6,0.5
2024-11-07T0400,3604A,119.3266,35.1044,日照市,岚山环保分局,细颗粒物(PM2.5),57,61,52,40,30,60,,,,44,33,17,19,1.0,1.3
2024-11-07T0400,1835A,111.1922,34.7752,三门峡市,市政府,细颗粒物(PM2.5),115,104,74,87,66,74,,,,23,26,10,12,0.6,0.5
2024-11-07T0400,1836A,111.1587,34.7942,三门峡市,开发区,细颗粒物(PM2.5),104,117,101,78,59,69,,,,20,26,11,12,0.6,0.6
2024-11-07T0400,1838A,111.143,34.7955,三门峡市,风景区,,,84,80,70,56,68,,,,,,16,19,0.8,0.8
2024-11-07T0400,3039A,111.1911,34.7829,三门峡市,三门峡市第一小学,细颗粒物(PM2.5),115,,73,87,60,69,,,,21,25,10,14,0.6,0.5
2024-11-07T0400,3598A,111.1,34.7167,三门峡市,富达温泉假日酒店,细颗粒物(PM2.5),117,124,108,88,62,61,,,,22,24,29,30,0.7,0.6
2024-11-07T0400,2324A,117.6211,26.2625,三明市,三钢,,35,25,34,24,28,76,,,,13,13,9,4,0.4,0.5
2024-11-07T0400,2325A,117.635,26.2714,三明市,三明二中,,29,29,35,17,21,77,,,,12,13,8,4,0.4,0.5
2024-11-07T0400,2326A,117.6028,26.2378,三明市,三元区政府,,28,28,38,13,21,84,,,,10,16,9,4,0.3,0.5
2024-11-07T0400,2327A,117.7275,26.3108,三明市,洋溪,,,,,,,,,,,,,,,,
2024-11-07T0400,1876A,109.5078,18.2489,三亚市,河东子站,,36,23,31,16,21,115,,,,2,5,2,2,0.4,0.4
2024-11-07T0400,1877A,109.4964,18.2681,三亚市,河西子站,,34,22,29,14,19,107,,,,3,8,3,3,0.5,0.5
2024-11-07T0400,3540A,109.7348,18.3443,三亚市,君悦子站,,31,12,35,8,21,99,,,,7,8,3,3,0.5,0.5
2024-11-07T0400,2624A,91.7608,29.2313,山南市,山南监测站,,20,7,10,3,7,61,,,,7,7,4,5,0.2,0.4
2024-11-07T0400,2625A,91.7706,29.2436,山南市,山南人民医院,,20,10,11,3,6,62,,,,5,7,4,4,0.4,0.5
2024-11-07T0400,1674A,116.6794,23.3667,汕头市,金平子站,,30,29,40,19,25,96,,,,10,11,8,8,0.5,0.6
2024-11-07T0400,1675A,116.7244,23.3633,汕头市,龙湖子站,,33,33,42,12,18,89,,,,6,9,11,8,0.4,0.6
2024-11-07T0400,1676A,116.7258,23.2775,汕头市,濠江子站,,31,21,37,10,18,99,,,,7,8,8,7,0.4,0.5
2024-11-07T0400,1677A,116.7519,23.4714,汕头市,澄海子站,,28,18,41,3,16,87,,,,15,16,8,8,0.5,0.7
2024-11-07T0400,1678A,116.6092,23.2539,汕头市,潮阳子站,,32,32,44,7,17,95,,,,4,7,7,6,0.5,0.6
2024-11-07T0400,3444A,116.454,23.2684,汕头市,潮南峡山,,27,12,43,3,21,84,,,,12,15,9,8,0.3,0.6
2024-11-07T0400,3624A,116.4069,23.2533,汕头市,潮南子站,,26,24,49,11,23,81,,,,13,15,16,9,0.4,0.5
2024-11-07T0400,1693A,115.3653,22.775,汕尾市,市环保局,,50,50,43,22,29,76,,,,14,12,7,7,0.6,0.7
2024-11-07T0400,1694A,115.3706,22.7898,汕尾市,市政府,,47,47,43,17,25,77,,,,14,12,9,9,0.5,0.6
2024-11-07T0400,1695A,115.3622,22.7925,汕尾市,新城中学,,47,47,47,25,29,70,,,,17,13,7,7,0.6,0.7
2024-11-07T0400,2645A,109.9154,33.8715,商洛市,监测站,颗粒物(PM10),55,60,63,36,36,27,,,,34,21,4,7,0.6,0.6
2024-11-07T0400,3045A,109.9643,33.8471,商洛市,商州区中学,颗粒物(PM10),55,60,67,35,37,12,,,,50,35,6,8,0.7,0.7
2024-11-07T0400,2408A,115.6702,34.4285,商丘市,环境监测站,细颗粒物(PM2.5),83,65,75,61,58,58,,,,30,37,9,11,0.5,0.5
2024-11-07T0400,2409A,115.6458,34.4045,商丘市,粮食局,细颗粒物(PM2.5),72,65,69,52,55,61,,,,38,34,4,5,0.4,0.5
2024-11-07T0400,2410A,115.6293,34.3948,商丘市,睢阳区环保局,细颗粒物(PM2.5),62,56,75,44,54,63,,,,24,33,12,12,0.4,0.5
2024-11-07T0400,3171A,115.6071,34.4465,商丘市,梁园区档案局,细颗粒物(PM2.5),57,55,62,40,50,72,,,,21,31,7,8,0.3,0.4
2024-11-07T0400,1141A,121.4,31.238,上海市,普陀,,26,,21,16,13,81,,,,10,21,5,5,0.5,0.6
2024-11-07T0400,1142A,121.478,31.2036,上海市,十五厂,,26,11,20,3,7,82,,,,15,22,7,7,0.4,0.4
2024-11-07T0400,1143A,121.467,31.3008,上海市,虹口,,25,13,21,3,4,79,,,,16,25,8,8,0.5,0.6
2024-11-07T0400,1144A,121.412,31.1654,上海市,徐汇上师大,,27,,22,13,12,86,,,,15,23,8,8,0.4,0.5
2024-11-07T0400,1145A,121.536,31.2659,上海市,杨浦四漂,,25,13,21,3,8,79,,,,14,18,7,7,0.5,0.5
