timepoint,stationcode,longitude,latitude,area,positionname,primarypollutant,aqi,pm10,pm10_24h,pm2_5,pm2_5_24h,o3,o3_24h,o3_8h,o3_8h_24h,no2,no2_24h,so2,so2_24h,co,co_24h
2024-11-07T0200,2566A,102.1879,31.914,阿坝藏族羌族自治州,州农科所,,10,9,19,6,9,32,,,,15,10,7,11,0,0.1
2024-11-07T0200,2568A,102.2502,31.8896,阿坝藏族羌族自治州,马师校,,28,,14,19,19,9,,,,21,13,4,4,0.4,0.3
2024-11-07T0200,3994A,102.2165,31.9024,阿坝藏族羌族自治州,马尔康中学西区,,16,16,18,11,13,31,,,,9,11,6,6,0.5,0.5
2024-11-07T0200,2695A,80.292,41.1694,阿克苏地区,电视台,颗粒物(PM10),93,136,136,54,42,40,,,,48,48,5,7,0.8,0.9
2024-11-07T0200,2696A,80.2613,41.1551,阿克苏地区,艺术中心,颗粒物(PM10),89,127,131,43,37,57,,,,31,46,4,4,0.9,1
2024-11-07T0200,2204A,105.6467,38.8363,阿拉善盟,西城区西花园,,42,37,42,29,25,92,,,,10,20,11,12,0.6,0.8
2024-11-07T0200,2205A,105.6985,38.8411,阿拉善盟,蒙二幼,,29,21,36,8,15,90,,,,9,17,8,9,0.5,0.6
2024-11-07T0200,2206A,105.724,38.8516,阿拉善盟,环保局新楼,,31,14,29,7,13,97,,,,6,11,9,10,0.4,0.5
2024-11-07T0200,2708A,88.1264,47.8517,阿勒泰地区,市站,,34,34,28,3,7,31,,,,12,17,7,8,0.6,0.4
2024-11-07T0200,2630A,80.1161,32.5,阿里地区,阿里监测站,,30,30,20,15,8,38,,,,22,16,11,9,0.7,0.6
2024-11-07T0200,3192A,80.0903,32.5028,阿里地区,阿里藏医院,,21,21,16,10,6,53,,,,14,14,13,8,0.6,0.5
2024-11-07T0200,2642A,109.0318,32.6537,安康市,香溪洞,,50,50,34,29,21,47,,,,19,14,11,9,0.6,0.3
2024-11-07T0200,2644A,109.0072,32.6975,安康市,汉滨区检察院,,48,48,44,30,30,28,,,,22,20,6,8,0.4,0.5
2024-11-07T0200,4054A,109.0325,32.6913,安康市,市邮政管理局,,50,50,48,28,26,25,,,,26,21,19,10,0.5,0.6
2024-11-07T0200,2291A,117.0809,30.5177,安庆市,环科院,,45,45,54,25,30,76,,,,25,28,12,12,0.5,0.6
2024-11-07T0200,2292A,117.0331,30.5119,安庆市,马山宾馆,,38,35,54,26,31,86,,,,26,29,11,10,0.4,0.5
2024-11-07T0200,2294A,116.9896,30.6145,安庆市,安庆大学,颗粒物(PM10),51,52,50,34,26,62,,,,21,18,10,11,0.5,0.5
2024-11-07T0200,3173A,117.0598,30.5351,安庆市,市人大,,49,49,54,24,29,76,,,,34,36,14,15,0.4,0.5
2024-11-07T0200,3122A,105.9606,26.2611,安顺市,伍家关,,,,47,,43,,,66,,,14,,25,,0.8
2024-11-07T0200,3123A,105.9408,26.2431,安顺市,凤凰山,细颗粒物(PM2.5),52,47,57,36,47,88,,,,11,17,17,22,0.5,0.7
2024-11-07T0200,3124A,105.9439,26.2564,安顺市,金钟山,细颗粒物(PM2.5),52,45,58,36,51,90,,,,10,14,14,24,0.6,0.7
2024-11-07T0200,3125A,105.8983,26.2481,安顺市,娄家坡,细颗粒物(PM2.5),55,51,58,39,48,83,,,,11,16,18,21,0.5,0.7
2024-11-07T0200,1818A,114.4839,36.0621,安阳市,棉研所,细颗粒物(PM2.5),112,117,96,84,57,36,,,,47,44,8,9,0.5,0.5
2024-11-07T0200,1819A,114.3551,36.1017,安阳市,红庙街,细颗粒物(PM2.5),97,104,82,72,57,55,,,,38,34,4,5,0.5,0.5
2024-11-07T0200,1820A,114.361,36.0681,安阳市,银杏小区,细颗粒物(PM2.5),99,97,79,74,54,44,,,,61,35,4,4,0.7,0.7
2024-11-07T0200,3141A,114.3922,36.0878,安阳市,信访局,细颗粒物(PM2.5),105,99,88,79,59,52,,,,37,33,6,6,0.5,0.5
2024-11-07T0200,3669A,114.4705,36.0637,安阳市,左辅环卫站,细颗粒物(PM2.5),117,134,117,88,70,38,,,,37,33,3,4,0.6,0.6
2024-11-07T0200,3703A,114.2917,36.0949,安阳市,安钢职工学校,细颗粒物(PM2.5),115,102,93,87,68,41,,,,48,36,4,6,0.4,0.5
2024-11-07T0200,1748A,123.044,41.1196,鞍山市,深沟寺,,32,32,42,17,24,40,,,,16,28,8,8,0.7,0.6
2024-11-07T0200,1749A,123.011,41.0931,鞍山市,太阳城,,30,30,36,18,23,36,,,,18,28,8,9,0.5,0.5
2024-11-07T0200,1750A,123.0485,41.1442,鞍山市,太平,,35,35,55,18,32,33,,,,24,38,13,17,0.6,0.7
2024-11-07T0200,1751A,122.9642,41.0971,鞍山市,铁西三道街,颗粒物(PM10),53,56,72,24,39,10,,,,41,46,11,19,1.0,1
2024-11-07T0200,1752A,122.9341,41.0833,鞍山市,铁西工业园区,颗粒物(PM10),60,69,95,25,57,5,,,,50,51,10,22,1.0,1.5
2024-11-07T0200,1753A,123.022,41.0821,鞍山市,明达新区,,30,30,37,16,23,41,,,,15,25,10,11,0.8,0.7
2024-11-07T0200,1754A,123.1289,41.0228,鞍山市,千山,,,,18,,8,,,41,,,12,,3,,0.5
2024-11-07T0200,2195A,107.4212,40.761,巴彦淖尔市,附二中,细颗粒物(PM2.5),128,194,136,97,69,1,,,,73,56,10,16,1.2,0.9
2024-11-07T0200,2196A,107.37,40.7372,巴彦淖尔市,市环保大楼,细颗粒物(PM2.5),127,140,110,96,57,4,,,,71,52,6,7,1.1,0.9
2024-11-07T0200,1956A,86.1472,41.7538,巴音郭楞蒙古自治州,孔雀公园,颗粒物(PM10),102,153,138,36,36,97,,,,18,55,6,5,0.4,0.6
2024-11-07T0200,1957A,86.1972,41.7166,巴音郭楞蒙古自治州,棉纺厂,颗粒物(PM10),123,196,203,51,44,82,,,,21,43,4,3,0.5,0.5
2024-11-07T0200,1958A,86.2357,41.7173,巴音郭楞蒙古自治州,经济开发区,颗粒物(PM10),114,178,176,50,40,78,,,,20,28,7,3,0.6,0.4
2024-11-07T0200,2914A,106.7677,31.8794,巴中市,苏山坪,,36,31,36,25,28,74,,,,6,10,4,4,0.4,0.4
2024-11-07T0200,3182A,106.7656,31.8545,巴中市,丽阳花园,细颗粒物(PM2.5),53,47,47,37,35,4,,,,29,31,3,4,0.6,0.7
2024-11-07T0200,3183A,106.7418,31.8654,巴中市,圣泉水务公司,,46,38,33,32,25,6,,,,30,26,4,4,0.5,0.5
2024-11-07T0200,3616A,106.7616,31.8344,巴中市,市中心医院,细颗粒物(PM2.5),62,62,54,44,37,2,,,,31,31,3,4,0.7,0.7
2024-11-07T0200,2235A,122.7911,45.6077,白城市,洮北区环保局,,17,17,26,7,22,43,,,,12,19,6,6,0.1,0.3
2024-11-07T0200,2236A,122.8738,45.5725,白城市,市环保局,,23,22,38,16,19,42,,,,11,22,3,4,0.4,0.4
2024-11-07T0200,2231A,126.4219,41.9171,白山市,喜丰,颗粒物(PM10),51,52,38,18,14,9,,,,32,19,14,9,0.6,0.5
2024-11-07T0200,2232A,126.4077,41.9419,白山市,环保局,颗粒物(PM10),56,62,49,13,17,27,,,,13,15,4,5,0.5,0.6
2024-11-07T0200,2647A,104.1724,36.5446,白银市,第三小学,细颗粒物(PM2.5),53,53,74,37,53,19,,,,41,39,10,26,1.4,1.2
2024-11-07T0200,2648A,104.1465,36.5482,白银市,动力公司,,45,42,76,31,57,32,,,,20,31,4,17,1.4,1.2
2024-11-07T0200,2512A,106.6103,23.9011,百色市,市监测站,,49,48,49,34,35,37,,,,15,18,4,7,0.8,0.8
2024-11-07T0200,2513A,106.6538,23.8859,百色市,市中心血站,细颗粒物(PM2.5),60,67,62,43,37,7,,,,54,29,6,6,0.9,0.9
2024-11-07T0200,3406A,106.6085,23.8798,百色市,祈福高中,细颗粒物(PM2.5),58,64,65,41,37,22,,,,31,23,4,4,0.7,0.8
2024-11-07T0200,2270A,117.396,32.939,蚌埠市,工人疗养院,,41,41,72,24,41,64,,,,31,37,12,8,0.4,0.5
2024-11-07T0200,2271A,117.3605,32.9427,蚌埠市,百货大楼,,37,37,69,20,37,73,,,,22,40,5,6,0.3,0.4
2024-11-07T0200,2273A,117.4185,32.8911,蚌埠市,蚌埠学院,细颗粒物(PM2.5),57,51,68,40,42,62,,,,29,38,6,8,0.3,0.4
2024-11-07T0200,2274A,117.3533,32.9673,蚌埠市,淮上区政府,颗粒物(PM10),52,53,79,33,46,41,,,,53,38,9,9,0.3,0.4
2024-11-07T0200,2275A,117.3145,32.8977,蚌埠市,高新区,,39,39,63,25,37,72,,,,21,42,6,9,0.3,0.4
2024-11-07T0200,3715A,117.3092,32.9314,蚌埠市,蚌埠田家炳中学,,39,39,74,22,41,85,,,,15,29,5,7,0.3,0.4
2024-11-07T0200,1585A,109.8756,40.6532,包头市,市环境监测站,颗粒物(PM10),75,99,71,44,31,6,,,,64,61,14,26,1.3,1.4
2024-11-07T0200,1587A,109.9991,40.5842,包头市,包头八中,细颗粒物(PM2.5),69,86,79,50,38,5,,,,66,59,24,28,3.5,1.6
2024-11-07T0200,1588A,109.8538,40.6821,包头市,青山宾馆,细颗粒物(PM2.5),88,98,79,65,58,5,,,,59,62,15,25,1.5,1.5
2024-11-07T0200,1589A,109.8642,40.6288,包头市,惠龙物流,颗粒物(PM10),82,113,66,49,30,5,,,,74,65,19,23,1.5,1.2
2024-11-07T0200,1590A,110.0377,40.5546,包头市,东河鸿龙湾,颗粒物(PM10),88,125,77,49,32,6,,,,55,49,14,17,1.9,1
2024-11-07T0200,3283A,109.9154,40.5685,包头市,滨河大厦,颗粒物(PM10),57,64,54,30,27,5,,,,72,56,19,20,1.6,1.1
2024-11-07T0200,3419A,109.9447,40.6261,包头市,包头市委党校,颗粒物(PM10),52,54,64,27,32,7,,,,71,62,13,29,1.4,1.4
2024-11-07T0200,3683A,109.8331,40.6576,包头市,昆区政府,颗粒物(PM10),83,116,71,58,46,4,,,,68,63,20,29,1.9,1.5
2024-11-07T0200,1930A,107.185,34.3063,宝鸡市,庙沟村,细颗粒物(PM2.5),113,121,98,85,65,54,,,,22,24,8,8,0.8,0.7
2024-11-07T0200,1931A,107.0708,34.3017,宝鸡市,竹园沟,细颗粒物(PM2.5),117,102,90,88,84,25,,,,17,20,6,8,0.8,0.7
2024-11-07T0200,1932A,107.1906,34.3672,宝鸡市,三陆医院,细颗粒物(PM2.5),169,133,117,128,109,15,,,,38,42,10,10,0.9,0.9
2024-11-07T0200,1933A,107.1431,34.3547,宝鸡市,监测站,细颗粒物(PM2.5),132,108,104,100,93,12,,,,26,31,6,9,0.8,0.8
2024-11-07T0200,1934A,107.1186,34.3739,宝鸡市,技工学校,细颗粒物(PM2.5),143,,101,109,95,30,,,,26,37,10,11,1.0,1
2024-11-07T0200,1935A,107.3906,34.3528,宝鸡市,陈仓区环保局家属楼,细颗粒物(PM2.5),280,,116,230,102,2,,,,55,46,7,10,0.9,0.9
2024-11-07T0200,1936A,107.2058,34.3497,宝鸡市,文理学院,细颗粒物(PM2.5),137,116,100,104,90,15,,,,35,36,8,10,0.6,0.6
2024-11-07T0200,1937A,107.2386,34.3622,宝鸡市,三迪小学,细颗粒物(PM2.5),152,125,112,116,101,9,,,,49,50,8,11,0.9,0.9
2024-11-07T0200,1051A,115.493,38.8632,保定市,游泳馆,细颗粒物(PM2.5),114,117,105,86,64,5,,,,64,59,6,11,0.8,0.9
2024-11-07T0200,1052A,115.5213,38.8959,保定市,华电二区,细颗粒物(PM2.5),127,137,92,96,61,2,,,,79,55,12,9,0.8,0.7
2024-11-07T0200,1053A,115.4713,38.9108,保定市,接待中心,细颗粒物(PM2.5),100,125,97,75,55,2,,,,59,53,6,8,0.8,0.6
2024-11-07T0200,1054A,115.4612,38.8416,保定市,地表水厂,细颗粒物(PM2.5),99,124,109,74,64,3,,,,67,59,3,7,0.7,0.6
2024-11-07T0200,3581A,115.31981,38.95208,保定市,满城区生态环境分局,细颗粒物(PM2.5),107,132,103,80,57,2,,,,64,60,5,7,0.7,0.7
2024-11-07T0200,3582A,115.47694,38.76408,保定市,清苑区第二中学,细颗粒物(PM2.5),104,136,99,78,56,7,,,,81,53,5,7,0.6,0.7
2024-11-07T0200,3583A,115.62909,39.02311,保定市,徐水物探局,细颗粒物(PM2.5),100,117,93,75,49,2,,,,60,54,10,7,0.7,1
2024-11-07T0200,4004A,115.4202,38.8656,保定市,双鹰农机,细颗粒物(PM2.5),105,144,104,79,59,5,,,,45,51,5,8,0.7,0.6
2024-11-07T0200,4034A,115.5150,38.8590,保定市,植保所站,细颗粒物(PM2.5),123,148,108,93,64,4,,,,78,53,6,5,0.7,0.7
2024-11-07T0200,2594A,99.1678,25.1081,保山市,市环境监测站,,15,14,21,3,8,47,,,,9,12,4,5,0.5,0.5
2024-11-07T0200,2595A,99.1711,25.1328,保山市,市环保局,,17,,21,10,11,52,,,,4,8,5,5,0.4,0.5
2024-11-07T0200,1866A,109.2262,21.588,北海市,牛尾岭水库,,,,50,70,47,55,,,,,9,5,6,0.7,0.7
2024-11-07T0200,1867A,109.1436,21.4086,北海市,海滩公园,细颗粒物(PM2.5),74,70,63,54,46,117,,,,12,13,11,10,0.9,0.9
2024-11-07T0200,1868A,109.0981,21.4661,北海市,新市环保局,细颗粒物(PM2.5),89,80,66,66,52,113,,,,13,14,7,8,0.8,0.8
2024-11-07T0200,1869A,109.1778,21.5233,北海市,北海工业园,细颗粒物(PM2.5),83,79,70,61,51,98,,,,16,14,9,9,0.7,0.7
2024-11-07T0200,3400A,109.1911,21.4415,北海市,龙潭自来水厂,细颗粒物(PM2.5),92,,61,68,53,70,,,,18,13,8,8,0.8,0.8
2024-11-07T0200,1001A,116.3621,39.8784,北京市,万寿西宫,细颗粒物(PM2.5),79,105,81,58,43,0,,,,82,66,3,4,1.3,0.9
2024-11-07T0200,1002A,116.2202,40.2915,北京市,定陵,颗粒物(PM10),56,62,44,39,25,15,,,,29,30,2,3,0.6,0.5
2024-11-07T0200,1003A,116.4174,39.9289,北京市,东四,细颗粒物(PM2.5),80,106,80,59,42,1,,,,81,60,7,8,1.2,0.8
2024-11-07T0200,1004A,116.4072,39.8863,北京市,天坛,细颗粒物(PM2.5),89,87,67,66,46,1,,,,42,46,1,3,1.2,0.7
2024-11-07T0200,1005A,116.462,39.9365,北京市,农展馆,细颗粒物(PM2.5),90,120,78,67,41,1,,,,80,58,2,3,1.2,0.7
2024-11-07T0200,1006A,116.3392,39.9295,北京市,官园,颗粒物(PM10),75,99,77,46,39,0,,,,75,62,7,8,1.0,0.8
2024-11-07T0200,1007A,116.2878,39.9611,北京市,海淀万柳,颗粒物(PM10),67,84,72,43,35,7,,,,50,45,3,4,0.7,0.7
2024-11-07T0200,1008A,116.6636,40.135,北京市,顺义新城,细颗粒物(PM2.5),65,76,55,47,30,1,,,,56,42,3,3,0.7,0.5
2024-11-07T0200,1009A,116.6275,40.3275,北京市,怀柔镇,颗粒物(PM10),54,57,38,37,21,20,,,,26,28,2,3,0.3,0.5
2024-11-07T0200,1010A,116.2296,40.217,北京市,昌平镇,颗粒物(PM10),64,77,59,42,26,3,,,,48,43,5,6,0.6,0.5
2024-11-07T0200,1011A,116.3966,39.9821,北京市,奥体中心,颗粒物(PM10),73,95,88,49,43,2,,,,77,66,4,4,1.2,1
2024-11-07T0200,1012A,116.184,39.9136,北京市,古城,颗粒物(PM10),84,117,86,61,41,10,,,,41,43,5,6,1.4,0.9
2024-11-07T0200,3281A,115.9718,40.4529,北京市,延庆夏都,颗粒物(PM10),59,68,47,41,25,10,,,,34,33,3,2,0.5,0.4
2024-11-07T0200,3417A,117.0709,40.1465,北京市,平谷新城,颗粒物(PM10),59,68,49,40,27,7,,,,22,25,3,3,0.6,0.5
2024-11-07T0200,3418A,116.8336,40.4095,北京市,密云新城,颗粒物(PM10),56,61,49,28,20,25,,,,20,31,1,3,0.5,0.4
2024-11-07T0200,3671A,116.088,39.9726,北京市,门头沟三家店,颗粒物(PM10),71,92,73,46,31,1,,,,55,48,6,6,0.6,0.4
2024-11-07T0200,3672A,116.1541,39.8204,北京市,丰台云岗,细颗粒物(PM2.5),73,93,72,53,38,0,,,,62,54,3,4,0.7,0.5
2024-11-07T0200,3673A,116.6804,39.9081,北京市,通州东关,细颗粒物(PM2.5),112,166,99,84,48,1,,,,72,62,4,4,0.9,0.7
2024-11-07T0200,3674A,115.9577,39.7603,北京市,房山燕山,细颗粒物(PM2.5),92,92,60,68,35,27,,,,18,27,1,3,0.6,0.4
2024-11-07T0200,3675A,116.4672,39.7733,北京市,大兴旧宫,细颗粒物(PM2.5),70,87,75,51,41,1,,,,48,46,3,2,0.6,0.5
2024-11-07T0200,3694A,115.986,40.4563,北京市,延庆石河营,颗粒物(PM10),57,64,45,39,23,2,,,,37,36,3,3,0.6,0.4
2024-11-07T0200,3695A,116.6151,40.3053,北京市,怀柔新城,"颗粒物(PM10),细颗粒物(PM2.5)",55,60,38,39,22,20,,,,25,25,3,3,0.5,0.4
2024-11-07T0200,3696A,116.2545,39.8768,北京市,丰台小屯,颗粒物(PM10),75,100,92,49,42,2,,,,73,70,2,3,1.0,0.8
2024-11-07T0200,3697A,116.84,40.3844,北京市,密云镇,颗粒物(PM10),73,95,54,50,24,0,,,,41,38,3,3,0.6,0.5
2024-11-07T0200,1761A,123.8275,41.3064,本溪市,大峪,,44,44,36,16,15,7,,,,44,25,10,10,0.7,0.6
2024-11-07T0200,1762A,123.7567,41.3325,本溪市,溪湖,颗粒物(PM10),54,58,43,23,20,6,,,,42,29,8,9,0.8,0.6
2024-11-07T0200,1763A,123.7169,41.3094,本溪市,彩屯,,41,41,37,24,23,8,,,,44,30,8,8,0.9,0.7
2024-11-07T0200,1764A,123.7669,41.2864,本溪市,东明,颗粒物(PM10),53,55,44,20,21,6,,,,45,35,8,8,0.8,0.8
2024-11-07T0200,1765A,123.7992,41.2664,本溪市,新立屯,,23,20,45,16,15,5,,,,41,31,5,5,1.0,0.8
2024-11-07T0200,1766A,123.8142,41.3472,本溪市,威宁,颗粒物(PM10),52,54,57,18,22,8,,,,33,30,8,8,1.1,0.9
2024-11-07T0200,2587A,105.2864,27.3125,毕节市,八中,细颗粒物(PM2.5),82,74,58,60,44,65,,,,15,17,11,9,0.7,0.7
2024-11-07T0200,2588A,105.31,27.2944,毕节市,师专,细颗粒物(PM2.5),70,61,48,51,38,90,,,,18,16,18,11,0.6,0.7
2024-11-07T0200,3537A,105.3631,27.3533,毕节市,长征村,细颗粒物(PM2.5),78,69,55,57,46,72,,,,10,14,9,10,0.7,0.7
2024-11-07T0200,1629A,118.0018,37.3617,滨州市,第二水厂,颗粒物(PM10),64,78,62,44,30,2,,,,80,51,12,12,0.7,0.5
2024-11-07T0200,1630A,117.9776,37.393,滨州市,北中新校,颗粒物(PM10),68,85,62,44,29,3,,,,81,54,11,8,0.8,0.7
2024-11-07T0200,3514A,117.9378,37.3956,滨州市,中海酒店,颗粒物(PM10),74,97,67,51,37,20,,,,74,45,24,16,0.9,0.7
2024-11-07T0200,3515A,117.9378,37.3553,滨州市,开发区一中,颗粒物(PM10),73,95,67,41,32,18,,,,85,54,18,13,0.8,0.6
2024-11-07T0200,3516A,118.0917,37.694,滨州市,金海六路,颗粒物(PM10),67,83,64,39,30,6,,,,64,43,8,9,0.5,0.5
2024-11-07T0200,4028A,117.9956,37.3753,滨州市,滨州市西街道办事处,细颗粒物(PM2.5),67,80,60,48,37,2,,,,80,53,12,10,0.8,0.7
2024-11-07T0200,2311A,115.8072,33.8399,亳州市,污水处理厂,细颗粒物(PM2.5),82,75,86,60,55,49,,,,23,31,13,12,0.4,0.5
2024-11-07T0200,2312A,115.7789,33.8518,亳州市,三国揽胜宫,细颗粒物(PM2.5),64,69,88,46,55,54,,,,20,24,7,8,0.5,0.5
2024-11-07T0200,3332A,115.7633,33.8034,亳州市,亳州学院,颗粒物(PM10),56,61,84,33,42,68,,,,20,27,4,7,0.3,0.5
2024-11-07T0200,2693A,82.0485,44.8556,博尔塔拉蒙古自治州,市党校,颗粒物(PM10),67,84,55,45,29,6,,,,29,23,7,9,0.6,0.5
2024-11-07T0200,2694A,82.0806,44.8969,博尔塔拉蒙古自治州,市环保局,颗粒物(PM10),66,81,60,31,27,20,,,,30,26,5,6,0.7,0.5
2024-11-07T0200,1071A,116.8842,38.2991,沧州市,沧县城建局,细颗粒物(PM2.5),58,56,65,41,37,26,,,,48,45,14,9,0.6,0.6
2024-11-07T0200,1072A,116.8584,38.3254,沧州市,电视转播站,颗粒物(PM10),57,64,59,34,31,21,,,,58,48,13,8,0.5,0.5
2024-11-07T0200,1073A,116.8709,38.3228,沧州市,市环保局,细颗粒物(PM2.5),59,59,61,42,42,17,,,,53,58,13,6,0.5,0.6
2024-11-07T0200,3324A,116.8136,38.3004,沧州市,河北水利电力学院,细颗粒物(PM2.5),74,78,64,54,40,18,,,,66,47,21,10,0.4,0.4
2024-11-07T0200,2622A,97.1806,31.1273,昌都市,昌都监测站,,15,10,14,6,9,45,,,,7,13,7,8,0.5,0.6
2024-11-07T0200,3719A,97.1714,31.1406,昌都市,昌都会议中心,,16,8,9,3,6,51,,,,3,6,6,7,0.4,0.5
2024-11-07T0200,2690A,88.1236,43.8886,昌吉回族自治州,天山天池,,,0,11,,4,62,,,,3,5,9,9,0.4,0.5
2024-11-07T0200,2692A,87.2717,44.0297,昌吉回族自治州,新区政务中心,颗粒物(PM10),99,148,94,69,50,1,,,,67,46,8,9,1.1,0.8
2024-11-07T0200,3613A,87.3095,44.0142,昌吉回族自治州,亚心广场,细颗粒物(PM2.5),107,149,108,80,55,6,,,,70,49,7,7,1.1,0.9
2024-11-07T0200,1119A,125.3325,43.9166,长春市,食品厂,细颗粒物(PM2.5),54,55,48,38,28,12,,,,44,38,9,10,0.4,0.4
2024-11-07T0200,1120A,125.2863,43.9027,长春市,客车厂,细颗粒物(PM2.5),53,39,41,37,30,22,,,,35,37,9,10,0.0,0.3
2024-11-07T0200,1121A,125.2841,43.8463,长春市,邮电学院,细颗粒物(PM2.5),54,44,43,38,26,27,,,,31,35,9,22,0.3,0.3
2024-11-07T0200,1122A,125.3716,43.8772,长春市,劳动公园,细颗粒物(PM2.5),60,,37,43,25,14,,,,49,30,10,13,0.8,0.6
2024-11-07T0200,1123A,125.3297,43.8805,长春市,园林处,,47,47,36,30,21,24,,,,35,29,8,15,0.5,0.4
2024-11-07T0200,1124A,125.4605,43.79,长春市,净月潭,,49,45,28,34,19,15,,,,20,17,6,7,0.4,0.3
2024-11-07T0200,1125A,125.7194,43.515,长春市,甩湾子,,,,36,29,27,12,,,,19,19,6,7,1.0,0.9
2024-11-07T0200,1126A,125.3863,43.8447,长春市,经开区环卫处,细颗粒物(PM2.5),69,71,40,50,22,6,,,,56,34,11,12,0.8,0.5
2024-11-07T0200,1127A,125.245,43.7783,长春市,高新区管委会,,,108,52,,39,21,,,,46,33,8,8,1.1,0.7
2024-11-07T0200,1128A,125.1761,43.8325,长春市,岱山公园,细颗粒物(PM2.5),102,101,68,76,47,6,,,,57,35,10,8,0.8,0.6
2024-11-07T0200,1335A,113.0833,28.2325,长沙市,经开区环保局,细颗粒物(PM2.5),94,97,98,70,62,3,,,,84,39,2,5,0.8,0.6
2024-11-07T0200,1336A,112.8872,28.2189,长沙市,高开区环保局,细颗粒物(PM2.5),113,108,99,85,79,38,,,,54,26,6,7,0.6,0.6
2024-11-07T0200,1337A,113.0792,28.2053,长沙市,马坡岭,细颗粒物(PM2.5),109,101,90,82,72,3,,,,88,41,5,5,0.9,0.7
2024-11-07T0200,1338A,112.9394,28.19,长沙市,湖南师范大学,细颗粒物(PM2.5),82,99,110,60,69,65,,,,33,24,6,6,0.6,0.7
2024-11-07T0200,1339A,113.0178,28.1322,长沙市,雨花区环保局,颗粒物(PM10),55,59,91,32,72,100,,,,28,30,8,6,0.5,0.6
2024-11-07T0200,1340A,112.9792,28.2597,长沙市,伍家岭,细颗粒物(PM2.5),95,120,111,71,73,0,,,,80,35,4,5,0.9,0.8
2024-11-07T0200,1341A,113.0014,28.1944,长沙市,火车新站,细颗粒物(PM2.5),83,88,92,61,67,45,,,,57,29,4,6,0.7,0.7
2024-11-07T0200,1342A,112.9844,28.1178,长沙市,天心区环保局,颗粒物(PM10),75,99,105,44,62,44,,,,67,38,7,6,0.6,0.5
2024-11-07T0200,1343A,112.8908,28.1308,长沙市,湖南中医药大学,细颗粒物(PM2.5),200,,111,150,89,63,,,,41,29,9,10,0.9,0.8
2024-11-07T0200,1344A,112.9581,28.3611,长沙市,沙坪,颗粒物(PM10),55,60,83,38,48,60,,,,11,15,7,10,0.4,0.6
2024-11-07T0200,1727A,113.1147,36.1547,长治市,清华站,细颗粒物(PM2.5),89,67,70,66,41,93,,,,20,33,10,11,0.5,0.6
2024-11-07T0200,1728A,113.1031,36.1989,长治市,监测站,,,64,62,,43,90,,,,15,27,12,13,0.7,0.9
2024-11-07T0200,1730A,113.0886,36.2125,长治市,审计局,细颗粒物(PM2.5),92,74,71,68,48,89,,,,17,28,8,8,0.7,0.8
2024-11-07T0200,1731A,113.0844,36.1856,长治市,长治八中,颗粒物(PM10),68,85,83,38,36,88,,,,21,32,9,10,0.7,0.8
2024-11-07T0200,2845A,113.1569,36.1911,长治市,德盛苑,细颗粒物(PM2.5),94,71,52,70,39,99,,,,20,25,7,8,0.6,0.8
2024-11-07T0200,3568A,113.06,36.0464,长治市,向阳小学,细颗粒物(PM2.5),102,101,75,76,46,93,,,,28,26,17,14,0.5,0.5
2024-11-07T0200,3569A,112.8792,36.3144,长治市,屯留一中,细颗粒物(PM2.5),102,91,66,76,48,52,,,,35,30,7,8,1.6,1.4
2024-11-07T0200,3570A,113.235,36.3489,长治市,潞城四中,细颗粒物(PM2.5),97,79,79,72,50,69,,,,36,36,8,10,0.7,1
2024-11-07T0200,1854A,111.6975,28.9703,常德市,市二中,细颗粒物(PM2.5),87,118,110,64,62,27,,,,49,33,6,7,0.8,0.8
2024-11-07T0200,1857A,111.7158,29.1456,常德市,白鹤山,,,,,,,,,,,,,,,,
2024-11-07T0200,3138A,111.7153,29.0289,常德市,武陵区永安,细颗粒物(PM2.5),94,121,95,70,54,38,,,,51,29,9,9,1.1,0.9
2024-11-07T0200,3139A,111.6892,28.9881,常德市,鼎城区玉霞,颗粒物(PM10),78,105,108,48,56,10,,,,48,34,5,8,1.0,1
2024-11-07T0200,3140A,111.6625,29.0531,常德市,武陵区长庚,颗粒物(PM10),88,125,117,63,61,58,,,,40,31,6,8,0.9,0.8
2024-11-07T0200,1196A,119.9633,31.762,常州市,市监测站,,32,32,33,20,18,36,,,,43,27,8,9,0.4,0.4
2024-11-07T0200,1200A,119.9468,31.7069,常州市,武进监测站,,32,27,31,22,17,45,,,,26,20,11,12,0.6,0.4
2024-11-07T0200,1201A,119.9255,31.9087,常州市,安家,,36,36,36,19,18,13,,,,57,35,8,9,0.4,0.4
2024-11-07T0200,3002A,119.9805,31.8174,常州市,行政中心,,22,22,30,6,15,58,,,,30,26,1,3,0.5,0.5
2024-11-07T0200,3003A,120.0522,31.7748,常州市,经开区,二氧化氮,52,46,45,22,19,12,,,,103,48,8,9,0.4,0.4
2024-11-07T0200,3010A,119.9025,31.7964,常州市,钟楼,,30,30,32,14,16,54,,,,29,26,7,8,0.5,0.5
2024-11-07T0200,3429A,119.8598,31.7066,常州市,武进经发区,,46,46,39,25,18,25,,,,55,32,11,9,0.6,0.4
2024-11-07T0200,3430A,119.5826,31.7245,常州市,金坛城区,,39,39,38,18,20,46,,,,35,25,7,7,0.3,0.3
2024-11-07T0200,2220A,120.4318,41.5881,朝阳市,西梁,颗粒物(PM10),61,72,48,42,30,5,,,,38,27,10,13,0.8,0.7
2024-11-07T0200,2221A,120.4521,41.5646,朝阳市,河畔小区,颗粒物(PM10),61,72,48,40,24,4,,,,43,26,13,12,1.1,0.7
2024-11-07T0200,2222A,120.4176,41.5648,朝阳市,八里堡,颗粒物(PM10),58,65,45,38,23,4,,,,40,28,8,13,1.2,0.9
2024-11-07T0200,2223A,120.3806,41.5969,朝阳市,农业园区,细颗粒物(PM2.5),73,53,73,53,40,14,,,,31,28,6,11,0.7,0.9
2024-11-07T0200,1705A,116.6367,23.6719,潮州市,西园路,,29,24,40,20,28,80,,,,11,12,4,7,0.1,0.4
2024-11-07T0200,3026A,116.6183,23.6608,潮州市,市政府,,34,34,43,13,22,84,,,,10,15,6,9,0.4,0.6
2024-11-07T0200,4036A,116.6461,23.6761,潮州市,金山,,26,26,43,12,22,77,,,,10,12,8,11,0.5,0.7
2024-11-07T0200,2472A,113.0073,25.9061,郴州市,马头岭,颗粒物(PM10),60,69,75,37,34,24,,,,28,22,10,16,0.6,0.8
2024-11-07T0200,2473A,113.0116,25.8226,郴州市,市职中,细颗粒物(PM2.5),52,51,68,36,52,19,,,,24,27,5,11,0.7,0.8
2024-11-07T0200,2474A,113.0161,25.8001,郴州市,兴隆步行街,颗粒物(PM10),62,73,75,35,52,27,,,,30,24,6,12,0.7,0.7
2024-11-07T0200,2475A,113.0383,25.8071,郴州市,市审计局,细颗粒物(PM2.5),58,49,67,41,52,39,,,,26,19,9,12,0.6,0.7
2024-11-07T0200,2476A,113.0348,25.7759,郴州市,市环保局,颗粒物(PM10),62,73,79,34,48,6,,,,43,25,6,13,0.7,0.7
2024-11-07T0200,1431A,103.9728,30.7236,成都市,金泉两河,细颗粒物(PM2.5),62,62,61,44,40,11,,,,27,35,2,4,0.5,0.5
2024-11-07T0200,1432A,104.176,30.6872,成都市,十里店,,22,22,40,11,27,24,,,,41,36,2,2,0.5,0.5
2024-11-07T0200,1433A,104.079,30.5706,成都市,三瓦窑,细颗粒物(PM2.5),62,51,44,44,27,12,,,,37,32,2,2,0.4,0.4
2024-11-07T0200,1434A,104.1114,30.63,成都市,沙河铺,细颗粒物(PM2.5),59,46,46,42,31,19,,,,26,32,2,4,0.5,0.5
2024-11-07T0200,1437A,104.0786,30.6531,成都市,君平街,细颗粒物(PM2.5),52,52,48,36,31,21,,,,34,36,5,6,0.6,0.6
2024-11-07T0200,1438A,103.613,31.0283,成都市,灵岩寺,,,,,,,,,,,,,,,,
2024-11-07T0200,2880A,104.0239,30.65639,成都市,大石西路,颗粒物(PM10),52,53,55,27,32,10,,,,33,35,3,4,0.6,0.6
2024-11-07T0200,3136A,104.2725,30.5589,成都市,龙泉驿区区政府,,28,27,27,19,20,30,,,,18,18,3,3,0.4,0.4
2024-11-07T0200,3357A,104.0106,30.6931,成都市,金博路,细颗粒物(PM2.5),54,56,56,38,35,15,,,,24,34,2,2,0.5,0.5
2024-11-07T0200,3359A,104.0578,30.5225,成都市,华阳,颗粒物(PM10),51,51,38,34,26,17,,,,23,20,1,1,0.5,0.5
2024-11-07T0200,3487A,104.2394,30.5319,成都市,车城东七路,细颗粒物(PM2.5),54,52,43,38,30,34,,,,18,27,2,2,0.4,0.6
2024-11-07T0200,3488A,104.3853,30.7453,成都市,青白江技师分院,,39,32,36,27,23,29,,,,23,28,4,4,0.5,0.5
2024-11-07T0200,3489A,104.0789,30.4072,成都市,科学城,细颗粒物(PM2.5),70,56,45,51,35,30,,,,19,23,4,4,0.5,0.5
2024-11-07T0200,4011A,103.8506,30.6947,成都市,光华大道三段,细颗粒物(PM2.5),58,58,60,41,40,27,,,,18,24,4,5,0.5,0.5
2024-11-07T0200,1062A,117.9531,40.9081,承德市,铁路,,50,50,37,16,16,3,,,,42,36,4,7,0.8,0.5
2024-11-07T0200,1063A,117.9392,40.9763,承德市,中国银行,颗粒物(PM10),55,59,41,22,14,2,,,,40,34,2,4,0.8,0.6
2024-11-07T0200,1064A,117.9503,40.928,承德市,开发区,,,40,53,25,18,5,,,,,24,3,5,0.9,0.6
2024-11-07T0200,1065A,117.8051,40.9655,承德市,文化中心,颗粒物(PM10),55,60,61,30,19,1,,,,46,38,4,19,0.6,0.8
2024-11-07T0200,1066A,117.9268,41.0026,承德市,离宫,,40,40,28,26,23,1,,,,46,31,2,5,0.5,0.5
2024-11-07T0200,2314A,117.47,30.6618,池州市,池州学院,,44,44,57,29,27,60,,,,24,28,7,9,0.5,0.7
2024-11-07T0200,3237A,117.4918,30.6617,池州市,展览馆,,49,49,54,30,29,55,,,,23,24,5,6,0.5,0.6
2024-11-07T0200,3333A,117.5627,30.695,池州市,第八中学,,48,48,51,29,27,59,,,,20,25,5,6,0.5,0.7
2024-11-07T0200,3334A,117.5038,30.6243,池州市,第十二中学,颗粒物(PM10),51,51,54,31,27,36,,,,39,24,5,5,0.7,0.6
2024-11-07T0200,1744A,118.9233,42.2816,赤峰市,松山一中,颗粒物(PM10),63,75,62,39,26,6,,,,39,41,14,19,1.2,1.1
2024-11-07T0200,1745A,118.9576,42.2728,赤峰市,哈达街,颗粒物(PM10),70,89,50,50,26,7,,,,34,30,9,12,1.4,0.9
2024-11-07T0200,1746A,118.8788,42.2554,赤峰市,天义路,,49,48,38,34,20,4,,,,40,33,8,9,0.8,0.7
2024-11-07T0200,3058A,119.2658,42.0353,赤峰市,银河街,颗粒物(PM10),60,69,75,25,31,8,,,,34,28,22,29,1.1,1
2024-11-07T0200,3286A,118.9359,42.3147,赤峰市,桥北物流园区,细颗粒物(PM2.5),59,53,46,42,26,6,,,,24,35,12,23,1.4,1.2
2024-11-07T0200,2521A,107.3476,22.4136,崇左市,市环保局江州分局,颗粒物(PM10),67,84,70,46,42,40,,,,22,13,4,4,0.8,0.8
2024-11-07T0200,2522A,107.3702,22.3707,崇左市,城南新区,细颗粒物(PM2.5),70,67,59,51,44,64,,,,17,16,5,6,0.7,0.6
2024-11-07T0200,2298A,118.3093,32.3153,滁州市,老年大学,,50,50,42,26,21,17,,,,52,29,3,3,0.3,0.3
2024-11-07T0200,2299A,118.3244,32.2786,滁州市,人大宾馆,,42,42,46,22,23,26,,,,45,33,7,8,0.4,0.4
2024-11-07T0200,3207A,118.3118,32.3038,滁州市,市政府原办公楼,,41,41,41,27,25,22,,,,43,31,5,6,0.4,0.4
2024-11-07T0200,3331A,118.3267,32.2634,滁州市,图书馆,颗粒物(PM10),51,52,50,23,22,26,,,,44,26,5,6,0.4,0.4
2024-11-07T0200,2605A,101.5482,25.0441,楚雄彝族自治州,州环境监测站,,43,33,49,30,45,47,,,,16,20,11,15,0.7,0.8
2024-11-07T0200,2606A,101.538,25.0492,楚雄彝族自治州,市经济开发区,,42,32,47,29,42,54,,,,12,21,11,10,0.7,0.8
2024-11-07T0200,2548A,107.5277,31.2827,达州市,达州职业技术学院,细颗粒物(PM2.5),57,45,42,40,29,1,,,,30,34,5,5,0.9,0.9
2024-11-07T0200,2549A,107.5086,31.2186,达州市,市环境监测站,,45,45,49,24,20,1,,,,37,41,5,7,0.7,0.8
2024-11-07T0200,2550A,107.4988,31.2132,达州市,凤凰小区,,39,36,46,27,25,3,,,,39,40,7,9,0.7,0.8
2024-11-07T0200,2551A,107.5082,31.1986,达州市,达县机关宾馆,颗粒物(PM10),51,51,47,32,28,3,,,,39,40,5,7,0.8,0.8
2024-11-07T0200,2552A,107.4644,31.2124,达州市,市政中心,颗粒物(PM10),51,51,49,27,23,4,,,,42,43,4,6,0.9,0.9
2024-11-07T0200,2614A,100.1542,25.7054,大理白族自治州,大理市环境监测站,,18,12,27,12,23,40,,,,18,22,6,6,0.5,0.6
2024-11-07T0200,2615A,100.2171,25.5811,大理白族自治州,大理古城,,21,10,22,7,16,65,,,,5,12,5,6,0.4,0.5
2024-11-07T0200,1109A,121.612,38.9741,大连市,甘井子,,34,34,28,22,16,50,,,,33,42,10,12,0.8,0.8
2024-11-07T0200,1110A,121.565,38.9511,大连市,周水子,细颗粒物(PM2.5),58,58,37,41,24,4,,,,77,52,6,12,0.9,0.7
2024-11-07T0200,1111A,121.5637,38.8845,大连市,星海三站,,36,36,30,23,17,28,,,,30,33,16,14,0.6,0.6
2024-11-07T0200,1112A,121.6302,38.9117,大连市,青泥洼桥,,36,36,27,21,14,51,,,,16,30,8,10,0.3,0.2
2024-11-07T0200,1113A,121.6251,38.8638,大连市,傅家庄,,29,27,18,20,9,68,,,,17,18,11,11,0.4,0.3
2024-11-07T0200,1114A,121.5213,38.8661,大连市,七贤岭,,31,31,28,14,12,29,,,,17,26,6,11,0.5,0.6
2024-11-07T0200,1115A,121.2529,38.8061,大连市,旅顺,颗粒物(PM10),51,52,25,32,12,73,,,,23,23,9,10,0.6,0.5
2024-11-07T0200,1116A,121.7485,39.1311,大连市,金州,,27,27,28,17,20,51,,,,24,30,6,7,0.5,0.5
2024-11-07T0200,1117A,121.7811,39.0496,大连市,开发区,,45,45,27,24,15,8,,,,63,31,6,7,0.3,0.3
2024-11-07T0200,1118A,121.9762,39.0631,大连市,双D港,,28,26,19,19,11,47,,,,27,17,8,9,0.5,0.5
2024-11-07T0200,1789A,124.81117,46.03138,大庆市,大同区,细颗粒物(PM2.5),87,74,62,64,48,17,,,,32,24,8,5,0.5,0.5
2024-11-07T0200,1790A,125.129,46.533,大庆市,龙凤区,细颗粒物(PM2.5),321,289,65,271,51,46,,,,43,21,12,6,1.0,0.6
2024-11-07T0200,1791A,124.902,46.408,大庆市,红岗区,细颗粒物(PM2.5),204,176,58,154,44,19,,,,43,26,10,7,0.8,0.4
2024-11-07T0200,1792A,125.153,46.586,大庆市,萨尔图区,细颗粒物(PM2.5),372,328,81,322,68,58,,,,51,23,15,8,1.0,0.4
2024-11-07T0200,1793A,124.9042,46.6215,大庆市,让胡路区,细颗粒物(PM2.5),284,,58,234,51,40,,,,40,22,10,6,0.8,0.4
2024-11-07T0200,3481A,125.141,46.634,大庆市,萨区政府监测点,细颗粒物(PM2.5),403,,76,354,74,31,,,,57,23,16,7,1.1,0.5
2024-11-07T0200,1721A,113.3819,40.1097,大同市,果树场,颗粒物(PM10),61,72,71,38,37,2,,,,37,38,8,11,1.4,0.9
2024-11-07T0200,1723A,113.2994,40.0758,大同市,云冈宾馆,颗粒物(PM10),66,82,69,36,30,5,,,,59,44,15,18,1.7,1.1
2024-11-07T0200,1724A,113.3444,40.0917,大同市,大同大学,颗粒物(PM10),51,51,52,26,25,24,,,,43,45,15,17,0.7,0.7
2024-11-07T0200,1725A,113.2661,40.1269,大同市,安家小村,颗粒物(PM10),78,106,71,33,28,8,,,,62,47,30,21,2.2,1.1
2024-11-07T0200,1726A,113.2711,40.0844,大同市,教育学院,颗粒物(PM10),80,109,82,46,37,2,,,,73,56,24,18,2.6,1.5
2024-11-07T0200,3282A,113.3397,40.0597,大同市,大同市卫生学校,颗粒物(PM10),57,63,54,27,26,26,,,,50,46,20,21,0.4,0.5
2024-11-07T0200,3565A,113.1367,40.1122,大同市,云冈站,颗粒物(PM10),88,125,77,57,33,7,,,,48,40,18,22,0.7,0.6
2024-11-07T0200,3566A,113.1186,40.2556,大同市,图书馆,细颗粒物(PM2.5),72,85,61,52,33,12,,,,24,28,9,28,0.6,0.6
2024-11-07T0200,3567A,113.5931,40.0461,大同市,区一中,,32,32,45,15,14,61,,,,17,28,16,19,0.5,0.6
2024-11-07T0200,3676A,113.2802,40.0995,大同市,第二人民医院,颗粒物(PM10),77,103,86,49,37,7,,,,65,48,29,22,2.2,1.4
2024-11-07T0200,2269A,124.1069,50.4097,大兴安岭地区,科技局,,23,,18,16,18,30,,,,4,8,4,5,0.2,0.3
2024-11-07T0200,3663A,124.1164,50.4278,大兴安岭地区,红旗社区,,12,12,20,8,13,14,,,,17,15,4,4,0.4,0.4
2024-11-07T0200,1600A,124.3303,40.0625,丹东市,江湾东路,,44,44,37,20,23,27,,,,20,27,11,12,0.6,0.7
2024-11-07T0200,1601A,124.4256,40.1503,丹东市,临江后街,颗粒物(PM10),51,52,38,25,17,4,,,,42,18,9,7,0.7,0.5
2024-11-07T0200,1602A,124.3933,40.1461,丹东市,元宝山,颗粒物(PM10),51,51,27,23,12,8,,,,40,14,6,6,0.8,0.5
2024-11-07T0200,1603A,124.3633,40.1092,丹东市,民主桥,,40,40,30,18,15,11,,,,34,18,8,7,0.6,0.5
2024-11-07T0200,3541A,109.5726,19.5167,儋州市,第一中学子站,颗粒物(PM10),55,59,49,34,30,118,,,,8,7,5,6,0.7,0.7
2024-11-07T0200,3542A,109.5567,19.5187,儋州市,东坡学校子站,,50,50,46,34,28,129,,,,8,9,5,6,0.7,0.7
2024-11-07T0200,2616A,98.5842,24.428,德宏傣族景颇族自治州,德宏州监测站,,26,25,28,18,17,38,,,,15,20,13,14,0.6,0.6
2024-11-07T0200,3677A,98.5881,24.4368,德宏傣族景颇族自治州,芒市人民政府综合楼,,20,20,26,11,14,30,,,,17,17,11,9,0.7,0.7
2024-11-07T0200,1901A,104.4239,31.1208,德阳市,东山公园,颗粒物(PM10),51,52,48,26,23,37,,,,14,14,1,1,0.6,0.5
2024-11-07T0200,1902A,104.3826,31.1317,德阳市,西小区,"颗粒物(PM10),细颗粒物(PM2.5)",55,60,47,39,31,12,,,,40,27,2,2,0.7,0.6
2024-11-07T0200,1904A,104.3553,31.1091,德阳市,耐火材料厂,细颗粒物(PM2.5),55,57,44,39,28,10,,,,40,26,3,4,0.6,0.5
2024-11-07T0200,3639A,104.4019,31.1244,德阳市,市教育局,,44,44,40,29,22,16,,,,29,24,2,2,0.6,0.6
2024-11-07T0200,1622A,116.3032,37.4674,德州市,儿童乐园,细颗粒物(PM2.5),77,90,79,56,39,49,,,,48,50,16,15,0.6,0.6
2024-11-07T0200,1624A,116.2991,37.4451,德州市,监理站,细颗粒物(PM2.5),73,85,69,53,40,46,,,,50,49,15,14,0.7,0.7
2024-11-07T0200,3066A,116.2721,37.4379,德州市,九衢泉纯净水厂,颗粒物(PM10),71,92,84,51,41,35,,,,58,57,14,14,0.6,0.6
2024-11-07T0200,3371A,116.3728,37.4403,德州市,开发区人民医院,细颗粒物(PM2.5),64,75,72,46,39,24,,,,58,52,13,16,0.6,0.7
2024-11-07T0200,3372A,116.3572,37.4094,德州市,太阳城中学,颗粒物(PM10),68,85,77,48,43,11,,,,78,61,12,16,0.7,0.7
2024-11-07T0200,3511A,116.5652,37.3319,德州市,陵城艺术中心,细颗粒物(PM2.5),64,75,61,46,33,40,,,,47,40,16,13,0.7,0.7
2024-11-07T0200,2621A,99.7056,27.8317,迪庆藏族自治州,迪庆州站,,24,11,27,10,15,76,,,,7,12,7,10,0.2,0.3
2024-11-07T0200,3180A,99.7136,27.8094,迪庆藏族自治州,质量技术监督局,,22,12,25,8,14,69,,,,5,13,7,7,0.4,0.5
2024-11-07T0200,2663A,104.6241,35.5734,定西市,东关小学,,44,44,50,25,24,8,,,,30,14,2,2,0.4,0.3
2024-11-07T0200,2664A,104.6194,35.5934,定西市,供电公司,,43,42,41,30,27,4,,,,38,16,7,6,0.5,0.3
2024-11-07T0200,1389A,113.7547,23.0494,东莞市,莞城梨川,,38,38,51,26,35,103,,,,14,17,9,9,0.7,0.8
2024-11-07T0200,1390A,113.7944,23.0128,东莞市,东城石井,,40,38,47,28,31,83,,,,19,17,10,10,0.7,0.8
2024-11-07T0200,1391A,113.7383,22.9658,东莞市,南城西平,,44,44,50,25,31,57,,,,55,29,10,8,0.7,0.7
2024-11-07T0200,3319A,113.7338,23.0381,东莞市,万江金泰,,38,38,48,24,32,97,,,,14,14,8,8,0.7,0.8
2024-11-07T0200,3626A,113.7533,23.0202,东莞市,南城元岭,,38,38,47,22,30,95,,,,10,11,9,9,0.7,0.7
2024-11-07T0200,3627A,113.7875,23.0457,东莞市,东城主山,,41,41,49,26,33,94,,,,20,19,9,10,0.7,0.7
2024-11-07T0200,1666A,118.6614,37.4309,东营市,市环保局,颗粒物(PM10),53,56,60,34,31,10,,,,80,58,7,11,0.6,0.7
2024-11-07T0200,3036A,118.6904,37.4338,东营市,开发区管委会,细颗粒物(PM2.5),58,63,66,41,31,19,,,,61,48,10,13,0.6,0.7
2024-11-07T0200,3365A,118.5719,37.565,东营市,垦利区民丰路,颗粒物(PM10),56,61,58,34,27,21,,,,58,52,10,11,0.4,0.5
2024-11-07T0200,3498A,118.5055,37.8612,东营市,河口城区,颗粒物(PM10),64,78,68,42,30,31,,,,43,46,20,12,0.6,0.5
2024-11-07T0200,3646A,118.4978,37.4623,东营市,胜利站,颗粒物(PM10),59,68,64,31,29,15,,,,66,57,10,11,0.6,0.6
2024-11-07T0200,3734A,118.35,37.26,东营市,理想之城,颗粒物(PM10),56,61,65,39,36,4,,,,79,55,7,10,0.6,0.7
2024-11-07T0200,1591A,110.0023,39.8129,鄂尔多斯市,综合楼,颗粒物(PM10),63,75,78,29,30,32,,,,54,53,20,18,0.7,0.8
2024-11-07T0200,1592A,109.9486,39.8261,鄂尔多斯市,巴音孟克林场办事处,颗粒物(PM10),53,56,69,29,29,48,,,,36,49,14,18,0.6,0.8
2024-11-07T0200,1593A,109.7736,39.5986,鄂尔多斯市,康泽苑,,44,44,57,22,22,28,,,,30,43,6,9,0.3,0.5
2024-11-07T0200,1594A,109.8119,39.5989,鄂尔多斯市,华泰汽车城,颗粒物(PM10),57,63,65,24,25,7,,,,54,49,6,11,0.5,0.6
2024-11-07T0200,1595A,109.9734,39.7884,鄂尔多斯市,奥林花园,颗粒物(PM10),67,83,85,34,38,8,,,,74,61,10,14,1.0,1.1
2024-11-07T0200,2436A,114.8938,30.3994,鄂州市,市政府,,50,50,56,26,32,84,,,,28,30,10,8,0.6,0.7
2024-11-07T0200,2437A,114.8989,30.3714,鄂州市,赵家坝,,48,48,54,22,29,70,,,,35,30,8,10,0.5,0.6
2024-11-07T0200,3654A,114.8094,30.4089,鄂州市,精准医疗中心,细颗粒物(PM2.5),58,55,62,41,36,93,,,,27,29,7,12,0.6,0.8
2024-11-07T0200,2454A,109.4978,30.2981,恩施土家族苗族自治州,湖北民院,细颗粒物(PM2.5),64,51,47,46,35,24,,,,21,21,6,6,0.4,0.5
2024-11-07T0200,2455A,109.4707,30.2798,恩施土家族苗族自治州,州电力总公司,细颗粒物(PM2.5),73,67,57,53,38,8,,,,32,30,7,7,0.7,0.7
2024-11-07T0200,3549A,109.5061,30.3772,恩施土家族苗族自治州,龙凤新区,细颗粒物(PM2.5),52,46,41,36,28,34,,,,11,14,6,6,0.7,0.7
2024-11-07T0200,2499A,108.3411,21.6158,防城港市,沙万,细颗粒物(PM2.5),77,75,63,56,49,119,,,,15,15,7,6,0.7,0.6
2024-11-07T0200,2500A,108.3514,21.7731,防城港市,防城档案局,颗粒物(PM10),79,108,90,53,54,91,,,,41,25,6,7,0.6,0.8
2024-11-07T0200,2501A,108.3506,21.6414,防城港市,大海花园,细颗粒物(PM2.5),70,75,70,51,46,109,,,,16,14,5,5,0.8,0.7
2024-11-07T0200,1371A,113.1294,23.0067,佛山市,湾梁,,44,44,57,24,32,92,,,,29,28,8,8,0.7,0.8
2024-11-07T0200,1372A,113.1083,23.0478,佛山市,华材职中,,46,46,59,31,35,95,,,,27,29,8,10,0.6,0.7
2024-11-07T0200,1373A,113.144,23.0453,佛山市,南海气象局,,45,45,54,29,32,82,,,,26,23,8,9,0.5,0.6
2024-11-07T0200,1374A,113.2881,22.8094,佛山市,顺德苏岗,,41,41,52,19,31,67,,,,32,23,8,8,0.7,0.8
2024-11-07T0200,1376A,112.8383,22.8678,佛山市,高明孔堂,,49,49,56,31,37,88,,,,20,22,8,8,0.5,0.7
2024-11-07T0200,1377A,112.8836,23.1588,佛山市,三水监测站,,46,46,52,30,36,81,,,,29,25,11,9,0.7,0.7
2024-11-07T0200,1378A,112.867,23.185,佛山市,三水云东海,,42,32,48,29,36,48,,,,37,28,13,11,0.7,0.7
2024-11-07T0200,3625A,113.2544,22.7642,佛山市,容桂街道办,,39,36,45,27,33,73,,,,31,23,8,8,0.6,0.7
2024-11-07T0200,1280A,119.3903,26.0543,福州市,鼓山,,,,31,,12,,,112,,,9,,1,,0.3
2024-11-07T0200,1282A,119.2681,26.0504,福州市,师大,,34,21,34,7,13,106,,,,6,8,4,3,0.4,0.4
2024-11-07T0200,1283A,119.2984,26.1028,福州市,五四北路,,32,17,29,6,13,101,,,,8,12,2,2,0.4,0.4
2024-11-07T0200,1284A,119.2648,26.0768,福州市,杨桥西路,,33,22,35,6,13,104,,,,6,7,2,2,0.4,0.4
2024-11-07T0200,1285A,119.317,26.0746,福州市,紫阳,,31,26,47,8,14,97,,,,7,12,4,3,0.6,0.5
2024-11-07T0200,3048A,119.5799,26.0936,福州市,九龙,,,,43,,19,,,92,,,6,,1,,0.2
2024-11-07T0200,3526A,119.5189,25.9664,福州市,吴航,,30,24,28,8,12,94,,,,10,9,3,3,0.1,0.1
2024-11-07T0200,1755A,123.7977,41.8491,抚顺市,望花区,颗粒物(PM10),67,84,61,33,33,6,,,,41,33,5,5,0.7,0.9
2024-11-07T0200,1756A,123.9161,41.8822,抚顺市,顺城区,,38,38,47,21,26,14,,,,35,33,6,6,0.4,0.5
2024-11-07T0200,1757A,124.0436,41.8611,抚顺市,东洲区,,45,45,37,31,22,4,,,,31,26,7,7,0.5,0.5
2024-11-07T0200,1758A,123.9247,41.8642,抚顺市,新抚区,,50,50,48,29,26,6,,,,34,28,8,7,0.3,0.3
2024-11-07T0200,1759A,124.0972,41.8961,抚顺市,大伙房水库,,33,33,30,21,19,24,,,,22,18,7,7,0.5,0.4
2024-11-07T0200,1760A,123.7086,41.8391,抚顺市,沈抚新城,颗粒物(PM10),68,86,58,32,35,5,,,,43,29,10,8,1.1,0.7
2024-11-07T0200,2376A,116.2127,28.0814,抚州市,桐源党溪,细颗粒物(PM2.5),69,72,55,50,28,40,,,,10,8,5,6,0.5,0.5
2024-11-07T0200,2377A,116.3544,27.9831,抚州市,市站,,48,48,53,22,25,70,,,,21,18,9,13,0.7,0.9
2024-11-07T0200,2378A,116.3565,27.963,抚州市,血防站,,48,48,53,23,25,75,,,,15,12,3,8,0.4,0.5
2024-11-07T0200,2379A,116.3564,28.0007,抚州市,采茶剧团,,49,49,50,24,26,70,,,,13,9,13,9,0.9,0.9
2024-11-07T0200,2380A,116.385,27.9647,抚州市,医学分院,颗粒物(PM10),51,51,55,21,24,73,,,,13,11,8,11,0.6,0.6
2024-11-07T0200,2207A,121.6094,41.998,阜新市,工业园区,细颗粒物(PM2.5),113,130,84,85,38,4,,,,44,30,21,20,1.1,0.7
2024-11-07T0200,2208A,121.6697,42.0279,阜新市,长青街,细颗粒物(PM2.5),88,90,61,65,35,3,,,,41,28,15,21,1.1,1.3
2024-11-07T0200,2209A,121.6673,42.0705,阜新市,农业园区,细颗粒物(PM2.5),67,53,46,48,31,37,,,,36,25,32,27,0.8,0.5
2024-11-07T0200,2210A,121.6717,42.0224,阜新市,东苑,细颗粒物(PM2.5),68,80,63,49,29,6,,,,44,30,20,24,1.7,1.6
2024-11-07T0200,2211A,121.6506,42.0498,阜新市,玉龙新城,颗粒物(PM10),68,85,79,47,38,7,,,,47,35,14,15,0.8,1
2024-11-07T0200,2301A,115.8277,32.8929,阜阳市,市监测站,细颗粒物(PM2.5),83,86,88,61,65,19,,,,50,35,7,9,0.6,0.6
2024-11-07T0200,2303A,115.8554,32.8605,阜阳市,开发区,颗粒物(PM10),76,102,113,55,57,31,,,,45,42,8,9,0.6,0.6
2024-11-07T0200,2875A,115.784,32.8892,阜阳市,阜阳职业技术学院,"颗粒物(PM10),细颗粒物(PM2.5)",57,64,78,40,54,54,,,,25,28,7,8,0.4,0.5
2024-11-07T0200,3468A,115.7901,32.8613,阜阳市,市规划展馆,颗粒物(PM10),52,53,72,29,50,65,,,,22,29,7,9,0.3,0.4
2024-11-07T0200,3469A,115.836,32.9183,阜阳市,枣园社区,颗粒物(PM10),68,86,87,45,58,39,,,,33,33,10,9,0.4,0.5
2024-11-07T0200,2669A,102.9099,34.9841,甘南藏族自治州,州政府,,33,33,29,20,15,2,,,,38,28,2,3,0.8,0.6
2024-11-07T0200,3380A,102.8914,34.9617,甘南藏族自治州,甘肃民族师范学院,,32,32,25,12,14,0,,,,41,32,5,7,0.3,0.8
2024-11-07T0200,2570A,101.9603,30.0475,甘孜藏族自治州,水桥子,,18,13,18,9,8,4,,,,36,21,6,6,0.3,0.3
2024-11-07T0200,3065A,101.9533,29.9972,甘孜藏族自治州,州环保局,,17,17,14,7,4,18,,,,30,20,3,3,0.2,0.2
2024-11-07T0200,3414A,115.8347,28.932,赣江新区,桑海产业园,颗粒物(PM10),54,58,63,33,30,76,,,,25,23,13,13,0.8,0.7
2024-11-07T0200,2362A,114.9017,25.9149,赣州市,通天岩,细颗粒物(PM2.5),55,,45,39,31,54,,,,6,8,2,22,0.5,1.1
2024-11-07T0200,2363A,114.9367,25.8664,赣州市,地委,,49,41,57,34,36,98,,,,11,12,1,1,0.6,0.6
2024-11-07T0200,2364A,114.9461,25.8481,赣州市,气象台,细颗粒物(PM2.5),52,37,50,36,38,100,,,,7,13,14,6,0.5,0.6
2024-11-07T0200,2365A,114.9322,25.8333,赣州市,市图书馆,,36,36,52,23,29,106,,,,11,13,12,7,0.5,0.7
2024-11-07T0200,2366A,114.8905,25.8471,赣州市,华坚鞋城,,44,44,52,22,29,104,,,,10,11,6,6,0.6,0.7
2024-11-07T0200,3109A,115.0093,25.8613,赣州市,赣县区卫计委,,42,41,50,29,32,36,,,,32,15,4,5,0.5,0.6
2024-11-07T0200,2683A,106.2319,36.1417,固原市,马园,细颗粒物(PM2.5),63,74,40,45,22,6,,,,39,27,6,6,0.9,0.7
2024-11-07T0200,2684A,106.2792,36.0022,固原市,监测站,细颗粒物(PM2.5),55,44,36,39,29,3,,,,50,36,6,6,0.6,0.7
2024-11-07T0200,2685A,106.2375,36.0211,固原市,新区,细颗粒物(PM2.5),55,44,37,39,21,13,,,,42,34,4,4,1.0,0.7
2024-11-07T0200,3522A,106.2177,35.9959,固原市,原州区十五小,,25,16,26,9,12,79,,,,7,13,5,5,0.4,0.4
2024-11-07T0200,2543A,106.6308,30.5278,广安市,小平旧居,,,,,,,,,,,,,,,,
2024-11-07T0200,2544A,106.6303,30.4576,广安市,市委,颗粒物(PM10),51,51,45,35,29,22,,,,22,18,2,2,0.5,0.5
2024-11-07T0200,2545A,106.6271,30.4663,广安市,友谊中学,,45,43,40,31,28,16,,,,21,20,2,2,0.6,0.6
2024-11-07T0200,2547A,106.6388,30.4551,广安市,广电花园,,46,46,41,32,27,20,,,,23,19,4,4,0.4,0.3
2024-11-07T0200,2902A,106.6351,30.4865,广安市,北辰小学,,46,44,41,32,28,24,,,,14,15,3,3,0.6,0.6
2024-11-07T0200,2523A,105.8945,32.4535,广元市,黑石坡,,32,30,31,22,19,19,,,,15,14,6,5,0.5,0.4
2024-11-07T0200,2524A,105.821,32.4444,广元市,老城,,41,41,48,20,21,13,,,,26,33,4,10,0.9,1
2024-11-07T0200,2526A,105.8628,32.4287,广元市,监测站,,42,,41,29,29,9,,,,35,34,2,8,0.7,0.9
2024-11-07T0200,3617A,105.8047,32.4166,广元市,经开区,,44,44,57,30,35,5,,,,32,35,5,26,0.7,1
2024-11-07T0200,1345A,113.2347,23.1423,广州市,广雅中学,颗粒物(PM10),54,57,63,32,39,88,,,,29,27,8,8,0.9,1
2024-11-07T0200,1346A,113.2612,23.105,广州市,市五中,,40,39,61,28,40,109,,,,16,19,6,6,0.6,0.8
2024-11-07T0200,1348A,113.3478,23.0916,广州市,广东商学院,,39,39,49,26,34,94,,,,21,20,8,7,0.5,0.6
2024-11-07T0200,1349A,113.4332,23.1047,广州市,市八十六中,,47,47,57,29,35,76,,,,31,22,5,5,0.6,0.7
2024-11-07T0200,1350A,113.3505,22.9483,广州市,番禺中学,,44,44,41,20,29,83,,,,33,25,7,7,0.5,0.6
2024-11-07T0200,1351A,113.2146,23.3916,广州市,花都师范,,42,42,52,25,33,110,,,,13,16,8,8,1.0,1.1
2024-11-07T0200,1352A,113.2597,23.1331,广州市,市监测站,,43,43,56,26,35,98,,,,16,18,7,6,0.5,0.6
2024-11-07T0200,1353A,113.5618,23.312,广州市,九龙镇镇龙,,37,37,47,23,32,86,,,,16,13,6,6,0.6,0.7
2024-11-07T0200,1354A,113.2765,23.1544,广州市,麓湖,,41,41,54,28,37,88,,,,24,24,5,5,0.6,0.7
2024-11-07T0200,1355A,113.443,23.3035,广州市,帽峰山森林公园,,34,33,42,15,25,107,,,,14,13,8,7,0.6,0.7
2024-11-07T0200,2846A,113.3221,23.1322,广州市,体育西,,41,41,52,24,35,96,,,,13,14,7,7,0.7,0.9
2024-11-07T0200,3298A,113.5717,23.5491,广州市,从化街口,,37,37,46,23,33,108,,,,11,12,10,8,0.5,0.7
2024-11-07T0200,3299A,113.3472,23.3692,广州市,白云竹料,,45,45,61,27,35,101,,,,13,14,8,8,0.7,0.8
2024-11-07T0200,3300A,113.2981,23.237,广州市,白云嘉禾,,48,48,60,30,37,87,,,,31,28,8,8,0.8,0.9
2024-11-07T0200,3301A,113.4256,23.1716,广州市,黄埔科学城,,42,42,49,28,34,75,,,,23,15,6,7,0.7,0.7
2024-11-07T0200,3302A,113.3942,23.0483,广州市,番禺大学城,颗粒物(PM10),63,75,86,26,32,77,,,,32,22,7,7,0.5,0.6
2024-11-07T0200,3303A,113.4922,22.8168,广州市,南沙黄阁,,50,50,62,30,38,81,,,,33,32,14,10,0.8,0.8
2024-11-07T0200,3304A,113.5342,22.7896,广州市,南沙街,颗粒物(PM10),51,51,59,34,40,80,,,,26,26,9,9,0.7,0.8
2024-11-07T0200,3443A,113.2902,23.5544,广州市,花都梯面,,38,36,46,26,33,110,,,,11,12,12,10,0.6,0.7
2024-11-07T0200,3445A,113.7858,23.7478,广州市,从化良口,,33,33,43,22,30,98,,,,9,10,7,6,0.7,0.8
2024-11-07T0200,3446A,113.8051,23.2614,广州市,增城荔城,,35,35,46,23,35,108,,,,16,16,8,8,0.6,0.7
2024-11-07T0200,2505A,109.568,23.1478,贵港市,德智高中,,,,,,,,,,,,,,,,
2024-11-07T0200,2506A,109.6047,23.0666,贵港市,江南子站,细颗粒物(PM2.5),80,90,79,59,52,87,,,,25,20,10,8,0.9,0.9
2024-11-07T0200,2507A,109.6014,23.0948,贵港市,贵城子站,细颗粒物(PM2.5),93,92,71,69,50,77,,,,24,16,8,8,1.0,0.9
2024-11-07T0200,2508A,109.5669,23.1065,贵港市,荷城子站,细颗粒物(PM2.5),67,66,68,48,46,117,,,,14,15,11,11,0.7,0.7
2024-11-07T0200,3405A,109.5886,23.1172,贵港市,新世纪学校,细颗粒物(PM2.5),67,68,71,48,48,112,,,,15,13,9,9,0.8,0.8
2024-11-07T0200,1439A,106.6899,26.5998,贵阳市,马鞍山,,34,34,42,22,27,85,,,,10,12,4,4,0.6,0.7
2024-11-07T0200,1440A,106.6971,26.5694,贵阳市,市环保站,细颗粒物(PM2.5),52,46,50,36,40,116,,,,10,13,6,5,0.4,0.4
2024-11-07T0200,1441A,106.6243,26.6266,贵阳市,鉴湖路,,44,44,48,27,33,97,,,,12,12,6,5,0.5,0.5
2024-11-07T0200,1442A,106.7487,26.6343,贵阳市,燕子冲,细颗粒物(PM2.5),55,41,42,39,38,118,,,,7,11,6,6,0.5,0.5
2024-11-07T0200,1443A,106.6555,26.4365,贵阳市,碧云窝,颗粒物(PM10),53,56,60,29,36,98,,,,16,20,9,7,0.5,0.5
2024-11-07T0200,1444A,106.694,26.5161,贵阳市,中院村,,48,48,55,31,38,104,,,,13,19,7,5,0.6,0.7
2024-11-07T0200,1445A,106.7109,26.6027,贵阳市,红边门,细颗粒物(PM2.5),52,48,49,36,39,106,,,,14,16,5,6,0.6,0.7
2024-11-07T0200,1446A,106.7164,26.5699,贵阳市,新华路,,49,44,48,34,38,103,,,,11,13,6,5,0.4,0.5
2024-11-07T0200,1447A,106.674,26.5424,贵阳市,太慈桥,,45,44,46,31,33,108,,,,14,19,6,4,0.4,0.4
2024-11-07T0200,1552A,106.805,26.3003,贵阳市,桐木岭,,,,65,,44,,,77,,,4,,8,,0.7
2024-11-07T0200,1862A,110.4144,25.3167,桂林市,电子科大尧山校区,细颗粒物(PM2.5),57,58,60,40,39,113,,,,14,12,28,12,0.6,0.6
2024-11-07T0200,1863A,110.2819,25.2697,桂林市,监测站,细颗粒物(PM2.5),54,53,65,38,52,121,,,,13,16,21,12,0.7,0.8
2024-11-07T0200,1864A,110.3089,25.2708,桂林市,龙隐路小学,细颗粒物(PM2.5),54,47,61,38,48,139,,,,12,13,12,15,0.7,0.7
2024-11-07T0200,1865A,110.2869,25.2178,桂林市,八中,,49,49,62,34,42,123,,,,13,15,12,12,0.8,0.9
2024-11-07T0200,3403A,110.1764,25.2381,桂林市,创业大厦,细颗粒物(PM2.5),64,56,68,46,50,131,,,,13,15,9,9,0.5,0.5
2024-11-07T0200,3531A,110.296,25.1253,桂林市,旅游学院,细颗粒物(PM2.5),58,53,64,41,45,122,,,,14,14,12,10,0.6,0.6
2024-11-07T0200,2674A,100.2561,34.4714,果洛藏族自治州,玛沁县大武镇,,41,41,30,11,18,21,,,,20,9,13,15,0.6,0.5
2024-11-07T0200,1129A,126.5422,45.755,哈尔滨市,岭北,细颗粒物(PM2.5),145,118,79,111,71,80,,,,29,25,10,11,0.5,0.6
2024-11-07T0200,1130A,126.561,45.8167,哈尔滨市,松北商大,细颗粒物(PM2.5),139,147,88,106,70,12,,,,58,38,11,10,0.7,0.7
2024-11-07T0200,1131A,126.979,45.5419,哈尔滨市,阿城会宁,细颗粒物(PM2.5),94,106,90,70,71,1,,,,31,27,6,8,0.9,1
2024-11-07T0200,1132A,126.599,45.7222,哈尔滨市,南岗学府路,细颗粒物(PM2.5),155,158,100,118,73,47,,,,28,30,8,12,0.8,0.7
2024-11-07T0200,1133A,126.689,45.7733,哈尔滨市,太平宏伟公园,细颗粒物(PM2.5),95,88,83,71,68,26,,,,40,31,8,13,0.5,0.6
2024-11-07T0200,1134A,126.635,45.7667,哈尔滨市,道外承德广场,细颗粒物(PM2.5),119,127,92,90,62,26,,,,46,31,13,9,0.9,0.8
2024-11-07T0200,1135A,126.685,45.7319,哈尔滨市,香坊红旗大街,细颗粒物(PM2.5),125,100,91,95,74,48,,,,30,27,13,11,0.4,0.6
2024-11-07T0200,1136A,126.6411,45.7258,哈尔滨市,动力和平路,细颗粒物(PM2.5),129,132,89,98,69,34,,,,38,31,11,13,0.7,0.6
2024-11-07T0200,1137A,126.593,45.7478,哈尔滨市,道里建国路,细颗粒物(PM2.5),264,,82,214,74,27,,,,54,30,17,13,0.5,0.4
2024-11-07T0200,1138A,126.615,45.61,哈尔滨市,平房东轻厂,细颗粒物(PM2.5),139,145,83,106,67,8,,,,58,38,9,10,0.7,0.7
2024-11-07T0200,1139A,126.595,45.9855,哈尔滨市,呼兰师专,细颗粒物(PM2.5),328,,116,278,116,10,,,,63,38,5,7,1.4,0.8
2024-11-07T0200,1140A,126.6206,45.6842,哈尔滨市,省农科院,细颗粒物(PM2.5),139,147,108,106,79,9,,,,66,36,8,9,0.7,0.7
2024-11-07T0200,2688A,93.5128,42.8172,哈密市,地区监测站,颗粒物(PM10),68,86,105,37,41,20,,,,51,43,5,10,0.4,0.7
2024-11-07T0200,2689A,93.4961,42.8328,哈密市,哈密师范学校,颗粒物(PM10),65,80,105,40,46,11,,,,64,49,7,9,0.9,1
2024-11-07T0200,2671A,100.9048,36.9639,海北藏族自治州,海晏县西海镇,,15,9,20,9,17,47,,,,2,8,8,10,0.3,0.4
2024-11-07T0200,3867A,102.0738,36.5056,海东市,平安区公安北苑,颗粒物(PM10),57,64,59,35,33,7,,,,52,31,11,13,0.7,0.8
2024-11-07T0200,1409A,110.576,19.9507,海口市,东寨港,,,,,,,,,,,,,,,,
2024-11-07T0200,1410A,110.3232,20.0574,海口市,海南大学,臭氧1小时,70,58,52,37,32,176,,,,10,11,5,6,0.6,0.6
2024-11-07T0200,1411A,110.283,20.0053,海口市,秀英海南医院,臭氧1小时,59,48,48,38,33,167,,,,10,12,7,8,0.5,0.5
2024-11-07T0200,1412A,110.338,19.9969,海口市,海南师范大学,臭氧1小时,59,46,50,36,32,167,,,,10,12,8,8,0.6,0.6
2024-11-07T0200,1413A,110.33,20.0356,海口市,龙华路环保局宿舍,臭氧1小时,64,51,49,39,32,171,,,,9,10,6,6,0.5,0.5
2024-11-07T0200,3539A,110.5111,19.9736,海口市,桂林洋子站,细颗粒物(PM2.5),54,53,51,38,34,161,,,,9,10,6,7,0.5,0.5
2024-11-07T0200,2673A,100.6188,36.2866,海南藏族自治州,共和县恰卜恰镇,,31,31,31,8,13,39,,,,20,20,9,12,0.6,0.5
2024-11-07T0200,2676A,97.3731,37.3753,海西蒙古族藏族自治州,德令哈市,,29,29,26,8,10,53,,,,10,8,8,9,0.5,0.5
2024-11-07T0200,1048A,114.5302,36.6116,邯郸市,东污水处理厂,细颗粒物(PM2.5),104,107,93,78,58,45,,,,31,31,4,6,0.5,0.7
2024-11-07T0200,1049A,114.4918,36.5713,邯郸市,矿院,细颗粒物(PM2.5),104,107,90,78,56,32,,,,45,36,2,4,0.4,0.6
2024-11-07T0200,1050A,114.484,36.6133,邯郸市,丛台公园,细颗粒物(PM2.5),92,110,83,68,53,49,,,,36,36,4,6,0.4,0.6
2024-11-07T0200,3458A,114.7895,36.5593,邯郸市,香泉濮院小区,细颗粒物(PM2.5),74,94,93,54,49,53,,,,28,30,9,9,0.5,0.6
2024-11-07T0200,3579A,114.50634,36.77178,邯郸市,永年区实验高中,细颗粒物(PM2.5),97,132,112,72,57,39,,,,48,37,4,6,0.3,0.6
2024-11-07T0200,3580A,114.20016,36.44293,邯郸市,峰峰矿区临水派出所,细颗粒物(PM2.5),93,92,74,69,48,82,,,,18,27,9,12,0.8,1
2024-11-07T0200,2634A,106.9893,33.1842,汉中市,汉川机床厂子校,,38,32,30,26,22,19,,,,12,12,5,5,0.5,0.5
2024-11-07T0200,2635A,107.0154,33.0706,汉中市,市监测站,颗粒物(PM10),56,61,50,37,30,6,,,,35,21,10,9,0.7,0.7
2024-11-07T0200,2636A,107.0089,33.1138,汉中市,鑫源开发区,颗粒物(PM10),62,73,50,40,29,8,,,,44,25,22,11,1.0,0.7
2024-11-07T0200,2637A,107.007,33.0323,汉中市,南郑大河坎水厂,细颗粒物(PM2.5),62,64,47,44,31,9,,,,34,24,7,8,0.8,0.7
2024-11-07T0200,1223A,120.2072,30.2111,杭州市,滨江,,25,25,35,14,18,49,,,,30,31,8,7,0.3,0.3
2024-11-07T0200,1224A,120.0633,30.2747,杭州市,西溪,,38,29,27,26,17,3,,,,54,38,6,6,0.7,0.6
2024-11-07T0200,1226A,120.3461,30.3153,杭州市,下沙,,37,37,36,12,16,27,,,,62,52,8,8,0.5,0.5
2024-11-07T0200,1227A,120.1269,30.2456,杭州市,卧龙桥,,27,27,30,15,16,13,,,,38,28,6,7,0.5,0.5
2024-11-07T0200,1228A,120.1903,30.2692,杭州市,浙江农大,,34,34,36,14,18,28,,,,45,35,4,5,0.5,0.5
2024-11-07T0200,1230A,120.1197,30.3119,杭州市,和睦小学,,41,41,37,24,20,13,,,,63,46,8,9,0.5,0.4
2024-11-07T0200,1231A,120.3019,30.4183,杭州市,临平镇,,36,36,35,14,15,15,,,,68,36,6,6,0.4,0.4
2024-11-07T0200,1232A,120.2697,30.1819,杭州市,城厢镇,,34,34,35,13,16,44,,,,45,35,6,6,0.5,0.5
2024-11-07T0200,1233A,120.0883,30.1808,杭州市,云栖,,25,25,30,11,14,13,,,,49,38,6,7,0.4,0.4
2024-11-07T0200,3557A,119.9464,30.0494,杭州市,镇二中,,32,28,38,22,21,26,,,,36,30,6,6,0.6,0.6
2024-11-07T0200,3558A,119.7183,30.2367,杭州市,市府大楼,,25,20,37,17,24,36,,,,27,30,6,7,0.6,0.6
2024-11-07T0200,3656A,120.1556,30.2864,杭州市,消防大队,,35,35,39,17,19,35,,,,49,38,8,8,0.3,0.3
2024-11-07T0200,1270A,117.1959,31.7848,合肥市,明珠广场,,48,48,52,22,22,14,,,,78,50,7,8,0.4,0.4
2024-11-07T0200,1271A,117.3072,31.8764,合肥市,三里街,,48,48,52,27,24,5,,,,80,43,6,6,0.5,0.5
2024-11-07T0200,1272A,117.2588,31.8707,合肥市,琥珀山庄,,34,34,47,19,24,39,,,,44,30,9,10,0.7,0.7
2024-11-07T0200,1273A,117.1604,31.9052,合肥市,董铺水库,,39,39,55,9,19,26,,,,55,35,5,5,0.3,0.4
2024-11-07T0200,1274A,117.25,31.8571,合肥市,长江中路,,41,41,51,26,27,47,,,,46,34,9,9,0.6,0.6
2024-11-07T0200,1275A,117.266,31.9436,合肥市,庐阳区,颗粒物(PM10),53,56,58,19,22,26,,,,59,40,2,4,0.7,0.7
2024-11-07T0200,1276A,117.336,31.8586,合肥市,瑶海区,,48,48,54,29,23,24,,,,67,43,6,6,0.4,0.4
2024-11-07T0200,1277A,117.3027,31.7964,合肥市,包河区,颗粒物(PM10),53,56,64,31,27,2,,,,98,69,7,7,0.5,0.6
2024-11-07T0200,1278A,117.2776,31.7385,合肥市,滨湖新区,颗粒物(PM10),51,51,52,19,21,27,,,,48,33,5,8,0.5,0.5
2024-11-07T0200,1279A,117.1318,31.8403,合肥市,高新区,,44,44,49,26,23,56,,,,37,34,1,2,0.6,0.7
2024-11-07T0200,3464A,117.3803,31.9147,合肥市,高教基地,颗粒物(PM10),53,55,47,32,24,23,,,,43,32,5,7,0.3,0.4
2024-11-07T0200,3614A,79.924,37.0877,和田地区,地区环保局,颗粒物(PM10),125,199,140,58,35,45,,,,31,17,9,8,0.4,0.5
2024-11-07T0200,3615A,79.9131,37.113,和田地区,市环保局,颗粒物(PM10),113,175,131,78,45,12,,,,59,36,12,9,1.7,1.6
2024-11-07T0200,2516A,108.2011,24.715,河池市,东仁乐园,细颗粒物(PM2.5),57,48,59,40,36,41,,,,15,12,4,5,0.6,0.7
2024-11-07T0200,2517A,108.0497,24.6947,河池市,市环保站,细颗粒物(PM2.5),63,62,57,45,39,30,,,,38,24,10,10,0.7,0.7
2024-11-07T0200,2518A,108.0983,24.6989,河池市,市疾控中心,细颗粒物(PM2.5),72,72,68,52,44,22,,,,42,32,9,9,0.7,0.7
2024-11-07T0200,1696A,114.6778,23.7569,河源市,源西,,43,38,45,30,36,78,,,,20,14,11,8,0.6,0.7
2024-11-07T0200,1697A,114.6944,23.7586,河源市,东埔,,40,38,46,28,38,91,,,,17,15,7,6,0.6,0.7
2024-11-07T0200,1698A,114.6892,23.7233,河源市,老城,,44,44,49,24,32,94,,,,11,12,8,5,0.5,0.6
2024-11-07T0200,1718A,115.4208,35.2464,菏泽市,气象局,细颗粒物(PM2.5),84,104,101,62,53,75,,,,32,40,6,6,0.6,0.6
2024-11-07T0200,1719A,115.4747,35.2375,菏泽市,市政协,细颗粒物(PM2.5),89,106,98,66,54,66,,,,34,40,7,9,0.4,0.4
2024-11-07T0200,3374A,115.5564,35.0891,菏泽市,定陶老年大学,细颗粒物(PM2.5),89,97,87,66,51,57,,,,34,40,8,9,0.4,0.3
2024-11-07T0200,3647A,115.4702,35.2706,菏泽市,菏泽医专,细颗粒物(PM2.5),79,101,96,58,46,70,,,,39,45,9,12,0.4,0.5
2024-11-07T0200,2514A,111.5264,24.4172,贺州市,环保小区,颗粒物(PM10),51,52,70,29,53,65,,,,18,19,6,6,0.8,0.9
2024-11-07T0200,2515A,111.5608,24.4078,贺州市,政协大楼,颗粒物(PM10),55,60,75,30,49,44,,,,26,21,7,8,0.7,0.8
2024-11-07T0200,3534A,111.4744,24.4553,贺州市,西湾,细颗粒物(PM2.5),62,51,73,44,56,92,,,,15,17,8,8,0.6,0.7
2024-11-07T0200,2385A,114.17,35.9019,鹤壁市,市监测站,细颗粒物(PM2.5),90,84,98,67,58,48,,,,36,34,3,6,0.6,0.6
2024-11-07T0200,2386A,114.2956,35.7511,鹤壁市,市交警支队,细颗粒物(PM2.5),92,118,95,68,47,27,,,,66,39,6,6,0.7,0.7
2024-11-07T0200,2387A,114.2878,35.7306,鹤壁市,迎宾馆,细颗粒物(PM2.5),94,118,107,70,49,37,,,,70,47,7,4,0.8,0.6
2024-11-07T0200,3474A,114.2617,35.6822,鹤壁市,大新区,细颗粒物(PM2.5),115,88,88,87,66,15,,,,70,44,6,6,0.7,0.6
2024-11-07T0200,3596A,114.1572,35.9603,鹤壁市,南山宾馆,细颗粒物(PM2.5),93,117,97,69,64,61,,,,31,26,12,13,0.7,0.6
2024-11-07T0200,2244A,130.2537,47.3416,鹤岗市,哈啤分公司,,25,,15,17,14,43,,,,2,3,12,13,0.4,0.4
2024-11-07T0200,2245A,130.2684,47.3086,鹤岗市,斯达机电,,20,17,18,14,14,43,,,,4,8,11,11,0.2,0.2
2024-11-07T0200,2246A,130.3114,47.3388,鹤岗市,东山纸板厂,颗粒物(PM10),58,66,32,15,14,29,,,,9,7,11,11,0.9,0.5
2024-11-07T0200,2247A,130.1097,47.3382,鹤岗市,五号水库,,16,13,13,8,8,49,,,,4,4,7,7,0.5,0.5
2024-11-07T0200,2263A,127.4833,50.2524,黑河市,交通局,,19,14,22,13,15,40,,,,5,14,8,7,0.3,0.4
2024-11-07T0200,2264A,127.5144,50.2341,黑河市,环保局,,29,21,28,20,19,20,,,,15,16,4,7,0.4,0.3
2024-11-07T0200,2265A,127.5291,50.2472,黑河市,大黑河岛,,15,,20,10,15,38,,,,5,14,1,4,0.5,0.5
2024-11-07T0200,1074A,115.6838,37.7541,衡水市,电机北厂,细颗粒物(PM2.5),79,72,65,58,37,37,,,,39,36,8,8,0.5,0.4
2024-11-07T0200,1075A,115.6303,37.7316,衡水市,市监测站,颗粒物(PM10),63,76,69,42,33,36,,,,50,46,6,8,0.5,0.5
2024-11-07T0200,3188A,115.6683,37.7217,衡水市,市城管局,细颗粒物(PM2.5),72,71,68,52,38,29,,,,48,43,9,9,0.5,0.4
2024-11-07T0200,3459A,115.5989,37.5491,衡水市,地表水厂,细颗粒物(PM2.5),67,71,69,48,43,17,,,,59,49,5,9,0.5,0.5
2024-11-07T0200,2456A,112.5003,26.9167,衡阳市,原169医院,细颗粒物(PM2.5),64,72,61,46,40,62,,,,10,18,9,10,0.6,0.6
2024-11-07T0200,2457A,112.6194,26.9258,衡阳市,衡阳化工总厂,细颗粒物(PM2.5),110,113,84,83,64,90,,,,21,16,33,17,1.0,0.8
2024-11-07T0200,2458A,112.6211,26.8956,衡阳市,珠晖区环保局,细颗粒物(PM2.5),92,93,72,68,59,95,,,,30,29,13,11,1.1,0.9
2024-11-07T0200,2459A,112.6197,26.8733,衡阳市,市委党校,细颗粒物(PM2.5),88,83,71,65,46,104,,,,22,19,16,13,1.0,0.8
2024-11-07T0200,2460A,112.6006,26.8919,衡阳市,市监测站,细颗粒物(PM2.5),98,109,77,73,50,108,,,,21,19,39,17,1.1,0.9
2024-11-07T0200,2461A,112.5664,26.9056,衡阳市,真空机电公司,细颗粒物(PM2.5),92,90,66,68,58,79,,,,31,23,29,17,1.0,0.9
2024-11-07T0200,3399A,112.6703,26.882,衡阳市,师范学院,细颗粒物(PM2.5),84,106,77,62,52,108,,,,22,19,14,14,1.0,0.8
2024-11-07T0200,2608A,103.3772,23.3993,红河哈尼族彝族自治州,污水处理厂,,49,35,52,34,51,62,,,,5,12,4,8,0.5,0.6
2024-11-07T0200,2609A,103.3861,23.35,红河哈尼族彝族自治州,监测站,细颗粒物(PM2.5),58,45,54,41,47,66,,,,6,12,4,7,0.5,0.5
2024-11-07T0200,3038A,103.3758,23.368,红河哈尼族彝族自治州,州图书馆,,45,39,49,31,38,66,,,,6,10,7,11,0.6,0.6
2024-11-07T0200,1090A,111.6507,40.7517,呼和浩特市,呼市一监,,48,48,54,30,27,6,,,,71,54,10,11,0.9,0.8
2024-11-07T0200,1091A,111.6572,40.8033,呼和浩特市,小召,颗粒物(PM10),54,58,59,35,29,7,,,,72,57,11,13,0.9,0.8
2024-11-07T0200,1094A,111.7516,40.8369,呼和浩特市,如意水处理厂,颗粒物(PM10),59,67,65,31,28,1,,,,69,56,9,9,0.7,0.7
2024-11-07T0200,1095A,111.7276,40.8062,呼和浩特市,二十九中,颗粒物(PM10),55,59,57,32,27,4,,,,69,52,9,10,1.0,0.8
2024-11-07T0200,1096A,111.5512,40.7866,呼和浩特市,工大金川校区,颗粒物(PM10),56,62,64,30,29,2,,,,69,57,6,9,0.6,0.6
2024-11-07T0200,1097A,111.717,40.7612,呼和浩特市,化肥厂生活区,颗粒物(PM10),59,68,67,32,28,8,,,,71,55,12,13,1.3,0.8
2024-11-07T0200,3698A,111.5968,40.8178,呼和浩特市,红旗小学,颗粒物(PM10),69,88,65,43,30,2,,,,75,59,11,11,1.0,0.7
2024-11-07T0200,3699A,111.6518,40.8389,呼和浩特市,海东办,颗粒物(PM10),79,107,63,53,31,5,,,,70,57,9,10,1.3,0.9
2024-11-07T0200,2192A,119.7594,49.2261,呼伦贝尔市,区环保局,,42,36,33,29,16,26,,,,15,19,7,6,0.4,0.4
2024-11-07T0200,3061A,119.7512,49.1577,呼伦贝尔市,国华电力东,,26,19,24,18,13,36,,,,6,13,4,6,0.1,0.2
2024-11-07T0200,1250A,120.0751,30.8669,湖州市,城西水厂,,31,31,38,13,18,68,,,,25,40,6,7,0.4,0.4
2024-11-07T0200,2873A,120.0875,30.8955,湖州市,仁皇山新区,,21,19,31,9,14,57,,,,41,37,5,6,0.3,0.5
2024-11-07T0200,2907A,120.1844,30.8596,湖州市,吴兴区站,,21,21,29,10,15,62,,,,19,22,6,7,0.4,0.5
2024-11-07T0200,3562A,120.4148,30.8538,湖州市,南浔区站,,31,31,26,16,13,40,,,,39,29,4,4,0.3,0.3
2024-11-07T0200,1607A,120.9092,40.7136,葫芦岛市,龙港区,细颗粒物(PM2.5),58,59,40,41,26,9,,,,53,26,12,22,0.9,0.7
2024-11-07T0200,1608A,120.8392,40.7514,葫芦岛市,化工街,颗粒物(PM10),59,68,61,31,30,6,,,,50,35,53,39,0.5,0.4
2024-11-07T0200,1609A,120.8341,40.7073,葫芦岛市,新区,细颗粒物(PM2.5),77,73,44,56,30,5,,,,61,33,23,20,1.1,0.7
2024-11-07T0200,1610A,120.8695,40.7677,葫芦岛市,东城区,颗粒物(PM10),57,64,50,33,33,8,,,,45,36,19,31,1.0,0.9
2024-11-07T0200,2482A,109.5981,27.5721,怀化市,林科所,细颗粒物(PM2.5),58,48,50,41,38,100,,,,16,15,52,22,1.0,1
2024-11-07T0200,2483A,109.9453,27.5444,怀化市,河西地税局,细颗粒物(PM2.5),60,61,66,43,44,63,,,,19,20,17,18,0.6,0.6
2024-11-07T0200,2484A,109.9781,27.5342,怀化市,市四医院,颗粒物(PM10),60,70,67,42,43,81,,,,18,15,21,18,0.6,0.7
2024-11-07T0200,2485A,109.9972,27.5578,怀化市,监测楼,颗粒物(PM10),61,71,72,42,40,52,,,,31,20,20,10,0.6,0.6
2024-11-07T0200,2486A,110.0394,27.583,怀化市,市委党校,颗粒物(PM10),63,76,70,44,42,42,,,,36,21,50,25,0.6,0.6
2024-11-07T0200,1210A,119.036,33.5981,淮安市,钵池山,,46,46,51,28,30,36,,,,57,43,5,6,0.5,0.6
2024-11-07T0200,1211A,119.007,33.575,淮安市,北京南路,,48,48,63,29,30,33,,,,39,40,7,8,0.4,0.5
2024-11-07T0200,1212A,118.989,33.6067,淮安市,市监测站,,39,36,51,27,34,48,,,,34,38,8,9,0.5,0.7
2024-11-07T0200,1213A,119.135,33.5039,淮安市,楚州区监测站,细颗粒物(PM2.5),63,63,61,45,39,13,,,,62,46,7,7,0.6,0.6
2024-11-07T0200,1214A,119.0186,33.6297,淮安市,淮阴区监测站,颗粒物(PM10),54,58,66,32,34,28,,,,57,53,4,6,0.7,0.8
2024-11-07T0200,3426A,118.8755,33.2894,淮安市,新华书店,,46,46,53,20,26,6,,,,73,47,5,7,0.5,0.6
2024-11-07T0200,2282A,116.8004,33.975,淮北市,监测站,颗粒物(PM10),54,57,78,33,46,77,,,,18,32,3,6,0.5,0.7
2024-11-07T0200,2283A,116.8091,33.9007,淮北市,烈山区政府,细颗粒物(PM2.5),58,64,75,41,49,68,,,,33,43,5,6,0.2,0.3
2024-11-07T0200,3330A,116.8873,33.9836,淮北市,杜集区检察院,颗粒物(PM10),56,62,81,36,49,81,,,,19,28,3,6,0.4,0.5
2024-11-07T0200,4017A,116.7923,33.9535,淮北市,市博物馆,颗粒物(PM10),56,62,82,30,46,81,,,,23,34,6,9,0.5,0.6
2024-11-07T0200,2277A,116.8305,32.7727,淮南市,潘集区政府,颗粒物(PM10),62,74,96,43,58,65,,,,31,39,23,12,0.5,0.5
2024-11-07T0200,2278A,117.0067,32.6524,淮南市,师范学院,颗粒物(PM10),51,52,70,35,37,69,,,,21,27,10,12,0.4,0.4
2024-11-07T0200,2279A,116.8569,32.5951,淮南市,谢家集区政府,,29,28,59,20,30,70,,,,17,27,9,10,0.4,0.5
2024-11-07T0200,2280A,116.8281,32.633,淮南市,八公山区政府,,36,36,68,18,36,76,,,,16,27,10,11,0.3,0.4
2024-11-07T0200,2281A,116.6325,32.6201,淮南市,焦岗湖风景区管理处,,36,36,52,23,31,50,,,,35,44,3,5,0.1,0.2
2024-11-07T0200,2894A,117.0566,32.6531,淮南市,经济技术开发区消防队,细颗粒物(PM2.5),70,88,79,51,41,56,,,,24,34,7,7,0.9,0.5
2024-11-07T0200,3329A,117.0108,32.5893,淮南市,山南新区,,43,43,62,19,30,69,,,,22,21,2,4,0.3,0.4
2024-11-07T0200,2446A,114.9028,30.4742,黄冈市,职工中心,,49,49,59,27,42,81,,,,20,21,11,11,0.6,0.6
2024-11-07T0200,2929A,114.8858,30.4519,黄冈市,红卫路,,43,43,54,26,32,84,,,,25,24,8,9,0.4,0.5
2024-11-07T0200,3398A,114.9136,30.4445,黄冈市,市林业局,颗粒物(PM10),55,59,72,30,35,82,,,,30,22,11,11,0.5,0.6
2024-11-07T0200,2672A,102.0199,35.5102,黄南藏族自治州,同仁县隆务镇,,32,32,32,6,9,52,,,,3,7,7,6,0.5,0.5
2024-11-07T0200,2295A,118.2903,29.6963,黄山市,延安路89号,,19,19,31,8,17,28,,,,14,11,6,7,0.2,0.3
2024-11-07T0200,2296A,118.327,29.7178,黄山市,黄山东路89号,,35,35,44,12,18,60,,,,13,13,5,6,0.2,0.3
2024-11-07T0200,2297A,118.1371,30.2756,黄山市,黄山区政府5号楼,,36,32,37,25,23,26,,,,9,10,7,8,0.4,0.4
2024-11-07T0200,2423A,115.0601,30.2313,黄石市,沈家营,,45,45,48,23,23,86,,,,19,20,7,12,0.8,0.6
2024-11-07T0200,2424A,115.0817,30.2006,黄石市,陈家湾,,47,47,46,27,27,109,,,,15,18,12,12,0.8,0.6
2024-11-07T0200,2426A,114.8988,30.2019,黄石市,铁山,,47,47,45,30,28,91,,,,28,19,10,8,0.9,0.7
2024-11-07T0200,2427A,115.0307,30.2092,黄石市,团城山,颗粒物(PM10),51,52,49,26,19,105,,,,20,20,8,10,0.6,0.6
2024-11-07T0200,3149A,115.0235,30.1578,黄石市,笔架山北路,,49,49,41,29,19,88,,,,28,22,11,10,0.7,0.7
2024-11-07T0200,1392A,114.4183,23.0528,惠州市,河南岸金山湖子站,,44,44,51,29,35,98,,,,9,10,9,8,0.8,0.8
2024-11-07T0200,1393A,114.4053,23.0822,惠州市,下埔横江三路子站,,44,44,51,26,35,99,,,,11,11,9,7,0.6,0.8
2024-11-07T0200,1394A,114.4103,23.1142,惠州市,江北云山西路子站,,41,41,49,27,34,104,,,,11,12,10,8,0.6,0.8
2024-11-07T0200,1395A,114.4645,22.7833,惠州市,惠阳区承修路船湖子站,颗粒物(PM10),52,53,59,28,34,88,,,,12,11,12,10,0.6,0.6
2024-11-07T0200,1396A,114.5317,22.7422,惠州市,大亚湾管委会子站,,43,42,51,30,34,106,,,,10,15,4,7,0.6,0.7
2024-11-07T0200,3314A,114.4338,22.8134,惠州市,惠阳秋长,,39,39,46,27,35,92,,,,14,14,8,8,0.6,0.7
2024-11-07T0200,3452A,114.6517,22.775,惠州市,大亚湾霞涌,,,,51,45,32,82,,,,11,11,7,7,0.4,0.5
2024-11-07T0200,2240A,130.9762,45.3001,鸡西市,环保局,,36,36,20,23,9,39,,,,2,5,5,7,0.2,0.1
2024-11-07T0200,2243A,130.9429,45.3039,鸡西市,第一中学,,39,34,20,27,11,31,,,,14,12,5,7,0.3,0.2
2024-11-07T0200,3707A,131.0207,45.3073,鸡西市,欧美日汽修厂,,42,,29,29,15,24,,,,26,16,10,8,0.4,0.3
2024-11-07T0200,3709A,130.9967,45.3106,鸡西市,市政设施管理处,,46,41,22,32,12,25,,,,22,17,7,6,0.3,0.3
2024-11-07T0200,2367A,114.9754,27.0803,吉安市,红声器材厂,,47,47,55,18,25,81,,,,28,26,16,14,0.5,0.5
2024-11-07T0200,2368A,114.9658,27.0999,吉安市,市森林工业局,,44,44,50,22,27,83,,,,19,23,16,16,0.6,0.6
2024-11-07T0200,2369A,114.99,27.1312,吉安市,市环境监测站,,44,44,48,20,25,84,,,,24,26,18,15,0.5,0.5
2024-11-07T0200,2370A,115.0093,27.0968,吉安市,青原区法院,,43,43,53,22,26,78,,,,26,23,17,14,0.5,0.6
2024-11-07T0200,1772A,126.54,43.8622,吉林市,哈达湾,,44,44,35,27,27,36,,,,25,26,10,9,0.6,0.6
2024-11-07T0200,1773A,126.5844,43.8358,吉林市,东局子,颗粒物(PM10),59,67,38,41,25,7,,,,48,28,11,7,0.8,0.6
2024-11-07T0200,1774A,126.5052,43.8245,吉林市,电力学院,细颗粒物(PM2.5),60,51,51,43,38,7,,,,32,27,8,8,1.0,0.9
2024-11-07T0200,1775A,126.6133,43.8972,吉林市,江北,细颗粒物(PM2.5),57,59,64,40,37,13,,,,34,30,10,10,0.8,0.8
2024-11-07T0200,1776A,126.555,43.8306,吉林市,江南公园,细颗粒物(PM2.5),64,65,46,46,32,16,,,,43,26,14,9,0.8,0.6
2024-11-07T0200,1778A,126.7061,43.7133,吉林市,丰满,,42,31,17,29,14,36,,,,12,6,9,8,1.0,0.7
2024-11-07T0200,2868A,126.4739,43.953,吉林市,九站,细颗粒物(PM2.5),73,76,48,53,30,6,,,,42,28,10,9,1.0,0.7
2024-11-07T0200,1299A,116.9862,36.6114,济南市,科干所,颗粒物(PM10),53,56,40,29,15,88,,,,26,35,12,8,0.9,0.7
2024-11-07T0200,1300A,116.9376,36.665,济南市,农科所,颗粒物(PM10),61,71,59,34,19,46,,,,56,59,8,6,0.8,0.8
2024-11-07T0200,1301A,117.1265,36.6734,济南市,开发区,,49,49,42,34,20,20,,,,71,50,7,5,0.6,0.6
2024-11-07T0200,1303A,117.0624,36.6868,济南市,省种子仓库,颗粒物(PM10),59,68,56,31,20,24,,,,72,57,7,4,0.7,0.7
2024-11-07T0200,1304A,116.9489,36.6447,济南市,机床二厂,颗粒物(PM10),64,78,72,39,23,27,,,,73,55,7,6,0.6,0.7
2024-11-07T0200,1305A,117.0495,36.663,济南市,市监测站,颗粒物(PM10),57,63,48,34,20,69,,,,43,61,8,5,0.9,1
2024-11-07T0200,1306A,116.7675,36.5484,济南市,长清党校,颗粒物(PM10),59,68,40,37,25,86,,,,34,43,12,8,0.8,0.7
2024-11-07T0200,1616A,117.6795,36.229,济南市,技术学院,,46,46,48,27,26,29,,,,57,47,8,10,0.8,1
2024-11-07T0200,1961A,117.532,36.6868,济南市,东山小学,颗粒物(PM10),57,63,42,34,13,59,,,,34,43,13,8,1.0,0.8
2024-11-07T0200,3059A,117.7161,36.2049,济南市,泰兴公司,,36,36,63,22,29,8,,,,70,54,7,11,0.4,0.6
2024-11-07T0200,3064A,117.6867,36.2171,济南市,莱芜战役纪念馆,颗粒物(PM10),58,66,64,27,26,15,,,,77,55,8,9,0.7,0.8
2024-11-07T0200,3494A,117.1673,36.9782,济南市,济阳区政府,颗粒物(PM10),73,95,62,42,22,10,,,,92,51,10,9,0.6,0.5
2024-11-07T0200,3495A,117.1171,36.63,济南市,锦屏中学,,49,49,25,34,15,84,,,,25,30,9,5,0.5,0.4
2024-11-07T0200,3682A,116.9814,36.6819,济南市,济南四建,颗粒物(PM10),53,56,49,32,22,51,,,,47,54,7,4,0.8,0.9
2024-11-07T0200,1653A,116.6251,35.4302,济宁市,火炬城,细颗粒物(PM2.5),70,66,58,51,34,54,,,,36,36,12,10,0.7,0.6
2024-11-07T0200,1655A,116.5491,35.4042,济宁市,电化厂,颗粒物(PM10),61,71,65,39,33,54,,,,38,39,9,9,0.9,0.9
2024-11-07T0200,3500A,116.5814,35.3707,济宁市,北湖一中,细颗粒物(PM2.5),70,68,65,51,39,52,,,,34,43,5,6,0.7,0.7
2024-11-07T0200,3501A,116.8249,35.5593,济宁市,服务中心,颗粒物(PM10),66,82,80,47,38,31,,,,49,41,13,10,0.8,0.7
2024-11-07T0200,3678A,116.5907,35.4054,济宁市,市第七中学,细颗粒物(PM2.5),67,68,58,48,37,56,,,,37,36,7,6,0.8,0.8
2024-11-07T0200,2255A,130.2751,46.8028,佳木斯市,佳纺,,39,39,23,23,14,8,,,,36,26,4,6,0.6,0.6
2024-11-07T0200,2256A,130.3995,46.8307,佳木斯市,发电厂,,23,22,11,16,8,17,,,,19,13,4,4,0.4,0.4
2024-11-07T0200,2257A,130.3258,46.7975,佳木斯市,环保局,,31,31,24,20,15,6,,,,34,26,9,11,0.4,0.4
2024-11-07T0200,2258A,130.3648,46.8032,佳木斯市,十一中,,29,27,16,20,12,11,,,,31,25,5,7,0.4,0.5
2024-11-07T0200,2259A,130.3794,46.7588,佳木斯市,四丰,,,,,,,10,,,,,,1,1,0.2,0.2
2024-11-07T0200,1252A,120.7436,30.778,嘉兴市,清河小学,,27,27,25,10,7,43,,,,34,28,8,8,0.3,0.1
2024-11-07T0200,1253A,120.726,30.7478,嘉兴市,嘉兴学院,,25,25,24,10,10,39,,,,35,23,5,5,0.5,0.5
2024-11-07T0200,2872A,120.7846,30.7525,嘉兴市,南湖区残联,,28,28,30,10,10,51,,,,32,29,6,6,0.3,0.2
2024-11-07T0200,3407A,120.6916,30.7739,嘉兴市,秀洲住建,,27,27,26,12,12,46,,,,32,24,8,8,0.3,0.3
2024-11-07T0200,1945A,98.2908,39.7711,嘉峪关市,气象局,,29,29,87,9,22,70,,,,13,35,4,20,0.2,0.5
2024-11-07T0200,2884A,98.2672,39.7978,嘉峪关市,酒钢宾馆,,41,41,83,12,28,67,,,,13,36,11,33,0.3,0.6
2024-11-07T0200,3248A,98.2643,39.7724,嘉峪关市,雄关区,,43,43,63,17,23,62,,,,26,42,10,14,0.1,0.4
2024-11-07T0200,1383A,113.1064,22.6058,江门市,北街,,40,40,58,28,38,72,,,,29,28,7,7,0.7,0.7
2024-11-07T0200,1384A,113.0731,22.5835,江门市,西区,颗粒物(PM10),53,56,66,32,34,71,,,,29,27,8,8,0.4,0.6
2024-11-07T0200,1385A,113.0219,22.5311,江门市,圭峰西,,46,46,54,30,38,75,,,,30,26,4,5,0.4,0.5
2024-11-07T0200,1386A,113.0828,22.5947,江门市,东湖,,44,44,60,21,35,66,,,,28,24,7,7,0.6,0.6
2024-11-07T0200,3311A,113.1075,22.5647,江门市,江海富民,颗粒物(PM10),59,67,61,31,32,68,,,,32,29,7,7,0.6,0.7
2024-11-07T0200,3449A,113.05,22.4667,江门市,新会银湖,,47,47,55,32,41,61,,,,37,31,7,7,0.5,0.6
2024-11-07T0200,1828A,113.227,35.2125,焦作市,市环保局,细颗粒物(PM2.5),98,106,101,73,62,86,,,,23,35,5,6,0.3,0.4
2024-11-07T0200,1830A,113.1992,35.2590,焦作市,影视城,细颗粒物(PM2.5),95,105,81,71,61,111,,,,12,18,8,10,0.8,0.8
2024-11-07T0200,3169A,113.2725,35.2067,焦作市,太极体育中心,细颗粒物(PM2.5),94,96,96,70,57,81,,,,22,37,5,7,0.6,0.6
2024-11-07T0200,3335A,113.3137,35.2641,焦作市,马村街道办,细颗粒物(PM2.5),105,107,97,79,64,93,,,,17,29,5,8,0.3,0.6
2024-11-07T0200,3336A,113.2465,35.2373,焦作市,焦作技师学院,细颗粒物(PM2.5),85,93,92,63,52,84,,,,18,28,5,6,0.5,0.6
2024-11-07T0200,3477A,113.1656,35.2539,焦作市,中站许衡医院,细颗粒物(PM2.5),83,92,90,61,54,97,,,,16,25,8,9,0.4,0.4
2024-11-07T0200,3981A,113.2449,35.1803,焦作市,原李万街道办,细颗粒物(PM2.5),84,95,109,62,54,82,,,,24,37,4,6,0.5,0.5
2024-11-07T0200,1708A,116.3701,23.5345,揭阳市,新兴,,41,41,48,20,28,74,,,,25,20,19,10,0.5,0.7
2024-11-07T0200,1709A,116.3264,23.5443,揭阳市,西马,,45,45,53,20,26,81,,,,16,14,15,11,0.5,0.7
2024-11-07T0200,1710A,116.3611,23.5626,揭阳市,东兴,,36,36,53,19,26,73,,,,22,17,16,13,0.6,0.8
2024-11-07T0200,1711A,116.4151,23.5294,揭阳市,渔湖,,38,38,49,16,24,69,,,,28,19,9,10,0.4,0.6
2024-11-07T0200,3320A,116.403,23.5699,揭阳市,曲溪,,46,46,54,22,29,64,,,,34,20,39,15,0.6,0.7
2024-11-07T0200,1944A,102.1692,38.5167,金昌市,天庆家园,颗粒物(PM10),72,94,125,49,68,38,,,,36,46,17,44,0.7,1
2024-11-07T0200,3170A,102.1864,38.5253,金昌市,市委党校,细颗粒物(PM2.5),94,122,148,70,77,43,,,,40,44,16,37,1.1,1
2024-11-07T0200,4022A,102.1647,38.5371,金昌市,金川区人防中心,颗粒物(PM10),65,80,150,43,88,55,,,,12,36,14,36,0.7,1
2024-11-07T0200,1262A,119.647,29.077,金华市,十五中,颗粒物(PM10),51,52,57,24,26,20,,,,62,42,4,4,0.4,0.5
2024-11-07T0200,1263A,119.686,29.1029,金华市,监测站,颗粒物(PM10),58,66,60,31,28,25,,,,58,42,5,5,0.3,0.5
2024-11-07T0200,3659A,119.656,29.1131,金华市,气象局,,43,43,52,23,23,30,,,,57,48,5,5,0.7,0.8
2024-11-07T0200,1767A,121.1115,41.0879,锦州市,南山,,50,45,42,35,28,9,,,,65,39,86,25,0.7,0.8
2024-11-07T0200,1768A,121.0533,40.8434,锦州市,开发区,颗粒物(PM10),54,57,41,29,26,7,,,,59,27,9,18,0.9,0.7
2024-11-07T0200,1769A,121.1836,41.1119,锦州市,百股街道,,,47,45,39,27,9,,,,68,40,,46,1.1,0.9
2024-11-07T0200,1770A,121.1178,41.1222,锦州市,天安街道,二氧化硫,64,56,44,36,27,8,,,,63,39,245,45,1.0,0.9
2024-11-07T0200,1771A,121.1303,41.1386,锦州市,北湖公园,细颗粒物(PM2.5),58,54,44,41,29,5,,,,66,36,58,23,0.8,0.7
2024-11-07T0200,2160A,112.85,35.5051,晋城市,自来水公司,细颗粒物(PM2.5),100,105,82,75,51,38,,,,40,42,5,8,0.9,1
2024-11-07T0200,2161A,112.8318,35.4936,晋城市,白云商贸,细颗粒物(PM2.5),100,136,96,75,52,41,,,,49,42,4,7,0.7,0.7
2024-11-07T0200,2162A,112.8508,35.4887,晋城市,市环保局,细颗粒物(PM2.5),100,116,92,75,53,46,,,,36,43,5,8,0.8,0.9
2024-11-07T0200,2163A,112.8676,35.4897,晋城市,技术学院,细颗粒物(PM2.5),92,127,83,68,44,48,,,,46,44,6,7,0.8,0.9
2024-11-07T0200,2165A,112.8453,35.546,晋城市,白马寺,颗粒物(PM10),83,115,82,59,48,103,,,,22,25,13,14,0.7,0.7
2024-11-07T0200,3620A,112.8271,35.4828,晋城市,泽州一中,细颗粒物(PM2.5),100,99,83,75,54,49,,,,35,41,5,8,0.9,0.9
2024-11-07T0200,2171A,112.7532,37.6945,晋中市,锦纶小区,颗粒物(PM10),65,80,78,41,39,8,,,,62,49,8,10,0.7,0.6
2024-11-07T0200,2173A,112.7249,37.7067,晋中市,南都小区,颗粒物(PM10),67,84,80,45,37,5,,,,69,55,7,10,0.7,0.6
2024-11-07T0200,2174A,112.6991,37.6982,晋中市,榆次区政府,颗粒物(PM10),63,75,80,37,35,8,,,,65,51,7,9,0.8,0.7
2024-11-07T0200,2865A,112.7195,37.6828,晋中市,榆次三中,颗粒物(PM10),67,83,91,44,39,5,,,,58,47,9,11,0.9,0.8
2024-11-07T0200,2439A,112.2014,31.0481,荆门市,竹园小学,细颗粒物(PM2.5),79,85,96,58,58,62,,,,21,36,10,13,0.7,0.8
2024-11-07T0200,2440A,112.1969,30.9891,荆门市,掇刀,细颗粒物(PM2.5),125,127,93,95,64,44,,,,61,44,12,10,0.9,0.7
2024-11-07T0200,2441A,112.2213,31.0386,荆门市,石化一小,细颗粒物(PM2.5),105,131,109,79,60,29,,,,66,45,12,13,0.8,0.6
2024-11-07T0200,3012A,112.1849,31.0362,荆门市,西山林语,细颗粒物(PM2.5),78,90,87,57,54,101,,,,18,27,7,9,0.5,0.5
2024-11-07T0200,3547A,112.1632,31.0138,荆门市,龙泉中学南校,细颗粒物(PM2.5),98,127,108,73,64,130,,,,21,34,13,12,0.6,0.7
2024-11-07T0200,1844A,112.2494,30.3197,荆州市,市图书馆,细颗粒物(PM2.5),85,99,82,63,65,18,,,,88,45,5,8,1.1,0.9
2024-11-07T0200,1845A,112.2008,30.3544,荆州市,市委党校,细颗粒物(PM2.5),87,88,83,64,66,4,,,,96,52,6,9,1.0,0.8
2024-11-07T0200,3194A,112.2747,30.3122,荆州市,管委会,细颗粒物(PM2.5),87,82,82,64,65,4,,,,118,49,10,12,0.9,0.8
2024-11-07T0200,3548A,112.1655,30.3364,荆州市,学苑路,细颗粒物(PM2.5),97,111,108,72,64,43,,,,62,36,6,11,1.0,0.8
2024-11-07T0200,2342A,117.3102,29.3867,景德镇市,王港中学,,,,,,,,,,,,,,,,
2024-11-07T0200,2343A,117.2117,29.2933,景德镇市,老干部活动中心,,36,36,37,13,19,71,,,,18,14,6,7,0.2,0.2
2024-11-07T0200,2344A,117.1894,29.2789,景德镇市,兽医站,,32,32,43,13,17,72,,,,16,10,7,7,0.1,0.2
2024-11-07T0200,2345A,117.1547,29.2617,景德镇市,台达陶瓷,,28,28,35,12,17,72,,,,10,12,5,6,0.4,0.4
2024-11-07T0200,2346A,117.2461,29.2956,景德镇市,陶研所,,28,28,35,11,19,15,,,,25,13,6,6,0.3,0.3
2024-11-07T0200,1803A,115.9872,29.6815,九江市,十里,,48,48,56,33,30,70,,,,25,24,8,9,0.6,0.6
2024-11-07T0200,1804A,115.9584,29.7046,九江市,茅山头,,40,40,50,24,25,76,,,,19,20,11,10,0.6,0.6
2024-11-07T0200,1805A,115.9877,29.7295,九江市,西园,,39,39,50,23,24,80,,,,20,20,9,10,0.5,0.5
2024-11-07T0200,1806A,116.0172,29.6547,九江市,五七二七厂,,45,45,52,27,27,76,,,,20,19,12,11,0.6,0.7
2024-11-07T0200,1808A,115.9114,29.6038,九江市,综合工业园,,44,44,52,30,34,88,,,,19,25,18,21,0.5,0.5
2024-11-07T0200,1809A,116.0721,29.7535,九江市,石化总厂,,49,49,54,28,29,72,,,,26,25,10,10,0.7,0.7
2024-11-07T0200,1810A,115.9773,29.5698,九江市,庐山气象台,,38,22,39,12,25,120,,,,2,7,7,9,0.5,1.1
2024-11-07T0200,3190A,116.0254,29.6994,九江市,外国语学校,颗粒物(PM10),52,53,47,29,28,70,,,,20,20,10,10,0.4,0.5
2024-11-07T0200,2658A,98.5061,39.7443,酒泉市,仓门街子站,,39,39,84,25,32,45,,,,18,30,19,24,0.4,0.6
2024-11-07T0200,2659A,98.4989,39.7256,酒泉市,油田生活基地,,36,36,92,22,34,51,,,,14,32,13,20,0.4,0.5
2024-11-07T0200,2698A,76.0072,39.4467,喀什地区,巡警大队,颗粒物(PM10),195,339,200,124,55,0,,,,98,60,15,9,3.9,1.7
2024-11-07T0200,2699A,75.9755,39.4694,喀什地区,吾办,颗粒物(PM10),194,337,198,145,75,0,,,,91,59,4,4,3.0,1.8
2024-11-07T0200,4027A,75.9483,39.4689,喀什地区,老干局,颗粒物(PM10),229,370,228,91,54,4,,,,93,54,5,4,3.5,1.8
2024-11-07T0200,1824A,114.3389,34.7781,开封市,肿瘤医院,细颗粒物(PM2.5),103,101,95,77,72,49,,,,36,53,7,9,0.5,0.6
2024-11-07T0200,1826A,114.2885,34.7965,开封市,世纪星幼儿园,细颗粒物(PM2.5),89,96,80,66,68,62,,,,29,40,3,5,0.4,0.4
2024-11-07T0200,3147A,114.3438,34.8106,开封市,龙亭公园,细颗粒物(PM2.5),95,97,90,71,73,55,,,,31,41,4,6,0.6,0.7
2024-11-07T0200,3210A,114.3644,34.7964,开封市,汴京公园,细颗粒物(PM2.5),93,100,94,69,69,53,,,,33,39,6,6,0.4,0.5
2024-11-07T0200,3473A,114.2485,34.8306,开封市,技师学院,细颗粒物(PM2.5),75,80,80,55,58,76,,,,22,34,5,7,0.4,0.4
2024-11-07T0200,3592A,114.4644,34.7556,开封市,祥符区生态环境局,细颗粒物(PM2.5),103,107,113,77,74,44,,,,37,49,5,6,0.5,0.6
2024-11-07T0200,1951A,84.895,45.6094,克拉玛依市,长征新村,颗粒物(PM10),58,66,59,21,19,40,,,,18,32,7,7,0.4,0.6
2024-11-07T0200,1952A,84.8988,45.5893,克拉玛依市,南林小区,细颗粒物(PM2.5),57,62,59,40,29,27,,,,25,38,2,3,0.7,1
2024-11-07T0200,1954A,84.905,44.3396,克拉玛依市,独山子区,细颗粒物(PM2.5),99,102,70,74,40,52,,,,17,22,10,13,0.7,0.6
2024-11-07T0200,1955A,85.6979,46.098,克拉玛依市,乌尔禾区商贸楼,,42,42,53,22,19,53,,,,13,26,4,5,0.5,0.6
2024-11-07T0200,3612A,85.1045,45.6899,克拉玛依市,白碱滩区新站,,45,45,58,20,18,61,,,,13,31,9,9,0.3,0.4
2024-11-07T0200,2697A,76.1454,39.7142,克孜勒苏柯尔克孜自治州,市人民政府,颗粒物(PM10),107,163,142,70,52,56,,,,32,25,7,19,1.1,0.7
2024-11-07T0200,3665A,76.1658,39.7157,克孜勒苏柯尔克孜自治州,克州文化中心,颗粒物(PM10),100,149,141,52,46,42,,,,55,37,10,19,0.9,0.8
2024-11-07T0200,1450A,102.8204,24.8886,昆明市,呈贡新区,,38,,36,26,32,69,,,,5,9,1,3,0.5,0.6
2024-11-07T0200,1451A,102.6251,24.9608,昆明市,西山森林公园,,,,,,,,,,,,,,,,
2024-11-07T0200,1452A,102.7252,25.0902,昆明市,龙泉镇,,42,33,45,29,31,39,,,,15,19,6,7,0.7,0.7
2024-11-07T0200,1453A,102.7266,25.0375,昆明市,东风东路,,48,46,51,33,35,49,,,,15,22,7,7,0.7,0.7
2024-11-07T0200,1454A,102.6742,25.0669,昆明市,金鼎山,,45,44,48,31,32,59,,,,14,24,3,3,0.6,0.7
2024-11-07T0200,1455A,102.6644,25.0401,昆明市,碧鸡广场,,45,44,48,31,35,55,,,,16,24,4,4,0.5,0.6
2024-11-07T0200,3179A,102.7494,25.0119,昆明市,官渡区博物馆,,48,44,47,33,36,37,,,,26,27,6,7,0.6,0.6
2024-11-07T0200,3375A,102.8017,24.8336,昆明市,青年创业园,,39,33,40,27,32,62,,,,13,18,4,4,0.5,0.5
2024-11-07T0200,3550A,102.7997,24.9786,昆明市,昆明学院,细颗粒物(PM2.5),62,50,52,44,40,60,,,,15,24,6,6,0.6,0.5
2024-11-07T0200,3551A,102.5967,24.6736,昆明市,晋宁区生态环境分局,,42,,49,29,38,73,,,,9,18,1,2,0.8,0.8
2024-11-07T0200,3552A,102.6678,24.9856,昆明市,云天化总部,细颗粒物(PM2.5),54,44,47,38,37,62,,,,14,18,4,5,0.5,0.6
2024-11-07T0200,1456A,91.1319,29.6514,拉萨市,八廓街,,21,,14,9,10,66,,,,18,20,6,6,0.2,0.3
2024-11-07T0200,1457A,91.1221,29.6747,拉萨市,市环保局,,28,28,34,16,17,42,,,,27,24,7,7,0.4,0.3
2024-11-07T0200,1458A,91.0874,29.6475,拉萨市,区监测站,,29,29,14,8,9,46,,,,34,26,5,5,0.5,0.5
2024-11-07T0200,1459A,91.1774,29.6541,拉萨市,西藏大学,,20,20,16,6,10,60,,,,15,14,4,3,0.5,0.6
2024-11-07T0200,1460A,90.9798,29.6588,拉萨市,区辐射站,,23,23,14,13,8,51,,,,30,18,8,8,0.4,0.3
2024-11-07T0200,1461A,91.0834,29.6292,拉萨市,拉萨火车站,,22,15,9,10,7,31,,,,43,17,6,5,0.7,0.4
2024-11-07T0200,2520A,109.2203,23.7256,来宾市,来宾技工学校,"颗粒物(PM10),细颗粒物(PM2.5)",58,65,74,41,51,95,,,,19,19,10,8,0.8,0.9
2024-11-07T0200,3535A,109.1781,23.7297,来宾市,兴宾区政府,细颗粒物(PM2.5),78,74,75,57,52,75,,,,14,13,6,7,0.9,1
2024-11-07T0200,4002A,109.2416,23.7461,来宾市,中南小学,颗粒物(PM10),61,71,72,39,50,87,,,,17,17,8,4,0.7,0.9
2024-11-07T0200,1476A,103.631,36.1031,兰州市,兰炼宾馆,颗粒物(PM10),74,98,109,51,60,8,,,,70,69,11,17,0.9,1
2024-11-07T0200,1477A,104.1373,35.9454,兰州市,榆中兰大校区,,,,,,,,,,,,,,,,
2024-11-07T0200,1478A,103.8412,36.0726,兰州市,生物制品所,颗粒物(PM10),69,88,82,48,47,3,,,,71,60,10,15,0.8,1
2024-11-07T0200,1479A,103.831,36.0464,兰州市,铁路设计院,细颗粒物(PM2.5),74,81,88,54,58,3,,,,76,72,8,15,1.1,1.4
2024-11-07T0200,3186A,103.7158,36.1058,兰州市,教育港,细颗粒物(PM2.5),70,79,106,51,54,2,,,,60,64,9,14,0.8,1.2
2024-11-07T0200,3241A,103.7439,36.0842,兰州市,百合公园,细颗粒物(PM2.5),68,63,83,49,40,9,,,,52,58,6,14,0.9,1.1
2024-11-07T0200,3242A,103.9611,35.998,兰州市,和平,细颗粒物(PM2.5),60,58,73,43,45,30,,,,38,39,10,13,0.5,0.5
2024-11-07T0200,3245A,103.6633,36.533,兰州新区,新区管委会,细颗粒物(PM2.5),85,70,82,63,48,20,,,,42,36,12,16,0.6,0.7
2024-11-07T0200,3246A,103.6975,36.4789,兰州新区,舟曲中学,细颗粒物(PM2.5),89,114,94,66,50,5,,,,65,42,11,18,0.9,0.7
2024-11-07T0200,1067A,116.6708,39.5111,廊坊市,药材公司,细颗粒物(PM2.5),140,160,93,107,58,4,,,,89,66,16,6,0.9,0.8
2024-11-07T0200,1068A,116.7214,39.5589,廊坊市,开发区,细颗粒物(PM2.5),137,162,90,104,53,0,,,,85,66,5,5,0.8,0.7
2024-11-07T0200,1070A,116.7244,39.5269,廊坊市,北华航天学院,细颗粒物(PM2.5),125,164,95,95,52,3,,,,60,58,6,6,0.8,0.8
2024-11-07T0200,2919A,116.7022,39.5453,廊坊市,河北工业大学,细颗粒物(PM2.5),134,167,100,102,56,3,,,,83,65,13,7,0.8,0.8
2024-11-07T0200,2535A,103.7723,29.5462,乐山市,花湖湾,细颗粒物(PM2.5),60,54,56,43,44,15,,,,15,15,4,4,0.7,0.7
2024-11-07T0200,2536A,103.7627,29.5844,乐山市,牛耳桥,细颗粒物(PM2.5),73,61,59,53,52,9,,,,29,27,4,5,0.6,0.6
2024-11-07T0200,2537A,103.7508,29.6006,乐山市,市第三水厂,细颗粒物(PM2.5),72,56,57,52,48,15,,,,34,26,4,5,0.8,0.7
2024-11-07T0200,2538A,103.7571,29.5664,乐山市,市监测站,细颗粒物(PM2.5),57,51,53,40,44,30,,,,17,18,4,5,0.8,0.8
2024-11-07T0200,3361A,103.7311,29.5628,乐山市,理工大学,细颗粒物(PM2.5),59,49,53,42,46,35,,,,15,18,4,5,0.7,0.7
2024-11-07T0200,2598A,100.2143,26.8576,丽江市,西南郊,,19,,18,12,14,60,,,,8,11,6,6,1.0,1.1
2024-11-07T0200,2599A,100.2497,26.8802,丽江市,丽江古城,,16,15,24,11,17,40,,,,10,11,11,10,0.6,0.6
2024-11-07T0200,2600A,100.2203,26.8906,丽江市,市中心,,20,10,16,9,16,61,,,,6,10,6,8,0.6,0.7
2024-11-07T0200,1267A,119.914,28.4514,丽水市,监测站大楼,,23,23,37,3,12,41,,,,35,23,7,3,0.1,0.2
2024-11-07T0200,1268A,119.93,28.4586,丽水市,莲都小学,,33,33,38,19,20,22,,,,49,26,5,5,0.4,0.3
2024-11-07T0200,1269A,119.879,28.4231,丽水市,余庄前,,18,17,30,12,20,25,,,,11,14,5,5,0.2,0.3
2024-11-07T0200,1173A,119.176,34.5885,连云港市,市环境监测站,,,,49,,23,65,,,,23,34,7,9,0.2,0.3
2024-11-07T0200,3000A,119.3581,34.6972,连云港市,德源药业,,27,27,43,14,19,59,,,,26,36,6,6,0.2,0.2
2024-11-07T0200,3007A,119.178,34.844,连云港市,新城一中,,43,43,58,25,32,22,,,,65,60,8,15,0.8,1.2
2024-11-07T0200,3008A,119.3608,34.7519,连云港市,胡沟管理处,,31,31,34,17,16,77,,,,18,23,11,10,0.3,0.3
2024-11-07T0200,3009A,119.1478,34.5911,连云港市,矿山设计院,,46,46,52,29,28,57,,,,25,36,6,8,0.7,0.7
2024-11-07T0200,3434A,119.2413,34.6539,连云港市,工贸学校,,31,22,38,12,21,99,,,,10,22,8,8,0.4,0.5
2024-11-07T0200,3664A,119.4172,34.7341,连云港市,连云街道,,31,30,31,16,17,98,,,,10,20,10,7,0.6,0.5
2024-11-07T0200,2571A,102.3431,27.8099,凉山彝族自治州,青龙寺,,22,22,23,11,11,27,,,,5,8,9,9,0.7,0.9
2024-11-07T0200,2572A,102.2721,27.8415,凉山彝族自治州,邛海宾馆,,38,33,41,26,29,34,,,,9,16,7,12,0.7,1.2
2024-11-07T0200,2573A,102.2625,27.898,凉山彝族自治州,西昌市政府,,35,27,30,24,24,30,,,,10,15,6,9,0.8,1.1
2024-11-07T0200,2574A,102.2685,27.8851,凉山彝族自治州,凉山州政府,,28,27,38,19,26,26,,,,14,16,7,12,0.9,1
2024-11-07T0200,2575A,102.237,27.8914,凉山彝族自治州,长安,,33,33,39,22,22,20,,,,21,20,8,13,0.7,0.8
2024-11-07T0200,2212A,123.2,41.1953,辽阳市,宏伟区,,32,,38,22,25,39,,,,9,28,7,15,0.4,0.5
2024-11-07T0200,2213A,123.1683,41.2495,辽阳市,新华园,颗粒物(PM10),52,53,51,26,27,13,,,,38,40,11,21,0.7,0.7
2024-11-07T0200,2214A,123.2354,41.2639,辽阳市,滨河路,,45,45,51,25,28,23,,,,32,35,12,17,0.6,0.5
2024-11-07T0200,2215A,123.149,41.2991,辽阳市,铁西工业园,颗粒物(PM10),54,58,60,33,45,6,,,,33,34,12,15,0.7,0.8
2024-11-07T0200,2227A,125.1358,42.8845,辽源市,环保局,颗粒物(PM10),54,57,35,28,17,6,,,,26,21,8,8,0.9,0.8
2024-11-07T0200,3239A,125.0764,42.9078,辽源市,银鹰制药,,46,46,29,26,19,4,,,,33,29,7,14,1.0,0.6
2024-11-07T0200,1625A,115.9848,36.4372,聊城市,区政府,细颗粒物(PM2.5),72,80,72,52,39,66,,,,31,38,12,12,0.7,0.8
2024-11-07T0200,2878A,116.0072,36.4343,聊城市,聊大东校,细颗粒物(PM2.5),78,90,76,57,42,67,,,,30,37,10,11,0.6,0.6
2024-11-07T0200,3200A,115.9819,36.4978,聊城市,监控中心,细颗粒物(PM2.5),79,95,68,58,42,76,,,,33,49,12,12,0.5,0.6
2024-11-07T0200,3513A,116.0445,36.4361,聊城市,九州社区,"颗粒物(PM10),细颗粒物(PM2.5)",62,73,63,44,28,50,,,,37,42,9,9,0.7,0.6
2024-11-07T0200,4018A,116.0567,36.4608,聊城市,星美广场,颗粒物(PM10),67,83,74,46,33,63,,,,31,36,9,11,0.6,0.5
2024-11-07T0200,2632A,94.3681,29.6376,林芝市,林芝监测站,,19,,11,13,8,51,,,,4,6,7,6,0.2,0.3
2024-11-07T0200,2633A,94.3616,29.6616,林芝市,林芝人民医院,,15,6,13,3,7,48,,,,3,5,6,6,0.4,0.4
2024-11-07T0200,2603A,100.0781,23.8982,临沧市,市环保局,,14,12,27,9,19,42,,,,7,12,7,8,0.5,0.6
2024-11-07T0200,2604A,100.0894,23.8822,临沧市,市气象局,,22,18,30,15,25,44,,,,8,13,8,9,0.5,0.6
2024-11-07T0200,1733A,111.5531,36.0783,临汾市,临钢医院,颗粒物(PM10),66,82,98,47,49,10,,,,48,52,7,10,0.6,1
2024-11-07T0200,1734A,111.5028,36.0714,临汾市,技工学校,细颗粒物(PM2.5),78,85,94,57,51,22,,,,57,57,6,11,0.7,1
2024-11-07T0200,1736A,111.5018,36.0855,临汾市,市委,细颗粒物(PM2.5),75,94,97,55,48,27,,,,49,51,7,11,0.6,1
2024-11-07T0200,3018A,111.505,36.1014,临汾市,唐尧大酒店,细颗粒物(PM2.5),75,96,87,55,47,28,,,,51,50,5,9,0.7,1
2024-11-07T0200,3668A,111.5036,36.0414,临汾市,城南,细颗粒物(PM2.5),82,96,92,60,54,3,,,,63,50,5,9,0.8,1
2024-11-07T0200,2667A,103.2069,35.5993,临夏回族自治州,环保局,颗粒物(PM10),69,87,74,20,20,3,,,,47,41,7,8,1.5,1.2
2024-11-07T0200,2668A,103.2417,35.6057,临夏回族自治州,建设大厦,颗粒物(PM10),55,60,54,26,26,18,,,,23,27,4,6,0.9,0.7
2024-11-07T0200,1618A,118.3429,35.0532,临沂市,沂河小区,,49,36,55,34,36,75,,,,18,35,10,10,0.4,0.6
2024-11-07T0200,1619A,118.295,35.0583,临沂市,鲁南制药厂,,45,41,51,31,30,56,,,,31,48,8,8,0.7,0.8
2024-11-07T0200,1620A,118.2794,34.9976,临沂市,新光毛纺厂,"颗粒物(PM10),细颗粒物(PM2.5)",57,63,58,40,35,42,,,,45,44,12,9,0.7,0.8
2024-11-07T0200,1621A,118.3956,35.0888,临沂市,河东保险公司,细颗粒物(PM2.5),67,70,60,48,35,25,,,,60,48,11,6,1.0,0.8
2024-11-07T0200,3370A,118.3564,35.0215,临沂市,十里堡居委,,35,34,46,24,27,65,,,,24,36,8,11,0.3,0.6
2024-11-07T0200,3496A,118.3604,35.1084,临沂市,南坊新区,,49,46,52,34,32,64,,,,36,45,9,7,0.6,0.7
2024-11-07T0200,3860A,118.3920,35.0300,临沂市,皇山花园小区,细颗粒物(PM2.5),57,56,63,40,33,38,,,,66,51,25,8,0.6,0.7
2024-11-07T0200,1870A,109.4856,24.3895,柳州市,柳东小学,,50,39,60,35,48,105,,,,9,10,10,10,0.4,0.6
2024-11-07T0200,1871A,109.4157,24.3277,柳州市,环保监测站,,47,47,67,28,46,106,,,,11,15,11,10,0.5,0.7
2024-11-07T0200,1872A,109.389,24.341,柳州市,河西水厂,细颗粒物(PM2.5),52,50,76,36,50,92,,,,14,15,9,10,0.9,1
2024-11-07T0200,1873A,109.4311,24.2921,柳州市,市四中,,50,43,63,35,45,116,,,,12,16,10,10,0.6,0.7
2024-11-07T0200,1874A,109.4006,24.3631,柳州市,市九中,细颗粒物(PM2.5),54,56,79,38,50,83,,,,19,21,7,7,0.7,0.8
2024-11-07T0200,1875A,109.4958,24.3134,柳州市,古亭山,,39,35,61,25,41,123,,,,15,18,12,12,0.9,1
2024-11-07T0200,3402A,109.5422,24.3996,柳州市,市二中,,40,38,61,28,45,105,,,,18,19,11,11,0.6,0.8
2024-11-07T0200,2307A,116.5079,31.737,六安市,监测大楼,,49,49,61,28,31,58,,,,26,31,5,7,0.6,0.6
2024-11-07T0200,2308A,116.4738,31.7643,六安市,皖西学院,颗粒物(PM10),58,65,71,32,35,60,,,,29,32,6,6,0.6,0.7
2024-11-07T0200,2309A,116.4996,31.7905,六安市,朝阳厂,,50,50,61,29,32,55,,,,29,35,2,4,0.5,0.6
2024-11-07T0200,2310A,116.5567,31.7886,六安市,开发区,颗粒物(PM10),69,88,80,39,38,32,,,,53,36,7,6,0.5,0.5
2024-11-07T0200,2576A,104.8,26.5892,六盘水市,窑上,,,,43,,34,,,55,,,9,,5,,0.6
2024-11-07T0200,2577A,104.83,26.5917,六盘水市,黄土坡,,38,27,38,26,31,86,,,,6,13,6,6,0.6,0.6
2024-11-07T0200,2578A,104.89,26.5939,六盘水市,水钢,细颗粒物(PM2.5),57,44,62,40,46,90,,,,7,11,3,4,0.4,0.5
2024-11-07T0200,2579A,104.8475,26.5894,六盘水市,民中,,39,34,39,27,30,88,,,,9,13,7,7,0.5,0.6
2024-11-07T0200,2580A,104.9544,26.5506,六盘水市,双水,,48,36,41,33,31,91,,,,6,10,6,6,0.3,0.4
2024-11-07T0200,2335A,117.0189,25.1181,龙岩市,龙岩师专,,,,,,,,,,,,,,,,
2024-11-07T0200,2336A,117.0217,25.1033,龙岩市,龙岩市监测站,,30,30,32,15,20,89,,,,13,12,15,7,0.4,0.4
2024-11-07T0200,2337A,117.0258,25.0661,龙岩市,闽西职业技术学院,,30,27,33,16,19,94,,,,7,7,7,3,0.4,0.5
2024-11-07T0200,2338A,117.0196,25.0306,龙岩市,龙岩学院,,29,26,31,11,19,91,,,,12,10,13,7,0.4,0.5
2024-11-07T0200,2665A,105.0822,33.3261,陇南市,汉王镇固水子,,,,,,,,,,,,,,,,
2024-11-07T0200,2885A,104.9339,33.3826,陇南市,滨江中学,,40,40,43,14,21,14,,,,26,18,6,7,0.8,0.7
2024-11-07T0200,3247A,104.955,33.371,陇南市,市总工会,,33,33,36,12,9,37,,,,10,9,4,5,0.8,0.8
2024-11-07T0200,2487A,111.9589,27.8901,娄底市,电视发射台,,42,42,52,27,45,87,,,,15,16,6,7,1.6,1.6
2024-11-07T0200,2488A,111.9975,27.725,娄底市,市监测站,细颗粒物(PM2.5),90,96,83,67,64,63,,,,42,29,11,10,2.1,1
2024-11-07T0200,2489A,112.0194,27.7314,娄底市,市委党校,细颗粒物(PM2.5),92,86,78,68,53,51,,,,34,26,4,5,1.0,0.8
2024-11-07T0200,2490A,111.9561,27.7569,娄底市,涟钢,细颗粒物(PM2.5),83,92,75,61,52,67,,,,17,20,6,9,0.9,1.1
2024-11-07T0200,2491A,111.9892,27.7044,娄底市,市政府,细颗粒物(PM2.5),87,85,73,64,52,40,,,,21,20,6,8,0.9,0.8
2024-11-07T0200,1893A,105.4324,28.9634,泸州市,九狮山,,35,30,65,24,40,10,,,,12,18,4,5,0.6,0.4
2024-11-07T0200,1894A,105.4427,28.9063,泸州市,小市上码头,,43,43,75,24,48,20,,,,18,29,5,5,0.5,0.7
2024-11-07T0200,1895A,105.4241,28.8573,泸州市,兰田宪桥,,42,35,54,29,47,24,,,,13,20,4,4,0.5,0.7
2024-11-07T0200,1896A,105.4379,28.8833,泸州市,市环监站,细颗粒物(PM2.5),57,50,78,40,58,28,,,,13,25,6,5,0.5,0.7
2024-11-07T0200,3490A,105.3617,28.7703,泸州市,纳溪区环保局,,35,33,45,24,38,8,,,,23,28,3,4,0.5,0.7
2024-11-07T0200,2183A,111.1406,37.5211,吕梁市,环保局,颗粒物(PM10),99,148,104,44,32,2,,,,54,45,3,4,0.6,0.6
2024-11-07T0200,2185A,111.1297,37.5136,吕梁市,自来水公司,颗粒物(PM10),135,220,102,53,32,2,,,,53,42,7,6,0.9,0.7
2024-11-07T0200,2867A,111.1283,37.51,吕梁市,马茂庄小学,颗粒物(PM10),101,152,105,52,32,3,,,,61,55,4,6,0.9,0.7
2024-11-07T0200,1812A,112.3931,34.6516,洛阳市,市委党校,细颗粒物(PM2.5),123,126,112,93,74,6,,,,70,61,2,6,0.7,0.7
2024-11-07T0200,1814A,112.4657,34.6871,洛阳市,豫西宾馆,细颗粒物(PM2.5),112,148,124,84,62,3,,,,71,50,4,7,0.6,0.5
2024-11-07T0200,1815A,112.494,34.6886,洛阳市,河南林校,细颗粒物(PM2.5),137,128,104,104,77,6,,,,60,42,4,7,0.3,0.2
2024-11-07T0200,1816A,112.3844,34.623,洛阳市,开发区管委会,细颗粒物(PM2.5),135,136,109,103,70,4,,,,63,45,7,11,0.5,0.5
2024-11-07T0200,1817A,112.4267,34.6258,洛阳市,市委新办公区,细颗粒物(PM2.5),127,154,119,96,73,2,,,,67,51,3,6,0.6,0.4
2024-11-07T0200,3340A,112.6005,34.6326,洛阳市,伊滨,细颗粒物(PM2.5),119,148,121,90,65,13,,,,54,48,4,7,0.4,0.4
2024-11-07T0200,3341A,112.4951,34.6332,洛阳市,中移产业园,细颗粒物(PM2.5),122,122,104,92,70,13,,,,72,54,5,7,0.7,0.5
2024-11-07T0200,3593A,112.5736,34.8993,洛阳市,吉利监测站,细颗粒物(PM2.5),120,98,96,91,71,24,,,,65,49,3,7,0.6,0.6
2024-11-07T0200,3635A,112.3677,34.662,洛阳市,河科大西苑校区,细颗粒物(PM2.5),115,126,118,87,74,4,,,,64,53,3,7,0.6,0.6
2024-11-07T0200,3636A,112.4388,34.6781,洛阳市,英才小学,细颗粒物(PM2.5),112,144,118,84,61,2,,,,68,52,4,7,0.7,0.6
2024-11-07T0200,2399A,114.051,33.5699,漯河市,三五一五工厂,细颗粒物(PM2.5),97,103,118,72,79,56,,,,36,38,9,10,0.5,0.6
2024-11-07T0200,2400A,114.0055,33.5698,漯河市,漯河大学,细颗粒物(PM2.5),92,102,118,68,72,70,,,,27,38,8,9,0.6,0.6
2024-11-07T0200,2401A,114.0138,33.5828,漯河市,市水利局,细颗粒物(PM2.5),85,100,114,63,71,66,,,,22,33,8,10,0.6,0.6
2024-11-07T0200,2402A,114.0261,33.5698,漯河市,市广电局,细颗粒物(PM2.5),98,98,110,73,76,61,,,,28,34,8,11,0.6,0.6
2024-11-07T0200,3478A,113.9749,33.5664,漯河市,市图书馆,细颗粒物(PM2.5),99,115,113,74,71,67,,,,24,28,7,8,0.5,0.6
2024-11-07T0200,3479A,114.0967,33.5906,漯河市,召陵区卫健委,细颗粒物(PM2.5),102,118,127,76,78,46,,,,37,40,10,12,0.6,0.6
2024-11-07T0200,1798A,118.5092,31.6837,马鞍山市,湖东路四小,,37,37,37,21,18,33,,,,29,28,3,4,0.7,0.6
2024-11-07T0200,1799A,118.5024,31.6449,马鞍山市,开发区,颗粒物(PM10),58,66,58,38,28,13,,,,57,44,7,7,0.8,0.7
2024-11-07T0200,1800A,118.5228,31.7231,马鞍山市,慈湖,,36,29,28,25,23,39,,,,35,30,7,8,0.7,0.6
2024-11-07T0200,1802A,118.6245,31.7241,马鞍山市,濮塘,,36,36,34,23,19,27,,,,19,15,8,8,0.8,0.7
2024-11-07T0200,3633A,118.4918,31.6809,马鞍山市,雨山,,43,43,38,18,18,38,,,,30,25,5,5,0.6,0.6
2024-11-07T0200,1686A,111.0286,21.4688,茂名市,电白南海,细颗粒物(PM2.5),58,61,61,41,34,84,,,,18,20,10,9,0.6,0.6
2024-11-07T0200,1687A,110.9294,21.6533,茂名市,茂石化七小,细颗粒物(PM2.5),55,53,54,39,39,107,,,,13,14,10,12,0.8,0.8
2024-11-07T0200,1688A,110.9107,21.6687,茂名市,健康路,细颗粒物(PM2.5),73,66,57,53,40,64,,,,22,16,48,20,1.0,0.7
2024-11-07T0200,1689A,110.8592,21.6828,茂名市,高岭,细颗粒物(PM2.5),77,92,70,56,44,23,,,,32,21,17,16,0.8,0.8
2024-11-07T0200,3450A,111.01,21.5165,茂名市,电白水东,细颗粒物(PM2.5),62,51,50,44,34,95,,,,14,14,13,13,0.7,0.8
2024-11-07T0200,2539A,104.0308,30.0478,眉山市,黑龙滩水库,细颗粒物(PM2.5),62,50,43,44,39,22,,,,7,5,3,3,0.5,0.5
2024-11-07T0200,2540A,103.8416,30.0874,眉山市,气象局,细颗粒物(PM2.5),64,70,53,46,45,21,,,,21,25,7,7,0.5,0.6
2024-11-07T0200,3137A,103.8578,30.0744,眉山市,市委党校,细颗粒物(PM2.5),55,46,58,39,37,50,,,,14,27,6,6,0.5,0.5
2024-11-07T0200,3148A,103.8291,30.0564,眉山市,区人社局,细颗粒物(PM2.5),52,47,54,36,40,58,,,,15,32,4,4,0.6,0.7
2024-11-07T0200,1690A,116.1231,24.3284,梅州市,梅江月梅,,37,37,43,22,32,46,,,,29,20,8,8,0.6,0.7
2024-11-07T0200,1691A,116.0797,24.2719,梅州市,梅县新城,,44,44,43,22,27,59,,,,25,14,7,6,0.5,0.6
2024-11-07T0200,1692A,116.1248,24.2654,梅州市,环境监控中心,颗粒物(PM10),52,54,43,24,26,54,,,,32,19,6,7,0.4,0.5
2024-11-07T0200,3315A,116.1233,24.2991,梅州市,梅龙,,36,34,40,25,30,67,,,,11,16,6,6,0.6,0.7
2024-11-07T0200,1878A,104.7778,31.4741,绵阳市,富乐山,细颗粒物(PM2.5),52,41,31,36,24,34,,,,10,16,2,2,0.6,0.6
2024-11-07T0200,1879A,104.7563,31.4535,绵阳市,市人大,细颗粒物(PM2.5),59,51,42,42,30,49,,,,12,25,3,3,0.5,0.5
2024-11-07T0200,1880A,104.6697,31.4668,绵阳市,高新区自来水公司,,45,41,42,31,21,29,,,,25,35,4,4,0.7,0.7
2024-11-07T0200,1881A,104.7287,31.5075,绵阳市,三水厂,细颗粒物(PM2.5),60,52,47,43,33,16,,,,31,32,5,6,0.6,0.6
2024-11-07T0200,3491A,104.69,31.5322,绵阳市,西科大附属小学,颗粒物(PM10),53,55,50,34,28,6,,,,34,32,5,5,0.7,0.7
2024-11-07T0200,3492A,104.5648,31.5343,绵阳市,安州区旅游局,,45,41,34,31,27,4,,,,35,22,5,7,0.6,0.7
2024-11-07T0200,1784A,129.61,44.561,牡丹江市,环保大楼,,42,42,40,25,30,10,,,,29,16,5,5,0.4,0.3
2024-11-07T0200,1785A,129.6115,44.5782,牡丹江市,文化广场,细颗粒物(PM2.5),54,40,45,38,31,8,,,,31,20,8,8,0.5,0.4
2024-11-07T0200,1786A,129.5904,44.5963,牡丹江市,第一医院,细颗粒物(PM2.5),54,40,44,38,44,20,,,,24,14,5,5,0.5,0.4
2024-11-07T0200,1787A,129.6364,44.6075,牡丹江市,机车工厂,,49,49,48,32,34,12,,,,27,12,14,28,0.5,0.4
2024-11-07T0200,1788A,129.6386,44.5462,牡丹江市,第一中学,,36,31,38,25,31,19,,,,19,12,5,4,0.3,0.3
2024-11-07T0200,2531A,105.0703,29.61,内江市,市监测站,,49,,34,34,39,47,,,,8,16,9,8,0.6,0.6
2024-11-07T0200,2532A,105.0717,29.5947,内江市,东兴区政府,,33,31,33,23,31,52,,,,10,17,7,7,0.7,0.8
2024-11-07T0200,2533A,105.0653,29.5817,内江市,内江二中,细颗粒物(PM2.5),52,36,43,36,42,46,,,,13,23,6,7,0.5,0.6
2024-11-07T0200,2534A,105.0406,29.5822,内江市,内江日报社,,50,,42,35,40,30,,,,27,27,6,6,0.4,0.5
2024-11-07T0200,2628A,92.0657,31.4846,那曲市,那曲监测站,颗粒物(PM10),71,91,74,51,39,13,,,,38,29,7,10,1.9,1.2
2024-11-07T0200,3128A,92.0506,31.4797,那曲市,那曲会议中心,,,,60,,26,,,33,,,17,,5,,0.7
2024-11-07T0200,1290A,115.8931,28.6843,南昌市,省外办,细颗粒物(PM2.5),62,66,60,44,37,72,,,,33,26,15,14,0.7,0.7
2024-11-07T0200,1291A,115.8886,28.7003,南昌市,省林业公司,颗粒物(PM10),59,68,61,41,32,68,,,,34,25,11,10,0.6,0.7
2024-11-07T0200,1292A,115.8126,28.7442,南昌市,林科所,,46,46,52,24,26,95,,,,20,21,13,11,0.5,0.6
2024-11-07T0200,1294A,115.8518,28.687,南昌市,建工学校,细颗粒物(PM2.5),57,59,60,40,31,82,,,,25,21,12,12,0.5,0.5
2024-11-07T0200,1295A,115.8921,28.6424,南昌市,象湖,细颗粒物(PM2.5),57,56,52,40,32,85,,,,30,26,12,12,0.6,0.6
2024-11-07T0200,1296A,115.7423,28.7996,南昌市,武术学校,,40,,36,28,13,21,,,,12,13,1,2,0.6,0.6
2024-11-07T0200,1298A,115.9314,28.6842,南昌市,省站,细颗粒物(PM2.5),59,52,63,42,34,76,,,,25,19,14,11,0.7,0.7
2024-11-07T0200,3046A,115.9084,28.6062,南昌市,机电学校,颗粒物(PM10),61,72,67,41,31,81,,,,30,28,10,10,0.5,0.4
2024-11-07T0200,3690A,115.9721,28.7031,南昌市,外国语学校,颗粒物(PM10),61,72,62,39,31,77,,,,27,23,10,9,0.8,0.7
2024-11-07T0200,1905A,106.056,30.8064,南充市,西山风景区,细颗粒物(PM2.5),54,,26,38,31,10,,,,21,14,6,2,0.6,0.5
2024-11-07T0200,1906A,106.0789,30.8023,南充市,南充市委,细颗粒物(PM2.5),54,47,43,38,32,4,,,,18,24,3,3,0.4,0.5
2024-11-07T0200,1907A,106.1031,30.8217,南充市,南充炼油厂,细颗粒物(PM2.5),57,55,51,40,35,2,,,,27,26,5,3,0.6,0.6
2024-11-07T0200,1908A,106.1064,30.7856,南充市,高坪区监测站,细颗粒物(PM2.5),62,54,44,44,32,2,,,,32,26,6,3,0.5,0.4
2024-11-07T0200,1909A,106.0642,30.7636,南充市,嘉陵区环保局,细颗粒物(PM2.5),52,46,41,36,28,5,,,,26,28,3,3,0.5,0.6
2024-11-07T0200,1910A,106.1087,30.8388,南充市,市环境监测站,细颗粒物(PM2.5),54,50,46,38,35,5,,,,21,21,4,4,0.5,0.5
2024-11-07T0200,1151A,118.8086,32.1065,南京市,迈皋桥,,18,13,30,7,14,56,,,,23,37,4,4,0.4,0.2
2024-11-07T0200,1152A,118.7538,32.0551,南京市,草场门,,20,17,35,9,15,62,,,,27,43,4,5,0.3,0.3
2024-11-07T0200,1153A,118.7794,32.0745,南京市,山西路,,25,17,39,7,17,79,,,,1,26,4,4,0.5,0.5
2024-11-07T0200,1154A,118.7752,32.0023,南京市,中华门,,27,27,38,9,15,55,,,,27,38,4,4,0.4,0.5
2024-11-07T0200,1155A,118.8109,32.0309,南京市,瑞金路,,24,24,36,7,16,46,,,,20,28,3,4,0.2,0.3
2024-11-07T0200,1156A,118.7997,32.0754,南京市,玄武湖,,22,22,38,3,9,67,,,,25,52,6,6,0.6,0.5
2024-11-07T0200,1157A,118.6414,32.0931,南京市,浦口,,23,23,41,14,21,49,,,,26,32,5,8,0.7,0.7
2024-11-07T0200,1158A,118.7356,31.9996,南京市,奥体中心,,31,31,42,12,17,50,,,,31,37,6,8,0.2,0.3
2024-11-07T0200,1159A,118.9125,32.1028,南京市,仙林大学城,,22,22,35,7,13,59,,,,14,35,4,6,0.3,0.4
2024-11-07T0200,3422A,118.8436,31.9198,南京市,江宁彩虹桥,,40,40,38,17,14,31,,,,35,39,3,5,0.5,0.6
2024-11-07T0200,3423A,119.0138,31.6494,南京市,溧水永阳,,32,29,33,22,18,31,,,,33,30,4,4,0.4,0.4
2024-11-07T0200,3424A,118.879,31.3302,南京市,高淳老职中,,41,41,37,28,23,37,,,,34,24,4,6,0.4,0.4
2024-11-07T0200,3427A,118.8554,32.3578,南京市,六合雄州,,37,37,44,13,18,17,,,,22,31,6,23,0.4,0.7
2024-11-07T0200,1401A,108.3103,22.7881,南宁市,二十一中,细颗粒物(PM2.5),75,68,67,55,49,98,,,,40,26,6,7,1.3,1.2
2024-11-07T0200,1402A,108.3141,22.8528,南宁市,北湖,,,78,72,61,52,68,,,,58,33,8,12,,1.1
2024-11-07T0200,1403A,108.3206,22.8225,南宁市,市监测站,细颗粒物(PM2.5),75,70,71,55,51,110,,,,24,29,10,10,0.8,0.8
2024-11-07T0200,1404A,108.3829,22.8037,南宁市,大自然花园,细颗粒物(PM2.5),73,62,59,53,46,95,,,,19,17,18,9,0.8,0.7
2024-11-07T0200,1405A,108.4394,22.7904,南宁市,仙葫,细颗粒物(PM2.5),77,74,61,56,50,61,,,,52,17,11,7,0.9,0.7
2024-11-07T0200,1406A,108.2397,22.8467,南宁市,区农职院,细颗粒物(PM2.5),64,64,67,46,46,55,,,,22,21,7,11,0.9,0.9
2024-11-07T0200,1407A,108.3275,22.735,南宁市,英华嘉园,细颗粒物(PM2.5),83,66,67,61,49,55,,,,46,26,8,10,1.0,0.9
2024-11-07T0200,1408A,108.2257,22.7757,南宁市,沙井镇街道办,细颗粒物(PM2.5),79,83,78,58,52,23,,,,46,37,11,9,0.9,0.8
2024-11-07T0200,3401A,108.4834,22.7618,南宁市,红星社区,细颗粒物(PM2.5),84,70,64,62,53,83,,,,27,18,10,10,1.0,0.9
2024-11-07T0200,2331A,118.0966,26.6761,南平市,茫荡山,,,,30,,18,,,117,,,,,1,,0.3
2024-11-07T0200,2332A,118.1681,26.6369,南平市,南平市监测站,,22,20,27,10,19,68,,,,16,10,5,4,0.4,0.5
2024-11-07T0200,2333A,118.1825,26.6489,南平市,南平铝业有限公司,,24,24,33,3,18,52,,,,22,12,6,4,0.3,0.3
2024-11-07T0200,2334A,118.1756,26.6272,南平市,南平七中,,26,24,31,14,19,81,,,,11,12,4,5,0.4,0.5
2024-11-07T0200,1168A,120.9098,31.9663,南通市,狼山街道,,17,17,21,9,9,48,,,,13,11,7,7,0.4,0.4
2024-11-07T0200,1169A,120.86,32.0005,南通市,虹桥,,23,23,26,16,13,67,,,,20,20,6,6,0.3,0.3
2024-11-07T0200,1170A,120.87,32.02,南通市,城中,,,,29,,10,,,75,,,22,,7,,0.5
2024-11-07T0200,1171A,120.94,31.93,南通市,星湖花园,,23,22,21,16,11,51,,,,30,20,5,5,0.4,0.4
2024-11-07T0200,1172A,120.81,32.0417,南通市,紫琅学院,,42,42,30,19,13,30,,,,44,30,5,5,0.4,0.3
2024-11-07T0200,3291A,121.067,32.062,南通市,通州监测站,,31,31,26,14,12,72,,,,14,16,2,2,0.3,0.3
2024-11-07T0200,3432A,120.9348,31.9883,南通市,环境教育馆,,31,31,27,20,11,33,,,,34,19,4,4,0.4,0.4
2024-11-07T0200,2404A,112.5224,33.0122,南阳市,瓦房庄,细颗粒物(PM2.5),80,75,81,59,57,83,,,,21,25,6,6,0.8,0.8
2024-11-07T0200,2405A,112.5003,32.9735,南阳市,汉画馆,细颗粒物(PM2.5),65,77,84,47,44,82,,,,23,27,8,8,0.5,0.5
2024-11-07T0200,2406A,112.5573,33.027,南阳市,气象站,细颗粒物(PM2.5),73,88,85,53,48,84,,,,25,28,6,7,0.7,0.7
2024-11-07T0200,2407A,112.5481,32.9689,南阳市,理工学院,细颗粒物(PM2.5),80,75,80,59,55,73,,,,24,23,5,7,0.5,0.5
2024-11-07T0200,4008A,112.5234,32.9922,南阳市,卧龙区政府,细颗粒物(PM2.5),77,77,86,56,53,87,,,,19,28,5,6,0.5,0.6
2024-11-07T0200,1234A,121.8358,29.911,宁波市,区环保大楼,,20,20,22,6,9,61,,,,32,24,7,7,0.3,0.4
2024-11-07T0200,1235A,121.56,29.82,宁波市,万里学院,,35,35,29,20,12,33,,,,44,27,7,7,0.5,0.5
2024-11-07T0200,1236A,121.713,29.9572,宁波市,龙赛医院,,27,22,24,3,6,84,,,,12,18,8,8,0.4,0.4
2024-11-07T0200,1239A,121.633,29.7733,宁波市,钱湖水厂,颗粒物(PM10),53,55,36,25,16,28,,,,44,31,10,9,0.5,0.4
2024-11-07T0200,1240A,121.5856,29.8635,宁波市,太古小学,,39,39,29,12,7,44,,,,31,23,8,8,0.8,0.7
2024-11-07T0200,1241A,121.524,29.8674,宁波市,市环境监测中心,,17,17,26,8,9,54,,,,27,27,12,11,0.6,0.6
2024-11-07T0200,2871A,121.6147,29.9017,宁波市,万里国际学校,,33,33,23,13,11,28,,,,55,34,8,8,0.5,0.5
2024-11-07T0200,3710A,121.5594,29.8975,宁波市,白沙活动中心,,24,24,26,12,10,38,,,,36,27,10,9,0.6,0.5
2024-11-07T0200,2339A,119.5001,26.6946,宁德市,金涵水库,,,,,,,,,,,,,,,,
2024-11-07T0200,2341A,119.5388,26.6612,宁德市,宁德市监测站,,27,24,37,16,20,86,,,,10,16,3,4,0.4,0.4
2024-11-07T0200,3209A,119.5231,26.6562,宁德市,宁德一中,,28,23,38,15,19,87,,,,10,14,2,5,0.3,0.3
2024-11-07T0200,2618A,98.8601,25.8567,怒江傈僳族自治州,州监测站,,19,19,24,13,16,19,,,,8,13,6,6,0.4,0.5
2024-11-07T0200,2619A,98.8546,25.8417,怒江傈僳族自治州,泸水一中,,12,12,17,8,14,13,,,,10,16,7,7,0.5,0.5
2024-11-07T0200,1888A,101.6891,26.571,攀枝花市,弄弄坪,,38,31,46,26,32,54,,,,12,24,9,12,0.8,1
2024-11-07T0200,1889A,101.5769,26.5928,攀枝花市,河门口,,36,36,52,25,35,41,,,,17,24,6,14,0.9,1.6
2024-11-07T0200,1890A,101.7169,26.585,攀枝花市,炳草岗,,48,,45,33,31,48,,,,16,24,9,14,1.4,1.1
2024-11-07T0200,1891A,101.7369,26.5008,攀枝花市,仁和,,42,39,53,29,41,24,,,,14,24,6,12,1.1,1.5
2024-11-07T0200,2835A,101.7227,26.567,攀枝花市,四十中小,颗粒物(PM10),53,56,47,27,24,48,,,,10,13,26,15,1.8,1.2
2024-11-07T0200,1604A,122.0303,41.1489,盘锦市,开发区,细颗粒物(PM2.5),68,63,42,49,30,8,,,,55,29,23,11,1.1,0.6
2024-11-07T0200,1605A,122.0485,41.0883,盘锦市,兴隆台,细颗粒物(PM2.5),78,77,41,57,28,8,,,,56,35,32,13,1.5,0.7
2024-11-07T0200,1606A,121.8297,41.1028,盘锦市,新生街道,颗粒物(PM10),59,67,35,40,27,8,,,,60,36,24,13,1.3,0.6
2024-11-07T0200,1832A,113.3257,33.742,平顶山市,新华旅馆,细颗粒物(PM2.5),110,132,136,83,66,47,,,,48,47,9,10,0.5,0.5
2024-11-07T0200,1833A,113.2919,33.737,平顶山市,规划设计院,细颗粒物(PM2.5),100,130,140,75,76,53,,,,42,48,10,9,0.6,0.7
2024-11-07T0200,1834A,113.182,33.774,平顶山市,平顶山工学院,细颗粒物(PM2.5),85,107,117,63,67,69,,,,23,34,9,11,0.7,0.7
2024-11-07T0200,3204A,113.3025,33.73,平顶山市,规划局,细颗粒物(PM2.5),108,119,129,81,77,58,,,,42,45,10,10,0.6,0.7
2024-11-07T0200,3594A,112.8867,33.9116,平顶山市,石龙区,细颗粒物(PM2.5),145,177,174,111,75,7,,,,82,50,14,22,1.0,0.9
2024-11-07T0200,2656A,106.6692,35.5461,平凉市,聚贤嘉苑,细颗粒物(PM2.5),77,83,69,56,44,6,,,,57,48,10,12,0.7,0.6
2024-11-07T0200,2657A,106.7021,35.5307,平凉市,博物馆,,,,,,,,,,,,,,,,
2024-11-07T0200,2347A,114.0997,27.5002,萍乡市,武功山,,16,6,25,3,4,50,,,,5,7,7,8,0.2,0.2
2024-11-07T0200,2348A,113.8385,27.6434,萍乡市,中医院,,48,48,60,27,32,90,,,,13,14,17,37,0.5,0.6
2024-11-07T0200,2349A,113.8493,27.6253,萍乡市,市政府车库,颗粒物(PM10),53,56,59,34,36,66,,,,18,15,24,28,0.7,1
2024-11-07T0200,2350A,113.8676,27.6435,萍乡市,市环保局,颗粒物(PM10),52,54,59,34,36,86,,,,12,12,33,38,0.5,0.5
2024-11-07T0200,2351A,113.866,27.6198,萍乡市,安源区政府,颗粒物(PM10),56,62,59,28,30,55,,,,19,18,23,20,0.6,1.1
2024-11-07T0200,2319A,119.0141,25.4325,莆田市,荔城区仓后路,,32,20,35,6,12,102,,,,6,8,1,1,0.4,0.4
2024-11-07T0200,2320A,119.0015,25.4553,莆田市,莆田市监测站,,32,23,35,8,12,102,,,,4,6,2,2,0.2,0.2
2024-11-07T0200,2321A,119.1119,25.4561,莆田市,涵江区六中,,33,24,36,3,11,104,,,,5,7,2,2,0.3,0.3
2024-11-07T0200,2322A,119.1013,25.3215,莆田市,秀屿区政府,,30,20,45,3,12,96,,,,6,8,2,2,0.1,0.2
2024-11-07T0200,2323A,118.981,25.4792,莆田市,东圳水库,,,,,,,,,,,,,,,,
2024-11-07T0200,2392A,115.0312,35.7636,濮阳市,环保局,细颗粒物(PM2.5),83,61,65,61,53,66,,,,24,32,8,6,0.4,0.5
2024-11-07T0200,2394A,115.0574,35.7609,濮阳市,油田运输公司,细颗粒物(PM2.5),82,89,80,60,52,60,,,,33,36,6,7,0.4,0.5
2024-11-07T0200,2395A,115.0866,35.7754,濮阳市,油田物探公司,细颗粒物(PM2.5),112,109,89,84,56,49,,,,35,36,4,6,0.3,0.3
2024-11-07T0200,3021A,115,35.7668,濮阳市,濮水河管理处,细颗粒物(PM2.5),83,98,88,61,49,61,,,,27,34,10,6,0.4,0.5
2024-11-07T0200,2601A,100.98,22.7633,普洱市,市环保局,,35,31,30,24,26,62,,,,5,8,6,6,0.5,0.6
2024-11-07T0200,2602A,100.9817,22.8322,普洱市,普洱第二中学,,35,35,30,18,18,77,,,,4,10,7,7,0.6,0.6
2024-11-07T0200,2262A,131.0518,45.8751,七台河市,新一中,,13,12,13,9,9,27,,,,12,10,10,10,0.9,0.9
2024-11-07T0200,3345A,131.0577,45.7879,七台河市,中波台,,43,43,18,28,11,12,,,,41,20,12,9,0.8,0.8
2024-11-07T0200,3637A,131.0176,45.7761,七台河市,人民广场,,36,29,22,25,18,38,,,,14,21,6,7,0.7,0.7
2024-11-07T0200,3684A,130.8781,45.8222,七台河市,新建矿广场,,46,46,54,27,22,13,,,,26,25,6,8,0.6,0.5
2024-11-07T0200,1779A,123.9305,47.3636,齐齐哈尔市,安居小区,,25,25,51,16,36,37,,,,15,20,5,5,0.3,0.4
2024-11-07T0200,1780A,123.9488,47.3386,齐齐哈尔市,中心广场,,19,19,42,11,31,32,,,,11,16,3,4,0.3,0.4
2024-11-07T0200,1781A,123.9483,47.3227,齐齐哈尔市,农牧车辆厂,,24,24,44,3,33,31,,,,14,17,4,6,0.5,0.6
2024-11-07T0200,1783A,123.945,47.2988,齐齐哈尔市,市环境监测站,,21,21,41,12,31,34,,,,14,16,4,4,0.2,0.3
2024-11-07T0200,3662A,123.6333,47.2075,齐齐哈尔市,富区青少年活动中心,,25,23,49,17,31,44,,,,8,13,4,5,0.1,0.2
2024-11-07T0200,2591A,107.9783,26.5747,黔东南苗族侗族自治州,市环境监测站,细颗粒物(PM2.5),57,50,61,40,47,93,,,,15,20,5,6,0.4,0.5
2024-11-07T0200,2881A,107.8908,26.5311,黔东南苗族侗族自治州,凯里学院,,49,46,54,34,41,82,,,,16,18,5,6,0.6,0.7
2024-11-07T0200,2593A,107.5228,26.2403,黔南布依族苗族自治州,小围寨,细颗粒物(PM2.5),55,48,45,39,37,89,,,,13,11,6,5,0.4,0.4
2024-11-07T0200,3538A,107.5175,26.2978,黔南布依族苗族自治州,沙坝,细颗粒物(PM2.5),52,48,50,36,35,74,,,,14,13,4,4,0.6,0.6
2024-11-07T0200,2589A,104.9022,25.0925,黔西南布依族苗族自治州,场坝街,细颗粒物(PM2.5),63,63,54,45,41,22,,,,30,20,17,8,0.6,0.6
2024-11-07T0200,2590A,104.8811,25.0992,黔西南布依族苗族自治州,坪东大道,细颗粒物(PM2.5),60,50,49,43,44,18,,,,27,21,1,2,0.5,0.6
2024-11-07T0200,2502A,108.6236,21.9667,钦州市,市环保站,细颗粒物(PM2.5),79,95,85,58,52,86,,,,31,23,9,11,1.4,1.1
2024-11-07T0200,2503A,108.6549,21.9481,钦州市,沙埠小学,细颗粒物(PM2.5),85,104,85,63,54,66,,,,46,27,6,8,0.8,0.9
2024-11-07T0200,2504A,108.5989,21.7431,钦州市,港区一小,细颗粒物(PM2.5),92,122,97,68,56,66,,,,39,26,8,10,1.4,1
2024-11-07T0200,3404A,108.5959,21.9633,钦州市,北职校,细颗粒物(PM2.5),100,100,79,75,64,75,,,,30,21,11,11,1.9,1.4
2024-11-07T0200,1042A,119.5134,39.8207,秦皇岛市,北戴河环保局,,45,45,26,26,11,5,,,,54,22,4,4,0.7,0.5
2024-11-07T0200,1043A,119.7493,40.0116,秦皇岛市,第一关,,43,43,31,27,24,0,,,,52,38,3,3,0.5,0.3
2024-11-07T0200,1044A,119.5897,39.9499,秦皇岛市,监测站,颗粒物(PM10),54,57,38,22,12,0,,,,51,35,5,4,0.5,0.4
2024-11-07T0200,1046A,119.5251,39.9041,秦皇岛市,建设大厦,,47,47,44,32,23,1,,,,43,36,3,4,0.4,0.4
2024-11-07T0200,3132A,119.610547,39.943889,秦皇岛市,文明里,颗粒物(PM10),62,74,44,35,21,2,,,,51,37,2,3,0.5,0.3
2024-11-07T0200,1307A,120.6659,36.2403,青岛市,仰口,,49,41,50,34,33,88,,,,14,16,9,9,0.5,0.5
2024-11-07T0200,1310A,120.4134,36.0658,青岛市,市南区东部子站,颗粒物(PM10),63,75,76,34,32,17,,,,77,59,10,13,0.7,0.8
2024-11-07T0200,1311A,120.3664,36.1032,青岛市,四方区子站,颗粒物(PM10),62,73,80,41,45,7,,,,82,70,10,13,1.0,0.9
2024-11-07T0200,1312A,120.2994,36.054,青岛市,市南区西部子站,,46,46,56,24,26,26,,,,86,51,13,13,0.5,0.6
2024-11-07T0200,1313A,120.4581,36.0858,青岛市,崂山区子站,,46,46,56,22,26,42,,,,54,48,10,12,0.5,0.7
2024-11-07T0200,1314A,120.1983,35.9608,青岛市,黄岛区子站,,36,36,51,24,29,91,,,,13,35,9,11,0.6,0.7
2024-11-07T0200,1315A,120.3999,36.3083,青岛市,城阳区子站,颗粒物(PM10),52,53,71,32,34,44,,,,46,57,9,12,0.6,0.8
2024-11-07T0200,1966A,120.0405,35.8735,青岛市,黄岛区4号,,46,46,57,29,29,72,,,,39,41,10,12,0.4,0.5
2024-11-07T0200,3362A,120.5014,36.4034,青岛市,即墨2号,细颗粒物(PM2.5),62,62,87,44,50,58,,,,37,58,14,11,0.6,0.7
2024-11-07T0200,3642A,120.3503,36.0736,青岛市,市北区南部,二氧化氮,55,58,65,29,33,5,,,,110,56,12,13,0.8,0.7
2024-11-07T0200,3643A,120.3948,36.1805,青岛市,李沧区北部,颗粒物(PM10),54,58,74,36,41,56,,,,44,57,11,14,0.7,0.9
2024-11-07T0200,1702A,113.0426,23.691,清远市,环保大楼,,35,33,39,24,32,102,,,,16,15,11,7,0.8,0.8
2024-11-07T0200,1703A,113.0208,23.7106,清远市,凤城街办,,33,32,42,20,28,104,,,,11,11,12,11,0.8,0.8
2024-11-07T0200,3025A,113.0477,23.6344,清远市,技师学院,,34,34,46,20,29,86,,,,13,13,15,10,0.7,0.9
2024-11-07T0200,3318A,112.9903,23.7403,清远市,清新太和,,38,27,35,19,27,121,,,,5,7,6,5,0.6,0.8
2024-11-07T0200,3455A,113.076,23.7198,清远市,清城东城,,32,32,45,22,30,88,,,,12,7,13,8,0.8,0.8
2024-11-07T0200,2661A,107.6325,35.7357,庆阳市,庆阳五中,细颗粒物(PM2.5),69,62,80,50,61,78,,,,23,28,17,17,0.5,0.5
2024-11-07T0200,2662A,107.6364,35.7067,庆阳市,市环保局,细颗粒物(PM2.5),62,61,75,44,52,90,,,,13,19,7,13,0.5,0.5
2024-11-07T0200,1916A,103.7897,25.5035,曲靖市,环境监测站,,40,39,46,28,29,53,,,,21,23,4,3,0.7,0.7
2024-11-07T0200,1917A,103.8,25.5364,曲靖市,烟厂办公区,,46,46,48,30,31,58,,,,12,16,4,4,0.6,0.6
2024-11-07T0200,3376A,103.7947,25.462,曲靖市,南苑二区,,44,44,47,26,31,60,,,,11,13,5,5,0.6,0.6
2024-11-07T0200,3377A,103.7444,25.5261,曲靖市,曲靖师范学院,,49,47,49,34,35,61,,,,13,17,8,16,0.7,0.7
2024-11-07T0200,1264A,118.8692,28.9398,衢州市,环保大楼,,42,42,58,26,33,52,,,,30,35,4,5,0.3,0.5
2024-11-07T0200,1265A,118.8709,28.9666,衢州市,实验学校,,33,33,51,21,30,59,,,,29,32,7,9,0.3,0.5
2024-11-07T0200,1266A,118.8621,28.9808,衢州市,衢州学院,,34,34,56,20,30,50,,,,43,35,8,8,0.3,0.4
2024-11-07T0200,1611A,118.5819,24.9117,泉州市,涂山街,,34,24,37,12,15,107,,,,8,10,1,1,0.4,0.4
2024-11-07T0200,1612A,118.5972,24.8978,泉州市,津头埔,,32,24,40,10,15,100,,,,6,10,2,2,0.2,0.4
2024-11-07T0200,1613A,118.6663,24.9424,泉州市,万安,,32,24,42,11,15,102,,,,7,8,1,2,0.3,0.3
2024-11-07T0200,1614A,118.6117,24.9604,泉州市,清源山,,,,,,,,,,,,,,,,
2024-11-07T0200,3529A,118.6333,24.9264,泉州市,城华南路,,33,26,36,13,18,103,,,,3,7,1,1,0.2,0.2
2024-11-07T0200,2626A,88.8876,29.2718,日喀则市,日喀则监测站,,45,45,24,24,14,8,,,,48,22,3,5,0.9,0.6
2024-11-07T0200,3726A,88.8781,29.2426,日喀则市,林业技术推广中心,,16,15,14,8,4,50,,,,6,6,7,6,0.4,0.6
2024-11-07T0200,1659A,119.471,35.4209,日照市,监测站,细颗粒物(PM2.5),54,56,51,38,31,3,,,,57,49,6,7,0.6,0.7
2024-11-07T0200,1660A,119.523,35.4216,日照市,市政府广场,细颗粒物(PM2.5),69,78,49,50,26,4,,,,71,48,8,6,1.2,0.7
2024-11-07T0200,1661A,119.5587,35.4044,日照市,港务局,细颗粒物(PM2.5),65,73,55,47,32,2,,,,84,55,12,7,1.0,0.8
2024-11-07T0200,3507A,119.5328,35.4625,日照市,职业技术学院,,46,46,40,22,21,39,,,,49,33,4,5,0.6,0.4
2024-11-07T0200,3604A,119.3266,35.1044,日照市,岚山环保分局,细颗粒物(PM2.5),64,68,53,46,31,61,,,,40,35,18,22,1.1,1.7
2024-11-07T0200,1835A,111.1922,34.7752,三门峡市,市政府,细颗粒物(PM2.5),112,,71,84,61,76,,,,24,27,10,12,0.6,0.5
2024-11-07T0200,1836A,111.1587,34.7942,三门峡市,开发区,细颗粒物(PM2.5),98,114,98,73,56,73,,,,21,26,11,12,0.6,0.6
2024-11-07T0200,1838A,111.143,34.7955,三门峡市,风景区,,,86,78,70,54,73,,,,,,18,19,0.7,0.8
2024-11-07T0200,3039A,111.1911,34.7829,三门峡市,三门峡市第一小学,细颗粒物(PM2.5),109,,70,82,55,79,,,,21,25,11,14,0.5,0.5
2024-11-07T0200,3598A,111.1,34.7167,三门峡市,富达温泉假日酒店,细颗粒物(PM2.5),108,128,105,81,59,69,,,,19,24,27,31,0.7,0.5
2024-11-07T0200,2324A,117.6211,26.2625,三明市,三钢,,32,28,35,22,29,79,,,,11,13,8,4,0.4,0.5
2024-11-07T0200,2325A,117.635,26.2714,三明市,三明二中,,28,28,35,17,22,77,,,,12,13,6,4,0.4,0.5
2024-11-07T0200,2326A,117.6028,26.2378,三明市,三元区政府,,36,36,39,15,22,46,,,,23,16,5,4,0.5,0.5
2024-11-07T0200,2327A,117.7275,26.3108,三明市,洋溪,,,,,,,,,,,,,,,,
2024-11-07T0200,1876A,109.5078,18.2489,三亚市,河东子站,,38,22,31,21,21,119,,,,3,5,2,2,0.4,0.4
2024-11-07T0200,1877A,109.4964,18.2681,三亚市,河西子站,,34,27,30,20,20,108,,,,5,8,3,3,0.5,0.5
2024-11-07T0200,3540A,109.7348,18.3443,三亚市,君悦子站,,37,22,37,12,22,118,,,,7,8,3,4,0.5,0.5
2024-11-07T0200,2624A,91.7608,29.2313,山南市,山南监测站,,23,6,9,6,7,71,,,,6,6,4,5,0.3,0.4
2024-11-07T0200,2625A,91.7706,29.2436,山南市,山南人民医院,,23,9,11,3,6,73,,,,4,7,4,4,0.4,0.5
2024-11-07T0200,1674A,116.6794,23.3667,汕头市,金平子站,,29,29,41,20,26,91,,,,12,10,9,7,0.5,0.6
2024-11-07T0200,1675A,116.7244,23.3633,汕头市,龙湖子站,,28,27,43,12,19,88,,,,6,9,10,8,0.4,0.6
2024-11-07T0200,1676A,116.7258,23.2775,汕头市,濠江子站,,30,17,37,8,19,94,,,,7,8,8,7,0.3,0.5
2024-11-07T0200,1677A,116.7519,23.4714,汕头市,澄海子站,,28,11,42,8,17,89,,,,14,15,8,8,0.6,0.7
2024-11-07T0200,1678A,116.6092,23.2539,汕头市,潮阳子站,,29,24,45,6,18,92,,,,3,7,7,6,0.5,0.7
2024-11-07T0200,3444A,116.454,23.2684,汕头市,潮南峡山,,27,18,45,6,22,84,,,,15,14,8,8,0.3,0.7
2024-11-07T0200,3624A,116.4069,23.2533,汕头市,潮南子站,,41,41,50,19,24,78,,,,16,15,9,8,0.4,0.5
2024-11-07T0200,1693A,115.3653,22.775,汕尾市,市环保局,颗粒物(PM10),51,51,42,23,30,89,,,,13,12,7,7,0.6,0.7
2024-11-07T0200,1694A,115.3706,22.7898,汕尾市,市政府,,45,45,43,15,26,88,,,,13,12,8,9,0.5,0.6
2024-11-07T0200,1695A,115.3622,22.7925,汕尾市,新城中学,颗粒物(PM10),54,58,47,23,29,85,,,,15,12,7,7,0.6,0.7
2024-11-07T0200,2645A,109.9154,33.8715,商洛市,监测站,"颗粒物(PM10),细颗粒物(PM2.5)",59,67,62,42,35,53,,,,21,20,5,7,0.6,0.6
2024-11-07T0200,3045A,109.9643,33.8471,商洛市,商州区中学,颗粒物(PM10),64,77,65,35,36,16,,,,53,34,7,8,0.7,0.7
2024-11-07T0200,2408A,115.6702,34.4285,商丘市,环境监测站,细颗粒物(PM2.5),97,95,77,72,59,51,,,,37,40,12,11,0.5,0.5
2024-11-07T0200,2409A,115.6458,34.4045,商丘市,粮食局,细颗粒物(PM2.5),94,84,69,70,55,59,,,,39,35,5,5,0.5,0.5
2024-11-07T0200,2410A,115.6293,34.3948,商丘市,睢阳区环保局,细颗粒物(PM2.5),87,74,76,64,54,61,,,,26,34,10,12,0.4,0.5
2024-11-07T0200,3171A,115.6071,34.4465,商丘市,梁园区档案局,细颗粒物(PM2.5),69,56,64,50,52,72,,,,23,34,7,8,0.4,0.5
2024-11-07T0200,1141A,121.4,31.238,上海市,普陀,,26,14,23,13,13,83,,,,10,23,5,5,0.5,0.6
2024-11-07T0200,1142A,121.478,31.2036,上海市,十五厂,,27,12,20,3,7,86,,,,14,22,7,7,0.4,0.4
2024-11-07T0200,1143A,121.467,31.3008,上海市,虹口,,27,14,21,7,4,86,,,,13,26,8,8,0.5,0.6
