timepoint,stationcode,longitude,latitude,area,positionname,primarypollutant,aqi,pm10,pm10_24h,pm2_5,pm2_5_24h,o3,o3_24h,o3_8h,o3_8h_24h,no2,no2_24h,so2,so2_24h,co,co_24h
2025-05-18T2300,2566A,102.1879,31.914,阿坝藏族羌族自治州,州农科所,,23,23,20,14,9,60,,90,83,4,7,10,11,0.7,0.7
2025-05-18T2300,2568A,102.2502,31.8896,阿坝藏族羌族自治州,马师校,,38,29,21,26,18,35,,96,82,18,9,4,4,0.5,0.5
2025-05-18T2300,3994A,102.2165,31.9024,阿坝藏族羌族自治州,马尔康中学西区,,45,,22,31,18,57,,100,91,4,6,4,4,0.8,0.8
2025-05-18T2300,2695A,80.292,41.1694,阿克苏地区,电视台,颗粒物(PM10),106,161,210,60,63,84,,129,121,40,24,5,6,0.4,0.3
2025-05-18T2300,2696A,80.2613,41.1551,阿克苏地区,艺术中心,颗粒物(PM10),124,197,216,80,64,38,,119,104,64,20,3,4,0.5,0.3
2025-05-18T2300,2204A,105.6467,38.8363,阿拉善盟,西城区西花园,颗粒物(PM10),59,67,81,36,34,60,,120,100,32,14,6,5,1.0,0.8
2025-05-18T2300,2205A,105.6985,38.8411,阿拉善盟,蒙二幼,颗粒物(PM10),53,56,89,20,34,69,,103,89,10,9,8,9,0.5,0.5
2025-05-18T2300,2206A,105.724,38.8516,阿拉善盟,环保局新楼,,48,48,86,31,37,99,,112,104,4,4,8,9,0.4,0.4
2025-05-18T2300,2708A,88.1264,47.8517,阿勒泰地区,市站,颗粒物(PM10),122,193,96,12,16,105,,111,111,2,4,2,2,0.3,0.2
2025-05-18T2300,2630A,80.1161,32.5,阿里地区,阿里监测站,,41,10,10,7,8,130,,129,129,5,4,9,7,0.4,0.4
2025-05-18T2300,3192A,80.0903,32.5028,阿里地区,阿里藏医院,,44,24,23,17,8,140,,135,135,1,5,6,6,0.4,0.4
2025-05-18T2300,2642A,109.0318,32.6537,安康市,香溪洞,颗粒物(PM10),66,81,52,29,20,104,,125,119,8,5,8,8,0.2,0.1
2025-05-18T2300,2644A,109.0072,32.6975,安康市,汉滨区检察院,颗粒物(PM10),65,80,56,27,24,67,,134,105,14,10,8,10,0.5,0.4
2025-05-18T2300,4054A,109.0325,32.6913,安康市,市邮政管理局,颗粒物(PM10),72,94,62,43,28,48,,116,80,19,12,8,8,0.6,0.4
2025-05-18T2300,2291A,117.0809,30.5177,安庆市,环科院,颗粒物(PM10),89,127,168,65,51,83,,163,146,46,15,6,5,1.1,0.7
2025-05-18T2300,2292A,117.0331,30.5119,安庆市,马山宾馆,细颗粒物(PM2.5),124,109,153,94,51,118,,157,144,31,20,9,7,1.4,0.7
2025-05-18T2300,2294A,116.9896,30.6145,安庆市,安庆大学,细颗粒物(PM2.5),107,108,161,80,51,60,,150,127,53,19,5,6,0.8,0.4
2025-05-18T2300,3173A,117.0598,30.5351,安庆市,市人大,颗粒物(PM10),96,141,166,67,50,121,,177,165,33,17,11,10,1.0,0.6
2025-05-18T2300,3123A,105.9408,26.2431,安顺市,凤凰山,细颗粒物(PM2.5),113,86,44,85,39,81,,112,103,19,9,10,12,0.8,0.6
2025-05-18T2300,3124A,105.9439,26.2564,安顺市,金钟山,细颗粒物(PM2.5),122,,42,92,37,77,,108,100,16,7,16,7,0.6,0.5
2025-05-18T2300,3125A,105.8983,26.2481,安顺市,娄家坡,细颗粒物(PM2.5),102,82,41,76,38,94,,111,107,10,7,26,10,0.6,0.6
2025-05-18T2300,1819A,114.3551,36.1017,安阳市,红庙街,颗粒物(PM10),90,130,104,36,31,107,,164,154,15,7,6,5,0.7,0.5
2025-05-18T2300,1820A,114.361,36.0681,安阳市,银杏小区,颗粒物(PM10),98,146,100,51,38,100,,159,147,20,13,5,5,0.4,0.2
2025-05-18T2300,3141A,114.3922,36.0878,安阳市,信访局,颗粒物(PM10),101,151,117,32,21,124,,169,162,21,12,6,5,0.6,0.4
2025-05-18T2300,3669A,114.4705,36.0637,安阳市,左辅环卫站,颗粒物(PM10),91,131,104,41,34,102,,160,147,25,22,6,5,0.6,0.4
2025-05-18T2300,3703A,114.2917,36.0949,安阳市,安钢职工学校,颗粒物(PM10),100,149,108,45,30,126,,161,155,12,9,19,6,0.5,0.3
2025-05-18T2300,1748A,123.044,41.1196,鞍山市,深沟寺,,42,26,29,14,18,134,,103,103,7,16,6,11,0.5,0.9
2025-05-18T2300,1749A,123.011,41.0931,鞍山市,太阳城,,40,31,28,19,19,128,,96,96,8,17,7,11,0.4,0.8
2025-05-18T2300,1750A,123.0485,41.1442,鞍山市,太平,,40,35,34,16,20,127,,96,96,9,20,8,13,0.6,1
2025-05-18T2300,1751A,122.9642,41.0971,鞍山市,铁西三道街,,38,33,33,19,20,121,,93,93,17,21,6,9,0.7,0.9
2025-05-18T2300,1753A,123.022,41.0821,鞍山市,明达新区,,41,28,28,19,21,129,,101,101,6,14,6,11,0.4,0.8
2025-05-18T2300,4201A,122.9446,41.0826,鞍山市,兴盛南路290号,,39,38,33,16,20,123,,92,92,10,18,6,9,0.5,0.9
2025-05-18T2300,2195A,107.4212,40.761,巴彦淖尔市,附二中,颗粒物(PM10),70,90,80,39,26,66,,102,86,19,13,4,4,0.5,0.5
2025-05-18T2300,2196A,107.37,40.7372,巴彦淖尔市,市环保大楼,颗粒物(PM10),79,107,91,39,33,55,,108,85,24,19,4,5,0.2,0.2
2025-05-18T2300,1956A,86.1472,41.7538,巴音郭楞蒙古自治州,孔雀公园,颗粒物(PM10),137,224,238,71,65,70,,96,88,20,46,7,8,0.3,0.4
2025-05-18T2300,1957A,86.1972,41.7166,巴音郭楞蒙古自治州,棉纺厂,颗粒物(PM10),203,352,263,64,64,76,,106,96,23,29,3,4,0.3,0.3
2025-05-18T2300,1958A,86.2357,41.7173,巴音郭楞蒙古自治州,经济开发区,颗粒物(PM10),144,238,276,54,65,52,,102,90,29,21,8,8,0.2,0.1
2025-05-18T2300,2914A,106.7677,31.8794,巴中市,苏山坪,细颗粒物(PM2.5),94,109,77,70,55,128,,134,131,15,10,6,5,0.7,0.5
2025-05-18T2300,3181A,106.7768,31.8526,巴中市,市五中,细颗粒物(PM2.5),85,109,86,63,61,70,,137,124,25,13,8,7,0.8,0.7
2025-05-18T2300,3183A,106.7418,31.8654,巴中市,圣泉水务公司,细颗粒物(PM2.5),125,110,81,95,63,95,,142,135,32,12,9,8,0.9,0.7
2025-05-18T2300,3616A,106.7616,31.8344,巴中市,市中心医院,颗粒物(PM10),83,116,94,56,67,86,,138,126,25,13,6,6,0.9,0.7
2025-05-18T2300,2235A,122.7911,45.6077,白城市,洮北区环保局,,28,16,30,11,23,87,,82,75,4,8,6,6,0.3,0.4
2025-05-18T2300,2236A,122.8738,45.5725,白城市,市环保局,,28,9,25,3,23,89,,86,79,1,4,1,2,0.4,0.4
2025-05-18T2300,2231A,126.4219,41.9171,白山市,喜丰,,30,30,29,3,14,36,,92,73,35,16,6,6,0.7,0.7
2025-05-18T2300,2232A,126.4077,41.9419,白山市,环保局,,39,39,37,16,16,45,,94,76,16,14,7,9,0.7,0.7
2025-05-18T2300,2647A,104.1724,36.5446,白银市,第三小学,颗粒物(PM10),68,86,59,47,27,24,,125,104,80,12,160,39,1.3,0.7
2025-05-18T2300,2648A,104.1465,36.5482,白银市,动力公司,颗粒物(PM10),54,58,53,16,22,46,,126,110,52,14,67,29,0.5,0.5
2025-05-18T2300,2512A,106.6103,23.9011,百色市,市监测站,,43,42,28,30,16,38,,55,52,9,12,3,8,0.8,0.8
2025-05-18T2300,2513A,106.6538,23.8859,百色市,市中心血站,,44,44,32,24,18,26,,62,50,26,15,7,8,0.8,0.7
2025-05-18T2300,3406A,106.6085,23.8798,百色市,祈福高中,,45,45,32,21,19,24,,51,48,21,11,4,6,0.6,0.5
2025-05-18T2300,2270A,117.396,32.939,蚌埠市,工人疗养院,颗粒物(PM10),84,118,101,42,23,133,,164,159,11,13,6,6,0.6,0.4
2025-05-18T2300,2271A,117.3605,32.9427,蚌埠市,百货大楼,颗粒物(PM10),89,128,106,45,27,127,,160,155,18,15,8,7,0.6,0.4
2025-05-18T2300,2273A,117.4185,32.8911,蚌埠市,蚌埠学院,颗粒物(PM10),78,105,99,43,27,132,,161,155,12,14,6,5,0.6,0.4
2025-05-18T2300,2274A,117.3533,32.9673,蚌埠市,淮上区政府,颗粒物(PM10),84,117,99,52,27,129,,164,159,20,16,8,6,0.9,0.5
2025-05-18T2300,2275A,117.3145,32.8977,蚌埠市,高新区,颗粒物(PM10),91,132,108,49,28,125,,158,153,17,18,7,6,0.7,0.5
2025-05-18T2300,3715A,117.3092,32.9314,蚌埠市,蚌埠田家炳中学,颗粒物(PM10),91,131,111,48,28,129,,166,161,11,10,11,6,0.6,0.4
2025-05-18T2300,1585A,109.8756,40.6532,包头市,市环境监测站,颗粒物(PM10),76,102,84,40,27,2,,106,72,77,26,10,15,0.6,0.5
2025-05-18T2300,1587A,109.9991,40.5842,包头市,包头八中,细颗粒物(PM2.5),98,126,85,73,41,3,,104,71,79,24,10,11,0.9,0.6
2025-05-18T2300,1588A,109.8538,40.6821,包头市,青山宾馆,细颗粒物(PM2.5),89,109,90,66,38,1,,105,67,71,27,9,11,0.7,0.6
2025-05-18T2300,1589A,109.8642,40.6288,包头市,惠龙物流,颗粒物(PM10),76,101,78,34,25,26,,106,80,60,22,35,20,0.9,0.5
2025-05-18T2300,1590A,110.0377,40.5546,包头市,东河鸿龙湾,颗粒物(PM10),72,94,72,33,26,43,,106,81,34,14,5,6,0.5,0.4
2025-05-18T2300,3283A,109.9154,40.5685,包头市,滨河大厦,颗粒物(PM10),66,82,71,26,19,46,,108,86,40,16,7,8,0.4,0.4
2025-05-18T2300,3419A,109.9447,40.6261,包头市,包头市委党校,颗粒物(PM10),73,95,77,47,31,7,,104,78,66,17,10,13,0.9,0.9
2025-05-18T2300,3683A,109.8331,40.6576,包头市,昆区政府,颗粒物(PM10),77,104,79,54,36,3,,103,71,80,28,14,17,1.5,1
2025-05-18T2300,1930A,107.185,34.3063,宝鸡市,庙沟村,"颗粒物(PM10),细颗粒物(PM2.5)",53,55,174,37,83,116,,131,124,9,12,8,8,0.4,0.4
2025-05-18T2300,1931A,107.0708,34.3017,宝鸡市,竹园沟,颗粒物(PM10),62,73,172,35,74,99,,125,106,10,11,4,4,0.4,0.4
2025-05-18T2300,1932A,107.1906,34.3672,宝鸡市,三陆医院,"颗粒物(PM10),细颗粒物(PM2.5)",57,63,178,40,76,44,,122,89,42,26,11,8,0.6,0.5
2025-05-18T2300,1933A,107.1431,34.3547,宝鸡市,监测站,颗粒物(PM10),69,88,188,38,81,43,,113,82,34,19,7,6,0.5,0.4
2025-05-18T2300,1934A,107.1186,34.3739,宝鸡市,技工学校,细颗粒物(PM2.5),60,61,183,43,76,63,,122,96,17,11,9,6,0.6,0.6
2025-05-18T2300,1935A,107.3906,34.3528,宝鸡市,陈仓区环保局家属楼,细颗粒物(PM2.5),80,88,204,59,90,31,,129,79,53,23,4,17,0.5,0.5
2025-05-18T2300,1936A,107.2058,34.3497,宝鸡市,文理学院,细颗粒物(PM2.5),67,80,186,48,93,63,,125,94,28,17,8,8,0.5,0.4
2025-05-18T2300,1051A,115.493,38.8632,保定市,游泳馆,颗粒物(PM10),76,102,73,39,33,101,,162,143,28,19,5,5,0.2,0.3
2025-05-18T2300,1052A,115.5213,38.8959,保定市,华电二区,颗粒物(PM10),80,110,54,38,25,92,,159,142,22,10,5,5,0.4,0.3
2025-05-18T2300,1053A,115.4713,38.9108,保定市,接待中心,颗粒物(PM10),105,160,60,37,28,93,,163,150,28,14,2,4,0.5,0.4
2025-05-18T2300,1054A,115.4612,38.8416,保定市,地表水厂,颗粒物(PM10),77,104,76,28,26,82,,159,140,42,21,3,4,0.3,0.2
2025-05-18T2300,3581A,115.31981,38.95208,保定市,满城区生态环境分局,颗粒物(PM10),76,102,75,29,31,126,,170,157,19,15,6,8,0.6,0.6
2025-05-18T2300,3582A,115.47694,38.76408,保定市,清苑区第二中学,颗粒物(PM10),92,133,80,27,28,77,,162,139,45,16,4,5,0.4,0.4
2025-05-18T2300,3583A,115.62909,39.02311,保定市,徐水物探局,颗粒物(PM10),77,103,79,31,23,82,,153,130,34,23,3,4,0.2,0.1
2025-05-18T2300,4004A,115.4202,38.8656,保定市,双鹰农机,颗粒物(PM10),66,81,62,42,31,97,,159,145,27,17,5,6,0.4,0.4
2025-05-18T2300,4034A,115.5150,38.8590,保定市,植保所站,颗粒物(PM10),87,123,69,29,27,95,,162,144,25,10,7,6,0.5,0.5
2025-05-18T2300,2594A,99.1678,25.1081,保山市,市环境监测站,,39,39,24,24,19,92,,108,104,6,7,7,7,0.5,0.5
2025-05-18T2300,2595A,99.1711,25.1328,保山市,市环保局,,34,34,28,15,14,101,,115,111,4,5,6,6,0.3,0.3
2025-05-18T2300,1867A,109.1436,21.4086,北海市,海滩公园,,37,37,21,7,6,49,,71,65,6,5,5,5,0.8,0.7
2025-05-18T2300,1868A,109.0981,21.4661,北海市,新市环保局,,25,,18,17,11,49,,72,66,15,8,6,3,0.3,0.3
2025-05-18T2300,1869A,109.1778,21.5233,北海市,北海工业园,,33,33,24,15,14,19,,68,55,24,14,19,10,0.6,0.5
2025-05-18T2300,3400A,109.1911,21.4415,北海市,龙潭自来水厂,,26,24,19,18,14,42,,72,63,11,10,4,4,0.3,0.3
2025-05-18T2300,1001A,116.3621,39.8784,北京市,万寿西宫,颗粒物(PM10),61,72,49,39,24,97,,118,112,26,36,5,4,0.7,0.6
2025-05-18T2300,1003A,116.4174,39.9289,北京市,东四,颗粒物(PM10),68,85,52,39,21,83,,113,102,34,32,4,3,0.6,0.5
2025-05-18T2300,1004A,116.4072,39.8863,北京市,天坛,颗粒物(PM10),59,67,48,35,22,92,,126,117,23,32,2,3,0.5,0.4
2025-05-18T2300,1005A,116.462,39.9365,北京市,农展馆,颗粒物(PM10),61,71,49,37,22,69,,110,98,34,34,4,4,0.5,0.3
2025-05-18T2300,1006A,116.3392,39.9295,北京市,官园,颗粒物(PM10),68,85,73,33,25,68,,105,95,34,28,7,8,0.4,0.3
2025-05-18T2300,1007A,116.2878,39.9611,北京市,海淀万柳,,49,49,38,23,15,61,,91,77,29,35,6,6,0.4,0.4
2025-05-18T2300,1008A,116.6636,40.135,北京市,顺义新城,颗粒物(PM10),60,69,47,35,22,56,,108,93,30,23,5,6,0.5,0.3
2025-05-18T2300,1009A,116.6275,40.3275,北京市,怀柔镇,,30,30,34,17,17,66,,98,87,14,19,2,3,0.5,0.5
2025-05-18T2300,1010A,116.2296,40.217,北京市,昌平镇,,46,46,28,20,13,34,,94,67,37,20,4,4,0.3,0.3
2025-05-18T2300,1011A,116.3966,39.9821,北京市,奥体中心,颗粒物(PM10),57,64,41,34,23,63,,95,87,42,36,4,4,0.3,0.2
2025-05-18T2300,3281A,115.9718,40.4529,北京市,延庆夏都,,46,46,24,23,12,71,,92,82,20,16,4,3,0.4,0.4
2025-05-18T2300,3418A,116.8336,40.4095,北京市,密云新城,颗粒物(PM10),51,51,33,29,16,33,,95,71,14,11,3,2,0.5,0.3
2025-05-18T2300,3671A,116.088,39.9726,北京市,门头沟三家店,颗粒物(PM10),53,55,38,23,18,42,,80,62,29,20,7,8,0.1,0.1
2025-05-18T2300,3672A,116.1541,39.8204,北京市,丰台云岗,颗粒物(PM10),60,69,52,35,20,78,,110,90,26,26,4,3,0.3,0.3
2025-05-18T2300,3673A,116.6804,39.9081,北京市,通州东关,颗粒物(PM10),67,84,64,43,28,116,,148,137,20,25,5,4,0.4,0.4
2025-05-18T2300,3674A,115.9577,39.7603,北京市,房山燕山,颗粒物(PM10),57,64,50,30,22,68,,118,101,32,24,2,2,0.5,0.4
2025-05-18T2300,3675A,116.4672,39.7733,北京市,大兴旧宫,颗粒物(PM10),64,77,57,40,25,106,,142,130,18,18,1,3,0.7,0.6
2025-05-18T2300,3694A,115.986,40.4563,北京市,延庆石河营,颗粒物(PM10),52,53,26,23,13,74,,92,84,16,15,2,2,0.4,0.4
2025-05-18T2300,3695A,116.6151,40.3053,北京市,怀柔新城,,30,30,32,15,17,64,,98,86,13,16,3,3,0.4,0.4
2025-05-18T2300,3696A,116.2545,39.8768,北京市,丰台小屯,颗粒物(PM10),53,56,51,24,20,52,,97,81,32,31,2,3,0.4,0.4
2025-05-18T2300,3697A,116.84,40.3844,北京市,密云镇,颗粒物(PM10),51,52,35,27,16,41,,102,79,32,18,5,6,0.6,0.4
2025-05-18T2300,4182A,116.1942,39.9158,北京市,八角北路9号,颗粒物(PM10),54,58,40,25,19,65,,99,88,32,29,2,2,0.3,0.1
2025-05-18T2300,4194A,117.0790,40.1518,北京市,洳河巡河路,颗粒物(PM10),53,56,42,28,20,72,,128,110,18,14,3,4,0.4,0.3
2025-05-18T2300,1761A,123.8275,41.3064,本溪市,大峪,,38,26,25,10,12,119,,100,99,8,14,7,8,0.5,0.9
2025-05-18T2300,1762A,123.7567,41.3325,本溪市,溪湖,,30,25,39,14,22,96,,99,93,17,18,10,7,1.2,1.6
2025-05-18T2300,1763A,123.7169,41.3094,本溪市,彩屯,,36,36,33,19,19,78,,103,86,40,21,25,13,2.9,1.4
2025-05-18T2300,1764A,123.7669,41.2864,本溪市,东明,,35,19,37,11,17,112,,98,98,9,21,7,10,0.6,1.2
2025-05-18T2300,1765A,123.7992,41.2664,本溪市,新立屯,,35,23,26,17,15,110,,96,96,14,17,6,7,0.5,0.7
2025-05-18T2300,1766A,123.8142,41.3472,本溪市,威宁,,42,42,32,9,15,95,,99,87,23,18,5,6,0.4,0.7
2025-05-18T2300,2587A,105.2864,27.3125,毕节市,八中,,49,49,40,34,29,27,,98,68,14,9,5,5,0.6,0.5
2025-05-18T2300,2588A,105.31,27.2944,毕节市,师专,颗粒物(PM10),52,53,50,30,31,25,,102,70,23,15,3,4,0.5,0.5
2025-05-18T2300,4263A,105.3688,27.3598,毕节市,工业大道,,45,45,44,25,30,24,,98,70,24,15,9,7,0.7,0.7
2025-05-18T2300,1629A,118.0018,37.3617,滨州市,第二水厂,颗粒物(PM10),82,114,75,29,32,68,,145,119,40,30,10,11,0.3,0.2
2025-05-18T2300,1630A,117.9776,37.393,滨州市,北中新校,颗粒物(PM10),73,95,61,41,32,114,,149,130,20,23,12,13,0.4,0.3
2025-05-18T2300,3514A,117.9378,37.3956,滨州市,中海酒店,颗粒物(PM10),93,136,75,51,40,133,,168,150,18,19,29,15,0.9,0.7
2025-05-18T2300,3515A,117.9378,37.3553,滨州市,开发区一中,颗粒物(PM10),85,119,78,58,32,82,,148,117,39,30,9,10,0.6,0.6
2025-05-18T2300,3516A,118.0917,37.694,滨州市,金海六路,颗粒物(PM10),64,78,66,29,30,84,,164,139,35,33,9,10,0.4,0.4
2025-05-18T2300,4028A,117.9956,37.3753,滨州市,滨州市西街道办事处,颗粒物(PM10),79,107,71,36,35,92,,172,141,25,22,7,10,0.3,0.2
2025-05-18T2300,2311A,115.8072,33.8399,亳州市,污水处理厂,颗粒物(PM10),84,117,100,40,24,143,,171,168,14,15,3,5,0.6,0.4
2025-05-18T2300,2312A,115.7789,33.8518,亳州市,三国揽胜宫,颗粒物(PM10),87,124,97,49,26,150,,179,176,13,13,6,7,0.5,0.3
2025-05-18T2300,3332A,115.7633,33.8034,亳州市,亳州学院,颗粒物(PM10),85,119,100,45,26,136,,172,166,14,11,4,5,0.6,0.4
2025-05-18T2300,2693A,82.0485,44.8556,博尔塔拉蒙古自治州,市党校,,50,50,75,11,20,103,,115,109,10,9,11,12,0.4,0.4
2025-05-18T2300,2694A,82.0806,44.8969,博尔塔拉蒙古自治州,市环保局,,48,48,109,19,22,95,,110,104,11,12,4,8,0.7,0.6
2025-05-18T2300,1071A,116.8842,38.2991,沧州市,沧县城建局,颗粒物(PM10),76,101,70,36,28,118,,157,147,19,15,3,3,0.6,0.5
2025-05-18T2300,1072A,116.8584,38.3254,沧州市,电视转播站,颗粒物(PM10),77,104,72,39,30,117,,159,149,25,19,4,5,0.5,0.4
2025-05-18T2300,1073A,116.8709,38.3228,沧州市,市环保局,颗粒物(PM10),81,111,79,36,33,129,,171,160,22,17,2,3,0.5,0.4
2025-05-18T2300,3324A,116.8136,38.3004,沧州市,河北水利电力学院,颗粒物(PM10),86,122,86,42,28,126,,164,154,30,26,8,7,0.6,0.4
2025-05-18T2300,2622A,97.1806,31.1273,昌都市,昌都监测站,,24,,3,6,5,75,,91,86,5,4,3,4,0.2,0.2
2025-05-18T2300,3719A,97.1714,31.1406,昌都市,昌都会议中心,,24,7,6,7,5,74,,92,86,5,3,4,4,0.1,0.1
2025-05-18T2300,2690A,88.1236,43.8886,昌吉回族自治州,天山天池,颗粒物(PM10),55,59,19,13,6,75,,124,112,7,5,8,7,0.5,0.4
2025-05-18T2300,2692A,87.2717,44.0297,昌吉回族自治州,新区政务中心,颗粒物(PM10),91,132,43,27,16,110,,153,141,6,18,5,7,0.3,0.5
2025-05-18T2300,3613A,87.3095,44.0142,昌吉回族自治州,亚心广场,颗粒物(PM10),151,251,84,34,20,99,,140,128,14,25,8,9,0.3,0.5
2025-05-18T2300,1119A,125.3325,43.9166,长春市,食品厂,,32,32,34,14,22,82,,84,80,18,16,4,4,0.2,0.2
2025-05-18T2300,1120A,125.2863,43.9027,长春市,客车厂,,34,34,34,16,24,84,,86,81,16,13,6,5,0.2,0.2
2025-05-18T2300,1121A,125.2841,43.8463,长春市,邮电学院,,28,28,33,14,22,86,,88,86,12,13,6,6,0.4,0.4
2025-05-18T2300,1122A,125.3716,43.8772,长春市,劳动公园,,44,44,33,10,21,76,,86,81,12,9,7,6,0.3,0.3
2025-05-18T2300,1123A,125.3297,43.8805,长春市,园林处,,29,29,31,3,19,89,,88,87,9,10,7,6,0.3,0.4
2025-05-18T2300,1124A,125.4605,43.79,长春市,净月潭,,25,18,30,10,17,79,,84,78,6,7,6,6,0.3,0.3
2025-05-18T2300,1126A,125.3863,43.8447,长春市,经开区环卫处,,32,32,42,11,18,73,,84,77,13,11,7,6,0.2,0.2
2025-05-18T2300,1127A,125.245,43.7783,长春市,高新区管委会,,34,34,32,10,24,80,,84,77,11,10,6,6,0.3,0.3
2025-05-18T2300,1128A,125.1761,43.8325,长春市,岱山公园,,28,28,33,12,23,76,,83,72,20,13,5,4,0.3,0.3
2025-05-18T2300,1335A,113.0833,28.2325,长沙市,经开区环保局,细颗粒物(PM2.5),88,71,54,65,38,65,,123,102,32,27,5,6,0.8,0.8
2025-05-18T2300,1336A,112.8872,28.2189,长沙市,高开区环保局,"颗粒物(PM10),细颗粒物(PM2.5)",52,54,52,36,37,91,,115,101,10,9,5,5,0.7,0.8
2025-05-18T2300,1337A,113.0792,28.2053,长沙市,马坡岭,细颗粒物(PM2.5),65,77,53,47,39,42,,95,77,32,21,3,3,0.9,0.8
2025-05-18T2300,1338A,112.9394,28.19,长沙市,湖南师范大学,细颗粒物(PM2.5),58,61,54,41,38,73,,98,84,20,17,4,3,0.6,0.6
2025-05-18T2300,1339A,113.0178,28.1322,长沙市,雨花区环保局,颗粒物(PM10),57,64,51,37,30,78,,107,100,19,17,5,5,0.9,1.2
2025-05-18T2300,1340A,112.9792,28.2597,长沙市,伍家岭,颗粒物(PM10),60,70,57,41,35,68,,119,93,26,17,4,3,0.8,0.8
2025-05-18T2300,1341A,113.0014,28.1944,长沙市,火车新站,细颗粒物(PM2.5),64,67,55,46,36,74,,110,98,19,16,7,8,0.8,0.7
2025-05-18T2300,1342A,112.9844,28.1178,长沙市,天心区环保局,细颗粒物(PM2.5),60,62,52,43,36,71,,101,94,26,22,3,3,0.7,0.7
2025-05-18T2300,1343A,112.8908,28.1308,长沙市,湖南中医药大学,细颗粒物(PM2.5),59,63,57,42,45,62,,98,84,23,17,4,4,0.8,0.8
2025-05-18T2300,1344A,112.9581,28.3611,长沙市,沙坪,颗粒物(PM10),66,82,53,27,25,56,,104,77,13,9,3,4,0.8,0.7
2025-05-18T2300,1727A,113.1147,36.1547,长治市,清华站,,42,42,77,17,22,80,,141,120,25,11,8,8,0.6,0.6
2025-05-18T2300,1730A,113.0886,36.2125,长治市,审计局,,42,42,75,14,28,80,,141,120,35,16,8,8,0.3,0.3
2025-05-18T2300,1731A,113.0844,36.1856,长治市,长治八中,颗粒物(PM10),53,55,96,16,35,70,,137,114,34,15,11,10,0.5,0.4
2025-05-18T2300,2845A,113.1569,36.1911,长治市,德盛苑,,33,31,86,9,26,105,,136,124,12,10,7,7,0.4,0.4
2025-05-18T2300,3568A,113.06,36.0464,长治市,向阳小学,颗粒物(PM10),63,75,99,18,29,78,,141,125,28,12,14,10,0.3,0.3
2025-05-18T2300,3569A,112.8792,36.3144,长治市,屯留一中,,39,39,48,19,19,91,,135,111,14,14,9,10,0.6,0.5
2025-05-18T2300,4189A,113.1131,36.19948,长治市,英华南巷50号,颗粒物(PM10),59,67,100,22,25,63,,150,130,37,11,6,7,0.6,0.5
2025-05-18T2300,4190A,113.2367,36.3344,长治市,学府街1号,颗粒物(PM10),61,71,94,22,24,2,,151,108,109,28,10,5,0.7,0.5
2025-05-18T2300,1854A,111.6975,28.9703,常德市,市二中,细颗粒物(PM2.5),80,67,69,59,58,82,,133,122,12,14,9,8,0.7,0.7
2025-05-18T2300,3138A,111.7153,29.0289,常德市,武陵区永安,细颗粒物(PM2.5),90,84,85,67,58,89,,131,124,11,14,7,11,0.6,0.6
2025-05-18T2300,3139A,111.6892,28.9881,常德市,鼎城区玉霞,细颗粒物(PM2.5),84,85,74,62,50,60,,135,116,17,15,6,7,0.7,0.7
2025-05-18T2300,3140A,111.6625,29.0531,常德市,武陵区长庚,细颗粒物(PM2.5),72,80,80,52,50,95,,139,131,12,13,8,8,0.9,0.9
2025-05-18T2300,1196A,119.9633,31.762,常州市,市监测站,颗粒物(PM10),84,117,74,27,26,83,,130,117,16,18,6,8,0.8,0.8
2025-05-18T2300,1200A,119.9468,31.7069,常州市,武进监测站,颗粒物(PM10),80,109,82,24,24,82,,126,116,22,23,11,11,0.6,0.6
2025-05-18T2300,1201A,119.9255,31.9087,常州市,安家,颗粒物(PM10),84,117,87,27,25,79,,119,103,17,15,12,13,0.3,0.3
2025-05-18T2300,3002A,119.9805,31.8174,常州市,行政中心,颗粒物(PM10),68,86,62,24,25,86,,130,115,18,18,8,8,0.5,0.5
2025-05-18T2300,3003A,120.0522,31.7748,常州市,经开区,颗粒物(PM10),69,87,86,26,23,86,,135,120,22,20,11,8,1.5,0.7
2025-05-18T2300,3010A,119.9025,31.7964,常州市,钟楼,颗粒物(PM10),84,117,84,34,25,82,,123,112,17,18,7,9,0.5,0.6
2025-05-18T2300,3429A,119.8598,31.7066,常州市,武进经发区,颗粒物(PM10),90,130,101,38,27,73,,124,110,17,16,9,12,0.8,0.8
2025-05-18T2300,3430A,119.5826,31.7245,常州市,金坛城区,颗粒物(PM10),98,145,100,36,24,72,,139,121,22,15,10,10,0.8,0.6
2025-05-18T2300,2220A,120.4318,41.5881,朝阳市,西梁,,33,26,24,23,9,62,,95,88,22,15,6,7,0.4,0.3
2025-05-18T2300,2221A,120.4521,41.5646,朝阳市,河畔小区,细颗粒物(PM2.5),63,,26,45,13,76,,104,99,17,12,11,11,0.7,0.4
2025-05-18T2300,2222A,120.4176,41.5648,朝阳市,八里堡,,39,39,42,17,14,64,,94,88,22,17,7,8,0.4,0.5
2025-05-18T2300,2223A,120.3806,41.5969,朝阳市,农业园区,,28,28,30,18,10,60,,97,87,17,12,6,7,0.4,0.4
2025-05-18T2300,1705A,116.6367,23.6719,潮州市,西园路,,33,33,28,12,18,25,,87,56,18,14,6,5,0.4,0.3
2025-05-18T2300,3026A,116.6183,23.6608,潮州市,市政府,,23,23,31,11,12,40,,87,58,16,16,16,10,0.6,0.6
2025-05-18T2300,4036A,116.6461,23.6761,潮州市,金山,,42,42,32,14,16,19,,97,55,18,15,8,8,0.8,0.7
2025-05-18T2300,2472A,113.0073,25.9061,郴州市,马头岭,,15,15,15,7,8,27,,43,31,8,10,6,8,0.3,0.4
2025-05-18T2300,2473A,113.0116,25.8226,郴州市,市职中,,20,20,16,9,11,24,,46,37,9,11,2,3,0.7,0.7
2025-05-18T2300,2475A,113.0383,25.8071,郴州市,市审计局,,12,12,13,3,8,29,,51,42,11,9,3,3,0.6,0.6
2025-05-18T2300,2476A,113.0348,25.7759,郴州市,市环保局,,9,9,15,3,10,28,,38,31,9,12,3,5,0.5,0.5
2025-05-18T2300,4252A,113.0138,25.8011,郴州市,好美居路49号,,12,9,15,8,9,34,,51,41,8,10,6,5,0.6,0.6
2025-05-18T2300,1431A,103.9728,30.7236,成都市,金泉两河,细颗粒物(PM2.5),95,82,114,71,96,86,,222,186,50,34,5,6,0.5,0.6
2025-05-18T2300,1432A,104.176,30.6872,成都市,十里店,细颗粒物(PM2.5),85,98,124,63,88,160,,245,221,21,32,6,6,0.9,1
2025-05-18T2300,1433A,104.079,30.5706,成都市,三瓦窑,细颗粒物(PM2.5),88,100,121,65,89,133,,230,208,37,42,7,7,1.0,1.1
2025-05-18T2300,1434A,104.1114,30.63,成都市,沙河铺,细颗粒物(PM2.5),80,89,116,59,84,121,,203,179,27,29,8,8,1.0,1.1
2025-05-18T2300,1437A,104.0786,30.6531,成都市,君平街,细颗粒物(PM2.5),110,115,130,83,91,107,,202,180,35,36,9,9,0.9,0.9
2025-05-18T2300,2880A,104.0239,30.65639,成都市,大石西路,细颗粒物(PM2.5),94,106,128,70,91,98,,227,192,61,46,7,7,0.9,0.9
2025-05-18T2300,3136A,104.2725,30.5589,成都市,龙泉驿区区政府,细颗粒物(PM2.5),73,78,81,53,56,122,,166,156,26,22,6,6,0.7,0.7
2025-05-18T2300,3357A,104.0106,30.6931,成都市,金博路,细颗粒物(PM2.5),78,94,129,57,86,121,,231,204,47,45,11,10,0.7,0.8
2025-05-18T2300,3359A,104.0578,30.5225,成都市,华阳,细颗粒物(PM2.5),73,78,99,53,76,115,,194,176,28,30,8,8,0.6,0.7
2025-05-18T2300,3488A,104.3853,30.7453,成都市,青白江技师分院,细颗粒物(PM2.5),102,105,108,76,75,171,,235,219,35,37,9,7,0.7,0.8
2025-05-18T2300,3489A,104.0789,30.4072,成都市,科学城,细颗粒物(PM2.5),92,96,97,68,74,135,,190,185,20,24,7,6,0.8,0.8
2025-05-18T2300,4011A,103.8506,30.6947,成都市,光华大道三段,细颗粒物(PM2.5),114,120,138,86,107,154,,215,202,20,24,10,7,0.9,1
2025-05-18T2300,4224A,104.2433,30.5353,成都市,鲸龙路1057号,细颗粒物(PM2.5),89,100,100,66,69,132,,186,177,29,35,8,7,0.8,0.8
2025-05-18T2300,1062A,117.9531,40.9081,承德市,铁路,,37,37,19,10,6,64,,97,90,23,15,4,4,0.3,0.2
2025-05-18T2300,1063A,117.9392,40.9763,承德市,中国银行,,30,30,18,16,7,50,,99,88,14,10,3,3,0.4,0.3
2025-05-18T2300,1064A,117.9503,40.928,承德市,开发区,,32,32,30,22,15,66,,102,94,10,12,3,3,0.3,0.3
2025-05-18T2300,1065A,117.8051,40.9655,承德市,文化中心,,33,33,28,3,6,50,,97,81,22,15,2,7,0.4,0.3
2025-05-18T2300,1066A,117.9268,41.0026,承德市,离宫,,43,,20,30,18,50,,101,84,11,7,2,3,0.3,0.3
2025-05-18T2300,2314A,117.47,30.6618,池州市,池州学院,颗粒物(PM10),81,111,147,59,50,100,,155,142,23,16,7,7,0.9,0.7
2025-05-18T2300,3237A,117.4918,30.6617,池州市,展览馆,颗粒物(PM10),84,117,144,43,45,91,,155,140,23,15,5,6,0.9,0.6
2025-05-18T2300,3333A,117.5627,30.695,池州市,第八中学,颗粒物(PM10),87,123,143,51,46,96,,153,135,23,18,7,8,0.7,0.5
2025-05-18T2300,3334A,117.5038,30.6243,池州市,第十二中学,颗粒物(PM10),75,99,145,54,43,80,,153,135,24,13,6,7,1.2,0.8
2025-05-18T2300,1744A,118.9233,42.2816,赤峰市,松山一中,颗粒物(PM10),81,112,23,17,4,27,,99,69,55,18,9,8,0.6,0.4
2025-05-18T2300,1745A,118.9576,42.2728,赤峰市,哈达街,,43,31,17,30,14,18,,88,69,54,19,10,6,0.5,0.4
2025-05-18T2300,1746A,118.8788,42.2554,赤峰市,天义路,,28,22,8,19,6,22,,94,69,45,13,7,7,0.4,0.3
2025-05-18T2300,3058A,119.2658,42.0353,赤峰市,银河街,,32,32,19,18,9,50,,89,77,19,9,15,16,0.5,0.4
2025-05-18T2300,3286A,118.9359,42.3147,赤峰市,桥北物流园区,,44,44,17,27,9,26,,85,59,36,18,7,7,0.5,0.5
2025-05-18T2300,2521A,107.3476,22.4136,崇左市,市环保局江州分局,,14,11,24,8,12,42,,67,55,4,6,5,5,0.3,0.3
2025-05-18T2300,4256A,107.3750,22.3736,崇左市,石景林东路7号,,15,13,20,6,12,47,,72,58,7,8,3,2,0.5,0.5
2025-05-18T2300,2298A,118.3093,32.3153,滁州市,老年大学,颗粒物(PM10),84,117,105,44,29,99,,158,145,27,16,4,3,0.6,0.4
2025-05-18T2300,2299A,118.3244,32.2786,滁州市,人大宾馆,颗粒物(PM10),90,129,99,45,27,90,,142,129,26,16,12,10,0.5,0.3
2025-05-18T2300,3207A,118.3118,32.3038,滁州市,市政府原办公楼,颗粒物(PM10),84,117,92,43,29,98,,158,144,24,13,7,6,0.6,0.4
2025-05-18T2300,3331A,118.3267,32.2634,滁州市,图书馆,颗粒物(PM10),80,109,84,48,31,92,,142,129,21,12,12,9,0.6,0.4
2025-05-18T2300,2605A,101.5482,25.0441,楚雄彝族自治州,州环境监测站,,30,,23,6,18,94,,110,102,9,13,10,10,0.4,0.4
2025-05-18T2300,2606A,101.538,25.0492,楚雄彝族自治州,市经济开发区,,29,25,27,10,19,90,,110,99,11,15,6,10,0.5,0.5
2025-05-18T2300,2548A,107.5277,31.2827,达州市,达州职业技术学院,颗粒物(PM10),65,79,68,36,30,32,,134,106,46,18,7,8,0.7,0.6
2025-05-18T2300,2549A,107.5086,31.2186,达州市,市环境监测站,颗粒物(PM10),72,93,73,46,36,48,,143,115,46,23,5,6,0.6,0.4
2025-05-18T2300,2550A,107.4988,31.2132,达州市,凤凰小区,颗粒物(PM10),69,88,72,48,40,29,,137,108,59,20,7,8,0.9,0.5
2025-05-18T2300,2551A,107.5082,31.1986,达州市,达县机关宾馆,,,,70,,27,,,139,,77,34,6,6,0.5,0.4
2025-05-18T2300,2552A,107.4644,31.2124,达州市,市政中心,颗粒物(PM10),72,94,77,44,38,19,,141,107,71,21,3,3,0.9,0.5
2025-05-18T2300,2614A,100.1542,25.7054,大理白族自治州,大理市环境监测站,,30,23,18,20,18,95,,101,101,10,7,7,7,0.3,0.3
2025-05-18T2300,2615A,100.2171,25.5811,大理白族自治州,大理古城,,22,22,21,11,12,69,,115,96,12,8,8,7,0.6,0.6
2025-05-18T2300,1109A,121.612,38.9741,大连市,甘井子,,35,35,32,14,19,99,,146,127,17,19,2,2,0.3,0.3
2025-05-18T2300,1110A,121.565,38.9511,大连市,周水子,,36,36,37,14,20,90,,132,116,10,14,8,6,0.3,0.3
2025-05-18T2300,1111A,121.5637,38.8845,大连市,星海三站,,30,30,35,13,22,91,,136,121,9,11,2,2,0.3,0.4
2025-05-18T2300,1112A,121.6302,38.9117,大连市,青泥洼桥,,31,24,30,13,19,98,,150,127,15,12,6,7,0.2,0.3
2025-05-18T2300,1113A,121.6251,38.8638,大连市,傅家庄,,31,29,33,12,22,98,,144,130,14,17,8,8,0.1,0.3
2025-05-18T2300,1114A,121.5213,38.8661,大连市,七贤岭,,30,30,38,14,22,92,,141,121,16,16,5,6,0.4,0.4
2025-05-18T2300,1115A,121.2529,38.8061,大连市,旅顺,,28,23,30,13,22,89,,135,117,14,16,6,6,0.3,0.3
2025-05-18T2300,1116A,121.7485,39.1311,大连市,金州,,31,25,36,14,22,98,,152,132,14,19,6,7,0.2,0.3
2025-05-18T2300,1117A,121.7811,39.0496,大连市,开发区,,36,36,41,14,22,88,,144,124,18,25,6,7,0.2,0.3
2025-05-18T2300,1118A,121.9762,39.0631,大连市,双D港,,30,28,34,13,22,96,,135,122,9,18,8,9,0.3,0.4
2025-05-18T2300,1789A,124.81117,46.03138,大庆市,大同区,,28,20,32,19,24,66,,80,67,6,7,5,5,0.4,0.5
2025-05-18T2300,1790A,125.129,46.533,大庆市,龙凤区,,26,26,39,12,25,57,,79,65,12,11,5,6,0.4,0.4
2025-05-18T2300,1791A,124.902,46.408,大庆市,红岗区,,24,24,34,12,25,61,,87,72,6,8,6,6,0.3,0.3
2025-05-18T2300,1792A,125.153,46.586,大庆市,萨尔图区,,20,20,41,11,23,51,,68,51,11,12,7,8,0.2,0.3
2025-05-18T2300,1793A,124.9042,46.6215,大庆市,让胡路区,,35,24,32,24,26,57,,73,60,4,6,6,6,0.2,0.2
2025-05-18T2300,3481A,125.141,46.634,大庆市,萨区政府监测点,,21,18,33,3,9,65,,82,69,5,6,6,5,0.4,0.4
2025-05-18T2300,1723A,113.2994,40.0758,大同市,云冈宾馆,,38,38,60,10,12,100,,116,113,6,17,8,11,0.4,0.5
2025-05-18T2300,1724A,113.3444,40.0917,大同市,大同大学,颗粒物(PM10),51,52,58,16,22,100,,116,113,7,18,9,13,0.3,0.4
2025-05-18T2300,1725A,113.2661,40.1269,大同市,安家小村,颗粒物(PM10),52,53,65,18,22,100,,115,112,2,13,5,9,0.5,0.8
2025-05-18T2300,1726A,113.2711,40.0844,大同市,教育学院,颗粒物(PM10),56,62,68,24,23,94,,112,107,5,16,6,9,0.2,0.4
2025-05-18T2300,3282A,113.3397,40.0597,大同市,大同市卫生学校,颗粒物(PM10),51,52,62,16,17,89,,106,102,7,18,7,10,0.4,0.4
2025-05-18T2300,3565A,113.1367,40.1122,大同市,云冈站,颗粒物(PM10),51,52,58,34,26,89,,109,105,6,11,4,6,0.3,0.3
2025-05-18T2300,3566A,113.1186,40.2556,大同市,图书馆,颗粒物(PM10),56,61,53,26,23,86,,98,96,3,6,5,6,0.5,0.7
2025-05-18T2300,3567A,113.5931,40.0461,大同市,区一中,颗粒物(PM10),62,73,65,24,22,92,,113,105,8,14,10,15,0.4,0.5
2025-05-18T2300,4199A,113.2798,40.0997,大同市,魏都大道141号,颗粒物(PM10),52,54,72,8,17,97,,113,108,6,19,5,9,0.4,0.6
2025-05-18T2300,2269A,124.1069,50.4097,大兴安岭地区,科技局,,18,15,14,12,9,52,,80,70,5,2,6,5,0.1,0.1
2025-05-18T2300,3663A,124.1164,50.4278,大兴安岭地区,红旗社区,,15,,2,6,2,46,,78,67,4,2,2,2,0.2,0.2
2025-05-18T2300,1600A,124.3303,40.0625,丹东市,江湾东路,,42,35,31,22,22,133,,120,120,6,11,6,8,0.6,0.6
2025-05-18T2300,1601A,124.4256,40.1503,丹东市,临江后街,颗粒物(PM10),54,57,38,26,19,118,,108,108,12,15,5,8,0.9,0.7
2025-05-18T2300,1602A,124.3933,40.1461,丹东市,元宝山,颗粒物(PM10),56,61,33,23,20,120,,108,108,11,12,8,8,0.7,0.6
2025-05-18T2300,1603A,124.3633,40.1092,丹东市,民主桥,颗粒物(PM10),57,63,48,24,17,131,,116,116,8,15,7,9,0.7,0.6
2025-05-18T2300,3541A,109.5726,19.5167,儋州市,第一中学子站,,21,21,17,10,8,51,,58,58,5,4,8,6,0.6,0.6
2025-05-18T2300,3542A,109.5567,19.5187,儋州市,东坡学校子站,,20,17,15,14,10,53,,58,58,6,5,6,5,0.5,0.5
2025-05-18T2300,2616A,98.5842,24.428,德宏傣族景颇族自治州,德宏州监测站,,50,50,37,30,23,47,,102,86,20,11,7,7,0.7,0.6
2025-05-18T2300,3677A,98.5881,24.4368,德宏傣族景颇族自治州,芒市人民政府综合楼,,45,45,43,22,20,62,,118,102,15,9,6,6,0.7,0.6
2025-05-18T2300,1901A,104.4239,31.1208,德阳市,东山公园,细颗粒物(PM2.5),103,151,149,77,95,177,,219,218,24,23,7,6,1.2,1.3
2025-05-18T2300,1902A,104.3826,31.1317,德阳市,西小区,细颗粒物(PM2.5),122,147,140,92,100,133,,228,216,59,29,6,7,1.2,1.2
2025-05-18T2300,1904A,104.3553,31.1091,德阳市,耐火材料厂,细颗粒物(PM2.5),118,169,148,89,98,120,,215,204,53,31,10,8,0.9,0.9
2025-05-18T2300,3639A,104.4019,31.1244,德阳市,市教育局,细颗粒物(PM2.5),117,151,141,88,98,133,,239,225,61,29,8,8,1.3,1.1
2025-05-18T2300,1622A,116.3032,37.4674,德州市,儿童乐园,颗粒物(PM10),79,107,101,31,30,128,,163,152,13,14,10,8,0.7,0.5
2025-05-18T2300,1624A,116.2991,37.4451,德州市,监理站,颗粒物(PM10),74,97,97,27,28,133,,171,158,14,17,12,10,0.6,0.5
2025-05-18T2300,3066A,116.2721,37.4379,德州市,九衢泉纯净水厂,颗粒物(PM10),73,95,100,34,34,110,,155,139,25,29,8,7,0.7,0.5
2025-05-18T2300,3371A,116.3728,37.4403,德州市,开发区人民医院,颗粒物(PM10),74,97,107,31,30,121,,167,155,20,16,9,8,0.7,0.6
2025-05-18T2300,3372A,116.3572,37.4094,德州市,太阳城中学,颗粒物(PM10),78,105,112,34,33,124,,158,147,14,22,7,7,0.5,0.5
2025-05-18T2300,3511A,116.5652,37.3319,德州市,陵城艺术中心,颗粒物(PM10),73,95,100,29,29,143,,170,160,14,20,10,9,0.3,0.3
2025-05-18T2300,2621A,99.7056,27.8317,迪庆藏族自治州,迪庆州站,,42,29,27,14,15,132,,141,140,12,12,5,5,0.2,0.2
2025-05-18T2300,3180A,99.7136,27.8094,迪庆藏族自治州,质量技术监督局,,41,18,20,3,10,129,,138,133,7,8,3,4,0.2,0.4
2025-05-18T2300,4257A,104.6092,35.5962,定西市,将台街,颗粒物(PM10),67,83,62,34,23,53,,150,126,56,24,4,5,0.3,0.1
2025-05-18T2300,4309A,104.6159,35.5701,定西市,正龙路62号,颗粒物(PM10),60,69,57,31,24,82,,143,131,16,9,7,7,0.2,0.2
2025-05-18T2300,1389A,113.7547,23.0494,东莞市,莞城梨川,,36,32,19,25,16,12,,64,32,37,25,8,7,0.6,0.5
2025-05-18T2300,1390A,113.7944,23.0128,东莞市,东城石井,,32,32,23,14,12,0,,59,26,35,23,3,3,0.6,0.5
2025-05-18T2300,1391A,113.7383,22.9658,东莞市,南城西平,,41,41,18,19,8,3,,68,23,43,25,1,2,0.8,0.6
2025-05-18T2300,3319A,113.7338,23.0381,东莞市,万江金泰,,28,28,19,18,12,0,,47,18,39,24,6,6,0.9,0.8
2025-05-18T2300,3626A,113.7533,23.0202,东莞市,南城元岭,,29,27,20,20,13,6,,62,31,42,25,4,4,0.8,0.6
2025-05-18T2300,3627A,113.7875,23.0457,东莞市,东城主山,,28,28,19,14,8,12,,60,30,32,23,5,5,0.6,0.5
2025-05-18T2300,1666A,118.6614,37.4309,东营市,市环保局,,41,41,55,12,20,75,,147,119,26,25,16,9,0.5,0.6
2025-05-18T2300,3036A,118.6904,37.4338,东营市,开发区管委会,颗粒物(PM10),58,65,64,17,19,82,,150,121,18,22,15,9,0.5,0.5
2025-05-18T2300,3365A,118.5719,37.565,东营市,垦利区民丰路,,44,44,61,14,20,93,,171,139,24,25,7,8,0.8,0.8
2025-05-18T2300,3498A,118.5055,37.8612,东营市,河口城区,颗粒物(PM10),56,61,61,12,21,89,,165,146,23,23,10,10,1.0,0.9
2025-05-18T2300,3646A,118.4978,37.4623,东营市,胜利站,颗粒物(PM10),53,55,63,17,23,93,,163,132,20,28,10,11,0.7,0.7
2025-05-18T2300,3734A,118.35,37.26,东营市,理想之城,颗粒物(PM10),53,56,61,17,27,85,,163,130,26,29,7,6,0.7,0.6
2025-05-18T2300,1591A,110.0023,39.8129,鄂尔多斯市,综合楼,颗粒物(PM10),101,151,109,53,32,41,,109,88,56,21,11,8,0.3,0.2
2025-05-18T2300,1592A,109.9486,39.8261,鄂尔多斯市,巴音孟克林场办事处,颗粒物(PM10),75,100,97,41,37,90,,112,95,20,17,6,6,0.4,0.4
2025-05-18T2300,1593A,109.7736,39.5986,鄂尔多斯市,康泽苑,颗粒物(PM10),90,129,105,36,40,17,,114,88,56,13,10,9,0.5,0.2
2025-05-18T2300,1594A,109.8119,39.5989,鄂尔多斯市,华泰汽车城,颗粒物(PM10),91,132,108,53,34,41,,109,78,44,18,4,4,0.3,0.2
2025-05-18T2300,1595A,109.9734,39.7884,鄂尔多斯市,奥林花园,颗粒物(PM10),85,119,103,39,29,4,,112,80,23,21,2,2,0,0.3
2025-05-18T2300,2436A,114.8938,30.3994,鄂州市,市政府,细颗粒物(PM2.5),178,210,196,134,80,108,,191,167,35,26,14,10,1.5,0.6
2025-05-18T2300,2437A,114.8989,30.3714,鄂州市,赵家坝,细颗粒物(PM2.5),148,171,186,113,69,103,,174,152,32,23,12,7,1.4,0.8
2025-05-18T2300,3654A,114.8094,30.4089,鄂州市,精准医疗中心,细颗粒物(PM2.5),125,139,153,95,73,102,,171,149,29,21,10,5,1.1,0.6
2025-05-18T2300,2454A,109.4978,30.2981,恩施土家族苗族自治州,湖北民院,颗粒物(PM10),58,65,52,29,24,58,,124,108,13,8,6,6,0.5,0.6
2025-05-18T2300,2455A,109.4707,30.2798,恩施土家族苗族自治州,州电力总公司,颗粒物(PM10),51,51,39,32,21,30,,98,83,23,12,7,7,0.3,0.3
2025-05-18T2300,3549A,109.5061,30.3772,恩施土家族苗族自治州,龙凤新区,,48,48,41,14,22,40,,114,93,8,9,6,6,0.4,0.4
2025-05-18T2300,2499A,108.3411,21.6158,防城港市,沙万,,30,30,23,13,11,3,,29,19,37,13,1,1,0.6,0.5
2025-05-18T2300,2500A,108.3514,21.7731,防城港市,防城档案局,,25,24,20,17,12,9,,31,21,18,8,2,2,0.8,0.5
2025-05-18T2300,2501A,108.3506,21.6414,防城港市,大海花园,,33,33,23,12,8,16,,43,34,24,7,2,2,0.5,0.5
2025-05-18T2300,1371A,113.1294,23.0067,佛山市,湾梁,,34,34,17,11,11,8,,52,31,54,27,7,7,0.6,0.5
2025-05-18T2300,1372A,113.1083,23.0478,佛山市,华材职中,,39,39,16,14,11,0,,47,26,61,26,4,4,0.6,0.4
2025-05-18T2300,1373A,113.144,23.0453,佛山市,南海气象局,,28,28,20,12,12,0,,43,15,43,24,1,1,0.7,0.6
2025-05-18T2300,1374A,113.2881,22.8094,佛山市,顺德苏岗,,33,33,24,7,8,0,,50,20,40,20,6,6,0.7,0.6
2025-05-18T2300,1376A,112.8383,22.8678,佛山市,高明孔堂,,27,27,26,11,12,17,,50,36,12,18,5,6,0.6,0.7
2025-05-18T2300,1377A,112.8836,23.1588,佛山市,三水监测站,,22,22,15,14,14,8,,44,30,41,30,3,4,0.6,0.5
2025-05-18T2300,1378A,112.867,23.185,佛山市,三水云东海,,37,37,32,24,15,12,,63,37,27,30,3,2,0.5,0.5
2025-05-18T2300,3625A,113.2544,22.7642,佛山市,容桂街道办,,25,24,14,17,13,7,,45,21,32,24,5,5,0.9,0.8
2025-05-18T2300,1282A,119.2681,26.0504,福州市,师大,,26,6,24,3,14,82,,98,88,8,10,4,3,0.3,0.3
2025-05-18T2300,1283A,119.2984,26.1028,福州市,五四北路,,24,6,22,3,16,75,,95,84,12,14,3,3,0.4,0.4
2025-05-18T2300,1284A,119.2648,26.0768,福州市,杨桥西路,,26,6,27,3,18,83,,96,86,10,13,3,3,0.3,0.3
2025-05-18T2300,1285A,119.317,26.0746,福州市,紫阳,,26,6,28,3,17,82,,97,88,11,15,3,4,0.1,0.1
2025-05-18T2300,3048A,119.5799,26.0936,福州市,九龙,,27,7,17,3,12,85,,99,99,4,8,3,4,0.3,0.2
2025-05-18T2300,3526A,119.5189,25.9664,福州市,吴航,,27,6,31,3,20,86,,95,94,4,13,4,4,0.3,0.4
2025-05-18T2300,1755A,123.7977,41.8491,抚顺市,望花区,颗粒物(PM10),53,55,42,19,21,74,,103,89,26,25,14,9,0.9,0.8
2025-05-18T2300,1756A,123.9161,41.8822,抚顺市,顺城区,,45,45,35,24,18,28,,95,74,49,24,8,8,0.7,0.6
2025-05-18T2300,1757A,124.0436,41.8611,抚顺市,东洲区,,32,30,35,22,21,42,,96,80,27,16,6,8,0.5,0.5
2025-05-18T2300,1758A,123.9247,41.8642,抚顺市,新抚区,,40,40,38,20,17,27,,88,69,37,16,6,7,0.6,0.5
2025-05-18T2300,1759A,124.0972,41.8961,抚顺市,大伙房水库,,33,,24,23,16,66,,104,93,20,15,8,9,0.7,0.7
2025-05-18T2300,1760A,123.7086,41.8391,抚顺市,沈抚新城,,32,27,35,22,18,82,,99,90,21,22,10,10,0.8,0.7
2025-05-18T2300,2376A,116.2127,28.0814,抚州市,桐源党溪,,31,31,27,11,9,9,,68,47,3,2,5,7,0.5,0.5
2025-05-18T2300,2377A,116.3544,27.9831,抚州市,市站,,21,21,18,11,9,48,,58,57,11,8,3,2,0.5,0.6
2025-05-18T2300,2378A,116.3565,27.963,抚州市,血防站,,29,29,21,19,10,38,,56,53,16,6,3,3,0.5,0.4
2025-05-18T2300,2379A,116.3564,28.0007,抚州市,采茶剧团,,24,24,18,12,7,44,,49,49,5,4,2,3,0.3,0.3
2025-05-18T2300,2380A,116.385,27.9647,抚州市,医学分院,,24,24,18,11,7,40,,58,56,9,5,6,6,0.7,0.5
2025-05-18T2300,2207A,121.6094,41.998,阜新市,工业园区,,37,34,37,17,12,116,,108,108,10,10,13,10,0.4,0.3
2025-05-18T2300,2208A,121.6697,42.0279,阜新市,长青街,,33,17,26,13,10,104,,99,99,17,12,13,9,0.4,0.3
2025-05-18T2300,2210A,121.6717,42.0224,阜新市,东苑,,40,40,35,21,14,114,,105,105,14,12,14,9,0.5,0.4
2025-05-18T2300,2211A,121.6506,42.0498,阜新市,玉龙新城,,33,30,34,13,10,105,,102,102,11,12,9,8,0.2,0.2
2025-05-18T2300,2301A,115.8277,32.8929,阜阳市,市监测站,颗粒物(PM10),90,129,107,66,33,121,,166,158,22,19,9,9,0.8,0.4
2025-05-18T2300,2303A,115.8554,32.8605,阜阳市,开发区,颗粒物(PM10),96,142,134,50,27,129,,174,165,17,16,7,8,0.5,0.3
2025-05-18T2300,2875A,115.784,32.8892,阜阳市,阜阳职业技术学院,颗粒物(PM10),79,107,97,54,30,136,,179,171,16,17,6,7,0.7,0.5
2025-05-18T2300,3468A,115.7901,32.8613,阜阳市,市规划展馆,细颗粒物(PM2.5),112,111,80,84,40,121,,172,161,17,14,8,9,0.7,0.4
2025-05-18T2300,3469A,115.836,32.9183,阜阳市,枣园社区,细颗粒物(PM2.5),104,150,110,78,36,124,,171,163,15,13,6,6,0.6,0.3
2025-05-18T2300,2669A,102.9099,34.9841,甘南藏族自治州,州政府,颗粒物(PM10),60,69,50,28,23,43,,111,94,36,15,6,5,0.4,0.3
2025-05-18T2300,3380A,102.8914,34.9617,甘南藏族自治州,甘肃民族师范学院,颗粒物(PM10),133,216,71,38,26,0,,118,82,83,24,9,8,0.5,0.4
2025-05-18T2300,2570A,101.9603,30.0475,甘孜藏族自治州,水桥子,,25,25,13,15,7,10,,62,37,37,26,4,4,0.4,0.3
2025-05-18T2300,3065A,101.9533,29.9972,甘孜藏族自治州,州环保局,,27,27,17,16,5,42,,78,56,17,24,1,1,0.4,0.3
2025-05-18T2300,3414A,115.8347,28.932,赣江新区,桑海产业园,,31,31,101,12,34,48,,134,98,32,21,7,7,0.3,0.4
2025-05-18T2300,2363A,114.9367,25.8664,赣州市,地委,,19,19,19,8,8,30,,48,43,14,9,9,13,0.5,0.5
2025-05-18T2300,2364A,114.9461,25.8481,赣州市,气象台,,17,17,18,3,6,35,,49,44,10,11,7,9,0.4,0.4
2025-05-18T2300,2365A,114.9322,25.8333,赣州市,市图书馆,,9,9,10,3,8,28,,38,34,8,10,5,4,0.5,0.5
2025-05-18T2300,2366A,114.8905,25.8471,赣州市,华坚鞋城,,21,21,17,10,8,34,,49,46,14,10,5,4,0.2,0.2
2025-05-18T2300,3109A,115.0093,25.8613,赣州市,赣县区卫计委,,9,,15,6,9,27,,41,36,8,9,2,3,0.3,0.6
2025-05-18T2300,2683A,106.2319,36.1417,固原市,马园,颗粒物(PM10),83,115,79,29,43,26,,121,84,57,14,6,6,0.3,0.2
2025-05-18T2300,2684A,106.2792,36.0022,固原市,监测站,颗粒物(PM10),71,91,75,33,32,54,,117,95,30,10,7,6,0.3,0.2
2025-05-18T2300,2685A,106.2375,36.0211,固原市,新区,颗粒物(PM10),60,69,76,24,30,67,,113,85,31,13,8,8,0.2,0.2
2025-05-18T2300,3522A,106.2177,35.9959,固原市,原州区十五小,颗粒物(PM10),60,70,78,28,31,84,,116,103,14,6,8,8,0.3,0.3
2025-05-18T2300,2544A,106.6303,30.4576,广安市,市委,细颗粒物(PM2.5),95,109,87,71,57,115,,157,144,19,13,7,7,0.7,0.6
2025-05-18T2300,2545A,106.6271,30.4663,广安市,友谊中学,细颗粒物(PM2.5),85,109,81,63,51,134,,173,165,22,17,6,6,0.9,0.8
2025-05-18T2300,2547A,106.6388,30.4551,广安市,广电花园,细颗粒物(PM2.5),78,92,87,57,49,123,,159,148,22,17,6,6,0.8,0.7
2025-05-18T2300,2902A,106.6351,30.4865,广安市,北辰小学,细颗粒物(PM2.5),87,112,87,64,52,137,,171,162,19,15,8,8,0.8,0.7
2025-05-18T2300,2523A,105.8945,32.4535,广元市,黑石坡,细颗粒物(PM2.5),88,111,115,65,67,122,,132,124,13,17,5,6,0.6,0.7
2025-05-18T2300,2524A,105.821,32.4444,广元市,老城,细颗粒物(PM2.5),92,116,111,68,68,35,,143,116,67,21,1,2,1.1,1.2
2025-05-18T2300,2526A,105.8628,32.4287,广元市,监测站,细颗粒物(PM2.5),80,80,95,59,73,115,,147,134,10,11,2,4,0.5,0.6
2025-05-18T2300,3617A,105.8047,32.4166,广元市,经开区,细颗粒物(PM2.5),99,112,124,74,92,91,,147,136,41,18,4,8,0.9,1
2025-05-18T2300,1345A,113.2347,23.1423,广州市,广雅中学,,27,10,20,9,12,1,,2,,53,31,8,6,0.3,0.3
2025-05-18T2300,1346A,113.2612,23.105,广州市,市五中,,,23,21,15,12,3,,56,22,48,27,3,2,,0.1
2025-05-18T2300,1348A,113.3478,23.0916,广州市,广东商学院,,28,28,19,15,11,7,,55,20,50,33,5,5,0.8,0.6
2025-05-18T2300,1349A,113.4332,23.1047,广州市,市八十六中,,25,24,22,13,11,0,,38,12,50,42,4,3,0.6,0.5
2025-05-18T2300,1350A,113.3505,22.9483,广州市,番禺中学,,36,36,19,22,14,0,,62,26,57,28,9,5,0.6,0.4
2025-05-18T2300,1351A,113.2146,23.3916,广州市,花都师范,,25,25,19,17,12,21,,60,39,34,26,2,3,0.5,0.7
2025-05-18T2300,1352A,113.2597,23.1331,广州市,市监测站,,32,32,19,16,10,3,,56,25,45,27,5,4,0.6,0.4
2025-05-18T2300,1353A,113.5618,23.312,广州市,九龙镇镇龙,,12,12,16,6,10,23,,64,37,15,19,5,5,0.4,0.4
2025-05-18T2300,1354A,113.2765,23.1544,广州市,麓湖,,30,30,17,18,11,0,,52,20,27,20,4,4,0.7,0.5
2025-05-18T2300,1355A,113.443,23.3035,广州市,帽峰山森林公园,,11,11,9,3,5,23,,58,38,13,16,5,5,0.5,0.5
2025-05-18T2300,2846A,113.3221,23.1322,广州市,体育西,,26,26,20,18,12,1,,56,21,49,32,4,4,0.6,0.5
2025-05-18T2300,3298A,113.5717,23.5491,广州市,从化街口,,,19,17,12,12,0,,31,31,,22,6,6,,0.6
2025-05-18T2300,3299A,113.3472,23.3692,广州市,白云竹料,,30,28,18,21,12,21,,70,43,29,20,2,2,0.5,0.5
2025-05-18T2300,3300A,113.2981,23.237,广州市,白云嘉禾,,25,25,17,15,11,0,,57,25,49,31,6,5,1.0,0.9
2025-05-18T2300,3301A,113.4256,23.1716,广州市,黄埔科学城,,17,17,18,9,11,2,,55,20,29,21,2,3,0.5,0.5
2025-05-18T2300,3302A,113.3942,23.0483,广州市,番禺大学城,,28,20,21,19,12,1,,63,18,56,32,7,5,0.7,0.4
2025-05-18T2300,3303A,113.4922,22.8168,广州市,南沙黄阁,,40,40,20,21,11,4,,56,18,47,19,5,4,0.8,0.6
2025-05-18T2300,3304A,113.5342,22.7896,广州市,南沙街,,38,38,18,20,10,8,,51,17,22,15,1,2,0.6,0.5
2025-05-18T2300,3443A,113.2902,23.5544,广州市,花都梯面,,19,15,16,13,10,26,,51,43,15,17,4,4,0.6,0.6
2025-05-18T2300,3445A,113.7858,23.7478,广州市,从化良口,,15,15,11,3,4,20,,44,38,11,12,6,6,0.6,0.6
2025-05-18T2300,3446A,113.8051,23.2614,广州市,增城荔城,,11,11,20,7,15,33,,60,44,12,15,8,8,1.1,1
2025-05-18T2300,2506A,109.6047,23.0666,贵港市,江南子站,,30,,29,21,18,7,,49,19,28,21,3,5,0.7,0.8
2025-05-18T2300,2508A,109.5669,23.1065,贵港市,荷城子站,,25,18,16,17,12,23,,44,23,20,20,4,6,0.3,0.3
2025-05-18T2300,3405A,109.5886,23.1172,贵港市,新世纪学校,,28,22,21,19,15,13,,39,16,14,16,1,2,0.9,0.8
2025-05-18T2300,4260A,109.5933,23.0951,贵港市,中山路155-3号,,39,31,33,27,21,22,,50,27,20,20,3,5,0.6,0.6
2025-05-18T2300,1439A,106.6899,26.5998,贵阳市,马鞍山,颗粒物(PM10),52,53,41,31,23,30,,80,67,14,11,3,3,0.7,0.7
2025-05-18T2300,1441A,106.6243,26.6266,贵阳市,鉴湖路,颗粒物(PM10),56,61,47,34,28,68,,96,93,31,21,5,5,0.5,0.5
2025-05-18T2300,1442A,106.7487,26.6343,贵阳市,燕子冲,细颗粒物(PM2.5),55,56,45,39,35,49,,110,99,29,15,4,4,0.3,0.4
2025-05-18T2300,1443A,106.6555,26.4365,贵阳市,碧云窝,细颗粒物(PM2.5),62,68,51,44,30,37,,110,94,26,24,3,3,0.4,0.4
2025-05-18T2300,1445A,106.7109,26.6027,贵阳市,红边门,细颗粒物(PM2.5),58,53,47,41,38,51,,112,98,33,10,4,3,0.5,0.3
2025-05-18T2300,1446A,106.7164,26.5699,贵阳市,新华路,颗粒物(PM10),63,75,41,36,32,34,,106,96,52,14,6,8,0.9,0.5
2025-05-18T2300,1447A,106.674,26.5424,贵阳市,太慈桥,,49,48,41,34,26,42,,99,83,22,19,4,4,0.3,0.4
2025-05-18T2300,4230A,106.6882,26.5695,贵阳市,花果园大街66号,"颗粒物(PM10),细颗粒物(PM2.5)",54,58,46,38,38,94,,121,116,24,15,5,4,0.6,0.5
2025-05-18T2300,4231A,106.6873,26.5169,贵阳市,漓江路57号,细颗粒物(PM2.5),58,61,44,41,31,41,,103,91,41,17,3,3,0.6,0.5
2025-05-18T2300,1864A,110.3089,25.2708,桂林市,龙隐路小学,,13,9,8,3,5,39,,58,45,6,5,8,7,0.5,0.5
2025-05-18T2300,1865A,110.2869,25.2178,桂林市,八中,,13,13,8,3,5,27,,52,36,16,12,1,2,0.6,0.6
2025-05-18T2300,3531A,110.296,25.1253,桂林市,旅游学院,,9,7,1,3,1,26,,51,40,13,6,1,1,0.2,0.2
2025-05-18T2300,4222A,110.1835,25.2444,桂林市,环湖路276号,,20,19,9,14,7,24,,47,38,14,7,6,4,0.4,0.4
2025-05-18T2300,4301A,110.2803,25.2773,桂林市,信义路13号,,30,21,9,21,5,30,,57,41,18,9,2,1,0.5,0.4
2025-05-18T2300,2674A,100.2561,34.4714,果洛藏族自治州,玛沁县大武镇,,37,37,32,22,14,98,,128,122,2,4,21,21,0.4,0.4
2025-05-18T2300,1129A,126.5422,45.755,哈尔滨市,岭北,,25,23,20,17,15,66,,91,80,16,8,9,22,0.5,0.8
2025-05-18T2300,1130A,126.561,45.8167,哈尔滨市,松北商大,,22,18,17,15,13,48,,85,72,18,7,5,5,0.5,0.5
2025-05-18T2300,1131A,126.979,45.5419,哈尔滨市,阿城会宁,,43,43,26,27,20,46,,87,74,21,11,8,9,0.5,0.5
2025-05-18T2300,1132A,126.599,45.7222,哈尔滨市,南岗学府路,,43,43,32,24,13,43,,87,74,33,9,5,5,0.5,0.4
2025-05-18T2300,1133A,126.689,45.7733,哈尔滨市,太平宏伟公园,,32,23,28,22,17,58,,89,79,22,9,5,4,0.5,0.5
2025-05-18T2300,1134A,126.635,45.7667,哈尔滨市,道外承德广场,,32,32,27,22,20,46,,82,72,28,12,6,5,0.6,0.6
2025-05-18T2300,1135A,126.685,45.7319,哈尔滨市,香坊红旗大街,,46,46,34,28,18,50,,86,76,28,11,6,5,0.6,0.5
2025-05-18T2300,1136A,126.6411,45.7258,哈尔滨市,动力和平路,,26,26,31,16,21,40,,71,62,35,13,4,4,0.5,0.4
2025-05-18T2300,1137A,126.593,45.7478,哈尔滨市,道里建国路,,29,23,26,20,17,52,,84,72,24,10,3,3,0.7,0.5
2025-05-18T2300,1138A,126.615,45.61,哈尔滨市,平房东轻厂,,23,23,27,13,13,63,,91,78,14,11,8,7,0.3,0.3
2025-05-18T2300,1139A,126.595,45.9855,哈尔滨市,呼兰师专,颗粒物(PM10),78,106,28,22,18,51,,80,70,22,11,5,5,0.6,0.5
2025-05-18T2300,1140A,126.6206,45.6842,哈尔滨市,省农科院,颗粒物(PM10),52,54,44,27,20,12,,77,60,58,14,10,9,0.7,0.6
2025-05-18T2300,2688A,93.5128,42.8172,哈密市,地区监测站,颗粒物(PM10),62,74,50,21,22,72,,119,100,37,20,3,4,0.0,0
2025-05-18T2300,2689A,93.4961,42.8328,哈密市,哈密师范学校,颗粒物(PM10),71,92,44,34,18,59,,115,92,18,9,7,5,0.9,0.4
2025-05-18T2300,2671A,100.9048,36.9639,海北藏族自治州,海晏县西海镇,,32,32,34,14,17,56,,125,104,15,5,8,8,0.4,0.4
2025-05-18T2300,3867A,102.0738,36.5056,海东市,平安区公安北苑,颗粒物(PM10),51,52,42,19,22,80,,134,123,14,9,6,8,0.5,0.7
2025-05-18T2300,1409A,110.576,19.9507,海口市,东寨港,,16,16,15,9,9,30,,45,37,3,3,3,2,0.0,0.1
2025-05-18T2300,1410A,110.3232,20.0574,海口市,海南大学,,16,16,19,8,10,32,,70,49,5,6,3,3,0.4,0.4
2025-05-18T2300,1411A,110.283,20.0053,海口市,秀英海南医院,,23,23,19,10,9,17,,64,46,21,10,4,4,0.4,0.3
2025-05-18T2300,1412A,110.338,19.9969,海口市,海南师范大学,,26,26,21,12,10,31,,62,51,5,6,4,4,0.4,0.4
2025-05-18T2300,1413A,110.33,20.0356,海口市,龙华路环保局宿舍,,24,24,20,10,10,31,,67,50,6,7,4,4,0.3,0.2
2025-05-18T2300,3539A,110.5111,19.9736,海口市,桂林洋子站,,20,20,17,10,8,27,,51,36,9,6,4,4,0.1,0.1
2025-05-18T2300,2673A,100.6188,36.2866,海南藏族自治州,共和县恰卜恰镇,颗粒物(PM10),52,53,50,18,28,72,,140,122,22,9,13,14,0.3,0.3
2025-05-18T2300,2676A,97.3731,37.3753,海西蒙古族藏族自治州,德令哈市,,44,44,34,27,14,69,,131,119,21,4,13,11,0.5,0.4
2025-05-18T2300,1048A,114.5302,36.6116,邯郸市,东污水处理厂,颗粒物(PM10),87,124,77,27,16,110,,142,138,21,16,4,4,0.6,0.4
2025-05-18T2300,1049A,114.4918,36.5713,邯郸市,矿院,颗粒物(PM10),76,102,67,34,21,107,,139,135,20,15,5,6,0.5,0.3
2025-05-18T2300,1050A,114.484,36.6133,邯郸市,丛台公园,颗粒物(PM10),84,118,78,31,22,114,,144,141,19,15,5,5,0.5,0.3
2025-05-18T2300,3458A,114.7895,36.5593,邯郸市,香泉濮院小区,颗粒物(PM10),105,160,110,36,18,117,,143,139,14,11,4,4,0.4,0.3
2025-05-18T2300,3579A,114.50634,36.77178,邯郸市,永年区实验高中,颗粒物(PM10),92,133,92,40,30,123,,143,142,16,13,5,5,0.7,0.5
2025-05-18T2300,3580A,114.20016,36.44293,邯郸市,峰峰矿区临水派出所,颗粒物(PM10),83,115,69,38,20,120,,155,152,20,14,11,9,1.2,0.7
2025-05-18T2300,2634A,106.9893,33.1842,汉中市,汉川机床厂子校,"颗粒物(PM10),细颗粒物(PM2.5)",58,65,69,41,42,85,,154,133,15,13,7,9,0.5,0.6
2025-05-18T2300,2635A,107.0154,33.0706,汉中市,市监测站,颗粒物(PM10),73,95,71,36,37,63,,145,117,22,11,6,9,0.9,0.9
2025-05-18T2300,2636A,107.0089,33.1138,汉中市,鑫源开发区,颗粒物(PM10),67,83,69,46,40,41,,148,109,39,17,6,11,0.7,1
2025-05-18T2300,2637A,107.007,33.0323,汉中市,南郑大河坎水厂,颗粒物(PM10),65,79,67,43,37,56,,139,111,23,14,6,7,0.7,0.6
2025-05-18T2300,1223A,120.2072,30.2111,杭州市,滨江,颗粒物(PM10),64,77,77,36,27,58,,101,72,26,28,6,6,0.5,0.5
2025-05-18T2300,1224A,120.0633,30.2747,杭州市,西溪,颗粒物(PM10),56,61,64,31,24,41,,86,73,16,16,4,4,0.4,0.4
2025-05-18T2300,1226A,120.3417,30.3150,杭州市,下沙,颗粒物(PM10),90,130,96,64,38,20,,96,64,65,32,6,8,0.6,0.5
2025-05-18T2300,1227A,120.1269,30.2456,杭州市,卧龙桥,颗粒物(PM10),61,72,73,34,25,34,,95,66,24,20,6,7,0.3,0.3
2025-05-18T2300,1228A,120.1903,30.2692,杭州市,浙江农大,颗粒物(PM10),60,70,81,39,34,53,,72,60,22,34,8,9,0.5,0.5
2025-05-18T2300,1230A,120.1197,30.3119,杭州市,和睦小学,颗粒物(PM10),64,78,81,31,22,54,,99,76,23,23,8,8,0.5,0.5
2025-05-18T2300,1231A,120.3019,30.4183,杭州市,临平镇,颗粒物(PM10),80,110,98,49,28,25,,100,66,51,28,6,6,0.6,0.6
2025-05-18T2300,1232A,120.2753,30.1839,杭州市,城厢镇,颗粒物(PM10),68,85,72,43,28,39,,93,61,36,29,7,7,0.3,0.3
2025-05-18T2300,3557A,119.9464,30.0494,杭州市,镇二中,颗粒物(PM10),67,84,74,37,27,31,,88,69,32,27,4,4,0.5,0.5
2025-05-18T2300,3558A,119.7183,30.2367,杭州市,市府大楼,颗粒物(PM10),70,90,75,38,28,65,,103,90,22,25,8,8,0.8,0.7
2025-05-18T2300,3656A,120.1556,30.2864,杭州市,消防大队,颗粒物(PM10),64,78,75,34,27,53,,91,68,25,26,4,4,0.8,0.8
2025-05-18T2300,1270A,117.1959,31.7848,合肥市,明珠广场,颗粒物(PM10),85,119,125,56,31,124,,162,155,24,19,7,7,0.7,0.5
2025-05-18T2300,1271A,117.3072,31.8764,合肥市,三里街,颗粒物(PM10),85,119,112,51,30,107,,145,134,28,20,6,7,0.7,0.6
2025-05-18T2300,1272A,117.2588,31.8707,合肥市,琥珀山庄,颗粒物(PM10),82,114,123,51,35,126,,162,154,21,18,5,6,0.8,0.7
2025-05-18T2300,1273A,117.1604,31.9052,合肥市,董铺水库,颗粒物(PM10),81,112,120,44,27,140,,166,161,14,13,2,3,0.6,0.5
2025-05-18T2300,1274A,117.25,31.8571,合肥市,长江中路,颗粒物(PM10),81,112,120,54,36,126,,157,150,16,16,7,8,0.8,0.7
2025-05-18T2300,1275A,117.266,31.9436,合肥市,庐阳区,细颗粒物(PM2.5),178,,120,134,43,129,,158,151,16,16,10,10,0.7,0.5
2025-05-18T2300,1276A,117.3453,31.8616,合肥市,瑶海区,颗粒物(PM10),93,136,131,59,36,83,,140,124,43,24,7,8,0.5,0.5
2025-05-18T2300,1277A,117.3027,31.7964,合肥市,包河区,颗粒物(PM10),81,112,119,56,42,125,,162,156,16,19,8,9,0.7,0.6
2025-05-18T2300,1278A,117.2776,31.7385,合肥市,滨湖新区,颗粒物(PM10),85,119,119,61,40,117,,155,149,19,16,11,11,0.7,0.5
2025-05-18T2300,1279A,117.1318,31.8403,合肥市,高新区,颗粒物(PM10),82,114,112,56,31,136,,161,157,18,19,7,6,0.8,0.5
2025-05-18T2300,3464A,117.3803,31.9147,合肥市,高教基地,颗粒物(PM10),87,124,119,58,35,119,,154,144,19,15,8,8,0.7,0.5
2025-05-18T2300,3614A,79.924,37.0877,和田地区,地区环保局,颗粒物(PM10),150,249,282,79,97,66,,92,86,29,13,1,1,0.8,0.5
2025-05-18T2300,3615A,79.9131,37.113,和田地区,市环保局,颗粒物(PM10),139,228,244,82,70,7,,89,72,70,14,3,3,0.6,0.2
2025-05-18T2300,2517A,108.0497,24.6947,河池市,市环保站,,12,,19,8,9,36,,58,52,10,8,6,7,0.6,0.6
2025-05-18T2300,2518A,108.0983,24.6989,河池市,市疾控中心,,13,,19,9,11,25,,53,45,13,13,3,3,0.7,0.6
2025-05-18T2300,1696A,114.6778,23.7569,河源市,源西,,32,,22,22,27,36,,57,47,14,18,3,4,0.6,0.7
2025-05-18T2300,1697A,114.6944,23.7586,河源市,东埔,,29,,25,20,27,35,,62,49,17,19,5,4,0.6,0.5
2025-05-18T2300,1698A,114.6892,23.7233,河源市,老城,,22,,26,15,29,28,,57,45,19,19,4,4,0.4,0.4
2025-05-18T2300,1718A,115.4208,35.2464,菏泽市,气象局,颗粒物(PM10),102,153,135,35,29,137,,165,159,22,22,6,5,0.4,0.4
2025-05-18T2300,3374A,115.5564,35.0891,菏泽市,定陶老年大学,颗粒物(PM10),87,124,107,39,26,129,,157,150,16,17,4,5,0.6,0.5
2025-05-18T2300,4184A,115.4797,35.24401,菏泽市,永昌路1号,颗粒物(PM10),98,146,119,40,37,125,,159,151,27,19,7,7,0.3,0.3
2025-05-18T2300,4193A,115.4715,35.2800,菏泽市,长城路999号,颗粒物(PM10),95,139,115,39,33,136,,158,154,20,22,9,8,0.2,0.2
2025-05-18T2300,2514A,111.5264,24.4172,贺州市,环保小区,,20,,10,14,8,33,,40,32,10,10,9,7,0.9,0.9
2025-05-18T2300,2515A,111.5608,24.4078,贺州市,政协大楼,,12,,6,8,7,29,,42,33,14,11,11,9,0.7,0.7
2025-05-18T2300,3534A,111.4744,24.4553,贺州市,西湾,,9,,8,6,7,22,,40,25,14,10,6,6,0.6,0.6
2025-05-18T2300,2385A,114.17,35.9019,鹤壁市,市监测站,颗粒物(PM10),89,127,101,46,29,120,,166,157,21,14,9,5,0.8,0.5
2025-05-18T2300,2386A,114.2956,35.7511,鹤壁市,市交警支队,颗粒物(PM10),86,122,80,40,27,112,,161,149,27,20,4,2,0.7,0.4
2025-05-18T2300,2387A,114.2878,35.7306,鹤壁市,迎宾馆,颗粒物(PM10),104,157,109,40,25,111,,162,150,29,21,12,5,0.6,0.4
2025-05-18T2300,3474A,114.2617,35.6822,鹤壁市,大新区,颗粒物(PM10),78,105,73,56,33,84,,162,138,32,27,14,10,0.6,0.4
2025-05-18T2300,3596A,114.1572,35.9603,鹤壁市,南山宾馆,颗粒物(PM10),127,203,124,53,37,114,,170,160,24,14,8,7,0.6,0.4
2025-05-18T2300,2244A,130.2537,47.3416,鹤岗市,哈啤分公司,细颗粒物(PM2.5),55,,16,39,18,76,,87,85,7,4,13,14,0.3,0.2
2025-05-18T2300,2245A,130.2684,47.3086,鹤岗市,斯达机电,细颗粒物(PM2.5),57,45,28,40,21,76,,83,81,8,8,13,14,0.4,0.3
2025-05-18T2300,2246A,130.3114,47.3388,鹤岗市,东山纸板厂,颗粒物(PM10),51,51,29,29,11,71,,80,78,9,6,14,14,0.3,0.4
2025-05-18T2300,2263A,127.4833,50.2524,黑河市,交通局,,25,,12,17,11,45,,61,54,6,5,10,7,0.4,0.4
2025-05-18T2300,2264A,127.5144,50.2341,黑河市,环保局,,23,,11,16,11,57,,67,61,6,4,6,3,0.3,0.2
2025-05-18T2300,2265A,127.5291,50.2472,黑河市,大黑河岛,,22,6,8,3,4,69,,64,63,3,4,3,2,0.2,0.2
2025-05-18T2300,1074A,115.6838,37.7541,衡水市,电机北厂,颗粒物(PM10),87,123,82,30,28,115,,162,148,17,12,12,9,0.5,0.4
2025-05-18T2300,1075A,115.6303,37.7316,衡水市,市监测站,颗粒物(PM10),86,121,88,32,28,110,,159,145,18,12,14,12,0.5,0.4
2025-05-18T2300,3188A,115.6683,37.7217,衡水市,市城管局,颗粒物(PM10),84,118,88,34,27,112,,164,148,19,12,8,6,0.5,0.4
2025-05-18T2300,3459A,115.5989,37.5491,衡水市,地表水厂,颗粒物(PM10),90,129,104,30,30,98,,154,131,25,23,9,8,0.4,0.4
2025-05-18T2300,2456A,112.5003,26.9167,衡阳市,原169医院,,22,15,20,15,12,60,,92,79,5,7,3,4,0.6,0.5
2025-05-18T2300,2457A,112.6194,26.9258,衡阳市,衡阳化工总厂,,33,33,28,18,16,42,,89,71,14,8,8,6,0.9,0.5
2025-05-18T2300,2458A,112.6211,26.8956,衡阳市,珠晖区环保局,,,22,26,,,54,,98,81,8,11,7,7,0.9,0.7
2025-05-18T2300,2459A,112.6197,26.8733,衡阳市,市委党校,,23,23,29,15,11,37,,94,71,12,7,6,5,0.6,0.6
2025-05-18T2300,2460A,112.6006,26.8919,衡阳市,市监测站,,33,33,24,12,17,39,,88,69,16,9,10,9,0.8,0.5
2025-05-18T2300,2461A,112.5664,26.9056,衡阳市,真空机电公司,,21,21,22,14,12,58,,86,71,3,4,5,5,0.6,0.6
2025-05-18T2300,3399A,112.6703,26.882,衡阳市,师范学院,,33,32,26,23,16,45,,97,80,10,8,8,6,0.2,0.6
2025-05-18T2300,2608A,103.3772,23.3993,红河哈尼族彝族自治州,污水处理厂,,45,32,23,31,14,55,,72,65,12,8,19,8,0.7,0.5
2025-05-18T2300,2609A,103.3861,23.35,红河哈尼族彝族自治州,监测站,,45,39,22,31,16,34,,66,55,17,7,16,11,0.4,0.2
2025-05-18T2300,3038A,103.3758,23.368,红河哈尼族彝族自治州,州图书馆,,38,36,19,26,18,45,,76,66,9,5,21,8,0.4,0.3
2025-05-18T2300,1090A,111.6507,40.7517,呼和浩特市,呼市一监,,28,19,57,16,23,87,,107,98,2,10,7,8,0.3,0.4
2025-05-18T2300,1091A,111.6572,40.8033,呼和浩特市,小召,,27,24,52,8,14,85,,105,98,15,20,6,7,0.5,0.5
2025-05-18T2300,1094A,111.7516,40.8369,呼和浩特市,如意水处理厂,,27,26,44,9,17,85,,99,94,6,18,5,6,0.3,0.3
2025-05-18T2300,1095A,111.7276,40.8062,呼和浩特市,二十九中,,28,27,47,12,19,87,,104,98,4,13,4,6,0.5,0.5
2025-05-18T2300,1096A,111.5512,40.7866,呼和浩特市,工大金川校区,,27,26,46,10,18,84,,108,96,11,20,5,8,0.5,0.5
2025-05-18T2300,1097A,111.717,40.7612,呼和浩特市,化肥厂生活区,,29,28,55,10,22,91,,108,101,10,18,5,6,0.3,0.3
2025-05-18T2300,3698A,111.5968,40.8178,呼和浩特市,红旗小学,,26,24,55,8,20,83,,111,102,16,18,3,5,0.4,0.5
2025-05-18T2300,3699A,111.6518,40.8389,呼和浩特市,海东办,,24,19,48,10,18,74,,100,92,12,17,7,8,0.4,0.5
2025-05-18T2300,2192A,119.7594,49.2261,呼伦贝尔市,区环保局,,49,39,52,34,49,58,,80,71,12,9,6,6,0.3,0.3
2025-05-18T2300,3061A,119.7512,49.1577,呼伦贝尔市,国华电力东,,38,37,52,26,39,54,,81,70,6,6,3,3,0.3,0.4
2025-05-18T2300,1250A,120.0751,30.8669,湖州市,城西水厂,颗粒物(PM10),97,144,103,60,29,62,,119,100,33,18,7,6,0.6,0.4
2025-05-18T2300,2873A,120.0830,30.8929,湖州市,仁皇山新区,颗粒物(PM10),93,136,102,65,31,64,,99,86,38,21,5,5,0.7,0.6
2025-05-18T2300,2907A,120.1844,30.8596,湖州市,吴兴区站,颗粒物(PM10),79,108,88,52,29,53,,106,86,32,18,7,7,0.5,0.4
2025-05-18T2300,3562A,120.4148,30.8538,湖州市,南浔区站,颗粒物(PM10),82,114,89,44,24,62,,114,95,25,18,4,5,0.5,0.5
2025-05-18T2300,1607A,120.9049,40.7211,葫芦岛市,龙港区,,44,28,38,21,19,138,,133,133,10,22,9,9,0.5,0.4
2025-05-18T2300,1608A,120.8392,40.7514,葫芦岛市,化工街,颗粒物(PM10),51,51,32,34,15,122,,131,131,25,27,10,9,0.5,0.4
2025-05-18T2300,1609A,120.8341,40.7073,葫芦岛市,新区,,41,33,25,27,17,131,,134,134,16,22,7,7,0.5,0.4
2025-05-18T2300,1610A,120.8695,40.7677,葫芦岛市,东城区,细颗粒物(PM2.5),64,49,35,46,24,122,,124,124,25,27,5,8,0.7,0.5
2025-05-18T2300,2482A,109.5981,27.5721,怀化市,林科所,,42,42,34,26,15,25,,58,44,12,8,4,4,0.6,0.6
2025-05-18T2300,2483A,109.9453,27.5444,怀化市,河西地税局,颗粒物(PM10),51,52,37,28,25,4,,65,42,24,13,3,3,0.6,0.5
2025-05-18T2300,2484A,109.9781,27.5342,怀化市,市四医院,颗粒物(PM10),52,53,36,30,26,17,,76,56,25,8,3,2,1.0,0.9
2025-05-18T2300,2485A,109.9972,27.5578,怀化市,监测楼,,47,47,36,29,25,27,,77,59,23,13,1,2,0.4,0.3
2025-05-18T2300,2486A,110.0394,27.583,怀化市,市委党校,,39,38,35,27,24,20,,73,55,15,8,3,4,0.7,0.6
2025-05-18T2300,1210A,119.036,33.5981,淮安市,钵池山,颗粒物(PM10),69,88,53,32,20,100,,144,139,29,12,11,9,1.5,1.2
2025-05-18T2300,1211A,119.007,33.575,淮安市,北京南路,颗粒物(PM10),79,107,59,34,19,100,,153,148,36,12,11,9,1.4,0.9
2025-05-18T2300,1212A,118.989,33.6067,淮安市,市监测站,颗粒物(PM10),74,97,53,44,23,101,,141,138,31,14,12,10,1.1,0.6
2025-05-18T2300,1213A,119.135,33.5039,淮安市,楚州区监测站,颗粒物(PM10),75,100,63,31,21,89,,132,124,28,13,8,8,0.8,0.5
2025-05-18T2300,3426A,118.8755,33.2894,淮安市,新华书店,颗粒物(PM10),80,110,73,43,25,96,,146,136,28,15,9,9,0.7,0.6
2025-05-18T2300,4206A,119.0288,33.6319,淮安市,承德北路606号,颗粒物(PM10),80,110,63,31,21,99,,143,140,32,14,10,8,0.6,0.4
2025-05-18T2300,2282A,116.8004,33.975,淮北市,监测站,颗粒物(PM10),101,152,92,42,23,137,,163,160,24,16,8,7,0.9,0.6
2025-05-18T2300,2283A,116.8091,33.9007,淮北市,烈山区政府,颗粒物(PM10),91,131,103,43,29,121,,148,144,21,16,10,6,0.9,0.6
2025-05-18T2300,3330A,116.8873,33.9836,淮北市,杜集区检察院,颗粒物(PM10),101,152,105,49,29,131,,156,152,20,16,10,8,0.9,0.7
2025-05-18T2300,4017A,116.7923,33.9535,淮北市,市博物馆,颗粒物(PM10),86,121,86,45,30,132,,163,159,21,15,9,7,0.9,0.6
2025-05-18T2300,2277A,116.8305,32.7727,淮南市,潘集区政府,颗粒物(PM10),90,129,115,58,39,119,,158,151,18,18,5,6,0.7,0.4
2025-05-18T2300,2279A,116.8569,32.5951,淮南市,谢家集区政府,颗粒物(PM10),83,116,105,55,30,107,,156,148,26,18,6,6,0.5,0.3
2025-05-18T2300,2280A,116.8281,32.633,淮南市,八公山区政府,颗粒物(PM10),92,134,122,55,30,116,,159,153,15,13,5,7,0.6,0.4
2025-05-18T2300,2894A,117.0566,32.6531,淮南市,经济技术开发区消防队,细颗粒物(PM2.5),107,140,111,80,40,101,,147,138,24,16,8,7,0.7,0.4
2025-05-18T2300,3329A,117.0108,32.5893,淮南市,山南新区,细颗粒物(PM2.5),124,175,142,94,35,113,,163,154,24,15,10,9,0.8,0.5
2025-05-18T2300,4209A,117.0031,32.6445,淮南市,国庆中路369号,颗粒物(PM10),97,143,114,41,33,107,,141,135,17,12,14,11,0.5,0.4
2025-05-18T2300,2929A,114.8858,30.4519,黄冈市,红卫路,细颗粒物(PM2.5),152,177,158,116,63,122,,187,160,19,11,15,9,1.2,0.7
2025-05-18T2300,3398A,114.9136,30.4445,黄冈市,市林业局,细颗粒物(PM2.5),140,174,166,107,60,125,,185,158,19,13,16,11,1.3,1
2025-05-18T2300,2672A,102.0199,35.5102,黄南藏族自治州,同仁县隆务镇,,36,36,38,9,16,84,,115,106,2,2,3,3,0.1,0.1
2025-05-18T2300,2295A,118.2903,29.6963,黄山市,延安路89号,,42,42,39,24,21,28,,76,66,16,10,5,5,0.6,0.6
2025-05-18T2300,2297A,118.1371,30.2756,黄山市,黄山区政府5号楼,,35,35,76,24,28,51,,98,78,7,7,3,4,0.4,0.4
2025-05-18T2300,4210A,118.3354,29.7203,黄山市,滨江东路7-2号,,45,42,49,31,30,60,,76,71,5,8,4,4,0.3,0.4
2025-05-18T2300,2423A,115.0601,30.2313,黄石市,沈家营,细颗粒物(PM2.5),155,185,140,118,60,97,,164,140,43,24,18,9,1.3,0.9
2025-05-18T2300,2426A,114.8988,30.2019,黄石市,铁山,细颗粒物(PM2.5),160,172,124,122,63,105,,164,146,31,18,18,15,0.4,0.3
2025-05-18T2300,2427A,115.0307,30.2092,黄石市,团城山,细颗粒物(PM2.5),139,182,136,106,53,112,,149,136,24,21,16,10,1.0,0.6
2025-05-18T2300,3149A,115.0235,30.1578,黄石市,笔架山北路,细颗粒物(PM2.5),178,167,110,134,56,115,,174,154,17,8,16,9,1.4,0.8
2025-05-18T2300,4185A,115.0780,30.21118,黄石市,磁湖东路29号,细颗粒物(PM2.5),153,187,149,117,62,124,,166,147,32,29,18,11,1.1,0.8
2025-05-18T2300,1392A,114.4183,23.0528,惠州市,河南岸金山湖子站,,13,13,24,8,16,41,,75,54,15,20,8,8,0.3,0.3
2025-05-18T2300,1393A,114.4053,23.0822,惠州市,下埔横江三路子站,,20,20,27,13,17,40,,84,58,18,19,5,5,0.3,0.4
2025-05-18T2300,1394A,114.4103,23.1142,惠州市,江北云山西路子站,,24,24,27,16,17,32,,87,56,24,21,8,7,0.6,0.6
2025-05-18T2300,1395A,114.4645,22.7833,惠州市,惠阳区承修路船湖子站,,27,27,24,12,12,28,,67,52,25,16,8,8,0.6,0.5
2025-05-18T2300,1396A,114.5317,22.7422,惠州市,大亚湾管委会子站,,19,19,14,8,7,12,,64,44,37,16,8,8,0.6,0.5
2025-05-18T2300,3314A,114.4338,22.8134,惠州市,惠阳秋长,,19,19,21,8,10,46,,80,66,15,17,11,12,0.4,0.4
2025-05-18T2300,3452A,114.6517,22.775,惠州市,大亚湾霞涌,,12,,15,3,6,38,,58,51,15,13,5,6,0.6,0.5
2025-05-18T2300,2240A,130.9762,45.3001,鸡西市,环保局,,24,18,16,13,8,75,,86,80,8,7,5,5,0.4,0.4
2025-05-18T2300,2243A,130.9429,45.3039,鸡西市,第一中学,,22,17,14,15,8,69,,84,78,5,3,6,6,0.3,0.3
2025-05-18T2300,3707A,131.0207,45.3073,鸡西市,欧美日汽修厂,,24,13,28,7,6,74,,80,73,4,8,4,4,0.3,0.4
2025-05-18T2300,3709A,130.9967,45.3106,鸡西市,市政设施管理处,,28,28,22,15,10,64,,82,70,9,5,4,4,0.4,0.4
2025-05-18T2300,2367A,114.9754,27.0803,吉安市,红声器材厂,,19,14,22,3,10,60,,66,56,7,8,10,11,0.4,0.5
2025-05-18T2300,2368A,114.9658,27.0999,吉安市,市森林工业局,,17,9,19,3,11,54,,69,60,7,6,8,8,0.4,0.5
2025-05-18T2300,2369A,114.99,27.1312,吉安市,市环境监测站,,16,12,21,11,10,50,,72,62,6,5,10,11,0.5,0.6
2025-05-18T2300,2370A,115.0093,27.0968,吉安市,青原区法院,,18,13,20,10,13,55,,71,61,10,9,11,11,0.4,0.4
2025-05-18T2300,1772A,126.54,43.8622,吉林市,哈达湾,,22,22,32,11,20,68,,79,75,11,8,6,5,0.2,0.3
2025-05-18T2300,1773A,126.5844,43.8358,吉林市,东局子,,25,18,27,10,24,78,,87,81,10,9,6,6,0.3,0.4
2025-05-18T2300,1774A,126.5052,43.8245,吉林市,电力学院,,26,26,28,18,21,67,,86,77,11,8,4,4,0.3,0.4
2025-05-18T2300,1775A,126.6133,43.8972,吉林市,江北,,25,21,28,12,17,79,,89,83,8,9,6,6,0.2,0.3
2025-05-18T2300,1776A,126.555,43.8306,吉林市,江南公园,,26,16,28,9,21,82,,86,82,7,7,5,5,0.2,0.3
2025-05-18T2300,2868A,126.4739,43.953,吉林市,九站,,29,,36,15,21,91,,90,89,5,7,7,6,0.2,0.3
2025-05-18T2300,1299A,116.9862,36.6114,济南市,科干所,颗粒物(PM10),81,112,70,27,24,164,,166,166,11,15,6,5,0.3,0.3
2025-05-18T2300,1300A,116.9376,36.665,济南市,农科所,颗粒物(PM10),80,110,88,22,22,148,,157,156,15,19,8,8,0.3,0.3
2025-05-18T2300,1301A,117.1265,36.6734,济南市,开发区,颗粒物(PM10),80,110,76,27,26,159,,162,162,8,11,9,8,0.6,0.6
2025-05-18T2300,1303A,117.0624,36.6868,济南市,省种子仓库,颗粒物(PM10),96,141,92,39,27,163,,165,165,9,17,6,5,0.5,0.4
2025-05-18T2300,1304A,116.9489,36.6447,济南市,机床二厂,颗粒物(PM10),90,129,101,32,28,142,,156,154,12,20,9,9,0.5,0.4
2025-05-18T2300,1305A,117.0495,36.663,济南市,市监测站,颗粒物(PM10),86,122,79,27,23,157,,157,157,13,18,10,9,0.5,0.4
2025-05-18T2300,1306A,116.7675,36.5484,济南市,长清党校,颗粒物(PM10),78,105,78,32,27,152,,166,163,11,19,7,7,0.8,0.8
2025-05-18T2300,1616A,117.6795,36.229,济南市,技术学院,颗粒物(PM10),69,88,68,29,26,119,,146,142,26,24,13,12,0.5,0.5
2025-05-18T2300,1961A,117.532,36.6868,济南市,东山小学,颗粒物(PM10),85,120,85,27,25,135,,156,153,11,12,5,6,0.4,0.4
2025-05-18T2300,3059A,117.7161,36.2049,济南市,泰兴公司,颗粒物(PM10),64,78,64,24,25,96,,148,133,36,25,9,7,0.3,0.2
2025-05-18T2300,3064A,117.6867,36.2171,济南市,莱芜战役纪念馆,颗粒物(PM10),65,80,64,22,20,121,,150,145,27,24,9,8,0.7,0.7
2025-05-18T2300,3494A,117.1673,36.9782,济南市,济阳区政府,,,125,99,,31,136,,162,156,26,32,10,8,0.4,0.4
2025-05-18T2300,3495A,117.1171,36.63,济南市,锦屏中学,颗粒物(PM10),79,107,77,20,24,156,,160,160,11,13,9,9,0.4,0.4
2025-05-18T2300,3682A,116.9814,36.6819,济南市,济南四建,颗粒物(PM10),82,114,86,27,29,160,,168,168,12,16,6,7,0.4,0.4
2025-05-18T2300,1653A,116.6251,35.4302,济宁市,火炬城,颗粒物(PM10),64,78,66,31,27,103,,144,131,10,9,6,8,0.4,0.3
2025-05-18T2300,1655A,116.5491,35.4042,济宁市,电化厂,颗粒物(PM10),66,82,42,24,28,108,,142,132,8,8,4,4,0.6,0.5
2025-05-18T2300,3500A,116.5814,35.3707,济宁市,北湖一中,颗粒物(PM10),60,69,57,33,32,113,,152,140,11,11,5,5,0.4,0.3
2025-05-18T2300,3501A,116.8249,35.5593,济宁市,服务中心,颗粒物(PM10),76,102,82,19,25,112,,143,132,15,21,2,3,0.3,0.3
2025-05-18T2300,3678A,116.5907,35.4054,济宁市,市第七中学,颗粒物(PM10),56,62,69,22,22,105,,140,128,10,10,8,8,0.4,0.4
2025-05-18T2300,2255A,130.2751,46.8028,佳木斯市,佳纺,,39,39,18,25,8,79,,79,74,6,5,2,2,0.3,0.2
2025-05-18T2300,2256A,130.3995,46.8307,佳木斯市,发电厂,,36,32,17,25,8,82,,81,77,6,5,3,3,0.2,0.1
2025-05-18T2300,2257A,130.3258,46.7975,佳木斯市,环保局,,33,32,16,23,7,78,,79,75,6,6,4,4,0.3,0.3
2025-05-18T2300,2258A,130.3648,46.8032,佳木斯市,十一中,,38,35,18,26,9,79,,79,75,10,9,2,2,0.4,0.3
2025-05-18T2300,2259A,130.3794,46.7588,佳木斯市,四丰,,,26,9,16,6,,,,,5,5,1,1,0.3,0.3
2025-05-18T2300,1252A,120.7436,30.778,嘉兴市,清河小学,颗粒物(PM10),80,110,89,30,22,61,,101,90,23,18,6,6,0.7,0.6
2025-05-18T2300,1253A,120.726,30.7478,嘉兴市,嘉兴学院,颗粒物(PM10),78,105,75,49,24,60,,100,88,17,13,5,6,0.4,0.2
2025-05-18T2300,2872A,120.7846,30.7525,嘉兴市,南湖区残联,颗粒物(PM10),86,122,90,52,27,66,,105,94,16,12,6,7,0.7,0.6
2025-05-18T2300,3407A,120.6916,30.7739,嘉兴市,秀洲住建,颗粒物(PM10),95,140,99,34,28,63,,111,101,17,12,7,7,0.7,0.7
2025-05-18T2300,1945A,98.2908,39.7711,嘉峪关市,气象局,,35,31,44,12,22,111,,129,124,18,9,6,12,0.4,0.4
2025-05-18T2300,2884A,98.2672,39.7978,嘉峪关市,酒钢宾馆,,,31,50,12,19,,,129,129,14,7,12,12,0.6,0.6
2025-05-18T2300,3248A,98.2643,39.7724,嘉峪关市,雄关区,,35,33,44,14,18,112,,127,123,18,13,10,10,0.3,0.3
2025-05-18T2300,1383A,113.1064,22.6058,江门市,北街,,22,22,19,12,10,7,,38,20,14,9,5,5,0.4,0.3
2025-05-18T2300,1384A,113.0731,22.5835,江门市,西区,,21,21,17,11,8,7,,45,26,24,14,6,6,0.6,0.4
2025-05-18T2300,1385A,113.0219,22.5311,江门市,圭峰西,,19,19,23,13,11,15,,39,22,6,8,3,4,0.4,0.4
2025-05-18T2300,1386A,113.0828,22.5947,江门市,东湖,,22,22,17,13,10,12,,46,25,17,12,8,8,0.6,0.5
2025-05-18T2300,3311A,113.1075,22.5647,江门市,江海富民,,35,35,28,17,14,16,,50,28,16,10,8,8,0.3,0.3
2025-05-18T2300,3449A,113.05,22.4667,江门市,新会银湖,,26,19,20,18,11,0,,38,14,17,12,1,2,0.4,0.3
2025-05-18T2300,3169A,113.2725,35.2067,焦作市,太极体育中心,颗粒物(PM10),88,126,117,39,31,141,,168,164,18,17,9,10,0.4,0.3
2025-05-18T2300,3335A,113.3137,35.2641,焦作市,马村街道办,颗粒物(PM10),100,149,104,54,47,147,,185,177,24,19,12,12,1.0,0.6
2025-05-18T2300,3336A,113.2465,35.2373,焦作市,焦作技师学院,颗粒物(PM10),92,134,96,53,35,138,,176,172,16,13,10,8,1.0,0.8
2025-05-18T2300,3477A,113.1656,35.2539,焦作市,中站许衡医院,,,147,97,43,25,,,189,,54,23,11,9,0.6,0.5
2025-05-18T2300,3981A,113.2449,35.1803,焦作市,原李万街道办,颗粒物(PM10),100,150,103,44,34,150,,181,177,19,16,18,17,0.6,0.6
2025-05-18T2300,4264A,113.2340,35.2190,焦作市,新安路1731号,颗粒物(PM10),102,154,100,48,30,136,,167,163,20,17,11,9,0.8,0.6
2025-05-18T2300,1708A,116.3701,23.5345,揭阳市,新兴,,18,,27,12,18,36,,70,49,2,10,4,6,0.4,0.4
2025-05-18T2300,1709A,116.3264,23.5443,揭阳市,西马,,17,17,31,6,14,36,,66,44,8,13,5,7,0.5,0.5
2025-05-18T2300,1710A,116.3611,23.5626,揭阳市,东兴,,19,,24,13,14,41,,76,55,3,7,3,4,0.6,0.6
2025-05-18T2300,1711A,116.4151,23.5294,揭阳市,渔湖,,16,14,36,11,12,40,,73,55,12,17,3,5,0.5,0.5
2025-05-18T2300,3320A,116.403,23.5699,揭阳市,曲溪,,,,22,15,13,,,82,65,10,15,4,5,0.4,0.4
2025-05-18T2300,1944A,102.1692,38.5167,金昌市,天庆家园,,36,36,59,15,23,85,,123,111,14,5,7,7,0.8,0.6
2025-05-18T2300,4022A,102.1647,38.5371,金昌市,金川区人防中心,,43,43,64,10,22,81,,126,113,9,5,5,5,0.6,0.5
2025-05-18T2300,4239A,102.1930,38.5319,金昌市,长春路96号,颗粒物(PM10),52,54,69,17,24,76,,122,112,18,5,21,16,1.1,0.5
2025-05-18T2300,1262A,119.647,29.077,金华市,十五中,颗粒物(PM10),66,82,54,39,23,30,,82,56,48,27,2,2,0.7,0.5
2025-05-18T2300,1263A,119.686,29.1029,金华市,监测站,"颗粒物(PM10),细颗粒物(PM2.5)",63,76,55,45,33,1,,76,40,67,33,2,2,0.7,0.6
2025-05-18T2300,3659A,119.656,29.1131,金华市,气象局,颗粒物(PM10),68,85,58,41,26,5,,61,32,69,34,2,2,0.7,0.7
2025-05-18T2300,1767A,121.1115,41.0879,锦州市,南山,细颗粒物(PM2.5),80,,26,59,21,128,,112,112,20,16,13,10,0.8,0.6
2025-05-18T2300,1768A,121.0604,40.8428,锦州市,开发区,细颗粒物(PM2.5),54,38,48,38,20,122,,113,113,29,34,26,9,0.8,0.6
2025-05-18T2300,1769A,121.1836,41.1119,锦州市,百股街道,"颗粒物(PM10),细颗粒物(PM2.5)",52,53,31,36,13,138,,116,116,18,14,14,10,0.6,0.5
2025-05-18T2300,1770A,121.1178,41.1222,锦州市,天安街道,颗粒物(PM10),57,63,32,38,18,125,,112,112,22,14,12,9,0.6,0.4
2025-05-18T2300,1771A,121.1303,41.1386,锦州市,北湖公园,细颗粒物(PM2.5),72,66,30,52,16,130,,117,117,24,14,12,10,0.8,0.5
2025-05-18T2300,2160A,112.85,35.5051,晋城市,自来水公司,颗粒物(PM10),71,92,81,22,17,55,,154,124,44,13,7,8,0.3,0.1
2025-05-18T2300,2161A,112.8318,35.4936,晋城市,白云商贸,颗粒物(PM10),80,109,90,19,20,51,,152,118,48,19,6,7,0.7,0.5
2025-05-18T2300,2162A,112.8508,35.4887,晋城市,市环保局,颗粒物(PM10),78,106,89,31,21,42,,145,115,60,15,5,5,0.9,0.3
2025-05-18T2300,2163A,112.8676,35.4897,晋城市,技术学院,颗粒物(PM10),82,113,82,44,19,43,,148,117,76,19,9,8,0.9,0.6
2025-05-18T2300,3620A,112.8271,35.4828,晋城市,泽州一中,颗粒物(PM10),71,92,88,17,19,59,,160,135,40,15,7,8,0.5,0.3
2025-05-18T2300,2173A,112.7249,37.7067,晋中市,南都小区,颗粒物(PM10),62,73,65,19,15,53,,131,106,45,21,9,12,0.4,0.4
2025-05-18T2300,2174A,112.6991,37.6982,晋中市,榆次区政府,颗粒物(PM10),73,95,71,10,9,52,,134,107,41,21,11,12,0.3,0.4
2025-05-18T2300,2865A,112.7195,37.6828,晋中市,榆次三中,颗粒物(PM10),69,88,75,29,19,63,,133,107,34,23,9,10,0.5,0.5
2025-05-18T2300,4200A,112.7478,37.6954,晋中市,迎宾街26号,颗粒物(PM10),58,66,70,9,12,71,,130,107,25,21,17,11,0.8,0.5
2025-05-18T2300,2439A,112.2014,31.0481,荆门市,竹园小学,颗粒物(PM10),151,252,215,89,64,147,,181,172,19,20,6,8,0.5,0.4
2025-05-18T2300,2440A,112.1969,30.9891,荆门市,掇刀,颗粒物(PM10),163,275,237,82,65,156,,181,174,16,15,8,22,0.6,0.5
2025-05-18T2300,2441A,112.2213,31.0386,荆门市,石化一小,颗粒物(PM10),157,264,242,86,75,136,,172,159,23,24,8,9,0.5,0.5
2025-05-18T2300,3012A,112.1849,31.0362,荆门市,西山林语,颗粒物(PM10),129,207,200,83,62,134,,165,156,16,12,10,11,0.5,0.5
2025-05-18T2300,3547A,112.1632,31.0138,荆门市,龙泉中学南校,颗粒物(PM10),149,247,224,73,69,119,,163,152,20,13,7,8,0.7,0.6
2025-05-18T2300,1844A,112.2494,30.3197,荆州市,市图书馆,颗粒物(PM10),142,234,238,81,82,104,,190,166,37,28,9,7,0.7,0.5
2025-05-18T2300,1845A,112.2008,30.3544,荆州市,市委党校,颗粒物(PM10),145,239,238,91,80,105,,161,143,27,22,9,9,0.5,0.5
2025-05-18T2300,3194A,112.2747,30.3122,荆州市,管委会,颗粒物(PM10),142,234,219,90,84,103,,189,164,29,25,12,11,1.0,0.8
2025-05-18T2300,4268A,112.1722,30.3366,荆州市,学苑路85号,颗粒物(PM10),128,205,202,76,78,79,,168,138,41,14,6,5,0.8,0.7
2025-05-18T2300,2343A,117.2117,29.2933,景德镇市,老干部活动中心,,24,20,36,9,18,75,,92,85,14,15,6,8,0.3,0.5
2025-05-18T2300,2344A,117.1894,29.2789,景德镇市,兽医站,,34,34,47,10,24,79,,87,81,9,13,3,3,0.5,0.6
2025-05-18T2300,2345A,117.1547,29.2617,景德镇市,台达陶瓷,,28,28,48,11,30,83,,92,81,6,20,5,35,0.1,0.4
2025-05-18T2300,2346A,117.2461,29.2956,景德镇市,陶研所,,25,19,34,16,23,80,,89,86,6,11,2,6,0.2,0.4
2025-05-18T2300,1803A,115.9872,29.6815,九江市,十里,颗粒物(PM10),66,82,140,47,52,76,,177,142,21,17,2,4,0.5,0.7
2025-05-18T2300,1804A,115.9584,29.7046,九江市,茅山头,颗粒物(PM10),72,93,161,35,46,83,,179,150,19,19,4,6,0.7,0.7
2025-05-18T2300,1805A,115.9877,29.7295,九江市,西园,颗粒物(PM10),64,78,132,38,46,80,,176,140,43,40,6,11,0.9,0.9
2025-05-18T2300,1808A,115.9114,29.6038,九江市,综合工业园,颗粒物(PM10),67,84,158,34,51,75,,170,142,20,30,7,9,0.9,0.9
2025-05-18T2300,1809A,116.0721,29.7535,九江市,石化总厂,细颗粒物(PM2.5),69,80,155,50,55,81,,160,130,14,22,6,6,0.7,0.8
2025-05-18T2300,1810A,115.9773,29.5698,九江市,庐山气象台,,32,29,44,18,27,101,,114,111,4,7,11,8,0.7,0.7
2025-05-18T2300,3190A,116.0254,29.6994,九江市,外国语学校,颗粒物(PM10),60,70,162,36,46,72,,165,137,21,23,6,8,0.9,0.9
2025-05-18T2300,4253A,116.0102,29.6594,九江市,莲花大道8号,颗粒物(PM10),85,119,137,50,45,58,,159,126,14,11,5,7,0.8,0.8
2025-05-18T2300,4240A,98.4958,39.7339,酒泉市,玉门东路5号,颗粒物(PM10),64,78,69,39,32,64,,124,110,36,7,8,10,0.4,0.3
2025-05-18T2300,4241A,98.5099,39.7506,酒泉市,北大街108号,颗粒物(PM10),56,61,62,24,22,67,,120,108,36,12,10,13,0.5,0.3
2025-05-18T2300,2698A,76.0072,39.4467,喀什地区,巡警大队,颗粒物(PM10),89,128,105,25,26,100,,126,116,20,18,4,4,0.2,0.3
2025-05-18T2300,2699A,75.9755,39.4694,喀什地区,吾办,颗粒物(PM10),92,134,120,27,60,108,,120,112,10,19,15,13,0.5,0.6
2025-05-18T2300,4027A,75.9483,39.4689,喀什地区,老干局,颗粒物(PM10),75,100,99,25,22,110,,120,115,8,12,5,6,0.5,0.4
2025-05-18T2300,1824A,114.3389,34.7781,开封市,肿瘤医院,颗粒物(PM10),105,160,113,45,30,107,,163,152,28,19,8,10,0.7,0.5
2025-05-18T2300,1826A,114.2885,34.7965,开封市,世纪星幼儿园,颗粒物(PM10),104,157,119,48,41,117,,174,162,28,17,9,11,0.7,0.6
2025-05-18T2300,3147A,114.3438,34.8106,开封市,龙亭公园,颗粒物(PM10),91,131,113,41,29,112,,152,,27,22,4,6,0.8,0.5
2025-05-18T2300,3210A,114.3644,34.7964,开封市,汴京公园,颗粒物(PM10),111,172,131,68,39,98,,156,145,28,20,8,8,0.7,0.6
2025-05-18T2300,3473A,114.2485,34.8306,开封市,技师学院,颗粒物(PM10),100,150,109,52,30,134,,177,170,19,23,4,5,0.6,0.5
2025-05-18T2300,3592A,114.4644,34.7556,开封市,祥符区生态环境局,颗粒物(PM10),109,168,147,50,40,102,,163,146,30,32,8,9,0.6,0.5
2025-05-18T2300,1951A,84.895,45.6094,克拉玛依市,长征新村,颗粒物(PM10),86,121,138,3,17,114,,109,109,37,13,8,7,0.2,0.3
2025-05-18T2300,1952A,84.8988,45.5893,克拉玛依市,南林小区,颗粒物(PM10),75,100,123,35,30,125,,117,117,2,20,4,4,0.1,0.3
2025-05-18T2300,1954A,84.905,44.3396,克拉玛依市,独山子区,,,,73,,23,108,,121,113,4,7,6,6,0.3,0.3
2025-05-18T2300,1955A,85.6979,46.098,克拉玛依市,乌尔禾区商贸楼,颗粒物(PM10),85,119,136,35,20,107,,110,110,2,9,10,10,0.4,0.5
2025-05-18T2300,3612A,85.1045,45.6899,克拉玛依市,白碱滩区新站,颗粒物(PM10),90,130,143,34,36,131,,124,124,2,9,13,13,0.0,0.1
2025-05-18T2300,2697A,76.1454,39.7142,克孜勒苏柯尔克孜自治州,市人民政府,颗粒物(PM10),81,111,83,28,29,112,,142,135,8,6,13,5,0.2,0.2
2025-05-18T2300,3665A,76.1658,39.7157,克孜勒苏柯尔克孜自治州,克州文化中心,颗粒物(PM10),73,96,88,26,31,122,,139,137,2,5,8,10,0.2,0.2
2025-05-18T2300,1450A,102.8204,24.8886,昆明市,呈贡新区,细颗粒物(PM2.5),55,52,29,39,19,72,,98,94,16,12,5,5,0.8,0.6
2025-05-18T2300,1452A,102.7252,25.0902,昆明市,龙泉镇,,35,35,23,16,15,54,,92,79,13,10,2,1,0.3,0.4
2025-05-18T2300,1453A,102.7266,25.0375,昆明市,东风东路,,40,40,35,23,21,61,,95,86,17,17,8,7,0.4,0.4
2025-05-18T2300,1454A,102.6742,25.0669,昆明市,金鼎山,,33,29,25,23,14,58,,95,84,17,14,4,3,0.4,0.4
2025-05-18T2300,1455A,102.6644,25.0401,昆明市,碧鸡广场,,36,36,27,22,14,59,,93,85,19,14,8,6,0.5,0.5
2025-05-18T2300,3179A,102.7494,25.0119,昆明市,官渡区博物馆,,30,30,25,20,15,49,,93,80,26,18,8,7,0.5,0.5
2025-05-18T2300,3375A,102.8017,24.8336,昆明市,青年创业园,,48,33,19,33,15,59,,96,85,16,12,10,7,0.7,0.5
2025-05-18T2300,3550A,102.7997,24.9786,昆明市,昆明学院,,50,49,33,35,24,32,,95,79,44,19,7,6,0.4,0.4
2025-05-18T2300,3551A,102.5967,24.6736,昆明市,晋宁区生态环境分局,,19,,17,12,11,59,,92,80,9,10,5,5,0.5,0.5
2025-05-18T2300,3552A,102.6678,24.9856,昆明市,云天化总部,细颗粒物(PM2.5),57,52,26,40,20,53,,93,83,27,13,4,3,0.8,0.7
2025-05-18T2300,1456A,91.1319,29.6514,拉萨市,八廓街,,25,23,10,13,7,80,,132,120,28,13,6,6,0.4,0.3
2025-05-18T2300,1457A,91.1221,29.6747,拉萨市,市环保局,,38,38,14,16,8,51,,114,100,31,14,4,4,0.4,0.2
2025-05-18T2300,1458A,91.0874,29.6475,拉萨市,区监测站,,28,28,11,15,7,62,,129,111,54,18,6,6,0.4,0.2
2025-05-18T2300,1459A,91.1774,29.6541,拉萨市,西藏大学,,27,17,9,11,6,86,,135,116,25,12,10,9,0.4,0.3
2025-05-18T2300,1460A,90.9798,29.6588,拉萨市,区辐射站,,32,21,12,11,7,100,,126,116,21,16,5,5,0.4,0.4
2025-05-18T2300,1461A,91.0834,29.6292,拉萨市,拉萨火车站,,27,16,8,8,7,86,,131,121,28,13,3,3,0.6,0.5
2025-05-18T2300,2520A,109.2203,23.7256,来宾市,来宾技工学校,,15,14,18,10,12,24,,48,40,16,12,10,9,0.7,0.6
2025-05-18T2300,3535A,109.1781,23.7297,来宾市,兴宾区政府,,12,10,14,7,11,37,,48,44,5,10,4,5,0.6,0.6
2025-05-18T2300,4002A,109.2416,23.7461,来宾市,中南小学,,16,16,18,8,10,18,,49,39,21,13,8,8,0.6,0.5
2025-05-18T2300,1479A,103.831,36.0464,兰州市,铁路设计院,二氧化氮,55,55,60,38,35,12,,136,81,110,41,9,14,0.8,0.6
2025-05-18T2300,3241A,103.7439,36.0842,兰州市,百合公园,颗粒物(PM10),57,64,62,25,23,38,,139,97,72,29,8,9,0.4,0.5
2025-05-18T2300,4236A,103.6293,36.0938,兰州市,庄浪东路808号,颗粒物(PM10),60,69,63,30,30,17,,133,96,110,26,10,17,0.6,0.3
2025-05-18T2300,4237A,103.7251,36.1043,兰州市,安宁西路88号,颗粒物(PM10),61,72,72,39,34,76,,153,123,45,18,6,12,0.3,0.3
2025-05-18T2300,4238A,103.8470,36.0676,兰州市,北滨河东路1号,颗粒物(PM10),80,109,66,37,29,2,,143,95,110,40,9,11,1.1,0.7
2025-05-18T2300,3245A,103.6633,36.533,兰州新区,新区管委会,颗粒物(PM10),61,72,45,36,30,66,,141,126,28,10,8,22,0.4,0.3
2025-05-18T2300,3246A,103.6975,36.4789,兰州新区,舟曲中学,颗粒物(PM10),58,66,51,23,22,86,,136,126,36,10,8,13,0.4,0.3
2025-05-18T2300,1067A,116.6708,39.5111,廊坊市,药材公司,颗粒物(PM10),64,77,49,45,27,120,,144,138,22,19,5,3,0.4,0.3
2025-05-18T2300,1068A,116.7214,39.5589,廊坊市,开发区,颗粒物(PM10),63,75,56,35,25,85,,147,130,28,33,4,4,0.5,0.4
2025-05-18T2300,1070A,116.7244,39.5269,廊坊市,北华航天学院,细颗粒物(PM2.5),80,98,64,59,28,90,,151,133,32,25,6,5,0.5,0.3
2025-05-18T2300,2919A,116.7022,39.5453,廊坊市,河北工业大学,颗粒物(PM10),69,88,57,45,28,83,,148,132,38,19,6,5,0.5,0.4
2025-05-18T2300,2535A,103.7723,29.5462,乐山市,花湖湾,"颗粒物(PM10),细颗粒物(PM2.5)",54,58,75,38,54,85,,135,120,18,33,5,7,0.6,1
2025-05-18T2300,2536A,103.7627,29.5844,乐山市,牛耳桥,颗粒物(PM10),57,63,84,37,57,74,,131,114,21,31,9,10,0.8,1
2025-05-18T2300,2537A,103.7508,29.6006,乐山市,市第三水厂,颗粒物(PM10),52,53,76,34,54,80,,136,123,22,35,7,8,0.8,1
2025-05-18T2300,2538A,103.7571,29.5664,乐山市,市监测站,颗粒物(PM10),56,61,76,36,48,81,,124,110,14,30,8,8,1.0,1.3
2025-05-18T2300,3361A,103.7311,29.5628,乐山市,理工大学,细颗粒物(PM2.5),75,73,72,55,56,75,,136,116,24,32,14,9,1.0,1.2
2025-05-18T2300,2599A,100.2497,26.8802,丽江市,丽江古城,,26,26,28,18,19,78,,109,100,14,12,9,10,0.6,0.5
2025-05-18T2300,2600A,100.2203,26.8906,丽江市,市中心,,28,,20,14,14,87,,108,100,12,12,7,8,0.6,0.5
2025-05-18T2300,1267A,119.914,28.4514,丽水市,监测站大楼,,20,9,17,7,8,61,,84,79,11,14,2,2,0.6,0.6
2025-05-18T2300,1268A,119.93,28.4586,丽水市,莲都小学,,23,10,14,8,9,71,,91,83,9,13,3,3,0.4,0.5
2025-05-18T2300,1269A,119.879,28.4231,丽水市,余庄前,,19,19,20,11,10,52,,79,61,13,11,3,3,0.5,0.6
2025-05-18T2300,1173A,119.176,34.5885,连云港市,市环境监测站,,29,27,31,12,15,90,,104,98,15,15,6,6,0.4,0.4
2025-05-18T2300,3000A,119.3581,34.6972,连云港市,德源药业,,27,22,31,14,13,86,,99,92,10,10,10,9,0.6,0.5
2025-05-18T2300,3007A,119.178,34.844,连云港市,新城一中,,41,41,43,14,16,65,,103,89,35,18,8,7,0.6,0.5
2025-05-18T2300,3008A,119.3608,34.7519,连云港市,胡沟管理处,,27,27,27,9,12,74,,89,72,32,33,12,11,0.8,0.6
2025-05-18T2300,3009A,119.1478,34.5911,连云港市,矿山设计院,,31,31,31,12,13,87,,105,100,15,16,6,7,0.5,0.4
2025-05-18T2300,3434A,119.2413,34.6539,连云港市,工贸学校,,32,,25,17,17,101,,111,107,3,5,8,8,0.5,0.5
2025-05-18T2300,3664A,119.4172,34.7341,连云港市,连云街道,,33,28,24,15,14,104,,106,101,13,13,8,8,0.5,0.4
2025-05-18T2300,2571A,102.3431,27.8099,凉山彝族自治州,青龙寺,,20,20,19,6,5,33,,89,61,19,8,4,4,0.5,0.4
2025-05-18T2300,2572A,102.2721,27.8415,凉山彝族自治州,邛海宾馆,,33,33,27,12,10,43,,101,69,25,14,10,10,0.5,0.5
2025-05-18T2300,2573A,102.2625,27.898,凉山彝族自治州,西昌市政府,,28,28,18,15,10,41,,95,72,7,9,10,11,0.4,0.4
2025-05-18T2300,2574A,102.2685,27.8851,凉山彝族自治州,凉山州政府,,24,24,18,15,11,42,,95,72,16,12,6,7,0.6,0.3
2025-05-18T2300,4229A,102.2342,27.8859,凉山彝族自治州,凯乐南路30号,,30,30,26,17,12,43,,96,75,28,15,6,6,0.4,0.3
2025-05-18T2300,2212A,123.2,41.1953,辽阳市,宏伟区,,36,25,32,10,17,114,,97,97,6,14,7,11,0.4,0.8
2025-05-18T2300,2213A,123.1683,41.2495,辽阳市,新华园,,29,29,41,12,19,88,,87,84,9,16,8,12,0.4,0.8
2025-05-18T2300,2214A,123.2354,41.2639,辽阳市,滨河路,,41,41,33,13,19,88,,95,88,13,17,8,12,0.4,0.7
2025-05-18T2300,2215A,123.149,41.2991,辽阳市,铁西工业园,,39,39,43,19,24,92,,96,89,16,21,6,13,0.4,1
2025-05-18T2300,2227A,125.1358,42.8845,辽源市,环保局,,27,26,33,12,13,84,,100,95,15,11,7,7,0.4,0.4
2025-05-18T2300,3239A,125.0764,42.9078,辽源市,银鹰制药,,30,18,22,9,16,94,,107,100,16,12,5,4,0.3,0.3
2025-05-18T2300,1625A,115.9848,36.4372,聊城市,区政府,颗粒物(PM10),86,122,97,24,26,131,,156,148,15,17,8,8,0.7,0.7
2025-05-18T2300,2878A,116.0072,36.4343,聊城市,聊大东校,颗粒物(PM10),81,112,99,31,37,128,,153,146,15,21,6,8,0.4,0.4
2025-05-18T2300,3200A,115.9819,36.4978,聊城市,监控中心,颗粒物(PM10),94,138,111,27,27,137,,156,152,12,19,6,6,0.5,0.5
2025-05-18T2300,3513A,116.0445,36.4361,聊城市,九州社区,颗粒物(PM10),70,90,86,25,26,133,,161,152,14,18,10,7,0.4,0.4
2025-05-18T2300,4018A,116.0567,36.4608,聊城市,星美广场,颗粒物(PM10),78,105,99,23,28,129,,153,146,7,10,8,8,0.7,0.6
2025-05-18T2300,2632A,94.3681,29.6376,林芝市,林芝监测站,,25,,3,6,4,80,,99,94,7,7,6,6,0.4,0.4
2025-05-18T2300,2633A,94.3616,29.6616,林芝市,林芝人民医院,,25,9,7,7,5,77,,100,93,3,4,6,6,0.4,0.4
2025-05-18T2300,2603A,100.0781,23.8982,临沧市,市环保局,细颗粒物(PM2.5),69,,32,50,26,48,,91,76,12,9,6,6,0.9,0.8
2025-05-18T2300,2604A,100.0894,23.8822,临沧市,市气象局,,,40,31,,25,,,96,,14,11,9,8,0.6,0.6
2025-05-18T2300,1733A,111.5531,36.0783,临汾市,临钢医院,颗粒物(PM10),99,148,88,30,16,53,,134,89,53,29,8,6,1.0,0.7
2025-05-18T2300,1734A,111.5028,36.0714,临汾市,技工学校,颗粒物(PM10),81,111,84,36,28,45,,150,119,48,21,5,6,0.5,0.5
2025-05-18T2300,1736A,111.5018,36.0855,临汾市,市委,颗粒物(PM10),81,112,87,20,17,53,,150,116,46,25,6,7,0.6,0.6
2025-05-18T2300,3018A,111.505,36.1014,临汾市,唐尧大酒店,颗粒物(PM10),70,89,83,29,26,55,,142,113,41,22,5,6,0.6,0.5
2025-05-18T2300,4244A,111.4879,36.0530,临汾市,启星学校,颗粒物(PM10),74,98,92,32,25,68,,151,123,31,28,4,5,0.5,0.6
2025-05-18T2300,4271A,103.2464,35.6123,临夏回族自治州,滨河东路1号,细颗粒物(PM2.5),93,132,88,69,36,32,,128,89,43,16,7,7,0.4,0.2
2025-05-18T2300,4310A,103.2093,35.5995,临夏回族自治州,新华街21号,颗粒物(PM10),80,109,80,47,33,54,,125,97,30,19,8,5,0.4,0.3
2025-05-18T2300,1618A,118.3429,35.0532,临沂市,沂河小区,颗粒物(PM10),54,58,53,33,28,101,,122,119,14,11,7,7,0.3,0.3
2025-05-18T2300,1619A,118.295,35.0583,临沂市,鲁南制药厂,,46,46,49,15,18,112,,136,132,21,23,6,9,0.6,0.5
2025-05-18T2300,1620A,118.2794,34.9976,临沂市,新光毛纺厂,,41,41,39,28,27,94,,132,123,23,21,9,11,0.3,0.3
2025-05-18T2300,1621A,118.3956,35.0888,临沂市,河东保险公司,颗粒物(PM10),51,51,45,26,21,86,,127,116,26,16,7,8,0.4,0.4
2025-05-18T2300,3370A,118.3564,35.0215,临沂市,十里堡居委,,44,44,47,19,21,102,,134,128,27,20,8,8,0.4,0.4
2025-05-18T2300,3496A,118.3604,35.1084,临沂市,南坊新区,颗粒物(PM10),52,53,49,19,17,100,,124,116,15,15,8,9,0.2,0.3
2025-05-18T2300,3860A,118.3920,35.0300,临沂市,皇山花园小区,,41,41,49,26,25,96,,127,120,23,23,15,10,0.5,0.4
2025-05-18T2300,1870A,109.4856,24.3895,柳州市,柳东小学,,13,7,13,3,7,40,,52,45,7,7,9,9,0.3,0.4
2025-05-18T2300,1871A,109.4157,24.3277,柳州市,环保监测站,,9,9,17,3,11,28,,50,39,14,13,3,2,0.8,0.8
2025-05-18T2300,1872A,109.389,24.341,柳州市,河西水厂,,11,9,17,6,11,34,,50,43,12,13,4,4,0.6,0.6
2025-05-18T2300,1873A,109.4311,24.2921,柳州市,市四中,,9,,15,6,9,25,,47,39,18,11,7,7,0.4,0.4
2025-05-18T2300,1874A,109.4006,24.3631,柳州市,市九中,,11,11,20,3,11,27,,51,39,15,12,7,8,0.6,0.6
2025-05-18T2300,1875A,109.4958,24.3134,柳州市,古亭山,,9,6,15,3,5,21,,42,34,10,9,5,5,0.9,0.9
2025-05-18T2300,3402A,109.5422,24.3996,柳州市,市二中,,13,8,13,3,8,16,,50,37,26,11,10,10,0.6,0.5
2025-05-18T2300,2307A,116.5079,31.737,六安市,监测大楼,颗粒物(PM10),77,103,99,50,31,104,,139,133,15,13,4,5,0.7,0.4
2025-05-18T2300,2308A,116.4738,31.7643,六安市,皖西学院,颗粒物(PM10),73,95,124,46,33,119,,155,149,16,16,6,6,0.7,0.5
2025-05-18T2300,2309A,116.4996,31.7905,六安市,朝阳厂,细颗粒物(PM2.5),72,77,86,52,32,96,,123,118,22,21,5,5,0.6,0.4
2025-05-18T2300,2310A,116.5567,31.7886,六安市,开发区,颗粒物(PM10),108,165,126,65,38,106,,146,140,23,21,6,6,0.9,0.5
2025-05-18T2300,2577A,104.83,26.5917,六盘水市,黄土坡,,42,32,31,29,22,16,,110,88,52,17,8,10,0.5,0.4
2025-05-18T2300,2578A,104.89,26.5939,六盘水市,水钢,,35,35,38,3,8,75,,107,92,15,17,9,12,0.5,0.6
2025-05-18T2300,2579A,104.8475,26.5894,六盘水市,民中,,39,39,29,17,16,46,,99,84,34,16,8,9,0.5,0.4
2025-05-18T2300,2580A,104.9544,26.5506,六盘水市,双水,,31,31,27,19,16,83,,105,97,8,13,8,9,0.2,0.2
2025-05-18T2300,2336A,117.0217,25.1033,龙岩市,龙岩市监测站,,18,,17,12,14,24,,66,49,18,16,3,6,0.6,0.5
2025-05-18T2300,2337A,117.0258,25.0661,龙岩市,闽西职业技术学院,,28,28,28,10,14,15,,61,42,21,15,4,18,0.4,0.4
2025-05-18T2300,2338A,117.0196,25.0306,龙岩市,龙岩学院,,17,17,14,8,11,27,,67,44,13,8,6,8,0.3,0.4
2025-05-18T2300,2885A,104.9339,33.3826,陇南市,滨江中学,颗粒物(PM10),69,88,61,49,23,119,,134,131,6,6,7,7,0.4,0.4
2025-05-18T2300,3247A,104.955,33.371,陇南市,市总工会,颗粒物(PM10),67,83,52,47,23,123,,131,130,5,5,6,6,0.6,0.4
2025-05-18T2300,2487A,111.9589,27.8901,娄底市,电视发射台,颗粒物(PM10),68,85,69,30,28,24,,72,55,5,4,5,7,0.8,0.4
2025-05-18T2300,2488A,111.9975,27.725,娄底市,市监测站,颗粒物(PM10),58,65,54,37,31,54,,81,79,21,20,11,11,0.9,0.9
2025-05-18T2300,2489A,112.0194,27.7314,娄底市,市委党校,细颗粒物(PM2.5),59,62,44,42,33,28,,80,72,31,9,4,4,0.9,0.7
2025-05-18T2300,2490A,111.9561,27.7569,娄底市,涟钢,颗粒物(PM10),56,62,52,33,33,42,,80,66,10,14,9,10,0.7,0.7
2025-05-18T2300,2491A,111.9892,27.7044,娄底市,市政府,细颗粒物(PM2.5),55,46,39,39,28,17,,89,71,18,6,4,3,0.8,0.5
2025-05-18T2300,1893A,105.4324,28.9634,泸州市,九狮山,细颗粒物(PM2.5),70,72,75,51,55,54,,119,87,36,27,6,6,0.5,0.5
2025-05-18T2300,1894A,105.4427,28.9063,泸州市,小市上码头,细颗粒物(PM2.5),72,80,80,52,51,66,,113,103,31,26,26,9,0.6,0.7
2025-05-18T2300,1895A,105.4241,28.8573,泸州市,兰田宪桥,细颗粒物(PM2.5),65,72,74,47,51,24,,111,82,42,24,8,9,1.0,0.7
2025-05-18T2300,1896A,105.4379,28.8833,泸州市,市环监站,细颗粒物(PM2.5),77,82,78,56,55,39,,122,100,50,26,11,9,0.7,0.6
2025-05-18T2300,4272A,105.3689,28.7783,泸州市,纳溪中医医院,颗粒物(PM10),68,85,65,48,50,19,,113,84,44,34,7,8,0.9,0.9
2025-05-18T2300,2183A,111.1406,37.5211,吕梁市,环保局,颗粒物(PM10),117,183,82,32,19,28,,129,89,56,23,5,4,0.4,0.4
2025-05-18T2300,2185A,111.1297,37.5136,吕梁市,自来水公司,颗粒物(PM10),93,136,75,38,23,19,,117,82,60,31,3,5,0.6,0.5
2025-05-18T2300,2867A,111.1283,37.51,吕梁市,马茂庄小学,颗粒物(PM10),91,132,83,51,24,26,,122,86,47,26,4,5,0.5,0.5
2025-05-18T2300,1812A,112.3931,34.6516,洛阳市,市委党校,颗粒物(PM10),133,216,111,64,32,129,,162,153,16,13,19,10,0.6,0.5
2025-05-18T2300,1815A,112.494,34.6886,洛阳市,河南林校,颗粒物(PM10),128,205,121,65,33,135,,171,164,17,16,18,13,0.3,0.1
2025-05-18T2300,1816A,112.3844,34.623,洛阳市,开发区管委会,颗粒物(PM10),126,202,114,71,33,123,,162,156,24,15,14,9,0.6,0.4
2025-05-18T2300,1817A,112.4267,34.6258,洛阳市,市委新办公区,颗粒物(PM10),132,213,116,68,34,140,,173,167,18,18,18,13,0.4,0.2
2025-05-18T2300,3340A,112.6005,34.6326,洛阳市,伊滨,颗粒物(PM10),115,180,128,76,37,78,,171,146,42,18,14,10,0.8,0.6
2025-05-18T2300,3341A,112.4951,34.6332,洛阳市,中移产业园,颗粒物(PM10),123,195,122,60,37,137,,176,168,17,17,13,12,0.5,0.3
2025-05-18T2300,3593A,112.5736,34.8993,洛阳市,吉利监测站,颗粒物(PM10),108,166,112,59,41,48,,182,145,66,20,10,13,0.4,0.2
2025-05-18T2300,3635A,112.3677,34.662,洛阳市,河科大西苑校区,颗粒物(PM10),147,243,126,58,28,137,,174,166,21,16,22,12,0.6,0.3
2025-05-18T2300,3636A,112.4388,34.6781,洛阳市,英才小学,颗粒物(PM10),125,199,117,60,30,130,,175,165,21,16,15,9,0.6,0.4
2025-05-18T2300,4214A,112.4600,34.6949,洛阳市,春都路1号院,颗粒物(PM10),125,199,124,56,30,126,,178,167,33,23,15,9,0.6,0.4
2025-05-18T2300,2399A,114.051,33.5699,漯河市,三五一五工厂,颗粒物(PM10),135,220,125,65,35,144,,161,154,15,16,5,8,0.6,0.5
2025-05-18T2300,2400A,114.0055,33.5698,漯河市,漯河大学,颗粒物(PM10),131,212,139,56,33,136,,174,165,20,14,4,6,0.4,0.3
2025-05-18T2300,2401A,114.0138,33.5828,漯河市,市水利局,颗粒物(PM10),131,212,148,61,44,138,,168,160,18,15,5,7,0.6,0.5
2025-05-18T2300,2402A,114.0261,33.5698,漯河市,市广电局,颗粒物(PM10),134,217,136,70,38,141,,160,156,18,16,5,7,0.5,0.5
2025-05-18T2300,3478A,113.9749,33.5664,漯河市,市图书馆,颗粒物(PM10),112,174,131,60,42,146,,167,,17,19,5,6,0.6,0.4
2025-05-18T2300,4250A,114.0892,33.5882,漯河市,韶山路11号,颗粒物(PM10),129,207,131,74,42,143,,160,153,16,19,7,8,0.8,0.7
2025-05-18T2300,1798A,118.5092,31.6837,马鞍山市,湖东路四小,颗粒物(PM10),85,120,112,60,29,97,,149,129,21,12,7,7,0.7,0.5
2025-05-18T2300,1799A,118.5024,31.6449,马鞍山市,开发区,颗粒物(PM10),90,130,116,54,31,76,,147,122,36,20,6,7,0.6,0.5
2025-05-18T2300,1802A,118.6245,31.7241,马鞍山市,濮塘,颗粒物(PM10),84,118,99,42,28,97,,146,127,20,8,10,8,0.8,0.6
2025-05-18T2300,3633A,118.4918,31.6809,马鞍山市,雨山,颗粒物(PM10),87,124,115,51,30,91,,148,129,28,13,7,8,0.8,0.6
2025-05-18T2300,4191A,118.5274,31.72227,马鞍山市,慈湖高新区,颗粒物(PM10),103,155,113,54,33,86,,138,118,33,17,8,8,0.6,0.5
2025-05-18T2300,1686A,111.0286,21.4688,茂名市,电白南海,,22,22,18,14,14,19,,46,30,15,7,3,3,0.6,0.6
2025-05-18T2300,1687A,110.9294,21.6533,茂名市,茂石化七小,,14,14,17,7,9,21,,32,25,9,9,2,3,0.5,0.5
2025-05-18T2300,1688A,110.9107,21.6687,茂名市,健康路,,9,9,10,3,7,24,,35,27,12,10,3,2,0.6,0.5
2025-05-18T2300,1689A,110.8592,21.6828,茂名市,高岭,,27,27,24,3,7,15,,29,22,21,13,10,7,0.5,0.4
2025-05-18T2300,3450A,111.01,21.5165,茂名市,电白水东,,19,19,13,9,7,15,,40,29,20,11,2,3,0.5,0.5
2025-05-18T2300,2539A,104.0308,30.0478,眉山市,黑龙滩水库,"颗粒物(PM10),细颗粒物(PM2.5)",55,60,79,39,57,111,,178,163,7,12,2,3,0.5,0.6
2025-05-18T2300,2540A,103.8416,30.0874,眉山市,气象局,颗粒物(PM10),59,68,97,34,74,109,,182,172,21,42,3,4,0.5,0.7
2025-05-18T2300,3137A,103.8578,30.0744,眉山市,市委党校,细颗粒物(PM2.5),77,92,107,56,68,91,,168,156,32,44,12,12,0.7,0.7
2025-05-18T2300,3148A,103.8291,30.0564,眉山市,区人社局,颗粒物(PM10),56,61,94,31,69,99,,168,156,22,46,14,15,0.6,0.8
2025-05-18T2300,1690A,116.1231,24.3284,梅州市,梅江月梅,,26,,19,18,15,27,,61,40,10,11,5,5,0.6,0.6
2025-05-18T2300,1691A,116.0797,24.2719,梅州市,梅县新城,,18,18,19,10,15,24,,66,47,15,12,6,6,0.7,0.6
2025-05-18T2300,1692A,116.1248,24.2654,梅州市,环境监控中心,,23,,18,16,13,26,,56,30,14,15,9,8,0.5,0.5
2025-05-18T2300,3315A,116.1233,24.2991,梅州市,梅龙,,13,12,16,9,11,28,,57,42,11,8,7,7,0.5,0.5
2025-05-18T2300,1878A,104.7778,31.4741,绵阳市,富乐山,细颗粒物(PM2.5),113,118,145,85,116,147,,178,177,21,18,9,9,0.8,0.9
2025-05-18T2300,1880A,104.6697,31.4668,绵阳市,高新区自来水公司,细颗粒物(PM2.5),113,142,137,85,102,83,,182,172,76,27,5,5,1.0,0.9
2025-05-18T2300,1881A,104.7287,31.5075,绵阳市,三水厂,细颗粒物(PM2.5),118,155,149,89,107,101,,181,169,59,26,9,9,1.2,1.1
2025-05-18T2300,3491A,104.69,31.5322,绵阳市,西科大附属小学,细颗粒物(PM2.5),108,130,144,81,102,119,,192,184,43,26,8,8,0.8,0.9
2025-05-18T2300,3492A,104.5648,31.5343,绵阳市,安州区旅游局,细颗粒物(PM2.5),104,121,144,78,108,101,,184,172,38,24,6,8,1.2,1.2
2025-05-18T2300,4226A,104.7651,31.4531,绵阳市,绵阳市气象局,细颗粒物(PM2.5),134,146,156,102,112,138,,181,180,33,20,6,6,1.1,1.1
2025-05-18T2300,1784A,129.61,44.561,牡丹江市,环保大楼,,35,35,16,23,13,53,,78,66,12,8,6,6,0.3,0.3
2025-05-18T2300,1785A,129.6115,44.5782,牡丹江市,文化广场,,35,35,24,18,15,56,,77,66,14,10,9,9,0.4,0.3
2025-05-18T2300,1786A,129.5904,44.5963,牡丹江市,第一医院,,40,,23,28,17,56,,77,61,11,11,4,5,0.4,0.4
2025-05-18T2300,1787A,129.6364,44.6075,牡丹江市,机车工厂,,35,30,23,24,13,55,,78,64,14,11,6,7,0.3,0.3
2025-05-18T2300,1788A,129.6386,44.5462,牡丹江市,第一中学,,31,31,22,19,13,63,,82,71,8,8,2,2,0.2,0.2
2025-05-18T2300,2531A,105.0703,29.61,内江市,市监测站,细颗粒物(PM2.5),64,47,75,46,68,85,,148,123,20,19,8,7,1.1,1.1
2025-05-18T2300,2532A,105.0717,29.5947,内江市,东兴区政府,细颗粒物(PM2.5),57,53,71,40,59,84,,149,123,18,16,15,13,0.9,0.8
2025-05-18T2300,2533A,105.0653,29.5817,内江市,内江二中,细颗粒物(PM2.5),59,60,80,42,72,75,,143,116,17,16,10,9,0.8,0.7
2025-05-18T2300,2534A,105.0406,29.5822,内江市,内江日报社,细颗粒物(PM2.5),62,64,77,44,69,85,,142,119,14,20,10,9,0.6,0.8
2025-05-18T2300,2628A,92.0657,31.4846,那曲市,那曲监测站,颗粒物(PM10),55,59,37,33,15,73,,113,104,36,15,10,8,0.9,0.4
2025-05-18T2300,4243A,92.0515,31.4787,那曲市,那曲市委宣传部,,38,38,17,20,9,88,,124,116,20,8,5,4,0.7,0.4
2025-05-18T2300,1290A,115.8931,28.6843,南昌市,省外办,,27,,55,12,27,86,,98,84,13,23,4,6,0.6,0.7
2025-05-18T2300,1291A,115.8886,28.7003,南昌市,省林业公司,,28,14,73,9,28,87,,110,91,8,20,8,11,0.8,0.9
2025-05-18T2300,1292A,115.8126,28.7442,南昌市,林科所,,20,19,66,12,26,62,,117,92,25,17,5,6,0.3,0.4
2025-05-18T2300,1294A,115.8518,28.687,南昌市,建工学校,,31,,69,17,22,98,,115,99,8,24,4,6,0.3,0.6
2025-05-18T2300,1295A,115.8921,28.6424,南昌市,象湖,,27,16,45,7,16,86,,94,83,8,13,6,8,0.5,0.7
2025-05-18T2300,1296A,115.7423,28.7996,南昌市,武术学校,,42,,66,29,29,20,,114,65,8,8,8,9,0.6,0.8
2025-05-18T2300,3046A,115.9084,28.6062,南昌市,机电学校,,27,20,40,7,15,85,,87,86,9,14,4,4,0.3,0.4
2025-05-18T2300,3690A,115.9721,28.7031,南昌市,外国语学校,,,25,53,12,16,85,,107,91,8,10,,6,0.4,0.4
2025-05-18T2300,4192A,115.9316,28.68677,南昌市,南京东路235号,,34,34,67,9,19,88,,101,87,3,10,3,5,0.8,0.8
2025-05-18T2300,1906A,106.0789,30.8023,南充市,南充市委,细颗粒物(PM2.5),97,101,97,72,77,127,,161,142,18,18,6,6,0.6,0.6
2025-05-18T2300,1907A,106.1031,30.8217,南充市,南充炼油厂,细颗粒物(PM2.5),93,93,98,69,74,121,,156,140,17,15,6,6,0.6,0.6
2025-05-18T2300,4227A,106.1083,30.7884,南充市,梨树横街98号,颗粒物(PM10),87,124,132,63,68,119,,155,138,15,15,6,5,0.6,0.5
2025-05-18T2300,4304A,106.1172,30.843,南充市,清泉寺北路188号,细颗粒物(PM2.5),114,99,98,86,78,116,,157,140,20,15,5,6,0.5,0.5
2025-05-18T2300,4305A,106.067,30.7616,南充市,同庆路1号,细颗粒物(PM2.5),89,92,93,66,69,114,,143,131,14,17,5,6,0.4,0.4
2025-05-18T2300,1151A,118.8086,32.1065,南京市,迈皋桥,颗粒物(PM10),71,92,75,39,25,110,,144,131,23,13,4,4,0.5,0.3
2025-05-18T2300,1152A,118.7538,32.0551,南京市,草场门,颗粒物(PM10),90,129,105,46,27,95,,141,126,31,19,4,3,0.3,0.2
2025-05-18T2300,1153A,118.7794,32.0745,南京市,山西路,颗粒物(PM10),91,132,110,44,25,107,,149,135,32,22,5,4,0.3,0.2
2025-05-18T2300,1154A,118.7752,32.0023,南京市,中华门,颗粒物(PM10),82,114,95,44,28,92,,130,116,20,9,3,4,0.5,0.4
2025-05-18T2300,1155A,118.8109,32.0309,南京市,瑞金路,颗粒物(PM10),85,119,96,44,27,95,,134,120,24,15,7,6,0.2,0.2
2025-05-18T2300,1156A,118.7997,32.0754,南京市,玄武湖,颗粒物(PM10),84,117,88,37,19,110,,146,134,14,10,4,4,0.6,0.5
2025-05-18T2300,1157A,118.6414,32.0931,南京市,浦口,颗粒物(PM10),82,114,99,36,21,93,,134,120,27,21,4,4,0.4,0.1
2025-05-18T2300,1158A,118.7356,31.9996,南京市,奥体中心,颗粒物(PM10),89,128,108,39,25,110,,150,136,26,17,7,6,0.4,0.3
2025-05-18T2300,1159A,118.9125,32.1028,南京市,仙林大学城,颗粒物(PM10),87,124,106,39,22,106,,140,128,20,14,14,11,0.6,0.5
2025-05-18T2300,3422A,118.8436,31.9198,南京市,江宁彩虹桥,颗粒物(PM10),82,114,98,41,27,95,,140,121,27,15,5,4,0.5,0.4
2025-05-18T2300,3427A,118.8554,32.3578,南京市,六合雄州,颗粒物(PM10),91,131,91,32,20,98,,144,133,41,27,9,7,0.5,0.4
2025-05-18T2300,4249A,118.8708,31.3402,南京市,汶溪路181号,颗粒物(PM10),62,73,98,33,30,85,,142,125,22,17,4,5,0.9,0.9
2025-05-18T2300,4312A,119.019,31.6512,南京市,中山西路1号,颗粒物(PM10),78,105,92,48,29,72,,120,106,32,20,9,8,0.6,0.5
2025-05-18T2300,1401A,108.3103,22.7881,南宁市,二十一中,,10,8,22,7,12,14,,58,32,16,14,3,2,0.6,0.6
2025-05-18T2300,1402A,108.3141,22.8528,南宁市,北湖,,16,14,19,11,14,18,,66,34,17,17,3,4,0.5,0.6
2025-05-18T2300,1403A,108.3206,22.8225,南宁市,市监测站,,19,13,25,13,12,14,,55,29,14,13,1,1,0.5,0.5
2025-05-18T2300,1404A,108.3829,22.8037,南宁市,大自然花园,,21,21,20,11,10,19,,64,36,12,10,4,4,0.5,0.5
2025-05-18T2300,1405A,108.4394,22.7904,南宁市,仙葫,,18,15,20,12,12,23,,55,34,11,12,4,3,0.5,0.6
2025-05-18T2300,1406A,108.2397,22.8467,南宁市,区农职院,,14,14,23,6,8,15,,63,32,19,16,3,3,0.3,0.3
2025-05-18T2300,1407A,108.3275,22.735,南宁市,英华嘉园,,14,14,33,8,12,18,,60,31,14,13,6,6,0.4,0.4
2025-05-18T2300,3401A,108.4834,22.7618,南宁市,红星社区,,16,,18,11,20,5,,64,31,24,12,8,8,0.4,0.4
2025-05-18T2300,4221A,108.2177,22.7774,南宁市,乐贤路16号,,15,12,19,10,17,6,,61,21,25,20,3,4,0.5,0.5
2025-05-18T2300,2332A,118.1681,26.6369,南平市,南平市监测站,,12,10,10,6,8,37,,61,44,8,8,4,4,0.7,0.7
2025-05-18T2300,2333A,118.1825,26.6489,南平市,南平铝业有限公司,,,,21,2,6,40,,61,45,8,9,2,3,0.7,0.7
2025-05-18T2300,2334A,118.1756,26.6272,南平市,南平七中,细颗粒物(PM2.5),58,,15,41,15,22,,61,39,10,6,4,4,0.6,0.6
2025-05-18T2300,1168A,120.9098,31.9663,南通市,狼山街道,颗粒物(PM10),60,70,66,28,20,41,,124,90,52,21,7,5,0.7,0.6
2025-05-18T2300,1169A,120.86,32.0005,南通市,虹桥,颗粒物(PM10),54,58,56,26,23,45,,109,85,50,24,6,3,0.6,0.4
2025-05-18T2300,1170A,120.87,32.02,南通市,城中,颗粒物(PM10),64,77,72,21,19,52,,121,93,42,20,6,4,0.6,0.5
2025-05-18T2300,1171A,120.94,31.93,南通市,星湖花园,颗粒物(PM10),61,72,66,25,22,41,,116,85,52,18,6,4,0.5,0.4
2025-05-18T2300,1172A,120.81,32.0417,南通市,紫琅学院,颗粒物(PM10),63,75,72,19,16,42,,107,82,51,27,8,6,0.5,0.4
2025-05-18T2300,3291A,121.067,32.062,南通市,通州监测站,颗粒物(PM10),51,51,63,14,18,85,,133,116,14,8,5,5,0.6,0.6
2025-05-18T2300,3432A,120.9348,31.9883,南通市,环境教育馆,颗粒物(PM10),60,70,65,21,20,52,,128,98,34,14,4,3,0.4,0.3
2025-05-18T2300,2404A,112.5224,33.0122,南阳市,瓦房庄,颗粒物(PM10),121,192,206,58,48,148,,168,164,14,13,8,8,0.5,0.4
2025-05-18T2300,2405A,112.5003,32.9735,南阳市,汉画馆,颗粒物(PM10),120,190,212,58,51,140,,168,162,21,16,8,7,0.5,0.4
2025-05-18T2300,2406A,112.5573,33.027,南阳市,气象站,颗粒物(PM10),143,236,246,88,62,144,,168,162,16,12,8,7,0.6,0.4
2025-05-18T2300,2407A,112.5481,32.9689,南阳市,理工学院,颗粒物(PM10),118,186,208,59,50,139,,163,154,15,16,7,7,0.5,0.3
2025-05-18T2300,4008A,112.5234,32.9922,南阳市,卧龙区政府,颗粒物(PM10),127,204,228,59,50,140,,165,160,18,15,7,6,0.5,0.4
2025-05-18T2300,1234A,121.8358,29.911,宁波市,区环保大楼,,29,26,68,18,31,90,,94,33,13,56,8,9,0.5,0.6
2025-05-18T2300,1235A,121.56,29.82,宁波市,万里学院,细颗粒物(PM2.5),60,65,59,43,33,43,,107,62,28,28,4,5,0.6,0.6
2025-05-18T2300,1236A,121.713,29.9572,宁波市,龙赛医院,,,45,66,20,23,,,113,,17,32,7,8,0.5,0.5
2025-05-18T2300,1239A,121.633,29.7733,宁波市,钱湖水厂,,45,45,63,25,26,48,,104,64,16,18,8,8,0.7,0.7
2025-05-18T2300,1240A,121.5856,29.8635,宁波市,太古小学,颗粒物(PM10),61,72,72,26,25,41,,107,68,31,27,6,8,0.8,0.8
2025-05-18T2300,1241A,121.524,29.8674,宁波市,市环境监测中心,颗粒物(PM10),61,72,64,30,24,31,,108,60,38,30,11,11,0.8,0.6
2025-05-18T2300,2871A,121.6147,29.9017,宁波市,万里国际学校,颗粒物(PM10),52,53,56,28,24,53,,107,69,23,31,6,7,0.8,0.8
2025-05-18T2300,3710A,121.5594,29.8975,宁波市,白沙活动中心,颗粒物(PM10),52,53,52,29,27,37,,111,64,28,23,7,8,0.7,0.7
2025-05-18T2300,2341A,119.5388,26.6612,宁德市,宁德市监测站,,28,,18,6,14,88,,90,90,10,18,4,4,0.3,0.4
2025-05-18T2300,3209A,119.5231,26.6562,宁德市,宁德一中,,30,,27,3,16,94,,90,90,4,12,3,3,0.4,0.5
2025-05-18T2300,2618A,98.8601,25.8567,怒江傈僳族自治州,州监测站,,32,32,36,17,24,47,,97,80,12,9,8,6,0.5,0.5
2025-05-18T2300,2619A,98.8546,25.8417,怒江傈僳族自治州,泸水一中,,29,29,30,19,17,28,,80,59,19,14,7,6,0.5,0.4
2025-05-18T2300,1888A,101.6891,26.571,攀枝花市,弄弄坪,颗粒物(PM10),57,64,37,27,13,61,,102,89,18,13,7,9,2.4,0.6
2025-05-18T2300,1889A,101.5769,26.5928,攀枝花市,河门口,,41,41,52,22,25,60,,107,89,13,16,7,15,1.3,1.2
2025-05-18T2300,1890A,101.7169,26.585,攀枝花市,炳草岗,,33,24,34,23,14,63,,106,95,19,13,7,12,0.7,0.5
2025-05-18T2300,1891A,101.7369,26.5008,攀枝花市,仁和,,34,34,37,13,18,71,,105,96,8,14,8,12,0.4,0.5
2025-05-18T2300,2835A,101.7227,26.567,攀枝花市,四十中小,,29,29,28,12,12,88,,111,104,7,9,6,10,0.6,0.6
2025-05-18T2300,1604A,122.0303,41.1489,盘锦市,开发区,,41,34,23,24,13,131,,110,110,12,13,10,12,0.4,0.4
2025-05-18T2300,1605A,122.0485,41.0883,盘锦市,兴隆台,,42,32,25,27,14,133,,109,109,15,19,7,9,0.5,0.4
2025-05-18T2300,1606A,121.8297,41.1028,盘锦市,新生街道,,45,,20,28,12,141,,117,117,19,22,9,13,0.3,0.3
2025-05-18T2300,1832A,113.3257,33.742,平顶山市,新华旅馆,颗粒物(PM10),144,238,151,42,27,144,,167,162,17,15,6,7,0.5,0.4
2025-05-18T2300,1833A,113.2919,33.737,平顶山市,规划设计院,颗粒物(PM10),140,230,144,68,46,144,,167,161,19,16,6,7,0.4,0.4
2025-05-18T2300,1834A,113.182,33.774,平顶山市,平顶山工学院,颗粒物(PM10),128,205,133,58,38,147,,168,163,13,12,5,4,0.3,0.3
2025-05-18T2300,3204A,113.3025,33.73,平顶山市,规划局,颗粒物(PM10),141,232,167,56,33,147,,163,160,12,11,7,8,0.4,0.3
2025-05-18T2300,3594A,112.8867,33.9116,平顶山市,石龙区,颗粒物(PM10),130,210,178,68,54,160,,172,158,14,18,8,10,0.4,0.5
2025-05-18T2300,2656A,106.6692,35.5461,平凉市,聚贤嘉苑,颗粒物(PM10),73,95,93,37,43,59,,118,98,34,15,12,11,0.7,0.7
2025-05-18T2300,2657A,106.7021,35.5307,平凉市,博物馆,颗粒物(PM10),71,92,102,33,33,60,,120,98,28,17,10,10,0.5,0.5
2025-05-18T2300,2347A,114.0997,27.5002,萍乡市,武功山,,11,6,4,3,3,33,,72,62,4,4,17,17,0.9,0.8
2025-05-18T2300,2348A,113.8385,27.6434,萍乡市,中医院,,24,24,36,16,22,49,,76,66,12,16,10,15,0.8,1.4
2025-05-18T2300,2349A,113.8493,27.6253,萍乡市,市政府车库,,23,17,26,16,22,48,,72,65,15,17,4,5,0.7,1.2
2025-05-18T2300,2350A,113.8676,27.6435,萍乡市,市环保局,,22,20,32,15,23,63,,82,74,7,18,6,12,0.6,1.3
2025-05-18T2300,2351A,113.866,27.6198,萍乡市,安源区政府,,14,11,32,6,15,44,,74,65,18,16,5,7,1.2,1.2
2025-05-18T2300,2319A,119.0141,25.4325,莆田市,荔城区仓后路,,13,6,33,3,12,41,,91,64,19,18,4,5,0.5,0.4
2025-05-18T2300,2320A,119.0015,25.4553,莆田市,莆田市监测站,,12,8,28,3,13,37,,97,66,4,9,5,5,0.5,0.5
2025-05-18T2300,2321A,119.1119,25.4561,莆田市,涵江区六中,,23,20,27,16,14,30,,99,59,22,18,1,2,0.8,0.3
2025-05-18T2300,2322A,119.1013,25.3215,莆田市,秀屿区政府,,22,18,22,3,10,70,,77,55,8,11,4,5,0.4,0.4
2025-05-18T2300,2392A,115.0312,35.7636,濮阳市,环保局,颗粒物(PM10),99,148,109,33,27,143,,160,158,18,16,9,9,0.7,0.6
2025-05-18T2300,2394A,115.0574,35.7609,濮阳市,油田运输公司,颗粒物(PM10),100,150,106,35,26,134,,155,152,15,14,8,11,0.8,0.7
2025-05-18T2300,3021A,115,35.7668,濮阳市,濮水河管理处,颗粒物(PM10),107,163,101,46,27,146,,156,156,17,19,8,8,0.6,0.5
2025-05-18T2300,4216A,115.0924,35.7686,濮阳市,任丘路479号,颗粒物(PM10),109,168,111,46,29,121,,155,148,25,23,8,12,0.8,0.6
2025-05-18T2300,2601A,100.98,22.7633,普洱市,市环保局,,34,34,30,9,12,20,,54,36,5,3,6,7,0.5,0.4
2025-05-18T2300,2602A,100.9817,22.8322,普洱市,普洱第二中学,,28,28,18,19,12,15,,61,39,16,11,4,4,0.6,0.5
2025-05-18T2300,2262A,131.0518,45.8751,七台河市,新一中,,,14,8,6,5,,,,,6,7,12,9,0.7,0.7
2025-05-18T2300,3345A,131.0577,45.7879,七台河市,中波台,,22,15,13,3,5,69,,74,68,8,10,5,5,0.3,0.3
2025-05-18T2300,3637A,131.0176,45.7761,七台河市,人民广场,颗粒物(PM10),51,51,22,16,13,83,,84,83,7,9,10,10,0.4,0.4
2025-05-18T2300,3684A,130.8781,45.8222,七台河市,新建矿广场,,28,22,17,19,10,72,,83,76,9,10,10,9,0.5,0.5
2025-05-18T2300,1779A,123.9305,47.3636,齐齐哈尔市,安居小区,,19,19,26,7,14,54,,77,67,12,10,4,4,0.4,0.4
2025-05-18T2300,1780A,123.9488,47.3386,齐齐哈尔市,中心广场,,20,19,35,7,13,62,,78,72,6,7,1,2,0.2,0.2
2025-05-18T2300,1781A,123.9483,47.3227,齐齐哈尔市,农牧车辆厂,,24,24,31,7,13,52,,72,64,10,8,6,6,0.2,0.3
2025-05-18T2300,1783A,123.945,47.2988,齐齐哈尔市,市环境监测站,,29,29,29,9,16,53,,76,68,12,7,7,3,0.2,0.2
2025-05-18T2300,3662A,123.6333,47.2075,齐齐哈尔市,富区青少年活动中心,颗粒物(PM10),55,60,48,27,31,42,,71,57,26,14,35,6,1.3,0.7
2025-05-18T2300,2591A,107.9783,26.5747,黔东南苗族侗族自治州,市环境监测站,,43,35,30,30,26,31,,83,64,26,10,3,3,0.6,0.5
2025-05-18T2300,2881A,107.8908,26.5311,黔东南苗族侗族自治州,凯里学院,,39,39,31,26,24,20,,89,66,34,11,2,2,0.5,0.5
2025-05-18T2300,2593A,107.5228,26.2403,黔南布依族苗族自治州,小围寨,,45,41,33,31,25,42,,89,76,15,8,2,3,0.4,0.4
2025-05-18T2300,3538A,107.5175,26.2978,黔南布依族苗族自治州,沙坝,颗粒物(PM10),54,58,40,34,25,37,,96,78,13,10,3,4,0.8,0.6
2025-05-18T2300,2589A,104.9022,25.0925,黔西南布依族苗族自治州,场坝街,,44,44,34,25,19,85,,105,95,5,7,2,3,0.4,0.3
2025-05-18T2300,2590A,104.8811,25.0992,黔西南布依族苗族自治州,坪东大道,,47,47,32,22,20,76,,90,78,7,12,2,4,0.4,0.4
2025-05-18T2300,2502A,108.6236,21.9667,钦州市,市环保站,,18,14,15,12,8,17,,38,19,17,15,5,4,0.5,0.6
2025-05-18T2300,2503A,108.6549,21.9481,钦州市,沙埠小学,,30,30,27,15,13,12,,39,17,18,20,4,6,0.4,0.4
2025-05-18T2300,2504A,108.5989,21.7431,钦州市,港区一小,颗粒物(PM10),66,81,30,14,10,26,,42,36,29,14,9,8,0.4,0.4
2025-05-18T2300,3404A,108.5959,21.9633,钦州市,北职校,,34,34,20,20,13,13,,32,16,18,13,6,6,0.6,0.5
2025-05-18T2300,1043A,119.7493,40.0116,秦皇岛市,第一关,,43,43,37,30,24,134,,160,159,12,23,5,5,0.4,0.3
2025-05-18T2300,1044A,119.5897,39.9499,秦皇岛市,监测站,,49,49,49,22,19,134,,166,166,13,29,4,5,0.4,0.4
2025-05-18T2300,1046A,119.5251,39.9041,秦皇岛市,建设大厦,颗粒物(PM10),59,68,48,34,20,125,,159,156,14,31,5,6,0.4,0.4
2025-05-18T2300,4198A,119.5090,39.8253,秦皇岛市,北戴河轮滑馆,,48,48,37,25,24,119,,158,153,17,23,4,6,0.2,0.3
2025-05-18T2300,1307A,120.6659,36.2403,青岛市,仰口,,34,12,19,7,18,107,,113,108,1,3,6,7,0.2,0.3
2025-05-18T2300,1310A,120.4134,36.0658,青岛市,市南区东部子站,,31,24,30,12,21,99,,111,108,8,21,7,8,0.3,0.4
2025-05-18T2300,1311A,120.3664,36.1032,青岛市,四方区子站,,34,24,27,9,18,106,,116,114,8,17,6,6,0.6,0.6
2025-05-18T2300,1312A,120.2994,36.054,青岛市,市南区西部子站,,30,17,36,7,15,95,,107,105,15,34,7,8,0.6,0.6
2025-05-18T2300,1313A,120.4581,36.0858,青岛市,崂山区子站,,33,19,20,12,12,103,,118,114,10,14,8,8,0.4,0.4
2025-05-18T2300,1315A,120.3999,36.3083,青岛市,城阳区子站,,,19,33,10,17,100,,107,100,12,21,4,4,,0.4
2025-05-18T2300,1966A,120.0405,35.8735,青岛市,黄岛区4号,,33,17,32,3,13,103,,113,111,9,20,8,8,0.5,0.5
2025-05-18T2300,3362A,120.5014,36.4034,青岛市,即墨2号,,31,26,37,11,17,97,,105,100,5,14,7,7,0.5,0.5
2025-05-18T2300,3642A,120.3503,36.0736,青岛市,市北区南部,,30,22,33,12,16,94,,104,102,8,18,8,7,0.3,0.3
2025-05-18T2300,3643A,120.3948,36.1805,青岛市,李沧区北部,,29,19,32,9,19,90,,96,94,15,22,8,8,0.5,0.5
2025-05-18T2300,4290A,120.1969,35.9546,青岛市,珠江路669号,,32,14,26,10,15,100,,111,110,4,15,6,7,0.5,0.6
2025-05-18T2300,1702A,113.0426,23.691,清远市,环保大楼,,32,32,19,16,11,24,,36,31,18,19,6,7,0.7,0.7
2025-05-18T2300,1703A,113.0208,23.7106,清远市,凤城街办,,46,32,16,32,19,22,,37,33,24,21,4,6,0.5,0.5
2025-05-18T2300,3025A,113.0477,23.6344,清远市,技师学院,,22,22,18,15,11,13,,35,29,27,24,5,8,0.3,0.3
2025-05-18T2300,3318A,112.9903,23.7403,清远市,清新太和,,27,27,16,17,10,22,,34,31,19,17,7,8,0.4,0.5
2025-05-18T2300,3455A,113.076,23.7198,清远市,清城东城,,26,23,17,18,9,35,,38,36,13,14,9,9,0.7,0.7
2025-05-18T2300,2661A,107.6325,35.7357,庆阳市,庆阳五中,颗粒物(PM10),52,54,103,30,68,101,,106,100,12,9,5,4,0.5,0.5
2025-05-18T2300,2662A,107.6364,35.7067,庆阳市,市环保局,颗粒物(PM10),55,59,104,21,46,107,,114,109,8,5,14,8,0.5,0.5
2025-05-18T2300,1916A,103.7897,25.5035,曲靖市,环境监测站,,34,34,33,18,18,64,,91,79,14,12,6,4,0.6,0.7
2025-05-18T2300,1917A,103.8,25.5364,曲靖市,烟厂办公区,,36,36,32,25,17,60,,95,81,14,10,7,4,0.7,0.7
2025-05-18T2300,3376A,103.7947,25.462,曲靖市,南苑二区,,34,34,32,20,17,69,,98,86,14,11,5,5,0.7,0.8
2025-05-18T2300,3377A,103.7444,25.5261,曲靖市,曲靖师范学院,,42,42,31,24,20,63,,98,85,14,15,7,6,0.5,0.5
2025-05-18T2300,1264A,118.8692,28.9398,衢州市,环保大楼,颗粒物(PM10),58,66,52,38,30,37,,73,64,23,18,4,4,0.6,0.5
2025-05-18T2300,1265A,118.8709,28.9666,衢州市,实验学校,细颗粒物(PM2.5),93,,52,69,41,44,,73,66,20,16,3,3,0.4,0.4
2025-05-18T2300,1266A,118.8621,28.9808,衢州市,衢州学院,细颗粒物(PM2.5),57,57,47,40,30,36,,72,63,29,21,5,4,0.5,0.4
2025-05-18T2300,1611A,118.5819,24.9117,泉州市,涂山街,,28,23,27,19,12,34,,82,50,27,19,5,5,0.5,0.5
2025-05-18T2300,1612A,118.5972,24.8978,泉州市,津头埔,,23,21,24,16,11,34,,81,50,25,16,2,3,0.5,0.5
2025-05-18T2300,1613A,118.6663,24.9424,泉州市,万安,,34,34,24,13,10,36,,81,50,16,11,4,4,0.5,0.5
2025-05-18T2300,3529A,118.6333,24.9264,泉州市,城华南路,,23,22,22,16,12,29,,80,47,23,16,3,4,0.4,0.4
2025-05-18T2300,2626A,88.8876,29.2718,日喀则市,日喀则监测站,,40,16,9,3,7,127,,150,137,8,6,4,3,0.3,0.3
2025-05-18T2300,3726A,88.8781,29.2426,日喀则市,林业技术推广中心,,39,19,11,6,2,124,,140,137,4,3,7,7,0.1,0.2
2025-05-18T2300,1659A,119.471,35.4209,日照市,监测站,,41,41,41,17,19,94,,103,95,31,27,8,6,0.5,0.6
2025-05-18T2300,1660A,119.523,35.4216,日照市,市政府广场,,36,36,33,12,16,96,,104,99,16,16,5,4,0.5,0.5
2025-05-18T2300,1661A,119.5587,35.4044,日照市,港务局,,35,29,34,17,20,110,,111,108,12,22,6,6,0.5,0.5
2025-05-18T2300,3507A,119.5328,35.4625,日照市,职业技术学院,,35,29,32,9,11,112,,107,106,9,17,4,5,0.5,0.5
2025-05-18T2300,3604A,119.3266,35.1044,日照市,岚山环保分局,,34,24,34,15,20,106,,105,103,12,17,4,5,0.6,0.6
2025-05-18T2300,1835A,111.1922,34.7752,三门峡市,市政府,细颗粒物(PM2.5),80,108,123,59,52,87,,169,139,33,17,7,8,0.6,0.5
2025-05-18T2300,1836A,111.1587,34.7942,三门峡市,开发区,颗粒物(PM10),97,143,133,64,54,93,,158,140,20,14,7,9,0.5,0.5
2025-05-18T2300,3039A,111.1911,34.7829,三门峡市,三门峡市第一小学,颗粒物(PM10),84,117,129,54,45,96,,177,152,31,16,12,11,0.5,0.5
2025-05-18T2300,2324A,117.6211,26.2625,三明市,三钢,,47,47,20,13,16,20,,68,45,23,14,3,5,1.0,1.1
2025-05-18T2300,2325A,117.635,26.2714,三明市,三明二中,,15,14,18,10,20,19,,66,44,23,12,2,3,1.1,0.8
2025-05-18T2300,2326A,117.6028,26.2378,三明市,三元区政府,,12,12,21,6,15,21,,70,47,22,14,1,3,0.5,0.8
2025-05-18T2300,1876A,109.5078,18.2489,三亚市,河东子站,,19,,16,13,11,36,,49,43,4,4,4,3,0.4,0.6
2025-05-18T2300,1877A,109.4964,18.2681,三亚市,河西子站,,19,19,16,11,11,36,,48,43,6,8,1,2,0.1,0.2
2025-05-18T2300,3540A,109.7348,18.3443,三亚市,君悦子站,,16,13,17,6,9,51,,56,53,3,7,2,3,0.2,0.2
2025-05-18T2300,2624A,91.7608,29.2313,山南市,山南监测站,,43,,8,3,3,135,,142,133,3,4,3,3,0.4,0.4
2025-05-18T2300,2625A,91.7706,29.2436,山南市,山南人民医院,,43,8,7,6,5,135,,147,133,4,3,5,4,0.4,0.5
2025-05-18T2300,1674A,116.6794,23.3667,汕头市,金平子站,,18,14,16,12,10,32,,74,50,10,7,4,4,0.6,0.5
2025-05-18T2300,1675A,116.7244,23.3633,汕头市,龙湖子站,,20,20,20,10,7,30,,67,45,5,5,5,5,0.3,0.3
2025-05-18T2300,1676A,116.7258,23.2775,汕头市,濠江子站,,26,26,21,10,9,28,,53,38,13,12,5,5,0.5,0.5
2025-05-18T2300,1677A,116.7519,23.4714,汕头市,澄海子站,,19,19,27,13,11,32,,82,55,11,11,2,2,0.5,0.5
2025-05-18T2300,1678A,116.6092,23.2539,汕头市,潮阳子站,,17,17,17,8,9,39,,67,49,4,4,7,7,0.3,0.3
2025-05-18T2300,3444A,116.454,23.2684,汕头市,潮南峡山,,20,19,15,14,9,38,,67,51,5,4,4,4,0.5,0.5
2025-05-18T2300,3624A,116.4069,23.2533,汕头市,潮南子站,,22,20,18,15,10,35,,64,48,5,3,4,4,0.5,0.4
