timepoint,stationcode,longitude,latitude,area,positionname,primarypollutant,aqi,pm10,pm10_24h,pm2_5,pm2_5_24h,o3,o3_24h,o3_8h,o3_8h_24h,no2,no2_24h,so2,so2_24h,co,co_24h
2025-10-30T0900,2568A,102.2502,31.8896,阿坝藏族羌族自治州,马师校,,18,12,14,12,12,10,,10,10,15,12,8,7,0.8,0.7
2025-10-30T0900,3994A,102.2165,31.9024,阿坝藏族羌族自治州,马尔康中学西区,,10,8,12,7,13,18,,17,17,9,10,5,5,0.5,0.5
2025-10-30T0900,2695A,80.292,41.1694,阿克苏地区,电视台,颗粒物(PM10),80,110,133,33,42,45,,40,40,22,39,5,7,0.9,1
2025-10-30T0900,2696A,80.2613,41.1551,阿克苏地区,艺术中心,颗粒物(PM10),74,97,122,46,48,48,,46,46,21,46,5,4,0.4,0.6
2025-10-30T0900,2205A,105.6985,38.8411,阿拉善盟,蒙二幼,颗粒物(PM10),54,58,50,24,17,51,,78,74,33,9,8,8,0.9,0.6
2025-10-30T0900,2206A,105.724,38.8516,阿拉善盟,环保局新楼,,41,41,42,14,17,77,,86,85,9,7,8,8,0.5,0.5
2025-10-30T0900,2708A,88.1264,47.8517,阿勒泰地区,市站,,33,33,49,21,20,6,,5,5,30,27,4,4,0.8,0.7
2025-10-30T0900,2630A,80.1161,32.5,阿里地区,阿里监测站,,18,6,3,3,3,32,,42,42,36,19,14,14,0.7,0.4
2025-10-30T0900,3192A,80.0903,32.5028,阿里地区,阿里藏医院,,20,20,17,9,7,49,,44,44,14,12,10,9,0.5,0.5
2025-10-30T0900,2644A,109.0072,32.6975,安康市,汉滨区检察院,,38,37,44,26,28,6,,16,16,18,24,2,3,0.7,0.7
2025-10-30T0900,4054A,109.0325,32.6913,安康市,市邮政管理局,,38,38,38,26,28,7,,14,14,22,28,6,6,0.9,0.7
2025-10-30T0900,2291A,117.0809,30.5177,安庆市,环科院,细颗粒物(PM2.5),65,76,95,47,77,47,,55,52,15,17,4,8,0.6,0.6
2025-10-30T0900,2292A,117.0331,30.5119,安庆市,马山宾馆,细颗粒物(PM2.5),107,,89,80,76,26,,55,51,28,26,4,6,0.8,0.6
2025-10-30T0900,2294A,116.9896,30.6145,安庆市,安庆大学,细颗粒物(PM2.5),97,90,93,72,75,24,,53,45,17,17,5,7,0.7,0.5
2025-10-30T0900,3173A,117.0598,30.5351,安庆市,市人大,细颗粒物(PM2.5),87,65,90,64,74,30,,53,50,30,26,8,9,0.7,0.6
2025-10-30T0900,3123A,105.9408,26.2431,安顺市,凤凰山,,13,13,29,6,21,38,,46,44,14,11,11,10,0.6,0.5
2025-10-30T0900,3124A,105.9439,26.2564,安顺市,金钟山,,14,14,27,8,22,40,,47,45,10,8,9,9,0.9,0.9
2025-10-30T0900,3125A,105.8983,26.2481,安顺市,娄家坡,,15,13,21,10,19,34,,41,40,16,10,21,9,0.8,0.7
2025-10-30T0900,1819A,114.3551,36.1017,安阳市,红庙街,细颗粒物(PM2.5),202,152,110,152,93,6,,25,18,39,30,4,3,1.1,0.7
2025-10-30T0900,1820A,114.361,36.0681,安阳市,银杏小区,细颗粒物(PM2.5),193,161,108,145,94,9,,26,20,38,33,4,4,1.2,0.7
2025-10-30T0900,3141A,114.3922,36.0878,安阳市,信访局,细颗粒物(PM2.5),153,173,123,117,71,10,,21,17,36,32,2,2,1.0,0.6
2025-10-30T0900,3669A,114.4705,36.0637,安阳市,左辅环卫站,细颗粒物(PM2.5),165,213,173,125,84,12,,15,13,36,38,2,6,1.0,0.6
2025-10-30T0900,3703A,114.2917,36.0949,安阳市,安钢职工学校,细颗粒物(PM2.5),192,172,118,144,93,9,,23,17,41,31,6,5,1.3,0.8
2025-10-30T0900,1748A,123.044,41.1196,鞍山市,深沟寺,,27,27,89,13,61,36,,61,53,24,21,12,11,0.6,1
2025-10-30T0900,1749A,123.011,41.0931,鞍山市,太阳城,,32,32,79,14,53,39,,64,56,22,22,16,14,0.4,0.8
2025-10-30T0900,1750A,123.0485,41.1442,鞍山市,太平,,26,26,102,12,56,39,,58,49,24,22,15,14,0.6,1
2025-10-30T0900,1751A,122.9642,41.0971,鞍山市,铁西三道街,,27,27,94,13,54,34,,52,44,28,25,26,16,0.6,1.1
2025-10-30T0900,1753A,123.022,41.0821,鞍山市,明达新区,,21,21,81,10,53,39,,60,53,15,17,31,12,0.4,0.8
2025-10-30T0900,4201A,122.9446,41.0826,鞍山市,兴盛南路290号,,33,33,96,15,54,36,,56,46,31,28,27,19,0.8,1.3
2025-10-30T0900,2195A,107.4212,40.761,巴彦淖尔市,附二中,颗粒物(PM10),55,60,107,29,46,39,,32,32,24,31,10,12,0.6,0.6
2025-10-30T0900,2196A,107.37,40.7372,巴彦淖尔市,市环保大楼,颗粒物(PM10),70,90,87,29,39,11,,24,19,46,33,8,12,0.7,0.6
2025-10-30T0900,1956A,86.1472,41.7538,巴音郭楞蒙古自治州,孔雀公园,颗粒物(PM10),68,85,100,37,35,65,,91,88,29,28,14,10,0.7,0.6
2025-10-30T0900,1957A,86.1972,41.7166,巴音郭楞蒙古自治州,棉纺厂,颗粒物(PM10),65,80,112,15,29,69,,77,77,20,30,5,8,0.7,0.7
2025-10-30T0900,1958A,86.2357,41.7173,巴音郭楞蒙古自治州,经济开发区,颗粒物(PM10),59,68,98,21,26,83,,81,81,10,13,7,8,0.5,0.6
2025-10-30T0900,3181A,106.7768,31.8526,巴中市,市五中,,29,28,32,20,23,7,,6,6,12,14,8,8,0.7,0.7
2025-10-30T0900,3183A,106.7418,31.8654,巴中市,圣泉水务公司,,25,23,25,17,19,4,,4,4,15,17,8,8,0.9,0.8
2025-10-30T0900,3616A,106.7616,31.8344,巴中市,市中心医院,,24,24,28,16,24,4,,4,4,16,18,10,10,0.8,0.8
2025-10-30T0900,2235A,122.7911,45.6077,白城市,洮北区环保局,,30,30,58,15,45,34,,37,35,11,17,6,7,0.3,0.5
2025-10-30T0900,2236A,122.8738,45.5725,白城市,市环保局,,24,24,61,13,40,38,,38,37,7,18,6,5,0.2,0.4
2025-10-30T0900,2231A,126.4219,41.9171,白山市,喜丰,颗粒物(PM10),60,69,90,40,37,55,,73,70,17,37,8,18,0.8,1.1
2025-10-30T0900,2232A,126.4077,41.9419,白山市,环保局,,,47,70,42,52,,,73,73,13,36,7,12,0.9,1.3
2025-10-30T0900,2647A,104.1724,36.5446,白银市,第三小学,颗粒物(PM10),79,107,84,36,41,17,,33,32,50,29,51,29,1.0,0.7
2025-10-30T0900,2648A,104.1465,36.5482,白银市,动力公司,颗粒物(PM10),67,84,81,29,36,10,,24,24,46,32,8,19,0.5,0.6
2025-10-30T0900,2512A,106.6103,23.9011,百色市,市监测站,细颗粒物(PM2.5),78,58,50,57,37,45,,44,43,20,17,14,13,0.9,0.8
2025-10-30T0900,2513A,106.6538,23.8859,百色市,市中心血站,,,60,54,55,36,,,58,57,30,19,11,13,1.0,0.8
2025-10-30T0900,3406A,106.6085,23.8798,百色市,祈福高中,细颗粒物(PM2.5),87,67,65,64,38,42,,30,30,28,25,8,11,0.4,0.6
2025-10-30T0900,2270A,117.396,32.939,蚌埠市,工人疗养院,颗粒物(PM10),55,60,63,33,30,9,,17,14,37,35,5,6,0.7,0.6
2025-10-30T0900,2271A,117.3605,32.9427,蚌埠市,百货大楼,细颗粒物(PM2.5),57,57,56,40,32,8,,13,11,39,40,7,8,0.6,0.5
2025-10-30T0900,2273A,117.4185,32.8911,蚌埠市,蚌埠学院,细颗粒物(PM2.5),55,56,57,39,32,6,,15,15,42,39,6,7,0.6,0.5
2025-10-30T0900,2274A,117.3533,32.9673,蚌埠市,淮上区政府,细颗粒物(PM2.5),60,58,62,43,34,11,,19,18,39,37,6,8,0.6,0.4
2025-10-30T0900,2275A,117.3145,32.8977,蚌埠市,高新区,,42,39,50,29,29,5,,15,14,48,41,7,8,0.6,0.5
2025-10-30T0900,3715A,117.3092,32.9314,蚌埠市,蚌埠田家炳中学,,48,48,60,30,31,11,,13,11,36,35,4,5,0.5,0.4
2025-10-30T0900,1585A,109.8756,40.6532,包头市,市环境监测站,,48,48,58,8,27,29,,48,45,36,27,10,13,0.5,0.5
2025-10-30T0900,1587A,109.9991,40.5842,包头市,包头八中,,,37,66,30,27,,,17,13,58,40,11,13,1.0,0.9
2025-10-30T0900,1588A,109.8538,40.6821,包头市,青山宾馆,,15,15,53,10,24,44,,54,52,27,27,11,15,0.5,0.6
2025-10-30T0900,1589A,109.8642,40.6288,包头市,惠龙物流,,28,28,48,7,22,31,,53,49,39,26,10,13,1.5,0.8
2025-10-30T0900,1590A,110.0377,40.5546,包头市,东河鸿龙湾,,49,49,61,21,25,10,,6,6,53,50,13,18,1.0,1
2025-10-30T0900,3283A,109.9154,40.5685,包头市,滨河大厦,,38,38,48,16,22,18,,35,32,44,34,11,14,0.6,0.6
2025-10-30T0900,3419A,109.9447,40.6261,包头市,包头市委党校,颗粒物(PM10),51,52,54,13,21,13,,28,23,50,34,7,11,0.7,0.6
2025-10-30T0900,3683A,109.8331,40.6576,包头市,昆区政府,,18,18,46,9,24,47,,60,58,23,24,11,14,0.7,0.7
2025-10-30T0900,1931A,107.0708,34.3017,宝鸡市,竹园沟,,30,22,45,21,38,15,,8,8,14,22,7,9,0.4,0.5
2025-10-30T0900,1932A,107.1906,34.3672,宝鸡市,三陆医院,,50,48,86,35,76,6,,4,4,25,39,6,8,0.6,0.8
2025-10-30T0900,1933A,107.1431,34.3547,宝鸡市,监测站,,30,30,64,19,44,10,,5,5,11,25,5,6,0.4,0.6
2025-10-30T0900,1934A,107.1186,34.3739,宝鸡市,技工学校,,50,,65,35,61,8,,7,7,12,24,6,7,0.6,0.7
2025-10-30T0900,1936A,107.2058,34.3497,宝鸡市,文理学院,,39,39,64,20,42,10,,6,6,16,30,5,7,0.5,0.7
2025-10-30T0900,1937A,107.2386,34.3622,宝鸡市,三迪小学,细颗粒物(PM2.5),52,38,85,36,69,8,,3,3,19,41,5,7,0.6,0.8
2025-10-30T0900,4308A,107.3898,34.3601,宝鸡市,陈仓区北开路21号,细颗粒物(PM2.5),59,51,105,42,67,11,,5,5,17,37,6,24,0.6,0.8
2025-10-30T0900,1051A,115.493,38.8632,保定市,游泳馆,细颗粒物(PM2.5),219,178,177,169,161,26,,9,9,25,37,5,7,0.8,0.8
2025-10-30T0900,1052A,115.5213,38.8959,保定市,华电二区,细颗粒物(PM2.5),249,,162,199,166,20,,5,5,29,38,3,2,0.9,1
2025-10-30T0900,1053A,115.4713,38.9108,保定市,接待中心,细颗粒物(PM2.5),219,191,181,169,164,22,,8,8,25,36,3,4,0.8,0.9
2025-10-30T0900,1054A,115.4612,38.8416,保定市,地表水厂,细颗粒物(PM2.5),220,189,189,170,156,27,,11,11,28,40,8,8,0.8,0.9
2025-10-30T0900,3581A,115.31981,38.95208,保定市,满城区生态环境分局,细颗粒物(PM2.5),216,202,195,166,163,16,,23,23,35,37,3,3,0.7,0.7
2025-10-30T0900,3582A,115.47694,38.76408,保定市,清苑区第二中学,细颗粒物(PM2.5),204,202,200,154,146,24,,10,10,24,36,3,2,0.9,1
2025-10-30T0900,3583A,115.62909,39.02311,保定市,徐水物探局,细颗粒物(PM2.5),219,218,193,169,157,12,,4,4,35,41,11,11,1.0,1
2025-10-30T0900,4004A,115.4202,38.8656,保定市,双鹰农机,细颗粒物(PM2.5),207,205,200,157,164,33,,17,17,27,39,3,3,0.8,1
2025-10-30T0900,4034A,115.5150,38.8590,保定市,植保所站,细颗粒物(PM2.5),238,199,188,188,164,20,,7,7,31,42,3,4,1.0,1.1
2025-10-30T0900,2594A,99.1678,25.1081,保山市,市环境监测站,,20,19,20,14,13,8,,24,21,18,7,7,7,0.7,0.4
2025-10-30T0900,2595A,99.1711,25.1328,保山市,市环保局,,19,18,22,13,15,20,,32,30,7,5,6,6,0.6,0.5
2025-10-30T0900,1867A,109.1436,21.4086,北海市,海滩公园,细颗粒物(PM2.5),70,64,65,51,45,52,,61,59,15,14,8,11,0.8,0.8
2025-10-30T0900,1868A,109.0981,21.4661,北海市,新市环保局,细颗粒物(PM2.5),67,54,63,48,49,55,,54,54,14,16,4,6,0.7,0.7
2025-10-30T0900,1869A,109.1778,21.5233,北海市,北海工业园,细颗粒物(PM2.5),70,78,71,51,52,48,,50,49,17,15,6,8,0.8,0.9
2025-10-30T0900,3400A,109.1911,21.4415,北海市,龙潭自来水厂,,,65,68,64,55,,,45,44,9,11,4,6,0.7,0.7
2025-10-30T0900,1001A,116.3621,39.8784,北京市,万寿西宫,细颗粒物(PM2.5),202,182,189,152,153,4,,2,1,50,40,2,2,1.2,1.1
2025-10-30T0900,1003A,116.4174,39.9289,北京市,东四,细颗粒物(PM2.5),201,,194,151,154,4,,2,2,43,37,3,2,1.2,1.1
2025-10-30T0900,1004A,116.4072,39.8863,北京市,天坛,细颗粒物(PM2.5),193,169,168,145,139,5,,2,2,54,30,1,1,1.1,0.9
2025-10-30T0900,1005A,116.462,39.9365,北京市,农展馆,细颗粒物(PM2.5),190,173,176,143,140,2,,0,0,39,38,4,4,1.1,1.1
2025-10-30T0900,1006A,116.3392,39.9295,北京市,官园,细颗粒物(PM2.5),198,182,183,148,149,2,,2,1,46,38,1,1,1.1,1
2025-10-30T0900,1007A,116.2878,39.9611,北京市,海淀万柳,细颗粒物(PM2.5),183,174,180,138,136,2,,0,0,41,44,4,4,1.2,1
2025-10-30T0900,1008A,116.6636,40.135,北京市,顺义新城,细颗粒物(PM2.5),159,167,186,121,135,4,,1,1,33,40,3,3,1.0,1
2025-10-30T0900,1009A,116.6275,40.3275,北京市,怀柔镇,细颗粒物(PM2.5),165,142,173,125,145,11,,9,9,20,37,3,3,0.9,0.9
2025-10-30T0900,1010A,116.2296,40.217,北京市,昌平镇,细颗粒物(PM2.5),172,159,178,130,137,8,,6,6,34,39,4,4,1.0,0.9
2025-10-30T0900,1011A,116.3966,39.9821,北京市,奥体中心,细颗粒物(PM2.5),172,169,178,130,141,1,,0,0,49,44,4,4,1.1,1
2025-10-30T0900,3281A,115.9718,40.4529,北京市,延庆夏都,细颗粒物(PM2.5),104,133,149,78,104,4,,5,5,29,29,2,3,1.1,0.9
2025-10-30T0900,3418A,116.8336,40.4095,北京市,密云新城,细颗粒物(PM2.5),99,92,174,74,127,43,,23,23,10,26,3,2,0.6,0.9
2025-10-30T0900,3671A,116.088,39.9726,北京市,门头沟三家店,细颗粒物(PM2.5),165,154,174,125,131,7,,5,5,23,32,1,2,0.8,0.8
2025-10-30T0900,3672A,116.1541,39.8204,北京市,丰台云岗,细颗粒物(PM2.5),182,171,183,137,139,3,,2,1,33,40,3,3,0.8,0.9
2025-10-30T0900,3673A,116.6804,39.9081,北京市,通州东关,细颗粒物(PM2.5),201,203,193,151,148,3,,2,2,45,45,4,3,1.1,0.9
2025-10-30T0900,3674A,115.9577,39.7603,北京市,房山燕山,细颗粒物(PM2.5),185,159,167,139,136,5,,4,4,28,35,3,3,0.9,0.8
2025-10-30T0900,3675A,116.4672,39.7733,北京市,大兴旧宫,细颗粒物(PM2.5),183,193,179,138,123,2,,0,0,45,37,2,2,1.3,1.1
2025-10-30T0900,3694A,115.986,40.4563,北京市,延庆石河营,颗粒物(PM10),91,132,147,67,100,5,,4,4,20,23,2,2,0.8,0.7
2025-10-30T0900,3695A,116.6151,40.3053,北京市,怀柔新城,细颗粒物(PM2.5),186,155,179,140,154,14,,12,12,14,33,3,3,0.8,0.9
2025-10-30T0900,3696A,116.2545,39.8768,北京市,丰台小屯,细颗粒物(PM2.5),123,179,179,93,122,2,,0,0,35,35,3,3,1.2,1
2025-10-30T0900,3697A,116.84,40.3844,北京市,密云镇,细颗粒物(PM2.5),109,110,174,82,131,36,,14,14,16,30,7,5,0.6,0.9
2025-10-30T0900,4182A,116.1942,39.9158,北京市,八角北路9号,细颗粒物(PM2.5),186,193,193,140,143,5,,1,1,39,44,2,2,1.1,0.9
2025-10-30T0900,4194A,117.0790,40.1518,北京市,洳河巡河路,细颗粒物(PM2.5),156,165,200,119,144,7,,8,8,24,26,3,3,1.0,1
2025-10-30T0900,1761A,123.8275,41.3064,本溪市,大峪,,30,30,72,16,46,48,,69,62,18,16,10,9,0.5,0.7
2025-10-30T0900,1762A,123.7567,41.3325,本溪市,溪湖,,42,42,83,16,54,51,,69,62,16,21,9,14,0.6,1.1
2025-10-30T0900,1763A,123.7169,41.3094,本溪市,彩屯,,39,39,91,20,58,26,,54,44,34,27,24,16,0.9,1.7
2025-10-30T0900,1764A,123.7669,41.2864,本溪市,东明,,,,62,12,42,50,,70,64,20,17,12,10,0.7,0.9
2025-10-30T0900,1765A,123.7992,41.2664,本溪市,新立屯,,25,,56,17,44,50,,71,64,15,16,8,8,0.3,0.5
2025-10-30T0900,1766A,123.8142,41.3472,本溪市,威宁,颗粒物(PM10),60,69,70,20,44,41,,65,58,22,16,7,7,0.5,0.7
2025-10-30T0900,2587A,105.2864,27.3125,毕节市,八中,,22,18,13,15,7,23,,35,32,10,6,7,7,0.8,0.7
2025-10-30T0900,2588A,105.31,27.2944,毕节市,师专,,11,11,7,7,4,24,,38,35,11,8,8,8,0.7,0.7
2025-10-30T0900,4263A,105.3688,27.3598,毕节市,工业大道,,9,9,5,3,3,28,,49,45,13,7,8,8,0.7,0.6
2025-10-30T0900,1629A,118.0018,37.3617,滨州市,第二水厂,细颗粒物(PM2.5),65,78,79,47,48,13,,8,5,44,38,10,9,0.9,0.5
2025-10-30T0900,1630A,117.9776,37.393,滨州市,北中新校,颗粒物(PM10),70,90,74,46,43,12,,13,9,53,38,9,8,1.3,0.5
2025-10-30T0900,3514A,117.9378,37.3956,滨州市,中海酒店,细颗粒物(PM2.5),67,80,72,48,47,15,,22,17,62,49,7,6,1.4,0.8
2025-10-30T0900,3515A,117.9378,37.3553,滨州市,开发区一中,细颗粒物(PM2.5),77,95,90,56,49,20,,14,11,49,47,11,9,1.0,0.7
2025-10-30T0900,3516A,118.0917,37.694,滨州市,金海六路,颗粒物(PM10),63,76,84,36,46,15,,12,11,41,45,6,7,1.0,0.9
2025-10-30T0900,4028A,117.9956,37.3753,滨州市,滨州市西街道办事处,颗粒物(PM10),69,88,82,48,51,21,,11,9,42,36,10,9,1.0,0.6
2025-10-30T0900,2311A,115.8072,33.8399,亳州市,污水处理厂,细颗粒物(PM2.5),89,91,74,66,48,17,,16,16,30,30,16,11,0.6,0.5
2025-10-30T0900,2312A,115.7789,33.8518,亳州市,三国揽胜宫,细颗粒物(PM2.5),95,87,72,71,49,16,,23,20,30,24,10,9,0.7,0.6
2025-10-30T0900,3332A,115.7633,33.8034,亳州市,亳州学院,,,,78,62,47,,,34,31,30,26,8,8,0.5,0.4
2025-10-30T0900,2693A,82.0485,44.8556,博尔塔拉蒙古自治州,市党校,细颗粒物(PM2.5),72,68,66,52,43,15,,20,18,17,20,5,4,0.6,0.2
2025-10-30T0900,2694A,82.0806,44.8969,博尔塔拉蒙古自治州,市环保局,颗粒物(PM10),88,125,104,26,24,10,,15,15,21,28,6,7,0.5,0.6
2025-10-30T0900,1071A,116.8842,38.2991,沧州市,沧县城建局,细颗粒物(PM2.5),98,107,126,73,95,10,,5,5,69,48,10,5,0.8,0.9
2025-10-30T0900,1072A,116.8584,38.3254,沧州市,电视转播站,细颗粒物(PM2.5),94,105,124,70,91,6,,2,2,60,43,5,5,0.9,0.9
2025-10-30T0900,1073A,116.8709,38.3228,沧州市,市环保局,细颗粒物(PM2.5),119,116,136,90,106,10,,3,3,68,49,9,6,0.6,0.7
2025-10-30T0900,3324A,116.8136,38.3004,沧州市,河北水利电力学院,细颗粒物(PM2.5),82,110,129,60,80,17,,8,8,60,50,16,8,0.6,0.7
2025-10-30T0900,2622A,97.1806,31.1273,昌都市,昌都监测站,,15,,11,10,6,24,,43,39,11,6,3,3,0.4,0.3
2025-10-30T0900,3719A,97.1714,31.1406,昌都市,昌都会议中心,,13,12,7,9,5,25,,43,38,5,2,3,4,0.4,0.3
2025-10-30T0900,2692A,87.2717,44.0297,昌吉回族自治州,新区政务中心,颗粒物(PM10),53,55,76,30,27,9,,22,22,48,44,6,9,0.6,0.7
2025-10-30T0900,3613A,87.3095,44.0142,昌吉回族自治州,亚心广场,颗粒物(PM10),69,88,100,29,35,16,,25,25,34,40,8,10,0.6,0.7
2025-10-30T0900,1120A,125.2863,43.9027,长春市,客车厂,,42,42,86,22,62,32,,31,29,23,23,7,8,0.3,0.5
2025-10-30T0900,1121A,125.2841,43.8463,长春市,邮电学院,,26,26,92,18,65,36,,34,32,21,26,8,8,0.4,0.6
2025-10-30T0900,1122A,125.3716,43.8772,长春市,劳动公园,,46,46,99,9,52,34,,34,32,24,24,12,11,0.6,0.7
2025-10-30T0900,1123A,125.3297,43.8805,长春市,园林处,颗粒物(PM10),80,110,109,17,62,32,,30,28,24,24,9,8,0.3,0.5
2025-10-30T0900,1124A,125.4605,43.79,长春市,净月潭,,32,32,77,8,46,15,,31,27,33,17,7,7,0.4,0.6
2025-10-30T0900,1126A,125.3863,43.8447,长春市,经开区环卫处,,40,40,80,12,53,25,,28,25,30,23,8,8,0.4,0.6
2025-10-30T0900,1127A,125.245,43.7783,长春市,高新区管委会,,33,33,80,21,57,32,,32,30,22,19,12,7,0.3,0.5
2025-10-30T0900,1128A,125.1761,43.8325,长春市,岱山公园,,,37,84,24,63,26,,32,29,25,24,,7,,0.6
2025-10-30T0900,4281A,125.3346,43.9164,长春市,北亚泰大街1068号,,45,45,94,21,64,21,,21,19,30,30,18,9,0.5,0.7
2025-10-30T0900,1335A,113.0833,28.2325,长沙市,经开区环保局,,,,93,67,90,,,54,54,17,30,4,6,0.7,0.6
2025-10-30T0900,1336A,112.8872,28.2189,长沙市,高开区环保局,细颗粒物(PM2.5),155,,92,118,128,71,,76,76,16,27,5,6,0.6,0.5
2025-10-30T0900,1337A,113.0792,28.2053,长沙市,马坡岭,细颗粒物(PM2.5),75,,86,55,70,59,,61,61,20,26,4,6,0.8,0.7
2025-10-30T0900,1338A,112.9394,28.19,长沙市,湖南师范大学,细颗粒物(PM2.5),87,66,92,64,61,88,,83,83,15,28,3,5,0.6,0.7
2025-10-30T0900,1339A,113.0178,28.1322,长沙市,雨花区环保局,细颗粒物(PM2.5),94,,82,70,79,72,,72,72,14,24,6,7,0.8,0.7
2025-10-30T0900,1340A,112.9792,28.2597,长沙市,伍家岭,细颗粒物(PM2.5),105,,95,79,81,74,,67,67,16,29,4,5,0.6,0.6
2025-10-30T0900,1341A,113.0014,28.1944,长沙市,火车新站,细颗粒物(PM2.5),89,,87,66,69,77,,75,75,19,27,8,10,0.7,0.7
2025-10-30T0900,1342A,112.9844,28.1178,长沙市,天心区环保局,细颗粒物(PM2.5),73,,84,53,61,84,,82,82,16,26,5,6,0.7,0.7
2025-10-30T0900,1343A,112.8908,28.1308,长沙市,湖南中医药大学,细颗粒物(PM2.5),80,69,86,59,61,80,,79,79,12,24,4,6,0.8,0.8
2025-10-30T0900,1727A,113.1147,36.1547,长治市,清华站,细颗粒物(PM2.5),89,67,46,66,33,27,,56,48,40,24,12,11,1.0,0.6
2025-10-30T0900,1730A,113.0886,36.2125,长治市,审计局,细颗粒物(PM2.5),92,,42,68,41,27,,50,44,32,24,8,9,0.8,0.4
2025-10-30T0900,1731A,113.0844,36.1856,长治市,长治八中,细颗粒物(PM2.5),87,96,63,64,43,4,,46,37,38,19,7,9,1.0,0.7
2025-10-30T0900,2845A,113.1569,36.1911,长治市,德盛苑,,,65,46,,32,50,,81,75,15,15,5,6,1.1,0.7
2025-10-30T0900,3568A,113.06,36.0464,长治市,向阳小学,细颗粒物(PM2.5),73,89,65,53,36,30,,66,60,36,23,8,9,0.9,0.7
2025-10-30T0900,3569A,112.8792,36.3144,长治市,屯留一中,颗粒物(PM10),67,83,61,40,40,3,,2,2,27,26,10,9,0.9,0.6
2025-10-30T0900,4189A,113.1131,36.19948,长治市,英华南巷50号,细颗粒物(PM2.5),94,77,57,70,36,38,,52,46,24,20,6,7,1.4,0.9
2025-10-30T0900,4190A,113.2367,36.3344,长治市,学府街1号,细颗粒物(PM2.5),103,91,77,77,50,21,,36,33,37,37,13,11,1.5,1.2
2025-10-30T0900,1854A,111.6975,28.9703,常德市,市二中,细颗粒物(PM2.5),52,42,70,36,54,62,,70,69,12,17,4,6,0.8,0.8
2025-10-30T0900,3138A,111.7153,29.0289,常德市,武陵区永安,细颗粒物(PM2.5),52,40,68,36,47,83,,90,90,16,17,3,6,0.7,0.8
2025-10-30T0900,3139A,111.6892,28.9881,常德市,鼎城区玉霞,颗粒物(PM10),56,62,83,38,52,58,,73,73,18,19,5,6,0.9,1
2025-10-30T0900,3140A,111.6625,29.0531,常德市,武陵区长庚,颗粒物(PM10),51,51,71,35,50,74,,76,76,16,19,3,4,0.5,0.5
2025-10-30T0900,1196A,119.9633,31.762,常州市,市监测站,颗粒物(PM10),59,67,36,29,15,14,,35,31,64,34,10,9,0.8,0.6
2025-10-30T0900,1200A,119.9468,31.7069,常州市,武进监测站,颗粒物(PM10),51,52,29,12,8,24,,52,48,63,32,10,10,0.6,0.5
2025-10-30T0900,1201A,119.9255,31.9087,常州市,安家,,40,40,33,18,11,35,,36,35,41,26,9,9,0.4,0.4
2025-10-30T0900,3002A,119.9805,31.8174,常州市,行政中心,,45,45,36,20,15,24,,35,33,55,33,7,6,0.7,0.6
2025-10-30T0900,3003A,120.0522,31.7748,常州市,经开区,颗粒物(PM10),59,67,43,22,12,16,,25,23,57,35,11,9,0.8,0.6
2025-10-30T0900,3010A,119.9025,31.7964,常州市,钟楼,,39,39,32,25,16,28,,45,42,56,33,11,10,1.0,0.7
2025-10-30T0900,3429A,119.8598,31.7066,常州市,武进经发区,,,,26,,10,,,52,52,59,37,12,12,1.0,0.9
2025-10-30T0900,3430A,119.5826,31.7245,常州市,金坛城区,,33,33,27,14,11,44,,53,53,29,21,7,9,0.5,0.5
2025-10-30T0900,2220A,120.4318,41.5881,朝阳市,西梁,颗粒物(PM10),58,66,85,21,73,36,,27,27,36,27,15,10,0.8,1
2025-10-30T0900,2221A,120.4521,41.5646,朝阳市,河畔小区,,29,29,55,7,69,46,,40,40,19,21,16,7,0.4,0.9
2025-10-30T0900,2222A,120.4176,41.5648,朝阳市,八里堡,,,62,64,26,70,,,28,28,34,28,16,10,0.8,1.1
2025-10-30T0900,2223A,120.3806,41.5969,朝阳市,农业园区,,40,40,48,17,76,34,,29,27,31,24,12,8,0.5,0.9
2025-10-30T0900,3026A,116.6183,23.6608,潮州市,市政府,,44,44,40,15,14,41,,38,36,15,11,4,5,0.6,0.5
2025-10-30T0900,4036A,116.6461,23.6761,潮州市,金山,,29,28,29,20,18,34,,25,25,10,10,3,4,0.6,0.5
2025-10-30T0900,2473A,113.0116,25.8226,郴州市,市职中,细颗粒物(PM2.5),100,80,74,75,68,12,,11,11,26,24,4,12,0.6,0.7
2025-10-30T0900,2475A,113.0383,25.8071,郴州市,市审计局,细颗粒物(PM2.5),114,86,77,86,70,20,,11,11,17,19,10,18,0.5,0.5
2025-10-30T0900,2476A,113.0348,25.7759,郴州市,市环保局,细颗粒物(PM2.5),109,92,86,82,67,8,,12,12,30,26,4,12,0.7,0.6
2025-10-30T0900,4252A,113.0138,25.8011,郴州市,好美居路49号,细颗粒物(PM2.5),78,65,74,57,61,19,,19,19,26,26,3,13,0.9,0.9
2025-10-30T0900,1431A,103.9728,30.7236,成都市,金泉两河,细颗粒物(PM2.5),60,61,33,43,26,19,,8,8,23,29,3,3,0.6,0.6
2025-10-30T0900,1432A,104.176,30.6872,成都市,十里店,细颗粒物(PM2.5),79,59,58,58,44,6,,12,11,35,37,3,3,0.7,0.6
2025-10-30T0900,1433A,104.079,30.5706,成都市,三瓦窑,细颗粒物(PM2.5),88,78,64,65,54,36,,17,17,19,36,3,4,0.7,0.7
2025-10-30T0900,1434A,104.1114,30.63,成都市,沙河铺,细颗粒物(PM2.5),93,73,63,69,57,11,,5,5,34,42,4,4,0.6,0.6
2025-10-30T0900,1437A,104.0786,30.6531,成都市,君平街,细颗粒物(PM2.5),114,87,54,86,54,23,,15,15,21,32,4,4,0.6,0.6
2025-10-30T0900,2880A,104.0239,30.65639,成都市,大石西路,细颗粒物(PM2.5),87,,43,64,40,27,,13,13,22,37,3,3,0.7,0.8
2025-10-30T0900,3136A,104.2725,30.5589,成都市,龙泉驿区区政府,,32,29,26,22,20,17,,23,22,20,18,5,5,0.6,0.5
2025-10-30T0900,3357A,104.0106,30.6931,成都市,金博路,细颗粒物(PM2.5),79,65,45,58,29,24,,14,14,21,33,5,5,0.6,0.7
2025-10-30T0900,3359A,104.0578,30.5225,成都市,华阳,细颗粒物(PM2.5),58,41,39,41,36,46,,29,29,17,29,5,4,0.4,0.7
2025-10-30T0900,3488A,104.3880,30.7467,成都市,青石路225号,细颗粒物(PM2.5),75,92,46,55,30,3,,5,5,24,26,5,5,0.9,0.7
2025-10-30T0900,3489A,104.0789,30.4072,成都市,科学城,,,,29,,22,,,22,22,16,22,4,4,0.7,0.6
2025-10-30T0900,4011A,103.8506,30.6947,成都市,光华大道三段,细颗粒物(PM2.5),80,83,50,59,32,19,,22,21,22,25,1,1,0.9,0.7
2025-10-30T0900,4224A,104.2433,30.5353,成都市,鲸龙路1057号,,36,30,32,25,28,22,,25,24,25,21,4,5,0.9,0.6
2025-10-30T0900,1062A,117.9531,40.9081,承德市,铁路,细颗粒物(PM2.5),118,127,147,89,105,15,,10,10,38,50,1,5,0.7,1
2025-10-30T0900,1063A,117.9392,40.9763,承德市,中国银行,细颗粒物(PM2.5),122,117,142,92,106,10,,4,4,26,36,2,4,0.7,0.9
2025-10-30T0900,1064A,117.9503,40.928,承德市,开发区,细颗粒物(PM2.5),114,136,150,86,102,,,13,13,31,43,4,8,0.7,1
2025-10-30T0900,4274A,117.7994,40.9605,承德市,滨河大街98号,细颗粒物(PM2.5),118,108,96,89,103,5,,2,2,44,39,2,6,0.8,0.8
2025-10-30T0900,2314A,117.47,30.6618,池州市,池州学院,细颗粒物(PM2.5),68,63,88,49,63,18,,14,14,41,41,6,8,0.9,0.8
2025-10-30T0900,3237A,117.4918,30.6617,池州市,展览馆,,,53,78,38,55,22,,13,13,,38,,7,0.8,0.9
2025-10-30T0900,3333A,117.5627,30.695,池州市,第八中学,细颗粒物(PM2.5),62,61,79,44,54,18,,18,17,35,33,8,8,1.0,0.9
2025-10-30T0900,3334A,117.5038,30.6243,池州市,第十二中学,细颗粒物(PM2.5),62,51,65,44,51,21,,16,16,28,36,5,6,1.2,0.9
2025-10-30T0900,1744A,118.9233,42.2816,赤峰市,松山一中,颗粒物(PM10),58,65,62,25,33,8,,3,2,44,42,20,10,0.7,0.7
2025-10-30T0900,1745A,118.9576,42.2728,赤峰市,哈达街,,,77,69,36,41,,,7,7,44,38,20,12,1.0,0.8
2025-10-30T0900,1746A,118.8788,42.2554,赤峰市,天义路,细颗粒物(PM2.5),73,60,44,53,37,16,,10,10,46,42,13,8,1.1,0.2
2025-10-30T0900,3058A,119.2658,42.0353,赤峰市,银河街,,48,48,82,18,49,37,,31,31,10,25,33,16,0.2,0.5
2025-10-30T0900,3286A,118.9359,42.3147,赤峰市,桥北物流园区,,22,,49,15,36,13,,5,5,38,41,11,9,0.6,0.6
2025-10-30T0900,2521A,107.3476,22.4136,崇左市,市环保局江州分局,,46,42,50,32,39,38,,62,58,12,9,1,3,1.1,0.8
2025-10-30T0900,4256A,107.3750,22.3736,崇左市,石景林东路7号,,49,,44,34,38,48,,70,66,11,10,6,8,0.8,0.7
2025-10-30T0900,2298A,118.3093,32.3153,滁州市,老年大学,,33,31,40,23,24,13,,30,26,27,25,11,11,0.3,0.3
2025-10-30T0900,2299A,118.3244,32.2786,滁州市,人大宾馆,,38,33,39,26,18,9,,34,30,37,23,5,6,0.4,0.3
2025-10-30T0900,3207A,118.3118,32.3038,滁州市,市政府原办公楼,,43,35,43,30,23,18,,39,35,37,25,6,7,0.6,0.4
2025-10-30T0900,3331A,118.3267,32.2634,滁州市,图书馆,,35,35,39,22,16,10,,32,29,45,26,7,8,0.4,0.3
2025-10-30T0900,2605A,101.5482,25.0441,楚雄彝族自治州,州环境监测站,,27,27,15,16,11,3,,16,14,13,5,14,10,0.8,0.6
2025-10-30T0900,2606A,101.538,25.0492,楚雄彝族自治州,市经济开发区,,24,24,20,16,11,9,,9,7,13,8,10,7,0.9,0.6
2025-10-30T0900,2549A,107.5086,31.2186,达州市,市环境监测站,,25,25,36,17,22,10,,5,5,22,27,6,7,0.5,0.5
2025-10-30T0900,2550A,107.4988,31.2132,达州市,凤凰小区,,22,22,41,9,23,18,,6,6,16,28,4,6,0.3,0.4
2025-10-30T0900,2551A,107.5082,31.1986,达州市,达县机关宾馆,,36,36,32,10,8,5,,3,3,24,28,5,6,0.5,0.5
2025-10-30T0900,2552A,107.4644,31.2124,达州市,市政中心,,36,36,49,9,24,11,,6,6,21,29,5,6,0.4,0.5
2025-10-30T0900,2614A,100.1542,25.7054,大理白族自治州,大理市环境监测站,,18,17,16,12,9,37,,44,43,11,8,5,5,0.6,0.5
2025-10-30T0900,2615A,100.2171,25.5811,大理白族自治州,大理古城,,26,26,20,12,13,23,,43,40,22,9,7,7,0.6,0.4
2025-10-30T0900,1109A,121.612,38.9741,大连市,甘井子,,,,43,,15,60,,77,74,32,18,9,8,0.4,0.4
2025-10-30T0900,1110A,121.565,38.9511,大连市,周水子,,35,35,41,12,15,58,,75,71,34,19,10,10,0.4,0.3
2025-10-30T0900,1111A,121.5637,38.8845,大连市,星海三站,,29,29,41,8,13,70,,86,83,15,9,6,6,0.3,0.3
2025-10-30T0900,1112A,121.6302,38.9117,大连市,青泥洼桥,,30,30,30,8,13,70,,87,84,23,11,9,9,0.6,0.5
2025-10-30T0900,1113A,121.6251,38.8638,大连市,傅家庄,,32,32,40,8,12,78,,88,86,13,11,9,8,0.3,0.4
2025-10-30T0900,1114A,121.5213,38.8661,大连市,七贤岭,,29,29,41,8,13,76,,84,82,18,16,8,11,0.4,0.5
2025-10-30T0900,1115A,121.2529,38.8061,大连市,旅顺,,22,22,31,7,13,69,,82,80,16,10,6,7,0.2,0.3
2025-10-30T0900,1116A,121.7485,39.1311,大连市,金州,,31,31,34,13,17,71,,85,83,33,23,11,10,0.2,0.3
2025-10-30T0900,1117A,121.7811,39.0496,大连市,开发区,,40,40,48,16,15,36,,65,59,53,19,6,6,0.4,0.3
2025-10-30T0900,1118A,121.9762,39.0631,大连市,双D港,,32,32,33,10,13,78,,82,81,21,14,11,9,0.5,0.6
2025-10-30T0900,1789A,124.81117,46.03138,大庆市,大同区,,19,19,149,9,114,27,,21,19,13,27,8,10,0.4,0.8
2025-10-30T0900,1790A,125.129,46.533,大庆市,龙凤区,,46,46,157,26,116,24,,26,24,25,36,8,10,2.2,1.2
2025-10-30T0900,1791A,124.902,46.408,大庆市,红岗区,,29,29,145,10,112,28,,23,23,20,30,6,7,0.6,1
2025-10-30T0900,1792A,125.153,46.586,大庆市,萨尔图区,颗粒物(PM10),51,52,174,29,134,22,,32,30,36,39,12,14,0.5,0.8
2025-10-30T0900,1793A,124.9042,46.6215,大庆市,让胡路区,,34,34,153,20,123,28,,34,32,19,31,6,9,0.5,0.9
2025-10-30T0900,3481A,125.141,46.634,大庆市,萨区政府监测点,,,39,172,9,120,,,32,31,16,24,10,11,0.4,0.9
2025-10-30T0900,1723A,113.2994,40.0758,大同市,云冈宾馆,,,67,67,20,28,24,,28,25,,25,14,14,1.6,1
2025-10-30T0900,1724A,113.3444,40.0917,大同市,大同大学,,47,47,55,20,26,19,,35,32,46,36,17,17,0.9,0.7
2025-10-30T0900,1725A,113.2661,40.1269,大同市,安家小村,颗粒物(PM10),62,73,64,32,27,17,,34,28,41,32,12,12,1.2,0.8
2025-10-30T0900,1726A,113.2711,40.0844,大同市,教育学院,颗粒物(PM10),57,64,64,26,29,24,,32,27,40,36,16,13,1.4,1
2025-10-30T0900,3282A,113.3397,40.0597,大同市,大同市卫生学校,,33,33,56,20,26,31,,35,34,34,34,16,15,1.6,0.9
2025-10-30T0900,3565A,113.1367,40.1122,大同市,云冈站,颗粒物(PM10),51,52,51,20,23,23,,43,38,32,21,22,18,0.9,0.7
2025-10-30T0900,3566A,113.1186,40.2556,大同市,图书馆,,50,42,46,35,24,18,,27,23,39,20,39,15,0.9,0.7
2025-10-30T0900,3567A,113.5931,40.0461,大同市,区一中,细颗粒物(PM2.5),52,,56,36,28,28,,72,66,51,20,11,14,0.8,0.7
2025-10-30T0900,4199A,113.2798,40.0997,大同市,魏都大道141号,颗粒物(PM10),70,90,75,35,29,15,,38,32,48,34,12,12,1.5,0.9
2025-10-30T0900,2269A,124.1069,50.4097,大兴安岭地区,科技局,,23,21,35,16,22,24,,24,23,6,9,4,5,0.3,0.3
2025-10-30T0900,3663A,124.1164,50.4278,大兴安岭地区,红旗社区,,41,41,26,20,17,16,,21,18,24,13,7,5,0.5,0.3
2025-10-30T0900,1600A,124.3303,40.0625,丹东市,江湾东路,,47,47,37,30,18,22,,62,54,63,20,8,8,0.9,0.7
2025-10-30T0900,1601A,124.4256,40.1503,丹东市,临江后街,,37,37,46,20,19,22,,68,61,47,20,9,9,1.8,0.9
2025-10-30T0900,1602A,124.3933,40.1461,丹东市,元宝山,,20,20,39,11,18,37,,68,64,26,23,7,9,0.8,0.9
2025-10-30T0900,1603A,124.3633,40.1092,丹东市,民主桥,,28,28,45,13,20,34,,64,59,48,26,6,8,0.4,0.6
2025-10-30T0900,3541A,109.5726,19.5167,儋州市,第一中学子站,,15,6,14,3,9,46,,49,49,4,6,2,2,0.3,0.4
2025-10-30T0900,3542A,109.5567,19.5187,儋州市,东坡学校子站,,18,6,14,3,9,55,,58,58,7,8,6,4,0.2,0.3
2025-10-30T0900,2616A,98.5842,24.428,德宏傣族景颇族自治州,德宏州监测站,,30,26,32,21,20,5,,13,11,19,18,11,10,0.8,0.6
2025-10-30T0900,3677A,98.5881,24.4368,德宏傣族景颇族自治州,芒市人民政府综合楼,,26,26,36,3,17,9,,17,14,14,12,7,7,0.7,0.5
2025-10-30T0900,1901A,104.4239,31.1208,德阳市,东山公园,,36,34,25,25,20,7,,5,5,27,21,2,2,0.9,0.8
2025-10-30T0900,1902A,104.3826,31.1317,德阳市,西小区,颗粒物(PM10),54,58,54,34,36,3,,3,3,34,33,3,2,1.4,1
2025-10-30T0900,1904A,104.3553,31.1091,德阳市,耐火材料厂,颗粒物(PM10),58,65,53,33,35,1,,1,1,38,36,4,2,1.0,0.8
2025-10-30T0900,3639A,104.4019,31.1244,德阳市,市教育局,,44,44,39,28,26,1,,1,0,32,27,3,3,1.0,0.8
2025-10-30T0900,1622A,116.3032,37.4674,德州市,儿童乐园,细颗粒物(PM2.5),89,124,105,66,55,12,,43,36,51,32,12,13,1.3,0.8
2025-10-30T0900,1624A,116.2991,37.4451,德州市,监理站,颗粒物(PM10),73,95,91,41,49,27,,52,48,55,37,16,15,1.0,0.7
2025-10-30T0900,3066A,116.2721,37.4379,德州市,九衢泉纯净水厂,颗粒物(PM10),69,88,97,44,45,10,,37,32,57,40,17,14,0.9,0.7
2025-10-30T0900,3371A,116.3728,37.4403,德州市,开发区人民医院,颗粒物(PM10),71,92,87,41,40,9,,33,30,56,41,15,14,1.0,0.8
2025-10-30T0900,3511A,116.5652,37.3319,德州市,陵城艺术中心,颗粒物(PM10),85,119,80,56,43,2,,20,15,62,41,20,14,1.0,0.8
2025-10-30T0900,4292A,116.3525,37.4209,德州市,新河东路,颗粒物(PM10),65,80,91,46,45,18,,29,26,62,47,12,11,0.9,0.8
2025-10-30T0900,2621A,99.7056,27.8317,迪庆藏族自治州,迪庆州站,,45,45,23,26,17,22,,41,37,27,9,7,6,0.8,0.5
2025-10-30T0900,3180A,99.7136,27.8094,迪庆藏族自治州,质量技术监督局,,29,29,30,9,11,32,,50,47,22,11,7,7,0.6,0.4
2025-10-30T0900,4257A,104.6092,35.5962,定西市,将台街,细颗粒物(PM2.5),82,82,64,60,38,8,,8,8,26,28,10,9,0.9,0.8
2025-10-30T0900,4309A,104.6159,35.5701,定西市,正龙路62号,颗粒物(PM10),61,72,69,32,38,13,,14,14,12,18,6,9,0.5,0.6
2025-10-30T0900,1389A,113.7547,23.0494,东莞市,莞城梨川,,30,30,48,3,23,54,,53,53,18,26,5,7,0.6,0.7
2025-10-30T0900,1390A,113.7944,23.0128,东莞市,东城石井,,32,32,43,22,30,49,,46,46,23,26,6,7,0.7,0.7
2025-10-30T0900,1391A,113.7383,22.9658,东莞市,南城西平,,,40,48,26,33,,,21,21,30,37,7,9,0.8,0.8
2025-10-30T0900,3319A,113.7338,23.0381,东莞市,万江金泰,,32,32,51,20,36,49,,49,49,16,22,4,6,0.6,0.7
2025-10-30T0900,3626A,113.7533,23.0202,东莞市,南城元岭,,29,26,47,20,32,55,,50,50,15,23,5,7,0.6,0.6
2025-10-30T0900,3627A,113.7875,23.0457,东莞市,东城主山,,30,29,48,21,34,49,,46,46,23,29,4,6,0.7,0.7
2025-10-30T0900,1666A,118.6614,37.4309,东营市,市环保局,,48,48,59,19,27,22,,34,31,38,30,34,20,0.8,0.7
2025-10-30T0900,3036A,118.6904,37.4338,东营市,开发区管委会,颗粒物(PM10),58,65,65,29,31,22,,46,42,40,26,25,14,0.7,0.6
2025-10-30T0900,3365A,118.5719,37.565,东营市,垦利区民丰路,颗粒物(PM10),57,63,76,24,40,23,,33,30,39,33,10,10,1.0,0.8
2025-10-30T0900,3498A,118.5055,37.8612,东营市,河口城区,颗粒物(PM10),56,61,79,29,39,31,,40,39,36,31,9,10,0.8,0.6
2025-10-30T0900,3646A,118.4978,37.4623,东营市,胜利站,颗粒物(PM10),54,58,82,22,39,19,,30,27,49,39,14,12,1.0,0.8
2025-10-30T0900,3734A,118.35,37.26,东营市,理想之城,颗粒物(PM10),58,66,79,29,44,17,,26,25,41,40,10,7,0.7,0.6
2025-10-30T0900,1591A,110.0023,39.8129,鄂尔多斯市,综合楼,,27,27,60,3,23,57,,32,31,36,37,7,14,0.4,0.5
2025-10-30T0900,1592A,109.9486,39.8261,鄂尔多斯市,巴音孟克林场办事处,,39,39,68,22,28,60,,39,39,26,30,7,12,0.3,0.5
2025-10-30T0900,1593A,109.7736,39.5986,鄂尔多斯市,康泽苑,,36,36,65,22,29,29,,51,46,28,19,8,8,0.7,0.5
2025-10-30T0900,1594A,109.8119,39.5989,鄂尔多斯市,华泰汽车城,颗粒物(PM10),54,58,68,27,29,10,,26,20,39,29,5,5,0.9,0.5
2025-10-30T0900,1595A,109.9734,39.7884,鄂尔多斯市,奥林花园,颗粒物(PM10),51,51,72,9,23,56,,37,37,32,31,8,11,0.6,0.5
2025-10-30T0900,2436A,114.8938,30.3994,鄂州市,市政府,细颗粒物(PM2.5),123,113,105,93,84,41,,52,51,29,29,8,11,0.9,0.7
2025-10-30T0900,2437A,114.8989,30.3714,鄂州市,赵家坝,细颗粒物(PM2.5),128,121,96,97,73,39,,48,45,18,21,8,10,1.2,1
2025-10-30T0900,3654A,114.8094,30.4089,鄂州市,精准医疗中心,细颗粒物(PM2.5),114,95,100,86,81,47,,48,48,25,32,8,12,1.1,1.3
2025-10-30T0900,2454A,109.4978,30.2981,恩施土家族苗族自治州,湖北民院,,36,32,38,25,30,20,,25,25,4,8,7,6,0.7,0.7
2025-10-30T0900,2455A,109.4707,30.2798,恩施土家族苗族自治州,州电力总公司,,36,34,42,25,34,16,,18,18,15,19,5,6,0.5,0.6
2025-10-30T0900,3549A,109.5061,30.3772,恩施土家族苗族自治州,龙凤新区,,32,24,32,22,26,11,,10,10,11,10,7,6,0.6,0.5
2025-10-30T0900,2499A,108.3411,21.6158,防城港市,沙万,细颗粒物(PM2.5),68,,52,49,42,53,,66,64,10,11,4,5,0.6,0.6
2025-10-30T0900,2500A,108.3514,21.7731,防城港市,防城档案局,细颗粒物(PM2.5),58,52,59,41,40,41,,58,56,15,13,6,6,0.8,0.7
2025-10-30T0900,2501A,108.3506,21.6414,防城港市,大海花园,细颗粒物(PM2.5),64,47,51,46,38,58,,72,70,9,10,4,5,0.7,0.7
2025-10-30T0900,1371A,113.1294,23.0067,佛山市,湾梁,颗粒物(PM10),51,51,62,28,31,40,,23,23,30,34,8,8,0.9,0.9
2025-10-30T0900,1372A,113.1083,23.0478,佛山市,华材职中,细颗粒物(PM2.5),53,53,64,37,46,39,,24,24,35,41,7,7,0.7,0.8
2025-10-30T0900,1373A,113.144,23.0453,佛山市,南海气象局,颗粒物(PM10),57,64,64,39,40,38,,25,25,32,38,8,8,0.8,0.8
2025-10-30T0900,1374A,113.2881,22.8094,佛山市,顺德苏岗,颗粒物(PM10),53,56,63,31,40,29,,13,13,45,47,10,9,0.7,0.7
2025-10-30T0900,1376A,112.8383,22.8678,佛山市,高明孔堂,细颗粒物(PM2.5),65,76,74,47,47,45,,23,23,32,35,9,7,0.7,0.7
2025-10-30T0900,1377A,112.8836,23.1588,佛山市,三水监测站,细颗粒物(PM2.5),70,58,63,51,47,41,,31,31,30,34,7,8,0.9,0.9
2025-10-30T0900,1378A,112.867,23.185,佛山市,三水云东海,细颗粒物(PM2.5),84,63,54,62,44,43,,26,26,23,27,6,7,1.0,0.9
2025-10-30T0900,3625A,113.2544,22.7642,佛山市,容桂街道办,,48,48,60,31,41,30,,24,20,44,39,10,9,0.7,0.7
2025-10-30T0900,1282A,119.2681,26.0504,福州市,师大,,23,23,28,9,4,48,,71,66,15,9,6,6,0.4,0.3
2025-10-30T0900,1283A,119.2984,26.1028,福州市,五四北路,,28,28,28,11,5,49,,70,66,17,10,4,4,0.3,0.3
2025-10-30T0900,1284A,119.2648,26.0768,福州市,杨桥西路,,,,27,,5,,,70,67,16,8,,4,0.3,0.3
2025-10-30T0900,1285A,119.317,26.0746,福州市,紫阳,,28,28,31,8,5,52,,72,67,18,9,7,7,0.3,0.3
2025-10-30T0900,3048A,119.5799,26.0936,福州市,九龙,,20,20,25,6,5,59,,70,66,8,7,4,4,0.4,0.4
2025-10-30T0900,3526A,119.5189,25.9664,福州市,吴航,,,34,23,15,8,,,77,75,29,7,5,5,0.5,0.4
2025-10-30T0900,1755A,123.7977,41.8491,抚顺市,望花区,,,9,68,7,44,46,,55,50,13,22,,12,0.4,0.8
2025-10-30T0900,1756A,123.9161,41.8822,抚顺市,顺城区,,23,23,72,7,47,45,,55,50,16,21,7,9,0.4,0.8
2025-10-30T0900,1757A,124.0436,41.8611,抚顺市,东洲区,,15,15,66,8,44,45,,63,58,15,14,9,10,0.4,0.7
2025-10-30T0900,1758A,123.9247,41.8642,抚顺市,新抚区,,30,30,61,7,31,41,,53,48,19,19,7,9,0.5,0.9
2025-10-30T0900,1759A,124.0972,41.8961,抚顺市,大伙房水库,,17,17,47,9,43,42,,62,56,20,15,10,11,0.8,0.8
2025-10-30T0900,1760A,123.7086,41.8391,抚顺市,沈抚新城,,15,10,73,3,50,46,,50,44,15,24,6,9,0.4,0.8
2025-10-30T0900,2377A,116.3544,27.9831,抚州市,市站,细颗粒物(PM2.5),99,104,79,74,57,30,,42,37,25,16,10,10,1.2,1.1
2025-10-30T0900,2378A,116.3565,27.963,抚州市,血防站,细颗粒物(PM2.5),118,113,85,89,62,29,,37,32,34,21,8,8,1.3,1.1
2025-10-30T0900,2379A,116.3564,28.0007,抚州市,采茶剧团,细颗粒物(PM2.5),99,104,97,74,53,28,,45,40,25,14,6,6,1.0,0.9
2025-10-30T0900,2380A,116.385,27.9647,抚州市,医学分院,细颗粒物(PM2.5),112,114,93,84,65,25,,37,32,29,20,6,10,1.3,1.2
2025-10-30T0900,2207A,121.6094,41.998,阜新市,工业园区,,21,21,95,3,61,48,,44,44,17,26,7,11,0.6,0.8
2025-10-30T0900,2208A,121.6697,42.0279,阜新市,长青街,,,19,84,8,64,,,44,44,24,23,9,11,1.6,0.9
2025-10-30T0900,2209A,121.6673,42.0705,阜新市,农业园区,,,12,87,,73,48,,50,49,11,18,4,8,0.9,0.8
2025-10-30T0900,2210A,121.6717,42.0224,阜新市,东苑,,34,34,77,8,58,41,,51,48,22,26,8,12,1.3,0.9
2025-10-30T0900,2211A,121.6506,42.0498,阜新市,玉龙新城,,16,13,91,3,71,51,,26,26,13,36,8,12,0.4,0.8
2025-10-30T0900,2301A,115.8277,32.8929,阜阳市,市监测站,细颗粒物(PM2.5),74,80,76,54,47,12,,19,16,35,35,5,6,0.5,0.4
2025-10-30T0900,2303A,115.8554,32.8605,阜阳市,开发区,细颗粒物(PM2.5),87,94,89,64,54,6,,23,17,36,34,8,9,0.4,0.3
2025-10-30T0900,3468A,115.7901,32.8613,阜阳市,市规划展馆,细颗粒物(PM2.5),75,94,74,55,39,2,,26,20,34,26,6,6,0.7,0.6
2025-10-30T0900,3469A,115.836,32.9183,阜阳市,枣园社区,细颗粒物(PM2.5),74,66,68,54,39,10,,25,19,37,34,8,9,0.6,0.5
2025-10-30T0900,2669A,102.9099,34.9841,甘南藏族自治州,州政府,颗粒物(PM10),60,70,51,30,27,4,,2,2,37,33,6,7,0.9,0.5
2025-10-30T0900,3380A,102.8914,34.9617,甘南藏族自治州,甘肃民族师范学院,颗粒物(PM10),82,113,59,41,27,3,,3,3,40,37,10,10,0.7,0.5
2025-10-30T0900,2570A,101.9603,30.0475,甘孜藏族自治州,水桥子,,9,6,6,3,5,9,,11,9,18,16,8,7,0.7,0.5
2025-10-30T0900,3065A,101.9533,29.9972,甘孜藏族自治州,州环保局,,11,11,7,3,5,13,,18,16,17,14,6,5,0.5,0.5
2025-10-30T0900,3414A,115.8347,28.932,赣江新区,桑海产业园,细颗粒物(PM2.5),107,85,80,80,65,39,,46,45,32,27,8,8,0.8,0.6
2025-10-30T0900,2363A,114.9367,25.8664,赣州市,地委,细颗粒物(PM2.5),82,76,62,60,45,42,,62,60,26,18,5,6,0.8,0.8
2025-10-30T0900,2364A,114.9461,25.8481,赣州市,气象台,细颗粒物(PM2.5),75,75,66,55,42,50,,75,71,29,18,6,7,0.8,0.8
2025-10-30T0900,2365A,114.9322,25.8333,赣州市,市图书馆,细颗粒物(PM2.5),80,73,58,59,43,49,,70,66,26,15,4,4,0.7,0.7
2025-10-30T0900,2366A,114.8905,25.8471,赣州市,华坚鞋城,细颗粒物(PM2.5),72,80,58,52,41,49,,68,64,34,18,6,6,0.8,0.7
2025-10-30T0900,3109A,115.0093,25.8613,赣州市,赣县区卫计委,细颗粒物(PM2.5),108,94,58,81,56,47,,62,62,17,15,8,7,0.7,0.7
2025-10-30T0900,2684A,106.2792,36.0022,固原市,监测站,颗粒物(PM10),117,183,68,17,25,19,,35,34,50,27,8,6,1.3,0.8
2025-10-30T0900,2685A,106.2375,36.0211,固原市,新区,颗粒物(PM10),85,119,59,32,22,4,,8,6,54,37,5,4,1.5,0.6
2025-10-30T0900,3522A,106.2177,35.9959,固原市,原州区十五小,颗粒物(PM10),66,81,58,29,24,35,,52,50,42,29,6,7,0.8,0.6
2025-10-30T0900,2544A,106.6303,30.4576,广安市,市委,,39,30,36,27,31,19,,13,13,10,15,3,3,0.6,0.6
2025-10-30T0900,2545A,106.6271,30.4663,广安市,友谊中学,,36,35,36,25,28,24,,21,20,11,14,4,5,1.0,1
2025-10-30T0900,2547A,106.6388,30.4551,广安市,广电花园,,38,26,28,26,28,19,,12,12,11,16,8,8,0.6,0.6
2025-10-30T0900,2902A,106.6351,30.4865,广安市,北辰小学,,32,31,35,22,25,19,,14,14,9,12,9,9,0.6,0.7
2025-10-30T0900,2524A,105.821,32.4444,广元市,老城,,23,,29,16,24,10,,5,5,15,24,6,6,1.0,0.9
2025-10-30T0900,2526A,105.8628,32.4287,广元市,监测站,,20,15,21,14,15,10,,7,7,12,20,1,2,0.9,1
2025-10-30T0900,3617A,105.8047,32.4166,广元市,经开区,,28,25,36,19,26,5,,2,2,18,26,3,3,0.9,0.9
2025-10-30T0900,1345A,113.2347,23.1423,广州市,广雅中学,,48,42,49,33,35,40,,40,40,32,35,6,7,0.7,0.8
2025-10-30T0900,1346A,113.2612,23.105,广州市,市五中,,43,38,50,30,35,55,,45,45,37,42,6,7,0.8,0.9
2025-10-30T0900,1348A,113.3478,23.0916,广州市,广东商学院,,42,36,50,29,36,54,,36,36,22,33,4,5,0.3,0.3
2025-10-30T0900,1349A,113.4332,23.1047,广州市,市八十六中,,40,40,47,27,31,40,,28,28,35,47,6,6,0.3,0.3
2025-10-30T0900,1350A,113.3505,22.9483,广州市,番禺中学,颗粒物(PM10),51,51,66,34,42,36,,12,12,34,43,7,7,1.0,1
2025-10-30T0900,1351A,113.2146,23.3916,广州市,花都师范,,32,32,54,18,36,49,,70,66,25,21,4,7,0.7,0.6
2025-10-30T0900,1352A,113.2597,23.1331,广州市,市监测站,,38,34,48,26,32,54,,46,45,18,34,6,7,0.5,0.6
2025-10-30T0900,1353A,113.5618,23.312,广州市,九龙镇镇龙,,50,49,55,35,39,33,,29,29,19,23,5,6,0.7,0.7
2025-10-30T0900,1354A,113.2765,23.1544,广州市,麓湖,,39,32,41,27,33,46,,29,29,16,31,7,8,0.4,0.4
2025-10-30T0900,2846A,113.3221,23.1322,广州市,体育西,颗粒物(PM10),52,54,53,35,35,58,,43,43,19,29,6,7,0.8,0.9
2025-10-30T0900,3298A,113.5717,23.5491,广州市,从化街口,,35,30,65,24,48,44,,25,25,12,28,8,10,0.8,0.9
2025-10-30T0900,3299A,113.3472,23.3692,广州市,白云竹料,,40,36,58,28,43,54,,50,50,18,22,6,8,0.7,0.7
2025-10-30T0900,3300A,113.2981,23.237,广州市,白云嘉禾,,49,45,55,34,39,43,,43,42,30,32,5,6,0.6,0.6
2025-10-30T0900,3301A,113.4256,23.1716,广州市,黄埔科学城,,,47,52,36,36,,,43,43,21,24,5,6,0.6,0.7
2025-10-30T0900,3302A,113.3942,23.0483,广州市,番禺大学城,,50,50,58,26,35,44,,26,26,26,39,6,7,0.7,0.7
2025-10-30T0900,3303A,113.4922,22.8168,广州市,南沙黄阁,,39,38,58,27,37,51,,29,29,30,45,8,9,0.6,0.6
2025-10-30T0900,3304A,113.5342,22.7896,广州市,南沙街,,44,44,52,27,34,45,,34,34,31,30,8,8,0.6,0.7
2025-10-30T0900,3443A,113.2902,23.5544,广州市,花都梯面,,43,36,47,30,32,48,,46,45,9,19,3,7,0.6,0.6
2025-10-30T0900,3445A,113.7858,23.7478,广州市,从化良口,,28,22,31,19,28,28,,34,34,18,18,6,6,0.9,0.9
2025-10-30T0900,3446A,113.8051,23.2614,广州市,增城荔城,,29,23,40,20,33,52,,52,52,9,13,7,7,0.5,0.6
2025-10-30T0900,2508A,109.5669,23.1065,贵港市,荷城子站,,,51,51,46,36,,,56,55,20,14,4,5,0.8,0.7
2025-10-30T0900,3405A,109.5886,23.1172,贵港市,新世纪学校,"颗粒物(PM10),细颗粒物(PM2.5)",52,53,57,36,41,48,,62,58,12,11,3,4,0.7,0.6
2025-10-30T0900,4260A,109.5933,23.0951,贵港市,中山路155-3号,细颗粒物(PM2.5),60,,55,43,42,56,,64,61,14,12,4,6,0.9,0.8
2025-10-30T0900,1439A,106.6899,26.5998,贵阳市,马鞍山,,14,14,26,3,17,16,,21,20,12,15,3,4,0.6,0.6
2025-10-30T0900,1441A,106.6243,26.6266,贵阳市,鉴湖路,,19,19,37,3,18,22,,30,29,19,14,4,5,0.6,0.5
2025-10-30T0900,1442A,106.7487,26.6343,贵阳市,燕子冲,,20,14,30,14,30,10,,19,17,20,16,4,5,0.8,0.6
2025-10-30T0900,1443A,106.6555,26.4365,贵阳市,碧云窝,,24,24,39,3,19,11,,23,22,22,16,6,7,0.5,0.4
2025-10-30T0900,1445A,106.7109,26.6027,贵阳市,红边门,,17,17,31,9,20,14,,21,20,23,22,6,6,0.9,0.8
2025-10-30T0900,1446A,106.7164,26.5699,贵阳市,新华路,,29,29,38,9,21,15,,22,21,24,18,10,11,0.7,0.6
2025-10-30T0900,1447A,106.674,26.5424,贵阳市,太慈桥,,17,17,31,7,19,8,,18,17,20,19,3,3,0.8,0.7
2025-10-30T0900,4230A,106.6882,26.5695,贵阳市,花果园大街66号,,15,,25,10,24,16,,22,21,23,18,1,2,0.6,0.5
2025-10-30T0900,4231A,106.6873,26.5169,贵阳市,漓江路57号,,13,,25,9,22,10,,20,18,20,15,9,10,0.6,0.6
2025-10-30T0900,1864A,110.3089,25.2708,桂林市,龙隐路小学,细颗粒物(PM2.5),67,54,61,48,52,38,,29,29,16,19,5,7,0.6,0.6
2025-10-30T0900,1865A,110.2869,25.2178,桂林市,八中,细颗粒物(PM2.5),69,60,64,50,54,41,,33,33,22,20,8,11,0.7,0.6
2025-10-30T0900,3531A,110.296,25.1253,桂林市,旅游学院,细颗粒物(PM2.5),64,46,45,46,39,31,,42,41,17,14,5,8,0.8,0.7
2025-10-30T0900,4222A,110.1835,25.2444,桂林市,环湖路276号,细颗粒物(PM2.5),89,70,55,66,46,24,,33,30,30,21,24,15,0.6,0.4
2025-10-30T0900,4301A,110.2803,25.2773,桂林市,信义路13号,细颗粒物(PM2.5),60,60,64,43,47,40,,35,35,22,24,7,9,0.7,0.7
2025-10-30T0900,2674A,100.2561,34.4714,果洛藏族自治州,玛沁县大武镇,,26,26,32,3,10,79,,56,56,1,4,15,14,0.3,0.3
2025-10-30T0900,1130A,126.561,45.8167,哈尔滨市,松北商大,细颗粒物(PM2.5),97,94,164,72,143,29,,34,31,24,32,7,8,0.8,1
2025-10-30T0900,1131A,126.979,45.5419,哈尔滨市,阿城会宁,细颗粒物(PM2.5),152,141,136,116,111,28,,32,29,34,28,12,8,0.8,0.7
2025-10-30T0900,1132A,126.599,45.7222,哈尔滨市,南岗学府路,细颗粒物(PM2.5),88,108,174,65,126,25,,40,36,33,37,12,12,0.7,0.8
2025-10-30T0900,1133A,126.689,45.7733,哈尔滨市,太平宏伟公园,细颗粒物(PM2.5),72,73,161,52,118,34,,39,36,24,28,11,14,0.8,0.9
2025-10-30T0900,1134A,126.635,45.7667,哈尔滨市,道外承德广场,细颗粒物(PM2.5),80,105,202,59,127,32,,35,32,26,36,9,12,0.8,0.9
2025-10-30T0900,1135A,126.685,45.7319,哈尔滨市,香坊红旗大街,细颗粒物(PM2.5),92,105,171,68,132,32,,43,39,34,33,9,12,0.7,0.9
2025-10-30T0900,1136A,126.6411,45.7258,哈尔滨市,动力和平路,细颗粒物(PM2.5),78,96,116,57,106,26,,39,35,35,30,7,9,0.6,0.7
2025-10-30T0900,1137A,126.593,45.7478,哈尔滨市,道里建国路,细颗粒物(PM2.5),88,84,166,65,134,28,,33,30,29,38,7,14,0.6,1
2025-10-30T0900,1138A,126.615,45.61,哈尔滨市,平房东轻厂,细颗粒物(PM2.5),89,111,198,66,133,34,,24,23,29,38,20,15,0.8,1
2025-10-30T0900,1139A,126.595,45.9855,哈尔滨市,呼兰师专,细颗粒物(PM2.5),122,96,172,92,149,31,,38,35,21,28,6,7,0.9,1.1
2025-10-30T0900,1140A,126.6206,45.6842,哈尔滨市,省农科院,"颗粒物(PM10),细颗粒物(PM2.5)",94,138,197,70,133,23,,25,21,41,51,12,12,0.7,0.8
2025-10-30T0900,2688A,93.5128,42.8172,哈密市,地区监测站,颗粒物(PM10),109,168,107,38,32,8,,32,30,63,41,7,8,0.7,0.4
2025-10-30T0900,2689A,93.4961,42.8328,哈密市,哈密师范学校,颗粒物(PM10),106,162,88,31,29,8,,26,24,57,37,4,4,1.0,0.6
2025-10-30T0900,2671A,100.9048,36.9639,海北藏族自治州,海晏县西海镇,颗粒物(PM10),55,60,30,38,21,24,,57,53,32,9,10,8,0.7,0.5
2025-10-30T0900,3867A,102.0738,36.5056,海东市,平安区公安北苑,颗粒物(PM10),64,77,56,40,37,13,,53,44,44,19,10,16,1.0,0.9
2025-10-30T0900,1410A,110.3232,20.0574,海口市,海南大学,,24,15,26,3,14,76,,82,81,6,7,5,5,0.3,0.4
2025-10-30T0900,1411A,110.283,20.0053,海口市,秀英海南医院,,22,21,29,3,13,70,,77,76,5,7,6,6,0.2,0.3
2025-10-30T0900,1412A,110.338,19.9969,海口市,海南师范大学,,24,24,27,3,15,73,,80,80,5,7,5,5,0.4,0.5
2025-10-30T0900,1413A,110.33,20.0356,海口市,龙华路环保局宿舍,,24,23,30,6,16,74,,82,81,6,7,6,6,0.0,0.1
2025-10-30T0900,3539A,110.5111,19.9736,海口市,桂林洋子站,,23,12,23,3,13,72,,74,74,4,5,6,6,0.2,0.3
2025-10-30T0900,2673A,100.6188,36.2866,海南藏族自治州,共和县恰卜恰镇,,39,39,34,12,12,26,,42,41,36,17,10,11,0.7,0.4
2025-10-30T0900,2676A,97.3731,37.3753,海西蒙古族藏族自治州,德令哈市,,25,25,28,13,14,70,,67,67,5,5,14,14,0.4,0.4
2025-10-30T0900,1048A,114.5302,36.6116,邯郸市,东污水处理厂,细颗粒物(PM2.5),235,,122,185,124,8,,12,8,30,33,4,5,1.2,0.8
2025-10-30T0900,1049A,114.4918,36.5713,邯郸市,矿院,细颗粒物(PM2.5),228,185,124,178,121,7,,10,7,37,40,6,6,1.1,0.8
2025-10-30T0900,1050A,114.484,36.6133,邯郸市,丛台公园,细颗粒物(PM2.5),216,200,133,166,113,12,,19,15,33,34,7,7,1.0,0.8
2025-10-30T0900,3458A,114.7895,36.5593,邯郸市,香泉濮院小区,细颗粒物(PM2.5),208,202,116,158,82,8,,23,18,29,30,5,6,1.0,0.7
2025-10-30T0900,3579A,114.50634,36.77178,邯郸市,永年区实验高中,细颗粒物(PM2.5),160,178,127,122,81,4,,7,3,39,36,3,2,1.1,0.9
2025-10-30T0900,3580A,114.20016,36.44293,邯郸市,峰峰矿区临水派出所,细颗粒物(PM2.5),213,,102,163,107,,,43,39,38,35,4,7,1.3,1
2025-10-30T0900,2635A,107.0154,33.0706,汉中市,市监测站,,40,39,60,28,40,9,,8,8,12,21,4,5,0.8,1
2025-10-30T0900,2636A,107.0089,33.1138,汉中市,鑫源开发区,颗粒物(PM10),54,58,74,33,39,14,,12,12,18,26,18,8,1.0,0.9
2025-10-30T0900,2637A,107.007,33.0323,汉中市,南郑大河坎水厂,,39,39,54,25,33,3,,2,2,12,20,6,6,0.8,0.8
2025-10-30T0900,1223A,120.2072,30.2111,杭州市,滨江,颗粒物(PM10),54,57,40,24,17,9,,48,43,60,33,10,11,0.6,0.5
2025-10-30T0900,1224A,120.0633,30.2747,杭州市,西溪,,40,36,38,28,22,1,,38,35,40,22,8,8,0.6,0.5
2025-10-30T0900,1226A,120.3417,30.3150,杭州市,下沙,,36,36,32,24,19,16,,35,32,54,29,6,6,0.3,0.2
2025-10-30T0900,1227A,120.1269,30.2456,杭州市,卧龙桥,,27,27,35,15,17,19,,22,22,17,22,9,9,0.4,0.4
2025-10-30T0900,1228A,120.1903,30.2692,杭州市,浙江农大,,41,41,35,27,21,11,,43,38,55,33,7,8,0.7,0.5
2025-10-30T0900,1230A,120.1197,30.3119,杭州市,和睦小学,,43,43,38,22,24,21,,48,45,46,27,8,8,0.7,0.6
2025-10-30T0900,1231A,120.3019,30.4183,杭州市,临平镇,,,95,43,69,18,,,27,26,56,29,8,7,0.5,0.3
2025-10-30T0900,1233A,120.0883,30.1808,杭州市,云栖,,20,20,35,12,19,21,,21,21,19,28,6,6,0.5,0.5
2025-10-30T0900,3557A,119.9464,30.0494,杭州市,镇二中,,46,44,46,32,28,13,,18,16,38,28,5,6,0.7,0.5
2025-10-30T0900,3558A,119.7183,30.2367,杭州市,市府大楼,,50,50,48,26,24,11,,20,17,27,22,9,9,0.6,0.4
2025-10-30T0900,3656A,120.1556,30.2864,杭州市,消防大队,,48,48,42,27,23,20,,46,43,54,33,10,10,0.5,0.3
2025-10-30T0900,1270A,117.1959,31.7848,合肥市,明珠广场,细颗粒物(PM2.5),62,44,72,44,44,8,,7,6,53,52,6,8,0.7,0.6
2025-10-30T0900,1271A,117.3072,31.8764,合肥市,三里街,,39,39,75,24,46,10,,15,15,36,46,5,7,0.6,0.6
2025-10-30T0900,1272A,117.2588,31.8707,合肥市,琥珀山庄,细颗粒物(PM2.5),52,44,68,36,40,23,,21,21,37,38,5,6,0.6,0.7
2025-10-30T0900,1274A,117.25,31.8571,合肥市,长江中路,细颗粒物(PM2.5),58,56,77,41,50,15,,22,22,41,37,5,7,0.6,0.6
2025-10-30T0900,1275A,117.266,31.9436,合肥市,庐阳区,,39,39,84,27,52,17,,20,20,42,47,7,8,0.8,0.7
2025-10-30T0900,1276A,117.3453,31.8616,合肥市,瑶海区,,46,39,78,32,47,15,,16,16,44,51,8,10,0.7,0.6
2025-10-30T0900,1277A,117.3027,31.7964,合肥市,包河区,,,,69,,42,,,11,11,62,66,8,9,0.7,0.6
2025-10-30T0900,1278A,117.2776,31.7385,合肥市,滨湖新区,,,36,60,36,41,,,32,32,41,33,4,5,0.7,0.6
2025-10-30T0900,1279A,117.1318,31.8403,合肥市,高新区,细颗粒物(PM2.5),88,70,77,65,53,13,,12,12,46,43,5,6,0.7,0.6
2025-10-30T0900,3464A,117.3803,31.9147,合肥市,高教基地,,34,34,75,19,47,18,,18,18,28,26,7,8,0.5,0.5
2025-10-30T0900,3614A,79.924,37.0877,和田地区,地区环保局,颗粒物(PM10),75,100,110,53,36,68,,74,74,14,19,24,10,0.6,0.8
2025-10-30T0900,3615A,79.9131,37.113,和田地区,市环保局,颗粒物(PM10),89,127,122,19,38,64,,68,68,28,33,41,9,0.3,0.8
2025-10-30T0900,2517A,108.0497,24.6947,河池市,市环保站,细颗粒物(PM2.5),55,,39,39,31,57,,65,60,11,12,8,11,0.8,0.7
2025-10-30T0900,2518A,108.0983,24.6989,河池市,市疾控中心,细颗粒物(PM2.5),57,43,40,40,35,42,,68,61,19,17,4,6,0.8,0.8
2025-10-30T0900,1697A,114.6944,23.7586,河源市,东埔,,38,30,29,26,26,43,,44,44,15,15,5,5,0.6,0.6
2025-10-30T0900,1698A,114.6892,23.7233,河源市,老城,,40,30,31,28,22,49,,46,46,10,11,5,6,0.7,0.6
2025-10-30T0900,1718A,115.4208,35.2464,菏泽市,气象局,颗粒物(PM10),72,94,100,51,60,42,,42,42,30,30,6,4,0.5,0.5
2025-10-30T0900,3374A,115.5564,35.0891,菏泽市,定陶老年大学,颗粒物(PM10),65,80,86,46,51,27,,24,23,32,31,8,7,0.5,0.4
2025-10-30T0900,4184A,115.4797,35.24401,菏泽市,永昌路1号,细颗粒物(PM2.5),72,90,89,52,56,36,,30,30,26,31,7,5,0.4,0.4
2025-10-30T0900,4193A,115.4715,35.2800,菏泽市,长城路999号,细颗粒物(PM2.5),69,86,91,50,51,41,,39,38,29,36,15,12,0.6,0.5
2025-10-30T0900,2514A,111.5264,24.4172,贺州市,环保小区,细颗粒物(PM2.5),67,61,68,48,51,36,,44,42,15,16,5,5,0.8,0.8
2025-10-30T0900,2515A,111.5608,24.4078,贺州市,政协大楼,细颗粒物(PM2.5),62,71,65,44,47,28,,40,37,18,15,6,6,0.8,0.8
2025-10-30T0900,3534A,111.4744,24.4553,贺州市,西湾,细颗粒物(PM2.5),62,47,53,44,46,33,,32,31,10,16,4,5,0.7,0.7
2025-10-30T0900,2385A,114.17,35.9019,鹤壁市,市监测站,细颗粒物(PM2.5),210,208,118,160,98,11,,31,24,41,29,2,3,1.8,0.9
2025-10-30T0900,2386A,114.2956,35.7511,鹤壁市,市交警支队,细颗粒物(PM2.5),221,241,140,171,93,3,,20,15,43,38,1,2,1.9,0.9
2025-10-30T0900,2387A,114.2878,35.7306,鹤壁市,迎宾馆,细颗粒物(PM2.5),213,260,160,163,99,3,,16,11,45,43,6,6,1.8,0.9
2025-10-30T0900,3474A,114.2617,35.6822,鹤壁市,大新区,细颗粒物(PM2.5),225,219,126,175,103,12,,9,8,34,48,4,5,1.6,0.9
2025-10-30T0900,3596A,114.1572,35.9603,鹤壁市,南山宾馆,细颗粒物(PM2.5),218,205,127,168,97,,,41,36,36,30,4,4,1.6,0.7
2025-10-30T0900,2244A,130.2537,47.3416,鹤岗市,哈啤分公司,细颗粒物(PM2.5),144,,119,110,128,63,,46,46,12,24,13,16,0.7,0.8
2025-10-30T0900,2245A,130.2684,47.3086,鹤岗市,斯达机电,细颗粒物(PM2.5),90,111,140,67,112,63,,46,46,15,24,12,14,0.8,0.9
2025-10-30T0900,2246A,130.3114,47.3388,鹤岗市,东山纸板厂,细颗粒物(PM2.5),138,117,143,105,117,63,,39,39,17,28,13,15,0.9,1
2025-10-30T0900,2263A,127.4833,50.2524,黑河市,交通局,,29,26,42,20,26,47,,48,47,17,17,4,4,0.4,0.4
2025-10-30T0900,2264A,127.5144,50.2341,黑河市,环保局,,35,,40,24,28,38,,46,45,20,14,6,8,0.7,0.7
2025-10-30T0900,1074A,115.6838,37.7541,衡水市,电机北厂,细颗粒物(PM2.5),148,119,108,113,80,0,,0,0,38,41,8,6,0.6,0.5
2025-10-30T0900,1075A,115.6303,37.7316,衡水市,市监测站,细颗粒物(PM2.5),132,116,91,100,76,0,,8,4,42,37,7,7,0.7,0.5
2025-10-30T0900,3188A,115.6683,37.7217,衡水市,市城管局,细颗粒物(PM2.5),109,100,104,82,73,2,,5,3,45,40,9,10,0.6,0.5
2025-10-30T0900,3459A,115.5989,37.5491,衡水市,地表水厂,细颗粒物(PM2.5),119,102,103,90,72,2,,0,0,42,47,6,7,0.6,0.5
2025-10-30T0900,2457A,112.6194,26.9258,衡阳市,衡阳化工总厂,细颗粒物(PM2.5),140,117,82,107,70,62,,69,67,17,16,8,10,1.0,0.9
2025-10-30T0900,2458A,112.6211,26.8956,衡阳市,珠晖区环保局,细颗粒物(PM2.5),114,88,86,86,85,53,,57,55,21,29,9,12,1.3,1.3
2025-10-30T0900,2459A,112.6197,26.8733,衡阳市,市委党校,细颗粒物(PM2.5),117,100,85,88,64,,,63,61,14,16,4,5,1.0,1
2025-10-30T0900,2460A,112.6006,26.8919,衡阳市,市监测站,细颗粒物(PM2.5),102,92,89,76,63,64,,68,66,15,19,7,8,1.1,1.1
2025-10-30T0900,2461A,112.5664,26.9056,衡阳市,真空机电公司,细颗粒物(PM2.5),124,97,77,94,63,64,,68,64,15,17,7,9,1.2,1.1
2025-10-30T0900,3399A,112.6703,26.882,衡阳市,师范学院,细颗粒物(PM2.5),98,110,92,73,65,56,,64,60,19,19,11,12,1.2,1.1
2025-10-30T0900,2608A,103.3772,23.3993,红河哈尼族彝族自治州,污水处理厂,,32,27,27,22,20,39,,52,50,12,7,12,10,0.3,0.2
2025-10-30T0900,2609A,103.3861,23.35,红河哈尼族彝族自治州,监测站,,34,34,27,23,18,45,,56,55,6,3,4,4,0.3,0.3
2025-10-30T0900,3038A,103.3758,23.368,红河哈尼族彝族自治州,州图书馆,,46,,24,32,25,46,,57,56,6,4,3,3,0.4,0.4
2025-10-30T0900,1090A,111.6507,40.7517,呼和浩特市,呼市一监,,36,36,39,10,24,24,,43,39,37,27,3,7,0.8,0.6
2025-10-30T0900,1091A,111.6572,40.8033,呼和浩特市,小召,,46,46,44,13,25,26,,55,52,51,32,6,9,0.9,0.7
2025-10-30T0900,1094A,111.7516,40.8369,呼和浩特市,如意水处理厂,,41,41,44,11,22,15,,28,26,62,37,10,11,0.6,0.4
2025-10-30T0900,1096A,111.5512,40.7866,呼和浩特市,工大金川校区,,35,35,54,6,23,45,,67,62,33,27,6,9,0.3,0.4
2025-10-30T0900,1097A,111.717,40.7612,呼和浩特市,化肥厂生活区,,32,32,41,10,22,33,,48,45,41,34,5,8,0.7,0.5
2025-10-30T0900,3698A,111.5968,40.8178,呼和浩特市,红旗小学,,24,24,40,6,22,52,,76,73,30,24,3,7,0.3,0.4
2025-10-30T0900,3699A,111.6518,40.8389,呼和浩特市,海东办,,39,39,39,10,22,21,,58,53,46,27,6,7,0.1,0.5
2025-10-30T0900,3061A,119.7512,49.1577,呼伦贝尔市,国华电力东,,25,24,24,17,14,37,,38,37,9,11,8,9,0.2,0.2
2025-10-30T0900,4279A,119.7569,49.2222,呼伦贝尔市,伊敏大街东7号,,23,23,32,15,18,38,,41,40,7,8,6,7,0.5,0.6
2025-10-30T0900,1250A,120.0751,30.8669,湖州市,城西水厂,,45,45,29,20,8,25,,52,49,52,27,8,8,0.5,0.4
2025-10-30T0900,2873A,120.0830,30.8929,湖州市,仁皇山新区,,30,23,27,21,14,29,,47,44,42,26,7,7,0.4,0.3
2025-10-30T0900,2907A,120.1844,30.8596,湖州市,吴兴区站,,35,32,28,24,12,26,,40,38,47,26,7,7,0.5,0.4
2025-10-30T0900,3562A,120.4148,30.8538,湖州市,南浔区站,,50,50,27,22,11,29,,44,42,49,28,10,10,0.5,0.4
2025-10-30T0900,1607A,120.9049,40.7211,葫芦岛市,龙港区,,29,29,101,6,91,48,,40,40,24,26,12,11,0.5,1
2025-10-30T0900,1608A,120.8392,40.7514,葫芦岛市,化工街,,41,41,133,3,85,42,,33,33,21,36,8,13,0.4,1
2025-10-30T0900,1609A,120.8341,40.7073,葫芦岛市,新区,,,,98,4,84,39,,38,38,29,32,7,8,0.5,1
2025-10-30T0900,1610A,120.8695,40.7677,葫芦岛市,东城区,,14,8,97,3,100,42,,40,40,23,35,8,13,0.6,1.2
2025-10-30T0900,2483A,109.9453,27.5444,怀化市,河西地税局,细颗粒物(PM2.5),54,39,44,38,37,46,,60,57,20,12,3,4,0.6,0.5
2025-10-30T0900,2484A,109.9781,27.5342,怀化市,市四医院,细颗粒物(PM2.5),57,54,57,40,42,67,,73,72,12,9,7,8,0.5,0.4
2025-10-30T0900,2485A,109.9972,27.5578,怀化市,监测楼,颗粒物(PM10),51,52,51,35,40,75,,72,72,9,8,4,4,0.4,0.3
2025-10-30T0900,2486A,110.0394,27.583,怀化市,市委党校,细颗粒物(PM2.5),64,48,51,46,41,54,,64,64,13,9,13,12,0.4,0.3
2025-10-30T0900,1210A,119.036,33.5981,淮安市,钵池山,,31,31,24,18,16,43,,46,45,28,22,7,7,0.4,0.3
2025-10-30T0900,1211A,119.007,33.575,淮安市,北京南路,,39,39,28,19,14,41,,49,46,24,15,8,8,0.6,0.5
2025-10-30T0900,1212A,118.989,33.6067,淮安市,市监测站,,29,29,22,19,13,54,,61,58,26,18,6,6,0.7,0.6
2025-10-30T0900,1213A,119.135,33.5039,淮安市,楚州区监测站,,42,42,26,27,16,32,,43,42,36,23,8,8,0.5,0.4
2025-10-30T0900,3426A,118.8755,33.2894,淮安市,新华书店,,34,34,30,17,13,34,,44,41,27,22,9,8,0.6,0.5
2025-10-30T0900,4206A,119.0288,33.6319,淮安市,承德北路606号,,48,48,28,21,16,22,,46,41,50,21,7,7,0.5,0.4
2025-10-30T0900,2282A,116.8004,33.975,淮北市,监测站,,44,44,50,27,23,29,,,,32,26,9,9,0.4,0.3
2025-10-30T0900,2283A,116.8091,33.9007,淮北市,烈山区政府,颗粒物(PM10),52,53,53,26,27,36,,48,44,24,23,9,9,0.5,0.4
2025-10-30T0900,3330A,116.8873,33.9836,淮北市,杜集区检察院,,46,42,48,32,28,45,,54,50,20,19,6,5,0.4,0.3
2025-10-30T0900,4017A,116.7923,33.9535,淮北市,市博物馆,,,46,45,26,24,38,,48,45,23,21,,8,0.6,0.5
2025-10-30T0900,2277A,116.8305,32.7727,淮南市,潘集区政府,,,,67,51,39,12,,23,19,25,24,5,6,,0.5
2025-10-30T0900,2279A,116.8569,32.5951,淮南市,谢家集区政府,,45,40,63,31,37,18,,35,34,29,33,8,9,0.5,0.5
2025-10-30T0900,2280A,116.8281,32.633,淮南市,八公山区政府,细颗粒物(PM2.5),52,50,72,36,41,16,,30,28,26,25,7,8,0.5,0.5
2025-10-30T0900,2894A,117.0566,32.6531,淮南市,经济技术开发区消防队,,,,60,,33,12,,23,21,40,36,10,10,0.3,0.3
2025-10-30T0900,3329A,117.0108,32.5893,淮南市,山南新区,,38,38,61,21,28,28,,52,47,31,29,4,5,0.3,0.2
2025-10-30T0900,4209A,117.0031,32.6445,淮南市,国庆中路369号,,50,47,60,35,35,11,,33,32,38,33,10,11,0.5,0.5
2025-10-30T0900,2446A,114.9028,30.4742,黄冈市,职工中心,细颗粒物(PM2.5),95,80,84,71,68,51,,62,62,23,21,5,7,1.1,0.8
2025-10-30T0900,2929A,114.8858,30.4519,黄冈市,红卫路,,,74,79,66,71,,,67,67,22,22,6,8,1.0,0.8
2025-10-30T0900,3398A,114.9136,30.4445,黄冈市,市林业局,细颗粒物(PM2.5),94,77,90,70,72,57,,68,67,20,23,4,4,1.0,0.8
2025-10-30T0900,2672A,102.0199,35.5102,黄南藏族自治州,同仁县隆务镇,,38,38,38,17,17,34,,50,48,7,4,11,10,0.4,0.4
2025-10-30T0900,2295A,118.2903,29.6963,黄山市,延安路89号,,35,35,42,22,20,15,,17,15,13,14,3,4,0.5,0.4
2025-10-30T0900,2297A,118.1371,30.2756,黄山市,黄山区政府5号楼,,38,,49,26,33,11,,14,13,10,9,5,5,0.5,0.5
2025-10-30T0900,4210A,118.3354,29.7203,黄山市,滨江东路7-2号,,39,36,35,27,20,23,,30,26,20,11,4,4,0.4,0.4
2025-10-30T0900,2423A,115.0601,30.2313,黄石市,沈家营,细颗粒物(PM2.5),83,83,89,61,64,48,,68,64,15,14,6,10,0.6,0.6
2025-10-30T0900,2426A,114.8988,30.2019,黄石市,铁山,细颗粒物(PM2.5),85,73,92,63,77,46,,51,51,24,24,6,8,0.5,0.4
2025-10-30T0900,2427A,115.0307,30.2092,黄石市,团城山,细颗粒物(PM2.5),73,71,93,53,68,54,,76,72,14,14,6,8,0.4,0.7
2025-10-30T0900,3149A,115.0235,30.1578,黄石市,笔架山北路,细颗粒物(PM2.5),78,91,116,57,72,50,,61,59,14,15,5,8,0.6,0.6
2025-10-30T0900,4185A,115.0780,30.21118,黄石市,磁湖东路29号,细颗粒物(PM2.5),83,83,90,61,72,57,,76,72,14,16,8,12,0.7,0.8
2025-10-30T0900,1392A,114.4183,23.0528,惠州市,河南岸金山湖子站,,35,34,40,24,30,38,,26,26,25,24,12,9,0.7,0.7
2025-10-30T0900,1393A,114.4053,23.0822,惠州市,下埔横江三路子站,,34,34,47,23,31,44,,35,35,14,20,6,6,0.5,0.6
2025-10-30T0900,1394A,114.4103,23.1142,惠州市,江北云山西路子站,,29,29,40,20,27,52,,43,43,18,24,7,7,0.5,0.6
2025-10-30T0900,1395A,114.4645,22.7833,惠州市,惠阳区承修路船湖子站,颗粒物(PM10),55,59,46,32,28,23,,20,20,27,23,9,10,0.8,0.8
2025-10-30T0900,1396A,114.5317,22.7422,惠州市,大亚湾管委会子站,,42,42,31,23,19,40,,64,59,25,23,12,11,0.6,0.6
2025-10-30T0900,3314A,114.4338,22.8134,惠州市,惠阳秋长,细颗粒物(PM2.5),55,44,54,39,32,41,,29,29,25,32,14,13,0.5,0.5
2025-10-30T0900,3452A,114.6517,22.775,惠州市,大亚湾霞涌,,39,39,30,14,17,44,,39,39,13,13,8,7,0.6,0.6
2025-10-30T0900,2240A,130.9762,45.3001,鸡西市,环保局,,42,33,128,29,97,56,,64,61,13,25,6,11,0.8,0.9
2025-10-30T0900,2243A,130.9429,45.3039,鸡西市,第一中学,,49,47,113,34,82,59,,64,62,7,20,7,9,0.7,0.8
2025-10-30T0900,3707A,131.0207,45.3073,鸡西市,欧美日汽修厂,,50,43,122,35,98,62,,66,66,14,20,10,10,0.9,0.9
2025-10-30T0900,3709A,130.9967,45.3106,鸡西市,市政设施管理处,细颗粒物(PM2.5),52,46,118,36,102,64,,70,70,12,27,8,12,0.5,0.6
2025-10-30T0900,2367A,114.9754,27.0803,吉安市,红声器材厂,,,,76,,49,,,51,50,27,22,9,12,0.8,0.8
2025-10-30T0900,2368A,114.9658,27.0999,吉安市,市森林工业局,细颗粒物(PM2.5),73,75,75,53,54,51,,47,45,26,24,8,12,0.7,0.6
2025-10-30T0900,2369A,114.99,27.1312,吉安市,市环境监测站,细颗粒物(PM2.5),74,68,71,54,57,31,,46,42,28,23,7,12,0.7,0.7
2025-10-30T0900,2370A,115.0093,27.0968,吉安市,青原区法院,细颗粒物(PM2.5),88,80,74,65,53,16,,46,39,35,22,9,12,0.7,0.7
2025-10-30T0900,1772A,126.54,43.8622,吉林市,哈达湾,细颗粒物(PM2.5),52,51,78,36,63,39,,50,46,18,16,14,9,0.7,0.7
2025-10-30T0900,1773A,126.5844,43.8358,吉林市,东局子,,48,48,76,28,57,33,,46,42,19,14,8,8,0.8,0.9
2025-10-30T0900,1774A,126.5052,43.8245,吉林市,电力学院,,50,43,75,35,66,37,,42,38,18,17,8,8,0.5,0.6
2025-10-30T0900,1775A,126.6133,43.8972,吉林市,江北,细颗粒物(PM2.5),52,47,84,36,62,31,,32,28,25,17,8,5,1.0,1
2025-10-30T0900,1776A,126.555,43.8306,吉林市,江南公园,,49,42,73,34,66,35,,44,40,17,15,6,6,0.5,0.6
2025-10-30T0900,2868A,126.4739,43.953,吉林市,九站,,46,40,89,32,68,37,,40,37,19,20,4,4,0.4,0.6
2025-10-30T0900,1299A,116.9862,36.6114,济南市,科干所,,46,46,38,22,19,39,,76,70,40,16,8,8,0.6,0.4
2025-10-30T0900,1300A,116.9376,36.665,济南市,农科所,颗粒物(PM10),72,93,56,29,20,5,,33,25,65,34,9,8,1.1,0.6
2025-10-30T0900,1301A,117.1265,36.6734,济南市,开发区,,46,46,41,27,24,35,,62,57,46,23,5,4,0.7,0.5
2025-10-30T0900,1303A,117.0624,36.6868,济南市,省种子仓库,颗粒物(PM10),67,83,53,34,21,12,,36,26,77,38,8,8,1.2,0.8
2025-10-30T0900,1304A,116.9489,36.6447,济南市,机床二厂,颗粒物(PM10),72,93,62,46,28,21,,55,48,62,33,11,9,0.6,0.2
2025-10-30T0900,1305A,117.0495,36.663,济南市,市监测站,颗粒物(PM10),52,54,40,27,20,25,,57,49,60,25,4,4,1.0,0.7
2025-10-30T0900,1306A,116.7675,36.5484,济南市,长清党校,颗粒物(PM10),53,56,53,15,23,57,,79,75,30,21,9,9,0.5,0.4
2025-10-30T0900,1616A,117.6795,36.229,济南市,技术学院,,42,41,54,29,33,25,,39,37,39,32,11,13,0.9,0.7
2025-10-30T0900,1961A,117.532,36.6868,济南市,东山小学,颗粒物(PM10),57,63,55,24,27,21,,66,58,51,23,7,10,0.8,0.5
2025-10-30T0900,3059A,117.7161,36.2049,济南市,泰兴公司,颗粒物(PM10),53,56,62,29,34,18,,24,24,46,38,15,14,0.8,0.6
2025-10-30T0900,3064A,117.6867,36.2171,济南市,莱芜战役纪念馆,颗粒物(PM10),57,63,57,38,38,18,,37,33,43,32,14,15,0.7,0.4
2025-10-30T0900,3494A,117.1673,36.9782,济南市,济阳区政府,颗粒物(PM10),62,73,79,27,30,44,,52,52,36,41,9,8,0.7,0.5
2025-10-30T0900,3495A,117.1171,36.63,济南市,锦屏中学,,34,34,38,15,18,44,,68,63,31,19,5,5,0.7,0.6
2025-10-30T0900,3682A,116.9814,36.6819,济南市,济南四建,颗粒物(PM10),75,100,53,37,25,6,,28,18,73,30,8,6,1.3,0.7
2025-10-30T0900,1653A,116.6251,35.4302,济宁市,火炬城,颗粒物(PM10),59,67,65,39,43,38,,40,37,26,23,9,8,0.4,0.3
2025-10-30T0900,1655A,116.5491,35.4042,济宁市,电化厂,颗粒物(PM10),66,82,75,39,40,40,,45,42,31,27,6,6,0.4,0.3
2025-10-30T0900,3500A,116.5814,35.3707,济宁市,北湖一中,细颗粒物(PM2.5),62,52,51,44,40,37,,40,39,26,22,7,6,0.4,0.4
2025-10-30T0900,3501A,116.8249,35.5593,济宁市,服务中心,颗粒物(PM10),56,62,63,29,29,29,,24,24,27,26,9,8,0.4,0.3
2025-10-30T0900,3678A,116.5907,35.4054,济宁市,市第七中学,颗粒物(PM10),59,67,67,39,38,40,,44,42,27,22,11,10,0.5,0.4
2025-10-30T0900,2255A,130.2751,46.8028,佳木斯市,佳纺,细颗粒物(PM2.5),195,164,112,146,87,43,,45,44,28,18,5,5,0.8,0.6
2025-10-30T0900,2256A,130.3995,46.8307,佳木斯市,发电厂,细颗粒物(PM2.5),193,,108,145,85,49,,51,50,21,18,6,7,0.7,0.5
2025-10-30T0900,2257A,130.3258,46.7975,佳木斯市,环保局,细颗粒物(PM2.5),201,155,91,151,86,42,,46,45,21,15,6,4,0.8,0.6
2025-10-30T0900,2258A,130.3648,46.8032,佳木斯市,十一中,细颗粒物(PM2.5),195,,82,146,78,48,,48,48,19,17,8,8,0.8,0.6
2025-10-30T0900,1252A,120.7436,30.778,嘉兴市,清河小学,,49,49,29,22,14,21,,24,23,51,30,9,8,0.8,0.6
2025-10-30T0900,1253A,120.726,30.7478,嘉兴市,嘉兴学院,,40,40,24,20,9,15,,38,32,55,24,6,6,0.8,0.6
2025-10-30T0900,2872A,120.7846,30.7525,嘉兴市,南湖区残联,,32,32,24,18,13,24,,30,26,54,29,6,6,0.6,0.5
2025-10-30T0900,3407A,120.6916,30.7739,嘉兴市,秀洲住建,,49,49,23,27,11,28,,25,21,46,30,9,8,0.6,0.5
2025-10-30T0900,1945A,98.2908,39.7711,嘉峪关市,气象局,颗粒物(PM10),69,88,115,24,32,51,,62,62,26,26,24,16,0.8,0.9
2025-10-30T0900,2884A,98.2672,39.7978,嘉峪关市,酒钢宾馆,颗粒物(PM10),73,95,125,27,39,44,,59,57,21,19,12,32,0.5,0.9
2025-10-30T0900,3248A,98.2643,39.7724,嘉峪关市,雄关区,颗粒物(PM10),69,88,92,30,33,35,,54,53,41,30,9,12,0.3,0.6
2025-10-30T0900,1383A,113.1064,22.6058,江门市,北街,细颗粒物(PM2.5),78,85,75,57,55,25,,15,13,65,52,8,8,0.8,0.8
2025-10-30T0900,1384A,113.0731,22.5835,江门市,西区,颗粒物(PM10),68,86,74,48,45,24,,17,14,63,47,9,8,0.7,0.7
2025-10-30T0900,1385A,113.0219,22.5311,江门市,圭峰西,细颗粒物(PM2.5),80,71,69,59,52,32,,32,29,58,40,8,7,0.8,0.7
2025-10-30T0900,1386A,113.0828,22.5947,江门市,东湖,细颗粒物(PM2.5),74,75,76,54,48,22,,16,13,59,41,8,7,0.7,0.6
2025-10-30T0900,3311A,113.1075,22.5647,江门市,江海富民,颗粒物(PM10),81,111,85,55,48,20,,19,15,61,46,10,11,1.0,0.9
2025-10-30T0900,3449A,113.05,22.4667,江门市,新会银湖,细颗粒物(PM2.5),92,97,74,68,56,24,,8,8,62,43,8,6,1.0,0.8
2025-10-30T0900,3335A,113.3137,35.2641,焦作市,马村街道办,细颗粒物(PM2.5),170,188,148,129,114,8,,10,9,41,40,6,6,1.0,1
2025-10-30T0900,3336A,113.2465,35.2373,焦作市,焦作技师学院,细颗粒物(PM2.5),192,177,156,144,130,10,,8,6,42,43,5,6,1.3,1.2
2025-10-30T0900,3477A,113.1656,35.2539,焦作市,中站许衡医院,细颗粒物(PM2.5),107,112,134,80,97,31,,40,38,34,36,5,7,0.7,0.8
2025-10-30T0900,3981A,113.2449,35.1803,焦作市,原李万街道办,细颗粒物(PM2.5),180,171,166,136,130,9,,2,2,30,38,10,11,1.2,1.3
2025-10-30T0900,4264A,113.2340,35.2190,焦作市,新安路1731号,细颗粒物(PM2.5),186,200,173,140,135,13,,6,6,36,43,6,7,1.2,1.2
2025-10-30T0900,4295A,113.2722,35.2121,焦作市,人民路3066号,细颗粒物(PM2.5),158,182,169,120,127,7,,4,4,44,53,6,8,1.1,1.2
2025-10-30T0900,1708A,116.3701,23.5345,揭阳市,新兴,,50,50,44,32,27,25,,35,31,43,27,11,8,0.8,0.7
2025-10-30T0900,1709A,116.3264,23.5443,揭阳市,西马,颗粒物(PM10),61,71,54,38,24,26,,22,18,30,23,8,7,1.2,1
2025-10-30T0900,1710A,116.3611,23.5626,揭阳市,东兴,颗粒物(PM10),66,81,48,28,21,37,,29,29,29,22,10,8,0.8,0.5
2025-10-30T0900,1711A,116.4151,23.5294,揭阳市,渔湖,,,,46,32,18,37,,27,26,31,21,12,6,0.7,0.6
2025-10-30T0900,3320A,116.403,23.5699,揭阳市,曲溪,颗粒物(PM10),52,53,43,23,21,40,,31,31,31,23,10,6,0.7,0.6
2025-10-30T0900,1944A,102.1692,38.5167,金昌市,天庆家园,颗粒物(PM10),98,146,97,45,34,32,,48,47,38,19,5,6,0.9,0.6
2025-10-30T0900,4022A,102.1647,38.5371,金昌市,金川区人防中心,细颗粒物(PM2.5),114,131,90,86,64,30,,51,48,27,13,4,6,0.8,0.6
2025-10-30T0900,4239A,102.1930,38.5319,金昌市,长春路96号,颗粒物(PM10),71,92,86,31,32,35,,51,50,29,14,6,16,0.7,0.6
2025-10-30T0900,1262A,119.647,29.077,金华市,十五中,颗粒物(PM10),53,56,47,27,24,11,,25,23,62,30,6,3,0.6,0.5
2025-10-30T0900,1263A,119.686,29.1029,金华市,监测站,颗粒物(PM10),57,64,55,29,25,2,,23,22,61,43,4,3,0.4,0.4
2025-10-30T0900,3659A,119.656,29.1131,金华市,气象局,,39,39,46,23,26,29,,24,24,44,44,6,5,0.5,0.5
2025-10-30T0900,1767A,121.1115,41.0879,锦州市,南山,,38,38,93,7,101,43,,52,52,24,28,11,15,0.8,1
2025-10-30T0900,1768A,121.0604,40.8428,锦州市,开发区,,19,17,126,13,95,43,,36,36,20,41,13,47,0.5,1.1
2025-10-30T0900,1769A,121.1836,41.1119,锦州市,百股街道,,24,24,102,14,86,42,,47,46,20,27,14,15,1.2,1.2
2025-10-30T0900,1770A,121.1178,41.1222,锦州市,天安街道,,19,,90,13,98,47,,56,56,18,22,12,11,0.9,1.2
2025-10-30T0900,1771A,121.1303,41.1386,锦州市,北湖公园,,23,23,94,6,90,47,,53,52,18,24,10,10,0.8,1
2025-10-30T0900,2160A,112.85,35.5051,晋城市,自来水公司,细颗粒物(PM2.5),147,168,111,112,78,27,,30,28,34,24,6,5,2.6,0.9
2025-10-30T0900,2161A,112.8318,35.4936,晋城市,白云商贸,颗粒物(PM10),126,201,121,,67,20,,23,23,39,26,5,3,2.9,0.8
2025-10-30T0900,2162A,112.8508,35.4887,晋城市,市环保局,细颗粒物(PM2.5),128,171,110,97,63,30,,33,29,28,17,7,4,3.0,1.2
2025-10-30T0900,2163A,112.8676,35.4897,晋城市,技术学院,细颗粒物(PM2.5),125,144,101,95,64,27,,21,18,38,28,8,5,2.5,1
2025-10-30T0900,3620A,112.8271,35.4828,晋城市,泽州一中,细颗粒物(PM2.5),140,166,118,107,78,26,,39,35,36,24,5,3,3.0,0.9
2025-10-30T0900,2173A,112.7249,37.7067,晋中市,南都小区,细颗粒物(PM2.5),74,85,72,54,42,16,,21,19,33,29,13,10,1.0,0.8
2025-10-30T0900,2174A,112.6991,37.6982,晋中市,榆次区政府,颗粒物(PM10),73,95,74,46,52,9,,17,15,34,32,10,10,1.2,1
2025-10-30T0900,2865A,112.7195,37.6828,晋中市,榆次三中,颗粒物(PM10),73,95,74,41,43,7,,8,7,32,30,11,13,0.6,0.5
2025-10-30T0900,4200A,112.7478,37.6954,晋中市,迎宾街26号,细颗粒物(PM2.5),62,70,68,44,46,9,,17,17,25,26,8,11,0.7,0.6
2025-10-30T0900,2439A,112.2014,31.0481,荆门市,竹园小学,细颗粒物(PM2.5),155,131,113,118,95,46,,56,51,24,23,2,2,1.6,0.9
2025-10-30T0900,2440A,112.1969,30.9891,荆门市,掇刀,细颗粒物(PM2.5),148,132,125,113,101,59,,78,74,24,19,1,1,0.9,0.9
2025-10-30T0900,2441A,112.2213,31.0386,荆门市,石化一小,细颗粒物(PM2.5),142,130,126,108,98,34,,50,48,32,31,2,4,0.9,0.8
2025-10-30T0900,3012A,112.1849,31.0362,荆门市,西山林语,细颗粒物(PM2.5),137,116,118,104,91,40,,77,69,23,19,4,5,1.0,0.8
2025-10-30T0900,3547A,112.1632,31.0138,荆门市,龙泉中学南校,细颗粒物(PM2.5),84,77,100,62,70,39,,72,69,26,25,5,7,0.5,0.4
2025-10-30T0900,1844A,112.2494,30.3197,荆州市,市图书馆,细颗粒物(PM2.5),77,92,98,56,78,49,,57,57,25,38,6,9,0.8,0.8
2025-10-30T0900,1845A,112.2008,30.3544,荆州市,市委党校,颗粒物(PM10),75,100,111,54,73,30,,44,43,26,37,8,10,1.0,1
2025-10-30T0900,3194A,112.2747,30.3122,荆州市,管委会,细颗粒物(PM2.5),75,77,106,55,79,39,,47,46,21,36,6,8,0.9,0.9
2025-10-30T0900,4268A,112.1722,30.3366,荆州市,学苑路85号,细颗粒物(PM2.5),128,,102,97,103,35,,51,49,24,19,5,9,0.7,0.7
2025-10-30T0900,2343A,117.2117,29.2933,景德镇市,老干部活动中心,,29,29,25,19,20,46,,59,55,9,7,4,3,0.4,0.4
2025-10-30T0900,2344A,117.1894,29.2789,景德镇市,兽医站,,32,32,32,21,15,46,,61,58,14,10,6,6,0.3,0.3
2025-10-30T0900,2346A,117.2461,29.2956,景德镇市,陶研所,,29,26,23,20,21,49,,62,57,7,4,6,6,0.6,0.6
2025-10-30T0900,4289A,117.1542,29.2566,景德镇市,青少年活动中心,,29,28,33,20,19,46,,62,59,14,10,3,4,0.5,0.5
2025-10-30T0900,1803A,115.9872,29.6815,九江市,十里,细颗粒物(PM2.5),140,126,134,107,113,54,,48,47,33,33,4,8,1.1,1
2025-10-30T0900,1804A,115.9584,29.7046,九江市,茅山头,细颗粒物(PM2.5),170,,127,129,112,40,,44,42,29,28,9,9,0.9,0.9
2025-10-30T0900,1805A,115.9877,29.7295,九江市,西园,细颗粒物(PM2.5),147,127,123,112,100,52,,47,47,41,45,6,9,0.9,0.9
2025-10-30T0900,1808A,115.9114,29.6038,九江市,综合工业园,细颗粒物(PM2.5),144,118,123,110,111,38,,45,44,49,46,2,5,0.8,0.8
2025-10-30T0900,1809A,116.0721,29.7535,九江市,石化总厂,细颗粒物(PM2.5),172,137,139,130,116,,,47,47,31,40,4,6,1.2,0.9
2025-10-30T0900,3190A,116.0254,29.6994,九江市,外国语学校,细颗粒物(PM2.5),145,114,123,111,105,,,47,45,48,40,6,9,1.0,1
2025-10-30T0900,4253A,116.0102,29.6594,九江市,莲花大道8号,细颗粒物(PM2.5),159,,129,121,117,45,,40,40,27,25,6,9,0.9,0.9
2025-10-30T0900,4240A,98.4958,39.7339,酒泉市,玉门东路5号,颗粒物(PM10),82,114,126,30,34,27,,51,48,35,21,10,11,0.5,0.4
2025-10-30T0900,4241A,98.5099,39.7506,酒泉市,北大街108号,颗粒物(PM10),91,132,117,32,32,10,,47,42,48,23,9,10,0.8,0.5
2025-10-30T0900,2698A,76.0072,39.4467,喀什地区,巡警大队,颗粒物(PM10),96,141,188,43,59,11,,18,18,45,54,4,6,0.9,1
2025-10-30T0900,2699A,75.9755,39.4694,喀什地区,吾办,颗粒物(PM10),96,142,189,51,70,6,,5,5,46,54,3,6,1.2,1.3
2025-10-30T0900,4027A,75.9483,39.4689,喀什地区,老干局,颗粒物(PM10),78,106,187,33,54,27,,10,10,29,52,2,3,0.5,1
2025-10-30T0900,1824A,114.3389,34.7781,开封市,肿瘤医院,细颗粒物(PM2.5),93,104,118,69,66,23,,25,24,43,45,9,8,0.9,0.8
2025-10-30T0900,1826A,114.2885,34.7965,开封市,世纪星幼儿园,细颗粒物(PM2.5),100,108,107,75,76,26,,34,31,37,34,7,7,0.8,0.8
2025-10-30T0900,3147A,114.3438,34.8106,开封市,龙亭公园,细颗粒物(PM2.5),92,84,115,68,70,23,,28,26,44,36,10,9,1.1,0.9
2025-10-30T0900,3210A,114.3644,34.7964,开封市,汴京公园,细颗粒物(PM2.5),88,96,118,65,66,18,,22,19,53,43,8,8,0.9,0.8
2025-10-30T0900,3473A,114.2485,34.8306,开封市,技师学院,细颗粒物(PM2.5),103,79,102,77,82,44,,51,48,24,30,10,9,0.8,0.8
2025-10-30T0900,3592A,114.4644,34.7556,开封市,祥符区生态环境局,颗粒物(PM10),67,84,106,42,52,19,,7,7,51,58,6,6,0.8,0.7
2025-10-30T0900,1951A,84.895,45.6094,克拉玛依市,长征新村,,22,22,40,14,15,43,,50,50,16,21,1,2,0.2,0.4
2025-10-30T0900,1952A,84.8988,45.5893,克拉玛依市,南林小区,,21,21,36,10,14,49,,48,48,5,20,3,3,0.5,0.6
2025-10-30T0900,1954A,84.905,44.3396,克拉玛依市,独山子区,颗粒物(PM10),79,108,149,47,52,44,,52,51,33,32,6,8,0.6,0.6
2025-10-30T0900,1955A,85.6979,46.098,克拉玛依市,乌尔禾区商贸楼,,35,35,33,23,12,19,,28,27,19,20,5,5,0.2,0.3
2025-10-30T0900,3612A,85.1045,45.6899,克拉玛依市,白碱滩区新站,,35,35,38,13,14,66,,68,68,2,7,4,5,0.2,0.2
2025-10-30T0900,2697A,76.1454,39.7142,克孜勒苏柯尔克孜自治州,市人民政府,颗粒物(PM10),66,81,120,36,48,70,,72,71,9,16,7,10,0.1,0.1
2025-10-30T0900,3665A,76.1658,39.7157,克孜勒苏柯尔克孜自治州,克州文化中心,颗粒物(PM10),68,85,133,30,43,68,,68,68,12,24,8,12,0.3,0.5
2025-10-30T0900,1450A,102.8204,24.8886,昆明市,呈贡新区,细颗粒物(PM2.5),62,,22,44,22,6,,24,20,33,16,1,6,1.1,0.7
2025-10-30T0900,1452A,102.7252,25.0902,昆明市,龙泉镇,,25,25,24,12,11,27,,17,17,15,19,2,3,0.4,0.4
2025-10-30T0900,1453A,102.7266,25.0375,昆明市,东风东路,,23,23,20,12,13,26,,34,33,14,11,2,2,0.5,0.4
2025-10-30T0900,1454A,102.6742,25.0669,昆明市,金鼎山,,19,19,23,10,10,29,,31,31,13,11,1,2,0.3,0.3
2025-10-30T0900,1455A,102.6644,25.0401,昆明市,碧鸡广场,,22,22,23,12,12,28,,23,23,13,16,8,9,0.4,0.4
2025-10-30T0900,3179A,102.7494,25.0119,昆明市,官渡区博物馆,,24,24,20,9,11,27,,28,26,16,13,3,3,0.5,0.4
2025-10-30T0900,3375A,102.8017,24.8336,昆明市,青年创业园,,35,35,18,15,12,4,,18,13,20,9,2,2,0.9,0.7
2025-10-30T0900,3550A,102.7997,24.9786,昆明市,昆明学院,,28,28,23,15,12,12,,26,23,29,14,9,9,0.7,0.6
2025-10-30T0900,3551A,102.5967,24.6736,昆明市,晋宁区生态环境分局,,26,26,23,14,11,28,,30,28,13,10,3,2,0.4,0.4
2025-10-30T0900,3552A,102.6678,24.9856,昆明市,云天化总部,,19,19,19,12,11,33,,27,27,12,12,4,6,0.5,0.5
2025-10-30T0900,1456A,91.1319,29.6514,拉萨市,八廓街,,16,13,15,9,9,51,,55,54,19,18,5,5,0.3,0.3
2025-10-30T0900,1457A,91.1221,29.6747,拉萨市,市环保局,,23,21,20,16,10,35,,41,41,27,18,8,7,0.4,0.3
2025-10-30T0900,1458A,91.0874,29.6475,拉萨市,区监测站,,16,13,15,7,8,45,,37,37,32,33,4,4,0.3,0.3
2025-10-30T0900,1459A,91.1774,29.6541,拉萨市,西藏大学,,16,8,13,3,8,50,,53,53,22,22,5,5,0.5,0.6
2025-10-30T0900,1460A,90.9798,29.6588,拉萨市,区辐射站,,47,47,22,19,12,8,,18,16,56,37,10,6,0.7,0.4
2025-10-30T0900,1461A,91.0834,29.6292,拉萨市,拉萨火车站,,23,15,18,9,8,73,,52,52,12,20,5,5,0.3,0.4
2025-10-30T0900,2520A,109.2203,23.7256,来宾市,来宾技工学校,细颗粒物(PM2.5),59,,51,42,45,51,,57,57,10,10,8,9,1.1,0.9
2025-10-30T0900,3535A,109.1781,23.7297,来宾市,兴宾区政府,细颗粒物(PM2.5),52,46,50,36,40,51,,60,60,10,10,8,9,0.9,0.7
2025-10-30T0900,4002A,109.2416,23.7461,来宾市,中南小学,细颗粒物(PM2.5),58,42,51,41,41,46,,55,54,12,13,6,7,0.8,0.8
2025-10-30T0900,3241A,103.7439,36.0842,兰州市,百合公园,颗粒物(PM10),60,69,76,35,45,7,,8,8,41,56,3,7,1.0,1.1
2025-10-30T0900,3242A,103.9611,35.998,兰州市,和平,颗粒物(PM10),67,84,72,44,36,30,,43,39,41,26,8,9,0.8,0.7
2025-10-30T0900,4236A,103.6293,36.0938,兰州市,庄浪东路808号,颗粒物(PM10),79,107,90,41,47,13,,32,29,58,61,9,14,0.8,0.8
2025-10-30T0900,4237A,103.7251,36.1043,兰州市,安宁西路88号,颗粒物(PM10),81,112,95,43,55,9,,11,11,55,61,2,10,0.8,0.8
2025-10-30T0900,4238A,103.8470,36.0676,兰州市,北滨河东路1号,颗粒物(PM10),72,94,88,44,45,4,,2,2,53,60,10,14,1.6,1.2
2025-10-30T0900,3245A,103.6633,36.533,兰州新区,新区管委会,颗粒物(PM10),60,70,63,38,38,15,,42,37,29,16,12,15,0.5,0.4
2025-10-30T0900,3246A,103.6975,36.4789,兰州新区,舟曲中学,颗粒物(PM10),76,102,74,42,32,26,,51,45,45,22,15,14,0.8,0.5
2025-10-30T0900,1067A,116.6708,39.5111,廊坊市,药材公司,细颗粒物(PM2.5),224,206,191,174,162,6,,2,2,46,46,2,2,1.1,1
2025-10-30T0900,1068A,116.7214,39.5589,廊坊市,开发区,细颗粒物(PM2.5),219,193,183,169,145,3,,0,0,47,40,1,1,0.9,0.8
2025-10-30T0900,1070A,116.7244,39.5269,廊坊市,北华航天学院,细颗粒物(PM2.5),215,288,209,165,156,5,,2,2,46,46,4,4,0.9,0.9
2025-10-30T0900,2919A,116.7022,39.5453,廊坊市,河北工业大学,细颗粒物(PM2.5),216,186,180,166,153,4,,1,1,41,40,3,3,1.0,0.9
2025-10-30T0900,2536A,103.7627,29.5844,乐山市,牛耳桥,,32,27,27,22,22,24,,29,28,19,25,7,7,0.7,0.7
2025-10-30T0900,2537A,103.7508,29.6006,乐山市,市第三水厂,,33,27,26,23,20,22,,,,20,24,5,5,0.8,0.8
2025-10-30T0900,2538A,103.7571,29.5664,乐山市,市监测站,,,29,27,24,22,,,26,26,16,19,6,6,0.7,0.7
2025-10-30T0900,3361A,103.7311,29.5628,乐山市,理工大学,,32,28,26,22,20,21,,24,22,14,19,9,9,0.6,0.6
2025-10-30T0900,2599A,100.2497,26.8802,丽江市,丽江古城,,23,23,18,8,8,42,,56,53,18,10,9,9,0.6,0.5
2025-10-30T0900,2600A,100.2203,26.8906,丽江市,市中心,,22,22,11,12,8,27,,59,54,27,10,11,10,0.5,0.3
2025-10-30T0900,1267A,119.914,28.4514,丽水市,监测站大楼,,18,18,24,9,13,15,,33,28,25,17,4,5,0.5,0.5
2025-10-30T0900,1268A,119.93,28.4586,丽水市,莲都小学,,22,22,19,8,7,15,,34,31,26,15,4,4,0.3,0.3
2025-10-30T0900,1269A,119.879,28.4231,丽水市,余庄前,,18,18,16,10,9,4,,7,5,20,15,4,4,0.4,0.3
2025-10-30T0900,1173A,119.176,34.5885,连云港市,市环境监测站,,25,24,25,7,8,77,,72,72,15,15,7,6,0.4,0.4
2025-10-30T0900,3000A,119.3581,34.6972,连云港市,德源药业,,22,22,32,7,9,49,,65,63,27,23,5,5,0.5,0.3
2025-10-30T0900,3007A,119.178,34.844,连云港市,新城一中,,29,29,29,3,8,64,,47,47,34,36,7,6,0.5,0.5
2025-10-30T0900,3008A,119.3608,34.7519,连云港市,胡沟管理处,,27,22,18,3,3,41,,79,73,53,24,12,10,0.3,0.3
2025-10-30T0900,3009A,119.1478,34.5911,连云港市,矿山设计院,,,22,27,7,10,,,70,70,8,9,4,4,0.5,0.5
2025-10-30T0900,3434A,119.2413,34.6539,连云港市,工贸学校,,26,17,19,6,8,83,,87,86,8,10,10,8,0.6,0.5
2025-10-30T0900,3664A,119.4172,34.7341,连云港市,连云街道,,28,16,19,6,7,87,,94,92,13,13,6,5,0.4,0.3
2025-10-30T0900,2572A,102.2721,27.8415,凉山彝族自治州,邛海宾馆,,,28,24,14,14,29,,40,39,,9,7,10,0.6,0.6
2025-10-30T0900,2573A,102.2625,27.898,凉山彝族自治州,西昌市政府,,10,10,26,7,13,25,,38,36,13,9,6,7,0.6,0.6
2025-10-30T0900,2574A,102.2685,27.8851,凉山彝族自治州,凉山州政府,,20,,26,14,18,29,,38,37,7,7,8,9,0.7,0.5
2025-10-30T0900,4229A,102.2342,27.8859,凉山彝族自治州,凯乐南路30号,,,13,26,3,13,,,47,47,23,15,6,9,0.7,0.6
2025-10-30T0900,2212A,123.2,41.1953,辽阳市,宏伟区,,30,,70,21,53,33,,57,49,25,19,35,13,0.5,0.7
2025-10-30T0900,2213A,123.1683,41.2495,辽阳市,新华园,,23,23,74,13,55,35,,54,47,23,24,4,8,0.3,0.6
2025-10-30T0900,2214A,123.2354,41.2639,辽阳市,滨河路,,47,47,83,19,45,35,,52,45,20,22,12,11,0.4,0.8
2025-10-30T0900,2215A,123.149,41.2991,辽阳市,铁西工业园,,35,35,97,23,42,28,,45,38,25,23,22,11,0.6,1
2025-10-30T0900,2227A,125.1358,42.8845,辽源市,环保局,,31,31,71,3,34,47,,51,46,11,13,4,4,0.2,0.4
2025-10-30T0900,3239A,125.0764,42.9078,辽源市,银鹰制药,,26,26,68,12,45,54,,57,53,9,10,5,4,0.4,0.5
2025-10-30T0900,1625A,115.9848,36.4372,聊城市,区政府,颗粒物(PM10),68,86,77,46,38,41,,51,48,38,30,12,10,0.7,0.6
2025-10-30T0900,2878A,116.0072,36.4343,聊城市,聊大东校,颗粒物(PM10),70,90,83,47,43,35,,53,50,40,33,10,9,0.7,0.6
2025-10-30T0900,3200A,115.9819,36.4978,聊城市,监控中心,颗粒物(PM10),65,79,76,36,39,31,,56,51,44,25,13,10,0.8,0.7
2025-10-30T0900,3513A,116.0445,36.4361,聊城市,九州社区,颗粒物(PM10),66,82,76,38,36,40,,54,52,27,22,6,2,0.5,0.5
2025-10-30T0900,4018A,116.0567,36.4608,聊城市,星美广场,颗粒物(PM10),66,82,81,39,34,16,,17,17,23,20,8,6,0.6,0.5
2025-10-30T0900,2632A,94.3681,29.6376,林芝市,林芝监测站,,9,7,7,6,5,12,,24,21,2,2,3,3,0.4,0.4
2025-10-30T0900,2633A,94.3616,29.6616,林芝市,林芝人民医院,,18,18,11,8,6,10,,21,19,10,7,5,5,0.5,0.4
2025-10-30T0900,2603A,100.0781,23.8982,临沧市,市环保局,,25,,29,17,29,6,,8,7,7,8,2,5,0.9,0.7
2025-10-30T0900,2604A,100.0894,23.8822,临沧市,市气象局,,30,24,21,21,20,8,,11,10,9,8,6,6,0.6,0.5
2025-10-30T0900,1733A,111.5531,36.0783,临汾市,临钢医院,细颗粒物(PM2.5),100,129,113,75,67,6,,5,4,28,32,7,8,1.4,1.4
2025-10-30T0900,1734A,111.5028,36.0714,临汾市,技工学校,细颗粒物(PM2.5),100,124,130,75,84,1,,0,0,32,41,9,10,0.9,1.1
2025-10-30T0900,1736A,111.5018,36.0855,临汾市,市委,细颗粒物(PM2.5),99,125,131,74,81,2,,0,0,31,38,7,9,1.0,1.2
2025-10-30T0900,3018A,111.505,36.1014,临汾市,唐尧大酒店,,,,121,,72,,,0,0,26,30,,5,1.3,1.3
2025-10-30T0900,4244A,111.4879,36.0530,临汾市,启星学校,细颗粒物(PM2.5),104,127,122,78,78,1,,0,0,30,43,8,9,1.1,1.3
2025-10-30T0900,4271A,103.2464,35.6123,临夏回族自治州,滨河东路1号,细颗粒物(PM2.5),88,103,121,65,74,5,,6,6,32,32,8,8,1.4,1
2025-10-30T0900,4310A,103.2093,35.5995,临夏回族自治州,新华街21号,细颗粒物(PM2.5),95,102,124,71,77,11,,9,9,27,31,8,8,1.1,0.9
2025-10-30T0900,1618A,118.3429,35.0532,临沂市,沂河小区,,44,44,50,26,32,46,,51,50,32,28,8,10,0.4,0.4
2025-10-30T0900,1619A,118.295,35.0583,临沂市,鲁南制药厂,,39,39,46,23,27,52,,60,59,33,28,8,11,0.7,0.6
2025-10-30T0900,1620A,118.2794,34.9976,临沂市,新光毛纺厂,,46,46,54,31,40,53,,51,51,36,32,8,11,0.4,0.4
2025-10-30T0900,1621A,118.3956,35.0888,临沂市,河东保险公司,颗粒物(PM10),53,56,56,23,27,42,,28,27,36,36,7,8,0.6,0.6
2025-10-30T0900,3370A,118.3564,35.0215,临沂市,十里堡居委,,,39,39,19,16,51,,56,56,34,31,9,11,,0.4
2025-10-30T0900,3496A,118.3604,35.1084,临沂市,南坊新区,颗粒物(PM10),51,51,51,27,26,44,,44,43,37,32,8,10,0.8,0.6
2025-10-30T0900,3860A,118.3920,35.0300,临沂市,皇山花园小区,,,36,47,13,24,,,52,51,30,24,10,12,0.6,0.5
2025-10-30T0900,1870A,109.4856,24.3895,柳州市,柳东小学,细颗粒物(PM2.5),55,42,44,39,38,43,,46,45,13,13,5,7,0.6,0.6
2025-10-30T0900,1871A,109.4157,24.3277,柳州市,环保监测站,,38,38,42,22,28,50,,51,50,10,14,7,9,0.8,0.6
2025-10-30T0900,1872A,109.389,24.341,柳州市,河西水厂,细颗粒物(PM2.5),59,46,52,42,35,61,,62,61,14,14,5,6,0.4,0.4
2025-10-30T0900,1873A,109.4311,24.2921,柳州市,市四中,细颗粒物(PM2.5),54,51,49,38,31,41,,43,42,18,17,8,9,0.7,0.6
2025-10-30T0900,1874A,109.4006,24.3631,柳州市,市九中,细颗粒物(PM2.5),57,46,50,40,39,58,,58,57,12,13,3,4,0.6,0.5
2025-10-30T0900,1875A,109.4958,24.3134,柳州市,古亭山,细颗粒物(PM2.5),60,53,50,43,35,28,,25,23,28,20,22,9,0.8,0.7
2025-10-30T0900,3402A,109.5422,24.3996,柳州市,市二中,细颗粒物(PM2.5),57,49,47,40,36,44,,43,43,19,17,7,8,0.6,0.6
2025-10-30T0900,2307A,116.5079,31.737,六安市,监测大楼,细颗粒物(PM2.5),129,,73,98,62,20,,28,27,43,28,3,4,0.6,0.4
2025-10-30T0900,2308A,116.4738,31.7643,六安市,皖西学院,细颗粒物(PM2.5),123,,81,93,61,30,,20,20,34,32,3,4,0.6,0.4
2025-10-30T0900,2309A,116.4996,31.7905,六安市,朝阳厂,细颗粒物(PM2.5),113,,66,85,52,24,,14,14,41,42,4,5,0.6,0.4
2025-10-30T0900,2310A,116.5567,31.7886,六安市,开发区,细颗粒物(PM2.5),83,81,78,61,47,8,,6,6,44,42,2,3,0.6,0.5
2025-10-30T0900,2577A,104.83,26.5917,六盘水市,黄土坡,,13,10,12,3,7,40,,54,52,20,14,6,4,0.8,0.7
2025-10-30T0900,2578A,104.89,26.5939,六盘水市,水钢,,31,31,16,3,6,35,,50,48,25,14,13,6,1.7,0.9
2025-10-30T0900,2579A,104.8475,26.5894,六盘水市,民中,,13,7,12,3,7,40,,54,52,17,10,6,3,0.6,0.6
2025-10-30T0900,2580A,104.9544,26.5506,六盘水市,双水,,17,17,13,9,7,41,,56,54,13,11,9,4,0.6,0.5
2025-10-30T0900,2336A,117.0217,25.1033,龙岩市,龙岩市监测站,,20,16,19,14,11,51,,60,59,15,11,8,12,0.6,0.4
2025-10-30T0900,2337A,117.0258,25.0661,龙岩市,闽西职业技术学院,,25,19,20,17,9,53,,61,61,12,8,8,9,0.7,0.5
2025-10-30T0900,2338A,117.0196,25.0306,龙岩市,龙岩学院,,28,,19,19,11,46,,42,42,14,11,8,7,0.5,0.4
2025-10-30T0900,2885A,104.9339,33.3826,陇南市,滨江中学,,37,37,51,21,22,11,,10,10,12,16,9,8,0.7,0.7
2025-10-30T0900,3247A,104.955,33.371,陇南市,市总工会,,47,47,50,20,22,12,,12,12,16,17,8,8,0.6,0.5
2025-10-30T0900,2488A,111.9975,27.725,娄底市,市监测站,细颗粒物(PM2.5),68,73,65,49,48,77,,93,91,17,19,7,9,0.6,0.5
2025-10-30T0900,2489A,112.0194,27.7314,娄底市,市委党校,细颗粒物(PM2.5),78,61,65,57,50,78,,86,85,16,15,3,5,0.8,0.8
2025-10-30T0900,2490A,111.9561,27.7569,娄底市,涟钢,细颗粒物(PM2.5),73,69,75,53,57,50,,64,61,20,20,7,11,1.2,1.3
2025-10-30T0900,2491A,111.9892,27.7044,娄底市,市政府,细颗粒物(PM2.5),73,76,64,53,51,73,,91,90,17,15,7,10,0.9,0.9
2025-10-30T0900,1894A,105.4427,28.9063,泸州市,小市上码头,,32,32,33,22,25,10,,25,24,26,16,8,8,0.5,0.7
2025-10-30T0900,1895A,105.4241,28.8573,泸州市,兰田宪桥,,31,31,33,20,24,16,,28,26,11,13,5,5,0.5,0.5
2025-10-30T0900,1896A,105.4379,28.8833,泸州市,市环监站,,35,35,34,23,24,15,,34,32,30,22,9,9,0.6,0.5
2025-10-30T0900,4272A,105.3689,28.7783,泸州市,纳溪中医医院,,35,29,27,24,22,11,,34,31,31,16,6,5,0.7,0.5
2025-10-30T0900,2183A,111.1406,37.5211,吕梁市,环保局,颗粒物(PM10),58,65,71,25,27,4,,2,2,31,40,6,4,0.7,0.6
2025-10-30T0900,2185A,111.1297,37.5136,吕梁市,自来水公司,颗粒物(PM10),66,81,88,26,28,4,,2,2,26,32,13,4,0.7,0.7
2025-10-30T0900,2867A,111.1283,37.51,吕梁市,马茂庄小学,颗粒物(PM10),70,90,85,32,27,1,,0,0,33,41,11,5,0.9,0.6
2025-10-30T0900,1812A,112.3931,34.6516,洛阳市,市委党校,细颗粒物(PM2.5),122,126,150,92,112,15,,7,7,28,39,6,7,1.1,1.2
2025-10-30T0900,1815A,112.494,34.6886,洛阳市,河南林校,细颗粒物(PM2.5),143,118,143,109,134,6,,2,2,24,38,9,8,1.0,1
2025-10-30T0900,1816A,112.3844,34.623,洛阳市,开发区管委会,细颗粒物(PM2.5),102,109,155,76,118,13,,5,5,20,30,6,7,1.0,1.1
2025-10-30T0900,1817A,112.4267,34.6258,洛阳市,市委新办公区,细颗粒物(PM2.5),88,88,161,65,100,10,,5,5,22,35,7,7,1.0,1.2
2025-10-30T0900,3340A,112.6005,34.6326,洛阳市,伊滨,细颗粒物(PM2.5),143,,129,109,126,14,,4,4,28,37,4,4,0.7,0.8
2025-10-30T0900,3341A,112.4951,34.6332,洛阳市,中移产业园,细颗粒物(PM2.5),133,120,167,101,124,7,,1,1,25,42,7,7,1.0,1.1
2025-10-30T0900,3593A,112.5736,34.8993,洛阳市,吉利监测站,细颗粒物(PM2.5),132,112,146,100,130,8,,4,4,26,39,7,8,1.0,1
2025-10-30T0900,3635A,112.3677,34.662,洛阳市,河科大西苑校区,细颗粒物(PM2.5),104,134,152,78,112,12,,5,5,38,42,10,8,1.2,1.2
2025-10-30T0900,3636A,112.4388,34.6781,洛阳市,英才小学,细颗粒物(PM2.5),115,177,208,87,103,,,,,35,45,7,7,1.2,1.2
2025-10-30T0900,4214A,112.4600,34.6949,洛阳市,春都路1号院,细颗粒物(PM2.5),117,122,122,88,105,0,,0,0,35,43,7,7,1.5,1.2
2025-10-30T0900,2399A,114.051,33.5699,漯河市,三五一五工厂,细颗粒物(PM2.5),98,136,134,73,63,24,,32,29,32,25,7,7,1.0,0.8
2025-10-30T0900,2400A,114.0055,33.5698,漯河市,漯河大学,细颗粒物(PM2.5),119,129,133,90,74,29,,33,30,27,25,6,6,0.9,0.8
2025-10-30T0900,2401A,114.0138,33.5828,漯河市,市水利局,细颗粒物(PM2.5),125,149,141,95,76,30,,36,33,27,24,7,7,0.9,0.7
2025-10-30T0900,2402A,114.0261,33.5698,漯河市,市广电局,细颗粒物(PM2.5),107,156,137,80,67,24,,30,27,32,25,5,6,0.7,0.6
2025-10-30T0900,3478A,113.9749,33.5664,漯河市,市图书馆,细颗粒物(PM2.5),112,156,154,84,72,22,,37,34,26,24,5,5,0.8,0.7
2025-10-30T0900,4250A,114.0892,33.5882,漯河市,韶山路11号,细颗粒物(PM2.5),118,138,130,89,75,17,,26,23,35,27,7,7,0.7,0.7
2025-10-30T0900,1798A,118.5092,31.6837,马鞍山市,湖东路四小,,36,36,40,19,14,23,,53,48,39,24,7,9,0.5,0.4
2025-10-30T0900,1799A,118.5024,31.6449,马鞍山市,开发区,,40,40,43,18,21,29,,48,44,35,22,10,10,0.7,0.5
2025-10-30T0900,3633A,118.4918,31.6809,马鞍山市,雨山,,44,44,40,19,17,19,,56,50,46,25,6,9,0.6,0.5
2025-10-30T0900,4191A,118.5274,31.72227,马鞍山市,慈湖高新区,,40,40,32,14,17,28,,52,47,28,24,3,5,0.4,0.4
2025-10-30T0900,1686A,111.0286,21.4688,茂名市,电白南海,颗粒物(PM10),53,56,55,34,38,81,,73,71,11,13,10,9,0.4,0.5
2025-10-30T0900,1687A,110.9294,21.6533,茂名市,茂石化七小,颗粒物(PM10),60,70,54,34,35,73,,77,77,19,16,8,10,0.7,0.7
2025-10-30T0900,1688A,110.9107,21.6687,茂名市,健康路,颗粒物(PM10),56,61,48,36,34,53,,66,66,29,18,23,15,0.9,0.7
2025-10-30T0900,1689A,110.8592,21.6828,茂名市,高岭,颗粒物(PM10),62,73,64,34,36,52,,46,46,16,20,20,14,1.1,0.9
2025-10-30T0900,3450A,111.01,21.5165,茂名市,电白水东,颗粒物(PM10),51,51,44,27,31,66,,72,70,17,14,11,11,0.8,0.8
2025-10-30T0900,2540A,103.8416,30.0874,眉山市,气象局,,47,47,42,24,21,6,,27,26,30,22,9,9,0.6,0.4
2025-10-30T0900,3137A,103.8578,30.0744,眉山市,市委党校,,35,29,26,24,16,30,,24,24,16,18,5,6,0.6,0.6
2025-10-30T0900,3148A,103.8291,30.0564,眉山市,区人社局,,48,48,38,31,16,28,,28,28,16,14,4,5,1.0,0.8
2025-10-30T0900,1690A,116.1231,24.3284,梅州市,梅江月梅,,43,43,26,27,20,38,,45,45,15,19,6,6,0.6,0.5
2025-10-30T0900,1691A,116.0797,24.2719,梅州市,梅县新城,,20,16,24,14,15,47,,38,38,18,19,9,9,0.6,0.5
2025-10-30T0900,1692A,116.1248,24.2654,梅州市,环境监控中心,,22,,19,15,15,47,,46,46,16,17,8,20,0.5,0.4
2025-10-30T0900,3315A,116.1233,24.2991,梅州市,梅龙,,,19,19,9,11,,,45,45,10,11,8,7,0.6,0.6
2025-10-30T0900,1878A,104.7778,31.4741,绵阳市,富乐山,,32,32,28,21,20,9,,2,2,10,15,8,8,0.6,0.6
2025-10-30T0900,1880A,104.6697,31.4668,绵阳市,高新区自来水公司,,46,46,37,31,28,1,,0,0,22,29,8,8,0.7,0.6
2025-10-30T0900,1881A,104.7287,31.5075,绵阳市,三水厂,,40,34,36,28,28,4,,1,1,15,22,6,6,0.6,0.6
2025-10-30T0900,3491A,104.69,31.5322,绵阳市,西科大附属小学,,34,34,32,19,20,5,,2,2,23,26,10,10,0.7,0.7
2025-10-30T0900,3492A,104.5648,31.5343,绵阳市,安州区旅游局,,42,,25,29,24,7,,8,8,24,21,7,8,0.8,0.7
2025-10-30T0900,4226A,104.7651,31.4531,绵阳市,绵阳市气象局,,40,35,33,28,26,2,,4,4,11,18,7,8,0.6,0.6
2025-10-30T0900,1784A,129.61,44.561,牡丹江市,环保大楼,细颗粒物(PM2.5),80,79,96,59,75,22,,34,32,23,30,6,7,0.7,0.6
2025-10-30T0900,1785A,129.6115,44.5782,牡丹江市,文化广场,细颗粒物(PM2.5),84,106,103,62,74,20,,32,30,32,40,9,8,0.8,0.7
2025-10-30T0900,1786A,129.5904,44.5963,牡丹江市,第一医院,细颗粒物(PM2.5),82,75,105,60,84,18,,31,27,32,37,5,4,0.7,0.6
2025-10-30T0900,1787A,129.6364,44.6075,牡丹江市,机车工厂,细颗粒物(PM2.5),77,57,114,56,77,22,,20,20,32,46,8,7,0.7,0.7
2025-10-30T0900,1788A,129.6386,44.5462,牡丹江市,第一中学,细颗粒物(PM2.5),60,47,84,43,65,25,,28,28,24,30,4,4,0.6,0.6
2025-10-30T0900,2531A,105.0703,29.61,内江市,市监测站,,39,37,31,27,22,19,,31,29,21,13,4,4,1.0,0.8
2025-10-30T0900,2532A,105.0717,29.5947,内江市,东兴区政府,,35,35,31,20,18,19,,30,28,18,14,9,9,0.4,0.3
2025-10-30T0900,2533A,105.0653,29.5817,内江市,内江二中,,40,40,33,22,19,24,,30,29,20,17,4,4,0.7,0.6
2025-10-30T0900,2534A,105.0406,29.5822,内江市,内江日报社,,38,36,30,26,25,24,,28,28,23,20,2,3,0.6,0.5
2025-10-30T0900,2628A,92.0657,31.4846,那曲市,那曲监测站,细颗粒物(PM2.5),95,102,40,71,26,17,,41,39,51,32,14,8,1.3,1
2025-10-30T0900,4243A,92.0515,31.4787,那曲市,那曲市委宣传部,细颗粒物(PM2.5),84,82,22,62,15,10,,44,38,55,24,13,7,2.0,0.9
2025-10-30T0900,1290A,115.8931,28.6843,南昌市,省外办,细颗粒物(PM2.5),64,59,77,46,62,41,,60,57,22,20,4,6,1.0,0.9
2025-10-30T0900,1291A,115.8886,28.7003,南昌市,省林业公司,细颗粒物(PM2.5),62,44,68,44,56,44,,56,55,18,21,2,4,1.1,1
2025-10-30T0900,1292A,115.8126,28.7442,南昌市,林科所,细颗粒物(PM2.5),58,,49,41,41,50,,66,64,13,16,4,6,0.7,0.7
2025-10-30T0900,1294A,115.8518,28.687,南昌市,建工学校,细颗粒物(PM2.5),95,81,82,71,59,47,,68,63,20,21,10,12,0.8,0.7
2025-10-30T0900,1295A,115.8921,28.6424,南昌市,象湖,细颗粒物(PM2.5),62,71,75,44,57,48,,64,61,18,19,7,9,0.8,0.8
2025-10-30T0900,3046A,115.9084,28.6062,南昌市,机电学校,细颗粒物(PM2.5),70,58,84,51,64,51,,67,64,19,21,6,11,0.6,0.7
2025-10-30T0900,3690A,115.9721,28.7031,南昌市,外国语学校,细颗粒物(PM2.5),94,,96,70,80,37,,55,52,30,31,7,10,0.6,0.6
2025-10-30T0900,4192A,115.9316,28.68677,南昌市,南京东路235号,细颗粒物(PM2.5),80,84,90,59,67,42,,65,61,30,28,5,8,0.9,0.8
2025-10-30T0900,1906A,106.0789,30.8023,南充市,南充市委,,43,39,33,30,26,9,,12,10,18,19,4,5,0.5,0.5
2025-10-30T0900,1907A,106.1031,30.8217,南充市,南充炼油厂,,40,40,43,27,32,13,,15,14,14,14,5,6,0.5,0.5
2025-10-30T0900,4227A,106.1083,30.7884,南充市,梨树横街98号,,35,35,36,23,25,22,,11,11,14,17,4,5,0.5,0.4
2025-10-30T0900,4304A,106.1172,30.843,南充市,清泉寺北路188号,,30,21,32,21,24,20,,16,16,9,12,6,6,0.4,0.4
2025-10-30T0900,4305A,106.067,30.7616,南充市,同庆路1号,,39,39,33,27,24,15,,13,11,20,20,6,7,0.5,0.5
2025-10-30T0900,1151A,118.8086,32.1065,南京市,迈皋桥,,24,24,24,14,11,37,,50,48,25,15,4,4,0.6,0.5
2025-10-30T0900,1152A,118.7538,32.0551,南京市,草场门,,24,24,28,9,12,28,,52,48,40,26,9,9,0.5,0.3
2025-10-30T0900,1153A,118.7794,32.0745,南京市,山西路,,31,31,30,3,6,49,,62,60,23,9,4,4,0.6,0.5
2025-10-30T0900,1154A,118.7752,32.0023,南京市,中华门,,24,24,26,14,10,36,,64,60,33,20,4,4,0.4,0.4
2025-10-30T0900,1155A,118.8109,32.0309,南京市,瑞金路,,19,19,26,12,13,30,,56,51,36,14,4,4,0.6,0.4
2025-10-30T0900,1156A,118.7997,32.0754,南京市,玄武湖,,26,26,26,6,5,41,,56,53,11,10,4,4,0.6,0.9
2025-10-30T0900,1157A,118.6414,32.0931,南京市,浦口,,,24,30,9,11,,,55,53,27,23,7,7,0.5,0.5
2025-10-30T0900,1158A,118.7356,31.9996,南京市,奥体中心,,26,26,32,17,12,43,,63,60,36,23,5,6,0.5,0.4
2025-10-30T0900,1159A,118.9125,32.1028,南京市,仙林大学城,,24,24,33,14,9,44,,50,49,26,19,9,8,0.5,0.4
2025-10-30T0900,3422A,118.8436,31.9198,南京市,江宁彩虹桥,,32,32,33,12,13,26,,51,46,35,10,6,6,0.5,0.4
2025-10-30T0900,3427A,118.8554,32.3578,南京市,六合雄州,颗粒物(PM10),54,58,37,28,15,16,,36,32,37,26,6,7,0.6,0.5
2025-10-30T0900,4249A,118.8708,31.3402,南京市,汶溪路181号,,45,33,27,31,20,36,,63,57,32,20,8,7,0.7,0.5
2025-10-30T0900,4312A,119.019,31.6512,南京市,中山西路1号,,34,34,28,19,16,33,,48,45,25,17,4,4,0.6,0.5
2025-10-30T0900,1401A,108.3103,22.7881,南宁市,二十一中,,49,37,51,34,40,61,,64,62,12,12,3,5,0.7,0.7
2025-10-30T0900,1402A,108.3141,22.8528,南宁市,北湖,,,50,58,39,44,,,64,62,20,15,5,9,0.8,0.8
2025-10-30T0900,1403A,108.3206,22.8225,南宁市,市监测站,细颗粒物(PM2.5),52,,52,36,37,56,,62,60,17,16,6,8,0.8,0.8
2025-10-30T0900,1404A,108.3829,22.8037,南宁市,大自然花园,细颗粒物(PM2.5),54,50,58,38,43,59,,67,64,12,12,5,7,0.8,0.7
2025-10-30T0900,1406A,108.2397,22.8467,南宁市,区农职院,细颗粒物(PM2.5),68,50,56,49,45,37,,56,51,21,16,3,6,0.6,0.5
2025-10-30T0900,1407A,108.3275,22.735,南宁市,英华嘉园,细颗粒物(PM2.5),55,,50,39,45,53,,63,60,11,12,2,3,0.7,0.7
2025-10-30T0900,3401A,108.4834,22.7618,南宁市,红星社区,,47,47,50,32,39,56,,61,60,11,12,3,4,0.6,0.6
2025-10-30T0900,4221A,108.2177,22.7774,南宁市,乐贤路16号,细颗粒物(PM2.5),54,48,56,38,40,45,,51,47,24,23,1,2,0.6,0.5
2025-10-30T0900,2332A,118.1681,26.6369,南平市,南平市监测站,,33,30,18,23,11,32,,39,37,20,12,8,4,0.5,0.4
2025-10-30T0900,2333A,118.1825,26.6489,南平市,南平铝业有限公司,,23,23,22,16,12,28,,36,34,21,14,6,4,0.5,0.5
2025-10-30T0900,2334A,118.1756,26.6272,南平市,南平七中,,28,28,21,16,11,31,,44,40,20,8,7,5,0.5,0.4
2025-10-30T0900,1168A,120.9098,31.9663,南通市,狼山街道,,36,36,27,17,18,38,,32,32,35,21,5,9,0.6,0.5
2025-10-30T0900,1169A,120.86,32.0005,南通市,虹桥,,26,26,23,13,12,51,,56,54,27,15,6,4,0.7,0.5
2025-10-30T0900,1170A,120.87,32.02,南通市,城中,,50,50,33,18,15,42,,46,44,34,20,5,4,0.7,0.6
2025-10-30T0900,1171A,120.94,31.93,南通市,星湖花园,,45,45,30,19,17,39,,45,43,37,21,5,4,0.6,0.5
2025-10-30T0900,1172A,120.81,32.0417,南通市,紫琅学院,颗粒物(PM10),53,56,31,12,11,29,,42,38,48,22,4,4,0.7,0.6
2025-10-30T0900,3291A,121.067,32.062,南通市,通州监测站,,20,17,19,12,16,62,,70,70,26,14,2,2,0.5,0.4
2025-10-30T0900,3432A,120.9348,31.9883,南通市,环境教育馆,颗粒物(PM10),56,61,34,34,20,7,,25,25,54,31,5,4,0.5,0.4
2025-10-30T0900,2404A,112.5224,33.0122,南阳市,瓦房庄,细颗粒物(PM2.5),108,103,98,81,67,11,,26,23,33,31,8,9,1.0,0.9
2025-10-30T0900,2405A,112.5003,32.9735,南阳市,汉画馆,细颗粒物(PM2.5),94,102,87,70,60,11,,10,9,34,41,5,7,1.0,0.9
2025-10-30T0900,2406A,112.5573,33.027,南阳市,气象站,,,120,103,75,61,,,9,8,46,38,9,9,1.1,0.8
2025-10-30T0900,2407A,112.5481,32.9689,南阳市,理工学院,细颗粒物(PM2.5),108,112,101,81,60,20,,6,6,36,42,8,8,1.0,0.9
2025-10-30T0900,4008A,112.5234,32.9922,南阳市,卧龙区政府,细颗粒物(PM2.5),100,114,101,75,55,16,,26,24,34,35,8,8,1.0,0.9
2025-10-30T0900,1234A,121.8358,29.911,宁波市,区环保大楼,颗粒物(PM10),65,79,32,27,14,7,,9,8,57,41,8,6,0.7,0.4
2025-10-30T0900,1235A,121.56,29.82,宁波市,万里学院,细颗粒物(PM2.5),57,56,39,40,24,6,,7,7,56,42,9,8,0.6,0.5
2025-10-30T0900,1236A,121.713,29.9572,宁波市,龙赛医院,颗粒物(PM10),69,87,44,43,19,5,,2,2,58,43,5,6,0.7,0.5
2025-10-30T0900,1239A,121.633,29.7733,宁波市,钱湖水厂,,46,46,30,25,16,17,,24,21,36,22,7,7,0.6,0.5
2025-10-30T0900,1240A,121.5856,29.8635,宁波市,太古小学,,45,45,40,25,23,11,,6,6,57,42,5,4,0.7,0.6
2025-10-30T0900,1241A,121.524,29.8674,宁波市,市环境监测中心,颗粒物(PM10),51,52,37,23,18,16,,8,7,52,46,8,7,0.7,0.5
2025-10-30T0900,2871A,121.6147,29.9017,宁波市,万里国际学校,,40,40,37,24,22,23,,6,6,43,43,5,5,0.6,0.4
2025-10-30T0900,3710A,121.5594,29.8975,宁波市,白沙活动中心,,40,40,30,23,15,14,,7,7,48,35,5,5,0.6,0.5
2025-10-30T0900,2341A,119.5388,26.6612,宁德市,宁德市监测站,,31,31,26,13,13,39,,45,43,22,16,5,7,0.5,0.5
2025-10-30T0900,3209A,119.5231,26.6562,宁德市,宁德一中,,19,19,27,11,13,44,,53,51,14,10,5,6,0.5,0.4
2025-10-30T0900,2618A,98.8601,25.8567,怒江傈僳族自治州,州监测站,,35,31,34,24,25,10,,15,14,11,11,8,8,0.6,0.5
2025-10-30T0900,2619A,98.8546,25.8417,怒江傈僳族自治州,泸水一中,,28,26,27,19,21,3,,7,7,13,17,6,6,0.7,0.7
2025-10-30T0900,1888A,101.6891,26.571,攀枝花市,弄弄坪,,37,37,54,18,28,12,,20,19,23,28,13,18,0.8,1.3
2025-10-30T0900,1889A,101.5769,26.5928,攀枝花市,河门口,,45,45,42,27,25,10,,12,12,18,18,11,19,1.3,1.3
2025-10-30T0900,1890A,101.7169,26.585,攀枝花市,炳草岗,颗粒物(PM10),54,58,49,32,27,3,,17,14,33,30,11,15,1.0,1.1
2025-10-30T0900,1891A,101.7369,26.5008,攀枝花市,仁和,,36,36,33,22,21,3,,10,8,21,16,6,12,0.8,1
2025-10-30T0900,2835A,101.7227,26.567,攀枝花市,四十中小,,36,36,44,21,26,21,,37,34,22,19,37,27,0.9,1.1
2025-10-30T0900,1604A,122.0303,41.1489,盘锦市,开发区,,,,56,5,53,40,,40,40,13,19,3,4,0.9,1.2
2025-10-30T0900,1605A,122.0485,41.0883,盘锦市,兴隆台,,14,9,56,7,63,44,,38,38,17,19,7,6,0.2,0.5
2025-10-30T0900,1606A,121.8297,41.1028,盘锦市,新生街道,,13,6,53,3,66,40,,35,35,19,23,6,9,0.2,0.8
2025-10-30T0900,1832A,113.3257,33.742,平顶山市,新华旅馆,颗粒物(PM10),114,178,152,56,46,12,,4,4,34,42,8,14,1.0,0.7
2025-10-30T0900,1833A,113.2919,33.737,平顶山市,规划设计院,细颗粒物(PM2.5),156,167,141,119,83,13,,8,7,31,39,5,6,1.1,1
2025-10-30T0900,1834A,113.182,33.774,平顶山市,平顶山工学院,细颗粒物(PM2.5),107,111,121,80,74,29,,16,16,24,34,6,7,0.8,0.8
2025-10-30T0900,3204A,113.3025,33.73,平顶山市,规划局,细颗粒物(PM2.5),159,168,149,121,79,15,,9,9,28,36,9,10,1.2,0.9
2025-10-30T0900,3594A,112.8867,33.9116,平顶山市,石龙区,细颗粒物(PM2.5),113,109,122,85,80,12,,21,21,52,42,5,6,0.9,1
2025-10-30T0900,2656A,106.6692,35.5461,平凉市,聚贤嘉苑,颗粒物(PM10),58,66,51,28,29,25,,33,32,40,34,2,5,0.5,0.6
2025-10-30T0900,2657A,106.7021,35.5307,平凉市,博物馆,颗粒物(PM10),68,85,67,33,34,24,,32,31,32,27,11,11,0.7,0.8
2025-10-30T0900,2348A,113.8385,27.6434,萍乡市,中医院,细颗粒物(PM2.5),99,104,66,74,42,22,,60,53,48,26,25,13,1.8,0.9
2025-10-30T0900,2349A,113.8493,27.6253,萍乡市,市政府车库,细颗粒物(PM2.5),108,96,63,81,53,24,,56,50,43,25,25,14,1.3,0.9
2025-10-30T0900,2350A,113.8676,27.6435,萍乡市,市环保局,细颗粒物(PM2.5),87,93,66,64,45,25,,64,58,38,19,26,14,1.3,0.7
2025-10-30T0900,2351A,113.866,27.6198,萍乡市,安源区政府,细颗粒物(PM2.5),122,,66,92,59,,,50,47,37,25,33,17,1.1,0.8
2025-10-30T0900,2319A,119.0141,25.4325,莆田市,荔城区仓后路,,38,38,29,8,5,65,,82,79,10,6,5,5,0.6,0.5
2025-10-30T0900,2320A,119.0015,25.4553,莆田市,莆田市监测站,,23,19,32,3,3,72,,88,85,5,6,5,5,0.4,0.3
2025-10-30T0900,2321A,119.1119,25.4561,莆田市,涵江区六中,,29,29,27,12,5,67,,82,79,12,6,6,6,0.6,0.5
2025-10-30T0900,2322A,119.1013,25.3215,莆田市,秀屿区政府,,40,40,30,23,8,63,,76,73,19,7,6,4,0.7,0.5
2025-10-30T0900,2392A,115.0312,35.7636,濮阳市,环保局,细颗粒物(PM2.5),95,,73,71,60,29,,36,34,42,35,10,10,0.9,0.8
2025-10-30T0900,2394A,115.0574,35.7609,濮阳市,油田运输公司,细颗粒物(PM2.5),95,112,96,71,63,25,,34,31,40,33,11,11,1.0,0.8
2025-10-30T0900,3021A,115,35.7668,濮阳市,濮水河管理处,细颗粒物(PM2.5),80,99,89,59,54,29,,38,34,36,31,10,10,0.6,0.5
2025-10-30T0900,4216A,115.0924,35.7686,濮阳市,任丘路479号,细颗粒物(PM2.5),90,104,95,67,62,25,,32,30,39,33,9,10,1.0,1
2025-10-30T0900,2601A,100.98,22.7633,普洱市,市环保局,,33,33,34,23,19,30,,26,26,10,5,4,4,0.5,0.5
2025-10-30T0900,2602A,100.9817,22.8322,普洱市,普洱第二中学,,32,32,34,20,19,12,,12,12,14,10,5,5,0.4,0.3
2025-10-30T0900,3345A,131.0577,45.7879,七台河市,中波台,细颗粒物(PM2.5),69,63,92,50,67,37,,50,47,23,19,7,8,0.9,0.8
2025-10-30T0900,3637A,131.0176,45.7761,七台河市,人民广场,细颗粒物(PM2.5),84,93,91,62,67,45,,64,60,26,18,8,8,0.8,0.7
2025-10-30T0900,3684A,130.8781,45.8222,七台河市,新建矿广场,颗粒物(PM10),54,58,98,33,60,51,,50,48,10,20,8,7,0.4,0.6
2025-10-30T0900,1779A,123.9305,47.3636,齐齐哈尔市,安居小区,,43,43,130,3,95,42,,36,36,11,25,5,8,0.5,0.8
2025-10-30T0900,1781A,123.9483,47.3227,齐齐哈尔市,农牧车辆厂,,39,39,133,3,93,36,,33,33,16,25,5,7,0.6,0.8
2025-10-30T0900,1783A,123.945,47.2988,齐齐哈尔市,市环境监测站,,30,30,134,14,105,36,,27,27,14,27,7,9,0.5,0.8
2025-10-30T0900,2591A,107.9783,26.5747,黔东南苗族侗族自治州,市环境监测站,,25,20,42,17,35,26,,49,45,17,9,4,5,0.6,0.6
2025-10-30T0900,2881A,107.8908,26.5311,黔东南苗族侗族自治州,凯里学院,,32,29,33,22,33,30,,40,37,11,11,2,4,0.9,0.8
2025-10-30T0900,2593A,107.5228,26.2403,黔南布依族苗族自治州,小围寨,,10,7,25,7,20,16,,29,26,7,7,5,6,0.5,0.5
2025-10-30T0900,3538A,107.5175,26.2978,黔南布依族苗族自治州,沙坝,,32,22,37,22,30,15,,27,24,12,11,3,4,0.7,0.7
2025-10-30T0900,2589A,104.9022,25.0925,黔西南布依族苗族自治州,场坝街,,28,28,34,11,20,33,,51,48,13,7,4,3,0.5,0.5
2025-10-30T0900,2590A,104.8811,25.0992,黔西南布依族苗族自治州,坪东大道,,26,,28,18,19,37,,52,50,10,7,3,3,0.7,0.6
2025-10-30T0900,2502A,108.6236,21.9667,钦州市,市环保站,细颗粒物(PM2.5),62,56,69,44,46,43,,55,51,13,16,3,4,0.8,0.9
2025-10-30T0900,2503A,108.6549,21.9481,钦州市,沙埠小学,细颗粒物(PM2.5),67,73,67,48,45,39,,66,61,19,12,3,4,3.2,1.8
2025-10-30T0900,2504A,108.5989,21.7431,钦州市,港区一小,,,,72,,45,26,,45,41,36,32,,7,,0.9
2025-10-30T0900,3404A,108.5959,21.9633,钦州市,北职校,细颗粒物(PM2.5),80,,63,59,51,35,,54,49,12,11,4,5,0.7,0.8
2025-10-30T0900,1043A,119.7493,40.0116,秦皇岛市,第一关,细颗粒物(PM2.5),85,74,133,63,116,12,,16,16,57,55,6,7,0.7,0.9
2025-10-30T0900,1044A,119.5897,39.9499,秦皇岛市,监测站,细颗粒物(PM2.5),97,94,147,72,106,19,,6,6,56,57,6,8,0.8,1
2025-10-30T0900,1046A,119.5251,39.9041,秦皇岛市,建设大厦,细颗粒物(PM2.5),88,98,146,65,98,38,,15,15,33,46,5,6,0.7,1
2025-10-30T0900,3132A,119.610547,39.943889,秦皇岛市,文明里,细颗粒物(PM2.5),83,86,140,61,95,24,,9,9,46,53,9,10,0.4,0.7
2025-10-30T0900,4198A,119.5090,39.8253,秦皇岛市,北戴河轮滑馆,细颗粒物(PM2.5),82,82,134,60,109,47,,38,38,25,35,2,4,0.7,0.9
2025-10-30T0900,1310A,120.4134,36.0658,青岛市,市南区东部子站,,31,17,17,3,5,98,,104,103,2,2,6,6,0.2,0.2
2025-10-30T0900,1311A,120.3664,36.1032,青岛市,四方区子站,,29,19,15,12,7,90,,97,95,15,5,3,3,0.2,0.2
2025-10-30T0900,1312A,120.2994,36.054,青岛市,市南区西部子站,,31,14,16,3,4,99,,100,99,8,9,7,7,0.4,0.4
2025-10-30T0900,1313A,120.4581,36.0858,青岛市,崂山区子站,,34,24,21,3,4,106,,110,109,7,6,8,8,0.2,0.2
2025-10-30T0900,1315A,120.3999,36.3083,青岛市,城阳区子站,,39,39,23,10,7,42,,86,78,56,15,4,3,0.6,0.3
2025-10-30T0900,3362A,120.5014,36.4034,青岛市,即墨2号,,22,18,24,12,5,68,,84,82,31,14,5,3,0.3,0.2
2025-10-30T0900,3642A,120.3503,36.0736,青岛市,市北区南部,,30,16,18,3,2,94,,97,96,11,10,4,4,0.2,0.1
2025-10-30T0900,3643A,120.3948,36.1805,青岛市,李沧区北部,,31,31,19,12,10,61,,83,78,40,13,6,6,0.3,0.3
2025-10-30T0900,4290A,120.1969,35.9546,青岛市,珠江路669号,,35,9,11,7,6,110,,114,113,5,3,8,8,0.2,0.2
2025-10-30T0900,4291A,120.0424,35.8656,青岛市,黄岛区人民政府广场,,25,24,20,3,1,78,,89,84,24,8,5,5,0.5,0.5
2025-10-30T0900,1703A,113.0208,23.7106,清远市,凤城街办,细颗粒物(PM2.5),72,70,49,52,37,25,,42,38,43,25,8,9,1.0,0.8
2025-10-30T0900,3025A,113.0477,23.6344,清远市,技师学院,细颗粒物(PM2.5),68,64,56,49,38,37,,37,37,28,26,6,7,0.7,0.6
2025-10-30T0900,3318A,112.9903,23.7403,清远市,清新太和,细颗粒物(PM2.5),65,64,50,47,35,42,,41,40,31,23,9,8,0.8,0.7
2025-10-30T0900,3455A,113.076,23.7198,清远市,清城东城,,,58,50,42,34,,,50,49,21,19,6,9,1.0,0.9
2025-10-30T0900,2661A,107.6325,35.7357,庆阳市,庆阳五中,,33,33,53,18,33,17,,24,22,19,22,1,2,0.6,0.7
2025-10-30T0900,2662A,107.6364,35.7067,庆阳市,市环保局,,,31,38,16,33,,,,,18,23,4,7,0.7,0.7
2025-10-30T0900,1916A,103.7897,25.5035,曲靖市,环境监测站,,35,35,30,11,16,27,,23,23,9,10,9,4,0.8,0.3
2025-10-30T0900,1917A,103.8,25.5364,曲靖市,烟厂办公区,,22,22,27,14,16,33,,27,27,9,9,6,5,1.0,0.6
2025-10-30T0900,3376A,103.7947,25.462,曲靖市,南苑二区,,19,,23,13,15,31,,29,29,9,8,7,4,1.2,0.5
2025-10-30T0900,3377A,103.7444,25.5261,曲靖市,曲靖师范学院,,24,24,27,3,15,26,,19,18,11,9,2,3,0.4,0.2
2025-10-30T0900,1264A,118.8692,28.9398,衢州市,环保大楼,,41,41,49,21,25,43,,39,39,28,25,6,6,0.4,0.4
2025-10-30T0900,1265A,118.8709,28.9666,衢州市,实验学校,,33,33,41,19,22,51,,45,45,24,23,4,5,0.3,0.3
2025-10-30T0900,1266A,118.8621,28.9808,衢州市,衢州学院,,39,39,41,19,20,52,,46,46,20,19,6,6,0.3,0.3
2025-10-30T0900,1611A,118.5819,24.9117,泉州市,涂山街,,39,39,31,14,9,68,,82,79,12,6,4,3,0.3,0.2
2025-10-30T0900,1612A,118.5972,24.8978,泉州市,津头埔,,42,42,35,14,10,61,,,,19,11,3,3,0.4,0.3
2025-10-30T0900,1613A,118.6663,24.9424,泉州市,万安,,36,36,35,12,10,64,,78,75,15,5,3,3,0.5,0.4
2025-10-30T0900,3529A,118.6333,24.9264,泉州市,城华南路,,33,33,27,9,7,74,,83,81,7,7,3,3,0.3,0.3
2025-10-30T0900,2626A,88.8876,29.2718,日喀则市,日喀则监测站,,15,13,12,3,4,48,,65,61,17,9,14,13,0.6,0.5
2025-10-30T0900,3726A,88.8781,29.2426,日喀则市,林业技术推广中心,,22,22,13,6,3,48,,63,59,9,6,5,6,1.0,0.8
2025-10-30T0900,1659A,119.471,35.4209,日照市,监测站,,29,29,23,17,6,1,,51,39,55,28,8,7,1.2,0.5
2025-10-30T0900,1660A,119.523,35.4216,日照市,市政府广场,,24,22,25,10,3,25,,62,55,48,17,8,8,0.9,0.6
2025-10-30T0900,1661A,119.5587,35.4044,日照市,港务局,,40,36,28,28,12,4,,67,57,64,17,9,8,1.0,0.5
2025-10-30T0900,3507A,119.5328,35.4625,日照市,职业技术学院,,31,31,23,14,4,17,,68,58,58,16,6,5,1.0,0.6
2025-10-30T0900,3604A,119.3266,35.1044,日照市,岚山环保分局,,25,14,28,3,7,78,,68,68,24,21,8,9,0.6,0.7
2025-10-30T0900,1835A,111.1922,34.7752,三门峡市,市政府,细颗粒物(PM2.5),67,81,80,48,48,2,,0,0,31,25,8,6,0.9,0.7
2025-10-30T0900,1836A,111.1587,34.7942,三门峡市,开发区,细颗粒物(PM2.5),112,104,113,84,93,4,,2,2,30,33,4,5,0.6,0.7
2025-10-30T0900,3039A,111.1911,34.7829,三门峡市,三门峡市第一小学,颗粒物(PM10),70,90,88,49,54,3,,1,1,31,25,9,7,0.9,0.8
2025-10-30T0900,3598A,111.1,34.7167,三门峡市,富达温泉假日酒店,细颗粒物(PM2.5),95,108,92,71,72,3,,3,3,38,34,15,9,0.8,0.7
2025-10-30T0900,2324A,117.6211,26.2625,三明市,三钢,,25,25,24,13,15,50,,48,48,16,13,6,4,0.5,0.5
2025-10-30T0900,2325A,117.635,26.2714,三明市,三明二中,,32,32,25,17,14,50,,46,46,12,13,6,5,0.4,0.5
2025-10-30T0900,2326A,117.6028,26.2378,三明市,三元区政府,,24,24,23,14,15,30,,49,47,19,12,6,5,0.8,0.7
2025-10-30T0900,1876A,109.5078,18.2489,三亚市,河东子站,,,,15,,7,46,,55,54,,6,,3,0.4,0.4
2025-10-30T0900,1877A,109.4964,18.2681,三亚市,河西子站,,17,8,14,3,5,52,,63,61,6,4,6,6,0.4,0.4
2025-10-30T0900,3540A,109.7348,18.3443,三亚市,君悦子站,,15,15,22,3,9,45,,62,59,5,4,4,4,0.5,0.5
2025-10-30T0900,2624A,91.7608,29.2313,山南市,山南监测站,,25,6,14,3,7,79,,72,72,6,9,4,4,0.4,0.4
2025-10-30T0900,2625A,91.7706,29.2436,山南市,山南人民医院,,23,10,17,6,8,71,,69,69,8,8,4,4,0.3,0.3
2025-10-30T0900,1674A,116.6794,23.3667,汕头市,金平子站,颗粒物(PM10),54,58,36,25,15,39,,47,43,34,18,10,5,0.9,0.7
2025-10-30T0900,1675A,116.7244,23.3633,汕头市,龙湖子站,,30,30,33,14,13,39,,49,46,29,14,11,9,0.7,0.5
2025-10-30T0900,1676A,116.7258,23.2775,汕头市,濠江子站,,32,32,30,14,12,52,,60,57,15,7,7,6,0.7,0.5
2025-10-30T0900,1677A,116.7519,23.4714,汕头市,澄海子站,,37,37,37,19,16,44,,45,43,29,17,16,10,0.9,0.7
2025-10-30T0900,1678A,116.6092,23.2539,汕头市,潮阳子站,,37,37,30,12,11,43,,62,58,25,9,9,6,0.7,0.4
2025-10-30T0900,3444A,116.454,23.2684,汕头市,潮南峡山,颗粒物(PM10),51,51,31,23,13,36,,49,44,21,12,15,8,0.8,0.7
2025-10-30T0900,3624A,116.4069,23.2533,汕头市,潮南子站,颗粒物(PM10),55,60,39,21,13,41,,49,46,24,16,11,7,0.8,0.6
2025-10-30T0900,1693A,115.3653,22.775,汕尾市,市环保局,,38,38,31,20,15,62,,68,66,15,9,6,5,0.8,0.7
2025-10-30T0900,1694A,115.3706,22.7898,汕尾市,市政府,,42,42,30,20,14,57,,64,61,21,13,8,8,0.6,0.5
2025-10-30T0900,1695A,115.3622,22.7925,汕尾市,新城中学,,40,40,31,20,15,59,,66,63,21,15,8,8,0.9,0.8
2025-10-30T0900,2645A,109.9154,33.8715,商洛市,监测站,,36,36,63,17,43,15,,14,14,14,31,4,8,0.6,0.7
2025-10-30T0900,3045A,109.9643,33.8471,商洛市,商州区中学,,38,38,73,25,47,8,,7,6,16,32,4,9,0.5,0.6
2025-10-30T0900,2408A,115.6702,34.4285,商丘市,环境监测站,细颗粒物(PM2.5),77,73,64,56,46,20,,11,11,39,38,2,2,0.6,0.6
2025-10-30T0900,2409A,115.6458,34.4045,商丘市,粮食局,细颗粒物(PM2.5),57,60,57,40,33,22,,24,23,36,29,3,3,0.7,0.6
2025-10-30T0900,2410A,115.6293,34.3948,商丘市,睢阳区环保局,细颗粒物(PM2.5),72,74,61,52,42,25,,23,22,37,31,2,2,0.6,0.5
2025-10-30T0900,3171A,115.6071,34.4465,商丘市,梁园区档案局,细颗粒物(PM2.5),74,68,54,54,44,26,,13,13,34,31,2,2,0.5,0.5
2025-10-30T0900,1141A,121.4,31.238,上海市,普陀,,35,35,23,9,8,35,,35,33,55,32,6,5,0.6,0.5
2025-10-30T0900,1142A,121.478,31.2036,上海市,十五厂,,36,36,25,9,9,31,,28,26,53,35,8,7,0.6,0.5
2025-10-30T0900,1143A,121.467,31.3008,上海市,虹口,,40,40,24,14,12,7,,15,12,74,37,10,8,0.7,0.5
2025-10-30T0900,1147A,121.425,31.2261,上海市,静安监测站,,,33,21,12,8,,,50,49,43,26,5,5,0.3,0.2
2025-10-30T0900,1148A,121.703,31.1907,上海市,浦东川沙,,,50,30,15,9,,,10,10,41,40,9,9,0.4,0.3
2025-10-30T0900,1149A,121.533,31.2284,上海市,浦东新区监测站,,35,35,21,12,11,25,,30,29,58,34,7,6,0.6,0.6
2025-10-30T0900,1150A,121.577,31.2071,上海市,浦东张江,,35,35,23,10,8,36,,29,29,50,37,6,6,0.5,0.5
2025-10-30T0900,3265A,121.4316,31.3322,上海市,宝山庙行,,38,38,24,13,8,9,,20,15,76,38,11,8,0.5,0.4
2025-10-30T0900,3266A,121.8791,31.4662,上海市,崇明上实东滩,,18,18,11,10,6,30,,42,42,23,8,4,4,0.5,0.3
2025-10-30T0900,3268A,121.3162,31.2838,上海市,嘉定南翔,,45,45,22,14,8,8,,19,16,74,38,6,6,0.5,0.3
2025-10-30T0900,3269A,121.3359,30.7456,上海市,金山新城,颗粒物(PM10),53,55,18,16,7,24,,60,53,54,14,5,5,0.5,0.4
2025-10-30T0900,3270A,121.4996,31.0739,上海市,闵行浦江,,34,34,26,12,10,15,,27,23,62,28,6,5,0.5,0.4
2025-10-30T0900,3271A,121.2886,31.1663,上海市,青浦徐泾,,41,41,25,7,4,15,,30,27,65,33,8,8,0.6,0.5
2025-10-30T0900,3272A,121.2186,31.0378,上海市,松江图书馆,,37,30,19,10,7,17,,40,36,73,34,6,5,0.5,0.3
2025-10-30T0900,3273A,121.3902,31.2059,上海市,长宁仙霞,,35,35,21,9,7,31,,41,39,54,29,7,6,0.7,0.6
2025-10-30T0900,3274A,121.7965,31.0507,上海市,浦东惠南,,36,36,30,23,11,32,,32,32,48,37,8,9,0.5,0.4
2025-10-30T0900,3544A,121.4891,30.925,上海市,奉贤南桥新城,,33,32,28,23,16,21,,42,38,60,26,5,4,0.5,0.4
2025-10-30T0900,4183A,121.4174,31.16637,上海市,冠生园路458号,,30,28,20,9,9,26,,30,28,60,32,6,6,0.7,0.6
2025-10-30T0900,4205A,121.5419,31.2683,上海市,宁武路151号,,50,50,35,31,15,4,,2,2,81,52,6,6,0.4,0.2
2025-10-30T0900,2382A,117.9756,28.4436,上饶市,市监测站,,43,43,43,24,21,43,,46,45,24,16,7,6,0.4,0.4
2025-10-30T0900,2383A,117.9519,28.4628,上饶市,凤凰光学,,47,47,45,23,23,28,,39,36,34,20,15,11,0.5,0.5
2025-10-30T0900,3685A,117.897,28.4315,上饶市,双创科技城,,40,38,42,28,25,34,,45,43,38,25,10,10,0.4,0.4
2025-10-30T0900,4211A,118.1904,28.4448,上饶市,裕丰大道,,,55,53,30,26,,,37,36,,21,,5,,0.8
2025-10-30T0900,1669A,113.5824,24.7733,韶关市,市八中,细颗粒物(PM2.5),79,70,69,58,52,23,,26,25,26,23,7,7,0.8,0.8
2025-10-30T0900,1671A,113.5917,24.7972,韶关市,园林处,细颗粒物(PM2.5),85,,55,63,57,22,,18,18,24,26,13,9,0.8,0.9
2025-10-30T0900,1673A,113.5971,24.6863,韶关市,曲江监测站,,,74,62,59,48,,,27,27,32,21,14,12,0.9,0.8
2025-10-30T0900,2809A,113.6668,24.7756,韶关市,大学路288号,细颗粒物(PM2.5),95,77,58,71,48,16,,19,17,24,15,36,12,0.8,0.7
2025-10-30T0900,3622A,113.5556,24.8082,韶关市,碧湖山庄,细颗粒物(PM2.5),62,58,67,44,49,28,,26,26,16,18,7,9,0.7,0.7
2025-10-30T0900,2464A,111.5283,27.2442,邵阳市,市化工厂,细颗粒物(PM2.5),75,68,73,55,56,65,,62,62,25,23,12,12,1.0,0.8
2025-10-30T0900,2466A,111.4328,27.2272,邵阳市,市环保局,细颗粒物(PM2.5),90,68,76,67,59,66,,72,72,19,20,9,8,1.5,1.2
2025-10-30T0900,4218A,111.4460,27.2472,邵阳市,北塔二期4-26地块,颗粒物(PM10),65,80,69,44,50,56,,68,64,27,22,8,7,1.3,1
2025-10-30T0900,4219A,111.4739,27.2282,邵阳市,邵水西路287号,细颗粒物(PM2.5),89,80,72,66,53,60,,65,64,20,18,13,12,1.0,0.8
2025-10-30T0900,1247A,120.6053,29.9928,绍兴市,城东开发委,,37,37,39,24,23,21,,44,40,36,22,7,7,0.4,0.3
2025-10-30T0900,2921A,120.5483,30.0003,绍兴市,树下王站,细颗粒物(PM2.5),52,52,43,36,26,10,,41,35,43,23,6,6,0.8,0.7
2025-10-30T0900,3408A,120.5683,29.9361,绍兴市,绍兴中专,,39,38,36,27,28,13,,44,37,38,20,9,9,0.6,0.5
2025-10-30T0900,3409A,120.4906,30.0861,绍兴市,柯桥区政府,,35,34,30,24,18,23,,48,43,39,26,4,5,0.7,0.4
2025-10-30T0900,3410A,120.8752,30.0249,绍兴市,重华小学,,43,39,30,30,20,29,,43,38,29,18,8,8,0.7,0.6
2025-10-30T0900,3411A,120.8369,30.0137,绍兴市,上虞中学,细颗粒物(PM2.5),53,46,32,37,24,22,,35,30,35,25,6,7,0.6,0.5
2025-10-30T0900,3560A,120.4722,30.0415,绍兴市,柯桥妇保,,29,29,38,20,23,21,,19,19,31,28,5,5,0.6,0.5
2025-10-30T0900,3658A,120.6153,30.0764,绍兴市,袍江中学,,50,50,41,31,23,31,,51,48,39,25,3,4,0.5,0.4
2025-10-30T0900,1356A,114.1063,22.5545,深圳市,通心岭子站,,43,43,29,26,19,58,,60,57,20,17,9,7,0.7,0.7
2025-10-30T0900,1357A,114.117,22.5625,深圳市,洪湖,,46,46,32,28,20,54,,53,51,25,25,10,8,0.3,0.3
2025-10-30T0900,1358A,113.987,22.5417,深圳市,华侨城,,49,49,32,30,19,50,,61,58,22,16,9,8,0.8,0.7
