timepoint,stationcode,longitude,latitude,area,positionname,primarypollutant,aqi,pm10,pm10_24h,pm2_5,pm2_5_24h,o3,o3_24h,o3_8h,o3_8h_24h,no2,no2_24h,so2,so2_24h,co,co_24h
2025-10-30T2200,2566A,102.1879,31.914,阿坝藏族羌族自治州,州农科所,,,,,,,,,,,,,,,,
2025-10-30T2200,2568A,102.2502,31.8896,阿坝藏族羌族自治州,马师校,,23,17,14,16,11,14,,57,35,24,14,8,8,0.6,0.6
2025-10-30T2200,3994A,102.2165,31.9024,阿坝藏族羌族自治州,马尔康中学西区,,22,18,15,15,11,20,,67,51,25,11,5,5,0.5,0.5
2025-10-30T2200,2695A,80.292,41.1694,阿克苏地区,电视台,颗粒物(PM10),107,163,133,43,40,27,,80,74,62,35,8,7,1.3,1
2025-10-30T2200,2696A,80.2613,41.1551,阿克苏地区,艺术中心,颗粒物(PM10),99,148,129,53,49,26,,69,64,56,38,3,4,0.7,0.6
2025-10-30T2200,2204A,105.6467,38.8363,阿拉善盟,西城区西花园,,,,,,,,,,,,,,,,
2025-10-30T2200,2205A,105.6985,38.8411,阿拉善盟,蒙二幼,,40,40,46,17,16,82,,100,96,12,11,8,8,0.6,0.6
2025-10-30T2200,2206A,105.724,38.8516,阿拉善盟,环保局新楼,,30,30,39,12,14,93,,92,91,5,7,8,8,0.5,0.5
2025-10-30T2200,2708A,88.1264,47.8517,阿勒泰地区,市站,颗粒物(PM10),77,104,57,29,20,6,,20,16,41,32,4,5,0.5,0.6
2025-10-30T2200,2630A,80.1161,32.5,阿里地区,阿里监测站,,20,6,3,3,3,56,,95,91,40,19,19,14,0.8,0.4
2025-10-30T2200,3192A,80.0903,32.5028,阿里地区,阿里藏医院,,25,16,18,3,7,77,,98,96,17,13,11,10,0.6,0.5
2025-10-30T2200,2642A,109.0318,32.6537,安康市,香溪洞,,,,,,,,,,,,,,,,
2025-10-30T2200,2644A,109.0072,32.6975,安康市,汉滨区检察院,,19,19,32,8,22,5,,45,32,14,17,2,2,0.5,0.6
2025-10-30T2200,4054A,109.0325,32.6913,安康市,市邮政管理局,,21,21,30,13,23,4,,38,26,22,20,6,6,0.6,0.7
2025-10-30T2200,2291A,117.0809,30.5177,安庆市,环科院,,14,14,59,8,49,37,,55,48,19,15,3,4,0.5,0.6
2025-10-30T2200,2292A,117.0331,30.5119,安庆市,马山宾馆,,29,16,57,15,53,2,,55,33,58,25,3,4,0.6,0.6
2025-10-30T2200,2294A,116.9896,30.6145,安庆市,安庆大学,,18,12,66,6,53,57,,60,60,9,15,5,6,0.3,0.5
2025-10-30T2200,3173A,117.0598,30.5351,安庆市,市人大,,20,20,59,12,50,36,,53,41,23,23,6,8,0.5,0.6
2025-10-30T2200,3122A,105.9606,26.2611,安顺市,伍家关,,44,44,29,17,12,25,,59,49,23,10,12,8,0.4,0.4
2025-10-30T2200,3123A,105.9408,26.2431,安顺市,凤凰山,细颗粒物(PM2.5),55,,17,39,11,37,,53,49,16,11,16,12,0.5,0.5
2025-10-30T2200,3124A,105.9439,26.2564,安顺市,金钟山,,40,,17,28,11,29,,55,49,16,9,14,10,0.9,0.9
2025-10-30T2200,3125A,105.8983,26.2481,安顺市,娄家坡,细颗粒物(PM2.5),59,,15,42,12,27,,52,45,21,12,33,13,0.7,0.7
2025-10-30T2200,1818A,114.4839,36.0621,安阳市,棉研所,,,,,,,,,,,,,,,,
2025-10-30T2200,1819A,114.3551,36.1017,安阳市,红庙街,细颗粒物(PM2.5),230,196,152,180,140,20,,36,27,34,33,2,3,1.2,1.1
2025-10-30T2200,1820A,114.361,36.0681,安阳市,银杏小区,细颗粒物(PM2.5),230,218,152,180,142,22,,42,33,36,33,3,3,1.2,1.1
2025-10-30T2200,3141A,114.3922,36.0878,安阳市,信访局,细颗粒物(PM2.5),210,222,167,160,116,28,,43,35,29,33,3,2,1.0,0.9
2025-10-30T2200,3669A,114.4705,36.0637,安阳市,左辅环卫站,细颗粒物(PM2.5),216,248,220,166,130,12,,46,35,49,39,2,2,1.0,0.8
2025-10-30T2200,3703A,114.2917,36.0949,安阳市,安钢职工学校,细颗粒物(PM2.5),227,207,164,177,142,22,,39,34,32,32,6,6,1.4,1.2
2025-10-30T2200,1748A,123.044,41.1196,鞍山市,深沟寺,,44,44,59,24,37,20,,61,32,50,28,22,13,0.7,0.8
2025-10-30T2200,1749A,123.011,41.0931,鞍山市,太阳城,,42,42,53,23,31,16,,64,36,45,24,25,18,0.5,0.6
2025-10-30T2200,1750A,123.0485,41.1442,鞍山市,太平,颗粒物(PM10),72,93,72,46,37,22,,58,30,46,30,46,21,0.8,0.9
2025-10-30T2200,1751A,122.9642,41.0971,鞍山市,铁西三道街,,42,42,58,24,33,30,,54,34,42,31,30,20,0.6,1
2025-10-30T2200,1753A,123.022,41.0821,鞍山市,明达新区,,37,37,52,18,31,18,,60,35,39,19,27,19,0.4,0.6
2025-10-30T2200,1754A,123.1289,41.0228,鞍山市,千山,,,,42,,33,,,59,,,18,,7,,0.4
2025-10-30T2200,4201A,122.9446,41.0826,鞍山市,兴盛南路290号,,45,45,61,23,32,34,,56,35,45,35,39,25,0.8,1.2
2025-10-30T2200,2195A,107.4212,40.761,巴彦淖尔市,附二中,细颗粒物(PM2.5),87,112,65,64,33,5,,78,58,73,25,10,10,1.0,0.5
2025-10-30T2200,2196A,107.37,40.7372,巴彦淖尔市,市环保大楼,颗粒物(PM10),104,157,65,71,28,10,,83,63,76,30,9,10,0.8,0.5
2025-10-30T2200,1956A,86.1472,41.7538,巴音郭楞蒙古自治州,孔雀公园,颗粒物(PM10),67,84,95,23,30,74,,95,87,32,20,9,10,0.7,0.7
2025-10-30T2200,1957A,86.1972,41.7166,巴音郭楞蒙古自治州,棉纺厂,颗粒物(PM10),107,164,105,27,26,24,,104,75,79,27,10,8,0.6,0.6
2025-10-30T2200,1958A,86.2357,41.7173,巴音郭楞蒙古自治州,经济开发区,颗粒物(PM10),68,86,83,20,22,62,,101,80,28,13,8,7,0.5,0.5
2025-10-30T2200,2914A,106.7677,31.8794,巴中市,苏山坪,,,,,,,,,,,,,,,,
2025-10-30T2200,3181A,106.7768,31.8526,巴中市,市五中,,30,30,26,21,19,22,,39,33,14,12,8,8,0.6,0.6
2025-10-30T2200,3183A,106.7418,31.8654,巴中市,圣泉水务公司,,33,30,24,23,18,23,,40,33,16,13,7,8,0.8,0.7
2025-10-30T2200,3616A,106.7616,31.8344,巴中市,市中心医院,,33,33,24,18,21,7,,42,33,20,14,10,10,0.7,0.7
2025-10-30T2200,2235A,122.7911,45.6077,白城市,洮北区环保局,,46,46,26,29,16,26,,52,39,23,11,7,5,0.4,0.3
2025-10-30T2200,2236A,122.8738,45.5725,白城市,市环保局,,44,44,26,22,15,6,,55,28,39,15,5,5,0.3,0.2
2025-10-30T2200,2231A,126.4219,41.9171,白山市,喜丰,颗粒物(PM10),60,70,44,13,18,14,,78,44,39,17,13,7,0.7,0.7
2025-10-30T2200,2232A,126.4077,41.9419,白山市,环保局,,30,30,32,14,26,29,,79,42,15,17,5,7,0.5,0.8
2025-10-30T2200,2647A,104.1724,36.5446,白银市,第三小学,颗粒物(PM10),52,53,81,17,29,80,,93,90,7,27,6,18,0.1,0.5
2025-10-30T2200,2648A,104.1465,36.5482,白银市,动力公司,,48,48,78,17,26,85,,101,97,10,28,6,12,0.3,0.5
2025-10-30T2200,2512A,106.6103,23.9011,百色市,市监测站,细颗粒物(PM2.5),68,60,59,49,46,23,,87,55,21,17,10,13,0.9,0.9
2025-10-30T2200,2513A,106.6538,23.8859,百色市,市中心血站,细颗粒物(PM2.5),69,68,67,50,47,10,,87,53,45,25,15,13,0.9,0.9
2025-10-30T2200,3406A,106.6085,23.8798,百色市,祈福高中,细颗粒物(PM2.5),77,81,73,56,48,20,,82,55,32,25,10,10,0.4,0.4
2025-10-30T2200,2270A,117.396,32.939,蚌埠市,工人疗养院,细颗粒物(PM2.5),59,65,62,42,34,40,,47,45,33,37,4,5,0.6,0.6
2025-10-30T2200,2271A,117.3605,32.9427,蚌埠市,百货大楼,细颗粒物(PM2.5),55,54,53,39,38,24,,46,42,46,42,6,8,0.5,0.5
2025-10-30T2200,2273A,117.4185,32.8911,蚌埠市,蚌埠学院,细颗粒物(PM2.5),58,48,48,41,35,11,,51,42,53,36,4,6,0.6,0.5
2025-10-30T2200,2274A,117.3533,32.9673,蚌埠市,淮上区政府,,,66,58,46,38,,,55,55,62,38,6,7,0.5,0.4
2025-10-30T2200,2275A,117.3145,32.8977,蚌埠市,高新区,颗粒物(PM10),59,68,50,41,34,0,,47,33,64,42,14,8,0.7,0.5
2025-10-30T2200,3715A,117.3092,32.9314,蚌埠市,蚌埠田家炳中学,颗粒物(PM10),65,79,59,41,33,2,,50,37,67,40,5,5,0.5,0.4
2025-10-30T2200,1585A,109.8756,40.6532,包头市,市环境监测站,颗粒物(PM10),54,58,38,12,13,51,,70,60,37,26,7,14,0.4,0.5
2025-10-30T2200,1587A,109.9991,40.5842,包头市,包头八中,颗粒物(PM10),69,87,56,34,26,8,,72,47,80,43,7,11,0.7,0.9
2025-10-30T2200,1588A,109.8538,40.6821,包头市,青山宾馆,,39,39,32,18,13,60,,74,70,35,26,9,17,0.5,0.7
2025-10-30T2200,1589A,109.8642,40.6288,包头市,惠龙物流,,50,50,30,25,13,57,,78,72,33,23,8,13,0.7,0.7
2025-10-30T2200,1590A,110.0377,40.5546,包头市,东河鸿龙湾,颗粒物(PM10),55,59,42,17,16,24,,79,62,74,46,10,14,0.6,0.8
2025-10-30T2200,3283A,109.9154,40.5685,包头市,滨河大厦,,46,46,29,18,11,30,,81,69,52,28,11,11,0.5,0.4
2025-10-30T2200,3419A,109.9447,40.6261,包头市,包头市委党校,,44,44,32,16,12,41,,80,69,53,31,7,11,0.5,0.6
2025-10-30T2200,3683A,109.8331,40.6576,包头市,昆区政府,,48,48,29,19,14,69,,76,74,23,20,9,16,0.5,0.8
2025-10-30T2200,1930A,107.185,34.3063,宝鸡市,庙沟村,,,,,,,,,,,,,,,,
2025-10-30T2200,1931A,107.0708,34.3017,宝鸡市,竹园沟,,48,48,39,26,24,31,,83,71,27,18,8,8,0.3,0.4
2025-10-30T2200,1932A,107.1906,34.3672,宝鸡市,三陆医院,细颗粒物(PM2.5),69,82,72,50,55,3,,72,55,73,37,7,7,0.8,0.7
2025-10-30T2200,1933A,107.1431,34.3547,宝鸡市,监测站,颗粒物(PM10),56,61,54,37,32,14,,70,57,41,22,5,6,0.5,0.5
2025-10-30T2200,1934A,107.1186,34.3739,宝鸡市,技工学校,细颗粒物(PM2.5),73,68,58,53,46,24,,78,66,38,22,6,6,0.7,0.6
2025-10-30T2200,1936A,107.2058,34.3497,宝鸡市,文理学院,颗粒物(PM10),60,69,57,30,31,27,,79,63,45,28,5,6,0.6,0.5
2025-10-30T2200,1937A,107.2386,34.3622,宝鸡市,三迪小学,颗粒物(PM10),66,81,69,47,52,14,,69,55,66,37,5,6,0.7,0.7
2025-10-30T2200,4308A,107.3898,34.3601,宝鸡市,陈仓区北开路21号,颗粒物(PM10),106,161,93,59,55,2,,68,44,64,35,6,7,0.7,0.7
2025-10-30T2200,1051A,115.493,38.8632,保定市,游泳馆,,,,169,,164,,,31,,,33,,5,,0.7
2025-10-30T2200,1052A,115.5213,38.8959,保定市,华电二区,细颗粒物(PM2.5),220,,158,170,171,4,,53,30,43,37,3,2,1.2,0.9
2025-10-30T2200,1053A,115.4713,38.9108,保定市,接待中心,细颗粒物(PM2.5),214,167,171,164,161,14,,53,35,34,33,4,4,0.7,0.7
2025-10-30T2200,1054A,115.4612,38.8416,保定市,地表水厂,细颗粒物(PM2.5),201,173,182,151,157,18,,54,39,39,35,8,8,1.0,0.8
2025-10-30T2200,3581A,115.31981,38.95208,保定市,满城区生态环境分局,细颗粒物(PM2.5),199,175,171,149,146,4,,56,38,56,35,3,3,0.8,0.5
2025-10-30T2200,3582A,115.47694,38.76408,保定市,清苑区第二中学,细颗粒物(PM2.5),172,158,185,130,145,19,,47,32,36,33,2,2,1.0,0.9
2025-10-30T2200,3583A,115.62909,39.02311,保定市,徐水物探局,细颗粒物(PM2.5),183,179,202,138,159,13,,42,28,37,37,10,10,1.2,1
2025-10-30T2200,4004A,115.4202,38.8656,保定市,双鹰农机,细颗粒物(PM2.5),210,168,187,160,160,16,,62,46,44,35,1,3,1.1,0.9
2025-10-30T2200,4034A,115.5150,38.8590,保定市,植保所站,细颗粒物(PM2.5),220,175,183,170,170,19,,46,34,40,39,4,3,1.1,1
2025-10-30T2200,2594A,99.1678,25.1081,保山市,市环境监测站,,29,22,19,20,16,46,,63,55,10,8,6,7,0.5,0.5
2025-10-30T2200,2595A,99.1711,25.1328,保山市,市环保局,,22,22,22,15,14,55,,68,60,3,5,6,6,0.5,0.5
2025-10-30T2200,1866A,109.2262,21.588,北海市,牛尾岭水库,,22,16,46,15,41,39,,69,53,10,10,2,3,0.6,0.7
2025-10-30T2200,1867A,109.1436,21.4086,北海市,海滩公园,,,28,60,20,42,,,86,75,12,13,6,10,0.9,0.9
2025-10-30T2200,1868A,109.0981,21.4661,北海市,新市环保局,,25,21,56,17,45,54,,83,70,11,14,4,5,0.7,0.7
2025-10-30T2200,1869A,109.1778,21.5233,北海市,北海工业园,,32,27,63,22,47,43,,80,62,12,15,4,7,0.7,0.8
2025-10-30T2200,3400A,109.1911,21.4415,北海市,龙潭自来水厂,,30,25,61,21,51,46,,87,66,8,11,1,5,0.7,0.7
2025-10-30T2200,1001A,116.3621,39.8784,北京市,万寿西宫,细颗粒物(PM2.5),52,40,155,36,125,26,,38,29,19,40,2,2,0.8,1.2
2025-10-30T2200,1002A,116.2202,40.2915,北京市,定陵,,,,,,,,,,,,,,,,
2025-10-30T2200,1003A,116.4174,39.9289,北京市,东四,细颗粒物(PM2.5),52,50,144,36,124,25,,41,30,22,36,2,3,0.9,1.1
2025-10-30T2200,1004A,116.4072,39.8863,北京市,天坛,,49,39,134,34,111,27,,36,29,23,32,1,1,0.7,1
2025-10-30T2200,1005A,116.462,39.9365,北京市,农展馆,,39,35,139,27,111,35,,39,34,21,36,3,4,0.8,1.1
2025-10-30T2200,1006A,116.3392,39.9295,北京市,官园,细颗粒物(PM2.5),52,47,149,36,120,22,,43,31,22,37,3,2,0.8,1
2025-10-30T2200,1007A,116.2878,39.9611,北京市,海淀万柳,细颗粒物(PM2.5),63,55,145,45,110,19,,43,33,28,40,3,4,0.7,1
2025-10-30T2200,1008A,116.6636,40.135,北京市,顺义新城,细颗粒物(PM2.5),57,50,135,40,94,48,,47,42,13,27,3,3,0.6,0.9
2025-10-30T2200,1009A,116.6275,40.3275,北京市,怀柔镇,细颗粒物(PM2.5),59,48,122,42,103,43,,47,38,17,26,3,4,0.7,0.9
2025-10-30T2200,1010A,116.2296,40.217,北京市,昌平镇,细颗粒物(PM2.5),70,62,131,51,99,28,,50,40,24,30,4,4,0.7,0.9
2025-10-30T2200,1011A,116.3966,39.9821,北京市,奥体中心,,49,46,138,34,106,22,,38,30,30,43,4,4,0.7,1
2025-10-30T2200,3281A,115.9718,40.4529,北京市,延庆夏都,细颗粒物(PM2.5),127,133,123,96,82,23,,58,50,39,29,2,2,1.1,0.9
2025-10-30T2200,3418A,116.8336,40.4095,北京市,密云新城,细颗粒物(PM2.5),78,72,112,57,78,33,,58,39,14,16,2,2,0.8,0.8
2025-10-30T2200,3671A,116.088,39.9726,北京市,门头沟三家店,细颗粒物(PM2.5),155,158,154,118,115,3,,38,18,46,35,1,1,1.1,0.9
2025-10-30T2200,3672A,116.1541,39.8204,北京市,丰台云岗,细颗粒物(PM2.5),57,61,171,40,132,7,,27,21,28,39,3,3,0.8,1
2025-10-30T2200,3673A,116.6804,39.9081,北京市,通州东关,,29,27,160,20,121,31,,32,30,23,38,3,4,0.5,1
2025-10-30T2200,3674A,115.9577,39.7603,北京市,房山燕山,细颗粒物(PM2.5),185,154,155,139,136,13,,19,12,27,34,3,3,1.0,0.9
2025-10-30T2200,3675A,116.4672,39.7733,北京市,大兴旧宫,,29,26,158,20,111,30,,21,20,15,37,2,2,0.7,1.2
2025-10-30T2200,3694A,115.986,40.4563,北京市,延庆石河营,细颗粒物(PM2.5),103,115,119,77,72,31,,56,51,21,22,2,2,1.1,0.7
2025-10-30T2200,3695A,116.6151,40.3053,北京市,怀柔新城,细颗粒物(PM2.5),60,50,128,43,113,47,,49,42,15,22,3,3,0.6,0.9
2025-10-30T2200,3696A,116.2545,39.8768,北京市,丰台小屯,颗粒物(PM10),51,52,147,34,93,14,,45,28,22,30,3,3,0.8,1.1
2025-10-30T2200,3697A,116.84,40.3844,北京市,密云镇,细颗粒物(PM2.5),78,66,112,57,84,37,,58,39,16,22,4,6,0.7,0.8
2025-10-30T2200,4182A,116.1942,39.9158,北京市,八角北路9号,颗粒物(PM10),63,75,174,43,122,10,,43,34,31,39,3,2,0.7,0.9
2025-10-30T2200,4194A,117.0790,40.1518,北京市,洳河巡河路,细颗粒物(PM2.5),80,80,158,59,113,15,,38,30,27,20,3,3,0.8,1
2025-10-30T2200,1761A,123.8275,41.3064,本溪市,大峪,,24,24,39,12,23,18,,71,54,39,17,8,10,0.6,0.6
2025-10-30T2200,1762A,123.7567,41.3325,本溪市,溪湖,颗粒物(PM10),63,76,60,27,33,12,,71,47,54,24,13,12,0.9,0.8
2025-10-30T2200,1763A,123.7169,41.3094,本溪市,彩屯,颗粒物(PM10),51,52,60,30,37,6,,55,28,47,29,11,14,1.0,1
2025-10-30T2200,1764A,123.7669,41.2864,本溪市,东明,,43,43,43,16,24,16,,72,46,48,25,10,11,0.8,0.9
2025-10-30T2200,1765A,123.7992,41.2664,本溪市,新立屯,,25,24,36,11,24,9,,71,29,50,25,7,9,0.2,0.4
2025-10-30T2200,1766A,123.8142,41.3472,本溪市,威宁,颗粒物(PM10),59,67,53,18,28,4,,68,32,47,24,6,6,0.6,0.6
2025-10-30T2200,2587A,105.2864,27.3125,毕节市,八中,,42,40,17,29,13,12,,50,33,15,9,7,7,0.8,0.7
2025-10-30T2200,2588A,105.31,27.2944,毕节市,师专,细颗粒物(PM2.5),55,58,20,39,14,1,,46,30,35,13,9,8,1.2,0.7
2025-10-30T2200,4263A,105.3688,27.3598,毕节市,工业大道,,33,33,12,18,6,21,,61,44,14,8,10,9,0.7,0.6
2025-10-30T2200,1629A,118.0018,37.3617,滨州市,第二水厂,细颗粒物(PM2.5),62,56,83,44,47,64,,50,44,23,49,10,12,0.5,0.6
2025-10-30T2200,1630A,117.9776,37.393,滨州市,北中新校,颗粒物(PM10),63,75,76,44,42,29,,53,46,43,49,8,8,0.5,0.6
2025-10-30T2200,3514A,117.9378,37.3956,滨州市,中海酒店,细颗粒物(PM2.5),67,66,72,48,44,26,,64,53,73,68,4,6,0.7,0.8
2025-10-30T2200,3515A,117.9378,37.3553,滨州市,开发区一中,,46,46,88,27,47,82,,62,60,21,49,8,13,0.5,0.7
2025-10-30T2200,3516A,118.0917,37.694,滨州市,金海六路,细颗粒物(PM2.5),73,83,83,53,48,36,,75,67,36,41,4,7,0.3,0.7
2025-10-30T2200,4028A,117.9956,37.3753,滨州市,滨州市西街道办事处,细颗粒物(PM2.5),67,56,80,48,50,58,,64,56,27,43,13,12,0.5,0.7
2025-10-30T2200,2311A,115.8072,33.8399,亳州市,污水处理厂,细颗粒物(PM2.5),90,88,81,67,55,37,,100,87,34,29,12,11,0.7,0.6
2025-10-30T2200,2312A,115.7789,33.8518,亳州市,三国揽胜宫,细颗粒物(PM2.5),90,70,74,67,58,55,,104,95,23,24,6,9,0.7,0.6
2025-10-30T2200,3332A,115.7633,33.8034,亳州市,亳州学院,细颗粒物(PM2.5),103,97,83,77,56,62,,107,99,22,24,7,8,0.6,0.5
2025-10-30T2200,2693A,82.0485,44.8556,博尔塔拉蒙古自治州,市党校,细颗粒物(PM2.5),59,64,71,42,43,42,,55,52,26,19,3,7,0.5,0.7
2025-10-30T2200,2694A,82.0806,44.8969,博尔塔拉蒙古自治州,市环保局,,,109,106,26,24,4,,61,50,,25,6,6,2.0,0.6
2025-10-30T2200,1071A,116.8842,38.2991,沧州市,沧县城建局,,50,44,131,35,108,39,,30,30,14,52,3,5,0.4,1
2025-10-30T2200,1072A,116.8584,38.3254,沧州市,电视转播站,颗粒物(PM10),51,51,124,22,97,32,,24,24,20,48,2,4,0.4,1.1
2025-10-30T2200,1073A,116.8709,38.3228,沧州市,市环保局,细颗粒物(PM2.5),59,53,137,42,115,30,,27,27,24,54,4,6,0.5,0.9
2025-10-30T2200,3324A,116.8136,38.3004,沧州市,河北水利电力学院,,38,31,123,26,88,42,,33,33,15,53,6,9,0.3,0.9
2025-10-30T2200,2622A,97.1806,31.1273,昌都市,昌都监测站,细颗粒物(PM2.5),88,112,20,65,14,3,,62,39,59,17,5,3,1.8,0.6
2025-10-30T2200,3719A,97.1714,31.1406,昌都市,昌都会议中心,,24,24,12,13,7,48,,75,67,10,4,4,3,0.3,0.4
2025-10-30T2200,2690A,88.1236,43.8886,昌吉回族自治州,天山天池,,,,,,,,,,,,,,,,
2025-10-30T2200,2692A,87.2717,44.0297,昌吉回族自治州,新区政务中心,颗粒物(PM10),51,52,73,16,29,46,,74,64,32,39,5,9,0.4,0.6
2025-10-30T2200,3613A,87.3095,44.0142,昌吉回族自治州,亚心广场,颗粒物(PM10),60,70,90,19,30,36,,79,70,42,34,7,10,0.5,0.6
2025-10-30T2200,1120A,125.2863,43.9027,长春市,客车厂,细颗粒物(PM2.5),85,85,35,63,25,12,,55,33,60,23,8,7,1.1,0.4
2025-10-30T2200,1121A,125.2841,43.8463,长春市,邮电学院,细颗粒物(PM2.5),122,158,46,92,30,24,,59,41,55,22,8,7,1.1,0.4
2025-10-30T2200,1122A,125.3716,43.8772,长春市,劳动公园,细颗粒物(PM2.5),74,72,41,54,16,10,,56,36,59,24,10,10,1.2,0.5
2025-10-30T2200,1123A,125.3297,43.8805,长春市,园林处,细颗粒物(PM2.5),89,92,62,66,24,14,,54,31,58,25,8,8,0.6,0.2
2025-10-30T2200,1124A,125.4605,43.79,长春市,净月潭,,49,46,33,34,11,21,,55,39,33,18,6,6,0.5,0.4
2025-10-30T2200,1125A,125.7194,43.515,长春市,甩湾子,细颗粒物(PM2.5),54,53,36,38,29,20,,47,37,26,20,4,4,0.6,0.5
2025-10-30T2200,1126A,125.3863,43.8447,长春市,经开区环卫处,颗粒物(PM10),70,89,39,47,20,4,,54,30,62,25,8,7,0.9,0.5
2025-10-30T2200,1127A,125.245,43.7783,长春市,高新区管委会,细颗粒物(PM2.5),159,,36,121,24,29,,58,33,55,23,11,7,1.0,0.4
2025-10-30T2200,1128A,125.1761,43.8325,长春市,岱山公园,细颗粒物(PM2.5),114,104,42,86,28,7,,51,23,62,28,10,6,0.8,0.4
2025-10-30T2200,4281A,125.3346,43.9164,长春市,北亚泰大街1068号,"颗粒物(PM10),细颗粒物(PM2.5)",60,69,41,43,26,4,,52,20,66,33,9,8,0.8,0.5
2025-10-30T2200,1335A,113.0833,28.2325,长沙市,经开区环保局,细颗粒物(PM2.5),110,,86,83,94,41,,59,42,20,22,4,5,0.6,0.7
2025-10-30T2200,1336A,112.8872,28.2189,长沙市,高开区环保局,细颗粒物(PM2.5),123,,83,93,118,48,,76,54,23,20,5,5,0.5,0.6
2025-10-30T2200,1337A,113.0792,28.2053,长沙市,马坡岭,细颗粒物(PM2.5),88,,81,65,72,47,,66,48,17,20,4,5,0.7,0.8
2025-10-30T2200,1338A,112.9394,28.19,长沙市,湖南师范大学,细颗粒物(PM2.5),83,64,83,61,62,53,,83,58,26,22,3,4,0.5,0.6
2025-10-30T2200,1339A,113.0178,28.1322,长沙市,雨花区环保局,细颗粒物(PM2.5),117,,73,88,86,43,,74,54,21,18,6,7,0.8,0.8
2025-10-30T2200,1340A,112.9792,28.2597,长沙市,伍家岭,细颗粒物(PM2.5),110,,87,83,89,49,,70,55,20,20,4,4,0.5,0.6
2025-10-30T2200,1341A,113.0014,28.1944,长沙市,火车新站,细颗粒物(PM2.5),92,,79,68,74,59,,76,58,22,21,9,9,0.7,0.7
2025-10-30T2200,1342A,112.9844,28.1178,长沙市,天心区环保局,细颗粒物(PM2.5),83,75,77,61,61,56,,83,59,19,20,5,5,0.7,0.7
2025-10-30T2200,1343A,112.8908,28.1308,长沙市,湖南中医药大学,细颗粒物(PM2.5),73,65,76,53,58,52,,79,54,18,18,4,5,0.8,0.8
2025-10-30T2200,1344A,112.9581,28.3611,长沙市,沙坪,,,,,,,,,,,,,,,,
2025-10-30T2200,1727A,113.1147,36.1547,长治市,清华站,细颗粒物(PM2.5),170,,68,129,62,50,,56,54,33,30,12,10,1.5,0.9
2025-10-30T2200,1730A,113.0886,36.2125,长治市,审计局,细颗粒物(PM2.5),144,,64,110,70,18,,50,28,45,33,8,10,1.5,1
2025-10-30T2200,1731A,113.0844,36.1856,长治市,长治八中,细颗粒物(PM2.5),134,144,86,102,68,18,,46,32,45,27,8,9,1.4,1
2025-10-30T2200,2845A,113.1569,36.1911,长治市,德盛苑,细颗粒物(PM2.5),140,,75,107,70,50,,81,61,24,21,7,6,1.5,1.1
2025-10-30T2200,3568A,113.06,36.0464,长治市,向阳小学,细颗粒物(PM2.5),196,154,100,147,71,66,,66,55,32,33,8,12,1.7,1.1
2025-10-30T2200,3569A,112.8792,36.3144,长治市,屯留一中,细颗粒物(PM2.5),92,72,72,68,52,41,,50,43,23,26,9,12,0.8,0.8
2025-10-30T2200,4189A,113.1131,36.19948,长治市,英华南巷50号,细颗粒物(PM2.5),149,121,80,114,68,36,,52,36,31,30,6,7,1.8,1.4
2025-10-30T2200,4190A,113.2367,36.3344,长治市,学府街1号,细颗粒物(PM2.5),130,,89,99,75,39,,49,48,22,34,5,9,1.7,1.6
2025-10-30T2200,1854A,111.6975,28.9703,常德市,市二中,,50,46,51,35,42,42,,98,85,12,11,4,4,0.8,0.8
2025-10-30T2200,1857A,111.7158,29.1456,常德市,白鹤山,,,,,,,,,,,,,,,,
2025-10-30T2200,3138A,111.7153,29.0289,常德市,武陵区永安,,49,49,52,34,40,57,,92,82,19,14,4,4,0.8,0.7
2025-10-30T2200,3139A,111.6892,28.9881,常德市,鼎城区玉霞,细颗粒物(PM2.5),59,58,63,42,41,19,,93,69,27,15,4,5,0.6,0.8
2025-10-30T2200,3140A,111.6625,29.0531,常德市,武陵区长庚,细颗粒物(PM2.5),58,60,56,41,41,34,,91,76,30,17,3,3,0.7,0.5
2025-10-30T2200,1196A,119.9633,31.762,常州市,市监测站,颗粒物(PM10),52,54,46,13,17,37,,35,34,30,46,8,9,0.5,0.7
2025-10-30T2200,1200A,119.9468,31.7069,常州市,武进监测站,,50,50,37,12,10,36,,52,37,35,43,10,10,0.8,0.5
2025-10-30T2200,1201A,119.9255,31.9087,常州市,安家,,37,37,38,9,14,22,,41,34,37,35,8,8,0.6,0.4
2025-10-30T2200,3002A,119.9805,31.8174,常州市,行政中心,,,,36,,17,32,,39,38,37,44,,6,0.4,0.6
2025-10-30T2200,3003A,120.0522,31.7748,常州市,经开区,,37,37,48,17,16,33,,32,29,36,48,7,9,0.7,0.7
2025-10-30T2200,3010A,119.9025,31.7964,常州市,钟楼,,43,43,37,16,16,45,,45,42,26,42,7,9,0.7,0.8
2025-10-30T2200,3429A,119.8598,31.7066,常州市,武进经发区,,42,42,32,18,13,25,,52,33,44,45,6,9,1.0,0.9
2025-10-30T2200,3430A,119.5826,31.7245,常州市,金坛城区,,28,28,27,17,13,37,,53,38,26,28,4,7,0.5,0.5
2025-10-30T2200,2220A,120.4318,41.5881,朝阳市,西梁,颗粒物(PM10),91,131,63,66,39,3,,66,35,58,30,11,11,1.0,0.8
2025-10-30T2200,2221A,120.4521,41.5646,朝阳市,河畔小区,细颗粒物(PM2.5),77,100,39,56,32,5,,70,48,57,22,11,8,1.1,0.6
2025-10-30T2200,2222A,120.4176,41.5648,朝阳市,八里堡,细颗粒物(PM2.5),104,155,61,78,42,3,,67,37,60,31,14,11,1.4,0.9
2025-10-30T2200,2223A,120.3806,41.5969,朝阳市,农业园区,,47,47,39,19,34,16,,67,38,47,31,9,10,0.5,0.6
2025-10-30T2200,1705A,116.6367,23.6719,潮州市,西园路,,,,,,,,,,,,,,,,
2025-10-30T2200,3026A,116.6183,23.6608,潮州市,市政府,,30,30,34,13,13,50,,77,61,5,8,3,4,0.4,0.4
2025-10-30T2200,4036A,116.6461,23.6761,潮州市,金山,,23,,28,16,18,43,,74,54,6,9,2,3,0.5,0.5
2025-10-30T2200,2472A,113.0073,25.9061,郴州市,马头岭,,,,,,,,,,,,,,,,
2025-10-30T2200,2473A,113.0116,25.8226,郴州市,市职中,细颗粒物(PM2.5),83,67,79,61,75,26,,40,33,13,23,2,4,0.7,0.7
2025-10-30T2200,2475A,113.0383,25.8071,郴州市,市审计局,细颗粒物(PM2.5),77,62,80,56,75,26,,41,33,14,20,7,10,0.5,0.5
2025-10-30T2200,2476A,113.0348,25.7759,郴州市,市环保局,细颗粒物(PM2.5),74,76,86,54,72,27,,40,32,18,26,3,4,0.7,0.6
2025-10-30T2200,4252A,113.0138,25.8011,郴州市,好美居路49号,细颗粒物(PM2.5),64,52,76,46,64,42,,46,43,17,26,3,4,0.9,0.8
2025-10-30T2200,1431A,103.9728,30.7236,成都市,金泉两河,,40,36,41,28,34,26,,52,46,31,26,3,3,0.7,0.7
2025-10-30T2200,1432A,104.176,30.6872,成都市,十里店,细颗粒物(PM2.5),55,51,64,39,51,33,,46,43,26,31,3,3,0.4,0.5
2025-10-30T2200,1433A,104.079,30.5706,成都市,三瓦窑,细颗粒物(PM2.5),67,61,63,48,55,11,,56,45,49,27,3,3,0.6,0.6
2025-10-30T2200,1434A,104.1114,30.63,成都市,沙河铺,细颗粒物(PM2.5),67,58,64,48,57,26,,40,36,35,35,4,4,0.4,0.5
2025-10-30T2200,1437A,104.0786,30.6531,成都市,君平街,细颗粒物(PM2.5),69,50,58,50,64,34,,45,43,27,25,4,4,0.6,0.6
2025-10-30T2200,1438A,103.613,31.0283,成都市,灵岩寺,,,,,,,,,,,,,,,,
2025-10-30T2200,2880A,104.0239,30.65639,成都市,大石西路,,50,,46,35,45,33,,51,47,23,29,3,3,0.7,0.7
2025-10-30T2200,3136A,104.2725,30.5589,成都市,龙泉驿区区政府,,19,19,27,9,20,55,,59,59,12,18,5,5,0.5,0.5
2025-10-30T2200,3357A,104.0106,30.6931,成都市,金博路,,32,32,50,21,35,37,,51,46,25,28,5,5,0.6,0.6
2025-10-30T2200,3359A,104.0578,30.5225,成都市,华阳,,45,,39,31,37,45,,60,54,23,20,5,4,0.4,0.5
2025-10-30T2200,3488A,104.3880,30.7467,成都市,青石路225号,,39,36,52,27,36,38,,51,46,19,23,5,5,0.7,0.7
2025-10-30T2200,3489A,104.0789,30.4072,成都市,科学城,,36,32,31,25,24,46,,65,60,17,16,4,4,0.5,0.6
2025-10-30T2200,4011A,103.8506,30.6947,成都市,光华大道三段,"颗粒物(PM10),细颗粒物(PM2.5)",55,59,59,39,40,12,,56,42,49,26,1,1,0.9,0.7
2025-10-30T2200,4224A,104.2433,30.5353,成都市,鲸龙路1057号,,29,24,32,20,27,33,,63,59,30,19,5,5,0.6,0.6
2025-10-30T2200,1062A,117.9531,40.9081,承德市,铁路,细颗粒物(PM2.5),70,78,106,51,75,13,,55,41,52,43,2,3,0.7,0.7
2025-10-30T2200,1063A,117.9392,40.9763,承德市,中国银行,细颗粒物(PM2.5),58,62,99,41,71,9,,60,38,42,32,2,2,0.6,0.6
2025-10-30T2200,1064A,117.9503,40.928,承德市,开发区,颗粒物(PM10),87,124,124,54,73,3,,61,34,64,42,5,5,0.6,0.6
2025-10-30T2200,1066A,117.9268,41.0026,承德市,离宫,,,,,,,,,,,,,,,,
2025-10-30T2200,4274A,117.7994,40.9605,承德市,滨河大街98号,颗粒物(PM10),53,55,73,36,69,8,,52,38,51,39,2,3,0.4,0.6
2025-10-30T2200,2314A,117.47,30.6618,池州市,池州学院,,20,17,64,14,47,27,,29,26,23,37,5,6,0.6,0.8
2025-10-30T2200,3237A,117.4918,30.6617,池州市,展览馆,,18,17,59,12,43,26,,27,25,23,34,4,6,0.6,0.9
2025-10-30T2200,3333A,117.5627,30.695,池州市,第八中学,,24,24,61,16,43,18,,27,24,30,34,6,7,0.7,1
2025-10-30T2200,3334A,117.5038,30.6243,池州市,第十二中学,,22,16,50,15,43,29,,28,27,26,36,5,5,0.8,1.1
2025-10-30T2200,1744A,118.9233,42.2816,赤峰市,松山一中,颗粒物(PM10),61,72,50,32,18,1,,48,21,64,49,12,19,0.7,0.8
2025-10-30T2200,1745A,118.9576,42.2728,赤峰市,哈达街,颗粒物(PM10),67,83,59,41,30,7,,43,23,61,50,19,30,1.0,1
2025-10-30T2200,1746A,118.8788,42.2554,赤峰市,天义路,细颗粒物(PM2.5),60,68,36,43,30,4,,53,28,60,42,10,13,0.7,0.3
2025-10-30T2200,3058A,119.2658,42.0353,赤峰市,银河街,颗粒物(PM10),66,82,44,28,24,1,,56,35,45,19,13,14,0.8,0.4
2025-10-30T2200,3286A,118.9359,42.3147,赤峰市,桥北物流园区,,46,,9,32,17,5,,55,36,56,40,12,11,0.9,0.6
2025-10-30T2200,2521A,107.3476,22.4136,崇左市,市环保局江州分局,,,21,38,12,26,41,,62,50,6,9,3,2,,0.9
2025-10-30T2200,4256A,107.3750,22.3736,崇左市,石景林东路7号,,22,15,31,15,30,48,,70,60,10,10,6,6,0.9,0.8
2025-10-30T2200,2298A,118.3093,32.3153,滁州市,老年大学,,49,34,37,34,31,4,,30,17,32,32,11,12,0.4,0.3
2025-10-30T2200,2299A,118.3244,32.2786,滁州市,人大宾馆,细颗粒物(PM2.5),59,,38,42,30,6,,34,20,38,34,6,6,0.5,0.4
2025-10-30T2200,3207A,118.3118,32.3038,滁州市,市政府原办公楼,细颗粒物(PM2.5),55,39,38,39,32,10,,39,20,38,38,6,6,0.7,0.6
2025-10-30T2200,3331A,118.3267,32.2634,滁州市,图书馆,,49,44,40,34,25,7,,32,21,41,37,7,8,0.5,0.5
2025-10-30T2200,2605A,101.5482,25.0441,楚雄彝族自治州,州环境监测站,,26,,16,18,12,36,,41,40,5,6,8,9,0.6,0.6
2025-10-30T2200,2606A,101.538,25.0492,楚雄彝族自治州,市经济开发区,,26,26,20,17,13,44,,43,42,4,8,6,7,0.7,0.7
2025-10-30T2200,2548A,107.5277,31.2827,达州市,达州职业技术学院,,,,,,,,,,,,,,,,
2025-10-30T2200,2549A,107.5086,31.2186,达州市,市环境监测站,,36,36,27,22,16,2,,39,28,37,23,6,6,0.5,0.4
2025-10-30T2200,2550A,107.4988,31.2132,达州市,凤凰小区,,41,41,30,22,16,2,,49,33,41,22,4,5,0.5,0.3
2025-10-30T2200,2551A,107.5082,31.1986,达州市,达县机关宾馆,,39,39,29,3,7,1,,45,25,37,24,4,5,0.5,0.4
2025-10-30T2200,2552A,107.4644,31.2124,达州市,市政中心,,50,50,37,19,15,3,,39,24,40,23,5,5,0.5,0.4
2025-10-30T2200,2614A,100.1542,25.7054,大理白族自治州,大理市环境监测站,,18,18,17,12,9,53,,57,56,7,8,5,5,0.4,0.5
2025-10-30T2200,2615A,100.2171,25.5811,大理白族自治州,大理古城,,23,23,23,16,13,31,,69,51,18,10,7,6,0.5,0.4
2025-10-30T2200,1109A,121.612,38.9741,大连市,甘井子,细颗粒物(PM2.5),80,99,65,59,32,6,,77,19,59,33,8,8,1.0,0.6
2025-10-30T2200,1110A,121.565,38.9511,大连市,周水子,细颗粒物(PM2.5),70,83,54,51,28,13,,75,24,55,32,15,12,0.9,0.5
2025-10-30T2200,1111A,121.5637,38.8845,大连市,星海三站,细颗粒物(PM2.5),75,77,48,55,26,13,,86,38,29,15,6,6,1.0,0.5
2025-10-30T2200,1112A,121.6302,38.9117,大连市,青泥洼桥,颗粒物(PM10),75,99,55,54,26,3,,87,24,57,28,13,10,1.4,0.8
2025-10-30T2200,1113A,121.6251,38.8638,大连市,傅家庄,细颗粒物(PM2.5),109,88,47,82,25,6,,88,42,54,20,11,9,1.1,0.5
2025-10-30T2200,1114A,121.5213,38.8661,大连市,七贤岭,细颗粒物(PM2.5),78,93,53,57,27,26,,86,44,36,22,8,9,1.0,0.6
2025-10-30T2200,1115A,121.2529,38.8061,大连市,旅顺,细颗粒物(PM2.5),78,77,48,57,26,32,,82,38,26,15,8,7,0.8,0.4
2025-10-30T2200,1116A,121.7485,39.1311,大连市,金州,细颗粒物(PM2.5),72,78,56,52,30,25,,85,29,53,33,11,10,0.7,0.4
2025-10-30T2200,1117A,121.7811,39.0496,大连市,开发区,细颗粒物(PM2.5),69,83,53,50,26,37,,68,49,41,31,8,6,0.7,0.4
2025-10-30T2200,1118A,121.9762,39.0631,大连市,双D港,细颗粒物(PM2.5),68,59,45,49,21,57,,86,56,24,21,11,10,0.7,0.6
2025-10-30T2200,1789A,124.81117,46.03138,大庆市,大同区,细颗粒物(PM2.5),59,61,70,42,48,21,,40,29,22,21,8,8,0.5,0.6
2025-10-30T2200,1790A,125.129,46.533,大庆市,龙凤区,颗粒物(PM10),69,88,74,37,46,21,,49,33,33,27,8,8,0.8,1
2025-10-30T2200,1791A,124.902,46.408,大庆市,红岗区,颗粒物(PM10),67,84,67,41,48,27,,55,41,24,24,8,6,0.8,0.8
2025-10-30T2200,1792A,125.153,46.586,大庆市,萨尔图区,细颗粒物(PM2.5),82,86,74,60,49,30,,50,39,31,29,27,13,0.5,0.5
2025-10-30T2200,1793A,124.9042,46.6215,大庆市,让胡路区,,45,45,63,26,46,17,,50,34,34,22,7,6,0.5,0.5
2025-10-30T2200,3481A,125.141,46.634,大庆市,萨区政府监测点,颗粒物(PM10),53,56,74,29,40,32,,57,45,20,17,18,11,0.6,0.5
2025-10-30T2200,1721A,113.3819,40.1097,大同市,果树场,颗粒物(PM10),57,63,37,32,18,9,,69,39,52,32,8,9,0.9,0.5
2025-10-30T2200,1723A,113.2994,40.0758,大同市,云冈宾馆,颗粒物(PM10),51,51,39,28,16,27,,73,53,42,33,8,9,1.4,0.9
2025-10-30T2200,1724A,113.3444,40.0917,大同市,大同大学,颗粒物(PM10),59,68,32,18,16,20,,77,53,56,32,11,12,0.6,0.7
2025-10-30T2200,1725A,113.2661,40.1269,大同市,安家小村,颗粒物(PM10),52,53,47,17,17,22,,71,52,51,28,7,8,0.4,0.6
2025-10-30T2200,1726A,113.2711,40.0844,大同市,教育学院,颗粒物(PM10),89,127,45,31,21,16,,71,47,57,33,8,9,1.3,0.8
2025-10-30T2200,3282A,113.3397,40.0597,大同市,大同市卫生学校,颗粒物(PM10),69,88,35,28,16,21,,69,42,50,33,8,9,0.8,0.8
2025-10-30T2200,3565A,113.1367,40.1122,大同市,云冈站,,,95,39,31,18,,,80,66,50,22,25,15,0.6,0.7
2025-10-30T2200,3566A,113.1186,40.2556,大同市,图书馆,颗粒物(PM10),55,59,32,20,15,30,,78,55,29,20,12,12,0.6,0.5
2025-10-30T2200,3567A,113.5931,40.0461,大同市,区一中,,36,36,29,23,16,48,,81,64,16,17,6,5,0.7,0.6
2025-10-30T2200,4199A,113.2798,40.0997,大同市,魏都大道141号,颗粒物(PM10),80,109,49,30,22,22,,75,51,53,32,9,8,1.6,0.8
2025-10-30T2200,2269A,124.1069,50.4097,大兴安岭地区,科技局,,42,42,25,23,18,17,,49,40,22,8,10,5,0.4,0.3
2025-10-30T2200,3663A,124.1164,50.4278,大兴安岭地区,红旗社区,,49,34,18,34,12,12,,49,42,20,10,4,4,0.5,0.3
2025-10-30T2200,1600A,124.3303,40.0625,丹东市,江湾东路,细颗粒物(PM2.5),83,75,40,61,29,8,,62,22,39,31,6,7,1.8,0.9
2025-10-30T2200,1601A,124.4256,40.1503,丹东市,临江后街,细颗粒物(PM2.5),70,82,36,51,20,5,,68,25,38,25,8,8,1.5,1
2025-10-30T2200,1602A,124.3933,40.1461,丹东市,元宝山,细颗粒物(PM2.5),80,62,29,59,20,19,,68,32,21,18,8,8,1.2,0.8
2025-10-30T2200,1603A,124.3633,40.1092,丹东市,民主桥,细颗粒物(PM2.5),78,78,38,57,24,34,,64,22,23,33,7,6,0.7,0.5
2025-10-30T2200,3541A,109.5726,19.5167,儋州市,第一中学子站,,17,17,7,10,3,42,,49,40,2,3,6,3,0.2,0.3
2025-10-30T2200,3542A,109.5567,19.5187,儋州市,东坡学校子站,,16,16,7,7,3,46,,58,47,4,5,4,5,0.1,0.1
2025-10-30T2200,2616A,98.5842,24.428,德宏傣族景颇族自治州,德宏州监测站,,40,39,27,28,19,33,,72,60,22,17,8,9,0.8,0.6
2025-10-30T2200,3677A,98.5881,24.4368,德宏傣族景颇族自治州,芒市人民政府综合楼,,48,48,34,22,16,35,,82,64,15,13,8,7,0.6,0.5
2025-10-30T2200,1901A,104.4239,31.1208,德阳市,东山公园,,38,29,35,26,32,32,,40,36,10,23,1,2,0.8,0.9
2025-10-30T2200,1902A,104.3826,31.1317,德阳市,西小区,细颗粒物(PM2.5),52,51,61,36,41,24,,41,33,20,30,1,2,0.9,1
2025-10-30T2200,1904A,104.3553,31.1091,德阳市,耐火材料厂,,49,46,56,34,38,22,,44,33,22,31,1,2,0.7,0.8
2025-10-30T2200,3639A,104.4019,31.1244,德阳市,市教育局,,45,43,51,31,36,15,,40,31,23,28,2,3,0.7,0.8
2025-10-30T2200,1622A,116.3032,37.4674,德州市,儿童乐园,细颗粒物(PM2.5),134,146,110,102,66,2,,64,32,58,40,10,13,1.4,0.9
2025-10-30T2200,1624A,116.2991,37.4451,德州市,监理站,细颗粒物(PM2.5),140,146,94,107,60,11,,75,41,66,46,13,16,1.3,0.8
2025-10-30T2200,3066A,116.2721,37.4379,德州市,九衢泉纯净水厂,细颗粒物(PM2.5),104,129,100,78,52,4,,64,33,64,46,10,15,1.3,0.8
2025-10-30T2200,3371A,116.3728,37.4403,德州市,开发区人民医院,细颗粒物(PM2.5),119,134,93,90,48,0,,76,,66,48,13,15,1.4,0.9
2025-10-30T2200,3511A,116.5652,37.3319,德州市,陵城艺术中心,细颗粒物(PM2.5),125,114,95,95,58,0,,51,31,72,55,9,14,1.3,0.9
2025-10-30T2200,4292A,116.3525,37.4209,德州市,新河东路,细颗粒物(PM2.5),110,144,98,83,53,5,,74,38,78,57,9,11,1.3,0.9
2025-10-30T2200,2621A,99.7056,27.8317,迪庆藏族自治州,迪庆州站,,19,16,22,13,16,58,,63,61,6,10,6,6,0.4,0.5
2025-10-30T2200,3180A,99.7136,27.8094,迪庆藏族自治州,质量技术监督局,,20,13,24,6,10,63,,66,64,7,11,8,7,0.4,0.5
2025-10-30T2200,4257A,104.6092,35.5962,定西市,将台街,颗粒物(PM10),78,105,67,44,36,12,,106,83,69,25,10,9,1.0,0.6
2025-10-30T2200,4309A,104.6159,35.5701,定西市,正龙路62号,颗粒物(PM10),78,105,76,44,35,42,,92,78,26,17,9,7,0.8,0.5
2025-10-30T2200,1389A,113.7547,23.0494,东莞市,莞城梨川,,22,18,38,15,19,39,,95,70,15,22,5,7,0.5,0.6
2025-10-30T2200,1390A,113.7944,23.0128,东莞市,东城石井,,11,,35,6,23,34,,97,69,21,23,4,6,0.6,0.6
2025-10-30T2200,1391A,113.7383,22.9658,东莞市,南城西平,,17,17,39,10,26,37,,107,77,21,36,6,7,0.6,0.7
2025-10-30T2200,3319A,113.7338,23.0381,东莞市,万江金泰,,17,17,37,11,24,40,,90,68,9,18,5,5,0.5,0.6
2025-10-30T2200,3626A,113.7533,23.0202,东莞市,南城元岭,,15,15,36,10,23,45,,105,78,8,17,5,7,0.5,0.6
2025-10-30T2200,3627A,113.7875,23.0457,东莞市,东城主山,,15,15,37,10,26,39,,97,67,16,26,3,5,0.6,0.7
2025-10-30T2200,1666A,118.6614,37.4309,东营市,市环保局,颗粒物(PM10),51,51,54,34,23,45,,52,52,30,35,10,19,0.7,0.7
2025-10-30T2200,3036A,118.6904,37.4338,东营市,开发区管委会,细颗粒物(PM2.5),58,51,56,41,30,49,,56,56,29,34,9,15,0.7,0.7
2025-10-30T2200,3365A,118.5719,37.565,东营市,垦利区民丰路,颗粒物(PM10),58,66,58,34,26,45,,73,62,26,32,8,10,0.9,0.9
2025-10-30T2200,3498A,118.5055,37.8612,东营市,河口城区,颗粒物(PM10),52,53,69,27,34,58,,92,86,20,33,7,11,0.6,0.7
2025-10-30T2200,3646A,118.4978,37.4623,东营市,胜利站,,50,50,59,34,25,45,,64,64,35,41,10,12,1.0,0.9
2025-10-30T2200,3734A,118.35,37.26,东营市,理想之城,,,73,63,46,29,,,46,46,38,46,4,7,0.8,0.7
2025-10-30T2200,1591A,110.0023,39.8129,鄂尔多斯市,综合楼,,39,39,45,9,13,76,,82,82,21,36,6,11,0.3,0.4
2025-10-30T2200,1592A,109.9486,39.8261,鄂尔多斯市,巴音孟克林场办事处,,44,44,50,17,18,67,,83,80,26,28,6,9,0.2,0.4
2025-10-30T2200,1593A,109.7736,39.5986,鄂尔多斯市,康泽苑,,46,46,51,14,21,64,,98,90,20,16,6,8,0.4,0.5
2025-10-30T2200,1594A,109.8119,39.5989,鄂尔多斯市,华泰汽车城,,44,44,56,19,22,54,,93,81,23,24,4,5,0.4,0.5
2025-10-30T2200,1595A,109.9734,39.7884,鄂尔多斯市,奥林花园,,48,48,54,14,14,68,,88,85,28,30,7,9,0.4,0.4
2025-10-30T2200,2436A,114.8938,30.3994,鄂州市,市政府,细颗粒物(PM2.5),52,51,91,36,70,35,,61,55,34,28,8,9,0.7,0.8
2025-10-30T2200,2437A,114.8989,30.3714,鄂州市,赵家坝,,42,42,90,27,69,60,,64,64,8,16,8,8,0.9,1.1
2025-10-30T2200,3654A,114.8094,30.4089,鄂州市,精准医疗中心,,45,45,79,30,62,34,,65,59,30,23,4,6,0.4,0.8
2025-10-30T2200,2454A,109.4978,30.2981,恩施土家族苗族自治州,湖北民院,,38,38,33,22,25,28,,67,56,4,3,7,6,0.7,0.7
2025-10-30T2200,2455A,109.4707,30.2798,恩施土家族苗族自治州,州电力总公司,细颗粒物(PM2.5),52,47,33,36,26,4,,61,48,32,14,6,5,0.6,0.4
2025-10-30T2200,3549A,109.5061,30.3772,恩施土家族苗族自治州,龙凤新区,,38,33,29,26,22,17,,54,38,8,8,6,6,0.5,0.5
2025-10-30T2200,2499A,108.3411,21.6158,防城港市,沙万,,23,,36,16,36,62,,66,59,7,10,4,4,0.7,0.6
2025-10-30T2200,2500A,108.3514,21.7731,防城港市,防城档案局,,19,,43,8,30,58,,58,54,8,12,6,6,0.7,0.8
2025-10-30T2200,2501A,108.3506,21.6414,防城港市,大海花园,,21,,39,11,35,65,,72,62,8,10,4,4,0.8,0.7
2025-10-30T2200,1371A,113.1294,23.0067,佛山市,湾梁,,18,17,54,8,28,57,,83,65,23,36,6,8,0.7,0.9
2025-10-30T2200,1372A,113.1083,23.0478,佛山市,华材职中,,28,22,54,19,42,59,,85,69,19,39,5,7,0.5,0.7
2025-10-30T2200,1373A,113.144,23.0453,佛山市,南海气象局,,35,28,57,24,38,58,,82,65,19,39,7,8,0.7,0.8
2025-10-30T2200,1374A,113.2881,22.8094,佛山市,顺德苏岗,,35,35,53,19,31,25,,109,84,38,45,7,8,0.6,0.7
2025-10-30T2200,1376A,112.8383,22.8678,佛山市,高明孔堂,,30,,66,21,45,64,,82,72,16,36,4,7,0.5,0.7
2025-10-30T2200,1377A,112.8836,23.1588,佛山市,三水监测站,,42,31,49,29,45,37,,71,63,34,31,9,7,0.7,0.8
2025-10-30T2200,1378A,112.867,23.185,佛山市,三水云东海,,39,,45,27,41,24,,73,60,40,24,7,6,0.7,0.9
2025-10-30T2200,3625A,113.2544,22.7642,佛山市,容桂街道办,,39,39,50,24,33,19,,100,75,43,39,8,9,0.7,0.7
2025-10-30T2200,1280A,119.3903,26.0543,福州市,鼓山,,20,17,25,12,8,64,,86,57,7,11,1,1,0.2,0.3
2025-10-30T2200,1282A,119.2681,26.0504,福州市,师大,颗粒物(PM10),51,52,33,24,11,7,,71,29,39,19,6,6,0.5,0.4
2025-10-30T2200,1283A,119.2984,26.1028,福州市,五四北路,,49,49,32,27,11,8,,70,37,41,18,4,4,0.4,0.3
2025-10-30T2200,1284A,119.2648,26.0768,福州市,杨桥西路,,43,43,30,26,12,11,,70,38,34,17,4,4,0.3,0.3
2025-10-30T2200,1285A,119.317,26.0746,福州市,紫阳,颗粒物(PM10),55,59,38,36,13,7,,72,29,45,21,7,7,0.6,0.4
2025-10-30T2200,3048A,119.5799,26.0936,福州市,九龙,,22,22,21,15,7,38,,70,52,14,9,4,4,0.3,0.3
2025-10-30T2200,3526A,119.5189,25.9664,福州市,吴航,,41,41,31,20,14,2,,77,30,42,20,5,5,0.5,0.5
2025-10-30T2200,1755A,123.7977,41.8491,抚顺市,望花区,颗粒物(PM10),54,58,44,22,18,11,,62,45,48,19,8,9,0.7,0.6
2025-10-30T2200,1756A,123.9161,41.8822,抚顺市,顺城区,颗粒物(PM10),58,66,42,40,23,5,,65,36,55,23,8,8,0.9,0.6
2025-10-30T2200,1757A,124.0436,41.8611,抚顺市,东洲区,,40,38,35,28,21,38,,65,52,20,14,9,8,0.6,0.5
2025-10-30T2200,1758A,123.9247,41.8642,抚顺市,新抚区,"颗粒物(PM10),细颗粒物(PM2.5)",57,63,36,40,17,3,,58,34,48,23,6,8,1.0,0.7
2025-10-30T2200,1759A,124.0972,41.8961,抚顺市,大伙房水库,,40,40,30,21,19,30,,65,54,35,16,11,11,0.9,0.8
2025-10-30T2200,1760A,123.7086,41.8391,抚顺市,沈抚新城,颗粒物(PM10),55,60,39,33,23,6,,67,44,59,22,6,7,0.7,0.5
2025-10-30T2200,2376A,116.2127,28.0814,抚州市,桐源党溪,,,,,,,,,,,,,,,,
2025-10-30T2200,2377A,116.3544,27.9831,抚州市,市站,,45,44,85,31,66,59,,46,46,11,17,8,8,1.2,1.1
2025-10-30T2200,2378A,116.3565,27.963,抚州市,血防站,,,50,96,46,76,,,45,45,,24,10,4,1.0,1.1
2025-10-30T2200,2379A,116.3564,28.0007,抚州市,采茶剧团,细颗粒物(PM2.5),53,48,93,37,63,58,,45,45,8,14,2,4,1.0,1
2025-10-30T2200,2380A,116.385,27.9647,抚州市,医学分院,颗粒物(PM10),51,51,95,31,69,59,,46,46,13,20,5,6,1.2,1.3
2025-10-30T2200,2207A,121.6094,41.998,阜新市,工业园区,细颗粒物(PM2.5),87,111,56,64,25,6,,64,35,47,28,10,9,0.9,0.6
2025-10-30T2200,2208A,121.6697,42.0279,阜新市,长青街,细颗粒物(PM2.5),88,77,32,65,22,2,,58,30,53,23,13,9,1.0,0.7
2025-10-30T2200,2209A,121.6673,42.0705,阜新市,农业园区,,22,22,24,9,14,51,,61,52,13,11,23,8,0.5,0.5
2025-10-30T2200,2210A,121.6717,42.0224,阜新市,东苑,颗粒物(PM10),74,97,40,27,15,3,,61,32,54,25,17,10,1.0,0.7
2025-10-30T2200,2211A,121.6506,42.0498,阜新市,玉龙新城,颗粒物(PM10),97,144,51,38,22,6,,66,28,45,35,11,10,2.1,0.7
2025-10-30T2200,2301A,115.8277,32.8929,阜阳市,市监测站,细颗粒物(PM2.5),188,208,101,141,70,4,,64,44,74,46,6,5,1.3,0.5
2025-10-30T2200,2303A,115.8554,32.8605,阜阳市,开发区,细颗粒物(PM2.5),166,172,117,126,83,4,,71,56,62,40,8,9,1.0,0.4
2025-10-30T2200,2875A,115.784,32.8892,阜阳市,阜阳职业技术学院,,,,76,,45,,,70,,,30,,7,,0.4
2025-10-30T2200,3468A,115.7901,32.8613,阜阳市,市规划展馆,细颗粒物(PM2.5),132,149,102,100,64,20,,84,68,51,30,4,6,0.9,0.7
2025-10-30T2200,3469A,115.836,32.9183,阜阳市,枣园社区,细颗粒物(PM2.5),132,137,92,100,65,5,,67,50,68,42,8,9,0.9,0.6
2025-10-30T2200,2669A,102.9099,34.9841,甘南藏族自治州,州政府,,49,43,44,34,27,89,,92,91,6,25,5,6,0.4,0.5
2025-10-30T2200,3380A,102.8914,34.9617,甘南藏族自治州,甘肃民族师范学院,细颗粒物(PM2.5),52,51,52,36,27,61,,80,77,13,28,5,6,0.5,0.5
2025-10-30T2200,2570A,101.9603,30.0475,甘孜藏族自治州,水桥子,,,35,7,8,5,,,60,51,33,15,7,7,0.4,0.5
2025-10-30T2200,3065A,101.9533,29.9972,甘孜藏族自治州,州环保局,,10,10,8,3,6,29,,65,52,18,13,5,5,0.5,0.5
2025-10-30T2200,3414A,115.8347,28.932,赣江新区,桑海产业园,细颗粒物(PM2.5),78,66,83,57,74,36,,50,45,20,27,8,8,0.9,0.8
2025-10-30T2200,2362A,114.9017,25.9149,赣州市,通天岩,颗粒物(PM10),56,62,52,36,33,47,,116,80,12,8,15,15,0.9,0.9
2025-10-30T2200,2363A,114.9367,25.8664,赣州市,地委,细颗粒物(PM2.5),62,57,64,44,48,66,,97,74,9,16,4,6,0.7,0.8
2025-10-30T2200,2364A,114.9461,25.8481,赣州市,气象台,细颗粒物(PM2.5),54,52,65,38,43,72,,103,78,9,16,6,6,0.7,0.8
2025-10-30T2200,2365A,114.9322,25.8333,赣州市,市图书馆,细颗粒物(PM2.5),52,42,58,36,48,67,,97,77,8,14,5,4,0.6,0.7
2025-10-30T2200,2366A,114.8905,25.8471,赣州市,华坚鞋城,,,59,63,41,43,,,87,70,10,17,4,6,0.6,0.7
2025-10-30T2200,3109A,115.0093,25.8613,赣州市,赣县区卫计委,细颗粒物(PM2.5),65,55,59,47,58,65,,104,82,5,12,7,7,0.7,0.7
2025-10-30T2200,2683A,106.2319,36.1417,固原市,马园,,,,,,,,,,,,,,,,
2025-10-30T2200,2684A,106.2792,36.0022,固原市,监测站,颗粒物(PM10),81,111,76,41,22,18,,100,81,62,24,8,7,1.0,0.8
2025-10-30T2200,2685A,106.2375,36.0211,固原市,新区,颗粒物(PM10),70,89,70,34,24,15,,100,78,63,37,6,5,0.6,0.6
2025-10-30T2200,3522A,106.2177,35.9959,固原市,原州区十五小,颗粒物(PM10),83,116,73,46,28,42,,93,70,42,28,9,7,0.7,0.6
2025-10-30T2200,2543A,106.6308,30.5278,广安市,小平旧居,,,,,,,,,,,,,,,,
2025-10-30T2200,2544A,106.6303,30.4576,广安市,市委,,38,29,32,26,25,48,,74,68,13,11,3,3,0.5,0.6
2025-10-30T2200,2545A,106.6271,30.4663,广安市,友谊中学,,,25,31,19,23,,,76,73,10,10,4,5,0.4,0.9
2025-10-30T2200,2547A,106.6388,30.4551,广安市,广电花园,,32,30,26,22,24,44,,70,64,12,11,8,8,0.5,0.5
2025-10-30T2200,2902A,106.6351,30.4865,广安市,北辰小学,,29,29,30,20,22,37,,70,62,10,8,9,9,0.6,0.6
2025-10-30T2200,2523A,105.8945,32.4535,广元市,黑石坡,,,,,,,,,,,,,,,,
2025-10-30T2200,2524A,105.821,32.4444,广元市,老城,,18,,19,12,17,6,,36,25,35,20,6,8,0.7,0.8
2025-10-30T2200,2526A,105.8628,32.4287,广元市,监测站,,9,9,15,3,11,14,,35,28,12,16,4,6,0.6,0.9
2025-10-30T2200,3617A,105.8047,32.4166,广元市,经开区,,23,23,24,13,18,1,,31,19,29,21,3,7,0.6,0.7
2025-10-30T2200,1345A,113.2347,23.1423,广州市,广雅中学,,24,24,44,14,31,46,,66,54,30,39,5,6,0.6,0.8
2025-10-30T2200,1346A,113.2612,23.105,广州市,市五中,,28,28,45,15,30,47,,86,69,45,45,6,7,0.7,0.8
2025-10-30T2200,1348A,113.3478,23.0916,广州市,广东商学院,,26,26,43,18,32,49,,87,71,22,31,4,5,0.2,0.3
2025-10-30T2200,1349A,113.4332,23.1047,广州市,市八十六中,,19,19,38,13,25,52,,86,68,18,37,5,6,0.1,0.2
2025-10-30T2200,1350A,113.3505,22.9483,广州市,番禺中学,,34,34,55,21,33,44,,110,90,22,38,5,7,0.9,1
2025-10-30T2200,1351A,113.2146,23.3916,广州市,花都师范,,29,29,39,17,23,34,,70,52,31,21,4,5,0.7,0.7
2025-10-30T2200,1352A,113.2597,23.1331,广州市,市监测站,,,32,43,15,28,,,75,66,40,33,6,7,,0.5
2025-10-30T2200,1353A,113.5618,23.312,广州市,九龙镇镇龙,,33,29,51,23,37,40,,58,44,18,24,5,6,0.5,0.6
2025-10-30T2200,1354A,113.2765,23.1544,广州市,麓湖,,23,22,36,16,29,37,,70,56,32,33,7,7,0.3,0.4
2025-10-30T2200,1355A,113.443,23.3035,广州市,帽峰山森林公园,,,,,,,,,,,,,,,,
2025-10-30T2200,2846A,113.3221,23.1322,广州市,体育西,,26,25,46,18,31,50,,82,64,19,28,6,7,0.8,0.9
2025-10-30T2200,3298A,113.5717,23.5491,广州市,从化街口,,,56,53,46,41,,,52,40,27,26,11,9,0.7,0.9
2025-10-30T2200,3299A,113.3472,23.3692,广州市,白云竹料,,32,29,42,22,33,36,,72,61,17,21,5,7,0.6,0.7
2025-10-30T2200,3300A,113.2981,23.237,广州市,白云嘉禾,,26,26,50,17,36,51,,67,58,19,32,4,6,0.5,0.6
2025-10-30T2200,3301A,113.4256,23.1716,广州市,黄埔科学城,,22,22,44,15,31,62,,90,77,13,20,5,6,0.5,0.6
2025-10-30T2200,3302A,113.3942,23.0483,广州市,番禺大学城,,,39,52,19,28,,,91,78,21,37,5,6,0.6,0.7
2025-10-30T2200,3303A,113.4922,22.8168,广州市,南沙黄阁,,46,46,49,28,29,22,,128,86,45,42,8,8,0.6,0.5
2025-10-30T2200,3304A,113.5342,22.7896,广州市,南沙街,颗粒物(PM10),51,52,45,34,28,18,,133,92,41,31,8,8,0.7,0.6
2025-10-30T2200,3443A,113.2902,23.5544,广州市,花都梯面,,32,29,36,22,29,41,,58,50,14,15,2,4,0.5,0.6
2025-10-30T2200,3445A,113.7858,23.7478,广州市,从化良口,,11,9,21,3,19,8,,48,33,21,16,5,6,0.9,0.9
2025-10-30T2200,3446A,113.8051,23.2614,广州市,增城荔城,,16,14,26,11,21,39,,66,55,10,10,6,7,0.4,0.5
2025-10-30T2200,2505A,109.568,23.1478,贵港市,德智高中,,,,,,,,,,,,,,,,
2025-10-30T2200,2506A,109.6047,23.0666,贵港市,江南子站,细颗粒物(PM2.5),53,,41,37,46,38,,65,46,13,16,4,5,0.8,0.9
2025-10-30T2200,2508A,109.5669,23.1065,贵港市,荷城子站,,35,27,38,24,32,42,,56,46,12,14,2,3,0.7,0.7
2025-10-30T2200,3405A,109.5886,23.1172,贵港市,新世纪学校,,40,,42,28,34,48,,62,51,8,10,2,2,0.6,0.7
2025-10-30T2200,4260A,109.5933,23.0951,贵港市,中山路155-3号,,43,38,47,30,38,48,,67,55,10,12,3,4,0.9,0.9
2025-10-30T2200,1439A,106.6899,26.5998,贵阳市,马鞍山,,24,24,14,14,6,18,,38,31,11,13,3,3,0.5,0.5
2025-10-30T2200,1441A,106.6243,26.6266,贵阳市,鉴湖路,,41,41,24,9,7,12,,44,33,26,14,4,4,0.5,0.5
2025-10-30T2200,1442A,106.7487,26.6343,贵阳市,燕子冲,,22,22,16,14,17,26,,43,40,11,14,4,5,0.5,0.6
2025-10-30T2200,1443A,106.6555,26.4365,贵阳市,碧云窝,,39,39,31,22,12,6,,35,26,23,21,6,7,0.4,0.4
2025-10-30T2200,1445A,106.7109,26.6027,贵阳市,红边门,,19,19,18,12,10,29,,44,37,16,18,6,6,0.7,0.7
2025-10-30T2200,1446A,106.7164,26.5699,贵阳市,新华路,,,27,22,27,15,,,33,,18,17,7,9,0.6,0.6
2025-10-30T2200,1447A,106.674,26.5424,贵阳市,太慈桥,,27,27,18,14,9,7,,39,28,24,19,2,3,0.8,0.7
2025-10-30T2200,1552A,106.805,26.3003,贵阳市,桐木岭,,28,27,29,19,19,18,,50,42,6,5,31,13,0.8,0.8
2025-10-30T2200,4230A,106.6882,26.5695,贵阳市,花果园大街66号,,36,27,14,25,14,33,,44,42,16,17,2,2,0.6,0.5
2025-10-30T2200,4231A,106.6873,26.5169,贵阳市,漓江路57号,,32,,15,22,12,26,,38,35,16,17,10,9,0.5,0.6
2025-10-30T2200,1862A,110.4144,25.3167,桂林市,电子科大尧山校区,,,,,,,,,,,,,,,,
2025-10-30T2200,1864A,110.3089,25.2708,桂林市,龙隐路小学,细颗粒物(PM2.5),110,88,63,83,55,49,,62,60,14,18,6,6,0.7,0.7
2025-10-30T2200,1865A,110.2869,25.2178,桂林市,八中,细颗粒物(PM2.5),107,,65,80,58,52,,65,62,18,21,9,9,0.7,0.7
2025-10-30T2200,3531A,110.296,25.1253,桂林市,旅游学院,细颗粒物(PM2.5),89,70,45,66,42,66,,66,65,10,13,8,5,0.9,0.8
2025-10-30T2200,4222A,110.1835,25.2444,桂林市,环湖路276号,细颗粒物(PM2.5),89,78,60,66,54,60,,72,70,13,22,6,15,0.5,0.5
2025-10-30T2200,4301A,110.2803,25.2773,桂林市,信义路13号,细颗粒物(PM2.5),103,96,68,77,51,58,,70,67,16,21,8,7,0.8,0.8
2025-10-30T2200,2674A,100.2561,34.4714,果洛藏族自治州,玛沁县大武镇,颗粒物(PM10),53,55,33,17,10,61,,94,86,9,5,19,15,0.4,0.3
2025-10-30T2200,1129A,126.5422,45.755,哈尔滨市,岭北,,,,,,,,,,,,,,,,
2025-10-30T2200,1130A,126.561,45.8167,哈尔滨市,松北商大,颗粒物(PM10),54,57,104,29,89,33,,54,36,22,29,8,8,0.5,0.8
2025-10-30T2200,1131A,126.979,45.5419,哈尔滨市,阿城会宁,细颗粒物(PM2.5),113,116,94,85,73,14,,56,35,43,30,7,6,0.8,0.6
2025-10-30T2200,1132A,126.599,45.7222,哈尔滨市,南岗学府路,,44,44,96,23,62,37,,55,44,28,29,10,11,0.5,0.6
2025-10-30T2200,1133A,126.689,45.7733,哈尔滨市,太平宏伟公园,,40,40,95,28,74,25,,64,42,37,26,12,13,0.5,0.7
2025-10-30T2200,1134A,126.635,45.7667,哈尔滨市,道外承德广场,颗粒物(PM10),57,64,124,30,75,15,,57,39,56,34,8,10,0.6,0.7
2025-10-30T2200,1135A,126.685,45.7319,哈尔滨市,香坊红旗大街,颗粒物(PM10),52,53,98,28,68,20,,57,40,44,29,6,8,0.6,0.7
2025-10-30T2200,1136A,126.6411,45.7258,哈尔滨市,动力和平路,,34,34,77,19,58,34,,52,42,25,27,3,5,0.3,0.5
2025-10-30T2200,1137A,126.593,45.7478,哈尔滨市,道里建国路,细颗粒物(PM2.5),59,50,94,42,78,10,,52,31,52,33,6,7,0.6,0.6
2025-10-30T2200,1138A,126.615,45.61,哈尔滨市,平房东轻厂,细颗粒物(PM2.5),52,46,111,36,72,19,,51,28,49,42,13,14,0.6,0.8
2025-10-30T2200,1139A,126.595,45.9855,哈尔滨市,呼兰师专,细颗粒物(PM2.5),343,,126,293,117,32,,47,39,70,28,20,8,1.6,0.9
2025-10-30T2200,1140A,126.6206,45.6842,哈尔滨市,省农科院,,,69,116,26,69,,,41,,44,43,9,11,0.4,0.6
2025-10-30T2200,2688A,93.5128,42.8172,哈密市,地区监测站,颗粒物(PM10),75,99,88,33,27,37,,86,70,59,41,10,9,0.5,0.5
2025-10-30T2200,2689A,93.4961,42.8328,哈密市,哈密师范学校,颗粒物(PM10),75,99,80,36,28,26,,80,62,62,40,4,6,0.8,0.7
2025-10-30T2200,2671A,100.9048,36.9639,海北藏族自治州,海晏县西海镇,,24,24,31,16,24,61,,94,87,6,9,10,10,0.3,0.4
2025-10-30T2200,3867A,102.0738,36.5056,海东市,平安区公安北苑,颗粒物(PM10),61,72,59,34,32,77,,96,92,19,15,16,13,1.4,0.8
2025-10-30T2200,1409A,110.576,19.9507,海口市,东寨港,,,,,,,,,,,,,,,,
2025-10-30T2200,1410A,110.3232,20.0574,海口市,海南大学,,40,40,27,13,9,94,,82,81,6,5,6,5,0.3,0.3
2025-10-30T2200,1411A,110.283,20.0053,海口市,秀英海南医院,,42,42,27,11,7,87,,77,73,5,5,6,6,0.2,0.2
2025-10-30T2200,1412A,110.338,19.9969,海口市,海南师范大学,,41,41,28,14,10,89,,80,75,5,5,5,5,0.3,0.4
2025-10-30T2200,1413A,110.33,20.0356,海口市,龙华路环保局宿舍,,40,40,29,13,11,93,,82,80,6,5,6,6,0.1,0.1
2025-10-30T2200,3539A,110.5111,19.9736,海口市,桂林洋子站,,39,39,26,14,9,85,,74,72,4,3,6,6,0.2,0.2
2025-10-30T2200,2673A,100.6188,36.2866,海南藏族自治州,共和县恰卜恰镇,,42,42,31,9,12,43,,101,86,44,16,11,11,0.5,0.5
2025-10-30T2200,2676A,97.3731,37.3753,海西蒙古族藏族自治州,德令哈市,,26,26,25,11,12,72,,93,87,6,6,14,15,0.5,0.5
2025-10-30T2200,1048A,114.5302,36.6116,邯郸市,东污水处理厂,细颗粒物(PM2.5),256,,165,206,175,20,,35,32,32,33,3,4,1.1,1
2025-10-30T2200,1049A,114.4918,36.5713,邯郸市,矿院,细颗粒物(PM2.5),255,,169,205,170,21,,39,36,37,38,5,6,1.1,0.9
2025-10-30T2200,1050A,114.484,36.6133,邯郸市,丛台公园,细颗粒物(PM2.5),233,196,184,183,161,26,,43,39,31,34,6,7,1.0,0.9
2025-10-30T2200,3458A,114.7895,36.5593,邯郸市,香泉濮院小区,细颗粒物(PM2.5),207,178,172,157,133,4,,45,34,44,31,5,5,0.9,0.8
2025-10-30T2200,3579A,114.50634,36.77178,邯郸市,永年区实验高中,细颗粒物(PM2.5),175,178,168,132,117,16,,36,29,39,40,3,3,1.2,1
2025-10-30T2200,3580A,114.20016,36.44293,邯郸市,峰峰矿区临水派出所,细颗粒物(PM2.5),223,,130,173,152,20,,43,28,34,35,4,6,0.9,1
2025-10-30T2200,2634A,106.9893,33.1842,汉中市,汉川机床厂子校,,,,,,,,,,,,,,,,
2025-10-30T2200,2635A,107.0154,33.0706,汉中市,市监测站,颗粒物(PM10),66,81,58,35,36,16,,8,,28,20,4,4,0.9,0.9
2025-10-30T2200,2636A,107.0089,33.1138,汉中市,鑫源开发区,颗粒物(PM10),58,66,54,34,30,6,,58,44,39,22,5,10,0.7,0.8
2025-10-30T2200,2637A,107.007,33.0323,汉中市,南郑大河坎水厂,,44,44,38,25,26,17,,58,48,21,15,5,5,0.7,0.7
2025-10-30T2200,1223A,120.2072,30.2111,杭州市,滨江,,23,23,42,15,21,53,,48,48,21,40,9,10,0.5,0.5
2025-10-30T2200,1224A,120.0633,30.2747,杭州市,西溪,,22,22,36,13,22,33,,41,41,14,26,7,8,0.5,0.5
2025-10-30T2200,1226A,120.3417,30.3150,杭州市,下沙,,39,28,32,27,23,14,,43,35,51,43,4,5,0.3,0.2
2025-10-30T2200,1227A,120.1269,30.2456,杭州市,卧龙桥,,20,20,32,14,19,20,,36,36,17,25,8,9,0.4,0.5
2025-10-30T2200,1228A,120.1903,30.2692,杭州市,浙江农大,,28,20,34,19,24,33,,43,35,31,46,6,7,0.6,0.6
2025-10-30T2200,1230A,120.1197,30.3119,杭州市,和睦小学,,33,31,38,23,24,31,,48,37,29,38,7,8,0.6,0.6
2025-10-30T2200,1231A,120.3019,30.4183,杭州市,临平镇,,46,46,46,32,26,23,,44,40,35,39,6,7,0.4,0.4
2025-10-30T2200,1232A,120.2753,30.1839,杭州市,城厢镇,,31,31,46,19,28,54,,44,44,24,46,6,7,0.4,0.5
2025-10-30T2200,1233A,120.0883,30.1808,杭州市,云栖,,18,17,29,12,20,35,,42,42,13,27,6,6,0.5,0.5
2025-10-30T2200,3557A,119.9464,30.0494,杭州市,镇二中,,,9,41,,30,116,,57,57,13,33,4,5,,0.6
2025-10-30T2200,3558A,119.7183,30.2367,杭州市,市府大楼,,37,37,49,23,26,33,,39,35,21,26,8,9,0.4,0.5
2025-10-30T2200,3656A,120.1556,30.2864,杭州市,消防大队,,38,34,45,26,27,30,,46,36,36,43,7,9,0.5,0.5
2025-10-30T2200,1270A,117.1959,31.7848,合肥市,明珠广场,细颗粒物(PM2.5),52,44,56,36,43,24,,29,26,32,51,6,7,0.6,0.7
2025-10-30T2200,1271A,117.3072,31.8764,合肥市,三里街,,44,44,60,27,41,22,,28,28,29,42,5,6,0.6,0.7
2025-10-30T2200,1272A,117.2588,31.8707,合肥市,琥珀山庄,,49,36,51,34,43,35,,36,34,26,40,5,5,0.6,0.7
2025-10-30T2200,1273A,117.1604,31.9052,合肥市,董铺水库,,,,,,,,,,,,,,,,
2025-10-30T2200,1274A,117.25,31.8571,合肥市,长江中路,细颗粒物(PM2.5),52,48,60,36,46,33,,35,35,23,38,5,5,0.6,0.6
2025-10-30T2200,1275A,117.266,31.9436,合肥市,庐阳区,,44,44,61,27,43,41,,37,37,22,42,7,7,0.7,0.8
2025-10-30T2200,1276A,117.3453,31.8616,合肥市,瑶海区,,49,46,61,34,43,30,,35,35,32,46,8,9,0.6,0.6
2025-10-30T2200,1277A,117.3027,31.7964,合肥市,包河区,细颗粒物(PM2.5),52,46,53,36,38,8,,14,11,51,67,7,8,0.9,0.7
2025-10-30T2200,1278A,117.2776,31.7385,合肥市,滨湖新区,细颗粒物(PM2.5),55,39,49,39,40,20,,32,26,40,44,5,5,0.7,0.7
2025-10-30T2200,1279A,117.1318,31.8403,合肥市,高新区,,49,44,65,34,53,33,,36,34,25,46,4,5,0.7,0.7
2025-10-30T2200,3464A,117.3803,31.9147,合肥市,高教基地,,44,44,56,26,38,28,,34,32,19,24,7,7,0.5,0.6
2025-10-30T2200,3614A,79.924,37.0877,和田地区,地区环保局,细颗粒物(PM2.5),214,298,144,164,52,42,,96,87,69,19,15,11,2.1,0.8
2025-10-30T2200,3615A,79.9131,37.113,和田地区,市环保局,颗粒物(PM10),187,324,146,76,38,8,,97,77,99,30,15,10,3.9,0.7
2025-10-30T2200,2516A,108.2011,24.715,河池市,东仁乐园,,,,,,,,,,,,,,,,
2025-10-30T2200,2517A,108.0497,24.6947,河池市,市环保站,,48,48,42,33,35,8,,65,34,28,14,7,9,0.8,0.7
2025-10-30T2200,2518A,108.0983,24.6989,河池市,市疾控中心,,43,43,37,22,31,2,,68,32,32,16,3,4,0.8,0.8
2025-10-30T2200,1696A,114.6778,23.7569,河源市,源西,,,,,,,,,,,,,,,,
2025-10-30T2200,1697A,114.6944,23.7586,河源市,东埔,,33,25,25,23,23,22,,55,43,30,16,4,4,0.6,0.6
2025-10-30T2200,1698A,114.6892,23.7233,河源市,老城,,32,26,27,22,21,19,,57,42,27,13,5,5,0.7,0.6
2025-10-30T2200,1718A,115.4208,35.2464,菏泽市,气象局,细颗粒物(PM2.5),230,227,123,180,80,20,,122,83,50,32,5,5,0.9,0.6
2025-10-30T2200,3374A,115.5564,35.0891,菏泽市,定陶老年大学,细颗粒物(PM2.5),213,227,103,163,67,24,,126,90,49,33,9,9,0.8,0.5
2025-10-30T2200,4184A,115.4797,35.24401,菏泽市,永昌路1号,细颗粒物(PM2.5),203,197,112,153,75,26,,128,87,42,31,4,6,0.8,0.5
2025-10-30T2200,4193A,115.4715,35.2800,菏泽市,长城路999号,细颗粒物(PM2.5),218,208,113,168,73,18,,119,80,54,36,12,13,1.0,0.6
2025-10-30T2200,2514A,111.5264,24.4172,贺州市,环保小区,,44,44,52,28,42,47,,58,48,12,15,3,5,0.9,0.8
2025-10-30T2200,2515A,111.5608,24.4078,贺州市,政协大楼,,,45,49,33,38,,,53,45,13,14,4,5,0.9,0.8
2025-10-30T2200,3534A,111.4744,24.4553,贺州市,西湾,,40,29,40,28,38,40,,45,39,8,12,3,3,0.8,0.7
2025-10-30T2200,2385A,114.17,35.9019,鹤壁市,市监测站,细颗粒物(PM2.5),214,210,160,164,134,23,,43,35,30,30,6,3,1.4,1.3
2025-10-30T2200,2386A,114.2956,35.7511,鹤壁市,市交警支队,细颗粒物(PM2.5),234,216,188,184,141,15,,36,27,39,37,4,3,1.4,1.1
2025-10-30T2200,2387A,114.2878,35.7306,鹤壁市,迎宾馆,细颗粒物(PM2.5),210,220,204,160,140,13,,40,29,44,40,3,5,1.4,1.1
2025-10-30T2200,3474A,114.2617,35.6822,鹤壁市,大新区,细颗粒物(PM2.5),223,189,170,173,149,24,,45,35,32,38,5,4,1.4,1.2
2025-10-30T2200,3596A,114.1572,35.9603,鹤壁市,南山宾馆,细颗粒物(PM2.5),219,216,169,169,135,19,,48,37,39,31,3,4,1.2,1.1
2025-10-30T2200,2244A,130.2537,47.3416,鹤岗市,哈啤分公司,,49,49,81,29,82,44,,68,56,18,14,14,13,0.6,0.6
2025-10-30T2200,2245A,130.2684,47.3086,鹤岗市,斯达机电,,35,35,89,24,71,62,,68,54,11,19,12,13,0.6,0.7
2025-10-30T2200,2246A,130.3114,47.3388,鹤岗市,东山纸板厂,,49,49,87,32,79,38,,70,54,25,20,14,13,0.5,0.8
2025-10-30T2200,2247A,130.1097,47.3382,鹤岗市,五号水库,,,,,,,,,,,,,,,,
2025-10-30T2200,2263A,127.4833,50.2524,黑河市,交通局,,22,21,27,15,21,31,,50,39,21,17,4,4,0.4,0.4
2025-10-30T2200,2264A,127.5144,50.2341,黑河市,环保局,,22,20,26,15,25,32,,46,33,17,16,10,10,0.4,0.6
2025-10-30T2200,2265A,127.5291,50.2472,黑河市,大黑河岛,,,,,,,,,,,,,,,,
2025-10-30T2200,1074A,115.6838,37.7541,衡水市,电机北厂,细颗粒物(PM2.5),209,188,142,159,123,0,,8,1,47,50,9,8,0.9,0.7
2025-10-30T2200,1075A,115.6303,37.7316,衡水市,市监测站,细颗粒物(PM2.5),210,164,125,160,117,0,,10,2,54,48,7,7,1.0,0.8
2025-10-30T2200,3188A,115.6683,37.7217,衡水市,市城管局,细颗粒物(PM2.5),188,161,131,141,109,2,,17,6,59,52,10,9,1.1,0.8
2025-10-30T2200,3459A,115.5989,37.5491,衡水市,地表水厂,细颗粒物(PM2.5),203,190,126,153,110,0,,12,4,54,54,6,6,1.0,0.7
2025-10-30T2200,2456A,112.5003,26.9167,衡阳市,原169医院,,,,,,,,,,,,,,,,
2025-10-30T2200,2457A,112.6194,26.9258,衡阳市,衡阳化工总厂,,38,37,82,26,77,54,,69,53,12,17,6,8,0.9,1
2025-10-30T2200,2458A,112.6211,26.8956,衡阳市,珠晖区环保局,,49,,79,34,76,45,,58,48,20,25,7,10,1.3,1.3
2025-10-30T2200,2459A,112.6197,26.8733,衡阳市,市委党校,,33,31,80,23,63,55,,67,56,11,15,1,4,0.9,1
2025-10-30T2200,2460A,112.6006,26.8919,衡阳市,市监测站,,45,,83,31,62,63,,68,56,12,19,4,6,1.1,1.1
2025-10-30T2200,2461A,112.5664,26.9056,衡阳市,真空机电公司,,30,29,73,21,65,46,,68,51,17,18,4,7,1.1,1.1
2025-10-30T2200,3399A,112.6703,26.882,衡阳市,师范学院,,43,39,83,30,61,66,,70,62,16,18,8,10,1.0,1.1
2025-10-30T2200,2608A,103.3772,23.3993,红河哈尼族彝族自治州,污水处理厂,,44,44,24,27,21,47,,68,61,11,8,5,8,0.4,0.2
2025-10-30T2200,2609A,103.3861,23.35,红河哈尼族彝族自治州,监测站,,45,40,26,31,20,53,,67,65,6,4,8,4,0.4,0.3
2025-10-30T2200,3038A,103.3758,23.368,红河哈尼族彝族自治州,州图书馆,,46,32,24,32,25,61,,68,65,8,5,3,3,0.4,0.4
2025-10-30T2200,1090A,111.6507,40.7517,呼和浩特市,呼市一监,颗粒物(PM10),58,66,30,24,10,9,,82,54,63,26,5,5,0.7,0.5
2025-10-30T2200,1091A,111.6572,40.8033,呼和浩特市,小召,,35,27,26,15,11,13,,78,56,70,30,6,7,0.5,0.5
2025-10-30T2200,1094A,111.7516,40.8369,呼和浩特市,如意水处理厂,,32,31,20,12,7,11,,79,58,63,34,9,9,0.3,0.3
2025-10-30T2200,1095A,111.7276,40.8062,呼和浩特市,二十九中,,31,28,24,11,7,14,,81,66,62,24,8,8,0.5,0.5
2025-10-30T2200,1096A,111.5512,40.7866,呼和浩特市,工大金川校区,,26,26,29,3,7,28,,75,48,46,25,5,6,0.2,0.3
2025-10-30T2200,1097A,111.717,40.7612,呼和浩特市,化肥厂生活区,颗粒物(PM10),53,56,26,23,9,15,,82,55,64,30,5,5,0.4,0.4
2025-10-30T2200,3698A,111.5968,40.8178,呼和浩特市,红旗小学,,20,9,18,3,6,62,,77,68,17,17,2,4,0.2,0.2
2025-10-30T2200,3699A,111.6518,40.8389,呼和浩特市,海东办,,,22,21,11,7,4,,82,54,72,27,5,5,,0.3
2025-10-30T2200,3061A,119.7512,49.1577,呼伦贝尔市,国华电力东,,22,22,21,11,13,46,,51,49,9,8,8,8,0.2,0.2
2025-10-30T2200,4279A,119.7569,49.2222,呼伦贝尔市,伊敏大街东7号,,,25,24,16,19,,,50,49,7,4,5,5,0.2,0.4
2025-10-30T2200,1250A,120.0751,30.8669,湖州市,城西水厂,,26,26,34,18,16,57,,55,55,23,36,7,8,0.3,0.4
2025-10-30T2200,2873A,120.0830,30.8929,湖州市,仁皇山新区,,29,24,31,20,20,52,,53,53,20,35,6,7,0.3,0.4
2025-10-30T2200,2907A,120.1844,30.8596,湖州市,吴兴区站,,,23,30,13,19,,,45,45,16,34,6,7,0.5,0.5
2025-10-30T2200,3562A,120.4148,30.8538,湖州市,南浔区站,,31,31,38,21,15,33,,51,49,43,37,8,9,0.4,0.4
2025-10-30T2200,1607A,120.9049,40.7211,葫芦岛市,龙港区,颗粒物(PM10),72,93,69,40,45,8,,56,34,58,34,14,21,1.2,0.9
2025-10-30T2200,1608A,120.8392,40.7514,葫芦岛市,化工街,颗粒物(PM10),81,112,83,58,44,4,,47,27,60,39,30,13,1.0,0.8
2025-10-30T2200,1609A,120.8341,40.7073,葫芦岛市,新区,"颗粒物(PM10),细颗粒物(PM2.5)",75,100,59,55,38,3,,50,29,66,37,12,10,1.2,0.9
2025-10-30T2200,1610A,120.8695,40.7677,葫芦岛市,东城区,颗粒物(PM10),100,150,68,68,52,7,,51,30,55,37,11,12,1.5,1.1
2025-10-30T2200,2482A,109.5981,27.5721,怀化市,林科所,,,,,,,,,,,,,,,,
2025-10-30T2200,2483A,109.9453,27.5444,怀化市,河西地税局,,50,50,39,29,35,1,,60,23,24,16,3,3,0.6,0.6
2025-10-30T2200,2484A,109.9781,27.5342,怀化市,市四医院,,,45,55,30,39,,,73,34,26,12,7,8,0.5,0.4
2025-10-30T2200,2485A,109.9972,27.5578,怀化市,监测楼,,40,38,45,28,35,10,,72,38,21,10,2,3,0.3,0.3
2025-10-30T2200,2486A,110.0394,27.583,怀化市,市委党校,,42,42,45,28,37,0,,64,33,24,11,8,13,0.3,0.3
2025-10-30T2200,1210A,119.036,33.5981,淮安市,钵池山,,22,,24,15,16,62,,68,61,18,23,7,7,0.3,0.4
2025-10-30T2200,1211A,119.007,33.575,淮安市,北京南路,,22,,29,15,16,58,,66,60,12,16,6,8,0.4,0.5
2025-10-30T2200,1212A,118.989,33.6067,淮安市,市监测站,,22,6,21,3,13,70,,73,68,14,20,5,6,0.7,0.7
2025-10-30T2200,1213A,119.135,33.5039,淮安市,楚州区监测站,,18,,23,12,18,54,,69,59,19,25,7,8,0.3,0.4
2025-10-30T2200,3426A,118.8755,33.2894,淮安市,新华书店,,,6,28,3,15,,,57,51,14,24,7,8,0.4,0.5
2025-10-30T2200,4206A,119.0288,33.6319,淮安市,承德北路606号,,23,,30,16,18,63,,62,54,16,27,6,7,0.2,0.3
2025-10-30T2200,2282A,116.8004,33.975,淮北市,监测站,细颗粒物(PM2.5),55,58,50,39,29,26,,61,48,33,28,8,9,0.4,0.3
2025-10-30T2200,2283A,116.8091,33.9007,淮北市,烈山区政府,,,75,58,46,33,,,64,57,48,26,8,9,0.6,0.5
2025-10-30T2200,3330A,116.8873,33.9836,淮北市,杜集区检察院,细颗粒物(PM2.5),88,74,55,65,41,14,,66,50,44,25,4,5,0.5,0.4
2025-10-30T2200,4017A,116.7923,33.9535,淮北市,市博物馆,细颗粒物(PM2.5),100,92,53,75,38,4,,67,42,70,30,6,8,1.2,0.6
2025-10-30T2200,2277A,116.8305,32.7727,淮南市,潘集区政府,颗粒物(PM10),54,57,63,32,44,40,,57,51,23,25,4,5,0.5,0.5
2025-10-30T2200,2279A,116.8569,32.5951,淮南市,谢家集区政府,颗粒物(PM10),52,54,45,35,33,43,,48,48,23,27,9,8,0.5,0.5
2025-10-30T2200,2280A,116.8281,32.633,淮南市,八公山区政府,颗粒物(PM10),51,51,56,35,38,45,,52,49,18,23,7,7,0.5,0.5
2025-10-30T2200,2281A,116.6325,32.6201,淮南市,焦岗湖风景区管理处,,,,,,,,,,,,,,,,
2025-10-30T2200,2894A,117.0566,32.6531,淮南市,经济技术开发区消防队,,50,37,45,35,29,31,,51,42,27,33,9,10,0.3,0.3
2025-10-30T2200,3329A,117.0108,32.5893,淮南市,山南新区,颗粒物(PM10),52,54,43,32,24,44,,57,52,24,25,4,4,0.3,0.3
2025-10-30T2200,4209A,117.0031,32.6445,淮南市,国庆中路369号,"颗粒物(PM10),细颗粒物(PM2.5)",64,78,54,46,37,26,,53,45,31,30,10,11,0.4,0.4
2025-10-30T2200,2446A,114.9028,30.4742,黄冈市,职工中心,,43,41,72,30,60,42,,67,64,24,17,4,5,0.6,0.8
2025-10-30T2200,2929A,114.8858,30.4519,黄冈市,红卫路,,40,38,68,28,61,45,,68,64,20,17,4,6,0.6,0.7
2025-10-30T2200,3398A,114.9136,30.4445,黄冈市,市林业局,,40,40,70,25,59,46,,68,66,22,17,3,4,0.6,0.8
2025-10-30T2200,2672A,102.0199,35.5102,黄南藏族自治州,同仁县隆务镇,颗粒物(PM10),57,64,41,25,18,61,,82,75,10,5,12,11,0.4,0.4
2025-10-30T2200,2295A,118.2903,29.6963,黄山市,延安路89号,,28,28,33,3,16,56,,49,49,6,14,3,3,0.4,0.4
2025-10-30T2200,2297A,118.1371,30.2756,黄山市,黄山区政府5号楼,,39,31,32,27,24,34,,47,41,6,8,5,5,0.4,0.5
2025-10-30T2200,4210A,118.3354,29.7203,黄山市,滨江东路7-2号,,27,27,31,14,20,52,,51,50,7,14,3,3,0.3,0.4
2025-10-30T2200,2423A,115.0601,30.2313,黄石市,沈家营,颗粒物(PM10),53,55,85,30,60,8,,68,44,8,11,7,8,0.4,0.6
2025-10-30T2200,2426A,114.8988,30.2019,黄石市,铁山,细颗粒物(PM2.5),52,50,83,36,73,26,,51,45,29,27,5,6,0.4,0.4
2025-10-30T2200,2427A,115.0307,30.2092,黄石市,团城山,,48,48,84,25,58,46,,76,58,12,13,11,7,0.5,0.5
2025-10-30T2200,3149A,115.0235,30.1578,黄石市,笔架山北路,颗粒物(PM10),54,58,103,20,59,56,,61,58,23,15,6,6,0.5,0.6
2025-10-30T2200,4185A,115.0780,30.21118,黄石市,磁湖东路29号,颗粒物(PM10),53,55,84,34,62,52,,76,57,8,14,8,8,0.6,0.8
2025-10-30T2200,1392A,114.4183,23.0528,惠州市,河南岸金山湖子站,,30,30,34,17,24,37,,74,56,21,25,8,9,0.6,0.7
2025-10-30T2200,1393A,114.4053,23.0822,惠州市,下埔横江三路子站,,29,29,39,19,25,49,,86,68,8,17,4,6,0.5,0.6
2025-10-30T2200,1394A,114.4103,23.1142,惠州市,江北云山西路子站,,28,28,33,19,22,49,,86,69,14,20,6,7,0.5,0.6
2025-10-30T2200,1395A,114.4645,22.7833,惠州市,惠阳区承修路船湖子站,,24,24,44,14,24,50,,106,83,15,23,9,9,0.6,0.8
2025-10-30T2200,1396A,114.5317,22.7422,惠州市,大亚湾管委会子站,,19,19,33,12,17,50,,116,94,10,19,10,11,0.4,0.5
2025-10-30T2200,3314A,114.4338,22.8134,惠州市,惠阳秋长,,19,19,45,11,29,56,,108,88,13,25,12,12,0.3,0.4
2025-10-30T2200,3452A,114.6517,22.775,惠州市,大亚湾霞涌,,,14,31,7,15,49,,104,90,,13,6,7,0.5,0.6
2025-10-30T2200,2240A,130.9762,45.3001,鸡西市,环保局,细颗粒物(PM2.5),64,66,49,46,36,18,,65,40,39,16,10,7,1.1,0.8
2025-10-30T2200,2243A,130.9429,45.3039,鸡西市,第一中学,,35,26,38,24,27,50,,66,58,12,7,6,6,0.5,0.6
2025-10-30T2200,3707A,131.0207,45.3073,鸡西市,欧美日汽修厂,细颗粒物(PM2.5),85,93,65,63,48,20,,67,42,37,18,17,10,0.9,0.7
2025-10-30T2200,3709A,130.9967,45.3106,鸡西市,市政设施管理处,颗粒物(PM10),65,80,66,42,38,19,,72,40,40,19,13,10,0.7,0.5
2025-10-30T2200,2367A,114.9754,27.0803,吉安市,红声器材厂,细颗粒物(PM2.5),78,74,80,57,55,59,,65,65,19,24,9,10,1.1,0.9
2025-10-30T2200,2368A,114.9658,27.0999,吉安市,市森林工业局,细颗粒物(PM2.5),82,76,79,60,61,54,,64,62,22,26,7,10,0.9,0.8
2025-10-30T2200,2369A,114.99,27.1312,吉安市,市环境监测站,细颗粒物(PM2.5),90,76,76,67,62,54,,58,57,18,24,9,10,1.0,0.8
2025-10-30T2200,2370A,115.0093,27.0968,吉安市,青原区法院,细颗粒物(PM2.5),87,70,80,64,63,54,,60,60,20,25,9,10,1.0,0.9
2025-10-30T2200,1772A,126.54,43.8622,吉林市,哈达湾,颗粒物(PM10),57,63,46,38,33,11,,60,45,55,17,9,8,1.1,0.6
2025-10-30T2200,1773A,126.5844,43.8358,吉林市,东局子,,44,44,45,26,29,12,,58,28,43,21,9,9,0.9,0.8
2025-10-30T2200,1774A,126.5052,43.8245,吉林市,电力学院,细颗粒物(PM2.5),87,85,45,64,42,4,,59,26,45,22,9,8,1.2,0.7
2025-10-30T2200,1775A,126.6133,43.8972,吉林市,江北,,48,46,57,33,42,16,,55,31,43,25,4,6,0.8,1
2025-10-30T2200,1776A,126.555,43.8306,吉林市,江南公园,颗粒物(PM10),53,55,41,34,35,11,,56,32,41,18,7,6,0.8,0.5
2025-10-30T2200,1778A,126.7061,43.7133,吉林市,丰满,,20,12,26,10,29,64,,85,78,5,10,7,8,0.7,0.7
2025-10-30T2200,2868A,126.4739,43.953,吉林市,九站,,50,50,39,29,32,19,,56,39,50,24,11,3,0.5,0.4
2025-10-30T2200,1299A,116.9862,36.6114,济南市,科干所,颗粒物(PM10),70,90,57,46,27,41,,76,50,44,35,9,9,0.7,0.5
2025-10-30T2200,1300A,116.9376,36.665,济南市,农科所,颗粒物(PM10),72,93,67,44,26,7,,33,30,76,55,7,8,0.9,0.7
2025-10-30T2200,1301A,117.1265,36.6734,济南市,开发区,细颗粒物(PM2.5),80,90,59,59,31,31,,62,55,61,39,6,5,0.9,0.6
2025-10-30T2200,1303A,117.0624,36.6868,济南市,省种子仓库,,,105,74,58,31,,,57,57,63,55,9,9,0.8,0.9
2025-10-30T2200,1304A,116.9489,36.6447,济南市,机床二厂,细颗粒物(PM2.5),89,112,75,66,38,18,,55,36,76,50,10,10,0.5,0.3
2025-10-30T2200,1305A,117.0495,36.663,济南市,市监测站,细颗粒物(PM2.5),95,103,63,71,31,24,,57,46,66,46,4,4,1.0,0.8
2025-10-30T2200,1306A,116.7675,36.5484,济南市,长清党校,颗粒物(PM10),75,100,68,39,28,28,,79,44,66,35,8,9,0.6,0.5
2025-10-30T2200,1616A,117.6795,36.229,济南市,技术学院,颗粒物(PM10),53,56,47,36,28,40,,90,70,42,33,10,13,0.7,0.7
2025-10-30T2200,1961A,117.532,36.6868,济南市,东山小学,细颗粒物(PM2.5),104,125,71,78,35,2,,73,31,86,42,10,10,0.9,0.6
2025-10-30T2200,3059A,117.7161,36.2049,济南市,泰兴公司,颗粒物(PM10),59,68,59,36,30,2,,81,48,65,40,13,14,0.9,0.6
2025-10-30T2200,3064A,117.6867,36.2171,济南市,莱芜战役纪念馆,细颗粒物(PM2.5),58,63,53,41,34,44,,83,65,43,34,15,16,0.4,0.4
2025-10-30T2200,3494A,117.1673,36.9782,济南市,济阳区政府,颗粒物(PM10),51,51,72,34,33,73,,64,63,23,44,7,8,0.5,0.6
2025-10-30T2200,3495A,117.1171,36.63,济南市,锦屏中学,颗粒物(PM10),63,76,52,44,24,21,,68,45,45,33,5,6,1.0,0.7
2025-10-30T2200,3682A,116.9814,36.6819,济南市,济南四建,细颗粒物(PM2.5),74,92,67,54,33,25,,39,34,58,55,7,7,0.9,0.8
2025-10-30T2200,1653A,116.6251,35.4302,济宁市,火炬城,细颗粒物(PM2.5),122,98,68,92,46,46,,121,108,42,23,7,8,0.4,0.3
2025-10-30T2200,1655A,116.5491,35.4042,济宁市,电化厂,细颗粒物(PM2.5),110,125,81,83,43,20,,121,96,76,32,4,5,0.5,0.4
2025-10-30T2200,3500A,116.5814,35.3707,济宁市,北湖一中,细颗粒物(PM2.5),98,,53,73,43,32,,120,105,54,23,6,7,0.5,0.4
2025-10-30T2200,3501A,116.8249,35.5593,济宁市,服务中心,细颗粒物(PM2.5),69,86,61,50,30,45,,110,91,40,26,8,9,0.5,0.4
2025-10-30T2200,3678A,116.5907,35.4054,济宁市,市第七中学,细颗粒物(PM2.5),94,103,76,70,41,37,,129,113,62,25,8,10,0.5,0.4
2025-10-30T2200,2255A,130.2751,46.8028,佳木斯市,佳纺,细颗粒物(PM2.5),62,70,92,44,72,21,,51,26,37,23,4,6,0.4,0.6
2025-10-30T2200,2256A,130.3995,46.8307,佳木斯市,发电厂,,40,39,74,28,71,46,,57,43,24,17,11,6,0.4,0.4
2025-10-30T2200,2257A,130.3258,46.7975,佳木斯市,环保局,,50,44,77,35,73,52,,53,33,13,18,4,5,0.4,0.6
2025-10-30T2200,2258A,130.3648,46.8032,佳木斯市,十一中,,44,44,76,18,70,39,,52,34,24,18,8,8,0.5,0.6
2025-10-30T2200,2259A,130.3794,46.7588,佳木斯市,四丰,,,,,,,,,,,,,,,,
2025-10-30T2200,1252A,120.7436,30.778,嘉兴市,清河小学,,24,24,32,14,15,26,,41,40,36,39,8,9,0.7,0.7
2025-10-30T2200,1253A,120.726,30.7478,嘉兴市,嘉兴学院,,,19,31,12,15,,,41,,29,35,4,5,0.4,0.6
2025-10-30T2200,2872A,120.7846,30.7525,嘉兴市,南湖区残联,,15,15,29,10,17,43,,50,50,28,37,5,6,0.5,0.5
2025-10-30T2200,3407A,120.6916,30.7739,嘉兴市,秀洲住建,,22,22,30,12,14,35,,45,44,34,41,8,8,0.5,0.5
2025-10-30T2200,1945A,98.2908,39.7711,嘉峪关市,气象局,颗粒物(PM10),102,153,106,48,32,11,,104,90,84,22,12,18,1.2,0.9
2025-10-30T2200,2884A,98.2672,39.7978,嘉峪关市,酒钢宾馆,颗粒物(PM10),92,134,112,48,37,45,,96,90,44,17,21,35,1.0,1
2025-10-30T2200,3248A,98.2643,39.7724,嘉峪关市,雄关区,颗粒物(PM10),92,133,94,64,39,7,,98,82,89,32,12,12,0.5,0.6
2025-10-30T2200,1383A,113.1064,22.6058,江门市,北街,,50,46,69,35,50,31,,123,97,41,52,6,8,0.6,0.7
2025-10-30T2200,1384A,113.0731,22.5835,江门市,西区,,49,49,66,26,41,32,,119,95,38,47,6,8,0.4,0.5
2025-10-30T2200,1385A,113.0219,22.5311,江门市,圭峰西,,32,28,63,22,48,52,,128,109,24,40,5,7,0.5,0.6
2025-10-30T2200,1386A,113.0828,22.5947,江门市,东湖,细颗粒物(PM2.5),53,42,68,37,45,32,,113,92,34,42,6,7,0.5,0.6
2025-10-30T2200,3311A,113.1075,22.5647,江门市,江海富民,颗粒物(PM10),62,73,87,34,44,32,,133,104,39,46,9,11,0.6,0.8
2025-10-30T2200,3449A,113.05,22.4667,江门市,新会银湖,细颗粒物(PM2.5),53,44,64,37,51,36,,141,112,31,42,5,7,0.7,0.8
2025-10-30T2200,1830A,113.1992,35.2590,焦作市,影视城,,,,115,,96,,,63,,,23,,11,,0.8
2025-10-30T2200,3335A,113.3137,35.2641,焦作市,马村街道办,细颗粒物(PM2.5),189,182,161,142,127,22,,84,65,32,30,5,6,1.0,0.9
2025-10-30T2200,3336A,113.2465,35.2373,焦作市,焦作技师学院,细颗粒物(PM2.5),208,192,170,158,145,20,,81,61,41,34,5,6,1.5,1.3
2025-10-30T2200,3477A,113.1656,35.2539,焦作市,中站许衡医院,细颗粒物(PM2.5),189,206,151,142,113,20,,86,64,42,29,5,6,1.2,0.9
2025-10-30T2200,3981A,113.2449,35.1803,焦作市,原李万街道办,细颗粒物(PM2.5),206,199,180,156,147,26,,73,60,25,31,9,11,1.4,1.3
2025-10-30T2200,4264A,113.2340,35.2190,焦作市,新安路1731号,细颗粒物(PM2.5),201,201,183,151,147,30,,79,64,29,31,6,7,1.4,1.2
2025-10-30T2200,4295A,113.2722,35.2121,焦作市,人民路3066号,细颗粒物(PM2.5),179,181,176,135,130,22,,73,58,41,42,6,7,1.3,1.2
2025-10-30T2200,1708A,116.3701,23.5345,揭阳市,新兴,,35,28,46,24,27,36,,106,72,21,23,6,9,0.7,0.6
2025-10-30T2200,1709A,116.3264,23.5443,揭阳市,西马,,,,54,,25,37,,103,68,,21,4,6,0.6,0.9
2025-10-30T2200,1710A,116.3611,23.5626,揭阳市,东兴,,37,37,50,20,24,26,,99,60,24,22,5,7,0.7,0.5
2025-10-30T2200,1711A,116.4151,23.5294,揭阳市,渔湖,,38,38,49,12,20,34,,126,75,22,24,4,8,0.6,0.6
2025-10-30T2200,3320A,116.403,23.5699,揭阳市,曲溪,,25,25,43,15,22,39,,109,76,20,21,2,4,0.6,0.5
2025-10-30T2200,1944A,102.1692,38.5167,金昌市,天庆家园,颗粒物(PM10),65,80,90,23,31,67,,85,71,17,21,4,6,0.5,0.6
2025-10-30T2200,4022A,102.1647,38.5371,金昌市,金川区人防中心,细颗粒物(PM2.5),77,83,82,56,66,64,,82,78,19,17,5,6,0.8,0.6
2025-10-30T2200,4239A,102.1930,38.5319,金昌市,长春路96号,,,98,79,34,29,,,88,76,23,18,7,16,0.6,0.6
2025-10-30T2200,1262A,119.647,29.077,金华市,十五中,,30,28,46,21,26,4,,25,8,53,53,5,5,0.7,0.6
2025-10-30T2200,1263A,119.686,29.1029,金华市,监测站,,27,24,50,16,25,0,,23,2,54,53,2,3,0.5,0.4
2025-10-30T2200,3659A,119.656,29.1131,金华市,气象局,,35,26,39,24,27,0,,25,5,58,54,4,5,0.8,0.6
2025-10-30T2200,1767A,121.1115,41.0879,锦州市,南山,细颗粒物(PM2.5),135,,51,103,41,7,,69,44,57,25,9,14,1.8,0.8
2025-10-30T2200,1768A,121.0604,40.8428,锦州市,开发区,颗粒物(PM10),109,167,61,67,44,4,,61,36,79,38,12,14,1.1,0.8
2025-10-30T2200,1769A,121.1836,41.1119,锦州市,百股街道,细颗粒物(PM2.5),67,77,55,48,40,4,,69,39,56,24,12,13,1.0,0.9
2025-10-30T2200,1770A,121.1178,41.1222,锦州市,天安街道,颗粒物(PM10),66,81,48,37,37,6,,68,40,61,21,11,10,1.1,0.9
2025-10-30T2200,1771A,121.1303,41.1386,锦州市,北湖公园,颗粒物(PM10),54,58,51,26,34,31,,66,40,37,22,11,9,0.7,0.7
2025-10-30T2200,2160A,112.85,35.5051,晋城市,自来水公司,细颗粒物(PM2.5),201,202,144,151,106,65,,92,85,23,26,5,6,1.0,1.3
2025-10-30T2200,2161A,112.8318,35.4936,晋城市,白云商贸,细颗粒物(PM2.5),195,194,150,146,95,57,,78,74,22,27,2,4,0.8,1.2
2025-10-30T2200,2162A,112.8508,35.4887,晋城市,市环保局,细颗粒物(PM2.5),175,195,142,132,88,62,,96,87,13,17,4,5,1.4,1.5
2025-10-30T2200,2163A,112.8676,35.4897,晋城市,技术学院,细颗粒物(PM2.5),195,205,133,146,92,58,,87,80,24,28,4,6,1.2,1.2
2025-10-30T2200,2165A,112.8453,35.546,晋城市,白马寺,细颗粒物(PM2.5),172,153,119,130,94,76,,99,94,14,17,7,10,1.2,1.6
2025-10-30T2200,3620A,112.8271,35.4828,晋城市,泽州一中,细颗粒物(PM2.5),218,223,161,168,110,70,,97,90,23,25,2,4,1.1,1.3
2025-10-30T2200,2173A,112.7249,37.7067,晋中市,南都小区,细颗粒物(PM2.5),123,127,102,93,68,47,,61,60,39,31,6,8,0.8,1
2025-10-30T2200,2174A,112.6991,37.6982,晋中市,榆次区政府,细颗粒物(PM2.5),140,119,105,107,85,50,,55,55,39,35,7,9,0.9,1.1
2025-10-30T2200,2865A,112.7195,37.6828,晋中市,榆次三中,细颗粒物(PM2.5),122,114,103,92,68,55,,58,57,23,33,8,11,0.5,0.6
2025-10-30T2200,4200A,112.7478,37.6954,晋中市,迎宾街26号,细颗粒物(PM2.5),125,117,93,95,70,53,,63,62,30,26,6,7,0.7,0.7
2025-10-30T2200,2439A,112.2014,31.0481,荆门市,竹园小学,细颗粒物(PM2.5),109,116,114,82,94,23,,92,64,42,20,1,2,0.9,0.9
2025-10-30T2200,2440A,112.1969,30.9891,荆门市,掇刀,细颗粒物(PM2.5),123,126,116,93,99,8,,98,60,52,21,1,1,0.9,0.7
2025-10-30T2200,2441A,112.2213,31.0386,荆门市,石化一小,,,,120,,98,4,,89,64,50,27,4,3,0.8,0.8
2025-10-30T2200,3012A,112.1849,31.0362,荆门市,西山林语,细颗粒物(PM2.5),99,99,110,74,89,38,,91,64,14,15,2,4,0.5,0.7
2025-10-30T2200,3547A,112.1632,31.0138,荆门市,龙泉中学南校,细颗粒物(PM2.5),77,61,71,56,57,56,,96,72,20,20,5,5,0.3,0.4
2025-10-30T2200,1844A,112.2494,30.3197,荆州市,市图书馆,细颗粒物(PM2.5),82,76,78,60,61,27,,104,83,44,30,5,6,1.2,0.8
2025-10-30T2200,1845A,112.2008,30.3544,荆州市,市委党校,细颗粒物(PM2.5),94,104,94,70,63,22,,99,87,50,27,7,7,1.3,1
2025-10-30T2200,3194A,112.2747,30.3122,荆州市,管委会,细颗粒物(PM2.5),92,103,85,68,65,6,,99,70,66,29,6,5,2.0,1
2025-10-30T2200,4268A,112.1722,30.3366,荆州市,学苑路85号,细颗粒物(PM2.5),109,84,80,82,90,65,,110,96,45,23,5,7,0.6,0.6
2025-10-30T2200,2342A,117.3102,29.3867,景德镇市,王港中学,,,,,,,,,,,,,,,,
2025-10-30T2200,2343A,117.2117,29.2933,景德镇市,老干部活动中心,细颗粒物(PM2.5),65,,18,47,16,33,,59,37,10,8,4,3,0.8,0.4
2025-10-30T2200,2344A,117.1894,29.2789,景德镇市,兽医站,,41,41,26,27,13,33,,61,36,17,13,5,6,0.6,0.3
2025-10-30T2200,2346A,117.2461,29.2956,景德镇市,陶研所,细颗粒物(PM2.5),58,,17,41,16,30,,62,37,11,6,6,6,0.9,0.6
2025-10-30T2200,4289A,117.1542,29.2566,景德镇市,青少年活动中心,细颗粒物(PM2.5),53,45,24,37,15,35,,62,37,16,13,3,4,0.9,0.6
2025-10-30T2200,1803A,115.9872,29.6815,九江市,十里,细颗粒物(PM2.5),114,100,125,86,113,36,,58,50,35,32,4,5,1.3,1.1
2025-10-30T2200,1804A,115.9584,29.7046,九江市,茅山头,细颗粒物(PM2.5),103,94,117,77,105,28,,52,42,28,27,6,8,1.0,0.9
2025-10-30T2200,1805A,115.9877,29.7295,九江市,西园,细颗粒物(PM2.5),94,79,115,70,101,31,,66,52,52,46,8,10,1.1,0.9
2025-10-30T2200,1808A,115.9114,29.6038,九江市,综合工业园,细颗粒物(PM2.5),85,82,118,63,106,33,,52,49,34,44,2,2,1.0,0.8
2025-10-30T2200,1809A,116.0721,29.7535,九江市,石化总厂,细颗粒物(PM2.5),99,84,133,74,109,17,,60,48,56,37,6,5,0.9,0.9
2025-10-30T2200,1810A,115.9773,29.5698,九江市,庐山气象台,,,,,,,,,,,,,,,,
2025-10-30T2200,3190A,116.0254,29.6994,九江市,外国语学校,细颗粒物(PM2.5),108,91,118,81,106,33,,55,47,46,42,6,6,1.2,1
2025-10-30T2200,4253A,116.0102,29.6594,九江市,莲花大道8号,细颗粒物(PM2.5),125,97,125,95,124,44,,53,51,18,23,7,7,1.0,0.9
2025-10-30T2200,4240A,98.4958,39.7339,酒泉市,玉门东路5号,颗粒物(PM10),109,168,126,62,36,32,,98,81,54,23,13,16,0.9,0.5
2025-10-30T2200,4241A,98.5099,39.7506,酒泉市,北大街108号,颗粒物(PM10),112,173,120,73,38,22,,96,75,58,23,11,14,1.1,0.6
2025-10-30T2200,2698A,76.0072,39.4467,喀什地区,巡警大队,颗粒物(PM10),153,256,189,84,59,5,,95,85,102,53,14,6,2.9,1.1
2025-10-30T2200,2699A,75.9755,39.4694,喀什地区,吾办,颗粒物(PM10),141,231,184,86,68,4,,84,74,88,48,4,3,1.7,1.2
2025-10-30T2200,4027A,75.9483,39.4689,喀什地区,老干局,颗粒物(PM10),130,210,179,80,52,7,,92,84,104,57,3,3,1.7,1
2025-10-30T2200,1824A,114.3389,34.7781,开封市,肿瘤医院,细颗粒物(PM2.5),175,190,132,132,80,41,,97,74,38,39,7,7,1.1,0.9
2025-10-30T2200,1826A,114.2885,34.7965,开封市,世纪星幼儿园,细颗粒物(PM2.5),200,163,123,150,98,38,,90,70,37,32,7,8,1.1,0.8
2025-10-30T2200,3147A,114.3438,34.8106,开封市,龙亭公园,细颗粒物(PM2.5),201,209,130,151,95,33,,88,64,37,34,9,9,1.1,1
2025-10-30T2200,3210A,114.3644,34.7964,开封市,汴京公园,细颗粒物(PM2.5),178,216,133,134,83,36,,96,72,39,40,8,8,1.0,0.8
2025-10-30T2200,3473A,114.2485,34.8306,开封市,技师学院,细颗粒物(PM2.5),210,178,124,160,105,25,,90,65,43,28,9,9,1.1,0.9
2025-10-30T2200,3592A,114.4644,34.7556,开封市,祥符区生态环境局,颗粒物(PM10),125,200,121,94,59,27,,99,67,47,52,6,6,1.0,0.8
2025-10-30T2200,1951A,84.895,45.6094,克拉玛依市,长征新村,,46,46,33,20,14,16,,62,50,46,17,2,2,0.5,0.3
2025-10-30T2200,1952A,84.8988,45.5893,克拉玛依市,南林小区,颗粒物(PM10),54,58,36,17,13,16,,62,50,38,16,2,3,0.7,0.6
2025-10-30T2200,1954A,84.905,44.3396,克拉玛依市,独山子区,颗粒物(PM10),97,144,133,50,52,5,,70,52,75,30,6,7,1.2,0.6
2025-10-30T2200,1955A,85.6979,46.098,克拉玛依市,乌尔禾区商贸楼,颗粒物(PM10),55,59,33,22,13,21,,65,59,41,22,5,5,0.4,0.3
2025-10-30T2200,3612A,85.1045,45.6899,克拉玛依市,白碱滩区新站,,44,44,37,8,14,61,,75,70,5,3,5,5,0.2,0.2
2025-10-30T2200,2697A,76.1454,39.7142,克孜勒苏柯尔克孜自治州,市人民政府,颗粒物(PM10),103,156,111,66,42,41,,103,89,49,15,7,8,0.3,0.1
2025-10-30T2200,3665A,76.1658,39.7157,克孜勒苏柯尔克孜自治州,克州文化中心,颗粒物(PM10),97,143,122,57,41,53,,104,93,47,21,8,10,0.6,0.4
2025-10-30T2200,1450A,102.8204,24.8886,昆明市,呈贡新区,细颗粒物(PM2.5),83,,25,61,35,11,,61,43,32,19,9,5,1.0,0.8
2025-10-30T2200,1451A,102.6251,24.9608,昆明市,西山森林公园,,,,,,,,,,,,,,,,
2025-10-30T2200,1452A,102.7252,25.0902,昆明市,龙泉镇,,39,39,31,24,16,19,,42,,17,20,2,2,0.6,0.5
2025-10-30T2200,1453A,102.7266,25.0375,昆明市,东风东路,颗粒物(PM10),52,54,34,28,18,14,,50,29,24,16,2,2,0.6,0.5
2025-10-30T2200,1454A,102.6742,25.0669,昆明市,金鼎山,,39,39,29,26,15,17,,58,40,19,13,1,2,0.6,0.4
2025-10-30T2200,1455A,102.6644,25.0401,昆明市,碧鸡广场,颗粒物(PM10),53,55,32,36,16,11,,55,36,28,19,8,9,0.6,0.5
2025-10-30T2200,3179A,102.7494,25.0119,昆明市,官渡区博物馆,,47,47,30,22,13,5,,45,19,38,21,2,2,0.6,0.5
2025-10-30T2200,3375A,102.8017,24.8336,昆明市,青年创业园,细颗粒物(PM2.5),59,54,26,42,18,22,,63,53,21,12,2,2,0.7,0.7
2025-10-30T2200,3550A,102.7997,24.9786,昆明市,昆明学院,颗粒物(PM10),55,60,42,32,22,8,,35,15,30,23,8,9,0.8,0.7
2025-10-30T2200,3551A,102.5967,24.6736,昆明市,晋宁区生态环境分局,颗粒物(PM10),58,65,24,34,14,28,,66,56,23,12,2,2,0.7,0.4
2025-10-30T2200,3552A,102.6678,24.9856,昆明市,云天化总部,,,53,27,30,17,9,,60,42,39,17,4,5,,0.6
2025-10-30T2200,1456A,91.1319,29.6514,拉萨市,八廓街,,19,11,16,10,10,60,,95,85,11,17,5,5,0.3,0.3
2025-10-30T2200,1457A,91.1221,29.6747,拉萨市,市环保局,,16,14,18,10,9,51,,88,79,12,16,7,7,0.2,0.2
2025-10-30T2200,1458A,91.0874,29.6475,拉萨市,区监测站,,19,7,15,6,8,58,,86,79,16,30,4,4,0.2,0.3
2025-10-30T2200,1459A,91.1774,29.6541,拉萨市,西藏大学,,19,15,16,10,8,58,,91,82,14,23,4,5,0.3,0.5
2025-10-30T2200,1460A,90.9798,29.6588,拉萨市,区辐射站,,16,11,23,8,12,51,,74,68,22,36,5,6,0.4,0.4
2025-10-30T2200,1461A,91.0834,29.6292,拉萨市,拉萨火车站,,20,10,19,8,9,63,,86,82,9,20,5,5,0.3,0.4
2025-10-30T2200,2520A,109.2203,23.7256,来宾市,来宾技工学校,细颗粒物(PM2.5),64,60,55,46,49,48,,71,66,12,11,8,8,0.7,1
2025-10-30T2200,3535A,109.1781,23.7297,来宾市,兴宾区政府,细颗粒物(PM2.5),57,50,53,40,43,34,,74,64,10,10,8,8,0.8,0.8
2025-10-30T2200,4002A,109.2416,23.7461,来宾市,中南小学,细颗粒物(PM2.5),64,58,55,46,47,39,,68,60,16,13,7,6,1.0,0.9
2025-10-30T2200,1477A,104.1373,35.9454,兰州市,榆中兰大校区,,,,,,,,,,,,,,,,
2025-10-30T2200,1479A,103.831,36.0464,兰州市,铁路设计院,,,,,,,,,,,,,,,,
2025-10-30T2200,3241A,103.7439,36.0842,兰州市,百合公园,颗粒物(PM10),78,105,73,52,36,3,,86,61,87,48,3,7,1.2,0.9
2025-10-30T2200,3242A,103.9611,35.998,兰州市,和平,颗粒物(PM10),67,83,77,34,34,60,,106,88,27,25,6,11,0.4,0.7
2025-10-30T2200,4236A,103.6293,36.0938,兰州市,庄浪东路808号,颗粒物(PM10),68,85,91,46,43,25,,100,70,70,56,8,15,0.6,0.7
2025-10-30T2200,4237A,103.7251,36.1043,兰州市,安宁西路88号,颗粒物(PM10),84,117,93,51,46,17,,109,85,88,51,6,8,0.9,0.6
2025-10-30T2200,4238A,103.8470,36.0676,兰州市,北滨河东路1号,颗粒物(PM10),81,111,90,48,40,2,,88,68,94,59,10,16,0.9,1
2025-10-30T2200,3245A,103.6633,36.533,兰州新区,新区管委会,颗粒物(PM10),58,65,63,31,33,89,,107,103,8,14,7,10,0.3,0.4
2025-10-30T2200,3246A,103.6975,36.4789,兰州新区,舟曲中学,颗粒物(PM10),56,61,77,19,30,98,,112,106,8,20,3,10,0.3,0.4
2025-10-30T2200,1067A,116.6708,39.5111,廊坊市,药材公司,,28,28,160,17,138,25,,12,12,26,46,1,2,0.6,1
2025-10-30T2200,1068A,116.7214,39.5589,廊坊市,开发区,,29,26,149,20,120,21,,13,13,25,41,3,1,0.4,0.8
2025-10-30T2200,1070A,116.7244,39.5269,廊坊市,北华航天学院,颗粒物(PM10),101,152,185,18,133,22,,14,14,26,45,2,4,0.4,0.9
2025-10-30T2200,2919A,116.7022,39.5453,廊坊市,河北工业大学,,,,167,23,127,17,,11,11,25,39,2,3,0.4,0.9
2025-10-30T2200,2535A,103.7723,29.5462,乐山市,花湖湾,,,,,,,,,,,,,,,,
2025-10-30T2200,2536A,103.7627,29.5844,乐山市,牛耳桥,,30,27,27,21,23,30,,53,49,28,21,6,7,0.7,0.7
2025-10-30T2200,2537A,103.7508,29.6006,乐山市,市第三水厂,,31,31,28,20,21,39,,55,53,20,18,5,5,0.7,0.7
2025-10-30T2200,2538A,103.7571,29.5664,乐山市,市监测站,,28,23,27,19,21,37,,56,53,15,15,6,6,0.7,0.7
2025-10-30T2200,3361A,103.7311,29.5628,乐山市,理工大学,,33,30,27,23,21,27,,61,54,23,14,8,8,0.6,0.6
2025-10-30T2200,2598A,100.2143,26.8576,丽江市,西南郊,,19,19,14,8,6,47,,61,51,8,7,7,6,0.9,0.7
2025-10-30T2200,2599A,100.2497,26.8802,丽江市,丽江古城,,21,21,19,12,9,43,,56,50,13,12,9,9,0.6,0.5
2025-10-30T2200,2600A,100.2203,26.8906,丽江市,市中心,,26,,14,18,12,36,,59,46,20,14,10,10,0.5,0.4
2025-10-30T2200,1267A,119.914,28.4514,丽水市,监测站大楼,,12,,18,8,10,17,,33,19,22,24,5,5,0.4,0.4
2025-10-30T2200,1268A,119.93,28.4586,丽水市,莲都小学,,13,12,19,6,8,13,,34,17,26,24,4,4,0.4,0.3
2025-10-30T2200,1269A,119.879,28.4231,丽水市,余庄前,,17,17,17,8,9,4,,14,13,25,21,3,3,0.4,0.3
2025-10-30T2200,1173A,119.176,34.5885,连云港市,市环境监测站,,32,27,23,22,10,40,,76,57,26,17,6,6,0.5,0.4
2025-10-30T2200,3000A,119.3581,34.6972,连云港市,德源药业,,24,24,24,12,10,30,,65,46,36,23,5,5,0.3,0.5
2025-10-30T2200,3007A,119.178,34.844,连云港市,新城一中,,36,34,30,18,10,13,,66,32,71,48,6,6,0.7,0.5
2025-10-30T2200,3008A,119.3608,34.7519,连云港市,胡沟管理处,,20,14,14,12,4,61,,79,74,25,21,8,10,0.2,0.3
2025-10-30T2200,3009A,119.1478,34.5911,连云港市,矿山设计院,,39,31,25,27,14,30,,74,56,21,12,4,4,0.6,0.5
2025-10-30T2200,3434A,119.2413,34.6539,连云港市,工贸学校,,20,20,19,12,9,63,,87,75,12,10,9,9,0.6,0.6
2025-10-30T2200,3664A,119.4172,34.7341,连云港市,连云街道,,24,24,21,14,9,73,,94,84,20,13,4,5,0.3,0.4
2025-10-30T2200,2571A,102.3431,27.8099,凉山彝族自治州,青龙寺,,,,,,,,,,,,,,,,
2025-10-30T2200,2572A,102.2721,27.8415,凉山彝族自治州,邛海宾馆,,15,12,21,7,11,45,,60,55,10,9,11,9,0.6,0.6
2025-10-30T2200,2573A,102.2625,27.898,凉山彝族自治州,西昌市政府,,25,18,15,17,8,33,,58,53,10,8,6,6,0.6,0.5
2025-10-30T2200,2574A,102.2685,27.8851,凉山彝族自治州,凉山州政府,,,20,14,,14,36,,60,55,8,5,8,8,0.5,0.6
2025-10-30T2200,4229A,102.2342,27.8859,凉山彝族自治州,凯乐南路30号,,19,19,19,8,10,39,,64,52,26,18,7,10,0.8,0.7
2025-10-30T2200,2212A,123.2,41.1953,辽阳市,宏伟区,颗粒物(PM10),57,64,52,22,32,16,,57,35,44,24,28,18,0.6,0.6
2025-10-30T2200,2213A,123.1683,41.2495,辽阳市,新华园,颗粒物(PM10),55,59,48,33,30,21,,55,35,44,25,35,9,0.6,0.5
2025-10-30T2200,2214A,123.2354,41.2639,辽阳市,滨河路,颗粒物(PM10),72,93,65,46,32,5,,52,26,57,27,27,15,1.2,0.7
2025-10-30T2200,2215A,123.149,41.2991,辽阳市,铁西工业园,细颗粒物(PM2.5),93,127,65,69,34,0,,49,18,63,29,25,11,1.1,0.8
2025-10-30T2200,2227A,125.1358,42.8845,辽源市,环保局,颗粒物(PM10),79,107,67,47,20,7,,63,32,31,16,4,4,0.9,0.3
2025-10-30T2200,3239A,125.0764,42.9078,辽源市,银鹰制药,颗粒物(PM10),61,72,37,35,21,15,,70,35,48,18,10,5,0.8,0.5
2025-10-30T2200,1625A,115.9848,36.4372,聊城市,区政府,细颗粒物(PM2.5),176,216,112,133,63,7,,71,43,70,41,9,10,0.9,0.7
2025-10-30T2200,2878A,116.0072,36.4343,聊城市,聊大东校,细颗粒物(PM2.5),165,217,111,125,63,8,,74,50,72,40,7,9,0.9,0.7
2025-10-30T2200,3200A,115.9819,36.4978,聊城市,监控中心,细颗粒物(PM2.5),195,211,109,146,67,8,,70,40,56,36,9,11,1.0,0.8
2025-10-30T2200,3513A,116.0445,36.4361,聊城市,九州社区,细颗粒物(PM2.5),153,194,104,117,55,7,,78,52,59,30,2,3,0.7,0.5
2025-10-30T2200,4018A,116.0567,36.4608,聊城市,星美广场,细颗粒物(PM2.5),156,212,110,119,54,,,26,,80,31,3,6,0.8,0.6
2025-10-30T2200,2632A,94.3681,29.6376,林芝市,林芝监测站,,12,8,6,8,5,34,,54,48,13,5,4,3,0.4,0.4
2025-10-30T2200,2633A,94.3616,29.6616,林芝市,林芝人民医院,,15,12,12,10,7,32,,51,49,13,7,5,5,0.6,0.5
2025-10-30T2200,2603A,100.0781,23.8982,临沧市,市环保局,细颗粒物(PM2.5),55,,23,39,27,22,,53,43,9,7,6,5,0.7,0.7
2025-10-30T2200,2604A,100.0894,23.8822,临沧市,市气象局,,,,23,34,22,,,39,,12,9,9,7,0.9,0.5
2025-10-30T2200,1733A,111.5531,36.0783,临汾市,临钢医院,细颗粒物(PM2.5),134,181,153,102,93,5,,33,24,39,32,6,7,1.7,1.5
2025-10-30T2200,1734A,111.5028,36.0714,临汾市,技工学校,细颗粒物(PM2.5),158,193,159,120,103,0,,27,20,54,41,8,10,1.4,1.2
2025-10-30T2200,1736A,111.5018,36.0855,临汾市,市委,细颗粒物(PM2.5),166,199,161,126,108,0,,30,22,52,38,6,8,1.6,1.4
2025-10-30T2200,3018A,111.505,36.1014,临汾市,唐尧大酒店,细颗粒物(PM2.5),145,176,149,111,99,1,,35,26,46,31,4,5,1.5,1.4
2025-10-30T2200,4244A,111.4879,36.0530,临汾市,启星学校,细颗粒物(PM2.5),143,178,148,109,100,1,,27,21,54,42,7,9,1.6,1.4
2025-10-30T2200,4271A,103.2464,35.6123,临夏回族自治州,滨河东路1号,细颗粒物(PM2.5),148,204,118,113,65,5,,72,57,60,31,9,8,1.3,0.9
2025-10-30T2200,4310A,103.2093,35.5995,临夏回族自治州,新华街21号,细颗粒物(PM2.5),110,158,116,83,70,11,,85,70,66,28,11,9,1.6,1
2025-10-30T2200,1618A,118.3429,35.0532,临沂市,沂河小区,"颗粒物(PM10),细颗粒物(PM2.5)",57,63,50,40,29,33,,74,49,41,29,9,9,0.5,0.4
2025-10-30T2200,1619A,118.295,35.0583,临沂市,鲁南制药厂,细颗粒物(PM2.5),62,61,44,44,28,37,,78,56,41,29,12,11,0.7,0.6
2025-10-30T2200,1620A,118.2794,34.9976,临沂市,新光毛纺厂,细颗粒物(PM2.5),77,85,42,56,32,19,,77,53,68,33,9,10,0.5,0.4
2025-10-30T2200,1621A,118.3956,35.0888,临沂市,河东保险公司,颗粒物(PM10),67,83,56,46,28,4,,78,42,61,37,7,7,0.6,0.5
2025-10-30T2200,3370A,118.3564,35.0215,临沂市,十里堡居委,,49,46,42,34,21,41,,80,56,46,33,11,10,0.6,0.4
2025-10-30T2200,3496A,118.3604,35.1084,临沂市,南坊新区,细颗粒物(PM2.5),70,78,47,51,24,22,,82,51,53,34,9,9,0.8,0.6
2025-10-30T2200,3860A,118.3920,35.0300,临沂市,皇山花园小区,颗粒物(PM10),58,66,46,33,23,35,,83,52,39,27,13,11,0.8,0.6
2025-10-30T2200,1870A,109.4856,24.3895,柳州市,柳东小学,细颗粒物(PM2.5),60,51,50,43,42,54,,64,63,10,14,5,6,0.7,0.6
2025-10-30T2200,1871A,109.4157,24.3277,柳州市,环保监测站,颗粒物(PM10),58,65,52,29,28,36,,65,57,27,15,9,10,0.9,0.8
2025-10-30T2200,1872A,109.389,24.341,柳州市,河西水厂,颗粒物(PM10),71,92,64,50,44,48,,68,63,22,17,8,7,0.6,0.5
2025-10-30T2200,1873A,109.4311,24.2921,柳州市,市四中,颗粒物(PM10),63,75,57,42,38,26,,54,48,29,20,9,9,1.0,0.7
2025-10-30T2200,1874A,109.4006,24.3631,柳州市,市九中,,,,52,48,44,34,,72,66,29,16,,4,,0.6
2025-10-30T2200,1875A,109.4958,24.3134,柳州市,古亭山,颗粒物(PM10),58,65,52,33,37,15,,56,43,22,18,6,9,0.7,0.7
2025-10-30T2200,3402A,109.5422,24.3996,柳州市,市二中,细颗粒物(PM2.5),58,48,48,41,39,26,,63,53,22,18,7,7,0.7,0.6
2025-10-30T2200,2307A,116.5079,31.737,六安市,监测大楼,细颗粒物(PM2.5),95,,68,71,75,55,,55,55,14,28,3,3,0.4,0.5
2025-10-30T2200,2308A,116.4738,31.7643,六安市,皖西学院,细颗粒物(PM2.5),90,67,79,67,77,43,,53,52,16,29,2,3,0.4,0.5
2025-10-30T2200,2309A,116.4996,31.7905,六安市,朝阳厂,细颗粒物(PM2.5),79,,65,58,67,42,,46,45,18,38,4,4,0.4,0.5
2025-10-30T2200,2310A,116.5567,31.7886,六安市,开发区,细颗粒物(PM2.5),73,65,74,53,54,44,,46,45,15,40,2,2,0.5,0.5
2025-10-30T2200,2576A,104.8,26.5892,六盘水市,窑上,,26,26,23,13,10,12,,57,36,4,6,2,2,0.6,0.5
2025-10-30T2200,2577A,104.83,26.5917,六盘水市,黄土坡,,31,31,17,12,8,34,,56,47,19,15,6,8,1.0,0.8
2025-10-30T2200,2578A,104.89,26.5939,六盘水市,水钢,,42,42,24,19,10,44,,51,50,12,17,7,11,0.7,1.1
2025-10-30T2200,2579A,104.8475,26.5894,六盘水市,民中,,29,29,19,17,10,25,,54,37,28,16,6,7,0.9,0.8
2025-10-30T2200,2580A,104.9544,26.5506,六盘水市,双水,,31,31,21,12,10,48,,57,54,12,13,4,6,0.5,0.6
2025-10-30T2200,2335A,117.0189,25.1181,龙岩市,龙岩师专,,,,,,,,,,,,,,,,
2025-10-30T2200,2336A,117.0217,25.1033,龙岩市,龙岩市监测站,,32,28,21,22,14,20,,83,60,35,15,8,11,0.5,0.4
2025-10-30T2200,2337A,117.0258,25.0661,龙岩市,闽西职业技术学院,,31,31,22,18,13,21,,88,60,30,12,8,8,0.4,0.5
2025-10-30T2200,2338A,117.0196,25.0306,龙岩市,龙岩学院,,22,19,19,15,13,32,,86,67,16,11,5,6,0.4,0.4
2025-10-30T2200,2665A,105.0822,33.3261,陇南市,汉王镇固水子,,,,,,,,,,,,,,,,
2025-10-30T2200,2885A,104.9339,33.3826,陇南市,滨江中学,颗粒物(PM10),79,108,54,43,28,2,,46,26,41,20,8,7,1.2,0.7
2025-10-30T2200,3247A,104.955,33.371,陇南市,市总工会,颗粒物(PM10),58,65,44,23,22,20,,52,46,25,13,7,8,0.5,0.5
2025-10-30T2200,2487A,111.9589,27.8901,娄底市,电视发射台,,,,,,,,,,,,,,,,
2025-10-30T2200,2488A,111.9975,27.725,娄底市,市监测站,,45,42,54,31,40,54,,93,67,18,18,7,8,0.6,0.5
2025-10-30T2200,2489A,112.0194,27.7314,娄底市,市委党校,,49,39,51,34,43,52,,86,62,13,15,4,4,0.8,0.8
2025-10-30T2200,2490A,111.9561,27.7569,娄底市,涟钢,,46,39,57,32,45,49,,64,46,14,21,7,8,0.4,0.9
2025-10-30T2200,2491A,111.9892,27.7044,娄底市,市政府,,32,30,53,22,46,47,,91,65,14,13,8,8,0.9,0.9
2025-10-30T2200,1893A,105.4324,28.9634,泸州市,九狮山,,,,,,,,,,,,,,,,
2025-10-30T2200,1894A,105.4427,28.9063,泸州市,小市上码头,,35,35,27,21,19,35,,52,49,18,14,8,8,0.5,0.4
2025-10-30T2200,1895A,105.4241,28.8573,泸州市,兰田宪桥,,,42,30,23,19,,,59,56,21,11,6,5,0.5,0.5
2025-10-30T2200,1896A,105.4379,28.8833,泸州市,市环监站,,39,39,33,23,19,33,,56,52,22,18,9,9,0.5,0.5
2025-10-30T2200,4272A,105.3689,28.7783,泸州市,纳溪中医医院,,39,35,28,27,22,28,,71,62,33,17,7,5,0.6,0.5
2025-10-30T2200,2183A,111.1406,37.5211,吕梁市,环保局,颗粒物(PM10),86,122,81,33,31,2,,43,33,68,44,4,6,0.6,0.9
2025-10-30T2200,2185A,111.1297,37.5136,吕梁市,自来水公司,颗粒物(PM10),75,99,91,33,30,23,,44,42,36,35,2,5,0.7,0.8
2025-10-30T2200,2867A,111.1283,37.51,吕梁市,马茂庄小学,颗粒物(PM10),83,116,97,28,31,0,,40,31,63,44,4,6,0.6,0.9
2025-10-30T2200,1812A,112.3931,34.6516,洛阳市,市委党校,细颗粒物(PM2.5),203,216,137,153,103,42,,83,69,38,36,6,8,1.2,1.1
2025-10-30T2200,1815A,112.494,34.6886,洛阳市,河南林校,细颗粒物(PM2.5),237,220,136,187,125,30,,77,64,38,33,8,8,1.0,0.9
2025-10-30T2200,1816A,112.3844,34.623,洛阳市,开发区管委会,细颗粒物(PM2.5),231,238,144,181,109,46,,91,75,35,29,7,8,1.1,1
2025-10-30T2200,1817A,112.4267,34.6258,洛阳市,市委新办公区,细颗粒物(PM2.5),203,243,152,153,94,40,,83,68,39,32,8,7,1.0,1
2025-10-30T2200,3340A,112.6005,34.6326,洛阳市,伊滨,细颗粒物(PM2.5),233,,116,183,120,34,,80,64,36,34,7,6,0.9,0.8
2025-10-30T2200,3341A,112.4951,34.6332,洛阳市,中移产业园,细颗粒物(PM2.5),224,251,161,174,113,32,,87,66,43,38,7,7,1.2,1.1
2025-10-30T2200,3593A,112.5736,34.8993,洛阳市,吉利监测站,细颗粒物(PM2.5),206,213,138,156,124,35,,87,71,36,32,8,8,1.2,1
2025-10-30T2200,3635A,112.3677,34.662,洛阳市,河科大西苑校区,细颗粒物(PM2.5),213,234,141,163,104,46,,87,74,37,37,7,9,1.1,1.1
2025-10-30T2200,3636A,112.4388,34.6781,洛阳市,英才小学,颗粒物(PM10),165,279,194,95,76,30,,76,61,41,39,6,7,1.2,1.2
2025-10-30T2200,4214A,112.4600,34.6949,洛阳市,春都路1号院,细颗粒物(PM2.5),198,190,125,148,99,27,,73,55,35,37,7,7,1.2,1.2
2025-10-30T2200,2399A,114.051,33.5699,漯河市,三五一五工厂,"颗粒物(PM10),细颗粒物(PM2.5)",107,163,130,80,69,55,,129,103,43,26,7,8,0.9,0.9
2025-10-30T2200,2400A,114.0055,33.5698,漯河市,漯河大学,细颗粒物(PM2.5),125,187,130,95,85,67,,139,114,40,27,6,7,0.6,0.8
2025-10-30T2200,2401A,114.0138,33.5828,漯河市,市水利局,颗粒物(PM10),124,197,135,92,81,66,,129,107,35,25,7,8,0.7,0.8
2025-10-30T2200,2402A,114.0261,33.5698,漯河市,市广电局,颗粒物(PM10),125,200,141,75,72,64,,134,113,42,27,5,6,0.7,0.7
2025-10-30T2200,3478A,113.9749,33.5664,漯河市,市图书馆,细颗粒物(PM2.5),118,181,148,89,78,68,,122,107,33,22,4,6,0.7,0.8
2025-10-30T2200,4250A,114.0892,33.5882,漯河市,韶山路11号,颗粒物(PM10),136,221,139,94,79,26,,120,102,71,31,7,8,0.7,0.7
2025-10-30T2200,1798A,118.5092,31.6837,马鞍山市,湖东路四小,,18,13,27,12,14,50,,53,47,16,26,5,7,0.4,0.4
2025-10-30T2200,1799A,118.5024,31.6449,马鞍山市,开发区,,19,16,31,13,15,43,,48,43,23,28,6,9,0.3,0.5
2025-10-30T2200,1802A,118.6245,31.7241,马鞍山市,濮塘,,,,,,,,,,,,,,,,
2025-10-30T2200,3633A,118.4918,31.6809,马鞍山市,雨山,,16,12,28,11,14,50,,56,48,18,26,4,7,0.4,0.5
2025-10-30T2200,4191A,118.5274,31.72227,马鞍山市,慈湖高新区,,21,21,34,10,16,54,,52,50,13,23,3,4,0.4,0.4
2025-10-30T2200,1686A,111.0286,21.4688,茂名市,电白南海,,,,67,,45,105,,140,137,29,17,8,9,0.5,0.5
2025-10-30T2200,1687A,110.9294,21.6533,茂名市,茂石化七小,细颗粒物(PM2.5),73,75,58,53,35,80,,101,96,27,16,15,9,0.7,0.6
2025-10-30T2200,1688A,110.9107,21.6687,茂名市,健康路,细颗粒物(PM2.5),64,63,48,46,31,97,,110,108,22,17,15,14,0.7,0.7
2025-10-30T2200,1689A,110.8592,21.6828,茂名市,高岭,颗粒物(PM10),71,92,66,46,33,76,,97,92,22,19,17,12,0.8,0.7
2025-10-30T2200,3450A,111.01,21.5165,茂名市,电白水东,"颗粒物(PM10),细颗粒物(PM2.5)",70,90,53,51,33,94,,115,114,28,16,12,11,0.9,0.8
2025-10-30T2200,2539A,104.0308,30.0478,眉山市,黑龙滩水库,,,,,,,,,,,,,,,,
2025-10-30T2200,2540A,103.8416,30.0874,眉山市,气象局,,49,49,50,27,30,46,,61,56,15,19,8,9,0.4,0.5
2025-10-30T2200,3137A,103.8578,30.0744,眉山市,市委党校,,32,27,33,22,22,48,,61,58,13,17,6,6,0.6,0.6
2025-10-30T2200,3148A,103.8291,30.0564,眉山市,区人社局,,40,40,47,17,26,48,,64,59,11,11,4,4,0.9,0.9
2025-10-30T2200,1690A,116.1231,24.3284,梅州市,梅江月梅,,42,35,29,29,23,30,,77,64,18,18,5,6,0.6,0.6
2025-10-30T2200,1691A,116.0797,24.2719,梅州市,梅县新城,,46,36,27,32,20,28,,77,64,25,20,8,9,0.5,0.5
2025-10-30T2200,1692A,116.1248,24.2654,梅州市,环境监控中心,,,,24,26,18,,,73,70,11,16,5,21,0.5,0.4
2025-10-30T2200,3315A,116.1233,24.2991,梅州市,梅龙,,31,31,23,19,13,51,,72,65,12,13,7,7,0.6,0.6
2025-10-30T2200,1878A,104.7778,31.4741,绵阳市,富乐山,,45,45,35,31,25,15,,26,24,12,15,8,8,0.5,0.6
2025-10-30T2200,1880A,104.6697,31.4668,绵阳市,高新区自来水公司,细颗粒物(PM2.5),67,61,46,48,34,0,,21,17,41,28,8,8,0.8,0.6
2025-10-30T2200,1881A,104.7287,31.5075,绵阳市,三水厂,细颗粒物(PM2.5),82,72,46,60,36,0,,23,17,37,24,6,6,0.8,0.7
2025-10-30T2200,3491A,104.69,31.5322,绵阳市,西科大附属小学,细颗粒物(PM2.5),57,59,43,40,28,2,,21,18,48,31,11,10,0.8,0.7
2025-10-30T2200,3492A,104.5648,31.5343,绵阳市,安州区旅游局,细颗粒物(PM2.5),52,,26,36,30,8,,17,15,26,23,7,7,0.8,0.7
2025-10-30T2200,4226A,104.7651,31.4531,绵阳市,绵阳市气象局,细颗粒物(PM2.5),64,63,44,46,32,13,,25,23,26,21,7,7,0.7,0.6
2025-10-30T2200,1784A,129.61,44.561,牡丹江市,环保大楼,,45,39,42,31,35,22,,57,34,26,22,6,6,0.4,0.5
2025-10-30T2200,1785A,129.6115,44.5782,牡丹江市,文化广场,细颗粒物(PM2.5),57,59,54,40,38,13,,60,41,40,26,11,7,0.8,0.5
2025-10-30T2200,1786A,129.5904,44.5963,牡丹江市,第一医院,细颗粒物(PM2.5),58,55,49,41,46,14,,64,39,32,22,5,4,0.7,0.4
2025-10-30T2200,1787A,129.6364,44.6075,牡丹江市,机车工厂,颗粒物(PM10),52,53,50,32,36,10,,64,43,38,24,48,14,0.6,0.5
2025-10-30T2200,1788A,129.6386,44.5462,牡丹江市,第一中学,,29,29,41,19,29,21,,63,33,24,23,3,3,0.4,0.4
2025-10-30T2200,2531A,105.0703,29.61,内江市,市监测站,,39,32,33,27,21,48,,65,60,8,12,4,4,0.5,0.7
2025-10-30T2200,2532A,105.0717,29.5947,内江市,东兴区政府,,39,30,25,27,18,43,,56,51,11,14,9,9,0.2,0.2
2025-10-30T2200,2533A,105.0653,29.5817,内江市,内江二中,,43,43,30,24,19,42,,57,52,14,16,4,4,0.6,0.6
2025-10-30T2200,2534A,105.0406,29.5822,内江市,内江日报社,,42,33,26,29,23,48,,61,57,11,18,3,3,0.4,0.5
2025-10-30T2200,2628A,92.0657,31.4846,那曲市,那曲监测站,,33,33,49,23,31,71,,88,83,29,31,8,9,0.7,1
2025-10-30T2200,4243A,92.0515,31.4787,那曲市,那曲市委宣传部,,27,6,27,3,17,84,,93,92,12,24,6,8,0.4,0.9
2025-10-30T2200,1290A,115.8931,28.6843,南昌市,省外办,细颗粒物(PM2.5),79,79,84,58,72,44,,60,48,17,24,4,5,1.2,1.1
2025-10-30T2200,1291A,115.8886,28.7003,南昌市,省林业公司,细颗粒物(PM2.5),85,63,69,63,66,40,,56,48,15,23,2,3,1.3,1.2
2025-10-30T2200,1292A,115.8126,28.7442,南昌市,林科所,细颗粒物(PM2.5),62,46,51,44,50,51,,66,45,17,20,4,5,0.9,0.8
2025-10-30T2200,1294A,115.8518,28.687,南昌市,建工学校,细颗粒物(PM2.5),77,64,83,56,67,47,,68,50,21,24,9,11,0.9,0.8
2025-10-30T2200,1295A,115.8921,28.6424,南昌市,象湖,细颗粒物(PM2.5),70,62,79,51,65,55,,64,54,13,22,7,8,1.0,0.9
2025-10-30T2200,1296A,115.7423,28.7996,南昌市,武术学校,,,,,,,,,,,,,,,,
2025-10-30T2200,3046A,115.9084,28.6062,南昌市,机电学校,细颗粒物(PM2.5),79,67,85,58,71,59,,67,60,13,22,6,8,0.8,0.7
2025-10-30T2200,3690A,115.9721,28.7031,南昌市,外国语学校,细颗粒物(PM2.5),85,72,86,63,84,41,,55,50,30,34,7,9,0.7,0.7
2025-10-30T2200,4192A,115.9316,28.68677,南昌市,南京东路235号,细颗粒物(PM2.5),87,76,94,64,78,51,,65,58,26,30,6,7,1.0,0.9
2025-10-30T2200,1905A,106.056,30.8064,南充市,西山风景区,,,,,,,,,,,,,,,,
2025-10-30T2200,1906A,106.0789,30.8023,南充市,南充市委,,43,41,33,30,26,21,,41,32,33,19,4,4,0.5,0.4
2025-10-30T2200,1907A,106.1031,30.8217,南充市,南充炼油厂,,45,45,41,27,28,36,,43,40,14,14,6,6,0.5,0.5
2025-10-30T2200,4227A,106.1083,30.7884,南充市,梨树横街98号,,37,37,34,25,22,29,,45,42,25,16,4,4,0.4,0.4
2025-10-30T2200,4304A,106.1172,30.843,南充市,清泉寺北路188号,,38,33,31,26,23,44,,49,45,9,12,7,6,0.3,0.4
2025-10-30T2200,4305A,106.067,30.7616,南充市,同庆路1号,,39,31,31,27,22,22,,42,30,33,21,6,7,0.6,0.5
2025-10-30T2200,1151A,118.8086,32.1065,南京市,迈皋桥,,16,14,24,9,12,50,,50,49,14,21,3,4,0.4,0.5
2025-10-30T2200,1152A,118.7538,32.0551,南京市,草场门,,20,,25,14,12,50,,54,53,22,29,8,9,0.3,0.4
2025-10-30T2200,1153A,118.7794,32.0745,南京市,山西路,,19,12,25,3,8,58,,65,64,11,17,4,4,0.5,0.6
2025-10-30T2200,1154A,118.7752,32.0023,南京市,中华门,,19,14,22,12,12,58,,64,63,19,25,4,4,0.3,0.4
2025-10-30T2200,1155A,118.8109,32.0309,南京市,瑞金路,,18,14,25,12,13,50,,58,56,20,21,4,4,0.4,0.4
2025-10-30T2200,1156A,118.7997,32.0754,南京市,玄武湖,,,14,25,3,7,46,,56,54,8,11,4,4,,0.9
2025-10-30T2200,1157A,118.6414,32.0931,南京市,浦口,,16,14,26,7,12,51,,55,54,22,28,6,7,0.3,0.4
2025-10-30T2200,1158A,118.7356,31.9996,南京市,奥体中心,,20,19,28,9,13,63,,65,65,19,26,4,5,0.3,0.4
2025-10-30T2200,1159A,118.9125,32.1028,南京市,仙林大学城,,18,12,28,3,10,55,,52,52,14,25,7,9,0.4,0.5
2025-10-30T2200,3422A,118.8436,31.9198,南京市,江宁彩虹桥,,20,16,30,14,13,45,,59,57,8,14,5,6,0.4,0.4
2025-10-30T2200,3427A,118.8554,32.3578,南京市,六合雄州,,,26,36,11,18,,,36,32,28,30,5,6,0.5,0.6
2025-10-30T2200,4249A,118.8708,31.3402,南京市,汶溪路181号,,18,11,21,3,17,57,,64,59,16,21,6,7,0.5,0.6
2025-10-30T2200,4312A,119.019,31.6512,南京市,中山西路1号,,16,9,21,8,13,51,,52,52,13,19,4,4,0.5,0.6
2025-10-30T2200,1401A,108.3103,22.7881,南宁市,二十一中,,30,,39,21,33,36,,64,49,17,16,2,3,0.8,0.7
2025-10-30T2200,1402A,108.3141,22.8528,南宁市,北湖,,33,25,50,23,37,43,,64,45,15,19,6,7,0.8,0.8
2025-10-30T2200,1403A,108.3206,22.8225,南宁市,市监测站,,39,32,41,27,36,36,,62,41,22,21,5,6,0.8,0.8
2025-10-30T2200,1404A,108.3829,22.8037,南宁市,大自然花园,,36,26,44,25,37,47,,67,60,14,13,5,6,0.7,0.7
2025-10-30T2200,1405A,108.4394,22.7904,南宁市,仙葫,,,,,,,,,,,,,,,,
2025-10-30T2200,1406A,108.2397,22.8467,南宁市,区农职院,,29,26,47,20,37,32,,57,49,21,16,3,4,0.6,0.6
2025-10-30T2200,1407A,108.3275,22.735,南宁市,英华嘉园,,29,,39,20,35,42,,63,54,14,13,2,2,0.7,0.7
2025-10-30T2200,3401A,108.4834,22.7618,南宁市,红星社区,,32,24,40,22,32,51,,70,62,12,13,3,4,0.6,0.6
2025-10-30T2200,4221A,108.2177,22.7774,南宁市,乐贤路16号,,33,32,45,23,34,14,,57,44,42,24,3,2,0.6,0.6
2025-10-30T2200,2331A,118.0966,26.6761,南平市,茫荡山,,,22,16,,,80,,86,84,,,2,1,,0.3
2025-10-30T2200,2332A,118.1681,26.6369,南平市,南平市监测站,,,29,24,22,15,,,76,72,11,12,3,4,0.4,0.4
2025-10-30T2200,2333A,118.1825,26.6489,南平市,南平铝业有限公司,,28,28,26,19,14,57,,80,71,11,14,3,4,0.4,0.4
2025-10-30T2200,2334A,118.1756,26.6272,南平市,南平七中,,28,24,24,19,14,48,,79,69,12,9,6,6,0.4,0.4
2025-10-30T2200,1168A,120.9098,31.9663,南通市,狼山街道,,17,12,29,6,19,54,,66,62,16,23,3,4,0.7,0.5
2025-10-30T2200,1169A,120.86,32.0005,南通市,虹桥,,19,13,24,3,14,60,,65,62,15,19,3,4,0.8,0.7
2025-10-30T2200,1170A,120.87,32.02,南通市,城中,,15,13,35,8,18,44,,58,54,29,24,5,5,0.7,0.7
2025-10-30T2200,1171A,120.94,31.93,南通市,星湖花园,,19,9,32,7,18,58,,60,56,16,23,3,4,0.5,0.6
2025-10-30T2200,1172A,120.81,32.0417,南通市,紫琅学院,,15,11,37,3,13,46,,55,50,24,28,4,4,0.5,0.6
2025-10-30T2200,3291A,121.067,32.062,南通市,通州监测站,,24,6,16,3,12,74,,76,74,9,15,2,2,0.4,0.5
2025-10-30T2200,3432A,120.9348,31.9883,南通市,环境教育馆,,15,7,33,3,23,48,,55,51,19,31,4,4,0.6,0.4
2025-10-30T2200,2404A,112.5224,33.0122,南阳市,瓦房庄,细颗粒物(PM2.5),87,85,88,64,62,67,,115,99,23,22,6,7,0.9,0.8
2025-10-30T2200,2405A,112.5003,32.9735,南阳市,汉画馆,细颗粒物(PM2.5),104,102,81,78,58,41,,107,87,29,30,5,6,0.8,0.9
2025-10-30T2200,2406A,112.5573,33.027,南阳市,气象站,细颗粒物(PM2.5),83,101,105,61,61,74,,125,107,33,33,7,9,0.8,0.8
2025-10-30T2200,2407A,112.5481,32.9689,南阳市,理工学院,细颗粒物(PM2.5),88,96,99,65,62,67,,111,93,34,38,6,8,0.8,0.9
2025-10-30T2200,4008A,112.5234,32.9922,南阳市,卧龙区政府,颗粒物(PM10),74,97,95,52,52,37,,110,91,47,26,7,8,0.9,0.8
2025-10-30T2200,1234A,121.8358,29.911,宁波市,区环保大楼,,37,31,47,15,19,0,,28,23,74,62,5,6,0.6,0.5
2025-10-30T2200,1235A,121.56,29.82,宁波市,万里学院,,,,52,,37,15,,37,37,52,56,7,8,0.6,0.6
2025-10-30T2200,1236A,121.713,29.9572,宁波市,龙赛医院,,31,29,63,15,29,7,,51,51,62,57,4,4,0.5,0.6
2025-10-30T2200,1239A,121.633,29.7733,宁波市,钱湖水厂,,36,35,49,25,29,22,,27,20,39,39,6,7,0.6,0.6
2025-10-30T2200,1240A,121.5856,29.8635,宁波市,太古小学,,39,39,54,22,30,18,,36,36,50,58,3,4,0.7,0.7
2025-10-30T2200,1241A,121.524,29.8674,宁波市,市环境监测中心,,40,40,54,22,27,26,,37,36,43,58,7,7,0.7,0.7
2025-10-30T2200,2871A,121.6147,29.9017,宁波市,万里国际学校,,29,29,42,20,27,21,,48,48,44,54,4,5,0.5,0.5
2025-10-30T2200,3710A,121.5594,29.8975,宁波市,白沙活动中心,,28,28,37,17,22,20,,43,42,45,48,5,5,0.5,0.6
2025-10-30T2200,2339A,119.5001,26.6946,宁德市,金涵水库,,33,33,36,22,22,7,,33,17,18,14,3,3,0.5,0.4
2025-10-30T2200,2341A,119.5388,26.6612,宁德市,宁德市监测站,颗粒物(PM10),53,55,32,32,17,7,,45,22,38,29,5,5,0.9,0.5
2025-10-30T2200,3209A,119.5231,26.6562,宁德市,宁德一中,颗粒物(PM10),52,53,34,34,19,15,,53,28,27,18,5,5,0.6,0.4
2025-10-30T2200,2618A,98.8601,25.8567,怒江傈僳族自治州,州监测站,,43,42,38,30,26,30,,54,,12,12,8,8,0.5,0.5
2025-10-30T2200,2619A,98.8546,25.8417,怒江傈僳族自治州,泸水一中,,40,33,29,28,22,11,,32,22,18,16,6,6,0.8,0.7
2025-10-30T2200,1888A,101.6891,26.571,攀枝花市,弄弄坪,,37,37,44,22,20,21,,58,52,30,22,2,12,0.8,0.9
2025-10-30T2200,1889A,101.5769,26.5928,攀枝花市,河门口,,40,40,41,21,24,21,,60,49,40,22,41,21,2.1,1.5
2025-10-30T2200,1890A,101.7169,26.585,攀枝花市,炳草岗,,49,49,45,24,22,7,,51,44,53,27,14,11,0.9,0.8
2025-10-30T2200,1891A,101.7369,26.5008,攀枝花市,仁和,,50,50,34,30,20,14,,44,33,22,16,10,8,1.0,0.7
2025-10-30T2200,2835A,101.7227,26.567,攀枝花市,四十中小,,27,27,34,14,20,32,,62,58,32,12,22,22,1.0,0.8
2025-10-30T2200,1604A,122.0303,41.1489,盘锦市,开发区,颗粒物(PM10),51,52,41,26,31,29,,54,44,42,20,5,3,1.1,1.1
2025-10-30T2200,1605A,122.0485,41.0883,盘锦市,兴隆台,,44,44,41,29,39,47,,58,53,31,22,9,6,0.3,0.4
2025-10-30T2200,1606A,121.8297,41.1028,盘锦市,新生街道,,44,44,37,23,33,4,,56,33,71,30,9,8,0.6,0.5
2025-10-30T2200,1832A,113.3257,33.742,平顶山市,新华旅馆,颗粒物(PM10),120,189,153,61,52,79,,114,107,29,34,7,8,0.7,0.7
2025-10-30T2200,1833A,113.2919,33.737,平顶山市,规划设计院,细颗粒物(PM2.5),170,188,146,129,91,67,,109,100,37,33,4,6,1.0,0.9
2025-10-30T2200,1834A,113.182,33.774,平顶山市,平顶山工学院,细颗粒物(PM2.5),163,175,123,124,84,90,,116,114,27,29,6,7,0.6,0.7
2025-10-30T2200,3204A,113.3025,33.73,平顶山市,规划局,细颗粒物(PM2.5),163,197,149,124,91,83,,120,116,28,29,7,8,0.8,0.9
2025-10-30T2200,3594A,112.8867,33.9116,平顶山市,石龙区,细颗粒物(PM2.5),175,184,108,132,73,86,,114,112,28,33,7,6,1.0,0.9
2025-10-30T2200,2656A,106.6692,35.5461,平凉市,聚贤嘉苑,颗粒物(PM10),63,76,56,37,27,26,,96,70,48,30,7,5,0.8,0.5
2025-10-30T2200,2657A,106.7021,35.5307,平凉市,博物馆,颗粒物(PM10),62,73,69,39,31,28,,97,65,43,26,11,15,0.9,0.7
2025-10-30T2200,2347A,114.0997,27.5002,萍乡市,武功山,,,,,,,,,,,,,,,,
2025-10-30T2200,2348A,113.8385,27.6434,萍乡市,中医院,细颗粒物(PM2.5),65,53,78,47,60,39,,60,48,26,29,5,12,1.2,1.1
2025-10-30T2200,2349A,113.8493,27.6253,萍乡市,市政府车库,细颗粒物(PM2.5),63,54,70,45,60,38,,56,47,26,28,9,14,0.9,1
2025-10-30T2200,2350A,113.8676,27.6435,萍乡市,市环保局,细颗粒物(PM2.5),59,,71,42,53,44,,64,51,22,24,8,13,1.1,0.8
2025-10-30T2200,2351A,113.866,27.6198,萍乡市,安源区政府,细颗粒物(PM2.5),74,,69,54,71,40,,50,46,19,25,10,15,0.8,0.8
2025-10-30T2200,2319A,119.0141,25.4325,莆田市,荔城区仓后路,,,57,32,41,11,,,82,52,34,12,5,5,0.8,0.6
2025-10-30T2200,2320A,119.0015,25.4553,莆田市,莆田市监测站,,15,,25,3,3,47,,88,56,7,5,4,5,0.4,0.4
2025-10-30T2200,2321A,119.1119,25.4561,莆田市,涵江区六中,,39,39,27,22,11,10,,82,44,46,14,6,6,0.7,0.5
2025-10-30T2200,2322A,119.1013,25.3215,莆田市,秀屿区政府,,35,29,29,24,13,42,,76,60,19,12,8,5,0.6,0.6
2025-10-30T2200,2323A,118.981,25.4792,莆田市,东圳水库,,26,,13,18,13,61,,100,68,4,4,6,6,0.8,0.8
2025-10-30T2200,2392A,115.0312,35.7636,濮阳市,环保局,细颗粒物(PM2.5),206,162,99,156,98,16,,58,38,59,42,8,10,1.1,0.9
2025-10-30T2200,2394A,115.0574,35.7609,濮阳市,油田运输公司,细颗粒物(PM2.5),210,225,143,160,98,15,,63,39,54,38,9,10,1.3,1
2025-10-30T2200,3021A,115,35.7668,濮阳市,濮水河管理处,细颗粒物(PM2.5),125,153,133,95,81,4,,58,32,40,34,8,10,0.7,0.5
2025-10-30T2200,4216A,115.0924,35.7686,濮阳市,任丘路479号,细颗粒物(PM2.5),210,230,142,160,102,8,,56,34,54,38,8,9,1.3,1.1
2025-10-30T2200,2601A,100.98,22.7633,普洱市,市环保局,,42,41,34,29,20,33,,61,55,9,6,5,4,0.5,0.4
2025-10-30T2200,2602A,100.9817,22.8322,普洱市,普洱第二中学,,,33,33,28,20,,,66,,10,10,5,5,0.3,0.3
2025-10-30T2200,2262A,131.0518,45.8751,七台河市,新一中,,,,,,,,,,,,,,,,
2025-10-30T2200,3345A,131.0577,45.7879,七台河市,中波台,,,54,51,38,30,,,51,,37,17,6,7,0.7,0.7
2025-10-30T2200,3637A,131.0176,45.7761,七台河市,人民广场,颗粒物(PM10),51,52,51,30,35,22,,64,40,44,20,7,7,0.8,0.7
2025-10-30T2200,3684A,130.8781,45.8222,七台河市,新建矿广场,颗粒物(PM10),51,51,54,34,32,29,,57,40,19,15,7,7,0.4,0.5
2025-10-30T2200,1779A,123.9305,47.3636,齐齐哈尔市,安居小区,颗粒物(PM10),57,64,42,37,23,27,,56,42,33,15,9,6,0.8,0.5
2025-10-30T2200,1780A,123.9488,47.3386,齐齐哈尔市,中心广场,细颗粒物(PM2.5),55,58,54,39,27,34,,,,27,20,10,8,0.7,0.5
2025-10-30T2200,1781A,123.9483,47.3227,齐齐哈尔市,农牧车辆厂,颗粒物(PM10),114,178,57,76,24,23,,49,32,43,20,14,6,1.2,0.7
2025-10-30T2200,1783A,123.945,47.2988,齐齐哈尔市,市环境监测站,,,313,65,,32,38,,51,41,65,23,17,8,1.7,0.7
2025-10-30T2200,3662A,123.6333,47.2075,齐齐哈尔市,富区青少年活动中心,细颗粒物(PM2.5),185,179,77,139,54,28,,30,29,30,28,10,15,0.6,0.7
2025-10-30T2200,2591A,107.9783,26.5747,黔东南苗族侗族自治州,市环境监测站,,39,35,29,27,24,4,,49,27,26,11,4,4,0.7,0.6
2025-10-30T2200,2881A,107.8908,26.5311,黔东南苗族侗族自治州,凯里学院,,33,,24,23,27,15,,40,25,17,13,3,3,0.4,0.7
2025-10-30T2200,2593A,107.5228,26.2403,黔南布依族苗族自治州,小围寨,,18,17,20,12,16,26,,29,28,8,8,2,4,0.5,0.5
2025-10-30T2200,3538A,107.5175,26.2978,黔南布依族苗族自治州,沙坝,,29,29,28,19,22,24,,29,27,11,11,4,4,0.7,0.7
2025-10-30T2200,2589A,104.9022,25.0925,黔西南布依族苗族自治州,场坝街,,25,24,24,17,14,30,,51,35,13,10,3,4,0.6,0.5
2025-10-30T2200,2590A,104.8811,25.0992,黔西南布依族苗族自治州,坪东大道,,29,21,19,20,11,19,,52,31,13,8,2,2,0.6,0.6
2025-10-30T2200,2502A,108.6236,21.9667,钦州市,市环保站,,14,,49,7,40,43,,55,42,17,18,2,3,0.6,1.2
2025-10-30T2200,2503A,108.6549,21.9481,钦州市,沙埠小学,,19,,52,12,38,58,,66,58,7,12,2,3,0.7,2
2025-10-30T2200,2504A,108.5989,21.7431,钦州市,港区一小,,28,20,58,19,43,32,,45,38,35,36,7,7,0.8,0.9
2025-10-30T2200,3404A,108.5959,21.9633,钦州市,北职校,,16,10,46,10,43,50,,54,50,10,10,4,4,0.9,0.7
2025-10-30T2200,1043A,119.7493,40.0116,秦皇岛市,第一关,,22,22,77,13,60,41,,24,19,34,54,7,6,0.2,0.6
2025-10-30T2200,1044A,119.5897,39.9499,秦皇岛市,监测站,,49,49,92,14,56,6,,22,14,61,59,8,7,0.3,0.7
2025-10-30T2200,1046A,119.5251,39.9041,秦皇岛市,建设大厦,,50,50,85,27,54,7,,31,20,55,44,6,6,0.3,0.6
2025-10-30T2200,3132A,119.610547,39.943889,秦皇岛市,文明里,,34,34,85,13,50,10,,25,17,56,52,9,10,0.0,0.4
2025-10-30T2200,4198A,119.5090,39.8253,秦皇岛市,北戴河轮滑馆,,30,30,76,7,57,47,,46,44,23,26,5,4,0.2,0.6
2025-10-30T2200,1307A,120.6659,36.2403,青岛市,仰口,,,,,,,,,,,,,,,,
2025-10-30T2200,1310A,120.4134,36.0658,青岛市,市南区东部子站,,26,7,18,3,7,81,,104,51,4,11,6,6,0.2,0.3
2025-10-30T2200,1311A,120.3664,36.1032,青岛市,四方区子站,,22,22,18,9,10,59,,97,34,21,20,3,3,0.2,0.3
2025-10-30T2200,1312A,120.2994,36.054,青岛市,市南区西部子站,,25,7,17,3,6,78,,100,64,17,16,7,7,0.4,0.4
2025-10-30T2200,1313A,120.4581,36.0858,青岛市,崂山区子站,,27,7,15,3,3,86,,110,49,10,14,8,8,0.3,0.3
2025-10-30T2200,1315A,120.3999,36.3083,青岛市,城阳区子站,,34,34,23,17,9,18,,86,38,54,28,4,4,0.7,0.4
2025-10-30T2200,3362A,120.5014,36.4034,青岛市,即墨2号,,24,12,20,3,7,74,,84,60,11,23,3,3,0.3,0.3
2025-10-30T2200,3642A,120.3503,36.0736,青岛市,市北区南部,,25,25,19,3,5,78,,97,50,14,19,5,4,0.2,0.2
2025-10-30T2200,3643A,120.3948,36.1805,青岛市,李沧区北部,,20,,17,14,11,49,,83,40,27,26,6,6,0.4,0.3
2025-10-30T2200,4290A,120.1969,35.9546,青岛市,珠江路669号,,23,,12,10,8,72,,114,71,21,13,8,8,0.3,0.3
2025-10-30T2200,4291A,120.0424,35.8656,青岛市,黄岛区人民政府广场,,16,12,16,3,2,51,,89,66,22,16,5,5,0.6,0.5
2025-10-30T2200,1702A,113.0426,23.691,清远市,环保大楼,,,,,,,,,,,,,,,,
2025-10-30T2200,1703A,113.0208,23.7106,清远市,凤城街办,,46,36,49,32,38,13,,56,42,45,30,6,8,0.9,0.9
2025-10-30T2200,3025A,113.0477,23.6344,清远市,技师学院,,39,38,50,27,36,17,,62,48,35,26,4,5,0.5,0.6
2025-10-30T2200,3318A,112.9903,23.7403,清远市,清新太和,,30,26,52,21,39,20,,60,42,20,26,6,7,0.7,0.8
2025-10-30T2200,3455A,113.076,23.7198,清远市,清城东城,,23,23,48,15,34,30,,63,50,12,17,6,7,0.7,0.9
2025-10-30T2200,2661A,107.6325,35.7357,庆阳市,庆阳五中,颗粒物(PM10),56,61,45,34,22,61,,87,79,27,18,2,2,0.9,0.6
2025-10-30T2200,2662A,107.6364,35.7067,庆阳市,市环保局,颗粒物(PM10),51,52,38,21,21,82,,98,94,18,18,5,5,0.4,0.6
2025-10-30T2200,1916A,103.7897,25.5035,曲靖市,环境监测站,,39,39,32,20,17,7,,31,17,22,15,4,7,0.7,0.5
2025-10-30T2200,1917A,103.8,25.5364,曲靖市,烟厂办公区,,36,36,31,22,17,9,,34,20,24,15,4,9,0.6,0.7
2025-10-30T2200,3376A,103.7947,25.462,曲靖市,南苑二区,,34,34,30,20,17,15,,36,21,16,13,3,6,0.8,0.8
2025-10-30T2200,3377A,103.7444,25.5261,曲靖市,曲靖师范学院,,36,34,30,25,21,12,,37,20,16,14,4,5,0.5,0.4
2025-10-30T2200,1264A,118.8692,28.9398,衢州市,环保大楼,,39,39,44,25,25,29,,51,40,21,26,4,5,0.4,0.4
2025-10-30T2200,1265A,118.8709,28.9666,衢州市,实验学校,,38,32,34,26,21,33,,59,44,21,24,4,4,0.4,0.3
2025-10-30T2200,1266A,118.8621,28.9808,衢州市,衢州学院,,35,35,35,21,19,32,,60,44,21,21,5,6,0.3,0.3
2025-10-30T2200,1611A,118.5819,24.9117,泉州市,涂山街,,46,46,29,27,14,41,,83,66,24,8,4,3,0.5,0.3
2025-10-30T2200,1612A,118.5972,24.8978,泉州市,津头埔,,40,40,29,28,12,40,,79,62,30,15,4,3,0.5,0.3
2025-10-30T2200,1613A,118.6663,24.9424,泉州市,万安,,43,43,31,26,14,44,,78,65,18,8,5,3,0.6,0.5
2025-10-30T2200,1614A,118.6117,24.9604,泉州市,清源山,,35,31,23,24,16,48,,108,64,15,4,2,1,0.5,0.4
2025-10-30T2200,3529A,118.6333,24.9264,泉州市,城华南路,,45,45,29,27,12,38,,83,60,24,8,5,3,0.4,0.3
2025-10-30T2200,2626A,88.8876,29.2718,日喀则市,日喀则监测站,,20,8,12,3,3,61,,77,72,5,8,14,14,0.5,0.5
2025-10-30T2200,3726A,88.8781,29.2426,日喀则市,林业技术推广中心,,19,9,13,3,4,60,,82,74,4,7,6,6,0.3,0.8
2025-10-30T2200,1659A,119.471,35.4209,日照市,监测站,颗粒物(PM10),52,53,23,34,9,0,,80,44,48,35,8,8,1.1,0.6
2025-10-30T2200,1660A,119.523,35.4216,日照市,市政府广场,,23,19,23,6,5,73,,89,81,13,20,7,8,0.6,0.6
2025-10-30T2200,1661A,119.5587,35.4044,日照市,港务局,,21,12,25,11,13,65,,92,80,11,20,7,8,0.5,0.6
2025-10-30T2200,3507A,119.5328,35.4625,日照市,职业技术学院,,24,12,23,9,8,76,,94,82,9,20,4,5,0.6,0.7
2025-10-30T2200,3604A,119.3266,35.1044,日照市,岚山环保分局,,24,22,19,3,6,74,,88,81,23,23,8,9,0.6,0.7
2025-10-30T2200,1835A,111.1922,34.7752,三门峡市,市政府,颗粒物(PM10),97,144,90,64,52,1,,54,37,50,32,6,7,0.8,0.8
2025-10-30T2200,1836A,111.1587,34.7942,三门峡市,开发区,细颗粒物(PM2.5),128,126,113,97,91,1,,56,42,60,35,6,5,0.9,0.7
2025-10-30T2200,1838A,111.143,34.7955,三门峡市,风景区,颗粒物(PM10),71,92,78,47,52,17,,58,48,20,22,6,7,0.9,0.8
2025-10-30T2200,3039A,111.1911,34.7829,三门峡市,三门峡市第一小学,细颗粒物(PM2.5),84,111,96,62,56,22,,56,42,36,31,11,9,0.9,0.8
2025-10-30T2200,3598A,111.1,34.7167,三门峡市,富达温泉假日酒店,细颗粒物(PM2.5),132,138,101,100,80,7,,53,42,31,33,9,10,0.8,0.7
2025-10-30T2200,2324A,117.6211,26.2625,三明市,三钢,,38,,25,26,16,55,,87,76,12,13,7,6,0.5,0.6
2025-10-30T2200,2325A,117.635,26.2714,三明市,三明二中,,29,24,27,20,16,51,,84,74,10,13,7,6,0.5,0.5
2025-10-30T2200,2326A,117.6028,26.2378,三明市,三元区政府,,30,30,23,14,14,52,,88,77,16,12,11,7,1.3,0.9
2025-10-30T2200,2327A,117.7275,26.3108,三明市,洋溪,,33,,18,23,14,32,,82,67,13,10,10,12,1.1,1.1
