timepoint,stationcode,longitude,latitude,area,positionname,primarypollutant,aqi,pm10,pm10_24h,pm2_5,pm2_5_24h,o3,o3_24h,o3_8h,o3_8h_24h,no2,no2_24h,so2,so2_24h,co,co_24h
2023-09-28T02:00:00,1001A,116.3621,39.8784,北京市,万寿西宫,,14,11,60,4,39,87,35,32,32,27,34,3,3,0.1,0.5
2023-09-28T02:00:00,1002A,116.2202,40.2915,北京市,定陵,,14,8,23,2,13,62,44,45,44,2,2,3,3,0.1,0.3
2023-09-28T02:00:00,1003A,116.4174,39.9289,北京市,东四,,21,16,63,6,37,91,19,17,17,42,36,3,3,0.3,0.6
2023-09-28T02:00:00,1004A,116.4072,39.8863,北京市,天坛,,16,16,55,10,39,87,8,8,8,26,29,3,2,0.4,0.6
2023-09-28T02:00:00,1005A,116.462,39.9365,北京市,农展馆,,,34,59,12,31,82,0,0,0,69,44,1,2,,0.6
2023-09-28T02:00:00,1006A,116.3392,39.9295,北京市,官园,,17,11,58,3,33,102,34,41,38,34,34,3,2,0.3,0.6
2023-09-28T02:00:00,1007A,116.2878,39.9611,北京市,海淀万柳,,16,12,49,3,26,84,34,25,25,31,40,3,3,0.3,0.5
2023-09-28T02:00:00,1008A,116.6636,40.135,北京市,顺义新城,,21,21,45,5,23,83,26,35,30,31,31,3,3,0.2,0.4
2023-09-28T02:00:00,1009A,116.6275,40.3275,北京市,怀柔镇,,12,11,28,5,19,82,38,42,40,9,12,3,3,0.2,0.3
2023-09-28T02:00:00,1010A,116.2296,40.217,北京市,昌平镇,,16,8,28,3,18,75,50,51,50,5,19,3,3,0.1,0.3
2023-09-28T02:00:00,1011A,116.3966,39.9821,北京市,奥体中心,,33,23,41,6,29,76,2,5,4,65,39,3,3,0.2,0.4
2023-09-28T02:00:00,1012A,116.184,39.9136,北京市,古城,,23,23,56,6,30,109,47,40,40,15,33,3,3,0.5,0.8
2023-09-28T02:00:00,1015A,117.1444,39.1661,天津市,勤俭道,颗粒物(PM10),89,127,93,45,61,98,3,4,4,76,45,12,10,0.9,0.9
2023-09-28T02:00:00,1017A,117.237,39.1082,天津市,大直沽八号路,颗粒物(PM10),71,92,81,34,51,90,8,8,8,78,44,7,6,0.7,1
2023-09-28T02:00:00,1018A,117.202,39.0927,天津市,前进道,颗粒物(PM10),62,73,66,27,40,88,4,5,4,85,49,12,8,0.7,0.9
2023-09-28T02:00:00,1019A,117.1837,39.2133,天津市,淮河道,颗粒物(PM10),78,105,87,40,54,105,3,2,2,78,50,12,7,0.5,0.8
2023-09-28T02:00:00,1021A,117.307,39.0877,天津市,跃进路,颗粒物(PM10),69,87,84,36,57,100,2,2,2,68,46,7,7,0.9,1
2023-09-28T02:00:00,1023A,117.707,39.0343,天津市,第四大街,颗粒物(PM10),78,106,113,55,80,93,2,2,2,84,60,6,6,0.9,1.3
2023-09-28T02:00:00,1024A,117.457,38.8394,天津市,永明路,细颗粒物(PM2.5),115,130,101,87,73,113,2,3,2,55,40,8,8,1.4,1
2023-09-28T02:00:00,1026A,117.764,39.1587,天津市,汉北路,颗粒物(PM10),52,53,88,20,59,101,2,2,2,79,50,12,8,0.7,1.1
2023-09-28T02:00:00,1027A,117.157,38.9194,天津市,团泊洼,颗粒物(PM10),98,145,135,72,75,93,7,7,7,56,41,6,4,1.2,1.2
2023-09-28T02:00:00,1029A,114.4422,38.0444,石家庄市,职工医院,细颗粒物(PM2.5),109,147,119,82,65,63,3,3,3,68,63,2,4,1.3,1.6
2023-09-28T02:00:00,1030A,114.6063,38.0266,石家庄市,高新区,细颗粒物(PM2.5),137,132,102,104,81,36,1,1,1,61,55,3,3,1.6,1.6
2023-09-28T02:00:00,1031A,114.4898,38.1328,石家庄市,西北水源,颗粒物(PM10),99,148,136,73,76,56,0,0,0,54,56,1,3,1.0,1.2
2023-09-28T02:00:00,1032A,114.4586,38.0058,石家庄市,西南高教,细颗粒物(PM2.5),137,127,100,104,74,43,2,2,2,67,59,2,2,1.2,1.5
2023-09-28T02:00:00,1033A,114.5331,38.0178,石家庄市,世纪公园,颗粒物(PM10),76,101,121,48,52,46,3,3,3,56,53,2,3,1.7,1.6
2023-09-28T02:00:00,1034A,114.509,38.0457,石家庄市,人民会堂,细颗粒物(PM2.5),156,123,102,119,95,65,4,4,4,69,59,4,7,1.2,1.2
2023-09-28T02:00:00,1035A,114.3524,37.8911,石家庄市,封龙山,颗粒物(PM10),100,149,80,74,38,121,59,56,56,29,24,5,6,1.5,1.1
2023-09-28T02:00:00,1037A,118.131,39.6363,唐山市,雷达站,颗粒物(PM10),66,81,86,32,48,100,1,8,4,63,46,4,3,0.4,0.9
2023-09-28T02:00:00,1038A,118.1725,39.6334,唐山市,物资局,颗粒物(PM10),63,76,90,31,51,99,21,28,24,48,44,5,5,0.6,0.8
2023-09-28T02:00:00,1040A,118.1705,39.6506,唐山市,十二中,颗粒物(PM10),58,65,80,25,50,99,14,18,16,54,42,2,2,0.4,0.7
2023-09-28T02:00:00,1041A,118.1869,39.622,唐山市,小山,颗粒物(PM10),67,83,92,24,48,98,20,25,22,32,33,2,3,0.4,0.8
2023-09-28T02:00:00,1042A,119.5134,39.8207,秦皇岛市,北戴河环保局,,42,42,88,16,48,113,22,16,16,54,35,4,9,0.2,0.5
2023-09-28T02:00:00,1043A,119.7493,40.0116,秦皇岛市,第一关,,32,32,74,13,51,146,55,51,51,35,57,7,9,0.2,0.7
2023-09-28T02:00:00,1044A,119.5897,39.9499,秦皇岛市,监测站,,44,44,76,22,50,118,62,52,52,13,52,12,10,0.3,0.8
2023-09-28T02:00:00,1046A,119.5251,39.9041,秦皇岛市,建设大厦,颗粒物(PM10),56,61,72,29,56,102,7,5,5,57,37,16,6,0.3,0.3
2023-09-28T02:00:00,1048A,114.5302,36.6116,邯郸市,东污水处理厂,,49,43,58,34,44,66,2,2,2,41,33,6,6,0.9,1.3
2023-09-28T02:00:00,1049A,114.4918,36.5713,邯郸市,矿院,颗粒物(PM10),52,54,54,24,40,59,0,0,0,46,40,3,3,1.0,1.4
2023-09-28T02:00:00,1050A,114.484,36.6133,邯郸市,丛台公园,,45,45,53,29,41,74,1,2,2,43,37,10,10,0.8,1.2
2023-09-28T02:00:00,1051A,115.493,38.8632,保定市,游泳馆,细颗粒物(PM2.5),148,160,124,113,98,108,8,8,8,66,50,6,6,0.9,1
2023-09-28T02:00:00,1052A,115.5213,38.8959,保定市,华电二区,细颗粒物(PM2.5),104,123,100,78,77,106,1,10,6,63,39,5,5,1.0,1.3
2023-09-28T02:00:00,1053A,115.4713,38.9108,保定市,接待中心,细颗粒物(PM2.5),132,169,130,100,86,110,0,15,8,62,41,5,5,0.7,1.2
2023-09-28T02:00:00,1054A,115.4612,38.8416,保定市,地表水厂,细颗粒物(PM2.5),98,139,134,73,63,97,5,5,5,70,56,6,6,1.0,1.1
2023-09-28T02:00:00,1056A,115.5086,38.8639,保定市,监测站,细颗粒物(PM2.5),110,117,109,83,76,110,3,4,4,71,47,7,8,1.3,1.3
2023-09-28T02:00:00,1057A,114.8883,40.8336,张家口市,人民公园,,15,14,30,2,4,86,46,47,46,7,9,3,2,0.2,0.3
2023-09-28T02:00:00,1059A,114.8687,40.8042,张家口市,五金库,,16,7,28,3,6,86,51,54,52,5,11,1,2,0.2,0.3
2023-09-28T02:00:00,1060A,114.8902,40.762,张家口市,世纪豪园,,20,20,30,2,8,83,47,47,47,7,12,2,2,0.1,0.1
2023-09-28T02:00:00,1061A,114.8916,40.8661,张家口市,北泵房,,16,15,27,7,8,91,49,51,50,5,8,6,6,0.1,0.1
2023-09-28T02:00:00,1062A,117.9531,40.9081,承德市,铁路,,26,26,45,2,16,78,14,12,12,27,29,6,7,0.2,0.5
2023-09-28T02:00:00,1063A,117.9392,40.9763,承德市,中国银行,,32,32,45,3,15,77,1,1,1,34,24,5,5,0.3,0.5
2023-09-28T02:00:00,1064A,117.9503,40.928,承德市,开发区,,35,35,47,15,20,85,2,3,2,42,29,4,6,0.3,0.5
2023-09-28T02:00:00,1065A,117.8051,40.9655,承德市,文化中心,,38,38,54,2,19,81,0,0,0,52,35,6,7,0.2,0.5
2023-09-28T02:00:00,1066A,117.9268,41.0026,承德市,离宫,,29,28,40,20,20,80,19,17,17,21,13,1,2,0.1,0.3
2023-09-28T02:00:00,1067A,116.6708,39.5111,廊坊市,药材公司,颗粒物(PM10),92,134,81,62,33,75,28,35,32,40,35,2,2,0.8,0.7
2023-09-28T02:00:00,1068A,116.7214,39.5589,廊坊市,开发区,细颗粒物(PM2.5),82,96,79,60,40,80,11,10,10,58,44,1,2,0.6,0.6
2023-09-28T02:00:00,1070A,116.7244,39.5269,廊坊市,北华航天学院,细颗粒物(PM2.5),94,120,90,70,44,85,38,42,40,41,41,5,5,0.7,0.6
2023-09-28T02:00:00,1071A,116.8842,38.2991,沧州市,沧县城建局,细颗粒物(PM2.5),80,100,78,59,50,70,7,11,9,47,38,4,5,1.0,1
2023-09-28T02:00:00,1072A,116.8584,38.3254,沧州市,电视转播站,颗粒物(PM10),74,98,80,53,60,67,1,8,4,46,30,6,5,1.2,1
2023-09-28T02:00:00,1073A,116.8709,38.3228,沧州市,市环保局,细颗粒物(PM2.5),84,96,78,62,56,71,6,14,10,46,29,5,5,0.9,0.8
2023-09-28T02:00:00,1074A,115.6838,37.7541,衡水市,电机北厂,细颗粒物(PM2.5),73,78,63,53,48,73,0,0,0,32,19,1,3,1.2,0.8
2023-09-28T02:00:00,1075A,115.6303,37.7316,衡水市,市监测站,"颗粒物(PM10),细颗粒物(PM2.5)",63,76,59,45,45,63,1,2,2,40,27,6,6,1.2,1
2023-09-28T02:00:00,1077A,114.4704,37.0886,邢台市,达活泉,颗粒物(PM10),60,70,88,34,49,45,5,5,5,42,34,8,11,1.6,1.9
2023-09-28T02:00:00,1078A,114.5062,37.0349,邢台市,邢师高专,颗粒物(PM10),63,76,80,31,42,46,2,2,2,44,38,5,6,1.6,1.6
2023-09-28T02:00:00,1079A,114.5237,37.0851,邢台市,路桥公司,颗粒物(PM10),65,80,78,41,46,40,7,8,8,45,45,5,6,1.8,1.7
2023-09-28T02:00:00,1080A,114.4725,37.0719,邢台市,市环保局,细颗粒物(PM2.5),67,80,81,48,45,42,3,3,3,47,40,6,8,1.4,1.6
2023-09-28T02:00:00,1081A,112.522,37.8873,太原市,尖草坪,,36,36,80,13,45,115,10,38,24,59,47,8,11,0.5,0.9
2023-09-28T02:00:00,1083A,112.434,38.0108,太原市,上兰,,,,,,,,,,,,,,,,
2023-09-28T02:00:00,1084A,112.469,37.7124,太原市,晋源,颗粒物(PM10),70,90,124,19,65,120,18,28,23,51,52,7,15,0.8,1.5
2023-09-28T02:00:00,1085A,112.5583,37.7394,太原市,小店,颗粒物(PM10),106,161,131,60,58,122,4,7,6,70,54,16,15,1.3,1.4
2023-09-28T02:00:00,1086A,112.5369,37.8692,太原市,桃园,,36,36,83,10,41,115,14,15,14,56,49,7,12,0.5,1.2
2023-09-28T02:00:00,1087A,112.57,37.8195,太原市,坞城,颗粒物(PM10),85,119,102,60,60,122,3,3,3,74,51,12,18,1.0,1.4
2023-09-28T02:00:00,1088A,112.549,37.9854,太原市,南寨,颗粒物(PM10),71,91,96,36,46,100,5,5,5,34,46,7,11,1.0,1.2
2023-09-28T02:00:00,1090A,111.6507,40.7517,呼和浩特市,呼市一监,,25,19,39,9,9,91,12,21,16,49,25,6,6,0.5,0.4
2023-09-28T02:00:00,1091A,111.6572,40.8033,呼和浩特市,小召,,30,24,38,7,8,87,4,12,8,60,26,5,6,0.4,0.3
2023-09-28T02:00:00,1094A,111.7516,40.8369,呼和浩特市,如意水处理厂,,26,22,28,4,3,88,6,17,12,52,25,7,8,0.3,0.3
2023-09-28T02:00:00,1095A,111.7276,40.8062,呼和浩特市,二十九中,,31,31,38,7,8,86,5,4,4,60,28,6,6,0.4,0.4
2023-09-28T02:00:00,1096A,111.5512,40.7866,呼和浩特市,工大金川校区,,29,29,53,5,7,91,10,13,12,48,25,4,5,0.3,0.3
2023-09-28T02:00:00,1097A,111.717,40.7612,呼和浩特市,化肥厂生活区,,34,34,49,8,10,91,14,11,11,40,26,6,7,0.3,0.3
2023-09-28T02:00:00,1098A,123.6836,41.9339,沈阳市,森林路,,,,,,,,,,,,,,,,
2023-09-28T02:00:00,1099A,123.505,41.7406,沈阳市,浑南东路,,50,50,66,20,29,124,20,44,32,43,43,7,18,0.6,1.2
2023-09-28T02:00:00,1100A,123.4231,41.6989,沈阳市,新秀街,,34,31,68,15,28,117,8,13,10,68,58,9,26,0.6,1.3
2023-09-28T02:00:00,1102A,123.5903,41.8411,沈阳市,东陵路,颗粒物(PM10),54,57,64,13,29,124,11,8,8,54,42,7,11,0.4,1.1
2023-09-28T02:00:00,1103A,123.4264,41.8467,沈阳市,陵东街,,30,30,43,9,26,122,15,26,20,36,32,6,9,0.5,1.1
2023-09-28T02:00:00,1104A,123.4114,41.7653,沈阳市,文化路,,31,31,63,12,35,125,21,31,26,47,42,7,15,0.5,1.2
2023-09-28T02:00:00,1105A,123.4678,41.7867,沈阳市,小河沿,,24,24,56,6,30,118,35,45,40,34,42,7,14,0.6,1.3
2023-09-28T02:00:00,1106A,123.4017,41.7972,沈阳市,太原街,,,52,69,,37,124,3,6,4,67,54,6,9,0.8,1.2
2023-09-28T02:00:00,1108A,123.3783,41.9228,沈阳市,京沈街,,41,41,65,12,36,119,47,36,36,27,36,7,12,0.4,1
2023-09-28T02:00:00,1109A,121.612,38.9741,大连市,甘井子,,20,20,105,9,61,144,54,57,56,17,22,5,5,0.7,1.1
2023-09-28T02:00:00,1110A,121.565,38.9511,大连市,周水子,,19,17,58,13,58,134,50,52,51,20,24,5,5,0.7,1.1
2023-09-28T02:00:00,1111A,121.5637,38.8845,大连市,星海三站,,20,19,70,8,58,139,64,64,64,11,15,8,9,0.4,0.9
2023-09-28T02:00:00,1112A,121.6302,38.9117,大连市,青泥洼桥,,19,19,65,12,55,128,48,59,54,22,20,7,7,0.7,1
2023-09-28T02:00:00,1113A,121.6251,38.8638,大连市,傅家庄,,21,14,52,9,59,150,65,73,69,14,13,6,6,0.5,0.9
2023-09-28T02:00:00,1114A,121.5213,38.8661,大连市,七贤岭,颗粒物(PM10),57,63,71,7,46,146,68,69,68,13,15,6,6,0.5,1.1
2023-09-28T02:00:00,1115A,121.2529,38.8061,大连市,旅顺,,22,18,46,15,32,144,60,62,61,17,25,8,7,1.1,1.3
2023-09-28T02:00:00,1116A,121.7485,39.1311,大连市,金州,细颗粒物(PM2.5),63,49,53,45,56,147,73,77,75,15,16,9,9,1.8,1.3
2023-09-28T02:00:00,1117A,121.7811,39.0496,大连市,开发区,细颗粒物(PM2.5),102,105,83,76,60,141,62,80,71,21,28,10,10,1.9,1.3
2023-09-28T02:00:00,1118A,121.9762,39.0631,大连市,双D港,颗粒物(PM10),53,55,66,33,51,154,61,105,83,14,18,6,8,1.0,1
2023-09-28T02:00:00,1119A,125.3325,43.9166,长春市,食品厂,,19,19,41,7,15,86,41,44,42,20,28,5,5,0.2,0.4
2023-09-28T02:00:00,1120A,125.2863,43.9027,长春市,客车厂,,16,16,38,8,13,89,42,48,45,16,20,5,6,0.3,0.5
2023-09-28T02:00:00,1121A,125.2841,43.8463,长春市,邮电学院,,34,34,39,12,14,95,28,30,29,30,24,5,5,0.2,0.3
2023-09-28T02:00:00,1122A,125.3716,43.8772,长春市,劳动公园,,22,22,39,3,10,93,37,39,38,22,20,5,5,0.2,0.4
2023-09-28T02:00:00,1123A,125.3297,43.8805,长春市,园林处,,17,17,35,4,11,94,39,40,40,19,18,6,7,0.3,0.5
2023-09-28T02:00:00,1124A,125.4605,43.79,长春市,净月潭,,26,26,31,3,8,99,23,24,24,17,13,6,6,0.2,0.4
2023-09-28T02:00:00,1125A,125.7194,43.515,长春市,甩湾子,,,,,,,,,,,,,,,,
2023-09-28T02:00:00,1126A,125.3863,43.8447,长春市,经开区环卫处,颗粒物(PM10),55,59,38,10,11,90,2,3,2,46,24,1,2,0.3,0.4
2023-09-28T02:00:00,1127A,125.245,43.7783,长春市,高新区管委会,,37,37,38,12,14,98,9,6,6,42,23,6,7,0.3,0.5
2023-09-28T02:00:00,1128A,125.1761,43.8325,长春市,岱山公园,,18,18,37,4,20,92,39,39,39,11,22,4,4,0.3,0.5
2023-09-28T02:00:00,1129A,126.5422,45.755,哈尔滨市,岭北,,15,11,22,4,11,89,46,44,44,7,9,9,11,0.8,0.7
2023-09-28T02:00:00,1130A,126.561,45.8167,哈尔滨市,松北商大,,14,14,27,2,9,82,29,28,28,12,13,6,6,0.4,0.4
2023-09-28T02:00:00,1131A,126.979,45.5419,哈尔滨市,阿城会宁,,,25,31,6,14,90,,38,38,15,13,,7,0.4,0.5
2023-09-28T02:00:00,1132A,126.599,45.7222,哈尔滨市,南岗学府路,,24,24,37,4,11,81,31,30,30,12,14,3,3,0.3,0.4
2023-09-28T02:00:00,1133A,126.689,45.7733,哈尔滨市,太平宏伟公园,,11,7,32,5,11,82,33,35,34,17,14,2,2,0.4,0.5
2023-09-28T02:00:00,1134A,126.635,45.7667,哈尔滨市,道外承德广场,,24,24,31,5,13,80,28,26,26,19,20,6,7,0.8,0.5
2023-09-28T02:00:00,1135A,126.685,45.7319,哈尔滨市,香坊红旗大街,,26,26,31,4,15,75,14,18,16,41,24,4,5,0.4,0.5
2023-09-28T02:00:00,1136A,126.6411,45.7258,哈尔滨市,动力和平路,,15,15,33,1,2,80,25,26,26,22,20,8,6,0.3,0.4
2023-09-28T02:00:00,1137A,126.593,45.7478,哈尔滨市,道里建国路,,13,13,34,5,11,83,25,25,25,24,19,5,6,0.3,0.6
2023-09-28T02:00:00,1138A,126.615,45.61,哈尔滨市,平房东轻厂,,17,17,30,3,10,85,20,29,24,27,13,7,7,0.6,0.4
2023-09-28T02:00:00,1139A,126.595,45.9855,哈尔滨市,呼兰师专,,12,6,27,1,10,80,37,37,37,12,12,5,7,0.6,0.6
2023-09-28T02:00:00,1140A,126.6206,45.6842,哈尔滨市,省农科院,,30,30,42,2,8,90,28,29,28,21,20,13,9,0.5,0.4
2023-09-28T02:00:00,1141A,121.4,31.238,上海市,普陀,,49,40,45,34,42,172,87,92,90,17,26,4,4,0.8,0.8
2023-09-28T02:00:00,1142A,121.478,31.2036,上海市,十五厂,,48,45,47,33,32,166,79,79,79,21,29,8,8,0.6,0.7
2023-09-28T02:00:00,1143A,121.467,31.3008,上海市,虹口,细颗粒物(PM2.5),52,38,45,36,41,163,90,98,94,20,30,7,7,0.8,0.9
2023-09-28T02:00:00,1144A,121.412,31.1654,上海市,徐汇上师大,细颗粒物(PM2.5),62,48,46,44,44,171,77,76,76,24,31,7,7,0.8,0.9
2023-09-28T02:00:00,1145A,121.536,31.2659,上海市,杨浦四漂,细颗粒物(PM2.5),53,46,50,37,43,165,72,81,76,23,33,7,7,1.0,1.1
2023-09-28T02:00:00,1147A,121.425,31.2261,上海市,静安监测站,细颗粒物(PM2.5),55,37,44,39,42,179,93,92,92,17,26,3,3,0.6,0.7
2023-09-28T02:00:00,1148A,121.703,31.1907,上海市,浦东川沙,,46,40,43,32,39,146,81,85,83,23,32,6,6,0.6,0.7
2023-09-28T02:00:00,1149A,121.533,31.2284,上海市,浦东新区监测站,,50,41,45,35,36,155,73,80,76,18,24,6,6,0.8,0.9
2023-09-28T02:00:00,1150A,121.577,31.2071,上海市,浦东张江,细颗粒物(PM2.5),54,40,45,38,40,141,66,75,70,17,21,5,5,0.9,0.9
2023-09-28T02:00:00,1151A,118.8086,32.1065,南京市,迈皋桥,,48,48,40,31,24,145,33,37,35,28,22,5,6,0.6,0.7
2023-09-28T02:00:00,1152A,118.7538,32.0551,南京市,草场门,细颗粒物(PM2.5),55,53,37,39,30,122,44,52,48,33,28,1,6,1.1,1
2023-09-28T02:00:00,1153A,118.7794,32.0745,南京市,山西路,颗粒物(PM10),59,68,52,41,28,137,56,75,66,24,22,5,5,0.7,0.7
2023-09-28T02:00:00,1154A,118.7752,32.0023,南京市,中华门,,49,48,41,34,26,124,45,65,55,26,26,3,3,0.9,0.9
2023-09-28T02:00:00,1155A,118.8109,32.0309,南京市,瑞金路,颗粒物(PM10),51,51,45,34,24,121,56,65,60,15,23,5,6,0.5,0.5
2023-09-28T02:00:00,1156A,118.7997,32.0754,南京市,玄武湖,颗粒物(PM10),56,62,43,35,27,125,44,59,52,25,24,4,5,0.8,1
2023-09-28T02:00:00,1157A,118.6414,32.0931,南京市,浦口,细颗粒物(PM2.5),53,51,39,37,26,127,69,59,59,13,14,4,4,0.5,0.4
2023-09-28T02:00:00,1158A,118.7356,31.9996,南京市,奥体中心,细颗粒物(PM2.5),55,50,41,39,30,127,66,71,68,22,25,6,7,0.6,0.7
2023-09-28T02:00:00,1159A,118.9125,32.1028,南京市,仙林大学城,细颗粒物(PM2.5),55,58,44,39,29,159,28,64,46,49,25,2,4,0.9,0.9
2023-09-28T02:00:00,1160A,120.561,31.2472,苏州市,上方山,颗粒物(PM10),58,65,61,34,34,213,45,73,59,12,21,4,11,0.3,0.4
2023-09-28T02:00:00,1162A,120.591,31.3019,苏州市,彩香,细颗粒物(PM2.5),62,67,62,44,40,168,77,60,60,13,26,6,8,0.9,1
2023-09-28T02:00:00,1163A,120.596,31.3264,苏州市,轧钢厂,细颗粒物(PM2.5),74,75,67,54,44,169,69,57,57,10,19,8,9,0.9,1
2023-09-28T02:00:00,1164A,120.613,31.2703,苏州市,吴中区,"颗粒物(PM10),细颗粒物(PM2.5)",60,69,62,43,37,174,80,93,86,12,26,8,10,0.8,0.8
2023-09-28T02:00:00,1165A,120.543,31.2994,苏州市,苏州新区,细颗粒物(PM2.5),74,82,65,54,40,172,51,46,46,29,38,8,9,0.9,0.9
2023-09-28T02:00:00,1166A,120.669,31.3097,苏州市,苏州工业园区,细颗粒物(PM2.5),63,69,55,45,37,170,86,76,76,11,23,7,8,0.7,0.8
2023-09-28T02:00:00,1167A,120.641,31.3708,苏州市,相城区,细颗粒物(PM2.5),79,52,49,58,46,170,48,43,43,18,27,7,9,1.0,1
2023-09-28T02:00:00,1168A,120.9098,31.9663,南通市,狼山街道,,31,31,43,14,26,143,62,62,62,18,24,7,8,0.7,0.7
2023-09-28T02:00:00,1169A,120.86,32.0005,南通市,虹桥,,40,35,49,28,36,110,54,62,58,18,31,6,7,1.0,1
2023-09-28T02:00:00,1170A,120.87,32.02,南通市,城中,,30,28,45,21,34,104,54,54,54,13,29,7,8,0.8,0.9
2023-09-28T02:00:00,1171A,120.94,31.93,南通市,星湖花园,,30,30,39,16,25,161,65,72,68,14,22,6,7,0.9,0.9
2023-09-28T02:00:00,1172A,120.81,32.0417,南通市,紫琅学院,,29,19,48,20,28,108,54,53,53,19,33,7,7,0.8,1
2023-09-28T02:00:00,1173A,119.176,34.5885,连云港市,市环境监测站,细颗粒物(PM2.5),58,63,69,41,47,107,30,37,34,36,32,5,10,0.7,0.7
2023-09-28T02:00:00,1177A,117.179,34.2761,徐州市,黄河新村,细颗粒物(PM2.5),73,73,64,53,43,131,34,50,42,26,24,7,6,0.9,0.8
2023-09-28T02:00:00,1178A,117.1918,34.2384,徐州市,淮塔,细颗粒物(PM2.5),73,78,65,53,41,144,45,54,50,19,18,11,10,0.7,0.6
2023-09-28T02:00:00,1180A,117.256,34.2153,徐州市,新城区,细颗粒物(PM2.5),80,76,67,59,43,144,31,26,26,45,36,7,7,0.8,0.8
2023-09-28T02:00:00,1181A,117.244,34.2911,徐州市,桃园路,细颗粒物(PM2.5),84,85,69,62,44,146,27,28,28,38,29,8,7,0.8,0.8
2023-09-28T02:00:00,1182A,117.2933,34.2778,徐州市,农科院,细颗粒物(PM2.5),75,68,55,55,43,149,21,36,28,48,28,8,7,0.7,0.7
2023-09-28T02:00:00,1186A,119.389,32.3761,扬州市,邗江监测站,颗粒物(PM10),52,53,49,35,30,122,52,71,62,23,16,7,8,0.8,0.8
2023-09-28T02:00:00,1188A,120.269,31.4867,无锡市,雪浪,细颗粒物(PM2.5),85,75,58,63,40,148,36,56,46,32,26,5,5,1.0,0.9
2023-09-28T02:00:00,1189A,120.275,31.6219,无锡市,黄巷,细颗粒物(PM2.5),67,63,76,48,47,134,41,48,44,35,44,8,7,4.1,2.6
2023-09-28T02:00:00,1190A,120.294,31.56,无锡市,曹张,细颗粒物(PM2.5),77,66,56,56,48,130,43,46,44,27,37,10,10,1.3,1.1
2023-09-28T02:00:00,1191A,120.242,31.5031,无锡市,漆塘,细颗粒物(PM2.5),79,80,59,58,42,145,46,44,44,27,30,7,6,1.3,1.1
2023-09-28T02:00:00,1192A,120.3489,31.5863,无锡市,东亭,细颗粒物(PM2.5),77,75,71,56,58,142,42,45,44,30,38,5,5,1.4,1.3
2023-09-28T02:00:00,1193A,120.354,31.5475,无锡市,旺庄,细颗粒物(PM2.5),70,73,66,51,46,145,51,55,53,30,39,6,5,1.3,1.1
2023-09-28T02:00:00,1194A,120.245,31.5631,无锡市,荣巷,细颗粒物(PM2.5),64,58,56,46,41,147,51,56,54,22,25,10,10,1.0,0.9
2023-09-28T02:00:00,1195A,120.299,31.6817,无锡市,堰桥,细颗粒物(PM2.5),62,58,68,44,46,128,34,44,39,21,33,8,9,1.0,0.9
2023-09-28T02:00:00,1196A,119.9633,31.762,常州市,市监测站,细颗粒物(PM2.5),69,71,71,50,49,184,63,72,68,20,34,9,11,0.8,1
2023-09-28T02:00:00,1200A,119.9468,31.7069,常州市,武进监测站,细颗粒物(PM2.5),67,78,77,48,48,189,72,79,76,11,27,12,12,1.0,1.1
2023-09-28T02:00:00,1201A,119.9255,31.9087,常州市,安家,细颗粒物(PM2.5),84,92,88,62,58,201,47,51,49,20,29,9,11,0.8,0.9
2023-09-28T02:00:00,1203A,119.6707,32.1875,镇江市,新区办事处,,49,46,55,34,41,151,47,46,46,28,45,6,6,0.8,0.8
2023-09-28T02:00:00,1204A,119.4974,32.1968,镇江市,职教中心,细颗粒物(PM2.5),73,50,47,53,45,148,53,52,52,20,21,3,4,0.9,0.9
2023-09-28T02:00:00,1205A,119.4303,32.1328,镇江市,丹徒区监测站,细颗粒物(PM2.5),65,50,48,47,44,143,55,68,62,18,25,1,4,0.8,0.8
2023-09-28T02:00:00,1206A,119.905,32.4878,泰州市,公园路,细颗粒物(PM2.5),64,56,50,46,43,136,50,51,50,14,16,6,6,1.0,0.9
2023-09-28T02:00:00,1207A,119.9189,32.4625,泰州市,莲花,细颗粒物(PM2.5),77,71,51,56,40,144,56,61,58,15,14,9,7,0.9,0.8
2023-09-28T02:00:00,1209A,119.888,32.4639,泰州市,留学生创业园,细颗粒物(PM2.5),63,58,47,45,37,141,57,54,54,13,17,11,15,0.9,0.9
2023-09-28T02:00:00,1210A,119.036,33.5981,淮安市,钵池山,细颗粒物(PM2.5),63,63,58,45,48,114,26,41,34,43,22,6,7,1.0,1
2023-09-28T02:00:00,1211A,119.007,33.575,淮安市,北京南路,颗粒物(PM10),59,68,69,41,41,111,14,11,11,64,33,5,7,0.9,1
2023-09-28T02:00:00,1212A,118.989,33.6067,淮安市,市监测站,颗粒物(PM10),60,70,75,34,42,115,30,24,24,47,33,7,9,0.8,0.9
2023-09-28T02:00:00,1213A,119.135,33.5039,淮安市,楚州区监测站,颗粒物(PM10),59,68,75,41,46,93,0,0,0,62,35,6,6,1.0,1
2023-09-28T02:00:00,1214A,119.0186,33.6297,淮安市,淮阴区监测站,颗粒物(PM10),62,73,80,41,42,116,27,19,19,50,34,6,7,0.9,0.9
2023-09-28T02:00:00,1215A,120.118,33.4022,盐城市,盐城电厂,颗粒物(PM10),67,83,74,46,46,106,32,38,35,25,17,7,8,0.9,0.8
2023-09-28T02:00:00,1216A,120.156,33.3942,盐城市,市监测站,细颗粒物(PM2.5),70,69,58,51,43,120,44,68,56,37,17,8,8,0.7,0.6
2023-09-28T02:00:00,1218A,120.2144,33.38,盐城市,开发区管委会,细颗粒物(PM2.5),62,60,53,44,38,107,54,58,56,25,15,10,10,0.7,0.6
2023-09-28T02:00:00,1220A,118.293,33.9528,宿迁市,宿迁学院,细颗粒物(PM2.5),64,61,49,46,34,139,71,70,70,17,17,9,9,0.9,0.9
2023-09-28T02:00:00,1221A,118.2442,33.9592,宿迁市,宿迁中学,细颗粒物(PM2.5),62,65,49,44,34,130,57,68,62,16,18,8,8,0.9,0.9
2023-09-28T02:00:00,1223A,120.2072,30.2111,杭州市,滨江,颗粒物(PM10),54,58,69,30,33,218,98,104,101,15,22,7,8,0.8,0.8
2023-09-28T02:00:00,1224A,120.0633,30.2747,杭州市,西溪,细颗粒物(PM2.5),70,68,45,51,35,186,96,95,95,18,16,4,4,1.1,0.9
2023-09-28T02:00:00,1226A,120.3461,30.3153,杭州市,下沙,颗粒物(PM10),51,51,48,34,32,214,81,93,87,25,28,4,5,0.6,0.6
2023-09-28T02:00:00,1227A,120.1269,30.2456,杭州市,卧龙桥,,42,37,47,29,32,202,68,103,86,15,15,6,7,0.8,0.8
2023-09-28T02:00:00,1228A,120.1903,30.2692,杭州市,浙江农大,,43,37,39,30,33,180,84,92,88,15,18,8,8,0.7,0.6
2023-09-28T02:00:00,1230A,120.1197,30.3119,杭州市,和睦小学,细颗粒物(PM2.5),62,50,43,44,35,205,94,99,96,23,25,9,8,1.1,0.7
2023-09-28T02:00:00,1231A,120.3019,30.4183,杭州市,临平镇,颗粒物(PM10),52,53,49,32,28,212,99,103,101,11,14,5,5,0.7,0.7
2023-09-28T02:00:00,1232A,120.2697,30.1819,杭州市,城厢镇,细颗粒物(PM2.5),55,45,56,39,48,222,95,96,96,12,22,7,8,0.7,0.7
2023-09-28T02:00:00,1233A,120.0883,30.1808,杭州市,云栖,,35,35,48,20,28,188,39,50,44,16,14,6,6,0.9,0.9
2023-09-28T02:00:00,1234A,121.8358,29.911,宁波市,区环保大楼,,26,21,28,18,20,165,82,83,82,16,34,6,7,0.6,0.7
2023-09-28T02:00:00,1235A,121.56,29.82,宁波市,万里学院,,28,28,34,15,21,175,86,88,87,18,28,7,7,0.7,0.7
2023-09-28T02:00:00,1236A,121.713,29.9572,宁波市,龙赛医院,,43,40,48,30,29,170,80,80,80,14,25,5,7,0.7,0.7
2023-09-28T02:00:00,1239A,121.633,29.7733,宁波市,钱湖水厂,,24,24,27,12,17,165,72,67,67,5,8,6,6,0.7,0.7
2023-09-28T02:00:00,1240A,121.5856,29.8635,宁波市,太古小学,,27,27,33,17,21,175,76,86,81,16,24,6,7,0.7,0.9
2023-09-28T02:00:00,1241A,121.524,29.8674,宁波市,市环境监测中心,,29,22,29,15,18,204,90,90,90,11,17,9,9,0.5,0.6
2023-09-28T02:00:00,1242A,120.634,28.0089,温州市,瓯海,,31,31,34,17,19,157,82,88,85,13,16,6,6,0.6,0.6
2023-09-28T02:00:00,1243A,120.6748,27.9939,温州市,南浦,,30,22,32,14,19,158,96,95,95,4,10,5,5,0.5,0.5
2023-09-28T02:00:00,1244A,120.76,27.9747,温州市,龙湾,,27,24,34,11,14,155,84,90,87,11,16,4,4,0.5,0.5
2023-09-28T02:00:00,1245A,120.6709,28.0167,温州市,市站,,30,30,34,21,20,149,75,80,78,16,19,6,6,0.5,0.5
2023-09-28T02:00:00,1247A,120.6053,29.9928,绍兴市,城东开发委,细颗粒物(PM2.5),74,78,45,54,30,167,47,57,52,36,20,8,6,0.7,0.6
2023-09-28T02:00:00,1250A,120.0751,30.8669,湖州市,城西水厂,,,124,78,,56,198,70,77,74,19,27,4,4,1.0,0.9
2023-09-28T02:00:00,1252A,120.7436,30.778,嘉兴市,清河小学,,34,34,37,20,21,164,90,93,92,13,23,4,5,0.6,0.6
2023-09-28T02:00:00,1253A,120.726,30.7478,嘉兴市,嘉兴学院,,42,31,33,29,31,163,90,93,92,12,18,4,4,0.6,0.7
2023-09-28T02:00:00,1255A,121.273,28.6459,台州市,黄岩环保大楼,,24,21,30,16,19,138,76,78,77,5,7,5,5,0.5,0.6
2023-09-28T02:00:00,1256A,121.419,28.6542,台州市,台州环保大楼,,29,26,24,13,14,124,90,95,92,5,7,6,6,0.5,0.5
2023-09-28T02:00:00,1257A,121.377,28.5773,台州市,路桥田洋王,,28,28,30,16,17,129,88,91,90,9,9,5,5,0.6,0.6
2023-09-28T02:00:00,1258A,122.122,30.0203,舟山市,定海檀枫,,21,21,26,12,20,126,55,65,60,7,9,6,6,0.6,0.6
2023-09-28T02:00:00,1259A,122.3094,29.9558,舟山市,普陀东港,,23,20,23,16,20,140,56,69,62,14,8,5,5,0.7,0.7
2023-09-28T02:00:00,1260A,122.19,29.9944,舟山市,临城新区,,20,19,24,12,14,133,61,62,62,6,8,8,8,0.7,0.7
2023-09-28T02:00:00,1262A,119.647,29.077,金华市,十五中,,47,47,44,32,28,167,55,65,60,30,24,4,4,0.6,0.6
2023-09-28T02:00:00,1263A,119.686,29.1029,金华市,监测站,"颗粒物(PM10),细颗粒物(PM2.5)",57,64,52,40,31,179,54,64,59,38,31,4,4,0.6,0.6
2023-09-28T02:00:00,1264A,118.8692,28.9398,衢州市,环保大楼,细颗粒物(PM2.5),52,51,52,36,39,162,83,80,80,17,20,4,4,0.6,0.6
2023-09-28T02:00:00,1265A,118.8709,28.9666,衢州市,实验学校,颗粒物(PM10),52,54,57,30,33,164,94,91,91,16,20,2,4,0.5,0.6
2023-09-28T02:00:00,1266A,118.8621,28.9808,衢州市,衢州学院,,49,49,50,32,36,159,82,86,84,23,22,5,5,0.5,0.5
2023-09-28T02:00:00,1267A,119.914,28.4514,丽水市,监测站大楼,,34,34,32,23,16,126,73,90,82,20,12,6,6,0.6,0.5
2023-09-28T02:00:00,1268A,119.93,28.4586,丽水市,莲都小学,,24,24,32,15,17,130,71,87,79,19,12,5,5,0.4,0.3
2023-09-28T02:00:00,1269A,119.879,28.4231,丽水市,余庄前,,33,33,31,21,16,128,46,51,48,13,11,6,6,0.5,0.4
2023-09-28T02:00:00,1270A,117.1959,31.7848,合肥市,明珠广场,细颗粒物(PM2.5),62,68,64,44,38,113,42,40,40,28,24,2,3,0.9,0.9
2023-09-28T02:00:00,1271A,117.3072,31.8764,合肥市,三里街,"颗粒物(PM10),细颗粒物(PM2.5)",64,78,66,46,42,129,46,56,51,27,23,7,6,0.6,0.6
2023-09-28T02:00:00,1272A,117.2588,31.8707,合肥市,琥珀山庄,颗粒物(PM10),58,66,60,31,37,132,42,42,42,28,22,5,5,0.8,0.8
2023-09-28T02:00:00,1273A,117.1604,31.9052,合肥市,董铺水库,"颗粒物(PM10),细颗粒物(PM2.5)",58,66,53,41,34,116,26,48,37,27,14,5,5,0.6,0.6
2023-09-28T02:00:00,1274A,117.25,31.8571,合肥市,长江中路,细颗粒物(PM2.5),67,73,66,48,41,124,45,43,43,19,17,7,7,0.9,0.8
2023-09-28T02:00:00,1275A,117.266,31.9436,合肥市,庐阳区,细颗粒物(PM2.5),64,70,65,46,43,131,41,40,40,22,17,5,5,0.7,0.7
2023-09-28T02:00:00,1276A,117.336,31.8586,合肥市,瑶海区,颗粒物(PM10),62,73,76,43,40,123,49,46,46,26,28,5,5,1.0,0.9
2023-09-28T02:00:00,1277A,117.3027,31.7964,合肥市,包河区,细颗粒物(PM2.5),67,66,65,48,44,122,47,43,43,28,33,5,6,0.7,0.9
2023-09-28T02:00:00,1278A,117.2776,31.7385,合肥市,滨湖新区,细颗粒物(PM2.5),64,73,65,46,41,117,47,38,38,33,32,6,5,0.5,0.5
2023-09-28T02:00:00,1279A,117.1318,31.8403,合肥市,高新区,细颗粒物(PM2.5),70,70,66,51,42,111,38,43,40,21,20,5,5,0.8,0.8
2023-09-28T02:00:00,1280A,119.3903,26.0543,福州市,鼓山,,,,,,,,,,,,,,,,
2023-09-28T02:00:00,1282A,119.2681,26.0504,福州市,师大,,27,27,26,17,14,98,54,66,60,9,8,4,4,0.5,0.3
2023-09-28T02:00:00,1283A,119.2984,26.1028,福州市,五四北路,,24,24,21,13,11,92,64,68,66,6,7,4,3,0.7,0.3
2023-09-28T02:00:00,1284A,119.2648,26.0768,福州市,杨桥西路,,41,41,28,25,13,94,32,62,47,23,9,3,3,0.5,0.4
2023-09-28T02:00:00,1285A,119.317,26.0746,福州市,紫阳,,23,21,25,12,11,90,73,72,72,3,5,4,4,0.5,0.4
2023-09-28T02:00:00,1286A,118.1608,24.8169,厦门市,溪东,,,,,,,,,,,,,,,,
2023-09-28T02:00:00,1287A,118.1514,24.4767,厦门市,洪文,,37,37,33,18,13,87,41,38,38,16,9,4,2,0.2,0.2
2023-09-28T02:00:00,1288A,118.0661,24.4444,厦门市,鼓浪屿,,34,34,31,16,15,86,41,38,38,17,12,5,2,0.3,0.3
2023-09-28T02:00:00,1290A,115.8931,28.6843,南昌市,省外办,颗粒物(PM10),63,75,60,41,33,139,63,71,67,23,15,8,5,1.3,1
2023-09-28T02:00:00,1291A,115.8886,28.7003,南昌市,省林业公司,细颗粒物(PM2.5),62,70,57,44,34,150,63,70,66,32,16,10,7,1.4,1.1
2023-09-28T02:00:00,1292A,115.8126,28.7442,南昌市,林科所,颗粒物(PM10),51,51,44,31,25,149,97,110,104,9,11,9,7,1.0,0.8
2023-09-28T02:00:00,1294A,115.8518,28.687,南昌市,建工学校,颗粒物(PM10),63,75,61,42,36,142,70,78,74,20,12,8,7,1.2,0.9
2023-09-28T02:00:00,1295A,115.8921,28.6424,南昌市,象湖,颗粒物(PM10),60,70,53,39,31,159,78,86,82,14,9,10,7,1.1,0.7
2023-09-28T02:00:00,1296A,115.7423,28.7996,南昌市,武术学校,,38,38,24,10,18,135,85,83,83,9,9,24,20,0.9,0.7
2023-09-28T02:00:00,1298A,115.9314,28.6842,南昌市,省站,"颗粒物(PM10),细颗粒物(PM2.5)",59,67,55,42,31,147,68,84,76,18,10,14,8,1.2,1
2023-09-28T02:00:00,1299A,116.9862,36.6114,济南市,科干所,,29,24,38,20,30,108,37,26,26,31,22,4,5,0.6,0.7
2023-09-28T02:00:00,1300A,116.9376,36.665,济南市,农科所,,39,34,41,27,27,60,6,10,8,27,30,3,3,0.7,0.7
2023-09-28T02:00:00,1301A,117.1265,36.6734,济南市,开发区,,30,27,35,15,20,75,2,7,4,60,43,5,5,0.7,0.7
2023-09-28T02:00:00,1303A,117.0624,36.6868,济南市,省种子仓库,,48,48,47,27,28,79,4,4,4,50,39,4,3,1.1,0.8
2023-09-28T02:00:00,1304A,116.9489,36.6447,济南市,机床二厂,,49,49,49,22,26,75,12,22,17,34,33,5,6,0.9,0.8
2023-09-28T02:00:00,1305A,117.0495,36.663,济南市,市监测站,,32,32,41,20,26,82,9,8,8,61,42,1,1,0.7,0.8
2023-09-28T02:00:00,1306A,116.7675,36.5484,济南市,长清党校,,37,37,55,24,42,87,29,22,22,35,26,3,4,0.6,0.7
2023-09-28T02:00:00,1307A,120.6659,36.2403,青岛市,仰口,,29,29,44,19,38,140,86,92,89,15,17,8,7,0.5,0.6
2023-09-28T02:00:00,1310A,120.4134,36.0658,青岛市,市南区东部子站,细颗粒物(PM2.5),64,75,75,46,44,229,51,66,58,27,30,15,12,1.0,0.8
2023-09-28T02:00:00,1311A,120.3664,36.1032,青岛市,四方区子站,细颗粒物(PM2.5),67,53,69,48,42,223,50,66,58,28,36,15,12,1.2,0.9
2023-09-28T02:00:00,1312A,120.2994,36.054,青岛市,市南区西部子站,细颗粒物(PM2.5),62,70,65,44,40,234,53,72,62,27,21,12,10,1.0,0.8
2023-09-28T02:00:00,1313A,120.4581,36.0858,青岛市,崂山区子站,细颗粒物(PM2.5),73,73,71,53,46,228,56,69,62,29,26,14,12,0.9,0.7
2023-09-28T02:00:00,1314A,120.1983,35.9608,青岛市,黄岛区子站,细颗粒物(PM2.5),59,63,81,42,48,217,57,74,66,34,51,13,11,1.1,0.8
2023-09-28T02:00:00,1315A,120.3999,36.3083,青岛市,城阳区子站,颗粒物(PM10),60,70,77,39,41,190,36,50,43,38,34,13,12,1.0,0.9
2023-09-28T02:00:00,1316A,113.69031,34.76122,郑州市,烟厂,,41,41,37,17,17,64,1,2,2,55,39,4,5,0.8,0.9
2023-09-28T02:00:00,1317A,113.65724,34.77134,郑州市,郑纺机,,41,41,37,16,17,64,4,7,6,55,41,3,4,1.0,1.1
2023-09-28T02:00:00,1318A,113.67526,34.80246,郑州市,银行学校,,31,31,34,19,16,66,5,15,10,53,36,5,6,0.7,0.7
2023-09-28T02:00:00,1319A,113.56746,34.81334,郑州市,供水公司,,38,38,34,15,13,69,5,10,8,50,36,4,5,0.5,0.6
2023-09-28T02:00:00,1320A,113.7329,34.7178,郑州市,经开区管委,,38,38,38,16,17,63,3,3,3,41,36,5,6,0.6,0.7
2023-09-28T02:00:00,1321A,113.73961,34.77172,郑州市,四十七中,,50,50,34,18,18,62,0,0,0,45,35,5,6,0.9,0.9
2023-09-28T02:00:00,1322A,113.60532,34.74838,郑州市,市监测站,,41,41,42,18,21,57,13,8,8,36,44,6,6,0.6,0.8
2023-09-28T02:00:00,1323A,113.64164,34.7525,郑州市,河医大,,38,38,35,15,16,59,3,5,4,49,36,6,7,0.9,1
2023-09-28T02:00:00,1324A,113.51488,34.91089,郑州市,岗李水库,,,,,,,,,,,,,,,,
2023-09-28T02:00:00,1325A,114.3677,30.5584,武汉市,东湖梨园,,21,21,33,10,18,92,43,47,45,24,27,8,10,0.8,1.1
2023-09-28T02:00:00,1326A,114.2529,30.558,武汉市,汉阳月湖,,36,36,35,14,19,83,39,41,40,22,29,6,7,0.6,0.7
2023-09-28T02:00:00,1327A,114.282,30.6189,武汉市,汉口花桥,,27,27,38,12,23,89,43,43,43,20,28,6,6,0.7,0.8
2023-09-28T02:00:00,1328A,114.3025,30.5332,武汉市,武昌紫阳,,26,26,33,10,16,107,32,34,33,29,25,7,6,0.7,0.8
2023-09-28T02:00:00,1329A,114.3646,30.6217,武汉市,青山钢花,,22,22,37,14,26,101,39,36,36,22,30,6,6,0.7,0.9
2023-09-28T02:00:00,1330A,114.1566,30.4825,武汉市,沌口新区,,35,26,34,24,21,100,36,47,42,33,35,8,8,0.6,0.7
2023-09-28T02:00:00,1331A,114.3014,30.5944,武汉市,汉口江滩,,21,21,33,14,19,80,41,41,41,24,30,6,7,0.6,0.8
2023-09-28T02:00:00,1333A,114.135,30.6319,武汉市,吴家山,,35,35,36,17,19,103,34,50,42,29,24,10,10,0.7,0.7
2023-09-28T02:00:00,1334A,113.8454,30.2917,武汉市,沉湖七壕,,37,37,29,13,16,97,52,53,52,8,9,3,2,0.8,0.9
2023-09-28T02:00:00,1335A,113.0833,28.2325,长沙市,经开区环保局,,50,50,36,32,24,79,17,17,17,43,21,5,4,0.6,0.6
2023-09-28T02:00:00,1336A,112.8872,28.2189,长沙市,高开区环保局,颗粒物(PM10),51,52,41,32,27,93,6,4,4,42,16,7,6,0.8,0.8
2023-09-28T02:00:00,1337A,113.0792,28.2053,长沙市,马坡岭,,49,48,41,34,27,95,21,34,28,31,9,6,5,0.6,0.7
2023-09-28T02:00:00,1338A,112.9394,28.19,长沙市,湖南师范大学,,48,42,35,33,26,86,27,24,24,32,15,5,4,0.7,0.7
2023-09-28T02:00:00,1339A,113.0178,28.1322,长沙市,雨花区环保局,,42,42,41,27,20,72,30,39,34,26,18,5,5,0.7,0.8
2023-09-28T02:00:00,1340A,112.9792,28.2597,长沙市,伍家岭,颗粒物(PM10),51,52,36,34,27,76,28,28,28,24,17,4,4,0.7,0.7
2023-09-28T02:00:00,1341A,113.0014,28.1944,长沙市,火车新站,,49,49,40,31,27,92,38,39,38,25,17,6,6,0.8,0.8
2023-09-28T02:00:00,1342A,112.9844,28.1178,长沙市,天心区环保局,,46,46,42,26,22,99,30,42,36,30,18,3,3,0.6,0.7
2023-09-28T02:00:00,1343A,112.8908,28.1308,长沙市,湖南中医药大学,颗粒物(PM10),54,57,52,35,29,95,10,6,6,37,19,3,2,1.0,1
2023-09-28T02:00:00,1344A,112.9581,28.3611,长沙市,沙坪,颗粒物(PM10),72,93,74,21,16,52,30,36,33,11,8,7,6,0.6,0.6
2023-09-28T02:00:00,1345A,113.2347,23.1423,广州市,广雅中学,,36,36,43,23,26,155,41,56,48,38,39,3,4,0.7,0.7
2023-09-28T02:00:00,1346A,113.2612,23.105,广州市,市五中,,44,44,44,24,24,195,39,44,42,31,30,7,8,0.6,0.6
2023-09-28T02:00:00,1348A,113.3478,23.0916,广州市,广东商学院,,36,36,50,18,25,168,10,25,18,65,40,4,4,0.5,0.5
2023-09-28T02:00:00,1349A,113.4332,23.1047,广州市,市八十六中,,50,50,49,24,22,153,18,20,19,50,38,6,6,0.8,0.8
2023-09-28T02:00:00,1350A,113.3505,22.9483,广州市,番禺中学,,34,34,38,17,19,194,47,53,50,29,25,9,8,0.6,0.6
2023-09-28T02:00:00,1351A,113.2146,23.3916,广州市,花都师范,,50,50,54,27,29,163,68,70,69,50,36,16,6,0.8,0.8
2023-09-28T02:00:00,1352A,113.2597,23.1331,广州市,市监测站,,29,29,44,19,24,165,42,50,46,33,36,4,4,0.5,0.5
2023-09-28T02:00:00,1353A,113.5618,23.312,广州市,九龙镇镇龙,,46,46,41,26,23,112,3,7,5,40,28,4,5,0.7,0.6
2023-09-28T02:00:00,1354A,113.2765,23.1544,广州市,麓湖,,34,34,38,19,23,138,32,49,40,32,32,5,6,0.6,0.6
2023-09-28T02:00:00,1355A,113.443,23.3035,广州市,帽峰山森林公园,,29,29,31,18,20,138,30,42,36,26,19,5,6,0.5,0.5
2023-09-28T02:00:00,1356A,114.1063,22.5545,深圳市,通心岭子站,,28,28,24,15,13,114,70,71,70,17,13,2,2,0.6,0.6
2023-09-28T02:00:00,1357A,114.117,22.5625,深圳市,洪湖,,32,32,29,13,11,110,60,78,69,15,12,6,6,0.4,0.4
2023-09-28T02:00:00,1358A,113.987,22.5417,深圳市,华侨城,,28,28,25,12,13,103,66,73,70,9,16,8,8,0.7,0.8
2023-09-28T02:00:00,1359A,113.9181,22.5171,深圳市,南海子站,,31,31,29,19,15,110,74,72,72,8,11,5,5,0.5,0.5
2023-09-28T02:00:00,1360A,114.2458,22.5689,深圳市,盐田,,21,21,25,13,15,121,41,41,41,26,17,6,5,0.5,0.6
2023-09-28T02:00:00,1361A,114.2283,22.7244,深圳市,龙岗,,23,22,30,16,15,126,58,64,61,10,11,6,6,0.7,0.7
2023-09-28T02:00:00,1363A,114.494,22.5422,深圳市,南澳,,29,22,25,20,22,124,58,58,58,10,9,2,4,0.3,0.4
2023-09-28T02:00:00,1364A,114.41,22.6342,深圳市,葵涌,,30,30,29,12,13,126,63,62,62,10,11,6,6,0.5,0.5
2023-09-28T02:00:00,1365A,114.297,22.5978,深圳市,梅沙,,24,24,26,12,14,112,48,48,48,9,8,6,6,0.7,0.7
2023-09-28T02:00:00,1366A,114.0678,22.738,深圳市,观澜,,37,37,42,12,17,165,61,54,54,19,24,8,8,0.8,0.8
2023-09-28T02:00:00,1367A,113.5814,22.2618,珠海市,吉大,,26,26,22,17,14,126,52,60,56,20,16,7,6,0.3,0.5
2023-09-28T02:00:00,1368A,113.4881,22.2335,珠海市,前山,,24,24,21,4,10,124,53,59,56,1,4,6,6,0.4,0.4
2023-09-28T02:00:00,1369A,113.628,22.4251,珠海市,唐家,,23,23,23,15,12,143,47,57,52,15,11,6,6,0.4,0.4
2023-09-28T02:00:00,1370A,113.299,22.2281,珠海市,斗门,,20,20,22,13,15,144,60,63,62,7,13,7,7,0.5,0.5
2023-09-28T02:00:00,1371A,113.1294,23.0067,佛山市,湾梁,,25,19,32,17,19,220,32,38,35,30,29,7,7,0.6,0.6
2023-09-28T02:00:00,1372A,113.1083,23.0478,佛山市,华材职中,,36,27,36,25,25,211,6,23,14,62,36,4,5,0.7,0.5
2023-09-28T02:00:00,1373A,113.144,23.0453,佛山市,南海气象局,,30,30,39,21,19,170,28,35,32,40,32,5,5,0.6,0.5
2023-09-28T02:00:00,1374A,113.2881,22.8094,佛山市,顺德苏岗,,30,30,35,17,18,236,37,40,38,22,24,8,8,0.6,0.7
2023-09-28T02:00:00,1376A,112.8383,22.8678,佛山市,高明孔堂,,30,30,40,16,19,209,40,38,38,23,30,5,6,0.6,0.6
2023-09-28T02:00:00,1377A,112.8836,23.1588,佛山市,三水监测站,,48,48,49,28,32,217,67,95,81,42,42,3,3,0.6,0.7
2023-09-28T02:00:00,1378A,112.867,23.185,佛山市,三水云东海,,47,47,45,29,30,197,37,49,43,32,32,5,6,0.7,0.7
2023-09-28T02:00:00,1379A,113.3769,22.5211,中山市,华柏园,,29,20,23,20,15,163,61,65,63,13,14,6,6,0.3,0.3
2023-09-28T02:00:00,1380A,113.3881,22.5497,中山市,张溪,,35,35,36,16,15,171,58,65,62,11,16,6,5,0.5,0.5
2023-09-28T02:00:00,1381A,113.4075,22.5111,中山市,紫马岭,,28,19,23,19,16,165,41,45,43,13,10,6,6,0.4,0.4
2023-09-28T02:00:00,1382A,113.4411,22.4853,中山市,长江旅游区,,,,,,,,,,,,,,,,
2023-09-28T02:00:00,1383A,113.1064,22.6058,江门市,北街,,32,28,30,22,18,187,46,52,49,19,17,6,5,0.5,0.5
2023-09-28T02:00:00,1384A,113.0731,22.5835,江门市,西区,,33,33,30,16,15,184,59,65,62,17,17,6,6,0.4,0.5
2023-09-28T02:00:00,1385A,113.0219,22.5311,江门市,圭峰西,,28,28,26,18,17,160,61,68,64,13,15,4,4,0.4,0.5
2023-09-28T02:00:00,1386A,113.0828,22.5947,江门市,东湖,,32,32,31,6,13,183,55,62,58,14,13,7,8,0.5,0.5
2023-09-28T02:00:00,1389A,113.7547,23.0494,东莞市,莞城梨川,颗粒物(PM10),51,52,40,26,20,172,44,40,40,35,25,6,6,0.7,0.6
2023-09-28T02:00:00,1390A,113.7944,23.0128,东莞市,东城石井,,49,49,40,21,20,172,28,25,25,30,23,3,4,0.7,0.7
2023-09-28T02:00:00,1391A,113.7383,22.9658,东莞市,南城西平,颗粒物(PM10),52,54,38,27,19,172,4,20,12,74,28,8,9,0.9,0.7
2023-09-28T02:00:00,1392A,114.4183,23.0528,惠州市,河南岸金山湖子站,,41,41,37,25,20,128,40,51,46,18,13,5,6,0.5,0.5
2023-09-28T02:00:00,1393A,114.4053,23.0822,惠州市,下埔横江三路子站,,40,40,37,22,20,118,59,58,58,13,11,7,6,0.6,0.6
2023-09-28T02:00:00,1394A,114.4103,23.1142,惠州市,江北云山西路子站,,40,40,36,18,18,128,62,61,61,12,10,7,7,0.6,0.5
2023-09-28T02:00:00,1395A,114.4645,22.7833,惠州市,惠阳区承修路船湖子站,,39,39,32,22,19,117,73,76,74,12,9,4,4,0.7,0.6
2023-09-28T02:00:00,1396A,114.5317,22.7422,惠州市,大亚湾管委会子站,颗粒物(PM10),53,56,38,18,15,116,41,56,48,26,18,7,7,0.7,0.7
2023-09-28T02:00:00,1397A,112.4267,23.0706,肇庆市,睦岗子站,颗粒物(PM10),57,64,57,37,33,222,37,63,50,53,37,10,7,0.5,0.5
2023-09-28T02:00:00,1398A,112.4645,23.0475,肇庆市,城中子站,,43,43,54,28,34,225,51,78,64,46,45,11,9,0.6,0.6
2023-09-28T02:00:00,1399A,112.5544,23.1522,肇庆市,坑口子站,,32,32,46,19,29,213,52,59,56,21,24,7,7,0.4,0.5
2023-09-28T02:00:00,1400A,112.4753,23.1,肇庆市,七星岩子站,,,,,,,,,,,,,,,,
2023-09-28T02:00:00,1401A,108.3103,22.7881,南宁市,二十一中,颗粒物(PM10),54,57,45,22,25,134,37,20,20,25,23,18,9,0.8,0.8
2023-09-28T02:00:00,1402A,108.3141,22.8528,南宁市,北湖,,31,31,46,21,26,130,49,47,47,16,19,5,7,0.5,0.5
2023-09-28T02:00:00,1403A,108.3206,22.8225,南宁市,市监测站,,46,46,50,25,28,122,36,28,28,45,36,13,12,0.7,0.7
2023-09-28T02:00:00,1404A,108.3829,22.8037,南宁市,大自然花园,,40,40,40,18,24,122,34,19,19,24,24,6,6,0.7,0.7
2023-09-28T02:00:00,1405A,108.4394,22.7904,南宁市,仙葫,,40,40,46,18,24,123,48,27,27,19,32,6,6,0.4,0.5
2023-09-28T02:00:00,1406A,108.2397,22.8467,南宁市,区农职院,,39,39,44,16,22,129,33,51,42,34,23,25,12,0.7,0.7
2023-09-28T02:00:00,1407A,108.3275,22.735,南宁市,英华嘉园,,40,40,42,13,22,129,47,38,38,18,24,9,7,0.5,0.6
2023-09-28T02:00:00,1408A,108.2257,22.7757,南宁市,沙井镇街道办,,37,37,46,8,24,130,32,26,26,30,29,5,7,0.7,0.7
2023-09-28T02:00:00,1409A,110.576,19.9507,海口市,东寨港,,,,,,,,,,,,,,,,
2023-09-28T02:00:00,1410A,110.3232,20.0574,海口市,海南大学,,16,16,14,8,5,46,46,46,46,8,7,6,6,0.4,0.3
2023-09-28T02:00:00,1411A,110.283,20.0053,海口市,秀英海南医院,,23,23,15,11,8,37,31,37,34,10,19,7,6,0.3,0.4
2023-09-28T02:00:00,1412A,110.338,19.9969,海口市,海南师范大学,,22,22,15,12,7,44,44,40,40,7,10,5,4,0.4,0.4
2023-09-28T02:00:00,1413A,110.33,20.0356,海口市,龙华路环保局宿舍,,30,30,18,11,7,44,43,42,42,8,8,7,7,0.0,0.1
2023-09-28T02:00:00,1414A,106.3787,29.8279,重庆市,缙云山,,11,11,16,4,5,50,34,37,36,5,7,7,6,0.2,0.2
2023-09-28T02:00:00,1416A,106.4213,29.8253,重庆市,天生,,25,23,38,17,23,45,12,12,12,19,20,5,9,0.8,0.8
2023-09-28T02:00:00,1417A,106.6263,29.7228,重庆市,两路,,33,33,31,21,20,38,5,5,5,30,25,9,9,1.0,0.8
2023-09-28T02:00:00,1418A,106.2953,29.5983,重庆市,虎溪,,29,26,35,20,24,40,32,24,24,10,21,6,8,0.5,0.6
2023-09-28T02:00:00,1419A,106.5777,29.5102,重庆市,南坪,,48,48,51,27,29,28,6,4,4,34,40,10,8,0.6,0.7
2023-09-28T02:00:00,1420A,106.6556,29.6277,重庆市,唐家沱,,36,25,29,25,21,24,2,2,2,37,32,5,6,0.8,0.8
2023-09-28T02:00:00,1421A,106.6349,29.4906,重庆市,茶园,,27,27,37,15,22,35,20,20,20,35,42,6,6,0.8,1
2023-09-28T02:00:00,1422A,106.3754,29.4572,重庆市,白市驿,,47,47,47,22,24,32,10,7,7,28,29,8,7,0.7,0.7
2023-09-28T02:00:00,1425A,106.6205,29.7166,重庆市,空港,,45,45,37,28,23,43,13,15,14,26,27,8,8,0.8,0.8
2023-09-28T02:00:00,1426A,106.4782,29.4875,重庆市,新山村,颗粒物(PM10),55,59,48,34,28,28,5,5,5,39,41,7,8,0.8,0.9
2023-09-28T02:00:00,1427A,106.5616,29.6453,重庆市,礼嘉,颗粒物(PM10),53,56,39,30,26,49,13,14,14,24,24,6,7,0.8,0.8
2023-09-28T02:00:00,1428A,106.4522,29.7091,重庆市,蔡家,,38,38,43,20,22,52,21,20,20,16,20,6,7,0.8,0.8
2023-09-28T02:00:00,1429A,106.5093,29.3917,重庆市,鱼新街,,45,45,46,28,27,28,7,12,10,28,37,9,9,1.0,1
2023-09-28T02:00:00,1431A,103.9728,30.7236,成都市,金泉两河,细颗粒物(PM2.5),79,60,45,58,27,68,8,8,8,35,30,2,2,0.5,0.5
2023-09-28T02:00:00,1432A,104.176,30.6872,成都市,十里店,颗粒物(PM10),56,62,39,36,21,51,2,5,4,50,34,3,3,0.7,0.6
2023-09-28T02:00:00,1433A,104.079,30.5706,成都市,三瓦窑,颗粒物(PM10),52,54,40,30,16,48,2,1,1,45,39,5,3,0.7,0.7
2023-09-28T02:00:00,1434A,104.1114,30.63,成都市,沙河铺,细颗粒物(PM2.5),64,70,51,46,30,48,0,0,0,37,30,1,2,0.7,0.6
2023-09-28T02:00:00,1437A,104.0786,30.6531,成都市,君平街,细颗粒物(PM2.5),74,82,52,54,35,62,3,2,2,56,37,3,2,0.8,0.6
2023-09-28T02:00:00,1438A,103.613,31.0283,成都市,灵岩寺,,25,24,34,17,23,80,42,39,39,14,15,10,7,0.8,0.8
2023-09-28T02:00:00,1439A,106.6899,26.5998,贵阳市,马鞍山,,,,,,,,,,,,,,,,
2023-09-28T02:00:00,1440A,106.6971,26.5694,贵阳市,市环保站,,48,36,28,33,22,88,29,24,24,25,20,5,4,0.4,0.3
2023-09-28T02:00:00,1441A,106.6243,26.6266,贵阳市,鉴湖路,,39,39,32,22,16,80,16,31,24,26,10,5,5,0.5,0.4
2023-09-28T02:00:00,1442A,106.7487,26.6343,贵阳市,燕子冲,,35,31,23,24,16,84,4,15,10,30,18,5,5,0.8,0.7
2023-09-28T02:00:00,1443A,106.6555,26.4365,贵阳市,碧云窝,,46,46,33,27,20,77,10,12,11,10,10,5,5,0.6,0.5
2023-09-28T02:00:00,1444A,106.694,26.5161,贵阳市,中院村,细颗粒物(PM2.5),58,61,36,41,21,74,17,14,14,27,19,11,8,0.4,0.3
2023-09-28T02:00:00,1445A,106.7109,26.6027,贵阳市,红边门,,44,44,33,29,23,80,10,15,12,29,20,4,5,0.5,0.4
2023-09-28T02:00:00,1446A,106.7164,26.5699,贵阳市,新华路,细颗粒物(PM2.5),55,58,32,39,21,83,10,20,15,44,20,8,7,0.6,0.4
2023-09-28T02:00:00,1447A,106.674,26.5424,贵阳市,太慈桥,,32,29,21,22,14,80,8,9,8,17,14,4,4,0.4,0.3
2023-09-28T02:00:00,1450A,102.8204,24.8886,昆明市,呈贡新区,,21,21,24,9,10,58,38,38,38,16,18,6,5,0.6,0.6
2023-09-28T02:00:00,1451A,102.6251,24.9608,昆明市,西山森林公园,,15,8,10,10,20,72,34,37,36,14,12,5,5,0.5,0.5
2023-09-28T02:00:00,1452A,102.7252,25.0902,昆明市,龙泉镇,,11,11,18,7,9,63,27,26,26,12,14,8,8,0.5,0.5
2023-09-28T02:00:00,1453A,102.7266,25.0375,昆明市,东风东路,,17,17,21,10,11,60,33,34,34,15,19,6,7,0.5,0.6
2023-09-28T02:00:00,1454A,102.6742,25.0669,昆明市,金鼎山,,16,16,24,10,10,65,36,40,38,14,20,12,19,0.3,0.3
2023-09-28T02:00:00,1455A,102.6644,25.0401,昆明市,碧鸡广场,,18,18,20,11,8,73,38,36,36,14,20,6,10,0.5,0.5
2023-09-28T02:00:00,1456A,91.1319,29.6514,拉萨市,八廓街,,28,28,22,12,13,123,44,38,38,34,21,9,8,0.4,0.3
2023-09-28T02:00:00,1457A,91.1221,29.6747,拉萨市,市环保局,,25,25,22,15,11,123,39,38,38,31,24,7,8,0.5,0.5
2023-09-28T02:00:00,1458A,91.0874,29.6475,拉萨市,区监测站,,24,24,17,14,10,111,34,34,34,37,24,9,10,0.4,0.3
2023-09-28T02:00:00,1459A,91.1774,29.6541,拉萨市,西藏大学,,29,29,15,7,7,116,60,54,54,17,15,11,10,0.4,0.5
2023-09-28T02:00:00,1460A,90.9798,29.6588,拉萨市,区辐射站,,27,27,22,7,10,108,43,34,34,33,23,6,6,0.3,0.3
2023-09-28T02:00:00,1461A,91.0834,29.6292,拉萨市,拉萨火车站,,18,18,18,9,8,109,50,52,51,29,20,6,6,0.4,0.3
2023-09-28T02:00:00,1462A,108.882,34.2749,西安市,高压开关厂,,31,31,21,16,11,114,12,21,16,57,34,7,7,0.6,0.6
2023-09-28T02:00:00,1463A,108.993,34.2629,西安市,兴庆小区,,16,16,16,10,10,113,35,35,35,23,26,5,6,0.4,0.6
2023-09-28T02:00:00,1464A,109.06,34.2572,西安市,纺织城,,22,22,18,7,11,125,7,9,8,37,34,5,5,0.7,0.8
2023-09-28T02:00:00,1465A,108.9356,34.2173,西安市,小寨,,22,21,18,8,8,117,15,15,15,43,22,6,6,0.6,0.6
2023-09-28T02:00:00,1466A,108.954,34.2713,西安市,市人民体育场,,26,26,19,15,12,108,9,10,10,32,24,6,6,0.6,0.6
2023-09-28T02:00:00,1467A,108.8922,34.2322,西安市,高新西区,,26,26,15,14,9,112,26,26,26,33,17,6,6,0.8,0.7
2023-09-28T02:00:00,1468A,108.935,34.3474,西安市,经开区,,31,31,23,16,11,111,1,4,2,45,31,2,2,0.7,0.6
2023-09-28T02:00:00,1469A,108.906,34.1546,西安市,长安区,,17,17,13,7,8,122,20,20,20,19,16,7,6,0.6,0.6
2023-09-28T02:00:00,1471A,109.2186,34.3731,西安市,临潼区,,33,33,17,15,10,118,19,55,37,29,13,5,5,0.8,0.6
2023-09-28T02:00:00,1472A,108.869,34.378,西安市,草滩,,35,35,30,15,13,130,22,22,22,38,36,15,13,0.1,0
2023-09-28T02:00:00,1473A,108.985,34.1978,西安市,曲江文化产业集团,,15,15,16,8,9,114,31,26,26,30,25,4,4,0.5,0.6
2023-09-28T02:00:00,1474A,109.051,34.3213,西安市,广运潭,,17,17,17,8,9,110,11,16,14,34,27,6,7,0.6,0.6
2023-09-28T02:00:00,1476A,103.631,36.1031,兰州市,兰炼宾馆,,41,41,33,28,24,89,32,44,38,36,22,5,5,0.6,0.4
2023-09-28T02:00:00,1477A,104.1373,35.9454,兰州市,榆中兰大校区,,,,,,,,,,,,,,,,
2023-09-28T02:00:00,1478A,103.8412,36.0726,兰州市,生物制品所,,50,37,33,35,31,88,33,46,40,36,22,6,5,0.6,0.6
2023-09-28T02:00:00,1479A,103.831,36.0464,兰州市,铁路设计院,,40,33,33,28,24,101,48,54,51,28,29,10,8,0.6,0.7
2023-09-28T02:00:00,1483A,101.524,36.6867,西宁市,第五水厂,,,,,,,,,,,,,,,,
2023-09-28T02:00:00,1484A,105.9512,38.6016,银川市,贺兰山马莲口,,27,21,38,11,13,100,84,84,84,6,16,5,14,0.2,0.5
2023-09-28T02:00:00,1488A,106.2328,38.4975,银川市,贺兰山东路,颗粒物(PM10),53,56,56,31,23,100,54,48,48,30,31,7,14,0.5,0.6
2023-09-28T02:00:00,1489A,106.1358,38.5036,银川市,学院路,颗粒物(PM10),63,75,68,35,27,97,8,9,8,62,37,6,14,0.5,0.6
2023-09-28T02:00:00,1490A,87.5801,43.8303,乌鲁木齐市,监测站,颗粒物(PM10),67,83,45,24,14,76,3,2,2,71,46,4,6,0.6,0.7
2023-09-28T02:00:00,1491A,87.6046,43.768,乌鲁木齐市,收费所,颗粒物(PM10),61,71,44,28,18,83,4,4,4,49,37,2,2,0.5,0.5
2023-09-28T02:00:00,1492A,87.4754,43.9469,乌鲁木齐市,新疆农科院农场,颗粒物(PM10),78,105,48,21,14,88,2,3,2,56,28,4,9,0.6,0.7
2023-09-28T02:00:00,1493A,87.5525,43.8711,乌鲁木齐市,铁路局,颗粒物(PM10),68,86,47,25,15,79,0,0,0,59,38,5,5,1.2,0.8
2023-09-28T02:00:00,1494A,87.6432,43.831,乌鲁木齐市,三十一中学,颗粒物(PM10),64,78,44,26,15,85,0,1,0,73,38,6,6,0.9,0.6
2023-09-28T02:00:00,1496A,87.7216,44.1747,乌鲁木齐市,米东区环保局,,20,20,23,7,9,91,34,35,34,25,12,8,9,0.3,0.3
2023-09-28T02:00:00,1508A,112.9433,27.8614,湘潭市,板塘,颗粒物(PM10),61,72,46,34,27,94,17,11,11,31,21,8,7,0.3,0.1
2023-09-28T02:00:00,1511A,112.9118,27.8403,湘潭市,市监测站,颗粒物(PM10),51,51,47,33,26,103,33,29,29,19,16,4,4,1.1,0.9
2023-09-28T02:00:00,1512A,112.8937,27.8728,湘潭市,江麓,颗粒物(PM10),62,74,62,33,23,102,34,30,30,19,16,9,7,0.9,0.7
2023-09-28T02:00:00,1513A,112.9227,27.8159,湘潭市,岳塘,颗粒物(PM10),54,58,45,34,27,113,29,25,25,26,18,10,9,0.7,0.6
2023-09-28T02:00:00,1514A,112.9074,27.9119,湘潭市,科大,颗粒物(PM10),61,71,54,32,25,97,14,14,14,30,19,7,6,0.6,0.4
2023-09-28T02:00:00,1515A,113.135,27.8244,株洲市,天台山庄,颗粒物(PM10),54,57,50,36,30,129,26,46,36,32,20,5,5,0.9,0.9
2023-09-28T02:00:00,1518A,113.095,27.8867,株洲市,株冶医院,颗粒物(PM10),58,66,53,39,29,116,0,6,3,60,22,12,5,1.2,0.8
2023-09-28T02:00:00,1519A,113.167,27.8667,株洲市,市四中,颗粒物(PM10),58,65,56,38,32,119,29,36,32,26,20,4,4,0.8,0.8
2023-09-28T02:00:00,1520A,113.143,27.8381,株洲市,火车站,颗粒物(PM10),55,59,50,34,28,126,33,42,38,28,20,6,5,0.7,0.7
2023-09-28T02:00:00,1524A,113.13,27.8528,株洲市,市监测站,"颗粒物(PM10),细颗粒物(PM2.5)",53,56,52,37,32,125,23,43,33,36,20,5,5,0.9,0.8
2023-09-28T02:00:00,1552A,106.805,26.3003,贵阳市,桐木岭,,,,,,,,,,,,,,,,
2023-09-28T02:00:00,1559A,113.251,27.8336,株洲市,大京风景区,颗粒物(PM10),54,58,51,34,38,116,35,34,34,15,12,4,4,0.6,0.6
2023-09-28T02:00:00,1562A,113.0048,27.9153,湘潭市,昭山,颗粒物(PM10),58,66,55,34,24,115,8,6,6,40,22,5,5,0.9,0.9
2023-09-28T02:00:00,1564A,112.4876,27.9164,湘潭市,韶山,颗粒物(PM10),52,54,45,18,19,89,56,41,41,9,11,5,5,0.7,0.7
2023-09-28T02:00:00,1585A,109.8756,40.6532,包头市,市环境监测站,,50,50,36,15,10,99,6,61,34,70,21,10,8,0.6,0.5
2023-09-28T02:00:00,1587A,109.9991,40.5842,包头市,包头八中,颗粒物(PM10),54,58,44,22,9,105,7,14,10,69,30,15,18,0.7,0.6
2023-09-28T02:00:00,1588A,109.8538,40.6821,包头市,青山宾馆,,40,40,28,21,9,97,46,49,48,27,21,11,10,0.4,0.5
2023-09-28T02:00:00,1589A,109.8642,40.6288,包头市,惠龙物流,,39,39,36,3,9,106,7,51,29,71,25,26,12,0.6,0.5
2023-09-28T02:00:00,1590A,110.0377,40.5546,包头市,东河鸿龙湾,,41,41,37,19,10,113,36,26,26,33,22,14,14,0.5,0.5
2023-09-28T02:00:00,1591A,110.0023,39.8129,鄂尔多斯市,综合楼,,31,31,33,5,4,98,26,19,19,53,27,6,8,0.5,0.5
2023-09-28T02:00:00,1592A,109.9486,39.8261,鄂尔多斯市,巴音孟克林场办事处,,35,24,32,12,10,97,40,43,42,43,29,104,13,1.1,0.4
2023-09-28T02:00:00,1593A,109.7736,39.5986,鄂尔多斯市,康泽苑,,24,24,28,5,7,103,43,42,42,14,16,4,6,0.4,0.5
2023-09-28T02:00:00,1594A,109.8119,39.5989,鄂尔多斯市,华泰汽车城,,17,17,31,9,10,95,24,22,22,23,25,3,4,0.4,0.4
2023-09-28T02:00:00,1595A,109.9734,39.7884,鄂尔多斯市,奥林花园,,29,29,41,7,9,97,4,4,4,55,28,7,8,0.5,0.5
2023-09-28T02:00:00,1597A,122.2703,40.7094,营口市,大庆路,细颗粒物(PM2.5),79,53,64,58,76,149,51,55,53,24,24,4,6,1.9,1.5
2023-09-28T02:00:00,1598A,122.2150,40.6511,营口市,镜湖西路,颗粒物(PM10),66,81,75,42,46,166,63,80,72,22,24,7,7,2.2,1.2
2023-09-28T02:00:00,1599A,122.1658,40.6789,营口市,西炮台,细颗粒物(PM2.5),83,110,100,61,69,166,52,66,59,24,20,6,5,1.2,1.3
2023-09-28T02:00:00,1600A,124.3303,40.0625,丹东市,江湾东路,细颗粒物(PM2.5),67,68,47,48,29,122,50,40,40,21,18,8,10,1.2,1
2023-09-28T02:00:00,1601A,124.4256,40.1503,丹东市,临江后街,颗粒物(PM10),53,56,42,32,22,123,37,46,42,22,14,7,8,1.0,0.9
2023-09-28T02:00:00,1602A,124.3933,40.1461,丹东市,元宝山,细颗粒物(PM2.5),78,72,69,57,44,116,50,62,56,17,20,8,9,0.8,0.8
2023-09-28T02:00:00,1603A,124.3633,40.1092,丹东市,民主桥,,49,49,37,28,21,120,88,62,62,11,19,5,6,1.1,0.9
2023-09-28T02:00:00,1604A,122.0303,41.1489,盘锦市,开发区,,42,42,63,8,45,140,26,44,35,62,41,9,6,0.5,1.2
2023-09-28T02:00:00,1605A,122.0485,41.0883,盘锦市,兴隆台,,38,38,66,9,45,144,20,39,30,62,38,9,7,0.5,1.1
2023-09-28T02:00:00,1606A,121.8297,41.1028,盘锦市,新生街道,,34,34,54,9,33,147,5,5,5,60,31,7,8,1.1,1.2
2023-09-28T02:00:00,1607A,120.9092,40.7136,葫芦岛市,龙港区,,34,34,76,9,57,130,38,41,40,45,38,22,28,0.4,1.1
2023-09-28T02:00:00,1608A,120.8392,40.7514,葫芦岛市,化工街,颗粒物(PM10),56,61,93,17,40,105,7,13,10,59,39,31,18,0.4,1
2023-09-28T02:00:00,1609A,120.8341,40.7073,葫芦岛市,新区,,,63,78,30,56,128,,,,49,56,15,12,0.8,1.4
2023-09-28T02:00:00,1610A,120.8695,40.7677,葫芦岛市,东城区,颗粒物(PM10),54,58,70,9,28,115,8,6,6,58,46,20,27,0.6,1.2
2023-09-28T02:00:00,1611A,118.5819,24.9117,泉州市,涂山街,,22,16,32,10,12,109,68,64,64,6,7,5,6,0.6,0.6
2023-09-28T02:00:00,1612A,118.5972,24.8978,泉州市,津头埔,,21,14,28,9,13,104,66,60,60,7,14,4,5,0.4,0.5
2023-09-28T02:00:00,1613A,118.6663,24.9424,泉州市,万安,,24,24,32,13,15,106,54,46,46,15,14,3,3,0.6,0.6
2023-09-28T02:00:00,1614A,118.6117,24.9604,泉州市,清源山,,,,,,,,,,,,,,,,
2023-09-28T02:00:00,1616A,117.6795,36.229,济南市,技术学院,,39,39,86,18,43,99,3,4,4,48,41,7,8,0.9,1.9
2023-09-28T02:00:00,1618A,118.3429,35.0532,临沂市,沂河小区,"颗粒物(PM10),细颗粒物(PM2.5)",59,68,64,42,31,147,24,26,25,46,37,9,10,0.6,0.5
2023-09-28T02:00:00,1619A,118.295,35.0583,临沂市,鲁南制药厂,颗粒物(PM10),63,75,69,35,26,150,26,23,23,42,38,10,10,0.7,0.6
2023-09-28T02:00:00,1620A,118.2794,34.9976,临沂市,新光毛纺厂,细颗粒物(PM2.5),63,68,63,45,30,136,22,19,19,50,45,11,10,1.0,0.8
2023-09-28T02:00:00,1621A,118.3956,35.0888,临沂市,河东保险公司,颗粒物(PM10),57,63,55,36,35,162,26,23,23,38,30,4,6,0.9,0.8
2023-09-28T02:00:00,1622A,116.3032,37.4674,德州市,儿童乐园,颗粒物(PM10),79,107,89,44,44,62,8,8,8,42,24,8,8,1.2,1.1
2023-09-28T02:00:00,1624A,116.2991,37.4451,德州市,监理站,颗粒物(PM10),65,80,66,39,57,51,0,0,0,43,28,12,11,1.1,0.9
2023-09-28T02:00:00,1625A,115.9848,36.4372,聊城市,区政府,,36,24,50,25,43,75,5,5,5,37,23,3,3,1.0,0.9
2023-09-28T02:00:00,1628A,118.0062,37.3803,滨州市,市环保局,细颗粒物(PM2.5),98,108,75,73,51,69,18,28,23,31,29,23,12,1.5,1
2023-09-28T02:00:00,1629A,118.0018,37.3617,滨州市,第二水厂,细颗粒物(PM2.5),72,80,62,52,46,77,12,25,18,43,37,17,13,1.4,1
2023-09-28T02:00:00,1630A,117.9776,37.393,滨州市,北中新校,颗粒物(PM10),71,92,78,48,49,76,12,17,14,33,32,6,11,1.1,1.1
2023-09-28T02:00:00,1631A,118.0414,36.8103,淄博市,人民公园,颗粒物(PM10),56,61,71,36,43,86,0,0,0,60,52,12,9,0.7,0.8
2023-09-28T02:00:00,1633A,117.8525,36.4847,淄博市,双山,,20,20,38,12,21,94,9,11,10,31,28,6,4,0.3,0.6
2023-09-28T02:00:00,1634A,117.9592,36.6331,淄博市,气象站,,48,48,46,29,31,96,0,0,0,43,39,11,8,0.4,0.6
2023-09-28T02:00:00,1635A,118.3092,36.8194,淄博市,莆田园,颗粒物(PM10),70,90,86,41,42,150,7,8,8,71,53,12,15,1.3,1.3
2023-09-28T02:00:00,1637A,117.558,34.8438,枣庄市,市中区政府,细颗粒物(PM2.5),79,80,65,58,45,146,44,42,42,29,31,4,8,0.6,0.6
2023-09-28T02:00:00,1638A,117.2852,34.7837,枣庄市,薛城环保局,细颗粒物(PM2.5),93,98,71,69,46,116,18,19,18,40,31,7,8,0.9,0.8
2023-09-28T02:00:00,1639A,117.5852,34.7745,枣庄市,峄城区政府,"颗粒物(PM10),细颗粒物(PM2.5)",64,78,59,46,29,150,47,53,50,28,27,10,12,0.7,0.7
2023-09-28T02:00:00,1640A,117.7276,34.5578,枣庄市,台儿庄区环保局,颗粒物(PM10),68,85,56,46,32,148,26,31,28,43,30,6,7,0.8,0.8
2023-09-28T02:00:00,1641A,117.4518,35.0992,枣庄市,山亭区环保局,细颗粒物(PM2.5),80,73,41,59,32,143,58,60,59,19,21,4,5,0.8,0.7
2023-09-28T02:00:00,1642A,121.2514,37.5639,烟台市,开发区,细颗粒物(PM2.5),70,61,51,51,38,174,61,71,66,16,25,5,5,1.2,1
2023-09-28T02:00:00,1643A,121.3719,37.5433,烟台市,轴承厂,细颗粒物(PM2.5),102,80,64,76,54,176,70,79,74,15,21,7,7,0.8,0.7
2023-09-28T02:00:00,1644A,121.3181,37.5436,烟台市,西郊化工站,细颗粒物(PM2.5),80,70,59,59,44,174,60,73,66,28,31,12,11,1.1,1
2023-09-28T02:00:00,1645A,121.4478,37.4822,烟台市,莱山环保局,细颗粒物(PM2.5),59,53,54,42,39,191,67,68,68,19,25,10,9,0.9,0.8
2023-09-28T02:00:00,1646A,121.2611,37.4967,烟台市,福山环保局,细颗粒物(PM2.5),67,66,55,48,34,165,60,73,66,23,28,4,3,0.5,0.5
2023-09-28T02:00:00,1650A,119.1437,36.7023,潍坊市,环保局,颗粒物(PM10),67,83,94,47,58,144,4,9,6,68,47,15,14,1.1,0.9
2023-09-28T02:00:00,1653A,116.6251,35.4302,济宁市,火炬城,颗粒物(PM10),61,71,51,34,32,90,7,10,8,37,25,8,10,0.8,0.7
2023-09-28T02:00:00,1655A,116.5491,35.4042,济宁市,电化厂,颗粒物(PM10),54,58,69,34,33,88,5,4,4,45,33,3,5,0.9,0.8
2023-09-28T02:00:00,1656A,117.1437,36.1937,泰安市,监测站,,46,46,47,26,33,76,5,7,6,32,23,8,8,0.7,0.7
2023-09-28T02:00:00,1657A,117.0885,36.2017,泰安市,人口学校,,28,22,35,19,24,86,51,50,50,16,22,7,7,0.4,0.6
2023-09-28T02:00:00,1658A,117.1089,36.1758,泰安市,电力学校,,35,27,43,24,29,84,5,15,10,36,32,8,8,0.6,0.5
2023-09-28T02:00:00,1659A,119.471,35.4209,日照市,监测站,,46,46,71,32,52,165,46,81,64,43,49,8,11,0.9,1.2
2023-09-28T02:00:00,1660A,119.523,35.4216,日照市,市政府广场,,39,39,71,24,48,172,93,92,92,19,32,6,9,0.6,1
2023-09-28T02:00:00,1661A,119.5587,35.4044,日照市,港务局,,33,19,75,17,51,183,103,108,106,13,31,8,12,0.6,1
2023-09-28T02:00:00,1662A,122.1214,37.4236,威海市,华夏技校,细颗粒物(PM2.5),53,48,42,37,40,169,86,73,73,15,19,5,4,0.7,0.6
2023-09-28T02:00:00,1663A,122.0508,37.5236,威海市,山大分校,细颗粒物(PM2.5),64,76,42,46,29,179,96,101,98,11,13,7,7,1.0,0.7
2023-09-28T02:00:00,1664A,122.1067,37.5072,威海市,市监测站,细颗粒物(PM2.5),62,71,51,44,36,175,91,91,91,10,16,9,8,1.1,0.8
2023-09-28T02:00:00,1666A,118.6614,37.4309,东营市,市环保局,细颗粒物(PM2.5),77,68,49,56,41,116,36,42,39,20,32,10,11,1.0,0.9
2023-09-28T02:00:00,1669A,113.5824,24.7733,韶关市,市八中,,30,30,28,11,15,86,38,44,41,9,10,10,11,0.7,0.7
2023-09-28T02:00:00,1671A,113.5917,24.7972,韶关市,园林处,,30,26,29,21,23,90,41,39,39,3,8,8,10,0.6,0.7
2023-09-28T02:00:00,1672A,113.6735,24.7791,韶关市,韶关学院,,23,23,28,14,18,89,28,52,40,12,9,9,8,0.6,0.6
2023-09-28T02:00:00,1673A,113.5971,24.6863,韶关市,曲江监测站,,20,14,33,14,20,101,48,34,34,10,15,14,11,0.7,0.7
2023-09-28T02:00:00,1674A,116.6794,23.3667,汕头市,金平子站,,23,23,30,15,22,118,67,67,67,12,13,5,7,0.7,0.8
2023-09-28T02:00:00,1675A,116.7244,23.3633,汕头市,龙湖子站,,25,25,29,8,14,118,74,72,72,6,11,5,7,0.6,0.7
2023-09-28T02:00:00,1676A,116.7258,23.2775,汕头市,濠江子站,,22,17,26,13,16,114,70,70,70,7,9,7,9,0.5,0.6
2023-09-28T02:00:00,1677A,116.7519,23.4714,汕头市,澄海子站,细颗粒物(PM2.5),60,25,31,43,26,114,60,64,62,9,14,8,11,0.4,0.5
2023-09-28T02:00:00,1678A,116.6092,23.2539,汕头市,潮阳子站,,22,17,39,8,15,117,68,70,69,4,9,8,9,0.5,0.5
2023-09-28T02:00:00,1680A,110.3539,21.2706,湛江市,湛江影剧院,,34,34,25,12,11,85,75,79,77,7,6,6,7,0.6,0.6
2023-09-28T02:00:00,1681A,110.3928,21.2228,湛江市,市环境监测站,,32,32,22,12,11,81,69,71,70,11,8,6,7,0.5,0.5
2023-09-28T02:00:00,1682A,110.4019,21.1997,湛江市,环保局宿舍,,28,28,22,16,13,86,77,80,78,5,6,4,4,0.6,0.5
2023-09-28T02:00:00,1683A,110.4111,21.2028,湛江市,霞山游泳场,,33,33,25,12,9,88,64,78,71,16,7,4,5,0.5,0.5
2023-09-28T02:00:00,1684A,110.3316,21.2679,湛江市,麻章区环保局,,29,29,23,14,10,84,78,81,80,6,8,5,6,0.5,0.5
2023-09-28T02:00:00,1685A,110.4558,21.2567,湛江市,坡头区环保局,,29,29,19,13,12,88,80,80,80,5,6,4,5,0.5,0.5
2023-09-28T02:00:00,1686A,111.0286,21.4688,茂名市,电白南海,,32,31,33,22,17,93,62,71,66,10,9,10,8,0.5,0.5
2023-09-28T02:00:00,1687A,110.9294,21.6533,茂名市,茂石化七小,,29,29,28,12,12,96,56,56,56,11,11,12,6,0.6,0.7
2023-09-28T02:00:00,1688A,110.9107,21.6687,茂名市,健康路,,22,22,21,9,7,102,63,62,62,8,8,7,4,0.5,0.5
2023-09-28T02:00:00,1689A,110.8592,21.6828,茂名市,高岭,,39,31,30,27,22,96,57,60,58,14,14,10,11,0.5,0.6
2023-09-28T02:00:00,1690A,116.1231,24.3284,梅州市,梅江月梅,,47,47,37,18,15,96,9,7,7,33,19,12,8,0.7,0.7
2023-09-28T02:00:00,1691A,116.0797,24.2719,梅州市,梅县新城,,36,36,34,22,16,108,7,8,8,27,21,6,7,0.7,0.7
2023-09-28T02:00:00,1692A,116.1248,24.2654,梅州市,环境监控中心,,33,33,29,18,17,98,5,8,6,36,20,7,10,0.6,0.6
2023-09-28T02:00:00,1693A,115.3653,22.775,汕尾市,市环保局,,20,16,28,11,15,109,61,61,61,5,6,8,10,0.5,0.5
2023-09-28T02:00:00,1694A,115.3706,22.7898,汕尾市,市政府,,22,22,29,12,18,120,59,61,60,6,7,7,6,0.3,0.4
2023-09-28T02:00:00,1695A,115.3622,22.7925,汕尾市,新城中学,,31,31,31,15,16,105,50,55,52,8,9,8,8,0.4,0.5
2023-09-28T02:00:00,1696A,114.6778,23.7569,河源市,源西,,20,19,31,14,18,98,36,37,36,13,16,5,5,0.6,0.7
2023-09-28T02:00:00,1697A,114.6944,23.7586,河源市,东埔,,35,35,35,22,20,101,35,51,43,19,13,7,6,0.6,0.6
2023-09-28T02:00:00,1698A,114.6892,23.7233,河源市,老城,,43,43,33,13,16,104,30,37,34,21,12,4,5,0.7,0.7
2023-09-28T02:00:00,1699A,111.9797,21.8593,阳江市,鸳鸯湖,,27,27,29,18,14,87,63,50,50,16,8,9,8,0.7,0.7
2023-09-28T02:00:00,1701A,111.9491,21.8658,阳江市,马南垌,,30,27,23,21,16,83,56,69,62,18,7,6,6,0.5,0.5
2023-09-28T02:00:00,1702A,113.0426,23.691,清远市,环保大楼,,36,36,34,24,24,135,34,46,40,23,16,14,12,0.7,0.7
2023-09-28T02:00:00,1703A,113.0208,23.7106,清远市,凤城街办,,43,43,40,19,24,129,13,12,12,33,19,12,12,0.6,0.6
2023-09-28T02:00:00,1705A,116.6367,23.6719,潮州市,西园路,,35,35,37,24,20,103,26,44,35,11,12,4,5,0.5,0.5
2023-09-28T02:00:00,1706A,116.6447,23.6706,潮州市,档案局,,46,40,35,32,17,108,29,38,34,12,10,6,6,0.6,0.6
2023-09-28T02:00:00,1708A,116.3701,23.5345,揭阳市,新兴,,37,37,47,17,22,108,58,54,54,9,13,8,9,0.6,0.7
2023-09-28T02:00:00,1709A,116.3264,23.5443,揭阳市,西马,颗粒物(PM10),57,63,47,33,22,114,32,46,39,26,14,12,8,0.8,0.8
2023-09-28T02:00:00,1710A,116.3611,23.5626,揭阳市,东兴,,41,41,48,19,18,104,51,58,54,20,18,6,7,0.7,0.8
2023-09-28T02:00:00,1711A,116.4151,23.5294,揭阳市,渔湖,,46,46,46,31,21,111,56,56,56,13,16,5,6,0.6,0.6
2023-09-28T02:00:00,1712A,112.0392,22.9169,云浮市,新市府,,46,46,39,29,24,159,47,59,53,16,13,6,6,1.0,1
2023-09-28T02:00:00,1714A,112.0539,22.9539,云浮市,牧羊,,44,44,54,27,29,166,41,60,50,43,31,9,10,0.6,0.5
2023-09-28T02:00:00,1715A,102.575,24.3711,玉溪市,东风水库,,13,3,11,4,7,64,39,38,38,6,7,5,5,0.6,0.6
2023-09-28T02:00:00,1718A,115.4208,35.2464,菏泽市,气象局,,43,43,52,27,36,78,27,34,30,25,26,3,6,0.6,0.7
2023-09-28T02:00:00,1719A,115.4747,35.2375,菏泽市,市政协,,42,41,43,29,31,77,26,28,27,22,26,4,6,0.5,0.6
2023-09-28T02:00:00,1721A,113.3819,40.1097,大同市,果树场,,,,,,,,,,,,,,,,
2023-09-28T02:00:00,1723A,113.2994,40.0758,大同市,云冈宾馆,,49,49,43,15,11,101,9,27,18,45,24,11,11,0.7,0.5
2023-09-28T02:00:00,1724A,113.3444,40.0917,大同市,大同大学,,37,37,42,14,13,96,26,36,31,33,20,28,13,0.6,0.4
2023-09-28T02:00:00,1725A,113.2661,40.1269,大同市,安家小村,,47,47,39,12,8,109,18,15,15,34,15,15,13,1.2,0.5
2023-09-28T02:00:00,1726A,113.2711,40.0844,大同市,教育学院,,40,40,47,10,12,101,22,27,24,37,23,15,9,0.8,0.6
2023-09-28T02:00:00,1727A,113.1147,36.1547,长治市,清华站,颗粒物(PM10),52,54,55,24,42,122,14,12,12,19,30,6,8,0.9,1.1
2023-09-28T02:00:00,1728A,113.1031,36.1989,长治市,监测站,,43,43,51,29,43,123,10,12,11,30,39,8,8,1.6,1.4
2023-09-28T02:00:00,1730A,113.0886,36.2125,长治市,审计局,,49,47,49,34,42,125,15,23,19,36,36,10,11,1.5,1.1
2023-09-28T02:00:00,1731A,113.0844,36.1856,长治市,长治八中,颗粒物(PM10),52,54,60,20,34,120,7,13,10,32,37,11,13,1.0,1
2023-09-28T02:00:00,1733A,111.5531,36.0783,临汾市,临钢医院,颗粒物(PM10),60,69,75,38,46,93,3,10,6,26,24,9,11,1.8,1.8
2023-09-28T02:00:00,1734A,111.5028,36.0714,临汾市,技工学校,颗粒物(PM10),73,96,76,47,55,86,8,16,12,44,36,16,13,1.5,1.7
2023-09-28T02:00:00,1736A,111.5018,36.0855,临汾市,市委,细颗粒物(PM2.5),78,80,83,57,54,100,18,23,20,37,30,12,12,1.8,1.7
2023-09-28T02:00:00,1738A,113.5758,37.8572,阳泉市,市中心,颗粒物(PM10),65,80,84,45,44,124,10,9,9,65,55,12,20,1.3,1.3
2023-09-28T02:00:00,1739A,113.4894,37.8731,阳泉市,赛鱼,细颗粒物(PM2.5),78,89,85,57,49,113,13,9,9,70,55,12,13,1.0,1.1
2023-09-28T02:00:00,1740A,113.5819,37.8486,阳泉市,南庄,颗粒物(PM10),87,123,119,54,44,130,5,4,4,60,50,14,23,1.5,1.3
2023-09-28T02:00:00,1742A,113.5614,37.8703,阳泉市,平坦,细颗粒物(PM2.5),84,96,92,62,57,126,36,34,34,56,46,12,14,1.0,1.2
2023-09-28T02:00:00,1743A,113.5158,37.8392,阳泉市,大阳泉,细颗粒物(PM2.5),98,84,69,73,55,135,59,66,62,35,29,16,12,1.0,1
2023-09-28T02:00:00,1744A,118.9233,42.2816,赤峰市,松山一中,,27,27,31,5,9,87,23,44,34,34,27,9,9,0.3,0.2
2023-09-28T02:00:00,1745A,118.9576,42.2728,赤峰市,哈达街,,22,19,30,15,9,86,40,45,42,20,22,13,14,0.2,0.3
2023-09-28T02:00:00,1746A,118.8788,42.2554,赤峰市,天义路,,21,10,23,3,9,94,65,69,67,6,16,8,8,0.2,0.3
2023-09-28T02:00:00,1748A,123.044,41.1196,鞍山市,深沟寺,细颗粒物(PM2.5),70,88,93,51,61,147,46,52,49,22,19,7,5,1.5,1.5
2023-09-28T02:00:00,1749A,123.011,41.0931,鞍山市,太阳城,,48,48,109,31,77,150,54,51,51,24,22,17,9,2.0,1.5
2023-09-28T02:00:00,1750A,123.0485,41.1442,鞍山市,太平,细颗粒物(PM2.5),132,146,132,100,87,146,21,31,26,33,33,9,11,2.2,1.8
2023-09-28T02:00:00,1751A,122.9642,41.0971,鞍山市,铁西三道街,细颗粒物(PM2.5),168,198,136,127,87,140,9,16,12,50,36,6,8,2.0,1.6
2023-09-28T02:00:00,1752A,122.9341,41.0833,鞍山市,铁西工业园区,"颗粒物(PM10),细颗粒物(PM2.5)",93,135,124,69,84,143,11,12,12,36,27,7,9,1.7,1.5
2023-09-28T02:00:00,1753A,123.022,41.0821,鞍山市,明达新区,颗粒物(PM10),70,89,95,47,57,144,33,36,34,24,27,5,4,1.8,1.2
2023-09-28T02:00:00,1754A,123.1289,41.0228,鞍山市,千山,,,,,,,,,,,,,,,,
2023-09-28T02:00:00,1755A,123.7977,41.8491,抚顺市,望花区,颗粒物(PM10),69,88,70,46,46,134,4,5,4,35,39,5,9,0.8,1.1
2023-09-28T02:00:00,1756A,123.9161,41.8822,抚顺市,顺城区,,44,44,67,24,40,123,5,7,6,33,40,5,8,0.7,1.2
2023-09-28T02:00:00,1757A,124.0436,41.8611,抚顺市,东洲区,颗粒物(PM10),58,66,59,36,40,134,9,7,7,21,26,6,10,1.0,1.1
2023-09-28T02:00:00,1758A,123.9247,41.8642,抚顺市,新抚区,细颗粒物(PM2.5),78,80,61,57,46,122,3,3,3,21,26,6,7,0.9,1
2023-09-28T02:00:00,1759A,124.0972,41.8961,抚顺市,大伙房水库,,33,33,52,19,34,129,2,2,2,23,22,6,9,0.9,1
2023-09-28T02:00:00,1760A,123.7086,41.8391,抚顺市,沈抚新城,细颗粒物(PM2.5),60,65,65,43,50,128,2,7,4,36,36,7,11,0.8,1.2
2023-09-28T02:00:00,1761A,123.8275,41.3064,本溪市,大峪,颗粒物(PM10),74,98,75,42,36,140,22,23,22,23,26,6,8,1.9,1.4
2023-09-28T02:00:00,1762A,123.7567,41.3325,本溪市,溪湖,颗粒物(PM10),55,60,70,28,40,156,13,26,20,35,24,10,11,0.9,1.3
2023-09-28T02:00:00,1763A,123.7169,41.3094,本溪市,彩屯,,31,31,75,21,47,148,7,13,10,36,31,8,10,0.7,1.5
2023-09-28T02:00:00,1764A,123.7669,41.2864,本溪市,东明,颗粒物(PM10),83,116,78,46,42,147,14,12,12,47,38,12,12,2.7,1.8
2023-09-28T02:00:00,1765A,123.7992,41.2664,本溪市,新立屯,,45,37,54,31,23,127,18,21,20,46,36,10,12,1.4,1.6
2023-09-28T02:00:00,1766A,123.8142,41.3472,本溪市,威宁,颗粒物(PM10),58,65,74,32,44,132,4,4,4,34,30,7,7,1.4,1.2
2023-09-28T02:00:00,1767A,121.1115,41.0879,锦州市,南山,,31,31,70,8,71,123,39,50,44,18,36,21,11,0.5,1.3
2023-09-28T02:00:00,1768A,121.0533,40.8434,锦州市,开发区,颗粒物(PM10),66,82,94,29,90,144,10,31,20,66,52,66,25,1.2,1.6
2023-09-28T02:00:00,1769A,121.1836,41.1119,锦州市,百股街道,,45,45,74,19,62,131,5,14,10,34,32,9,13,0.8,1.4
2023-09-28T02:00:00,1770A,121.1178,41.1222,锦州市,天安街道,,45,45,87,22,62,115,35,37,36,22,37,21,15,0.6,1.5
2023-09-28T02:00:00,1771A,121.1303,41.1386,锦州市,北湖公园,,26,26,81,6,64,117,49,69,59,25,26,21,14,0.5,1.4
2023-09-28T02:00:00,1772A,126.54,43.8622,吉林市,哈达湾,,34,34,32,6,14,107,43,40,40,18,18,6,6,0.4,0.6
2023-09-28T02:00:00,1773A,126.5844,43.8358,吉林市,东局子,,33,33,31,11,14,105,41,40,40,19,24,6,6,0.4,0.6
2023-09-28T02:00:00,1774A,126.5052,43.8245,吉林市,电力学院,,28,28,36,12,19,105,14,26,20,30,23,8,8,0.5,0.6
2023-09-28T02:00:00,1775A,126.6133,43.8972,吉林市,江北,,45,45,40,16,16,102,40,37,37,18,22,8,9,0.5,0.7
2023-09-28T02:00:00,1776A,126.555,43.8306,吉林市,江南公园,颗粒物(PM10),51,52,32,15,17,107,31,30,30,25,22,6,7,0.4,0.6
2023-09-28T02:00:00,1778A,126.7061,43.7133,吉林市,丰满,,,,,,,,,,,,,,,,
2023-09-28T02:00:00,1779A,123.9305,47.3636,齐齐哈尔市,安居小区,,34,34,27,22,13,67,49,51,50,3,8,5,5,0.1,0.2
2023-09-28T02:00:00,1780A,123.9488,47.3386,齐齐哈尔市,中心广场,,17,15,17,5,8,64,52,56,54,3,9,1,2,0.1,0.2
2023-09-28T02:00:00,1781A,123.9483,47.3227,齐齐哈尔市,农牧车辆厂,,24,24,34,6,5,63,51,54,52,4,11,6,7,0.3,0.3
2023-09-28T02:00:00,1783A,123.945,47.2988,齐齐哈尔市,市环境监测站,,18,15,27,12,10,67,49,50,50,4,9,4,5,0.5,0.2
2023-09-28T02:00:00,1784A,129.61,44.561,牡丹江市,环保大楼,,33,33,29,16,12,88,46,47,46,9,14,5,5,0.5,0.5
2023-09-28T02:00:00,1785A,129.6115,44.5782,牡丹江市,文化广场,,33,33,30,18,21,82,40,47,44,12,18,4,4,0.4,0.5
2023-09-28T02:00:00,1786A,129.5904,44.5963,牡丹江市,第一医院,,23,23,31,16,17,81,21,27,24,11,15,5,6,0.4,0.5
2023-09-28T02:00:00,1787A,129.6364,44.6075,牡丹江市,机车工厂,,30,30,38,13,12,80,19,28,24,15,16,4,5,0.5,0.6
2023-09-28T02:00:00,1788A,129.6386,44.5462,牡丹江市,第一中学,,35,19,26,24,17,92,36,23,23,16,13,5,5,0.5,0.5
2023-09-28T02:00:00,1789A,124.81117,46.03138,大庆市,大同区,,14,8,34,5,10,80,43,41,41,6,9,5,6,0.4,0.4
2023-09-28T02:00:00,1790A,125.129,46.533,大庆市,龙凤区,,28,17,36,19,12,64,34,37,36,13,15,7,5,0.5,0.5
2023-09-28T02:00:00,1791A,124.902,46.408,大庆市,红岗区,,15,9,23,7,13,72,46,46,46,5,8,4,4,0.3,0.4
2023-09-28T02:00:00,1792A,125.153,46.586,大庆市,萨尔图区,,14,6,31,5,8,67,42,43,42,8,13,7,7,0.2,0.2
2023-09-28T02:00:00,1793A,124.9042,46.6215,大庆市,让胡路区,,23,7,22,16,11,71,48,48,48,3,10,3,4,0.2,0.3
2023-09-28T02:00:00,1794A,118.3606,31.3519,芜湖市,监测站,细颗粒物(PM2.5),53,50,57,37,31,100,31,26,26,21,42,6,10,0.9,1.2
2023-09-28T02:00:00,1795A,118.3714,31.4134,芜湖市,科创中心,细颗粒物(PM2.5),59,57,58,42,33,113,19,14,14,48,51,6,10,1.0,1.1
2023-09-28T02:00:00,1796A,118.3673,31.3131,芜湖市,四水厂,颗粒物(PM10),55,59,54,34,34,100,44,39,39,17,48,5,8,1.1,1.3
2023-09-28T02:00:00,1798A,118.5092,31.6837,马鞍山市,湖东路四小,细颗粒物(PM2.5),70,44,47,51,33,96,50,48,48,18,31,7,10,0.8,0.9
2023-09-28T02:00:00,1799A,118.5024,31.6449,马鞍山市,开发区,颗粒物(PM10),63,76,58,44,32,109,13,22,18,41,29,8,12,1.0,1.1
2023-09-28T02:00:00,1800A,118.5228,31.7231,马鞍山市,慈湖,颗粒物(PM10),66,82,62,41,34,104,47,44,44,20,34,5,8,1.0,1.1
2023-09-28T02:00:00,1802A,118.6245,31.7241,马鞍山市,濮塘,,48,41,33,33,29,113,41,38,38,8,15,6,8,0.8,0.8
2023-09-28T02:00:00,1803A,115.9872,29.6815,九江市,十里,细颗粒物(PM2.5),64,73,56,46,35,132,80,69,69,20,19,11,9,1.2,1
2023-09-28T02:00:00,1804A,115.9584,29.7046,九江市,茅山头,颗粒物(PM10),66,82,54,42,39,121,57,58,58,40,25,7,10,1.2,0.9
2023-09-28T02:00:00,1805A,115.9877,29.7295,九江市,西园,细颗粒物(PM2.5),65,76,57,47,36,124,58,52,52,43,31,11,11,1.2,1
2023-09-28T02:00:00,1806A,116.0172,29.6547,九江市,五七二七厂,,50,48,45,35,29,132,46,52,49,17,15,9,10,1.0,0.9
2023-09-28T02:00:00,1808A,115.9114,29.6038,九江市,综合工业园,细颗粒物(PM2.5),59,63,55,42,33,154,27,30,28,49,31,12,13,1.0,1
2023-09-28T02:00:00,1809A,116.0721,29.7535,九江市,石化总厂,细颗粒物(PM2.5),79,74,64,58,37,127,58,74,66,37,31,10,9,1.7,1.1
2023-09-28T02:00:00,1810A,115.9773,29.5698,九江市,庐山气象台,,26,19,25,13,17,122,83,82,82,2,3,12,9,0.7,1
2023-09-28T02:00:00,1812A,112.3931,34.6516,洛阳市,市委党校,,30,21,22,21,24,90,18,22,20,24,16,2,3,0.6,0.7
2023-09-28T02:00:00,1814A,112.4657,34.6871,洛阳市,豫西宾馆,,48,48,32,31,24,86,9,13,11,34,28,3,3,0.7,0.9
2023-09-28T02:00:00,1815A,112.494,34.6886,洛阳市,河南林校,,25,22,22,17,17,82,22,25,24,16,22,2,2,0.5,0.7
2023-09-28T02:00:00,1816A,112.3844,34.623,洛阳市,开发区管委会,,21,21,22,13,14,85,18,28,23,19,15,3,3,0.2,0.3
2023-09-28T02:00:00,1817A,112.4267,34.6258,洛阳市,市委新办公区,,23,23,24,16,17,91,35,43,39,9,12,1,1,0.3,0.4
2023-09-28T02:00:00,1818A,114.4839,36.0621,安阳市,棉研所,,,,,,,,,,,,,,,,
2023-09-28T02:00:00,1819A,114.3551,36.1017,安阳市,红庙街,,46,46,59,16,38,47,4,2,2,34,31,9,10,0.6,1
2023-09-28T02:00:00,1820A,114.361,36.0681,安阳市,银杏小区,,40,40,53,13,21,52,1,1,1,27,28,6,9,0.6,1.2
2023-09-28T02:00:00,1824A,114.3389,34.7781,开封市,肿瘤医院,颗粒物(PM10),52,54,46,21,26,82,1,1,1,43,32,3,4,0.7,0.9
2023-09-28T02:00:00,1826A,114.2885,34.7965,开封市,世纪星幼儿园,颗粒物(PM10),51,51,40,17,14,71,0,0,0,49,39,4,5,0.9,1
2023-09-28T02:00:00,1828A,113.227,35.2125,焦作市,市环保局,,48,48,48,30,32,63,3,10,6,33,28,8,12,0.8,1
2023-09-28T02:00:00,1830A,113.1992,35.2590,焦作市,影视城,,,,,,,,,,,,,,,,
2023-09-28T02:00:00,1832A,113.3257,33.742,平顶山市,新华旅馆,,39,38,44,27,25,88,15,10,10,37,28,6,8,0.6,0.7
2023-09-28T02:00:00,1833A,113.2919,33.737,平顶山市,规划设计院,,22,20,32,15,18,89,22,33,28,24,23,6,9,0.6,0.7
2023-09-28T02:00:00,1834A,113.182,33.774,平顶山市,平顶山工学院,,25,25,29,14,12,80,7,46,26,34,22,5,9,0.7,0.8
2023-09-28T02:00:00,1835A,111.1922,34.7752,三门峡市,市政府,,27,27,26,12,15,56,2,4,3,33,32,5,6,0.6,0.8
2023-09-28T02:00:00,1836A,111.1587,34.7942,三门峡市,开发区,,30,30,21,17,20,52,3,16,10,23,24,4,6,0.5,0.7
2023-09-28T02:00:00,1838A,111.143,34.7955,三门峡市,风景区,,,,,,,,,,,,,,,,
2023-09-28T02:00:00,1840A,111.2992,30.6981,宜昌市,白龙岗,,22,22,35,7,16,107,43,51,47,13,20,6,6,0.8,0.8
2023-09-28T02:00:00,1841A,111.3549,30.6465,宜昌市,伍家岗,,18,15,22,12,18,107,39,44,42,13,16,6,5,0.7,0.7
2023-09-28T02:00:00,1842A,111.2628,30.6961,宜昌市,点军区,,21,21,34,7,15,120,41,47,44,11,15,8,8,0.8,0.8
2023-09-28T02:00:00,1843A,111.3275,30.7819,宜昌市,夷陵区,,20,17,29,14,15,112,47,53,50,10,16,5,5,0.5,0.6
2023-09-28T02:00:00,1844A,112.2494,30.3197,荆州市,市图书馆,,39,39,44,18,25,113,40,47,44,14,16,9,7,0.7,0.8
2023-09-28T02:00:00,1845A,112.2008,30.3544,荆州市,市委党校,,40,40,43,17,21,124,37,45,41,17,15,11,7,0.7,0.8
2023-09-28T02:00:00,1847A,113.1094,29.3578,岳阳市,南湖风景区,,43,43,42,27,23,102,44,38,38,21,19,9,8,1.0,0.9
2023-09-28T02:00:00,1848A,113.1493,29.4251,岳阳市,城陵矶,,40,40,42,22,22,79,48,46,46,18,22,8,7,0.9,0.9
2023-09-28T02:00:00,1849A,113.1497,29.3575,岳阳市,开发区,颗粒物(PM10),51,52,52,30,35,98,44,40,40,12,15,8,8,1.0,1
2023-09-28T02:00:00,1850A,113.2621,29.4758,岳阳市,云溪区,,36,36,39,19,24,91,37,39,38,17,18,6,8,0.9,0.8
2023-09-28T02:00:00,1851A,112.9943,29.4402,岳阳市,君山区,,36,30,32,25,24,99,40,45,42,14,16,8,8,0.8,0.9
2023-09-28T02:00:00,1852A,113.2117,29.355,岳阳市,金凤水库,,42,42,43,24,27,110,48,42,42,16,11,4,3,0.8,0.8
2023-09-28T02:00:00,1854A,111.6975,28.9703,常德市,市二中,颗粒物(PM10),52,53,38,28,23,102,68,61,61,7,13,8,7,0.7,0.8
2023-09-28T02:00:00,1857A,111.7158,29.1456,常德市,白鹤山,,31,31,22,10,7,128,72,73,72,1,3,4,5,0.6,0.6
2023-09-28T02:00:00,1858A,110.5319,29.1217,张家界市,永定新区,,46,46,34,32,21,106,80,78,78,9,13,5,6,0.4,0.4
2023-09-28T02:00:00,1859A,110.4697,29.1242,张家界市,电业局,,41,41,32,28,21,88,72,72,72,9,16,7,8,0.6,0.6
2023-09-28T02:00:00,1860A,110.5594,29.3547,张家界市,未央路,,44,44,22,24,11,81,78,81,80,4,5,3,3,0.6,0.6
2023-09-28T02:00:00,1861A,110.4417,29.315,张家界市,袁家界,,43,43,14,23,10,78,78,78,78,4,4,8,8,0.8,0.7
2023-09-28T02:00:00,1862A,110.4144,25.3167,桂林市,电子科大尧山校区,,32,30,38,22,28,85,71,72,72,5,5,2,2,0.7,0.7
2023-09-28T02:00:00,1863A,110.2819,25.2697,桂林市,监测站,,46,33,42,32,33,112,66,68,67,9,9,6,8,0.6,0.7
2023-09-28T02:00:00,1864A,110.3089,25.2708,桂林市,龙隐路小学,,35,29,38,24,27,107,61,62,62,8,7,8,7,0.7,0.7
2023-09-28T02:00:00,1865A,110.2869,25.2178,桂林市,八中,,32,32,37,20,25,115,68,69,68,12,12,8,6,0.5,0.5
2023-09-28T02:00:00,1866A,109.2262,21.588,北海市,牛尾岭水库,,27,27,19,8,9,64,35,40,38,10,10,7,6,0.5,0.6
2023-09-28T02:00:00,1867A,109.1436,21.4086,北海市,海滩公园,,24,24,21,10,8,83,42,44,43,8,8,4,4,0.5,0.6
2023-09-28T02:00:00,1868A,109.0981,21.4661,北海市,新市环保局,,30,30,27,12,12,76,50,51,50,9,12,4,4,0.6,0.6
2023-09-28T02:00:00,1869A,109.1778,21.5233,北海市,北海工业园,,38,38,28,10,16,71,25,24,24,15,13,8,7,0.7,0.6
2023-09-28T02:00:00,1870A,109.4856,24.3895,柳州市,柳东小学,,38,27,32,26,27,113,65,68,66,9,8,7,8,0.5,0.5
2023-09-28T02:00:00,1871A,109.4157,24.3277,柳州市,环保监测站,,37,37,37,24,25,114,65,66,66,7,10,5,5,0.6,0.6
2023-09-28T02:00:00,1872A,109.389,24.341,柳州市,河西水厂,,39,36,40,27,27,123,70,73,72,8,10,6,8,0.9,0.8
2023-09-28T02:00:00,1873A,109.4311,24.2921,柳州市,市四中,,46,14,40,32,27,124,65,69,67,11,14,8,10,0.8,0.8
2023-09-28T02:00:00,1874A,109.4006,24.3631,柳州市,市九中,,39,38,40,27,24,113,60,67,64,11,11,6,8,0.7,0.6
2023-09-28T02:00:00,1875A,109.4958,24.3134,柳州市,古亭山,,36,36,39,24,26,128,65,71,68,12,13,7,12,0.5,0.5
2023-09-28T02:00:00,1876A,109.5078,18.2489,三亚市,河东子站,,11,9,12,4,5,49,34,32,32,5,5,3,3,0.3,0.3
2023-09-28T02:00:00,1877A,109.4964,18.2681,三亚市,河西子站,,11,3,11,2,4,48,35,33,33,3,4,3,3,0.2,0.3
2023-09-28T02:00:00,1878A,104.7778,31.4741,绵阳市,富乐山,,26,20,16,18,10,61,15,12,12,16,13,4,4,0.5,0.6
2023-09-28T02:00:00,1879A,104.7563,31.4535,绵阳市,市人大,,21,21,19,12,12,55,27,26,26,12,16,13,13,0.7,0.7
2023-09-28T02:00:00,1880A,104.6697,31.4668,绵阳市,高新区自来水公司,,,30,20,31,14,54,21,20,20,,22,7,7,0.6,0.6
2023-09-28T02:00:00,1881A,104.7287,31.5075,绵阳市,三水厂,,25,22,20,17,13,61,23,22,22,21,21,8,7,0.7,0.6
2023-09-28T02:00:00,1882A,104.563,28.793,宜宾市,石马中学,,,,,,,,,,,,,,,,
2023-09-28T02:00:00,1883A,104.6201,28.7728,宜宾市,市委,,40,40,35,27,17,62,26,26,26,25,23,6,8,0.6,0.6
2023-09-28T02:00:00,1884A,104.6055,28.793,宜宾市,宜宾四中,,42,42,46,29,22,63,33,36,34,20,25,4,6,0.6,0.7
2023-09-28T02:00:00,1885A,104.639,28.7562,宜宾市,市政府,,46,45,40,32,22,64,27,22,22,24,26,6,10,0.7,0.7
2023-09-28T02:00:00,1886A,104.5742,28.7199,宜宾市,黄金嘴,,38,38,36,26,20,66,17,16,16,24,25,7,9,0.5,0.5
2023-09-28T02:00:00,1888A,101.6891,26.571,攀枝花市,弄弄坪,颗粒物(PM10),58,66,47,40,24,116,31,37,34,28,23,30,16,1.2,1.4
2023-09-28T02:00:00,1889A,101.5769,26.5928,攀枝花市,河门口,,42,42,40,22,20,124,31,36,34,22,22,9,11,1.0,1.1
2023-09-28T02:00:00,1890A,101.7169,26.585,攀枝花市,炳草岗,,49,45,55,34,24,131,47,48,48,20,29,28,20,0.9,1.5
2023-09-28T02:00:00,1891A,101.7369,26.5008,攀枝花市,仁和,,45,45,32,27,17,139,36,49,42,23,18,10,8,1.3,1
2023-09-28T02:00:00,1893A,105.4324,28.9634,泸州市,九狮山,,36,36,22,10,10,34,17,15,15,16,18,6,5,0.3,0.3
2023-09-28T02:00:00,1894A,105.4427,28.9063,泸州市,小市上码头,,35,35,28,20,12,46,35,42,38,13,20,5,6,0.5,0.6
2023-09-28T02:00:00,1895A,105.4241,28.8573,泸州市,兰田宪桥,,45,45,30,18,14,47,21,25,23,10,14,4,4,0.6,0.5
2023-09-28T02:00:00,1896A,105.4379,28.8833,泸州市,市环监站,,35,35,26,17,8,39,34,32,32,12,22,5,4,0.8,0.8
2023-09-28T02:00:00,1901A,104.4239,31.1208,德阳市,东山公园,,38,38,32,10,11,54,6,20,13,13,9,3,2,0.6,0.5
2023-09-28T02:00:00,1902A,104.3826,31.1317,德阳市,西小区,,33,33,31,11,12,56,14,12,12,26,16,1,3,0.6,0.6
2023-09-28T02:00:00,1904A,104.3553,31.1091,德阳市,耐火材料厂,,36,36,32,14,12,55,5,4,4,28,19,2,3,0.6,0.5
2023-09-28T02:00:00,1905A,106.056,30.8064,南充市,西山风景区,,13,5,8,9,6,30,16,15,15,9,8,3,2,0.5,0.5
2023-09-28T02:00:00,1906A,106.0789,30.8023,南充市,南充市委,,42,22,20,29,16,32,8,7,7,15,15,2,2,0.4,0.5
2023-09-28T02:00:00,1907A,106.1031,30.8217,南充市,南充炼油厂,,20,20,27,6,6,32,4,4,4,20,12,3,2,0.3,0.3
2023-09-28T02:00:00,1908A,106.1064,30.7856,南充市,高坪区监测站,,16,16,17,3,10,31,5,5,5,23,16,3,2,0.3,0.3
2023-09-28T02:00:00,1909A,106.0642,30.7636,南充市,嘉陵区环保局,,18,18,22,7,9,27,6,6,6,16,16,3,3,0.2,0.3
2023-09-28T02:00:00,1910A,106.1087,30.8388,南充市,市环境监测站,,20,15,20,14,13,29,7,8,8,18,12,3,3,0.3,0.3
2023-09-28T02:00:00,1911A,106.9222,27.6869,遵义市,丁字口,,28,28,26,15,15,95,16,16,16,19,18,4,5,0.7,0.7
2023-09-28T02:00:00,1912A,106.9242,27.7019,遵义市,凤凰山,,27,27,26,11,19,102,17,20,18,16,12,7,7,0.6,0.6
2023-09-28T02:00:00,1913A,106.8906,27.6486,遵义市,忠庄,,29,29,30,15,15,98,4,5,4,20,16,2,2,0.5,0.5
2023-09-28T02:00:00,1914A,106.9231,27.6506,遵义市,舟水桥,,26,26,32,10,12,89,5,8,6,17,14,1,2,0.4,0.5
2023-09-28T02:00:00,1915A,106.9178,27.72,遵义市,干田坝,,29,29,29,10,16,104,9,11,10,18,14,5,5,0.7,0.7
2023-09-28T02:00:00,1916A,103.7897,25.5035,曲靖市,环境监测站,,24,24,22,12,13,66,34,32,32,14,14,5,5,0.6,0.7
2023-09-28T02:00:00,1917A,103.8,25.5364,曲靖市,烟厂办公区,,26,19,20,18,12,71,38,40,39,11,12,3,5,0.5,0.5
2023-09-28T02:00:00,1918A,108.7197,34.3956,咸阳市,气象站,,,,,,,,,,,,,,,,
2023-09-28T02:00:00,1919A,108.673,34.3155,咸阳市,实验中学,,39,39,22,16,12,88,0,0,0,43,25,2,2,0.7,0.7
2023-09-28T02:00:00,1920A,108.7233,34.3617,咸阳市,师范学院,颗粒物(PM10),52,54,25,19,12,112,4,4,4,52,26,3,2,0.8,0.6
2023-09-28T02:00:00,1922A,109.0656,35.0994,铜川市,党校,,50,50,29,30,20,87,3,3,3,22,22,8,7,0.8,0.7
2023-09-28T02:00:00,1923A,109.0697,35.0697,铜川市,王益区政府,,29,29,26,19,16,96,3,2,2,16,21,1,1,0.7,0.8
2023-09-28T02:00:00,1924A,108.9344,34.9058,铜川市,新区管委会,,28,28,34,15,16,100,16,16,16,17,27,4,4,0.5,0.7
2023-09-28T02:00:00,1926A,109.4131,36.6275,延安市,枣园,,48,48,40,28,18,133,5,4,4,31,26,7,8,0.3,0.4
2023-09-28T02:00:00,1927A,109.4761,36.6028,延安市,延大医附院,颗粒物(PM10),54,57,49,15,18,125,4,4,4,30,30,5,5,0.3,0.4
2023-09-28T02:00:00,1929A,109.5056,36.6106,延安市,百米大道,颗粒物(PM10),63,76,52,14,14,121,4,5,4,40,36,8,7,0.6,0.6
2023-09-28T02:00:00,1930A,107.185,34.3063,宝鸡市,庙沟村,,23,23,18,10,7,105,19,33,26,26,19,8,8,0.4,0.4
2023-09-28T02:00:00,1931A,107.0708,34.3017,宝鸡市,竹园沟,,18,14,17,12,12,120,12,14,13,15,15,6,6,0.5,0.6
2023-09-28T02:00:00,1932A,107.1906,34.3672,宝鸡市,三陆医院,,43,32,24,30,15,112,8,12,10,31,28,24,10,0.6,0.6
2023-09-28T02:00:00,1933A,107.1431,34.3547,宝鸡市,监测站,,35,35,22,19,12,112,9,9,9,26,25,7,6,0.5,0.5
2023-09-28T02:00:00,1934A,107.1186,34.3739,宝鸡市,技工学校,,36,32,24,25,15,112,16,20,18,20,22,8,7,0.5,0.5
2023-09-28T02:00:00,1935A,107.3906,34.3528,宝鸡市,陈仓区环保局家属楼,,32,32,22,10,14,112,7,10,8,46,28,7,7,0.5,0.5
2023-09-28T02:00:00,1936A,107.2058,34.3497,宝鸡市,文理学院,,32,32,23,21,11,121,14,16,15,26,26,16,9,0.6,0.5
2023-09-28T02:00:00,1937A,107.2386,34.3622,宝鸡市,三迪小学,,38,31,23,26,15,118,12,14,13,28,25,11,7,0.5,0.5
2023-09-28T02:00:00,1938A,109.5293,34.5101,渭南市,农科所,,13,9,15,9,13,104,36,40,38,14,19,5,5,0.5,0.6
2023-09-28T02:00:00,1939A,109.4974,34.4877,渭南市,日报社,,18,17,17,12,14,116,19,16,16,23,34,4,5,0.3,0.5
2023-09-28T02:00:00,1940A,109.4636,34.493,渭南市,体育馆,,15,14,13,10,9,117,41,32,32,26,32,3,3,0.5,0.5
2023-09-28T02:00:00,1941A,109.4259,34.5023,渭南市,高新一小,,26,26,24,12,12,113,8,13,10,43,32,6,6,0.5,0.5
2023-09-28T02:00:00,1944A,102.1692,38.5167,金昌市,天庆家园,,50,50,47,13,10,107,75,88,82,16,13,6,11,0.7,0.6
2023-09-28T02:00:00,1945A,98.2908,39.7711,嘉峪关市,气象局,,26,19,65,5,16,114,82,80,80,11,24,17,19,0.1,0.4
2023-09-28T02:00:00,1947A,106.3394,38.817,石嘴山市,沙湖旅游区,颗粒物(PM10),51,52,54,30,21,117,7,12,10,66,27,11,22,0.7,0.9
2023-09-28T02:00:00,1948A,106.3668,39.0145,石嘴山市,大武口朝阳西街,颗粒物(PM10),59,68,60,39,22,91,32,28,28,39,32,19,23,0.4,0.5
2023-09-28T02:00:00,1949A,106.7704,39.2282,石嘴山市,惠农南大街,颗粒物(PM10),61,72,69,32,20,86,11,12,12,46,38,11,34,0.7,0.9
2023-09-28T02:00:00,1950A,106.7099,39.1325,石嘴山市,红果子镇惠新街,细颗粒物(PM2.5),68,71,65,49,25,84,21,19,19,36,31,8,33,0.4,0.7
2023-09-28T02:00:00,1951A,84.895,45.6094,克拉玛依市,长征新村,,20,12,15,1,5,80,62,63,62,3,12,9,9,0.2,0.2
2023-09-28T02:00:00,1952A,84.8988,45.5893,克拉玛依市,南林小区,,21,11,15,3,8,79,65,66,66,5,13,6,6,0.2,0.2
2023-09-28T02:00:00,1954A,84.905,44.3396,克拉玛依市,独山子区,,22,20,19,15,12,115,29,43,36,19,11,4,10,0.5,0.4
2023-09-28T02:00:00,1955A,85.6979,46.098,克拉玛依市,乌尔禾区商贸楼,,23,23,18,1,10,74,21,22,22,20,13,7,6,0.5,0.5
2023-09-28T02:00:00,1956A,86.1472,41.7538,巴音郭楞州,孔雀公园,颗粒物(PM10),97,143,160,27,36,93,2,2,2,75,43,9,9,0.5,0.5
2023-09-28T02:00:00,1957A,86.1972,41.7166,巴音郭楞州,棉纺厂,颗粒物(PM10),107,164,167,28,36,92,12,8,8,44,26,5,6,0.6,0.5
2023-09-28T02:00:00,1958A,86.2357,41.7173,巴音郭楞州,经济开发区,颗粒物(PM10),91,132,141,24,35,95,37,38,38,25,19,8,8,0.2,0.2
2023-09-28T02:00:00,1961A,117.532,36.6868,济南市,东山小学,,24,24,41,15,19,75,20,20,20,30,39,4,4,0.5,0.7
2023-09-28T02:00:00,1966A,120.0405,35.8735,青岛市,黄岛区4号,细颗粒物(PM2.5),62,68,84,44,56,206,58,76,67,35,34,12,10,0.9,0.9
2023-09-28T02:00:00,1982A,122.0693,37.2174,威海市,文登开发区,颗粒物(PM10),51,51,61,34,37,168,88,83,83,8,15,10,8,0.9,0.9
2023-09-28T02:00:00,2031A,113.1817,27.9958,株洲市,云田中学,颗粒物(PM10),57,64,56,31,28,115,26,31,28,36,21,7,6,0.9,0.9
2023-09-28T02:00:00,2054A,114.1099,32.1059,信阳市,平桥分局,颗粒物(PM10),51,52,34,26,18,88,47,50,48,17,14,3,2,0.8,0.9
2023-09-28T02:00:00,2064A,113.9956,32.1271,信阳市,南湾水厂,,50,50,34,29,17,87,48,48,48,11,9,4,3,0.9,0.9
2023-09-28T02:00:00,2065A,114.0775,32.1195,信阳市,市酿酒公司,,39,39,36,27,17,84,44,50,47,16,16,4,2,1.3,1.1
2023-09-28T02:00:00,2066A,114.0609,32.1399,信阳市,审计局,,39,39,36,22,15,89,44,49,46,16,18,5,3,1.3,1.1
2023-09-28T02:00:00,2067A,114.6613,33.6128,周口市,市环境监测站,,31,31,48,14,19,112,54,52,52,16,21,7,7,0.4,0.7
2023-09-28T02:00:00,2068A,114.6758,33.6347,周口市,周口师范,,31,31,43,19,24,113,47,46,46,15,17,4,4,0.5,0.8
2023-09-28T02:00:00,2069A,114.6546,33.5979,周口市,市运管处,,29,29,46,15,19,110,54,53,53,12,16,8,9,0.4,0.6
2023-09-28T02:00:00,2070A,114.6369,33.6406,周口市,川汇区环保局,,26,25,43,18,22,109,38,42,40,22,21,7,7,0.5,0.7
2023-09-28T02:00:00,2075A,117.6336,24.4674,漳州市,九湖,,,,,,,,,,,,,,,,
2023-09-28T02:00:00,2160A,112.85,35.5051,晋城市,自来水公司,颗粒物(PM10),55,59,51,22,25,98,16,11,11,29,31,5,5,1.1,1.3
2023-09-28T02:00:00,2161A,112.8318,35.4936,晋城市,白云商贸,,42,42,36,22,24,101,16,10,10,30,28,5,5,1.3,1.3
2023-09-28T02:00:00,2162A,112.8508,35.4887,晋城市,市环保局,颗粒物(PM10),52,53,56,19,28,101,9,8,8,34,32,6,6,0.9,1.1
2023-09-28T02:00:00,2163A,112.8676,35.4897,晋城市,技术学院,,40,40,51,24,30,104,17,12,12,29,31,4,5,1.1,1.4
2023-09-28T02:00:00,2165A,112.8453,35.546,晋城市,白马寺,,,,,,,,,,,,,,,,
2023-09-28T02:00:00,2166A,112.4397,39.3522,朔州市,平朔,,49,49,53,12,16,97,27,32,30,26,24,6,8,0.5,0.6
2023-09-28T02:00:00,2167A,112.4575,39.3617,朔州市,朔唯,颗粒物(PM10),55,59,73,16,19,87,17,27,22,28,33,9,11,0.5,0.5
2023-09-28T02:00:00,2168A,112.4258,39.3197,朔州市,区政府,,45,45,53,14,16,93,29,34,32,30,22,16,9,0.6,0.5
2023-09-28T02:00:00,2169A,112.4072,39.3278,朔州市,市环保局,,45,45,59,9,14,89,32,32,32,25,20,18,10,0.5,0.5
2023-09-28T02:00:00,2170A,112.4272,39.3681,朔州市,市二中,,50,50,68,23,19,96,22,28,25,27,25,8,10,0.5,0.6
2023-09-28T02:00:00,2171A,112.7532,37.6945,晋中市,锦纶小区,颗粒物(PM10),67,83,105,40,47,126,8,8,8,41,41,10,17,0.8,1.2
2023-09-28T02:00:00,2173A,112.7249,37.7067,晋中市,南都小区,细颗粒物(PM2.5),72,87,107,52,65,135,7,7,7,59,40,15,20,1.0,1.1
2023-09-28T02:00:00,2174A,112.6991,37.6982,晋中市,榆次区政府,颗粒物(PM10),79,107,100,50,61,132,10,27,18,61,41,15,18,1.3,1.3
2023-09-28T02:00:00,2175A,110.9956,35.0147,运城市,运城中学,,50,50,36,26,25,91,13,10,10,24,21,3,4,0.6,0.7
2023-09-28T02:00:00,2178A,110.9686,35.0303,运城市,地区技校,颗粒物(PM10),55,60,42,30,25,86,3,4,4,28,22,4,4,1.1,1
2023-09-28T02:00:00,2179A,111.0414,35.1147,运城市,空港新区,颗粒物(PM10),56,61,49,27,34,86,8,14,11,37,26,5,4,0.7,0.8
2023-09-28T02:00:00,2181A,112.7383,38.4519,忻州市,开发区,颗粒物(PM10),52,54,62,26,30,120,10,8,8,41,37,7,17,0.4,0.6
2023-09-28T02:00:00,2182A,112.7003,38.4928,忻州市,会展中心,颗粒物(PM10),52,53,57,22,30,101,6,7,6,36,37,8,12,0.5,0.6
2023-09-28T02:00:00,2183A,111.1406,37.5211,吕梁市,环保局,颗粒物(PM10),64,77,70,26,20,109,0,0,0,46,37,6,8,0.5,0.7
2023-09-28T02:00:00,2185A,111.1297,37.5136,吕梁市,自来水公司,颗粒物(PM10),84,117,72,30,23,120,4,5,4,42,38,9,9,0.6,0.8
2023-09-28T02:00:00,2187A,106.8174,39.6973,乌海市,市林业局,颗粒物(PM10),75,99,47,44,18,97,35,44,40,54,20,142,29,1.3,0.7
2023-09-28T02:00:00,2188A,106.7907,39.6667,乌海市,中海勃湾学校,细颗粒物(PM2.5),79,101,45,58,22,98,27,31,29,57,24,91,22,1.3,0.5
2023-09-28T02:00:00,2191A,122.2532,43.6801,通辽市,艺术职业学校,,32,32,54,7,8,88,57,61,59,16,18,6,6,0.4,0.4
2023-09-28T02:00:00,2192A,119.7594,49.2261,呼伦贝尔市,区环保局,,23,18,24,16,18,77,49,49,49,4,8,4,3,0.3,0.4
2023-09-28T02:00:00,2195A,107.4212,40.761,巴彦淖尔市,附二中,,44,44,52,16,14,107,30,55,42,47,27,3,10,0.4,0.4
2023-09-28T02:00:00,2196A,107.37,40.7372,巴彦淖尔市,市环保大楼,,38,34,39,26,17,106,55,61,58,14,17,5,4,0.4,0.4
2023-09-28T02:00:00,2197A,113.1306,40.9923,乌兰察布市,集宁新区,,29,29,30,13,10,93,36,28,28,23,11,10,11,0.3,0.3
2023-09-28T02:00:00,2200A,122.0392,46.0656,兴安盟,胜华新制药厂,,19,12,22,9,16,63,60,60,60,5,10,2,2,0.3,0.2
2023-09-28T02:00:00,2201A,121.9504,46.0741,兴安盟,科右前旗环保局,,33,23,32,23,17,63,62,63,62,2,9,2,3,0.4,0.4
2023-09-28T02:00:00,2202A,116.1042,43.9317,锡林郭勒盟,市环保监测站,,15,4,22,5,5,77,45,44,44,4,9,10,10,0.2,0.3
2023-09-28T02:00:00,2203A,116.0781,43.9311,锡林郭勒盟,市政府,,14,13,24,2,4,75,44,40,40,6,11,12,12,0.2,0.2
2023-09-28T02:00:00,2204A,105.6467,38.8363,阿拉善盟,西城区西花园,,39,39,40,15,16,101,81,78,78,11,14,10,9,0.6,0.7
2023-09-28T02:00:00,2205A,105.6985,38.8411,阿拉善盟,蒙二幼,,34,34,41,15,15,95,92,88,88,8,12,10,8,0.6,0.5
2023-09-28T02:00:00,2206A,105.724,38.8516,阿拉善盟,环保局新楼,,30,24,36,14,15,98,93,92,92,6,9,8,7,0.5,0.5
2023-09-28T02:00:00,2207A,121.6094,41.998,阜新市,工业园区,颗粒物(PM10),55,60,62,19,21,97,5,5,5,40,30,6,8,0.4,1
2023-09-28T02:00:00,2208A,121.6697,42.0279,阜新市,长青街,颗粒物(PM10),56,62,62,13,19,99,2,3,2,48,25,8,11,0.5,0.7
2023-09-28T02:00:00,2209A,121.6673,42.0705,阜新市,农业园区,,37,37,39,2,13,91,49,52,50,14,14,8,11,0.4,0.7
2023-09-28T02:00:00,2210A,121.6717,42.0224,阜新市,东苑,颗粒物(PM10),58,65,64,22,34,95,4,7,6,42,24,11,13,0.6,0.9
2023-09-28T02:00:00,2211A,121.6506,42.0498,阜新市,玉龙新城,颗粒物(PM10),54,57,63,3,14,87,0,0,0,38,30,6,7,0.3,0.6
2023-09-28T02:00:00,2212A,123.2,41.1953,辽阳市,宏伟区,颗粒物(PM10),86,122,78,42,38,144,35,32,32,29,33,9,10,1.4,1.5
2023-09-28T02:00:00,2213A,123.1683,41.2495,辽阳市,新华园,颗粒物(PM10),82,114,88,43,47,124,19,23,21,55,43,12,12,1.4,1.3
2023-09-28T02:00:00,2214A,123.2354,41.2639,辽阳市,滨河路,细颗粒物(PM2.5),77,92,67,56,46,129,9,19,14,30,27,8,11,1.3,1.4
2023-09-28T02:00:00,2215A,123.149,41.2991,辽阳市,铁西工业园,颗粒物(PM10),66,82,100,32,42,144,16,20,18,33,35,7,15,1.0,1.4
2023-09-28T02:00:00,2216A,123.8139,42.3022,铁岭市,汇工街西,颗粒物(PM10),55,60,60,25,32,122,2,1,1,34,26,110,23,0.7,0.9
2023-09-28T02:00:00,2217A,123.8649,42.2923,铁岭市,水上乐园,颗粒物(PM10),52,54,61,24,37,125,28,25,25,23,28,8,11,0.6,1
2023-09-28T02:00:00,2218A,123.8486,42.2867,铁岭市,银州路东段,,,,,,,,,,,,,,,,
2023-09-28T02:00:00,2219A,123.7153,42.2217,铁岭市,金沙江路北,颗粒物(PM10),52,54,60,17,34,123,2,2,2,40,32,11,11,0.5,0.9
2023-09-28T02:00:00,2220A,120.4318,41.5881,朝阳市,西梁,颗粒物(PM10),54,58,59,17,25,92,6,6,6,44,31,10,13,0.6,0.8
2023-09-28T02:00:00,2221A,120.4521,41.5646,朝阳市,河畔小区,,36,36,64,14,28,102,6,6,6,41,31,7,10,0.4,0.9
2023-09-28T02:00:00,2222A,120.4176,41.5648,朝阳市,八里堡,颗粒物(PM10),57,64,69,21,31,86,4,6,5,50,34,8,10,0.8,1.1
2023-09-28T02:00:00,2223A,120.3806,41.5969,朝阳市,农业园区,,25,25,43,8,23,94,25,30,28,38,31,12,8,0.7,0.8
2023-09-28T02:00:00,2225A,124.4002,43.1713,四平市,一商场,,47,47,58,13,22,100,15,13,13,41,22,2,4,0,0.4
2023-09-28T02:00:00,2226A,124.388,43.193,四平市,境园,颗粒物(PM10),52,54,49,19,23,107,3,2,2,44,16,3,3,0.3,0.4
2023-09-28T02:00:00,2227A,125.1358,42.8845,辽源市,环保局,,27,27,27,12,16,124,8,11,10,22,18,5,5,0.5,0.8
2023-09-28T02:00:00,2229A,125.9358,41.7173,通化市,光明,,37,37,32,15,17,87,24,23,23,28,22,8,12,0.5,0.7
2023-09-28T02:00:00,2230A,125.9446,41.7325,通化市,铁路,,29,29,39,18,23,102,28,40,34,13,21,6,19,0.6,1.1
2023-09-28T02:00:00,2231A,126.4219,41.9171,白山市,喜丰,,30,30,39,17,13,85,28,26,26,11,19,7,8,0.7,0.8
2023-09-28T02:00:00,2232A,126.4077,41.9419,白山市,环保局,,45,45,34,20,13,87,34,34,34,3,18,6,9,0.7,0.8
2023-09-28T02:00:00,2233A,124.8006,45.1214,松原市,江南,,25,25,38,6,11,82,36,35,35,8,10,6,5,0.3,0.4
2023-09-28T02:00:00,2234A,124.7965,45.1722,松原市,江北,,10,10,23,4,10,84,32,32,32,10,8,2,3,0.4,0.3
2023-09-28T02:00:00,2235A,122.7911,45.6077,白城市,洮北区环保局,,17,3,25,3,7,79,52,53,52,5,8,2,4,0.3,0.3
2023-09-28T02:00:00,2236A,122.8738,45.5725,白城市,市环保局,,23,23,34,2,4,79,53,52,52,4,8,6,6,0.3,0.3
2023-09-28T02:00:00,2237A,129.47,42.8883,延边朝鲜族自治州,妇幼医院,,26,26,27,14,14,57,8,9,8,11,13,6,6,0.5,0.5
2023-09-28T02:00:00,2238A,129.5055,42.9108,延边朝鲜族自治州,延边医院,,27,27,31,16,9,58,10,23,16,22,19,6,6,0.6,0.6
2023-09-28T02:00:00,2239A,129.3964,42.8881,延边朝鲜族自治州,朝阳川镇医院,,14,14,24,8,9,70,6,8,7,8,11,8,8,0.5,0.5
2023-09-28T02:00:00,2240A,130.9762,45.3001,鸡西市,环保局,,19,19,40,7,17,56,53,50,50,4,20,5,5,0.3,0.6
2023-09-28T02:00:00,2243A,130.9429,45.3039,鸡西市,第一中学,,20,18,21,10,10,80,62,62,62,5,11,8,6,0.3,0.3
2023-09-28T02:00:00,2244A,130.2537,47.3416,鹤岗市,哈啤分公司,,25,17,23,17,18,73,18,16,16,12,21,9,10,0.2,0.3
2023-09-28T02:00:00,2245A,130.2684,47.3086,鹤岗市,斯达机电,,35,35,27,16,16,66,19,23,21,13,17,11,9,0.4,0.4
2023-09-28T02:00:00,2246A,130.3114,47.3388,鹤岗市,东山纸板厂,,27,27,32,12,15,70,18,16,16,14,23,11,10,0.4,0.5
2023-09-28T02:00:00,2247A,130.1097,47.3382,鹤岗市,五号水库,,16,9,12,11,12,73,11,14,12,7,8,10,10,0.1,0.3
2023-09-28T02:00:00,2248A,131.1511,46.6937,双鸭山市,双合村,,41,41,27,21,11,103,51,44,44,8,12,10,11,0.3,0.3
2023-09-28T02:00:00,2249A,131.1652,46.6191,双鸭山市,南小市,,18,9,23,12,11,105,32,33,32,3,7,5,5,0.1,0.2
2023-09-28T02:00:00,2250A,131.1524,46.6554,双鸭山市,环保局,,32,31,25,22,13,97,29,45,37,20,13,9,8,0.6,0.3
2023-09-28T02:00:00,2251A,131.12,46.5656,双鸭山市,苗圃,,22,12,13,15,11,135,48,54,51,3,6,4,3,0.3,0.4
2023-09-28T02:00:00,2252A,128.5159,47.4311,伊春市,环保局,,25,25,19,8,11,90,40,45,42,3,13,8,6,0.2,0.4
2023-09-28T02:00:00,2253A,128.9102,47.7412,伊春市,电力嘉园,,19,19,14,6,8,95,14,14,14,13,15,6,6,0.3,0.5
2023-09-28T02:00:00,2254A,129.5029,48.471,伊春市,汤旺河国家公园,,32,32,28,13,15,83,41,45,43,4,3,12,13,0.0,0.1
2023-09-28T02:00:00,2255A,130.2751,46.8028,佳木斯市,佳纺,,25,25,22,16,13,98,44,43,43,5,10,3,4,0.5,0.6
2023-09-28T02:00:00,2256A,130.3995,46.8307,佳木斯市,发电厂,,19,14,26,13,14,94,44,43,43,6,16,4,4,0.6,0.6
2023-09-28T02:00:00,2257A,130.3258,46.7975,佳木斯市,环保局,,25,19,23,17,12,95,50,54,52,5,12,3,4,0.3,0.4
2023-09-28T02:00:00,2258A,130.3648,46.8032,佳木斯市,十一中,,22,22,26,14,14,92,43,40,40,11,22,4,4,0.3,0.5
2023-09-28T02:00:00,2259A,130.3794,46.7588,佳木斯市,四丰,,18,18,16,8,9,111,51,50,50,4,5,1,1,0.2,0.3
2023-09-28T02:00:00,2262A,131.0518,45.8751,七台河市,新一中,,20,16,18,14,12,104,25,33,29,13,11,8,8,0.7,0.7
2023-09-28T02:00:00,2263A,127.4833,50.2524,黑河市,交通局,,16,5,11,7,9,72,51,51,51,3,15,3,4,0.5,0.6
2023-09-28T02:00:00,2264A,127.5144,50.2341,黑河市,环保局,,15,11,15,9,10,69,48,49,48,2,9,2,2,0.3,0.5
2023-09-28T02:00:00,2265A,127.5291,50.2472,黑河市,大黑河岛,,,13,18,16,14,,,,,1,2,2,2,,0.5
2023-09-28T02:00:00,2266A,126.9785,46.6365,绥化市,人和东街,,12,12,26,4,9,83,36,39,38,6,12,2,3,0.2,0.3
2023-09-28T02:00:00,2267A,126.964,46.6528,绥化市,党政办公中心,,12,11,22,4,8,78,37,39,38,6,10,5,6,0.3,0.3
2023-09-28T02:00:00,2269A,124.1069,50.4097,大兴安岭地区,科技局,,25,10,16,17,10,77,29,28,28,3,4,5,5,0.1,0.1
2023-09-28T02:00:00,2270A,117.396,32.939,蚌埠市,工人疗养院,颗粒物(PM10),56,62,90,31,49,111,86,84,84,10,18,4,4,0.6,0.7
2023-09-28T02:00:00,2271A,117.3605,32.9427,蚌埠市,百货大楼,颗粒物(PM10),61,72,92,35,50,122,78,90,84,13,20,5,5,0.6,0.6
2023-09-28T02:00:00,2273A,117.4185,32.8911,蚌埠市,蚌埠学院,颗粒物(PM10),56,61,70,34,48,110,76,76,76,14,17,4,4,0.5,0.6
2023-09-28T02:00:00,2274A,117.3533,32.9673,蚌埠市,淮上区政府,颗粒物(PM10),60,70,84,38,57,118,53,74,64,23,30,5,6,0.6,0.7
2023-09-28T02:00:00,2275A,117.3145,32.8977,蚌埠市,高新区,颗粒物(PM10),56,61,66,38,48,113,71,89,80,24,25,7,6,0.7,0.8
2023-09-28T02:00:00,2277A,116.8305,32.7727,淮南市,潘集区政府,颗粒物(PM10),53,55,64,30,39,107,52,55,54,22,19,9,8,0.5,0.5
2023-09-28T02:00:00,2278A,117.0067,32.6524,淮南市,师范学院,颗粒物(PM10),62,74,85,35,52,117,38,41,40,19,19,9,10,0.3,0.4
2023-09-28T02:00:00,2279A,116.8569,32.5951,淮南市,谢家集区政府,颗粒物(PM10),52,53,52,27,28,118,50,60,55,29,25,13,10,0.4,0.4
2023-09-28T02:00:00,2280A,116.8281,32.633,淮南市,八公山区政府,细颗粒物(PM2.5),69,80,73,50,50,109,37,48,42,20,13,9,9,0.5,0.5
2023-09-28T02:00:00,2281A,116.6325,32.6201,淮南市,焦岗湖风景区管理处,细颗粒物(PM2.5),67,40,49,48,49,93,29,30,30,9,6,1,1,0.5,0.5
2023-09-28T02:00:00,2282A,116.8004,33.975,淮北市,监测站,颗粒物(PM10),57,64,49,31,26,123,47,49,48,26,19,7,6,1.0,0.8
2023-09-28T02:00:00,2283A,116.8091,33.9007,淮北市,烈山区政府,颗粒物(PM10),75,100,74,54,44,129,32,42,37,26,20,6,6,0.8,0.7
2023-09-28T02:00:00,2285A,117.8177,30.9412,铜陵市,市第四中学,"颗粒物(PM10),细颗粒物(PM2.5)",68,85,77,49,45,104,5,6,6,41,27,6,6,1.1,0.8
2023-09-28T02:00:00,2286A,117.8059,30.9273,铜陵市,市公路局,细颗粒物(PM2.5),64,57,70,46,45,118,4,6,5,36,27,12,10,1.0,0.9
2023-09-28T02:00:00,2287A,117.7807,30.9413,铜陵市,市新民污水厂,颗粒物(PM10),55,59,93,21,35,120,18,15,15,25,24,7,13,0.5,0.7
2023-09-28T02:00:00,2288A,117.7439,30.8792,铜陵市,市第九中学,颗粒物(PM10),54,57,89,37,45,101,25,18,18,34,31,9,10,0.6,0.8
2023-09-28T02:00:00,2289A,117.846,30.9413,铜陵市,车站新区,细颗粒物(PM2.5),80,90,79,59,56,102,0,1,0,42,30,4,5,1.1,0.8
2023-09-28T02:00:00,2290A,117.8483,30.97,铜陵市,市职教基地,细颗粒物(PM2.5),67,72,63,48,36,112,6,9,8,28,19,4,5,1.1,0.9
2023-09-28T02:00:00,2291A,117.0809,30.5177,安庆市,环科院,,35,30,49,24,33,132,55,59,57,10,14,6,7,0.9,1
2023-09-28T02:00:00,2292A,117.0331,30.5119,安庆市,马山宾馆,,38,37,52,26,36,137,60,60,60,13,16,4,5,0.9,1
2023-09-28T02:00:00,2294A,116.9896,30.6145,安庆市,安庆大学,,45,36,44,31,33,130,68,64,64,12,14,4,5,0.7,0.7
2023-09-28T02:00:00,2295A,118.2903,29.6963,黄山市,延安路89号,,28,28,59,1,18,138,39,44,42,5,6,4,4,0.4,0.7
2023-09-28T02:00:00,2296A,118.327,29.7178,黄山市,黄山东路89号,,34,34,36,13,16,132,63,60,60,6,7,4,4,0.8,0.7
2023-09-28T02:00:00,2297A,118.1371,30.2756,黄山市,黄山区政府5号楼,颗粒物(PM10),54,57,53,22,24,99,24,27,26,8,9,6,6,0.9,0.9
2023-09-28T02:00:00,2298A,118.3093,32.3153,滁州市,老年大学,细颗粒物(PM2.5),57,59,48,40,28,97,65,62,62,17,15,7,8,0.6,0.5
2023-09-28T02:00:00,2299A,118.3244,32.2786,滁州市,人大宾馆,细颗粒物(PM2.5),73,49,40,53,38,101,68,65,65,25,16,6,7,0.6,0.6
2023-09-28T02:00:00,2301A,115.8277,32.8929,阜阳市,市监测站,颗粒物(PM10),57,63,57,36,44,144,42,48,45,22,19,8,7,0.7,0.7
2023-09-28T02:00:00,2303A,115.8554,32.8605,阜阳市,开发区,细颗粒物(PM2.5),67,65,67,48,52,120,48,58,53,24,22,8,8,0.7,0.7
2023-09-28T02:00:00,2307A,116.5079,31.737,六安市,监测大楼,颗粒物(PM10),54,58,42,24,23,134,50,52,51,12,12,5,4,1.0,0.8
2023-09-28T02:00:00,2308A,116.4738,31.7643,六安市,皖西学院,颗粒物(PM10),54,57,47,22,18,138,41,42,42,11,12,7,7,0.8,0.7
2023-09-28T02:00:00,2309A,116.4996,31.7905,六安市,朝阳厂,,49,49,40,30,27,145,38,41,40,11,12,8,7,0.9,0.8
2023-09-28T02:00:00,2310A,116.5567,31.7886,六安市,开发区,颗粒物(PM10),56,61,56,33,30,143,46,44,44,15,18,6,8,0.8,0.7
2023-09-28T02:00:00,2311A,115.8072,33.8399,亳州市,污水处理厂,细颗粒物(PM2.5),54,55,56,38,33,118,42,44,43,16,14,7,10,0.7,0.7
2023-09-28T02:00:00,2312A,115.7789,33.8518,亳州市,三国揽胜宫,细颗粒物(PM2.5),52,45,42,36,30,115,40,50,45,16,16,6,6,0.6,0.6
2023-09-28T02:00:00,2314A,117.47,30.6618,池州市,池州学院,细颗粒物(PM2.5),59,58,64,42,41,117,22,18,18,24,18,5,6,0.9,0.9
2023-09-28T02:00:00,2316A,118.7581,30.9454,宣城市,鳌峰子站,颗粒物(PM10),59,68,52,33,33,115,21,21,21,33,19,4,4,1.1,1
2023-09-28T02:00:00,2317A,118.7385,30.9743,宣城市,敬亭山子站,,48,46,41,33,34,113,28,45,36,18,18,6,8,1.0,0.9
2023-09-28T02:00:00,2318A,118.7173,30.9427,宣城市,开发区子站,颗粒物(PM10),60,70,54,38,34,112,5,7,6,45,23,6,7,1.1,0.9
2023-09-28T02:00:00,2319A,119.0141,25.4325,莆田市,荔城区仓后路,,20,20,22,8,10,93,64,66,65,6,7,7,7,0.7,0.7
2023-09-28T02:00:00,2320A,119.0015,25.4553,莆田市,莆田市监测站,,20,18,20,8,9,94,64,68,66,3,3,7,6,0.4,0.6
2023-09-28T02:00:00,2321A,119.1119,25.4561,莆田市,涵江区六中,,23,22,21,11,9,95,71,75,73,6,5,6,6,0.6,0.6
2023-09-28T02:00:00,2322A,119.1013,25.3215,莆田市,秀屿区政府,,20,19,31,10,12,93,64,68,66,6,6,7,6,0.6,0.6
2023-09-28T02:00:00,2323A,118.981,25.4792,莆田市,东圳水库,,,,,,,,,,,,,,,,
2023-09-28T02:00:00,2324A,117.6211,26.2625,三明市,三钢,,20,19,24,14,19,94,18,24,21,21,13,7,8,0.5,0.5
2023-09-28T02:00:00,2325A,117.635,26.2714,三明市,三明二中,,18,16,21,12,14,94,24,24,24,23,17,3,5,0.5,0.5
2023-09-28T02:00:00,2326A,117.6028,26.2378,三明市,三元区政府,,29,29,26,17,14,94,11,13,12,22,18,7,7,0.7,0.6
2023-09-28T02:00:00,2327A,117.7275,26.3108,三明市,洋溪,,,,,,,,,,,,,,,,
2023-09-28T02:00:00,2331A,118.0966,26.6761,南平市,茫荡山,,,,,,,,,,,,,,,,
2023-09-28T02:00:00,2332A,118.1681,26.6369,南平市,南平市监测站,,22,22,23,12,12,98,41,43,42,8,10,4,4,0.6,0.6
2023-09-28T02:00:00,2333A,118.1825,26.6489,南平市,南平铝业有限公司,,29,29,27,13,13,98,24,32,28,21,11,8,6,0.7,0.6
2023-09-28T02:00:00,2334A,118.1756,26.6272,南平市,南平七中,,26,26,23,12,12,108,40,43,42,9,7,4,5,0.5,0.5
2023-09-28T02:00:00,2335A,117.0189,25.1181,龙岩市,龙岩师专,,,,,,,,,,,,,,,,
2023-09-28T02:00:00,2336A,117.0217,25.1033,龙岩市,龙岩市监测站,,32,32,25,21,15,93,23,24,24,20,16,7,6,0.5,0.5
2023-09-28T02:00:00,2337A,117.0258,25.0661,龙岩市,闽西职业技术学院,,41,41,31,18,13,94,4,6,5,32,19,20,12,0.5,0.4
2023-09-28T02:00:00,2338A,117.0196,25.0306,龙岩市,龙岩学院,,24,24,22,14,12,94,18,22,20,14,10,2,3,0.5,0.5
2023-09-28T02:00:00,2339A,119.5001,26.6946,宁德市,金涵水库,,,,,,,,,,,,,,,,
2023-09-28T02:00:00,2341A,119.5388,26.6612,宁德市,宁德市监测站,,25,15,21,17,14,103,68,64,64,13,13,9,7,0.5,0.5
2023-09-28T02:00:00,2342A,117.3102,29.3867,景德镇市,王港中学,,34,34,28,18,19,150,35,34,34,5,5,3,3,0.5,0.5
2023-09-28T02:00:00,2343A,117.2117,29.2933,景德镇市,老干部活动中心,,36,36,35,13,22,154,59,65,62,9,9,4,5,0.2,0.2
2023-09-28T02:00:00,2344A,117.1894,29.2789,景德镇市,兽医站,,43,22,31,30,33,132,52,52,52,10,10,7,7,0.5,0.5
2023-09-28T02:00:00,2345A,117.1547,29.2617,景德镇市,台达陶瓷,细颗粒物(PM2.5),52,49,38,36,27,125,40,34,34,26,22,8,33,0.6,0.6
2023-09-28T02:00:00,2346A,117.2461,29.2956,景德镇市,陶研所,颗粒物(PM10),53,55,42,19,17,133,47,57,52,6,7,5,6,0.6,0.5
2023-09-28T02:00:00,2347A,114.0997,27.5002,萍乡市,武功山,,19,19,25,13,16,127,13,15,14,5,6,7,9,1.2,1.2
2023-09-28T02:00:00,2348A,113.8385,27.6434,萍乡市,中医院,细颗粒物(PM2.5),90,86,77,67,54,129,29,46,38,38,24,42,24,1.5,1.4
2023-09-28T02:00:00,2349A,113.8493,27.6253,萍乡市,市政府车库,细颗粒物(PM2.5),59,64,65,42,42,118,39,50,44,14,19,24,25,0.6,0.9
2023-09-28T02:00:00,2350A,113.8676,27.6435,萍乡市,市环保局,"颗粒物(PM10),细颗粒物(PM2.5)",52,53,64,36,43,134,60,62,61,14,22,20,21,0.8,1.2
2023-09-28T02:00:00,2351A,113.866,27.6198,萍乡市,安源区政府,颗粒物(PM10),54,58,60,32,37,130,48,59,54,16,18,28,23,0.7,0.9
2023-09-28T02:00:00,2352A,115.0861,27.9317,新余市,北岗,细颗粒物(PM2.5),54,44,43,38,35,134,65,67,66,9,9,13,21,0.8,0.8
2023-09-28T02:00:00,2353A,114.9886,27.8431,新余市,飞宇,细颗粒物(PM2.5),63,72,63,45,35,122,69,66,66,12,14,12,17,0.7,0.6
2023-09-28T02:00:00,2354A,114.9231,27.8246,新余市,第二水厂,,,,77,,32,141,,80,80,,15,,8,,0.5
2023-09-28T02:00:00,2355A,114.9308,27.8036,新余市,市气象局,细颗粒物(PM2.5),59,54,54,42,38,138,74,74,74,12,13,11,12,0.9,0.7
2023-09-28T02:00:00,2357A,116.9822,28.1136,鹰潭市,龙虎山,颗粒物(PM10),52,54,50,18,16,111,61,69,65,16,8,5,5,0.5,0.4
2023-09-28T02:00:00,2358A,117.0564,28.2642,鹰潭市,新监测站,,48,39,59,33,42,134,88,94,91,4,7,3,12,0.5,0.8
2023-09-28T02:00:00,2359A,117.0311,28.2475,鹰潭市,财苑宾馆,,45,42,64,31,41,138,89,92,90,5,8,7,15,0.6,0.7
2023-09-28T02:00:00,2360A,117.0222,28.2264,鹰潭市,体育馆,细颗粒物(PM2.5),67,54,61,48,46,144,73,74,74,11,10,29,13,0.7,0.8
2023-09-28T02:00:00,2361A,117.0017,28.2131,鹰潭市,三川水表,细颗粒物(PM2.5),57,53,59,40,44,144,62,71,66,15,11,11,9,0.8,0.8
2023-09-28T02:00:00,2362A,114.9017,25.9149,赣州市,通天岩,,,,,,,,,,,,,,,,
2023-09-28T02:00:00,2363A,114.9367,25.8664,赣州市,地委,,43,43,50,21,31,103,76,71,71,5,8,7,10,1.0,1
2023-09-28T02:00:00,2364A,114.9461,25.8481,赣州市,气象台,,38,33,44,26,32,114,87,77,77,7,14,9,15,0.6,0.7
2023-09-28T02:00:00,2365A,114.9322,25.8333,赣州市,市图书馆,,49,40,57,34,33,108,83,70,70,5,12,14,14,1.2,1.1
2023-09-28T02:00:00,2366A,114.8905,25.8471,赣州市,华坚鞋城,细颗粒物(PM2.5),52,43,47,36,31,108,81,68,68,4,13,9,16,0.8,1
2023-09-28T02:00:00,2367A,114.9754,27.0803,吉安市,红声器材厂,细颗粒物(PM2.5),55,56,50,39,33,120,71,74,72,13,11,15,12,1.0,1
2023-09-28T02:00:00,2368A,114.9658,27.0999,吉安市,市森林工业局,细颗粒物(PM2.5),57,60,53,40,33,115,76,72,72,13,11,10,12,0.6,0.5
2023-09-28T02:00:00,2369A,114.99,27.1312,吉安市,市环境监测站,颗粒物(PM10),55,60,49,37,30,118,72,68,68,14,13,12,12,0.9,0.8
2023-09-28T02:00:00,2370A,115.0093,27.0968,吉安市,青原区法院,细颗粒物(PM2.5),60,56,52,43,32,119,74,74,74,14,14,9,11,0.7,0.9
2023-09-28T02:00:00,2371A,114.3408,27.8064,宜春市,槟榔水业,细颗粒物(PM2.5),63,67,50,45,31,128,47,49,48,23,20,5,5,0.9,0.7
2023-09-28T02:00:00,2373A,114.3956,27.7844,宜春市,市石油公司,细颗粒物(PM2.5),69,74,60,50,39,140,58,66,62,23,21,13,13,1.2,1.1
2023-09-28T02:00:00,2374A,114.3703,27.7914,宜春市,市气象局,细颗粒物(PM2.5),77,73,76,56,42,128,48,56,52,20,19,6,11,1.5,1.4
2023-09-28T02:00:00,2375A,114.4013,27.8074,宜春市,市广电局,细颗粒物(PM2.5),67,74,57,48,34,146,63,64,64,19,17,15,16,1.4,1.2
2023-09-28T02:00:00,2376A,116.2127,28.0814,抚州市,桐源党溪,细颗粒物(PM2.5),54,47,47,38,35,116,65,65,65,3,3,1,2,1.1,1.2
2023-09-28T02:00:00,2377A,116.3544,27.9831,抚州市,市站,细颗粒物(PM2.5),59,60,59,42,43,105,84,85,84,8,11,5,4,1.2,1
2023-09-28T02:00:00,2378A,116.3565,27.963,抚州市,血防站,细颗粒物(PM2.5),62,60,61,44,41,98,77,83,80,2,4,1,2,0.9,1
2023-09-28T02:00:00,2379A,116.3564,28.0007,抚州市,采茶剧团,细颗粒物(PM2.5),62,61,58,44,43,97,74,76,75,5,9,2,3,1.1,1.3
2023-09-28T02:00:00,2380A,116.385,27.9647,抚州市,医学分院,,,,,,,,,,,,,,,,
2023-09-28T02:00:00,2381A,118.005,28.4572,上饶市,百草园,细颗粒物(PM2.5),62,68,54,44,36,166,42,32,32,9,10,5,9,0.6,0.6
2023-09-28T02:00:00,2382A,117.9756,28.4436,上饶市,市监测站,细颗粒物(PM2.5),67,72,61,48,37,188,48,56,52,10,11,8,12,0.7,0.7
2023-09-28T02:00:00,2383A,117.9519,28.4628,上饶市,凤凰光学,细颗粒物(PM2.5),72,68,59,52,38,178,77,72,72,2,14,2,14,0.4,0.6
2023-09-28T02:00:00,2385A,114.17,35.9019,鹤壁市,市监测站,,22,22,35,11,30,74,33,36,34,15,24,2,5,0.4,0.8
2023-09-28T02:00:00,2386A,114.2956,35.7511,鹤壁市,市交警支队,,25,24,54,13,32,45,11,6,6,50,39,8,9,0.5,0.9
2023-09-28T02:00:00,2387A,114.2878,35.7306,鹤壁市,迎宾馆,二氧化氮,62,20,45,27,38,56,2,2,2,123,46,12,9,0.6,0.9
2023-09-28T02:00:00,2389A,113.836,35.311,新乡市,环保西院,,45,45,44,19,34,36,15,17,16,28,28,7,7,0.4,0.8
2023-09-28T02:00:00,2390A,113.884,35.272,新乡市,开发区,,41,41,38,24,33,39,20,23,22,24,29,5,6,0.9,1.3
2023-09-28T02:00:00,2391A,113.883,35.303,新乡市,环保东院,颗粒物(PM10),52,53,54,28,34,38,10,15,12,35,34,6,7,0.5,1.1
2023-09-28T02:00:00,2392A,115.0312,35.7636,濮阳市,环保局,细颗粒物(PM2.5),62,50,40,44,45,40,3,3,3,41,31,5,4,1.1,1
2023-09-28T02:00:00,2394A,115.0574,35.7609,濮阳市,油田运输公司,细颗粒物(PM2.5),72,77,75,52,48,40,5,8,6,38,30,5,4,0.9,0.8
2023-09-28T02:00:00,2395A,115.0866,35.7754,濮阳市,油田物探公司,细颗粒物(PM2.5),64,73,67,46,42,45,5,6,6,39,29,7,5,0.9,0.8
2023-09-28T02:00:00,2396A,113.8276,34.0159,许昌市,监测站,,36,36,37,22,18,88,14,19,16,35,30,9,11,0.6,0.7
2023-09-28T02:00:00,2398A,113.7906,33.9953,许昌市,开发区,,28,28,38,19,21,95,6,12,9,43,24,5,7,0.9,1
2023-09-28T02:00:00,2399A,114.051,33.5699,漯河市,三五一五工厂,,27,27,36,13,18,109,45,57,51,11,17,9,10,0.5,0.7
2023-09-28T02:00:00,2400A,114.0055,33.5698,漯河市,漯河大学,,30,24,40,21,20,106,33,50,42,19,22,6,7,0.4,0.6
2023-09-28T02:00:00,2401A,114.0138,33.5828,漯河市,市水利局,,29,29,38,19,24,105,42,50,46,8,14,8,9,0.4,0.6
2023-09-28T02:00:00,2402A,114.0261,33.5698,漯河市,市广电局,,29,29,40,16,20,100,44,55,50,11,17,1,4,0.7,0.8
2023-09-28T02:00:00,2404A,112.5224,33.0122,南阳市,瓦房庄,,25,25,38,16,18,78,32,36,34,21,25,5,5,0.6,0.7
2023-09-28T02:00:00,2405A,112.5003,32.9735,南阳市,汉画馆,,24,24,29,15,16,79,22,30,26,33,23,4,5,0.7,0.8
2023-09-28T02:00:00,2406A,112.5573,33.027,南阳市,气象站,,17,12,30,8,14,86,54,59,56,14,24,7,8,0.5,0.7
2023-09-28T02:00:00,2407A,112.5481,32.9689,南阳市,理工学院,,20,18,32,14,17,88,35,52,44,21,18,4,6,0.5,0.6
2023-09-28T02:00:00,2408A,115.6702,34.4285,商丘市,环境监测站,,32,21,39,22,22,108,40,44,42,23,19,6,6,0.6,0.7
2023-09-28T02:00:00,2409A,115.6458,34.4045,商丘市,粮食局,,32,28,41,22,27,99,53,50,50,13,18,6,7,0.6,0.8
2023-09-28T02:00:00,2410A,115.6293,34.3948,商丘市,睢阳区环保局,,38,38,52,22,26,102,41,37,37,24,29,9,8,0.5,0.6
2023-09-28T02:00:00,2420A,114.0189,32.9656,驻马店市,市一纸厂,,22,19,31,14,14,114,69,76,72,7,14,6,7,0.3,0.5
2023-09-28T02:00:00,2421A,114.0114,33.015,驻马店市,市彩印厂,,22,16,34,14,17,113,69,76,72,7,11,6,7,0.3,0.5
2023-09-28T02:00:00,2422A,113.9976,32.9771,驻马店市,天方二分厂,,20,15,32,7,20,114,63,75,69,6,9,8,9,0.2,0.4
2023-09-28T02:00:00,2423A,115.0601,30.2313,黄石市,沈家营,颗粒物(PM10),60,70,55,25,23,131,48,64,56,14,13,4,5,0.8,0.9
2023-09-28T02:00:00,2424A,115.0817,30.2006,黄石市,陈家湾,颗粒物(PM10),61,72,57,24,27,131,44,53,48,9,11,8,9,0.9,0.9
2023-09-28T02:00:00,2426A,114.8988,30.2019,黄石市,铁山,颗粒物(PM10),69,87,55,46,30,114,5,7,6,47,22,12,11,1.4,1.1
2023-09-28T02:00:00,2427A,115.0307,30.2092,黄石市,团城山,颗粒物(PM10),64,78,53,25,20,128,35,40,38,26,16,9,8,0.9,0.9
2023-09-28T02:00:00,2428A,111.0419,32.395,十堰市,武当山,,13,2,9,2,4,65,39,44,42,5,6,9,9,0.5,0.6
2023-09-28T02:00:00,2429A,110.78,32.6494,十堰市,滨河新村,,15,15,23,10,8,37,15,15,15,15,17,6,6,0.5,0.6
2023-09-28T02:00:00,2430A,110.7258,32.6389,十堰市,刘家沟,,18,18,21,3,7,34,13,16,14,3,6,6,6,0.8,0.8
2023-09-28T02:00:00,2431A,110.8839,32.5714,十堰市,铁二处,,27,27,21,6,7,51,15,16,16,2,6,5,6,0.5,0.6
2023-09-28T02:00:00,2432A,112.155,32.0197,襄阳市,襄城运动路,,36,36,29,20,17,84,18,62,40,41,22,7,10,0.7,0.7
2023-09-28T02:00:00,2433A,112.1392,32.0564,襄阳市,樊城新华路,,32,32,34,19,18,82,34,54,44,25,25,8,11,0.4,0.4
2023-09-28T02:00:00,2434A,112.1825,32.1142,襄阳市,高新管委会,,39,33,32,27,23,89,44,53,48,21,25,7,9,0.7,0.9
2023-09-28T02:00:00,2435A,112.2106,32.0903,襄阳市,襄州航空路,,28,28,32,12,15,95,50,62,56,23,23,7,10,0.6,0.8
2023-09-28T02:00:00,2436A,114.8938,30.3994,鄂州市,市政府,,39,39,46,16,21,106,17,34,26,31,18,4,3,1.1,1.1
2023-09-28T02:00:00,2437A,114.8989,30.3714,鄂州市,赵家坝,颗粒物(PM10),51,51,46,17,22,111,39,33,33,20,25,8,10,0.7,1.1
2023-09-28T02:00:00,2439A,112.2014,31.0481,荆门市,竹园小学,,30,30,61,13,37,140,29,37,33,12,17,9,12,0.7,0.9
2023-09-28T02:00:00,2440A,112.1969,30.9891,荆门市,掇刀,,35,34,55,24,36,141,36,40,38,11,21,10,11,0.6,0.8
2023-09-28T02:00:00,2441A,112.2213,31.0386,荆门市,石化一小,,42,36,72,29,40,148,33,35,34,13,26,9,9,0.5,0.7
2023-09-28T02:00:00,2443A,113.9153,30.9285,孝感市,文化路,,20,13,30,11,21,99,61,60,60,8,14,8,9,0.8,0.8
2023-09-28T02:00:00,2444A,113.942,30.9075,孝感市,东城区,,20,10,35,12,18,100,61,60,60,7,11,8,8,0.8,0.8
2023-09-28T02:00:00,2446A,114.9028,30.4742,黄冈市,职工中心,,25,25,47,17,28,118,46,42,42,3,6,8,9,0.9,1
2023-09-28T02:00:00,2447A,114.3175,29.8142,咸宁市,森林公园,,40,40,38,28,24,89,74,67,67,3,8,6,6,0.9,0.9
2023-09-28T02:00:00,2448A,114.3107,29.8454,咸宁市,市发改委,颗粒物(PM10),56,61,65,35,37,99,39,38,38,9,15,6,6,1.0,1
2023-09-28T02:00:00,2449A,114.2936,29.8566,咸宁市,咸安区政府,细颗粒物(PM2.5),68,78,60,49,40,103,50,48,48,16,20,6,6,0.8,0.8
2023-09-28T02:00:00,2451A,113.3583,31.7275,随州市,市委党校,,39,39,40,24,26,92,43,45,44,10,13,7,8,0.6,0.6
2023-09-28T02:00:00,2452A,113.3833,31.6908,随州市,市林业局,,28,21,30,19,21,85,45,43,43,14,17,6,6,0.6,0.6
2023-09-28T02:00:00,2453A,113.3983,31.7308,随州市,市立交桥水厂,,28,27,31,19,22,89,28,31,30,20,15,6,7,0.7,0.7
2023-09-28T02:00:00,2454A,109.4978,30.2981,恩施土家族苗族自治州,湖北民院,,39,39,36,25,19,59,4,4,4,9,11,9,9,0.8,0.8
2023-09-28T02:00:00,2455A,109.4707,30.2798,恩施土家族苗族自治州,州电力总公司,,31,31,28,13,12,62,12,13,12,18,16,8,8,0.9,1
2023-09-28T02:00:00,2456A,112.5003,26.9167,衡阳市,原169医院,颗粒物(PM10),63,76,50,43,30,97,39,38,38,16,18,1,3,0.9,0.8
2023-09-28T02:00:00,2457A,112.6194,26.9258,衡阳市,衡阳化工总厂,颗粒物(PM10),91,132,71,61,47,134,39,56,48,24,13,26,11,0.9,0.9
2023-09-28T02:00:00,2458A,112.6211,26.8956,衡阳市,珠晖区环保局,,,80,58,,,136,41,59,50,21,15,9,8,1.0,1
2023-09-28T02:00:00,2459A,112.6197,26.8733,衡阳市,市委党校,颗粒物(PM10),69,87,64,42,46,144,61,63,62,14,11,9,10,0.9,0.9
