timepoint,stationcode,longitude,latitude,area,positionname,primarypollutant,aqi,pm10,pm10_24h,pm2_5,pm2_5_24h,o3,o3_24h,o3_8h,o3_8h_24h,no2,no2_24h,so2,so2_24h,co,co_24h
2023-04-06T22:00:00,1001A,116.3621,39.8784,北京市,万寿西宫,,33,33,41,5,19,90,74,79,78,8,13,3,3,0.2,0.4
2023-04-06T22:00:00,1002A,116.2202,40.2915,北京市,定陵,,26,23,37,4,13,100,83,95,87,5,7,3,3,0.3,0.2
2023-04-06T22:00:00,1003A,116.4174,39.9289,北京市,东四,,40,40,44,6,17,99,85,87,87,7,11,3,3,0.2,0.2
2023-04-06T22:00:00,1004A,116.4072,39.8863,北京市,天坛,,33,33,44,6,18,91,79,83,83,14,15,3,3,0.1,0.2
2023-04-06T22:00:00,1005A,116.462,39.9365,北京市,农展馆,,31,31,43,6,17,83,74,76,76,7,12,3,2,0.1,0.2
2023-04-06T22:00:00,1006A,116.3392,39.9295,北京市,官园,,33,33,41,6,17,90,75,78,78,7,14,1,1,0.1,0.2
2023-04-06T22:00:00,1007A,116.2878,39.9611,北京市,海淀万柳,,29,29,41,4,15,73,65,69,69,9,16,3,3,0.2,0.3
2023-04-06T22:00:00,1008A,116.6636,40.135,北京市,顺义新城,,31,31,56,5,17,89,85,87,86,5,12,3,3,0.1,0.1
2023-04-06T22:00:00,1009A,116.6275,40.3275,北京市,怀柔镇,,24,23,48,6,14,87,74,78,78,4,6,3,3,0.1,0.1
2023-04-06T22:00:00,1010A,116.2296,40.217,北京市,昌平镇,,31,31,39,5,14,93,85,90,84,2,7,3,3,0.1,0.1
2023-04-06T22:00:00,1011A,116.3966,39.9821,北京市,奥体中心,,34,34,43,6,17,85,75,76,76,4,14,1,1,0.1,0.2
2023-04-06T22:00:00,1012A,116.184,39.9136,北京市,古城,,49,49,47,6,16,90,79,84,84,8,17,3,2,0.1,0.3
2023-04-06T22:00:00,1015A,117.1444,39.1661,天津市,勤俭道,,32,32,58,8,28,99,73,89,83,18,21,5,6,0.3,0.4
2023-04-06T22:00:00,1017A,117.237,39.1082,天津市,大直沽八号路,,34,34,60,8,29,97,77,87,86,16,21,5,7,0.3,0.4
2023-04-06T22:00:00,1018A,117.202,39.0927,天津市,前进道,,31,31,77,8,29,97,72,86,84,21,24,3,4,0.3,0.5
2023-04-06T22:00:00,1019A,117.1837,39.2133,天津市,淮河道,,34,34,59,8,25,104,75,94,88,20,21,6,7,0.3,0.5
2023-04-06T22:00:00,1021A,117.307,39.0877,天津市,跃进路,,32,32,58,10,30,93,75,87,83,16,21,4,5,0.4,0.6
2023-04-06T22:00:00,1023A,117.707,39.0343,天津市,第四大街,,35,35,62,10,31,82,59,75,66,29,29,5,6,0.3,0.8
2023-04-06T22:00:00,1024A,117.457,38.8394,天津市,永明路,颗粒物(PM10),56,62,53,27,29,88,54,81,70,36,26,6,8,0.6,0.7
2023-04-06T22:00:00,1026A,117.764,39.1587,天津市,汉北路,,35,35,59,10,29,97,52,84,70,32,24,11,8,0.1,0.5
2023-04-06T22:00:00,1027A,117.157,38.9194,天津市,团泊洼,颗粒物(PM10),51,51,55,18,28,91,60,83,80,22,23,4,5,0.4,0.5
2023-04-06T22:00:00,1029A,114.4422,38.0444,石家庄市,职工医院,,47,47,41,26,28,100,79,97,94,17,15,4,6,0.3,0.4
2023-04-06T22:00:00,1030A,114.6063,38.0266,石家庄市,高新区,,48,48,40,31,25,98,87,93,92,11,12,4,4,0.3,0.5
2023-04-06T22:00:00,1031A,114.4898,38.1328,石家庄市,西北水源,,50,50,60,32,26,95,74,89,87,14,12,1,2,0.2,0.3
2023-04-06T22:00:00,1032A,114.4586,38.0058,石家庄市,西南高教,,28,0,35,6,15,96,88,93,92,13,14,1,3,0.2,0.3
2023-04-06T22:00:00,1033A,114.5331,38.0178,石家庄市,世纪公园,,42,33,38,29,23,96,87,92,92,20,20,5,6,0.3,0.5
2023-04-06T22:00:00,1034A,114.509,38.0457,石家庄市,人民会堂,,45,45,54,17,15,99,86,95,94,14,13,3,5,0.3,0.4
2023-04-06T22:00:00,1035A,114.3524,37.8911,石家庄市,封龙山,颗粒物(PM10),51,51,45,25,32,115,78,111,84,13,10,1,3,0.4,0.5
2023-04-06T22:00:00,1037A,118.131,39.6363,唐山市,雷达站,颗粒物(PM10),70,90,72,17,26,105,42,92,71,37,34,1,2,0.4,0.7
2023-04-06T22:00:00,1038A,118.1725,39.6334,唐山市,物资局,颗粒物(PM10),78,106,81,38,34,93,42,82,68,39,45,6,7,0.6,0.8
2023-04-06T22:00:00,1040A,118.1705,39.6506,唐山市,十二中,颗粒物(PM10),71,92,79,40,32,101,48,89,74,25,35,2,4,0.3,0.7
2023-04-06T22:00:00,1041A,118.1869,39.622,唐山市,小山,颗粒物(PM10),64,77,83,27,30,105,43,92,74,40,43,3,4,0.4,0.7
2023-04-06T22:00:00,1042A,119.5134,39.8207,秦皇岛市,北戴河环保局,,,86,51,,15,117,54,111,89,43,26,5,4,1.1,0.8
2023-04-06T22:00:00,1043A,119.7493,40.0116,秦皇岛市,第一关,颗粒物(PM10),75,99,66,52,28,105,25,95,76,81,40,2,3,0.6,0.5
2023-04-06T22:00:00,1044A,119.5897,39.9499,秦皇岛市,监测站,颗粒物(PM10),70,90,61,49,27,100,47,88,74,32,19,3,4,1.1,0.5
2023-04-06T22:00:00,1046A,119.5251,39.9041,秦皇岛市,建设大厦,颗粒物(PM10),77,103,53,26,14,105,44,96,81,36,21,6,9,1.1,0.5
2023-04-06T22:00:00,1048A,114.5302,36.6116,邯郸市,东污水处理厂,颗粒物(PM10),56,62,50,16,20,88,49,85,74,27,17,5,7,0.4,0.4
2023-04-06T22:00:00,1049A,114.4918,36.5713,邯郸市,矿院,颗粒物(PM10),52,53,50,27,23,89,50,86,74,22,13,6,8,0.6,0.6
2023-04-06T22:00:00,1050A,114.484,36.6133,邯郸市,丛台公园,,33,33,39,23,23,94,63,91,82,18,14,6,7,0.4,0.3
2023-04-06T22:00:00,1051A,115.493,38.8632,保定市,游泳馆,,46,46,44,7,22,97,84,94,93,17,21,2,3,0.1,0.1
2023-04-06T22:00:00,1052A,115.5213,38.8959,保定市,华电二区,,45,45,36,22,22,93,81,90,88,6,10,4,5,0.3,0.4
2023-04-06T22:00:00,1053A,115.4713,38.9108,保定市,接待中心,,46,46,39,13,21,92,81,89,88,7,10,5,5,0.3,0.4
2023-04-06T22:00:00,1054A,115.4612,38.8416,保定市,地表水厂,颗粒物(PM10),57,64,59,20,24,88,68,85,82,20,17,6,6,0.2,0.2
2023-04-06T22:00:00,1056A,115.5086,38.8639,保定市,监测站,颗粒物(PM10),52,53,51,15,23,98,86,94,92,7,14,5,7,0.0,0.2
2023-04-06T22:00:00,1057A,114.8883,40.8336,张家口市,人民公园,颗粒物(PM10),54,58,52,6,11,94,84,91,90,4,4,2,2,0.3,0.3
2023-04-06T22:00:00,1059A,114.8687,40.8042,张家口市,五金库,颗粒物(PM10),58,66,63,18,17,91,76,89,84,10,6,3,2,0.3,0.3
2023-04-06T22:00:00,1060A,114.8902,40.762,张家口市,世纪豪园,颗粒物(PM10),60,69,58,8,13,91,70,88,85,12,6,4,3,0.3,0.2
2023-04-06T22:00:00,1061A,114.8916,40.8661,张家口市,北泵房,颗粒物(PM10),58,65,52,25,20,99,79,98,92,9,4,7,8,0.3,0.3
2023-04-06T22:00:00,1062A,117.9531,40.9081,承德市,铁路,,27,13,47,17,18,84,84,81,81,1,13,7,7,0.2,0.3
2023-04-06T22:00:00,1063A,117.9392,40.9763,承德市,中国银行,,26,22,51,8,15,81,81,79,79,5,20,5,5,0.2,0.3
2023-04-06T22:00:00,1064A,117.9503,40.928,承德市,开发区,,34,34,50,19,17,89,89,87,87,1,16,4,5,0.2,0.3
2023-04-06T22:00:00,1065A,117.8051,40.9655,承德市,文化中心,,25,22,67,16,18,81,79,78,78,6,19,5,5,0.2,0.3
2023-04-06T22:00:00,1066A,117.9268,41.0026,承德市,离宫,,27,17,43,8,15,88,86,86,85,6,14,10,10,0.2,0.2
2023-04-06T22:00:00,1067A,116.6708,39.5111,廊坊市,药材公司,,49,49,64,9,21,98,75,89,85,23,24,1,1,0.2,0.3
2023-04-06T22:00:00,1068A,116.7214,39.5589,廊坊市,开发区,,50,50,62,19,24,102,79,93,89,20,25,5,5,0.3,0.3
2023-04-06T22:00:00,1070A,116.7244,39.5269,廊坊市,北华航天学院,颗粒物(PM10),54,58,67,17,23,95,71,87,82,17,19,4,4,0.3,0.3
2023-04-06T22:00:00,1071A,116.8842,38.2991,沧州市,沧县城建局,颗粒物(PM10),60,70,47,27,28,106,75,90,87,28,28,1,2,0.4,0.5
2023-04-06T22:00:00,1072A,116.8584,38.3254,沧州市,电视转播站,颗粒物(PM10),56,61,52,29,26,106,75,91,87,27,25,2,3,0.3,0.3
2023-04-06T22:00:00,1073A,116.8709,38.3228,沧州市,市环保局,颗粒物(PM10),57,64,52,29,30,110,86,95,93,26,26,6,5,0.2,0.2
2023-04-06T22:00:00,1074A,115.6838,37.7541,衡水市,电机北厂,颗粒物(PM10),51,52,36,16,14,99,69,90,86,14,10,3,3,0.4,0.4
2023-04-06T22:00:00,1075A,115.6303,37.7316,衡水市,市监测站,颗粒物(PM10),51,51,34,22,20,92,57,86,81,14,9,5,5,0.5,0.5
2023-04-06T22:00:00,1077A,114.4704,37.0886,邢台市,达活泉,,45,45,53,24,24,93,52,89,82,26,11,3,4,0.4,0.5
2023-04-06T22:00:00,1078A,114.5062,37.0349,邢台市,邢师高专,颗粒物(PM10),51,51,46,20,22,91,17,84,67,59,22,2,4,0.5,0.5
2023-04-06T22:00:00,1079A,114.5237,37.0851,邢台市,路桥公司,颗粒物(PM10),51,51,47,20,20,94,56,88,80,21,13,6,6,0.5,0.5
2023-04-06T22:00:00,1080A,114.4725,37.0719,邢台市,市环保局,颗粒物(PM10),59,67,52,24,25,96,47,91,83,34,11,7,7,0.4,0.4
2023-04-06T22:00:00,1081A,112.522,37.8873,太原市,尖草坪,,32,32,35,12,13,96,82,92,90,17,11,3,3,0.3,0.3
2023-04-06T22:00:00,1083A,112.434,38.0108,太原市,上兰,,,,,,,,,,,,,,,,
2023-04-06T22:00:00,1084A,112.469,37.7124,太原市,晋源,,41,41,38,16,16,95,78,91,86,18,11,5,5,0.4,0.3
2023-04-06T22:00:00,1085A,112.5583,37.7394,太原市,小店,,41,41,37,17,15,97,68,91,86,29,13,3,3,0.3,0.3
2023-04-06T22:00:00,1086A,112.5369,37.8692,太原市,桃园,,33,33,35,14,14,96,73,91,87,26,11,2,2,0.3,0.3
2023-04-06T22:00:00,1087A,112.57,37.8195,太原市,坞城,,39,39,35,17,14,98,77,92,89,20,11,5,5,0.4,0.3
2023-04-06T22:00:00,1088A,112.549,37.9854,太原市,南寨,颗粒物(PM10),51,51,40,13,14,102,50,95,80,32,14,3,4,0.3,0.3
2023-04-06T22:00:00,1090A,111.6507,40.7517,呼和浩特市,呼市一监,颗粒物(PM10),51,51,38,8,10,144,83,93,84,8,10,6,6,0.2,0.3
2023-04-06T22:00:00,1091A,111.6572,40.8033,呼和浩特市,小召,,48,48,40,6,9,87,77,84,81,12,11,8,10,0.3,0.4
2023-04-06T22:00:00,1094A,111.7516,40.8369,呼和浩特市,如意水处理厂,,34,34,23,5,6,90,79,88,86,8,7,6,6,0.3,0.3
2023-04-06T22:00:00,1095A,111.7276,40.8062,呼和浩特市,二十九中,,42,42,40,5,8,92,83,89,88,10,9,7,6,0.3,0.4
2023-04-06T22:00:00,1096A,111.5512,40.7866,呼和浩特市,工大金川校区,,47,47,38,8,9,87,72,85,78,15,12,6,8,0.3,0.4
2023-04-06T22:00:00,1097A,111.717,40.7612,呼和浩特市,化肥厂生活区,,32,32,28,5,9,82,77,79,76,6,10,6,7,0.2,0.3
2023-04-06T22:00:00,1098A,123.6836,41.9339,沈阳市,森林路,,,,,,,,,,,,,,,,
2023-04-06T22:00:00,1099A,123.505,41.7406,沈阳市,浑南东路,颗粒物(PM10),59,67,69,27,42,106,67,89,66,30,40,13,23,0.6,0.7
2023-04-06T22:00:00,1100A,123.4231,41.6989,沈阳市,新秀街,颗粒物(PM10),59,67,57,17,27,99,67,82,69,22,37,9,19,0.6,0.6
2023-04-06T22:00:00,1102A,123.5903,41.8411,沈阳市,东陵路,颗粒物(PM10),71,91,79,35,49,94,44,82,64,40,32,12,14,0.6,0.7
2023-04-06T22:00:00,1103A,123.4264,41.8467,沈阳市,陵东街,颗粒物(PM10),64,78,61,19,31,90,66,81,74,24,40,10,11,0.4,0.5
2023-04-06T22:00:00,1104A,123.4114,41.7653,沈阳市,文化路,颗粒物(PM10),61,72,59,30,39,101,60,88,72,30,35,9,13,0.7,0.7
2023-04-06T22:00:00,1105A,123.4678,41.7867,沈阳市,小河沿,颗粒物(PM10),62,74,57,22,34,95,62,83,73,30,38,9,14,0.6,0.6
2023-04-06T22:00:00,1106A,123.4017,41.7972,沈阳市,太原街,颗粒物(PM10),66,81,73,34,44,92,52,80,68,36,45,9,11,0.5,0.6
2023-04-06T22:00:00,1108A,123.3783,41.9228,沈阳市,京沈街,颗粒物(PM10),86,122,81,26,42,89,62,76,66,23,41,10,14,0.5,0.6
2023-04-06T22:00:00,1109A,121.612,38.9741,大连市,甘井子,细颗粒物(PM2.5),93,131,39,69,26,121,89,91,84,30,25,5,6,0.8,0.5
2023-04-06T22:00:00,1110A,121.565,38.9511,大连市,周水子,细颗粒物(PM2.5),94,110,49,70,26,108,80,84,78,35,34,4,4,0.9,0.7
2023-04-06T22:00:00,1111A,121.5637,38.8845,大连市,星海三站,细颗粒物(PM2.5),99,144,47,74,27,117,86,91,83,31,28,5,6,0.6,0.4
2023-04-06T22:00:00,1112A,121.6302,38.9117,大连市,青泥洼桥,细颗粒物(PM2.5),93,126,49,69,26,125,85,93,85,38,30,6,6,1.1,0.8
2023-04-06T22:00:00,1113A,121.6251,38.8638,大连市,傅家庄,细颗粒物(PM2.5),108,157,51,81,31,121,76,92,78,26,21,8,8,0.8,0.6
2023-04-06T22:00:00,1114A,121.5213,38.8661,大连市,七贤岭,,,101,52,65,24,126,,107,101,20,15,7,8,0.6,0.5
2023-04-06T22:00:00,1115A,121.2529,38.8061,大连市,旅顺,细颗粒物(PM2.5),79,80,60,58,35,104,62,86,67,29,24,7,9,0.7,0.7
2023-04-06T22:00:00,1116A,121.7485,39.1311,大连市,金州,细颗粒物(PM2.5),113,170,45,85,29,115,69,88,79,29,23,9,9,0.9,0.8
2023-04-06T22:00:00,1117A,121.7811,39.0496,大连市,开发区,细颗粒物(PM2.5),99,84,60,74,27,115,68,92,75,39,27,11,13,0.9,0.7
2023-04-06T22:00:00,1118A,121.9762,39.0631,大连市,双D港,颗粒物(PM10),60,70,73,36,25,123,86,108,94,29,20,8,9,0.6,0.6
2023-04-06T22:00:00,1119A,125.3325,43.9166,长春市,食品厂,颗粒物(PM10),79,108,282,38,283,133,62,115,84,24,62,5,15,0.4,1.3
2023-04-06T22:00:00,1120A,125.2863,43.9027,长春市,客车厂,颗粒物(PM10),83,116,266,31,278,134,67,116,89,18,59,7,17,0.4,1.3
2023-04-06T22:00:00,1121A,125.2841,43.8463,长春市,邮电学院,颗粒物(PM10),95,140,319,26,304,136,59,118,83,26,67,8,20,0.4,1.4
2023-04-06T22:00:00,1122A,125.3716,43.8772,长春市,劳动公园,颗粒物(PM10),70,89,288,23,312,145,64,123,90,27,65,8,19,0.5,1.5
2023-04-06T22:00:00,1123A,125.3297,43.8805,长春市,园林处,颗粒物(PM10),77,103,288,25,313,121,46,108,69,34,70,8,19,0.4,1.4
2023-04-06T22:00:00,1124A,125.4605,43.79,长春市,净月潭,颗粒物(PM10),83,115,360,35,371,146,49,115,81,24,64,6,16,0.6,1.5
2023-04-06T22:00:00,1125A,125.7194,43.515,长春市,甩湾子,,,,,,,,,,,,,,,,
2023-04-06T22:00:00,1126A,125.3863,43.8447,长春市,经开区环卫处,颗粒物(PM10),80,110,334,27,377,124,52,108,77,26,67,8,22,0.5,1.6
2023-04-06T22:00:00,1127A,125.245,43.7783,长春市,高新区管委会,颗粒物(PM10),83,116,267,25,279,142,61,118,83,19,56,8,17,0.4,1.4
2023-04-06T22:00:00,1128A,125.1761,43.8325,长春市,岱山公园,颗粒物(PM10),82,113,168,31,217,126,52,107,76,19,44,5,11,0.3,0.9
2023-04-06T22:00:00,1129A,126.5422,45.755,哈尔滨市,岭北,颗粒物(PM10),126,202,132,83,106,130,66,126,108,20,30,9,14,1.0,1
2023-04-06T22:00:00,1130A,126.561,45.8167,哈尔滨市,松北商大,细颗粒物(PM2.5),97,133,142,72,103,127,49,122,93,40,53,9,11,0.7,0.8
2023-04-06T22:00:00,1131A,126.979,45.5419,哈尔滨市,阿城会宁,细颗粒物(PM2.5),334,292,179,284,155,127,57,119,97,59,43,18,22,1.6,1.1
2023-04-06T22:00:00,1132A,126.599,45.7222,哈尔滨市,南岗学府路,颗粒物(PM10),123,196,158,77,88,121,52,116,95,31,36,11,11,0.7,0.9
2023-04-06T22:00:00,1133A,126.689,45.7733,哈尔滨市,太平宏伟公园,颗粒物(PM10),85,119,143,55,94,125,54,120,101,38,41,12,10,0.3,0.6
2023-04-06T22:00:00,1134A,126.635,45.7667,哈尔滨市,道外承德广场,颗粒物(PM10),92,134,132,55,91,126,36,119,95,58,40,16,13,0.5,0.4
2023-04-06T22:00:00,1135A,126.685,45.7319,哈尔滨市,香坊红旗大街,细颗粒物(PM2.5),93,121,111,69,82,130,46,122,98,53,37,17,19,0.7,0.7
2023-04-06T22:00:00,1136A,126.6411,45.7258,哈尔滨市,动力和平路,细颗粒物(PM2.5),94,100,109,70,84,120,41,114,91,45,40,17,17,0.9,0.9
2023-04-06T22:00:00,1137A,126.593,45.7478,哈尔滨市,道里建国路,细颗粒物(PM2.5),112,135,123,84,102,120,40,113,85,49,46,9,10,0.6,0.6
2023-04-06T22:00:00,1138A,126.615,45.61,哈尔滨市,平房东轻厂,细颗粒物(PM2.5),110,112,122,83,87,128,49,119,80,35,52,14,15,0.4,0.4
2023-04-06T22:00:00,1139A,126.595,45.9855,哈尔滨市,呼兰师专,细颗粒物(PM2.5),108,130,144,81,114,124,66,116,100,28,26,13,13,0.8,0.9
2023-04-06T22:00:00,1140A,126.6206,45.6842,哈尔滨市,省农科院,细颗粒物(PM2.5),102,146,115,76,74,131,31,123,90,54,42,20,19,0.7,0.6
2023-04-06T22:00:00,1141A,121.4,31.238,上海市,普陀,细颗粒物(PM2.5),87,66,50,64,46,83,60,74,57,44,35,5,5,1.0,0.9
2023-04-06T22:00:00,1142A,121.478,31.2036,上海市,十五厂,细颗粒物(PM2.5),75,50,39,55,41,76,63,73,54,38,31,7,7,1.1,1.1
2023-04-06T22:00:00,1143A,121.467,31.3008,上海市,虹口,细颗粒物(PM2.5),92,66,54,68,51,72,68,72,49,35,31,6,6,1.1,1.1
2023-04-06T22:00:00,1144A,121.412,31.1654,上海市,徐汇上师大,细颗粒物(PM2.5),85,55,39,63,46,80,63,79,53,43,36,8,7,1.0,0.8
2023-04-06T22:00:00,1145A,121.536,31.2659,上海市,杨浦四漂,细颗粒物(PM2.5),77,61,53,56,48,84,74,78,63,39,31,8,8,0.9,0.9
2023-04-06T22:00:00,1147A,121.425,31.2261,上海市,静安监测站,细颗粒物(PM2.5),87,69,56,64,44,81,61,73,56,46,36,5,5,0.9,0.9
2023-04-06T22:00:00,1148A,121.703,31.1907,上海市,浦东川沙,细颗粒物(PM2.5),77,50,49,56,52,78,78,63,49,22,28,6,6,0.8,0.9
2023-04-06T22:00:00,1149A,121.533,31.2284,上海市,浦东新区监测站,细颗粒物(PM2.5),78,67,56,57,46,82,67,80,61,41,31,7,7,0.8,0.8
2023-04-06T22:00:00,1150A,121.577,31.2071,上海市,浦东张江,细颗粒物(PM2.5),79,45,40,58,49,83,83,80,62,24,28,5,4,1.1,1
2023-04-06T22:00:00,1151A,118.8086,32.1065,南京市,迈皋桥,,50,50,43,31,27,83,41,68,59,32,24,3,4,0.4,0.4
2023-04-06T22:00:00,1152A,118.7538,32.0551,南京市,草场门,,49,34,33,34,27,64,37,56,49,31,27,3,4,0.7,0.7
2023-04-06T22:00:00,1153A,118.7794,32.0745,南京市,山西路,,49,39,38,34,27,76,37,60,55,24,24,4,4,0.3,0.3
2023-04-06T22:00:00,1154A,118.7752,32.0023,南京市,中华门,颗粒物(PM10),51,51,38,27,25,81,20,66,48,54,34,7,7,0.6,0.5
2023-04-06T22:00:00,1155A,118.8109,32.0309,南京市,瑞金路,,49,34,31,34,30,65,29,60,47,32,25,4,4,0.5,0.5
2023-04-06T22:00:00,1156A,118.7997,32.0754,南京市,玄武湖,细颗粒物(PM2.5),55,36,34,39,35,60,43,51,50,20,20,5,5,0.5,0.4
2023-04-06T22:00:00,1157A,118.6414,32.0931,南京市,浦口,颗粒物(PM10),53,55,50,24,27,80,22,72,56,29,17,4,4,0.4,0.3
2023-04-06T22:00:00,1158A,118.7356,31.9996,南京市,奥体中心,,49,36,35,34,30,75,25,63,48,47,29,5,4,0.4,0.3
2023-04-06T22:00:00,1159A,118.9125,32.1028,南京市,仙林大学城,细颗粒物(PM2.5),52,51,40,36,29,69,19,52,44,44,34,6,6,0.8,0.7
2023-04-06T22:00:00,1160A,120.561,31.2472,苏州市,上方山,细颗粒物(PM2.5),59,42,41,42,30,68,24,61,42,31,18,6,6,0.7,0.6
2023-04-06T22:00:00,1162A,120.591,31.3019,苏州市,彩香,细颗粒物(PM2.5),84,70,53,62,42,80,42,77,46,31,21,4,5,0.7,0.7
2023-04-06T22:00:00,1163A,120.596,31.3264,苏州市,轧钢厂,细颗粒物(PM2.5),79,73,54,58,39,76,40,73,40,35,25,6,7,0.7,0.7
2023-04-06T22:00:00,1164A,120.613,31.2703,苏州市,吴中区,细颗粒物(PM2.5),77,67,52,56,39,81,52,80,52,32,26,7,7,0.7,0.7
2023-04-06T22:00:00,1165A,120.543,31.2994,苏州市,苏州新区,细颗粒物(PM2.5),78,69,52,57,42,82,40,75,57,29,16,4,5,0.6,0.6
2023-04-06T22:00:00,1166A,120.669,31.3097,苏州市,苏州工业园区,细颗粒物(PM2.5),72,65,51,52,43,72,39,69,38,32,25,8,8,1.0,0.8
2023-04-06T22:00:00,1167A,120.641,31.3708,苏州市,相城区,细颗粒物(PM2.5),84,58,49,62,44,69,49,68,39,21,20,5,6,1.0,0.7
2023-04-06T22:00:00,1168A,120.9098,31.9663,南通市,狼山街道,细颗粒物(PM2.5),63,46,51,45,40,101,86,92,88,13,21,5,6,0.6,0.5
2023-04-06T22:00:00,1169A,120.86,32.0005,南通市,虹桥,细颗粒物(PM2.5),72,65,59,52,45,104,95,95,90,20,24,6,6,0.7,0.6
2023-04-06T22:00:00,1170A,120.87,32.02,南通市,城中,细颗粒物(PM2.5),72,73,63,52,43,111,91,98,91,17,16,8,8,0.6,0.5
2023-04-06T22:00:00,1171A,120.94,31.93,南通市,星湖花园,细颗粒物(PM2.5),70,53,53,51,42,97,85,84,84,20,30,5,7,0.7,0.7
2023-04-06T22:00:00,1172A,120.81,32.0417,南通市,紫琅学院,细颗粒物(PM2.5),79,64,60,58,44,102,68,92,77,27,25,7,8,0.6,0.7
2023-04-06T22:00:00,1173A,119.176,34.5885,连云港市,市环境监测站,细颗粒物(PM2.5),77,66,64,56,48,77,17,66,50,42,33,9,14,0.5,0.6
2023-04-06T22:00:00,1177A,117.179,34.2761,徐州市,黄河新村,颗粒物(PM10),63,75,64,44,43,67,37,57,48,41,32,6,9,0.7,0.9
2023-04-06T22:00:00,1178A,117.1918,34.2384,徐州市,淮塔,颗粒物(PM10),59,67,63,34,39,76,64,65,65,17,24,8,9,0.7,0.7
2023-04-06T22:00:00,1180A,117.256,34.2153,徐州市,新城区,细颗粒物(PM2.5),73,81,64,53,45,75,18,61,50,65,35,9,10,0.8,0.9
2023-04-06T22:00:00,1181A,117.244,34.2911,徐州市,桃园路,"颗粒物(PM10),细颗粒物(PM2.5)",64,78,67,46,38,70,10,54,39,66,39,8,8,0.8,0.7
2023-04-06T22:00:00,1182A,117.2933,34.2778,徐州市,农科院,"颗粒物(PM10),细颗粒物(PM2.5)",62,73,58,44,36,69,29,57,52,47,30,6,8,0.8,0.7
2023-04-06T22:00:00,1186A,119.389,32.3761,扬州市,邗江监测站,,,,46,,44,67,,60,56,,24,,9,,0.7
2023-04-06T22:00:00,1188A,120.269,31.4867,无锡市,雪浪,细颗粒物(PM2.5),58,46,41,41,32,74,40,65,54,29,19,7,8,0.9,0.9
2023-04-06T22:00:00,1189A,120.275,31.6219,无锡市,黄巷,细颗粒物(PM2.5),64,55,50,46,35,49,11,42,25,70,49,9,8,1.3,1.1
2023-04-06T22:00:00,1190A,120.294,31.56,无锡市,曹张,,,34,44,53,35,54,11,54,26,59,36,5,5,,1
2023-04-06T22:00:00,1191A,120.242,31.5031,无锡市,漆塘,细颗粒物(PM2.5),58,53,38,41,32,74,42,65,54,27,21,5,6,0.8,0.8
2023-04-06T22:00:00,1192A,120.3489,31.5863,无锡市,东亭,细颗粒物(PM2.5),64,53,48,46,38,61,20,56,29,48,35,8,8,1.0,0.9
2023-04-06T22:00:00,1193A,120.354,31.5475,无锡市,旺庄,细颗粒物(PM2.5),64,48,42,46,36,58,34,56,38,39,30,8,8,0.8,0.8
2023-04-06T22:00:00,1194A,120.245,31.5631,无锡市,荣巷,,49,36,40,34,37,60,10,49,27,24,24,9,10,0.9,0.8
2023-04-06T22:00:00,1195A,120.299,31.6817,无锡市,堰桥,细颗粒物(PM2.5),67,61,50,48,37,67,38,54,51,29,32,5,7,1.2,1.1
2023-04-06T22:00:00,1196A,119.9633,31.762,常州市,市监测站,细颗粒物(PM2.5),82,96,74,60,41,76,32,62,48,41,27,5,4,0.9,0.7
2023-04-06T22:00:00,1200A,119.9468,31.7069,常州市,武进监测站,颗粒物(PM10),76,102,77,39,35,74,32,65,51,32,25,6,6,0.9,0.8
2023-04-06T22:00:00,1201A,119.9255,31.9087,常州市,安家,颗粒物(PM10),63,75,68,41,45,72,12,58,38,42,30,6,8,0.8,0.7
2023-04-06T22:00:00,1203A,119.6707,32.1875,镇江市,新区办事处,细颗粒物(PM2.5),83,50,41,61,45,50,11,46,30,50,37,2,3,0.9,0.7
2023-04-06T22:00:00,1204A,119.4974,32.1968,镇江市,职教中心,细颗粒物(PM2.5),100,45,38,75,52,68,30,63,50,35,27,1,2,0.7,0.6
2023-04-06T22:00:00,1205A,119.4303,32.1328,镇江市,丹徒区监测站,细颗粒物(PM2.5),75,56,56,55,41,62,18,54,38,46,32,4,5,0.6,0.6
2023-04-06T22:00:00,1206A,119.905,32.4878,泰州市,公园路,细颗粒物(PM2.5),79,56,42,58,42,90,35,83,65,26,18,9,14,1.0,0.8
2023-04-06T22:00:00,1207A,119.9189,32.4625,泰州市,莲花,细颗粒物(PM2.5),62,54,45,44,34,95,45,86,68,26,21,6,10,1.0,0.9
2023-04-06T22:00:00,1209A,119.888,32.4639,泰州市,留学生创业园,颗粒物(PM10),61,72,55,43,33,84,39,77,62,28,24,9,12,0.8,0.6
2023-04-06T22:00:00,1210A,119.036,33.5981,淮安市,钵池山,细颗粒物(PM2.5),82,46,46,60,47,87,56,80,69,23,22,7,7,0.8,0.7
2023-04-06T22:00:00,1211A,119.007,33.575,淮安市,北京南路,细颗粒物(PM2.5),77,44,45,56,46,72,27,62,46,44,31,8,9,0.7,0.7
2023-04-06T22:00:00,1212A,118.989,33.6067,淮安市,市监测站,细颗粒物(PM2.5),67,53,49,48,40,81,39,74,58,37,28,6,7,0.7,0.7
2023-04-06T22:00:00,1213A,119.135,33.5039,淮安市,楚州区监测站,细颗粒物(PM2.5),67,46,43,48,39,84,39,80,62,26,22,6,7,0.7,0.8
2023-04-06T22:00:00,1214A,119.0186,33.6297,淮安市,淮阴区监测站,细颗粒物(PM2.5),73,59,57,53,49,80,46,72,60,29,26,7,8,0.7,0.7
2023-04-06T22:00:00,1215A,120.118,33.4022,盐城市,盐城电厂,细颗粒物(PM2.5),55,53,54,39,42,110,79,104,81,20,19,7,9,0.5,0.5
2023-04-06T22:00:00,1216A,120.156,33.3942,盐城市,市监测站,,46,45,51,32,32,95,69,90,74,22,23,8,9,0.4,0.5
2023-04-06T22:00:00,1218A,120.2144,33.38,盐城市,开发区管委会,颗粒物(PM10),54,58,62,35,30,109,71,104,81,19,16,3,6,0.3,0.4
2023-04-06T22:00:00,1220A,118.293,33.9528,宿迁市,宿迁学院,细颗粒物(PM2.5),80,81,60,59,44,76,42,64,52,25,21,5,6,0.7,0.6
2023-04-06T22:00:00,1221A,118.2442,33.9592,宿迁市,宿迁中学,细颗粒物(PM2.5),87,83,67,64,46,80,35,63,51,26,20,5,7,0.6,0.6
2023-04-06T22:00:00,1223A,120.2072,30.2111,杭州市,滨江,,38,38,36,17,25,71,46,68,49,30,28,7,7,0.8,0.8
2023-04-06T22:00:00,1224A,120.0633,30.2747,杭州市,西溪,,43,43,37,28,23,69,20,68,38,37,26,6,6,0.7,0.7
2023-04-06T22:00:00,1226A,120.3461,30.3153,杭州市,下沙,,48,43,40,33,29,67,26,66,35,50,33,6,6,0.7,0.6
2023-04-06T22:00:00,1227A,120.1269,30.2456,杭州市,卧龙桥,,38,38,37,25,28,71,26,67,42,28,25,7,6,0.7,0.7
2023-04-06T22:00:00,1228A,120.1903,30.2692,杭州市,浙江农大,,39,32,38,27,30,73,44,70,44,29,28,4,4,0.8,0.7
2023-04-06T22:00:00,1230A,120.1197,30.3119,杭州市,和睦小学,,40,39,34,28,24,62,36,61,39,33,31,5,5,0.8,0.8
2023-04-06T22:00:00,1231A,120.3019,30.4183,杭州市,临平镇,细颗粒物(PM2.5),64,51,46,46,36,82,44,73,52,29,23,4,4,0.7,0.6
2023-04-06T22:00:00,1232A,120.2697,30.1819,杭州市,城厢镇,细颗粒物(PM2.5),54,45,36,38,30,75,22,71,41,51,34,6,6,0.8,0.8
2023-04-06T22:00:00,1233A,120.0883,30.1808,杭州市,云栖,,29,24,30,20,17,70,22,64,39,27,23,5,5,0.7,0.7
2023-04-06T22:00:00,1234A,121.8358,29.911,宁波市,区环保大楼,,45,32,30,31,25,74,40,67,54,41,32,2,4,0.9,0.8
2023-04-06T22:00:00,1235A,121.56,29.82,宁波市,万里学院,细颗粒物(PM2.5),60,41,37,43,25,68,38,68,47,39,26,6,5,0.9,0.8
2023-04-06T22:00:00,1236A,121.713,29.9572,宁波市,龙赛医院,,39,33,33,27,23,73,38,63,46,46,31,8,7,0.7,0.6
2023-04-06T22:00:00,1239A,121.633,29.7733,宁波市,钱湖水厂,,50,31,29,35,23,68,37,67,44,39,28,3,4,0.8,0.7
2023-04-06T22:00:00,1240A,121.5856,29.8635,宁波市,太古小学,,49,46,33,34,16,65,38,64,45,36,26,5,6,1.0,0.8
2023-04-06T22:00:00,1241A,121.524,29.8674,宁波市,市环境监测中心,,43,43,34,28,21,64,26,61,43,40,26,6,6,0.6,0.5
2023-04-06T22:00:00,1242A,120.634,28.0089,温州市,瓯海,,36,28,38,25,26,59,11,58,21,49,34,6,6,0.8,0.7
2023-04-06T22:00:00,1243A,120.6748,27.9939,温州市,南浦,,20,18,36,13,26,66,16,66,24,40,28,4,3,0.8,0.7
2023-04-06T22:00:00,1244A,120.76,27.9747,温州市,龙湾,,23,11,39,9,25,59,14,59,24,45,33,6,6,0.8,0.8
2023-04-06T22:00:00,1245A,120.6709,28.0167,温州市,市站,,28,22,34,19,32,56,16,54,22,43,37,5,5,0.9,0.8
2023-04-06T22:00:00,1247A,120.6053,29.9928,绍兴市,城东开发委,细颗粒物(PM2.5),65,59,52,47,39,68,38,64,40,26,25,5,5,1.0,0.8
2023-04-06T22:00:00,1250A,120.0751,30.8669,湖州市,城西水厂,细颗粒物(PM2.5),74,65,54,54,41,65,25,53,33,44,41,8,12,0.7,0.7
2023-04-06T22:00:00,1252A,120.7436,30.778,嘉兴市,清河小学,细颗粒物(PM2.5),65,44,40,47,35,76,43,68,51,28,23,3,3,0.8,0.7
2023-04-06T22:00:00,1253A,120.726,30.7478,嘉兴市,嘉兴学院,细颗粒物(PM2.5),62,40,43,44,34,88,57,79,68,20,17,4,5,0.8,0.6
2023-04-06T22:00:00,1255A,121.273,28.6459,台州市,黄岩环保大楼,,16,8,32,6,16,55,50,49,41,23,21,2,2,0.5,0.6
2023-04-06T22:00:00,1256A,121.419,28.6542,台州市,台州环保大楼,,11,9,37,5,21,67,34,63,41,18,17,4,5,0.7,0.7
2023-04-06T22:00:00,1257A,121.377,28.5773,台州市,路桥田洋王,,18,6,41,4,23,64,57,58,43,20,23,5,5,0.5,0.6
2023-04-06T22:00:00,1258A,122.122,30.0203,舟山市,定海檀枫,,48,48,46,25,27,66,40,63,58,33,23,5,5,0.8,0.7
2023-04-06T22:00:00,1259A,122.3094,29.9558,舟山市,普陀东港,,39,39,55,27,35,68,42,61,58,29,21,5,5,0.7,0.7
2023-04-06T22:00:00,1260A,122.19,29.9944,舟山市,临城新区,,45,36,49,31,31,72,41,64,60,36,29,5,5,0.7,0.7
2023-04-06T22:00:00,1262A,119.647,29.077,金华市,十五中,,38,28,46,26,40,56,45,47,46,29,27,5,5,0.5,0.5
2023-04-06T22:00:00,1263A,119.686,29.1029,金华市,监测站,,36,16,36,25,38,54,47,48,46,31,28,4,4,0.6,0.6
2023-04-06T22:00:00,1264A,118.8692,28.9398,衢州市,环保大楼,,19,16,42,3,29,61,59,49,49,16,21,3,6,0.5,0.6
2023-04-06T22:00:00,1265A,118.8709,28.9666,衢州市,实验学校,,19,13,42,9,32,62,60,49,49,14,20,7,9,0.5,0.6
2023-04-06T22:00:00,1266A,118.8621,28.9808,衢州市,衢州学院,,18,18,46,9,30,62,48,52,52,23,18,3,3,0.5,0.5
2023-04-06T22:00:00,1267A,119.914,28.4514,丽水市,监测站大楼,,16,12,12,1,6,50,50,36,35,16,17,7,7,0.4,0.5
2023-04-06T22:00:00,1268A,119.93,28.4586,丽水市,莲都小学,,19,7,13,1,4,60,60,41,41,14,15,6,6,0.5,0.5
2023-04-06T22:00:00,1269A,119.879,28.4231,丽水市,余庄前,,23,10,14,16,10,44,31,36,33,14,16,6,7,0.5,0.6
2023-04-06T22:00:00,1270A,117.1959,31.7848,合肥市,明珠广场,颗粒物(PM10),84,117,51,36,24,74,15,58,36,64,41,4,3,0.5,0.5
2023-04-06T22:00:00,1271A,117.3072,31.8764,合肥市,三里街,颗粒物(PM10),81,112,45,44,29,77,3,64,34,76,34,5,5,1.2,0.6
2023-04-06T22:00:00,1272A,117.2588,31.8707,合肥市,琥珀山庄,颗粒物(PM10),80,110,48,39,29,80,24,66,47,56,27,4,3,1.3,1
2023-04-06T22:00:00,1273A,117.1604,31.9052,合肥市,董铺水库,颗粒物(PM10),81,112,41,29,19,92,46,79,68,27,18,3,3,0.3,0.3
2023-04-06T22:00:00,1274A,117.25,31.8571,合肥市,长江中路,颗粒物(PM10),80,110,46,37,30,81,39,68,54,47,24,9,8,0.5,0.4
2023-04-06T22:00:00,1275A,117.266,31.9436,合肥市,庐阳区,颗粒物(PM10),79,107,45,27,23,78,53,67,60,29,18,6,6,0.4,0.4
2023-04-06T22:00:00,1276A,117.336,31.8586,合肥市,瑶海区,颗粒物(PM10),97,144,51,43,29,81,13,66,39,70,32,7,6,0.7,0.6
2023-04-06T22:00:00,1277A,117.3027,31.7964,合肥市,包河区,颗粒物(PM10),94,138,47,39,25,78,5,62,30,83,46,7,6,0.4,0.5
2023-04-06T22:00:00,1278A,117.2776,31.7385,合肥市,滨湖新区,颗粒物(PM10),81,112,48,44,25,80,0,61,30,85,47,7,5,0.7,0.6
2023-04-06T22:00:00,1279A,117.1318,31.8403,合肥市,高新区,颗粒物(PM10),85,119,47,29,24,86,66,76,67,25,21,6,6,0.3,0.4
2023-04-06T22:00:00,1280A,119.3903,26.0543,福州市,鼓山,,,,,,,,,,,,,,,,
2023-04-06T22:00:00,1282A,119.2681,26.0504,福州市,师大,,20,14,19,14,19,61,44,56,46,24,27,4,4,0.7,0.7
2023-04-06T22:00:00,1283A,119.2984,26.1028,福州市,五四北路,,40,28,22,28,22,60,30,53,32,32,29,2,2,0.6,0.6
2023-04-06T22:00:00,1284A,119.2648,26.0768,福州市,杨桥西路,,28,18,19,19,18,59,39,56,42,26,24,3,3,0.7,0.7
2023-04-06T22:00:00,1285A,119.317,26.0746,福州市,紫阳,,29,18,23,20,21,61,38,53,40,27,29,2,2,0.7,0.7
2023-04-06T22:00:00,1286A,118.1608,24.8169,厦门市,溪东,,,,,,,,,,,,,,,,
2023-04-06T22:00:00,1287A,118.1514,24.4767,厦门市,洪文,,27,27,46,15,24,56,32,44,38,26,23,1,2,0.8,0.6
2023-04-06T22:00:00,1288A,118.0661,24.4444,厦门市,鼓浪屿,,26,24,36,18,27,48,30,40,37,22,34,1,2,0.7,0.5
2023-04-06T22:00:00,1290A,115.8931,28.6843,南昌市,省外办,,50,50,33,22,18,92,32,80,63,33,15,3,4,0.6,0.4
2023-04-06T22:00:00,1291A,115.8886,28.7003,南昌市,省林业公司,,35,29,12,24,18,91,55,75,68,24,15,4,4,0.6,0.4
2023-04-06T22:00:00,1292A,115.8126,28.7442,南昌市,林科所,,18,17,6,12,9,96,56,83,58,12,12,7,7,0.3,0.4
2023-04-06T22:00:00,1294A,115.8518,28.687,南昌市,建工学校,,50,50,30,28,20,92,26,79,62,52,22,9,9,0.6,0.5
2023-04-06T22:00:00,1295A,115.8921,28.6424,南昌市,象湖,,31,31,21,21,18,93,26,80,62,51,17,4,4,0.7,0.5
2023-04-06T22:00:00,1296A,115.7423,28.7996,南昌市,武术学校,,19,19,16,10,11,98,35,88,70,5,7,11,11,0.4,0.4
2023-04-06T22:00:00,1298A,115.9314,28.6842,南昌市,省站,,42,41,31,29,17,95,38,83,64,40,14,5,6,0.7,0.5
2023-04-06T22:00:00,1299A,116.9862,36.6114,济南市,科干所,细颗粒物(PM2.5),55,56,33,39,26,88,20,80,55,47,23,6,6,0.7,0.4
2023-04-06T22:00:00,1300A,116.9376,36.665,济南市,农科所,颗粒物(PM10),52,54,41,32,24,78,4,61,50,65,33,2,2,1.0,0.7
2023-04-06T22:00:00,1301A,117.1265,36.6734,济南市,开发区,,49,49,33,21,24,76,55,66,57,20,23,6,6,0.6,0.7
2023-04-06T22:00:00,1303A,117.0624,36.6868,济南市,省种子仓库,颗粒物(PM10),56,61,42,32,36,83,17,64,53,56,27,6,6,0.8,0.6
2023-04-06T22:00:00,1304A,116.9489,36.6447,济南市,机床二厂,细颗粒物(PM2.5),59,61,39,42,27,79,4,62,48,60,26,4,2,1.0,0.6
2023-04-06T22:00:00,1305A,117.0495,36.663,济南市,市监测站,颗粒物(PM10),52,54,36,29,25,90,8,72,55,71,32,6,5,0.9,0.6
2023-04-06T22:00:00,1306A,116.7675,36.5484,济南市,长清党校,颗粒物(PM10),51,51,39,29,28,92,47,83,76,36,27,8,9,0.6,0.6
2023-04-06T22:00:00,1307A,120.6659,36.2403,青岛市,仰口,细颗粒物(PM2.5),55,56,58,39,36,113,82,107,94,30,22,3,4,0.9,0.7
2023-04-06T22:00:00,1310A,120.4134,36.0658,青岛市,市南区东部子站,细颗粒物(PM2.5),70,73,83,51,47,90,44,71,64,46,42,7,10,0.9,0.9
2023-04-06T22:00:00,1311A,120.3664,36.1032,青岛市,四方区子站,细颗粒物(PM2.5),89,83,76,66,54,95,22,77,66,73,43,6,9,1.1,0.9
2023-04-06T22:00:00,1312A,120.2994,36.054,青岛市,市南区西部子站,细颗粒物(PM2.5),70,73,72,51,42,92,18,67,55,76,46,11,10,0.9,0.8
2023-04-06T22:00:00,1313A,120.4581,36.0858,青岛市,崂山区子站,细颗粒物(PM2.5),73,75,83,53,49,94,55,79,74,36,29,8,10,0.8,0.7
2023-04-06T22:00:00,1314A,120.1983,35.9608,青岛市,黄岛区子站,细颗粒物(PM2.5),83,88,70,61,43,102,42,86,67,44,35,5,7,0.9,0.7
2023-04-06T22:00:00,1315A,120.3999,36.3083,青岛市,城阳区子站,细颗粒物(PM2.5),68,70,66,49,45,104,29,90,75,71,42,8,9,1.0,0.7
2023-04-06T22:00:00,1316A,113.69031,34.76122,郑州市,烟厂,,,,108,,24,102,,98,98,26,17,7,6,0.4,0.3
2023-04-06T22:00:00,1317A,113.65724,34.77134,郑州市,郑纺机,,,,110,,24,97,,92,92,33,18,5,4,0.5,0.4
2023-04-06T22:00:00,1318A,113.67526,34.80246,郑州市,银行学校,颗粒物(PM10),80,110,106,32,27,106,82,100,98,24,15,6,5,0.5,0.5
2023-04-06T22:00:00,1319A,113.56746,34.81334,郑州市,供水公司,颗粒物(PM10),74,98,100,30,24,106,77,100,97,23,14,6,5,0.5,0.4
2023-04-06T22:00:00,1320A,113.7329,34.7178,郑州市,经开区管委,颗粒物(PM10),82,113,104,43,31,101,69,94,90,25,12,4,3,0.4,0.5
2023-04-06T22:00:00,1321A,113.73961,34.77172,郑州市,四十七中,颗粒物(PM10),77,103,95,31,28,107,78,100,97,29,18,6,4,0.5,0.5
2023-04-06T22:00:00,1322A,113.60532,34.74838,郑州市,市监测站,颗粒物(PM10),79,107,109,32,25,99,59,92,84,42,19,7,6,0.4,0.4
2023-04-06T22:00:00,1323A,113.64164,34.7525,郑州市,河医大,颗粒物(PM10),84,118,110,39,24,100,71,94,91,28,15,7,6,0.5,0.5
2023-04-06T22:00:00,1324A,113.51488,34.91089,郑州市,岗李水库,,,,,,,,,,,,,,,,
2023-04-06T22:00:00,1325A,114.3677,30.5584,武汉市,东湖梨园,颗粒物(PM10),54,58,28,37,21,104,29,101,68,49,21,7,6,0.7,0.4
2023-04-06T22:00:00,1326A,114.2529,30.558,武汉市,汉阳月湖,颗粒物(PM10),56,61,31,29,24,90,25,88,53,56,29,6,6,0.5,0.5
2023-04-06T22:00:00,1327A,114.282,30.6189,武汉市,汉口花桥,颗粒物(PM10),74,98,36,49,23,99,8,99,51,76,28,8,6,1.1,0.6
2023-04-06T22:00:00,1328A,114.3025,30.5332,武汉市,武昌紫阳,颗粒物(PM10),57,63,30,36,18,95,21,93,52,68,30,7,7,0.9,0.8
2023-04-06T22:00:00,1329A,114.3646,30.6217,武汉市,青山钢花,细颗粒物(PM2.5),73,88,33,53,28,98,6,93,50,78,28,6,6,1.1,0.7
2023-04-06T22:00:00,1330A,114.1566,30.4825,武汉市,沌口新区,细颗粒物(PM2.5),69,54,29,50,27,83,14,83,45,67,26,6,6,0.7,0.9
2023-04-06T22:00:00,1331A,114.3014,30.5944,武汉市,汉口江滩,细颗粒物(PM2.5),77,77,29,56,27,94,13,94,53,68,24,6,5,0.8,0.6
2023-04-06T22:00:00,1333A,114.135,30.6319,武汉市,吴家山,颗粒物(PM10),65,80,38,39,20,94,8,86,51,82,32,6,5,0.8,0.6
2023-04-06T22:00:00,1334A,113.8454,30.2917,武汉市,沉湖七壕,,35,35,24,20,13,98,66,93,78,16,8,9,9,0.8,0.8
2023-04-06T22:00:00,1335A,113.0833,28.2325,长沙市,经开区环保局,颗粒物(PM10),55,60,28,28,14,112,36,100,83,55,15,2,2,0.7,0.4
2023-04-06T22:00:00,1336A,112.8872,28.2189,长沙市,高开区环保局,颗粒物(PM10),69,87,24,35,19,118,11,108,83,79,14,8,5,0.8,0.5
2023-04-06T22:00:00,1337A,113.0792,28.2053,长沙市,马坡岭,细颗粒物(PM2.5),62,59,24,44,21,114,28,102,84,48,16,6,6,0.8,0.4
2023-04-06T22:00:00,1338A,112.9394,28.19,长沙市,湖南师范大学,,,43,24,35,23,111,,103,102,17,10,4,4,0.9,0.6
2023-04-06T22:00:00,1339A,113.0178,28.1322,长沙市,雨花区环保局,,45,44,22,31,20,103,60,97,87,27,13,4,4,0.9,0.6
2023-04-06T22:00:00,1340A,112.9792,28.2597,长沙市,伍家岭,,46,46,19,24,16,111,16,104,82,54,15,4,4,1.0,0.6
2023-04-06T22:00:00,1341A,113.0014,28.1944,长沙市,火车新站,细颗粒物(PM2.5),53,45,23,37,21,102,40,96,82,52,18,5,5,0.8,0.5
2023-04-06T22:00:00,1342A,112.9844,28.1178,长沙市,天心区环保局,颗粒物(PM10),52,53,28,32,15,110,54,102,90,30,12,2,2,0.6,0.4
2023-04-06T22:00:00,1343A,112.8908,28.1308,长沙市,湖南中医药大学,,45,38,24,31,19,117,4,108,80,54,16,3,2,0.8,0.6
2023-04-06T22:00:00,1344A,112.9581,28.3611,长沙市,沙坪,,20,20,17,14,13,113,40,107,81,10,10,3,3,0.4,0.4
2023-04-06T22:00:00,1345A,113.2347,23.1423,广州市,广雅中学,,19,19,33,8,17,45,38,29,28,33,35,4,4,0.8,0.8
2023-04-06T22:00:00,1346A,113.2612,23.105,广州市,市五中,,16,16,34,8,21,53,49,35,34,22,29,7,7,0.8,0.7
2023-04-06T22:00:00,1348A,113.3478,23.0916,广州市,广东商学院,,19,19,35,8,16,50,34,30,27,28,32,4,5,0.7,0.7
2023-04-06T22:00:00,1349A,113.4332,23.1047,广州市,市八十六中,,17,17,35,7,16,50,44,36,35,13,25,3,5,0.8,0.7
2023-04-06T22:00:00,1350A,113.3505,22.9483,广州市,番禺中学,,18,18,26,7,15,55,41,38,34,24,26,5,5,0.9,0.8
2023-04-06T22:00:00,1351A,113.2146,23.3916,广州市,花都师范,,17,10,25,3,15,53,52,39,39,19,24,7,6,0.7,0.7
2023-04-06T22:00:00,1352A,113.2597,23.1331,广州市,市监测站,,15,14,34,9,20,52,46,33,33,24,30,6,6,1.0,0.9
2023-04-06T22:00:00,1353A,113.5618,23.312,广州市,九龙镇镇龙,,14,14,19,8,11,58,40,43,33,19,19,5,4,0.7,0.6
2023-04-06T22:00:00,1354A,113.2765,23.1544,广州市,麓湖,,15,15,33,8,19,54,42,34,32,23,26,5,4,0.7,0.7
2023-04-06T22:00:00,1355A,113.443,23.3035,广州市,帽峰山森林公园,,17,10,22,4,11,61,53,43,43,12,16,5,4,0.9,0.7
2023-04-06T22:00:00,1356A,114.1063,22.5545,深圳市,通心岭子站,,17,17,23,10,16,38,17,32,24,24,14,3,3,0.7,0.5
2023-04-06T22:00:00,1357A,114.117,22.5625,深圳市,洪湖,,18,15,28,8,18,42,12,34,25,35,20,8,8,0.6,0.5
2023-04-06T22:00:00,1358A,113.987,22.5417,深圳市,华侨城,,16,16,24,6,15,30,16,26,17,29,18,4,4,0.7,0.4
2023-04-06T22:00:00,1359A,113.9181,22.5171,深圳市,南海子站,,22,22,31,12,15,40,1,28,18,40,24,4,4,0.9,0.5
2023-04-06T22:00:00,1360A,114.2458,22.5689,深圳市,盐田,,34,34,29,19,19,27,2,22,20,43,27,6,6,0.6,0.6
2023-04-06T22:00:00,1361A,114.2283,22.7244,深圳市,龙岗,,22,17,29,7,15,39,13,30,23,44,27,2,3,0.7,0.5
2023-04-06T22:00:00,1363A,114.494,22.5422,深圳市,南澳,,29,29,23,17,15,46,20,42,35,9,8,4,4,0.6,0.6
2023-04-06T22:00:00,1364A,114.41,22.6342,深圳市,葵涌,,29,29,25,20,15,40,7,32,22,15,14,5,5,0.5,0.4
2023-04-06T22:00:00,1365A,114.297,22.5978,深圳市,梅沙,,28,28,26,6,13,32,4,26,16,20,15,5,5,0.8,0.7
2023-04-06T22:00:00,1366A,114.0678,22.738,深圳市,观澜,,18,18,36,6,19,34,14,26,22,28,24,8,8,0.7,0.5
2023-04-06T22:00:00,1367A,113.5814,22.2618,珠海市,吉大,,21,21,21,6,15,45,45,36,36,12,8,5,5,0.5,0.3
2023-04-06T22:00:00,1368A,113.4881,22.2335,珠海市,前山,,14,10,18,6,15,41,30,39,32,28,10,3,3,0.5,0.2
2023-04-06T22:00:00,1369A,113.628,22.4251,珠海市,唐家,,19,19,24,10,16,43,18,39,33,26,10,3,3,0.6,0.3
2023-04-06T22:00:00,1370A,113.299,22.2281,珠海市,斗门,,20,20,23,8,16,46,25,29,28,26,13,3,4,0.6,0.4
2023-04-06T22:00:00,1371A,113.1294,23.0067,佛山市,湾梁,,15,14,33,8,16,46,46,39,39,15,24,9,9,0.8,0.7
2023-04-06T22:00:00,1372A,113.1083,23.0478,佛山市,华材职中,,15,9,39,4,20,47,45,37,37,18,32,6,6,0.5,0.6
2023-04-06T22:00:00,1373A,113.144,23.0453,佛山市,南海气象局,,14,6,33,7,20,43,43,31,31,17,26,5,5,0.7,0.7
2023-04-06T22:00:00,1374A,113.2881,22.8094,佛山市,顺德苏岗,,10,10,18,5,14,33,32,25,23,17,20,7,8,0.8,0.6
2023-04-06T22:00:00,1376A,112.8383,22.8678,佛山市,高明孔堂,,27,27,42,8,21,53,46,35,35,27,32,8,9,0.6,0.8
2023-04-06T22:00:00,1377A,112.8836,23.1588,佛山市,三水监测站,,16,9,36,9,23,54,51,41,41,16,20,6,8,0.6,0.8
2023-04-06T22:00:00,1378A,112.867,23.185,佛山市,三水云东海,,22,22,35,4,20,45,45,37,37,17,20,4,6,0.5,0.6
2023-04-06T22:00:00,1379A,113.3769,22.5211,中山市,华柏园,,17,9,21,6,14,41,16,33,28,33,13,4,4,0.7,0.5
2023-04-06T22:00:00,1380A,113.3881,22.5497,中山市,张溪,,16,7,23,3,15,43,16,35,28,31,13,5,4,0.7,0.4
2023-04-06T22:00:00,1381A,113.4075,22.5111,中山市,紫马岭,,16,9,20,11,14,43,17,39,29,25,9,7,7,0.6,0.3
2023-04-06T22:00:00,1382A,113.4411,22.4853,中山市,长江旅游区,,14,4,19,6,12,47,22,42,32,27,8,11,11,0.7,0.4
2023-04-06T22:00:00,1383A,113.1064,22.6058,江门市,北街,,12,7,25,6,13,48,35,40,39,24,14,5,5,0.6,0.5
2023-04-06T22:00:00,1384A,113.0731,22.5835,江门市,西区,,15,15,26,8,17,44,36,38,38,20,17,6,6,0.7,0.6
2023-04-06T22:00:00,1385A,113.0219,22.5311,江门市,圭峰西,,17,12,30,6,16,63,53,43,43,14,16,6,6,0.6,0.5
2023-04-06T22:00:00,1386A,113.0828,22.5947,江门市,东湖,,15,15,28,7,16,52,39,42,42,17,14,5,6,0.6,0.5
2023-04-06T22:00:00,1389A,113.7547,23.0494,东莞市,莞城梨川,,15,7,18,5,13,43,24,33,19,30,21,11,8,0.8,0.7
2023-04-06T22:00:00,1390A,113.7944,23.0128,东莞市,东城石井,,12,10,20,5,14,47,26,39,30,24,19,10,8,0.9,0.7
2023-04-06T22:00:00,1391A,113.7383,22.9658,东莞市,南城西平,,18,13,22,8,14,46,14,40,24,35,26,6,6,1.2,1
2023-04-06T22:00:00,1392A,114.4183,23.0528,惠州市,河南岸金山湖子站,,15,1,30,9,13,47,45,37,34,9,14,4,4,0.6,0.5
2023-04-06T22:00:00,1393A,114.4053,23.0822,惠州市,下埔横江三路子站,,,,29,7,14,51,47,38,35,9,16,4,4,0.5,0.5
2023-04-06T22:00:00,1394A,114.4103,23.1142,惠州市,江北云山西路子站,,,,29,5,21,48,47,40,36,4,13,5,8,0.5,0.6
2023-04-06T22:00:00,1395A,114.4645,22.7833,惠州市,惠阳区承修路船湖子站,,,22,26,11,14,41,31,35,28,13,19,4,5,,0.7
2023-04-06T22:00:00,1396A,114.5317,22.7422,惠州市,大亚湾管委会子站,,40,40,25,16,16,48,21,43,36,21,17,6,6,0.6,0.5
2023-04-06T22:00:00,1397A,112.4267,23.0706,肇庆市,睦岗子站,,18,8,43,4,21,56,56,48,39,8,20,7,10,0.4,0.5
2023-04-06T22:00:00,1398A,112.4645,23.0475,肇庆市,城中子站,,14,10,47,6,27,44,43,43,32,12,25,7,12,0.7,0.8
2023-04-06T22:00:00,1399A,112.5544,23.1522,肇庆市,坑口子站,,18,7,42,4,27,56,56,49,41,11,24,4,8,0.5,0.6
2023-04-06T22:00:00,1400A,112.4753,23.1,肇庆市,七星岩子站,,,,,,,,,,,,,,,,
2023-04-06T22:00:00,1401A,108.3103,22.7881,南宁市,二十一中,,28,17,45,6,26,87,87,72,69,12,12,8,6,0.6,0.9
2023-04-06T22:00:00,1402A,108.3141,22.8528,南宁市,北湖,,24,22,44,6,22,76,76,68,66,14,10,10,9,0.7,0.8
2023-04-06T22:00:00,1403A,108.3206,22.8225,南宁市,市监测站,,24,17,39,6,26,74,74,71,64,26,17,9,8,0.7,0.8
2023-04-06T22:00:00,1404A,108.3829,22.8037,南宁市,大自然花园,,26,17,39,10,26,81,81,66,66,16,12,8,6,0.6,0.7
2023-04-06T22:00:00,1405A,108.4394,22.7904,南宁市,仙葫,,24,19,35,9,25,76,75,76,67,17,14,7,7,0.4,0.5
2023-04-06T22:00:00,1406A,108.2397,22.8467,南宁市,区农职院,,23,23,44,9,25,70,68,68,64,22,14,8,8,0.7,0.8
2023-04-06T22:00:00,1407A,108.3275,22.735,南宁市,英华嘉园,,22,18,39,8,25,70,70,64,61,16,15,7,6,0.7,0.8
2023-04-06T22:00:00,1408A,108.2257,22.7757,南宁市,沙井镇街道办,,22,22,44,7,29,68,68,60,60,25,20,7,6,0.9,0.9
2023-04-06T22:00:00,1409A,110.576,19.9507,海口市,东寨港,,,26,21,20,14,31,14,24,23,,,6,7,0.5,0.4
2023-04-06T22:00:00,1410A,110.3232,20.0574,海口市,海南大学,颗粒物(PM10),53,56,38,32,21,71,33,56,50,18,14,6,6,0.5,0.4
2023-04-06T22:00:00,1411A,110.283,20.0053,海口市,秀英海南医院,细颗粒物(PM2.5),54,47,34,38,22,67,37,54,41,16,21,4,4,0.5,0.4
2023-04-06T22:00:00,1412A,110.338,19.9969,海口市,海南师范大学,颗粒物(PM10),51,51,34,28,22,85,35,73,59,15,13,4,4,0.4,0.5
2023-04-06T22:00:00,1413A,110.33,20.0356,海口市,龙华路环保局宿舍,,36,35,32,25,20,75,35,63,54,17,13,5,4,0.4,0.4
2023-04-06T22:00:00,1414A,106.3787,29.8279,重庆市,缙云山,颗粒物(PM10),53,56,38,26,16,100,74,88,88,14,8,7,6,0.2,0.3
2023-04-06T22:00:00,1416A,106.4213,29.8253,重庆市,天生,细颗粒物(PM2.5),68,73,56,49,27,103,29,86,76,47,15,5,5,0.7,0.6
2023-04-06T22:00:00,1417A,106.6263,29.7228,重庆市,两路,颗粒物(PM10),69,87,44,33,19,110,12,89,74,80,20,4,4,0.9,0.7
2023-04-06T22:00:00,1418A,106.2953,29.5983,重庆市,虎溪,颗粒物(PM10),63,75,47,39,24,101,32,88,78,45,12,7,5,0.5,0.4
2023-04-06T22:00:00,1419A,106.5777,29.5102,重庆市,南坪,,47,47,40,30,22,96,72,83,83,5,14,4,3,0.5,0.5
2023-04-06T22:00:00,1420A,106.6556,29.6277,重庆市,唐家沱,颗粒物(PM10),51,52,36,31,20,90,48,78,74,32,22,4,4,0.7,0.7
2023-04-06T22:00:00,1421A,106.6349,29.4906,重庆市,茶园,颗粒物(PM10),51,52,34,26,18,88,30,71,66,40,18,5,4,0.7,0.7
2023-04-06T22:00:00,1422A,106.3754,29.4572,重庆市,白市驿,,,43,31,31,17,106,,98,98,11,14,7,7,0.7,0.7
2023-04-06T22:00:00,1425A,106.6205,29.7166,重庆市,空港,颗粒物(PM10),74,98,46,41,21,115,12,93,76,80,17,5,5,0.6,0.6
2023-04-06T22:00:00,1426A,106.4782,29.4875,重庆市,新山村,颗粒物(PM10),55,60,44,37,24,74,23,64,54,64,28,10,7,0.6,0.5
2023-04-06T22:00:00,1427A,106.5616,29.6453,重庆市,礼嘉,颗粒物(PM10),65,80,41,36,22,89,41,80,72,51,19,5,5,0.7,0.6
2023-04-06T22:00:00,1428A,106.4522,29.7091,重庆市,蔡家,颗粒物(PM10),77,104,53,42,25,103,19,88,73,54,16,6,5,0.7,0.6
2023-04-06T22:00:00,1429A,106.5093,29.3917,重庆市,鱼新街,,47,47,39,27,21,90,62,74,74,27,18,5,9,0.6,0.5
2023-04-06T22:00:00,1431A,103.9728,30.7236,成都市,金泉两河,颗粒物(PM10),70,89,56,39,22,114,8,102,87,59,15,3,2,0.8,0.4
2023-04-06T22:00:00,1432A,104.176,30.6872,成都市,十里店,颗粒物(PM10),90,130,67,39,20,108,17,96,86,83,18,3,3,0.4,0.4
2023-04-06T22:00:00,1433A,104.079,30.5706,成都市,三瓦窑,颗粒物(PM10),94,137,67,28,19,110,30,93,84,69,18,1,2,0.4,0.3
2023-04-06T22:00:00,1434A,104.1114,30.63,成都市,沙河铺,颗粒物(PM10),84,117,63,52,24,109,12,92,78,71,16,1,2,0.7,0.4
2023-04-06T22:00:00,1437A,104.0786,30.6531,成都市,君平街,颗粒物(PM10),84,118,68,34,23,112,58,100,95,47,14,4,3,0.5,0.4
2023-04-06T22:00:00,1438A,103.613,31.0283,成都市,灵岩寺,,,,,,,,,,,,,,,,
2023-04-06T22:00:00,1439A,106.6899,26.5998,贵阳市,马鞍山,,32,22,13,22,10,77,46,62,61,13,10,5,5,0.6,0.6
2023-04-06T22:00:00,1440A,106.6971,26.5694,贵阳市,市环保站,,28,17,13,19,10,73,60,66,66,14,14,3,4,0.6,0.6
2023-04-06T22:00:00,1441A,106.6243,26.6266,贵阳市,鉴湖路,,31,31,19,17,6,71,55,61,61,12,10,2,3,0.4,0.3
2023-04-06T22:00:00,1442A,106.7487,26.6343,贵阳市,燕子冲,,45,31,20,31,17,66,43,55,55,11,11,2,3,0.4,0.4
2023-04-06T22:00:00,1443A,106.6555,26.4365,贵阳市,碧云窝,,31,31,24,19,8,79,54,69,68,17,12,8,6,0.7,0.7
2023-04-06T22:00:00,1444A,106.694,26.5161,贵阳市,中院村,,36,36,23,19,10,73,65,68,68,15,15,8,8,0.5,0.5
2023-04-06T22:00:00,1445A,106.7109,26.6027,贵阳市,红边门,,32,27,20,22,11,73,46,62,61,16,11,4,5,0.5,0.5
2023-04-06T22:00:00,1446A,106.7164,26.5699,贵阳市,新华路,,28,22,19,19,11,67,55,62,60,11,8,4,4,0.4,0.4
2023-04-06T22:00:00,1447A,106.674,26.5424,贵阳市,太慈桥,,27,27,22,12,7,69,57,62,62,17,14,3,3,0.4,0.4
2023-04-06T22:00:00,1450A,102.8204,24.8886,昆明市,呈贡新区,,45,41,38,31,25,135,111,127,115,10,10,6,7,0.4,0.5
2023-04-06T22:00:00,1451A,102.6251,24.9608,昆明市,西山森林公园,,39,39,32,21,21,140,112,135,125,14,10,6,9,0.6,0.8
2023-04-06T22:00:00,1452A,102.7252,25.0902,昆明市,龙泉镇,颗粒物(PM10),53,55,41,35,24,123,81,118,108,26,20,9,8,0.6,0.5
2023-04-06T22:00:00,1453A,102.7266,25.0375,昆明市,东风东路,颗粒物(PM10),52,53,39,32,24,121,80,114,103,28,12,11,7,0.8,0.6
2023-04-06T22:00:00,1454A,102.6742,25.0669,昆明市,金鼎山,,,,35,26,25,122,96,117,109,18,10,6,4,0.4,0.4
2023-04-06T22:00:00,1455A,102.6644,25.0401,昆明市,碧鸡广场,颗粒物(PM10),54,58,41,37,25,126,77,120,109,37,12,6,5,0.7,0.5
2023-04-06T22:00:00,1456A,91.1319,29.6514,拉萨市,八廓街,,30,27,20,10,10,140,96,136,122,15,11,8,7,0.3,0.2
2023-04-06T22:00:00,1457A,91.1221,29.6747,拉萨市,市环保局,,42,42,20,20,8,140,52,136,121,59,17,7,5,0.8,0.5
2023-04-06T22:00:00,1458A,91.0874,29.6475,拉萨市,区监测站,,,33,17,15,6,140,67,132,112,,14,8,7,0.2,0.2
2023-04-06T22:00:00,1459A,91.1774,29.6541,拉萨市,西藏大学,,35,26,13,8,6,147,110,140,126,12,9,6,6,0.6,0.5
2023-04-06T22:00:00,1460A,90.9798,29.6588,拉萨市,区辐射站,颗粒物(PM10),56,61,29,23,11,131,73,119,108,45,16,8,7,0.7,0.6
2023-04-06T22:00:00,1461A,91.0834,29.6292,拉萨市,拉萨火车站,,30,28,24,6,5,131,96,125,119,26,22,8,8,0.4,0.4
2023-04-06T22:00:00,1462A,108.882,34.2749,西安市,高压开关厂,颗粒物(PM10),140,230,290,66,75,116,7,107,84,102,24,10,6,0.6,0.3
2023-04-06T22:00:00,1463A,108.993,34.2629,西安市,兴庆小区,颗粒物(PM10),126,201,279,64,76,108,24,99,86,70,19,7,5,0.5,0.4
2023-04-06T22:00:00,1464A,109.06,34.2572,西安市,纺织城,颗粒物(PM10),124,198,278,66,75,111,5,100,82,84,21,6,4,0.6,0.4
2023-04-06T22:00:00,1465A,108.9356,34.2173,西安市,小寨,颗粒物(PM10),129,207,249,67,83,110,32,102,74,69,19,8,6,0.6,0.3
2023-04-06T22:00:00,1466A,108.954,34.2713,西安市,市人民体育场,颗粒物(PM10),127,203,300,77,88,112,8,100,76,87,20,8,6,0.8,0.3
2023-04-06T22:00:00,1467A,108.8922,34.2322,西安市,高新西区,颗粒物(PM10),119,188,266,75,86,118,24,110,93,82,17,6,5,1.0,0.4
2023-04-06T22:00:00,1468A,108.935,34.3474,西安市,经开区,颗粒物(PM10),165,280,293,88,91,117,16,104,83,89,24,4,3,0.3,0.2
2023-04-06T22:00:00,1469A,108.906,34.1546,西安市,长安区,颗粒物(PM10),123,196,290,83,78,119,47,112,98,43,18,6,6,0.3,0.2
2023-04-06T22:00:00,1471A,109.2186,34.3731,西安市,临潼区,颗粒物(PM10),112,174,285,81,104,112,62,101,91,29,13,7,7,0.5,0.3
2023-04-06T22:00:00,1472A,108.869,34.378,西安市,草滩,细颗粒物(PM2.5),147,217,267,112,74,98,28,92,76,57,19,8,8,0.4,0.5
2023-04-06T22:00:00,1473A,108.985,34.1978,西安市,曲江文化产业集团,颗粒物(PM10),131,212,285,66,76,120,13,110,88,88,20,7,4,0.5,0.3
2023-04-06T22:00:00,1474A,109.051,34.3213,西安市,广运潭,颗粒物(PM10),135,219,296,67,76,114,7,102,77,85,22,6,5,0.5,0.3
2023-04-06T22:00:00,1476A,103.631,36.1031,兰州市,兰炼宾馆,颗粒物(PM10),106,161,209,74,72,115,104,105,105,18,37,11,7,0.4,0.7
2023-04-06T22:00:00,1477A,104.1373,35.9454,兰州市,榆中兰大校区,,,,,,,,,,,,,,,,
2023-04-06T22:00:00,1478A,103.8412,36.0726,兰州市,生物制品所,颗粒物(PM10),99,148,218,61,64,111,90,101,101,29,41,8,10,0.5,0.9
2023-04-06T22:00:00,1479A,103.831,36.0464,兰州市,铁路设计院,颗粒物(PM10),102,154,214,67,70,112,67,95,94,47,41,4,6,0.4,0.8
2023-04-06T22:00:00,1483A,101.524,36.6867,西宁市,第五水厂,,,,,,,,,,,,,,,,
2023-04-06T22:00:00,1484A,105.9512,38.6016,银川市,贺兰山马莲口,颗粒物(PM10),57,64,90,23,27,116,106,107,107,13,10,11,10,0.3,0.2
2023-04-06T22:00:00,1488A,106.2328,38.4975,银川市,贺兰山东路,颗粒物(PM10),72,94,137,40,41,133,75,117,110,39,21,6,10,0.5,0.5
2023-04-06T22:00:00,1489A,106.1358,38.5036,银川市,学院路,颗粒物(PM10),79,107,126,42,35,130,48,106,99,50,28,7,8,0.6,0.4
2023-04-06T22:00:00,1490A,87.5801,43.8303,乌鲁木齐市,监测站,颗粒物(PM10),167,284,155,,39,107,96,95,95,37,57,4,6,0.6,0.8
2023-04-06T22:00:00,1491A,87.6046,43.768,乌鲁木齐市,收费所,颗粒物(PM10),197,343,201,75,44,105,91,99,98,18,29,3,2,0.4,0.4
2023-04-06T22:00:00,1492A,87.4754,43.9469,乌鲁木齐市,新疆农科院农场,颗粒物(PM10),183,315,207,77,69,87,31,75,63,40,48,7,9,0.6,0.6
2023-04-06T22:00:00,1493A,87.5525,43.8711,乌鲁木齐市,铁路局,颗粒物(PM10),155,260,145,71,45,111,94,98,98,27,52,4,6,0.3,0.5
2023-04-06T22:00:00,1494A,87.6432,43.831,乌鲁木齐市,三十一中学,颗粒物(PM10),150,249,138,57,36,104,103,99,99,5,27,8,10,0.6,0.7
2023-04-06T22:00:00,1496A,87.7216,44.1747,乌鲁木齐市,米东区环保局,颗粒物(PM10),107,163,141,45,43,111,80,101,100,21,28,12,12,0.3,0.3
2023-04-06T22:00:00,1508A,112.9433,27.8614,湘潭市,板塘,,50,38,17,35,18,94,55,89,80,22,10,5,5,0.5,0.7
2023-04-06T22:00:00,1511A,112.9118,27.8403,湘潭市,市监测站,,48,39,20,33,20,112,46,99,84,39,15,6,6,1.2,0.9
2023-04-06T22:00:00,1512A,112.8937,27.8728,湘潭市,江麓,,45,38,20,31,15,117,57,108,93,28,12,6,6,0.9,0.7
2023-04-06T22:00:00,1513A,112.9227,27.8159,湘潭市,岳塘,,48,42,19,33,17,101,37,92,76,29,11,9,8,0.8,0.6
2023-04-06T22:00:00,1514A,112.9074,27.9119,湘潭市,科大,细颗粒物(PM2.5),54,29,19,38,18,118,58,109,92,36,18,4,3,1.0,0.9
2023-04-06T22:00:00,1515A,113.135,27.8244,株洲市,天台山庄,,46,39,22,32,14,112,26,102,88,64,18,5,5,1.1,0.7
2023-04-06T22:00:00,1518A,113.095,27.8867,株洲市,株冶医院,颗粒物(PM10),51,51,23,34,18,114,27,98,80,43,19,4,3,0.8,0.6
2023-04-06T22:00:00,1519A,113.167,27.8667,株洲市,市四中,颗粒物(PM10),59,67,20,41,17,101,27,96,85,43,17,4,4,1.0,0.6
2023-04-06T22:00:00,1520A,113.143,27.8381,株洲市,火车站,颗粒物(PM10),51,51,24,32,16,103,22,94,82,58,20,6,4,1.2,0.6
2023-04-06T22:00:00,1524A,113.13,27.8528,株洲市,市监测站,细颗粒物(PM2.5),73,41,20,53,24,111,55,100,90,42,20,3,6,0.6,0.4
2023-04-06T22:00:00,1552A,106.805,26.3003,贵阳市,桐木岭,,,,,,,,,,,,,,,,
2023-04-06T22:00:00,1559A,113.251,27.8336,株洲市,大京风景区,,28,17,15,19,13,97,17,89,65,5,8,2,3,0.4,0.4
2023-04-06T22:00:00,1562A,113.0048,27.9153,湘潭市,昭山,,46,46,25,28,18,116,2,106,79,62,18,2,1,0.8,0.7
2023-04-06T22:00:00,1564A,112.4876,27.9164,湘潭市,韶山,,38,38,17,13,11,113,14,105,67,9,10,4,5,0.6,0.6
2023-04-06T22:00:00,1585A,109.8756,40.6532,包头市,市环境监测站,,30,30,36,9,14,93,66,89,80,23,12,10,10,0.6,0.7
2023-04-06T22:00:00,1587A,109.9991,40.5842,包头市,包头八中,,31,31,54,13,15,100,26,96,83,62,20,7,10,0.5,0.6
2023-04-06T22:00:00,1588A,109.8538,40.6821,包头市,青山宾馆,,27,25,36,10,9,90,33,86,67,54,16,7,7,0.4,0.3
2023-04-06T22:00:00,1589A,109.8642,40.6288,包头市,惠龙物流,,25,20,51,16,19,92,77,89,86,15,19,6,9,0.4,0.7
2023-04-06T22:00:00,1590A,110.0377,40.5546,包头市,东河鸿龙湾,,31,31,50,4,13,90,37,86,76,46,17,11,11,0.6,0.5
2023-04-06T22:00:00,1591A,110.0023,39.8129,鄂尔多斯市,综合楼,,44,44,57,17,16,97,65,92,83,29,13,9,6,0.7,0.5
2023-04-06T22:00:00,1592A,109.9486,39.8261,鄂尔多斯市,巴音孟克林场办事处,,34,34,55,14,19,101,65,95,85,30,10,8,6,0.7,0.5
2023-04-06T22:00:00,1593A,109.7736,39.5986,鄂尔多斯市,康泽苑,颗粒物(PM10),51,51,59,14,14,95,35,92,79,35,13,9,8,0.7,0.6
2023-04-06T22:00:00,1594A,109.8119,39.5989,鄂尔多斯市,华泰汽车城,,36,36,61,19,23,96,44,91,80,38,10,6,8,0.6,0.4
2023-04-06T22:00:00,1595A,109.9734,39.7884,鄂尔多斯市,奥林花园,,36,36,46,12,19,102,72,96,91,20,10,7,6,0.7,0.7
2023-04-06T22:00:00,1597A,122.2703,40.7094,营口市,大庆路,颗粒物(PM10),53,55,44,19,13,93,82,85,83,19,28,5,10,0.5,0.8
2023-04-06T22:00:00,1598A,122.2150,40.6511,营口市,镜湖西路,颗粒物(PM10),53,56,37,16,13,97,82,87,84,19,25,5,10,0.6,0.7
2023-04-06T22:00:00,1599A,122.1658,40.6789,营口市,西炮台,,45,45,37,18,14,99,86,88,88,17,26,7,10,0.7,0.8
2023-04-06T22:00:00,1600A,124.3303,40.0625,丹东市,江湾东路,,42,42,123,28,113,159,69,130,99,26,24,9,10,0.9,0.9
2023-04-06T22:00:00,1601A,124.4256,40.1503,丹东市,临江后街,,40,40,109,22,78,146,58,121,93,35,22,11,11,0.9,0.9
2023-04-06T22:00:00,1602A,124.3933,40.1461,丹东市,元宝山,,26,20,107,10,99,135,82,110,96,9,18,8,9,0.6,0.9
2023-04-06T22:00:00,1603A,124.3633,40.1092,丹东市,民主桥,颗粒物(PM10),58,65,122,38,102,150,36,118,80,47,33,9,12,0.9,0.9
2023-04-06T22:00:00,1604A,122.0303,41.1489,盘锦市,开发区,颗粒物(PM10),59,67,53,17,13,94,67,86,82,22,28,13,13,0.6,0.6
2023-04-06T22:00:00,1605A,122.0485,41.0883,盘锦市,兴隆台,颗粒物(PM10),54,57,54,18,16,88,60,81,75,30,29,10,15,0.5,0.5
2023-04-06T22:00:00,1606A,121.8297,41.1028,盘锦市,新生街道,颗粒物(PM10),57,64,55,11,14,91,56,83,77,38,56,8,24,0.6,0.7
2023-04-06T22:00:00,1607A,120.9092,40.7136,葫芦岛市,龙港区,颗粒物(PM10),83,116,62,14,20,103,62,92,89,17,22,19,12,0.4,0.5
2023-04-06T22:00:00,1608A,120.8392,40.7514,葫芦岛市,化工街,颗粒物(PM10),115,180,87,12,21,93,61,87,73,13,33,10,10,0.3,0.5
2023-04-06T22:00:00,1609A,120.8341,40.7073,葫芦岛市,新区,颗粒物(PM10),74,98,66,16,30,99,60,88,83,26,35,14,16,0.4,0.4
2023-04-06T22:00:00,1610A,120.8695,40.7677,葫芦岛市,东城区,颗粒物(PM10),69,88,69,4,22,94,72,87,76,11,39,8,13,0.4,0.6
2023-04-06T22:00:00,1611A,118.5819,24.9117,泉州市,涂山街,,33,14,29,23,34,50,32,47,38,28,26,6,7,1.0,1
2023-04-06T22:00:00,1612A,118.5972,24.8978,泉州市,津头埔,,38,15,26,26,35,51,31,44,39,32,30,8,8,1.0,0.9
2023-04-06T22:00:00,1613A,118.6663,24.9424,泉州市,万安,,43,19,26,30,34,72,46,60,49,20,24,9,9,1.0,0.9
2023-04-06T22:00:00,1614A,118.6117,24.9604,泉州市,清源山,,,,,,,,,,,,,,,,
2023-04-06T22:00:00,1616A,117.6795,36.229,济南市,技术学院,,46,46,68,20,51,79,72,68,68,8,26,5,6,0.7,1.1
2023-04-06T22:00:00,1618A,118.3429,35.0532,临沂市,沂河小区,细颗粒物(PM2.5),92,80,68,68,55,71,17,62,31,55,32,8,9,0.6,0.6
2023-04-06T22:00:00,1619A,118.295,35.0583,临沂市,鲁南制药厂,颗粒物(PM10),63,75,69,39,45,75,11,65,30,73,44,12,13,0.7,0.7
2023-04-06T22:00:00,1620A,118.2794,34.9976,临沂市,新光毛纺厂,细颗粒物(PM2.5),54,51,61,38,48,73,29,62,32,49,37,5,7,0.6,0.7
2023-04-06T22:00:00,1621A,118.3956,35.0888,临沂市,河东保险公司,细颗粒物(PM2.5),80,68,61,59,53,79,19,68,42,59,37,7,9,0.8,0.8
2023-04-06T22:00:00,1622A,116.3032,37.4674,德州市,儿童乐园,颗粒物(PM10),58,66,42,36,27,99,80,91,87,16,15,3,3,0.6,0.6
2023-04-06T22:00:00,1624A,116.2991,37.4451,德州市,监理站,颗粒物(PM10),59,68,42,36,25,103,59,92,85,38,24,4,6,0.5,0.4
2023-04-06T22:00:00,1625A,115.9848,36.4372,聊城市,区政府,颗粒物(PM10),56,62,49,28,30,97,37,87,77,40,21,5,6,0.8,0.7
2023-04-06T22:00:00,1628A,118.0062,37.3803,滨州市,市环保局,颗粒物(PM10),75,99,71,38,47,68,44,60,53,34,25,11,6,0.7,0.7
2023-04-06T22:00:00,1629A,118.0018,37.3617,滨州市,第二水厂,颗粒物(PM10),63,75,58,22,42,74,47,62,58,31,27,8,4,0.6,0.6
2023-04-06T22:00:00,1630A,117.9776,37.393,滨州市,北中新校,颗粒物(PM10),80,110,72,46,47,68,28,62,50,47,28,22,14,1.0,0.9
2023-04-06T22:00:00,1631A,118.0414,36.8103,淄博市,人民公园,颗粒物(PM10),59,68,62,41,59,58,42,47,42,37,37,10,10,0.5,0.7
2023-04-06T22:00:00,1633A,117.8525,36.4847,淄博市,双山,,41,41,46,22,40,91,58,68,68,33,25,18,8,0.3,0.5
2023-04-06T22:00:00,1634A,117.9592,36.6331,淄博市,气象站,颗粒物(PM10),56,61,54,27,40,74,68,63,56,26,33,10,12,0.3,0.8
2023-04-06T22:00:00,1635A,118.3092,36.8194,淄博市,莆田园,颗粒物(PM10),57,63,69,36,52,78,63,63,42,28,35,15,14,0.5,0.9
2023-04-06T22:00:00,1637A,117.558,34.8438,枣庄市,市中区政府,颗粒物(PM10),51,51,59,19,42,77,62,64,64,26,30,28,12,0.9,0.6
2023-04-06T22:00:00,1638A,117.2852,34.7837,枣庄市,薛城环保局,,46,46,60,24,40,72,60,61,61,24,35,12,14,0.3,0.4
2023-04-06T22:00:00,1639A,117.5852,34.7745,枣庄市,峄城区政府,颗粒物(PM10),51,51,65,19,37,74,57,58,58,32,33,20,14,0.4,0.5
2023-04-06T22:00:00,1640A,117.7276,34.5578,枣庄市,台儿庄区环保局,细颗粒物(PM2.5),77,97,66,56,42,70,10,56,42,65,35,10,12,1.0,0.9
2023-04-06T22:00:00,1641A,117.4518,35.0992,枣庄市,山亭区环保局,,24,22,46,15,33,83,76,69,69,19,24,5,8,0.6,0.8
2023-04-06T22:00:00,1642A,121.2514,37.5639,烟台市,开发区,,,53,63,48,48,121,,105,,23,26,8,9,0.7,0.5
2023-04-06T22:00:00,1643A,121.3719,37.5433,烟台市,轴承厂,细颗粒物(PM2.5),75,58,77,55,58,119,88,96,85,21,27,6,8,0.8,0.7
2023-04-06T22:00:00,1644A,121.3181,37.5436,烟台市,西郊化工站,细颗粒物(PM2.5),78,68,83,57,56,116,90,95,82,28,32,7,8,0.7,0.6
2023-04-06T22:00:00,1645A,121.4478,37.4822,烟台市,莱山环保局,细颗粒物(PM2.5),63,68,78,45,47,122,66,110,80,35,22,9,10,0.6,0.4
2023-04-06T22:00:00,1646A,121.2611,37.4967,烟台市,福山环保局,颗粒物(PM10),58,66,71,39,43,112,80,94,88,29,29,8,9,0.7,0.7
2023-04-06T22:00:00,1650A,119.1437,36.7023,潍坊市,环保局,细颗粒物(PM2.5),67,53,66,48,49,84,33,75,48,40,43,8,9,1.0,1
2023-04-06T22:00:00,1653A,116.6251,35.4302,济宁市,火炬城,,44,44,38,24,32,99,68,82,82,20,22,8,10,0.7,0.8
2023-04-06T22:00:00,1655A,116.5491,35.4042,济宁市,电化厂,,,,43,,35,98,64,79,78,,19,7,6,0.6,0.7
2023-04-06T22:00:00,1656A,117.1437,36.1937,泰安市,监测站,颗粒物(PM10),52,53,54,24,50,82,45,69,69,24,22,3,5,0.5,0.5
2023-04-06T22:00:00,1657A,117.0885,36.2017,泰安市,人口学校,,46,46,50,24,40,90,46,81,75,23,20,6,5,0.5,0.5
2023-04-06T22:00:00,1658A,117.1089,36.1758,泰安市,电力学校,,48,44,45,33,46,88,28,75,70,51,30,7,8,0.3,0.4
2023-04-06T22:00:00,1659A,119.471,35.4209,日照市,监测站,,50,34,48,35,42,91,55,72,57,26,34,3,4,0.5,0.6
2023-04-06T22:00:00,1660A,119.523,35.4216,日照市,市政府广场,,44,44,62,29,39,88,56,64,49,23,31,3,5,0.5,0.5
2023-04-06T22:00:00,1661A,119.5587,35.4044,日照市,港务局,,45,44,63,31,43,87,51,57,37,42,48,6,8,0.7,0.8
2023-04-06T22:00:00,1662A,122.1214,37.4236,威海市,华夏技校,细颗粒物(PM2.5),77,53,79,56,51,123,79,123,92,30,24,4,4,0.5,0.4
2023-04-06T22:00:00,1663A,122.0508,37.5236,威海市,山大分校,细颗粒物(PM2.5),62,56,79,44,49,120,96,118,92,17,20,3,4,0.3,0.3
2023-04-06T22:00:00,1664A,122.1067,37.5072,威海市,市监测站,细颗粒物(PM2.5),59,54,84,42,50,118,88,117,87,17,21,5,7,0.6,0.6
2023-04-06T22:00:00,1666A,118.6614,37.4309,东营市,市环保局,颗粒物(PM10),51,51,50,31,45,77,44,61,57,33,27,8,10,0.6,0.5
2023-04-06T22:00:00,1669A,113.5824,24.7733,韶关市,市八中,,23,6,13,5,4,75,72,64,64,6,8,8,11,0.5,0.6
2023-04-06T22:00:00,1671A,113.5917,24.7972,韶关市,园林处,,24,9,14,8,9,77,76,69,69,4,6,10,12,0.4,0.5
2023-04-06T22:00:00,1672A,113.6735,24.7791,韶关市,韶关学院,,20,13,14,8,10,69,64,53,53,11,13,12,12,0.4,0.6
2023-04-06T22:00:00,1673A,113.5971,24.6863,韶关市,曲江监测站,,25,4,16,3,7,80,78,63,63,9,13,8,13,0.5,0.7
2023-04-06T22:00:00,1674A,116.6794,23.3667,汕头市,金平子站,,48,48,27,26,21,44,9,38,28,40,22,5,4,1.0,0.7
2023-04-06T22:00:00,1675A,116.7244,23.3633,汕头市,龙湖子站,,50,50,28,24,25,49,23,43,33,40,28,3,2,0.8,0.6
2023-04-06T22:00:00,1676A,116.7258,23.2775,汕头市,濠江子站,,43,42,23,30,21,50,23,44,29,32,24,7,6,0.8,0.6
2023-04-06T22:00:00,1677A,116.7519,23.4714,汕头市,澄海子站,颗粒物(PM10),59,68,31,31,23,51,17,46,26,34,28,5,5,0.8,0.6
2023-04-06T22:00:00,1678A,116.6092,23.2539,汕头市,潮阳子站,,41,41,25,23,14,54,26,44,32,22,17,6,5,0.5,0.5
2023-04-06T22:00:00,1680A,110.3539,21.2706,湛江市,湛江影剧院,,36,36,36,16,16,42,34,38,36,9,9,11,8,0.7,0.5
2023-04-06T22:00:00,1681A,110.3928,21.2228,湛江市,市环境监测站,,37,37,34,16,18,39,33,36,35,12,14,13,7,0.7,0.5
2023-04-06T22:00:00,1682A,110.4019,21.1997,湛江市,环保局宿舍,,34,34,31,20,16,38,33,33,32,12,13,9,5,0.6,0.5
2023-04-06T22:00:00,1683A,110.4111,21.2028,湛江市,霞山游泳场,,35,34,33,24,18,35,29,31,30,15,14,10,6,0.6,0.4
2023-04-06T22:00:00,1684A,110.3316,21.2679,湛江市,麻章区环保局,,35,35,35,13,21,41,31,36,34,14,13,23,6,0.6,0.6
2023-04-06T22:00:00,1685A,110.4558,21.2567,湛江市,坡头区环保局,,42,33,31,29,18,41,32,37,34,11,9,14,7,0.6,0.4
2023-04-06T22:00:00,1686A,111.0286,21.4688,茂名市,电白南海,,27,27,29,17,14,38,26,37,30,10,7,12,5,0.7,0.4
2023-04-06T22:00:00,1687A,110.9294,21.6533,茂名市,茂石化七小,,28,24,27,19,16,39,38,34,34,10,9,9,6,0.5,0.4
2023-04-06T22:00:00,1688A,110.9107,21.6687,茂名市,健康路,,31,31,22,13,7,42,42,34,34,8,8,8,5,0.8,0.8
2023-04-06T22:00:00,1689A,110.8592,21.6828,茂名市,高岭,,31,31,28,17,19,45,45,37,35,7,9,17,11,0.9,0.7
2023-04-06T22:00:00,1690A,116.1231,24.3284,梅州市,梅江月梅,,20,2,24,3,14,64,63,48,48,12,15,4,5,0.5,0.5
2023-04-06T22:00:00,1691A,116.0797,24.2719,梅州市,梅县新城,,,,,,,,,,,,,,,,
2023-04-06T22:00:00,1692A,116.1248,24.2654,梅州市,环境监控中心,,,,25,2,15,64,64,44,44,10,22,7,7,0.6,0.6
2023-04-06T22:00:00,1693A,115.3653,22.775,汕尾市,市环保局,,23,18,20,16,9,47,35,44,42,10,8,8,8,0.6,0.5
2023-04-06T22:00:00,1694A,115.3706,22.7898,汕尾市,市政府,,38,21,19,26,21,85,33,64,44,15,9,8,8,0.6,0.6
2023-04-06T22:00:00,1695A,115.3622,22.7925,汕尾市,新城中学,,27,27,21,16,11,50,32,44,41,12,8,6,5,0.6,0.7
2023-04-06T22:00:00,1696A,114.6778,23.7569,河源市,源西,,18,6,21,7,22,56,55,48,48,16,25,5,5,0.8,0.8
2023-04-06T22:00:00,1697A,114.6944,23.7586,河源市,东埔,,20,0,25,5,16,61,61,54,54,9,21,4,4,0.7,0.8
2023-04-06T22:00:00,1698A,114.6892,23.7233,河源市,老城,,18,7,29,3,19,70,57,56,56,12,22,4,4,0.8,1
2023-04-06T22:00:00,1699A,111.9797,21.8593,阳江市,鸳鸯湖,,23,18,21,16,15,41,34,37,35,10,4,7,7,0.9,0.6
2023-04-06T22:00:00,1701A,111.9491,21.8658,阳江市,马南垌,,46,46,26,13,18,44,44,37,37,9,8,5,5,0.6,0.5
2023-04-06T22:00:00,1702A,113.0426,23.691,清远市,环保大楼,,18,5,17,9,14,64,56,54,54,5,14,4,4,0.7,1
2023-04-06T22:00:00,1703A,113.0208,23.7106,清远市,凤城街办,,16,6,21,4,14,58,51,54,54,2,16,5,6,0.5,0.7
2023-04-06T22:00:00,1705A,116.6367,23.6719,潮州市,西园路,,30,30,32,20,30,35,20,27,25,15,21,2,2,0.6,0.8
2023-04-06T22:00:00,1706A,116.6447,23.6706,潮州市,档案局,,50,50,36,26,31,41,27,31,29,14,20,6,7,0.7,0.7
2023-04-06T22:00:00,1708A,116.3701,23.5345,揭阳市,新兴,,,,62,6,33,34,27,34,13,10,27,7,8,0.8,0.8
2023-04-06T22:00:00,1709A,116.3264,23.5443,揭阳市,西马,,,,56,1,30,33,33,32,14,4,20,5,7,0.7,0.9
2023-04-06T22:00:00,1710A,116.3611,23.5626,揭阳市,东兴,,,,67,5,31,37,25,37,16,13,26,4,8,0.8,0.8
2023-04-06T22:00:00,1711A,116.4151,23.5294,揭阳市,渔湖,颗粒物(PM10),68,86,65,29,24,37,18,36,13,16,19,10,7,0.8,0.8
2023-04-06T22:00:00,1712A,112.0392,22.9169,云浮市,新市府,,27,27,42,15,25,28,21,22,22,26,18,20,8,0.7,0.7
2023-04-06T22:00:00,1714A,112.0539,22.9539,云浮市,牧羊,,26,26,48,7,22,28,21,26,21,23,22,15,12,0.6,0.6
2023-04-06T22:00:00,1715A,102.575,24.3711,玉溪市,东风水库,细颗粒物(PM2.5),60,65,38,43,25,119,103,115,110,13,12,6,5,0.6,0.7
2023-04-06T22:00:00,1718A,115.4208,35.2464,菏泽市,气象局,颗粒物(PM10),62,73,57,28,30,98,44,90,81,35,19,5,7,0.6,0.5
2023-04-06T22:00:00,1719A,115.4747,35.2375,菏泽市,市政协,颗粒物(PM10),67,83,52,31,29,103,26,95,80,59,21,4,6,0.6,0.5
2023-04-06T22:00:00,1721A,113.3819,40.1097,大同市,果树场,,,,,,,,,,,,,,,,
2023-04-06T22:00:00,1723A,113.2994,40.0758,大同市,云冈宾馆,,34,34,22,6,10,105,85,98,95,12,11,8,8,0.3,0.2
2023-04-06T22:00:00,1724A,113.3444,40.0917,大同市,大同大学,,46,46,34,9,12,100,66,92,86,22,11,9,8,0.6,0.4
2023-04-06T22:00:00,1725A,113.2661,40.1269,大同市,安家小村,,41,41,29,2,10,100,80,95,91,10,9,6,7,0.2,0.3
2023-04-06T22:00:00,1726A,113.2711,40.0844,大同市,教育学院,,44,44,37,9,12,95,79,89,86,15,15,8,8,0.4,0.4
2023-04-06T22:00:00,1727A,113.1147,36.1547,长治市,清华站,颗粒物(PM10),59,68,57,22,22,105,86,100,98,15,12,7,7,0.3,0.3
2023-04-06T22:00:00,1728A,113.1031,36.1989,长治市,监测站,颗粒物(PM10),61,72,55,27,24,99,71,93,88,22,13,6,5,0.7,0.7
2023-04-06T22:00:00,1730A,113.0886,36.2125,长治市,审计局,颗粒物(PM10),56,62,50,29,26,99,72,94,90,21,11,8,7,0.3,0.3
2023-04-06T22:00:00,1731A,113.0844,36.1856,长治市,长治八中,颗粒物(PM10),65,80,58,30,24,97,69,93,90,17,7,6,5,0.5,0.4
2023-04-06T22:00:00,1733A,111.5531,36.0783,临汾市,临钢医院,颗粒物(PM10),61,71,70,30,32,95,56,92,86,30,10,2,3,0.4,0.3
2023-04-06T22:00:00,1734A,111.5028,36.0714,临汾市,技工学校,颗粒物(PM10),66,81,75,35,28,92,73,87,85,17,7,5,2,0.4,0.5
2023-04-06T22:00:00,1736A,111.5018,36.0855,临汾市,市委,颗粒物(PM10),71,92,82,20,27,101,77,97,94,19,6,4,4,0.5,0.4
2023-04-06T22:00:00,1738A,113.5758,37.8572,阳泉市,市中心,颗粒物(PM10),52,53,49,27,20,97,62,92,86,33,18,8,8,0.5,0.5
2023-04-06T22:00:00,1739A,113.4894,37.8731,阳泉市,赛鱼,颗粒物(PM10),75,100,57,15,14,95,14,90,70,71,28,8,8,0.4,0.5
2023-04-06T22:00:00,1740A,113.5819,37.8486,阳泉市,南庄,,48,46,42,33,32,100,78,95,92,27,19,8,8,0.4,0.4
2023-04-06T22:00:00,1742A,113.5614,37.8703,阳泉市,平坦,,46,46,49,14,17,95,63,92,88,32,22,8,7,0.5,0.5
2023-04-06T22:00:00,1743A,113.5158,37.8392,阳泉市,大阳泉,,49,33,30,34,24,99,68,95,92,32,17,5,5,0.3,0.4
2023-04-06T22:00:00,1744A,118.9233,42.2816,赤峰市,松山一中,,21,8,45,7,12,86,65,82,76,22,24,9,10,0.4,0.5
2023-04-06T22:00:00,1745A,118.9576,42.2728,赤峰市,哈达街,,24,18,48,9,13,86,75,81,76,14,20,13,12,0.5,0.6
2023-04-06T22:00:00,1746A,118.8788,42.2554,赤峰市,天义路,,25,25,42,9,12,88,62,84,75,23,16,13,11,0.4,0.4
2023-04-06T22:00:00,1748A,123.044,41.1196,鞍山市,深沟寺,颗粒物(PM10),55,59,48,25,28,98,59,89,78,37,29,23,16,2.2,1.4
2023-04-06T22:00:00,1749A,123.011,41.0931,鞍山市,太阳城,颗粒物(PM10),62,73,58,23,24,107,56,89,78,34,28,23,18,2.3,1.4
2023-04-06T22:00:00,1750A,123.0485,41.1442,鞍山市,太平,颗粒物(PM10),61,72,52,31,32,89,51,76,69,44,41,26,21,2.4,1.8
2023-04-06T22:00:00,1751A,122.9642,41.0971,鞍山市,铁西三道街,颗粒物(PM10),68,86,71,39,39,99,53,86,74,43,46,22,23,1.8,1.8
2023-04-06T22:00:00,1752A,122.9341,41.0833,鞍山市,铁西工业园区,颗粒物(PM10),69,88,63,41,33,104,53,93,77,38,32,24,16,1.9,1.3
2023-04-06T22:00:00,1753A,123.022,41.0821,鞍山市,明达新区,颗粒物(PM10),60,69,58,26,30,110,55,94,84,46,32,24,15,2.6,1.2
2023-04-06T22:00:00,1754A,123.1289,41.0228,鞍山市,千山,,,,,,,,,,,,,,,,
2023-04-06T22:00:00,1755A,123.7977,41.8491,抚顺市,望花区,细颗粒物(PM2.5),82,79,129,60,76,129,43,94,84,50,35,30,19,1.1,0.8
2023-04-06T22:00:00,1756A,123.9161,41.8822,抚顺市,顺城区,颗粒物(PM10),106,162,197,57,111,99,4,98,53,64,49,9,13,1.3,1.2
2023-04-06T22:00:00,1757A,124.0436,41.8611,抚顺市,东洲区,颗粒物(PM10),68,85,223,40,162,117,32,94,78,42,32,5,6,0.8,1.2
2023-04-06T22:00:00,1758A,123.9247,41.8642,抚顺市,新抚区,颗粒物(PM10),66,81,185,38,143,100,59,84,72,32,41,17,13,1.0,1.1
2023-04-06T22:00:00,1759A,124.0972,41.8961,抚顺市,大伙房水库,颗粒物(PM10),63,75,208,38,138,121,39,103,91,44,30,8,10,0.6,1
2023-04-06T22:00:00,1760A,123.7086,41.8391,抚顺市,沈抚新城,颗粒物(PM10),73,95,110,40,60,117,39,96,75,58,37,19,15,0.5,0.6
2023-04-06T22:00:00,1761A,123.8275,41.3064,本溪市,大峪,,50,50,148,13,98,103,37,86,74,39,34,12,10,1.1,1.4
2023-04-06T22:00:00,1762A,123.7567,41.3325,本溪市,溪湖,颗粒物(PM10),69,87,132,25,91,113,23,94,72,54,36,10,13,0.8,1.1
2023-04-06T22:00:00,1763A,123.7169,41.3094,本溪市,彩屯,颗粒物(PM10),59,67,141,23,99,115,47,101,68,34,35,12,14,1.0,1.1
2023-04-06T22:00:00,1764A,123.7669,41.2864,本溪市,东明,颗粒物(PM10),87,124,161,42,129,102,20,84,65,68,48,46,27,2.2,1.8
2023-04-06T22:00:00,1765A,123.7992,41.2664,本溪市,新立屯,颗粒物(PM10),53,55,171,16,129,108,16,98,75,41,33,7,10,0.5,2.1
2023-04-06T22:00:00,1766A,123.8142,41.3472,本溪市,威宁,颗粒物(PM10),84,117,210,27,136,103,9,82,61,66,51,6,9,0.7,1.3
2023-04-06T22:00:00,1767A,121.1115,41.0879,锦州市,南山,颗粒物(PM10),76,101,59,12,24,108,82,95,87,8,19,7,14,0.4,0.6
2023-04-06T22:00:00,1768A,121.0533,40.8434,锦州市,开发区,颗粒物(PM10),94,137,112,8,30,90,70,78,70,13,48,9,38,0.7,1
2023-04-06T22:00:00,1769A,121.1836,41.1119,锦州市,百股街道,颗粒物(PM10),67,84,60,12,22,107,80,93,82,10,31,6,13,0.4,0.5
2023-04-06T22:00:00,1770A,121.1178,41.1222,锦州市,天安街道,颗粒物(PM10),79,108,60,8,18,108,84,95,86,6,19,6,15,0.3,0.7
2023-04-06T22:00:00,1771A,121.1303,41.1386,锦州市,北湖公园,颗粒物(PM10),72,94,60,6,19,109,81,95,86,6,19,6,14,0.3,0.4
2023-04-06T22:00:00,1772A,126.54,43.8622,吉林市,哈达湾,细颗粒物(PM2.5),92,88,370,68,310,193,68,165,123,57,65,17,30,1.1,1.8
2023-04-06T22:00:00,1773A,126.5844,43.8358,吉林市,东局子,颗粒物(PM10),55,59,381,37,325,183,81,155,116,24,69,8,32,0.7,1.8
2023-04-06T22:00:00,1774A,126.5052,43.8245,吉林市,电力学院,细颗粒物(PM2.5),78,75,381,57,318,193,68,160,113,39,69,14,31,0.8,1.7
2023-04-06T22:00:00,1775A,126.6133,43.8972,吉林市,江北,细颗粒物(PM2.5),82,78,375,60,327,191,64,159,118,48,71,25,25,0.8,1.6
2023-04-06T22:00:00,1776A,126.555,43.8306,吉林市,江南公园,细颗粒物(PM2.5),55,53,377,39,312,183,84,154,118,23,70,8,29,0.6,1.7
2023-04-06T22:00:00,1778A,126.7061,43.7133,吉林市,丰满,,,,,,,,,,,,,,,,
2023-04-06T22:00:00,1779A,123.9305,47.3636,齐齐哈尔市,安居小区,颗粒物(PM10),64,78,86,19,50,132,76,125,102,7,23,1,4,0.2,0.4
2023-04-06T22:00:00,1780A,123.9488,47.3386,齐齐哈尔市,中心广场,,,64,73,5,39,122,77,109,94,,20,5,8,0.2,0.5
2023-04-06T22:00:00,1781A,123.9483,47.3227,齐齐哈尔市,农牧车辆厂,颗粒物(PM10),106,161,101,22,45,116,74,107,92,6,25,4,7,0.2,0.4
2023-04-06T22:00:00,1783A,123.945,47.2988,齐齐哈尔市,市环境监测站,颗粒物(PM10),124,198,100,27,46,126,80,115,98,5,13,2,12,0.1,0.2
2023-04-06T22:00:00,1784A,129.61,44.561,牡丹江市,环保大楼,颗粒物(PM10),75,99,96,53,78,97,48,97,64,32,26,4,7,0.7,0.7
2023-04-06T22:00:00,1785A,129.6115,44.5782,牡丹江市,文化广场,细颗粒物(PM2.5),92,101,106,68,73,83,50,80,59,32,39,8,8,0.7,0.7
2023-04-06T22:00:00,1786A,129.5904,44.5963,牡丹江市,第一医院,细颗粒物(PM2.5),115,100,100,87,86,88,45,75,58,34,29,3,4,0.8,0.7
2023-04-06T22:00:00,1787A,129.6364,44.6075,牡丹江市,机车工厂,细颗粒物(PM2.5),103,106,112,77,82,80,34,63,57,32,28,4,6,0.9,0.8
2023-04-06T22:00:00,1788A,129.6386,44.5462,牡丹江市,第一中学,细颗粒物(PM2.5),93,61,95,69,78,89,17,85,58,39,23,3,3,0.7,0.8
2023-04-06T22:00:00,1789A,124.81117,46.03138,大庆市,大同区,颗粒物(PM10),150,249,108,46,63,109,76,101,75,7,24,3,6,0.5,0.7
2023-04-06T22:00:00,1790A,125.129,46.533,大庆市,龙凤区,颗粒物(PM10),103,156,102,43,70,133,69,111,85,14,31,2,6,0.6,0.7
2023-04-06T22:00:00,1791A,124.902,46.408,大庆市,红岗区,颗粒物(PM10),91,131,74,46,46,119,78,111,90,13,33,6,9,0.5,0.6
2023-04-06T22:00:00,1792A,125.153,46.586,大庆市,萨尔图区,颗粒物(PM10),79,107,95,49,75,133,69,106,82,14,28,10,9,0.4,0.5
2023-04-06T22:00:00,1793A,124.9042,46.6215,大庆市,让胡路区,颗粒物(PM10),80,110,73,47,53,116,75,107,86,7,39,4,7,0.2,0.6
2023-04-06T22:00:00,1794A,118.3606,31.3519,芜湖市,监测站,,30,30,39,21,28,68,36,62,56,36,38,4,6,0.6,0.7
2023-04-06T22:00:00,1795A,118.3714,31.4134,芜湖市,科创中心,,35,30,42,24,33,65,32,62,54,36,39,4,5,0.7,0.7
2023-04-06T22:00:00,1796A,118.3673,31.3131,芜湖市,四水厂,,34,34,37,21,24,71,46,64,58,32,38,6,7,0.6,0.6
2023-04-06T22:00:00,1798A,118.5092,31.6837,马鞍山市,湖东路四小,,48,32,31,33,36,79,36,66,55,36,32,6,9,0.7,0.8
2023-04-06T22:00:00,1799A,118.5024,31.6449,马鞍山市,开发区,细颗粒物(PM2.5),54,36,35,38,40,73,22,64,50,52,44,3,4,0.6,0.6
2023-04-06T22:00:00,1800A,118.5228,31.7231,马鞍山市,慈湖,,42,37,44,29,32,68,31,61,46,40,42,6,10,0.8,1.1
2023-04-06T22:00:00,1802A,118.6245,31.7241,马鞍山市,濮塘,,50,47,39,35,28,78,35,66,50,24,26,4,5,1.1,1.1
2023-04-06T22:00:00,1803A,115.9872,29.6815,九江市,十里,颗粒物(PM10),60,70,28,39,19,84,45,80,68,40,22,7,7,0.8,0.6
2023-04-06T22:00:00,1804A,115.9584,29.7046,九江市,茅山头,颗粒物(PM10),54,58,29,35,20,82,39,80,69,34,16,7,8,0.7,0.6
2023-04-06T22:00:00,1805A,115.9877,29.7295,九江市,西园,颗粒物(PM10),56,62,31,37,21,82,62,77,73,25,23,9,8,0.8,0.7
2023-04-06T22:00:00,1806A,116.0172,29.6547,九江市,五七二七厂,颗粒物(PM10),54,58,27,26,21,74,42,74,64,12,17,6,6,0.5,0.5
2023-04-06T22:00:00,1808A,115.9114,29.6038,九江市,综合工业园,颗粒物(PM10),59,67,27,39,24,85,44,82,66,29,21,9,9,1.1,0.7
2023-04-06T22:00:00,1809A,116.0721,29.7535,九江市,石化总厂,颗粒物(PM10),61,72,33,25,16,81,68,75,73,22,18,10,8,0.7,0.6
2023-04-06T22:00:00,1810A,115.9773,29.5698,九江市,庐山气象台,,28,25,10,13,8,94,87,92,87,14,10,7,7,1.3,1
2023-04-06T22:00:00,1812A,112.3931,34.6516,洛阳市,市委党校,颗粒物(PM10),131,212,109,56,38,95,79,91,90,19,12,6,7,0.4,0.5
2023-04-06T22:00:00,1814A,112.4657,34.6871,洛阳市,豫西宾馆,颗粒物(PM10),140,230,114,57,36,106,86,102,98,20,8,6,4,0.6,0.6
2023-04-06T22:00:00,1815A,112.494,34.6886,洛阳市,河南林校,颗粒物(PM10),133,215,106,54,34,110,83,103,99,22,12,7,6,0.4,0.6
2023-04-06T22:00:00,1816A,112.3844,34.623,洛阳市,开发区管委会,颗粒物(PM10),128,206,102,54,37,107,96,102,102,16,11,10,6,0.2,0.2
2023-04-06T22:00:00,1817A,112.4267,34.6258,洛阳市,市委新办公区,颗粒物(PM10),137,223,108,66,43,103,92,99,98,22,18,4,5,0.4,0.4
2023-04-06T22:00:00,1818A,114.4839,36.0621,安阳市,棉研所,,,,,,,,,,,,,,,,
2023-04-06T22:00:00,1819A,114.3551,36.1017,安阳市,红庙街,颗粒物(PM10),59,68,55,19,22,107,57,102,93,35,18,12,10,0.4,0.5
2023-04-06T22:00:00,1820A,114.361,36.0681,安阳市,银杏小区,颗粒物(PM10),56,62,50,26,24,105,41,101,86,49,20,7,8,0.4,0.4
2023-04-06T22:00:00,1824A,114.3389,34.7781,开封市,肿瘤医院,颗粒物(PM10),63,75,76,43,32,108,59,97,89,25,13,7,6,0.7,0.5
2023-04-06T22:00:00,1826A,114.2885,34.7965,开封市,世纪星幼儿园,细颗粒物(PM2.5),77,82,76,56,27,105,61,94,88,26,14,5,5,0.5,0.4
2023-04-06T22:00:00,1828A,113.227,35.2125,焦作市,市环保局,颗粒物(PM10),72,93,90,36,32,100,75,91,89,22,11,6,5,0.5,0.4
2023-04-06T22:00:00,1830A,113.1992,35.2590,焦作市,影视城,,,,,,,,,,,,,,,,
2023-04-06T22:00:00,1832A,113.3257,33.742,平顶山市,新华旅馆,颗粒物(PM10),109,167,124,51,38,111,95,105,104,15,13,4,4,0.2,0.2
2023-04-06T22:00:00,1833A,113.2919,33.737,平顶山市,规划设计院,颗粒物(PM10),103,155,107,45,34,112,99,106,105,15,10,7,5,0.2,0.4
2023-04-06T22:00:00,1834A,113.182,33.774,平顶山市,平顶山工学院,颗粒物(PM10),108,165,122,46,34,108,75,103,95,28,15,5,4,0.3,0.3
2023-04-06T22:00:00,1835A,111.1922,34.7752,三门峡市,市政府,颗粒物(PM10),159,268,164,79,44,109,4,100,83,84,17,7,8,0.5,0.3
2023-04-06T22:00:00,1836A,111.1587,34.7942,三门峡市,开发区,颗粒物(PM10),163,275,157,60,40,112,49,104,97,42,8,5,4,0.3,0.1
2023-04-06T22:00:00,1838A,111.143,34.7955,三门峡市,风景区,,,,,,,,,,,,,,,,
2023-04-06T22:00:00,1840A,111.2992,30.6981,宜昌市,白龙岗,颗粒物(PM10),82,114,55,36,22,123,76,110,102,26,21,6,6,0.6,0.6
2023-04-06T22:00:00,1841A,111.3549,30.6465,宜昌市,伍家岗,颗粒物(PM10),83,116,55,39,24,138,88,124,115,21,23,7,6,0.6,0.7
2023-04-06T22:00:00,1842A,111.2628,30.6961,宜昌市,点军区,颗粒物(PM10),88,126,54,36,18,136,88,120,114,23,17,8,7,0.4,0.6
2023-04-06T22:00:00,1843A,111.3275,30.7819,宜昌市,夷陵区,颗粒物(PM10),91,131,45,51,24,125,66,114,104,31,20,6,6,0.4,0.5
2023-04-06T22:00:00,1844A,112.2494,30.3197,荆州市,市图书馆,颗粒物(PM10),125,199,81,78,41,118,46,110,95,50,27,6,5,0.7,0.6
2023-04-06T22:00:00,1845A,112.2008,30.3544,荆州市,市委党校,颗粒物(PM10),124,198,86,82,42,120,18,107,89,76,22,9,6,0.9,0.7
2023-04-06T22:00:00,1847A,113.1094,29.3578,岳阳市,南湖风景区,颗粒物(PM10),51,52,30,28,20,106,48,95,70,31,17,6,8,1.0,0.9
2023-04-06T22:00:00,1848A,113.1493,29.4251,岳阳市,城陵矶,颗粒物(PM10),53,55,29,27,19,105,18,93,70,61,22,10,5,0.6,0.5
2023-04-06T22:00:00,1849A,113.1497,29.3575,岳阳市,开发区,,42,42,25,27,21,108,45,96,78,29,20,7,7,0.4,0.4
2023-04-06T22:00:00,1850A,113.2621,29.4758,岳阳市,云溪区,,35,35,22,23,17,106,51,97,81,18,14,7,7,0.6,0.6
2023-04-06T22:00:00,1851A,112.9943,29.4402,岳阳市,君山区,,46,45,26,32,23,102,68,99,87,24,16,8,8,0.5,0.5
2023-04-06T22:00:00,1852A,113.2117,29.355,岳阳市,金凤水库,,41,41,22,24,17,98,23,92,73,39,7,5,5,0.8,0.8
2023-04-06T22:00:00,1854A,111.6975,28.9703,常德市,市二中,,30,30,31,19,20,106,77,98,93,20,14,7,5,0.4,0.4
2023-04-06T22:00:00,1857A,111.7158,29.1456,常德市,白鹤山,,32,32,26,13,13,101,59,92,77,6,4,4,5,0.3,0.4
2023-04-06T22:00:00,1858A,110.5319,29.1217,张家界市,永定新区,,42,42,28,13,11,117,41,109,91,31,12,2,2,0.4,0.4
2023-04-06T22:00:00,1859A,110.4697,29.1242,张家界市,电业局,,44,44,27,21,19,108,44,100,82,20,10,7,7,0.4,0.3
2023-04-06T22:00:00,1860A,110.5594,29.3547,张家界市,未央路,,37,37,26,10,14,101,41,98,81,10,6,6,6,0.4,0.4
2023-04-06T22:00:00,1861A,110.4417,29.315,张家界市,袁家界,,21,21,18,9,10,113,48,110,84,6,6,6,5,0.5,0.6
2023-04-06T22:00:00,1862A,110.4144,25.3167,桂林市,电子科大尧山校区,,28,17,20,11,12,108,89,103,100,5,10,4,4,0.5,0.6
2023-04-06T22:00:00,1863A,110.2819,25.2697,桂林市,监测站,,24,21,23,14,10,94,74,86,84,15,8,10,7,0.5,0.5
2023-04-06T22:00:00,1864A,110.3089,25.2708,桂林市,龙隐路小学,,25,22,21,9,12,98,78,91,90,10,7,26,13,0.5,0.5
2023-04-06T22:00:00,1865A,110.2869,25.2178,桂林市,八中,,22,16,20,14,14,94,69,86,84,15,9,20,8,0.6,0.5
2023-04-06T22:00:00,1866A,109.2262,21.588,北海市,牛尾岭水库,,,20,43,,29,67,57,60,60,10,12,7,7,0.6,0.6
2023-04-06T22:00:00,1867A,109.1436,21.4086,北海市,海滩公园,,37,37,58,17,29,76,68,66,66,8,12,3,3,0.6,0.7
2023-04-06T22:00:00,1868A,109.0981,21.4661,北海市,新市环保局,,28,27,51,19,30,85,72,72,72,10,14,4,4,0.6,0.6
2023-04-06T22:00:00,1869A,109.1778,21.5233,北海市,北海工业园,,35,35,65,22,38,74,62,64,64,13,16,11,8,0.6,0.6
2023-04-06T22:00:00,1870A,109.4856,24.3895,柳州市,柳东小学,,38,24,22,26,17,75,65,72,70,5,4,6,7,0.5,0.5
2023-04-06T22:00:00,1871A,109.4157,24.3277,柳州市,环保监测站,,19,14,17,13,11,80,58,74,69,11,11,4,6,0.5,0.5
2023-04-06T22:00:00,1872A,109.389,24.341,柳州市,河西水厂,,18,18,22,10,15,111,54,74,72,10,18,8,14,0.7,0.9
2023-04-06T22:00:00,1873A,109.4311,24.2921,柳州市,市四中,,20,8,19,6,12,80,62,74,70,10,8,7,8,0.5,0.5
2023-04-06T22:00:00,1874A,109.4006,24.3631,柳州市,市九中,,31,31,21,13,12,82,46,73,68,18,12,6,8,0.7,0.7
2023-04-06T22:00:00,1875A,109.4958,24.3134,柳州市,古亭山,,,,21,3,8,75,64,71,70,5,5,2,4,0.5,0.5
2023-04-06T22:00:00,1876A,109.5078,18.2489,三亚市,河东子站,,19,16,16,13,10,44,37,44,39,6,6,2,2,0.5,0.5
2023-04-06T22:00:00,1877A,109.4964,18.2681,三亚市,河西子站,,18,18,16,12,8,46,39,41,41,6,5,2,2,0.3,0.3
2023-04-06T22:00:00,1878A,104.7778,31.4741,绵阳市,富乐山,颗粒物(PM10),77,104,66,38,27,103,73,94,92,15,14,2,3,0.3,0.4
2023-04-06T22:00:00,1879A,104.7563,31.4535,绵阳市,市人大,颗粒物(PM10),79,108,69,50,29,99,46,87,83,43,17,4,6,0.5,0.4
2023-04-06T22:00:00,1880A,104.6697,31.4668,绵阳市,高新区自来水公司,颗粒物(PM10),83,116,65,44,23,106,42,91,82,44,17,8,5,0.6,0.5
2023-04-06T22:00:00,1881A,104.7287,31.5075,绵阳市,三水厂,颗粒物(PM10),81,111,68,41,27,102,21,88,77,74,24,4,3,0.6,0.5
2023-04-06T22:00:00,1882A,104.563,28.793,宜宾市,石马中学,颗粒物(PM10),67,84,45,30,19,116,70,104,99,26,14,7,5,0.4,0.6
2023-04-06T22:00:00,1883A,104.6201,28.7728,宜宾市,市委,颗粒物(PM10),64,78,50,30,22,115,77,107,104,18,14,11,8,0.4,0.4
2023-04-06T22:00:00,1884A,104.6055,28.793,宜宾市,宜宾四中,颗粒物(PM10),65,79,51,32,24,112,79,104,101,18,14,10,7,0.4,0.4
2023-04-06T22:00:00,1885A,104.639,28.7562,宜宾市,市政府,颗粒物(PM10),63,76,49,33,24,119,80,110,107,20,16,7,5,0.5,0.5
2023-04-06T22:00:00,1886A,104.5742,28.7199,宜宾市,黄金嘴,颗粒物(PM10),64,77,44,30,20,120,74,107,103,21,14,8,6,0.6,0.6
2023-04-06T22:00:00,1888A,101.6891,26.571,攀枝花市,弄弄坪,颗粒物(PM10),54,58,41,25,20,121,91,114,108,17,18,12,26,0.7,1.6
2023-04-06T22:00:00,1889A,101.5769,26.5928,攀枝花市,河门口,颗粒物(PM10),55,60,33,25,18,123,69,119,107,30,15,23,11,0.5,0.5
2023-04-06T22:00:00,1890A,101.7169,26.585,攀枝花市,炳草岗,,43,43,34,23,17,121,86,117,107,22,22,7,13,0.7,0.9
2023-04-06T22:00:00,1891A,101.7369,26.5008,攀枝花市,仁和,,50,50,32,24,18,130,107,123,116,10,11,6,7,0.5,0.5
2023-04-06T22:00:00,1893A,105.4324,28.9634,泸州市,九狮山,颗粒物(PM10),55,60,45,32,24,100,39,87,77,28,15,10,7,0.2,0.4
2023-04-06T22:00:00,1894A,105.4427,28.9063,泸州市,小市上码头,颗粒物(PM10),61,72,51,31,22,94,54,83,80,25,13,19,6,0.8,0.7
2023-04-06T22:00:00,1895A,105.4241,28.8573,泸州市,兰田宪桥,颗粒物(PM10),62,74,52,29,26,98,39,85,76,24,10,5,8,0.6,0.5
2023-04-06T22:00:00,1896A,105.4379,28.8833,泸州市,市环监站,颗粒物(PM10),58,66,48,22,19,88,56,76,75,24,14,4,4,0.5,0.5
2023-04-06T22:00:00,1901A,104.4239,31.1208,德阳市,东山公园,颗粒物(PM10),80,109,63,39,23,107,75,95,95,19,15,3,2,0.5,0.4
2023-04-06T22:00:00,1902A,104.3826,31.1317,德阳市,西小区,颗粒物(PM10),78,106,62,44,26,94,64,84,83,33,20,3,2,0.4,0.4
2023-04-06T22:00:00,1904A,104.3553,31.1091,德阳市,耐火材料厂,颗粒物(PM10),72,94,63,44,24,105,66,92,89,29,17,3,2,0.3,0.4
2023-04-06T22:00:00,1905A,106.056,30.8064,南充市,西山风景区,颗粒物(PM10),90,130,96,49,37,107,99,100,100,9,5,5,3,0.6,0.5
2023-04-06T22:00:00,1906A,106.0789,30.8023,南充市,南充市委,颗粒物(PM10),101,151,116,49,37,106,4,94,77,85,19,10,9,0.9,0.3
2023-04-06T22:00:00,1907A,106.1031,30.8217,南充市,南充炼油厂,颗粒物(PM10),100,149,119,51,38,110,29,99,88,70,14,9,7,0.5,0.3
2023-04-06T22:00:00,1908A,106.1064,30.7856,南充市,高坪区监测站,颗粒物(PM10),102,153,105,52,41,105,19,92,75,72,19,10,8,0.6,0.3
2023-04-06T22:00:00,1909A,106.0642,30.7636,南充市,嘉陵区环保局,颗粒物(PM10),97,143,107,53,39,106,29,96,85,61,15,35,9,0.4,0.2
2023-04-06T22:00:00,1910A,106.1087,30.8388,南充市,市环境监测站,颗粒物(PM10),92,134,112,53,44,105,56,95,87,51,17,10,8,0.4,0.3
2023-04-06T22:00:00,1911A,106.9222,27.6869,遵义市,丁字口,,35,35,15,19,12,71,22,69,57,31,16,12,8,0.8,0.7
2023-04-06T22:00:00,1912A,106.9242,27.7019,遵义市,凤凰山,,31,31,22,14,13,73,34,65,58,21,12,13,11,0.6,0.5
2023-04-06T22:00:00,1913A,106.8906,27.6486,遵义市,忠庄,,22,22,23,13,13,71,29,61,55,20,13,3,2,0.4,0.4
2023-04-06T22:00:00,1914A,106.9231,27.6506,遵义市,舟水桥,,23,23,18,16,14,68,34,60,52,11,9,2,2,0.5,0.5
2023-04-06T22:00:00,1915A,106.9178,27.72,遵义市,干田坝,,33,25,17,23,15,74,32,69,60,28,13,6,5,0.5,0.4
2023-04-06T22:00:00,1916A,103.7897,25.5035,曲靖市,环境监测站,颗粒物(PM10),57,64,44,20,18,133,91,116,109,19,13,11,12,0.9,0.7
2023-04-06T22:00:00,1917A,103.8,25.5364,曲靖市,烟厂办公区,颗粒物(PM10),55,60,44,23,18,140,108,126,123,14,13,4,12,0.8,0.8
2023-04-06T22:00:00,1918A,108.7197,34.3956,咸阳市,气象站,颗粒物(PM10),157,263,334,76,81,112,12,104,74,80,18,4,2,0.4,0.3
2023-04-06T22:00:00,1919A,108.673,34.3155,咸阳市,实验中学,颗粒物(PM10),139,228,286,76,80,114,40,107,94,59,17,5,4,0.4,0.1
2023-04-06T22:00:00,1920A,108.7233,34.3617,咸阳市,师范学院,颗粒物(PM10),151,252,314,78,81,111,43,103,89,58,15,9,6,0.5,0.5
2023-04-06T22:00:00,1922A,109.0656,35.0994,铜川市,党校,颗粒物(PM10),240,378,293,73,63,103,7,93,73,75,23,7,8,0.5,0.4
2023-04-06T22:00:00,1923A,109.0697,35.0697,铜川市,王益区政府,颗粒物(PM10),158,266,240,77,59,101,26,93,81,47,16,16,8,0.5,0.3
2023-04-06T22:00:00,1924A,108.9344,34.9058,铜川市,新区管委会,颗粒物(PM10),166,281,286,84,74,114,53,105,94,44,13,10,7,0.5,0.3
2023-04-06T22:00:00,1926A,109.4131,36.6275,延安市,枣园,颗粒物(PM10),80,110,97,34,27,115,8,109,90,73,21,7,7,0.5,0.4
2023-04-06T22:00:00,1927A,109.4761,36.6028,延安市,延大医附院,,,,86,39,29,114,5,105,78,75,19,5,4,0.6,0.5
2023-04-06T22:00:00,1929A,109.5056,36.6106,延安市,百米大道,颗粒物(PM10),77,103,99,50,29,109,36,102,88,51,14,6,5,0.5,0.3
2023-04-06T22:00:00,1930A,107.185,34.3063,宝鸡市,庙沟村,颗粒物(PM10),102,154,203,58,59,108,44,100,87,44,14,8,6,0.3,0.3
2023-04-06T22:00:00,1931A,107.0708,34.3017,宝鸡市,竹园沟,颗粒物(PM10),90,129,194,57,57,114,35,107,87,35,16,5,5,0.4,0.3
2023-04-06T22:00:00,1932A,107.1906,34.3672,宝鸡市,三陆医院,颗粒物(PM10),120,189,212,84,71,114,73,108,98,28,20,7,7,0.4,0.3
2023-04-06T22:00:00,1933A,107.1431,34.3547,宝鸡市,监测站,颗粒物(PM10),108,165,204,64,61,114,38,106,88,37,16,5,4,0.4,0.3
2023-04-06T22:00:00,1934A,107.1186,34.3739,宝鸡市,技工学校,颗粒物(PM10),127,204,198,76,68,112,44,105,89,49,15,7,5,0.4,0.3
2023-04-06T22:00:00,1935A,107.3906,34.3528,宝鸡市,陈仓区环保局家属楼,颗粒物(PM10),128,206,214,79,63,112,42,101,87,57,22,5,6,0.6,0.5
2023-04-06T22:00:00,1936A,107.2058,34.3497,宝鸡市,文理学院,颗粒物(PM10),138,225,218,84,62,112,27,107,88,59,19,11,8,0.5,0.4
2023-04-06T22:00:00,1937A,107.2386,34.3622,宝鸡市,三迪小学,颗粒物(PM10),139,228,222,84,72,113,68,102,93,40,23,10,9,0.5,0.4
2023-04-06T22:00:00,1938A,109.5293,34.5101,渭南市,农科所,颗粒物(PM10),191,332,325,75,85,98,41,93,69,36,21,8,7,0.7,0.7
2023-04-06T22:00:00,1939A,109.4974,34.4877,渭南市,日报社,颗粒物(PM10),156,261,330,110,94,99,16,92,67,68,30,8,5,0.5,0.3
2023-04-06T22:00:00,1940A,109.4636,34.493,渭南市,体育馆,颗粒物(PM10),191,331,328,89,93,104,21,97,73,69,23,12,7,0.5,0.4
2023-04-06T22:00:00,1941A,109.4259,34.5023,渭南市,高新一小,颗粒物(PM10),182,314,325,88,92,105,9,95,69,72,28,4,3,0.4,0.2
2023-04-06T22:00:00,1943A,102.1725,38.5339,金昌市,新川苑,颗粒物(PM10),107,163,174,49,43,118,95,110,107,12,21,10,24,0.3,0.6
2023-04-06T22:00:00,1944A,102.1692,38.5167,金昌市,天庆家园,颗粒物(PM10),91,131,137,42,42,120,92,115,111,12,20,9,23,0.5,0.7
2023-04-06T22:00:00,1945A,98.2908,39.7711,嘉峪关市,气象局,颗粒物(PM10),70,90,200,29,62,111,96,104,103,11,25,4,21,0.2,0.5
2023-04-06T22:00:00,1947A,106.3394,38.817,石嘴山市,沙湖旅游区,颗粒物(PM10),78,106,132,41,32,125,67,118,113,35,13,14,14,0.4,0.4
2023-04-06T22:00:00,1948A,106.3668,39.0145,石嘴山市,大武口朝阳西街,颗粒物(PM10),77,104,138,34,34,104,68,100,96,32,10,18,10,0.8,0.4
2023-04-06T22:00:00,1949A,106.7704,39.2282,石嘴山市,惠农南大街,颗粒物(PM10),71,91,117,27,31,95,63,92,85,35,19,19,31,1.6,0.8
2023-04-06T22:00:00,1950A,106.7099,39.1325,石嘴山市,红果子镇惠新街,颗粒物(PM10),71,92,126,32,34,91,56,81,73,26,12,15,10,0.8,0.6
2023-04-06T22:00:00,1951A,84.895,45.6094,克拉玛依市,长征新村,颗粒物(PM10),60,70,86,10,13,119,71,109,106,36,19,7,7,0.4,0.3
2023-04-06T22:00:00,1952A,84.8988,45.5893,克拉玛依市,南林小区,颗粒物(PM10),60,70,88,31,23,118,58,110,105,40,21,4,4,0.7,0.5
2023-04-06T22:00:00,1954A,84.905,44.3396,克拉玛依市,独山子区,颗粒物(PM10),96,141,103,39,28,125,76,116,112,31,12,10,8,0.5,0.3
2023-04-06T22:00:00,1955A,85.6979,46.098,克拉玛依市,乌尔禾区商贸楼,,41,41,74,9,16,113,76,107,102,16,12,8,9,0.4,0.5
2023-04-06T22:00:00,1956A,86.1472,41.7538,巴音郭楞州,孔雀公园,颗粒物(PM10),500,822,760,189,171,99,52,93,88,40,19,3,3,0.4,0.4
2023-04-06T22:00:00,1957A,86.1972,41.7166,巴音郭楞州,棉纺厂,颗粒物(PM10),500,1029,908,233,196,98,40,92,86,48,23,3,3,0.5,0.3
2023-04-06T22:00:00,1958A,86.2357,41.7173,巴音郭楞州,经济开发区,颗粒物(PM10),500,869,784,198,159,103,53,99,94,35,17,5,5,0.4,0.3
2023-04-06T22:00:00,1961A,117.532,36.6868,济南市,东山小学,颗粒物(PM10),51,51,45,20,30,73,42,59,55,37,28,3,2,0.5,0.6
2023-04-06T22:00:00,1966A,120.0405,35.8735,青岛市,黄岛区4号,细颗粒物(PM2.5),113,100,69,85,45,92,22,78,56,56,34,7,7,1.1,0.8
2023-04-06T22:00:00,1982A,122.0693,37.2174,威海市,文登开发区,细颗粒物(PM2.5),98,92,95,73,55,114,64,110,78,21,19,4,6,0.8,0.5
2023-04-06T22:00:00,2031A,113.1817,27.9958,株洲市,云田中学,,,,19,,18,121,24,106,93,,14,6,6,0.6,0.6
2023-04-06T22:00:00,2054A,114.1099,32.1059,信阳市,平桥分局,颗粒物(PM10),112,174,87,61,40,116,66,103,98,26,16,10,9,0.4,0.3
2023-04-06T22:00:00,2064A,113.9956,32.1271,信阳市,南湾水厂,颗粒物(PM10),110,170,92,48,34,119,84,105,103,18,12,8,8,0.3,0.4
2023-04-06T22:00:00,2065A,114.0775,32.1195,信阳市,市酿酒公司,颗粒物(PM10),103,155,77,56,39,118,52,104,98,48,20,10,9,0.4,0.5
2023-04-06T22:00:00,2066A,114.0609,32.1399,信阳市,审计局,颗粒物(PM10),109,167,94,,48,115,38,103,95,52,20,8,8,0.5,0.4
2023-04-06T22:00:00,2067A,114.6613,33.6128,周口市,市环境监测站,颗粒物(PM10),93,135,82,46,37,109,32,99,86,48,16,9,9,0.7,0.6
2023-04-06T22:00:00,2068A,114.6758,33.6347,周口市,周口师范,颗粒物(PM10),85,119,80,39,34,101,20,92,76,62,20,7,7,0.7,0.6
2023-04-06T22:00:00,2069A,114.6546,33.5979,周口市,市运管处,颗粒物(PM10),93,136,85,44,34,110,14,99,83,76,22,6,6,0.6,0.5
2023-04-06T22:00:00,2070A,114.6369,33.6406,周口市,川汇区环保局,颗粒物(PM10),100,150,86,41,33,108,23,98,82,56,19,7,8,0.9,0.7
2023-04-06T22:00:00,2075A,117.6336,24.4674,漳州市,九湖,,,,,,,,,,,,,,,,
2023-04-06T22:00:00,2160A,112.85,35.5051,晋城市,自来水公司,颗粒物(PM10),58,65,63,17,20,101,74,95,91,27,16,5,6,0.4,0.2
2023-04-06T22:00:00,2161A,112.8318,35.4936,晋城市,白云商贸,颗粒物(PM10),58,66,77,17,18,110,82,102,98,13,8,4,4,0.5,0.4
2023-04-06T22:00:00,2162A,112.8508,35.4887,晋城市,市环保局,颗粒物(PM10),57,64,64,22,22,108,80,100,97,14,6,7,7,0.5,0.5
2023-04-06T22:00:00,2163A,112.8676,35.4897,晋城市,技术学院,颗粒物(PM10),66,82,67,24,24,107,80,99,96,17,10,4,5,0.1,0.1
2023-04-06T22:00:00,2165A,112.8453,35.546,晋城市,白马寺,,,,,,,,,,,,,,,,
2023-04-06T22:00:00,2166A,112.4397,39.3522,朔州市,平朔,颗粒物(PM10),51,51,34,15,12,95,64,87,83,13,5,6,4,0.4,0.4
2023-04-06T22:00:00,2167A,112.4575,39.3617,朔州市,朔唯,颗粒物(PM10),64,78,37,23,12,92,22,86,76,57,10,14,6,0.6,0.4
2023-04-06T22:00:00,2168A,112.4258,39.3197,朔州市,区政府,颗粒物(PM10),51,51,41,9,12,98,56,88,82,26,8,6,4,0.3,0.3
2023-04-06T22:00:00,2169A,112.4072,39.3278,朔州市,市环保局,颗粒物(PM10),51,52,40,22,19,95,33,86,78,50,11,15,4,0.5,0.4
2023-04-06T22:00:00,2170A,112.4272,39.3681,朔州市,市二中,颗粒物(PM10),54,57,41,16,11,101,52,92,85,17,6,3,4,0.3,0.3
2023-04-06T22:00:00,2171A,112.7532,37.6945,晋中市,锦纶小区,颗粒物(PM10),56,61,51,16,14,100,51,93,86,40,13,8,7,0.5,0.4
2023-04-06T22:00:00,2173A,112.7249,37.7067,晋中市,南都小区,颗粒物(PM10),52,54,39,24,28,157,52,101,83,38,11,6,6,0.5,0.4
2023-04-06T22:00:00,2174A,112.6991,37.6982,晋中市,榆次区政府,颗粒物(PM10),53,55,43,17,19,96,61,90,85,30,13,5,5,0.3,0.3
2023-04-06T22:00:00,2175A,110.9956,35.0147,运城市,运城中学,颗粒物(PM10),157,264,146,69,42,112,68,103,96,27,12,6,8,0.5,0.4
2023-04-06T22:00:00,2178A,110.9686,35.0303,运城市,地区技校,颗粒物(PM10),163,276,148,50,35,119,76,106,100,25,13,4,5,0.3,0.3
2023-04-06T22:00:00,2179A,111.0414,35.1147,运城市,空港新区,颗粒物(PM10),199,348,165,71,43,109,58,101,87,26,11,9,7,0.4,0.4
2023-04-06T22:00:00,2181A,112.7383,38.4519,忻州市,开发区,,31,31,39,14,15,94,78,91,88,17,12,4,4,0.4,0.4
2023-04-06T22:00:00,2182A,112.7003,38.4928,忻州市,会展中心,,36,23,39,25,19,87,72,82,80,16,10,4,3,0.4,0.3
2023-04-06T22:00:00,2183A,111.1406,37.5211,吕梁市,环保局,颗粒物(PM10),81,111,76,21,20,94,3,87,64,73,18,8,10,0.5,0.4
2023-04-06T22:00:00,2185A,111.1297,37.5136,吕梁市,自来水公司,颗粒物(PM10),75,100,73,19,20,92,32,86,75,46,16,11,11,0.6,0.4
2023-04-06T22:00:00,2187A,106.8174,39.6973,乌海市,市林业局,颗粒物(PM10),71,92,48,25,12,117,91,117,101,10,6,10,5,0.6,0.9
2023-04-06T22:00:00,2188A,106.7907,39.6667,乌海市,中海勃湾学校,颗粒物(PM10),53,55,107,35,33,109,97,104,103,8,5,7,7,0.3,0.3
2023-04-06T22:00:00,2191A,122.2532,43.6801,通辽市,艺术职业学校,颗粒物(PM10),77,103,139,8,39,91,86,86,86,8,31,5,7,0.2,0.4
2023-04-06T22:00:00,2192A,119.7594,49.2261,呼伦贝尔市,区环保局,,47,47,57,24,21,88,83,85,84,2,5,4,4,0.3,0.2
2023-04-06T22:00:00,2195A,107.4212,40.761,巴彦淖尔市,附二中,颗粒物(PM10),59,68,84,24,23,94,64,91,84,20,10,3,3,0.4,0.3
2023-04-06T22:00:00,2196A,107.37,40.7372,巴彦淖尔市,市环保大楼,颗粒物(PM10),51,52,80,35,27,96,59,92,86,26,9,5,5,0.4,0.3
2023-04-06T22:00:00,2197A,113.1306,40.9923,乌兰察布市,集宁新区,颗粒物(PM10),52,54,46,11,18,98,76,94,89,13,7,6,7,0.4,0.4
2023-04-06T22:00:00,2200A,122.0392,46.0656,兴安盟,胜华新制药厂,颗粒物(PM10),56,61,92,25,34,87,79,80,79,9,21,2,3,0.1,0.3
2023-04-06T22:00:00,2201A,121.9504,46.0741,兴安盟,科右前旗环保局,颗粒物(PM10),52,53,64,15,29,84,74,82,79,8,19,3,3,0.1,0.4
2023-04-06T22:00:00,2202A,116.1042,43.9317,锡林郭勒盟,市环保监测站,,25,19,46,7,8,92,78,86,86,3,4,8,7,0.2,0.2
2023-04-06T22:00:00,2203A,116.0781,43.9311,锡林郭勒盟,市政府,,29,29,50,3,5,92,74,87,85,10,6,8,7,0.3,0.2
2023-04-06T22:00:00,2204A,105.6467,38.8363,阿拉善盟,西城区西花园,颗粒物(PM10),70,90,109,28,29,103,84,99,96,14,11,6,8,0.5,0.6
2023-04-06T22:00:00,2205A,105.6985,38.8411,阿拉善盟,蒙二幼,颗粒物(PM10),69,87,114,29,38,108,89,102,102,10,9,7,9,0.5,0.5
2023-04-06T22:00:00,2206A,105.724,38.8516,阿拉善盟,环保局新楼,颗粒物(PM10),59,68,79,38,34,108,90,104,100,8,6,6,6,0.5,0.5
2023-04-06T22:00:00,2207A,121.6094,41.998,阜新市,工业园区,颗粒物(PM10),118,186,99,15,28,102,80,92,90,5,20,4,12,0.4,0.5
2023-04-06T22:00:00,2208A,121.6697,42.0279,阜新市,长青街,颗粒物(PM10),60,69,63,8,19,96,82,89,88,4,22,6,12,0.7,0.7
2023-04-06T22:00:00,2209A,121.6673,42.0705,阜新市,农业园区,颗粒物(PM10),69,88,63,16,26,100,82,93,91,6,12,7,11,0.4,0.5
2023-04-06T22:00:00,2210A,121.6717,42.0224,阜新市,东苑,颗粒物(PM10),86,122,84,10,23,98,81,90,88,6,25,5,13,0.4,0.6
2023-04-06T22:00:00,2211A,121.6506,42.0498,阜新市,玉龙新城,颗粒物(PM10),77,103,74,17,23,93,78,86,84,3,25,5,9,0.4,0.5
2023-04-06T22:00:00,2212A,123.2,41.1953,辽阳市,宏伟区,颗粒物(PM10),61,72,94,29,54,96,51,79,74,34,27,23,24,2.2,1.3
2023-04-06T22:00:00,2213A,123.1683,41.2495,辽阳市,新华园,颗粒物(PM10),76,101,91,41,42,97,19,86,71,82,38,29,24,1.4,1.3
2023-04-06T22:00:00,2214A,123.2354,41.2639,辽阳市,滨河路,颗粒物(PM10),79,107,95,35,49,90,35,77,66,62,38,25,15,2.1,1
2023-04-06T22:00:00,2215A,123.149,41.2991,辽阳市,铁西工业园,颗粒物(PM10),74,97,85,44,36,88,35,80,65,52,33,16,14,1.7,1
2023-04-06T22:00:00,2216A,123.8139,42.3022,铁岭市,汇工街西,颗粒物(PM10),88,126,95,25,52,116,63,101,76,24,33,8,15,0.4,0.8
2023-04-06T22:00:00,2217A,123.8649,42.2923,铁岭市,水上乐园,颗粒物(PM10),67,84,93,31,66,107,59,91,72,27,40,9,7,0.5,0.6
2023-04-06T22:00:00,2218A,123.8486,42.2867,铁岭市,银州路东段,颗粒物(PM10),88,125,111,32,53,104,52,87,63,32,38,9,9,0.5,0.6
2023-04-06T22:00:00,2219A,123.7153,42.2217,铁岭市,金沙江路北,颗粒物(PM10),65,80,82,27,43,107,60,85,69,31,36,7,5,0.4,0.5
2023-04-06T22:00:00,2220A,120.4318,41.5881,朝阳市,西梁,颗粒物(PM10),63,75,74,0,21,97,81,90,84,9,26,10,14,0.5,0.8
2023-04-06T22:00:00,2221A,120.4521,41.5646,朝阳市,河畔小区,颗粒物(PM10),68,85,67,10,24,93,81,87,82,8,19,8,12,0.6,0.7
2023-04-06T22:00:00,2222A,120.4176,41.5648,朝阳市,八里堡,颗粒物(PM10),63,75,74,5,22,96,84,90,85,4,27,6,11,0.5,0.7
2023-04-06T22:00:00,2223A,120.3806,41.5969,朝阳市,农业园区,颗粒物(PM10),69,87,74,6,19,94,79,90,84,6,20,7,9,0.4,0.5
2023-04-06T22:00:00,2225A,124.4002,43.1713,四平市,一商场,颗粒物(PM10),107,163,127,34,90,128,74,108,82,17,37,9,11,1.1,0.7
2023-04-06T22:00:00,2226A,124.388,43.193,四平市,境园,颗粒物(PM10),107,163,126,22,86,120,70,102,75,12,33,6,7,0.7,0.8
2023-04-06T22:00:00,2227A,125.1358,42.8845,辽源市,环保局,,40,40,256,23,220,135,76,119,94,18,44,12,18,0.5,1.2
2023-04-06T22:00:00,2229A,125.9358,41.7173,通化市,光明,颗粒物(PM10),51,52,76,32,56,129,58,111,97,29,20,12,12,0.4,0.5
2023-04-06T22:00:00,2230A,125.9446,41.7325,通化市,铁路,颗粒物(PM10),57,64,79,39,59,126,51,108,96,26,20,20,10,0.5,0.4
2023-04-06T22:00:00,2231A,126.4219,41.9171,白山市,喜丰,细颗粒物(PM2.5),114,153,74,86,51,121,50,105,82,38,24,11,13,0.9,1.2
2023-04-06T22:00:00,2232A,126.4077,41.9419,白山市,环保局,细颗粒物(PM2.5),109,151,124,82,61,138,42,112,87,30,18,12,12,0.8,0.9
2023-04-06T22:00:00,2233A,124.8006,45.1214,松原市,江南,颗粒物(PM10),163,275,106,37,69,102,70,89,65,3,29,5,13,0.4,0.5
2023-04-06T22:00:00,2234A,124.7965,45.1722,松原市,江北,颗粒物(PM10),180,310,98,48,65,111,73,96,72,8,25,3,9,0.4,0.6
2023-04-06T22:00:00,2235A,122.7911,45.6077,白城市,洮北区环保局,颗粒物(PM10),108,166,174,23,88,103,91,100,99,5,20,3,4,0.1,0.4
2023-04-06T22:00:00,2236A,122.8738,45.5725,白城市,市环保局,颗粒物(PM10),60,70,137,11,77,108,88,99,93,5,24,4,5,0.3,0.6
2023-04-06T22:00:00,2237A,129.47,42.8883,延边朝鲜族自治州,妇幼医院,细颗粒物(PM2.5),122,92,27,92,24,105,96,94,89,18,14,9,7,0.7,0.6
2023-04-06T22:00:00,2238A,129.5055,42.9108,延边朝鲜族自治州,延边医院,细颗粒物(PM2.5),109,81,29,82,24,100,92,91,80,14,15,10,9,0.7,0.6
2023-04-06T22:00:00,2239A,129.3964,42.8881,延边朝鲜族自治州,朝阳川镇医院,细颗粒物(PM2.5),124,107,30,94,24,104,99,94,89,10,8,10,13,0.7,0.6
2023-04-06T22:00:00,2240A,130.9762,45.3001,鸡西市,环保局,细颗粒物(PM2.5),72,73,102,52,70,86,63,78,71,21,28,4,7,0.4,0.4
2023-04-06T22:00:00,2243A,130.9429,45.3039,鸡西市,第一中学,细颗粒物(PM2.5),87,86,101,64,68,90,60,79,73,12,20,6,7,0.4,0.4
2023-04-06T22:00:00,2244A,130.2537,47.3416,鹤岗市,哈啤分公司,"颗粒物(PM10),细颗粒物(PM2.5)",57,63,54,40,27,101,72,95,85,22,14,14,12,0.5,0.4
2023-04-06T22:00:00,2245A,130.2684,47.3086,鹤岗市,斯达机电,细颗粒物(PM2.5),59,51,65,42,33,108,92,103,94,11,16,11,10,0.2,0.4
2023-04-06T22:00:00,2246A,130.3114,47.3388,鹤岗市,东山纸板厂,颗粒物(PM10),212,358,166,74,42,96,32,89,66,43,28,14,13,0.6,0.4
2023-04-06T22:00:00,2247A,130.1097,47.3382,鹤岗市,五号水库,,47,47,41,31,23,113,48,106,80,19,12,8,9,0.5,0.5
2023-04-06T22:00:00,2248A,131.1511,46.6937,双鸭山市,双合村,颗粒物(PM10),68,86,185,41,104,113,71,103,87,18,30,7,23,0.7,1.5
2023-04-06T22:00:00,2249A,131.1652,46.6191,双鸭山市,南小市,颗粒物(PM10),81,112,104,57,61,116,45,107,86,42,22,8,8,0.8,0.7
2023-04-06T22:00:00,2250A,131.1524,46.6554,双鸭山市,环保局,细颗粒物(PM2.5),112,96,105,84,69,120,84,111,102,24,37,9,11,0.4,0.6
2023-04-06T22:00:00,2251A,131.12,46.5656,双鸭山市,苗圃,,43,43,54,29,42,151,102,142,127,12,15,4,6,0.2,0.2
2023-04-06T22:00:00,2252A,128.5159,47.4311,伊春市,环保局,颗粒物(PM10),51,51,38,34,35,117,99,108,108,13,16,7,6,0.6,0.5
2023-04-06T22:00:00,2253A,128.9102,47.7412,伊春市,电力嘉园,细颗粒物(PM2.5),57,58,49,40,32,123,90,118,110,13,15,6,7,0.6,0.7
2023-04-06T22:00:00,2254A,129.5029,48.471,伊春市,汤旺河国家公园,颗粒物(PM10),52,54,34,34,23,104,72,104,97,6,5,5,6,0.4,0.5
2023-04-06T22:00:00,2255A,130.2751,46.8028,佳木斯市,佳纺,细颗粒物(PM2.5),55,57,101,39,60,107,54,94,83,39,30,7,5,0.6,0.5
2023-04-06T22:00:00,2256A,130.3995,46.8307,佳木斯市,发电厂,颗粒物(PM10),54,57,69,36,52,106,75,96,89,18,20,7,8,0.5,0.5
2023-04-06T22:00:00,2257A,130.3258,46.7975,佳木斯市,环保局,"颗粒物(PM10),细颗粒物(PM2.5)",54,57,87,38,63,95,59,83,76,40,37,12,6,0.7,0.7
2023-04-06T22:00:00,2258A,130.3648,46.8032,佳木斯市,十一中,细颗粒物(PM2.5),63,64,83,45,64,103,62,92,84,35,35,6,6,0.5,0.6
2023-04-06T22:00:00,2259A,130.3794,46.7588,佳木斯市,四丰,颗粒物(PM10),54,58,86,37,63,142,94,124,112,15,22,1,1,0.4,0.5
2023-04-06T22:00:00,2262A,131.0518,45.8751,七台河市,新一中,颗粒物(PM10),68,86,77,46,46,127,76,120,102,18,15,10,11,1.2,1
2023-04-06T22:00:00,2263A,127.4833,50.2524,黑河市,交通局,颗粒物(PM10),67,83,37,17,12,91,14,79,60,54,26,10,8,0.6,0.5
2023-04-06T22:00:00,2264A,127.5144,50.2341,黑河市,环保局,颗粒物(PM10),61,72,31,21,14,81,14,75,63,64,19,11,7,0.9,0.5
2023-04-06T22:00:00,2265A,127.5291,50.2472,黑河市,大黑河岛,,44,44,23,22,13,96,43,88,75,16,5,7,3,0.5,0.3
2023-04-06T22:00:00,2266A,126.9785,46.6365,绥化市,人和东街,细颗粒物(PM2.5),207,195,180,157,145,129,88,114,90,33,49,10,12,0.7,1.1
2023-04-06T22:00:00,2267A,126.964,46.6528,绥化市,党政办公中心,细颗粒物(PM2.5),235,195,190,185,175,146,93,128,104,30,51,11,13,0.8,0.9
2023-04-06T22:00:00,2269A,124.1069,50.4097,大兴安岭地区,科技局,,26,8,14,7,10,85,83,81,81,3,6,4,3,0.2,0.2
2023-04-06T22:00:00,2270A,117.396,32.939,蚌埠市,工人疗养院,颗粒物(PM10),65,79,59,44,33,88,50,88,62,29,24,10,9,0.6,0.6
2023-04-06T22:00:00,2271A,117.3605,32.9427,蚌埠市,百货大楼,颗粒物(PM10),70,90,58,50,35,87,62,87,64,18,23,2,3,0.5,0.5
2023-04-06T22:00:00,2273A,117.4185,32.8911,蚌埠市,蚌埠学院,颗粒物(PM10),59,68,51,41,29,78,53,68,63,23,21,6,6,0.5,0.5
2023-04-06T22:00:00,2274A,117.3533,32.9673,蚌埠市,淮上区政府,细颗粒物(PM2.5),67,78,62,48,29,80,53,80,60,16,20,3,5,0.6,0.5
2023-04-06T22:00:00,2275A,117.3145,32.8977,蚌埠市,高新区,细颗粒物(PM2.5),70,80,56,51,32,80,49,68,60,26,28,4,6,0.7,0.6
2023-04-06T22:00:00,2277A,116.8305,32.7727,淮南市,潘集区政府,细颗粒物(PM2.5),84,100,67,62,40,82,52,66,66,32,30,26,8,0.5,0.4
2023-04-06T22:00:00,2278A,117.0067,32.6524,淮南市,师范学院,颗粒物(PM10),72,94,71,32,39,80,48,63,63,26,22,6,7,0.4,0.4
2023-04-06T22:00:00,2279A,116.8569,32.5951,淮南市,谢家集区政府,颗粒物(PM10),72,94,60,31,33,82,58,73,69,15,14,5,8,0.3,0.3
2023-04-06T22:00:00,2280A,116.8281,32.633,淮南市,八公山区政府,颗粒物(PM10),136,222,68,45,28,83,56,79,70,15,13,3,5,0.4,0.4
2023-04-06T22:00:00,2281A,116.6325,32.6201,淮南市,焦岗湖风景区管理处,颗粒物(PM10),59,67,49,30,27,74,42,59,59,12,10,7,7,0.4,0.3
2023-04-06T22:00:00,2282A,116.8004,33.975,淮北市,监测站,细颗粒物(PM2.5),59,60,58,42,40,84,60,74,73,21,21,4,5,0.6,0.6
2023-04-06T22:00:00,2283A,116.8091,33.9007,淮北市,烈山区政府,细颗粒物(PM2.5),67,60,56,48,41,87,42,75,71,34,22,4,5,0.7,0.6
2023-04-06T22:00:00,2284A,116.7856,33.9477,淮北市,职业技术学院,细颗粒物(PM2.5),78,92,68,57,43,81,35,72,67,42,22,6,6,0.8,0.7
2023-04-06T22:00:00,2285A,117.8177,30.9412,铜陵市,市第四中学,细颗粒物(PM2.5),59,57,40,42,28,77,26,69,50,40,24,10,7,0.9,0.5
2023-04-06T22:00:00,2286A,117.8059,30.9273,铜陵市,市公路局,,47,47,37,21,24,83,32,68,51,28,18,6,6,0.7,0.6
2023-04-06T22:00:00,2287A,117.7807,30.9413,铜陵市,市新民污水厂,,43,43,35,24,22,84,34,73,55,42,27,9,5,0.5,0.4
2023-04-06T22:00:00,2288A,117.7439,30.8792,铜陵市,市第九中学,颗粒物(PM10),54,58,48,21,24,85,4,67,36,60,30,6,6,0.5,0.6
2023-04-06T22:00:00,2289A,117.846,30.9413,铜陵市,车站新区,,42,42,35,18,23,77,33,67,42,28,26,10,7,0.6,0.5
2023-04-06T22:00:00,2290A,117.8483,30.97,铜陵市,市职教基地,细颗粒物(PM2.5),58,48,33,41,19,76,33,65,50,31,20,1,1,0.5,0.3
2023-04-06T22:00:00,2291A,117.0809,30.5177,安庆市,环科院,,40,27,32,28,29,84,36,77,60,48,21,8,9,0.5,0.6
2023-04-06T22:00:00,2292A,117.0331,30.5119,安庆市,马山宾馆,,38,26,29,26,26,85,38,78,63,41,18,6,6,0.5,0.5
2023-04-06T22:00:00,2294A,116.9896,30.6145,安庆市,安庆大学,,45,36,24,31,19,103,25,90,54,44,20,8,7,0.7,0.6
2023-04-06T22:00:00,2295A,118.2903,29.6963,黄山市,延安路89号,,28,28,28,19,15,85,55,82,63,6,7,5,6,0.4,0.4
2023-04-06T22:00:00,2296A,118.327,29.7178,黄山市,黄山东路89号,,20,20,24,10,16,80,46,76,63,12,9,5,5,0.6,0.6
2023-04-06T22:00:00,2297A,118.1371,30.2756,黄山市,黄山区政府5号楼,,22,21,30,15,20,79,44,75,63,15,12,5,5,0.3,0.4
2023-04-06T22:00:00,2298A,118.3093,32.3153,滁州市,老年大学,细颗粒物(PM2.5),59,54,40,42,35,86,59,79,70,9,11,8,8,0.8,0.8
2023-04-06T22:00:00,2299A,118.3244,32.2786,滁州市,人大宾馆,细颗粒物(PM2.5),55,57,45,39,35,86,52,78,66,23,21,5,5,0.5,0.4
2023-04-06T22:00:00,2301A,115.8277,32.8929,阜阳市,市监测站,"颗粒物(PM10),细颗粒物(PM2.5)",58,65,55,41,31,94,57,80,78,21,18,4,5,0.5,0.4
2023-04-06T22:00:00,2303A,115.8554,32.8605,阜阳市,开发区,颗粒物(PM10),65,79,74,41,30,101,51,88,84,34,22,6,7,0.8,0.5
2023-04-06T22:00:00,2307A,116.5079,31.737,六安市,监测大楼,颗粒物(PM10),80,109,55,41,28,90,70,80,80,22,17,3,3,0.3,0.4
2023-04-06T22:00:00,2308A,116.4738,31.7643,六安市,皖西学院,颗粒物(PM10),79,107,58,32,23,102,63,86,85,19,12,3,3,0.7,0.3
2023-04-06T22:00:00,2309A,116.4996,31.7905,六安市,朝阳厂,颗粒物(PM10),75,100,47,32,23,107,81,94,92,14,14,4,4,0.2,0.3
2023-04-06T22:00:00,2310A,116.5567,31.7886,六安市,开发区,,,,,,,,,,,,,,,,
2023-04-06T22:00:00,2311A,115.8072,33.8399,亳州市,污水处理厂,颗粒物(PM10),56,62,58,39,31,102,56,93,89,24,13,9,9,0.4,0.3
2023-04-06T22:00:00,2312A,115.7789,33.8518,亳州市,三国揽胜宫,颗粒物(PM10),58,65,60,32,28,96,50,88,82,29,12,5,5,0.5,0.2
2023-04-06T22:00:00,2314A,117.47,30.6618,池州市,池州学院,,33,28,30,23,24,83,42,77,61,19,16,3,4,0.5,0.5
2023-04-06T22:00:00,2316A,118.7581,30.9454,宣城市,鳌峰子站,,35,26,31,24,27,74,63,68,65,14,17,5,5,0.6,0.6
2023-04-06T22:00:00,2317A,118.7385,30.9743,宣城市,敬亭山子站,,40,30,32,28,31,62,52,60,55,22,21,5,5,0.6,0.5
2023-04-06T22:00:00,2318A,118.7173,30.9427,宣城市,开发区子站,,35,25,29,24,26,65,48,59,54,19,24,5,5,0.6,0.6
2023-04-06T22:00:00,2319A,119.0141,25.4325,莆田市,荔城区仓后路,,32,19,24,22,22,57,51,53,53,16,17,8,8,1.0,0.9
2023-04-06T22:00:00,2320A,119.0015,25.4553,莆田市,莆田市监测站,,32,23,26,22,20,53,47,47,47,19,17,7,6,1.1,1
2023-04-06T22:00:00,2321A,119.1119,25.4561,莆田市,涵江区六中,,48,27,23,33,25,53,31,47,45,33,27,8,8,1.1,0.9
2023-04-06T22:00:00,2322A,119.1013,25.3215,莆田市,秀屿区政府,,38,19,26,26,27,76,61,67,67,18,19,9,7,0.9,0.9
2023-04-06T22:00:00,2323A,118.981,25.4792,莆田市,东圳水库,,,,,,,,,,,,,,,,
2023-04-06T22:00:00,2324A,117.6211,26.2625,三明市,三钢,,25,17,28,17,23,61,61,46,46,11,23,8,10,0.7,1.2
2023-04-06T22:00:00,2325A,117.635,26.2714,三明市,三明二中,,21,18,23,10,21,67,67,52,52,12,23,3,5,0.5,1
2023-04-06T22:00:00,2326A,117.6028,26.2378,三明市,三元区政府,,20,11,27,5,18,63,61,56,56,10,19,4,6,0.4,1
2023-04-06T22:00:00,2327A,117.7275,26.3108,三明市,洋溪,,,,,,,,,,,,,,,,
2023-04-06T22:00:00,2331A,118.0966,26.6761,南平市,茫荡山,,,,,,,,,,,,,,,,
2023-04-06T22:00:00,2332A,118.1681,26.6369,南平市,南平市监测站,,20,5,23,5,18,64,64,51,51,7,14,3,4,0.5,0.7
2023-04-06T22:00:00,2333A,118.1825,26.6489,南平市,南平铝业有限公司,,24,4,23,2,13,81,75,56,56,7,16,5,5,0.8,1
2023-04-06T22:00:00,2334A,118.1756,26.6272,南平市,南平七中,,17,10,20,3,15,62,53,48,48,7,12,3,3,0.5,0.7
2023-04-06T22:00:00,2335A,117.0189,25.1181,龙岩市,龙岩师专,,,,,,,,,,,,,,,,
2023-04-06T22:00:00,2336A,117.0217,25.1033,龙岩市,龙岩市监测站,,16,2,25,4,19,54,50,40,40,6,21,5,7,0.6,0.9
2023-04-06T22:00:00,2337A,117.0258,25.0661,龙岩市,闽西职业技术学院,,16,2,26,6,18,55,51,41,41,7,21,5,7,0.6,0.7
2023-04-06T22:00:00,2338A,117.0196,25.0306,龙岩市,龙岩学院,,17,2,25,3,15,52,52,40,40,7,16,3,5,0.6,0.8
2023-04-06T22:00:00,2339A,119.5001,26.6946,宁德市,金涵水库,,,,,,,,,,,,,,,,
2023-04-06T22:00:00,2341A,119.5388,26.6612,宁德市,宁德市监测站,,20,12,17,14,16,75,63,70,66,16,16,3,3,0.7,0.7
2023-04-06T22:00:00,2342A,117.3102,29.3867,景德镇市,王港中学,,35,18,16,24,11,101,54,96,81,4,7,5,5,0.4,0.4
2023-04-06T22:00:00,2343A,117.2117,29.2933,景德镇市,老干部活动中心,,40,34,43,28,23,74,51,71,60,10,8,5,5,0.4,0.4
2023-04-06T22:00:00,2344A,117.1894,29.2789,景德镇市,兽医站,,29,17,16,20,18,82,37,79,61,16,9,7,6,0.5,0.5
2023-04-06T22:00:00,2345A,117.1547,29.2617,景德镇市,台达陶瓷,,22,22,19,13,15,78,19,71,50,37,16,17,16,0.7,0.6
2023-04-06T22:00:00,2346A,117.2461,29.2956,景德镇市,陶研所,,38,38,33,13,13,78,36,74,65,12,4,4,4,0.6,0.5
2023-04-06T22:00:00,2347A,114.0997,27.5002,萍乡市,武功山,,14,1,4,8,6,69,44,62,59,7,8,3,7,0.9,0.7
2023-04-06T22:00:00,2348A,113.8385,27.6434,萍乡市,中医院,,19,8,16,7,13,71,58,65,64,5,9,5,10,0.5,0.7
2023-04-06T22:00:00,2349A,113.8493,27.6253,萍乡市,市政府车库,,23,23,21,16,14,64,33,56,54,20,14,8,14,0.6,0.7
2023-04-06T22:00:00,2350A,113.8676,27.6435,萍乡市,市环保局,,21,21,18,14,13,54,36,52,49,19,15,10,15,0.7,0.8
2023-04-06T22:00:00,2351A,113.866,27.6198,萍乡市,安源区政府,,39,39,28,7,10,63,39,55,54,14,11,10,14,0.6,0.7
2023-04-06T22:00:00,2352A,115.0861,27.9317,新余市,北岗,,18,12,14,12,13,75,46,73,53,10,7,8,11,0.6,0.6
2023-04-06T22:00:00,2353A,114.9886,27.8431,新余市,飞宇,,24,24,29,12,17,85,50,80,59,23,18,8,9,0.4,0.4
2023-04-06T22:00:00,2354A,114.9231,27.8246,新余市,第二水厂,,19,18,24,13,14,88,46,86,61,27,16,7,8,0.7,0.6
2023-04-06T22:00:00,2355A,114.9308,27.8036,新余市,市气象局,,20,20,25,14,16,92,53,86,54,15,14,7,8,0.6,0.6
2023-04-06T22:00:00,2357A,116.9822,28.1136,鹰潭市,龙虎山,,17,17,16,10,13,86,37,81,68,2,5,3,2,0.4,0.4
2023-04-06T22:00:00,2358A,117.0564,28.2642,鹰潭市,新监测站,,24,19,17,12,13,84,74,81,79,8,6,4,3,0.4,0.4
2023-04-06T22:00:00,2359A,117.0311,28.2475,鹰潭市,财苑宾馆,,28,27,18,19,12,89,63,84,81,13,8,6,9,0.4,0.3
2023-04-06T22:00:00,2360A,117.0222,28.2264,鹰潭市,体育馆,,21,21,17,14,13,85,53,81,75,20,8,2,4,0.4,0.3
2023-04-06T22:00:00,2361A,117.0017,28.2131,鹰潭市,三川水表,,26,18,22,18,19,81,59,78,73,10,8,3,2,0.4,0.4
2023-04-06T22:00:00,2362A,114.9017,25.9149,赣州市,通天岩,,21,12,23,8,13,80,65,76,68,8,8,5,5,1.0,1
2023-04-06T22:00:00,2363A,114.9367,25.8664,赣州市,地委,,22,14,22,4,14,87,69,84,74,4,5,5,5,0.8,0.9
2023-04-06T22:00:00,2364A,114.9461,25.8481,赣州市,气象台,,15,8,19,6,16,63,48,61,52,7,7,16,5,0.7,0.8
2023-04-06T22:00:00,2365A,114.9322,25.8333,赣州市,市图书馆,,21,8,22,7,14,86,67,84,73,8,8,7,10,1.1,1.1
2023-04-06T22:00:00,2366A,114.8905,25.8471,赣州市,华坚鞋城,,23,23,30,11,14,80,64,76,64,4,6,5,5,0.6,0.7
2023-04-06T22:00:00,2367A,114.9754,27.0803,吉安市,红声器材厂,,31,31,36,16,19,82,66,75,64,10,14,28,11,0.6,0.7
2023-04-06T22:00:00,2368A,114.9658,27.0999,吉安市,市森林工业局,,22,20,28,11,18,83,68,74,68,6,10,26,7,0.6,0.7
2023-04-06T22:00:00,2369A,114.99,27.1312,吉安市,市环境监测站,,23,23,27,8,16,79,68,72,66,12,16,34,9,0.7,0.7
2023-04-06T22:00:00,2370A,115.0093,27.0968,吉安市,青原区法院,,26,26,28,16,18,81,60,74,59,16,17,44,14,0.7,0.7
2023-04-06T22:00:00,2371A,114.3408,27.8064,宜春市,槟榔水业,,26,26,23,16,12,47,13,38,30,12,12,6,6,0.4,0.5
2023-04-06T22:00:00,2373A,114.3956,27.7844,宜春市,市石油公司,,24,24,27,14,17,72,44,65,62,17,17,5,9,0.8,1
2023-04-06T22:00:00,2374A,114.3703,27.7914,宜春市,市气象局,,28,28,31,13,17,75,50,69,66,24,21,5,10,0.5,0.7
2023-04-06T22:00:00,2375A,114.4013,27.8074,宜春市,市广电局,,30,23,28,21,19,64,53,61,60,19,19,14,12,0.4,0.7
2023-04-06T22:00:00,2376A,116.2127,28.0814,抚州市,桐源党溪,,18,18,22,11,14,88,24,88,50,3,3,3,3,0.8,0.8
2023-04-06T22:00:00,2377A,116.3544,27.9831,抚州市,市站,,29,29,29,17,17,94,67,93,72,10,8,3,2,0.6,0.7
2023-04-06T22:00:00,2378A,116.3565,27.963,抚州市,血防站,,33,33,32,14,16,95,70,93,73,11,8,2,2,0.4,0.5
2023-04-06T22:00:00,2379A,116.3564,28.0007,抚州市,采茶剧团,,,27,24,17,17,95,64,95,71,14,10,,4,0.8,0.8
2023-04-06T22:00:00,2380A,116.385,27.9647,抚州市,医学分院,,27,27,23,15,14,88,64,87,71,11,6,4,4,0.6,0.6
2023-04-06T22:00:00,2381A,118.005,28.4572,上饶市,百草园,,20,20,25,11,16,45,38,40,40,1,4,1,2,1.1,1.2
2023-04-06T22:00:00,2382A,117.9756,28.4436,上饶市,市监测站,,21,21,24,12,15,67,59,62,62,16,17,7,10,0.6,0.7
2023-04-06T22:00:00,2383A,117.9519,28.4628,上饶市,凤凰光学,,20,18,27,14,15,64,60,60,60,13,16,8,12,0.6,0.7
2023-04-06T22:00:00,2385A,114.17,35.9019,鹤壁市,市监测站,颗粒物(PM10),68,85,58,41,35,108,25,97,80,46,16,7,7,0.6,0.5
2023-04-06T22:00:00,2386A,114.2956,35.7511,鹤壁市,市交警支队,颗粒物(PM10),61,71,59,25,25,102,6,92,69,81,28,2,4,0.6,0.4
2023-04-06T22:00:00,2387A,114.2878,35.7306,鹤壁市,迎宾馆,颗粒物(PM10),53,55,44,25,30,104,26,95,78,69,30,6,6,1.4,0.5
2023-04-06T22:00:00,2389A,113.836,35.311,新乡市,环保西院,颗粒物(PM10),70,90,64,27,23,116,63,106,97,27,10,8,7,0.5,0.4
2023-04-06T22:00:00,2390A,113.884,35.272,新乡市,开发区,颗粒物(PM10),64,77,65,34,26,115,67,103,94,22,10,9,9,0.8,0.6
2023-04-06T22:00:00,2391A,113.883,35.303,新乡市,环保东院,,,,,,,,,,,,,,,,
2023-04-06T22:00:00,2392A,115.0312,35.7636,濮阳市,环保局,颗粒物(PM10),51,52,42,22,28,98,44,86,77,37,20,10,9,0.5,0.4
2023-04-06T22:00:00,2394A,115.0574,35.7609,濮阳市,油田运输公司,颗粒物(PM10),60,70,53,30,34,105,34,93,83,40,18,10,9,0.5,0.4
2023-04-06T22:00:00,2395A,115.0866,35.7754,濮阳市,油田物探公司,颗粒物(PM10),54,57,42,29,31,91,27,80,71,52,22,10,9,0.5,0.4
2023-04-06T22:00:00,2396A,113.8276,34.0159,许昌市,监测站,颗粒物(PM10),99,147,97,47,29,110,44,102,90,47,19,9,10,0.7,0.5
2023-04-06T22:00:00,2398A,113.7906,33.9953,许昌市,开发区,颗粒物(PM10),104,157,120,73,35,110,54,104,96,35,17,5,5,0.4,0.4
2023-04-06T22:00:00,2399A,114.051,33.5699,漯河市,三五一五工厂,颗粒物(PM10),106,161,110,51,36,117,68,103,94,25,13,11,10,0.4,0.4
2023-04-06T22:00:00,2400A,114.0055,33.5698,漯河市,漯河大学,颗粒物(PM10),98,145,102,46,37,119,59,106,95,36,10,10,9,0.4,0.3
2023-04-06T22:00:00,2401A,114.0138,33.5828,漯河市,市水利局,颗粒物(PM10),101,151,104,46,35,109,54,96,85,31,16,10,8,0.4,0.3
2023-04-06T22:00:00,2402A,114.0261,33.5698,漯河市,市广电局,颗粒物(PM10),99,147,103,48,37,115,64,102,93,28,12,7,6,0.4,0.3
2023-04-06T22:00:00,2404A,112.5224,33.0122,南阳市,瓦房庄,颗粒物(PM10),100,150,102,57,41,103,73,94,85,16,13,5,5,0.3,0.3
2023-04-06T22:00:00,2405A,112.5003,32.9735,南阳市,汉画馆,颗粒物(PM10),105,160,113,57,46,111,80,101,90,15,12,4,4,0.4,0.5
2023-04-06T22:00:00,2406A,112.5573,33.027,南阳市,气象站,颗粒物(PM10),106,161,106,51,39,104,74,98,90,14,13,7,6,0.4,0.3
2023-04-06T22:00:00,2407A,112.5481,32.9689,南阳市,理工学院,颗粒物(PM10),102,154,107,55,44,108,78,101,90,15,14,6,6,0.3,0.3
2023-04-06T22:00:00,2408A,115.6702,34.4285,商丘市,环境监测站,细颗粒物(PM2.5),68,58,54,49,31,99,40,88,80,37,10,5,6,0.7,0.5
2023-04-06T22:00:00,2409A,115.6458,34.4045,商丘市,粮食局,细颗粒物(PM2.5),75,70,60,55,33,97,29,85,70,47,15,4,5,1.0,0.5
2023-04-06T22:00:00,2410A,115.6293,34.3948,商丘市,睢阳区环保局,颗粒物(PM10),75,99,56,45,32,101,16,90,74,56,17,5,7,0.8,0.5
2023-04-06T22:00:00,2420A,114.0189,32.9656,驻马店市,市一纸厂,颗粒物(PM10),93,136,106,50,37,102,42,96,85,32,9,2,2,0.5,0.4
2023-04-06T22:00:00,2421A,114.0114,33.015,驻马店市,市彩印厂,颗粒物(PM10),101,151,108,53,38,111,78,104,100,17,9,9,8,0.3,0.2
2023-04-06T22:00:00,2422A,113.9976,32.9771,驻马店市,天方二分厂,颗粒物(PM10),102,153,104,49,41,112,48,105,95,31,7,2,2,0.6,0.4
2023-04-06T22:00:00,2423A,115.0601,30.2313,黄石市,沈家营,颗粒物(PM10),53,56,32,35,19,106,52,85,78,24,16,6,5,1.3,0.6
2023-04-06T22:00:00,2424A,115.0817,30.2006,黄石市,陈家湾,颗粒物(PM10),53,55,32,30,22,112,60,88,83,14,14,4,4,0.7,0.7
2023-04-06T22:00:00,2426A,114.8988,30.2019,黄石市,铁山,"颗粒物(PM10),细颗粒物(PM2.5)",60,69,36,43,26,119,20,95,76,49,17,5,5,1.3,0.8
2023-04-06T22:00:00,2427A,115.0307,30.2092,黄石市,团城山,颗粒物(PM10),54,58,31,30,19,110,65,90,87,23,15,10,6,1.2,0.7
