timepoint,stationcode,longitude,latitude,area,positionname,primarypollutant,aqi,pm10,pm10_24h,pm2_5,pm2_5_24h,o3,o3_24h,o3_8h,o3_8h_24h,no2,no2_24h,so2,so2_24h,co,co_24h
2023-10-17T07:00:00,1001A,116.3621,39.8784,北京市,万寿西宫,,48,48,55,23,22,96,16,8,8,37,30,1,2,0.6,0.6
2023-10-17T07:00:00,1002A,116.2202,40.2915,北京市,定陵,,39,39,31,20,13,69,2,22,14,22,13,3,2,0.4,0.4
2023-10-17T07:00:00,1003A,116.4174,39.9289,北京市,东四,,47,47,55,20,21,96,33,15,15,28,35,1,2,0.5,0.6
2023-10-17T07:00:00,1004A,116.4072,39.8863,北京市,天坛,,40,40,46,23,22,100,7,5,2,27,29,3,3,0.5,0.5
2023-10-17T07:00:00,1005A,116.462,39.9365,北京市,农展馆,,44,44,56,21,21,98,9,1,1,42,42,3,3,0.5,0.6
2023-10-17T07:00:00,1006A,116.3392,39.9295,北京市,官园,,49,49,53,20,21,102,21,17,17,41,34,2,2,0.6,0.6
2023-10-17T07:00:00,1007A,116.2878,39.9611,北京市,海淀万柳,,48,48,51,21,18,88,6,10,9,47,40,3,3,0.8,0.7
2023-10-17T07:00:00,1008A,116.6636,40.135,北京市,顺义新城,,41,41,46,16,21,84,29,22,22,20,24,3,3,0.4,0.4
2023-10-17T07:00:00,1009A,116.6275,40.3275,北京市,怀柔镇,,40,40,30,20,14,87,34,44,40,14,12,3,2,0.5,0.4
2023-10-17T07:00:00,1010A,116.2296,40.217,北京市,昌平镇,,48,48,38,24,16,80,36,44,35,4,5,2,2,0.5,0.4
2023-10-17T07:00:00,1011A,116.3966,39.9821,北京市,奥体中心,,45,45,49,19,19,89,5,3,3,52,39,3,2,0.6,0.5
2023-10-17T07:00:00,1012A,116.184,39.9136,北京市,古城,颗粒物(PM10),51,51,48,25,19,97,6,24,21,49,32,3,3,0.7,0.5
2023-10-17T07:00:00,1015A,117.1444,39.1661,天津市,勤俭道,颗粒物(PM10),54,58,49,21,16,101,26,42,36,52,32,12,10,0.5,0.6
2023-10-17T07:00:00,1017A,117.237,39.1082,天津市,大直沽八号路,颗粒物(PM10),54,57,49,22,15,102,34,34,31,49,40,9,6,0.5,0.6
2023-10-17T07:00:00,1018A,117.202,39.0927,天津市,前进道,颗粒物(PM10),53,55,44,24,15,109,22,22,20,56,43,10,8,0.5,0.6
2023-10-17T07:00:00,1019A,117.1837,39.2133,天津市,淮河道,颗粒物(PM10),52,54,48,21,16,110,21,28,25,63,42,9,8,0.6,0.7
2023-10-17T07:00:00,1021A,117.307,39.0877,天津市,跃进路,颗粒物(PM10),51,52,48,21,15,99,32,22,22,46,41,11,9,0.6,0.6
2023-10-17T07:00:00,1023A,117.707,39.0343,天津市,第四大街,颗粒物(PM10),56,62,43,28,13,82,29,46,32,37,33,8,8,0.9,0.7
2023-10-17T07:00:00,1024A,117.457,38.8394,天津市,永明路,颗粒物(PM10),55,59,36,31,14,95,17,43,32,45,29,10,6,0.6,0.4
2023-10-17T07:00:00,1026A,117.764,39.1587,天津市,汉北路,颗粒物(PM10),57,63,37,33,12,88,20,26,25,36,38,9,8,0.7,0.5
2023-10-17T07:00:00,1027A,117.157,38.9194,天津市,团泊洼,,50,50,36,25,15,98,8,6,3,50,40,5,5,0.8,0.8
2023-10-17T07:00:00,1029A,114.4422,38.0444,石家庄市,职工医院,颗粒物(PM10),60,70,69,36,29,139,32,20,20,42,44,5,4,0.7,0.6
2023-10-17T07:00:00,1030A,114.6063,38.0266,石家庄市,高新区,颗粒物(PM10),72,94,82,46,30,127,27,37,34,51,40,2,3,0.8,0.6
2023-10-17T07:00:00,1031A,114.4898,38.1328,石家庄市,西北水源,颗粒物(PM10),71,91,77,38,29,126,4,28,14,53,43,3,2,0.6,0.5
2023-10-17T07:00:00,1032A,114.4586,38.0058,石家庄市,西南高教,颗粒物(PM10),63,75,77,43,30,142,49,36,34,27,38,4,3,0.6,0.6
2023-10-17T07:00:00,1033A,114.5331,38.0178,石家庄市,世纪公园,"颗粒物(PM10),细颗粒物(PM2.5)",62,73,67,44,32,126,29,37,35,34,29,3,5,0.8,0.6
2023-10-17T07:00:00,1034A,114.509,38.0457,石家庄市,人民会堂,细颗粒物(PM2.5),64,67,67,46,34,142,46,40,40,36,35,6,6,0.8,0.6
2023-10-17T07:00:00,1035A,114.3524,37.8911,石家庄市,封龙山,颗粒物(PM10),54,57,75,26,26,130,102,101,101,18,23,9,9,0.6,0.5
2023-10-17T07:00:00,1037A,118.131,39.6363,唐山市,雷达站,颗粒物(PM10),53,55,40,25,13,101,1,31,9,40,23,2,3,1.1,0.6
2023-10-17T07:00:00,1038A,118.1725,39.6334,唐山市,物资局,细颗粒物(PM2.5),84,68,43,62,18,98,10,28,13,52,33,7,9,0.6,0.5
2023-10-17T07:00:00,1040A,118.1705,39.6506,唐山市,十二中,颗粒物(PM10),62,73,41,29,17,94,0,4,1,51,34,1,4,0.7,0.6
2023-10-17T07:00:00,1041A,118.1869,39.622,唐山市,小山,,,126,52,,9,94,0,14,2,47,25,2,4,0.9,0.6
2023-10-17T07:00:00,1042A,119.5134,39.8207,秦皇岛市,北戴河环保局,,40,40,29,14,11,81,50,42,42,34,32,20,10,0.7,0.5
2023-10-17T07:00:00,1043A,119.7493,40.0116,秦皇岛市,第一关,,48,48,30,26,20,86,9,12,11,80,51,22,10,1.5,0.6
2023-10-17T07:00:00,1044A,119.5897,39.9499,秦皇岛市,监测站,颗粒物(PM10),53,56,36,34,18,80,32,15,15,47,38,25,11,1.4,0.6
2023-10-17T07:00:00,1046A,119.5251,39.9041,秦皇岛市,建设大厦,细颗粒物(PM2.5),63,52,41,45,26,72,41,39,39,24,23,21,6,0.9,0.6
2023-10-17T07:00:00,1048A,114.5302,36.6116,邯郸市,东污水处理厂,细颗粒物(PM2.5),94,108,78,70,47,127,2,25,10,71,46,9,5,2.0,0.9
2023-10-17T07:00:00,1049A,114.4918,36.5713,邯郸市,矿院,细颗粒物(PM2.5),62,72,70,44,36,132,0,0,0,63,57,4,4,0.8,0.7
2023-10-17T07:00:00,1050A,114.484,36.6133,邯郸市,丛台公园,细颗粒物(PM2.5),140,139,73,107,45,132,5,27,15,64,41,10,9,1.9,0.8
2023-10-17T07:00:00,1051A,115.493,38.8632,保定市,游泳馆,细颗粒物(PM2.5),64,70,60,46,28,123,4,28,11,66,44,5,5,0.8,0.6
2023-10-17T07:00:00,1052A,115.5213,38.8959,保定市,华电二区,细颗粒物(PM2.5),59,61,50,42,24,112,1,32,15,48,29,8,7,0.4,0.4
2023-10-17T07:00:00,1053A,115.4713,38.9108,保定市,接待中心,颗粒物(PM10),69,88,59,42,26,113,0,44,26,49,28,6,7,0.6,0.4
2023-10-17T07:00:00,1054A,115.4612,38.8416,保定市,地表水厂,颗粒物(PM10),71,91,76,46,26,114,4,48,14,56,43,6,6,0.7,0.5
2023-10-17T07:00:00,1056A,115.5086,38.8639,保定市,监测站,颗粒物(PM10),63,76,65,40,31,120,2,15,8,61,44,9,8,0.8,0.6
2023-10-17T07:00:00,1057A,114.8883,40.8336,张家口市,人民公园,,30,30,33,9,8,82,45,53,49,10,18,3,3,0.3,0.4
2023-10-17T07:00:00,1059A,114.8687,40.8042,张家口市,五金库,,36,36,32,13,12,88,49,57,54,15,21,2,4,0.3,0.4
2023-10-17T07:00:00,1060A,114.8902,40.762,张家口市,世纪豪园,,22,22,33,6,11,79,46,52,51,14,23,3,4,0.3,0.3
2023-10-17T07:00:00,1061A,114.8916,40.8661,张家口市,北泵房,,29,29,32,6,12,94,43,48,45,11,18,6,7,0.1,0.2
2023-10-17T07:00:00,1062A,117.9531,40.9081,承德市,铁路,,34,34,27,16,10,65,2,18,8,32,30,6,11,0.5,0.6
2023-10-17T07:00:00,1063A,117.9392,40.9763,承德市,中国银行,,38,38,33,17,10,60,1,1,1,26,33,6,11,0.4,0.6
2023-10-17T07:00:00,1064A,117.9503,40.928,承德市,开发区,,31,31,40,14,16,66,3,3,2,33,34,5,9,0.4,0.6
2023-10-17T07:00:00,1065A,117.8051,40.9655,承德市,文化中心,颗粒物(PM10),53,56,48,20,12,72,2,3,1,37,41,2,29,0.5,0.8
2023-10-17T07:00:00,1066A,117.9268,41.0026,承德市,离宫,,20,20,23,14,16,60,1,1,1,24,22,1,8,0.3,0.3
2023-10-17T07:00:00,1067A,116.6708,39.5111,廊坊市,药材公司,颗粒物(PM10),58,65,60,29,24,103,7,18,14,52,36,3,5,0.6,0.6
2023-10-17T07:00:00,1068A,116.7214,39.5589,廊坊市,开发区,颗粒物(PM10),51,52,53,34,24,100,0,8,6,39,33,1,1,0.5,0.5
2023-10-17T07:00:00,1070A,116.7244,39.5269,廊坊市,北华航天学院,颗粒物(PM10),56,62,62,33,24,103,0,18,11,46,41,8,10,0.7,0.6
2023-10-17T07:00:00,1071A,116.8842,38.2991,沧州市,沧县城建局,颗粒物(PM10),61,72,51,21,18,104,9,11,11,60,46,12,8,0.6,0.4
2023-10-17T07:00:00,1072A,116.8584,38.3254,沧州市,电视转播站,颗粒物(PM10),53,56,44,31,17,103,12,31,20,51,30,15,9,0.5,0.4
2023-10-17T07:00:00,1073A,116.8709,38.3228,沧州市,市环保局,颗粒物(PM10),55,60,55,26,24,101,10,22,16,52,34,12,6,0.6,0.4
2023-10-17T07:00:00,1074A,115.6838,37.7541,衡水市,电机北厂,细颗粒物(PM2.5),89,105,70,66,28,110,19,5,5,64,56,12,8,0.6,0.4
2023-10-17T07:00:00,1075A,115.6303,37.7316,衡水市,市监测站,颗粒物(PM10),74,97,70,44,21,103,10,24,15,69,49,10,7,0.6,0.5
2023-10-17T07:00:00,1077A,114.4704,37.0886,邢台市,达活泉,颗粒物(PM10),52,53,67,31,23,122,13,24,23,41,33,4,5,0.5,0.4
2023-10-17T07:00:00,1078A,114.5062,37.0349,邢台市,邢师高专,颗粒物(PM10),61,72,70,34,23,120,3,2,2,59,46,5,7,0.5,0.5
2023-10-17T07:00:00,1079A,114.5237,37.0851,邢台市,路桥公司,颗粒物(PM10),51,51,59,34,27,124,10,25,23,54,36,5,6,0.4,0.4
2023-10-17T07:00:00,1080A,114.4725,37.0719,邢台市,市环保局,颗粒物(PM10),60,70,66,40,27,129,27,30,25,28,30,2,4,0.6,0.5
2023-10-17T07:00:00,1081A,112.522,37.8873,太原市,尖草坪,颗粒物(PM10),79,107,99,54,45,146,13,12,11,76,67,6,8,0.7,0.7
2023-10-17T07:00:00,1083A,112.434,38.0108,太原市,上兰,,,,,,,,,,,,,,,,
2023-10-17T07:00:00,1084A,112.469,37.7124,太原市,晋源,细颗粒物(PM2.5),90,108,88,67,52,142,29,70,58,71,50,7,6,1.0,0.8
2023-10-17T07:00:00,1085A,112.5583,37.7394,太原市,小店,颗粒物(PM10),88,126,120,60,59,148,3,17,5,92,77,12,13,1.2,1
2023-10-17T07:00:00,1086A,112.5369,37.8692,太原市,桃园,颗粒物(PM10),81,112,106,48,45,142,4,7,5,86,74,6,11,0.8,1
2023-10-17T07:00:00,1087A,112.57,37.8195,太原市,坞城,颗粒物(PM10),82,113,115,56,52,156,9,8,7,82,77,10,11,0.9,1.1
2023-10-17T07:00:00,1088A,112.549,37.9854,太原市,南寨,细颗粒物(PM2.5),89,95,108,66,50,139,5,5,5,42,52,2,6,0.8,0.8
2023-10-17T07:00:00,1090A,111.6507,40.7517,呼和浩特市,呼市一监,,,,60,29,34,131,30,22,22,50,52,9,11,0.7,0.7
2023-10-17T07:00:00,1091A,111.6572,40.8033,呼和浩特市,小召,颗粒物(PM10),51,51,64,32,30,121,16,18,18,69,63,10,10,0.9,0.8
2023-10-17T07:00:00,1094A,111.7516,40.8369,呼和浩特市,如意水处理厂,颗粒物(PM10),55,59,67,27,25,110,15,11,11,60,61,10,12,0.5,0.6
2023-10-17T07:00:00,1095A,111.7276,40.8062,呼和浩特市,二十九中,,50,50,59,29,22,113,23,25,25,61,58,10,11,0.6,0.6
2023-10-17T07:00:00,1096A,111.5512,40.7866,呼和浩特市,工大金川校区,颗粒物(PM10),58,66,72,34,33,143,2,16,14,74,58,8,11,0.6,0.6
2023-10-17T07:00:00,1097A,111.717,40.7612,呼和浩特市,化肥厂生活区,颗粒物(PM10),59,67,73,30,30,114,28,23,23,37,41,11,13,0.8,0.7
2023-10-17T07:00:00,1098A,123.6836,41.9339,沈阳市,森林路,,,,,,,,,,,,,,,,
2023-10-17T07:00:00,1099A,123.505,41.7406,沈阳市,浑南东路,颗粒物(PM10),55,60,58,30,25,62,8,4,4,28,36,11,12,0.8,0.6
2023-10-17T07:00:00,1100A,123.4231,41.6989,沈阳市,新秀街,颗粒物(PM10),51,51,63,28,26,64,5,5,5,39,48,14,26,0.9,0.7
2023-10-17T07:00:00,1102A,123.5903,41.8411,沈阳市,东陵路,颗粒物(PM10),58,66,51,38,23,65,7,7,6,31,30,22,11,1.4,0.6
2023-10-17T07:00:00,1103A,123.4264,41.8467,沈阳市,陵东街,颗粒物(PM10),68,86,63,45,26,74,6,5,5,46,40,16,9,1.7,1
2023-10-17T07:00:00,1104A,123.4114,41.7653,沈阳市,文化路,颗粒物(PM10),58,66,53,32,24,67,8,7,6,42,40,21,16,1.3,0.8
2023-10-17T07:00:00,1105A,123.4678,41.7867,沈阳市,小河沿,细颗粒物(PM2.5),68,79,52,49,24,67,8,6,6,44,54,10,8,1.5,0.7
2023-10-17T07:00:00,1106A,123.4017,41.7972,沈阳市,太原街,细颗粒物(PM2.5),59,65,46,42,25,62,7,5,4,45,47,16,12,1.5,0.9
2023-10-17T07:00:00,1108A,123.3783,41.9228,沈阳市,京沈街,颗粒物(PM10),68,85,56,44,28,72,6,5,5,33,44,25,12,1.8,0.8
2023-10-17T07:00:00,1109A,121.612,38.9741,大连市,甘井子,,18,16,19,7,11,78,57,48,48,25,25,5,6,0.6,0.6
2023-10-17T07:00:00,1110A,121.565,38.9511,大连市,周水子,,26,21,23,11,11,78,15,9,9,51,38,9,9,0.7,0.6
2023-10-17T07:00:00,1111A,121.5637,38.8845,大连市,星海三站,,27,27,24,8,10,81,15,39,35,49,26,13,9,0.8,0.6
2023-10-17T07:00:00,1112A,121.6302,38.9117,大连市,青泥洼桥,,18,18,21,7,8,67,37,54,51,35,28,6,7,0.4,0.4
2023-10-17T07:00:00,1113A,121.6251,38.8638,大连市,傅家庄,,22,16,18,5,6,82,68,78,76,17,16,8,7,0.3,0.3
2023-10-17T07:00:00,1114A,121.5213,38.8661,大连市,七贤岭,,26,26,22,9,6,92,8,45,34,41,18,5,6,0.6,0.5
2023-10-17T07:00:00,1115A,121.2529,38.8061,大连市,旅顺,,19,14,14,6,6,85,59,78,66,12,11,6,6,0.3,0.3
2023-10-17T07:00:00,1116A,121.7485,39.1311,大连市,金州,,16,14,30,11,8,77,43,58,54,24,17,8,7,0.3,0.4
2023-10-17T07:00:00,1117A,121.7811,39.0496,大连市,开发区,,38,35,24,26,13,73,9,25,14,66,32,8,7,0.7,0.5
2023-10-17T07:00:00,1118A,121.9762,39.0631,大连市,双D港,,20,20,19,10,7,88,40,66,51,35,18,7,8,0.4,0.3
2023-10-17T07:00:00,1119A,125.3325,43.9166,长春市,食品厂,颗粒物(PM10),57,63,64,28,27,60,7,8,6,46,41,6,7,0.7,0.6
2023-10-17T07:00:00,1120A,125.2863,43.9027,长春市,客车厂,颗粒物(PM10),53,56,55,29,27,61,9,10,9,43,39,7,8,0.7,0.7
2023-10-17T07:00:00,1121A,125.2841,43.8463,长春市,邮电学院,,43,43,47,30,28,70,9,10,8,31,35,5,6,0.4,0.5
2023-10-17T07:00:00,1122A,125.3716,43.8772,长春市,劳动公园,颗粒物(PM10),70,90,62,29,19,65,6,8,7,46,36,6,5,0.7,0.6
2023-10-17T07:00:00,1123A,125.3297,43.8805,长春市,园林处,,48,48,42,24,19,67,8,10,8,43,35,9,8,0.6,0.5
2023-10-17T07:00:00,1124A,125.4605,43.79,长春市,净月潭,,27,27,29,18,11,69,32,24,24,12,21,7,7,0.3,0.3
2023-10-17T07:00:00,1125A,125.7194,43.515,长春市,甩湾子,,,,,,,,,,,,,,,,
2023-10-17T07:00:00,1126A,125.3863,43.8447,长春市,经开区环卫处,颗粒物(PM10),65,79,67,32,22,68,7,6,6,43,33,6,6,0.5,0.5
2023-10-17T07:00:00,1127A,125.245,43.7783,长春市,高新区管委会,细颗粒物(PM2.5),62,51,56,44,33,66,6,4,3,35,35,6,7,0.6,0.5
2023-10-17T07:00:00,1128A,125.1761,43.8325,长春市,岱山公园,颗粒物(PM10),51,52,69,23,28,68,6,7,6,53,44,7,8,0.7,0.6
2023-10-17T07:00:00,1129A,126.5422,45.755,哈尔滨市,岭北,,28,28,21,12,8,66,32,26,26,20,16,7,4,0.9,0.4
2023-10-17T07:00:00,1130A,126.561,45.8167,哈尔滨市,松北商大,,23,23,26,6,7,56,11,8,8,39,31,7,7,0.6,0.5
2023-10-17T07:00:00,1131A,126.979,45.5419,哈尔滨市,阿城会宁,,32,28,47,22,17,57,26,17,15,15,25,5,6,0.8,0.8
2023-10-17T07:00:00,1132A,126.599,45.7222,哈尔滨市,南岗学府路,颗粒物(PM10),51,51,31,17,8,54,5,26,23,56,26,9,7,0.7,0.4
2023-10-17T07:00:00,1133A,126.689,45.7733,哈尔滨市,太平宏伟公园,颗粒物(PM10),76,102,34,28,13,57,5,18,15,43,25,7,10,1.0,0.6
2023-10-17T07:00:00,1134A,126.635,45.7667,哈尔滨市,道外承德广场,,29,29,24,5,9,59,13,11,11,55,34,4,4,0.7,0.5
2023-10-17T07:00:00,1135A,126.685,45.7319,哈尔滨市,香坊红旗大街,,49,49,30,26,12,61,6,6,4,61,34,20,7,1.0,0.5
2023-10-17T07:00:00,1136A,126.6411,45.7258,哈尔滨市,动力和平路,,44,44,31,17,13,53,6,24,20,58,31,13,9,0.4,0.3
2023-10-17T07:00:00,1137A,126.593,45.7478,哈尔滨市,道里建国路,,39,39,30,12,10,60,12,17,16,57,33,9,7,1.1,0.3
2023-10-17T07:00:00,1138A,126.615,45.61,哈尔滨市,平房东轻厂,,43,43,39,15,13,60,15,15,15,33,34,9,9,0.3,0.3
2023-10-17T07:00:00,1139A,126.595,45.9855,哈尔滨市,呼兰师专,,26,26,24,10,11,59,27,27,27,30,20,2,2,0.7,0.6
2023-10-17T07:00:00,1140A,126.6206,45.6842,哈尔滨市,省农科院,颗粒物(PM10),59,67,42,24,13,64,7,10,9,48,33,11,8,0.7,0.4
2023-10-17T07:00:00,1141A,121.4,31.238,上海市,普陀,细颗粒物(PM2.5),97,78,77,72,58,162,2,29,9,64,50,6,6,1.3,1.1
2023-10-17T07:00:00,1142A,121.478,31.2036,上海市,十五厂,细颗粒物(PM2.5),78,74,78,57,55,168,15,35,15,84,61,7,8,0.8,0.9
2023-10-17T07:00:00,1143A,121.467,31.3008,上海市,虹口,细颗粒物(PM2.5),77,71,75,56,57,166,4,24,6,69,60,10,10,1.2,0.9
2023-10-17T07:00:00,1144A,121.412,31.1654,上海市,徐汇上师大,细颗粒物(PM2.5),105,79,86,79,69,172,16,33,28,78,61,8,10,0.9,0.9
2023-10-17T07:00:00,1145A,121.536,31.2659,上海市,杨浦四漂,细颗粒物(PM2.5),75,70,77,55,62,168,4,59,21,103,74,10,11,0.7,0.7
2023-10-17T07:00:00,1147A,121.425,31.2261,上海市,静安监测站,细颗粒物(PM2.5),97,68,70,72,60,175,21,99,71,81,41,6,6,0.9,0.8
2023-10-17T07:00:00,1148A,121.703,31.1907,上海市,浦东川沙,细颗粒物(PM2.5),92,86,76,68,66,173,7,6,5,68,57,9,9,1.1,0.9
2023-10-17T07:00:00,1149A,121.533,31.2284,上海市,浦东新区监测站,细颗粒物(PM2.5),77,61,70,56,56,162,12,92,56,79,44,8,9,0.8,0.9
2023-10-17T07:00:00,1150A,121.577,31.2071,上海市,浦东张江,细颗粒物(PM2.5),100,71,79,75,59,150,17,34,30,66,54,6,6,1.0,1.2
2023-10-17T07:00:00,1151A,118.8086,32.1065,南京市,迈皋桥,细颗粒物(PM2.5),77,96,76,56,34,183,6,4,4,69,61,4,5,0.9,0.6
2023-10-17T07:00:00,1152A,118.7538,32.0551,南京市,草场门,细颗粒物(PM2.5),67,80,69,48,38,174,1,41,16,78,65,4,6,1.2,1.1
2023-10-17T07:00:00,1153A,118.7794,32.0745,南京市,山西路,细颗粒物(PM2.5),77,85,70,56,37,190,15,41,18,58,41,7,8,0.7,0.6
2023-10-17T07:00:00,1154A,118.7752,32.0023,南京市,中华门,细颗粒物(PM2.5),79,105,79,58,38,174,3,2,1,82,65,7,9,1.1,1
2023-10-17T07:00:00,1155A,118.8109,32.0309,南京市,瑞金路,细颗粒物(PM2.5),79,105,75,58,37,161,9,24,20,62,57,11,13,0.7,0.7
2023-10-17T07:00:00,1156A,118.7997,32.0754,南京市,玄武湖,细颗粒物(PM2.5),73,77,60,53,34,177,11,11,7,52,42,6,7,0.8,0.8
2023-10-17T07:00:00,1157A,118.6414,32.0931,南京市,浦口,颗粒物(PM10),60,70,61,36,31,178,52,120,56,41,38,6,9,0.8,0.8
2023-10-17T07:00:00,1158A,118.7356,31.9996,南京市,奥体中心,细颗粒物(PM2.5),89,109,83,66,42,174,7,7,6,83,68,9,11,0.7,0.7
2023-10-17T07:00:00,1159A,118.9125,32.1028,南京市,仙林大学城,细颗粒物(PM2.5),104,92,70,78,43,185,16,54,36,51,35,2,3,1.0,0.8
2023-10-17T07:00:00,1160A,120.561,31.2472,苏州市,上方山,细颗粒物(PM2.5),84,104,71,62,44,154,7,30,23,53,40,4,5,0.8,0.8
2023-10-17T07:00:00,1162A,120.591,31.3019,苏州市,彩香,细颗粒物(PM2.5),100,110,96,75,63,181,15,37,27,62,64,8,10,1.0,1.1
2023-10-17T07:00:00,1163A,120.596,31.3264,苏州市,轧钢厂,细颗粒物(PM2.5),108,126,116,81,64,184,4,11,9,53,64,14,13,1.0,1.1
2023-10-17T07:00:00,1164A,120.613,31.2703,苏州市,吴中区,细颗粒物(PM2.5),97,120,98,72,57,163,2,30,15,87,74,10,11,0.9,0.9
2023-10-17T07:00:00,1165A,120.543,31.2994,苏州市,苏州新区,细颗粒物(PM2.5),109,115,104,82,68,184,5,18,9,84,80,10,12,1.0,1.1
2023-10-17T07:00:00,1166A,120.669,31.3097,苏州市,苏州工业园区,细颗粒物(PM2.5),100,104,89,75,56,171,36,39,38,50,64,13,14,0.9,0.9
2023-10-17T07:00:00,1167A,120.641,31.3708,苏州市,相城区,细颗粒物(PM2.5),104,80,89,78,57,175,5,4,4,81,85,13,12,1.0,1
2023-10-17T07:00:00,1168A,120.9098,31.9663,南通市,狼山街道,,40,40,60,24,36,171,11,31,21,50,37,6,8,0.5,0.5
2023-10-17T07:00:00,1169A,120.86,32.0005,南通市,虹桥,,42,42,62,21,38,188,68,83,74,29,32,6,8,0.6,0.6
2023-10-17T07:00:00,1170A,120.87,32.02,南通市,城中,,39,39,54,26,35,176,52,73,66,35,31,7,8,0.6,0.6
2023-10-17T07:00:00,1171A,120.94,31.93,南通市,星湖花园,,33,30,58,23,36,171,19,54,37,30,31,6,7,0.6,0.6
2023-10-17T07:00:00,1172A,120.81,32.0417,南通市,紫琅学院,,37,37,57,16,32,161,24,54,39,61,38,7,9,0.4,0.5
2023-10-17T07:00:00,1173A,119.176,34.5885,连云港市,市环境监测站,,31,31,40,7,12,106,64,67,66,19,14,6,6,0.4,0.4
2023-10-17T07:00:00,1177A,117.179,34.2761,徐州市,黄河新村,细颗粒物(PM2.5),69,85,119,50,68,206,19,47,36,41,38,6,10,0.5,0.6
2023-10-17T07:00:00,1178A,117.1918,34.2384,徐州市,淮塔,颗粒物(PM10),64,78,120,38,63,215,4,39,19,43,39,7,11,0.6,0.7
2023-10-17T07:00:00,1180A,117.256,34.2153,徐州市,新城区,颗粒物(PM10),70,90,120,48,68,212,21,44,35,41,41,6,11,0.6,0.7
2023-10-17T07:00:00,1181A,117.244,34.2911,徐州市,桃园路,颗粒物(PM10),64,78,116,34,54,208,6,45,23,47,37,8,12,0.6,0.7
2023-10-17T07:00:00,1182A,117.2933,34.2778,徐州市,农科院,颗粒物(PM10),68,85,103,38,51,195,4,19,10,52,47,8,11,0.7,0.6
2023-10-17T07:00:00,1186A,119.389,32.3761,扬州市,邗江监测站,颗粒物(PM10),79,107,89,31,40,218,28,93,65,48,45,9,9,0.7,0.5
2023-10-17T07:00:00,1188A,120.269,31.4867,无锡市,雪浪,细颗粒物(PM2.5),85,90,74,63,46,204,5,6,2,68,51,8,8,1.1,1
2023-10-17T07:00:00,1189A,120.275,31.6219,无锡市,黄巷,细颗粒物(PM2.5),92,128,114,68,55,192,6,15,9,75,87,8,11,1.1,1.2
2023-10-17T07:00:00,1190A,120.294,31.56,无锡市,曹张,细颗粒物(PM2.5),98,62,80,73,57,188,24,41,25,61,80,9,10,1.2,1.3
2023-10-17T07:00:00,1191A,120.242,31.5031,无锡市,漆塘,细颗粒物(PM2.5),98,117,79,73,50,212,18,18,13,70,48,10,9,1.3,1.2
2023-10-17T07:00:00,1192A,120.3489,31.5863,无锡市,东亭,细颗粒物(PM2.5),92,92,85,68,53,192,5,47,17,68,65,6,9,1.2,1.3
2023-10-17T07:00:00,1193A,120.354,31.5475,无锡市,旺庄,细颗粒物(PM2.5),98,102,81,73,53,192,14,39,18,104,81,8,9,1.1,1.1
2023-10-17T07:00:00,1194A,120.245,31.5631,无锡市,荣巷,细颗粒物(PM2.5),98,90,73,73,49,210,28,32,24,49,39,10,11,1.1,1.2
2023-10-17T07:00:00,1195A,120.299,31.6817,无锡市,堰桥,细颗粒物(PM2.5),73,75,93,53,57,198,14,55,37,51,52,10,15,0.9,1.1
2023-10-17T07:00:00,1196A,119.9633,31.762,常州市,市监测站,细颗粒物(PM2.5),114,175,114,86,65,190,8,48,31,73,70,10,12,1.2,0.9
2023-10-17T07:00:00,1200A,119.9468,31.7069,常州市,武进监测站,颗粒物(PM10),113,175,121,74,63,220,13,38,25,80,56,21,20,1.2,1.2
2023-10-17T07:00:00,1201A,119.9255,31.9087,常州市,安家,细颗粒物(PM2.5),104,147,106,78,66,186,22,22,22,45,63,9,13,0.9,1
2023-10-17T07:00:00,1203A,119.6707,32.1875,镇江市,新区办事处,细颗粒物(PM2.5),78,72,79,57,55,237,14,73,39,65,51,6,8,0.9,0.7
2023-10-17T07:00:00,1204A,119.4974,32.1968,镇江市,职教中心,细颗粒物(PM2.5),166,87,91,126,79,273,18,51,39,51,54,8,8,0.9,0.7
2023-10-17T07:00:00,1205A,119.4303,32.1328,镇江市,丹徒区监测站,细颗粒物(PM2.5),124,91,92,94,66,231,29,74,46,44,38,13,9,0.9,0.7
2023-10-17T07:00:00,1206A,119.905,32.4878,泰州市,公园路,颗粒物(PM10),53,56,61,34,37,202,60,86,77,21,21,9,11,0.6,0.6
2023-10-17T07:00:00,1207A,119.9189,32.4625,泰州市,莲花,颗粒物(PM10),57,63,65,39,40,207,53,73,63,21,21,6,7,0.6,0.5
2023-10-17T07:00:00,1209A,119.888,32.4639,泰州市,留学生创业园,颗粒物(PM10),55,60,64,37,36,211,51,83,75,19,17,8,10,0.7,0.6
2023-10-17T07:00:00,1210A,119.036,33.5981,淮安市,钵池山,,30,29,51,21,36,173,48,68,64,28,22,7,8,0.6,0.7
2023-10-17T07:00:00,1211A,119.007,33.575,淮安市,北京南路,,48,48,60,21,39,183,69,74,72,22,24,10,8,0.6,0.6
2023-10-17T07:00:00,1212A,118.989,33.6067,淮安市,市监测站,颗粒物(PM10),51,51,60,17,29,186,76,82,81,20,24,12,11,0.6,0.6
2023-10-17T07:00:00,1213A,119.135,33.5039,淮安市,楚州区监测站,,39,39,59,18,31,177,35,47,37,29,27,7,8,0.7,0.7
2023-10-17T07:00:00,1214A,119.0186,33.6297,淮安市,淮阴区监测站,,48,48,70,32,71,187,62,76,74,25,28,8,8,0.6,0.6
2023-10-17T07:00:00,1215A,120.118,33.4022,盐城市,盐城电厂,,46,46,49,12,19,164,23,76,54,60,19,7,8,0.5,0.4
2023-10-17T07:00:00,1216A,120.156,33.3942,盐城市,市监测站,,31,31,42,11,20,164,49,66,56,38,22,6,6,0.4,0.5
2023-10-17T07:00:00,1218A,120.2144,33.38,盐城市,开发区管委会,,34,34,50,12,17,156,51,64,57,57,25,10,10,0.4,0.4
2023-10-17T07:00:00,1220A,118.293,33.9528,宿迁市,宿迁学院,,46,46,76,23,44,216,19,53,38,46,34,8,11,0.4,0.5
2023-10-17T07:00:00,1221A,118.2442,33.9592,宿迁市,宿迁中学,,50,50,84,25,49,204,40,58,51,28,26,8,10,0.5,0.6
2023-10-17T07:00:00,1223A,120.2072,30.2111,杭州市,滨江,颗粒物(PM10),65,79,77,43,44,192,40,26,26,54,56,6,8,0.7,0.7
2023-10-17T07:00:00,1224A,120.0633,30.2747,杭州市,西溪,细颗粒物(PM2.5),54,45,45,38,36,180,6,4,4,47,41,5,6,0.7,0.7
2023-10-17T07:00:00,1226A,120.3461,30.3153,杭州市,下沙,细颗粒物(PM2.5),79,83,80,58,50,182,13,7,7,73,78,7,9,0.8,0.8
2023-10-17T07:00:00,1227A,120.1269,30.2456,杭州市,卧龙桥,细颗粒物(PM2.5),53,44,46,37,33,187,29,42,36,17,22,6,7,0.8,0.7
2023-10-17T07:00:00,1228A,120.1903,30.2692,杭州市,浙江农大,,,,,,,,,,,,,,,,
2023-10-17T07:00:00,1230A,120.1197,30.3119,杭州市,和睦小学,细颗粒物(PM2.5),64,59,62,46,39,172,14,9,7,58,53,8,9,0.8,0.7
2023-10-17T07:00:00,1231A,120.3019,30.4183,杭州市,临平镇,细颗粒物(PM2.5),80,105,88,59,49,187,5,18,8,82,64,7,8,1.0,0.7
2023-10-17T07:00:00,1232A,120.2697,30.1819,杭州市,城厢镇,细颗粒物(PM2.5),68,65,69,49,49,182,47,45,45,46,46,7,8,0.6,0.7
2023-10-17T07:00:00,1233A,120.0883,30.1808,杭州市,云栖,颗粒物(PM10),51,52,48,32,30,182,29,84,57,30,24,6,7,0.6,0.6
2023-10-17T07:00:00,1234A,121.8358,29.911,宁波市,区环保大楼,,48,43,60,33,49,214,30,78,60,70,43,8,9,1.1,0.9
2023-10-17T07:00:00,1235A,121.56,29.82,宁波市,万里学院,细颗粒物(PM2.5),67,80,91,48,51,214,10,17,13,73,65,9,11,0.9,0.9
2023-10-17T07:00:00,1236A,121.713,29.9572,宁波市,龙赛医院,细颗粒物(PM2.5),72,91,87,52,47,209,28,48,42,63,62,7,8,1.0,0.9
2023-10-17T07:00:00,1239A,121.633,29.7733,宁波市,钱湖水厂,细颗粒物(PM2.5),65,72,80,47,50,214,75,99,80,15,27,7,9,0.7,0.6
2023-10-17T07:00:00,1240A,121.5856,29.8635,宁波市,太古小学,颗粒物(PM10),69,88,90,38,47,210,26,41,28,66,61,9,10,0.9,1
2023-10-17T07:00:00,1241A,121.524,29.8674,宁波市,市环境监测中心,颗粒物(PM10),53,56,74,33,43,219,35,68,57,60,45,11,11,0.7,0.7
2023-10-17T07:00:00,1242A,120.634,28.0089,温州市,瓯海,细颗粒物(PM2.5),78,83,64,57,37,163,20,25,23,64,46,8,8,0.7,0.7
2023-10-17T07:00:00,1243A,120.6748,27.9939,温州市,南浦,细颗粒物(PM2.5),74,90,61,54,36,169,31,43,38,58,39,8,8,0.6,0.6
2023-10-17T07:00:00,1244A,120.76,27.9747,温州市,龙湾,细颗粒物(PM2.5),70,69,60,51,33,174,49,29,29,59,46,6,6,0.7,0.6
2023-10-17T07:00:00,1245A,120.6709,28.0167,温州市,市站,细颗粒物(PM2.5),67,66,63,48,38,141,78,71,71,22,40,7,8,0.6,0.6
2023-10-17T07:00:00,1247A,120.6053,29.9928,绍兴市,城东开发委,,48,44,70,33,47,175,62,51,51,28,32,7,9,0.6,0.7
2023-10-17T07:00:00,1250A,120.0751,30.8669,湖州市,城西水厂,细颗粒物(PM2.5),65,71,63,47,37,172,4,2,2,81,79,4,6,0.6,0.6
2023-10-17T07:00:00,1252A,120.7436,30.778,嘉兴市,清河小学,细颗粒物(PM2.5),69,70,87,50,45,179,42,151,89,37,49,5,8,0.9,0.8
2023-10-17T07:00:00,1253A,120.726,30.7478,嘉兴市,嘉兴学院,细颗粒物(PM2.5),107,87,86,80,57,174,17,154,82,48,40,5,8,0.9,0.8
2023-10-17T07:00:00,1255A,121.273,28.6459,台州市,黄岩环保大楼,细颗粒物(PM2.5),67,63,64,48,42,215,99,126,111,23,20,6,7,0.7,0.6
2023-10-17T07:00:00,1256A,121.419,28.6542,台州市,台州环保大楼,细颗粒物(PM2.5),85,88,71,63,46,212,66,99,82,38,22,6,6,0.8,0.6
2023-10-17T07:00:00,1257A,121.377,28.5773,台州市,路桥田洋王,细颗粒物(PM2.5),72,65,65,52,49,174,52,79,66,37,26,6,8,0.8,0.6
2023-10-17T07:00:00,1258A,122.122,30.0203,舟山市,定海檀枫,,37,37,58,21,39,197,52,80,71,17,17,6,7,0.6,0.7
2023-10-17T07:00:00,1259A,122.3094,29.9558,舟山市,普陀东港,,38,25,51,26,31,195,108,128,117,15,13,5,6,0.5,0.5
2023-10-17T07:00:00,1260A,122.19,29.9944,舟山市,临城新区,,32,30,55,22,37,204,68,99,79,20,19,4,5,0.5,0.6
2023-10-17T07:00:00,1262A,119.647,29.077,金华市,十五中,细颗粒物(PM2.5),67,66,61,48,45,175,45,57,46,54,46,7,6,0.8,0.6
2023-10-17T07:00:00,1263A,119.686,29.1029,金华市,监测站,细颗粒物(PM2.5),69,59,70,50,44,175,28,39,37,56,46,6,7,0.8,0.9
2023-10-17T07:00:00,1264A,118.8692,28.9398,衢州市,环保大楼,细颗粒物(PM2.5),73,78,69,53,46,155,42,22,22,31,37,8,6,0.6,0.7
2023-10-17T07:00:00,1265A,118.8709,28.9666,衢州市,实验学校,细颗粒物(PM2.5),64,75,65,46,42,155,13,34,27,55,38,1,4,0.7,0.6
2023-10-17T07:00:00,1266A,118.8621,28.9808,衢州市,衢州学院,细颗粒物(PM2.5),72,77,67,52,45,155,26,44,35,45,40,7,7,0.8,0.7
2023-10-17T07:00:00,1267A,119.914,28.4514,丽水市,监测站大楼,,47,47,55,32,32,151,14,33,22,42,32,6,7,0.4,0.5
2023-10-17T07:00:00,1268A,119.93,28.4586,丽水市,莲都小学,颗粒物(PM10),51,51,53,33,28,155,29,72,30,32,27,6,6,0.4,0.4
2023-10-17T07:00:00,1269A,119.879,28.4231,丽水市,余庄前,细颗粒物(PM2.5),60,44,48,43,34,158,6,11,8,11,20,5,6,0.3,0.4
2023-10-17T07:00:00,1270A,117.1959,31.7848,合肥市,明珠广场,细颗粒物(PM2.5),89,114,87,66,41,176,15,63,49,72,60,9,10,1.0,0.8
2023-10-17T07:00:00,1271A,117.3072,31.8764,合肥市,三里街,细颗粒物(PM2.5),83,95,88,61,45,189,6,50,33,88,60,8,7,1.4,0.9
2023-10-17T07:00:00,1272A,117.2588,31.8707,合肥市,琥珀山庄,细颗粒物(PM2.5),70,83,79,51,41,196,23,39,26,43,46,5,6,0.8,0.7
2023-10-17T07:00:00,1273A,117.1604,31.9052,合肥市,董铺水库,颗粒物(PM10),52,53,62,24,25,187,5,22,11,30,33,25,34,0.4,0.3
2023-10-17T07:00:00,1274A,117.25,31.8571,合肥市,长江中路,细颗粒物(PM2.5),78,92,82,57,45,182,27,60,36,56,50,10,10,0.9,0.6
2023-10-17T07:00:00,1275A,117.266,31.9436,合肥市,庐阳区,细颗粒物(PM2.5),104,124,85,78,45,184,6,79,28,89,56,7,7,0.9,0.6
2023-10-17T07:00:00,1276A,117.336,31.8586,合肥市,瑶海区,细颗粒物(PM2.5),107,132,105,80,47,172,5,30,23,96,71,8,7,1.3,0.7
2023-10-17T07:00:00,1277A,117.3027,31.7964,合肥市,包河区,细颗粒物(PM2.5),85,102,81,63,44,170,3,11,4,82,76,8,5,1.0,0.8
2023-10-17T07:00:00,1278A,117.2776,31.7385,合肥市,滨湖新区,细颗粒物(PM2.5),64,73,69,46,35,183,5,18,10,63,42,8,8,0.5,0.4
2023-10-17T07:00:00,1279A,117.1318,31.8403,合肥市,高新区,细颗粒物(PM2.5),87,95,73,64,39,160,83,106,102,34,38,10,9,0.9,0.7
2023-10-17T07:00:00,1280A,119.3903,26.0543,福州市,鼓山,,,,,,,,,,,,,,,,
2023-10-17T07:00:00,1282A,119.2681,26.0504,福州市,师大,颗粒物(PM10),51,51,45,34,27,163,74,96,87,23,15,7,6,0.6,0.5
2023-10-17T07:00:00,1283A,119.2984,26.1028,福州市,五四北路,,43,42,47,30,27,165,94,88,88,16,17,4,4,0.6,0.5
2023-10-17T07:00:00,1284A,119.2648,26.0768,福州市,杨桥西路,,50,50,48,30,26,162,86,109,99,16,13,6,4,0.7,0.6
2023-10-17T07:00:00,1285A,119.317,26.0746,福州市,紫阳,,47,47,48,30,26,154,115,122,117,10,12,6,6,0.6,0.6
2023-10-17T07:00:00,1286A,118.1608,24.8169,厦门市,溪东,,,,,,,,,,,,,,,,
2023-10-17T07:00:00,1287A,118.1514,24.4767,厦门市,洪文,,44,44,48,25,28,145,113,110,110,7,10,2,3,0.4,0.4
2023-10-17T07:00:00,1288A,118.0661,24.4444,厦门市,鼓浪屿,,41,41,43,25,26,141,103,108,105,11,9,2,3,0.5,0.6
2023-10-17T07:00:00,1290A,115.8931,28.6843,南昌市,省外办,"颗粒物(PM10),细颗粒物(PM2.5)",70,90,79,51,40,150,32,26,26,39,42,14,8,0.8,0.8
2023-10-17T07:00:00,1291A,115.8886,28.7003,南昌市,省林业公司,颗粒物(PM10),63,75,82,44,39,160,31,18,18,59,63,21,10,0.8,0.6
2023-10-17T07:00:00,1292A,115.8126,28.7442,南昌市,林科所,颗粒物(PM10),52,53,53,31,27,166,59,88,57,39,36,12,10,0.5,0.5
2023-10-17T07:00:00,1294A,115.8518,28.687,南昌市,建工学校,细颗粒物(PM2.5),62,65,76,44,38,156,50,38,38,35,53,16,11,0.5,0.6
2023-10-17T07:00:00,1295A,115.8921,28.6424,南昌市,象湖,细颗粒物(PM2.5),75,70,76,55,42,165,42,31,31,35,52,12,11,0.8,1
2023-10-17T07:00:00,1296A,115.7423,28.7996,南昌市,武术学校,,18,18,21,10,14,159,16,29,20,5,9,1,3,0.2,0.3
2023-10-17T07:00:00,1298A,115.9314,28.6842,南昌市,省站,细颗粒物(PM2.5),87,98,92,64,43,158,33,38,37,33,42,18,11,0.6,0.5
2023-10-17T07:00:00,1299A,116.9862,36.6114,济南市,科干所,颗粒物(PM10),78,105,99,54,43,153,62,130,81,52,44,8,8,0.9,0.8
2023-10-17T07:00:00,1300A,116.9376,36.665,济南市,农科所,颗粒物(PM10),74,98,95,42,36,138,3,53,20,65,55,8,6,1.2,0.9
2023-10-17T07:00:00,1301A,117.1265,36.6734,济南市,开发区,"颗粒物(PM10),细颗粒物(PM2.5)",68,85,83,49,34,125,18,62,47,82,53,6,7,0.8,0.8
2023-10-17T07:00:00,1303A,117.0624,36.6868,济南市,省种子仓库,"颗粒物(PM10),细颗粒物(PM2.5)",70,90,94,51,37,140,4,13,3,72,61,6,6,1.1,0.9
2023-10-17T07:00:00,1304A,116.9489,36.6447,济南市,机床二厂,细颗粒物(PM2.5),80,103,103,59,46,148,6,59,29,69,53,4,6,1.2,0.7
2023-10-17T07:00:00,1305A,117.0495,36.663,济南市,市监测站,颗粒物(PM10),70,90,92,46,37,139,8,34,16,92,71,7,7,1.1,0.8
2023-10-17T07:00:00,1306A,116.7675,36.5484,济南市,长清党校,细颗粒物(PM2.5),74,93,110,54,52,169,57,78,51,54,49,6,7,0.7,0.8
2023-10-17T07:00:00,1307A,120.6659,36.2403,青岛市,仰口,,31,31,31,19,12,104,84,102,99,8,7,4,3,0.4,0.3
2023-10-17T07:00:00,1310A,120.4134,36.0658,青岛市,市南区东部子站,,48,48,56,12,12,97,38,33,33,47,49,8,7,0.5,0.5
2023-10-17T07:00:00,1311A,120.3664,36.1032,青岛市,四方区子站,颗粒物(PM10),54,58,59,17,16,100,9,10,9,65,52,6,6,0.9,0.7
2023-10-17T07:00:00,1312A,120.2994,36.054,青岛市,市南区西部子站,,44,44,50,15,10,95,45,40,40,41,39,11,8,0.6,0.5
2023-10-17T07:00:00,1313A,120.4581,36.0858,青岛市,崂山区子站,,41,41,51,12,11,77,26,39,36,50,35,7,7,0.6,0.5
2023-10-17T07:00:00,1314A,120.1983,35.9608,青岛市,黄岛区子站,颗粒物(PM10),63,75,64,29,18,84,8,6,6,84,63,14,11,0.6,0.5
2023-10-17T07:00:00,1315A,120.3999,36.3083,青岛市,城阳区子站,颗粒物(PM10),54,58,52,22,16,102,8,26,13,65,40,8,7,0.9,0.6
2023-10-17T07:00:00,1316A,113.69031,34.76122,郑州市,烟厂,颗粒物(PM10),108,166,158,62,68,176,10,45,33,71,53,6,10,0.8,0.9
2023-10-17T07:00:00,1317A,113.65724,34.77134,郑州市,郑纺机,,,,142,53,53,179,26,60,41,57,46,8,12,1.0,1.1
2023-10-17T07:00:00,1318A,113.67526,34.80246,郑州市,银行学校,颗粒物(PM10),98,145,142,42,65,179,18,49,33,60,48,10,12,0.6,0.8
2023-10-17T07:00:00,1319A,113.56746,34.81334,郑州市,供水公司,颗粒物(PM10),107,164,156,72,72,190,16,45,24,70,58,11,12,0.9,1
2023-10-17T07:00:00,1320A,113.7329,34.7178,郑州市,经开区管委,颗粒物(PM10),95,140,154,57,55,176,10,40,25,55,48,7,10,0.8,0.8
2023-10-17T07:00:00,1321A,113.73961,34.77172,郑州市,四十七中,颗粒物(PM10),113,176,157,60,67,179,8,38,23,69,51,8,10,0.8,1
2023-10-17T07:00:00,1322A,113.60532,34.74838,郑州市,市监测站,颗粒物(PM10),133,216,171,92,77,187,2,9,4,68,56,5,10,0.8,0.9
2023-10-17T07:00:00,1323A,113.64164,34.7525,郑州市,河医大,颗粒物(PM10),92,133,160,64,65,168,14,32,25,44,45,8,13,1.0,1.1
2023-10-17T07:00:00,1324A,113.51488,34.91089,郑州市,岗李水库,,,,,,,,,,,,,,,,
2023-10-17T07:00:00,1325A,114.3677,30.5584,武汉市,东湖梨园,细颗粒物(PM2.5),59,51,61,42,46,193,51,24,24,34,38,10,11,0.5,0.8
2023-10-17T07:00:00,1326A,114.2529,30.558,武汉市,汉阳月湖,细颗粒物(PM2.5),64,68,62,46,41,160,29,27,24,61,66,10,9,0.8,0.8
2023-10-17T07:00:00,1327A,114.282,30.6189,武汉市,汉口花桥,细颗粒物(PM2.5),62,65,72,44,47,158,52,20,20,49,70,11,10,0.7,1.1
2023-10-17T07:00:00,1328A,114.3025,30.5332,武汉市,武昌紫阳,颗粒物(PM10),54,58,60,35,35,179,53,30,30,46,65,15,13,0.8,1
2023-10-17T07:00:00,1329A,114.3646,30.6217,武汉市,青山钢花,颗粒物(PM10),56,61,81,39,60,185,48,31,31,56,65,17,14,0.8,1.1
2023-10-17T07:00:00,1330A,114.1566,30.4825,武汉市,沌口新区,,,92,75,61,42,177,11,15,13,,81,19,14,1.4,0.9
2023-10-17T07:00:00,1331A,114.3014,30.5944,武汉市,汉口江滩,颗粒物(PM10),57,64,70,38,38,173,56,23,23,40,63,10,9,0.5,0.7
2023-10-17T07:00:00,1333A,114.135,30.6319,武汉市,吴家山,细颗粒物(PM2.5),70,75,67,51,45,181,12,10,10,83,72,14,10,0.9,0.7
2023-10-17T07:00:00,1334A,113.8454,30.2917,武汉市,沉湖七壕,,49,49,47,33,28,184,32,68,58,43,26,6,5,1.3,0.8
2023-10-17T07:00:00,1335A,113.0833,28.2325,长沙市,经开区环保局,颗粒物(PM10),52,53,65,32,36,157,47,46,46,29,39,6,8,0.4,0.5
2023-10-17T07:00:00,1336A,112.8872,28.2189,长沙市,高开区环保局,细颗粒物(PM2.5),60,68,72,43,40,183,26,88,58,60,36,7,7,0.7,0.7
2023-10-17T07:00:00,1337A,113.0792,28.2053,长沙市,马坡岭,细颗粒物(PM2.5),72,77,87,52,43,166,8,18,15,64,44,8,9,0.6,0.4
2023-10-17T07:00:00,1338A,112.9394,28.19,长沙市,湖南师范大学,细颗粒物(PM2.5),60,67,61,43,35,174,30,96,63,51,27,7,8,0.7,0.6
2023-10-17T07:00:00,1339A,113.0178,28.1322,长沙市,雨花区环保局,细颗粒物(PM2.5),58,58,56,41,38,151,35,107,79,52,26,7,8,0.8,0.7
2023-10-17T07:00:00,1340A,112.9792,28.2597,长沙市,伍家岭,细颗粒物(PM2.5),69,70,81,50,55,175,0,15,7,51,51,5,6,0.7,0.8
2023-10-17T07:00:00,1341A,113.0014,28.1944,长沙市,火车新站,颗粒物(PM10),55,60,69,34,40,161,53,66,27,44,47,7,7,0.6,0.7
2023-10-17T07:00:00,1342A,112.9844,28.1178,长沙市,天心区环保局,颗粒物(PM10),54,57,51,26,24,157,52,121,99,43,24,7,7,0.5,0.4
2023-10-17T07:00:00,1343A,112.8908,28.1308,长沙市,湖南中医药大学,颗粒物(PM10),56,61,72,36,40,178,4,3,3,50,48,4,5,0.9,0.9
2023-10-17T07:00:00,1344A,112.9581,28.3611,长沙市,沙坪,,38,36,34,26,28,170,69,123,98,11,13,5,7,0.2,0.3
2023-10-17T07:00:00,1345A,113.2347,23.1423,广州市,广雅中学,,44,44,48,28,28,136,48,46,38,51,41,6,5,0.7,0.8
2023-10-17T07:00:00,1346A,113.2612,23.105,广州市,市五中,,38,38,43,26,28,145,64,55,55,35,30,7,6,0.6,0.7
2023-10-17T07:00:00,1348A,113.3478,23.0916,广州市,广东商学院,,41,41,48,24,29,143,61,54,54,30,29,5,5,0.5,0.6
2023-10-17T07:00:00,1349A,113.4332,23.1047,广州市,市八十六中,,49,49,56,26,30,144,48,27,27,41,45,6,5,0.7,0.7
2023-10-17T07:00:00,1350A,113.3505,22.9483,广州市,番禺中学,,49,49,55,30,31,179,43,46,44,54,39,5,5,0.6,0.6
2023-10-17T07:00:00,1351A,113.2146,23.3916,广州市,花都师范,,43,43,41,27,26,143,91,92,92,22,19,10,7,0.4,0.5
2023-10-17T07:00:00,1352A,113.2597,23.1331,广州市,市监测站,,42,40,43,29,29,140,64,57,52,36,34,4,4,0.5,0.6
2023-10-17T07:00:00,1353A,113.5618,23.312,广州市,九龙镇镇龙,,44,44,50,27,30,116,46,32,32,25,27,5,5,0.6,0.6
2023-10-17T07:00:00,1354A,113.2765,23.1544,广州市,麓湖,,35,31,34,24,24,134,31,42,22,48,31,6,7,0.6,0.5
2023-10-17T07:00:00,1355A,113.443,23.3035,广州市,帽峰山森林公园,,33,25,30,23,24,125,74,83,72,12,10,8,7,0.4,0.4
2023-10-17T07:00:00,1356A,114.1063,22.5545,深圳市,通心岭子站,,41,38,43,22,28,155,131,131,131,13,17,4,4,0.6,0.7
2023-10-17T07:00:00,1357A,114.117,22.5625,深圳市,洪湖,,45,45,48,22,29,155,115,123,121,20,17,8,8,0.4,0.5
2023-10-17T07:00:00,1358A,113.987,22.5417,深圳市,华侨城,,40,38,43,22,27,152,125,120,120,13,17,10,10,0.7,0.8
2023-10-17T07:00:00,1359A,113.9181,22.5171,深圳市,南海子站,,43,43,52,22,31,144,126,124,122,9,14,6,6,0.7,0.7
2023-10-17T07:00:00,1360A,114.2458,22.5689,深圳市,盐田,,39,39,43,25,28,157,118,125,124,24,21,6,6,0.7,0.8
2023-10-17T07:00:00,1361A,114.2283,22.7244,深圳市,龙岗,细颗粒物(PM2.5),57,61,51,40,32,151,88,117,101,18,16,10,9,0.8,0.8
2023-10-17T07:00:00,1363A,114.494,22.5422,深圳市,南澳,,44,38,40,19,24,158,138,149,146,11,12,5,6,0.7,0.8
2023-10-17T07:00:00,1364A,114.41,22.6342,深圳市,葵涌,,41,27,30,20,26,156,130,141,137,11,14,9,8,0.9,1
2023-10-17T07:00:00,1365A,114.297,22.5978,深圳市,梅沙,,39,39,45,19,26,151,123,121,121,9,11,8,8,0.9,0.9
2023-10-17T07:00:00,1366A,114.0678,22.738,深圳市,观澜,颗粒物(PM10),58,65,64,35,34,180,102,96,94,25,25,12,10,0.7,0.7
2023-10-17T07:00:00,1367A,113.5814,22.2618,珠海市,吉大,,43,41,48,22,27,204,136,140,138,12,15,7,7,0.5,0.6
2023-10-17T07:00:00,1368A,113.4881,22.2335,珠海市,前山,,40,40,48,21,25,182,122,129,126,17,19,7,7,0.5,0.6
2023-10-17T07:00:00,1369A,113.628,22.4251,珠海市,唐家,,45,45,49,24,28,197,121,135,131,14,14,5,5,0.5,0.5
2023-10-17T07:00:00,1370A,113.299,22.2281,珠海市,斗门,,41,38,43,20,28,200,129,119,119,21,21,9,12,0.5,0.6
2023-10-17T07:00:00,1371A,113.1294,23.0067,佛山市,湾梁,,34,34,37,23,26,167,56,55,52,35,24,9,9,0.7,0.7
2023-10-17T07:00:00,1372A,113.1083,23.0478,佛山市,华材职中,,46,46,50,26,30,155,38,21,21,50,42,7,6,0.6,0.6
2023-10-17T07:00:00,1373A,113.144,23.0453,佛山市,南海气象局,,43,43,50,26,28,143,20,14,14,58,43,6,6,0.5,0.5
2023-10-17T07:00:00,1374A,113.2881,22.8094,佛山市,顺德苏岗,颗粒物(PM10),51,51,55,29,31,187,24,18,18,52,42,12,10,0.8,0.8
2023-10-17T07:00:00,1376A,112.8383,22.8678,佛山市,高明孔堂,颗粒物(PM10),53,55,58,36,30,187,32,27,27,43,36,13,9,0.7,0.7
2023-10-17T07:00:00,1377A,112.8836,23.1588,佛山市,三水监测站,颗粒物(PM10),52,53,56,35,31,163,44,48,46,48,35,8,7,0.7,0.6
2023-10-17T07:00:00,1378A,112.867,23.185,佛山市,三水云东海,颗粒物(PM10),56,61,48,37,33,162,30,48,36,34,27,8,6,0.8,0.7
2023-10-17T07:00:00,1379A,113.3769,22.5211,中山市,华柏园,,50,47,52,35,34,209,93,104,90,28,24,5,5,0.6,0.6
2023-10-17T07:00:00,1380A,113.3881,22.5497,中山市,张溪,颗粒物(PM10),56,61,65,36,37,210,79,90,81,30,27,4,4,0.8,0.8
2023-10-17T07:00:00,1381A,113.4075,22.5111,中山市,紫马岭,颗粒物(PM10),54,57,51,35,33,216,96,112,93,24,20,5,4,0.6,0.6
2023-10-17T07:00:00,1382A,113.4411,22.4853,中山市,长江旅游区,,,,,,,,,,,,,,,,
2023-10-17T07:00:00,1383A,113.1064,22.6058,江门市,北街,细颗粒物(PM2.5),57,60,59,40,35,222,23,30,22,58,42,11,9,0.8,0.8
2023-10-17T07:00:00,1384A,113.0731,22.5835,江门市,西区,颗粒物(PM10),60,69,62,34,32,228,25,32,25,54,37,10,9,0.6,0.6
2023-10-17T07:00:00,1385A,113.0219,22.5311,江门市,圭峰西,细颗粒物(PM2.5),60,55,56,43,36,225,24,54,32,59,37,8,7,0.8,0.7
2023-10-17T07:00:00,1386A,113.0828,22.5947,江门市,东湖,颗粒物(PM10),59,67,60,36,31,239,26,29,23,49,32,9,7,0.7,0.7
2023-10-17T07:00:00,1389A,113.7547,23.0494,东莞市,莞城梨川,,48,48,47,30,29,140,59,59,57,27,25,11,9,0.7,0.8
2023-10-17T07:00:00,1390A,113.7944,23.0128,东莞市,东城石井,,45,45,47,26,27,148,65,59,59,24,18,9,7,0.6,0.7
2023-10-17T07:00:00,1391A,113.7383,22.9658,东莞市,南城西平,颗粒物(PM10),51,52,49,29,28,146,34,27,27,58,43,6,5,0.8,0.8
2023-10-17T07:00:00,1392A,114.4183,23.0528,惠州市,河南岸金山湖子站,颗粒物(PM10),51,51,51,32,31,121,89,86,77,15,12,8,8,0.6,0.6
2023-10-17T07:00:00,1393A,114.4053,23.0822,惠州市,下埔横江三路子站,,50,50,48,32,31,121,79,73,73,17,15,13,10,0.6,0.6
2023-10-17T07:00:00,1394A,114.4103,23.1142,惠州市,江北云山西路子站,,46,46,45,29,29,131,66,75,66,17,14,9,9,0.6,0.6
2023-10-17T07:00:00,1395A,114.4645,22.7833,惠州市,惠阳区承修路船湖子站,"颗粒物(PM10),细颗粒物(PM2.5)",62,74,52,44,31,137,63,121,95,16,12,7,6,0.9,0.9
2023-10-17T07:00:00,1396A,114.5317,22.7422,惠州市,大亚湾管委会子站,,49,49,51,26,28,125,88,102,96,29,23,10,10,0.8,0.8
2023-10-17T07:00:00,1397A,112.4267,23.0706,肇庆市,睦岗子站,,44,44,43,27,25,169,34,17,17,59,45,14,10,0.5,0.5
2023-10-17T07:00:00,1398A,112.4645,23.0475,肇庆市,城中子站,,42,42,40,25,24,178,87,102,87,23,22,17,11,0.5,0.5
2023-10-17T07:00:00,1399A,112.5544,23.1522,肇庆市,坑口子站,,39,36,35,27,25,165,62,80,72,29,22,13,8,0.6,0.5
2023-10-17T07:00:00,1400A,112.4753,23.1,肇庆市,七星岩子站,,,,,,,,,,,,,,,,
2023-10-17T07:00:00,1401A,108.3103,22.7881,南宁市,二十一中,细颗粒物(PM2.5),73,76,56,53,36,145,6,70,26,55,30,24,12,1.0,0.8
2023-10-17T07:00:00,1402A,108.3141,22.8528,南宁市,北湖,颗粒物(PM10),66,82,61,41,35,137,4,44,16,49,35,14,15,0.9,0.8
2023-10-17T07:00:00,1403A,108.3206,22.8225,南宁市,市监测站,细颗粒物(PM2.5),74,77,57,54,36,139,3,72,26,57,43,14,18,1.2,1
2023-10-17T07:00:00,1404A,108.3829,22.8037,南宁市,大自然花园,细颗粒物(PM2.5),62,53,46,44,32,116,14,66,55,54,32,17,13,0.7,0.7
2023-10-17T07:00:00,1405A,108.4394,22.7904,南宁市,仙葫,,,,50,38,42,134,,26,17,45,42,,19,,0.7
2023-10-17T07:00:00,1406A,108.2397,22.8467,南宁市,区农职院,颗粒物(PM10),51,52,51,32,29,135,18,48,34,40,30,22,16,0.7,0.6
2023-10-17T07:00:00,1407A,108.3275,22.735,南宁市,英华嘉园,细颗粒物(PM2.5),69,76,55,50,35,128,33,22,21,35,36,20,12,0.8,0.7
2023-10-17T07:00:00,1408A,108.2257,22.7757,南宁市,沙井镇街道办,颗粒物(PM10),60,69,68,42,42,139,6,7,7,40,42,8,12,0.9,0.7
2023-10-17T07:00:00,1409A,110.576,19.9507,海口市,东寨港,,,,,,,,,,,,,,,,
2023-10-17T07:00:00,1410A,110.3232,20.0574,海口市,海南大学,,45,45,50,18,31,175,125,131,129,6,9,7,7,0.5,0.6
2023-10-17T07:00:00,1411A,110.283,20.0053,海口市,秀英海南医院,,41,41,48,17,29,170,125,134,130,5,8,7,8,0.4,0.6
2023-10-17T07:00:00,1412A,110.338,19.9969,海口市,海南师范大学,,39,38,47,16,29,172,122,131,127,6,10,6,6,0.4,0.5
2023-10-17T07:00:00,1413A,110.33,20.0356,海口市,龙华路环保局宿舍,,40,40,46,16,29,172,122,131,127,7,10,8,9,0.3,0.5
2023-10-17T07:00:00,1414A,106.3787,29.8279,重庆市,缙云山,细颗粒物(PM2.5),65,78,45,47,26,115,28,95,54,36,15,9,8,0.5,0.3
2023-10-17T07:00:00,1416A,106.4213,29.8253,重庆市,天生,细颗粒物(PM2.5),78,69,65,57,46,113,2,35,17,37,27,8,10,1.0,1
2023-10-17T07:00:00,1417A,106.6263,29.7228,重庆市,两路,细颗粒物(PM2.5),74,61,60,54,40,135,11,2,2,40,46,7,8,1.0,1
2023-10-17T07:00:00,1418A,106.2953,29.5983,重庆市,虎溪,细颗粒物(PM2.5),55,56,59,39,45,104,6,46,27,40,33,6,9,0.7,0.7
2023-10-17T07:00:00,1419A,106.5777,29.5102,重庆市,南坪,细颗粒物(PM2.5),128,123,83,97,56,116,20,50,38,32,39,9,11,0.9,0.9
2023-10-17T07:00:00,1420A,106.6556,29.6277,重庆市,唐家沱,颗粒物(PM10),63,75,70,25,32,151,3,4,3,35,45,6,8,0.9,0.9
2023-10-17T07:00:00,1421A,106.6349,29.4906,重庆市,茶园,细颗粒物(PM2.5),94,100,73,70,44,155,21,41,35,46,46,6,9,1.0,1
2023-10-17T07:00:00,1422A,106.3754,29.4572,重庆市,白市驿,细颗粒物(PM2.5),87,118,87,64,52,126,18,32,28,28,33,9,11,0.9,0.9
2023-10-17T07:00:00,1425A,106.6205,29.7166,重庆市,空港,,48,47,62,33,43,140,14,12,8,52,47,7,8,0.9,0.9
2023-10-17T07:00:00,1426A,106.4782,29.4875,重庆市,新山村,细颗粒物(PM2.5),140,126,89,107,58,144,11,18,17,45,53,14,12,1.2,1.1
2023-10-17T07:00:00,1427A,106.5616,29.6453,重庆市,礼嘉,细颗粒物(PM2.5),89,106,73,66,47,136,5,6,5,54,48,10,12,1.1,1
2023-10-17T07:00:00,1428A,106.4522,29.7091,重庆市,蔡家,颗粒物(PM10),78,106,76,56,41,110,8,16,12,31,40,6,8,0.9,0.8
2023-10-17T07:00:00,1429A,106.5093,29.3917,重庆市,鱼新街,细颗粒物(PM2.5),117,115,84,88,63,160,10,41,26,43,47,12,15,1.4,1.2
2023-10-17T07:00:00,1431A,103.9728,30.7236,成都市,金泉两河,细颗粒物(PM2.5),70,57,64,51,49,85,17,50,33,20,23,2,3,0.6,0.6
2023-10-17T07:00:00,1432A,104.176,30.6872,成都市,十里店,细颗粒物(PM2.5),59,56,58,42,43,92,26,30,28,28,33,3,2,0.6,0.7
2023-10-17T07:00:00,1433A,104.079,30.5706,成都市,三瓦窑,细颗粒物(PM2.5),68,60,72,49,46,85,27,20,20,21,28,1,2,0.5,0.6
2023-10-17T07:00:00,1434A,104.1114,30.63,成都市,沙河铺,细颗粒物(PM2.5),80,78,66,59,48,75,28,23,23,22,31,1,1,0.7,0.8
2023-10-17T07:00:00,1437A,104.0786,30.6531,成都市,君平街,细颗粒物(PM2.5),82,62,68,60,51,96,28,25,25,30,43,5,6,0.7,0.9
2023-10-17T07:00:00,1438A,103.613,31.0283,成都市,灵岩寺,,21,18,37,12,25,104,66,95,77,10,12,6,8,0.8,0.8
2023-10-17T07:00:00,1439A,106.6899,26.5998,贵阳市,马鞍山,,28,24,24,19,14,121,10,12,10,15,18,4,4,0.6,0.6
2023-10-17T07:00:00,1440A,106.6971,26.5694,贵阳市,市环保站,细颗粒物(PM2.5),57,56,47,40,30,119,6,10,7,37,42,5,5,0.4,0.4
2023-10-17T07:00:00,1441A,106.6243,26.6266,贵阳市,鉴湖路,,28,27,31,19,17,116,77,69,69,9,18,6,5,0.2,0.2
2023-10-17T07:00:00,1442A,106.7487,26.6343,贵阳市,燕子冲,,41,41,28,24,19,122,7,39,20,26,20,5,6,0.4,0.4
2023-10-17T07:00:00,1443A,106.6555,26.4365,贵阳市,碧云窝,,41,41,41,27,22,112,5,16,9,14,11,5,6,0.5,0.4
2023-10-17T07:00:00,1444A,106.694,26.5161,贵阳市,中院村,颗粒物(PM10),59,68,64,36,34,102,7,8,7,31,38,13,12,0.6,0.5
2023-10-17T07:00:00,1445A,106.7109,26.6027,贵阳市,红边门,,48,48,45,29,26,115,3,12,9,37,37,4,5,0.6,0.6
2023-10-17T07:00:00,1446A,106.7164,26.5699,贵阳市,新华路,,44,44,36,27,22,117,14,11,11,34,37,8,5,0.4,0.5
2023-10-17T07:00:00,1447A,106.674,26.5424,贵阳市,太慈桥,,31,31,29,17,19,111,8,10,10,13,21,3,4,0.4,0.4
2023-10-17T07:00:00,1450A,102.8204,24.8886,昆明市,呈贡新区,,33,33,28,16,17,108,10,25,9,34,27,4,5,0.9,0.8
2023-10-17T07:00:00,1451A,102.6251,24.9608,昆明市,西山森林公园,,29,16,16,20,13,121,59,76,67,6,7,12,8,0.5,0.5
2023-10-17T07:00:00,1452A,102.7252,25.0902,昆明市,龙泉镇,,28,28,31,18,15,99,5,8,4,20,25,8,9,1.0,0.7
2023-10-17T07:00:00,1453A,102.7266,25.0375,昆明市,东风东路,,30,30,28,18,18,102,1,41,29,37,22,8,9,1.0,0.8
2023-10-17T07:00:00,1454A,102.6742,25.0669,昆明市,金鼎山,,33,33,37,18,15,101,4,41,18,33,22,16,15,0.9,0.5
2023-10-17T07:00:00,1455A,102.6644,25.0401,昆明市,碧鸡广场,,35,21,28,24,28,96,14,32,20,24,20,7,8,0.7,0.7
2023-10-17T07:00:00,1456A,91.1319,29.6514,拉萨市,八廓街,,15,8,20,6,12,105,46,44,44,16,25,17,13,0.2,0.3
2023-10-17T07:00:00,1457A,91.1221,29.6747,拉萨市,市环保局,,27,27,26,10,10,102,43,77,59,19,23,12,9,0.6,0.6
2023-10-17T07:00:00,1458A,91.0874,29.6475,拉萨市,区监测站,,14,14,13,6,7,91,42,84,70,20,18,11,9,0.4,0.4
2023-10-17T07:00:00,1459A,91.1774,29.6541,拉萨市,西藏大学,,16,8,14,6,8,104,51,69,57,13,20,16,12,0.4,0.5
2023-10-17T07:00:00,1460A,90.9798,29.6588,拉萨市,区辐射站,,25,25,25,7,9,92,27,87,63,35,22,6,6,0.4,0.4
2023-10-17T07:00:00,1461A,91.0834,29.6292,拉萨市,拉萨火车站,,19,7,15,8,7,94,59,78,72,14,13,7,7,0.4,0.5
2023-10-17T07:00:00,1462A,108.882,34.2749,西安市,高压开关厂,颗粒物(PM10),93,135,133,67,62,152,21,10,10,59,80,9,11,0.9,1
2023-10-17T07:00:00,1463A,108.993,34.2629,西安市,兴庆小区,细颗粒物(PM2.5),74,74,94,54,48,153,50,29,29,37,59,9,11,0.6,0.8
2023-10-17T07:00:00,1464A,109.06,34.2572,西安市,纺织城,细颗粒物(PM2.5),93,119,104,69,58,152,6,7,7,67,59,6,9,0.9,0.9
2023-10-17T07:00:00,1465A,108.9356,34.2173,西安市,小寨,颗粒物(PM10),78,105,90,52,49,144,1,4,2,62,73,9,10,0.9,1
2023-10-17T07:00:00,1466A,108.954,34.2713,西安市,市人民体育场,细颗粒物(PM2.5),90,92,103,67,71,154,28,13,13,54,65,7,9,0.7,0.8
2023-10-17T07:00:00,1467A,108.8922,34.2322,西安市,高新西区,细颗粒物(PM2.5),87,95,92,64,55,152,7,8,7,65,74,8,8,0.8,0.9
2023-10-17T07:00:00,1468A,108.935,34.3474,西安市,经开区,细颗粒物(PM2.5),80,84,101,59,66,153,75,52,52,22,60,8,9,0.7,0.8
2023-10-17T07:00:00,1469A,108.906,34.1546,西安市,长安区,颗粒物(PM10),60,70,81,35,44,136,4,4,4,43,56,6,7,0.6,0.6
2023-10-17T07:00:00,1471A,109.2186,34.3731,西安市,临潼区,细颗粒物(PM2.5),88,124,114,65,63,144,30,36,35,45,45,8,11,0.8,0.9
2023-10-17T07:00:00,1472A,108.869,34.378,西安市,草滩,颗粒物(PM10),80,110,134,46,58,172,78,42,42,33,60,11,11,0.7,0.8
2023-10-17T07:00:00,1473A,108.985,34.1978,西安市,曲江文化产业集团,颗粒物(PM10),73,96,105,50,54,138,1,1,1,56,70,5,7,0.6,0.8
2023-10-17T07:00:00,1474A,109.051,34.3213,西安市,广运潭,细颗粒物(PM2.5),88,101,111,65,65,138,59,42,42,27,52,9,12,0.8,0.8
2023-10-17T07:00:00,1476A,103.631,36.1031,兰州市,兰炼宾馆,,49,35,64,34,39,115,81,38,38,16,49,4,12,0.3,0.7
2023-10-17T07:00:00,1477A,104.1373,35.9454,兰州市,榆中兰大校区,,,,,,,,,,,,,,,,
2023-10-17T07:00:00,1478A,103.8412,36.0726,兰州市,生物制品所,细颗粒物(PM2.5),52,35,54,36,35,88,72,24,24,18,40,5,10,0.8,1
2023-10-17T07:00:00,1479A,103.831,36.0464,兰州市,铁路设计院,,42,30,59,29,32,91,78,24,24,18,54,6,10,0.4,1
2023-10-17T07:00:00,1483A,101.524,36.6867,西宁市,第五水厂,,,,,,,,,,,,,,,,
2023-10-17T07:00:00,1484A,105.9512,38.6016,银川市,贺兰山马莲口,,29,18,37,7,23,156,92,102,100,9,16,5,16,0.4,0.6
2023-10-17T07:00:00,1488A,106.2328,38.4975,银川市,贺兰山东路,细颗粒物(PM2.5),88,105,77,65,42,121,29,19,19,58,58,21,11,1.1,0.7
2023-10-17T07:00:00,1489A,106.1358,38.5036,银川市,学院路,,48,35,46,33,34,112,8,38,28,58,47,9,11,0.7,0.8
2023-10-17T07:00:00,1490A,87.5801,43.8303,乌鲁木齐市,监测站,,38,38,30,20,10,70,0,38,23,55,33,4,5,0.4,0.6
2023-10-17T07:00:00,1491A,87.6046,43.768,乌鲁木齐市,收费所,,34,34,32,14,14,65,4,47,34,47,29,2,3,0.3,0.4
2023-10-17T07:00:00,1492A,87.4754,43.9469,乌鲁木齐市,新疆农科院农场,,,,52,34,19,64,1,29,9,52,30,3,2,0.4,0.4
2023-10-17T07:00:00,1493A,87.5525,43.8711,乌鲁木齐市,铁路局,,50,50,34,14,13,72,0,32,16,52,33,4,4,0.4,0.4
2023-10-17T07:00:00,1494A,87.6432,43.831,乌鲁木齐市,三十一中学,,26,26,30,12,11,62,5,45,33,50,25,5,6,0.5,0.4
2023-10-17T07:00:00,1496A,87.7216,44.1747,乌鲁木齐市,米东区环保局,,11,11,38,6,13,75,33,50,44,7,12,2,3,0.2,0.3
2023-10-17T07:00:00,1508A,112.9433,27.8614,湘潭市,板塘,细颗粒物(PM2.5),62,70,65,44,35,164,15,60,25,68,42,15,15,0.7,0.7
2023-10-17T07:00:00,1511A,112.9118,27.8403,湘潭市,市监测站,细颗粒物(PM2.5),78,78,84,57,49,175,4,4,4,45,44,6,8,0.8,0.7
2023-10-17T07:00:00,1512A,112.8937,27.8728,湘潭市,江麓,颗粒物(PM10),65,79,74,43,44,171,26,19,19,48,44,9,10,1.0,1.1
2023-10-17T07:00:00,1513A,112.9227,27.8159,湘潭市,岳塘,细颗粒物(PM2.5),88,102,80,65,48,170,0,35,12,45,40,12,11,0.6,0.6
2023-10-17T07:00:00,1514A,112.9074,27.9119,湘潭市,科大,细颗粒物(PM2.5),58,58,65,41,39,173,57,46,46,32,39,12,12,0.8,0.8
2023-10-17T07:00:00,1515A,113.135,27.8244,株洲市,天台山庄,颗粒物(PM10),58,65,61,38,35,162,60,57,57,36,34,12,11,0.6,0.7
2023-10-17T07:00:00,1518A,113.095,27.8867,株洲市,株冶医院,颗粒物(PM10),56,62,59,37,39,157,66,100,72,31,36,10,11,0.7,0.6
2023-10-17T07:00:00,1519A,113.167,27.8667,株洲市,市四中,颗粒物(PM10),60,70,68,39,38,161,46,100,74,33,31,7,8,0.7,0.7
2023-10-17T07:00:00,1520A,113.143,27.8381,株洲市,火车站,颗粒物(PM10),60,70,73,38,43,162,60,36,36,30,40,9,10,0.6,0.9
2023-10-17T07:00:00,1524A,113.13,27.8528,株洲市,市监测站,细颗粒物(PM2.5),63,66,61,45,43,166,63,76,74,29,32,12,10,0.8,0.8
2023-10-17T07:00:00,1552A,106.805,26.3003,贵阳市,桐木岭,,,,,,,,,,,,,,,,
2023-10-17T07:00:00,1559A,113.251,27.8336,株洲市,大京风景区,,32,31,30,22,24,161,35,62,52,6,7,4,6,0.5,0.6
2023-10-17T07:00:00,1562A,113.0048,27.9153,湘潭市,昭山,颗粒物(PM10),52,53,61,33,34,160,46,83,52,56,48,10,9,0.4,0.5
2023-10-17T07:00:00,1564A,112.4876,27.9164,湘潭市,韶山,,49,49,63,34,33,195,46,67,62,17,18,7,10,0.6,0.6
2023-10-17T07:00:00,1585A,109.8756,40.6532,包头市,市环境监测站,颗粒物(PM10),60,69,78,37,37,116,11,10,10,74,75,38,23,1.1,0.9
2023-10-17T07:00:00,1587A,109.9991,40.5842,包头市,包头八中,细颗粒物(PM2.5),89,109,97,66,43,120,16,17,15,76,54,65,38,1.4,1
2023-10-17T07:00:00,1588A,109.8538,40.6821,包头市,青山宾馆,"颗粒物(PM10),细颗粒物(PM2.5)",57,64,74,40,35,120,5,5,5,70,69,17,20,0.9,0.9
2023-10-17T07:00:00,1589A,109.8642,40.6288,包头市,惠龙物流,细颗粒物(PM2.5),69,82,80,50,39,117,12,11,11,74,62,53,25,1.0,0.8
2023-10-17T07:00:00,1590A,110.0377,40.5546,包头市,东河鸿龙湾,颗粒物(PM10),71,91,80,33,36,122,22,21,21,68,54,49,30,0.7,0.7
2023-10-17T07:00:00,1591A,110.0023,39.8129,鄂尔多斯市,综合楼,颗粒物(PM10),67,83,70,36,20,131,40,74,62,55,39,37,19,1.0,0.7
2023-10-17T07:00:00,1592A,109.9486,39.8261,鄂尔多斯市,巴音孟克林场办事处,细颗粒物(PM2.5),73,90,59,53,26,132,41,76,67,61,40,47,24,1.3,0.7
2023-10-17T07:00:00,1593A,109.7736,39.5986,鄂尔多斯市,康泽苑,,41,41,44,21,18,134,17,25,22,50,38,6,8,0.5,0.5
2023-10-17T07:00:00,1594A,109.8119,39.5989,鄂尔多斯市,华泰汽车城,颗粒物(PM10),57,63,45,27,17,131,7,19,15,59,40,6,7,0.6,0.5
2023-10-17T07:00:00,1595A,109.9734,39.7884,鄂尔多斯市,奥林花园,颗粒物(PM10),74,97,71,46,24,130,25,38,29,63,41,31,13,1.0,0.7
2023-10-17T07:00:00,1597A,122.2703,40.7094,营口市,大庆路,,43,43,41,16,16,75,28,16,16,33,33,13,9,0.8,0.7
2023-10-17T07:00:00,1598A,122.2150,40.6511,营口市,镜湖西路,,38,38,40,16,19,72,29,19,19,39,40,16,10,1.1,1
2023-10-17T07:00:00,1599A,122.1658,40.6789,营口市,西炮台,,42,42,43,22,24,77,19,16,16,43,44,20,12,0.8,0.6
2023-10-17T07:00:00,1600A,124.3303,40.0625,丹东市,江湾东路,颗粒物(PM10),56,62,37,37,18,78,10,35,21,32,20,10,9,1.4,0.8
2023-10-17T07:00:00,1601A,124.4256,40.1503,丹东市,临江后街,,44,44,35,19,13,80,14,33,22,38,25,12,9,0.7,0.6
2023-10-17T07:00:00,1602A,124.3933,40.1461,丹东市,元宝山,,33,33,27,17,12,71,25,39,31,26,18,11,12,0.8,0.7
2023-10-17T07:00:00,1603A,124.3633,40.1092,丹东市,民主桥,,35,35,34,15,11,71,21,37,33,40,24,9,9,0.7,0.6
2023-10-17T07:00:00,1604A,122.0303,41.1489,盘锦市,开发区,颗粒物(PM10),53,56,34,33,19,78,15,38,17,64,46,32,14,2.0,0.9
2023-10-17T07:00:00,1605A,122.0485,41.0883,盘锦市,兴隆台,颗粒物(PM10),64,77,36,36,15,76,12,20,10,53,45,27,13,2.0,0.7
2023-10-17T07:00:00,1606A,121.8297,41.1028,盘锦市,新生街道,,48,48,22,30,12,76,21,21,11,35,34,18,10,1.2,0.5
2023-10-17T07:00:00,1607A,120.9092,40.7136,葫芦岛市,龙港区,,46,46,27,29,11,74,5,4,4,41,28,14,13,0.7,0.4
2023-10-17T07:00:00,1608A,120.8392,40.7514,葫芦岛市,化工街,颗粒物(PM10),57,63,46,24,17,77,8,7,7,38,31,14,11,0.9,0.6
2023-10-17T07:00:00,1609A,120.8341,40.7073,葫芦岛市,新区,颗粒物(PM10),53,56,35,35,18,73,6,6,6,69,38,9,10,1.1,0.8
2023-10-17T07:00:00,1610A,120.8695,40.7677,葫芦岛市,东城区,颗粒物(PM10),52,54,38,21,14,77,2,2,2,34,30,16,15,0.9,0.7
2023-10-17T07:00:00,1611A,118.5819,24.9117,泉州市,涂山街,,49,49,46,24,21,175,113,136,131,16,12,4,5,0.7,0.7
2023-10-17T07:00:00,1612A,118.5972,24.8978,泉州市,津头埔,,47,47,45,26,25,174,114,141,126,19,19,3,3,0.7,0.7
2023-10-17T07:00:00,1613A,118.6663,24.9424,泉州市,万安,,44,44,48,24,24,185,128,144,140,26,18,3,3,0.6,0.6
2023-10-17T07:00:00,1614A,118.6117,24.9604,泉州市,清源山,,,,,,,,,,,,,,,,
2023-10-17T07:00:00,1616A,117.6795,36.229,济南市,技术学院,颗粒物(PM10),65,80,66,33,27,137,35,71,53,50,35,8,10,0.7,0.7
2023-10-17T07:00:00,1618A,118.3429,35.0532,临沂市,沂河小区,颗粒物(PM10),56,61,56,26,23,133,27,79,51,45,25,10,16,0.4,0.3
2023-10-17T07:00:00,1619A,118.295,35.0583,临沂市,鲁南制药厂,颗粒物(PM10),51,51,56,20,18,153,47,73,57,36,21,77,18,0.5,0.5
2023-10-17T07:00:00,1620A,118.2794,34.9976,临沂市,新光毛纺厂,颗粒物(PM10),54,58,56,27,25,139,35,53,46,50,27,128,24,0.7,0.6
2023-10-17T07:00:00,1621A,118.3956,35.0888,临沂市,河东保险公司,颗粒物(PM10),60,70,55,37,20,135,4,48,24,54,30,4,5,0.7,0.6
2023-10-17T07:00:00,1622A,116.3032,37.4674,德州市,儿童乐园,颗粒物(PM10),93,136,84,63,26,117,22,38,22,68,48,24,14,1.0,0.7
2023-10-17T07:00:00,1624A,116.2991,37.4451,德州市,监理站,颗粒物(PM10),79,107,71,51,20,116,6,41,17,71,38,24,17,0.9,0.6
2023-10-17T07:00:00,1625A,115.9848,36.4372,聊城市,区政府,颗粒物(PM10),84,118,141,58,79,156,52,27,27,28,53,14,9,0.8,1.2
2023-10-17T07:00:00,1628A,118.0062,37.3803,滨州市,市环保局,颗粒物(PM10),69,88,53,46,19,102,8,33,16,63,31,19,18,1.4,1
2023-10-17T07:00:00,1629A,118.0018,37.3617,滨州市,第二水厂,颗粒物(PM10),67,83,58,41,20,100,6,24,11,58,35,14,15,1.1,0.8
2023-10-17T07:00:00,1630A,117.9776,37.393,滨州市,北中新校,颗粒物(PM10),68,85,56,35,18,111,4,40,17,68,37,9,14,0.8,0.5
2023-10-17T07:00:00,1631A,118.0414,36.8103,淄博市,人民公园,颗粒物(PM10),79,107,71,48,26,117,24,24,23,58,41,6,8,1.4,0.7
2023-10-17T07:00:00,1633A,117.8525,36.4847,淄博市,双山,颗粒物(PM10),63,75,68,38,33,133,54,97,75,38,30,6,6,1.3,0.7
2023-10-17T07:00:00,1634A,117.9592,36.6331,淄博市,气象站,细颗粒物(PM2.5),64,67,70,46,36,122,85,76,76,22,35,8,11,0.7,0.5
2023-10-17T07:00:00,1635A,118.3092,36.8194,淄博市,莆田园,颗粒物(PM10),84,117,82,44,27,103,41,22,22,52,45,15,10,1.9,1.1
2023-10-17T07:00:00,1637A,117.558,34.8438,枣庄市,市中区政府,颗粒物(PM10),58,66,88,22,33,165,51,50,50,36,37,16,16,0.6,0.6
2023-10-17T07:00:00,1638A,117.2852,34.7837,枣庄市,薛城环保局,颗粒物(PM10),57,63,94,34,40,178,51,65,61,39,35,9,13,0.8,0.8
2023-10-17T07:00:00,1639A,117.5852,34.7745,枣庄市,峄城区政府,颗粒物(PM10),63,75,79,17,23,179,35,74,64,32,23,8,13,0.6,0.6
2023-10-17T07:00:00,1640A,117.7276,34.5578,枣庄市,台儿庄区环保局,颗粒物(PM10),58,66,69,39,32,179,26,53,37,39,33,9,9,0.6,0.7
2023-10-17T07:00:00,1641A,117.4518,35.0992,枣庄市,山亭区环保局,,44,44,70,24,30,183,91,94,93,16,22,8,8,0.8,0.8
2023-10-17T07:00:00,1642A,121.2514,37.5639,烟台市,开发区,,48,48,29,14,7,87,2,31,9,45,21,8,8,0.7,0.5
2023-10-17T07:00:00,1643A,121.3719,37.5433,烟台市,轴承厂,,31,31,28,13,9,88,33,57,48,34,16,6,6,0.3,0.2
2023-10-17T07:00:00,1644A,121.3181,37.5436,烟台市,西郊化工站,,41,41,31,18,10,87,12,56,43,37,23,4,5,0.4,0.3
2023-10-17T07:00:00,1645A,121.4478,37.4822,烟台市,莱山环保局,,31,31,23,12,6,88,20,78,37,25,11,6,7,0.5,0.4
2023-10-17T07:00:00,1646A,121.2611,37.4967,烟台市,福山环保局,,48,48,34,9,9,88,5,16,12,40,25,6,6,0.5,0.4
2023-10-17T07:00:00,1650A,119.1437,36.7023,潍坊市,环保局,颗粒物(PM10),58,66,52,33,18,105,24,41,34,48,35,8,8,0.9,0.6
2023-10-17T07:00:00,1653A,116.6251,35.4302,济宁市,火炬城,,47,47,96,17,53,191,54,57,57,23,35,14,16,0.5,0.6
2023-10-17T07:00:00,1655A,116.5491,35.4042,济宁市,电化厂,颗粒物(PM10),58,66,120,24,59,204,48,62,57,28,33,10,13,0.6,0.8
2023-10-17T07:00:00,1656A,117.1437,36.1937,泰安市,监测站,颗粒物(PM10),65,80,79,45,40,154,65,83,68,23,24,10,12,0.8,0.9
2023-10-17T07:00:00,1657A,117.0885,36.2017,泰安市,人口学校,颗粒物(PM10),62,73,79,37,37,155,68,106,85,28,22,8,10,0.7,0.8
2023-10-17T07:00:00,1658A,117.1089,36.1758,泰安市,电力学校,颗粒物(PM10),68,85,85,39,38,147,35,73,57,37,24,9,11,0.6,0.6
2023-10-17T07:00:00,1659A,119.471,35.4209,日照市,监测站,,41,41,39,17,14,94,4,4,4,42,38,8,9,0.8,0.7
2023-10-17T07:00:00,1660A,119.523,35.4216,日照市,市政府广场,,34,34,37,12,12,105,4,4,4,48,41,5,5,0.6,0.6
2023-10-17T07:00:00,1661A,119.5587,35.4044,日照市,港务局,,46,46,41,17,15,104,3,2,2,61,47,9,8,0.9,0.8
2023-10-17T07:00:00,1662A,122.1214,37.4236,威海市,华夏技校,,19,9,14,4,2,84,60,71,62,11,9,4,3,0.4,0.3
2023-10-17T07:00:00,1663A,122.0508,37.5236,威海市,山大分校,,29,29,18,7,3,90,60,76,65,16,5,7,4,0.4,0.3
2023-10-17T07:00:00,1664A,122.1067,37.5072,威海市,市监测站,,29,29,20,7,3,82,49,68,57,22,9,9,7,0.6,0.4
2023-10-17T07:00:00,1666A,118.6614,37.4309,东营市,市环保局,颗粒物(PM10),59,68,35,29,10,110,21,59,47,48,19,26,10,0.9,0.4
2023-10-17T07:00:00,1669A,113.5824,24.7733,韶关市,市八中,,40,38,40,28,26,141,19,49,34,41,21,21,17,0.6,0.6
2023-10-17T07:00:00,1671A,113.5917,24.7972,韶关市,园林处,细颗粒物(PM2.5),52,33,41,36,30,138,28,39,28,27,18,27,24,0.5,0.5
2023-10-17T07:00:00,1672A,113.6735,24.7791,韶关市,韶关学院,,49,37,43,34,32,140,9,38,21,19,18,10,11,0.6,0.6
2023-10-17T07:00:00,1673A,113.5971,24.6863,韶关市,曲江监测站,颗粒物(PM10),55,59,45,28,26,143,17,33,23,30,21,11,12,0.6,0.5
2023-10-17T07:00:00,1674A,116.6794,23.3667,汕头市,金平子站,,35,35,43,20,23,186,102,152,126,25,15,17,8,1.0,0.9
2023-10-17T07:00:00,1675A,116.7244,23.3633,汕头市,龙湖子站,,37,34,43,18,22,182,116,150,131,18,15,9,7,0.6,0.7
2023-10-17T07:00:00,1676A,116.7258,23.2775,汕头市,濠江子站,,45,32,40,14,19,183,142,152,145,9,9,9,9,0.5,0.6
2023-10-17T07:00:00,1677A,116.7519,23.4714,汕头市,澄海子站,,41,41,48,20,25,185,106,131,118,24,17,34,15,0.5,0.6
2023-10-17T07:00:00,1678A,116.6092,23.2539,汕头市,潮阳子站,,44,28,45,15,21,186,138,156,145,7,8,9,9,0.4,0.5
2023-10-17T07:00:00,1680A,110.3539,21.2706,湛江市,湛江影剧院,细颗粒物(PM2.5),55,55,56,39,34,171,99,161,127,18,14,26,15,0.8,0.8
2023-10-17T07:00:00,1681A,110.3928,21.2228,湛江市,市环境监测站,细颗粒物(PM2.5),58,57,51,41,38,169,100,157,132,16,12,34,13,0.7,0.7
2023-10-17T07:00:00,1682A,110.4019,21.1997,湛江市,环保局宿舍,细颗粒物(PM2.5),57,54,51,40,37,176,109,160,141,20,16,15,5,0.8,0.8
2023-10-17T07:00:00,1683A,110.4111,21.2028,湛江市,霞山游泳场,细颗粒物(PM2.5),62,66,55,44,38,182,111,152,137,16,13,23,7,0.7,0.7
2023-10-17T07:00:00,1684A,110.3316,21.2679,湛江市,麻章区环保局,"颗粒物(PM10),细颗粒物(PM2.5)",60,69,59,43,39,175,76,170,118,29,16,19,9,0.8,0.8
2023-10-17T07:00:00,1685A,110.4558,21.2567,湛江市,坡头区环保局,细颗粒物(PM2.5),67,64,50,48,39,177,99,158,130,20,13,28,12,0.8,0.8
2023-10-17T07:00:00,1686A,111.0286,21.4688,茂名市,电白南海,颗粒物(PM10),62,73,64,36,38,169,82,153,107,22,15,15,10,0.8,0.8
2023-10-17T07:00:00,1687A,110.9294,21.6533,茂名市,茂石化七小,,44,44,56,29,33,156,98,155,130,13,14,9,11,0.6,0.7
2023-10-17T07:00:00,1688A,110.9107,21.6687,茂名市,健康路,,48,48,48,29,32,159,90,159,133,20,13,28,17,0.6,0.7
2023-10-17T07:00:00,1689A,110.8592,21.6828,茂名市,高岭,细颗粒物(PM2.5),67,63,62,48,41,155,75,152,112,22,16,14,15,1.3,0.7
2023-10-17T07:00:00,1690A,116.1231,24.3284,梅州市,梅江月梅,,46,46,42,23,23,139,32,35,35,44,29,8,7,0.7,0.7
2023-10-17T07:00:00,1691A,116.0797,24.2719,梅州市,梅县新城,,47,47,45,29,25,133,57,47,47,32,26,10,9,0.8,0.8
2023-10-17T07:00:00,1692A,116.1248,24.2654,梅州市,环境监控中心,,42,42,45,26,25,117,71,67,67,18,25,11,10,0.7,0.8
2023-10-17T07:00:00,1693A,115.3653,22.775,汕尾市,市环保局,,46,40,44,32,30,160,125,145,128,9,8,12,12,0.6,0.6
2023-10-17T07:00:00,1694A,115.3706,22.7898,汕尾市,市政府,,40,39,45,24,28,166,127,145,129,9,10,8,9,0.4,0.5
2023-10-17T07:00:00,1695A,115.3622,22.7925,汕尾市,新城中学,,42,42,49,25,32,155,121,134,124,7,8,10,10,0.6,0.7
2023-10-17T07:00:00,1696A,114.6778,23.7569,河源市,源西,,46,43,44,32,26,127,19,52,40,45,27,10,7,0.7,0.8
2023-10-17T07:00:00,1697A,114.6944,23.7586,河源市,东埔,,49,42,43,34,26,124,41,70,47,20,19,10,8,0.7,0.7
2023-10-17T07:00:00,1698A,114.6892,23.7233,河源市,老城,,43,38,43,30,28,124,22,48,28,18,16,6,6,0.7,0.7
2023-10-17T07:00:00,1699A,111.9797,21.8593,阳江市,鸳鸯湖,细颗粒物(PM2.5),59,66,59,42,42,197,42,123,71,34,21,17,16,0.8,0.9
2023-10-17T07:00:00,1701A,111.9491,21.8658,阳江市,马南垌,细颗粒物(PM2.5),63,64,65,45,38,181,50,133,72,33,24,10,11,0.7,0.7
2023-10-17T07:00:00,1702A,113.0426,23.691,清远市,环保大楼,,36,36,35,25,25,145,86,101,92,18,14,13,12,0.9,0.9
2023-10-17T07:00:00,1703A,113.0208,23.7106,清远市,凤城街办,细颗粒物(PM2.5),58,46,40,41,27,146,35,92,66,50,20,15,11,0.8,0.7
2023-10-17T07:00:00,1705A,116.6367,23.6719,潮州市,西园路,,41,41,48,24,28,182,58,105,78,15,14,4,5,0.5,0.5
2023-10-17T07:00:00,1706A,116.6447,23.6706,潮州市,档案局,,43,43,45,30,25,193,60,84,69,13,12,4,6,0.6,0.7
2023-10-17T07:00:00,1708A,116.3701,23.5345,揭阳市,新兴,细颗粒物(PM2.5),70,65,55,51,36,168,63,110,87,42,20,46,17,0.7,0.7
2023-10-17T07:00:00,1709A,116.3264,23.5443,揭阳市,西马,细颗粒物(PM2.5),63,58,57,45,34,173,37,123,78,38,16,12,11,0.7,0.7
2023-10-17T07:00:00,1710A,116.3611,23.5626,揭阳市,东兴,细颗粒物(PM2.5),59,65,56,42,29,172,57,112,91,29,16,16,11,0.8,0.8
2023-10-17T07:00:00,1711A,116.4151,23.5294,揭阳市,渔湖,细颗粒物(PM2.5),59,63,58,42,32,172,56,102,71,36,24,39,19,0.7,0.7
2023-10-17T07:00:00,1712A,112.0392,22.9169,云浮市,新市府,,38,35,39,26,26,145,33,63,50,14,13,6,8,1.0,1
2023-10-17T07:00:00,1714A,112.0539,22.9539,云浮市,牧羊,,50,50,49,28,27,155,10,24,16,50,35,41,12,0.7,0.7
2023-10-17T07:00:00,1715A,102.575,24.3711,玉溪市,东风水库,,23,18,25,16,17,94,6,23,12,14,13,5,7,1.1,1
2023-10-17T07:00:00,1718A,115.4208,35.2464,菏泽市,气象局,细颗粒物(PM2.5),144,160,169,110,100,167,39,44,43,49,50,6,10,0.7,0.7
2023-10-17T07:00:00,1719A,115.4747,35.2375,菏泽市,市政协,细颗粒物(PM2.5),130,157,167,99,102,148,14,32,27,59,53,5,9,0.7,0.7
2023-10-17T07:00:00,1721A,113.3819,40.1097,大同市,果树场,,,,,,,,,,,,,,,,
2023-10-17T07:00:00,1723A,113.2994,40.0758,大同市,云冈宾馆,颗粒物(PM10),83,116,108,40,40,99,3,1,1,52,56,14,16,0.9,1
2023-10-17T07:00:00,1724A,113.3444,40.0917,大同市,大同大学,颗粒物(PM10),81,112,92,50,36,102,19,17,16,51,46,29,18,0.9,0.9
2023-10-17T07:00:00,1725A,113.2661,40.1269,大同市,安家小村,颗粒物(PM10),95,140,83,56,36,119,6,50,31,48,33,22,20,1.5,0.7
2023-10-17T07:00:00,1726A,113.2711,40.0844,大同市,教育学院,颗粒物(PM10),110,169,134,62,54,104,6,7,6,64,66,22,17,2.4,1.4
2023-10-17T07:00:00,1727A,113.1147,36.1547,长治市,清华站,细颗粒物(PM2.5),83,107,93,61,64,162,32,89,57,50,33,8,11,0.7,0.9
2023-10-17T07:00:00,1728A,113.1031,36.1989,长治市,监测站,细颗粒物(PM2.5),119,107,86,90,68,165,2,63,42,66,38,8,11,1.4,1.3
2023-10-17T07:00:00,1730A,113.0886,36.2125,长治市,审计局,细颗粒物(PM2.5),147,113,90,112,77,163,1,89,44,58,32,9,13,1.2,1.2
2023-10-17T07:00:00,1731A,113.0844,36.1856,长治市,长治八中,颗粒物(PM10),95,140,105,66,63,169,1,68,32,68,37,13,16,1.0,0.9
2023-10-17T07:00:00,1733A,111.5531,36.0783,临汾市,临钢医院,颗粒物(PM10),71,92,101,44,42,153,5,44,28,72,50,22,15,1.1,1.1
2023-10-17T07:00:00,1734A,111.5028,36.0714,临汾市,技工学校,颗粒物(PM10),71,91,95,42,48,172,27,74,61,60,44,17,19,0.7,0.8
2023-10-17T07:00:00,1736A,111.5018,36.0855,临汾市,市委,颗粒物(PM10),72,94,93,38,43,172,31,72,60,56,44,21,21,0.7,0.8
2023-10-17T07:00:00,1738A,113.5758,37.8572,阳泉市,市中心,细颗粒物(PM2.5),100,106,97,75,44,158,2,1,1,68,57,8,13,1.0,1
2023-10-17T07:00:00,1739A,113.4894,37.8731,阳泉市,赛鱼,细颗粒物(PM2.5),93,110,105,69,50,156,3,3,3,58,53,7,11,1.0,0.9
2023-10-17T07:00:00,1740A,113.5819,37.8486,阳泉市,南庄,颗粒物(PM10),80,109,117,48,45,155,16,24,20,33,44,7,14,1.0,1
2023-10-17T07:00:00,1742A,113.5614,37.8703,阳泉市,平坦,细颗粒物(PM2.5),93,123,107,69,53,151,3,3,3,70,56,8,13,1.0,1
2023-10-17T07:00:00,1743A,113.5158,37.8392,阳泉市,大阳泉,细颗粒物(PM2.5),89,84,94,66,52,164,102,128,118,40,31,9,12,1.0,1
2023-10-17T07:00:00,1744A,118.9233,42.2816,赤峰市,松山一中,颗粒物(PM10),52,53,51,25,24,70,8,8,8,40,40,12,15,1.2,0.9
2023-10-17T07:00:00,1745A,118.9576,42.2728,赤峰市,哈达街,颗粒物(PM10),57,64,56,18,30,70,8,20,13,42,41,18,19,0.8,0.7
2023-10-17T07:00:00,1746A,118.8788,42.2554,赤峰市,天义路,,26,26,40,6,17,80,8,33,28,49,34,17,16,0.8,0.7
2023-10-17T07:00:00,1748A,123.044,41.1196,鞍山市,深沟寺,,21,21,31,7,11,64,49,35,35,14,22,5,6,0.9,0.8
2023-10-17T07:00:00,1749A,123.011,41.0931,鞍山市,太阳城,,32,32,34,4,11,63,50,44,43,13,24,10,16,0.6,1
2023-10-17T07:00:00,1750A,123.0485,41.1442,鞍山市,太平,,29,29,42,10,16,60,31,35,34,36,31,10,11,0.7,0.7
2023-10-17T07:00:00,1751A,122.9642,41.0971,鞍山市,铁西三道街,颗粒物(PM10),54,58,63,16,23,63,6,6,6,60,41,7,9,1.4,1.1
2023-10-17T07:00:00,1752A,122.9341,41.0833,鞍山市,铁西工业园区,颗粒物(PM10),64,78,81,15,23,65,8,6,6,52,37,8,10,1.0,1.1
2023-10-17T07:00:00,1753A,123.022,41.0821,鞍山市,明达新区,,35,35,44,11,17,57,45,21,19,15,36,7,11,1.7,1.5
2023-10-17T07:00:00,1754A,123.1289,41.0228,鞍山市,千山,,,,,,,,,,,,,,,,
2023-10-17T07:00:00,1755A,123.7977,41.8491,抚顺市,望花区,颗粒物(PM10),60,69,81,42,38,64,6,5,5,29,32,11,10,0.8,0.8
2023-10-17T07:00:00,1756A,123.9161,41.8822,抚顺市,顺城区,,48,36,63,33,40,63,17,9,9,23,30,5,7,0.6,0.8
2023-10-17T07:00:00,1757A,124.0436,41.8611,抚顺市,东洲区,颗粒物(PM10),51,52,66,35,34,69,9,6,6,20,24,10,12,0.6,0.7
2023-10-17T07:00:00,1758A,123.9247,41.8642,抚顺市,新抚区,细颗粒物(PM2.5),68,54,60,49,43,64,7,4,4,28,30,14,9,0.5,0.6
2023-10-17T07:00:00,1759A,124.0972,41.8961,抚顺市,大伙房水库,,34,34,45,21,25,67,28,17,17,13,22,6,8,0.5,0.6
2023-10-17T07:00:00,1760A,123.7086,41.8391,抚顺市,沈抚新城,细颗粒物(PM2.5),84,98,68,62,46,68,5,3,3,40,34,38,12,1.8,0.7
2023-10-17T07:00:00,1761A,123.8275,41.3064,本溪市,大峪,颗粒物(PM10),60,70,57,22,22,57,9,9,8,39,41,8,15,1.9,1.2
2023-10-17T07:00:00,1762A,123.7567,41.3325,本溪市,溪湖,颗粒物(PM10),68,86,82,33,26,50,6,6,6,30,39,10,15,1.4,1
2023-10-17T07:00:00,1763A,123.7169,41.3094,本溪市,彩屯,,,159,82,,36,54,7,6,6,37,42,12,16,5.2,1.7
2023-10-17T07:00:00,1764A,123.7669,41.2864,本溪市,东明,颗粒物(PM10),57,63,83,25,33,55,8,6,6,38,46,9,19,1.0,1.3
2023-10-17T07:00:00,1765A,123.7992,41.2664,本溪市,新立屯,,23,23,56,16,26,52,12,8,8,36,47,10,21,1.0,1.6
2023-10-17T07:00:00,1766A,123.8142,41.3472,本溪市,威宁,颗粒物(PM10),88,125,93,32,25,53,6,5,5,32,36,5,7,0.8,0.8
2023-10-17T07:00:00,1767A,121.1115,41.0879,锦州市,南山,,46,44,33,32,22,78,5,6,5,30,27,6,9,0.9,0.7
2023-10-17T07:00:00,1768A,121.0533,40.8434,锦州市,开发区,,,119,76,,30,71,4,5,4,46,48,44,27,1.7,0.7
2023-10-17T07:00:00,1769A,121.1836,41.1119,锦州市,百股街道,,34,34,33,19,15,78,5,4,3,34,31,9,7,0.7,0.6
2023-10-17T07:00:00,1770A,121.1178,41.1222,锦州市,天安街道,颗粒物(PM10),52,54,41,31,21,77,7,8,7,53,34,20,14,0.9,0.8
2023-10-17T07:00:00,1771A,121.1303,41.1386,锦州市,北湖公园,,33,33,29,23,17,77,12,16,14,43,25,16,12,0.7,0.5
2023-10-17T07:00:00,1772A,126.54,43.8622,吉林市,哈达湾,,38,38,38,13,14,68,17,28,27,35,22,6,6,0.6,0.5
2023-10-17T07:00:00,1773A,126.5844,43.8358,吉林市,东局子,,43,43,50,16,18,68,10,18,15,36,30,6,6,0.6,0.6
2023-10-17T07:00:00,1774A,126.5052,43.8245,吉林市,电力学院,颗粒物(PM10),54,58,50,25,22,69,8,11,9,32,27,10,10,0.8,0.7
2023-10-17T07:00:00,1775A,126.6133,43.8972,吉林市,江北,,47,47,60,18,19,64,18,22,21,28,28,8,11,0.9,0.8
2023-10-17T07:00:00,1776A,126.555,43.8306,吉林市,江南公园,,35,35,42,16,18,68,12,9,9,36,29,8,8,0.6,0.6
2023-10-17T07:00:00,1778A,126.7061,43.7133,吉林市,丰满,,,,,,,,,,,,,,,,
2023-10-17T07:00:00,1779A,123.9305,47.3636,齐齐哈尔市,安居小区,,30,30,23,7,12,62,31,48,44,23,15,6,5,0.4,0.3
2023-10-17T07:00:00,1780A,123.9488,47.3386,齐齐哈尔市,中心广场,,21,21,17,7,8,60,36,52,46,12,16,2,2,0.4,0.4
2023-10-17T07:00:00,1781A,123.9483,47.3227,齐齐哈尔市,农牧车辆厂,,31,31,26,2,6,59,26,49,41,19,14,6,6,0.3,0.3
2023-10-17T07:00:00,1783A,123.945,47.2988,齐齐哈尔市,市环境监测站,,24,24,27,4,7,58,31,44,41,17,13,4,4,0.3,0.2
2023-10-17T07:00:00,1784A,129.61,44.561,牡丹江市,环保大楼,,47,47,36,16,16,61,22,34,29,27,17,11,7,0.5,0.4
2023-10-17T07:00:00,1785A,129.6115,44.5782,牡丹江市,文化广场,,45,45,38,13,19,59,17,31,26,32,18,11,7,0.4,0.3
2023-10-17T07:00:00,1786A,129.5904,44.5963,牡丹江市,第一医院,颗粒物(PM10),62,74,45,38,22,59,4,23,18,38,17,8,6,0.7,0.4
2023-10-17T07:00:00,1787A,129.6364,44.6075,牡丹江市,机车工厂,,50,50,51,20,15,60,7,22,15,32,17,17,8,0.7,0.5
2023-10-17T07:00:00,1788A,129.6386,44.5462,牡丹江市,第一中学,,22,22,35,15,13,60,7,28,23,32,16,7,6,0.4,0.3
2023-10-17T07:00:00,1789A,124.81117,46.03138,大庆市,大同区,,37,37,24,6,9,64,35,42,39,21,13,6,5,0.5,0.4
2023-10-17T07:00:00,1790A,125.129,46.533,大庆市,龙凤区,,20,18,17,14,11,54,17,25,22,32,20,11,6,0.5,0.5
2023-10-17T07:00:00,1791A,124.902,46.408,大庆市,红岗区,,19,18,20,13,9,61,28,39,36,21,15,4,4,0.4,0.3
2023-10-17T07:00:00,1792A,125.153,46.586,大庆市,萨尔图区,,35,35,29,12,9,52,38,36,36,19,24,5,4,0.3,0.4
2023-10-17T07:00:00,1793A,124.9042,46.6215,大庆市,让胡路区,,28,28,23,6,13,58,17,23,21,34,25,3,2,0.4,0.3
2023-10-17T07:00:00,1794A,118.3606,31.3519,芜湖市,监测站,细颗粒物(PM2.5),74,75,77,54,44,166,34,100,55,46,46,12,12,0.7,0.9
2023-10-17T07:00:00,1795A,118.3714,31.4134,芜湖市,科创中心,细颗粒物(PM2.5),72,78,93,52,59,175,9,12,12,59,73,9,11,0.7,0.9
2023-10-17T07:00:00,1796A,118.3673,31.3131,芜湖市,四水厂,细颗粒物(PM2.5),69,78,81,50,46,176,33,68,53,40,37,9,12,0.8,0.9
2023-10-17T07:00:00,1798A,118.5092,31.6837,马鞍山市,湖东路四小,细颗粒物(PM2.5),65,53,70,47,46,180,31,54,43,47,44,14,12,0.7,0.9
2023-10-17T07:00:00,1799A,118.5024,31.6449,马鞍山市,开发区,细颗粒物(PM2.5),117,92,81,88,56,179,14,72,50,66,44,13,13,0.7,0.8
2023-10-17T07:00:00,1800A,118.5228,31.7231,马鞍山市,慈湖,细颗粒物(PM2.5),84,104,85,62,55,178,26,93,51,70,58,14,13,0.9,0.9
2023-10-17T07:00:00,1802A,118.6245,31.7241,马鞍山市,濮塘,,35,33,53,24,33,170,100,116,100,9,15,8,12,0.7,0.8
2023-10-17T07:00:00,1803A,115.9872,29.6815,九江市,十里,细颗粒物(PM2.5),74,73,62,54,37,158,50,29,29,34,41,12,9,0.8,0.9
2023-10-17T07:00:00,1804A,115.9584,29.7046,九江市,茅山头,,49,43,56,34,35,167,28,26,22,36,41,7,10,0.8,0.8
2023-10-17T07:00:00,1805A,115.9877,29.7295,九江市,西园,颗粒物(PM10),70,90,75,50,41,137,54,32,32,28,60,11,10,1.0,1.2
2023-10-17T07:00:00,1806A,116.0172,29.6547,九江市,五七二七厂,细颗粒物(PM2.5),77,84,42,56,26,149,54,107,71,20,13,19,15,0.8,0.6
2023-10-17T07:00:00,1808A,115.9114,29.6038,九江市,综合工业园,颗粒物(PM10),54,57,63,37,42,175,31,52,32,39,41,12,13,0.8,0.9
2023-10-17T07:00:00,1809A,116.0721,29.7535,九江市,石化总厂,细颗粒物(PM2.5),90,84,81,67,48,149,42,41,41,33,50,11,12,0.9,0.8
2023-10-17T07:00:00,1810A,115.9773,29.5698,九江市,庐山气象台,,43,32,32,30,23,165,137,157,143,5,5,6,6,0.8,0.7
2023-10-17T07:00:00,1812A,112.3931,34.6516,洛阳市,市委党校,细颗粒物(PM2.5),159,170,155,121,95,227,7,51,19,62,49,8,13,0.9,0.9
2023-10-17T07:00:00,1814A,112.4657,34.6871,洛阳市,豫西宾馆,细颗粒物(PM2.5),132,180,177,100,81,212,45,59,54,37,35,10,9,1.3,1.1
2023-10-17T07:00:00,1815A,112.494,34.6886,洛阳市,河南林校,细颗粒物(PM2.5),127,156,154,96,80,210,38,54,46,42,41,5,7,0.9,0.8
2023-10-17T07:00:00,1816A,112.3844,34.623,洛阳市,开发区管委会,细颗粒物(PM2.5),130,148,135,99,75,231,6,69,26,48,40,1,6,0.9,0.9
2023-10-17T07:00:00,1817A,112.4267,34.6258,洛阳市,市委新办公区,细颗粒物(PM2.5),216,212,155,166,93,224,14,69,33,44,39,3,7,1.1,0.8
2023-10-17T07:00:00,1818A,114.4839,36.0621,安阳市,棉研所,,,,,,,,,,,,,,,,
2023-10-17T07:00:00,1819A,114.3551,36.1017,安阳市,红庙街,细颗粒物(PM2.5),143,132,111,109,63,165,55,45,45,30,38,8,10,1.4,1.2
2023-10-17T07:00:00,1820A,114.361,36.0681,安阳市,银杏小区,细颗粒物(PM2.5),107,119,105,80,53,164,19,22,22,33,33,6,10,1.1,1
2023-10-17T07:00:00,1824A,114.3389,34.7781,开封市,肿瘤医院,细颗粒物(PM2.5),155,181,155,118,92,173,26,54,38,52,36,10,12,1.0,0.9
2023-10-17T07:00:00,1826A,114.2885,34.7965,开封市,世纪星幼儿园,颗粒物(PM10),106,161,138,78,73,171,12,55,38,71,47,7,10,1.5,1
2023-10-17T07:00:00,1828A,113.227,35.2125,焦作市,市环保局,细颗粒物(PM2.5),105,134,136,79,77,232,37,105,87,42,31,7,14,0.9,0.9
2023-10-17T07:00:00,1830A,113.1992,35.2590,焦作市,影视城,,,,,,,,,,,,,,,,
2023-10-17T07:00:00,1832A,113.3257,33.742,平顶山市,新华旅馆,细颗粒物(PM2.5),158,225,185,120,111,208,4,34,10,76,66,8,13,0.9,0.9
2023-10-17T07:00:00,1833A,113.2919,33.737,平顶山市,规划设计院,细颗粒物(PM2.5),163,212,166,124,104,212,3,2,2,77,61,8,15,0.8,0.8
2023-10-17T07:00:00,1834A,113.182,33.774,平顶山市,平顶山工学院,细颗粒物(PM2.5),160,209,186,122,108,222,5,62,21,60,41,6,12,0.9,0.9
2023-10-17T07:00:00,1835A,111.1922,34.7752,三门峡市,市政府,颗粒物(PM10),81,112,89,58,45,173,84,130,93,28,25,11,12,1.1,0.8
2023-10-17T07:00:00,1836A,111.1587,34.7942,三门峡市,开发区,细颗粒物(PM2.5),112,161,120,84,61,172,85,120,102,28,30,12,13,1.0,0.9
2023-10-17T07:00:00,1838A,111.143,34.7955,三门峡市,风景区,,,,,,,,,,,,,,,,
2023-10-17T07:00:00,1840A,111.2992,30.6981,宜昌市,白龙岗,细颗粒物(PM2.5),58,48,47,41,32,152,39,70,47,26,32,6,8,0.6,0.6
2023-10-17T07:00:00,1841A,111.3549,30.6465,宜昌市,伍家岗,细颗粒物(PM2.5),64,51,48,46,37,158,16,30,28,41,38,4,6,0.7,0.7
2023-10-17T07:00:00,1842A,111.2628,30.6961,宜昌市,点军区,细颗粒物(PM2.5),52,51,49,36,35,175,19,31,25,20,24,7,9,0.5,0.5
2023-10-17T07:00:00,1843A,111.3275,30.7819,宜昌市,夷陵区,细颗粒物(PM2.5),55,51,58,39,37,157,34,49,43,23,29,6,7,0.5,0.5
2023-10-17T07:00:00,1844A,112.2494,30.3197,荆州市,市图书馆,细颗粒物(PM2.5),85,86,81,63,56,192,28,86,56,45,32,9,12,0.9,0.8
2023-10-17T07:00:00,1845A,112.2008,30.3544,荆州市,市委党校,细颗粒物(PM2.5),93,95,79,69,52,189,19,110,53,43,36,10,13,0.9,0.8
2023-10-17T07:00:00,1847A,113.1094,29.3578,岳阳市,南湖风景区,,40,40,43,26,29,170,39,77,67,34,28,11,12,0.8,0.7
2023-10-17T07:00:00,1848A,113.1493,29.4251,岳阳市,城陵矶,,50,50,60,32,35,160,11,30,21,70,50,13,10,0.8,0.7
2023-10-17T07:00:00,1849A,113.1497,29.3575,岳阳市,开发区,细颗粒物(PM2.5),84,45,39,62,33,161,42,68,63,26,26,10,10,0.7,0.6
2023-10-17T07:00:00,1850A,113.2621,29.4758,岳阳市,云溪区,,42,42,45,28,30,175,14,96,49,48,33,7,8,0.6,0.5
2023-10-17T07:00:00,1851A,112.9943,29.4402,岳阳市,君山区,细颗粒物(PM2.5),62,62,57,44,46,155,35,47,45,36,34,7,7,0.6,0.5
2023-10-17T07:00:00,1852A,113.2117,29.355,岳阳市,金凤水库,,37,37,39,22,26,182,64,87,70,15,17,5,6,0.5,0.6
2023-10-17T07:00:00,1854A,111.6975,28.9703,常德市,市二中,细颗粒物(PM2.5),79,83,74,58,55,161,17,45,26,22,35,9,12,0.7,0.7
2023-10-17T07:00:00,1857A,111.7158,29.1456,常德市,白鹤山,,41,41,41,2,4,173,74,113,93,9,9,5,6,0.5,0.5
2023-10-17T07:00:00,1858A,110.5319,29.1217,张家界市,永定新区,,46,41,42,32,30,120,27,58,48,25,22,6,6,0.5,0.5
2023-10-17T07:00:00,1859A,110.4697,29.1242,张家界市,电业局,,46,37,40,32,26,120,23,37,34,17,23,8,8,0.5,0.5
2023-10-17T07:00:00,1860A,110.5594,29.3547,张家界市,未央路,,42,39,35,29,23,117,35,32,32,6,12,3,3,0.5,0.5
2023-10-17T07:00:00,1861A,110.4417,29.315,张家界市,袁家界,,31,27,36,21,23,108,99,108,105,3,13,8,8,0.6,0.6
2023-10-17T07:00:00,1862A,110.4144,25.3167,桂林市,电子科大尧山校区,,35,31,31,24,26,128,36,65,50,7,7,3,3,0.5,0.5
2023-10-17T07:00:00,1863A,110.2819,25.2697,桂林市,监测站,颗粒物(PM10),54,58,52,37,34,141,32,88,60,32,23,8,8,0.9,0.8
2023-10-17T07:00:00,1864A,110.3089,25.2708,桂林市,龙隐路小学,细颗粒物(PM2.5),53,49,45,37,34,141,47,99,70,28,15,8,8,0.8,0.6
2023-10-17T07:00:00,1865A,110.2869,25.2178,桂林市,八中,颗粒物(PM10),54,57,48,37,32,149,6,95,32,44,25,5,6,0.8,0.7
2023-10-17T07:00:00,1866A,109.2262,21.588,北海市,牛尾岭水库,,,,,,,,,,,,,,,,
2023-10-17T07:00:00,1867A,109.1436,21.4086,北海市,海滩公园,颗粒物(PM10),51,52,53,32,31,170,91,106,95,13,12,18,9,0.8,0.9
2023-10-17T07:00:00,1868A,109.0981,21.4661,北海市,新市环保局,细颗粒物(PM2.5),52,48,52,36,39,180,90,94,88,16,15,10,12,0.6,0.8
2023-10-17T07:00:00,1869A,109.1778,21.5233,北海市,北海工业园,细颗粒物(PM2.5),59,48,55,42,39,164,73,79,75,13,15,11,14,0.6,0.7
2023-10-17T07:00:00,1870A,109.4856,24.3895,柳州市,柳东小学,细颗粒物(PM2.5),57,47,37,40,31,126,71,81,80,10,10,22,12,0.5,0.5
2023-10-17T07:00:00,1871A,109.4157,24.3277,柳州市,环保监测站,颗粒物(PM10),60,69,70,42,38,136,26,22,22,32,33,17,9,0.9,0.8
2023-10-17T07:00:00,1872A,109.389,24.341,柳州市,河西水厂,颗粒物(PM10),65,79,78,32,38,129,18,23,22,33,29,13,13,1.3,1.2
2023-10-17T07:00:00,1873A,109.4311,24.2921,柳州市,市四中,,49,44,56,34,33,153,47,28,28,21,30,16,8,0.9,0.9
2023-10-17T07:00:00,1874A,109.4006,24.3631,柳州市,市九中,颗粒物(PM10),70,90,68,44,36,127,12,19,18,43,34,13,9,1.0,0.8
2023-10-17T07:00:00,1875A,109.4958,24.3134,柳州市,古亭山,,45,39,41,31,27,152,25,30,29,44,31,14,10,0.6,0.6
2023-10-17T07:00:00,1876A,109.5078,18.2489,三亚市,河东子站,,27,10,18,6,11,95,86,87,85,4,6,4,4,0.4,0.5
2023-10-17T07:00:00,1877A,109.4964,18.2681,三亚市,河西子站,,20,11,17,6,10,89,64,81,67,4,5,4,4,0.3,0.4
2023-10-17T07:00:00,1878A,104.7778,31.4741,绵阳市,富乐山,,43,36,52,30,36,72,34,14,14,17,26,4,4,0.6,0.7
2023-10-17T07:00:00,1879A,104.7563,31.4535,绵阳市,市人大,细颗粒物(PM2.5),54,45,61,38,39,64,27,17,17,19,36,8,8,0.7,0.7
2023-10-17T07:00:00,1880A,104.6697,31.4668,绵阳市,高新区自来水公司,,33,31,42,23,27,72,46,29,29,14,35,7,8,0.8,0.9
2023-10-17T07:00:00,1881A,104.7287,31.5075,绵阳市,三水厂,细颗粒物(PM2.5),64,56,69,46,48,86,14,8,8,30,35,8,8,0.9,0.9
2023-10-17T07:00:00,1882A,104.563,28.793,宜宾市,石马中学,,,,,,,,,,,,,,,,
2023-10-17T07:00:00,1883A,104.6201,28.7728,宜宾市,市委,细颗粒物(PM2.5),72,73,54,52,39,93,16,26,15,31,28,7,7,0.9,0.8
2023-10-17T07:00:00,1884A,104.6055,28.793,宜宾市,宜宾四中,细颗粒物(PM2.5),69,69,58,50,44,89,14,20,11,38,28,4,5,0.8,0.7
2023-10-17T07:00:00,1885A,104.639,28.7562,宜宾市,市政府,细颗粒物(PM2.5),69,70,55,50,43,101,17,15,10,30,30,8,8,0.8,0.7
2023-10-17T07:00:00,1886A,104.5742,28.7199,宜宾市,黄金嘴,细颗粒物(PM2.5),60,63,54,43,38,98,3,4,4,26,24,8,8,0.7,0.6
2023-10-17T07:00:00,1888A,101.6891,26.571,攀枝花市,弄弄坪,,30,27,54,21,29,106,6,10,8,26,26,11,20,0.9,1.2
2023-10-17T07:00:00,1889A,101.5769,26.5928,攀枝花市,河门口,,37,37,36,23,23,107,14,18,16,21,21,10,25,1.0,1.1
2023-10-17T07:00:00,1890A,101.7169,26.585,攀枝花市,炳草岗,细颗粒物(PM2.5),52,50,58,36,28,112,7,16,14,26,29,12,29,1.0,1.1
2023-10-17T07:00:00,1891A,101.7369,26.5008,攀枝花市,仁和,,22,22,26,14,17,91,9,32,25,23,16,5,12,0.5,0.6
2023-10-17T07:00:00,1893A,105.4324,28.9634,泸州市,九狮山,颗粒物(PM10),61,72,69,40,47,83,1,6,3,11,17,5,5,0.6,0.5
2023-10-17T07:00:00,1894A,105.4427,28.9063,泸州市,小市上码头,细颗粒物(PM2.5),122,119,92,92,68,103,27,44,30,19,20,7,7,0.9,0.8
2023-10-17T07:00:00,1895A,105.4241,28.8573,泸州市,兰田宪桥,细颗粒物(PM2.5),95,96,91,71,67,110,8,32,18,20,14,5,6,0.7,0.7
2023-10-17T07:00:00,1896A,105.4379,28.8833,泸州市,市环监站,细颗粒物(PM2.5),107,116,89,80,63,87,18,39,34,24,20,6,5,0.9,0.8
2023-10-17T07:00:00,1901A,104.4239,31.1208,德阳市,东山公园,,42,42,70,29,32,85,55,33,33,7,27,3,2,0.5,0.6
2023-10-17T07:00:00,1902A,104.3826,31.1317,德阳市,西小区,,41,41,74,28,43,79,42,37,37,14,33,3,2,0.6,0.7
2023-10-17T07:00:00,1904A,104.3553,31.1091,德阳市,耐火材料厂,,37,37,84,25,39,86,41,34,34,12,30,3,3,0.6,0.7
2023-10-17T07:00:00,1905A,106.056,30.8064,南充市,西山风景区,细颗粒物(PM2.5),70,53,46,51,43,74,22,49,36,6,7,5,4,0.6,0.6
2023-10-17T07:00:00,1906A,106.0789,30.8023,南充市,南充市委,颗粒物(PM10),58,65,62,39,49,66,7,19,14,17,28,3,3,0.6,0.6
2023-10-17T07:00:00,1907A,106.1031,30.8217,南充市,南充炼油厂,细颗粒物(PM2.5),68,70,72,49,41,80,10,19,15,20,32,4,4,0.6,0.6
2023-10-17T07:00:00,1908A,106.1064,30.7856,南充市,高坪区监测站,细颗粒物(PM2.5),75,72,64,55,44,72,10,14,13,23,33,4,5,0.5,0.5
2023-10-17T07:00:00,1909A,106.0642,30.7636,南充市,嘉陵区环保局,细颗粒物(PM2.5),73,70,59,53,46,68,9,26,12,23,33,3,3,0.6,0.6
2023-10-17T07:00:00,1910A,106.1087,30.8388,南充市,市环境监测站,细颗粒物(PM2.5),68,61,65,49,45,74,15,18,17,16,34,5,5,0.6,0.6
2023-10-17T07:00:00,1911A,106.9222,27.6869,遵义市,丁字口,,36,27,31,25,22,116,28,31,28,28,31,6,7,0.6,0.6
2023-10-17T07:00:00,1912A,106.9242,27.7019,遵义市,凤凰山,,35,32,30,24,24,133,94,100,99,8,10,9,9,0.5,0.5
2023-10-17T07:00:00,1913A,106.8906,27.6486,遵义市,忠庄,,46,46,40,22,28,119,72,65,63,8,13,2,3,0.3,0.3
2023-10-17T07:00:00,1914A,106.9231,27.6506,遵义市,舟水桥,,39,39,50,15,28,133,11,13,12,15,17,2,3,0.4,0.4
2023-10-17T07:00:00,1915A,106.9178,27.72,遵义市,干田坝,,37,37,32,23,23,122,15,21,20,29,24,5,6,0.5,0.5
2023-10-17T07:00:00,1916A,103.7897,25.5035,曲靖市,环境监测站,,38,34,29,26,13,101,36,49,45,18,15,7,4,0.5,0.6
2023-10-17T07:00:00,1917A,103.8,25.5364,曲靖市,烟厂办公区,,32,32,26,18,12,106,42,52,50,14,13,8,6,0.8,0.7
2023-10-17T07:00:00,1918A,108.7197,34.3956,咸阳市,气象站,,,,,,,,,,,,,,,,
2023-10-17T07:00:00,1919A,108.673,34.3155,咸阳市,实验中学,细颗粒物(PM2.5),82,94,125,60,75,183,72,35,35,30,56,7,7,0.8,1
2023-10-17T07:00:00,1920A,108.7233,34.3617,咸阳市,师范学院,细颗粒物(PM2.5),80,90,129,59,86,170,75,55,55,27,51,7,8,0.7,0.9
2023-10-17T07:00:00,1922A,109.0656,35.0994,铜川市,党校,细颗粒物(PM2.5),63,69,73,45,38,146,83,84,84,31,34,9,10,0.8,0.7
2023-10-17T07:00:00,1923A,109.0697,35.0697,铜川市,王益区政府,细颗粒物(PM2.5),63,55,62,45,41,152,14,20,18,32,35,2,5,0.8,0.7
2023-10-17T07:00:00,1924A,108.9344,34.9058,铜川市,新区管委会,细颗粒物(PM2.5),69,66,110,50,64,204,47,65,61,34,40,5,9,0.8,0.8
2023-10-17T07:00:00,1926A,109.4131,36.6275,延安市,枣园,,31,31,34,15,14,124,2,2,2,29,33,6,7,0.4,0.3
2023-10-17T07:00:00,1927A,109.4761,36.6028,延安市,延大医附院,,40,40,48,17,18,113,4,4,3,29,37,6,6,0.7,0.7
2023-10-17T07:00:00,1929A,109.5056,36.6106,延安市,百米大道,,42,42,52,18,20,116,3,4,3,43,49,3,3,0.7,0.7
2023-10-17T07:00:00,1930A,107.185,34.3063,宝鸡市,庙沟村,颗粒物(PM10),55,59,46,35,28,103,37,63,50,14,22,8,9,0.4,0.4
2023-10-17T07:00:00,1931A,107.0708,34.3017,宝鸡市,竹园沟,细颗粒物(PM2.5),54,36,37,38,29,124,21,41,32,19,22,6,6,0.5,0.4
2023-10-17T07:00:00,1932A,107.1906,34.3672,宝鸡市,三陆医院,细颗粒物(PM2.5),82,74,69,60,47,126,7,11,10,41,41,16,12,0.7,0.6
2023-10-17T07:00:00,1933A,107.1431,34.3547,宝鸡市,监测站,细颗粒物(PM2.5),54,55,53,38,34,124,10,22,17,36,40,8,7,0.5,0.5
2023-10-17T07:00:00,1934A,107.1186,34.3739,宝鸡市,技工学校,细颗粒物(PM2.5),57,60,58,40,34,121,17,27,24,32,36,10,8,0.6,0.6
2023-10-17T07:00:00,1935A,107.3906,34.3528,宝鸡市,陈仓区环保局家属楼,细颗粒物(PM2.5),85,76,81,63,56,120,8,9,9,56,61,8,11,0.8,0.8
2023-10-17T07:00:00,1936A,107.2058,34.3497,宝鸡市,文理学院,细颗粒物(PM2.5),67,53,55,48,39,128,14,35,26,41,42,5,5,0.6,0.6
2023-10-17T07:00:00,1937A,107.2386,34.3622,宝鸡市,三迪小学,细颗粒物(PM2.5),73,77,62,53,48,126,10,22,19,46,48,9,8,0.5,0.5
2023-10-17T07:00:00,1938A,109.5293,34.5101,渭南市,农科所,细颗粒物(PM2.5),99,117,100,74,63,156,8,19,16,51,46,6,9,1.1,1.1
2023-10-17T07:00:00,1939A,109.4974,34.4877,渭南市,日报社,细颗粒物(PM2.5),95,114,105,71,64,169,11,9,8,56,61,7,11,0.8,0.8
2023-10-17T07:00:00,1940A,109.4636,34.493,渭南市,体育馆,细颗粒物(PM2.5),110,117,109,83,61,169,5,11,7,73,62,5,10,0.9,0.9
2023-10-17T07:00:00,1941A,109.4259,34.5023,渭南市,高新一小,细颗粒物(PM2.5),113,119,123,85,76,174,53,56,56,36,43,5,8,0.9,0.9
2023-10-17T07:00:00,1944A,102.1692,38.5167,金昌市,天庆家园,,28,25,39,10,11,114,89,98,95,10,15,8,10,0.3,0.4
2023-10-17T07:00:00,1945A,98.2908,39.7711,嘉峪关市,气象局,颗粒物(PM10),53,56,50,24,15,106,33,63,56,49,23,52,27,1.1,0.5
2023-10-17T07:00:00,1947A,106.3394,38.817,石嘴山市,沙湖旅游区,细颗粒物(PM2.5),95,136,94,71,49,128,10,8,8,65,46,62,31,2.5,1.1
2023-10-17T07:00:00,1948A,106.3668,39.0145,石嘴山市,大武口朝阳西街,颗粒物(PM10),51,51,71,15,34,133,102,52,52,12,45,11,53,0.3,0.8
2023-10-17T07:00:00,1949A,106.7704,39.2282,石嘴山市,惠农南大街,颗粒物(PM10),93,136,108,45,30,150,24,6,6,64,60,48,52,2.9,1.4
2023-10-17T07:00:00,1950A,106.7099,39.1325,石嘴山市,红果子镇惠新街,颗粒物(PM10),64,78,74,26,34,150,6,20,16,54,46,20,25,0.8,0.6
2023-10-17T07:00:00,1951A,84.895,45.6094,克拉玛依市,长征新村,,17,4,16,7,5,63,52,56,52,2,12,9,10,0.2,0.3
2023-10-17T07:00:00,1952A,84.8988,45.5893,克拉玛依市,南林小区,,17,7,16,8,11,64,52,51,51,3,15,5,6,0.3,0.4
2023-10-17T07:00:00,1954A,84.905,44.3396,克拉玛依市,独山子区,,28,25,24,19,11,69,22,34,27,15,20,4,4,0.5,0.4
2023-10-17T07:00:00,1955A,85.6979,46.098,克拉玛依市,乌尔禾区商贸楼,,14,14,14,4,5,65,29,44,34,4,9,4,5,0.3,0.3
2023-10-17T07:00:00,1956A,86.1472,41.7538,巴音郭楞州,孔雀公园,,39,39,56,14,16,93,72,56,56,10,26,2,2,0.3,0.5
2023-10-17T07:00:00,1957A,86.1972,41.7166,巴音郭楞州,棉纺厂,,42,42,86,16,17,96,72,53,53,5,22,1,1,0.2,0.3
2023-10-17T07:00:00,1958A,86.2357,41.7173,巴音郭楞州,经济开发区,,31,31,75,3,22,102,81,72,72,3,16,2,2,0.3,0.3
2023-10-17T07:00:00,1961A,117.532,36.6868,济南市,东山小学,颗粒物(PM10),80,110,86,54,32,140,39,50,46,65,43,6,9,1.2,0.8
2023-10-17T07:00:00,1966A,120.0405,35.8735,青岛市,黄岛区4号,,34,34,44,9,11,96,72,68,65,21,36,8,6,0.6,0.5
2023-10-17T07:00:00,1982A,122.0693,37.2174,威海市,文登开发区,颗粒物(PM10),54,58,30,24,8,85,8,55,34,34,14,8,8,0.6,0.3
2023-10-17T07:00:00,2031A,113.1817,27.9958,株洲市,云田中学,,45,45,47,26,34,162,95,104,99,17,16,11,12,0.6,0.6
2023-10-17T07:00:00,2054A,114.1099,32.1059,信阳市,平桥分局,,38,26,33,26,22,137,34,53,42,18,17,2,3,0.6,0.6
2023-10-17T07:00:00,2064A,113.9956,32.1271,信阳市,南湾水厂,,39,39,35,20,22,139,49,67,56,10,11,3,4,0.5,0.6
2023-10-17T07:00:00,2065A,114.0775,32.1195,信阳市,市酿酒公司,,39,33,41,27,25,136,20,28,27,33,28,2,3,0.6,0.6
2023-10-17T07:00:00,2066A,114.0609,32.1399,信阳市,审计局,,41,41,49,27,26,140,43,63,49,30,25,4,5,0.6,0.6
2023-10-17T07:00:00,2067A,114.6613,33.6128,周口市,市环境监测站,细颗粒物(PM2.5),73,73,160,53,88,187,49,43,43,45,55,9,13,0.3,0.5
2023-10-17T07:00:00,2068A,114.6758,33.6347,周口市,周口师范,颗粒物(PM10),61,71,167,41,100,177,58,57,57,49,58,9,11,0.5,0.7
2023-10-17T07:00:00,2069A,114.6546,33.5979,周口市,市运管处,颗粒物(PM10),66,82,160,47,92,188,47,56,54,52,53,14,12,0.4,0.5
2023-10-17T07:00:00,2070A,114.6369,33.6406,周口市,川汇区环保局,细颗粒物(PM2.5),65,59,162,47,106,179,67,59,59,45,57,9,14,0.5,0.7
2023-10-17T07:00:00,2075A,117.6336,24.4674,漳州市,九湖,,,,,,,,,,,,,,,,
2023-10-17T07:00:00,2160A,112.85,35.5051,晋城市,自来水公司,细颗粒物(PM2.5),188,202,151,141,97,229,6,84,33,59,41,7,13,1.7,1.6
2023-10-17T07:00:00,2161A,112.8318,35.4936,晋城市,白云商贸,细颗粒物(PM2.5),156,178,158,119,79,227,26,62,52,38,36,4,10,1.7,1.5
2023-10-17T07:00:00,2162A,112.8508,35.4887,晋城市,市环保局,细颗粒物(PM2.5),195,229,174,146,96,227,12,31,23,67,50,7,12,1.9,1.5
2023-10-17T07:00:00,2163A,112.8676,35.4897,晋城市,技术学院,细颗粒物(PM2.5),203,183,163,153,105,215,11,32,24,60,48,7,10,1.7,1.4
2023-10-17T07:00:00,2165A,112.8453,35.546,晋城市,白马寺,,,,,,,,,,,,,,,,
2023-10-17T07:00:00,2166A,112.4397,39.3522,朔州市,平朔,颗粒物(PM10),88,125,100,47,40,124,4,6,6,73,46,45,19,0.9,0.7
2023-10-17T07:00:00,2167A,112.4575,39.3617,朔州市,朔唯,颗粒物(PM10),128,205,143,60,49,123,2,1,1,85,57,55,23,1.1,0.8
2023-10-17T07:00:00,2168A,112.4258,39.3197,朔州市,区政府,颗粒物(PM10),72,93,83,43,38,118,25,51,40,55,35,40,19,0.8,0.8
2023-10-17T07:00:00,2169A,112.4072,39.3278,朔州市,市环保局,颗粒物(PM10),67,83,83,28,30,118,47,61,58,36,32,69,21,0.6,0.7
2023-10-17T07:00:00,2170A,112.4272,39.3681,朔州市,市二中,颗粒物(PM10),98,146,124,50,45,130,8,8,7,74,52,43,20,1.0,0.8
2023-10-17T07:00:00,2171A,112.7532,37.6945,晋中市,锦纶小区,颗粒物(PM10),78,105,101,56,48,178,26,56,40,46,45,8,10,0.8,0.7
2023-10-17T07:00:00,2173A,112.7249,37.7067,晋中市,南都小区,细颗粒物(PM2.5),90,119,109,67,51,166,30,51,36,44,45,7,10,0.8,0.7
2023-10-17T07:00:00,2174A,112.6991,37.6982,晋中市,榆次区政府,细颗粒物(PM2.5),80,96,93,59,52,171,38,59,46,43,48,8,10,0.8,0.8
2023-10-17T07:00:00,2175A,110.9956,35.0147,运城市,运城中学,"颗粒物(PM10),细颗粒物(PM2.5)",84,117,123,62,62,192,122,161,140,11,21,10,14,0.8,1.2
2023-10-17T07:00:00,2178A,110.9686,35.0303,运城市,地区技校,颗粒物(PM10),89,128,120,62,53,188,98,154,114,28,26,8,13,0.7,1.1
2023-10-17T07:00:00,2179A,111.0414,35.1147,运城市,空港新区,细颗粒物(PM2.5),103,132,116,77,63,161,82,146,119,37,27,10,14,0.6,1.1
2023-10-17T07:00:00,2181A,112.7383,38.4519,忻州市,开发区,颗粒物(PM10),61,71,81,43,39,146,19,47,37,45,44,7,11,0.8,0.8
2023-10-17T07:00:00,2182A,112.7003,38.4928,忻州市,会展中心,颗粒物(PM10),60,70,76,40,38,140,8,10,9,50,48,6,10,0.7,0.7
2023-10-17T07:00:00,2183A,111.1406,37.5211,吕梁市,环保局,颗粒物(PM10),86,121,131,41,38,131,0,0,0,65,62,8,7,0.6,0.6
2023-10-17T07:00:00,2185A,111.1297,37.5136,吕梁市,自来水公司,颗粒物(PM10),107,163,141,36,46,128,5,5,5,58,56,9,9,0.6,0.6
2023-10-17T07:00:00,2187A,106.8174,39.6973,乌海市,市林业局,颗粒物(PM10),52,54,71,30,27,137,42,16,16,28,56,10,21,0.8,1
2023-10-17T07:00:00,2188A,106.7907,39.6667,乌海市,中海勃湾学校,,45,45,78,30,28,131,61,24,24,21,54,10,25,0.5,1.4
2023-10-17T07:00:00,2191A,122.2532,43.6801,通辽市,艺术职业学校,,36,36,36,18,11,72,47,63,58,31,29,16,9,0.4,0.2
2023-10-17T07:00:00,2192A,119.7594,49.2261,呼伦贝尔市,区环保局,,38,38,31,19,15,60,7,38,31,47,19,5,5,0.6,0.4
2023-10-17T07:00:00,2195A,107.4212,40.761,巴彦淖尔市,附二中,颗粒物(PM10),102,154,110,50,37,126,3,15,11,92,65,18,17,,0.7
2023-10-17T07:00:00,2196A,107.37,40.7372,巴彦淖尔市,市环保大楼,颗粒物(PM10),70,89,90,44,31,125,10,14,13,63,48,6,6,0.7,0.7
2023-10-17T07:00:00,2197A,113.1306,40.9923,乌兰察布市,集宁新区,颗粒物(PM10),56,61,41,23,19,115,18,22,21,60,40,16,15,0.7,0.6
2023-10-17T07:00:00,2200A,122.0392,46.0656,兴安盟,胜华新制药厂,,46,46,44,22,18,69,7,7,7,22,20,3,3,0.5,0.4
2023-10-17T07:00:00,2201A,121.9504,46.0741,兴安盟,科右前旗环保局,,39,39,31,17,18,71,17,20,13,24,20,3,3,0.4,0.4
2023-10-17T07:00:00,2202A,116.1042,43.9317,锡林郭勒盟,市环保监测站,,31,31,17,8,6,77,44,38,38,21,14,7,10,0.3,0.3
2023-10-17T07:00:00,2203A,116.0781,43.9311,锡林郭勒盟,市政府,,23,23,20,13,7,78,57,31,31,14,25,10,10,0.3,0.3
2023-10-17T07:00:00,2204A,105.6467,38.8363,阿拉善盟,西城区西花园,颗粒物(PM10),69,88,33,29,17,124,83,101,98,9,17,7,9,0.4,0.5
2023-10-17T07:00:00,2205A,105.6985,38.8411,阿拉善盟,蒙二幼,颗粒物(PM10),51,52,32,25,14,119,99,104,103,8,13,9,9,0.4,0.4
2023-10-17T07:00:00,2206A,105.724,38.8516,阿拉善盟,环保局新楼,,34,22,25,20,12,122,106,110,110,6,9,8,8,0.4,0.4
2023-10-17T07:00:00,2207A,121.6094,41.998,阜新市,工业园区,颗粒物(PM10),63,76,69,27,18,79,5,6,5,29,32,9,9,0.7,0.8
2023-10-17T07:00:00,2208A,121.6697,42.0279,阜新市,长青街,细颗粒物(PM2.5),112,80,53,84,25,71,2,2,2,34,34,10,8,2.8,2
2023-10-17T07:00:00,2209A,121.6673,42.0705,阜新市,农业园区,细颗粒物(PM2.5),64,43,31,46,19,76,27,28,28,26,19,20,14,0.6,0.5
2023-10-17T07:00:00,2210A,121.6717,42.0224,阜新市,东苑,细颗粒物(PM2.5),80,99,64,59,32,72,3,3,2,36,33,20,13,2.9,2.1
2023-10-17T07:00:00,2211A,121.6506,42.0498,阜新市,玉龙新城,颗粒物(PM10),66,81,66,10,7,80,7,7,7,33,30,7,6,0.9,0.7
2023-10-17T07:00:00,2212A,123.2,41.1953,辽阳市,宏伟区,,18,16,26,12,15,62,41,29,29,13,23,8,9,0.5,0.6
2023-10-17T07:00:00,2213A,123.1683,41.2495,辽阳市,新华园,,47,47,50,25,26,63,10,7,7,34,33,11,12,1.1,0.8
2023-10-17T07:00:00,2214A,123.2354,41.2639,辽阳市,滨河路,,37,37,42,24,23,66,18,21,21,33,27,9,9,1.0,0.6
2023-10-17T07:00:00,2215A,123.149,41.2991,辽阳市,铁西工业园,,34,34,55,23,28,62,19,11,11,27,28,10,10,0.9,0.8
2023-10-17T07:00:00,2216A,123.8139,42.3022,铁岭市,汇工街西,,33,33,53,20,27,68,20,15,15,26,29,14,33,0.6,0.7
2023-10-17T07:00:00,2217A,123.8649,42.2923,铁岭市,水上乐园,细颗粒物(PM2.5),55,46,46,39,29,69,18,28,25,24,21,8,8,0.5,0.5
2023-10-17T07:00:00,2218A,123.8486,42.2867,铁岭市,银州路东段,,41,41,44,27,22,59,19,29,24,24,24,4,5,0.6,0.6
2023-10-17T07:00:00,2219A,123.7153,42.2217,铁岭市,金沙江路北,,30,30,28,17,15,68,31,23,23,27,31,18,12,0.6,0.5
2023-10-17T07:00:00,2220A,120.4318,41.5881,朝阳市,西梁,颗粒物(PM10),61,72,58,32,26,66,5,4,4,30,31,11,13,1.0,1
2023-10-17T07:00:00,2221A,120.4521,41.5646,朝阳市,河畔小区,,46,46,41,20,19,70,18,15,15,29,30,10,11,0.9,0.8
2023-10-17T07:00:00,2222A,120.4176,41.5648,朝阳市,八里堡,颗粒物(PM10),53,56,55,26,24,68,6,6,5,34,34,10,12,0.9,1
2023-10-17T07:00:00,2223A,120.3806,41.5969,朝阳市,农业园区,,50,50,39,27,22,68,5,5,4,28,36,7,11,0.9,0.8
2023-10-17T07:00:00,2225A,124.4002,43.1713,四平市,一商场,,32,32,46,13,18,60,33,46,43,32,27,10,6,0.2,0.6
2023-10-17T07:00:00,2226A,124.388,43.193,四平市,境园,颗粒物(PM10),62,74,48,26,21,65,5,10,7,38,24,6,7,0.5,0.7
2023-10-17T07:00:00,2227A,125.1358,42.8845,辽源市,环保局,颗粒物(PM10),52,54,45,26,24,74,8,7,7,24,24,8,12,0.8,0.8
2023-10-17T07:00:00,2229A,125.9358,41.7173,通化市,光明,,28,28,33,12,14,73,7,15,10,44,34,16,10,0.6,0.6
2023-10-17T07:00:00,2230A,125.9446,41.7325,通化市,铁路,,36,35,34,25,14,80,8,25,12,37,26,16,12,1.0,0.6
2023-10-17T07:00:00,2231A,126.4219,41.9171,白山市,喜丰,,49,49,57,19,14,74,10,16,13,29,28,10,9,0.7,0.6
2023-10-17T07:00:00,2232A,126.4077,41.9419,白山市,环保局,颗粒物(PM10),55,59,45,16,16,78,13,25,20,28,22,10,10,0.7,0.8
2023-10-17T07:00:00,2233A,124.8006,45.1214,松原市,江南,颗粒物(PM10),51,52,45,18,15,65,34,38,38,25,19,25,9,0.5,0.5
2023-10-17T07:00:00,2234A,124.7965,45.1722,松原市,江北,,22,22,23,11,13,65,41,34,34,18,19,6,4,0.4,0.4
2023-10-17T07:00:00,2235A,122.7911,45.6077,白城市,洮北区环保局,,35,35,36,14,15,77,23,46,39,32,19,6,5,0.5,0.5
2023-10-17T07:00:00,2236A,122.8738,45.5725,白城市,市环保局,,33,33,44,10,11,78,24,41,35,21,22,6,8,0.6,0.6
2023-10-17T07:00:00,2237A,129.47,42.8883,延边朝鲜族自治州,妇幼医院,,15,15,34,6,5,71,35,50,43,18,15,6,13,0.5,0.5
2023-10-17T07:00:00,2238A,129.5055,42.9108,延边朝鲜族自治州,延边医院,,43,43,44,14,8,78,30,68,52,44,14,6,5,0.7,0.5
2023-10-17T07:00:00,2239A,129.3964,42.8881,延边朝鲜族自治州,朝阳川镇医院,,32,32,30,16,6,79,15,40,28,28,10,3,3,0.6,0.4
2023-10-17T07:00:00,2240A,130.9762,45.3001,鸡西市,环保局,,14,14,36,5,9,48,38,45,44,12,7,4,4,0.3,0.3
2023-10-17T07:00:00,2243A,130.9429,45.3039,鸡西市,第一中学,,15,15,31,5,7,54,36,45,42,14,6,6,5,0.1,0.1
2023-10-17T07:00:00,2244A,130.2537,47.3416,鹤岗市,哈啤分公司,,22,21,15,15,15,53,45,51,48,8,4,11,11,0.2,0.1
2023-10-17T07:00:00,2245A,130.2684,47.3086,鹤岗市,斯达机电,,20,19,20,14,14,53,35,52,47,18,6,9,8,0.2,0.2
2023-10-17T07:00:00,2246A,130.3114,47.3388,鹤岗市,东山纸板厂,,29,29,37,16,12,60,48,60,51,11,4,11,10,0.5,0.3
2023-10-17T07:00:00,2247A,130.1097,47.3382,鹤岗市,五号水库,,23,10,12,16,10,57,52,53,52,4,4,10,10,0.3,0.3
2023-10-17T07:00:00,2248A,131.1511,46.6937,双鸭山市,双合村,,15,11,23,4,5,51,47,50,49,8,10,12,9,0.4,0.4
2023-10-17T07:00:00,2249A,131.1652,46.6191,双鸭山市,南小市,,31,31,24,13,6,53,38,50,45,16,7,11,9,0.5,0.4
2023-10-17T07:00:00,2250A,131.1524,46.6554,双鸭山市,环保局,,27,27,22,18,13,54,44,54,50,11,8,9,8,0.2,0.2
2023-10-17T07:00:00,2251A,131.12,46.5656,双鸭山市,苗圃,,22,13,14,13,10,71,68,65,65,6,6,4,4,0.3,0.3
2023-10-17T07:00:00,2252A,128.5159,47.4311,伊春市,环保局,,18,18,17,1,5,56,20,26,25,14,10,6,6,0.4,0.4
2023-10-17T07:00:00,2253A,128.9102,47.7412,伊春市,电力嘉园,,21,21,15,10,10,61,16,36,31,24,8,6,5,0.3,0.2
2023-10-17T07:00:00,2254A,129.5029,48.471,伊春市,汤旺河国家公园,,15,15,20,3,7,54,37,44,42,5,3,8,7,0.2,0.2
2023-10-17T07:00:00,2255A,130.2751,46.8028,佳木斯市,佳纺,,24,24,25,6,6,47,32,42,39,19,12,3,2,0.4,0.4
2023-10-17T07:00:00,2256A,130.3995,46.8307,佳木斯市,发电厂,,12,9,26,6,8,49,37,41,41,13,8,3,5,0.4,0.4
2023-10-17T07:00:00,2257A,130.3258,46.7975,佳木斯市,环保局,,15,15,17,6,5,49,20,33,30,27,14,4,8,0.4,0.4
2023-10-17T07:00:00,2258A,130.3648,46.8032,佳木斯市,十一中,,22,22,21,10,7,47,25,42,34,29,16,4,5,0.4,0.3
2023-10-17T07:00:00,2259A,130.3794,46.7588,佳木斯市,四丰,,18,18,16,5,4,57,46,45,45,11,10,1,1,0.1,0.1
2023-10-17T07:00:00,2262A,131.0518,45.8751,七台河市,新一中,,18,18,23,6,5,69,46,54,49,7,5,6,7,0.3,0.3
2023-10-17T07:00:00,2263A,127.4833,50.2524,黑河市,交通局,,12,5,35,6,10,56,36,36,36,9,10,4,4,0.4,0.4
2023-10-17T07:00:00,2264A,127.5144,50.2341,黑河市,环保局,,18,9,20,12,12,52,36,44,41,7,7,2,6,0.4,0.4
2023-10-17T07:00:00,2265A,127.5291,50.2472,黑河市,大黑河岛,,,3,23,14,15,,,,,2,2,6,5,,
2023-10-17T07:00:00,2266A,126.9785,46.6365,绥化市,人和东街,颗粒物(PM10),56,61,30,23,9,56,10,36,24,37,18,7,4,0.8,0.5
2023-10-17T07:00:00,2267A,126.964,46.6528,绥化市,党政办公中心,,49,49,30,22,8,57,12,38,28,39,16,5,4,0.7,0.4
2023-10-17T07:00:00,2269A,124.1069,50.4097,大兴安岭地区,科技局,,22,10,16,15,14,63,22,29,26,7,7,5,6,0.1,0.1
2023-10-17T07:00:00,2270A,117.396,32.939,蚌埠市,工人疗养院,细颗粒物(PM2.5),78,98,81,57,37,178,10,110,80,82,39,9,9,0.7,0.5
2023-10-17T07:00:00,2271A,117.3605,32.9427,蚌埠市,百货大楼,细颗粒物(PM2.5),75,90,88,55,39,178,11,116,97,74,36,8,11,0.8,0.6
2023-10-17T07:00:00,2273A,117.4185,32.8911,蚌埠市,蚌埠学院,,,83,80,48,38,172,,82,72,26,33,5,8,0.5,0.5
2023-10-17T07:00:00,2274A,117.3533,32.9673,蚌埠市,淮上区政府,细颗粒物(PM2.5),84,97,95,62,51,172,14,79,58,77,51,11,12,0.5,0.5
2023-10-17T07:00:00,2275A,117.3145,32.8977,蚌埠市,高新区,细颗粒物(PM2.5),80,85,79,59,45,190,60,118,86,36,32,10,11,0.7,0.5
2023-10-17T07:00:00,2277A,116.8305,32.7727,淮南市,潘集区政府,细颗粒物(PM2.5),109,139,104,82,50,168,36,85,60,51,34,15,17,0.6,0.5
2023-10-17T07:00:00,2278A,117.0067,32.6524,淮南市,师范学院,颗粒物(PM10),85,120,92,57,43,199,56,142,86,44,29,11,12,0.6,0.5
2023-10-17T07:00:00,2279A,116.8569,32.5951,淮南市,谢家集区政府,细颗粒物(PM2.5),100,138,69,75,36,184,31,93,65,84,35,26,11,0.6,0.4
2023-10-17T07:00:00,2280A,116.8281,32.633,淮南市,八公山区政府,细颗粒物(PM2.5),99,116,72,74,35,182,56,116,89,37,23,10,11,0.5,0.4
2023-10-17T07:00:00,2281A,116.6325,32.6201,淮南市,焦岗湖风景区管理处,颗粒物(PM10),67,83,54,42,30,153,39,54,51,36,24,2,2,0.4,0.2
2023-10-17T07:00:00,2282A,116.8004,33.975,淮北市,监测站,细颗粒物(PM2.5),83,92,105,61,67,185,77,119,95,36,35,13,11,0.9,0.8
2023-10-17T07:00:00,2283A,116.8091,33.9007,淮北市,烈山区政府,细颗粒物(PM2.5),138,151,133,105,84,197,75,118,94,35,36,10,12,0.7,0.6
2023-10-17T07:00:00,2285A,117.8177,30.9412,铜陵市,市第四中学,细颗粒物(PM2.5),65,61,82,47,50,172,34,70,48,25,30,8,15,0.8,1
2023-10-17T07:00:00,2286A,117.8059,30.9273,铜陵市,市公路局,颗粒物(PM10),66,82,77,42,41,165,23,93,56,46,30,6,12,1.0,1.1
2023-10-17T07:00:00,2287A,117.7807,30.9413,铜陵市,市新民污水厂,颗粒物(PM10),68,85,80,34,37,167,4,3,3,40,45,5,9,0.7,0.6
2023-10-17T07:00:00,2288A,117.7439,30.8792,铜陵市,市第九中学,颗粒物(PM10),88,126,105,51,42,153,8,7,7,64,60,3,20,1.1,0.6
2023-10-17T07:00:00,2289A,117.846,30.9413,铜陵市,车站新区,细颗粒物(PM2.5),67,56,62,48,45,175,4,46,31,49,36,1,8,0.5,0.6
2023-10-17T07:00:00,2290A,117.8483,30.97,铜陵市,市职教基地,颗粒物(PM10),61,72,72,39,49,157,10,19,14,35,30,11,15,0.7,0.9
2023-10-17T07:00:00,2291A,117.0809,30.5177,安庆市,环科院,细颗粒物(PM2.5),72,71,65,52,43,164,44,78,67,37,37,9,10,0.9,0.7
2023-10-17T07:00:00,2292A,117.0331,30.5119,安庆市,马山宾馆,,,71,64,58,43,170,,,,39,35,7,8,0.9,0.7
2023-10-17T07:00:00,2294A,116.9896,30.6145,安庆市,安庆大学,细颗粒物(PM2.5),77,70,61,56,40,178,26,33,31,36,35,7,7,1.0,0.6
2023-10-17T07:00:00,2295A,118.2903,29.6963,黄山市,延安路89号,,37,37,48,22,27,155,12,32,22,12,13,5,5,0.3,0.4
2023-10-17T07:00:00,2296A,118.327,29.7178,黄山市,黄山东路89号,,47,47,53,22,28,146,4,30,20,14,15,4,5,0.6,0.7
2023-10-17T07:00:00,2297A,118.1371,30.2756,黄山市,黄山区政府5号楼,,38,32,59,26,35,156,12,26,17,10,12,6,7,0.5,0.6
2023-10-17T07:00:00,2298A,118.3093,32.3153,滁州市,老年大学,细颗粒物(PM2.5),60,61,56,43,37,177,8,24,16,38,35,5,8,0.8,0.7
2023-10-17T07:00:00,2299A,118.3244,32.2786,滁州市,人大宾馆,细颗粒物(PM2.5),95,72,68,71,48,180,11,46,31,54,45,7,9,0.8,0.6
2023-10-17T07:00:00,2301A,115.8277,32.8929,阜阳市,市监测站,细颗粒物(PM2.5),70,87,58,51,31,160,23,74,50,59,38,8,8,0.7,0.5
2023-10-17T07:00:00,2303A,115.8554,32.8605,阜阳市,开发区,颗粒物(PM10),68,86,70,46,34,158,50,84,58,50,32,10,10,0.6,0.6
2023-10-17T07:00:00,2307A,116.5079,31.737,六安市,监测大楼,,43,43,50,23,25,159,53,59,47,31,29,7,5,0.4,0.3
2023-10-17T07:00:00,2308A,116.4738,31.7643,六安市,皖西学院,,50,50,60,21,23,156,28,46,38,38,30,6,6,0.5,0.5
2023-10-17T07:00:00,2309A,116.4996,31.7905,六安市,朝阳厂,细颗粒物(PM2.5),54,41,50,38,30,163,19,84,41,46,27,6,7,0.6,0.5
2023-10-17T07:00:00,2310A,116.5567,31.7886,六安市,开发区,"颗粒物(PM10),细颗粒物(PM2.5)",55,60,78,39,36,143,12,55,34,26,28,5,8,0.5,0.5
2023-10-17T07:00:00,2311A,115.8072,33.8399,亳州市,污水处理厂,细颗粒物(PM2.5),94,111,103,70,52,172,26,29,20,65,52,17,24,0.6,0.6
2023-10-17T07:00:00,2312A,115.7789,33.8518,亳州市,三国揽胜宫,细颗粒物(PM2.5),80,103,103,59,52,175,17,61,16,63,53,14,18,0.6,0.6
2023-10-17T07:00:00,2314A,117.47,30.6618,池州市,池州学院,细颗粒物(PM2.5),53,50,67,37,43,171,40,55,49,15,18,4,6,0.9,0.8
2023-10-17T07:00:00,2316A,118.7581,30.9454,宣城市,鳌峰子站,细颗粒物(PM2.5),60,58,63,43,39,144,47,64,52,26,23,5,6,0.7,0.7
2023-10-17T07:00:00,2317A,118.7385,30.9743,宣城市,敬亭山子站,细颗粒物(PM2.5),57,41,36,40,34,165,68,82,73,16,18,8,8,0.5,0.5
2023-10-17T07:00:00,2318A,118.7173,30.9427,宣城市,开发区子站,细颗粒物(PM2.5),55,52,56,39,36,153,62,82,69,21,24,9,9,0.7,0.8
2023-10-17T07:00:00,2319A,119.0141,25.4325,莆田市,荔城区仓后路,,41,37,40,26,23,156,129,144,137,9,10,8,7,0.4,0.4
2023-10-17T07:00:00,2320A,119.0015,25.4553,莆田市,莆田市监测站,,45,34,37,21,21,163,142,145,143,6,8,9,8,0.6,0.6
2023-10-17T07:00:00,2321A,119.1119,25.4561,莆田市,涵江区六中,,39,36,42,27,24,154,118,130,124,10,10,8,8,0.6,0.6
2023-10-17T07:00:00,2322A,119.1013,25.3215,莆田市,秀屿区政府,,40,40,49,26,27,174,125,146,138,15,13,8,8,0.7,0.7
2023-10-17T07:00:00,2323A,118.981,25.4792,莆田市,东圳水库,,,,,,,,,,,,,,,,
2023-10-17T07:00:00,2324A,117.6211,26.2625,三明市,三钢,,46,31,36,32,28,126,13,35,27,34,24,8,8,0.4,0.4
2023-10-17T07:00:00,2325A,117.635,26.2714,三明市,三明二中,,35,30,36,24,26,124,18,34,27,26,22,4,5,0.7,0.7
2023-10-17T07:00:00,2326A,117.6028,26.2378,三明市,三元区政府,,48,48,41,29,25,126,12,13,13,23,29,9,10,0.9,0.8
2023-10-17T07:00:00,2327A,117.7275,26.3108,三明市,洋溪,,,,,,,,,,,,,,,,
2023-10-17T07:00:00,2331A,118.0966,26.6761,南平市,茫荡山,,,,,,,,,,,,,,,,
2023-10-17T07:00:00,2332A,118.1681,26.6369,南平市,南平市监测站,,42,42,37,26,27,118,21,36,33,23,19,5,5,0.6,0.6
2023-10-17T07:00:00,2333A,118.1825,26.6489,南平市,南平铝业有限公司,,46,30,38,32,28,120,15,26,22,27,21,8,7,0.8,0.7
2023-10-17T07:00:00,2334A,118.1756,26.6272,南平市,南平七中,,38,35,36,26,28,130,32,34,31,12,15,4,6,0.7,0.7
2023-10-17T07:00:00,2335A,117.0189,25.1181,龙岩市,龙岩师专,,,,,,,,,,,,,,,,
2023-10-17T07:00:00,2336A,117.0217,25.1033,龙岩市,龙岩市监测站,细颗粒物(PM2.5),54,42,34,38,26,120,38,42,39,20,22,20,7,0.6,0.5
2023-10-17T07:00:00,2337A,117.0258,25.0661,龙岩市,闽西职业技术学院,颗粒物(PM10),55,60,49,33,25,122,21,46,39,31,23,12,8,0.6,0.5
2023-10-17T07:00:00,2338A,117.0196,25.0306,龙岩市,龙岩学院,,46,40,38,32,25,121,26,54,39,19,13,3,5,0.5,0.5
2023-10-17T07:00:00,2339A,119.5001,26.6946,宁德市,金涵水库,,,,,,,,,,,,,,,,
2023-10-17T07:00:00,2341A,119.5388,26.6612,宁德市,宁德市监测站,,36,27,36,25,25,154,67,96,83,18,14,6,7,0.6,0.6
2023-10-17T07:00:00,2342A,117.3102,29.3867,景德镇市,王港中学,,27,27,40,16,22,157,10,24,13,7,9,2,2,0.7,0.7
2023-10-17T07:00:00,2343A,117.2117,29.2933,景德镇市,老干部活动中心,,46,44,49,32,36,154,34,24,24,16,20,8,8,0.6,0.6
2023-10-17T07:00:00,2344A,117.1894,29.2789,景德镇市,兽医站,细颗粒物(PM2.5),72,44,52,52,38,144,30,35,32,15,16,9,9,0.5,0.6
2023-10-17T07:00:00,2345A,117.1547,29.2617,景德镇市,台达陶瓷,,38,38,60,25,37,146,43,43,41,12,26,14,17,0.5,0.7
2023-10-17T07:00:00,2346A,117.2461,29.2956,景德镇市,陶研所,颗粒物(PM10),67,83,63,30,29,141,6,16,9,21,17,5,5,0.5,0.5
2023-10-17T07:00:00,2347A,114.0997,27.5002,萍乡市,武功山,,28,19,20,19,16,137,57,66,62,6,6,5,6,0.1,0.2
2023-10-17T07:00:00,2348A,113.8385,27.6434,萍乡市,中医院,细颗粒物(PM2.5),60,63,64,43,38,148,26,47,40,34,26,19,18,1.0,0.9
2023-10-17T07:00:00,2349A,113.8493,27.6253,萍乡市,市政府车库,细颗粒物(PM2.5),62,62,62,44,39,146,17,56,40,36,21,15,19,1.4,1.4
2023-10-17T07:00:00,2350A,113.8676,27.6435,萍乡市,市环保局,细颗粒物(PM2.5),68,59,67,49,45,151,36,52,43,39,28,19,18,0.8,0.8
2023-10-17T07:00:00,2351A,113.866,27.6198,萍乡市,安源区政府,细颗粒物(PM2.5),60,64,58,43,36,154,6,56,36,48,24,13,17,0.9,1.2
2023-10-17T07:00:00,2352A,115.0861,27.9317,新余市,北岗,细颗粒物(PM2.5),57,51,40,40,30,158,15,46,28,21,17,16,22,0.5,0.4
2023-10-17T07:00:00,2353A,114.9886,27.8431,新余市,飞宇,颗粒物(PM10),59,67,68,37,33,141,7,33,23,53,37,21,20,0.7,0.5
2023-10-17T07:00:00,2354A,114.9231,27.8246,新余市,第二水厂,细颗粒物(PM2.5),62,56,65,44,35,160,4,44,17,45,31,16,14,0.8,0.6
2023-10-17T07:00:00,2355A,114.9308,27.8036,新余市,市气象局,颗粒物(PM10),59,67,62,40,36,150,18,17,15,34,31,13,14,0.9,0.7
2023-10-17T07:00:00,2357A,116.9822,28.1136,鹰潭市,龙虎山,,28,28,40,1,11,167,30,68,42,3,5,4,7,0,0
2023-10-17T07:00:00,2358A,117.0564,28.2642,鹰潭市,新监测站,细颗粒物(PM2.5),62,66,58,44,36,163,17,72,44,43,22,52,18,0.6,0.5
2023-10-17T07:00:00,2359A,117.0311,28.2475,鹰潭市,财苑宾馆,"颗粒物(PM10),细颗粒物(PM2.5)",57,63,58,40,36,176,16,63,48,38,22,38,23,0.7,0.4
2023-10-17T07:00:00,2360A,117.0222,28.2264,鹰潭市,体育馆,,44,44,58,30,35,170,44,63,58,18,17,10,16,0.5,0.5
2023-10-17T07:00:00,2361A,117.0017,28.2131,鹰潭市,三川水表,颗粒物(PM10),51,51,60,31,36,164,36,47,35,42,23,10,10,0.5,0.5
2023-10-17T07:00:00,2362A,114.9017,25.9149,赣州市,通天岩,,,,,,,,,,,,,,,,
2023-10-17T07:00:00,2363A,114.9367,25.8664,赣州市,地委,细颗粒物(PM2.5),57,58,60,40,36,145,21,45,32,20,18,10,13,0.7,0.8
2023-10-17T07:00:00,2364A,114.9461,25.8481,赣州市,气象台,细颗粒物(PM2.5),55,53,55,39,36,152,3,14,12,30,28,12,13,0.8,0.8
2023-10-17T07:00:00,2365A,114.9322,25.8333,赣州市,市图书馆,"颗粒物(PM10),细颗粒物(PM2.5)",52,53,72,36,37,142,16,30,20,34,29,8,8,1.0,1
2023-10-17T07:00:00,2366A,114.8905,25.8471,赣州市,华坚鞋城,颗粒物(PM10),64,77,61,40,36,147,33,48,40,42,29,95,25,0.8,0.8
2023-10-17T07:00:00,2367A,114.9754,27.0803,吉安市,红声器材厂,细颗粒物(PM2.5),102,96,71,76,45,141,33,41,39,27,24,16,16,0.8,0.8
2023-10-17T07:00:00,2368A,114.9658,27.0999,吉安市,市森林工业局,细颗粒物(PM2.5),97,104,68,72,44,140,40,68,51,26,24,16,15,0.3,0.4
2023-10-17T07:00:00,2369A,114.99,27.1312,吉安市,市环境监测站,细颗粒物(PM2.5),83,85,64,61,40,149,37,70,54,27,26,10,11,0.8,0.7
2023-10-17T07:00:00,2370A,115.0093,27.0968,吉安市,青原区法院,细颗粒物(PM2.5),83,83,63,61,40,143,24,34,26,30,26,14,17,0.7,0.7
2023-10-17T07:00:00,2371A,114.3408,27.8064,宜春市,槟榔水业,"颗粒物(PM10),臭氧1小时",54,58,57,35,32,163,163,163,163,33,33,2,5,0.6,0.6
2023-10-17T07:00:00,2373A,114.3956,27.7844,宜春市,市石油公司,,40,40,59,26,32,154,18,41,25,27,26,2,7,0.8,0.8
2023-10-17T07:00:00,2374A,114.3703,27.7914,宜春市,市气象局,,42,35,55,29,32,160,47,93,72,26,22,2,8,0.9,0.8
2023-10-17T07:00:00,2375A,114.4013,27.8074,宜春市,市广电局,细颗粒物(PM2.5),54,50,57,38,34,164,33,61,45,28,28,4,9,0.6,0.6
2023-10-17T07:00:00,2376A,116.2127,28.0814,抚州市,桐源党溪,细颗粒物(PM2.5),57,56,52,40,31,147,5,30,21,27,13,2,7,0.7,0.7
2023-10-17T07:00:00,2377A,116.3544,27.9831,抚州市,市站,细颗粒物(PM2.5),60,61,65,43,38,146,34,64,26,28,28,3,7,1.1,0.9
2023-10-17T07:00:00,2378A,116.3565,27.963,抚州市,血防站,颗粒物(PM10),58,65,64,37,36,138,31,38,33,26,22,2,6,0.8,0.8
2023-10-17T07:00:00,2379A,116.3564,28.0007,抚州市,采茶剧团,细颗粒物(PM2.5),62,64,62,44,39,143,26,42,19,36,23,4,6,0.9,0.8
2023-10-17T07:00:00,2380A,116.385,27.9647,抚州市,医学分院,颗粒物(PM10),58,66,60,34,34,159,37,35,35,23,20,7,8,0.8,0.8
2023-10-17T07:00:00,2381A,118.005,28.4572,上饶市,百草园,,,63,54,50,33,146,43,46,38,27,16,24,13,,
2023-10-17T07:00:00,2382A,117.9756,28.4436,上饶市,市监测站,细颗粒物(PM2.5),64,72,60,46,38,160,38,49,32,34,25,15,11,0.8,0.7
2023-10-17T07:00:00,2383A,117.9519,28.4628,上饶市,凤凰光学,颗粒物(PM10),56,62,64,37,36,151,26,38,30,52,34,20,13,0.7,0.6
2023-10-17T07:00:00,2385A,114.17,35.9019,鹤壁市,市监测站,细颗粒物(PM2.5),112,103,109,84,76,177,57,82,77,24,32,4,13,0.8,1
2023-10-17T07:00:00,2386A,114.2956,35.7511,鹤壁市,市交警支队,细颗粒物(PM2.5),89,104,108,66,61,162,1,36,28,54,47,5,11,0.8,0.8
2023-10-17T07:00:00,2387A,114.2878,35.7306,鹤壁市,迎宾馆,细颗粒物(PM2.5),99,88,100,74,61,169,20,62,54,44,38,6,14,0.8,0.9
2023-10-17T07:00:00,2389A,113.836,35.311,新乡市,环保西院,细颗粒物(PM2.5),118,143,144,89,74,186,13,32,21,60,55,12,16,2.0,1.2
2023-10-17T07:00:00,2390A,113.884,35.272,新乡市,开发区,细颗粒物(PM2.5),94,114,122,70,70,178,24,73,52,39,37,6,12,1.2,1.1
2023-10-17T07:00:00,2391A,113.883,35.303,新乡市,环保东院,细颗粒物(PM2.5),104,134,145,78,78,176,17,88,59,65,48,8,14,1.4,1.1
2023-10-17T07:00:00,2392A,115.0312,35.7636,濮阳市,环保局,细颗粒物(PM2.5),158,125,95,120,69,119,23,24,23,53,48,8,8,1.0,0.9
2023-10-17T07:00:00,2394A,115.0574,35.7609,濮阳市,油田运输公司,,,,,,,,,,,,,,,,
2023-10-17T07:00:00,2395A,115.0866,35.7754,濮阳市,油田物探公司,细颗粒物(PM2.5),168,182,115,127,70,130,13,24,23,64,43,3,4,1.1,0.9
2023-10-17T07:00:00,2396A,113.8276,34.0159,许昌市,监测站,细颗粒物(PM2.5),223,234,175,173,119,212,4,80,29,80,46,6,10,1.2,0.9
2023-10-17T07:00:00,2398A,113.7906,33.9953,许昌市,开发区,细颗粒物(PM2.5),241,216,184,191,134,209,6,74,21,66,42,6,9,0.9,0.7
2023-10-17T07:00:00,2399A,114.051,33.5699,漯河市,三五一五工厂,颗粒物(PM10),94,137,162,68,91,191,32,26,23,52,60,8,12,0.6,0.7
2023-10-17T07:00:00,2400A,114.0055,33.5698,漯河市,漯河大学,颗粒物(PM10),87,124,144,58,78,185,18,13,13,66,67,17,15,0.7,0.8
2023-10-17T07:00:00,2401A,114.0138,33.5828,漯河市,市水利局,颗粒物(PM10),92,134,157,58,79,186,23,57,28,57,55,10,13,0.8,0.9
2023-10-17T07:00:00,2402A,114.0261,33.5698,漯河市,市广电局,颗粒物(PM10),92,134,156,62,93,181,11,22,14,70,65,8,14,0.8,0.9
2023-10-17T07:00:00,2404A,112.5224,33.0122,南阳市,瓦房庄,颗粒物(PM10),58,65,90,31,43,146,62,52,52,25,46,6,7,0.5,0.7
2023-10-17T07:00:00,2405A,112.5003,32.9735,南阳市,汉画馆,颗粒物(PM10),55,60,84,29,43,152,60,39,39,19,40,5,6,0.6,0.7
2023-10-17T07:00:00,2406A,112.5573,33.027,南阳市,气象站,颗粒物(PM10),56,61,74,29,33,150,67,60,60,20,36,4,5,0.6,0.6
2023-10-17T07:00:00,2407A,112.5481,32.9689,南阳市,理工学院,颗粒物(PM10),65,80,98,37,48,150,59,39,39,20,37,5,6,0.5,0.6
2023-10-17T07:00:00,2408A,115.6702,34.4285,商丘市,环境监测站,细颗粒物(PM2.5),135,151,172,103,122,176,7,47,17,84,62,7,12,0.9,0.9
2023-10-17T07:00:00,2409A,115.6458,34.4045,商丘市,粮食局,细颗粒物(PM2.5),159,166,188,121,132,186,13,49,23,93,66,15,14,0.5,0.7
2023-10-17T07:00:00,2410A,115.6293,34.3948,商丘市,睢阳区环保局,细颗粒物(PM2.5),182,168,168,137,129,186,3,36,14,88,58,12,14,0.7,0.7
2023-10-17T07:00:00,2420A,114.0189,32.9656,驻马店市,市一纸厂,细颗粒物(PM2.5),62,71,76,44,31,165,7,35,13,61,41,11,10,0.8,0.5
2023-10-17T07:00:00,2421A,114.0114,33.015,驻马店市,市彩印厂,颗粒物(PM10),56,61,70,33,29,169,80,101,51,21,20,7,8,0.5,0.4
