timepoint,stationcode,longitude,latitude,area,positionname,primarypollutant,aqi,pm10,pm10_24h,pm2_5,pm2_5_24h,o3,o3_24h,o3_8h,o3_8h_24h,no2,no2_24h,so2,so2_24h,co,co_24h
2023-11-29T1600,2568A,102.2502,31.8896,阿坝藏族羌族自治州,马师校,,21,9,21,7,15,65,,43,43,12,24,4,4,0.4,0.6
2023-11-29T1600,3994A,102.2165,31.9024,阿坝藏族羌族自治州,马尔康中学西区,,24,24,24,7,12,75,,47,47,3,19,4,4,0.3,0.5
2023-11-29T1600,2695A,80.292,41.1694,阿克苏地区,电视台,颗粒物(PM10),111,171,180,56,68,105,,55,55,25,50,14,10,0.7,1.3
2023-11-29T1600,2696A,80.2613,41.1551,阿克苏地区,艺术中心,颗粒物(PM10),100,149,175,58,81,100,,49,49,30,62,12,9,0.8,1.6
2023-11-29T1600,2204A,105.6467,38.8363,阿拉善盟,西城区西花园,,47,47,79,19,22,70,,62,62,8,9,9,8,0.6,0.6
2023-11-29T1600,2205A,105.6985,38.8411,阿拉善盟,蒙二幼,颗粒物(PM10),53,55,83,11,16,68,,60,59,11,11,8,6,0.6,0.6
2023-11-29T1600,2206A,105.724,38.8516,阿拉善盟,环保局新楼,,50,50,71,12,17,68,,59,59,8,9,10,8,0.6,0.5
2023-11-29T1600,2708A,88.1264,47.8517,阿勒泰地区,市站,,23,,7,9,4,73,,76,63,4,14,4,4,0.4,0.5
2023-11-29T1600,2630A,80.1161,32.5,阿里地区,阿里监测站,,30,21,11,2,5,93,,71,71,2,20,9,11,0.4,0.5
2023-11-29T1600,3192A,80.0903,32.5028,阿里地区,阿里藏医院,,,1,12,1,5,91,,55,55,2,31,6,9,,0.5
2023-11-29T1600,2642A,109.0318,32.6537,安康市,香溪洞,颗粒物(PM10),52,53,51,20,41,56,,22,22,14,21,6,8,0.5,0.7
2023-11-29T1600,2643A,109.0281,32.6939,安康市,安康市监测站,细颗粒物(PM2.5),90,88,85,67,65,8,,6,6,46,30,76,24,1.5,1.4
2023-11-29T1600,2644A,109.0072,32.6975,安康市,汉滨区检察院,细颗粒物(PM2.5),74,79,80,54,61,7,,6,6,40,32,47,15,1.0,1.1
2023-11-29T1600,2291A,117.0809,30.5177,安庆市,环科院,细颗粒物(PM2.5),115,145,109,87,61,111,,76,76,33,59,11,10,0.8,0.9
2023-11-29T1600,2292A,117.0331,30.5119,安庆市,马山宾馆,细颗粒物(PM2.5),180,140,108,136,70,115,,87,87,31,55,10,8,0.7,0.8
2023-11-29T1600,2294A,116.9896,30.6145,安庆市,安庆大学,细颗粒物(PM2.5),107,146,113,80,88,115,,86,86,28,44,11,8,0.8,0.9
2023-11-29T1600,3173A,117.0598,30.5351,安庆市,市人大,细颗粒物(PM2.5),112,150,119,84,61,108,,77,77,40,66,8,6,0.7,0.8
2023-11-29T1600,3123A,105.9408,26.2431,安顺市,凤凰山,细颗粒物(PM2.5),69,65,36,50,25,87,,89,84,12,8,18,10,0.6,0.4
2023-11-29T1600,3124A,105.9439,26.2564,安顺市,金钟山,细颗粒物(PM2.5),72,77,40,52,24,90,,88,83,9,7,17,11,0.8,0.5
2023-11-29T1600,3125A,105.8983,26.2481,安顺市,娄家坡,细颗粒物(PM2.5),75,75,40,55,28,87,,86,82,10,7,17,9,0.7,0.5
2023-11-29T1600,1819A,114.3551,36.1017,安阳市,红庙街,,30,30,78,13,42,66,,59,59,8,34,4,8,0.5,0.8
2023-11-29T1600,1820A,114.361,36.0681,安阳市,银杏小区,,31,31,83,18,40,67,,59,59,11,34,5,8,0.4,0.7
2023-11-29T1600,3141A,114.3922,36.0878,安阳市,信访局,,42,42,87,7,36,64,,56,56,9,36,6,8,0.4,0.7
2023-11-29T1600,3669A,114.4705,36.0637,安阳市,左辅环卫站,,33,33,90,11,43,66,,58,58,13,42,6,8,0.3,0.6
2023-11-29T1600,3703A,114.2917,36.0949,安阳市,安钢职工学校,,42,42,94,12,40,66,,58,58,14,38,4,12,0.4,1
2023-11-29T1600,1748A,123.044,41.1196,鞍山市,深沟寺,,23,21,32,6,16,71,,68,68,9,27,6,12,0.5,1
2023-11-29T1600,1749A,123.011,41.0931,鞍山市,太阳城,,24,24,32,5,18,64,,67,67,16,28,19,18,1.4,1.1
2023-11-29T1600,1750A,123.0485,41.1442,鞍山市,太平,,21,21,39,7,21,62,,51,51,13,34,11,14,0.5,0.9
2023-11-29T1600,1751A,122.9642,41.0971,鞍山市,铁西三道街,,22,13,46,1,25,68,,63,63,10,39,7,13,0.4,0.9
2023-11-29T1600,1752A,122.9341,41.0833,鞍山市,铁西工业园区,,22,15,49,8,29,69,,67,67,13,46,11,13,0.6,1.3
2023-11-29T1600,1753A,123.022,41.0821,鞍山市,明达新区,,26,26,33,9,18,58,,61,61,19,32,14,15,1.4,1.1
2023-11-29T1600,2195A,107.4212,40.761,巴彦淖尔市,附二中,,29,29,41,12,19,69,,62,62,10,9,5,4,0.4,0.4
2023-11-29T1600,2196A,107.37,40.7372,巴彦淖尔市,市环保大楼,,28,28,43,9,15,72,,57,57,7,11,4,4,0.4,0.4
2023-11-29T1600,1956A,86.1472,41.7538,巴音郭楞州,孔雀公园,颗粒物(PM10),57,63,119,17,46,89,,62,62,7,30,5,7,0.4,0.7
2023-11-29T1600,1957A,86.1972,41.7166,巴音郭楞州,棉纺厂,颗粒物(PM10),71,91,143,31,50,85,,64,64,18,37,5,4,0.4,0.7
2023-11-29T1600,1958A,86.2357,41.7173,巴音郭楞州,经济开发区,颗粒物(PM10),57,63,117,19,43,91,,74,74,15,28,5,6,0.4,0.7
2023-11-29T1600,2914A,106.7677,31.8794,巴中市,苏山坪,,26,26,36,15,21,75,,78,76,8,12,5,4,0.2,0.4
2023-11-29T1600,3182A,106.7656,31.8545,巴中市,丽阳花园,颗粒物(PM10),80,109,84,54,57,4,,18,16,38,35,6,4,1.9,1.1
2023-11-29T1600,3183A,106.7418,31.8654,巴中市,圣泉水务公司,细颗粒物(PM2.5),79,92,53,58,35,3,,43,9,45,31,8,5,1.7,0.7
2023-11-29T1600,3616A,106.7616,31.8344,巴中市,市中心医院,"颗粒物(PM10),细颗粒物(PM2.5)",73,96,72,53,46,5,,4,4,32,25,5,5,1.0,0.9
2023-11-29T1600,2235A,122.7911,45.6077,白城市,洮北区环保局,,22,20,23,9,12,70,,84,71,11,9,4,5,0.5,0.5
2023-11-29T1600,2236A,122.8738,45.5725,白城市,市环保局,,28,28,28,10,12,73,,73,73,6,11,3,3,0.4,0.4
2023-11-29T1600,2231A,126.4219,41.9171,白山市,喜丰,,,,45,,25,66,,60,60,7,30,6,13,0.5,0.8
2023-11-29T1600,2232A,126.4077,41.9419,白山市,环保局,,49,49,70,9,28,63,,54,54,6,30,11,14,0.7,1.1
2023-11-29T1600,2647A,104.1724,36.5446,白银市,第三小学,颗粒物(PM10),59,68,52,13,13,73,,72,72,18,22,80,46,0.6,0.6
2023-11-29T1600,2648A,104.1465,36.5482,白银市,动力公司,颗粒物(PM10),54,58,49,15,14,82,,80,80,16,15,31,24,0.2,0.2
2023-11-29T1600,2512A,106.6103,23.9011,百色市,市监测站,细颗粒物(PM2.5),80,98,85,59,48,146,,82,82,14,34,15,18,0.9,0.9
2023-11-29T1600,2513A,106.6538,23.8859,百色市,市中心血站,细颗粒物(PM2.5),93,94,99,69,58,140,,76,76,14,38,14,23,1.0,1.1
2023-11-29T1600,3406A,106.6085,23.8798,百色市,祈福高中,细颗粒物(PM2.5),79,101,94,58,52,142,,78,78,14,35,15,16,0.9,0.9
2023-11-29T1600,2270A,117.396,32.939,蚌埠市,工人疗养院,颗粒物(PM10),80,110,112,46,58,50,,46,46,27,30,7,6,0.7,0.6
2023-11-29T1600,2271A,117.3605,32.9427,蚌埠市,百货大楼,颗粒物(PM10),85,119,114,44,56,44,,46,46,29,32,7,5,0.7,0.6
2023-11-29T1600,2273A,117.4185,32.8911,蚌埠市,蚌埠学院,颗粒物(PM10),82,114,112,42,57,54,,49,49,30,40,8,11,0.7,0.7
2023-11-29T1600,2274A,117.3533,32.9673,蚌埠市,淮上区政府,颗粒物(PM10),89,127,112,52,61,46,,46,46,33,34,9,8,0.8,0.7
2023-11-29T1600,2275A,117.3145,32.8977,蚌埠市,高新区,颗粒物(PM10),79,107,108,47,58,41,,37,37,48,47,9,9,0.8,0.7
2023-11-29T1600,3715A,117.3092,32.9314,蚌埠市,蚌埠田家炳中学,颗粒物(PM10),91,132,124,53,61,33,,38,38,50,41,7,5,0.7,0.6
2023-11-29T1600,1585A,109.8756,40.6532,包头市,市环境监测站,,24,24,23,3,6,69,,67,67,5,8,9,10,0.4,0.4
2023-11-29T1600,1587A,109.9991,40.5842,包头市,包头八中,,25,25,26,4,5,70,,64,61,8,13,7,9,0.2,0.3
2023-11-29T1600,1588A,109.8538,40.6821,包头市,青山宾馆,,23,18,26,4,4,71,,68,68,7,9,6,6,0.4,0.4
2023-11-29T1600,1589A,109.8642,40.6288,包头市,惠龙物流,,33,33,24,6,6,70,,69,69,8,9,6,7,0.4,0.4
2023-11-29T1600,1590A,110.0377,40.5546,包头市,东河鸿龙湾,,23,18,19,14,7,71,,62,62,7,11,12,13,0.6,0.6
2023-11-29T1600,3283A,109.9154,40.5685,包头市,滨河大厦,,22,12,23,6,8,70,,58,58,6,14,8,10,0.3,0.4
2023-11-29T1600,3419A,109.9447,40.6261,包头市,包头市委党校,,22,22,31,3,5,69,,67,67,5,8,7,7,0.4,0.5
2023-11-29T1600,3683A,109.8331,40.6576,包头市,昆区政府,,23,23,22,5,5,68,,69,69,9,9,9,10,0.3,0.3
2023-11-29T1600,1930A,107.185,34.3063,宝鸡市,庙沟村,颗粒物(PM10),58,66,69,26,27,70,,53,53,11,26,10,10,0.4,0.5
2023-11-29T1600,1931A,107.0708,34.3017,宝鸡市,竹园沟,颗粒物(PM10),69,87,68,34,31,84,,62,62,24,31,7,5,0.5,1
2023-11-29T1600,1932A,107.1906,34.3672,宝鸡市,三陆医院,颗粒物(PM10),70,89,104,31,51,69,,47,47,28,50,9,14,0.4,0.9
2023-11-29T1600,1933A,107.1431,34.3547,宝鸡市,监测站,颗粒物(PM10),64,77,78,28,38,73,,52,52,24,41,8,7,0.6,0.7
2023-11-29T1600,1934A,107.1186,34.3739,宝鸡市,技工学校,颗粒物(PM10),64,78,90,29,40,74,,53,53,27,39,10,11,0.5,0.7
2023-11-29T1600,1935A,107.3906,34.3528,宝鸡市,陈仓区环保局家属楼,颗粒物(PM10),68,86,122,34,58,59,,45,45,41,57,13,14,0.6,1.1
2023-11-29T1600,1936A,107.2058,34.3497,宝鸡市,文理学院,颗粒物(PM10),65,79,95,26,37,77,,51,51,25,48,10,8,0.7,0.9
2023-11-29T1600,1937A,107.2386,34.3622,宝鸡市,三迪小学,颗粒物(PM10),60,69,97,30,40,74,,48,48,24,50,10,10,0.5,0.8
2023-11-29T1600,1051A,115.493,38.8632,保定市,游泳馆,,21,21,51,6,18,61,,60,60,22,39,3,5,0.7,0.7
2023-11-29T1600,1052A,115.5213,38.8959,保定市,华电二区,,,28,53,,31,50,,51,51,18,35,7,8,0.1,0.2
2023-11-29T1600,1053A,115.4713,38.9108,保定市,接待中心,,38,38,54,15,25,56,,56,56,24,40,6,7,0.1,0.2
2023-11-29T1600,1054A,115.4612,38.8416,保定市,地表水厂,,,,59,,28,55,,54,54,,42,,5,0,0
2023-11-29T1600,1056A,115.5086,38.8639,保定市,监测站,,,43,57,19,29,49,,53,53,33,42,,7,0.3,0.4
2023-11-29T1600,3581A,115.31981,38.95208,保定市,满城区生态环境分局,,46,46,67,8,25,58,,57,57,18,40,3,4,0.5,0.7
2023-11-29T1600,3582A,115.47694,38.76408,保定市,清苑区第二中学,,21,21,44,3,16,64,,62,62,15,37,4,5,0.3,0.3
2023-11-29T1600,3583A,115.62909,39.02311,保定市,徐水物探局,,34,34,74,5,20,65,,60,60,24,45,3,4,0.3,0.5
2023-11-29T1600,4004A,115.4202,38.8656,保定市,双鹰农机,,42,42,52,18,30,60,,60,60,14,29,4,5,0.4,0.5
2023-11-29T1600,2594A,99.1678,25.1081,保山市,市环境监测站,,25,19,27,17,16,79,,53,53,5,11,3,2,0.3,0.5
2023-11-29T1600,2595A,99.1711,25.1328,保山市,市环保局,,,24,31,6,17,80,,49,49,3,8,,4,0.2,0.3
2023-11-29T1600,1867A,109.1436,21.4086,北海市,海滩公园,,33,33,61,12,38,86,,111,101,9,14,6,12,0.6,0.8
2023-11-29T1600,1868A,109.0981,21.4661,北海市,新市环保局,颗粒物(PM10),51,51,58,29,44,69,,111,95,39,22,14,13,1.3,0.9
2023-11-29T1600,1869A,109.1778,21.5233,北海市,北海工业园,细颗粒物(PM2.5),62,59,76,44,54,78,,93,93,24,17,18,17,0.8,0.8
2023-11-29T1600,3400A,109.1911,21.4415,北海市,龙潭自来水厂,,39,36,62,27,45,69,,88,88,19,17,8,12,0.9,0.8
2023-11-29T1600,1001A,116.3621,39.8784,北京市,万寿西宫,,23,23,29,10,10,62,,61,61,4,15,2,2,0.1,0.3
2023-11-29T1600,1002A,116.2202,40.2915,北京市,定陵,,21,17,18,5,6,65,,62,62,2,6,3,2,0.1,0.1
2023-11-29T1600,1003A,116.4174,39.9289,北京市,东四,,30,30,32,6,10,68,,66,66,8,18,1,2,0.3,0.3
2023-11-29T1600,1004A,116.4072,39.8863,北京市,天坛,,33,33,29,5,10,71,,69,69,3,14,3,2,0.1,0.2
2023-11-29T1600,1005A,116.462,39.9365,北京市,农展馆,,29,29,29,6,10,54,,59,59,7,15,3,5,0.2,0.5
2023-11-29T1600,1006A,116.3392,39.9295,北京市,官园,,30,30,30,8,11,71,,69,69,4,16,3,4,0.2,0.3
2023-11-29T1600,1007A,116.2878,39.9611,北京市,海淀万柳,,23,23,28,5,8,65,,60,60,13,21,1,3,0.3,0.5
2023-11-29T1600,1008A,116.6636,40.135,北京市,顺义新城,,22,16,25,5,10,68,,63,63,2,16,1,2,0.2,0.2
2023-11-29T1600,1009A,116.6275,40.3275,北京市,怀柔镇,,24,8,16,3,7,75,,65,65,2,17,2,2,0.1,0.2
2023-11-29T1600,1011A,116.3966,39.9821,北京市,奥体中心,,38,38,33,7,10,66,,62,62,3,17,3,2,0.1,0.2
2023-11-29T1600,1012A,116.184,39.9136,北京市,古城,,23,23,26,6,8,64,,66,65,6,15,3,2,0.3,0.3
2023-11-29T1600,3281A,115.9718,40.4529,北京市,延庆夏都,,22,15,16,5,5,68,,67,67,2,7,2,2,0.1,0.1
2023-11-29T1600,3417A,117.0709,40.1465,北京市,平谷新城,,21,9,20,4,9,65,,61,61,1,15,2,2,0.2,0.2
2023-11-29T1600,3418A,116.8336,40.4095,北京市,密云新城,,18,8,22,4,7,55,,49,49,1,11,3,3,0.2,0.2
2023-11-29T1600,3672A,116.1541,39.8204,北京市,丰台云岗,,28,28,26,7,8,62,,64,64,2,8,1,2,0.2,0.2
2023-11-29T1600,3673A,116.6804,39.9081,北京市,通州东关,,40,40,34,8,12,61,,60,60,6,23,3,3,0.2,0.2
2023-11-29T1600,3674A,115.9577,39.7603,北京市,房山燕山,,20,20,17,5,6,64,,70,69,6,7,3,2,0.2,0.2
2023-11-29T1600,3675A,116.4672,39.7733,北京市,大兴旧宫,,24,24,29,5,10,66,,63,63,3,16,3,3,0.1,0.2
2023-11-29T1600,3694A,115.986,40.4563,北京市,延庆石河营,,23,16,20,5,6,72,,69,69,2,8,1,2,0.1,0.1
2023-11-29T1600,3695A,116.6151,40.3053,北京市,怀柔新城,,24,7,15,4,8,76,,69,69,2,11,1,2,0.1,0.2
2023-11-29T1600,3696A,116.2545,39.8768,北京市,丰台小屯,,22,22,25,6,8,60,,60,60,5,19,3,2,0.2,0.3
2023-11-29T1600,3697A,116.84,40.3844,北京市,密云镇,,22,13,20,5,8,70,,62,62,2,16,3,2,0.1,0.2
2023-11-29T1600,1761A,123.8275,41.3064,本溪市,大峪,,21,12,30,7,17,67,,66,66,13,31,8,8,0.5,0.9
2023-11-29T1600,1762A,123.7567,41.3325,本溪市,溪湖,,22,21,50,5,24,68,,70,70,13,31,10,12,0.3,0.8
2023-11-29T1600,1763A,123.7169,41.3094,本溪市,彩屯,,23,16,38,6,23,71,,70,70,16,39,8,10,0.5,0.9
2023-11-29T1600,1764A,123.7669,41.2864,本溪市,东明,,28,28,43,8,26,66,,66,66,12,39,8,13,0.3,1.2
2023-11-29T1600,1765A,123.7992,41.2664,本溪市,新立屯,,23,18,27,13,17,72,,70,70,11,35,9,13,0.3,1.1
2023-11-29T1600,1766A,123.8142,41.3472,本溪市,威宁,,21,21,46,4,24,66,,63,63,12,36,7,6,0.4,0.8
2023-11-29T1600,2587A,105.2864,27.3125,毕节市,八中,,48,40,41,33,32,86,,89,89,12,14,7,8,0.6,0.6
2023-11-29T1600,2588A,105.31,27.2944,毕节市,师专,,39,35,39,27,30,84,,86,86,12,12,5,7,0.7,0.7
2023-11-29T1600,3537A,105.3631,27.3533,毕节市,长征村,细颗粒物(PM2.5),79,76,67,58,51,93,,94,94,12,11,7,8,0.7,0.7
2023-11-29T1600,1629A,118.0018,37.3617,滨州市,第二水厂,,36,36,34,3,12,67,,65,65,10,24,7,11,0.4,0.6
2023-11-29T1600,1630A,117.9776,37.393,滨州市,北中新校,,38,38,37,5,12,65,,63,63,7,26,6,11,0.4,0.5
2023-11-29T1600,3514A,117.9378,37.3956,滨州市,中海酒店,,28,28,30,11,15,69,,70,70,15,29,9,13,0.7,0.7
2023-11-29T1600,3515A,117.9378,37.3553,滨州市,开发区一中,,31,31,38,16,14,62,,61,61,19,35,7,12,0.5,0.6
2023-11-29T1600,3516A,118.0917,37.694,滨州市,金海六路,,28,28,31,8,11,64,,67,67,14,24,11,11,0.7,0.5
2023-11-29T1600,4028A,117.9956,37.3753,滨州市,滨州市西街道办事处,,35,35,31,17,9,65,,63,63,16,27,10,14,0.3,0.2
2023-11-29T1600,2311A,115.8072,33.8399,亳州市,污水处理厂,颗粒物(PM10),60,69,121,17,60,48,,38,38,23,32,7,10,0.6,0.8
2023-11-29T1600,2312A,115.7789,33.8518,亳州市,三国揽胜宫,颗粒物(PM10),63,75,124,15,51,49,,36,36,23,35,8,11,0.6,0.9
2023-11-29T1600,3332A,115.7633,33.8034,亳州市,亳州学院,,,73,122,17,50,50,,37,37,,33,6,9,0.4,0.7
2023-11-29T1600,2693A,82.0485,44.8556,博尔塔拉蒙古自治州,市党校,,35,35,53,18,28,21,,32,21,12,19,7,9,1.0,0.6
2023-11-29T1600,2694A,82.0806,44.8969,博尔塔拉蒙古自治州,市环保局,,41,41,52,25,26,18,,36,21,20,20,8,8,0.7,0.6
2023-11-29T1600,1071A,116.8842,38.2991,沧州市,沧县城建局,,45,45,51,15,24,67,,64,64,18,36,5,5,0.5,0.6
2023-11-29T1600,1072A,116.8584,38.3254,沧州市,电视转播站,,34,34,52,12,19,69,,68,68,15,33,2,5,0.5,0.7
2023-11-29T1600,1073A,116.8709,38.3228,沧州市,市环保局,,34,34,49,19,26,73,,70,70,12,31,3,4,0.5,0.7
2023-11-29T1600,3324A,116.8136,38.3004,沧州市,河北水利电力学院,,31,31,40,14,20,66,,63,63,14,32,7,9,0.1,0.3
2023-11-29T1600,2622A,97.1806,31.1273,昌都市,昌都监测站,,23,6,65,0,36,72,,38,38,10,53,9,11,0.4,1.5
2023-11-29T1600,3719A,97.1714,31.1406,昌都市,昌都会议中心,,25,10,27,2,16,79,,52,52,12,30,4,5,0.3,0.5
2023-11-29T1600,2690A,88.1236,43.8886,昌吉州,天山天池,,,,4,4,2,63,,64,63,5,4,6,6,0.5,0.5
2023-11-29T1600,2692A,87.2717,44.0297,昌吉州,新区政务中心,细颗粒物(PM2.5),100,109,106,75,70,29,,21,21,32,30,4,4,1.4,1.1
2023-11-29T1600,3613A,87.3095,44.0142,昌吉州,亚心广场,细颗粒物(PM2.5),100,119,121,75,79,27,,20,20,24,26,2,3,1.5,1.2
2023-11-29T1600,1119A,125.3325,43.9166,长春市,食品厂,,31,31,27,18,18,46,,51,51,30,31,9,12,0.3,0.4
2023-11-29T1600,1120A,125.2863,43.9027,长春市,客车厂,,19,16,21,12,18,58,,58,58,16,27,4,11,0.4,0.5
2023-11-29T1600,1121A,125.2841,43.8463,长春市,邮电学院,,20,18,28,10,23,63,,62,62,13,26,11,16,0.3,0.4
2023-11-29T1600,1122A,125.3716,43.8772,长春市,劳动公园,,21,12,21,9,13,65,,63,63,12,24,7,14,0.3,0.4
2023-11-29T1600,1123A,125.3297,43.8805,长春市,园林处,,20,20,21,8,16,60,,58,58,14,27,8,13,0.3,0.4
2023-11-29T1600,1124A,125.4605,43.79,长春市,净月潭,,20,14,20,5,12,63,,61,61,9,13,5,5,0.2,0.3
2023-11-29T1600,1126A,125.3863,43.8447,长春市,经开区环卫处,,20,20,21,7,14,60,,59,59,16,26,9,14,0.4,0.5
2023-11-29T1600,1127A,125.245,43.7783,长春市,高新区管委会,,19,16,22,13,20,60,,61,61,17,27,7,8,0.3,0.4
2023-11-29T1600,1128A,125.1761,43.8325,长春市,岱山公园,,34,34,26,8,17,54,,57,57,17,24,4,4,0.3,0.4
2023-11-29T1600,1335A,113.0833,28.2325,长沙市,经开区环保局,颗粒物(PM10),67,83,85,40,43,101,,70,70,20,39,10,10,0.5,0.6
2023-11-29T1600,1336A,112.8872,28.2189,长沙市,高开区环保局,细颗粒物(PM2.5),89,97,86,66,49,106,,74,74,20,31,8,11,0.9,0.8
2023-11-29T1600,1337A,113.0792,28.2053,长沙市,马坡岭,颗粒物(PM10),67,83,89,45,50,114,,73,73,19,45,10,11,0.7,0.5
2023-11-29T1600,1338A,112.9394,28.19,长沙市,湖南师范大学,细颗粒物(PM2.5),105,101,84,79,52,114,,66,66,,38,8,9,,0.9
2023-11-29T1600,1339A,113.0178,28.1322,长沙市,雨花区环保局,颗粒物(PM10),67,84,77,47,46,109,,76,76,20,32,6,8,0.7,0.7
2023-11-29T1600,1340A,112.9792,28.2597,长沙市,伍家岭,细颗粒物(PM2.5),82,78,103,60,53,107,,63,63,20,54,8,7,0.6,0.8
2023-11-29T1600,1341A,113.0014,28.1944,长沙市,火车新站,细颗粒物(PM2.5),67,78,86,48,52,110,,71,71,20,54,7,8,0.7,0.9
2023-11-29T1600,1342A,112.9844,28.1178,长沙市,天心区环保局,细颗粒物(PM2.5),84,91,87,62,48,114,,75,75,21,38,10,12,0.4,0.5
2023-11-29T1600,1343A,112.8908,28.1308,长沙市,湖南中医药大学,细颗粒物(PM2.5),93,95,96,69,55,102,,67,67,18,53,7,7,1.0,1
2023-11-29T1600,1344A,112.9581,28.3611,长沙市,沙坪,颗粒物(PM10),70,89,57,47,38,75,,58,58,23,23,8,8,0.8,0.6
2023-11-29T1600,1727A,113.1147,36.1547,长治市,清华站,,43,43,91,9,38,66,,55,55,15,38,12,20,0.7,1
2023-11-29T1600,1728A,113.1031,36.1989,长治市,监测站,,24,24,84,14,40,66,,50,50,16,40,11,21,0.5,0.9
2023-11-29T1600,1730A,113.0886,36.2125,长治市,审计局,,27,27,75,7,39,66,,49,49,17,43,13,23,0.6,1
2023-11-29T1600,1731A,113.0844,36.1856,长治市,长治八中,,34,34,93,14,38,64,,48,48,18,45,15,24,0.3,0.7
2023-11-29T1600,2845A,113.1569,36.1911,长治市,德盛苑,,35,35,76,7,38,68,,49,49,12,30,12,25,0.5,1
2023-11-29T1600,3568A,113.06,36.0464,长治市,向阳小学,,50,50,98,11,46,78,,56,56,18,42,13,25,0.3,0.8
2023-11-29T1600,3569A,112.8792,36.3144,长治市,屯留一中,,34,34,65,8,30,70,,59,59,17,37,12,18,0.5,0.8
2023-11-29T1600,3570A,113.235,36.3489,长治市,潞城四中,,35,35,97,4,39,81,,58,58,11,41,7,20,0.2,1
2023-11-29T1600,1854A,111.6975,28.9703,常德市,市二中,,,131,139,52,77,,,47,47,,36,,8,,0.9
2023-11-29T1600,1857A,111.7158,29.1456,常德市,白鹤山,颗粒物(PM10),84,118,117,55,65,48,,47,47,20,15,7,7,0.7,0.9
2023-11-29T1600,3138A,111.7153,29.0289,常德市,武陵区永安,颗粒物(PM10),84,118,112,57,78,51,,49,49,23,27,9,9,0.8,1
2023-11-29T1600,3139A,111.6892,28.9881,常德市,鼎城区玉霞,细颗粒物(PM2.5),89,123,138,66,95,56,,47,47,25,36,9,9,0.7,1
2023-11-29T1600,3140A,111.6625,29.0531,常德市,武陵区长庚,颗粒物(PM10),87,124,128,49,77,54,,46,46,22,30,8,8,0.8,1
2023-11-29T1600,1196A,119.9633,31.762,常州市,市监测站,细颗粒物(PM2.5),103,130,148,77,90,98,,85,85,32,59,,11,0.7,0.9
2023-11-29T1600,1200A,119.9468,31.7069,常州市,武进监测站,细颗粒物(PM2.5),100,142,149,75,83,106,,79,79,30,47,10,13,1.0,1.1
2023-11-29T1600,1201A,119.9255,31.9087,常州市,安家,颗粒物(PM10),68,85,139,47,84,89,,72,72,23,58,8,9,0.8,1.1
2023-11-29T1600,3002A,119.9805,31.8174,常州市,行政中心,"颗粒物(PM10),细颗粒物(PM2.5)",78,106,128,57,77,96,,81,81,25,59,13,15,0.6,1.1
2023-11-29T1600,3003A,120.0522,31.7748,常州市,经开区,"颗粒物(PM10),细颗粒物(PM2.5)",87,123,154,64,82,104,,80,80,23,62,9,12,0.8,1.1
2023-11-29T1600,3010A,119.9025,31.7964,常州市,钟楼,细颗粒物(PM2.5),97,115,139,72,87,92,,76,76,35,58,10,11,0.9,1
2023-11-29T1600,3429A,119.8598,31.7066,常州市,武进经发区,细颗粒物(PM2.5),98,129,160,73,84,104,,84,84,32,54,11,12,0.7,0.8
2023-11-29T1600,3430A,119.5826,31.7245,常州市,金坛城区,细颗粒物(PM2.5),85,117,150,63,90,99,,83,83,28,40,12,11,0.9,1
2023-11-29T1600,2220A,120.4318,41.5881,朝阳市,西梁,颗粒物(PM10),58,66,36,8,14,72,,73,73,7,17,5,9,0.5,0.7
2023-11-29T1600,2221A,120.4521,41.5646,朝阳市,河畔小区,,50,50,30,7,12,71,,70,70,8,14,4,7,0.4,0.5
2023-11-29T1600,2222A,120.4176,41.5648,朝阳市,八里堡,,43,43,37,7,13,71,,70,70,4,15,8,12,0.5,0.7
2023-11-29T1600,2223A,120.3806,41.5969,朝阳市,农业园区,,,32,30,5,13,,,69,69,3,19,6,10,0.5,0.6
2023-11-29T1600,1705A,116.6367,23.6719,潮州市,西园路,,,56,72,24,46,68,,85,85,,18,5,6,0.5,0.6
2023-11-29T1600,1706A,116.6447,23.6706,潮州市,档案局,颗粒物(PM10),51,52,66,32,40,85,,94,94,24,19,4,5,0.5,0.6
2023-11-29T1600,3026A,116.6183,23.6608,潮州市,市政府,颗粒物(PM10),57,63,71,23,36,102,,98,98,13,20,5,7,0.3,0.6
2023-11-29T1600,2472A,113.0073,25.9061,郴州市,马头岭,颗粒物(PM10),75,100,80,28,32,130,,89,89,29,36,16,20,1.0,1.4
2023-11-29T1600,2473A,113.0116,25.8226,郴州市,市职中,细颗粒物(PM2.5),63,64,67,45,47,159,,104,104,18,33,22,16,0.7,0.8
2023-11-29T1600,2474A,113.0161,25.8001,郴州市,兴隆步行街,颗粒物(PM10),62,73,78,43,53,163,,113,113,18,41,26,16,0.7,0.8
2023-11-29T1600,2475A,113.0383,25.8071,郴州市,市审计局,细颗粒物(PM2.5),60,61,65,43,45,150,,93,93,22,38,31,22,0.6,0.7
2023-11-29T1600,2476A,113.0348,25.7759,郴州市,市环保局,,,,73,,45,134,,95,95,22,37,23,27,0.6,0.7
2023-11-29T1600,1431A,103.9728,30.7236,成都市,金泉两河,,50,50,87,19,58,74,,50,50,13,33,2,3,0.2,0.5
2023-11-29T1600,1432A,104.176,30.6872,成都市,十里店,颗粒物(PM10),56,62,98,31,67,61,,32,32,31,47,3,3,0.5,0.7
2023-11-29T1600,1433A,104.079,30.5706,成都市,三瓦窑,颗粒物(PM10),56,61,97,27,56,62,,34,34,24,47,2,3,0.4,0.7
2023-11-29T1600,1434A,104.1114,30.63,成都市,沙河铺,颗粒物(PM10),59,67,91,30,59,55,,30,30,27,42,5,4,0.4,0.8
2023-11-29T1600,1437A,104.0786,30.6531,成都市,君平街,颗粒物(PM10),61,72,93,34,58,69,,46,46,26,44,3,4,0.4,0.7
2023-11-29T1600,1438A,103.613,31.0283,成都市,灵岩寺,,26,,50,17,38,83,,70,70,15,19,12,23,0.6,0.7
2023-11-29T1600,3136A,104.2725,30.5589,成都市,龙泉驿区区政府,细颗粒物(PM2.5),70,83,75,51,49,24,,28,28,61,34,5,3,0.7,0.7
2023-11-29T1600,3357A,104.0106,30.6931,成都市,金博路,细颗粒物(PM2.5),55,58,92,39,63,66,,42,42,24,46,1,3,0.5,0.7
2023-11-29T1600,3359A,104.0578,30.5225,成都市,华阳,颗粒物(PM10),57,63,100,36,66,42,,20,20,33,51,2,2,0.6,0.8
2023-11-29T1600,3487A,104.2394,30.5319,成都市,车城东七路,细颗粒物(PM2.5),88,92,90,65,63,26,,26,26,65,52,5,4,0.6,0.6
2023-11-29T1600,3488A,104.3853,30.7453,成都市,青白江技师分院,细颗粒物(PM2.5),89,88,76,66,57,20,,14,14,63,54,9,8,0.7,0.8
2023-11-29T1600,3489A,104.0789,30.4072,成都市,科学城,细颗粒物(PM2.5),94,100,98,70,71,18,,18,18,65,50,2,2,0.8,0.7
2023-11-29T1600,4011A,103.8506,30.6947,成都市,光华大道三段,,45,45,84,24,58,81,,67,67,15,36,4,4,0.3,0.7
2023-11-29T1600,1062A,117.9531,40.9081,承德市,铁路,,36,36,40,5,15,70,,66,66,5,25,8,9,0.2,0.4
2023-11-29T1600,1063A,117.9392,40.9763,承德市,中国银行,颗粒物(PM10),52,53,42,11,11,66,,60,60,10,23,8,8,0.3,0.5
2023-11-29T1600,1064A,117.9503,40.928,承德市,开发区,,41,41,37,16,20,76,,65,65,4,22,7,8,0.2,0.4
2023-11-29T1600,1065A,117.8051,40.9655,承德市,文化中心,,42,42,51,13,16,72,,61,61,4,25,6,8,0.3,0.5
2023-11-29T1600,1066A,117.9268,41.0026,承德市,离宫,,43,43,26,15,21,74,,68,68,1,12,3,4,0.2,0.3
2023-11-29T1600,2314A,117.47,30.6618,池州市,池州学院,细颗粒物(PM2.5),129,163,95,98,49,105,,72,72,34,38,9,7,0.7,0.9
2023-11-29T1600,3237A,117.4918,30.6617,池州市,展览馆,颗粒物(PM10),118,186,89,86,41,112,,76,76,31,33,10,7,0.6,0.8
2023-11-29T1600,3333A,117.5627,30.695,池州市,第八中学,细颗粒物(PM2.5),127,162,103,96,52,110,,71,71,34,34,8,12,0.7,0.7
2023-11-29T1600,3334A,117.5038,30.6243,池州市,第十二中学,细颗粒物(PM2.5),125,166,84,95,45,113,,79,79,33,39,10,5,0.6,1.2
2023-11-29T1600,1744A,118.9233,42.2816,赤峰市,松山一中,,32,32,26,7,9,75,,76,76,11,18,9,12,0.5,0.6
2023-11-29T1600,1745A,118.9576,42.2728,赤峰市,哈达街,颗粒物(PM10),52,53,33,5,12,71,,70,70,12,19,14,26,0.5,0.6
2023-11-29T1600,1746A,118.8788,42.2554,赤峰市,天义路,颗粒物(PM10),53,56,32,10,10,77,,77,77,9,15,8,11,0.5,0.6
2023-11-29T1600,3058A,119.2658,42.0353,赤峰市,银河街,颗粒物(PM10),56,61,32,8,12,72,,74,74,10,13,15,16,0.5,0.5
2023-11-29T1600,3286A,118.9359,42.3147,赤峰市,桥北物流园区,,33,33,39,4,11,76,,72,72,15,24,10,13,0.4,1
2023-11-29T1600,2521A,107.3476,22.4136,崇左市,市环保局江州分局,颗粒物(PM10),51,52,68,32,40,138,,114,114,7,23,6,6,0.7,0.8
2023-11-29T1600,2522A,107.3702,22.3707,崇左市,城南新区,细颗粒物(PM2.5),53,53,56,37,41,132,,109,109,7,19,6,7,0.7,0.8
2023-11-29T1600,2298A,118.3093,32.3153,滁州市,老年大学,"颗粒物(PM10),细颗粒物(PM2.5)",62,73,120,44,75,73,,63,63,24,51,8,10,0.4,0.8
2023-11-29T1600,2299A,118.3244,32.2786,滁州市,人大宾馆,颗粒物(PM10),70,89,128,44,80,76,,66,66,30,55,8,10,0.4,0.7
2023-11-29T1600,3207A,118.3118,32.3038,滁州市,市政府原办公楼,颗粒物(PM10),64,77,118,39,70,71,,63,63,29,54,7,9,0.4,0.8
2023-11-29T1600,3331A,118.3267,32.2634,滁州市,图书馆,颗粒物(PM10),76,101,123,21,73,78,,70,70,27,52,9,8,0.5,0.9
2023-11-29T1600,2605A,101.5482,25.0441,楚雄州,州环境监测站,,21,17,32,12,26,65,,48,48,4,17,6,11,0.4,0.6
2023-11-29T1600,2606A,101.538,25.0492,楚雄州,市经济开发区,,24,24,33,12,25,60,,46,46,7,17,5,11,0.5,0.6
2023-11-29T1600,2548A,107.5277,31.2827,达州市,达州职业技术学院,颗粒物(PM10),83,116,68,47,36,9,,9,9,60,27,24,14,2.0,0.5
2023-11-29T1600,2549A,107.5086,31.2186,达州市,市环境监测站,颗粒物(PM10),82,113,79,44,34,4,,4,4,54,39,22,20,1.0,0.8
2023-11-29T1600,2550A,107.4988,31.2132,达州市,凤凰小区,颗粒物(PM10),92,134,77,56,38,8,,7,7,54,40,29,24,1.6,0.8
2023-11-29T1600,2551A,107.5082,31.1986,达州市,达县机关宾馆,颗粒物(PM10),74,97,81,46,39,7,,6,6,53,41,20,21,0.7,0.7
2023-11-29T1600,2552A,107.4644,31.2124,达州市,市政中心,颗粒物(PM10),92,134,86,66,40,5,,4,4,65,44,40,22,2.1,1.1
2023-11-29T1600,2614A,100.1542,25.7054,大理州,大理市环境监测站,,25,20,26,16,18,77,,70,70,9,9,6,5,0.5,0.5
2023-11-29T1600,2615A,100.2171,25.5811,大理州,大理古城,,36,29,27,25,19,101,,71,71,10,16,7,7,0.4,0.5
2023-11-29T1600,1109A,121.612,38.9741,大连市,甘井子,,24,16,20,6,11,74,,74,74,14,27,7,11,0.6,0.6
2023-11-29T1600,1110A,121.565,38.9511,大连市,周水子,,23,22,23,8,12,71,,71,71,11,21,6,11,0.5,0.6
2023-11-29T1600,1111A,121.5637,38.8845,大连市,星海三站,,27,27,29,10,12,67,,70,70,18,22,11,7,0.4,0.5
2023-11-29T1600,1112A,121.6302,38.9117,大连市,青泥洼桥,,21,14,18,6,10,66,,66,66,14,19,9,11,0.4,0.5
2023-11-29T1600,1113A,121.6251,38.8638,大连市,傅家庄,,24,19,17,7,8,74,,73,73,11,12,9,10,0.5,0.5
2023-11-29T1600,1114A,121.5213,38.8661,大连市,七贤岭,,28,14,21,5,10,87,,85,85,12,20,12,10,0.6,0.6
2023-11-29T1600,1115A,121.2529,38.8061,大连市,旅顺,,25,19,19,7,10,80,,78,78,5,15,8,9,0.5,0.6
2023-11-29T1600,1116A,121.7485,39.1311,大连市,金州,,24,22,29,9,19,74,,73,73,8,18,7,9,0.5,0.6
2023-11-29T1600,1117A,121.7811,39.0496,大连市,开发区,,22,17,25,7,14,70,,70,70,13,27,8,8,0.3,0.4
2023-11-29T1600,1118A,121.9762,39.0631,大连市,双D港,,26,20,26,6,13,83,,81,81,7,16,10,9,0.4,0.5
2023-11-29T1600,1789A,124.81117,46.03138,大庆市,大同区,,22,22,33,11,24,58,,54,54,3,11,6,8,0.3,0.4
2023-11-29T1600,1790A,125.129,46.533,大庆市,龙凤区,,25,19,27,17,23,45,,40,40,14,23,5,7,0.5,0.5
2023-11-29T1600,1791A,124.902,46.408,大庆市,红岗区,,,27,24,15,17,52,,54,54,13,12,4,5,,0.4
2023-11-29T1600,1792A,125.153,46.586,大庆市,萨尔图区,,,12,21,7,16,,,48,48,19,20,6,5,0.4,0.5
2023-11-29T1600,1793A,124.9042,46.6215,大庆市,让胡路区,,38,28,28,26,18,57,,54,54,12,16,3,4,0.3,0.4
2023-11-29T1600,3481A,125.141,46.634,大庆市,萨区政府监测点,,19,,19,13,16,60,,53,53,6,21,6,7,0.3,0.4
2023-11-29T1600,1723A,113.2994,40.0758,大同市,云冈宾馆,,24,19,29,9,11,75,,64,64,4,12,6,12,0.3,0.5
2023-11-29T1600,1724A,113.3444,40.0917,大同市,大同大学,,25,19,38,8,12,78,,65,65,6,18,5,10,0.2,0.5
2023-11-29T1600,1725A,113.2661,40.1269,大同市,安家小村,,,,35,,10,,,63,63,2,11,6,11,0.4,0.6
2023-11-29T1600,1726A,113.2711,40.0844,大同市,教育学院,,22,20,34,10,11,70,,61,61,12,18,4,10,0.2,0.4
2023-11-29T1600,3282A,113.3397,40.0597,大同市,大同市卫生学校,,22,20,25,11,12,69,,58,58,8,15,4,8,0.3,0.6
2023-11-29T1600,3565A,113.1367,40.1122,大同市,云冈站,,23,17,31,6,11,72,,64,64,5,19,8,19,0.2,0.6
2023-11-29T1600,3566A,113.1186,40.2556,大同市,图书馆,,,21,32,10,17,70,,33,,8,16,,15,0.6,0.9
2023-11-29T1600,3567A,113.5931,40.0461,大同市,区一中,,23,22,26,13,10,72,,65,65,9,13,4,9,0.3,0.4
2023-11-29T1600,3676A,113.2802,40.0995,大同市,第二人民医院,,26,26,34,4,13,72,,61,61,6,16,5,11,0.3,0.6
2023-11-29T1600,2269A,124.1069,50.4097,大兴安岭地区,科技局,,23,,15,16,16,69,,64,64,4,5,2,2,0.3,0.3
2023-11-29T1600,3663A,124.1164,50.4278,大兴安岭地区,红旗社区,,23,5,15,3,11,72,,63,63,3,20,3,4,0.3,0.6
2023-11-29T1600,1600A,124.3303,40.0625,丹东市,江湾东路,,22,16,43,9,34,69,,65,65,13,42,8,14,0.4,1.4
2023-11-29T1600,1601A,124.4256,40.1503,丹东市,临江后街,,22,15,33,7,22,69,,66,66,10,27,1,7,0.5,0.9
2023-11-29T1600,1602A,124.3933,40.1461,丹东市,元宝山,,21,15,27,3,19,67,,63,63,10,22,8,11,0.6,0.8
2023-11-29T1600,1603A,124.3633,40.1092,丹东市,民主桥,,21,20,35,8,21,65,,62,62,10,32,6,11,0.3,0.8
2023-11-29T1600,3541A,109.5726,19.5167,儋州市,第一中学子站,,27,22,52,13,31,84,,100,84,8,8,3,4,0.7,0.7
2023-11-29T1600,3542A,109.5567,19.5187,儋州市,东坡学校子站,,27,25,49,9,29,84,,104,88,9,8,3,3,0.6,0.7
2023-11-29T1600,2616A,98.5842,24.428,德宏州,德宏州监测站,,27,27,44,18,29,73,,36,36,21,21,32,17,0.4,0.5
2023-11-29T1600,3677A,98.5881,24.4368,德宏州,芒市人民政府综合楼,,40,40,41,17,26,74,,38,38,13,17,20,13,0.2,0.4
2023-11-29T1600,1901A,104.4239,31.1208,德阳市,东山公园,颗粒物(PM10),62,73,101,30,59,62,,32,32,19,34,2,6,0.4,0.6
2023-11-29T1600,1902A,104.3826,31.1317,德阳市,西小区,颗粒物(PM10),61,71,102,32,73,60,,22,22,16,44,1,5,0.4,0.8
2023-11-29T1600,1904A,104.3553,31.1091,德阳市,耐火材料厂,颗粒物(PM10),59,68,118,37,77,51,,22,22,25,37,1,6,0.4,0.7
2023-11-29T1600,3639A,104.4019,31.1244,德阳市,市教育局,颗粒物(PM10),60,69,90,31,64,52,,21,21,25,48,1,5,0.5,0.8
2023-11-29T1600,1622A,116.3032,37.4674,德州市,儿童乐园,,23,17,52,2,17,71,,68,68,4,27,8,12,0.4,0.6
2023-11-29T1600,1624A,116.2991,37.4451,德州市,监理站,,24,17,42,0,11,74,,72,72,5,26,4,10,0.4,0.5
2023-11-29T1600,3066A,116.2721,37.4379,德州市,九衢泉纯净水厂,,23,17,51,9,17,72,,69,69,14,33,5,10,0.4,0.5
2023-11-29T1600,3371A,116.3728,37.4403,德州市,开发区人民医院,,24,24,52,2,17,74,,71,71,3,28,6,10,0.5,0.6
2023-11-29T1600,3372A,116.3572,37.4094,德州市,太阳城中学,,22,20,49,6,20,68,,66,66,7,31,4,10,0.7,0.6
2023-11-29T1600,3511A,116.5652,37.3319,德州市,陵城艺术中心,,,29,55,2,20,72,,71,71,17,29,,8,0.4,0.6
2023-11-29T1600,2621A,99.7056,27.8317,迪庆州,迪庆州站,,28,15,28,6,18,88,,78,78,9,18,7,9,0.3,0.6
2023-11-29T1600,3180A,99.7136,27.8094,迪庆州,质量技术监督局,,29,23,29,8,18,91,,73,73,4,14,6,6,0.3,0.5
2023-11-29T1600,2663A,104.6241,35.5734,定西市,东关小学,,38,38,52,9,22,91,,65,65,4,13,4,12,0.3,0.4
2023-11-29T1600,2664A,104.6194,35.5934,定西市,供电公司,,39,39,47,20,26,87,,58,58,10,23,7,9,0.6,0.6
2023-11-29T1600,1389A,113.7547,23.0494,东莞市,莞城梨川,,,54,79,27,44,126,,97,97,,54,9,9,0.7,0.9
2023-11-29T1600,1390A,113.7944,23.0128,东莞市,东城石井,颗粒物(PM10),55,59,65,30,38,120,,96,96,23,31,10,9,0.7,0.8
2023-11-29T1600,1391A,113.7383,22.9658,东莞市,南城西平,颗粒物(PM10),59,68,74,33,41,116,,91,91,38,61,6,5,0.6,0.7
2023-11-29T1600,3319A,113.7338,23.0381,东莞市,万江金泰,,,,83,,45,,,86,86,,55,10,9,,1
2023-11-29T1600,3626A,113.7533,23.0202,东莞市,南城元岭,颗粒物(PM10),57,64,86,31,44,130,,98,98,22,55,3,3,0.7,0.9
2023-11-29T1600,3627A,113.7875,23.0457,东莞市,东城主山,颗粒物(PM10),52,53,76,26,42,127,,96,96,20,52,9,9,0.7,0.8
2023-11-29T1600,1666A,118.6614,37.4309,东营市,市环保局,,25,7,18,2,5,77,,74,74,10,16,5,7,0.5,0.6
2023-11-29T1600,3036A,118.6904,37.4338,东营市,开发区管委会,,25,15,21,5,7,80,,76,76,9,17,2,4,0.5,0.6
2023-11-29T1600,3365A,118.5719,37.565,东营市,垦利区民丰路,,25,14,20,2,6,78,,73,73,8,21,13,14,0.4,0.5
2023-11-29T1600,3498A,118.5055,37.8612,东营市,河口城区,,22,22,23,5,7,70,,74,74,14,18,9,10,0.6,0.7
2023-11-29T1600,3646A,118.4978,37.4623,东营市,胜利站,,27,27,28,0,8,76,,74,74,14,25,6,8,0.2,0.5
2023-11-29T1600,3734A,118.35,37.26,东营市,理想之城,,24,17,24,5,8,74,,68,68,9,17,3,3,0.3,0.4
2023-11-29T1600,1591A,110.0023,39.8129,鄂尔多斯市,综合楼,,27,27,38,7,6,67,,64,64,14,22,4,7,0.3,0.4
2023-11-29T1600,1592A,109.9486,39.8261,鄂尔多斯市,巴音孟克林场办事处,,21,19,35,5,9,66,,62,62,6,20,6,10,0.3,0.5
2023-11-29T1600,1593A,109.7736,39.5986,鄂尔多斯市,康泽苑,,22,9,23,2,5,70,,65,65,8,11,5,6,0.4,0.4
2023-11-29T1600,1594A,109.8119,39.5989,鄂尔多斯市,华泰汽车城,,24,9,27,5,5,75,,68,68,6,13,5,9,0.4,0.5
2023-11-29T1600,1595A,109.9734,39.7884,鄂尔多斯市,奥林花园,,,22,35,2,7,68,,65,65,8,17,5,8,,0.7
2023-11-29T1600,2436A,114.8938,30.3994,鄂州市,市政府,细颗粒物(PM2.5),104,132,87,78,50,94,,78,78,28,31,8,12,0.9,0.9
2023-11-29T1600,2437A,114.8989,30.3714,鄂州市,赵家坝,细颗粒物(PM2.5),104,137,90,78,49,105,,90,90,27,42,8,11,0.7,1
2023-11-29T1600,3654A,114.8094,30.4089,鄂州市,精准医疗中心,细颗粒物(PM2.5),105,148,118,79,54,103,,90,90,25,36,10,25,0.8,1.5
2023-11-29T1600,2499A,108.3411,21.6158,防城港市,沙万,颗粒物(PM10),63,76,77,33,49,134,,111,111,19,27,24,19,0.4,0.6
2023-11-29T1600,2500A,108.3514,21.7731,防城港市,防城档案局,颗粒物(PM10),60,69,115,36,56,159,,120,120,16,32,7,6,0.4,0.8
2023-11-29T1600,2501A,108.3506,21.6414,防城港市,大海花园,,48,48,75,29,47,130,,109,109,14,25,5,19,0.5,0.8
2023-11-29T1600,1371A,113.1294,23.0067,佛山市,湾梁,颗粒物(PM10),69,88,94,37,46,96,,62,62,52,70,9,12,0.6,0.7
2023-11-29T1600,1372A,113.1083,23.0478,佛山市,华材职中,颗粒物(PM10),67,83,100,45,58,92,,63,63,51,88,6,10,0.6,0.8
2023-11-29T1600,1373A,113.144,23.0453,佛山市,南海气象局,"颗粒物(PM10),细颗粒物(PM2.5)",63,76,91,45,52,93,,58,58,52,85,4,9,0.6,0.7
2023-11-29T1600,1374A,113.2881,22.8094,佛山市,顺德苏岗,颗粒物(PM10),71,91,73,48,45,104,,73,73,53,53,12,10,0.7,0.8
2023-11-29T1600,1376A,112.8383,22.8678,佛山市,高明孔堂,细颗粒物(PM2.5),83,77,96,61,58,82,,60,45,67,54,11,11,0.6,0.8
2023-11-29T1600,1377A,112.8836,23.1588,佛山市,三水监测站,细颗粒物(PM2.5),78,90,123,57,69,73,,39,39,36,90,8,12,0.9,1
2023-11-29T1600,1378A,112.867,23.185,佛山市,三水云东海,细颗粒物(PM2.5),72,69,97,52,66,73,,38,38,36,71,17,11,0.8,0.9
2023-11-29T1600,1282A,119.2681,26.0504,福州市,师大,颗粒物(PM10),60,70,68,12,24,130,,100,100,9,15,5,6,0.4,0.5
2023-11-29T1600,1283A,119.2984,26.1028,福州市,五四北路,颗粒物(PM10),63,75,63,19,22,130,,101,101,9,16,3,4,0.5,0.6
2023-11-29T1600,1284A,119.2648,26.0768,福州市,杨桥西路,,,67,70,15,23,,,95,95,9,16,3,4,0.3,0.6
2023-11-29T1600,1285A,119.317,26.0746,福州市,紫阳,颗粒物(PM10),68,86,67,20,21,116,,96,96,18,15,6,7,0.4,0.5
2023-11-29T1600,3048A,119.5799,26.0936,福州市,九龙,颗粒物(PM10),57,64,56,14,18,125,,110,110,11,11,4,5,0.4,0.4
2023-11-29T1600,3526A,119.5189,25.9664,福州市,吴航,颗粒物(PM10),87,123,61,30,22,92,,87,80,33,20,7,6,0.7,0.7
2023-11-29T1600,1755A,123.7977,41.8491,抚顺市,望花区,,22,14,48,5,30,69,,66,66,9,32,2,10,0.3,0.6
2023-11-29T1600,1756A,123.9161,41.8822,抚顺市,顺城区,,21,18,62,2,36,66,,65,65,10,35,4,7,0.6,1.1
2023-11-29T1600,1757A,124.0436,41.8611,抚顺市,东洲区,,23,,43,7,27,73,,65,65,13,26,7,11,0.4,0.6
2023-11-29T1600,1758A,123.9247,41.8642,抚顺市,新抚区,,23,17,43,16,31,67,,64,64,8,26,6,8,0.2,0.6
2023-11-29T1600,1759A,124.0972,41.8961,抚顺市,大伙房水库,,25,17,50,4,30,78,,72,72,4,29,6,15,0.5,0.8
2023-11-29T1600,1760A,123.7086,41.8391,抚顺市,沈抚新城,,,21,44,3,24,72,,68,68,3,29,,9,0.2,0.6
2023-11-29T1600,2376A,116.2127,28.0814,抚州市,桐源党溪,,42,42,58,29,37,111,,73,73,13,16,5,4,1.0,1.1
2023-11-29T1600,2377A,116.3544,27.9831,抚州市,市站,,,56,76,31,43,116,,69,69,17,37,,7,0.8,1.1
2023-11-29T1600,2378A,116.3565,27.963,抚州市,血防站,颗粒物(PM10),56,62,74,35,45,113,,74,74,14,34,5,2,0.8,0.9
2023-11-29T1600,2379A,116.3564,28.0007,抚州市,采茶剧团,颗粒物(PM10),54,57,72,30,43,115,,77,77,19,32,7,10,1.0,1.2
2023-11-29T1600,2380A,116.385,27.9647,抚州市,医学分院,颗粒物(PM10),55,60,80,25,37,122,,84,84,12,37,15,11,0.9,1
2023-11-29T1600,2207A,121.6094,41.998,阜新市,工业园区,,45,45,43,10,28,69,,69,69,8,23,3,11,0.3,0.6
2023-11-29T1600,2208A,121.6697,42.0279,阜新市,长青街,,50,50,41,7,23,68,,68,68,7,22,5,7,0.5,0.6
2023-11-29T1600,2209A,121.6673,42.0705,阜新市,农业园区,,,33,16,5,7,,,66,64,6,9,6,7,0.6,0.5
2023-11-29T1600,2210A,121.6717,42.0224,阜新市,东苑,,46,46,28,5,13,67,,67,67,6,14,5,8,0.4,0.5
2023-11-29T1600,2211A,121.6506,42.0498,阜新市,玉龙新城,,42,42,28,2,11,71,,72,72,9,20,2,4,0.5,0.7
2023-11-29T1600,2301A,115.8277,32.8929,阜阳市,市监测站,颗粒物(PM10),79,107,123,53,74,34,,32,32,39,41,12,10,0.6,0.7
2023-11-29T1600,2303A,115.8554,32.8605,阜阳市,开发区,颗粒物(PM10),102,153,151,54,62,36,,35,35,43,45,13,11,0.9,0.8
2023-11-29T1600,2875A,115.784,32.8892,阜阳市,阜阳职业技术学院,颗粒物(PM10),87,124,131,51,70,37,,38,38,36,37,10,8,0.6,0.7
2023-11-29T1600,3468A,115.7901,32.8613,阜阳市,市规划展馆,颗粒物(PM10),84,117,127,36,67,37,,36,36,40,41,8,7,0.7,0.8
2023-11-29T1600,3469A,115.836,32.9183,阜阳市,枣园社区,颗粒物(PM10),80,110,126,36,66,36,,35,35,39,42,11,9,0.5,0.7
2023-11-29T1600,2669A,102.9099,34.9841,甘南州,州政府,,27,27,58,15,35,79,,49,49,6,28,10,18,0.2,0.5
2023-11-29T1600,3380A,102.8914,34.9617,甘南州,甘肃民族师范学院,,28,22,54,8,26,88,,54,54,14,37,4,16,0.2,0.5
2023-11-29T1600,2570A,101.9603,30.0475,甘孜藏族自治州,水桥子,,27,27,30,11,14,79,,50,50,5,32,9,9,0.2,0.4
2023-11-29T1600,3065A,101.9533,29.9972,甘孜藏族自治州,州环保局,,31,31,30,3,7,76,,55,55,8,22,8,8,0.3,0.3
2023-11-29T1600,3414A,115.8347,28.932,赣江新区,桑海产业园,颗粒物(PM10),65,80,82,41,40,126,,74,74,24,50,12,7,0.8,0.8
2023-11-29T1600,2363A,114.9367,25.8664,赣州市,地委,细颗粒物(PM2.5),69,83,84,50,40,135,,97,97,31,41,12,16,1.1,1.1
2023-11-29T1600,2364A,114.9461,25.8481,赣州市,气象台,细颗粒物(PM2.5),77,83,69,56,39,129,,97,97,32,51,14,16,1.0,1
2023-11-29T1600,2365A,114.9322,25.8333,赣州市,市图书馆,颗粒物(PM10),71,91,84,50,40,124,,93,93,39,52,13,14,1.0,1.2
2023-11-29T1600,2366A,114.8905,25.8471,赣州市,华坚鞋城,颗粒物(PM10),72,93,100,47,49,140,,94,94,38,55,19,24,1.3,1.4
2023-11-29T1600,3109A,115.0093,25.8613,赣州市,赣县区卫计委,颗粒物(PM10),77,104,69,55,40,132,,81,81,44,40,10,10,1.0,0.9
2023-11-29T1600,2683A,106.2319,36.1417,固原市,马园,颗粒物(PM10),56,61,78,10,25,68,,52,52,13,29,6,8,0.5,0.7
2023-11-29T1600,2684A,106.2792,36.0022,固原市,监测站,,37,37,64,14,19,70,,60,60,18,23,8,8,0.5,0.5
2023-11-29T1600,2685A,106.2375,36.0211,固原市,新区,,37,37,58,13,19,65,,54,54,13,20,6,7,0.4,0.5
2023-11-29T1600,3522A,106.2177,35.9959,固原市,原州区十五小,,46,46,61,17,23,72,,57,57,13,24,6,7,0.3,0.4
2023-11-29T1600,2544A,106.6303,30.4576,广安市,市委,细颗粒物(PM2.5),95,90,78,71,54,18,,19,14,25,25,11,11,0.9,0.7
2023-11-29T1600,2545A,106.6271,30.4663,广安市,友谊中学,细颗粒物(PM2.5),90,98,82,67,54,14,,18,12,25,25,9,9,0.8,0.8
2023-11-29T1600,2547A,106.6388,30.4551,广安市,广电花园,细颗粒物(PM2.5),94,90,75,70,56,14,,18,14,25,24,10,10,0.6,0.6
2023-11-29T1600,2902A,106.6351,30.4865,广安市,北辰小学,细颗粒物(PM2.5),88,93,79,65,51,14,,17,9,24,23,12,11,0.6,0.6
2023-11-29T1600,2523A,105.8945,32.4535,广元市,黑石坡,,31,10,23,9,17,98,,86,86,9,16,7,8,0.3,0.5
2023-11-29T1600,2524A,105.821,32.4444,广元市,老城,,29,29,55,8,27,77,,59,59,19,33,1,3,0.4,0.7
2023-11-29T1600,2526A,105.8628,32.4287,广元市,监测站,,27,26,45,10,24,86,,65,65,12,29,5,6,0.6,0.9
2023-11-29T1600,3617A,105.8047,32.4166,广元市,经开区,,42,40,61,29,41,76,,53,53,20,36,2,5,0.4,0.7
2023-11-29T1600,1345A,113.2347,23.1423,广州市,广雅中学,细颗粒物(PM2.5),68,80,89,49,51,84,,64,64,49,85,4,7,1.0,1.1
2023-11-29T1600,1346A,113.2612,23.105,广州市,市五中,细颗粒物(PM2.5),64,71,92,46,55,94,,71,71,37,80,7,8,0.8,1
2023-11-29T1600,1348A,113.3478,23.0916,广州市,广东商学院,颗粒物(PM10),55,60,96,34,53,91,,65,65,36,84,6,7,0.6,0.9
2023-11-29T1600,1349A,113.4332,23.1047,广州市,市八十六中,颗粒物(PM10),56,62,97,36,51,84,,59,59,37,83,5,7,0.6,0.8
2023-11-29T1600,1350A,113.3505,22.9483,广州市,番禺中学,细颗粒物(PM2.5),67,80,78,48,51,98,,66,66,52,62,8,8,1.0,1
2023-11-29T1600,1351A,113.2146,23.3916,广州市,花都师范,颗粒物(PM10),60,69,93,42,52,86,,66,66,32,72,8,7,0.7,0.7
2023-11-29T1600,1352A,113.2597,23.1331,广州市,市监测站,颗粒物(PM10),62,74,95,41,50,89,,64,64,40,88,4,6,0.9,1.1
2023-11-29T1600,1353A,113.5618,23.312,广州市,九龙镇镇龙,颗粒物(PM10),51,51,95,33,45,90,,66,66,15,48,5,6,0.6,0.7
2023-11-29T1600,1354A,113.2765,23.1544,广州市,麓湖,细颗粒物(PM2.5),64,72,79,46,51,89,,65,65,35,82,5,6,0.6,0.9
2023-11-29T1600,1355A,113.443,23.3035,广州市,帽峰山森林公园,细颗粒物(PM2.5),60,65,57,43,35,102,,81,81,20,21,8,8,0.5,0.5
2023-11-29T1600,2846A,113.3221,23.1322,广州市,体育西,,,65,88,38,53,92,,70,70,,76,,8,0.7,0.9
2023-11-29T1600,3298A,113.5717,23.5491,广州市,从化街口,细颗粒物(PM2.5),74,76,66,54,46,83,,67,67,32,44,6,5,0.7,0.8
2023-11-29T1600,3299A,113.3472,23.3692,广州市,白云竹料,细颗粒物(PM2.5),63,74,93,45,54,88,,67,67,31,58,6,6,0.3,0.5
2023-11-29T1600,3300A,113.2981,23.237,广州市,白云嘉禾,"颗粒物(PM10),细颗粒物(PM2.5)",65,80,106,47,54,83,,64,64,47,86,7,8,0.7,0.9
2023-11-29T1600,3301A,113.4256,23.1716,广州市,黄埔科学城,细颗粒物(PM2.5),53,54,68,37,44,89,,68,68,26,60,5,5,0.7,0.8
2023-11-29T1600,3302A,113.3942,23.0483,广州市,番禺大学城,颗粒物(PM10),64,78,104,35,50,98,,68,68,42,75,8,9,0.6,0.7
2023-11-29T1600,3303A,113.4922,22.8168,广州市,南沙黄阁,细颗粒物(PM2.5),83,98,94,61,50,132,,84,84,53,67,11,7,0.8,0.9
2023-11-29T1600,3304A,113.5342,22.7896,广州市,南沙街,颗粒物(PM10),77,104,77,53,44,126,,83,83,56,48,14,8,0.9,0.8
2023-11-29T1600,3443A,113.2902,23.5544,广州市,花都梯面,细颗粒物(PM2.5),58,63,56,41,38,71,,58,58,27,47,15,8,0.8,0.7
2023-11-29T1600,3445A,113.7858,23.7478,广州市,从化良口,,35,32,34,24,26,90,,66,66,9,23,3,3,0.6,0.6
2023-11-29T1600,3446A,113.8051,23.2614,广州市,增城荔城,,41,41,60,24,37,91,,69,69,10,25,9,8,0.5,0.6
2023-11-29T1600,2505A,109.568,23.1478,贵港市,德智高中,颗粒物(PM10),66,82,70,37,37,120,,96,96,35,34,10,11,0.8,0.8
2023-11-29T1600,2506A,109.6047,23.0666,贵港市,江南子站,细颗粒物(PM2.5),69,80,107,50,56,132,,92,92,19,35,12,15,0.8,0.9
2023-11-29T1600,2507A,109.6014,23.0948,贵港市,贵城子站,细颗粒物(PM2.5),63,60,69,45,54,134,,92,92,14,29,13,17,0.7,0.8
2023-11-29T1600,2508A,109.5669,23.1065,贵港市,荷城子站,颗粒物(PM10),64,78,88,39,49,129,,101,101,14,30,15,16,0.7,0.7
2023-11-29T1600,3405A,109.5886,23.1172,贵港市,新世纪学校,细颗粒物(PM2.5),63,70,85,45,50,133,,92,92,16,34,15,16,0.7,0.8
2023-11-29T1600,1439A,106.6899,26.5998,贵阳市,马鞍山,,45,44,39,31,19,96,,87,79,13,12,8,7,0.7,0.6
2023-11-29T1600,1440A,106.6971,26.5694,贵阳市,市环保站,细颗粒物(PM2.5),69,63,46,50,28,87,,81,75,30,22,9,8,0.4,0.2
2023-11-29T1600,1441A,106.6243,26.6266,贵阳市,鉴湖路,颗粒物(PM10),52,53,47,29,16,95,,86,81,16,11,9,7,0.6,0.4
2023-11-29T1600,1442A,106.7487,26.6343,贵阳市,燕子冲,,,46,42,36,23,94,,80,80,18,16,,9,,0.5
2023-11-29T1600,1443A,106.6555,26.4365,贵阳市,碧云窝,颗粒物(PM10),54,58,48,36,17,105,,89,89,13,11,13,9,0.5,0.4
2023-11-29T1600,1444A,106.694,26.5161,贵阳市,中院村,颗粒物(PM10),54,58,47,31,25,90,,70,70,15,20,10,10,0.4,0.3
2023-11-29T1600,1445A,106.7109,26.6027,贵阳市,红边门,"颗粒物(PM10),细颗粒物(PM2.5)",58,66,52,41,24,88,,71,71,26,26,9,7,0.4,0.4
2023-11-29T1600,1446A,106.7164,26.5699,贵阳市,新华路,细颗粒物(PM2.5),55,58,48,39,24,96,,80,80,22,21,10,9,0.5,0.4
2023-11-29T1600,1447A,106.674,26.5424,贵阳市,太慈桥,颗粒物(PM10),52,53,43,31,21,100,,75,75,16,17,6,6,0.5,0.4
2023-11-29T1600,1862A,110.4144,25.3167,桂林市,电子科大尧山校区,,,79,57,37,32,134,,98,98,8,10,10,10,,0.5
2023-11-29T1600,1863A,110.2819,25.2697,桂林市,监测站,细颗粒物(PM2.5),68,65,81,49,45,146,,91,91,11,35,10,15,0.8,1
2023-11-29T1600,1864A,110.3089,25.2708,桂林市,龙隐路小学,细颗粒物(PM2.5),65,59,68,47,50,138,,90,90,12,35,10,18,0.6,0.8
2023-11-29T1600,1865A,110.2869,25.2178,桂林市,八中,"颗粒物(PM10),细颗粒物(PM2.5)",55,60,77,39,51,121,,79,79,16,34,8,10,0.3,0.6
2023-11-29T1600,3403A,110.1764,25.2381,桂林市,创业大厦,细颗粒物(PM2.5),58,56,75,41,50,140,,81,81,8,40,10,17,0.5,0.6
2023-11-29T1600,3531A,110.296,25.1253,桂林市,旅游学院,,42,41,60,29,46,134,,84,84,8,26,9,9,0.5,0.7
2023-11-29T1600,2674A,100.2561,34.4714,果洛藏族自治州,玛沁县大武镇,,26,19,24,7,14,81,,57,57,10,12,16,16,0.4,0.4
2023-11-29T1600,1129A,126.5422,45.755,哈尔滨市,岭北,,20,19,33,10,29,62,,64,64,12,18,7,10,0,0.4
2023-11-29T1600,1130A,126.561,45.8167,哈尔滨市,松北商大,,24,24,37,16,30,45,,53,53,27,27,6,8,0.4,0.5
2023-11-29T1600,1131A,126.979,45.5419,哈尔滨市,阿城会宁,,28,22,53,19,48,52,,56,56,21,22,6,7,0.4,0.6
2023-11-29T1600,1132A,126.599,45.7222,哈尔滨市,南岗学府路,,28,28,52,4,25,60,,60,60,14,33,5,11,0.4,0.6
2023-11-29T1600,1133A,126.689,45.7733,哈尔滨市,太平宏伟公园,,26,26,38,13,26,60,,57,57,16,33,5,12,0.5,0.6
2023-11-29T1600,1134A,126.635,45.7667,哈尔滨市,道外承德广场,,20,20,40,13,28,59,,58,58,15,31,2,6,0.4,0.6
2023-11-29T1600,1135A,126.685,45.7319,哈尔滨市,香坊红旗大街,,,,42,,35,,,56,,18,42,6,14,,0.7
2023-11-29T1600,1136A,126.6411,45.7258,哈尔滨市,动力和平路,,26,26,44,14,34,52,,52,52,22,38,10,11,0.3,0.5
2023-11-29T1600,1137A,126.593,45.7478,哈尔滨市,道里建国路,,23,17,39,16,34,56,,58,58,22,37,4,7,0.5,0.4
2023-11-29T1600,1138A,126.615,45.61,哈尔滨市,平房东轻厂,,26,26,45,16,39,39,,54,54,38,33,6,7,0.6,0.8
2023-11-29T1600,1139A,126.595,45.9855,哈尔滨市,呼兰师专,,,45,43,32,32,,,66,66,22,20,5,3,,0.9
2023-11-29T1600,1140A,126.6206,45.6842,哈尔滨市,省农科院,,35,35,56,22,43,53,,56,56,24,49,10,14,0.4,0.7
2023-11-29T1600,2688A,93.5128,42.8172,哈密地区,地区监测站,,30,30,55,17,26,65,,42,42,14,47,3,7,0.4,0.6
2023-11-29T1600,2689A,93.4961,42.8328,哈密地区,哈密师范学校,,37,37,68,15,28,63,,42,42,12,47,4,9,0.3,0.7
2023-11-29T1600,2671A,100.9048,36.9639,海北藏族自治州,海晏县西海镇,,,27,32,13,14,86,,58,58,3,9,12,16,,1.7
2023-11-29T1600,3867A,102.0738,36.5056,海东地区,平安区公安北苑,,44,44,69,20,36,80,,58,58,14,30,19,27,0.5,0.7
2023-11-29T1600,1410A,110.3232,20.0574,海口市,海南大学,,38,29,43,19,27,121,,127,117,9,9,7,8,0.5,0.6
2023-11-29T1600,1411A,110.283,20.0053,海口市,秀英海南医院,,34,23,45,15,28,106,,127,111,18,12,7,8,0.5,0.5
2023-11-29T1600,1412A,110.338,19.9969,海口市,海南师范大学,,35,24,42,16,29,110,,122,112,12,11,6,6,0.5,0.6
2023-11-29T1600,1413A,110.33,20.0356,海口市,龙华路环保局宿舍,,36,27,42,18,27,115,,126,112,14,11,7,8,0.5,0.5
2023-11-29T1600,3539A,110.5111,19.9736,海口市,桂林洋子站,,25,23,36,16,26,78,,120,99,34,14,4,4,0.5,0.5
2023-11-29T1600,2673A,100.6188,36.2866,海南藏族自治州,共和县恰卜恰镇,,,16,30,8,14,78,,58,58,13,32,,9,0.5,1.5
2023-11-29T1600,2676A,97.3731,37.3753,海西蒙古族藏族自治州,德令哈市,,38,38,44,12,14,75,,52,52,9,19,14,14,0.3,0.5
2023-11-29T1600,1048A,114.5302,36.6116,邯郸市,东污水处理厂,,39,39,78,12,38,56,,51,51,14,40,3,5,0.3,0.5
2023-11-29T1600,1049A,114.4918,36.5713,邯郸市,矿院,,29,29,70,8,37,46,,43,43,10,34,3,2,0.2,0.5
2023-11-29T1600,1050A,114.484,36.6133,邯郸市,丛台公园,,23,23,68,6,32,63,,59,59,16,40,1,4,0.3,0.5
2023-11-29T1600,3458A,114.7895,36.5593,邯郸市,香泉濮院小区,,25,25,81,7,35,69,,61,61,5,33,5,9,0.1,0.4
2023-11-29T1600,3579A,114.50634,36.77178,邯郸市,永年区实验高中,,32,32,91,3,41,63,,55,55,9,38,4,8,0.2,0.5
2023-11-29T1600,3580A,114.20016,36.44293,邯郸市,峰峰矿区临水派出所,,43,43,78,9,32,59,,54,54,13,22,6,9,0.5,0.6
2023-11-29T1600,2634A,106.9893,33.1842,汉中市,汉川机床厂子校,颗粒物(PM10),53,56,69,31,45,68,,38,38,13,23,12,12,0.7,1.1
2023-11-29T1600,2635A,107.0154,33.0706,汉中市,市监测站,细颗粒物(PM2.5),68,54,98,49,79,55,,33,33,22,40,15,14,1.0,1.6
2023-11-29T1600,2636A,107.0089,33.1138,汉中市,鑫源开发区,,,,94,,77,,,32,32,,34,15,14,0.8,1.3
2023-11-29T1600,2637A,107.007,33.0323,汉中市,南郑大河坎水厂,细颗粒物(PM2.5),58,56,111,41,82,60,,32,32,22,35,15,11,0.9,1.5
2023-11-29T1600,1223A,120.2072,30.2111,杭州市,滨江,颗粒物(PM10),75,100,106,44,51,94,,68,68,45,62,11,10,0.7,0.8
2023-11-29T1600,1224A,120.0633,30.2747,杭州市,西溪,颗粒物(PM10),75,99,77,53,45,102,,76,76,49,42,9,7,0.7,0.7
2023-11-29T1600,1226A,120.3461,30.3153,杭州市,下沙,细颗粒物(PM2.5),103,137,118,77,57,95,,76,76,57,71,13,12,0.9,0.8
2023-11-29T1600,1227A,120.1269,30.2456,杭州市,卧龙桥,颗粒物(PM10),71,92,82,51,40,94,,60,60,49,41,12,8,0.7,0.7
2023-11-29T1600,1228A,120.1903,30.2692,杭州市,浙江农大,颗粒物(PM10),69,88,93,44,47,86,,56,56,46,60,11,9,0.6,0.8
2023-11-29T1600,1230A,120.1197,30.3119,杭州市,和睦小学,颗粒物(PM10),89,127,103,62,55,78,,63,63,60,66,13,11,0.8,0.9
2023-11-29T1600,1231A,120.3019,30.4183,杭州市,临平镇,颗粒物(PM10),99,148,127,67,62,101,,68,68,33,61,11,7,0.8,0.8
2023-11-29T1600,1232A,120.2697,30.1819,杭州市,城厢镇,颗粒物(PM10),69,87,96,37,44,90,,80,80,50,73,7,7,0.7,0.6
2023-11-29T1600,1233A,120.0883,30.1808,杭州市,云栖,颗粒物(PM10),78,106,96,44,43,99,,69,69,41,40,8,6,0.7,0.8
2023-11-29T1600,3557A,119.9464,30.0494,杭州市,镇二中,,50,50,78,27,45,108,,63,63,30,56,7,6,0.5,0.7
2023-11-29T1600,3558A,119.7183,30.2367,杭州市,市府大楼,颗粒物(PM10),52,54,88,29,47,125,,91,91,20,42,7,6,0.5,0.7
2023-11-29T1600,3656A,120.1556,30.2864,杭州市,消防大队,"颗粒物(PM10),细颗粒物(PM2.5)",79,107,103,58,54,96,,61,61,48,68,12,10,0.7,0.8
2023-11-29T1600,1270A,117.1959,31.7848,合肥市,明珠广场,颗粒物(PM10),86,122,135,56,67,71,,63,63,32,46,8,9,0.6,0.7
2023-11-29T1600,1271A,117.3072,31.8764,合肥市,三里街,"颗粒物(PM10),细颗粒物(PM2.5)",98,146,143,73,74,62,,55,55,37,59,7,10,0.6,0.8
2023-11-29T1600,1272A,117.2588,31.8707,合肥市,琥珀山庄,颗粒物(PM10),93,136,128,63,65,68,,63,63,38,47,7,8,0.6,0.7
2023-11-29T1600,1273A,117.1604,31.9052,合肥市,董铺水库,颗粒物(PM10),96,142,144,63,63,101,,88,88,18,31,5,6,0.5,0.6
2023-11-29T1600,1274A,117.25,31.8571,合肥市,长江中路,细颗粒物(PM2.5),107,122,130,80,72,64,,33,,29,41,10,12,,0.8
2023-11-29T1600,1275A,117.266,31.9436,合肥市,庐阳区,,,141,142,53,68,63,,52,52,36,56,,8,0.8,1
2023-11-29T1600,1277A,117.3027,31.7964,合肥市,包河区,,,,132,,75,,,56,56,47,64,13,15,0.8,0.8
2023-11-29T1600,1278A,117.2776,31.7385,合肥市,滨湖新区,颗粒物(PM10),107,163,143,75,67,67,,56,56,42,45,8,9,0.5,0.8
2023-11-29T1600,1279A,117.1318,31.8403,合肥市,高新区,细颗粒物(PM2.5),99,139,136,74,68,68,,64,64,34,45,9,12,0.8,0.9
2023-11-29T1600,3464A,117.3803,31.9147,合肥市,高教基地,颗粒物(PM10),85,120,128,56,64,79,,65,65,38,49,6,6,0.5,0.7
2023-11-29T1600,3614A,79.924,37.0877,和田地区,地区环保局,颗粒物(PM10),91,131,179,34,64,106,,73,73,12,35,8,16,0.6,1.2
2023-11-29T1600,3615A,79.9131,37.113,和田地区,市环保局,细颗粒物(PM2.5),102,110,173,76,79,110,,74,74,7,45,7,14,0.2,1.8
2023-11-29T1600,2516A,108.2011,24.715,河池市,东仁乐园,细颗粒物(PM2.5),67,69,65,48,44,100,,74,74,7,15,7,6,0.7,0.7
2023-11-29T1600,2517A,108.0497,24.6947,河池市,市环保站,细颗粒物(PM2.5),70,65,79,51,48,123,,76,76,16,31,10,9,0.8,0.8
2023-11-29T1600,2518A,108.0983,24.6989,河池市,市疾控中心,,,,108,,68,109,,65,65,23,38,9,8,0.7,0.8
2023-11-29T1600,1696A,114.6778,23.7569,河源市,源西,,48,48,56,24,33,110,,68,68,16,44,5,5,0.6,0.8
2023-11-29T1600,1697A,114.6944,23.7586,河源市,东埔,颗粒物(PM10),53,55,65,24,36,108,,73,73,15,36,8,8,0.6,0.8
2023-11-29T1600,1698A,114.6892,23.7233,河源市,老城,颗粒物(PM10),51,51,51,28,32,113,,80,80,11,22,8,6,0.5,0.6
2023-11-29T1600,1718A,115.4208,35.2464,菏泽市,气象局,,34,34,117,14,49,72,,61,61,17,52,3,5,0.1,0.5
2023-11-29T1600,1719A,115.4747,35.2375,菏泽市,市政协,,34,34,118,13,52,67,,57,57,21,51,3,5,0.3,0.6
2023-11-29T1600,3374A,115.5564,35.0891,菏泽市,定陶老年大学,,31,31,112,7,52,63,,53,53,18,43,3,9,0.1,0.5
2023-11-29T1600,3647A,115.4702,35.2706,菏泽市,菏泽医专,,31,31,116,3,46,71,,59,59,14,54,1,9,0.4,0.7
2023-11-29T1600,2514A,111.5264,24.4172,贺州市,环保小区,细颗粒物(PM2.5),69,74,71,50,42,80,,42,42,29,35,8,7,0.8,0.8
2023-11-29T1600,2515A,111.5608,24.4078,贺州市,政协大楼,颗粒物(PM10),68,85,70,41,41,82,,48,48,29,34,8,8,0.6,0.6
2023-11-29T1600,3534A,111.4744,24.4553,贺州市,西湾,细颗粒物(PM2.5),75,92,75,55,45,90,,57,57,29,29,9,9,0.9,0.9
2023-11-29T1600,2385A,114.17,35.9019,鹤壁市,市监测站,,45,45,101,18,55,59,,50,50,17,38,7,11,0.4,0.8
2023-11-29T1600,2386A,114.2956,35.7511,鹤壁市,市交警支队,,30,30,89,14,42,65,,52,52,22,48,4,10,0.1,0.5
2023-11-29T1600,2387A,114.2878,35.7306,鹤壁市,迎宾馆,,21,18,84,8,43,65,,56,56,20,45,4,12,0.5,0.8
2023-11-29T1600,3474A,114.2617,35.6822,鹤壁市,大新区,,26,26,89,9,38,62,,52,52,20,49,4,9,0.1,0.6
2023-11-29T1600,3596A,114.1572,35.9603,鹤壁市,南山宾馆,,38,38,97,15,45,65,,54,54,19,36,4,12,0.6,1
2023-11-29T1600,2244A,130.2537,47.3416,鹤岗市,哈啤分公司,,29,21,25,20,21,63,,62,62,7,9,13,13,0.2,0.3
2023-11-29T1600,2245A,130.2684,47.3086,鹤岗市,斯达机电,,,54,38,36,27,59,,56,,,17,10,12,0.3,0.1
2023-11-29T1600,2246A,130.3114,47.3388,鹤岗市,东山纸板厂,,38,38,34,25,27,62,,60,60,7,13,10,13,0.3,0.5
2023-11-29T1600,2247A,130.1097,47.3382,鹤岗市,五号水库,,33,,26,23,24,65,,64,64,7,9,9,9,0.2,0.2
2023-11-29T1600,2263A,127.4833,50.2524,黑河市,交通局,,23,,17,16,16,57,,62,62,13,7,4,4,0.3,0.3
2023-11-29T1600,2264A,127.5144,50.2341,黑河市,环保局,,26,19,14,18,15,60,,62,62,9,7,3,3,0.2,0.2
2023-11-29T1600,2265A,127.5291,50.2472,黑河市,大黑河岛,,,8,16,7,12,,,50,,,,7,8,0.5,0.7
2023-11-29T1600,1074A,115.6838,37.7541,衡水市,电机北厂,,29,,38,20,17,66,,62,62,8,28,4,7,0.2,0.4
2023-11-29T1600,1075A,115.6303,37.7316,衡水市,市监测站,,26,22,39,18,16,61,,60,60,10,26,6,8,0.3,0.4
2023-11-29T1600,3188A,115.6683,37.7217,衡水市,市城管局,,29,20,37,20,20,63,,60,60,15,32,4,6,0.3,0.4
2023-11-29T1600,3459A,115.5989,37.5491,衡水市,地表水厂,,27,27,40,7,16,69,,67,67,4,25,3,5,0.3,0.4
2023-11-29T1600,2456A,112.5003,26.9167,衡阳市,原169医院,颗粒物(PM10),53,56,75,34,47,125,,73,73,11,41,11,9,0.8,1
2023-11-29T1600,2457A,112.6194,26.9258,衡阳市,衡阳化工总厂,,,,84,,64,133,,95,95,11,31,8,10,0.5,0.8
2023-11-29T1600,2458A,112.6211,26.8956,衡阳市,珠晖区环保局,颗粒物(PM10),53,55,86,28,63,128,,87,87,13,44,10,12,0.6,0.9
2023-11-29T1600,2459A,112.6197,26.8733,衡阳市,市委党校,,,59,84,,58,143,,100,100,10,31,12,13,0.7,0.9
2023-11-29T1600,2460A,112.6006,26.8919,衡阳市,市监测站,细颗粒物(PM2.5),54,55,95,38,67,131,,89,89,14,46,9,11,0.7,1.1
2023-11-29T1600,2461A,112.5664,26.9056,衡阳市,真空机电公司,颗粒物(PM10),52,53,73,32,57,132,,82,82,16,48,9,12,0.7,1.1
2023-11-29T1600,3399A,112.6703,26.882,衡阳市,师范学院,,45,45,81,29,58,138,,93,93,13,32,9,11,0.7,0.9
2023-11-29T1600,2608A,103.3772,23.3993,红河州,污水处理厂,,44,44,49,18,36,90,,83,83,8,10,6,9,0.3,0.6
2023-11-29T1600,2609A,103.3861,23.35,红河州,监测站,,40,40,49,28,35,88,,82,81,12,12,11,9,0.7,0.8
2023-11-29T1600,3038A,103.3758,23.368,红河州,州图书馆,,43,38,45,30,35,80,,74,74,11,11,6,8,0.4,0.5
2023-11-29T1600,1090A,111.6507,40.7517,呼和浩特市,呼市一监,,23,22,15,0,5,72,,63,63,6,8,7,7,0.3,0.5
2023-11-29T1600,1091A,111.6572,40.8033,呼和浩特市,小召,,29,29,16,3,5,77,,74,67,8,12,5,7,0.2,0.2
2023-11-29T1600,1094A,111.7516,40.8369,呼和浩特市,如意水处理厂,,,89,12,3,3,66,,63,63,7,11,6,8,,0.3
2023-11-29T1600,1095A,111.7276,40.8062,呼和浩特市,二十九中,,33,33,16,4,4,73,,69,69,3,5,6,8,0.3,0.3
2023-11-29T1600,1096A,111.5512,40.7866,呼和浩特市,工大金川校区,,22,17,18,2,6,70,,59,59,2,10,6,8,0.4,0.5
2023-11-29T1600,1097A,111.717,40.7612,呼和浩特市,化肥厂生活区,,23,14,16,2,5,72,,68,61,6,10,6,8,0.3,0.4
2023-11-29T1600,3698A,111.5968,40.8178,呼和浩特市,红旗小学,,24,24,17,2,6,71,,59,59,5,15,6,8,0.2,0.4
2023-11-29T1600,3699A,111.6518,40.8389,呼和浩特市,海东办,,29,29,13,3,4,70,,67,67,8,12,5,8,0.2,0.2
2023-11-29T1600,2192A,119.7594,49.2261,呼伦贝尔市,区环保局,,22,17,25,13,14,68,,70,70,10,10,3,4,0.2,0.3
2023-11-29T1600,3061A,119.7512,49.1577,呼伦贝尔市,国华电力东,,23,21,18,14,13,71,,73,73,7,7,5,5,0.1,0.1
2023-11-29T1600,1250A,120.0751,30.8669,湖州市,城西水厂,细颗粒物(PM2.5),114,142,140,86,75,122,,68,68,41,70,11,8,0.9,0.8
2023-11-29T1600,2873A,120.0875,30.8955,湖州市,仁皇山新区,细颗粒物(PM2.5),114,156,146,86,82,123,,63,63,38,69,12,9,0.9,0.8
2023-11-29T1600,2907A,120.1844,30.8596,湖州市,吴兴区站,细颗粒物(PM2.5),118,160,146,89,79,,,56,56,49,69,,8,0.9,0.8
2023-11-29T1600,3562A,120.4148,30.8538,湖州市,南浔区站,细颗粒物(PM2.5),114,159,139,86,76,114,,72,72,38,57,14,10,0.9,0.7
2023-11-29T1600,1607A,120.9092,40.7136,葫芦岛市,龙港区,,36,36,55,12,29,66,,68,68,10,29,8,25,0.5,0.8
2023-11-29T1600,1608A,120.8392,40.7514,葫芦岛市,化工街,,36,36,40,7,20,66,,67,67,12,28,7,12,0.6,0.8
2023-11-29T1600,1609A,120.8341,40.7073,葫芦岛市,新区,,,34,35,6,22,68,,64,64,14,29,6,16,,0.9
2023-11-29T1600,1610A,120.8695,40.7677,葫芦岛市,东城区,,32,32,40,6,26,73,,74,74,12,30,6,17,0.4,0.7
2023-11-29T1600,2482A,109.5981,27.5721,怀化市,林科所,细颗粒物(PM2.5),54,44,50,38,38,65,,30,30,4,4,2,6,0.9,0.9
2023-11-29T1600,2483A,109.9453,27.5444,怀化市,河西地税局,细颗粒物(PM2.5),75,67,49,55,41,60,,29,29,15,18,6,7,0.9,0.9
2023-11-29T1600,2484A,109.9781,27.5342,怀化市,市四医院,,42,41,46,29,36,44,,22,22,15,25,13,13,0.7,1
2023-11-29T1600,2485A,109.9972,27.5578,怀化市,监测楼,,40,39,54,28,36,49,,29,29,17,27,8,22,0.4,0.7
2023-11-29T1600,2486A,110.0394,27.583,怀化市,市委党校,细颗粒物(PM2.5),69,66,69,50,65,46,,33,33,16,26,19,113,0.7,1
2023-11-29T1600,1210A,119.036,33.5981,淮安市,钵池山,颗粒物(PM10),53,56,60,25,27,46,,52,52,26,30,8,7,0.5,0.5
2023-11-29T1600,1211A,119.007,33.575,淮安市,北京南路,颗粒物(PM10),51,51,69,24,32,46,,49,48,27,29,9,7,0.6,0.6
2023-11-29T1600,1212A,118.989,33.6067,淮安市,市监测站,,44,44,61,24,26,48,,52,52,26,26,6,6,0.4,0.4
2023-11-29T1600,1213A,119.135,33.5039,淮安市,楚州区监测站,颗粒物(PM10),56,61,66,23,22,44,,50,50,25,25,7,6,0.8,0.7
2023-11-29T1600,1214A,119.0186,33.6297,淮安市,淮阴区监测站,颗粒物(PM10),56,61,76,25,33,48,,51,51,24,29,6,5,0.6,0.5
2023-11-29T1600,3426A,118.8755,33.2894,淮安市,新华书店,颗粒物(PM10),59,68,74,22,27,43,,44,44,30,32,10,10,0.6,0.5
2023-11-29T1600,2282A,116.8004,33.975,淮北市,监测站,颗粒物(PM10),80,110,115,30,53,47,,40,40,33,36,10,8,0.6,0.7
2023-11-29T1600,2283A,116.8091,33.9007,淮北市,烈山区政府,颗粒物(PM10),77,103,116,40,55,50,,45,45,35,40,10,9,0.6,0.5
2023-11-29T1600,3330A,116.8873,33.9836,淮北市,杜集区检察院,,,113,119,51,56,,,40,40,23,27,10,9,0.6,0.6
2023-11-29T1600,4017A,116.7923,33.9535,淮北市,市博物馆,颗粒物(PM10),74,98,111,30,54,50,,42,42,31,33,10,10,0.6,0.6
2023-11-29T1600,2277A,116.8305,32.7727,淮南市,潘集区政府,细颗粒物(PM2.5),90,121,135,67,76,44,,41,41,38,35,11,11,0.6,0.6
2023-11-29T1600,2278A,117.0067,32.6524,淮南市,师范学院,颗粒物(PM10),76,102,137,55,73,45,,41,41,32,33,9,13,0.6,0.7
2023-11-29T1600,2279A,116.8569,32.5951,淮南市,谢家集区政府,颗粒物(PM10),76,102,128,52,68,51,,49,49,38,40,11,14,0.6,0.6
2023-11-29T1600,2280A,116.8281,32.633,淮南市,八公山区政府,颗粒物(PM10),84,117,125,54,62,41,,46,42,38,29,13,10,0.7,0.6
2023-11-29T1600,2281A,116.6325,32.6201,淮南市,焦岗湖风景区管理处,颗粒物(PM10),75,99,115,49,58,37,,35,35,31,26,3,3,0.5,0.4
2023-11-29T1600,2894A,117.0566,32.6531,淮南市,经济技术开发区消防队,颗粒物(PM10),81,112,127,51,66,46,,41,41,34,35,7,8,0.6,0.6
2023-11-29T1600,3329A,117.0108,32.5893,淮南市,山南新区,颗粒物(PM10),83,115,137,38,68,52,,48,45,35,31,8,8,0.7,0.6
2023-11-29T1600,2446A,114.9028,30.4742,黄冈市,职工中心,细颗粒物(PM2.5),103,134,93,77,51,104,,86,86,15,22,12,14,0.7,0.7
2023-11-29T1600,2929A,114.8858,30.4519,黄冈市,红卫路,细颗粒物(PM2.5),105,127,93,79,54,102,,87,87,20,27,7,9,0.7,0.7
2023-11-29T1600,3398A,114.9136,30.4445,黄冈市,市林业局,细颗粒物(PM2.5),90,116,83,67,51,103,,84,84,20,30,7,10,0.7,0.7
2023-11-29T1600,2672A,102.0199,35.5102,黄南藏族自治州,同仁县隆务镇,颗粒物(PM10),60,70,51,28,22,80,,62,62,17,13,14,12,0.6,0.4
2023-11-29T1600,2295A,118.2903,29.6963,黄山市,延安路89号,颗粒物(PM10),51,52,48,27,26,116,,76,76,12,15,6,5,0.3,0.3
2023-11-29T1600,2296A,118.327,29.7178,黄山市,黄山东路89号,颗粒物(PM10),51,52,62,28,29,110,,68,68,14,22,6,5,0.4,0.5
2023-11-29T1600,2297A,118.1371,30.2756,黄山市,黄山区政府5号楼,颗粒物(PM10),67,83,63,39,35,126,,84,84,18,16,8,5,0.5,0.5
2023-11-29T1600,2423A,115.0601,30.2313,黄石市,沈家营,细颗粒物(PM2.5),77,87,88,56,45,115,,83,83,30,39,4,10,0.6,0.9
2023-11-29T1600,2424A,115.0817,30.2006,黄石市,陈家湾,细颗粒物(PM2.5),84,88,82,62,48,105,,71,71,24,33,9,11,0.6,0.8
2023-11-29T1600,2426A,114.8988,30.2019,黄石市,铁山,细颗粒物(PM2.5),103,109,85,77,51,116,,86,86,21,30,12,14,0.7,0.8
2023-11-29T1600,2427A,115.0307,30.2092,黄石市,团城山,细颗粒物(PM2.5),84,91,88,62,44,112,,83,83,28,30,8,11,0.8,1
2023-11-29T1600,3149A,115.0235,30.1578,黄石市,笔架山北路,细颗粒物(PM2.5),84,76,83,62,48,114,,95,95,27,27,24,12,1.1,0.9
2023-11-29T1600,1392A,114.4183,23.0528,惠州市,河南岸金山湖子站,颗粒物(PM10),51,52,76,26,43,112,,92,92,12,28,6,6,0.7,0.9
2023-11-29T1600,1393A,114.4053,23.0822,惠州市,下埔横江三路子站,颗粒物(PM10),52,54,82,25,44,125,,102,102,14,37,10,11,0.7,0.8
2023-11-29T1600,1394A,114.4103,23.1142,惠州市,江北云山西路子站,,46,46,79,22,42,122,,102,102,12,38,8,10,0.6,0.8
2023-11-29T1600,1395A,114.4645,22.7833,惠州市,惠阳区承修路船湖子站,颗粒物(PM10),61,71,65,35,30,124,,94,94,23,26,7,7,0.9,0.9
2023-11-29T1600,1396A,114.5317,22.7422,惠州市,大亚湾管委会子站,颗粒物(PM10),62,74,64,29,27,129,,112,112,36,31,8,7,0.9,0.8
2023-11-29T1600,3314A,114.4338,22.8134,惠州市,惠阳秋长,颗粒物(PM10),58,66,70,27,33,127,,103,103,18,26,10,10,0.7,0.7
2023-11-29T1600,3452A,114.6517,22.775,惠州市,大亚湾霞涌,颗粒物(PM10),60,70,60,29,34,150,,119,119,14,22,8,7,0.7,0.5
2023-11-29T1600,2240A,130.9762,45.3001,鸡西市,环保局,,19,19,29,11,24,55,,54,53,12,12,4,5,0.6,0.6
2023-11-29T1600,2243A,130.9429,45.3039,鸡西市,第一中学,,19,12,28,9,24,59,,59,59,10,11,7,7,0.1,0.2
2023-11-29T1600,3707A,131.0207,45.3073,鸡西市,欧美日汽修厂,细颗粒物(PM2.5),67,,49,48,45,47,,46,46,31,27,74,41,1.0,1.2
2023-11-29T1600,3709A,130.9967,45.3106,鸡西市,市政设施管理处,,21,21,32,12,25,56,,55,55,15,21,2,2,0.1,0.2
2023-11-29T1600,2367A,114.9754,27.0803,吉安市,红声器材厂,颗粒物(PM10),51,51,77,34,42,124,,80,80,22,50,17,17,0.9,0.5
2023-11-29T1600,2368A,114.9658,27.0999,吉安市,市森林工业局,"颗粒物(PM10),细颗粒物(PM2.5)",57,64,69,40,41,123,,73,73,21,41,19,19,0.3,0.4
2023-11-29T1600,2369A,114.99,27.1312,吉安市,市环境监测站,颗粒物(PM10),57,64,71,34,37,126,,75,75,21,40,13,16,0.7,0.5
2023-11-29T1600,2370A,115.0093,27.0968,吉安市,青原区法院,颗粒物(PM10),53,55,71,32,39,131,,83,83,19,44,15,15,0.7,0.7
2023-11-29T1600,1772A,126.54,43.8622,吉林市,哈达湾,,21,17,20,11,13,65,,65,65,11,13,8,11,0.5,0.5
2023-11-29T1600,1773A,126.5844,43.8358,吉林市,东局子,,22,22,18,13,13,64,,63,63,12,16,5,7,0.5,0.5
2023-11-29T1600,1774A,126.5052,43.8245,吉林市,电力学院,,23,23,35,12,20,67,,66,66,10,16,9,11,0.5,0.6
2023-11-29T1600,1775A,126.6133,43.8972,吉林市,江北,,27,27,24,11,13,61,,64,64,21,20,10,11,0.5,0.6
2023-11-29T1600,1776A,126.555,43.8306,吉林市,江南公园,,22,22,21,14,15,64,,62,62,13,14,9,11,0.5,0.5
2023-11-29T1600,1778A,126.7061,43.7133,吉林市,丰满,,33,33,21,13,13,70,,66,66,4,6,9,10,0.5,0.5
2023-11-29T1600,2868A,126.4739,43.953,吉林市,九站,,22,18,21,10,15,68,,64,64,12,18,4,6,0.4,0.5
2023-11-29T1600,1299A,116.9862,36.6114,济南市,科干所,,23,19,60,2,21,71,,64,64,9,45,5,12,0.5,0.7
2023-11-29T1600,1300A,116.9376,36.665,济南市,农科所,,23,20,72,2,19,71,,62,62,9,46,4,11,0.3,0.6
2023-11-29T1600,1301A,117.1265,36.6734,济南市,开发区,,32,32,65,2,21,63,,59,59,16,44,6,11,0.4,0.7
2023-11-29T1600,1303A,117.0624,36.6868,济南市,省种子仓库,,,,88,,24,67,,61,61,7,41,6,13,0.4,0.6
2023-11-29T1600,1304A,116.9489,36.6447,济南市,机床二厂,,23,22,75,5,23,72,,63,63,12,51,3,11,0.5,0.8
2023-11-29T1600,1305A,117.0495,36.663,济南市,市监测站,,22,20,71,2,20,70,,63,63,14,47,7,14,0.3,0.6
2023-11-29T1600,1306A,116.7675,36.5484,济南市,长清党校,,23,17,70,2,23,73,,63,63,15,51,8,12,0.6,0.9
2023-11-29T1600,1616A,117.6795,36.229,济南市,技术学院,,29,29,79,9,36,70,,53,53,15,46,8,12,0.6,0.9
2023-11-29T1600,1961A,117.532,36.6868,济南市,东山小学,,24,24,72,5,25,71,,62,62,17,51,9,14,0.5,0.8
2023-11-29T1600,3059A,117.7161,36.2049,济南市,泰兴公司,,36,36,86,9,38,69,,49,49,22,58,7,11,0.2,0.6
2023-11-29T1600,3064A,117.6867,36.2171,济南市,莱芜战役纪念馆,,36,36,85,7,36,69,,52,52,22,56,9,13,0.3,0.6
2023-11-29T1600,3494A,117.1673,36.9782,济南市,济阳区政府,,24,24,50,0,18,65,,65,65,9,30,1,10,0.4,0.6
2023-11-29T1600,3495A,117.1171,36.63,济南市,锦屏中学,,24,20,52,2,20,76,,67,67,14,36,6,10,0.3,0.5
2023-11-29T1600,3682A,116.9814,36.6819,济南市,济南四建,,22,14,71,5,24,68,,59,59,15,52,6,14,0.3,0.6
2023-11-29T1600,1653A,116.6251,35.4302,济宁市,火炬城,,33,33,94,2,45,63,,42,42,12,48,7,13,0.2,0.6
2023-11-29T1600,1655A,116.5491,35.4042,济宁市,电化厂,,,40,114,5,51,,,45,45,13,49,5,12,0.2,0.6
2023-11-29T1600,3500A,116.5814,35.3707,济宁市,北湖一中,,32,32,94,0,51,64,,43,43,16,49,4,11,0.3,0.6
2023-11-29T1600,3501A,116.8249,35.5593,济宁市,服务中心,,39,39,110,7,48,64,,49,49,15,48,5,11,0.4,0.8
2023-11-29T1600,3678A,116.5907,35.4054,济宁市,市第七中学,,,45,99,2,49,,,42,42,17,54,4,9,,0.7
2023-11-29T1600,2255A,130.2751,46.8028,佳木斯市,佳纺,细颗粒物(PM2.5),59,47,53,42,47,48,,50,50,30,31,8,12,0.7,0.6
2023-11-29T1600,2256A,130.3995,46.8307,佳木斯市,发电厂,,,32,30,5,22,54,,46,,25,23,7,5,,0.6
2023-11-29T1600,2257A,130.3258,46.7975,佳木斯市,环保局,细颗粒物(PM2.5),55,48,42,39,38,40,,48,48,37,28,7,6,0.5,0.5
2023-11-29T1600,2258A,130.3648,46.8032,佳木斯市,十一中,细颗粒物(PM2.5),60,46,37,43,35,43,,50,50,33,26,3,3,0.7,0.6
2023-11-29T1600,2259A,130.3794,46.7588,佳木斯市,四丰,,48,48,38,27,23,51,,55,55,21,13,1,1,0.6,0.5
2023-11-29T1600,1252A,120.7436,30.778,嘉兴市,清河小学,细颗粒物(PM2.5),105,143,120,79,53,109,,89,89,51,48,13,11,0.9,1
2023-11-29T1600,1253A,120.726,30.7478,嘉兴市,嘉兴学院,颗粒物(PM10),101,151,116,75,57,112,,80,80,46,45,12,10,0.8,0.7
2023-11-29T1600,2872A,120.7846,30.7525,嘉兴市,南湖区残联,细颗粒物(PM2.5),100,139,115,75,61,108,,88,88,46,43,12,9,1.0,0.9
2023-11-29T1600,3407A,120.6916,30.7739,嘉兴市,秀洲住建,细颗粒物(PM2.5),110,143,114,83,63,111,,83,83,48,51,15,11,1.6,0.7
2023-11-29T1600,1945A,98.2908,39.7711,嘉峪关市,气象局,颗粒物(PM10),78,105,85,29,23,72,,55,54,7,16,8,8,0.5,0.5
2023-11-29T1600,2884A,98.2672,39.7978,嘉峪关市,酒钢宾馆,颗粒物(PM10),80,110,97,29,24,73,,50,50,8,23,14,19,0.1,0.7
2023-11-29T1600,3248A,98.2643,39.7724,嘉峪关市,雄关区,颗粒物(PM10),67,83,79,30,21,70,,52,52,7,23,7,8,0.3,0.3
2023-11-29T1600,1383A,113.1064,22.6058,江门市,北街,细颗粒物(PM2.5),67,73,68,48,47,102,,73,73,63,57,11,9,0.8,0.7
2023-11-29T1600,1384A,113.0731,22.5835,江门市,西区,颗粒物(PM10),62,74,85,42,47,98,,74,74,59,64,10,9,0.7,0.7
2023-11-29T1600,1385A,113.0219,22.5311,江门市,圭峰西,"颗粒物(PM10),细颗粒物(PM2.5)",64,77,65,46,46,98,,77,77,57,41,7,6,0.6,0.6
2023-11-29T1600,1386A,113.0828,22.5947,江门市,东湖,"颗粒物(PM10),细颗粒物(PM2.5)",65,80,83,47,50,99,,75,75,55,59,7,6,0.7,0.8
2023-11-29T1600,3311A,113.1075,22.5647,江门市,江海富民,颗粒物(PM10),79,107,95,42,43,85,,62,62,74,65,12,10,0.7,0.7
2023-11-29T1600,3449A,113.05,22.4667,江门市,新会银湖,细颗粒物(PM2.5),75,76,75,55,50,81,,71,71,69,51,10,9,0.7,0.7
2023-11-29T1600,1828A,113.227,35.2125,焦作市,市环保局,颗粒物(PM10),52,53,92,19,43,55,,49,49,24,40,8,12,0.1,0.4
2023-11-29T1600,1830A,113.1992,35.2590,焦作市,影视城,,45,45,74,19,34,48,,41,41,21,22,9,10,0.6,0.6
2023-11-29T1600,3169A,113.2725,35.2067,焦作市,太极体育中心,颗粒物(PM10),58,66,104,19,38,59,,53,53,20,40,8,13,0.3,0.7
2023-11-29T1600,3335A,113.3137,35.2641,焦作市,马村街道办,颗粒物(PM10),55,59,129,25,48,60,,53,53,27,43,6,19,0.4,0.7
2023-11-29T1600,3336A,113.2465,35.2373,焦作市,焦作技师学院,颗粒物(PM10),54,57,97,27,46,53,,45,45,18,32,8,11,0.6,0.8
2023-11-29T1600,3477A,113.1656,35.2539,焦作市,中站许衡医院,颗粒物(PM10),55,60,92,37,42,57,,51,51,24,41,10,12,0.4,0.6
2023-11-29T1600,3981A,113.2449,35.1803,焦作市,原李万街道办,颗粒物(PM10),60,69,106,19,44,59,,54,54,21,36,8,12,0.3,0.6
2023-11-29T1600,1708A,116.3701,23.5345,揭阳市,新兴,颗粒物(PM10),56,62,78,34,47,120,,102,102,21,29,19,17,0.7,0.7
2023-11-29T1600,1709A,116.3264,23.5443,揭阳市,西马,,,,84,,47,136,,114,114,18,25,10,12,0.7,0.7
2023-11-29T1600,1710A,116.3611,23.5626,揭阳市,东兴,,50,50,90,23,42,115,,101,101,12,24,11,14,0.5,0.7
2023-11-29T1600,1711A,116.4151,23.5294,揭阳市,渔湖,颗粒物(PM10),56,61,82,34,43,124,,107,107,15,27,18,16,0.6,0.7
2023-11-29T1600,3320A,116.403,23.5699,揭阳市,曲溪,,44,44,80,20,40,110,,102,102,10,26,6,13,0.5,0.7
2023-11-29T1600,1944A,102.1692,38.5167,金昌市,天庆家园,颗粒物(PM10),79,107,117,22,23,66,,59,55,13,12,40,21,0.4,0.5
2023-11-29T1600,3170A,102.1864,38.5253,金昌市,市委党校,颗粒物(PM10),81,111,135,23,26,66,,61,56,9,8,7,12,0.5,0.6
2023-11-29T1600,4022A,102.1647,38.5371,金昌市,金川区人防中心,颗粒物(PM10),82,114,129,21,26,62,,60,56,12,9,5,7,0.7,0.6
2023-11-29T1600,1262A,119.647,29.077,金华市,十五中,颗粒物(PM10),58,65,95,26,41,106,,89,89,41,59,8,7,0.4,0.5
2023-11-29T1600,1263A,119.686,29.1029,金华市,监测站,颗粒物(PM10),57,64,88,23,39,110,,96,96,39,71,8,8,0.4,0.7
2023-11-29T1600,3659A,119.656,29.1131,金华市,气象局,颗粒物(PM10),61,72,85,24,35,104,,85,85,46,58,7,5,0.7,0.8
2023-11-29T1600,1767A,121.1115,41.0879,锦州市,南山,,37,37,24,3,13,68,,69,69,7,13,8,12,0.5,0.6
2023-11-29T1600,1768A,121.0533,40.8434,锦州市,开发区,颗粒物(PM10),53,56,42,12,19,53,,62,62,23,29,36,25,0.5,0.6
2023-11-29T1600,1769A,121.1836,41.1119,锦州市,百股街道,颗粒物(PM10),69,87,34,5,17,72,,73,73,6,18,6,13,0.3,0.5
2023-11-29T1600,1770A,121.1178,41.1222,锦州市,天安街道,,35,35,24,8,14,75,,76,76,6,12,7,11,0.3,0.4
2023-11-29T1600,1771A,121.1303,41.1386,锦州市,北湖公园,,22,20,22,14,14,70,,72,72,6,9,5,9,0.4,0.4
2023-11-29T1600,2160A,112.85,35.5051,晋城市,自来水公司,颗粒物(PM10),51,52,85,0,35,73,,59,59,24,45,8,15,0.5,1
2023-11-29T1600,2161A,112.8318,35.4936,晋城市,白云商贸,,38,38,93,2,33,71,,60,60,22,40,5,10,0.3,0.9
2023-11-29T1600,2162A,112.8508,35.4887,晋城市,市环保局,,,30,92,,39,72,,61,61,13,44,6,12,,0.9
2023-11-29T1600,2163A,112.8676,35.4897,晋城市,技术学院,颗粒物(PM10),51,51,99,0,34,74,,61,61,20,47,6,14,0.4,0.9
2023-11-29T1600,2165A,112.8453,35.546,晋城市,白马寺,,31,31,91,8,46,77,,,,12,29,8,18,0.4,0.9
2023-11-29T1600,3620A,112.8271,35.4828,晋城市,泽州一中,,27,27,83,0,30,76,,64,64,17,35,6,15,0.5,1.1
2023-11-29T1600,2171A,112.7532,37.6945,晋中市,锦纶小区,,36,36,62,2,20,80,,69,69,10,35,3,8,0.3,0.5
2023-11-29T1600,2173A,112.7249,37.7067,晋中市,南都小区,,34,34,66,12,24,80,,70,70,6,31,5,11,0.4,0.6
2023-11-29T1600,2174A,112.6991,37.6982,晋中市,榆次区政府,,36,36,68,24,33,78,,69,69,11,35,3,9,0.4,0.6
2023-11-29T1600,2865A,112.7195,37.6828,晋中市,榆次三中,,,,71,,18,81,,69,69,9,34,6,13,,0.7
2023-11-29T1600,2439A,112.2014,31.0481,荆门市,竹园小学,颗粒物(PM10),99,147,145,62,94,63,,52,52,30,40,10,10,0.6,0.9
2023-11-29T1600,2440A,112.1969,30.9891,荆门市,掇刀,细颗粒物(PM2.5),98,141,140,73,99,66,,56,56,27,38,12,12,0.6,0.9
2023-11-29T1600,2441A,112.2213,31.0386,荆门市,石化一小,颗粒物(PM10),100,150,155,74,105,60,,53,53,32,39,15,13,0.5,0.7
2023-11-29T1600,3012A,112.1849,31.0362,荆门市,西山林语,颗粒物(PM10),91,132,128,57,83,68,,61,61,29,31,11,11,0.6,0.8
2023-11-29T1600,3547A,112.1632,31.0138,荆门市,龙泉中学南校,颗粒物(PM10),102,154,147,71,83,66,,62,62,26,25,12,12,0.6,0.8
2023-11-29T1600,1844A,112.2494,30.3197,荆州市,市图书馆,细颗粒物(PM2.5),103,128,118,77,69,52,,44,44,34,40,9,8,0.8,1
2023-11-29T1600,1845A,112.2008,30.3544,荆州市,市委党校,,,118,112,67,78,55,,45,45,,43,9,5,0.9,1
2023-11-29T1600,3194A,112.2747,30.3122,荆州市,管委会,细颗粒物(PM2.5),105,121,113,79,75,59,,46,46,34,43,10,10,0.7,0.8
2023-11-29T1600,3548A,112.1655,30.3364,荆州市,学苑路,细颗粒物(PM2.5),99,128,121,74,90,59,,48,48,31,38,7,8,0.8,0.9
2023-11-29T1600,2342A,117.3102,29.3867,景德镇市,王港中学,,40,40,38,24,19,122,,83,83,4,5,6,3,0.4,0.4
2023-11-29T1600,2343A,117.2117,29.2933,景德镇市,老干部活动中心,,48,48,57,28,34,115,,74,74,11,26,14,12,0.4,0.5
2023-11-29T1600,2344A,117.1894,29.2789,景德镇市,兽医站,,36,30,59,20,27,114,,85,85,12,27,10,8,0.5,0.6
2023-11-29T1600,2345A,117.1547,29.2617,景德镇市,台达陶瓷,,43,43,61,24,28,116,,79,79,21,35,42,18,0.6,0.6
2023-11-29T1600,2346A,117.2461,29.2956,景德镇市,陶研所,,45,45,48,24,22,116,,70,70,16,30,7,7,0.5,0.5
2023-11-29T1600,1803A,115.9872,29.6815,九江市,十里,颗粒物(PM10),66,82,89,36,51,132,,79,79,22,46,14,11,0.7,1
2023-11-29T1600,1804A,115.9584,29.7046,九江市,茅山头,颗粒物(PM10),65,79,91,41,56,132,,76,76,24,57,13,13,0.8,1.1
2023-11-29T1600,1805A,115.9877,29.7295,九江市,西园,,,76,100,36,58,119,,70,70,,57,,14,0.8,1
2023-11-29T1600,1806A,116.0172,29.6547,九江市,五七二七厂,颗粒物(PM10),65,80,69,32,42,142,,105,105,21,26,18,14,0.8,0.9
2023-11-29T1600,1808A,115.9114,29.6038,九江市,综合工业园,颗粒物(PM10),61,72,87,39,58,124,,86,86,42,52,20,15,0.8,0.9
2023-11-29T1600,1809A,116.0721,29.7535,九江市,石化总厂,颗粒物(PM10),65,79,101,35,53,124,,78,78,30,52,14,14,0.7,0.8
2023-11-29T1600,1810A,115.9773,29.5698,九江市,庐山气象台,,44,44,24,28,18,122,,104,104,7,3,6,6,0.9,0.6
2023-11-29T1600,3190A,116.0254,29.6994,九江市,外国语学校,颗粒物(PM10),55,60,82,37,58,134,,81,81,24,46,16,17,0.7,0.9
2023-11-29T1600,2658A,98.5061,39.7443,酒泉市,仓门街子站,颗粒物(PM10),74,97,84,26,27,69,,61,55,11,14,4,4,0.3,0.4
2023-11-29T1600,2659A,98.4989,39.7256,酒泉市,油田生活基地,颗粒物(PM10),79,107,93,25,27,72,,55,55,7,14,4,10,0.4,0.5
2023-11-29T1600,2698A,76.0072,39.4467,喀什地区,巡警大队,颗粒物(PM10),92,133,236,29,84,103,,44,44,16,69,6,10,0.6,2.6
2023-11-29T1600,2699A,75.9755,39.4694,喀什地区,吾办,颗粒物(PM10),97,143,235,47,112,95,,40,40,25,79,4,8,0.9,2.6
2023-11-29T1600,4027A,75.9483,39.4689,喀什地区,老干局,颗粒物(PM10),105,159,324,52,157,101,,36,36,22,75,7,11,0.7,3.5
2023-11-29T1600,1824A,114.3389,34.7781,开封市,肿瘤医院,,40,40,114,13,48,56,,44,44,15,47,4,6,0.3,0.6
2023-11-29T1600,1826A,114.2885,34.7965,开封市,世纪星幼儿园,,43,43,95,18,45,52,,44,44,19,48,4,6,0.4,0.7
2023-11-29T1600,3147A,114.3438,34.8106,开封市,龙亭公园,,41,41,102,11,44,60,,50,50,22,51,2,5,0.4,0.6
2023-11-29T1600,3210A,114.3644,34.7964,开封市,汴京公园,,,,105,,50,,,42,42,19,49,4,7,0.2,0.6
2023-11-29T1600,3473A,114.2485,34.8306,开封市,技师学院,,50,50,94,11,39,56,,49,49,13,40,5,7,0.6,0.9
2023-11-29T1600,3592A,114.4644,34.7556,开封市,祥符区生态环境局,,48,48,117,13,53,53,,44,44,28,55,8,7,1.1,0.7
2023-11-29T1600,1951A,84.895,45.6094,克拉玛依市,长征新村,,18,18,22,9,10,33,,19,19,10,24,10,10,0.4,0.4
2023-11-29T1600,1952A,84.8988,45.5893,克拉玛依市,南林小区,,17,17,25,2,15,32,,19,19,8,21,4,3,0.3,0.4
2023-11-29T1600,1954A,84.905,44.3396,克拉玛依市,独山子区,,,,56,,47,16,,10,10,23,28,,5,0.7,0.8
2023-11-29T1600,1955A,85.6979,46.098,克拉玛依市,乌尔禾区商贸楼,,14,14,19,3,10,23,,22,18,16,18,7,7,0.5,0.6
2023-11-29T1600,3612A,85.1045,45.6899,克拉玛依市,白碱滩区新站,,27,27,18,11,14,37,,21,21,12,26,8,8,0.5,0.4
2023-11-29T1600,2697A,76.1454,39.7142,克孜勒苏柯尔克孜自治州,市人民政府,颗粒物(PM10),79,108,142,48,63,116,,76,76,12,26,6,5,0.7,1.1
2023-11-29T1600,3665A,76.1658,39.7157,克孜勒苏柯尔克孜自治州,克州文化中心,颗粒物(PM10),80,109,150,49,64,113,,82,82,14,29,9,8,0.8,1.2
2023-11-29T1600,1450A,102.8204,24.8886,昆明市,呈贡新区,,28,22,37,15,30,89,,72,72,9,17,7,9,0.6,0.8
2023-11-29T1600,1451A,102.6251,24.9608,昆明市,西山森林公园,,28,27,31,18,21,87,,76,76,16,15,10,8,0.7,0.7
2023-11-29T1600,1453A,102.7266,25.0375,昆明市,东风东路,,32,29,47,22,32,85,,65,65,22,25,13,11,0.8,0.8
2023-11-29T1600,1454A,102.6742,25.0669,昆明市,金鼎山,,45,45,48,11,29,89,,65,65,20,30,5,4,0.6,0.7
2023-11-29T1600,1455A,102.6644,25.0401,昆明市,碧鸡广场,,,27,47,20,32,77,,60,60,23,31,,11,0.8,0.8
2023-11-29T1600,3179A,102.7494,25.0119,昆明市,官渡区博物馆,,39,39,42,19,29,93,,69,69,14,20,10,9,0.3,0.8
2023-11-29T1600,3375A,102.8017,24.8336,昆明市,青年创业园,,30,20,40,14,28,96,,79,79,8,20,11,14,0.4,0.5
2023-11-29T1600,3550A,102.7997,24.9786,昆明市,昆明学院,,28,26,44,17,30,89,,71,71,12,16,9,10,0.3,0.4
2023-11-29T1600,3551A,102.5967,24.6736,昆明市,晋宁区生态环境分局,,,20,38,5,28,83,,67,67,3,15,4,3,,0.7
2023-11-29T1600,3552A,102.6678,24.9856,昆明市,云天化总部,,42,42,52,23,32,74,,63,63,25,25,9,9,0.6,0.8
2023-11-29T1600,1456A,91.1319,29.6514,拉萨市,八廓街,,32,19,41,11,23,102,,68,68,8,27,3,4,0.8,1.4
2023-11-29T1600,1457A,91.1221,29.6747,拉萨市,市环保局,,32,11,72,5,38,100,,59,59,10,40,5,9,0.3,1.5
2023-11-29T1600,1458A,91.0874,29.6475,拉萨市,区监测站,,,11,38,6,20,,,57,57,10,49,10,11,,1.2
2023-11-29T1600,1459A,91.1774,29.6541,拉萨市,西藏大学,,32,13,36,7,18,102,,68,68,8,23,7,8,0.4,0.9
2023-11-29T1600,1460A,90.9798,29.6588,拉萨市,区辐射站,,29,13,35,8,19,90,,62,62,16,40,6,8,0.4,0.7
2023-11-29T1600,1461A,91.0834,29.6292,拉萨市,拉萨火车站,,30,11,28,6,14,95,,58,58,11,35,4,5,0.4,1.1
2023-11-29T1600,2520A,109.2203,23.7256,来宾市,来宾技工学校,细颗粒物(PM2.5),65,70,92,47,52,140,,87,87,12,32,12,28,0.7,0.8
2023-11-29T1600,3535A,109.1781,23.7297,来宾市,兴宾区政府,细颗粒物(PM2.5),73,70,69,53,47,146,,98,98,11,17,18,13,0.7,0.7
2023-11-29T1600,4002A,109.2416,23.7461,来宾市,中南小学,,,,84,,47,,,74,74,13,39,12,12,0.8,0.8
2023-11-29T1600,1476A,103.631,36.1031,兰州市,兰炼宾馆,,45,45,61,18,32,62,,62,57,21,37,10,13,0.4,0.6
2023-11-29T1600,1478A,103.8412,36.0726,兰州市,生物制品所,,44,44,54,29,32,70,,59,59,18,33,11,10,0.8,0.7
2023-11-29T1600,1479A,103.831,36.0464,兰州市,铁路设计院,,43,43,44,24,27,67,,70,57,33,41,15,14,0.7,0.7
2023-11-29T1600,3186A,103.7158,36.1058,兰州市,教育港,,37,37,51,14,27,74,,64,61,20,38,16,19,0.5,0.6
2023-11-29T1600,3241A,103.7439,36.0842,兰州市,百合公园,,46,46,54,11,22,70,,56,56,20,39,9,10,0.6,0.7
2023-11-29T1600,3242A,103.9611,35.998,兰州市,和平,颗粒物(PM10),52,53,66,20,34,69,,55,55,19,38,13,17,0.5,0.8
2023-11-29T1600,3245A,103.6633,36.533,兰州新区,新区管委会,,38,38,46,20,21,82,,71,71,9,12,10,10,0.5,0.4
2023-11-29T1600,3246A,103.6975,36.4789,兰州新区,舟曲中学,,,49,46,17,16,86,,66,66,,18,8,6,0.3,0.2
2023-11-29T1600,1067A,116.6708,39.5111,廊坊市,药材公司,,25,25,46,2,15,66,,63,63,5,28,2,3,0.4,0.5
2023-11-29T1600,1068A,116.7214,39.5589,廊坊市,开发区,,30,30,34,6,12,68,,63,63,3,23,3,3,0.2,0.3
2023-11-29T1600,1070A,116.7244,39.5269,廊坊市,北华航天学院,,25,25,48,1,12,67,,62,62,6,31,6,7,0.3,0.4
2023-11-29T1600,2919A,116.7022,39.5453,廊坊市,河北工业大学,颗粒物(PM10),56,61,54,15,22,66,,60,60,5,29,6,7,0.3,0.4
2023-11-29T1600,2535A,103.7723,29.5462,乐山市,花湖湾,,36,28,107,25,70,100,,46,46,8,38,4,6,0.4,0.8
2023-11-29T1600,2536A,103.7627,29.5844,乐山市,牛耳桥,,46,46,91,25,66,95,,57,57,21,54,4,6,0.6,1
2023-11-29T1600,2537A,103.7508,29.6006,乐山市,市第三水厂,,40,28,101,28,65,98,,58,58,18,56,6,8,0.5,0.9
2023-11-29T1600,2538A,103.7571,29.5664,乐山市,市监测站,,,46,93,,65,90,,48,48,22,47,5,8,0.4,0.8
2023-11-29T1600,3361A,103.7311,29.5628,乐山市,理工大学,,50,50,99,32,68,101,,47,47,11,38,6,9,0.6,1
2023-11-29T1600,2598A,100.2143,26.8576,丽江市,西南郊,,29,12,19,8,7,91,,76,76,4,12,4,5,0.7,0.8
2023-11-29T1600,2599A,100.2497,26.8802,丽江市,丽江古城,,29,29,35,10,20,83,,75,75,19,20,8,10,0.6,0.6
2023-11-29T1600,2600A,100.2203,26.8906,丽江市,市中心,,24,21,20,9,7,76,,64,64,12,14,6,7,0.5,0.5
2023-11-29T1600,1267A,119.914,28.4514,丽水市,监测站大楼,颗粒物(PM10),53,55,67,21,32,112,,85,85,14,35,7,8,0.5,0.8
2023-11-29T1600,1268A,119.93,28.4586,丽水市,莲都小学,,46,46,76,26,33,115,,91,91,12,40,6,6,0.3,0.6
2023-11-29T1600,1269A,119.879,28.4231,丽水市,余庄前,,,37,51,17,32,102,,74,74,,23,5,6,0.3,0.4
2023-11-29T1600,1173A,119.176,34.5885,连云港市,市环境监测站,颗粒物(PM10),67,83,68,39,23,41,,60,38,35,28,12,11,0.9,0.8
2023-11-29T1600,3000A,119.3581,34.6972,连云港市,德源药业,颗粒物(PM10),64,78,57,31,19,40,,52,46,37,33,13,7,1.4,0.7
2023-11-29T1600,3007A,119.178,34.844,连云港市,新城一中,颗粒物(PM10),59,67,55,30,26,35,,40,35,42,46,12,12,0.8,0.9
2023-11-29T1600,3008A,119.3608,34.7519,连云港市,胡沟管理处,,,68,54,24,17,43,,53,47,31,39,15,12,,0.9
2023-11-29T1600,3009A,119.1478,34.5911,连云港市,矿山设计院,颗粒物(PM10),71,92,76,36,23,39,,55,37,34,30,9,8,0.6,0.6
2023-11-29T1600,3434A,119.2413,34.6539,连云港市,工贸学校,颗粒物(PM10),67,83,55,29,22,48,,74,52,31,22,12,11,0.7,0.7
2023-11-29T1600,3664A,119.4172,34.7341,连云港市,连云街道,颗粒物(PM10),63,75,48,30,19,32,,74,43,47,21,10,5,1.0,0.4
2023-11-29T1600,2571A,102.3431,27.8099,凉山彝族自治州,青龙寺,,32,26,25,22,27,95,,70,70,8,11,9,10,0.7,0.8
2023-11-29T1600,2572A,102.2721,27.8415,凉山彝族自治州,邛海宾馆,,,,42,21,27,102,,72,72,7,21,12,13,0.7,0.7
2023-11-29T1600,2573A,102.2625,27.898,凉山彝族自治州,西昌市政府,,37,37,45,24,28,100,,58,58,9,19,13,14,0.7,0.9
2023-11-29T1600,2574A,102.2685,27.8851,凉山彝族自治州,凉山州政府,,36,36,47,24,31,93,,61,61,10,24,12,13,0.5,0.8
2023-11-29T1600,2575A,102.237,27.8914,凉山彝族自治州,长安,,38,38,48,23,30,90,,50,50,15,27,16,16,0.6,0.8
2023-11-29T1600,2212A,123.2,41.1953,辽阳市,宏伟区,,,,46,12,32,66,,62,62,8,31,8,14,0.2,0.5
2023-11-29T1600,2213A,123.1683,41.2495,辽阳市,新华园,,20,18,40,14,31,62,,60,60,7,36,9,21,0.6,1.1
2023-11-29T1600,2214A,123.2354,41.2639,辽阳市,滨河路,,21,,38,11,27,65,,62,62,5,33,7,11,0.4,0.7
2023-11-29T1600,2215A,123.149,41.2991,辽阳市,铁西工业园,,,15,56,12,58,65,,64,64,,40,9,12,0.5,1.1
2023-11-29T1600,2227A,125.1358,42.8845,辽源市,环保局,,24,14,19,4,11,75,,73,73,6,11,7,8,0.5,0.5
2023-11-29T1600,3239A,125.0764,42.9078,辽源市,银鹰制药,,22,13,19,8,14,69,,72,72,11,14,4,10,0.3,0.5
2023-11-29T1600,1625A,115.9848,36.4372,聊城市,区政府,,31,31,75,9,26,71,,68,68,14,40,2,7,0.3,0.5
2023-11-29T1600,2878A,116.0072,36.4343,聊城市,聊大东校,,23,22,65,7,28,73,,70,70,6,35,4,8,0.2,0.3
2023-11-29T1600,3200A,115.9819,36.4978,聊城市,监控中心,,25,25,70,2,26,68,,67,67,6,37,3,7,0.1,0.3
2023-11-29T1600,3513A,116.0445,36.4361,聊城市,九州社区,,24,24,64,1,22,74,,70,70,2,39,4,12,0.3,0.5
2023-11-29T1600,4018A,116.0567,36.4608,聊城市,星美广场,,31,31,75,3,24,66,,66,66,16,42,1,9,0.3,0.4
2023-11-29T1600,2632A,94.3681,29.6376,林芝市,林芝监测站,,26,5,10,4,5,83,,61,61,4,7,6,6,0.2,0.3
2023-11-29T1600,2633A,94.3616,29.6616,林芝市,林芝人民医院,,26,11,12,2,7,81,,61,61,5,8,7,7,0.6,0.6
2023-11-29T1600,2603A,100.0781,23.8982,临沧市,市环保局,,28,24,28,19,21,79,,54,54,7,11,4,5,0.3,0.4
2023-11-29T1600,2604A,100.0894,23.8822,临沧市,市气象局,,,37,35,19,25,77,,52,52,,16,3,4,0.3,0.4
2023-11-29T1600,1733A,111.5531,36.0783,临汾市,临钢医院,,,84,87,,20,73,,66,66,6,25,2,4,0.3,0.4
2023-11-29T1600,1734A,111.5028,36.0714,临汾市,技工学校,,,21,81,2,29,76,,70,70,,36,,6,0.6,0.8
2023-11-29T1600,1736A,111.5018,36.0855,临汾市,市委,,40,40,85,1,21,66,,56,56,6,31,3,6,0.3,0.5
2023-11-29T1600,3018A,111.505,36.1014,临汾市,唐尧大酒店,,32,32,81,18,26,70,,64,64,6,29,1,5,0.4,0.6
2023-11-29T1600,3668A,111.5036,36.0414,临汾市,城南,,42,42,95,5,27,75,,68,68,8,33,1,5,0.3,0.5
2023-11-29T1600,2667A,103.2069,35.5993,临夏回族自治州,环保局,,48,48,81,24,44,85,,56,56,16,32,15,18,0.4,0.9
2023-11-29T1600,2668A,103.2417,35.6057,临夏回族自治州,建设大厦,,,,94,,58,143,,58,58,8,36,,13,,1
2023-11-29T1600,1618A,118.3429,35.0532,临沂市,沂河小区,,,56,76,27,41,53,,46,46,29,49,,10,0.5,0.7
2023-11-29T1600,1619A,118.295,35.0583,临沂市,鲁南制药厂,颗粒物(PM10),51,51,75,22,42,51,,48,48,30,45,9,14,0.4,0.6
2023-11-29T1600,1620A,118.2794,34.9976,临沂市,新光毛纺厂,颗粒物(PM10),53,56,80,26,39,46,,42,42,26,41,9,13,0.7,0.9
2023-11-29T1600,1621A,118.3956,35.0888,临沂市,河东保险公司,颗粒物(PM10),51,51,76,20,38,48,,42,42,27,46,8,8,0.5,0.7
2023-11-29T1600,3370A,118.3564,35.0215,临沂市,十里堡居委,,46,46,75,22,35,51,,44,44,30,46,3,6,0.6,0.8
2023-11-29T1600,3496A,118.3604,35.1084,临沂市,南坊新区,,48,48,76,19,36,49,,41,41,28,48,9,12,0.8,1.1
2023-11-29T1600,3860A,118.3920,35.0300,临沂市,皇山花园小区,颗粒物(PM10),52,53,83,21,36,47,,42,42,26,45,8,11,0.3,0.5
2023-11-29T1600,1870A,109.4856,24.3895,柳州市,柳东小学,细颗粒物(PM2.5),65,56,75,47,58,146,,98,98,6,28,14,23,0.7,0.8
2023-11-29T1600,1871A,109.4157,24.3277,柳州市,环保监测站,细颗粒物(PM2.5),64,66,93,46,60,144,,91,91,15,51,9,10,0.7,1
2023-11-29T1600,1872A,109.389,24.341,柳州市,河西水厂,颗粒物(PM10),63,75,126,39,60,144,,84,84,15,55,8,14,0.9,1.5
2023-11-29T1600,1873A,109.4311,24.2921,柳州市,市四中,颗粒物(PM10),57,64,93,38,56,138,,91,91,16,54,8,11,0.7,1.1
2023-11-29T1600,1874A,109.4006,24.3631,柳州市,市九中,颗粒物(PM10),60,69,103,42,59,148,,94,94,15,48,5,10,0.8,1.2
2023-11-29T1600,1875A,109.4958,24.3134,柳州市,古亭山,细颗粒物(PM2.5),65,72,67,47,46,141,,80,80,12,44,12,16,0.4,0.4
2023-11-29T1600,3402A,109.5422,24.3996,柳州市,市二中,,,,87,,59,,,91,91,8,40,9,25,0.5,0.6
2023-11-29T1600,2307A,116.5079,31.737,六安市,监测大楼,,,121,123,64,72,61,,57,57,,35,,7,0.8,0.9
2023-11-29T1600,2308A,116.4738,31.7643,六安市,皖西学院,颗粒物(PM10),91,131,133,62,62,64,,60,60,29,31,7,7,0.7,0.7
2023-11-29T1600,2309A,116.4996,31.7905,六安市,朝阳厂,细颗粒物(PM2.5),85,113,121,63,70,61,,60,60,30,31,8,8,0.7,0.8
2023-11-29T1600,2310A,116.5567,31.7886,六安市,开发区,颗粒物(PM10),107,163,154,72,74,53,,54,54,40,44,8,14,0.8,0.9
2023-11-29T1600,2576A,104.8,26.5892,六盘水市,窑上,细颗粒物(PM2.5),94,85,60,70,41,69,,78,74,12,9,2,3,0.9,0.6
2023-11-29T1600,2577A,104.83,26.5917,六盘水市,黄土坡,细颗粒物(PM2.5),78,79,50,57,35,66,,69,68,16,16,8,10,0.8,0.6
2023-11-29T1600,2578A,104.89,26.5939,六盘水市,水钢,,,78,52,69,38,64,,82,63,,13,3,6,1.1,0.7
2023-11-29T1600,2579A,104.8475,26.5894,六盘水市,民中,细颗粒物(PM2.5),79,71,44,58,35,61,,75,63,18,15,6,9,0.8,0.7
2023-11-29T1600,2580A,104.9544,26.5506,六盘水市,双水,细颗粒物(PM2.5),87,,41,64,30,79,,69,69,9,10,5,7,0.8,0.6
2023-11-29T1600,2336A,117.0217,25.1033,龙岩市,龙岩市监测站,,46,46,48,25,30,108,,101,101,21,31,8,9,0.6,0.7
2023-11-29T1600,2337A,117.0258,25.0661,龙岩市,闽西职业技术学院,颗粒物(PM10),52,54,58,27,29,106,,101,101,19,33,7,6,0.6,0.7
2023-11-29T1600,2338A,117.0196,25.0306,龙岩市,龙岩学院,颗粒物(PM10),53,56,51,24,28,104,,84,84,19,22,10,6,0.5,0.5
2023-11-29T1600,2885A,104.9339,33.3826,陇南市,滨江中学,颗粒物(PM10),51,51,104,17,42,84,,50,50,18,56,15,31,0.7,2
2023-11-29T1600,3247A,104.955,33.371,陇南市,市总工会,,42,42,71,17,29,86,,58,58,22,38,8,13,0.2,0.6
2023-11-29T1600,2487A,111.9589,27.8901,娄底市,电视发射台,细颗粒物(PM2.5),98,101,66,73,41,82,,69,69,18,22,8,10,1.0,1.3
2023-11-29T1600,2488A,111.9975,27.725,娄底市,市监测站,细颗粒物(PM2.5),97,113,98,72,68,110,,82,82,21,49,11,14,0.7,1
2023-11-29T1600,2489A,112.0194,27.7314,娄底市,市委党校,,,,90,,63,100,,79,79,,42,5,5,0.8,1.2
2023-11-29T1600,2490A,111.9561,27.7569,娄底市,涟钢,细颗粒物(PM2.5),95,115,113,71,70,86,,60,60,29,43,14,14,2.2,1.5
2023-11-29T1600,2491A,111.9892,27.7044,娄底市,市政府,细颗粒物(PM2.5),92,104,100,68,70,108,,72,72,14,32,11,10,0.9,1.1
2023-11-29T1600,1893A,105.4324,28.9634,泸州市,九狮山,颗粒物(PM10),52,54,65,30,46,132,,34,,13,18,6,7,0.4,0.5
2023-11-29T1600,1894A,105.4427,28.9063,泸州市,小市上码头,细颗粒物(PM2.5),69,81,83,50,56,115,,75,75,16,20,6,8,0.5,0.6
2023-11-29T1600,1895A,105.4241,28.8573,泸州市,兰田宪桥,细颗粒物(PM2.5),63,72,78,45,57,117,,73,73,11,17,8,10,0.5,0.6
2023-11-29T1600,1896A,105.4379,28.8833,泸州市,市环监站,细颗粒物(PM2.5),64,70,79,46,51,109,,67,67,16,25,6,7,0.4,0.5
2023-11-29T1600,3490A,105.3617,28.7703,泸州市,纳溪区环保局,颗粒物(PM10),63,76,83,39,55,117,,72,72,17,24,9,8,0.7,0.9
2023-11-29T1600,2183A,111.1406,37.5211,吕梁市,环保局,,22,22,62,7,12,69,,65,65,10,25,5,5,0.3,0.4
2023-11-29T1600,2185A,111.1297,37.5136,吕梁市,自来水公司,,23,20,57,9,15,71,,68,68,11,20,6,7,0.3,0.3
2023-11-29T1600,2867A,111.1283,37.51,吕梁市,马茂庄小学,,,,69,7,16,,,67,67,10,27,2,3,0.3,0.4
2023-11-29T1600,1812A,112.3931,34.6516,洛阳市,市委党校,颗粒物(PM10),69,87,123,39,69,43,,35,35,33,55,10,11,0.5,0.8
2023-11-29T1600,1814A,112.4657,34.6871,洛阳市,豫西宾馆,颗粒物(PM10),70,90,143,34,66,42,,36,36,32,54,8,7,0.4,0.9
2023-11-29T1600,1815A,112.494,34.6886,洛阳市,河南林校,颗粒物(PM10),61,71,120,30,60,40,,36,36,33,50,6,5,0.4,0.7
2023-11-29T1600,1816A,112.3844,34.623,洛阳市,开发区管委会,颗粒物(PM10),72,93,112,35,60,43,,37,37,33,46,6,5,0.6,0.8
2023-11-29T1600,1817A,112.4267,34.6258,洛阳市,市委新办公区,颗粒物(PM10),66,82,120,41,66,41,,37,37,36,55,5,4,0.6,0.8
2023-11-29T1600,3340A,112.6005,34.6326,洛阳市,伊滨,颗粒物(PM10),64,78,141,32,71,43,,39,39,29,46,6,5,0.6,0.9
2023-11-29T1600,3341A,112.4951,34.6332,洛阳市,中移产业园,颗粒物(PM10),74,97,126,23,64,43,,38,38,25,51,7,8,0.3,0.9
2023-11-29T1600,3593A,112.5736,34.8993,洛阳市,吉利监测站,颗粒物(PM10),62,74,109,22,57,47,,40,40,26,49,6,6,0.5,0.8
2023-11-29T1600,3635A,112.3677,34.662,洛阳市,河科大西苑校区,颗粒物(PM10),72,93,138,38,69,45,,38,38,32,51,5,7,0.5,0.7
2023-11-29T1600,3636A,112.4388,34.6781,洛阳市,英才小学,颗粒物(PM10),64,78,131,24,61,42,,36,36,34,54,8,7,0.5,0.7
2023-11-29T1600,2399A,114.051,33.5699,漯河市,三五一五工厂,,,71,138,25,73,48,,42,42,,47,7,9,0.3,0.6
2023-11-29T1600,2400A,114.0055,33.5698,漯河市,漯河大学,颗粒物(PM10),62,74,138,23,62,54,,46,46,20,43,5,8,0.4,0.7
2023-11-29T1600,2401A,114.0138,33.5828,漯河市,市水利局,颗粒物(PM10),60,70,138,24,64,52,,44,44,14,36,7,9,0.4,0.7
2023-11-29T1600,2402A,114.0261,33.5698,漯河市,市广电局,颗粒物(PM10),63,76,143,27,71,51,,43,43,18,39,3,5,0.3,0.5
2023-11-29T1600,3478A,113.9749,33.5664,漯河市,市图书馆,颗粒物(PM10),56,61,133,22,68,51,,43,43,17,39,4,6,0.6,0.8
2023-11-29T1600,3479A,114.0967,33.5906,漯河市,召陵区卫健委,颗粒物(PM10),57,64,120,20,71,47,,41,41,21,42,5,7,0.3,0.6
2023-11-29T1600,1798A,118.5092,31.6837,马鞍山市,湖东路四小,细颗粒物(PM2.5),88,109,100,65,67,92,,78,78,30,29,10,13,0.7,1.1
2023-11-29T1600,1799A,118.5024,31.6449,马鞍山市,开发区,细颗粒物(PM2.5),107,110,112,80,82,,,63,63,25,49,12,14,0.7,0.9
2023-11-29T1600,1800A,118.5228,31.7231,马鞍山市,慈湖,细颗粒物(PM2.5),99,129,123,74,84,86,,69,69,37,54,8,13,0.9,1.1
2023-11-29T1600,1802A,118.6245,31.7241,马鞍山市,濮塘,颗粒物(PM10),89,127,124,54,63,84,,71,71,29,31,10,9,0.9,0.9
2023-11-29T1600,3633A,118.4918,31.6809,马鞍山市,雨山,,,,134,,73,96,,69,69,27,43,10,16,,1
2023-11-29T1600,1686A,111.0286,21.4688,茂名市,电白南海,颗粒物(PM10),65,80,70,44,38,96,,97,94,16,17,10,12,0.8,0.8
2023-11-29T1600,1687A,110.9294,21.6533,茂名市,茂石化七小,细颗粒物(PM2.5),104,102,72,78,51,66,,98,62,29,24,22,15,1.1,1
2023-11-29T1600,1688A,110.9107,21.6687,茂名市,健康路,细颗粒物(PM2.5),92,88,65,68,44,72,,96,70,27,21,35,22,0.8,0.8
2023-11-29T1600,1689A,110.8592,21.6828,茂名市,高岭,细颗粒物(PM2.5),94,83,85,70,55,72,,75,64,23,25,37,24,0.8,0.8
2023-11-29T1600,3450A,111.01,21.5165,茂名市,电白水东,颗粒物(PM10),64,78,60,44,37,88,,102,92,20,20,7,9,0.6,0.7
2023-11-29T1600,2539A,104.0308,30.0478,眉山市,黑龙滩水库,颗粒物(PM10),65,79,86,44,50,40,,34,34,28,22,6,11,0.4,0.5
2023-11-29T1600,2540A,103.8416,30.0874,眉山市,气象局,细颗粒物(PM2.5),73,72,104,53,76,69,,48,48,43,56,9,12,0.6,0.8
2023-11-29T1600,3137A,103.8578,30.0744,眉山市,市委党校,颗粒物(PM10),70,90,114,44,75,57,,36,36,43,65,10,12,0.5,0.7
2023-11-29T1600,3148A,103.8291,30.0564,眉山市,区人社局,细颗粒物(PM2.5),77,83,92,56,77,60,,44,44,57,58,11,19,0.8,0.9
2023-11-29T1600,1690A,116.1231,24.3284,梅州市,梅江月梅,,42,42,50,22,27,104,,80,80,11,34,12,13,0.5,0.5
2023-11-29T1600,1691A,116.0797,24.2719,梅州市,梅县新城,,49,49,60,27,31,100,,81,81,18,38,12,10,0.7,0.8
2023-11-29T1600,1692A,116.1248,24.2654,梅州市,环境监控中心,颗粒物(PM10),52,53,55,25,31,92,,81,81,24,39,10,10,0.5,0.6
2023-11-29T1600,3315A,116.1233,24.2991,梅州市,梅龙,,34,34,49,23,29,99,,77,77,11,28,8,9,0.6,0.7
2023-11-29T1600,1878A,104.7778,31.4741,绵阳市,富乐山,,,,62,,39,78,,25,25,12,32,,7,0.4,0.7
2023-11-29T1600,1879A,104.7563,31.4535,绵阳市,市人大,颗粒物(PM10),56,62,74,13,45,67,,19,19,18,46,10,9,0.3,0.6
2023-11-29T1600,1880A,104.6697,31.4668,绵阳市,高新区自来水公司,,49,49,96,18,43,52,,15,15,30,46,8,8,0.4,0.6
2023-11-29T1600,1881A,104.7287,31.5075,绵阳市,三水厂,颗粒物(PM10),69,87,91,38,52,69,,15,15,18,49,5,6,0.4,0.8
2023-11-29T1600,3491A,104.69,31.5322,绵阳市,西科大附属小学,,43,43,71,20,40,65,,24,24,21,43,8,8,0.2,0.5
2023-11-29T1600,3492A,104.5648,31.5343,绵阳市,安州区旅游局,,,,84,,46,58,,19,19,,42,11,10,,0.8
2023-11-29T1600,1784A,129.61,44.561,牡丹江市,环保大楼,,48,,35,33,29,64,,57,57,13,24,6,7,0.2,0.4
2023-11-29T1600,1785A,129.6115,44.5782,牡丹江市,文化广场,,43,,44,30,35,59,,46,46,12,28,9,11,0.3,0.5
2023-11-29T1600,1786A,129.5904,44.5963,牡丹江市,第一医院,,50,,41,35,38,62,,53,53,10,28,6,8,0.3,0.6
2023-11-29T1600,1787A,129.6364,44.6075,牡丹江市,机车工厂,,32,26,48,22,36,62,,51,51,10,30,7,8,0.2,0.6
2023-11-29T1600,1788A,129.6386,44.5462,牡丹江市,第一中学,,35,30,33,24,30,64,,55,55,7,19,7,8,0.2,0.4
2023-11-29T1600,2531A,105.0703,29.61,内江市,市监测站,细颗粒物(PM2.5),59,60,59,42,48,52,,59,59,40,35,5,5,0.5,0.6
2023-11-29T1600,2532A,105.0717,29.5947,内江市,东兴区政府,,46,46,54,29,41,74,,65,65,22,26,10,11,0.4,0.5
2023-11-29T1600,2533A,105.0653,29.5817,内江市,内江二中,颗粒物(PM10),52,53,63,34,55,76,,68,68,24,27,6,8,0.4,0.5
2023-11-29T1600,2534A,105.0406,29.5822,内江市,内江日报社,颗粒物(PM10),54,58,59,31,40,66,,60,60,20,27,6,7,0.4,0.5
2023-11-29T1600,1290A,115.8931,28.6843,南昌市,省外办,颗粒物(PM10),67,83,123,39,70,97,,48,48,19,70,10,10,0.7,1.1
2023-11-29T1600,1291A,115.8886,28.7003,南昌市,省林业公司,颗粒物(PM10),64,78,109,36,55,107,,60,60,30,87,9,9,0.7,1
2023-11-29T1600,1292A,115.8126,28.7442,南昌市,林科所,颗粒物(PM10),63,75,75,39,40,128,,75,75,9,49,11,10,0.7,0.8
2023-11-29T1600,1294A,115.8518,28.687,南昌市,建工学校,颗粒物(PM10),74,97,116,51,58,104,,59,59,24,75,15,14,0.6,1.1
2023-11-29T1600,1295A,115.8921,28.6424,南昌市,象湖,颗粒物(PM10),70,90,121,37,66,99,,46,46,23,79,11,11,0.5,1.5
2023-11-29T1600,1296A,115.7423,28.7996,南昌市,武术学校,,46,42,34,32,15,114,,81,81,17,9,9,5,0.5,0.4
2023-11-29T1600,1298A,115.9314,28.6842,南昌市,省站,颗粒物(PM10),79,107,135,38,66,111,,57,57,12,58,9,10,0.5,1.1
2023-11-29T1600,3046A,115.9084,28.6062,南昌市,机电学校,颗粒物(PM10),64,78,132,34,67,107,,57,57,24,74,12,13,0.6,1
2023-11-29T1600,3690A,115.9721,28.7031,南昌市,外国语学校,颗粒物(PM10),68,85,107,42,59,114,,67,67,16,55,12,10,0.6,1
2023-11-29T1600,1905A,106.056,30.8064,南充市,西山风景区,细颗粒物(PM2.5),69,82,50,50,39,4,,60,28,29,31,4,4,0.7,0.5
2023-11-29T1600,1906A,106.0789,30.8023,南充市,南充市委,细颗粒物(PM2.5),84,89,77,62,46,13,,23,10,30,35,6,5,0.7,0.7
2023-11-29T1600,1907A,106.1031,30.8217,南充市,南充炼油厂,细颗粒物(PM2.5),87,94,84,64,46,11,,40,8,28,30,5,6,0.7,0.7
2023-11-29T1600,1908A,106.1064,30.7856,南充市,高坪区监测站,细颗粒物(PM2.5),77,96,70,56,42,20,,22,14,29,34,7,7,0.5,0.5
2023-11-29T1600,1909A,106.0642,30.7636,南充市,嘉陵区环保局,细颗粒物(PM2.5),70,77,72,51,43,10,,20,8,38,36,6,12,0.5,0.5
2023-11-29T1600,1910A,106.1087,30.8388,南充市,市环境监测站,细颗粒物(PM2.5),85,104,75,63,46,11,,44,15,25,24,6,6,0.6,0.5
2023-11-29T1600,1151A,118.8086,32.1065,南京市,迈皋桥,颗粒物(PM10),59,67,131,24,70,78,,63,63,20,45,4,8,0.4,0.7
2023-11-29T1600,1152A,118.7538,32.0551,南京市,草场门,颗粒物(PM10),65,80,130,24,72,77,,64,64,28,55,5,7,0.3,0.6
2023-11-29T1600,1153A,118.7794,32.0745,南京市,山西路,颗粒物(PM10),70,90,143,36,70,82,,69,69,21,35,7,10,0.6,0.9
2023-11-29T1600,1154A,118.7752,32.0023,南京市,中华门,颗粒物(PM10),64,78,138,36,77,84,,67,67,20,43,4,6,0.6,0.9
2023-11-29T1600,1155A,118.8109,32.0309,南京市,瑞金路,颗粒物(PM10),69,88,142,29,73,79,,64,64,27,54,8,11,0.4,0.8
2023-11-29T1600,1156A,118.7997,32.0754,南京市,玄武湖,颗粒物(PM10),61,71,126,28,79,72,,54,54,13,35,8,11,0.4,0.8
2023-11-29T1600,1157A,118.6414,32.0931,南京市,浦口,颗粒物(PM10),74,98,141,28,72,81,,68,68,18,42,6,8,0.8,1.1
2023-11-29T1600,1158A,118.7356,31.9996,南京市,奥体中心,颗粒物(PM10),70,89,142,39,78,87,,67,67,23,49,10,8,0.3,0.6
2023-11-29T1600,1159A,118.9125,32.1028,南京市,仙林大学城,颗粒物(PM10),58,66,137,34,84,79,,66,66,24,48,4,9,0.7,1
2023-11-29T1600,3422A,118.8436,31.9198,南京市,江宁彩虹桥,颗粒物(PM10),96,141,162,36,80,95,,72,72,23,50,7,8,0.9,1.2
2023-11-29T1600,3423A,119.0138,31.6494,南京市,溧水永阳,细颗粒物(PM2.5),109,127,139,82,85,110,,83,83,30,47,7,5,,1
2023-11-29T1600,3424A,118.879,31.3302,南京市,高淳老职中,细颗粒物(PM2.5),129,144,106,98,78,109,,77,77,47,42,12,10,0.4,0.3
2023-11-29T1600,3427A,118.8554,32.3578,南京市,六合雄州,颗粒物(PM10),57,64,114,24,64,61,,56,56,6,44,2,2,0.5,0.8
2023-11-29T1600,1401A,108.3103,22.7881,南宁市,二十一中,颗粒物(PM10),62,73,75,42,52,156,,120,120,14,27,7,10,0.9,1
2023-11-29T1600,1402A,108.3141,22.8528,南宁市,北湖,细颗粒物(PM2.5),62,67,87,44,58,167,,118,118,13,34,6,12,0.8,0.9
2023-11-29T1600,1403A,108.3206,22.8225,南宁市,市监测站,颗粒物(PM10),67,84,78,42,54,142,,105,105,38,37,8,13,0.8,1
2023-11-29T1600,1404A,108.3829,22.8037,南宁市,大自然花园,细颗粒物(PM2.5),63,69,71,45,54,153,,116,116,15,26,8,9,0.8,0.9
2023-11-29T1600,1405A,108.4394,22.7904,南宁市,仙葫,颗粒物(PM10),59,68,80,40,56,148,,112,112,17,39,8,9,0.7,0.9
2023-11-29T1600,1406A,108.2397,22.8467,南宁市,区农职院,颗粒物(PM10),64,78,88,44,55,140,,94,94,47,45,9,13,0.9,1
2023-11-29T1600,1407A,108.3275,22.735,南宁市,英华嘉园,颗粒物(PM10),57,63,86,38,56,127,,96,96,16,45,8,10,0.7,0.8
2023-11-29T1600,1408A,108.2257,22.7757,南宁市,沙井镇街道办,细颗粒物(PM2.5),62,72,116,44,59,133,,95,95,33,67,9,10,0.9,1
2023-11-29T1600,3401A,108.4834,22.7618,南宁市,红星社区,,,,87,,56,,,92,92,14,40,9,9,,0.9
2023-11-29T1600,2332A,118.1681,26.6369,南平市,南平市监测站,,,36,43,17,27,107,,84,84,,24,7,5,,1
2023-11-29T1600,2333A,118.1825,26.6489,南平市,南平铝业有限公司,,49,49,50,17,26,117,,86,86,14,26,7,7,0.6,0.7
2023-11-29T1600,2334A,118.1756,26.6272,南平市,南平七中,颗粒物(PM10),51,52,46,19,24,117,,86,86,14,24,6,6,0.5,0.6
2023-11-29T1600,1168A,120.9098,31.9663,南通市,狼山街道,颗粒物(PM10),77,104,101,52,57,126,,90,90,20,40,9,9,0.7,0.7
2023-11-29T1600,1169A,120.86,32.0005,南通市,虹桥,颗粒物(PM10),74,98,106,45,59,114,,88,88,23,46,6,8,0.8,0.9
2023-11-29T1600,1170A,120.87,32.02,南通市,城中,颗粒物(PM10),63,76,88,38,51,107,,83,83,16,40,8,9,0.6,0.7
2023-11-29T1600,1171A,120.94,31.93,南通市,星湖花园,颗粒物(PM10),89,128,111,55,57,112,,82,82,24,44,8,8,0.6,0.6
2023-11-29T1600,1172A,120.81,32.0417,南通市,紫琅学院,颗粒物(PM10),67,84,107,29,50,92,,81,81,18,44,7,9,0.4,0.6
2023-11-29T1600,3291A,121.067,32.062,南通市,通州监测站,颗粒物(PM10),78,105,105,41,51,118,,91,91,15,30,8,9,0.6,0.6
2023-11-29T1600,3432A,120.9348,31.9883,南通市,环境教育馆,颗粒物(PM10),68,85,82,41,47,122,,87,87,25,43,8,9,0.5,0.6
2023-11-29T1600,2404A,112.5224,33.0122,南阳市,瓦房庄,颗粒物(PM10),59,67,102,38,54,44,,41,41,32,48,8,8,0.5,0.7
2023-11-29T1600,2405A,112.5003,32.9735,南阳市,汉画馆,颗粒物(PM10),65,79,111,35,51,43,,41,41,23,42,7,6,0.5,0.6
2023-11-29T1600,2406A,112.5573,33.027,南阳市,气象站,,,,110,,50,,,41,41,,44,6,5,0.5,0.7
2023-11-29T1600,2407A,112.5481,32.9689,南阳市,理工学院,颗粒物(PM10),67,83,111,32,51,44,,44,44,32,47,6,7,0.3,0.5
2023-11-29T1600,4008A,112.5234,32.9922,南阳市,卧龙区政府,颗粒物(PM10),69,87,120,34,50,44,,39,39,29,46,8,7,0.5,0.7
2023-11-29T1600,1234A,121.8358,29.911,宁波市,区环保大楼,颗粒物(PM10),65,80,92,20,33,109,,108,108,50,57,7,8,0.4,0.8
2023-11-29T1600,1235A,121.56,29.82,宁波市,万里学院,,48,48,102,18,37,120,,110,110,21,52,6,7,0.5,0.7
2023-11-29T1600,1236A,121.713,29.9572,宁波市,龙赛医院,颗粒物(PM10),70,89,93,25,34,117,,92,92,42,65,7,9,0.4,0.6
2023-11-29T1600,1239A,121.633,29.7733,宁波市,钱湖水厂,颗粒物(PM10),64,78,70,33,28,114,,106,106,26,24,8,8,0.4,0.5
2023-11-29T1600,1240A,121.5856,29.8635,宁波市,太古小学,颗粒物(PM10),54,58,84,28,33,112,,108,108,36,45,11,11,0.6,0.8
2023-11-29T1600,1241A,121.524,29.8674,宁波市,市环境监测中心,,47,47,82,26,33,120,,104,104,23,48,12,13,0.7,0.9
2023-11-29T1600,2871A,121.6147,29.9017,宁波市,万里国际学校,颗粒物(PM10),60,70,89,35,42,115,,105,105,45,48,10,9,0.6,0.8
2023-11-29T1600,3710A,121.5594,29.8975,宁波市,白沙活动中心,颗粒物(PM10),58,66,82,30,34,112,,110,110,42,54,9,9,0.6,0.7
2023-11-29T1600,2341A,119.5388,26.6612,宁德市,宁德市监测站,颗粒物(PM10),54,58,56,19,27,113,,77,77,18,24,6,6,0.5,0.5
2023-11-29T1600,3209A,119.5231,26.6562,宁德市,宁德一中,颗粒物(PM10),69,88,60,42,24,100,,69,69,16,20,6,6,0.7,0.7
2023-11-29T1600,2618A,98.8601,25.8567,怒江州,州监测站,,28,28,32,15,20,77,,46,46,6,16,7,7,0.3,0.4
2023-11-29T1600,2619A,98.8546,25.8417,怒江州,泸水一中,,28,28,30,18,19,71,,40,40,11,21,7,7,0.3,0.5
2023-11-29T1600,1888A,101.6891,26.571,攀枝花市,弄弄坪,颗粒物(PM10),51,52,88,28,56,94,,55,55,18,45,25,41,0.8,2.2
2023-11-29T1600,1889A,101.5769,26.5928,攀枝花市,河门口,,36,36,63,24,41,95,,57,57,21,30,32,22,1.3,1.4
2023-11-29T1600,1890A,101.7169,26.585,攀枝花市,炳草岗,颗粒物(PM10),53,55,75,22,44,96,,58,58,23,50,23,33,1.0,1.7
2023-11-29T1600,1891A,101.7369,26.5008,攀枝花市,仁和,,40,40,58,27,38,103,,67,67,22,27,28,22,0.7,1
2023-11-29T1600,2835A,101.7227,26.567,攀枝花市,四十中小,,,43,82,32,47,105,,64,64,,58,33,28,0.7,2.1
2023-11-29T1600,1604A,122.0303,41.1489,盘锦市,开发区,,32,32,31,3,18,73,,72,72,12,36,11,19,0.3,0.8
2023-11-29T1600,1605A,122.0485,41.0883,盘锦市,兴隆台,,34,34,23,8,16,74,,71,71,14,31,9,13,0.3,0.5
2023-11-29T1600,1606A,121.8297,41.1028,盘锦市,新生街道,,29,29,27,4,15,72,,73,73,12,35,8,15,0.5,0.7
2023-11-29T1600,1832A,113.3257,33.742,平顶山市,新华旅馆,颗粒物(PM10),72,94,129,37,62,41,,43,43,22,31,8,10,0.5,0.6
2023-11-29T1600,1833A,113.2919,33.737,平顶山市,规划设计院,颗粒物(PM10),53,56,107,30,55,43,,45,45,24,34,8,10,0.5,0.7
2023-11-29T1600,1834A,113.182,33.774,平顶山市,平顶山工学院,颗粒物(PM10),53,56,115,22,49,50,,48,48,23,37,5,10,0.7,0.9
2023-11-29T1600,3204A,113.3025,33.73,平顶山市,规划局,颗粒物(PM10),63,75,133,29,57,43,,43,43,21,29,9,10,0.6,0.8
2023-11-29T1600,3594A,112.8867,33.9116,平顶山市,石龙区,颗粒物(PM10),71,91,143,31,54,51,,51,51,30,42,9,10,0.9,0.9
2023-11-29T1600,2656A,106.6692,35.5461,平凉市,聚贤嘉苑,,47,47,67,18,26,80,,66,66,11,25,7,11,0.3,0.5
2023-11-29T1600,2657A,106.7021,35.5307,平凉市,博物馆,,38,38,72,6,29,80,,68,68,11,33,5,12,0.3,0.7
2023-11-29T1600,2347A,114.0997,27.5002,萍乡市,武功山,,,,32,,24,,,36,,,8,,5,,0.3
2023-11-29T1600,2348A,113.8385,27.6434,萍乡市,中医院,细颗粒物(PM2.5),64,46,91,46,51,114,,88,88,18,38,13,24,0.8,1.3
2023-11-29T1600,2349A,113.8493,27.6253,萍乡市,市政府车库,,42,42,89,18,54,113,,73,73,10,41,11,25,0.4,2
2023-11-29T1600,2350A,113.8676,27.6435,萍乡市,市环保局,颗粒物(PM10),52,53,87,26,50,116,,79,79,13,31,10,22,0.5,0.8
2023-11-29T1600,2351A,113.866,27.6198,萍乡市,安源区政府,,45,45,85,28,49,120,,77,77,10,33,13,23,0.4,1.1
2023-11-29T1600,2319A,119.0141,25.4325,莆田市,荔城区仓后路,颗粒物(PM10),64,77,54,24,19,121,,109,107,15,10,6,6,0.7,0.6
2023-11-29T1600,2320A,119.0015,25.4553,莆田市,莆田市监测站,颗粒物(PM10),63,76,50,24,19,120,,118,118,17,8,7,6,0.6,0.5
2023-11-29T1600,2321A,119.1119,25.4561,莆田市,涵江区六中,颗粒物(PM10),58,66,55,21,18,117,,109,109,21,12,8,8,0.7,0.6
2023-11-29T1600,2322A,119.1013,25.3215,莆田市,秀屿区政府,颗粒物(PM10),64,77,58,30,21,129,,111,111,15,12,9,8,0.7,0.6
2023-11-29T1600,2392A,115.0312,35.7636,濮阳市,环保局,,31,31,78,5,40,58,,53,53,18,46,4,8,0.2,0.6
2023-11-29T1600,2394A,115.0574,35.7609,濮阳市,油田运输公司,,25,25,87,4,42,66,,58,58,12,46,4,8,0.2,0.6
2023-11-29T1600,2395A,115.0866,35.7754,濮阳市,油田物探公司,,22,22,90,4,42,61,,54,54,13,45,2,6,0.2,0.5
2023-11-29T1600,3021A,115,35.7668,濮阳市,濮水河管理处,,30,30,75,4,41,65,,59,59,14,45,6,7,0.2,0.5
2023-11-29T1600,2601A,100.98,22.7633,普洱市,市环保局,,41,41,42,22,24,95,,67,67,9,12,3,3,0.3,0.4
2023-11-29T1600,2602A,100.9817,22.8322,普洱市,普洱第二中学,,29,23,40,10,18,92,,67,67,8,22,6,5,0.3,0.6
2023-11-29T1600,2262A,131.0518,45.8751,七台河市,新一中,,40,36,51,28,45,76,,70,70,11,18,10,11,0.8,0.8
2023-11-29T1600,3345A,131.0577,45.7879,七台河市,中波台,细颗粒物(PM2.5),60,58,63,43,55,47,,52,52,36,34,11,9,0.8,0.9
2023-11-29T1600,3637A,131.0176,45.7761,七台河市,人民广场,细颗粒物(PM2.5),79,,63,58,73,41,,49,49,44,36,7,6,0.9,0.9
2023-11-29T1600,3684A,130.8781,45.8222,七台河市,新建矿广场,细颗粒物(PM2.5),65,,52,47,51,51,,46,46,27,36,11,9,0.6,0.7
2023-11-29T1600,1779A,123.9305,47.3636,齐齐哈尔市,安居小区,,36,,20,25,21,63,,63,63,8,12,4,6,0.3,0.3
2023-11-29T1600,1780A,123.9488,47.3386,齐齐哈尔市,中心广场,,21,21,15,9,8,57,,58,58,12,14,2,3,0.4,0.7
2023-11-29T1600,1781A,123.9483,47.3227,齐齐哈尔市,农牧车辆厂,,20,14,20,7,10,61,,60,60,10,13,6,7,0.3,0.4
2023-11-29T1600,1783A,123.945,47.2988,齐齐哈尔市,市环境监测站,,19,12,19,5,8,60,,61,61,11,11,3,4,0.2,0.3
2023-11-29T1600,3662A,123.6333,47.2075,齐齐哈尔市,富区青少年活动中心,,19,15,22,6,10,58,,61,61,11,14,7,9,0.4,0.5
2023-11-29T1600,2591A,107.9783,26.5747,黔东南苗族侗族自治州,市环境监测站,颗粒物(PM10),51,52,43,32,25,86,,79,79,24,23,4,5,0.7,0.7
2023-11-29T1600,2881A,107.8908,26.5311,黔东南苗族侗族自治州,凯里学院,,46,46,40,32,24,116,,104,104,7,8,4,5,0.7,0.7
2023-11-29T1600,2593A,107.5228,26.2403,黔南布依族苗族自治州,小围寨,,32,31,33,22,18,91,,82,82,5,6,4,3,0.7,0.5
2023-11-29T1600,3538A,107.5175,26.2978,黔南布依族苗族自治州,沙坝,,44,44,37,24,19,95,,89,89,8,8,5,4,0.7,0.5
2023-11-29T1600,2589A,104.9022,25.0925,黔西南布依族苗族自治州,场坝街,,36,36,39,18,29,84,,71,71,5,8,2,2,0.2,0.2
2023-11-29T1600,2590A,104.8811,25.0992,黔西南布依族苗族自治州,坪东大道,,39,36,46,27,34,82,,66,66,5,22,2,2,0.1,0.3
2023-11-29T1600,2502A,108.6236,21.9667,钦州市,市环保站,,48,48,94,27,52,123,,111,111,11,38,144,16,0.7,0.9
2023-11-29T1600,2503A,108.6549,21.9481,钦州市,沙埠小学,颗粒物(PM10),59,67,102,36,67,128,,100,100,12,45,9,15,0.6,0.8
2023-11-29T1600,2504A,108.5989,21.7431,钦州市,港区一小,,,,110,,55,139,,97,97,,34,11,13,0.8,0.9
2023-11-29T1600,1042A,119.5134,39.8207,秦皇岛市,北戴河环保局,,24,12,23,8,13,75,,73,73,7,23,5,9,0,0.4
2023-11-29T1600,1043A,119.7493,40.0116,秦皇岛市,第一关,,23,20,31,11,21,72,,72,72,7,34,5,10,0.2,0.4
2023-11-29T1600,1044A,119.5897,39.9499,秦皇岛市,监测站,,34,34,33,11,17,76,,74,74,10,25,6,9,0.2,0.4
2023-11-29T1600,1046A,119.5251,39.9041,秦皇岛市,建设大厦,,25,,31,17,22,71,,68,68,4,29,1,5,0,0.2
2023-11-29T1600,3132A,119.610547,39.943889,秦皇岛市,文明里,,23,,29,8,17,72,,71,71,10,25,4,8,0.3,0.5
2023-11-29T1600,1307A,120.6659,36.2403,青岛市,仰口,,29,29,29,9,19,70,,61,61,11,14,5,4,0.5,0.6
2023-11-29T1600,1310A,120.4134,36.0658,青岛市,市南区东部子站,颗粒物(PM10),53,56,48,9,16,69,,51,51,14,33,7,8,0.5,0.5
2023-11-29T1600,1311A,120.3664,36.1032,青岛市,四方区子站,,41,41,47,19,21,69,,48,48,14,44,5,6,0.5,0.6
2023-11-29T1600,1312A,120.2994,36.054,青岛市,市南区西部子站,,39,39,43,2,14,72,,52,52,12,31,6,7,0.4,0.5
2023-11-29T1600,1313A,120.4581,36.0858,青岛市,崂山区子站,,31,31,37,5,12,72,,57,57,10,25,6,7,0.5,0.6
2023-11-29T1600,1314A,120.1983,35.9608,青岛市,黄岛区子站,,39,39,57,12,24,71,,49,49,17,58,6,9,0.3,0.5
2023-11-29T1600,1315A,120.3999,36.3083,青岛市,城阳区子站,,36,36,46,12,23,72,,51,51,8,24,6,8,0.5,0.7
2023-11-29T1600,1966A,120.0405,35.8735,青岛市,黄岛区4号,,34,34,48,5,17,77,,58,58,10,39,6,8,0.5,0.7
2023-11-29T1600,3362A,120.5014,36.4034,青岛市,即墨2号,,34,34,42,7,24,67,,48,48,13,21,3,4,0.4,0.6
2023-11-29T1600,3642A,120.3503,36.0736,青岛市,市北区南部,颗粒物(PM10),55,59,50,7,16,62,,38,38,24,49,5,7,0.6,0.6
2023-11-29T1600,3643A,120.3948,36.1805,青岛市,李沧区北部,,46,46,46,9,21,73,,59,59,19,42,8,8,0.6,0.7
2023-11-29T1600,1702A,113.0426,23.691,清远市,环保大楼,细颗粒物(PM2.5),63,58,57,45,42,72,,54,54,29,31,7,6,0.7,0.6
2023-11-29T1600,1703A,113.0208,23.7106,清远市,凤城街办,细颗粒物(PM2.5),72,85,69,52,39,47,,65,46,46,35,12,9,0.9,0.9
2023-11-29T1600,3025A,113.0477,23.6344,清远市,技师学院,细颗粒物(PM2.5),64,75,80,46,43,41,,36,36,29,36,13,11,0.6,0.7
2023-11-29T1600,3318A,112.9903,23.7403,清远市,清新太和,,,89,67,52,40,38,,44,42,47,26,,6,,0.8
2023-11-29T1600,3455A,113.076,23.7198,清远市,清城东城,"颗粒物(PM10),细颗粒物(PM2.5)",55,60,59,39,38,90,,62,62,24,32,10,10,0.8,0.7
2023-11-29T1600,2661A,107.6325,35.7357,庆阳市,庆阳五中,,37,37,56,11,21,69,,64,64,8,25,5,11,0.4,0.6
2023-11-29T1600,2662A,107.6364,35.7067,庆阳市,市环保局,,37,37,47,5,14,66,,61,61,9,20,6,8,0.2,0.3
2023-11-29T1600,1916A,103.7897,25.5035,曲靖市,环境监测站,颗粒物(PM10),60,70,39,34,23,88,,74,74,23,14,12,6,0.5,0.4
2023-11-29T1600,1917A,103.8,25.5364,曲靖市,烟厂办公区,颗粒物(PM10),56,61,40,27,23,85,,73,73,22,13,11,5,0.6,0.5
2023-11-29T1600,3376A,103.7947,25.462,曲靖市,南苑二区,,50,50,38,29,24,92,,72,72,14,10,10,5,0.6,0.5
2023-11-29T1600,3377A,103.7444,25.5261,曲靖市,曲靖师范学院,"颗粒物(PM10),细颗粒物(PM2.5)",54,58,40,38,31,97,,74,74,15,12,9,7,0.6,0.5
2023-11-29T1600,1264A,118.8692,28.9398,衢州市,环保大楼,颗粒物(PM10),56,61,82,29,42,122,,76,76,28,49,11,8,0.5,0.6
2023-11-29T1600,1265A,118.8709,28.9666,衢州市,实验学校,颗粒物(PM10),57,64,72,34,36,119,,73,73,28,48,12,9,0.6,0.5
2023-11-29T1600,1266A,118.8621,28.9808,衢州市,衢州学院,颗粒物(PM10),55,59,67,29,33,111,,68,68,28,44,6,6,0.6,0.6
2023-11-29T1600,1611A,118.5819,24.9117,泉州市,涂山街,颗粒物(PM10),63,76,67,28,28,120,,102,102,20,14,5,5,0.6,0.6
2023-11-29T1600,1612A,118.5972,24.8978,泉州市,津头埔,颗粒物(PM10),53,56,50,31,27,117,,108,104,30,19,3,4,0.6,0.6
2023-11-29T1600,1613A,118.6663,24.9424,泉州市,万安,颗粒物(PM10),62,73,65,29,25,144,,113,112,15,15,4,3,0.5,0.5
2023-11-29T1600,3529A,118.6333,24.9264,泉州市,城华南路,颗粒物(PM10),57,64,58,19,24,123,,111,106,24,14,6,5,0.6,0.6
2023-11-29T1600,2626A,88.8876,29.2718,日喀则市,日喀则监测站,,30,11,45,3,21,93,,55,55,4,35,4,4,0.5,1.2
2023-11-29T1600,3726A,88.8781,29.2426,日喀则市,林业技术推广中心,颗粒物(PM10),55,60,29,0,9,91,,62,62,6,17,6,7,0.4,0.6
2023-11-29T1600,1659A,119.471,35.4209,日照市,监测站,,48,48,59,10,26,67,,50,50,16,45,9,12,0.8,1.1
2023-11-29T1600,1660A,119.523,35.4216,日照市,市政府广场,,44,44,52,9,22,65,,53,53,22,37,5,6,0.6,0.7
2023-11-29T1600,1661A,119.5587,35.4044,日照市,港务局,,44,44,54,14,20,64,,55,55,25,40,8,9,0.6,0.7
2023-11-29T1600,3507A,119.5328,35.4625,日照市,职业技术学院,颗粒物(PM10),51,51,58,12,21,65,,54,54,21,35,8,10,0.7,0.8
2023-11-29T1600,3604A,119.3266,35.1044,日照市,岚山环保分局,颗粒物(PM10),56,61,82,22,28,58,,44,44,19,40,12,23,0.7,2.1
2023-11-29T1600,1835A,111.1922,34.7752,三门峡市,市政府,颗粒物(PM10),55,60,89,17,42,57,,45,45,15,39,7,11,0.5,0.9
2023-11-29T1600,1836A,111.1587,34.7942,三门峡市,开发区,,42,42,99,6,41,59,,45,45,14,38,8,11,0.5,0.7
2023-11-29T1600,3039A,111.1911,34.7829,三门峡市,三门峡市第一小学,,,64,100,14,41,60,,51,51,16,37,,14,0.5,0.8
2023-11-29T1600,3598A,111.1,34.7167,三门峡市,富达温泉假日酒店,颗粒物(PM10),57,64,103,12,50,62,,46,46,24,54,14,18,0.6,1
2023-11-29T1600,2324A,117.6211,26.2625,三明市,三钢,颗粒物(PM10),55,59,50,22,27,111,,100,100,19,21,5,7,0.6,0.5
2023-11-29T1600,2325A,117.635,26.2714,三明市,三明二中,颗粒物(PM10),53,56,44,22,24,110,,96,96,22,21,7,8,0.6,0.7
2023-11-29T1600,2326A,117.6028,26.2378,三明市,三元区政府,颗粒物(PM10),56,62,56,26,27,102,,88,88,39,34,21,9,2.1,0.9
2023-11-29T1600,1876A,109.5078,18.2489,三亚市,河东子站,,20,18,40,5,22,62,,66,65,8,13,2,2,0.5,0.6
2023-11-29T1600,1877A,109.4964,18.2681,三亚市,河西子站,,21,12,42,4,24,67,,63,63,6,11,2,3,0.4,0.5
2023-11-29T1600,3540A,109.7348,18.3443,三亚市,君悦子站,,,,48,,19,65,,66,66,,11,2,2,0.5,0.5
2023-11-29T1600,2624A,91.7608,29.2313,山南市,山南监测站,,,15,26,3,9,91,,65,56,6,12,,8,0.4,0.4
2023-11-29T1600,2625A,91.7706,29.2436,山南市,山南人民医院,,29,10,31,6,11,92,,65,62,7,11,6,6,0.3,0.4
2023-11-29T1600,1674A,116.6794,23.3667,汕头市,金平子站,,48,48,62,31,27,110,,107,107,16,14,7,11,0.8,0.7
2023-11-29T1600,1675A,116.7244,23.3633,汕头市,龙湖子站,,,53,63,34,27,101,,106,103,25,21,10,10,,0.8
2023-11-29T1600,1676A,116.7258,23.2775,汕头市,濠江子站,颗粒物(PM10),52,53,58,29,24,122,,115,115,15,14,9,9,0.7,0.8
2023-11-29T1600,1677A,116.7519,23.4714,汕头市,澄海子站,颗粒物(PM10),58,66,64,38,30,103,,99,99,24,22,7,13,0.8,0.8
2023-11-29T1600,1678A,116.6092,23.2539,汕头市,潮阳子站,颗粒物(PM10),55,59,59,30,24,122,,107,107,21,15,10,10,0.8,0.7
2023-11-29T1600,3444A,116.454,23.2684,汕头市,潮南峡山,颗粒物(PM10),72,94,76,47,31,152,,130,130,27,18,14,13,0.9,0.8
2023-11-29T1600,3624A,116.4069,23.2533,汕头市,潮南子站,颗粒物(PM10),85,119,80,55,35,133,,110,110,28,16,12,10,1.0,0.9
2023-11-29T1600,1693A,115.3653,22.775,汕尾市,市环保局,颗粒物(PM10),54,58,60,30,31,137,,118,118,13,15,10,12,0.6,0.6
2023-11-29T1600,1694A,115.3706,22.7898,汕尾市,市政府,颗粒物(PM10),52,53,54,33,32,140,,121,121,9,10,11,11,0.6,0.5
2023-11-29T1600,1695A,115.3622,22.7925,汕尾市,新城中学,颗粒物(PM10),53,56,65,28,31,129,,116,116,11,11,11,11,0.7,0.6
2023-11-29T1600,2645A,109.9154,33.8715,商洛市,监测站,,41,41,69,14,33,84,,56,56,15,35,8,8,0.2,0.6
2023-11-29T1600,3045A,109.9643,33.8471,商洛市,商州区中学,颗粒物(PM10),62,73,77,13,34,80,,52,52,17,42,8,9,0.3,0.5
2023-11-29T1600,2408A,115.6702,34.4285,商丘市,环境监测站,,48,48,110,24,66,50,,40,40,19,35,5,6,0.3,0.5
2023-11-29T1600,2409A,115.6458,34.4045,商丘市,粮食局,,35,35,101,17,62,51,,37,37,16,34,5,8,0.2,0.5
