timepoint,stationcode,longitude,latitude,area,positionname,primarypollutant,aqi,pm10,pm10_24h,pm2_5,pm2_5_24h,o3,o3_24h,o3_8h,o3_8h_24h,no2,no2_24h,so2,so2_24h,co,co_24h
2023-11-29T1200,2568A,102.2502,31.8896,阿坝藏族羌族自治州,马师校,,,13,21,11,15,,,20,20,,26,,5,,0.6
2023-11-29T1200,3994A,102.2165,31.9024,阿坝藏族羌族自治州,马尔康中学西区,,20,20,21,7,12,42,,27,27,10,19,3,4,0.4,0.5
2023-11-29T1200,2695A,80.292,41.1694,阿克苏地区,电视台,颗粒物(PM10),109,167,177,55,67,41,,42,36,41,49,9,9,1.1,1.3
2023-11-29T1200,2696A,80.2613,41.1551,阿克苏地区,艺术中心,颗粒物(PM10),98,145,170,70,77,34,,34,34,43,61,9,8,1.3,1.6
2023-11-29T1200,2204A,105.6467,38.8363,阿拉善盟,西城区西花园,颗粒物(PM10),51,52,74,17,21,63,,61,57,9,8,9,8,0.5,0.6
2023-11-29T1200,2205A,105.6985,38.8411,阿拉善盟,蒙二幼,颗粒物(PM10),62,74,78,13,15,62,,60,52,11,10,8,5,0.6,0.5
2023-11-29T1200,2206A,105.724,38.8516,阿拉善盟,环保局新楼,颗粒物(PM10),54,58,71,17,17,60,,59,53,10,8,10,8,0.6,0.5
2023-11-29T1200,2708A,88.1264,47.8517,阿勒泰地区,市站,,15,11,8,6,5,47,,76,68,25,17,5,4,0.5,0.5
2023-11-29T1200,2630A,80.1161,32.5,阿里地区,阿里监测站,,23,11,9,6,5,72,,51,51,6,21,10,11,0.4,0.5
2023-11-29T1200,3192A,80.0903,32.5028,阿里地区,阿里藏医院,,23,23,12,11,4,54,,21,21,24,30,10,8,0.7,0.5
2023-11-29T1200,2642A,109.0318,32.6537,安康市,香溪洞,细颗粒物(PM2.5),54,55,49,38,44,12,,16,11,21,21,27,8,0.8,0.7
2023-11-29T1200,2643A,109.0281,32.6939,安康市,安康市监测站,,,86,83,68,65,5,,3,3,,27,32,11,1.7,1.3
2023-11-29T1200,2644A,109.0072,32.6975,安康市,汉滨区检察院,细颗粒物(PM2.5),80,78,80,59,61,6,,5,5,28,31,14,10,1.2,1.1
2023-11-29T1200,2291A,117.0809,30.5177,安庆市,环科院,颗粒物(PM10),76,102,107,52,58,79,,18,18,37,60,10,10,0.8,0.9
2023-11-29T1200,2292A,117.0331,30.5119,安庆市,马山宾馆,,,,110,,61,71,,19,19,43,57,9,9,0.8,0.8
2023-11-29T1200,2294A,116.9896,30.6145,安庆市,安庆大学,颗粒物(PM10),68,86,112,39,93,113,,28,28,17,46,10,8,0.6,0.9
2023-11-29T1200,3173A,117.0598,30.5351,安庆市,市人大,颗粒物(PM10),78,106,118,51,58,80,,18,18,43,67,7,7,0.7,0.7
2023-11-29T1200,3123A,105.9408,26.2431,安顺市,凤凰山,,44,44,31,29,21,81,,89,82,9,7,11,9,0.5,0.4
2023-11-29T1200,3124A,105.9439,26.2564,安顺市,金钟山,,50,50,34,30,20,79,,88,82,7,6,13,10,0.5,0.5
2023-11-29T1200,3125A,105.8983,26.2481,安顺市,娄家坡,细颗粒物(PM2.5),53,51,34,37,24,77,,86,80,10,7,10,8,0.6,0.5
2023-11-29T1200,1819A,114.3551,36.1017,安阳市,红庙街,,45,45,89,19,48,60,,39,39,10,36,5,8,0.6,0.8
2023-11-29T1200,1820A,114.361,36.0681,安阳市,银杏小区,,49,49,96,13,49,62,,40,40,12,36,5,8,0.5,0.8
2023-11-29T1200,3141A,114.3922,36.0878,安阳市,信访局,颗粒物(PM10),51,52,99,7,44,61,,36,36,8,38,6,8,0.5,0.8
2023-11-29T1200,3669A,114.4705,36.0637,安阳市,左辅环卫站,,40,40,102,10,52,61,,34,34,12,45,5,8,0.3,0.6
2023-11-29T1200,3703A,114.2917,36.0949,安阳市,安钢职工学校,颗粒物(PM10),61,72,107,18,46,59,,38,38,17,40,6,12,0.4,1.1
2023-11-29T1200,1748A,123.044,41.1196,鞍山市,深沟寺,,24,23,34,5,16,74,,57,57,5,29,8,13,0.5,1
2023-11-29T1200,1749A,123.011,41.0931,鞍山市,太阳城,,23,19,31,3,18,73,,57,57,9,28,16,18,1.0,1
2023-11-29T1200,1750A,123.0485,41.1442,鞍山市,太平,,17,16,38,8,21,54,,48,48,7,35,9,15,0.4,0.9
2023-11-29T1200,1751A,122.9642,41.0971,鞍山市,铁西三道街,,22,14,47,2,26,68,,41,41,9,41,10,13,0.5,0.9
2023-11-29T1200,1752A,122.9341,41.0833,鞍山市,铁西工业园区,,,8,47,3,28,72,,43,43,7,46,,13,0.6,1.3
2023-11-29T1200,1753A,123.022,41.0821,鞍山市,明达新区,,26,26,33,10,18,66,,50,50,10,33,12,15,1.0,1
2023-11-29T1200,2195A,107.4212,40.761,巴彦淖尔市,附二中,,48,48,58,14,20,61,,57,54,11,8,6,4,0.4,0.4
2023-11-29T1200,2196A,107.37,40.7372,巴彦淖尔市,市环保大楼,,35,35,64,17,17,63,,55,46,10,10,6,4,0.4,0.4
2023-11-29T1200,1956A,86.1472,41.7538,巴音郭楞州,孔雀公园,颗粒物(PM10),75,100,128,39,49,55,,62,58,28,32,6,7,0.6,0.7
2023-11-29T1200,1957A,86.1972,41.7166,巴音郭楞州,棉纺厂,颗粒物(PM10),82,113,156,32,53,61,,52,52,35,39,7,5,0.5,0.7
2023-11-29T1200,1958A,86.2357,41.7173,巴音郭楞州,经济开发区,颗粒物(PM10),65,79,126,42,45,74,,70,63,21,29,5,6,0.5,0.7
2023-11-29T1200,2914A,106.7677,31.8794,巴中市,苏山坪,,24,24,38,15,23,72,,77,77,9,13,4,4,0.3,0.4
2023-11-29T1200,3182A,106.7656,31.8545,巴中市,丽阳花园,,,89,72,52,55,24,,7,7,,32,6,4,1.7,1
2023-11-29T1200,3183A,106.7418,31.8654,巴中市,圣泉水务公司,颗粒物(PM10),52,54,43,35,28,17,,43,34,44,27,6,4,0.9,0.5
2023-11-29T1200,3616A,106.7616,31.8344,巴中市,市中心医院,细颗粒物(PM2.5),62,72,66,44,47,4,,3,3,25,25,5,5,0.9,0.9
2023-11-29T1200,2235A,122.7911,45.6077,白城市,洮北区环保局,,24,19,22,15,12,75,,84,77,7,9,4,5,0.5,0.5
2023-11-29T1200,2236A,122.8738,45.5725,白城市,市环保局,,30,30,27,9,13,73,,71,70,5,12,2,4,0.4,0.4
2023-11-29T1200,2231A,126.4219,41.9171,白山市,喜丰,,26,26,43,16,24,64,,34,34,10,29,15,13,0.7,0.8
2023-11-29T1200,2232A,126.4077,41.9419,白山市,环保局,,47,47,68,12,28,61,,27,27,2,30,11,15,0.8,1.1
2023-11-29T1200,2647A,104.1724,36.5446,白银市,第三小学,颗粒物(PM10),71,92,55,20,15,67,,66,58,38,24,142,35,0.9,0.6
2023-11-29T1200,2648A,104.1465,36.5482,白银市,动力公司,颗粒物(PM10),57,64,52,27,16,73,,80,73,20,17,57,18,0.5,0.3
2023-11-29T1200,2512A,106.6103,23.9011,百色市,市监测站,,,,75,,40,,,19,19,39,33,56,17,,0.8
2023-11-29T1200,2513A,106.6538,23.8859,百色市,市中心血站,细颗粒物(PM2.5),133,150,90,101,52,58,,17,17,42,37,70,20,1.5,1.1
2023-11-29T1200,3406A,106.6085,23.8798,百色市,祈福高中,细颗粒物(PM2.5),88,107,88,65,47,64,,21,21,32,34,54,14,1.2,0.8
2023-11-29T1200,2270A,117.396,32.939,蚌埠市,工人疗养院,颗粒物(PM10),66,81,115,43,60,55,,30,30,18,29,7,6,0.5,0.6
2023-11-29T1200,2271A,117.3605,32.9427,蚌埠市,百货大楼,,,90,117,36,58,52,,28,28,,32,5,5,,0.6
2023-11-29T1200,2273A,117.4185,32.8911,蚌埠市,蚌埠学院,颗粒物(PM10),68,85,114,39,59,58,,25,25,20,38,6,10,0.5,0.7
2023-11-29T1200,2274A,117.3533,32.9673,蚌埠市,淮上区政府,颗粒物(PM10),65,80,114,39,62,55,,29,29,20,32,6,7,0.5,0.7
2023-11-29T1200,2275A,117.3145,32.8977,蚌埠市,高新区,颗粒物(PM10),68,85,112,43,59,33,,22,22,56,42,8,8,0.6,0.7
2023-11-29T1200,3715A,117.3092,32.9314,蚌埠市,蚌埠田家炳中学,颗粒物(PM10),71,92,125,40,63,50,,20,20,28,37,5,5,0.4,0.5
2023-11-29T1200,1585A,109.8756,40.6532,包头市,市环境监测站,,26,26,29,10,8,70,,65,63,4,9,9,10,0.4,0.5
2023-11-29T1200,1587A,109.9991,40.5842,包头市,包头八中,,34,34,34,4,6,69,,64,56,9,14,8,10,0.3,0.3
2023-11-29T1200,1588A,109.8538,40.6821,包头市,青山宾馆,,42,42,33,5,5,71,,64,63,6,10,6,7,0.4,0.4
2023-11-29T1200,1589A,109.8642,40.6288,包头市,惠龙物流,,27,27,31,8,7,70,,65,65,8,10,6,7,0.4,0.4
2023-11-29T1200,1590A,110.0377,40.5546,包头市,东河鸿龙湾,,21,14,26,10,8,66,,62,56,9,12,12,14,0.7,0.7
2023-11-29T1200,3283A,109.9154,40.5685,包头市,滨河大厦,,30,30,28,8,8,62,,47,43,12,15,14,10,0.5,0.4
2023-11-29T1200,3419A,109.9447,40.6261,包头市,包头市委党校,颗粒物(PM10),94,138,41,2,7,69,,64,62,4,9,6,8,0.4,0.5
2023-11-29T1200,3683A,109.8331,40.6576,包头市,昆区政府,,22,16,30,4,6,70,,66,66,8,10,9,10,0.3,0.4
2023-11-29T1200,1930A,107.185,34.3063,宝鸡市,庙沟村,,44,44,71,22,26,51,,36,36,12,28,11,10,0.4,0.5
2023-11-29T1200,1931A,107.0708,34.3017,宝鸡市,竹园沟,,,53,72,11,30,69,,25,25,14,33,,5,,1.1
2023-11-29T1200,1932A,107.1906,34.3672,宝鸡市,三陆医院,,48,48,108,18,51,58,,17,17,18,50,9,14,0.4,0.9
2023-11-29T1200,1933A,107.1431,34.3547,宝鸡市,监测站,,45,45,82,18,37,63,,20,20,13,42,9,7,0.5,0.8
2023-11-29T1200,1934A,107.1186,34.3739,宝鸡市,技工学校,颗粒物(PM10),58,66,97,9,40,63,,18,18,16,41,10,11,0.4,0.7
2023-11-29T1200,1935A,107.3906,34.3528,宝鸡市,陈仓区环保局家属楼,,,128,120,57,55,,,14,14,,56,12,14,0.9,1.1
2023-11-29T1200,1936A,107.2058,34.3497,宝鸡市,文理学院,颗粒物(PM10),52,54,98,22,34,60,,17,17,22,48,9,8,0.7,0.9
2023-11-29T1200,1937A,107.2386,34.3622,宝鸡市,三迪小学,颗粒物(PM10),54,57,99,24,39,60,,17,17,20,49,10,10,0.5,0.8
2023-11-29T1200,1051A,115.493,38.8632,保定市,游泳馆,,32,32,52,8,19,60,,54,54,23,39,3,5,0.6,0.7
2023-11-29T1200,1052A,115.5213,38.8959,保定市,华电二区,,17,16,53,7,30,53,,41,41,12,35,7,8,0.1,0.2
2023-11-29T1200,1053A,115.4713,38.9108,保定市,接待中心,,48,48,54,12,24,55,,45,45,21,40,6,7,0.1,0.2
2023-11-29T1200,1054A,115.4612,38.8416,保定市,地表水厂,,,46,61,8,27,,,41,41,21,40,6,5,0,0
2023-11-29T1200,1056A,115.5086,38.8639,保定市,监测站,,23,23,55,8,27,57,,49,49,20,41,8,7,0.3,0.4
2023-11-29T1200,3581A,115.31981,38.95208,保定市,满城区生态环境分局,,45,45,66,14,27,56,,50,49,19,40,3,3,0.5,0.7
2023-11-29T1200,3582A,115.47694,38.76408,保定市,清苑区第二中学,,21,7,45,2,16,65,,49,49,11,42,4,5,0.2,0.3
2023-11-29T1200,3583A,115.62909,39.02311,保定市,徐水物探局,,31,31,77,2,21,64,,49,49,23,46,3,3,0.3,0.5
2023-11-29T1200,4004A,115.4202,38.8656,保定市,双鹰农机,,,,51,,28,,,51,50,16,29,6,5,,0.5
2023-11-29T1200,2594A,99.1678,25.1081,保山市,市环境监测站,,31,31,28,16,15,55,,29,26,14,11,4,3,0.5,0.5
2023-11-29T1200,2595A,99.1711,25.1328,保山市,市环保局,,47,47,31,22,18,53,,35,32,18,8,5,4,0.4,0.3
2023-11-29T1200,1867A,109.1436,21.4086,北海市,海滩公园,,,74,64,44,42,99,,111,95,,13,15,13,1.0,0.9
2023-11-29T1200,1868A,109.0981,21.4661,北海市,新市环保局,细颗粒物(PM2.5),62,62,61,44,45,117,,111,95,21,20,16,12,0.9,0.8
2023-11-29T1200,1869A,109.1778,21.5233,北海市,北海工业园,颗粒物(PM10),65,80,79,46,56,109,,90,90,16,16,17,16,0.8,0.8
2023-11-29T1200,3400A,109.1911,21.4415,北海市,龙潭自来水厂,颗粒物(PM10),58,66,65,38,46,96,,79,78,28,15,19,11,1.0,0.8
2023-11-29T1200,1001A,116.3621,39.8784,北京市,万寿西宫,,25,25,31,9,11,60,,54,54,3,18,3,3,0.2,0.3
2023-11-29T1200,1002A,116.2202,40.2915,北京市,定陵,,22,22,18,7,7,62,,56,56,1,8,1,2,0.2,0.2
2023-11-29T1200,1003A,116.4174,39.9289,北京市,东四,,32,32,33,9,11,67,,59,59,8,21,3,2,0.3,0.3
2023-11-29T1200,1004A,116.4072,39.8863,北京市,天坛,,33,33,29,8,10,70,,61,61,3,16,1,2,0.2,0.2
2023-11-29T1200,1005A,116.462,39.9365,北京市,农展馆,,28,28,30,7,10,63,,54,54,2,17,6,5,0.5,0.5
2023-11-29T1200,1006A,116.3392,39.9295,北京市,官园,,29,29,32,10,12,69,,61,61,4,18,5,4,0.3,0.3
2023-11-29T1200,1007A,116.2878,39.9611,北京市,海淀万柳,,22,22,29,5,8,57,,54,54,8,22,3,3,0.4,0.5
2023-11-29T1200,1008A,116.6636,40.135,北京市,顺义新城,,21,14,27,7,10,65,,60,58,2,18,1,2,0.1,0.2
2023-11-29T1200,1009A,116.6275,40.3275,北京市,怀柔镇,,22,8,18,3,8,68,,64,56,2,20,2,2,0.1,0.2
2023-11-29T1200,1011A,116.3966,39.9821,北京市,奥体中心,,32,32,32,8,11,63,,55,55,3,18,2,2,0.2,0.2
2023-11-29T1200,1012A,116.184,39.9136,北京市,古城,,23,23,29,7,10,66,,66,65,5,17,3,2,0.3,0.3
2023-11-29T1200,3281A,115.9718,40.4529,北京市,延庆夏都,,21,19,15,7,5,66,,62,62,1,10,3,2,0.1,0.1
2023-11-29T1200,3417A,117.0709,40.1465,北京市,平谷新城,,20,8,22,3,10,63,,56,56,1,17,1,2,0.2,0.2
2023-11-29T1200,3418A,116.8336,40.4095,北京市,密云新城,,16,9,25,4,8,51,,47,45,2,14,3,3,0.2,0.2
2023-11-29T1200,3672A,116.1541,39.8204,北京市,丰台云岗,,23,23,27,4,9,66,,64,63,2,9,2,2,0.2,0.2
2023-11-29T1200,3673A,116.6804,39.9081,北京市,通州东关,,29,29,33,7,12,62,,57,54,4,25,4,3,0.2,0.2
2023-11-29T1200,3674A,115.9577,39.7603,北京市,房山燕山,,22,12,19,4,7,70,,70,69,2,8,2,2,0.3,0.2
2023-11-29T1200,3675A,116.4672,39.7733,北京市,大兴旧宫,,23,23,29,5,11,64,,56,56,2,19,2,3,0.1,0.2
2023-11-29T1200,3694A,115.986,40.4563,北京市,延庆石河营,,22,19,22,7,7,68,,58,58,2,10,3,2,0.1,0.2
2023-11-29T1200,3695A,116.6151,40.3053,北京市,怀柔新城,,23,7,18,5,8,71,,69,65,2,14,2,2,0.1,0.2
2023-11-29T1200,3696A,116.2545,39.8768,北京市,丰台小屯,,20,16,26,5,9,62,,56,56,3,21,3,2,0.3,0.3
2023-11-29T1200,3697A,116.84,40.3844,北京市,密云镇,,21,9,22,3,8,67,,54,51,2,18,3,2,0.1,0.2
2023-11-29T1200,1761A,123.8275,41.3064,本溪市,大峪,,22,14,29,7,17,69,,49,49,10,32,8,10,0.6,1
2023-11-29T1200,1762A,123.7567,41.3325,本溪市,溪湖,,24,24,49,7,24,71,,55,55,10,31,10,12,0.4,0.8
2023-11-29T1200,1763A,123.7169,41.3094,本溪市,彩屯,,23,16,38,6,23,71,,57,57,15,41,9,11,0.5,0.9
2023-11-29T1200,1764A,123.7669,41.2864,本溪市,东明,,,,42,,27,,,56,56,12,40,11,15,,1.3
2023-11-29T1200,1765A,123.7992,41.2664,本溪市,新立屯,,,,25,15,18,71,,54,54,11,37,10,15,,1.4
2023-11-29T1200,1766A,123.8142,41.3472,本溪市,威宁,,22,17,50,8,24,68,,31,31,9,37,6,6,0.4,0.8
2023-11-29T1200,2587A,105.2864,27.3125,毕节市,八中,,30,11,42,7,32,94,,62,62,10,14,6,8,0.6,0.6
2023-11-29T1200,2588A,105.31,27.2944,毕节市,师专,,,10,40,8,31,,,72,72,9,12,6,7,0.7,0.7
2023-11-29T1200,3537A,105.3631,27.3533,毕节市,长征村,,32,29,67,22,50,99,,83,83,10,10,7,8,0.7,0.6
2023-11-29T1200,1629A,118.0018,37.3617,滨州市,第二水厂,,24,24,34,1,13,71,,44,44,6,24,6,11,0.4,0.6
2023-11-29T1200,1630A,117.9776,37.393,滨州市,北中新校,,22,19,37,0,13,70,,39,39,1,27,6,11,0.4,0.5
2023-11-29T1200,3514A,117.9378,37.3956,滨州市,中海酒店,,24,20,29,11,15,76,,41,41,8,29,9,13,0.3,0.7
2023-11-29T1200,3515A,117.9378,37.3553,滨州市,开发区一中,,22,20,37,2,14,68,,40,40,12,36,7,13,0.5,0.6
2023-11-29T1200,3516A,118.0917,37.694,滨州市,金海六路,,23,11,29,1,11,73,,53,53,4,24,5,11,0.4,0.5
2023-11-29T1200,4028A,117.9956,37.3753,滨州市,滨州市西街道办事处,,22,22,33,2,10,69,,41,41,11,31,9,15,0.2,0.1
2023-11-29T1200,2311A,115.8072,33.8399,亳州市,污水处理厂,颗粒物(PM10),85,120,126,37,65,34,,25,24,33,32,11,10,0.8,0.8
2023-11-29T1200,2312A,115.7789,33.8518,亳州市,三国揽胜宫,颗粒物(PM10),82,114,132,36,54,33,,26,24,35,35,13,11,0.9,0.9
2023-11-29T1200,3332A,115.7633,33.8034,亳州市,亳州学院,颗粒物(PM10),83,115,126,38,51,32,,30,27,35,31,10,9,0.7,0.7
2023-11-29T1200,2693A,82.0485,44.8556,博尔塔拉蒙古自治州,市党校,,36,36,56,18,29,20,,32,25,13,19,8,10,0.4,0.5
2023-11-29T1200,2694A,82.0806,44.8969,博尔塔拉蒙古自治州,市环保局,,38,38,55,25,27,19,,36,30,15,20,7,9,0.4,0.7
2023-11-29T1200,1071A,116.8842,38.2991,沧州市,沧县城建局,,33,33,49,7,24,65,,56,56,16,36,4,6,0.5,0.7
2023-11-29T1200,1072A,116.8584,38.3254,沧州市,电视转播站,,34,34,50,2,19,68,,58,58,9,34,2,5,0.5,0.8
2023-11-29T1200,1073A,116.8709,38.3228,沧州市,市环保局,,26,26,48,7,26,71,,61,61,10,32,2,4,0.5,0.7
2023-11-29T1200,3324A,116.8136,38.3004,沧州市,河北水利电力学院,,24,24,40,14,21,64,,57,57,12,33,7,9,0.1,0.3
2023-11-29T1200,2622A,97.1806,31.1273,昌都市,昌都监测站,颗粒物(PM10),52,54,64,24,36,37,,10,10,30,52,10,11,0.9,1.5
2023-11-29T1200,3719A,97.1714,31.1406,昌都市,昌都会议中心,,45,45,27,31,16,47,,32,32,35,29,6,5,0.7,0.5
2023-11-29T1200,2690A,88.1236,43.8886,昌吉州,天山天池,,20,1,3,0,3,62,,64,64,4,4,6,6,0.5,0.5
2023-11-29T1200,2692A,87.2717,44.0297,昌吉州,新区政务中心,细颗粒物(PM2.5),85,94,104,63,67,19,,17,17,28,32,4,4,1.1,1.1
2023-11-29T1200,3613A,87.3095,44.0142,昌吉州,亚心广场,细颗粒物(PM2.5),100,112,117,75,76,18,,16,15,23,26,4,3,1.2,1.2
2023-11-29T1200,1119A,125.3325,43.9166,长春市,食品厂,,,42,27,20,18,,,42,41,19,31,,12,0.6,0.4
2023-11-29T1200,1120A,125.2863,43.9027,长春市,客车厂,,26,26,22,11,19,63,,49,49,11,28,5,12,0.4,0.5
2023-11-29T1200,1121A,125.2841,43.8463,长春市,邮电学院,,25,25,31,13,24,66,,52,52,8,28,13,17,0.3,0.4
2023-11-29T1200,1122A,125.3716,43.8772,长春市,劳动公园,,28,28,22,12,14,67,,56,56,8,26,7,15,0.3,0.5
2023-11-29T1200,1123A,125.3297,43.8805,长春市,园林处,,20,18,24,13,18,63,,50,50,11,29,7,14,0.3,0.4
2023-11-29T1200,1124A,125.4605,43.79,长春市,净月潭,,24,24,20,10,13,63,,53,53,8,13,7,6,0.2,0.3
2023-11-29T1200,1126A,125.3863,43.8447,长春市,经开区环卫处,,26,26,22,12,15,63,,50,50,12,27,11,13,0.4,0.5
2023-11-29T1200,1127A,125.245,43.7783,长春市,高新区管委会,,24,24,24,16,21,65,,53,53,10,27,7,8,0.4,0.4
2023-11-29T1200,1128A,125.1761,43.8325,长春市,岱山公园,,29,29,25,11,19,61,,50,50,10,23,5,5,0.4,0.4
2023-11-29T1200,1335A,113.0833,28.2325,长沙市,经开区环保局,颗粒物(PM10),65,80,84,38,44,66,,35,35,28,38,10,9,0.5,0.6
2023-11-29T1200,1336A,112.8872,28.2189,长沙市,高开区环保局,颗粒物(PM10),71,92,84,44,49,61,,58,51,36,31,10,11,0.8,0.8
2023-11-29T1200,1337A,113.0792,28.2053,长沙市,马坡岭,细颗粒物(PM2.5),67,81,88,48,51,58,,30,30,45,44,12,11,0.7,0.5
2023-11-29T1200,1338A,112.9394,28.19,长沙市,湖南师范大学,细颗粒物(PM2.5),82,100,82,60,51,53,,44,44,45,36,10,9,1.0,0.9
2023-11-29T1200,1339A,113.0178,28.1322,长沙市,雨花区环保局,颗粒物(PM10),66,82,74,43,47,68,,63,60,39,31,8,8,0.8,0.7
2023-11-29T1200,1340A,112.9792,28.2597,长沙市,伍家岭,颗粒物(PM10),72,93,104,48,52,59,,16,16,38,55,10,7,0.5,0.8
2023-11-29T1200,1341A,113.0014,28.1944,长沙市,火车新站,颗粒物(PM10),74,98,86,51,53,57,,30,30,47,54,8,8,0.9,0.9
2023-11-29T1200,1342A,112.9844,28.1178,长沙市,天心区环保局,颗粒物(PM10),83,116,87,56,47,60,,62,51,57,38,11,12,0.6,0.5
2023-11-29T1200,1343A,112.8908,28.1308,长沙市,湖南中医药大学,"颗粒物(PM10),细颗粒物(PM2.5)",68,86,94,49,54,76,,21,21,26,53,11,6,0.9,1.1
2023-11-29T1200,1344A,112.9581,28.3611,长沙市,沙坪,细颗粒物(PM2.5),53,53,54,37,37,54,,45,42,19,25,11,7,0.6,0.6
2023-11-29T1200,1727A,113.1147,36.1547,长治市,清华站,颗粒物(PM10),66,82,94,14,41,53,,20,20,17,39,16,20,0.7,1
2023-11-29T1200,1728A,113.1031,36.1989,长治市,监测站,颗粒物(PM10),54,57,89,14,43,51,,18,18,19,40,15,21,0.6,0.9
2023-11-29T1200,1730A,113.0886,36.2125,长治市,审计局,颗粒物(PM10),53,56,82,12,42,53,,18,18,18,43,16,22,0.7,1
2023-11-29T1200,1731A,113.0844,36.1856,长治市,长治八中,颗粒物(PM10),60,70,100,12,37,52,,17,17,19,45,18,23,0.4,0.7
2023-11-29T1200,2845A,113.1569,36.1911,长治市,德盛苑,颗粒物(PM10),52,54,81,14,41,52,,20,20,16,31,17,25,0.7,1.1
2023-11-29T1200,3568A,113.06,36.0464,长治市,向阳小学,颗粒物(PM10),64,78,105,23,47,60,,26,26,22,42,19,25,0.5,0.8
2023-11-29T1200,3569A,112.8792,36.3144,长治市,屯留一中,,36,36,71,7,32,60,,37,37,19,36,13,18,0.6,0.8
2023-11-29T1200,3570A,113.235,36.3489,长治市,潞城四中,颗粒物(PM10),58,65,106,8,42,65,,25,25,16,43,12,20,0.4,1
2023-11-29T1200,1854A,111.6975,28.9703,常德市,市二中,细颗粒物(PM2.5),109,159,134,82,78,54,,24,24,24,36,10,8,0.9,0.9
2023-11-29T1200,1857A,111.7158,29.1456,常德市,白鹤山,细颗粒物(PM2.5),109,144,116,82,66,48,,45,39,18,15,8,7,0.9,0.9
2023-11-29T1200,3138A,111.7153,29.0289,常德市,武陵区永安,细颗粒物(PM2.5),118,131,108,89,78,49,,33,32,21,27,10,9,0.9,1
2023-11-29T1200,3139A,111.6892,28.9881,常德市,鼎城区玉霞,细颗粒物(PM2.5),134,142,136,102,97,54,,18,18,25,36,11,9,0.9,1
2023-11-29T1200,3140A,111.6625,29.0531,常德市,武陵区长庚,细颗粒物(PM2.5),103,135,124,77,79,44,,28,28,22,30,8,8,1.0,1
2023-11-29T1200,1196A,119.9633,31.762,常州市,市监测站,,,,136,,82,80,,36,34,44,55,13,10,0.8,0.9
2023-11-29T1200,1200A,119.9468,31.7069,常州市,武进监测站,细颗粒物(PM2.5),112,145,140,84,78,88,,47,46,37,44,15,12,1.1,1.1
2023-11-29T1200,1201A,119.9255,31.9087,常州市,安家,细颗粒物(PM2.5),132,158,130,100,79,86,,32,32,41,56,15,9,1.2,1
2023-11-29T1200,3002A,119.9805,31.8174,常州市,行政中心,,,,116,,70,81,,44,43,,57,16,14,,1.1
2023-11-29T1200,3003A,120.0522,31.7748,常州市,经开区,细颗粒物(PM2.5),105,152,142,79,75,85,,44,44,46,59,13,11,0.9,1.1
2023-11-29T1200,3010A,119.9025,31.7964,常州市,钟楼,,,,130,,80,82,,46,39,47,54,,10,,1
2023-11-29T1200,3429A,119.8598,31.7066,常州市,武进经发区,细颗粒物(PM2.5),107,154,153,80,80,96,,42,42,33,54,14,11,0.9,0.8
2023-11-29T1200,3430A,119.5826,31.7245,常州市,金坛城区,细颗粒物(PM2.5),108,136,143,81,86,89,,45,45,32,38,15,10,1.0,0.9
2023-11-29T1200,2220A,120.4318,41.5881,朝阳市,西梁,,37,37,31,6,14,75,,67,67,5,18,5,9,0.6,0.7
2023-11-29T1200,2221A,120.4521,41.5646,朝阳市,河畔小区,,44,44,27,6,12,71,,65,65,8,15,6,8,0.4,0.5
2023-11-29T1200,2222A,120.4176,41.5648,朝阳市,八里堡,颗粒物(PM10),51,52,32,8,13,72,,66,66,3,15,9,13,0.5,0.7
2023-11-29T1200,2223A,120.3806,41.5969,朝阳市,农业园区,,44,44,27,3,13,70,,65,65,4,19,7,10,0.5,0.6
2023-11-29T1200,1705A,116.6367,23.6719,潮州市,西园路,颗粒物(PM10),52,54,71,31,44,101,,72,72,14,17,6,6,0.5,0.6
2023-11-29T1200,1706A,116.6447,23.6706,潮州市,档案局,颗粒物(PM10),64,77,65,31,40,112,,72,72,14,19,5,5,0.5,0.6
2023-11-29T1200,3026A,116.6183,23.6608,潮州市,市政府,,,68,69,25,36,,,80,78,14,21,6,7,0.4,0.6
2023-11-29T1200,2472A,113.0073,25.9061,郴州市,马头岭,颗粒物(PM10),55,59,78,30,33,102,,39,39,22,35,18,20,1.0,1.4
2023-11-29T1200,2473A,113.0116,25.8226,郴州市,市职中,细颗粒物(PM2.5),74,79,66,54,46,103,,28,28,23,33,38,13,0.8,0.8
2023-11-29T1200,2474A,113.0161,25.8001,郴州市,兴隆步行街,,,,75,,50,99,,30,30,27,41,56,12,,0.8
2023-11-29T1200,2475A,113.0383,25.8071,郴州市,市审计局,细颗粒物(PM2.5),82,70,65,60,46,84,,23,23,33,38,52,19,0.7,0.7
2023-11-29T1200,2476A,113.0348,25.7759,郴州市,市环保局,细颗粒物(PM2.5),128,126,72,97,45,77,,36,30,35,37,58,26,0.6,0.7
2023-11-29T1200,1431A,103.9728,30.7236,成都市,金泉两河,"颗粒物(PM10),细颗粒物(PM2.5)",60,70,93,43,65,64,,15,15,19,36,6,3,0.4,0.5
2023-11-29T1200,1432A,104.176,30.6872,成都市,十里店,细颗粒物(PM2.5),77,84,102,56,72,26,,20,16,51,47,8,3,0.7,0.7
2023-11-29T1200,1433A,104.079,30.5706,成都市,三瓦窑,颗粒物(PM10),85,119,101,55,60,19,,7,7,63,48,5,3,1.0,0.7
2023-11-29T1200,1434A,104.1114,30.63,成都市,沙河铺,颗粒物(PM10),64,78,93,40,62,32,,9,9,45,42,8,4,0.7,0.8
2023-11-29T1200,1437A,104.0786,30.6531,成都市,君平街,颗粒物(PM10),65,79,96,40,61,55,,24,24,34,45,7,3,0.6,0.7
2023-11-29T1200,1438A,103.613,31.0283,成都市,灵岩寺,,23,,58,16,40,66,,57,51,15,19,13,23,0.7,0.7
2023-11-29T1200,2880A,104.0239,30.65639,成都市,大石西路,细颗粒物(PM2.5),68,70,101,49,65,61,,19,19,32,46,9,4,0.6,0.8
2023-11-29T1200,3136A,104.2725,30.5589,成都市,龙泉驿区区政府,细颗粒物(PM2.5),83,100,74,61,49,35,,28,19,46,30,5,2,0.8,0.7
2023-11-29T1200,3357A,104.0106,30.6931,成都市,金博路,颗粒物(PM10),61,72,96,35,68,42,,12,12,44,47,6,3,0.7,0.8
2023-11-29T1200,3359A,104.0578,30.5225,成都市,华阳,细颗粒物(PM2.5),94,119,100,70,67,20,,8,8,60,46,3,2,0.9,0.8
2023-11-29T1200,3487A,104.2394,30.5319,成都市,车城东七路,细颗粒物(PM2.5),110,111,89,83,62,18,,18,14,63,47,5,3,0.7,0.6
2023-11-29T1200,3488A,104.3853,30.7453,成都市,青白江技师分院,细颗粒物(PM2.5),90,88,75,67,57,6,,4,4,54,49,9,7,0.8,0.8
2023-11-29T1200,3489A,104.0789,30.4072,成都市,科学城,细颗粒物(PM2.5),112,114,93,84,69,17,,6,6,58,43,3,2,0.8,0.7
2023-11-29T1200,4011A,103.8506,30.6947,成都市,光华大道三段,,,52,87,20,61,73,,26,26,14,37,,4,0.4,0.8
2023-11-29T1200,1062A,117.9531,40.9081,承德市,铁路,,28,28,36,2,15,68,,52,47,6,27,6,9,0.2,0.4
2023-11-29T1200,1063A,117.9392,40.9763,承德市,中国银行,,41,41,37,2,11,68,,48,44,8,24,7,8,0.2,0.6
2023-11-29T1200,1064A,117.9503,40.928,承德市,开发区,,32,32,35,9,20,74,,54,47,5,23,7,8,0.2,0.4
2023-11-29T1200,1065A,117.8051,40.9655,承德市,文化中心,,31,31,49,3,16,71,,38,34,4,26,5,10,0.3,0.6
2023-11-29T1200,1066A,117.9268,41.0026,承德市,离宫,,23,23,23,7,20,72,,54,54,1,12,3,5,0.2,0.4
2023-11-29T1200,2314A,117.47,30.6618,池州市,池州学院,细颗粒物(PM2.5),79,103,87,58,43,84,,22,22,24,36,8,7,0.8,0.9
2023-11-29T1200,3237A,117.4918,30.6617,池州市,展览馆,颗粒物(PM10),97,144,74,60,35,89,,24,24,26,31,10,7,0.7,0.8
2023-11-29T1200,3333A,117.5627,30.695,池州市,第八中学,细颗粒物(PM2.5),93,117,93,69,45,71,,27,27,40,31,11,11,0.8,0.7
2023-11-29T1200,3334A,117.5038,30.6243,池州市,第十二中学,颗粒物(PM10),83,116,74,60,38,87,,22,22,27,37,9,5,0.7,1.2
2023-11-29T1200,1744A,118.9233,42.2816,赤峰市,松山一中,,41,41,20,7,8,79,,72,70,10,20,8,12,0.5,0.6
2023-11-29T1200,1745A,118.9576,42.2728,赤峰市,哈达街,颗粒物(PM10),55,60,24,10,12,76,,70,65,10,21,16,26,0.5,0.6
2023-11-29T1200,1746A,118.8788,42.2554,赤峰市,天义路,颗粒物(PM10),51,51,25,7,9,78,,73,72,9,16,8,11,0.5,0.6
2023-11-29T1200,3058A,119.2658,42.0353,赤峰市,银河街,,32,32,26,7,11,75,,73,73,9,14,13,16,0.5,0.5
2023-11-29T1200,3286A,118.9359,42.3147,赤峰市,桥北物流园区,,,,32,6,10,78,,65,61,15,25,10,13,,1
2023-11-29T1200,2521A,107.3476,22.4136,崇左市,市环保局江州分局,细颗粒物(PM2.5),55,58,68,39,40,121,,57,57,11,22,7,7,0.8,0.9
2023-11-29T1200,2522A,107.3702,22.3707,崇左市,城南新区,细颗粒物(PM2.5),62,52,56,44,41,135,,53,53,8,19,7,7,0.8,0.8
2023-11-29T1200,2298A,118.3093,32.3153,滁州市,老年大学,细颗粒物(PM2.5),120,138,123,91,76,79,,28,28,37,51,12,10,0.8,0.8
2023-11-29T1200,2299A,118.3244,32.2786,滁州市,人大宾馆,细颗粒物(PM2.5),122,153,130,92,80,83,,32,32,42,55,12,10,0.7,0.7
2023-11-29T1200,3207A,118.3118,32.3038,滁州市,市政府原办公楼,细颗粒物(PM2.5),110,138,121,83,71,79,,31,31,40,54,11,9,0.7,0.8
2023-11-29T1200,3331A,118.3267,32.2634,滁州市,图书馆,细颗粒物(PM2.5),130,146,124,99,73,84,,36,36,38,52,13,8,,0.9
2023-11-29T1200,2605A,101.5482,25.0441,楚雄州,州环境监测站,,41,41,33,25,27,68,,16,16,12,17,8,11,0.5,0.6
2023-11-29T1200,2606A,101.538,25.0492,楚雄州,市经济开发区,,44,44,34,28,25,64,,16,16,15,17,8,11,0.6,0.6
2023-11-29T1200,2548A,107.5277,31.2827,达州市,达州职业技术学院,细颗粒物(PM2.5),59,61,63,42,35,10,,9,9,27,23,11,16,0.6,0.4
2023-11-29T1200,2549A,107.5086,31.2186,达州市,市环境监测站,颗粒物(PM10),72,94,70,34,31,5,,3,3,45,36,18,19,1.2,0.7
2023-11-29T1200,2550A,107.4988,31.2132,达州市,凤凰小区,颗粒物(PM10),80,110,65,44,34,8,,6,6,46,36,20,21,1.2,0.6
2023-11-29T1200,2551A,107.5082,31.1986,达州市,达县机关宾馆,颗粒物(PM10),78,105,74,47,36,6,,4,4,51,38,25,19,1.0,0.7
2023-11-29T1200,2552A,107.4644,31.2124,达州市,市政中心,颗粒物(PM10),86,121,79,51,36,4,,3,3,50,40,33,17,1.9,0.8
2023-11-29T1200,2614A,100.1542,25.7054,大理州,大理市环境监测站,,39,27,26,27,17,71,,62,62,7,10,5,5,0.5,0.5
2023-11-29T1200,2615A,100.2171,25.5811,大理州,大理古城,,23,16,26,12,19,73,,50,47,9,16,6,7,0.4,0.5
2023-11-29T1200,1109A,121.612,38.9741,大连市,甘井子,,24,11,20,4,12,76,,63,63,11,29,7,11,0.5,0.6
2023-11-29T1200,1110A,121.565,38.9511,大连市,周水子,,23,17,22,6,13,73,,59,59,7,23,7,11,0.4,0.6
2023-11-29T1200,1111A,121.5637,38.8845,大连市,星海三站,,29,29,27,6,12,73,,57,57,9,23,8,7,0.4,0.5
2023-11-29T1200,1112A,121.6302,38.9117,大连市,青泥洼桥,,21,13,18,5,10,67,,55,55,11,20,9,12,0.4,0.5
2023-11-29T1200,1113A,121.6251,38.8638,大连市,傅家庄,,,11,16,4,8,73,,59,59,9,13,,11,0.4,0.5
2023-11-29T1200,1114A,121.5213,38.8661,大连市,七贤岭,,27,17,20,5,11,86,,70,70,10,21,11,10,0.6,0.6
2023-11-29T1200,1115A,121.2529,38.8061,大连市,旅顺,,25,17,18,4,10,79,,65,65,4,16,8,9,0.5,0.6
2023-11-29T1200,1116A,121.7485,39.1311,大连市,金州,,24,15,28,6,19,75,,62,62,5,19,6,9,0.5,0.6
2023-11-29T1200,1117A,121.7811,39.0496,大连市,开发区,,23,19,26,5,15,71,,61,61,10,28,6,9,0.3,0.4
2023-11-29T1200,1118A,121.9762,39.0631,大连市,双D港,,26,18,26,4,14,83,,68,68,6,17,7,10,0.3,0.5
2023-11-29T1200,1789A,124.81117,46.03138,大庆市,大同区,,27,27,33,11,25,57,,46,46,1,12,6,8,0.3,0.4
2023-11-29T1200,1790A,125.129,46.533,大庆市,龙凤区,,21,21,26,10,22,41,,33,33,15,24,12,8,0.5,0.5
2023-11-29T1200,1791A,124.902,46.408,大庆市,红岗区,,22,22,22,4,18,55,,49,49,3,11,6,6,0.3,0.4
2023-11-29T1200,1792A,125.153,46.586,大庆市,萨尔图区,,21,21,21,11,17,51,,45,44,10,21,5,6,0.4,0.5
2023-11-29T1200,1793A,124.9042,46.6215,大庆市,让胡路区,,18,18,28,12,17,57,,51,49,8,17,4,4,0.3,0.4
2023-11-29T1200,3481A,125.141,46.634,大庆市,萨区政府监测点,,40,40,20,20,18,52,,46,46,14,22,7,7,0.3,0.4
2023-11-29T1200,1721A,113.3819,40.1097,大同市,果树场,,31,31,45,2,27,64,,44,40,8,16,7,11,0.6,0.8
2023-11-29T1200,1723A,113.2994,40.0758,大同市,云冈宾馆,,23,23,37,7,14,72,,53,44,7,16,9,14,0.4,0.6
2023-11-29T1200,1724A,113.3444,40.0917,大同市,大同大学,,29,29,48,8,15,74,,55,46,9,22,7,12,0.3,0.5
2023-11-29T1200,1725A,113.2661,40.1269,大同市,安家小村,,25,22,46,8,14,77,,51,43,2,15,7,13,0.4,0.7
2023-11-29T1200,1726A,113.2711,40.0844,大同市,教育学院,,27,27,46,2,13,68,,48,41,12,22,5,12,0.3,0.5
2023-11-29T1200,3282A,113.3397,40.0597,大同市,大同市卫生学校,,20,19,32,10,14,62,,53,43,15,19,8,10,0.5,0.6
2023-11-29T1200,3565A,113.1367,40.1122,大同市,云冈站,,,18,34,6,11,74,,31,31,4,21,9,19,,0.6
2023-11-29T1200,3566A,113.1186,40.2556,大同市,图书馆,,,,35,,19,,,33,,7,17,6,15,0.6,0.9
2023-11-29T1200,3567A,113.5931,40.0461,大同市,区一中,,23,23,30,9,11,67,,50,50,11,15,11,12,0.4,0.4
2023-11-29T1200,3676A,113.2802,40.0995,大同市,第二人民医院,,31,31,45,2,16,70,,47,39,8,21,7,13,0.4,0.6
2023-11-29T1200,2269A,124.1069,50.4097,大兴安岭地区,科技局,,22,9,16,6,15,68,,55,55,3,5,2,2,0.3,0.3
2023-11-29T1200,3663A,124.1164,50.4278,大兴安岭地区,红旗社区,,,,17,,11,69,,38,38,4,20,4,4,,0.6
2023-11-29T1200,1600A,124.3303,40.0625,丹东市,江湾东路,,22,14,43,8,34,68,,40,40,9,42,7,14,0.4,1.4
2023-11-29T1200,1601A,124.4256,40.1503,丹东市,临江后街,,22,15,33,8,22,69,,38,38,6,27,2,7,0.5,0.9
2023-11-29T1200,1602A,124.3933,40.1461,丹东市,元宝山,,21,16,26,3,18,67,,39,39,7,22,9,11,0.5,0.8
2023-11-29T1200,1603A,124.3633,40.1092,丹东市,民主桥,,21,20,34,9,21,65,,39,39,8,33,8,11,0.3,0.8
2023-11-29T1200,3541A,109.5726,19.5167,儋州市,第一中学子站,,35,35,57,19,35,81,,100,86,6,8,3,5,0.7,0.7
2023-11-29T1200,3542A,109.5567,19.5187,儋州市,东坡学校子站,,27,22,54,14,33,84,,104,90,7,8,3,3,0.6,0.7
2023-11-29T1200,2616A,98.5842,24.428,德宏州,德宏州监测站,细颗粒物(PM2.5),72,58,44,52,28,20,,9,7,27,21,50,17,0.6,0.5
2023-11-29T1200,3677A,98.5881,24.4368,德宏州,芒市人民政府综合楼,细颗粒物(PM2.5),55,50,41,39,25,29,,16,10,27,17,15,14,0.5,0.4
2023-11-29T1200,1901A,104.4239,31.1208,德阳市,东山公园,细颗粒物(PM2.5),93,114,103,69,63,10,,30,24,37,34,4,6,0.8,0.7
2023-11-29T1200,1902A,104.3826,31.1317,德阳市,西小区,细颗粒物(PM2.5),113,119,103,85,78,12,,9,6,53,43,16,5,1.0,0.8
2023-11-29T1200,1904A,104.3553,31.1091,德阳市,耐火材料厂,,,,120,,82,7,,11,3,54,37,8,5,1.0,0.7
2023-11-29T1200,3639A,104.4019,31.1244,德阳市,市教育局,细颗粒物(PM2.5),99,114,90,74,67,6,,3,3,58,46,14,4,1.1,0.8
2023-11-29T1200,1622A,116.3032,37.4674,德州市,儿童乐园,,29,29,56,2,18,68,,54,54,5,28,8,13,0.4,0.6
2023-11-29T1200,1624A,116.2991,37.4451,德州市,监理站,,23,23,45,0,12,73,,56,56,4,27,4,11,0.4,0.5
2023-11-29T1200,3066A,116.2721,37.4379,德州市,九衢泉纯净水厂,,30,30,53,7,17,70,,54,54,13,34,5,10,0.3,0.5
2023-11-29T1200,3371A,116.3728,37.4403,德州市,开发区人民医院,,29,29,54,5,17,73,,50,50,2,29,5,11,0.4,0.6
2023-11-29T1200,3372A,116.3572,37.4094,德州市,太阳城中学,,,33,53,6,20,65,,43,43,7,33,4,10,,0.6
2023-11-29T1200,3511A,116.5652,37.3319,德州市,陵城艺术中心,,34,34,57,0,21,73,,56,56,15,29,3,8,0.4,0.6
2023-11-29T1200,2621A,99.7056,27.8317,迪庆州,迪庆州站,细颗粒物(PM2.5),54,46,27,38,18,87,,52,52,25,18,10,9,0.8,0.6
2023-11-29T1200,3180A,99.7136,27.8094,迪庆州,质量技术监督局,,,57,29,7,18,82,,48,48,,15,7,6,0.7,0.6
2023-11-29T1200,2663A,104.6241,35.5734,定西市,东关小学,,43,43,56,15,25,74,,55,39,4,15,7,13,0.3,0.5
2023-11-29T1200,2664A,104.6194,35.5934,定西市,供电公司,,37,37,51,20,27,69,,39,24,12,25,9,10,0.6,0.7
2023-11-29T1200,1389A,113.7547,23.0494,东莞市,莞城梨川,颗粒物(PM10),60,70,78,38,44,98,,67,67,36,51,10,9,0.8,0.9
2023-11-29T1200,1390A,113.7944,23.0128,东莞市,东城石井,颗粒物(PM10),59,67,64,39,38,104,,55,55,27,30,11,9,0.8,0.8
2023-11-29T1200,1391A,113.7383,22.9658,东莞市,南城西平,颗粒物(PM10),61,71,72,39,40,97,,45,45,38,58,6,5,0.6,0.7
2023-11-29T1200,3319A,113.7338,23.0381,东莞市,万江金泰,细颗粒物(PM2.5),67,82,81,48,44,90,,62,62,34,52,10,9,1.0,1
2023-11-29T1200,3626A,113.7533,23.0202,东莞市,南城元岭,颗粒物(PM10),66,82,85,45,45,102,,68,68,33,55,5,4,0.8,0.9
2023-11-29T1200,3627A,113.7875,23.0457,东莞市,东城主山,颗粒物(PM10),57,64,76,35,43,108,,63,63,25,51,9,9,0.7,0.8
2023-11-29T1200,1666A,118.6614,37.4309,东营市,市环保局,,25,17,17,0,5,79,,54,54,7,16,7,7,0.6,0.6
2023-11-29T1200,3036A,118.6904,37.4338,东营市,开发区管委会,,27,27,21,2,7,82,,55,55,7,17,4,4,0.6,0.6
2023-11-29T1200,3365A,118.5719,37.565,东营市,垦利区民丰路,,24,17,20,0,6,76,,52,52,7,21,13,14,0.5,0.5
2023-11-29T1200,3498A,118.5055,37.8612,东营市,河口城区,,24,14,21,5,7,75,,57,57,9,18,10,10,0.7,0.7
2023-11-29T1200,3646A,118.4978,37.4623,东营市,胜利站,,26,26,29,0,8,80,,53,53,12,26,8,8,0.4,0.5
2023-11-29T1200,3734A,118.35,37.26,东营市,理想之城,,24,14,23,0,8,74,,51,51,6,18,5,4,0.4,0.4
2023-11-29T1200,1591A,110.0023,39.8129,鄂尔多斯市,综合楼,,24,24,42,5,7,67,,52,52,12,23,6,8,0.4,0.4
2023-11-29T1200,1592A,109.9486,39.8261,鄂尔多斯市,巴音孟克林场办事处,,20,14,38,7,10,63,,48,48,6,20,7,10,0.4,0.5
2023-11-29T1200,1593A,109.7736,39.5986,鄂尔多斯市,康泽苑,,22,9,27,4,6,68,,55,54,9,12,5,6,0.4,0.4
2023-11-29T1200,1594A,109.8119,39.5989,鄂尔多斯市,华泰汽车城,,23,19,32,7,6,73,,56,56,6,13,6,9,0.4,0.5
2023-11-29T1200,1595A,109.9734,39.7884,鄂尔多斯市,奥林花园,,24,24,38,5,8,66,,52,52,7,18,6,8,0.6,0.6
2023-11-29T1200,2436A,114.8938,30.3994,鄂州市,市政府,,,,82,,47,80,,54,46,,30,6,12,0.8,1
2023-11-29T1200,2437A,114.8989,30.3714,鄂州市,赵家坝,颗粒物(PM10),61,71,87,41,47,79,,51,47,30,42,6,12,0.9,1.1
2023-11-29T1200,3654A,114.8094,30.4089,鄂州市,精准医疗中心,颗粒物(PM10),77,104,113,49,52,91,,52,52,20,37,9,27,0.7,1.6
2023-11-29T1200,2499A,108.3411,21.6158,防城港市,沙万,细颗粒物(PM2.5),65,72,78,47,52,117,,75,73,26,27,13,19,0.7,0.6
2023-11-29T1200,2500A,108.3514,21.7731,防城港市,防城档案局,,,94,117,43,58,131,,52,52,16,32,10,5,,0.8
2023-11-29T1200,2501A,108.3506,21.6414,防城港市,大海花园,细颗粒物(PM2.5),85,91,78,63,49,114,,67,67,27,26,23,20,1.0,0.9
2023-11-29T1200,1371A,113.1294,23.0067,佛山市,湾梁,颗粒物(PM10),63,75,94,34,45,59,,34,34,54,67,10,13,0.6,0.7
2023-11-29T1200,1372A,113.1083,23.0478,佛山市,华材职中,颗粒物(PM10),62,73,97,41,56,54,,29,29,61,84,7,10,0.6,0.8
2023-11-29T1200,1373A,113.144,23.0453,佛山市,南海气象局,颗粒物(PM10),62,74,90,38,50,55,,27,27,57,82,5,9,0.6,0.7
2023-11-29T1200,1374A,113.2881,22.8094,佛山市,顺德苏岗,颗粒物(PM10),57,64,70,31,44,66,,44,44,46,48,11,9,0.7,0.7
2023-11-29T1200,1376A,112.8383,22.8678,佛山市,高明孔堂,,,133,90,71,53,28,,60,39,97,48,,10,,0.8
2023-11-29T1200,1377A,112.8836,23.1588,佛山市,三水监测站,细颗粒物(PM2.5),95,124,118,71,64,20,,10,10,74,85,14,11,1.0,1
2023-11-29T1200,1378A,112.867,23.185,佛山市,三水云东海,细颗粒物(PM2.5),94,97,94,70,63,25,,9,9,70,67,18,10,0.9,0.9
2023-11-29T1200,1282A,119.2681,26.0504,福州市,师大,颗粒物(PM10),59,67,65,18,26,95,,78,78,17,15,7,7,0.5,0.5
2023-11-29T1200,1283A,119.2984,26.1028,福州市,五四北路,颗粒物(PM10),54,58,61,19,23,102,,86,81,14,16,4,4,0.5,0.6
2023-11-29T1200,1284A,119.2648,26.0768,福州市,杨桥西路,颗粒物(PM10),54,58,68,17,24,100,,79,76,12,15,4,5,0.6,0.6
2023-11-29T1200,1285A,119.317,26.0746,福州市,紫阳,颗粒物(PM10),57,64,65,20,22,96,,82,77,15,15,7,7,0.4,0.5
2023-11-29T1200,3048A,119.5799,26.0936,福州市,九龙,颗粒物(PM10),58,66,55,32,20,112,,99,96,8,11,4,5,0.4,0.5
2023-11-29T1200,3526A,119.5189,25.9664,福州市,吴航,颗粒物(PM10),59,68,54,28,23,85,,87,67,27,17,8,6,0.7,0.7
2023-11-29T1200,1755A,123.7977,41.8491,抚顺市,望花区,,24,24,51,6,32,71,,51,51,5,34,2,12,0.3,0.7
2023-11-29T1200,1756A,123.9161,41.8822,抚顺市,顺城区,,24,24,64,5,38,68,,43,43,7,38,4,8,0.6,1.1
2023-11-29T1200,1757A,124.0436,41.8611,抚顺市,东洲区,,23,17,44,9,28,71,,41,41,6,27,10,12,0.3,0.7
2023-11-29T1200,1758A,123.9247,41.8642,抚顺市,新抚区,,22,18,45,4,32,68,,48,48,5,28,6,9,0.3,0.7
2023-11-29T1200,1759A,124.0972,41.8961,抚顺市,大伙房水库,,28,28,50,5,32,77,,44,44,2,31,7,16,0.5,0.9
2023-11-29T1200,1760A,123.7086,41.8391,抚顺市,沈抚新城,,,25,46,4,25,73,,58,58,1,32,5,10,,0.6
2023-11-29T1200,2376A,116.2127,28.0814,抚州市,桐源党溪,细颗粒物(PM2.5),54,56,61,38,38,59,,20,20,20,16,10,6,1.1,1.1
2023-11-29T1200,2377A,116.3544,27.9831,抚州市,市站,颗粒物(PM10),56,62,78,33,44,57,,24,24,28,37,8,5,1.0,1.1
2023-11-29T1200,2378A,116.3565,27.963,抚州市,血防站,颗粒物(PM10),51,52,76,32,45,70,,26,26,22,34,2,2,0.8,0.9
2023-11-29T1200,2379A,116.3564,28.0007,抚州市,采茶剧团,颗粒物(PM10),53,55,74,31,44,57,,26,26,28,32,8,8,1.1,1.1
2023-11-29T1200,2380A,116.385,27.9647,抚州市,医学分院,颗粒物(PM10),59,67,82,30,39,81,,34,34,20,37,10,9,0.9,1
2023-11-29T1200,2207A,121.6094,41.998,阜新市,工业园区,,29,29,55,11,30,72,,63,63,7,25,5,12,0.4,0.6
2023-11-29T1200,2208A,121.6697,42.0279,阜新市,长青街,,,,30,,22,67,,,,,20,6,8,0.3,0.6
2023-11-29T1200,2209A,121.6673,42.0705,阜新市,农业园区,,22,14,16,7,7,70,,65,65,5,10,6,8,0.5,0.5
2023-11-29T1200,2210A,121.6717,42.0224,阜新市,东苑,,31,31,24,4,14,69,,63,63,6,14,6,8,0.4,0.5
2023-11-29T1200,2211A,121.6506,42.0498,阜新市,玉龙新城,,24,23,25,1,12,74,,68,68,8,20,2,5,0.5,0.7
2023-11-29T1200,2301A,115.8277,32.8929,阜阳市,市监测站,细颗粒物(PM2.5),88,109,123,65,75,42,,19,17,33,38,13,9,0.7,0.7
2023-11-29T1200,2303A,115.8554,32.8605,阜阳市,开发区,颗粒物(PM10),98,146,151,66,63,44,,22,20,35,42,15,11,0.9,0.8
2023-11-29T1200,2875A,115.784,32.8892,阜阳市,阜阳职业技术学院,颗粒物(PM10),104,157,127,69,70,47,,26,20,29,35,11,8,0.7,0.7
2023-11-29T1200,3468A,115.7901,32.8613,阜阳市,市规划展馆,颗粒物(PM10),85,120,129,62,69,46,,32,23,33,38,9,7,0.9,0.8
2023-11-29T1200,3469A,115.836,32.9183,阜阳市,枣园社区,颗粒物(PM10),88,125,126,62,67,44,,19,18,33,40,11,9,0.6,0.7
2023-11-29T1200,2669A,102.9099,34.9841,甘南州,州政府,细颗粒物(PM2.5),60,66,58,43,35,54,,27,22,29,28,22,18,0.6,0.5
2023-11-29T1200,3380A,102.8914,34.9617,甘南州,甘肃民族师范学院,细颗粒物(PM2.5),74,92,52,54,26,57,,24,18,38,37,21,15,0.7,0.5
2023-11-29T1200,2570A,101.9603,30.0475,甘孜藏族自治州,水桥子,,35,35,28,15,14,64,,17,17,9,34,9,9,0.3,0.4
2023-11-29T1200,3065A,101.9533,29.9972,甘孜藏族自治州,州环保局,,23,23,30,8,6,62,,32,32,13,24,8,8,0.3,0.3
2023-11-29T1200,3414A,115.8347,28.932,赣江新区,桑海产业园,颗粒物(PM10),69,88,82,46,40,75,,20,20,32,50,8,6,0.8,0.8
2023-11-29T1200,2363A,114.9367,25.8664,赣州市,地委,颗粒物(PM10),77,103,76,40,37,103,,30,30,43,37,22,16,1.2,1.1
2023-11-29T1200,2364A,114.9461,25.8481,赣州市,气象台,颗粒物(PM10),71,92,63,46,36,112,,26,26,50,47,22,16,1.0,1
2023-11-29T1200,2365A,114.9322,25.8333,赣州市,市图书馆,,,,77,59,36,,,16,16,45,48,,15,1.3,1.2
2023-11-29T1200,2366A,114.8905,25.8471,赣州市,华坚鞋城,细颗粒物(PM2.5),79,90,96,58,45,94,,24,24,42,52,28,24,1.2,1.4
2023-11-29T1200,3109A,115.0093,25.8613,赣州市,赣县区卫计委,颗粒物(PM10),73,95,64,48,37,63,,23,23,50,36,11,10,1.0,0.9
2023-11-29T1200,2683A,106.2319,36.1417,固原市,马园,,46,46,76,10,25,57,,34,34,16,28,6,8,0.5,0.6
2023-11-29T1200,2684A,106.2792,36.0022,固原市,监测站,,45,45,62,15,18,56,,42,42,20,22,6,7,0.4,0.5
2023-11-29T1200,2685A,106.2375,36.0211,固原市,新区,,49,49,57,11,19,52,,37,37,14,19,5,6,0.4,0.5
2023-11-29T1200,3522A,106.2177,35.9959,固原市,原州区十五小,颗粒物(PM10),51,51,60,15,23,55,,36,36,15,23,4,6,0.3,0.3
2023-11-29T1200,2544A,106.6303,30.4576,广安市,市委,细颗粒物(PM2.5),90,97,77,67,51,18,,19,13,25,23,12,11,0.8,0.7
2023-11-29T1200,2545A,106.6271,30.4663,广安市,友谊中学,细颗粒物(PM2.5),88,94,79,65,52,16,,18,12,23,24,10,9,0.8,0.8
2023-11-29T1200,2547A,106.6388,30.4551,广安市,广电花园,细颗粒物(PM2.5),93,84,73,69,52,18,,18,13,22,23,11,10,0.7,0.6
2023-11-29T1200,2902A,106.6351,30.4865,广安市,北辰小学,细颗粒物(PM2.5),82,96,75,60,48,10,,17,10,28,22,13,11,0.7,0.6
2023-11-29T1200,2523A,105.8945,32.4535,广元市,黑石坡,,38,38,24,19,17,80,,77,77,10,18,7,9,0.3,0.5
2023-11-29T1200,2524A,105.821,32.4444,广元市,老城,,44,44,59,13,29,57,,50,47,21,34,1,3,0.5,0.8
2023-11-29T1200,2526A,105.8628,32.4287,广元市,监测站,,38,38,49,11,28,56,,36,36,25,32,7,6,0.7,1.2
2023-11-29T1200,3617A,105.8047,32.4166,广元市,经开区,,50,50,65,32,45,46,,46,43,31,37,3,5,0.5,0.8
2023-11-29T1200,1345A,113.2347,23.1423,广州市,广雅中学,颗粒物(PM10),52,53,88,30,50,72,,36,36,37,83,5,7,0.9,1.1
2023-11-29T1200,1346A,113.2612,23.105,广州市,市五中,颗粒物(PM10),53,55,92,34,54,67,,39,39,39,80,7,9,0.8,1
2023-11-29T1200,1348A,113.3478,23.0916,广州市,广东商学院,颗粒物(PM10),53,56,97,32,54,60,,27,27,43,86,5,8,0.6,0.9
2023-11-29T1200,1349A,113.4332,23.1047,广州市,市八十六中,颗粒物(PM10),57,64,99,37,52,51,,22,22,42,82,4,8,0.6,0.8
2023-11-29T1200,1350A,113.3505,22.9483,广州市,番禺中学,细颗粒物(PM2.5),60,57,77,43,49,57,,52,52,62,55,10,7,1.0,1
2023-11-29T1200,1351A,113.2146,23.3916,广州市,花都师范,,,,87,,48,57,,17,17,,70,7,7,0.7,0.7
2023-11-29T1200,1352A,113.2597,23.1331,广州市,市监测站,,50,50,94,23,51,69,,32,32,32,88,4,6,0.8,1.1
2023-11-29T1200,1353A,113.5618,23.312,广州市,九龙镇镇龙,颗粒物(PM10),56,61,96,38,45,59,,24,24,30,49,6,6,0.7,0.7
2023-11-29T1200,1354A,113.2765,23.1544,广州市,麓湖,,,43,75,26,48,72,,17,17,,81,4,6,,0.9
2023-11-29T1200,1355A,113.443,23.3035,广州市,帽峰山森林公园,颗粒物(PM10),57,63,53,38,33,68,,70,50,30,19,7,8,0.5,0.5
2023-11-29T1200,2846A,113.3221,23.1322,广州市,体育西,,,53,88,33,53,,,17,17,29,70,6,8,0.6,0.9
2023-11-29T1200,3298A,113.5717,23.5491,广州市,从化街口,"颗粒物(PM10),细颗粒物(PM2.5)",57,63,64,40,45,86,,24,24,20,42,5,5,0.6,0.7
2023-11-29T1200,3299A,113.3472,23.3692,广州市,白云竹料,细颗粒物(PM2.5),67,80,90,48,52,61,,29,29,39,59,6,6,0.3,0.6
2023-11-29T1200,3300A,113.2981,23.237,广州市,白云嘉禾,颗粒物(PM10),65,79,101,42,51,62,,26,26,56,82,7,8,0.7,0.9
2023-11-29T1200,3301A,113.4256,23.1716,广州市,黄埔科学城,,,64,70,45,45,53,,31,31,40,62,6,5,,0.8
2023-11-29T1200,3302A,113.3942,23.0483,广州市,番禺大学城,颗粒物(PM10),64,78,101,32,51,62,,36,36,46,74,7,11,0.6,0.7
2023-11-29T1200,3303A,113.4922,22.8168,广州市,南沙黄阁,细颗粒物(PM2.5),72,86,91,52,49,67,,51,51,64,63,9,7,0.8,0.8
2023-11-29T1200,3304A,113.5342,22.7896,广州市,南沙街,颗粒物(PM10),58,66,72,36,42,74,,52,52,50,42,8,8,0.7,0.8
2023-11-29T1200,3443A,113.2902,23.5544,广州市,花都梯面,细颗粒物(PM2.5),60,64,52,43,36,49,,23,23,33,45,11,7,0.7,0.6
2023-11-29T1200,3445A,113.7858,23.7478,广州市,从化良口,,39,38,34,27,26,70,,25,25,14,23,3,3,0.6,0.6
2023-11-29T1200,3446A,113.8051,23.2614,广州市,增城荔城,"颗粒物(PM10),细颗粒物(PM2.5)",53,55,61,37,38,65,,45,42,19,24,12,8,0.6,0.6
2023-11-29T1200,2505A,109.568,23.1478,贵港市,德智高中,颗粒物(PM10),67,84,65,24,36,97,,46,43,34,32,15,11,0.8,0.8
2023-11-29T1200,2506A,109.6047,23.0666,贵港市,江南子站,颗粒物(PM10),79,107,102,56,52,97,,38,38,24,34,17,14,0.8,0.9
2023-11-29T1200,2507A,109.6014,23.0948,贵港市,贵城子站,细颗粒物(PM2.5),73,74,65,53,51,95,,44,44,23,29,20,16,0.8,0.8
2023-11-29T1200,2508A,109.5669,23.1065,贵港市,荷城子站,颗粒物(PM10),71,92,83,51,46,91,,47,47,25,28,21,15,0.8,0.7
2023-11-29T1200,3405A,109.5886,23.1172,贵港市,新世纪学校,颗粒物(PM10),74,97,80,49,46,96,,43,43,25,32,21,14,0.8,0.8
2023-11-29T1200,1439A,106.6899,26.5998,贵阳市,马鞍山,,,48,37,22,17,,,87,71,25,11,8,6,0.8,0.6
2023-11-29T1200,1440A,106.6971,26.5694,贵阳市,市环保站,细颗粒物(PM2.5),58,51,46,41,23,70,,81,70,30,20,9,7,0.4,0.2
2023-11-29T1200,1441A,106.6243,26.6266,贵阳市,鉴湖路,,48,48,46,22,14,76,,86,79,17,10,9,6,0.7,0.4
2023-11-29T1200,1442A,106.7487,26.6343,贵阳市,燕子冲,,,39,41,27,20,,,72,67,22,14,11,9,0.7,0.4
2023-11-29T1200,1443A,106.6555,26.4365,贵阳市,碧云窝,,,,45,,13,84,,81,76,17,9,13,8,,0.4
2023-11-29T1200,1444A,106.694,26.5161,贵阳市,中院村,颗粒物(PM10),53,56,44,34,22,68,,68,60,21,19,10,9,0.5,0.3
2023-11-29T1200,1445A,106.7109,26.6027,贵阳市,红边门,颗粒物(PM10),54,58,50,29,21,57,,71,64,38,25,9,6,0.5,0.3
2023-11-29T1200,1446A,106.7164,26.5699,贵阳市,新华路,颗粒物(PM10),53,56,47,31,21,77,,76,71,25,19,11,8,0.5,0.4
2023-11-29T1200,1447A,106.674,26.5424,贵阳市,太慈桥,,46,46,41,22,18,69,,66,57,25,16,6,6,0.5,0.3
2023-11-29T1200,1862A,110.4144,25.3167,桂林市,电子科大尧山校区,颗粒物(PM10),57,63,54,37,31,102,,44,44,8,10,20,10,0.5,0.4
2023-11-29T1200,1863A,110.2819,25.2697,桂林市,监测站,细颗粒物(PM2.5),69,84,79,50,44,90,,28,28,23,35,20,15,0.9,0.9
2023-11-29T1200,1864A,110.3089,25.2708,桂林市,龙隐路小学,细颗粒物(PM2.5),80,80,66,59,48,75,,34,34,37,34,29,18,1.1,0.8
2023-11-29T1200,1865A,110.2869,25.2178,桂林市,八中,颗粒物(PM10),69,88,75,49,50,84,,26,26,23,34,18,10,0.4,0.6
2023-11-29T1200,3403A,110.1764,25.2381,桂林市,创业大厦,细颗粒物(PM2.5),73,78,74,53,49,79,,23,23,23,40,22,17,0.6,0.6
2023-11-29T1200,3531A,110.296,25.1253,桂林市,旅游学院,细颗粒物(PM2.5),55,53,60,39,44,84,,23,23,16,26,15,9,0.6,0.7
2023-11-29T1200,2674A,100.2561,34.4714,果洛藏族自治州,玛沁县大武镇,,30,30,25,15,14,55,,46,37,17,12,25,16,0.7,0.4
2023-11-29T1200,1129A,126.5422,45.755,哈尔滨市,岭北,,32,25,36,22,32,68,,51,51,7,18,13,11,0.3,0.4
2023-11-29T1200,1130A,126.561,45.8167,哈尔滨市,松北商大,,30,30,39,20,32,58,,39,39,17,27,10,8,0.4,0.5
2023-11-29T1200,1131A,126.979,45.5419,哈尔滨市,阿城会宁,,28,19,62,19,57,61,,45,45,12,23,8,7,0.5,0.7
2023-11-29T1200,1132A,126.599,45.7222,哈尔滨市,南岗学府路,,31,31,58,10,29,63,,47,47,14,36,7,12,0.4,0.6
2023-11-29T1200,1133A,126.689,45.7733,哈尔滨市,太平宏伟公园,,26,24,41,18,29,60,,46,46,15,35,8,12,0.5,0.6
2023-11-29T1200,1134A,126.635,45.7667,哈尔滨市,道外承德广场,,22,20,45,15,30,62,,48,48,12,34,4,6,0.5,0.7
2023-11-29T1200,1135A,126.685,45.7319,哈尔滨市,香坊红旗大街,,,29,45,15,37,,,46,46,17,41,12,15,0.5,0.7
2023-11-29T1200,1136A,126.6411,45.7258,哈尔滨市,动力和平路,,30,23,49,21,38,56,,39,39,16,40,10,11,0.4,0.6
2023-11-29T1200,1137A,126.593,45.7478,哈尔滨市,道里建国路,,,,42,,37,62,,46,46,,39,8,7,0.5,0.4
2023-11-29T1200,1138A,126.615,45.61,哈尔滨市,平房东轻厂,,33,33,49,18,41,60,,43,43,14,33,6,7,0.6,0.8
2023-11-29T1200,1139A,126.595,45.9855,哈尔滨市,呼兰师专,,,40,46,20,34,68,,52,52,,19,,2,0.8,0.9
2023-11-29T1200,1140A,126.6206,45.6842,哈尔滨市,省农科院,,37,37,59,21,46,63,,37,37,14,49,12,14,0.5,0.7
2023-11-29T1200,2688A,93.5128,42.8172,哈密地区,地区监测站,,44,44,61,23,26,46,,27,27,32,48,10,7,0.4,0.7
2023-11-29T1200,2689A,93.4961,42.8328,哈密地区,哈密师范学校,,45,44,75,31,28,41,,26,26,33,49,15,9,0.5,0.8
2023-11-29T1200,2671A,100.9048,36.9639,海北藏族自治州,海晏县西海镇,,,51,29,26,13,53,,49,41,16,8,28,14,,1.7
2023-11-29T1200,3867A,102.0738,36.5056,海东地区,平安区公安北苑,,44,44,75,18,40,67,,32,32,14,34,20,32,0.5,0.9
2023-11-29T1200,1410A,110.3232,20.0574,海口市,海南大学,,,37,47,24,30,113,,127,123,11,10,8,8,,0.6
2023-11-29T1200,1411A,110.283,20.0053,海口市,秀英海南医院,,38,37,51,26,32,110,,127,120,15,11,8,8,0.5,0.5
2023-11-29T1200,1412A,110.338,19.9969,海口市,海南师范大学,,39,35,48,27,33,107,,122,118,15,12,7,7,0.6,0.6
2023-11-29T1200,1413A,110.33,20.0356,海口市,龙华路环保局宿舍,,36,36,47,24,30,108,,126,120,17,11,9,8,0.5,0.5
2023-11-29T1200,3539A,110.5111,19.9736,海口市,桂林洋子站,,30,30,42,20,30,96,,120,112,22,13,4,4,0.4,0.5
2023-11-29T1200,2673A,100.6188,36.2866,海南藏族自治州,共和县恰卜恰镇,,40,,30,28,15,69,,29,29,10,35,7,9,1.3,1.6
2023-11-29T1200,2676A,97.3731,37.3753,海西蒙古族藏族自治州,德令哈市,颗粒物(PM10),54,57,43,10,14,50,,39,39,18,19,13,14,0.5,0.5
2023-11-29T1200,1048A,114.5302,36.6116,邯郸市,东污水处理厂,,36,36,88,12,45,56,,32,32,11,42,3,6,0.3,0.6
2023-11-29T1200,1049A,114.4918,36.5713,邯郸市,矿院,,,49,78,8,45,42,,28,28,,36,3,2,0.3,0.5
2023-11-29T1200,1050A,114.484,36.6133,邯郸市,丛台公园,,28,28,77,16,40,63,,40,40,14,42,2,4,0.3,0.6
2023-11-29T1200,3458A,114.7895,36.5593,邯郸市,香泉濮院小区,,38,38,93,5,42,66,,36,36,3,36,5,9,0.1,0.4
2023-11-29T1200,3579A,114.50634,36.77178,邯郸市,永年区实验高中,颗粒物(PM10),51,52,102,13,48,59,,34,34,12,41,5,9,0.3,0.6
2023-11-29T1200,3580A,114.20016,36.44293,邯郸市,峰峰矿区临水派出所,,42,42,86,14,37,53,,41,41,16,24,9,9,0.4,0.6
2023-11-29T1200,2634A,106.9893,33.1842,汉中市,汉川机床厂子校,细颗粒物(PM2.5),65,74,71,47,46,32,,18,18,23,24,24,17,1.8,1.2
2023-11-29T1200,2635A,107.0154,33.0706,汉中市,市监测站,,,,98,100,79,,,11,11,41,42,28,13,,1.6
2023-11-29T1200,2636A,107.0089,33.1138,汉中市,鑫源开发区,细颗粒物(PM2.5),117,122,96,88,78,29,,22,22,38,36,43,17,1.8,1.4
2023-11-29T1200,2637A,107.007,33.0323,汉中市,南郑大河坎水厂,细颗粒物(PM2.5),120,124,113,91,84,21,,12,12,45,36,13,12,1.6,1.5
2023-11-29T1200,1223A,120.2072,30.2111,杭州市,滨江,颗粒物(PM10),63,75,107,33,52,72,,25,25,37,62,10,10,0.7,0.8
2023-11-29T1200,1224A,120.0633,30.2747,杭州市,西溪,颗粒物(PM10),52,54,80,30,46,91,,25,25,32,41,8,7,0.6,0.7
2023-11-29T1200,1226A,120.3461,30.3153,杭州市,下沙,颗粒物(PM10),64,78,116,37,55,85,,37,37,41,66,11,12,0.7,0.8
2023-11-29T1200,1227A,120.1269,30.2456,杭州市,卧龙桥,颗粒物(PM10),61,72,82,42,40,51,,19,19,51,38,9,7,0.8,0.7
2023-11-29T1200,1228A,120.1903,30.2692,杭州市,浙江农大,颗粒物(PM10),59,67,93,31,47,53,,21,21,47,57,8,9,0.8,0.8
2023-11-29T1200,1230A,120.1197,30.3119,杭州市,和睦小学,,,,99,,53,71,,20,20,,62,10,11,0.8,0.9
2023-11-29T1200,1231A,120.3019,30.4183,杭州市,临平镇,颗粒物(PM10),75,99,125,35,61,68,,24,24,42,58,8,7,0.7,0.8
2023-11-29T1200,1232A,120.2697,30.1819,杭州市,城厢镇,,,66,98,26,46,78,,31,31,,73,7,7,0.5,0.6
2023-11-29T1200,1233A,120.0883,30.1808,杭州市,云栖,颗粒物(PM10),54,58,101,36,43,66,,23,23,48,38,7,7,0.8,0.8
2023-11-29T1200,3557A,119.9464,30.0494,杭州市,镇二中,细颗粒物(PM2.5),62,66,79,44,44,58,,20,20,49,54,8,6,0.7,0.6
2023-11-29T1200,3558A,119.7183,30.2367,杭州市,市府大楼,,,,90,41,46,83,,32,32,35,42,7,6,,0.7
2023-11-29T1200,3656A,120.1556,30.2864,杭州市,消防大队,颗粒物(PM10),68,85,101,40,53,54,,22,22,55,65,11,10,0.8,0.7
2023-11-29T1200,1270A,117.1959,31.7848,合肥市,明珠广场,细颗粒物(PM2.5),98,134,136,73,65,72,,33,33,34,46,12,9,0.7,0.7
2023-11-29T1200,1271A,117.3072,31.8764,合肥市,三里街,细颗粒物(PM2.5),119,166,141,90,72,66,,23,23,40,58,10,10,0.7,0.8
2023-11-29T1200,1272A,117.2588,31.8707,合肥市,琥珀山庄,细颗粒物(PM2.5),107,153,130,80,64,74,,30,30,40,45,11,8,0.7,0.7
2023-11-29T1200,1273A,117.1604,31.9052,合肥市,董铺水库,颗粒物(PM10),103,156,146,75,63,,,44,37,23,31,,6,,0.6
2023-11-29T1200,1274A,117.25,31.8571,合肥市,长江中路,细颗粒物(PM2.5),122,149,134,92,72,,,33,,34,40,,12,0.8,0.8
2023-11-29T1200,1275A,117.266,31.9436,合肥市,庐阳区,细颗粒物(PM2.5),110,161,142,83,67,,,27,27,37,55,9,8,0.9,0.9
2023-11-29T1200,1276A,117.336,31.8586,合肥市,瑶海区,细颗粒物(PM2.5),125,180,152,95,78,,,22,22,48,65,7,6,0.6,0.7
2023-11-29T1200,1277A,117.3027,31.7964,合肥市,包河区,细颗粒物(PM2.5),117,158,132,88,73,63,,23,23,51,61,16,15,0.9,0.8
2023-11-29T1200,1278A,117.2776,31.7385,合肥市,滨湖新区,,,,142,,67,,,35,25,41,44,11,9,,0.9
2023-11-29T1200,1279A,117.1318,31.8403,合肥市,高新区,细颗粒物(PM2.5),112,149,136,84,67,74,,41,39,35,44,12,12,0.8,0.8
2023-11-29T1200,3464A,117.3803,31.9147,合肥市,高教基地,颗粒物(PM10),91,132,127,67,63,78,,35,35,40,48,8,6,0.6,0.7
2023-11-29T1200,3614A,79.924,37.0877,和田地区,地区环保局,颗粒物(PM10),107,164,184,60,65,67,,48,48,25,37,14,17,0.9,1.2
2023-11-29T1200,3615A,79.9131,37.113,和田地区,市环保局,颗粒物(PM10),106,161,187,73,86,70,,43,43,27,49,10,15,1.4,1.9
2023-11-29T1200,2516A,108.2011,24.715,河池市,东仁乐园,颗粒物(PM10),63,75,63,42,41,90,,27,27,11,15,10,6,0.8,0.7
2023-11-29T1200,2517A,108.0497,24.6947,河池市,市环保站,"颗粒物(PM10),细颗粒物(PM2.5)",84,118,77,62,44,63,,19,19,38,31,10,8,1.0,0.8
2023-11-29T1200,2518A,108.0983,24.6989,河池市,市疾控中心,颗粒物(PM10),84,118,104,46,63,79,,16,16,30,37,11,8,0.8,0.8
2023-11-29T1200,1696A,114.6778,23.7569,河源市,源西,颗粒物(PM10),52,53,56,27,34,67,,25,25,15,44,7,5,0.6,0.8
2023-11-29T1200,1697A,114.6944,23.7586,河源市,东埔,颗粒物(PM10),61,71,64,29,36,64,,34,34,15,36,12,8,0.6,0.8
2023-11-29T1200,1698A,114.6892,23.7233,河源市,老城,颗粒物(PM10),56,62,51,30,32,73,,42,42,16,22,9,6,0.5,0.6
2023-11-29T1200,1718A,115.4208,35.2464,菏泽市,气象局,颗粒物(PM10),52,54,129,8,54,66,,30,30,17,54,3,5,0.1,0.5
2023-11-29T1200,1719A,115.4747,35.2375,菏泽市,市政协,,48,48,129,6,57,63,,27,27,16,53,3,5,0.3,0.6
2023-11-29T1200,3374A,115.5564,35.0891,菏泽市,定陶老年大学,颗粒物(PM10),56,61,121,9,56,57,,25,25,17,44,3,9,0.1,0.5
2023-11-29T1200,3647A,115.4702,35.2706,菏泽市,菏泽医专,,,,128,,50,67,,31,31,,57,,10,0.3,0.7
2023-11-29T1200,2514A,111.5264,24.4172,贺州市,环保小区,颗粒物(PM10),75,99,66,47,41,32,,14,14,39,31,8,7,0.8,0.7
2023-11-29T1200,2515A,111.5608,24.4078,贺州市,政协大楼,颗粒物(PM10),63,76,64,39,40,36,,24,24,36,31,7,8,0.7,0.6
2023-11-29T1200,3534A,111.4744,24.4553,贺州市,西湾,"颗粒物(PM10),细颗粒物(PM2.5)",58,65,71,41,42,61,,23,23,21,26,10,9,0.9,0.9
2023-11-29T1200,2385A,114.17,35.9019,鹤壁市,市监测站,颗粒物(PM10),53,55,111,25,59,51,,37,37,22,40,8,11,0.6,0.8
2023-11-29T1200,2386A,114.2956,35.7511,鹤壁市,市交警支队,,36,36,100,21,49,52,,35,35,29,48,6,10,0.2,0.5
2023-11-29T1200,2387A,114.2878,35.7306,鹤壁市,迎宾馆,,36,36,95,14,49,54,,36,36,20,47,5,13,0.4,0.8
2023-11-29T1200,3474A,114.2617,35.6822,鹤壁市,大新区,颗粒物(PM10),54,57,99,15,46,52,,37,37,28,50,5,10,0.2,0.6
2023-11-29T1200,3596A,114.1572,35.9603,鹤壁市,南山宾馆,颗粒物(PM10),53,55,112,21,50,57,,41,41,20,38,4,13,0.7,1
2023-11-29T1200,2244A,130.2537,47.3416,鹤岗市,哈啤分公司,,20,15,25,9,20,64,,54,54,6,9,13,13,0.1,0.3
2023-11-29T1200,2245A,130.2684,47.3086,鹤岗市,斯达机电,,,,34,,24,,,56,49,37,17,,12,,0
2023-11-29T1200,2246A,130.3114,47.3388,鹤岗市,东山纸板厂,,20,15,33,12,27,63,,51,50,8,13,12,14,0.4,0.5
2023-11-29T1200,2247A,130.1097,47.3382,鹤岗市,五号水库,,23,19,26,8,23,71,,56,56,5,9,9,10,0.1,0.2
2023-11-29T1200,2263A,127.4833,50.2524,黑河市,交通局,,20,11,18,8,15,63,,59,59,6,6,3,5,0.3,0.3
2023-11-29T1200,2264A,127.5144,50.2341,黑河市,环保局,,,,12,16,14,63,,62,60,4,7,,3,0.2,0.2
2023-11-29T1200,2265A,127.5291,50.2472,黑河市,大黑河岛,,,,14,60,11,46,,48,48,,2,,6,,0.7
2023-11-29T1200,1074A,115.6838,37.7541,衡水市,电机北厂,,20,14,40,3,18,63,,54,54,7,28,4,7,0.2,0.4
2023-11-29T1200,1075A,115.6303,37.7316,衡水市,市监测站,,20,7,40,2,16,61,,54,54,6,27,6,8,0.3,0.4
2023-11-29T1200,3188A,115.6683,37.7217,衡水市,市城管局,,20,14,39,1,20,62,,54,54,12,32,4,7,0.3,0.4
2023-11-29T1200,3459A,115.5989,37.5491,衡水市,地表水厂,,21,21,42,4,16,66,,54,54,3,25,3,5,0.3,0.4
2023-11-29T1200,2456A,112.5003,26.9167,衡阳市,原169医院,颗粒物(PM10),56,62,77,38,48,81,,29,29,18,42,12,8,0.8,1.1
2023-11-29T1200,2457A,112.6194,26.9258,衡阳市,衡阳化工总厂,,,83,86,,62,87,,37,37,,32,,10,0.7,0.8
2023-11-29T1200,2458A,112.6211,26.8956,衡阳市,珠晖区环保局,颗粒物(PM10),61,71,88,32,65,86,,32,32,18,45,16,12,0.7,0.9
2023-11-29T1200,2459A,112.6197,26.8733,衡阳市,市委党校,,,66,86,42,58,92,,39,39,,32,15,13,0.7,0.9
2023-11-29T1200,2460A,112.6006,26.8919,衡阳市,市监测站,"颗粒物(PM10),细颗粒物(PM2.5)",63,75,97,45,69,76,,36,36,26,46,15,11,0.8,1.2
2023-11-29T1200,2461A,112.5664,26.9056,衡阳市,真空机电公司,颗粒物(PM10),62,74,80,42,64,77,,32,32,30,51,20,13,1.1,1.3
2023-11-29T1200,3399A,112.6703,26.882,衡阳市,师范学院,颗粒物(PM10),53,56,85,32,61,102,,31,31,12,33,16,11,0.8,1
2023-11-29T1200,2608A,103.3772,23.3993,红河州,污水处理厂,,50,40,46,35,36,93,,70,65,8,10,10,9,0.5,0.6
2023-11-29T1200,2609A,103.3861,23.35,红河州,监测站,,48,41,48,33,35,89,,82,70,12,12,10,9,0.7,0.8
2023-11-29T1200,3038A,103.3758,23.368,红河州,州图书馆,,38,37,45,26,34,82,,74,62,9,10,8,8,0.4,0.5
2023-11-29T1200,1090A,111.6507,40.7517,呼和浩特市,呼市一监,,,,23,15,10,,,63,54,9,11,16,9,,0.5
2023-11-29T1200,1091A,111.6572,40.8033,呼和浩特市,小召,,22,19,22,10,7,69,,74,66,11,15,10,8,0.3,0.3
2023-11-29T1200,1094A,111.7516,40.8369,呼和浩特市,如意水处理厂,,21,10,14,3,5,65,,60,59,7,14,7,10,0.3,0.3
2023-11-29T1200,1095A,111.7276,40.8062,呼和浩特市,二十九中,,22,20,21,5,6,70,,69,69,2,9,7,9,0.3,0.3
2023-11-29T1200,1096A,111.5512,40.7866,呼和浩特市,工大金川校区,,28,28,24,9,9,58,,54,48,10,14,10,9,0.5,0.5
2023-11-29T1200,1097A,111.717,40.7612,呼和浩特市,化肥厂生活区,,25,25,20,9,7,66,,68,58,9,13,10,9,0.4,0.4
2023-11-29T1200,3698A,111.5968,40.8178,呼和浩特市,红旗小学,,,,23,,9,56,,58,46,15,19,,9,0.5,0.5
2023-11-29T1200,3699A,111.6518,40.8389,呼和浩特市,海东办,,21,12,14,6,5,67,,63,62,8,15,6,9,0.2,0.3
2023-11-29T1200,2192A,119.7594,49.2261,呼伦贝尔市,区环保局,,,,24,,13,70,,70,69,8,12,2,4,0.3,0.4
2023-11-29T1200,3061A,119.7512,49.1577,呼伦贝尔市,国华电力东,,24,19,18,9,13,74,,72,72,4,7,5,4,0.1,0.1
2023-11-29T1200,1250A,120.0751,30.8669,湖州市,城西水厂,细颗粒物(PM2.5),80,102,144,59,76,63,,16,16,67,66,9,8,0.7,0.8
2023-11-29T1200,2873A,120.0875,30.8955,湖州市,仁皇山新区,细颗粒物(PM2.5),107,146,148,80,82,38,,19,15,83,66,11,9,0.8,0.8
2023-11-29T1200,2907A,120.1844,30.8596,湖州市,吴兴区站,细颗粒物(PM2.5),107,133,145,80,77,43,,17,17,81,64,7,8,0.8,0.8
2023-11-29T1200,3562A,120.4148,30.8538,湖州市,南浔区站,细颗粒物(PM2.5),77,93,142,56,77,75,,34,34,43,56,13,9,0.6,0.7
2023-11-29T1200,1607A,120.9092,40.7136,葫芦岛市,龙港区,,30,30,55,6,31,70,,58,58,4,32,7,26,0.5,0.8
2023-11-29T1200,1608A,120.8392,40.7514,葫芦岛市,化工街,,31,31,38,9,21,68,,53,53,13,29,9,12,0.7,0.9
2023-11-29T1200,1609A,120.8341,40.7073,葫芦岛市,新区,,,29,32,4,21,70,,50,,9,27,,16,0.6,0.8
2023-11-29T1200,1610A,120.8695,40.7677,葫芦岛市,东城区,,27,27,38,4,27,77,,64,64,7,31,5,17,0.4,0.7
2023-11-29T1200,2482A,109.5981,27.5721,怀化市,林科所,细颗粒物(PM2.5),64,61,48,46,36,13,,5,5,4,4,13,4,1.1,0.9
2023-11-29T1200,2483A,109.9453,27.5444,怀化市,河西地税局,细颗粒物(PM2.5),99,85,45,74,38,20,,8,8,26,17,30,6,1.2,0.9
2023-11-29T1200,2484A,109.9781,27.5342,怀化市,市四医院,细颗粒物(PM2.5),55,44,45,39,36,16,,4,4,18,25,30,10,0.8,0.9
2023-11-29T1200,2485A,109.9972,27.5578,怀化市,监测楼,,40,40,55,25,36,23,,13,13,17,28,15,19,0.5,0.7
2023-11-29T1200,2486A,110.0394,27.583,怀化市,市委党校,,,,67,37,66,20,,2,,,27,23,111,0.7,1
2023-11-29T1200,1210A,119.036,33.5981,淮安市,钵池山,颗粒物(PM10),51,51,61,22,30,64,,47,47,16,29,7,7,0.4,0.5
2023-11-29T1200,1211A,119.007,33.575,淮安市,北京南路,颗粒物(PM10),57,63,68,23,36,62,,49,46,21,28,7,6,0.5,0.6
2023-11-29T1200,1212A,118.989,33.6067,淮安市,市监测站,颗粒物(PM10),52,53,64,19,28,68,,52,49,16,27,5,6,0.4,0.4
2023-11-29T1200,1213A,119.135,33.5039,淮安市,楚州区监测站,颗粒物(PM10),55,59,67,19,24,63,,46,46,14,24,6,6,0.7,0.7
2023-11-29T1200,1214A,119.0186,33.6297,淮安市,淮阴区监测站,颗粒物(PM10),63,75,78,25,37,69,,48,44,14,29,4,5,0.4,0.5
2023-11-29T1200,3426A,118.8755,33.2894,淮安市,新华书店,颗粒物(PM10),58,66,75,26,30,55,,37,36,24,31,9,10,0.5,0.5
2023-11-29T1200,2282A,116.8004,33.975,淮北市,监测站,细颗粒物(PM2.5),89,115,118,66,56,36,,30,26,41,34,9,8,0.8,0.7
2023-11-29T1200,2283A,116.8091,33.9007,淮北市,烈山区政府,,,111,120,57,57,,,35,26,43,37,10,8,0.6,0.5
2023-11-29T1200,3330A,116.8873,33.9836,淮北市,杜集区检察院,细颗粒物(PM2.5),89,126,118,66,57,38,,26,24,32,25,10,8,0.7,0.6
2023-11-29T1200,4017A,116.7923,33.9535,淮北市,市博物馆,细颗粒物(PM2.5),89,118,112,66,57,38,,31,26,40,32,11,9,0.8,0.6
2023-11-29T1200,2277A,116.8305,32.7727,淮南市,潘集区政府,颗粒物(PM10),82,113,135,56,76,46,,28,24,28,33,12,11,0.5,0.6
2023-11-29T1200,2278A,117.0067,32.6524,淮南市,师范学院,,,,140,,73,45,,35,22,24,31,9,13,,0.8
2023-11-29T1200,2279A,116.8569,32.5951,淮南市,谢家集区政府,细颗粒物(PM2.5),84,104,132,62,68,52,,46,33,31,39,10,13,0.5,0.6
2023-11-29T1200,2280A,116.8281,32.633,淮南市,八公山区政府,颗粒物(PM10),84,118,127,55,61,43,,46,31,28,28,10,10,0.6,0.6
2023-11-29T1200,2281A,116.6325,32.6201,淮南市,焦岗湖风景区管理处,细颗粒物(PM2.5),82,104,117,60,60,41,,20,18,22,24,3,3,0.3,0.4
2023-11-29T1200,2894A,117.0566,32.6531,淮南市,经济技术开发区消防队,颗粒物(PM10),82,114,128,52,65,49,,32,24,24,33,7,8,0.5,0.6
2023-11-29T1200,3329A,117.0108,32.5893,淮南市,山南新区,颗粒物(PM10),88,125,138,61,68,52,,48,34,27,28,7,7,0.5,0.6
2023-11-29T1200,2446A,114.9028,30.4742,黄冈市,职工中心,颗粒物(PM10),72,93,89,45,48,91,,58,58,13,22,11,14,0.7,0.8
2023-11-29T1200,2929A,114.8858,30.4519,黄冈市,红卫路,颗粒物(PM10),73,96,89,50,51,89,,60,60,19,27,6,9,0.6,0.7
2023-11-29T1200,3398A,114.9136,30.4445,黄冈市,市林业局,颗粒物(PM10),65,80,80,39,50,88,,56,56,20,29,7,9,0.6,0.7
2023-11-29T1200,2672A,102.0199,35.5102,黄南藏族自治州,同仁县隆务镇,颗粒物(PM10),60,70,49,31,21,59,,47,47,15,13,15,11,0.6,0.4
2023-11-29T1200,2295A,118.2903,29.6963,黄山市,延安路89号,颗粒物(PM10),52,53,49,19,28,76,,24,24,15,16,6,5,0.3,0.3
2023-11-29T1200,2296A,118.327,29.7178,黄山市,黄山东路89号,颗粒物(PM10),62,73,63,19,29,58,,15,15,25,22,6,5,0.5,0.5
2023-11-29T1200,2297A,118.1371,30.2756,黄山市,黄山区政府5号楼,颗粒物(PM10),57,64,63,30,33,81,,29,29,16,16,5,4,0.1,0.5
2023-11-29T1200,2423A,115.0601,30.2313,黄石市,沈家营,颗粒物(PM10),66,82,92,33,47,82,,33,33,33,40,10,11,0.6,1
2023-11-29T1200,2424A,115.0817,30.2006,黄石市,陈家湾,颗粒物(PM10),58,66,83,37,50,64,,32,32,41,32,11,11,0.6,0.9
2023-11-29T1200,2426A,114.8988,30.2019,黄石市,铁山,颗粒物(PM10),62,73,83,34,50,85,,66,56,30,30,14,13,0.9,0.8
2023-11-29T1200,2427A,115.0307,30.2092,黄石市,团城山,颗粒物(PM10),68,85,89,38,44,84,,50,41,31,30,10,11,0.7,1
2023-11-29T1200,3149A,115.0235,30.1578,黄石市,笔架山北路,颗粒物(PM10),60,69,88,28,50,96,,62,60,16,25,9,11,0.6,0.9
2023-11-29T1200,1392A,114.4183,23.0528,惠州市,河南岸金山湖子站,颗粒物(PM10),55,60,77,34,44,95,,60,60,15,28,6,6,0.8,0.9
2023-11-29T1200,1393A,114.4053,23.0822,惠州市,下埔横江三路子站,颗粒物(PM10),54,58,81,28,45,115,,68,68,16,37,10,11,0.7,0.8
2023-11-29T1200,1394A,114.4103,23.1142,惠州市,江北云山西路子站,,46,46,79,25,43,111,,55,55,12,37,7,10,0.7,0.8
2023-11-29T1200,1395A,114.4645,22.7833,惠州市,惠阳区承修路船湖子站,颗粒物(PM10),61,72,63,33,30,94,,87,77,28,24,7,7,0.9,0.9
2023-11-29T1200,1396A,114.5317,22.7422,惠州市,大亚湾管委会子站,颗粒物(PM10),54,58,61,26,28,115,,95,85,24,30,7,7,0.8,0.8
2023-11-29T1200,3314A,114.4338,22.8134,惠州市,惠阳秋长,颗粒物(PM10),54,58,69,27,34,100,,88,88,16,25,9,10,0.7,0.7
2023-11-29T1200,3452A,114.6517,22.775,惠州市,大亚湾霞涌,细颗粒物(PM2.5),58,50,58,41,35,117,,91,83,16,21,9,7,0.7,0.5
2023-11-29T1200,2240A,130.9762,45.3001,鸡西市,环保局,,43,35,28,30,24,51,,54,49,14,13,7,5,0.7,0.6
2023-11-29T1200,2243A,130.9429,45.3039,鸡西市,第一中学,,40,38,29,28,24,59,,57,53,10,11,8,7,0.2,0.2
2023-11-29T1200,3707A,131.0207,45.3073,鸡西市,欧美日汽修厂,,49,46,49,34,45,46,,39,38,24,27,48,38,1.2,1.2
2023-11-29T1200,3709A,130.9967,45.3106,鸡西市,市政设施管理处,,34,34,31,22,25,58,,41,41,17,22,2,2,0.3,0.2
2023-11-29T1200,2367A,114.9754,27.0803,吉安市,红声器材厂,细颗粒物(PM2.5),73,92,75,53,39,81,,31,31,49,46,26,16,0.4,0.5
2023-11-29T1200,2368A,114.9658,27.0999,吉安市,市森林工业局,细颗粒物(PM2.5),65,74,68,47,40,69,,25,25,35,39,33,19,0.6,0.5
2023-11-29T1200,2369A,114.99,27.1312,吉安市,市环境监测站,颗粒物(PM10),62,74,70,37,36,73,,21,21,32,40,18,16,0.3,0.5
2023-11-29T1200,2370A,115.0093,27.0968,吉安市,青原区法院,颗粒物(PM10),62,74,70,43,38,88,,28,28,33,43,20,15,0.7,0.7
2023-11-29T1200,1772A,126.54,43.8622,吉林市,哈达湾,,21,14,20,10,13,66,,61,61,7,12,10,10,0.5,0.5
2023-11-29T1200,1773A,126.5844,43.8358,吉林市,东局子,,21,15,16,11,13,66,,58,58,9,16,7,7,0.5,0.5
2023-11-29T1200,1774A,126.5052,43.8245,吉林市,电力学院,,22,15,36,9,20,68,,62,62,7,17,10,11,0.5,0.6
2023-11-29T1200,1775A,126.6133,43.8972,吉林市,江北,,22,19,22,8,12,69,,60,60,14,19,11,11,0.5,0.6
2023-11-29T1200,1776A,126.555,43.8306,吉林市,江南公园,,21,19,21,14,15,66,,58,58,9,13,10,11,0.5,0.5
2023-11-29T1200,1778A,126.7061,43.7133,吉林市,丰满,,21,19,21,12,13,67,,62,62,4,6,9,10,0.5,0.5
2023-11-29T1200,2868A,126.4739,43.953,吉林市,九站,,21,21,21,11,14,64,,58,58,12,17,8,6,0.5,0.5
2023-11-29T1200,1299A,116.9862,36.6114,济南市,科干所,,,,64,,22,59,,31,31,15,49,6,13,0.6,0.8
2023-11-29T1200,1300A,116.9376,36.665,济南市,农科所,,37,37,79,2,21,63,,33,33,13,51,5,12,0.4,0.6
2023-11-29T1200,1301A,117.1265,36.6734,济南市,开发区,,29,29,69,5,23,59,,30,30,13,47,7,11,0.5,0.7
2023-11-29T1200,1303A,117.0624,36.6868,济南市,省种子仓库,,46,46,92,5,25,63,,33,33,10,45,7,13,0.4,0.6
2023-11-29T1200,1304A,116.9489,36.6447,济南市,机床二厂,,39,39,81,2,26,63,,32,32,16,56,4,12,0.5,0.9
2023-11-29T1200,1305A,117.0495,36.663,济南市,市监测站,,37,37,78,5,21,61,,32,32,18,52,8,15,0.4,0.7
2023-11-29T1200,1306A,116.7675,36.5484,济南市,长清党校,,44,44,75,5,26,64,,30,30,19,52,7,13,0.7,0.9
2023-11-29T1200,1616A,117.6795,36.229,济南市,技术学院,颗粒物(PM10),52,53,81,12,37,54,,34,34,21,47,13,12,0.8,1
2023-11-29T1200,1961A,117.532,36.6868,济南市,东山小学,,,,76,,26,61,,28,28,21,54,12,15,0.7,0.8
2023-11-29T1200,3059A,117.7161,36.2049,济南市,泰兴公司,颗粒物(PM10),54,58,89,17,40,50,,28,28,30,59,11,11,0.4,0.6
2023-11-29T1200,3064A,117.6867,36.2171,济南市,莱芜战役纪念馆,颗粒物(PM10),51,51,88,12,37,53,,32,32,30,57,15,13,0.5,0.7
2023-11-29T1200,3494A,117.1673,36.9782,济南市,济阳区政府,,22,20,55,2,20,69,,40,40,4,32,3,11,0.4,0.6
2023-11-29T1200,3495A,117.1171,36.63,济南市,锦屏中学,,29,29,56,2,21,67,,37,37,16,39,8,10,0.4,0.5
2023-11-29T1200,3682A,116.9814,36.6819,济南市,济南四建,,27,27,77,5,26,61,,30,30,18,57,6,15,0.4,0.7
2023-11-29T1200,1653A,116.6251,35.4302,济宁市,火炬城,颗粒物(PM10),52,54,102,22,49,43,,18,18,25,48,13,14,0.5,0.7
2023-11-29T1200,1655A,116.5491,35.4042,济宁市,电化厂,颗粒物(PM10),64,78,117,22,52,45,,23,23,34,47,10,12,0.4,0.6
2023-11-29T1200,3500A,116.5814,35.3707,济宁市,北湖一中,颗粒物(PM10),56,61,98,27,53,44,,20,20,30,49,10,12,0.5,0.7
2023-11-29T1200,3501A,116.8249,35.5593,济宁市,服务中心,颗粒物(PM10),56,61,118,15,50,45,,26,26,25,49,9,11,0.6,0.8
2023-11-29T1200,3678A,116.5907,35.4054,济宁市,市第七中学,,,64,100,22,48,44,,20,20,32,52,,9,0.5,0.6
2023-11-29T1200,2255A,130.2751,46.8028,佳木斯市,佳纺,细颗粒物(PM2.5),105,86,51,79,45,59,,37,37,15,31,7,12,0.5,0.6
2023-11-29T1200,2256A,130.3995,46.8307,佳木斯市,发电厂,,,,32,,24,,,44,38,,23,,5,,0.6
2023-11-29T1200,2257A,130.3258,46.7975,佳木斯市,环保局,细颗粒物(PM2.5),87,64,40,64,36,57,,40,39,16,28,6,6,0.5,0.5
2023-11-29T1200,2258A,130.3648,46.8032,佳木斯市,十一中,细颗粒物(PM2.5),68,,35,49,33,56,,43,43,16,25,3,3,0.6,0.6
2023-11-29T1200,2259A,130.3794,46.7588,佳木斯市,四丰,细颗粒物(PM2.5),52,50,36,36,22,60,,50,48,9,12,1,1,0.5,0.5
2023-11-29T1200,1252A,120.7436,30.778,嘉兴市,清河小学,颗粒物(PM10),72,94,124,38,56,68,,65,65,62,47,12,11,0.9,1
2023-11-29T1200,1253A,120.726,30.7478,嘉兴市,嘉兴学院,颗粒物(PM10),72,94,120,44,59,67,,62,62,59,44,11,10,0.6,0.8
2023-11-29T1200,2872A,120.7846,30.7525,嘉兴市,南湖区残联,颗粒物(PM10),68,86,119,48,63,72,,68,68,53,42,8,9,0.9,0.9
2023-11-29T1200,3407A,120.6916,30.7739,嘉兴市,秀洲住建,颗粒物(PM10),73,95,118,50,65,73,,54,54,53,50,11,11,0.8,0.6
2023-11-29T1200,1945A,98.2908,39.7711,嘉峪关市,气象局,颗粒物(PM10),76,102,96,27,23,57,,55,42,10,19,8,22,0.5,0.9
2023-11-29T1200,2884A,98.2672,39.7978,嘉峪关市,酒钢宾馆,颗粒物(PM10),80,110,101,31,24,49,,44,29,25,25,25,27,1.5,0.7
2023-11-29T1200,3248A,98.2643,39.7724,嘉峪关市,雄关区,,,79,78,39,19,55,,39,29,,25,7,17,0.3,0.4
2023-11-29T1200,1383A,113.1064,22.6058,江门市,北街,细颗粒物(PM2.5),69,73,68,50,47,66,,54,54,64,52,11,8,0.7,0.7
2023-11-29T1200,1384A,113.0731,22.5835,江门市,西区,细颗粒物(PM2.5),68,69,86,49,44,61,,50,50,58,60,10,9,0.7,0.7
2023-11-29T1200,1385A,113.0219,22.5311,江门市,圭峰西,细颗粒物(PM2.5),67,63,64,48,47,79,,59,54,50,36,7,6,0.6,0.6
2023-11-29T1200,1386A,113.0828,22.5947,江门市,东湖,细颗粒物(PM2.5),73,80,82,53,47,68,,51,51,57,54,8,6,0.7,0.8
2023-11-29T1200,3311A,113.1075,22.5647,江门市,江海富民,颗粒物(PM10),73,95,91,40,42,60,,47,47,73,59,11,9,0.7,0.7
2023-11-29T1200,3449A,113.05,22.4667,江门市,新会银湖,,,,73,,47,66,,38,38,,44,9,9,,0.6
2023-11-29T1200,1828A,113.227,35.2125,焦作市,市环保局,颗粒物(PM10),54,58,100,21,49,50,,32,32,22,42,12,12,0.3,0.4
2023-11-29T1200,1830A,113.1992,35.2590,焦作市,影视城,,38,38,79,19,36,45,,28,27,19,22,12,10,0.7,0.6
2023-11-29T1200,3169A,113.2725,35.2067,焦作市,太极体育中心,,,60,110,16,41,52,,34,34,,41,11,13,0.5,0.8
2023-11-29T1200,3335A,113.3137,35.2641,焦作市,马村街道办,颗粒物(PM10),57,63,137,26,54,54,,33,33,24,44,12,20,0.5,0.7
2023-11-29T1200,3336A,113.2465,35.2373,焦作市,焦作技师学院,颗粒物(PM10),52,53,104,29,50,47,,25,25,15,33,12,12,0.8,0.8
2023-11-29T1200,3477A,113.1656,35.2539,焦作市,中站许衡医院,颗粒物(PM10),53,55,99,25,44,54,,29,29,22,42,14,12,0.6,0.6
2023-11-29T1200,3981A,113.2449,35.1803,焦作市,原李万街道办,颗粒物(PM10),62,74,113,24,49,56,,40,40,19,37,10,12,0.4,0.6
2023-11-29T1200,1708A,116.3701,23.5345,揭阳市,新兴,颗粒物(PM10),74,98,77,48,47,122,,80,71,24,28,16,17,0.7,0.7
2023-11-29T1200,1709A,116.3264,23.5443,揭阳市,西马,,,,79,,42,127,,79,68,,23,14,12,0.8,0.7
2023-11-29T1200,1710A,116.3611,23.5626,揭阳市,东兴,颗粒物(PM10),78,105,89,38,41,118,,78,72,21,24,12,15,0.6,0.7
2023-11-29T1200,1711A,116.4151,23.5294,揭阳市,渔湖,细颗粒物(PM2.5),72,83,80,52,41,118,,76,74,19,26,16,16,0.6,0.7
2023-11-29T1200,3320A,116.403,23.5699,揭阳市,曲溪,颗粒物(PM10),68,85,87,42,43,121,,71,70,12,26,4,13,0.6,0.8
2023-11-29T1200,1944A,102.1692,38.5167,金昌市,天庆家园,颗粒物(PM10),86,122,110,36,20,52,,59,50,28,11,90,15,0.9,0.5
2023-11-29T1200,3170A,102.1864,38.5253,金昌市,市委党校,颗粒物(PM10),104,157,120,44,24,51,,61,53,18,8,36,13,0.9,0.6
2023-11-29T1200,4022A,102.1647,38.5371,金昌市,金川区人防中心,,,120,114,38,23,52,,60,53,,8,,8,0.8,0.5
2023-11-29T1200,1262A,119.647,29.077,金华市,十五中,颗粒物(PM10),64,77,98,32,43,83,,44,44,44,59,7,8,0.4,0.5
2023-11-29T1200,1263A,119.686,29.1029,金华市,监测站,,,70,91,25,42,88,,27,27,33,68,,9,0.6,0.7
2023-11-29T1200,3659A,119.656,29.1131,金华市,气象局,颗粒物(PM10),59,68,87,25,37,91,,38,37,35,57,4,5,0.7,0.8
2023-11-29T1200,1767A,121.1115,41.0879,锦州市,南山,,28,28,21,3,14,71,,65,65,4,13,8,13,0.5,0.6
2023-11-29T1200,1768A,121.0533,40.8434,锦州市,开发区,颗粒物(PM10),59,68,36,11,20,68,,45,45,8,29,12,22,0.6,0.6
2023-11-29T1200,1769A,121.1836,41.1119,锦州市,百股街道,,32,32,28,5,18,76,,67,67,4,19,6,14,0.2,0.5
2023-11-29T1200,1770A,121.1178,41.1222,锦州市,天安街道,,34,34,21,9,15,78,,72,72,5,13,6,12,0.3,0.4
2023-11-29T1200,1771A,121.1303,41.1386,锦州市,北湖公园,,,27,20,5,14,,,68,68,2,9,6,10,0.3,0.4
2023-11-29T1200,2160A,112.85,35.5051,晋城市,自来水公司,,45,45,91,7,40,62,,32,32,22,46,9,15,0.6,1
2023-11-29T1200,2161A,112.8318,35.4936,晋城市,白云商贸,,26,26,104,2,38,63,,32,32,18,42,6,10,0.4,0.9
2023-11-29T1200,2162A,112.8508,35.4887,晋城市,市环保局,,,41,98,9,40,64,,32,32,,44,8,12,0.5,0.8
2023-11-29T1200,2163A,112.8676,35.4897,晋城市,技术学院,颗粒物(PM10),52,54,110,7,39,65,,32,32,19,49,8,15,0.5,1
2023-11-29T1200,3620A,112.8271,35.4828,晋城市,泽州一中,,26,26,93,5,34,68,,39,39,14,36,8,16,0.6,1.1
2023-11-29T1200,2171A,112.7532,37.6945,晋中市,锦纶小区,,22,22,68,7,23,69,,52,52,12,37,7,10,0.4,0.5
2023-11-29T1200,2173A,112.7249,37.7067,晋中市,南都小区,,24,24,71,10,26,67,,53,53,8,33,10,12,0.5,0.6
2023-11-29T1200,2174A,112.6991,37.6982,晋中市,榆次区政府,,29,24,74,20,34,66,,56,56,13,37,7,10,0.5,0.7
2023-11-29T1200,2865A,112.7195,37.6828,晋中市,榆次三中,,22,22,75,5,20,67,,56,56,14,36,12,14,0.5,0.7
2023-11-29T1200,2439A,112.2014,31.0481,荆门市,竹园小学,颗粒物(PM10),90,130,145,57,102,46,,38,38,32,40,10,11,0.6,0.9
2023-11-29T1200,2440A,112.1969,30.9891,荆门市,掇刀,"颗粒物(PM10),细颗粒物(PM2.5)",89,127,139,66,102,51,,49,48,27,37,13,13,0.6,0.9
2023-11-29T1200,2441A,112.2213,31.0386,荆门市,石化一小,细颗粒物(PM2.5),99,137,157,74,111,49,,35,35,28,40,13,13,0.5,0.7
2023-11-29T1200,3012A,112.1849,31.0362,荆门市,西山林语,颗粒物(PM10),82,114,128,53,91,56,,50,50,27,31,12,12,0.7,0.8
2023-11-29T1200,3547A,112.1632,31.0138,荆门市,龙泉中学南校,细颗粒物(PM2.5),93,130,147,69,90,57,,57,57,24,25,11,13,0.6,0.8
2023-11-29T1200,1844A,112.2494,30.3197,荆州市,市图书馆,细颗粒物(PM2.5),99,135,112,74,65,40,,28,28,26,38,9,9,0.8,1
2023-11-29T1200,1845A,112.2008,30.3544,荆州市,市委党校,细颗粒物(PM2.5),94,106,109,70,78,41,,27,27,28,40,6,5,0.9,1
2023-11-29T1200,3194A,112.2747,30.3122,荆州市,管委会,细颗粒物(PM2.5),95,103,110,71,74,45,,25,25,25,43,10,9,0.7,0.9
2023-11-29T1200,3548A,112.1655,30.3364,荆州市,学苑路,细颗粒物(PM2.5),99,113,118,74,94,45,,29,29,28,37,12,8,0.8,0.9
2023-11-29T1200,2342A,117.3102,29.3867,景德镇市,王港中学,,34,34,39,17,20,66,,27,27,3,5,3,2,0.3,0.4
2023-11-29T1200,2343A,117.2117,29.2933,景德镇市,老干部活动中心,细颗粒物(PM2.5),55,57,58,39,34,68,,25,25,14,25,12,11,0.4,0.5
2023-11-29T1200,2344A,117.1894,29.2789,景德镇市,兽医站,颗粒物(PM10),54,57,62,17,28,78,,25,25,15,27,7,7,0.5,0.6
2023-11-29T1200,2345A,117.1547,29.2617,景德镇市,台达陶瓷,,50,50,61,24,28,79,,29,29,18,33,11,15,0.4,0.6
2023-11-29T1200,2346A,117.2461,29.2956,景德镇市,陶研所,,50,50,48,21,22,62,,19,19,24,29,4,7,0.6,0.5
2023-11-29T1200,1803A,115.9872,29.6815,九江市,十里,颗粒物(PM10),66,82,88,43,51,67,,26,26,52,45,15,11,1.0,1.1
2023-11-29T1200,1804A,115.9584,29.7046,九江市,茅山头,细颗粒物(PM2.5),84,96,90,62,58,60,,20,20,55,58,14,13,0.9,1.2
2023-11-29T1200,1805A,115.9877,29.7295,九江市,西园,,,,100,,60,,,13,13,44,54,17,14,0.5,1
2023-11-29T1200,1806A,116.0172,29.6547,九江市,五七二七厂,"颗粒物(PM10),细颗粒物(PM2.5)",58,66,67,41,44,92,,67,67,43,25,21,13,1.0,0.9
2023-11-29T1200,1808A,115.9114,29.6038,九江市,综合工业园,细颗粒物(PM2.5),74,91,86,54,62,74,,49,49,46,52,17,15,0.9,1
2023-11-29T1200,1809A,116.0721,29.7535,九江市,石化总厂,颗粒物(PM10),75,100,102,53,54,57,,29,29,38,53,16,14,0.6,0.8
2023-11-29T1200,1810A,115.9773,29.5698,九江市,庐山气象台,,32,24,23,18,15,101,,99,98,2,2,7,6,0.8,0.6
2023-11-29T1200,3190A,116.0254,29.6994,九江市,外国语学校,细颗粒物(PM2.5),69,79,81,50,58,90,,33,33,56,46,17,17,0.8,0.9
2023-11-29T1200,2658A,98.5061,39.7443,酒泉市,仓门街子站,颗粒物(PM10),79,107,79,29,25,59,,61,49,17,14,10,4,0.4,0.4
2023-11-29T1200,2659A,98.4989,39.7256,酒泉市,油田生活基地,颗粒物(PM10),78,105,87,28,25,63,,54,42,10,15,25,8,0.6,0.5
2023-11-29T1200,2698A,76.0072,39.4467,喀什地区,巡警大队,颗粒物(PM10),166,281,242,99,87,15,,12,12,80,73,8,10,3.0,2.7
2023-11-29T1200,2699A,75.9755,39.4694,喀什地区,吾办,颗粒物(PM10),185,320,241,130,117,17,,12,12,83,83,10,8,2.9,2.8
2023-11-29T1200,4027A,75.9483,39.4689,喀什地区,老干局,颗粒物(PM10),500,652,326,283,158,12,,12,12,84,76,13,12,3.9,3.6
2023-11-29T1200,1824A,114.3389,34.7781,开封市,肿瘤医院,颗粒物(PM10),59,67,123,23,52,46,,25,25,19,47,3,6,0.3,0.6
2023-11-29T1200,1826A,114.2885,34.7965,开封市,世纪星幼儿园,颗粒物(PM10),52,53,102,20,48,48,,26,26,20,48,4,6,0.4,0.7
2023-11-29T1200,3147A,114.3438,34.8106,开封市,龙亭公园,颗粒物(PM10),56,62,111,12,48,53,,29,29,23,52,2,5,0.3,0.7
2023-11-29T1200,3210A,114.3644,34.7964,开封市,汴京公园,颗粒物(PM10),51,51,110,15,53,48,,25,25,22,47,5,7,0.5,0.6
2023-11-29T1200,3473A,114.2485,34.8306,开封市,技师学院,颗粒物(PM10),51,52,102,11,43,54,,30,30,12,40,5,8,0.7,0.9
2023-11-29T1200,3592A,114.4644,34.7556,开封市,祥符区生态环境局,颗粒物(PM10),53,55,125,14,57,48,,25,25,28,55,16,6,0.9,0.6
2023-11-29T1200,1951A,84.895,45.6094,克拉玛依市,长征新村,,25,17,25,17,11,16,,11,11,19,25,10,10,0.4,0.4
2023-11-29T1200,1952A,84.8988,45.5893,克拉玛依市,南林小区,,28,,28,19,16,16,,12,12,17,21,4,3,0.4,0.3
2023-11-29T1200,1954A,84.905,44.3396,克拉玛依市,独山子区,,,32,59,32,47,10,,10,6,25,25,4,5,,0.8
2023-11-29T1200,1955A,85.6979,46.098,克拉玛依市,乌尔禾区商贸楼,,11,11,22,3,10,13,,22,19,21,18,7,8,0.7,0.6
2023-11-29T1200,3612A,85.1045,45.6899,克拉玛依市,白碱滩区新站,,,15,19,15,14,,,11,11,,28,,8,,0.4
2023-11-29T1200,2697A,76.1454,39.7142,克孜勒苏柯尔克孜自治州,市人民政府,颗粒物(PM10),89,127,143,56,64,57,,57,57,19,26,4,5,1.0,1
2023-11-29T1200,3665A,76.1658,39.7157,克孜勒苏柯尔克孜自治州,克州文化中心,颗粒物(PM10),95,139,151,60,66,69,,72,69,22,29,7,8,1.0,1.1
2023-11-29T1200,1450A,102.8204,24.8886,昆明市,呈贡新区,,29,22,39,20,32,73,,55,55,8,17,7,9,0.7,0.8
2023-11-29T1200,1451A,102.6251,24.9608,昆明市,西山森林公园,细颗粒物(PM2.5),55,,33,39,23,71,,62,58,19,15,9,8,0.9,0.7
2023-11-29T1200,1453A,102.7266,25.0375,昆明市,东风东路,,42,37,51,29,34,67,,42,41,19,25,9,11,0.8,0.8
2023-11-29T1200,1454A,102.6742,25.0669,昆明市,金鼎山,,39,39,49,24,32,68,,36,29,22,30,4,4,0.7,0.7
2023-11-29T1200,1455A,102.6644,25.0401,昆明市,碧鸡广场,,42,42,50,29,34,57,,33,31,25,30,12,11,1.0,0.8
2023-11-29T1200,3179A,102.7494,25.0119,昆明市,官渡区博物馆,,,24,42,18,30,,,34,31,12,19,8,9,,0.8
2023-11-29T1200,3375A,102.8017,24.8336,昆明市,青年创业园,,,28,44,23,31,78,,44,41,,20,,14,0.4,0.6
2023-11-29T1200,3550A,102.7997,24.9786,昆明市,昆明学院,,35,34,46,24,31,70,,50,50,10,15,9,10,0.4,0.4
2023-11-29T1200,3551A,102.5967,24.6736,昆明市,晋宁区生态环境分局,,,15,40,9,31,,,42,34,4,15,3,3,0.3,0.7
2023-11-29T1200,3552A,102.6678,24.9856,昆明市,云天化总部,,36,35,55,25,33,68,,29,29,14,23,8,8,0.9,0.8
2023-11-29T1200,1456A,91.1319,29.6514,拉萨市,八廓街,,33,33,42,12,23,65,,33,33,15,28,6,5,1.1,1.3
2023-11-29T1200,1457A,91.1221,29.6747,拉萨市,市环保局,颗粒物(PM10),57,63,74,37,37,56,,15,15,29,41,8,9,0.9,1.6
2023-11-29T1200,1458A,91.0874,29.6475,拉萨市,区监测站,,,43,39,25,20,60,,23,23,30,48,,11,0.8,1.2
2023-11-29T1200,1459A,91.1774,29.6541,拉萨市,西藏大学,,26,26,37,10,18,65,,41,41,13,24,10,9,0.6,0.9
2023-11-29T1200,1460A,90.9798,29.6588,拉萨市,区辐射站,,34,34,37,10,20,58,,37,37,32,41,7,8,0.6,0.7
2023-11-29T1200,1461A,91.0834,29.6292,拉萨市,拉萨火车站,,43,43,30,20,15,57,,32,24,33,37,6,5,0.8,1.2
2023-11-29T1200,2520A,109.2203,23.7256,来宾市,来宾技工学校,细颗粒物(PM2.5),87,99,89,64,49,78,,25,25,30,31,17,27,1.0,0.8
2023-11-29T1200,3535A,109.1781,23.7297,来宾市,兴宾区政府,细颗粒物(PM2.5),72,77,66,52,43,82,,42,42,29,16,16,10,0.9,0.7
2023-11-29T1200,4002A,109.2416,23.7461,来宾市,中南小学,细颗粒物(PM2.5),79,96,80,58,44,78,,21,21,24,37,15,12,0.9,0.8
2023-11-29T1200,1476A,103.631,36.1031,兰州市,兰炼宾馆,,42,42,73,17,38,53,,62,58,28,48,11,17,0.5,0.8
2023-11-29T1200,1478A,103.8412,36.0726,兰州市,生物制品所,颗粒物(PM10),51,51,62,20,36,60,,42,42,16,41,12,12,0.7,0.8
2023-11-29T1200,1479A,103.831,36.0464,兰州市,铁路设计院,,41,41,52,21,32,54,,70,57,35,49,15,15,0.7,0.8
2023-11-29T1200,3186A,103.7158,36.1058,兰州市,教育港,,30,30,62,13,32,63,,64,56,18,46,16,22,0.4,0.7
2023-11-29T1200,3241A,103.7439,36.0842,兰州市,百合公园,,43,43,65,13,27,59,,55,46,21,48,10,13,0.5,0.8
2023-11-29T1200,3242A,103.9611,35.998,兰州市,和平,颗粒物(PM10),51,52,78,21,40,58,,51,50,19,45,16,18,0.7,0.9
2023-11-29T1200,3245A,103.6633,36.533,兰州新区,新区管委会,,40,40,54,13,25,67,,65,63,10,15,5,14,0.4,0.5
2023-11-29T1200,3246A,103.6975,36.4789,兰州新区,舟曲中学,,,49,54,13,21,,,64,56,8,21,9,9,0.4,0.2
2023-11-29T1200,1067A,116.6708,39.5111,廊坊市,药材公司,,20,19,47,3,17,64,,55,55,5,30,3,3,0.4,0.5
2023-11-29T1200,1068A,116.7214,39.5589,廊坊市,开发区,,24,24,34,1,13,66,,54,54,3,26,4,4,0.2,0.3
2023-11-29T1200,1070A,116.7244,39.5269,廊坊市,北华航天学院,,27,27,48,1,13,64,,56,56,7,34,7,7,0.3,0.4
2023-11-29T1200,2919A,116.7022,39.5453,廊坊市,河北工业大学,,,,49,,18,62,,52,52,,31,7,8,0.3,0.4
2023-11-29T1200,2535A,103.7723,29.5462,乐山市,花湖湾,细颗粒物(PM2.5),109,143,117,82,75,22,,20,14,51,39,8,6,1.1,0.8
2023-11-29T1200,2536A,103.7627,29.5844,乐山市,牛耳桥,细颗粒物(PM2.5),93,95,96,69,71,45,,13,13,41,53,14,6,1.3,1
2023-11-29T1200,2537A,103.7508,29.6006,乐山市,市第三水厂,细颗粒物(PM2.5),90,109,109,67,70,61,,19,19,34,56,11,9,0.9,0.9
2023-11-29T1200,2538A,103.7571,29.5664,乐山市,市监测站,细颗粒物(PM2.5),94,103,97,70,65,31,,29,20,51,45,14,8,1.1,0.8
2023-11-29T1200,3361A,103.7311,29.5628,乐山市,理工大学,细颗粒物(PM2.5),108,117,104,81,71,21,,16,15,48,38,20,9,1.6,1
2023-11-29T1200,2598A,100.2143,26.8576,丽江市,西南郊,,24,11,19,5,7,76,,64,64,8,13,4,5,0.8,0.8
2023-11-29T1200,2599A,100.2497,26.8802,丽江市,丽江古城,,40,40,36,20,20,75,,68,65,20,20,8,10,0.7,0.6
2023-11-29T1200,2600A,100.2203,26.8906,丽江市,市中心,,22,21,20,2,7,70,,62,56,9,13,7,7,0.5,0.5
2023-11-29T1200,1267A,119.914,28.4514,丽水市,监测站大楼,颗粒物(PM10),60,69,68,26,33,79,,36,36,29,35,9,8,0.7,0.8
2023-11-29T1200,1268A,119.93,28.4586,丽水市,莲都小学,,,70,78,52,33,89,,39,39,22,40,7,7,,0.6
2023-11-29T1200,1269A,119.879,28.4231,丽水市,余庄前,颗粒物(PM10),53,56,51,31,34,74,,27,27,33,24,6,6,0.4,0.4
2023-11-29T1200,1173A,119.176,34.5885,连云港市,市环境监测站,颗粒物(PM10),82,114,65,17,24,51,,60,45,25,27,14,11,1.1,0.8
2023-11-29T1200,3000A,119.3581,34.6972,连云港市,德源药业,颗粒物(PM10),53,56,56,14,19,55,,52,50,22,33,8,6,0.6,0.7
2023-11-29T1200,3007A,119.178,34.844,连云港市,新城一中,颗粒物(PM10),54,57,53,21,26,44,,40,30,35,45,11,13,0.6,1
2023-11-29T1200,3008A,119.3608,34.7519,连云港市,胡沟管理处,,,46,49,12,15,57,,49,49,,38,,11,1.0,0.9
2023-11-29T1200,3009A,119.1478,34.5911,连云港市,矿山设计院,颗粒物(PM10),87,124,73,22,25,49,,55,39,26,30,12,8,1.0,0.6
2023-11-29T1200,3434A,119.2413,34.6539,连云港市,工贸学校,,50,50,50,14,23,61,,74,64,20,22,11,11,0.6,0.7
2023-11-29T1200,3664A,119.4172,34.7341,连云港市,连云街道,,,50,43,15,18,45,,74,59,,19,6,5,0.4,0.4
2023-11-29T1200,2571A,102.3431,27.8099,凉山彝族自治州,青龙寺,,35,28,25,24,30,70,,45,43,12,12,12,12,0.8,0.9
2023-11-29T1200,2572A,102.2721,27.8415,凉山彝族自治州,邛海宾馆,,,,44,21,28,75,,35,35,10,23,16,15,0.8,0.8
2023-11-29T1200,2573A,102.2625,27.898,凉山彝族自治州,西昌市政府,颗粒物(PM10),56,61,48,38,30,47,,43,29,28,21,21,16,1.0,1
2023-11-29T1200,2574A,102.2685,27.8851,凉山彝族自治州,凉山州政府,颗粒物(PM10),52,54,50,33,33,41,,29,29,32,25,20,15,0.8,0.9
2023-11-29T1200,2575A,102.237,27.8914,凉山彝族自治州,长安,颗粒物(PM10),57,63,51,39,31,47,,31,20,30,29,21,18,0.8,0.9
2023-11-29T1200,2212A,123.2,41.1953,辽阳市,宏伟区,,27,27,47,18,35,67,,46,46,7,32,10,14,0.1,0.5
2023-11-29T1200,2213A,123.1683,41.2495,辽阳市,新华园,,31,31,40,18,31,64,,41,41,5,36,10,22,0.6,1.1
2023-11-29T1200,2214A,123.2354,41.2639,辽阳市,滨河路,,,19,37,,28,63,,50,50,,34,8,11,,0.7
2023-11-29T1200,2215A,123.149,41.2991,辽阳市,铁西工业园,,22,16,58,15,61,69,,40,40,8,40,10,13,0.6,1.1
2023-11-29T1200,2227A,125.1358,42.8845,辽源市,环保局,,24,12,18,5,11,74,,68,68,4,11,7,8,0.4,0.5
2023-11-29T1200,3239A,125.0764,42.9078,辽源市,银鹰制药,,23,13,20,12,14,72,,66,66,7,14,5,11,0.3,0.5
2023-11-29T1200,1625A,115.9848,36.4372,聊城市,区政府,,33,33,82,7,30,69,,45,45,12,42,2,7,0.2,0.5
2023-11-29T1200,2878A,116.0072,36.4343,聊城市,聊大东校,,24,24,71,7,32,70,,47,47,4,37,6,8,0.2,0.4
2023-11-29T1200,3200A,115.9819,36.4978,聊城市,监控中心,,,24,78,0,29,68,,40,40,1,40,3,7,,0.3
2023-11-29T1200,3513A,116.0445,36.4361,聊城市,九州社区,,30,30,71,1,25,69,,46,46,12,41,12,13,0.4,0.5
2023-11-29T1200,4018A,116.0567,36.4608,聊城市,星美广场,,35,35,82,5,27,68,,43,43,11,44,6,9,0.4,0.5
2023-11-29T1200,2632A,94.3681,29.6376,林芝市,林芝监测站,,22,22,11,12,5,62,,54,47,7,7,6,6,0.3,0.3
2023-11-29T1200,2633A,94.3616,29.6616,林芝市,林芝人民医院,,18,16,13,7,7,57,,56,48,14,8,7,7,0.7,0.6
2023-11-29T1200,2603A,100.0781,23.8982,临沧市,市环保局,,28,28,26,11,20,59,,19,19,11,11,6,4,0.4,0.4
2023-11-29T1200,2604A,100.0894,23.8822,临沧市,市气象局,,,41,35,26,26,56,,16,16,,16,4,4,0.4,0.4
2023-11-29T1200,1733A,111.5531,36.0783,临汾市,临钢医院,,,4,87,,19,66,,49,49,5,29,2,5,,0.5
2023-11-29T1200,1734A,111.5028,36.0714,临汾市,技工学校,,25,25,86,2,29,71,,51,51,8,36,2,6,0.6,0.8
2023-11-29T1200,1736A,111.5018,36.0855,临汾市,市委,,37,37,90,0,20,57,,39,39,5,33,3,7,0.3,0.6
2023-11-29T1200,3018A,111.505,36.1014,临汾市,唐尧大酒店,,34,34,87,3,25,66,,47,47,6,31,2,6,0.4,0.6
2023-11-29T1200,3668A,111.5036,36.0414,临汾市,城南,颗粒物(PM10),59,68,98,7,28,70,,42,42,7,34,2,5,0.3,0.6
2023-11-29T1200,2667A,103.2069,35.5993,临夏回族自治州,环保局,,45,45,94,27,50,62,,34,26,20,37,20,19,0.7,1
2023-11-29T1200,2668A,103.2417,35.6057,临夏回族自治州,建设大厦,颗粒物(PM10),55,59,101,38,62,56,,23,23,14,39,14,13,0.6,1.1
2023-11-29T1200,1618A,118.3429,35.0532,临沂市,沂河小区,颗粒物(PM10),60,70,78,29,42,48,,32,32,33,49,11,10,0.6,0.7
2023-11-29T1200,1619A,118.295,35.0583,临沂市,鲁南制药厂,颗粒物(PM10),62,73,77,30,44,53,,30,30,28,45,15,14,0.5,0.6
2023-11-29T1200,1620A,118.2794,34.9976,临沂市,新光毛纺厂,颗粒物(PM10),63,75,81,26,41,45,,26,26,24,41,12,13,0.8,0.9
2023-11-29T1200,1621A,118.3956,35.0888,临沂市,河东保险公司,颗粒物(PM10),63,75,77,23,40,44,,24,24,26,46,9,9,0.6,0.7
2023-11-29T1200,3370A,118.3564,35.0215,临沂市,十里堡居委,,,68,76,29,36,46,,25,25,31,46,,6,,0.8
2023-11-29T1200,3496A,118.3604,35.1084,临沂市,南坊新区,颗粒物(PM10),62,73,77,29,37,40,,23,23,29,48,13,12,0.9,1
2023-11-29T1200,3860A,118.3920,35.0300,临沂市,皇山花园小区,颗粒物(PM10),73,95,84,26,37,44,,23,23,25,44,10,11,0.4,0.5
2023-11-29T1200,1870A,109.4856,24.3895,柳州市,柳东小学,细颗粒物(PM2.5),88,80,73,65,55,94,,34,34,24,26,23,22,0.7,0.8
2023-11-29T1200,1871A,109.4157,24.3277,柳州市,环保监测站,细颗粒物(PM2.5),83,101,92,61,59,83,,25,25,40,52,12,13,0.8,1.1
2023-11-29T1200,1872A,109.389,24.341,柳州市,河西水厂,颗粒物(PM10),86,121,126,63,60,77,,18,18,38,57,13,19,1.2,1.7
2023-11-29T1200,1873A,109.4311,24.2921,柳州市,市四中,细颗粒物(PM2.5),73,94,93,53,54,94,,25,25,34,55,13,13,0.8,1.1
2023-11-29T1200,1874A,109.4006,24.3631,柳州市,市九中,细颗粒物(PM2.5),78,93,103,57,59,88,,29,29,27,49,12,13,0.9,1.3
2023-11-29T1200,1875A,109.4958,24.3134,柳州市,古亭山,细颗粒物(PM2.5),84,88,63,62,42,65,,19,19,36,42,21,15,0.5,0.4
2023-11-29T1200,3402A,109.5422,24.3996,柳州市,市二中,细颗粒物(PM2.5),82,87,83,60,55,98,,31,31,28,37,25,24,0.6,0.6
2023-11-29T1200,2307A,116.5079,31.737,六安市,监测大楼,细颗粒物(PM2.5),117,137,122,88,70,67,,39,38,31,33,9,7,0.9,0.9
2023-11-29T1200,2308A,116.4738,31.7643,六安市,皖西学院,颗粒物(PM10),100,150,134,70,60,73,,35,34,26,30,9,7,0.7,0.7
2023-11-29T1200,2309A,116.4996,31.7905,六安市,朝阳厂,细颗粒物(PM2.5),112,133,122,84,68,68,,39,37,28,30,10,8,0.8,0.8
2023-11-29T1200,2310A,116.5567,31.7886,六安市,开发区,颗粒物(PM10),111,171,151,78,71,61,,29,28,34,42,10,14,0.8,0.8
2023-11-29T1200,2576A,104.8,26.5892,六盘水市,窑上,细颗粒物(PM2.5),57,54,55,40,36,82,,78,67,8,8,3,3,0.7,0.6
2023-11-29T1200,2577A,104.83,26.5917,六盘水市,黄土坡,细颗粒物(PM2.5),62,56,44,44,29,75,,69,61,14,15,11,10,0.6,0.5
2023-11-29T1200,2578A,104.89,26.5939,六盘水市,水钢,细颗粒物(PM2.5),77,68,47,56,32,64,,82,63,23,12,8,5,1.1,0.7
2023-11-29T1200,2579A,104.8475,26.5894,六盘水市,民中,细颗粒物(PM2.5),58,54,40,41,30,72,,75,63,12,13,9,9,0.6,0.6
2023-11-29T1200,2580A,104.9544,26.5506,六盘水市,双水,细颗粒物(PM2.5),65,48,37,47,27,79,,69,58,10,10,9,7,0.7,0.6
2023-11-29T1200,2336A,117.0217,25.1033,龙岩市,龙岩市监测站,颗粒物(PM10),52,53,45,27,36,105,,79,79,16,29,9,9,0.6,0.7
2023-11-29T1200,2337A,117.0258,25.0661,龙岩市,闽西职业技术学院,,49,49,54,28,27,102,,47,47,16,31,7,5,0.6,0.7
2023-11-29T1200,2338A,117.0196,25.0306,龙岩市,龙岩学院,颗粒物(PM10),56,62,46,24,27,89,,45,45,21,20,6,5,0.5,0.5
2023-11-29T1200,2885A,104.9339,33.3826,陇南市,滨江中学,颗粒物(PM10),68,85,104,33,43,38,,12,12,40,57,28,32,1.2,2.1
2023-11-29T1200,3247A,104.955,33.371,陇南市,市总工会,颗粒物(PM10),62,73,74,40,31,43,,36,31,45,40,24,14,0.8,0.6
2023-11-29T1200,2487A,111.9589,27.8901,娄底市,电视发射台,颗粒物(PM10),57,64,67,38,41,67,,40,40,15,24,13,10,1.0,1.4
2023-11-29T1200,2488A,111.9975,27.725,娄底市,市监测站,细颗粒物(PM2.5),78,87,107,57,74,92,,26,26,25,50,27,15,0.7,1.2
2023-11-29T1200,2489A,112.0194,27.7314,娄底市,市委党校,,,84,98,55,70,81,,27,27,20,43,,7,1.0,1.2
2023-11-29T1200,2490A,111.9561,27.7569,娄底市,涟钢,细颗粒物(PM2.5),92,115,118,68,76,64,,20,20,47,47,27,16,1.2,1.6
2023-11-29T1200,2491A,111.9892,27.7044,娄底市,市政府,细颗粒物(PM2.5),97,85,102,72,73,75,,20,20,24,32,20,10,1.0,1.1
2023-11-29T1200,1893A,105.4324,28.9634,泸州市,九狮山,细颗粒物(PM2.5),59,50,67,42,48,72,,34,32,16,19,12,8,0.7,0.5
2023-11-29T1200,1894A,105.4427,28.9063,泸州市,小市上码头,,,88,83,51,58,59,,43,40,,20,14,8,0.7,0.6
2023-11-29T1200,1895A,105.4241,28.8573,泸州市,兰田宪桥,细颗粒物(PM2.5),77,83,79,56,59,58,,42,40,16,18,12,10,0.7,0.7
2023-11-29T1200,1896A,105.4379,28.8833,泸州市,市环监站,"颗粒物(PM10),细颗粒物(PM2.5)",64,78,78,46,52,54,,40,36,22,25,9,6,0.6,0.5
2023-11-29T1200,3490A,105.3617,28.7703,泸州市,纳溪区环保局,细颗粒物(PM2.5),77,83,82,56,57,65,,36,29,20,24,13,8,1.0,0.9
2023-11-29T1200,2183A,111.1406,37.5211,吕梁市,环保局,,43,43,66,6,13,67,,53,53,8,28,4,5,0.3,0.5
2023-11-29T1200,2185A,111.1297,37.5136,吕梁市,自来水公司,,37,37,63,7,16,70,,56,56,8,23,4,7,0.2,0.4
2023-11-29T1200,2867A,111.1283,37.51,吕梁市,马茂庄小学,,,49,68,7,17,69,,54,54,,29,,3,0.3,0.4
2023-11-29T1200,1812A,112.3931,34.6516,洛阳市,市委党校,颗粒物(PM10),77,104,128,45,73,42,,14,14,24,56,10,11,0.6,0.8
2023-11-29T1200,1814A,112.4657,34.6871,洛阳市,豫西宾馆,,,,149,,68,44,,10,10,24,54,8,7,,1
2023-11-29T1200,1815A,112.494,34.6886,洛阳市,河南林校,,,99,127,40,63,,,20,11,23,51,6,5,0.5,0.7
2023-11-29T1200,1816A,112.3844,34.623,洛阳市,开发区管委会,颗粒物(PM10),76,102,115,47,63,44,,14,14,23,48,8,5,0.7,0.7
2023-11-29T1200,1817A,112.4267,34.6258,洛阳市,市委新办公区,颗粒物(PM10),77,103,125,45,68,44,,16,16,24,56,7,4,0.7,0.8
2023-11-29T1200,3340A,112.6005,34.6326,洛阳市,伊滨,,,99,147,42,74,,,15,15,25,47,10,4,0.8,0.9
2023-11-29T1200,3341A,112.4951,34.6332,洛阳市,中移产业园,颗粒物(PM10),75,99,130,28,66,47,,15,15,22,52,11,8,0.7,0.9
2023-11-29T1200,3593A,112.5736,34.8993,洛阳市,吉利监测站,颗粒物(PM10),72,94,115,34,63,44,,16,16,22,50,8,6,0.5,0.8
2023-11-29T1200,3635A,112.3677,34.662,洛阳市,河科大西苑校区,颗粒物(PM10),80,109,142,45,71,44,,15,15,24,53,4,7,0.6,0.7
2023-11-29T1200,3636A,112.4388,34.6781,洛阳市,英才小学,,,100,136,25,63,43,,12,12,,54,8,7,,0.7
2023-11-29T1200,2399A,114.051,33.5699,漯河市,三五一五工厂,颗粒物(PM10),77,103,145,40,76,42,,22,22,29,44,11,9,0.5,0.6
2023-11-29T1200,2400A,114.0055,33.5698,漯河市,漯河大学,颗粒物(PM10),80,109,144,34,63,46,,26,26,26,42,9,8,0.5,0.7
2023-11-29T1200,2401A,114.0138,33.5828,漯河市,市水利局,颗粒物(PM10),79,107,144,39,65,44,,24,24,20,35,11,9,0.5,0.7
2023-11-29T1200,2402A,114.0261,33.5698,漯河市,市广电局,颗粒物(PM10),80,110,148,41,72,44,,23,23,23,39,7,5,0.4,0.5
2023-11-29T1200,3478A,113.9749,33.5664,漯河市,市图书馆,颗粒物(PM10),73,96,138,39,69,41,,22,22,24,39,8,6,0.7,0.8
2023-11-29T1200,3479A,114.0967,33.5906,漯河市,召陵区卫健委,颗粒物(PM10),68,85,127,40,73,42,,21,21,24,43,8,7,0.5,0.7
2023-11-29T1200,1798A,118.5092,31.6837,马鞍山市,湖东路四小,,,,96,,63,72,,36,32,43,26,28,13,,1.1
2023-11-29T1200,1799A,118.5024,31.6449,马鞍山市,开发区,细颗粒物(PM2.5),123,111,110,93,79,76,,28,28,42,46,,14,1.9,0.9
2023-11-29T1200,1800A,118.5228,31.7231,马鞍山市,慈湖,细颗粒物(PM2.5),122,110,117,92,80,76,,30,24,47,54,17,13,1.2,1.1
2023-11-29T1200,1802A,118.6245,31.7241,马鞍山市,濮塘,颗粒物(PM10),93,136,117,62,60,80,,41,41,34,28,13,8,1.0,0.8
2023-11-29T1200,3633A,118.4918,31.6809,马鞍山市,雨山,细颗粒物(PM2.5),124,141,132,94,71,77,,40,34,47,40,39,16,2.2,1
2023-11-29T1200,1686A,111.0286,21.4688,茂名市,电白南海,细颗粒物(PM2.5),70,85,68,51,36,93,,97,90,18,17,11,12,0.9,0.8
2023-11-29T1200,1687A,110.9294,21.6533,茂名市,茂石化七小,细颗粒物(PM2.5),83,85,66,61,45,62,,98,73,34,22,32,14,1.6,0.9
2023-11-29T1200,1688A,110.9107,21.6687,茂名市,健康路,细颗粒物(PM2.5),67,75,60,48,39,76,,96,73,26,19,21,19,2.1,0.7
2023-11-29T1200,1689A,110.8592,21.6828,茂名市,高岭,细颗粒物(PM2.5),85,80,85,63,52,62,,75,60,27,25,42,23,0.9,0.8
2023-11-29T1200,3450A,111.01,21.5165,茂名市,电白水东,细颗粒物(PM2.5),64,68,59,46,35,92,,102,94,23,20,9,9,0.7,0.6
2023-11-29T1200,2539A,104.0308,30.0478,眉山市,黑龙滩水库,细颗粒物(PM2.5),79,88,83,58,47,46,,14,14,15,19,14,11,0.5,0.5
2023-11-29T1200,2540A,103.8416,30.0874,眉山市,气象局,细颗粒物(PM2.5),110,95,105,83,78,55,,17,17,38,55,11,12,0.7,0.8
2023-11-29T1200,3137A,103.8578,30.0744,眉山市,市委党校,细颗粒物(PM2.5),110,127,112,83,76,33,,15,15,70,63,12,12,0.6,0.6
2023-11-29T1200,3148A,103.8291,30.0564,眉山市,区人社局,细颗粒物(PM2.5),104,,91,78,78,44,,21,18,53,56,14,19,0.9,0.9
2023-11-29T1200,1690A,116.1231,24.3284,梅州市,梅江月梅,颗粒物(PM10),52,53,46,30,26,81,,34,34,20,34,20,13,0.5,0.5
2023-11-29T1200,1691A,116.0797,24.2719,梅州市,梅县新城,颗粒物(PM10),58,66,57,28,30,80,,40,40,23,37,20,9,0.7,0.8
2023-11-29T1200,1692A,116.1248,24.2654,梅州市,环境监控中心,颗粒物(PM10),58,66,53,29,31,77,,59,59,24,38,9,9,0.6,0.6
2023-11-29T1200,3315A,116.1233,24.2991,梅州市,梅龙,颗粒物(PM10),51,51,47,29,28,79,,46,46,18,27,19,8,0.6,0.7
2023-11-29T1200,1878A,104.7778,31.4741,绵阳市,富乐山,颗粒物(PM10),60,70,61,40,40,6,,7,6,51,30,8,8,0.9,0.7
2023-11-29T1200,1879A,104.7563,31.4535,绵阳市,市人大,颗粒物(PM10),64,77,74,40,45,9,,7,5,53,44,8,9,0.8,0.6
2023-11-29T1200,1880A,104.6697,31.4668,绵阳市,高新区自来水公司,颗粒物(PM10),90,130,97,52,44,4,,3,3,50,44,10,9,0.9,0.6
2023-11-29T1200,1881A,104.7287,31.5075,绵阳市,三水厂,颗粒物(PM10),79,108,88,53,52,4,,1,1,53,45,8,6,0.9,0.8
2023-11-29T1200,3491A,104.69,31.5322,绵阳市,西科大附属小学,颗粒物(PM10),59,68,74,38,43,17,,15,12,41,41,9,9,0.5,0.5
2023-11-29T1200,3492A,104.5648,31.5343,绵阳市,安州区旅游局,颗粒物(PM10),69,88,80,41,46,10,,11,7,53,39,12,11,0.7,0.8
2023-11-29T1200,1784A,129.61,44.561,牡丹江市,环保大楼,,41,41,37,26,31,66,,36,36,11,25,7,7,0.3,0.4
2023-11-29T1200,1785A,129.6115,44.5782,牡丹江市,文化广场,,,36,47,27,36,,,21,19,8,29,10,11,0.3,0.6
2023-11-29T1200,1786A,129.5904,44.5963,牡丹江市,第一医院,,48,48,45,20,42,64,,32,32,7,28,7,8,0.3,0.6
2023-11-29T1200,1787A,129.6364,44.6075,牡丹江市,机车工厂,,40,,52,28,39,63,,27,27,6,30,7,8,0.3,0.6
2023-11-29T1200,1788A,129.6386,44.5462,牡丹江市,第一中学,,40,,37,28,32,65,,32,32,6,20,7,8,0.2,0.4
2023-11-29T1200,2531A,105.0703,29.61,内江市,市监测站,细颗粒物(PM2.5),64,59,60,46,49,50,,52,44,36,36,6,5,0.6,0.6
2023-11-29T1200,2532A,105.0717,29.5947,内江市,东兴区政府,细颗粒物(PM2.5),54,53,53,38,42,62,,56,48,24,27,10,11,0.5,0.5
2023-11-29T1200,2533A,105.0653,29.5817,内江市,内江二中,细颗粒物(PM2.5),65,71,63,47,58,65,,52,50,26,28,7,8,0.5,0.5
2023-11-29T1200,2534A,105.0406,29.5822,内江市,内江日报社,细颗粒物(PM2.5),59,60,60,42,42,66,,54,52,25,29,7,7,0.5,0.6
2023-11-29T1200,1290A,115.8931,28.6843,南昌市,省外办,细颗粒物(PM2.5),100,138,120,75,69,44,,9,9,73,68,20,9,1.3,1.1
2023-11-29T1200,1291A,115.8886,28.7003,南昌市,省林业公司,,,119,107,63,55,50,,12,12,,88,15,8,1.2,0.9
2023-11-29T1200,1292A,115.8126,28.7442,南昌市,林科所,颗粒物(PM10),80,110,73,56,39,75,,42,42,50,48,17,10,0.8,0.8
2023-11-29T1200,1294A,115.8518,28.687,南昌市,建工学校,颗粒物(PM10),124,198,110,55,56,46,,12,12,,73,24,14,,1.1
2023-11-29T1200,1295A,115.8921,28.6424,南昌市,象湖,细颗粒物(PM2.5),105,129,116,79,65,28,,9,9,104,76,19,11,1.4,1.5
2023-11-29T1200,1296A,115.7423,28.7996,南昌市,武术学校,,43,,34,30,17,91,,33,33,8,12,6,4,0.5,0.4
2023-11-29T1200,1298A,115.9314,28.6842,南昌市,省站,细颗粒物(PM2.5),98,138,129,73,65,42,,11,11,71,57,19,9,1.3,1.1
2023-11-29T1200,3046A,115.9084,28.6062,南昌市,机电学校,"颗粒物(PM10),细颗粒物(PM2.5)",100,149,133,75,68,40,,18,18,90,71,18,13,1.0,1.1
2023-11-29T1200,3690A,115.9721,28.7031,南昌市,外国语学校,颗粒物(PM10),89,128,106,65,59,50,,17,17,46,55,18,9,1.1,1
2023-11-29T1200,1905A,106.056,30.8064,南充市,西山风景区,,46,32,50,32,39,35,,60,56,30,32,4,4,0.5,0.5
2023-11-29T1200,1906A,106.0789,30.8023,南充市,南充市委,颗粒物(PM10),71,91,76,46,46,8,,23,10,51,34,6,6,0.8,0.7
2023-11-29T1200,1907A,106.1031,30.8217,南充市,南充炼油厂,"颗粒物(PM10),细颗粒物(PM2.5)",64,77,83,46,45,8,,40,22,44,29,7,6,0.7,0.7
2023-11-29T1200,1908A,106.1064,30.7856,南充市,高坪区监测站,细颗粒物(PM2.5),65,78,68,47,42,12,,22,14,48,33,10,7,0.6,0.5
2023-11-29T1200,1909A,106.0642,30.7636,南充市,嘉陵区环保局,细颗粒物(PM2.5),70,77,74,51,44,8,,20,6,44,35,19,11,0.7,0.5
2023-11-29T1200,1910A,106.1087,30.8388,南充市,市环境监测站,颗粒物(PM10),68,85,73,45,44,14,,44,33,40,24,7,6,0.6,0.5
2023-11-29T1200,1151A,118.8086,32.1065,南京市,迈皋桥,细颗粒物(PM2.5),100,137,129,75,66,72,,35,30,52,43,21,7,1.2,0.7
2023-11-29T1200,1152A,118.7538,32.0551,南京市,草场门,,,134,126,73,68,68,,27,25,51,53,,5,,0.6
2023-11-29T1200,1153A,118.7794,32.0745,南京市,山西路,细颗粒物(PM2.5),125,153,139,95,59,69,,39,31,42,33,,8,1.0,0.9
2023-11-29T1200,1154A,118.7752,32.0023,南京市,中华门,细颗粒物(PM2.5),107,141,134,80,74,72,,29,29,40,41,9,5,1.1,0.8
2023-11-29T1200,1155A,118.8109,32.0309,南京市,瑞金路,细颗粒物(PM2.5),113,173,138,85,70,63,,26,26,61,52,22,10,1.3,0.7
2023-11-29T1200,1156A,118.7997,32.0754,南京市,玄武湖,细颗粒物(PM2.5),120,163,120,91,74,53,,32,26,50,33,20,10,1.4,0.8
2023-11-29T1200,1157A,118.6414,32.0931,南京市,浦口,颗粒物(PM10),108,166,138,79,70,74,,46,44,38,44,10,7,1.1,1.1
2023-11-29T1200,1158A,118.7356,31.9996,南京市,奥体中心,,,147,139,73,74,,,29,16,46,48,10,7,0.6,0.6
2023-11-29T1200,1159A,118.9125,32.1028,南京市,仙林大学城,细颗粒物(PM2.5),122,156,134,92,80,74,,30,30,58,46,20,9,1.1,1
2023-11-29T1200,3422A,118.8436,31.9198,南京市,江宁彩虹桥,细颗粒物(PM2.5),107,159,154,80,77,79,,28,28,50,47,14,7,1.5,1.1
2023-11-29T1200,3423A,119.0138,31.6494,南京市,溧水永阳,细颗粒物(PM2.5),102,141,138,76,82,,,24,18,53,45,15,9,1.3,1
2023-11-29T1200,3424A,118.879,31.3302,南京市,高淳老职中,细颗粒物(PM2.5),73,,108,53,76,59,,36,36,53,41,13,10,0.8,0.4
2023-11-29T1200,3427A,118.8554,32.3578,南京市,六合雄州,细颗粒物(PM2.5),92,125,118,68,65,65,,24,24,31,45,1,2,0.8,0.8
2023-11-29T1200,1401A,108.3103,22.7881,南宁市,二十一中,细颗粒物(PM2.5),67,73,73,48,51,113,,70,70,25,26,11,10,1.0,1
2023-11-29T1200,1402A,108.3141,22.8528,南宁市,北湖,细颗粒物(PM2.5),78,71,83,57,56,108,,44,44,22,34,14,12,1.0,0.9
2023-11-29T1200,1403A,108.3206,22.8225,南宁市,市监测站,细颗粒物(PM2.5),72,89,75,52,53,95,,62,62,45,34,14,13,1.1,1
2023-11-29T1200,1404A,108.3829,22.8037,南宁市,大自然花园,细颗粒物(PM2.5),68,77,69,49,52,115,,61,61,24,26,11,9,0.9,0.9
2023-11-29T1200,1405A,108.4394,22.7904,南宁市,仙葫,细颗粒物(PM2.5),78,87,78,57,54,112,,45,45,30,38,10,9,0.9,0.8
2023-11-29T1200,1406A,108.2397,22.8467,南宁市,区农职院,细颗粒物(PM2.5),80,104,86,59,53,92,,32,32,45,43,15,13,1.1,0.9
2023-11-29T1200,1407A,108.3275,22.735,南宁市,英华嘉园,细颗粒物(PM2.5),68,83,85,49,54,98,,43,43,31,45,11,10,0.8,0.8
2023-11-29T1200,1408A,108.2257,22.7757,南宁市,沙井镇街道办,细颗粒物(PM2.5),73,92,115,53,58,100,,27,27,37,66,11,10,1.0,1
2023-11-29T1200,3401A,108.4834,22.7618,南宁市,红星社区,细颗粒物(PM2.5),83,80,83,61,53,104,,29,29,29,39,12,9,0.9,0.9
2023-11-29T1200,2332A,118.1681,26.6369,南平市,南平市监测站,,40,40,43,20,29,88,,51,51,15,24,5,5,0.8,1
2023-11-29T1200,2333A,118.1825,26.6489,南平市,南平铝业有限公司,颗粒物(PM10),53,55,51,19,27,93,,43,43,14,26,6,7,0.5,0.7
2023-11-29T1200,2334A,118.1756,26.6272,南平市,南平七中,颗粒物(PM10),52,53,46,19,25,87,,54,54,16,25,6,6,0.5,0.6
2023-11-29T1200,1168A,120.9098,31.9663,南通市,狼山街道,细颗粒物(PM2.5),95,129,95,71,51,74,,42,42,66,36,17,9,1.1,0.7
2023-11-29T1200,1169A,120.86,32.0005,南通市,虹桥,细颗粒物(PM2.5),109,139,99,82,54,64,,47,47,79,44,22,7,1.7,0.8
2023-11-29T1200,1170A,120.87,32.02,南通市,城中,细颗粒物(PM2.5),95,113,83,71,45,70,,40,40,59,37,20,9,1.3,0.7
2023-11-29T1200,1171A,120.94,31.93,南通市,星湖花园,,,131,103,73,51,67,,44,43,72,38,,7,,0.6
2023-11-29T1200,1172A,120.81,32.0417,南通市,紫琅学院,细颗粒物(PM2.5),102,140,100,76,44,72,,35,35,57,42,15,9,1.0,0.6
2023-11-29T1200,3291A,121.067,32.062,南通市,通州监测站,细颗粒物(PM2.5),94,134,97,70,46,86,,52,52,51,27,20,8,1.3,0.5
2023-11-29T1200,3432A,120.9348,31.9883,南通市,环境教育馆,细颗粒物(PM2.5),87,107,76,64,43,71,,32,32,65,40,20,8,1.2,0.5
2023-11-29T1200,2404A,112.5224,33.0122,南阳市,瓦房庄,颗粒物(PM10),79,107,103,55,53,36,,34,34,36,48,8,8,0.7,0.7
2023-11-29T1200,2405A,112.5003,32.9735,南阳市,汉画馆,,,123,111,52,49,,,33,33,30,41,7,6,0.5,0.6
2023-11-29T1200,2406A,112.5573,33.027,南阳市,气象站,颗粒物(PM10),85,120,109,44,48,38,,34,34,33,42,5,4,0.6,0.7
2023-11-29T1200,2407A,112.5481,32.9689,南阳市,理工学院,颗粒物(PM10),89,128,110,50,49,41,,33,33,33,47,6,7,0.4,0.5
2023-11-29T1200,4008A,112.5234,32.9922,南阳市,卧龙区政府,颗粒物(PM10),89,128,120,49,49,34,,33,33,35,48,7,7,0.6,0.7
2023-11-29T1200,1234A,121.8358,29.911,宁波市,区环保大楼,,,42,99,12,38,116,,89,89,15,56,,8,0.8,0.9
2023-11-29T1200,1235A,121.56,29.82,宁波市,万里学院,颗粒物(PM10),52,53,111,14,42,119,,74,74,13,55,7,8,0.5,0.7
2023-11-29T1200,1236A,121.713,29.9572,宁波市,龙赛医院,,,38,101,17,37,,,40,40,24,67,7,10,0.4,0.7
2023-11-29T1200,1239A,121.633,29.7733,宁波市,钱湖水厂,,36,36,76,18,32,114,,81,81,11,25,8,8,0.4,0.6
2023-11-29T1200,1240A,121.5856,29.8635,宁波市,太古小学,,50,50,89,16,37,116,,80,80,16,46,10,11,0.6,0.8
2023-11-29T1200,1241A,121.524,29.8674,宁波市,市环境监测中心,,48,48,87,19,36,117,,67,67,17,48,13,13,0.8,0.9
2023-11-29T1200,2871A,121.6147,29.9017,宁波市,万里国际学校,颗粒物(PM10),53,56,95,19,46,111,,82,82,19,50,8,10,0.6,0.8
2023-11-29T1200,3710A,121.5594,29.8975,宁波市,白沙活动中心,,49,49,87,21,37,117,,76,76,19,55,9,9,0.5,0.7
2023-11-29T1200,2341A,119.5388,26.6612,宁德市,宁德市监测站,颗粒物(PM10),61,71,55,27,27,66,,48,48,29,23,5,6,0.5,0.5
2023-11-29T1200,3209A,119.5231,26.6562,宁德市,宁德一中,颗粒物(PM10),75,99,57,30,23,64,,59,52,33,17,7,7,0.8,0.7
2023-11-29T1200,2618A,98.8601,25.8567,怒江州,州监测站,,24,24,31,13,20,47,,26,26,4,17,7,7,0.3,0.4
2023-11-29T1200,2619A,98.8546,25.8417,怒江州,泸水一中,,30,30,30,20,18,37,,14,14,13,21,7,7,0.4,0.4
2023-11-29T1200,1888A,101.6891,26.571,攀枝花市,弄弄坪,细颗粒物(PM2.5),77,75,88,56,57,42,,11,11,45,47,72,44,2.1,2.3
2023-11-29T1200,1889A,101.5769,26.5928,攀枝花市,河门口,细颗粒物(PM2.5),58,62,64,41,41,58,,23,23,25,30,22,21,1.1,1.3
2023-11-29T1200,1890A,101.7169,26.585,攀枝花市,炳草岗,,,84,77,51,46,36,,11,11,57,53,,36,2.5,1.8
2023-11-29T1200,1891A,101.7369,26.5008,攀枝花市,仁和,细颗粒物(PM2.5),65,74,59,47,40,69,,25,25,32,28,67,21,2.6,1.1
2023-11-29T1200,2835A,101.7227,26.567,攀枝花市,四十中小,细颗粒物(PM2.5),68,81,86,49,49,55,,16,16,41,57,44,28,2.0,2.2
2023-11-29T1200,1604A,122.0303,41.1489,盘锦市,开发区,,,23,28,4,19,76,,53,53,,37,12,20,0.4,0.8
2023-11-29T1200,1605A,122.0485,41.0883,盘锦市,兴隆台,,24,,23,10,16,76,,54,54,12,32,10,14,0.4,0.5
2023-11-29T1200,1606A,121.8297,41.1028,盘锦市,新生街道,,24,19,30,5,15,76,,52,52,8,35,11,16,0.5,0.7
2023-11-29T1200,1832A,113.3257,33.742,平顶山市,新华旅馆,颗粒物(PM10),73,95,133,47,62,48,,31,31,18,31,10,10,0.5,0.6
2023-11-29T1200,1833A,113.2919,33.737,平顶山市,规划设计院,颗粒物(PM10),62,73,113,27,56,50,,32,32,20,34,10,10,0.4,0.7
2023-11-29T1200,1834A,113.182,33.774,平顶山市,平顶山工学院,颗粒物(PM10),62,74,120,27,51,50,,31,31,24,36,8,10,0.8,0.9
2023-11-29T1200,3204A,113.3025,33.73,平顶山市,规划局,,,,140,,58,49,,32,32,,28,10,11,0.6,0.8
2023-11-29T1200,3594A,112.8867,33.9116,平顶山市,石龙区,颗粒物(PM10),78,105,149,41,56,51,,40,40,25,42,9,10,0.8,0.9
2023-11-29T1200,2656A,106.6692,35.5461,平凉市,聚贤嘉苑,,46,46,72,19,27,65,,55,54,13,28,9,12,0.4,0.6
2023-11-29T1200,2657A,106.7021,35.5307,平凉市,博物馆,,,,79,15,32,65,,55,55,14,38,7,13,0.4,0.7
2023-11-29T1200,2348A,113.8385,27.6434,萍乡市,中医院,,,,95,,53,66,,31,31,34,37,,25,1.1,1.2
2023-11-29T1200,2349A,113.8493,27.6253,萍乡市,市政府车库,细颗粒物(PM2.5),89,91,93,66,56,72,,23,23,27,42,29,27,0.7,2.1
2023-11-29T1200,2350A,113.8676,27.6435,萍乡市,市环保局,细颗粒物(PM2.5),88,99,92,65,52,77,,34,34,26,32,25,23,0.8,0.9
2023-11-29T1200,2351A,113.866,27.6198,萍乡市,安源区政府,颗粒物(PM10),82,114,89,58,52,70,,25,25,28,35,28,25,0.8,1.3
2023-11-29T1200,2319A,119.0141,25.4325,莆田市,荔城区仓后路,,46,46,54,15,20,107,,109,100,9,10,6,6,0.7,0.6
2023-11-29T1200,2320A,119.0015,25.4553,莆田市,莆田市监测站,,37,37,51,14,20,107,,114,107,5,8,6,6,0.5,0.5
2023-11-29T1200,2321A,119.1119,25.4561,莆田市,涵江区六中,,47,47,55,16,20,109,,102,98,9,12,8,8,0.6,0.6
2023-11-29T1200,2322A,119.1013,25.3215,莆田市,秀屿区政府,颗粒物(PM10),58,66,59,26,23,106,,105,99,14,12,8,8,0.6,0.6
2023-11-29T1200,2392A,115.0312,35.7636,濮阳市,环保局,,39,39,85,7,48,53,,27,27,17,48,4,9,0.3,0.6
2023-11-29T1200,2394A,115.0574,35.7609,濮阳市,油田运输公司,,42,42,99,8,50,60,,30,30,14,48,4,9,0.2,0.6
2023-11-29T1200,2395A,115.0866,35.7754,濮阳市,油田物探公司,,48,48,104,10,50,54,,28,28,14,47,2,7,0.2,0.6
2023-11-29T1200,3021A,115,35.7668,濮阳市,濮水河管理处,,49,49,84,6,49,60,,30,30,14,47,5,7,0.2,0.6
2023-11-29T1200,2601A,100.98,22.7633,普洱市,市环保局,颗粒物(PM10),52,53,42,18,25,77,,31,31,17,12,3,3,0.4,0.4
2023-11-29T1200,2602A,100.9817,22.8322,普洱市,普洱第二中学,,34,34,40,11,18,80,,28,28,15,22,7,5,0.5,0.6
2023-11-29T1200,2262A,131.0518,45.8751,七台河市,新一中,细颗粒物(PM2.5),60,46,52,43,46,77,,57,55,13,18,13,11,0.5,0.8
2023-11-29T1200,3345A,131.0577,45.7879,七台河市,中波台,,42,37,62,29,54,59,,42,42,22,33,8,9,0.7,0.9
2023-11-29T1200,3637A,131.0176,45.7761,七台河市,人民广场,细颗粒物(PM2.5),217,,60,167,61,59,,41,41,23,35,5,7,,0.9
2023-11-29T1200,3684A,130.8781,45.8222,七台河市,新建矿广场,颗粒物(PM10),56,61,50,32,50,51,,29,29,31,34,10,8,0.8,0.7
2023-11-29T1200,1779A,123.9305,47.3636,齐齐哈尔市,安居小区,,21,14,20,11,20,65,,56,56,6,12,4,6,0.3,0.3
2023-11-29T1200,1780A,123.9488,47.3386,齐齐哈尔市,中心广场,,,8,15,8,7,61,,53,52,8,15,2,3,,0.7
2023-11-29T1200,1781A,123.9483,47.3227,齐齐哈尔市,农牧车辆厂,,20,14,20,8,11,62,,54,54,9,14,6,7,0.3,0.4
2023-11-29T1200,1783A,123.945,47.2988,齐齐哈尔市,市环境监测站,,21,14,20,7,8,65,,57,57,5,12,4,4,0.2,0.3
2023-11-29T1200,3662A,123.6333,47.2075,齐齐哈尔市,富区青少年活动中心,,20,16,23,5,10,64,,56,54,7,15,6,9,0.3,0.5
2023-11-29T1200,2591A,107.9783,26.5747,黔东南苗族侗族自治州,市环境监测站,颗粒物(PM10),57,63,41,33,24,73,,74,52,31,25,6,5,0.8,0.7
2023-11-29T1200,2881A,107.8908,26.5311,黔东南苗族侗族自治州,凯里学院,,50,50,37,31,23,117,,95,86,10,9,5,5,0.8,0.7
2023-11-29T1200,2593A,107.5228,26.2403,黔南布依族苗族自治州,小围寨,,39,39,35,22,16,99,,79,72,5,6,3,3,0.6,0.5
2023-11-29T1200,3538A,107.5175,26.2978,黔南布依族苗族自治州,沙坝,,39,39,38,24,17,105,,82,79,6,7,4,4,0.6,0.5
2023-11-29T1200,2589A,104.9022,25.0925,黔西南布依族苗族自治州,场坝街,,44,44,37,26,28,74,,61,57,8,8,2,2,0.2,0.2
2023-11-29T1200,2590A,104.8811,25.0992,黔西南布依族苗族自治州,坪东大道,,40,39,43,28,32,65,,38,38,15,21,2,2,0.1,0.3
2023-11-29T1200,2502A,108.6236,21.9667,钦州市,市环保站,颗粒物(PM10),59,68,97,34,54,120,,54,54,16,39,8,8,0.8,0.9
2023-11-29T1200,2503A,108.6549,21.9481,钦州市,沙埠小学,颗粒物(PM10),61,72,108,36,71,118,,45,45,14,48,10,15,0.6,0.9
2023-11-29T1200,2504A,108.5989,21.7431,钦州市,港区一小,,,78,113,31,57,,,63,63,,32,,13,,0.9
2023-11-29T1200,1042A,119.5134,39.8207,秦皇岛市,北戴河环保局,,24,,23,5,13,74,,63,63,6,24,6,9,0,0.4
2023-11-29T1200,1043A,119.7493,40.0116,秦皇岛市,第一关,,24,,31,8,21,74,,42,42,3,35,5,10,0.2,0.4
2023-11-29T1200,1044A,119.5897,39.9499,秦皇岛市,监测站,,,,30,,17,70,,64,64,9,24,,10,0.3,0.4
2023-11-29T1200,1046A,119.5251,39.9041,秦皇岛市,建设大厦,,23,14,31,14,24,71,,47,47,3,30,1,5,0,0.2
2023-11-29T1200,3132A,119.610547,39.943889,秦皇岛市,文明里,,22,,30,12,17,68,,61,61,12,26,4,8,0.3,0.5
2023-11-29T1200,1307A,120.6659,36.2403,青岛市,仰口,,44,44,28,22,19,46,,51,51,19,15,6,5,0.7,0.6
2023-11-29T1200,1310A,120.4134,36.0658,青岛市,市南区东部子站,颗粒物(PM10),60,70,44,27,15,39,,39,36,35,33,10,9,0.6,0.5
2023-11-29T1200,1311A,120.3664,36.1032,青岛市,四方区子站,颗粒物(PM10),54,58,44,31,19,47,,28,28,30,42,9,6,0.6,0.5
2023-11-29T1200,1312A,120.2994,36.054,青岛市,市南区西部子站,颗粒物(PM10),60,70,41,29,13,40,,36,31,31,31,8,7,0.6,0.5
2023-11-29T1200,1313A,120.4581,36.0858,青岛市,崂山区子站,,,63,34,22,11,45,,41,38,,25,10,7,0.7,0.6
2023-11-29T1200,1314A,120.1983,35.9608,青岛市,黄岛区子站,颗粒物(PM10),64,78,53,27,24,42,,22,22,30,58,9,9,0.5,0.5
2023-11-29T1200,1315A,120.3999,36.3083,青岛市,城阳区子站,,48,48,44,20,23,49,,35,25,13,24,9,9,0.6,0.7
2023-11-29T1200,1966A,120.0405,35.8735,青岛市,黄岛区4号,颗粒物(PM10),53,56,45,22,16,51,,29,29,18,39,9,8,0.7,0.7
2023-11-29T1200,3362A,120.5014,36.4034,青岛市,即墨2号,,37,37,41,16,23,52,,34,29,12,22,3,4,0.4,0.6
2023-11-29T1200,3642A,120.3503,36.0736,青岛市,市北区南部,颗粒物(PM10),56,62,47,27,15,31,,21,21,43,47,13,8,0.8,0.6
2023-11-29T1200,3643A,120.3948,36.1805,青岛市,李沧区北部,颗粒物(PM10),58,66,43,34,21,45,,32,32,32,42,11,8,0.8,0.7
2023-11-29T1200,1702A,113.0426,23.691,清远市,环保大楼,细颗粒物(PM2.5),62,57,54,44,39,56,,52,42,28,28,8,6,0.7,0.6
2023-11-29T1200,1703A,113.0208,23.7106,清远市,凤城街办,颗粒物(PM10),60,70,61,41,35,58,,65,50,32,30,10,9,0.9,0.8
2023-11-29T1200,3025A,113.0477,23.6344,清远市,技师学院,颗粒物(PM10),62,74,76,41,40,41,,16,16,22,38,16,10,0.6,0.7
2023-11-29T1200,3318A,112.9903,23.7403,清远市,清新太和,细颗粒物(PM2.5),74,87,59,54,35,44,,44,40,38,21,7,5,0.9,0.7
2023-11-29T1200,3455A,113.076,23.7198,清远市,清城东城,颗粒物(PM10),56,62,55,39,35,55,,47,42,29,30,13,10,0.8,0.7
2023-11-29T1200,2661A,107.6325,35.7357,庆阳市,庆阳五中,,35,35,62,12,24,64,,58,58,7,27,4,11,0.4,0.6
2023-11-29T1200,2662A,107.6364,35.7067,庆阳市,市环保局,,28,28,53,5,18,60,,57,56,9,23,6,11,0.2,0.3
2023-11-29T1200,1916A,103.7897,25.5035,曲靖市,环境监测站,,28,,37,19,22,73,,68,59,11,12,7,5,0.4,0.4
2023-11-29T1200,1917A,103.8,25.5364,曲靖市,烟厂办公区,,29,29,40,19,23,70,,66,58,11,12,6,5,0.5,0.5
2023-11-29T1200,3376A,103.7947,25.462,曲靖市,南苑二区,,29,29,35,14,25,72,,65,57,7,9,5,4,0.5,0.5
2023-11-29T1200,3377A,103.7444,25.5261,曲靖市,曲靖师范学院,,32,28,39,22,30,73,,68,57,10,12,7,6,0.5,0.5
2023-11-29T1200,1264A,118.8692,28.9398,衢州市,环保大楼,颗粒物(PM10),73,96,83,50,43,79,,23,23,45,47,9,8,0.6,0.6
2023-11-29T1200,1265A,118.8709,28.9666,衢州市,实验学校,,,88,72,50,36,57,,17,17,,45,9,10,,0.5
2023-11-29T1200,1266A,118.8621,28.9808,衢州市,衢州学院,"颗粒物(PM10),细颗粒物(PM2.5)",67,84,65,48,32,70,,21,21,47,41,7,6,0.7,0.6
2023-11-29T1200,1611A,118.5819,24.9117,泉州市,涂山街,颗粒物(PM10),64,78,70,32,28,98,,102,90,17,14,6,5,0.6,0.6
2023-11-29T1200,1612A,118.5972,24.8978,泉州市,津头埔,,50,50,51,28,28,103,,108,93,20,18,4,4,0.6,0.6
2023-11-29T1200,1613A,118.6663,24.9424,泉州市,万安,颗粒物(PM10),62,74,66,31,26,109,,113,98,17,15,3,3,0.5,0.5
2023-11-29T1200,3529A,118.6333,24.9264,泉州市,城华南路,颗粒物(PM10),55,60,60,24,25,101,,111,95,14,14,5,5,0.6,0.6
2023-11-29T1200,2626A,88.8876,29.2718,日喀则市,日喀则监测站,颗粒物(PM10),55,60,48,30,23,48,,12,12,20,36,2,4,0.9,1.2
2023-11-29T1200,3726A,88.8781,29.2426,日喀则市,林业技术推广中心,颗粒物(PM10),54,58,34,26,10,52,,39,36,29,17,8,7,0.8,0.6
2023-11-29T1200,1659A,119.471,35.4209,日照市,监测站,,,70,56,24,25,42,,27,27,,46,12,12,,1
2023-11-29T1200,1660A,119.523,35.4216,日照市,市政府广场,颗粒物(PM10),57,63,50,20,22,48,,39,39,29,37,8,6,0.8,0.7
2023-11-29T1200,1661A,119.5587,35.4044,日照市,港务局,颗粒物(PM10),54,58,51,22,18,49,,40,40,32,40,11,8,0.7,0.7
2023-11-29T1200,3507A,119.5328,35.4625,日照市,职业技术学院,颗粒物(PM10),59,68,56,22,20,49,,42,42,27,34,11,9,0.9,0.8
2023-11-29T1200,3604A,119.3266,35.1044,日照市,岚山环保分局,颗粒物(PM10),85,119,78,29,27,43,,27,26,27,40,27,24,1.4,2.2
2023-11-29T1200,1835A,111.1922,34.7752,三门峡市,市政府,,,61,94,22,46,46,,22,22,,42,10,11,,0.9
2023-11-29T1200,1836A,111.1587,34.7942,三门峡市,开发区,,,50,113,11,47,46,,24,24,16,38,10,12,,0.8
2023-11-29T1200,3039A,111.1911,34.7829,三门峡市,三门峡市第一小学,,,,108,11,47,51,,20,20,,39,10,14,0.8,0.8
2023-11-29T1200,3598A,111.1,34.7167,三门峡市,富达温泉假日酒店,颗粒物(PM10),56,62,109,13,56,49,,18,18,25,56,14,18,0.8,1
2023-11-29T1200,2324A,117.6211,26.2625,三明市,三钢,颗粒物(PM10),52,53,49,23,28,107,,76,73,12,21,5,7,0.5,0.5
2023-11-29T1200,2325A,117.635,26.2714,三明市,三明二中,颗粒物(PM10),53,55,45,20,26,107,,76,71,14,21,7,9,0.6,0.7
2023-11-29T1200,2326A,117.6028,26.2378,三明市,三元区政府,,,46,55,20,28,,,54,44,19,32,,7,0.9,0.7
2023-11-29T1200,1876A,109.5078,18.2489,三亚市,河东子站,,25,24,47,8,28,78,,66,56,7,13,2,2,0.5,0.6
2023-11-29T1200,1877A,109.4964,18.2681,三亚市,河西子站,,26,26,49,6,29,77,,58,50,6,12,2,3,0.4,0.5
2023-11-29T1200,3540A,109.7348,18.3443,三亚市,君悦子站,,,59,54,8,24,75,,60,51,5,12,,2,0.5,0.5
2023-11-29T1200,2624A,91.7608,29.2313,山南市,山南监测站,颗粒物(PM10),53,55,26,23,8,53,,65,47,26,11,8,8,0.5,0.4
2023-11-29T1200,2625A,91.7706,29.2436,山南市,山南人民医院,,,40,31,12,10,,,65,51,27,11,8,6,0.5,0.4
2023-11-29T1200,1674A,116.6794,23.3667,汕头市,金平子站,颗粒物(PM10),59,68,64,29,26,115,,104,91,20,12,13,11,0.7,0.7
2023-11-29T1200,1675A,116.7244,23.3633,汕头市,龙湖子站,颗粒物(PM10),54,57,65,23,26,113,,106,94,20,20,9,10,0.7,0.8
2023-11-29T1200,1676A,116.7258,23.2775,汕头市,濠江子站,,49,49,60,22,24,118,,113,103,13,14,9,9,0.8,0.8
2023-11-29T1200,1677A,116.7519,23.4714,汕头市,澄海子站,颗粒物(PM10),53,55,66,26,29,107,,92,84,19,22,13,13,0.8,0.8
2023-11-29T1200,1678A,116.6092,23.2539,汕头市,潮阳子站,颗粒物(PM10),51,52,61,24,23,112,,106,93,15,14,10,10,0.7,0.7
2023-11-29T1200,3444A,116.454,23.2684,汕头市,潮南峡山,颗粒物(PM10),65,79,70,32,29,124,,109,102,19,16,16,12,0.8,0.8
2023-11-29T1200,3624A,116.4069,23.2533,汕头市,潮南子站,颗粒物(PM10),62,74,72,34,31,103,,90,84,15,14,12,10,0.9,0.8
2023-11-29T1200,1693A,115.3653,22.775,汕尾市,市环保局,,,64,58,29,30,116,,109,99,17,15,,12,0.6,0.6
2023-11-29T1200,1694A,115.3706,22.7898,汕尾市,市政府,颗粒物(PM10),53,55,53,33,31,124,,110,99,10,10,12,11,0.6,0.5
2023-11-29T1200,1695A,115.3622,22.7925,汕尾市,新城中学,颗粒物(PM10),59,68,64,35,31,119,,101,93,11,11,12,11,0.7,0.6
2023-11-29T1200,2645A,109.9154,33.8715,商洛市,监测站,,38,38,75,13,37,62,,26,26,16,37,9,8,0.4,0.6
2023-11-29T1200,3045A,109.9643,33.8471,商洛市,商州区中学,颗粒物(PM10),56,61,83,15,36,56,,20,20,23,45,9,8,0.5,0.5
