timepoint,stationcode,longitude,latitude,area,positionname,primarypollutant,aqi,pm10,pm10_24h,pm2_5,pm2_5_24h,o3,o3_24h,o3_8h,o3_8h_24h,no2,no2_24h,so2,so2_24h,co,co_24h
2023-08-05T23:00:00,1001A,116.3621,39.8784,北京市,万寿西宫,,45,45,23,31,15,132,76,120,107,16,21,3,3,0.6,0.5
2023-08-05T23:00:00,1002A,116.2202,40.2915,北京市,定陵,,43,0,1,30,12,140,69,122,114,9,7,3,3,0.5,0.3
2023-08-05T23:00:00,1003A,116.4174,39.9289,北京市,东四,,44,44,29,28,15,129,86,121,104,14,27,3,3,0.6,0.3
2023-08-05T23:00:00,1004A,116.4072,39.8863,北京市,天坛,颗粒物(PM10),51,51,25,28,14,130,72,121,105,14,20,3,2,0.5,0.4
2023-08-05T23:00:00,1005A,116.462,39.9365,北京市,农展馆,,48,48,33,26,16,127,91,120,107,12,24,1,2,0.3,0.2
2023-08-05T23:00:00,1006A,116.3392,39.9295,北京市,官园,,48,48,30,33,16,144,93,135,122,12,24,2,2,0.3,0.3
2023-08-05T23:00:00,1007A,116.2878,39.9611,北京市,海淀万柳,,50,50,29,28,13,134,86,121,110,13,24,3,3,0.6,0.5
2023-08-05T23:00:00,1008A,116.6636,40.135,北京市,顺义新城,颗粒物(PM10),54,57,27,24,14,127,82,112,104,8,6,3,3,0.7,0.5
2023-08-05T23:00:00,1009A,116.6275,40.3275,北京市,怀柔镇,,41,41,21,26,12,119,71,96,91,14,8,3,3,0.2,0.1
2023-08-05T23:00:00,1010A,116.2296,40.217,北京市,昌平镇,,48,48,23,29,11,130,79,115,106,12,11,1,2,0.6,0.3
2023-08-05T23:00:00,1011A,116.3966,39.9821,北京市,奥体中心,,39,35,27,27,15,110,89,91,91,11,24,3,3,0.6,0.5
2023-08-05T23:00:00,1012A,116.184,39.9136,北京市,古城,颗粒物(PM10),57,64,28,36,13,146,76,122,105,13,17,3,3,0.4,0.4
2023-08-05T23:00:00,1015A,117.1444,39.1661,天津市,勤俭道,,21,21,37,9,22,115,67,97,77,11,9,5,5,0.7,0.7
2023-08-05T23:00:00,1017A,117.237,39.1082,天津市,大直沽八号路,,23,23,35,10,23,119,27,95,56,33,16,2,2,0.8,0.7
2023-08-05T23:00:00,1018A,117.202,39.0927,天津市,前进道,,21,20,33,10,22,112,65,100,71,21,17,7,4,0.7,0.7
2023-08-05T23:00:00,1019A,117.1837,39.2133,天津市,淮河道,,19,18,36,7,23,123,60,103,80,25,15,10,6,1.1,0.8
2023-08-05T23:00:00,1021A,117.307,39.0877,天津市,跃进路,,20,18,29,10,19,124,61,103,70,21,15,6,4,0.7,0.8
2023-08-05T23:00:00,1023A,117.707,39.0343,天津市,第四大街,,22,17,25,6,15,101,69,90,75,15,16,4,4,0.3,0.5
2023-08-05T23:00:00,1024A,117.457,38.8394,天津市,永明路,,25,15,26,7,16,120,77,104,81,7,11,6,4,0.7,0.6
2023-08-05T23:00:00,1026A,117.764,39.1587,天津市,汉北路,,24,17,29,7,16,106,75,95,88,9,10,3,3,1.3,0.7
2023-08-05T23:00:00,1027A,117.157,38.9194,天津市,团泊洼,,19,18,32,7,19,103,58,103,70,15,9,2,2,0.5,0.6
2023-08-05T23:00:00,1029A,114.4422,38.0444,石家庄市,职工医院,,21,20,21,14,12,130,65,122,112,27,15,2,2,0.3,0.4
2023-08-05T23:00:00,1030A,114.6063,38.0266,石家庄市,高新区,,34,34,19,16,15,125,77,116,105,21,17,3,2,0.2,0.3
2023-08-05T23:00:00,1031A,114.4898,38.1328,石家庄市,西北水源,,46,46,25,27,16,123,44,113,98,38,17,3,3,0.5,0.5
2023-08-05T23:00:00,1032A,114.4586,38.0058,石家庄市,西南高教,,45,45,21,5,9,137,72,128,117,28,14,3,3,0.5,0.6
2023-08-05T23:00:00,1033A,114.5331,38.0178,石家庄市,世纪公园,,28,28,19,15,10,118,69,112,100,18,12,3,3,0.4,0.4
2023-08-05T23:00:00,1034A,114.509,38.0457,石家庄市,人民会堂,,28,26,23,12,7,127,89,120,112,15,14,3,2,0.3,0.4
2023-08-05T23:00:00,1035A,114.3524,37.8911,石家庄市,封龙山,,38,16,21,12,14,132,121,124,121,5,6,2,3,0.5,0.6
2023-08-05T23:00:00,1037A,118.131,39.6363,唐山市,雷达站,,36,36,40,12,19,126,70,102,80,12,15,3,2,0.3,0.5
2023-08-05T23:00:00,1038A,118.1725,39.6334,唐山市,物资局,,28,28,34,14,20,105,64,87,71,8,11,5,3,0.4,0.7
2023-08-05T23:00:00,1040A,118.1705,39.6506,唐山市,十二中,,28,28,35,16,22,119,65,96,73,8,10,6,4,1.2,0.9
2023-08-05T23:00:00,1041A,118.1869,39.622,唐山市,小山,,22,22,30,2,13,102,65,89,72,2,10,4,3,0.3,0.6
2023-08-05T23:00:00,1042A,119.5134,39.8207,秦皇岛市,北戴河环保局,,22,22,24,6,8,86,60,80,72,23,18,4,4,0.2,0.5
2023-08-05T23:00:00,1043A,119.7493,40.0116,秦皇岛市,第一关,,23,23,28,10,15,73,49,65,53,23,29,2,2,0.2,0.3
2023-08-05T23:00:00,1044A,119.5897,39.9499,秦皇岛市,监测站,,30,30,32,6,12,73,57,68,58,23,30,8,6,0.4,0.4
2023-08-05T23:00:00,1046A,119.5251,39.9041,秦皇岛市,建设大厦,,22,22,30,10,16,87,64,84,69,13,19,6,5,0.3,0.5
2023-08-05T23:00:00,1048A,114.5302,36.6116,邯郸市,东污水处理厂,,44,44,25,12,9,95,52,84,61,16,13,4,3,1.1,0.6
2023-08-05T23:00:00,1049A,114.4918,36.5713,邯郸市,矿院,,26,26,24,12,8,94,40,83,52,28,17,4,4,1.3,0.7
2023-08-05T23:00:00,1050A,114.484,36.6133,邯郸市,丛台公园,,20,20,22,9,7,92,38,83,55,15,12,4,3,1.2,0.7
2023-08-05T23:00:00,1051A,115.493,38.8632,保定市,游泳馆,,27,22,25,7,18,151,86,134,123,11,16,21,20,0.3,0.3
2023-08-05T23:00:00,1052A,115.5213,38.8959,保定市,华电二区,,28,28,30,8,17,124,70,101,98,7,14,5,5,0.4,0.3
2023-08-05T23:00:00,1053A,115.4713,38.9108,保定市,接待中心,,29,29,31,10,15,132,75,115,109,9,8,5,5,0.6,0.6
2023-08-05T23:00:00,1054A,115.4612,38.8416,保定市,地表水厂,,,39,38,17,20,44,,44,,6,14,9,9,0.2,0.3
2023-08-05T23:00:00,1056A,115.5086,38.8639,保定市,监测站,,29,29,28,20,24,146,83,127,120,18,18,4,6,0.3,0.3
2023-08-05T23:00:00,1057A,114.8883,40.8336,张家口市,人民公园,,31,31,17,8,4,102,49,98,76,13,9,2,2,0.1,0.1
2023-08-05T23:00:00,1059A,114.8687,40.8042,张家口市,五金库,,30,30,19,11,6,94,49,90,73,13,9,2,2,0.2,0.2
2023-08-05T23:00:00,1060A,114.8902,40.762,张家口市,世纪豪园,,36,36,17,20,11,101,40,98,79,27,9,2,2,0.1,0.1
2023-08-05T23:00:00,1061A,114.8916,40.8661,张家口市,北泵房,,30,30,21,12,8,103,50,96,73,10,7,9,9,0.2,0.2
2023-08-05T23:00:00,1062A,117.9531,40.9081,承德市,铁路,,23,14,25,3,10,118,71,100,84,14,20,8,7,0.3,0.3
2023-08-05T23:00:00,1063A,117.9392,40.9763,承德市,中国银行,,31,31,24,18,9,123,22,109,74,30,15,7,7,0.4,0.2
2023-08-05T23:00:00,1064A,117.9503,40.928,承德市,开发区,,21,21,26,12,8,123,50,111,86,19,16,7,8,0.4,0.3
2023-08-05T23:00:00,1065A,117.8051,40.9655,承德市,文化中心,,29,29,25,10,7,127,41,105,84,28,24,4,4,0.5,0.3
2023-08-05T23:00:00,1066A,117.9268,41.0026,承德市,离宫,,40,30,24,28,18,109,25,102,60,14,11,6,6,0.4,0.2
2023-08-05T23:00:00,1067A,116.6708,39.5111,廊坊市,药材公司,,45,45,44,25,25,148,68,112,94,12,9,3,2,1.2,0.6
2023-08-05T23:00:00,1068A,116.7214,39.5589,廊坊市,开发区,,38,31,36,26,23,138,60,114,92,18,17,2,2,0.8,0.5
2023-08-05T23:00:00,1070A,116.7244,39.5269,廊坊市,北华航天学院,,39,39,41,24,26,146,66,118,93,17,16,8,5,0.9,0.4
2023-08-05T23:00:00,1071A,116.8842,38.2991,沧州市,沧县城建局,,36,36,17,11,11,119,76,114,88,5,13,4,2,0.2,0.3
2023-08-05T23:00:00,1072A,116.8584,38.3254,沧州市,电视转播站,,36,36,19,14,12,113,69,110,82,10,11,7,7,0.3,0.3
2023-08-05T23:00:00,1073A,116.8709,38.3228,沧州市,市环保局,,36,36,23,22,17,107,70,106,82,8,18,6,4,0.1,0.2
2023-08-05T23:00:00,1074A,115.6838,37.7541,衡水市,电机北厂,,26,12,13,8,8,118,83,108,101,5,4,3,4,0.4,0.4
2023-08-05T23:00:00,1075A,115.6303,37.7316,衡水市,市监测站,,29,21,18,10,10,120,90,103,93,11,6,3,4,0.4,0.4
2023-08-05T23:00:00,1077A,114.4704,37.0886,邢台市,达活泉,,17,4,10,3,4,104,53,95,74,13,5,6,7,0.5,0.4
2023-08-05T23:00:00,1078A,114.5062,37.0349,邢台市,邢师高专,,29,29,20,10,9,109,37,98,56,23,15,4,4,0.7,0.5
2023-08-05T23:00:00,1079A,114.5237,37.0851,邢台市,路桥公司,,20,19,16,8,8,104,61,88,66,18,10,5,6,0.6,0.5
2023-08-05T23:00:00,1080A,114.4725,37.0719,邢台市,市环保局,,17,4,11,10,7,114,53,110,81,23,10,6,6,0.6,0.5
2023-08-05T23:00:00,1081A,112.522,37.8873,太原市,尖草坪,,30,20,19,8,10,133,94,125,114,17,15,4,5,0.5,0.6
2023-08-05T23:00:00,1083A,112.434,38.0108,太原市,上兰,,,,,,,,,,,,,,,,
2023-08-05T23:00:00,1084A,112.469,37.7124,太原市,晋源,,28,28,29,12,14,157,71,138,110,27,23,3,4,0.5,0.6
2023-08-05T23:00:00,1085A,112.5583,37.7394,太原市,小店,,29,24,26,10,12,163,92,140,116,19,23,3,4,0.3,0.6
2023-08-05T23:00:00,1086A,112.5369,37.8692,太原市,桃园,,29,22,21,10,9,129,92,123,114,16,19,2,4,0.4,0.6
2023-08-05T23:00:00,1087A,112.57,37.8195,太原市,坞城,,30,19,20,7,9,137,96,126,115,17,17,2,3,0.3,0.5
2023-08-05T23:00:00,1088A,112.549,37.9854,太原市,南寨,,43,43,27,11,9,129,12,122,81,48,22,3,3,0.4,0.5
2023-08-05T23:00:00,1090A,111.6507,40.7517,呼和浩特市,呼市一监,,25,19,32,9,12,150,79,137,116,22,20,4,5,0.5,0.5
2023-08-05T23:00:00,1091A,111.6572,40.8033,呼和浩特市,小召,,,,34,10,11,164,82,147,122,26,25,6,6,0.6,0.7
2023-08-05T23:00:00,1094A,111.7516,40.8369,呼和浩特市,如意水处理厂,颗粒物(PM10),51,52,31,12,9,166,78,148,130,32,21,6,6,0.5,0.4
2023-08-05T23:00:00,1095A,111.7276,40.8062,呼和浩特市,二十九中,,22,22,30,12,13,159,66,144,123,40,28,6,7,0.6,0.5
2023-08-05T23:00:00,1096A,111.5512,40.7866,呼和浩特市,工大金川校区,,25,0,35,7,14,152,80,134,120,20,25,5,6,0.7,0.6
2023-08-05T23:00:00,1097A,111.717,40.7612,呼和浩特市,化肥厂生活区,,31,31,37,9,11,152,80,131,111,26,25,5,5,0.8,0.7
2023-08-05T23:00:00,1098A,123.6836,41.9339,沈阳市,森林路,,,,,,,,,,,,,,,,
2023-08-05T23:00:00,1099A,123.505,41.7406,沈阳市,浑南东路,,20,14,17,6,9,77,62,72,70,15,14,7,5,0.4,0.5
2023-08-05T23:00:00,1100A,123.4231,41.6989,沈阳市,新秀街,,20,12,11,4,9,95,62,72,66,8,10,5,5,0.4,0.5
2023-08-05T23:00:00,1102A,123.5903,41.8411,沈阳市,东陵路,,13,13,13,3,7,74,37,66,59,22,12,4,3,0.4,0.4
2023-08-05T23:00:00,1103A,123.4264,41.8467,沈阳市,陵东街,,17,11,14,3,6,68,54,64,62,13,12,4,4,0.4,0.5
2023-08-05T23:00:00,1104A,123.4114,41.7653,沈阳市,文化路,,21,8,10,1,6,79,66,70,69,9,11,5,5,0.4,0.4
2023-08-05T23:00:00,1105A,123.4678,41.7867,沈阳市,小河沿,,19,11,14,2,4,70,60,67,66,19,15,4,4,0.4,0.5
2023-08-05T23:00:00,1106A,123.4017,41.7972,沈阳市,太原街,,21,20,14,7,8,68,65,65,65,12,13,3,4,0.3,0.3
2023-08-05T23:00:00,1108A,123.3783,41.9228,沈阳市,京沈街,,22,14,11,2,6,73,70,71,71,10,12,3,4,0.4,0.4
2023-08-05T23:00:00,1109A,121.612,38.9741,大连市,甘井子,,20,13,20,13,14,100,63,92,76,14,17,3,3,0.4,0.6
2023-08-05T23:00:00,1110A,121.565,38.9511,大连市,周水子,,18,13,18,8,12,198,57,113,76,22,16,5,5,0.4,0.4
2023-08-05T23:00:00,1111A,121.5637,38.8845,大连市,星海三站,,19,18,18,12,11,101,58,87,75,15,13,10,9,0.5,0.4
2023-08-05T23:00:00,1112A,121.6302,38.9117,大连市,青泥洼桥,,25,25,16,12,11,105,63,92,77,17,15,5,4,0.8,0.7
2023-08-05T23:00:00,1113A,121.6251,38.8638,大连市,傅家庄,,22,22,19,15,11,103,68,95,86,19,14,10,8,0.6,0.4
2023-08-05T23:00:00,1114A,121.5213,38.8661,大连市,七贤岭,,,0,7,8,11,120,,110,99,,14,,6,,0.5
2023-08-05T23:00:00,1115A,121.2529,38.8061,大连市,旅顺,,25,6,15,6,10,112,78,99,88,5,14,4,4,0.5,0.5
2023-08-05T23:00:00,1116A,121.7485,39.1311,大连市,金州,,20,10,18,7,14,101,64,91,71,12,16,8,8,0.5,0.5
2023-08-05T23:00:00,1117A,121.7811,39.0496,大连市,开发区,,28,21,18,19,13,110,68,104,82,14,17,4,5,0.8,0.7
2023-08-05T23:00:00,1118A,121.9762,39.0631,大连市,双D港,,23,23,26,14,11,115,73,104,78,12,14,6,5,0.5,0.5
2023-08-05T23:00:00,1119A,125.3325,43.9166,长春市,食品厂,,17,11,12,6,6,55,52,51,49,15,17,2,2,0.2,0.3
2023-08-05T23:00:00,1120A,125.2863,43.9027,长春市,客车厂,,18,12,10,5,6,61,57,58,56,8,11,3,3,0.4,0.4
2023-08-05T23:00:00,1121A,125.2841,43.8463,长春市,邮电学院,,19,12,8,2,4,71,58,68,64,14,8,5,5,0.2,0.2
2023-08-05T23:00:00,1122A,125.3716,43.8772,长春市,劳动公园,,20,8,8,2,4,68,61,65,62,10,8,5,5,0.2,0.3
2023-08-05T23:00:00,1123A,125.3297,43.8805,长春市,园林处,,17,11,8,2,3,63,52,61,56,14,9,4,3,0.4,0.4
2023-08-05T23:00:00,1124A,125.4605,43.79,长春市,净月潭,,17,6,9,2,4,62,54,58,55,9,8,5,5,0.2,0.2
2023-08-05T23:00:00,1125A,125.7194,43.515,长春市,甩湾子,,,,,,,,,,,,,,,,
2023-08-05T23:00:00,1126A,125.3863,43.8447,长春市,经开区环卫处,,18,7,8,2,3,62,56,60,58,12,10,4,4,0.3,0.3
2023-08-05T23:00:00,1127A,125.245,43.7783,长春市,高新区管委会,,16,11,9,3,4,67,51,64,58,12,9,3,3,0.3,0.3
2023-08-05T23:00:00,1128A,125.1761,43.8325,长春市,岱山公园,,18,6,8,2,3,65,56,62,56,6,10,2,2,0.3,0.3
2023-08-05T23:00:00,1129A,126.5422,45.755,哈尔滨市,岭北,,,,,,,,,,,,,,,,
2023-08-05T23:00:00,1130A,126.561,45.8167,哈尔滨市,松北商大,,9,8,6,2,2,52,28,49,42,6,6,5,5,0.5,0.5
2023-08-05T23:00:00,1131A,126.979,45.5419,哈尔滨市,阿城会宁,,19,6,13,13,15,60,46,54,51,5,7,4,4,0.4,0.4
2023-08-05T23:00:00,1132A,126.599,45.7222,哈尔滨市,南岗学府路,,26,26,17,8,5,59,26,54,41,9,6,3,4,0.5,0.5
2023-08-05T23:00:00,1133A,126.689,45.7733,哈尔滨市,太平宏伟公园,,20,20,16,4,3,59,23,52,37,16,11,6,6,0.4,0.5
2023-08-05T23:00:00,1134A,126.635,45.7667,哈尔滨市,道外承德广场,,18,18,8,8,3,55,24,49,36,15,14,9,9,0.3,0.6
2023-08-05T23:00:00,1135A,126.685,45.7319,哈尔滨市,香坊红旗大街,,18,18,14,8,5,65,23,56,40,23,13,6,6,0.4,0.5
2023-08-05T23:00:00,1136A,126.6411,45.7258,哈尔滨市,动力和平路,,,15,12,,,60,27,54,42,14,13,8,9,0.5,0.5
2023-08-05T23:00:00,1137A,126.593,45.7478,哈尔滨市,道里建国路,,14,14,12,6,5,57,26,52,39,16,14,5,4,0.6,0.5
2023-08-05T23:00:00,1138A,126.615,45.61,哈尔滨市,平房东轻厂,,23,23,9,4,3,57,26,51,37,20,11,6,5,0.3,0.3
2023-08-05T23:00:00,1139A,126.595,45.9855,哈尔滨市,呼兰师专,,12,0,6,1,1,52,38,49,44,8,7,5,6,0.4,0.5
2023-08-05T23:00:00,1140A,126.6206,45.6842,哈尔滨市,省农科院,,30,30,20,5,2,65,31,59,47,18,13,11,10,0.4,0.3
2023-08-05T23:00:00,1141A,121.4,31.238,上海市,普陀,,27,27,26,12,10,54,25,50,38,20,12,6,5,0.7,0.5
2023-08-05T23:00:00,1142A,121.478,31.2036,上海市,十五厂,,27,27,27,16,17,56,30,51,40,19,14,9,9,0.3,0.3
2023-08-05T23:00:00,1143A,121.467,31.3008,上海市,虹口,,27,27,26,15,11,53,28,49,33,19,11,14,9,0.6,0.4
2023-08-05T23:00:00,1144A,121.412,31.1654,上海市,徐汇上师大,,28,28,29,12,14,69,36,62,49,19,14,3,3,0.5,0.5
2023-08-05T23:00:00,1145A,121.536,31.2659,上海市,杨浦四漂,,,30,28,13,13,52,20,49,37,,10,6,5,0.5,0.5
2023-08-05T23:00:00,1147A,121.425,31.2261,上海市,静安监测站,,29,25,25,20,16,46,20,43,30,22,13,2,2,0.5,0.5
2023-08-05T23:00:00,1148A,121.703,31.1907,上海市,浦东川沙,,32,25,28,22,14,54,48,52,51,15,11,5,6,0.5,0.5
2023-08-05T23:00:00,1149A,121.533,31.2284,上海市,浦东新区监测站,,28,28,25,11,12,50,32,45,40,16,11,8,7,0.3,0.3
2023-08-05T23:00:00,1150A,121.577,31.2071,上海市,浦东张江,,33,22,27,23,20,55,41,48,47,12,11,6,5,0.8,0.8
2023-08-05T23:00:00,1151A,118.8086,32.1065,南京市,迈皋桥,,37,37,32,14,12,232,72,198,144,11,9,5,5,0.5,0.5
2023-08-05T23:00:00,1152A,118.7538,32.0551,南京市,草场门,,29,29,32,14,14,230,76,188,139,22,18,6,6,0.6,0.6
2023-08-05T23:00:00,1153A,118.7794,32.0745,南京市,山西路,,29,29,33,12,12,245,91,198,151,12,11,4,4,0.3,0.4
2023-08-05T23:00:00,1154A,118.7752,32.0023,南京市,中华门,,24,24,31,12,13,206,70,165,113,25,17,7,7,1.0,1
2023-08-05T23:00:00,1155A,118.8109,32.0309,南京市,瑞金路,,31,31,30,19,13,195,73,166,123,20,16,4,4,0.3,0.3
2023-08-05T23:00:00,1156A,118.7997,32.0754,南京市,玄武湖,,29,29,30,11,12,216,68,177,131,21,13,6,7,0.5,0.6
2023-08-05T23:00:00,1157A,118.6414,32.0931,南京市,浦口,,34,34,38,22,16,191,72,176,153,30,19,4,5,0.5,0.4
2023-08-05T23:00:00,1158A,118.7356,31.9996,南京市,奥体中心,,27,27,33,14,19,202,68,174,132,20,16,7,7,0.5,0.5
2023-08-05T23:00:00,1159A,118.9125,32.1028,南京市,仙林大学城,,29,29,29,14,10,206,86,176,140,11,9,8,9,0.6,0.6
2023-08-05T23:00:00,1160A,120.561,31.2472,苏州市,上方山,,50,50,35,17,17,111,43,90,70,15,10,6,6,0.4,0.3
2023-08-05T23:00:00,1162A,120.591,31.3019,苏州市,彩香,颗粒物(PM10),51,51,29,25,16,128,41,111,83,15,6,8,6,0.6,0.5
2023-08-05T23:00:00,1163A,120.596,31.3264,苏州市,轧钢厂,,42,42,30,25,16,130,38,113,78,18,11,10,8,0.6,0.5
2023-08-05T23:00:00,1164A,120.613,31.2703,苏州市,吴中区,,46,46,28,20,14,111,41,101,72,20,12,9,9,0.5,0.5
2023-08-05T23:00:00,1165A,120.543,31.2994,苏州市,苏州新区,,46,46,28,21,14,144,41,118,86,14,6,8,7,0.6,0.5
2023-08-05T23:00:00,1166A,120.669,31.3097,苏州市,苏州工业园区,,49,49,26,21,14,104,37,98,69,14,7,10,9,0.6,0.6
2023-08-05T23:00:00,1167A,120.641,31.3708,苏州市,相城区,,30,30,26,19,14,121,20,102,65,25,9,8,7,0.8,0.5
2023-08-05T23:00:00,1168A,120.9098,31.9663,南通市,狼山街道,,23,23,16,6,5,69,33,66,53,14,9,8,7,0.4,0.4
2023-08-05T23:00:00,1169A,120.86,32.0005,南通市,虹桥,,18,17,17,12,10,66,37,62,47,6,5,7,8,0.7,0.6
2023-08-05T23:00:00,1170A,120.87,32.02,南通市,城中,,21,21,16,10,6,65,37,62,50,8,5,3,4,0.5,0.5
2023-08-05T23:00:00,1171A,120.94,31.93,南通市,星湖花园,,16,16,13,5,4,68,32,65,53,12,8,6,5,0.5,0.5
2023-08-05T23:00:00,1172A,120.81,32.0417,南通市,紫琅学院,,13,10,14,3,4,72,40,68,55,9,8,6,5,0.6,0.5
2023-08-05T23:00:00,1173A,119.176,34.5885,连云港市,市环境监测站,,36,36,25,14,10,118,48,102,84,13,8,3,4,0.3,0.3
2023-08-05T23:00:00,1177A,117.179,34.2761,徐州市,黄河新村,,27,27,35,15,19,150,70,139,111,15,11,7,7,0.5,0.5
2023-08-05T23:00:00,1178A,117.1918,34.2384,徐州市,淮塔,,23,21,35,16,20,149,72,135,100,9,12,8,9,0.4,0.3
2023-08-05T23:00:00,1180A,117.256,34.2153,徐州市,新城区,,27,27,35,16,16,144,60,141,116,24,15,6,7,0.5,0.5
2023-08-05T23:00:00,1181A,117.244,34.2911,徐州市,桃园路,,32,22,24,22,17,147,69,141,116,18,9,8,9,0.4,0.4
2023-08-05T23:00:00,1182A,117.2933,34.2778,徐州市,农科院,,35,31,32,24,19,149,79,143,122,18,15,4,6,0.5,0.4
2023-08-05T23:00:00,1186A,119.389,32.3761,扬州市,邗江监测站,,31,31,26,13,12,152,61,134,105,15,13,7,7,0.5,0.5
2023-08-05T23:00:00,1188A,120.269,31.4867,无锡市,雪浪,,27,27,32,7,17,182,38,168,126,19,17,4,5,0.5,0.8
2023-08-05T23:00:00,1189A,120.275,31.6219,无锡市,黄巷,,25,25,35,12,14,141,32,126,90,26,21,6,7,0.7,0.8
2023-08-05T23:00:00,1190A,120.294,31.56,无锡市,曹张,,26,26,34,9,19,167,32,149,109,9,7,8,8,0.6,0.8
2023-08-05T23:00:00,1191A,120.242,31.5031,无锡市,漆塘,,24,24,31,7,18,186,42,168,124,16,15,6,7,0.7,1
2023-08-05T23:00:00,1192A,120.3489,31.5863,无锡市,东亭,,34,34,31,12,17,135,33,119,86,20,17,5,6,0.4,0.5
2023-08-05T23:00:00,1193A,120.354,31.5475,无锡市,旺庄,,19,19,26,7,16,131,28,108,84,19,11,8,9,0.6,0.9
2023-08-05T23:00:00,1194A,120.245,31.5631,无锡市,荣巷,,24,24,31,14,18,188,36,169,124,13,9,9,10,0.4,0.7
2023-08-05T23:00:00,1195A,120.299,31.6817,无锡市,堰桥,,22,22,29,7,13,149,32,132,101,21,14,6,7,0.6,0.8
2023-08-05T23:00:00,1196A,119.9633,31.762,常州市,市监测站,,23,23,28,15,15,154,39,137,103,25,19,8,8,0.7,0.7
2023-08-05T23:00:00,1200A,119.9468,31.7069,常州市,武进监测站,,37,37,33,16,16,186,47,176,138,20,13,10,11,0.6,0.7
2023-08-05T23:00:00,1201A,119.9255,31.9087,常州市,安家,,44,44,26,15,15,147,50,124,85,12,14,5,5,0.7,0.5
2023-08-05T23:00:00,1203A,119.6707,32.1875,镇江市,新区办事处,,35,35,22,18,13,126,28,112,90,34,18,3,2,0.3,0.3
2023-08-05T23:00:00,1204A,119.4974,32.1968,镇江市,职教中心,,38,38,26,23,14,171,25,146,99,66,24,5,4,0.7,0.6
2023-08-05T23:00:00,1205A,119.4303,32.1328,镇江市,丹徒区监测站,,40,37,30,28,19,185,66,161,142,34,13,2,4,0.8,0.6
2023-08-05T23:00:00,1206A,119.905,32.4878,泰州市,公园路,,22,22,18,14,11,99,36,91,73,9,8,3,4,0.6,0.5
2023-08-05T23:00:00,1207A,119.9189,32.4625,泰州市,莲花,,24,24,18,9,10,92,35,84,69,9,6,3,3,0.4,0.4
2023-08-05T23:00:00,1209A,119.888,32.4639,泰州市,留学生创业园,,31,31,23,14,12,107,37,93,75,8,6,4,4,0.3,0.3
2023-08-05T23:00:00,1210A,119.036,33.5981,淮安市,钵池山,,22,17,20,14,13,97,69,90,77,10,12,6,7,0.5,0.6
2023-08-05T23:00:00,1211A,119.007,33.575,淮安市,北京南路,,22,19,21,15,13,100,48,88,69,18,12,8,9,0.6,0.6
2023-08-05T23:00:00,1212A,118.989,33.6067,淮安市,市监测站,,29,29,30,7,9,114,53,99,77,19,12,5,6,0.8,0.8
2023-08-05T23:00:00,1213A,119.135,33.5039,淮安市,楚州区监测站,颗粒物(PM10),52,54,28,11,13,94,30,92,68,35,14,6,7,0.6,0.6
2023-08-05T23:00:00,1214A,119.0186,33.6297,淮安市,淮阴区监测站,,29,29,26,16,15,113,62,91,71,10,12,6,6,0.8,0.8
2023-08-05T23:00:00,1215A,120.118,33.4022,盐城市,盐城电厂,,,12,22,5,10,177,,159,124,4,5,5,5,0.4,0.4
2023-08-05T23:00:00,1216A,120.156,33.3942,盐城市,市监测站,,14,14,18,7,9,104,35,92,55,6,7,3,3,0.4,0.4
2023-08-05T23:00:00,1218A,120.2144,33.38,盐城市,开发区管委会,,15,12,16,10,9,83,32,74,49,13,7,7,7,0.4,0.4
2023-08-05T23:00:00,1220A,118.293,33.9528,宿迁市,宿迁学院,,34,34,31,19,20,121,38,105,74,39,17,8,8,0.5,0.5
2023-08-05T23:00:00,1221A,118.2442,33.9592,宿迁市,宿迁中学,,30,30,30,16,17,130,70,114,90,16,13,5,5,0.4,0.3
2023-08-05T23:00:00,1223A,120.2072,30.2111,杭州市,滨江,,48,48,35,22,16,122,45,109,94,18,14,7,7,0.5,0.5
2023-08-05T23:00:00,1224A,120.0633,30.2747,杭州市,西溪,,35,35,29,19,13,103,53,85,68,20,13,4,4,0.8,0.7
2023-08-05T23:00:00,1226A,120.3461,30.3153,杭州市,下沙,,44,44,35,27,18,135,35,120,98,20,14,2,2,0.5,0.6
2023-08-05T23:00:00,1227A,120.1269,30.2456,杭州市,卧龙桥,,28,27,24,19,14,120,26,101,58,22,15,5,5,0.7,0.6
2023-08-05T23:00:00,1228A,120.1903,30.2692,杭州市,浙江农大,,37,37,26,22,16,111,50,105,95,22,15,7,7,0.6,0.6
2023-08-05T23:00:00,1230A,120.1197,30.3119,杭州市,和睦小学,,38,38,32,20,17,112,50,103,94,27,20,8,7,0.6,0.5
2023-08-05T23:00:00,1231A,120.3019,30.4183,杭州市,临平镇,,44,44,32,17,12,139,42,125,104,14,10,5,4,0.4,0.4
2023-08-05T23:00:00,1232A,120.2697,30.1819,杭州市,城厢镇,细颗粒物(PM2.5),52,46,37,36,23,130,47,120,105,20,16,6,7,0.4,0.4
2023-08-05T23:00:00,1233A,120.0883,30.1808,杭州市,云栖,,32,32,30,15,14,110,23,92,56,17,10,6,6,0.6,0.7
2023-08-05T23:00:00,1234A,121.8358,29.911,宁波市,区环保大楼,,24,24,21,12,10,75,38,59,41,22,15,6,3,0.6,0.5
2023-08-05T23:00:00,1235A,121.56,29.82,宁波市,万里学院,,29,29,26,17,14,61,30,52,39,19,12,6,4,0.6,0.5
2023-08-05T23:00:00,1236A,121.713,29.9572,宁波市,龙赛医院,,18,7,25,9,10,67,57,61,57,11,10,8,8,0.4,0.4
2023-08-05T23:00:00,1239A,121.633,29.7733,宁波市,钱湖水厂,,30,30,28,14,13,70,15,60,36,22,9,4,4,0.6,0.6
2023-08-05T23:00:00,1240A,121.5856,29.8635,宁波市,太古小学,,23,23,23,13,13,55,16,42,27,18,12,4,4,0.6,0.6
2023-08-05T23:00:00,1241A,121.524,29.8674,宁波市,市环境监测中心,,28,28,25,13,12,74,32,63,50,17,7,6,5,0.5,0.4
2023-08-05T23:00:00,1242A,120.634,28.0089,温州市,瓯海,颗粒物(PM10),54,57,48,37,28,147,113,113,113,13,23,4,6,0.6,0.5
2023-08-05T23:00:00,1243A,120.6748,27.9939,温州市,南浦,颗粒物(PM10),58,66,45,33,24,162,116,127,127,16,20,6,7,0.7,0.5
2023-08-05T23:00:00,1244A,120.76,27.9747,温州市,龙湾,颗粒物(PM10),62,74,46,32,23,160,33,126,107,97,31,5,6,0.6,0.5
2023-08-05T23:00:00,1245A,120.6709,28.0167,温州市,市站,颗粒物(PM10),55,60,50,34,23,130,96,97,97,19,25,4,5,0.7,0.5
2023-08-05T23:00:00,1247A,120.6053,29.9928,绍兴市,城东开发委,,30,30,37,13,21,123,45,106,88,10,16,5,4,0.5,0.5
2023-08-05T23:00:00,1250A,120.0751,30.8669,湖州市,城西水厂,,45,45,25,22,14,118,57,98,81,25,19,2,2,0.6,0.5
2023-08-05T23:00:00,1252A,120.7436,30.778,嘉兴市,清河小学,,,28,31,9,12,125,,111,93,15,10,4,4,0.3,0.3
2023-08-05T23:00:00,1253A,120.726,30.7478,嘉兴市,嘉兴学院,,29,29,30,15,15,121,35,107,77,13,13,3,3,0.5,0.4
2023-08-05T23:00:00,1255A,121.273,28.6459,台州市,黄岩环保大楼,,40,40,26,26,15,107,54,95,81,15,10,5,5,0.6,0.5
2023-08-05T23:00:00,1256A,121.419,28.6542,台州市,台州环保大楼,,40,40,27,20,14,90,50,84,74,17,9,3,3,0.5,0.4
2023-08-05T23:00:00,1257A,121.377,28.5773,台州市,路桥田洋王,,44,44,24,22,18,99,66,89,79,17,10,4,4,0.6,0.4
2023-08-05T23:00:00,1258A,122.122,30.0203,舟山市,定海檀枫,,25,25,24,14,12,54,39,48,48,9,6,5,5,0.3,0.3
2023-08-05T23:00:00,1259A,122.3094,29.9558,舟山市,普陀东港,,23,23,22,14,13,60,49,56,56,3,3,4,4,0.3,0.3
2023-08-05T23:00:00,1260A,122.19,29.9944,舟山市,临城新区,,24,24,24,13,11,55,50,53,53,7,6,6,5,0.3,0.3
2023-08-05T23:00:00,1262A,119.647,29.077,金华市,十五中,颗粒物(PM10),61,71,48,29,20,156,51,151,113,33,19,2,3,0.5,0.4
2023-08-05T23:00:00,1263A,119.686,29.1029,金华市,监测站,,44,44,44,28,26,158,57,145,101,30,21,5,5,0.5,0.6
2023-08-05T23:00:00,1264A,118.8692,28.9398,衢州市,环保大楼,,36,35,35,25,21,169,79,153,127,16,17,3,4,0.6,0.6
2023-08-05T23:00:00,1265A,118.8709,28.9666,衢州市,实验学校,颗粒物(PM10),53,56,43,24,21,163,62,142,109,36,22,3,7,0.4,0.4
2023-08-05T23:00:00,1266A,118.8621,28.9808,衢州市,衢州学院,,50,50,39,29,22,173,24,159,113,62,22,3,4,0.5,0.5
2023-08-05T23:00:00,1267A,119.914,28.4514,丽水市,监测站大楼,细颗粒物(PM2.5),54,34,36,38,28,134,77,130,112,12,16,5,6,0.5,0.5
2023-08-05T23:00:00,1268A,119.93,28.4586,丽水市,莲都小学,,33,32,45,23,21,140,73,131,110,13,17,5,5,0.4,0.5
2023-08-05T23:00:00,1269A,119.879,28.4231,丽水市,余庄前,,43,43,34,26,16,124,24,117,83,21,14,5,5,0.5,0.4
2023-08-05T23:00:00,1270A,117.1959,31.7848,合肥市,明珠广场,,41,41,43,27,23,152,118,141,124,19,21,5,6,0.6,0.5
2023-08-05T23:00:00,1271A,117.3072,31.8764,合肥市,三里街,"颗粒物(PM10),细颗粒物(PM2.5)",52,53,48,36,28,146,122,139,127,27,29,5,5,0.8,0.7
2023-08-05T23:00:00,1272A,117.2588,31.8707,合肥市,琥珀山庄,,46,46,44,29,24,166,135,159,140,15,16,4,5,0.8,0.8
2023-08-05T23:00:00,1273A,117.1604,31.9052,合肥市,董铺水库,,44,44,42,22,20,175,94,164,130,13,17,4,4,0.5,0.5
2023-08-05T23:00:00,1274A,117.25,31.8571,合肥市,长江中路,,48,48,48,28,24,160,120,150,126,21,20,6,7,0.7,0.6
2023-08-05T23:00:00,1275A,117.266,31.9436,合肥市,庐阳区,颗粒物(PM10),58,66,55,31,28,164,90,156,124,38,32,5,5,0.7,0.6
2023-08-05T23:00:00,1276A,117.336,31.8586,合肥市,瑶海区,颗粒物(PM10),58,66,62,28,24,139,73,132,107,50,38,9,10,0.8,0.7
2023-08-05T23:00:00,1277A,117.3027,31.7964,合肥市,包河区,细颗粒物(PM2.5),58,48,47,41,26,141,124,132,127,22,30,9,9,0.7,0.6
2023-08-05T23:00:00,1278A,117.2776,31.7385,合肥市,滨湖新区,,46,44,36,22,19,145,145,133,133,6,14,5,6,0.7,0.6
2023-08-05T23:00:00,1279A,117.1318,31.8403,合肥市,高新区,,44,44,42,21,22,154,94,146,115,29,21,9,9,0.6,0.5
2023-08-05T23:00:00,1280A,119.3903,26.0543,福州市,鼓山,,,,,,,,,,,,,,,,
2023-08-05T23:00:00,1282A,119.2681,26.0504,福州市,师大,颗粒物(PM10),55,59,42,37,23,157,77,120,118,22,11,4,4,0.6,0.4
2023-08-05T23:00:00,1283A,119.2984,26.1028,福州市,五四北路,颗粒物(PM10),61,72,43,40,24,165,117,133,133,21,11,4,4,0.6,0.4
2023-08-05T23:00:00,1284A,119.2648,26.0768,福州市,杨桥西路,颗粒物(PM10),54,58,41,33,25,144,62,114,111,22,10,3,3,0.5,0.4
2023-08-05T23:00:00,1285A,119.317,26.0746,福州市,紫阳,颗粒物(PM10),59,67,43,40,23,157,119,132,132,15,9,3,3,0.6,0.5
2023-08-05T23:00:00,1286A,118.1608,24.8169,厦门市,溪东,,,,,,,,,,,,,,,,
2023-08-05T23:00:00,1287A,118.1514,24.4767,厦门市,洪文,,38,38,37,22,20,115,56,106,87,12,13,1,1,0.3,0.4
2023-08-05T23:00:00,1288A,118.0661,24.4444,厦门市,鼓浪屿,,41,41,35,26,21,96,55,86,69,14,12,1,1,0.4,0.4
2023-08-05T23:00:00,1290A,115.8931,28.6843,南昌市,省外办,细颗粒物(PM2.5),62,72,58,44,33,153,69,134,100,33,25,10,10,0.8,0.8
2023-08-05T23:00:00,1291A,115.8886,28.7003,南昌市,省林业公司,颗粒物(PM10),68,85,63,41,31,172,62,153,103,63,54,6,7,0.6,0.5
2023-08-05T23:00:00,1292A,115.8126,28.7442,南昌市,林科所,颗粒物(PM10),53,56,41,31,23,172,38,147,99,49,11,6,6,0.7,0.6
2023-08-05T23:00:00,1294A,115.8518,28.687,南昌市,建工学校,颗粒物(PM10),68,85,52,33,21,162,45,144,96,53,34,5,5,1.0,0.8
2023-08-05T23:00:00,1295A,115.8921,28.6424,南昌市,象湖,细颗粒物(PM2.5),60,55,52,43,33,151,69,134,102,26,24,4,4,0.9,0.8
2023-08-05T23:00:00,1296A,115.7423,28.7996,南昌市,武术学校,,,24,24,35,22,136,31,108,50,6,6,3,3,,
2023-08-05T23:00:00,1298A,115.9314,28.6842,南昌市,省站,颗粒物(PM10),61,71,65,42,38,158,78,142,101,19,13,11,10,0.7,0.6
2023-08-05T23:00:00,1299A,116.9862,36.6114,济南市,科干所,,27,27,32,15,17,138,77,122,97,16,12,6,7,0.5,0.5
2023-08-05T23:00:00,1300A,116.9376,36.665,济南市,农科所,,19,17,31,5,11,132,59,125,98,25,16,9,9,0.3,0.3
2023-08-05T23:00:00,1301A,117.1265,36.6734,济南市,开发区,,25,17,26,10,14,152,77,134,105,17,12,6,5,0.6,0.5
2023-08-05T23:00:00,1303A,117.0624,36.6868,济南市,省种子仓库,,25,17,28,9,11,145,78,130,98,12,8,5,5,0.6,0.5
2023-08-05T23:00:00,1304A,116.9489,36.6447,济南市,机床二厂,,28,17,31,5,11,144,88,130,105,17,13,8,9,0.6,0.5
2023-08-05T23:00:00,1305A,117.0495,36.663,济南市,市监测站,,27,17,28,12,15,147,84,131,104,19,13,6,6,0.5,0.4
2023-08-05T23:00:00,1306A,116.7675,36.5484,济南市,长清党校,,29,29,34,20,17,142,48,128,95,26,13,7,8,0.6,0.6
2023-08-05T23:00:00,1307A,120.6659,36.2403,青岛市,仰口,,,24,22,22,17,76,,64,57,20,10,6,6,0.3,0.3
2023-08-05T23:00:00,1310A,120.4134,36.0658,青岛市,市南区东部子站,,19,19,20,9,11,89,42,78,59,15,11,8,6,0.4,0.5
2023-08-05T23:00:00,1311A,120.3664,36.1032,青岛市,四方区子站,,22,22,20,9,10,123,65,96,72,14,13,7,8,0.5,0.5
2023-08-05T23:00:00,1312A,120.2994,36.054,青岛市,市南区西部子站,,24,24,27,15,11,75,41,59,40,16,18,8,10,0.6,0.5
2023-08-05T23:00:00,1313A,120.4581,36.0858,青岛市,崂山区子站,颗粒物(PM10),60,70,33,19,14,90,58,80,68,10,8,7,7,0.4,0.3
2023-08-05T23:00:00,1314A,120.1983,35.9608,青岛市,黄岛区子站,,23,14,19,12,12,119,73,99,78,11,11,5,6,0.4,0.5
2023-08-05T23:00:00,1315A,120.3999,36.3083,青岛市,城阳区子站,,44,44,31,15,12,167,46,128,71,28,14,8,7,0.5,0.4
2023-08-05T23:00:00,1316A,113.69031,34.76122,郑州市,烟厂,,26,6,51,8,21,214,83,145,84,14,18,3,3,0.6,0.6
2023-08-05T23:00:00,1317A,113.65724,34.77134,郑州市,郑纺机,,,10,44,,,200,90,145,88,7,11,1,2,0.6,0.6
2023-08-05T23:00:00,1318A,113.67526,34.80246,郑州市,银行学校,,28,14,36,12,28,224,88,154,89,11,15,1,1,0.6,0.6
2023-08-05T23:00:00,1319A,113.56746,34.81334,郑州市,供水公司,,25,8,42,7,20,200,79,142,88,15,18,2,2,0.5,0.6
2023-08-05T23:00:00,1320A,113.7329,34.7178,郑州市,经开区管委,,20,20,44,13,22,193,55,142,70,9,13,3,3,0.5,0.5
2023-08-05T23:00:00,1321A,113.73961,34.77172,郑州市,四十七中,,21,12,45,9,23,223,66,142,76,11,13,1,1,0.6,0.6
2023-08-05T23:00:00,1322A,113.60532,34.74838,郑州市,市监测站,,24,12,47,12,20,190,75,142,85,10,14,3,3,0.5,0.5
2023-08-05T23:00:00,1323A,113.64164,34.7525,郑州市,河医大,,21,11,42,9,20,176,67,126,73,11,11,1,2,0.5,0.5
2023-08-05T23:00:00,1324A,113.51488,34.91089,郑州市,岗李水库,,,,,,,,,,,,,,,,
2023-08-05T23:00:00,1325A,114.3677,30.5584,武汉市,东湖梨园,颗粒物(PM10),52,54,42,22,22,172,103,161,128,18,16,5,5,0.7,0.6
2023-08-05T23:00:00,1326A,114.2529,30.558,武汉市,汉阳月湖,,44,44,39,24,18,166,47,136,101,40,28,6,8,0.7,0.6
2023-08-05T23:00:00,1327A,114.282,30.6189,武汉市,汉口花桥,,42,41,43,29,24,164,94,150,118,16,20,7,7,0.5,0.5
2023-08-05T23:00:00,1328A,114.3025,30.5332,武汉市,武昌紫阳,,42,42,39,19,20,198,90,168,133,24,19,5,6,0.7,0.6
2023-08-05T23:00:00,1329A,114.3646,30.6217,武汉市,青山钢花,细颗粒物(PM2.5),52,46,45,36,26,185,55,173,132,48,27,6,7,0.7,0.6
2023-08-05T23:00:00,1330A,114.1566,30.4825,武汉市,沌口新区,颗粒物(PM10),61,72,42,34,27,158,72,138,110,59,32,6,5,0.6,0.5
2023-08-05T23:00:00,1331A,114.3014,30.5944,武汉市,汉口江滩,,44,44,39,23,22,200,70,159,92,41,33,6,7,0.7,0.7
2023-08-05T23:00:00,1333A,114.135,30.6319,武汉市,吴家山,颗粒物(PM10),54,58,39,29,20,152,67,134,104,43,24,6,6,0.7,0.5
2023-08-05T23:00:00,1334A,113.8454,30.2917,武汉市,沉湖七壕,颗粒物(PM10),53,56,35,30,20,116,11,107,71,66,28,6,6,0.8,0.7
2023-08-05T23:00:00,1335A,113.0833,28.2325,长沙市,经开区环保局,颗粒物(PM10),51,51,45,28,26,145,63,140,112,23,20,5,8,0.6,0.5
2023-08-05T23:00:00,1336A,112.8872,28.2189,长沙市,高开区环保局,,32,32,39,18,26,135,83,128,109,13,18,5,7,0.6,0.7
2023-08-05T23:00:00,1337A,113.0792,28.2053,长沙市,马坡岭,颗粒物(PM10),59,68,51,40,30,162,53,152,118,38,24,4,5,0.6,0.5
2023-08-05T23:00:00,1338A,112.9394,28.19,长沙市,湖南师范大学,,46,38,49,32,31,167,35,137,83,30,18,2,5,0.5,0.6
2023-08-05T23:00:00,1339A,113.0178,28.1322,长沙市,雨花区环保局,,45,45,57,24,25,150,77,140,115,19,28,4,5,0.5,0.5
2023-08-05T23:00:00,1340A,112.9792,28.2597,长沙市,伍家岭,,41,41,47,20,26,185,46,157,109,30,22,3,3,0.6,0.6
2023-08-05T23:00:00,1341A,113.0014,28.1944,长沙市,火车新站,,42,40,43,29,30,151,68,137,107,25,22,5,5,0.7,0.7
2023-08-05T23:00:00,1342A,112.9844,28.1178,长沙市,天心区环保局,,39,39,38,24,23,146,80,138,110,20,18,3,7,0.7,0.7
2023-08-05T23:00:00,1343A,112.8908,28.1308,长沙市,湖南中医药大学,颗粒物(PM10),52,53,37,27,25,146,6,137,93,66,23,2,3,0.9,0.8
2023-08-05T23:00:00,1344A,112.9581,28.3611,长沙市,沙坪,,43,43,44,29,27,162,59,150,101,14,9,5,6,0.6,0.6
2023-08-05T23:00:00,1345A,113.2347,23.1423,广州市,广雅中学,,28,28,28,12,12,126,37,110,79,14,13,4,4,0.8,0.8
2023-08-05T23:00:00,1346A,113.2612,23.105,广州市,市五中,,26,26,27,14,11,129,40,117,82,9,10,4,4,0.6,0.6
2023-08-05T23:00:00,1348A,113.3478,23.0916,广州市,广东商学院,,36,36,35,12,12,125,30,109,74,19,17,4,4,0.5,0.5
2023-08-05T23:00:00,1349A,113.4332,23.1047,广州市,市八十六中,,30,30,29,11,12,120,27,108,70,11,12,4,4,0.5,0.5
2023-08-05T23:00:00,1350A,113.3505,22.9483,广州市,番禺中学,,25,25,23,14,12,115,38,101,72,14,13,4,7,0.6,0.6
2023-08-05T23:00:00,1351A,113.2146,23.3916,广州市,花都师范,,23,23,28,2,7,137,36,122,94,14,17,6,8,0.6,0.6
2023-08-05T23:00:00,1352A,113.2597,23.1331,广州市,市监测站,,23,23,24,10,12,123,37,109,77,14,14,6,6,0.7,0.7
2023-08-05T23:00:00,1353A,113.5618,23.312,广州市,九龙镇镇龙,,,,,,,,,,,,,,,,
2023-08-05T23:00:00,1354A,113.2765,23.1544,广州市,麓湖,,23,23,21,13,12,117,38,103,74,10,10,5,6,0.7,0.7
2023-08-05T23:00:00,1355A,113.443,23.3035,广州市,帽峰山森林公园,,28,28,21,13,14,129,30,113,82,18,15,7,7,0.4,0.3
2023-08-05T23:00:00,1356A,114.1063,22.5545,深圳市,通心岭子站,,24,24,19,8,8,92,23,61,36,20,10,4,4,0.7,0.7
2023-08-05T23:00:00,1357A,114.117,22.5625,深圳市,洪湖,,33,33,23,12,8,88,25,63,40,23,12,5,5,0.6,0.6
2023-08-05T23:00:00,1358A,113.987,22.5417,深圳市,华侨城,,26,26,22,11,10,79,38,53,39,12,11,6,6,0.6,0.6
2023-08-05T23:00:00,1359A,113.9181,22.5171,深圳市,南海子站,,45,45,50,16,12,74,35,47,36,14,17,4,4,0.5,0.5
2023-08-05T23:00:00,1360A,114.2458,22.5689,深圳市,盐田,,23,23,19,10,9,91,31,69,47,12,10,4,4,0.6,0.6
2023-08-05T23:00:00,1361A,114.2283,22.7244,深圳市,龙岗,,28,28,25,10,9,117,28,80,50,19,16,7,7,0.6,0.6
2023-08-05T23:00:00,1363A,114.494,22.5422,深圳市,南澳,,26,26,18,10,7,87,30,62,43,14,11,5,6,0.6,0.6
2023-08-05T23:00:00,1364A,114.41,22.6342,深圳市,葵涌,,30,30,25,9,9,85,29,57,40,4,8,3,3,0.6,0.6
2023-08-05T23:00:00,1365A,114.297,22.5978,深圳市,梅沙,,30,30,25,12,10,89,19,60,34,17,14,5,5,0.5,0.5
2023-08-05T23:00:00,1366A,114.0678,22.738,深圳市,观澜,,32,32,27,12,10,107,34,78,50,16,15,6,6,0.5,0.5
2023-08-05T23:00:00,1367A,113.5814,22.2618,珠海市,吉大,,21,21,18,3,10,69,47,58,48,8,11,4,5,0.4,0.4
2023-08-05T23:00:00,1368A,113.4881,22.2335,珠海市,前山,,20,20,21,9,8,77,45,61,47,8,10,6,7,0.4,0.4
2023-08-05T23:00:00,1369A,113.628,22.4251,珠海市,唐家,,25,25,18,7,9,83,43,69,52,7,6,5,4,0.3,0.3
2023-08-05T23:00:00,1370A,113.299,22.2281,珠海市,斗门,,20,20,16,12,9,59,49,52,49,2,3,5,5,0.5,0.5
2023-08-05T23:00:00,1371A,113.1294,23.0067,佛山市,湾梁,,14,12,13,9,10,106,42,95,71,6,8,5,6,0.5,0.5
2023-08-05T23:00:00,1372A,113.1083,23.0478,佛山市,华材职中,,19,19,17,11,9,97,38,89,67,9,10,9,10,0.4,0.4
2023-08-05T23:00:00,1373A,113.144,23.0453,佛山市,南海气象局,,24,24,22,12,10,88,36,80,60,10,11,6,5,0.5,0.5
2023-08-05T23:00:00,1374A,113.2881,22.8094,佛山市,顺德苏岗,,19,19,13,9,8,94,35,83,56,8,6,8,6,0.7,0.7
2023-08-05T23:00:00,1376A,112.8383,22.8678,佛山市,高明孔堂,,21,21,18,5,7,91,59,77,67,5,7,5,6,0.5,0.5
2023-08-05T23:00:00,1377A,112.8836,23.1588,佛山市,三水监测站,,20,17,23,14,14,102,36,89,65,16,16,4,5,0.6,0.6
2023-08-05T23:00:00,1378A,112.867,23.185,佛山市,三水云东海,,30,30,25,13,13,111,40,98,72,14,14,7,8,0.5,0.5
2023-08-05T23:00:00,1379A,113.3769,22.5211,中山市,华柏园,,23,17,22,16,11,81,45,67,51,9,9,8,7,0.3,0.3
2023-08-05T23:00:00,1380A,113.3881,22.5497,中山市,张溪,,25,25,22,13,11,82,46,71,53,5,5,7,6,0.4,0.4
2023-08-05T23:00:00,1381A,113.4075,22.5111,中山市,紫马岭,,25,25,18,12,11,79,48,67,55,5,5,3,3,0.3,0.3
2023-08-05T23:00:00,1382A,113.4411,22.4853,中山市,长江旅游区,,22,22,19,6,8,80,52,70,57,3,4,10,11,0.4,0.4
2023-08-05T23:00:00,1383A,113.1064,22.6058,江门市,北街,,15,14,20,10,12,80,46,71,52,9,7,5,6,0.5,0.5
2023-08-05T23:00:00,1384A,113.0731,22.5835,江门市,西区,,19,19,24,12,13,81,48,69,51,10,10,6,6,0.3,0.4
2023-08-05T23:00:00,1385A,113.0219,22.5311,江门市,圭峰西,,16,1,22,6,7,76,49,67,52,8,8,3,3,0.5,0.6
2023-08-05T23:00:00,1386A,113.0828,22.5947,江门市,东湖,,17,15,19,7,9,85,54,75,55,7,6,4,5,0.4,0.4
2023-08-05T23:00:00,1389A,113.7547,23.0494,东莞市,莞城梨川,,,34,24,14,11,136,,115,97,16,14,10,9,0.7,0.7
2023-08-05T23:00:00,1390A,113.7944,23.0128,东莞市,东城石井,,33,33,25,12,10,134,26,116,70,18,12,9,7,0.7,0.6
2023-08-05T23:00:00,1391A,113.7383,22.9658,东莞市,南城西平,,28,28,25,10,11,126,37,106,76,18,14,6,5,0.7,0.7
2023-08-05T23:00:00,1392A,114.4183,23.0528,惠州市,河南岸金山湖子站,,25,25,31,12,17,120,23,107,71,22,17,3,3,0.5,0.5
2023-08-05T23:00:00,1393A,114.4053,23.0822,惠州市,下埔横江三路子站,,20,20,25,8,10,137,26,120,76,19,13,5,5,0.8,0.7
2023-08-05T23:00:00,1394A,114.4103,23.1142,惠州市,江北云山西路子站,,27,27,30,8,9,151,30,136,93,17,10,4,5,0.6,0.6
2023-08-05T23:00:00,1395A,114.4645,22.7833,惠州市,惠阳区承修路船湖子站,,15,8,25,10,10,101,26,76,57,14,15,5,5,0.8,0.8
2023-08-05T23:00:00,1396A,114.5317,22.7422,惠州市,大亚湾管委会子站,,12,8,44,7,12,106,37,78,61,10,14,4,4,0.6,0.7
2023-08-05T23:00:00,1397A,112.4267,23.0706,肇庆市,睦岗子站,,28,28,22,12,11,86,46,81,69,13,10,9,10,0.4,0.4
2023-08-05T23:00:00,1398A,112.4645,23.0475,肇庆市,城中子站,,24,24,19,13,11,79,39,75,63,15,13,10,7,0.4,0.5
2023-08-05T23:00:00,1399A,112.5544,23.1522,肇庆市,坑口子站,,24,24,21,13,11,93,42,85,72,14,15,7,7,0.3,0.3
2023-08-05T23:00:00,1400A,112.4753,23.1,肇庆市,七星岩子站,,,,,,,,,,,,,,,,
2023-08-05T23:00:00,1401A,108.3103,22.7881,南宁市,二十一中,,14,10,15,7,7,72,44,65,58,11,8,5,4,0.7,0.7
2023-08-05T23:00:00,1402A,108.3141,22.8528,南宁市,北湖,,14,13,19,8,7,77,42,65,56,9,8,4,4,0.6,0.6
2023-08-05T23:00:00,1403A,108.3206,22.8225,南宁市,市监测站,,14,8,16,7,8,71,42,64,56,14,8,7,6,0.5,0.5
2023-08-05T23:00:00,1404A,108.3829,22.8037,南宁市,大自然花园,,12,7,14,5,9,63,37,56,51,8,7,5,5,0.7,0.7
2023-08-05T23:00:00,1405A,108.4394,22.7904,南宁市,仙葫,,12,5,12,8,8,64,37,56,51,10,9,4,5,0.9,0.9
2023-08-05T23:00:00,1406A,108.2397,22.8467,南宁市,区农职院,,,14,17,8,5,87,,70,60,14,13,6,6,0.8,0.7
2023-08-05T23:00:00,1407A,108.3275,22.735,南宁市,英华嘉园,,12,12,16,8,8,63,35,56,49,14,9,5,5,0.5,0.6
2023-08-05T23:00:00,1408A,108.2257,22.7757,南宁市,沙井镇街道办,,19,19,22,7,8,74,36,62,54,16,16,5,4,0.5,0.7
2023-08-05T23:00:00,1409A,110.576,19.9507,海口市,东寨港,,,,,,,,,,,,,,,,
2023-08-05T23:00:00,1410A,110.3232,20.0574,海口市,海南大学,,29,29,22,12,11,60,39,56,44,13,9,6,6,0.3,0.3
2023-08-05T23:00:00,1411A,110.283,20.0053,海口市,秀英海南医院,,30,30,26,14,14,56,37,52,41,14,11,6,6,0.4,0.4
2023-08-05T23:00:00,1412A,110.338,19.9969,海口市,海南师范大学,,29,29,23,17,13,56,34,53,42,13,9,9,7,0.3,0.3
2023-08-05T23:00:00,1413A,110.33,20.0356,海口市,龙华路环保局宿舍,,28,28,23,15,11,56,33,51,39,17,11,7,6,0.3,0.3
2023-08-05T23:00:00,1414A,106.3787,29.8279,重庆市,缙云山,,26,11,32,7,17,173,82,132,106,5,14,8,10,0.2,0.4
2023-08-05T23:00:00,1416A,106.4213,29.8253,重庆市,天生,,24,24,33,13,22,191,23,139,76,24,22,5,6,0.5,0.7
2023-08-05T23:00:00,1417A,106.6263,29.7228,重庆市,两路,,19,17,25,13,18,237,36,166,106,32,30,5,7,0.8,0.9
2023-08-05T23:00:00,1418A,106.2953,29.5983,重庆市,虎溪,,30,30,42,9,26,156,34,125,83,31,27,5,4,0.5,0.7
2023-08-05T23:00:00,1419A,106.5777,29.5102,重庆市,南坪,,30,30,36,17,23,174,30,143,102,35,27,6,8,0.4,0.5
2023-08-05T23:00:00,1420A,106.6556,29.6277,重庆市,唐家沱,,26,24,22,18,14,174,38,139,100,20,21,4,5,0.6,0.6
2023-08-05T23:00:00,1421A,106.6349,29.4906,重庆市,茶园,,32,32,40,6,12,200,45,153,110,33,33,4,5,0.5,0.7
2023-08-05T23:00:00,1422A,106.3754,29.4572,重庆市,白市驿,,19,9,29,13,19,162,51,139,106,12,16,5,12,0.5,0.7
2023-08-05T23:00:00,1425A,106.6205,29.7166,重庆市,空港,,20,20,29,12,14,245,48,177,119,29,24,6,8,0.7,0.8
2023-08-05T23:00:00,1426A,106.4782,29.4875,重庆市,新山村,,27,27,40,14,20,182,50,146,109,22,29,9,12,0.2,0.4
2023-08-05T23:00:00,1427A,106.5616,29.6453,重庆市,礼嘉,,33,33,40,16,20,214,23,159,110,44,34,5,7,0.7,0.8
2023-08-05T23:00:00,1428A,106.4522,29.7091,重庆市,蔡家,,26,26,42,17,21,205,41,164,104,20,26,3,4,0.7,1
2023-08-05T23:00:00,1429A,106.5093,29.3917,重庆市,鱼新街,,23,23,32,9,18,178,44,143,101,18,26,4,10,0.7,0.9
2023-08-05T23:00:00,1431A,103.9728,30.7236,成都市,金泉两河,,21,21,28,3,13,160,60,133,110,19,14,3,3,0.4,0.4
2023-08-05T23:00:00,1432A,104.176,30.6872,成都市,十里店,,20,7,22,8,14,142,64,123,90,8,16,3,3,0.4,0.5
2023-08-05T23:00:00,1433A,104.079,30.5706,成都市,三瓦窑,,19,17,27,2,17,152,58,134,97,18,27,1,2,0.5,0.6
2023-08-05T23:00:00,1434A,104.1114,30.63,成都市,沙河铺,,36,30,28,25,17,143,57,107,71,12,20,2,2,0.5,0.6
2023-08-05T23:00:00,1437A,104.0786,30.6531,成都市,君平街,,30,30,28,14,19,153,59,138,106,19,19,4,4,0.7,0.7
2023-08-05T23:00:00,1438A,103.613,31.0283,成都市,灵岩寺,,,,,,,,,,,,,,,,
2023-08-05T23:00:00,1439A,106.6899,26.5998,贵阳市,马鞍山,,29,29,25,7,8,119,29,91,61,19,14,4,4,0.4,0.4
2023-08-05T23:00:00,1440A,106.6971,26.5694,贵阳市,市环保站,,32,31,26,22,20,146,40,114,73,24,22,4,5,0.7,0.6
2023-08-05T23:00:00,1441A,106.6243,26.6266,贵阳市,鉴湖路,,25,19,25,17,14,116,33,100,69,15,12,4,4,0.4,0.4
2023-08-05T23:00:00,1442A,106.7487,26.6343,贵阳市,燕子冲,,27,27,19,12,14,111,37,93,69,21,18,7,6,0.7,0.6
2023-08-05T23:00:00,1443A,106.6555,26.4365,贵阳市,碧云窝,,31,31,27,12,8,95,32,86,60,14,9,5,4,0.6,0.4
2023-08-05T23:00:00,1444A,106.694,26.5161,贵阳市,中院村,,29,29,31,17,15,108,21,95,47,22,19,6,6,0.5,0.5
2023-08-05T23:00:00,1445A,106.7109,26.6027,贵阳市,红边门,,31,31,31,19,21,125,33,100,62,23,20,7,6,0.5,0.6
2023-08-05T23:00:00,1446A,106.7164,26.5699,贵阳市,新华路,,27,27,27,14,16,133,36,106,69,21,17,6,5,0.3,0.4
2023-08-05T23:00:00,1447A,106.674,26.5424,贵阳市,太慈桥,,14,14,21,7,8,127,18,104,57,17,14,2,4,0.5,0.5
2023-08-05T23:00:00,1450A,102.8204,24.8886,昆明市,呈贡新区,,34,34,22,14,8,148,57,115,102,25,18,6,6,0.6,0.5
2023-08-05T23:00:00,1451A,102.6251,24.9608,昆明市,西山森林公园,细颗粒物(PM2.5),67,12,9,48,12,131,116,109,109,5,7,6,7,0.4,0.4
2023-08-05T23:00:00,1452A,102.7252,25.0902,昆明市,龙泉镇,,14,14,14,6,5,98,43,83,72,16,14,7,8,0.4,0.4
2023-08-05T23:00:00,1453A,102.7266,25.0375,昆明市,东风东路,,22,22,14,12,8,114,47,94,81,30,19,2,4,0.5,0.4
2023-08-05T23:00:00,1454A,102.6742,25.0669,昆明市,金鼎山,,23,11,13,16,10,59,52,59,56,16,15,6,10,0.5,0.5
2023-08-05T23:00:00,1455A,102.6644,25.0401,昆明市,碧鸡广场,,21,21,14,12,9,126,64,96,89,22,15,5,12,0.5,0.5
2023-08-05T23:00:00,1456A,91.1319,29.6514,拉萨市,八廓街,,22,17,13,10,9,95,70,79,75,25,16,6,6,0.3,0.3
2023-08-05T23:00:00,1457A,91.1221,29.6747,拉萨市,市环保局,,22,7,8,7,7,79,70,73,72,13,11,6,6,0.2,0.2
2023-08-05T23:00:00,1458A,91.0874,29.6475,拉萨市,区监测站,,20,9,6,5,5,78,63,70,68,21,14,8,8,0.1,0.4
2023-08-05T23:00:00,1459A,91.1774,29.6541,拉萨市,西藏大学,,23,7,8,7,6,84,73,74,74,13,9,10,10,0.2,0.2
2023-08-05T23:00:00,1460A,90.9798,29.6588,拉萨市,区辐射站,,19,9,8,7,6,89,58,74,72,22,12,10,10,0.2,0.1
2023-08-05T23:00:00,1461A,91.0834,29.6292,拉萨市,拉萨火车站,,22,11,9,5,6,80,70,71,70,19,11,10,10,0.3,0.3
2023-08-05T23:00:00,1462A,108.882,34.2749,西安市,高压开关厂,,39,39,38,14,14,215,73,194,139,37,30,8,9,0.6,0.5
2023-08-05T23:00:00,1463A,108.993,34.2629,西安市,兴庆小区,,45,45,39,19,14,269,63,213,150,32,19,5,5,0.7,0.7
2023-08-05T23:00:00,1464A,109.06,34.2572,西安市,纺织城,,44,44,45,24,20,273,16,214,128,68,36,3,4,0.4,0.3
2023-08-05T23:00:00,1465A,108.9356,34.2173,西安市,小寨,,31,31,31,12,11,214,31,183,101,40,21,7,7,0.6,0.5
2023-08-05T23:00:00,1466A,108.954,34.2713,西安市,市人民体育场,,49,49,39,8,14,247,65,220,132,34,24,5,5,0.6,0.6
2023-08-05T23:00:00,1467A,108.8922,34.2322,西安市,高新西区,,30,30,32,18,14,229,75,188,138,28,22,7,8,0.8,0.7
2023-08-05T23:00:00,1468A,108.935,34.3474,西安市,经开区,颗粒物(PM10),66,82,42,19,14,236,66,198,145,36,20,3,3,0.6,0.5
2023-08-05T23:00:00,1469A,108.906,34.1546,西安市,长安区,,47,47,42,18,11,179,64,161,130,28,23,4,4,0.8,0.7
2023-08-05T23:00:00,1471A,109.2186,34.3731,西安市,临潼区,,45,45,37,21,16,216,114,177,155,18,14,3,5,0.6,0.5
2023-08-05T23:00:00,1472A,108.869,34.378,西安市,草滩,颗粒物(PM10),56,62,34,22,11,211,47,187,144,67,22,6,6,0.5,0.3
2023-08-05T23:00:00,1473A,108.985,34.1978,西安市,曲江文化产业集团,,33,33,40,13,13,237,50,194,118,33,30,5,5,0.6,0.6
2023-08-05T23:00:00,1474A,109.051,34.3213,西安市,广运潭,,36,36,38,16,15,245,63,205,145,24,20,7,8,0.5,0.5
2023-08-05T23:00:00,1476A,103.631,36.1031,兰州市,兰炼宾馆,,46,45,63,32,33,169,119,156,138,10,23,10,25,0.4,0.5
2023-08-05T23:00:00,1477A,104.1373,35.9454,兰州市,榆中兰大校区,,,,,,,,,,,,,,,,
2023-08-05T23:00:00,1478A,103.8412,36.0726,兰州市,生物制品所,细颗粒物(PM2.5),53,44,65,37,31,154,118,144,133,10,35,3,11,0.5,0.7
2023-08-05T23:00:00,1479A,103.831,36.0464,兰州市,铁路设计院,,43,43,67,30,33,152,98,142,121,36,37,6,15,0.4,0.7
2023-08-05T23:00:00,1483A,101.524,36.6867,西宁市,第五水厂,,,,,,,,,,,,,,,,
2023-08-05T23:00:00,1484A,105.9512,38.6016,银川市,贺兰山马莲口,,45,17,16,14,9,160,142,145,144,5,7,12,8,0.5,0.4
2023-08-05T23:00:00,1488A,106.2328,38.4975,银川市,贺兰山东路,,45,45,46,22,22,178,104,155,130,30,25,13,8,0.5,0.5
2023-08-05T23:00:00,1489A,106.1358,38.5036,银川市,学院路,颗粒物(PM10),56,62,47,35,21,150,82,138,119,37,26,20,11,0.6,0.5
2023-08-05T23:00:00,1490A,87.5801,43.8303,乌鲁木齐市,监测站,,31,26,49,11,12,157,55,133,116,62,36,4,4,0.5,0.4
2023-08-05T23:00:00,1491A,87.6046,43.768,乌鲁木齐市,收费所,,43,43,42,21,18,161,40,140,120,62,33,8,6,0.8,0.4
2023-08-05T23:00:00,1492A,87.4754,43.9469,乌鲁木齐市,新疆农科院农场,颗粒物(PM10),52,54,69,5,12,128,72,116,106,26,32,2,4,0.7,0.8
2023-08-05T23:00:00,1493A,87.5525,43.8711,乌鲁木齐市,铁路局,颗粒物(PM10),51,51,46,9,16,151,72,136,121,40,35,2,4,0.3,0.2
2023-08-05T23:00:00,1494A,87.6432,43.831,乌鲁木齐市,三十一中学,,36,36,42,13,12,151,70,131,118,44,23,5,6,1.1,0.8
2023-08-05T23:00:00,1496A,87.7216,44.1747,乌鲁木齐市,米东区环保局,,49,49,58,15,19,153,87,134,117,20,24,5,8,0.3,0.4
2023-08-05T23:00:00,1508A,112.9433,27.8614,湘潭市,板塘,颗粒物(PM10),55,59,48,27,29,121,46,115,94,29,20,7,7,0.3,0.3
2023-08-05T23:00:00,1511A,112.9118,27.8403,湘潭市,市监测站,,39,39,38,21,25,127,91,122,111,17,16,4,11,0.5,0.8
2023-08-05T23:00:00,1512A,112.8937,27.8728,湘潭市,江麓,,44,44,40,17,22,117,85,113,103,15,15,8,10,0.3,0.5
2023-08-05T23:00:00,1513A,112.9227,27.8159,湘潭市,岳塘,,37,37,42,18,26,123,72,117,100,17,13,4,8,0.4,0.4
2023-08-05T23:00:00,1514A,112.9074,27.9119,湘潭市,科大,颗粒物(PM10),52,54,50,26,27,137,65,127,99,20,18,12,13,0.3,0.6
2023-08-05T23:00:00,1515A,113.135,27.8244,株洲市,天台山庄,,46,46,41,20,24,145,80,128,109,10,11,4,5,0.6,0.6
2023-08-05T23:00:00,1518A,113.095,27.8867,株洲市,株冶医院,颗粒物(PM10),52,54,42,29,23,126,13,120,93,61,19,4,4,0.6,0.6
2023-08-05T23:00:00,1519A,113.167,27.8667,株洲市,市四中,,44,44,42,25,24,125,80,118,98,6,11,5,6,0.3,0.4
2023-08-05T23:00:00,1520A,113.143,27.8381,株洲市,火车站,颗粒物(PM10),51,52,43,18,24,141,60,123,100,27,11,6,7,0.6,0.5
2023-08-05T23:00:00,1524A,113.13,27.8528,株洲市,市监测站,,45,45,45,25,25,141,76,127,107,11,11,3,4,0.7,0.6
2023-08-05T23:00:00,1552A,106.805,26.3003,贵阳市,桐木岭,,,,,,,,,,,,,,,,
2023-08-05T23:00:00,1559A,113.251,27.8336,株洲市,大京风景区,,50,50,38,23,19,110,20,97,62,5,4,3,3,0.5,0.5
2023-08-05T23:00:00,1562A,113.0048,27.9153,湘潭市,昭山,,46,46,44,29,27,137,40,133,97,39,26,4,9,0.6,0.7
2023-08-05T23:00:00,1564A,112.4876,27.9164,湘潭市,韶山,,39,39,34,17,17,106,29,101,67,8,7,6,6,0.3,0.3
2023-08-05T23:00:00,1585A,109.8756,40.6532,包头市,市环境监测站,,48,48,61,26,30,241,76,180,117,42,43,11,18,0.6,1.2
2023-08-05T23:00:00,1587A,109.9991,40.5842,包头市,包头八中,,47,47,55,15,22,194,76,155,118,33,31,9,8,0.8,1.2
2023-08-05T23:00:00,1588A,109.8538,40.6821,包头市,青山宾馆,,44,44,58,16,26,262,77,181,119,38,36,7,17,0.6,1.1
2023-08-05T23:00:00,1589A,109.8642,40.6288,包头市,惠龙物流,,48,48,59,14,28,227,92,178,122,28,37,13,21,0.6,1.2
2023-08-05T23:00:00,1590A,110.0377,40.5546,包头市,东河鸿龙湾,,49,49,36,25,17,182,50,151,108,45,22,9,10,0.8,0.9
2023-08-05T23:00:00,1591A,110.0023,39.8129,鄂尔多斯市,综合楼,,36,36,55,7,18,138,74,127,106,45,33,7,22,0.6,0.7
2023-08-05T23:00:00,1592A,109.9486,39.8261,鄂尔多斯市,巴音孟克林场办事处,,39,39,45,14,18,149,94,139,119,28,31,6,10,0.6,0.7
2023-08-05T23:00:00,1593A,109.7736,39.5986,鄂尔多斯市,康泽苑,,44,44,31,9,9,139,57,136,110,38,15,8,10,0.6,0.5
2023-08-05T23:00:00,1594A,109.8119,39.5989,鄂尔多斯市,华泰汽车城,颗粒物(PM10),57,63,36,14,15,140,17,135,92,72,24,7,8,0.9,0.6
2023-08-05T23:00:00,1595A,109.9734,39.7884,鄂尔多斯市,奥林花园,颗粒物(PM10),63,75,47,12,18,138,22,128,94,67,32,6,11,0.7,0.9
2023-08-05T23:00:00,1597A,122.2703,40.7094,营口市,大庆路,,20,9,16,1,8,114,62,111,68,8,7,3,4,0.5,0.6
2023-08-05T23:00:00,1598A,122.2150,40.6511,营口市,镜湖西路,,18,15,20,3,7,116,56,109,62,9,8,5,5,0.4,0.5
2023-08-05T23:00:00,1599A,122.1658,40.6789,营口市,西炮台,,18,14,23,2,9,129,57,126,64,12,11,3,4,0.4,0.5
2023-08-05T23:00:00,1600A,124.3303,40.0625,丹东市,江湾东路,,22,17,16,13,10,101,70,91,81,12,8,6,4,0.7,0.6
2023-08-05T23:00:00,1601A,124.4256,40.1503,丹东市,临江后街,,20,20,15,9,8,90,60,82,67,12,6,6,4,0.8,0.7
2023-08-05T23:00:00,1602A,124.3933,40.1461,丹东市,元宝山,,19,17,13,13,9,87,60,75,64,10,7,6,5,0.5,0.4
2023-08-05T23:00:00,1603A,124.3633,40.1092,丹东市,民主桥,,20,17,12,11,8,84,63,78,70,11,9,3,2,0.7,0.6
2023-08-05T23:00:00,1604A,122.0303,41.1489,盘锦市,开发区,,22,12,16,8,10,137,69,133,65,12,12,2,3,0.5,0.6
2023-08-05T23:00:00,1605A,122.0485,41.0883,盘锦市,兴隆台,,22,3,16,3,10,123,70,123,67,14,13,4,2,0.3,0.4
2023-08-05T23:00:00,1606A,121.8297,41.1028,盘锦市,新生街道,,17,10,14,8,10,129,53,127,52,14,11,4,4,0.4,0.4
2023-08-05T23:00:00,1607A,120.9092,40.7136,葫芦岛市,龙港区,二氧化硫,89,30,42,5,25,120,57,120,65,27,23,422,89,1.5,0.7
2023-08-05T23:00:00,1608A,120.8392,40.7514,葫芦岛市,化工街,,19,19,25,8,9,84,34,74,62,23,19,7,8,0.6,0.5
2023-08-05T23:00:00,1609A,120.8341,40.7073,葫芦岛市,新区,,19,14,33,8,16,83,32,75,59,37,19,7,7,0.5,0.5
2023-08-05T23:00:00,1610A,120.8695,40.7677,葫芦岛市,东城区,,24,15,26,2,8,77,13,68,49,48,26,8,10,0.5,0.5
2023-08-05T23:00:00,1611A,118.5819,24.9117,泉州市,涂山街,颗粒物(PM10),53,55,61,19,29,193,61,146,120,26,20,8,9,0.9,0.9
2023-08-05T23:00:00,1612A,118.5972,24.8978,泉州市,津头埔,颗粒物(PM10),52,54,53,28,31,202,50,148,114,35,27,10,11,0.9,0.8
2023-08-05T23:00:00,1613A,118.6663,24.9424,泉州市,万安,颗粒物(PM10),52,53,60,13,32,202,66,155,123,22,25,4,3,0.7,0.8
2023-08-05T23:00:00,1614A,118.6117,24.9604,泉州市,清源山,,,,,,,,,,,,,,,,
2023-08-05T23:00:00,1616A,117.6795,36.229,济南市,技术学院,,39,22,36,27,22,158,76,135,98,19,18,6,11,0.8,0.8
2023-08-05T23:00:00,1618A,118.3429,35.0532,临沂市,沂河小区,,41,41,39,28,22,154,74,142,116,15,13,5,8,0.3,0.3
2023-08-05T23:00:00,1619A,118.295,35.0583,临沂市,鲁南制药厂,,41,41,34,21,18,162,72,149,121,17,11,4,5,0.8,0.8
2023-08-05T23:00:00,1620A,118.2794,34.9976,临沂市,新光毛纺厂,,35,31,30,24,18,153,79,142,114,17,14,6,8,0.3,0.3
2023-08-05T23:00:00,1621A,118.3956,35.0888,临沂市,河东保险公司,,36,36,33,24,21,146,52,134,103,20,12,2,4,0.5,0.5
2023-08-05T23:00:00,1622A,116.3032,37.4674,德州市,儿童乐园,,29,12,22,5,11,103,90,98,94,9,9,7,7,0.7,0.7
2023-08-05T23:00:00,1624A,116.2991,37.4451,德州市,监理站,,27,8,21,7,14,102,86,95,91,6,9,8,9,0.5,0.5
2023-08-05T23:00:00,1625A,115.9848,36.4372,聊城市,区政府,,18,17,22,11,14,144,56,114,80,12,10,3,4,0.5,0.5
2023-08-05T23:00:00,1628A,118.0062,37.3803,滨州市,市环保局,,35,34,38,24,24,150,70,116,99,8,9,3,6,0.3,0.3
2023-08-05T23:00:00,1629A,118.0018,37.3617,滨州市,第二水厂,,33,22,34,23,21,153,74,116,98,10,11,5,3,0.4,0.4
2023-08-05T23:00:00,1630A,117.9776,37.393,滨州市,北中新校,,39,39,38,23,19,136,72,112,101,10,12,2,3,0.4,0.4
2023-08-05T23:00:00,1631A,118.0414,36.8103,淄博市,人民公园,,27,27,29,14,16,157,69,130,94,27,19,12,14,0.3,0.3
2023-08-05T23:00:00,1633A,117.8525,36.4847,淄博市,双山,,28,19,31,8,17,137,88,122,98,15,13,12,14,0.5,0.5
2023-08-05T23:00:00,1634A,117.9592,36.6331,淄博市,气象站,,35,35,29,19,20,142,55,116,81,25,14,8,10,0.4,0.3
2023-08-05T23:00:00,1635A,118.3092,36.8194,淄博市,莆田园,,22,22,37,14,23,179,63,137,84,19,14,8,13,0.4,0.7
2023-08-05T23:00:00,1637A,117.558,34.8438,枣庄市,市中区政府,颗粒物(PM10),53,56,56,27,26,158,109,150,130,23,27,15,14,0.6,0.6
2023-08-05T23:00:00,1638A,117.2852,34.7837,枣庄市,薛城环保局,,34,34,45,17,21,195,75,164,131,18,19,10,10,0.4,0.5
2023-08-05T23:00:00,1639A,117.5852,34.7745,枣庄市,峄城区政府,,46,46,49,17,17,158,78,150,118,21,19,7,8,0.6,0.5
2023-08-05T23:00:00,1640A,117.7276,34.5578,枣庄市,台儿庄区环保局,颗粒物(PM10),56,61,38,24,17,133,85,119,94,17,22,10,10,0.4,0.4
2023-08-05T23:00:00,1641A,117.4518,35.0992,枣庄市,山亭区环保局,,30,29,35,17,23,163,94,157,131,16,13,7,11,0.3,0.2
2023-08-05T23:00:00,1642A,121.2514,37.5639,烟台市,开发区,,24,22,21,7,13,143,74,121,102,5,8,3,6,0.6,0.7
2023-08-05T23:00:00,1643A,121.3719,37.5433,烟台市,轴承厂,,44,44,30,20,18,138,78,127,100,27,14,4,4,0.3,0.4
2023-08-05T23:00:00,1644A,121.3181,37.5436,烟台市,西郊化工站,,38,36,27,26,20,125,81,114,91,11,11,4,6,0.6,0.5
2023-08-05T23:00:00,1645A,121.4478,37.4822,烟台市,莱山环保局,,36,36,23,17,13,136,91,116,96,4,7,5,5,0.5,0.5
2023-08-05T23:00:00,1646A,121.2611,37.4967,烟台市,福山环保局,,36,36,28,19,12,136,77,115,86,12,13,6,7,0.4,0.3
2023-08-05T23:00:00,1650A,119.1437,36.7023,潍坊市,环保局,,21,17,31,10,17,157,65,136,96,23,14,7,8,0.4,0.4
2023-08-05T23:00:00,1653A,116.6251,35.4302,济宁市,火炬城,,23,23,39,12,17,145,63,126,88,9,12,6,8,0.7,0.7
2023-08-05T23:00:00,1655A,116.5491,35.4042,济宁市,电化厂,,30,30,37,19,18,146,56,131,91,13,7,4,5,0.7,0.6
2023-08-05T23:00:00,1656A,117.1437,36.1937,泰安市,监测站,,27,17,34,15,16,152,84,130,104,8,9,7,9,0.4,0.3
2023-08-05T23:00:00,1657A,117.0885,36.2017,泰安市,人口学校,,36,14,28,25,19,147,87,117,92,10,11,6,8,0.4,0.4
2023-08-05T23:00:00,1658A,117.1089,36.1758,泰安市,电力学校,,29,19,33,18,17,159,90,130,103,5,8,8,10,0.4,0.3
2023-08-05T23:00:00,1659A,119.471,35.4209,日照市,监测站,,17,17,27,5,13,136,36,108,70,19,11,7,8,0.5,0.6
2023-08-05T23:00:00,1660A,119.523,35.4216,日照市,市政府广场,,29,29,28,10,13,125,32,104,75,34,17,15,12,0.5,0.6
2023-08-05T23:00:00,1661A,119.5587,35.4044,日照市,港务局,,41,41,29,9,7,111,27,90,62,33,19,9,9,0.6,0.7
2023-08-05T23:00:00,1662A,122.1214,37.4236,威海市,华夏技校,,28,19,13,17,11,117,89,94,65,9,8,4,4,0.3,0.2
2023-08-05T23:00:00,1663A,122.0508,37.5236,威海市,山大分校,,32,17,21,5,9,130,102,115,98,6,7,6,7,0.4,0.3
2023-08-05T23:00:00,1664A,122.1067,37.5072,威海市,市监测站,,32,20,19,10,10,155,102,109,81,2,6,6,6,0.5,0.5
2023-08-05T23:00:00,1666A,118.6614,37.4309,东营市,市环保局,,25,24,29,17,20,117,71,94,85,1,12,5,7,0.2,0.3
2023-08-05T23:00:00,1669A,113.5824,24.7733,韶关市,市八中,,18,18,31,5,13,114,54,111,83,12,14,10,13,0.5,0.6
2023-08-05T23:00:00,1671A,113.5917,24.7972,韶关市,园林处,,19,11,29,6,15,133,60,128,83,10,9,17,14,0.6,0.6
2023-08-05T23:00:00,1672A,113.6735,24.7791,韶关市,韶关学院,,,46,42,19,24,102,54,93,85,15,10,11,28,,0.5
2023-08-05T23:00:00,1673A,113.5971,24.6863,韶关市,曲江监测站,,24,24,29,9,14,116,55,109,81,12,11,9,11,0.6,0.6
2023-08-05T23:00:00,1674A,116.6794,23.3667,汕头市,金平子站,,16,14,20,11,11,102,49,92,75,8,7,4,4,0.6,0.6
2023-08-05T23:00:00,1675A,116.7244,23.3633,汕头市,龙湖子站,,18,18,22,6,9,110,57,102,85,9,8,4,4,0.6,0.6
2023-08-05T23:00:00,1676A,116.7258,23.2775,汕头市,濠江子站,,17,17,32,8,13,103,50,90,62,4,7,8,9,0.6,0.7
2023-08-05T23:00:00,1677A,116.7519,23.4714,汕头市,澄海子站,,24,24,25,16,12,113,59,105,86,9,10,4,5,0.5,0.6
2023-08-05T23:00:00,1678A,116.6092,23.2539,汕头市,潮阳子站,,30,30,29,10,9,101,59,94,78,6,5,8,8,0.6,0.6
2023-08-05T23:00:00,1680A,110.3539,21.2706,湛江市,湛江影剧院,,32,32,26,10,9,71,49,67,54,8,7,18,14,0.6,0.5
2023-08-05T23:00:00,1681A,110.3928,21.2228,湛江市,市环境监测站,,36,36,25,20,10,71,49,65,55,11,8,7,8,0.5,0.4
2023-08-05T23:00:00,1682A,110.4019,21.1997,湛江市,环保局宿舍,,33,33,26,10,12,72,49,66,56,10,8,5,6,0.6,0.6
2023-08-05T23:00:00,1683A,110.4111,21.2028,湛江市,霞山游泳场,,44,44,29,16,10,75,46,68,57,16,10,7,7,0.6,0.5
2023-08-05T23:00:00,1684A,110.3316,21.2679,湛江市,麻章区环保局,,32,32,30,9,10,69,46,63,52,9,8,17,12,0.6,0.6
2023-08-05T23:00:00,1685A,110.4558,21.2567,湛江市,坡头区环保局,,32,32,20,10,8,76,47,68,52,16,12,6,6,0.5,0.5
2023-08-05T23:00:00,1686A,111.0286,21.4688,茂名市,电白南海,,31,31,29,14,15,84,59,78,74,9,6,10,7,0.4,0.4
2023-08-05T23:00:00,1687A,110.9294,21.6533,茂名市,茂石化七小,,36,36,25,24,16,81,24,73,58,21,8,12,6,1.0,0.5
2023-08-05T23:00:00,1688A,110.9107,21.6687,茂名市,健康路,,34,34,20,9,9,78,21,70,53,21,9,5,3,0.7,0.4
2023-08-05T23:00:00,1689A,110.8592,21.6828,茂名市,高岭,,29,29,28,14,17,81,16,68,44,19,12,12,6,1.0,0.5
2023-08-05T23:00:00,1690A,116.1231,24.3284,梅州市,梅江月梅,,25,25,20,12,11,100,77,92,78,10,10,2,2,0.7,0.6
2023-08-05T23:00:00,1691A,116.0797,24.2719,梅州市,梅县新城,,27,21,21,13,11,102,84,93,83,8,7,6,5,0.7,0.6
2023-08-05T23:00:00,1692A,116.1248,24.2654,梅州市,环境监控中心,,25,24,23,12,12,102,80,93,84,12,11,4,4,0.6,0.6
2023-08-05T23:00:00,1693A,115.3653,22.775,汕尾市,市环保局,,30,30,26,11,9,97,37,74,53,8,6,7,7,0.6,0.6
2023-08-05T23:00:00,1694A,115.3706,22.7898,汕尾市,市政府,,,27,22,16,9,97,,75,44,6,5,4,4,0.6,0.6
2023-08-05T23:00:00,1695A,115.3622,22.7925,汕尾市,新城中学,,26,26,31,10,10,99,43,77,59,5,4,6,6,0.6,0.7
2023-08-05T23:00:00,1696A,114.6778,23.7569,河源市,源西,,27,27,29,17,15,127,72,109,105,13,14,4,5,0.6,0.6
2023-08-05T23:00:00,1697A,114.6944,23.7586,河源市,东埔,,42,42,36,23,14,132,69,111,107,14,13,5,5,0.6,0.6
2023-08-05T23:00:00,1698A,114.6892,23.7233,河源市,老城,颗粒物(PM10),57,63,41,14,13,139,68,114,110,16,13,4,4,0.6,0.6
2023-08-05T23:00:00,1699A,111.9797,21.8593,阳江市,鸳鸯湖,,29,29,20,9,8,67,61,62,61,4,5,6,8,0.7,0.7
2023-08-05T23:00:00,1701A,111.9491,21.8658,阳江市,马南垌,,21,21,22,8,10,71,59,63,61,4,5,4,5,0.5,0.5
2023-08-05T23:00:00,1702A,113.0426,23.691,清远市,环保大楼,,39,39,28,17,15,121,41,98,87,20,14,7,7,0.4,0.4
2023-08-05T23:00:00,1703A,113.0208,23.7106,清远市,凤城街办,,32,32,26,12,12,104,45,86,81,14,11,8,7,0.4,0.4
2023-08-05T23:00:00,1705A,116.6367,23.6719,潮州市,西园路,,34,34,32,13,17,97,64,86,76,10,10,6,6,0.4,0.4
2023-08-05T23:00:00,1706A,116.6447,23.6706,潮州市,档案局,,30,30,29,20,14,116,67,98,84,11,10,13,9,0.6,0.5
2023-08-05T23:00:00,1708A,116.3701,23.5345,揭阳市,新兴,,25,25,23,14,14,88,50,82,74,6,5,6,6,0.6,0.6
2023-08-05T23:00:00,1709A,116.3264,23.5443,揭阳市,西马,,28,28,24,16,11,85,50,78,71,6,6,5,5,0.6,0.6
2023-08-05T23:00:00,1710A,116.3611,23.5626,揭阳市,东兴,,40,40,26,11,11,91,55,82,76,7,8,1,2,0.7,0.7
2023-08-05T23:00:00,1711A,116.4151,23.5294,揭阳市,渔湖,,30,30,25,12,10,91,61,86,81,1,3,4,5,0.6,0.6
2023-08-05T23:00:00,1712A,112.0392,22.9169,云浮市,新市府,,23,23,14,8,6,65,53,58,57,3,2,6,5,0.7,0.7
2023-08-05T23:00:00,1714A,112.0539,22.9539,云浮市,牧羊,,39,14,28,27,17,60,58,56,56,5,18,13,16,0.5,0.5
2023-08-05T23:00:00,1715A,102.575,24.3711,玉溪市,东风水库,,24,21,13,5,8,76,76,66,60,6,10,4,5,0.8,0.8
2023-08-05T23:00:00,1718A,115.4208,35.2464,菏泽市,气象局,,21,19,33,7,18,130,67,118,86,12,11,3,3,0.4,0.4
2023-08-05T23:00:00,1719A,115.4747,35.2375,菏泽市,市政协,,23,6,28,8,19,134,73,127,91,6,7,4,5,0.3,0.3
2023-08-05T23:00:00,1721A,113.3819,40.1097,大同市,果树场,,,,,,,,,,,,,,,,
2023-08-05T23:00:00,1723A,113.2994,40.0758,大同市,云冈宾馆,颗粒物(PM10),62,74,30,22,11,133,20,122,95,62,24,9,11,0.8,0.7
2023-08-05T23:00:00,1724A,113.3444,40.0917,大同市,大同大学,颗粒物(PM10),54,57,24,24,12,121,43,116,94,39,18,12,10,0.8,0.9
2023-08-05T23:00:00,1725A,113.2661,40.1269,大同市,安家小村,,25,25,29,2,8,130,65,117,95,10,15,12,10,0.6,0.6
2023-08-05T23:00:00,1726A,113.2711,40.0844,大同市,教育学院,颗粒物(PM10),52,54,32,18,12,134,44,121,92,43,26,13,12,1.4,0.8
2023-08-05T23:00:00,1727A,113.1147,36.1547,长治市,清华站,,21,21,41,5,18,144,50,110,74,17,15,7,7,1.0,0.8
2023-08-05T23:00:00,1728A,113.1031,36.1989,长治市,监测站,,20,20,40,2,23,152,35,116,73,28,19,11,12,0.9,0.8
2023-08-05T23:00:00,1730A,113.0886,36.2125,长治市,审计局,,18,12,40,5,25,139,56,113,79,11,11,5,5,0.8,0.8
2023-08-05T23:00:00,1731A,113.0844,36.1856,长治市,长治八中,,25,22,44,17,25,147,39,114,74,23,17,8,10,1.0,0.7
2023-08-05T23:00:00,1733A,111.5531,36.0783,临汾市,临钢医院,颗粒物(PM10),52,53,44,17,12,160,45,111,74,36,19,5,6,0.9,0.8
2023-08-05T23:00:00,1734A,111.5028,36.0714,临汾市,技工学校,颗粒物(PM10),56,61,40,26,15,152,51,107,83,36,20,7,9,1.0,0.9
2023-08-05T23:00:00,1736A,111.5018,36.0855,临汾市,市委,颗粒物(PM10),61,71,47,39,27,165,46,108,81,41,21,12,14,0.7,0.7
2023-08-05T23:00:00,1738A,113.5758,37.8572,阳泉市,市中心,,26,18,22,9,13,131,83,124,116,18,16,9,10,0.9,0.8
2023-08-05T23:00:00,1739A,113.4894,37.8731,阳泉市,赛鱼,,22,22,25,9,16,126,32,120,82,33,21,7,7,0.6,0.7
2023-08-05T23:00:00,1740A,113.5819,37.8486,阳泉市,南庄,,41,41,33,14,15,139,81,129,114,15,16,6,6,0.8,0.8
2023-08-05T23:00:00,1742A,113.5614,37.8703,阳泉市,平坦,,41,41,37,11,18,131,103,125,116,16,18,10,6,0.7,0.7
2023-08-05T23:00:00,1743A,113.5158,37.8392,阳泉市,大阳泉,,32,12,24,13,18,130,102,121,116,10,10,8,9,0.6,0.6
2023-08-05T23:00:00,1744A,118.9233,42.2816,赤峰市,松山一中,,21,15,15,7,4,88,66,82,62,15,16,9,10,0.4,0.4
2023-08-05T23:00:00,1745A,118.9576,42.2728,赤峰市,哈达街,颗粒物(PM10),61,72,28,2,4,91,65,82,57,13,16,15,16,0.3,0.3
2023-08-05T23:00:00,1746A,118.8788,42.2554,赤峰市,天义路,,24,16,8,8,5,93,76,84,66,10,14,12,14,0.1,0.1
2023-08-05T23:00:00,1748A,123.044,41.1196,鞍山市,深沟寺,,17,13,23,2,9,120,54,119,59,10,10,2,2,0.5,0.6
2023-08-05T23:00:00,1749A,123.011,41.0931,鞍山市,太阳城,,24,24,18,9,9,120,66,116,68,9,9,5,5,0.6,0.8
2023-08-05T23:00:00,1750A,123.0485,41.1442,鞍山市,太平,,18,10,21,2,8,106,57,106,64,13,14,4,4,0.7,1
2023-08-05T23:00:00,1751A,122.9642,41.0971,鞍山市,铁西三道街,,44,38,28,10,11,126,20,126,35,54,26,44,17,4.4,1.8
2023-08-05T23:00:00,1752A,122.9341,41.0833,鞍山市,铁西工业园区,,22,18,21,2,8,125,42,125,63,41,17,17,7,2.2,1.1
2023-08-05T23:00:00,1753A,123.022,41.0821,鞍山市,明达新区,,20,13,24,2,10,116,62,116,66,11,9,3,3,0.4,0.5
2023-08-05T23:00:00,1754A,123.1289,41.0228,鞍山市,千山,,,,,,,,,,,,,,,,
2023-08-05T23:00:00,1755A,123.7977,41.8491,抚顺市,望花区,,19,17,14,5,7,90,60,78,67,14,9,8,4,0.3,0.3
2023-08-05T23:00:00,1756A,123.9161,41.8822,抚顺市,顺城区,,17,12,13,5,6,82,53,73,65,14,7,3,3,0.3,0.4
2023-08-05T23:00:00,1757A,124.0436,41.8611,抚顺市,东洲区,,21,13,14,4,6,86,67,86,66,6,7,3,4,0.1,0.2
2023-08-05T23:00:00,1758A,123.9247,41.8642,抚顺市,新抚区,,22,10,12,4,6,75,69,72,70,6,8,5,4,0.4,0.5
2023-08-05T23:00:00,1759A,124.0972,41.8961,抚顺市,大伙房水库,,19,17,12,3,6,101,60,87,62,5,3,4,3,0.0,0.1
2023-08-05T23:00:00,1760A,123.7086,41.8391,抚顺市,沈抚新城,,15,12,16,8,6,75,45,68,59,10,6,4,4,0.3,0.5
2023-08-05T23:00:00,1761A,123.8275,41.3064,本溪市,大峪,,15,13,21,4,8,87,48,87,60,10,12,4,3,0.3,0.4
2023-08-05T23:00:00,1762A,123.7567,41.3325,本溪市,溪湖,,19,9,22,2,11,96,60,96,71,8,7,4,3,0.6,0.7
2023-08-05T23:00:00,1763A,123.7169,41.3094,本溪市,彩屯,,14,10,24,4,15,99,43,94,57,20,19,6,6,0.8,0.8
2023-08-05T23:00:00,1764A,123.7669,41.2864,本溪市,东明,,19,13,19,7,15,103,58,84,70,14,14,6,5,0.8,0.7
2023-08-05T23:00:00,1765A,123.7992,41.2664,本溪市,新立屯,,15,11,19,7,12,102,48,86,66,11,11,7,6,0.7,0.7
2023-08-05T23:00:00,1766A,123.8142,41.3472,本溪市,威宁,,17,17,17,6,11,89,37,74,57,17,12,5,6,0.4,0.5
2023-08-05T23:00:00,1767A,121.1115,41.0879,锦州市,南山,,18,10,18,2,9,81,56,72,68,14,12,4,4,0.7,0.6
2023-08-05T23:00:00,1768A,121.0533,40.8434,锦州市,开发区,,18,14,29,12,14,98,47,86,64,11,7,3,4,0.5,0.7
2023-08-05T23:00:00,1769A,121.1836,41.1119,锦州市,百股街道,,17,6,21,2,7,82,52,72,62,14,12,1,5,0.5,0.8
2023-08-05T23:00:00,1770A,121.1178,41.1222,锦州市,天安街道,,43,13,20,30,15,76,52,67,65,16,14,4,4,0.9,1
2023-08-05T23:00:00,1771A,121.1303,41.1386,锦州市,北湖公园,,19,8,20,5,7,83,60,75,71,11,10,2,3,0.7,0.9
2023-08-05T23:00:00,1772A,126.54,43.8622,吉林市,哈达湾,,18,8,10,2,3,75,56,64,60,11,10,6,6,0.4,0.5
2023-08-05T23:00:00,1773A,126.5844,43.8358,吉林市,东局子,,17,17,12,3,5,72,37,61,55,18,11,7,6,0.6,0.6
2023-08-05T23:00:00,1774A,126.5052,43.8245,吉林市,电力学院,,14,8,11,4,4,60,44,52,49,6,6,6,6,0.6,0.6
2023-08-05T23:00:00,1775A,126.6133,43.8972,吉林市,江北,,16,16,17,4,7,75,35,62,53,28,17,10,8,0.6,0.6
2023-08-05T23:00:00,1776A,126.555,43.8306,吉林市,江南公园,,17,7,13,2,5,68,53,59,56,11,11,3,3,0.6,0.6
2023-08-05T23:00:00,1778A,126.7061,43.7133,吉林市,丰满,,,,,,,,,,,,,,,,
2023-08-05T23:00:00,1779A,123.9305,47.3636,齐齐哈尔市,安居小区,,42,27,16,29,13,77,38,76,45,5,4,5,5,0.3,0.3
2023-08-05T23:00:00,1780A,123.9488,47.3386,齐齐哈尔市,中心广场,,23,23,10,2,4,74,35,73,43,8,6,2,2,0.3,0.3
2023-08-05T23:00:00,1781A,123.9483,47.3227,齐齐哈尔市,农牧车辆厂,,29,29,21,18,9,75,40,73,47,6,5,6,6,0.3,0.3
2023-08-05T23:00:00,1783A,123.945,47.2988,齐齐哈尔市,市环境监测站,,21,21,12,11,6,73,39,71,49,8,5,6,6,0.2,0.2
2023-08-05T23:00:00,1784A,129.61,44.561,牡丹江市,环保大楼,,16,16,10,7,8,84,29,68,38,5,8,5,5,0.4,0.5
2023-08-05T23:00:00,1785A,129.6115,44.5782,牡丹江市,文化广场,,19,8,9,13,12,70,25,66,31,6,12,5,5,0.4,0.5
2023-08-05T23:00:00,1786A,129.5904,44.5963,牡丹江市,第一医院,,12,12,12,5,10,71,27,57,34,3,8,4,4,0.3,0.4
2023-08-05T23:00:00,1787A,129.6364,44.6075,牡丹江市,机车工厂,,14,14,13,6,6,61,26,54,34,1,5,4,3,0.4,0.5
2023-08-05T23:00:00,1788A,129.6386,44.5462,牡丹江市,第一中学,,10,8,14,4,7,79,29,68,37,4,8,4,4,0.3,0.4
2023-08-05T23:00:00,1789A,124.81117,46.03138,大庆市,大同区,,10,8,5,3,5,49,32,46,34,4,5,5,5,0.2,0.2
2023-08-05T23:00:00,1790A,125.129,46.533,大庆市,龙凤区,,12,9,7,5,7,45,36,37,36,2,6,5,5,0.1,0.2
2023-08-05T23:00:00,1791A,124.902,46.408,大庆市,红岗区,,26,7,10,18,10,51,37,40,38,4,5,2,2,0.3,0.3
2023-08-05T23:00:00,1792A,125.153,46.586,大庆市,萨尔图区,,14,14,6,7,4,43,40,40,40,2,5,3,4,0.4,0.5
2023-08-05T23:00:00,1793A,124.9042,46.6215,大庆市,让胡路区,,12,9,7,6,7,47,36,41,41,4,4,2,2,0.3,0.2
2023-08-05T23:00:00,1794A,118.3606,31.3519,芜湖市,监测站,,37,37,43,20,20,158,97,147,128,22,21,4,4,0.6,0.6
2023-08-05T23:00:00,1795A,118.3714,31.4134,芜湖市,科创中心,,45,45,40,28,22,162,67,154,124,47,23,6,6,0.7,0.7
2023-08-05T23:00:00,1796A,118.3673,31.3131,芜湖市,四水厂,,45,45,40,22,22,149,92,145,130,16,14,2,3,0.7,0.7
2023-08-05T23:00:00,1798A,118.5092,31.6837,马鞍山市,湖东路四小,,45,45,38,30,22,174,91,162,133,19,16,7,8,0.9,0.9
2023-08-05T23:00:00,1799A,118.5024,31.6449,马鞍山市,开发区,颗粒物(PM10),71,91,54,26,21,168,31,159,110,62,26,4,4,1.1,0.8
2023-08-05T23:00:00,1800A,118.5228,31.7231,马鞍山市,慈湖,,45,45,53,25,23,197,91,162,119,27,22,6,13,0.8,0.9
2023-08-05T23:00:00,1802A,118.6245,31.7241,马鞍山市,濮塘,,29,14,17,13,17,138,92,120,112,6,7,5,5,0.5,0.5
2023-08-05T23:00:00,1803A,115.9872,29.6815,九江市,十里,,49,45,43,34,25,183,60,143,108,22,18,10,13,0.8,0.9
2023-08-05T23:00:00,1804A,115.9584,29.7046,九江市,茅山头,,47,47,39,24,22,170,32,145,102,52,23,10,8,0.8,0.9
2023-08-05T23:00:00,1805A,115.9877,29.7295,九江市,西园,二氧化氮,54,40,43,15,20,238,10,168,114,108,36,10,10,0.7,0.7
2023-08-05T23:00:00,1806A,116.0172,29.6547,九江市,五七二七厂,,39,34,33,27,25,174,87,147,120,7,12,8,11,0.7,1
2023-08-05T23:00:00,1808A,115.9114,29.6038,九江市,综合工业园,,43,43,35,25,21,153,51,135,93,34,22,10,11,1.1,0.9
2023-08-05T23:00:00,1809A,116.0721,29.7535,九江市,石化总厂,细颗粒物(PM2.5),57,51,53,40,32,211,80,196,104,22,36,13,20,0.8,1.1
2023-08-05T23:00:00,1810A,115.9773,29.5698,九江市,庐山气象台,,40,40,25,28,19,126,126,112,112,1,2,8,7,0.4,0.6
2023-08-05T23:00:00,1812A,112.3931,34.6516,洛阳市,市委党校,,22,13,33,9,21,154,68,123,91,8,11,3,3,0.8,0.8
2023-08-05T23:00:00,1814A,112.4657,34.6871,洛阳市,豫西宾馆,,22,13,42,10,23,194,70,147,91,9,13,3,3,0.7,0.6
2023-08-05T23:00:00,1815A,112.494,34.6886,洛阳市,河南林校,,20,8,31,7,17,184,62,140,89,16,17,2,2,0.7,0.7
2023-08-05T23:00:00,1816A,112.3844,34.623,洛阳市,开发区管委会,,24,14,34,9,16,151,76,132,102,12,13,5,7,0.6,0.6
2023-08-05T23:00:00,1817A,112.4267,34.6258,洛阳市,市委新办公区,,22,12,33,9,21,156,68,131,96,10,10,3,2,0.6,0.6
2023-08-05T23:00:00,1818A,114.4839,36.0621,安阳市,棉研所,,,,,,,,,,,,,,,,
2023-08-05T23:00:00,1819A,114.3551,36.1017,安阳市,红庙街,,24,24,38,11,14,136,53,97,64,16,15,11,7,1.4,0.8
2023-08-05T23:00:00,1820A,114.361,36.0681,安阳市,银杏小区,,,16,31,,,146,57,103,70,14,13,7,4,1.5,0.9
2023-08-05T23:00:00,1824A,114.3389,34.7781,开封市,肿瘤医院,,33,0,42,23,20,148,74,120,78,5,7,4,4,0.5,0.5
2023-08-05T23:00:00,1826A,114.2885,34.7965,开封市,世纪星幼儿园,,,19,37,,10,155,66,123,75,8,11,5,5,0.6,0.5
2023-08-05T23:00:00,1828A,113.227,35.2125,焦作市,市环保局,,38,18,37,26,28,175,47,138,67,16,13,6,5,0.5,0.6
2023-08-05T23:00:00,1830A,113.1992,35.2590,焦作市,影视城,,,,,,,,,,,,,,,,
2023-08-05T23:00:00,1832A,113.3257,33.742,平顶山市,新华旅馆,,25,11,42,11,16,181,80,157,103,7,14,3,3,0.4,0.5
2023-08-05T23:00:00,1833A,113.2919,33.737,平顶山市,规划设计院,,24,7,36,2,19,173,75,150,101,5,9,6,6,0.6,0.7
2023-08-05T23:00:00,1834A,113.182,33.774,平顶山市,平顶山工学院,,26,13,46,2,16,172,81,146,100,7,9,4,4,0.4,0.5
2023-08-05T23:00:00,1835A,111.1922,34.7752,三门峡市,市政府,,28,13,25,9,11,148,88,130,118,7,13,2,4,0.5,0.5
2023-08-05T23:00:00,1836A,111.1587,34.7942,三门峡市,开发区,,27,21,25,12,13,144,85,125,116,12,11,3,4,0.4,0.4
2023-08-05T23:00:00,1838A,111.143,34.7955,三门峡市,风景区,,,,,,,,,,,,,,,,
2023-08-05T23:00:00,1840A,111.2992,30.6981,宜昌市,白龙岗,,39,39,32,22,16,146,70,119,106,21,17,9,8,0.6,0.5
2023-08-05T23:00:00,1841A,111.3549,30.6465,宜昌市,伍家岗,,44,44,30,24,18,143,67,125,103,21,21,2,2,0.7,0.6
2023-08-05T23:00:00,1842A,111.2628,30.6961,宜昌市,点军区,,31,31,26,17,14,141,43,122,99,14,15,5,5,0.7,0.6
2023-08-05T23:00:00,1843A,111.3275,30.7819,宜昌市,夷陵区,,47,47,28,19,13,150,59,136,108,20,15,3,3,0.6,0.5
2023-08-05T23:00:00,1844A,112.2494,30.3197,荆州市,市图书馆,,40,36,36,28,23,140,71,126,97,19,14,9,9,0.7,0.7
2023-08-05T23:00:00,1845A,112.2008,30.3544,荆州市,市委党校,,33,33,36,12,25,143,68,126,101,23,14,7,8,0.5,0.5
2023-08-05T23:00:00,1847A,113.1094,29.3578,岳阳市,南湖风景区,,,46,37,20,28,162,,148,146,20,11,,7,0.6,0.6
2023-08-05T23:00:00,1848A,113.1493,29.4251,岳阳市,城陵矶,颗粒物(PM10),65,80,46,46,31,140,42,132,103,59,26,8,8,1.0,0.9
2023-08-05T23:00:00,1849A,113.1497,29.3575,岳阳市,开发区,细颗粒物(PM2.5),53,51,38,37,22,151,71,143,125,21,8,7,7,0.5,0.4
2023-08-05T23:00:00,1850A,113.2621,29.4758,岳阳市,云溪区,颗粒物(PM10),52,53,37,32,27,151,98,140,122,13,11,6,6,0.6,0.6
2023-08-05T23:00:00,1851A,112.9943,29.4402,岳阳市,君山区,,46,39,35,32,25,149,129,129,113,13,13,8,8,0.8,0.8
2023-08-05T23:00:00,1852A,113.2117,29.355,岳阳市,金凤水库,,50,42,34,35,23,153,70,144,117,12,11,2,3,0.5,0.5
2023-08-05T23:00:00,1854A,111.6975,28.9703,常德市,市二中,,32,8,25,22,20,108,57,101,88,11,8,4,4,0.7,0.7
2023-08-05T23:00:00,1857A,111.7158,29.1456,常德市,白鹤山,,25,25,17,8,8,110,36,99,83,15,6,7,6,0.2,0.2
2023-08-05T23:00:00,1858A,110.5319,29.1217,张家界市,永定新区,,32,25,19,22,14,96,32,83,54,1,7,4,4,0.2,0.2
2023-08-05T23:00:00,1859A,110.4697,29.1242,张家界市,电业局,,,16,17,16,14,86,27,77,51,6,8,8,8,,0.3
2023-08-05T23:00:00,1860A,110.5594,29.3547,张家界市,未央路,,46,39,19,32,14,68,29,63,37,14,10,2,4,0.2,0.2
2023-08-05T23:00:00,1861A,110.4417,29.315,张家界市,袁家界,,19,14,18,13,12,63,42,58,45,2,4,7,7,0.6,0.6
2023-08-05T23:00:00,1862A,110.4144,25.3167,桂林市,电子科大尧山校区,,18,1,22,8,18,85,55,77,70,4,6,4,8,0.6,0.7
2023-08-05T23:00:00,1863A,110.2819,25.2697,桂林市,监测站,,15,8,18,7,11,86,48,81,63,6,6,5,5,0.5,0.5
2023-08-05T23:00:00,1864A,110.3089,25.2708,桂林市,龙隐路小学,,13,6,19,8,15,83,40,76,58,9,7,6,6,0.5,0.5
2023-08-05T23:00:00,1865A,110.2869,25.2178,桂林市,八中,,14,12,16,8,9,81,43,76,59,10,8,5,5,0.3,0.3
2023-08-05T23:00:00,1866A,109.2262,21.588,北海市,牛尾岭水库,,20,20,12,6,3,47,47,41,41,4,5,3,4,0.5,0.5
2023-08-05T23:00:00,1867A,109.1436,21.4086,北海市,海滩公园,,,,43,,7,63,,60,60,,3,,4,,0.5
2023-08-05T23:00:00,1868A,109.0981,21.4661,北海市,新市环保局,,31,31,20,12,6,62,62,58,58,2,2,3,3,0.6,0.6
2023-08-05T23:00:00,1869A,109.1778,21.5233,北海市,北海工业园,,29,29,21,10,8,60,60,54,54,2,4,4,4,0.5,0.6
2023-08-05T23:00:00,1870A,109.4856,24.3895,柳州市,柳东小学,,12,9,13,7,7,81,38,73,56,7,7,6,6,0.4,0.4
2023-08-05T23:00:00,1871A,109.4157,24.3277,柳州市,环保监测站,,19,19,17,7,8,76,30,66,44,11,10,4,4,0.5,0.5
2023-08-05T23:00:00,1872A,109.389,24.341,柳州市,河西水厂,,15,15,15,7,8,79,32,70,46,11,11,5,5,0.8,0.8
2023-08-05T23:00:00,1873A,109.4311,24.2921,柳州市,市四中,,13,5,13,7,7,81,39,71,53,9,10,6,6,0.6,0.6
2023-08-05T23:00:00,1874A,109.4006,24.3631,柳州市,市九中,,12,10,18,8,11,86,38,75,51,8,8,6,6,0.7,0.7
2023-08-05T23:00:00,1875A,109.4958,24.3134,柳州市,古亭山,,,,16,2,11,80,36,71,48,11,16,4,4,0.6,0.4
2023-08-05T23:00:00,1876A,109.5078,18.2489,三亚市,河东子站,,16,12,22,11,10,67,51,62,57,7,8,3,3,0.4,0.3
2023-08-05T23:00:00,1877A,109.4964,18.2681,三亚市,河西子站,,24,24,24,12,10,69,50,65,58,11,8,2,2,0.3,0.3
2023-08-05T23:00:00,1878A,104.7778,31.4741,绵阳市,富乐山,,14,14,19,3,12,120,25,94,66,8,10,4,4,0.6,0.6
2023-08-05T23:00:00,1879A,104.7563,31.4535,绵阳市,市人大,,14,14,21,4,12,118,42,93,69,16,18,7,7,0.5,0.5
2023-08-05T23:00:00,1880A,104.6697,31.4668,绵阳市,高新区自来水公司,,30,30,24,13,18,133,32,109,78,29,19,7,7,0.6,0.6
2023-08-05T23:00:00,1881A,104.7287,31.5075,绵阳市,三水厂,,15,12,24,8,12,133,45,101,76,14,17,6,6,0.6,0.7
2023-08-05T23:00:00,1882A,104.563,28.793,宜宾市,石马中学,颗粒物(PM10),52,54,23,30,13,145,73,117,100,11,12,4,4,0.6,0.5
2023-08-05T23:00:00,1883A,104.6201,28.7728,宜宾市,市委,,45,45,26,22,14,130,44,114,98,35,14,7,7,0.7,0.6
2023-08-05T23:00:00,1884A,104.6055,28.793,宜宾市,宜宾四中,颗粒物(PM10),52,54,28,32,15,136,57,114,96,20,16,3,6,0.7,0.6
2023-08-05T23:00:00,1885A,104.639,28.7562,宜宾市,市政府,,43,43,30,27,14,137,67,118,104,21,16,7,7,0.7,0.6
2023-08-05T23:00:00,1886A,104.5742,28.7199,宜宾市,黄金嘴,,38,38,22,23,12,136,56,120,105,29,15,8,7,0.8,0.7
2023-08-05T23:00:00,1888A,101.6891,26.571,攀枝花市,弄弄坪,,33,33,32,15,14,86,71,78,78,11,18,12,13,1.0,0.9
2023-08-05T23:00:00,1889A,101.5769,26.5928,攀枝花市,河门口,,33,33,27,19,15,85,45,76,73,21,23,11,15,1.2,1.7
2023-08-05T23:00:00,1890A,101.7169,26.585,攀枝花市,炳草岗,,23,23,25,9,8,90,35,72,68,22,17,3,11,1.0,1.1
2023-08-05T23:00:00,1891A,101.7369,26.5008,攀枝花市,仁和,,30,30,27,14,17,96,24,76,67,14,20,4,17,0.8,1.4
2023-08-05T23:00:00,1893A,105.4324,28.9634,泸州市,九狮山,,36,36,24,17,8,115,23,92,58,19,15,4,5,0.7,0.6
2023-08-05T23:00:00,1894A,105.4427,28.9063,泸州市,小市上码头,细颗粒物(PM2.5),62,59,39,44,15,142,64,125,105,12,10,5,6,0.8,0.6
2023-08-05T23:00:00,1895A,105.4241,28.8573,泸州市,兰田宪桥,细颗粒物(PM2.5),59,63,28,42,14,150,64,130,103,15,8,5,3,0.7,0.5
2023-08-05T23:00:00,1896A,105.4379,28.8833,泸州市,市环监站,颗粒物(PM10),54,58,26,31,10,140,85,123,109,11,7,5,5,0.6,0.5
2023-08-05T23:00:00,1901A,104.4239,31.1208,德阳市,东山公园,,16,9,14,11,16,123,48,105,81,3,6,3,2,0.4,0.5
2023-08-05T23:00:00,1902A,104.3826,31.1317,德阳市,西小区,,26,26,31,13,17,128,51,114,87,6,12,3,2,0.5,0.6
2023-08-05T23:00:00,1904A,104.3553,31.1091,德阳市,耐火材料厂,,23,21,32,16,20,140,51,121,94,5,10,3,2,0.5,0.5
2023-08-05T23:00:00,1905A,106.056,30.8064,南充市,西山风景区,,22,22,25,6,11,123,31,92,48,8,7,1,1,0.4,0.5
2023-08-05T23:00:00,1906A,106.0789,30.8023,南充市,南充市委,,28,28,26,8,10,142,29,104,57,19,15,7,7,0.4,0.4
2023-08-05T23:00:00,1907A,106.1031,30.8217,南充市,南充炼油厂,,23,23,27,6,9,138,41,103,66,8,7,7,7,0.3,0.3
2023-08-05T23:00:00,1908A,106.1064,30.7856,南充市,高坪区监测站,,18,18,24,3,12,136,49,104,65,10,11,6,7,0.2,0.2
2023-08-05T23:00:00,1909A,106.0642,30.7636,南充市,嘉陵区环保局,,20,20,25,7,15,155,54,108,62,17,17,4,4,0.2,0.3
2023-08-05T23:00:00,1910A,106.1087,30.8388,南充市,市环境监测站,,25,25,23,16,15,132,28,99,60,16,12,5,5,0.3,0.3
2023-08-05T23:00:00,1911A,106.9222,27.6869,遵义市,丁字口,,31,31,27,17,14,118,52,102,85,21,18,5,4,0.8,0.8
2023-08-05T23:00:00,1912A,106.9242,27.7019,遵义市,凤凰山,,33,33,34,20,20,132,59,114,96,11,13,6,7,0.9,0.8
2023-08-05T23:00:00,1913A,106.8906,27.6486,遵义市,忠庄,,38,38,35,17,19,126,43,105,79,20,18,2,2,0.5,0.6
2023-08-05T23:00:00,1914A,106.9231,27.6506,遵义市,舟水桥,,30,27,33,21,18,92,37,85,71,13,11,1,2,0.5,0.5
2023-08-05T23:00:00,1915A,106.9178,27.72,遵义市,干田坝,,26,26,25,13,15,136,50,116,88,11,15,6,6,0.6,0.6
2023-08-05T23:00:00,1916A,103.7897,25.5035,曲靖市,环境监测站,,33,33,29,23,18,111,49,95,79,20,15,5,5,0.6,0.8
2023-08-05T23:00:00,1917A,103.8,25.5364,曲靖市,烟厂办公区,,,18,25,25,15,104,57,86,75,13,11,4,5,,0.5
2023-08-05T23:00:00,1918A,108.7197,34.3956,咸阳市,气象站,,,,,,,,,,,,,,,,
2023-08-05T23:00:00,1919A,108.673,34.3155,咸阳市,实验中学,颗粒物(PM10),52,54,33,22,14,216,86,183,130,28,16,4,5,0.7,0.6
2023-08-05T23:00:00,1920A,108.7233,34.3617,咸阳市,师范学院,颗粒物(PM10),61,71,38,34,14,217,91,192,150,44,25,5,4,0.4,0.3
2023-08-05T23:00:00,1922A,109.0656,35.0994,铜川市,党校,,42,42,40,16,13,141,2,91,37,31,21,6,6,0.7,0.7
2023-08-05T23:00:00,1923A,109.0697,35.0697,铜川市,王益区政府,,44,44,30,13,13,146,4,110,59,35,15,1,2,0.5,0.4
2023-08-05T23:00:00,1924A,108.9344,34.9058,铜川市,新区管委会,,28,28,37,14,16,160,50,124,84,13,19,3,4,0.6,0.7
2023-08-05T23:00:00,1926A,109.4131,36.6275,延安市,枣园,颗粒物(PM10),53,55,34,19,14,143,6,122,79,49,21,5,5,0.8,0.7
2023-08-05T23:00:00,1927A,109.4761,36.6028,延安市,延大医附院,颗粒物(PM10),55,59,35,21,15,149,13,132,82,47,22,4,4,0.5,0.3
2023-08-05T23:00:00,1929A,109.5056,36.6106,延安市,百米大道,颗粒物(PM10),57,63,38,21,17,154,18,129,82,42,23,5,5,0.9,0.6
2023-08-05T23:00:00,1930A,107.185,34.3063,宝鸡市,庙沟村,,19,17,23,13,9,108,50,97,74,2,4,6,6,0.2,0.2
2023-08-05T23:00:00,1931A,107.0708,34.3017,宝鸡市,竹园沟,,22,22,21,15,10,158,47,138,97,26,13,4,5,0.4,0.4
2023-08-05T23:00:00,1932A,107.1906,34.3672,宝鸡市,三陆医院,,34,34,39,17,15,166,66,152,122,24,19,5,8,0.5,0.5
2023-08-05T23:00:00,1933A,107.1431,34.3547,宝鸡市,监测站,,28,28,29,19,13,162,55,144,100,30,20,6,7,0.5,0.4
2023-08-05T23:00:00,1934A,107.1186,34.3739,宝鸡市,技工学校,,38,35,29,26,16,170,59,148,114,20,15,6,7,0.6,0.5
2023-08-05T23:00:00,1935A,107.3906,34.3528,宝鸡市,陈仓区环保局家属楼,,33,33,32,14,16,160,61,153,122,20,16,7,9,0.3,0.4
2023-08-05T23:00:00,1936A,107.2058,34.3497,宝鸡市,文理学院,,27,27,26,12,21,171,56,156,117,23,14,4,6,0.5,0.5
2023-08-05T23:00:00,1937A,107.2386,34.3622,宝鸡市,三迪小学,,29,29,33,13,14,168,52,152,115,27,15,4,7,0.6,0.5
2023-08-05T23:00:00,1938A,109.5293,34.5101,渭南市,农科所,,,,,,,,,,,,,,,,
2023-08-05T23:00:00,1939A,109.4974,34.4877,渭南市,日报社,,40,31,30,28,19,190,63,170,138,28,15,6,7,0.5,0.4
2023-08-05T23:00:00,1940A,109.4636,34.493,渭南市,体育馆,,29,29,28,12,12,195,67,176,138,25,16,5,6,0.5,0.5
2023-08-05T23:00:00,1941A,109.4259,34.5023,渭南市,高新一小,,34,34,35,12,11,177,72,152,126,23,12,4,4,0.5,0.4
2023-08-05T23:00:00,1943A,102.1725,38.5339,金昌市,新川苑,颗粒物(PM10),63,75,48,16,11,126,96,122,112,10,17,7,11,0.5,0.5
2023-08-05T23:00:00,1944A,102.1692,38.5167,金昌市,天庆家园,,48,48,32,18,15,137,106,135,124,14,16,5,8,0.6,0.7
2023-08-05T23:00:00,1945A,98.2908,39.7711,嘉峪关市,气象局,,44,44,35,17,13,167,85,151,131,40,14,2,8,0.4,0.4
2023-08-05T23:00:00,1947A,106.3394,38.817,石嘴山市,沙湖旅游区,颗粒物(PM10),64,78,48,12,21,185,57,164,118,50,20,22,20,0.6,0.6
2023-08-05T23:00:00,1948A,106.3668,39.0145,石嘴山市,大武口朝阳西街,,39,39,56,10,23,186,91,154,125,35,26,1,25,0.2,0.8
2023-08-05T23:00:00,1949A,106.7704,39.2282,石嘴山市,惠农南大街,颗粒物(PM10),66,82,48,14,20,142,14,136,97,86,29,26,47,0.7,0.7
2023-08-05T23:00:00,1950A,106.7099,39.1325,石嘴山市,红果子镇惠新街,颗粒物(PM10),51,52,43,14,25,160,67,148,124,40,21,7,14,0.4,0.7
2023-08-05T23:00:00,1951A,84.895,45.6094,克拉玛依市,长征新村,,32,32,24,5,4,129,84,125,109,27,10,10,10,0.4,0.3
2023-08-05T23:00:00,1952A,84.8988,45.5893,克拉玛依市,南林小区,,50,50,23,23,13,132,9,124,94,80,19,8,7,1.0,0.2
2023-08-05T23:00:00,1954A,84.905,44.3396,克拉玛依市,独山子区,,37,37,22,13,13,151,106,146,135,16,10,8,10,0.6,0.4
2023-08-05T23:00:00,1955A,85.6979,46.098,克拉玛依市,乌尔禾区商贸楼,,33,29,18,10,7,134,104,126,122,8,6,7,7,0.3,0.2
2023-08-05T23:00:00,1956A,86.1472,41.7538,巴音郭楞州,孔雀公园,,,,61,,19,146,,132,115,98,48,7,8,1.3,0.6
2023-08-05T23:00:00,1957A,86.1972,41.7166,巴音郭楞州,棉纺厂,细颗粒物(PM2.5),92,123,120,68,31,144,19,136,113,98,36,6,5,1.7,0.4
2023-08-05T23:00:00,1958A,86.2357,41.7173,巴音郭楞州,经济开发区,颗粒物(PM10),103,155,71,38,22,143,40,134,114,54,15,5,5,0.5,0.3
2023-08-05T23:00:00,1961A,117.532,36.6868,济南市,东山小学,,34,34,32,17,15,141,66,115,86,21,13,6,5,0.6,0.4
2023-08-05T23:00:00,1966A,120.0405,35.8735,青岛市,黄岛区4号,,31,31,24,12,11,105,58,88,74,15,10,6,7,0.5,0.5
2023-08-05T23:00:00,1982A,122.0693,37.2174,威海市,文登开发区,,24,24,21,7,6,101,40,76,47,12,9,4,5,0.5,0.4
2023-08-05T23:00:00,2031A,113.1817,27.9958,株洲市,云田中学,,45,43,40,31,26,138,64,134,107,12,10,7,8,0.7,0.7
2023-08-05T23:00:00,2054A,114.1099,32.1059,信阳市,平桥分局,,37,37,23,15,16,115,80,109,92,6,7,3,2,0.4,0.4
2023-08-05T23:00:00,2064A,113.9956,32.1271,信阳市,南湾水厂,,,37,30,18,16,108,,105,98,7,6,1,2,0.6,0.6
2023-08-05T23:00:00,2065A,114.0775,32.1195,信阳市,市酿酒公司,,43,43,22,17,19,110,77,106,95,10,9,1,1,0.5,0.5
2023-08-05T23:00:00,2066A,114.0609,32.1399,信阳市,审计局,颗粒物(PM10),60,70,32,20,22,116,84,110,103,5,4,1,1,0.5,0.6
2023-08-05T23:00:00,2067A,114.6613,33.6128,周口市,市环境监测站,,20,12,31,4,18,127,62,122,93,13,13,3,3,0.4,0.5
2023-08-05T23:00:00,2068A,114.6758,33.6347,周口市,周口师范,,18,14,35,5,14,133,56,126,94,12,6,2,1,0.7,0.6
2023-08-05T23:00:00,2069A,114.6546,33.5979,周口市,市运管处,,21,13,35,2,16,129,66,123,95,10,12,5,5,0.6,0.7
2023-08-05T23:00:00,2070A,114.6369,33.6406,周口市,川汇区环保局,,,9,39,,13,124,59,117,85,6,6,1,2,0.6,0.7
2023-08-05T23:00:00,2075A,117.6336,24.4674,漳州市,九湖,,,,,,,,,,,,,,,,
2023-08-05T23:00:00,2160A,112.85,35.5051,晋城市,自来水公司,,34,34,51,2,18,165,90,134,86,13,19,8,9,0.8,1
2023-08-05T23:00:00,2161A,112.8318,35.4936,晋城市,白云商贸,,27,16,49,2,16,157,85,133,84,12,14,8,9,0.8,1
2023-08-05T23:00:00,2162A,112.8508,35.4887,晋城市,市环保局,,28,28,58,5,20,156,80,115,79,13,21,8,8,0.9,1.1
2023-08-05T23:00:00,2163A,112.8676,35.4897,晋城市,技术学院,,25,25,41,5,17,175,76,130,83,18,20,8,9,0.8,0.9
2023-08-05T23:00:00,2165A,112.8453,35.546,晋城市,白马寺,,,,,,,,,,,,,,,,
2023-08-05T23:00:00,2166A,112.4397,39.3522,朔州市,平朔,颗粒物(PM10),67,84,49,38,22,152,49,141,119,32,22,9,9,0.6,0.6
2023-08-05T23:00:00,2167A,112.4575,39.3617,朔州市,朔唯,颗粒物(PM10),64,78,70,23,24,175,61,162,135,33,25,11,11,0.6,0.6
2023-08-05T23:00:00,2168A,112.4258,39.3197,朔州市,区政府,颗粒物(PM10),58,66,34,23,12,155,61,144,126,29,14,8,6,0.7,0.6
2023-08-05T23:00:00,2169A,112.4072,39.3278,朔州市,市环保局,颗粒物(PM10),54,58,43,20,17,157,81,148,130,16,14,7,9,0.4,0.4
2023-08-05T23:00:00,2170A,112.4272,39.3681,朔州市,市二中,颗粒物(PM10),82,114,61,35,23,155,42,146,119,38,27,7,11,0.4,0.4
2023-08-05T23:00:00,2171A,112.7532,37.6945,晋中市,锦纶小区,,35,19,27,4,12,154,111,142,121,11,21,8,8,0.4,0.6
2023-08-05T23:00:00,2173A,112.7249,37.7067,晋中市,南都小区,,33,19,28,12,17,156,103,136,116,14,22,8,8,0.3,0.4
2023-08-05T23:00:00,2174A,112.6991,37.6982,晋中市,榆次区政府,,34,15,27,10,12,152,106,135,121,13,21,9,9,0.3,0.5
2023-08-05T23:00:00,2175A,110.9956,35.0147,运城市,运城中学,,36,31,31,6,12,150,113,143,134,5,6,5,5,0.5,0.6
2023-08-05T23:00:00,2178A,110.9686,35.0303,运城市,地区技校,,33,24,30,5,14,144,105,135,126,5,7,2,3,0.4,0.5
2023-08-05T23:00:00,2179A,111.0414,35.1147,运城市,空港新区,,49,49,49,12,17,142,102,131,115,4,11,2,2,0.5,0.7
2023-08-05T23:00:00,2181A,112.7383,38.4519,忻州市,开发区,,35,35,27,13,17,133,56,129,102,31,18,10,13,0.6,0.6
2023-08-05T23:00:00,2182A,112.7003,38.4928,忻州市,会展中心,,43,42,27,30,21,135,38,127,92,39,20,8,8,0.5,0.5
2023-08-05T23:00:00,2183A,111.1406,37.5211,吕梁市,环保局,颗粒物(PM10),69,88,32,28,14,149,6,123,60,69,28,2,3,0.7,0.6
2023-08-05T23:00:00,2185A,111.1297,37.5136,吕梁市,自来水公司,颗粒物(PM10),57,63,31,31,14,145,44,124,80,57,24,4,3,0.7,0.6
2023-08-05T23:00:00,2187A,106.8174,39.6973,乌海市,市林业局,颗粒物(PM10),74,98,73,38,28,196,95,178,162,36,20,18,44,1.1,1.3
2023-08-05T23:00:00,2188A,106.7907,39.6667,乌海市,中海勃湾学校,颗粒物(PM10),63,75,67,32,28,208,99,182,164,39,23,22,49,0.8,1.1
2023-08-05T23:00:00,2191A,122.2532,43.6801,通辽市,艺术职业学校,,23,20,17,0,4,93,71,88,79,7,8,5,5,0.3,0.2
2023-08-05T23:00:00,2192A,119.7594,49.2261,呼伦贝尔市,区环保局,颗粒物(PM10),71,91,36,44,20,70,5,67,39,48,18,5,4,0.9,0.6
2023-08-05T23:00:00,2195A,107.4212,40.761,巴彦淖尔市,附二中,细颗粒物(PM2.5),52,39,58,36,24,165,119,148,131,16,17,3,16,0.5,0.8
2023-08-05T23:00:00,2196A,107.37,40.7372,巴彦淖尔市,市环保大楼,颗粒物(PM10),52,53,66,17,24,160,130,144,130,10,15,4,8,0.4,0.7
2023-08-05T23:00:00,2197A,113.1306,40.9923,乌兰察布市,集宁新区,,32,32,24,18,12,112,48,108,89,30,12,16,14,0.5,0.4
2023-08-05T23:00:00,2200A,122.0392,46.0656,兴安盟,胜华新制药厂,,20,14,18,14,15,94,53,91,58,5,6,2,2,0.2,0.2
2023-08-05T23:00:00,2201A,121.9504,46.0741,兴安盟,科右前旗环保局,,32,25,19,22,16,97,55,92,62,5,4,2,2,0.4,0.3
2023-08-05T23:00:00,2202A,116.1042,43.9317,锡林郭勒盟,市环保监测站,,18,10,10,2,5,81,56,79,66,6,4,10,8,0.2,0.2
2023-08-05T23:00:00,2203A,116.0781,43.9311,锡林郭勒盟,市政府,,19,2,7,2,3,80,60,77,65,9,5,13,11,0.3,0.2
2023-08-05T23:00:00,2204A,105.6467,38.8363,阿拉善盟,西城区西花园,颗粒物(PM10),68,85,47,24,14,145,140,142,138,15,16,15,11,0.7,0.5
2023-08-05T23:00:00,2205A,105.6985,38.8411,阿拉善盟,蒙二幼,颗粒物(PM10),56,62,41,26,19,145,139,144,142,6,8,9,7,0.7,0.5
2023-08-05T23:00:00,2206A,105.724,38.8516,阿拉善盟,环保局新楼,,46,46,26,23,18,158,147,145,145,5,6,10,8,0.7,0.5
2023-08-05T23:00:00,2207A,121.6094,41.998,阜新市,工业园区,,22,12,15,5,2,79,70,74,74,15,12,3,7,0.7,0.6
2023-08-05T23:00:00,2208A,121.6697,42.0279,阜新市,长青街,,17,16,15,9,10,70,52,64,62,13,9,3,5,1.2,0.6
2023-08-05T23:00:00,2209A,121.6673,42.0705,阜新市,农业园区,,15,3,9,10,8,74,47,67,62,8,4,3,3,0.9,1
2023-08-05T23:00:00,2210A,121.6717,42.0224,阜新市,东苑,,17,13,14,8,8,73,52,68,65,15,6,3,13,0.5,0.5
2023-08-05T23:00:00,2211A,121.6506,42.0498,阜新市,玉龙新城,,16,14,12,3,5,70,24,64,54,32,13,3,6,0.7,0.6
2023-08-05T23:00:00,2212A,123.2,41.1953,辽阳市,宏伟区,,18,14,23,2,10,91,57,83,62,12,13,5,4,0.3,0.6
2023-08-05T23:00:00,2213A,123.1683,41.2495,辽阳市,新华园,,18,13,26,4,12,104,55,94,58,8,9,7,6,0.4,0.6
2023-08-05T23:00:00,2214A,123.2354,41.2639,辽阳市,滨河路,,16,16,18,8,14,128,49,114,59,15,9,6,7,0.3,0.3
2023-08-05T23:00:00,2215A,123.149,41.2991,辽阳市,铁西工业园,,18,15,27,6,13,118,56,105,59,15,12,6,6,0.5,0.6
2023-08-05T23:00:00,2216A,123.8139,42.3022,铁岭市,汇工街西,,19,10,9,2,4,73,58,69,67,9,7,6,6,0.4,0.4
2023-08-05T23:00:00,2217A,123.8649,42.2923,铁岭市,水上乐园,,23,6,9,2,1,74,72,71,71,6,8,1,2,0.4,0.4
2023-08-05T23:00:00,2218A,123.8486,42.2867,铁岭市,银州路东段,,22,10,8,2,1,68,68,66,66,6,7,5,5,0.4,0.4
2023-08-05T23:00:00,2219A,123.7153,42.2217,铁岭市,金沙江路北,,20,8,9,2,3,71,62,69,68,5,6,6,6,0.4,0.4
2023-08-05T23:00:00,2220A,120.4318,41.5881,朝阳市,西梁,,28,28,20,5,8,86,58,80,65,9,9,6,6,0.6,0.6
2023-08-05T23:00:00,2221A,120.4521,41.5646,朝阳市,河畔小区,,19,18,22,2,5,86,60,80,68,9,6,7,6,0.6,0.6
2023-08-05T23:00:00,2222A,120.4176,41.5648,朝阳市,八里堡,,21,17,17,5,5,92,65,86,72,12,12,8,6,0.6,0.6
2023-08-05T23:00:00,2223A,120.3806,41.5969,朝阳市,农业园区,,13,8,14,2,5,85,39,80,59,22,11,8,3,0.9,0.6
2023-08-05T23:00:00,2225A,124.4002,43.1713,四平市,一商场,,18,7,14,4,7,66,55,63,60,8,11,4,6,0.4,0.7
2023-08-05T23:00:00,2226A,124.388,43.193,四平市,境园,,16,9,15,6,5,60,51,57,55,6,8,4,5,0.7,1.2
2023-08-05T23:00:00,2227A,125.1358,42.8845,辽源市,环保局,,19,10,11,5,6,76,60,72,67,5,8,8,14,0.6,0.6
2023-08-05T23:00:00,2229A,125.9358,41.7173,通化市,光明,,20,15,10,8,6,98,63,97,62,4,7,5,6,0.2,0.3
2023-08-05T23:00:00,2230A,125.9446,41.7325,通化市,铁路,,20,7,7,6,3,97,62,91,62,2,4,5,4,0.1,0.2
2023-08-05T23:00:00,2231A,126.4219,41.9171,白山市,喜丰,,16,14,25,6,8,113,50,94,65,9,11,6,8,0.5,0.7
2023-08-05T23:00:00,2232A,126.4077,41.9419,白山市,环保局,,18,18,20,4,8,118,50,99,65,6,8,5,7,0.5,0.7
2023-08-05T23:00:00,2233A,124.8006,45.1214,松原市,江南,,10,8,6,5,4,64,32,60,39,12,6,5,5,0.4,0.4
2023-08-05T23:00:00,2234A,124.7965,45.1722,松原市,江北,,10,6,5,5,3,64,29,62,36,14,5,5,4,0.5,0.5
2023-08-05T23:00:00,2235A,122.7911,45.6077,白城市,洮北区环保局,,21,11,5,2,5,90,66,87,67,5,6,7,8,0.1,0.1
2023-08-05T23:00:00,2236A,122.8738,45.5725,白城市,市环保局,,21,12,12,4,2,89,65,86,68,4,5,3,2,0.2,0.2
2023-08-05T23:00:00,2237A,129.47,42.8883,延边朝鲜族自治州,妇幼医院,,,11,12,4,5,87,,68,44,14,13,8,8,0.5,0.5
2023-08-05T23:00:00,2238A,129.5055,42.9108,延边朝鲜族自治州,延边医院,,13,8,8,3,4,87,41,65,47,7,9,6,6,0.7,0.7
2023-08-05T23:00:00,2239A,129.3964,42.8881,延边朝鲜族自治州,朝阳川镇医院,,12,8,12,4,3,104,37,74,44,6,7,6,6,0.6,0.6
2023-08-05T23:00:00,2240A,130.9762,45.3001,鸡西市,环保局,,8,7,10,2,5,59,23,48,30,4,8,5,5,0.1,0.2
2023-08-05T23:00:00,2243A,130.9429,45.3039,鸡西市,第一中学,,9,4,7,1,4,67,27,56,36,1,4,5,5,0.2,0.3
2023-08-05T23:00:00,2244A,130.2537,47.3416,鹤岗市,哈啤分公司,,36,8,12,25,10,47,41,47,38,3,4,10,10,0.2,0.3
2023-08-05T23:00:00,2245A,130.2684,47.3086,鹤岗市,斯达机电,,32,15,14,22,9,47,47,47,36,5,5,6,7,0.3,0.3
2023-08-05T23:00:00,2246A,130.3114,47.3388,鹤岗市,东山纸板厂,,12,10,10,8,9,44,31,44,30,9,5,9,8,0.3,0.3
2023-08-05T23:00:00,2247A,130.1097,47.3382,鹤岗市,五号水库,,15,11,9,10,8,47,41,46,38,4,4,10,10,0.1,0.1
2023-08-05T23:00:00,2248A,131.1511,46.6937,双鸭山市,双合村,,15,15,7,3,1,41,16,37,33,6,6,9,9,0.2,0.2
2023-08-05T23:00:00,2249A,131.1652,46.6191,双鸭山市,南小市,,15,5,5,2,4,50,45,45,45,2,2,6,6,0.1,0.1
2023-08-05T23:00:00,2250A,131.1524,46.6554,双鸭山市,环保局,,7,3,5,4,5,29,22,28,27,7,6,8,8,0.1,0.2
2023-08-05T23:00:00,2251A,131.12,46.5656,双鸭山市,苗圃,,12,10,8,4,5,43,38,42,36,5,9,2,3,0.3,0.4
2023-08-05T23:00:00,2252A,128.5159,47.4311,伊春市,环保局,,17,17,18,5,5,49,18,38,20,2,6,4,6,0.3,0.4
2023-08-05T23:00:00,2253A,128.9102,47.7412,伊春市,电力嘉园,,13,13,11,7,10,56,16,45,23,2,5,8,6,0.3,0.4
2023-08-05T23:00:00,2254A,129.5029,48.471,伊春市,汤旺河国家公园,,25,25,26,13,14,60,12,48,26,1,1,12,12,0.9,0.9
2023-08-05T23:00:00,2255A,130.2751,46.8028,佳木斯市,佳纺,,11,11,10,6,7,42,26,38,33,8,5,2,3,0.4,0.4
2023-08-05T23:00:00,2256A,130.3995,46.8307,佳木斯市,发电厂,,11,11,7,6,7,48,34,44,41,4,2,2,2,0.4,0.5
2023-08-05T23:00:00,2257A,130.3258,46.7975,佳木斯市,环保局,,17,17,9,8,6,37,19,35,27,13,10,4,3,0.6,0.6
2023-08-05T23:00:00,2258A,130.3648,46.8032,佳木斯市,十一中,,13,12,11,9,6,46,31,42,39,6,4,4,4,0.3,0.4
2023-08-05T23:00:00,2259A,130.3794,46.7588,佳木斯市,四丰,,,,,,,,,,,,,,,,
2023-08-05T23:00:00,2262A,131.0518,45.8751,七台河市,新一中,,12,6,8,1,2,39,38,36,36,3,3,7,7,0.5,0.7
2023-08-05T23:00:00,2263A,127.4833,50.2524,黑河市,交通局,,38,38,19,10,10,74,26,71,50,11,10,4,5,0.5,0.4
2023-08-05T23:00:00,2264A,127.5144,50.2341,黑河市,环保局,,48,48,30,18,11,69,40,66,50,8,7,2,2,0.4,0.4
2023-08-05T23:00:00,2265A,127.5291,50.2472,黑河市,大黑河岛,,42,42,15,20,14,75,27,72,49,2,2,1,1,0.4,0.4
2023-08-05T23:00:00,2266A,126.9785,46.6365,绥化市,人和东街,,10,10,7,6,3,38,27,33,31,13,8,6,6,0.1,0.2
2023-08-05T23:00:00,2267A,126.964,46.6528,绥化市,党政办公中心,,9,9,7,4,4,38,24,31,31,13,8,5,5,0.3,0.3
2023-08-05T23:00:00,2269A,124.1069,50.4097,大兴安岭地区,科技局,,29,21,16,20,13,72,37,68,55,5,4,2,1,0.1,0.2
2023-08-05T23:00:00,2270A,117.396,32.939,蚌埠市,工人疗养院,,41,41,37,23,16,146,96,133,106,5,9,3,4,0.5,0.4
2023-08-05T23:00:00,2271A,117.3605,32.9427,蚌埠市,百货大楼,,38,38,39,17,15,163,104,142,116,5,7,4,5,0.5,0.4
2023-08-05T23:00:00,2273A,117.4185,32.8911,蚌埠市,蚌埠学院,,39,39,37,25,23,144,84,135,105,9,8,6,7,0.6,0.5
2023-08-05T23:00:00,2274A,117.3533,32.9673,蚌埠市,淮上区政府,,39,39,39,18,21,151,96,138,106,13,13,4,5,0.7,0.6
2023-08-05T23:00:00,2275A,117.3145,32.8977,蚌埠市,高新区,,41,41,39,21,16,169,92,155,123,9,8,8,9,0.4,0.4
2023-08-05T23:00:00,2277A,116.8305,32.7727,淮南市,潘集区政府,,28,11,38,19,23,147,87,143,118,5,11,4,6,0.1,0.4
2023-08-05T23:00:00,2278A,117.0067,32.6524,淮南市,师范学院,颗粒物(PM10),58,65,40,19,21,151,119,144,138,8,8,10,11,0.4,0.4
2023-08-05T23:00:00,2279A,116.8569,32.5951,淮南市,谢家集区政府,,50,50,30,3,9,179,101,146,115,18,14,9,9,0.3,0.3
2023-08-05T23:00:00,2280A,116.8281,32.633,淮南市,八公山区政府,,32,32,43,13,24,168,91,142,111,6,11,7,8,0.0,0.2
2023-08-05T23:00:00,2281A,116.6325,32.6201,淮南市,焦岗湖风景区管理处,,29,29,32,9,11,110,67,91,70,9,11,5,5,0.3,0.3
2023-08-05T23:00:00,2282A,116.8004,33.975,淮北市,监测站,,23,23,35,16,19,146,66,138,111,12,11,3,4,0.5,0.6
2023-08-05T23:00:00,2283A,116.8091,33.9007,淮北市,烈山区政府,,31,31,46,18,21,155,68,146,118,12,13,5,7,0.5,0.5
2023-08-05T23:00:00,2285A,117.8177,30.9412,铜陵市,市第四中学,,36,36,56,22,27,182,87,157,117,4,19,5,8,0.2,0.6
2023-08-05T23:00:00,2286A,117.8059,30.9273,铜陵市,市公路局,,29,27,57,18,31,227,91,200,146,9,25,4,8,0.3,0.9
2023-08-05T23:00:00,2287A,117.7807,30.9413,铜陵市,市新民污水厂,,40,40,60,24,23,222,89,176,128,8,29,6,8,0.4,0.7
2023-08-05T23:00:00,2288A,117.7439,30.8792,铜陵市,市第九中学,颗粒物(PM10),70,90,66,24,21,186,22,166,116,69,41,4,8,0.8,0.8
2023-08-05T23:00:00,2289A,117.846,30.9413,铜陵市,车站新区,,43,43,41,3,22,220,94,183,131,11,21,4,8,0.4,0.6
2023-08-05T23:00:00,2290A,117.8483,30.97,铜陵市,市职教基地,,38,38,37,11,13,140,68,129,101,13,18,5,5,0.6,0.6
2023-08-05T23:00:00,2291A,117.0809,30.5177,安庆市,环科院,,44,44,40,26,24,233,59,216,138,51,32,16,12,0.5,1.1
2023-08-05T23:00:00,2292A,117.0331,30.5119,安庆市,马山宾馆,,40,40,38,24,26,207,67,181,126,45,29,6,7,0.9,1.1
2023-08-05T23:00:00,2294A,116.9896,30.6145,安庆市,安庆大学,,41,41,35,26,25,224,69,194,140,24,17,5,5,1.4,0.9
2023-08-05T23:00:00,2295A,118.2903,29.6963,黄山市,延安路89号,,26,26,29,3,6,119,40,110,76,7,6,6,6,0.4,0.4
2023-08-05T23:00:00,2296A,118.327,29.7178,黄山市,黄山东路89号,,20,18,23,14,8,112,35,104,77,11,8,6,6,0.5,0.4
2023-08-05T23:00:00,2297A,118.1371,30.2756,黄山市,黄山区政府5号楼,,47,47,31,17,10,99,26,92,61,8,6,8,7,0.5,0.4
2023-08-05T23:00:00,2298A,118.3093,32.3153,滁州市,老年大学,,44,44,37,20,19,200,83,180,146,24,17,10,11,0.3,0.4
2023-08-05T23:00:00,2299A,118.3244,32.2786,滁州市,人大宾馆,,37,37,31,24,17,202,89,184,148,21,18,8,9,0.4,0.4
2023-08-05T23:00:00,2301A,115.8277,32.8929,阜阳市,市监测站,,24,19,27,6,16,134,76,125,101,9,11,5,8,0.6,0.7
2023-08-05T23:00:00,2303A,115.8554,32.8605,阜阳市,开发区,,25,8,26,8,10,133,78,122,96,9,9,5,6,0.5,0.6
2023-08-05T23:00:00,2307A,116.5079,31.737,六安市,监测大楼,,33,33,27,9,11,153,89,131,108,6,7,4,4,0.4,0.4
2023-08-05T23:00:00,2308A,116.4738,31.7643,六安市,皖西学院,,43,43,36,11,9,147,96,129,116,7,7,7,8,0.4,0.4
2023-08-05T23:00:00,2309A,116.4996,31.7905,六安市,朝阳厂,,30,23,25,17,14,156,93,143,117,7,7,8,8,0.6,0.6
2023-08-05T23:00:00,2310A,116.5567,31.7886,六安市,开发区,,40,40,41,24,23,147,85,125,101,19,7,8,7,0.7,0.6
2023-08-05T23:00:00,2311A,115.8072,33.8399,亳州市,污水处理厂,,21,10,33,6,14,117,67,109,92,6,6,3,4,0.4,0.6
2023-08-05T23:00:00,2312A,115.7789,33.8518,亳州市,三国揽胜宫,,23,7,32,5,15,120,71,116,98,7,7,3,4,0.6,0.6
2023-08-05T23:00:00,2314A,117.47,30.6618,池州市,池州学院,细颗粒物(PM2.5),134,45,37,102,44,167,64,156,128,17,13,4,5,0.6,0.7
2023-08-05T23:00:00,2316A,118.7581,30.9454,宣城市,鳌峰子站,,48,48,39,18,20,91,43,88,74,61,20,5,4,0.4,0.4
2023-08-05T23:00:00,2317A,118.7385,30.9743,宣城市,敬亭山子站,,25,25,34,17,18,98,56,93,76,16,15,6,7,0.3,0.3
2023-08-05T23:00:00,2318A,118.7173,30.9427,宣城市,开发区子站,颗粒物(PM10),55,59,38,16,19,102,58,97,80,13,15,5,5,0.4,0.4
2023-08-05T23:00:00,2319A,119.0141,25.4325,莆田市,荔城区仓后路,细颗粒物(PM2.5),85,92,63,63,38,198,62,150,130,26,15,9,8,1.1,1
2023-08-05T23:00:00,2320A,119.0015,25.4553,莆田市,莆田市监测站,细颗粒物(PM2.5),74,85,53,54,32,202,62,145,133,17,6,8,7,0.4,0.3
2023-08-05T23:00:00,2321A,119.1119,25.4561,莆田市,涵江区六中,颗粒物(PM10),63,76,55,37,31,195,70,154,132,18,13,7,7,0.6,0.7
2023-08-05T23:00:00,2322A,119.1013,25.3215,莆田市,秀屿区政府,,35,35,58,20,38,199,73,163,130,8,14,8,9,0.8,0.9
2023-08-05T23:00:00,2323A,118.981,25.4792,莆田市,东圳水库,,,,,,,,,,,,,,,,
2023-08-05T23:00:00,2324A,117.6211,26.2625,三明市,三钢,,44,44,41,24,26,99,29,88,54,17,19,7,15,0.4,0.6
2023-08-05T23:00:00,2325A,117.635,26.2714,三明市,三明二中,,32,32,36,21,23,103,23,94,58,31,21,8,10,0.9,0.7
2023-08-05T23:00:00,2326A,117.6028,26.2378,三明市,三元区政府,,38,38,39,19,24,101,31,93,56,13,13,6,12,0.6,0.7
2023-08-05T23:00:00,2327A,117.7275,26.3108,三明市,洋溪,,,,,,,,,,,,,,,,
2023-08-05T23:00:00,2331A,118.0966,26.6761,南平市,茫荡山,,,,,,,,,,,,,,,,
2023-08-05T23:00:00,2332A,118.1681,26.6369,南平市,南平市监测站,,32,32,30,17,19,98,30,94,68,19,7,5,5,0.7,0.8
2023-08-05T23:00:00,2333A,118.1825,26.6489,南平市,南平铝业有限公司,,40,40,35,16,22,105,23,93,55,20,11,7,9,0.8,0.7
2023-08-05T23:00:00,2334A,118.1756,26.6272,南平市,南平七中,,28,28,30,17,21,103,28,100,67,17,9,4,4,0.8,0.8
2023-08-05T23:00:00,2335A,117.0189,25.1181,龙岩市,龙岩师专,,,,,,,,,,,,,,,,
2023-08-05T23:00:00,2336A,117.0217,25.1033,龙岩市,龙岩市监测站,,25,23,28,17,18,119,73,108,91,14,10,4,3,0.5,0.5
2023-08-05T23:00:00,2337A,117.0258,25.0661,龙岩市,闽西职业技术学院,,40,40,28,17,15,112,47,103,83,18,6,2,2,0.5,0.5
2023-08-05T23:00:00,2338A,117.0196,25.0306,龙岩市,龙岩学院,,24,24,26,13,16,109,66,101,88,12,6,2,2,0.3,0.4
2023-08-05T23:00:00,2339A,119.5001,26.6946,宁德市,金涵水库,,,,,,,,,,,,,,,,
2023-08-05T23:00:00,2341A,119.5388,26.6612,宁德市,宁德市监测站,,39,39,37,22,22,143,84,131,122,10,14,8,9,0.9,0.8
2023-08-05T23:00:00,2342A,117.3102,29.3867,景德镇市,王港中学,,40,34,29,28,17,130,6,99,47,2,2,3,3,0.7,0.7
2023-08-05T23:00:00,2343A,117.2117,29.2933,景德镇市,老干部活动中心,细颗粒物(PM2.5),54,43,40,38,25,132,36,102,58,22,17,3,6,0.6,0.4
2023-08-05T23:00:00,2344A,117.1894,29.2789,景德镇市,兽医站,细颗粒物(PM2.5),57,54,45,40,24,133,53,104,55,13,24,9,12,0.7,0.7
2023-08-05T23:00:00,2345A,117.1547,29.2617,景德镇市,台达陶瓷,细颗粒物(PM2.5),55,52,44,39,27,123,24,97,65,47,24,27,34,0.8,0.6
2023-08-05T23:00:00,2346A,117.2461,29.2956,景德镇市,陶研所,颗粒物(PM10),55,60,44,28,20,137,42,104,62,11,12,12,7,0.6,0.5
2023-08-05T23:00:00,2347A,114.0997,27.5002,萍乡市,武功山,,15,11,13,10,13,81,23,73,43,5,4,18,17,0.6,0.6
2023-08-05T23:00:00,2348A,113.8385,27.6434,萍乡市,中医院,,35,27,36,24,26,108,53,100,77,8,10,9,10,0.5,0.7
2023-08-05T23:00:00,2349A,113.8493,27.6253,萍乡市,市政府车库,,24,24,36,14,22,106,52,98,75,8,10,8,10,0.3,0.4
2023-08-05T23:00:00,2350A,113.8676,27.6435,萍乡市,市环保局,,22,22,36,12,24,98,42,93,67,14,13,13,14,0.5,0.7
2023-08-05T23:00:00,2351A,113.866,27.6198,萍乡市,安源区政府,,32,30,34,22,25,106,44,96,74,12,11,10,10,0.4,0.6
2023-08-05T23:00:00,2352A,115.0861,27.9317,新余市,北岗,,30,27,36,21,27,124,20,104,54,16,10,7,6,0.7,0.8
2023-08-05T23:00:00,2353A,114.9886,27.8431,新余市,飞宇,,,,76,,29,100,,91,70,26,21,5,9,0.7,0.8
2023-08-05T23:00:00,2354A,114.9231,27.8246,新余市,第二水厂,颗粒物(PM10),51,51,47,22,24,99,47,94,69,15,11,7,7,0.4,0.4
2023-08-05T23:00:00,2355A,114.9308,27.8036,新余市,市气象局,颗粒物(PM10),52,53,48,33,29,98,37,85,62,20,12,8,7,0.9,1.1
2023-08-05T23:00:00,2357A,116.9822,28.1136,鹰潭市,龙虎山,,45,34,31,31,24,122,34,103,61,3,2,2,4,0.9,0.6
2023-08-05T23:00:00,2358A,117.0564,28.2642,鹰潭市,新监测站,,50,38,58,35,26,135,48,128,98,16,6,1,2,0.3,0.3
2023-08-05T23:00:00,2359A,117.0311,28.2475,鹰潭市,财苑宾馆,,,,72,35,25,131,42,125,97,22,7,2,3,0.3,0.3
2023-08-05T23:00:00,2360A,117.0222,28.2264,鹰潭市,体育馆,,40,36,52,28,24,135,48,128,95,13,9,2,2,0.6,0.5
2023-08-05T23:00:00,2361A,117.0017,28.2131,鹰潭市,三川水表,,,,57,32,29,129,35,123,87,8,3,3,2,0.3,0.5
2023-08-05T23:00:00,2362A,114.9017,25.9149,赣州市,通天岩,,,,,,,,,,,,,,,,
2023-08-05T23:00:00,2363A,114.9367,25.8664,赣州市,地委,,34,34,36,14,21,152,63,132,94,6,6,9,13,1.3,1.3
2023-08-05T23:00:00,2364A,114.9461,25.8481,赣州市,气象台,,40,27,28,28,19,143,62,129,94,5,4,6,6,0.6,0.7
2023-08-05T23:00:00,2365A,114.9322,25.8333,赣州市,市图书馆,,34,34,40,18,23,134,53,119,82,11,10,11,9,1.1,1.1
2023-08-05T23:00:00,2366A,114.8905,25.8471,赣州市,华坚鞋城,,36,36,38,24,25,143,59,129,98,7,7,6,8,0.7,0.8
2023-08-05T23:00:00,2367A,114.9754,27.0803,吉安市,红声器材厂,,46,46,48,29,31,138,31,121,72,24,10,9,10,0.8,0.7
2023-08-05T23:00:00,2368A,114.9658,27.0999,吉安市,市森林工业局,,42,42,47,20,37,140,37,121,76,37,12,10,10,0.6,0.6
2023-08-05T23:00:00,2369A,114.99,27.1312,吉安市,市环境监测站,,44,44,49,22,28,130,33,118,74,27,12,8,10,0.6,0.8
2023-08-05T23:00:00,2370A,115.0093,27.0968,吉安市,青原区法院,,38,34,45,26,31,144,43,128,74,21,14,16,16,0.8,0.8
2023-08-05T23:00:00,2371A,114.3408,27.8064,宜春市,槟榔水业,,33,27,37,23,22,133,21,101,67,19,15,1,2,0.6,0.7
2023-08-05T23:00:00,2373A,114.3956,27.7844,宜春市,市石油公司,,42,42,37,25,23,117,24,103,56,12,11,2,3,0.6,0.6
2023-08-05T23:00:00,2374A,114.3703,27.7914,宜春市,市气象局,,32,32,37,22,25,133,27,111,66,19,12,3,4,0.6,0.6
2023-08-05T23:00:00,2375A,114.4013,27.8074,宜春市,市广电局,,46,43,40,32,25,125,36,114,71,9,8,7,8,0.7,0.7
2023-08-05T23:00:00,2376A,116.2127,28.0814,抚州市,桐源党溪,,43,39,40,30,26,139,38,131,86,15,11,1,3,0.4,0.6
2023-08-05T23:00:00,2377A,116.3544,27.9831,抚州市,市站,细颗粒物(PM2.5),52,52,45,36,29,114,68,107,91,12,7,6,6,1.0,0.9
2023-08-05T23:00:00,2378A,116.3565,27.963,抚州市,血防站,,45,45,46,29,27,111,66,99,79,6,7,5,5,0.9,0.9
2023-08-05T23:00:00,2379A,116.3564,28.0007,抚州市,采茶剧团,细颗粒物(PM2.5),63,66,44,45,28,110,48,104,80,17,8,4,4,0.8,0.8
2023-08-05T23:00:00,2380A,116.385,27.9647,抚州市,医学分院,,44,44,41,28,24,111,65,100,80,9,10,4,4,1.3,1.3
2023-08-05T23:00:00,2381A,118.005,28.4572,上饶市,百草园,细颗粒物(PM2.5),53,48,43,37,26,124,52,110,84,21,11,11,15,0.9,0.9
2023-08-05T23:00:00,2382A,117.9756,28.4436,上饶市,市监测站,颗粒物(PM10),54,58,49,28,26,132,43,118,95,25,12,8,22,0.7,0.7
2023-08-05T23:00:00,2383A,117.9519,28.4628,上饶市,凤凰光学,颗粒物(PM10),54,58,47,30,28,124,49,110,86,22,11,7,23,0.9,0.9
2023-08-05T23:00:00,2385A,114.17,35.9019,鹤壁市,市监测站,,15,8,32,9,30,156,47,108,63,14,17,1,2,0.9,1.2
2023-08-05T23:00:00,2386A,114.2956,35.7511,鹤壁市,市交警支队,,37,37,42,22,25,143,5,100,51,52,21,15,12,2.4,1
2023-08-05T23:00:00,2387A,114.2878,35.7306,鹤壁市,迎宾馆,,30,30,39,18,28,156,21,104,57,32,17,10,8,2.2,1
2023-08-05T23:00:00,2389A,113.836,35.311,新乡市,环保西院,,29,29,40,8,20,168,35,112,51,21,17,4,3,0.9,0.8
2023-08-05T23:00:00,2390A,113.884,35.272,新乡市,开发区,,15,12,28,7,17,82,47,67,58,15,13,4,2,1.1,1.1
2023-08-05T23:00:00,2391A,113.883,35.303,新乡市,环保东院,,33,33,45,15,20,169,43,116,57,23,17,7,5,0.9,0.8
2023-08-05T23:00:00,2392A,115.0312,35.7636,濮阳市,环保局,,28,10,28,19,22,138,62,101,77,10,10,4,3,0.6,0.7
2023-08-05T23:00:00,2394A,115.0574,35.7609,濮阳市,油田运输公司,,,,,,,,,,,,,,,,
2023-08-05T23:00:00,2395A,115.0866,35.7754,濮阳市,油田物探公司,,25,14,30,17,23,140,64,102,76,4,7,2,2,0.4,0.5
2023-08-05T23:00:00,2396A,113.8276,34.0159,许昌市,监测站,,22,10,39,9,23,154,69,138,96,10,11,4,4,0.5,0.5
2023-08-05T23:00:00,2398A,113.7906,33.9953,许昌市,开发区,,25,6,34,6,20,158,80,141,98,7,12,2,1,0.5,0.5
2023-08-05T23:00:00,2399A,114.051,33.5699,漯河市,三五一五工厂,,21,7,31,5,16,146,67,134,100,5,11,8,8,0.4,0.5
2023-08-05T23:00:00,2400A,114.0055,33.5698,漯河市,漯河大学,,23,12,39,8,25,153,71,139,104,4,10,5,8,0.4,0.4
2023-08-05T23:00:00,2401A,114.0138,33.5828,漯河市,市水利局,,21,9,32,0,16,150,66,135,97,8,10,7,7,0.5,0.6
2023-08-05T23:00:00,2402A,114.0261,33.5698,漯河市,市广电局,,22,10,33,6,19,155,70,141,104,8,11,5,6,0.4,0.5
2023-08-05T23:00:00,2404A,112.5224,33.0122,南阳市,瓦房庄,颗粒物(PM10),74,98,51,16,28,144,94,130,105,4,12,6,7,0.4,0.6
2023-08-05T23:00:00,2405A,112.5003,32.9735,南阳市,汉画馆,,38,38,37,18,27,132,73,126,101,7,10,5,6,0.3,0.4
2023-08-05T23:00:00,2406A,112.5573,33.027,南阳市,气象站,,35,35,47,9,25,157,85,145,106,4,9,4,4,0.4,0.5
2023-08-05T23:00:00,2407A,112.5481,32.9689,南阳市,理工学院,,31,29,38,8,25,149,98,136,108,3,9,7,9,0.3,0.4
2023-08-05T23:00:00,2408A,115.6702,34.4285,商丘市,环境监测站,,23,23,32,15,18,116,64,109,82,8,6,5,5,0.7,0.7
2023-08-05T23:00:00,2409A,115.6458,34.4045,商丘市,粮食局,,28,27,35,19,20,114,61,109,82,6,6,5,6,0.4,0.5
2023-08-05T23:00:00,2410A,115.6293,34.3948,商丘市,睢阳区环保局,,22,22,39,15,22,115,61,110,85,6,7,4,5,0.5,0.6
2023-08-05T23:00:00,2420A,114.0189,32.9656,驻马店市,市一纸厂,,23,18,32,7,14,128,72,119,99,3,11,5,4,0.3,0.4
2023-08-05T23:00:00,2421A,114.0114,33.015,驻马店市,市彩印厂,,23,15,35,12,15,138,71,123,100,8,13,7,7,0.4,0.6
2023-08-05T23:00:00,2422A,113.9976,32.9771,驻马店市,天方二分厂,,33,11,37,23,22,126,70,118,99,2,8,4,4,0.4,0.4
2023-08-05T23:00:00,2423A,115.0601,30.2313,黄石市,沈家营,颗粒物(PM10),60,70,74,19,23,170,48,142,81,26,26,11,9,0.5,0.8
2023-08-05T23:00:00,2424A,115.0817,30.2006,黄石市,陈家湾,颗粒物(PM10),52,54,62,21,22,168,97,146,100,4,6,6,6,0.5,0.5
2023-08-05T23:00:00,2426A,114.8988,30.2019,黄石市,铁山,,30,27,34,12,17,164,93,144,110,9,15,11,6,0.5,0.8
2023-08-05T23:00:00,2427A,115.0307,30.2092,黄石市,团城山,,48,48,54,12,18,158,49,131,86,17,11,5,8,0.5,0.7
2023-08-05T23:00:00,2428A,111.0419,32.395,十堰市,武当山,,16,2,15,8,8,77,50,77,57,6,5,11,9,0.6,0.6
2023-08-05T23:00:00,2429A,110.78,32.6494,十堰市,滨河新村,,34,34,30,12,14,107,19,86,48,12,8,6,6,0.5,0.4
2023-08-05T23:00:00,2430A,110.7258,32.6389,十堰市,刘家沟,,29,25,20,20,13,104,12,78,48,5,4,5,5,0.5,0.3
2023-08-05T23:00:00,2431A,110.8839,32.5714,十堰市,铁二处,,34,34,20,8,7,114,14,104,53,21,7,5,4,0.6,0.5
2023-08-05T23:00:00,2432A,112.155,32.0197,襄阳市,襄城运动路,,,13,44,,24,148,45,136,105,22,14,6,6,0.8,0.8
2023-08-05T23:00:00,2433A,112.1392,32.0564,襄阳市,樊城新华路,,33,33,41,13,24,135,72,127,104,11,11,5,6,0.8,0.8
2023-08-05T23:00:00,2434A,112.1825,32.1142,襄阳市,高新管委会,,50,50,48,2,30,161,79,144,122,12,9,6,6,0.7,0.7
2023-08-05T23:00:00,2435A,112.2106,32.0903,襄阳市,襄州航空路,颗粒物(PM10),52,54,47,16,26,153,71,140,104,14,10,6,5,0.7,0.7
2023-08-05T23:00:00,2436A,114.8938,30.3994,鄂州市,市政府,,46,46,54,21,22,169,54,138,106,30,18,4,4,0.5,0.6
2023-08-05T23:00:00,2437A,114.8989,30.3714,鄂州市,赵家坝,颗粒物(PM10),51,51,50,20,20,166,55,137,106,34,21,2,3,0.7,0.8
2023-08-05T23:00:00,2439A,112.2014,31.0481,荆门市,竹园小学,,37,37,46,21,26,168,59,148,104,13,11,9,10,0.7,0.6
2023-08-05T23:00:00,2440A,112.1969,30.9891,荆门市,掇刀,,43,38,42,30,25,288,86,171,152,11,11,11,8,0.6,0.6
2023-08-05T23:00:00,2441A,112.2213,31.0386,荆门市,石化一小,,37,37,41,22,27,162,82,143,112,12,18,5,6,0.5,0.5
2023-08-05T23:00:00,2443A,113.9153,30.9285,孝感市,文化路,,32,32,23,18,20,129,85,119,105,8,6,8,7,0.6,0.6
2023-08-05T23:00:00,2444A,113.942,30.9075,孝感市,东城区,,36,36,23,21,17,138,89,127,114,13,9,9,7,0.6,0.6
2023-08-05T23:00:00,2446A,114.9028,30.4742,黄冈市,职工中心,颗粒物(PM10),64,77,57,30,28,185,41,160,119,49,18,9,10,0.5,0.6
2023-08-05T23:00:00,2447A,114.3175,29.8142,咸宁市,森林公园,,36,19,27,20,17,122,113,119,103,4,4,3,5,0.5,0.6
2023-08-05T23:00:00,2448A,114.3107,29.8454,咸宁市,市发改委,,35,35,32,22,20,137,65,122,114,10,6,5,5,0.7,0.7
2023-08-05T23:00:00,2449A,114.2936,29.8566,咸宁市,咸安区政府,,35,32,29,24,21,127,67,121,108,10,8,3,4,0.6,0.5
2023-08-05T23:00:00,2451A,113.3583,31.7275,随州市,市委党校,,33,33,38,23,27,114,90,104,99,1,5,7,9,0.7,0.7
2023-08-05T23:00:00,2452A,113.3833,31.6908,随州市,市林业局,,38,36,36,26,26,122,78,108,102,9,7,4,4,0.7,0.7
2023-08-05T23:00:00,2453A,113.3983,31.7308,随州市,市立交桥水厂,,41,41,40,26,27,133,50,115,95,22,18,7,8,0.6,0.6
2023-08-05T23:00:00,2454A,109.4978,30.2981,恩施土家族苗族自治州,湖北民院,,,,,,,,,,,,,,,,
2023-08-05T23:00:00,2455A,109.4707,30.2798,恩施土家族苗族自治州,州电力总公司,,16,16,21,10,12,91,15,69,34,21,15,10,10,0.7,0.7
2023-08-05T23:00:00,2456A,112.5003,26.9167,衡阳市,原169医院,,46,46,36,27,23,115,26,111,80,40,11,6,8,0.4,0.3
2023-08-05T23:00:00,2457A,112.6194,26.9258,衡阳市,衡阳化工总厂,,29,29,38,20,22,132,79,125,97,5,9,5,7,0.6,0.7
2023-08-05T23:00:00,2458A,112.6211,26.8956,衡阳市,珠晖区环保局,,,38,34,,,127,63,124,99,12,8,5,6,0.6,0.6
2023-08-05T23:00:00,2459A,112.6197,26.8733,衡阳市,市委党校,,37,37,36,21,20,131,70,124,98,10,9,10,10,0.7,0.7
2023-08-05T23:00:00,2460A,112.6006,26.8919,衡阳市,市监测站,,42,42,35,28,25,130,64,124,98,12,10,6,10,0.7,0.7
2023-08-05T23:00:00,2461A,112.5664,26.9056,衡阳市,真空机电公司,,,43,41,,,126,68,121,96,9,10,5,13,0.7,0.8
2023-08-05T23:00:00,2462A,111.5239,27.3033,邵阳市,市水土所,细颗粒物(PM2.5),53,42,37,37,31,131,7,98,36,6,6,3,7,0.5,0.4
2023-08-05T23:00:00,2463A,111.4733,27.2317,邵阳市,市一中,"颗粒物(PM10),细颗粒物(PM2.5)",55,59,46,39,28,127,30,106,68,20,10,7,12,0.6,0.4
2023-08-05T23:00:00,2464A,111.5283,27.2442,邵阳市,市化工厂,,43,43,38,30,25,125,33,104,64,19,12,5,8,0.6,0.5
2023-08-05T23:00:00,2465A,111.4503,27.2537,邵阳市,市罐头厂,,42,28,43,29,29,126,26,89,57,16,11,3,7,0.5,0.4
2023-08-05T23:00:00,2466A,111.4328,27.2272,邵阳市,市环保局,,48,35,39,33,29,127,29,100,62,18,10,2,10,0.5,0.4
2023-08-05T23:00:00,2467A,112.4067,28.6428,益阳市,甘溪港,颗粒物(PM10),79,107,56,7,9,137,51,117,84,17,11,6,6,0.4,0.4
2023-08-05T23:00:00,2468A,112.3458,28.5808,益阳市,市环保局,,40,37,33,28,20,138,100,125,109,8,16,6,6,0.7,0.8
2023-08-05T23:00:00,2469A,112.3437,28.5531,益阳市,市特殊教育学校,细颗粒物(PM2.5),60,66,34,43,25,128,91,120,106,11,14,2,3,0.8,0.9
2023-08-05T23:00:00,2470A,112.3347,28.6047,益阳市,资阳区政务中心,细颗粒物(PM2.5),59,34,29,42,20,146,100,130,110,7,9,4,3,0.7,0.8
2023-08-05T23:00:00,2471A,112.3744,28.5819,益阳市,赫山环保分局,颗粒物(PM10),55,59,35,28,21,131,84,121,106,12,13,4,5,0.9,0.9
2023-08-05T23:00:00,2472A,113.0073,25.9061,郴州市,马头岭,,22,22,26,11,12,132,40,110,70,13,15,8,5,0.4,0.3
2023-08-05T23:00:00,2473A,113.0116,25.8226,郴州市,市职中,,22,22,24,12,16,133,45,118,75,12,13,10,6,0.5,0.5
2023-08-05T23:00:00,2474A,113.0161,25.8001,郴州市,兴隆步行街,,19,15,31,13,15,128,48,110,73,9,14,5,6,0.4,0.5
2023-08-05T23:00:00,2475A,113.0383,25.8071,郴州市,市审计局,,28,18,26,19,16,115,42,97,64,8,12,2,2,0.4,0.5
2023-08-05T23:00:00,2476A,113.0348,25.7759,郴州市,市环保局,,22,22,29,3,16,113,47,99,70,9,15,4,8,0.4,0.5
2023-08-05T23:00:00,2477A,111.6217,26.2081,永州市,零陵南津渡,,25,25,19,6,14,94,63,89,75,5,5,10,6,0.4,0.5
2023-08-05T23:00:00,2478A,111.6156,26.4214,永州市,市环境监测站,,20,16,26,9,19,110,62,103,80,7,9,6,6,0.5,0.7
