timepoint,stationcode,longitude,latitude,area,positionname,primarypollutant,aqi,pm10,pm10_24h,pm2_5,pm2_5_24h,o3,o3_24h,o3_8h,o3_8h_24h,no2,no2_24h,so2,so2_24h,co,co_24h
2024-02-21T0900,2566A,102.1879,31.914,阿坝藏族羌族自治州,州农科所,颗粒物(PM10),70,89,23,21,12,10,,16,15,24,8,14,7,2.8,1.1
2024-02-21T0900,2568A,102.2502,31.8896,阿坝藏族羌族自治州,马师校,,12,10,10,5,7,37,,47,45,12,7,4,4,0.5,0.5
2024-02-21T0900,3994A,102.2165,31.9024,阿坝藏族羌族自治州,马尔康中学西区,,15,12,11,10,7,45,,52,50,7,5,5,5,0.5,0.5
2024-02-21T0900,2695A,80.292,41.1694,阿克苏地区,电视台,颗粒物(PM10),466,566,632,73,92,62,,64,64,7,10,7,6,0.7,0.7
2024-02-21T0900,2696A,80.2613,41.1551,阿克苏地区,艺术中心,颗粒物(PM10),480,580,623,89,106,57,,67,65,14,14,4,5,0.8,0.8
2024-02-21T0900,2204A,105.6467,38.8363,阿拉善盟,西城区西花园,,45,45,214,13,37,66,,68,68,8,10,8,8,0.8,0.9
2024-02-21T0900,2205A,105.6985,38.8411,阿拉善盟,蒙二幼,颗粒物(PM10),54,58,248,21,46,57,,68,68,13,11,3,3,0.7,0.6
2024-02-21T0900,2206A,105.724,38.8516,阿拉善盟,环保局新楼,颗粒物(PM10),80,109,233,24,45,51,,68,66,11,8,5,5,0.7,0.6
2024-02-21T0900,2708A,88.1264,47.8517,阿勒泰地区,市站,,23,12,26,1,17,71,,75,75,12,25,4,14,0.4,0.5
2024-02-21T0900,2630A,80.1161,32.5,阿里地区,阿里监测站,,29,16,19,10,5,92,,91,91,1,2,7,7,0.4,0.4
2024-02-21T0900,3192A,80.0903,32.5028,阿里地区,阿里藏医院,,30,14,29,0,4,95,,94,94,2,2,6,6,0.5,0.5
2024-02-21T0900,2642A,109.0318,32.6537,安康市,香溪洞,,15,,4,3,3,45,,51,50,5,6,6,6,0.4,0.4
2024-02-21T0900,2643A,109.0281,32.6939,安康市,安康市监测站,,14,14,10,2,1,36,,48,46,14,8,32,14,0.7,0.5
2024-02-21T0900,2644A,109.0072,32.6975,安康市,汉滨区检察院,,15,8,7,6,3,48,,56,54,8,7,11,12,0.5,0.4
2024-02-21T0900,2291A,117.0809,30.5177,安庆市,环科院,,,,7,2,3,52,,59,59,8,11,4,4,0.4,0.5
2024-02-21T0900,2292A,117.0331,30.5119,安庆市,马山宾馆,,18,4,7,4,4,56,,61,61,6,9,4,5,0.6,0.6
2024-02-21T0900,2294A,116.9896,30.6145,安庆市,安庆大学,,18,,6,4,3,55,,60,60,8,9,6,6,0.4,0.4
2024-02-21T0900,3173A,117.0598,30.5351,安庆市,市人大,,17,5,9,3,5,52,,59,58,10,10,2,2,0.6,0.6
2024-02-21T0900,3122A,105.9606,26.2611,安顺市,伍家关,,,,,,,,,,,,,,,,
2024-02-21T0900,3123A,105.9408,26.2431,安顺市,凤凰山,,46,41,46,32,34,86,,99,96,14,9,12,10,0.5,0.5
2024-02-21T0900,3124A,105.9439,26.2564,安顺市,金钟山,,40,40,48,28,32,87,,98,95,11,9,10,9,0.4,0.4
2024-02-21T0900,3125A,105.8983,26.2481,安顺市,娄家坡,,46,44,56,32,34,89,,100,97,8,7,10,10,0.6,0.5
2024-02-21T0900,1818A,114.4839,36.0621,安阳市,棉研所,,,,,,,,,,,,,,,,
2024-02-21T0900,1819A,114.3551,36.1017,安阳市,红庙街,,40,39,58,28,17,53,,56,56,8,7,4,5,0.6,0.5
2024-02-21T0900,1820A,114.361,36.0681,安阳市,银杏小区,,45,40,49,31,18,53,,56,55,4,3,3,4,0.6,0.5
2024-02-21T0900,3141A,114.3922,36.0878,安阳市,信访局,,47,47,94,30,18,56,,58,58,6,6,2,3,0.6,0.4
2024-02-21T0900,3669A,114.4705,36.0637,安阳市,左辅环卫站,颗粒物(PM10),71,91,92,33,19,53,,55,55,5,5,2,3,0.7,0.5
2024-02-21T0900,3703A,114.2917,36.0949,安阳市,安钢职工学校,颗粒物(PM10),139,227,161,39,22,50,,51,51,13,12,5,6,0.7,0.5
2024-02-21T0900,1748A,123.044,41.1196,鞍山市,深沟寺,,31,31,49,17,24,51,,49,49,20,19,12,10,0.5,0.5
2024-02-21T0900,1749A,123.011,41.0931,鞍山市,太阳城,,30,30,37,17,19,56,,56,55,16,17,10,10,0.4,0.4
2024-02-21T0900,1750A,123.0485,41.1442,鞍山市,太平,,35,35,46,20,22,53,,52,52,18,18,7,7,0.6,0.5
2024-02-21T0900,1751A,122.9642,41.0971,鞍山市,铁西三道街,颗粒物(PM10),54,57,65,27,30,39,,33,33,29,33,22,21,1.5,1.5
2024-02-21T0900,1752A,122.9341,41.0833,鞍山市,铁西工业园区,颗粒物(PM10),51,51,57,25,29,42,,35,35,28,34,19,19,0.7,1.4
2024-02-21T0900,1753A,123.022,41.0821,鞍山市,明达新区,,29,29,36,17,18,51,,49,49,18,18,12,11,0.6,0.6
2024-02-21T0900,1754A,123.1289,41.0228,鞍山市,千山,,,,,,,,,,,,,,,,
2024-02-21T0900,2195A,107.4212,40.761,巴彦淖尔市,附二中,,,79,151,13,22,,,78,78,1,3,4,3,0.4,0.4
2024-02-21T0900,2196A,107.37,40.7372,巴彦淖尔市,市环保大楼,颗粒物(PM10),66,82,145,26,21,76,,78,78,4,6,3,4,0.4,0.4
2024-02-21T0900,1956A,86.1472,41.7538,巴音郭楞蒙古自治州,孔雀公园,颗粒物(PM10),191,332,494,58,75,71,,72,72,6,7,4,4,0.3,0.3
2024-02-21T0900,1957A,86.1972,41.7166,巴音郭楞蒙古自治州,棉纺厂,颗粒物(PM10),263,394,557,58,78,62,,59,59,12,12,2,2,0.3,0.4
2024-02-21T0900,1958A,86.2357,41.7173,巴音郭楞蒙古自治州,经济开发区,颗粒物(PM10),205,353,469,52,70,72,,71,71,4,4,3,3,0.3,0.3
2024-02-21T0900,2914A,106.7677,31.8794,巴中市,苏山坪,,15,10,101,4,39,48,,48,48,5,7,4,3,0.3,0.4
2024-02-21T0900,3182A,106.7656,31.8545,巴中市,丽阳花园,,17,17,126,3,54,41,,43,43,13,16,3,3,0.5,0.6
2024-02-21T0900,3183A,106.7418,31.8654,巴中市,圣泉水务公司,,,,131,,49,,,44,44,13,13,,3,0.6,0.7
2024-02-21T0900,3616A,106.7616,31.8344,巴中市,市中心医院,,16,8,128,2,53,49,,44,44,6,17,4,4,0.4,0.6
2024-02-21T0900,2235A,122.7911,45.6077,白城市,洮北区环保局,,30,,23,21,13,58,,60,58,13,11,5,5,0.4,0.4
2024-02-21T0900,2236A,122.8738,45.5725,白城市,市环保局,,36,,34,25,15,68,,74,73,13,13,7,6,0.6,0.5
2024-02-21T0900,2231A,126.4219,41.9171,白山市,喜丰,,38,38,38,16,14,57,,61,60,11,10,12,10,0.8,0.7
2024-02-21T0900,2232A,126.4077,41.9419,白山市,环保局,颗粒物(PM10),60,69,58,22,15,53,,62,61,16,11,12,10,0.7,0.6
2024-02-21T0900,2647A,104.1724,36.5446,白银市,第三小学,颗粒物(PM10),164,278,347,34,44,51,,51,51,7,7,9,11,0.7,0.6
2024-02-21T0900,2648A,104.1465,36.5482,白银市,动力公司,颗粒物(PM10),153,256,325,49,59,58,,54,54,8,9,6,4,0.5,0.5
2024-02-21T0900,2512A,106.6103,23.9011,百色市,市监测站,细颗粒物(PM2.5),74,86,69,54,40,27,,42,36,21,15,12,16,0.8,0.7
2024-02-21T0900,2513A,106.6538,23.8859,百色市,市中心血站,细颗粒物(PM2.5),82,70,65,60,45,17,,49,41,34,17,17,18,0.8,0.6
2024-02-21T0900,3406A,106.6085,23.8798,百色市,祈福高中,细颗粒物(PM2.5),85,76,68,63,47,15,,39,33,28,18,12,18,0.9,0.8
2024-02-21T0900,2270A,117.396,32.939,蚌埠市,工人疗养院,,27,27,17,18,13,63,,64,64,6,6,4,4,0.4,0.4
2024-02-21T0900,2271A,117.3605,32.9427,蚌埠市,百货大楼,,,22,16,21,15,60,,62,62,6,7,,1,0.3,0.3
2024-02-21T0900,2273A,117.4185,32.8911,蚌埠市,蚌埠学院,,,,17,,15,63,,64,64,,13,3,4,0.4,0.5
2024-02-21T0900,2274A,117.3533,32.9673,蚌埠市,淮上区政府,,36,,15,25,15,65,,66,66,6,6,3,3,0.5,0.5
2024-02-21T0900,2275A,117.3145,32.8977,蚌埠市,高新区,,38,,12,26,13,63,,64,64,2,5,2,2,0.2,0.3
2024-02-21T0900,3715A,117.3092,32.9314,蚌埠市,蚌埠田家炳中学,,38,28,18,26,17,57,,60,60,8,5,3,3,0.3,0.3
2024-02-21T0900,1585A,109.8756,40.6532,包头市,市环境监测站,,39,39,57,11,12,72,,69,69,11,14,8,9,0.5,0.6
2024-02-21T0900,1587A,109.9991,40.5842,包头市,包头八中,,40,40,67,8,19,76,,65,65,8,14,4,9,0.5,0.6
2024-02-21T0900,1588A,109.8538,40.6821,包头市,青山宾馆,,33,33,67,4,9,76,,73,73,8,11,9,22,0.4,0.5
2024-02-21T0900,1589A,109.8642,40.6288,包头市,惠龙物流,,35,35,61,13,13,68,,68,68,13,12,8,9,0.5,0.5
2024-02-21T0900,1590A,110.0377,40.5546,包头市,东河鸿龙湾,,29,29,57,14,15,75,,58,58,12,20,16,8,0.5,0.6
2024-02-21T0900,3283A,109.9154,40.5685,包头市,滨河大厦,,22,16,47,14,15,69,,67,67,13,12,8,8,0.6,0.6
2024-02-21T0900,3419A,109.9447,40.6261,包头市,包头市委党校,,22,15,57,5,14,70,,69,69,13,13,9,9,0.6,0.6
2024-02-21T0900,3683A,109.8331,40.6576,包头市,昆区政府,,42,42,67,6,12,70,,68,68,9,12,8,8,0.3,0.4
2024-02-21T0900,1930A,107.185,34.3063,宝鸡市,庙沟村,,50,,30,35,24,34,,40,39,8,8,7,7,0.7,0.6
2024-02-21T0900,1931A,107.0708,34.3017,宝鸡市,竹园沟,,40,,28,28,21,42,,50,49,12,14,4,4,0.7,0.7
2024-02-21T0900,1932A,107.1906,34.3672,宝鸡市,三陆医院,,46,,29,32,26,43,,49,48,13,14,6,6,0.4,0.4
2024-02-21T0900,1933A,107.1431,34.3547,宝鸡市,监测站,,40,,27,28,28,39,,48,46,16,14,3,2,0.6,0.6
2024-02-21T0900,1934A,107.1186,34.3739,宝鸡市,技工学校,,38,28,20,26,20,38,,48,47,20,17,5,4,0.5,0.5
2024-02-21T0900,1935A,107.3906,34.3528,宝鸡市,陈仓区环保局家属楼,,49,,32,34,24,42,,50,49,17,18,6,6,0.6,0.6
2024-02-21T0900,1936A,107.2058,34.3497,宝鸡市,文理学院,,35,30,29,24,23,36,,44,43,19,18,4,4,0.6,0.6
2024-02-21T0900,1937A,107.2386,34.3622,宝鸡市,三迪小学,,46,,31,32,25,42,,47,46,15,18,6,6,0.5,0.5
2024-02-21T0900,1051A,115.493,38.8632,保定市,游泳馆,,22,22,46,15,18,60,,56,56,2,7,2,2,0.1,0.2
2024-02-21T0900,1052A,115.5213,38.8959,保定市,华电二区,,40,,40,28,22,55,,52,52,10,12,4,4,0.1,0.3
2024-02-21T0900,1053A,115.4713,38.9108,保定市,接待中心,,34,34,38,14,14,46,,48,48,7,8,4,4,0.3,0.4
2024-02-21T0900,1054A,115.4612,38.8416,保定市,地表水厂,,,,64,,15,,,58,,,11,,3,,0.3
2024-02-21T0900,3581A,115.31981,38.95208,保定市,满城区生态环境分局,,27,27,25,14,17,52,,55,55,8,10,3,3,0.5,0.5
2024-02-21T0900,3582A,115.47694,38.76408,保定市,清苑区第二中学,,29,29,83,13,15,63,,58,58,2,4,4,5,0.3,0.4
2024-02-21T0900,3583A,115.62909,39.02311,保定市,徐水物探局,,18,14,20,12,13,52,,52,52,13,14,3,3,0.2,0.4
2024-02-21T0900,4004A,115.4202,38.8656,保定市,双鹰农机,,31,31,53,19,19,54,,52,52,6,9,2,2,0.3,0.4
2024-02-21T0900,4034A,115.5150,38.8590,保定市,植保所站,,38,34,54,26,24,60,,56,56,8,11,1,3,0.3,0.4
2024-02-21T0900,2594A,99.1678,25.1081,保山市,市环境监测站,,46,46,36,32,23,58,,76,72,13,8,6,6,0.7,0.6
2024-02-21T0900,2595A,99.1711,25.1328,保山市,市环保局,,48,48,38,29,24,75,,80,79,4,5,6,6,0.5,0.4
2024-02-21T0900,1866A,109.2262,21.588,北海市,牛尾岭水库,,,,,,,,,,,,,,,,
2024-02-21T0900,1867A,109.1436,21.4086,北海市,海滩公园,细颗粒物(PM2.5),59,56,70,42,32,11,,19,15,16,20,8,8,0.7,0.7
2024-02-21T0900,1868A,109.0981,21.4661,北海市,新市环保局,细颗粒物(PM2.5),79,68,50,58,38,11,,13,10,23,17,10,9,0.9,0.7
2024-02-21T0900,1869A,109.1778,21.5233,北海市,北海工业园,细颗粒物(PM2.5),77,,49,56,37,9,,6,5,18,14,11,9,0.6,0.5
2024-02-21T0900,3400A,109.1911,21.4415,北海市,龙潭自来水厂,细颗粒物(PM2.5),83,69,47,61,39,10,,9,7,17,12,10,9,0.8,0.6
2024-02-21T0900,1001A,116.3621,39.8784,北京市,万寿西宫,,17,14,24,6,12,53,,51,51,15,13,1,2,0.2,0.3
2024-02-21T0900,1002A,116.2202,40.2915,北京市,定陵,,42,37,21,29,13,41,,37,37,10,9,3,3,0.4,0.3
2024-02-21T0900,1003A,116.4174,39.9289,北京市,东四,,18,17,27,7,12,55,,55,55,11,10,2,2,0.5,0.5
2024-02-21T0900,1004A,116.4072,39.8863,北京市,天坛,,18,14,24,5,10,57,,57,57,13,13,3,2,0.3,0.2
2024-02-21T0900,1005A,116.462,39.9365,北京市,农展馆,,18,13,21,5,11,56,,52,52,10,12,2,2,0.3,0.3
2024-02-21T0900,1006A,116.3392,39.9295,北京市,官园,,20,14,25,8,13,61,,61,61,15,13,1,2,0.4,0.4
2024-02-21T0900,1007A,116.2878,39.9611,北京市,海淀万柳,,18,15,22,9,11,55,,55,55,18,15,3,3,0.3,0.3
2024-02-21T0900,1008A,116.6636,40.135,北京市,顺义新城,,19,18,20,8,10,59,,62,62,9,7,1,2,0.2,0.2
2024-02-21T0900,1009A,116.6275,40.3275,北京市,怀柔镇,,18,16,18,7,8,55,,57,57,7,5,4,4,0.4,0.4
2024-02-21T0900,1010A,116.2296,40.217,北京市,昌平镇,,26,26,23,17,13,38,,43,41,21,13,3,2,0.3,0.2
2024-02-21T0900,1011A,116.3966,39.9821,北京市,奥体中心,,19,13,21,6,10,58,,55,55,10,9,2,4,0.5,0.5
2024-02-21T0900,1012A,116.184,39.9136,北京市,古城,,19,19,21,11,11,48,,55,54,18,10,3,3,0.4,0.3
2024-02-21T0900,3281A,115.9718,40.4529,北京市,延庆夏都,,23,21,18,16,9,45,,52,50,11,4,3,3,0.3,0.2
2024-02-21T0900,3417A,117.0709,40.1465,北京市,平谷新城,,23,22,23,16,13,52,,55,55,7,4,1,2,0.3,0.3
2024-02-21T0900,3418A,116.8336,40.4095,北京市,密云新城,,21,19,22,6,9,65,,65,65,2,3,1,1,0.2,0.2
2024-02-21T0900,3671A,116.088,39.9726,北京市,门头沟三家店,,,,,,,,,,,,,,,,
2024-02-21T0900,3672A,116.1541,39.8204,北京市,丰台云岗,,19,19,25,9,9,49,,58,56,19,9,3,3,0.3,0.2
2024-02-21T0900,3673A,116.6804,39.9081,北京市,通州东关,,17,17,26,7,11,49,,55,55,16,10,2,2,0.3,0.3
2024-02-21T0900,3674A,115.9577,39.7603,北京市,房山燕山,,45,45,33,15,11,53,,65,62,10,9,2,2,0.3,0.3
2024-02-21T0900,3675A,116.4672,39.7733,北京市,大兴旧宫,,16,15,28,5,10,50,,48,48,16,14,2,2,0.1,0.2
2024-02-21T0900,3694A,115.986,40.4563,北京市,延庆石河营,,20,20,17,14,9,52,,59,57,12,4,3,3,0.2,0.2
2024-02-21T0900,3695A,116.6151,40.3053,北京市,怀柔新城,,18,18,19,10,11,56,,57,57,3,4,1,1,0.2,0.2
2024-02-21T0900,3696A,116.2545,39.8768,北京市,丰台小屯,,19,19,26,9,10,53,,54,53,16,15,3,3,0.2,0.2
2024-02-21T0900,3697A,116.84,40.3844,北京市,密云镇,,20,17,22,8,11,62,,60,60,3,6,1,2,0.2,0.3
2024-02-21T0900,1761A,123.8275,41.3064,本溪市,大峪,,31,31,46,19,20,59,,59,59,11,13,9,8,1.0,1
2024-02-21T0900,1762A,123.7567,41.3325,本溪市,溪湖,,30,30,45,18,22,61,,61,61,9,11,9,8,0.5,0.5
2024-02-21T0900,1763A,123.7169,41.3094,本溪市,彩屯,,34,34,48,22,23,56,,57,57,14,17,7,7,0.6,0.7
2024-02-21T0900,1764A,123.7669,41.2864,本溪市,东明,,36,36,41,24,24,57,,60,60,14,14,10,9,0.6,0.6
2024-02-21T0900,1765A,123.7992,41.2664,本溪市,新立屯,,29,25,37,20,17,59,,59,59,13,14,8,8,0.8,0.8
2024-02-21T0900,1766A,123.8142,41.3472,本溪市,威宁,,36,35,44,25,25,56,,57,57,11,13,5,5,0.5,0.6
2024-02-21T0900,2587A,105.2864,27.3125,毕节市,八中,颗粒物(PM10),129,208,94,83,41,59,,79,76,14,8,8,8,0.7,0.5
2024-02-21T0900,2588A,105.31,27.2944,毕节市,师专,颗粒物(PM10),141,232,89,92,40,88,,86,86,11,8,9,7,0.7,0.5
2024-02-21T0900,3537A,105.3631,27.3533,毕节市,长征村,细颗粒物(PM2.5),132,212,101,100,53,92,,96,95,10,8,10,9,0.8,0.7
2024-02-21T0900,1629A,118.0018,37.3617,滨州市,第二水厂,,21,19,31,9,8,66,,68,68,12,11,4,4,0.7,0.6
2024-02-21T0900,1630A,117.9776,37.393,滨州市,北中新校,,28,28,36,8,9,68,,69,69,8,8,8,7,0.5,0.5
2024-02-21T0900,3514A,117.9378,37.3956,滨州市,中海酒店,,21,20,28,9,13,67,,67,67,6,6,8,8,0.6,0.6
2024-02-21T0900,3515A,117.9378,37.3553,滨州市,开发区一中,颗粒物(PM10),51,51,36,8,7,68,,69,69,10,10,8,8,0.4,0.4
2024-02-21T0900,3516A,118.0917,37.694,滨州市,金海六路,,,,26,5,5,77,,76,76,1,4,5,6,0.4,0.4
2024-02-21T0900,4028A,117.9956,37.3753,滨州市,滨州市西街道办事处,,21,14,26,13,12,65,,67,67,10,10,9,9,0.6,0.6
2024-02-21T0900,2311A,115.8072,33.8399,亳州市,污水处理厂,,39,,25,27,20,60,,59,59,5,6,5,5,0.4,0.5
2024-02-21T0900,2312A,115.7789,33.8518,亳州市,三国揽胜宫,,30,28,32,21,17,54,,54,54,8,10,5,5,0.5,0.5
2024-02-21T0900,3332A,115.7633,33.8034,亳州市,亳州学院,,33,26,26,23,20,56,,56,56,6,7,3,4,0.7,0.6
2024-02-21T0900,2693A,82.0485,44.8556,博尔塔拉蒙古自治州,市党校,颗粒物(PM10),51,51,50,27,24,65,,68,68,7,10,8,11,0.3,0.5
2024-02-21T0900,2694A,82.0806,44.8969,博尔塔拉蒙古自治州,市环保局,颗粒物(PM10),51,52,50,20,21,58,,54,54,15,14,9,10,0.8,0.6
2024-02-21T0900,1071A,116.8842,38.2991,沧州市,沧县城建局,,38,33,46,26,22,58,,56,56,11,13,7,7,0.8,0.7
2024-02-21T0900,1072A,116.8584,38.3254,沧州市,电视转播站,,35,35,44,12,12,64,,59,59,13,17,6,6,0.5,0.6
2024-02-21T0900,1073A,116.8709,38.3228,沧州市,市环保局,,34,34,46,20,21,59,,56,56,14,15,4,5,0.5,0.6
2024-02-21T0900,3324A,116.8136,38.3004,沧州市,河北水利电力学院,,23,,20,16,16,59,,56,56,8,12,7,8,0.4,0.5
2024-02-21T0900,2622A,97.1806,31.1273,昌都市,昌都监测站,,22,,21,15,14,37,,46,45,32,18,8,8,0.7,0.5
2024-02-21T0900,3719A,97.1714,31.1406,昌都市,昌都会议中心,,20,11,11,10,9,64,,62,62,9,6,5,5,0.3,0.3
2024-02-21T0900,2690A,88.1236,43.8886,昌吉回族自治州,天山天池,颗粒物(PM10),56,61,69,11,18,77,,77,77,4,5,6,6,0.4,0.4
2024-02-21T0900,2692A,87.2717,44.0297,昌吉回族自治州,新区政务中心,细颗粒物(PM2.5),98,100,66,73,39,44,,62,60,26,17,5,5,0.7,0.6
2024-02-21T0900,3613A,87.3095,44.0142,昌吉回族自治州,亚心广场,细颗粒物(PM2.5),73,73,57,53,32,61,,71,70,20,18,9,8,0.9,0.9
2024-02-21T0900,1119A,125.3325,43.9166,长春市,食品厂,,45,35,30,31,24,43,,46,46,25,21,12,9,0.5,0.4
2024-02-21T0900,1120A,125.2863,43.9027,长春市,客车厂,细颗粒物(PM2.5),52,,28,36,28,42,,45,44,24,21,11,9,0.6,0.5
2024-02-21T0900,1121A,125.2841,43.8463,长春市,邮电学院,,33,28,26,23,19,45,,40,40,21,19,15,16,0.5,0.4
2024-02-21T0900,1122A,125.3716,43.8772,长春市,劳动公园,,,35,28,15,18,42,,52,51,,20,13,8,0.2,0.2
2024-02-21T0900,1123A,125.3297,43.8805,长春市,园林处,,29,20,24,20,19,49,,50,50,19,19,17,12,0.4,0.3
2024-02-21T0900,1124A,125.4605,43.79,长春市,净月潭,,29,23,27,20,18,33,,39,38,26,17,9,7,0.6,0.4
2024-02-21T0900,1125A,125.7194,43.515,长春市,甩湾子,,,,,,,,,,,,,,,,
2024-02-21T0900,1126A,125.3863,43.8447,长春市,经开区环卫处,,34,34,29,14,18,34,,28,27,34,26,32,7,0.5,0.5
2024-02-21T0900,1127A,125.245,43.7783,长春市,高新区管委会,,36,36,39,23,31,44,,22,22,31,37,17,12,0.6,0.6
2024-02-21T0900,1128A,125.1761,43.8325,长春市,岱山公园,,45,36,42,31,34,46,,18,18,20,34,8,5,0.5,0.5
2024-02-21T0900,1335A,113.0833,28.2325,长沙市,经开区环保局,,15,8,11,4,6,46,,44,44,7,10,4,5,0.4,0.4
2024-02-21T0900,1336A,112.8872,28.2189,长沙市,高开区环保局,,15,,8,7,10,45,,46,46,4,6,3,2,0.6,0.5
2024-02-21T0900,1337A,113.0792,28.2053,长沙市,马坡岭,,13,8,11,2,4,41,,40,40,5,7,5,5,0.5,0.4
2024-02-21T0900,1338A,112.9394,28.19,长沙市,湖南师范大学,,15,7,9,1,2,46,,45,45,7,8,7,6,0.7,0.7
2024-02-21T0900,1339A,113.0178,28.1322,长沙市,雨花区环保局,,13,,10,9,12,41,,40,40,4,6,2,2,0.4,0.4
2024-02-21T0900,1340A,112.9792,28.2597,长沙市,伍家岭,,13,6,7,1,1,39,,39,39,9,11,4,4,0.5,0.4
2024-02-21T0900,1341A,113.0014,28.1944,长沙市,火车新站,,15,5,8,2,5,46,,46,46,7,7,2,2,0.7,0.7
2024-02-21T0900,1342A,112.9844,28.1178,长沙市,天心区环保局,,13,5,8,1,2,41,,38,38,1,4,3,3,0.4,0.4
2024-02-21T0900,1343A,112.8908,28.1308,长沙市,湖南中医药大学,,14,,8,5,9,43,,44,44,9,9,3,3,0.4,0.3
2024-02-21T0900,1344A,112.9581,28.3611,长沙市,沙坪,,10,3,7,1,3,31,,30,30,6,9,1,1,0.5,0.5
2024-02-21T0900,1727A,113.1147,36.1547,长治市,清华站,,21,14,40,5,17,67,,64,64,13,13,9,9,0.4,0.5
2024-02-21T0900,1728A,113.1031,36.1989,长治市,监测站,,,25,72,17,21,53,,55,55,15,11,,9,1.1,1.1
2024-02-21T0900,1730A,113.0886,36.2125,长治市,审计局,,25,18,66,17,18,67,,62,62,9,11,9,9,0.6,0.7
2024-02-21T0900,1731A,113.0844,36.1856,长治市,长治八中,,21,18,54,10,18,67,,63,63,11,13,4,4,0.7,0.7
2024-02-21T0900,2845A,113.1569,36.1911,长治市,德盛苑,,22,14,57,14,19,69,,66,66,11,13,10,9,0.7,0.7
2024-02-21T0900,3568A,113.06,36.0464,长治市,向阳小学,,27,22,35,12,22,85,,76,76,8,10,6,7,0.4,0.5
2024-02-21T0900,3569A,112.8792,36.3144,长治市,屯留一中,,39,37,55,27,28,54,,55,55,16,12,11,7,1.0,0.6
2024-02-21T0900,3570A,113.235,36.3489,长治市,潞城四中,,26,20,46,18,26,71,,65,65,10,11,7,7,0.5,0.6
2024-02-21T0900,1854A,111.6975,28.9703,常德市,市二中,,25,21,9,17,6,47,,47,47,18,16,5,5,0.4,0.4
2024-02-21T0900,1857A,111.7158,29.1456,常德市,白鹤山,,,,7,,3,19,,16,16,2,2,,4,0.5,0.5
2024-02-21T0900,3138A,111.7153,29.0289,常德市,武陵区永安,,24,24,8,13,5,51,,47,47,5,9,5,6,0.4,0.4
2024-02-21T0900,3139A,111.6892,28.9881,常德市,鼎城区玉霞,,25,17,7,17,5,51,,47,47,8,10,6,6,0.7,0.7
2024-02-21T0900,3140A,111.6625,29.0531,常德市,武陵区长庚,,24,24,8,15,6,51,,47,47,12,11,4,4,0.4,0.5
2024-02-21T0900,1196A,119.9633,31.762,常州市,市监测站,,18,7,16,7,10,55,,65,64,6,9,6,6,0.6,0.5
2024-02-21T0900,1200A,119.9468,31.7069,常州市,武进监测站,,16,9,19,7,12,51,,62,60,14,17,5,6,0.8,0.8
2024-02-21T0900,1201A,119.9255,31.9087,常州市,安家,,18,10,9,10,6,55,,67,65,13,11,6,6,0.6,0.5
2024-02-21T0900,3002A,119.9805,31.8174,常州市,行政中心,,17,12,16,8,8,53,,65,63,11,12,4,5,0.7,0.6
2024-02-21T0900,3003A,120.0522,31.7748,常州市,经开区,,17,10,17,5,9,53,,63,62,14,17,6,5,0.5,0.5
2024-02-21T0900,3010A,119.9025,31.7964,常州市,钟楼,,16,,12,9,9,50,,62,60,17,15,6,6,0.8,0.8
2024-02-21T0900,3429A,119.8598,31.7066,常州市,武进经发区,,,6,17,5,14,48,,,,,17,,5,,0.4
2024-02-21T0900,3430A,119.5826,31.7245,常州市,金坛城区,,18,18,14,10,7,50,,63,61,12,12,7,6,0.6,0.5
2024-02-21T0900,2220A,120.4318,41.5881,朝阳市,西梁,,26,18,17,4,7,82,,81,81,6,6,4,4,0.5,0.5
2024-02-21T0900,2221A,120.4521,41.5646,朝阳市,河畔小区,,25,16,18,5,9,77,,75,75,4,3,4,5,0.5,0.5
2024-02-21T0900,2222A,120.4176,41.5648,朝阳市,八里堡,,26,21,22,6,8,83,,82,82,6,6,8,8,0.5,0.5
2024-02-21T0900,2223A,120.3806,41.5969,朝阳市,农业园区,,25,16,16,9,9,78,,77,77,4,5,5,6,0.4,0.4
2024-02-21T0900,1705A,116.6367,23.6719,潮州市,西园路,,22,22,30,14,20,34,,34,33,10,9,4,4,0.7,0.4
2024-02-21T0900,3026A,116.6183,23.6608,潮州市,市政府,,20,20,30,14,20,42,,41,40,9,9,6,5,0.9,0.6
2024-02-21T0900,4036A,116.6461,23.6761,潮州市,金山,,20,14,30,14,31,27,,27,26,12,10,6,6,0.7,0.5
2024-02-21T0900,2472A,113.0073,25.9061,郴州市,马头岭,,12,12,59,7,27,23,,23,23,11,14,3,3,0.6,0.7
2024-02-21T0900,2473A,113.0116,25.8226,郴州市,市职中,,19,19,36,12,23,21,,21,21,13,10,3,4,0.5,0.6
2024-02-21T0900,2474A,113.0161,25.8001,郴州市,兴隆步行街,,20,16,34,14,22,24,,22,22,10,8,2,2,0.5,0.5
2024-02-21T0900,2475A,113.0383,25.8071,郴州市,市审计局,,16,16,39,8,18,23,,22,22,11,10,2,2,0.5,0.5
2024-02-21T0900,2476A,113.0348,25.7759,郴州市,市环保局,,,,39,,22,,,19,19,11,10,2,4,0.6,0.6
2024-02-21T0900,1431A,103.9728,30.7236,成都市,金泉两河,,26,26,197,7,73,19,,27,25,8,10,3,2,0.3,0.4
2024-02-21T0900,1432A,104.176,30.6872,成都市,十里店,,22,22,194,12,84,31,,39,38,12,15,3,2,0.5,0.5
2024-02-21T0900,1433A,104.079,30.5706,成都市,三瓦窑,,31,31,239,4,74,26,,37,36,8,13,3,2,0.7,0.6
2024-02-21T0900,1434A,104.1114,30.63,成都市,沙河铺,,26,26,229,4,78,30,,37,35,11,17,3,4,0.4,0.4
2024-02-21T0900,1437A,104.0786,30.6531,成都市,君平街,,43,43,227,2,72,28,,38,36,15,18,4,4,0.5,0.4
2024-02-21T0900,1438A,103.613,31.0283,成都市,灵岩寺,,21,21,190,8,68,35,,41,40,14,14,5,7,0.7,0.7
2024-02-21T0900,2880A,104.0239,30.65639,成都市,大石西路,,30,30,221,9,65,28,,39,37,12,15,2,3,0.7,0.7
2024-02-21T0900,3136A,104.2725,30.5589,成都市,龙泉驿区区政府,,19,19,231,5,107,33,,44,42,10,12,2,2,0.5,0.5
2024-02-21T0900,3357A,104.0106,30.6931,成都市,金博路,,33,33,238,4,76,23,,33,31,13,17,3,2,0.5,0.5
2024-02-21T0900,3359A,104.0578,30.5225,成都市,华阳,,22,22,224,7,81,22,,36,34,6,8,1,2,0.5,0.6
2024-02-21T0900,3487A,104.2394,30.5319,成都市,车城东七路,,20,20,253,9,96,28,,41,40,15,16,2,3,0.5,0.5
2024-02-21T0900,3488A,104.3853,30.7453,成都市,青白江技师分院,,25,25,247,8,80,35,,42,40,8,9,2,2,0.5,0.5
2024-02-21T0900,3489A,104.0789,30.4072,成都市,科学城,,21,21,263,8,98,35,,45,44,5,7,4,4,0.5,0.5
2024-02-21T0900,4011A,103.8506,30.6947,成都市,光华大道三段,,26,26,212,11,72,20,,28,26,8,10,3,2,0.5,0.5
2024-02-21T0900,1062A,117.9531,40.9081,承德市,铁路,,,,30,,10,,,55,54,25,14,5,8,0.4,0.3
2024-02-21T0900,1063A,117.9392,40.9763,承德市,中国银行,,26,26,30,14,9,51,,59,57,20,11,7,8,0.4,0.3
2024-02-21T0900,1064A,117.9503,40.928,承德市,开发区,,26,26,35,13,18,46,,64,61,23,12,4,5,0.5,0.4
2024-02-21T0900,1065A,117.8051,40.9655,承德市,文化中心,,34,34,39,12,8,38,,57,53,20,10,3,4,0.4,0.3
2024-02-21T0900,1066A,117.9268,41.0026,承德市,离宫,,32,,22,22,16,50,,54,52,9,6,2,3,0.3,0.3
2024-02-21T0900,2314A,117.47,30.6618,池州市,池州学院,,17,3,8,2,6,53,,56,56,4,11,3,5,0.2,0.3
2024-02-21T0900,3237A,117.4918,30.6617,池州市,展览馆,,18,5,10,4,8,56,,60,60,9,14,7,5,0.4,0.5
2024-02-21T0900,3333A,117.5627,30.695,池州市,第八中学,,16,5,8,3,6,51,,55,55,11,14,2,2,0.5,0.5
2024-02-21T0900,3334A,117.5038,30.6243,池州市,第十二中学,,17,5,7,5,6,53,,56,56,10,12,3,3,0.5,0.6
2024-02-21T0900,1744A,118.9233,42.2816,赤峰市,松山一中,,33,33,25,8,8,68,,75,75,16,12,6,7,0.7,0.6
2024-02-21T0900,1745A,118.9576,42.2728,赤峰市,哈达街,,25,25,23,10,10,64,,71,71,19,13,7,8,0.6,0.6
2024-02-21T0900,1746A,118.8788,42.2554,赤峰市,天义路,,20,12,17,6,9,63,,67,67,15,11,6,7,0.5,0.4
2024-02-21T0900,3058A,119.2658,42.0353,赤峰市,银河街,,44,44,33,15,13,69,,64,64,10,10,13,13,0.4,0.4
2024-02-21T0900,3286A,118.9359,42.3147,赤峰市,桥北物流园区,,23,22,16,6,6,73,,77,77,11,8,7,7,0.4,0.5
2024-02-21T0900,2521A,107.3476,22.4136,崇左市,市环保局江州分局,细颗粒物(PM2.5),75,71,55,55,38,24,,44,39,25,10,7,7,0.5,0.3
2024-02-21T0900,2522A,107.3702,22.3707,崇左市,城南新区,细颗粒物(PM2.5),78,68,52,57,41,21,,40,35,24,12,6,7,0.4,0.3
2024-02-21T0900,2298A,118.3093,32.3153,滁州市,老年大学,,41,41,40,23,10,55,,60,59,13,12,6,4,0.6,0.6
2024-02-21T0900,2299A,118.3244,32.2786,滁州市,人大宾馆,,23,19,11,16,7,54,,58,57,17,15,4,4,0.6,0.5
2024-02-21T0900,3207A,118.3118,32.3038,滁州市,市政府原办公楼,,22,15,10,15,8,51,,60,58,21,14,5,4,0.5,0.4
2024-02-21T0900,3331A,118.3267,32.2634,滁州市,图书馆,,23,23,13,15,6,54,,60,58,16,12,5,5,0.6,0.5
2024-02-21T0900,2605A,101.5482,25.0441,楚雄彝族自治州,州环境监测站,,31,31,25,20,16,84,,88,87,10,6,7,6,0.6,0.5
2024-02-21T0900,2606A,101.538,25.0492,楚雄彝族自治州,市经济开发区,,34,34,27,22,19,75,,81,80,14,8,6,6,0.7,0.4
2024-02-21T0900,2548A,107.5277,31.2827,达州市,达州职业技术学院,,12,6,92,4,30,36,,47,46,13,9,7,16,0.4,0.6
2024-02-21T0900,2549A,107.5086,31.2186,达州市,市环境监测站,,12,12,92,0,29,34,,43,42,16,23,6,13,0.5,0.6
2024-02-21T0900,2550A,107.4988,31.2132,达州市,凤凰小区,,13,5,91,0,34,40,,44,44,10,21,6,12,0.4,0.6
2024-02-21T0900,2551A,107.5082,31.1986,达州市,达县机关宾馆,,10,,91,6,36,31,,41,39,20,21,4,12,0.6,0.7
2024-02-21T0900,2552A,107.4644,31.2124,达州市,市政中心,,21,21,89,0,32,36,,44,43,16,26,5,12,0.4,0.5
2024-02-21T0900,2614A,100.1542,25.7054,大理白族自治州,大理市环境监测站,,38,30,26,26,19,88,,96,94,10,5,7,7,0.6,0.5
2024-02-21T0900,2615A,100.2171,25.5811,大理白族自治州,大理古城,,45,39,25,31,17,96,,98,98,6,4,7,7,0.6,0.6
2024-02-21T0900,1109A,121.612,38.9741,大连市,甘井子,颗粒物(PM10),63,75,61,20,19,58,,59,59,12,13,6,9,0.7,0.7
2024-02-21T0900,1110A,121.565,38.9511,大连市,周水子,颗粒物(PM10),55,59,51,21,19,56,,58,58,11,12,25,8,0.7,0.6
2024-02-21T0900,1111A,121.5637,38.8845,大连市,星海三站,颗粒物(PM10),56,62,56,20,20,54,,55,55,17,16,42,19,0.7,0.8
2024-02-21T0900,1112A,121.6302,38.9117,大连市,青泥洼桥,颗粒物(PM10),52,53,58,18,18,56,,57,57,14,15,11,15,0.6,0.7
2024-02-21T0900,1113A,121.6251,38.8638,大连市,傅家庄,颗粒物(PM10),53,55,66,19,20,57,,58,58,15,16,10,15,0.6,0.7
2024-02-21T0900,1114A,121.5213,38.8661,大连市,七贤岭,颗粒物(PM10),61,72,55,17,17,59,,62,62,14,12,14,10,0.8,0.8
2024-02-21T0900,1115A,121.2529,38.8061,大连市,旅顺,,40,40,40,13,17,69,,67,67,9,9,7,7,1.2,0.8
2024-02-21T0900,1116A,121.7485,39.1311,大连市,金州,颗粒物(PM10),101,152,66,24,20,60,,60,60,14,15,9,10,0.9,0.9
2024-02-21T0900,1117A,121.7811,39.0496,大连市,开发区,,44,44,46,21,22,56,,57,57,18,22,6,8,0.8,0.8
2024-02-21T0900,1118A,121.9762,39.0631,大连市,双D港,,38,38,52,24,22,63,,58,58,14,16,10,10,0.8,0.7
2024-02-21T0900,1789A,124.81117,46.03138,大庆市,大同区,,28,28,31,19,21,62,,58,58,5,8,5,6,0.4,0.4
2024-02-21T0900,1790A,125.129,46.533,大庆市,龙凤区,,25,21,28,17,21,54,,56,56,23,18,23,8,0.5,0.5
2024-02-21T0900,1791A,124.902,46.408,大庆市,红岗区,,22,17,23,15,16,65,,65,65,8,10,8,5,0.5,0.4
2024-02-21T0900,1792A,125.153,46.586,大庆市,萨尔图区,,19,15,21,11,13,58,,62,62,16,12,7,8,0.5,0.5
2024-02-21T0900,1793A,124.9042,46.6215,大庆市,让胡路区,,26,26,24,11,18,63,,67,66,10,7,6,7,0.4,0.3
2024-02-21T0900,3481A,125.141,46.634,大庆市,萨区政府监测点,,30,,20,21,14,68,,68,68,18,14,8,9,0.3,0.4
2024-02-21T0900,1721A,113.3819,40.1097,大同市,果树场,,,,,,,,,,,,,,,,
2024-02-21T0900,1723A,113.2994,40.0758,大同市,云冈宾馆,,28,19,34,19,17,74,,70,70,8,14,6,4,0.5,0.4
2024-02-21T0900,1724A,113.3444,40.0917,大同市,大同大学,,38,38,40,6,18,68,,65,65,13,13,7,5,0.3,0.5
2024-02-21T0900,1725A,113.2661,40.1269,大同市,安家小村,,46,46,42,7,17,76,,72,72,2,10,11,9,0.3,0.5
2024-02-21T0900,1726A,113.2711,40.0844,大同市,教育学院,,33,33,43,7,18,70,,66,66,10,15,6,5,0.4,0.5
2024-02-21T0900,3282A,113.3397,40.0597,大同市,大同市卫生学校,,23,14,25,4,17,71,,69,69,11,11,5,4,0.4,0.5
2024-02-21T0900,3565A,113.1367,40.1122,大同市,云冈站,,,36,37,4,16,79,,76,76,1,7,,4,0.4,0.5
2024-02-21T0900,3566A,113.1186,40.2556,大同市,图书馆,颗粒物(PM10),77,103,54,12,19,72,,72,72,8,13,9,12,0.5,0.7
2024-02-21T0900,3567A,113.5931,40.0461,大同市,区一中,,28,28,48,12,17,73,,62,62,6,12,8,4,0.4,0.5
2024-02-21T0900,3676A,113.2802,40.0995,大同市,第二人民医院,,39,39,36,4,17,75,,71,71,8,14,8,6,0.3,0.3
2024-02-21T0900,2269A,124.1069,50.4097,大兴安岭地区,科技局,,32,,16,22,17,59,,64,63,10,8,8,8,0.4,0.3
2024-02-21T0900,3663A,124.1164,50.4278,大兴安岭地区,红旗社区,,27,27,10,13,8,47,,59,56,24,7,7,5,0.5,0.3
2024-02-21T0900,1600A,124.3303,40.0625,丹东市,江湾东路,,44,44,30,15,12,73,,73,73,8,6,10,10,0.5,0.4
2024-02-21T0900,1601A,124.4256,40.1503,丹东市,临江后街,,46,46,29,12,9,71,,71,71,6,4,5,6,0.4,0.4
2024-02-21T0900,1602A,124.3933,40.1461,丹东市,元宝山,,33,33,26,12,10,68,,68,68,7,4,6,7,0.4,0.4
2024-02-21T0900,1603A,124.3633,40.1092,丹东市,民主桥,,36,36,30,11,10,64,,67,67,9,6,9,9,0.4,0.3
2024-02-21T0900,3541A,109.5726,19.5167,儋州市,第一中学子站,,20,17,31,14,23,46,,49,48,1,1,6,6,0.6,0.6
2024-02-21T0900,3542A,109.5567,19.5187,儋州市,东坡学校子站,,22,22,34,14,21,48,,52,51,2,2,5,6,0.4,0.4
2024-02-21T0900,2616A,98.5842,24.428,德宏傣族景颇族自治州,德宏州监测站,细颗粒物(PM2.5),77,66,54,56,33,7,,25,20,39,25,24,18,1.1,0.9
2024-02-21T0900,3677A,98.5881,24.4368,德宏傣族景颇族自治州,芒市人民政府综合楼,细颗粒物(PM2.5),59,50,46,42,32,14,,47,41,34,17,6,8,0.9,0.7
2024-02-21T0900,1901A,104.4239,31.1208,德阳市,东山公园,,20,20,205,7,66,35,,37,35,5,7,3,2,0.4,0.4
2024-02-21T0900,1902A,104.3826,31.1317,德阳市,西小区,,23,23,203,5,69,28,,34,32,13,12,1,2,0.5,0.5
2024-02-21T0900,1904A,104.3553,31.1091,德阳市,耐火材料厂,,,19,201,5,70,,,32,30,14,12,1,2,0.4,0.3
2024-02-21T0900,3639A,104.4019,31.1244,德阳市,市教育局,,20,20,188,5,67,30,,34,32,10,11,1,2,0.5,0.5
2024-02-21T0900,1622A,116.3032,37.4674,德州市,儿童乐园,,29,29,38,19,14,61,,58,58,13,13,7,7,0.8,0.7
2024-02-21T0900,1624A,116.2991,37.4451,德州市,监理站,,24,24,28,14,11,61,,57,57,18,17,6,6,0.8,0.7
2024-02-21T0900,3066A,116.2721,37.4379,德州市,九衢泉纯净水厂,,32,24,33,22,15,61,,56,56,13,14,7,7,0.8,0.7
2024-02-21T0900,3371A,116.3728,37.4403,德州市,开发区人民医院,,31,31,35,19,12,59,,56,56,8,9,6,6,0.6,0.5
2024-02-21T0900,3372A,116.3572,37.4094,德州市,太阳城中学,,39,27,29,27,16,54,,53,53,10,9,5,6,0.8,0.7
2024-02-21T0900,3511A,116.5652,37.3319,德州市,陵城艺术中心,,39,36,33,27,12,58,,57,57,12,13,6,5,0.7,0.5
2024-02-21T0900,2621A,99.7056,27.8317,迪庆藏族自治州,迪庆州站,,28,14,22,8,14,87,,93,92,10,8,8,8,0.5,0.4
2024-02-21T0900,3180A,99.7136,27.8094,迪庆藏族自治州,质量技术监督局,,26,14,16,13,13,83,,90,89,6,5,8,8,0.4,0.4
2024-02-21T0900,2663A,104.6241,35.5734,定西市,东关小学,颗粒物(PM10),150,249,306,54,64,32,,41,40,16,10,37,14,0.5,0.4
2024-02-21T0900,2664A,104.6194,35.5934,定西市,供电公司,颗粒物(PM10),142,233,282,51,57,48,,52,51,5,5,3,3,0.4,0.3
2024-02-21T0900,1389A,113.7547,23.0494,东莞市,莞城梨川,,21,21,19,12,13,60,,60,60,12,10,7,7,0.6,0.5
2024-02-21T0900,1390A,113.7944,23.0128,东莞市,东城石井,,22,22,20,14,12,52,,57,57,15,10,7,7,0.5,0.5
2024-02-21T0900,1391A,113.7383,22.9658,东莞市,南城西平,,20,17,20,11,12,62,,60,60,9,7,4,4,0.5,0.5
2024-02-21T0900,3319A,113.7338,23.0381,东莞市,万江金泰,,18,17,21,11,14,57,,54,54,8,6,7,7,0.7,0.6
2024-02-21T0900,3626A,113.7533,23.0202,东莞市,南城元岭,,18,18,21,12,13,54,,56,56,10,6,7,7,0.6,0.6
2024-02-21T0900,3627A,113.7875,23.0457,东莞市,东城主山,,20,20,21,14,12,54,,56,56,11,8,9,9,0.6,0.6
2024-02-21T0900,1666A,118.6614,37.4309,东营市,市环保局,,,17,23,,11,66,,73,72,,10,,6,0.5,0.5
2024-02-21T0900,3036A,118.6904,37.4338,东营市,开发区管委会,,24,24,32,7,13,72,,70,70,8,9,3,2,0.2,0.2
2024-02-21T0900,3365A,118.5719,37.565,东营市,垦利区民丰路,,22,22,30,14,9,69,,68,68,7,7,8,8,0.4,0.4
2024-02-21T0900,3498A,118.5055,37.8612,东营市,河口城区,,22,17,33,2,9,69,,68,68,6,7,3,3,0.2,0.2
2024-02-21T0900,3646A,118.4978,37.4623,东营市,胜利站,颗粒物(PM10),76,102,48,7,9,67,,67,67,9,9,7,7,1.0,0.8
2024-02-21T0900,3734A,118.35,37.26,东营市,理想之城,,22,22,28,9,11,70,,69,69,6,5,3,1,0.3,0.3
2024-02-21T0900,1591A,110.0023,39.8129,鄂尔多斯市,综合楼,,25,22,37,7,20,80,,68,68,7,19,2,3,0.4,0.6
2024-02-21T0900,1592A,109.9486,39.8261,鄂尔多斯市,巴音孟克林场办事处,,23,19,38,9,23,73,,62,62,6,16,6,6,0.4,0.6
2024-02-21T0900,1593A,109.7736,39.5986,鄂尔多斯市,康泽苑,,27,27,39,14,23,72,,61,61,8,17,5,5,0.5,0.7
2024-02-21T0900,1594A,109.8119,39.5989,鄂尔多斯市,华泰汽车城,,34,34,44,19,28,77,,64,64,7,17,6,6,0.5,0.7
2024-02-21T0900,1595A,109.9734,39.7884,鄂尔多斯市,奥林花园,,27,27,43,9,22,76,,64,64,8,19,5,5,0.4,0.6
2024-02-21T0900,2436A,114.8938,30.3994,鄂州市,市政府,,19,16,8,13,2,30,,30,30,8,11,6,6,0.6,0.6
2024-02-21T0900,2437A,114.8989,30.3714,鄂州市,赵家坝,,19,,9,13,4,47,,48,47,6,8,3,3,0.5,0.5
2024-02-21T0900,3654A,114.8094,30.4089,鄂州市,精准医疗中心,,31,31,18,15,3,47,,48,48,4,4,4,4,0.5,0.6
2024-02-21T0900,2454A,109.4978,30.2981,恩施土家族苗族自治州,湖北民院,,31,31,38,8,14,33,,36,35,12,11,8,8,0.9,0.9
2024-02-21T0900,2455A,109.4707,30.2798,恩施土家族苗族自治州,州电力总公司,,11,3,33,1,17,33,,35,35,12,14,6,6,1.1,1
2024-02-21T0900,3549A,109.5061,30.3772,恩施土家族苗族自治州,龙凤新区,,10,6,26,2,16,32,,31,31,13,14,6,6,0.9,1
2024-02-21T0900,2499A,108.3411,21.6158,防城港市,沙万,,43,39,51,30,28,21,,16,16,20,23,4,4,0.4,0.3
2024-02-21T0900,2500A,108.3514,21.7731,防城港市,防城档案局,,39,39,39,26,27,24,,24,24,17,11,8,8,0.5,0.4
2024-02-21T0900,2501A,108.3506,21.6414,防城港市,大海花园,,38,38,36,21,17,9,,18,18,28,19,4,4,0.5,0.4
2024-02-21T0900,1371A,113.1294,23.0067,佛山市,湾梁,,44,44,30,23,16,54,,42,42,8,11,12,11,0.5,0.5
2024-02-21T0900,1372A,113.1083,23.0478,佛山市,华材职中,,41,41,27,27,17,53,,42,42,6,10,10,9,0.5,0.4
2024-02-21T0900,1373A,113.144,23.0453,佛山市,南海气象局,,46,46,30,26,17,26,,31,31,25,14,9,8,0.5,0.4
2024-02-21T0900,1374A,113.2881,22.8094,佛山市,顺德苏岗,,35,35,28,24,17,35,,35,35,18,11,9,9,0.6,0.5
2024-02-21T0900,1376A,112.8383,22.8678,佛山市,高明孔堂,,49,46,25,34,19,53,,51,51,6,3,5,4,0.4,0.4
2024-02-21T0900,1377A,112.8836,23.1588,佛山市,三水监测站,细颗粒物(PM2.5),52,51,26,36,20,40,,30,30,12,13,6,5,0.4,0.4
2024-02-21T0900,1378A,112.867,23.185,佛山市,三水云东海,颗粒物(PM10),55,59,29,38,17,40,,32,32,18,16,7,4,0.4,0.3
2024-02-21T0900,3625A,113.2544,22.7642,佛山市,容桂街道办,,34,34,23,19,15,48,,44,44,8,5,6,6,0.5,0.5
2024-02-21T0900,1280A,119.3903,26.0543,福州市,鼓山,,,,,,,,,,,,,,,,
2024-02-21T0900,1282A,119.2681,26.0504,福州市,师大,细颗粒物(PM2.5),57,56,35,40,28,16,,15,14,17,14,6,6,0.6,0.4
2024-02-21T0900,1283A,119.2984,26.1028,福州市,五四北路,,,50,31,43,27,24,,20,20,15,14,,4,0.6,0.5
2024-02-21T0900,1284A,119.2648,26.0768,福州市,杨桥西路,细颗粒物(PM2.5),53,51,36,37,28,25,,22,21,15,15,3,4,0.6,0.5
2024-02-21T0900,1285A,119.317,26.0746,福州市,紫阳,,49,43,31,34,25,16,,17,16,20,14,3,3,0.6,0.5
2024-02-21T0900,3048A,119.5799,26.0936,福州市,九龙,,48,,16,33,18,25,,27,26,13,14,3,3,0.5,0.5
2024-02-21T0900,3526A,119.5189,25.9664,福州市,吴航,,50,39,35,35,27,17,,20,19,15,16,4,4,0.6,0.6
2024-02-21T0900,1755A,123.7977,41.8491,抚顺市,望花区,,26,26,33,17,20,63,,61,61,6,9,3,2,0.7,0.7
2024-02-21T0900,1756A,123.9161,41.8822,抚顺市,顺城区,,32,32,35,14,19,72,,70,69,10,11,7,6,0.4,0.4
2024-02-21T0900,1757A,124.0436,41.8611,抚顺市,东洲区,,32,32,34,22,20,60,,64,62,9,7,12,9,0.4,0.4
2024-02-21T0900,1758A,123.9247,41.8642,抚顺市,新抚区,,24,24,33,14,19,68,,66,65,7,7,6,6,0.6,0.7
2024-02-21T0900,1759A,124.0972,41.8961,抚顺市,大伙房水库,,35,28,35,24,21,63,,68,66,6,4,12,9,0.3,0.3
2024-02-21T0900,1760A,123.7086,41.8391,抚顺市,沈抚新城,,23,,31,15,18,71,,67,67,3,6,6,6,0.5,0.6
2024-02-21T0900,2376A,116.2127,28.0814,抚州市,桐源党溪,,21,21,26,8,12,38,,30,30,5,9,3,4,1.0,0.8
2024-02-21T0900,2377A,116.3544,27.9831,抚州市,市站,,19,19,28,8,17,39,,32,32,10,17,4,4,0.6,0.7
2024-02-21T0900,2378A,116.3565,27.963,抚州市,血防站,,24,24,32,6,17,36,,31,31,6,8,4,3,0.8,0.9
2024-02-21T0900,2379A,116.3564,28.0007,抚州市,采茶剧团,,14,14,26,8,17,38,,33,33,7,12,6,7,0.6,0.7
2024-02-21T0900,2380A,116.385,27.9647,抚州市,医学分院,,19,19,28,7,14,37,,31,31,7,9,4,4,0.6,0.7
2024-02-21T0900,2207A,121.6094,41.998,阜新市,工业园区,,23,23,23,12,7,73,,76,76,8,6,6,6,0.4,0.4
2024-02-21T0900,2208A,121.6697,42.0279,阜新市,长青街,,24,15,18,7,7,75,,77,77,4,5,5,6,0.5,0.6
2024-02-21T0900,2209A,121.6673,42.0705,阜新市,农业园区,,23,13,17,2,6,72,,72,72,7,7,8,9,0.4,0.5
2024-02-21T0900,2210A,121.6717,42.0224,阜新市,东苑,,24,18,25,7,7,76,,79,79,6,6,3,3,0.6,0.6
2024-02-21T0900,2211A,121.6506,42.0498,阜新市,玉龙新城,,24,13,17,5,7,74,,76,76,4,4,1,2,0.4,0.4
2024-02-21T0900,2301A,115.8277,32.8929,阜阳市,市监测站,细颗粒物(PM2.5),54,40,23,38,22,51,,59,57,14,14,5,5,0.3,0.4
2024-02-21T0900,2303A,115.8554,32.8605,阜阳市,开发区,,50,50,23,31,18,53,,60,58,14,13,4,3,0.5,0.5
2024-02-21T0900,2875A,115.784,32.8892,阜阳市,阜阳职业技术学院,,,,21,,19,,,60,60,10,10,,4,0.5,0.5
2024-02-21T0900,3468A,115.7901,32.8613,阜阳市,市规划展馆,颗粒物(PM10),52,53,24,31,16,52,,57,56,12,13,4,4,0.5,0.5
2024-02-21T0900,3469A,115.836,32.9183,阜阳市,枣园社区,颗粒物(PM10),55,59,25,30,16,55,,61,60,9,10,5,5,0.3,0.3
2024-02-21T0900,2669A,102.9099,34.9841,甘南藏族自治州,州政府,颗粒物(PM10),137,223,193,56,50,46,,50,49,8,10,8,12,0.7,0.8
2024-02-21T0900,3380A,102.8914,34.9617,甘南藏族自治州,甘肃民族师范学院,颗粒物(PM10),154,257,207,61,54,44,,45,45,7,10,4,5,0.7,0.7
2024-02-21T0900,2570A,101.9603,30.0475,甘孜藏族自治州,水桥子,,23,20,12,16,7,26,,49,46,35,10,11,10,0.3,0.2
2024-02-21T0900,3065A,101.9533,29.9972,甘孜藏族自治州,州环保局,,20,15,12,7,5,62,,66,66,8,3,8,8,0.2,0.2
2024-02-21T0900,3414A,115.8347,28.932,赣江新区,桑海产业园,,15,5,16,1,9,48,,40,40,10,14,4,4,0.4,0.4
2024-02-21T0900,2362A,114.9017,25.9149,赣州市,通天岩,,,,,,,,,,,,,,,,
2024-02-21T0900,2363A,114.9367,25.8664,赣州市,地委,,25,20,23,17,28,40,,41,40,9,11,13,12,1.0,1
2024-02-21T0900,2364A,114.9461,25.8481,赣州市,气象台,,25,25,20,12,14,48,,45,45,3,4,6,6,0.3,0.3
2024-02-21T0900,2365A,114.9322,25.8333,赣州市,市图书馆,,26,26,21,12,11,40,,39,39,7,8,14,11,0.6,0.5
2024-02-21T0900,2366A,114.8905,25.8471,赣州市,华坚鞋城,,26,26,24,11,15,38,,40,39,6,4,5,5,0.7,0.7
2024-02-21T0900,3109A,115.0093,25.8613,赣州市,赣县区卫计委,,20,20,19,11,13,47,,45,45,6,7,7,7,0.4,0.4
2024-02-21T0900,2683A,106.2319,36.1417,固原市,马园,颗粒物(PM10),120,190,159,42,39,47,,46,46,10,12,4,4,0.7,0.8
2024-02-21T0900,2684A,106.2792,36.0022,固原市,监测站,颗粒物(PM10),114,178,143,43,39,47,,47,47,14,14,5,4,0.5,0.5
2024-02-21T0900,2685A,106.2375,36.0211,固原市,新区,颗粒物(PM10),116,181,142,40,36,44,,42,42,15,16,5,5,0.5,0.5
2024-02-21T0900,3522A,106.2177,35.9959,固原市,原州区十五小,颗粒物(PM10),126,202,154,43,38,40,,40,40,12,13,6,6,0.5,0.5
2024-02-21T0900,2543A,106.6308,30.5278,广安市,小平旧居,,,,,,,,,,,,,,,,
2024-02-21T0900,2544A,106.6303,30.4576,广安市,市委,,43,43,259,17,101,44,,44,44,9,14,5,8,0.6,0.7
2024-02-21T0900,2545A,106.6271,30.4663,广安市,友谊中学,,35,35,229,12,95,48,,48,48,9,16,3,6,0.5,0.7
2024-02-21T0900,2547A,106.6388,30.4551,广安市,广电花园,,30,30,234,11,100,46,,46,46,8,14,4,7,0.6,0.7
2024-02-21T0900,2902A,106.6351,30.4865,广安市,北辰小学,,32,32,251,18,102,46,,45,45,8,17,5,7,0.6,0.9
2024-02-21T0900,2523A,105.8945,32.4535,广元市,黑石坡,,18,18,49,5,29,47,,47,47,8,10,4,4,0.4,0.5
2024-02-21T0900,2524A,105.821,32.4444,广元市,老城,,26,23,32,18,13,34,,39,38,10,9,1,2,0.5,0.5
2024-02-21T0900,2526A,105.8628,32.4287,广元市,监测站,,32,23,34,22,14,38,,42,41,9,6,2,3,0.8,0.5
2024-02-21T0900,3617A,105.8047,32.4166,广元市,经开区,,36,36,25,9,6,35,,39,38,9,8,2,2,0.6,0.6
2024-02-21T0900,1345A,113.2347,23.1423,广州市,广雅中学,,32,31,28,22,19,44,,34,34,16,16,5,4,0.7,0.7
2024-02-21T0900,1346A,113.2612,23.105,广州市,市五中,,36,36,32,22,18,43,,30,30,16,16,6,5,0.6,0.6
2024-02-21T0900,1348A,113.3478,23.0916,广州市,广东商学院,,27,27,26,13,14,32,,24,24,23,18,4,4,0.5,0.4
2024-02-21T0900,1349A,113.4332,23.1047,广州市,市八十六中,,26,26,24,15,14,38,,29,29,25,24,5,5,0.5,0.5
2024-02-21T0900,1350A,113.3505,22.9483,广州市,番禺中学,,35,28,25,24,18,45,,37,37,21,18,5,5,0.7,0.6
2024-02-21T0900,1351A,113.2146,23.3916,广州市,花都师范,,44,44,33,28,18,41,,38,38,21,17,6,5,0.5,0.4
2024-02-21T0900,1352A,113.2597,23.1331,广州市,市监测站,,39,36,29,27,19,36,,31,31,23,16,5,5,0.7,0.6
2024-02-21T0900,1353A,113.5618,23.312,广州市,九龙镇镇龙,,29,29,25,17,15,45,,39,39,17,14,6,6,0.5,0.4
2024-02-21T0900,1354A,113.2765,23.1544,广州市,麓湖,,32,31,27,22,18,36,,35,35,21,14,5,4,0.5,0.4
2024-02-21T0900,1355A,113.443,23.3035,广州市,帽峰山森林公园,,26,26,21,18,14,51,,44,44,15,13,6,6,0.2,0.2
2024-02-21T0900,2846A,113.3221,23.1322,广州市,体育西,,40,40,29,22,18,30,,32,31,23,12,7,6,0.6,0.5
2024-02-21T0900,3298A,113.5717,23.5491,广州市,从化街口,,36,33,27,25,19,58,,50,50,10,9,6,5,0.5,0.5
2024-02-21T0900,3299A,113.3472,23.3692,广州市,白云竹料,,42,42,34,27,19,50,,44,44,14,12,6,6,0.6,0.5
2024-02-21T0900,3300A,113.2981,23.237,广州市,白云嘉禾,,35,32,28,24,17,43,,34,34,24,23,8,7,0.6,0.6
2024-02-21T0900,3301A,113.4256,23.1716,广州市,黄埔科学城,,24,24,29,16,16,44,,32,32,19,21,5,5,0.5,0.5
2024-02-21T0900,3302A,113.3942,23.0483,广州市,番禺大学城,,26,,22,18,15,42,,34,34,18,11,4,4,0.7,0.7
2024-02-21T0900,3303A,113.4922,22.8168,广州市,南沙黄阁,,19,18,22,13,10,56,,49,49,7,6,5,5,0.7,0.7
2024-02-21T0900,3304A,113.5342,22.7896,广州市,南沙街,,22,16,22,15,14,54,,46,46,11,11,7,7,0.6,0.6
2024-02-21T0900,3443A,113.2902,23.5544,广州市,花都梯面,,43,41,27,30,17,55,,44,44,14,14,6,6,0.5,0.4
2024-02-21T0900,3445A,113.7858,23.7478,广州市,从化良口,,39,32,20,27,16,69,,55,55,4,6,4,4,0.5,0.5
2024-02-21T0900,3446A,113.8051,23.2614,广州市,增城荔城,,36,34,27,25,17,43,,39,39,13,9,8,7,0.5,0.5
2024-02-21T0900,2505A,109.568,23.1478,贵港市,德智高中,细颗粒物(PM2.5),78,60,63,57,49,14,,37,34,33,21,5,6,0.8,0.7
2024-02-21T0900,2506A,109.6047,23.0666,贵港市,江南子站,细颗粒物(PM2.5),72,73,64,52,44,21,,21,21,20,16,7,7,0.7,0.7
2024-02-21T0900,2507A,109.6014,23.0948,贵港市,贵城子站,细颗粒物(PM2.5),79,65,60,58,47,8,,8,8,32,21,8,8,0.6,0.5
2024-02-21T0900,2508A,109.5669,23.1065,贵港市,荷城子站,细颗粒物(PM2.5),77,70,60,56,40,8,,13,10,30,17,10,10,1.0,0.8
2024-02-21T0900,3405A,109.5886,23.1172,贵港市,新世纪学校,细颗粒物(PM2.5),70,70,69,51,48,8,,7,6,40,26,10,11,1.2,0.9
2024-02-21T0900,1439A,106.6899,26.5998,贵阳市,马鞍山,细颗粒物(PM2.5),77,63,60,56,42,29,,56,48,26,15,5,6,0.7,0.6
2024-02-21T0900,1440A,106.6971,26.5694,贵阳市,市环保站,细颗粒物(PM2.5),78,61,76,57,56,44,,66,60,44,22,11,9,0.8,0.6
2024-02-21T0900,1441A,106.6243,26.6266,贵阳市,鉴湖路,颗粒物(PM10),59,68,81,41,42,70,,83,82,18,12,8,8,0.6,0.6
2024-02-21T0900,1442A,106.7487,26.6343,贵阳市,燕子冲,颗粒物(PM10),53,56,70,31,44,38,,82,76,42,15,9,8,0.7,0.6
2024-02-21T0900,1443A,106.6555,26.4365,贵阳市,碧云窝,细颗粒物(PM2.5),67,73,70,48,34,75,,88,86,15,11,8,7,0.7,0.5
2024-02-21T0900,1444A,106.694,26.5161,贵阳市,中院村,细颗粒物(PM2.5),77,68,87,56,59,58,,72,69,28,22,13,12,0.6,0.7
2024-02-21T0900,1445A,106.7109,26.6027,贵阳市,红边门,"颗粒物(PM10),细颗粒物(PM2.5)",58,66,79,41,51,41,,68,63,46,20,10,9,0.6,0.5
2024-02-21T0900,1446A,106.7164,26.5699,贵阳市,新华路,细颗粒物(PM2.5),58,58,73,41,51,51,,77,72,36,18,9,10,0.5,0.6
2024-02-21T0900,1447A,106.674,26.5424,贵阳市,太慈桥,细颗粒物(PM2.5),73,70,81,53,43,44,,77,71,34,15,9,11,0.7,0.5
2024-02-21T0900,1552A,106.805,26.3003,贵阳市,桐木岭,,,,,,,,,,,,,,,,
2024-02-21T0900,1862A,110.4144,25.3167,桂林市,电子科大尧山校区,,28,,41,19,28,30,,59,54,7,6,3,3,0.7,0.7
2024-02-21T0900,1863A,110.2819,25.2697,桂林市,监测站,细颗粒物(PM2.5),60,,45,43,43,17,,38,33,17,11,8,7,0.7,0.7
2024-02-21T0900,1864A,110.3089,25.2708,桂林市,龙隐路小学,,35,,34,24,35,24,,36,32,10,11,4,4,0.9,0.8
2024-02-21T0900,1865A,110.2869,25.2178,桂林市,八中,,38,,43,26,32,18,,48,43,15,10,5,4,0.6,0.5
2024-02-21T0900,3403A,110.1764,25.2381,桂林市,创业大厦,,49,46,42,34,34,24,,67,60,15,4,7,6,0.6,0.4
2024-02-21T0900,3531A,110.296,25.1253,桂林市,旅游学院,,32,29,35,22,28,16,,53,48,13,6,5,5,0.6,0.4
2024-02-21T0900,2674A,100.2561,34.4714,果洛藏族自治州,玛沁县大武镇,,39,39,52,25,20,68,,53,53,24,22,11,13,0.6,0.5
2024-02-21T0900,1129A,126.5422,45.755,哈尔滨市,岭北,,30,23,23,21,20,48,,41,40,12,14,13,10,0.4,1
2024-02-21T0900,1130A,126.561,45.8167,哈尔滨市,松北商大,,28,28,27,16,16,64,,56,56,19,15,15,8,0.8,0.7
2024-02-21T0900,1131A,126.979,45.5419,哈尔滨市,阿城会宁,细颗粒物(PM2.5),110,,41,83,34,33,,39,37,35,18,13,9,1.2,0.7
2024-02-21T0900,1132A,126.599,45.7222,哈尔滨市,南岗学府路,,20,20,40,10,21,60,,47,47,20,18,27,13,0.5,0.4
2024-02-21T0900,1133A,126.689,45.7733,哈尔滨市,太平宏伟公园,,22,20,28,7,15,68,,61,61,14,12,35,12,0.6,0.5
2024-02-21T0900,1134A,126.635,45.7667,哈尔滨市,道外承德广场,,31,31,30,10,14,55,,53,53,22,17,15,8,0.8,0.6
2024-02-21T0900,1135A,126.685,45.7319,哈尔滨市,香坊红旗大街,,21,21,33,11,22,63,,52,52,16,18,15,9,0.6,0.5
2024-02-21T0900,1136A,126.6411,45.7258,哈尔滨市,动力和平路,,22,22,31,13,17,70,,57,57,8,11,11,7,0.6,0.5
2024-02-21T0900,1137A,126.593,45.7478,哈尔滨市,道里建国路,,26,21,27,18,19,54,,49,49,18,20,6,3,0.4,0.3
2024-02-21T0900,1138A,126.615,45.61,哈尔滨市,平房东轻厂,颗粒物(PM10),52,53,34,32,23,46,,32,32,24,28,14,7,0.6,0.5
2024-02-21T0900,1139A,126.595,45.9855,哈尔滨市,呼兰师专,,50,,35,35,33,53,,45,45,18,20,10,9,0.6,0.5
2024-02-21T0900,1140A,126.6206,45.6842,哈尔滨市,省农科院,,44,44,42,21,30,59,,41,41,19,28,8,9,0.6,0.6
2024-02-21T0900,2688A,93.5128,42.8172,哈密市,地区监测站,颗粒物(PM10),146,242,295,47,52,47,,31,31,15,21,7,6,0.4,0.5
2024-02-21T0900,2689A,93.4961,42.8328,哈密市,哈密师范学校,颗粒物(PM10),156,261,290,48,52,47,,30,30,15,20,15,8,0.2,0.5
2024-02-21T0900,2671A,100.9048,36.9639,海北藏族自治州,海晏县西海镇,颗粒物(PM10),182,313,341,53,62,46,,56,54,14,15,17,28,0.6,0.8
2024-02-21T0900,3867A,102.0738,36.5056,海东市,平安区公安北苑,颗粒物(PM10),174,298,410,68,78,31,,43,41,21,12,22,19,0.6,0.5
2024-02-21T0900,1409A,110.576,19.9507,海口市,东寨港,,,,,,,,,,,,,,,,
2024-02-21T0900,1410A,110.3232,20.0574,海口市,海南大学,,23,21,33,16,20,44,,44,44,5,4,10,10,0.3,0.2
2024-02-21T0900,1411A,110.283,20.0053,海口市,秀英海南医院,,22,19,30,15,22,42,,41,41,6,6,8,8,0.3,0.3
2024-02-21T0900,1412A,110.338,19.9969,海口市,海南师范大学,,25,21,29,17,21,41,,41,41,4,3,8,8,0.3,0.3
2024-02-21T0900,1413A,110.33,20.0356,海口市,龙华路环保局宿舍,,23,19,30,16,21,40,,41,41,4,4,8,8,0.2,0.2
2024-02-21T0900,3539A,110.5111,19.9736,海口市,桂林洋子站,,36,28,28,25,24,46,,44,44,2,2,8,7,0.2,0.2
2024-02-21T0900,2673A,100.6188,36.2866,海南藏族自治州,共和县恰卜恰镇,颗粒物(PM10),144,237,209,86,74,52,,62,60,12,11,14,11,0.2,0.5
2024-02-21T0900,2676A,97.3731,37.3753,海西蒙古族藏族自治州,德令哈市,颗粒物(PM10),452,552,480,142,95,81,,87,86,11,8,11,9,0.6,0.5
2024-02-21T0900,1048A,114.5302,36.6116,邯郸市,东污水处理厂,,45,43,58,31,19,44,,47,46,14,9,1,1,0.6,0.5
2024-02-21T0900,1049A,114.4918,36.5713,邯郸市,矿院,颗粒物(PM10),56,62,82,29,14,43,,47,46,3,2,1,1,0.9,0.8
2024-02-21T0900,1050A,114.484,36.6133,邯郸市,丛台公园,颗粒物(PM10),82,114,87,23,14,45,,48,47,10,7,2,2,0.5,0.4
2024-02-21T0900,3458A,114.7895,36.5593,邯郸市,香泉濮院小区,颗粒物(PM10),51,52,63,35,17,45,,53,50,6,4,3,4,0.5,0.3
2024-02-21T0900,3579A,114.50634,36.77178,邯郸市,永年区实验高中,细颗粒物(PM2.5),64,73,79,46,22,49,,49,49,10,10,2,2,0.4,0.5
2024-02-21T0900,3580A,114.20016,36.44293,邯郸市,峰峰矿区临水派出所,颗粒物(PM10),55,60,71,22,15,54,,54,54,1,2,5,5,0.7,0.7
2024-02-21T0900,2634A,106.9893,33.1842,汉中市,汉川机床厂子校,,15,10,12,9,9,45,,46,46,5,5,3,3,0.4,0.7
2024-02-21T0900,2635A,107.0154,33.0706,汉中市,市监测站,,15,,14,10,19,47,,46,46,11,10,7,6,0.6,0.7
2024-02-21T0900,2636A,107.0089,33.1138,汉中市,鑫源开发区,,18,18,36,7,9,45,,44,44,11,9,6,7,0.5,0.6
2024-02-21T0900,2637A,107.007,33.0323,汉中市,南郑大河坎水厂,,,,13,9,10,46,,47,47,9,8,9,8,0.5,0.5
2024-02-21T0900,1223A,120.2072,30.2111,杭州市,滨江,,14,6,12,5,8,44,,50,49,15,17,4,3,0.8,0.7
2024-02-21T0900,1224A,120.0633,30.2747,杭州市,西溪,,15,3,7,3,7,45,,47,47,15,16,6,6,0.7,0.5
2024-02-21T0900,1226A,120.3461,30.3153,杭州市,下沙,,15,8,17,2,7,46,,46,45,14,19,6,6,0.7,0.5
2024-02-21T0900,1227A,120.1269,30.2456,杭州市,卧龙桥,,14,7,9,4,7,42,,48,47,19,19,4,3,0.7,0.5
2024-02-21T0900,1228A,120.1903,30.2692,杭州市,浙江农大,,14,9,17,2,8,44,,48,46,16,16,5,5,0.6,0.5
2024-02-21T0900,1230A,120.1197,30.3119,杭州市,和睦小学,,15,4,9,2,4,46,,48,47,14,16,5,5,0.8,0.6
2024-02-21T0900,1231A,120.3019,30.4183,杭州市,临平镇,,16,4,14,4,11,50,,50,48,7,11,4,4,0.5,0.3
2024-02-21T0900,1232A,120.2697,30.1819,杭州市,城厢镇,,14,7,10,4,8,42,,51,49,15,18,6,6,0.6,0.6
2024-02-21T0900,1233A,120.0883,30.1808,杭州市,云栖,,14,6,13,6,8,44,,46,46,15,16,8,8,0.7,0.6
2024-02-21T0900,3557A,119.9464,30.0494,杭州市,镇二中,,13,5,9,3,5,39,,44,43,14,14,6,6,0.7,0.6
2024-02-21T0900,3558A,119.7183,30.2367,杭州市,市府大楼,,15,,6,3,7,45,,48,47,13,16,5,4,0.7,0.7
2024-02-21T0900,3656A,120.1556,30.2864,杭州市,消防大队,,15,,10,5,8,45,,49,48,15,17,8,7,0.9,0.7
2024-02-21T0900,1270A,117.1959,31.7848,合肥市,明珠广场,,15,12,7,5,1,48,,56,54,17,14,2,4,0.8,0.6
2024-02-21T0900,1271A,117.3072,31.8764,合肥市,三里街,,15,9,2,2,1,48,,54,53,20,16,4,4,0.5,0.4
2024-02-21T0900,1272A,117.2588,31.8707,合肥市,琥珀山庄,,18,7,3,5,1,55,,60,58,18,16,4,4,0.8,0.7
2024-02-21T0900,1273A,117.1604,31.9052,合肥市,董铺水库,,19,9,4,5,4,60,,62,61,8,7,2,2,0.3,0.3
2024-02-21T0900,1274A,117.25,31.8571,合肥市,长江中路,,,,6,6,4,,,57,56,12,12,6,6,0.7,0.6
2024-02-21T0900,1275A,117.266,31.9436,合肥市,庐阳区,,17,12,3,9,4,54,,59,57,16,13,4,4,0.4,0.3
2024-02-21T0900,1276A,117.336,31.8586,合肥市,瑶海区,,17,7,4,7,4,52,,58,56,14,11,4,5,0.4,0.4
2024-02-21T0900,1277A,117.3027,31.7964,合肥市,包河区,,13,5,3,5,4,41,,54,52,24,21,3,3,0.5,0.4
2024-02-21T0900,1278A,117.2776,31.7385,合肥市,滨湖新区,,16,7,4,5,3,49,,56,55,11,8,4,4,0.6,0.4
2024-02-21T0900,1279A,117.1318,31.8403,合肥市,高新区,,16,9,7,7,5,50,,56,54,16,13,4,3,0.7,0.7
2024-02-21T0900,3464A,117.3803,31.9147,合肥市,高教基地,,18,10,5,5,4,55,,57,56,10,8,3,3,0.3,0.3
2024-02-21T0900,3614A,79.924,37.0877,和田地区,地区环保局,颗粒物(PM10),500,1161,766,197,174,62,,62,62,10,15,5,5,0.5,0.6
2024-02-21T0900,3615A,79.9131,37.113,和田地区,市环保局,颗粒物(PM10),500,990,713,177,152,65,,64,64,4,9,4,4,0.7,1
2024-02-21T0900,2516A,108.2011,24.715,河池市,东仁乐园,,49,42,55,34,36,26,,31,29,7,6,5,12,0.7,0.7
2024-02-21T0900,2517A,108.0497,24.6947,河池市,市环保站,细颗粒物(PM2.5),52,43,44,36,35,56,,73,70,15,9,7,8,0.6,0.5
2024-02-21T0900,2518A,108.0983,24.6989,河池市,市疾控中心,,48,43,46,33,33,47,,64,60,23,11,7,7,0.7,0.6
2024-02-21T0900,1696A,114.6778,23.7569,河源市,源西,,29,20,23,20,17,57,,46,46,10,9,4,4,0.6,0.5
2024-02-21T0900,1697A,114.6944,23.7586,河源市,东埔,,38,30,29,26,18,51,,42,42,7,5,7,6,0.6,0.5
2024-02-21T0900,1698A,114.6892,23.7233,河源市,老城,,30,28,25,21,14,51,,43,43,9,5,6,5,0.6,0.5
2024-02-21T0900,1718A,115.4208,35.2464,菏泽市,气象局,,41,41,39,24,20,59,,63,61,8,7,3,3,0.6,0.4
2024-02-21T0900,1719A,115.4747,35.2375,菏泽市,市政协,,40,40,40,24,20,53,,58,57,12,10,3,3,0.6,0.4
2024-02-21T0900,3374A,115.5564,35.0891,菏泽市,定陶老年大学,,31,31,33,19,14,55,,60,58,13,14,5,4,0.7,0.4
2024-02-21T0900,3647A,115.4702,35.2706,菏泽市,菏泽医专,,34,34,41,20,13,58,,64,62,13,12,4,3,0.6,0.3
2024-02-21T0900,2514A,111.5264,24.4172,贺州市,环保小区,,36,32,34,25,24,35,,40,40,11,9,9,8,0.5,0.5
2024-02-21T0900,2515A,111.5608,24.4078,贺州市,政协大楼,,30,30,34,21,24,34,,40,39,12,10,9,9,0.4,0.4
2024-02-21T0900,3534A,111.4744,24.4553,贺州市,西湾,,36,25,37,25,28,33,,40,39,15,13,8,8,0.5,0.4
2024-02-21T0900,2385A,114.17,35.9019,鹤壁市,市监测站,颗粒物(PM10),76,102,66,45,29,52,,56,55,14,13,6,5,0.6,0.5
2024-02-21T0900,2386A,114.2956,35.7511,鹤壁市,市交警支队,颗粒物(PM10),59,68,66,29,20,51,,57,56,7,6,8,9,0.5,0.3
2024-02-21T0900,2387A,114.2878,35.7306,鹤壁市,迎宾馆,颗粒物(PM10),65,79,91,34,23,49,,56,55,16,13,2,5,0.6,0.4
2024-02-21T0900,3474A,114.2617,35.6822,鹤壁市,大新区,,48,48,42,27,16,53,,60,58,13,10,6,6,0.5,0.4
2024-02-21T0900,3596A,114.1572,35.9603,鹤壁市,南山宾馆,,,,120,34,28,48,,53,52,7,5,1,2,0.9,0.6
2024-02-21T0900,2244A,130.2537,47.3416,鹤岗市,哈啤分公司,,28,22,22,19,19,64,,60,60,6,5,14,12,0.4,0.4
2024-02-21T0900,2245A,130.2684,47.3086,鹤岗市,斯达机电,,,,29,,17,,,70,70,9,11,8,9,0.5,0.4
2024-02-21T0900,2246A,130.3114,47.3388,鹤岗市,东山纸板厂,,23,,34,16,19,62,,67,66,14,7,13,11,0.6,0.6
2024-02-21T0900,2247A,130.1097,47.3382,鹤岗市,五号水库,,20,9,20,9,14,64,,62,61,6,5,8,8,0.2,0.3
2024-02-21T0900,2263A,127.4833,50.2524,黑河市,交通局,,23,18,14,16,14,64,,68,68,9,5,5,5,0.4,0.4
2024-02-21T0900,2264A,127.5144,50.2341,黑河市,环保局,,23,,16,16,17,70,,71,71,7,7,4,4,0.2,0.2
2024-02-21T0900,2265A,127.5291,50.2472,黑河市,大黑河岛,臭氧1小时,121,,11,13,10,242,,242,242,252,262,2,2,,
2024-02-21T0900,1074A,115.6838,37.7541,衡水市,电机北厂,,33,,32,23,19,65,,51,51,3,7,3,2,0.4,0.4
2024-02-21T0900,1075A,115.6303,37.7316,衡水市,市监测站,,22,20,29,15,16,64,,51,51,8,12,2,3,0.6,0.6
2024-02-21T0900,3188A,115.6683,37.7217,衡水市,市城管局,,20,18,33,8,16,62,,50,50,8,12,1,1,0.3,0.5
2024-02-21T0900,3459A,115.5989,37.5491,衡水市,地表水厂,,21,20,36,14,14,66,,57,57,2,4,3,3,0.4,0.5
2024-02-21T0900,2456A,112.5003,26.9167,衡阳市,原169医院,,15,,16,7,13,45,,42,42,10,11,6,6,0.5,0.6
2024-02-21T0900,2457A,112.6194,26.9258,衡阳市,衡阳化工总厂,,13,4,18,3,11,41,,38,38,8,8,6,13,0.4,0.5
2024-02-21T0900,2458A,112.6211,26.8956,衡阳市,珠晖区环保局,,13,,17,6,16,40,,38,38,11,14,6,6,0.5,0.6
2024-02-21T0900,2459A,112.6197,26.8733,衡阳市,市委党校,,14,5,19,4,11,42,,39,39,12,13,8,8,0.5,0.6
2024-02-21T0900,2460A,112.6006,26.8919,衡阳市,市监测站,,13,12,25,0,14,40,,38,38,12,11,6,9,0.6,0.7
2024-02-21T0900,2461A,112.5664,26.9056,衡阳市,真空机电公司,,12,8,22,7,18,38,,36,36,10,12,5,7,0.6,0.7
2024-02-21T0900,3399A,112.6703,26.882,衡阳市,师范学院,,20,,19,14,12,42,,39,39,10,11,5,5,0.6,0.7
2024-02-21T0900,2608A,103.3772,23.3993,红河哈尼族彝族自治州,污水处理厂,细颗粒物(PM2.5),92,70,42,68,38,74,,86,85,19,7,10,9,0.6,0.5
2024-02-21T0900,2609A,103.3861,23.35,红河哈尼族彝族自治州,监测站,细颗粒物(PM2.5),65,48,45,47,34,76,,85,83,35,9,10,9,0.7,0.6
2024-02-21T0900,3038A,103.3758,23.368,红河哈尼族彝族自治州,州图书馆,细颗粒物(PM2.5),63,48,39,45,32,87,,83,83,22,7,12,7,0.5,0.4
2024-02-21T0900,1090A,111.6507,40.7517,呼和浩特市,呼市一监,,25,19,42,3,14,78,,78,78,10,11,8,8,0.4,0.4
2024-02-21T0900,1091A,111.6572,40.8033,呼和浩特市,小召,,25,22,38,12,15,79,,79,79,14,16,6,5,0.3,0.4
2024-02-21T0900,1094A,111.7516,40.8369,呼和浩特市,如意水处理厂,,24,13,37,3,14,74,,75,75,5,13,9,10,0.3,0.4
2024-02-21T0900,1095A,111.7276,40.8062,呼和浩特市,二十九中,,23,12,40,3,14,72,,76,76,7,8,8,9,0.3,0.4
2024-02-21T0900,1096A,111.5512,40.7866,呼和浩特市,工大金川校区,,25,22,47,6,16,79,,78,78,5,18,4,6,0.3,0.5
2024-02-21T0900,1097A,111.717,40.7612,呼和浩特市,化肥厂生活区,,44,44,60,3,13,74,,76,76,5,8,9,11,0.3,0.4
2024-02-21T0900,3698A,111.5968,40.8178,呼和浩特市,红旗小学,,46,46,34,3,18,77,,75,75,5,19,6,8,0.2,0.4
2024-02-21T0900,3699A,111.6518,40.8389,呼和浩特市,海东办,,25,24,37,3,17,79,,76,76,8,18,5,7,0.2,0.3
2024-02-21T0900,2192A,119.7594,49.2261,呼伦贝尔市,区环保局,,30,30,25,21,21,72,,76,75,10,7,6,6,0.4,0.3
2024-02-21T0900,3061A,119.7512,49.1577,呼伦贝尔市,国华电力东,,29,24,24,20,19,75,,79,79,6,4,6,5,0.2,0.2
2024-02-21T0900,1250A,120.0751,30.8669,湖州市,城西水厂,,18,3,15,2,9,57,,58,58,13,15,2,2,0.5,0.4
2024-02-21T0900,2873A,120.0875,30.8955,湖州市,仁皇山新区,,18,4,12,3,10,55,,55,55,13,18,4,4,0.6,0.5
2024-02-21T0900,2907A,120.1844,30.8596,湖州市,吴兴区站,,18,5,15,2,9,55,,56,56,19,17,5,4,0.5,0.5
2024-02-21T0900,3562A,120.4148,30.8538,湖州市,南浔区站,,17,,18,4,10,53,,57,57,18,17,6,5,0.8,0.6
2024-02-21T0900,1607A,120.9092,40.7136,葫芦岛市,龙港区,,36,36,39,9,14,71,,64,64,4,7,14,31,0.5,0.6
2024-02-21T0900,1608A,120.8392,40.7514,葫芦岛市,化工街,,39,39,29,9,8,75,,70,70,7,8,5,6,0.8,0.8
2024-02-21T0900,1609A,120.8341,40.7073,葫芦岛市,新区,,,24,24,6,8,70,,70,70,4,5,,8,0.4,0.4
2024-02-21T0900,1610A,120.8695,40.7677,葫芦岛市,东城区,,24,18,26,7,11,74,,68,68,5,5,5,7,0.7,0.7
2024-02-21T0900,2482A,109.5981,27.5721,怀化市,林科所,,12,,10,6,7,38,,38,38,4,4,6,4,0.5,0.5
2024-02-21T0900,2483A,109.9453,27.5444,怀化市,河西地税局,,12,8,14,6,7,36,,36,36,2,4,4,4,0.5,0.5
2024-02-21T0900,2484A,109.9781,27.5342,怀化市,市四医院,,11,6,13,3,7,35,,36,36,2,3,3,4,0.7,0.7
2024-02-21T0900,2485A,109.9972,27.5578,怀化市,监测楼,,,,14,5,7,38,,37,37,6,7,4,4,0.5,0.6
2024-02-21T0900,2486A,110.0394,27.583,怀化市,市委党校,,10,8,15,6,9,32,,34,34,8,8,4,4,0.5,0.6
2024-02-21T0900,1210A,119.036,33.5981,淮安市,钵池山,,27,27,24,18,15,50,,55,54,16,13,6,6,0.6,0.4
2024-02-21T0900,1211A,119.007,33.575,淮安市,北京南路,,29,,21,20,17,52,,54,54,14,11,5,5,0.7,0.5
2024-02-21T0900,1212A,118.989,33.6067,淮安市,市监测站,,32,27,23,22,19,54,,54,54,13,12,5,5,0.5,0.4
2024-02-21T0900,1213A,119.135,33.5039,淮安市,楚州区监测站,,20,20,21,12,13,53,,54,54,14,13,5,5,0.6,0.6
2024-02-21T0900,1214A,119.0186,33.6297,淮安市,淮阴区监测站,,32,31,29,22,17,51,,53,52,16,14,2,2,0.6,0.4
2024-02-21T0900,3426A,118.8755,33.2894,淮安市,新华书店,,29,29,23,20,16,54,,50,50,13,14,4,4,0.5,0.3
2024-02-21T0900,2282A,116.8004,33.975,淮北市,监测站,,36,36,33,22,20,54,,59,58,15,12,4,4,0.4,0.4
2024-02-21T0900,2283A,116.8091,33.9007,淮北市,烈山区政府,,35,31,30,24,21,59,,60,60,12,11,3,3,0.3,0.3
2024-02-21T0900,3330A,116.8873,33.9836,淮北市,杜集区检察院,,48,48,42,29,26,60,,64,64,8,10,3,3,0.5,0.5
2024-02-21T0900,4017A,116.7923,33.9535,淮北市,市博物馆,,38,38,31,21,18,55,,58,57,11,14,4,5,0.4,0.4
2024-02-21T0900,2277A,116.8305,32.7727,淮南市,潘集区政府,,33,24,21,23,17,63,,59,59,8,12,1,1,0.4,0.4
2024-02-21T0900,2278A,117.0067,32.6524,淮南市,师范学院,,32,27,19,22,19,60,,58,58,12,14,4,5,0.2,0.2
2024-02-21T0900,2279A,116.8569,32.5951,淮南市,谢家集区政府,,,,12,,13,,,63,,,10,,2,,0.2
2024-02-21T0900,2280A,116.8281,32.633,淮南市,八公山区政府,,29,29,17,20,12,64,,63,63,9,11,3,3,0.3,0.3
2024-02-21T0900,2281A,116.6325,32.6201,淮南市,焦岗湖风景区管理处,,30,30,15,14,11,57,,55,55,5,9,3,3,0,0
2024-02-21T0900,2894A,117.0566,32.6531,淮南市,经济技术开发区消防队,,24,24,19,15,11,60,,59,59,14,12,10,4,0.3,0.3
2024-02-21T0900,3329A,117.0108,32.5893,淮南市,山南新区,,26,26,15,18,10,62,,59,59,3,5,2,2,0.3,0.3
2024-02-21T0900,2446A,114.9028,30.4742,黄冈市,职工中心,,26,20,10,18,9,47,,49,48,4,3,7,8,0.4,0.4
2024-02-21T0900,2929A,114.8858,30.4519,黄冈市,红卫路,,26,,8,18,8,50,,50,50,2,3,5,5,0.4,0.5
2024-02-21T0900,3398A,114.9136,30.4445,黄冈市,市林业局,,22,18,8,15,6,45,,46,46,8,5,7,6,0.3,0.3
2024-02-21T0900,2672A,102.0199,35.5102,黄南藏族自治州,同仁县隆务镇,颗粒物(PM10),151,251,283,81,97,53,,56,56,4,7,8,10,1.2,1.1
2024-02-21T0900,2295A,118.2903,29.6963,黄山市,延安路89号,,10,6,17,6,5,30,,27,27,9,9,4,5,0.4,0.5
2024-02-21T0900,2296A,118.327,29.7178,黄山市,黄山东路89号,,9,5,17,1,7,28,,24,24,10,10,4,4,0.4,0.4
2024-02-21T0900,2297A,118.1371,30.2756,黄山市,黄山区政府5号楼,,,,10,,6,,,,,,11,,4,,0.5
2024-02-21T0900,2423A,115.0601,30.2313,黄石市,沈家营,,16,12,11,0,3,49,,45,45,11,14,5,6,0.4,0.5
2024-02-21T0900,2424A,115.0817,30.2006,黄石市,陈家湾,,23,,12,16,11,45,,43,43,11,14,7,7,0.4,0.5
2024-02-21T0900,2426A,114.8988,30.2019,黄石市,铁山,,16,16,14,6,3,46,,42,42,8,12,10,8,0.7,0.8
2024-02-21T0900,2427A,115.0307,30.2092,黄石市,团城山,,17,11,14,0,0,52,,45,45,7,8,4,5,0.5,0.4
2024-02-21T0900,3149A,115.0235,30.1578,黄石市,笔架山北路,,17,10,8,4,1,52,,45,45,6,10,5,4,0.3,0.4
2024-02-21T0900,1392A,114.4183,23.0528,惠州市,河南岸金山湖子站,,29,24,22,20,17,40,,40,40,8,5,5,4,0.5,0.5
2024-02-21T0900,1393A,114.4053,23.0822,惠州市,下埔横江三路子站,,28,25,25,19,15,51,,48,48,10,9,5,5,0.5,0.5
2024-02-21T0900,1394A,114.4103,23.1142,惠州市,江北云山西路子站,,28,26,24,19,13,49,,46,46,5,4,8,8,0.5,0.5
2024-02-21T0900,1395A,114.4645,22.7833,惠州市,惠阳区承修路船湖子站,,20,19,22,14,15,45,,42,42,11,10,7,7,0.5,0.5
2024-02-21T0900,1396A,114.5317,22.7422,惠州市,大亚湾管委会子站,,16,16,25,10,13,43,,44,43,14,15,7,7,0.5,0.5
2024-02-21T0900,3314A,114.4338,22.8134,惠州市,惠阳秋长,,24,24,22,12,13,52,,51,51,15,10,6,6,0.5,0.4
2024-02-21T0900,3452A,114.6517,22.775,惠州市,大亚湾霞涌,,16,16,16,10,10,47,,50,50,5,7,6,7,0.3,0.3
2024-02-21T0900,2240A,130.9762,45.3001,鸡西市,环保局,,32,26,23,22,15,54,,60,60,9,7,6,5,0.4,0.3
2024-02-21T0900,2243A,130.9429,45.3039,鸡西市,第一中学,,39,39,23,22,15,62,,61,61,8,7,8,8,0.2,0.2
2024-02-21T0900,3707A,131.0207,45.3073,鸡西市,欧美日汽修厂,,40,39,25,28,18,44,,54,53,17,11,28,14,2.1,1.2
2024-02-21T0900,3709A,130.9967,45.3106,鸡西市,市政设施管理处,,39,30,25,27,18,59,,58,57,16,13,3,2,0.4,0.4
2024-02-21T0900,2367A,114.9754,27.0803,吉安市,红声器材厂,颗粒物(PM10),51,52,36,27,17,19,,22,18,20,15,6,7,0.8,0.5
2024-02-21T0900,2368A,114.9658,27.0999,吉安市,市森林工业局,,35,35,28,23,19,18,,19,15,14,12,8,7,0.8,0.6
2024-02-21T0900,2369A,114.99,27.1312,吉安市,市环境监测站,,36,31,33,25,18,21,,21,17,19,14,7,6,0.6,0.5
2024-02-21T0900,2370A,115.0093,27.0968,吉安市,青原区法院,,42,42,33,25,20,17,,20,16,20,15,11,11,0.8,0.6
2024-02-21T0900,1772A,126.54,43.8622,吉林市,哈达湾,细颗粒物(PM2.5),59,57,47,42,33,47,,39,39,24,22,12,11,0.9,0.7
2024-02-21T0900,1773A,126.5844,43.8358,吉林市,东局子,细颗粒物(PM2.5),67,66,46,48,28,34,,45,42,30,18,11,8,0.9,0.6
2024-02-21T0900,1774A,126.5052,43.8245,吉林市,电力学院,细颗粒物(PM2.5),59,56,40,42,28,53,,50,49,18,14,12,8,0.8,0.7
2024-02-21T0900,1775A,126.6133,43.8972,吉林市,江北,细颗粒物(PM2.5),137,139,55,104,36,48,,50,49,42,14,18,12,1.5,0.8
2024-02-21T0900,1776A,126.555,43.8306,吉林市,江南公园,细颗粒物(PM2.5),63,53,43,45,32,47,,42,40,25,22,7,7,0.9,0.7
2024-02-21T0900,1778A,126.7061,43.7133,吉林市,丰满,,,,,,,,,,,,,,,,
2024-02-21T0900,2868A,126.4739,43.953,吉林市,九站,细颗粒物(PM2.5),62,52,41,44,31,54,,38,38,21,26,12,10,0.7,0.6
2024-02-21T0900,1299A,116.9862,36.6114,济南市,科干所,,22,17,34,10,14,70,,71,71,8,8,5,6,0.6,0.7
2024-02-21T0900,1300A,116.9376,36.665,济南市,农科所,,22,22,41,10,9,65,,66,66,11,14,4,6,0.5,0.5
2024-02-21T0900,1301A,117.1265,36.6734,济南市,开发区,,20,20,32,12,13,62,,66,66,14,12,5,6,0.3,0.3
2024-02-21T0900,1303A,117.0624,36.6868,济南市,省种子仓库,,27,27,36,7,11,67,,68,68,5,6,4,5,0.2,0.2
2024-02-21T0900,1304A,116.9489,36.6447,济南市,机床二厂,,24,24,34,7,10,72,,73,73,6,8,4,5,0.3,0.3
2024-02-21T0900,1305A,117.0495,36.663,济南市,市监测站,,22,20,33,12,12,68,,71,71,13,13,6,7,0.5,0.5
2024-02-21T0900,1306A,116.7675,36.5484,济南市,长清党校,,25,22,35,17,12,75,,75,75,4,7,3,4,0.6,0.6
2024-02-21T0900,1616A,117.6795,36.229,济南市,技术学院,,29,29,38,19,15,59,,60,60,8,9,7,6,1.0,0.9
2024-02-21T0900,1961A,117.532,36.6868,济南市,东山小学,,29,24,36,20,14,62,,62,62,14,12,6,6,0.3,0.2
2024-02-21T0900,3059A,117.7161,36.2049,济南市,泰兴公司,,24,24,30,14,17,63,,64,63,8,9,7,7,0.8,0.7
2024-02-21T0900,3064A,117.6867,36.2171,济南市,莱芜战役纪念馆,,,31,38,17,15,63,,62,62,8,9,,5,0.5,0.4
2024-02-21T0900,3494A,117.1673,36.9782,济南市,济阳区政府,,19,15,35,5,8,60,,64,64,11,6,4,5,0.4,0.3
2024-02-21T0900,3495A,117.1171,36.63,济南市,锦屏中学,,22,15,28,10,12,69,,68,68,4,7,4,6,0.4,0.4
2024-02-21T0900,3682A,116.9814,36.6819,济南市,济南四建,,20,19,30,10,12,61,,65,65,16,12,6,8,0.6,0.6
2024-02-21T0900,1653A,116.6251,35.4302,济宁市,火炬城,,20,17,30,7,12,62,,59,59,1,6,4,5,0.2,0.3
2024-02-21T0900,1655A,116.5491,35.4042,济宁市,电化厂,,21,20,33,9,13,66,,62,62,2,6,3,4,0.3,0.3
2024-02-21T0900,3500A,116.5814,35.3707,济宁市,北湖一中,,20,16,32,12,14,61,,58,58,4,10,4,5,0.2,0.3
2024-02-21T0900,3501A,116.8249,35.5593,济宁市,服务中心,,26,26,34,13,12,65,,64,64,6,10,2,2,0.2,0.3
2024-02-21T0900,3678A,116.5907,35.4054,济宁市,市第七中学,,21,21,33,7,10,61,,58,58,1,5,1,2,0.2,0.3
2024-02-21T0900,2255A,130.2751,46.8028,佳木斯市,佳纺,,42,36,27,29,18,54,,58,57,20,11,12,5,0.7,0.5
2024-02-21T0900,2256A,130.3995,46.8307,佳木斯市,发电厂,,23,23,17,14,12,58,,64,64,16,7,10,5,0.6,0.4
2024-02-21T0900,2257A,130.3258,46.7975,佳木斯市,环保局,,38,38,23,23,14,53,,60,59,18,13,6,6,0.7,0.4
2024-02-21T0900,2258A,130.3648,46.8032,佳木斯市,十一中,,,24,20,21,16,56,,63,62,,11,7,6,0.7,0.5
2024-02-21T0900,2259A,130.3794,46.7588,佳木斯市,四丰,,24,23,19,13,9,76,,77,76,6,5,1,1,0.6,0.6
2024-02-21T0900,1252A,120.7436,30.778,嘉兴市,清河小学,,16,4,15,2,7,51,,50,49,9,10,5,5,0.9,0.7
2024-02-21T0900,1253A,120.726,30.7478,嘉兴市,嘉兴学院,,15,10,20,4,10,47,,47,46,12,12,4,4,0.6,0.5
2024-02-21T0900,2872A,120.7846,30.7525,嘉兴市,南湖区残联,,17,8,18,3,9,54,,52,51,12,12,4,4,0.5,0.5
2024-02-21T0900,3407A,120.6916,30.7739,嘉兴市,秀洲住建,,16,3,14,3,11,49,,47,46,15,16,4,4,0.5,0.4
2024-02-21T0900,1945A,98.2908,39.7711,嘉峪关市,气象局,,46,46,243,14,57,66,,64,64,5,5,1,3,0.4,0.5
2024-02-21T0900,2884A,98.2672,39.7978,嘉峪关市,酒钢宾馆,颗粒物(PM10),51,51,250,22,59,66,,60,60,5,10,3,15,0.3,0.5
2024-02-21T0900,3248A,98.2643,39.7724,嘉峪关市,雄关区,颗粒物(PM10),55,59,212,17,50,66,,62,62,4,11,5,15,0.5,0.8
2024-02-21T0900,1383A,113.1064,22.6058,江门市,北街,,42,36,26,29,19,47,,49,49,13,8,8,7,0.4,0.3
2024-02-21T0900,1384A,113.0731,22.5835,江门市,西区,,48,48,31,24,19,54,,55,55,14,8,5,5,0.6,0.4
2024-02-21T0900,1385A,113.0219,22.5311,江门市,圭峰西,,29,29,26,20,18,55,,51,51,13,9,7,6,0.6,0.5
2024-02-21T0900,1386A,113.0828,22.5947,江门市,东湖,,40,37,27,28,25,53,,55,55,11,7,7,6,0.4,0.4
2024-02-21T0900,3311A,113.1075,22.5647,江门市,江海富民,,47,47,34,28,23,48,,53,53,14,8,8,7,0.6,0.5
2024-02-21T0900,3449A,113.05,22.4667,江门市,新会银湖,,34,34,24,17,18,64,,58,58,7,6,5,5,0.5,0.5
2024-02-21T0900,1828A,113.227,35.2125,焦作市,市环保局,,42,42,49,20,21,60,,57,57,7,8,5,4,0.5,0.5
2024-02-21T0900,1830A,113.1992,35.2590,焦作市,影视城,,,,,,,,,,,,,,,,
2024-02-21T0900,3169A,113.2725,35.2067,焦作市,太极体育中心,,44,44,49,19,21,65,,63,63,11,11,8,7,0.8,0.8
2024-02-21T0900,3335A,113.3137,35.2641,焦作市,马村街道办,,37,37,46,25,21,57,,64,63,17,10,5,6,0.4,0.2
2024-02-21T0900,3336A,113.2465,35.2373,焦作市,焦作技师学院,,32,32,39,19,22,63,,60,60,9,10,9,10,0.6,0.5
2024-02-21T0900,3477A,113.1656,35.2539,焦作市,中站许衡医院,细颗粒物(PM2.5),55,51,47,39,29,51,,56,55,10,8,13,6,0.5,0.3
2024-02-21T0900,3981A,113.2449,35.1803,焦作市,原李万街道办,,33,33,48,12,15,65,,63,63,15,15,7,4,0.8,0.6
2024-02-21T0900,1708A,116.3701,23.5345,揭阳市,新兴,,40,37,40,28,28,31,,19,19,18,19,10,10,0.7,0.7
2024-02-21T0900,1709A,116.3264,23.5443,揭阳市,西马,,41,41,40,21,22,34,,26,26,18,11,16,10,0.9,0.7
2024-02-21T0900,1710A,116.3611,23.5626,揭阳市,东兴,,48,48,44,29,31,30,,25,24,13,11,11,10,1.0,1
2024-02-21T0900,1711A,116.4151,23.5294,揭阳市,渔湖,,36,36,33,16,21,30,,24,23,14,12,10,9,0.7,0.9
2024-02-21T0900,3320A,116.403,23.5699,揭阳市,曲溪,,42,42,35,28,23,31,,24,22,16,13,10,6,0.8,0.8
2024-02-21T0900,1944A,102.1692,38.5167,金昌市,天庆家园,颗粒物(PM10),115,180,345,32,45,48,,48,48,12,8,4,5,0.9,0.5
2024-02-21T0900,3170A,102.1864,38.5253,金昌市,市委党校,颗粒物(PM10),111,172,434,29,75,47,,49,48,6,4,4,4,0.5,0.5
2024-02-21T0900,4022A,102.1647,38.5371,金昌市,金川区人防中心,颗粒物(PM10),125,199,397,26,43,54,,56,55,7,6,6,7,0.3,0.4
2024-02-21T0900,1262A,119.647,29.077,金华市,十五中,,13,10,22,9,16,40,,29,29,18,18,3,3,0.4,0.4
2024-02-21T0900,1263A,119.686,29.1029,金华市,监测站,,16,16,34,8,17,38,,28,28,15,16,2,2,0.4,0.5
2024-02-21T0900,3659A,119.656,29.1131,金华市,气象局,,12,12,23,7,12,32,,24,24,20,17,2,2,0.6,0.6
2024-02-21T0900,1767A,121.1115,41.0879,锦州市,南山,,38,38,26,7,13,77,,73,73,5,5,7,9,0.5,0.5
2024-02-21T0900,1768A,121.0533,40.8434,锦州市,开发区,,32,32,31,10,11,72,,68,68,6,5,9,10,0.5,0.5
2024-02-21T0900,1769A,121.1836,41.1119,锦州市,百股街道,,43,43,34,12,12,75,,73,73,6,4,9,9,0.7,0.7
2024-02-21T0900,1770A,121.1178,41.1222,锦州市,天安街道,,28,28,33,8,11,70,,67,67,6,6,5,7,0.5,0.6
2024-02-21T0900,1771A,121.1303,41.1386,锦州市,北湖公园,,24,14,22,7,9,74,,69,69,4,5,8,9,0.5,0.6
2024-02-21T0900,2160A,112.85,35.5051,晋城市,自来水公司,,39,39,41,17,21,70,,64,64,15,14,6,4,0.9,0.7
2024-02-21T0900,2161A,112.8318,35.4936,晋城市,白云商贸,,45,45,36,12,17,70,,63,63,12,12,6,4,1.0,0.7
2024-02-21T0900,2162A,112.8508,35.4887,晋城市,市环保局,,41,41,43,22,22,68,,61,61,14,14,4,4,1.1,0.9
2024-02-21T0900,2163A,112.8676,35.4897,晋城市,技术学院,,34,34,39,12,19,74,,65,65,10,13,5,5,0.8,0.8
2024-02-21T0900,2165A,112.8453,35.546,晋城市,白马寺,,,,,,,,,,,,,,,,
2024-02-21T0900,3620A,112.8271,35.4828,晋城市,泽州一中,,23,15,31,7,13,72,,64,64,11,13,8,6,1.2,0.8
2024-02-21T0900,2171A,112.7532,37.6945,晋中市,锦纶小区,,42,41,35,29,21,46,,50,48,19,16,8,7,1.0,0.7
2024-02-21T0900,2173A,112.7249,37.7067,晋中市,南都小区,,50,46,51,35,27,42,,50,48,21,18,8,7,1.0,0.7
2024-02-21T0900,2174A,112.6991,37.6982,晋中市,榆次区政府,,50,44,55,35,28,46,,49,48,18,15,9,7,0.8,0.6
2024-02-21T0900,2865A,112.7195,37.6828,晋中市,榆次三中,,42,41,34,29,20,43,,48,47,19,15,8,7,0.9,0.6
2024-02-21T0900,2439A,112.2014,31.0481,荆门市,竹园小学,颗粒物(PM10),68,86,32,12,12,69,,60,60,7,11,8,7,0.4,0.4
2024-02-21T0900,2440A,112.1969,30.9891,荆门市,掇刀,,23,16,15,9,13,71,,62,62,5,9,7,7,0.4,0.5
2024-02-21T0900,2441A,112.2213,31.0386,荆门市,石化一小,,39,39,20,16,17,71,,62,62,8,12,14,11,0.3,0.4
2024-02-21T0900,3012A,112.1849,31.0362,荆门市,西山林语,,23,12,13,12,11,72,,63,63,5,8,3,3,0.4,0.5
2024-02-21T0900,3547A,112.1632,31.0138,荆门市,龙泉中学南校,,26,23,17,18,15,70,,60,60,6,8,8,8,0.7,0.6
2024-02-21T0900,1844A,112.2494,30.3197,荆州市,市图书馆,,26,26,15,16,12,57,,52,52,15,14,4,4,0.4,0.5
2024-02-21T0900,1845A,112.2008,30.3544,荆州市,市委党校,,,19,12,19,11,66,,56,56,12,14,,4,0.5,0.6
2024-02-21T0900,3194A,112.2747,30.3122,荆州市,管委会,,32,32,12,22,12,60,,53,53,12,10,6,6,0.4,0.5
2024-02-21T0900,3548A,112.1655,30.3364,荆州市,学苑路,,18,16,15,12,10,57,,50,50,11,13,7,6,0.4,0.5
2024-02-21T0900,2342A,117.3102,29.3867,景德镇市,王港中学,,9,9,16,2,9,28,,25,25,5,6,4,4,0.3,0.5
2024-02-21T0900,2343A,117.2117,29.2933,景德镇市,老干部活动中心,,12,12,21,6,12,21,,15,15,9,10,8,11,0.3,0.4
2024-02-21T0900,2344A,117.1894,29.2789,景德镇市,兽医站,,29,29,22,14,13,13,,22,22,14,11,10,9,0.6,0.6
2024-02-21T0900,2345A,117.1547,29.2617,景德镇市,台达陶瓷,,18,16,17,12,14,14,,12,12,13,13,3,8,0.4,0.5
2024-02-21T0900,2346A,117.2461,29.2956,景德镇市,陶研所,,8,,21,5,10,24,,13,13,10,14,4,6,0.3,0.5
2024-02-21T0900,1803A,115.9872,29.6815,九江市,十里,,21,10,12,8,8,66,,59,59,13,15,8,8,0.4,0.5
2024-02-21T0900,1804A,115.9584,29.7046,九江市,茅山头,,22,,9,15,11,53,,46,46,14,19,10,10,0.6,0.6
2024-02-21T0900,1805A,115.9877,29.7295,九江市,西园,,22,19,12,15,8,60,,53,53,15,18,5,6,0.3,0.5
2024-02-21T0900,1806A,116.0172,29.6547,九江市,五七二七厂,,16,,7,6,7,51,,44,44,10,13,7,7,0.5,0.6
2024-02-21T0900,1808A,115.9114,29.6038,九江市,综合工业园,,17,14,11,5,10,53,,49,49,17,19,9,10,0.3,0.4
2024-02-21T0900,1809A,116.0721,29.7535,九江市,石化总厂,,21,9,16,6,8,66,,58,58,6,11,8,9,0.5,0.6
2024-02-21T0900,1810A,115.9773,29.5698,九江市,庐山气象台,,17,10,13,5,13,53,,49,48,4,4,6,7,1.0,0.8
2024-02-21T0900,3190A,116.0254,29.6994,九江市,外国语学校,,16,,10,11,7,50,,45,45,16,19,8,7,0.6,0.6
2024-02-21T0900,2658A,98.5061,39.7443,酒泉市,仓门街子站,,48,48,260,21,54,60,,61,61,6,4,4,4,0.2,0.3
2024-02-21T0900,2659A,98.4989,39.7256,酒泉市,油田生活基地,颗粒物(PM10),52,53,268,23,55,66,,64,64,4,3,5,5,0.3,0.3
2024-02-21T0900,2698A,76.0072,39.4467,喀什地区,巡警大队,颗粒物(PM10),500,1064,1278,261,312,45,,41,41,16,17,2,2,0.7,0.7
2024-02-21T0900,2699A,75.9755,39.4694,喀什地区,吾办,颗粒物(PM10),500,1039,1244,251,307,40,,43,42,18,16,1,1,0.9,0.7
2024-02-21T0900,4027A,75.9483,39.4689,喀什地区,老干局,颗粒物(PM10),500,1097,1320,146,228,34,,44,42,14,12,3,3,0.8,0.7
2024-02-21T0900,1824A,114.3389,34.7781,开封市,肿瘤医院,,41,41,58,24,23,53,,54,53,7,8,3,3,0.7,0.6
2024-02-21T0900,1826A,114.2885,34.7965,开封市,世纪星幼儿园,,26,24,34,18,17,59,,61,59,14,13,3,2,0.4,0.3
2024-02-21T0900,3147A,114.3438,34.8106,开封市,龙亭公园,,28,28,59,19,17,53,,54,53,7,8,2,1,0.9,0.8
2024-02-21T0900,3210A,114.3644,34.7964,开封市,汴京公园,,40,40,62,20,18,56,,58,56,7,8,1,2,0.5,0.4
2024-02-21T0900,3473A,114.2485,34.8306,开封市,技师学院,颗粒物(PM10),63,75,63,21,18,53,,57,55,12,9,1,3,0.6,0.4
2024-02-21T0900,3592A,114.4644,34.7556,开封市,祥符区生态环境局,,35,35,41,22,22,54,,55,54,9,10,1,2,0.5,0.5
2024-02-21T0900,1951A,84.895,45.6094,克拉玛依市,长征新村,,26,26,22,13,13,49,,55,53,19,12,9,9,0.4,0.3
2024-02-21T0900,1952A,84.8988,45.5893,克拉玛依市,南林小区,,21,21,23,12,16,56,,60,60,16,15,4,5,0.5,0.5
2024-02-21T0900,1954A,84.905,44.3396,克拉玛依市,独山子区,细颗粒物(PM2.5),124,124,106,94,77,48,,56,55,38,30,4,5,0.9,0.7
2024-02-21T0900,1955A,85.6979,46.098,克拉玛依市,乌尔禾区商贸楼,,38,38,30,26,18,35,,40,39,22,18,3,5,0.4,0.5
2024-02-21T0900,3612A,85.1045,45.6899,克拉玛依市,白碱滩区新站,,40,40,24,17,12,42,,54,51,23,12,9,10,0.4,0.4
2024-02-21T0900,2697A,76.1454,39.7142,克孜勒苏柯尔克孜自治州,市人民政府,颗粒物(PM10),500,935,1358,163,266,50,,52,51,5,5,4,4,0,0.2
2024-02-21T0900,3665A,76.1658,39.7157,克孜勒苏柯尔克孜自治州,克州文化中心,颗粒物(PM10),500,903,1506,173,295,47,,53,52,8,7,5,5,0.6,0.4
2024-02-21T0900,1450A,102.8204,24.8886,昆明市,呈贡新区,,48,,36,33,30,83,,91,88,11,10,6,5,0.7,0.6
2024-02-21T0900,1451A,102.6251,24.9608,昆明市,西山森林公园,,33,29,31,13,19,104,,106,105,4,5,7,8,0.9,0.9
2024-02-21T0900,1452A,102.7252,25.0902,昆明市,龙泉镇,,42,42,30,26,22,69,,68,68,29,18,10,10,0.7,0.6
2024-02-21T0900,1453A,102.7266,25.0375,昆明市,东风东路,,38,37,33,26,25,71,,92,88,25,13,7,7,0.6,0.5
2024-02-21T0900,1454A,102.6742,25.0669,昆明市,金鼎山,,43,39,35,30,22,43,,84,78,52,15,9,7,1.0,0.7
2024-02-21T0900,1455A,102.6644,25.0401,昆明市,碧鸡广场,,43,42,32,30,23,37,,80,74,56,16,11,10,0.9,0.6
2024-02-21T0900,3179A,102.7494,25.0119,昆明市,官渡区博物馆,,37,37,35,23,22,82,,86,85,10,9,9,9,0.6,0.5
2024-02-21T0900,3375A,102.8017,24.8336,昆明市,青年创业园,,40,39,38,28,29,89,,95,92,7,7,10,10,0.6,0.6
2024-02-21T0900,3550A,102.7997,24.9786,昆明市,昆明学院,,40,40,40,27,26,78,,87,85,11,7,11,9,0.7,0.6
2024-02-21T0900,3551A,102.5967,24.6736,昆明市,晋宁区生态环境分局,细颗粒物(PM2.5),58,61,40,41,29,70,,92,87,22,7,9,4,0.9,0.4
2024-02-21T0900,3552A,102.6678,24.9856,昆明市,云天化总部,,36,34,31,25,23,85,,98,95,7,7,10,10,0.6,0.5
2024-02-21T0900,1456A,91.1319,29.6514,拉萨市,八廓街,,28,20,21,19,8,76,,87,85,23,13,7,7,0.5,0.3
2024-02-21T0900,1457A,91.1221,29.6747,拉萨市,市环保局,,25,16,27,15,10,80,,82,82,9,8,6,7,0.6,0.6
2024-02-21T0900,1458A,91.0874,29.6475,拉萨市,区监测站,,27,9,20,6,7,84,,90,89,8,4,4,4,0.6,0.5
2024-02-21T0900,1459A,91.1774,29.6541,拉萨市,西藏大学,,25,23,24,9,7,78,,88,87,15,7,4,4,0.6,0.5
2024-02-21T0900,1460A,90.9798,29.6588,拉萨市,区辐射站,,27,16,26,10,11,84,,86,86,8,8,4,5,0.4,0.4
2024-02-21T0900,1461A,91.0834,29.6292,拉萨市,拉萨火车站,,27,9,20,8,8,85,,92,91,10,6,4,3,0.4,0.3
2024-02-21T0900,2520A,109.2203,23.7256,来宾市,来宾技工学校,,,58,56,45,39,,,49,48,8,9,8,8,0.6,0.6
2024-02-21T0900,3535A,109.1781,23.7297,来宾市,兴宾区政府,细颗粒物(PM2.5),67,67,55,48,39,44,,43,43,16,17,6,5,0.8,0.7
2024-02-21T0900,4002A,109.2416,23.7461,来宾市,中南小学,细颗粒物(PM2.5),64,61,59,46,41,37,,43,41,20,13,8,6,0.8,0.8
2024-02-21T0900,1476A,103.631,36.1031,兰州市,兰炼宾馆,颗粒物(PM10),163,275,368,63,86,,,52,51,14,12,9,13,0.5,0.5
2024-02-21T0900,1477A,104.1373,35.9454,兰州市,榆中兰大校区,,,,,,,,,,,,,,,,
2024-02-21T0900,1478A,103.8412,36.0726,兰州市,生物制品所,颗粒物(PM10),165,280,378,56,76,50,,54,52,10,14,9,14,0.4,0.4
2024-02-21T0900,1479A,103.831,36.0464,兰州市,铁路设计院,,,,343,74,88,41,,52,50,23,20,12,16,0.5,0.6
2024-02-21T0900,3186A,103.7158,36.1058,兰州市,教育港,颗粒物(PM10),164,277,377,53,72,45,,52,51,17,15,6,10,0.4,0.4
2024-02-21T0900,3241A,103.7439,36.0842,兰州市,百合公园,颗粒物(PM10),153,255,354,62,76,48,,54,52,9,8,5,11,0.7,0.6
2024-02-21T0900,3242A,103.9611,35.998,兰州市,和平,颗粒物(PM10),177,304,400,55,91,46,,58,56,16,11,19,11,0.8,0.7
2024-02-21T0900,3245A,103.6633,36.533,兰州新区,新区管委会,颗粒物(PM10),157,263,323,71,80,41,,46,45,9,8,16,8,0.6,0.5
2024-02-21T0900,3246A,103.6975,36.4789,兰州新区,舟曲中学,颗粒物(PM10),189,327,457,58,82,43,,50,48,9,8,6,6,0.4,0.4
2024-02-21T0900,1067A,116.6708,39.5111,廊坊市,药材公司,,25,,38,17,16,61,,62,62,11,11,3,4,0.3,0.4
2024-02-21T0900,1068A,116.7214,39.5589,廊坊市,开发区,,20,12,23,10,12,64,,64,64,10,10,3,4,0.3,0.5
2024-02-21T0900,1070A,116.7244,39.5269,廊坊市,北华航天学院,,34,34,31,9,11,63,,62,62,11,10,1,3,0.3,0.4
2024-02-21T0900,2919A,116.7022,39.5453,廊坊市,河北工业大学,,30,30,32,14,16,58,,60,60,11,9,1,4,0.3,0.4
2024-02-21T0900,2535A,103.7723,29.5462,乐山市,花湖湾,,15,15,239,10,96,38,,38,38,8,16,5,7,0.2,0.2
2024-02-21T0900,2536A,103.7627,29.5844,乐山市,牛耳桥,,35,35,292,13,89,31,,39,38,17,28,4,7,0.6,0.6
2024-02-21T0900,2537A,103.7508,29.6006,乐山市,市第三水厂,,31,31,285,10,84,40,,42,42,14,25,3,6,0.5,0.5
2024-02-21T0900,2538A,103.7571,29.5664,乐山市,市监测站,,32,32,301,12,91,37,,38,38,12,19,6,8,0.6,0.6
2024-02-21T0900,3361A,103.7311,29.5628,乐山市,理工大学,,28,28,283,11,102,40,,40,40,9,18,4,7,0.6,0.6
2024-02-21T0900,2598A,100.2143,26.8576,丽江市,西南郊,,,,,,,,,,,,,,,,
2024-02-21T0900,2599A,100.2497,26.8802,丽江市,丽江古城,,45,45,30,26,18,69,,79,78,21,14,7,6,0.7,0.6
2024-02-21T0900,2600A,100.2203,26.8906,丽江市,市中心,,31,31,19,20,11,74,,83,82,20,10,9,8,0.6,0.5
2024-02-21T0900,1267A,119.914,28.4514,丽水市,监测站大楼,,35,35,26,11,18,23,,29,26,19,11,7,4,0.6,0.6
2024-02-21T0900,1268A,119.93,28.4586,丽水市,莲都小学,,27,27,25,17,16,28,,21,20,12,11,2,3,0.4,0.5
2024-02-21T0900,1269A,119.879,28.4231,丽水市,余庄前,,30,25,26,21,21,20,,13,11,11,8,4,4,0.6,0.6
2024-02-21T0900,1173A,119.176,34.5885,连云港市,市环境监测站,,28,19,28,19,14,60,,58,58,14,16,6,6,0.7,0.7
2024-02-21T0900,3000A,119.3581,34.6972,连云港市,德源药业,,20,12,24,12,13,62,,62,62,9,11,4,4,0.4,0.3
2024-02-21T0900,3007A,119.178,34.844,连云港市,新城一中,,29,29,31,17,18,65,,64,64,13,14,8,9,0.8,1
2024-02-21T0900,3008A,119.3608,34.7519,连云港市,胡沟管理处,,20,19,27,12,12,62,,63,62,9,11,8,7,0.8,0.6
2024-02-21T0900,3009A,119.1478,34.5911,连云港市,矿山设计院,,,,29,,14,,,67,,,13,,5,,0.4
2024-02-21T0900,3434A,119.2413,34.6539,连云港市,工贸学校,,27,27,40,16,17,68,,65,65,10,13,8,8,0.6,0.6
2024-02-21T0900,3664A,119.4172,34.7341,连云港市,连云街道,,25,25,34,17,17,62,,63,63,10,13,2,3,0.4,0.4
2024-02-21T0900,2571A,102.3431,27.8099,凉山彝族自治州,青龙寺,,30,30,35,7,7,65,,82,79,5,3,4,4,0.8,0.7
2024-02-21T0900,2572A,102.2721,27.8415,凉山彝族自治州,邛海宾馆,,26,19,24,18,16,80,,82,81,8,5,14,11,0.9,0.7
2024-02-21T0900,2573A,102.2625,27.898,凉山彝族自治州,西昌市政府,,28,28,27,19,16,83,,84,83,7,5,13,10,1.0,0.8
2024-02-21T0900,2574A,102.2685,27.8851,凉山彝族自治州,凉山州政府,,,28,25,15,15,,,78,77,8,5,14,9,1.3,0.9
2024-02-21T0900,2575A,102.237,27.8914,凉山彝族自治州,长安,,32,32,31,17,15,85,,82,82,6,6,12,13,0.8,1
2024-02-21T0900,2212A,123.2,41.1953,辽阳市,宏伟区,,25,20,34,17,18,53,,50,50,11,15,13,13,0.7,0.8
2024-02-21T0900,2213A,123.1683,41.2495,辽阳市,新华园,,30,30,36,17,16,51,,48,48,16,18,19,17,0.9,0.8
2024-02-21T0900,2214A,123.2354,41.2639,辽阳市,滨河路,,32,23,32,22,24,55,,52,52,11,15,8,9,0.6,0.7
2024-02-21T0900,2215A,123.149,41.2991,辽阳市,铁西工业园,,30,30,32,17,18,53,,51,51,16,17,13,13,0.7,0.7
2024-02-21T0900,2227A,125.1358,42.8845,辽源市,环保局,,25,25,28,13,16,63,,56,56,15,13,9,10,0.7,0.6
2024-02-21T0900,3239A,125.0764,42.9078,辽源市,银鹰制药,,35,31,30,24,22,59,,50,50,10,10,14,10,0.5,0.5
2024-02-21T0900,1625A,115.9848,36.4372,聊城市,区政府,,26,,27,18,13,58,,58,56,9,7,2,3,0.7,0.5
2024-02-21T0900,2878A,116.0072,36.4343,聊城市,聊大东校,,35,,39,24,18,59,,60,58,10,9,4,6,0.4,0.3
2024-02-21T0900,3200A,115.9819,36.4978,聊城市,监控中心,,21,19,39,14,10,66,,63,62,3,4,4,4,0.8,0.6
2024-02-21T0900,3513A,116.0445,36.4361,聊城市,九州社区,,41,41,48,20,10,59,,58,57,10,9,2,3,0.6,0.4
2024-02-21T0900,4018A,116.0567,36.4608,聊城市,星美广场,,38,38,51,19,13,58,,56,55,7,10,4,5,0.6,0.5
2024-02-21T0900,2632A,94.3681,29.6376,林芝市,林芝监测站,,27,,7,8,4,84,,89,87,3,3,5,4,0.6,0.5
2024-02-21T0900,2633A,94.3616,29.6616,林芝市,林芝人民医院,,26,7,9,6,6,82,,86,85,5,4,10,10,0.5,0.5
2024-02-21T0900,2603A,100.0781,23.8982,临沧市,市环保局,,45,41,33,31,28,42,,58,56,19,10,6,6,0.6,0.4
2024-02-21T0900,2604A,100.0894,23.8822,临沧市,市气象局,细颗粒物(PM2.5),54,51,40,38,33,50,,52,51,15,11,6,6,0.5,0.4
2024-02-21T0900,1733A,111.5531,36.0783,临汾市,临钢医院,细颗粒物(PM2.5),54,45,56,38,35,46,,46,46,12,13,7,5,0.6,0.7
2024-02-21T0900,1734A,111.5028,36.0714,临汾市,技工学校,,46,32,53,32,43,50,,50,50,13,18,8,6,0.6,0.6
2024-02-21T0900,1736A,111.5018,36.0855,临汾市,市委,,44,44,52,28,34,55,,55,55,12,14,6,5,0.6,0.6
2024-02-21T0900,3018A,111.505,36.1014,临汾市,唐尧大酒店,颗粒物(PM10),52,54,54,25,36,51,,51,51,12,15,8,7,0.8,0.8
2024-02-21T0900,3668A,111.5036,36.0414,临汾市,城南,细颗粒物(PM2.5),59,,54,42,42,50,,50,50,13,13,8,5,0.6,0.6
2024-02-21T0900,2667A,103.2069,35.5993,临夏回族自治州,环保局,颗粒物(PM10),162,274,329,25,24,39,,45,44,11,12,18,21,0.5,0.6
2024-02-21T0900,2668A,103.2417,35.6057,临夏回族自治州,建设大厦,颗粒物(PM10),153,255,332,25,29,45,,49,48,9,11,16,17,0.5,0.6
2024-02-21T0900,1618A,118.3429,35.0532,临沂市,沂河小区,,29,,29,20,19,64,,62,62,5,10,3,3,0.4,0.5
2024-02-21T0900,1619A,118.295,35.0583,临沂市,鲁南制药厂,,22,,24,13,12,69,,67,67,4,8,2,2,0.3,0.4
2024-02-21T0900,1620A,118.2794,34.9976,临沂市,新光毛纺厂,,23,,22,16,14,65,,61,61,8,12,2,3,0.5,0.5
2024-02-21T0900,1621A,118.3956,35.0888,临沂市,河东保险公司,,20,17,25,13,13,64,,64,64,13,15,2,3,0.3,0.3
2024-02-21T0900,3370A,118.3564,35.0215,临沂市,十里堡居委,,22,,23,14,13,68,,67,67,13,15,3,3,0.3,0.3
2024-02-21T0900,3496A,118.3604,35.1084,临沂市,南坊新区,,21,17,27,14,14,66,,64,64,3,5,5,6,0.7,0.7
2024-02-21T0900,3860A,118.3920,35.0300,临沂市,皇山花园小区,,21,17,24,14,16,67,,65,65,2,4,5,6,0.4,0.4
2024-02-21T0900,1870A,109.4856,24.3895,柳州市,柳东小学,细颗粒物(PM2.5),57,40,48,40,40,52,,60,58,12,12,6,6,0.5,0.5
2024-02-21T0900,1871A,109.4157,24.3277,柳州市,环保监测站,细颗粒物(PM2.5),53,41,61,37,44,54,,55,54,12,11,8,12,0.8,0.7
2024-02-21T0900,1872A,109.389,24.341,柳州市,河西水厂,颗粒物(PM10),57,64,64,30,38,48,,54,52,13,11,9,8,0.6,0.5
2024-02-21T0900,1873A,109.4311,24.2921,柳州市,市四中,细颗粒物(PM2.5),70,66,63,51,40,47,,53,52,13,11,7,7,0.9,0.8
2024-02-21T0900,1874A,109.4006,24.3631,柳州市,市九中,颗粒物(PM10),62,73,65,38,40,46,,52,50,11,8,4,5,0.7,0.6
2024-02-21T0900,1875A,109.4958,24.3134,柳州市,古亭山,细颗粒物(PM2.5),54,41,53,38,36,44,,54,53,13,11,6,6,0.8,0.8
2024-02-21T0900,3402A,109.5422,24.3996,柳州市,市二中,细颗粒物(PM2.5),59,50,51,42,38,45,,57,55,12,11,7,7,0.7,0.7
2024-02-21T0900,2307A,116.5079,31.737,六安市,监测大楼,,17,,7,11,7,54,,56,54,13,13,3,3,0.4,0.4
2024-02-21T0900,2308A,116.4738,31.7643,六安市,皖西学院,,20,14,9,14,7,59,,57,57,12,12,2,3,0.4,0.4
2024-02-21T0900,2309A,116.4996,31.7905,六安市,朝阳厂,,18,17,7,11,8,55,,55,54,8,8,3,3,0.3,0.3
2024-02-21T0900,2310A,116.5567,31.7886,六安市,开发区,,20,,6,14,9,52,,55,54,13,9,3,3,0.4,0.4
2024-02-21T0900,2576A,104.8,26.5892,六盘水市,窑上,,,,,,,,,,,,,,,,
2024-02-21T0900,2577A,104.83,26.5917,六盘水市,黄土坡,,28,24,33,12,15,89,,94,93,5,4,6,6,0.4,0.4
2024-02-21T0900,2578A,104.89,26.5939,六盘水市,水钢,,33,33,54,17,22,91,,86,86,2,7,3,5,0.3,0.5
2024-02-21T0900,2579A,104.8475,26.5894,六盘水市,民中,,29,23,37,9,19,90,,93,92,3,4,6,6,0.3,0.4
2024-02-21T0900,2580A,104.9544,26.5506,六盘水市,双水,,34,34,33,18,14,90,,96,94,6,4,6,6,0.4,0.3
2024-02-21T0900,2335A,117.0189,25.1181,龙岩市,龙岩师专,,,,,,,,,,,,,,,,
2024-02-21T0900,2336A,117.0217,25.1033,龙岩市,龙岩市监测站,,25,20,15,17,14,48,,44,44,5,6,4,4,0.4,0.3
2024-02-21T0900,2337A,117.0258,25.0661,龙岩市,闽西职业技术学院,,,21,18,12,11,,,39,39,5,5,,3,0.4,0.4
2024-02-21T0900,2338A,117.0196,25.0306,龙岩市,龙岩学院,,15,12,15,10,9,42,,38,38,5,4,5,3,0.4,0.3
2024-02-21T0900,2665A,105.0822,33.3261,陇南市,汉王镇固水子,,,,,,,,,,,,,,,,
2024-02-21T0900,2885A,104.9339,33.3826,陇南市,滨江中学,颗粒物(PM10),94,138,160,38,49,47,,38,38,7,7,4,4,0.9,0.9
2024-02-21T0900,3247A,104.955,33.371,陇南市,市总工会,颗粒物(PM10),90,129,156,36,49,47,,36,36,7,9,4,4,0.8,0.8
2024-02-21T0900,2487A,111.9589,27.8901,娄底市,电视发射台,,12,9,13,0,2,38,,39,39,5,5,4,4,0.4,0.4
2024-02-21T0900,2488A,111.9975,27.725,娄底市,市监测站,,13,7,6,6,5,41,,44,44,9,9,2,2,0.5,0.4
2024-02-21T0900,2489A,112.0194,27.7314,娄底市,市委党校,,12,4,9,4,4,37,,40,40,6,9,10,11,0.3,0.3
2024-02-21T0900,2490A,111.9561,27.7569,娄底市,涟钢,,24,9,23,7,11,26,,32,32,19,15,7,6,2.4,1.8
2024-02-21T0900,2491A,111.9892,27.7044,娄底市,市政府,,15,,10,10,5,37,,43,42,9,9,7,7,0.5,0.5
2024-02-21T0900,1893A,105.4324,28.9634,泸州市,九狮山,,32,32,299,16,108,29,,28,28,10,14,5,5,0.1,0.3
2024-02-21T0900,1894A,105.4427,28.9063,泸州市,小市上码头,,38,38,326,13,114,22,,38,34,14,19,5,6,0.5,0.5
2024-02-21T0900,1895A,105.4241,28.8573,泸州市,兰田宪桥,,36,36,307,16,114,25,,32,30,12,21,4,6,0.5,0.5
2024-02-21T0900,1896A,105.4379,28.8833,泸州市,市环监站,,36,36,307,17,118,22,,38,34,8,16,4,6,0.6,0.6
2024-02-21T0900,3490A,105.3617,28.7703,泸州市,纳溪区环保局,,36,36,303,14,113,26,,19,19,11,27,4,7,0.5,0.7
2024-02-21T0900,2183A,111.1406,37.5211,吕梁市,环保局,,47,47,58,32,24,31,,41,38,28,14,4,3,0.6,0.4
2024-02-21T0900,2185A,111.1297,37.5136,吕梁市,自来水公司,,48,46,44,33,24,36,,30,28,29,19,4,4,0.7,0.5
2024-02-21T0900,2867A,111.1283,37.51,吕梁市,马茂庄小学,,48,48,45,33,25,35,,30,29,28,20,1,2,0.6,0.4
2024-02-21T0900,1812A,112.3931,34.6516,洛阳市,市委党校,,26,24,34,18,22,58,,60,59,14,14,3,3,0.4,0.3
2024-02-21T0900,1814A,112.4657,34.6871,洛阳市,豫西宾馆,,34,34,40,21,22,64,,63,63,12,14,6,6,0.2,0.1
2024-02-21T0900,1815A,112.494,34.6886,洛阳市,河南林校,,29,22,31,20,21,63,,61,61,8,10,5,5,0.3,0.2
2024-02-21T0900,1816A,112.3844,34.623,洛阳市,开发区管委会,,32,24,33,22,21,61,,64,64,8,7,4,3,0.5,0.4
2024-02-21T0900,1817A,112.4267,34.6258,洛阳市,市委新办公区,,,24,30,24,23,55,,60,60,13,10,3,2,,0.5
2024-02-21T0900,3340A,112.6005,34.6326,洛阳市,伊滨,,31,31,36,19,20,60,,61,61,10,12,2,2,0.5,0.4
2024-02-21T0900,3341A,112.4951,34.6332,洛阳市,中移产业园,,,24,31,18,17,,,,,11,8,3,3,0.2,0.2
2024-02-21T0900,3593A,112.5736,34.8993,洛阳市,吉利监测站,,49,49,56,18,18,63,,62,62,5,7,3,3,0.3,0.2
2024-02-21T0900,3635A,112.3677,34.662,洛阳市,河科大西苑校区,,30,26,36,21,22,61,,59,59,8,10,2,2,0.4,0.4
2024-02-21T0900,3636A,112.4388,34.6781,洛阳市,英才小学,,23,,29,16,17,59,,58,58,9,11,4,3,0.2,0.2
2024-02-21T0900,2399A,114.051,33.5699,漯河市,三五一五工厂,,43,,19,30,22,57,,60,59,8,7,5,5,0.6,0.5
2024-02-21T0900,2400A,114.0055,33.5698,漯河市,漯河大学,,39,36,27,27,20,57,,61,60,10,10,3,3,0.5,0.4
2024-02-21T0900,2401A,114.0138,33.5828,漯河市,市水利局,,49,,22,34,24,57,,62,61,5,4,7,7,0.5,0.5
2024-02-21T0900,2402A,114.0261,33.5698,漯河市,市广电局,,48,,22,33,23,59,,64,63,4,3,1,1,0.3,0.2
2024-02-21T0900,3478A,113.9749,33.5664,漯河市,市图书馆,,,,28,28,21,59,,62,61,11,10,4,4,0.7,0.6
2024-02-21T0900,3479A,114.0967,33.5906,漯河市,召陵区卫健委,,,121,35,30,18,58,,63,62,8,6,5,4,,0.6
2024-02-21T0900,1798A,118.5092,31.6837,马鞍山市,湖东路四小,,14,12,8,7,5,43,,59,57,17,12,8,7,0.7,0.6
2024-02-21T0900,1799A,118.5024,31.6449,马鞍山市,开发区,,14,7,8,7,6,44,,60,58,17,12,4,4,0.7,0.5
2024-02-21T0900,1800A,118.5228,31.7231,马鞍山市,慈湖,,15,11,8,9,10,37,,55,53,29,19,6,6,0.6,0.5
2024-02-21T0900,1802A,118.6245,31.7241,马鞍山市,濮塘,,14,,9,9,7,43,,56,54,12,9,3,4,0.7,0.6
2024-02-21T0900,3633A,118.4918,31.6809,马鞍山市,雨山,,,,9,,5,,,60,,,11,,4,,0.6
2024-02-21T0900,1686A,111.0286,21.4688,茂名市,电白南海,细颗粒物(PM2.5),52,46,35,36,22,48,,41,41,8,7,8,6,0.4,0.4
2024-02-21T0900,1687A,110.9294,21.6533,茂名市,茂石化七小,细颗粒物(PM2.5),55,56,35,39,26,48,,44,44,9,8,10,9,0.5,0.4
2024-02-21T0900,1688A,110.9107,21.6687,茂名市,健康路,,45,44,28,31,23,46,,41,41,8,6,8,6,0.5,0.5
2024-02-21T0900,1689A,110.8592,21.6828,茂名市,高岭,细颗粒物(PM2.5),55,41,37,39,27,43,,38,38,10,8,8,7,0.7,0.7
2024-02-21T0900,3450A,111.01,21.5165,茂名市,电白水东,,49,44,24,34,19,45,,41,41,9,7,7,5,0.4,0.5
2024-02-21T0900,2539A,104.0308,30.0478,眉山市,黑龙滩水库,,27,27,209,16,61,41,,47,46,2,6,2,4,0.0,0
2024-02-21T0900,2540A,103.8416,30.0874,眉山市,气象局,,32,32,225,0,84,33,,42,42,18,21,5,7,0.5,0.5
2024-02-21T0900,3137A,103.8578,30.0744,眉山市,市委党校,,24,24,265,2,77,37,,42,42,9,19,6,8,0.4,0.5
2024-02-21T0900,3148A,103.8291,30.0564,眉山市,区人社局,,32,32,222,2,77,31,,43,42,21,25,11,14,0.6,0.6
2024-02-21T0900,1690A,116.1231,24.3284,梅州市,梅江月梅,,33,24,25,23,18,46,,26,26,8,10,9,9,0.4,0.4
2024-02-21T0900,1691A,116.0797,24.2719,梅州市,梅县新城,,45,,27,31,18,17,,20,17,25,14,6,6,0.9,0.5
2024-02-21T0900,1692A,116.1248,24.2654,梅州市,环境监控中心,,32,24,24,22,19,25,,14,14,19,16,5,5,0.6,0.5
2024-02-21T0900,3315A,116.1233,24.2991,梅州市,梅龙,,35,29,24,24,18,46,,30,30,14,9,8,8,0.6,0.5
2024-02-21T0900,1878A,104.7778,31.4741,绵阳市,富乐山,,16,16,204,3,73,35,,36,35,6,6,6,7,0.6,0.6
2024-02-21T0900,1879A,104.7563,31.4535,绵阳市,市人大,,21,21,231,3,63,31,,36,35,9,10,5,6,0.5,0.5
2024-02-21T0900,1880A,104.6697,31.4668,绵阳市,高新区自来水公司,,16,16,206,6,70,30,,37,35,16,13,6,6,0.6,0.6
2024-02-21T0900,1881A,104.7287,31.5075,绵阳市,三水厂,,23,23,218,7,77,31,,34,33,9,7,4,5,0.4,0.4
2024-02-21T0900,3491A,104.69,31.5322,绵阳市,西科大附属小学,,16,16,187,6,69,33,,36,35,9,7,7,7,0.7,0.6
2024-02-21T0900,3492A,104.5648,31.5343,绵阳市,安州区旅游局,,30,30,229,12,63,31,,35,34,10,12,4,7,0.6,0.7
2024-02-21T0900,1784A,129.61,44.561,牡丹江市,环保大楼,,32,32,32,18,16,63,,66,65,14,9,10,8,0.4,0.3
2024-02-21T0900,1785A,129.6115,44.5782,牡丹江市,文化广场,,37,37,34,15,25,56,,57,56,15,11,12,10,0.5,0.4
2024-02-21T0900,1786A,129.5904,44.5963,牡丹江市,第一医院,,40,34,32,28,30,54,,57,56,16,9,19,11,0.5,0.4
2024-02-21T0900,1787A,129.6364,44.6075,牡丹江市,机车工厂,,32,32,33,17,21,56,,55,54,15,7,13,10,0.4,0.4
2024-02-21T0900,1788A,129.6386,44.5462,牡丹江市,第一中学,,38,38,26,20,20,63,,58,58,8,6,11,8,0.5,0.5
2024-02-21T0900,2531A,105.0703,29.61,内江市,市监测站,,30,30,215,12,98,33,,43,40,13,15,7,9,0.6,0.7
2024-02-21T0900,2532A,105.0717,29.5947,内江市,东兴区政府,,28,28,236,7,93,32,,41,38,12,13,9,11,0.7,0.7
2024-02-21T0900,2533A,105.0653,29.5817,内江市,内江二中,,24,24,207,10,105,34,,42,40,12,13,4,5,0.6,0.7
2024-02-21T0900,2534A,105.0406,29.5822,内江市,内江日报社,,34,34,226,10,99,36,,42,41,6,10,7,10,0.5,0.6
2024-02-21T0900,2628A,92.0657,31.4846,那曲市,那曲监测站,,21,12,86,10,28,66,,79,76,8,5,9,5,0.9,0.6
2024-02-21T0900,3128A,92.0506,31.4797,那曲市,那曲会议中心,,23,19,108,12,24,73,,85,82,8,3,8,6,0.6,0.4
2024-02-21T0900,1290A,115.8931,28.6843,南昌市,省外办,,14,,24,5,18,42,,37,37,7,11,4,4,0.5,0.7
2024-02-21T0900,1291A,115.8886,28.7003,南昌市,省林业公司,,,7,15,7,13,,,34,34,,12,,5,,0.8
2024-02-21T0900,1292A,115.8126,28.7442,南昌市,林科所,,15,0,10,0,8,47,,39,39,11,15,4,4,0.6,0.6
2024-02-21T0900,1294A,115.8518,28.687,南昌市,建工学校,,23,,22,16,14,43,,38,38,11,13,4,4,0.4,0.5
2024-02-21T0900,1295A,115.8921,28.6424,南昌市,象湖,,15,10,17,6,13,45,,40,40,11,14,4,4,0.6,0.7
2024-02-21T0900,1296A,115.7423,28.7996,南昌市,武术学校,,16,11,16,10,18,49,,39,39,1,6,3,6,0.3,0.4
2024-02-21T0900,1298A,115.9314,28.6842,南昌市,省站,,15,14,24,6,15,45,,40,40,4,10,5,6,0.3,0.5
2024-02-21T0900,3046A,115.9084,28.6062,南昌市,机电学校,,14,8,26,5,15,43,,39,39,10,12,6,6,0.8,0.8
2024-02-21T0900,3690A,115.9721,28.7031,南昌市,外国语学校,,16,,18,11,17,39,,36,36,11,14,3,3,0.7,0.8
2024-02-21T0900,1905A,106.056,30.8064,南充市,西山风景区,,21,21,177,10,79,38,,37,37,5,9,2,9,0.5,0.5
2024-02-21T0900,1906A,106.0789,30.8023,南充市,南充市委,,11,11,198,2,72,34,,37,37,11,14,4,5,0.4,0.5
2024-02-21T0900,1907A,106.1031,30.8217,南充市,南充炼油厂,,26,26,214,14,88,34,,36,36,10,12,4,5,0.3,0.4
2024-02-21T0900,1908A,106.1064,30.7856,南充市,高坪区监测站,,20,20,235,4,91,40,,40,40,10,13,6,7,0.3,0.3
2024-02-21T0900,1909A,106.0642,30.7636,南充市,嘉陵区环保局,,16,16,213,5,86,34,,36,36,11,14,3,3,0.4,0.5
2024-02-21T0900,1910A,106.1087,30.8388,南充市,市环境监测站,,21,21,203,3,78,36,,39,39,9,11,5,7,0.3,0.4
2024-02-21T0900,1151A,118.8086,32.1065,南京市,迈皋桥,,13,10,5,9,4,37,,48,45,14,11,3,3,0.4,0.3
2024-02-21T0900,1152A,118.7538,32.0551,南京市,草场门,,15,,5,9,7,46,,58,56,21,22,1,1,0.5,0.5
2024-02-21T0900,1153A,118.7794,32.0745,南京市,山西路,,14,,4,7,5,42,,51,49,18,14,5,4,0.6,0.5
2024-02-21T0900,1154A,118.7752,32.0023,南京市,中华门,,14,,3,7,4,44,,57,55,19,15,6,6,0.7,0.6
2024-02-21T0900,1155A,118.8109,32.0309,南京市,瑞金路,,13,,5,7,6,40,,53,51,14,11,5,4,0.7,0.5
2024-02-21T0900,1156A,118.7997,32.0754,南京市,玄武湖,,17,17,10,6,3,47,,58,55,12,15,6,6,0.3,0.3
2024-02-21T0900,1157A,118.6414,32.0931,南京市,浦口,,15,,2,7,2,47,,53,52,12,11,3,3,0.3,0.2
2024-02-21T0900,1158A,118.7356,31.9996,南京市,奥体中心,,15,11,8,7,5,48,,61,58,15,13,4,5,0.5,0.4
2024-02-21T0900,1159A,118.9125,32.1028,南京市,仙林大学城,,15,9,4,2,1,46,,56,54,13,13,4,4,0.6,0.5
2024-02-21T0900,3422A,118.8436,31.9198,南京市,江宁彩虹桥,,15,14,11,2,4,46,,61,59,15,11,4,4,0.6,0.4
2024-02-21T0900,3423A,119.0138,31.6494,南京市,溧水永阳,,25,,5,17,8,49,,60,59,10,8,4,4,0.8,0.7
2024-02-21T0900,3424A,118.879,31.3302,南京市,高淳老职中,,16,8,12,6,10,51,,54,54,8,11,4,4,0.3,0.4
2024-02-21T0900,3427A,118.8554,32.3578,南京市,六合雄州,,22,22,15,6,5,51,,55,54,14,12,3,2,0.3,0.3
2024-02-21T0900,1401A,108.3103,22.7881,南宁市,二十一中,,38,26,44,26,26,40,,49,47,15,12,5,4,0.9,0.7
2024-02-21T0900,1402A,108.3141,22.8528,南宁市,北湖,,39,37,40,27,26,24,,30,27,22,14,6,5,0.9,0.7
2024-02-21T0900,1403A,108.3206,22.8225,南宁市,市监测站,,40,40,38,24,25,39,,50,48,17,12,6,6,0.7,0.6
2024-02-21T0900,1404A,108.3829,22.8037,南宁市,大自然花园,,40,39,37,28,25,34,,52,49,20,11,8,7,0.8,0.6
2024-02-21T0900,1405A,108.4394,22.7904,南宁市,仙葫,,48,48,39,29,27,39,,52,50,11,8,8,7,0.8,0.7
2024-02-21T0900,1406A,108.2397,22.8467,南宁市,区农职院,,42,33,43,29,29,20,,26,23,32,20,9,8,0.8,0.6
2024-02-21T0900,1407A,108.3275,22.735,南宁市,英华嘉园,,48,48,45,28,27,26,,31,30,24,22,6,6,0.7,0.5
2024-02-21T0900,1408A,108.2257,22.7757,南宁市,沙井镇街道办,,42,42,45,26,28,28,,24,24,21,19,5,5,0.7,0.6
2024-02-21T0900,3401A,108.4834,22.7618,南宁市,红星社区,细颗粒物(PM2.5),52,,36,36,29,27,,42,39,18,9,10,8,0.8,0.7
2024-02-21T0900,2331A,118.0966,26.6761,南平市,茫荡山,,,,,,,,,,,,,,,,
2024-02-21T0900,2332A,118.1681,26.6369,南平市,南平市监测站,,31,31,36,20,29,21,,5,5,19,22,6,5,1.1,1.2
2024-02-21T0900,2333A,118.1825,26.6489,南平市,南平铝业有限公司,,33,24,35,23,26,23,,12,12,18,18,7,6,0.8,0.7
2024-02-21T0900,2334A,118.1756,26.6272,南平市,南平七中,,23,18,31,16,23,20,,11,11,17,19,4,4,0.7,0.6
2024-02-21T0900,1168A,120.9098,31.9663,南通市,狼山街道,,19,3,12,1,6,58,,69,68,10,9,8,8,0.5,0.4
2024-02-21T0900,1169A,120.86,32.0005,南通市,虹桥,,17,16,17,5,8,53,,64,62,10,9,4,4,0.4,0.3
2024-02-21T0900,1170A,120.87,32.02,南通市,城中,,18,7,15,6,7,55,,65,64,11,10,2,2,0.9,0.6
2024-02-21T0900,1171A,120.94,31.93,南通市,星湖花园,,18,5,16,0,5,56,,65,64,13,13,5,5,0.3,0.2
2024-02-21T0900,1172A,120.81,32.0417,南通市,紫琅学院,,18,4,7,1,4,56,,69,67,13,11,6,6,0.6,0.5
2024-02-21T0900,3291A,121.067,32.062,南通市,通州监测站,,19,9,17,7,9,58,,68,67,8,6,6,7,0.4,0.3
2024-02-21T0900,3432A,120.9348,31.9883,南通市,环境教育馆,,19,,16,3,8,58,,69,67,11,10,6,6,0.3,0.1
2024-02-21T0900,2404A,112.5224,33.0122,南阳市,瓦房庄,,33,,20,23,23,72,,71,71,10,11,7,7,0.5,0.4
2024-02-21T0900,2405A,112.5003,32.9735,南阳市,汉画馆,,25,25,24,15,18,71,,70,70,10,12,4,4,0.7,0.6
2024-02-21T0900,2406A,112.5573,33.027,南阳市,气象站,,32,,20,22,20,70,,69,69,10,12,3,3,0.9,0.7
2024-02-21T0900,2407A,112.5481,32.9689,南阳市,理工学院,,23,23,23,16,16,71,,70,70,7,9,4,5,0.5,0.5
2024-02-21T0900,4008A,112.5234,32.9922,南阳市,卧龙区政府,,22,22,21,15,15,68,,68,68,11,11,5,5,0.4,0.4
2024-02-21T0900,1234A,121.8358,29.911,宁波市,区环保大楼,,11,9,23,6,16,31,,26,26,21,26,6,5,0.4,0.4
2024-02-21T0900,1235A,121.56,29.82,宁波市,万里学院,,12,9,20,5,19,37,,31,31,17,18,7,7,0.6,0.6
2024-02-21T0900,1236A,121.713,29.9572,宁波市,龙赛医院,,12,9,19,7,12,37,,32,32,18,23,5,5,0.5,0.4
2024-02-21T0900,1239A,121.633,29.7733,宁波市,钱湖水厂,,13,10,22,9,17,35,,29,29,18,18,5,5,0.5,0.5
2024-02-21T0900,1240A,121.5856,29.8635,宁波市,太古小学,,12,12,19,6,9,38,,35,35,18,19,6,6,0.7,0.7
2024-02-21T0900,1241A,121.524,29.8674,宁波市,市环境监测中心,,14,5,16,3,6,42,,36,36,15,16,5,5,0.8,0.8
2024-02-21T0900,2871A,121.6147,29.9017,宁波市,万里国际学校,,17,17,23,8,17,39,,34,34,16,19,7,7,0.4,0.5
2024-02-21T0900,3710A,121.5594,29.8975,宁波市,白沙活动中心,,13,7,20,3,9,41,,36,36,12,14,6,6,0.8,0.7
2024-02-21T0900,2339A,119.5001,26.6946,宁德市,金涵水库,,,,,,,,,,,,,,,,
2024-02-21T0900,2341A,119.5388,26.6612,宁德市,宁德市监测站,,46,34,32,32,33,15,,28,25,16,13,5,5,0.7,0.5
2024-02-21T0900,3209A,119.5231,26.6562,宁德市,宁德一中,,32,22,32,22,28,20,,30,28,13,17,4,5,0.7,0.5
2024-02-21T0900,2618A,98.8601,25.8567,怒江傈僳族自治州,州监测站,,43,38,32,30,22,43,,54,53,18,9,11,10,0.5,0.4
2024-02-21T0900,2619A,98.8546,25.8417,怒江傈僳族自治州,泸水一中,,41,41,33,26,23,19,,39,36,31,18,8,8,0.7,0.5
2024-02-21T0900,1888A,101.6891,26.571,攀枝花市,弄弄坪,颗粒物(PM10),51,52,44,29,27,51,,68,64,34,25,15,26,0.6,1.7
2024-02-21T0900,1889A,101.5769,26.5928,攀枝花市,河门口,,50,50,36,25,19,32,,57,51,29,15,19,14,0.9,0.7
2024-02-21T0900,1890A,101.7169,26.585,攀枝花市,炳草岗,颗粒物(PM10),59,67,31,28,19,11,,66,57,64,19,13,13,0.9,0.6
2024-02-21T0900,1891A,101.7369,26.5008,攀枝花市,仁和,,44,44,20,26,14,36,,75,69,34,13,7,6,0.8,0.5
2024-02-21T0900,2835A,101.7227,26.567,攀枝花市,四十中小,,34,34,29,16,16,66,,87,83,28,12,6,6,0.5,0.4
2024-02-21T0900,1604A,122.0303,41.1489,盘锦市,开发区,,23,15,24,9,11,73,,67,67,8,8,5,6,0.5,0.6
2024-02-21T0900,1605A,122.0485,41.0883,盘锦市,兴隆台,,26,26,31,9,10,70,,66,66,8,8,9,9,0.5,0.5
2024-02-21T0900,1606A,121.8297,41.1028,盘锦市,新生街道,,22,18,24,7,11,69,,62,62,9,11,8,9,0.4,0.4
2024-02-21T0900,1832A,113.3257,33.742,平顶山市,新华旅馆,,,,45,33,28,63,,69,68,3,5,6,5,0.5,0.3
2024-02-21T0900,1833A,113.2919,33.737,平顶山市,规划设计院,,40,30,23,28,20,59,,65,64,7,8,3,3,0.3,0.2
2024-02-21T0900,1834A,113.182,33.774,平顶山市,平顶山工学院,,32,28,26,22,16,67,,71,71,14,14,3,3,0.5,0.5
2024-02-21T0900,3204A,113.3025,33.73,平顶山市,规划局,,36,34,31,25,24,56,,62,61,9,10,5,5,0.4,0.3
2024-02-21T0900,3594A,112.8867,33.9116,平顶山市,石龙区,,30,26,22,21,21,74,,74,74,2,5,3,4,0.4,0.4
2024-02-21T0900,2656A,106.6692,35.5461,平凉市,聚贤嘉苑,颗粒物(PM10),108,165,153,33,35,57,,56,56,14,17,6,7,0.4,0.5
2024-02-21T0900,2657A,106.7021,35.5307,平凉市,博物馆,颗粒物(PM10),114,178,154,37,37,56,,56,56,8,12,4,5,0.5,0.5
2024-02-21T0900,2347A,114.0997,27.5002,萍乡市,武功山,,10,,52,5,41,30,,21,21,8,15,12,14,0.5,0.8
2024-02-21T0900,2348A,113.8385,27.6434,萍乡市,中医院,,18,15,56,12,30,23,,20,20,17,22,5,10,0.7,1.2
2024-02-21T0900,2349A,113.8493,27.6253,萍乡市,市政府车库,,17,17,54,5,26,28,,24,24,8,16,7,9,0.6,1.1
2024-02-21T0900,2350A,113.8676,27.6435,萍乡市,市环保局,,9,9,42,5,20,23,,19,19,9,16,9,12,0.7,1.1
2024-02-21T0900,2351A,113.866,27.6198,萍乡市,安源区政府,,,,50,13,28,,,23,23,10,21,15,13,0.4,0.7
2024-02-21T0900,2319A,119.0141,25.4325,莆田市,荔城区仓后路,细颗粒物(PM2.5),65,,62,47,50,28,,11,11,17,16,8,8,1.0,0.8
2024-02-21T0900,2320A,119.0015,25.4553,莆田市,莆田市监测站,细颗粒物(PM2.5),52,40,40,36,28,24,,11,11,16,13,6,5,0.9,0.7
2024-02-21T0900,2321A,119.1119,25.4561,莆田市,涵江区六中,细颗粒物(PM2.5),77,,44,56,41,22,,12,12,23,17,10,10,0.8,0.7
2024-02-21T0900,2322A,119.1013,25.3215,莆田市,秀屿区政府,,40,29,32,28,24,39,,33,33,17,14,8,7,0.8,0.7
2024-02-21T0900,2323A,118.981,25.4792,莆田市,东圳水库,,,,,,,,,,,,,,,,
2024-02-21T0900,2392A,115.0312,35.7636,濮阳市,环保局,,32,22,47,22,16,54,,54,54,12,12,4,5,0.5,0.4
2024-02-21T0900,2394A,115.0574,35.7609,濮阳市,油田运输公司,,26,20,44,18,14,56,,56,56,10,9,6,7,0.5,0.4
2024-02-21T0900,2395A,115.0866,35.7754,濮阳市,油田物探公司,,33,23,45,23,17,54,,54,54,10,10,4,5,0.5,0.4
2024-02-21T0900,3021A,115,35.7668,濮阳市,濮水河管理处,,35,30,48,24,16,55,,55,54,15,13,6,7,0.3,0.3
2024-02-21T0900,2601A,100.98,22.7633,普洱市,市环保局,细颗粒物(PM2.5),65,64,54,47,41,58,,73,70,17,12,5,6,0.7,0.6
2024-02-21T0900,2602A,100.9817,22.8322,普洱市,普洱第二中学,"颗粒物(PM10),细颗粒物(PM2.5)",57,64,52,40,39,29,,29,29,37,26,5,5,1.0,0.8
2024-02-21T0900,2262A,131.0518,45.8751,七台河市,新一中,,23,19,18,14,13,72,,76,75,14,6,15,10,0.7,0.6
2024-02-21T0900,3345A,131.0577,45.7879,七台河市,中波台,,22,17,38,9,20,68,,62,62,15,20,7,9,1.1,1
2024-02-21T0900,3637A,131.0176,45.7761,七台河市,人民广场,,22,16,27,15,22,69,,67,67,15,15,11,12,0.5,0.5
2024-02-21T0900,3684A,130.8781,45.8222,七台河市,新建矿广场,,,22,16,13,22,61,,58,58,,13,17,12,0.5,0.4
2024-02-21T0900,1779A,123.9305,47.3636,齐齐哈尔市,安居小区,,32,,16,22,11,67,,68,67,12,6,5,4,0.5,0.3
2024-02-21T0900,1780A,123.9488,47.3386,齐齐哈尔市,中心广场,,21,,12,11,7,65,,68,67,12,7,5,5,0.5,0.4
2024-02-21T0900,1781A,123.9483,47.3227,齐齐哈尔市,农牧车辆厂,,31,31,18,21,8,62,,62,61,14,8,11,9,0.5,0.4
2024-02-21T0900,1783A,123.945,47.2988,齐齐哈尔市,市环境监测站,,20,16,18,7,8,64,,67,66,11,6,4,5,0.3,0.3
2024-02-21T0900,3662A,123.6333,47.2075,齐齐哈尔市,富区青少年活动中心,,42,42,28,17,14,56,,59,58,23,14,31,20,0.8,0.7
2024-02-21T0900,2591A,107.9783,26.5747,黔东南苗族侗族自治州,市环境监测站,,28,22,40,19,30,20,,24,23,11,11,5,5,0.6,0.6
2024-02-21T0900,2881A,107.8908,26.5311,黔东南苗族侗族自治州,凯里学院,,25,21,35,17,26,22,,25,24,7,8,4,5,0.4,0.4
2024-02-21T0900,2593A,107.5228,26.2403,黔南布依族苗族自治州,小围寨,,45,36,41,31,28,67,,86,82,7,7,5,5,0.5,0.5
2024-02-21T0900,3538A,107.5175,26.2978,黔南布依族苗族自治州,沙坝,细颗粒物(PM2.5),52,39,42,36,29,72,,88,86,4,4,4,4,0.5,0.5
2024-02-21T0900,2589A,104.9022,25.0925,黔西南布依族苗族自治州,场坝街,,31,31,35,19,23,87,,102,100,10,7,2,2,0.4,0.3
2024-02-21T0900,2590A,104.8811,25.0992,黔西南布依族苗族自治州,坪东大道,,36,36,36,25,25,91,,102,100,5,2,2,2,0.3,0.3
2024-02-21T0900,2502A,108.6236,21.9667,钦州市,市环保站,细颗粒物(PM2.5),70,85,56,51,31,13,,26,23,26,24,17,13,0.9,0.7
2024-02-21T0900,2503A,108.6549,21.9481,钦州市,沙埠小学,细颗粒物(PM2.5),82,87,60,60,36,7,,10,9,25,29,13,11,0.8,0.7
2024-02-21T0900,2504A,108.5989,21.7431,钦州市,港区一小,细颗粒物(PM2.5),87,83,80,64,39,6,,14,12,21,17,15,20,1.0,0.8
2024-02-21T0900,3404A,108.5959,21.9633,钦州市,北职校,细颗粒物(PM2.5),89,73,58,66,37,11,,17,16,24,22,15,14,1.0,0.8
2024-02-21T0900,1042A,119.5134,39.8207,秦皇岛市,北戴河环保局,,42,42,51,8,8,71,,72,72,13,13,7,7,0.2,0.2
2024-02-21T0900,1043A,119.7493,40.0116,秦皇岛市,第一关,,37,37,50,16,18,72,,70,70,12,13,7,7,0.3,0.3
2024-02-21T0900,1044A,119.5897,39.9499,秦皇岛市,监测站,,36,26,41,25,13,74,,79,78,9,7,8,7,0.3,0.3
2024-02-21T0900,1046A,119.5251,39.9041,秦皇岛市,建设大厦,,43,35,57,30,19,74,,74,74,3,3,3,3,0.2,0.2
2024-02-21T0900,3132A,119.610547,39.943889,秦皇岛市,文明里,,26,26,49,11,13,72,,74,74,10,10,6,5,0.4,0.4
2024-02-21T0900,1307A,120.6659,36.2403,青岛市,仰口,,32,,28,22,18,57,,54,54,8,10,4,3,0.2,0.3
2024-02-21T0900,1310A,120.4134,36.0658,青岛市,市南区东部子站,,22,22,33,14,15,55,,54,54,11,12,5,8,0.6,0.5
2024-02-21T0900,1311A,120.3664,36.1032,青岛市,四方区子站,,32,,29,22,17,47,,41,41,21,15,5,5,0.5,0.4
2024-02-21T0900,1312A,120.2994,36.054,青岛市,市南区西部子站,,25,17,29,17,11,60,,58,58,9,11,5,6,0.5,0.5
2024-02-21T0900,1313A,120.4581,36.0858,青岛市,崂山区子站,,,,29,,13,,,57,57,12,11,6,6,0.6,0.6
2024-02-21T0900,1314A,120.1983,35.9608,青岛市,黄岛区子站,,19,19,30,12,16,58,,57,57,15,20,6,6,0.6,0.6
2024-02-21T0900,1315A,120.3999,36.3083,青岛市,城阳区子站,,19,19,29,12,12,59,,58,58,13,12,4,4,0.7,0.6
2024-02-21T0900,1966A,120.0405,35.8735,青岛市,黄岛区4号,,20,19,25,12,11,64,,62,62,5,7,6,6,0.7,0.7
2024-02-21T0900,3362A,120.5014,36.4034,青岛市,即墨2号,,30,26,35,21,17,57,,57,57,6,5,6,6,0.5,0.5
2024-02-21T0900,3642A,120.3503,36.0736,青岛市,市北区南部,,26,26,38,17,14,55,,56,56,20,20,5,6,0.8,0.6
2024-02-21T0900,3643A,120.3948,36.1805,青岛市,李沧区北部,,32,22,32,22,20,59,,62,61,16,15,9,9,0.7,0.6
2024-02-21T0900,1702A,113.0426,23.691,清远市,环保大楼,细颗粒物(PM2.5),53,48,27,37,19,30,,30,30,13,10,5,2,0.9,0.9
2024-02-21T0900,1703A,113.0208,23.7106,清远市,凤城街办,细颗粒物(PM2.5),57,52,31,40,23,39,,32,32,12,13,8,5,0.5,0.5
2024-02-21T0900,3025A,113.0477,23.6344,清远市,技师学院,细颗粒物(PM2.5),53,49,30,37,18,32,,34,34,21,10,8,6,0.4,0.4
2024-02-21T0900,3318A,112.9903,23.7403,清远市,清新太和,细颗粒物(PM2.5),55,49,31,39,19,31,,33,33,17,15,17,13,0.6,0.5
2024-02-21T0900,3455A,113.076,23.7198,清远市,清城东城,,50,48,30,35,19,43,,34,34,10,13,10,8,0.8,0.8
2024-02-21T0900,2661A,107.6325,35.7357,庆阳市,庆阳五中,颗粒物(PM10),76,101,32,49,18,30,,42,39,8,6,3,3,0.8,0.7
2024-02-21T0900,2662A,107.6364,35.7067,庆阳市,市环保局,颗粒物(PM10),86,122,26,43,12,32,,45,42,9,5,3,3,1.0,0.8
2024-02-21T0900,1916A,103.7897,25.5035,曲靖市,环境监测站,,43,43,36,17,21,89,,99,97,9,6,1,2,0.6,0.5
2024-02-21T0900,1917A,103.8,25.5364,曲靖市,烟厂办公区,,42,42,41,22,21,89,,95,93,8,7,4,4,0.6,0.5
2024-02-21T0900,3376A,103.7947,25.462,曲靖市,南苑二区,,36,36,39,22,23,86,,93,92,7,7,4,4,0.5,0.5
2024-02-21T0900,3377A,103.7444,25.5261,曲靖市,曲靖师范学院,颗粒物(PM10),51,51,40,35,29,75,,86,83,20,10,14,7,0.6,0.5
2024-02-21T0900,1264A,118.8692,28.9398,衢州市,环保大楼,,22,22,26,13,17,25,,25,24,12,12,5,5,0.6,0.6
2024-02-21T0900,1265A,118.8709,28.9666,衢州市,实验学校,,25,22,26,17,19,28,,30,29,12,11,2,4,0.5,0.5
2024-02-21T0900,1266A,118.8621,28.9808,衢州市,衢州学院,,22,21,23,15,16,24,,26,25,10,9,4,4,0.5,0.5
2024-02-21T0900,1611A,118.5819,24.9117,泉州市,涂山街,,18,18,19,12,13,34,,34,33,18,12,4,3,0.6,0.6
2024-02-21T0900,1612A,118.5972,24.8978,泉州市,津头埔,,18,18,19,12,13,23,,26,24,22,16,4,4,0.7,0.6
2024-02-21T0900,1613A,118.6663,24.9424,泉州市,万安,,24,24,19,10,12,31,,31,30,13,11,3,3,0.5,0.4
2024-02-21T0900,1614A,118.6117,24.9604,泉州市,清源山,,,,,,,,,,,,,,,,
2024-02-21T0900,3529A,118.6333,24.9264,泉州市,城华南路,,16,16,18,11,12,30,,32,30,18,13,3,3,0.3,0.3
2024-02-21T0900,2626A,88.8876,29.2718,日喀则市,日喀则监测站,,16,14,21,8,8,51,,74,69,13,7,2,3,0.5,0.5
2024-02-21T0900,3726A,88.8781,29.2426,日喀则市,林业技术推广中心,,17,14,23,4,4,54,,77,73,9,6,7,7,0.4,0.4
2024-02-21T0900,1659A,119.471,35.4209,日照市,监测站,,23,19,26,10,15,71,,71,71,11,12,7,8,0.4,0.4
2024-02-21T0900,1660A,119.523,35.4216,日照市,市政府广场,,21,19,28,12,13,67,,68,68,8,8,6,7,0.5,0.5
2024-02-21T0900,1661A,119.5587,35.4044,日照市,港务局,,25,22,29,17,14,70,,71,71,8,10,3,5,0.5,0.5
2024-02-21T0900,3507A,119.5328,35.4625,日照市,职业技术学院,,28,19,28,19,13,64,,66,66,9,10,6,7,0.4,0.4
2024-02-21T0900,3604A,119.3266,35.1044,日照市,岚山环保分局,,32,27,38,22,21,67,,65,65,1,9,14,16,0.7,1.6
2024-02-21T0900,1835A,111.1922,34.7752,三门峡市,市政府,,30,,34,21,25,49,,46,46,11,16,6,6,0.7,0.7
2024-02-21T0900,1836A,111.1587,34.7942,三门峡市,开发区,,36,36,53,22,28,49,,46,46,15,16,5,5,1.0,0.8
2024-02-21T0900,1838A,111.143,34.7955,三门峡市,风景区,,,,,,,,,,,,,,,,
2024-02-21T0900,3039A,111.1911,34.7829,三门峡市,三门峡市第一小学,,23,16,39,16,22,50,,47,47,9,12,4,5,0.6,0.6
2024-02-21T0900,3598A,111.1,34.7167,三门峡市,富达温泉假日酒店,,33,33,45,23,22,44,,48,47,12,11,4,4,0.7,0.6
2024-02-21T0900,2324A,117.6211,26.2625,三明市,三钢,,36,30,28,25,22,14,,13,12,23,16,15,9,1.9,0.8
2024-02-21T0900,2325A,117.635,26.2714,三明市,三明二中,,32,32,28,21,21,16,,13,13,26,19,10,7,1.5,0.7
2024-02-21T0900,2326A,117.6028,26.2378,三明市,三元区政府,细颗粒物(PM2.5),70,74,38,51,25,14,,10,10,22,15,21,7,2.1,1
2024-02-21T0900,2327A,117.7275,26.3108,三明市,洋溪,,,,,,,,,,,,,,,,
2024-02-21T0900,1876A,109.5078,18.2489,三亚市,河东子站,,30,30,33,19,27,45,,43,43,6,5,5,4,0.4,0.4
2024-02-21T0900,1877A,109.4964,18.2681,三亚市,河西子站,,26,23,31,18,21,44,,43,43,4,3,5,4,0.3,0.3
2024-02-21T0900,3540A,109.7348,18.3443,三亚市,君悦子站,,32,32,33,13,24,53,,40,40,4,5,5,4,0.3,0.3
2024-02-21T0900,2624A,91.7608,29.2313,山南市,山南监测站,,27,6,50,6,13,84,,84,84,3,3,5,6,0.4,0.4
2024-02-21T0900,2625A,91.7706,29.2436,山南市,山南人民医院,,25,15,65,11,19,80,,80,80,5,5,4,5,0.4,0.3
2024-02-21T0900,1674A,116.6794,23.3667,汕头市,金平子站,,21,21,17,12,10,29,,41,39,23,13,6,6,1.0,0.7
2024-02-21T0900,1675A,116.7244,23.3633,汕头市,龙湖子站,,19,,15,13,12,27,,36,35,18,11,8,8,0.8,0.7
2024-02-21T0900,1676A,116.7258,23.2775,汕头市,濠江子站,,16,16,16,8,12,38,,43,42,10,10,8,9,0.7,0.7
2024-02-21T0900,1677A,116.7519,23.4714,汕头市,澄海子站,,20,15,20,14,16,33,,38,36,16,12,11,9,0.7,0.6
2024-02-21T0900,1678A,116.6092,23.2539,汕头市,潮阳子站,,,17,18,10,14,,,43,43,6,9,8,9,0.5,0.6
2024-02-21T0900,3444A,116.454,23.2684,汕头市,潮南峡山,,18,17,21,12,16,38,,38,36,12,8,9,9,0.7,0.6
2024-02-21T0900,3624A,116.4069,23.2533,汕头市,潮南子站,,39,38,30,27,19,32,,23,23,8,6,7,6,1.0,0.7
2024-02-21T0900,1693A,115.3653,22.775,汕尾市,市环保局,,16,12,18,11,11,36,,41,40,6,6,8,8,0.6,0.6
2024-02-21T0900,1694A,115.3706,22.7898,汕尾市,市政府,,16,11,18,11,17,36,,40,39,9,6,6,6,0.7,0.6
2024-02-21T0900,1695A,115.3622,22.7925,汕尾市,新城中学,,18,18,21,10,11,38,,38,38,10,8,5,5,0.6,0.5
2024-02-21T0900,2645A,109.9154,33.8715,商洛市,监测站,,20,20,14,13,9,53,,49,49,10,12,5,6,0.6,0.6
2024-02-21T0900,3045A,109.9643,33.8471,商洛市,商州区中学,,34,34,11,14,7,52,,50,50,9,9,4,5,0.7,0.6
2024-02-21T0900,2408A,115.6702,34.4285,商丘市,环境监测站,,42,35,28,29,19,53,,60,60,7,8,8,7,0.6,0.4
2024-02-21T0900,2409A,115.6458,34.4045,商丘市,粮食局,,45,34,30,31,20,51,,59,58,13,13,8,8,0.4,0.3
2024-02-21T0900,2410A,115.6293,34.3948,商丘市,睢阳区环保局,颗粒物(PM10),57,63,34,29,17,53,,59,59,8,8,7,6,0.4,0.3
2024-02-21T0900,3171A,115.6071,34.4465,商丘市,梁园区档案局,,45,32,29,31,17,53,,60,59,11,13,7,6,0.5,0.3
2024-02-21T0900,1141A,121.4,31.238,上海市,普陀,,23,,21,16,13,46,,47,47,21,20,4,5,0.9,0.7
2024-02-21T0900,1142A,121.478,31.2036,上海市,十五厂,,16,5,18,4,11,50,,50,50,17,19,6,6,0.8,0.7
2024-02-21T0900,1143A,121.467,31.3008,上海市,虹口,,17,5,20,0,13,53,,55,55,19,20,5,5,0.7,0.6
2024-02-21T0900,1144A,121.412,31.1654,上海市,徐汇上师大,,16,13,19,8,9,49,,51,51,24,23,8,8,1.0,0.6
2024-02-21T0900,1145A,121.536,31.2659,上海市,杨浦四漂,,19,4,19,4,11,60,,58,58,16,17,6,6,0.8,0.7
2024-02-21T0900,1147A,121.425,31.2261,上海市,静安监测站,,14,9,18,4,13,44,,50,49,28,23,6,7,0.9,0.5
2024-02-21T0900,1148A,121.703,31.1907,上海市,浦东川沙,,19,6,21,3,15,58,,56,56,18,17,4,5,0.6,0.5
2024-02-21T0900,1149A,121.533,31.2284,上海市,浦东新区监测站,,,,21,,13,,,55,,,25,,6,,0.5
2024-02-21T0900,1150A,121.577,31.2071,上海市,浦东张江,,18,5,18,2,13,57,,54,54,18,18,5,5,0.6,0.6
2024-02-21T0900,3265A,121.4316,31.3322,上海市,宝山庙行,,14,7,20,4,15,44,,44,44,23,25,5,4,1.2,0.8
2024-02-21T0900,3266A,121.8791,31.4662,上海市,崇明上实东滩,,22,6,21,3,8,68,,71,71,7,7,7,7,0.4,0.2
2024-02-21T0900,3268A,121.3162,31.2838,上海市,嘉定南翔,,16,3,18,0,11,49,,51,51,15,14,6,6,0.7,0.6
2024-02-21T0900,3269A,121.3359,30.7456,上海市,金山新城,,20,14,19,14,14,33,,34,33,28,19,5,5,0.7,0.5
2024-02-21T0900,3270A,121.4996,31.0739,上海市,闵行浦江,,18,,17,7,12,55,,51,51,24,20,5,5,0.6,0.5
2024-02-21T0900,3271A,121.2886,31.1663,上海市,青浦徐泾,,18,2,17,0,13,55,,53,53,16,22,4,4,0.4,0.4
2024-02-21T0900,3272A,121.2186,31.0378,上海市,松江图书馆,,18,,19,5,14,55,,50,50,19,22,5,5,0.6,0.6
2024-02-21T0900,3273A,121.3902,31.2059,上海市,长宁仙霞,,23,,19,16,12,47,,49,49,26,20,6,6,1.0,0.7
2024-02-21T0900,3274A,121.7965,31.0507,上海市,浦东惠南,,18,5,20,0,12,57,,54,54,20,17,5,5,0.6,0.6
2024-02-21T0900,3544A,121.4891,30.925,上海市,奉贤南桥新城,,17,,17,7,10,52,,49,48,23,17,7,6,0.6,0.5
2024-02-21T0900,2381A,118.005,28.4572,上饶市,百草园,,,,29,29,17,21,,24,23,8,10,3,5,,
2024-02-21T0900,2382A,117.9756,28.4436,上饶市,市监测站,,28,28,32,19,19,22,,26,25,10,12,5,9,0.6,0.7
2024-02-21T0900,2383A,117.9519,28.4628,上饶市,凤凰光学,,22,22,29,13,17,24,,25,24,6,10,9,5,0.8,0.9
2024-02-21T0900,3413A,118.1953,28.4401,上饶市,广丰区教体局,细颗粒物(PM2.5),64,56,42,46,31,20,,20,20,12,13,8,8,1.0,0.9
2024-02-21T0900,3685A,117.897,28.4315,上饶市,双创科技城,,27,27,33,14,20,22,,23,22,14,16,11,5,0.6,0.7
2024-02-21T0900,1669A,113.5824,24.7733,韶关市,市八中,,43,43,33,29,19,39,,35,35,4,11,11,11,0.4,0.5
