timepoint,stationcode,longitude,latitude,area,positionname,primarypollutant,aqi,pm10,pm10_24h,pm2_5,pm2_5_24h,o3,o3_24h,o3_8h,o3_8h_24h,no2,no2_24h,so2,so2_24h,co,co_24h
2023-06-12T21:00:00,1001A,116.3621,39.8784,北京市,万寿西宫,,30,9,30,3,19,132,96,125,119,8,14,3,2,0.4,0.6
2023-06-12T21:00:00,1002A,116.2202,40.2915,北京市,定陵,,30,6,15,2,7,118,96,113,110,2,5,3,3,0.2,0.3
2023-06-12T21:00:00,1003A,116.4174,39.9289,北京市,东四,,34,10,31,3,17,138,106,132,125,10,13,3,3,0.2,0.4
2023-06-12T21:00:00,1004A,116.4072,39.8863,北京市,天坛,,33,12,51,4,28,138,104,133,126,13,17,3,3,0.2,0.4
2023-06-12T21:00:00,1005A,116.462,39.9365,北京市,农展馆,,32,9,30,2,17,133,101,127,120,4,9,3,2,0.1,0.3
2023-06-12T21:00:00,1006A,116.3392,39.9295,北京市,官园,,30,11,26,4,14,130,96,120,118,11,15,2,3,0.2,0.4
2023-06-12T21:00:00,1007A,116.2878,39.9611,北京市,海淀万柳,,32,8,29,3,18,130,102,125,121,12,21,3,3,0.2,0.4
2023-06-12T21:00:00,1008A,116.6636,40.135,北京市,顺义新城,,33,6,29,2,16,128,103,121,116,8,13,3,2,0.2,0.4
2023-06-12T21:00:00,1009A,116.6275,40.3275,北京市,怀柔镇,,27,4,22,2,13,117,85,111,104,11,11,1,1,0.2,0.3
2023-06-12T21:00:00,1010A,116.2296,40.217,北京市,昌平镇,,30,8,20,6,10,122,95,115,109,5,13,3,3,0.2,0.2
2023-06-12T21:00:00,1011A,116.3966,39.9821,北京市,奥体中心,,29,15,26,3,15,119,91,115,109,15,18,3,2,0.2,0.4
2023-06-12T21:00:00,1012A,116.184,39.9136,北京市,古城,,29,11,31,3,14,128,91,121,115,12,17,3,2,0.4,0.6
2023-06-12T21:00:00,1015A,117.1444,39.1661,天津市,勤俭道,,36,13,36,6,21,162,115,148,139,17,17,10,10,0.5,0.5
2023-06-12T21:00:00,1017A,117.237,39.1082,天津市,大直沽八号路,,36,24,38,14,25,159,114,147,139,20,16,6,7,0.6,0.5
2023-06-12T21:00:00,1018A,117.202,39.0927,天津市,前进道,,40,16,35,8,22,174,127,157,150,19,18,5,6,0.6,0.6
2023-06-12T21:00:00,1019A,117.1837,39.2133,天津市,淮河道,,38,21,41,10,24,176,121,158,146,19,16,7,8,0.5,0.6
2023-06-12T21:00:00,1021A,117.307,39.0877,天津市,跃进路,,39,29,42,14,25,175,123,161,150,28,20,7,9,0.5,0.6
2023-06-12T21:00:00,1023A,117.707,39.0343,天津市,第四大街,,33,16,38,9,26,156,105,146,134,48,25,5,7,0.6,0.7
2023-06-12T21:00:00,1024A,117.457,38.8394,天津市,永明路,,48,16,34,10,23,178,151,170,166,16,19,4,6,0.6,0.7
2023-06-12T21:00:00,1026A,117.764,39.1587,天津市,汉北路,,42,13,41,6,24,152,132,149,147,9,16,6,6,0.7,0.8
2023-06-12T21:00:00,1027A,117.157,38.9194,天津市,团泊洼,,36,17,35,14,26,171,114,162,144,32,20,11,5,0.7,0.7
2023-06-12T21:00:00,1029A,114.4422,38.0444,石家庄市,职工医院,细颗粒物(PM2.5),54,55,47,38,20,206,152,200,194,15,11,2,3,0.3,0.4
2023-06-12T21:00:00,1030A,114.6063,38.0266,石家庄市,高新区,颗粒物(PM10),62,73,51,21,18,212,155,198,192,18,15,10,6,0.4,0.4
2023-06-12T21:00:00,1031A,114.4898,38.1328,石家庄市,西北水源,颗粒物(PM10),59,67,50,30,18,211,162,202,197,19,12,4,4,0.3,0.3
2023-06-12T21:00:00,1032A,114.4586,38.0058,石家庄市,西南高教,颗粒物(PM10),60,70,51,30,22,216,140,201,192,19,10,3,2,0.4,0.4
2023-06-12T21:00:00,1033A,114.5331,38.0178,石家庄市,世纪公园,颗粒物(PM10),51,51,49,26,22,203,143,188,181,20,14,4,5,0.5,0.5
2023-06-12T21:00:00,1034A,114.509,38.0457,石家庄市,人民会堂,,,100,41,17,20,223,,215,212,19,13,1,2,0.3,0.3
2023-06-12T21:00:00,1035A,114.3524,37.8911,石家庄市,封龙山,臭氧1小时,82,51,65,28,28,201,185,190,190,10,16,3,3,0.5,0.6
2023-06-12T21:00:00,1037A,118.131,39.6363,唐山市,雷达站,,34,34,34,16,17,145,81,129,110,21,17,2,4,0.6,0.8
2023-06-12T21:00:00,1038A,118.1725,39.6334,唐山市,物资局,,40,40,35,21,28,146,84,127,109,23,19,4,9,0.6,1
2023-06-12T21:00:00,1040A,118.1705,39.6506,唐山市,十二中,,36,35,31,25,28,140,88,122,104,15,14,3,5,0.9,1
2023-06-12T21:00:00,1041A,118.1869,39.622,唐山市,小山,,43,43,29,12,16,145,80,123,102,20,16,4,7,0.5,0.9
2023-06-12T21:00:00,1042A,119.5134,39.8207,秦皇岛市,北戴河环保局,,26,7,26,9,16,162,82,130,121,13,20,3,3,0.4,0.6
2023-06-12T21:00:00,1043A,119.7493,40.0116,秦皇岛市,第一关,,37,19,26,16,15,131,0,102,68,73,46,3,3,0.4,0.4
2023-06-12T21:00:00,1044A,119.5897,39.9499,秦皇岛市,监测站,,31,31,40,20,21,128,52,97,85,23,22,3,2,0.4,0.4
2023-06-12T21:00:00,1046A,119.5251,39.9041,秦皇岛市,建设大厦,,38,38,33,6,13,145,64,118,102,32,27,3,3,0.4,0.4
2023-06-12T21:00:00,1048A,114.5302,36.6116,邯郸市,东污水处理厂,颗粒物(PM10),51,51,48,19,21,197,138,185,180,39,25,3,6,0.0,0.7
2023-06-12T21:00:00,1049A,114.4918,36.5713,邯郸市,矿院,,48,36,40,29,33,204,151,196,191,14,19,6,9,0.3,0.5
2023-06-12T21:00:00,1050A,114.484,36.6133,邯郸市,丛台公园,臭氧1小时,64,68,52,27,27,206,171,198,195,13,16,6,9,0.6,0.9
2023-06-12T21:00:00,1051A,115.493,38.8632,保定市,游泳馆,,,33,36,,16,193,,186,186,,10,,7,,0
2023-06-12T21:00:00,1052A,115.5213,38.8959,保定市,华电二区,,50,38,38,15,11,185,160,179,178,9,8,5,6,0.4,0.4
2023-06-12T21:00:00,1053A,115.4713,38.9108,保定市,接待中心,,45,45,48,15,15,167,124,164,158,20,8,11,12,0.5,0.5
2023-06-12T21:00:00,1054A,115.4612,38.8416,保定市,地表水厂,,50,50,48,16,18,173,122,169,161,36,16,6,8,0.2,0.2
2023-06-12T21:00:00,1056A,115.5086,38.8639,保定市,监测站,细颗粒物(PM2.5),53,51,36,37,22,193,150,182,179,20,14,4,6,0.5,0.5
2023-06-12T21:00:00,1057A,114.8883,40.8336,张家口市,人民公园,,34,9,12,1,3,131,107,127,121,6,3,3,3,0.1,0.1
2023-06-12T21:00:00,1059A,114.8687,40.8042,张家口市,五金库,,,,12,,7,126,,120,117,14,9,1,1,0.3,0.4
2023-06-12T21:00:00,1060A,114.8902,40.762,张家口市,世纪豪园,,36,12,10,12,9,131,115,127,123,5,4,2,3,0.2,0.2
2023-06-12T21:00:00,1061A,114.8916,40.8661,张家口市,北泵房,,33,21,14,11,6,133,104,128,122,6,5,8,9,0.4,0.4
2023-06-12T21:00:00,1062A,117.9531,40.9081,承德市,铁路,,31,28,21,7,6,113,40,92,77,61,29,13,11,0.4,0.4
2023-06-12T21:00:00,1063A,117.9392,40.9763,承德市,中国银行,,24,14,16,3,4,112,75,106,98,14,15,4,5,0.3,0.3
2023-06-12T21:00:00,1064A,117.9503,40.928,承德市,开发区,,25,23,23,12,15,113,77,105,100,20,18,8,9,0.3,0.4
2023-06-12T21:00:00,1065A,117.8051,40.9655,承德市,文化中心,,24,24,25,11,5,109,66,104,97,18,23,5,12,0.3,0.5
2023-06-12T21:00:00,1066A,117.9268,41.0026,承德市,离宫,,24,20,14,14,10,104,74,102,96,8,13,6,6,0.2,0.3
2023-06-12T21:00:00,1067A,116.6708,39.5111,廊坊市,药材公司,,35,35,46,13,20,157,102,147,137,18,19,2,3,0.3,0.5
2023-06-12T21:00:00,1068A,116.7214,39.5589,廊坊市,开发区,,39,19,36,27,31,154,105,146,136,22,25,5,5,0.3,0.6
2023-06-12T21:00:00,1070A,116.7244,39.5269,廊坊市,北华航天学院,,43,43,45,12,26,146,97,140,130,17,18,4,4,0.3,0.5
2023-06-12T21:00:00,1071A,116.8842,38.2991,沧州市,沧县城建局,,40,31,33,16,17,190,127,173,165,35,21,6,8,0.2,0.4
2023-06-12T21:00:00,1072A,116.8584,38.3254,沧州市,电视转播站,,,29,35,14,17,188,121,173,164,,16,7,7,0.2,0.3
2023-06-12T21:00:00,1073A,116.8709,38.3228,沧州市,市环保局,,41,36,36,21,22,178,130,166,162,39,24,6,8,0.2,0.3
2023-06-12T21:00:00,1074A,115.6838,37.7541,衡水市,电机北厂,臭氧1小时,62,34,39,26,13,202,169,190,188,10,11,2,3,0.5,0.5
2023-06-12T21:00:00,1075A,115.6303,37.7316,衡水市,市监测站,,47,40,48,22,17,180,148,176,172,18,12,3,4,0.6,0.6
2023-06-12T21:00:00,1077A,114.4704,37.0886,邢台市,达活泉,颗粒物(PM10),57,64,50,23,17,206,147,197,191,24,13,9,6,0.6,0.5
2023-06-12T21:00:00,1078A,114.5062,37.0349,邢台市,邢师高专,颗粒物(PM10),59,67,54,25,20,200,139,189,183,42,27,6,8,0.5,0.6
2023-06-12T21:00:00,1079A,114.5237,37.0851,邢台市,路桥公司,颗粒物(PM10),51,52,46,22,19,189,155,180,178,20,16,5,5,0.5,0.5
2023-06-12T21:00:00,1080A,114.4725,37.0719,邢台市,市环保局,颗粒物(PM10),76,101,51,22,24,205,159,197,193,23,17,6,7,0.4,0.5
2023-06-12T21:00:00,1081A,112.522,37.8873,太原市,尖草坪,,44,43,56,11,24,183,139,164,154,22,31,8,8,0.7,0.7
2023-06-12T21:00:00,1083A,112.434,38.0108,太原市,上兰,,,,,,,,,,,,,,,,
2023-06-12T21:00:00,1084A,112.469,37.7124,太原市,晋源,,48,48,56,20,28,212,120,182,156,38,33,5,8,0.5,0.7
2023-06-12T21:00:00,1085A,112.5583,37.7394,太原市,小店,,50,50,70,19,29,218,135,176,155,26,43,5,8,0.4,0.5
2023-06-12T21:00:00,1086A,112.5369,37.8692,太原市,桃园,颗粒物(PM10),63,75,59,19,25,179,139,162,153,25,36,7,9,0.6,0.6
2023-06-12T21:00:00,1087A,112.57,37.8195,太原市,坞城,,,64,60,26,26,200,,167,157,25,30,5,9,0.6,0.7
2023-06-12T21:00:00,1088A,112.549,37.9854,太原市,南寨,,31,31,55,12,23,160,66,153,141,54,36,5,6,0.4,0.6
2023-06-12T21:00:00,1090A,111.6507,40.7517,呼和浩特市,呼市一监,,37,17,45,4,9,134,116,128,127,14,12,6,6,0.3,0.3
2023-06-12T21:00:00,1091A,111.6572,40.8033,呼和浩特市,小召,,40,12,44,4,9,133,125,129,129,11,12,8,8,0.3,0.3
2023-06-12T21:00:00,1094A,111.7516,40.8369,呼和浩特市,如意水处理厂,,36,27,43,8,9,137,115,132,130,17,15,8,7,0.3,0.3
2023-06-12T21:00:00,1095A,111.7276,40.8062,呼和浩特市,二十九中,,36,21,52,6,11,133,115,128,127,16,16,5,6,0.3,0.3
2023-06-12T21:00:00,1096A,111.5512,40.7866,呼和浩特市,工大金川校区,,30,17,47,5,10,127,95,121,118,24,12,5,5,0.3,0.3
2023-06-12T21:00:00,1097A,111.717,40.7612,呼和浩特市,化肥厂生活区,,35,22,45,5,12,118,109,114,114,8,13,7,8,0.2,0.2
2023-06-12T21:00:00,1098A,123.6836,41.9339,沈阳市,森林路,,,,,,,,,,,,,,,,
2023-06-12T21:00:00,1099A,123.505,41.7406,沈阳市,浑南东路,,32,32,42,16,23,109,82,100,94,30,39,12,37,0.8,1
2023-06-12T21:00:00,1100A,123.4231,41.6989,沈阳市,新秀街,,36,29,41,15,19,111,37,104,90,72,35,5,28,0.6,0.8
2023-06-12T21:00:00,1102A,123.5903,41.8411,沈阳市,东陵路,,33,33,48,23,24,100,44,88,81,30,32,8,22,0.7,1.1
2023-06-12T21:00:00,1103A,123.4264,41.8467,沈阳市,陵东街,,18,18,29,10,18,109,40,101,90,32,29,6,8,0.6,1
2023-06-12T21:00:00,1104A,123.4114,41.7653,沈阳市,文化路,,27,22,38,12,25,129,85,115,111,28,33,6,14,0.6,1
2023-06-12T21:00:00,1105A,123.4678,41.7867,沈阳市,小河沿,,32,32,35,18,20,108,73,101,96,36,39,7,13,0.6,1
2023-06-12T21:00:00,1106A,123.4017,41.7972,沈阳市,太原街,,30,21,39,14,23,130,96,117,115,25,33,5,12,0.5,0.9
2023-06-12T21:00:00,1108A,123.3783,41.9228,沈阳市,京沈街,,25,22,31,12,19,138,79,128,118,37,26,7,11,0.5,0.7
2023-06-12T21:00:00,1109A,121.612,38.9741,大连市,甘井子,,,,38,,19,131,110,123,110,11,22,4,5,0.4,0.7
2023-06-12T21:00:00,1110A,121.565,38.9511,大连市,周水子,,37,37,33,17,22,124,111,114,103,16,24,5,6,0.4,0.4
2023-06-12T21:00:00,1111A,121.5637,38.8845,大连市,星海三站,,36,22,20,16,15,138,114,130,122,11,11,7,6,0.4,0.4
2023-06-12T21:00:00,1112A,121.6302,38.9117,大连市,青泥洼桥,,32,28,21,19,13,134,102,127,117,18,11,4,4,0.6,0.6
2023-06-12T21:00:00,1113A,121.6251,38.8638,大连市,傅家庄,,35,20,19,14,14,124,112,120,120,11,10,6,6,0.6,0.6
2023-06-12T21:00:00,1114A,121.5213,38.8661,大连市,七贤岭,,38,24,20,17,13,152,121,146,132,8,8,5,5,0.2,0.2
2023-06-12T21:00:00,1115A,121.2529,38.8061,大连市,旅顺,,,20,19,13,11,142,,138,133,16,12,8,7,0.4,0.4
2023-06-12T21:00:00,1116A,121.7485,39.1311,大连市,金州,,41,40,27,15,15,161,130,146,137,14,15,7,8,0.8,0.8
2023-06-12T21:00:00,1117A,121.7811,39.0496,大连市,开发区,,39,24,25,14,16,140,123,133,123,15,20,4,3,0.5,0.6
2023-06-12T21:00:00,1118A,121.9762,39.0631,大连市,双D港,,25,15,18,11,14,136,78,124,114,23,12,6,6,0.5,0.5
2023-06-12T21:00:00,1119A,125.3325,43.9166,长春市,食品厂,细颗粒物(PM2.5),52,44,21,36,22,94,49,89,81,62,28,7,7,0.8,0.5
2023-06-12T21:00:00,1120A,125.2863,43.9027,长春市,客车厂,,45,44,23,22,14,100,8,87,75,89,24,4,3,0.8,0.5
2023-06-12T21:00:00,1121A,125.2841,43.8463,长春市,邮电学院,,21,21,17,9,9,105,40,83,72,28,17,4,4,0.6,0.5
2023-06-12T21:00:00,1122A,125.3716,43.8772,长春市,劳动公园,颗粒物(PM10),51,51,19,20,10,123,39,107,91,45,22,6,6,0.6,0.3
2023-06-12T21:00:00,1123A,125.3297,43.8805,长春市,园林处,,39,39,21,12,8,88,38,81,70,48,26,6,6,0.6,0.4
2023-06-12T21:00:00,1124A,125.4605,43.79,长春市,净月潭,,19,19,15,11,10,129,51,110,100,18,8,4,4,0.5,0.4
2023-06-12T21:00:00,1125A,125.7194,43.515,长春市,甩湾子,,,,,,,,,,,,,,,,
2023-06-12T21:00:00,1126A,125.3863,43.8447,长春市,经开区环卫处,,40,40,19,16,9,122,42,106,92,47,21,6,6,0.8,0.5
2023-06-12T21:00:00,1127A,125.245,43.7783,长春市,高新区管委会,,28,28,14,7,10,113,32,100,90,49,15,5,5,0.4,0.3
2023-06-12T21:00:00,1128A,125.1761,43.8325,长春市,岱山公园,,49,22,14,10,12,115,25,94,86,97,28,4,4,0.5,0.4
2023-06-12T21:00:00,1129A,126.5422,45.755,哈尔滨市,岭北,,34,23,15,11,10,144,107,128,128,20,17,19,21,0.2,0.4
2023-06-12T21:00:00,1130A,126.561,45.8167,哈尔滨市,松北商大,,,,20,,7,136,81,125,122,52,20,6,6,0.6,0.6
2023-06-12T21:00:00,1131A,126.979,45.5419,哈尔滨市,阿城会宁,,27,26,21,8,7,121,85,116,109,29,20,8,9,0.5,0.5
2023-06-12T21:00:00,1132A,126.599,45.7222,哈尔滨市,南岗学府路,,38,38,29,13,9,137,116,131,130,17,19,7,10,0.4,0.5
2023-06-12T21:00:00,1133A,126.689,45.7733,哈尔滨市,太平宏伟公园,颗粒物(PM10),52,54,30,29,15,129,92,122,119,44,28,8,7,0.6,0.4
2023-06-12T21:00:00,1134A,126.635,45.7667,哈尔滨市,道外承德广场,,38,38,28,14,9,142,113,128,128,30,26,12,12,0.6,0.5
2023-06-12T21:00:00,1135A,126.685,45.7319,哈尔滨市,香坊红旗大街,,38,38,27,18,10,129,105,125,122,36,29,8,8,0.6,0.5
2023-06-12T21:00:00,1136A,126.6411,45.7258,哈尔滨市,动力和平路,,,37,23,,7,141,117,131,130,30,25,6,6,0.6,0.5
2023-06-12T21:00:00,1137A,126.593,45.7478,哈尔滨市,道里建国路,,32,31,22,10,9,137,102,124,124,39,28,5,6,0.5,1.2
2023-06-12T21:00:00,1138A,126.615,45.61,哈尔滨市,平房东轻厂,颗粒物(PM10),51,51,15,14,9,140,72,126,116,42,14,8,6,0.7,0.6
2023-06-12T21:00:00,1139A,126.595,45.9855,哈尔滨市,呼兰师专,,,35,24,8,7,140,,128,128,,25,,9,,0.5
2023-06-12T21:00:00,1140A,126.6206,45.6842,哈尔滨市,省农科院,,50,50,24,12,9,142,68,136,129,68,33,10,10,0.7,0.5
2023-06-12T21:00:00,1141A,121.4,31.238,上海市,普陀,,22,12,12,9,10,108,68,96,90,24,19,4,4,0.4,0.4
2023-06-12T21:00:00,1142A,121.478,31.2036,上海市,十五厂,,20,19,23,14,12,95,49,82,76,30,20,6,6,0.5,0.5
2023-06-12T21:00:00,1143A,121.467,31.3008,上海市,虹口,,16,14,17,9,10,84,51,76,73,29,23,8,8,0.4,0.4
2023-06-12T21:00:00,1144A,121.412,31.1654,上海市,徐汇上师大,,18,14,15,7,11,106,56,94,86,25,20,7,8,0.5,0.5
2023-06-12T21:00:00,1145A,121.536,31.2659,上海市,杨浦四漂,,25,19,15,7,9,88,30,77,68,49,23,6,6,0.6,0.6
2023-06-12T21:00:00,1147A,121.425,31.2261,上海市,静安监测站,,20,14,15,10,8,99,63,91,85,24,19,4,4,0.4,0.4
2023-06-12T21:00:00,1148A,121.703,31.1907,上海市,浦东川沙,,,8,9,4,9,87,57,77,71,,16,,6,0.3,0.3
2023-06-12T21:00:00,1149A,121.533,31.2284,上海市,浦东新区监测站,,22,8,11,3,8,105,68,96,91,18,14,6,6,0.2,0.3
2023-06-12T21:00:00,1150A,121.577,31.2071,上海市,浦东张江,,16,14,13,8,10,84,50,80,71,21,16,5,5,0.4,0.4
2023-06-12T21:00:00,1151A,118.8086,32.1065,南京市,迈皋桥,,50,37,44,12,17,194,157,184,183,12,17,5,4,0.3,0.4
2023-06-12T21:00:00,1152A,118.7538,32.0551,南京市,草场门,,,24,34,14,17,184,,174,174,17,21,3,3,0.4,0.6
2023-06-12T21:00:00,1153A,118.7794,32.0745,南京市,山西路,,46,34,41,12,16,185,146,174,172,17,16,5,6,0.3,0.4
2023-06-12T21:00:00,1154A,118.7752,32.0023,南京市,中华门,,45,34,30,9,10,188,143,171,169,18,16,3,5,0.6,0.7
2023-06-12T21:00:00,1155A,118.8109,32.0309,南京市,瑞金路,,41,36,40,14,19,186,131,172,168,31,24,3,4,0.4,0.5
2023-06-12T21:00:00,1156A,118.7997,32.0754,南京市,玄武湖,,39,32,37,11,17,173,124,161,158,31,21,6,7,0.4,0.5
2023-06-12T21:00:00,1157A,118.6414,32.0931,南京市,浦口,,44,44,39,17,20,194,128,177,173,31,28,7,7,0.3,0.4
2023-06-12T21:00:00,1158A,118.7356,31.9996,南京市,奥体中心,,47,40,39,17,20,187,148,172,170,20,19,5,6,0.5,0.6
2023-06-12T21:00:00,1159A,118.9125,32.1028,南京市,仙林大学城,,,29,38,14,20,188,,181,181,15,19,5,7,0.5,0.7
2023-06-12T21:00:00,1160A,120.561,31.2472,苏州市,上方山,,29,27,35,20,21,162,55,133,120,27,17,7,5,0.2,0.4
2023-06-12T21:00:00,1162A,120.591,31.3019,苏州市,彩香,,28,28,31,14,21,172,60,149,128,24,12,6,6,0.5,0.6
2023-06-12T21:00:00,1163A,120.596,31.3264,苏州市,轧钢厂,,27,27,30,12,18,170,53,148,124,28,13,7,5,0.9,0.7
2023-06-12T21:00:00,1164A,120.613,31.2703,苏州市,吴中区,,30,30,30,14,18,188,56,153,132,32,17,8,8,0.6,0.8
2023-06-12T21:00:00,1165A,120.543,31.2994,苏州市,苏州新区,,24,24,30,14,21,181,65,154,134,23,11,6,6,0.6,0.7
2023-06-12T21:00:00,1166A,120.669,31.3097,苏州市,苏州工业园区,,28,28,30,15,20,167,58,145,125,29,15,9,9,0.6,0.7
2023-06-12T21:00:00,1167A,120.641,31.3708,苏州市,相城区,,28,28,21,15,16,165,59,143,122,23,7,8,7,1.0,0.7
2023-06-12T21:00:00,1168A,120.9098,31.9663,南通市,狼山街道,,27,27,16,4,6,135,82,124,117,12,7,8,8,0.4,0.4
2023-06-12T21:00:00,1169A,120.86,32.0005,南通市,虹桥,,27,26,20,13,11,134,84,126,119,19,14,8,7,0.5,0.5
2023-06-12T21:00:00,1170A,120.87,32.02,南通市,城中,,28,28,24,13,13,122,78,115,109,12,6,7,6,0.3,0.4
2023-06-12T21:00:00,1171A,120.94,31.93,南通市,星湖花园,,23,22,14,2,3,119,73,111,102,15,10,4,4,0.2,0.3
2023-06-12T21:00:00,1172A,120.81,32.0417,南通市,紫琅学院,,34,34,19,9,9,121,74,114,107,20,13,4,3,0.4,0.5
2023-06-12T21:00:00,1173A,119.176,34.5885,连云港市,市环境监测站,,48,48,34,12,10,211,137,187,176,17,15,8,7,0.4,0.5
2023-06-12T21:00:00,1177A,117.179,34.2761,徐州市,黄河新村,颗粒物(PM10),52,53,41,17,18,171,135,161,159,20,12,14,9,0.5,0.5
2023-06-12T21:00:00,1178A,117.1918,34.2384,徐州市,淮塔,颗粒物(PM10),52,53,41,15,14,174,128,164,160,24,13,14,10,0.4,0.5
2023-06-12T21:00:00,1180A,117.256,34.2153,徐州市,新城区,颗粒物(PM10),58,66,49,24,17,170,138,159,155,26,12,11,7,0.4,0.4
2023-06-12T21:00:00,1181A,117.244,34.2911,徐州市,桃园路,颗粒物(PM10),59,68,45,30,16,171,145,160,159,30,13,8,8,0.4,0.4
2023-06-12T21:00:00,1182A,117.2933,34.2778,徐州市,农科院,颗粒物(PM10),56,61,47,31,18,168,120,151,145,62,24,7,7,0.5,0.5
2023-06-12T21:00:00,1186A,119.389,32.3761,扬州市,邗江监测站,,41,41,39,13,18,169,115,160,154,26,17,8,9,0.4,0.5
2023-06-12T21:00:00,1188A,120.269,31.4867,无锡市,雪浪,,29,29,32,17,19,184,86,168,152,16,14,2,2,0.6,0.7
2023-06-12T21:00:00,1189A,120.275,31.6219,无锡市,黄巷,,32,32,39,12,17,180,95,162,149,18,16,6,6,0.8,0.9
2023-06-12T21:00:00,1190A,120.294,31.56,无锡市,曹张,,27,25,27,9,16,167,84,155,138,11,9,4,4,0.5,0.1
2023-06-12T21:00:00,1191A,120.242,31.5031,无锡市,漆塘,,26,19,30,12,20,176,83,166,150,13,10,4,5,0.3,0.4
2023-06-12T21:00:00,1192A,120.3489,31.5863,无锡市,东亭,,26,22,27,12,17,177,83,159,142,16,11,10,10,0.6,0.7
2023-06-12T21:00:00,1193A,120.354,31.5475,无锡市,旺庄,,26,14,27,12,16,170,82,159,142,18,12,7,7,0.5,0.6
2023-06-12T21:00:00,1194A,120.245,31.5631,无锡市,荣巷,,28,27,30,14,20,173,89,159,144,14,12,7,7,0.5,0.6
2023-06-12T21:00:00,1195A,120.299,31.6817,无锡市,堰桥,,28,27,27,14,18,178,89,158,147,20,12,5,6,0.9,0.8
2023-06-12T21:00:00,1196A,119.9633,31.762,常州市,市监测站,,37,33,46,19,27,198,116,172,167,22,21,8,8,0.7,0.8
2023-06-12T21:00:00,1200A,119.9468,31.7069,常州市,武进监测站,,37,37,59,21,25,203,118,180,174,17,19,2,4,0.7,1
2023-06-12T21:00:00,1201A,119.9255,31.9087,常州市,安家,,38,38,54,21,26,195,85,167,155,42,21,10,10,0.9,0.8
2023-06-12T21:00:00,1203A,119.6707,32.1875,镇江市,新区办事处,,35,30,36,16,22,162,112,152,147,27,23,2,2,0.7,0.8
2023-06-12T21:00:00,1204A,119.4974,32.1968,镇江市,职教中心,,,,37,,28,166,,157,157,25,26,3,3,0.6,0.7
2023-06-12T21:00:00,1205A,119.4303,32.1328,镇江市,丹徒区监测站,,40,30,45,13,30,193,126,175,170,15,17,4,4,0.5,0.6
2023-06-12T21:00:00,1206A,119.905,32.4878,泰州市,公园路,,39,24,24,17,18,163,123,155,152,14,10,8,8,0.5,0.6
2023-06-12T21:00:00,1207A,119.9189,32.4625,泰州市,莲花,,39,0,26,17,20,160,124,154,150,14,10,9,9,0.3,0.4
2023-06-12T21:00:00,1209A,119.888,32.4639,泰州市,留学生创业园,,40,18,26,8,15,161,127,155,151,12,8,8,7,0.3,0.4
2023-06-12T21:00:00,1210A,119.036,33.5981,淮安市,钵池山,,39,39,35,10,16,146,117,134,134,24,17,8,7,0.6,0.7
2023-06-12T21:00:00,1211A,119.007,33.575,淮安市,北京南路,颗粒物(PM10),51,51,43,11,17,147,117,132,132,27,20,8,9,0.5,0.6
2023-06-12T21:00:00,1212A,118.989,33.6067,淮安市,市监测站,,42,39,42,12,15,163,132,145,145,24,17,7,8,0.5,0.6
2023-06-12T21:00:00,1213A,119.135,33.5039,淮安市,楚州区监测站,颗粒物(PM10),64,78,44,12,15,146,101,137,134,29,17,6,6,0.6,0.6
2023-06-12T21:00:00,1214A,119.0186,33.6297,淮安市,淮阴区监测站,颗粒物(PM10),51,51,43,11,18,154,109,135,134,37,21,8,9,0.4,0.4
2023-06-12T21:00:00,1215A,120.118,33.4022,盐城市,盐城电厂,,31,31,25,9,10,167,98,158,144,8,6,4,4,0.3,0.3
2023-06-12T21:00:00,1216A,120.156,33.3942,盐城市,市监测站,,28,28,22,7,8,152,85,146,130,13,8,6,7,0.2,0.2
2023-06-12T21:00:00,1218A,120.2144,33.38,盐城市,开发区管委会,,28,21,20,14,12,155,89,148,132,12,10,4,5,0.3,0.4
2023-06-12T21:00:00,1220A,118.293,33.9528,宿迁市,宿迁学院,,36,36,38,18,17,162,81,144,140,66,21,9,10,0.4,0.4
2023-06-12T21:00:00,1221A,118.2442,33.9592,宿迁市,宿迁中学,,37,37,38,13,15,181,114,157,155,28,17,8,8,0.6,0.3
2023-06-12T21:00:00,1223A,120.2072,30.2111,杭州市,滨江,,31,31,37,16,21,211,77,188,169,20,13,6,7,0.5,0.5
2023-06-12T21:00:00,1224A,120.0633,30.2747,杭州市,西溪,,37,35,43,12,21,221,118,196,187,18,17,8,8,0.4,0.4
2023-06-12T21:00:00,1226A,120.3461,30.3153,杭州市,下沙,,26,26,31,13,16,213,71,181,157,14,10,4,4,0.4,0.4
2023-06-12T21:00:00,1227A,120.1269,30.2456,杭州市,卧龙桥,,36,29,38,14,26,238,114,206,193,13,13,6,5,0.5,0.6
2023-06-12T21:00:00,1228A,120.1903,30.2692,杭州市,浙江农大,,28,25,33,17,21,217,88,188,171,12,12,6,6,0.3,0.4
2023-06-12T21:00:00,1230A,120.1197,30.3119,杭州市,和睦小学,,34,34,40,16,24,219,88,191,175,23,17,6,6,0.4,0.5
2023-06-12T21:00:00,1231A,120.3019,30.4183,杭州市,临平镇,,,23,47,10,20,212,,181,170,9,8,4,4,0.3,0.4
2023-06-12T21:00:00,1232A,120.2697,30.1819,杭州市,城厢镇,,40,36,38,28,26,198,77,181,161,25,20,5,4,0.5,0.5
2023-06-12T21:00:00,1233A,120.0883,30.1808,杭州市,云栖,,35,27,43,14,23,226,111,210,194,21,17,8,7,0.7,0.7
2023-06-12T21:00:00,1234A,121.8358,29.911,宁波市,区环保大楼,,19,19,20,12,13,102,26,82,62,24,24,6,7,1.2,0.6
2023-06-12T21:00:00,1235A,121.56,29.82,宁波市,万里学院,,24,24,34,9,23,192,46,167,128,28,24,4,4,0.5,0.6
2023-06-12T21:00:00,1236A,121.713,29.9572,宁波市,龙赛医院,,29,29,20,10,9,100,11,82,54,44,21,13,7,0.5,0.4
2023-06-12T21:00:00,1239A,121.633,29.7733,宁波市,钱湖水厂,,,12,24,9,19,187,,135,104,20,15,5,5,0.3,0.4
2023-06-12T21:00:00,1240A,121.5856,29.8635,宁波市,太古小学,,25,25,40,11,21,168,36,142,104,37,24,10,9,0.6,0.7
2023-06-12T21:00:00,1241A,121.524,29.8674,宁波市,市环境监测中心,,22,22,31,7,14,169,22,149,109,44,20,6,4,0.4,0.4
2023-06-12T21:00:00,1242A,120.634,28.0089,温州市,瓯海,,30,30,46,17,31,203,88,162,134,16,22,7,7,0.4,0.5
2023-06-12T21:00:00,1243A,120.6748,27.9939,温州市,南浦,,26,25,52,18,32,205,80,160,131,8,14,4,4,0.3,0.4
2023-06-12T21:00:00,1244A,120.76,27.9747,温州市,龙湾,,21,18,50,9,27,167,65,140,110,12,17,7,6,0.4,0.5
2023-06-12T21:00:00,1245A,120.6709,28.0167,温州市,市站,,36,36,52,20,32,165,59,127,100,27,29,5,4,0.3,0.5
2023-06-12T21:00:00,1247A,120.6053,29.9928,绍兴市,城东开发委,,34,34,45,19,26,167,72,156,139,18,15,9,8,0.6,0.6
2023-06-12T21:00:00,1250A,120.0751,30.8669,湖州市,城西水厂,,27,27,32,10,19,197,86,182,172,23,17,6,6,0.4,0.4
2023-06-12T21:00:00,1252A,120.7436,30.778,嘉兴市,清河小学,,18,10,25,12,19,156,49,156,93,9,9,5,6,0,0.2
2023-06-12T21:00:00,1253A,120.726,30.7478,嘉兴市,嘉兴学院,,19,19,24,9,17,172,48,138,108,23,16,4,3,0.3,0.3
2023-06-12T21:00:00,1255A,121.273,28.6459,台州市,黄岩环保大楼,,18,18,38,10,26,163,50,127,92,13,12,4,4,0.2,0.3
2023-06-12T21:00:00,1256A,121.419,28.6542,台州市,台州环保大楼,,16,15,27,7,17,125,51,104,71,11,10,3,3,0.3,0.4
2023-06-12T21:00:00,1257A,121.377,28.5773,台州市,路桥田洋王,,17,13,30,6,18,150,53,115,80,12,12,5,5,0.2,0.4
2023-06-12T21:00:00,1258A,122.122,30.0203,舟山市,定海檀枫,,15,11,8,9,7,72,47,60,55,9,7,5,5,0.3,0.3
2023-06-12T21:00:00,1259A,122.3094,29.9558,舟山市,普陀东港,,18,14,8,12,7,67,55,57,57,5,5,5,5,0.2,0.2
2023-06-12T21:00:00,1260A,122.19,29.9944,舟山市,临城新区,,16,10,10,8,5,75,51,67,64,10,8,3,4,0.3,0.3
2023-06-12T21:00:00,1262A,119.647,29.077,金华市,十五中,细颗粒物(PM2.5),70,87,76,51,48,229,170,211,204,26,22,4,5,0.6,0.6
2023-06-12T21:00:00,1263A,119.686,29.1029,金华市,监测站,细颗粒物(PM2.5),67,70,61,48,45,216,170,201,194,24,22,4,5,0.6,0.6
2023-06-12T21:00:00,1264A,118.8692,28.9398,衢州市,环保大楼,,,70,63,47,43,210,138,198,182,,16,6,6,,0.8
2023-06-12T21:00:00,1265A,118.8709,28.9666,衢州市,实验学校,颗粒物(PM10),69,88,73,48,41,208,143,197,185,19,14,4,4,0.7,0.7
2023-06-12T21:00:00,1266A,118.8621,28.9808,衢州市,衢州学院,细颗粒物(PM2.5),80,84,64,59,42,194,122,186,170,27,19,7,6,0.6,0.6
2023-06-12T21:00:00,1267A,119.914,28.4514,丽水市,监测站大楼,细颗粒物(PM2.5),64,60,42,46,29,184,152,167,166,14,14,5,5,0.5,0.4
2023-06-12T21:00:00,1268A,119.93,28.4586,丽水市,莲都小学,颗粒物(PM10),57,64,46,30,24,193,153,174,172,18,13,5,5,0.6,0.6
2023-06-12T21:00:00,1269A,119.879,28.4231,丽水市,余庄前,颗粒物(PM10),53,56,44,32,25,171,89,154,138,21,15,5,5,0.5,0.5
2023-06-12T21:00:00,1270A,117.1959,31.7848,合肥市,明珠广场,,,,50,,25,229,178,188,187,20,21,7,8,0.6,0.6
2023-06-12T21:00:00,1271A,117.3072,31.8764,合肥市,三里街,臭氧1小时,88,51,57,31,27,200,190,187,187,20,24,6,8,0.7,0.6
2023-06-12T21:00:00,1272A,117.2588,31.8707,合肥市,琥珀山庄,臭氧1小时,102,48,53,27,28,208,203,200,200,18,19,6,6,0.8,0.7
2023-06-12T21:00:00,1273A,117.1604,31.9052,合肥市,董铺水库,臭氧1小时,75,46,53,22,22,217,180,171,171,19,18,4,5,0.7,0.5
2023-06-12T21:00:00,1274A,117.25,31.8571,合肥市,长江中路,臭氧1小时,84,53,55,27,29,210,187,186,186,19,17,13,13,0.9,0.7
2023-06-12T21:00:00,1275A,117.266,31.9436,合肥市,庐阳区,颗粒物(PM10),57,63,60,31,30,185,163,168,168,33,29,5,8,0.8,0.7
2023-06-12T21:00:00,1276A,117.336,31.8586,合肥市,瑶海区,臭氧1小时,70,61,62,27,26,190,176,181,181,20,21,9,10,0.8,0.7
2023-06-12T21:00:00,1277A,117.3027,31.7964,合肥市,包河区,臭氧1小时,58,51,52,22,26,207,166,180,179,28,22,8,8,0.8,0.6
2023-06-12T21:00:00,1278A,117.2776,31.7385,合肥市,滨湖新区,臭氧1小时,62,34,50,12,20,231,169,182,181,15,14,9,10,0.6,0.6
2023-06-12T21:00:00,1279A,117.1318,31.8403,合肥市,高新区,臭氧1小时,55,44,49,23,26,210,164,175,175,21,16,9,10,0.5,0.6
2023-06-12T21:00:00,1280A,119.3903,26.0543,福州市,鼓山,,,,,,,,,,,,,,,,
2023-06-12T21:00:00,1282A,119.2681,26.0504,福州市,师大,,33,26,37,12,16,149,103,134,122,5,11,5,5,0.3,0.5
2023-06-12T21:00:00,1283A,119.2984,26.1028,福州市,五四北路,,33,27,38,16,21,157,104,137,125,13,15,2,3,0.4,0.6
2023-06-12T21:00:00,1284A,119.2648,26.0768,福州市,杨桥西路,,30,29,42,12,21,146,96,130,119,10,15,3,4,0.4,0.6
2023-06-12T21:00:00,1285A,119.317,26.0746,福州市,紫阳,,31,28,37,13,19,136,99,124,116,11,14,2,3,0.4,0.5
2023-06-12T21:00:00,1286A,118.1608,24.8169,厦门市,溪东,,,,,,,,,,,,,,,,
2023-06-12T21:00:00,1287A,118.1514,24.4767,厦门市,洪文,,23,13,18,6,9,87,71,84,83,2,6,3,3,0.3,0.3
2023-06-12T21:00:00,1288A,118.0661,24.4444,厦门市,鼓浪屿,,20,14,22,10,15,93,62,88,83,10,15,2,3,0.4,0.5
2023-06-12T21:00:00,1290A,115.8931,28.6843,南昌市,省外办,细颗粒物(PM2.5),52,52,60,36,30,191,144,180,170,16,18,7,9,0.6,0.6
2023-06-12T21:00:00,1291A,115.8886,28.7003,南昌市,省林业公司,颗粒物(PM10),52,53,54,29,30,184,134,174,160,10,18,6,8,0.4,0.5
2023-06-12T21:00:00,1292A,115.8126,28.7442,南昌市,林科所,,45,44,42,31,24,218,126,192,176,24,19,9,11,0.8,0.7
2023-06-12T21:00:00,1294A,115.8518,28.687,南昌市,建工学校,颗粒物(PM10),53,55,55,30,23,209,137,187,176,17,10,12,13,0.5,0.6
2023-06-12T21:00:00,1295A,115.8921,28.6424,南昌市,象湖,,49,44,47,34,29,229,147,195,186,7,9,5,7,0.5,0.6
2023-06-12T21:00:00,1296A,115.7423,28.7996,南昌市,武术学校,,39,28,53,27,27,176,80,156,123,4,5,3,8,0.5,0.5
2023-06-12T21:00:00,1298A,115.9314,28.6842,南昌市,省站,,47,46,66,30,31,184,149,173,167,10,15,8,11,0.5,0.6
2023-06-12T21:00:00,1299A,116.9862,36.6114,济南市,科干所,,47,41,22,24,17,186,149,176,175,20,17,3,4,0.4,0.4
2023-06-12T21:00:00,1300A,116.9376,36.665,济南市,农科所,,42,39,25,20,14,189,134,173,169,24,16,3,3,0.3,0.3
2023-06-12T21:00:00,1301A,117.1265,36.6734,济南市,开发区,,42,42,38,22,14,192,115,181,175,33,17,4,4,0.7,0.5
2023-06-12T21:00:00,1303A,117.0624,36.6868,济南市,省种子仓库,,46,46,30,27,15,194,136,185,180,29,16,1,2,0.5,0.4
2023-06-12T21:00:00,1304A,116.9489,36.6447,济南市,机床二厂,颗粒物(PM10),52,54,27,17,12,196,143,186,182,32,18,3,4,0.4,0.4
2023-06-12T21:00:00,1305A,117.0495,36.663,济南市,市监测站,颗粒物(PM10),51,51,27,27,16,203,114,193,185,62,26,9,9,0.4,0.3
2023-06-12T21:00:00,1306A,116.7675,36.5484,济南市,长清党校,臭氧1小时,53,37,28,17,19,195,162,187,186,24,19,7,8,0.6,0.6
2023-06-12T21:00:00,1307A,120.6659,36.2403,青岛市,仰口,,47,29,21,12,12,182,149,167,162,11,12,4,4,0.4,0.5
2023-06-12T21:00:00,1310A,120.4134,36.0658,青岛市,市南区东部子站,,,29,25,9,12,197,,175,163,,19,,8,,0.3
2023-06-12T21:00:00,1311A,120.3664,36.1032,青岛市,四方区子站,,45,27,24,14,13,199,143,181,163,25,27,10,10,0.9,0.6
2023-06-12T21:00:00,1312A,120.2994,36.054,青岛市,市南区西部子站,,40,17,27,12,11,190,128,174,159,33,22,7,7,0.9,0.5
2023-06-12T21:00:00,1313A,120.4581,36.0858,青岛市,崂山区子站,,47,17,20,9,9,186,149,173,167,10,17,7,8,0.3,0.3
2023-06-12T21:00:00,1314A,120.1983,35.9608,青岛市,黄岛区子站,,43,19,18,10,11,195,135,172,161,13,16,6,6,0.6,0.5
2023-06-12T21:00:00,1315A,120.3999,36.3083,青岛市,城阳区子站,,36,36,27,10,12,178,113,162,145,40,19,6,5,0.5,0.4
2023-06-12T21:00:00,1316A,113.69031,34.76122,郑州市,烟厂,臭氧1小时,75,55,50,30,27,206,180,202,199,28,18,6,4,0.8,0.5
2023-06-12T21:00:00,1317A,113.65724,34.77134,郑州市,郑纺机,臭氧1小时,75,51,51,32,22,210,180,202,200,25,17,6,4,0.8,0.6
2023-06-12T21:00:00,1318A,113.67526,34.80246,郑州市,银行学校,"颗粒物(PM10),细颗粒物(PM2.5)",54,58,44,38,27,215,161,204,200,30,15,6,5,0.8,0.5
2023-06-12T21:00:00,1319A,113.56746,34.81334,郑州市,供水公司,颗粒物(PM10),58,66,58,34,25,204,151,196,190,31,20,9,7,0.6,0.3
2023-06-12T21:00:00,1320A,113.7329,34.7178,郑州市,经开区管委,臭氧1小时,69,55,49,41,26,196,175,190,189,24,14,5,3,0.7,0.5
2023-06-12T21:00:00,1321A,113.73961,34.77172,郑州市,四十七中,,,,44,39,27,203,,199,199,,14,,6,,0.4
2023-06-12T21:00:00,1322A,113.60532,34.74838,郑州市,市监测站,臭氧1小时,73,58,54,26,19,210,178,206,203,25,12,2,3,0.8,0.5
2023-06-12T21:00:00,1323A,113.64164,34.7525,郑州市,河医大,颗粒物(PM10),55,59,64,33,25,187,150,180,177,37,19,7,6,0.7,0.5
2023-06-12T21:00:00,1324A,113.51488,34.91089,郑州市,岗李水库,颗粒物(PM10),57,63,49,18,21,211,143,196,187,19,13,8,7,0.6,0.4
2023-06-12T21:00:00,1325A,114.3677,30.5584,武汉市,东湖梨园,臭氧1小时,83,77,63,42,32,248,186,228,226,22,25,8,7,1.0,0.9
2023-06-12T21:00:00,1326A,114.2529,30.558,武汉市,汉阳月湖,臭氧1小时,75,69,65,27,30,249,180,230,227,29,34,8,9,0.7,0.8
2023-06-12T21:00:00,1327A,114.282,30.6189,武汉市,汉口花桥,颗粒物(PM10),70,89,76,42,36,283,148,244,237,81,41,11,11,0.9,0.9
2023-06-12T21:00:00,1328A,114.3025,30.5332,武汉市,武昌紫阳,臭氧1小时,88,69,55,34,32,260,190,236,233,29,30,8,8,0.8,0.8
2023-06-12T21:00:00,1329A,114.3646,30.6217,武汉市,青山钢花,臭氧1小时,110,81,77,51,41,336,219,285,283,25,28,11,14,1.0,0.9
2023-06-12T21:00:00,1330A,114.1566,30.4825,武汉市,沌口新区,"颗粒物(PM10),细颗粒物(PM2.5)",55,60,60,39,28,233,139,213,201,39,33,5,6,0.6,0.6
2023-06-12T21:00:00,1331A,114.3014,30.5944,武汉市,汉口江滩,颗粒物(PM10),58,66,63,36,35,312,161,223,175,59,56,8,10,0.8,0.8
2023-06-12T21:00:00,1333A,114.135,30.6319,武汉市,吴家山,颗粒物(PM10),59,68,77,39,35,289,157,246,239,34,43,6,7,0.6,0.7
2023-06-12T21:00:00,1334A,113.8454,30.2917,武汉市,沉湖七壕,,48,48,37,19,14,175,146,167,165,18,11,5,6,0.6,0.5
2023-06-12T21:00:00,1335A,113.0833,28.2325,长沙市,经开区环保局,,50,50,38,26,16,188,133,164,158,10,13,5,6,0.6,0.5
2023-06-12T21:00:00,1336A,112.8872,28.2189,长沙市,高开区环保局,颗粒物(PM10),51,52,41,27,19,190,121,160,151,12,12,6,7,0.6,0.5
2023-06-12T21:00:00,1337A,113.0792,28.2053,长沙市,马坡岭,,,43,38,35,24,196,,174,173,12,12,5,5,0.4,0.4
2023-06-12T21:00:00,1338A,112.9394,28.19,长沙市,湖南师范大学,,42,42,38,26,25,164,96,139,130,2,5,3,4,0.5,0.4
2023-06-12T21:00:00,1339A,113.0178,28.1322,长沙市,雨花区环保局,颗粒物(PM10),51,51,42,26,20,207,130,176,169,12,13,5,6,0.5,0.5
2023-06-12T21:00:00,1340A,112.9792,28.2597,长沙市,伍家岭,,48,48,47,26,17,156,110,140,133,16,21,4,4,0.3,0.3
2023-06-12T21:00:00,1341A,113.0014,28.1944,长沙市,火车新站,,37,35,34,22,16,188,117,162,153,10,12,6,7,0.7,0.7
2023-06-12T21:00:00,1342A,112.9844,28.1178,长沙市,天心区环保局,颗粒物(PM10),51,51,43,26,18,185,106,162,148,15,15,2,3,0.5,0.5
2023-06-12T21:00:00,1343A,112.8908,28.1308,长沙市,湖南中医药大学,"颗粒物(PM10),细颗粒物(PM2.5)",52,53,43,36,22,187,92,153,141,20,11,4,4,0.8,0.6
2023-06-12T21:00:00,1344A,112.9581,28.3611,长沙市,沙坪,,44,44,34,25,20,158,110,140,126,7,5,6,6,0.6,0.5
2023-06-12T21:00:00,1345A,113.2347,23.1423,广州市,广雅中学,,32,30,29,18,18,154,101,137,127,31,22,3,4,0.8,0.7
2023-06-12T21:00:00,1346A,113.2612,23.105,广州市,市五中,,44,44,28,19,16,169,120,162,153,28,15,4,4,0.7,0.6
2023-06-12T21:00:00,1348A,113.3478,23.0916,广州市,广东商学院,,39,33,27,19,16,159,124,149,142,30,20,5,5,0.7,0.6
2023-06-12T21:00:00,1349A,113.4332,23.1047,广州市,市八十六中,,36,34,34,11,14,160,115,145,140,34,28,4,4,0.6,0.6
2023-06-12T21:00:00,1350A,113.3505,22.9483,广州市,番禺中学,,34,23,29,15,10,222,107,202,190,31,25,7,8,0.7,0.6
2023-06-12T21:00:00,1351A,113.2146,23.3916,广州市,花都师范,,41,41,44,16,21,158,96,152,141,26,31,6,6,0.7,0.5
2023-06-12T21:00:00,1352A,113.2597,23.1331,广州市,市监测站,,,18,25,13,14,166,,149,143,34,23,6,6,0.9,0.7
2023-06-12T21:00:00,1353A,113.5618,23.312,广州市,九龙镇镇龙,颗粒物(PM10),53,55,45,29,22,105,26,101,87,41,23,5,5,0.8,0.7
2023-06-12T21:00:00,1354A,113.2765,23.1544,广州市,麓湖,,35,35,29,20,18,161,98,147,132,31,22,6,6,0.8,0.8
2023-06-12T21:00:00,1355A,113.443,23.3035,广州市,帽峰山森林公园,,30,27,30,16,16,138,96,127,112,11,19,7,8,0.5,0.5
2023-06-12T21:00:00,1356A,114.1063,22.5545,深圳市,通心岭子站,,19,11,12,5,5,118,60,97,81,6,9,3,3,0.7,0.8
2023-06-12T21:00:00,1357A,114.117,22.5625,深圳市,洪湖,,28,10,8,19,14,137,67,110,91,11,13,5,5,0.6,0.7
2023-06-12T21:00:00,1358A,113.987,22.5417,深圳市,华侨城,,18,18,18,0,8,174,55,121,102,10,13,6,6,0.6,0.7
2023-06-12T21:00:00,1359A,113.9181,22.5171,深圳市,南海子站,,19,12,22,9,10,160,58,119,100,11,20,4,4,0.6,0.7
2023-06-12T21:00:00,1360A,114.2458,22.5689,深圳市,盐田,,22,13,12,2,7,92,68,86,77,7,7,4,4,0.6,0.6
2023-06-12T21:00:00,1361A,114.2283,22.7244,深圳市,龙岗,,22,10,17,4,7,134,69,113,95,2,3,8,5,0.6,0.7
2023-06-12T21:00:00,1363A,114.494,22.5422,深圳市,南澳,,17,10,14,2,6,90,52,79,72,6,6,4,4,0.7,0.7
2023-06-12T21:00:00,1364A,114.41,22.6342,深圳市,葵涌,,15,8,13,5,6,81,48,70,63,9,8,7,6,0.5,0.6
2023-06-12T21:00:00,1365A,114.297,22.5978,深圳市,梅沙,,,12,15,3,6,109,79,97,91,3,5,4,4,,0.6
2023-06-12T21:00:00,1366A,114.0678,22.738,深圳市,观澜,,15,15,27,6,13,140,46,121,102,18,16,7,7,0.6,0.6
2023-06-12T21:00:00,1367A,113.5814,22.2618,珠海市,吉大,,25,15,14,5,6,154,77,119,107,16,14,8,8,0.3,0.3
2023-06-12T21:00:00,1368A,113.4881,22.2335,珠海市,前山,,,,,,,,,,,,,,,,
2023-06-12T21:00:00,1369A,113.628,22.4251,珠海市,唐家,,19,13,14,9,6,190,58,137,111,18,11,8,7,0.3,0.3
2023-06-12T21:00:00,1370A,113.299,22.2281,珠海市,斗门,,26,11,12,18,10,142,76,122,112,6,9,7,7,0.5,0.5
2023-06-12T21:00:00,1371A,113.1294,23.0067,佛山市,湾梁,臭氧1小时,75,53,30,23,17,211,180,192,190,28,17,4,4,0.6,0.4
2023-06-12T21:00:00,1372A,113.1083,23.0478,佛山市,华材职中,臭氧1小时,103,53,29,34,19,212,205,194,194,27,17,6,6,0.8,0.6
2023-06-12T21:00:00,1373A,113.144,23.0453,佛山市,南海气象局,,,66,35,27,17,176,,150,147,33,20,5,5,0.6,0.6
2023-06-12T21:00:00,1374A,113.2881,22.8094,佛山市,顺德苏岗,,34,30,20,22,15,179,108,162,156,20,15,5,6,0.6,0.5
2023-06-12T21:00:00,1376A,112.8383,22.8678,佛山市,高明孔堂,臭氧1小时,59,50,38,29,19,256,167,233,230,19,14,5,5,0.9,0.7
2023-06-12T21:00:00,1377A,112.8836,23.1588,佛山市,三水监测站,,44,44,49,24,27,199,104,190,173,27,36,4,5,0.6,0.6
2023-06-12T21:00:00,1378A,112.867,23.185,佛山市,三水云东海,,42,42,44,24,26,199,98,183,158,18,24,3,5,0.6,0.6
2023-06-12T21:00:00,1379A,113.3769,22.5211,中山市,华柏园,,32,18,25,12,14,245,102,200,187,15,15,5,4,0.4,0.4
2023-06-12T21:00:00,1380A,113.3881,22.5497,中山市,张溪,,48,48,32,10,12,251,114,204,194,10,13,4,4,0.5,0.5
2023-06-12T21:00:00,1381A,113.4075,22.5111,中山市,紫马岭,,,23,26,11,14,226,,190,190,8,7,4,5,0.3,0.4
2023-06-12T21:00:00,1382A,113.4411,22.4853,中山市,长江旅游区,,28,13,22,11,11,227,87,185,174,9,9,9,8,0.4,0.5
2023-06-12T21:00:00,1383A,113.1064,22.6058,江门市,北街,,32,23,28,13,14,243,101,206,191,14,14,5,5,0.5,0.4
2023-06-12T21:00:00,1384A,113.0731,22.5835,江门市,西区,,45,45,29,18,15,240,88,209,190,16,12,4,5,0.5,0.5
2023-06-12T21:00:00,1385A,113.0219,22.5311,江门市,圭峰西,,29,15,28,7,14,234,90,200,184,13,11,3,4,0.5,0.5
2023-06-12T21:00:00,1386A,113.0828,22.5947,江门市,东湖,,36,36,31,18,17,225,109,203,187,13,12,5,5,0.5,0.5
2023-06-12T21:00:00,1389A,113.7547,23.0494,东莞市,莞城梨川,,33,33,27,14,14,162,101,145,139,22,17,9,9,0.9,0.8
2023-06-12T21:00:00,1390A,113.7944,23.0128,东莞市,东城石井,,26,18,25,10,13,172,83,144,138,23,16,7,8,0.7,0.6
2023-06-12T21:00:00,1391A,113.7383,22.9658,东莞市,南城西平,,32,32,32,13,15,183,84,156,149,28,23,6,4,0.7,0.6
2023-06-12T21:00:00,1392A,114.4183,23.0528,惠州市,河南岸金山湖子站,,29,29,27,4,9,109,62,103,90,10,11,2,3,0.7,0.7
2023-06-12T21:00:00,1393A,114.4053,23.0822,惠州市,下埔横江三路子站,,20,20,22,7,9,119,61,106,94,8,9,5,5,0.6,0.7
2023-06-12T21:00:00,1394A,114.4103,23.1142,惠州市,江北云山西路子站,,25,25,26,9,10,122,62,108,97,4,5,7,8,0.5,0.6
2023-06-12T21:00:00,1395A,114.4645,22.7833,惠州市,惠阳区承修路船湖子站,,19,6,18,8,8,115,59,93,84,8,9,3,3,0.6,0.7
2023-06-12T21:00:00,1396A,114.5317,22.7422,惠州市,大亚湾管委会子站,,20,7,16,8,8,99,63,86,78,9,12,3,3,0.4,0.5
2023-06-12T21:00:00,1397A,112.4267,23.0706,肇庆市,睦岗子站,颗粒物(PM10),57,64,54,31,28,205,106,190,173,38,32,10,17,0.5,0.2
2023-06-12T21:00:00,1398A,112.4645,23.0475,肇庆市,城中子站,颗粒物(PM10),51,52,51,33,35,196,86,190,174,64,41,10,20,0.7,0.7
2023-06-12T21:00:00,1399A,112.5544,23.1522,肇庆市,坑口子站,,46,42,46,32,29,213,127,193,182,15,18,5,10,0.5,0.5
2023-06-12T21:00:00,1400A,112.4753,23.1,肇庆市,七星岩子站,臭氧1小时,63,40,46,23,26,212,170,189,189,11,18,7,11,0.5,0.6
2023-06-12T21:00:00,1401A,108.3103,22.7881,南宁市,二十一中,,40,25,32,22,17,173,127,149,140,14,15,5,5,0.7,0.6
2023-06-12T21:00:00,1402A,108.3141,22.8528,南宁市,北湖,,39,36,36,27,21,180,119,152,139,11,14,6,7,1.0,0.9
2023-06-12T21:00:00,1403A,108.3206,22.8225,南宁市,市监测站,,49,39,32,34,20,182,120,147,135,19,22,8,7,0.6,0.6
2023-06-12T21:00:00,1404A,108.3829,22.8037,南宁市,大自然花园,,45,45,29,22,17,143,110,125,118,12,14,6,6,0.7,0.7
2023-06-12T21:00:00,1405A,108.4394,22.7904,南宁市,仙葫,,46,46,34,27,19,134,110,124,119,12,14,5,5,0.6,0.5
2023-06-12T21:00:00,1406A,108.2397,22.8467,南宁市,区农职院,,42,42,42,21,21,186,119,162,148,17,18,6,9,0.8,0.7
2023-06-12T21:00:00,1407A,108.3275,22.735,南宁市,英华嘉园,,39,32,37,27,19,139,93,125,115,32,22,5,5,1.0,0.8
2023-06-12T21:00:00,1408A,108.2257,22.7757,南宁市,沙井镇街道办,,47,47,38,30,19,149,87,135,122,33,24,8,9,0.7,0.6
2023-06-12T21:00:00,1409A,110.576,19.9507,海口市,东寨港,,,,,,,,,,,,,,,,
2023-06-12T21:00:00,1410A,110.3232,20.0574,海口市,海南大学,,35,33,17,24,9,97,59,77,76,31,15,5,5,0.6,0.4
2023-06-12T21:00:00,1411A,110.283,20.0053,海口市,秀英海南医院,颗粒物(PM10),51,52,23,22,13,109,47,88,83,53,22,5,5,0.6,0.5
2023-06-12T21:00:00,1412A,110.338,19.9969,海口市,海南师范大学,,38,38,21,20,11,131,60,92,90,21,15,5,5,0.5,0.4
2023-06-12T21:00:00,1413A,110.33,20.0356,海口市,龙华路环保局宿舍,,46,46,18,21,11,112,81,91,91,24,16,5,6,0.5,0.4
2023-06-12T21:00:00,1414A,106.3787,29.8279,重庆市,缙云山,,43,16,30,8,15,218,135,204,168,24,21,7,12,0.1,0.1
2023-06-12T21:00:00,1416A,106.4213,29.8253,重庆市,天生,,36,34,57,25,33,192,93,160,154,33,43,6,6,0.5,0.7
2023-06-12T21:00:00,1417A,106.6263,29.7228,重庆市,两路,,31,31,34,9,15,171,74,142,132,50,63,6,7,0.7,0.8
2023-06-12T21:00:00,1418A,106.2953,29.5983,重庆市,虎溪,,34,34,43,7,24,157,76,138,131,29,37,6,8,0.6,0.5
2023-06-12T21:00:00,1419A,106.5777,29.5102,重庆市,南坪,,30,26,35,17,24,140,93,128,123,12,26,3,5,0.5,0.5
2023-06-12T21:00:00,1420A,106.6556,29.6277,重庆市,唐家沱,,30,30,36,19,20,151,77,131,123,36,43,5,5,0.7,0.8
2023-06-12T21:00:00,1421A,106.6349,29.4906,重庆市,茶园,,36,36,47,15,21,137,78,125,116,24,44,4,5,0.7,0.7
2023-06-12T21:00:00,1422A,106.3754,29.4572,重庆市,白市驿,,38,15,35,26,22,159,88,136,128,12,20,12,13,0.6,0.7
2023-06-12T21:00:00,1425A,106.6205,29.7166,重庆市,空港,,36,36,40,21,25,180,90,149,144,32,53,6,7,0.5,0.6
2023-06-12T21:00:00,1426A,106.4782,29.4875,重庆市,新山村,,43,43,53,14,23,142,76,123,114,26,63,6,11,0.2,0.4
2023-06-12T21:00:00,1427A,106.5616,29.6453,重庆市,礼嘉,,27,24,46,17,22,180,86,150,141,35,68,5,7,0.7,0.9
2023-06-12T21:00:00,1428A,106.4522,29.7091,重庆市,蔡家,,41,41,54,25,29,178,73,147,138,40,40,6,8,0.5,0.7
2023-06-12T21:00:00,1429A,106.5093,29.3917,重庆市,鱼新街,,27,27,41,11,22,117,75,102,100,21,45,5,11,0.7,0.8
2023-06-12T21:00:00,1431A,103.9728,30.7236,成都市,金泉两河,颗粒物(PM10),52,53,53,25,24,284,160,233,221,16,30,3,5,0.3,0.4
2023-06-12T21:00:00,1432A,104.176,30.6872,成都市,十里店,,,,36,,15,192,125,166,162,,31,,3,0.4,0.5
2023-06-12T21:00:00,1433A,104.079,30.5706,成都市,三瓦窑,颗粒物(PM10),54,57,36,17,16,134,129,134,132,22,60,1,2,0.4,0.4
2023-06-12T21:00:00,1434A,104.1114,30.63,成都市,沙河铺,,44,44,33,18,11,205,124,181,172,16,25,2,2,0.5,0.6
2023-06-12T21:00:00,1437A,104.0786,30.6531,成都市,君平街,,45,39,41,30,26,234,142,205,193,16,30,5,4,0.3,0.5
2023-06-12T21:00:00,1438A,103.613,31.0283,成都市,灵岩寺,,50,26,28,16,19,210,160,188,185,6,9,6,15,0.6,0.7
2023-06-12T21:00:00,1439A,106.6899,26.5998,贵阳市,马鞍山,,25,22,36,17,23,78,52,68,64,11,17,5,5,0.7,0.7
2023-06-12T21:00:00,1440A,106.6971,26.5694,贵阳市,市环保站,,29,24,41,20,31,114,70,97,89,23,22,3,7,0.2,0.3
2023-06-12T21:00:00,1441A,106.6243,26.6266,贵阳市,鉴湖路,,39,39,41,24,24,99,34,85,64,29,23,2,4,0.5,0.5
2023-06-12T21:00:00,1442A,106.7487,26.6343,贵阳市,燕子冲,,35,17,46,24,32,105,60,89,84,15,17,5,7,0.4,0.6
2023-06-12T21:00:00,1443A,106.6555,26.4365,贵阳市,碧云窝,,29,29,43,14,22,113,75,99,89,18,19,4,5,0.3,0.3
2023-06-12T21:00:00,1444A,106.694,26.5161,贵阳市,中院村,,29,29,47,14,25,104,68,91,81,23,22,5,9,0.5,0.5
2023-06-12T21:00:00,1445A,106.7109,26.6027,贵阳市,红边门,,26,22,41,9,26,115,83,96,91,10,16,4,8,0.4,0.5
2023-06-12T21:00:00,1446A,106.7164,26.5699,贵阳市,新华路,,24,22,41,14,26,112,76,97,91,17,18,2,5,0.3,0.3
2023-06-12T21:00:00,1447A,106.674,26.5424,贵阳市,太慈桥,,34,34,43,14,20,110,37,94,79,38,25,2,4,0.5,0.5
2023-06-12T21:00:00,1450A,102.8204,24.8886,昆明市,呈贡新区,,49,49,43,32,31,119,72,99,87,26,18,7,8,0.7,0.7
2023-06-12T21:00:00,1451A,102.6251,24.9608,昆明市,西山森林公园,,28,26,32,6,23,122,87,116,101,8,9,5,6,0.6,0.7
2023-06-12T21:00:00,1452A,102.7252,25.0902,昆明市,龙泉镇,,39,36,39,27,30,111,81,102,92,11,16,7,12,0.7,0.7
2023-06-12T21:00:00,1453A,102.7266,25.0375,昆明市,东风东路,,37,37,41,22,25,108,75,98,89,18,21,6,11,0.6,0.6
2023-06-12T21:00:00,1454A,102.6742,25.0669,昆明市,金鼎山,,43,43,53,27,34,109,76,90,90,18,24,24,42,0.5,0.5
2023-06-12T21:00:00,1455A,102.6644,25.0401,昆明市,碧鸡广场,,38,35,52,26,26,113,76,94,91,18,22,8,15,0.6,0.6
2023-06-12T21:00:00,1456A,91.1319,29.6514,拉萨市,八廓街,颗粒物(PM10),56,62,18,11,7,170,146,158,157,12,8,6,5,0.3,0.3
2023-06-12T21:00:00,1457A,91.1221,29.6747,拉萨市,市环保局,颗粒物(PM10),52,53,14,11,6,169,149,159,159,11,12,5,5,0.3,0.2
2023-06-12T21:00:00,1458A,91.0874,29.6475,拉萨市,区监测站,颗粒物(PM10),111,172,23,21,8,165,138,152,151,16,14,7,7,0.2,0.2
2023-06-12T21:00:00,1459A,91.1774,29.6541,拉萨市,西藏大学,,,28,12,,5,167,159,160,160,6,8,7,7,0.3,0.2
2023-06-12T21:00:00,1460A,90.9798,29.6588,拉萨市,区辐射站,颗粒物(PM10),54,58,18,11,6,152,136,142,141,12,12,8,8,0.2,0.2
2023-06-12T21:00:00,1461A,91.0834,29.6292,拉萨市,拉萨火车站,颗粒物(PM10),137,223,27,32,11,163,,153,153,10,10,8,8,0.3,0.2
2023-06-12T21:00:00,1462A,108.882,34.2749,西安市,高压开关厂,颗粒物(PM10),51,51,86,27,39,166,87,137,123,53,46,8,10,0.4,0.4
2023-06-12T21:00:00,1463A,108.993,34.2629,西安市,兴庆小区,,46,46,73,24,30,178,85,130,120,16,26,6,8,0.5,0.7
2023-06-12T21:00:00,1464A,109.06,34.2572,西安市,纺织城,,50,50,73,26,34,171,71,135,117,41,38,5,7,0.5,0.5
2023-06-12T21:00:00,1465A,108.9356,34.2173,西安市,小寨,颗粒物(PM10),54,57,73,18,30,183,76,129,115,35,30,9,10,0.5,0.5
2023-06-12T21:00:00,1466A,108.954,34.2713,西安市,市人民体育场,颗粒物(PM10),53,56,80,24,36,204,97,129,117,26,37,7,9,0.4,0.4
2023-06-12T21:00:00,1467A,108.8922,34.2322,西安市,高新西区,,46,46,65,26,31,197,93,133,122,40,33,6,8,0.7,0.7
2023-06-12T21:00:00,1468A,108.935,34.3474,西安市,经开区,颗粒物(PM10),54,57,73,25,34,153,85,136,124,40,35,3,5,0.5,0.4
2023-06-12T21:00:00,1469A,108.906,34.1546,西安市,长安区,颗粒物(PM10),55,60,71,30,32,176,82,139,122,30,30,4,5,0.5,0.5
2023-06-12T21:00:00,1471A,109.2186,34.3731,西安市,临潼区,,40,25,79,19,35,165,126,150,148,16,37,6,9,0.4,0.7
2023-06-12T21:00:00,1472A,108.869,34.378,西安市,草滩,颗粒物(PM10),55,60,72,14,21,154,36,128,106,100,33,10,11,0.7,0.7
2023-06-12T21:00:00,1473A,108.985,34.1978,西安市,曲江文化产业集团,,,,79,,37,164,,134,123,,36,,6,,0.4
2023-06-12T21:00:00,1474A,109.051,34.3213,西安市,广运潭,颗粒物(PM10),51,52,77,24,36,143,99,130,123,16,29,7,9,0.5,0.6
2023-06-12T21:00:00,1476A,103.631,36.1031,兰州市,兰炼宾馆,,40,38,35,28,29,128,106,119,114,26,15,22,10,0.6,0.4
2023-06-12T21:00:00,1477A,104.1373,35.9454,兰州市,榆中兰大校区,,,,,,,,,,,,,,,,
2023-06-12T21:00:00,1478A,103.8412,36.0726,兰州市,生物制品所,,42,37,39,29,30,141,111,130,126,24,20,10,11,0.7,0.7
2023-06-12T21:00:00,1479A,103.831,36.0464,兰州市,铁路设计院,,43,43,36,27,20,123,95,114,109,36,23,11,7,0.7,0.7
2023-06-12T21:00:00,1483A,101.524,36.6867,西宁市,第五水厂,,,,,,,,,,,,,,,,
2023-06-12T21:00:00,1484A,105.9512,38.6016,银川市,贺兰山马莲口,,40,24,21,20,11,182,126,158,157,9,10,14,27,0.4,0.5
2023-06-12T21:00:00,1488A,106.2328,38.4975,银川市,贺兰山东路,,43,43,28,17,15,163,111,144,142,27,21,8,12,0.3,0.3
2023-06-12T21:00:00,1489A,106.1358,38.5036,银川市,学院路,颗粒物(PM10),59,68,33,15,14,165,104,144,142,29,20,12,17,0.4,0.5
2023-06-12T21:00:00,1490A,87.5801,43.8303,乌鲁木齐市,监测站,,43,43,181,12,34,127,71,111,104,35,20,10,9,0.6,0.5
2023-06-12T21:00:00,1491A,87.6046,43.768,乌鲁木齐市,收费所,颗粒物(PM10),53,56,210,15,44,128,89,108,108,25,23,5,6,0.3,0.3
2023-06-12T21:00:00,1492A,87.4754,43.9469,乌鲁木齐市,新疆农科院农场,颗粒物(PM10),62,74,163,22,47,117,69,105,98,38,26,15,13,1.0,0.6
2023-06-12T21:00:00,1493A,87.5525,43.8711,乌鲁木齐市,铁路局,,42,42,163,20,40,127,69,110,102,38,18,12,9,0.7,0.4
2023-06-12T21:00:00,1494A,87.6432,43.831,乌鲁木齐市,三十一中学,颗粒物(PM10),78,106,197,22,36,129,64,114,105,38,17,15,15,0.6,0.3
2023-06-12T21:00:00,1496A,87.7216,44.1747,乌鲁木齐市,米东区环保局,细颗粒物(PM2.5),83,60,198,61,54,140,86,125,116,18,4,12,7,0.4,0.3
2023-06-12T21:00:00,1508A,112.9433,27.8614,湘潭市,板塘,颗粒物(PM10),55,60,45,31,27,210,112,172,162,20,18,8,9,0.2,0.2
2023-06-12T21:00:00,1511A,112.9118,27.8403,湘潭市,市监测站,颗粒物(PM10),57,63,42,36,22,233,123,200,188,16,14,5,5,0.7,0.6
2023-06-12T21:00:00,1512A,112.8937,27.8728,湘潭市,江麓,颗粒物(PM10),56,62,49,32,21,211,115,182,169,14,11,11,9,0.2,0.2
2023-06-12T21:00:00,1513A,112.9227,27.8159,湘潭市,岳塘,颗粒物(PM10),54,58,46,30,20,210,121,183,172,12,10,5,5,0.9,0.8
2023-06-12T21:00:00,1514A,112.9074,27.9119,湘潭市,科大,,,74,51,38,21,208,110,181,166,27,17,,17,0.5,0.4
2023-06-12T21:00:00,1515A,113.135,27.8244,株洲市,天台山庄,颗粒物(PM10),61,72,51,32,23,239,137,197,189,15,15,5,6,0.7,0.6
2023-06-12T21:00:00,1518A,113.095,27.8867,株洲市,株冶医院,颗粒物(PM10),64,78,47,44,25,220,94,176,166,40,17,7,4,1.0,0.6
2023-06-12T21:00:00,1519A,113.167,27.8667,株洲市,市四中,颗粒物(PM10),62,74,49,43,26,238,143,194,190,12,15,5,4,0.6,0.5
2023-06-12T21:00:00,1520A,113.143,27.8381,株洲市,火车站,颗粒物(PM10),61,72,55,36,27,245,149,198,192,10,13,6,6,0.7,0.7
2023-06-12T21:00:00,1524A,113.13,27.8528,株洲市,市监测站,,,74,51,38,27,243,,195,194,,16,7,6,0.8,0.7
2023-06-12T21:00:00,1552A,106.805,26.3003,贵阳市,桐木岭,,,,,,,,,,,,,,,,
2023-06-12T21:00:00,1559A,113.251,27.8336,株洲市,大京风景区,颗粒物(PM10),57,63,43,28,24,167,74,144,124,11,7,6,8,0.6,0.5
2023-06-12T21:00:00,1562A,113.0048,27.9153,湘潭市,昭山,颗粒物(PM10),57,63,46,32,23,235,106,194,181,25,16,4,4,0.7,0.6
2023-06-12T21:00:00,1564A,112.4876,27.9164,湘潭市,韶山,颗粒物(PM10),55,60,49,29,20,114,96,107,104,7,9,6,6,0.5,0.5
2023-06-12T21:00:00,1585A,109.8756,40.6532,包头市,市环境监测站,,40,20,92,13,16,138,127,135,134,11,10,11,12,0.4,0.5
2023-06-12T21:00:00,1587A,109.9991,40.5842,包头市,包头八中,,37,27,52,5,9,143,116,137,135,21,20,8,10,0.5,0.6
2023-06-12T21:00:00,1588A,109.8538,40.6821,包头市,青山宾馆,,42,27,90,4,18,138,133,136,136,9,11,7,8,0.3,0.4
2023-06-12T21:00:00,1589A,109.8642,40.6288,包头市,惠龙物流,,,,,,,,,,,,,,,,
2023-06-12T21:00:00,1590A,110.0377,40.5546,包头市,东河鸿龙湾,,40,19,52,6,8,152,125,142,142,12,12,8,10,0.4,0.5
2023-06-12T21:00:00,1591A,110.0023,39.8129,鄂尔多斯市,综合楼,,36,27,79,5,12,141,115,134,133,27,25,5,39,0.5,0.4
2023-06-12T21:00:00,1592A,109.9486,39.8261,鄂尔多斯市,巴音孟克林场办事处,,42,39,64,7,12,154,133,145,145,18,17,17,30,0.3,0.3
2023-06-12T21:00:00,1593A,109.7736,39.5986,鄂尔多斯市,康泽苑,,37,34,39,2,2,153,117,145,143,25,13,8,12,0.5,0.5
2023-06-12T21:00:00,1594A,109.8119,39.5989,鄂尔多斯市,华泰汽车城,,28,24,37,12,11,147,87,139,134,40,21,6,8,0.5,0.4
2023-06-12T21:00:00,1595A,109.9734,39.7884,鄂尔多斯市,奥林花园,,39,39,70,9,13,151,119,145,143,20,14,8,22,0.6,0.6
2023-06-12T21:00:00,1597A,122.2703,40.7094,营口市,大庆路,,35,30,39,11,18,142,112,136,130,13,19,3,4,0.6,0.7
2023-06-12T21:00:00,1598A,122.2150,40.6511,营口市,镜湖西路,,31,26,30,14,16,140,99,134,128,24,19,7,6,0.4,0.5
2023-06-12T21:00:00,1599A,122.1658,40.6789,营口市,西炮台,,38,18,21,13,13,137,120,133,129,13,21,8,8,0.5,0.5
2023-06-12T21:00:00,1600A,124.3303,40.0625,丹东市,江湾东路,,29,29,22,17,14,140,74,132,121,36,14,7,7,0.6,0.5
2023-06-12T21:00:00,1601A,124.4256,40.1503,丹东市,临江后街,,32,27,15,15,9,142,101,133,128,17,9,7,6,0.6,0.4
2023-06-12T21:00:00,1602A,124.3933,40.1461,丹东市,元宝山,,37,37,13,12,12,136,104,127,120,16,14,7,7,0.5,0.4
2023-06-12T21:00:00,1603A,124.3633,40.1092,丹东市,民主桥,,30,30,16,17,8,136,50,126,115,45,15,6,7,0.6,0.4
2023-06-12T21:00:00,1604A,122.0303,41.1489,盘锦市,开发区,,48,29,27,33,32,142,80,118,101,42,35,6,14,0.6,0.6
2023-06-12T21:00:00,1605A,122.0485,41.0883,盘锦市,兴隆台,,30,27,29,21,24,133,86,112,93,26,26,5,10,0.6,0.6
2023-06-12T21:00:00,1606A,121.8297,41.1028,盘锦市,新生街道,,25,18,24,15,25,131,78,106,89,20,24,4,9,0.5,0.6
2023-06-12T21:00:00,1607A,120.9092,40.7136,葫芦岛市,龙港区,,27,16,32,13,23,128,84,109,91,16,24,8,18,0.5,0.6
2023-06-12T21:00:00,1608A,120.8392,40.7514,葫芦岛市,化工街,,23,19,36,12,22,131,54,104,75,45,48,7,12,0.7,0.7
2023-06-12T21:00:00,1609A,120.8341,40.7073,葫芦岛市,新区,,29,24,34,20,30,123,58,101,79,32,39,10,14,0.6,0.6
2023-06-12T21:00:00,1610A,120.8695,40.7677,葫芦岛市,东城区,,48,25,35,33,23,137,38,103,69,64,45,11,23,0.9,0.6
2023-06-12T21:00:00,1611A,118.5819,24.9117,泉州市,涂山街,,27,17,21,9,13,126,86,107,101,10,10,7,8,0.5,0.6
2023-06-12T21:00:00,1612A,118.5972,24.8978,泉州市,津头埔,,24,14,17,10,15,117,75,97,90,15,14,7,8,0.5,0.6
2023-06-12T21:00:00,1613A,118.6663,24.9424,泉州市,万安,,29,18,24,9,15,130,90,112,104,4,8,6,7,0.5,0.6
2023-06-12T21:00:00,1614A,118.6117,24.9604,泉州市,清源山,,,,,,,,,,,,,,,,
2023-06-12T21:00:00,1616A,117.6795,36.229,济南市,技术学院,细颗粒物(PM2.5),59,53,20,42,17,206,139,182,179,43,20,8,10,0.8,0.7
2023-06-12T21:00:00,1618A,118.3429,35.0532,临沂市,沂河小区,细颗粒物(PM2.5),60,51,26,43,16,194,155,173,173,27,16,10,7,0.4,0.2
2023-06-12T21:00:00,1619A,118.295,35.0583,临沂市,鲁南制药厂,,,56,24,36,15,214,157,190,190,37,18,7,5,,0.4
2023-06-12T21:00:00,1620A,118.2794,34.9976,临沂市,新光毛纺厂,,49,48,22,20,13,211,154,190,190,31,18,12,6,0.5,0.3
2023-06-12T21:00:00,1621A,118.3956,35.0888,临沂市,河东保险公司,,48,48,22,7,9,187,105,160,160,42,16,9,9,0.5,0.3
2023-06-12T21:00:00,1622A,116.3032,37.4674,德州市,儿童乐园,,48,48,35,22,21,195,143,188,181,36,17,4,5,0.5,0.4
2023-06-12T21:00:00,1624A,116.2991,37.4451,德州市,监理站,臭氧1小时,54,39,39,14,14,187,163,182,180,18,13,6,8,0.4,0.3
2023-06-12T21:00:00,1625A,115.9848,36.4372,聊城市,区政府,臭氧1小时,67,81,48,28,23,211,173,204,200,13,9,7,8,0.5,0.5
2023-06-12T21:00:00,1628A,118.0062,37.3803,滨州市,市环保局,,40,39,31,24,19,169,125,165,160,20,16,7,6,0.4,0.4
2023-06-12T21:00:00,1629A,118.0018,37.3617,滨州市,第二水厂,,38,34,33,16,18,177,120,170,165,26,15,5,6,0.5,0.5
2023-06-12T21:00:00,1630A,117.9776,37.393,滨州市,北中新校,,40,34,34,13,19,173,125,168,162,21,15,5,4,0.4,0.4
2023-06-12T21:00:00,1631A,118.0414,36.8103,淄博市,人民公园,,50,39,33,22,22,210,157,198,192,24,18,10,12,0.4,0.4
2023-06-12T21:00:00,1633A,117.8525,36.4847,淄博市,双山,颗粒物(PM10),51,52,33,32,25,204,113,202,177,31,17,14,7,0.5,0.5
2023-06-12T21:00:00,1634A,117.9592,36.6331,淄博市,气象站,细颗粒物(PM2.5),67,69,34,48,26,224,162,205,203,23,14,6,7,0.4,0.5
2023-06-12T21:00:00,1635A,118.3092,36.8194,淄博市,莆田园,,39,39,34,14,21,196,118,190,174,36,22,10,12,0.4,0.6
2023-06-12T21:00:00,1637A,117.558,34.8438,枣庄市,市中区政府,,50,48,38,19,18,208,160,196,193,32,22,17,14,0.4,0.4
2023-06-12T21:00:00,1638A,117.2852,34.7837,枣庄市,薛城环保局,颗粒物(PM10),53,56,42,24,20,208,150,198,195,40,18,7,9,0.4,0.5
2023-06-12T21:00:00,1639A,117.5852,34.7745,枣庄市,峄城区政府,颗粒物(PM10),53,56,36,22,12,200,143,192,186,30,16,8,13,0.6,0.5
2023-06-12T21:00:00,1640A,117.7276,34.5578,枣庄市,台儿庄区环保局,,45,41,30,22,13,201,141,184,178,35,16,8,8,0.5,0.4
2023-06-12T21:00:00,1641A,117.4518,35.0992,枣庄市,山亭区环保局,,46,46,43,29,18,186,141,173,170,22,13,12,9,0.4,0.3
2023-06-12T21:00:00,1642A,121.2514,37.5639,烟台市,开发区,,32,19,24,22,22,124,100,111,109,14,15,1,3,0.6,0.6
2023-06-12T21:00:00,1643A,121.3719,37.5433,烟台市,轴承厂,细颗粒物(PM2.5),63,53,44,45,43,144,72,117,102,29,23,1,2,0.6,0.5
2023-06-12T21:00:00,1644A,121.3181,37.5436,烟台市,西郊化工站,颗粒物(PM10),52,53,44,31,30,129,80,110,101,23,22,2,3,0.6,0.5
2023-06-12T21:00:00,1645A,121.4478,37.4822,烟台市,莱山环保局,,34,34,32,22,23,127,88,115,110,19,20,4,4,0.5,0.5
2023-06-12T21:00:00,1646A,121.2611,37.4967,烟台市,福山环保局,颗粒物(PM10),56,61,49,34,29,140,68,118,101,36,25,5,6,0.1,0.1
2023-06-12T21:00:00,1650A,119.1437,36.7023,潍坊市,环保局,,35,31,24,14,15,156,111,148,138,20,11,10,7,0.3,0.4
2023-06-12T21:00:00,1653A,116.6251,35.4302,济宁市,火炬城,臭氧1小时,58,42,38,17,15,208,166,198,196,16,10,13,14,0.7,0.7
2023-06-12T21:00:00,1655A,116.5491,35.4042,济宁市,电化厂,颗粒物(PM10),58,65,45,31,18,204,165,197,194,21,10,9,9,0.6,0.6
2023-06-12T21:00:00,1656A,117.1437,36.1937,泰安市,监测站,,43,29,24,19,11,192,136,166,163,8,3,6,6,0.2,0.2
2023-06-12T21:00:00,1657A,117.0885,36.2017,泰安市,人口学校,,49,29,22,29,25,190,155,171,170,13,8,7,7,0.3,0.3
2023-06-12T21:00:00,1658A,117.1089,36.1758,泰安市,电力学校,,45,24,20,11,13,182,144,164,163,12,7,8,9,0.0,0.1
2023-06-12T21:00:00,1659A,119.471,35.4209,日照市,监测站,,32,24,20,11,12,167,102,145,133,32,29,7,6,0.4,0.5
2023-06-12T21:00:00,1660A,119.523,35.4216,日照市,市政府广场,,32,31,23,12,10,155,100,138,132,28,18,6,6,0.3,0.4
2023-06-12T21:00:00,1661A,119.5587,35.4044,日照市,港务局,,36,14,19,6,7,163,114,155,144,29,19,7,6,0.4,0.4
2023-06-12T21:00:00,1662A,122.1214,37.4236,威海市,华夏技校,,34,34,31,20,21,125,88,111,100,18,16,5,5,0.3,0.3
2023-06-12T21:00:00,1663A,122.0508,37.5236,威海市,山大分校,,30,22,25,10,13,130,96,118,101,7,12,6,6,0.2,0.2
2023-06-12T21:00:00,1664A,122.1067,37.5072,威海市,市监测站,,32,27,31,22,23,152,86,119,94,13,16,10,11,0.5,0.5
2023-06-12T21:00:00,1666A,118.6614,37.4309,东营市,市环保局,,44,12,20,9,12,159,140,151,150,3,3,8,8,0.2,0.2
2023-06-12T21:00:00,1669A,113.5824,24.7733,韶关市,市八中,,43,34,47,30,21,147,83,137,120,21,17,7,14,0.6,0.6
2023-06-12T21:00:00,1671A,113.5917,24.7972,韶关市,园林处,,50,50,47,25,30,137,51,129,112,31,16,5,14,0.6,0.5
2023-06-12T21:00:00,1672A,113.6735,24.7791,韶关市,韶关学院,颗粒物(PM10),67,84,48,34,26,147,57,136,115,19,16,8,11,0.7,0.6
2023-06-12T21:00:00,1673A,113.5971,24.6863,韶关市,曲江监测站,颗粒物(PM10),55,59,50,27,23,188,74,158,131,18,16,9,13,0.6,0.7
2023-06-12T21:00:00,1674A,116.6794,23.3667,汕头市,金平子站,,,,18,7,10,112,78,96,90,1,3,3,5,0.6,0.6
2023-06-12T21:00:00,1675A,116.7244,23.3633,汕头市,龙湖子站,,27,14,18,4,7,126,86,106,99,10,9,3,4,0.5,0.5
2023-06-12T21:00:00,1676A,116.7258,23.2775,汕头市,濠江子站,,24,19,15,6,8,111,74,95,89,8,8,8,9,0.6,0.6
2023-06-12T21:00:00,1677A,116.7519,23.4714,汕头市,澄海子站,,26,12,20,11,12,132,83,108,96,11,11,4,7,0.5,0.6
2023-06-12T21:00:00,1678A,116.6092,23.2539,汕头市,潮阳子站,,25,14,18,4,5,104,78,92,89,7,8,9,9,0.6,0.5
2023-06-12T21:00:00,1680A,110.3539,21.2706,湛江市,湛江影剧院,颗粒物(PM10),55,60,39,24,21,183,129,159,157,9,14,6,13,0.8,0.7
2023-06-12T21:00:00,1681A,110.3928,21.2228,湛江市,市环境监测站,,49,49,35,25,19,186,137,161,156,10,16,7,10,0.6,0.6
2023-06-12T21:00:00,1682A,110.4019,21.1997,湛江市,环保局宿舍,,46,46,37,28,24,194,129,169,163,14,14,5,7,0.7,0.6
2023-06-12T21:00:00,1683A,110.4111,21.2028,湛江市,霞山游泳场,,46,44,38,27,22,194,146,171,169,13,15,7,10,0.6,0.6
2023-06-12T21:00:00,1684A,110.3316,21.2679,湛江市,麻章区环保局,,45,45,43,17,20,180,136,165,163,7,17,7,9,0.7,0.7
2023-06-12T21:00:00,1685A,110.4558,21.2567,湛江市,坡头区环保局,,47,40,33,24,22,183,150,168,166,10,11,9,14,0.6,0.5
2023-06-12T21:00:00,1686A,111.0286,21.4688,茂名市,电白南海,,43,31,38,19,24,186,135,166,155,10,11,5,9,0.7,0.8
2023-06-12T21:00:00,1687A,110.9294,21.6533,茂名市,茂石化七小,,39,39,33,25,25,164,113,148,141,16,13,6,8,0.7,0.7
2023-06-12T21:00:00,1688A,110.9107,21.6687,茂名市,健康路,,40,27,30,11,16,165,128,150,146,8,10,4,11,0.6,0.7
2023-06-12T21:00:00,1689A,110.8592,21.6828,茂名市,高岭,,36,34,43,24,26,156,113,144,140,19,12,4,9,0.5,0.7
2023-06-12T21:00:00,1690A,116.1231,24.3284,梅州市,梅江月梅,,,29,32,13,20,133,,124,122,8,13,6,5,0.5,0.5
2023-06-12T21:00:00,1691A,116.0797,24.2719,梅州市,梅县新城,,35,35,35,10,19,134,103,129,120,9,12,5,5,0.6,0.5
2023-06-12T21:00:00,1692A,116.1248,24.2654,梅州市,环境监控中心,,30,27,34,12,18,129,95,126,117,14,18,3,3,0.7,0.6
2023-06-12T21:00:00,1693A,115.3653,22.775,汕尾市,市环保局,,19,5,16,4,7,92,60,82,75,5,6,6,7,0.5,0.6
2023-06-12T21:00:00,1694A,115.3706,22.7898,汕尾市,市政府,,20,10,16,4,8,103,61,88,80,7,8,4,4,0.3,0.4
2023-06-12T21:00:00,1695A,115.3622,22.7925,汕尾市,新城中学,,21,7,19,6,9,109,67,96,87,4,5,5,6,0.6,0.7
2023-06-12T21:00:00,1696A,114.6778,23.7569,河源市,源西,,42,42,44,18,20,119,68,110,97,10,23,4,4,0.6,0.7
2023-06-12T21:00:00,1697A,114.6944,23.7586,河源市,东埔,,50,50,43,17,21,121,64,115,101,8,18,4,5,0.5,0.7
2023-06-12T21:00:00,1698A,114.6892,23.7233,河源市,老城,,44,44,50,10,22,122,67,110,100,6,16,4,4,0.6,0.6
2023-06-12T21:00:00,1699A,111.9797,21.8593,阳江市,鸳鸯湖,,27,0,32,8,20,139,84,123,107,4,12,7,8,0.7,0.8
2023-06-12T21:00:00,1701A,111.9491,21.8658,阳江市,马南垌,,45,31,36,31,20,147,78,129,110,17,15,5,6,0.9,0.8
2023-06-12T21:00:00,1702A,113.0426,23.691,清远市,环保大楼,,38,38,40,24,24,146,93,132,120,13,13,5,6,0.6,0.5
2023-06-12T21:00:00,1703A,113.0208,23.7106,清远市,凤城街办,,48,48,41,26,24,147,72,125,106,17,10,5,7,0.8,0.6
2023-06-12T21:00:00,1705A,116.6367,23.6719,潮州市,西园路,,19,14,28,10,17,113,60,88,82,11,8,5,4,0.5,0.5
2023-06-12T21:00:00,1706A,116.6447,23.6706,潮州市,档案局,,21,17,29,12,17,140,67,112,98,11,7,7,7,0.4,0.5
2023-06-12T21:00:00,1708A,116.3701,23.5345,揭阳市,新兴,,21,1,32,10,15,145,66,125,100,5,9,5,12,0.5,0.6
2023-06-12T21:00:00,1709A,116.3264,23.5443,揭阳市,西马,,21,14,29,6,16,144,66,126,102,4,7,5,10,0.7,0.7
2023-06-12T21:00:00,1710A,116.3611,23.5626,揭阳市,东兴,,22,22,36,11,15,140,62,127,102,11,11,5,9,1.2,0.8
2023-06-12T21:00:00,1711A,116.4151,23.5294,揭阳市,渔湖,,20,15,32,11,14,138,63,119,96,6,8,5,9,1.1,0.9
2023-06-12T21:00:00,1712A,112.0392,22.9169,云浮市,新市府,,48,40,44,33,24,161,99,155,141,8,8,4,11,1.0,0.9
2023-06-12T21:00:00,1714A,112.0539,22.9539,云浮市,牧羊,,48,39,52,33,22,179,123,170,160,18,29,23,43,0.7,0.8
2023-06-12T21:00:00,1715A,102.575,24.3711,玉溪市,东风水库,,35,35,33,18,22,121,56,111,75,14,12,9,9,0.8,0.7
2023-06-12T21:00:00,1718A,115.4208,35.2464,菏泽市,气象局,颗粒物(PM10),59,68,46,30,22,199,139,193,188,39,12,4,4,0.6,0.4
2023-06-12T21:00:00,1719A,115.4747,35.2375,菏泽市,市政协,臭氧1小时,68,56,38,35,25,210,174,202,200,18,10,4,4,0.3,0.3
2023-06-12T21:00:00,1721A,113.3819,40.1097,大同市,果树场,,36,15,27,3,18,132,114,129,127,6,14,8,13,0.2,0.3
2023-06-12T21:00:00,1723A,113.2994,40.0758,大同市,云冈宾馆,,36,33,26,12,8,139,114,137,133,22,18,12,9,0.1,0.2
2023-06-12T21:00:00,1724A,113.3444,40.0917,大同市,大同大学,,39,3,26,11,15,138,124,132,131,8,14,7,16,0.3,0.5
2023-06-12T21:00:00,1725A,113.2661,40.1269,大同市,安家小村,,35,28,30,15,15,134,111,132,129,10,11,11,10,0.3,0.4
2023-06-12T21:00:00,1726A,113.2711,40.0844,大同市,教育学院,,34,18,26,8,10,132,108,128,125,23,18,9,12,0.4,0.5
2023-06-12T21:00:00,1727A,113.1147,36.1547,长治市,清华站,,39,36,33,27,23,207,124,177,168,19,17,5,7,0.8,0.8
2023-06-12T21:00:00,1728A,113.1031,36.1989,长治市,监测站,,45,34,34,31,22,199,119,174,165,19,17,8,10,0.8,0.9
2023-06-12T21:00:00,1730A,113.0886,36.2125,长治市,审计局,,49,42,32,34,29,210,134,183,173,16,19,10,12,0.7,0.9
2023-06-12T21:00:00,1731A,113.0844,36.1856,长治市,长治八中,,42,40,40,23,21,212,132,186,178,16,16,7,8,0.7,0.8
2023-06-12T21:00:00,1733A,111.5531,36.0783,临汾市,临钢医院,颗粒物(PM10),57,63,53,30,26,202,155,187,182,18,17,2,6,0.8,0.8
2023-06-12T21:00:00,1734A,111.5028,36.0714,临汾市,技工学校,颗粒物(PM10),72,94,58,31,21,223,175,213,208,20,16,12,9,1.3,1.2
2023-06-12T21:00:00,1736A,111.5018,36.0855,临汾市,市委,颗粒物(PM10),70,89,51,38,24,223,174,214,209,21,15,10,8,1.0,0.9
2023-06-12T21:00:00,1738A,113.5758,37.8572,阳泉市,市中心,,45,45,52,27,19,190,112,167,149,21,39,10,15,0.8,0.7
2023-06-12T21:00:00,1739A,113.4894,37.8731,阳泉市,赛鱼,颗粒物(PM10),52,53,50,16,18,184,52,164,131,39,34,10,10,0.8,0.7
2023-06-12T21:00:00,1740A,113.5819,37.8486,阳泉市,南庄,,49,47,64,34,28,190,118,170,153,20,34,11,15,0.8,0.8
2023-06-12T21:00:00,1742A,113.5614,37.8703,阳泉市,平坦,,47,47,58,20,26,187,114,166,151,25,44,11,12,0.6,0.6
2023-06-12T21:00:00,1743A,113.5158,37.8392,阳泉市,大阳泉,,45,29,49,31,30,183,127,165,152,16,18,8,10,0.6,0.7
2023-06-12T21:00:00,1744A,118.9233,42.2816,赤峰市,松山一中,,32,16,12,11,14,110,26,92,84,64,32,12,11,0.8,0.4
2023-06-12T21:00:00,1745A,118.9576,42.2728,赤峰市,哈达街,,25,13,13,17,7,113,60,96,94,40,25,13,13,0.7,0.6
2023-06-12T21:00:00,1746A,118.8788,42.2554,赤峰市,天义路,,24,14,8,2,4,109,54,90,87,48,23,14,13,0.4,0.3
2023-06-12T21:00:00,1748A,123.044,41.1196,鞍山市,深沟寺,,28,28,32,18,23,134,74,105,84,14,18,7,12,0.5,0.9
2023-06-12T21:00:00,1749A,123.011,41.0931,鞍山市,太阳城,,27,27,40,15,27,141,62,106,80,26,24,10,14,0.9,1.4
2023-06-12T21:00:00,1750A,123.0485,41.1442,鞍山市,太平,,34,34,40,22,25,132,82,104,93,23,25,8,12,0.8,1
2023-06-12T21:00:00,1751A,122.9642,41.0971,鞍山市,铁西三道街,,37,37,48,20,27,123,63,110,98,48,30,5,9,0.9,1.2
2023-06-12T21:00:00,1752A,122.9341,41.0833,鞍山市,铁西工业园区,,,45,45,28,27,114,,103,99,,27,,10,,1
2023-06-12T21:00:00,1753A,123.022,41.0821,鞍山市,明达新区,,32,32,37,14,26,138,90,109,91,15,25,8,13,0.5,1.1
2023-06-12T21:00:00,1754A,123.1289,41.0228,鞍山市,千山,,,,,,,,,,,,,,,,
2023-06-12T21:00:00,1755A,123.7977,41.8491,抚顺市,望花区,细颗粒物(PM2.5),53,44,47,37,33,115,83,100,95,34,35,9,12,0.6,1
2023-06-12T21:00:00,1756A,123.9161,41.8822,抚顺市,顺城区,颗粒物(PM10),56,61,45,33,31,114,11,105,84,72,30,6,12,1.6,1.2
2023-06-12T21:00:00,1757A,124.0436,41.8611,抚顺市,东洲区,,48,38,37,33,29,139,50,124,106,29,20,6,9,0.7,0.9
2023-06-12T21:00:00,1758A,123.9247,41.8642,抚顺市,新抚区,,40,40,42,25,32,128,49,113,86,35,26,9,12,0.9,1.1
2023-06-12T21:00:00,1759A,124.0972,41.8961,抚顺市,大伙房水库,,30,28,30,20,25,129,95,117,110,15,14,5,8,0.4,0.6
2023-06-12T21:00:00,1760A,123.7086,41.8391,抚顺市,沈抚新城,,36,35,43,25,21,131,86,117,108,34,33,15,17,0.6,0.9
2023-06-12T21:00:00,1761A,123.8275,41.3064,本溪市,大峪,颗粒物(PM10),51,52,56,20,25,137,50,115,92,20,26,7,11,1.1,1.2
2023-06-12T21:00:00,1762A,123.7567,41.3325,本溪市,溪湖,,44,44,42,28,27,145,68,126,107,17,23,9,12,1.2,1.6
2023-06-12T21:00:00,1763A,123.7169,41.3094,本溪市,彩屯,细颗粒物(PM2.5),69,73,52,50,35,138,48,124,101,29,27,13,15,0.9,1.5
2023-06-12T21:00:00,1764A,123.7669,41.2864,本溪市,东明,,45,36,49,31,31,136,60,111,95,35,35,12,17,1.1,1.4
2023-06-12T21:00:00,1765A,123.7992,41.2664,本溪市,新立屯,,46,43,47,32,29,137,43,100,71,32,32,8,15,1.0,1.3
2023-06-12T21:00:00,1766A,123.8142,41.3472,本溪市,威宁,颗粒物(PM10),51,51,57,35,31,134,28,101,73,29,27,5,9,1.0,0.9
2023-06-12T21:00:00,1767A,121.1115,41.0879,锦州市,南山,,50,5,36,35,49,116,79,94,86,17,21,16,28,0.7,0.7
2023-06-12T21:00:00,1768A,121.0533,40.8434,锦州市,开发区,,42,36,39,18,32,136,18,104,64,84,51,17,20,0.6,0.6
2023-06-12T21:00:00,1769A,121.1836,41.1119,锦州市,百股街道,,49,41,41,34,33,108,69,96,86,22,22,29,27,0.9,0.6
2023-06-12T21:00:00,1770A,121.1178,41.1222,锦州市,天安街道,,,32,30,24,24,117,,97,89,29,25,14,13,0.8,0.6
2023-06-12T21:00:00,1771A,121.1303,41.1386,锦州市,北湖公园,细颗粒物(PM2.5),52,47,27,36,24,125,79,109,99,21,14,27,14,1.0,0.6
2023-06-12T21:00:00,1772A,126.54,43.8622,吉林市,哈达湾,颗粒物(PM10),62,73,23,38,13,116,66,108,102,48,17,9,4,1.0,0.6
2023-06-12T21:00:00,1773A,126.5844,43.8358,吉林市,东局子,,36,36,17,20,11,118,52,106,95,37,17,5,5,0.8,0.6
2023-06-12T21:00:00,1774A,126.5052,43.8245,吉林市,电力学院,细颗粒物(PM2.5),80,79,26,59,19,118,44,110,96,24,18,7,7,0.7,0.5
2023-06-12T21:00:00,1775A,126.6133,43.8972,吉林市,江北,颗粒物(PM10),58,65,28,40,16,121,50,109,96,23,16,6,7,0.9,0.7
2023-06-12T21:00:00,1776A,126.555,43.8306,吉林市,江南公园,,49,49,21,33,15,120,34,111,100,66,20,4,4,1.0,0.6
2023-06-12T21:00:00,1778A,126.7061,43.7133,吉林市,丰满,,,,,,,,,,,,,,,,
2023-06-12T21:00:00,1779A,123.9305,47.3636,齐齐哈尔市,安居小区,,35,35,34,11,13,138,110,133,130,18,20,3,4,0.5,0.5
2023-06-12T21:00:00,1780A,123.9488,47.3386,齐齐哈尔市,中心广场,,31,24,26,5,6,136,99,129,126,23,21,7,7,0.5,0.5
2023-06-12T21:00:00,1781A,123.9483,47.3227,齐齐哈尔市,农牧车辆厂,,34,31,31,5,10,141,106,134,131,16,18,6,6,0.3,0.4
2023-06-12T21:00:00,1783A,123.945,47.2988,齐齐哈尔市,市环境监测站,,36,14,19,21,15,137,115,131,130,10,16,6,7,0.4,0.5
2023-06-12T21:00:00,1784A,129.61,44.561,牡丹江市,环保大楼,,23,23,15,6,9,129,67,113,104,22,13,6,5,0.4,0.4
2023-06-12T21:00:00,1785A,129.6115,44.5782,牡丹江市,文化广场,,41,41,20,25,18,124,57,108,97,30,18,5,4,0.5,0.4
2023-06-12T21:00:00,1786A,129.5904,44.5963,牡丹江市,第一医院,,30,30,22,21,12,121,51,111,95,23,14,3,3,0.4,0.4
2023-06-12T21:00:00,1787A,129.6364,44.6075,牡丹江市,机车工厂,,21,13,16,4,8,127,67,114,105,9,12,2,2,0.5,0.5
2023-06-12T21:00:00,1788A,129.6386,44.5462,牡丹江市,第一中学,,21,21,15,7,6,131,49,113,102,30,10,2,1,0.3,0.2
2023-06-12T21:00:00,1789A,124.81117,46.03138,大庆市,大同区,,31,23,26,8,16,124,99,117,116,24,12,5,5,0.4,0.4
2023-06-12T21:00:00,1790A,125.129,46.533,大庆市,龙凤区,,,23,24,15,14,136,,128,128,21,12,6,5,0.4,0.1
2023-06-12T21:00:00,1791A,124.902,46.408,大庆市,红岗区,,33,22,27,17,18,141,104,130,128,24,12,3,5,0.4,0.4
2023-06-12T21:00:00,1792A,125.153,46.586,大庆市,萨尔图区,,,49,21,20,13,125,,119,119,30,15,5,5,0.4,0.3
2023-06-12T21:00:00,1793A,124.9042,46.6215,大庆市,让胡路区,,32,22,34,14,12,132,100,126,123,23,15,5,5,0.4,0.3
2023-06-12T21:00:00,1794A,118.3606,31.3519,芜湖市,监测站,臭氧1小时,85,51,40,28,28,211,188,193,193,28,22,9,9,0.6,0.4
2023-06-12T21:00:00,1795A,118.3714,31.4134,芜湖市,科创中心,臭氧1小时,92,56,42,37,30,215,193,193,193,21,23,6,6,1.0,0.7
2023-06-12T21:00:00,1796A,118.3673,31.3131,芜湖市,四水厂,臭氧1小时,85,60,41,31,24,212,188,199,199,26,21,9,9,0.8,0.7
2023-06-12T21:00:00,1798A,118.5092,31.6837,马鞍山市,湖东路四小,臭氧1小时,65,52,38,29,26,212,172,196,196,27,19,8,8,0.8,0.6
2023-06-12T21:00:00,1799A,118.5024,31.6449,马鞍山市,开发区,颗粒物(PM10),57,63,58,30,31,220,161,195,194,33,24,7,7,0.6,0.4
2023-06-12T21:00:00,1800A,118.5228,31.7231,马鞍山市,慈湖,臭氧1小时,69,52,43,29,28,205,175,193,192,32,19,8,10,1.1,0.9
2023-06-12T21:00:00,1802A,118.6245,31.7241,马鞍山市,濮塘,臭氧1小时,69,37,30,28,23,204,175,189,188,14,13,6,6,0.8,0.6
2023-06-12T21:00:00,1803A,115.9872,29.6815,九江市,十里,臭氧1小时,70,61,62,35,38,221,176,206,201,22,18,11,15,0.7,0.9
2023-06-12T21:00:00,1804A,115.9584,29.7046,九江市,茅山头,臭氧1小时,97,62,58,38,36,218,197,198,197,18,18,10,13,0.8,0.8
2023-06-12T21:00:00,1805A,115.9877,29.7295,九江市,西园,臭氧1小时,102,67,62,40,34,204,204,194,194,13,19,9,12,0.7,0.8
2023-06-12T21:00:00,1806A,116.0172,29.6547,九江市,五七二七厂,颗粒物(PM10),54,57,50,29,31,216,137,186,167,20,13,9,14,0.7,1
2023-06-12T21:00:00,1808A,115.9114,29.6038,九江市,综合工业园,颗粒物(PM10),58,65,51,37,33,240,148,218,201,28,30,11,13,1.0,1.1
2023-06-12T21:00:00,1809A,116.0721,29.7535,九江市,石化总厂,臭氧1小时,64,62,69,38,30,178,171,169,168,32,33,10,11,0.8,0.8
2023-06-12T21:00:00,1810A,115.9773,29.5698,九江市,庐山气象台,臭氧1小时,102,56,33,44,24,207,203,196,196,8,5,6,7,1.9,1.6
2023-06-12T21:00:00,1812A,112.3931,34.6516,洛阳市,市委党校,,45,43,64,21,31,206,143,196,189,10,15,1,4,0.4,0.5
2023-06-12T21:00:00,1814A,112.4657,34.6871,洛阳市,豫西宾馆,,41,25,72,23,24,196,129,186,177,12,14,3,3,0.7,0.7
2023-06-12T21:00:00,1815A,112.494,34.6886,洛阳市,河南林校,,36,30,56,17,24,193,114,182,170,11,16,5,7,0.4,0.4
2023-06-12T21:00:00,1816A,112.3844,34.623,洛阳市,开发区管委会,颗粒物(PM10),51,51,65,18,25,212,142,200,192,8,13,2,6,0.3,0.4
2023-06-12T21:00:00,1817A,112.4267,34.6258,洛阳市,市委新办公区,,48,48,66,17,27,205,138,192,185,10,14,3,3,0.6,0.7
2023-06-12T21:00:00,1818A,114.4839,36.0621,安阳市,棉研所,臭氧1小时,70,62,58,23,26,226,176,212,209,21,19,8,13,0.4,0.6
2023-06-12T21:00:00,1819A,114.3551,36.1017,安阳市,红庙街,臭氧1小时,93,80,63,30,30,232,194,221,219,18,18,5,8,0.4,0.7
2023-06-12T21:00:00,1820A,114.361,36.0681,安阳市,银杏小区,臭氧1小时,77,69,54,25,29,225,181,216,214,16,14,5,7,0.6,0.7
2023-06-12T21:00:00,1824A,114.3389,34.7781,开封市,肿瘤医院,臭氧1小时,74,52,64,22,21,212,179,197,197,15,5,6,7,0.4,0.3
2023-06-12T21:00:00,1826A,114.2885,34.7965,开封市,世纪星幼儿园,臭氧1小时,68,45,52,22,25,202,174,188,188,19,14,3,3,0.6,0.5
2023-06-12T21:00:00,1828A,113.227,35.2125,焦作市,市环保局,臭氧1小时,78,42,39,24,18,245,182,214,212,17,18,9,11,0.6,0.5
2023-06-12T21:00:00,1830A,113.1992,35.2590,焦作市,影视城,,49,13,23,15,16,224,155,203,200,3,7,6,8,0.6,0.7
2023-06-12T21:00:00,1832A,113.3257,33.742,平顶山市,新华旅馆,颗粒物(PM10),61,71,55,35,25,201,157,191,186,31,17,4,4,0.5,0.5
2023-06-12T21:00:00,1833A,113.2919,33.737,平顶山市,规划设计院,,,61,53,29,23,205,164,193,191,,9,8,7,0.6,0.6
2023-06-12T21:00:00,1834A,113.182,33.774,平顶山市,平顶山工学院,颗粒物(PM10),54,58,48,27,20,204,149,194,190,20,12,4,4,0.4,0.4
2023-06-12T21:00:00,1835A,111.1922,34.7752,三门峡市,市政府,,,,63,,24,212,152,194,190,19,19,6,8,,0.6
2023-06-12T21:00:00,1836A,111.1587,34.7942,三门峡市,开发区,颗粒物(PM10),63,75,78,31,28,213,166,196,192,20,18,7,8,0.6,0.6
2023-06-12T21:00:00,1838A,111.143,34.7955,三门峡市,风景区,臭氧1小时,57,36,66,30,28,211,165,194,192,19,18,11,10,0.4,0.5
2023-06-12T21:00:00,1840A,111.2992,30.6981,宜昌市,白龙岗,,38,29,18,17,9,168,119,156,155,23,17,6,6,0.4,0.3
2023-06-12T21:00:00,1841A,111.3549,30.6465,宜昌市,伍家岗,,42,42,20,24,12,170,89,151,145,40,17,7,7,0.6,0.5
2023-06-12T21:00:00,1842A,111.2628,30.6961,宜昌市,点军区,,,27,22,12,6,163,104,149,146,26,15,7,7,,0.5
2023-06-12T21:00:00,1843A,111.3275,30.7819,宜昌市,夷陵区,,35,35,17,17,8,156,112,142,139,17,14,6,6,0.3,0.3
2023-06-12T21:00:00,1844A,112.2494,30.3197,荆州市,市图书馆,,45,28,25,20,14,167,141,158,158,12,10,7,7,0.6,0.7
2023-06-12T21:00:00,1845A,112.2008,30.3544,荆州市,市委党校,,44,40,27,20,15,175,139,160,159,11,9,8,9,0.6,0.6
2023-06-12T21:00:00,1847A,113.1094,29.3578,岳阳市,南湖风景区,,45,31,31,25,18,185,143,164,155,11,11,7,10,0.6,0.6
2023-06-12T21:00:00,1848A,113.1493,29.4251,岳阳市,城陵矶,,32,31,34,21,18,158,100,148,136,38,20,6,7,0.7,0.7
2023-06-12T21:00:00,1849A,113.1497,29.3575,岳阳市,开发区,,43,39,32,17,16,188,137,167,158,16,13,8,10,0.6,0.6
2023-06-12T21:00:00,1850A,113.2621,29.4758,岳阳市,云溪区,,42,37,34,19,18,179,132,166,157,14,20,6,7,0.5,0.5
2023-06-12T21:00:00,1851A,112.9943,29.4402,岳阳市,君山区,,33,33,26,17,19,152,103,142,134,40,14,6,6,0.5,0.6
2023-06-12T21:00:00,1852A,113.2117,29.355,岳阳市,金凤水库,,41,34,35,23,19,187,131,163,151,13,11,2,4,0.7,0.8
2023-06-12T21:00:00,1854A,111.6975,28.9703,常德市,市二中,,45,43,34,31,19,148,95,142,134,12,7,6,6,0.5,0.4
2023-06-12T21:00:00,1857A,111.7158,29.1456,常德市,白鹤山,,44,44,29,21,15,149,120,139,136,6,4,4,4,0.4,0.4
2023-06-12T21:00:00,1858A,110.5319,29.1217,张家界市,永定新区,,23,23,34,15,21,122,70,112,102,12,13,4,4,0.1,0.2
2023-06-12T21:00:00,1859A,110.4697,29.1242,张家界市,电业局,,28,20,39,19,23,125,89,111,106,13,12,4,4,0.1,0.2
2023-06-12T21:00:00,1860A,110.5594,29.3547,张家界市,未央路,,26,26,24,16,11,103,68,83,80,13,10,3,3,0.1,0.1
2023-06-12T21:00:00,1861A,110.4417,29.315,张家界市,袁家界,,31,11,27,11,20,114,99,96,81,3,7,8,8,0.5,0.6
2023-06-12T21:00:00,1862A,110.4144,25.3167,桂林市,电子科大尧山校区,,43,42,50,30,32,143,104,127,121,6,7,6,15,0.7,0.7
2023-06-12T21:00:00,1863A,110.2819,25.2697,桂林市,监测站,细颗粒物(PM2.5),55,50,50,39,28,193,78,152,120,17,13,11,13,0.7,0.6
2023-06-12T21:00:00,1864A,110.3089,25.2708,桂林市,龙隐路小学,,,42,50,29,31,169,97,142,121,8,14,,29,0.6,0.7
2023-06-12T21:00:00,1865A,110.2869,25.2178,桂林市,八中,,45,36,42,31,25,158,79,128,109,13,12,8,13,0.7,0.6
2023-06-12T21:00:00,1866A,109.2262,21.588,北海市,牛尾岭水库,,21,21,18,12,11,163,55,111,93,11,8,4,3,0.5,0.6
2023-06-12T21:00:00,1867A,109.1436,21.4086,北海市,海滩公园,,31,31,19,5,6,98,89,92,88,3,7,3,3,0.4,0.6
2023-06-12T21:00:00,1868A,109.0981,21.4661,北海市,新市环保局,,27,17,19,5,10,107,85,96,87,5,7,1,2,0.6,0.7
2023-06-12T21:00:00,1869A,109.1778,21.5233,北海市,北海工业园,,29,29,28,12,14,131,73,114,105,6,11,4,4,0.6,0.6
2023-06-12T21:00:00,1870A,109.4856,24.3895,柳州市,柳东小学,,49,31,40,34,28,258,103,194,171,22,16,11,13,0.9,0.6
2023-06-12T21:00:00,1871A,109.4157,24.3277,柳州市,环保监测站,,37,37,47,8,28,210,115,172,148,16,23,6,7,0.8,0.7
2023-06-12T21:00:00,1872A,109.389,24.341,柳州市,河西水厂,,39,38,59,27,28,213,121,176,152,11,26,8,12,0.5,0.6
2023-06-12T21:00:00,1873A,109.4311,24.2921,柳州市,市四中,,46,46,40,24,20,168,115,158,145,14,15,10,10,0.9,0.7
2023-06-12T21:00:00,1874A,109.4006,24.3631,柳州市,市九中,颗粒物(PM10),59,68,60,22,28,208,102,173,154,26,22,14,15,1.7,0.8
2023-06-12T21:00:00,1875A,109.4958,24.3134,柳州市,古亭山,,36,18,36,25,20,194,105,169,148,15,19,2,7,0.8,0.5
2023-06-12T21:00:00,1876A,109.5078,18.2489,三亚市,河东子站,,23,15,21,16,12,87,51,84,65,12,8,1,1,0.5,0.5
2023-06-12T21:00:00,1877A,109.4964,18.2681,三亚市,河西子站,,22,22,22,9,11,88,51,84,66,11,7,2,3,0.5,0.5
2023-06-12T21:00:00,1878A,104.7778,31.4741,绵阳市,富乐山,,40,40,36,24,20,176,124,166,154,7,16,3,5,0.3,0.4
2023-06-12T21:00:00,1879A,104.7563,31.4535,绵阳市,市人大,,35,35,38,20,22,155,108,148,137,12,26,8,10,0.4,0.6
2023-06-12T21:00:00,1880A,104.6697,31.4668,绵阳市,高新区自来水公司,,35,24,54,18,30,171,112,161,148,12,33,6,9,0.4,0.5
2023-06-12T21:00:00,1881A,104.7287,31.5075,绵阳市,三水厂,,41,41,51,23,27,177,120,169,154,6,32,5,7,0.3,0.6
2023-06-12T21:00:00,1882A,104.563,28.793,宜宾市,石马中学,,32,31,26,16,15,151,100,133,131,26,15,8,6,0.4,0.4
2023-06-12T21:00:00,1883A,104.6201,28.7728,宜宾市,市委,,35,26,35,17,19,143,109,126,126,24,29,21,12,0.3,0.5
2023-06-12T21:00:00,1884A,104.6055,28.793,宜宾市,宜宾四中,,33,30,33,17,19,143,103,128,127,24,21,6,10,0.4,0.4
2023-06-12T21:00:00,1885A,104.639,28.7562,宜宾市,市政府,,33,29,35,18,21,146,104,127,126,24,26,7,10,0.5,0.6
2023-06-12T21:00:00,1886A,104.5742,28.7199,宜宾市,黄金嘴,,29,26,26,13,15,132,92,122,120,27,19,5,5,0.4,0.4
2023-06-12T21:00:00,1888A,101.6891,26.571,攀枝花市,弄弄坪,细颗粒物(PM2.5),69,73,35,50,21,109,59,89,73,31,17,23,11,2.0,1
2023-06-12T21:00:00,1889A,101.5769,26.5928,攀枝花市,河门口,细颗粒物(PM2.5),58,57,40,41,24,97,56,85,81,42,26,11,13,2.2,1.4
2023-06-12T21:00:00,1890A,101.7169,26.585,攀枝花市,炳草岗,细颗粒物(PM2.5),59,53,45,42,26,93,76,85,85,28,25,33,23,1.5,1.3
2023-06-12T21:00:00,1891A,101.7369,26.5008,攀枝花市,仁和,颗粒物(PM10),53,56,30,35,20,111,61,100,97,28,13,10,8,0.9,0.6
2023-06-12T21:00:00,1893A,105.4324,28.9634,泸州市,九狮山,,23,20,16,12,8,115,72,109,104,23,22,5,6,0.6,0.5
2023-06-12T21:00:00,1894A,105.4427,28.9063,泸州市,小市上码头,,38,38,29,15,13,117,69,107,102,31,16,6,6,0.5,0.6
2023-06-12T21:00:00,1895A,105.4241,28.8573,泸州市,兰田宪桥,,26,20,26,12,15,110,82,106,103,12,14,5,5,0.6,0.6
2023-06-12T21:00:00,1896A,105.4379,28.8833,泸州市,市环监站,,26,25,26,7,9,114,82,108,104,24,23,3,4,0.6,0.5
2023-06-12T21:00:00,1901A,104.4239,31.1208,德阳市,东山公园,颗粒物(PM10),91,132,48,33,24,192,113,161,155,10,23,2,4,0.3,0.4
2023-06-12T21:00:00,1902A,104.3826,31.1317,德阳市,西小区,颗粒物(PM10),54,57,54,28,34,201,114,171,163,8,25,1,7,0.3,0.5
2023-06-12T21:00:00,1904A,104.3553,31.1091,德阳市,耐火材料厂,颗粒物(PM10),61,71,51,33,31,190,124,176,169,9,24,3,5,0.4,0.5
2023-06-12T21:00:00,1905A,106.056,30.8064,南充市,西山风景区,,47,40,43,16,21,166,149,157,157,11,10,6,9,0.3,0.4
2023-06-12T21:00:00,1906A,106.0789,30.8023,南充市,南充市委,,46,37,50,16,28,166,147,159,158,15,22,11,16,0.4,0.5
2023-06-12T21:00:00,1907A,106.1031,30.8217,南充市,南充炼油厂,,48,34,59,16,30,174,151,167,165,18,21,12,19,0.4,0.5
2023-06-12T21:00:00,1908A,106.1064,30.7856,南充市,高坪区监测站,,47,31,53,16,31,164,148,156,156,20,24,15,21,0.3,0.5
2023-06-12T21:00:00,1909A,106.0642,30.7636,南充市,嘉陵区环保局,,49,39,55,17,35,181,155,168,167,16,25,9,18,0.3,0.5
2023-06-12T21:00:00,1910A,106.1087,30.8388,南充市,市环境监测站,,47,33,48,19,32,172,148,162,160,26,26,12,17,0.2,0.3
2023-06-12T21:00:00,1911A,106.9222,27.6869,遵义市,丁字口,,25,25,21,8,12,104,66,91,86,21,21,5,5,0.7,0.6
2023-06-12T21:00:00,1912A,106.9242,27.7019,遵义市,凤凰山,,24,21,18,10,15,115,75,93,88,18,18,7,8,0.3,0.3
2023-06-12T21:00:00,1913A,106.8906,27.6486,遵义市,忠庄,,25,25,20,14,15,110,63,92,80,15,18,2,3,0.5,0.5
2023-06-12T21:00:00,1914A,106.9231,27.6506,遵义市,舟水桥,,19,13,23,13,14,102,59,82,80,12,23,1,3,0.4,0.5
2023-06-12T21:00:00,1915A,106.9178,27.72,遵义市,干田坝,,29,15,20,20,12,105,69,92,90,19,17,4,4,0.7,0.6
2023-06-12T21:00:00,1916A,103.7897,25.5035,曲靖市,环境监测站,,22,22,50,12,20,103,60,96,79,24,25,17,14,0.7,0.9
2023-06-12T21:00:00,1917A,103.8,25.5364,曲靖市,烟厂办公区,,20,20,39,13,17,104,63,92,80,24,16,12,5,0.6,0.5
2023-06-12T21:00:00,1918A,108.7197,34.3956,咸阳市,气象站,,,,,,,,,,,,,,,,
2023-06-12T21:00:00,1919A,108.673,34.3155,咸阳市,实验中学,,46,46,73,23,30,154,88,124,109,39,35,5,7,0.6,0.7
2023-06-12T21:00:00,1920A,108.7233,34.3617,咸阳市,师范学院,颗粒物(PM10),53,56,77,28,32,156,99,126,115,34,40,5,6,0.6,0.7
2023-06-12T21:00:00,1922A,109.0656,35.0994,铜川市,党校,颗粒物(PM10),123,195,71,32,26,167,35,150,126,58,35,7,8,1.2,1
2023-06-12T21:00:00,1923A,109.0697,35.0697,铜川市,王益区政府,颗粒物(PM10),65,79,52,37,28,178,64,163,142,39,26,7,10,0.9,0.6
2023-06-12T21:00:00,1924A,108.9344,34.9058,铜川市,新区管委会,颗粒物(PM10),65,79,60,29,25,168,98,148,139,27,18,8,9,0.6,0.6
2023-06-12T21:00:00,1926A,109.4131,36.6275,延安市,枣园,,38,38,31,9,12,144,39,140,120,61,24,6,6,0.5,0.5
2023-06-12T21:00:00,1927A,109.4761,36.6028,延安市,延大医附院,,46,46,33,12,11,150,26,143,118,80,31,4,5,0.3,0.2
2023-06-12T21:00:00,1929A,109.5056,36.6106,延安市,百米大道,,40,40,40,14,14,138,67,134,118,47,31,5,5,0.4,0.3
2023-06-12T21:00:00,1930A,107.185,34.3063,宝鸡市,庙沟村,,29,6,34,12,15,130,91,107,107,6,7,7,7,0.2,0.3
2023-06-12T21:00:00,1931A,107.0708,34.3017,宝鸡市,竹园沟,,30,23,26,14,15,105,93,99,98,8,11,5,5,0.4,0.4
2023-06-12T21:00:00,1932A,107.1906,34.3672,宝鸡市,三陆医院,,,36,51,14,19,97,,92,92,28,32,6,9,0.4,0.5
2023-06-12T21:00:00,1933A,107.1431,34.3547,宝鸡市,监测站,,36,36,39,15,19,101,71,89,89,22,22,7,8,0.4,0.4
2023-06-12T21:00:00,1934A,107.1186,34.3739,宝鸡市,技工学校,,28,22,37,12,19,105,88,98,98,12,16,5,7,0.3,0.3
2023-06-12T21:00:00,1935A,107.3906,34.3528,宝鸡市,陈仓区环保局家属楼,,35,35,60,16,27,122,80,99,99,25,35,5,15,0.5,0.5
2023-06-12T21:00:00,1936A,107.2058,34.3497,宝鸡市,文理学院,,29,29,44,13,20,109,71,95,95,25,22,6,7,0.5,0.5
2023-06-12T21:00:00,1937A,107.2386,34.3622,宝鸡市,三迪小学,,27,27,46,10,21,108,76,95,95,28,27,5,6,0.4,0.4
2023-06-12T21:00:00,1938A,109.5293,34.5101,渭南市,农科所,,49,48,87,34,39,145,120,140,137,15,31,5,6,0.6,0.7
2023-06-12T21:00:00,1939A,109.4974,34.4877,渭南市,日报社,,46,41,71,32,39,163,106,152,143,36,34,5,7,0.5,0.6
2023-06-12T21:00:00,1940A,109.4636,34.493,渭南市,体育馆,,44,44,73,17,27,174,112,152,145,28,33,4,7,0.4,0.5
2023-06-12T21:00:00,1941A,109.4259,34.5023,渭南市,高新一小,颗粒物(PM10),51,51,95,27,32,177,119,147,138,21,32,5,7,0.4,0.6
2023-06-12T21:00:00,1943A,102.1725,38.5339,金昌市,新川苑,,42,42,68,15,16,147,119,141,138,17,18,8,20,0.5,0.6
2023-06-12T21:00:00,1944A,102.1692,38.5167,金昌市,天庆家园,,42,23,54,3,15,150,133,146,145,11,17,27,25,0.4,0.7
2023-06-12T21:00:00,1945A,98.2908,39.7711,嘉峪关市,气象局,颗粒物(PM10),52,53,86,19,25,146,124,142,139,11,19,3,7,0.2,0.3
2023-06-12T21:00:00,1947A,106.3394,38.817,石嘴山市,沙湖旅游区,,47,47,43,11,12,126,79,116,109,11,18,16,32,0.4,0.8
2023-06-12T21:00:00,1948A,106.3668,39.0145,石嘴山市,大武口朝阳西街,颗粒物(PM10),54,58,37,22,10,155,92,144,135,18,10,33,24,0.9,0.4
2023-06-12T21:00:00,1949A,106.7704,39.2282,石嘴山市,惠农南大街,颗粒物(PM10),56,61,62,11,15,126,85,115,113,42,36,30,30,0.4,0.7
2023-06-12T21:00:00,1950A,106.7099,39.1325,石嘴山市,红果子镇惠新街,,50,50,50,9,11,142,102,127,125,24,27,11,35,0.2,0.5
2023-06-12T21:00:00,1951A,84.895,45.6094,克拉玛依市,长征新村,颗粒物(PM10),73,96,39,43,14,149,149,140,140,5,2,8,8,0.4,0.2
2023-06-12T21:00:00,1952A,84.8988,45.5893,克拉玛依市,南林小区,细颗粒物(PM2.5),84,82,28,62,20,148,147,141,141,8,5,5,5,0.3,0.1
2023-06-12T21:00:00,1954A,84.905,44.3396,克拉玛依市,独山子区,,48,48,50,25,21,140,133,126,126,9,5,13,9,0.6,0.4
2023-06-12T21:00:00,1955A,85.6979,46.098,克拉玛依市,乌尔禾区商贸楼,颗粒物(PM10),93,135,51,38,16,148,127,134,134,6,2,10,11,0.4,0.2
2023-06-12T21:00:00,1956A,86.1472,41.7538,巴音郭楞州,孔雀公园,颗粒物(PM10),144,237,102,39,28,148,113,130,128,18,31,4,7,0.3,0.5
2023-06-12T21:00:00,1957A,86.1972,41.7166,巴音郭楞州,棉纺厂,颗粒物(PM10),78,106,102,38,35,137,114,130,128,11,28,4,4,0.3,0.4
2023-06-12T21:00:00,1958A,86.2357,41.7173,巴音郭楞州,经济开发区,颗粒物(PM10),137,223,101,3,29,138,126,134,133,3,11,3,3,0.2,0.2
2023-06-12T21:00:00,1961A,117.532,36.6868,济南市,东山小学,颗粒物(PM10),51,51,32,29,20,206,112,193,184,36,18,5,5,0.4,0.5
2023-06-12T21:00:00,1966A,120.0405,35.8735,青岛市,黄岛区4号,,41,41,21,17,8,171,121,162,152,24,13,6,6,0.8,0.5
2023-06-12T21:00:00,1982A,122.0693,37.2174,威海市,文登开发区,,42,24,32,12,13,161,133,134,133,13,11,5,5,0.3,0.3
2023-06-12T21:00:00,2031A,113.1817,27.9958,株洲市,云田中学,颗粒物(PM10),63,75,46,34,24,210,103,187,176,31,14,6,6,0.8,0.5
2023-06-12T21:00:00,2054A,114.1099,32.1059,信阳市,平桥分局,,50,50,39,22,26,210,145,192,184,19,16,8,9,0.5,0.5
2023-06-12T21:00:00,2064A,113.9956,32.1271,信阳市,南湾水厂,,42,38,46,12,17,176,134,164,158,6,7,7,7,0.6,0.6
2023-06-12T21:00:00,2065A,114.0775,32.1195,信阳市,市酿酒公司,,42,42,42,29,27,212,122,190,173,19,14,8,9,0.6,0.6
2023-06-12T21:00:00,2066A,114.0609,32.1399,信阳市,审计局,,43,36,42,23,27,205,137,191,174,21,14,10,10,0.7,0.6
2023-06-12T21:00:00,2067A,114.6613,33.6128,周口市,市环境监测站,臭氧1小时,88,49,69,33,38,224,190,213,211,14,13,5,6,0.7,0.6
2023-06-12T21:00:00,2068A,114.6758,33.6347,周口市,周口师范,臭氧1小时,80,51,64,24,28,215,184,206,204,16,15,5,5,0.6,0.6
2023-06-12T21:00:00,2069A,114.6546,33.5979,周口市,市运管处,臭氧1小时,87,54,62,24,27,225,189,214,212,15,14,4,5,0.7,0.6
2023-06-12T21:00:00,2070A,114.6369,33.6406,周口市,川汇区环保局,臭氧1小时,55,58,59,27,26,200,164,192,190,15,14,6,7,0.6,0.6
2023-06-12T21:00:00,2075A,117.6336,24.4674,漳州市,九湖,,,,,,,,,,,,,,,,
2023-06-12T21:00:00,2160A,112.85,35.5051,晋城市,自来水公司,臭氧1小时,52,39,35,19,24,198,161,188,188,14,15,8,10,0.7,1
2023-06-12T21:00:00,2161A,112.8318,35.4936,晋城市,白云商贸,臭氧1小时,53,38,45,19,21,203,162,192,191,15,14,4,6,0.1,0.6
2023-06-12T21:00:00,2162A,112.8508,35.4887,晋城市,市环保局,颗粒物(PM10),53,56,43,24,25,177,139,170,168,17,15,10,11,0.5,0.7
2023-06-12T21:00:00,2163A,112.8676,35.4897,晋城市,技术学院,,,,43,17,18,182,143,171,170,19,15,8,9,0.7,0.8
2023-06-12T21:00:00,2165A,112.8453,35.546,晋城市,白马寺,,,,,,,,,,,,,,,,
2023-06-12T21:00:00,2166A,112.4397,39.3522,朔州市,平朔,,40,24,49,6,13,140,126,134,134,8,25,3,10,0.3,0.3
2023-06-12T21:00:00,2167A,112.4575,39.3617,朔州市,朔唯,,39,39,55,10,11,141,112,134,133,16,30,4,10,0.3,0.4
2023-06-12T21:00:00,2168A,112.4258,39.3197,朔州市,区政府,,41,22,47,10,20,149,131,142,142,7,14,4,8,0.4,0.4
2023-06-12T21:00:00,2169A,112.4072,39.3278,朔州市,市环保局,,,,,,,,,,,,,,,,
2023-06-12T21:00:00,2170A,112.4272,39.3681,朔州市,市二中,,37,28,58,10,12,142,117,135,135,12,25,5,10,0.3,0.4
2023-06-12T21:00:00,2171A,112.7532,37.6945,晋中市,锦纶小区,,49,38,43,12,22,219,154,190,176,17,21,11,11,0.2,0.3
2023-06-12T21:00:00,2173A,112.7249,37.7067,晋中市,南都小区,,48,48,52,19,21,213,138,181,165,19,23,7,8,0.5,0.5
2023-06-12T21:00:00,2174A,112.6991,37.6982,晋中市,榆次区政府,,49,49,51,28,20,217,139,182,167,24,25,12,13,0.4,0.4
2023-06-12T21:00:00,2175A,110.9956,35.0147,运城市,运城中学,颗粒物(PM10),76,102,72,42,28,186,150,178,173,15,13,7,6,0.8,0.6
2023-06-12T21:00:00,2178A,110.9686,35.0303,运城市,地区技校,颗粒物(PM10),71,92,74,44,26,197,161,187,183,16,14,8,7,0.9,0.7
2023-06-12T21:00:00,2179A,111.0414,35.1147,运城市,空港新区,,,,77,,31,214,173,200,196,,15,9,10,0.7,0.6
2023-06-12T21:00:00,2181A,112.7383,38.4519,忻州市,开发区,,41,31,50,10,14,175,130,155,151,21,22,8,9,0.4,0.6
2023-06-12T21:00:00,2182A,112.7003,38.4928,忻州市,会展中心,颗粒物(PM10),52,54,74,18,20,150,97,124,121,36,27,8,8,0.4,0.5
2023-06-12T21:00:00,2183A,111.1406,37.5211,吕梁市,环保局,,35,35,57,19,13,153,86,141,136,43,36,6,9,0.5,0.4
2023-06-12T21:00:00,2185A,111.1297,37.5136,吕梁市,自来水公司,,35,35,86,4,11,147,96,135,132,34,29,6,14,0.6,0.4
2023-06-12T21:00:00,2187A,106.8174,39.6973,乌海市,市林业局,,44,44,40,14,11,136,114,125,125,12,11,8,12,0.5,0.6
2023-06-12T21:00:00,2188A,106.7907,39.6667,乌海市,中海勃湾学校,,38,33,35,9,10,134,121,125,125,12,15,9,12,0.4,0.4
2023-06-12T21:00:00,2191A,122.2532,43.6801,通辽市,艺术职业学校,,30,28,23,21,11,119,77,114,106,22,13,5,5,0.6,0.5
2023-06-12T21:00:00,2192A,119.7594,49.2261,呼伦贝尔市,区环保局,细颗粒物(PM2.5),95,80,34,71,21,97,42,92,85,50,25,5,5,0.7,0.5
2023-06-12T21:00:00,2195A,107.4212,40.761,巴彦淖尔市,附二中,,33,21,144,8,23,143,103,130,128,15,16,3,16,0.5,0.5
2023-06-12T21:00:00,2196A,107.37,40.7372,巴彦淖尔市,市环保大楼,,36,24,141,14,31,142,113,130,130,12,14,22,11,0.4,0.4
2023-06-12T21:00:00,2197A,113.1306,40.9923,乌兰察布市,集宁新区,,39,22,22,11,13,137,123,136,134,11,11,14,14,0.4,0.4
2023-06-12T21:00:00,2200A,122.0392,46.0656,兴安盟,胜华新制药厂,,43,43,18,26,14,131,82,124,117,23,14,4,3,0.3,0.3
2023-06-12T21:00:00,2201A,121.9504,46.0741,兴安盟,科右前旗环保局,,29,29,17,17,15,135,91,128,124,16,5,4,3,0.2,0.1
2023-06-12T21:00:00,2202A,116.1042,43.9317,锡林郭勒盟,市环保监测站,,28,20,16,2,6,121,89,114,104,7,11,8,8,0.2,0.2
2023-06-12T21:00:00,2203A,116.0781,43.9311,锡林郭勒盟,市政府,,29,13,21,4,6,118,91,113,102,13,12,7,8,0.2,0.2
2023-06-12T21:00:00,2204A,105.6467,38.8363,阿拉善盟,西城区西花园,,38,32,34,21,13,137,119,128,126,10,12,8,9,0.4,0.4
2023-06-12T21:00:00,2205A,105.6985,38.8411,阿拉善盟,蒙二幼,,41,27,28,23,18,142,130,133,133,6,7,9,9,0.3,0.3
2023-06-12T21:00:00,2206A,105.724,38.8516,阿拉善盟,环保局新楼,,41,18,25,18,15,145,131,137,136,7,7,8,9,0.5,0.5
2023-06-12T21:00:00,2207A,121.6094,41.998,阜新市,工业园区,,25,15,31,10,20,108,78,93,93,24,34,24,29,0.6,0.6
2023-06-12T21:00:00,2208A,121.6697,42.0279,阜新市,长青街,,25,9,32,10,23,92,80,87,83,19,30,10,25,0.6,0.8
2023-06-12T21:00:00,2209A,121.6673,42.0705,阜新市,农业园区,,36,36,27,23,20,109,67,90,88,14,16,10,14,0.6,0.7
2023-06-12T21:00:00,2210A,121.6717,42.0224,阜新市,东苑,,27,22,37,6,24,91,86,88,88,17,32,12,37,0.6,0.8
2023-06-12T21:00:00,2211A,121.6506,42.0498,阜新市,玉龙新城,,33,18,32,23,32,93,40,84,77,26,24,7,13,0.6,0.6
2023-06-12T21:00:00,2212A,123.2,41.1953,辽阳市,宏伟区,,25,20,27,10,16,112,79,97,90,14,18,10,12,0.6,0.8
2023-06-12T21:00:00,2213A,123.1683,41.2495,辽阳市,新华园,,26,22,38,18,24,102,78,92,90,26,29,3,6,0.6,0.8
2023-06-12T21:00:00,2214A,123.2354,41.2639,辽阳市,滨河路,,27,27,31,12,18,104,64,86,77,29,22,12,8,0.4,0.6
2023-06-12T21:00:00,2215A,123.149,41.2991,辽阳市,铁西工业园,颗粒物(PM10),55,60,48,21,23,114,35,89,63,44,32,7,12,0.7,1.1
2023-06-12T21:00:00,2216A,123.8139,42.3022,铁岭市,汇工街西,,26,12,40,7,17,130,82,124,117,33,23,5,10,0.2,0.4
2023-06-12T21:00:00,2217A,123.8649,42.2923,铁岭市,水上乐园,,27,8,33,7,25,121,86,117,114,36,30,6,9,0.5,0.8
2023-06-12T21:00:00,2218A,123.8486,42.2867,铁岭市,银州路东段,,27,18,38,6,19,122,86,117,113,32,30,4,5,0.3,0.5
2023-06-12T21:00:00,2219A,123.7153,42.2217,铁岭市,金沙江路北,,29,14,26,9,17,124,92,120,117,20,29,5,9,0.4,0.6
2023-06-12T21:00:00,2220A,120.4318,41.5881,朝阳市,西梁,,23,18,26,16,17,112,58,102,93,20,19,11,13,0.7,0.7
2023-06-12T21:00:00,2221A,120.4521,41.5646,朝阳市,河畔小区,,29,2,27,15,19,122,90,114,108,6,13,7,8,0.6,0.7
2023-06-12T21:00:00,2222A,120.4176,41.5648,朝阳市,八里堡,,26,20,31,18,16,122,73,113,105,23,21,6,9,0.8,0.7
2023-06-12T21:00:00,2223A,120.3806,41.5969,朝阳市,农业园区,,42,17,19,29,15,115,30,106,90,34,16,5,5,0.8,0.6
2023-06-12T21:00:00,2225A,124.4002,43.1713,四平市,一商场,,38,38,22,18,15,134,64,125,116,54,25,7,7,0.5,0.4
2023-06-12T21:00:00,2226A,124.388,43.193,四平市,境园,,23,20,15,9,11,129,71,122,116,33,20,5,6,0.6,0.3
2023-06-12T21:00:00,2227A,125.1358,42.8845,辽源市,环保局,,29,26,20,20,16,139,71,130,120,25,15,6,6,0.7,0.6
2023-06-12T21:00:00,2229A,125.9358,41.7173,通化市,光明,,21,21,23,14,11,135,58,126,110,25,17,8,16,0.3,0.4
2023-06-12T21:00:00,2230A,125.9446,41.7325,通化市,铁路,,17,12,25,10,15,134,52,125,108,29,21,11,18,0.4,0.6
2023-06-12T21:00:00,2231A,126.4219,41.9171,白山市,喜丰,,,41,32,15,12,140,,130,123,25,18,9,10,0.4,0.3
2023-06-12T21:00:00,2232A,126.4077,41.9419,白山市,环保局,,38,38,35,19,14,147,79,135,125,17,13,10,11,0.6,0.5
2023-06-12T21:00:00,2233A,124.8006,45.1214,松原市,江南,,37,37,22,19,16,144,111,135,134,25,13,5,5,0.6,0.5
2023-06-12T21:00:00,2234A,124.7965,45.1722,松原市,江北,,28,24,19,17,20,127,89,119,116,17,14,2,3,0.5,0.4
2023-06-12T21:00:00,2235A,122.7911,45.6077,白城市,洮北区环保局,,33,24,24,12,10,135,104,128,126,23,10,5,5,0.2,0.2
2023-06-12T21:00:00,2236A,122.8738,45.5725,白城市,市环保局,,36,36,21,13,14,130,101,124,122,18,13,2,3,0.3,0.3
2023-06-12T21:00:00,2237A,129.47,42.8883,延边朝鲜族自治州,妇幼医院,,20,16,11,12,7,110,62,104,91,19,11,8,8,0.6,0.5
2023-06-12T21:00:00,2238A,129.5055,42.9108,延边朝鲜族自治州,延边医院,,24,19,14,10,6,114,76,106,96,15,13,8,8,0.5,0.5
2023-06-12T21:00:00,2239A,129.3964,42.8881,延边朝鲜族自治州,朝阳川镇医院,,26,26,10,5,3,128,39,116,94,26,9,8,8,0.6,0.5
2023-06-12T21:00:00,2240A,130.9762,45.3001,鸡西市,环保局,,44,44,23,27,11,120,11,109,68,77,26,4,5,0.9,0.5
2023-06-12T21:00:00,2243A,130.9429,45.3039,鸡西市,第一中学,,37,37,20,16,12,124,57,116,83,32,15,5,5,0.4,0.3
2023-06-12T21:00:00,2244A,130.2537,47.3416,鹤岗市,哈啤分公司,,23,20,21,16,16,123,65,108,89,14,11,10,10,0.3,0.3
2023-06-12T21:00:00,2245A,130.2684,47.3086,鹤岗市,斯达机电,,28,28,21,12,15,129,60,109,89,23,14,9,9,0.2,0.1
2023-06-12T21:00:00,2246A,130.3114,47.3388,鹤岗市,东山纸板厂,,18,14,25,11,17,140,57,120,92,27,18,11,11,0.4,0.6
2023-06-12T21:00:00,2247A,130.1097,47.3382,鹤岗市,五号水库,,,,,,,,,,,,,,,,
2023-06-12T21:00:00,2248A,131.1511,46.6937,双鸭山市,双合村,,25,15,41,15,13,127,77,112,105,9,20,8,22,0.0,1.1
2023-06-12T21:00:00,2249A,131.1652,46.6191,双鸭山市,南小市,,25,7,29,13,15,134,77,117,110,12,13,4,5,0.1,0.2
2023-06-12T21:00:00,2250A,131.1524,46.6554,双鸭山市,环保局,,,,25,,15,134,,119,119,,22,,11,,0.5
2023-06-12T21:00:00,2251A,131.12,46.5656,双鸭山市,苗圃,,25,18,15,9,8,133,80,112,107,9,7,4,4,0.3,0.3
2023-06-12T21:00:00,2252A,128.5159,47.4311,伊春市,环保局,,15,14,14,7,7,106,48,94,78,15,11,6,6,0.5,0.5
2023-06-12T21:00:00,2253A,128.9102,47.7412,伊春市,电力嘉园,,48,48,24,10,11,108,38,89,61,14,10,6,5,0.5,0.4
2023-06-12T21:00:00,2254A,129.5029,48.471,伊春市,汤旺河国家公园,,39,19,16,27,20,82,39,73,65,1,1,16,13,0.4,0.3
2023-06-12T21:00:00,2255A,130.2751,46.8028,佳木斯市,佳纺,,31,31,30,17,17,98,94,89,89,13,22,6,7,0.3,0.3
2023-06-12T21:00:00,2256A,130.3995,46.8307,佳木斯市,发电厂,,49,49,29,15,17,96,67,90,88,37,20,19,9,0.3,0.3
2023-06-12T21:00:00,2257A,130.3258,46.7975,佳木斯市,环保局,,26,26,27,14,15,97,77,86,85,24,22,5,5,0.5,0.4
2023-06-12T21:00:00,2258A,130.3648,46.8032,佳木斯市,十一中,,29,25,28,14,16,97,91,92,92,11,24,6,7,0.3,0.4
2023-06-12T21:00:00,2259A,130.3794,46.7588,佳木斯市,四丰,,31,16,22,9,15,118,99,105,105,18,20,1,1,0.3,0.3
2023-06-12T21:00:00,2262A,131.0518,45.8751,七台河市,新一中,,33,33,23,12,13,134,95,122,106,8,13,7,8,0.7,0.7
2023-06-12T21:00:00,2263A,127.4833,50.2524,黑河市,交通局,,33,12,13,23,13,111,58,95,86,25,16,8,8,0.5,0.4
2023-06-12T21:00:00,2264A,127.5144,50.2341,黑河市,环保局,,32,28,26,22,13,115,72,102,92,16,13,4,7,0.4,0.4
2023-06-12T21:00:00,2265A,127.5291,50.2472,黑河市,大黑河岛,,23,3,12,14,12,136,71,119,108,9,4,14,12,0.5,0.4
2023-06-12T21:00:00,2266A,126.9785,46.6365,绥化市,人和东街,,26,26,20,12,11,126,77,119,112,35,22,6,7,0.5,0.5
2023-06-12T21:00:00,2267A,126.964,46.6528,绥化市,党政办公中心,,28,28,18,13,10,140,79,129,120,38,21,8,8,0.5,0.4
2023-06-12T21:00:00,2269A,124.1069,50.4097,大兴安岭地区,科技局,,34,34,19,16,11,96,42,92,86,18,5,6,6,0.3,0.2
2023-06-12T21:00:00,2270A,117.396,32.939,蚌埠市,工人疗养院,,,,48,,20,158,124,150,147,15,13,6,8,0.3,0.4
2023-06-12T21:00:00,2271A,117.3605,32.9427,蚌埠市,百货大楼,,38,38,46,15,19,181,111,181,141,24,13,4,5,0.3,0.4
2023-06-12T21:00:00,2273A,117.4185,32.8911,蚌埠市,蚌埠学院,,41,41,48,20,22,148,118,145,140,18,16,6,8,0.3,0.3
2023-06-12T21:00:00,2274A,117.3533,32.9673,蚌埠市,淮上区政府,,46,46,48,16,22,171,123,171,142,18,16,5,7,0.3,0.4
2023-06-12T21:00:00,2275A,117.3145,32.8977,蚌埠市,高新区,,39,39,46,17,22,156,122,152,144,19,13,6,7,0.2,0.4
2023-06-12T21:00:00,2277A,116.8305,32.7727,淮南市,潘集区政府,,45,45,52,18,29,198,120,187,174,16,14,7,9,0.2,0.4
2023-06-12T21:00:00,2278A,117.0067,32.6524,淮南市,师范学院,,46,46,51,18,25,194,130,183,173,15,12,7,9,0.3,0.4
2023-06-12T21:00:00,2279A,116.8569,32.5951,淮南市,谢家集区政府,臭氧1小时,62,63,45,12,22,195,169,190,187,18,19,11,10,0.3,0.4
2023-06-12T21:00:00,2280A,116.8281,32.633,淮南市,八公山区政府,臭氧1小时,59,52,57,19,24,197,167,190,187,13,14,8,11,0.4,0.5
2023-06-12T21:00:00,2281A,116.6325,32.6201,淮南市,焦岗湖风景区管理处,,49,42,45,26,23,186,154,180,174,16,16,5,5,0.3,0.4
2023-06-12T21:00:00,2282A,116.8004,33.975,淮北市,监测站,,41,36,41,17,16,171,131,163,157,19,12,4,4,0.4,0.4
2023-06-12T21:00:00,2283A,116.8091,33.9007,淮北市,烈山区政府,,43,41,32,16,17,184,135,172,168,14,11,4,6,0.2,0.3
2023-06-12T21:00:00,2284A,116.7856,33.9477,淮北市,职业技术学院,,,,,,,,,,,,,,,,
2023-06-12T21:00:00,2285A,117.8177,30.9412,铜陵市,市第四中学,,50,50,51,20,29,167,124,159,149,18,12,8,9,0.4,0.5
2023-06-12T21:00:00,2286A,117.8059,30.9273,铜陵市,市公路局,,47,47,52,18,32,187,131,172,156,16,14,6,7,0.5,0.6
2023-06-12T21:00:00,2287A,117.7807,30.9413,铜陵市,市新民污水厂,,49,49,56,20,24,188,134,172,160,18,17,8,9,0.4,0.6
2023-06-12T21:00:00,2288A,117.7439,30.8792,铜陵市,市第九中学,颗粒物(PM10),56,61,75,30,34,209,128,153,143,36,43,12,12,0.6,0.7
2023-06-12T21:00:00,2289A,117.846,30.9413,铜陵市,车站新区,,49,49,52,29,28,176,110,165,149,30,20,5,4,0.5,0.5
2023-06-12T21:00:00,2290A,117.8483,30.97,铜陵市,市职教基地,,47,47,46,18,22,149,116,144,138,14,11,8,5,0.5,0.7
2023-06-12T21:00:00,2291A,117.0809,30.5177,安庆市,环科院,,48,48,52,32,37,234,133,217,198,29,17,10,11,0.5,0.8
2023-06-12T21:00:00,2292A,117.0331,30.5119,安庆市,马山宾馆,,48,31,51,28,37,232,152,219,202,18,17,5,7,0.8,1
2023-06-12T21:00:00,2294A,116.9896,30.6145,安庆市,安庆大学,细颗粒物(PM2.5),52,49,54,36,39,213,145,201,184,16,15,9,9,0.5,0.7
2023-06-12T21:00:00,2295A,118.2903,29.6963,黄山市,延安路89号,颗粒物(PM10),51,51,48,18,16,184,84,175,150,15,8,7,6,0.5,0.6
2023-06-12T21:00:00,2296A,118.327,29.7178,黄山市,黄山东路89号,,40,40,37,17,18,186,88,176,152,14,9,5,5,0.5,0.4
2023-06-12T21:00:00,2297A,118.1371,30.2756,黄山市,黄山区政府5号楼,,50,50,43,32,23,163,134,148,142,11,8,7,7,0.6,0.7
2023-06-12T21:00:00,2298A,118.3093,32.3153,滁州市,老年大学,,43,42,38,19,20,209,137,189,184,37,25,9,7,0.4,0.4
2023-06-12T21:00:00,2299A,118.3244,32.2786,滁州市,人大宾馆,,45,42,38,26,22,201,142,185,178,32,28,10,8,0.4,0.3
2023-06-12T21:00:00,2301A,115.8277,32.8929,阜阳市,市监测站,臭氧1小时,67,47,46,21,20,228,173,217,212,22,17,9,12,0.6,0.6
2023-06-12T21:00:00,2303A,115.8554,32.8605,阜阳市,开发区,臭氧1小时,62,70,53,25,17,231,169,217,210,25,16,12,12,0.7,0.6
2023-06-12T21:00:00,2307A,116.5079,31.737,六安市,监测大楼,臭氧1小时,52,38,42,17,20,201,161,195,189,10,10,5,6,0.4,0.5
2023-06-12T21:00:00,2308A,116.4738,31.7643,六安市,皖西学院,臭氧1小时,70,40,49,17,19,207,176,204,199,11,11,6,7,0.3,0.4
2023-06-12T21:00:00,2309A,116.4996,31.7905,六安市,朝阳厂,臭氧1小时,64,37,40,17,19,207,171,202,196,14,12,7,8,0.5,0.6
2023-06-12T21:00:00,2310A,116.5567,31.7886,六安市,开发区,,50,48,57,24,30,207,159,199,192,18,11,6,10,0.8,0.9
2023-06-12T21:00:00,2311A,115.8072,33.8399,亳州市,污水处理厂,臭氧1小时,70,47,50,31,20,201,176,192,191,12,10,6,7,0.3,0.4
2023-06-12T21:00:00,2312A,115.7789,33.8518,亳州市,三国揽胜宫,,,51,47,21,18,206,178,198,196,,9,6,6,,0.5
2023-06-12T21:00:00,2314A,117.47,30.6618,池州市,池州学院,颗粒物(PM10),51,51,55,33,37,237,142,202,180,14,13,6,9,0.8,1
2023-06-12T21:00:00,2316A,118.7581,30.9454,宣城市,鳌峰子站,颗粒物(PM10),54,57,47,23,32,135,116,119,119,17,16,6,5,0.4,0.6
2023-06-12T21:00:00,2317A,118.7385,30.9743,宣城市,敬亭山子站,颗粒物(PM10),53,55,46,25,31,142,118,127,125,25,19,7,9,0.4,0.6
2023-06-12T21:00:00,2318A,118.7173,30.9427,宣城市,开发区子站,颗粒物(PM10),51,52,46,22,27,142,126,129,128,17,13,10,7,0.5,0.6
2023-06-12T21:00:00,2319A,119.0141,25.4325,莆田市,荔城区仓后路,,,28,28,9,13,124,,115,112,8,7,7,6,0.8,0.7
2023-06-12T21:00:00,2320A,119.0015,25.4553,莆田市,莆田市监测站,,31,29,30,9,15,132,98,119,114,5,6,6,6,0.5,0.5
2023-06-12T21:00:00,2321A,119.1119,25.4561,莆田市,涵江区六中,,32,32,28,14,14,125,94,113,107,8,9,7,7,0.7,0.7
2023-06-12T21:00:00,2322A,119.1013,25.3215,莆田市,秀屿区政府,,27,14,25,8,12,113,84,105,100,3,5,6,6,0.7,0.7
2023-06-12T21:00:00,2323A,118.981,25.4792,莆田市,东圳水库,,,,,,,,,,,,,,,,
2023-06-12T21:00:00,2324A,117.6211,26.2625,三明市,三钢,,45,44,41,31,26,148,54,131,110,28,18,6,8,0.6,0.6
2023-06-12T21:00:00,2325A,117.635,26.2714,三明市,三明二中,,41,41,37,21,20,145,61,130,112,29,19,5,5,0.7,0.6
2023-06-12T21:00:00,2326A,117.6028,26.2378,三明市,三元区政府,,46,46,46,21,24,151,66,137,114,23,18,7,9,0.8,0.9
2023-06-12T21:00:00,2327A,117.7275,26.3108,三明市,洋溪,,,,,,,,,,,,,,,,
2023-06-12T21:00:00,2331A,118.0966,26.6761,南平市,茫荡山,,,,,,,,,,,,,,,,
2023-06-12T21:00:00,2332A,118.1681,26.6369,南平市,南平市监测站,,46,46,38,20,19,147,53,132,106,21,12,4,4,0.9,0.7
2023-06-12T21:00:00,2333A,118.1825,26.6489,南平市,南平铝业有限公司,细颗粒物(PM2.5),53,52,39,37,22,144,57,131,109,22,15,6,7,0.9,0.7
2023-06-12T21:00:00,2334A,118.1756,26.6272,南平市,南平七中,,45,45,38,24,19,150,65,132,112,16,9,4,4,0.7,0.7
2023-06-12T21:00:00,2335A,117.0189,25.1181,龙岩市,龙岩师专,,,,,,,,,,,,,,,,
2023-06-12T21:00:00,2336A,117.0217,25.1033,龙岩市,龙岩市监测站,,42,34,37,23,18,157,132,143,140,18,17,8,9,0.5,0.6
2023-06-12T21:00:00,2337A,117.0258,25.0661,龙岩市,闽西职业技术学院,,43,43,38,25,20,148,128,138,135,16,14,13,9,0.7,0.7
2023-06-12T21:00:00,2338A,117.0196,25.0306,龙岩市,龙岩学院,,38,33,35,24,19,146,121,140,134,8,10,6,5,0.5,0.6
2023-06-12T21:00:00,2339A,119.5001,26.6946,宁德市,金涵水库,,,,,,,,,,,,,,,,
2023-06-12T21:00:00,2341A,119.5388,26.6612,宁德市,宁德市监测站,,,36,36,28,26,159,111,145,124,6,6,7,9,,0.9
2023-06-12T21:00:00,2342A,117.3102,29.3867,景德镇市,王港中学,,50,50,42,35,23,157,41,142,106,10,12,10,10,0.6,0.6
2023-06-12T21:00:00,2343A,117.2117,29.2933,景德镇市,老干部活动中心,颗粒物(PM10),53,55,55,29,29,160,84,142,122,12,11,4,4,0.2,0.1
2023-06-12T21:00:00,2344A,117.1894,29.2789,景德镇市,兽医站,细颗粒物(PM2.5),72,36,42,52,27,168,76,147,123,16,15,7,7,0.4,0.4
2023-06-12T21:00:00,2345A,117.1547,29.2617,景德镇市,台达陶瓷,颗粒物(PM10),55,60,49,36,28,170,39,153,125,60,13,58,175,1.0,0.5
2023-06-12T21:00:00,2346A,117.2461,29.2956,景德镇市,陶研所,颗粒物(PM10),54,58,47,19,22,160,75,143,118,6,7,4,5,0.2,0.2
2023-06-12T21:00:00,2347A,114.0997,27.5002,萍乡市,武功山,,23,23,22,13,17,131,50,102,82,6,6,23,27,0,0.5
2023-06-12T21:00:00,2348A,113.8385,27.6434,萍乡市,中医院,,34,31,47,20,30,155,106,147,130,11,10,5,17,0.7,0.8
2023-06-12T21:00:00,2349A,113.8493,27.6253,萍乡市,市政府车库,,41,41,61,27,35,177,103,159,136,12,11,12,22,1.2,1
2023-06-12T21:00:00,2350A,113.8676,27.6435,萍乡市,市环保局,,,32,53,,35,164,93,152,132,15,10,17,24,1.2,0.7
2023-06-12T21:00:00,2351A,113.866,27.6198,萍乡市,安源区政府,,50,50,51,13,24,172,100,152,134,16,17,15,24,1.3,0.9
2023-06-12T21:00:00,2352A,115.0861,27.9317,新余市,北岗,细颗粒物(PM2.5),63,59,47,45,35,188,88,166,145,8,10,20,20,0.8,0.8
2023-06-12T21:00:00,2353A,114.9886,27.8431,新余市,飞宇,颗粒物(PM10),62,74,69,41,35,197,159,192,189,13,21,15,12,0.6,0.6
2023-06-12T21:00:00,2354A,114.9231,27.8246,新余市,第二水厂,细颗粒物(PM2.5),79,83,68,58,37,183,155,179,176,18,18,11,13,0.5,0.4
2023-06-12T21:00:00,2355A,114.9308,27.8036,新余市,市气象局,细颗粒物(PM2.5),67,70,62,48,36,197,171,193,190,11,12,12,13,0.7,0.7
2023-06-12T21:00:00,2357A,116.9822,28.1136,鹰潭市,龙虎山,细颗粒物(PM2.5),75,43,49,55,38,191,88,159,140,11,6,4,5,0.8,0.5
2023-06-12T21:00:00,2358A,117.0564,28.2642,鹰潭市,新监测站,颗粒物(PM10),64,78,68,39,40,225,125,201,174,15,12,10,11,0.4,0.5
2023-06-12T21:00:00,2359A,117.0311,28.2475,鹰潭市,财苑宾馆,颗粒物(PM10),62,73,65,41,39,218,131,196,175,8,9,8,10,0.5,0.6
2023-06-12T21:00:00,2360A,117.0222,28.2264,鹰潭市,体育馆,颗粒物(PM10),65,80,64,35,38,217,135,198,180,11,12,4,6,0.4,0.5
2023-06-12T21:00:00,2361A,117.0017,28.2131,鹰潭市,三川水表,颗粒物(PM10),74,98,69,27,32,220,113,198,178,22,11,5,5,0.9,0.8
2023-06-12T21:00:00,2362A,114.9017,25.9149,赣州市,通天岩,,,,,,,,,,,,,,,,
2023-06-12T21:00:00,2363A,114.9367,25.8664,赣州市,地委,颗粒物(PM10),53,55,58,22,28,164,89,137,120,10,11,11,20,1.1,1.1
2023-06-12T21:00:00,2364A,114.9461,25.8481,赣州市,气象台,,42,42,48,17,28,180,106,157,131,10,20,6,12,0.8,0.9
2023-06-12T21:00:00,2365A,114.9322,25.8333,赣州市,市图书馆,颗粒物(PM10),51,51,59,19,29,170,104,154,129,9,19,10,15,1.2,1.3
2023-06-12T21:00:00,2366A,114.8905,25.8471,赣州市,华坚鞋城,颗粒物(PM10),56,62,64,33,28,167,100,142,122,4,12,6,14,1.0,1.1
2023-06-12T21:00:00,2367A,114.9754,27.0803,吉安市,红声器材厂,颗粒物(PM10),62,73,63,41,36,180,92,152,140,14,15,15,31,0.7,0.7
2023-06-12T21:00:00,2368A,114.9658,27.0999,吉安市,市森林工业局,颗粒物(PM10),59,68,60,37,37,166,88,143,130,13,15,10,18,0.4,0.5
2023-06-12T21:00:00,2369A,114.99,27.1312,吉安市,市环境监测站,颗粒物(PM10),53,55,60,34,37,174,95,155,139,14,14,10,20,0.7,0.9
2023-06-12T21:00:00,2370A,115.0093,27.0968,吉安市,青原区法院,颗粒物(PM10),55,59,60,36,38,173,107,158,150,14,14,16,22,0.6,0.6
2023-06-12T21:00:00,2371A,114.3408,27.8064,宜春市,槟榔水业,颗粒物(PM10),58,65,53,35,30,173,110,158,146,7,9,4,8,0.7,0.7
2023-06-12T21:00:00,2373A,114.3956,27.7844,宜春市,市石油公司,颗粒物(PM10),60,69,62,40,35,201,115,179,168,17,16,9,9,0.8,0.9
2023-06-12T21:00:00,2374A,114.3703,27.7914,宜春市,市气象局,颗粒物(PM10),57,64,60,37,35,193,110,172,161,17,17,10,11,0.8,0.8
2023-06-12T21:00:00,2375A,114.4013,27.8074,宜春市,市广电局,细颗粒物(PM2.5),62,66,60,44,32,187,116,172,160,14,13,11,12,1.0,0.9
2023-06-12T21:00:00,2376A,116.2127,28.0814,抚州市,桐源党溪,颗粒物(PM10),92,133,54,32,24,213,132,198,183,18,13,2,2,0,0.2
2023-06-12T21:00:00,2377A,116.3544,27.9831,抚州市,市站,颗粒物(PM10),60,70,56,38,32,154,144,149,146,6,7,11,8,0.7,0.7
2023-06-12T21:00:00,2378A,116.3565,27.963,抚州市,血防站,,,,58,,32,164,,153,148,6,7,8,9,0.8,1.1
2023-06-12T21:00:00,2379A,116.3564,28.0007,抚州市,采茶剧团,细颗粒物(PM2.5),60,66,55,43,32,156,128,146,142,12,9,6,7,1.0,1
2023-06-12T21:00:00,2380A,116.385,27.9647,抚州市,医学分院,颗粒物(PM10),56,62,53,39,28,166,134,152,145,8,8,8,6,1.1,1
2023-06-12T21:00:00,2381A,118.005,28.4572,上饶市,百草园,颗粒物(PM10),56,62,51,36,32,184,127,163,157,10,6,2,5,0.1,0.1
2023-06-12T21:00:00,2382A,117.9756,28.4436,上饶市,市监测站,颗粒物(PM10),54,58,61,36,33,192,135,186,172,15,11,5,11,0.6,0.6
2023-06-12T21:00:00,2383A,117.9519,28.4628,上饶市,凤凰光学,颗粒物(PM10),55,59,62,31,33,188,128,183,163,20,15,6,13,0.8,0.8
2023-06-12T21:00:00,2385A,114.17,35.9019,鹤壁市,市监测站,颗粒物(PM10),64,78,51,41,26,240,152,212,204,29,21,7,8,0.6,0.7
2023-06-12T21:00:00,2386A,114.2956,35.7511,鹤壁市,市交警支队,细颗粒物(PM2.5),60,63,48,43,22,222,146,204,195,36,23,12,13,0.7,0.9
2023-06-12T21:00:00,2387A,114.2878,35.7306,鹤壁市,迎宾馆,颗粒物(PM10),54,58,49,30,27,224,154,209,198,31,22,6,13,0.8,0.9
2023-06-12T21:00:00,2389A,113.836,35.311,新乡市,环保西院,颗粒物(PM10),63,76,50,40,23,225,132,194,185,32,18,9,9,1.2,1
2023-06-12T21:00:00,2390A,113.884,35.272,新乡市,开发区,臭氧1小时,63,56,40,27,23,222,170,202,199,22,16,6,6,1.1,1
2023-06-12T21:00:00,2391A,113.883,35.303,新乡市,环保东院,臭氧1小时,63,70,57,24,18,226,170,203,200,24,16,8,9,1.0,1
2023-06-12T21:00:00,2392A,115.0312,35.7636,濮阳市,环保局,臭氧1小时,65,42,38,27,22,206,172,199,197,18,15,5,6,0.5,0.4
2023-06-12T21:00:00,2394A,115.0574,35.7609,濮阳市,油田运输公司,臭氧1小时,68,41,45,25,24,203,174,197,195,17,12,5,5,0.4,0.3
2023-06-12T21:00:00,2395A,115.0866,35.7754,濮阳市,油田物探公司,臭氧1小时,87,50,44,35,28,216,189,206,205,14,11,3,4,0.4,0.4
2023-06-12T21:00:00,2396A,113.8276,34.0159,许昌市,监测站,臭氧1小时,82,42,65,24,23,209,185,199,199,16,14,3,3,0.1,0.2
2023-06-12T21:00:00,2398A,113.7906,33.9953,许昌市,开发区,臭氧1小时,79,45,45,28,24,207,183,197,197,16,14,3,3,0.5,0.5
2023-06-12T21:00:00,2399A,114.051,33.5699,漯河市,三五一五工厂,臭氧1小时,87,61,50,34,27,212,189,200,200,10,9,5,6,0.5,0.5
2023-06-12T21:00:00,2400A,114.0055,33.5698,漯河市,漯河大学,臭氧1小时,95,55,50,30,25,210,196,200,200,11,12,5,7,0.3,0.3
2023-06-12T21:00:00,2401A,114.0138,33.5828,漯河市,市水利局,臭氧1小时,77,58,56,29,25,202,181,192,192,12,10,5,7,0.5,0.4
2023-06-12T21:00:00,2402A,114.0261,33.5698,漯河市,市广电局,臭氧1小时,78,66,58,32,30,210,182,199,198,14,10,2,3,0.4,0.4
2023-06-12T21:00:00,2404A,112.5224,33.0122,南阳市,瓦房庄,,46,46,45,21,22,189,114,172,160,21,14,3,4,0.5,0.4
2023-06-12T21:00:00,2405A,112.5003,32.9735,南阳市,汉画馆,,45,45,42,28,23,188,106,169,157,20,10,58,6,0.6,0.6
2023-06-12T21:00:00,2406A,112.5573,33.027,南阳市,气象站,,44,44,48,25,22,185,113,166,155,20,13,5,6,0.6,0.6
2023-06-12T21:00:00,2407A,112.5481,32.9689,南阳市,理工学院,,42,42,44,26,24,188,130,171,163,14,13,6,7,0.4,0.4
2023-06-12T21:00:00,2408A,115.6702,34.4285,商丘市,环境监测站,颗粒物(PM10),52,53,46,25,20,201,150,187,183,21,13,8,8,0.5,0.5
2023-06-12T21:00:00,2409A,115.6458,34.4045,商丘市,粮食局,臭氧1小时,59,44,40,28,23,219,167,202,198,17,11,6,6,0.6,0.6
2023-06-12T21:00:00,2410A,115.6293,34.3948,商丘市,睢阳区环保局,臭氧1小时,62,46,50,28,23,209,169,197,194,15,14,4,4,0.4,0.4
2023-06-12T21:00:00,2420A,114.0189,32.9656,驻马店市,市一纸厂,臭氧1小时,62,62,56,28,23,202,169,188,188,9,9,3,4,0.4,0.4
2023-06-12T21:00:00,2421A,114.0114,33.015,驻马店市,市彩印厂,颗粒物(PM10),63,76,62,35,24,206,158,191,189,16,10,5,6,0.4,0.3
2023-06-12T21:00:00,2422A,113.9976,32.9771,驻马店市,天方二分厂,臭氧1小时,59,58,54,40,26,205,167,189,188,7,8,5,5,0.3,0.3
2023-06-12T21:00:00,2423A,115.0601,30.2313,黄石市,沈家营,颗粒物(PM10),58,65,71,38,35,230,145,208,192,25,24,12,15,0.6,0.7
2023-06-12T21:00:00,2424A,115.0817,30.2006,黄石市,陈家湾,颗粒物(PM10),56,62,69,35,34,219,139,204,185,10,18,8,10,0.6,0.6
2023-06-12T21:00:00,2426A,114.8988,30.2019,黄石市,铁山,臭氧1小时,69,70,64,42,34,252,175,222,216,15,15,14,11,0.7,0.7
2023-06-12T21:00:00,2427A,115.0307,30.2092,黄石市,团城山,颗粒物(PM10),59,67,62,27,27,232,155,198,187,18,23,14,14,0.5,0.6
2023-06-12T21:00:00,2428A,111.0419,32.395,十堰市,武当山,,39,4,19,5,10,124,124,115,108,5,6,10,10,0.6,0.6
2023-06-12T21:00:00,2429A,110.78,32.6494,十堰市,滨河新村,,32,32,41,20,21,124,84,116,112,11,8,4,4,0.6,0.5
2023-06-12T21:00:00,2430A,110.7258,32.6389,十堰市,刘家沟,,29,26,37,20,20,135,81,127,117,8,6,7,8,0.4,0.4
2023-06-12T21:00:00,2431A,110.8839,32.5714,十堰市,铁二处,,38,26,30,7,13,149,119,137,137,5,4,6,6,0.6,0.6
2023-06-12T21:00:00,2432A,112.155,32.0197,襄阳市,襄城运动路,,44,44,35,16,21,187,130,165,162,9,11,7,8,0.6,0.7
2023-06-12T21:00:00,2433A,112.1392,32.0564,襄阳市,樊城新华路,,42,34,37,20,23,186,134,169,164,8,11,7,9,0.6,0.6
2023-06-12T21:00:00,2434A,112.1825,32.1142,襄阳市,高新管委会,颗粒物(PM10),56,61,41,21,28,181,130,169,162,9,12,8,9,0.6,0.7
2023-06-12T21:00:00,2435A,112.2106,32.0903,襄阳市,襄州航空路,,49,49,40,11,23,180,130,165,160,12,14,7,8,0.6,0.7
2023-06-12T21:00:00,2436A,114.8938,30.3994,鄂州市,市政府,颗粒物(PM10),74,98,79,50,36,234,109,216,198,52,31,13,13,0.8,0.8
2023-06-12T21:00:00,2437A,114.8989,30.3714,鄂州市,赵家坝,细颗粒物(PM2.5),54,2,70,38,33,239,151,224,209,30,22,9,10,0.7,0.7
2023-06-12T21:00:00,2439A,112.2014,31.0481,荆门市,竹园小学,,,51,29,36,14,177,,165,165,14,10,12,7,,0.5
2023-06-12T21:00:00,2440A,112.1969,30.9891,荆门市,掇刀,颗粒物(PM10),52,53,28,22,9,167,141,155,154,15,10,11,11,0.6,0.6
