timepoint,stationcode,longitude,latitude,area,positionname,primarypollutant,aqi,pm10,pm10_24h,pm2_5,pm2_5_24h,o3,o3_24h,o3_8h,o3_8h_24h,no2,no2_24h,so2,so2_24h,co,co_24h
2025-08-01T1100,2566A,102.1879,31.914,阿坝藏族羌族自治州,州农科所,,23,23,20,9,10,56,,37,37,5,6,14,14,0.9,1
2025-08-01T1100,2568A,102.2502,31.8896,阿坝藏族羌族自治州,马师校,,22,13,16,9,15,70,,36,36,6,11,7,7,0.6,0.6
2025-08-01T1100,3994A,102.2165,31.9024,阿坝藏族羌族自治州,马尔康中学西区,,22,,15,12,13,68,,41,41,5,5,8,7,0.7,0.7
2025-08-01T1100,2695A,80.292,41.1694,阿克苏地区,电视台,颗粒物(PM10),58,66,46,20,19,55,,27,27,18,14,3,3,0.8,0.8
2025-08-01T1100,2696A,80.2613,41.1551,阿克苏地区,艺术中心,颗粒物(PM10),51,51,49,25,26,63,,32,32,20,17,3,3,0.6,0.6
2025-08-01T1100,2204A,105.6467,38.8363,阿拉善盟,西城区西花园,,38,27,17,7,7,120,,114,114,8,10,8,8,0.6,0.6
2025-08-01T1100,2205A,105.6985,38.8411,阿拉善盟,蒙二幼,,,28,16,13,11,103,,94,94,,4,9,9,0.5,0.5
2025-08-01T1100,2206A,105.724,38.8516,阿拉善盟,环保局新楼,,32,24,18,14,10,100,,81,81,6,6,9,8,0.6,0.5
2025-08-01T1100,2708A,88.1264,47.8517,阿勒泰地区,市站,,26,15,31,3,7,83,,81,81,19,16,2,2,0.5,0.4
2025-08-01T1100,2630A,80.1161,32.5,阿里地区,阿里监测站,,16,,4,3,2,50,,52,43,6,7,6,7,0.1,0.1
2025-08-01T1100,3192A,80.0903,32.5028,阿里地区,阿里藏医院,,18,8,5,3,2,56,,60,50,2,3,7,7,0.1,0.1
2025-08-01T1100,2642A,109.0318,32.6537,安康市,香溪洞,,43,28,23,20,13,136,,104,103,6,5,8,8,0.5,0.4
2025-08-01T1100,2644A,109.0072,32.6975,安康市,汉滨区检察院,,41,21,25,10,9,130,,71,71,5,7,10,8,0.7,0.5
2025-08-01T1100,4054A,109.0325,32.6913,安康市,市邮政管理局,,41,30,27,18,16,130,,78,78,5,7,4,5,0.5,0.5
2025-08-01T1100,2291A,117.0809,30.5177,安庆市,环科院,,22,22,17,14,8,53,,53,53,10,11,4,4,0.6,0.5
2025-08-01T1100,2292A,117.0331,30.5119,安庆市,马山宾馆,,25,25,17,16,17,44,,45,45,11,10,2,2,0.3,0.2
2025-08-01T1100,2294A,116.9896,30.6145,安庆市,安庆大学,,32,26,18,22,15,49,,45,45,20,15,4,4,0.5,0.3
2025-08-01T1100,3173A,117.0598,30.5351,安庆市,市人大,,26,18,15,18,15,53,,53,53,12,12,4,4,0.5,0.4
2025-08-01T1100,3122A,105.9606,26.2611,安顺市,伍家关,,,,18,14,11,97,,39,39,5,14,3,3,0.5,0.6
2025-08-01T1100,3123A,105.9408,26.2431,安顺市,凤凰山,,30,23,25,9,17,96,,30,30,7,19,6,5,0.4,0.5
2025-08-01T1100,3124A,105.9439,26.2564,安顺市,金钟山,,,,20,,16,95,,43,43,,9,8,6,,0.5
2025-08-01T1100,3125A,105.8983,26.2481,安顺市,娄家坡,,27,22,20,13,19,84,,58,58,5,9,6,7,0.4,0.5
2025-08-01T1100,1818A,114.4839,36.0621,安阳市,棉研所,,,,,,,,,,,,,,,,
2025-08-01T1100,1819A,114.3551,36.1017,安阳市,红庙街,颗粒物(PM10),51,52,36,24,14,146,,92,92,14,13,6,4,0.6,0.5
2025-08-01T1100,1820A,114.361,36.0681,安阳市,银杏小区,颗粒物(PM10),52,54,37,30,14,147,,100,100,12,13,4,4,0.6,0.5
2025-08-01T1100,3141A,114.3922,36.0878,安阳市,信访局,颗粒物(PM10),55,60,34,34,12,151,,100,100,12,12,6,6,0.7,0.6
2025-08-01T1100,3669A,114.4705,36.0637,安阳市,左辅环卫站,颗粒物(PM10),53,55,40,30,16,136,,96,96,11,13,7,6,0.5,0.4
2025-08-01T1100,3703A,114.2917,36.0949,安阳市,安钢职工学校,,49,49,41,22,15,145,,98,98,8,11,6,7,0.6,0.5
2025-08-01T1100,1748A,123.044,41.1196,鞍山市,深沟寺,,28,28,42,16,27,86,,50,50,3,12,6,7,0.7,1.7
2025-08-01T1100,1749A,123.011,41.0931,鞍山市,太阳城,,27,18,35,10,23,85,,56,54,7,16,5,8,0.7,1.7
2025-08-01T1100,1750A,123.0485,41.1442,鞍山市,太平,,30,27,58,11,30,93,,64,62,6,18,5,9,0.9,1.8
2025-08-01T1100,1751A,122.9642,41.0971,鞍山市,铁西三道街,,32,32,49,18,28,88,,61,59,11,22,7,8,1.0,1.4
2025-08-01T1100,1753A,123.022,41.0821,鞍山市,明达新区,,25,24,38,12,26,80,,62,62,5,14,7,9,0.6,1.5
2025-08-01T1100,1754A,123.1289,41.0228,鞍山市,千山,,,,,,,,,,,,,,,,
2025-08-01T1100,4201A,122.9446,41.0826,鞍山市,兴盛南路290号,,29,21,49,14,24,90,,58,58,10,26,7,7,0.8,1.2
2025-08-01T1100,2195A,107.4212,40.761,巴彦淖尔市,附二中,,39,27,20,8,13,123,,76,76,5,7,6,6,0.6,0.6
2025-08-01T1100,2196A,107.37,40.7372,巴彦淖尔市,市环保大楼,,38,29,31,21,13,120,,70,70,5,9,6,6,0.5,0.5
2025-08-01T1100,1956A,86.1472,41.7538,巴音郭楞蒙古自治州,孔雀公园,,29,23,34,20,18,81,,77,74,15,13,3,3,0.2,0.3
2025-08-01T1100,1957A,86.1972,41.7166,巴音郭楞蒙古自治州,棉纺厂,,43,43,43,13,14,85,,66,66,7,15,4,4,0.1,0.2
2025-08-01T1100,1958A,86.2357,41.7173,巴音郭楞蒙古自治州,经济开发区,,27,14,26,3,12,86,,76,75,6,7,3,3,0.2,0.2
2025-08-01T1100,2914A,106.7677,31.8794,巴中市,苏山坪,,32,27,26,19,19,101,,93,84,7,6,1,2,0.6,0.6
2025-08-01T1100,3181A,106.7768,31.8526,巴中市,市五中,,35,28,28,22,22,110,,58,58,11,10,9,9,0.7,0.7
2025-08-01T1100,3183A,106.7418,31.8654,巴中市,圣泉水务公司,,33,28,36,21,20,105,,66,66,4,6,7,7,0.7,0.7
2025-08-01T1100,3616A,106.7616,31.8344,巴中市,市中心医院,,36,32,32,19,18,113,,53,53,10,13,9,9,0.5,0.5
2025-08-01T1100,2235A,122.7911,45.6077,白城市,洮北区环保局,,32,9,10,7,8,102,,69,69,5,5,4,4,0.4,0.4
2025-08-01T1100,2236A,122.8738,45.5725,白城市,市环保局,,28,7,10,3,6,88,,63,63,4,4,4,3,0.3,0.3
2025-08-01T1100,2231A,126.4219,41.9171,白山市,喜丰,,26,22,50,15,16,81,,22,22,7,15,7,6,0.5,0.6
2025-08-01T1100,2232A,126.4077,41.9419,白山市,环保局,,35,35,29,21,12,84,,25,25,7,9,5,7,0.7,0.7
2025-08-01T1100,2647A,104.1724,36.5446,白银市,第三小学,细颗粒物(PM2.5),93,81,56,69,30,90,,88,86,17,7,35,19,1.1,0.9
2025-08-01T1100,2648A,104.1465,36.5482,白银市,动力公司,细颗粒物(PM2.5),58,64,47,41,26,103,,77,77,13,9,49,10,0.8,0.5
2025-08-01T1100,2512A,106.6103,23.9011,百色市,市监测站,,20,16,20,8,10,62,,39,39,4,7,4,4,0.5,0.5
2025-08-01T1100,2513A,106.6538,23.8859,百色市,市中心血站,,23,23,28,6,14,66,,40,40,9,15,2,3,0.6,0.6
2025-08-01T1100,3406A,106.6085,23.8798,百色市,祈福高中,,18,8,24,3,10,55,,31,31,8,12,4,4,0.5,0.5
2025-08-01T1100,2270A,117.396,32.939,蚌埠市,工人疗养院,,,10,13,3,3,56,,51,50,2,3,,4,0.3,0.3
2025-08-01T1100,2271A,117.3605,32.9427,蚌埠市,百货大楼,,16,9,11,3,5,49,,48,44,4,4,6,6,0.4,0.4
2025-08-01T1100,2273A,117.4185,32.8911,蚌埠市,蚌埠学院,,15,7,7,3,5,45,,45,42,12,6,6,6,0.4,0.3
2025-08-01T1100,2274A,117.3533,32.9673,蚌埠市,淮上区政府,,18,17,10,3,7,56,,51,49,5,6,5,5,0.4,0.4
2025-08-01T1100,2275A,117.3145,32.8977,蚌埠市,高新区,,14,9,9,3,3,43,,47,43,8,7,6,6,0.5,0.5
2025-08-01T1100,3715A,117.3092,32.9314,蚌埠市,蚌埠田家炳中学,,16,16,13,3,5,46,,45,41,4,6,6,6,0.3,0.2
2025-08-01T1100,1585A,109.8756,40.6532,包头市,市环境监测站,,42,29,24,20,16,134,,76,76,9,20,7,8,0.5,0.6
2025-08-01T1100,1587A,109.9991,40.5842,包头市,包头八中,,46,46,33,24,16,124,,63,63,11,22,8,7,0.6,0.7
2025-08-01T1100,1588A,109.8538,40.6821,包头市,青山宾馆,,41,24,23,14,17,129,,51,51,12,31,7,6,0.6,0.7
2025-08-01T1100,1589A,109.8642,40.6288,包头市,惠龙物流,,39,35,26,10,15,123,,73,73,8,17,7,8,0.6,0.7
2025-08-01T1100,1590A,110.0377,40.5546,包头市,东河鸿龙湾,,41,34,23,21,15,131,,59,59,8,21,6,4,0.6,0.7
2025-08-01T1100,3283A,109.9154,40.5685,包头市,滨河大厦,,41,22,19,16,13,129,,54,54,13,22,5,5,0.6,0.5
2025-08-01T1100,3419A,109.9447,40.6261,包头市,包头市委党校,,42,22,16,15,12,132,,71,71,12,23,6,8,0.6,0.7
2025-08-01T1100,3683A,109.8331,40.6576,包头市,昆区政府,,42,42,29,17,18,129,,68,68,12,22,7,8,0.6,0.8
2025-08-01T1100,1930A,107.185,34.3063,宝鸡市,庙沟村,,42,42,33,19,16,120,,98,92,13,12,4,4,0.5,0.4
2025-08-01T1100,1931A,107.0708,34.3017,宝鸡市,竹园沟,颗粒物(PM10),52,54,36,29,27,116,,69,69,22,13,10,9,0.8,0.6
2025-08-01T1100,1932A,107.1906,34.3672,宝鸡市,三陆医院,细颗粒物(PM2.5),52,44,42,36,24,129,,94,94,14,17,10,8,0.6,0.6
2025-08-01T1100,1933A,107.1431,34.3547,宝鸡市,监测站,,50,50,42,24,22,127,,84,84,16,14,11,9,0.6,0.5
2025-08-01T1100,1934A,107.1186,34.3739,宝鸡市,技工学校,颗粒物(PM10),51,51,40,23,23,125,,87,85,15,13,9,8,0.6,0.6
2025-08-01T1100,1936A,107.2058,34.3497,宝鸡市,文理学院,,,44,43,27,20,132,,97,97,,13,10,8,0.5,0.5
2025-08-01T1100,1937A,107.2386,34.3622,宝鸡市,三迪小学,,49,49,41,29,22,132,,96,96,15,17,10,9,0.7,0.6
2025-08-01T1100,4308A,107.3898,34.3601,宝鸡市,陈仓区北开路21号,,46,41,39,26,21,145,,94,94,9,14,10,8,0.5,0.5
2025-08-01T1100,1051A,115.493,38.8632,保定市,游泳馆,,40,38,32,20,14,128,,70,70,13,11,5,3,0.4,0.3
2025-08-01T1100,1052A,115.5213,38.8959,保定市,华电二区,,41,41,35,12,11,128,,50,50,11,15,7,3,0.3,0.3
2025-08-01T1100,1053A,115.4713,38.9108,保定市,接待中心,,39,26,29,14,10,123,,61,61,8,10,3,2,0.4,0.3
2025-08-01T1100,1054A,115.4612,38.8416,保定市,地表水厂,颗粒物(PM10),51,52,42,18,11,138,,78,78,10,9,6,4,0.4,0.3
2025-08-01T1100,3581A,115.31981,38.95208,保定市,满城区生态环境分局,,44,36,39,17,12,139,,72,72,10,19,6,4,0.3,0.2
2025-08-01T1100,3582A,115.47694,38.76408,保定市,清苑区第二中学,颗粒物(PM10),53,56,50,31,26,139,,75,75,8,11,7,6,0.4,0.4
2025-08-01T1100,3583A,115.62909,39.02311,保定市,徐水物探局,,44,31,36,17,6,138,,52,52,7,13,6,4,0.5,0.4
2025-08-01T1100,4004A,115.4202,38.8656,保定市,双鹰农机,,42,39,35,7,13,133,,75,75,10,12,7,3,0.3,0.2
2025-08-01T1100,4034A,115.5150,38.8590,保定市,植保所站,,,32,32,9,11,132,,69,69,12,13,3,2,,0.3
2025-08-01T1100,2594A,99.1678,25.1081,保山市,市环境监测站,,16,16,12,10,14,34,,20,20,9,7,7,5,0.4,0.3
2025-08-01T1100,2595A,99.1711,25.1328,保山市,市环保局,,19,19,14,3,6,38,,21,21,6,5,4,4,0.4,0.4
2025-08-01T1100,1866A,109.2262,21.588,北海市,牛尾岭水库,,18,6,13,3,9,57,,53,53,2,6,2,2,0.5,0.5
2025-08-01T1100,1867A,109.1436,21.4086,北海市,海滩公园,,19,10,38,3,5,59,,68,66,7,4,2,2,0.5,0.5
2025-08-01T1100,1868A,109.0981,21.4661,北海市,新市环保局,,17,6,18,3,10,53,,72,69,14,7,3,3,0.4,0.4
2025-08-01T1100,1869A,109.1778,21.5233,北海市,北海工业园,,15,15,22,3,10,47,,66,63,15,8,4,3,0.5,0.5
2025-08-01T1100,3400A,109.1911,21.4415,北海市,龙潭自来水厂,,,3,19,,11,51,,66,62,8,5,6,5,0.4,0.5
2025-08-01T1100,1001A,116.3621,39.8784,北京市,万寿西宫,臭氧1小时,52,40,44,29,24,161,,74,74,17,31,5,3,0.7,0.6
2025-08-01T1100,1002A,116.2202,40.2915,北京市,定陵,,43,,31,29,23,136,,63,63,4,3,12,12,0.6,0.5
2025-08-01T1100,1003A,116.4174,39.9289,北京市,东四,臭氧1小时,65,48,42,30,22,172,,83,83,15,26,6,4,0.8,0.6
2025-08-01T1100,1004A,116.4072,39.8863,北京市,天坛,臭氧1小时,57,50,38,30,21,165,,69,69,13,19,4,2,0.8,0.7
2025-08-01T1100,1005A,116.462,39.9365,北京市,农展馆,,47,46,42,26,22,150,,70,70,15,29,5,4,0.7,0.6
2025-08-01T1100,1006A,116.3392,39.9295,北京市,官园,颗粒物(PM10),53,55,46,20,23,160,,66,66,15,30,6,4,0.5,0.4
2025-08-01T1100,1007A,116.2878,39.9611,北京市,海淀万柳,,48,48,42,25,22,147,,51,51,18,33,5,3,0.7,0.6
2025-08-01T1100,1008A,116.6636,40.135,北京市,顺义新城,,,,,,,,,,,,,,,,
2025-08-01T1100,1009A,116.6275,40.3275,北京市,怀柔镇,,44,42,30,25,18,139,,73,73,15,12,1,2,0.5,0.4
2025-08-01T1100,1010A,116.2296,40.217,北京市,昌平镇,,42,39,36,17,21,133,,65,65,16,16,4,4,0.7,0.6
2025-08-01T1100,1011A,116.3966,39.9821,北京市,奥体中心,,43,43,42,25,23,121,,51,51,16,29,5,4,0.7,0.6
2025-08-01T1100,3281A,115.9718,40.4529,北京市,延庆夏都,,38,35,33,22,19,121,,59,59,7,8,3,3,0.7,0.7
2025-08-01T1100,3418A,116.8336,40.4095,北京市,密云新城,,38,32,32,18,20,119,,62,62,4,5,2,1,0.6,0.5
2025-08-01T1100,3671A,116.088,39.9726,北京市,门头沟三家店,,42,38,35,15,15,132,,43,43,2,14,8,3,0.6,0.5
2025-08-01T1100,3672A,116.1541,39.8204,北京市,丰台云岗,颗粒物(PM10),54,57,37,32,17,146,,57,57,10,21,4,3,0.8,0.6
2025-08-01T1100,3673A,116.6804,39.9081,北京市,通州东关,,45,44,51,25,25,141,,46,46,18,38,10,7,0.8,0.7
2025-08-01T1100,3674A,115.9577,39.7603,北京市,房山燕山,,46,46,35,32,23,141,,56,56,11,13,21,9,0.6,0.5
2025-08-01T1100,3675A,116.4672,39.7733,北京市,大兴旧宫,颗粒物(PM10),52,53,39,27,21,157,,55,55,12,26,5,3,1.0,0.8
2025-08-01T1100,3694A,115.986,40.4563,北京市,延庆石河营,,35,30,31,20,21,112,,48,48,7,7,2,3,0.5,0.5
2025-08-01T1100,3695A,116.6151,40.3053,北京市,怀柔新城,,41,41,31,25,19,123,,69,69,5,2,3,2,0.8,0.7
2025-08-01T1100,3696A,116.2545,39.8768,北京市,丰台小屯,,47,47,42,26,22,144,,62,62,10,23,3,2,0.9,0.7
2025-08-01T1100,3697A,116.84,40.3844,北京市,密云镇,,39,22,32,22,19,124,,52,52,7,16,5,4,0.7,0.7
2025-08-01T1100,4182A,116.1942,39.9158,北京市,八角北路9号,颗粒物(PM10),51,52,49,25,20,158,,68,68,5,19,6,4,0.6,0.6
2025-08-01T1100,4194A,117.0790,40.1518,北京市,洳河巡河路,,50,50,41,25,22,144,,69,69,6,8,5,4,0.7,0.6
2025-08-01T1100,1761A,123.8275,41.3064,本溪市,大峪,,23,18,28,8,12,71,,30,30,4,14,4,5,0.2,0.6
2025-08-01T1100,1762A,123.7567,41.3325,本溪市,溪湖,,25,25,32,9,15,61,,30,30,9,11,14,7,1.3,1.2
2025-08-01T1100,1763A,123.7169,41.3094,本溪市,彩屯,,29,29,34,17,18,48,,24,24,14,17,12,9,1.5,1.4
2025-08-01T1100,1764A,123.7669,41.2864,本溪市,东明,,27,27,33,10,16,60,,32,32,8,17,3,4,0.4,0.8
2025-08-01T1100,1765A,123.7992,41.2664,本溪市,新立屯,,20,20,26,9,13,63,,41,41,8,21,4,4,0.6,0.9
2025-08-01T1100,1766A,123.8142,41.3472,本溪市,威宁,,26,26,32,10,16,56,,20,20,6,13,8,8,0.4,0.8
2025-08-01T1100,2587A,105.2864,27.3125,毕节市,八中,,30,22,32,16,23,93,,32,32,8,14,7,5,0.3,0.4
2025-08-01T1100,2588A,105.31,27.2944,毕节市,师专,,28,26,36,16,21,88,,28,28,12,13,6,5,0.5,0.5
2025-08-01T1100,4263A,105.3688,27.3598,毕节市,工业大道,,31,21,33,15,22,99,,26,26,13,17,10,6,0.6,0.7
2025-08-01T1100,1629A,118.0018,37.3617,滨州市,第二水厂,,39,31,26,27,21,118,,60,60,6,10,3,3,0.4,0.4
2025-08-01T1100,1630A,117.9776,37.393,滨州市,北中新校,,41,41,28,24,17,131,,59,59,11,15,3,3,0.3,0.3
2025-08-01T1100,3514A,117.9378,37.3956,滨州市,中海酒店,,42,36,26,29,20,128,,60,60,4,8,9,9,0.4,0.4
2025-08-01T1100,3515A,117.9378,37.3553,滨州市,开发区一中,,42,39,26,27,17,134,,72,72,13,11,5,5,0.4,0.4
2025-08-01T1100,3516A,118.0917,37.694,滨州市,金海六路,,29,12,19,9,10,91,,59,59,1,7,8,9,0.0,0.2
2025-08-01T1100,4028A,117.9956,37.3753,滨州市,滨州市西街道办事处,,40,29,21,24,18,127,,67,67,6,9,2,2,0.2,0.2
2025-08-01T1100,2311A,115.8072,33.8399,亳州市,污水处理厂,,21,13,14,8,11,65,,47,47,6,8,2,3,0.5,0.4
2025-08-01T1100,2312A,115.7789,33.8518,亳州市,三国揽胜宫,,27,27,23,11,9,69,,52,52,4,6,2,5,0.5,0.5
2025-08-01T1100,3332A,115.7633,33.8034,亳州市,亳州学院,,20,,7,10,9,64,,47,47,7,7,3,3,0.5,0.4
2025-08-01T1100,2693A,82.0485,44.8556,博尔塔拉蒙古自治州,市党校,颗粒物(PM10),53,56,109,31,33,60,,54,48,11,11,4,4,0.4,0.3
2025-08-01T1100,2694A,82.0806,44.8969,博尔塔拉蒙古自治州,市环保局,颗粒物(PM10),56,61,109,22,28,59,,48,40,8,6,1,3,0.5,0.4
2025-08-01T1100,1071A,116.8842,38.2991,沧州市,沧县城建局,,42,29,33,8,12,134,,85,85,9,15,2,2,0.7,0.5
2025-08-01T1100,1072A,116.8584,38.3254,沧州市,电视转播站,,36,33,30,14,15,113,,61,61,8,20,3,2,0.3,0.3
2025-08-01T1100,1073A,116.8709,38.3228,沧州市,市环保局,,41,33,37,13,14,130,,72,72,4,14,2,2,0.3,0.3
2025-08-01T1100,3324A,116.8136,38.3004,沧州市,河北水利电力学院,,,24,19,17,15,138,,83,83,,11,3,3,0.3,0.3
2025-08-01T1100,2622A,97.1806,31.1273,昌都市,昌都监测站,,20,12,14,8,7,63,,71,61,8,3,4,4,0.3,0.2
2025-08-01T1100,3719A,97.1714,31.1406,昌都市,昌都会议中心,,24,15,14,12,7,75,,78,68,9,7,5,5,0.3,0.2
2025-08-01T1100,2690A,88.1236,43.8886,昌吉回族自治州,天山天池,颗粒物(PM10),54,58,12,11,5,95,,71,71,8,7,4,4,0.6,0.6
2025-08-01T1100,2692A,87.2717,44.0297,昌吉回族自治州,新区政务中心,颗粒物(PM10),55,59,51,18,15,79,,70,70,8,18,10,7,0.3,0.3
2025-08-01T1100,3613A,87.3095,44.0142,昌吉回族自治州,亚心广场,颗粒物(PM10),64,78,51,14,13,72,,67,66,12,15,10,8,0.3,0.3
2025-08-01T1100,1120A,125.2863,43.9027,长春市,客车厂,,38,35,24,12,11,121,,57,57,21,26,3,3,0.5,0.4
2025-08-01T1100,1121A,125.2841,43.8463,长春市,邮电学院,,45,30,19,9,7,142,,56,56,10,15,5,4,0.5,0.4
2025-08-01T1100,1122A,125.3716,43.8772,长春市,劳动公园,,45,34,28,15,12,141,,57,57,12,22,7,6,0.7,0.6
2025-08-01T1100,1123A,125.3297,43.8805,长春市,园林处,,42,41,20,10,7,132,,57,57,8,17,4,4,0.6,0.5
2025-08-01T1100,1124A,125.4605,43.79,长春市,净月潭,,36,26,15,9,5,114,,50,50,5,5,4,4,0.5,0.3
2025-08-01T1100,1125A,125.7194,43.515,长春市,甩湾子,,32,24,14,14,8,101,,36,36,7,11,5,4,0.7,0.5
2025-08-01T1100,1126A,125.3863,43.8447,长春市,经开区环卫处,,39,30,20,8,6,123,,49,49,10,21,3,2,0.5,0.3
2025-08-01T1100,1127A,125.245,43.7783,长春市,高新区管委会,,39,34,21,13,9,123,,52,52,9,16,3,3,0.6,0.4
2025-08-01T1100,1128A,125.1761,43.8325,长春市,岱山公园,,38,23,30,16,8,120,,54,54,2,25,3,3,0.5,0.4
2025-08-01T1100,4281A,125.3346,43.9164,长春市,北亚泰大街1068号,,46,46,33,15,13,96,,42,42,24,28,6,6,0.6,0.5
2025-08-01T1100,1335A,113.0833,28.2325,长沙市,经开区环保局,,44,34,36,18,21,139,,76,76,6,12,6,5,0.3,0.4
2025-08-01T1100,1336A,112.8872,28.2189,长沙市,高开区环保局,,43,43,39,15,18,131,,74,74,4,10,4,4,0.3,0.3
2025-08-01T1100,1337A,113.0792,28.2053,长沙市,马坡岭,,46,33,38,14,22,147,,69,69,3,13,5,5,0.3,0.3
2025-08-01T1100,1338A,112.9394,28.19,长沙市,湖南师范大学,,49,49,36,13,20,131,,77,77,4,5,4,3,0.5,0.5
2025-08-01T1100,1339A,113.0178,28.1322,长沙市,雨花区环保局,,45,37,36,16,17,144,,68,68,5,11,6,5,0.6,0.6
2025-08-01T1100,1340A,112.9792,28.2597,长沙市,伍家岭,,45,45,36,16,19,127,,60,60,8,16,1,1,0.4,0.3
2025-08-01T1100,1341A,113.0014,28.1944,长沙市,火车新站,,,,33,17,17,139,,73,73,7,7,7,5,,0.6
2025-08-01T1100,1342A,112.9844,28.1178,长沙市,天心区环保局,,46,39,33,14,20,145,,85,85,10,14,3,3,0.3,0.3
2025-08-01T1100,1343A,112.8908,28.1308,长沙市,湖南中医药大学,,44,44,39,29,25,135,,74,74,3,12,4,3,0.4,0.5
2025-08-01T1100,1344A,112.9581,28.3611,长沙市,沙坪,,39,25,33,18,22,124,,72,72,7,9,6,6,0.4,0.5
2025-08-01T1100,1727A,113.1147,36.1547,长治市,清华站,,45,27,29,12,15,143,,111,111,9,9,12,7,0.9,0.6
2025-08-01T1100,1730A,113.0886,36.2125,长治市,审计局,,45,23,26,17,17,142,,116,116,9,8,11,6,1.0,0.8
2025-08-01T1100,1731A,113.0844,36.1856,长治市,长治八中,,,,31,,22,,,141,,,4,,8,,0.7
2025-08-01T1100,2845A,113.1569,36.1911,长治市,德盛苑,,42,35,28,12,16,134,,106,106,7,8,9,6,1.0,0.8
2025-08-01T1100,3568A,113.06,36.0464,长治市,向阳小学,颗粒物(PM10),59,68,66,20,24,144,,94,94,4,6,7,7,0.8,0.8
2025-08-01T1100,3569A,112.8792,36.3144,长治市,屯留一中,颗粒物(PM10),56,62,47,38,34,140,,100,100,17,12,20,15,0.7,0.5
2025-08-01T1100,4189A,113.1131,36.19948,长治市,英华南巷50号,,,24,32,17,18,134,,104,104,,7,,7,0.9,0.9
2025-08-01T1100,4190A,113.2367,36.3344,长治市,学府街1号,,45,45,37,20,21,135,,107,107,11,13,17,7,1.1,0.7
2025-08-01T1100,1854A,111.6975,28.9703,常德市,市二中,细颗粒物(PM2.5),53,44,33,37,26,145,,65,65,6,10,5,4,0.6,0.6
2025-08-01T1100,1857A,111.7158,29.1456,常德市,白鹤山,,,,,,,,,,,,,,,,
2025-08-01T1100,3138A,111.7153,29.0289,常德市,武陵区永安,,48,48,37,28,28,135,,79,79,6,7,4,4,0.4,0.4
2025-08-01T1100,3139A,111.6892,28.9881,常德市,鼎城区玉霞,,43,41,35,27,25,136,,56,56,5,8,10,7,0.4,0.4
2025-08-01T1100,3140A,111.6625,29.0531,常德市,武陵区长庚,,43,31,33,28,23,136,,67,67,4,7,3,4,0.4,0.4
2025-08-01T1100,1196A,119.9633,31.762,常州市,市监测站,,42,42,24,26,15,129,,54,54,9,20,10,9,0.5,0.7
2025-08-01T1100,1200A,119.9468,31.7069,常州市,武进监测站,,,,12,30,13,134,,52,52,,13,11,11,0.9,0.9
2025-08-01T1100,1201A,119.9255,31.9087,常州市,安家,,39,34,25,23,14,122,,59,59,8,18,6,7,1.0,0.9
2025-08-01T1100,3002A,119.9805,31.8174,常州市,行政中心,,39,28,17,21,12,124,,54,54,10,22,11,11,0.6,0.7
2025-08-01T1100,3003A,120.0522,31.7748,常州市,经开区,,40,35,31,18,13,126,,53,53,8,23,5,3,0.5,0.5
2025-08-01T1100,3010A,119.9025,31.7964,常州市,钟楼,,41,38,16,26,10,130,,60,60,10,16,6,6,0.8,0.8
2025-08-01T1100,3429A,119.8598,31.7066,常州市,武进经发区,,36,34,24,25,14,112,,45,45,7,13,9,6,0.8,0.8
2025-08-01T1100,3430A,119.5826,31.7245,常州市,金坛城区,,34,34,14,23,8,92,,38,38,15,14,10,7,0.5,0.5
2025-08-01T1100,2220A,120.4318,41.5881,朝阳市,西梁,,39,39,39,20,16,112,,39,39,15,19,10,7,0.9,0.4
2025-08-01T1100,2221A,120.4521,41.5646,朝阳市,河畔小区,,48,48,26,17,11,112,,45,45,12,15,9,7,0.9,0.6
2025-08-01T1100,2222A,120.4176,41.5648,朝阳市,八里堡,颗粒物(PM10),55,60,37,17,15,119,,41,41,11,19,9,5,1.0,0.7
2025-08-01T1100,2223A,120.3806,41.5969,朝阳市,农业园区,,42,42,39,28,24,122,,41,41,14,21,10,7,0.8,0.6
2025-08-01T1100,1705A,116.6367,23.6719,潮州市,西园路,颗粒物(PM10),55,59,26,17,10,100,,40,40,12,9,7,4,0.3,0.3
2025-08-01T1100,3026A,116.6183,23.6608,潮州市,市政府,颗粒物(PM10),58,66,38,17,15,104,,46,46,13,16,13,12,0.4,0.5
2025-08-01T1100,4036A,116.6461,23.6761,潮州市,金山,颗粒物(PM10),61,71,34,28,16,107,,41,41,12,9,6,5,0.7,0.7
2025-08-01T1100,2472A,113.0073,25.9061,郴州市,马头岭,,27,27,28,8,10,82,,29,29,7,10,8,7,0.5,0.5
2025-08-01T1100,2473A,113.0116,25.8226,郴州市,市职中,,29,29,29,20,19,80,,26,26,6,9,10,7,0.3,0.4
2025-08-01T1100,2475A,113.0383,25.8071,郴州市,市审计局,,30,25,32,21,23,81,,33,33,3,7,14,13,0.2,0.2
2025-08-01T1100,2476A,113.0348,25.7759,郴州市,市环保局,,31,31,32,18,20,78,,29,29,7,7,12,8,0.3,0.3
2025-08-01T1100,4252A,113.0138,25.8011,郴州市,好美居路49号,,36,36,28,21,18,79,,30,30,8,6,10,9,0.3,0.3
2025-08-01T1100,1431A,103.9728,30.7236,成都市,金泉两河,臭氧1小时,63,49,37,25,22,170,,90,90,16,16,3,3,0.7,0.6
2025-08-01T1100,1432A,104.176,30.6872,成都市,十里店,臭氧1小时,69,41,48,20,28,175,,92,92,13,17,6,5,0.6,0.6
2025-08-01T1100,1433A,104.079,30.5706,成都市,三瓦窑,臭氧1小时,78,49,39,25,24,182,,75,75,22,25,4,4,0.6,0.5
2025-08-01T1100,1434A,104.1114,30.63,成都市,沙河铺,颗粒物(PM10),51,52,40,30,25,138,,69,69,16,15,6,6,0.7,0.6
2025-08-01T1100,1437A,104.0786,30.6531,成都市,君平街,臭氧1小时,58,50,47,38,28,166,,112,112,12,15,6,6,0.6,0.5
2025-08-01T1100,1438A,103.613,31.0283,成都市,灵岩寺,,,,,,,,,,,,,,,,
2025-08-01T1100,2880A,104.0239,30.65639,成都市,大石西路,,48,44,35,29,29,153,,95,95,14,14,5,4,0.7,0.7
2025-08-01T1100,3136A,104.2725,30.5589,成都市,龙泉驿区区政府,,,,19,,12,,,132,,,9,,4,,0.6
2025-08-01T1100,3357A,104.0106,30.6931,成都市,金博路,臭氧1小时,59,31,33,22,22,167,,83,83,15,17,6,5,0.9,0.8
2025-08-01T1100,3359A,104.0578,30.5225,成都市,华阳,臭氧1小时,52,46,32,34,24,161,,84,84,13,13,4,3,0.7,0.6
2025-08-01T1100,3488A,104.3853,30.7453,成都市,青白江技师分院,,50,42,35,35,19,149,,57,57,10,24,5,5,0.7,0.7
2025-08-01T1100,3489A,104.0789,30.4072,成都市,科学城,,45,27,29,23,21,144,,69,69,8,10,3,3,0.6,0.5
2025-08-01T1100,4011A,103.8506,30.6947,成都市,光华大道三段,,,58,37,42,22,176,,99,99,19,17,6,6,,0.7
2025-08-01T1100,4224A,104.2433,30.5353,成都市,鲸龙路1057号,,49,25,32,18,23,154,,90,90,9,14,4,5,0.7,0.7
2025-08-01T1100,1062A,117.9531,40.9081,承德市,铁路,颗粒物(PM10),52,54,39,29,19,86,,25,25,7,12,6,3,0.8,0.6
2025-08-01T1100,1063A,117.9392,40.9763,承德市,中国银行,,38,29,37,26,21,110,,30,30,7,12,1,2,0.6,0.6
2025-08-01T1100,1064A,117.9503,40.928,承德市,开发区,颗粒物(PM10),54,57,40,18,14,80,,27,27,16,13,6,5,0.9,0.7
2025-08-01T1100,1066A,117.9268,41.0026,承德市,离宫,,30,15,37,11,15,95,,29,29,7,7,2,2,0.5,0.5
2025-08-01T1100,4274A,117.7994,40.9605,承德市,滨河大街98号,,,,,,,,,,,,,,,,
2025-08-01T1100,2314A,117.47,30.6618,池州市,池州学院,,,,13,,11,,,41,,,7,,5,,0.5
2025-08-01T1100,3237A,117.4918,30.6617,池州市,展览馆,,22,19,15,13,10,69,,60,60,8,8,4,4,0.6,0.6
2025-08-01T1100,3333A,117.5627,30.695,池州市,第八中学,,23,12,14,10,9,72,,64,64,4,6,4,4,0.5,0.5
2025-08-01T1100,3334A,117.5038,30.6243,池州市,第十二中学,,21,16,15,14,10,65,,60,60,9,9,2,2,0.7,0.7
2025-08-01T1100,1744A,118.9233,42.2816,赤峰市,松山一中,,30,13,15,10,9,96,,46,46,9,16,4,6,0.6,0.6
2025-08-01T1100,1745A,118.9576,42.2728,赤峰市,哈达街,,29,27,24,13,8,92,,59,59,12,14,13,14,0.5,0.5
2025-08-01T1100,1746A,118.8788,42.2554,赤峰市,天义路,,29,14,16,11,12,92,,55,55,8,11,8,12,0.4,0.4
2025-08-01T1100,3058A,119.2658,42.0353,赤峰市,银河街,,40,40,31,26,16,87,,32,32,10,14,14,16,0.7,0.6
2025-08-01T1100,3286A,118.9359,42.3147,赤峰市,桥北物流园区,,,66,21,29,12,83,,32,32,,18,,10,0.5,0.5
2025-08-01T1100,2521A,107.3476,22.4136,崇左市,市环保局江州分局,,26,26,23,8,11,35,,66,51,13,6,6,6,0.6,0.5
2025-08-01T1100,4256A,107.3750,22.3736,崇左市,石景林东路7号,,,,16,,11,,,104,,,7,,4,,0.5
2025-08-01T1100,2298A,118.3093,32.3153,滁州市,老年大学,,19,19,13,7,6,36,,33,32,19,10,8,8,0.4,0.4
2025-08-01T1100,2299A,118.3244,32.2786,滁州市,人大宾馆,,19,,6,13,9,46,,39,39,7,5,4,4,0.3,0.3
2025-08-01T1100,3207A,118.3118,32.3038,滁州市,市政府原办公楼,,20,14,8,14,11,46,,36,36,8,8,5,5,0.3,0.3
2025-08-01T1100,3331A,118.3267,32.2634,滁州市,图书馆,,26,,8,18,12,50,,42,42,11,9,10,10,0.3,0.3
2025-08-01T1100,2605A,101.5482,25.0441,楚雄彝族自治州,州环境监测站,,25,,10,17,7,34,,17,17,8,9,9,7,0.6,0.5
2025-08-01T1100,2606A,101.538,25.0492,楚雄彝族自治州,市经济开发区,,26,26,18,14,8,38,,18,18,8,10,8,6,0.6,0.6
2025-08-01T1100,2548A,107.5277,31.2827,达州市,达州职业技术学院,,34,34,34,11,11,108,,37,37,9,18,12,10,0.6,0.5
2025-08-01T1100,2549A,107.5086,31.2186,达州市,市环境监测站,,34,34,30,9,11,92,,34,34,24,22,10,8,0.4,0.4
2025-08-01T1100,2550A,107.4988,31.2132,达州市,凤凰小区,,32,29,27,14,14,101,,41,41,16,19,12,9,0.3,0.4
2025-08-01T1100,2551A,107.5082,31.1986,达州市,达县机关宾馆,,34,31,30,12,12,106,,44,44,16,22,11,8,0.4,0.4
2025-08-01T1100,2552A,107.4644,31.2124,达州市,市政中心,,48,48,35,14,11,93,,40,40,19,17,9,6,0.3,0.3
2025-08-01T1100,2614A,100.1542,25.7054,大理白族自治州,大理市环境监测站,,22,,11,15,15,56,,19,19,9,12,4,4,0.5,0.5
2025-08-01T1100,2615A,100.2171,25.5811,大理白族自治州,大理古城,,16,11,16,7,7,49,,27,27,6,9,5,4,0.7,0.8
2025-08-01T1100,1109A,121.612,38.9741,大连市,甘井子,,21,11,9,7,7,66,,46,46,8,12,12,9,0,0.1
2025-08-01T1100,1110A,121.565,38.9511,大连市,周水子,,,15,17,7,7,50,,39,39,,8,8,7,,0.2
2025-08-01T1100,1111A,121.5637,38.8845,大连市,星海三站,,,11,16,6,6,58,,45,45,,4,4,4,0.2,0.3
2025-08-01T1100,1112A,121.6302,38.9117,大连市,青泥洼桥,,,14,12,3,6,72,,48,48,,8,5,6,0.6,0.6
2025-08-01T1100,1113A,121.6251,38.8638,大连市,傅家庄,,17,12,17,8,7,54,,38,38,4,6,7,8,0.0,0.1
2025-08-01T1100,1114A,121.5213,38.8661,大连市,七贤岭,,20,11,15,6,7,64,,41,41,1,3,8,8,0.2,0.2
2025-08-01T1100,1115A,121.2529,38.8061,大连市,旅顺,,14,12,12,6,8,44,,37,37,3,7,4,4,0.2,0.2
2025-08-01T1100,1116A,121.7485,39.1311,大连市,金州,,20,9,11,3,6,62,,44,44,7,11,7,7,0.1,0.2
2025-08-01T1100,1117A,121.7811,39.0496,大连市,开发区,,20,14,17,6,6,64,,42,42,9,12,6,7,0.3,0.3
2025-08-01T1100,1118A,121.9762,39.0631,大连市,双D港,,26,9,13,7,8,82,,48,48,2,4,7,7,0.4,0.4
2025-08-01T1100,1789A,124.81117,46.03138,大庆市,大同区,,23,16,19,3,7,73,,49,49,10,10,8,7,0.7,0.7
2025-08-01T1100,1790A,125.129,46.533,大庆市,龙凤区,,23,12,18,7,8,73,,53,53,18,12,7,6,0.6,0.6
2025-08-01T1100,1791A,124.902,46.408,大庆市,红岗区,,23,15,22,10,9,72,,57,57,8,12,8,8,0.6,0.6
2025-08-01T1100,1792A,125.153,46.586,大庆市,萨尔图区,,21,21,26,3,7,51,,53,53,20,14,8,7,0.6,0.5
2025-08-01T1100,1793A,124.9042,46.6215,大庆市,让胡路区,,26,22,23,16,13,82,,54,54,16,14,6,7,0.5,0.4
2025-08-01T1100,3481A,125.141,46.634,大庆市,萨区政府监测点,,22,15,24,3,4,70,,61,61,12,11,7,7,0.3,0.3
2025-08-01T1100,1721A,113.3819,40.1097,大同市,果树场,细颗粒物(PM2.5),53,43,38,37,22,103,,34,34,18,23,8,7,0.9,0.7
2025-08-01T1100,1723A,113.2994,40.0758,大同市,云冈宾馆,,47,47,60,32,34,126,,54,54,16,25,10,8,1.3,1.1
2025-08-01T1100,1724A,113.3444,40.0917,大同市,大同大学,,48,48,40,28,25,133,,65,65,14,19,10,7,0.9,0.8
2025-08-01T1100,1725A,113.2661,40.1269,大同市,安家小村,,48,47,61,33,36,122,,47,47,14,24,11,7,1.0,0.9
2025-08-01T1100,1726A,113.2711,40.0844,大同市,教育学院,颗粒物(PM10),53,56,62,35,36,129,,54,54,16,27,11,9,1.0,1.3
2025-08-01T1100,3282A,113.3397,40.0597,大同市,大同市卫生学校,,42,37,51,29,28,117,,58,58,18,26,10,7,1.1,0.8
2025-08-01T1100,3565A,113.1367,40.1122,大同市,云冈站,细颗粒物(PM2.5),63,69,70,45,33,132,,37,37,22,26,8,5,0.5,0.5
2025-08-01T1100,3566A,113.1186,40.2556,大同市,图书馆,,39,38,58,27,26,108,,34,34,9,14,15,8,0.8,0.8
2025-08-01T1100,3567A,113.5931,40.0461,大同市,区一中,,,50,35,26,26,100,,69,69,,11,,8,0.5,0.5
2025-08-01T1100,4199A,113.2798,40.0997,大同市,魏都大道141号,细颗粒物(PM2.5),60,58,61,43,36,129,,50,50,13,26,9,6,1.0,1.2
2025-08-01T1100,2269A,124.1069,50.4097,大兴安岭地区,科技局,,14,12,18,8,10,43,,20,20,5,4,3,3,0.3,0.3
2025-08-01T1100,3663A,124.1164,50.4278,大兴安岭地区,红旗社区,,15,6,4,3,2,48,,22,22,2,3,4,4,0.3,0.3
2025-08-01T1100,1600A,124.3303,40.0625,丹东市,江湾东路,,19,11,20,7,12,58,,53,52,6,10,6,13,0.4,0.5
2025-08-01T1100,1601A,124.4256,40.1503,丹东市,临江后街,,28,28,62,6,14,58,,49,48,4,11,9,7,0.5,0.7
2025-08-01T1100,1602A,124.3933,40.1461,丹东市,元宝山,,16,14,18,3,9,51,,51,48,6,11,3,4,0.4,0.5
2025-08-01T1100,1603A,124.3633,40.1092,丹东市,民主桥,,18,14,20,3,10,56,,50,49,6,9,4,4,0.4,0.4
2025-08-01T1100,3541A,109.5726,19.5167,儋州市,第一中学子站,,20,20,21,12,12,38,,32,32,3,4,4,5,0.4,0.4
2025-08-01T1100,3542A,109.5567,19.5187,儋州市,东坡学校子站,,28,28,20,10,11,40,,32,32,2,4,5,6,0.5,0.5
2025-08-01T1100,2616A,98.5842,24.428,德宏傣族景颇族自治州,德宏州监测站,,24,24,24,13,12,17,,10,9,6,9,9,10,0.7,0.6
2025-08-01T1100,3677A,98.5881,24.4368,德宏傣族景颇族自治州,芒市人民政府综合楼,,,31,28,21,12,20,,9,9,7,8,9,11,,0.7
2025-08-01T1100,1901A,104.4239,31.1208,德阳市,东山公园,,45,37,33,20,21,144,,85,85,7,12,3,3,0.9,0.9
2025-08-01T1100,1902A,104.3826,31.1317,德阳市,西小区,,49,49,37,23,27,130,,83,83,20,16,10,10,1.1,1
2025-08-01T1100,1904A,104.3553,31.1091,德阳市,耐火材料厂,颗粒物(PM10),51,51,40,27,27,135,,72,72,21,22,2,4,0.7,0.6
2025-08-01T1100,3639A,104.4019,31.1244,德阳市,市教育局,,47,41,38,21,24,149,,81,81,8,15,1,2,0.9,0.9
2025-08-01T1100,1622A,116.3032,37.4674,德州市,儿童乐园,,40,27,29,9,14,128,,79,79,3,10,10,10,0.4,0.5
2025-08-01T1100,1624A,116.2991,37.4451,德州市,监理站,,40,22,22,9,10,126,,78,78,2,8,12,13,0.2,0.2
2025-08-01T1100,3066A,116.2721,37.4379,德州市,九衢泉纯净水厂,,38,24,27,14,17,119,,74,74,6,10,15,17,0.5,0.6
2025-08-01T1100,3371A,116.3728,37.4403,德州市,开发区人民医院,,37,27,25,14,14,116,,71,71,7,12,10,10,0.8,0.8
2025-08-01T1100,3511A,116.5652,37.3319,德州市,陵城艺术中心,,37,31,32,9,16,116,,65,65,6,9,6,5,0.5,0.5
2025-08-01T1100,4292A,116.3525,37.4209,德州市,新河东路,,39,31,29,14,17,122,,82,82,6,9,11,10,0.9,0.8
2025-08-01T1100,2621A,99.7056,27.8317,迪庆藏族自治州,迪庆州站,,22,22,19,10,12,44,,28,28,9,9,7,7,0.5,0.5
2025-08-01T1100,3180A,99.7136,27.8094,迪庆藏族自治州,质量技术监督局,,18,18,19,6,7,50,,37,36,10,14,6,7,0.4,0.5
2025-08-01T1100,4257A,104.6092,35.5962,定西市,将台街,,38,38,46,17,18,115,,65,65,5,11,8,8,0.5,0.5
2025-08-01T1100,4309A,104.6159,35.5701,定西市,正龙路62号,,,36,44,15,21,113,,70,70,,10,5,4,0.3,0.3
2025-08-01T1100,1389A,113.7547,23.0494,东莞市,莞城梨川,,40,,27,16,19,127,,66,66,15,22,7,8,0.5,0.6
2025-08-01T1100,1390A,113.7944,23.0128,东莞市,东城石井,,36,27,24,18,14,114,,48,48,19,27,4,3,0.6,0.6
2025-08-01T1100,1391A,113.7383,22.9658,东莞市,南城西平,,44,24,20,21,12,139,,67,67,21,23,7,6,0.6,0.6
2025-08-01T1100,3319A,113.7338,23.0381,东莞市,万江金泰,,40,31,24,18,15,128,,54,54,16,25,4,3,0.7,0.8
2025-08-01T1100,3626A,113.7533,23.0202,东莞市,南城元岭,,39,27,21,16,15,123,,64,64,17,24,7,6,0.6,0.6
2025-08-01T1100,3627A,113.7875,23.0457,东莞市,东城主山,颗粒物(PM10),73,96,38,32,19,103,,56,56,36,30,5,4,0.6,0.6
2025-08-01T1100,1666A,118.6614,37.4309,东营市,市环保局,,28,19,16,14,10,87,,57,57,10,10,7,6,0.2,0.2
2025-08-01T1100,3036A,118.6904,37.4338,东营市,开发区管委会,,30,30,20,14,8,86,,60,60,7,8,6,6,0.2,0.2
2025-08-01T1100,3365A,118.5719,37.565,东营市,垦利区民丰路,,29,19,16,7,8,90,,51,51,8,9,3,3,0.6,0.5
2025-08-01T1100,3498A,118.5055,37.8612,东营市,河口城区,,35,22,15,12,6,110,,74,74,13,11,6,4,0.7,0.8
2025-08-01T1100,3646A,118.4978,37.4623,东营市,胜利站,,43,43,23,9,8,116,,63,63,11,11,4,3,0.4,0.4
2025-08-01T1100,3734A,118.35,37.26,东营市,理想之城,,33,19,15,12,11,104,,55,55,8,7,6,4,0.4,0.3
2025-08-01T1100,1591A,110.0023,39.8129,鄂尔多斯市,综合楼,,46,46,30,27,18,129,,86,86,13,16,4,2,0.8,0.7
2025-08-01T1100,1592A,109.9486,39.8261,鄂尔多斯市,巴音孟克林场办事处,,46,46,35,22,20,137,,82,82,10,17,4,3,0.7,0.7
2025-08-01T1100,1593A,109.7736,39.5986,鄂尔多斯市,康泽苑,颗粒物(PM10),54,58,38,29,18,104,,58,58,14,13,7,7,0.6,0.6
2025-08-01T1100,1594A,109.8119,39.5989,鄂尔多斯市,华泰汽车城,颗粒物(PM10),51,51,35,27,22,88,,43,43,17,17,6,4,0.8,0.8
2025-08-01T1100,1595A,109.9734,39.7884,鄂尔多斯市,奥林花园,,49,41,34,34,26,121,,57,57,9,18,7,6,0.9,0.8
2025-08-01T1100,2436A,114.8938,30.3994,鄂州市,市政府,,26,26,22,6,10,83,,78,74,12,14,5,6,0.6,0.6
2025-08-01T1100,2437A,114.8989,30.3714,鄂州市,赵家坝,,30,26,25,8,10,94,,83,83,7,8,7,7,1.0,1
2025-08-01T1100,3654A,114.8094,30.4089,鄂州市,精准医疗中心,,,27,27,6,9,111,,89,89,,14,4,4,0.6,0.6
2025-08-01T1100,2454A,109.4978,30.2981,恩施土家族苗族自治州,湖北民院,,36,23,21,8,19,114,,63,63,4,7,5,5,0.5,0.4
2025-08-01T1100,2455A,109.4707,30.2798,恩施土家族苗族自治州,州电力总公司,,42,42,22,28,19,85,,35,35,18,15,9,8,0.3,0.3
2025-08-01T1100,3549A,109.5061,30.3772,恩施土家族苗族自治州,龙凤新区,,38,22,19,6,14,121,,66,66,5,5,4,4,0.5,0.5
2025-08-01T1100,2499A,108.3411,21.6158,防城港市,沙万,,23,18,31,16,19,41,,48,48,26,17,8,5,0.8,0.6
2025-08-01T1100,2500A,108.3514,21.7731,防城港市,防城档案局,,14,12,40,9,16,44,,41,41,18,15,2,2,0.7,0.7
2025-08-01T1100,2501A,108.3506,21.6414,防城港市,大海花园,,14,14,24,8,17,41,,57,57,21,12,7,6,0.7,0.6
2025-08-01T1100,1371A,113.1294,23.0067,佛山市,湾梁,,27,27,26,16,18,85,,56,55,20,23,7,6,0.8,0.8
2025-08-01T1100,1372A,113.1083,23.0478,佛山市,华材职中,,31,31,24,17,18,88,,46,45,23,23,10,8,0.6,0.6
2025-08-01T1100,1373A,113.144,23.0453,佛山市,南海气象局,,35,35,30,14,17,81,,41,41,21,24,5,3,0.6,0.6
2025-08-01T1100,1374A,113.2881,22.8094,佛山市,顺德苏岗,,33,17,20,17,13,105,,53,52,20,25,8,6,0.9,0.9
2025-08-01T1100,1376A,112.8383,22.8678,佛山市,高明孔堂,,28,26,16,7,10,88,,56,56,20,11,8,6,0.8,0.7
2025-08-01T1100,1377A,112.8836,23.1588,佛山市,三水监测站,,34,34,22,18,16,61,,34,34,26,27,6,4,0.5,0.5
2025-08-01T1100,1378A,112.867,23.185,佛山市,三水云东海,细颗粒物(PM2.5),53,48,34,37,22,63,,31,31,33,30,3,3,0.7,0.7
2025-08-01T1100,3625A,113.2544,22.7642,佛山市,容桂街道办,,32,,17,22,15,94,,59,59,23,28,7,6,0.7,0.7
2025-08-01T1100,1280A,119.3903,26.0543,福州市,鼓山,,,,,,,,,,,,,,,,
2025-08-01T1100,1282A,119.2681,26.0504,福州市,师大,,40,36,37,18,17,127,,71,71,9,13,4,5,0.3,0.3
2025-08-01T1100,1283A,119.2984,26.1028,福州市,五四北路,,41,38,39,21,20,130,,65,65,12,14,4,4,0.3,0.3
2025-08-01T1100,1284A,119.2648,26.0768,福州市,杨桥西路,,,37,35,21,19,129,,55,55,,12,4,4,0.3,0.3
2025-08-01T1100,1285A,119.317,26.0746,福州市,紫阳,,41,41,39,21,23,116,,66,66,12,12,5,6,0.3,0.3
2025-08-01T1100,3048A,119.5799,26.0936,福州市,九龙,,35,30,35,19,23,111,,65,65,6,9,5,5,0.3,0.3
2025-08-01T1100,3526A,119.5189,25.9664,福州市,吴航,,32,31,36,19,21,101,,71,71,6,7,5,5,0.5,0.5
2025-08-01T1100,1755A,123.7977,41.8491,抚顺市,望花区,,,,39,13,20,83,,51,51,10,23,,8,,0.9
2025-08-01T1100,1756A,123.9161,41.8822,抚顺市,顺城区,,41,41,34,11,17,87,,49,49,6,26,5,6,0.8,1
2025-08-01T1100,1757A,124.0436,41.8611,抚顺市,东洲区,,25,19,23,12,15,80,,46,46,8,14,5,6,0.6,0.8
2025-08-01T1100,1758A,123.9247,41.8642,抚顺市,新抚区,,24,23,31,11,16,76,,42,42,7,18,5,5,0.7,1
2025-08-01T1100,1759A,124.0972,41.8961,抚顺市,大伙房水库,,30,12,22,11,10,93,,44,44,9,14,6,6,0.6,0.7
2025-08-01T1100,1760A,123.7086,41.8391,抚顺市,沈抚新城,,25,18,33,14,20,79,,52,52,9,20,7,6,0.9,1
2025-08-01T1100,2376A,116.2127,28.0814,抚州市,桐源党溪,,32,32,26,14,11,81,,36,36,3,5,4,5,0.5,0.5
2025-08-01T1100,2377A,116.3544,27.9831,抚州市,市站,,39,39,27,16,13,98,,51,51,3,4,6,6,0.2,0.2
2025-08-01T1100,2378A,116.3565,27.963,抚州市,血防站,,31,31,29,20,14,88,,44,44,5,6,6,6,0.4,0.5
2025-08-01T1100,2379A,116.3564,28.0007,抚州市,采茶剧团,,37,37,26,14,13,98,,50,50,2,3,4,5,0.5,0.5
2025-08-01T1100,2380A,116.385,27.9647,抚州市,医学分院,,36,36,32,18,14,98,,51,51,2,2,4,5,0.5,0.5
2025-08-01T1100,2207A,121.6094,41.998,阜新市,工业园区,,48,37,36,16,15,151,,50,50,15,24,11,9,0.7,0.5
2025-08-01T1100,2208A,121.6697,42.0279,阜新市,长青街,,42,33,32,12,19,132,,47,47,10,22,10,10,0.7,1
2025-08-01T1100,2209A,121.6673,42.0705,阜新市,农业园区,,36,35,39,14,13,115,,51,51,13,14,6,7,0.9,0.8
2025-08-01T1100,2210A,121.6717,42.0224,阜新市,东苑,,43,42,45,14,23,135,,50,50,15,28,10,10,0.7,1.2
2025-08-01T1100,2211A,121.6506,42.0498,阜新市,玉龙新城,,38,34,37,17,14,119,,38,38,10,22,11,10,0.8,0.8
2025-08-01T1100,2301A,115.8277,32.8929,阜阳市,市监测站,,24,24,24,14,11,58,,46,46,10,12,3,4,0.2,0.2
2025-08-01T1100,2303A,115.8554,32.8605,阜阳市,开发区,,22,22,23,12,9,67,,47,47,9,10,6,6,0.2,0.3
2025-08-01T1100,2875A,115.784,32.8892,阜阳市,阜阳职业技术学院,,21,,15,12,12,65,,51,51,4,5,3,4,0.4,0.4
2025-08-01T1100,3468A,115.7901,32.8613,阜阳市,市规划展馆,,28,28,21,14,12,52,,41,41,6,7,2,3,0.5,0.5
2025-08-01T1100,3469A,115.836,32.9183,阜阳市,枣园社区,,24,24,24,13,12,61,,47,47,9,10,3,4,0.4,0.4
2025-08-01T1100,2669A,102.9099,34.9841,甘南藏族自治州,州政府,,36,33,30,25,18,73,,46,41,10,9,4,4,0.4,0.4
2025-08-01T1100,3380A,102.8914,34.9617,甘南藏族自治州,甘肃民族师范学院,,,,33,,19,80,,37,32,,7,10,9,0.4,0.4
2025-08-01T1100,2570A,101.9603,30.0475,甘孜藏族自治州,水桥子,,30,15,17,10,12,94,,36,36,13,16,6,6,0.4,0.4
2025-08-01T1100,3065A,101.9533,29.9972,甘孜藏族自治州,州环保局,,33,27,22,12,7,103,,52,48,9,14,6,6,0.5,0.5
2025-08-01T1100,3414A,115.8347,28.932,赣江新区,桑海产业园,,36,36,20,11,7,112,,55,55,10,12,8,7,0.5,0.4
2025-08-01T1100,2362A,114.9017,25.9149,赣州市,通天岩,,26,26,28,11,16,71,,46,46,5,6,16,16,0.7,0.7
2025-08-01T1100,2363A,114.9367,25.8664,赣州市,地委,,31,31,29,21,18,85,,41,41,11,10,12,6,1.0,0.9
2025-08-01T1100,2364A,114.9461,25.8481,赣州市,气象台,,30,27,29,17,15,93,,47,47,9,7,8,8,0.7,0.8
2025-08-01T1100,2365A,114.9322,25.8333,赣州市,市图书馆,,33,25,28,23,19,78,,42,42,9,8,4,4,0.5,0.5
2025-08-01T1100,2366A,114.8905,25.8471,赣州市,华坚鞋城,,29,29,30,13,17,78,,41,41,8,11,5,5,0.5,0.5
2025-08-01T1100,3109A,115.0093,25.8613,赣州市,赣县区卫计委,,,61,26,20,18,93,,39,39,11,9,8,4,,0.4
2025-08-01T1100,2683A,106.2319,36.1417,固原市,马园,,32,,73,15,23,101,,67,65,14,16,6,7,0.6,0.6
2025-08-01T1100,2684A,106.2792,36.0022,固原市,监测站,,32,23,51,14,21,102,,86,84,4,9,5,5,0.4,0.4
2025-08-01T1100,2685A,106.2375,36.0211,固原市,新区,,30,28,55,16,23,95,,88,84,8,9,6,6,0.5,0.5
2025-08-01T1100,3522A,106.2177,35.9959,固原市,原州区十五小,,,29,55,16,24,99,,81,77,,9,8,9,,0.5
2025-08-01T1100,2543A,106.6308,30.5278,广安市,小平旧居,,,,,,,,,,,,,,,,
2025-08-01T1100,2544A,106.6303,30.4576,广安市,市委,,42,29,34,12,20,134,,79,79,10,10,9,7,0.4,0.4
2025-08-01T1100,2545A,106.6271,30.4663,广安市,友谊中学,,44,17,26,16,15,138,,79,79,14,13,6,6,0.6,0.6
2025-08-01T1100,2547A,106.6388,30.4551,广安市,广电花园,颗粒物(PM10),67,83,47,22,16,134,,71,71,10,11,4,2,0.6,0.6
2025-08-01T1100,2902A,106.6351,30.4865,广安市,北辰小学,,43,36,30,14,15,135,,82,82,11,10,6,4,0.6,0.6
2025-08-01T1100,2523A,105.8945,32.4535,广元市,黑石坡,,43,43,33,24,23,116,,68,68,9,9,9,9,0.5,0.5
2025-08-01T1100,2524A,105.821,32.4444,广元市,老城,,42,11,16,6,6,134,,55,55,16,18,6,5,0.9,0.7
2025-08-01T1100,2526A,105.8628,32.4287,广元市,监测站,,38,30,30,3,15,120,,63,63,11,10,12,10,1.0,0.8
2025-08-01T1100,3617A,105.8047,32.4166,广元市,经开区,,44,44,38,26,27,115,,50,50,18,15,6,5,0.9,0.7
2025-08-01T1100,1345A,113.2347,23.1423,广州市,广雅中学,,,33,36,23,21,112,,56,56,24,31,3,3,,0.4
2025-08-01T1100,1346A,113.2612,23.105,广州市,市五中,,34,29,29,20,19,107,,60,60,23,26,5,5,0.6,0.6
2025-08-01T1100,1348A,113.3478,23.0916,广州市,广东商学院,,35,22,27,14,18,110,,38,38,17,34,3,3,0.8,0.8
2025-08-01T1100,1349A,113.4332,23.1047,广州市,市八十六中,,29,29,26,15,16,68,,29,29,48,45,3,3,0.3,0.4
2025-08-01T1100,1350A,113.3505,22.9483,广州市,番禺中学,,36,21,21,12,13,114,,64,64,10,20,6,6,0.4,0.5
2025-08-01T1100,1351A,113.2146,23.3916,广州市,花都师范,,35,35,40,16,17,102,,67,67,14,17,4,4,0.6,0.6
2025-08-01T1100,1352A,113.2597,23.1331,广州市,市监测站,,36,31,34,16,18,114,,56,56,19,28,6,6,0.5,0.5
2025-08-01T1100,1353A,113.5618,23.312,广州市,九龙镇镇龙,,30,20,34,13,22,94,,62,62,15,27,6,6,0.6,0.7
2025-08-01T1100,1354A,113.2765,23.1544,广州市,麓湖,,35,26,29,15,19,109,,36,36,21,31,3,3,0.6,0.6
2025-08-01T1100,1355A,113.443,23.3035,广州市,帽峰山森林公园,,33,15,26,3,12,103,,58,58,20,28,7,7,0.7,0.8
2025-08-01T1100,2846A,113.3221,23.1322,广州市,体育西,,38,38,46,17,19,105,,52,52,24,32,3,3,0.6,0.6
2025-08-01T1100,3298A,113.5717,23.5491,广州市,从化街口,,,25,23,14,14,100,,56,56,,11,6,5,,0.7
2025-08-01T1100,3299A,113.3472,23.3692,广州市,白云竹料,,32,24,27,16,22,101,,62,62,16,19,4,4,0.5,0.5
2025-08-01T1100,3300A,113.2981,23.237,广州市,白云嘉禾,,33,29,34,18,22,105,,58,58,24,32,4,4,0.6,0.6
2025-08-01T1100,3301A,113.4256,23.1716,广州市,黄埔科学城,,34,16,33,11,21,106,,57,57,13,26,2,3,0.5,0.6
2025-08-01T1100,3302A,113.3942,23.0483,广州市,番禺大学城,,,24,29,,13,122,,56,56,14,29,6,8,,0.5
2025-08-01T1100,3303A,113.4922,22.8168,广州市,南沙黄阁,,32,27,27,12,12,102,,63,63,14,26,6,4,0.5,0.5
2025-08-01T1100,3304A,113.5342,22.7896,广州市,南沙街,,35,24,22,11,10,112,,68,68,14,15,4,4,0.5,0.5
2025-08-01T1100,3443A,113.2902,23.5544,广州市,花都梯面,,32,11,17,7,11,100,,66,66,4,10,5,5,0.7,0.6
2025-08-01T1100,3445A,113.7858,23.7478,广州市,从化良口,,35,26,13,16,7,109,,54,54,6,8,4,4,0.6,0.6
2025-08-01T1100,3446A,113.8051,23.2614,广州市,增城荔城,,36,20,33,12,18,113,,46,46,9,20,7,7,1.5,0.8
2025-08-01T1100,2505A,109.568,23.1478,贵港市,德智高中,,,,,,,,,,,,,,,,
2025-08-01T1100,2506A,109.6047,23.0666,贵港市,江南子站,,43,36,29,30,28,67,,60,60,11,9,8,7,0.8,0.7
2025-08-01T1100,2508A,109.5669,23.1065,贵港市,荷城子站,,42,41,24,29,14,56,,68,64,13,8,8,7,0.6,0.4
2025-08-01T1100,3405A,109.5886,23.1172,贵港市,新世纪学校,颗粒物(PM10),51,51,26,31,19,59,,70,67,16,9,4,2,0.5,0.5
2025-08-01T1100,4260A,109.5933,23.0951,贵港市,中山路155-3号,,47,47,31,21,20,59,,73,71,13,9,5,4,0.7,0.6
2025-08-01T1100,1439A,106.6899,26.5998,贵阳市,马鞍山,,24,17,19,3,5,76,,24,24,8,10,4,3,0.7,0.6
2025-08-01T1100,1441A,106.6243,26.6266,贵阳市,鉴湖路,,31,31,33,9,9,86,,85,85,8,15,6,6,0.3,0.2
2025-08-01T1100,1442A,106.7487,26.6343,贵阳市,燕子冲,,35,,17,24,22,94,,37,37,9,14,11,9,0.7,0.3
2025-08-01T1100,1443A,106.6555,26.4365,贵阳市,碧云窝,,36,36,35,9,13,86,,27,27,16,17,5,5,0.0,0.1
2025-08-01T1100,1445A,106.7109,26.6027,贵阳市,红边门,,28,14,22,9,13,88,,45,45,9,15,5,7,0.2,0.2
2025-08-01T1100,1446A,106.7164,26.5699,贵阳市,新华路,,29,24,32,12,16,90,,46,46,11,17,18,18,0.5,0.4
2025-08-01T1100,1447A,106.674,26.5424,贵阳市,太慈桥,,32,17,18,9,10,102,,38,38,13,15,4,3,0.1,0.1
2025-08-01T1100,1552A,106.805,26.3003,贵阳市,桐木岭,,34,34,31,19,18,74,,47,47,4,6,8,7,0.8,0.7
2025-08-01T1100,4230A,106.6882,26.5695,贵阳市,花果园大街66号,,27,,17,12,17,86,,37,37,10,18,3,4,0.3,0.4
2025-08-01T1100,4231A,106.6873,26.5169,贵阳市,漓江路57号,,,19,26,9,14,97,,30,30,,15,4,4,0.3,0.4
2025-08-01T1100,1862A,110.4144,25.3167,桂林市,电子科大尧山校区,,,,,,,,,,,,,,,,
2025-08-01T1100,1864A,110.3089,25.2708,桂林市,龙隐路小学,,42,42,20,24,13,85,,61,60,11,7,10,10,0.3,0.2
2025-08-01T1100,1865A,110.2869,25.2178,桂林市,八中,,34,34,19,8,8,88,,60,59,8,8,6,7,0.4,0.4
2025-08-01T1100,3531A,110.296,25.1253,桂林市,旅游学院,,32,,16,22,12,78,,50,50,4,6,7,8,0.4,0.3
2025-08-01T1100,4222A,110.1835,25.2444,桂林市,环湖路276号,,29,29,21,17,13,56,,45,38,16,14,4,8,0.4,0.4
2025-08-01T1100,4301A,110.2803,25.2773,桂林市,信义路13号,,42,42,19,14,8,87,,65,61,10,7,6,5,0.6,0.5
2025-08-01T1100,2674A,100.2561,34.4714,果洛藏族自治州,玛沁县大武镇,,29,27,26,6,9,91,,44,44,9,6,12,11,0.3,0.2
2025-08-01T1100,1129A,126.5422,45.755,哈尔滨市,岭北,,36,20,19,11,11,113,,73,73,16,20,9,10,0.7,0.6
2025-08-01T1100,1130A,126.561,45.8167,哈尔滨市,松北商大,,29,29,22,11,8,76,,37,37,17,19,7,6,0.4,0.4
2025-08-01T1100,1131A,126.979,45.5419,哈尔滨市,阿城会宁,,,21,23,9,11,78,,41,41,8,14,5,5,,0.5
2025-08-01T1100,1132A,126.599,45.7222,哈尔滨市,南岗学府路,,27,27,31,10,8,83,,36,36,20,27,9,8,0.7,0.6
2025-08-01T1100,1133A,126.689,45.7733,哈尔滨市,太平宏伟公园,,27,27,27,10,11,81,,38,38,18,22,7,7,0.5,0.5
2025-08-01T1100,1134A,126.635,45.7667,哈尔滨市,道外承德广场,,30,30,33,11,11,75,,36,36,21,28,8,8,0.7,0.6
2025-08-01T1100,1135A,126.685,45.7319,哈尔滨市,香坊红旗大街,,34,34,30,9,12,82,,37,37,25,31,91,18,0.7,0.7
2025-08-01T1100,1136A,126.6411,45.7258,哈尔滨市,动力和平路,,29,23,29,20,8,84,,34,34,23,30,8,7,0.6,0.5
2025-08-01T1100,1137A,126.593,45.7478,哈尔滨市,道里建国路,,30,30,45,12,12,94,,46,46,19,25,8,6,1.1,1.2
2025-08-01T1100,1138A,126.615,45.61,哈尔滨市,平房东轻厂,,29,29,21,7,8,65,,34,34,14,18,7,6,0.4,0.4
2025-08-01T1100,1139A,126.595,45.9855,哈尔滨市,呼兰师专,,32,32,33,17,5,84,,48,48,15,22,11,8,0.7,0.7
2025-08-01T1100,1140A,126.6206,45.6842,哈尔滨市,省农科院,,39,39,56,15,18,47,,23,23,54,55,14,13,0.5,0.5
2025-08-01T1100,2688A,93.5128,42.8172,哈密市,地区监测站,颗粒物(PM10),78,105,62,30,31,69,,72,69,16,13,4,5,0.3,0.5
2025-08-01T1100,2689A,93.4961,42.8328,哈密市,哈密师范学校,颗粒物(PM10),59,68,51,19,18,68,,75,74,20,17,7,7,0.1,0.4
2025-08-01T1100,2671A,100.9048,36.9639,海北藏族自治州,海晏县西海镇,颗粒物(PM10),53,55,58,30,32,90,,64,64,5,5,11,9,0.6,0.5
2025-08-01T1100,3867A,102.0738,36.5056,海东市,平安区公安北苑,颗粒物(PM10),53,55,75,32,43,75,,49,46,13,7,21,13,0.7,0.6
2025-08-01T1100,1409A,110.576,19.9507,海口市,东寨港,,20,20,18,10,8,44,,26,26,3,6,10,9,0.4,0.4
2025-08-01T1100,1410A,110.3232,20.0574,海口市,海南大学,,28,28,24,12,11,58,,36,36,6,8,3,3,0.4,0.4
2025-08-01T1100,1411A,110.283,20.0053,海口市,秀英海南医院,,34,34,24,14,12,56,,30,30,6,15,6,6,0.3,0.3
2025-08-01T1100,1412A,110.338,19.9969,海口市,海南师范大学,,37,37,22,12,10,54,,29,29,6,10,4,4,0.4,0.4
2025-08-01T1100,1413A,110.33,20.0356,海口市,龙华路环保局宿舍,,32,32,21,13,12,58,,35,35,6,10,6,6,0.3,0.3
2025-08-01T1100,3539A,110.5111,19.9736,海口市,桂林洋子站,,28,28,23,15,10,52,,25,25,6,10,5,4,0.3,0.3
2025-08-01T1100,2673A,100.6188,36.2866,海南藏族自治州,共和县恰卜恰镇,,43,33,51,30,31,99,,68,68,3,7,13,12,0.6,0.6
2025-08-01T1100,2676A,97.3731,37.3753,海西蒙古族藏族自治州,德令哈市,,37,37,55,22,24,97,,90,90,7,4,20,20,0.8,0.6
2025-08-01T1100,1048A,114.5302,36.6116,邯郸市,东污水处理厂,,47,42,36,9,3,150,,95,95,8,11,7,6,0.4,0.4
2025-08-01T1100,1049A,114.4918,36.5713,邯郸市,矿院,,50,28,23,7,5,160,,107,107,7,7,7,6,0.5,0.4
2025-08-01T1100,1050A,114.484,36.6133,邯郸市,丛台公园,臭氧1小时,55,37,24,14,10,164,,108,108,9,10,7,6,0.5,0.4
2025-08-01T1100,3458A,114.7895,36.5593,邯郸市,香泉濮院小区,,,80,45,,2,129,,78,78,7,10,,3,2.6,0.4
2025-08-01T1100,3579A,114.50634,36.77178,邯郸市,永年区实验高中,颗粒物(PM10),52,53,44,23,18,154,,105,105,13,13,4,4,0.5,0.4
2025-08-01T1100,3580A,114.20016,36.44293,邯郸市,峰峰矿区临水派出所,臭氧1小时,58,34,36,3,2,166,,129,129,7,9,4,4,0.2,0.3
2025-08-01T1100,2634A,106.9893,33.1842,汉中市,汉川机床厂子校,,41,24,26,14,13,130,,92,92,8,9,4,4,0.4,0.4
2025-08-01T1100,2635A,107.0154,33.0706,汉中市,市监测站,,39,27,29,20,18,122,,89,89,6,6,6,7,0.4,0.4
2025-08-01T1100,2636A,107.0089,33.1138,汉中市,鑫源开发区,,,36,24,9,14,109,,75,75,,8,6,6,,0.4
2025-08-01T1100,2637A,107.007,33.0323,汉中市,南郑大河坎水厂,,39,39,28,16,17,122,,84,84,7,9,6,8,0.5,0.5
2025-08-01T1100,1223A,120.2072,30.2111,杭州市,滨江,,38,38,21,14,7,114,,39,39,16,19,6,6,0.6,0.6
2025-08-01T1100,1224A,120.0633,30.2747,杭州市,西溪,,30,19,13,16,9,93,,27,27,11,13,4,4,0.5,0.4
2025-08-01T1100,1226A,120.3417,30.3150,杭州市,下沙,,40,24,16,14,9,126,,42,42,19,28,6,5,0.4,0.4
2025-08-01T1100,1227A,120.1269,30.2456,杭州市,卧龙桥,,32,24,14,22,11,80,,25,25,11,7,7,7,0.5,0.4
2025-08-01T1100,1228A,120.1903,30.2692,杭州市,浙江农大,颗粒物(PM10),60,69,25,15,10,95,,37,37,16,20,5,4,0.4,0.3
2025-08-01T1100,1230A,120.1197,30.3119,杭州市,和睦小学,,31,20,15,13,9,98,,36,36,11,15,5,4,0.5,0.5
2025-08-01T1100,1231A,120.3019,30.4183,杭州市,临平镇,,39,35,29,16,10,122,,38,38,11,23,6,5,0.4,0.4
2025-08-01T1100,1232A,120.2753,30.1839,杭州市,城厢镇,,,46,24,20,14,119,,34,34,10,13,131,11,,0.5
2025-08-01T1100,1233A,120.0883,30.1808,杭州市,云栖,,33,28,22,12,4,103,,32,32,16,14,8,8,0.6,0.5
2025-08-01T1100,3557A,119.9464,30.0494,杭州市,镇二中,,42,33,23,29,18,82,,26,26,15,16,5,4,0.5,0.5
2025-08-01T1100,3558A,119.7183,30.2367,杭州市,市府大楼,,26,26,13,17,9,80,,33,33,8,9,8,7,0.4,0.4
2025-08-01T1100,3656A,120.1556,30.2864,杭州市,消防大队,,28,25,14,18,11,87,,36,36,17,17,6,6,0.5,0.5
2025-08-01T1100,1270A,117.1959,31.7848,合肥市,明珠广场,,,,7,,8,33,,41,34,13,10,6,5,,0.5
2025-08-01T1100,1271A,117.3072,31.8764,合肥市,三里街,,,7,8,3,8,33,,37,31,10,9,8,5,,0.4
2025-08-01T1100,1272A,117.2588,31.8707,合肥市,琥珀山庄,,14,14,12,3,10,34,,37,33,9,9,7,6,0.7,0.6
2025-08-01T1100,1273A,117.1604,31.9052,合肥市,董铺水库,,11,6,12,3,10,34,,38,33,5,5,3,3,0.3,0.3
2025-08-01T1100,1274A,117.25,31.8571,合肥市,长江中路,,10,7,11,3,6,31,,40,34,11,8,5,5,0.6,0.5
2025-08-01T1100,1275A,117.266,31.9436,合肥市,庐阳区,,13,6,9,3,6,39,,42,37,5,4,8,8,0.6,0.6
2025-08-01T1100,1276A,117.3453,31.8616,合肥市,瑶海区,,,,7,,5,,,48,,,10,,6,,0.5
2025-08-01T1100,1277A,117.3027,31.7964,合肥市,包河区,,10,9,9,3,7,31,,35,29,20,18,6,6,0.7,0.7
2025-08-01T1100,1278A,117.2776,31.7385,合肥市,滨湖新区,,10,9,11,7,12,28,,36,29,17,13,8,8,0.6,0.5
2025-08-01T1100,1279A,117.1318,31.8403,合肥市,高新区,,12,12,12,6,8,37,,45,37,13,11,5,5,0.5,0.5
2025-08-01T1100,3464A,117.3803,31.9147,合肥市,高教基地,,28,,11,19,18,32,,35,30,7,8,5,6,0.4,0.5
2025-08-01T1100,3614A,79.924,37.0877,和田地区,地区环保局,颗粒物(PM10),430,530,417,113,105,55,,72,68,10,13,1,2,0.2,0.2
2025-08-01T1100,3615A,79.9131,37.113,和田地区,市环保局,颗粒物(PM10),307,425,342,89,86,49,,74,67,16,14,3,2,0.1,0
2025-08-01T1100,2516A,108.2011,24.715,河池市,东仁乐园,,,,,,,,,,,,,,,,
2025-08-01T1100,2517A,108.0497,24.6947,河池市,市环保站,,30,30,18,11,10,92,,88,88,5,7,3,4,0.5,0.5
2025-08-01T1100,2518A,108.0983,24.6989,河池市,市疾控中心,,27,22,21,10,13,84,,89,89,19,13,5,5,0.5,0.6
2025-08-01T1100,1696A,114.6778,23.7569,河源市,源西,,29,28,16,18,8,90,,53,48,6,6,9,8,0.6,0.5
2025-08-01T1100,1697A,114.6944,23.7586,河源市,东埔,,31,27,18,9,10,97,,62,59,11,11,4,4,0.5,0.5
2025-08-01T1100,1698A,114.6892,23.7233,河源市,老城,细颗粒物(PM2.5),68,,16,49,16,91,,56,55,8,8,4,4,0.5,0.5
2025-08-01T1100,1718A,115.4208,35.2464,菏泽市,气象局,,32,32,40,19,26,75,,66,61,8,10,4,5,0.4,0.4
2025-08-01T1100,3374A,115.5564,35.0891,菏泽市,定陶老年大学,,39,39,38,12,18,70,,54,49,13,14,3,2,0.4,0.4
2025-08-01T1100,4184A,115.4797,35.24401,菏泽市,永昌路1号,,34,34,38,22,26,73,,60,56,11,13,7,7,0.1,0.2
2025-08-01T1100,4193A,115.4715,35.2800,菏泽市,长城路999号,,28,28,38,16,19,74,,62,56,12,13,5,4,0.4,0.4
2025-08-01T1100,2514A,111.5264,24.4172,贺州市,环保小区,,29,29,24,8,13,58,,33,33,10,10,11,11,0.8,0.9
2025-08-01T1100,2515A,111.5608,24.4078,贺州市,政协大楼,,25,16,21,15,12,79,,40,40,5,9,11,11,0.6,0.6
2025-08-01T1100,3534A,111.4744,24.4553,贺州市,西湾,,35,27,28,24,16,72,,33,33,8,12,11,9,0.6,0.6
2025-08-01T1100,2385A,114.17,35.9019,鹤壁市,市监测站,,47,36,37,20,20,148,,106,106,6,9,6,7,0.7,0.7
2025-08-01T1100,2386A,114.2956,35.7511,鹤壁市,市交警支队,,50,50,35,26,23,142,,93,93,11,13,7,6,0.7,0.6
2025-08-01T1100,2387A,114.2878,35.7306,鹤壁市,迎宾馆,颗粒物(PM10),52,54,39,29,21,144,,93,93,12,14,8,6,0.9,0.7
2025-08-01T1100,3474A,114.2617,35.6822,鹤壁市,大新区,颗粒物(PM10),54,58,36,27,15,143,,95,95,5,8,8,8,0.8,0.6
2025-08-01T1100,3596A,114.1572,35.9603,鹤壁市,南山宾馆,,48,46,43,15,20,152,,113,113,5,9,5,6,0.5,0.9
2025-08-01T1100,2244A,130.2537,47.3416,鹤岗市,哈啤分公司,,34,11,19,3,9,106,,51,51,9,11,12,12,0.8,0.7
2025-08-01T1100,2245A,130.2684,47.3086,鹤岗市,斯达机电,,30,19,24,3,9,94,,52,52,9,12,12,12,0.5,0.5
2025-08-01T1100,2246A,130.3114,47.3388,鹤岗市,东山纸板厂,,32,10,26,6,9,101,,44,44,12,21,13,13,0.6,0.7
2025-08-01T1100,2247A,130.1097,47.3382,鹤岗市,五号水库,,31,7,7,6,5,98,,55,55,10,11,10,9,0.2,0.2
2025-08-01T1100,2263A,127.4833,50.2524,黑河市,交通局,,20,18,16,14,8,40,,30,30,8,7,6,8,0.4,0.4
2025-08-01T1100,2264A,127.5144,50.2341,黑河市,环保局,,,,16,10,9,44,,36,36,5,8,4,6,,0.2
2025-08-01T1100,2265A,127.5291,50.2472,黑河市,大黑河岛,,,,4,7,5,37,,34,34,4,4,26,26,,
2025-08-01T1100,1074A,115.6838,37.7541,衡水市,电机北厂,,49,36,38,34,14,133,,67,67,4,12,6,6,0.5,0.4
2025-08-01T1100,1075A,115.6303,37.7316,衡水市,市监测站,,44,33,34,18,11,140,,69,69,5,10,6,6,0.3,0.3
2025-08-01T1100,3188A,115.6683,37.7217,衡水市,市城管局,,44,35,33,25,17,139,,80,80,5,10,12,10,0.4,0.4
2025-08-01T1100,3459A,115.5989,37.5491,衡水市,地表水厂,,,53,39,14,5,136,,72,72,6,11,,9,0.2,0.2
2025-08-01T1100,2456A,112.5003,26.9167,衡阳市,原169医院,,40,40,27,13,11,123,,52,52,7,7,6,5,0.5,0.5
2025-08-01T1100,2457A,112.6194,26.9258,衡阳市,衡阳化工总厂,,46,46,34,24,19,110,,40,40,8,12,2,4,0.9,0.8
2025-08-01T1100,2458A,112.6211,26.8956,衡阳市,珠晖区环保局,,47,47,31,18,16,123,,45,45,9,15,4,5,0.6,0.5
2025-08-01T1100,2459A,112.6197,26.8733,衡阳市,市委党校,,37,26,23,18,17,116,,46,46,9,13,7,8,0.5,0.5
2025-08-01T1100,2460A,112.6006,26.8919,衡阳市,市监测站,颗粒物(PM10),53,56,31,31,18,114,,51,51,9,12,4,4,0.6,0.6
2025-08-01T1100,2461A,112.5664,26.9056,衡阳市,真空机电公司,颗粒物(PM10),60,70,31,20,16,114,,58,58,8,7,4,5,0.9,0.8
2025-08-01T1100,3399A,112.6703,26.882,衡阳市,师范学院,颗粒物(PM10),55,59,32,22,17,111,,42,42,7,11,6,6,0.8,0.8
2025-08-01T1100,2608A,103.3772,23.3993,红河哈尼族彝族自治州,污水处理厂,,31,20,20,15,14,97,,56,56,7,10,18,24,0.1,0.2
2025-08-01T1100,2609A,103.3861,23.35,红河哈尼族彝族自治州,监测站,,37,37,27,20,14,103,,48,48,5,8,26,26,0.1,0.1
2025-08-01T1100,3038A,103.3758,23.368,红河哈尼族彝族自治州,州图书馆,,30,17,16,13,16,95,,54,54,7,8,15,22,0.3,0.3
2025-08-01T1100,1090A,111.6507,40.7517,呼和浩特市,呼市一监,,43,34,33,19,22,137,,67,67,12,18,8,8,0.7,0.6
2025-08-01T1100,1091A,111.6572,40.8033,呼和浩特市,小召,,45,31,36,21,24,144,,71,71,13,24,9,9,0.7,0.6
2025-08-01T1100,1094A,111.7516,40.8369,呼和浩特市,如意水处理厂,,43,38,43,21,22,135,,64,64,18,20,6,6,0.6,0.5
2025-08-01T1100,1095A,111.7276,40.8062,呼和浩特市,二十九中,,46,,37,20,24,147,,,,9,13,7,7,0.7,0.6
2025-08-01T1100,1096A,111.5512,40.7866,呼和浩特市,工大金川校区,,41,41,43,20,22,126,,69,69,19,23,7,6,0.7,0.7
2025-08-01T1100,1097A,111.717,40.7612,呼和浩特市,化肥厂生活区,,45,32,47,18,24,141,,76,76,10,22,8,8,0.6,0.6
2025-08-01T1100,3698A,111.5968,40.8178,呼和浩特市,红旗小学,,47,29,38,25,22,150,,89,89,15,24,7,5,0.7,0.6
2025-08-01T1100,3699A,111.6518,40.8389,呼和浩特市,海东办,,49,29,37,22,23,156,,78,78,13,25,6,6,0.6,0.6
2025-08-01T1100,2192A,119.7594,49.2261,呼伦贝尔市,区环保局,,24,24,29,9,15,53,,25,25,12,17,5,6,0.2,0.3
2025-08-01T1100,3061A,119.7512,49.1577,呼伦贝尔市,国华电力东,,17,8,19,3,10,52,,28,28,4,7,8,6,0.3,0.3
2025-08-01T1100,1250A,120.0751,30.8669,湖州市,城西水厂,,,39,23,23,14,87,,41,41,,16,7,6,0.5,0.5
2025-08-01T1100,2873A,120.0830,30.8929,湖州市,仁皇山新区,,39,39,21,24,14,84,,35,35,19,17,4,3,0.5,0.5
2025-08-01T1100,2907A,120.1844,30.8596,湖州市,吴兴区站,细颗粒物(PM2.5),54,46,25,38,18,114,,39,39,17,17,6,6,0.6,0.5
2025-08-01T1100,3562A,120.4148,30.8538,湖州市,南浔区站,,40,33,25,28,24,120,,55,55,8,17,6,6,0.6,0.6
2025-08-01T1100,1607A,120.9049,40.7211,葫芦岛市,龙港区,,41,39,33,13,10,129,,59,59,13,24,5,9,0.6,0.6
2025-08-01T1100,1608A,120.8392,40.7514,葫芦岛市,化工街,,42,27,35,14,15,132,,57,57,15,41,8,16,0.7,0.5
2025-08-01T1100,1609A,120.8341,40.7073,葫芦岛市,新区,,39,39,26,20,12,115,,57,57,16,30,4,4,0.9,0.8
2025-08-01T1100,1610A,120.8695,40.7677,葫芦岛市,东城区,,43,40,45,12,23,137,,57,57,11,39,6,29,1.0,0.8
2025-08-01T1100,2482A,109.5981,27.5721,怀化市,林科所,,30,27,25,18,9,95,,38,38,6,8,4,5,0.0,0.2
2025-08-01T1100,2483A,109.9453,27.5444,怀化市,河西地税局,,35,35,27,22,17,98,,30,30,7,10,2,3,0.2,0.3
2025-08-01T1100,2484A,109.9781,27.5342,怀化市,市四医院,,49,36,38,34,21,90,,29,29,6,13,7,5,0.1,0.1
2025-08-01T1100,2485A,109.9972,27.5578,怀化市,监测楼,,43,43,27,26,16,96,,47,47,7,7,6,4,0.1,0.1
2025-08-01T1100,2486A,110.0394,27.583,怀化市,市委党校,,30,27,30,19,16,96,,38,38,4,12,13,15,0.1,0.2
2025-08-01T1100,1210A,119.036,33.5981,淮安市,钵池山,,15,,7,10,10,47,,51,47,9,7,6,7,0.7,0.6
2025-08-01T1100,1211A,119.007,33.575,淮安市,北京南路,,15,9,9,8,9,48,,48,45,12,9,6,6,0.6,0.5
2025-08-01T1100,1212A,118.989,33.6067,淮安市,市监测站,,16,14,10,7,8,51,,56,51,8,6,8,8,0.7,0.6
2025-08-01T1100,1213A,119.135,33.5039,淮安市,楚州区监测站,,16,15,14,6,7,51,,48,45,4,4,6,6,0.5,0.4
2025-08-01T1100,3426A,118.8755,33.2894,淮安市,新华书店,,35,,9,24,12,56,,58,50,10,8,9,8,0.6,0.4
2025-08-01T1100,4206A,119.0288,33.6319,淮安市,承德北路606号,,13,9,9,6,7,40,,48,42,11,8,5,5,0.6,0.6
2025-08-01T1100,2282A,116.8004,33.975,淮北市,监测站,,30,,22,21,13,55,,48,48,5,7,6,7,0.6,0.7
2025-08-01T1100,2283A,116.8091,33.9007,淮北市,烈山区政府,,22,15,23,9,6,68,,56,56,3,5,6,7,0.5,0.5
2025-08-01T1100,3330A,116.8873,33.9836,淮北市,杜集区检察院,,,16,18,,13,54,,47,46,6,8,6,7,0.7,0.7
2025-08-01T1100,4017A,116.7923,33.9535,淮北市,市博物馆,,27,27,19,12,13,56,,48,48,5,7,8,8,0.5,0.5
2025-08-01T1100,2277A,116.8305,32.7727,淮南市,潘集区政府,,18,18,17,7,9,48,,49,45,7,9,2,2,0.4,0.4
2025-08-01T1100,2279A,116.8569,32.5951,淮南市,谢家集区政府,,22,22,15,10,7,48,,46,44,7,7,6,7,0.3,0.2
2025-08-01T1100,2280A,116.8281,32.633,淮南市,八公山区政府,,15,13,14,7,9,45,,47,44,8,8,3,4,0.3,0.2
2025-08-01T1100,2281A,116.6325,32.6201,淮南市,焦岗湖风景区管理处,,,,,,,,,,,,,,,,
2025-08-01T1100,2894A,117.0566,32.6531,淮南市,经济技术开发区消防队,,,16,10,8,5,42,,43,39,,10,8,8,0.3,0.2
2025-08-01T1100,3329A,117.0108,32.5893,淮南市,山南新区,,15,9,6,8,7,47,,46,41,8,8,9,9,0.5,0.5
2025-08-01T1100,4209A,117.0031,32.6445,淮南市,国庆中路369号,,26,26,15,11,15,41,,43,39,12,8,13,13,0.3,0.3
2025-08-01T1100,2446A,114.9028,30.4742,黄冈市,职工中心,,,,29,16,18,118,,106,105,2,3,8,8,0.6,0.6
2025-08-01T1100,2929A,114.8858,30.4519,黄冈市,红卫路,,35,22,26,17,18,112,,97,97,2,4,8,9,0.4,0.6
2025-08-01T1100,3398A,114.9136,30.4445,黄冈市,市林业局,,38,28,28,14,15,121,,111,110,1,5,7,8,0.5,0.6
2025-08-01T1100,2672A,102.0199,35.5102,黄南藏族自治州,同仁县隆务镇,,,,64,,25,109,,82,82,2,8,9,8,,0.2
2025-08-01T1100,2295A,118.2903,29.6963,黄山市,延安路89号,,25,25,18,13,9,57,,22,22,4,6,3,3,0.5,0.4
2025-08-01T1100,2297A,118.1371,30.2756,黄山市,黄山区政府5号楼,,25,25,13,6,7,41,,38,37,5,3,4,4,0.4,0.3
2025-08-01T1100,4210A,118.3354,29.7203,黄山市,滨江东路7-2号,,27,27,25,3,8,58,,23,23,4,5,2,2,0.5,0.4
2025-08-01T1100,2423A,115.0601,30.2313,黄石市,沈家营,,49,49,32,9,9,119,,93,93,2,4,7,8,0.3,0.4
2025-08-01T1100,2426A,114.8988,30.2019,黄石市,铁山,,38,30,31,11,12,120,,73,73,4,13,8,7,0.5,0.3
2025-08-01T1100,2427A,115.0307,30.2092,黄石市,团城山,,40,32,28,10,7,126,,98,98,5,8,6,8,0.4,0.4
2025-08-01T1100,3149A,115.0235,30.1578,黄石市,笔架山北路,,38,22,29,10,8,119,,68,68,4,12,8,8,0.3,0.4
2025-08-01T1100,4185A,115.0780,30.21118,黄石市,磁湖东路29号,,,40,30,13,12,110,,89,89,3,4,,8,0.4,0.3
2025-08-01T1100,1392A,114.4183,23.0528,惠州市,河南岸金山湖子站,,35,21,33,14,23,111,,38,38,12,20,7,7,0.6,0.7
2025-08-01T1100,1393A,114.4053,23.0822,惠州市,下埔横江三路子站,,37,19,33,12,23,118,,46,46,8,18,4,4,0.4,0.5
2025-08-01T1100,1394A,114.4103,23.1142,惠州市,江北云山西路子站,,41,16,32,9,20,129,,50,50,10,22,7,8,0.6,0.7
2025-08-01T1100,1395A,114.4645,22.7833,惠州市,惠阳区承修路船湖子站,,39,39,26,21,15,103,,47,47,19,16,7,6,0.6,0.5
2025-08-01T1100,1396A,114.5317,22.7422,惠州市,大亚湾管委会子站,,25,20,21,13,13,77,,34,34,9,16,8,8,0.5,0.5
2025-08-01T1100,3314A,114.4338,22.8134,惠州市,惠阳秋长,,30,29,34,18,20,95,,31,31,16,24,5,7,0.5,0.5
2025-08-01T1100,3452A,114.6517,22.775,惠州市,大亚湾霞涌,,30,30,22,12,11,72,,38,38,8,12,5,5,0.6,0.6
2025-08-01T1100,2240A,130.9762,45.3001,鸡西市,环保局,,39,39,23,13,11,85,,35,35,11,20,3,3,0.2,0.2
2025-08-01T1100,2243A,130.9429,45.3039,鸡西市,第一中学,,28,28,21,12,9,85,,36,36,11,21,12,11,0.3,0.2
2025-08-01T1100,3707A,131.0207,45.3073,鸡西市,欧美日汽修厂,,28,25,34,14,14,87,,30,30,10,25,10,9,0.4,0.4
2025-08-01T1100,3709A,130.9967,45.3106,鸡西市,市政设施管理处,,45,45,33,8,13,84,,30,30,14,28,7,7,0.2,0.4
2025-08-01T1100,2367A,114.9754,27.0803,吉安市,红声器材厂,,40,40,33,20,15,102,,46,46,6,6,10,9,0.5,0.5
2025-08-01T1100,2368A,114.9658,27.0999,吉安市,市森林工业局,,34,34,27,16,14,107,,52,52,3,4,11,10,0.5,0.5
2025-08-01T1100,2369A,114.99,27.1312,吉安市,市环境监测站,,34,31,27,21,14,108,,52,52,3,4,18,13,0.6,0.5
2025-08-01T1100,2370A,115.0093,27.0968,吉安市,青原区法院,,38,38,32,16,17,93,,37,37,6,12,10,8,0.5,0.7
2025-08-01T1100,1772A,126.54,43.8622,吉林市,哈达湾,,,,17,14,9,100,,28,28,10,15,,7,,0.4
2025-08-01T1100,1773A,126.5844,43.8358,吉林市,东局子,,41,41,52,19,12,76,,35,35,7,9,6,5,0.7,0.5
2025-08-01T1100,1774A,126.5052,43.8245,吉林市,电力学院,,30,16,23,9,10,96,,34,34,7,15,6,6,0.5,0.3
2025-08-01T1100,1775A,126.6133,43.8972,吉林市,江北,,30,21,20,9,10,93,,36,36,5,10,4,4,0.8,0.8
2025-08-01T1100,1776A,126.555,43.8306,吉林市,江南公园,,30,24,18,19,10,94,,38,38,15,14,3,2,2.5,0.6
2025-08-01T1100,1778A,126.7061,43.7133,吉林市,丰满,,25,10,11,9,9,78,,49,49,5,4,4,4,0.6,0.5
2025-08-01T1100,2868A,126.4739,43.953,吉林市,九站,,37,37,27,12,11,113,,40,40,7,20,4,7,0.5,0.4
2025-08-01T1100,1299A,116.9862,36.6114,济南市,科干所,,27,19,36,17,25,85,,49,49,12,18,7,7,0.4,0.5
2025-08-01T1100,1300A,116.9376,36.665,济南市,农科所,,49,49,44,24,23,116,,45,45,21,23,10,9,0.4,0.4
2025-08-01T1100,1301A,117.1265,36.6734,济南市,开发区,,32,32,40,20,25,91,,42,42,21,23,9,9,0.7,0.7
2025-08-01T1100,1303A,117.0624,36.6868,济南市,省种子仓库,颗粒物(PM10),51,51,50,22,22,122,,55,55,21,24,12,8,0.6,0.6
2025-08-01T1100,1304A,116.9489,36.6447,济南市,机床二厂,颗粒物(PM10),51,51,47,20,22,107,,46,46,22,22,14,11,0.4,0.4
2025-08-01T1100,1305A,117.0495,36.663,济南市,市监测站,,39,39,45,12,15,88,,39,39,22,22,12,10,0.6,0.6
2025-08-01T1100,1306A,116.7675,36.5484,济南市,长清党校,,49,49,47,27,27,88,,39,39,25,25,6,6,0.6,0.5
2025-08-01T1100,1616A,117.6795,36.229,济南市,技术学院,,21,9,15,7,10,67,,46,46,8,11,7,6,0.5,0.5
2025-08-01T1100,1961A,117.532,36.6868,济南市,东山小学,,44,44,44,20,19,116,,44,44,15,21,8,7,0.3,0.4
2025-08-01T1100,3059A,117.7161,36.2049,济南市,泰兴公司,,18,14,16,3,10,57,,37,37,2,9,8,8,0.4,0.4
2025-08-01T1100,3064A,117.6867,36.2171,济南市,莱芜战役纪念馆,,18,14,19,12,12,57,,38,38,6,10,6,4,0.7,0.7
2025-08-01T1100,3494A,117.1673,36.9782,济南市,济阳区政府,,37,37,38,17,21,104,,54,54,5,9,7,8,0.3,0.3
2025-08-01T1100,3495A,117.1171,36.63,济南市,锦屏中学,,,27,38,12,20,,,87,87,12,16,7,7,0.8,0.8
2025-08-01T1100,3682A,116.9814,36.6819,济南市,济南四建,颗粒物(PM10),51,51,44,24,25,117,,46,46,22,22,9,7,0.7,0.6
2025-08-01T1100,1653A,116.6251,35.4302,济宁市,火炬城,,22,16,24,7,9,70,,38,38,5,9,4,5,0.5,0.4
2025-08-01T1100,1655A,116.5491,35.4042,济宁市,电化厂,,26,26,25,9,10,78,,47,47,4,7,2,2,0.6,0.6
2025-08-01T1100,3500A,116.5814,35.3707,济宁市,北湖一中,,25,22,23,8,10,79,,45,45,4,7,3,3,0.3,0.2
2025-08-01T1100,3501A,116.8249,35.5593,济宁市,服务中心,,24,17,23,3,4,76,,44,44,4,9,3,2,0.3,0.3
2025-08-01T1100,3678A,116.5907,35.4054,济宁市,市第七中学,,35,35,23,3,5,72,,42,42,4,7,4,4,0.3,0.3
2025-08-01T1100,2255A,130.2751,46.8028,佳木斯市,佳纺,,32,,20,14,9,101,,46,46,7,22,8,8,0.5,0.5
2025-08-01T1100,2256A,130.3995,46.8307,佳木斯市,发电厂,,40,40,23,11,9,103,,51,51,12,20,6,6,0.2,0.3
2025-08-01T1100,2257A,130.3258,46.7975,佳木斯市,环保局,,32,26,18,18,10,100,,50,50,8,20,11,11,0.5,0.5
2025-08-01T1100,2258A,130.3648,46.8032,佳木斯市,十一中,,30,21,20,16,10,95,,50,50,8,18,9,9,0.4,0.4
2025-08-01T1100,2259A,130.3794,46.7588,佳木斯市,四丰,,,,,,,,,,,6,14,1,27,0.5,0.4
2025-08-01T1100,1252A,120.7436,30.778,嘉兴市,清河小学,,41,38,39,20,16,129,,73,73,10,17,5,5,1.0,1.1
2025-08-01T1100,1253A,120.726,30.7478,嘉兴市,嘉兴学院,,40,37,24,20,18,126,,75,75,4,14,3,4,0.6,0.6
2025-08-01T1100,2872A,120.7846,30.7525,嘉兴市,南湖区残联,,42,38,38,24,22,134,,88,88,7,16,5,5,0.7,0.7
2025-08-01T1100,3407A,120.6916,30.7739,嘉兴市,秀洲住建,,39,32,29,22,20,124,,73,73,6,19,4,5,0.7,0.8
2025-08-01T1100,1945A,98.2908,39.7711,嘉峪关市,气象局,,34,29,31,9,13,108,,73,68,9,11,12,10,0.9,0.9
2025-08-01T1100,2884A,98.2672,39.7978,嘉峪关市,酒钢宾馆,,35,31,41,12,19,110,,70,70,18,14,8,9,0.8,0.9
2025-08-01T1100,3248A,98.2643,39.7724,嘉峪关市,雄关区,,31,19,35,13,12,99,,57,56,12,18,9,8,0.7,0.6
2025-08-01T1100,1383A,113.1064,22.6058,江门市,北街,,38,36,23,26,14,116,,70,70,18,15,3,3,0.6,0.5
2025-08-01T1100,1384A,113.0731,22.5835,江门市,西区,,33,,19,14,9,104,,72,72,15,16,6,6,0.5,0.4
2025-08-01T1100,1385A,113.0219,22.5311,江门市,圭峰西,,47,47,25,22,13,92,,56,56,6,12,5,4,0.4,0.4
2025-08-01T1100,1386A,113.0828,22.5947,江门市,东湖,,32,32,18,15,12,100,,64,64,18,15,7,6,0.5,0.4
2025-08-01T1100,3311A,113.1075,22.5647,江门市,江海富民,,,24,26,,18,104,,66,66,,15,,8,0.3,0.2
2025-08-01T1100,3449A,113.05,22.4667,江门市,新会银湖,,46,46,25,23,15,85,,32,32,8,20,4,4,0.5,0.5
2025-08-01T1100,1830A,113.1992,35.2590,焦作市,影视城,,,,18,,9,,,,,,6,,9,,0.6
2025-08-01T1100,3335A,113.3137,35.2641,焦作市,马村街道办,,46,36,42,22,23,147,,95,95,9,12,11,5,0.7,0.7
2025-08-01T1100,3336A,113.2465,35.2373,焦作市,焦作技师学院,,47,42,40,24,14,150,,98,98,10,13,6,3,0.9,0.9
2025-08-01T1100,3477A,113.1656,35.2539,焦作市,中站许衡医院,臭氧1小时,53,31,35,19,24,162,,104,104,11,14,15,8,0.6,0.6
2025-08-01T1100,3981A,113.2449,35.1803,焦作市,原李万街道办,臭氧1小时,58,27,41,17,13,166,,99,99,13,17,16,11,1.1,0.9
2025-08-01T1100,4264A,113.2340,35.2190,焦作市,新安路1731号,臭氧1小时,52,46,41,22,16,161,,95,95,8,10,8,5,0.6,0.5
2025-08-01T1100,4295A,113.2722,35.2121,焦作市,人民路3066号,,49,49,38,22,18,153,,96,96,6,9,10,7,0.7,0.6
2025-08-01T1100,1708A,116.3701,23.5345,揭阳市,新兴,,37,37,28,14,16,82,,56,56,3,8,4,5,0.5,0.5
2025-08-01T1100,1709A,116.3264,23.5443,揭阳市,西马,,27,27,32,13,15,77,,51,51,3,9,2,3,0.3,0.4
2025-08-01T1100,1710A,116.3611,23.5626,揭阳市,东兴,,,76,33,10,14,74,,45,45,,10,3,3,,0.3
2025-08-01T1100,1711A,116.4151,23.5294,揭阳市,渔湖,,37,37,33,17,13,80,,41,41,8,10,8,8,0.4,0.6
2025-08-01T1100,3320A,116.403,23.5699,揭阳市,曲溪,,33,33,25,22,15,83,,46,46,6,12,3,4,0.4,0.5
2025-08-01T1100,1944A,102.1692,38.5167,金昌市,天庆家园,颗粒物(PM10),63,75,53,38,38,73,,40,40,13,9,10,8,1.0,1
2025-08-01T1100,4022A,102.1647,38.5371,金昌市,金川区人防中心,颗粒物(PM10),72,94,60,35,35,78,,32,32,12,12,17,8,0.7,0.7
2025-08-01T1100,4239A,102.1930,38.5319,金昌市,长春路96号,颗粒物(PM10),59,68,59,25,34,89,,41,41,6,12,6,8,0.8,0.8
2025-08-01T1100,1262A,119.647,29.077,金华市,十五中,,41,39,34,21,16,131,,50,50,14,20,4,4,0.3,0.3
2025-08-01T1100,1263A,119.686,29.1029,金华市,监测站,,39,30,34,18,17,123,,40,40,12,21,6,5,0.5,0.4
2025-08-01T1100,3659A,119.656,29.1131,金华市,气象局,,38,37,33,15,14,119,,40,40,11,19,6,5,0.7,0.6
2025-08-01T1100,1767A,121.1115,41.0879,锦州市,南山,,42,40,35,23,22,134,,51,51,13,23,10,7,0.9,0.8
2025-08-01T1100,1768A,121.0604,40.8428,锦州市,开发区,颗粒物(PM10),53,55,69,25,23,122,,44,44,19,47,7,12,0.7,0.8
2025-08-01T1100,1769A,121.1836,41.1119,锦州市,百股街道,颗粒物(PM10),55,59,31,14,9,134,,56,56,16,21,12,7,0.9,0.7
2025-08-01T1100,1770A,121.1178,41.1222,锦州市,天安街道,,44,34,40,28,22,139,,55,55,20,33,11,9,0.9,0.8
2025-08-01T1100,1771A,121.1303,41.1386,锦州市,北湖公园,颗粒物(PM10),60,70,33,21,17,129,,61,61,18,20,7,6,0.9,0.6
2025-08-01T1100,2160A,112.85,35.5051,晋城市,自来水公司,颗粒物(PM10),52,54,48,27,21,155,,99,99,13,12,1,1,1.2,0.6
2025-08-01T1100,2161A,112.8318,35.4936,晋城市,白云商贸,,47,37,42,17,14,150,,99,99,12,11,2,3,1.2,0.6
2025-08-01T1100,2162A,112.8508,35.4887,晋城市,市环保局,,45,45,51,24,21,143,,88,88,8,8,3,2,0.9,0.5
2025-08-01T1100,2163A,112.8676,35.4897,晋城市,技术学院,,42,40,37,17,16,134,,77,77,7,12,4,3,0.8,0.6
2025-08-01T1100,2165A,112.8453,35.546,晋城市,白马寺,,47,33,28,28,21,149,,115,115,4,3,9,7,1.5,0.8
2025-08-01T1100,3620A,112.8271,35.4828,晋城市,泽州一中,,,,37,17,17,158,,103,103,8,8,8,5,1.0,0.5
2025-08-01T1100,2173A,112.7249,37.7067,晋中市,南都小区,,,56,52,21,29,126,,88,88,,8,3,3,,0.5
2025-08-01T1100,2174A,112.6991,37.6982,晋中市,榆次区政府,颗粒物(PM10),51,51,52,28,26,128,,89,89,6,6,9,8,0.9,0.8
2025-08-01T1100,2865A,112.7195,37.6828,晋中市,榆次三中,颗粒物(PM10),51,51,46,29,28,135,,91,91,5,6,10,8,0.7,0.7
2025-08-01T1100,4200A,112.7478,37.6954,晋中市,迎宾街26号,颗粒物(PM10),51,51,48,29,26,138,,90,90,6,7,7,6,0.7,0.6
2025-08-01T1100,2439A,112.2014,31.0481,荆门市,竹园小学,颗粒物(PM10),52,54,44,33,25,148,,112,112,9,10,2,2,0.6,0.5
2025-08-01T1100,2440A,112.1969,30.9891,荆门市,掇刀,,,54,35,,20,157,,,,6,7,9,8,0.4,0.6
2025-08-01T1100,2441A,112.2213,31.0386,荆门市,石化一小,,49,47,42,26,18,154,,111,111,8,11,8,7,0.8,0.8
2025-08-01T1100,3012A,112.1849,31.0362,荆门市,西山林语,,49,49,35,26,24,154,,132,132,6,5,9,8,0.4,0.5
2025-08-01T1100,3547A,112.1632,31.0138,荆门市,龙泉中学南校,,,44,31,26,22,156,,138,138,7,7,,4,0.7,0.7
2025-08-01T1100,1844A,112.2494,30.3197,荆州市,市图书馆,,50,43,29,24,19,159,,112,112,8,10,3,3,0.6,0.5
2025-08-01T1100,1845A,112.2008,30.3544,荆州市,市委党校,臭氧1小时,58,43,34,16,21,166,,104,104,12,12,8,8,0.7,0.6
2025-08-01T1100,3194A,112.2747,30.3122,荆州市,管委会,,47,40,29,27,22,149,,108,108,14,12,7,7,0.7,0.6
2025-08-01T1100,4268A,112.1722,30.3366,荆州市,学苑路85号,,50,31,27,24,25,160,,97,97,10,13,6,5,0.3,0.3
2025-08-01T1100,2342A,117.3102,29.3867,景德镇市,王港中学,,,,,,,,,,,,,,,,
2025-08-01T1100,2343A,117.2117,29.2933,景德镇市,老干部活动中心,,36,36,26,16,14,23,,13,13,14,14,7,9,0.7,0.5
2025-08-01T1100,2344A,117.1894,29.2789,景德镇市,兽医站,,40,40,32,16,14,26,,10,10,13,15,6,8,0.7,0.5
2025-08-01T1100,2346A,117.2461,29.2956,景德镇市,陶研所,,35,35,28,22,17,24,,31,22,14,10,5,5,0.8,0.7
2025-08-01T1100,4289A,117.1542,29.2566,景德镇市,青少年活动中心,,33,30,25,23,16,17,,12,10,34,20,14,14,0.7,0.6
2025-08-01T1100,1803A,115.9872,29.6815,九江市,十里,,35,26,18,24,18,98,,89,89,17,16,6,6,0.7,0.5
2025-08-01T1100,1804A,115.9584,29.7046,九江市,茅山头,,34,34,25,16,13,91,,79,79,11,12,4,4,0.5,0.4
2025-08-01T1100,1805A,115.9877,29.7295,九江市,西园,,37,32,20,16,10,117,,105,105,11,12,7,7,0.8,0.6
2025-08-01T1100,1808A,115.9114,29.6038,九江市,综合工业园,,,35,26,14,12,98,,79,79,17,24,,7,,0.5
2025-08-01T1100,1809A,116.0721,29.7535,九江市,石化总厂,细颗粒物(PM2.5),54,42,22,38,23,109,,93,93,17,15,9,9,0.6,0.5
2025-08-01T1100,1810A,115.9773,29.5698,九江市,庐山气象台,,32,28,16,15,8,100,,97,97,8,5,6,6,1.2,0.9
2025-08-01T1100,3190A,116.0254,29.6994,九江市,外国语学校,,33,27,23,17,16,103,,91,91,14,15,2,2,0.6,0.5
2025-08-01T1100,4253A,116.0102,29.6594,九江市,莲花大道8号,,33,16,20,13,11,104,,102,102,3,2,5,5,0.6,0.5
2025-08-01T1100,4240A,98.4958,39.7339,酒泉市,玉门东路5号,,36,36,35,23,27,104,,54,53,5,10,8,8,0.2,0.2
2025-08-01T1100,4241A,98.5099,39.7506,酒泉市,北大街108号,,32,31,40,18,24,101,,53,48,5,9,8,7,0.2,0.2
2025-08-01T1100,2698A,76.0072,39.4467,喀什地区,巡警大队,颗粒物(PM10),76,101,81,22,18,60,,88,82,38,21,4,3,0.6,0.4
2025-08-01T1100,2699A,75.9755,39.4694,喀什地区,吾办,颗粒物(PM10),75,100,91,26,25,76,,88,86,24,18,7,7,0.4,0.4
2025-08-01T1100,4027A,75.9483,39.4689,喀什地区,老干局,颗粒物(PM10),52,54,72,12,20,39,,77,58,15,13,4,4,0.8,0.8
2025-08-01T1100,1824A,114.3389,34.7781,开封市,肿瘤医院,,40,40,41,26,20,118,,89,89,13,14,5,8,0.5,0.4
2025-08-01T1100,1826A,114.2885,34.7965,开封市,世纪星幼儿园,,,,38,,19,,,124,,,9,,4,,0.6
2025-08-01T1100,3147A,114.3438,34.8106,开封市,龙亭公园,,42,42,40,26,28,111,,80,80,8,11,4,5,0.7,0.5
2025-08-01T1100,3210A,114.3644,34.7964,开封市,汴京公园,颗粒物(PM10),52,54,42,30,21,110,,82,82,10,10,5,4,0.6,0.5
2025-08-01T1100,3473A,114.2485,34.8306,开封市,技师学院,颗粒物(PM10),53,55,33,33,18,129,,84,84,9,10,7,5,0.9,0.7
2025-08-01T1100,3592A,114.4644,34.7556,开封市,祥符区生态环境局,,40,37,37,28,22,110,,79,79,13,16,6,6,0.5,0.5
2025-08-01T1100,1951A,84.895,45.6094,克拉玛依市,长征新村,,30,30,30,13,10,78,,85,82,5,4,3,4,0.2,0.2
2025-08-01T1100,1952A,84.8988,45.5893,克拉玛依市,南林小区,,28,28,28,7,10,80,,88,83,6,4,3,2,0.1,0.1
2025-08-01T1100,1954A,84.905,44.3396,克拉玛依市,独山子区,,35,35,40,8,13,94,,94,94,7,9,8,10,0.5,0.5
2025-08-01T1100,1955A,85.6979,46.098,克拉玛依市,乌尔禾区商贸楼,,34,34,37,13,12,84,,77,72,7,5,6,6,0.3,0.3
2025-08-01T1100,3612A,85.1045,45.6899,克拉玛依市,白碱滩区新站,,44,44,36,16,18,82,,93,84,1,2,9,9,0.1,0.1
2025-08-01T1100,2697A,76.1454,39.7142,克孜勒苏柯尔克孜自治州,市人民政府,颗粒物(PM10),53,55,62,28,20,80,,106,104,21,12,7,5,0.1,0.1
2025-08-01T1100,3665A,76.1658,39.7157,克孜勒苏柯尔克孜自治州,克州文化中心,颗粒物(PM10),76,101,69,30,24,73,,105,100,25,9,6,7,0.5,0.4
2025-08-01T1100,1450A,102.8204,24.8886,昆明市,呈贡新区,,35,24,16,24,18,94,,38,38,21,20,4,5,0.6,0.5
2025-08-01T1100,1451A,102.6251,24.9608,昆明市,西山森林公园,,,,,,,,,,,,,,,,
2025-08-01T1100,1452A,102.7252,25.0902,昆明市,龙泉镇,,30,24,18,14,10,94,,46,46,8,16,1,1,0.5,0.5
2025-08-01T1100,1453A,102.7266,25.0375,昆明市,东风东路,,31,29,20,20,13,97,,54,52,14,16,3,4,0.5,0.5
2025-08-01T1100,1454A,102.6742,25.0669,昆明市,金鼎山,,31,31,20,14,9,72,,59,55,8,10,1,2,0.5,0.4
2025-08-01T1100,1455A,102.6644,25.0401,昆明市,碧鸡广场,,28,25,18,7,8,89,,59,58,9,13,7,7,0.5,0.5
2025-08-01T1100,3179A,102.7494,25.0119,昆明市,官渡区博物馆,,32,,21,12,13,100,,41,41,14,19,2,2,0.4,0.5
2025-08-01T1100,3375A,102.8017,24.8336,昆明市,青年创业园,,48,40,21,33,14,90,,36,36,13,19,3,3,0.5,0.4
2025-08-01T1100,3550A,102.7997,24.9786,昆明市,昆明学院,,,32,29,21,20,99,,32,32,,26,,6,0.4,0.4
2025-08-01T1100,3551A,102.5967,24.6736,昆明市,晋宁区生态环境分局,,,,17,17,14,80,,26,26,11,10,6,4,,0.6
2025-08-01T1100,3552A,102.6678,24.9856,昆明市,云天化总部,,32,30,18,21,11,100,,59,59,12,16,4,6,0.5,0.5
2025-08-01T1100,1456A,91.1319,29.6514,拉萨市,八廓街,,,16,12,11,7,66,,62,62,7,12,6,6,,0.4
2025-08-01T1100,1457A,91.1221,29.6747,拉萨市,市环保局,,23,16,10,10,8,71,,63,61,10,9,7,7,0.3,0.2
2025-08-01T1100,1458A,91.0874,29.6475,拉萨市,区监测站,,22,7,8,3,6,68,,64,62,8,11,4,4,0.3,0.2
2025-08-01T1100,1459A,91.1774,29.6541,拉萨市,西藏大学,,22,19,12,9,8,69,,60,60,9,12,5,5,0.2,0.2
2025-08-01T1100,1460A,90.9798,29.6588,拉萨市,区辐射站,,20,17,14,8,7,61,,61,56,9,10,5,5,0.3,0.3
2025-08-01T1100,1461A,91.0834,29.6292,拉萨市,拉萨火车站,,22,7,7,3,6,68,,66,64,6,7,6,6,0.2,0.2
2025-08-01T1100,2520A,109.2203,23.7256,来宾市,来宾技工学校,,26,26,19,13,8,79,,72,65,7,7,9,8,0.7,0.6
2025-08-01T1100,3535A,109.1781,23.7297,来宾市,兴宾区政府,,,,12,,8,92,,73,70,,5,5,6,0.7,0.9
2025-08-01T1100,4002A,109.2416,23.7461,来宾市,中南小学,,28,21,16,16,9,88,,71,64,6,7,3,2,0.6,0.6
2025-08-01T1100,1477A,104.1373,35.9454,兰州市,榆中兰大校区,,,,,,,,,,,,,,,,
2025-08-01T1100,1479A,103.831,36.0464,兰州市,铁路设计院,颗粒物(PM10),59,68,65,38,31,74,,75,68,31,20,15,13,0.6,0.4
2025-08-01T1100,3241A,103.7439,36.0842,兰州市,百合公园,颗粒物(PM10),51,52,59,19,26,90,,77,75,9,7,12,7,0.2,0.4
2025-08-01T1100,3242A,103.9611,35.998,兰州市,和平,颗粒物(PM10),59,68,64,34,28,94,,64,64,11,8,15,13,0.7,0.6
2025-08-01T1100,4236A,103.6293,36.0938,兰州市,庄浪东路808号,颗粒物(PM10),66,82,71,38,33,125,,71,71,23,16,17,14,0.5,0.4
2025-08-01T1100,4237A,103.7251,36.1043,兰州市,安宁西路88号,颗粒物(PM10),57,64,63,27,30,97,,84,83,8,3,8,8,0.5,0.4
2025-08-01T1100,4238A,103.8470,36.0676,兰州市,北滨河东路1号,颗粒物(PM10),53,56,56,21,32,79,,74,71,24,14,14,11,0.6,0.5
2025-08-01T1100,3245A,103.6633,36.533,兰州新区,新区管委会,颗粒物(PM10),54,57,49,35,28,112,,88,88,8,10,25,17,0.6,0.4
2025-08-01T1100,3246A,103.6975,36.4789,兰州新区,舟曲中学,,,,,,,,,,,,,,,,
2025-08-01T1100,1067A,116.6708,39.5111,廊坊市,药材公司,,49,46,52,28,27,155,,74,74,7,17,9,6,0.7,0.8
2025-08-01T1100,1068A,116.7214,39.5589,廊坊市,开发区,颗粒物(PM10),54,58,54,30,25,152,,46,46,10,23,5,3,0.7,0.7
2025-08-01T1100,1070A,116.7244,39.5269,廊坊市,北华航天学院,颗粒物(PM10),68,85,70,30,32,154,,56,56,12,24,6,7,0.8,0.8
2025-08-01T1100,2919A,116.7022,39.5453,廊坊市,河北工业大学,颗粒物(PM10),56,62,67,24,26,146,,50,50,13,25,8,7,0.6,0.7
2025-08-01T1100,2535A,103.7723,29.5462,乐山市,花湖湾,,49,42,37,34,27,122,,53,53,14,17,2,3,0.7,1
2025-08-01T1100,2536A,103.7627,29.5844,乐山市,牛耳桥,细颗粒物(PM2.5),52,38,34,36,25,139,,53,53,20,19,7,5,0.9,0.9
2025-08-01T1100,2537A,103.7508,29.6006,乐山市,市第三水厂,,42,36,35,28,26,134,,56,56,13,18,5,4,0.7,0.7
2025-08-01T1100,2538A,103.7571,29.5664,乐山市,市监测站,颗粒物(PM10),53,55,44,30,23,126,,61,61,15,15,8,6,0.8,0.9
2025-08-01T1100,3361A,103.7311,29.5628,乐山市,理工大学,,,54,42,43,28,127,,50,50,28,17,9,7,,0.9
2025-08-01T1100,2598A,100.2143,26.8576,丽江市,西南郊,,21,12,14,9,8,66,,38,38,13,9,7,6,0.7,0.7
2025-08-01T1100,2599A,100.2497,26.8802,丽江市,丽江古城,,26,20,18,10,9,81,,41,41,9,11,9,9,0.5,0.5
2025-08-01T1100,2600A,100.2203,26.8906,丽江市,市中心,,26,26,12,12,9,71,,33,33,13,13,8,8,0.6,0.5
2025-08-01T1100,1267A,119.914,28.4514,丽水市,监测站大楼,,33,33,23,12,8,100,,37,37,9,12,4,4,0.4,0.4
2025-08-01T1100,1268A,119.93,28.4586,丽水市,莲都小学,,38,38,28,9,9,99,,30,30,9,13,4,3,0.4,0.4
2025-08-01T1100,1269A,119.879,28.4231,丽水市,余庄前,,36,33,24,21,15,114,,30,30,8,8,4,4,0.4,0.4
2025-08-01T1100,1173A,119.176,34.5885,连云港市,市环境监测站,,14,12,18,3,6,42,,41,40,8,5,2,2,0.4,0.4
2025-08-01T1100,3000A,119.3581,34.6972,连云港市,德源药业,,,,17,,2,,,58,,,7,,2,,0.6
2025-08-01T1100,3007A,119.178,34.844,连云港市,新城一中,,20,20,19,3,8,36,,36,34,5,3,3,3,0.6,0.6
2025-08-01T1100,3008A,119.3608,34.7519,连云港市,胡沟管理处,,14,14,17,3,4,22,,25,25,28,14,8,6,0.7,0.6
2025-08-01T1100,3009A,119.1478,34.5911,连云港市,矿山设计院,,14,14,19,7,7,36,,41,40,8,6,1,1,0.5,0.5
2025-08-01T1100,3434A,119.2413,34.6539,连云港市,工贸学校,,18,16,20,12,14,48,,48,46,6,5,5,5,0.6,0.6
2025-08-01T1100,3664A,119.4172,34.7341,连云港市,连云街道,,17,17,25,7,10,40,,42,40,5,7,2,2,0.5,0.5
2025-08-01T1100,2571A,102.3431,27.8099,凉山彝族自治州,青龙寺,,25,25,17,8,6,74,,41,41,5,5,9,7,0.4,0.3
2025-08-01T1100,2572A,102.2721,27.8415,凉山彝族自治州,邛海宾馆,,29,29,20,16,11,68,,43,43,20,15,11,10,0.7,0.6
2025-08-01T1100,2573A,102.2625,27.898,凉山彝族自治州,西昌市政府,,49,,18,34,15,72,,51,47,21,9,23,10,1.3,0.6
2025-08-01T1100,2574A,102.2685,27.8851,凉山彝族自治州,凉山州政府,,40,40,21,20,14,73,,52,50,28,19,23,12,1.5,0.8
2025-08-01T1100,4229A,102.2342,27.8859,凉山彝族自治州,凯乐南路30号,,42,42,27,21,13,74,,44,43,22,19,31,13,1.6,0.8
2025-08-01T1100,2212A,123.2,41.1953,辽阳市,宏伟区,,24,19,32,12,21,75,,55,52,6,11,2,3,0.5,1
2025-08-01T1100,2213A,123.1683,41.2495,辽阳市,新华园,,28,18,37,8,19,87,,59,58,5,15,4,8,0.5,1
2025-08-01T1100,2214A,123.2354,41.2639,辽阳市,滨河路,颗粒物(PM10),52,54,49,11,17,63,,39,39,10,14,2,2,0.5,0.8
2025-08-01T1100,2215A,123.149,41.2991,辽阳市,铁西工业园,,,14,44,6,18,74,,42,42,11,24,,5,,1.3
2025-08-01T1100,2227A,125.1358,42.8845,辽源市,环保局,,39,17,28,13,7,122,,52,52,4,16,6,6,0.6,0.4
2025-08-01T1100,3239A,125.0764,42.9078,辽源市,银鹰制药,,42,18,20,12,11,134,,54,54,8,20,9,8,0.6,0.5
2025-08-01T1100,1625A,115.9848,36.4372,聊城市,区政府,,29,24,37,18,24,90,,52,52,9,14,9,10,0.7,0.8
2025-08-01T1100,2878A,116.0072,36.4343,聊城市,聊大东校,,30,24,40,13,23,96,,54,54,9,15,8,9,0.6,0.8
2025-08-01T1100,3200A,115.9819,36.4978,聊城市,监控中心,,31,17,21,14,18,99,,54,54,10,14,12,8,1.0,0.9
2025-08-01T1100,3513A,116.0445,36.4361,聊城市,九州社区,,32,32,45,16,24,97,,51,51,9,16,8,6,0.3,0.4
2025-08-01T1100,4018A,116.0567,36.4608,聊城市,星美广场,,,33,44,11,23,96,,41,41,10,17,,4,,0.7
2025-08-01T1100,2632A,94.3681,29.6376,林芝市,林芝监测站,,12,9,6,3,4,36,,33,30,6,6,4,5,0.3,0.3
2025-08-01T1100,2633A,94.3616,29.6616,林芝市,林芝人民医院,,,10,9,3,3,38,,35,33,,2,4,4,,0.3
2025-08-01T1100,2603A,100.0781,23.8982,临沧市,市环保局,,16,11,15,11,15,29,,18,18,5,6,7,7,0.5,0.5
2025-08-01T1100,2604A,100.0894,23.8822,临沧市,市气象局,,20,20,14,8,9,29,,20,20,7,7,10,9,0.3,0.4
2025-08-01T1100,1733A,111.5531,36.0783,临汾市,临钢医院,,44,44,42,13,15,130,,102,100,6,11,3,4,0.8,0.8
2025-08-01T1100,1734A,111.5028,36.0714,临汾市,技工学校,,48,46,46,33,29,138,,108,108,7,9,6,6,0.7,0.7
2025-08-01T1100,1736A,111.5018,36.0855,临汾市,市委,,,56,50,17,14,162,,126,126,6,10,7,7,,0.6
2025-08-01T1100,3018A,111.505,36.1014,临汾市,唐尧大酒店,颗粒物(PM10),56,62,53,24,17,141,,102,102,8,13,3,4,0.8,0.7
2025-08-01T1100,4244A,111.4879,36.0530,临汾市,启星学校,,49,42,44,34,29,149,,111,111,8,10,5,6,0.8,0.8
2025-08-01T1100,4271A,103.2464,35.6123,临夏回族自治州,滨河东路1号,颗粒物(PM10),59,68,111,23,49,72,,26,26,8,19,8,7,0.5,0.5
2025-08-01T1100,4310A,103.2093,35.5995,临夏回族自治州,新华街21号,颗粒物(PM10),54,58,95,29,44,86,,69,69,8,12,12,8,0.4,0.4
2025-08-01T1100,1618A,118.3429,35.0532,临沂市,沂河小区,,18,12,19,12,13,34,,28,25,10,11,8,8,0.4,0.3
2025-08-01T1100,1619A,118.295,35.0583,临沂市,鲁南制药厂,,,12,12,6,11,37,,32,30,9,9,,9,0.7,0.6
2025-08-01T1100,1620A,118.2794,34.9976,临沂市,新光毛纺厂,,13,,9,9,11,41,,36,33,7,9,7,7,0.5,0.5
2025-08-01T1100,1621A,118.3956,35.0888,临沂市,河东保险公司,,12,12,14,3,3,25,,24,20,10,10,5,5,0.8,0.5
2025-08-01T1100,3370A,118.3564,35.0215,临沂市,十里堡居委,,12,6,13,3,8,36,,28,26,7,9,8,9,0.4,0.4
2025-08-01T1100,3496A,118.3604,35.1084,临沂市,南坊新区,,19,19,15,7,3,26,,22,20,11,10,9,9,0.6,0.4
2025-08-01T1100,3860A,118.3920,35.0300,临沂市,皇山花园小区,,11,6,12,3,11,34,,27,25,8,11,8,8,0.4,0.5
2025-08-01T1100,1870A,109.4856,24.3895,柳州市,柳东小学,,35,28,22,12,9,112,,69,69,4,4,3,2,0.5,0.5
2025-08-01T1100,1871A,109.4157,24.3277,柳州市,环保监测站,,34,32,25,18,16,106,,61,61,6,7,10,8,1.0,0.7
2025-08-01T1100,1872A,109.389,24.341,柳州市,河西水厂,颗粒物(PM10),52,54,29,22,17,101,,56,55,9,11,9,9,1.3,1.1
2025-08-01T1100,1873A,109.4311,24.2921,柳州市,市四中,,35,34,26,18,16,109,,58,58,10,10,8,6,1.2,0.9
2025-08-01T1100,1874A,109.4006,24.3631,柳州市,市九中,,34,,32,18,23,108,,59,59,6,9,6,4,0.6,0.4
2025-08-01T1100,1875A,109.4958,24.3134,柳州市,古亭山,,47,47,28,13,14,99,,46,46,7,10,16,7,0.9,0.7
2025-08-01T1100,3402A,109.5422,24.3996,柳州市,市二中,,40,40,23,14,12,100,,59,59,15,10,10,7,0.7,0.7
2025-08-01T1100,2307A,116.5079,31.737,六安市,监测大楼,,15,6,12,3,11,47,,46,44,3,4,3,3,0.3,0.3
2025-08-01T1100,2308A,116.4738,31.7643,六安市,皖西学院,,16,11,16,6,10,50,,47,46,3,5,2,2,0.3,0.3
2025-08-01T1100,2309A,116.4996,31.7905,六安市,朝阳厂,,14,,9,6,11,43,,42,40,5,7,4,4,0.4,0.3
2025-08-01T1100,2310A,116.5567,31.7886,六安市,开发区,,15,,8,7,12,48,,44,41,5,6,3,3,0.4,0.4
2025-08-01T1100,2576A,104.8,26.5892,六盘水市,窑上,,33,33,32,7,8,77,,36,36,7,4,4,2,0.5,0.5
2025-08-01T1100,2577A,104.83,26.5917,六盘水市,黄土坡,,27,17,21,17,14,85,,40,40,9,14,9,10,0.3,0.4
2025-08-01T1100,2578A,104.89,26.5939,六盘水市,水钢,,45,40,51,31,30,76,,30,27,24,20,17,12,2.0,0.9
2025-08-01T1100,2579A,104.8475,26.5894,六盘水市,民中,,27,22,27,9,13,86,,39,39,9,17,9,10,0.4,0.6
2025-08-01T1100,2580A,104.9544,26.5506,六盘水市,双水,,34,34,23,17,14,88,,36,35,14,10,6,6,0.5,0.5
2025-08-01T1100,2335A,117.0189,25.1181,龙岩市,龙岩师专,,,,,,,,,,,,,,,,
2025-08-01T1100,2336A,117.0217,25.1033,龙岩市,龙岩市监测站,,26,26,21,17,15,79,,37,35,8,8,4,4,0.6,0.5
2025-08-01T1100,2337A,117.0258,25.0661,龙岩市,闽西职业技术学院,,22,17,25,13,13,69,,23,23,7,8,3,6,0.5,0.5
2025-08-01T1100,2338A,117.0196,25.0306,龙岩市,龙岩学院,,24,20,21,14,14,76,,30,30,5,7,4,5,0.6,0.5
2025-08-01T1100,2665A,105.0822,33.3261,陇南市,汉王镇固水子,,,,,,,,,,,,,,,,
2025-08-01T1100,2885A,104.9339,33.3826,陇南市,滨江中学,,40,40,40,16,22,115,,87,87,6,4,8,7,0.6,0.5
2025-08-01T1100,3247A,104.955,33.371,陇南市,市总工会,,,47,45,21,20,127,,101,99,5,3,,5,0.4,0.4
2025-08-01T1100,2487A,111.9589,27.8901,娄底市,电视发射台,,40,40,44,14,14,88,,36,36,5,4,5,6,0.4,0.4
2025-08-01T1100,2488A,111.9975,27.725,娄底市,市监测站,颗粒物(PM10),58,65,42,26,23,114,,42,42,13,21,15,12,1.1,1.2
2025-08-01T1100,2489A,112.0194,27.7314,娄底市,市委党校,,47,47,39,28,23,125,,54,54,14,18,6,8,0.6,0.8
2025-08-01T1100,2490A,111.9561,27.7569,娄底市,涟钢,,36,36,38,20,21,95,,38,38,15,11,13,13,1.9,1.3
2025-08-01T1100,2491A,111.9892,27.7044,娄底市,市政府,,,75,37,72,22,116,,37,37,,5,5,5,1.2,0.9
2025-08-01T1100,1893A,105.4324,28.9634,泸州市,九狮山,,40,40,31,20,25,128,,61,61,11,13,5,4,0.6,0.3
2025-08-01T1100,1894A,105.4427,28.9063,泸州市,小市上码头,,28,28,28,12,14,79,,35,35,9,10,4,5,0.2,0.4
2025-08-01T1100,1895A,105.4241,28.8573,泸州市,兰田宪桥,,35,32,27,13,13,109,,37,37,13,14,8,7,0.4,0.4
2025-08-01T1100,1896A,105.4379,28.8833,泸州市,市环监站,,37,25,25,17,16,116,,50,50,17,17,10,10,0.3,0.2
2025-08-01T1100,4272A,105.3689,28.7783,泸州市,纳溪中医医院,,39,39,27,23,20,85,,38,38,25,16,3,3,0.6,0.5
2025-08-01T1100,2183A,111.1406,37.5211,吕梁市,环保局,颗粒物(PM10),56,62,76,38,31,142,,58,58,13,31,5,3,1.2,0.8
2025-08-01T1100,2185A,111.1297,37.5136,吕梁市,自来水公司,,,70,59,38,28,142,,56,56,,18,,5,1.3,1
2025-08-01T1100,2867A,111.1283,37.51,吕梁市,马茂庄小学,细颗粒物(PM2.5),98,73,65,73,32,142,,56,56,12,23,8,7,1.1,0.7
2025-08-01T1100,1812A,112.3931,34.6516,洛阳市,市委党校,,49,33,31,17,18,154,,95,95,8,12,9,8,0.5,0.5
2025-08-01T1100,1815A,112.494,34.6886,洛阳市,河南林校,臭氧1小时,55,45,38,16,18,164,,115,115,11,13,9,7,0.5,0.3
2025-08-01T1100,1816A,112.3844,34.623,洛阳市,开发区管委会,臭氧1小时,54,28,29,15,18,163,,102,102,5,9,12,9,0.6,0.5
2025-08-01T1100,1817A,112.4267,34.6258,洛阳市,市委新办公区,,46,26,30,18,19,147,,103,103,8,11,9,8,0.5,0.5
2025-08-01T1100,3340A,112.6005,34.6326,洛阳市,伊滨,,49,25,28,22,18,156,,89,89,10,13,12,9,0.7,0.6
2025-08-01T1100,3341A,112.4951,34.6332,洛阳市,中移产业园,,48,38,34,19,17,152,,97,97,8,12,8,7,0.8,0.7
2025-08-01T1100,3593A,112.5736,34.8993,洛阳市,吉利监测站,,48,39,39,19,16,152,,89,89,5,9,10,7,0.4,0.4
2025-08-01T1100,3635A,112.3677,34.662,洛阳市,河科大西苑校区,,50,36,33,15,16,159,,85,85,6,12,10,8,0.5,0.6
2025-08-01T1100,3636A,112.4388,34.6781,洛阳市,英才小学,,48,43,36,20,18,152,,106,106,10,11,10,8,0.5,0.5
2025-08-01T1100,4214A,112.4600,34.6949,洛阳市,春都路1号院,,46,34,32,14,13,146,,98,98,9,11,7,6,0.5,0.5
2025-08-01T1100,2399A,114.051,33.5699,漯河市,三五一五工厂,,34,34,40,21,26,106,,94,92,6,9,6,6,0.5,0.5
2025-08-01T1100,2400A,114.0055,33.5698,漯河市,漯河大学,,44,44,45,19,23,106,,99,95,10,12,5,5,0.4,0.4
2025-08-01T1100,2401A,114.0138,33.5828,漯河市,市水利局,,39,39,42,14,25,102,,92,89,5,7,5,5,0.4,0.5
2025-08-01T1100,2402A,114.0261,33.5698,漯河市,市广电局,,46,46,40,19,27,111,,97,97,5,9,4,4,0.4,0.4
2025-08-01T1100,3478A,113.9749,33.5664,漯河市,市图书馆,,34,25,38,9,25,108,,94,94,7,9,6,7,0.3,0.4
2025-08-01T1100,4250A,114.0892,33.5882,漯河市,韶山路11号,,39,39,45,17,23,103,,86,86,6,12,3,4,0.6,0.5
2025-08-01T1100,1798A,118.5092,31.6837,马鞍山市,湖东路四小,,28,28,15,11,8,65,,54,54,7,12,5,5,0.4,0.6
2025-08-01T1100,1799A,118.5024,31.6449,马鞍山市,开发区,,21,19,12,13,7,65,,52,52,5,11,6,7,0.5,0.7
2025-08-01T1100,1802A,118.6245,31.7241,马鞍山市,濮塘,,19,15,9,6,7,58,,48,47,4,7,7,6,0.6,0.7
2025-08-01T1100,3633A,118.4918,31.6809,马鞍山市,雨山,,20,15,10,13,7,62,,51,51,6,13,7,10,0.4,0.7
2025-08-01T1100,4191A,118.5274,31.72227,马鞍山市,慈湖高新区,,19,18,12,12,7,59,,49,49,9,12,6,7,0.5,0.6
2025-08-01T1100,1686A,111.0286,21.4688,茂名市,电白南海,,24,24,27,12,14,67,,52,52,6,9,3,3,0.4,0.4
2025-08-01T1100,1687A,110.9294,21.6533,茂名市,茂石化七小,,34,34,36,9,17,61,,30,30,7,11,4,8,0.5,0.5
2025-08-01T1100,1688A,110.9107,21.6687,茂名市,健康路,,22,22,30,3,15,66,,40,40,9,12,5,12,0.6,0.6
2025-08-01T1100,1689A,110.8592,21.6828,茂名市,高岭,,27,27,48,7,16,56,,24,24,12,18,6,13,0.4,0.5
2025-08-01T1100,3450A,111.01,21.5165,茂名市,电白水东,,22,14,24,12,14,69,,47,47,6,10,6,10,0.4,0.5
2025-08-01T1100,2539A,104.0308,30.0478,眉山市,黑龙滩水库,,35,10,15,10,15,110,,53,53,2,6,3,3,0.2,0.2
2025-08-01T1100,2540A,103.8416,30.0874,眉山市,气象局,,,36,35,34,18,141,,42,42,15,22,,3,0.7,0.6
2025-08-01T1100,3137A,103.8578,30.0744,眉山市,市委党校,颗粒物(PM10),52,53,29,31,16,136,,51,51,18,21,7,8,0.9,0.7
2025-08-01T1100,3148A,103.8291,30.0564,眉山市,区人社局,颗粒物(PM10),54,58,43,29,15,147,,50,50,24,24,18,14,1.0,0.8
2025-08-01T1100,1690A,116.1231,24.3284,梅州市,梅江月梅,,25,24,16,15,9,77,,36,36,9,13,8,8,0.6,0.5
2025-08-01T1100,1691A,116.0797,24.2719,梅州市,梅县新城,,24,16,15,12,12,74,,34,34,6,8,7,6,0.6,0.5
2025-08-01T1100,1692A,116.1248,24.2654,梅州市,环境监控中心,,24,19,20,13,12,74,,39,39,9,15,3,4,0.5,0.5
2025-08-01T1100,3315A,116.1233,24.2991,梅州市,梅龙,,25,17,15,14,8,80,,40,40,6,11,6,6,0.6,0.6
2025-08-01T1100,1878A,104.7778,31.4741,绵阳市,富乐山,,49,37,39,34,26,115,,56,56,6,11,9,8,0.6,0.6
2025-08-01T1100,1880A,104.6697,31.4668,绵阳市,高新区自来水公司,,42,34,46,17,23,133,,60,60,17,20,8,8,0.7,0.7
2025-08-01T1100,1881A,104.7287,31.5075,绵阳市,三水厂,,50,43,46,35,31,131,,53,53,10,21,7,6,0.4,0.5
2025-08-01T1100,3491A,104.69,31.5322,绵阳市,西科大附属小学,,41,38,55,20,33,131,,54,54,12,23,8,8,0.5,0.6
2025-08-01T1100,3492A,104.5648,31.5343,绵阳市,安州区旅游局,,36,34,41,22,21,114,,71,71,10,11,2,7,0.5,0.6
2025-08-01T1100,4226A,104.7651,31.4531,绵阳市,绵阳市气象局,,35,27,40,23,27,109,,57,57,12,14,8,6,0.5,0.5
2025-08-01T1100,1784A,129.61,44.561,牡丹江市,环保大楼,,24,24,23,11,10,67,,22,22,14,16,4,4,0.3,0.3
2025-08-01T1100,1785A,129.6115,44.5782,牡丹江市,文化广场,,22,15,18,10,15,68,,27,27,15,18,7,7,0.5,0.4
2025-08-01T1100,1786A,129.5904,44.5963,牡丹江市,第一医院,,22,21,24,8,15,68,,29,29,14,19,8,7,0.5,0.5
2025-08-01T1100,1787A,129.6364,44.6075,牡丹江市,机车工厂,,20,17,26,3,12,64,,25,25,16,15,5,5,0.4,0.4
2025-08-01T1100,1788A,129.6386,44.5462,牡丹江市,第一中学,,24,24,17,6,11,69,,23,23,16,16,6,6,0.3,0.2
2025-08-01T1100,2531A,105.0703,29.61,内江市,市监测站,,43,20,21,20,16,136,,67,67,11,15,4,3,0.6,0.6
2025-08-01T1100,2532A,105.0717,29.5947,内江市,东兴区政府,,,,20,,11,124,,65,65,10,11,,8,0.5,0.6
2025-08-01T1100,2533A,105.0653,29.5817,内江市,内江二中,,40,30,29,16,20,126,,60,60,11,16,5,5,0.5,0.6
2025-08-01T1100,2534A,105.0406,29.5822,内江市,内江日报社,,36,,19,14,20,115,,56,56,9,24,10,9,0.5,0.5
2025-08-01T1100,2628A,92.0657,31.4846,那曲市,那曲监测站,颗粒物(PM10),52,54,28,22,12,78,,63,55,15,15,10,9,0.4,0.4
2025-08-01T1100,4243A,92.0515,31.4787,那曲市,那曲市委宣传部,,,,12,,7,,,83,,,7,,5,,0.3
2025-08-01T1100,1290A,115.8931,28.6843,南昌市,省外办,,35,32,21,24,13,110,,64,64,11,10,10,7,0.3,0.4
2025-08-01T1100,1291A,115.8886,28.7003,南昌市,省林业公司,,37,36,16,22,10,117,,70,70,12,10,8,4,0.5,0.4
2025-08-01T1100,1292A,115.8126,28.7442,南昌市,林科所,,37,19,14,12,6,118,,59,59,7,16,11,9,0.4,0.3
2025-08-01T1100,1294A,115.8518,28.687,南昌市,建工学校,,40,40,21,3,11,115,,64,64,15,15,15,10,0.5,0.4
2025-08-01T1100,1295A,115.8921,28.6424,南昌市,象湖,,37,28,18,12,8,118,,66,66,11,10,12,8,0.5,0.4
2025-08-01T1100,1296A,115.7423,28.7996,南昌市,武术学校,,27,14,13,8,12,84,,31,31,3,3,8,8,0.5,0.4
2025-08-01T1100,3046A,115.9084,28.6062,南昌市,机电学校,,41,41,26,19,11,114,,62,62,8,8,10,6,0.6,0.5
2025-08-01T1100,3690A,115.9721,28.7031,南昌市,外国语学校,,40,36,19,10,7,127,,75,75,13,9,10,6,0.4,0.2
2025-08-01T1100,4192A,115.9316,28.68677,南昌市,南京东路235号,,39,39,41,16,8,115,,69,69,12,11,9,5,0.6,0.6
2025-08-01T1100,1905A,106.056,30.8064,南充市,西山风景区,,,,,,,,,,,,,,,,
2025-08-01T1100,1906A,106.0789,30.8023,南充市,南充市委,,42,42,33,29,22,129,,57,57,12,15,7,6,0.5,0.4
2025-08-01T1100,1907A,106.1031,30.8217,南充市,南充炼油厂,,49,49,38,21,20,129,,65,65,10,10,6,4,0.4,0.4
2025-08-01T1100,4227A,106.1083,30.7884,南充市,梨树横街98号,,45,35,29,31,19,136,,85,85,10,10,8,5,0.3,0.3
2025-08-01T1100,4304A,106.1172,30.843,南充市,清泉寺北路188号,,46,46,36,20,19,123,,67,67,10,10,2,3,0.4,0.4
2025-08-01T1100,4305A,106.067,30.7616,南充市,同庆路1号,,42,35,31,19,19,134,,63,63,10,15,6,4,0.4,0.4
2025-08-01T1100,1151A,118.8086,32.1065,南京市,迈皋桥,,14,12,4,9,3,34,,42,41,28,16,4,4,0.4,0.4
2025-08-01T1100,1152A,118.7538,32.0551,南京市,草场门,,27,27,6,12,4,31,,33,33,16,10,8,8,0.6,0.5
2025-08-01T1100,1153A,118.7794,32.0745,南京市,山西路,,14,14,6,3,1,42,,,,22,20,5,4,0.5,0.5
2025-08-01T1100,1154A,118.7752,32.0023,南京市,中华门,,14,14,3,7,2,29,,28,28,10,9,10,9,0.7,0.7
2025-08-01T1100,1155A,118.8109,32.0309,南京市,瑞金路,,13,9,3,9,3,34,,36,36,18,17,6,6,0.3,0.3
2025-08-01T1100,1156A,118.7997,32.0754,南京市,玄武湖,,13,13,9,3,2,38,,38,38,9,9,8,7,0.4,0.5
2025-08-01T1100,1157A,118.6414,32.0931,南京市,浦口,,21,21,8,3,2,39,,38,38,16,12,5,4,0.4,0.5
2025-08-01T1100,1158A,118.7356,31.9996,南京市,奥体中心,,18,18,5,3,4,37,,37,36,16,12,4,4,0.5,0.5
2025-08-01T1100,1159A,118.9125,32.1028,南京市,仙林大学城,,19,19,10,3,0,39,,39,39,9,7,8,8,0.6,0.6
2025-08-01T1100,3422A,118.8436,31.9198,南京市,江宁彩虹桥,,15,15,8,7,3,32,,31,31,13,12,4,4,0.6,0.6
2025-08-01T1100,3427A,118.8554,32.3578,南京市,六合雄州,,18,18,10,8,3,44,,30,30,16,13,4,3,0.6,0.6
2025-08-01T1100,4249A,118.8708,31.3402,南京市,汶溪路181号,,20,11,6,11,6,62,,40,40,7,9,4,4,0.5,0.5
2025-08-01T1100,4312A,119.019,31.6512,南京市,中山西路1号,,13,9,4,9,5,39,,36,35,15,11,3,4,0.7,0.6
2025-08-01T1100,1401A,108.3103,22.7881,南宁市,二十一中,,26,26,30,15,19,66,,46,46,11,18,3,3,0.6,0.6
2025-08-01T1100,1402A,108.3141,22.8528,南宁市,北湖,,25,20,30,14,23,78,,53,53,8,15,4,4,0.5,0.6
2025-08-01T1100,1403A,108.3206,22.8225,南宁市,市监测站,,28,28,29,18,23,68,,58,58,14,18,3,3,0.5,0.5
2025-08-01T1100,1404A,108.3829,22.8037,南宁市,大自然花园,,26,26,28,15,18,72,,48,48,11,10,4,4,0.7,0.6
2025-08-01T1100,1405A,108.4394,22.7904,南宁市,仙葫,,28,28,28,19,22,70,,47,47,9,11,5,5,0.5,0.6
2025-08-01T1100,1406A,108.2397,22.8467,南宁市,区农职院,,,27,27,8,16,79,,36,36,,13,,6,0.6,0.7
2025-08-01T1100,1407A,108.3275,22.735,南宁市,英华嘉园,,,34,29,24,21,56,,47,47,,17,1,1,0.4,0.4
2025-08-01T1100,3401A,108.4834,22.7618,南宁市,红星社区,,28,28,28,19,20,70,,44,44,10,11,2,2,0.5,0.5
2025-08-01T1100,4221A,108.2177,22.7774,南宁市,乐贤路16号,,,21,31,20,23,61,,33,33,27,19,5,5,,0.7
2025-08-01T1100,2331A,118.0966,26.6761,南平市,茫荡山,,,,,,,,,,,,,,,,
2025-08-01T1100,2332A,118.1681,26.6369,南平市,南平市监测站,,33,29,19,19,12,103,,34,34,6,13,7,4,0.7,0.5
2025-08-01T1100,2333A,118.1825,26.6489,南平市,南平铝业有限公司,,,45,26,19,9,102,,27,27,,13,,6,0.6,0.4
2025-08-01T1100,2334A,118.1756,26.6272,南平市,南平七中,,34,29,23,17,10,107,,34,34,7,9,7,3,0.8,0.5
2025-08-01T1100,1168A,120.9098,31.9663,南通市,狼山街道,,32,25,19,15,10,101,,62,62,6,12,2,3,0.5,0.6
2025-08-01T1100,1169A,120.86,32.0005,南通市,虹桥,,32,20,17,12,11,100,,63,63,8,13,1,2,0.7,0.7
2025-08-01T1100,1170A,120.87,32.02,南通市,城中,,30,30,22,19,10,88,,54,54,7,11,2,2,0.4,0.4
2025-08-01T1100,1171A,120.94,31.93,南通市,星湖花园,,30,17,13,16,10,96,,57,57,7,13,1,2,0.5,0.5
2025-08-01T1100,1172A,120.81,32.0417,南通市,紫琅学院,,30,22,14,14,9,94,,58,58,7,11,2,3,0.7,0.7
2025-08-01T1100,3291A,121.067,32.062,南通市,通州监测站,,,19,12,14,7,100,,60,60,5,8,,3,0.8,0.7
2025-08-01T1100,3432A,120.9348,31.9883,南通市,环境教育馆,,32,24,20,17,8,100,,62,62,7,10,2,3,0.3,0.3
2025-08-01T1100,2404A,112.5224,33.0122,南阳市,瓦房庄,,50,50,43,25,20,149,,126,126,6,8,8,7,0.5,0.5
2025-08-01T1100,2405A,112.5003,32.9735,南阳市,汉画馆,,46,40,39,16,14,146,,124,124,8,9,8,8,0.5,0.5
2025-08-01T1100,2406A,112.5573,33.027,南阳市,气象站,,,36,37,22,20,151,,126,126,6,7,,8,0.5,0.5
2025-08-01T1100,2407A,112.5481,32.9689,南阳市,理工学院,,46,42,38,17,12,147,,131,130,5,6,8,8,0.6,0.6
2025-08-01T1100,4008A,112.5234,32.9922,南阳市,卧龙区政府,,46,31,29,21,20,147,,125,125,8,8,7,6,0.6,0.6
2025-08-01T1100,1234A,121.8358,29.911,宁波市,区环保大楼,,38,38,49,13,18,96,,78,78,6,8,3,3,0.5,0.5
2025-08-01T1100,1235A,121.56,29.82,宁波市,万里学院,,43,43,32,24,25,115,,73,73,7,9,4,4,0.6,0.6
2025-08-01T1100,1236A,121.713,29.9572,宁波市,龙赛医院,,31,30,35,17,13,97,,71,71,5,9,6,6,0.5,0.5
2025-08-01T1100,1239A,121.633,29.7733,宁波市,钱湖水厂,,31,28,31,21,18,98,,67,67,4,5,4,4,0.5,0.4
2025-08-01T1100,1240A,121.5856,29.8635,宁波市,太古小学,,40,40,41,19,18,110,,74,74,3,8,2,2,0.4,0.4
2025-08-01T1100,1241A,121.524,29.8674,宁波市,市环境监测中心,,36,31,33,21,20,115,,78,78,8,11,6,6,0.5,0.5
2025-08-01T1100,2871A,121.6147,29.9017,宁波市,万里国际学校,,35,27,24,23,19,112,,80,80,3,7,3,3,0.5,0.5
2025-08-01T1100,3710A,121.5594,29.8975,宁波市,白沙活动中心,,38,30,25,21,17,121,,76,76,6,7,4,4,0.6,0.5
2025-08-01T1100,2339A,119.5001,26.6946,宁德市,金涵水库,,,,,,,,,,,,,,,,
2025-08-01T1100,2341A,119.5388,26.6612,宁德市,宁德市监测站,颗粒物(PM10),59,68,39,26,23,104,,48,48,12,13,7,6,0.9,0.8
2025-08-01T1100,3209A,119.5231,26.6562,宁德市,宁德一中,颗粒物(PM10),52,53,35,26,25,97,,46,46,12,8,7,6,0.7,0.6
2025-08-01T1100,2618A,98.8601,25.8567,怒江傈僳族自治州,州监测站,,24,24,19,10,12,34,,14,14,6,8,6,6,0.4,0.4
2025-08-01T1100,2619A,98.8546,25.8417,怒江傈僳族自治州,泸水一中,,,,16,32,11,23,,5,5,,10,6,6,,0.5
2025-08-01T1100,1888A,101.6891,26.571,攀枝花市,弄弄坪,,47,47,38,25,17,54,,30,29,32,17,56,13,3.5,1.2
2025-08-01T1100,1889A,101.5769,26.5928,攀枝花市,河门口,,37,37,30,16,16,54,,23,23,11,13,12,8,0.5,0.7
2025-08-01T1100,1890A,101.7169,26.585,攀枝花市,炳草岗,颗粒物(PM10),51,51,34,19,17,52,,24,24,33,20,48,10,2.8,1
2025-08-01T1100,1891A,101.7369,26.5008,攀枝花市,仁和,,34,34,23,18,14,72,,29,29,15,10,24,10,1.7,0.8
2025-08-01T1100,2835A,101.7227,26.567,攀枝花市,四十中小,,32,32,28,19,19,54,,22,22,30,23,30,15,2.2,1.3
2025-08-01T1100,1604A,122.0303,41.1489,盘锦市,开发区,,,44,36,8,21,119,,72,72,9,27,6,14,,0.5
2025-08-01T1100,1605A,122.0485,41.0883,盘锦市,兴隆台,,41,25,31,14,19,131,,79,79,5,26,7,9,0.6,0.6
2025-08-01T1100,1606A,121.8297,41.1028,盘锦市,新生街道,,45,18,18,3,14,141,,71,71,8,22,6,4,0.5,0.5
2025-08-01T1100,1832A,113.3257,33.742,平顶山市,新华旅馆,颗粒物(PM10),52,53,53,20,22,122,,110,107,10,12,7,7,0.5,0.5
2025-08-01T1100,1833A,113.2919,33.737,平顶山市,规划设计院,,39,39,39,24,22,124,,107,104,10,11,10,8,0.6,0.6
2025-08-01T1100,1834A,113.182,33.774,平顶山市,平顶山工学院,,41,37,34,22,19,129,,104,104,10,10,8,6,0.5,0.5
2025-08-01T1100,3204A,113.3025,33.73,平顶山市,规划局,,48,48,43,16,15,124,,110,106,9,9,7,5,0.5,0.4
2025-08-01T1100,3594A,112.8867,33.9116,平顶山市,石龙区,,45,38,40,20,22,144,,115,115,9,11,8,9,0.6,0.6
2025-08-01T1100,2656A,106.6692,35.5461,平凉市,聚贤嘉苑,颗粒物(PM10),54,57,41,15,13,127,,73,73,9,14,10,9,0.6,0.5
2025-08-01T1100,2657A,106.7021,35.5307,平凉市,博物馆,,42,42,43,27,20,125,,83,83,12,16,12,10,0.6,0.6
2025-08-01T1100,2347A,114.0997,27.5002,萍乡市,武功山,,27,6,4,3,8,85,,40,40,3,4,10,10,0.4,0.4
2025-08-01T1100,2348A,113.8385,27.6434,萍乡市,中医院,颗粒物(PM10),53,55,32,27,16,123,,57,57,12,15,9,9,1.5,1
2025-08-01T1100,2349A,113.8493,27.6253,萍乡市,市政府车库,,42,,21,29,20,106,,49,49,8,10,12,10,0.5,0.6
2025-08-01T1100,2350A,113.8676,27.6435,萍乡市,市环保局,,43,43,27,30,20,119,,56,56,8,10,10,11,0.8,0.6
2025-08-01T1100,2351A,113.866,27.6198,萍乡市,安源区政府,,,41,27,24,18,107,,53,53,5,6,14,12,,0.6
2025-08-01T1100,2319A,119.0141,25.4325,莆田市,荔城区仓后路,,48,48,35,30,13,101,,49,49,6,9,5,5,0.6,0.6
2025-08-01T1100,2320A,119.0015,25.4553,莆田市,莆田市监测站,颗粒物(PM10),52,54,33,27,16,106,,46,46,8,6,4,4,0.5,0.4
2025-08-01T1100,2321A,119.1119,25.4561,莆田市,涵江区六中,,,49,31,28,14,121,,44,44,,12,3,4,,0.5
2025-08-01T1100,2322A,119.1013,25.3215,莆田市,秀屿区政府,,46,43,40,30,23,145,,68,68,11,13,5,5,0.5,0.4
2025-08-01T1100,2323A,118.981,25.4792,莆田市,东圳水库,,,,,,,,,,,,,,,,
2025-08-01T1100,2392A,115.0312,35.7636,濮阳市,环保局,细颗粒物(PM2.5),53,51,33,37,24,134,,85,85,9,8,7,5,0.6,0.5
2025-08-01T1100,2394A,115.0574,35.7609,濮阳市,油田运输公司,颗粒物(PM10),59,68,43,35,21,125,,75,75,12,10,6,4,0.7,0.6
2025-08-01T1100,3021A,115,35.7668,濮阳市,濮水河管理处,细颗粒物(PM2.5),55,55,38,39,24,110,,67,67,11,11,4,3,0.5,0.4
2025-08-01T1100,4216A,115.0924,35.7686,濮阳市,任丘路479号,颗粒物(PM10),58,66,53,38,29,117,,71,71,9,9,6,4,0.7,0.6
2025-08-01T1100,2601A,100.98,22.7633,普洱市,市环保局,,25,25,25,8,12,31,,20,20,5,7,4,5,0.6,0.7
2025-08-01T1100,2602A,100.9817,22.8322,普洱市,普洱第二中学,,28,28,22,14,12,28,,15,14,6,8,6,5,0.5,0.5
2025-08-01T1100,2262A,131.0518,45.8751,七台河市,新一中,,35,,16,6,9,112,,47,47,8,17,10,10,0.9,0.9
2025-08-01T1100,3345A,131.0577,45.7879,七台河市,中波台,,30,,16,8,7,93,,36,36,9,20,9,8,0.5,0.6
2025-08-01T1100,3637A,131.0176,45.7761,七台河市,人民广场,,29,19,25,8,11,92,,40,40,7,18,13,13,0.5,0.6
2025-08-01T1100,3684A,130.8781,45.8222,七台河市,新建矿广场,,34,34,21,3,11,92,,40,40,12,23,9,10,0.4,0.5
2025-08-01T1100,1779A,123.9305,47.3636,齐齐哈尔市,安居小区,,26,26,24,8,7,81,,33,33,11,18,5,4,0.5,0.5
2025-08-01T1100,1780A,123.9488,47.3386,齐齐哈尔市,中心广场,,28,22,20,3,3,88,,45,45,12,13,5,5,0.5,0.5
2025-08-01T1100,1781A,123.9483,47.3227,齐齐哈尔市,农牧车辆厂,,34,34,24,13,8,86,,43,43,14,14,7,6,0.3,0.4
2025-08-01T1100,1783A,123.945,47.2988,齐齐哈尔市,市环境监测站,,26,22,17,7,6,82,,45,45,14,11,6,5,0.4,0.4
2025-08-01T1100,3662A,123.6333,47.2075,齐齐哈尔市,富区青少年活动中心,,25,23,18,7,7,80,,34,34,7,12,5,5,0.3,0.3
2025-08-01T1100,2591A,107.9783,26.5747,黔东南苗族侗族自治州,市环境监测站,,25,23,17,15,15,78,,32,32,9,10,3,2,0.5,0.5
2025-08-01T1100,2881A,107.8908,26.5311,黔东南苗族侗族自治州,凯里学院,,30,14,13,13,12,94,,41,41,11,11,3,3,0.7,0.4
2025-08-01T1100,2593A,107.5228,26.2403,黔南布依族苗族自治州,小围寨,,,14,14,9,9,60,,20,20,10,9,,3,0.5,0.4
2025-08-01T1100,3538A,107.5175,26.2978,黔南布依族苗族自治州,沙坝,,23,19,17,7,4,72,,26,26,7,9,5,4,0.5,0.4
2025-08-01T1100,2589A,104.9022,25.0925,黔西南布依族苗族自治州,场坝街,,15,15,27,3,14,47,,26,25,19,14,19,17,0.5,0.5
2025-08-01T1100,2590A,104.8811,25.0992,黔西南布依族苗族自治州,坪东大道,,33,33,31,22,19,51,,24,24,13,11,15,5,0.4,0.4
2025-08-01T1100,2502A,108.6236,21.9667,钦州市,市环保站,,15,7,21,3,11,46,,57,57,16,12,1,2,0.6,1.1
2025-08-01T1100,2503A,108.6549,21.9481,钦州市,沙埠小学,,18,18,23,3,12,51,,55,55,10,11,1,2,0.4,0.5
2025-08-01T1100,2504A,108.5989,21.7431,钦州市,港区一小,,17,17,33,6,15,42,,42,42,20,24,2,3,0.4,0.5
2025-08-01T1100,3404A,108.5959,21.9633,钦州市,北职校,,15,10,24,6,14,47,,57,57,12,10,1,2,0.6,0.6
2025-08-01T1100,1043A,119.7493,40.0116,秦皇岛市,第一关,,50,47,34,6,14,160,,59,59,8,45,9,7,0.6,0.3
2025-08-01T1100,1044A,119.5897,39.9499,秦皇岛市,监测站,,49,49,39,9,6,148,,75,75,26,24,10,6,0.8,0.5
2025-08-01T1100,1046A,119.5251,39.9041,秦皇岛市,建设大厦,臭氧1小时,64,43,41,7,8,171,,74,74,12,24,9,6,0.9,0.4
2025-08-01T1100,3132A,119.610547,39.943889,秦皇岛市,文明里,颗粒物(PM10),53,55,38,3,7,142,,73,73,26,22,9,7,0.6,0.3
2025-08-01T1100,4198A,119.5090,39.8253,秦皇岛市,北戴河轮滑馆,臭氧1小时,58,48,34,14,15,166,,70,70,11,24,9,3,1.4,0.7
2025-08-01T1100,1307A,120.6659,36.2403,青岛市,仰口,,23,23,15,6,4,44,,29,29,4,3,9,8,0.5,0.6
2025-08-01T1100,1310A,120.4134,36.0658,青岛市,市南区东部子站,,24,24,15,7,6,35,,29,28,2,2,6,6,0.3,0.3
2025-08-01T1100,1311A,120.3664,36.1032,青岛市,四方区子站,,17,17,11,9,7,34,,28,25,2,2,4,4,0.2,0.2
2025-08-01T1100,1312A,120.2994,36.054,青岛市,市南区西部子站,,24,24,16,12,6,19,,25,20,10,4,9,8,0.5,0.5
2025-08-01T1100,1313A,120.4581,36.0858,青岛市,崂山区子站,,14,14,42,3,4,37,,25,25,4,5,8,8,0.2,0.2
2025-08-01T1100,1315A,120.3999,36.3083,青岛市,城阳区子站,,,14,8,3,5,,,,,3,5,6,6,0.4,0.4
2025-08-01T1100,1966A,120.0405,35.8735,青岛市,黄岛区4号,,14,14,17,3,2,44,,35,34,4,4,11,10,0.3,0.3
2025-08-01T1100,3362A,120.5014,36.4034,青岛市,即墨2号,,23,,11,16,10,56,,42,42,4,2,3,3,0.2,0.1
2025-08-01T1100,3642A,120.3503,36.0736,青岛市,市北区南部,,,8,15,,4,35,,33,32,8,8,4,5,0.4,0.4
2025-08-01T1100,3643A,120.3948,36.1805,青岛市,李沧区北部,,14,14,4,7,8,35,,28,25,2,4,6,5,0.2,0.2
2025-08-01T1100,4290A,120.1969,35.9546,青岛市,珠江路669号,,12,12,14,3,7,29,,20,20,4,6,6,6,0.4,0.4
2025-08-01T1100,1702A,113.0426,23.691,清远市,环保大楼,颗粒物(PM10),69,88,41,24,13,108,,73,73,12,11,9,10,0.8,0.8
2025-08-01T1100,1703A,113.0208,23.7106,清远市,凤城街办,,35,35,25,19,14,85,,44,44,12,13,6,10,0.6,0.6
2025-08-01T1100,3025A,113.0477,23.6344,清远市,技师学院,,34,34,20,21,13,88,,57,57,7,9,9,9,0.5,0.5
2025-08-01T1100,3318A,112.9903,23.7403,清远市,清新太和,,,33,24,22,16,90,,42,42,,12,7,6,,0.6
2025-08-01T1100,3455A,113.076,23.7198,清远市,清城东城,,32,30,24,22,17,80,,43,43,8,10,5,5,0.8,0.7
2025-08-01T1100,2661A,107.6325,35.7357,庆阳市,庆阳五中,,44,44,31,20,15,112,,110,100,9,7,8,7,0.6,0.6
2025-08-01T1100,2662A,107.6364,35.7067,庆阳市,市环保局,,37,35,29,17,14,118,,118,109,6,5,15,13,0.7,0.7
2025-08-01T1100,1916A,103.7897,25.5035,曲靖市,环境监测站,,39,39,48,25,27,108,,49,49,8,18,12,13,0.6,1
2025-08-01T1100,1917A,103.8,25.5364,曲靖市,烟厂办公区,,43,,43,30,25,107,,48,48,4,15,4,10,0.7,1.2
2025-08-01T1100,3376A,103.7947,25.462,曲靖市,南苑二区,,42,31,38,29,25,115,,42,42,7,13,6,5,1.0,1
2025-08-01T1100,3377A,103.7444,25.5261,曲靖市,曲靖师范学院,,38,37,43,26,32,86,,29,29,11,22,11,15,0.7,0.8
2025-08-01T1100,1264A,118.8692,28.9398,衢州市,环保大楼,,39,39,32,24,18,94,,34,34,11,16,4,4,0.5,0.4
2025-08-01T1100,1265A,118.8709,28.9666,衢州市,实验学校,,30,30,29,16,16,88,,33,33,12,14,7,5,0.4,0.3
2025-08-01T1100,1266A,118.8621,28.9808,衢州市,衢州学院,,31,31,27,20,16,89,,26,26,11,18,8,3,0.4,0.3
2025-08-01T1100,1611A,118.5819,24.9117,泉州市,涂山街,,41,34,41,24,24,130,,61,61,14,17,2,2,0.8,0.7
2025-08-01T1100,1612A,118.5972,24.8978,泉州市,津头埔,,43,33,39,18,23,137,,72,72,12,13,3,4,0.6,0.5
2025-08-01T1100,1613A,118.6663,24.9424,泉州市,万安,,43,42,41,26,24,135,,62,62,16,16,2,2,0.5,0.4
2025-08-01T1100,1614A,118.6117,24.9604,泉州市,清源山,,,,,,,,,,,,,,,,
2025-08-01T1100,3529A,118.6333,24.9264,泉州市,城华南路,,43,35,38,22,24,136,,67,67,13,13,4,4,0.6,0.6
2025-08-01T1100,2626A,88.8876,29.2718,日喀则市,日喀则监测站,,21,6,4,3,1,66,,60,60,4,3,9,12,0.3,0.3
2025-08-01T1100,3726A,88.8781,29.2426,日喀则市,林业技术推广中心,,19,7,7,3,3,59,,57,54,3,2,5,6,0.4,0.4
2025-08-01T1100,1659A,119.471,35.4209,日照市,监测站,,15,14,10,10,6,36,,28,28,5,6,6,6,0.1,0.2
2025-08-01T1100,1660A,119.523,35.4216,日照市,市政府广场,,14,14,13,3,2,38,,30,30,1,2,3,3,0.5,0.6
2025-08-01T1100,1661A,119.5587,35.4044,日照市,港务局,,,14,16,13,14,41,,33,32,1,2,,35,0.5,0.5
2025-08-01T1100,3507A,119.5328,35.4625,日照市,职业技术学院,,14,14,12,7,4,36,,29,29,5,4,4,4,0.5,0.5
2025-08-01T1100,3604A,119.3266,35.1044,日照市,岚山环保分局,,,,16,,2,25,,31,27,,4,,8,0.5,0.5
2025-08-01T1100,1835A,111.1922,34.7752,三门峡市,市政府,,45,30,37,16,19,144,,120,120,7,8,7,6,0.4,0.4
2025-08-01T1100,1836A,111.1587,34.7942,三门峡市,开发区,,45,23,35,15,19,143,,118,118,11,14,9,7,0.4,0.4
2025-08-01T1100,1838A,111.143,34.7955,三门峡市,风景区,,46,36,34,16,18,145,,120,120,4,5,7,5,0.4,0.5
2025-08-01T1100,3039A,111.1911,34.7829,三门峡市,三门峡市第一小学,,43,38,37,11,17,136,,118,118,13,12,8,8,0.4,0.5
2025-08-01T1100,3598A,111.1,34.7167,三门峡市,富达温泉假日酒店,,47,34,39,13,20,148,,123,123,6,8,4,6,0.3,0.5
2025-08-01T1100,2324A,117.6211,26.2625,三明市,三钢,,32,29,28,22,21,54,,20,20,11,13,7,5,1.1,0.9
2025-08-01T1100,2325A,117.635,26.2714,三明市,三明二中,,27,27,29,14,12,54,,22,22,9,10,5,3,0.8,0.6
2025-08-01T1100,2326A,117.6028,26.2378,三明市,三元区政府,,29,23,31,20,13,61,,18,18,9,13,6,4,0.4,0.4
2025-08-01T1100,2327A,117.7275,26.3108,三明市,洋溪,,,,,,,,,,,,,,,,
2025-08-01T1100,1876A,109.5078,18.2489,三亚市,河东子站,,,52,33,17,15,55,,42,42,,4,3,3,0.3,0.2
2025-08-01T1100,1877A,109.4964,18.2681,三亚市,河西子站,,42,42,33,12,14,54,,40,40,2,5,2,2,0.2,0.2
2025-08-01T1100,3540A,109.7348,18.3443,三亚市,君悦子站,,45,45,35,16,14,59,,44,44,6,7,2,2,0.5,0.5
2025-08-01T1100,2624A,91.7608,29.2313,山南市,山南监测站,,37,37,18,14,4,53,,59,47,3,4,3,3,0.3,0.3
2025-08-01T1100,2625A,91.7706,29.2436,山南市,山南人民医院,,16,9,13,3,5,50,,56,47,5,4,4,4,0.3,0.2
2025-08-01T1100,1674A,116.6794,23.3667,汕头市,金平子站,,32,32,20,13,11,91,,66,66,5,8,2,2,0.5,0.6
2025-08-01T1100,1675A,116.7244,23.3633,汕头市,龙湖子站,,27,22,21,12,10,84,,61,61,6,8,6,6,0.5,0.5
2025-08-01T1100,1676A,116.7258,23.2775,汕头市,濠江子站,,40,40,36,14,13,61,,51,51,14,8,5,5,0.6,0.6
2025-08-01T1100,1677A,116.7519,23.4714,汕头市,澄海子站,,37,37,28,14,15,102,,59,59,7,9,4,2,0.8,0.7
2025-08-01T1100,1678A,116.6092,23.2539,汕头市,潮阳子站,,25,17,21,8,10,77,,58,58,3,4,4,4,0.5,0.5
2025-08-01T1100,3444A,116.454,23.2684,汕头市,潮南峡山,,25,18,18,14,11,77,,55,55,4,6,5,5,0.6,0.7
2025-08-01T1100,3624A,116.4069,23.2533,汕头市,潮南子站,,30,30,22,15,12,76,,56,56,3,4,3,3,0.6,0.6
2025-08-01T1100,1693A,115.3653,22.775,汕尾市,市环保局,,33,33,35,10,10,60,,38,38,6,9,2,2,0.5,0.5
2025-08-01T1100,1694A,115.3706,22.7898,汕尾市,市政府,,24,24,23,16,10,61,,,,8,12,3,3,0.5,0.5
2025-08-01T1100,1695A,115.3622,22.7925,汕尾市,新城中学,,,41,30,17,11,58,,36,36,7,10,,4,,0.5
2025-08-01T1100,2645A,109.9154,33.8715,商洛市,监测站,,41,38,35,23,21,129,,50,50,8,12,4,8,0.5,0.5
2025-08-01T1100,3045A,109.9643,33.8471,商洛市,商州区中学,,,42,40,23,19,128,,47,47,9,15,7,15,,0.4
2025-08-01T1100,2408A,115.6702,34.4285,商丘市,环境监测站,,,65,33,11,18,86,,51,51,,10,2,4,,0.4
2025-08-01T1100,2409A,115.6458,34.4045,商丘市,粮食局,,26,26,29,11,14,83,,52,52,5,9,3,3,0.4,0.4
2025-08-01T1100,2410A,115.6293,34.3948,商丘市,睢阳区环保局,,30,30,33,11,15,84,,53,53,4,8,6,6,0.3,0.3
2025-08-01T1100,3171A,115.6071,34.4465,商丘市,梁园区档案局,,25,23,30,8,16,79,,49,49,5,11,2,3,0.4,0.4
2025-08-01T1100,1141A,121.4,31.238,上海市,普陀,,41,29,35,28,17,130,,85,85,13,13,5,5,0.3,0.3
2025-08-01T1100,1142A,121.478,31.2036,上海市,十五厂,,39,30,41,23,21,123,,82,82,16,16,7,7,0.8,0.8
2025-08-01T1100,1143A,121.467,31.3008,上海市,虹口,,35,31,38,22,19,110,,79,79,6,9,9,10,0.6,0.6
2025-08-01T1100,1147A,121.425,31.2261,上海市,静安监测站,,,35,36,6,19,125,,77,77,13,13,,4,0.5,0.6
2025-08-01T1100,1148A,121.703,31.1907,上海市,浦东川沙,,32,30,35,22,18,71,,65,65,19,11,9,10,0.6,0.6
2025-08-01T1100,1149A,121.533,31.2284,上海市,浦东新区监测站,,35,27,34,24,19,110,,78,78,6,9,8,7,0.4,0.5
2025-08-01T1100,1150A,121.577,31.2071,上海市,浦东张江,,38,34,39,26,18,112,,83,83,7,9,5,5,0.7,0.7
2025-08-01T1100,3265A,121.4316,31.3322,上海市,宝山庙行,,32,28,36,20,18,100,,68,68,8,10,7,7,0.5,0.4
2025-08-01T1100,3266A,121.8791,31.4662,上海市,崇明上实东滩,,31,30,28,19,10,98,,57,57,7,12,3,3,0.8,0.8
2025-08-01T1100,3268A,121.3162,31.2838,上海市,嘉定南翔,,38,36,33,26,20,119,,74,74,10,12,7,7,0.4,0.4
2025-08-01T1100,3269A,121.3359,30.7456,上海市,金山新城,,40,39,42,25,19,128,,89,89,8,8,4,3,0.9,0.7
2025-08-01T1100,3270A,121.4996,31.0739,上海市,闵行浦江,,37,27,39,21,21,116,,71,71,4,9,4,4,1.0,1
2025-08-01T1100,3271A,121.2886,31.1663,上海市,青浦徐泾,,50,50,32,30,21,110,,76,76,21,13,6,6,0.6,0.6
2025-08-01T1100,3272A,121.2186,31.0378,上海市,松江图书馆,,40,26,27,22,18,128,,82,82,10,14,6,7,0.7,0.6
2025-08-01T1100,3273A,121.3902,31.2059,上海市,长宁仙霞,,36,35,35,24,17,113,,71,71,17,14,7,7,0.7,0.6
2025-08-01T1100,3274A,121.7965,31.0507,上海市,浦东惠南,,31,26,37,20,17,98,,77,77,6,7,9,9,0.6,0.8
2025-08-01T1100,3544A,121.4891,30.925,上海市,奉贤南桥新城,,37,31,38,24,20,117,,88,88,9,11,3,3,0.7,0.6
2025-08-01T1100,4183A,121.4174,31.16637,上海市,冠生园路458号,,35,24,34,24,19,110,,62,62,10,12,3,3,0.8,0.8
2025-08-01T1100,4205A,121.5419,31.2683,上海市,宁武路151号,,30,28,39,18,19,93,,69,69,15,15,7,7,0.6,0.5
2025-08-01T1100,2381A,118.005,28.4572,上饶市,百草园,,,,,,,,,,,,,,,,
2025-08-01T1100,2382A,117.9756,28.4436,上饶市,市监测站,,43,43,32,23,19,116,,44,44,6,9,9,15,0.4,0.4
2025-08-01T1100,2383A,117.9519,28.4628,上饶市,凤凰光学,,41,41,35,23,21,118,,56,56,7,12,8,12,0.9,0.9
2025-08-01T1100,3685A,117.897,28.4315,上饶市,双创科技城,,42,33,29,29,17,111,,59,59,12,20,5,9,0.5,0.5
2025-08-01T1100,4211A,118.1904,28.4448,上饶市,裕丰大道,,31,27,19,14,14,98,,51,51,4,9,6,11,0.6,0.6
2025-08-01T1100,1669A,113.5824,24.7733,韶关市,市八中,,48,48,30,26,15,58,,28,28,12,14,13,17,0.7,0.7
2025-08-01T1100,1671A,113.5917,24.7972,韶关市,园林处,,36,33,23,25,17,52,,25,25,9,9,15,14,0.4,0.5
2025-08-01T1100,1673A,113.5971,24.6863,韶关市,曲江监测站,,26,25,28,18,17,72,,26,26,11,15,6,7,0.5,0.6
2025-08-01T1100,2809A,113.6668,24.7756,韶关市,大学路288号,,,47,35,22,20,72,,21,21,10,11,12,10,,0.9
