timepoint,stationcode,longitude,latitude,area,positionname,primarypollutant,aqi,pm10,pm10_24h,pm2_5,pm2_5_24h,o3,o3_24h,o3_8h,o3_8h_24h,no2,no2_24h,so2,so2_24h,co,co_24h
2025-08-01T0000,2566A,102.1879,31.914,阿坝藏族羌族自治州,州农科所,,17,17,14,10,10,39,,84,64,9,5,13,13,0.9,1
2025-08-01T0000,2568A,102.2502,31.8896,阿坝藏族羌族自治州,马师校,,26,,14,18,15,26,,89,59,19,10,7,7,0.6,0.6
2025-08-01T0000,3994A,102.2165,31.9024,阿坝藏族羌族自治州,马尔康中学西区,,27,27,14,9,12,47,,105,81,8,4,7,7,0.7,0.7
2025-08-01T0000,2695A,80.292,41.1694,阿克苏地区,电视台,颗粒物(PM10),52,53,34,21,15,48,,110,94,28,10,3,3,0.9,0.7
2025-08-01T0000,2696A,80.2613,41.1551,阿克苏地区,艺术中心,颗粒物(PM10),60,69,32,24,17,58,,119,101,26,6,3,3,0.6,0.5
2025-08-01T0000,2204A,105.6467,38.8363,阿拉善盟,西城区西花园,,26,21,39,6,15,81,,139,119,22,10,9,9,0.6,0.5
2025-08-01T0000,2205A,105.6985,38.8411,阿拉善盟,蒙二幼,,29,18,65,12,23,92,,121,104,2,8,9,9,0.5,0.5
2025-08-01T0000,2206A,105.724,38.8516,阿拉善盟,环保局新楼,,22,22,51,12,22,67,,117,96,10,6,8,9,0.6,0.5
2025-08-01T0000,2708A,88.1264,47.8517,阿勒泰地区,市站,颗粒物(PM10),55,59,36,13,9,57,,113,92,22,18,2,2,0.4,0.5
2025-08-01T0000,2630A,80.1161,32.5,阿里地区,阿里监测站,,25,8,3,3,2,78,,87,72,6,5,10,6,0.1,0.1
2025-08-01T0000,3192A,80.0903,32.5028,阿里地区,阿里藏医院,,27,6,4,3,1,85,,90,80,1,2,7,7,0.1,0.1
2025-08-01T0000,2642A,109.0318,32.6537,安康市,香溪洞,,39,21,22,14,11,124,,128,124,4,4,7,7,0.4,0.4
2025-08-01T0000,2644A,109.0072,32.6975,安康市,汉滨区检察院,,35,35,25,11,13,73,,127,111,13,7,5,7,0.6,0.5
2025-08-01T0000,4054A,109.0325,32.6913,安康市,市邮政管理局,,30,25,26,15,14,95,,123,108,9,7,5,4,0.5,0.5
2025-08-01T0000,2291A,117.0809,30.5177,安庆市,环科院,,18,18,17,8,8,15,,40,28,22,11,4,4,0.4,0.4
2025-08-01T0000,2292A,117.0331,30.5119,安庆市,马山宾馆,,26,,17,18,13,20,,40,26,16,9,4,4,0.2,0.2
2025-08-01T0000,2294A,116.9896,30.6145,安庆市,安庆大学,,20,18,15,14,12,14,,35,26,25,11,5,4,0.2,0.3
2025-08-01T0000,3173A,117.0598,30.5351,安庆市,市人大,,23,,15,16,11,25,,42,32,18,12,4,4,0.3,0.3
2025-08-01T0000,3122A,105.9606,26.2611,安顺市,伍家关,,15,15,16,10,9,32,,113,80,20,10,3,3,0.7,0.5
2025-08-01T0000,3123A,105.9408,26.2431,安顺市,凤凰山,,42,29,24,29,18,31,,109,83,34,12,3,5,0.5,0.4
2025-08-01T0000,3124A,105.9439,26.2564,安顺市,金钟山,,23,18,20,16,16,68,,111,93,8,6,5,6,0.6,0.5
2025-08-01T0000,3125A,105.8983,26.2481,安顺市,娄家坡,,25,12,20,12,18,78,,107,92,8,7,7,9,0.5,0.4
2025-08-01T0000,1818A,114.4839,36.0621,安阳市,棉研所,,,,,,,,,,,,,,,,
2025-08-01T0000,1819A,114.3551,36.1017,安阳市,红庙街,,39,39,30,12,15,100,,129,116,15,9,4,4,0.4,0.4
2025-08-01T0000,1820A,114.361,36.0681,安阳市,银杏小区,,34,33,32,11,15,106,,132,122,14,8,4,4,0.4,0.4
2025-08-01T0000,3141A,114.3922,36.0878,安阳市,信访局,,35,35,28,8,12,104,,135,124,14,8,5,5,0.5,0.5
2025-08-01T0000,3669A,114.4705,36.0637,安阳市,左辅环卫站,,42,42,35,11,19,97,,127,112,14,10,6,6,0.3,0.3
2025-08-01T0000,3703A,114.2917,36.0949,安阳市,安钢职工学校,,40,40,35,11,19,99,,131,116,15,7,5,4,0.3,0.4
2025-08-01T0000,1748A,123.044,41.1196,鞍山市,深沟寺,,50,49,34,35,22,57,,118,81,13,14,6,7,2.0,1.5
2025-08-01T0000,1749A,123.011,41.0931,鞍山市,太阳城,,48,48,32,33,21,63,,125,86,15,16,5,8,1.9,1.5
2025-08-01T0000,1750A,123.0485,41.1442,鞍山市,太平,颗粒物(PM10),60,70,57,34,29,76,,151,110,15,22,6,9,2.0,1.5
2025-08-01T0000,1751A,122.9642,41.0971,鞍山市,铁西三道街,颗粒物(PM10),60,70,45,36,25,52,,139,102,45,26,6,8,1.6,1.3
2025-08-01T0000,1753A,123.022,41.0821,鞍山市,明达新区,细颗粒物(PM2.5),55,54,32,39,21,68,,133,93,15,13,8,10,1.9,1.3
2025-08-01T0000,1754A,123.1289,41.0228,鞍山市,千山,,,,,,,,,,,,,,,,
2025-08-01T0000,4201A,122.9446,41.0826,鞍山市,兴盛南路290号,颗粒物(PM10),60,70,52,31,23,50,,144,87,52,34,6,7,1.4,1.1
2025-08-01T0000,2195A,107.4212,40.761,巴彦淖尔市,附二中,,33,,23,18,15,105,,142,130,5,6,6,6,0.6,0.6
2025-08-01T0000,2196A,107.37,40.7372,巴彦淖尔市,市环保大楼,,30,30,33,12,17,78,,135,116,10,8,6,6,0.5,0.5
2025-08-01T0000,1956A,86.1472,41.7538,巴音郭楞蒙古自治州,孔雀公园,,30,30,58,21,23,84,,85,84,15,10,3,3,0.4,0.3
2025-08-01T0000,1957A,86.1972,41.7166,巴音郭楞蒙古自治州,棉纺厂,,48,48,103,17,21,61,,84,74,26,10,4,4,0.2,0.2
2025-08-01T0000,1958A,86.2357,41.7173,巴音郭楞蒙古自治州,经济开发区,,44,44,47,19,15,98,,97,94,9,5,3,3,0.3,0.3
2025-08-01T0000,2914A,106.7677,31.8794,巴中市,苏山坪,,36,21,27,17,19,113,,118,115,4,7,2,3,0.6,0.6
2025-08-01T0000,3181A,106.7768,31.8526,巴中市,市五中,,30,30,28,20,20,65,,123,99,10,12,9,10,0.6,0.6
2025-08-01T0000,3183A,106.7418,31.8654,巴中市,圣泉水务公司,,33,33,33,20,17,69,,136,113,14,8,7,7,0.7,0.7
2025-08-01T0000,3616A,106.7616,31.8344,巴中市,市中心医院,,40,40,32,26,17,50,,125,100,20,14,9,9,0.6,0.5
2025-08-01T0000,2235A,122.7911,45.6077,白城市,洮北区环保局,,22,13,11,12,8,69,,81,70,3,6,3,5,0.5,0.4
2025-08-01T0000,2236A,122.8738,45.5725,白城市,市环保局,,19,12,10,7,6,60,,74,64,6,5,3,4,0.4,0.3
2025-08-01T0000,2231A,126.4219,41.9171,白山市,喜丰,颗粒物(PM10),55,59,46,17,15,3,,79,31,22,15,4,6,0.6,0.7
2025-08-01T0000,2232A,126.4077,41.9419,白山市,环保局,,23,23,26,7,10,17,,86,44,10,9,8,7,0.6,0.9
2025-08-01T0000,2647A,104.1724,36.5446,白银市,第三小学,,49,49,109,31,42,96,,114,107,4,5,6,9,0.5,0.7
2025-08-01T0000,2648A,104.1465,36.5482,白银市,动力公司,,47,47,100,29,43,86,,105,97,8,7,5,8,0.4,0.4
2025-08-01T0000,2512A,106.6103,23.9011,百色市,市监测站,,,,24,11,11,48,,101,80,7,9,4,7,0.6,0.6
2025-08-01T0000,2513A,106.6538,23.8859,百色市,市中心血站,,15,11,34,9,18,45,,104,76,25,19,2,9,0.6,0.6
2025-08-01T0000,3406A,106.6085,23.8798,百色市,祈福高中,,17,,33,9,16,54,,92,73,10,15,4,6,0.5,0.6
2025-08-01T0000,2270A,117.396,32.939,蚌埠市,工人疗养院,,21,12,17,3,6,66,,65,63,2,4,4,4,0.3,0.3
2025-08-01T0000,2271A,117.3605,32.9427,蚌埠市,百货大楼,,20,14,14,6,7,64,,60,59,2,6,6,6,0.3,0.3
2025-08-01T0000,2273A,117.4185,32.8911,蚌埠市,蚌埠学院,,20,7,11,3,8,64,,64,62,4,4,5,6,0.3,0.3
2025-08-01T0000,2274A,117.3533,32.9673,蚌埠市,淮上区政府,,20,9,14,3,9,63,,61,60,5,7,5,5,0.4,0.4
2025-08-01T0000,2275A,117.3145,32.8977,蚌埠市,高新区,,20,6,14,3,6,61,,58,57,4,10,6,6,0.5,0.5
2025-08-01T0000,3715A,117.3092,32.9314,蚌埠市,蚌埠田家炳中学,,17,13,19,3,9,54,,58,56,4,8,5,6,0.2,0.2
2025-08-01T0000,1585A,109.8756,40.6532,包头市,市环境监测站,,30,30,23,10,16,61,,152,108,33,23,4,10,0.5,0.6
2025-08-01T0000,1587A,109.9991,40.5842,包头市,包头八中,,34,34,31,15,16,36,,132,104,61,23,8,10,0.6,0.6
2025-08-01T0000,1588A,109.8538,40.6821,包头市,青山宾馆,,36,31,20,25,15,23,,151,96,67,30,3,8,0.7,0.7
2025-08-01T0000,1589A,109.8642,40.6288,包头市,惠龙物流,,26,26,24,13,14,51,,143,107,37,18,6,9,0.6,0.6
2025-08-01T0000,1590A,110.0377,40.5546,包头市,东河鸿龙湾,,29,,17,20,11,50,,138,101,48,18,6,4,0.7,0.6
2025-08-01T0000,3283A,109.9154,40.5685,包头市,滨河大厦,,24,24,17,15,12,59,,145,109,34,18,5,5,0.5,0.5
2025-08-01T0000,3419A,109.9447,40.6261,包头市,包头市委党校,,35,35,22,11,12,47,,145,105,46,25,4,10,0.5,0.6
2025-08-01T0000,3683A,109.8331,40.6576,包头市,昆区政府,,29,26,26,20,18,55,,153,121,38,20,6,11,0.7,0.7
2025-08-01T0000,1930A,107.185,34.3063,宝鸡市,庙沟村,,39,25,33,15,17,122,,181,159,8,11,4,3,0.4,0.4
2025-08-01T0000,1931A,107.0708,34.3017,宝鸡市,竹园沟,,29,29,33,20,34,88,,185,152,16,12,8,9,0.4,0.5
2025-08-01T0000,1932A,107.1906,34.3672,宝鸡市,三陆医院,,35,34,43,16,24,111,,186,167,19,16,8,8,0.6,0.6
2025-08-01T0000,1933A,107.1431,34.3547,宝鸡市,监测站,,33,,42,23,23,93,,184,158,18,13,8,9,0.5,0.5
2025-08-01T0000,1934A,107.1186,34.3739,宝鸡市,技工学校,,42,42,41,29,23,120,,186,168,16,12,8,7,0.6,0.6
2025-08-01T0000,1936A,107.2058,34.3497,宝鸡市,文理学院,,45,45,40,18,20,97,,194,173,24,13,7,8,0.5,0.5
2025-08-01T0000,1937A,107.2386,34.3622,宝鸡市,三迪小学,,38,38,40,19,23,111,,187,166,26,16,8,9,0.6,0.6
2025-08-01T0000,4308A,107.3898,34.3601,宝鸡市,陈仓区北开路21号,,39,39,36,21,19,103,,194,161,23,12,8,8,0.5,0.4
2025-08-01T0000,1051A,115.493,38.8632,保定市,游泳馆,,,34,32,,12,99,,124,107,,11,3,3,0.2,0.2
2025-08-01T0000,1052A,115.5213,38.8959,保定市,华电二区,,32,32,30,15,11,58,,119,88,18,15,3,3,0.3,0.3
2025-08-01T0000,1053A,115.4713,38.9108,保定市,接待中心,,32,32,30,7,9,73,,116,88,13,11,1,2,0.4,0.3
2025-08-01T0000,1054A,115.4612,38.8416,保定市,地表水厂,,49,49,39,9,10,111,,122,111,7,10,4,4,0.3,0.3
2025-08-01T0000,3581A,115.31981,38.95208,保定市,满城区生态环境分局,,48,48,37,14,9,52,,113,72,27,22,3,3,0.2,0.2
2025-08-01T0000,3582A,115.47694,38.76408,保定市,清苑区第二中学,颗粒物(PM10),55,59,43,29,23,96,,131,109,12,9,5,5,0.4,0.4
2025-08-01T0000,3583A,115.62909,39.02311,保定市,徐水物探局,,43,43,33,3,4,44,,109,85,24,14,4,4,0.4,0.4
2025-08-01T0000,4004A,115.4202,38.8656,保定市,双鹰农机,,27,27,36,10,12,75,,121,97,16,17,3,3,0.2,0.2
2025-08-01T0000,4034A,115.5150,38.8590,保定市,植保所站,,38,38,31,9,11,96,,138,113,15,14,3,3,0.3,0.3
2025-08-01T0000,2594A,99.1678,25.1081,保山市,市环境监测站,,22,15,11,15,13,24,,43,33,9,6,5,5,0.3,0.3
2025-08-01T0000,2595A,99.1711,25.1328,保山市,市环保局,,12,12,11,6,9,18,,43,31,5,4,4,4,0.4,0.4
2025-08-01T0000,1866A,109.2262,21.588,北海市,牛尾岭水库,,28,,15,19,9,51,,95,78,7,7,2,2,0.5,0.5
2025-08-01T0000,1867A,109.1436,21.4086,北海市,海滩公园,颗粒物(PM10),52,54,43,3,6,70,,108,86,3,3,2,2,0.5,0.5
2025-08-01T0000,1868A,109.0981,21.4661,北海市,新市环保局,,20,11,20,9,10,61,,109,87,4,6,2,3,0.4,0.4
2025-08-01T0000,1869A,109.1778,21.5233,北海市,北海工业园,,26,26,26,7,11,51,,109,91,6,7,3,4,0.5,0.5
2025-08-01T0000,3400A,109.1911,21.4415,北海市,龙潭自来水厂,,20,13,21,3,9,64,,103,83,2,4,4,5,0.5,0.5
2025-08-01T0000,1001A,116.3621,39.8784,北京市,万寿西宫,颗粒物(PM10),55,59,40,33,18,77,,132,112,38,37,3,3,0.7,0.6
2025-08-01T0000,1002A,116.2202,40.2915,北京市,定陵,,25,25,24,17,15,27,,95,55,1,3,11,11,0.5,0.4
2025-08-01T0000,1003A,116.4174,39.9289,北京市,东四,颗粒物(PM10),52,54,38,28,18,88,,143,120,31,32,4,4,0.7,0.6
2025-08-01T0000,1004A,116.4072,39.8863,北京市,天坛,,38,38,32,23,16,18,,119,71,16,22,1,2,0.7,0.6
2025-08-01T0000,1005A,116.462,39.9365,北京市,农展馆,,50,50,39,26,19,58,,129,93,33,30,3,4,0.6,0.5
2025-08-01T0000,1006A,116.3392,39.9295,北京市,官园,颗粒物(PM10),57,64,38,35,20,52,,128,99,37,33,3,5,0.4,0.3
2025-08-01T0000,1007A,116.2878,39.9611,北京市,海淀万柳,,49,49,34,26,15,50,,88,70,31,35,3,3,0.6,0.5
2025-08-01T0000,1008A,116.6636,40.135,北京市,顺义新城,,,,,,,,,,,,,,,,
2025-08-01T0000,1009A,116.6275,40.3275,北京市,怀柔镇,,31,31,22,17,13,70,,104,68,10,12,3,2,0.4,0.3
2025-08-01T0000,1010A,116.2296,40.217,北京市,昌平镇,,30,30,27,18,16,59,,97,68,10,18,3,4,0.6,0.5
2025-08-01T0000,1011A,116.3966,39.9821,北京市,奥体中心,,42,42,35,24,16,55,,116,98,39,29,4,4,0.6,0.5
2025-08-01T0000,3281A,115.9718,40.4529,北京市,延庆夏都,,35,35,29,22,13,59,,112,88,8,8,2,3,0.7,0.6
2025-08-01T0000,3418A,116.8336,40.4095,北京市,密云新城,,36,36,25,24,14,27,,82,44,5,5,1,1,0.5,0.4
2025-08-01T0000,3671A,116.088,39.9726,北京市,门头沟三家店,,35,35,31,17,13,35,,76,42,13,16,2,3,0.5,0.4
2025-08-01T0000,3672A,116.1541,39.8204,北京市,丰台云岗,,36,36,33,13,13,53,,79,52,22,23,3,3,0.6,0.5
2025-08-01T0000,3673A,116.6804,39.9081,北京市,通州东关,颗粒物(PM10),59,67,48,31,23,32,,132,77,60,34,6,7,0.7,0.6
2025-08-01T0000,3674A,115.9577,39.7603,北京市,房山燕山,,31,31,29,19,18,55,,89,70,11,13,6,5,0.5,0.4
2025-08-01T0000,3675A,116.4672,39.7733,北京市,大兴旧宫,,47,47,35,26,19,27,,128,84,23,21,2,2,0.8,0.7
2025-08-01T0000,3694A,115.986,40.4563,北京市,延庆石河营,,35,34,25,24,16,46,,101,76,7,7,2,3,0.5,0.4
2025-08-01T0000,3695A,116.6151,40.3053,北京市,怀柔新城,,28,28,25,17,14,64,,92,64,1,3,2,2,0.7,0.6
2025-08-01T0000,3696A,116.2545,39.8768,北京市,丰台小屯,,48,48,34,25,16,20,,93,72,37,27,2,2,0.7,0.6
2025-08-01T0000,3697A,116.84,40.3844,北京市,密云镇,,39,39,25,21,13,45,,99,65,17,15,4,4,0.7,0.6
2025-08-01T0000,4182A,116.1942,39.9158,北京市,八角北路9号,,44,44,46,20,15,45,,112,76,20,28,3,4,0.6,0.5
2025-08-01T0000,4194A,117.0790,40.1518,北京市,洳河巡河路,,38,38,34,21,17,63,,123,84,7,8,2,4,0.6,0.5
2025-08-01T0000,1761A,123.8275,41.3064,本溪市,大峪,,27,27,30,8,13,20,,135,66,26,15,4,5,0.5,0.7
2025-08-01T0000,1762A,123.7567,41.3325,本溪市,溪湖,,30,30,36,15,18,22,,116,65,11,15,4,7,0.9,1.4
2025-08-01T0000,1763A,123.7169,41.3094,本溪市,彩屯,,32,32,37,17,20,9,,108,53,14,23,8,11,1.2,1.6
2025-08-01T0000,1764A,123.7669,41.2864,本溪市,东明,,36,36,39,15,17,24,,124,71,23,21,4,4,0.8,0.9
2025-08-01T0000,1765A,123.7992,41.2664,本溪市,新立屯,,31,31,30,10,15,11,,123,55,32,24,3,4,0.9,1.1
2025-08-01T0000,1766A,123.8142,41.3472,本溪市,威宁,,23,23,32,14,18,13,,104,40,15,13,7,8,0.7,0.8
2025-08-01T0000,2587A,105.2864,27.3125,毕节市,八中,,42,40,28,29,22,29,,99,72,21,14,4,5,0.4,0.4
2025-08-01T0000,2588A,105.31,27.2944,毕节市,师专,,44,44,35,27,20,40,,104,81,16,15,4,6,0.5,0.5
2025-08-01T0000,4263A,105.3688,27.3598,毕节市,工业大道,,43,42,32,30,22,38,,110,72,22,17,6,6,0.7,0.7
2025-08-01T0000,1629A,118.0018,37.3617,滨州市,第二水厂,,45,,25,31,19,58,,116,83,9,8,3,3,0.4,0.5
2025-08-01T0000,1630A,117.9776,37.393,滨州市,北中新校,,24,24,26,12,16,58,,119,85,13,12,2,3,0.3,0.3
2025-08-01T0000,3514A,117.9378,37.3956,滨州市,中海酒店,,22,22,24,14,20,62,,124,89,4,6,7,8,0.3,0.4
2025-08-01T0000,3515A,117.9378,37.3553,滨州市,开发区一中,,25,17,23,17,16,69,,125,94,10,9,5,4,0.4,0.4
2025-08-01T0000,3516A,118.0917,37.694,滨州市,金海六路,,18,17,18,12,10,56,,125,99,9,9,10,9,0.2,0.2
2025-08-01T0000,4028A,117.9956,37.3753,滨州市,滨州市西街道办事处,,21,14,18,9,16,66,,125,92,6,7,2,2,0.1,0.2
2025-08-01T0000,2311A,115.8072,33.8399,亳州市,污水处理厂,,17,,18,8,14,52,,104,79,8,7,2,4,0.4,0.4
2025-08-01T0000,2312A,115.7789,33.8518,亳州市,三国揽胜宫,,20,14,25,3,11,61,,107,86,6,7,4,5,0.5,0.5
2025-08-01T0000,3332A,115.7633,33.8034,亳州市,亳州学院,,18,,15,6,14,56,,101,80,7,7,2,3,0.4,0.5
2025-08-01T0000,2693A,82.0485,44.8556,博尔塔拉蒙古自治州,市党校,颗粒物(PM10),131,211,29,51,21,78,,115,101,14,10,3,4,0.3,0.3
2025-08-01T0000,2694A,82.0806,44.8969,博尔塔拉蒙古自治州,市环保局,颗粒物(PM10),113,175,33,65,13,77,,108,97,5,5,2,6,0.4,0.4
2025-08-01T0000,1071A,116.8842,38.2991,沧州市,沧县城建局,,31,31,32,14,12,66,,142,107,31,17,2,2,0.3,0.3
2025-08-01T0000,1072A,116.8584,38.3254,沧州市,电视转播站,,25,25,29,17,13,68,,132,105,28,20,2,2,0.3,0.3
2025-08-01T0000,1073A,116.8709,38.3228,沧州市,市环保局,,39,39,34,14,14,67,,139,103,22,14,2,2,0.3,0.3
2025-08-01T0000,3324A,116.8136,38.3004,沧州市,河北水利电力学院,,31,17,16,3,12,98,,150,124,10,9,2,3,0.5,0.3
2025-08-01T0000,2622A,97.1806,31.1273,昌都市,昌都监测站,,31,,17,10,7,98,,99,98,2,5,4,4,0.1,0.2
2025-08-01T0000,3719A,97.1714,31.1406,昌都市,昌都会议中心,,35,13,17,8,8,110,,99,98,4,9,5,5,0.2,0.1
2025-08-01T0000,2690A,88.1236,43.8886,昌吉回族自治州,天山天池,,16,16,15,8,6,43,,104,78,6,7,4,4,0.5,0.6
2025-08-01T0000,2692A,87.2717,44.0297,昌吉回族自治州,新区政务中心,,27,24,18,12,9,85,,145,123,25,13,7,7,0.4,0.2
2025-08-01T0000,3613A,87.3095,44.0142,昌吉回族自治州,亚心广场,,,,22,,7,84,,146,129,26,11,12,7,0.4,0.2
2025-08-01T0000,1120A,125.2863,43.9027,长春市,客车厂,,31,31,20,17,10,38,,97,67,34,19,3,4,0.4,0.3
2025-08-01T0000,1121A,125.2841,43.8463,长春市,邮电学院,,22,22,17,3,6,29,,96,54,21,13,4,4,0.4,0.3
2025-08-01T0000,1122A,125.3716,43.8772,长春市,劳动公园,,32,32,24,17,9,37,,96,61,29,18,6,6,0.7,0.5
2025-08-01T0000,1123A,125.3297,43.8805,长春市,园林处,,17,17,18,9,5,40,,93,60,25,14,4,4,0.5,0.4
2025-08-01T0000,1124A,125.4605,43.79,长春市,净月潭,,17,17,14,6,4,41,,78,48,4,4,4,4,0.2,0.2
2025-08-01T0000,1125A,125.7194,43.515,长春市,甩湾子,,16,16,14,7,7,10,,74,38,21,11,4,3,0.5,0.5
2025-08-01T0000,1126A,125.3863,43.8447,长春市,经开区环卫处,,22,22,17,8,5,26,,86,49,28,19,3,2,0.3,0.3
2025-08-01T0000,1127A,125.245,43.7783,长春市,高新区管委会,,18,18,17,9,6,15,,87,44,27,13,3,3,0.4,0.4
2025-08-01T0000,1128A,125.1761,43.8325,长春市,岱山公园,颗粒物(PM10),67,83,31,8,5,8,,90,32,55,27,3,3,0.4,0.3
2025-08-01T0000,4281A,125.3346,43.9164,长春市,北亚泰大街1068号,,35,35,26,17,10,28,,93,58,40,21,6,6,0.5,0.4
2025-08-01T0000,1335A,113.0833,28.2325,长沙市,经开区环保局,,32,32,33,17,22,92,,143,126,16,15,5,4,0.3,0.4
2025-08-01T0000,1336A,112.8872,28.2189,长沙市,高开区环保局,,38,38,34,14,17,95,,133,120,13,9,4,4,0.3,0.3
2025-08-01T0000,1337A,113.0792,28.2053,长沙市,马坡岭,,32,32,34,18,19,94,,152,129,15,13,5,4,0.3,0.3
2025-08-01T0000,1338A,112.9394,28.19,长沙市,湖南师范大学,,30,30,32,18,18,96,,132,116,6,4,3,2,0.5,0.5
2025-08-01T0000,1339A,113.0178,28.1322,长沙市,雨花区环保局,,31,29,31,15,14,98,,142,130,10,8,5,5,0.5,0.5
2025-08-01T0000,1340A,112.9792,28.2597,长沙市,伍家岭,,,35,32,22,13,93,,132,118,,16,1,1,0.3,0.3
2025-08-01T0000,1341A,113.0014,28.1944,长沙市,火车新站,,30,30,33,12,14,94,,131,117,10,10,6,5,0.5,0.6
2025-08-01T0000,1342A,112.9844,28.1178,长沙市,天心区环保局,,32,32,31,19,17,98,,142,126,16,12,3,2,0.3,0.3
2025-08-01T0000,1343A,112.8908,28.1308,长沙市,湖南中医药大学,,40,40,34,23,19,49,,129,95,30,12,3,2,0.5,0.5
2025-08-01T0000,1344A,112.9581,28.3611,长沙市,沙坪,,39,39,33,23,19,81,,132,116,11,12,5,5,0.5,0.5
2025-08-01T0000,1727A,113.1147,36.1547,长治市,清华站,,41,29,30,7,16,129,,152,143,7,9,6,7,0.5,0.7
2025-08-01T0000,1730A,113.0886,36.2125,长治市,审计局,,41,24,29,17,18,129,,160,149,7,9,5,5,0.7,0.7
2025-08-01T0000,1731A,113.0844,36.1856,长治市,长治八中,,43,,35,26,25,135,,160,150,2,7,7,8,0.5,0.8
2025-08-01T0000,2845A,113.1569,36.1911,长治市,德盛苑,,41,22,31,14,18,131,,150,144,6,8,5,5,0.6,0.8
2025-08-01T0000,3568A,113.06,36.0464,长治市,向阳小学,颗粒物(PM10),56,62,62,26,23,126,,153,140,3,5,5,7,0.7,0.8
2025-08-01T0000,3569A,112.8792,36.3144,长治市,屯留一中,,40,40,49,21,30,123,,165,147,8,10,8,10,0.2,0.3
2025-08-01T0000,4189A,113.1131,36.19948,长治市,英华南巷50号,,39,28,34,19,19,124,,150,139,5,7,6,6,0.8,1
2025-08-01T0000,4190A,113.2367,36.3344,长治市,学府街1号,,35,28,35,15,21,110,,157,140,14,12,4,4,0.5,0.7
2025-08-01T0000,1854A,111.6975,28.9703,常德市,市二中,,43,34,25,30,17,48,,129,106,27,8,3,4,0.6,0.5
2025-08-01T0000,1857A,111.7158,29.1456,常德市,白鹤山,,,,,,,,,,,,,,,,
2025-08-01T0000,3138A,111.7153,29.0289,常德市,武陵区永安,,49,35,27,34,17,111,,124,119,3,6,3,4,0.4,0.3
2025-08-01T0000,3139A,111.6892,28.9881,常德市,鼎城区玉霞,,46,40,26,32,17,58,,125,109,18,7,6,5,0.5,0.4
2025-08-01T0000,3140A,111.6625,29.0531,常德市,武陵区长庚,,40,38,23,28,13,85,,131,124,11,6,3,4,0.4,0.4
2025-08-01T0000,1196A,119.9633,31.762,常州市,市监测站,,21,21,13,14,7,32,,47,41,19,16,8,8,0.5,0.6
2025-08-01T0000,1200A,119.9468,31.7069,常州市,武进监测站,,18,,7,12,4,37,,55,51,12,10,11,11,0.8,0.9
2025-08-01T0000,1201A,119.9255,31.9087,常州市,安家,,28,28,22,16,6,36,,53,50,23,12,7,7,1.0,0.8
2025-08-01T0000,3002A,119.9805,31.8174,常州市,行政中心,,15,12,10,10,5,32,,49,43,22,17,11,11,1.1,0.5
2025-08-01T0000,3003A,120.0522,31.7748,常州市,经开区,,,23,16,9,6,,,53,,21,18,2,2,0.3,0.3
2025-08-01T0000,3010A,119.9025,31.7964,常州市,钟楼,,14,14,8,7,3,40,,56,50,16,12,6,6,0.8,0.8
2025-08-01T0000,3429A,119.8598,31.7066,常州市,武进经发区,,23,23,11,13,6,28,,46,42,16,9,6,5,0.8,0.7
2025-08-01T0000,3430A,119.5826,31.7245,常州市,金坛城区,,13,8,5,6,3,40,,46,45,12,11,7,6,0.5,0.4
2025-08-01T0000,2220A,120.4318,41.5881,朝阳市,西梁,颗粒物(PM10),59,68,33,16,13,2,,93,72,38,18,7,7,0.4,0.4
2025-08-01T0000,2221A,120.4521,41.5646,朝阳市,河畔小区,,24,24,23,11,8,55,,97,91,24,15,7,7,0.6,0.5
2025-08-01T0000,2222A,120.4176,41.5648,朝阳市,八里堡,,47,47,32,16,12,22,,104,80,48,18,3,4,0.6,0.6
2025-08-01T0000,2223A,120.3806,41.5969,朝阳市,农业园区,颗粒物(PM10),55,59,36,26,19,11,,96,43,34,21,6,8,0.5,0.6
2025-08-01T0000,1705A,116.6367,23.6719,潮州市,西园路,,23,,21,16,12,46,,108,67,5,9,2,3,0.2,0.4
2025-08-01T0000,3026A,116.6183,23.6608,潮州市,市政府,,20,20,38,11,15,61,,115,79,6,21,5,14,0.4,0.5
2025-08-01T0000,4036A,116.6461,23.6761,潮州市,金山,,16,,29,11,16,44,,123,76,5,8,4,5,0.6,0.6
2025-08-01T0000,2472A,113.0073,25.9061,郴州市,马头岭,,22,22,28,10,11,29,,88,52,12,10,8,7,0.5,0.5
2025-08-01T0000,2473A,113.0116,25.8226,郴州市,市职中,,,30,24,20,16,,,84,,14,8,5,6,0.3,0.6
2025-08-01T0000,2475A,113.0383,25.8071,郴州市,市审计局,,26,25,23,18,17,41,,88,55,8,6,19,8,0.2,0.3
2025-08-01T0000,2476A,113.0348,25.7759,郴州市,市环保局,,25,25,28,16,19,34,,84,51,7,8,9,5,0.3,0.3
2025-08-01T0000,4252A,113.0138,25.8011,郴州市,好美居路49号,,27,27,23,17,16,34,,88,57,1,5,7,8,0.2,0.3
2025-08-01T0000,1431A,103.9728,30.7236,成都市,金泉两河,,41,35,41,15,23,129,,178,151,13,17,2,4,0.6,0.6
2025-08-01T0000,1432A,104.176,30.6872,成都市,十里店,细颗粒物(PM2.5),64,68,40,46,22,115,,174,147,21,13,5,5,0.7,0.6
2025-08-01T0000,1433A,104.079,30.5706,成都市,三瓦窑,,27,27,36,10,23,76,,164,127,36,21,3,4,0.5,0.5
2025-08-01T0000,1434A,104.1114,30.63,成都市,沙河铺,,34,23,37,11,22,106,,132,116,12,11,6,6,0.5,0.6
2025-08-01T0000,1437A,104.0786,30.6531,成都市,君平街,颗粒物(PM10),57,64,47,32,27,135,,173,153,20,15,6,6,0.6,0.5
2025-08-01T0000,1438A,103.613,31.0283,成都市,灵岩寺,,,,,,,,,,,,,,,,
2025-08-01T0000,2880A,104.0239,30.65639,成都市,大石西路,细颗粒物(PM2.5),53,40,36,37,28,101,,155,129,23,16,4,4,0.8,0.7
2025-08-01T0000,3136A,104.2725,30.5589,成都市,龙泉驿区区政府,,,,22,,14,,,146,,,12,,4,,0.6
2025-08-01T0000,3357A,104.0106,30.6931,成都市,金博路,,46,39,36,32,22,137,,156,147,14,18,5,5,0.8,0.8
2025-08-01T0000,3359A,104.0578,30.5225,成都市,华阳,,41,22,29,17,22,129,,152,130,10,10,4,4,0.5,0.6
2025-08-01T0000,3488A,104.3853,30.7453,成都市,青白江技师分院,,31,31,32,14,17,56,,152,101,34,15,5,4,0.6,0.7
2025-08-01T0000,3489A,104.0789,30.4072,成都市,科学城,,37,20,29,17,21,116,,133,124,6,7,2,3,0.4,0.5
2025-08-01T0000,4011A,103.8506,30.6947,成都市,光华大道三段,,,40,39,30,22,136,,185,150,16,20,5,8,,0.7
2025-08-01T0000,4224A,104.2433,30.5353,成都市,鲸龙路1057号,,37,21,34,15,25,117,,151,137,10,13,3,7,0.6,0.7
2025-08-01T0000,1062A,117.9531,40.9081,承德市,铁路,,38,38,29,20,11,15,,90,41,12,11,2,3,0.6,0.4
2025-08-01T0000,1063A,117.9392,40.9763,承德市,中国银行,颗粒物(PM10),54,57,32,31,14,11,,92,29,14,12,3,2,0.7,0.4
2025-08-01T0000,1064A,117.9503,40.928,承德市,开发区,,39,39,38,12,13,23,,99,60,14,12,4,5,0.8,0.5
2025-08-01T0000,1066A,117.9268,41.0026,承德市,离宫,,39,39,31,24,14,15,,68,22,7,7,3,2,0.5,0.3
2025-08-01T0000,4274A,117.7994,40.9605,承德市,滨河大街98号,,,,,,,,,,,,,,,,
2025-08-01T0000,2314A,117.47,30.6618,池州市,池州学院,,14,12,14,9,10,42,,44,44,8,9,4,5,0.3,0.4
2025-08-01T0000,3237A,117.4918,30.6617,池州市,展览馆,,14,14,15,8,8,41,,43,43,8,9,4,4,0.4,0.5
2025-08-01T0000,3333A,117.5627,30.695,池州市,第八中学,,16,13,14,9,7,51,,48,48,3,7,4,5,0.4,0.5
2025-08-01T0000,3334A,117.5038,30.6243,池州市,第十二中学,,15,14,13,8,8,48,,44,44,7,10,2,2,0.7,0.6
2025-08-01T0000,1744A,118.9233,42.2816,赤峰市,松山一中,,19,15,13,12,6,60,,78,65,14,14,7,7,0.6,0.6
2025-08-01T0000,1745A,118.9576,42.2728,赤峰市,哈达街,,18,18,20,11,8,54,,72,58,16,13,13,14,0.5,0.5
2025-08-01T0000,1746A,118.8788,42.2554,赤峰市,天义路,,25,25,13,12,10,70,,73,63,8,12,14,16,0.3,0.3
2025-08-01T0000,3058A,119.2658,42.0353,赤峰市,银河街,,35,,28,24,12,28,,77,50,15,13,9,18,0.6,0.6
2025-08-01T0000,3286A,118.9359,42.3147,赤峰市,桥北物流园区,,20,20,17,12,10,46,,65,42,17,18,9,10,0.5,0.5
2025-08-01T0000,2521A,107.3476,22.4136,崇左市,市环保局江州分局,,26,14,28,8,16,82,,126,111,4,7,6,6,0.4,0.4
2025-08-01T0000,4256A,107.3750,22.3736,崇左市,石景林东路7号,,26,,23,9,17,81,,133,114,7,8,4,4,0.5,0.5
2025-08-01T0000,2298A,118.3093,32.3153,滁州市,老年大学,,13,13,12,3,4,40,,51,50,8,8,8,8,0.3,0.4
2025-08-01T0000,2299A,118.3244,32.2786,滁州市,人大宾馆,,15,,6,10,8,39,,51,49,5,5,4,4,0.3,0.3
2025-08-01T0000,3207A,118.3118,32.3038,滁州市,市政府原办公楼,,16,,9,11,12,34,,47,46,11,5,5,5,0.3,0.3
2025-08-01T0000,3331A,118.3267,32.2634,滁州市,图书馆,,,9,8,,14,43,,55,54,11,9,10,10,0.3,0.3
2025-08-01T0000,2605A,101.5482,25.0441,楚雄彝族自治州,州环境监测站,,10,,17,7,11,31,,70,50,7,13,7,8,0.5,0.5
2025-08-01T0000,2606A,101.538,25.0492,楚雄彝族自治州,市经济开发区,,37,37,22,16,13,32,,68,47,10,15,6,7,0.6,0.6
2025-08-01T0000,2548A,107.5277,31.2827,达州市,达州职业技术学院,,35,35,32,16,10,37,,103,72,26,18,9,9,0.5,0.5
2025-08-01T0000,2549A,107.5086,31.2186,达州市,市环境监测站,,,38,29,14,11,42,,111,89,25,21,7,7,,0.3
2025-08-01T0000,2550A,107.4988,31.2132,达州市,凤凰小区,,32,29,26,22,13,44,,112,89,28,19,7,7,0.4,0.3
2025-08-01T0000,2551A,107.5082,31.1986,达州市,达县机关宾馆,,38,34,30,26,10,49,,114,84,32,23,6,5,0.4,0.3
2025-08-01T0000,2552A,107.4644,31.2124,达州市,市政中心,,43,43,33,17,10,41,,103,86,28,17,6,4,0.3,0.3
2025-08-01T0000,2614A,100.1542,25.7054,大理白族自治州,大理市环境监测站,,20,,8,14,16,30,,48,35,11,9,5,4,0.4,0.5
2025-08-01T0000,2615A,100.2171,25.5811,大理白族自治州,大理古城,,20,20,13,3,8,22,,47,33,9,9,4,4,0.7,0.7
2025-08-01T0000,1109A,121.612,38.9741,大连市,甘井子,,15,,12,8,9,47,,95,58,10,11,9,8,0.1,0.1
2025-08-01T0000,1110A,121.565,38.9511,大连市,周水子,,19,17,20,8,9,59,,80,59,4,7,7,7,0.2,0.3
2025-08-01T0000,1111A,121.5637,38.8845,大连市,星海三站,,17,16,17,3,7,52,,78,59,4,4,4,4,0.3,0.3
2025-08-01T0000,1112A,121.6302,38.9117,大连市,青泥洼桥,,13,6,11,3,8,40,,86,67,7,6,6,6,0.5,0.6
2025-08-01T0000,1113A,121.6251,38.8638,大连市,傅家庄,,18,18,20,3,10,38,,57,48,8,4,8,7,0.1,0.1
2025-08-01T0000,1114A,121.5213,38.8661,大连市,七贤岭,,17,15,17,6,8,52,,88,63,7,2,8,8,0.2,0.3
2025-08-01T0000,1115A,121.2529,38.8061,大连市,旅顺,,14,14,16,6,10,32,,86,48,14,6,3,4,0.2,0.2
2025-08-01T0000,1116A,121.7485,39.1311,大连市,金州,,17,11,14,6,6,54,,100,59,8,11,7,7,0.2,0.2
2025-08-01T0000,1117A,121.7811,39.0496,大连市,开发区,,17,16,20,8,7,52,,74,54,10,11,8,7,0.3,0.3
2025-08-01T0000,1118A,121.9762,39.0631,大连市,双D港,,11,11,17,7,10,24,,95,48,4,3,7,7,0.3,0.4
2025-08-01T0000,1789A,124.81117,46.03138,大庆市,大同区,,18,18,18,11,6,46,,72,54,11,10,7,8,0.7,0.6
2025-08-01T0000,1790A,125.129,46.533,大庆市,龙凤区,,19,19,20,8,8,39,,80,55,11,13,7,7,0.6,0.5
2025-08-01T0000,1791A,124.902,46.408,大庆市,红岗区,,19,19,22,7,8,38,,82,55,14,14,8,8,0.7,0.5
2025-08-01T0000,1792A,125.153,46.586,大庆市,萨尔图区,,20,20,28,10,8,48,,75,48,10,16,7,7,0.5,0.5
2025-08-01T0000,1793A,124.9042,46.6215,大庆市,让胡路区,,30,30,24,17,12,30,,73,49,22,12,8,7,0.5,0.3
2025-08-01T0000,3481A,125.141,46.634,大庆市,萨区政府监测点,,,,22,,2,51,,85,,11,12,,7,0.4,0.3
2025-08-01T0000,1721A,113.3819,40.1097,大同市,果树场,,45,45,31,27,15,26,,81,66,27,26,7,7,0.6,0.6
2025-08-01T0000,1723A,113.2994,40.0758,大同市,云冈宾馆,细颗粒物(PM2.5),74,79,46,54,23,22,,101,85,52,24,7,7,1.2,0.9
2025-08-01T0000,1724A,113.3444,40.0917,大同市,大同大学,,40,32,32,28,17,66,,108,93,21,17,5,6,0.6,0.6
2025-08-01T0000,1725A,113.2661,40.1269,大同市,安家小村,细颗粒物(PM2.5),65,68,55,47,20,55,,95,80,25,24,6,7,0.9,0.7
2025-08-01T0000,1726A,113.2711,40.0844,大同市,教育学院,颗粒物(PM10),63,75,42,37,21,25,,102,81,44,23,8,9,0.8,0.6
2025-08-01T0000,3282A,113.3397,40.0597,大同市,大同市卫生学校,颗粒物(PM10),67,83,38,38,20,26,,102,81,52,21,7,7,0.7,0.5
2025-08-01T0000,3565A,113.1367,40.1122,大同市,云冈站,颗粒物(PM10),60,69,64,26,27,26,,89,74,22,24,4,4,0.4,0.5
2025-08-01T0000,3566A,113.1186,40.2556,大同市,图书馆,,,82,50,24,21,,,97,,10,14,6,8,0.7,0.8
2025-08-01T0000,3567A,113.5931,40.0461,大同市,区一中,,43,31,26,30,16,56,,105,90,8,11,7,9,0.5,0.5
2025-08-01T0000,4199A,113.2798,40.0997,大同市,魏都大道141号,颗粒物(PM10),61,71,46,42,24,43,,100,81,30,24,5,6,0.9,0.8
2025-08-01T0000,2269A,124.1069,50.4097,大兴安岭地区,科技局,,23,23,19,8,10,14,,47,29,3,4,3,3,0.3,0.3
2025-08-01T0000,3663A,124.1164,50.4278,大兴安岭地区,红旗社区,,7,7,4,3,3,7,,48,29,8,4,5,4,0.3,0.3
2025-08-01T0000,1600A,124.3303,40.0625,丹东市,江湾东路,,26,26,25,18,16,49,,88,65,11,13,13,12,0.6,0.6
2025-08-01T0000,1601A,124.4256,40.1503,丹东市,临江后街,颗粒物(PM10),66,82,58,21,16,51,,86,60,11,13,6,6,0.9,0.7
2025-08-01T0000,1602A,124.3933,40.1461,丹东市,元宝山,,31,31,21,17,12,48,,75,60,15,14,3,3,0.5,0.5
2025-08-01T0000,1603A,124.3633,40.1092,丹东市,民主桥,,28,28,24,13,12,30,,83,62,23,13,4,3,0.5,0.5
2025-08-01T0000,3541A,109.5726,19.5167,儋州市,第一中学子站,,24,24,17,13,9,32,,47,41,4,4,5,5,0.4,0.4
2025-08-01T0000,3542A,109.5567,19.5187,儋州市,东坡学校子站,,26,26,15,14,9,28,,51,43,10,4,7,6,0.5,0.5
2025-08-01T0000,2616A,98.5842,24.428,德宏傣族景颇族自治州,德宏州监测站,,31,31,21,16,10,6,,33,21,12,10,8,11,0.7,0.7
2025-08-01T0000,3677A,98.5881,24.4368,德宏傣族景颇族自治州,芒市人民政府综合楼,,34,34,24,11,10,10,,34,20,6,8,7,12,0.6,0.6
2025-08-01T0000,1901A,104.4239,31.1208,德阳市,东山公园,,45,41,31,31,19,60,,155,117,42,12,2,2,1.1,0.9
2025-08-01T0000,1902A,104.3826,31.1317,德阳市,西小区,细颗粒物(PM2.5),58,54,35,41,25,82,,163,118,25,18,11,9,1.3,1
2025-08-01T0000,1904A,104.3553,31.1091,德阳市,耐火材料厂,细颗粒物(PM2.5),60,53,40,43,25,97,,167,123,17,26,3,3,0.8,0.6
2025-08-01T0000,3639A,104.4019,31.1244,德阳市,市教育局,细颗粒物(PM2.5),64,60,35,46,22,79,,150,107,19,17,1,2,1.0,0.9
2025-08-01T0000,1622A,116.3032,37.4674,德州市,儿童乐园,,31,31,25,17,12,95,,144,131,12,9,9,10,0.5,0.5
2025-08-01T0000,1624A,116.2991,37.4451,德州市,监理站,,32,17,16,17,9,101,,145,136,7,6,13,13,0.3,0.3
2025-08-01T0000,3066A,116.2721,37.4379,德州市,九衢泉纯净水厂,,32,31,20,22,14,94,,139,130,14,8,17,17,0.6,0.6
2025-08-01T0000,3371A,116.3728,37.4403,德州市,开发区人民医院,,28,24,20,17,11,87,,135,124,15,12,9,10,0.8,0.8
2025-08-01T0000,3511A,116.5652,37.3319,德州市,陵城艺术中心,,36,36,25,19,12,72,,141,121,14,8,4,6,0.5,0.5
2025-08-01T0000,4292A,116.3525,37.4209,德州市,新河东路,,33,31,21,17,13,105,,144,138,12,9,10,11,0.8,0.7
2025-08-01T0000,2621A,99.7056,27.8317,迪庆藏族自治州,迪庆州站,,31,31,19,15,13,38,,82,60,10,9,6,7,0.6,0.5
2025-08-01T0000,3180A,99.7136,27.8094,迪庆藏族自治州,质量技术监督局,,20,20,19,3,8,47,,82,64,15,13,7,7,0.5,0.5
2025-08-01T0000,4257A,104.6092,35.5962,定西市,将台街,颗粒物(PM10),60,69,38,16,14,61,,107,93,18,10,8,8,0.6,0.5
2025-08-01T0000,4309A,104.6159,35.5701,定西市,正龙路62号,颗粒物(PM10),57,63,31,33,18,55,,96,85,16,10,4,4,0.3,0.3
2025-08-01T0000,1389A,113.7547,23.0494,东莞市,莞城梨川,,22,22,24,14,18,51,,144,83,23,19,7,7,0.5,0.6
2025-08-01T0000,1390A,113.7944,23.0128,东莞市,东城石井,,20,20,23,11,14,18,,116,49,24,26,2,3,0.6,0.6
2025-08-01T0000,1391A,113.7383,22.9658,东莞市,南城西平,,18,18,20,9,12,50,,126,76,26,25,6,5,0.5,0.6
2025-08-01T0000,3319A,113.7338,23.0381,东莞市,万江金泰,,14,10,21,8,14,37,,130,69,27,22,3,4,0.8,0.8
2025-08-01T0000,3626A,113.7533,23.0202,东莞市,南城元岭,,16,13,19,10,15,49,,128,77,24,22,5,5,0.6,0.6
2025-08-01T0000,3627A,113.7875,23.0457,东莞市,东城主山,,24,24,29,13,17,49,,127,70,23,29,4,4,0.5,0.6
2025-08-01T0000,1666A,118.6614,37.4309,东营市,市环保局,,30,9,12,7,7,94,,88,84,9,10,8,6,0.2,0.2
2025-08-01T0000,3036A,118.6904,37.4338,东营市,开发区管委会,,31,16,16,3,5,97,,98,92,9,7,8,6,0.2,0.2
2025-08-01T0000,3365A,118.5719,37.565,东营市,垦利区民丰路,,18,17,13,3,7,56,,86,75,9,8,4,2,0.6,0.5
2025-08-01T0000,3498A,118.5055,37.8612,东营市,河口城区,,21,12,14,3,6,65,,139,113,9,13,4,4,0.8,0.8
2025-08-01T0000,3646A,118.4978,37.4623,东营市,胜利站,,26,17,20,7,6,82,,95,84,11,10,3,3,0.4,0.4
2025-08-01T0000,3734A,118.35,37.26,东营市,理想之城,,29,17,12,14,9,90,,94,86,6,7,4,4,0.3,0.3
2025-08-01T0000,1591A,110.0023,39.8129,鄂尔多斯市,综合楼,,42,41,26,29,14,75,,130,112,25,16,2,4,0.8,0.6
2025-08-01T0000,1592A,109.9486,39.8261,鄂尔多斯市,巴音孟克林场办事处,颗粒物(PM10),51,51,32,29,16,61,,136,110,29,16,4,4,0.9,0.7
2025-08-01T0000,1593A,109.7736,39.5986,鄂尔多斯市,康泽苑,,48,48,41,24,15,28,,118,86,22,17,7,7,0.7,0.6
2025-08-01T0000,1594A,109.8119,39.5989,鄂尔多斯市,华泰汽车城,,46,46,39,29,18,5,,106,62,38,20,4,4,1.0,0.8
2025-08-01T0000,1595A,109.9734,39.7884,鄂尔多斯市,奥林花园,,46,46,30,31,22,25,,120,85,34,18,7,7,1.0,0.8
2025-08-01T0000,2436A,114.8938,30.3994,鄂州市,市政府,,30,30,19,14,7,94,,96,96,18,16,9,6,1.2,0.6
2025-08-01T0000,2437A,114.8989,30.3714,鄂州市,赵家坝,,36,28,22,16,7,114,,103,103,6,10,6,5,1.1,0.8
2025-08-01T0000,3654A,114.8094,30.4089,鄂州市,精准医疗中心,,35,35,25,23,7,101,,106,105,20,12,3,4,0.7,0.7
2025-08-01T0000,2454A,109.4978,30.2981,恩施土家族苗族自治州,湖北民院,细颗粒物(PM2.5),52,,20,36,17,70,,155,119,15,7,5,5,0.5,0.4
2025-08-01T0000,2455A,109.4707,30.2798,恩施土家族苗族自治州,州电力总公司,,43,41,22,30,19,49,,143,106,24,13,8,8,0.3,0.3
2025-08-01T0000,3549A,109.5061,30.3772,恩施土家族苗族自治州,龙凤新区,,48,,18,33,15,76,,160,113,5,4,4,4,0.5,0.5
2025-08-01T0000,2499A,108.3411,21.6158,防城港市,沙万,,32,28,31,22,21,38,,84,56,16,14,4,5,0.6,0.5
2025-08-01T0000,2500A,108.3514,21.7731,防城港市,防城档案局,颗粒物(PM10),76,102,37,18,19,9,,80,32,29,13,3,3,0.7,0.7
2025-08-01T0000,2501A,108.3506,21.6414,防城港市,大海花园,,28,23,28,19,16,44,,99,61,11,9,5,6,0.5,0.6
2025-08-01T0000,1371A,113.1294,23.0067,佛山市,湾梁,,24,,26,14,18,76,,100,80,14,21,5,6,0.8,0.8
2025-08-01T0000,1372A,113.1083,23.0478,佛山市,华材职中,,26,,22,10,16,82,,125,95,7,21,7,8,0.5,0.6
2025-08-01T0000,1373A,113.144,23.0453,佛山市,南海气象局,,25,,30,17,17,73,,91,74,8,22,3,3,0.5,0.6
2025-08-01T0000,1374A,113.2881,22.8094,佛山市,顺德苏岗,,22,22,27,9,16,61,,70,60,21,30,7,7,0.8,0.9
2025-08-01T0000,1376A,112.8383,22.8678,佛山市,高明孔堂,,31,,26,9,14,97,,96,88,7,12,6,7,0.6,0.7
2025-08-01T0000,1377A,112.8836,23.1588,佛山市,三水监测站,,18,,17,11,16,57,,104,94,33,22,3,3,0.4,0.7
2025-08-01T0000,1378A,112.867,23.185,佛山市,三水云东海,,30,29,31,21,19,43,,108,91,54,24,4,2,0.6,0.6
2025-08-01T0000,3625A,113.2544,22.7642,佛山市,容桂街道办,,21,7,24,3,19,67,,71,55,18,31,6,6,0.6,0.7
2025-08-01T0000,1280A,119.3903,26.0543,福州市,鼓山,,,,,,,,,,,,,,,,
2025-08-01T0000,1282A,119.2681,26.0504,福州市,师大,,40,40,31,17,13,71,,91,72,16,13,5,5,0.3,0.2
2025-08-01T0000,1283A,119.2984,26.1028,福州市,五四北路,,26,24,33,18,16,77,,95,86,15,15,4,4,0.3,0.3
2025-08-01T0000,1284A,119.2648,26.0768,福州市,杨桥西路,,35,35,30,18,13,77,,90,77,13,12,4,4,0.3,0.3
2025-08-01T0000,1285A,119.317,26.0746,福州市,紫阳,,31,31,35,21,17,71,,88,78,12,13,6,6,0.3,0.3
2025-08-01T0000,3048A,119.5799,26.0936,福州市,九龙,,38,38,39,24,22,85,,124,90,15,12,6,5,0.4,0.4
2025-08-01T0000,3526A,119.5189,25.9664,福州市,吴航,,48,48,38,28,23,79,,116,101,9,10,5,5,0.5,0.5
2025-08-01T0000,1755A,123.7977,41.8491,抚顺市,望花区,,40,40,31,26,17,63,,167,118,39,21,24,7,0.8,0.8
2025-08-01T0000,1756A,123.9161,41.8822,抚顺市,顺城区,,34,34,41,16,16,24,,151,75,38,24,5,5,1.1,0.9
2025-08-01T0000,1757A,124.0436,41.8611,抚顺市,东洲区,,25,25,36,13,15,44,,144,99,11,15,4,7,0.8,0.7
2025-08-01T0000,1758A,123.9247,41.8642,抚顺市,新抚区,,41,41,34,21,14,18,,133,61,26,18,4,6,1.0,1
2025-08-01T0000,1759A,124.0972,41.8961,抚顺市,大伙房水库,,22,22,23,12,9,25,,140,87,23,12,6,6,0.7,0.7
2025-08-01T0000,1760A,123.7086,41.8391,抚顺市,沈抚新城,,37,37,36,24,19,29,,166,91,31,20,5,7,0.8,0.9
2025-08-01T0000,2376A,116.2127,28.0814,抚州市,桐源党溪,,22,22,28,15,12,27,,88,68,5,6,4,7,0.4,0.5
2025-08-01T0000,2377A,116.3544,27.9831,抚州市,市站,,25,25,24,12,11,51,,102,89,3,3,5,7,0.1,0.2
2025-08-01T0000,2378A,116.3565,27.963,抚州市,血防站,,28,28,25,14,12,54,,106,91,4,6,5,7,0.4,0.5
2025-08-01T0000,2379A,116.3564,28.0007,抚州市,采茶剧团,,23,23,24,12,11,47,,98,82,2,2,5,7,0.4,0.4
2025-08-01T0000,2380A,116.385,27.9647,抚州市,医学分院,,25,25,29,11,11,51,,101,86,2,2,5,5,0.5,0.5
2025-08-01T0000,2207A,121.6094,41.998,阜新市,工业园区,,44,44,32,25,14,14,,114,80,55,25,13,9,0.5,0.4
2025-08-01T0000,2208A,121.6697,42.0279,阜新市,长青街,,43,43,31,30,18,8,,100,63,39,24,7,11,0.6,0.9
2025-08-01T0000,2209A,121.6673,42.0705,阜新市,农业园区,,35,35,33,9,10,53,,86,54,17,14,7,9,0.6,0.7
2025-08-01T0000,2210A,121.6717,42.0224,阜新市,东苑,颗粒物(PM10),55,59,47,22,20,15,,109,67,42,30,16,11,0.9,1.5
2025-08-01T0000,2211A,121.6506,42.0498,阜新市,玉龙新城,,35,35,37,11,12,3,,94,32,36,21,9,10,1.1,0.8
2025-08-01T0000,2301A,115.8277,32.8929,阜阳市,市监测站,,26,26,30,13,16,61,,100,83,12,15,4,5,0.1,0.3
2025-08-01T0000,2303A,115.8554,32.8605,阜阳市,开发区,,21,21,30,8,13,60,,106,89,15,14,6,7,0.3,0.3
2025-08-01T0000,2875A,115.784,32.8892,阜阳市,阜阳职业技术学院,,25,,19,17,15,67,,104,89,7,9,4,5,0.4,0.4
2025-08-01T0000,3468A,115.7901,32.8613,阜阳市,市规划展馆,,19,19,28,12,17,53,,98,79,11,11,3,5,0.5,0.4
2025-08-01T0000,3469A,115.836,32.9183,阜阳市,枣园社区,,22,22,31,12,16,62,,101,83,11,14,4,4,0.4,0.4
2025-08-01T0000,2669A,102.9099,34.9841,甘南藏族自治州,州政府,,39,39,34,23,16,69,,81,72,10,17,4,4,0.4,0.3
2025-08-01T0000,3380A,102.8914,34.9617,甘南藏族自治州,甘肃民族师范学院,,,28,41,27,16,,,92,83,11,15,9,9,0.3,0.6
2025-08-01T0000,2570A,101.9603,30.0475,甘孜藏族自治州,水桥子,,28,16,16,16,9,87,,106,104,19,14,6,6,0.4,0.4
2025-08-01T0000,3065A,101.9533,29.9972,甘孜藏族自治州,州环保局,,33,24,20,3,7,104,,108,104,10,13,6,6,0.5,0.5
2025-08-01T0000,3414A,115.8347,28.932,赣江新区,桑海产业园,,19,19,15,6,6,34,,94,67,26,11,6,6,0.3,0.3
2025-08-01T0000,2362A,114.9017,25.9149,赣州市,通天岩,,46,,24,32,15,36,,94,43,6,4,16,15,0.7,0.7
2025-08-01T0000,2363A,114.9367,25.8664,赣州市,地委,,40,40,22,24,12,39,,88,60,14,9,4,5,1.0,0.9
2025-08-01T0000,2364A,114.9461,25.8481,赣州市,气象台,,45,45,23,22,10,40,,99,62,11,7,10,8,0.8,0.7
2025-08-01T0000,2365A,114.9322,25.8333,赣州市,市图书馆,,45,41,22,31,14,35,,99,60,11,7,4,4,0.6,0.5
2025-08-01T0000,2366A,114.8905,25.8471,赣州市,华坚鞋城,,39,39,24,24,11,31,,89,56,16,10,6,5,0.6,0.5
2025-08-01T0000,3109A,115.0093,25.8613,赣州市,赣县区卫计委,,26,19,22,18,13,30,,93,56,16,8,4,4,0.5,0.4
2025-08-01T0000,2683A,106.2319,36.1417,固原市,马园,,49,49,70,18,22,104,,112,105,15,18,6,9,0.7,0.6
2025-08-01T0000,2684A,106.2792,36.0022,固原市,监测站,颗粒物(PM10),52,53,46,17,19,110,,122,103,11,8,5,5,0.5,0.4
2025-08-01T0000,2685A,106.2375,36.0211,固原市,新区,颗粒物(PM10),52,54,51,18,20,106,,113,105,13,8,6,6,0.5,0.5
2025-08-01T0000,3522A,106.2177,35.9959,固原市,原州区十五小,,48,48,48,17,22,106,,114,104,13,8,10,8,0.6,0.5
2025-08-01T0000,2543A,106.6308,30.5278,广安市,小平旧居,,,,,,,,,,,,,,,,
2025-08-01T0000,2544A,106.6303,30.4576,广安市,市委,,38,30,35,26,21,78,,133,119,12,12,7,9,0.4,0.4
2025-08-01T0000,2545A,106.6271,30.4663,广安市,友谊中学,,26,26,25,18,17,72,,137,118,17,14,6,8,0.6,0.7
2025-08-01T0000,2547A,106.6388,30.4551,广安市,广电花园,,29,29,40,16,17,70,,131,114,14,13,2,4,0.6,0.6
2025-08-01T0000,2902A,106.6351,30.4865,广安市,北辰小学,,33,33,31,19,16,88,,137,117,12,11,4,5,0.6,0.6
2025-08-01T0000,2523A,105.8945,32.4535,广元市,黑石坡,细颗粒物(PM2.5),52,,31,36,19,91,,126,110,7,9,7,8,0.4,0.5
2025-08-01T0000,2524A,105.821,32.4444,广元市,老城,,39,15,15,6,6,123,,147,131,10,20,4,7,0.7,0.6
2025-08-01T0000,2526A,105.8628,32.4287,广元市,监测站,,39,31,25,27,13,84,,132,107,10,12,9,11,0.8,0.8
2025-08-01T0000,3617A,105.8047,32.4166,广元市,经开区,,39,35,36,27,22,103,,131,117,10,15,4,6,0.6,0.7
2025-08-01T0000,1345A,113.2347,23.1423,广州市,广雅中学,,23,23,34,10,20,62,,138,82,30,30,2,3,0.3,0.4
2025-08-01T0000,1346A,113.2612,23.105,广州市,市五中,,21,13,28,7,18,67,,123,76,22,25,4,5,0.6,0.6
2025-08-01T0000,1348A,113.3478,23.0916,广州市,广东商学院,,31,31,30,14,20,32,,100,58,47,33,4,3,0.8,0.8
2025-08-01T0000,1349A,113.4332,23.1047,广州市,市八十六中,,37,37,29,22,19,20,,90,42,51,43,3,3,0.5,0.6
2025-08-01T0000,1350A,113.3505,22.9483,广州市,番禺中学,,23,23,28,12,17,53,,86,55,21,25,5,6,0.5,0.5
2025-08-01T0000,1351A,113.2146,23.3916,广州市,花都师范,,29,29,35,12,15,85,,144,120,15,16,4,4,0.6,0.6
2025-08-01T0000,1352A,113.2597,23.1331,广州市,市监测站,,19,18,32,8,16,58,,132,87,24,28,5,5,0.5,0.5
2025-08-01T0000,1353A,113.5618,23.312,广州市,九龙镇镇龙,,44,44,29,27,19,34,,131,87,37,24,7,6,0.8,0.6
2025-08-01T0000,1354A,113.2765,23.1544,广州市,麓湖,,20,20,27,11,17,58,,128,76,27,28,3,3,0.5,0.6
2025-08-01T0000,1355A,113.443,23.3035,广州市,帽峰山森林公园,,22,22,23,11,11,47,,150,96,24,28,7,6,0.7,0.9
2025-08-01T0000,2846A,113.3221,23.1322,广州市,体育西,,38,38,42,15,17,45,,124,72,39,32,6,4,0.6,0.7
2025-08-01T0000,3298A,113.5717,23.5491,广州市,从化街口,,29,8,16,3,10,90,,117,104,8,10,5,5,0.7,0.8
2025-08-01T0000,3299A,113.3472,23.3692,广州市,白云竹料,,25,17,26,17,20,58,,148,104,18,14,3,3,0.5,0.5
2025-08-01T0000,3300A,113.2981,23.237,广州市,白云嘉禾,,36,36,33,21,21,37,,141,79,50,32,4,4,0.7,0.6
2025-08-01T0000,3301A,113.4256,23.1716,广州市,黄埔科学城,,45,45,35,25,22,18,,116,55,44,29,3,3,0.6,0.6
2025-08-01T0000,3302A,113.3942,23.0483,广州市,番禺大学城,,38,38,32,19,18,33,,92,55,41,32,9,9,0.6,0.6
2025-08-01T0000,3303A,113.4922,22.8168,广州市,南沙黄阁,,43,43,37,16,17,18,,87,49,47,30,5,5,0.6,0.6
2025-08-01T0000,3304A,113.5342,22.7896,广州市,南沙街,,32,32,26,14,14,26,,99,53,14,15,4,4,0.6,0.5
2025-08-01T0000,3443A,113.2902,23.5544,广州市,花都梯面,,24,12,16,7,10,75,,119,95,10,12,4,5,0.6,0.6
2025-08-01T0000,3445A,113.7858,23.7478,广州市,从化良口,,20,9,10,3,7,62,,91,80,10,8,4,4,0.5,0.6
2025-08-01T0000,3446A,113.8051,23.2614,广州市,增城荔城,,32,32,26,7,19,18,,116,75,38,20,8,7,1.0,0.4
2025-08-01T0000,2505A,109.568,23.1478,贵港市,德智高中,,,,,,,,,,,,,,,,
2025-08-01T0000,2506A,109.6047,23.0666,贵港市,江南子站,,40,31,34,28,30,45,,126,83,12,13,7,7,0.7,0.8
2025-08-01T0000,2508A,109.5669,23.1065,贵港市,荷城子站,,29,29,27,14,15,54,,118,80,9,10,7,8,0.4,0.4
2025-08-01T0000,3405A,109.5886,23.1172,贵港市,新世纪学校,,32,29,25,22,18,58,,124,88,11,10,2,2,0.5,0.5
2025-08-01T0000,4260A,109.5933,23.0951,贵港市,中山路155-3号,,37,37,31,21,22,55,,137,90,10,10,4,4,0.6,0.6
2025-08-01T0000,1439A,106.6899,26.5998,贵阳市,马鞍山,,27,27,15,9,4,19,,88,65,17,9,2,2,0.7,0.6
2025-08-01T0000,1441A,106.6243,26.6266,贵阳市,鉴湖路,,39,39,29,3,5,80,,88,88,22,12,6,6,0.2,0.2
2025-08-01T0000,1442A,106.7487,26.6343,贵阳市,燕子冲,,39,,16,27,19,56,,100,89,18,13,10,9,0.4,0.3
2025-08-01T0000,1443A,106.6555,26.4365,贵阳市,碧云窝,,34,34,31,17,9,29,,106,73,18,16,5,5,0.1,0.1
2025-08-01T0000,1445A,106.7109,26.6027,贵阳市,红边门,,28,27,20,19,11,55,,98,86,22,15,8,7,0.3,0.2
2025-08-01T0000,1446A,106.7164,26.5699,贵阳市,新华路,,36,36,29,12,13,44,,100,78,26,15,7,18,0.2,0.4
2025-08-01T0000,1447A,106.674,26.5424,贵阳市,太慈桥,,25,17,16,17,8,21,,110,72,26,15,4,3,0.2,0.2
2025-08-01T0000,1552A,106.805,26.3003,贵阳市,桐木岭,,27,27,30,14,18,54,,93,82,6,6,7,7,0.7,0.7
2025-08-01T0000,4230A,106.6882,26.5695,贵阳市,花果园大街66号,,36,,13,25,15,40,,101,82,27,14,5,4,0.4,0.4
2025-08-01T0000,4231A,106.6873,26.5169,贵阳市,漓江路57号,,27,27,21,17,11,38,,109,81,21,12,5,3,0.4,0.4
2025-08-01T0000,1862A,110.4144,25.3167,桂林市,电子科大尧山校区,,,,,,,,,,,,,,,,
2025-08-01T0000,1864A,110.3089,25.2708,桂林市,龙隐路小学,,26,13,18,8,11,82,,101,89,8,8,9,10,0.2,0.2
2025-08-01T0000,1865A,110.2869,25.2178,桂林市,八中,,25,10,20,8,10,79,,110,92,8,9,6,7,0.4,0.4
2025-08-01T0000,3531A,110.296,25.1253,桂林市,旅游学院,,24,,15,7,11,74,,126,108,5,7,3,6,0.3,0.3
2025-08-01T0000,4222A,110.1835,25.2444,桂林市,环湖路276号,,19,19,28,12,19,50,,110,81,23,10,5,33,0.3,0.4
2025-08-01T0000,4301A,110.2803,25.2773,桂林市,信义路13号,,25,14,23,3,11,77,,111,91,7,9,5,5,0.5,0.5
2025-08-01T0000,2674A,100.2561,34.4714,果洛藏族自治州,玛沁县大武镇,,27,27,29,9,12,80,,104,95,3,8,13,11,0.2,0.2
2025-08-01T0000,1129A,126.5422,45.755,哈尔滨市,岭北,,27,23,15,16,9,85,,97,87,29,15,9,9,0.6,0.5
2025-08-01T0000,1130A,126.561,45.8167,哈尔滨市,松北商大,,22,22,19,8,6,49,,71,53,25,13,6,6,0.5,0.4
2025-08-01T0000,1131A,126.979,45.5419,哈尔滨市,阿城会宁,,23,23,20,11,10,42,,92,59,15,12,4,5,0.6,0.5
2025-08-01T0000,1132A,126.599,45.7222,哈尔滨市,南岗学府路,颗粒物(PM10),51,51,25,11,5,15,,76,47,67,21,9,9,0.7,0.6
2025-08-01T0000,1133A,126.689,45.7733,哈尔滨市,太平宏伟公园,,36,36,20,13,8,53,,74,62,27,15,7,7,0.5,0.5
2025-08-01T0000,1134A,126.635,45.7667,哈尔滨市,道外承德广场,,50,50,31,9,10,27,,62,45,54,22,8,8,0.7,0.8
2025-08-01T0000,1135A,126.685,45.7319,哈尔滨市,香坊红旗大街,,29,29,23,14,10,41,,74,55,40,26,10,10,0.7,0.6
2025-08-01T0000,1136A,126.6411,45.7258,哈尔滨市,动力和平路,,,42,22,,7,29,,79,55,50,22,7,7,0.6,0.5
2025-08-01T0000,1137A,126.593,45.7478,哈尔滨市,道里建国路,颗粒物(PM10),61,72,34,9,16,64,,75,62,30,19,4,6,1.7,1.1
2025-08-01T0000,1138A,126.615,45.61,哈尔滨市,平房东轻厂,,17,17,19,3,7,46,,76,63,27,16,6,6,0.4,0.4
2025-08-01T0000,1139A,126.595,45.9855,哈尔滨市,呼兰师专,,29,29,35,3,3,46,,76,53,31,15,10,8,0.8,0.8
2025-08-01T0000,1140A,126.6206,45.6842,哈尔滨市,省农科院,颗粒物(PM10),70,90,47,22,14,27,,63,31,83,42,15,12,0.5,0.4
2025-08-01T0000,2688A,93.5128,42.8172,哈密市,地区监测站,颗粒物(PM10),55,60,47,37,36,83,,132,113,17,11,3,4,0.4,0.3
2025-08-01T0000,2689A,93.4961,42.8328,哈密市,哈密师范学校,颗粒物(PM10),58,66,51,20,24,75,,125,98,18,23,4,6,0.3,0.4
2025-08-01T0000,2671A,100.9048,36.9639,海北藏族自治州,海晏县西海镇,,48,48,74,23,34,90,,112,106,4,4,8,10,0.4,0.6
2025-08-01T0000,3867A,102.0738,36.5056,海东市,平安区公安北苑,颗粒物(PM10),71,91,130,41,58,45,,102,91,32,4,12,15,0.7,0.6
2025-08-01T0000,1409A,110.576,19.9507,海口市,东寨港,,16,16,16,7,9,21,,72,48,10,6,9,8,0.4,0.4
2025-08-01T0000,1410A,110.3232,20.0574,海口市,海南大学,,26,26,19,12,9,34,,80,58,15,8,3,3,0.4,0.4
2025-08-01T0000,1411A,110.283,20.0053,海口市,秀英海南医院,,27,27,22,16,10,34,,78,47,25,13,6,6,0.3,0.3
2025-08-01T0000,1412A,110.338,19.9969,海口市,海南师范大学,,26,26,20,10,8,48,,87,59,12,9,4,4,0.5,0.5
2025-08-01T0000,1413A,110.33,20.0356,海口市,龙华路环保局宿舍,,23,21,18,16,9,30,,81,58,20,8,5,5,0.4,0.2
2025-08-01T0000,3539A,110.5111,19.9736,海口市,桂林洋子站,,22,22,22,9,10,30,,82,53,18,10,4,4,0.3,0.3
2025-08-01T0000,2673A,100.6188,36.2866,海南藏族自治州,共和县恰卜恰镇,细颗粒物(PM2.5),70,87,40,51,23,83,,122,100,7,9,16,11,0.6,0.6
2025-08-01T0000,2676A,97.3731,37.3753,海西蒙古族藏族自治州,德令哈市,,48,48,140,17,54,74,,118,103,9,5,21,20,0.6,0.6
2025-08-01T0000,1048A,114.5302,36.6116,邯郸市,东污水处理厂,,36,36,34,3,4,88,,140,122,23,7,7,5,0.4,0.4
2025-08-01T0000,1049A,114.4918,36.5713,邯郸市,矿院,,38,19,22,3,6,120,,146,136,9,6,6,5,0.4,0.4
2025-08-01T0000,1050A,114.484,36.6133,邯郸市,丛台公园,,37,26,22,9,8,118,,150,138,14,8,7,5,0.4,0.3
2025-08-01T0000,3458A,114.7895,36.5593,邯郸市,香泉濮院小区,颗粒物(PM10),56,62,41,3,3,87,,130,116,15,8,3,3,0.2,0.2
2025-08-01T0000,3579A,114.50634,36.77178,邯郸市,永年区实验高中,,36,36,42,18,20,110,,139,124,17,12,4,4,0.3,0.3
2025-08-01T0000,3580A,114.20016,36.44293,邯郸市,峰峰矿区临水派出所,,39,29,38,3,3,124,,152,136,10,8,4,4,0.3,0.3
2025-08-01T0000,2634A,106.9893,33.1842,汉中市,汉川机床厂子校,,24,23,23,13,13,75,,118,96,13,7,3,3,0.4,0.4
2025-08-01T0000,2635A,107.0154,33.0706,汉中市,市监测站,,35,35,29,20,17,80,,116,94,8,6,6,6,0.4,0.4
2025-08-01T0000,2636A,107.0089,33.1138,汉中市,鑫源开发区,,23,,24,16,14,66,,107,80,10,7,6,6,0.4,0.4
2025-08-01T0000,2637A,107.007,33.0323,汉中市,南郑大河坎水厂,,28,27,26,19,17,64,,114,82,11,11,8,8,0.5,0.5
2025-08-01T0000,1223A,120.2072,30.2111,杭州市,滨江,,21,21,13,7,5,26,,63,48,26,14,6,6,0.6,0.5
2025-08-01T0000,1224A,120.0633,30.2747,杭州市,西溪,,14,14,7,8,4,19,,44,33,11,10,4,4,0.4,0.4
2025-08-01T0000,1226A,120.3417,30.3150,杭州市,下沙,,26,14,9,8,5,7,,68,43,51,17,5,5,0.4,0.4
2025-08-01T0000,1227A,120.1269,30.2456,杭州市,卧龙桥,,15,13,9,10,5,11,,48,26,7,5,7,7,0.4,0.3
2025-08-01T0000,1228A,120.1903,30.2692,杭州市,浙江农大,,24,24,15,11,6,37,,54,44,19,15,4,4,0.3,0.3
2025-08-01T0000,1230A,120.1197,30.3119,杭州市,和睦小学,,14,14,9,8,7,42,,50,44,11,9,4,4,0.4,0.4
2025-08-01T0000,1231A,120.3019,30.4183,杭州市,临平镇,,31,31,17,10,5,18,,59,44,29,12,6,5,0.4,0.4
2025-08-01T0000,1232A,120.2753,30.1839,杭州市,城厢镇,,32,32,15,20,9,14,,65,40,27,8,6,5,0.6,0.5
2025-08-01T0000,1233A,120.0883,30.1808,杭州市,云栖,,22,22,13,3,3,27,,47,34,11,10,8,8,0.5,0.5
2025-08-01T0000,3557A,119.9464,30.0494,杭州市,镇二中,,25,21,13,17,12,30,,54,44,16,8,4,4,0.5,0.5
2025-08-01T0000,3558A,119.7183,30.2367,杭州市,市府大楼,,12,12,8,7,5,27,,42,38,8,7,6,6,0.4,0.3
2025-08-01T0000,3656A,120.1556,30.2864,杭州市,消防大队,,16,12,8,11,5,38,,50,42,17,12,6,6,0.4,0.4
2025-08-01T0000,1270A,117.1959,31.7848,合肥市,明珠广场,,18,6,10,3,11,57,,67,63,7,10,5,5,0.4,0.4
2025-08-01T0000,1271A,117.3072,31.8764,合肥市,三里街,,17,,13,9,10,54,,61,58,7,9,4,5,0.4,0.4
2025-08-01T0000,1272A,117.2588,31.8707,合肥市,琥珀山庄,,16,9,15,8,14,50,,64,59,11,10,6,7,0.6,0.6
2025-08-01T0000,1273A,117.1604,31.9052,合肥市,董铺水库,,15,,16,3,11,48,,63,58,5,6,3,3,0.2,0.3
2025-08-01T0000,1274A,117.25,31.8571,合肥市,长江中路,,18,6,15,3,9,55,,66,62,6,9,5,6,0.5,0.5
2025-08-01T0000,1275A,117.266,31.9436,合肥市,庐阳区,,19,7,13,3,9,59,,68,64,3,4,8,8,0.5,0.5
2025-08-01T0000,1276A,117.3453,31.8616,合肥市,瑶海区,,17,,10,3,8,52,,60,57,9,10,6,6,0.5,0.5
2025-08-01T0000,1277A,117.3027,31.7964,合肥市,包河区,,17,7,12,3,9,52,,59,55,14,16,6,6,0.6,0.6
2025-08-01T0000,1278A,117.2776,31.7385,合肥市,滨湖新区,,16,9,15,3,15,51,,65,60,12,12,8,8,0.4,0.4
2025-08-01T0000,1279A,117.1318,31.8403,合肥市,高新区,,18,6,15,3,11,56,,71,66,10,12,5,5,0.5,0.4
2025-08-01T0000,3464A,117.3803,31.9147,合肥市,高教基地,,32,,16,22,14,52,,57,55,8,9,5,6,0.5,0.4
2025-08-01T0000,3614A,79.924,37.0877,和田地区,地区环保局,颗粒物(PM10),172,293,550,109,144,38,,96,79,34,12,1,2,0.1,0.4
2025-08-01T0000,3615A,79.9131,37.113,和田地区,市环保局,颗粒物(PM10),147,244,469,88,122,63,,96,68,24,15,1,2,0.2,0
2025-08-01T0000,2516A,108.2011,24.715,河池市,东仁乐园,,,,,,,,,,,,,,,,
2025-08-01T0000,2517A,108.0497,24.6947,河池市,市环保站,,17,8,19,8,11,54,,96,71,9,7,3,4,0.5,0.5
2025-08-01T0000,2518A,108.0983,24.6989,河池市,市疾控中心,,30,30,24,14,15,23,,106,62,23,13,4,5,0.6,0.6
2025-08-01T0000,1696A,114.6778,23.7569,河源市,源西,,24,6,18,3,11,76,,101,87,5,5,8,8,0.5,0.5
2025-08-01T0000,1697A,114.6944,23.7586,河源市,东埔,,,,17,8,13,78,,99,88,9,10,4,4,,0.5
2025-08-01T0000,1698A,114.6892,23.7233,河源市,老城,,24,12,19,8,18,75,,99,86,7,8,4,4,0.5,0.5
2025-08-01T0000,1718A,115.4208,35.2464,菏泽市,气象局,,49,49,41,28,25,111,,163,150,13,10,6,5,0.4,0.4
2025-08-01T0000,3374A,115.5564,35.0891,菏泽市,定陶老年大学,,46,46,40,27,19,96,,153,128,18,14,2,2,0.4,0.4
2025-08-01T0000,4184A,115.4797,35.24401,菏泽市,永昌路1号,,45,44,39,31,26,106,,162,144,15,13,6,6,0.1,0.2
2025-08-01T0000,4193A,115.4715,35.2800,菏泽市,长城路999号,,41,41,38,22,20,109,,163,146,15,13,4,4,0.4,0.4
2025-08-01T0000,2514A,111.5264,24.4172,贺州市,环保小区,,36,36,19,15,12,27,,88,73,15,10,11,10,0.8,0.9
2025-08-01T0000,2515A,111.5608,24.4078,贺州市,政协大楼,,37,37,15,13,9,41,,97,69,14,7,13,10,0.7,0.6
2025-08-01T0000,3534A,111.4744,24.4553,贺州市,西湾,,42,42,18,23,12,12,,83,50,22,9,9,8,0.6,0.6
2025-08-01T0000,2385A,114.17,35.9019,鹤壁市,市监测站,,30,27,37,21,27,95,,136,115,11,9,6,6,0.5,0.6
2025-08-01T0000,2386A,114.2956,35.7511,鹤壁市,市交警支队,,33,29,30,23,22,88,,127,105,17,11,8,6,0.6,0.6
2025-08-01T0000,2387A,114.2878,35.7306,鹤壁市,迎宾馆,,28,28,35,15,21,88,,125,108,19,12,6,4,0.5,0.7
2025-08-01T0000,3474A,114.2617,35.6822,鹤壁市,大新区,,29,18,34,9,17,92,,131,117,9,6,6,7,0.5,0.6
2025-08-01T0000,3596A,114.1572,35.9603,鹤壁市,南山宾馆,,43,43,43,16,21,110,,154,129,13,8,5,5,0.6,0.7
2025-08-01T0000,2244A,130.2537,47.3416,鹤岗市,哈啤分公司,,23,23,21,9,9,32,,94,54,10,13,12,12,0.6,0.7
2025-08-01T0000,2245A,130.2684,47.3086,鹤岗市,斯达机电,,19,18,24,9,10,60,,84,63,9,12,11,12,0.5,0.5
2025-08-01T0000,2246A,130.3114,47.3388,鹤岗市,东山纸板厂,,28,28,17,12,8,12,,96,48,22,20,12,13,1.0,0.9
2025-08-01T0000,2247A,130.1097,47.3382,鹤岗市,五号水库,,8,7,7,3,5,18,,82,44,15,14,9,10,0.1,0.2
2025-08-01T0000,2263A,127.4833,50.2524,黑河市,交通局,,15,15,16,8,7,33,,46,36,7,7,13,7,0.5,0.4
2025-08-01T0000,2264A,127.5144,50.2341,黑河市,环保局,,16,16,16,7,8,39,,48,37,6,9,4,6,0.2,0.2
2025-08-01T0000,2265A,127.5291,50.2472,黑河市,大黑河岛,,,,3,3,6,38,,43,38,3,4,27,27,,
2025-08-01T0000,1074A,115.6838,37.7541,衡水市,电机北厂,,46,46,31,13,14,90,,146,128,18,10,6,7,0.4,0.4
2025-08-01T0000,1075A,115.6303,37.7316,衡水市,市监测站,,39,39,29,6,8,100,,150,132,13,6,8,6,0.4,0.4
2025-08-01T0000,3188A,115.6683,37.7217,衡水市,市城管局,,38,38,29,13,15,97,,147,132,15,8,10,8,0.4,0.4
2025-08-01T0000,3459A,115.5989,37.5491,衡水市,地表水厂,,44,44,34,3,4,88,,141,123,20,12,9,9,0.2,0.2
2025-08-01T0000,2456A,112.5003,26.9167,衡阳市,原169医院,,30,30,23,15,9,66,,112,89,9,7,4,6,0.5,0.5
2025-08-01T0000,2457A,112.6194,26.9258,衡阳市,衡阳化工总厂,,28,28,26,14,15,67,,109,93,10,8,3,3,0.7,0.8
2025-08-01T0000,2458A,112.6211,26.8956,衡阳市,珠晖区环保局,,33,33,25,15,12,63,,116,96,28,12,8,7,0.5,0.5
2025-08-01T0000,2459A,112.6197,26.8733,衡阳市,市委党校,,23,22,20,16,14,44,,112,94,30,12,11,9,1.0,0.7
2025-08-01T0000,2460A,112.6006,26.8919,衡阳市,市监测站,,28,26,24,19,15,63,,111,95,17,9,12,4,0.6,0.6
2025-08-01T0000,2461A,112.5664,26.9056,衡阳市,真空机电公司,,31,31,27,15,13,76,,110,92,5,6,4,5,0.7,0.8
2025-08-01T0000,3399A,112.6703,26.882,衡阳市,师范学院,,24,24,25,16,11,75,,113,103,12,9,6,7,0.8,0.8
2025-08-01T0000,2608A,103.3772,23.3993,红河哈尼族彝族自治州,污水处理厂,,20,19,18,14,16,63,,104,,9,7,43,15,0.1,0.2
2025-08-01T0000,2609A,103.3861,23.35,红河哈尼族彝族自治州,监测站,,23,23,23,8,11,56,,98,75,9,5,67,21,0.1,0.2
2025-08-01T0000,3038A,103.3758,23.368,红河哈尼族彝族自治州,州图书馆,,19,18,15,13,18,57,,98,76,8,7,53,10,0.3,0.3
2025-08-01T0000,1090A,111.6507,40.7517,呼和浩特市,呼市一监,颗粒物(PM10),53,56,30,29,14,33,,114,100,48,19,7,8,0.7,0.6
2025-08-01T0000,1091A,111.6572,40.8033,呼和浩特市,小召,颗粒物(PM10),51,51,35,30,18,53,,123,107,53,28,8,9,0.7,0.6
2025-08-01T0000,1094A,111.7516,40.8369,呼和浩特市,如意水处理厂,,48,48,40,23,18,49,,134,111,38,25,5,6,0.5,0.4
2025-08-01T0000,1095A,111.7276,40.8062,呼和浩特市,二十九中,,48,48,36,30,19,71,,138,123,28,19,5,6,0.7,0.6
2025-08-01T0000,1096A,111.5512,40.7866,呼和浩特市,工大金川校区,,43,43,40,22,16,54,,123,98,24,25,5,6,0.6,0.6
2025-08-01T0000,1097A,111.717,40.7612,呼和浩特市,化肥厂生活区,颗粒物(PM10),56,62,38,32,17,26,,129,104,56,23,6,8,0.6,0.6
2025-08-01T0000,3698A,111.5968,40.8178,呼和浩特市,红旗小学,,39,39,39,22,16,83,,136,111,21,26,3,5,0.5,0.6
2025-08-01T0000,3699A,111.6518,40.8389,呼和浩特市,海东办,,36,36,37,25,17,44,,142,109,48,29,5,6,0.7,0.7
2025-08-01T0000,2192A,119.7594,49.2261,呼伦贝尔市,区环保局,,35,35,25,16,14,38,,52,34,13,16,6,6,0.2,0.3
2025-08-01T0000,3061A,119.7512,49.1577,呼伦贝尔市,国华电力东,,25,25,19,12,9,35,,56,44,10,7,4,4,0.3,0.3
2025-08-01T0000,1250A,120.0751,30.8669,湖州市,城西水厂,,14,14,11,9,5,41,,52,48,9,9,6,6,0.4,0.4
2025-08-01T0000,2873A,120.0830,30.8929,湖州市,仁皇山新区,,14,14,10,8,6,30,,44,40,12,9,3,3,0.5,0.5
2025-08-01T0000,2907A,120.1844,30.8596,湖州市,吴兴区站,,23,23,12,12,7,24,,44,37,14,9,6,6,0.5,0.5
2025-08-01T0000,3562A,120.4148,30.8538,湖州市,南浔区站,,20,20,13,13,10,21,,54,36,24,13,6,6,0.5,0.5
2025-08-01T0000,1607A,120.9049,40.7211,葫芦岛市,龙港区,,20,20,42,9,18,58,,151,82,35,28,5,16,0.5,0.8
2025-08-01T0000,1608A,120.8392,40.7514,葫芦岛市,化工街,颗粒物(PM10),51,51,37,19,17,1,,120,62,86,39,8,29,0.5,0.5
2025-08-01T0000,1609A,120.8341,40.7073,葫芦岛市,新区,,20,20,33,11,16,58,,133,84,31,32,3,9,0.8,0.9
2025-08-01T0000,1610A,120.8695,40.7677,葫芦岛市,东城区,细颗粒物(PM2.5),53,50,42,37,18,13,,121,58,66,40,36,20,0.7,0.8
2025-08-01T0000,2482A,109.5981,27.5721,怀化市,林科所,,19,19,24,8,9,43,,87,74,9,8,5,5,0.2,0.3
2025-08-01T0000,2483A,109.9453,27.5444,怀化市,河西地税局,,28,28,27,17,17,19,,85,61,19,9,3,3,0.3,0.3
2025-08-01T0000,2484A,109.9781,27.5342,怀化市,市四医院,颗粒物(PM10),51,51,37,14,20,27,,83,68,26,11,5,7,0.0,0.2
2025-08-01T0000,2485A,109.9972,27.5578,怀化市,监测楼,,18,14,29,12,16,54,,84,75,9,9,3,4,0.1,0.2
2025-08-01T0000,2486A,110.0394,27.583,怀化市,市委党校,,36,36,28,16,20,20,,92,65,30,11,9,10,0.2,0.2
2025-08-01T0000,1210A,119.036,33.5981,淮安市,钵池山,,20,,8,10,10,61,,72,67,8,6,6,7,0.7,0.6
2025-08-01T0000,1211A,119.007,33.575,淮安市,北京南路,,20,,10,9,10,62,,71,66,8,6,6,6,0.5,0.5
2025-08-01T0000,1212A,118.989,33.6067,淮安市,市监测站,,22,,10,7,10,68,,77,72,4,4,8,8,0.6,0.6
2025-08-01T0000,1213A,119.135,33.5039,淮安市,楚州区监测站,,19,12,16,7,9,58,,69,64,6,2,7,7,0.4,0.4
2025-08-01T0000,3426A,118.8755,33.2894,淮安市,新华书店,,22,,9,10,11,69,,70,69,7,9,8,8,0.4,0.4
2025-08-01T0000,4206A,119.0288,33.6319,淮安市,承德北路606号,,19,,11,6,8,60,,68,64,6,6,5,5,0.6,0.5
2025-08-01T0000,2282A,116.8004,33.975,淮北市,监测站,,15,13,25,9,12,48,,93,73,7,9,6,8,0.6,0.7
2025-08-01T0000,2283A,116.8091,33.9007,淮北市,烈山区政府,,,,33,,9,,,80,67,4,7,,8,0.5,0.5
2025-08-01T0000,3330A,116.8873,33.9836,淮北市,杜集区检察院,,19,19,26,13,16,46,,89,69,8,10,7,8,0.6,0.7
2025-08-01T0000,4017A,116.7923,33.9535,淮北市,市博物馆,,16,,24,11,14,50,,95,75,6,9,8,10,0.5,0.5
2025-08-01T0000,2277A,116.8305,32.7727,淮南市,潘集区政府,,17,15,23,7,12,53,,74,62,10,11,1,3,0.4,0.4
2025-08-01T0000,2279A,116.8569,32.5951,淮南市,谢家集区政府,,17,10,19,3,8,54,,74,63,6,8,7,8,0.2,0.2
2025-08-01T0000,2280A,116.8281,32.633,淮南市,八公山区政府,,16,11,20,7,11,51,,72,62,7,10,8,6,0.2,0.2
2025-08-01T0000,2281A,116.6325,32.6201,淮南市,焦岗湖风景区管理处,,,,,,,,,,,,,,,,
2025-08-01T0000,2894A,117.0566,32.6531,淮南市,经济技术开发区消防队,,18,7,14,3,5,56,,67,59,10,10,8,8,0.2,0.2
2025-08-01T0000,3329A,117.0108,32.5893,淮南市,山南新区,,19,8,6,8,6,58,,69,61,8,8,9,10,0.5,0.5
2025-08-01T0000,4209A,117.0031,32.6445,淮南市,国庆中路369号,,20,,22,14,17,54,,68,58,8,8,13,14,0.3,0.3
2025-08-01T0000,2446A,114.9028,30.4742,黄冈市,职工中心,,38,38,26,22,15,113,,119,117,8,4,8,8,0.6,0.5
2025-08-01T0000,2929A,114.8858,30.4519,黄冈市,红卫路,,33,32,23,22,16,105,,115,113,9,5,9,8,0.6,0.5
2025-08-01T0000,3398A,114.9136,30.4445,黄冈市,市林业局,,41,34,26,16,13,130,,124,124,8,8,7,7,0.6,0.5
2025-08-01T0000,2672A,102.0199,35.5102,黄南藏族自治州,同仁县隆务镇,颗粒物(PM10),53,56,56,31,19,95,,80,,2,12,7,8,0.3,0.2
2025-08-01T0000,2295A,118.2903,29.6963,黄山市,延安路89号,,25,20,12,17,5,15,,33,20,6,5,3,3,0.4,0.4
2025-08-01T0000,2297A,118.1371,30.2756,黄山市,黄山区政府5号楼,,23,23,8,11,5,51,,53,53,3,3,4,4,0.3,0.3
2025-08-01T0000,4210A,118.3354,29.7203,黄山市,滨江东路7-2号,,22,22,17,8,7,15,,33,24,5,5,2,2,0.4,0.4
2025-08-01T0000,2423A,115.0601,30.2313,黄石市,沈家营,,32,30,28,11,7,100,,94,88,2,5,8,7,0.8,0.5
2025-08-01T0000,2426A,114.8988,30.2019,黄石市,铁山,,48,48,31,20,9,27,,92,76,40,9,6,8,0.2,0.3
2025-08-01T0000,2427A,115.0307,30.2092,黄石市,团城山,,35,35,23,9,3,66,,98,88,40,8,22,9,0.8,0.3
2025-08-01T0000,3149A,115.0235,30.1578,黄石市,笔架山北路,,43,43,23,14,5,49,,96,77,24,11,7,8,0.6,0.4
2025-08-01T0000,4185A,115.0780,30.21118,黄石市,磁湖东路29号,,,,26,,9,,,94,75,,5,,8,,0.2
2025-08-01T0000,1392A,114.4183,23.0528,惠州市,河南岸金山湖子站,,42,41,22,29,16,45,,114,87,25,14,8,7,0.7,0.7
2025-08-01T0000,1393A,114.4053,23.0822,惠州市,下埔横江三路子站,,49,49,23,33,17,35,,121,96,35,12,4,4,0.6,0.5
2025-08-01T0000,1394A,114.4103,23.1142,惠州市,江北云山西路子站,,50,50,21,32,15,43,,130,105,38,16,8,8,0.7,0.6
2025-08-01T0000,1395A,114.4645,22.7833,惠州市,惠阳区承修路船湖子站,,22,22,22,12,14,51,,124,88,18,14,6,6,0.5,0.5
2025-08-01T0000,1396A,114.5317,22.7422,惠州市,大亚湾管委会子站,,22,22,19,13,12,50,,110,82,14,12,7,7,0.5,0.5
2025-08-01T0000,3314A,114.4338,22.8134,惠州市,惠阳秋长,,44,44,22,20,16,32,,121,84,32,16,6,9,0.5,0.5
2025-08-01T0000,3452A,114.6517,22.775,惠州市,大亚湾霞涌,,20,20,19,11,10,41,,106,82,18,12,5,5,0.7,0.6
2025-08-01T0000,2240A,130.9762,45.3001,鸡西市,环保局,,27,27,17,15,7,31,,94,58,30,12,3,3,0.2,0.2
2025-08-01T0000,2243A,130.9429,45.3039,鸡西市,第一中学,,26,26,14,10,8,37,,92,68,28,12,11,10,0.2,0.2
2025-08-01T0000,3707A,131.0207,45.3073,鸡西市,欧美日汽修厂,颗粒物(PM10),54,58,26,17,13,4,,91,43,38,18,8,9,0.5,0.4
2025-08-01T0000,3709A,130.9967,45.3106,鸡西市,市政设施管理处,颗粒物(PM10),52,54,19,16,8,1,,97,51,48,19,6,6,0.4,0.3
2025-08-01T0000,2367A,114.9754,27.0803,吉安市,红声器材厂,,28,28,31,10,13,50,,120,66,7,6,8,8,0.4,0.5
2025-08-01T0000,2368A,114.9658,27.0999,吉安市,市森林工业局,,20,19,27,14,12,53,,113,69,4,4,8,9,0.3,0.4
2025-08-01T0000,2369A,114.99,27.1312,吉安市,市环境监测站,,31,31,25,13,12,52,,117,71,5,3,14,13,0.5,0.5
2025-08-01T0000,2370A,115.0093,27.0968,吉安市,青原区法院,,23,23,31,13,14,47,,115,70,14,10,8,7,0.6,0.7
2025-08-01T0000,1772A,126.54,43.8622,吉林市,哈达湾,,22,22,15,9,7,16,,85,51,24,12,7,7,0.5,0.4
2025-08-01T0000,1773A,126.5844,43.8358,吉林市,东局子,颗粒物(PM10),52,54,18,21,5,25,,80,48,9,8,5,6,0.7,0.3
2025-08-01T0000,1774A,126.5052,43.8245,吉林市,电力学院,,36,36,20,12,8,4,,83,38,26,13,6,5,0.4,0.3
2025-08-01T0000,1775A,126.6133,43.8972,吉林市,江北,,22,22,19,13,7,21,,95,47,11,7,4,4,0.9,0.7
2025-08-01T0000,1776A,126.555,43.8306,吉林市,江南公园,,20,20,15,6,8,25,,86,52,12,12,2,2,0.3,0.4
2025-08-01T0000,1778A,126.7061,43.7133,吉林市,丰满,,12,11,10,8,8,34,,75,54,4,4,4,4,0.5,0.5
2025-08-01T0000,2868A,126.4739,43.953,吉林市,九站,,43,43,18,13,8,3,,88,47,36,16,18,4,0.5,0.4
2025-08-01T0000,1299A,116.9862,36.6114,济南市,科干所,,39,39,36,24,29,67,,151,114,21,16,7,6,0.5,0.5
2025-08-01T0000,1300A,116.9376,36.665,济南市,农科所,,29,29,42,17,24,62,,148,111,24,20,9,9,0.4,0.4
2025-08-01T0000,1301A,117.1265,36.6734,济南市,开发区,,35,34,40,24,26,57,,142,100,22,20,9,8,0.7,0.7
2025-08-01T0000,1303A,117.0624,36.6868,济南市,省种子仓库,,41,41,48,19,23,68,,161,120,25,20,7,8,0.6,0.6
2025-08-01T0000,1304A,116.9489,36.6447,济南市,机床二厂,,37,37,44,15,23,65,,156,116,23,20,11,11,0.3,0.4
2025-08-01T0000,1305A,117.0495,36.663,济南市,市监测站,,39,39,44,3,24,60,,145,105,23,21,10,10,0.6,0.6
2025-08-01T0000,1306A,116.7675,36.5484,济南市,长清党校,,44,44,44,15,27,68,,153,116,26,20,7,6,0.5,0.5
2025-08-01T0000,1616A,117.6795,36.229,济南市,技术学院,,22,9,23,7,15,70,,82,73,10,13,6,7,0.4,0.5
2025-08-01T0000,1961A,117.532,36.6868,济南市,东山小学,,32,32,41,15,22,56,,140,92,21,18,7,6,0.3,0.3
2025-08-01T0000,3059A,117.7161,36.2049,济南市,泰兴公司,,20,,22,14,16,49,,73,60,13,9,8,8,0.4,0.4
2025-08-01T0000,3064A,117.6867,36.2171,济南市,莱芜战役纪念馆,,19,17,27,10,19,59,,74,64,10,11,4,4,0.8,0.7
2025-08-01T0000,3494A,117.1673,36.9782,济南市,济阳区政府,,32,32,36,17,20,66,,129,107,7,9,8,7,0.3,0.3
2025-08-01T0000,3495A,117.1171,36.63,济南市,锦屏中学,,39,39,38,22,21,71,,160,124,22,13,6,6,0.8,0.8
2025-08-01T0000,3682A,116.9814,36.6819,济南市,济南四建,,39,39,42,22,28,61,,149,123,23,19,8,7,0.6,0.6
2025-08-01T0000,1653A,116.6251,35.4302,济宁市,火炬城,,23,23,35,3,17,46,,110,70,10,12,4,5,0.4,0.5
2025-08-01T0000,1655A,116.5491,35.4042,济宁市,电化厂,,22,22,35,9,17,57,,116,78,9,10,2,4,0.5,0.6
2025-08-01T0000,3500A,116.5814,35.3707,济宁市,北湖一中,,19,14,32,8,17,60,,119,75,4,10,1,3,0.2,0.3
2025-08-01T0000,3501A,116.8249,35.5593,济宁市,服务中心,,28,28,34,3,12,51,,107,71,14,13,3,2,0.3,0.4
2025-08-01T0000,3678A,116.5907,35.4054,济宁市,市第七中学,,18,18,33,3,11,55,,109,71,7,10,3,4,0.2,0.4
2025-08-01T0000,2255A,130.2751,46.8028,佳木斯市,佳纺,,18,18,17,9,8,22,,83,45,33,15,8,8,0.5,0.5
2025-08-01T0000,2256A,130.3995,46.8307,佳木斯市,发电厂,,17,17,15,9,7,48,,88,68,19,12,6,6,0.4,0.4
2025-08-01T0000,2257A,130.3258,46.7975,佳木斯市,环保局,,17,17,15,9,8,36,,85,58,28,13,11,10,0.4,0.5
2025-08-01T0000,2258A,130.3648,46.8032,佳木斯市,十一中,,21,21,19,10,10,37,,83,59,27,13,9,6,0.5,0.4
2025-08-01T0000,2259A,130.3794,46.7588,佳木斯市,四丰,,,,,,,,,,,21,10,383,28,0.4,0.4
2025-08-01T0000,1252A,120.7436,30.778,嘉兴市,清河小学,,32,32,21,14,7,39,,72,55,19,13,4,4,1.0,1
2025-08-01T0000,1253A,120.726,30.7478,嘉兴市,嘉兴学院,,22,22,10,15,9,42,,75,54,16,15,4,4,0.5,0.5
2025-08-01T0000,2872A,120.7846,30.7525,嘉兴市,南湖区残联,,23,23,18,16,11,44,,77,59,16,12,6,5,0.6,0.6
2025-08-01T0000,3407A,120.6916,30.7739,嘉兴市,秀洲住建,,28,28,14,18,9,32,,72,50,26,16,5,4,0.7,0.7
2025-08-01T0000,1945A,98.2908,39.7711,嘉峪关市,气象局,,30,22,32,19,19,95,,118,112,8,9,4,6,0.8,0.8
2025-08-01T0000,2884A,98.2672,39.7978,嘉峪关市,酒钢宾馆,,34,34,37,17,21,99,,124,118,13,11,7,11,1.1,0.9
2025-08-01T0000,3248A,98.2643,39.7724,嘉峪关市,雄关区,,38,38,36,12,16,93,,113,108,11,14,7,8,0.4,0.5
2025-08-01T0000,1383A,113.1064,22.6058,江门市,北街,,23,22,32,16,20,46,,79,51,21,15,3,3,0.5,0.6
2025-08-01T0000,1384A,113.0731,22.5835,江门市,西区,,28,28,27,15,14,43,,84,58,24,16,6,6,0.4,0.4
2025-08-01T0000,1385A,113.0219,22.5311,江门市,圭峰西,,29,29,32,11,18,54,,78,55,10,11,4,5,0.4,0.5
2025-08-01T0000,1386A,113.0828,22.5947,江门市,东湖,,22,21,25,15,17,42,,72,54,21,14,6,6,0.4,0.5
2025-08-01T0000,3311A,113.1075,22.5647,江门市,江海富民,,33,33,37,22,20,46,,85,59,19,16,8,8,0.2,0.3
2025-08-01T0000,3449A,113.05,22.4667,江门市,新会银湖,,32,24,26,22,18,8,,70,38,39,19,4,4,0.6,0.5
2025-08-01T0000,1830A,113.1992,35.2590,焦作市,影视城,,,,18,,10,,,,,,2,,9,,0.5
2025-08-01T0000,3335A,113.3137,35.2641,焦作市,马村街道办,,37,37,41,16,23,109,,162,128,9,13,3,5,0.5,0.6
2025-08-01T0000,3336A,113.2465,35.2373,焦作市,焦作技师学院,,34,34,39,7,14,106,,158,131,11,12,3,2,0.8,0.9
2025-08-01T0000,3477A,113.1656,35.2539,焦作市,中站许衡医院,,45,38,35,31,24,105,,168,137,14,12,7,7,0.5,0.6
2025-08-01T0000,3981A,113.2449,35.1803,焦作市,原李万街道办,,34,34,41,7,16,106,,158,129,12,16,12,9,0.9,0.8
2025-08-01T0000,4264A,113.2340,35.2190,焦作市,新安路1731号,,35,31,40,13,16,110,,168,134,8,8,3,4,0.4,0.5
2025-08-01T0000,4295A,113.2722,35.2121,焦作市,人民路3066号,,32,30,43,14,21,101,,159,124,10,9,5,5,0.5,0.6
2025-08-01T0000,1708A,116.3701,23.5345,揭阳市,新兴,,29,25,24,20,16,62,,102,71,10,9,5,4,0.6,0.6
2025-08-01T0000,1709A,116.3264,23.5443,揭阳市,西马,,34,34,29,18,14,58,,95,65,12,11,3,3,0.4,0.4
2025-08-01T0000,1710A,116.3611,23.5626,揭阳市,东兴,,23,16,25,16,13,51,,90,61,14,10,4,3,0.4,0.3
2025-08-01T0000,1711A,116.4151,23.5294,揭阳市,渔湖,,23,19,28,16,9,58,,95,71,9,6,7,8,0.5,0.7
2025-08-01T0000,3320A,116.403,23.5699,揭阳市,曲溪,,20,18,22,14,13,50,,103,69,17,11,6,4,0.5,0.5
2025-08-01T0000,1944A,102.1692,38.5167,金昌市,天庆家园,,46,46,40,29,34,75,,88,82,9,8,9,4,0.8,0.9
2025-08-01T0000,4022A,102.1647,38.5371,金昌市,金川区人防中心,,45,45,53,29,35,64,,94,81,11,9,7,6,0.5,0.6
2025-08-01T0000,4239A,102.1930,38.5319,金昌市,长春路96号,颗粒物(PM10),52,54,47,27,31,65,,88,80,14,7,8,8,0.6,0.7
2025-08-01T0000,1262A,119.647,29.077,金华市,十五中,,37,37,25,16,10,30,,81,45,24,16,3,4,0.2,0.2
2025-08-01T0000,1263A,119.686,29.1029,金华市,监测站,,40,40,25,20,12,24,,77,42,20,15,3,5,0.4,0.4
2025-08-01T0000,3659A,119.656,29.1131,金华市,气象局,,38,38,24,18,10,22,,69,39,20,15,4,5,0.5,0.5
2025-08-01T0000,1767A,121.1115,41.0879,锦州市,南山,,36,36,27,22,14,24,,112,70,39,18,4,5,0.7,0.6
2025-08-01T0000,1768A,121.0604,40.8428,锦州市,开发区,颗粒物(PM10),62,74,46,18,19,24,,128,68,79,33,8,26,0.7,1
2025-08-01T0000,1769A,121.1836,41.1119,锦州市,百股街道,,36,36,26,9,9,27,,107,58,31,19,7,9,0.7,0.7
2025-08-01T0000,1770A,121.1178,41.1222,锦州市,天安街道,颗粒物(PM10),60,69,32,22,17,4,,126,74,67,29,11,8,1.1,0.7
2025-08-01T0000,1771A,121.1303,41.1386,锦州市,北湖公园,,42,42,27,18,13,33,,109,80,28,16,6,6,0.8,0.6
2025-08-01T0000,2160A,112.85,35.5051,晋城市,自来水公司,,49,49,49,17,19,132,,168,158,11,12,1,1,0.5,0.5
2025-08-01T0000,2161A,112.8318,35.4936,晋城市,白云商贸,,47,47,37,12,13,122,,160,150,11,11,3,3,0.5,0.5
2025-08-01T0000,2162A,112.8508,35.4887,晋城市,市环保局,颗粒物(PM10),51,52,47,19,18,117,,153,142,6,7,1,1,0.4,0.5
2025-08-01T0000,2163A,112.8676,35.4897,晋城市,技术学院,颗粒物(PM10),58,65,36,12,14,114,,149,140,10,11,3,3,0.6,0.6
2025-08-01T0000,2165A,112.8453,35.546,晋城市,白马寺,,41,28,25,21,21,131,,167,156,3,3,6,6,0.6,0.6
2025-08-01T0000,3620A,112.8271,35.4828,晋城市,泽州一中,,37,26,36,17,17,116,,168,155,10,8,5,4,0.4,0.4
2025-08-01T0000,2173A,112.7249,37.7067,晋中市,南都小区,颗粒物(PM10),52,53,42,27,23,102,,150,128,7,7,2,3,0.5,0.5
2025-08-01T0000,2174A,112.6991,37.6982,晋中市,榆次区政府,,48,48,43,23,20,106,,152,131,4,4,7,8,0.8,0.8
2025-08-01T0000,2865A,112.7195,37.6828,晋中市,榆次三中,,41,41,37,27,20,104,,152,129,5,4,7,8,0.7,0.6
2025-08-01T0000,4200A,112.7478,37.6954,晋中市,迎宾街26号,,41,41,39,22,19,106,,157,132,7,6,5,6,0.7,0.7
2025-08-01T0000,2439A,112.2014,31.0481,荆门市,竹园小学,颗粒物(PM10),54,58,42,26,21,131,,148,134,8,11,3,2,0.7,0.5
2025-08-01T0000,2440A,112.1969,30.9891,荆门市,掇刀,,48,36,34,18,19,151,,158,150,5,8,5,8,0.8,0.7
2025-08-01T0000,2441A,112.2213,31.0386,荆门市,石化一小,,42,37,40,7,19,133,,156,,12,9,6,6,1.0,0.8
2025-08-01T0000,3012A,112.1849,31.0362,荆门市,西山林语,,50,39,34,25,21,157,,153,147,3,6,8,8,0.6,0.5
2025-08-01T0000,3547A,112.1632,31.0138,荆门市,龙泉中学南校,,40,37,25,22,20,127,,155,146,3,7,3,4,0.7,0.7
2025-08-01T0000,1844A,112.2494,30.3197,荆州市,市图书馆,,32,25,25,22,16,86,,140,120,22,9,3,3,0.5,0.5
2025-08-01T0000,1845A,112.2008,30.3544,荆州市,市委党校,,35,35,29,23,20,98,,140,124,18,13,8,10,0.5,0.6
2025-08-01T0000,3194A,112.2747,30.3122,荆州市,管委会,,38,32,24,26,13,96,,136,119,18,12,8,7,0.7,0.6
2025-08-01T0000,4268A,112.1722,30.3366,荆州市,学苑路85号,,38,38,23,25,21,87,,144,113,19,13,6,5,0.3,0.3
2025-08-01T0000,2342A,117.3102,29.3867,景德镇市,王港中学,,,,,,,,,,,,,,,,
2025-08-01T0000,2343A,117.2117,29.2933,景德镇市,老干部活动中心,,23,18,19,16,10,22,,70,54,25,11,21,9,0.6,0.4
2025-08-01T0000,2344A,117.1894,29.2789,景德镇市,兽医站,,35,35,26,18,9,24,,76,55,24,13,15,10,0.6,0.5
2025-08-01T0000,2346A,117.2461,29.2956,景德镇市,陶研所,,26,24,23,18,13,38,,68,50,11,13,5,6,0.7,0.6
2025-08-01T0000,4289A,117.1542,29.2566,景德镇市,青少年活动中心,,28,28,24,16,13,29,,74,47,18,18,26,17,0.6,0.5
2025-08-01T0000,1803A,115.9872,29.6815,九江市,十里,,33,,15,23,15,48,,67,56,30,13,9,6,0.7,0.5
2025-08-01T0000,1804A,115.9584,29.7046,九江市,茅山头,,28,28,19,16,9,40,,62,48,29,12,4,4,0.4,0.4
2025-08-01T0000,1805A,115.9877,29.7295,九江市,西园,,26,26,18,12,9,61,,68,68,24,17,7,9,0.6,0.6
2025-08-01T0000,1808A,115.9114,29.6038,九江市,综合工业园,,23,20,16,16,7,20,,74,50,46,21,7,8,0.6,0.5
2025-08-01T0000,1809A,116.0721,29.7535,九江市,石化总厂,,42,,18,29,20,56,,56,51,16,18,8,9,0.5,0.5
2025-08-01T0000,1810A,115.9773,29.5698,九江市,庐山气象台,,26,15,11,6,6,82,,74,74,5,4,7,6,1.2,0.9
2025-08-01T0000,3190A,116.0254,29.6994,九江市,外国语学校,,26,25,18,18,12,64,,66,57,19,15,3,10,0.5,0.4
2025-08-01T0000,4253A,116.0102,29.6594,九江市,莲花大道8号,,29,29,15,10,10,77,,67,59,2,4,6,5,0.5,0.5
2025-08-01T0000,4240A,98.4958,39.7339,酒泉市,玉门东路5号,,40,31,36,28,31,89,,116,113,7,8,6,8,0.2,0.2
2025-08-01T0000,4241A,98.5099,39.7506,酒泉市,北大街108号,,43,,36,30,22,83,,111,106,7,6,7,10,0.1,0.1
2025-08-01T0000,2698A,76.0072,39.4467,喀什地区,巡警大队,颗粒物(PM10),80,109,93,17,21,69,,106,94,40,24,3,3,0.6,0.5
2025-08-01T0000,2699A,75.9755,39.4694,喀什地区,吾办,颗粒物(PM10),72,93,100,31,32,80,,109,98,26,21,7,6,0.5,0.4
2025-08-01T0000,4027A,75.9483,39.4689,喀什地区,老干局,颗粒物(PM10),67,84,87,23,26,66,,106,92,23,18,4,5,0.9,0.7
2025-08-01T0000,1824A,114.3389,34.7781,开封市,肿瘤医院,,43,43,40,23,21,119,,169,144,15,13,5,9,0.4,0.4
2025-08-01T0000,1826A,114.2885,34.7965,开封市,世纪星幼儿园,,,,52,,39,,,132,,,13,,5,,0.7
2025-08-01T0000,3147A,114.3438,34.8106,开封市,龙亭公园,颗粒物(PM10),55,59,42,27,32,101,,160,128,16,11,5,5,0.4,0.5
2025-08-01T0000,3210A,114.3644,34.7964,开封市,汴京公园,,40,40,41,25,25,110,,159,136,11,9,4,5,0.5,0.6
2025-08-01T0000,3473A,114.2485,34.8306,开封市,技师学院,,31,28,36,13,33,97,,154,122,13,11,5,5,0.7,0.8
2025-08-01T0000,3592A,114.4644,34.7556,开封市,祥符区生态环境局,,35,33,40,24,26,92,,154,122,17,18,5,6,0.5,0.6
2025-08-01T0000,1951A,84.895,45.6094,克拉玛依市,长征新村,颗粒物(PM10),57,63,25,18,9,80,,117,100,3,5,4,4,0.3,0.3
2025-08-01T0000,1952A,84.8988,45.5893,克拉玛依市,南林小区,颗粒物(PM10),63,76,26,9,9,84,,120,99,1,6,1,1,0.1,0.2
2025-08-01T0000,1954A,84.905,44.3396,克拉玛依市,独山子区,颗粒物(PM10),65,80,33,21,12,87,,121,98,6,11,8,10,0.5,0.6
2025-08-01T0000,1955A,85.6979,46.098,克拉玛依市,乌尔禾区商贸楼,颗粒物(PM10),113,175,30,51,10,78,,113,98,,5,6,6,0.2,0.4
2025-08-01T0000,3612A,85.1045,45.6899,克拉玛依市,白碱滩区新站,颗粒物(PM10),61,71,36,30,18,92,,112,104,2,3,9,9,0.0,0.4
2025-08-01T0000,2697A,76.1454,39.7142,克孜勒苏柯尔克孜自治州,市人民政府,颗粒物(PM10),61,72,77,25,23,74,,116,106,28,14,5,3,0.3,0.1
2025-08-01T0000,3665A,76.1658,39.7157,克孜勒苏柯尔克孜自治州,克州文化中心,颗粒物(PM10),60,70,79,21,31,73,,117,108,35,10,6,5,0.6,0.4
2025-08-01T0000,1450A,102.8204,24.8886,昆明市,呈贡新区,,25,,11,17,13,37,,112,87,28,14,8,4,0.5,0.4
2025-08-01T0000,1451A,102.6251,24.9608,昆明市,西山森林公园,,,,,,,,,,,,,,,,
2025-08-01T0000,1452A,102.7252,25.0902,昆明市,龙泉镇,,23,23,18,8,8,22,,108,72,33,15,1,2,0.5,0.5
2025-08-01T0000,1453A,102.7266,25.0375,昆明市,东风东路,,,14,20,9,13,54,,109,83,,16,7,4,0.4,0.5
2025-08-01T0000,1454A,102.6742,25.0669,昆明市,金鼎山,,17,12,21,6,8,54,,101,75,8,10,2,2,0.3,0.4
2025-08-01T0000,1455A,102.6644,25.0401,昆明市,碧鸡广场,,16,16,18,10,9,47,,94,70,15,14,8,7,0.4,0.5
2025-08-01T0000,3179A,102.7494,25.0119,昆明市,官渡区博物馆,,25,25,19,13,10,34,,112,83,25,17,4,3,0.5,0.5
2025-08-01T0000,3375A,102.8017,24.8336,昆明市,青年创业园,,28,28,14,17,10,7,,105,69,44,14,6,3,0.5,0.4
2025-08-01T0000,3550A,102.7997,24.9786,昆明市,昆明学院,,33,32,23,23,16,11,,111,78,54,20,7,6,0.4,0.4
2025-08-01T0000,3551A,102.5967,24.6736,昆明市,晋宁区生态环境分局,,25,25,14,3,9,46,,89,67,7,7,2,2,0.5,0.5
2025-08-01T0000,3552A,102.6678,24.9856,昆明市,云天化总部,,16,16,17,10,12,46,,99,78,20,14,8,6,0.5,0.5
2025-08-01T0000,1456A,91.1319,29.6514,拉萨市,八廓街,,20,17,12,7,8,62,,104,89,18,12,6,6,0.4,0.4
2025-08-01T0000,1457A,91.1221,29.6747,拉萨市,市环保局,,23,10,11,8,8,73,,106,95,9,11,6,7,0.2,0.3
2025-08-01T0000,1458A,91.0874,29.6475,拉萨市,区监测站,,21,10,9,7,6,65,,94,84,15,14,4,4,0.3,0.3
2025-08-01T0000,1459A,91.1774,29.6541,拉萨市,西藏大学,,19,16,10,8,7,60,,98,86,18,14,5,5,0.2,0.3
2025-08-01T0000,1460A,90.9798,29.6588,拉萨市,区辐射站,,20,17,16,9,8,61,,89,79,12,14,5,5,0.3,0.4
2025-08-01T0000,1461A,91.0834,29.6292,拉萨市,拉萨火车站,,17,12,9,7,6,52,,93,84,24,11,5,5,0.4,0.2
2025-08-01T0000,2520A,109.2203,23.7256,来宾市,来宾技工学校,,20,12,16,6,8,61,,91,67,8,7,6,9,0.6,0.6
2025-08-01T0000,3535A,109.1781,23.7297,来宾市,兴宾区政府,,17,14,14,6,9,52,,95,62,7,6,5,6,0.9,0.9
2025-08-01T0000,4002A,109.2416,23.7461,来宾市,中南小学,,24,18,16,3,9,74,,98,75,8,7,3,3,0.6,0.6
2025-08-01T0000,1477A,104.1373,35.9454,兰州市,榆中兰大校区,,,,,,,,,,,,,,,,
2025-08-01T0000,1479A,103.831,36.0464,兰州市,铁路设计院,,43,43,78,25,33,84,,100,92,22,20,12,10,0.5,0.4
2025-08-01T0000,3241A,103.7439,36.0842,兰州市,百合公园,,50,50,83,25,33,81,,103,97,13,9,4,4,0.2,0.4
2025-08-01T0000,3242A,103.9611,35.998,兰州市,和平,,38,38,54,19,24,83,,99,95,10,8,12,12,0.6,0.5
2025-08-01T0000,4236A,103.6293,36.0938,兰州市,庄浪东路808号,颗粒物(PM10),60,69,95,36,36,72,,103,86,18,19,13,13,0.4,0.4
2025-08-01T0000,4237A,103.7251,36.1043,兰州市,安宁西路88号,,38,38,91,26,35,99,,117,112,1,2,5,7,0.4,0.3
2025-08-01T0000,4238A,103.8470,36.0676,兰州市,北滨河东路1号,,45,45,83,30,38,71,,109,98,27,15,9,9,0.5,0.5
2025-08-01T0000,3245A,103.6633,36.533,兰州新区,新区管委会,,43,43,88,22,44,46,,123,88,28,9,10,13,0.5,0.3
2025-08-01T0000,3246A,103.6975,36.4789,兰州新区,舟曲中学,,,,,,,,,,,,,,,,
2025-08-01T0000,1067A,116.6708,39.5111,廊坊市,药材公司,颗粒物(PM10),56,62,38,28,19,109,,157,136,13,17,7,7,0.9,0.6
2025-08-01T0000,1068A,116.7214,39.5589,廊坊市,开发区,颗粒物(PM10),52,54,44,33,20,59,,143,107,24,20,1,3,0.8,0.6
2025-08-01T0000,1070A,116.7244,39.5269,廊坊市,北华航天学院,颗粒物(PM10),68,85,57,36,23,74,,154,118,24,19,6,8,0.9,0.7
2025-08-01T0000,2919A,116.7022,39.5453,廊坊市,河北工业大学,颗粒物(PM10),65,79,54,33,19,86,,152,128,30,20,7,8,0.9,0.6
2025-08-01T0000,2535A,103.7723,29.5462,乐山市,花湖湾,,,,32,,23,,,114,,,11,,5,,0.9
2025-08-01T0000,2536A,103.7627,29.5844,乐山市,牛耳桥,,35,34,30,24,22,46,,142,111,38,14,5,5,0.9,0.8
2025-08-01T0000,2537A,103.7508,29.6006,乐山市,市第三水厂,,39,39,34,27,24,44,,136,110,31,14,3,4,0.8,0.7
2025-08-01T0000,2538A,103.7571,29.5664,乐山市,市监测站,,46,46,38,28,24,49,,123,101,28,13,7,6,1.1,0.8
2025-08-01T0000,3361A,103.7311,29.5628,乐山市,理工大学,,48,48,34,28,26,53,,136,98,30,14,10,8,1.2,0.8
2025-08-01T0000,2598A,100.2143,26.8576,丽江市,西南郊,,16,16,9,7,7,37,,83,61,15,7,6,6,0.8,0.7
2025-08-01T0000,2599A,100.2497,26.8802,丽江市,丽江古城,,27,27,15,13,6,38,,81,65,14,11,9,9,0.6,0.5
2025-08-01T0000,2600A,100.2203,26.8906,丽江市,市中心,,23,,9,16,9,49,,79,59,14,13,8,8,0.6,0.5
2025-08-01T0000,1267A,119.914,28.4514,丽水市,监测站大楼,,36,36,20,9,7,25,,73,66,23,13,7,4,0.5,0.3
2025-08-01T0000,1268A,119.93,28.4586,丽水市,莲都小学,,33,33,23,13,7,50,,74,70,18,13,3,4,0.4,0.3
2025-08-01T0000,1269A,119.879,28.4231,丽水市,余庄前,,35,32,19,24,10,8,,68,30,11,7,3,4,0.4,0.3
2025-08-01T0000,1173A,119.176,34.5885,连云港市,市环境监测站,,19,19,17,3,8,55,,73,66,4,4,2,3,0.4,0.4
2025-08-01T0000,3000A,119.3581,34.6972,连云港市,德源药业,,17,17,17,3,3,46,,66,55,6,7,2,2,0.6,0.6
2025-08-01T0000,3007A,119.178,34.844,连云港市,新城一中,,20,20,18,8,10,44,,69,54,3,3,3,4,0.6,0.6
2025-08-01T0000,3008A,119.3608,34.7519,连云港市,胡沟管理处,,19,19,16,3,4,36,,69,51,15,7,5,5,0.6,0.6
2025-08-01T0000,3009A,119.1478,34.5911,连云港市,矿山设计院,,19,19,17,9,8,52,,75,64,5,5,1,2,0.5,0.5
2025-08-01T0000,3434A,119.2413,34.6539,连云港市,工贸学校,,19,19,20,11,13,56,,70,67,4,5,5,6,0.6,0.6
2025-08-01T0000,3664A,119.4172,34.7341,连云港市,连云街道,,27,27,27,10,12,44,,72,51,5,8,2,2,0.5,0.5
2025-08-01T0000,2571A,102.3431,27.8099,凉山彝族自治州,青龙寺,,23,23,12,6,6,57,,112,88,6,3,4,6,0.2,1.5
2025-08-01T0000,2572A,102.2721,27.8415,凉山彝族自治州,邛海宾馆,,24,24,15,13,10,50,,124,93,28,11,9,9,0.5,0.6
2025-08-01T0000,2573A,102.2625,27.898,凉山彝族自治州,西昌市政府,,22,17,16,13,11,69,,127,106,6,7,7,8,0.5,0.5
2025-08-01T0000,2574A,102.2685,27.8851,凉山彝族自治州,凉山州政府,,23,23,16,15,12,68,,130,110,17,17,8,11,0.8,0.8
2025-08-01T0000,4229A,102.2342,27.8859,凉山彝族自治州,凯乐南路30号,,26,26,21,18,9,63,,130,98,25,14,9,10,0.8,0.7
2025-08-01T0000,2212A,123.2,41.1953,辽阳市,宏伟区,,34,27,37,23,21,107,,152,121,7,14,2,3,1.0,1.1
2025-08-01T0000,2213A,123.1683,41.2495,辽阳市,新华园,,39,38,52,27,21,91,,167,114,23,18,6,10,1.0,1.2
2025-08-01T0000,2214A,123.2354,41.2639,辽阳市,滨河路,颗粒物(PM10),53,55,57,20,19,61,,135,80,18,24,2,3,1.0,1.1
2025-08-01T0000,2215A,123.149,41.2991,辽阳市,铁西工业园,,39,39,47,26,20,44,,118,64,40,28,3,5,1.0,1.4
2025-08-01T0000,2227A,125.1358,42.8845,辽源市,环保局,,33,33,30,11,6,27,,98,62,27,13,6,6,0.4,0.4
2025-08-01T0000,3239A,125.0764,42.9078,辽源市,银鹰制药,,27,27,17,16,10,6,,97,46,29,16,8,9,0.5,0.5
2025-08-01T0000,1625A,115.9848,36.4372,聊城市,区政府,,33,33,36,22,23,98,,132,112,15,13,8,10,0.7,0.8
2025-08-01T0000,2878A,116.0072,36.4343,聊城市,聊大东校,,36,36,40,20,23,101,,138,115,16,14,8,8,0.7,0.8
2025-08-01T0000,3200A,115.9819,36.4978,聊城市,监控中心,,27,27,19,17,18,76,,129,100,23,13,9,8,0.8,0.8
2025-08-01T0000,3513A,116.0445,36.4361,聊城市,九州社区,,41,41,43,24,23,96,,132,109,15,14,4,5,0.3,0.4
2025-08-01T0000,4018A,116.0567,36.4608,聊城市,星美广场,,36,36,42,22,23,88,,122,95,16,17,3,4,0.5,0.7
2025-08-01T0000,2632A,94.3681,29.6376,林芝市,林芝监测站,,13,6,8,3,4,40,,61,,1,6,4,5,0.3,0.3
2025-08-01T0000,2633A,94.3616,29.6616,林芝市,林芝人民医院,,14,6,10,3,4,42,,63,50,1,3,4,4,0.3,0.4
2025-08-01T0000,2603A,100.0781,23.8982,临沧市,市环保局,,32,,14,22,14,12,,38,23,7,6,6,7,0.5,0.4
2025-08-01T0000,2604A,100.0894,23.8822,临沧市,市气象局,,15,13,13,10,10,17,,36,24,8,7,9,10,0.4,0.4
2025-08-01T0000,1733A,111.5531,36.0783,临汾市,临钢医院,,44,44,35,14,10,120,,157,137,12,11,4,4,0.8,0.7
2025-08-01T0000,1734A,111.5028,36.0714,临汾市,技工学校,细颗粒物(PM2.5),52,50,39,36,22,108,,157,134,16,9,8,6,0.7,0.6
2025-08-01T0000,1736A,111.5018,36.0855,临汾市,市委,颗粒物(PM10),64,77,44,15,10,122,,181,150,18,10,8,6,0.7,0.5
2025-08-01T0000,3018A,111.505,36.1014,临汾市,唐尧大酒店,颗粒物(PM10),59,67,48,22,12,95,,161,130,28,12,5,5,0.8,0.6
2025-08-01T0000,4244A,111.4879,36.0530,临汾市,启星学校,,42,42,34,29,24,121,,166,140,14,11,7,7,0.9,0.7
2025-08-01T0000,4271A,103.2464,35.6123,临夏回族自治州,滨河东路1号,颗粒物(PM10),85,120,94,58,38,17,,78,52,38,19,6,7,0.6,0.4
2025-08-01T0000,4310A,103.2093,35.5995,临夏回族自治州,新华街21号,细颗粒物(PM2.5),79,99,98,58,43,39,,96,71,24,16,6,7,0.6,0.4
2025-08-01T0000,1618A,118.3429,35.0532,临沂市,沂河小区,,22,22,23,13,17,37,,62,44,12,14,8,8,0.3,0.3
2025-08-01T0000,1619A,118.295,35.0583,临沂市,鲁南制药厂,,16,14,16,11,15,40,,68,49,10,11,8,9,0.5,0.5
2025-08-01T0000,1620A,118.2794,34.9976,临沂市,新光毛纺厂,,18,14,12,12,13,46,,70,53,9,11,7,7,0.6,0.5
2025-08-01T0000,1621A,118.3956,35.0888,临沂市,河东保险公司,,11,9,19,3,7,35,,60,43,11,14,6,6,0.4,0.5
2025-08-01T0000,3370A,118.3564,35.0215,临沂市,十里堡居委,,18,12,16,12,11,39,,66,46,10,13,9,10,0.5,0.4
2025-08-01T0000,3496A,118.3604,35.1084,临沂市,南坊新区,,19,19,21,3,8,30,,61,40,14,14,9,10,0.3,0.4
2025-08-01T0000,3860A,118.3920,35.0300,临沂市,皇山花园小区,,19,19,18,11,14,37,,61,46,12,16,8,10,0.5,0.4
2025-08-01T0000,1870A,109.4856,24.3895,柳州市,柳东小学,,27,17,26,10,14,84,,102,100,1,6,1,3,0.4,0.5
2025-08-01T0000,1871A,109.4157,24.3277,柳州市,环保监测站,,,5,25,,15,92,,107,102,3,8,6,8,0.5,0.6
2025-08-01T0000,1872A,109.389,24.341,柳州市,河西水厂,,,,29,0,15,90,,108,99,6,12,5,7,0.9,1.1
2025-08-01T0000,1873A,109.4311,24.2921,柳州市,市四中,,29,,28,9,20,91,,108,95,6,11,6,6,0.7,0.8
2025-08-01T0000,1874A,109.4006,24.3631,柳州市,市九中,细颗粒物(PM2.5),100,,33,75,17,91,,104,98,4,11,2,4,0.1,0.4
2025-08-01T0000,1875A,109.4958,24.3134,柳州市,古亭山,,26,,32,3,14,81,,102,89,8,11,4,6,0.5,0.6
2025-08-01T0000,3402A,109.5422,24.3996,柳州市,市二中,,,,29,4,14,86,,110,102,7,12,5,9,0.7,0.8
2025-08-01T0000,2307A,116.5079,31.737,六安市,监测大楼,,18,14,17,12,14,53,,72,68,6,5,3,3,0.3,0.3
2025-08-01T0000,2308A,116.4738,31.7643,六安市,皖西学院,,19,19,19,10,11,54,,74,69,8,6,3,2,0.3,0.3
2025-08-01T0000,2309A,116.4996,31.7905,六安市,朝阳厂,,17,17,12,9,14,48,,67,62,8,9,4,4,0.3,0.3
2025-08-01T0000,2310A,116.5567,31.7886,六安市,开发区,,15,,9,10,15,47,,70,64,7,7,3,3,0.4,0.4
2025-08-01T0000,2576A,104.8,26.5892,六盘水市,窑上,,40,40,29,7,8,25,,105,57,4,5,1,3,0.4,0.6
2025-08-01T0000,2577A,104.83,26.5917,六盘水市,黄土坡,,20,20,23,8,15,23,,108,54,18,15,8,12,0.4,0.6
2025-08-01T0000,2578A,104.89,26.5939,六盘水市,水钢,细颗粒物(PM2.5),78,64,50,57,29,55,,108,81,26,18,9,10,0.6,0.7
2025-08-01T0000,2579A,104.8475,26.5894,六盘水市,民中,,34,34,28,19,15,24,,106,58,25,22,9,12,0.7,0.8
2025-08-01T0000,2580A,104.9544,26.5506,六盘水市,双水,,22,22,24,13,13,65,,106,87,10,13,6,8,0.5,0.6
2025-08-01T0000,2335A,117.0189,25.1181,龙岩市,龙岩师专,,,,,,,,,,,,,,,,
2025-08-01T0000,2336A,117.0217,25.1033,龙岩市,龙岩市监测站,,25,,23,8,13,77,,84,71,5,10,3,5,0.4,0.4
2025-08-01T0000,2337A,117.0258,25.0661,龙岩市,闽西职业技术学院,,21,14,23,10,10,67,,73,64,5,8,3,7,0.5,0.5
2025-08-01T0000,2338A,117.0196,25.0306,龙岩市,龙岩学院,,16,16,19,8,11,49,,71,60,9,5,4,5,0.5,0.5
2025-08-01T0000,2665A,105.0822,33.3261,陇南市,汉王镇固水子,,,,,,,,,,,,,,,,
2025-08-01T0000,2885A,104.9339,33.3826,陇南市,滨江中学,,49,49,36,33,18,114,,129,126,3,5,6,7,0.5,0.5
2025-08-01T0000,3247A,104.955,33.371,陇南市,市总工会,,50,50,39,22,17,121,,138,136,2,4,5,5,0.4,0.4
2025-08-01T0000,2487A,111.9589,27.8901,娄底市,电视发射台,,42,42,41,13,12,24,,66,50,4,4,6,6,0.4,0.4
2025-08-01T0000,2488A,111.9975,27.725,娄底市,市监测站,,38,37,38,26,22,41,,98,88,36,18,9,7,1.1,1
2025-08-01T0000,2489A,112.0194,27.7314,娄底市,市委党校,颗粒物(PM10),54,57,37,33,20,46,,113,94,25,17,1,6,0.5,0.7
2025-08-01T0000,2490A,111.9561,27.7569,娄底市,涟钢,,49,49,34,30,19,37,,88,70,8,14,13,13,1.2,1.5
2025-08-01T0000,2491A,111.9892,27.7044,娄底市,市政府,,40,40,30,23,17,25,,106,74,6,5,5,6,0.8,0.8
2025-08-01T0000,1893A,105.4324,28.9634,泸州市,九狮山,,39,28,30,27,23,33,,126,72,23,11,3,4,0.3,0.2
2025-08-01T0000,1894A,105.4427,28.9063,泸州市,小市上码头,,31,31,28,18,14,40,,91,70,17,8,3,4,0.6,0.5
2025-08-01T0000,1895A,105.4241,28.8573,泸州市,兰田宪桥,,42,42,28,23,13,36,,99,74,20,11,7,7,0.4,0.3
2025-08-01T0000,1896A,105.4379,28.8833,泸州市,市环监站,,,26,25,17,15,,,107,93,21,14,9,12,0.2,0.2
2025-08-01T0000,4272A,105.3689,28.7783,泸州市,纳溪中医医院,,42,36,24,29,16,38,,106,76,19,15,3,3,0.5,0.4
2025-08-01T0000,2183A,111.1406,37.5211,吕梁市,环保局,颗粒物(PM10),68,85,56,30,24,58,,144,87,34,26,5,3,0.8,0.7
2025-08-01T0000,2185A,111.1297,37.5136,吕梁市,自来水公司,颗粒物(PM10),57,63,52,32,23,46,,140,93,26,17,6,5,1.0,0.7
2025-08-01T0000,2867A,111.1283,37.51,吕梁市,马茂庄小学,颗粒物(PM10),65,79,50,31,22,47,,136,88,29,20,8,6,0.6,0.6
2025-08-01T0000,1812A,112.3931,34.6516,洛阳市,市委党校,,39,28,32,13,20,122,,159,136,10,10,7,8,0.5,0.5
2025-08-01T0000,1815A,112.494,34.6886,洛阳市,河南林校,,42,42,41,21,20,107,,166,138,21,13,7,8,0.2,0.3
2025-08-01T0000,1816A,112.3844,34.623,洛阳市,开发区管委会,,41,33,30,20,20,131,,172,146,8,9,8,9,0.5,0.6
2025-08-01T0000,1817A,112.4267,34.6258,洛阳市,市委新办公区,,35,35,32,22,22,112,,155,128,11,12,7,8,0.4,0.5
2025-08-01T0000,3340A,112.6005,34.6326,洛阳市,伊滨,,35,28,28,18,20,111,,156,134,14,14,11,9,0.6,0.6
2025-08-01T0000,3341A,112.4951,34.6332,洛阳市,中移产业园,,34,34,38,13,20,107,,158,126,14,12,6,7,0.7,0.8
2025-08-01T0000,3593A,112.5736,34.8993,洛阳市,吉利监测站,,38,30,47,14,21,119,,156,136,9,9,6,7,0.4,0.5
2025-08-01T0000,3635A,112.3677,34.662,洛阳市,河科大西苑校区,,42,37,35,20,17,133,,163,142,6,8,7,9,0.5,0.6
2025-08-01T0000,3636A,112.4388,34.6781,洛阳市,英才小学,,36,35,42,19,20,113,,151,131,13,11,7,8,0.4,0.5
2025-08-01T0000,4214A,112.4600,34.6949,洛阳市,春都路1号院,,36,36,34,13,15,104,,144,122,13,11,6,6,0.5,0.5
2025-08-01T0000,2399A,114.051,33.5699,漯河市,三五一五工厂,,40,39,40,25,26,128,,160,150,10,9,7,6,0.5,0.6
2025-08-01T0000,2400A,114.0055,33.5698,漯河市,漯河大学,,42,40,55,19,24,132,,163,153,14,14,5,5,0.4,0.5
2025-08-01T0000,2401A,114.0138,33.5828,漯河市,市水利局,,39,36,43,24,26,124,,156,146,8,8,5,5,0.4,0.5
2025-08-01T0000,2402A,114.0261,33.5698,漯河市,市广电局,,41,37,41,22,27,131,,166,157,10,10,4,4,0.4,0.4
2025-08-01T0000,3478A,113.9749,33.5664,漯河市,市图书馆,,39,38,42,24,25,124,,163,153,13,9,7,6,0.3,0.4
2025-08-01T0000,4250A,114.0892,33.5882,漯河市,韶山路11号,颗粒物(PM10),77,104,43,32,21,115,,164,,15,12,5,4,0.4,0.5
2025-08-01T0000,1798A,118.5092,31.6837,马鞍山市,湖东路四小,,15,6,17,3,9,46,,37,35,7,16,4,7,0.5,0.8
2025-08-01T0000,1799A,118.5024,31.6449,马鞍山市,开发区,,15,6,13,3,8,48,,40,40,6,15,6,11,0.6,1.1
2025-08-01T0000,1802A,118.6245,31.7241,马鞍山市,濮塘,,,,13,7,7,49,,42,39,4,7,6,6,0.7,0.7
2025-08-01T0000,3633A,118.4918,31.6809,马鞍山市,雨山,,14,12,16,3,9,44,,35,35,8,22,7,18,0.5,1.4
2025-08-01T0000,4191A,118.5274,31.72227,马鞍山市,慈湖高新区,,15,6,13,3,7,46,,38,32,7,12,6,7,0.5,0.6
2025-08-01T0000,1686A,111.0286,21.4688,茂名市,电白南海,,29,29,31,9,15,50,,75,60,11,10,5,8,0.5,0.3
2025-08-01T0000,1687A,110.9294,21.6533,茂名市,茂石化七小,,36,36,29,9,13,55,,72,63,10,7,10,7,0.6,0.5
2025-08-01T0000,1688A,110.9107,21.6687,茂名市,健康路,,27,27,24,9,12,55,,74,65,13,9,12,10,0.5,0.5
2025-08-01T0000,1689A,110.8592,21.6828,茂名市,高岭,,36,36,37,7,8,40,,70,47,21,14,14,16,0.5,0.4
2025-08-01T0000,3450A,111.01,21.5165,茂名市,电白水东,,36,36,24,19,12,51,,75,66,14,12,26,10,0.5,0.5
2025-08-01T0000,2539A,104.0308,30.0478,眉山市,黑龙滩水库,,33,,19,23,17,87,,131,121,6,4,3,3,0.2,0.2
2025-08-01T0000,2540A,103.8416,30.0874,眉山市,气象局,,35,35,40,9,18,110,,157,132,10,16,3,3,0.5,0.6
2025-08-01T0000,3137A,103.8578,30.0744,眉山市,市委党校,,32,19,26,9,16,100,,147,130,12,13,7,9,0.6,0.6
2025-08-01T0000,3148A,103.8291,30.0564,眉山市,区人社局,,37,37,44,3,13,103,,154,132,16,16,12,13,0.7,0.8
2025-08-01T0000,1690A,116.1231,24.3284,梅州市,梅江月梅,,24,24,16,7,7,26,,74,53,17,12,9,9,0.5,0.5
2025-08-01T0000,1691A,116.0797,24.2719,梅州市,梅县新城,,18,18,16,8,9,27,,75,51,13,8,6,6,0.5,0.5
2025-08-01T0000,1692A,116.1248,24.2654,梅州市,环境监控中心,,16,16,21,9,9,22,,75,46,21,14,5,3,0.5,0.5
2025-08-01T0000,3315A,116.1233,24.2991,梅州市,梅龙,,19,19,15,9,7,27,,75,54,17,10,6,6,0.6,0.6
2025-08-01T0000,1878A,104.7778,31.4741,绵阳市,富乐山,,35,35,31,21,21,102,,147,114,9,9,8,8,0.6,0.6
2025-08-01T0000,1880A,104.6697,31.4668,绵阳市,高新区自来水公司,颗粒物(PM10),57,64,41,31,19,73,,133,109,31,19,8,8,0.7,0.6
2025-08-01T0000,1881A,104.7287,31.5075,绵阳市,三水厂,,49,49,38,28,24,54,,150,106,31,20,6,6,0.6,0.4
2025-08-01T0000,3491A,104.69,31.5322,绵阳市,西科大附属小学,颗粒物(PM10),56,61,51,37,32,46,,156,102,46,24,8,8,0.6,0.5
2025-08-01T0000,3492A,104.5648,31.5343,绵阳市,安州区旅游局,,39,39,41,27,20,53,,139,105,15,12,13,9,0.6,0.5
2025-08-01T0000,4226A,104.7651,31.4531,绵阳市,绵阳市气象局,,39,39,32,27,21,119,,138,122,9,11,7,6,0.5,0.5
2025-08-01T0000,1784A,129.61,44.561,牡丹江市,环保大楼,,23,23,19,7,9,30,,94,51,16,14,4,3,0.3,0.3
2025-08-01T0000,1785A,129.6115,44.5782,牡丹江市,文化广场,,23,21,16,16,16,32,,93,51,18,17,8,7,0.5,0.4
2025-08-01T0000,1786A,129.5904,44.5963,牡丹江市,第一医院,,30,21,22,21,19,30,,93,55,22,17,7,7,0.5,0.4
2025-08-01T0000,1787A,129.6364,44.6075,牡丹江市,机车工厂,,27,27,21,13,15,8,,88,47,30,13,5,4,0.5,0.4
2025-08-01T0000,1788A,129.6386,44.5462,牡丹江市,第一中学,,28,,17,19,11,23,,92,42,14,13,5,5,0.2,0.2
2025-08-01T0000,2531A,105.0703,29.61,内江市,市监测站,,35,27,21,24,14,30,,144,107,43,12,3,3,0.7,0.6
2025-08-01T0000,2532A,105.0717,29.5947,内江市,东兴区政府,,25,25,19,11,9,72,,133,112,20,9,8,8,0.6,0.6
2025-08-01T0000,2533A,105.0653,29.5817,内江市,内江二中,,42,36,28,29,19,39,,135,104,32,15,4,5,0.6,0.6
2025-08-01T0000,2534A,105.0406,29.5822,内江市,内江日报社,,35,29,18,24,20,18,,125,92,70,19,8,8,0.5,0.5
2025-08-01T0000,2628A,92.0657,31.4846,那曲市,那曲监测站,,32,18,44,7,16,100,,91,84,8,19,8,8,0.3,0.4
2025-08-01T0000,4243A,92.0515,31.4787,那曲市,那曲市委宣传部,,33,9,24,6,11,105,,101,96,4,14,5,5,0.3,0.3
2025-08-01T0000,1290A,115.8931,28.6843,南昌市,省外办,,25,18,18,17,11,26,,87,62,12,9,6,6,0.7,0.5
2025-08-01T0000,1291A,115.8886,28.7003,南昌市,省林业公司,,14,14,12,7,7,42,,90,65,15,10,3,3,0.5,0.4
2025-08-01T0000,1292A,115.8126,28.7442,南昌市,林科所,,16,14,11,3,2,20,,84,59,32,14,8,8,0.3,0.3
2025-08-01T0000,1294A,115.8518,28.687,南昌市,建工学校,,17,17,16,3,12,35,,90,67,20,14,10,9,0.7,0.4
2025-08-01T0000,1295A,115.8921,28.6424,南昌市,象湖,,13,12,13,3,6,39,,98,71,14,10,8,8,0.7,0.4
2025-08-01T0000,1296A,115.7423,28.7996,南昌市,武术学校,,16,13,13,11,13,23,,77,51,4,3,7,8,0.4,0.4
2025-08-01T0000,3046A,115.9084,28.6062,南昌市,机电学校,,20,20,22,9,8,47,,101,72,4,8,6,5,0.5,0.5
2025-08-01T0000,3690A,115.9721,28.7031,南昌市,外国语学校,,21,21,17,10,8,44,,96,67,12,10,7,6,0.6,0.2
2025-08-01T0000,4192A,115.9316,28.68677,南昌市,南京东路235号,,20,20,22,9,5,36,,87,64,16,10,11,4,1.4,0.5
2025-08-01T0000,1905A,106.056,30.8064,南充市,西山风景区,,,,,,,,,,,,,,,,
2025-08-01T0000,1906A,106.0789,30.8023,南充市,南充市委,,36,36,29,24,21,63,,135,118,25,12,5,6,0.5,0.4
2025-08-01T0000,1907A,106.1031,30.8217,南充市,南充炼油厂,,49,49,35,22,20,75,,134,122,12,10,4,4,0.4,0.3
2025-08-01T0000,4227A,106.1083,30.7884,南充市,梨树横街98号,,42,31,28,29,19,96,,147,136,16,10,4,5,0.2,0.2
2025-08-01T0000,4304A,106.1172,30.843,南充市,清泉寺北路188号,颗粒物(PM10),51,52,33,30,20,82,,144,133,14,10,3,3,0.4,0.3
2025-08-01T0000,4305A,106.067,30.7616,南充市,同庆路1号,,33,33,29,17,19,80,,143,131,21,10,4,5,0.4,0.4
2025-08-01T0000,1151A,118.8086,32.1065,南京市,迈皋桥,,12,,3,3,3,37,,45,45,4,12,4,4,0.4,0.4
2025-08-01T0000,1152A,118.7538,32.0551,南京市,草场门,,11,,6,7,4,33,,39,39,6,8,8,8,0.5,0.5
2025-08-01T0000,1153A,118.7794,32.0745,南京市,山西路,,,2,9,,2,40,,46,46,12,19,3,5,0.4,0.6
2025-08-01T0000,1154A,118.7752,32.0023,南京市,中华门,,10,6,3,3,2,30,,32,32,4,8,8,9,0.6,0.7
2025-08-01T0000,1155A,118.8109,32.0309,南京市,瑞金路,,12,6,3,3,4,37,,40,40,12,18,6,7,0.4,0.3
2025-08-01T0000,1156A,118.7997,32.0754,南京市,玄武湖,,,5,9,,2,36,,37,37,7,10,7,6,0.5,0.5
2025-08-01T0000,1157A,118.6414,32.0931,南京市,浦口,,13,,9,3,3,39,,46,42,9,10,4,4,0.4,0.4
2025-08-01T0000,1158A,118.7356,31.9996,南京市,奥体中心,,12,,6,7,4,38,,44,44,8,12,3,5,0.4,0.4
2025-08-01T0000,1159A,118.9125,32.1028,南京市,仙林大学城,,11,7,9,3,0,35,,47,47,4,6,8,8,0.5,0.6
2025-08-01T0000,3422A,118.8436,31.9198,南京市,江宁彩虹桥,,11,6,8,3,3,33,,39,35,10,12,3,3,0.5,0.6
2025-08-01T0000,3427A,118.8554,32.3578,南京市,六合雄州,,10,10,9,3,3,31,,45,39,14,10,4,3,0.6,0.5
2025-08-01T0000,4249A,118.8708,31.3402,南京市,汶溪路181号,,13,6,5,3,6,40,,46,44,7,9,4,4,0.5,0.5
2025-08-01T0000,4312A,119.019,31.6512,南京市,中山西路1号,,12,,2,3,4,37,,40,40,7,10,4,4,0.5,0.5
2025-08-01T0000,1401A,108.3103,22.7881,南宁市,二十一中,,28,24,32,19,20,13,,122,70,50,18,3,4,0.7,0.6
2025-08-01T0000,1402A,108.3141,22.8528,南宁市,北湖,,40,30,30,28,23,42,,138,86,29,15,10,4,0.5,0.6
2025-08-01T0000,1403A,108.3206,22.8225,南宁市,市监测站,,33,29,31,23,24,26,,131,79,42,19,3,4,0.6,0.5
2025-08-01T0000,1404A,108.3829,22.8037,南宁市,大自然花园,,23,21,29,16,19,32,,108,76,18,9,4,4,0.7,0.6
2025-08-01T0000,1405A,108.4394,22.7904,南宁市,仙葫,,30,23,28,21,22,46,,95,70,12,11,5,4,0.6,0.8
2025-08-01T0000,1406A,108.2397,22.8467,南宁市,区农职院,,23,20,29,16,19,38,,130,91,19,14,5,5,0.7,0.7
2025-08-01T0000,1407A,108.3275,22.735,南宁市,英华嘉园,,29,22,35,20,22,37,,111,68,24,17,3,2,0.4,0.5
2025-08-01T0000,3401A,108.4834,22.7618,南宁市,红星社区,,28,26,31,19,20,46,,108,76,14,10,2,3,0.5,0.6
2025-08-01T0000,4221A,108.2177,22.7774,南宁市,乐贤路16号,,30,22,32,21,23,40,,158,100,30,19,4,4,0.7,0.7
2025-08-01T0000,2331A,118.0966,26.6761,南平市,茫荡山,,,,,,,,,,,,,,,,
2025-08-01T0000,2332A,118.1681,26.6369,南平市,南平市监测站,,16,16,19,8,11,20,,81,45,19,10,3,5,0.5,0.6
2025-08-01T0000,2333A,118.1825,26.6489,南平市,南平铝业有限公司,,24,24,24,3,11,29,,79,43,12,11,5,6,0.4,0.5
2025-08-01T0000,2334A,118.1756,26.6272,南平市,南平七中,,22,22,21,6,9,24,,81,50,13,8,2,4,0.5,0.6
2025-08-01T0000,1168A,120.9098,31.9663,南通市,狼山街道,,27,27,8,12,4,49,,87,78,12,11,2,3,0.6,0.5
2025-08-01T0000,1169A,120.86,32.0005,南通市,虹桥,,18,18,7,8,5,53,,92,82,15,11,1,2,0.7,0.6
2025-08-01T0000,1170A,120.87,32.02,南通市,城中,,29,29,10,7,4,46,,81,72,13,10,2,3,0.4,0.3
2025-08-01T0000,1171A,120.94,31.93,南通市,星湖花园,,23,,5,16,4,45,,90,76,15,11,1,2,0.5,0.4
2025-08-01T0000,1172A,120.81,32.0417,南通市,紫琅学院,,16,13,6,6,4,51,,83,76,12,9,2,3,0.7,0.6
2025-08-01T0000,3291A,121.067,32.062,南通市,通州监测站,,19,14,5,3,4,58,,106,84,7,7,3,3,0.7,0.7
2025-08-01T0000,3432A,120.9348,31.9883,南通市,环境教育馆,,31,31,10,6,3,51,,99,81,10,9,3,3,0.3,0.3
2025-08-01T0000,2404A,112.5224,33.0122,南阳市,瓦房庄,,45,45,42,21,20,143,,156,148,7,8,7,7,0.5,0.5
2025-08-01T0000,2405A,112.5003,32.9735,南阳市,汉画馆,,45,39,41,18,14,144,,151,145,9,10,7,8,0.5,0.5
2025-08-01T0000,2406A,112.5573,33.027,南阳市,气象站,,45,41,38,24,20,144,,163,152,9,8,8,8,0.5,0.5
2025-08-01T0000,2407A,112.5481,32.9689,南阳市,理工学院,,45,41,39,13,13,142,,157,150,9,7,8,7,0.6,0.5
2025-08-01T0000,4008A,112.5234,32.9922,南阳市,卧龙区政府,,45,33,30,24,19,144,,156,149,9,9,6,6,0.6,0.6
2025-08-01T0000,1234A,121.8358,29.911,宁波市,区环保大楼,,45,45,43,21,14,91,,109,101,10,9,3,4,0.5,0.5
2025-08-01T0000,1235A,121.56,29.82,宁波市,万里学院,,49,41,19,34,16,76,,99,93,12,10,4,5,0.6,0.5
2025-08-01T0000,1236A,121.713,29.9572,宁波市,龙赛医院,,40,40,26,15,8,81,,96,87,10,7,6,6,0.5,0.5
2025-08-01T0000,1239A,121.633,29.7733,宁波市,钱湖水厂,,38,38,24,22,16,66,,104,82,6,5,4,4,0.5,0.4
2025-08-01T0000,1240A,121.5856,29.8635,宁波市,太古小学,,45,45,29,19,12,86,,92,86,6,8,2,2,0.4,0.4
2025-08-01T0000,1241A,121.524,29.8674,宁波市,市环境监测中心,,44,44,21,30,17,83,,91,,10,12,6,6,0.5,0.4
2025-08-01T0000,2871A,121.6147,29.9017,宁波市,万里国际学校,,29,28,13,20,11,89,,104,93,6,7,3,3,0.5,0.4
2025-08-01T0000,3710A,121.5594,29.8975,宁波市,白沙活动中心,,31,31,14,19,10,85,,95,89,5,8,4,4,0.5,0.5
2025-08-01T0000,2339A,119.5001,26.6946,宁德市,金涵水库,,,,,,,,,,,,,,,,
2025-08-01T0000,2341A,119.5388,26.6612,宁德市,宁德市监测站,颗粒物(PM10),52,53,34,22,18,67,,124,90,16,14,6,6,0.9,0.7
2025-08-01T0000,3209A,119.5231,26.6562,宁德市,宁德一中,,45,35,31,31,24,63,,126,94,9,8,6,6,0.6,0.5
2025-08-01T0000,2618A,98.8601,25.8567,怒江傈僳族自治州,州监测站,,22,18,16,15,12,16,,54,38,11,8,6,6,0.3,0.4
2025-08-01T0000,2619A,98.8546,25.8417,怒江傈僳族自治州,泸水一中,,12,9,14,8,8,6,,41,25,13,10,6,6,0.5,0.5
2025-08-01T0000,1888A,101.6891,26.571,攀枝花市,弄弄坪,,34,34,43,13,18,46,,109,76,13,18,6,11,0.7,1.3
2025-08-01T0000,1889A,101.5769,26.5928,攀枝花市,河门口,,33,33,22,16,13,44,,118,97,17,9,6,7,0.7,0.6
2025-08-01T0000,1890A,101.7169,26.585,攀枝花市,炳草岗,,40,40,31,25,16,21,,130,96,38,19,7,10,0.9,1
2025-08-01T0000,1891A,101.7369,26.5008,攀枝花市,仁和,,19,19,21,12,14,31,,102,68,10,10,7,8,0.6,0.7
2025-08-01T0000,2835A,101.7227,26.567,攀枝花市,四十中小,,32,32,30,19,20,32,,122,90,35,21,9,18,1.1,1.4
2025-08-01T0000,1604A,122.0303,41.1489,盘锦市,开发区,细颗粒物(PM2.5),54,47,31,38,19,44,,132,92,42,26,17,18,0.6,0.5
2025-08-01T0000,1605A,122.0485,41.0883,盘锦市,兴隆台,,42,42,32,26,14,36,,161,104,66,26,7,14,0.9,0.5
2025-08-01T0000,1606A,121.8297,41.1028,盘锦市,新生街道,,20,19,16,14,11,43,,139,85,30,24,3,4,0.5,0.5
2025-08-01T0000,1832A,113.3257,33.742,平顶山市,新华旅馆,颗粒物(PM10),59,68,52,21,23,118,,168,149,18,13,8,7,0.5,0.5
2025-08-01T0000,1833A,113.2919,33.737,平顶山市,规划设计院,,41,37,37,18,23,131,,166,151,12,10,10,9,0.6,0.6
2025-08-01T0000,1834A,113.182,33.774,平顶山市,平顶山工学院,,41,38,34,22,20,129,,169,156,12,10,6,6,0.5,0.4
2025-08-01T0000,3204A,113.3025,33.73,平顶山市,规划局,,41,41,43,20,17,130,,171,156,12,9,6,5,0.5,0.5
2025-08-01T0000,3594A,112.8867,33.9116,平顶山市,石龙区,,44,44,44,22,22,109,,181,154,14,12,7,9,0.6,0.7
2025-08-01T0000,2656A,106.6692,35.5461,平凉市,聚贤嘉苑,,43,43,46,11,16,86,,116,102,21,13,10,9,0.5,0.6
2025-08-01T0000,2657A,106.7021,35.5307,平凉市,博物馆,,41,41,43,20,21,54,,118,99,33,15,9,10,0.6,0.6
2025-08-01T0000,2347A,114.0997,27.5002,萍乡市,武功山,,11,,3,3,8,34,,90,64,4,4,9,10,0.4,0.4
2025-08-01T0000,2348A,113.8385,27.6434,萍乡市,中医院,,37,37,29,21,14,74,,122,107,16,13,9,9,1.0,1
2025-08-01T0000,2349A,113.8493,27.6253,萍乡市,市政府车库,,23,14,18,11,16,71,,109,94,8,9,8,10,0.4,0.6
2025-08-01T0000,2350A,113.8676,27.6435,萍乡市,市环保局,,32,,24,22,16,85,,117,104,8,10,10,11,0.4,0.6
2025-08-01T0000,2351A,113.866,27.6198,萍乡市,安源区政府,,,15,22,13,14,,,115,105,7,6,11,13,0.5,0.6
2025-08-01T0000,2319A,119.0141,25.4325,莆田市,荔城区仓后路,,21,21,47,6,25,51,,114,55,8,11,5,5,0.6,0.7
2025-08-01T0000,2320A,119.0015,25.4553,莆田市,莆田市监测站,,34,34,40,12,27,40,,121,52,6,8,4,4,0.4,0.5
2025-08-01T0000,2321A,119.1119,25.4561,莆田市,涵江区六中,,22,22,42,12,24,44,,120,50,10,14,4,4,0.5,0.6
2025-08-01T0000,2322A,119.1013,25.3215,莆田市,秀屿区政府,,25,21,46,13,28,80,,127,74,8,15,5,4,0.4,0.5
2025-08-01T0000,2323A,118.981,25.4792,莆田市,东圳水库,,,,,,,,,,,,,,,,
2025-08-01T0000,2392A,115.0312,35.7636,濮阳市,环保局,,36,24,31,22,23,113,,151,133,7,7,4,4,0.4,0.5
2025-08-01T0000,2394A,115.0574,35.7609,濮阳市,油田运输公司,,37,37,41,13,21,103,,146,126,9,9,3,4,0.5,0.6
2025-08-01T0000,3021A,115,35.7668,濮阳市,濮水河管理处,,34,30,37,20,24,108,,135,121,9,9,3,3,0.3,0.4
2025-08-01T0000,4216A,115.0924,35.7686,濮阳市,任丘路479号,,46,46,50,24,29,93,,136,116,8,8,4,4,0.5,0.6
2025-08-01T0000,2601A,100.98,22.7633,普洱市,市环保局,,23,22,27,16,14,18,,32,23,7,7,4,5,0.6,0.6
2025-08-01T0000,2602A,100.9817,22.8322,普洱市,普洱第二中学,,28,25,22,19,13,18,,34,22,4,8,5,5,0.5,0.5
2025-08-01T0000,2262A,131.0518,45.8751,七台河市,新一中,,15,11,15,10,9,7,,99,49,28,16,10,10,0.9,0.9
2025-08-01T0000,3345A,131.0577,45.7879,七台河市,中波台,,32,32,18,3,8,27,,67,42,24,13,7,7,0.6,0.5
2025-08-01T0000,3637A,131.0176,45.7761,七台河市,人民广场,,27,27,17,3,11,34,,66,45,19,11,12,12,0.6,0.5
2025-08-01T0000,3684A,130.8781,45.8222,七台河市,新建矿广场,,15,,15,8,11,15,,74,40,30,18,11,10,0.6,0.4
2025-08-01T0000,1779A,123.9305,47.3636,齐齐哈尔市,安居小区,,30,30,22,8,6,32,,64,49,21,15,4,4,0.5,0.4
2025-08-01T0000,1780A,123.9488,47.3386,齐齐哈尔市,中心广场,,19,19,17,9,3,48,,74,56,10,12,4,11,0.5,0.5
2025-08-01T0000,1781A,123.9483,47.3227,齐齐哈尔市,农牧车辆厂,,22,22,21,11,5,36,,69,50,15,12,6,7,0.4,0.4
2025-08-01T0000,1783A,123.945,47.2988,齐齐哈尔市,市环境监测站,,20,20,14,7,5,31,,72,57,15,10,6,5,0.4,0.4
2025-08-01T0000,3662A,123.6333,47.2075,齐齐哈尔市,富区青少年活动中心,,17,13,21,3,7,54,,68,61,8,13,4,5,0.3,0.3
2025-08-01T0000,2591A,107.9783,26.5747,黔东南苗族侗族自治州,市环境监测站,,23,16,20,16,16,41,,81,69,17,10,2,2,0.5,0.5
2025-08-01T0000,2881A,107.8908,26.5311,黔东南苗族侗族自治州,凯里学院,,16,14,11,11,13,46,,89,78,16,10,2,2,0.3,0.7
2025-08-01T0000,2593A,107.5228,26.2403,黔南布依族苗族自治州,小围寨,,19,19,12,12,8,18,,73,58,17,9,4,3,0.5,0.4
2025-08-01T0000,3538A,107.5175,26.2978,黔南布依族苗族自治州,沙坝,,17,17,19,3,4,32,,92,73,13,9,4,4,0.4,0.4
2025-08-01T0000,2589A,104.9022,25.0925,黔西南布依族苗族自治州,场坝街,,43,43,25,17,10,42,,97,74,18,13,38,14,0.5,0.5
2025-08-01T0000,2590A,104.8811,25.0992,黔西南布依族苗族自治州,坪东大道,,32,32,28,19,16,41,,102,72,12,10,9,4,0.4,0.4
2025-08-01T0000,2502A,108.6236,21.9667,钦州市,市环保站,,20,17,28,7,13,61,,117,66,14,14,1,2,1.0,1.1
2025-08-01T0000,2503A,108.6549,21.9481,钦州市,沙埠小学,,14,14,29,9,15,42,,110,62,13,13,2,3,0.5,0.6
2025-08-01T0000,2504A,108.5989,21.7431,钦州市,港区一小,,43,43,39,17,15,20,,102,47,27,23,2,3,0.4,0.6
2025-08-01T0000,3404A,108.5959,21.9633,钦州市,北职校,,27,27,29,10,15,46,,114,57,16,11,3,2,0.5,0.7
2025-08-01T0000,1043A,119.7493,40.0116,秦皇岛市,第一关,,45,24,28,24,13,6,,137,63,89,43,6,7,0.3,0.5
2025-08-01T0000,1044A,119.5897,39.9499,秦皇岛市,监测站,,47,47,35,6,6,47,,140,103,46,19,5,5,0.5,0.5
2025-08-01T0000,1046A,119.5251,39.9041,秦皇岛市,建设大厦,颗粒物(PM10),58,66,38,7,8,20,,141,97,61,22,6,6,0.4,0.4
2025-08-01T0000,3132A,119.610547,39.943889,秦皇岛市,文明里,,43,40,30,10,9,16,,144,113,85,17,6,6,0.4,0.3
2025-08-01T0000,4198A,119.5090,39.8253,秦皇岛市,北戴河轮滑馆,,37,37,31,17,12,45,,134,100,37,19,2,3,0.8,0.7
2025-08-01T0000,1307A,120.6659,36.2403,青岛市,仰口,,15,14,20,3,7,46,,58,47,1,3,8,8,0.6,0.6
2025-08-01T0000,1310A,120.4134,36.0658,青岛市,市南区东部子站,,16,7,15,3,8,49,,66,52,2,3,6,6,0.3,0.3
2025-08-01T0000,1311A,120.3664,36.1032,青岛市,四方区子站,,17,6,14,3,8,52,,62,52,2,6,4,4,0.2,0.2
2025-08-01T0000,1312A,120.2994,36.054,青岛市,市南区西部子站,,15,12,18,3,8,45,,50,49,3,8,8,9,0.5,0.5
2025-08-01T0000,1313A,120.4581,36.0858,青岛市,崂山区子站,,15,9,41,3,7,45,,66,48,4,6,8,8,0.2,0.2
2025-08-01T0000,1315A,120.3999,36.3083,青岛市,城阳区子站,,16,6,14,3,8,50,,63,51,3,5,6,6,0.3,0.4
2025-08-01T0000,1966A,120.0405,35.8735,青岛市,黄岛区4号,,17,12,18,3,4,52,,67,55,4,9,10,10,0.3,0.3
2025-08-01T0000,3362A,120.5014,36.4034,青岛市,即墨2号,,17,9,14,3,10,53,,66,58,2,4,3,4,0.1,0.2
2025-08-01T0000,3642A,120.3503,36.0736,青岛市,市北区南部,,24,24,18,3,7,48,,65,52,8,10,5,5,0.4,0.5
2025-08-01T0000,3643A,120.3948,36.1805,青岛市,李沧区北部,,15,,9,7,11,45,,64,45,2,4,4,5,0.2,0.2
2025-08-01T0000,4290A,120.1969,35.9546,青岛市,珠江路669号,,14,9,15,3,11,44,,53,40,2,13,5,6,0.5,0.4
2025-08-01T0000,1702A,113.0426,23.691,清远市,环保大楼,,32,26,34,3,11,102,,148,124,14,12,8,7,0.8,0.8
2025-08-01T0000,1703A,113.0208,23.7106,清远市,凤城街办,,19,19,19,8,12,57,,107,85,13,13,15,6,0.6,0.6
2025-08-01T0000,3025A,113.0477,23.6344,清远市,技师学院,,26,15,19,10,11,83,,110,97,9,13,8,8,0.5,0.5
2025-08-01T0000,3318A,112.9903,23.7403,清远市,清新太和,,22,20,21,15,13,61,,106,80,11,11,6,6,0.6,0.6
2025-08-01T0000,3455A,113.076,23.7198,清远市,清城东城,,20,19,22,11,15,62,,102,85,11,10,6,5,0.7,0.7
2025-08-01T0000,2661A,107.6325,35.7357,庆阳市,庆阳五中,,40,26,31,13,14,126,,131,130,6,6,8,7,0.5,0.6
2025-08-01T0000,2662A,107.6364,35.7067,庆阳市,市环保局,,41,25,29,14,14,130,,136,135,4,4,12,12,0.7,0.7
2025-08-01T0000,1916A,103.7897,25.5035,曲靖市,环境监测站,,44,44,43,24,23,50,,124,100,25,19,12,9,0.9,0.8
2025-08-01T0000,1917A,103.8,25.5364,曲靖市,烟厂办公区,,50,50,41,28,23,46,,128,100,23,14,11,6,1.1,1
2025-08-01T0000,3376A,103.7947,25.462,曲靖市,南苑二区,,36,36,35,20,20,54,,128,105,14,11,4,4,0.9,0.8
2025-08-01T0000,3377A,103.7444,25.5261,曲靖市,曲靖师范学院,,46,39,36,32,29,37,,98,81,25,18,16,13,0.8,0.7
2025-08-01T0000,1264A,118.8692,28.9398,衢州市,环保大楼,,26,26,28,13,15,33,,65,48,18,11,2,3,0.4,0.4
2025-08-01T0000,1265A,118.8709,28.9666,衢州市,实验学校,,23,23,26,13,15,39,,66,53,18,10,3,6,0.3,0.3
2025-08-01T0000,1266A,118.8621,28.9808,衢州市,衢州学院,,25,25,24,14,13,29,,65,52,27,11,2,4,0.3,0.3
2025-08-01T0000,1611A,118.5819,24.9117,泉州市,涂山街,,35,35,40,23,22,75,,148,101,12,17,1,4,0.7,0.7
2025-08-01T0000,1612A,118.5972,24.8978,泉州市,津头埔,,,37,39,27,22,82,,160,111,,14,2,5,0.5,0.5
2025-08-01T0000,1613A,118.6663,24.9424,泉州市,万安,,36,36,40,21,20,76,,147,89,8,17,2,3,0.4,0.5
2025-08-01T0000,1614A,118.6117,24.9604,泉州市,清源山,,,,,,,,,,,,,,,,
2025-08-01T0000,3529A,118.6333,24.9264,泉州市,城华南路,,41,41,35,26,22,75,,141,96,13,15,4,5,0.5,0.6
2025-08-01T0000,2626A,88.8876,29.2718,日喀则市,日喀则监测站,,20,6,4,3,1,62,,83,78,5,4,12,12,0.3,0.3
2025-08-01T0000,3726A,88.8781,29.2426,日喀则市,林业技术推广中心,,21,9,7,9,2,66,,76,73,2,3,6,8,0.4,0.4
2025-08-01T0000,1659A,119.471,35.4209,日照市,监测站,,12,12,12,3,8,38,,58,49,3,11,5,6,0.1,0.3
2025-08-01T0000,1660A,119.523,35.4216,日照市,市政府广场,,13,9,13,3,4,40,,58,49,1,6,3,4,0.6,0.6
2025-08-01T0000,1661A,119.5587,35.4044,日照市,港务局,,,,16,27,16,43,,66,54,3,6,,35,0.6,0.5
2025-08-01T0000,3507A,119.5328,35.4625,日照市,职业技术学院,,12,9,13,3,7,37,,56,48,5,10,4,5,0.4,0.5
2025-08-01T0000,3604A,119.3266,35.1044,日照市,岚山环保分局,,17,17,16,3,3,43,,68,54,3,4,8,9,0.4,0.5
2025-08-01T0000,1835A,111.1922,34.7752,三门峡市,市政府,,42,41,42,22,20,134,,162,150,8,9,5,6,0.5,0.5
2025-08-01T0000,1836A,111.1587,34.7942,三门峡市,开发区,,50,50,39,23,22,138,,164,151,14,14,7,8,0.4,0.4
2025-08-01T0000,1838A,111.143,34.7955,三门峡市,风景区,,45,33,35,28,19,144,,170,158,5,7,4,5,0.6,0.5
2025-08-01T0000,3039A,111.1911,34.7829,三门峡市,三门峡市第一小学,,43,41,39,22,17,136,,164,152,12,12,6,8,0.6,0.5
2025-08-01T0000,3598A,111.1,34.7167,三门峡市,富达温泉假日酒店,,39,37,44,24,22,123,,168,154,11,8,5,10,0.5,0.6
2025-08-01T0000,2324A,117.6211,26.2625,三明市,三钢,,29,20,27,20,20,12,,76,36,18,14,3,8,0.7,0.8
2025-08-01T0000,2325A,117.635,26.2714,三明市,三明二中,,24,24,29,15,14,16,,77,35,14,10,3,5,0.5,0.5
2025-08-01T0000,2326A,117.6028,26.2378,三明市,三元区政府,,26,26,31,15,13,13,,83,39,17,14,3,5,0.4,0.5
2025-08-01T0000,2327A,117.7275,26.3108,三明市,洋溪,,,,,,,,,,,,,,,,
2025-08-01T0000,1876A,109.5078,18.2489,三亚市,河东子站,,25,25,28,16,13,54,,58,56,2,5,3,3,0.2,0.3
2025-08-01T0000,1877A,109.4964,18.2681,三亚市,河西子站,,33,33,30,13,15,52,,62,56,8,5,3,2,0.2,0.2
2025-08-01T0000,3540A,109.7348,18.3443,三亚市,君悦子站,,41,41,29,14,12,39,,61,53,10,6,1,2,0.5,0.4
2025-08-01T0000,2624A,91.7608,29.2313,山南市,山南监测站,,25,,15,3,3,79,,99,90,2,3,3,3,0.3,0.3
2025-08-01T0000,2625A,91.7706,29.2436,山南市,山南人民医院,,24,7,12,3,5,74,,96,86,3,4,3,4,0.2,0.3
2025-08-01T0000,1674A,116.6794,23.3667,汕头市,金平子站,,22,21,19,9,12,69,,90,80,7,11,1,2,0.6,0.7
2025-08-01T0000,1675A,116.7244,23.3633,汕头市,龙湖子站,,21,17,22,7,10,65,,85,77,5,10,6,7,0.5,0.6
2025-08-01T0000,1676A,116.7258,23.2775,汕头市,濠江子站,颗粒物(PM10),51,51,33,15,14,56,,80,70,8,8,5,5,0.6,0.6
2025-08-01T0000,1677A,116.7519,23.4714,汕头市,澄海子站,,24,24,25,14,15,57,,93,72,7,12,2,3,0.7,0.8
2025-08-01T0000,1678A,116.6092,23.2539,汕头市,潮阳子站,,23,23,23,11,11,65,,80,77,4,6,4,4,0.5,0.5
2025-08-01T0000,3444A,116.454,23.2684,汕头市,潮南峡山,,19,17,20,9,13,58,,78,74,5,7,6,6,0.6,0.8
2025-08-01T0000,3624A,116.4069,23.2533,汕头市,潮南子站,,20,20,21,10,13,62,,76,73,2,7,3,4,0.6,0.6
2025-08-01T0000,1693A,115.3653,22.775,汕尾市,市环保局,,28,28,50,8,12,61,,106,87,8,8,3,2,0.5,0.6
2025-08-01T0000,1694A,115.3706,22.7898,汕尾市,市政府,,19,16,22,9,9,59,,104,84,11,10,4,4,0.5,0.5
2025-08-01T0000,1695A,115.3622,22.7925,汕尾市,新城中学,,21,21,28,8,12,59,,107,87,9,9,4,4,0.4,0.5
2025-08-01T0000,2645A,109.9154,33.8715,商洛市,监测站,,47,47,34,22,21,52,,134,94,21,12,9,8,0.6,0.5
2025-08-01T0000,3045A,109.9643,33.8471,商洛市,商州区中学,颗粒物(PM10),59,67,38,30,20,47,,128,86,32,14,80,16,0.8,0.5
2025-08-01T0000,2408A,115.6702,34.4285,商丘市,环境监测站,,41,41,38,24,24,58,,145,107,17,11,4,4,0.5,0.5
2025-08-01T0000,2409A,115.6458,34.4045,商丘市,粮食局,,31,31,34,18,19,62,,144,108,14,10,3,3,0.4,0.5
2025-08-01T0000,2410A,115.6293,34.3948,商丘市,睢阳区环保局,,33,33,39,15,18,63,,145,109,13,9,6,5,0.3,0.3
2025-08-01T0000,3171A,115.6071,34.4465,商丘市,梁园区档案局,,40,40,39,17,20,59,,139,103,14,12,3,3,0.4,0.5
2025-08-01T0000,1141A,121.4,31.238,上海市,普陀,,36,36,24,19,9,70,,115,92,14,11,5,5,0.2,0.4
2025-08-01T0000,1142A,121.478,31.2036,上海市,十五厂,,42,42,26,20,12,64,,108,83,16,15,8,7,0.8,0.7
2025-08-01T0000,1143A,121.467,31.3008,上海市,虹口,,41,41,22,15,11,63,,100,78,9,9,10,9,0.6,0.6
2025-08-01T0000,1147A,121.425,31.2261,上海市,静安监测站,,38,38,22,18,11,66,,109,85,13,11,4,3,0.6,0.6
2025-08-01T0000,1148A,121.703,31.1907,上海市,浦东川沙,,37,37,21,14,11,52,,104,68,11,8,10,10,0.5,0.5
2025-08-01T0000,1149A,121.533,31.2284,上海市,浦东新区监测站,,35,35,21,19,11,63,,115,84,10,8,7,8,0.4,0.7
2025-08-01T0000,1150A,121.577,31.2071,上海市,浦东张江,,39,39,24,17,10,72,,122,87,9,9,5,5,0.6,0.6
2025-08-01T0000,3265A,121.4316,31.3322,上海市,宝山庙行,,42,42,20,18,9,47,,89,70,12,10,7,7,0.4,0.4
2025-08-01T0000,3266A,121.8791,31.4662,上海市,崇明上实东滩,,23,23,24,3,8,22,,105,46,15,10,3,4,0.7,0.6
2025-08-01T0000,3268A,121.3162,31.2838,上海市,嘉定南翔,,38,38,17,23,11,60,,94,75,11,12,7,6,0.3,0.4
2025-08-01T0000,3269A,121.3359,30.7456,上海市,金山新城,,41,41,28,22,10,92,,118,105,6,7,3,3,0.7,0.4
2025-08-01T0000,3270A,121.4996,31.0739,上海市,闵行浦江,,39,39,24,13,11,67,,114,85,6,6,4,4,1.0,0.9
2025-08-01T0000,3271A,121.2886,31.1663,上海市,青浦徐泾,,38,30,16,26,11,66,,90,74,8,12,5,6,0.6,0.6
2025-08-01T0000,3272A,121.2186,31.0378,上海市,松江图书馆,,37,37,15,23,8,86,,93,86,12,12,7,7,0.6,0.6
2025-08-01T0000,3273A,121.3902,31.2059,上海市,长宁仙霞,,36,36,20,15,8,62,,96,77,10,12,7,7,0.6,0.6
2025-08-01T0000,3274A,121.7965,31.0507,上海市,浦东惠南,,36,36,27,14,12,58,,108,74,8,6,9,9,0.8,0.8
2025-08-01T0000,3544A,121.4891,30.925,上海市,奉贤南桥新城,,37,37,26,16,15,65,,127,92,11,11,2,2,0.6,0.6
2025-08-01T0000,4183A,121.4174,31.16637,上海市,冠生园路458号,,36,36,19,18,11,58,,96,77,9,10,3,3,0.8,0.7
2025-08-01T0000,4205A,121.5419,31.2683,上海市,宁武路151号,,37,37,25,15,12,56,,102,70,13,13,7,7,0.5,0.5
2025-08-01T0000,2381A,118.005,28.4572,上饶市,百草园,,,,,,,,,,,,,,,,
2025-08-01T0000,2382A,117.9756,28.4436,上饶市,市监测站,,42,34,23,29,14,36,,92,69,18,8,23,15,0.4,0.4
2025-08-01T0000,2383A,117.9519,28.4628,上饶市,凤凰光学,,38,38,29,16,14,41,,78,58,13,11,10,17,0.8,0.8
