timepoint,stationcode,longitude,latitude,area,positionname,primarypollutant,aqi,pm10,pm10_24h,pm2_5,pm2_5_24h,o3,o3_24h,o3_8h,o3_8h_24h,no2,no2_24h,so2,so2_24h,co,co_24h
2023-10-24T12:00:00,1001A,116.3621,39.8784,北京市,万寿西宫,细颗粒物(PM2.5),180,187,193,136,137,109,109,36,36,33,76,6,4,0.9,1.2
2023-10-24T12:00:00,1002A,116.2202,40.2915,北京市,定陵,细颗粒物(PM2.5),113,119,149,85,112,95,57,22,22,40,34,4,3,0.7,0.8
2023-10-24T12:00:00,1003A,116.4174,39.9289,北京市,东四,细颗粒物(PM2.5),183,200,210,138,138,100,100,36,36,42,79,5,4,0.9,1.2
2023-10-24T12:00:00,1004A,116.4072,39.8863,北京市,天坛,细颗粒物(PM2.5),180,190,180,136,128,102,102,34,34,39,56,5,3,0.9,1
2023-10-24T12:00:00,1005A,116.462,39.9365,北京市,农展馆,细颗粒物(PM2.5),193,202,196,145,133,105,105,30,30,34,78,4,3,0.9,1.2
2023-10-24T12:00:00,1006A,116.3392,39.9295,北京市,官园,细颗粒物(PM2.5),178,186,196,134,132,98,98,27,27,38,77,5,4,1.0,1.1
2023-10-24T12:00:00,1007A,116.2878,39.9611,北京市,海淀万柳,细颗粒物(PM2.5),169,177,173,128,109,79,65,20,20,61,77,3,3,1.2,1.2
2023-10-24T12:00:00,1008A,116.6636,40.135,北京市,顺义新城,细颗粒物(PM2.5),179,192,184,135,134,115,115,41,41,18,54,4,4,0.8,0.9
2023-10-24T12:00:00,1009A,116.6275,40.3275,北京市,怀柔镇,细颗粒物(PM2.5),135,134,162,103,121,115,115,48,48,17,33,5,3,0.7,0.9
2023-10-24T12:00:00,1010A,116.2296,40.217,北京市,昌平镇,细颗粒物(PM2.5),130,149,161,99,108,91,35,14,12,19,14,2,3,0.9,0.9
2023-10-24T12:00:00,1011A,116.3966,39.9821,北京市,奥体中心,细颗粒物(PM2.5),206,195,183,156,133,85,85,24,24,45,81,4,2,0.9,1
2023-10-24T12:00:00,1012A,116.184,39.9136,北京市,古城,细颗粒物(PM2.5),175,203,176,132,116,86,66,22,22,64,72,3,2,1.1,1.1
2023-10-24T12:00:00,1015A,117.1444,39.1661,天津市,勤俭道,细颗粒物(PM2.5),210,239,157,160,95,130,83,30,30,77,68,14,12,1.1,1.1
2023-10-24T12:00:00,1017A,117.237,39.1082,天津市,大直沽八号路,细颗粒物(PM2.5),163,212,149,124,88,132,89,43,43,59,48,8,8,0.7,0.8
2023-10-24T12:00:00,1018A,117.202,39.0927,天津市,前进道,细颗粒物(PM2.5),166,208,142,126,84,134,96,39,39,62,65,11,10,0.9,0.9
2023-10-24T12:00:00,1019A,117.1837,39.2133,天津市,淮河道,,,,156,,94,49,,68,,,74,,11,,1.1
2023-10-24T12:00:00,1021A,117.307,39.0877,天津市,跃进路,细颗粒物(PM2.5),155,182,138,118,83,136,104,35,35,40,60,10,10,0.9,1
2023-10-24T12:00:00,1023A,117.707,39.0343,天津市,第四大街,细颗粒物(PM2.5),145,179,113,111,63,118,56,56,44,63,46,11,7,1.4,0.8
2023-10-24T12:00:00,1024A,117.457,38.8394,天津市,永明路,细颗粒物(PM2.5),142,155,105,108,65,129,80,45,44,44,44,10,8,0.6,0.6
2023-10-24T12:00:00,1026A,117.764,39.1587,天津市,汉北路,细颗粒物(PM2.5),139,171,108,106,61,125,68,52,40,45,53,10,9,0.7,0.7
2023-10-24T12:00:00,1027A,117.157,38.9194,天津市,团泊洼,细颗粒物(PM2.5),162,173,127,123,78,124,59,41,34,57,46,8,7,1.0,0.9
2023-10-24T12:00:00,1029A,114.4422,38.0444,石家庄市,职工医院,细颗粒物(PM2.5),109,138,116,82,62,130,86,33,33,65,74,12,9,1.2,1.1
2023-10-24T12:00:00,1030A,114.6063,38.0266,石家庄市,高新区,细颗粒物(PM2.5),115,144,133,87,69,135,91,28,28,56,60,12,5,1.1,1
2023-10-24T12:00:00,1031A,114.4898,38.1328,石家庄市,西北水源,颗粒物(PM10),77,103,126,53,63,128,70,21,21,42,61,9,5,1.0,1
2023-10-24T12:00:00,1032A,114.4586,38.0058,石家庄市,西南高教,颗粒物(PM10),101,152,129,70,67,131,76,26,26,60,62,13,8,1.0,1.1
2023-10-24T12:00:00,1033A,114.5331,38.0178,石家庄市,世纪公园,细颗粒物(PM2.5),104,131,112,78,68,126,67,22,21,57,42,11,8,,1.1
2023-10-24T12:00:00,1034A,114.509,38.0457,石家庄市,人民会堂,细颗粒物(PM2.5),140,148,114,107,79,140,80,31,31,59,55,,9,,1
2023-10-24T12:00:00,1035A,114.3524,37.8911,石家庄市,封龙山,颗粒物(PM10),57,63,81,16,35,116,103,,,8,22,13,15,0.5,0.9
2023-10-24T12:00:00,1037A,118.131,39.6363,唐山市,雷达站,细颗粒物(PM2.5),127,147,119,96,72,125,72,23,23,42,44,5,6,0.6,0.7
2023-10-24T12:00:00,1038A,118.1725,39.6334,唐山市,物资局,细颗粒物(PM2.5),125,149,120,95,76,132,68,23,23,62,62,9,10,0.7,0.7
2023-10-24T12:00:00,1040A,118.1705,39.6506,唐山市,十二中,颗粒物(PM10),98,145,112,72,67,119,59,17,17,66,69,6,7,0.8,0.8
2023-10-24T12:00:00,1041A,118.1869,39.622,唐山市,小山,细颗粒物(PM2.5),115,142,128,87,66,127,60,16,16,49,51,4,6,0.8,0.8
2023-10-24T12:00:00,1042A,119.5134,39.8207,秦皇岛市,北戴河环保局,"颗粒物(PM10),细颗粒物(PM2.5)",79,107,86,58,44,166,87,79,65,47,33,18,11,1.4,0.5
2023-10-24T12:00:00,1043A,119.7493,40.0116,秦皇岛市,第一关,细颗粒物(PM2.5),102,121,101,76,74,183,106,42,39,44,71,18,14,1.2,0.9
2023-10-24T12:00:00,1044A,119.5897,39.9499,秦皇岛市,监测站,细颗粒物(PM2.5),85,104,104,63,76,182,113,67,67,42,62,18,14,1.1,0.9
2023-10-24T12:00:00,1046A,119.5251,39.9041,秦皇岛市,建设大厦,,,120,103,71,64,186,108,72,68,,36,12,8,,0.9
2023-10-24T12:00:00,1048A,114.5302,36.6116,邯郸市,东污水处理厂,细颗粒物(PM2.5),73,77,86,53,51,118,88,26,26,37,40,33,14,1.4,0.8
2023-10-24T12:00:00,1049A,114.4918,36.5713,邯郸市,矿院,,,79,74,47,52,120,86,24,24,,46,7,16,1.4,0.9
2023-10-24T12:00:00,1050A,114.484,36.6133,邯郸市,丛台公园,细颗粒物(PM2.5),77,55,71,56,47,117,80,29,29,41,38,25,12,1.4,0.7
2023-10-24T12:00:00,1051A,115.493,38.8632,保定市,游泳馆,细颗粒物(PM2.5),193,178,156,145,123,104,104,38,38,59,69,10,11,0.7,0.6
2023-10-24T12:00:00,1052A,115.5213,38.8959,保定市,华电二区,细颗粒物(PM2.5),179,153,144,135,111,89,89,23,23,49,60,10,9,1.0,0.9
2023-10-24T12:00:00,1053A,115.4713,38.9108,保定市,接待中心,细颗粒物(PM2.5),179,189,158,135,99,87,87,23,23,58,67,11,10,0.9,0.9
2023-10-24T12:00:00,1054A,115.4612,38.8416,保定市,地表水厂,细颗粒物(PM2.5),147,203,177,112,92,84,84,26,26,73,73,11,10,1.2,1.1
2023-10-24T12:00:00,1056A,115.5086,38.8639,保定市,监测站,细颗粒物(PM2.5),168,199,167,127,114,87,87,30,30,66,68,8,11,1.1,0.9
2023-10-24T12:00:00,1057A,114.8883,40.8336,张家口市,人民公园,,,84,68,29,26,120,,59,57,23,28,4,4,0.7,0.5
2023-10-24T12:00:00,1059A,114.8687,40.8042,张家口市,五金库,颗粒物(PM10),65,80,76,38,33,108,96,64,64,24,38,7,6,0.3,0.3
2023-10-24T12:00:00,1060A,114.8902,40.762,张家口市,世纪豪园,颗粒物(PM10),84,117,68,38,33,113,86,63,63,30,34,4,4,0.6,0.6
2023-10-24T12:00:00,1061A,114.8916,40.8661,张家口市,北泵房,颗粒物(PM10),65,79,63,36,29,132,113,73,73,19,21,11,9,0.5,0.3
2023-10-24T12:00:00,1062A,117.9531,40.9081,承德市,铁路,细颗粒物(PM2.5),105,140,109,79,69,115,72,21,21,50,53,13,10,1.0,0.8
2023-10-24T12:00:00,1063A,117.9392,40.9763,承德市,中国银行,细颗粒物(PM2.5),115,153,106,87,60,122,105,26,26,,53,14,9,1.0,0.9
2023-10-24T12:00:00,1064A,117.9503,40.928,承德市,开发区,细颗粒物(PM2.5),110,141,103,83,65,141,99,30,30,46,49,15,10,1.1,0.9
2023-10-24T12:00:00,1065A,117.8051,40.9655,承德市,文化中心,细颗粒物(PM2.5),172,204,142,130,81,116,78,17,17,70,69,31,7,2.2,1.1
2023-10-24T12:00:00,1066A,117.9268,41.0026,承德市,离宫,细颗粒物(PM2.5),143,136,103,109,71,109,109,42,42,28,30,6,3,0.8,0.7
2023-10-24T12:00:00,1067A,116.6708,39.5111,廊坊市,药材公司,细颗粒物(PM2.5),169,208,185,128,113,114,90,21,21,47,72,8,6,1.1,1.4
2023-10-24T12:00:00,1068A,116.7214,39.5589,廊坊市,开发区,细颗粒物(PM2.5),186,212,160,140,103,115,70,14,14,66,62,7,5,0.9,0.9
2023-10-24T12:00:00,1070A,116.7244,39.5269,廊坊市,北华航天学院,细颗粒物(PM2.5),176,203,180,133,116,111,77,20,20,54,71,10,8,0.9,1.2
2023-10-24T12:00:00,1071A,116.8842,38.2991,沧州市,沧县城建局,"颗粒物(PM10),细颗粒物(PM2.5)",90,130,111,67,60,139,95,58,54,38,36,10,8,0.7,0.6
2023-10-24T12:00:00,1072A,116.8584,38.3254,沧州市,电视转播站,细颗粒物(PM2.5),122,122,105,92,65,145,96,60,57,27,30,7,8,0.7,0.5
2023-10-24T12:00:00,1073A,116.8709,38.3228,沧州市,市环保局,细颗粒物(PM2.5),99,134,117,74,64,128,86,50,50,27,30,12,10,0.6,0.5
2023-10-24T12:00:00,1074A,115.6838,37.7541,衡水市,电机北厂,,,139,115,63,64,141,85,55,50,30,26,,5,0.8,0.5
2023-10-24T12:00:00,1075A,115.6303,37.7316,衡水市,市监测站,颗粒物(PM10),84,118,103,58,58,137,91,42,41,38,35,12,8,0.9,0.6
2023-10-24T12:00:00,1077A,114.4704,37.0886,邢台市,达活泉,颗粒物(PM10),66,82,99,31,46,116,93,35,35,24,38,16,13,1.9,1.3
2023-10-24T12:00:00,1078A,114.5062,37.0349,邢台市,邢师高专,颗粒物(PM10),65,79,91,34,42,111,75,24,24,30,46,14,8,1.0,0.8
2023-10-24T12:00:00,1079A,114.5237,37.0851,邢台市,路桥公司,颗粒物(PM10),61,72,95,41,56,112,83,37,37,33,42,11,8,1.0,0.8
2023-10-24T12:00:00,1080A,114.4725,37.0719,邢台市,市环保局,,,,97,,47,120,89,37,37,22,35,10,11,1.0,1.1
2023-10-24T12:00:00,1081A,112.522,37.8873,太原市,尖草坪,细颗粒物(PM2.5),117,159,124,88,67,131,70,22,22,58,74,32,15,1.6,1.2
2023-10-24T12:00:00,1083A,112.434,38.0108,太原市,上兰,,,,,,,,,,,,,,,,
2023-10-24T12:00:00,1084A,112.469,37.7124,太原市,晋源,细颗粒物(PM2.5),107,117,113,80,68,151,85,28,28,50,72,27,17,1.5,1.2
2023-10-24T12:00:00,1085A,112.5583,37.7394,太原市,小店,细颗粒物(PM2.5),113,143,139,85,76,130,80,22,22,46,74,27,19,1.2,1.2
2023-10-24T12:00:00,1086A,112.5369,37.8692,太原市,桃园,细颗粒物(PM2.5),123,179,129,93,64,127,65,20,20,70,80,31,14,,1.3
2023-10-24T12:00:00,1087A,112.57,37.8195,太原市,坞城,细颗粒物(PM2.5),118,154,127,89,74,133,71,23,23,61,78,29,14,1.3,1.2
2023-10-24T12:00:00,1088A,112.549,37.9854,太原市,南寨,颗粒物(PM10),100,150,116,67,58,115,46,16,16,78,61,47,16,2.6,1.2
2023-10-24T12:00:00,1090A,111.6507,40.7517,呼和浩特市,呼市一监,颗粒物(PM10),86,122,171,53,102,141,61,22,22,39,71,19,16,0.7,0.9
2023-10-24T12:00:00,1091A,111.6572,40.8033,呼和浩特市,小召,细颗粒物(PM2.5),144,168,141,110,81,127,71,24,24,58,74,,15,,1
2023-10-24T12:00:00,1094A,111.7516,40.8369,呼和浩特市,如意水处理厂,细颗粒物(PM2.5),115,157,126,87,73,140,80,25,25,41,69,26,16,0.6,0.7
2023-10-24T12:00:00,1095A,111.7276,40.8062,呼和浩特市,二十九中,细颗粒物(PM2.5),112,154,145,84,86,150,75,31,31,46,70,22,17,0.7,0.8
2023-10-24T12:00:00,1096A,111.5512,40.7866,呼和浩特市,工大金川校区,细颗粒物(PM2.5),165,185,124,125,65,126,80,19,19,53,75,22,13,0.8,0.8
2023-10-24T12:00:00,1097A,111.717,40.7612,呼和浩特市,化肥厂生活区,颗粒物(PM10),80,109,170,46,97,143,56,24,24,32,47,21,19,0.6,1
2023-10-24T12:00:00,1098A,123.6836,41.9339,沈阳市,森林路,,,,,,,,,,,,,,,,
2023-10-24T12:00:00,1099A,123.505,41.7406,沈阳市,浑南东路,"颗粒物(PM10),细颗粒物(PM2.5)",57,64,81,40,55,160,137,106,106,22,29,14,14,0.9,0.8
2023-10-24T12:00:00,1100A,123.4231,41.6989,沈阳市,新秀街,,,81,100,40,66,160,130,117,117,,30,16,52,0.9,0.8
2023-10-24T12:00:00,1102A,123.5903,41.8411,沈阳市,东陵路,细颗粒物(PM2.5),57,60,85,40,66,170,143,94,92,19,29,15,15,0.8,1
2023-10-24T12:00:00,1103A,123.4264,41.8467,沈阳市,陵东街,细颗粒物(PM2.5),64,76,97,46,65,167,134,130,124,24,24,14,25,1.0,0.9
2023-10-24T12:00:00,1104A,123.4114,41.7653,沈阳市,文化路,颗粒物(PM10),62,74,105,41,60,174,138,126,123,22,23,16,47,1.2,1.1
2023-10-24T12:00:00,1105A,123.4678,41.7867,沈阳市,小河沿,颗粒物(PM10),61,71,96,37,59,167,133,117,112,28,30,13,16,1.0,0.9
2023-10-24T12:00:00,1106A,123.4017,41.7972,沈阳市,太原街,"颗粒物(PM10),细颗粒物(PM2.5)",57,64,93,40,61,172,134,132,124,28,26,12,26,0.8,0.7
2023-10-24T12:00:00,1108A,123.3783,41.9228,沈阳市,京沈街,细颗粒物(PM2.5),82,80,77,60,72,175,138,132,125,17,18,15,21,0.9,0.8
2023-10-24T12:00:00,1109A,121.612,38.9741,大连市,甘井子,细颗粒物(PM2.5),70,87,83,51,48,157,129,131,120,39,30,8,8,0.7,0.7
2023-10-24T12:00:00,1110A,121.565,38.9511,大连市,周水子,颗粒物(PM10),64,78,78,42,44,158,134,134,122,31,26,13,11,0.9,0.9
2023-10-24T12:00:00,1111A,121.5637,38.8845,大连市,星海三站,,,,87,45,47,159,149,140,131,,22,,10,0.7,0.7
2023-10-24T12:00:00,1112A,121.6302,38.9117,大连市,青泥洼桥,颗粒物(PM10),64,78,76,39,37,147,147,131,129,19,21,11,11,0.9,0.9
2023-10-24T12:00:00,1113A,121.6251,38.8638,大连市,傅家庄,颗粒物(PM10),61,71,78,41,40,168,158,149,146,18,19,10,12,0.7,0.8
2023-10-24T12:00:00,1114A,121.5213,38.8661,大连市,七贤岭,颗粒物(PM10),64,77,80,39,37,173,164,126,119,25,34,11,9,0.7,0.8
2023-10-24T12:00:00,1115A,121.2529,38.8061,大连市,旅顺,,,73,71,29,29,172,,148,140,24,20,10,9,0.8,0.8
2023-10-24T12:00:00,1116A,121.7485,39.1311,大连市,金州,颗粒物(PM10),100,149,89,43,45,166,141,135,126,36,26,16,14,0.8,0.8
2023-10-24T12:00:00,1117A,121.7811,39.0496,大连市,开发区,颗粒物(PM10),64,77,86,37,39,154,147,135,130,26,27,8,9,0.7,0.7
2023-10-24T12:00:00,1118A,121.9762,39.0631,大连市,双D港,臭氧1小时,68,63,59,32,33,174,174,154,154,25,27,10,10,0.8,0.7
2023-10-24T12:00:00,1119A,125.3325,43.9166,长春市,食品厂,,,71,85,48,72,130,125,118,114,,30,11,11,,0.8
2023-10-24T12:00:00,1120A,125.2863,43.9027,长春市,客车厂,细颗粒物(PM2.5),75,74,79,55,74,125,124,113,112,18,28,13,14,0.8,0.9
2023-10-24T12:00:00,1121A,125.2841,43.8463,长春市,邮电学院,颗粒物(PM10),70,90,91,49,73,138,138,120,120,20,36,12,15,0.7,0.7
2023-10-24T12:00:00,1122A,125.3716,43.8772,长春市,劳动公园,细颗粒物(PM2.5),82,84,94,60,74,136,136,120,120,18,24,12,10,0.7,0.7
2023-10-24T12:00:00,1123A,125.3297,43.8805,长春市,园林处,细颗粒物(PM2.5),74,71,85,54,69,138,132,128,127,19,23,13,13,0.9,0.9
2023-10-24T12:00:00,1124A,125.4605,43.79,长春市,净月潭,颗粒物(PM10),65,79,58,46,52,142,142,125,125,14,13,12,10,0.8,0.7
2023-10-24T12:00:00,1125A,125.7194,43.515,长春市,甩湾子,,,,,,,,,,,,,,,,
2023-10-24T12:00:00,1126A,125.3863,43.8447,长春市,经开区环卫处,细颗粒物(PM2.5),89,81,93,66,75,136,136,111,111,19,28,11,10,0.8,0.8
2023-10-24T12:00:00,1127A,125.245,43.7783,长春市,高新区管委会,细颗粒物(PM2.5),70,72,78,51,68,137,137,124,124,16,25,12,10,0.8,0.8
2023-10-24T12:00:00,1128A,125.1761,43.8325,长春市,岱山公园,细颗粒物(PM2.5),80,70,86,59,67,131,129,118,118,16,35,10,10,0.7,0.8
2023-10-24T12:00:00,1129A,126.5422,45.755,哈尔滨市,岭北,细颗粒物(PM2.5),87,81,100,64,65,118,118,100,100,12,21,13,14,0.4,0.6
2023-10-24T12:00:00,1130A,126.561,45.8167,哈尔滨市,松北商大,细颗粒物(PM2.5),75,85,91,55,55,109,109,97,97,10,22,9,11,0.6,0.7
2023-10-24T12:00:00,1131A,126.979,45.5419,哈尔滨市,阿城会宁,细颗粒物(PM2.5),89,110,78,66,47,131,131,115,115,18,15,10,8,0.6,0.5
2023-10-24T12:00:00,1132A,126.599,45.7222,哈尔滨市,南岗学府路,颗粒物(PM10),80,110,99,46,52,110,110,92,92,16,23,8,8,0.6,0.6
2023-10-24T12:00:00,1133A,126.689,45.7733,哈尔滨市,太平宏伟公园,细颗粒物(PM2.5),92,113,99,68,58,105,105,83,83,22,30,7,9,0.8,0.7
2023-10-24T12:00:00,1134A,126.635,45.7667,哈尔滨市,道外承德广场,颗粒物(PM10),76,102,102,53,66,105,105,90,90,26,30,8,7,0.7,0.7
2023-10-24T12:00:00,1135A,126.685,45.7319,哈尔滨市,香坊红旗大街,细颗粒物(PM2.5),97,112,98,72,65,110,110,82,82,26,39,13,14,1.0,0.9
2023-10-24T12:00:00,1136A,126.6411,45.7258,哈尔滨市,动力和平路,,,101,97,53,61,99,99,76,76,,34,17,13,0.9,0.8
2023-10-24T12:00:00,1137A,126.593,45.7478,哈尔滨市,道里建国路,颗粒物(PM10),88,126,100,62,62,110,110,98,98,23,27,21,18,0.8,0.9
2023-10-24T12:00:00,1138A,126.615,45.61,哈尔滨市,平房东轻厂,颗粒物(PM10),77,103,90,45,45,114,114,97,97,15,17,11,10,0.5,0.5
2023-10-24T12:00:00,1139A,126.595,45.9855,哈尔滨市,呼兰师专,细颗粒物(PM2.5),88,94,101,65,70,132,118,109,109,19,27,10,12,0.8,0.8
2023-10-24T12:00:00,1140A,126.6206,45.6842,哈尔滨市,省农科院,细颗粒物(PM2.5),84,104,101,62,63,118,118,93,93,21,37,9,9,0.6,0.6
2023-10-24T12:00:00,1141A,121.4,31.238,上海市,普陀,,37,37,32,14,13,122,93,62,62,23,27,5,6,0.6,0.6
2023-10-24T12:00:00,1142A,121.478,31.2036,上海市,十五厂,,40,40,37,16,17,121,100,58,58,23,38,6,6,0.5,0.5
2023-10-24T12:00:00,1143A,121.467,31.3008,上海市,虹口,,36,36,30,18,14,126,112,65,65,28,36,5,5,0.6,0.6
2023-10-24T12:00:00,1144A,121.412,31.1654,上海市,徐汇上师大,,35,30,31,18,15,136,112,60,60,18,30,9,9,0.6,0.7
2023-10-24T12:00:00,1145A,121.536,31.2659,上海市,杨浦四漂,,44,44,51,19,16,127,107,55,55,25,44,9,8,0.4,0.4
2023-10-24T12:00:00,1147A,121.425,31.2261,上海市,静安监测站,,35,31,31,17,15,132,109,68,68,21,30,5,6,0.5,0.5
2023-10-24T12:00:00,1148A,121.703,31.1907,上海市,浦东川沙,,,28,34,17,14,131,131,56,56,,22,6,6,,0.5
2023-10-24T12:00:00,1149A,121.533,31.2284,上海市,浦东新区监测站,,36,36,33,16,11,121,96,62,62,24,31,10,7,0.7,0.7
2023-10-24T12:00:00,1150A,121.577,31.2071,上海市,浦东张江,,33,32,31,18,13,115,105,58,58,16,22,6,5,0.6,0.5
2023-10-24T12:00:00,1151A,118.8086,32.1065,南京市,迈皋桥,颗粒物(PM10),52,54,63,22,29,184,139,54,54,36,53,15,5,1.3,0.6
2023-10-24T12:00:00,1152A,118.7538,32.0551,南京市,草场门,颗粒物(PM10),62,73,60,41,36,170,115,33,33,48,66,25,6,1.2,0.6
2023-10-24T12:00:00,1153A,118.7794,32.0745,南京市,山西路,颗粒物(PM10),56,61,66,34,33,194,141,68,68,34,46,25,8,1.3,0.7
2023-10-24T12:00:00,1154A,118.7752,32.0023,南京市,中华门,,,,65,34,33,184,124,40,40,,65,21,6,,1
2023-10-24T12:00:00,1155A,118.8109,32.0309,南京市,瑞金路,颗粒物(PM10),62,73,62,31,30,169,120,38,38,40,59,12,7,0.8,0.6
2023-10-24T12:00:00,1156A,118.7997,32.0754,南京市,玄武湖,"颗粒物(PM10),细颗粒物(PM2.5)",58,66,52,41,30,180,102,40,40,49,44,19,6,1.2,0.6
2023-10-24T12:00:00,1157A,118.6414,32.0931,南京市,浦口,颗粒物(PM10),59,67,52,31,29,176,134,79,79,32,32,11,8,0.6,0.5
2023-10-24T12:00:00,1158A,118.7356,31.9996,南京市,奥体中心,颗粒物(PM10),65,79,74,44,38,176,115,39,39,57,70,36,12,2.4,0.7
2023-10-24T12:00:00,1159A,118.9125,32.1028,南京市,仙林大学城,,,,52,,35,180,138,47,47,28,42,,3,0.8,0.8
2023-10-24T12:00:00,1160A,120.561,31.2472,苏州市,上方山,臭氧1小时,146,80,38,35,24,292,292,67,67,13,25,5,14,2.6,0.7
2023-10-24T12:00:00,1162A,120.591,31.3019,苏州市,彩香,,,58,43,,24,149,132,48,48,29,28,9,8,0.7,0.7
2023-10-24T12:00:00,1163A,120.596,31.3264,苏州市,轧钢厂,颗粒物(PM10),57,64,48,36,25,146,136,50,50,20,21,16,14,0.7,0.6
2023-10-24T12:00:00,1164A,120.613,31.2703,苏州市,吴中区,"颗粒物(PM10),细颗粒物(PM2.5)",62,73,50,44,25,159,151,56,56,27,37,10,9,0.7,0.7
2023-10-24T12:00:00,1165A,120.543,31.2994,苏州市,苏州新区,细颗粒物(PM2.5),64,72,49,46,30,160,147,53,53,26,36,7,8,0.6,0.6
2023-10-24T12:00:00,1166A,120.669,31.3097,苏州市,苏州工业园区,颗粒物(PM10),54,58,43,31,25,157,140,59,59,30,30,10,8,0.8,0.7
2023-10-24T12:00:00,1167A,120.641,31.3708,苏州市,相城区,细颗粒物(PM2.5),59,63,39,42,25,145,137,52,52,31,41,11,9,0.8,0.7
2023-10-24T12:00:00,1168A,120.9098,31.9663,南通市,狼山街道,颗粒物(PM10),51,51,30,28,13,140,110,42,42,34,36,11,7,0.6,0.4
2023-10-24T12:00:00,1169A,120.86,32.0005,南通市,虹桥,颗粒物(PM10),59,68,39,41,23,150,91,38,38,52,46,14,8,1.6,0.7
2023-10-24T12:00:00,1170A,120.87,32.02,南通市,城中,颗粒物(PM10),57,63,36,38,18,136,97,40,40,41,38,14,8,1.4,0.5
2023-10-24T12:00:00,1171A,120.94,31.93,南通市,星湖花园,,50,50,34,24,16,148,112,49,49,30,37,13,7,0.9,0.6
2023-10-24T12:00:00,1172A,120.81,32.0417,南通市,紫琅学院,颗粒物(PM10),54,57,36,23,13,126,81,34,34,50,54,13,9,1.0,0.5
2023-10-24T12:00:00,1173A,119.176,34.5885,连云港市,市环境监测站,颗粒物(PM10),57,63,85,34,56,164,156,118,118,15,31,10,12,0.7,0.7
2023-10-24T12:00:00,1177A,117.179,34.2761,徐州市,黄河新村,细颗粒物(PM2.5),77,100,109,56,74,164,131,62,62,39,45,12,8,0.6,0.6
2023-10-24T12:00:00,1178A,117.1918,34.2384,徐州市,淮塔,细颗粒物(PM2.5),73,92,119,53,76,172,141,48,48,34,50,14,8,0.6,0.6
2023-10-24T12:00:00,1180A,117.256,34.2153,徐州市,新城区,颗粒物(PM10),77,103,123,55,74,168,134,52,52,38,56,10,8,0.8,0.7
2023-10-24T12:00:00,1181A,117.244,34.2911,徐州市,桃园路,颗粒物(PM10),70,90,114,50,70,165,139,72,72,35,42,16,13,0.9,0.8
2023-10-24T12:00:00,1182A,117.2933,34.2778,徐州市,农科院,,,,107,,70,166,142,76,76,,46,10,10,,0.7
2023-10-24T12:00:00,1186A,119.389,32.3761,扬州市,邗江监测站,颗粒物(PM10),59,68,85,27,35,174,149,52,52,29,71,8,9,0.5,0.6
2023-10-24T12:00:00,1188A,120.269,31.4867,无锡市,雪浪,颗粒物(PM10),51,51,44,34,23,132,130,46,46,12,36,7,6,0.7,0.7
2023-10-24T12:00:00,1189A,120.275,31.6219,无锡市,黄巷,颗粒物(PM10),59,68,62,34,23,128,126,43,43,21,60,9,8,1.0,1
2023-10-24T12:00:00,1190A,120.294,31.56,无锡市,曹张,细颗粒物(PM2.5),55,45,40,39,27,128,128,42,42,18,48,9,8,0.9,0.9
2023-10-24T12:00:00,1191A,120.242,31.5031,无锡市,漆塘,细颗粒物(PM2.5),58,61,39,41,27,147,147,52,52,21,33,9,7,0.8,0.7
2023-10-24T12:00:00,1192A,120.3489,31.5863,无锡市,东亭,,46,46,45,31,25,134,133,46,46,22,55,6,6,1.0,1.1
2023-10-24T12:00:00,1193A,120.354,31.5475,无锡市,旺庄,细颗粒物(PM2.5),55,53,44,39,24,134,134,51,51,31,57,6,6,0.8,0.8
2023-10-24T12:00:00,1194A,120.245,31.5631,无锡市,荣巷,细颗粒物(PM2.5),62,56,33,44,23,141,141,54,54,19,31,10,8,0.8,0.8
2023-10-24T12:00:00,1195A,120.299,31.6817,无锡市,堰桥,颗粒物(PM10),53,56,45,34,24,132,126,40,40,23,46,8,6,0.7,0.7
2023-10-24T12:00:00,1196A,119.9633,31.762,常州市,市监测站,颗粒物(PM10),62,74,69,37,36,156,115,47,47,34,60,10,10,0.6,0.8
2023-10-24T12:00:00,1200A,119.9468,31.7069,常州市,武进监测站,"颗粒物(PM10),细颗粒物(PM2.5)",58,66,60,41,30,150,128,52,52,22,34,12,10,0.8,0.7
2023-10-24T12:00:00,1201A,119.9255,31.9087,常州市,安家,细颗粒物(PM2.5),63,69,76,45,45,177,138,45,45,23,59,9,8,0.8,0.9
2023-10-24T12:00:00,1203A,119.6707,32.1875,镇江市,新区办事处,细颗粒物(PM2.5),79,78,72,58,47,180,123,46,46,59,67,10,6,0.8,0.8
2023-10-24T12:00:00,1204A,119.4974,32.1968,镇江市,职教中心,细颗粒物(PM2.5),52,47,64,36,53,174,145,54,54,20,54,5,6,0.5,0.6
2023-10-24T12:00:00,1205A,119.4303,32.1328,镇江市,丹徒区监测站,,43,42,53,26,43,166,137,62,62,17,40,6,7,0.5,0.6
2023-10-24T12:00:00,1206A,119.905,32.4878,泰州市,公园路,细颗粒物(PM2.5),64,66,69,46,47,203,141,49,49,36,46,12,10,0.9,0.9
2023-10-24T12:00:00,1207A,119.9189,32.4625,泰州市,莲花,细颗粒物(PM2.5),64,68,79,46,49,201,133,43,43,39,46,8,7,0.8,0.7
2023-10-24T12:00:00,1209A,119.888,32.4639,泰州市,留学生创业园,细颗粒物(PM2.5),65,68,85,47,45,202,128,43,43,37,45,10,8,0.9,0.9
2023-10-24T12:00:00,1210A,119.036,33.5981,淮安市,钵池山,细颗粒物(PM2.5),62,63,66,44,52,159,155,104,104,22,41,14,11,1.0,0.9
2023-10-24T12:00:00,1211A,119.007,33.575,淮安市,北京南路,细颗粒物(PM2.5),72,61,71,52,52,164,159,101,101,25,49,11,10,0.8,0.9
2023-10-24T12:00:00,1212A,118.989,33.6067,淮安市,市监测站,"细颗粒物(PM2.5),臭氧1小时",58,58,72,41,48,169,166,114,114,22,35,15,15,0.7,0.9
2023-10-24T12:00:00,1213A,119.135,33.5039,淮安市,楚州区监测站,细颗粒物(PM2.5),58,59,75,41,58,170,162,71,71,21,50,12,10,0.8,0.9
2023-10-24T12:00:00,1214A,119.0186,33.6297,淮安市,淮阴区监测站,细颗粒物(PM2.5),68,70,90,49,54,161,156,107,107,25,50,14,12,0.7,0.9
2023-10-24T12:00:00,1215A,120.118,33.4022,盐城市,盐城电厂,颗粒物(PM10),56,61,62,29,33,174,147,56,56,15,31,10,8,0.6,0.6
2023-10-24T12:00:00,1216A,120.156,33.3942,盐城市,市监测站,,50,50,47,34,34,186,155,55,55,18,37,11,10,0.6,0.6
2023-10-24T12:00:00,1218A,120.2144,33.38,盐城市,开发区管委会,,,,54,,23,84,,122,,,36,,10,,0.5
2023-10-24T12:00:00,1220A,118.293,33.9528,宿迁市,宿迁学院,臭氧1小时,60,51,84,35,54,193,168,82,82,16,59,12,12,0.4,0.5
2023-10-24T12:00:00,1221A,118.2442,33.9592,宿迁市,宿迁中学,颗粒物(PM10),57,64,90,38,56,175,154,113,113,18,29,11,11,0.7,0.8
2023-10-24T12:00:00,1223A,120.2072,30.2111,杭州市,滨江,,34,31,59,18,31,151,108,44,44,22,41,7,7,0.6,0.6
2023-10-24T12:00:00,1224A,120.0633,30.2747,杭州市,西溪,,40,35,44,22,33,152,125,39,39,19,29,6,5,0.6,0.6
2023-10-24T12:00:00,1226A,120.3461,30.3153,杭州市,下沙,,45,45,58,24,35,160,127,48,48,19,52,7,7,0.5,0.5
2023-10-24T12:00:00,1227A,120.1269,30.2456,杭州市,卧龙桥,,40,40,39,27,28,143,104,37,37,24,22,5,4,0.7,0.7
2023-10-24T12:00:00,1228A,120.1903,30.2692,杭州市,浙江农大,,31,30,40,18,30,123,97,41,41,23,34,6,6,0.7,0.7
2023-10-24T12:00:00,1230A,120.1197,30.3119,杭州市,和睦小学,,45,45,50,31,36,148,110,40,40,24,41,10,9,0.6,0.6
2023-10-24T12:00:00,1231A,120.3019,30.4183,杭州市,临平镇,颗粒物(PM10),52,53,57,26,28,149,132,42,42,22,43,6,5,0.6,0.6
2023-10-24T12:00:00,1232A,120.2697,30.1819,杭州市,城厢镇,,35,31,57,19,42,142,110,46,46,15,37,8,7,0.6,0.7
2023-10-24T12:00:00,1233A,120.0883,30.1808,杭州市,云栖,,35,30,42,23,27,142,110,38,38,20,25,8,7,0.7,0.6
2023-10-24T12:00:00,1234A,121.8358,29.911,宁波市,区环保大楼,,27,16,16,8,9,113,86,38,38,13,33,5,5,0.5,0.5
2023-10-24T12:00:00,1235A,121.56,29.82,宁波市,万里学院,,27,27,33,16,17,116,81,30,30,12,23,10,9,0.7,0.6
2023-10-24T12:00:00,1236A,121.713,29.9572,宁波市,龙赛医院,,32,32,31,14,13,126,70,29,29,24,39,6,7,0.3,0.4
2023-10-24T12:00:00,1239A,121.633,29.7733,宁波市,钱湖水厂,,29,21,22,16,14,114,92,58,48,5,8,7,6,0.5,0.4
2023-10-24T12:00:00,1240A,121.5856,29.8635,宁波市,太古小学,,25,21,26,12,12,114,79,45,43,17,22,8,7,0.6,0.6
2023-10-24T12:00:00,1241A,121.524,29.8674,宁波市,市环境监测中心,,30,26,30,21,13,120,91,31,31,17,24,7,7,0.2,0.3
2023-10-24T12:00:00,1242A,120.634,28.0089,温州市,瓯海,,,31,58,17,31,99,99,4,,19,39,6,7,,0.7
2023-10-24T12:00:00,1243A,120.6748,27.9939,温州市,南浦,,32,30,59,15,31,102,102,34,34,17,40,6,7,0.4,0.4
2023-10-24T12:00:00,1244A,120.76,27.9747,温州市,龙湾,,25,12,57,6,22,93,79,32,32,21,46,6,5,0.4,0.6
2023-10-24T12:00:00,1245A,120.6709,28.0167,温州市,市站,,32,32,57,12,28,92,92,34,34,23,42,7,7,0.4,0.5
2023-10-24T12:00:00,1247A,120.6053,29.9928,绍兴市,城东开发委,,29,22,48,13,30,130,92,40,40,10,25,7,8,0.6,0.6
2023-10-24T12:00:00,1250A,120.0751,30.8669,湖州市,城西水厂,,,30,61,16,36,191,86,28,28,41,49,4,4,,0.5
2023-10-24T12:00:00,1252A,120.7436,30.778,嘉兴市,清河小学,颗粒物(PM10),55,59,39,29,19,148,126,64,64,34,23,8,6,0.4,0.4
2023-10-24T12:00:00,1253A,120.726,30.7478,嘉兴市,嘉兴学院,颗粒物(PM10),56,62,40,33,24,142,117,59,59,28,21,7,6,0.5,0.5
2023-10-24T12:00:00,1255A,121.273,28.6459,台州市,黄岩环保大楼,,31,27,39,16,20,107,97,50,50,19,26,7,6,0.5,0.5
2023-10-24T12:00:00,1256A,121.419,28.6542,台州市,台州环保大楼,,34,33,36,20,22,108,108,45,45,11,23,5,5,0.4,0.4
2023-10-24T12:00:00,1257A,121.377,28.5773,台州市,路桥田洋王,,37,37,42,22,31,106,106,41,41,15,32,9,8,0.4,0.5
2023-10-24T12:00:00,1258A,122.122,30.0203,舟山市,定海檀枫,,28,14,15,10,10,114,87,47,47,16,16,7,6,0.3,0.3
2023-10-24T12:00:00,1259A,122.3094,29.9558,舟山市,普陀东港,,24,6,15,0,5,97,76,56,53,11,16,5,5,0.3,0.3
2023-10-24T12:00:00,1260A,122.19,29.9944,舟山市,临城新区,,,15,17,6,9,106,79,41,41,,20,,5,0.2,0.3
2023-10-24T12:00:00,1262A,119.647,29.077,金华市,十五中,,29,27,25,20,20,123,90,40,40,23,34,5,5,0.4,0.5
2023-10-24T12:00:00,1263A,119.686,29.1029,金华市,监测站,,32,32,43,12,20,117,85,33,33,16,44,5,5,0.5,0.6
2023-10-24T12:00:00,1264A,118.8692,28.9398,衢州市,环保大楼,,40,40,48,24,30,110,74,25,25,24,35,5,6,1.0,0.7
2023-10-24T12:00:00,1265A,118.8709,28.9666,衢州市,实验学校,,,34,44,21,26,113,78,28,28,,38,7,5,0.8,0.6
2023-10-24T12:00:00,1266A,118.8621,28.9808,衢州市,衢州学院,,41,41,43,23,25,108,71,25,25,30,38,8,6,0.7,0.5
2023-10-24T12:00:00,1267A,119.914,28.4514,丽水市,监测站大楼,,35,35,26,14,15,90,81,32,32,14,21,17,9,0.3,0.4
2023-10-24T12:00:00,1268A,119.93,28.4586,丽水市,莲都小学,,28,24,32,13,16,93,88,33,33,6,18,6,6,0.3,0.3
2023-10-24T12:00:00,1269A,119.879,28.4231,丽水市,余庄前,,27,25,24,6,11,92,86,29,29,19,15,6,6,0.3,0.2
2023-10-24T12:00:00,1270A,117.1959,31.7848,合肥市,明珠广场,,44,44,65,24,34,158,77,52,50,39,53,10,10,0.5,0.7
2023-10-24T12:00:00,1271A,117.3072,31.8764,合肥市,三里街,颗粒物(PM10),56,61,81,31,43,147,101,32,32,41,73,6,7,0.5,0.6
2023-10-24T12:00:00,1272A,117.2588,31.8707,合肥市,琥珀山庄,颗粒物(PM10),56,61,62,31,34,163,112,55,55,28,42,6,6,0.5,0.7
2023-10-24T12:00:00,1273A,117.1604,31.9052,合肥市,董铺水库,颗粒物(PM10),58,66,64,22,25,169,102,42,42,34,42,4,4,0.4,0.5
2023-10-24T12:00:00,1274A,117.25,31.8571,合肥市,长江中路,,,56,70,26,43,153,101,60,60,33,51,8,9,,0.7
2023-10-24T12:00:00,1275A,117.266,31.9436,合肥市,庐阳区,颗粒物(PM10),57,63,85,36,46,154,113,41,41,24,75,5,6,0.5,0.8
2023-10-24T12:00:00,1276A,117.336,31.8586,合肥市,瑶海区,,,,95,,44,145,89,30,30,,74,6,6,,0.7
2023-10-24T12:00:00,1277A,117.3027,31.7964,合肥市,包河区,颗粒物(PM10),58,66,73,31,40,157,95,41,41,46,75,9,10,0.3,0.6
2023-10-24T12:00:00,1278A,117.2776,31.7385,合肥市,滨湖新区,,48,48,58,19,32,160,69,59,45,52,32,6,6,0.3,0.5
2023-10-24T12:00:00,1279A,117.1318,31.8403,合肥市,高新区,颗粒物(PM10),56,61,62,18,29,160,107,75,68,29,40,10,9,0.6,0.8
2023-10-24T12:00:00,1280A,119.3903,26.0543,福州市,鼓山,,,,,,,,,,,,,,,,
2023-10-24T12:00:00,1282A,119.2681,26.0504,福州市,师大,,34,34,34,9,12,78,78,42,42,7,16,5,5,0.5,0.6
2023-10-24T12:00:00,1283A,119.2984,26.1028,福州市,五四北路,,,,29,13,11,85,85,44,44,8,14,3,3,0.5,0.6
2023-10-24T12:00:00,1284A,119.2648,26.0768,福州市,杨桥西路,,31,31,34,8,10,78,78,44,44,7,18,3,4,0.4,0.5
2023-10-24T12:00:00,1285A,119.317,26.0746,福州市,紫阳,,44,44,31,10,10,77,77,54,47,9,10,5,5,0.4,0.5
2023-10-24T12:00:00,1286A,118.1608,24.8169,厦门市,溪东,,,,,,,,,,,,,,,,
2023-10-24T12:00:00,1287A,118.1514,24.4767,厦门市,洪文,,27,27,30,16,15,103,69,44,44,8,10,2,2,0.4,0.4
2023-10-24T12:00:00,1288A,118.0661,24.4444,厦门市,鼓浪屿,,38,38,29,21,14,96,43,30,27,38,21,9,3,0.4,0.4
2023-10-24T12:00:00,1290A,115.8931,28.6843,南昌市,省外办,颗粒物(PM10),80,109,88,51,45,155,87,34,34,48,50,10,8,0.8,0.7
2023-10-24T12:00:00,1291A,115.8886,28.7003,南昌市,省林业公司,颗粒物(PM10),70,90,83,44,41,165,114,43,43,31,60,15,9,0.6,0.5
2023-10-24T12:00:00,1292A,115.8126,28.7442,南昌市,林科所,颗粒物(PM10),53,56,48,31,26,174,148,82,82,22,42,14,10,0.7,0.6
2023-10-24T12:00:00,1294A,115.8518,28.687,南昌市,建工学校,颗粒物(PM10),67,84,84,28,44,165,102,37,37,44,61,13,11,0.7,0.8
2023-10-24T12:00:00,1295A,115.8921,28.6424,南昌市,象湖,颗粒物(PM10),64,78,80,38,42,185,115,33,33,39,61,14,11,0.6,0.9
2023-10-24T12:00:00,1296A,115.7423,28.7996,南昌市,武术学校,,45,26,19,10,13,170,143,50,50,14,10,2,3,0.4,0.3
2023-10-24T12:00:00,1298A,115.9314,28.6842,南昌市,省站,颗粒物(PM10),74,98,94,52,46,169,100,36,36,40,49,16,11,0.8,0.7
2023-10-24T12:00:00,1299A,116.9862,36.6114,济南市,科干所,颗粒物(PM10),67,83,70,42,33,163,163,143,143,16,16,9,8,0.6,0.5
2023-10-24T12:00:00,1300A,116.9376,36.665,济南市,农科所,颗粒物(PM10),68,85,84,37,31,148,146,123,123,24,26,8,7,0.6,0.6
2023-10-24T12:00:00,1301A,117.1265,36.6734,济南市,开发区,颗粒物(PM10),56,61,61,29,26,156,148,130,130,19,22,8,8,0.5,0.4
2023-10-24T12:00:00,1303A,117.0624,36.6868,济南市,省种子仓库,颗粒物(PM10),64,78,71,29,30,164,158,142,140,15,16,7,7,0.6,0.5
2023-10-24T12:00:00,1304A,116.9489,36.6447,济南市,机床二厂,颗粒物(PM10),64,78,80,39,35,155,149,131,131,38,31,8,7,0.5,0.5
2023-10-24T12:00:00,1305A,117.0495,36.663,济南市,市监测站,颗粒物(PM10),57,63,62,32,27,164,160,146,143,28,30,8,8,0.8,0.7
2023-10-24T12:00:00,1306A,116.7675,36.5484,济南市,长清党校,颗粒物(PM10),72,93,87,49,45,156,151,128,128,26,27,11,10,0.6,0.5
2023-10-24T12:00:00,1307A,120.6659,36.2403,青岛市,仰口,臭氧1小时,69,63,49,34,31,176,175,156,155,16,17,7,6,0.5,0.5
2023-10-24T12:00:00,1310A,120.4134,36.0658,青岛市,市南区东部子站,臭氧1小时,64,68,65,34,32,195,171,140,128,28,23,15,11,1.1,0.7
2023-10-24T12:00:00,1311A,120.3664,36.1032,青岛市,四方区子站,颗粒物(PM10),64,78,65,44,37,152,122,103,90,38,29,8,5,1.5,0.9
2023-10-24T12:00:00,1312A,120.2994,36.054,青岛市,市南区西部子站,"颗粒物(PM10),细颗粒物(PM2.5),臭氧1小时",64,78,65,46,34,203,171,127,120,41,28,21,12,1.8,0.8
2023-10-24T12:00:00,1313A,120.4581,36.0858,青岛市,崂山区子站,臭氧1小时,75,68,62,39,35,204,180,131,121,32,29,14,9,1.3,0.8
2023-10-24T12:00:00,1314A,120.1983,35.9608,青岛市,黄岛区子站,细颗粒物(PM2.5),77,92,68,56,39,198,170,138,129,47,32,31,12,2.6,0.9
2023-10-24T12:00:00,1315A,120.3999,36.3083,青岛市,城阳区子站,颗粒物(PM10),70,90,80,34,33,183,161,112,110,49,52,16,10,1.2,0.9
2023-10-24T12:00:00,1316A,113.69031,34.76122,郑州市,烟厂,颗粒物(PM10),57,64,91,27,52,147,104,53,53,19,31,12,10,0.6,0.6
2023-10-24T12:00:00,1317A,113.65724,34.77134,郑州市,郑纺机,颗粒物(PM10),56,62,87,26,43,143,102,49,49,26,43,13,10,0.7,0.8
2023-10-24T12:00:00,1318A,113.67526,34.80246,郑州市,银行学校,颗粒物(PM10),56,62,79,26,50,148,106,52,52,21,35,11,10,0.5,0.6
2023-10-24T12:00:00,1319A,113.56746,34.81334,郑州市,供水公司,,48,48,90,28,50,138,103,49,49,22,36,16,12,0.9,1
2023-10-24T12:00:00,1320A,113.7329,34.7178,郑州市,经开区管委,颗粒物(PM10),62,74,97,25,50,153,102,41,41,25,43,10,8,0.6,0.6
2023-10-24T12:00:00,1321A,113.73961,34.77172,郑州市,四十七中,,47,47,84,26,50,158,107,55,55,29,39,12,9,0.7,0.8
2023-10-24T12:00:00,1322A,113.60532,34.74838,郑州市,市监测站,颗粒物(PM10),70,90,104,30,48,142,105,39,39,25,44,11,9,0.5,0.6
2023-10-24T12:00:00,1323A,113.64164,34.7525,郑州市,河医大,颗粒物(PM10),62,73,94,30,55,145,103,46,46,21,32,14,12,0.7,0.8
2023-10-24T12:00:00,1324A,113.51488,34.91089,郑州市,岗李水库,,,,,,,,,,,,,,,,
2023-10-24T12:00:00,1325A,114.3677,30.5584,武汉市,东湖梨园,,,75,55,42,39,158,87,41,41,,48,15,11,1.1,0.8
2023-10-24T12:00:00,1326A,114.2529,30.558,武汉市,汉阳月湖,颗粒物(PM10),64,77,65,44,37,128,77,33,33,59,73,12,10,1.1,0.9
2023-10-24T12:00:00,1327A,114.282,30.6189,武汉市,汉口花桥,颗粒物(PM10),65,79,69,44,46,148,86,36,36,49,72,13,11,1.1,1
2023-10-24T12:00:00,1328A,114.3025,30.5332,武汉市,武昌紫阳,细颗粒物(PM2.5),58,43,54,41,38,148,108,38,38,42,69,13,11,1.0,1
2023-10-24T12:00:00,1329A,114.3646,30.6217,武汉市,青山钢花,细颗粒物(PM2.5),62,70,81,44,56,155,99,50,50,42,62,14,15,1.0,1
2023-10-24T12:00:00,1330A,114.1566,30.4825,武汉市,沌口新区,,,,81,,49,164,99,43,43,38,73,,15,,0.8
2023-10-24T12:00:00,1331A,114.3014,30.5944,武汉市,汉口江滩,细颗粒物(PM2.5),69,73,65,50,38,163,87,45,45,49,60,12,10,1.0,0.8
2023-10-24T12:00:00,1333A,114.135,30.6319,武汉市,吴家山,细颗粒物(PM2.5),68,84,75,49,47,152,101,36,36,58,72,13,10,1.0,1.1
2023-10-24T12:00:00,1334A,113.8454,30.2917,武汉市,沉湖七壕,颗粒物(PM10),51,51,46,22,22,175,144,72,72,19,34,9,6,0.8,0.8
2023-10-24T12:00:00,1335A,113.0833,28.2325,长沙市,经开区环保局,颗粒物(PM10),58,65,72,33,39,164,111,54,54,19,39,10,10,0.5,0.6
2023-10-24T12:00:00,1336A,112.8872,28.2189,长沙市,高开区环保局,颗粒物(PM10),52,53,70,32,37,180,132,96,96,16,34,10,10,0.6,0.7
2023-10-24T12:00:00,1337A,113.0792,28.2053,长沙市,马坡岭,颗粒物(PM10),62,74,84,38,43,178,135,71,71,13,35,11,10,0.6,0.5
2023-10-24T12:00:00,1338A,112.9394,28.19,长沙市,湖南师范大学,颗粒物(PM10),55,59,58,35,35,182,128,91,91,17,21,12,10,0.6,0.7
2023-10-24T12:00:00,1339A,113.0178,28.1322,长沙市,雨花区环保局,颗粒物(PM10),51,51,54,29,32,162,126,104,96,18,25,12,12,0.6,0.6
2023-10-24T12:00:00,1340A,112.9792,28.2597,长沙市,伍家岭,颗粒物(PM10),64,78,94,32,57,164,126,41,41,28,56,10,8,0.7,0.8
2023-10-24T12:00:00,1341A,113.0014,28.1944,长沙市,火车新站,颗粒物(PM10),59,67,71,36,40,161,124,85,85,26,44,10,9,0.7,0.7
2023-10-24T12:00:00,1342A,112.9844,28.1178,长沙市,天心区环保局,,50,50,53,30,31,172,125,103,103,17,25,10,9,0.4,0.4
2023-10-24T12:00:00,1343A,112.8908,28.1308,长沙市,湖南中医药大学,颗粒物(PM10),53,55,81,28,45,201,136,48,48,16,57,10,8,1.1,1.1
2023-10-24T12:00:00,1344A,112.9581,28.3611,长沙市,沙坪,,50,50,46,34,34,172,85,64,60,29,17,9,7,0.4,0.3
2023-10-24T12:00:00,1345A,113.2347,23.1423,广州市,广雅中学,,42,42,47,19,25,115,72,23,23,23,48,4,4,0.7,0.9
2023-10-24T12:00:00,1346A,113.2612,23.105,广州市,市五中,,27,25,38,14,26,121,84,27,27,14,39,6,6,0.6,0.8
2023-10-24T12:00:00,1348A,113.3478,23.0916,广州市,广东商学院,,36,36,45,21,31,105,79,26,26,23,42,4,4,0.5,0.6
2023-10-24T12:00:00,1349A,113.4332,23.1047,广州市,市八十六中,,31,31,42,14,22,103,86,26,26,22,44,5,5,0.5,0.7
2023-10-24T12:00:00,1350A,113.3505,22.9483,广州市,番禺中学,,48,48,53,22,29,128,79,26,26,27,50,8,6,0.7,0.8
2023-10-24T12:00:00,1351A,113.2146,23.3916,广州市,花都师范,,48,48,44,27,29,124,80,25,25,26,39,7,5,0.8,0.9
2023-10-24T12:00:00,1352A,113.2597,23.1331,广州市,市监测站,,,19,39,10,21,120,85,23,23,13,49,4,4,,0.8
2023-10-24T12:00:00,1353A,113.5618,23.312,广州市,九龙镇镇龙,,25,25,32,16,19,77,76,24,24,8,23,5,5,0.5,0.6
2023-10-24T12:00:00,1354A,113.2765,23.1544,广州市,麓湖,,28,20,30,12,20,113,87,26,26,10,31,4,4,0.5,0.7
2023-10-24T12:00:00,1355A,113.443,23.3035,广州市,帽峰山森林公园,,25,0,8,17,22,80,80,43,43,7,9,6,6,0.4,0.4
2023-10-24T12:00:00,1356A,114.1063,22.5545,深圳市,通心岭子站,,35,35,39,22,23,148,100,55,48,22,23,3,2,0.9,0.9
2023-10-24T12:00:00,1357A,114.117,22.5625,深圳市,洪湖,,32,26,42,17,21,146,102,49,49,21,27,7,7,0.5,0.5
2023-10-24T12:00:00,1358A,113.987,22.5417,深圳市,华侨城,,40,40,38,28,23,162,98,54,54,21,23,5,5,0.9,0.9
2023-10-24T12:00:00,1359A,113.9181,22.5171,深圳市,南海子站,颗粒物(PM10),51,52,49,23,28,163,69,64,52,40,18,5,5,0.8,0.7
2023-10-24T12:00:00,1360A,114.2458,22.5689,深圳市,盐田,,,,36,,21,78,,90,,,38,,6,,0.8
2023-10-24T12:00:00,1361A,114.2283,22.7244,深圳市,龙岗,,37,33,46,18,24,120,116,57,57,15,26,7,7,0.9,1
2023-10-24T12:00:00,1363A,114.494,22.5422,深圳市,南澳,,40,35,32,22,21,133,126,87,84,18,14,9,6,1.0,0.9
2023-10-24T12:00:00,1364A,114.41,22.6342,深圳市,葵涌,,39,29,29,21,20,135,122,66,66,17,16,5,5,0.6,0.7
2023-10-24T12:00:00,1365A,114.297,22.5978,深圳市,梅沙,,,,40,,23,82,,85,,,11,,7,,1.1
2023-10-24T12:00:00,1366A,114.0678,22.738,深圳市,观澜,,44,44,63,27,30,183,139,59,59,14,33,8,9,0.8,0.8
2023-10-24T12:00:00,1367A,113.5814,22.2618,珠海市,吉大,,47,47,45,32,28,224,111,65,64,22,22,7,6,0.6,0.6
2023-10-24T12:00:00,1368A,113.4881,22.2335,珠海市,前山,,37,37,44,17,22,195,94,55,53,28,31,8,6,0.5,0.6
2023-10-24T12:00:00,1369A,113.628,22.4251,珠海市,唐家,,,49,52,34,34,209,,57,48,24,25,4,4,0.7,0.7
2023-10-24T12:00:00,1370A,113.299,22.2281,珠海市,斗门,,49,49,53,27,35,189,98,54,54,30,34,7,8,0.6,0.7
2023-10-24T12:00:00,1371A,113.1294,23.0067,佛山市,湾梁,,34,34,44,23,27,177,82,23,23,22,46,10,11,0.6,0.9
2023-10-24T12:00:00,1372A,113.1083,23.0478,佛山市,华材职中,,32,27,61,22,36,159,74,20,20,19,50,7,8,0.5,0.8
2023-10-24T12:00:00,1373A,113.144,23.0453,佛山市,南海气象局,,35,35,59,22,31,178,82,23,23,22,53,7,7,0.5,0.8
2023-10-24T12:00:00,1374A,113.2881,22.8094,佛山市,顺德苏岗,,30,30,49,17,26,143,94,28,28,15,44,10,10,0.7,0.8
2023-10-24T12:00:00,1376A,112.8383,22.8678,佛山市,高明孔堂,"颗粒物(PM10),细颗粒物(PM2.5)",58,65,58,41,33,222,85,22,22,63,38,10,8,0.9,0.9
2023-10-24T12:00:00,1377A,112.8836,23.1588,佛山市,三水监测站,细颗粒物(PM2.5),60,56,68,43,43,161,109,32,32,36,54,8,8,0.7,1
2023-10-24T12:00:00,1378A,112.867,23.185,佛山市,三水云东海,细颗粒物(PM2.5),58,57,54,41,33,154,118,33,33,27,32,9,6,0.7,0.8
2023-10-24T12:00:00,1379A,113.3769,22.5211,中山市,华柏园,,50,50,55,33,47,224,100,40,40,32,41,4,4,0.4,0.6
2023-10-24T12:00:00,1380A,113.3881,22.5497,中山市,张溪,细颗粒物(PM2.5),64,76,76,46,44,242,108,34,34,32,45,4,4,0.7,0.7
2023-10-24T12:00:00,1381A,113.4075,22.5111,中山市,紫马岭,,,,50,,37,210,,32,,,31,,4,,0.6
2023-10-24T12:00:00,1382A,113.4411,22.4853,中山市,长江旅游区,,,,,,,,,,,,,,,,
2023-10-24T12:00:00,1383A,113.1064,22.6058,江门市,北街,颗粒物(PM10),57,64,63,39,41,149,149,41,41,34,55,10,9,0.7,0.9
2023-10-24T12:00:00,1384A,113.0731,22.5835,江门市,西区,颗粒物(PM10),54,57,65,34,36,158,158,44,44,32,60,10,8,0.7,1
2023-10-24T12:00:00,1385A,113.0219,22.5311,江门市,圭峰西,,,,51,,37,158,138,40,40,30,52,6,6,,0.9
2023-10-24T12:00:00,1386A,113.0828,22.5947,江门市,东湖,颗粒物(PM10),60,70,65,37,38,158,158,44,44,30,47,8,7,0.7,0.9
2023-10-24T12:00:00,1389A,113.7547,23.0494,东莞市,莞城梨川,,42,38,42,23,26,134,132,51,51,16,27,7,8,0.8,0.9
2023-10-24T12:00:00,1390A,113.7944,23.0128,东莞市,东城石井,,44,36,43,23,25,139,138,48,48,14,22,7,7,0.7,0.8
2023-10-24T12:00:00,1391A,113.7383,22.9658,东莞市,南城西平,,46,45,47,25,25,152,147,46,46,16,35,6,5,0.8,0.8
2023-10-24T12:00:00,1392A,114.4183,23.0528,惠州市,河南岸金山湖子站,,44,44,43,24,27,95,95,32,32,10,19,6,6,0.6,0.7
2023-10-24T12:00:00,1393A,114.4053,23.0822,惠州市,下埔横江三路子站,,42,42,41,23,26,101,101,39,39,13,19,7,9,0.7,0.7
2023-10-24T12:00:00,1394A,114.4103,23.1142,惠州市,江北云山西路子站,,33,29,38,20,23,105,105,41,41,6,18,9,11,0.5,0.7
2023-10-24T12:00:00,1395A,114.4645,22.7833,惠州市,惠阳区承修路船湖子站,,41,37,45,21,25,129,129,49,49,20,26,6,6,0.7,0.8
2023-10-24T12:00:00,1396A,114.5317,22.7422,惠州市,大亚湾管委会子站,,36,36,48,19,24,156,106,72,72,22,30,7,6,0.7,0.8
2023-10-24T12:00:00,1397A,112.4267,23.0706,肇庆市,睦岗子站,,50,50,39,32,23,127,89,26,26,27,39,14,8,0.6,0.6
2023-10-24T12:00:00,1398A,112.4645,23.0475,肇庆市,城中子站,,,55,40,33,26,168,79,24,24,44,51,,10,0.8,0.8
2023-10-24T12:00:00,1399A,112.5544,23.1522,肇庆市,坑口子站,,35,34,28,24,20,136,100,44,44,20,21,16,10,0.6,0.6
2023-10-24T12:00:00,1400A,112.4753,23.1,肇庆市,七星岩子站,,,,,,,,,,,,,,,,
2023-10-24T12:00:00,1401A,108.3103,22.7881,南宁市,二十一中,颗粒物(PM10),51,51,58,25,31,139,106,30,30,15,57,8,10,0.9,0.9
2023-10-24T12:00:00,1402A,108.3141,22.8528,南宁市,北湖,,34,34,59,21,37,128,101,35,35,10,29,7,21,0.8,0.9
2023-10-24T12:00:00,1403A,108.3206,22.8225,南宁市,市监测站,颗粒物(PM10),53,56,57,23,32,142,98,38,38,24,41,11,15,0.7,0.8
2023-10-24T12:00:00,1404A,108.3829,22.8037,南宁市,大自然花园,,39,39,42,25,28,126,96,45,45,16,24,10,8,0.8,0.8
2023-10-24T12:00:00,1405A,108.4394,22.7904,南宁市,仙葫,,40,40,51,23,35,122,99,36,36,12,36,9,8,0.6,0.7
2023-10-24T12:00:00,1406A,108.2397,22.8467,南宁市,区农职院,颗粒物(PM10),61,72,55,30,32,121,94,29,29,28,32,14,21,0.7,0.8
2023-10-24T12:00:00,1407A,108.3275,22.735,南宁市,英华嘉园,,49,49,53,27,33,127,79,24,24,28,36,9,10,0.8,0.8
2023-10-24T12:00:00,1408A,108.2257,22.7757,南宁市,沙井镇街道办,颗粒物(PM10),56,61,77,27,31,122,88,26,26,30,35,4,5,0.9,0.8
2023-10-24T12:00:00,1409A,110.576,19.9507,海口市,东寨港,,,,,,,,,,,,,,,,
2023-10-24T12:00:00,1410A,110.3232,20.0574,海口市,海南大学,,39,39,34,16,20,142,102,120,119,11,10,6,6,0.5,0.5
2023-10-24T12:00:00,1411A,110.283,20.0053,海口市,秀英海南医院,,,,36,,19,137,,119,119,,9,,8,,0.5
2023-10-24T12:00:00,1412A,110.338,19.9969,海口市,海南师范大学,,41,41,36,16,20,133,98,114,113,10,10,6,6,0.5,0.5
2023-10-24T12:00:00,1413A,110.33,20.0356,海口市,龙华路环保局宿舍,,,40,35,16,19,142,103,122,120,10,10,,8,,0.2
2023-10-24T12:00:00,1414A,106.3787,29.8279,重庆市,缙云山,,45,45,52,30,33,106,58,86,74,9,12,10,12,0.2,0.2
2023-10-24T12:00:00,1416A,106.4213,29.8253,重庆市,天生,细颗粒物(PM2.5),108,110,86,81,59,68,10,4,4,50,50,15,10,1.1,1
2023-10-24T12:00:00,1417A,106.6263,29.7228,重庆市,两路,,,97,62,53,40,84,7,10,9,66,50,,9,1.2,1.1
2023-10-24T12:00:00,1418A,106.2953,29.5983,重庆市,虎溪,细颗粒物(PM2.5),92,98,69,68,50,82,8,6,6,55,50,9,8,0.9,0.6
2023-10-24T12:00:00,1419A,106.5777,29.5102,重庆市,南坪,"颗粒物(PM10),细颗粒物(PM2.5)",78,105,81,57,46,75,9,6,6,71,82,13,9,1.3,1
2023-10-24T12:00:00,1420A,106.6556,29.6277,重庆市,唐家沱,颗粒物(PM10),69,88,77,48,37,72,5,4,4,60,50,8,7,1.1,0.9
2023-10-24T12:00:00,1421A,106.6349,29.4906,重庆市,茶园,,,,76,,34,71,,16,16,,65,,6,,1.1
2023-10-24T12:00:00,1422A,106.3754,29.4572,重庆市,白市驿,颗粒物(PM10),80,109,85,56,52,69,10,22,13,58,51,9,9,1.0,0.8
2023-10-24T12:00:00,1425A,106.6205,29.7166,重庆市,空港,颗粒物(PM10),110,170,84,51,48,86,15,,,69,62,10,8,1.2,1.1
2023-10-24T12:00:00,1426A,106.4782,29.4875,重庆市,新山村,,,,87,,50,58,,5,,,79,,10,,1.1
2023-10-24T12:00:00,1427A,106.5616,29.6453,重庆市,礼嘉,颗粒物(PM10),77,103,103,53,42,87,5,5,5,74,66,11,11,1.3,1
2023-10-24T12:00:00,1428A,106.4522,29.7091,重庆市,蔡家,细颗粒物(PM2.5),98,104,77,73,48,60,15,9,9,54,51,8,6,0.8,0.6
2023-10-24T12:00:00,1429A,106.5093,29.3917,重庆市,鱼新街,细颗粒物(PM2.5),94,115,81,70,48,89,8,6,6,71,71,14,10,1.4,1.2
2023-10-24T12:00:00,1431A,103.9728,30.7236,成都市,金泉两河,细颗粒物(PM2.5),102,114,97,76,73,104,40,6,6,53,40,4,4,0.8,0.8
2023-10-24T12:00:00,1432A,104.176,30.6872,成都市,十里店,细颗粒物(PM2.5),74,96,79,54,53,115,18,6,6,79,60,2,2,0.9,0.8
2023-10-24T12:00:00,1433A,104.079,30.5706,成都市,三瓦窑,细颗粒物(PM2.5),79,86,82,58,51,103,40,11,11,48,44,4,3,0.6,0.6
2023-10-24T12:00:00,1434A,104.1114,30.63,成都市,沙河铺,细颗粒物(PM2.5),90,112,80,67,57,105,16,2,2,79,48,2,2,1.0,0.9
2023-10-24T12:00:00,1437A,104.0786,30.6531,成都市,君平街,细颗粒物(PM2.5),112,124,103,84,72,103,19,4,4,100,66,6,7,1.4,1.3
2023-10-24T12:00:00,1438A,103.613,31.0283,成都市,灵岩寺,细颗粒物(PM2.5),63,6,57,45,45,133,59,102,84,15,14,13,16,0.7,1
2023-10-24T12:00:00,1439A,106.6899,26.5998,贵阳市,马鞍山,,22,19,22,7,11,106,70,74,67,9,10,5,5,0.5,0.5
2023-10-24T12:00:00,1440A,106.6971,26.5694,贵阳市,市环保站,,,,35,,19,103,48,73,57,,21,5,5,0.3,0.3
2023-10-24T12:00:00,1441A,106.6243,26.6266,贵阳市,鉴湖路,,29,29,29,19,16,97,65,72,64,8,10,7,5,0.4,0.4
2023-10-24T12:00:00,1442A,106.7487,26.6343,贵阳市,燕子冲,,27,27,24,17,18,104,72,69,65,9,13,7,6,0.4,0.4
2023-10-24T12:00:00,1443A,106.6555,26.4365,贵阳市,碧云窝,,23,17,25,7,10,98,72,74,69,6,9,5,7,0.4,0.4
2023-10-24T12:00:00,1444A,106.694,26.5161,贵阳市,中院村,,29,29,34,12,16,87,60,60,53,13,17,2,3,0.3,0.3
2023-10-24T12:00:00,1445A,106.7109,26.6027,贵阳市,红边门,,39,39,34,22,20,100,58,63,57,20,22,7,5,0.4,0.4
2023-10-24T12:00:00,1446A,106.7164,26.5699,贵阳市,新华路,,29,29,28,17,16,105,75,74,67,10,15,8,6,0.4,0.4
2023-10-24T12:00:00,1447A,106.674,26.5424,贵阳市,太慈桥,,,17,25,12,14,99,63,74,66,,14,,5,0.4,0.4
2023-10-24T12:00:00,1450A,102.8204,24.8886,昆明市,呈贡新区,,22,18,24,15,16,102,62,45,45,14,20,6,7,0.8,0.8
2023-10-24T12:00:00,1451A,102.6251,24.9608,昆明市,西山森林公园,,19,16,16,13,12,91,58,53,51,7,6,5,5,0.7,0.6
2023-10-24T12:00:00,1452A,102.7252,25.0902,昆明市,龙泉镇,,,,24,20,16,77,51,38,38,14,19,10,9,0.8,0.7
2023-10-24T12:00:00,1453A,102.7266,25.0375,昆明市,东风东路,,29,29,26,17,15,83,54,39,39,14,17,9,10,0.7,0.6
2023-10-24T12:00:00,1454A,102.6742,25.0669,昆明市,金鼎山,,22,22,25,14,13,77,51,42,42,17,17,16,16,0.6,0.5
2023-10-24T12:00:00,1455A,102.6644,25.0401,昆明市,碧鸡广场,,25,25,24,17,15,80,52,40,40,12,18,9,8,0.9,0.8
2023-10-24T12:00:00,1456A,91.1319,29.6514,拉萨市,八廓街,,30,16,20,13,11,110,96,80,69,10,18,11,11,0.2,0.2
2023-10-24T12:00:00,1457A,91.1221,29.6747,拉萨市,市环保局,,,10,26,7,12,116,85,62,49,13,24,,8,0.5,0.7
2023-10-24T12:00:00,1458A,91.0874,29.6475,拉萨市,区监测站,,29,17,16,11,8,104,91,78,67,13,21,8,8,0.4,0.5
2023-10-24T12:00:00,1459A,91.1774,29.6541,拉萨市,西藏大学,,28,16,16,10,8,104,88,75,70,17,18,7,9,0.4,0.5
2023-10-24T12:00:00,1460A,90.9798,29.6588,拉萨市,区辐射站,,29,25,24,11,9,98,92,79,60,14,20,6,6,0.5,0.6
2023-10-24T12:00:00,1461A,91.0834,29.6292,拉萨市,拉萨火车站,,26,18,14,8,7,92,82,86,75,14,13,6,6,0.3,0.4
2023-10-24T12:00:00,1462A,108.882,34.2749,西安市,高压开关厂,,,149,122,55,49,112,58,14,14,,72,10,11,,0.9
2023-10-24T12:00:00,1463A,108.993,34.2629,西安市,兴庆小区,颗粒物(PM10),51,51,62,34,27,116,62,16,16,26,49,8,7,0.5,0.6
2023-10-24T12:00:00,1464A,109.06,34.2572,西安市,纺织城,颗粒物(PM10),71,91,69,48,30,114,59,15,15,40,50,7,6,0.7,0.6
2023-10-24T12:00:00,1465A,108.9356,34.2173,西安市,小寨,颗粒物(PM10),62,73,72,41,34,106,43,10,10,36,57,8,9,0.6,1
2023-10-24T12:00:00,1466A,108.954,34.2713,西安市,市人民体育场,细颗粒物(PM2.5),64,55,87,46,39,108,58,13,13,29,56,8,7,0.5,0.9
2023-10-24T12:00:00,1467A,108.8922,34.2322,西安市,高新西区,细颗粒物(PM2.5),78,80,88,57,48,114,57,18,18,34,57,8,8,0.5,1.2
2023-10-24T12:00:00,1468A,108.935,34.3474,西安市,经开区,颗粒物(PM10),67,84,102,45,53,91,41,9,9,52,76,6,6,0.7,0.9
2023-10-24T12:00:00,1469A,108.906,34.1546,西安市,长安区,颗粒物(PM10),56,62,68,36,27,114,50,18,18,33,48,8,6,0.6,0.6
2023-10-24T12:00:00,1471A,109.2186,34.3731,西安市,临潼区,颗粒物(PM10),90,129,104,52,48,113,35,17,17,50,41,8,7,0.9,0.9
2023-10-24T12:00:00,1472A,108.869,34.378,西安市,草滩,颗粒物(PM10),119,188,130,70,49,108,15,4,4,106,72,12,7,0.9,0.7
2023-10-24T12:00:00,1473A,108.985,34.1978,西安市,曲江文化产业集团,颗粒物(PM10),58,66,64,38,30,108,48,13,13,36,55,7,5,1.0,1
2023-10-24T12:00:00,1474A,109.051,34.3213,西安市,广运潭,"颗粒物(PM10),细颗粒物(PM2.5)",67,83,72,48,32,96,22,5,5,62,50,8,8,1.0,0.8
2023-10-24T12:00:00,1476A,103.631,36.1031,兰州市,兰炼宾馆,颗粒物(PM10),69,87,93,45,58,217,48,14,14,56,70,51,18,1.0,1.1
2023-10-24T12:00:00,1477A,104.1373,35.9454,兰州市,榆中兰大校区,,,,,,,,,,,,,,,,
2023-10-24T12:00:00,1478A,103.8412,36.0726,兰州市,生物制品所,细颗粒物(PM2.5),93,97,91,69,53,90,42,9,9,78,65,34,11,1.4,1.1
2023-10-24T12:00:00,1479A,103.831,36.0464,兰州市,铁路设计院,细颗粒物(PM2.5),85,107,99,63,59,88,30,7,7,84,84,37,13,1.5,1.5
2023-10-24T12:00:00,1483A,101.524,36.6867,西宁市,第五水厂,,,,,,,,,,,,,,,,
2023-10-24T12:00:00,1484A,105.9512,38.6016,银川市,贺兰山马莲口,,,,38,30,18,117,,96,90,33,16,14,7,0.5,0.4
2023-10-24T12:00:00,1488A,106.2328,38.4975,银川市,贺兰山东路,颗粒物(PM10),61,71,90,37,39,105,66,26,26,36,57,16,12,0.6,0.7
2023-10-24T12:00:00,1489A,106.1358,38.5036,银川市,学院路,颗粒物(PM10),74,97,105,37,37,96,57,18,18,34,50,20,10,0.7,0.7
2023-10-24T12:00:00,1490A,87.5801,43.8303,乌鲁木齐市,监测站,颗粒物(PM10),55,59,94,16,25,99,21,26,26,31,46,5,7,0.3,0.4
2023-10-24T12:00:00,1491A,87.6046,43.768,乌鲁木齐市,收费所,,42,42,83,13,27,92,28,39,33,30,42,4,6,0.4,0.5
2023-10-24T12:00:00,1492A,87.4754,43.9469,乌鲁木齐市,新疆农科院农场,,33,33,140,20,55,94,38,30,30,15,37,3,4,1.5,1.5
2023-10-24T12:00:00,1493A,87.5525,43.8711,乌鲁木齐市,铁路局,颗粒物(PM10),53,56,113,17,34,100,24,27,27,27,48,4,6,0.4,0.6
2023-10-24T12:00:00,1494A,87.6432,43.831,乌鲁木齐市,三十一中学,颗粒物(PM10),52,53,113,15,29,89,18,28,28,30,37,6,10,0.3,0.6
2023-10-24T12:00:00,1496A,87.7216,44.1747,乌鲁木齐市,米东区环保局,,15,15,126,6,33,89,48,39,39,3,29,3,7,0.2,0.5
2023-10-24T12:00:00,1508A,112.9433,27.8614,湘潭市,板塘,颗粒物(PM10),62,74,85,30,50,163,127,50,50,20,55,19,17,1.1,1.1
2023-10-24T12:00:00,1511A,112.9118,27.8403,湘潭市,市监测站,颗粒物(PM10),55,59,75,33,42,183,133,72,72,21,42,16,14,0.8,0.8
2023-10-24T12:00:00,1512A,112.8937,27.8728,湘潭市,江麓,细颗粒物(PM2.5),52,52,82,36,52,180,130,49,49,23,55,28,14,1.0,0.9
2023-10-24T12:00:00,1513A,112.9227,27.8159,湘潭市,岳塘,颗粒物(PM10),57,64,76,38,46,183,141,86,86,18,36,21,20,1.4,1.3
2023-10-24T12:00:00,1514A,112.9074,27.9119,湘潭市,科大,细颗粒物(PM2.5),60,55,84,43,55,174,139,45,45,17,60,17,14,1.2,1.3
2023-10-24T12:00:00,1515A,113.135,27.8244,株洲市,天台山庄,颗粒物(PM10),54,57,62,35,46,167,141,82,82,17,38,16,15,0.7,0.9
2023-10-24T12:00:00,1518A,113.095,27.8867,株洲市,株冶医院,细颗粒物(PM2.5),55,54,70,39,48,176,136,64,64,19,46,15,12,0.6,0.7
2023-10-24T12:00:00,1519A,113.167,27.8667,株洲市,市四中,颗粒物(PM10),51,52,71,32,51,163,137,70,70,15,40,13,9,0.8,1
2023-10-24T12:00:00,1520A,113.143,27.8381,株洲市,火车站,颗粒物(PM10),55,59,82,35,50,164,138,76,76,15,39,15,14,0.7,1
2023-10-24T12:00:00,1524A,113.13,27.8528,株洲市,市监测站,细颗粒物(PM2.5),62,64,80,44,56,166,138,87,87,17,43,11,14,0.8,1
2023-10-24T12:00:00,1552A,106.805,26.3003,贵阳市,桐木岭,,,,,,,,,,,,,,,,
2023-10-24T12:00:00,1559A,113.251,27.8336,株洲市,大京风景区,,38,26,37,25,33,161,121,55,55,8,8,14,5,0.5,0.7
2023-10-24T12:00:00,1562A,113.0048,27.9153,湘潭市,昭山,颗粒物(PM10),53,56,72,34,41,177,147,57,57,17,54,13,11,0.5,0.5
2023-10-24T12:00:00,1564A,112.4876,27.9164,湘潭市,韶山,细颗粒物(PM2.5),57,41,77,40,42,179,138,71,71,19,18,16,12,0.8,0.9
2023-10-24T12:00:00,1585A,109.8756,40.6532,包头市,市环境监测站,颗粒物(PM10),89,128,114,51,45,119,62,22,22,34,59,33,24,0.7,1.1
2023-10-24T12:00:00,1587A,109.9991,40.5842,包头市,包头八中,细颗粒物(PM2.5),110,131,122,83,37,114,86,28,28,39,64,35,33,0.9,1
2023-10-24T12:00:00,1588A,109.8538,40.6821,包头市,青山宾馆,颗粒物(PM10),91,131,105,60,35,106,48,20,20,61,64,51,27,1.3,1.1
2023-10-24T12:00:00,1589A,109.8642,40.6288,包头市,惠龙物流,细颗粒物(PM2.5),88,114,119,65,49,124,66,19,19,32,63,28,22,0.6,1
2023-10-24T12:00:00,1590A,110.0377,40.5546,包头市,东河鸿龙湾,细颗粒物(PM2.5),102,144,107,76,35,114,97,32,32,36,55,35,21,0.7,0.8
2023-10-24T12:00:00,1591A,110.0023,39.8129,鄂尔多斯市,综合楼,颗粒物(PM10),64,78,74,17,17,105,70,50,50,31,38,13,10,0.5,0.6
2023-10-24T12:00:00,1592A,109.9486,39.8261,鄂尔多斯市,巴音孟克林场办事处,颗粒物(PM10),60,70,55,22,18,102,71,70,68,26,27,17,11,0.3,0.5
2023-10-24T12:00:00,1593A,109.7736,39.5986,鄂尔多斯市,康泽苑,颗粒物(PM10),59,68,55,20,16,99,85,41,41,15,30,9,5,0.5,0.4
2023-10-24T12:00:00,1594A,109.8119,39.5989,鄂尔多斯市,华泰汽车城,颗粒物(PM10),59,68,58,17,16,104,81,25,25,18,42,8,5,0.5,0.5
2023-10-24T12:00:00,1595A,109.9734,39.7884,鄂尔多斯市,奥林花园,颗粒物(PM10),56,61,82,17,21,102,69,31,31,24,44,6,9,0.4,0.6
2023-10-24T12:00:00,1597A,122.2703,40.7094,营口市,大庆路,,,95,92,53,63,157,138,120,116,21,27,,9,0.9,0.9
2023-10-24T12:00:00,1598A,122.2150,40.6511,营口市,镜湖西路,,,90,91,51,50,166,142,135,132,24,24,10,10,,0.8
2023-10-24T12:00:00,1599A,122.1658,40.6789,营口市,西炮台,细颗粒物(PM2.5),68,80,92,49,59,162,135,122,122,21,23,9,9,0.8,0.9
2023-10-24T12:00:00,1600A,124.3303,40.0625,丹东市,江湾东路,,44,32,47,17,29,159,140,109,109,12,14,5,6,0.7,0.8
2023-10-24T12:00:00,1601A,124.4256,40.1503,丹东市,临江后街,,45,30,41,15,21,155,142,104,104,8,13,8,7,0.7,0.8
2023-10-24T12:00:00,1602A,124.3933,40.1461,丹东市,元宝山,,42,27,35,20,21,146,133,109,108,12,16,7,7,0.6,0.8
2023-10-24T12:00:00,1603A,124.3633,40.1092,丹东市,民主桥,,42,34,48,15,22,150,133,96,96,8,14,7,8,0.6,0.8
2023-10-24T12:00:00,1604A,122.0303,41.1489,盘锦市,开发区,细颗粒物(PM2.5),82,54,42,60,64,163,134,128,124,28,28,10,9,1.3,1.1
2023-10-24T12:00:00,1605A,122.0485,41.0883,盘锦市,兴隆台,,,55,46,47,52,165,,128,120,22,22,11,12,0.8,0.8
2023-10-24T12:00:00,1606A,121.8297,41.1028,盘锦市,新生街道,颗粒物(PM10),55,60,52,27,37,170,133,121,121,20,18,9,8,0.9,0.8
2023-10-24T12:00:00,1607A,120.9092,40.7136,葫芦岛市,龙港区,细颗粒物(PM2.5),216,116,74,166,62,174,90,114,92,39,19,18,14,1.2,0.8
2023-10-24T12:00:00,1608A,120.8392,40.7514,葫芦岛市,化工街,颗粒物(PM10),82,114,103,53,51,158,110,84,71,32,26,11,10,0.8,0.8
2023-10-24T12:00:00,1609A,120.8341,40.7073,葫芦岛市,新区,细颗粒物(PM2.5),99,78,73,74,56,154,81,101,74,46,29,13,10,1.5,1.2
2023-10-24T12:00:00,1610A,120.8695,40.7677,葫芦岛市,东城区,细颗粒物(PM2.5),94,87,68,70,72,171,117,81,57,40,37,16,13,1.0,0.9
2023-10-24T12:00:00,1611A,118.5819,24.9117,泉州市,涂山街,,29,26,28,12,14,92,90,49,49,6,13,4,4,0.5,0.5
2023-10-24T12:00:00,1612A,118.5972,24.8978,泉州市,津头埔,,30,30,28,16,14,88,87,48,48,13,17,3,2,0.5,0.6
2023-10-24T12:00:00,1613A,118.6663,24.9424,泉州市,万安,,31,31,27,14,12,92,92,60,60,7,14,3,3,0.6,0.6
2023-10-24T12:00:00,1614A,118.6117,24.9604,泉州市,清源山,,,,,,,,,,,,,,,,
2023-10-24T12:00:00,1616A,117.6795,36.229,济南市,技术学院,颗粒物(PM10),63,75,93,43,50,165,160,100,100,24,48,13,12,0.6,0.8
2023-10-24T12:00:00,1618A,118.3429,35.0532,临沂市,沂河小区,细颗粒物(PM2.5),78,88,105,57,77,166,143,90,90,37,45,18,18,0.5,0.6
2023-10-24T12:00:00,1619A,118.295,35.0583,临沂市,鲁南制药厂,"颗粒物(PM10),细颗粒物(PM2.5)",65,80,107,47,62,192,153,82,82,34,47,16,19,0.7,0.8
2023-10-24T12:00:00,1620A,118.2794,34.9976,临沂市,新光毛纺厂,,,83,103,53,70,178,150,74,74,,49,16,21,,0.9
2023-10-24T12:00:00,1621A,118.3956,35.0888,临沂市,河东保险公司,细颗粒物(PM2.5),87,90,116,64,73,180,148,67,67,36,61,19,15,0.8,0.8
2023-10-24T12:00:00,1622A,116.3032,37.4674,德州市,儿童乐园,颗粒物(PM10),103,156,116,70,49,149,94,66,64,40,36,17,13,1.0,0.8
2023-10-24T12:00:00,1624A,116.2991,37.4451,德州市,监理站,细颗粒物(PM2.5),132,169,113,100,60,143,90,58,58,37,31,18,15,0.9,0.7
2023-10-24T12:00:00,1625A,115.9848,36.4372,聊城市,区政府,细颗粒物(PM2.5),113,147,111,85,56,140,104,74,74,36,30,12,7,0.8,0.6
2023-10-24T12:00:00,1628A,118.0062,37.3803,滨州市,市环保局,颗粒物(PM10),78,106,102,56,51,159,128,99,99,21,36,15,15,0.8,0.9
2023-10-24T12:00:00,1629A,118.0018,37.3617,滨州市,第二水厂,颗粒物(PM10),81,112,111,45,47,168,138,99,99,18,44,13,12,0.7,0.7
2023-10-24T12:00:00,1630A,117.9776,37.393,滨州市,北中新校,颗粒物(PM10),76,102,92,38,40,168,131,96,96,22,46,13,17,0.8,0.8
2023-10-24T12:00:00,1631A,118.0414,36.8103,淄博市,人民公园,颗粒物(PM10),58,66,78,24,34,165,153,131,131,22,27,9,9,0.6,0.6
2023-10-24T12:00:00,1633A,117.8525,36.4847,淄博市,双山,颗粒物(PM10),54,58,74,32,43,164,151,135,135,15,19,7,8,0.5,0.6
2023-10-24T12:00:00,1634A,117.9592,36.6331,淄博市,气象站,,,56,64,27,34,161,149,134,134,20,23,8,9,,0.4
2023-10-24T12:00:00,1635A,118.3092,36.8194,淄博市,莆田园,颗粒物(PM10),60,70,87,31,38,162,158,136,136,20,26,10,12,0.8,1
2023-10-24T12:00:00,1637A,117.558,34.8438,枣庄市,市中区政府,,,,114,,68,174,140,65,65,,50,10,12,,0.8
2023-10-24T12:00:00,1638A,117.2852,34.7837,枣庄市,薛城环保局,颗粒物(PM10),68,85,113,41,61,175,149,109,109,24,43,10,10,0.6,0.6
2023-10-24T12:00:00,1639A,117.5852,34.7745,枣庄市,峄城区政府,颗粒物(PM10),76,102,117,44,57,172,133,56,56,37,50,11,8,0.6,0.5
2023-10-24T12:00:00,1640A,117.7276,34.5578,枣庄市,台儿庄区环保局,颗粒物(PM10),59,68,82,36,53,174,145,63,63,31,50,5,3,0.6,0.6
2023-10-24T12:00:00,1641A,117.4518,35.0992,枣庄市,山亭区环保局,颗粒物(PM10),53,56,85,32,47,177,160,116,116,26,31,10,10,0.8,0.9
2023-10-24T12:00:00,1642A,121.2514,37.5639,烟台市,开发区,臭氧1小时,65,75,63,34,33,172,172,140,139,20,23,11,10,0.7,0.7
2023-10-24T12:00:00,1643A,121.3719,37.5433,烟台市,轴承厂,臭氧1小时,72,75,64,45,42,177,177,141,141,15,20,9,7,0.4,0.3
2023-10-24T12:00:00,1644A,121.3181,37.5436,烟台市,西郊化工站,"颗粒物(PM10),臭氧1小时",63,75,60,42,34,170,170,159,156,24,22,8,7,0.4,0.4
2023-10-24T12:00:00,1645A,121.4478,37.4822,烟台市,莱山环保局,臭氧1小时,73,78,62,40,35,178,178,157,157,22,20,11,8,0.7,0.5
2023-10-24T12:00:00,1646A,121.2611,37.4967,烟台市,福山环保局,,,,64,,34,124,,129,,,30,,8,,0.5
2023-10-24T12:00:00,1650A,119.1437,36.7023,潍坊市,环保局,,,,106,,59,164,,83,83,,45,,10,,0.7
2023-10-24T12:00:00,1653A,116.6251,35.4302,济宁市,火炬城,细颗粒物(PM2.5),79,68,80,58,54,150,133,77,77,25,30,14,13,0.7,0.6
2023-10-24T12:00:00,1655A,116.5491,35.4042,济宁市,电化厂,细颗粒物(PM2.5),89,125,100,66,51,151,139,104,104,31,28,12,12,0.7,0.6
2023-10-24T12:00:00,1656A,117.1437,36.1937,泰安市,监测站,细颗粒物(PM2.5),74,92,93,54,55,155,151,125,125,26,26,14,14,0.9,0.9
2023-10-24T12:00:00,1657A,117.0885,36.2017,泰安市,人口学校,细颗粒物(PM2.5),69,83,82,50,49,157,152,120,120,26,27,10,10,0.8,0.7
2023-10-24T12:00:00,1658A,117.1089,36.1758,泰安市,电力学校,细颗粒物(PM2.5),79,95,95,58,59,155,146,118,118,20,23,13,12,0.5,0.6
2023-10-24T12:00:00,1659A,119.471,35.4209,日照市,监测站,颗粒物(PM10),63,75,78,44,51,165,158,51,51,22,51,18,12,1.1,1
2023-10-24T12:00:00,1660A,119.523,35.4216,日照市,市政府广场,臭氧1小时,65,75,82,42,43,192,172,108,108,32,40,13,12,0.8,0.9
2023-10-24T12:00:00,1661A,119.5587,35.4044,日照市,港务局,颗粒物(PM10),75,100,89,52,50,203,149,84,84,54,53,19,14,1.5,1.1
2023-10-24T12:00:00,1662A,122.1214,37.4236,威海市,华夏技校,臭氧1小时,60,56,42,34,29,168,168,153,153,19,19,5,4,0.6,0.5
2023-10-24T12:00:00,1663A,122.0508,37.5236,威海市,山大分校,臭氧1小时,70,61,51,24,24,176,176,155,155,14,16,7,7,0.5,0.5
2023-10-24T12:00:00,1664A,122.1067,37.5072,威海市,市监测站,臭氧1小时,67,71,50,46,30,173,173,157,156,12,14,9,8,0.7,0.6
2023-10-24T12:00:00,1666A,118.6614,37.4309,东营市,市环保局,颗粒物(PM10),71,92,97,41,49,178,158,93,93,24,36,15,12,0.6,0.6
2023-10-24T12:00:00,1669A,113.5824,24.7733,韶关市,市八中,,46,44,40,32,26,113,105,36,36,9,22,20,18,0.7,0.8
2023-10-24T12:00:00,1671A,113.5917,24.7972,韶关市,园林处,,32,31,37,17,25,106,100,38,38,4,17,16,23,0.7,0.7
2023-10-24T12:00:00,1672A,113.6735,24.7791,韶关市,韶关学院,颗粒物(PM10),53,56,38,26,26,112,85,28,28,9,18,56,23,0.5,0.6
2023-10-24T12:00:00,1673A,113.5971,24.6863,韶关市,曲江监测站,,39,39,39,26,25,139,109,38,38,10,23,25,16,0.8,0.9
2023-10-24T12:00:00,1674A,116.6794,23.3667,汕头市,金平子站,,46,46,29,13,15,127,94,62,62,8,12,7,8,0.6,0.6
2023-10-24T12:00:00,1675A,116.7244,23.3633,汕头市,龙湖子站,,30,21,25,12,13,127,94,66,66,8,13,8,7,0.7,0.7
2023-10-24T12:00:00,1676A,116.7258,23.2775,汕头市,濠江子站,,30,20,23,12,15,125,95,70,70,6,8,8,8,0.6,0.6
2023-10-24T12:00:00,1677A,116.7519,23.4714,汕头市,澄海子站,,31,27,28,17,16,125,99,63,63,10,13,11,13,0.5,0.6
2023-10-24T12:00:00,1678A,116.6092,23.2539,汕头市,潮阳子站,,26,24,29,14,14,108,81,56,56,5,9,8,9,0.4,0.4
2023-10-24T12:00:00,1680A,110.3539,21.2706,湛江市,湛江影剧院,,47,47,41,17,27,131,108,67,63,12,16,8,14,0.6,0.6
2023-10-24T12:00:00,1681A,110.3928,21.2228,湛江市,市环境监测站,,,38,33,14,29,131,,90,68,8,12,3,6,0.8,0.9
2023-10-24T12:00:00,1682A,110.4019,21.1997,湛江市,环保局宿舍,,43,43,34,17,29,136,108,87,73,9,12,4,6,0.8,0.8
2023-10-24T12:00:00,1683A,110.4111,21.2028,湛江市,霞山游泳场,,34,18,36,16,24,134,108,83,72,5,11,5,8,0.5,0.6
2023-10-24T12:00:00,1684A,110.3316,21.2679,湛江市,麻章区环保局,,46,46,38,24,32,131,107,62,61,10,18,5,8,0.7,0.7
2023-10-24T12:00:00,1685A,110.4558,21.2567,湛江市,坡头区环保局,,36,25,34,15,26,137,114,86,79,8,10,5,8,0.5,0.7
2023-10-24T12:00:00,1686A,111.0286,21.4688,茂名市,电白南海,,,44,48,22,28,129,,60,60,11,15,9,10,0.5,0.6
2023-10-24T12:00:00,1687A,110.9294,21.6533,茂名市,茂石化七小,,36,36,40,22,24,92,91,56,56,12,15,5,8,0.4,0.6
2023-10-24T12:00:00,1688A,110.9107,21.6687,茂名市,健康路,,,,,,,,,,,,,,,,
2023-10-24T12:00:00,1689A,110.8592,21.6828,茂名市,高岭,,42,36,49,29,34,94,93,49,49,10,21,9,12,0.5,0.7
2023-10-24T12:00:00,1690A,116.1231,24.3284,梅州市,梅江月梅,,,33,32,19,21,92,92,21,21,,18,6,5,0.5,0.6
2023-10-24T12:00:00,1691A,116.0797,24.2719,梅州市,梅县新城,,39,39,39,24,26,88,88,29,29,12,24,11,8,0.8,1
2023-10-24T12:00:00,1692A,116.1248,24.2654,梅州市,环境监控中心,,42,42,33,20,20,92,92,29,29,10,23,10,10,0.6,0.8
2023-10-24T12:00:00,1693A,115.3653,22.775,汕尾市,市环保局,,36,36,31,20,15,133,94,77,74,7,8,12,12,0.6,0.6
2023-10-24T12:00:00,1694A,115.3706,22.7898,汕尾市,市政府,,42,35,32,29,22,136,98,74,71,6,8,7,8,0.4,0.4
2023-10-24T12:00:00,1695A,115.3622,22.7925,汕尾市,新城中学,,43,43,36,21,19,133,96,72,70,6,7,9,9,0.6,0.6
2023-10-24T12:00:00,1696A,114.6778,23.7569,河源市,源西,,44,44,39,15,29,78,75,21,21,11,25,6,5,0.6,0.7
2023-10-24T12:00:00,1697A,114.6944,23.7586,河源市,东埔,,43,43,41,16,25,73,73,21,21,10,21,7,6,0.7,0.8
2023-10-24T12:00:00,1698A,114.6892,23.7233,河源市,老城,,34,34,35,22,23,81,81,24,24,7,18,6,5,0.7,0.9
2023-10-24T12:00:00,1699A,111.9797,21.8593,阳江市,鸳鸯湖,细颗粒物(PM2.5),63,54,50,45,43,139,139,78,78,18,20,19,15,0.8,0.8
2023-10-24T12:00:00,1701A,111.9491,21.8658,阳江市,马南垌,细颗粒物(PM2.5),64,63,48,46,41,138,138,68,68,23,32,12,9,0.7,0.8
2023-10-24T12:00:00,1702A,113.0426,23.691,清远市,环保大楼,,43,34,29,30,27,111,88,31,31,12,20,11,9,0.9,1
2023-10-24T12:00:00,1703A,113.0208,23.7106,清远市,凤城街办,颗粒物(PM10),51,52,39,28,22,119,74,27,27,28,27,12,10,0.7,0.8
2023-10-24T12:00:00,1705A,116.6367,23.6719,潮州市,西园路,,46,46,33,25,21,129,114,58,58,12,12,6,5,0.3,0.1
2023-10-24T12:00:00,1706A,116.6447,23.6706,潮州市,档案局,,,65,32,35,21,135,126,58,58,11,12,8,6,,0.5
2023-10-24T12:00:00,1708A,116.3701,23.5345,揭阳市,新兴,颗粒物(PM10),61,71,42,29,22,151,127,67,67,14,14,16,13,0.6,0.6
2023-10-24T12:00:00,1709A,116.3264,23.5443,揭阳市,西马,颗粒物(PM10),57,63,42,38,21,159,129,72,72,15,12,15,11,0.7,0.6
2023-10-24T12:00:00,1710A,116.3611,23.5626,揭阳市,东兴,颗粒物(PM10),59,68,43,30,19,154,127,72,72,12,13,13,10,0.9,0.8
2023-10-24T12:00:00,1711A,116.4151,23.5294,揭阳市,渔湖,颗粒物(PM10),52,53,42,26,20,144,125,62,62,11,16,8,10,0.6,0.7
2023-10-24T12:00:00,1712A,112.0392,22.9169,云浮市,新市府,,39,39,29,24,16,99,99,35,35,14,11,9,6,1.0,1
2023-10-24T12:00:00,1714A,112.0539,22.9539,云浮市,牧羊,,,69,52,24,22,108,89,28,28,13,26,9,11,,0.6
2023-10-24T12:00:00,1715A,102.575,24.3711,玉溪市,东风水库,,,27,29,14,18,74,56,30,30,11,12,7,8,,1
2023-10-24T12:00:00,1718A,115.4208,35.2464,菏泽市,气象局,细颗粒物(PM2.5),98,132,106,73,58,156,126,60,60,37,42,15,16,0.7,0.6
2023-10-24T12:00:00,1719A,115.4747,35.2375,菏泽市,市政协,细颗粒物(PM2.5),108,139,107,81,62,156,132,74,74,38,36,16,15,,0.1
2023-10-24T12:00:00,1721A,113.3819,40.1097,大同市,果树场,,,,,,,,,,,,,,,,
2023-10-24T12:00:00,1723A,113.2994,40.0758,大同市,云冈宾馆,颗粒物(PM10),83,116,79,46,32,118,51,24,24,52,50,44,23,0.9,0.9
2023-10-24T12:00:00,1724A,113.3444,40.0917,大同市,大同大学,颗粒物(PM10),69,88,86,32,32,122,70,48,48,37,44,35,24,0.8,0.6
2023-10-24T12:00:00,1725A,113.2661,40.1269,大同市,安家小村,颗粒物(PM10),82,113,99,37,32,126,64,27,27,44,43,47,28,0.9,1.9
2023-10-24T12:00:00,1726A,113.2711,40.0844,大同市,教育学院,颗粒物(PM10),85,120,90,43,34,117,59,24,24,51,52,38,26,0.8,1.2
2023-10-24T12:00:00,1727A,113.1147,36.1547,长治市,清华站,颗粒物(PM10),66,82,59,41,31,116,70,23,20,49,34,13,10,1.0,0.8
2023-10-24T12:00:00,1728A,113.1031,36.1989,长治市,监测站,细颗粒物(PM2.5),58,62,52,41,32,118,88,29,24,36,34,12,10,0.9,0.9
2023-10-24T12:00:00,1730A,113.0886,36.2125,长治市,审计局,"颗粒物(PM10),细颗粒物(PM2.5)",55,60,53,39,32,117,85,28,22,29,31,14,12,0.9,0.9
2023-10-24T12:00:00,1731A,113.0844,36.1856,长治市,长治八中,颗粒物(PM10),64,77,65,38,28,116,78,20,20,36,32,17,15,0.9,0.7
2023-10-24T12:00:00,1733A,111.5531,36.0783,临汾市,临钢医院,细颗粒物(PM2.5),104,123,119,78,70,145,66,24,24,31,42,13,10,1.2,1.3
2023-10-24T12:00:00,1734A,111.5028,36.0714,临汾市,技工学校,细颗粒物(PM2.5),90,110,127,67,77,153,71,22,22,37,53,15,17,1.3,1.4
2023-10-24T12:00:00,1736A,111.5018,36.0855,临汾市,市委,,,117,124,67,74,144,,16,16,,54,12,20,1.2,1.3
2023-10-24T12:00:00,1738A,113.5758,37.8572,阳泉市,市中心,"颗粒物(PM10),细颗粒物(PM2.5)",53,55,79,37,40,142,118,47,47,24,67,16,19,0.9,1
2023-10-24T12:00:00,1739A,113.4894,37.8731,阳泉市,赛鱼,细颗粒物(PM2.5),53,46,79,37,48,141,125,51,51,18,63,16,18,0.8,0.9
2023-10-24T12:00:00,1740A,113.5819,37.8486,阳泉市,南庄,,,69,111,39,40,142,113,33,33,,60,,26,0.9,1.1
2023-10-24T12:00:00,1742A,113.5614,37.8703,阳泉市,平坦,颗粒物(PM10),51,51,82,35,47,139,118,50,50,23,59,14,16,0.9,1
2023-10-24T12:00:00,1743A,113.5158,37.8392,阳泉市,大阳泉,,,,57,37,39,149,125,77,77,,31,,17,0.7,0.8
2023-10-24T12:00:00,1744A,118.9233,42.2816,赤峰市,松山一中,颗粒物(PM10),64,78,73,26,41,117,103,52,43,26,46,10,14,0.6,0.9
2023-10-24T12:00:00,1745A,118.9576,42.2728,赤峰市,哈达街,颗粒物(PM10),69,88,75,42,41,124,102,86,57,37,42,17,19,0.8,0.9
2023-10-24T12:00:00,1746A,118.8788,42.2554,赤峰市,天义路,,,,61,,39,131,111,93,79,,30,10,16,0.5,0.8
2023-10-24T12:00:00,1748A,123.044,41.1196,鞍山市,深沟寺,细颗粒物(PM2.5),64,73,75,46,55,155,141,149,143,16,13,9,8,0.8,0.7
2023-10-24T12:00:00,1749A,123.011,41.0931,鞍山市,太阳城,"颗粒物(PM10),细颗粒物(PM2.5)",60,69,78,43,48,157,144,152,145,20,16,13,11,1.0,0.7
2023-10-24T12:00:00,1750A,123.0485,41.1442,鞍山市,太平,颗粒物(PM10),65,79,87,46,54,160,141,147,135,22,20,14,12,0.8,0.7
2023-10-24T12:00:00,1751A,122.9642,41.0971,鞍山市,铁西三道街,颗粒物(PM10),69,87,98,48,56,157,136,141,131,22,24,11,9,0.9,0.8
2023-10-24T12:00:00,1752A,122.9341,41.0833,鞍山市,铁西工业园区,细颗粒物(PM2.5),68,78,100,49,65,154,127,124,124,19,21,13,13,1.0,1.2
2023-10-24T12:00:00,1753A,123.022,41.0821,鞍山市,明达新区,细颗粒物(PM2.5),64,70,77,46,53,147,134,142,133,18,14,10,9,0.7,0.6
2023-10-24T12:00:00,1754A,123.1289,41.0228,鞍山市,千山,,,,,,,,,,,,,,,,
2023-10-24T12:00:00,1755A,123.7977,41.8491,抚顺市,望花区,细颗粒物(PM2.5),82,77,78,60,70,153,143,137,135,22,19,19,16,0.6,0.7
2023-10-24T12:00:00,1756A,123.9161,41.8822,抚顺市,顺城区,细颗粒物(PM2.5),74,96,110,54,74,141,139,48,48,23,47,13,9,1.1,1.1
2023-10-24T12:00:00,1757A,124.0436,41.8611,抚顺市,东洲区,细颗粒物(PM2.5),73,76,89,53,67,153,153,144,143,15,12,13,14,0.9,0.8
2023-10-24T12:00:00,1758A,123.9247,41.8642,抚顺市,新抚区,细颗粒物(PM2.5),88,88,67,65,80,137,137,70,70,18,29,14,10,0.8,0.8
2023-10-24T12:00:00,1759A,124.0972,41.8961,抚顺市,大伙房水库,细颗粒物(PM2.5),60,63,64,43,53,150,150,143,143,15,10,14,10,0.9,0.7
2023-10-24T12:00:00,1760A,123.7086,41.8391,抚顺市,沈抚新城,细颗粒物(PM2.5),103,70,77,77,95,160,147,116,116,17,23,16,14,0.7,0.9
2023-10-24T12:00:00,1761A,123.8275,41.3064,本溪市,大峪,颗粒物(PM10),52,53,84,26,49,154,146,144,142,15,15,10,10,0.7,0.7
2023-10-24T12:00:00,1762A,123.7567,41.3325,本溪市,溪湖,颗粒物(PM10),52,53,100,28,68,143,142,133,133,17,22,16,16,0.7,0.8
2023-10-24T12:00:00,1763A,123.7169,41.3094,本溪市,彩屯,细颗粒物(PM2.5),60,60,179,43,118,119,117,83,83,37,65,34,50,2.1,3.5
2023-10-24T12:00:00,1764A,123.7669,41.2864,本溪市,东明,,47,42,67,25,57,159,150,151,149,17,18,11,12,0.8,0.9
2023-10-24T12:00:00,1765A,123.7992,41.2664,本溪市,新立屯,,49,49,61,34,45,154,144,146,144,15,16,11,12,0.7,0.8
2023-10-24T12:00:00,1766A,123.8142,41.3472,本溪市,威宁,,,60,72,29,54,140,140,107,107,14,21,8,7,,0.8
2023-10-24T12:00:00,1767A,121.1115,41.0879,锦州市,南山,细颗粒物(PM2.5),108,73,80,81,89,157,144,83,74,15,31,19,13,1.0,0.9
2023-10-24T12:00:00,1768A,121.0533,40.8434,锦州市,开发区,细颗粒物(PM2.5),98,121,91,73,76,162,82,84,63,59,42,28,29,1.1,0.9
2023-10-24T12:00:00,1769A,121.1836,41.1119,锦州市,百股街道,细颗粒物(PM2.5),94,64,73,70,55,166,146,103,79,18,27,17,11,1.3,0.9
2023-10-24T12:00:00,1770A,121.1178,41.1222,锦州市,天安街道,细颗粒物(PM2.5),140,,101,107,83,152,150,78,65,,34,,13,2.6,1.3
2023-10-24T12:00:00,1771A,121.1303,41.1386,锦州市,北湖公园,细颗粒物(PM2.5),123,117,94,93,82,157,141,85,76,27,29,27,15,1.9,1
2023-10-24T12:00:00,1772A,126.54,43.8622,吉林市,哈达湾,细颗粒物(PM2.5),68,72,64,49,45,158,158,150,150,15,17,9,8,0.8,0.8
2023-10-24T12:00:00,1773A,126.5844,43.8358,吉林市,东局子,细颗粒物(PM2.5),73,80,71,53,40,154,154,145,145,17,16,8,8,0.7,0.6
2023-10-24T12:00:00,1774A,126.5052,43.8245,吉林市,电力学院,,,,75,,46,145,145,137,137,,20,,12,0.8,0.8
2023-10-24T12:00:00,1775A,126.6133,43.8972,吉林市,江北,细颗粒物(PM2.5),67,82,71,48,42,149,149,143,143,19,15,12,11,0.8,0.8
2023-10-24T12:00:00,1776A,126.555,43.8306,吉林市,江南公园,细颗粒物(PM2.5),77,77,67,56,47,156,156,144,144,13,16,11,10,0.7,0.7
2023-10-24T12:00:00,1778A,126.7061,43.7133,吉林市,丰满,,,,,,,,,,,,,,,,
2023-10-24T12:00:00,1779A,123.9305,47.3636,齐齐哈尔市,安居小区,,32,32,71,16,26,63,62,35,35,9,28,5,6,0.2,0.5
2023-10-24T12:00:00,1780A,123.9488,47.3386,齐齐哈尔市,中心广场,,32,32,69,14,26,64,56,41,41,15,25,2,4,0.4,0.5
2023-10-24T12:00:00,1781A,123.9483,47.3227,齐齐哈尔市,农牧车辆厂,,44,44,66,11,17,70,58,37,37,14,23,7,8,0.3,0.5
2023-10-24T12:00:00,1783A,123.945,47.2988,齐齐哈尔市,市环境监测站,,36,36,66,11,23,75,60,40,40,11,18,4,5,0.3,0.4
2023-10-24T12:00:00,1784A,129.61,44.561,牡丹江市,环保大楼,颗粒物(PM10),62,74,48,29,22,135,135,44,44,14,39,8,7,0.5,0.7
2023-10-24T12:00:00,1785A,129.6115,44.5782,牡丹江市,文化广场,细颗粒物(PM2.5),62,65,72,44,44,127,127,39,39,17,46,8,8,0.5,1
2023-10-24T12:00:00,1786A,129.5904,44.5963,牡丹江市,第一医院,颗粒物(PM10),65,80,64,37,36,124,124,38,38,16,46,9,9,0.6,0.8
2023-10-24T12:00:00,1787A,129.6364,44.6075,牡丹江市,机车工厂,颗粒物(PM10),72,94,97,36,40,121,121,34,34,20,38,8,9,0.7,0.9
2023-10-24T12:00:00,1788A,129.6386,44.5462,牡丹江市,第一中学,颗粒物(PM10),64,78,57,32,25,135,135,46,46,13,40,7,7,0.5,0.5
2023-10-24T12:00:00,1789A,124.81117,46.03138,大庆市,大同区,,,,113,,63,100,56,80,54,14,20,,8,0.4,0.8
2023-10-24T12:00:00,1790A,125.129,46.533,大庆市,龙凤区,,49,49,87,24,46,84,50,68,48,23,21,6,7,0.5,0.7
2023-10-24T12:00:00,1791A,124.902,46.408,大庆市,红岗区,,42,42,89,14,45,101,59,82,56,16,21,6,6,0.3,0.7
2023-10-24T12:00:00,1792A,125.153,46.586,大庆市,萨尔图区,颗粒物(PM10),53,56,107,19,58,89,47,75,51,25,25,5,6,0.4,0.6
2023-10-24T12:00:00,1793A,124.9042,46.6215,大庆市,让胡路区,,41,41,87,11,40,104,57,80,52,12,20,5,7,0.4,0.7
2023-10-24T12:00:00,1794A,118.3606,31.3519,芜湖市,监测站,颗粒物(PM10),62,74,66,42,40,141,90,30,30,62,66,18,9,1.3,0.7
2023-10-24T12:00:00,1795A,118.3714,31.4134,芜湖市,科创中心,"颗粒物(PM10),细颗粒物(PM2.5)",69,87,75,50,44,150,102,34,34,51,78,14,8,1.1,0.8
2023-10-24T12:00:00,1796A,118.3673,31.3131,芜湖市,四水厂,细颗粒物(PM2.5),59,59,71,42,39,149,108,38,38,44,63,14,7,1.1,0.6
2023-10-24T12:00:00,1798A,118.5092,31.6837,马鞍山市,湖东路四小,细颗粒物(PM2.5),54,51,57,38,35,162,119,49,49,35,47,13,9,0.8,0.9
2023-10-24T12:00:00,1799A,118.5024,31.6449,马鞍山市,开发区,细颗粒物(PM2.5),69,81,70,50,47,159,103,34,34,50,56,17,11,0.9,0.8
2023-10-24T12:00:00,1800A,118.5228,31.7231,马鞍山市,慈湖,细颗粒物(PM2.5),62,38,81,44,49,164,123,43,43,39,60,12,9,0.8,0.8
2023-10-24T12:00:00,1802A,118.6245,31.7241,马鞍山市,濮塘,,,,51,37,26,141,125,76,76,22,12,10,7,0.9,0.5
2023-10-24T12:00:00,1803A,115.9872,29.6815,九江市,十里,,44,42,62,28,35,185,138,58,58,24,43,9,10,0.6,0.8
2023-10-24T12:00:00,1804A,115.9584,29.7046,九江市,茅山头,细颗粒物(PM2.5),52,51,57,36,38,178,98,37,37,38,54,12,12,0.8,0.9
2023-10-24T12:00:00,1805A,115.9877,29.7295,九江市,西园,细颗粒物(PM2.5),57,60,80,40,48,160,86,36,36,58,59,13,15,0.7,0.9
2023-10-24T12:00:00,1806A,116.0172,29.6547,九江市,五七二七厂,,41,37,41,27,28,173,129,80,80,19,18,14,12,0.6,0.6
2023-10-24T12:00:00,1808A,115.9114,29.6038,九江市,综合工业园,颗粒物(PM10),55,59,62,34,38,174,122,45,45,32,45,15,13,0.8,0.9
2023-10-24T12:00:00,1809A,116.0721,29.7535,九江市,石化总厂,细颗粒物(PM2.5),63,70,72,45,43,174,100,55,55,52,36,24,13,0.7,0.6
2023-10-24T12:00:00,1810A,115.9773,29.5698,九江市,庐山气象台,,36,21,23,14,18,155,115,118,116,4,5,7,7,0.7,0.7
2023-10-24T12:00:00,1812A,112.3931,34.6516,洛阳市,市委党校,,,57,98,60,72,123,49,24,24,23,44,,11,0.5,0.8
2023-10-24T12:00:00,1814A,112.4657,34.6871,洛阳市,豫西宾馆,细颗粒物(PM2.5),84,100,113,62,65,115,78,27,27,36,55,7,11,0.9,1
2023-10-24T12:00:00,1815A,112.494,34.6886,洛阳市,河南林校,细颗粒物(PM2.5),75,74,85,55,56,111,72,27,27,32,46,6,6,0.6,0.7
2023-10-24T12:00:00,1816A,112.3844,34.623,洛阳市,开发区管委会,,,42,79,26,56,121,61,22,22,16,30,,4,0.4,0.6
2023-10-24T12:00:00,1817A,112.4267,34.6258,洛阳市,市委新办公区,,42,42,77,24,54,117,66,28,28,15,32,3,6,0.4,0.6
2023-10-24T12:00:00,1818A,114.4839,36.0621,安阳市,棉研所,,,,,,,,,,,,,,,,
2023-10-24T12:00:00,1819A,114.3551,36.1017,安阳市,红庙街,细颗粒物(PM2.5),77,100,93,56,54,125,94,42,42,43,35,30,13,1.1,0.9
2023-10-24T12:00:00,1820A,114.361,36.0681,安阳市,银杏小区,细颗粒物(PM2.5),95,96,82,71,68,126,88,32,32,40,32,18,12,1.6,1
2023-10-24T12:00:00,1824A,114.3389,34.7781,开封市,肿瘤医院,细颗粒物(PM2.5),90,96,125,67,76,155,95,35,35,31,42,14,11,0.7,0.7
2023-10-24T12:00:00,1826A,114.2885,34.7965,开封市,世纪星幼儿园,细颗粒物(PM2.5),83,90,115,61,72,134,83,34,34,38,46,10,8,0.7,0.7
2023-10-24T12:00:00,1828A,113.227,35.2125,焦作市,市环保局,颗粒物(PM10),57,63,68,37,37,103,68,48,48,33,35,14,10,0.8,0.7
2023-10-24T12:00:00,1830A,113.1992,35.2590,焦作市,影视城,,,,,,,,,,,,,,,,
2023-10-24T12:00:00,1832A,113.3257,33.742,平顶山市,新华旅馆,颗粒物(PM10),59,68,118,40,76,157,118,42,42,19,41,9,13,0.6,0.8
2023-10-24T12:00:00,1833A,113.2919,33.737,平顶山市,规划设计院,细颗粒物(PM2.5),63,60,102,45,75,162,115,44,44,19,40,11,14,0.5,0.7
2023-10-24T12:00:00,1834A,113.182,33.774,平顶山市,平顶山工学院,细颗粒物(PM2.5),58,53,103,41,70,162,112,56,56,14,23,8,14,0.6,0.7
2023-10-24T12:00:00,1835A,111.1922,34.7752,三门峡市,市政府,颗粒物(PM10),55,59,56,29,26,100,39,12,12,36,46,20,10,0.9,0.8
2023-10-24T12:00:00,1836A,111.1587,34.7942,三门峡市,开发区,颗粒物(PM10),61,72,83,40,41,109,46,14,14,23,36,27,12,0.7,0.7
2023-10-24T12:00:00,1838A,111.143,34.7955,三门峡市,风景区,,,,,,,,,,,,,,,,
2023-10-24T12:00:00,1840A,111.2992,30.6981,宜昌市,白龙岗,颗粒物(PM10),59,68,70,41,49,167,106,54,51,34,36,7,7,0.7,0.7
2023-10-24T12:00:00,1841A,111.3549,30.6465,宜昌市,伍家岗,细颗粒物(PM2.5),64,66,69,46,54,174,117,40,40,25,45,7,7,0.7,0.8
2023-10-24T12:00:00,1842A,111.2628,30.6961,宜昌市,点军区,细颗粒物(PM2.5),64,45,64,46,54,172,105,42,42,26,29,9,9,0.6,0.6
2023-10-24T12:00:00,1843A,111.3275,30.7819,宜昌市,夷陵区,细颗粒物(PM2.5),64,66,72,46,52,164,104,43,43,29,30,9,8,0.6,0.6
2023-10-24T12:00:00,1844A,112.2494,30.3197,荆州市,市图书馆,细颗粒物(PM2.5),84,116,93,62,60,170,167,66,66,46,43,15,12,1.0,0.9
2023-10-24T12:00:00,1845A,112.2008,30.3544,荆州市,市委党校,细颗粒物(PM2.5),100,129,94,75,64,171,119,45,45,43,46,10,10,0.9,0.9
2023-10-24T12:00:00,1847A,113.1094,29.3578,岳阳市,南湖风景区,,50,47,55,35,37,178,136,73,73,18,36,12,14,0.7,0.9
2023-10-24T12:00:00,1848A,113.1493,29.4251,岳阳市,城陵矶,颗粒物(PM10),55,59,71,33,40,162,107,59,59,36,54,13,11,0.9,0.9
2023-10-24T12:00:00,1849A,113.1497,29.3575,岳阳市,开发区,,45,40,54,28,44,176,143,75,75,12,36,12,12,0.6,0.7
2023-10-24T12:00:00,1850A,113.2621,29.4758,岳阳市,云溪区,颗粒物(PM10),51,52,52,28,36,174,123,69,69,24,29,10,11,0.5,0.6
2023-10-24T12:00:00,1851A,112.9943,29.4402,岳阳市,君山区,,47,47,65,22,45,171,135,73,73,20,49,11,10,0.5,0.6
2023-10-24T12:00:00,1852A,113.2117,29.355,岳阳市,金凤水库,,46,44,49,25,35,177,147,79,79,9,21,7,7,0.5,0.6
2023-10-24T12:00:00,1854A,111.6975,28.9703,常德市,市二中,细颗粒物(PM2.5),77,80,79,56,54,162,136,54,54,16,33,13,12,0.8,0.8
2023-10-24T12:00:00,1857A,111.7158,29.1456,常德市,白鹤山,细颗粒物(PM2.5),93,3,15,69,50,166,149,97,93,13,12,10,7,0.7,0.6
2023-10-24T12:00:00,1858A,110.5319,29.1217,张家界市,永定新区,颗粒物(PM10),52,53,52,34,31,135,116,51,51,11,21,8,7,0.6,0.6
2023-10-24T12:00:00,1859A,110.4697,29.1242,张家界市,电业局,颗粒物(PM10),55,60,55,26,27,136,108,41,41,17,28,11,9,0.6,0.6
2023-10-24T12:00:00,1860A,110.5594,29.3547,张家界市,未央路,,34,34,38,19,23,130,106,49,49,7,15,4,3,0.5,0.5
2023-10-24T12:00:00,1861A,110.4417,29.315,张家界市,袁家界,,41,41,34,27,23,119,109,86,84,5,13,11,9,0.7,0.7
2023-10-24T12:00:00,1862A,110.4144,25.3167,桂林市,电子科大尧山校区,,32,32,30,19,21,125,89,46,46,4,7,3,4,0.5,0.5
2023-10-24T12:00:00,1863A,110.2819,25.2697,桂林市,监测站,细颗粒物(PM2.5),57,53,53,40,38,161,98,41,41,16,29,8,7,0.8,0.9
2023-10-24T12:00:00,1864A,110.3089,25.2708,桂林市,龙隐路小学,,49,49,41,32,30,155,100,45,45,14,22,8,8,0.8,0.8
2023-10-24T12:00:00,1865A,110.2869,25.2178,桂林市,八中,颗粒物(PM10),61,71,44,42,30,155,82,41,41,25,19,7,5,0.8,0.7
2023-10-24T12:00:00,1866A,109.2262,21.588,北海市,牛尾岭水库,,,,,,,,,,,,,,,,
2023-10-24T12:00:00,1867A,109.1436,21.4086,北海市,海滩公园,,34,34,37,15,19,105,80,48,48,8,14,7,6,0.9,0.9
2023-10-24T12:00:00,1868A,109.0981,21.4661,北海市,新市环保局,,35,32,35,24,27,95,92,48,48,9,22,8,7,0.8,0.9
2023-10-24T12:00:00,1869A,109.1778,21.5233,北海市,北海工业园,,,47,43,22,26,86,82,40,40,8,18,9,7,,0.9
2023-10-24T12:00:00,1870A,109.4856,24.3895,柳州市,柳东小学,,40,40,34,26,26,137,105,46,46,9,18,10,11,0.5,0.5
2023-10-24T12:00:00,1871A,109.4157,24.3277,柳州市,环保监测站,颗粒物(PM10),77,104,63,51,42,147,63,28,28,67,34,44,12,3.0,1.1
2023-10-24T12:00:00,1872A,109.389,24.341,柳州市,河西水厂,颗粒物(PM10),80,110,87,50,41,159,47,22,22,68,38,49,16,4.1,1.7
2023-10-24T12:00:00,1873A,109.4311,24.2921,柳州市,市四中,颗粒物(PM10),59,68,49,38,29,156,126,46,46,29,27,16,9,1.3,0.9
2023-10-24T12:00:00,1874A,109.4006,24.3631,柳州市,市九中,颗粒物(PM10),71,91,66,38,34,157,69,30,30,42,31,25,8,2.0,0.9
2023-10-24T12:00:00,1875A,109.4958,24.3134,柳州市,古亭山,颗粒物(PM10),56,62,37,30,24,154,126,47,47,16,29,11,15,0.6,0.5
2023-10-24T12:00:00,1876A,109.5078,18.2489,三亚市,河东子站,,19,19,12,9,7,70,33,59,40,18,7,4,3,0.5,0.4
2023-10-24T12:00:00,1877A,109.4964,18.2681,三亚市,河西子站,,,7,14,4,5,67,30,50,33,,6,3,3,0.4,0.4
2023-10-24T12:00:00,1878A,104.7778,31.4741,绵阳市,富乐山,细颗粒物(PM2.5),63,69,67,45,47,124,51,16,16,33,30,5,4,0.8,0.8
2023-10-24T12:00:00,1879A,104.7563,31.4535,绵阳市,市人大,颗粒物(PM10),64,77,79,42,54,116,32,11,11,42,45,8,8,0.9,0.8
2023-10-24T12:00:00,1880A,104.6697,31.4668,绵阳市,高新区自来水公司,颗粒物(PM10),65,79,66,36,43,122,51,15,15,33,42,9,9,0.7,0.8
2023-10-24T12:00:00,1881A,104.7287,31.5075,绵阳市,三水厂,细颗粒物(PM2.5),79,102,97,58,64,120,27,5,5,45,43,8,9,0.8,0.8
2023-10-24T12:00:00,1882A,104.563,28.793,宜宾市,石马中学,,,,,,,,,,,,,,,,
2023-10-24T12:00:00,1883A,104.6201,28.7728,宜宾市,市委,细颗粒物(PM2.5),102,103,107,76,80,141,24,17,14,49,37,8,8,0.8,0.7
2023-10-24T12:00:00,1884A,104.6055,28.793,宜宾市,宜宾四中,细颗粒物(PM2.5),105,125,117,79,85,133,26,12,11,43,42,9,9,,0.8
2023-10-24T12:00:00,1885A,104.639,28.7562,宜宾市,市政府,细颗粒物(PM2.5),105,114,110,79,81,140,18,16,16,59,42,9,9,0.8,0.8
2023-10-24T12:00:00,1886A,104.5742,28.7199,宜宾市,黄金嘴,细颗粒物(PM2.5),92,89,97,68,72,149,44,20,20,21,32,8,8,0.7,0.7
2023-10-24T12:00:00,1888A,101.6891,26.571,攀枝花市,弄弄坪,细颗粒物(PM2.5),93,134,68,69,34,136,16,17,17,67,34,75,24,4.3,1.5
2023-10-24T12:00:00,1889A,101.5769,26.5928,攀枝花市,河门口,颗粒物(PM10),56,62,45,35,26,131,40,18,18,29,29,16,16,1.2,1.2
2023-10-24T12:00:00,1890A,101.7169,26.585,攀枝花市,炳草岗,细颗粒物(PM2.5),80,107,65,59,35,141,26,35,28,56,37,36,19,2.5,1.5
2023-10-24T12:00:00,1891A,101.7369,26.5008,攀枝花市,仁和,细颗粒物(PM2.5),78,102,46,57,27,136,30,16,16,76,27,101,17,6.9,1.2
2023-10-24T12:00:00,1893A,105.4324,28.9634,泸州市,九狮山,细颗粒物(PM2.5),135,159,76,103,49,94,27,12,12,27,21,6,6,0.7,0.5
2023-10-24T12:00:00,1894A,105.4427,28.9063,泸州市,小市上码头,细颗粒物(PM2.5),156,157,115,119,86,116,42,43,32,34,29,13,11,1.1,0.9
2023-10-24T12:00:00,1895A,105.4241,28.8573,泸州市,兰田宪桥,细颗粒物(PM2.5),125,133,99,95,69,119,,26,21,22,22,10,9,0.9,0.8
2023-10-24T12:00:00,1896A,105.4379,28.8833,泸州市,市环监站,细颗粒物(PM2.5),122,129,104,92,72,103,39,34,24,33,34,11,7,1.0,0.9
2023-10-24T12:00:00,1901A,104.4239,31.1208,德阳市,东山公园,颗粒物(PM10),90,129,103,59,54,120,49,42,40,44,29,5,6,0.8,0.7
2023-10-24T12:00:00,1902A,104.3826,31.1317,德阳市,西小区,,,,108,,77,113,40,14,14,52,42,6,14,1.0,0.9
2023-10-24T12:00:00,1904A,104.3553,31.1091,德阳市,耐火材料厂,颗粒物(PM10),110,169,144,77,78,110,28,7,7,60,47,5,13,0.9,0.9
2023-10-24T12:00:00,1905A,106.056,30.8064,南充市,西山风景区,,,,,49,43,91,25,53,38,,,8,6,0.6,0.5
2023-10-24T12:00:00,1906A,106.0789,30.8023,南充市,南充市委,细颗粒物(PM2.5),97,90,76,72,50,87,15,10,9,31,30,5,4,0.6,0.6
2023-10-24T12:00:00,1907A,106.1031,30.8217,南充市,南充炼油厂,细颗粒物(PM2.5),75,87,87,55,45,88,14,5,5,32,38,7,5,0.7,0.7
2023-10-24T12:00:00,1908A,106.1064,30.7856,南充市,高坪区监测站,细颗粒物(PM2.5),82,96,81,60,51,93,13,9,9,39,38,8,6,0.6,0.5
2023-10-24T12:00:00,1909A,106.0642,30.7636,南充市,嘉陵区环保局,细颗粒物(PM2.5),83,68,73,61,48,85,20,12,12,27,40,6,10,0.4,0.6
2023-10-24T12:00:00,1910A,106.1087,30.8388,南充市,市环境监测站,细颗粒物(PM2.5),93,101,76,69,50,87,8,14,10,36,32,6,6,0.6,0.6
2023-10-24T12:00:00,1911A,106.9222,27.6869,遵义市,丁字口,颗粒物(PM10),54,58,49,21,39,97,52,34,32,33,35,17,10,0.9,0.8
2023-10-24T12:00:00,1912A,106.9242,27.7019,遵义市,凤凰山,,50,50,46,29,36,103,55,72,60,25,19,19,14,0.8,0.7
2023-10-24T12:00:00,1913A,106.8906,27.6486,遵义市,忠庄,细颗粒物(PM2.5),62,60,66,44,40,95,34,40,33,40,23,8,3,0.8,0.6
2023-10-24T12:00:00,1914A,106.9231,27.6506,遵义市,舟水桥,颗粒物(PM10),54,57,63,35,40,98,27,27,25,42,20,9,3,1.2,0.9
2023-10-24T12:00:00,1915A,106.9178,27.72,遵义市,干田坝,,49,48,43,34,34,102,55,62,50,24,19,18,11,0.7,0.6
2023-10-24T12:00:00,1916A,103.7897,25.5035,曲靖市,环境监测站,,42,25,35,29,19,101,57,37,35,11,14,2,4,0.4,0.4
2023-10-24T12:00:00,1917A,103.8,25.5364,曲靖市,烟厂办公区,,28,27,22,19,18,97,60,42,39,9,12,3,5,0.4,0.4
2023-10-24T12:00:00,1918A,108.7197,34.3956,咸阳市,气象站,,,,,,,,,,,,,,,,
2023-10-24T12:00:00,1919A,108.673,34.3155,咸阳市,实验中学,"颗粒物(PM10),细颗粒物(PM2.5)",122,194,119,92,54,103,32,8,8,81,58,4,3,0.9,0.8
2023-10-24T12:00:00,1920A,108.7233,34.3617,咸阳市,师范学院,细颗粒物(PM2.5),107,162,113,80,65,102,29,11,11,93,64,6,5,1.0,0.8
2023-10-24T12:00:00,1922A,109.0656,35.0994,铜川市,党校,颗粒物(PM10),58,65,98,26,50,114,84,21,21,47,51,20,9,0.9,0.9
2023-10-24T12:00:00,1923A,109.0697,35.0697,铜川市,王益区政府,颗粒物(PM10),65,79,90,33,53,129,102,24,24,33,41,12,4,0.7,0.8
2023-10-24T12:00:00,1924A,108.9344,34.9058,铜川市,新区管委会,颗粒物(PM10),72,94,104,32,43,144,78,48,48,38,38,8,7,0.8,0.7
2023-10-24T12:00:00,1926A,109.4131,36.6275,延安市,枣园,,25,25,40,17,24,119,64,18,18,27,30,7,6,0.4,0.4
2023-10-24T12:00:00,1927A,109.4761,36.6028,延安市,延大医附院,,47,47,45,17,16,108,58,17,17,27,34,3,3,0.5,0.7
2023-10-24T12:00:00,1929A,109.5056,36.6106,延安市,百米大道,,,48,45,20,20,110,,10,10,,48,3,3,,0.8
2023-10-24T12:00:00,1930A,107.185,34.3063,宝鸡市,庙沟村,,30,30,31,21,21,98,35,40,31,14,15,8,8,0.3,0.3
2023-10-24T12:00:00,1931A,107.0708,34.3017,宝鸡市,竹园沟,,37,37,28,19,22,119,43,20,20,21,18,6,6,0.5,0.5
2023-10-24T12:00:00,1932A,107.1906,34.3672,宝鸡市,三陆医院,,,64,58,27,33,113,28,13,13,40,41,11,14,,0.6
2023-10-24T12:00:00,1933A,107.1431,34.3547,宝鸡市,监测站,颗粒物(PM10),55,59,42,34,27,110,37,18,18,32,28,8,7,0.6,0.5
2023-10-24T12:00:00,1934A,107.1186,34.3739,宝鸡市,技工学校,颗粒物(PM10),60,70,51,37,32,108,29,16,16,44,34,10,9,0.8,0.6
2023-10-24T12:00:00,1935A,107.3906,34.3528,宝鸡市,陈仓区环保局家属楼,细颗粒物(PM2.5),72,70,66,52,42,108,47,23,23,32,45,20,14,0.8,0.7
2023-10-24T12:00:00,1936A,107.2058,34.3497,宝鸡市,文理学院,,50,50,52,25,32,115,34,18,18,34,36,6,8,0.7,0.6
2023-10-24T12:00:00,1937A,107.2386,34.3622,宝鸡市,三迪小学,,,,,,,,,,,,,,,,
2023-10-24T12:00:00,1938A,109.5293,34.5101,渭南市,农科所,细颗粒物(PM2.5),134,151,108,102,71,126,60,16,16,44,48,6,6,1.0,0.9
2023-10-24T12:00:00,1939A,109.4974,34.4877,渭南市,日报社,细颗粒物(PM2.5),134,146,100,102,70,123,54,19,19,55,50,9,9,0.8,0.6
2023-10-24T12:00:00,1940A,109.4636,34.493,渭南市,体育馆,细颗粒物(PM2.5),123,144,115,93,77,126,,5,5,56,59,13,10,0.8,0.7
2023-10-24T12:00:00,1941A,109.4259,34.5023,渭南市,高新一小,细颗粒物(PM2.5),140,135,138,107,105,108,39,9,9,51,55,6,7,0.9,0.7
2023-10-24T12:00:00,1944A,102.1692,38.5167,金昌市,天庆家园,颗粒物(PM10),55,60,58,3,22,117,99,50,48,8,32,10,27,0.4,0.7
2023-10-24T12:00:00,1945A,98.2908,39.7711,嘉峪关市,气象局,,29,29,51,12,16,100,88,59,59,13,26,23,10,0.4,0.3
2023-10-24T12:00:00,1947A,106.3394,38.817,石嘴山市,沙湖旅游区,细颗粒物(PM2.5),122,96,101,92,48,120,44,17,17,40,43,24,15,0.7,0.6
2023-10-24T12:00:00,1948A,106.3668,39.0145,石嘴山市,大武口朝阳西街,细颗粒物(PM2.5),104,154,113,78,45,116,48,21,20,64,54,84,47,2.8,1.4
2023-10-24T12:00:00,1949A,106.7704,39.2282,石嘴山市,惠农南大街,颗粒物(PM10),84,117,93,37,32,105,45,16,16,41,52,37,27,1.0,0.8
2023-10-24T12:00:00,1950A,106.7099,39.1325,石嘴山市,红果子镇惠新街,颗粒物(PM10),98,145,98,57,33,111,50,21,21,45,38,45,24,1.0,0.6
2023-10-24T12:00:00,1951A,84.895,45.6094,克拉玛依市,长征新村,,33,33,28,7,5,76,37,52,45,9,4,9,10,0.2,0.2
2023-10-24T12:00:00,1952A,84.8988,45.5893,克拉玛依市,南林小区,,30,14,29,21,13,82,36,55,46,11,5,5,5,0.2,0.2
2023-10-24T12:00:00,1954A,84.905,44.3396,克拉玛依市,独山子区,,,,75,,28,116,44,44,43,13,27,6,7,0.3,0.5
2023-10-24T12:00:00,1955A,85.6979,46.098,克拉玛依市,乌尔禾区商贸楼,,15,6,40,3,7,80,45,51,49,5,4,6,8,0.3,0.2
2023-10-24T12:00:00,1956A,86.1472,41.7538,巴音郭楞州,孔雀公园,颗粒物(PM10),103,156,168,43,40,87,14,3,3,66,46,4,3,0.9,0.7
2023-10-24T12:00:00,1957A,86.1972,41.7166,巴音郭楞州,棉纺厂,颗粒物(PM10),115,180,199,33,48,86,26,17,15,60,40,3,2,0.9,0.5
2023-10-24T12:00:00,1958A,86.2357,41.7173,巴音郭楞州,经济开发区,颗粒物(PM10),88,125,157,34,38,90,25,56,51,69,26,4,3,0.8,0.4
2023-10-24T12:00:00,1961A,117.532,36.6868,济南市,东山小学,颗粒物(PM10),61,71,82,34,39,167,158,138,138,18,20,9,9,0.4,0.4
2023-10-24T12:00:00,1966A,120.0405,35.8735,青岛市,黄岛区4号,臭氧1小时,82,61,70,34,41,194,185,123,121,27,32,12,12,0.9,1
2023-10-24T12:00:00,1982A,122.0693,37.2174,威海市,文登开发区,臭氧1小时,62,68,60,36,30,171,169,107,107,16,23,10,8,0.6,0.7
2023-10-24T12:00:00,2031A,113.1817,27.9958,株洲市,云田中学,颗粒物(PM10),52,53,56,34,36,168,146,99,99,19,20,11,11,1.1,1.1
2023-10-24T12:00:00,2054A,114.1099,32.1059,信阳市,平桥分局,,48,41,41,32,28,160,152,90,90,13,19,8,6,0.7,0.6
2023-10-24T12:00:00,2064A,113.9956,32.1271,信阳市,南湾水厂,颗粒物(PM10),57,63,48,37,28,174,156,103,103,15,13,9,6,0.9,0.7
2023-10-24T12:00:00,2065A,114.0775,32.1195,信阳市,市酿酒公司,颗粒物(PM10),51,52,53,31,32,164,154,87,87,16,22,8,5,0.8,0.8
2023-10-24T12:00:00,2066A,114.0609,32.1399,信阳市,审计局,颗粒物(PM10),51,52,50,32,31,168,158,105,105,13,21,10,8,0.7,0.7
2023-10-24T12:00:00,2067A,114.6613,33.6128,周口市,市环境监测站,颗粒物(PM10),78,106,99,54,55,165,140,64,64,24,41,11,12,0.6,0.5
2023-10-24T12:00:00,2068A,114.6758,33.6347,周口市,周口师范,细颗粒物(PM2.5),85,106,89,63,50,166,145,76,76,25,35,8,7,1.0,0.9
2023-10-24T12:00:00,2069A,114.6546,33.5979,周口市,市运管处,颗粒物(PM10),92,133,118,57,56,161,142,65,65,24,38,7,5,0.7,0.6
2023-10-24T12:00:00,2070A,114.6369,33.6406,周口市,川汇区环保局,细颗粒物(PM2.5),89,100,91,66,54,162,136,76,76,25,35,10,9,0.6,0.6
2023-10-24T12:00:00,2075A,117.6336,24.4674,漳州市,九湖,,,,,,,,,,,,,,,,
2023-10-24T12:00:00,2160A,112.85,35.5051,晋城市,自来水公司,细颗粒物(PM2.5),83,82,81,61,49,108,99,36,36,38,44,22,13,2.4,1.4
2023-10-24T12:00:00,2161A,112.8318,35.4936,晋城市,白云商贸,细颗粒物(PM2.5),89,115,76,66,43,110,104,38,38,37,39,21,10,2.7,1.6
2023-10-24T12:00:00,2162A,112.8508,35.4887,晋城市,市环保局,细颗粒物(PM2.5),89,105,90,66,45,106,99,34,34,41,48,20,10,2.8,1.7
2023-10-24T12:00:00,2163A,112.8676,35.4897,晋城市,技术学院,细颗粒物(PM2.5),79,87,97,58,53,105,98,30,30,34,49,19,11,2.4,1.5
2023-10-24T12:00:00,2165A,112.8453,35.546,晋城市,白马寺,,,,,,,,,,,,,,,,
2023-10-24T12:00:00,2166A,112.4397,39.3522,朔州市,平朔,颗粒物(PM10),64,77,95,39,39,134,89,29,29,27,46,13,17,0.6,0.7
2023-10-24T12:00:00,2167A,112.4575,39.3617,朔州市,朔唯,颗粒物(PM10),68,85,116,29,42,122,81,22,22,32,56,12,24,0.7,0.8
2023-10-24T12:00:00,2168A,112.4258,39.3197,朔州市,区政府,颗粒物(PM10),70,90,90,32,38,126,86,33,33,31,48,16,13,0.6,0.8
2023-10-24T12:00:00,2169A,112.4072,39.3278,朔州市,市环保局,颗粒物(PM10),74,97,104,24,32,121,81,31,31,34,46,16,15,0.7,0.7
2023-10-24T12:00:00,2170A,112.4272,39.3681,朔州市,市二中,颗粒物(PM10),72,94,112,22,39,132,83,26,26,21,55,13,20,0.6,0.7
2023-10-24T12:00:00,2171A,112.7532,37.6945,晋中市,锦纶小区,颗粒物(PM10),87,124,104,55,49,148,115,34,34,34,56,26,14,1.4,0.8
2023-10-24T12:00:00,2173A,112.7249,37.7067,晋中市,南都小区,细颗粒物(PM2.5),93,105,115,69,57,147,116,33,33,27,60,26,14,0.9,0.8
2023-10-24T12:00:00,2174A,112.6991,37.6982,晋中市,榆次区政府,细颗粒物(PM2.5),84,100,106,62,56,147,111,32,32,32,66,29,16,1.1,1.1
2023-10-24T12:00:00,2175A,110.9956,35.0147,运城市,运城中学,细颗粒物(PM2.5),203,181,127,153,81,163,66,18,18,49,39,37,12,1.7,1.1
2023-10-24T12:00:00,2178A,110.9686,35.0303,运城市,地区技校,细颗粒物(PM2.5),176,189,168,133,84,159,92,22,22,37,56,16,10,1.5,1.2
2023-10-24T12:00:00,2179A,111.0414,35.1147,运城市,空港新区,细颗粒物(PM2.5),122,143,152,92,99,163,67,19,19,,44,11,11,,1
2023-10-24T12:00:00,2181A,112.7383,38.4519,忻州市,开发区,,,,103,,57,90,56,20,20,,64,,28,1.2,1.1
2023-10-24T12:00:00,2182A,112.7003,38.4928,忻州市,会展中心,细颗粒物(PM2.5),84,95,98,62,63,86,55,21,21,53,58,37,25,1.0,1
2023-10-24T12:00:00,2183A,111.1406,37.5211,吕梁市,环保局,细颗粒物(PM2.5),67,67,92,48,34,125,84,18,18,32,54,10,7,0.7,0.4
2023-10-24T12:00:00,2185A,111.1297,37.5136,吕梁市,自来水公司,,,78,111,56,36,129,76,18,18,,46,,10,,0.5
2023-10-24T12:00:00,2187A,106.8174,39.6973,乌海市,市林业局,颗粒物(PM10),105,160,99,49,32,107,31,16,12,67,37,87,37,3.5,1.4
2023-10-24T12:00:00,2188A,106.7907,39.6667,乌海市,中海勃湾学校,颗粒物(PM10),94,138,111,39,33,103,36,15,15,58,50,82,33,2.6,1.5
2023-10-24T12:00:00,2191A,122.2532,43.6801,通辽市,艺术职业学校,,30,30,105,0,54,146,72,82,62,17,31,6,14,0.2,0.7
2023-10-24T12:00:00,2192A,119.7594,49.2261,呼伦贝尔市,区环保局,,19,19,31,7,18,63,49,37,30,17,20,4,5,0.5,0.4
2023-10-24T12:00:00,2195A,107.4212,40.761,巴彦淖尔市,附二中,颗粒物(PM10),81,111,88,20,25,105,62,63,60,20,20,4,5,0.5,0.5
2023-10-24T12:00:00,2196A,107.37,40.7372,巴彦淖尔市,市环保大楼,颗粒物(PM10),100,149,102,23,31,107,67,56,56,18,22,3,3,0.4,0.4
2023-10-24T12:00:00,2197A,113.1306,40.9923,乌兰察布市,集宁新区,细颗粒物(PM2.5),53,46,90,37,50,126,117,65,56,14,32,9,11,0.5,0.7
2023-10-24T12:00:00,2200A,122.0392,46.0656,兴安盟,胜华新制药厂,,25,25,38,16,18,84,77,61,61,8,11,4,4,0.6,0.5
2023-10-24T12:00:00,2201A,121.9504,46.0741,兴安盟,科右前旗环保局,,26,6,38,6,17,86,81,68,68,3,10,4,4,0.3,0.4
2023-10-24T12:00:00,2202A,116.1042,43.9317,锡林郭勒盟,市环保监测站,,27,27,32,3,9,105,76,46,46,3,14,8,9,0.3,0.3
2023-10-24T12:00:00,2203A,116.0781,43.9311,锡林郭勒盟,市政府,,24,20,27,3,7,103,75,49,49,7,19,9,10,0.2,0.2
2023-10-24T12:00:00,2204A,105.6467,38.8363,阿拉善盟,西城区西花园,,43,43,45,26,18,110,102,89,89,14,15,15,8,0.9,0.9
2023-10-24T12:00:00,2205A,105.6985,38.8411,阿拉善盟,蒙二幼,颗粒物(PM10),55,59,45,33,15,110,96,92,92,16,11,13,8,0.6,0.4
2023-10-24T12:00:00,2206A,105.724,38.8516,阿拉善盟,环保局新楼,,,,28,,14,104,96,101,100,15,7,11,8,0.6,0.5
2023-10-24T12:00:00,2207A,121.6094,41.998,阜新市,工业园区,,,94,98,28,33,166,139,90,72,25,28,19,19,,1.1
2023-10-24T12:00:00,2208A,121.6697,42.0279,阜新市,长青街,颗粒物(PM10),80,109,118,42,64,152,128,88,78,23,25,19,17,1.0,1
2023-10-24T12:00:00,2209A,121.6673,42.0705,阜新市,农业园区,细颗粒物(PM2.5),83,74,96,61,73,150,121,98,94,18,20,15,15,0.9,1
2023-10-24T12:00:00,2210A,121.6717,42.0224,阜新市,东苑,颗粒物(PM10),64,78,104,33,42,150,124,93,82,30,33,17,19,1.2,1.1
2023-10-24T12:00:00,2211A,121.6506,42.0498,阜新市,玉龙新城,颗粒物(PM10),61,72,111,28,38,166,136,77,77,22,27,16,15,1.0,1.1
2023-10-24T12:00:00,2212A,123.2,41.1953,辽阳市,宏伟区,细颗粒物(PM2.5),52,49,62,36,51,139,137,131,130,11,12,10,10,0.6,0.7
2023-10-24T12:00:00,2213A,123.1683,41.2495,辽阳市,新华园,,41,40,70,28,53,146,131,129,127,16,15,10,10,0.9,0.9
2023-10-24T12:00:00,2214A,123.2354,41.2639,辽阳市,滨河路,,42,42,57,26,44,128,114,108,106,15,15,9,9,1.0,1
2023-10-24T12:00:00,2215A,123.149,41.2991,辽阳市,铁西工业园,颗粒物(PM10),62,73,87,36,51,156,132,129,123,25,18,16,12,0.9,0.7
2023-10-24T12:00:00,2216A,123.8139,42.3022,铁岭市,汇工街西,细颗粒物(PM2.5),75,75,70,55,68,167,127,131,127,30,21,20,17,1.0,1
2023-10-24T12:00:00,2217A,123.8649,42.2923,铁岭市,水上乐园,细颗粒物(PM2.5),83,81,72,61,66,170,132,127,126,28,27,13,10,1.2,1.1
2023-10-24T12:00:00,2218A,123.8486,42.2867,铁岭市,银州路东段,颗粒物(PM10),76,101,101,55,65,164,128,136,131,32,24,12,10,0.9,0.9
2023-10-24T12:00:00,2219A,123.7153,42.2217,铁岭市,金沙江路北,细颗粒物(PM2.5),85,77,75,63,70,173,134,122,118,29,30,18,18,0.9,1
2023-10-24T12:00:00,2220A,120.4318,41.5881,朝阳市,西梁,细颗粒物(PM2.5),98,106,105,73,68,140,124,80,74,26,30,28,20,1.5,1.4
2023-10-24T12:00:00,2221A,120.4521,41.5646,朝阳市,河畔小区,细颗粒物(PM2.5),100,109,101,75,67,155,131,88,88,26,26,22,14,1.4,1.2
2023-10-24T12:00:00,2222A,120.4176,41.5648,朝阳市,八里堡,颗粒物(PM10),130,210,105,74,61,139,,62,57,38,38,33,18,1.7,1.3
2023-10-24T12:00:00,2223A,120.3806,41.5969,朝阳市,农业园区,细颗粒物(PM2.5),103,97,99,77,77,157,134,90,90,20,23,20,13,1.2,1.2
2023-10-24T12:00:00,2225A,124.4002,43.1713,四平市,一商场,颗粒物(PM10),82,114,115,47,50,151,134,130,124,25,23,11,10,0.6,0.7
2023-10-24T12:00:00,2226A,124.388,43.193,四平市,境园,,,,82,,77,160,131,134,126,,16,9,10,0.6,0.8
2023-10-24T12:00:00,2227A,125.1358,42.8845,辽源市,环保局,,50,42,48,27,34,160,160,140,140,12,20,9,9,0.8,0.8
2023-10-24T12:00:00,2229A,125.9358,41.7173,通化市,光明,,47,29,47,17,24,149,149,144,144,11,33,8,10,0.6,0.7
2023-10-24T12:00:00,2230A,125.9446,41.7325,通化市,铁路,,48,42,55,18,27,152,152,102,102,9,47,7,8,0.4,0.8
2023-10-24T12:00:00,2231A,126.4219,41.9171,白山市,喜丰,颗粒物(PM10),56,62,80,24,33,148,148,53,53,11,39,12,11,0.7,0.8
2023-10-24T12:00:00,2232A,126.4077,41.9419,白山市,环保局,,46,46,80,29,37,144,144,41,41,10,37,11,12,0.9,1
2023-10-24T12:00:00,2233A,124.8006,45.1214,松原市,江南,,36,36,86,20,63,135,71,95,72,6,18,7,12,0.3,0.7
2023-10-24T12:00:00,2234A,124.7965,45.1722,松原市,江北,,35,25,81,24,65,131,67,94,72,8,14,4,6,0.4,0.7
2023-10-24T12:00:00,2235A,122.7911,45.6077,白城市,洮北区环保局,,,,61,,25,102,77,63,59,10,16,4,7,,0.6
2023-10-24T12:00:00,2236A,122.8738,45.5725,白城市,市环保局,,29,29,65,6,25,99,86,57,57,4,20,7,11,0.4,0.6
2023-10-24T12:00:00,2237A,129.47,42.8883,延边朝鲜族自治州,妇幼医院,颗粒物(PM10),54,58,51,31,30,96,68,23,23,36,34,10,11,0.8,0.8
2023-10-24T12:00:00,2238A,129.5055,42.9108,延边朝鲜族自治州,延边医院,颗粒物(PM10),58,66,55,40,28,102,53,22,22,52,38,11,11,0.9,0.9
2023-10-24T12:00:00,2239A,129.3964,42.8881,延边朝鲜族自治州,朝阳川镇医院,,49,49,43,27,22,110,78,28,28,25,24,11,8,0.7,0.6
2023-10-24T12:00:00,2240A,130.9762,45.3001,鸡西市,环保局,颗粒物(PM10),70,90,106,40,49,97,97,39,39,13,41,7,8,0.6,1.1
2023-10-24T12:00:00,2243A,130.9429,45.3039,鸡西市,第一中学,颗粒物(PM10),58,66,51,31,23,118,118,75,75,9,25,9,11,0.3,0.3
2023-10-24T12:00:00,2244A,130.2537,47.3416,鹤岗市,哈啤分公司,颗粒物(PM10),59,68,49,34,26,88,88,55,55,32,30,23,17,0.6,0.4
2023-10-24T12:00:00,2245A,130.2684,47.3086,鹤岗市,斯达机电,,,85,56,45,27,96,96,64,64,28,37,16,13,,0.4
2023-10-24T12:00:00,2246A,130.3114,47.3388,鹤岗市,东山纸板厂,颗粒物(PM10),67,84,70,44,27,93,93,42,42,26,31,15,13,0.5,0.8
2023-10-24T12:00:00,2247A,130.1097,47.3382,鹤岗市,五号水库,,,72,40,25,11,132,132,50,50,,17,13,12,0.8,0.5
2023-10-24T12:00:00,2248A,131.1511,46.6937,双鸭山市,双合村,,,,39,48,15,146,146,110,110,8,14,12,19,0.6,0.7
2023-10-24T12:00:00,2249A,131.1652,46.6191,双鸭山市,南小市,颗粒物(PM10),65,80,34,43,16,146,146,108,108,10,10,11,10,0.5,0.4
2023-10-24T12:00:00,2250A,131.1524,46.6554,双鸭山市,环保局,颗粒物(PM10),63,75,45,44,21,133,133,105,105,15,11,17,12,0.8,0.5
2023-10-24T12:00:00,2251A,131.12,46.5656,双鸭山市,苗圃,臭氧1小时,74,45,25,27,11,179,179,117,117,7,7,6,5,0.5,0.3
2023-10-24T12:00:00,2252A,128.5159,47.4311,伊春市,环保局,细颗粒物(PM2.5),99,90,46,74,28,118,118,78,78,12,13,7,7,0.7,0.5
2023-10-24T12:00:00,2253A,128.9102,47.7412,伊春市,电力嘉园,,,,36,,16,64,,63,,,21,,9,,0.5
2023-10-24T12:00:00,2254A,129.5029,48.471,伊春市,汤旺河国家公园,细颗粒物(PM2.5),108,124,47,81,23,107,107,58,58,11,7,9,4,0.6,0.3
2023-10-24T12:00:00,2255A,130.2751,46.8028,佳木斯市,佳纺,颗粒物(PM10),58,66,32,38,15,140,140,105,105,13,10,7,6,0.6,0.5
2023-10-24T12:00:00,2256A,130.3995,46.8307,佳木斯市,发电厂,颗粒物(PM10),56,61,34,34,18,135,135,100,100,12,17,9,7,0.8,0.5
2023-10-24T12:00:00,2257A,130.3258,46.7975,佳木斯市,环保局,细颗粒物(PM2.5),62,61,30,44,16,139,139,105,105,12,12,7,4,0.7,0.4
2023-10-24T12:00:00,2258A,130.3648,46.8032,佳木斯市,十一中,细颗粒物(PM2.5),69,71,38,50,21,131,131,100,100,17,20,4,3,0.6,0.4
2023-10-24T12:00:00,2259A,130.3794,46.7588,佳木斯市,四丰,臭氧1小时,60,47,22,41,14,168,168,121,121,13,8,1,1,0.4,0.2
2023-10-24T12:00:00,2262A,131.0518,45.8751,七台河市,新一中,细颗粒物(PM2.5),52,50,34,36,18,149,149,88,88,13,23,11,12,0.6,0.4
2023-10-24T12:00:00,2263A,127.4833,50.2524,黑河市,交通局,,,36,42,15,18,56,52,38,38,,25,,10,0.3,0.6
2023-10-24T12:00:00,2264A,127.5144,50.2341,黑河市,环保局,,50,50,33,23,20,64,37,40,40,28,18,46,9,0.4,0.4
2023-10-24T12:00:00,2265A,127.5291,50.2472,黑河市,大黑河岛,,,31,39,22,24,,,,,2,2,2,4,,
2023-10-24T12:00:00,2266A,126.9785,46.6365,绥化市,人和东街,细颗粒物(PM2.5),99,103,108,74,62,106,106,78,78,17,27,6,6,0.7,0.7
2023-10-24T12:00:00,2267A,126.964,46.6528,绥化市,党政办公中心,细颗粒物(PM2.5),98,82,100,73,65,109,106,89,86,17,22,5,6,0.7,0.6
2023-10-24T12:00:00,2269A,124.1069,50.4097,大兴安岭地区,科技局,,20,9,37,11,30,63,63,40,40,4,16,6,8,0.2,0.3
2023-10-24T12:00:00,2270A,117.396,32.939,蚌埠市,工人疗养院,颗粒物(PM10),56,61,58,31,31,166,146,102,102,22,24,5,6,0.5,0.6
2023-10-24T12:00:00,2271A,117.3605,32.9427,蚌埠市,百货大楼,颗粒物(PM10),56,61,60,27,29,165,146,104,104,21,25,6,6,0.5,0.5
2023-10-24T12:00:00,2273A,117.4185,32.8911,蚌埠市,蚌埠学院,颗粒物(PM10),56,61,59,27,33,162,146,88,88,20,28,6,6,0.5,0.5
2023-10-24T12:00:00,2274A,117.3533,32.9673,蚌埠市,淮上区政府,颗粒物(PM10),59,68,64,39,40,161,133,73,73,21,37,8,8,0.5,0.5
2023-10-24T12:00:00,2275A,117.3145,32.8977,蚌埠市,高新区,颗粒物(PM10),56,61,68,37,45,170,151,89,89,21,33,8,9,0.5,0.6
2023-10-24T12:00:00,2277A,116.8305,32.7727,淮南市,潘集区政府,颗粒物(PM10),57,64,92,37,55,161,134,68,68,26,39,16,14,0.9,0.6
2023-10-24T12:00:00,2278A,117.0067,32.6524,淮南市,师范学院,细颗粒物(PM2.5),57,57,70,40,45,169,136,90,86,24,31,11,9,0.6,0.6
2023-10-24T12:00:00,2279A,116.8569,32.5951,淮南市,谢家集区政府,,40,40,60,23,43,167,120,73,67,32,48,7,12,0.4,0.4
2023-10-24T12:00:00,2280A,116.8281,32.633,淮南市,八公山区政府,颗粒物(PM10),52,54,66,29,39,160,131,82,79,18,25,10,10,0.5,0.5
2023-10-24T12:00:00,2281A,116.6325,32.6201,淮南市,焦岗湖风景区管理处,,43,43,53,30,34,148,107,62,62,18,33,4,2,0.6,0.3
2023-10-24T12:00:00,2282A,116.8004,33.975,淮北市,监测站,细颗粒物(PM2.5),87,102,100,64,59,156,136,86,86,40,38,13,11,0.8,0.7
2023-10-24T12:00:00,2283A,116.8091,33.9007,淮北市,烈山区政府,细颗粒物(PM2.5),73,85,120,53,75,170,138,85,85,36,44,10,12,0.4,0.5
2023-10-24T12:00:00,2285A,117.8177,30.9412,铜陵市,市第四中学,颗粒物(PM10),70,90,75,45,38,136,119,41,41,25,52,23,13,1.9,1.3
2023-10-24T12:00:00,2286A,117.8059,30.9273,铜陵市,市公路局,,,54,61,24,26,128,112,45,45,21,37,19,24,,1.2
2023-10-24T12:00:00,2287A,117.7807,30.9413,铜陵市,市新民污水厂,颗粒物(PM10),52,53,68,33,32,134,104,38,38,30,50,14,10,0.4,0.9
2023-10-24T12:00:00,2288A,117.7439,30.8792,铜陵市,市第九中学,颗粒物(PM10),64,78,96,35,36,107,93,36,36,39,54,8,8,0.5,1.2
2023-10-24T12:00:00,2289A,117.846,30.9413,铜陵市,车站新区,,46,46,55,27,34,143,122,35,35,23,50,14,9,0.6,0.8
2023-10-24T12:00:00,2290A,117.8483,30.97,铜陵市,市职教基地,,38,37,62,26,35,136,107,36,36,20,34,23,12,0.9,1
2023-10-24T12:00:00,2291A,117.0809,30.5177,安庆市,环科院,颗粒物(PM10),55,59,59,29,36,136,117,32,32,21,68,9,9,0.5,0.7
2023-10-24T12:00:00,2292A,117.0331,30.5119,安庆市,马山宾馆,,,,59,,40,47,,76,,,70,,7,,0.7
2023-10-24T12:00:00,2294A,116.9896,30.6145,安庆市,安庆大学,颗粒物(PM10),58,66,54,34,33,170,129,47,47,24,38,11,9,0.7,0.9
2023-10-24T12:00:00,2295A,118.2903,29.6963,黄山市,延安路89号,,45,45,36,27,15,122,91,23,23,12,12,6,5,0.4,0.4
2023-10-24T12:00:00,2296A,118.327,29.7178,黄山市,黄山东路89号,,41,41,40,19,19,113,88,26,26,11,14,5,5,0.6,0.6
2023-10-24T12:00:00,2297A,118.1371,30.2756,黄山市,黄山区政府5号楼,,,34,51,,37,113,98,32,32,8,11,7,6,,0.7
2023-10-24T12:00:00,2298A,118.3093,32.3153,滁州市,老年大学,细颗粒物(PM2.5),62,59,55,44,38,185,143,41,41,27,36,13,9,0.6,0.7
2023-10-24T12:00:00,2299A,118.3244,32.2786,滁州市,人大宾馆,颗粒物(PM10),60,70,59,37,38,182,155,54,54,32,40,8,10,0.5,0.7
2023-10-24T12:00:00,2301A,115.8277,32.8929,阜阳市,市监测站,细颗粒物(PM2.5),58,54,72,41,49,155,153,76,76,18,38,10,9,0.6,0.5
2023-10-24T12:00:00,2303A,115.8554,32.8605,阜阳市,开发区,颗粒物(PM10),58,66,82,37,43,160,152,73,73,21,40,10,11,0.7,0.7
2023-10-24T12:00:00,2307A,116.5079,31.737,六安市,监测大楼,,38,30,34,17,17,141,119,69,69,16,21,6,5,0.3,0.4
2023-10-24T12:00:00,2308A,116.4738,31.7643,六安市,皖西学院,,40,40,49,19,17,146,112,50,50,24,26,7,6,0.4,0.4
2023-10-24T12:00:00,2309A,116.4996,31.7905,六安市,朝阳厂,,37,32,37,13,22,150,118,56,56,23,26,8,6,0.4,0.4
2023-10-24T12:00:00,2310A,116.5567,31.7886,六安市,开发区,,41,41,66,23,30,139,119,49,49,15,26,7,7,0.3,0.5
2023-10-24T12:00:00,2311A,115.8072,33.8399,亳州市,污水处理厂,,,76,66,36,36,151,151,77,77,26,34,,12,0.7,0.5
2023-10-24T12:00:00,2312A,115.7789,33.8518,亳州市,三国揽胜宫,,,76,64,51,34,158,156,97,97,23,28,14,13,,0.6
2023-10-24T12:00:00,2314A,117.47,30.6618,池州市,池州学院,,49,49,42,31,27,137,130,57,57,11,18,9,6,0.9,0.8
2023-10-24T12:00:00,2316A,118.7581,30.9454,宣城市,鳌峰子站,,34,34,49,20,30,127,102,53,53,15,26,4,5,0.5,0.5
2023-10-24T12:00:00,2317A,118.7385,30.9743,宣城市,敬亭山子站,,34,34,39,15,28,125,108,55,55,12,21,7,6,0.4,0.5
2023-10-24T12:00:00,2318A,118.7173,30.9427,宣城市,开发区子站,,33,28,53,15,31,122,105,38,38,8,36,5,5,0.5,0.6
2023-10-24T12:00:00,2319A,119.0141,25.4325,莆田市,荔城区仓后路,,37,37,24,16,9,80,80,64,64,7,8,6,6,0.6,0.6
2023-10-24T12:00:00,2320A,119.0015,25.4553,莆田市,莆田市监测站,,33,33,18,12,7,84,78,71,70,5,4,7,7,0.6,0.6
2023-10-24T12:00:00,2321A,119.1119,25.4561,莆田市,涵江区六中,,30,30,22,11,9,84,78,65,65,1,6,7,7,0.6,0.6
2023-10-24T12:00:00,2322A,119.1013,25.3215,莆田市,秀屿区政府,,40,40,28,14,12,86,86,66,66,9,14,8,7,0.7,0.7
2023-10-24T12:00:00,2323A,118.981,25.4792,莆田市,东圳水库,,,,,,,,,,,,,,,,
2023-10-24T12:00:00,2324A,117.6211,26.2625,三明市,三钢,,24,20,27,9,20,88,75,26,26,9,19,8,8,0.3,0.3
2023-10-24T12:00:00,2325A,117.635,26.2714,三明市,三明二中,,,32,25,11,17,86,,13,13,10,17,4,4,0.3,0.4
2023-10-24T12:00:00,2326A,117.6028,26.2378,三明市,三元区政府,,36,35,31,25,18,89,55,19,19,29,21,31,12,2.1,0.8
2023-10-24T12:00:00,2327A,117.7275,26.3108,三明市,洋溪,,,,,,,,,,,,,,,,
2023-10-24T12:00:00,2331A,118.0966,26.6761,南平市,茫荡山,,,,,,,,,,,,,,,,
2023-10-24T12:00:00,2332A,118.1681,26.6369,南平市,南平市监测站,,26,14,24,18,19,79,78,28,28,6,17,4,4,0.5,0.7
2023-10-24T12:00:00,2333A,118.1825,26.6489,南平市,南平铝业有限公司,,25,25,24,14,17,80,77,28,28,6,20,5,7,0.5,0.6
2023-10-24T12:00:00,2334A,118.1756,26.6272,南平市,南平七中,,25,22,21,10,16,82,80,30,30,6,13,6,5,0.4,0.5
2023-10-24T12:00:00,2335A,117.0189,25.1181,龙岩市,龙岩师专,,,,,,,,,,,,,,,,
2023-10-24T12:00:00,2336A,117.0217,25.1033,龙岩市,龙岩市监测站,,26,20,23,16,18,83,83,38,38,10,18,7,9,0.5,0.6
2023-10-24T12:00:00,2337A,117.0258,25.0661,龙岩市,闽西职业技术学院,,45,22,29,31,18,84,84,32,32,9,20,7,10,0.5,0.6
2023-10-24T12:00:00,2338A,117.0196,25.0306,龙岩市,龙岩学院,,29,29,28,11,18,84,84,30,30,9,16,7,6,0.5,0.5
2023-10-24T12:00:00,2339A,119.5001,26.6946,宁德市,金涵水库,,,,,,,,,,,,,,,,
2023-10-24T12:00:00,2341A,119.5388,26.6612,宁德市,宁德市监测站,,33,33,25,10,14,77,75,33,33,10,21,6,7,0.5,0.5
2023-10-24T12:00:00,2342A,117.3102,29.3867,景德镇市,王港中学,,28,28,30,2,3,86,11,47,33,2,5,4,2,0.4,0.4
2023-10-24T12:00:00,2343A,117.2117,29.2933,景德镇市,老干部活动中心,,41,41,50,26,31,158,88,33,33,12,26,12,14,0.5,0.6
2023-10-24T12:00:00,2344A,117.1894,29.2789,景德镇市,兽医站,,45,35,50,31,37,148,93,33,33,8,22,14,15,0.8,0.9
2023-10-24T12:00:00,2345A,117.1547,29.2617,景德镇市,台达陶瓷,,46,46,59,30,36,116,84,44,44,25,39,41,33,0.7,0.7
2023-10-24T12:00:00,2346A,117.2461,29.2956,景德镇市,陶研所,,,65,67,14,26,141,69,18,18,,24,3,7,,0.6
2023-10-24T12:00:00,2347A,114.0997,27.5002,萍乡市,武功山,,28,8,16,2,14,127,89,48,48,4,6,8,6,0.1,0.1
2023-10-24T12:00:00,2348A,113.8385,27.6434,萍乡市,中医院,颗粒物(PM10),62,74,67,41,41,141,119,66,66,22,28,31,30,1.5,1
2023-10-24T12:00:00,2349A,113.8493,27.6253,萍乡市,市政府车库,颗粒物(PM10),70,90,69,40,44,138,108,49,49,30,30,34,24,3.1,1.5
2023-10-24T12:00:00,2350A,113.8676,27.6435,萍乡市,市环保局,细颗粒物(PM2.5),70,83,66,51,46,142,102,54,54,30,29,29,27,2.6,1
2023-10-24T12:00:00,2351A,113.866,27.6198,萍乡市,安源区政府,颗粒物(PM10),58,65,68,40,45,142,115,52,52,24,31,25,21,2.0,1.2
2023-10-24T12:00:00,2352A,115.0861,27.9317,新余市,北岗,细颗粒物(PM2.5),77,81,38,56,29,147,114,42,42,17,13,54,24,0.7,0.5
2023-10-24T12:00:00,2353A,114.9886,27.8431,新余市,飞宇,颗粒物(PM10),80,110,73,57,35,134,107,44,44,27,45,33,20,0.6,0.5
2023-10-24T12:00:00,2354A,114.9231,27.8246,新余市,第二水厂,细颗粒物(PM2.5),95,118,68,71,39,150,98,35,35,71,47,42,14,3.9,0.8
2023-10-24T12:00:00,2355A,114.9308,27.8036,新余市,市气象局,细颗粒物(PM2.5),97,106,71,72,43,141,108,27,27,30,40,23,15,1.7,1.2
2023-10-24T12:00:00,2357A,116.9822,28.1136,鹰潭市,龙虎山,,25,25,32,5,7,138,73,30,30,4,4,4,6,0.0,0.1
2023-10-24T12:00:00,2358A,117.0564,28.2642,鹰潭市,新监测站,颗粒物(PM10),52,54,51,32,29,142,75,32,30,25,23,39,16,0.8,0.5
2023-10-24T12:00:00,2359A,117.0311,28.2475,鹰潭市,财苑宾馆,颗粒物(PM10),58,66,55,29,35,145,65,33,33,30,24,30,20,0.8,0.5
2023-10-24T12:00:00,2360A,117.0222,28.2264,鹰潭市,体育馆,颗粒物(PM10),54,58,51,31,34,143,68,36,36,25,21,18,16,0.8,0.6
2023-10-24T12:00:00,2361A,117.0017,28.2131,鹰潭市,三川水表,颗粒物(PM10),54,58,50,27,30,139,66,38,38,26,15,11,10,0.6,0.5
2023-10-24T12:00:00,2362A,114.9017,25.9149,赣州市,通天岩,,,,,,,,,,,,,,,,
2023-10-24T12:00:00,2363A,114.9367,25.8664,赣州市,地委,颗粒物(PM10),56,62,47,32,24,130,130,45,45,24,19,26,17,0.9,0.9
2023-10-24T12:00:00,2364A,114.9461,25.8481,赣州市,气象台,颗粒物(PM10),59,68,43,38,24,136,136,47,47,40,35,24,16,0.9,0.9
2023-10-24T12:00:00,2365A,114.9322,25.8333,赣州市,市图书馆,颗粒物(PM10),65,80,54,46,28,148,148,55,55,25,26,21,19,1.0,1
2023-10-24T12:00:00,2366A,114.8905,25.8471,赣州市,华坚鞋城,颗粒物(PM10),59,67,48,40,24,134,134,50,50,30,24,31,22,1.2,1.1
2023-10-24T12:00:00,2367A,114.9754,27.0803,吉安市,红声器材厂,颗粒物(PM10),63,76,66,44,42,141,99,47,47,22,28,23,13,0.7,0.8
2023-10-24T12:00:00,2368A,114.9658,27.0999,吉安市,市森林工业局,颗粒物(PM10),64,77,63,41,37,136,116,52,52,15,27,23,16,0.8,0.5
2023-10-24T12:00:00,2369A,114.99,27.1312,吉安市,市环境监测站,细颗粒物(PM2.5),60,64,58,43,36,150,124,51,51,16,28,21,14,0.6,0.7
2023-10-24T12:00:00,2370A,115.0093,27.0968,吉安市,青原区法院,细颗粒物(PM2.5),72,72,55,52,37,137,110,48,48,24,27,17,13,0.7,0.6
2023-10-24T12:00:00,2371A,114.3408,27.8064,宜春市,槟榔水业,颗粒物(PM10),61,71,61,41,36,154,129,49,49,30,37,28,11,0.7,0.6
2023-10-24T12:00:00,2373A,114.3956,27.7844,宜春市,市石油公司,颗粒物(PM10),70,90,65,50,39,151,104,47,47,36,23,52,14,1.5,1
2023-10-24T12:00:00,2374A,114.3703,27.7914,宜春市,市气象局,细颗粒物(PM2.5),68,83,63,49,38,147,105,58,58,32,32,39,14,1.3,0.9
2023-10-24T12:00:00,2375A,114.4013,27.8074,宜春市,市广电局,颗粒物(PM10),65,79,66,43,41,152,117,60,60,30,33,36,18,1.4,0.9
2023-10-24T12:00:00,2376A,116.2127,28.0814,抚州市,桐源党溪,颗粒物(PM10),55,60,43,33,25,137,86,38,38,12,11,56,11,1.0,0.9
2023-10-24T12:00:00,2377A,116.3544,27.9831,抚州市,市站,,42,42,55,24,33,137,79,46,46,18,26,7,7,0.5,0.7
2023-10-24T12:00:00,2378A,116.3565,27.963,抚州市,血防站,,44,44,57,28,33,134,71,37,37,18,23,4,5,0.8,1
2023-10-24T12:00:00,2379A,116.3564,28.0007,抚州市,采茶剧团,,41,41,55,20,34,129,70,33,33,19,25,5,7,0.8,0.8
2023-10-24T12:00:00,2380A,116.385,27.9647,抚州市,医学分院,,,38,52,19,30,142,61,36,36,,22,,8,0.8,0.8
2023-10-24T12:00:00,2381A,118.005,28.4572,上饶市,百草园,,,44,36,28,18,106,56,27,27,20,16,20,14,,
2023-10-24T12:00:00,2382A,117.9756,28.4436,上饶市,市监测站,颗粒物(PM10),52,54,43,27,22,122,83,36,36,23,26,16,14,0.6,0.6
2023-10-24T12:00:00,2383A,117.9519,28.4628,上饶市,凤凰光学,颗粒物(PM10),52,54,59,23,25,120,76,23,23,22,35,11,12,0.6,0.6
2023-10-24T12:00:00,2385A,114.17,35.9019,鹤壁市,市监测站,,43,40,68,30,45,122,116,,,23,37,25,16,0.6,0.8
2023-10-24T12:00:00,2386A,114.2956,35.7511,鹤壁市,市交警支队,细颗粒物(PM2.5),73,88,100,53,58,128,67,33,22,54,45,6,7,0.6,0.6
2023-10-24T12:00:00,2387A,114.2878,35.7306,鹤壁市,迎宾馆,细颗粒物(PM2.5),87,92,92,64,65,131,63,34,20,57,47,10,11,0.7,0.7
2023-10-24T12:00:00,2389A,113.836,35.311,新乡市,环保西院,颗粒物(PM10),69,87,97,38,57,127,72,23,23,37,52,15,12,0.8,0.6
2023-10-24T12:00:00,2390A,113.884,35.272,新乡市,开发区,细颗粒物(PM2.5),64,71,92,46,59,133,74,28,28,34,42,16,11,1.0,0.8
2023-10-24T12:00:00,2391A,113.883,35.303,新乡市,环保东院,细颗粒物(PM2.5),68,76,97,49,60,129,70,23,23,35,49,16,13,1.2,1.1
2023-10-24T12:00:00,2392A,115.0312,35.7636,濮阳市,环保局,细颗粒物(PM2.5),95,101,83,71,59,125,85,54,44,29,24,12,6,0.8,0.6
2023-10-24T12:00:00,2394A,115.0574,35.7609,濮阳市,油田运输公司,细颗粒物(PM2.5),103,111,92,77,60,129,92,44,38,30,31,11,6,0.8,0.6
2023-10-24T12:00:00,2395A,115.0866,35.7754,濮阳市,油田物探公司,细颗粒物(PM2.5),98,102,94,73,61,136,94,39,39,27,31,12,7,0.8,0.6
2023-10-24T12:00:00,2396A,113.8276,34.0159,许昌市,监测站,颗粒物(PM10),75,100,133,53,93,167,87,36,36,22,43,18,9,0.7,0.9
2023-10-24T12:00:00,2398A,113.7906,33.9953,许昌市,开发区,颗粒物(PM10),62,74,130,41,99,163,89,33,33,17,44,18,7,0.5,0.7
2023-10-24T12:00:00,2399A,114.051,33.5699,漯河市,三五一五工厂,细颗粒物(PM2.5),105,100,120,79,76,185,142,90,90,16,37,13,10,0.5,0.6
2023-10-24T12:00:00,2400A,114.0055,33.5698,漯河市,漯河大学,细颗粒物(PM2.5),85,91,99,63,62,181,143,97,97,17,32,12,10,0.6,0.7
2023-10-24T12:00:00,2401A,114.0138,33.5828,漯河市,市水利局,细颗粒物(PM2.5),93,102,103,69,61,182,144,98,98,14,25,13,10,0.7,0.7
2023-10-24T12:00:00,2402A,114.0261,33.5698,漯河市,市广电局,细颗粒物(PM2.5),89,98,105,66,67,181,139,94,94,16,26,8,6,0.7,0.7
