timepoint,stationcode,longitude,latitude,area,positionname,primarypollutant,aqi,pm10,pm10_24h,pm2_5,pm2_5_24h,o3,o3_24h,o3_8h,o3_8h_24h,no2,no2_24h,so2,so2_24h,co,co_24h
2024-07-30T0000,2566A,102.1879,31.914,阿坝藏族羌族自治州,州农科所,,26,26,34,8,10,24,,48,34,9,16,6,6,0,0
2024-07-30T0000,2568A,102.2502,31.8896,阿坝藏族羌族自治州,马师校,,32,,14,22,16,24,,65,46,12,16,4,4,0.3,0.4
2024-07-30T0000,3994A,102.2165,31.9024,阿坝藏族羌族自治州,马尔康中学西区,,27,27,14,15,12,29,,68,52,9,8,4,4,0.3,0.4
2024-07-30T0000,2695A,80.292,41.1694,阿克苏地区,电视台,颗粒物(PM10),62,74,45,35,26,97,,129,114,29,18,4,5,0.6,0.5
2024-07-30T0000,2696A,80.2613,41.1551,阿克苏地区,艺术中心,颗粒物(PM10),78,105,44,25,17,4,,130,93,89,20,4,4,1.6,0.6
2024-07-30T0000,2204A,105.6467,38.8363,阿拉善盟,西城区西花园,,45,39,41,18,18,141,,165,159,8,7,9,9,0.8,0.8
2024-07-30T0000,2205A,105.6985,38.8411,阿拉善盟,蒙二幼,,39,28,39,13,17,122,,147,144,9,9,8,8,0.8,0.7
2024-07-30T0000,2206A,105.724,38.8516,阿拉善盟,环保局新楼,,43,20,40,10,16,136,,150,148,6,8,8,8,0.5,0.5
2024-07-30T0000,2708A,88.1264,47.8517,阿勒泰地区,市站,,31,31,24,18,6,70,,114,106,16,13,7,7,0.7,0.6
2024-07-30T0000,2630A,80.1161,32.5,阿里地区,阿里监测站,,43,17,17,7,6,137,,140,137,10,10,6,6,0.3,0.3
2024-07-30T0000,3192A,80.0903,32.5028,阿里地区,阿里藏医院,,41,16,18,6,3,130,,136,131,9,8,6,6,0.3,0.3
2024-07-30T0000,2642A,109.0318,32.6537,安康市,香溪洞,,14,,12,3,7,43,,60,51,3,4,5,5,0.3,0.6
2024-07-30T0000,2643A,109.0281,32.6939,安康市,安康市监测站,,19,,21,7,13,59,,71,60,4,7,5,5,0.5,0.5
2024-07-30T0000,2644A,109.0072,32.6975,安康市,汉滨区检察院,,20,,19,3,11,62,,66,60,4,7,6,6,0.5,0.5
2024-07-30T0000,2291A,117.0809,30.5177,安庆市,环科院,,20,12,12,10,10,13,,74,42,40,17,5,7,0.5,0.5
2024-07-30T0000,2292A,117.0331,30.5119,安庆市,马山宾馆,,18,18,12,9,7,21,,78,52,36,13,9,10,0.4,0.4
2024-07-30T0000,2294A,116.9896,30.6145,安庆市,安庆大学,,14,14,16,8,9,24,,74,51,19,9,12,11,0.4,0.4
2024-07-30T0000,3173A,117.0598,30.5351,安庆市,市人大,,18,16,15,12,9,16,,73,50,34,9,10,9,0.4,0.3
2024-07-30T0000,3122A,105.9606,26.2611,安顺市,伍家关,,,,,,,,,,,,,,,,
2024-07-30T0000,3123A,105.9408,26.2431,安顺市,凤凰山,,19,10,12,3,9,60,,72,61,2,4,6,6,0.4,0.5
2024-07-30T0000,3124A,105.9439,26.2564,安顺市,金钟山,,20,8,10,3,10,63,,77,66,3,4,6,5,0.5,0.5
2024-07-30T0000,3125A,105.8983,26.2481,安顺市,娄家坡,,18,6,8,6,8,55,,74,64,4,4,6,6,0.5,0.6
2024-07-30T0000,1818A,114.4839,36.0621,安阳市,棉研所,,,,,,,,,,,,,,,,
2024-07-30T0000,1819A,114.3551,36.1017,安阳市,红庙街,,15,11,10,3,5,46,,79,61,1,2,3,3,0.5,0.4
2024-07-30T0000,1820A,114.361,36.0681,安阳市,银杏小区,,,9,10,,5,44,,79,62,3,2,3,3,0.6,0.5
2024-07-30T0000,3141A,114.3922,36.0878,安阳市,信访局,,16,7,9,3,4,51,,87,72,2,2,2,1,1.0,0.7
2024-07-30T0000,3669A,114.4705,36.0637,安阳市,左辅环卫站,,15,6,4,3,5,47,,78,67,2,2,4,5,0.4,0.4
2024-07-30T0000,3703A,114.2917,36.0949,安阳市,安钢职工学校,,13,10,10,6,6,40,,78,63,6,2,7,4,0.4,0.4
2024-07-30T0000,1748A,123.044,41.1196,鞍山市,深沟寺,细颗粒物(PM2.5),64,61,34,46,24,77,,100,94,9,9,3,3,1.0,0.9
2024-07-30T0000,1749A,123.011,41.0931,鞍山市,太阳城,细颗粒物(PM2.5),67,69,41,48,24,85,,96,94,8,6,4,4,1.1,1
2024-07-30T0000,1750A,123.0485,41.1442,鞍山市,太平,细颗粒物(PM2.5),70,69,42,51,29,91,,88,85,9,16,3,4,1.1,1.3
2024-07-30T0000,1751A,122.9642,41.0971,鞍山市,铁西三道街,细颗粒物(PM2.5),62,65,37,44,22,83,,89,86,8,12,2,2,1.3,1.2
2024-07-30T0000,1752A,122.9341,41.0833,鞍山市,铁西工业园区,细颗粒物(PM2.5),67,61,36,48,26,78,,92,90,7,6,3,2,1.3,1.2
2024-07-30T0000,1753A,123.022,41.0821,鞍山市,明达新区,,,57,31,,,88,,96,94,6,7,2,3,1.0,0.9
2024-07-30T0000,1754A,123.1289,41.0228,鞍山市,千山,,,,,,,,,,,,,,,,
2024-07-30T0000,2195A,107.4212,40.761,巴彦淖尔市,附二中,,39,39,43,24,24,68,,102,85,17,17,3,9,0.6,0.6
2024-07-30T0000,2196A,107.37,40.7372,巴彦淖尔市,市环保大楼,颗粒物(PM10),61,71,64,13,19,67,,88,77,17,15,4,5,0.6,0.5
2024-07-30T0000,1956A,86.1472,41.7538,巴音郭楞蒙古自治州,孔雀公园,颗粒物(PM10),59,68,58,19,14,55,,131,95,60,26,9,6,0.5,0.5
2024-07-30T0000,1957A,86.1972,41.7166,巴音郭楞蒙古自治州,棉纺厂,颗粒物(PM10),81,112,70,23,20,104,,128,110,19,23,5,6,0.3,0.3
2024-07-30T0000,1958A,86.2357,41.7173,巴音郭楞蒙古自治州,经济开发区,颗粒物(PM10),52,53,63,18,25,108,,120,106,10,11,4,7,0.2,0.2
2024-07-30T0000,2914A,106.7677,31.8794,巴中市,苏山坪,,24,24,23,16,15,58,,83,74,8,6,4,4,0.6,0.6
2024-07-30T0000,3182A,106.7656,31.8545,巴中市,丽阳花园,,22,22,25,12,16,38,,90,68,12,11,3,3,0.6,0.5
2024-07-30T0000,3183A,106.7418,31.8654,巴中市,圣泉水务公司,,23,22,20,16,14,30,,86,64,18,11,4,4,0.7,0.6
2024-07-30T0000,3616A,106.7616,31.8344,巴中市,市中心医院,,18,18,23,12,16,42,,91,67,11,10,3,3,0.6,0.6
2024-07-30T0000,2235A,122.7911,45.6077,白城市,洮北区环保局,,17,16,12,8,6,52,,66,58,5,8,8,9,0.3,0.3
2024-07-30T0000,2236A,122.8738,45.5725,白城市,市环保局,,20,20,22,3,4,51,,68,52,6,8,4,3,0.3,0.4
2024-07-30T0000,2231A,126.4219,41.9171,白山市,喜丰,,15,15,20,6,8,20,,85,54,18,7,2,9,1.0,0.9
2024-07-30T0000,2232A,126.4077,41.9419,白山市,环保局,,30,30,24,17,9,25,,85,52,7,7,8,9,0.8,0.8
2024-07-30T0000,2647A,104.1724,36.5446,白银市,第三小学,,27,21,38,10,14,85,,123,108,16,11,13,11,0.7,0.7
2024-07-30T0000,2648A,104.1465,36.5482,白银市,动力公司,,26,19,24,13,12,82,,115,103,15,11,12,8,1.2,0.7
2024-07-30T0000,2512A,106.6103,23.9011,百色市,市监测站,,24,24,28,13,16,41,,54,41,13,12,6,8,0.7,0.8
2024-07-30T0000,2513A,106.6538,23.8859,百色市,市中心血站,,27,27,31,16,19,36,,56,47,15,14,6,9,0.8,0.8
2024-07-30T0000,3406A,106.6085,23.8798,百色市,祈福高中,,19,15,28,13,21,40,,54,46,16,12,3,5,0.8,0.8
2024-07-30T0000,2270A,117.396,32.939,蚌埠市,工人疗养院,,21,19,21,3,4,66,,94,82,2,4,7,8,0.2,0.3
2024-07-30T0000,2271A,117.3605,32.9427,蚌埠市,百货大楼,,22,22,24,9,4,67,,100,86,1,3,10,7,0.5,0.4
2024-07-30T0000,2273A,117.4185,32.8911,蚌埠市,蚌埠学院,,18,14,16,3,6,57,,98,80,6,6,7,7,0.3,0.4
2024-07-30T0000,2274A,117.3533,32.9673,蚌埠市,淮上区政府,,27,27,18,6,7,70,,103,90,2,4,16,9,0.7,0.4
2024-07-30T0000,2275A,117.3145,32.8977,蚌埠市,高新区,,27,27,24,9,8,54,,101,82,14,8,18,8,0.8,0.5
2024-07-30T0000,3715A,117.3092,32.9314,蚌埠市,蚌埠田家炳中学,,30,30,24,17,8,55,,101,83,6,4,27,10,1.0,0.4
2024-07-30T0000,1585A,109.8756,40.6532,包头市,市环境监测站,,30,26,35,15,13,93,,100,95,16,34,13,13,0.9,0.8
2024-07-30T0000,1587A,109.9991,40.5842,包头市,包头八中,颗粒物(PM10),59,68,40,29,17,25,,106,72,59,31,19,21,1.0,0.8
2024-07-30T0000,1588A,109.8538,40.6821,包头市,青山宾馆,,34,34,26,10,13,95,,106,98,13,26,13,12,0.8,0.6
2024-07-30T0000,1589A,109.8642,40.6288,包头市,惠龙物流,,37,37,34,11,11,91,,109,97,16,28,18,17,0.8,0.7
2024-07-30T0000,1590A,110.0377,40.5546,包头市,东河鸿龙湾,,48,48,39,20,12,43,,86,58,27,29,11,15,0.8,0.9
2024-07-30T0000,3283A,109.9154,40.5685,包头市,滨河大厦,,44,44,36,24,14,42,,91,63,36,33,9,10,1.0,0.9
2024-07-30T0000,3419A,109.9447,40.6261,包头市,包头市委党校,,22,20,34,15,12,58,,108,84,37,32,7,17,0.7,0.6
2024-07-30T0000,3683A,109.8331,40.6576,包头市,昆区政府,,30,27,30,12,12,95,,108,98,12,23,11,11,1.0,0.9
2024-07-30T0000,1930A,107.185,34.3063,宝鸡市,庙沟村,,33,16,23,12,16,103,,110,110,4,7,5,5,0.3,0.3
2024-07-30T0000,1931A,107.0708,34.3017,宝鸡市,竹园沟,,29,29,25,14,15,63,,74,64,10,12,4,4,0.6,0.6
2024-07-30T0000,1932A,107.1906,34.3672,宝鸡市,三陆医院,,22,22,32,13,15,40,,72,56,29,23,8,8,0.5,0.5
2024-07-30T0000,1933A,107.1431,34.3547,宝鸡市,监测站,,,,,,,,,,,,,,,,
2024-07-30T0000,1934A,107.1186,34.3739,宝鸡市,技工学校,,26,19,26,18,19,70,,79,59,13,12,8,8,0.6,0.5
2024-07-30T0000,1935A,107.3906,34.3528,宝鸡市,陈仓区环保局家属楼,,26,20,33,17,16,81,,92,87,17,18,7,7,0.5,0.2
2024-07-30T0000,1936A,107.2058,34.3497,宝鸡市,文理学院,,28,28,48,15,20,73,,83,73,19,20,3,3,0.2,0.3
2024-07-30T0000,1937A,107.2386,34.3622,宝鸡市,三迪小学,,25,20,38,17,16,60,,80,75,17,19,8,8,0.4,0.5
2024-07-30T0000,1051A,115.493,38.8632,保定市,游泳馆,,37,37,38,16,12,20,,94,41,17,8,5,5,0.1,0.1
2024-07-30T0000,1052A,115.5213,38.8959,保定市,华电二区,,37,37,33,7,11,21,,104,43,17,9,5,5,0.5,0.5
2024-07-30T0000,1053A,115.4713,38.9108,保定市,接待中心,,30,30,36,3,11,29,,102,46,12,8,3,3,0.3,0.3
2024-07-30T0000,1054A,115.4612,38.8416,保定市,地表水厂,,39,39,42,10,13,23,,86,35,15,11,1,1,0.6,0.6
2024-07-30T0000,3581A,115.31981,38.95208,保定市,满城区生态环境分局,,24,24,39,12,16,23,,106,38,14,15,1,2,0.1,0.1
2024-07-30T0000,3582A,115.47694,38.76408,保定市,清苑区第二中学,,23,23,36,10,23,28,,80,43,7,7,1,2,0.2,0.2
2024-07-30T0000,3583A,115.62909,39.02311,保定市,徐水物探局,,14,14,29,3,11,36,,102,46,9,10,3,3,0.2,0.2
2024-07-30T0000,4004A,115.4202,38.8656,保定市,双鹰农机,,28,28,31,12,15,44,,124,54,16,13,6,6,0.3,0.3
2024-07-30T0000,4034A,115.5150,38.8590,保定市,植保所站,,20,16,28,14,12,36,,110,53,18,10,5,5,0.2,0.2
2024-07-30T0000,2594A,99.1678,25.1081,保山市,市环境监测站,,28,27,23,19,12,23,,56,38,13,9,8,7,0.4,0.4
2024-07-30T0000,2595A,99.1711,25.1328,保山市,市环保局,,21,21,25,11,7,26,,63,41,10,7,6,6,0.3,0.3
2024-07-30T0000,1866A,109.2262,21.588,北海市,牛尾岭水库,,,,,,,,,,,,,,,,
2024-07-30T0000,1867A,109.1436,21.4086,北海市,海滩公园,,18,12,17,3,4,57,,59,57,4,6,4,4,0.5,0.5
2024-07-30T0000,1868A,109.0981,21.4661,北海市,新市环保局,,16,6,13,3,8,51,,56,53,5,8,2,3,0.6,0.6
2024-07-30T0000,1869A,109.1778,21.5233,北海市,北海工业园,,15,15,18,3,9,40,,56,48,9,9,4,7,0.8,0.5
2024-07-30T0000,3400A,109.1911,21.4415,北海市,龙潭自来水厂,,14,8,14,3,8,43,,57,53,7,7,6,6,0.5,0.6
2024-07-30T0000,1001A,116.3621,39.8784,北京市,万寿西宫,,18,11,40,6,19,57,,137,82,11,15,3,3,0.5,0.6
2024-07-30T0000,1002A,116.2202,40.2915,北京市,定陵,,32,,34,22,21,16,,151,65,6,6,3,3,0.5,0.5
2024-07-30T0000,1003A,116.4174,39.9289,北京市,东四,,19,9,42,3,22,60,,146,87,11,16,1,1,0.5,0.5
2024-07-30T0000,1004A,116.4072,39.8863,北京市,天坛,,14,8,34,3,20,43,,132,72,11,13,3,3,0.5,0.5
2024-07-30T0000,1005A,116.462,39.9365,北京市,农展馆,,17,11,41,3,21,53,,144,87,13,15,3,3,0.4,0.5
2024-07-30T0000,1006A,116.3392,39.9295,北京市,官园,,20,9,40,8,20,61,,137,86,8,18,2,2,0.4,0.5
2024-07-30T0000,1007A,116.2878,39.9611,北京市,海淀万柳,,16,11,38,3,20,49,,129,81,13,20,2,2,0.4,0.5
2024-07-30T0000,1008A,116.6636,40.135,北京市,顺义新城,,14,14,43,3,22,29,,155,86,24,18,3,3,0.4,0.5
2024-07-30T0000,1009A,116.6275,40.3275,北京市,怀柔镇,,22,22,43,8,24,48,,168,98,11,6,3,3,0.4,0.5
2024-07-30T0000,1010A,116.2296,40.217,北京市,昌平镇,,20,20,42,6,22,45,,136,84,12,13,3,3,0.5,0.6
2024-07-30T0000,1011A,116.3966,39.9821,北京市,奥体中心,,19,,41,3,21,60,,134,90,7,20,3,2,0.3,0.4
2024-07-30T0000,1012A,116.184,39.9136,北京市,古城,,13,12,33,6,17,40,,143,79,17,16,3,3,0.1,0.2
2024-07-30T0000,3281A,115.9718,40.4529,北京市,延庆夏都,颗粒物(PM10),53,56,32,32,18,84,,137,123,11,8,3,3,0.5,0.4
2024-07-30T0000,3417A,117.0709,40.1465,北京市,平谷新城,,,,39,9,21,47,,134,86,11,8,3,3,0.5,0.5
2024-07-30T0000,3418A,116.8336,40.4095,北京市,密云新城,,32,32,40,13,25,61,,164,117,10,7,3,3,0.4,0.5
2024-07-30T0000,3671A,116.088,39.9726,北京市,门头沟三家店,,,,,,,,,,,,,,,,
2024-07-30T0000,3672A,116.1541,39.8204,北京市,丰台云岗,,10,6,36,3,16,30,,120,62,15,16,3,3,0.4,0.4
2024-07-30T0000,3673A,116.6804,39.9081,北京市,通州东关,,16,,37,3,17,50,,136,76,7,12,3,3,0.4,0.5
2024-07-30T0000,3674A,115.9577,39.7603,北京市,房山燕山,,21,21,30,7,16,35,,122,73,12,9,3,3,0.3,0.4
2024-07-30T0000,3675A,116.4672,39.7733,北京市,大兴旧宫,,12,12,32,3,17,35,,123,64,13,11,3,3,0.5,0.5
2024-07-30T0000,3694A,115.986,40.4563,北京市,延庆石河营,,46,42,29,32,19,70,,134,119,11,8,3,3,0.5,0.4
2024-07-30T0000,3695A,116.6151,40.3053,北京市,怀柔新城,,15,,40,10,25,42,,158,89,17,10,3,3,0.5,0.6
2024-07-30T0000,3696A,116.2545,39.8768,北京市,丰台小屯,,14,12,38,6,20,42,,108,56,10,16,5,5,0.3,0.4
2024-07-30T0000,3697A,116.84,40.3844,北京市,密云镇,,30,30,43,17,23,74,,152,112,8,11,1,1,0.3,0.5
2024-07-30T0000,1761A,123.8275,41.3064,本溪市,大峪,颗粒物(PM10),59,67,29,31,13,55,,109,88,15,14,7,7,1.5,0.9
2024-07-30T0000,1762A,123.7567,41.3325,本溪市,溪湖,细颗粒物(PM2.5),53,47,32,37,20,48,,110,83,10,15,6,7,1.1,1.7
2024-07-30T0000,1763A,123.7169,41.3094,本溪市,彩屯,细颗粒物(PM2.5),85,68,26,63,20,55,,87,67,14,16,5,6,1.1,1
2024-07-30T0000,1764A,123.7669,41.2864,本溪市,东明,"颗粒物(PM10),细颗粒物(PM2.5)",58,66,31,41,15,72,,94,79,19,16,5,4,1.7,1
2024-07-30T0000,1765A,123.7992,41.2664,本溪市,新立屯,,38,38,27,24,12,54,,94,73,9,8,3,3,1.1,0.8
2024-07-30T0000,1766A,123.8142,41.3472,本溪市,威宁,,35,24,21,24,16,14,,88,58,20,12,8,8,1.1,1
2024-07-30T0000,2587A,105.2864,27.3125,毕节市,八中,,23,9,11,9,10,72,,81,76,5,6,4,4,0.4,0.4
2024-07-30T0000,2588A,105.31,27.2944,毕节市,师专,,20,12,14,12,10,63,,77,71,6,6,4,4,0.5,0.5
2024-07-30T0000,3537A,105.3631,27.3533,毕节市,长征村,,21,19,14,14,10,67,,88,82,6,6,4,5,0.5,0.5
2024-07-30T0000,1629A,118.0018,37.3617,滨州市,第二水厂,,32,27,15,22,12,73,,118,105,13,9,2,1,1.6,0.6
2024-07-30T0000,1630A,117.9776,37.393,滨州市,北中新校,,28,24,20,19,13,82,,110,105,9,8,4,4,0.7,0.5
2024-07-30T0000,3514A,117.9378,37.3956,滨州市,中海酒店,,31,,16,19,13,99,,125,121,11,11,4,5,1.2,0.8
2024-07-30T0000,3515A,117.9378,37.3553,滨州市,开发区一中,,22,17,19,12,14,68,,119,101,16,16,4,4,0.6,0.5
2024-07-30T0000,3516A,118.0917,37.694,滨州市,金海六路,,32,32,15,22,7,66,,105,88,10,11,4,2,0.7,0.6
2024-07-30T0000,4028A,117.9956,37.3753,滨州市,滨州市西街道办事处,,27,24,15,14,13,85,,136,124,12,8,3,2,0.9,0.5
2024-07-30T0000,2311A,115.8072,33.8399,亳州市,污水处理厂,,16,11,8,7,6,51,,90,77,12,9,1,2,0.5,0.5
2024-07-30T0000,2312A,115.7789,33.8518,亳州市,三国揽胜宫,,19,13,12,3,5,58,,95,85,8,7,1,2,0.4,0.5
2024-07-30T0000,3332A,115.7633,33.8034,亳州市,亳州学院,,18,,4,12,6,50,,95,81,12,6,2,2,0.4,0.4
2024-07-30T0000,2693A,82.0485,44.8556,博尔塔拉蒙古自治州,市党校,,44,44,23,13,10,89,,135,120,12,9,7,7,0.4,0.4
2024-07-30T0000,2694A,82.0806,44.8969,博尔塔拉蒙古自治州,市环保局,,,,23,17,10,73,,126,108,29,13,5,6,3.6,0.8
2024-07-30T0000,1071A,116.8842,38.2991,沧州市,沧县城建局,,,,18,,11,62,,77,67,,7,3,2,0.1,0.1
2024-07-30T0000,1072A,116.8584,38.3254,沧州市,电视转播站,,25,25,20,12,12,46,,80,69,13,7,3,3,0.2,0.2
2024-07-30T0000,1073A,116.8709,38.3228,沧州市,市环保局,,29,25,20,20,13,56,,84,71,11,7,1,6,0.3,0.2
2024-07-30T0000,3324A,116.8136,38.3004,沧州市,河北水利电力学院,,15,9,14,8,7,45,,73,61,13,10,5,6,0.9,0.3
2024-07-30T0000,2622A,97.1806,31.1273,昌都市,昌都监测站,,21,21,11,11,6,53,,106,88,14,8,9,9,0.5,0.5
2024-07-30T0000,3719A,97.1714,31.1406,昌都市,昌都会议中心,,21,20,12,9,7,66,,119,103,7,4,7,6,0.3,0.4
2024-07-30T0000,2690A,88.1236,43.8886,昌吉回族自治州,天山天池,,26,21,14,18,6,81,,142,117,6,6,7,8,0.5,0.6
2024-07-30T0000,2692A,87.2717,44.0297,昌吉回族自治州,新区政务中心,颗粒物(PM10),54,57,38,22,15,52,,140,121,62,17,10,11,0.9,0.6
2024-07-30T0000,3613A,87.3095,44.0142,昌吉回族自治州,亚心广场,颗粒物(PM10),67,83,63,29,15,30,,144,116,91,28,9,11,0.9,0.4
2024-07-30T0000,1119A,125.3325,43.9166,长春市,食品厂,,30,30,25,9,10,38,,74,48,25,18,2,2,0.5,0.6
2024-07-30T0000,1120A,125.2863,43.9027,长春市,客车厂,,27,27,18,10,9,42,,82,58,20,10,3,1,0.3,0.2
2024-07-30T0000,1121A,125.2841,43.8463,长春市,邮电学院,,33,33,17,8,6,18,,76,52,28,10,6,6,0.5,0.4
2024-07-30T0000,1122A,125.3716,43.8772,长春市,劳动公园,,24,24,16,8,6,41,,85,68,23,8,3,3,0.6,0.6
2024-07-30T0000,1123A,125.3297,43.8805,长春市,园林处,,19,19,14,6,6,31,,79,61,22,8,3,3,0.5,0.4
2024-07-30T0000,1124A,125.4605,43.79,长春市,净月潭,,27,27,14,3,4,10,,80,47,11,6,4,4,0.4,0.4
2024-07-30T0000,1125A,125.7194,43.515,长春市,甩湾子,,,,,,,,,,,,,,,,
2024-07-30T0000,1126A,125.3863,43.8447,长春市,经开区环卫处,,29,29,16,9,6,20,,87,61,30,12,2,1,0.6,0.4
2024-07-30T0000,1127A,125.245,43.7783,长春市,高新区管委会,,27,27,14,11,7,15,,87,58,31,7,3,2,0.5,0.5
2024-07-30T0000,1128A,125.1761,43.8325,长春市,岱山公园,,12,12,13,6,6,27,,80,53,22,6,2,2,0.3,0.3
2024-07-30T0000,1335A,113.0833,28.2325,长沙市,经开区环保局,,11,11,14,3,6,27,,58,43,9,6,6,7,0.3,0.4
2024-07-30T0000,1336A,112.8872,28.2189,长沙市,高开区环保局,,12,12,17,7,7,36,,77,56,6,6,5,6,0.4,0.5
2024-07-30T0000,1337A,113.0792,28.2053,长沙市,马坡岭,,12,12,15,6,6,29,,67,48,9,6,2,2,0.5,0.5
2024-07-30T0000,1338A,112.9394,28.19,长沙市,湖南师范大学,,16,16,18,3,9,22,,72,46,12,7,4,6,0.7,0.8
2024-07-30T0000,1339A,113.0178,28.1322,长沙市,雨花区环保局,,10,6,14,3,6,31,,66,49,6,4,3,3,0.1,0.2
2024-07-30T0000,1340A,112.9792,28.2597,长沙市,伍家岭,,15,15,17,6,8,28,,70,46,8,6,1,2,0.7,0.8
2024-07-30T0000,1341A,113.0014,28.1944,长沙市,火车新站,,12,12,19,7,5,28,,68,47,13,7,3,4,0.4,0.5
2024-07-30T0000,1342A,112.9844,28.1178,长沙市,天心区环保局,,15,8,15,3,7,47,,63,52,8,7,2,4,0.5,0.6
2024-07-30T0000,1343A,112.8908,28.1308,长沙市,湖南中医药大学,,18,18,17,3,5,26,,82,49,12,7,4,5,0.5,0.6
2024-07-30T0000,1344A,112.9581,28.3611,长沙市,沙坪,,15,15,10,9,6,24,,72,42,11,8,6,6,0.4,0.5
2024-07-30T0000,1727A,113.1147,36.1547,长治市,清华站,,21,9,15,3,5,66,,72,61,4,8,3,3,0.3,0.3
2024-07-30T0000,1728A,113.1031,36.1989,长治市,监测站,,19,8,17,3,5,59,,74,54,7,11,5,6,0.7,0.7
2024-07-30T0000,1730A,113.0886,36.2125,长治市,审计局,,20,8,14,3,5,61,,69,58,2,6,3,3,0.4,0.4
2024-07-30T0000,1731A,113.0844,36.1856,长治市,长治八中,,20,,14,6,9,63,,78,60,6,8,4,4,0.3,0.3
2024-07-30T0000,2845A,113.1569,36.1911,长治市,德盛苑,,18,17,14,3,6,56,,72,48,5,5,8,8,0.6,0.7
2024-07-30T0000,3568A,113.06,36.0464,长治市,向阳小学,,33,32,41,23,22,68,,70,66,7,12,11,11,0.8,1.1
2024-07-30T0000,3569A,112.8792,36.3144,长治市,屯留一中,,26,26,34,7,19,68,,80,66,7,11,7,10,0.1,0.6
2024-07-30T0000,3570A,113.235,36.3489,长治市,潞城四中,,18,16,19,9,16,55,,79,56,9,9,4,4,0.9,0.7
2024-07-30T0000,1854A,111.6975,28.9703,常德市,市二中,,17,,12,3,7,52,,82,67,4,5,6,8,0.4,0.4
2024-07-30T0000,1857A,111.7158,29.1456,常德市,白鹤山,,,,,,,,,,,,,,,,
2024-07-30T0000,3138A,111.7153,29.0289,常德市,武陵区永安,,17,8,12,3,7,54,,79,66,6,5,8,8,0.6,0.6
2024-07-30T0000,3139A,111.6892,28.9881,常德市,鼎城区玉霞,,17,9,14,3,9,52,,80,60,6,7,4,5,0.4,0.4
2024-07-30T0000,3140A,111.6625,29.0531,常德市,武陵区长庚,,20,,12,14,10,52,,84,69,7,5,21,7,0.4,0.4
2024-07-30T0000,1196A,119.9633,31.762,常州市,市监测站,,26,21,20,18,10,82,,140,123,23,11,5,5,0.4,0.3
2024-07-30T0000,1200A,119.9468,31.7069,常州市,武进监测站,,29,21,19,15,10,90,,139,125,13,7,5,5,0.7,0.5
2024-07-30T0000,1201A,119.9255,31.9087,常州市,安家,,35,35,24,21,12,63,,136,110,26,12,7,7,0.4,0.4
2024-07-30T0000,3002A,119.9805,31.8174,常州市,行政中心,,26,21,20,9,13,82,,133,120,17,11,3,3,0.6,0.5
2024-07-30T0000,3003A,120.0522,31.7748,常州市,经开区,,24,23,23,15,12,75,,135,120,18,8,8,10,0.6,0.8
2024-07-30T0000,3010A,119.9025,31.7964,常州市,钟楼,,29,20,20,13,11,90,,135,122,13,10,4,4,0.3,0.5
2024-07-30T0000,3429A,119.8598,31.7066,常州市,武进经发区,,28,23,25,8,9,87,,136,115,12,10,7,8,0.4,0.3
2024-07-30T0000,3430A,119.5826,31.7245,常州市,金坛城区,,30,23,21,3,15,95,,149,126,12,10,6,7,0.5,0.5
2024-07-30T0000,2220A,120.4318,41.5881,朝阳市,西梁,,,,46,8,13,33,,97,78,19,10,10,8,0.5,0.5
2024-07-30T0000,2221A,120.4521,41.5646,朝阳市,河畔小区,,,79,231,,16,79,,94,86,11,7,5,6,1.0,0.8
2024-07-30T0000,2222A,120.4176,41.5648,朝阳市,八里堡,,,,49,13,8,33,,92,70,19,11,1,2,0.7,0.7
2024-07-30T0000,2223A,120.3806,41.5969,朝阳市,农业园区,,40,40,37,10,11,20,,90,57,17,8,6,6,0.5,0.5
2024-07-30T0000,1705A,116.6367,23.6719,潮州市,西园路,,28,28,22,10,7,21,,58,45,15,10,4,2,0.5,0.5
2024-07-30T0000,3026A,116.6183,23.6608,潮州市,市政府,,30,30,23,12,10,36,,58,50,13,11,8,6,0.6,0.6
2024-07-30T0000,4036A,116.6461,23.6761,潮州市,金山,,29,29,20,7,8,12,,58,42,11,7,4,4,0.7,0.5
2024-07-30T0000,2472A,113.0073,25.9061,郴州市,马头岭,,11,9,12,3,6,35,,55,40,4,4,7,7,0.2,0.2
2024-07-30T0000,2473A,113.0116,25.8226,郴州市,市职中,,11,8,9,3,6,34,,54,44,2,3,14,10,0.5,0.5
2024-07-30T0000,2474A,113.0161,25.8001,郴州市,兴隆步行街,,11,7,10,3,5,34,,53,44,4,4,7,8,0.4,0.5
2024-07-30T0000,2475A,113.0383,25.8071,郴州市,市审计局,,10,9,9,3,6,32,,53,41,5,5,5,5,0.3,0.3
2024-07-30T0000,2476A,113.0348,25.7759,郴州市,市环保局,,11,6,8,3,6,34,,52,43,6,7,7,8,0.4,0.4
2024-07-30T0000,1431A,103.9728,30.7236,成都市,金泉两河,,24,24,21,3,8,26,,77,60,19,8,1,1,0.4,0.3
2024-07-30T0000,1432A,104.176,30.6872,成都市,十里店,,18,18,19,3,10,44,,94,72,21,17,2,2,0.5,0.5
2024-07-30T0000,1433A,104.079,30.5706,成都市,三瓦窑,,28,19,22,19,13,47,,80,66,17,20,1,1,0.3,0.4
2024-07-30T0000,1434A,104.1114,30.63,成都市,沙河铺,,25,25,27,3,11,39,,86,71,22,19,5,4,0.6,0.6
2024-07-30T0000,1437A,104.0786,30.6531,成都市,君平街,,20,20,23,10,11,49,,100,78,19,17,1,2,0.5,0.5
2024-07-30T0000,1438A,103.613,31.0283,成都市,灵岩寺,,,,,,,,,,,,,,,,
2024-07-30T0000,2880A,104.0239,30.65639,成都市,大石西路,,19,19,24,11,10,38,,84,64,22,16,3,4,0.4,0.4
2024-07-30T0000,3136A,104.2725,30.5589,成都市,龙泉驿区区政府,,22,12,17,9,10,70,,103,93,8,11,4,3,0.5,0.5
2024-07-30T0000,3357A,104.0106,30.6931,成都市,金博路,,18,18,13,12,8,31,,74,57,18,11,2,2,0.3,0.3
2024-07-30T0000,3359A,104.0578,30.5225,成都市,华阳,,25,24,22,17,16,44,,87,74,12,13,1,2,0.6,0.6
2024-07-30T0000,3487A,104.2394,30.5319,成都市,车城东七路,,23,23,29,12,16,68,,106,93,7,9,3,2,0.5,0.5
2024-07-30T0000,3488A,104.3853,30.7453,成都市,青白江技师分院,,18,18,19,3,8,54,,123,97,28,16,3,3,0.5,0.4
2024-07-30T0000,3489A,104.0789,30.4072,成都市,科学城,,26,25,22,18,14,57,,99,80,14,10,3,2,0.6,0.6
2024-07-30T0000,4011A,103.8506,30.6947,成都市,光华大道三段,,22,22,19,6,6,35,,82,63,14,9,3,3,0.5,0.4
2024-07-30T0000,1062A,117.9531,40.9081,承德市,铁路,,25,25,34,6,18,78,,143,86,14,18,7,11,0.4,0.5
2024-07-30T0000,1063A,117.9392,40.9763,承德市,中国银行,,21,21,35,13,18,60,,149,90,16,17,3,7,0.4,0.5
2024-07-30T0000,1064A,117.9503,40.928,承德市,开发区,,28,28,35,11,17,71,,149,90,14,16,7,12,0.4,0.5
2024-07-30T0000,1065A,117.8051,40.9655,承德市,文化中心,,28,18,40,3,19,87,,155,101,11,19,5,12,0.4,0.5
2024-07-30T0000,1066A,117.9268,41.0026,承德市,离宫,,30,30,31,20,16,23,,132,59,16,8,3,4,0.3,0.4
2024-07-30T0000,2314A,117.47,30.6618,池州市,池州学院,,19,19,16,12,11,37,,108,68,12,7,8,7,0.3,0.5
2024-07-30T0000,3237A,117.4918,30.6617,池州市,展览馆,,20,20,17,11,8,39,,106,69,11,7,6,5,0.4,0.6
2024-07-30T0000,3333A,117.5627,30.695,池州市,第八中学,,18,18,20,8,9,44,,110,71,11,10,4,7,0.2,0.4
2024-07-30T0000,3334A,117.5038,30.6243,池州市,第十二中学,,27,27,21,13,10,30,,94,61,18,11,5,5,0.7,0.7
2024-07-30T0000,1744A,118.9233,42.2816,赤峰市,松山一中,,26,26,12,3,3,25,,100,69,42,16,11,11,0.8,0.6
2024-07-30T0000,1745A,118.9576,42.2728,赤峰市,哈达街,,18,13,10,6,5,55,,96,71,13,10,13,15,0.5,0.4
2024-07-30T0000,1746A,118.8788,42.2554,赤峰市,天义路,,22,8,8,8,5,70,,106,87,13,13,7,7,0.4,0.4
2024-07-30T0000,3058A,119.2658,42.0353,赤峰市,银河街,,15,10,19,9,6,48,,111,73,22,16,14,15,0.4,0.4
2024-07-30T0000,3286A,118.9359,42.3147,赤峰市,桥北物流园区,,26,26,14,11,5,43,,99,68,31,16,10,8,0.6,0.5
2024-07-30T0000,2521A,107.3476,22.4136,崇左市,市环保局江州分局,,22,22,19,12,9,50,,73,63,5,5,5,6,0.5,0.5
2024-07-30T0000,2522A,107.3702,22.3707,崇左市,城南新区,,18,11,17,9,10,55,,66,60,3,5,3,4,0.4,0.4
2024-07-30T0000,2298A,118.3093,32.3153,滁州市,老年大学,,20,20,21,14,11,53,,108,90,10,7,7,8,0.4,0.4
2024-07-30T0000,2299A,118.3244,32.2786,滁州市,人大宾馆,,24,24,23,13,11,67,,112,94,14,11,7,7,0.6,0.5
2024-07-30T0000,3207A,118.3118,32.3038,滁州市,市政府原办公楼,,26,22,17,18,13,62,,105,86,12,9,7,8,0.7,0.7
2024-07-30T0000,3331A,118.3267,32.2634,滁州市,图书馆,,31,31,21,20,11,54,,109,88,18,9,5,5,0.9,0.9
2024-07-30T0000,2605A,101.5482,25.0441,楚雄彝族自治州,州环境监测站,,15,11,15,8,16,45,,57,43,17,9,4,6,0.8,0.7
2024-07-30T0000,2606A,101.538,25.0492,楚雄彝族自治州,市经济开发区,,20,20,19,10,14,49,,54,43,14,10,6,7,0.7,0.6
2024-07-30T0000,2548A,107.5277,31.2827,达州市,达州职业技术学院,,20,20,32,3,12,6,,51,34,24,15,4,4,0.6,0.6
2024-07-30T0000,2549A,107.5086,31.2186,达州市,市环境监测站,,16,16,36,3,15,30,,66,49,17,20,7,9,0.4,0.6
2024-07-30T0000,2550A,107.4988,31.2132,达州市,凤凰小区,,11,7,33,7,20,35,,74,57,15,16,7,9,0.5,0.7
2024-07-30T0000,2551A,107.5082,31.1986,达州市,达县机关宾馆,,12,12,38,3,20,36,,67,44,16,24,5,7,0.4,0.6
2024-07-30T0000,2552A,107.4644,31.2124,达州市,市政中心,,17,17,40,7,16,45,,76,56,10,15,9,9,0.5,0.7
2024-07-30T0000,2614A,100.1542,25.7054,大理白族自治州,大理市环境监测站,,18,,24,12,12,46,,60,45,14,11,3,3,0.5,0.4
2024-07-30T0000,2615A,100.2171,25.5811,大理白族自治州,大理古城,,26,,18,18,13,53,,74,48,7,10,6,6,0.5,0.5
2024-07-30T0000,1109A,121.612,38.9741,大连市,甘井子,,26,24,18,16,14,82,,91,79,12,18,8,6,0.4,0.4
2024-07-30T0000,1110A,121.565,38.9511,大连市,周水子,,21,15,14,14,12,65,,71,67,15,18,7,7,0.6,0.6
2024-07-30T0000,1111A,121.5637,38.8845,大连市,星海三站,,28,16,16,15,13,88,,104,98,5,8,6,6,0.5,0.5
2024-07-30T0000,1112A,121.6302,38.9117,大连市,青泥洼桥,,22,16,15,12,13,69,,81,77,4,7,7,7,0.6,0.6
2024-07-30T0000,1113A,121.6251,38.8638,大连市,傅家庄,,25,18,17,17,12,76,,97,94,8,8,5,5,0.6,0.5
2024-07-30T0000,1114A,121.5213,38.8661,大连市,七贤岭,,26,19,14,18,13,48,,67,62,10,10,7,6,0.4,0.4
2024-07-30T0000,1115A,121.2529,38.8061,大连市,旅顺,,27,13,13,10,10,85,,81,81,9,21,8,8,0.3,0.3
2024-07-30T0000,1116A,121.7485,39.1311,大连市,金州,,49,,16,34,16,44,,53,50,22,14,6,6,0.6,0.6
2024-07-30T0000,1117A,121.7811,39.0496,大连市,开发区,,35,30,34,24,15,72,,92,87,15,13,3,7,0.5,0.5
2024-07-30T0000,1118A,121.9762,39.0631,大连市,双D港,,29,29,22,19,13,40,,77,62,12,13,5,5,0.6,0.6
2024-07-30T0000,1789A,124.81117,46.03138,大庆市,大同区,,25,23,21,17,14,38,,74,49,12,10,8,8,0.3,0.3
2024-07-30T0000,1790A,125.129,46.533,大庆市,龙凤区,,36,36,18,10,8,39,,84,57,24,14,6,6,0.6,0.4
2024-07-30T0000,1791A,124.902,46.408,大庆市,红岗区,,29,29,19,17,13,34,,90,,27,11,6,6,0.5,0.4
2024-07-30T0000,1792A,125.153,46.586,大庆市,萨尔图区,,22,22,17,14,6,44,,75,51,20,14,5,5,0.5,0.4
2024-07-30T0000,1793A,124.9042,46.6215,大庆市,让胡路区,,36,36,24,15,8,33,,80,50,20,12,6,7,0.3,0.2
2024-07-30T0000,3481A,125.141,46.634,大庆市,萨区政府监测点,,25,25,23,8,7,30,,75,55,26,13,7,7,0.3,0.2
2024-07-30T0000,1721A,113.3819,40.1097,大同市,果树场,,,,,,,,,,,,,,,,
2024-07-30T0000,1723A,113.2994,40.0758,大同市,云冈宾馆,,34,30,29,13,12,106,,131,109,11,16,6,10,0.5,0.8
2024-07-30T0000,1724A,113.3444,40.0917,大同市,大同大学,,29,27,26,15,11,91,,121,103,14,18,5,9,0.4,0.5
2024-07-30T0000,1725A,113.2661,40.1269,大同市,安家小村,,28,27,37,3,7,88,,126,107,19,20,8,11,0.6,0.9
2024-07-30T0000,1726A,113.2711,40.0844,大同市,教育学院,,32,24,38,16,13,101,,127,108,17,27,10,13,0.5,1
2024-07-30T0000,3282A,113.3397,40.0597,大同市,大同市卫生学校,,33,23,30,12,10,104,,130,109,13,20,6,9,0.6,0.6
2024-07-30T0000,3565A,113.1367,40.1122,大同市,云冈站,,42,42,43,13,14,89,,112,93,15,22,10,15,0.5,0.7
2024-07-30T0000,3566A,113.1186,40.2556,大同市,图书馆,,30,30,27,13,13,66,,123,87,11,13,7,10,0.4,0.6
2024-07-30T0000,3567A,113.5931,40.0461,大同市,区一中,,26,22,19,12,5,81,,122,109,10,12,5,7,0.5,0.4
2024-07-30T0000,3676A,113.2802,40.0995,大同市,第二人民医院,,34,22,38,12,11,107,,128,109,11,19,8,11,0.5,0.9
2024-07-30T0000,2269A,124.1069,50.4097,大兴安岭地区,科技局,,33,33,24,15,10,5,,59,26,7,5,3,3,0.1,0.1
2024-07-30T0000,3663A,124.1164,50.4278,大兴安岭地区,红旗社区,,26,22,12,18,13,0,,52,21,11,5,8,8,0.5,0.4
2024-07-30T0000,1600A,124.3303,40.0625,丹东市,江湾东路,,14,6,11,6,6,43,,49,49,3,5,2,3,0.6,0.5
2024-07-30T0000,1601A,124.4256,40.1503,丹东市,临江后街,,17,11,10,6,8,52,,58,58,3,3,2,2,0.6,0.6
2024-07-30T0000,1602A,124.3933,40.1461,丹东市,元宝山,,14,13,12,7,6,43,,50,50,8,9,2,2,0.6,0.3
2024-07-30T0000,1603A,124.3633,40.1092,丹东市,民主桥,,14,13,13,8,8,44,,52,52,6,6,2,2,0.7,0.4
2024-07-30T0000,3541A,109.5726,19.5167,儋州市,第一中学子站,,12,12,16,3,6,18,,36,28,4,5,6,6,0.5,0.5
2024-07-30T0000,3542A,109.5567,19.5187,儋州市,东坡学校子站,,8,8,16,3,7,19,,40,28,4,4,5,5,0.6,0.6
2024-07-30T0000,2616A,98.5842,24.428,德宏傣族景颇族自治州,德宏州监测站,,22,22,16,8,7,22,,43,32,11,10,12,14,0.8,0.8
2024-07-30T0000,3677A,98.5881,24.4368,德宏傣族景颇族自治州,芒市人民政府综合楼,,19,19,18,11,7,15,,39,30,12,9,17,13,0.7,0.7
2024-07-30T0000,1901A,104.4239,31.1208,德阳市,东山公园,,28,28,25,9,9,64,,108,92,15,13,2,2,0.6,0.6
2024-07-30T0000,1902A,104.3826,31.1317,德阳市,西小区,,25,25,26,12,12,53,,96,80,21,23,2,3,0.6,0.6
2024-07-30T0000,1904A,104.3553,31.1091,德阳市,耐火材料厂,,28,28,26,15,11,45,,94,75,25,18,4,4,0.6,0.6
2024-07-30T0000,3639A,104.4019,31.1244,德阳市,市教育局,,29,29,27,13,10,60,,102,86,18,16,2,3,0.6,0.6
2024-07-30T0000,1622A,116.3032,37.4674,德州市,儿童乐园,,14,,10,9,6,42,,88,74,20,7,7,7,0.7,0.6
2024-07-30T0000,1624A,116.2991,37.4451,德州市,监理站,,16,,7,7,7,50,,87,76,14,9,10,10,0.7,0.6
2024-07-30T0000,3066A,116.2721,37.4379,德州市,九衢泉纯净水厂,,13,12,11,7,8,41,,86,72,15,9,4,6,1.0,0.7
2024-07-30T0000,3371A,116.3728,37.4403,德州市,开发区人民医院,,15,7,12,7,6,46,,87,71,16,10,7,7,0.7,0.7
2024-07-30T0000,3372A,116.3572,37.4094,德州市,太阳城中学,,32,27,11,22,8,43,,84,67,16,8,7,7,0.8,0.6
2024-07-30T0000,3511A,116.5652,37.3319,德州市,陵城艺术中心,,17,17,13,9,7,50,,89,77,11,9,6,5,0.6,0.6
2024-07-30T0000,2621A,99.7056,27.8317,迪庆藏族自治州,迪庆州站,,17,17,16,9,8,42,,59,40,8,10,10,8,0.3,0.4
2024-07-30T0000,3180A,99.7136,27.8094,迪庆藏族自治州,质量技术监督局,,22,,13,15,8,37,,58,43,10,10,8,7,0.6,0.6
2024-07-30T0000,2663A,104.6241,35.5734,定西市,东关小学,,34,34,32,14,17,86,,110,101,12,11,8,8,0.3,0.2
2024-07-30T0000,2664A,104.6194,35.5934,定西市,供电公司,,40,40,30,24,23,63,,101,87,20,14,5,6,0.2,0.3
2024-07-30T0000,1389A,113.7547,23.0494,东莞市,莞城梨川,,15,15,16,7,8,17,,55,24,16,17,9,9,0.6,0.7
2024-07-30T0000,1390A,113.7944,23.0128,东莞市,东城石井,,18,18,15,7,6,10,,51,19,20,18,5,5,0.6,0.6
2024-07-30T0000,1391A,113.7383,22.9658,东莞市,南城西平,,21,21,15,9,7,7,,46,18,31,18,4,3,0.7,0.7
2024-07-30T0000,3319A,113.7338,23.0381,东莞市,万江金泰,,16,16,15,8,7,13,,53,21,14,13,4,4,0.7,0.7
2024-07-30T0000,3626A,113.7533,23.0202,东莞市,南城元岭,,16,16,17,8,8,8,,46,17,18,14,6,5,0.6,0.6
2024-07-30T0000,3627A,113.7875,23.0457,东莞市,东城主山,,22,22,17,10,9,11,,49,,12,12,6,6,0.7,0.7
2024-07-30T0000,1666A,118.6614,37.4309,东营市,市环保局,,23,19,15,9,9,71,,112,99,5,7,3,4,0.2,0.3
2024-07-30T0000,3036A,118.6904,37.4338,东营市,开发区管委会,,32,32,22,12,9,90,,129,116,8,9,6,5,0.2,0.2
2024-07-30T0000,3365A,118.5719,37.565,东营市,垦利区民丰路,,29,19,16,12,10,92,,129,117,3,9,5,6,0.4,0.5
2024-07-30T0000,3498A,118.5055,37.8612,东营市,河口城区,,33,14,13,12,9,103,,26,,8,7,4,3,0.4,0.5
2024-07-30T0000,3646A,118.4978,37.4623,东营市,胜利站,,32,31,22,3,8,101,,133,129,4,12,2,3,0.7,0.7
2024-07-30T0000,3734A,118.35,37.26,东营市,理想之城,,32,,17,22,14,54,,109,93,6,8,6,9,0.7,0.7
2024-07-30T0000,1591A,110.0023,39.8129,鄂尔多斯市,综合楼,,39,39,55,9,11,79,,108,84,46,45,12,19,0.6,0.6
2024-07-30T0000,1592A,109.9486,39.8261,鄂尔多斯市,巴音孟克林场办事处,,41,41,41,12,11,78,,95,77,37,31,9,12,0.9,0.8
2024-07-30T0000,1593A,109.7736,39.5986,鄂尔多斯市,康泽苑,,31,29,33,9,10,97,,110,94,15,22,7,7,0.5,0.4
2024-07-30T0000,1594A,109.8119,39.5989,鄂尔多斯市,华泰汽车城,,27,27,37,12,14,67,,96,73,17,32,9,10,0.4,0.4
2024-07-30T0000,1595A,109.9734,39.7884,鄂尔多斯市,奥林花园,,48,48,41,14,14,41,,100,70,76,35,8,11,0.6,0.6
2024-07-30T0000,2436A,114.8938,30.3994,鄂州市,市政府,,20,20,16,3,2,54,,87,74,11,8,11,9,0.6,0.6
2024-07-30T0000,2437A,114.8989,30.3714,鄂州市,赵家坝,,25,25,15,6,2,50,,80,69,10,9,10,9,0.6,0.6
2024-07-30T0000,3654A,114.8094,30.4089,鄂州市,精准医疗中心,,21,21,17,9,3,43,,78,68,20,12,22,15,1.4,1.1
2024-07-30T0000,2454A,109.4978,30.2981,恩施土家族苗族自治州,湖北民院,,12,12,12,3,8,24,,73,48,4,6,7,7,0.4,0.4
2024-07-30T0000,2455A,109.4707,30.2798,恩施土家族苗族自治州,州电力总公司,,12,9,13,6,8,37,,68,50,13,12,5,5,0.6,0.6
2024-07-30T0000,3549A,109.5061,30.3772,恩施土家族苗族自治州,龙凤新区,,11,11,11,3,6,24,,66,42,13,12,7,6,0.5,0.5
2024-07-30T0000,2499A,108.3411,21.6158,防城港市,沙万,,40,40,16,11,8,34,,53,38,28,15,8,8,0.5,0.7
2024-07-30T0000,2500A,108.3514,21.7731,防城港市,防城档案局,,17,17,13,8,8,27,,56,37,19,12,8,6,0.8,0.8
2024-07-30T0000,2501A,108.3506,21.6414,防城港市,大海花园,,18,18,15,7,5,49,,54,46,13,12,5,6,0.6,0.8
2024-07-30T0000,1371A,113.1294,23.0067,佛山市,湾梁,,16,,5,11,11,9,,38,18,31,22,6,6,0.9,0.9
2024-07-30T0000,1372A,113.1083,23.0478,佛山市,华材职中,,15,14,9,8,7,10,,40,20,30,22,6,6,0.4,0.4
2024-07-30T0000,1373A,113.144,23.0453,佛山市,南海气象局,,20,20,16,8,8,7,,40,16,28,20,6,6,0.5,0.5
2024-07-30T0000,1374A,113.2881,22.8094,佛山市,顺德苏岗,,24,24,7,3,3,0,,31,12,33,19,6,6,0.6,0.6
2024-07-30T0000,1376A,112.8383,22.8678,佛山市,高明孔堂,,18,12,11,3,4,6,,43,31,36,11,7,6,0.6,0.6
2024-07-30T0000,1377A,112.8836,23.1588,佛山市,三水监测站,,21,17,10,9,7,2,,42,16,42,26,5,5,0.7,0.6
2024-07-30T0000,1378A,112.867,23.185,佛山市,三水云东海,,40,40,15,9,8,0,,35,8,24,24,4,4,0.7,0.6
2024-07-30T0000,3625A,113.2544,22.7642,佛山市,容桂街道办,,17,12,7,7,5,4,,31,14,34,21,5,5,0.7,0.6
2024-07-30T0000,1280A,119.3903,26.0543,福州市,鼓山,,,,,,,,,,,,,,,,
2024-07-30T0000,1282A,119.2681,26.0504,福州市,师大,,9,9,18,3,3,12,,43,24,9,7,4,4,0.3,0.3
2024-07-30T0000,1283A,119.2984,26.1028,福州市,五四北路,,9,9,12,3,5,17,,49,31,11,7,3,3,0.5,0.5
2024-07-30T0000,1284A,119.2648,26.0768,福州市,杨桥西路,,16,16,19,3,3,8,,48,27,16,8,3,3,0.5,0.5
2024-07-30T0000,1285A,119.317,26.0746,福州市,紫阳,,12,12,17,3,5,12,,35,22,10,10,3,3,0.2,0.3
2024-07-30T0000,3048A,119.5799,26.0936,福州市,九龙,,16,16,18,3,2,15,,42,28,6,3,5,5,0.4,0.5
2024-07-30T0000,3526A,119.5189,25.9664,福州市,吴航,,8,8,14,3,7,23,,39,30,2,5,4,4,0.2,0.3
2024-07-30T0000,1755A,123.7977,41.8491,抚顺市,望花区,细颗粒物(PM2.5),59,,30,42,18,72,,109,85,12,15,3,3,0.5,0.6
2024-07-30T0000,1756A,123.9161,41.8822,抚顺市,顺城区,细颗粒物(PM2.5),54,,28,38,20,68,,116,86,12,18,2,2,0.7,0.8
2024-07-30T0000,1757A,124.0436,41.8611,抚顺市,东洲区,细颗粒物(PM2.5),54,40,30,38,21,51,,94,68,13,13,1,3,1.4,1
2024-07-30T0000,1758A,123.9247,41.8642,抚顺市,新抚区,,45,40,27,31,16,64,,109,85,9,12,3,3,0.8,0.8
2024-07-30T0000,1759A,124.0972,41.8961,抚顺市,大伙房水库,细颗粒物(PM2.5),53,40,29,37,22,31,,99,72,21,12,6,3,1.6,1.1
2024-07-30T0000,1760A,123.7086,41.8391,抚顺市,沈抚新城,细颗粒物(PM2.5),52,40,27,36,20,51,,92,72,15,14,2,2,0.5,0.5
2024-07-30T0000,2376A,116.2127,28.0814,抚州市,桐源党溪,,29,23,20,20,8,0,,48,25,13,5,5,6,0.6,0.7
2024-07-30T0000,2377A,116.3544,27.9831,抚州市,市站,,29,29,19,8,6,29,,54,43,17,5,5,5,1.0,0.9
2024-07-30T0000,2378A,116.3565,27.963,抚州市,血防站,,24,24,20,10,6,15,,50,36,22,7,1,2,1.0,0.8
2024-07-30T0000,2379A,116.3564,28.0007,抚州市,采茶剧团,,24,24,15,11,5,4,,53,35,34,6,5,5,0.7,0.6
2024-07-30T0000,2380A,116.385,27.9647,抚州市,医学分院,,27,27,19,8,6,16,,54,33,21,9,7,4,1.0,0.9
2024-07-30T0000,2207A,121.6094,41.998,阜新市,工业园区,,37,37,20,20,10,34,,94,54,20,13,10,3,0.6,0.5
2024-07-30T0000,2208A,121.6697,42.0279,阜新市,长青街,,46,46,23,27,13,42,,94,62,20,12,13,7,0.9,0.6
2024-07-30T0000,2209A,121.6673,42.0705,阜新市,农业园区,,39,39,19,12,8,36,,87,58,24,11,13,4,0.7,0.6
2024-07-30T0000,2210A,121.6717,42.0224,阜新市,东苑,颗粒物(PM10),51,51,22,12,12,45,,96,68,26,14,27,10,1.1,0.7
2024-07-30T0000,2211A,121.6506,42.0498,阜新市,玉龙新城,,38,38,28,15,12,16,,88,37,25,12,7,3,0.8,0.8
2024-07-30T0000,2301A,115.8277,32.8929,阜阳市,市监测站,,14,14,17,3,6,44,,74,57,8,9,5,5,0.3,0.3
2024-07-30T0000,2303A,115.8554,32.8605,阜阳市,开发区,,32,32,10,9,6,48,,83,65,8,7,5,5,0.3,0.3
2024-07-30T0000,2875A,115.784,32.8892,阜阳市,阜阳职业技术学院,,15,13,6,8,3,47,,80,68,8,6,6,5,0.4,0.4
2024-07-30T0000,3468A,115.7901,32.8613,阜阳市,市规划展馆,,22,22,16,11,6,44,,80,64,11,8,6,5,0.4,0.4
2024-07-30T0000,3469A,115.836,32.9183,阜阳市,枣园社区,,14,9,15,9,8,43,,77,61,10,7,3,3,0.4,0.4
2024-07-30T0000,2669A,102.9099,34.9841,甘南藏族自治州,州政府,,36,35,23,25,14,34,,126,96,31,9,8,8,0.4,0.3
2024-07-30T0000,3380A,102.8914,34.9617,甘南藏族自治州,甘肃民族师范学院,,36,36,20,11,13,26,,133,96,40,12,3,3,0.3,0.3
2024-07-30T0000,2570A,101.9603,30.0475,甘孜藏族自治州,水桥子,,15,15,7,3,7,6,,49,25,25,15,4,5,0.4,0.3
2024-07-30T0000,3065A,101.9533,29.9972,甘孜藏族自治州,州环保局,,16,,6,11,6,12,,56,30,30,15,2,2,0.3,0.2
2024-07-30T0000,3414A,115.8347,28.932,赣江新区,桑海产业园,颗粒物(PM10),59,68,16,23,6,6,,67,34,34,18,10,10,0.6,0.5
2024-07-30T0000,2362A,114.9017,25.9149,赣州市,通天岩,,,,,,,,,,,,,,,,
2024-07-30T0000,2363A,114.9367,25.8664,赣州市,地委,,19,19,14,9,5,13,,42,25,15,10,14,12,0.6,0.6
2024-07-30T0000,2364A,114.9461,25.8481,赣州市,气象台,,15,12,15,10,7,18,,44,30,15,10,10,11,0.7,0.8
2024-07-30T0000,2365A,114.9322,25.8333,赣州市,市图书馆,,9,8,12,3,5,28,,47,31,5,8,4,3,0.8,0.8
2024-07-30T0000,2366A,114.8905,25.8471,赣州市,华坚鞋城,,19,19,17,7,8,19,,50,30,10,9,32,24,0.6,0.4
2024-07-30T0000,3109A,115.0093,25.8613,赣州市,赣县区卫计委,,35,35,19,3,6,25,,47,32,13,13,7,8,0.7,0.7
2024-07-30T0000,2683A,106.2319,36.1417,固原市,马园,,37,37,36,9,10,19,,111,62,54,21,6,6,0.6,0.6
2024-07-30T0000,2684A,106.2792,36.0022,固原市,监测站,,25,,20,14,16,78,,116,95,16,12,5,5,0.4,0.4
2024-07-30T0000,2685A,106.2375,36.0211,固原市,新区,,20,20,21,9,10,46,,104,69,32,12,6,6,0.5,0.5
2024-07-30T0000,3522A,106.2177,35.9959,固原市,原州区十五小,,23,23,23,16,14,72,,116,76,27,14,7,6,0.6,0.6
2024-07-30T0000,2543A,106.6308,30.5278,广安市,小平旧居,,,,,,,,,,,,,,,,
2024-07-30T0000,2544A,106.6303,30.4576,广安市,市委,,21,18,35,11,21,65,,117,99,11,10,3,5,0.4,0.4
2024-07-30T0000,2545A,106.6271,30.4663,广安市,友谊中学,,21,15,29,14,20,67,,124,113,14,11,4,6,0.4,0.4
2024-07-30T0000,2547A,106.6388,30.4551,广安市,广电花园,,19,16,31,11,18,60,,114,97,10,10,4,5,0.4,0.4
2024-07-30T0000,2902A,106.6351,30.4865,广安市,北辰小学,,22,12,33,10,19,70,,124,105,9,9,5,7,0.4,0.4
2024-07-30T0000,2523A,105.8945,32.4535,广元市,黑石坡,,24,14,14,3,7,76,,102,93,8,7,5,6,0.3,0.3
2024-07-30T0000,2524A,105.821,32.4444,广元市,老城,,16,11,21,9,10,51,,98,84,32,18,4,4,0.4,0.3
2024-07-30T0000,2526A,105.8628,32.4287,广元市,监测站,,23,14,16,7,9,73,,102,92,17,12,2,2,0.5,0.5
2024-07-30T0000,3617A,105.8047,32.4166,广元市,经开区,,20,20,31,10,16,58,,100,89,27,20,2,4,0.5,0.6
2024-07-30T0000,1345A,113.2347,23.1423,广州市,广雅中学,,23,23,15,15,9,8,,56,23,36,25,6,5,0.8,0.8
2024-07-30T0000,1346A,113.2612,23.105,广州市,市五中,,21,21,16,13,11,9,,56,24,35,21,5,4,0.7,0.7
2024-07-30T0000,1348A,113.3478,23.0916,广州市,广东商学院,,25,25,17,15,11,4,,51,15,38,26,6,5,0.6,0.5
2024-07-30T0000,1349A,113.4332,23.1047,广州市,市八十六中,,21,21,19,10,8,7,,52,18,32,26,4,4,0.6,0.5
2024-07-30T0000,1350A,113.3505,22.9483,广州市,番禺中学,,25,19,14,17,11,14,,45,24,30,20,3,3,0.6,0.6
2024-07-30T0000,1351A,113.2146,23.3916,广州市,花都师范,,15,15,18,8,9,16,,67,23,21,19,6,6,0.6,0.7
2024-07-30T0000,1352A,113.2597,23.1331,广州市,市监测站,,22,20,16,15,10,8,,53,21,33,24,6,5,0.6,0.6
2024-07-30T0000,1353A,113.5618,23.312,广州市,九龙镇镇龙,,15,15,16,7,8,12,,62,25,18,14,7,7,0.6,0.6
2024-07-30T0000,1354A,113.2765,23.1544,广州市,麓湖,,42,42,19,26,10,3,,57,18,35,26,5,5,0.7,0.6
2024-07-30T0000,1355A,113.443,23.3035,广州市,帽峰山森林公园,,8,7,9,3,6,19,,60,27,15,13,5,5,0.6,0.6
2024-07-30T0000,2846A,113.3221,23.1322,广州市,体育西,,22,22,22,12,11,8,,53,18,27,23,5,5,0.7,0.6
2024-07-30T0000,3298A,113.5717,23.5491,广州市,从化街口,,14,14,13,6,7,11,,53,31,15,9,6,6,0.5,0.5
2024-07-30T0000,3299A,113.3472,23.3692,广州市,白云竹料,,20,20,16,13,9,16,,64,27,21,18,4,4,0.6,0.5
2024-07-30T0000,3300A,113.2981,23.237,广州市,白云嘉禾,,19,19,16,8,8,19,,58,25,24,24,6,6,0.7,0.7
2024-07-30T0000,3301A,113.4256,23.1716,广州市,黄埔科学城,,11,11,16,3,8,18,,60,19,18,22,7,8,0.5,0.5
2024-07-30T0000,3302A,113.3942,23.0483,广州市,番禺大学城,,23,,15,16,9,0,,46,18,36,21,7,5,0.9,0.8
2024-07-30T0000,3303A,113.4922,22.8168,广州市,南沙黄阁,,19,19,15,12,8,16,,39,18,25,19,6,6,0.2,0.6
2024-07-30T0000,3304A,113.5342,22.7896,广州市,南沙街,,18,16,14,12,6,18,,35,16,17,15,6,5,0.7,0.6
2024-07-30T0000,3443A,113.2902,23.5544,广州市,花都梯面,,10,10,10,3,5,27,,69,40,10,8,4,4,0.5,0.5
2024-07-30T0000,3445A,113.7858,23.7478,广州市,从化良口,,10,10,8,3,4,20,,38,30,9,4,5,5,0.5,0.6
2024-07-30T0000,3446A,113.8051,23.2614,广州市,增城荔城,,14,14,13,3,6,16,,56,24,9,9,6,7,0.6,0.6
2024-07-30T0000,2505A,109.568,23.1478,贵港市,德智高中,,,,,,,,,,,,,,,,
2024-07-30T0000,2506A,109.6047,23.0666,贵港市,江南子站,,13,9,20,9,9,33,,65,49,7,10,7,9,0.5,0.6
2024-07-30T0000,2507A,109.6014,23.0948,贵港市,贵城子站,,20,20,23,11,10,28,,63,46,12,11,7,9,0.5,0.5
2024-07-30T0000,2508A,109.5669,23.1065,贵港市,荷城子站,,17,17,20,3,3,36,,66,50,6,7,8,10,0.3,0.3
2024-07-30T0000,3405A,109.5886,23.1172,贵港市,新世纪学校,,17,17,22,6,9,31,,64,47,7,10,8,10,0.5,0.5
2024-07-30T0000,1439A,106.6899,26.5998,贵阳市,马鞍山,,19,7,7,3,1,60,,55,52,2,7,3,4,0.4,0.5
2024-07-30T0000,1440A,106.6971,26.5694,贵阳市,市环保站,,,,8,,9,54,,62,48,9,16,3,3,,0.3
2024-07-30T0000,1441A,106.6243,26.6266,贵阳市,鉴湖路,,16,6,11,3,4,51,,60,52,3,9,9,6,0.3,0.4
2024-07-30T0000,1442A,106.7487,26.6343,贵阳市,燕子冲,,17,,4,9,7,54,,60,44,6,10,5,6,0.6,0.7
2024-07-30T0000,1443A,106.6555,26.4365,贵阳市,碧云窝,,16,6,12,3,1,49,,55,51,7,10,4,4,0.3,0.4
2024-07-30T0000,1444A,106.694,26.5161,贵阳市,中院村,,15,7,12,3,2,45,,56,45,15,17,3,3,0.4,0.4
2024-07-30T0000,1445A,106.7109,26.6027,贵阳市,红边门,,18,,12,12,14,54,,64,48,12,16,4,3,0.5,0.6
2024-07-30T0000,1446A,106.7164,26.5699,贵阳市,新华路,,15,,5,3,9,45,,112,105,9,12,4,2,0.4,0.5
2024-07-30T0000,1447A,106.674,26.5424,贵阳市,太慈桥,,9,6,1,3,2,28,,54,44,10,11,7,5,0.3,0.4
2024-07-30T0000,1552A,106.805,26.3003,贵阳市,桐木岭,,,,,,,,,,,,,,,,
2024-07-30T0000,1862A,110.4144,25.3167,桂林市,电子科大尧山校区,,14,14,18,3,8,21,,51,30,4,4,4,5,0.5,0.5
2024-07-30T0000,1863A,110.2819,25.2697,桂林市,监测站,,27,27,19,13,11,14,,49,30,18,9,12,8,0.8,0.7
2024-07-30T0000,1864A,110.3089,25.2708,桂林市,龙隐路小学,,19,19,19,12,12,16,,48,30,16,9,20,14,0.7,0.6
2024-07-30T0000,1865A,110.2869,25.2178,桂林市,八中,,26,26,16,6,4,19,,45,29,15,9,9,6,0.8,0.7
2024-07-30T0000,3403A,110.1764,25.2381,桂林市,创业大厦,,34,34,15,22,11,17,,40,29,13,7,28,18,0.4,0.4
2024-07-30T0000,3531A,110.296,25.1253,桂林市,旅游学院,,,7,5,3,3,,,39,,7,5,6,8,0.4,0.5
2024-07-30T0000,2674A,100.2561,34.4714,果洛藏族自治州,玛沁县大武镇,,34,34,25,9,10,107,,157,145,4,2,9,10,0.4,0.4
2024-07-30T0000,1129A,126.5422,45.755,哈尔滨市,岭北,,23,23,12,15,8,46,,78,55,16,11,8,8,0.3,0.6
2024-07-30T0000,1130A,126.561,45.8167,哈尔滨市,松北商大,,20,20,15,3,5,11,,61,31,40,17,6,7,0.6,0.5
2024-07-30T0000,1131A,126.979,45.5419,哈尔滨市,阿城会宁,,12,11,24,8,10,19,,86,38,14,13,7,8,0.6,0.6
2024-07-30T0000,1132A,126.599,45.7222,哈尔滨市,南岗学府路,,36,36,21,8,5,29,,80,44,25,12,6,6,0.5,0.5
2024-07-30T0000,1133A,126.689,45.7733,哈尔滨市,太平宏伟公园,,27,27,16,10,7,41,,78,48,25,20,7,7,0.5,0.5
2024-07-30T0000,1134A,126.635,45.7667,哈尔滨市,道外承德广场,,31,31,15,3,4,35,,72,41,23,20,7,7,0.8,0.6
2024-07-30T0000,1135A,126.685,45.7319,哈尔滨市,香坊红旗大街,,36,36,23,20,10,27,,82,38,35,19,8,7,0.8,0.7
2024-07-30T0000,1136A,126.6411,45.7258,哈尔滨市,动力和平路,,,33,23,,6,28,,77,40,33,19,6,6,0.6,0.6
2024-07-30T0000,1137A,126.593,45.7478,哈尔滨市,道里建国路,,26,26,21,9,8,24,,70,37,32,17,9,7,0.8,0.8
2024-07-30T0000,1138A,126.615,45.61,哈尔滨市,平房东轻厂,,31,31,20,3,6,14,,80,32,42,21,8,8,0.3,0.2
2024-07-30T0000,1139A,126.595,45.9855,哈尔滨市,呼兰师专,,23,23,14,9,4,29,,76,46,22,13,11,10,0.6,0.6
2024-07-30T0000,1140A,126.6206,45.6842,哈尔滨市,省农科院,,30,30,14,20,5,4,,86,31,50,20,6,7,0.4,0.4
2024-07-30T0000,2688A,93.5128,42.8172,哈密市,地区监测站,,50,50,44,10,14,117,,149,131,12,13,3,6,0.1,0.2
2024-07-30T0000,2689A,93.4961,42.8328,哈密市,哈密师范学校,,37,37,45,16,15,91,,150,123,18,18,4,5,0.4,0.4
2024-07-30T0000,2671A,100.9048,36.9639,海北藏族自治州,海晏县西海镇,,21,17,11,12,12,67,,128,103,11,9,12,12,0.4,0.4
2024-07-30T0000,3867A,102.0738,36.5056,海东市,平安区公安北苑,,33,18,24,3,9,104,,130,110,4,8,8,10,0.3,0.6
2024-07-30T0000,1409A,110.576,19.9507,海口市,东寨港,,,,,,,,,,,,,,,,
2024-07-30T0000,1410A,110.3232,20.0574,海口市,海南大学,,16,16,18,8,8,17,,42,31,20,12,6,5,0.5,0.4
2024-07-30T0000,1411A,110.283,20.0053,海口市,秀英海南医院,,16,12,18,8,7,6,,39,22,32,15,6,6,0.3,0.3
2024-07-30T0000,1412A,110.338,19.9969,海口市,海南师范大学,,16,13,18,11,7,6,,41,19,30,12,6,7,0.5,0.4
2024-07-30T0000,1413A,110.33,20.0356,海口市,龙华路环保局宿舍,,13,12,18,9,7,12,,41,23,23,12,7,7,0.4,0.3
2024-07-30T0000,3539A,110.5111,19.9736,海口市,桂林洋子站,,19,19,16,7,6,12,,42,16,18,10,6,6,0.3,0.3
2024-07-30T0000,2673A,100.6188,36.2866,海南藏族自治州,共和县恰卜恰镇,,,36,49,6,8,,,152,,35,13,9,10,0.4,0.5
2024-07-30T0000,2676A,97.3731,37.3753,海西蒙古族藏族自治州,德令哈市,,46,21,19,16,12,147,,162,154,8,9,9,8,0.5,0.5
2024-07-30T0000,1048A,114.5302,36.6116,邯郸市,东污水处理厂,,17,6,11,3,2,54,,79,69,11,5,1,1,0.2,0.3
2024-07-30T0000,1049A,114.4918,36.5713,邯郸市,矿院,,15,7,10,3,5,46,,78,63,2,3,3,3,0.2,0.2
2024-07-30T0000,1050A,114.484,36.6133,邯郸市,丛台公园,,14,6,9,3,5,44,,76,61,4,3,3,3,0.3,0.4
2024-07-30T0000,3458A,114.7895,36.5593,邯郸市,香泉濮院小区,,22,22,12,7,6,60,,73,67,2,2,1,1,0.2,0.2
2024-07-30T0000,3579A,114.50634,36.77178,邯郸市,永年区实验高中,,20,,17,8,10,62,,85,75,2,3,1,2,0.4,0.5
2024-07-30T0000,3580A,114.20016,36.44293,邯郸市,峰峰矿区临水派出所,,15,14,14,3,3,47,,87,71,3,2,1,2,0.2,0.4
2024-07-30T0000,2634A,106.9893,33.1842,汉中市,汉川机床厂子校,,,32,29,16,14,,,84,60,13,4,4,4,0.6,0.6
2024-07-30T0000,2635A,107.0154,33.0706,汉中市,市监测站,,34,34,34,19,20,40,,79,63,10,11,6,6,0.8,0.9
2024-07-30T0000,2636A,107.0089,33.1138,汉中市,鑫源开发区,,36,36,32,17,15,29,,88,60,20,14,9,14,0.6,0.8
2024-07-30T0000,2637A,107.007,33.0323,汉中市,南郑大河坎水厂,,34,34,31,19,21,31,,88,63,8,8,7,7,0.5,0.6
2024-07-30T0000,1223A,120.2072,30.2111,杭州市,滨江,,19,19,16,8,7,43,,115,81,11,7,4,4,0.6,0.6
2024-07-30T0000,1224A,120.0633,30.2747,杭州市,西溪,,20,20,12,11,6,44,,112,86,7,5,6,6,0.6,0.6
2024-07-30T0000,1226A,120.3461,30.3153,杭州市,下沙,,23,23,19,7,6,45,,100,65,23,13,6,6,0.5,0.5
2024-07-30T0000,1227A,120.1269,30.2456,杭州市,卧龙桥,,18,18,16,8,9,45,,120,82,12,11,6,5,0.5,0.6
2024-07-30T0000,1228A,120.1903,30.2692,杭州市,浙江农大,,14,14,12,9,7,44,,114,82,14,11,6,6,0.5,0.5
2024-07-30T0000,1230A,120.1197,30.3119,杭州市,和睦小学,,16,16,12,8,6,47,,123,91,10,9,5,5,0.6,0.6
2024-07-30T0000,1231A,120.3019,30.4183,杭州市,临平镇,,25,25,21,12,4,41,,114,79,20,12,5,5,0.4,0.4
2024-07-30T0000,1232A,120.2697,30.1819,杭州市,城厢镇,,18,16,15,8,8,55,,114,76,9,10,5,5,0.4,0.4
2024-07-30T0000,1233A,120.0883,30.1808,杭州市,云栖,,20,20,20,7,7,37,,120,73,12,12,7,7,0.5,0.5
2024-07-30T0000,3557A,119.9464,30.0494,杭州市,镇二中,,22,22,20,13,10,28,,111,83,36,13,7,7,0.6,0.5
2024-07-30T0000,3558A,119.7183,30.2367,杭州市,市府大楼,,20,16,13,14,8,58,,114,106,20,12,5,5,0.5,0.5
2024-07-30T0000,3656A,120.1556,30.2864,杭州市,消防大队,,18,18,16,8,7,43,,121,88,12,8,7,7,0.5,0.5
2024-07-30T0000,1270A,117.1959,31.7848,合肥市,明珠广场,,22,22,18,12,10,31,,78,59,22,10,9,9,0.3,0.3
2024-07-30T0000,1271A,117.3072,31.8764,合肥市,三里街,,17,17,14,3,5,35,,68,56,24,18,5,6,0.4,0.4
2024-07-30T0000,1272A,117.2588,31.8707,合肥市,琥珀山庄,,17,17,17,3,4,45,,81,67,13,6,4,4,0.4,0.4
2024-07-30T0000,1273A,117.1604,31.9052,合肥市,董铺水库,,17,17,12,7,7,34,,62,52,13,5,2,2,0.2,0.2
2024-07-30T0000,1274A,117.25,31.8571,合肥市,长江中路,,17,17,23,10,9,38,,75,59,14,8,6,6,0.4,0.4
2024-07-30T0000,1275A,117.266,31.9436,合肥市,庐阳区,,17,17,12,9,9,46,,81,68,12,7,9,9,0.5,0.5
2024-07-30T0000,1276A,117.336,31.8586,合肥市,瑶海区,,29,29,18,9,6,22,,67,46,36,15,7,7,0.3,0.3
2024-07-30T0000,1277A,117.3027,31.7964,合肥市,包河区,,19,19,15,9,8,44,,71,57,10,6,7,7,0.4,0.4
2024-07-30T0000,1278A,117.2776,31.7385,合肥市,滨湖新区,,15,9,9,3,5,47,,70,58,6,5,8,8,0.2,0.2
2024-07-30T0000,1279A,117.1318,31.8403,合肥市,高新区,,17,17,12,6,6,38,,64,53,14,6,3,6,0.4,0.4
2024-07-30T0000,3464A,117.3803,31.9147,合肥市,高教基地,,13,9,12,7,7,39,,74,56,12,7,7,7,0.2,0.2
2024-07-30T0000,3614A,79.924,37.0877,和田地区,地区环保局,颗粒物(PM10),126,202,195,61,72,72,,137,121,21,9,6,8,0.6,0.4
2024-07-30T0000,3615A,79.9131,37.113,和田地区,市环保局,颗粒物(PM10),129,208,192,35,54,35,,131,108,135,54,8,8,1.1,0.5
2024-07-30T0000,2516A,108.2011,24.715,河池市,东仁乐园,,21,21,17,3,6,28,,53,41,10,8,4,4,0.5,0.6
2024-07-30T0000,2517A,108.0497,24.6947,河池市,市环保站,,19,13,13,13,9,36,,52,49,9,10,8,7,0.6,0.6
2024-07-30T0000,2518A,108.0983,24.6989,河池市,市疾控中心,,14,14,15,6,8,23,,51,43,20,15,6,7,0.5,0.5
2024-07-30T0000,1696A,114.6778,23.7569,河源市,源西,,17,17,12,11,7,4,,32,15,24,16,4,4,0.7,0.6
2024-07-30T0000,1697A,114.6944,23.7586,河源市,东埔,,15,12,10,10,5,0,,34,20,29,15,7,7,0.8,0.7
2024-07-30T0000,1698A,114.6892,23.7233,河源市,老城,,20,20,13,7,3,2,,34,16,21,11,4,4,0.6,0.5
2024-07-30T0000,1718A,115.4208,35.2464,菏泽市,气象局,,24,24,20,8,8,62,,82,72,6,6,4,4,0.2,0.3
2024-07-30T0000,1719A,115.4747,35.2375,菏泽市,市政协,,22,22,17,9,12,67,,79,73,5,6,3,4,0.1,0.2
2024-07-30T0000,3374A,115.5564,35.0891,菏泽市,定陶老年大学,,19,19,15,3,1,56,,73,64,16,12,2,3,0.2,0.2
2024-07-30T0000,3647A,115.4702,35.2706,菏泽市,菏泽医专,,25,18,17,3,7,78,,82,80,5,6,5,4,0.3,0.3
2024-07-30T0000,2514A,111.5264,24.4172,贺州市,环保小区,,19,19,14,11,7,28,,45,40,16,10,7,8,0.5,0.5
2024-07-30T0000,2515A,111.5608,24.4078,贺州市,政协大楼,,19,15,17,13,9,24,,42,37,13,8,12,10,0.4,0.4
2024-07-30T0000,3534A,111.4744,24.4553,贺州市,西湾,,14,14,10,3,5,16,,37,31,22,12,4,4,0.6,0.6
2024-07-30T0000,2385A,114.17,35.9019,鹤壁市,市监测站,,19,19,13,3,7,44,,84,71,13,5,3,3,0.6,0.7
2024-07-30T0000,2386A,114.2956,35.7511,鹤壁市,市交警支队,,16,,11,11,10,25,,74,55,24,9,3,3,0.6,0.5
2024-07-30T0000,2387A,114.2878,35.7306,鹤壁市,迎宾馆,,20,,7,14,6,37,,80,62,22,9,2,4,0.8,0.7
2024-07-30T0000,3474A,114.2617,35.6822,鹤壁市,大新区,,,13,7,,,26,,69,44,19,8,3,3,0.4,0.4
2024-07-30T0000,3596A,114.1572,35.9603,鹤壁市,南山宾馆,,16,,6,11,12,39,,78,64,10,5,3,2,0.4,0.4
2024-07-30T0000,2244A,130.2537,47.3416,鹤岗市,哈啤分公司,,19,17,16,13,10,20,,56,40,6,6,14,14,0.4,0.4
2024-07-30T0000,2245A,130.2684,47.3086,鹤岗市,斯达机电,,14,14,15,7,8,23,,61,39,12,8,12,12,0.3,0.2
2024-07-30T0000,2246A,130.3114,47.3388,鹤岗市,东山纸板厂,,18,15,12,12,13,9,,51,29,9,7,14,15,0.4,0.3
2024-07-30T0000,2247A,130.1097,47.3382,鹤岗市,五号水库,,11,7,6,3,4,34,,60,44,6,5,10,10,0.4,0.4
2024-07-30T0000,2263A,127.4833,50.2524,黑河市,交通局,,26,26,26,8,8,14,,69,36,9,9,7,7,0.3,0.4
2024-07-30T0000,2264A,127.5144,50.2341,黑河市,环保局,,41,41,18,10,11,10,,63,31,14,9,5,4,0.4,0.4
2024-07-30T0000,2265A,127.5291,50.2472,黑河市,大黑河岛,,,26,10,19,13,,,,,11,11,1,1,,
2024-07-30T0000,1074A,115.6838,37.7541,衡水市,电机北厂,,14,10,25,6,10,44,,65,50,8,5,6,5,0.4,0.3
2024-07-30T0000,1075A,115.6303,37.7316,衡水市,市监测站,,29,23,15,20,9,50,,73,61,12,6,3,2,0.5,0.4
2024-07-30T0000,3188A,115.6683,37.7217,衡水市,市城管局,,19,18,11,13,9,48,,71,57,13,6,3,2,0.2,0.3
2024-07-30T0000,3459A,115.5989,37.5491,衡水市,地表水厂,,22,22,17,3,4,17,,73,52,24,6,5,3,0.3,0.3
2024-07-30T0000,2456A,112.5003,26.9167,衡阳市,原169医院,,24,24,17,9,8,13,,68,44,29,10,11,11,0.6,0.5
2024-07-30T0000,2457A,112.6194,26.9258,衡阳市,衡阳化工总厂,,,14,18,,,17,,55,35,14,8,6,7,0.5,0.5
2024-07-30T0000,2458A,112.6211,26.8956,衡阳市,珠晖区环保局,,,7,15,,,24,,61,40,6,7,5,6,0.6,0.7
2024-07-30T0000,2459A,112.6197,26.8733,衡阳市,市委党校,,9,8,12,3,12,27,,66,48,7,6,6,4,0.6,0.6
2024-07-30T0000,2460A,112.6006,26.8919,衡阳市,市监测站,,12,12,19,3,9,19,,58,39,14,9,6,8,0.5,0.7
2024-07-30T0000,2461A,112.5664,26.9056,衡阳市,真空机电公司,,16,16,15,8,7,11,,60,42,23,8,8,9,0.6,0.7
2024-07-30T0000,3399A,112.6703,26.882,衡阳市,师范学院,,12,12,14,6,5,22,,61,42,9,7,9,8,0.5,0.5
2024-07-30T0000,2608A,103.3772,23.3993,红河哈尼族彝族自治州,污水处理厂,,15,15,12,9,10,43,,56,55,8,6,5,7,0.5,0.4
2024-07-30T0000,2609A,103.3861,23.35,红河哈尼族彝族自治州,监测站,,15,12,11,10,11,42,,56,56,9,6,7,14,0.4,0.4
2024-07-30T0000,3038A,103.3758,23.368,红河哈尼族彝族自治州,州图书馆,,15,10,11,3,8,47,,56,56,9,5,5,21,0.5,0.5
2024-07-30T0000,1090A,111.6507,40.7517,呼和浩特市,呼市一监,细颗粒物(PM2.5),77,56,40,56,22,47,,73,61,34,23,9,7,0.6,0.7
2024-07-30T0000,1091A,111.6572,40.8033,呼和浩特市,小召,颗粒物(PM10),65,80,37,38,13,36,,79,58,56,33,8,8,0.9,0.7
2024-07-30T0000,1094A,111.7516,40.8369,呼和浩特市,如意水处理厂,颗粒物(PM10),55,60,39,23,12,36,,92,65,62,48,7,7,0.7,0.6
2024-07-30T0000,1095A,111.7276,40.8062,呼和浩特市,二十九中,颗粒物(PM10),53,56,40,32,16,47,,92,70,45,33,5,5,0.9,0.9
2024-07-30T0000,1096A,111.5512,40.7866,呼和浩特市,工大金川校区,颗粒物(PM10),69,87,42,29,13,53,,75,49,34,41,9,7,0.7,0.6
2024-07-30T0000,1097A,111.717,40.7612,呼和浩特市,化肥厂生活区,颗粒物(PM10),70,90,55,40,16,54,,91,77,38,24,7,7,0.9,1
2024-07-30T0000,3698A,111.5968,40.8178,呼和浩特市,红旗小学,颗粒物(PM10),67,83,44,35,14,40,,83,54,49,42,8,6,0.7,0.5
2024-07-30T0000,3699A,111.6518,40.8389,呼和浩特市,海东办,颗粒物(PM10),70,90,47,32,13,39,,90,64,54,43,9,6,0.8,0.8
2024-07-30T0000,2192A,119.7594,49.2261,呼伦贝尔市,区环保局,,38,27,23,26,18,63,,88,78,17,14,5,5,0.5,0.5
2024-07-30T0000,3061A,119.7512,49.1577,呼伦贝尔市,国华电力东,,21,21,16,8,12,56,,93,80,8,5,3,3,0.2,0.2
2024-07-30T0000,1250A,120.0751,30.8669,湖州市,城西水厂,,43,43,23,19,10,40,,136,101,28,13,4,4,0.6,0.4
2024-07-30T0000,2873A,120.0875,30.8955,湖州市,仁皇山新区,,36,36,20,18,10,43,,141,106,27,13,6,6,0.5,0.4
2024-07-30T0000,2907A,120.1844,30.8596,湖州市,吴兴区站,,33,33,20,16,10,35,,132,91,22,11,7,7,0.3,0.3
2024-07-30T0000,3562A,120.4148,30.8538,湖州市,南浔区站,,28,28,19,14,10,40,,114,81,14,9,4,4,0.4,0.3
2024-07-30T0000,1607A,120.9092,40.7136,葫芦岛市,龙港区,颗粒物(PM10),66,81,50,27,27,77,,123,104,12,11,3,4,0.9,0.8
2024-07-30T0000,1608A,120.8392,40.7514,葫芦岛市,化工街,细颗粒物(PM2.5),58,61,37,41,25,41,,89,68,35,20,3,2,1.3,1.1
2024-07-30T0000,1609A,120.8341,40.7073,葫芦岛市,新区,颗粒物(PM10),54,58,51,34,31,60,,109,85,12,17,3,3,0.8,0.9
2024-07-30T0000,1610A,120.8695,40.7677,葫芦岛市,东城区,颗粒物(PM10),53,56,41,36,30,61,,146,113,41,21,21,9,1.1,0.9
2024-07-30T0000,2482A,109.5981,27.5721,怀化市,林科所,,9,7,8,3,5,27,,78,50,9,4,3,4,0.7,0.6
2024-07-30T0000,2483A,109.9453,27.5444,怀化市,河西地税局,,12,12,9,3,6,16,,64,38,14,6,7,8,0.5,0.5
2024-07-30T0000,2484A,109.9781,27.5342,怀化市,市四医院,,15,15,11,8,9,18,,65,37,19,8,3,3,0.8,0.8
2024-07-30T0000,2485A,109.9972,27.5578,怀化市,监测楼,,21,21,12,14,8,16,,65,39,13,8,18,5,0.8,0.8
2024-07-30T0000,2486A,110.0394,27.583,怀化市,市委党校,,18,,8,12,6,12,,64,34,12,6,7,7,0.5,0.5
2024-07-30T0000,1210A,119.036,33.5981,淮安市,钵池山,,44,31,22,16,14,139,,150,150,17,13,7,7,0.9,0.8
2024-07-30T0000,1211A,119.007,33.575,淮安市,北京南路,,39,34,26,25,17,122,,138,138,15,12,10,8,0.6,0.6
2024-07-30T0000,1212A,118.989,33.6067,淮安市,市监测站,,40,39,26,27,17,127,,139,139,20,18,12,8,0.9,0.8
2024-07-30T0000,1213A,119.135,33.5039,淮安市,楚州区监测站,,42,42,34,17,15,93,,136,130,28,18,6,7,0.6,0.6
2024-07-30T0000,1214A,119.0186,33.6297,淮安市,淮阴区监测站,,45,39,30,18,15,142,,148,148,16,15,8,8,0.7,0.6
2024-07-30T0000,3426A,118.8755,33.2894,淮安市,新华书店,,36,33,22,22,16,114,,130,130,23,14,6,6,0.6,0.6
2024-07-30T0000,2282A,116.8004,33.975,淮北市,监测站,,28,28,16,11,7,60,,95,85,10,7,4,5,0.5,0.4
2024-07-30T0000,2283A,116.8091,33.9007,淮北市,烈山区政府,,26,26,18,12,9,59,,98,85,11,8,6,7,0.4,0.3
2024-07-30T0000,3330A,116.8873,33.9836,淮北市,杜集区检察院,,22,22,22,13,8,62,,105,94,13,6,6,6,0.6,0.5
2024-07-30T0000,4017A,116.7923,33.9535,淮北市,市博物馆,,28,28,17,12,9,62,,102,89,14,6,4,4,0.5,0.5
2024-07-30T0000,2277A,116.8305,32.7727,淮南市,潘集区政府,,15,14,14,8,9,45,,77,66,12,8,5,5,0.4,0.4
2024-07-30T0000,2278A,117.0067,32.6524,淮南市,师范学院,,23,18,18,16,8,55,,86,74,5,3,8,8,0.5,0.3
2024-07-30T0000,2279A,116.8569,32.5951,淮南市,谢家集区政府,,14,14,12,7,5,39,,79,60,14,9,5,5,0.1,0.1
2024-07-30T0000,2280A,116.8281,32.633,淮南市,八公山区政府,,21,21,20,9,7,42,,76,65,12,7,8,8,0.1,0.1
2024-07-30T0000,2281A,116.6325,32.6201,淮南市,焦岗湖风景区管理处,,19,19,5,3,4,19,,33,30,17,11,5,5,0.1,0.1
2024-07-30T0000,2894A,117.0566,32.6531,淮南市,经济技术开发区消防队,,15,15,11,7,5,48,,87,73,12,6,4,4,0.3,0.3
2024-07-30T0000,3329A,117.0108,32.5893,淮南市,山南新区,,17,17,15,6,6,44,,84,69,12,5,5,5,0.3,0.3
2024-07-30T0000,2446A,114.9028,30.4742,黄冈市,职工中心,,26,26,18,14,9,53,,91,72,14,10,14,9,0.3,0.3
2024-07-30T0000,2929A,114.8858,30.4519,黄冈市,红卫路,,23,23,17,14,7,50,,94,74,18,10,12,9,0.3,0.3
2024-07-30T0000,3398A,114.9136,30.4445,黄冈市,市林业局,,25,25,16,12,9,47,,97,74,19,8,13,9,0.4,0.3
2024-07-30T0000,2672A,102.0199,35.5102,黄南藏族自治州,同仁县隆务镇,,32,19,27,8,9,100,,133,119,1,3,15,14,0.2,0.3
2024-07-30T0000,2295A,118.2903,29.6963,黄山市,延安路89号,,26,26,23,3,5,23,,74,46,11,5,4,4,0.5,0.4
2024-07-30T0000,2296A,118.327,29.7178,黄山市,黄山东路89号,,17,17,16,3,5,30,,68,51,8,4,5,6,0.4,0.4
2024-07-30T0000,2297A,118.1371,30.2756,黄山市,黄山区政府5号楼,,15,,13,10,10,20,,65,40,7,6,6,6,0.3,0.3
2024-07-30T0000,2423A,115.0601,30.2313,黄石市,沈家营,二氧化硫,53,36,19,11,2,35,,70,58,30,14,169,24,0.6,0.4
2024-07-30T0000,2424A,115.0817,30.2006,黄石市,陈家湾,,34,34,18,3,3,44,,73,69,18,5,11,8,0.6,0.4
2024-07-30T0000,2426A,114.8988,30.2019,黄石市,铁山,,23,23,15,7,1,44,,66,60,19,6,11,11,0.3,0.4
2024-07-30T0000,2427A,115.0307,30.2092,黄石市,团城山,,33,33,13,10,3,39,,68,65,23,7,19,10,0.6,0.4
2024-07-30T0000,3149A,115.0235,30.1578,黄石市,笔架山北路,,30,30,16,3,2,46,,62,60,16,8,10,6,0.4,0.2
2024-07-30T0000,1392A,114.4183,23.0528,惠州市,河南岸金山湖子站,,12,12,11,6,6,15,,41,26,9,5,4,5,0.4,0.4
2024-07-30T0000,1393A,114.4053,23.0822,惠州市,下埔横江三路子站,,16,16,13,7,6,18,,48,28,12,8,7,6,0.5,0.5
2024-07-30T0000,1394A,114.4103,23.1142,惠州市,江北云山西路子站,,31,31,13,6,4,13,,43,24,11,5,4,3,0.5,0.5
2024-07-30T0000,1395A,114.4645,22.7833,惠州市,惠阳区承修路船湖子站,,10,10,9,3,4,27,,45,30,11,13,3,2,0.4,0.4
2024-07-30T0000,1396A,114.5317,22.7422,惠州市,大亚湾管委会子站,,11,10,10,3,4,18,,44,29,22,11,8,7,0.5,0.5
2024-07-30T0000,3314A,114.4338,22.8134,惠州市,惠阳秋长,,12,12,7,7,6,19,,53,28,10,7,4,5,0.6,0.6
2024-07-30T0000,3452A,114.6517,22.775,惠州市,大亚湾霞涌,,11,11,8,3,4,13,,35,26,14,5,4,4,0.6,0.6
2024-07-30T0000,2240A,130.9762,45.3001,鸡西市,环保局,,18,18,15,6,5,41,,55,47,11,7,8,8,0.2,0.2
2024-07-30T0000,2243A,130.9429,45.3039,鸡西市,第一中学,,14,14,15,6,5,39,,73,53,14,7,3,4,0.2,0.2
2024-07-30T0000,3707A,131.0207,45.3073,鸡西市,欧美日汽修厂,,23,23,18,10,7,35,,66,46,13,10,5,5,0.6,0.6
2024-07-30T0000,3709A,130.9967,45.3106,鸡西市,市政设施管理处,,,32,19,8,11,,,73,,23,14,8,7,0.3,0.4
2024-07-30T0000,2367A,114.9754,27.0803,吉安市,红声器材厂,,17,17,17,7,5,27,,47,38,13,7,13,13,0.5,0.5
2024-07-30T0000,2368A,114.9658,27.0999,吉安市,市森林工业局,,17,17,15,9,6,33,,47,40,10,7,13,12,0.3,0.3
2024-07-30T0000,2369A,114.99,27.1312,吉安市,市环境监测站,,14,14,12,3,6,32,,48,39,12,6,14,15,0.7,0.5
2024-07-30T0000,2370A,115.0093,27.0968,吉安市,青原区法院,,21,21,14,9,6,26,,47,35,16,9,15,14,0.4,0.4
2024-07-30T0000,1772A,126.54,43.8622,吉林市,哈达湾,,17,17,11,7,8,38,,84,62,12,8,5,5,0.5,0.5
2024-07-30T0000,1773A,126.5844,43.8358,吉林市,东局子,,40,40,13,10,7,14,,82,43,26,12,4,5,0.7,0.6
2024-07-30T0000,1774A,126.5052,43.8245,吉林市,电力学院,,13,13,11,3,6,17,,83,46,14,8,12,11,0.6,0.6
2024-07-30T0000,1775A,126.6133,43.8972,吉林市,江北,,28,28,14,12,6,18,,83,42,18,9,8,8,0.9,0.7
2024-07-30T0000,1776A,126.555,43.8306,吉林市,江南公园,,18,14,12,12,8,24,,82,53,16,11,3,2,0.7,0.9
2024-07-30T0000,1778A,126.7061,43.7133,吉林市,丰满,,,,,,,,,,,,,,,,
2024-07-30T0000,2868A,126.4739,43.953,吉林市,九站,,12,9,9,3,6,36,,88,52,16,7,3,3,0.5,0.5
2024-07-30T0000,1299A,116.9862,36.6114,济南市,科干所,,25,17,16,10,9,79,,93,91,10,10,7,7,0.5,0.6
2024-07-30T0000,1300A,116.9376,36.665,济南市,农科所,,24,20,15,12,8,75,,90,85,16,16,8,8,0.3,0.3
2024-07-30T0000,1301A,117.1265,36.6734,济南市,开发区,,28,15,13,10,5,88,,98,92,9,14,9,9,0.5,0.5
2024-07-30T0000,1303A,117.0624,36.6868,济南市,省种子仓库,,30,19,19,3,6,96,,99,98,7,14,7,7,0.5,0.6
2024-07-30T0000,1304A,116.9489,36.6447,济南市,机床二厂,,27,22,16,3,2,86,,112,105,12,12,9,9,0.3,0.4
2024-07-30T0000,1305A,117.0495,36.663,济南市,市监测站,,32,17,15,3,8,100,,103,100,8,15,8,8,0.4,0.5
2024-07-30T0000,1306A,116.7675,36.5484,济南市,长清党校,,27,20,15,7,10,84,,100,98,9,8,10,9,0.5,0.6
2024-07-30T0000,1616A,117.6795,36.229,济南市,技术学院,,27,27,14,14,9,78,,110,98,17,12,10,9,0.9,0.8
2024-07-30T0000,1961A,117.532,36.6868,济南市,东山小学,,27,22,23,10,9,84,,101,88,18,19,5,5,0.8,0.8
2024-07-30T0000,3059A,117.7161,36.2049,济南市,泰兴公司,,31,31,20,14,9,56,,100,83,28,18,9,10,0.6,0.6
2024-07-30T0000,3064A,117.6867,36.2171,济南市,莱芜战役纪念馆,,34,34,21,9,6,69,,89,83,14,12,9,9,0.6,0.6
2024-07-30T0000,3494A,117.1673,36.9782,济南市,济阳区政府,,37,37,18,12,8,58,,117,93,19,10,8,7,0.4,0.4
2024-07-30T0000,3495A,117.1171,36.63,济南市,锦屏中学,,27,17,13,7,7,86,,89,72,11,11,10,9,0.5,0.5
2024-07-30T0000,3682A,116.9814,36.6819,济南市,济南四建,,25,17,13,10,7,80,,101,97,12,14,8,8,0.6,0.6
2024-07-30T0000,1653A,116.6251,35.4302,济宁市,火炬城,,25,18,22,9,10,79,,105,87,9,13,9,8,0.7,0.8
2024-07-30T0000,1655A,116.5491,35.4042,济宁市,电化厂,,28,28,22,14,13,55,,84,74,10,9,6,5,0.6,0.7
2024-07-30T0000,3500A,116.5814,35.3707,济宁市,北湖一中,,24,17,22,12,7,75,,105,88,10,10,11,8,0.7,0.7
2024-07-30T0000,3501A,116.8249,35.5593,济宁市,服务中心,,23,23,21,10,8,60,,105,82,11,10,5,4,0.5,0.6
2024-07-30T0000,3678A,116.5907,35.4054,济宁市,市第七中学,,19,19,26,7,9,60,,92,75,12,14,3,3,0.5,0.6
2024-07-30T0000,2255A,130.2751,46.8028,佳木斯市,佳纺,,10,10,12,3,5,29,,62,47,7,9,10,10,0.5,0.5
2024-07-30T0000,2256A,130.3995,46.8307,佳木斯市,发电厂,,30,30,16,7,7,31,,69,54,5,8,10,7,0.6,0.6
2024-07-30T0000,2257A,130.3258,46.7975,佳木斯市,环保局,,19,19,15,3,7,25,,59,43,11,13,7,7,0.5,0.5
2024-07-30T0000,2258A,130.3648,46.8032,佳木斯市,十一中,,13,13,12,7,8,34,,70,57,7,11,8,8,0.4,0.4
2024-07-30T0000,2259A,130.3794,46.7588,佳木斯市,四丰,,,10,13,3,5,,,49,,14,15,1,1,0.6,0.6
2024-07-30T0000,1252A,120.7436,30.778,嘉兴市,清河小学,,19,19,16,8,6,45,,103,77,12,10,6,6,0.3,0.3
2024-07-30T0000,1253A,120.726,30.7478,嘉兴市,嘉兴学院,,20,20,18,10,8,41,,95,70,12,11,2,2,0.4,0.3
2024-07-30T0000,2872A,120.7846,30.7525,嘉兴市,南湖区残联,,33,33,21,10,8,47,,112,80,9,10,5,5,0.3,0.3
2024-07-30T0000,3407A,120.6916,30.7739,嘉兴市,秀洲住建,,18,18,14,10,8,52,,117,86,11,9,3,4,0.4,0.4
2024-07-30T0000,1945A,98.2908,39.7711,嘉峪关市,气象局,颗粒物(PM10),52,53,46,17,14,47,,149,113,81,24,7,22,0.5,0.4
2024-07-30T0000,2884A,98.2672,39.7978,嘉峪关市,酒钢宾馆,,31,31,54,14,19,60,,158,142,22,19,10,39,0.7,0.7
2024-07-30T0000,3248A,98.2643,39.7724,嘉峪关市,雄关区,,36,29,32,25,20,63,,150,128,47,17,9,12,0.4,0.4
2024-07-30T0000,1383A,113.1064,22.6058,江门市,北街,,20,19,16,9,7,4,,39,22,39,16,3,3,0.5,0.4
2024-07-30T0000,1384A,113.0731,22.5835,江门市,西区,,18,14,13,8,7,3,,44,24,36,14,5,5,0.5,0.4
2024-07-30T0000,1385A,113.0219,22.5311,江门市,圭峰西,,14,14,11,8,5,8,,41,26,26,11,4,3,0.5,0.4
2024-07-30T0000,1386A,113.0828,22.5947,江门市,东湖,,15,15,12,8,7,3,,40,20,30,13,6,6,0.5,0.4
2024-07-30T0000,3311A,113.1075,22.5647,江门市,江海富民,,32,32,22,14,6,4,,46,26,39,15,6,6,0.6,0.5
2024-07-30T0000,3449A,113.05,22.4667,江门市,新会银湖,,25,25,10,3,2,5,,39,19,19,12,4,4,0.6,0.5
2024-07-30T0000,1828A,113.227,35.2125,焦作市,市环保局,,19,19,15,9,8,45,,84,66,13,9,3,3,0.6,0.3
2024-07-30T0000,1830A,113.1992,35.2590,焦作市,影视城,,,,,,,,,,,,,,,,
2024-07-30T0000,3169A,113.2725,35.2067,焦作市,太极体育中心,,29,29,26,11,10,41,,78,60,7,3,3,3,0.4,0.4
2024-07-30T0000,3335A,113.3137,35.2641,焦作市,马村街道办,,17,17,13,3,6,44,,79,62,14,9,1,1,0.6,0.4
2024-07-30T0000,3336A,113.2465,35.2373,焦作市,焦作技师学院,,23,23,15,7,8,36,,68,53,9,6,3,3,0.5,0.4
2024-07-30T0000,3477A,113.1656,35.2539,焦作市,中站许衡医院,,,14,20,10,13,,,75,,7,2,5,4,0.5,0.4
2024-07-30T0000,3981A,113.2449,35.1803,焦作市,原李万街道办,,30,30,24,7,8,42,,85,66,13,8,6,5,0.2,0.1
2024-07-30T0000,1708A,116.3701,23.5345,揭阳市,新兴,,19,14,24,13,12,44,,59,53,13,15,4,6,0.6,0.6
2024-07-30T0000,1709A,116.3264,23.5443,揭阳市,西马,,17,15,23,9,10,52,,61,58,4,8,3,3,0.7,0.7
2024-07-30T0000,1710A,116.3611,23.5626,揭阳市,东兴,,36,36,30,9,10,48,,61,56,9,11,5,8,0.9,0.9
2024-07-30T0000,1711A,116.4151,23.5294,揭阳市,渔湖,,26,26,25,10,10,44,,59,53,15,13,4,5,0.7,0.8
2024-07-30T0000,3320A,116.403,23.5699,揭阳市,曲溪,,21,21,22,11,11,35,,58,50,18,12,4,8,0.7,0.7
2024-07-30T0000,1944A,102.1692,38.5167,金昌市,天庆家园,颗粒物(PM10),457,557,149,110,39,116,,124,123,5,9,12,13,0.5,0.5
2024-07-30T0000,3170A,102.1864,38.5253,金昌市,市委党校,颗粒物(PM10),388,490,168,133,40,120,,127,126,5,9,8,12,0.4,0.5
2024-07-30T0000,4022A,102.1647,38.5371,金昌市,金川区人防中心,颗粒物(PM10),500,630,170,99,37,117,,133,130,4,7,12,12,0.5,0.5
2024-07-30T0000,1262A,119.647,29.077,金华市,十五中,,16,12,15,3,5,50,,66,62,8,9,2,2,0.3,0.4
2024-07-30T0000,1263A,119.686,29.1029,金华市,监测站,,17,6,16,6,8,52,,68,60,10,10,2,2,0.3,0.3
2024-07-30T0000,3659A,119.656,29.1131,金华市,气象局,,18,14,13,3,2,55,,67,62,5,10,3,3,0.1,0.1
2024-07-30T0000,1767A,121.1115,41.0879,锦州市,南山,细颗粒物(PM2.5),63,45,40,45,36,52,,145,114,14,12,3,4,1.2,0.8
2024-07-30T0000,1768A,121.0533,40.8434,锦州市,开发区,细颗粒物(PM2.5),67,80,47,48,35,51,,136,92,40,17,3,5,1.1,1
2024-07-30T0000,1769A,121.1836,41.1119,锦州市,百股街道,,43,43,38,24,20,27,,113,80,38,13,2,3,1.1,0.9
2024-07-30T0000,1770A,121.1178,41.1222,锦州市,天安街道,颗粒物(PM10),62,73,42,41,24,56,,92,86,22,11,1,1,1.6,1
2024-07-30T0000,1771A,121.1303,41.1386,锦州市,北湖公园,细颗粒物(PM2.5),62,52,41,44,28,40,,96,79,20,10,1,1,1.1,0.9
2024-07-30T0000,2160A,112.85,35.5051,晋城市,自来水公司,,22,12,16,3,5,69,,89,78,9,10,4,4,0.4,0.5
2024-07-30T0000,2161A,112.8318,35.4936,晋城市,白云商贸,,20,20,23,3,4,63,,87,75,10,10,6,6,0.6,0.6
2024-07-30T0000,2162A,112.8508,35.4887,晋城市,市环保局,,21,9,15,3,6,65,,85,73,11,12,6,6,0.4,0.5
2024-07-30T0000,2163A,112.8676,35.4897,晋城市,技术学院,,17,9,20,7,8,54,,82,69,11,11,7,7,0.7,0.8
2024-07-30T0000,2165A,112.8453,35.546,晋城市,白马寺,,,,,,,,,,,,,,,,
2024-07-30T0000,3620A,112.8271,35.4828,晋城市,泽州一中,,20,9,13,3,4,62,,84,74,10,10,8,8,0.6,0.6
2024-07-30T0000,2171A,112.7532,37.6945,晋中市,锦纶小区,,29,7,31,3,15,91,,139,101,11,9,8,9,0.3,0.4
2024-07-30T0000,2173A,112.7249,37.7067,晋中市,南都小区,,27,23,41,11,26,86,,139,103,15,10,6,8,0.3,0.4
2024-07-30T0000,2174A,112.6991,37.6982,晋中市,榆次区政府,,27,,32,15,23,86,,135,104,15,11,5,8,0.3,0.4
2024-07-30T0000,2865A,112.7195,37.6828,晋中市,榆次三中,,29,14,33,3,14,92,,137,102,12,10,6,8,0.4,0.5
2024-07-30T0000,2439A,112.2014,31.0481,荆门市,竹园小学,,20,15,14,8,8,63,,91,82,10,9,10,10,0.4,0.5
2024-07-30T0000,2440A,112.1969,30.9891,荆门市,掇刀,,21,21,14,13,13,59,,94,82,19,10,8,6,0.5,0.5
2024-07-30T0000,2441A,112.2213,31.0386,荆门市,石化一小,,20,18,16,3,8,61,,94,81,14,9,19,17,0.6,0.5
2024-07-30T0000,3012A,112.1849,31.0362,荆门市,西山林语,,19,17,13,8,8,58,,90,82,8,5,6,6,0.4,0.5
2024-07-30T0000,3547A,112.1632,31.0138,荆门市,龙泉中学南校,,19,14,13,10,8,58,,91,81,10,7,7,8,0.4,0.4
2024-07-30T0000,1844A,112.2494,30.3197,荆州市,市图书馆,,20,15,12,13,8,61,,90,80,18,10,11,7,0.6,0.6
2024-07-30T0000,1845A,112.2008,30.3544,荆州市,市委党校,,30,,9,21,16,54,,86,73,13,6,5,5,0.7,0.7
2024-07-30T0000,3194A,112.2747,30.3122,荆州市,管委会,,25,,8,17,9,64,,92,79,15,8,9,6,0.5,0.5
2024-07-30T0000,3548A,112.1655,30.3364,荆州市,学苑路,,19,19,12,12,8,46,,85,69,20,8,9,7,0.4,0.4
2024-07-30T0000,2342A,117.3102,29.3867,景德镇市,王港中学,,,,,,,,,,,,,,,,
2024-07-30T0000,2343A,117.2117,29.2933,景德镇市,老干部活动中心,,27,27,14,15,10,28,,63,49,19,9,21,10,0.4,0.3
2024-07-30T0000,2344A,117.1894,29.2789,景德镇市,兽医站,,40,40,23,23,11,18,,68,44,29,14,25,13,0.5,0.2
2024-07-30T0000,2345A,117.1547,29.2617,景德镇市,台达陶瓷,,38,38,24,25,13,10,,66,42,51,19,105,39,0.5,0.3
2024-07-30T0000,2346A,117.2461,29.2956,景德镇市,陶研所,,25,25,21,11,6,22,,65,43,15,6,4,4,0.2,0.2
2024-07-30T0000,1803A,115.9872,29.6815,九江市,十里,,21,21,9,8,4,23,,58,46,21,8,7,8,0.6,0.5
2024-07-30T0000,1804A,115.9584,29.7046,九江市,茅山头,,27,27,12,15,8,5,,68,50,52,14,18,11,0.5,0.4
2024-07-30T0000,1805A,115.9877,29.7295,九江市,西园,,20,17,10,8,6,11,,62,49,40,13,13,11,0.7,0.6
2024-07-30T0000,1806A,116.0172,29.6547,九江市,五七二七厂,,16,16,8,3,5,29,,62,50,9,7,9,9,1.0,0.9
2024-07-30T0000,1808A,115.9114,29.6038,九江市,综合工业园,,28,11,9,9,5,13,,68,43,55,14,11,10,0.5,0.3
2024-07-30T0000,1809A,116.0721,29.7535,九江市,石化总厂,,21,21,14,8,7,16,,57,44,18,10,11,11,0.7,0.7
2024-07-30T0000,1810A,115.9773,29.5698,九江市,庐山气象台,,18,8,15,7,7,56,,63,62,2,2,6,8,0.7,0.8
2024-07-30T0000,3190A,116.0254,29.6994,九江市,外国语学校,,19,19,10,10,6,40,,67,59,14,11,18,14,0.3,0.4
2024-07-30T0000,2658A,98.5061,39.7443,酒泉市,仓门街子站,,44,44,44,9,8,90,,146,121,14,11,8,10,0.2,0.3
2024-07-30T0000,2659A,98.4989,39.7256,酒泉市,油田生活基地,,31,29,39,14,16,97,,153,130,22,14,7,11,0.2,0.3
2024-07-30T0000,2698A,76.0072,39.4467,喀什地区,巡警大队,颗粒物(PM10),131,212,197,56,42,56,,131,114,82,28,5,4,0.9,0.4
2024-07-30T0000,2699A,75.9755,39.4694,喀什地区,吾办,颗粒物(PM10),136,221,174,90,53,58,,128,113,46,23,4,4,1.0,0.6
2024-07-30T0000,4027A,75.9483,39.4689,喀什地区,老干局,颗粒物(PM10),166,282,205,65,43,34,,130,106,88,26,4,4,0.7,0.4
2024-07-30T0000,1824A,114.3389,34.7781,开封市,肿瘤医院,,25,25,18,3,5,41,,67,50,4,4,4,4,0.4,0.5
2024-07-30T0000,1826A,114.2885,34.7965,开封市,世纪星幼儿园,,,23,19,,12,57,,75,66,6,5,2,3,0.4,0.5
2024-07-30T0000,3147A,114.3438,34.8106,开封市,龙亭公园,,18,18,18,3,6,40,,69,53,10,8,1,1,0.4,0.4
2024-07-30T0000,3210A,114.3644,34.7964,开封市,汴京公园,,19,19,18,6,9,42,,72,48,5,6,3,3,0.4,0.4
2024-07-30T0000,3473A,114.2485,34.8306,开封市,技师学院,,18,18,21,3,6,55,,73,62,4,4,3,4,0.5,0.6
2024-07-30T0000,3592A,114.4644,34.7556,开封市,祥符区生态环境局,,16,16,16,10,9,39,,71,46,16,13,3,3,0.3,0.3
2024-07-30T0000,1951A,84.895,45.6094,克拉玛依市,长征新村,,35,10,21,3,6,110,,133,124,5,6,9,9,0.2,0.2
2024-07-30T0000,1952A,84.8988,45.5893,克拉玛依市,南林小区,,32,19,20,15,11,102,,122,109,12,12,9,10,0.1,0.1
2024-07-30T0000,1954A,84.905,44.3396,克拉玛依市,独山子区,颗粒物(PM10),55,60,34,13,13,107,,154,132,12,11,7,12,0.6,0.5
2024-07-30T0000,1955A,85.6979,46.098,克拉玛依市,乌尔禾区商贸楼,颗粒物(PM10),52,53,34,9,9,54,,118,99,34,9,5,5,0.6,0.4
2024-07-30T0000,3612A,85.1045,45.6899,克拉玛依市,白碱滩区新站,,32,29,28,11,17,100,,131,128,12,7,8,8,0.3,0.3
2024-07-30T0000,2697A,76.1454,39.7142,克孜勒苏柯尔克孜自治州,市人民政府,颗粒物(PM10),126,202,159,73,64,70,,138,114,24,11,11,9,0.5,0.3
2024-07-30T0000,3665A,76.1658,39.7157,克孜勒苏柯尔克孜自治州,克州文化中心,颗粒物(PM10),108,166,163,60,58,106,,138,125,18,7,12,12,0.4,0.3
2024-07-30T0000,1450A,102.8204,24.8886,昆明市,呈贡新区,,26,26,27,12,17,62,,76,64,14,14,2,6,0.8,0.8
2024-07-30T0000,1451A,102.6251,24.9608,昆明市,西山森林公园,,,,,,,,,,,,,,,,
2024-07-30T0000,1452A,102.7252,25.0902,昆明市,龙泉镇,,17,12,18,3,9,54,,74,54,10,13,6,6,0.7,0.7
2024-07-30T0000,1453A,102.7266,25.0375,昆明市,东风东路,,20,,19,10,14,64,,69,57,16,22,3,2,0.5,0.6
2024-07-30T0000,1454A,102.6742,25.0669,昆明市,金鼎山,,19,19,27,9,13,58,,71,57,16,16,2,3,0.5,0.6
2024-07-30T0000,1455A,102.6644,25.0401,昆明市,碧鸡广场,,23,16,19,16,13,69,,64,50,14,18,3,3,0.5,0.6
2024-07-30T0000,3179A,102.7494,25.0119,昆明市,官渡区博物馆,,22,15,20,13,11,29,,74,42,43,25,5,6,0.6,0.6
2024-07-30T0000,3375A,102.8017,24.8336,昆明市,青年创业园,,15,13,14,9,13,46,,79,43,18,15,7,8,0.4,0.4
2024-07-30T0000,3550A,102.7997,24.9786,昆明市,昆明学院,,24,24,26,16,16,33,,76,57,42,26,4,5,0.6,0.6
2024-07-30T0000,3551A,102.5967,24.6736,昆明市,晋宁区生态环境分局,颗粒物(PM10),52,54,36,27,18,21,,64,39,21,17,8,6,0.9,0.6
2024-07-30T0000,3552A,102.6678,24.9856,昆明市,云天化总部,,25,21,18,17,15,51,,70,55,27,14,5,5,0.7,0.7
2024-07-30T0000,1456A,91.1319,29.6514,拉萨市,八廓街,,49,17,12,9,8,155,,179,177,15,12,6,6,0.1,0.1
2024-07-30T0000,1457A,91.1221,29.6747,拉萨市,市环保局,,50,17,15,8,7,157,,172,171,14,16,9,9,0.4,0.4
2024-07-30T0000,1458A,91.0874,29.6475,拉萨市,区监测站,臭氧1小时,57,15,12,8,7,165,,178,177,16,18,6,7,0.1,0.3
2024-07-30T0000,1459A,91.1774,29.6541,拉萨市,西藏大学,臭氧1小时,52,15,9,8,6,161,,183,182,11,6,10,11,0.4,0.3
2024-07-30T0000,1460A,90.9798,29.6588,拉萨市,区辐射站,臭氧1小时,60,9,14,6,7,168,,187,186,3,15,7,8,0.1,0.2
2024-07-30T0000,1461A,91.0834,29.6292,拉萨市,拉萨火车站,,50,,12,9,9,158,,179,175,13,14,9,9,0.2,0.2
2024-07-30T0000,2520A,109.2203,23.7256,来宾市,来宾技工学校,,25,,22,17,20,24,,53,40,11,9,6,6,0.6,0.7
2024-07-30T0000,3535A,109.1781,23.7297,来宾市,兴宾区政府,,16,16,22,6,11,23,,50,37,10,8,5,5,0.7,0.7
2024-07-30T0000,4002A,109.2416,23.7461,来宾市,中南小学,,13,9,20,9,11,27,,60,46,11,8,9,9,0.7,0.7
2024-07-30T0000,1476A,103.631,36.1031,兰州市,兰炼宾馆,,37,37,32,23,21,63,,136,113,34,16,11,17,0.3,0.3
2024-07-30T0000,1477A,104.1373,35.9454,兰州市,榆中兰大校区,,,,,,,,,,,,,,,,
2024-07-30T0000,1478A,103.8412,36.0726,兰州市,生物制品所,,25,21,32,17,18,36,,129,97,48,27,6,9,0.5,0.6
2024-07-30T0000,1479A,103.831,36.0464,兰州市,铁路设计院,,30,30,32,16,18,44,,123,92,55,32,9,10,0.7,0.5
2024-07-30T0000,3186A,103.7158,36.1058,兰州市,教育港,,31,31,40,21,25,88,,125,114,14,13,13,11,0.4,0.4
2024-07-30T0000,3241A,103.7439,36.0842,兰州市,百合公园,,34,34,29,16,16,54,,132,110,40,19,7,8,0.6,0.5
2024-07-30T0000,3242A,103.9611,35.998,兰州市,和平,,29,29,34,19,18,55,,136,110,43,18,7,9,0.4,0.5
2024-07-30T0000,3245A,103.6633,36.533,兰州新区,新区管委会,,33,33,33,20,17,88,,123,109,22,13,10,13,0.4,0.5
2024-07-30T0000,3246A,103.6975,36.4789,兰州新区,舟曲中学,,32,19,21,9,12,101,,126,115,12,10,9,13,0.5,0.5
2024-07-30T0000,1067A,116.6708,39.5111,廊坊市,药材公司,,21,21,43,12,17,41,,106,55,15,14,3,2,0.4,0.4
2024-07-30T0000,1068A,116.7214,39.5589,廊坊市,开发区,,24,24,34,14,17,29,,112,65,16,9,3,3,0.4,0.4
2024-07-30T0000,1070A,116.7244,39.5269,廊坊市,北华航天学院,,41,41,50,9,18,36,,119,66,15,11,1,3,0.3,0.4
2024-07-30T0000,2919A,116.7022,39.5453,廊坊市,河北工业大学,,39,39,44,13,17,36,,112,60,13,9,1,2,0.3,0.4
2024-07-30T0000,2535A,103.7723,29.5462,乐山市,花湖湾,,28,24,20,19,18,61,,70,66,10,13,4,4,0.4,0.4
2024-07-30T0000,2536A,103.7627,29.5844,乐山市,牛耳桥,,28,28,26,15,14,40,,74,59,29,23,4,3,0.5,0.4
2024-07-30T0000,2537A,103.7508,29.6006,乐山市,市第三水厂,,30,30,25,20,14,40,,78,65,31,22,4,2,0.5,0.4
2024-07-30T0000,2538A,103.7571,29.5664,乐山市,市监测站,,23,22,23,13,13,73,,80,72,12,15,4,3,0.5,0.4
2024-07-30T0000,3361A,103.7311,29.5628,乐山市,理工大学,,23,23,24,14,14,68,,78,70,10,15,4,3,0.2,0.3
2024-07-30T0000,2598A,100.2143,26.8576,丽江市,西南郊,,,,,,,,,,,,,,,,
2024-07-30T0000,2599A,100.2497,26.8802,丽江市,丽江古城,,13,12,20,9,14,28,,42,35,9,12,5,5,0.7,0.7
2024-07-30T0000,2600A,100.2203,26.8906,丽江市,市中心,,15,,15,3,11,46,,45,44,5,11,7,7,0.5,0.5
2024-07-30T0000,1267A,119.914,28.4514,丽水市,监测站大楼,,11,11,12,3,5,30,,69,57,7,9,3,2,0.3,0.4
2024-07-30T0000,1268A,119.93,28.4586,丽水市,莲都小学,,12,12,13,3,3,30,,69,57,5,7,4,3,0.3,0.4
2024-07-30T0000,1269A,119.879,28.4231,丽水市,余庄前,,,,10,3,6,,,69,,10,6,3,2,0.3,0.3
2024-07-30T0000,1173A,119.176,34.5885,连云港市,市环境监测站,,34,34,23,14,11,58,,102,82,22,12,4,4,0.7,0.6
2024-07-30T0000,3000A,119.3581,34.6972,连云港市,德源药业,,22,22,22,7,11,61,,119,83,23,13,1,2,0.4,0.4
2024-07-30T0000,3007A,119.178,34.844,连云港市,新城一中,,33,17,23,11,13,18,,126,81,65,14,2,3,0.7,0.7
2024-07-30T0000,3008A,119.3608,34.7519,连云港市,胡沟管理处,,32,22,18,3,9,100,,112,98,12,6,7,4,0.6,0.5
2024-07-30T0000,3009A,119.1478,34.5911,连云港市,矿山设计院,,39,39,25,17,13,61,,110,92,28,12,8,3,0.9,0.6
2024-07-30T0000,3434A,119.2413,34.6539,连云港市,工贸学校,,35,25,21,15,14,109,,118,100,10,11,7,7,0.6,0.5
2024-07-30T0000,3664A,119.4172,34.7341,连云港市,连云街道,,31,19,23,10,14,99,,131,96,5,6,3,4,0.4,0.4
2024-07-30T0000,2571A,102.3431,27.8099,凉山彝族自治州,青龙寺,,18,18,16,10,9,41,,65,55,5,5,1,2,0.5,0.6
2024-07-30T0000,2572A,102.2721,27.8415,凉山彝族自治州,邛海宾馆,,19,11,14,7,9,60,,74,67,5,9,7,7,0.6,0.7
2024-07-30T0000,2573A,102.2625,27.898,凉山彝族自治州,西昌市政府,,13,13,17,8,12,40,,66,59,10,8,7,8,0.8,0.9
2024-07-30T0000,2574A,102.2685,27.8851,凉山彝族自治州,凉山州政府,,15,15,17,9,11,43,,75,70,12,10,6,6,0.8,0.8
2024-07-30T0000,2575A,102.237,27.8914,凉山彝族自治州,长安,,21,8,14,7,11,66,,67,64,4,10,8,8,0.4,0.5
2024-07-30T0000,2212A,123.2,41.1953,辽阳市,宏伟区,颗粒物(PM10),69,88,43,39,19,84,,95,86,14,9,5,6,1.3,0.9
2024-07-30T0000,2213A,123.1683,41.2495,辽阳市,新华园,颗粒物(PM10),75,100,43,43,21,85,,86,82,7,10,4,6,1.2,1
2024-07-30T0000,2214A,123.2354,41.2639,辽阳市,滨河路,细颗粒物(PM2.5),64,62,33,46,19,76,,86,79,13,9,7,7,1.0,0.8
2024-07-30T0000,2215A,123.149,41.2991,辽阳市,铁西工业园,颗粒物(PM10),79,108,59,44,26,67,,82,79,10,10,7,7,1.9,1.3
2024-07-30T0000,2227A,125.1358,42.8845,辽源市,环保局,,28,25,13,19,6,37,,92,53,6,4,7,7,0.6,0.6
2024-07-30T0000,3239A,125.0764,42.9078,辽源市,银鹰制药,,26,20,13,18,7,15,,90,49,16,6,5,5,0.8,0.8
2024-07-30T0000,1625A,115.9848,36.4372,聊城市,区政府,,19,19,12,6,6,57,,92,71,12,10,6,6,0.5,0.5
2024-07-30T0000,2878A,116.0072,36.4343,聊城市,聊大东校,,19,14,11,6,12,58,,96,75,14,8,5,6,0.6,0.6
2024-07-30T0000,3200A,115.9819,36.4978,聊城市,监控中心,,20,20,10,3,6,63,,92,69,7,9,5,6,0.3,0.3
2024-07-30T0000,3513A,116.0445,36.4361,聊城市,九州社区,,24,24,18,3,5,45,,86,63,16,11,5,3,0.6,0.6
2024-07-30T0000,4018A,116.0567,36.4608,聊城市,星美广场,,24,24,23,12,9,49,,86,65,12,11,4,5,0.5,0.5
2024-07-30T0000,2632A,94.3681,29.6376,林芝市,林芝监测站,,15,12,10,10,6,37,,71,63,10,6,8,8,0.4,0.4
2024-07-30T0000,2633A,94.3616,29.6616,林芝市,林芝人民医院,,16,14,10,9,6,49,,77,69,8,7,10,10,0.2,0.2
2024-07-30T0000,2603A,100.0781,23.8982,临沧市,市环保局,,18,16,18,12,19,20,,40,32,8,10,4,4,0.3,0.3
2024-07-30T0000,2604A,100.0894,23.8822,临沧市,市气象局,,12,9,16,8,11,25,,39,34,9,9,4,4,0.3,0.3
2024-07-30T0000,1733A,111.5531,36.0783,临汾市,临钢医院,,28,28,39,6,19,68,,74,68,6,12,4,5,0.5,0.6
2024-07-30T0000,1734A,111.5028,36.0714,临汾市,技工学校,,25,7,37,3,17,77,,81,72,6,15,5,6,0.6,0.7
2024-07-30T0000,1736A,111.5018,36.0855,临汾市,市委,,26,12,37,3,18,82,,85,78,5,14,7,8,0.7,0.8
2024-07-30T0000,3018A,111.505,36.1014,临汾市,唐尧大酒店,,22,6,32,3,16,69,,78,68,5,12,4,4,0.7,0.9
2024-07-30T0000,3668A,111.5036,36.0414,临汾市,城南,,24,9,39,3,14,75,,78,70,5,14,2,4,0.5,0.8
2024-07-30T0000,2667A,103.2069,35.5993,临夏回族自治州,环保局,,46,46,39,27,20,54,,116,94,10,6,7,7,0.4,0.4
2024-07-30T0000,2668A,103.2417,35.6057,临夏回族自治州,建设大厦,,42,41,33,29,18,30,,120,89,20,10,12,13,0.5,0.4
2024-07-30T0000,1618A,118.3429,35.0532,临沂市,沂河小区,,34,34,27,14,16,75,,128,95,11,10,11,10,0.3,0.3
2024-07-30T0000,1619A,118.295,35.0583,临沂市,鲁南制药厂,,23,19,22,12,13,72,,130,96,17,15,7,6,0.3,0.3
2024-07-30T0000,1620A,118.2794,34.9976,临沂市,新光毛纺厂,,27,19,21,9,12,85,,128,98,12,12,8,7,0.6,0.7
2024-07-30T0000,1621A,118.3956,35.0888,临沂市,河东保险公司,,27,14,25,7,11,84,,124,98,12,18,10,9,0.4,0.5
2024-07-30T0000,3370A,118.3564,35.0215,临沂市,十里堡居委,,22,22,18,9,12,66,,122,91,16,13,14,8,0.6,0.6
2024-07-30T0000,3496A,118.3604,35.1084,临沂市,南坊新区,,25,19,28,3,12,80,,136,98,13,18,9,9,0.6,0.7
2024-07-30T0000,3860A,118.3920,35.0300,临沂市,皇山花园小区,,21,12,23,7,14,67,,114,89,15,15,10,9,0.4,0.5
2024-07-30T0000,1870A,109.4856,24.3895,柳州市,柳东小学,,9,7,14,3,6,27,,62,48,14,11,6,7,0.6,0.6
2024-07-30T0000,1871A,109.4157,24.3277,柳州市,环保监测站,,14,14,18,3,8,24,,60,44,13,8,6,7,0.7,0.7
2024-07-30T0000,1872A,109.389,24.341,柳州市,河西水厂,,11,6,14,3,8,33,,61,48,8,6,10,10,0.6,0.6
2024-07-30T0000,1873A,109.4311,24.2921,柳州市,市四中,,11,,16,6,7,33,,65,50,8,8,5,6,0.5,0.5
2024-07-30T0000,1874A,109.4006,24.3631,柳州市,市九中,,18,,17,12,7,33,,64,51,10,10,5,5,0.7,0.7
2024-07-30T0000,1875A,109.4958,24.3134,柳州市,古亭山,,8,7,17,3,9,23,,62,43,11,11,6,7,0.7,0.8
2024-07-30T0000,3402A,109.5422,24.3996,柳州市,市二中,,9,9,16,3,7,23,,60,43,16,12,7,6,0.6,0.5
2024-07-30T0000,2307A,116.5079,31.737,六安市,监测大楼,,15,8,7,6,6,45,,60,53,5,5,6,5,0.3,0.3
2024-07-30T0000,2308A,116.4738,31.7643,六安市,皖西学院,,15,12,10,3,6,45,,61,54,3,4,4,5,0.1,0.1
2024-07-30T0000,2309A,116.4996,31.7905,六安市,朝阳厂,,11,,6,6,6,33,,48,43,3,3,10,9,0.2,0.2
2024-07-30T0000,2310A,116.5567,31.7886,六安市,开发区,,22,18,10,15,10,26,,51,43,10,4,8,9,0.3,0.3
2024-07-30T0000,2576A,104.8,26.5892,六盘水市,窑上,,,,,,,,,,,,,,,,
2024-07-30T0000,2577A,104.83,26.5917,六盘水市,黄土坡,,23,12,12,6,8,71,,81,77,6,8,5,7,0.3,0.4
2024-07-30T0000,2578A,104.89,26.5939,六盘水市,水钢,,23,18,16,3,7,72,,88,83,4,8,4,5,0.3,0.4
2024-07-30T0000,2579A,104.8475,26.5894,六盘水市,民中,,21,13,12,9,6,66,,82,77,8,8,6,6,0.5,0.5
2024-07-30T0000,2580A,104.9544,26.5506,六盘水市,双水,,23,7,12,3,7,73,,83,78,2,5,5,6,0.3,0.3
2024-07-30T0000,2335A,117.0189,25.1181,龙岩市,龙岩师专,,,,,,,,,,,,,,,,
2024-07-30T0000,2336A,117.0217,25.1033,龙岩市,龙岩市监测站,,19,19,18,11,11,17,,66,43,20,12,7,9,0.3,0.3
2024-07-30T0000,2337A,117.0258,25.0661,龙岩市,闽西职业技术学院,,23,23,20,8,8,18,,63,40,19,10,10,7,0.3,0.3
2024-07-30T0000,2338A,117.0196,25.0306,龙岩市,龙岩学院,,13,13,21,3,7,26,,60,46,6,8,4,3,0.2,0.3
2024-07-30T0000,2665A,105.0822,33.3261,陇南市,汉王镇固水子,,,,,,,,,,,,,,,,
2024-07-30T0000,2885A,104.9339,33.3826,陇南市,滨江中学,,33,33,35,9,9,31,,71,54,18,14,4,4,0.8,0.7
2024-07-30T0000,3247A,104.955,33.371,陇南市,市总工会,,36,36,28,9,7,28,,73,55,21,10,4,4,0.6,0.6
2024-07-30T0000,2487A,111.9589,27.8901,娄底市,电视发射台,,16,16,16,3,5,13,,64,32,9,6,6,7,0.6,0.4
2024-07-30T0000,2488A,111.9975,27.725,娄底市,市监测站,,11,10,15,3,10,34,,62,42,6,6,7,7,0.4,0.4
2024-07-30T0000,2489A,112.0194,27.7314,娄底市,市委党校,,19,19,13,10,8,24,,57,38,10,8,6,8,0.3,0.3
2024-07-30T0000,2490A,111.9561,27.7569,娄底市,涟钢,一氧化碳,55,37,32,16,16,14,,35,20,21,26,25,22,5.5,1.9
2024-07-30T0000,2491A,111.9892,27.7044,娄底市,市政府,,20,17,11,14,7,29,,64,44,9,6,5,6,0.2,0.1
2024-07-30T0000,1893A,105.4324,28.9634,泸州市,九狮山,,24,22,24,13,14,76,,94,84,14,14,5,5,0.5,0.4
2024-07-30T0000,1894A,105.4427,28.9063,泸州市,小市上码头,,25,23,28,7,12,79,,98,86,12,12,6,6,0.3,0.3
2024-07-30T0000,1895A,105.4241,28.8573,泸州市,兰田宪桥,,25,20,23,17,17,77,,95,84,9,9,5,4,0.3,0.4
2024-07-30T0000,1896A,105.4379,28.8833,泸州市,市环监站,,26,24,26,18,19,76,,99,86,10,10,8,7,0.5,0.4
2024-07-30T0000,3490A,105.3617,28.7703,泸州市,纳溪区环保局,,25,23,26,17,17,77,,88,77,12,15,6,4,0.3,0.4
2024-07-30T0000,2183A,111.1406,37.5211,吕梁市,环保局,,40,37,73,28,37,62,,138,106,24,29,4,4,0.8,0.9
2024-07-30T0000,2185A,111.1297,37.5136,吕梁市,自来水公司,,50,37,71,35,38,56,,143,106,21,29,2,4,0.7,0.7
2024-07-30T0000,2867A,111.1283,37.51,吕梁市,马茂庄小学,细颗粒物(PM2.5),52,39,73,36,38,63,,144,114,21,33,1,4,0.8,0.8
2024-07-30T0000,1812A,112.3931,34.6516,洛阳市,市委党校,,18,11,13,9,12,55,,70,59,4,7,2,2,0.6,0.7
2024-07-30T0000,1814A,112.4657,34.6871,洛阳市,豫西宾馆,,16,11,15,10,9,51,,74,58,7,8,3,2,0.3,0.3
2024-07-30T0000,1815A,112.494,34.6886,洛阳市,河南林校,,15,,5,8,9,47,,73,54,8,8,3,3,0.6,0.6
2024-07-30T0000,1816A,112.3844,34.623,洛阳市,开发区管委会,,17,14,14,9,10,52,,72,57,4,5,3,3,0.4,0.4
2024-07-30T0000,1817A,112.4267,34.6258,洛阳市,市委新办公区,,17,14,13,8,10,53,,75,60,2,4,7,6,0.6,0.5
2024-07-30T0000,3340A,112.6005,34.6326,洛阳市,伊滨,,20,10,16,7,12,61,,74,56,3,7,2,2,0.1,0.1
2024-07-30T0000,3341A,112.4951,34.6332,洛阳市,中移产业园,,16,11,11,8,11,51,,71,55,1,3,3,3,0.6,0.7
2024-07-30T0000,3593A,112.5736,34.8993,洛阳市,吉利监测站,,25,21,19,17,12,30,,70,53,11,4,3,3,0.9,0.9
2024-07-30T0000,3635A,112.3677,34.662,洛阳市,河科大西苑校区,,19,8,7,6,7,58,,72,59,2,4,4,3,0.6,0.7
2024-07-30T0000,3636A,112.4388,34.6781,洛阳市,英才小学,,15,,8,9,11,46,,68,54,2,3,2,2,0.7,0.7
2024-07-30T0000,2399A,114.051,33.5699,漯河市,三五一五工厂,,21,12,11,7,8,65,,73,68,9,7,6,6,0.5,0.5
2024-07-30T0000,2400A,114.0055,33.5698,漯河市,漯河大学,,23,15,15,9,8,73,,79,74,7,6,8,6,0.3,0.3
2024-07-30T0000,2401A,114.0138,33.5828,漯河市,市水利局,,24,14,12,3,4,74,,76,74,7,5,6,6,0.4,0.4
2024-07-30T0000,2402A,114.0261,33.5698,漯河市,市广电局,,22,12,7,3,5,68,,77,70,9,6,4,4,0.4,0.4
2024-07-30T0000,3478A,113.9749,33.5664,漯河市,市图书馆,,22,21,14,9,7,70,,80,72,11,8,9,9,0.4,0.4
2024-07-30T0000,3479A,114.0967,33.5906,漯河市,召陵区卫健委,,23,17,16,8,9,71,,76,71,6,6,2,2,0.5,0.5
2024-07-30T0000,1798A,118.5092,31.6837,马鞍山市,湖东路四小,,36,22,25,18,12,115,,126,105,12,10,6,5,0.5,0.5
2024-07-30T0000,1799A,118.5024,31.6449,马鞍山市,开发区,,32,31,23,13,12,100,,120,95,16,13,4,4,0.6,0.6
2024-07-30T0000,1800A,118.5228,31.7231,马鞍山市,慈湖,,33,25,20,10,11,104,,126,101,19,15,4,5,0.5,0.5
2024-07-30T0000,1802A,118.6245,31.7241,马鞍山市,濮塘,,31,15,15,10,12,98,,95,94,7,9,4,4,0.6,0.6
2024-07-30T0000,3633A,118.4918,31.6809,马鞍山市,雨山,,35,25,26,11,11,110,,126,106,9,7,7,7,0.7,0.6
2024-07-30T0000,1686A,111.0286,21.4688,茂名市,电白南海,,,6,11,3,7,,,47,41,9,5,6,6,0.4,0.3
2024-07-30T0000,1687A,110.9294,21.6533,茂名市,茂石化七小,,20,,8,14,10,25,,38,32,6,5,9,8,0.4,0.4
2024-07-30T0000,1688A,110.9107,21.6687,茂名市,健康路,,12,12,8,3,4,30,,45,37,7,6,12,9,0.4,0.4
2024-07-30T0000,1689A,110.8592,21.6828,茂名市,高岭,,14,14,9,9,11,31,,44,36,19,11,13,18,0.8,0.7
2024-07-30T0000,3450A,111.01,21.5165,茂名市,电白水东,,11,6,6,3,5,35,,44,39,6,6,4,3,0.5,0.5
2024-07-30T0000,2539A,104.0308,30.0478,眉山市,黑龙滩水库,,33,,18,23,23,58,,83,66,6,7,2,2,0.2,0.2
2024-07-30T0000,2540A,103.8416,30.0874,眉山市,气象局,,21,21,25,14,11,45,,92,72,17,14,9,7,0.4,0.3
2024-07-30T0000,3137A,103.8578,30.0744,眉山市,市委党校,,24,24,17,9,6,47,,91,71,20,16,8,5,0.4,0.4
2024-07-30T0000,3148A,103.8291,30.0564,眉山市,区人社局,,28,28,24,12,6,41,,89,67,23,21,11,9,0.7,0.6
2024-07-30T0000,1690A,116.1231,24.3284,梅州市,梅江月梅,,19,12,15,8,4,60,,61,60,1,2,6,6,0.4,0.4
2024-07-30T0000,1691A,116.0797,24.2719,梅州市,梅县新城,,18,18,16,9,7,8,,55,39,22,8,4,4,0.6,0.5
2024-07-30T0000,1692A,116.1248,24.2654,梅州市,环境监控中心,,25,25,17,11,8,20,,52,42,25,9,5,6,0.5,0.5
2024-07-30T0000,3315A,116.1233,24.2991,梅州市,梅龙,,17,14,12,10,8,52,,59,56,4,5,10,8,0.6,0.6
2024-07-30T0000,1878A,104.7778,31.4741,绵阳市,富乐山,,26,26,24,17,14,40,,100,78,19,13,8,8,0.6,0.6
2024-07-30T0000,1879A,104.7563,31.4535,绵阳市,市人大,,32,32,32,16,15,51,,109,86,26,26,13,11,0.5,0.5
2024-07-30T0000,1880A,104.6697,31.4668,绵阳市,高新区自来水公司,,31,31,34,19,11,55,,116,84,23,27,8,8,0.4,0.4
2024-07-30T0000,1881A,104.7287,31.5075,绵阳市,三水厂,,35,33,35,24,17,48,,104,73,26,34,6,6,0.6,0.6
2024-07-30T0000,3491A,104.69,31.5322,绵阳市,西科大附属小学,,36,36,28,17,14,54,,104,81,20,26,8,9,0.4,0.3
2024-07-30T0000,3492A,104.5648,31.5343,绵阳市,安州区旅游局,,32,32,23,19,16,71,,120,91,14,18,5,6,0.5,0.4
2024-07-30T0000,1784A,129.61,44.561,牡丹江市,环保大楼,,16,12,17,11,10,18,,70,,15,7,7,7,0.3,0.3
2024-07-30T0000,1785A,129.6115,44.5782,牡丹江市,文化广场,,40,28,16,28,22,27,,68,44,9,10,7,7,0.3,0.3
2024-07-30T0000,1786A,129.5904,44.5963,牡丹江市,第一医院,,33,,12,23,12,31,,69,50,12,7,5,4,0.4,0.4
2024-07-30T0000,1787A,129.6364,44.6075,牡丹江市,机车工厂,,46,46,26,25,20,18,,67,43,17,10,8,6,0.5,0.5
2024-07-30T0000,1788A,129.6386,44.5462,牡丹江市,第一中学,,32,32,18,8,9,8,,65,28,11,9,5,4,0.3,0.4
2024-07-30T0000,2531A,105.0703,29.61,内江市,市监测站,,35,28,20,24,19,63,,108,87,12,14,13,12,0.3,0.4
2024-07-30T0000,2532A,105.0717,29.5947,内江市,东兴区政府,,31,31,23,10,11,57,,93,77,14,16,12,12,0.5,0.5
2024-07-30T0000,2533A,105.0653,29.5817,内江市,内江二中,,33,30,22,23,16,61,,109,87,12,15,6,11,0.4,0.5
2024-07-30T0000,2534A,105.0406,29.5822,内江市,内江日报社,,25,18,19,17,17,65,,114,95,10,10,9,11,0.5,0.6
2024-07-30T0000,2628A,92.0657,31.4846,那曲市,那曲监测站,颗粒物(PM10),72,94,51,33,21,103,,155,142,11,7,6,7,0.7,0.5
2024-07-30T0000,3128A,92.0506,31.4797,那曲市,那曲会议中心,,40,34,31,11,12,125,,168,157,6,12,4,4,0.4,0.4
2024-07-30T0000,1290A,115.8931,28.6843,南昌市,省外办,,46,46,22,19,10,10,,74,48,40,14,8,8,0.2,0.3
2024-07-30T0000,1291A,115.8886,28.7003,南昌市,省林业公司,颗粒物(PM10),51,51,13,19,6,7,,65,37,39,15,6,6,0.4,0.2
2024-07-30T0000,1292A,115.8126,28.7442,南昌市,林科所,,13,9,5,3,3,9,,58,32,25,12,4,4,0.2,0.2
2024-07-30T0000,1294A,115.8518,28.687,南昌市,建工学校,,20,14,14,12,7,5,,63,36,40,10,7,7,0.6,0.4
2024-07-30T0000,1295A,115.8921,28.6424,南昌市,象湖,,23,23,11,11,6,3,,66,35,34,11,4,5,0.4,0.1
2024-07-30T0000,1296A,115.7423,28.7996,南昌市,武术学校,,22,22,17,11,11,8,,53,26,4,4,13,14,0.5,0.5
2024-07-30T0000,1298A,115.9314,28.6842,南昌市,省站,,32,32,18,21,10,4,,62,42,35,14,9,8,0.5,0.4
2024-07-30T0000,3046A,115.9084,28.6062,南昌市,机电学校,,38,38,20,12,6,4,,60,33,38,11,8,7,0.6,0.4
2024-07-30T0000,3690A,115.9721,28.7031,南昌市,外国语学校,,32,32,17,10,7,10,,65,47,39,9,3,4,0.3,0.3
2024-07-30T0000,1905A,106.056,30.8064,南充市,西山风景区,,26,22,27,18,17,66,,85,78,6,5,3,3,0.1,0.2
2024-07-30T0000,1906A,106.0789,30.8023,南充市,南充市委,,25,25,34,16,21,52,,103,84,16,10,6,7,0.4,0.4
2024-07-30T0000,1907A,106.1031,30.8217,南充市,南充炼油厂,,26,12,34,12,20,81,,110,94,10,10,5,6,0.2,0.2
2024-07-30T0000,1908A,106.1064,30.7856,南充市,高坪区监测站,,22,22,32,13,18,47,,107,83,25,12,4,5,0.3,0.2
2024-07-30T0000,1909A,106.0642,30.7636,南充市,嘉陵区环保局,,36,36,30,17,20,47,,104,82,21,12,5,5,0.3,0.3
2024-07-30T0000,1910A,106.1087,30.8388,南充市,市环境监测站,,27,27,37,13,19,80,,109,94,11,11,4,5,0.6,0.6
2024-07-30T0000,1151A,118.8086,32.1065,南京市,迈皋桥,,32,18,15,7,6,102,,120,109,10,11,5,5,0.2,0.2
2024-07-30T0000,1152A,118.7538,32.0551,南京市,草场门,,34,19,19,12,9,106,,129,112,10,9,5,6,0.4,0.4
2024-07-30T0000,1153A,118.7794,32.0745,南京市,山西路,,37,24,19,9,6,118,,136,118,1,4,5,4,0.3,0.3
2024-07-30T0000,1154A,118.7752,32.0023,南京市,中华门,,32,14,13,9,6,101,,95,95,6,5,9,8,0.4,0.3
2024-07-30T0000,1155A,118.8109,32.0309,南京市,瑞金路,,33,24,17,9,7,105,,104,104,6,4,8,7,0.4,0.3
2024-07-30T0000,1156A,118.7997,32.0754,南京市,玄武湖,,30,24,20,3,5,94,,96,95,2,4,4,4,0.4,0.4
2024-07-30T0000,1157A,118.6414,32.0931,南京市,浦口,,26,24,20,8,7,81,,116,94,15,8,6,7,0.6,0.7
2024-07-30T0000,1158A,118.7356,31.9996,南京市,奥体中心,,33,24,17,17,12,103,,116,102,16,12,7,8,0.2,0.2
2024-07-30T0000,1159A,118.9125,32.1028,南京市,仙林大学城,,32,27,21,9,8,101,,111,111,12,11,8,8,0.4,0.4
2024-07-30T0000,3422A,118.8436,31.9198,南京市,江宁彩虹桥,,28,27,20,12,7,88,,97,97,12,8,4,4,0.6,0.5
2024-07-30T0000,3423A,119.0138,31.6494,南京市,溧水永阳,,32,29,15,14,11,100,,119,119,15,9,4,4,0.6,0.6
2024-07-30T0000,3424A,118.879,31.3302,南京市,高淳老职中,,38,22,23,14,11,119,,122,122,11,8,6,5,0.4,0.4
2024-07-30T0000,3427A,118.8554,32.3578,南京市,六合雄州,,30,17,43,6,10,93,,129,88,5,5,6,7,0.5,0.5
2024-07-30T0000,1401A,108.3103,22.7881,南宁市,二十一中,,14,10,15,9,12,43,,60,45,9,9,3,3,0.6,0.6
2024-07-30T0000,1402A,108.3141,22.8528,南宁市,北湖,,14,14,19,9,11,33,,62,44,13,11,3,2,0.7,0.7
2024-07-30T0000,1403A,108.3206,22.8225,南宁市,市监测站,,15,,18,9,11,47,,63,46,9,11,5,5,0.5,0.5
2024-07-30T0000,1404A,108.3829,22.8037,南宁市,大自然花园,,14,13,18,8,10,42,,61,46,11,10,4,4,0.6,0.6
2024-07-30T0000,1405A,108.4394,22.7904,南宁市,仙葫,,,,,,,,,,,,,,,,
2024-07-30T0000,1406A,108.2397,22.8467,南宁市,区农职院,,14,13,18,7,10,44,,66,46,9,10,2,2,0.6,0.6
2024-07-30T0000,1407A,108.3275,22.735,南宁市,英华嘉园,,15,9,18,6,10,45,,56,46,9,11,5,5,0.5,0.5
2024-07-30T0000,1408A,108.2257,22.7757,南宁市,沙井镇街道办,,16,16,25,11,12,36,,58,38,19,20,2,2,0.4,0.5
2024-07-30T0000,3401A,108.4834,22.7618,南宁市,红星社区,,15,,20,10,8,37,,58,44,8,6,5,5,0.5,0.5
2024-07-30T0000,2331A,118.0966,26.6761,南平市,茫荡山,,,,,,,,,,,,,,,,
2024-07-30T0000,2332A,118.1681,26.6369,南平市,南平市监测站,,15,15,16,6,7,11,,56,34,17,8,4,4,0.6,0.6
2024-07-30T0000,2333A,118.1825,26.6489,南平市,南平铝业有限公司,,15,15,16,3,5,21,,54,39,6,6,5,6,0.6,0.6
2024-07-30T0000,2334A,118.1756,26.6272,南平市,南平七中,细颗粒物(PM2.5),58,,21,41,23,12,,58,32,11,6,4,4,0.6,0.6
2024-07-30T0000,1168A,120.9098,31.9663,南通市,狼山街道,,27,16,14,6,4,26,,124,81,53,25,8,7,0.4,0.4
2024-07-30T0000,1169A,120.86,32.0005,南通市,虹桥,,24,24,17,7,6,30,,122,80,41,20,9,6,0.8,0.6
2024-07-30T0000,1170A,120.87,32.02,南通市,城中,,24,24,21,9,4,34,,127,90,39,15,9,7,0.6,0.5
2024-07-30T0000,1171A,120.94,31.93,南通市,星湖花园,,22,15,11,3,3,26,,132,80,44,22,6,6,0.4,0.4
2024-07-30T0000,1172A,120.81,32.0417,南通市,紫琅学院,,35,31,14,11,5,14,,121,82,69,29,11,7,0.5,0.5
2024-07-30T0000,3291A,121.067,32.062,南通市,通州监测站,,27,27,21,7,5,33,,138,102,24,10,4,4,0.5,0.5
2024-07-30T0000,3432A,120.9348,31.9883,南通市,环境教育馆,,31,31,23,7,4,33,,136,91,42,19,10,9,0.4,0.4
2024-07-30T0000,2404A,112.5224,33.0122,南阳市,瓦房庄,,18,14,13,3,6,56,,70,67,11,9,5,5,0.3,0.4
2024-07-30T0000,2405A,112.5003,32.9735,南阳市,汉画馆,,18,18,16,9,10,56,,67,64,11,11,4,4,0.3,0.4
2024-07-30T0000,2406A,112.5573,33.027,南阳市,气象站,,18,12,10,3,5,57,,70,63,9,9,4,5,0.4,0.5
2024-07-30T0000,2407A,112.5481,32.9689,南阳市,理工学院,,14,9,12,3,5,44,,58,,19,10,3,2,0.2,0.3
2024-07-30T0000,4008A,112.5234,32.9922,南阳市,卧龙区政府,,15,15,14,9,10,44,,67,63,22,12,5,4,0.4,0.4
2024-07-30T0000,1234A,121.8358,29.911,宁波市,区环保大楼,,12,12,15,6,5,25,,55,36,8,9,6,6,0.5,0.5
2024-07-30T0000,1235A,121.56,29.82,宁波市,万里学院,,17,17,18,7,8,20,,64,38,12,8,9,8,0.6,0.5
2024-07-30T0000,1236A,121.713,29.9572,宁波市,龙赛医院,,12,12,12,3,4,26,,52,39,9,9,6,6,0.4,0.4
2024-07-30T0000,1239A,121.633,29.7733,宁波市,钱湖水厂,,8,8,9,3,4,19,,55,35,5,4,6,6,0.6,0.5
2024-07-30T0000,1240A,121.5856,29.8635,宁波市,太古小学,,13,13,13,3,4,20,,60,37,9,6,6,6,0.7,0.7
2024-07-30T0000,1241A,121.524,29.8674,宁波市,市环境监测中心,,17,17,15,7,7,27,,70,43,8,7,4,4,0.7,0.7
2024-07-30T0000,2871A,121.6147,29.9017,宁波市,万里国际学校,,9,9,8,6,6,27,,64,40,6,6,6,6,0.3,0.3
2024-07-30T0000,3710A,121.5594,29.8975,宁波市,白沙活动中心,,14,14,17,3,4,24,,63,41,7,6,6,6,0.3,0.3
2024-07-30T0000,2339A,119.5001,26.6946,宁德市,金涵水库,,,,,,,,,,,,,,,,
2024-07-30T0000,2341A,119.5388,26.6612,宁德市,宁德市监测站,,7,7,14,3,6,11,,39,25,14,7,5,5,0.6,0.6
2024-07-30T0000,3209A,119.5231,26.6562,宁德市,宁德一中,,15,15,15,3,2,16,,39,26,4,4,5,6,0.7,0.5
2024-07-30T0000,2618A,98.8601,25.8567,怒江傈僳族自治州,州监测站,,22,22,23,15,15,36,,54,51,7,10,8,8,0.4,0.5
2024-07-30T0000,2619A,98.8546,25.8417,怒江傈僳族自治州,泸水一中,,22,16,20,15,11,26,,52,42,13,12,4,4,0.6,0.6
2024-07-30T0000,1888A,101.6891,26.571,攀枝花市,弄弄坪,,49,49,43,23,16,35,,97,80,32,19,19,13,2.2,0.9
2024-07-30T0000,1889A,101.5769,26.5928,攀枝花市,河门口,,24,11,25,8,18,75,,93,86,9,15,4,7,0.5,0.8
2024-07-30T0000,1890A,101.7169,26.585,攀枝花市,炳草岗,,37,37,30,11,12,54,,91,80,20,20,3,10,1.0,0.9
2024-07-30T0000,1891A,101.7369,26.5008,攀枝花市,仁和,,21,21,25,13,16,55,,103,89,9,15,7,14,0.4,0.9
2024-07-30T0000,2835A,101.7227,26.567,攀枝花市,四十中小,,26,22,22,18,14,46,,109,86,22,14,24,11,0.9,0.7
2024-07-30T0000,1604A,122.0303,41.1489,盘锦市,开发区,颗粒物(PM10),54,58,31,27,16,97,,107,107,13,11,4,4,0.6,0.4
2024-07-30T0000,1605A,122.0485,41.0883,盘锦市,兴隆台,颗粒物(PM10),58,66,32,32,17,81,,93,93,15,11,5,5,0.7,0.5
2024-07-30T0000,1606A,121.8297,41.1028,盘锦市,新生街道,,25,25,21,17,12,61,,104,93,10,7,4,4,0.6,0.5
2024-07-30T0000,1832A,113.3257,33.742,平顶山市,新华旅馆,,18,18,19,8,16,52,,71,51,11,11,1,3,0.4,0.4
2024-07-30T0000,1833A,113.2919,33.737,平顶山市,规划设计院,,19,19,14,10,9,50,,73,56,16,14,5,5,0.7,0.6
2024-07-30T0000,1834A,113.182,33.774,平顶山市,平顶山工学院,,21,13,14,3,4,67,,73,64,5,7,5,5,0.6,0.7
2024-07-30T0000,3204A,113.3025,33.73,平顶山市,规划局,,16,14,13,11,10,43,,68,49,17,12,2,1,0.8,0.7
2024-07-30T0000,3594A,112.8867,33.9116,平顶山市,石龙区,颗粒物(PM10),53,56,25,29,17,26,,68,47,4,2,8,8,0.4,0.4
2024-07-30T0000,2656A,106.6692,35.5461,平凉市,聚贤嘉苑,,28,28,32,18,19,69,,112,93,36,23,6,7,0.1,0.1
2024-07-30T0000,2657A,106.7021,35.5307,平凉市,博物馆,,37,37,37,13,13,80,,116,104,31,14,5,5,0.5,0.4
2024-07-30T0000,2347A,114.0997,27.5002,萍乡市,武功山,,9,9,8,3,3,25,,44,38,4,2,13,13,0.2,0.2
2024-07-30T0000,2348A,113.8385,27.6434,萍乡市,中医院,,16,16,7,6,7,20,,50,38,10,5,6,6,0.9,0.6
2024-07-30T0000,2349A,113.8493,27.6253,萍乡市,市政府车库,,22,22,8,3,6,25,,45,38,8,4,10,12,0.5,0.7
2024-07-30T0000,2350A,113.8676,27.6435,萍乡市,市环保局,,14,14,9,3,6,22,,50,38,9,3,13,8,1.4,0.6
2024-07-30T0000,2351A,113.866,27.6198,萍乡市,安源区政府,,15,15,15,3,4,24,,41,37,10,8,9,9,1.3,0.7
2024-07-30T0000,2319A,119.0141,25.4325,莆田市,荔城区仓后路,,11,11,20,3,5,23,,60,31,5,7,6,6,0.6,0.6
2024-07-30T0000,2320A,119.0015,25.4553,莆田市,莆田市监测站,,30,30,19,3,4,16,,56,28,2,3,5,5,0.3,0.4
2024-07-30T0000,2321A,119.1119,25.4561,莆田市,涵江区六中,,9,9,19,3,6,20,,56,29,5,7,6,6,0.3,0.4
2024-07-30T0000,2322A,119.1013,25.3215,莆田市,秀屿区政府,,16,16,18,3,4,21,,55,29,8,9,6,6,0.5,0.6
2024-07-30T0000,2323A,118.981,25.4792,莆田市,东圳水库,,,,,,,,,,,,,,,,
2024-07-30T0000,2392A,115.0312,35.7636,濮阳市,环保局,,18,16,17,6,12,56,,70,62,7,8,4,4,0.6,0.4
2024-07-30T0000,2394A,115.0574,35.7609,濮阳市,油田运输公司,,17,12,14,6,16,54,,72,61,2,4,1,1,0.4,0.4
2024-07-30T0000,2395A,115.0866,35.7754,濮阳市,油田物探公司,,15,15,17,9,15,44,,76,58,6,5,6,6,0.5,0.5
2024-07-30T0000,3021A,115,35.7668,濮阳市,濮水河管理处,,16,16,17,11,16,46,,56,47,6,6,1,1,0.4,0.5
2024-07-30T0000,2601A,100.98,22.7633,普洱市,市环保局,,19,,12,13,9,18,,32,24,5,5,5,5,0.4,0.4
2024-07-30T0000,2602A,100.9817,22.8322,普洱市,普洱第二中学,,26,,11,18,11,6,,33,21,17,8,3,2,0.5,0.5
2024-07-30T0000,2262A,131.0518,45.8751,七台河市,新一中,,20,7,14,6,8,61,,105,72,8,13,10,9,0.9,0.9
2024-07-30T0000,3345A,131.0577,45.7879,七台河市,中波台,,15,,9,8,7,46,,79,58,9,15,10,11,0.4,0.4
2024-07-30T0000,3637A,131.0176,45.7761,七台河市,人民广场,,16,,18,7,6,50,,79,57,9,14,9,9,0.3,0.3
2024-07-30T0000,3684A,130.8781,45.8222,七台河市,新建矿广场,,22,,53,15,15,59,,88,52,13,19,11,12,0.3,0.5
2024-07-30T0000,1779A,123.9305,47.3636,齐齐哈尔市,安居小区,,25,25,19,12,10,50,,80,62,15,11,6,6,0.5,0.4
2024-07-30T0000,1780A,123.9488,47.3386,齐齐哈尔市,中心广场,,24,24,16,8,7,57,,77,66,13,11,2,2,0.3,0.3
2024-07-30T0000,1781A,123.9483,47.3227,齐齐哈尔市,农牧车辆厂,,17,17,23,7,4,37,,76,62,23,10,8,8,0.5,0.3
2024-07-30T0000,1783A,123.945,47.2988,齐齐哈尔市,市环境监测站,,19,14,12,13,8,50,,77,64,16,9,6,6,0.3,0.3
2024-07-30T0000,3662A,123.6333,47.2075,齐齐哈尔市,富区青少年活动中心,,29,29,23,13,11,46,,76,56,15,14,4,4,0.4,0.4
2024-07-30T0000,2591A,107.9783,26.5747,黔东南苗族侗族自治州,市环境监测站,,11,8,9,6,7,35,,54,41,11,13,3,3,0.6,0.6
2024-07-30T0000,2881A,107.8908,26.5311,黔东南苗族侗族自治州,凯里学院,,10,6,5,3,6,32,,48,40,7,7,4,4,0.3,0.3
2024-07-30T0000,2593A,107.5228,26.2403,黔南布依族苗族自治州,小围寨,,11,6,4,3,2,35,,50,36,5,5,4,3,0.4,0.4
2024-07-30T0000,3538A,107.5175,26.2978,黔南布依族苗族自治州,沙坝,,10,7,7,3,2,32,,49,36,5,6,3,3,0.3,0.3
2024-07-30T0000,2589A,104.9022,25.0925,黔西南布依族苗族自治州,场坝街,,16,11,14,7,8,50,,61,53,4,6,3,5,0.2,0.2
2024-07-30T0000,2590A,104.8811,25.0992,黔西南布依族苗族自治州,坪东大道,,19,19,17,7,7,44,,62,49,3,5,4,5,0.3,0.3
2024-07-30T0000,2502A,108.6236,21.9667,钦州市,市环保站,,12,12,11,3,5,36,,62,47,8,10,6,6,0.5,0.6
2024-07-30T0000,2503A,108.6549,21.9481,钦州市,沙埠小学,,22,22,18,6,7,30,,65,45,12,10,5,6,0.5,0.5
2024-07-30T0000,2504A,108.5989,21.7431,钦州市,港区一小,,24,24,23,6,9,33,,60,42,16,13,8,8,0.5,0.6
2024-07-30T0000,3404A,108.5959,21.9633,钦州市,北职校,,17,17,17,10,9,35,,66,48,10,9,6,6,0.6,0.6
2024-07-30T0000,1042A,119.5134,39.8207,秦皇岛市,北戴河环保局,颗粒物(PM10),51,51,48,22,15,60,,103,89,5,11,2,3,0.4,0.6
2024-07-30T0000,1043A,119.7493,40.0116,秦皇岛市,第一关,,43,43,50,21,34,6,,116,56,59,19,2,2,0.5,0.6
2024-07-30T0000,1044A,119.5897,39.9499,秦皇岛市,监测站,颗粒物(PM10),63,76,68,33,31,45,,127,72,43,19,4,4,0.6,0.9
2024-07-30T0000,1046A,119.5251,39.9041,秦皇岛市,建设大厦,,38,38,52,14,14,45,,119,78,29,12,1,1,0.4,0.7
2024-07-30T0000,3132A,119.610547,39.943889,秦皇岛市,文明里,颗粒物(PM10),57,63,42,14,26,41,,122,77,40,14,1,3,0.7,0.7
2024-07-30T0000,1307A,120.6659,36.2403,青岛市,仰口,,44,27,26,24,20,140,,123,123,9,13,5,5,0.0,0.1
2024-07-30T0000,1310A,120.4134,36.0658,青岛市,市南区东部子站,,38,31,33,12,11,121,,158,147,9,9,7,7,0.5,0.5
2024-07-30T0000,1311A,120.3664,36.1032,青岛市,四方区子站,,45,22,35,14,19,144,,175,161,9,13,11,11,0.7,0.7
2024-07-30T0000,1312A,120.2994,36.054,青岛市,市南区西部子站,,42,29,38,12,10,134,,153,148,11,14,7,7,0.6,0.6
2024-07-30T0000,1313A,120.4581,36.0858,青岛市,崂山区子站,,36,34,42,12,11,115,,153,143,13,12,8,8,0.6,0.5
2024-07-30T0000,1314A,120.1983,35.9608,青岛市,黄岛区子站,,44,31,34,17,19,138,,160,153,10,11,7,8,0.7,0.6
2024-07-30T0000,1315A,120.3999,36.3083,青岛市,城阳区子站,,45,31,40,17,18,143,,188,165,15,19,7,8,0.6,0.6
2024-07-30T0000,1966A,120.0405,35.8735,青岛市,黄岛区4号,,36,24,31,14,15,114,,135,130,13,13,5,7,0.6,0.6
2024-07-30T0000,3362A,120.5014,36.4034,青岛市,即墨2号,臭氧1小时,54,34,37,17,17,163,,159,159,8,15,6,7,0.6,0.6
2024-07-30T0000,3642A,120.3503,36.0736,青岛市,市北区南部,,42,29,31,14,16,134,,166,156,13,11,6,7,0.6,0.6
2024-07-30T0000,3643A,120.3948,36.1805,青岛市,李沧区北部,,46,46,44,24,23,129,,164,146,20,20,10,10,0.5,0.5
2024-07-30T0000,1702A,113.0426,23.691,清远市,环保大楼,,10,7,10,3,5,29,,54,,7,9,6,8,0.5,0.5
2024-07-30T0000,1703A,113.0208,23.7106,清远市,凤城街办,,12,12,12,8,8,28,,64,44,7,9,5,5,0.4,0.4
2024-07-30T0000,3025A,113.0477,23.6344,清远市,技师学院,,21,21,14,11,7,24,,77,54,24,15,10,5,0.4,0.5
2024-07-30T0000,3318A,112.9903,23.7403,清远市,清新太和,,10,8,11,6,6,31,,58,42,2,5,7,8,0.5,0.5
2024-07-30T0000,3455A,113.076,23.7198,清远市,清城东城,,14,14,14,6,6,34,,72,50,5,4,7,6,0.6,0.6
2024-07-30T0000,2661A,107.6325,35.7357,庆阳市,庆阳五中,,43,18,22,13,14,135,,138,124,4,6,4,4,0.4,0.4
2024-07-30T0000,2662A,107.6364,35.7067,庆阳市,市环保局,,45,,15,10,10,141,,142,128,5,7,5,5,0.5,0.4
2024-07-30T0000,1916A,103.7897,25.5035,曲靖市,环境监测站,,18,13,18,3,10,57,,95,71,8,10,1,3,0.6,0.7
2024-07-30T0000,1917A,103.8,25.5364,曲靖市,烟厂办公区,,17,10,17,8,11,54,,97,73,9,11,3,4,0.4,0.6
2024-07-30T0000,3376A,103.7947,25.462,曲靖市,南苑二区,,18,14,15,12,9,47,,95,70,10,10,4,5,0.7,0.7
2024-07-30T0000,3377A,103.7444,25.5261,曲靖市,曲靖师范学院,,21,21,19,14,14,45,,108,73,17,14,8,10,0.6,0.7
2024-07-30T0000,1264A,118.8692,28.9398,衢州市,环保大楼,,19,19,18,8,9,34,,97,51,20,15,2,2,0.3,0.4
2024-07-30T0000,1265A,118.8709,28.9666,衢州市,实验学校,,20,20,18,8,8,31,,96,53,20,12,4,3,0.4,0.3
2024-07-30T0000,1266A,118.8621,28.9808,衢州市,衢州学院,,21,21,17,8,7,33,,94,53,19,13,3,3,0.3,0.4
2024-07-30T0000,1611A,118.5819,24.9117,泉州市,涂山街,,34,34,32,20,14,19,,71,36,22,11,4,4,0.7,0.6
2024-07-30T0000,1612A,118.5972,24.8978,泉州市,津头埔,,32,32,29,21,12,20,,69,32,22,15,3,3,0.8,0.7
2024-07-30T0000,1613A,118.6663,24.9424,泉州市,万安,,32,32,27,14,11,17,,74,30,16,9,2,2,0.4,0.5
2024-07-30T0000,1614A,118.6117,24.9604,泉州市,清源山,,,,,,,,,,,,,,,,
2024-07-30T0000,3529A,118.6333,24.9264,泉州市,城华南路,,27,27,21,12,9,17,,51,22,13,9,2,2,0.4,0.4
2024-07-30T0000,2626A,88.8876,29.2718,日喀则市,日喀则监测站,臭氧1小时,75,25,18,8,8,180,,193,174,6,10,6,6,0.3,0.4
2024-07-30T0000,3726A,88.8781,29.2426,日喀则市,林业技术推广中心,,42,22,11,10,8,132,,187,163,13,10,6,6,0.5,0.5
2024-07-30T0000,1659A,119.471,35.4209,日照市,监测站,,27,27,38,17,20,80,,152,107,18,22,8,9,0.5,0.7
2024-07-30T0000,1660A,119.523,35.4216,日照市,市政府广场,,35,,42,24,19,48,,148,104,52,32,10,11,0.9,0.8
2024-07-30T0000,1661A,119.5587,35.4044,日照市,港务局,,48,48,50,14,18,80,,177,136,41,29,12,13,0.6,0.6
2024-07-30T0000,3507A,119.5328,35.4625,日照市,职业技术学院,,46,46,47,17,20,58,,170,125,36,22,10,11,0.7,0.7
2024-07-30T0000,3604A,119.3266,35.1044,日照市,岚山环保分局,,24,12,26,7,14,75,,149,110,12,10,7,8,0.6,0.6
2024-07-30T0000,1835A,111.1922,34.7752,三门峡市,市政府,,15,14,16,10,9,32,,79,44,17,9,6,7,0.6,0.6
2024-07-30T0000,1836A,111.1587,34.7942,三门峡市,开发区,,24,24,21,14,15,22,,78,32,15,13,7,8,0.5,0.5
2024-07-30T0000,1838A,111.143,34.7955,三门峡市,风景区,,,,,,,,,,,,,,,,
2024-07-30T0000,3039A,111.1911,34.7829,三门峡市,三门峡市第一小学,,14,13,14,6,6,42,,81,48,7,7,4,7,0.5,0.5
2024-07-30T0000,3598A,111.1,34.7167,三门峡市,富达温泉假日酒店,,24,24,15,16,13,41,,85,45,15,12,9,9,0.8,0.8
2024-07-30T0000,2324A,117.6211,26.2625,三明市,三钢,,24,24,18,14,16,6,,63,24,22,10,8,6,1.2,0.4
2024-07-30T0000,2325A,117.635,26.2714,三明市,三明二中,,17,17,16,8,7,10,,64,27,18,10,3,3,0.6,0.4
2024-07-30T0000,2326A,117.6028,26.2378,三明市,三元区政府,,23,23,20,13,8,12,,62,32,18,12,7,3,0.4,0.5
2024-07-30T0000,2327A,117.7275,26.3108,三明市,洋溪,,,,,,,,,,,,,,,,
2024-07-30T0000,1876A,109.5078,18.2489,三亚市,河东子站,,12,12,14,7,7,21,,48,40,20,9,3,3,0.4,0.4
2024-07-30T0000,1877A,109.4964,18.2681,三亚市,河西子站,,12,12,13,3,5,21,,49,37,20,13,3,3,0.3,0.3
2024-07-30T0000,3540A,109.7348,18.3443,三亚市,君悦子站,,9,6,19,6,9,24,,52,42,9,7,2,2,0.4,0.3
2024-07-30T0000,2624A,91.7608,29.2313,山南市,山南监测站,,46,6,12,3,5,146,,158,158,6,8,6,6,0.1,0.2
2024-07-30T0000,2625A,91.7706,29.2436,山南市,山南人民医院,,40,16,18,7,9,128,,152,150,12,12,6,6,0.1,0.2
2024-07-30T0000,1674A,116.6794,23.3667,汕头市,金平子站,,19,19,17,6,6,60,,67,66,10,8,6,6,0.8,0.8
2024-07-30T0000,1675A,116.7244,23.3633,汕头市,龙湖子站,,,18,17,3,5,50,,60,58,,,5,5,0.7,0.7
2024-07-30T0000,1676A,116.7258,23.2775,汕头市,濠江子站,细颗粒物(PM2.5),67,,18,48,23,54,,69,62,12,10,4,4,0.5,0.5
2024-07-30T0000,1677A,116.7519,23.4714,汕头市,澄海子站,,21,21,50,9,10,57,,55,55,9,9,3,3,0.6,0.5
2024-07-30T0000,1678A,116.6092,23.2539,汕头市,潮阳子站,,17,17,16,7,7,40,,52,51,11,5,5,4,0.6,0.6
2024-07-30T0000,3444A,116.454,23.2684,汕头市,潮南峡山,,25,25,19,12,9,42,,57,54,10,6,4,4,0.6,0.7
2024-07-30T0000,3624A,116.4069,23.2533,汕头市,潮南子站,,32,32,24,14,12,41,,57,56,11,7,7,7,0.7,0.7
2024-07-30T0000,1693A,115.3653,22.775,汕尾市,市环保局,,10,6,10,3,4,29,,28,28,9,11,6,6,0.4,0.4
2024-07-30T0000,1694A,115.3706,22.7898,汕尾市,市政府,,16,16,17,8,16,26,,27,26,9,8,7,7,0.4,0.4
2024-07-30T0000,1695A,115.3622,22.7925,汕尾市,新城中学,,11,8,12,3,4,33,,33,32,5,7,6,6,0.4,0.5
2024-07-30T0000,2645A,109.9154,33.8715,商洛市,监测站,,27,,13,8,13,86,,76,76,6,6,6,6,0.8,0.7
2024-07-30T0000,3045A,109.9643,33.8471,商洛市,商州区中学,,25,,20,3,16,78,,76,76,20,16,4,4,0.8,0.8
2024-07-30T0000,2408A,115.6702,34.4285,商丘市,环境监测站,,22,21,19,9,10,70,,89,88,6,5,3,3,0.3,0.3
2024-07-30T0000,2409A,115.6458,34.4045,商丘市,粮食局,,22,13,19,3,7,70,,88,86,7,6,4,4,0.1,0.1
2024-07-30T0000,2410A,115.6293,34.3948,商丘市,睢阳区环保局,,21,20,20,10,9,67,,84,83,8,6,5,4,0.4,0.4
2024-07-30T0000,3171A,115.6071,34.4465,商丘市,梁园区档案局,,23,23,18,10,10,69,,85,84,7,6,5,5,0.4,0.4
2024-07-30T0000,1141A,121.4,31.238,上海市,普陀,,24,24,21,3,6,18,,106,69,20,12,14,9,0.3,0.3
2024-07-30T0000,1142A,121.478,31.2036,上海市,十五厂,,19,19,19,7,10,23,,102,67,17,14,7,10,0.3,0.3
2024-07-30T0000,1143A,121.467,31.3008,上海市,虹口,,20,20,19,11,11,23,,106,69,14,11,7,8,0.4,0.4
2024-07-30T0000,1144A,121.412,31.1654,上海市,徐汇上师大,,20,20,18,6,10,19,,107,67,23,16,6,6,0.5,0.4
2024-07-30T0000,1145A,121.536,31.2659,上海市,杨浦四漂,,19,19,20,6,9,27,,111,71,13,12,7,6,0.2,0.3
2024-07-30T0000,1147A,121.425,31.2261,上海市,静安监测站,,21,21,20,3,9,21,,108,70,18,13,8,9,0.4,0.4
2024-07-30T0000,1148A,121.703,31.1907,上海市,浦东川沙,,18,18,17,8,6,22,,99,60,17,12,6,6,0.6,0.6
2024-07-30T0000,1149A,121.533,31.2284,上海市,浦东新区监测站,,20,20,16,3,7,24,,97,65,14,12,5,5,0.5,0.5
2024-07-30T0000,1150A,121.577,31.2071,上海市,浦东张江,,18,18,16,6,10,22,,90,61,16,13,5,5,0.4,0.5
2024-07-30T0000,3265A,121.4316,31.3322,上海市,宝山庙行,,20,20,24,9,9,28,,114,78,15,11,10,12,0.5,0.5
2024-07-30T0000,3266A,121.8791,31.4662,上海市,崇明上实东滩,,15,15,13,3,6,27,,81,44,12,12,7,7,0.4,0.4
2024-07-30T0000,3268A,121.3162,31.2838,上海市,嘉定南翔,,20,20,18,8,8,17,,99,64,23,18,6,7,0.4,0.4
2024-07-30T0000,3269A,121.3359,30.7456,上海市,金山新城,,16,16,17,7,11,27,,101,56,11,10,7,8,0.4,0.4
2024-07-30T0000,3270A,121.4996,31.0739,上海市,闵行浦江,,16,16,14,6,8,24,,99,65,19,14,6,6,0.1,0.2
2024-07-30T0000,3271A,121.2886,31.1663,上海市,青浦徐泾,,21,21,19,7,9,22,,109,72,19,13,6,6,0.5,0.5
2024-07-30T0000,3272A,121.2186,31.0378,上海市,松江图书馆,,20,20,18,8,8,23,,111,71,18,11,6,6,0.6,0.6
2024-07-30T0000,3273A,121.3902,31.2059,上海市,长宁仙霞,,21,21,20,8,9,22,,106,70,20,14,12,9,0.4,0.4
2024-07-30T0000,3274A,121.7965,31.0507,上海市,浦东惠南,,23,23,20,13,7,19,,90,50,17,12,8,8,0.5,0.5
2024-07-30T0000,3544A,121.4891,30.925,上海市,奉贤南桥新城,,16,16,15,6,7,22,,97,57,17,14,7,7,0.4,0.4
2024-07-30T0000,2381A,118.005,28.4572,上饶市,百草园,,25,,15,17,9,67,,73,73,2,5,1,3,0.5,0.6
2024-07-30T0000,2382A,117.9756,28.4436,上饶市,市监测站,,22,17,18,10,8,68,,73,73,5,6,4,4,0.5,0.5
2024-07-30T0000,2383A,117.9519,28.4628,上饶市,凤凰光学,,18,16,16,10,8,57,,71,70,6,7,4,6,0.8,0.8
2024-07-30T0000,3413A,118.1953,28.4401,上饶市,广丰区教体局,,17,17,12,6,6,49,,63,63,8,4,14,7,0.6,0.6
2024-07-30T0000,3685A,117.897,28.4315,上饶市,双创科技城,,22,22,19,10,8,62,,67,67,3,6,5,5,0.6,0.6
2024-07-30T0000,1669A,113.5824,24.7733,韶关市,市八中,,12,12,16,3,6,17,,43,26,4,4,7,11,0.4,0.4
2024-07-30T0000,1671A,113.5917,24.7972,韶关市,园林处,,9,9,11,3,4,26,,41,30,2,4,8,10,0.4,0.5
2024-07-30T0000,1672A,113.6735,24.7791,韶关市,韶关学院,,7,7,11,3,3,22,,38,32,6,6,8,11,0.4,0.4
2024-07-30T0000,1673A,113.5971,24.6863,韶关市,曲江监测站,,20,20,19,3,9,8,,45,28,13,8,8,9,0.6,0.7
2024-07-30T0000,3622A,113.5556,24.8082,韶关市,碧湖山庄,,12,12,14,3,6,16,,48,29,4,3,8,11,0.5,0.6
2024-07-30T0000,2462A,111.5239,27.3033,邵阳市,市水土所,,11,11,16,7,9,7,,63,30,6,5,7,6,0.4,0.4
2024-07-30T0000,2463A,111.4733,27.2317,邵阳市,市一中,,14,12,14,8,8,43,,72,57,5,4,12,9,0.6,0.6
2024-07-30T0000,2464A,111.5283,27.2442,邵阳市,市化工厂,,13,12,12,3,7,39,,70,54,7,6,10,8,0.6,0.6
2024-07-30T0000,2465A,111.4503,27.2537,邵阳市,市罐头厂,,15,10,18,8,10,45,,70,57,6,6,6,3,0.4,0.4
2024-07-30T0000,2466A,111.4328,27.2272,邵阳市,市环保局,,14,,16,7,9,43,,68,56,5,4,8,6,0.1,0.2
2024-07-30T0000,1247A,120.6053,29.9928,绍兴市,城东开发委,,15,13,10,3,6,46,,66,62,7,7,5,5,0.4,0.4
2024-07-30T0000,2921A,120.5483,30.0003,绍兴市,树下王站,,16,11,11,7,8,51,,66,63,7,5,4,4,0.4,0.4
2024-07-30T0000,3408A,120.5683,29.9361,绍兴市,绍兴中专,,18,12,11,8,6,55,,73,70,6,5,3,3,0.4,0.4
2024-07-30T0000,3409A,120.4906,30.0861,绍兴市,柯桥区政府,,22,22,13,7,6,52,,71,63,3,8,6,6,0.5,0.4
2024-07-30T0000,3410A,120.8752,30.0249,绍兴市,重华小学,,15,15,12,6,6,47,,79,70,4,4,8,9,0.5,0.5
2024-07-30T0000,3411A,120.8369,30.0137,绍兴市,上虞中学,,20,20,14,7,6,38,,75,62,12,8,8,7,0.4,0.4
