timepoint,stationcode,longitude,latitude,area,positionname,primarypollutant,aqi,pm10,pm10_24h,pm2_5,pm2_5_24h,o3,o3_24h,o3_8h,o3_8h_24h,no2,no2_24h,so2,so2_24h,co,co_24h
2024-07-30T0900,2566A,102.1879,31.914,阿坝藏族羌族自治州,州农科所,,27,27,31,3,10,15,,21,19,8,14,6,6,0,0
2024-07-30T0900,2568A,102.2502,31.8896,阿坝藏族羌族自治州,马师校,,25,,14,17,17,15,,16,15,13,14,4,4,0.4,0.4
2024-07-30T0900,3994A,102.2165,31.9024,阿坝藏族羌族自治州,马尔康中学西区,,,19,16,9,12,,,21,19,7,8,4,4,,0.3
2024-07-30T0900,2695A,80.292,41.1694,阿克苏地区,电视台,,32,26,43,22,24,70,,79,79,18,20,4,5,0.5,0.5
2024-07-30T0900,2696A,80.2613,41.1551,阿克苏地区,艺术中心,,31,31,46,20,18,58,,77,77,16,22,4,3,0.6,0.6
2024-07-30T0900,2204A,105.6467,38.8363,阿拉善盟,西城区西花园,,49,33,36,18,18,156,,130,130,7,7,9,8,0.7,0.7
2024-07-30T0900,2205A,105.6985,38.8411,阿拉善盟,蒙二幼,,45,29,31,13,15,143,,116,116,8,9,8,8,0.7,0.7
2024-07-30T0900,2206A,105.724,38.8516,阿拉善盟,环保局新楼,,47,25,28,12,13,148,,126,126,7,7,8,8,0.5,0.5
2024-07-30T0900,2708A,88.1264,47.8517,阿勒泰地区,市站,,22,19,26,3,7,68,,69,69,13,13,7,7,0.6,0.7
2024-07-30T0900,2630A,80.1161,32.5,阿里地区,阿里监测站,,27,19,18,7,7,84,,148,140,43,10,6,6,0.4,0.3
2024-07-30T0900,3192A,80.0903,32.5028,阿里地区,阿里藏医院,,30,22,18,3,3,96,,139,134,19,8,6,6,0.3,0.3
2024-07-30T0900,2642A,109.0318,32.6537,安康市,香溪洞,,24,,7,3,3,76,,77,77,4,3,5,5,0.4,0.4
2024-07-30T0900,2643A,109.0281,32.6939,安康市,安康市监测站,,22,19,14,10,9,70,,68,68,7,5,5,5,0.6,0.5
2024-07-30T0900,2644A,109.0072,32.6975,安康市,汉滨区检察院,,23,23,14,6,8,54,,59,59,9,5,6,6,0.7,0.5
2024-07-30T0900,2291A,117.0809,30.5177,安庆市,环科院,,21,21,17,12,11,48,,13,13,26,24,8,7,0.6,0.5
2024-07-30T0900,2292A,117.0331,30.5119,安庆市,马山宾馆,,27,27,16,13,8,29,,12,12,43,21,11,10,0.6,0.4
2024-07-30T0900,2294A,116.9896,30.6145,安庆市,安庆大学,,,29,16,14,10,41,,20,20,,11,,11,0.6,0.4
2024-07-30T0900,3173A,117.0598,30.5351,安庆市,市人大,颗粒物(PM10),60,69,22,14,12,39,,16,16,28,16,8,8,0.5,0.3
2024-07-30T0900,3122A,105.9606,26.2611,安顺市,伍家关,,,,,,,,,,,,,,,,
2024-07-30T0900,3123A,105.9408,26.2431,安顺市,凤凰山,,19,7,12,3,8,58,,59,58,3,4,6,6,0.4,0.5
2024-07-30T0900,3124A,105.9439,26.2564,安顺市,金钟山,,20,6,9,3,9,63,,61,61,2,4,6,5,0.5,0.5
2024-07-30T0900,3125A,105.8983,26.2481,安顺市,娄家坡,,19,,7,3,8,60,,59,59,5,4,6,6,0.5,0.5
2024-07-30T0900,1818A,114.4839,36.0621,安阳市,棉研所,,,,,,,,,,,,,,,,
2024-07-30T0900,1819A,114.3551,36.1017,安阳市,红庙街,,,44,15,8,6,62,,43,43,1,2,,2,,0.4
2024-07-30T0900,1820A,114.361,36.0681,安阳市,银杏小区,,,28,14,,5,63,,43,43,2,2,3,3,0.5,0.5
2024-07-30T0900,3141A,114.3922,36.0878,安阳市,信访局,,24,24,13,8,4,71,,48,48,2,2,1,1,0.8,0.8
2024-07-30T0900,3669A,114.4705,36.0637,安阳市,左辅环卫站,,23,,4,8,8,71,,43,43,2,3,4,4,0.5,0.4
2024-07-30T0900,3703A,114.2917,36.0949,安阳市,安钢职工学校,,26,26,14,13,9,64,,42,42,2,3,5,5,0.5,0.5
2024-07-30T0900,1748A,123.044,41.1196,鞍山市,深沟寺,,32,32,45,15,31,62,,45,44,18,13,5,3,1.4,1.2
2024-07-30T0900,1749A,123.011,41.0931,鞍山市,太阳城,,26,26,47,17,30,57,,42,41,14,9,3,4,1.6,1.3
2024-07-30T0900,1750A,123.0485,41.1442,鞍山市,太平,,31,31,53,17,38,64,,54,52,29,20,9,5,1.5,1.5
2024-07-30T0900,1751A,122.9642,41.0971,鞍山市,铁西三道街,,36,36,49,23,31,72,,51,51,28,15,4,2,1.6,1.5
2024-07-30T0900,1752A,122.9341,41.0833,鞍山市,铁西工业园区,,35,35,44,23,33,64,,46,46,11,8,3,2,1.7,1.5
2024-07-30T0900,1753A,123.022,41.0821,鞍山市,明达新区,,,27,41,,,73,,53,53,12,11,6,4,1.2,1.2
2024-07-30T0900,1754A,123.1289,41.0228,鞍山市,千山,,,,,,,,,,,,,,,,
2024-07-30T0900,2195A,107.4212,40.761,巴彦淖尔市,附二中,,40,39,39,28,25,101,,86,86,14,14,12,4,0.6,0.6
2024-07-30T0900,2196A,107.37,40.7372,巴彦淖尔市,市环保大楼,,,,65,,18,,,97,97,8,12,4,4,0.5,0.6
2024-07-30T0900,1956A,86.1472,41.7538,巴音郭楞蒙古自治州,孔雀公园,,43,43,53,25,15,80,,96,96,27,25,10,8,0.3,0.5
2024-07-30T0900,1957A,86.1972,41.7166,巴音郭楞蒙古自治州,棉纺厂,,48,48,59,16,18,88,,91,90,18,21,7,6,0.3,0.3
2024-07-30T0900,1958A,86.2357,41.7173,巴音郭楞蒙古自治州,经济开发区,,48,48,49,28,20,94,,105,103,8,10,5,5,0.2,0.2
2024-07-30T0900,2914A,106.7677,31.8794,巴中市,苏山坪,,15,12,25,9,15,46,,37,36,4,6,4,4,0.5,0.6
2024-07-30T0900,3182A,106.7656,31.8545,巴中市,丽阳花园,,,,27,,18,,,22,22,,11,,3,0.6,0.6
2024-07-30T0900,3183A,106.7418,31.8654,巴中市,圣泉水务公司,,15,13,23,9,17,47,,24,24,7,12,4,4,0.6,0.7
2024-07-30T0900,3616A,106.7616,31.8344,巴中市,市中心医院,,16,16,26,10,18,40,,26,26,8,10,3,3,0.6,0.6
2024-07-30T0900,2235A,122.7911,45.6077,白城市,洮北区环保局,,50,,14,35,8,57,,38,38,9,8,8,8,0.4,0.3
2024-07-30T0900,2236A,122.8738,45.5725,白城市,市环保局,,26,26,22,11,5,63,,39,39,8,8,6,4,0.4,0.4
2024-07-30T0900,2231A,126.4219,41.9171,白山市,喜丰,,35,35,24,20,10,56,,25,25,16,9,12,8,1.2,1
2024-07-30T0900,2232A,126.4077,41.9419,白山市,环保局,,36,36,27,17,13,60,,24,24,10,7,10,9,1.0,0.8
2024-07-30T0900,2647A,104.1724,36.5446,白银市,第三小学,,30,30,37,18,14,71,,80,76,18,12,39,16,0.9,0.7
2024-07-30T0900,2648A,104.1465,36.5482,白银市,动力公司,,28,28,23,17,12,73,,78,76,18,12,33,12,1.3,0.9
2024-07-30T0900,2512A,106.6103,23.9011,百色市,市监测站,,27,27,23,11,12,20,,35,30,12,11,7,7,0.8,0.7
2024-07-30T0900,2513A,106.6538,23.8859,百色市,市中心血站,,37,37,25,17,16,30,,40,36,15,12,10,7,0.8,0.7
2024-07-30T0900,3406A,106.6085,23.8798,百色市,祈福高中,,27,27,21,9,14,23,,,,17,12,7,4,0.9,0.8
2024-07-30T0900,2270A,117.396,32.939,蚌埠市,工人疗养院,,27,27,22,7,5,62,,47,47,5,3,7,8,0.2,0.3
2024-07-30T0900,2271A,117.3605,32.9427,蚌埠市,百货大楼,,32,32,25,11,7,63,,48,48,5,3,7,10,0.3,0.4
2024-07-30T0900,2273A,117.4185,32.8911,蚌埠市,蚌埠学院,,21,19,18,3,6,66,,37,37,3,6,7,7,0.3,0.3
2024-07-30T0900,2274A,117.3533,32.9673,蚌埠市,淮上区政府,,,24,21,7,9,64,,47,47,6,4,,8,0.4,0.4
2024-07-30T0900,2275A,117.3145,32.8977,蚌埠市,高新区,颗粒物(PM10),52,53,27,13,9,63,,41,41,8,8,9,10,0.6,0.5
2024-07-30T0900,3715A,117.3092,32.9314,蚌埠市,蚌埠田家炳中学,,,,26,,10,61,,41,41,,4,12,14,0.5,0.5
2024-07-30T0900,1585A,109.8756,40.6532,包头市,市环境监测站,,26,,27,13,12,83,,82,82,19,25,8,11,0.7,0.8
2024-07-30T0900,1587A,109.9991,40.5842,包头市,包头八中,,24,,33,14,15,76,,85,84,18,24,13,12,0.7,0.7
2024-07-30T0900,1588A,109.8538,40.6821,包头市,青山宾馆,,,,21,9,12,66,,87,85,,21,,11,0.6,0.6
2024-07-30T0900,1589A,109.8642,40.6288,包头市,惠龙物流,,29,,26,6,11,92,,90,90,13,20,13,15,0.6,0.7
2024-07-30T0900,1590A,110.0377,40.5546,包头市,东河鸿龙湾,,29,11,28,6,10,91,,90,90,9,21,6,11,0.6,0.8
2024-07-30T0900,3283A,109.9154,40.5685,包头市,滨河大厦,,32,,32,6,14,101,,80,80,12,25,7,8,0.7,0.8
2024-07-30T0900,3419A,109.9447,40.6261,包头市,包头市委党校,,25,6,25,3,10,80,,83,83,23,25,7,9,0.8,0.6
2024-07-30T0900,3683A,109.8331,40.6576,包头市,昆区政府,,26,10,25,10,13,83,,88,88,18,19,6,10,0.9,0.9
2024-07-30T0900,1930A,107.185,34.3063,宝鸡市,庙沟村,,25,25,21,11,13,56,,86,78,7,6,5,5,0.3,0.3
2024-07-30T0900,1931A,107.0708,34.3017,宝鸡市,竹园沟,,26,26,24,12,13,49,,46,44,9,11,4,4,0.6,0.6
2024-07-30T0900,1932A,107.1906,34.3672,宝鸡市,三陆医院,,40,40,30,18,15,34,,26,26,14,22,10,8,0.5,0.5
2024-07-30T0900,1933A,107.1431,34.3547,宝鸡市,监测站,,,,,,,,,,,,,,,,
2024-07-30T0900,1934A,107.1186,34.3739,宝鸡市,技工学校,,26,24,26,18,18,35,,46,42,13,13,9,8,0.6,0.6
2024-07-30T0900,1935A,107.3906,34.3528,宝鸡市,陈仓区环保局家属楼,,31,31,26,18,14,32,,54,46,21,18,8,7,0.6,0.4
2024-07-30T0900,1936A,107.2058,34.3497,宝鸡市,文理学院,,42,42,37,11,16,32,,50,45,19,19,4,3,0.3,0.3
2024-07-30T0900,1937A,107.2386,34.3622,宝鸡市,三迪小学,颗粒物(PM10),52,53,32,17,15,32,,46,42,21,18,9,8,0.5,0.4
2024-07-30T0900,1051A,115.493,38.8632,保定市,游泳馆,,24,12,29,3,8,74,,66,66,2,5,7,6,0.0,0.1
2024-07-30T0900,1052A,115.5213,38.8959,保定市,华电二区,,21,19,26,6,9,67,,69,69,3,7,5,4,0.1,0.4
2024-07-30T0900,1053A,115.4713,38.9108,保定市,接待中心,,23,10,26,3,7,72,,64,64,3,6,3,3,0.2,0.2
2024-07-30T0900,1054A,115.4612,38.8416,保定市,地表水厂,,22,15,34,3,8,68,,62,62,2,8,1,1,0.5,0.6
2024-07-30T0900,3581A,115.31981,38.95208,保定市,满城区生态环境分局,,22,9,23,3,8,70,,61,61,8,10,1,2,0.1,0
2024-07-30T0900,3582A,115.47694,38.76408,保定市,清苑区第二中学,,24,24,26,12,18,70,,64,64,6,4,2,2,0.3,0.3
2024-07-30T0900,3583A,115.62909,39.02311,保定市,徐水物探局,,21,6,19,3,5,66,,62,62,5,7,3,3,0.1,0.2
2024-07-30T0900,4004A,115.4202,38.8656,保定市,双鹰农机,,,6,21,,9,86,,82,82,4,8,7,6,,0.2
2024-07-30T0900,4034A,115.5150,38.8590,保定市,植保所站,,27,7,19,3,10,84,,81,81,3,6,3,4,0.1,0.1
2024-07-30T0900,2594A,99.1678,25.1081,保山市,市环境监测站,,24,24,23,12,11,21,,12,12,11,12,6,7,0.5,0.4
2024-07-30T0900,2595A,99.1711,25.1328,保山市,市环保局,,17,17,25,7,8,30,,20,20,7,8,5,6,0.3,0.3
2024-07-30T0900,1866A,109.2262,21.588,北海市,牛尾岭水库,,,,,,,,,,,,,,,,
2024-07-30T0900,1867A,109.1436,21.4086,北海市,海滩公园,,17,12,14,3,3,54,,54,54,2,4,3,3,0.4,0.5
2024-07-30T0900,1868A,109.0981,21.4661,北海市,新市环保局,,15,6,7,3,4,48,,52,51,8,5,2,2,0.6,0.6
2024-07-30T0900,1869A,109.1778,21.5233,北海市,北海工业园,,17,13,11,7,5,53,,45,45,5,6,4,4,0.5,0.5
2024-07-30T0900,3400A,109.1911,21.4415,北海市,龙潭自来水厂,,17,6,8,3,4,52,,51,51,4,4,5,6,0.5,0.5
2024-07-30T0900,1001A,116.3621,39.8784,北京市,万寿西宫,,11,6,25,3,14,34,,35,33,14,12,3,3,0.6,0.6
2024-07-30T0900,1002A,116.2202,40.2915,北京市,定陵,,,,26,2,19,38,,16,16,2,6,3,3,0.4,0.5
2024-07-30T0900,1003A,116.4174,39.9289,北京市,东四,,15,6,27,3,14,45,,45,43,15,14,1,2,0.7,0.5
2024-07-30T0900,1004A,116.4072,39.8863,北京市,天坛,,14,6,24,3,14,42,,32,32,13,12,3,3,0.5,0.5
2024-07-30T0900,1005A,116.462,39.9365,北京市,农展馆,,14,6,27,3,15,43,,33,33,12,13,3,3,0.5,0.4
2024-07-30T0900,1006A,116.3392,39.9295,北京市,官园,,14,6,28,3,15,43,,47,44,13,10,2,2,0.5,0.4
2024-07-30T0900,1007A,116.2878,39.9611,北京市,海淀万柳,,13,,26,3,15,41,,42,40,14,12,2,2,0.5,0.4
2024-07-30T0900,1008A,116.6636,40.135,北京市,顺义新城,,16,6,31,3,15,51,,36,36,5,14,3,3,0.4,0.4
2024-07-30T0900,1009A,116.6275,40.3275,北京市,怀柔镇,,19,11,36,3,18,60,,38,38,2,8,3,3,0.4,0.5
2024-07-30T0900,1010A,116.2296,40.217,北京市,昌平镇,,14,6,36,3,17,43,,29,29,6,11,3,3,0.4,0.5
2024-07-30T0900,1011A,116.3966,39.9821,北京市,奥体中心,,14,,25,3,13,42,,41,38,13,13,3,3,0.5,0.4
2024-07-30T0900,1012A,116.184,39.9136,北京市,古城,,19,,30,3,14,58,,42,42,10,14,3,3,0.1,0.2
2024-07-30T0900,3281A,115.9718,40.4529,北京市,延庆夏都,,38,33,40,26,24,52,,56,53,6,7,3,3,0.4,0.5
2024-07-30T0900,3417A,117.0709,40.1465,北京市,平谷新城,,,,30,3,16,49,,37,37,4,10,3,3,0.7,0.5
2024-07-30T0900,3418A,116.8336,40.4095,北京市,密云新城,,21,20,37,13,22,66,,36,36,2,7,3,3,0.5,0.4
2024-07-30T0900,3671A,116.088,39.9726,北京市,门头沟三家店,,,,,,,,,,,,,,,,
2024-07-30T0900,3672A,116.1541,39.8204,北京市,丰台云岗,,,,21,,12,53,,34,34,4,9,2,4,0.3,0.4
2024-07-30T0900,3673A,116.6804,39.9081,北京市,通州东关,,,,22,2,12,45,,31,31,5,8,1,3,3.3,0.6
2024-07-30T0900,3674A,115.9577,39.7603,北京市,房山燕山,,19,6,27,3,14,60,,39,39,2,8,3,3,0.3,0.4
2024-07-30T0900,3675A,116.4672,39.7733,北京市,大兴旧宫,,12,,21,3,12,38,,32,32,8,9,3,3,0.6,0.5
2024-07-30T0900,3694A,115.986,40.4563,北京市,延庆石河营,,33,33,35,22,23,39,,45,42,7,8,3,3,0.5,0.5
2024-07-30T0900,3695A,116.6151,40.3053,北京市,怀柔新城,,17,,30,3,19,53,,35,35,3,12,3,3,0.5,0.6
2024-07-30T0900,3696A,116.2545,39.8768,北京市,丰台小屯,,,,26,0,14,43,,30,30,5,8,5,6,0.4,0.4
2024-07-30T0900,3697A,116.84,40.3844,北京市,密云镇,,39,37,35,27,20,37,,33,31,11,9,3,2,0.8,0.5
2024-07-30T0900,1761A,123.8275,41.3064,本溪市,大峪,颗粒物(PM10),53,56,49,34,24,65,,47,47,27,16,8,7,1.5,1.2
2024-07-30T0900,1762A,123.7567,41.3325,本溪市,溪湖,细颗粒物(PM2.5),52,52,42,36,27,59,,52,52,25,10,6,6,1.9,1.1
2024-07-30T0900,1763A,123.7169,41.3094,本溪市,彩屯,,40,35,41,28,33,66,,45,45,16,15,6,5,1.1,1
2024-07-30T0900,1764A,123.7669,41.2864,本溪市,东明,颗粒物(PM10),52,54,52,29,28,71,,57,57,19,19,4,4,0.9,1.3
2024-07-30T0900,1765A,123.7992,41.2664,本溪市,新立屯,,25,,37,17,19,77,,35,35,8,12,3,3,1.1,1.1
2024-07-30T0900,1766A,123.8142,41.3472,本溪市,威宁,细颗粒物(PM2.5),59,,24,42,21,31,,12,12,18,15,8,8,1.5,1.1
2024-07-30T0900,2587A,105.2864,27.3125,毕节市,八中,,15,11,10,10,9,46,,58,56,9,6,4,4,0.4,0.4
2024-07-30T0900,2588A,105.31,27.2944,毕节市,师专,,14,,11,9,9,44,,49,48,10,6,5,4,0.5,0.5
2024-07-30T0900,3537A,105.3631,27.3533,毕节市,长征村,,38,35,15,26,10,52,,61,59,9,6,6,5,0.6,0.5
2024-07-30T0900,1629A,118.0018,37.3617,滨州市,第二水厂,,,,23,,17,,,45,43,8,9,2,2,0.7,0.7
2024-07-30T0900,1630A,117.9776,37.393,滨州市,北中新校,,31,31,29,9,16,83,,50,50,8,8,5,4,0.5,0.5
2024-07-30T0900,3514A,117.9378,37.3956,滨州市,中海酒店,,28,27,24,17,17,89,,64,64,12,12,6,6,0.7,0.8
2024-07-30T0900,3515A,117.9378,37.3553,滨州市,开发区一中,,28,27,26,19,18,84,,48,48,20,16,5,4,0.7,0.6
2024-07-30T0900,3516A,118.0917,37.694,滨州市,金海六路,,46,46,25,12,13,76,,50,50,20,10,6,3,0.7,0.6
2024-07-30T0900,4028A,117.9956,37.3753,滨州市,滨州市西街道办事处,,30,27,23,17,18,94,,58,58,9,9,5,3,0.6,0.6
2024-07-30T0900,2311A,115.8072,33.8399,亳州市,污水处理厂,,18,17,10,12,6,55,,33,33,12,11,1,2,0.5,0.5
2024-07-30T0900,2312A,115.7789,33.8518,亳州市,三国揽胜宫,,22,22,15,7,5,63,,39,39,8,8,2,1,0.5,0.4
2024-07-30T0900,3332A,115.7633,33.8034,亳州市,亳州学院,,19,12,5,10,8,59,,33,33,8,9,3,2,0.4,0.4
2024-07-30T0900,2693A,82.0485,44.8556,博尔塔拉蒙古自治州,市党校,,38,38,28,8,11,61,,90,85,10,9,7,7,0.3,0.4
2024-07-30T0900,2694A,82.0806,44.8969,博尔塔拉蒙古自治州,市环保局,,35,35,27,13,13,73,,96,95,13,13,7,6,0.6,0.9
2024-07-30T0900,1071A,116.8842,38.2991,沧州市,沧县城建局,,20,14,13,13,8,61,,49,49,8,9,1,2,0.2,0.1
2024-07-30T0900,1072A,116.8584,38.3254,沧州市,电视转播站,,25,18,18,17,10,61,,44,44,9,7,3,3,0.3,0.2
2024-07-30T0900,1073A,116.8709,38.3228,沧州市,市环保局,,20,18,16,13,11,62,,53,52,8,8,2,2,0.3,0.2
2024-07-30T0900,3324A,116.8136,38.3004,沧州市,河北水利电力学院,,31,31,14,3,6,55,,44,44,11,10,6,5,0.3,0.3
2024-07-30T0900,2622A,97.1806,31.1273,昌都市,昌都监测站,,17,17,15,8,8,39,,46,45,8,8,9,9,0.5,0.5
2024-07-30T0900,3719A,97.1714,31.1406,昌都市,昌都会议中心,,17,17,15,9,8,45,,52,50,7,4,7,6,0.4,0.3
2024-07-30T0900,2690A,88.1236,43.8886,昌吉回族自治州,天山天池,,22,15,18,12,8,69,,78,76,5,6,7,8,0.5,0.6
2024-07-30T0900,2692A,87.2717,44.0297,昌吉回族自治州,新区政务中心,颗粒物(PM10),87,124,40,29,17,61,,56,56,16,22,12,11,0.5,0.6
2024-07-30T0900,3613A,87.3095,44.0142,昌吉回族自治州,亚心广场,颗粒物(PM10),108,166,62,31,17,66,,65,65,23,30,10,11,0.3,0.4
2024-07-30T0900,1119A,125.3325,43.9166,长春市,食品厂,,23,23,27,3,10,64,,29,29,23,25,2,2,0.6,0.6
2024-07-30T0900,1120A,125.2863,43.9027,长春市,客车厂,,23,15,21,3,9,72,,33,33,13,17,2,2,0.2,0.3
2024-07-30T0900,1121A,125.2841,43.8463,长春市,邮电学院,,21,18,21,6,7,66,,20,20,13,16,6,6,0.4,0.4
2024-07-30T0900,1122A,125.3716,43.8772,长春市,劳动公园,,25,25,21,6,6,70,,24,24,16,18,1,2,0.6,0.6
2024-07-30T0900,1123A,125.3297,43.8805,长春市,园林处,,,13,16,6,5,,,28,28,15,14,3,3,0.4,0.4
2024-07-30T0900,1124A,125.4605,43.79,长春市,净月潭,,19,19,16,3,5,53,,15,15,9,7,4,4,0.3,0.3
2024-07-30T0900,1125A,125.7194,43.515,长春市,甩湾子,,,,,,,,,,,,,,,,
2024-07-30T0900,1126A,125.3863,43.8447,长春市,经开区环卫处,,24,24,20,7,6,48,,13,13,27,22,2,2,0.5,0.5
2024-07-30T0900,1127A,125.245,43.7783,长春市,高新区管委会,,18,16,17,9,8,56,,19,19,14,16,3,3,0.5,0.5
2024-07-30T0900,1128A,125.1761,43.8325,长春市,岱山公园,,18,17,17,6,6,55,,21,21,14,15,3,2,0.3,0.3
2024-07-30T0900,1335A,113.0833,28.2325,长沙市,经开区环保局,,17,17,14,3,5,31,,21,21,8,8,9,7,0.3,0.4
2024-07-30T0900,1336A,112.8872,28.2189,长沙市,高开区环保局,,,15,14,,7,38,,30,30,8,6,10,6,0.7,0.5
2024-07-30T0900,1337A,113.0792,28.2053,长沙市,马坡岭,,16,16,14,8,5,35,,22,22,6,8,4,3,0.5,0.5
2024-07-30T0900,1338A,112.9394,28.19,长沙市,湖南师范大学,,20,20,16,8,7,36,,25,25,6,7,9,6,0.9,0.7
2024-07-30T0900,1339A,113.0178,28.1322,长沙市,雨花区环保局,,12,11,12,3,5,38,,28,28,2,4,3,3,0.2,0.2
2024-07-30T0900,1340A,112.9792,28.2597,长沙市,伍家岭,,19,19,16,3,7,37,,26,26,4,6,4,2,0.8,0.7
2024-07-30T0900,1341A,113.0014,28.1944,长沙市,火车新站,,,6,17,3,4,,,26,25,4,7,,4,0.5,0.5
2024-07-30T0900,1342A,112.9844,28.1178,长沙市,天心区环保局,,17,14,14,7,6,52,,42,42,4,7,4,3,0.5,0.5
2024-07-30T0900,1343A,112.8908,28.1308,长沙市,湖南中医药大学,,18,18,16,8,6,40,,24,24,6,8,11,5,1.0,0.6
2024-07-30T0900,1344A,112.9581,28.3611,长沙市,沙坪,,11,6,10,3,6,35,,21,21,6,9,8,6,0.5,0.4
2024-07-30T0900,1727A,113.1147,36.1547,长治市,清华站,,23,14,9,7,2,73,,70,70,4,5,4,3,0.2,0.2
2024-07-30T0900,1728A,113.1031,36.1989,长治市,监测站,,22,12,11,3,2,70,,66,66,7,8,6,6,0.6,0.7
2024-07-30T0900,1730A,113.0886,36.2125,长治市,审计局,,20,13,8,3,2,62,,62,62,4,3,3,3,0.3,0.3
2024-07-30T0900,1731A,113.0844,36.1856,长治市,长治八中,,21,15,9,9,5,65,,65,65,8,7,4,4,0.2,0.3
2024-07-30T0900,2845A,113.1569,36.1911,长治市,德盛苑,,22,14,10,7,4,69,,65,65,3,4,8,8,0.6,0.6
2024-07-30T0900,3568A,113.06,36.0464,长治市,向阳小学,,,,32,,18,,,72,72,5,7,12,11,0.5,0.7
2024-07-30T0900,3569A,112.8792,36.3144,长治市,屯留一中,,37,37,26,3,9,70,,70,70,5,7,7,7,0.2,0.2
2024-07-30T0900,3570A,113.235,36.3489,长治市,潞城四中,,24,18,12,6,7,75,,67,67,5,9,3,4,0.3,0.6
2024-07-30T0900,1854A,111.6975,28.9703,常德市,市二中,,13,11,12,9,7,29,,34,32,8,6,7,7,0.5,0.4
2024-07-30T0900,1857A,111.7158,29.1456,常德市,白鹤山,,,,,,,,,,,,,,,,
2024-07-30T0900,3138A,111.7153,29.0289,常德市,武陵区永安,,18,18,15,11,9,33,,36,34,21,8,17,13,0.6,0.6
2024-07-30T0900,3139A,111.6892,28.9881,常德市,鼎城区玉霞,,19,16,15,13,10,31,,32,30,11,9,5,5,0.5,0.4
2024-07-30T0900,3140A,111.6625,29.0531,常德市,武陵区长庚,,16,16,15,8,13,36,,39,37,15,7,10,17,0.5,0.4
2024-07-30T0900,1196A,119.9633,31.762,常州市,市监测站,,31,31,25,12,13,69,,41,41,12,14,6,6,0.3,0.3
2024-07-30T0900,1200A,119.9468,31.7069,常州市,武进监测站,,,23,20,7,11,74,,43,43,7,9,,5,0.5,0.5
2024-07-30T0900,1201A,119.9255,31.9087,常州市,安家,,33,33,29,15,14,65,,34,34,14,16,7,7,0.4,0.4
2024-07-30T0900,3002A,119.9805,31.8174,常州市,行政中心,,30,30,23,10,14,63,,40,40,12,14,3,3,0.5,0.6
2024-07-30T0900,3003A,120.0522,31.7748,常州市,经开区,,27,27,26,15,14,66,,39,39,10,11,12,9,1.1,0.7
2024-07-30T0900,3010A,119.9025,31.7964,常州市,钟楼,,34,34,27,6,11,70,,42,42,13,12,5,4,0.2,0.4
2024-07-30T0900,3429A,119.8598,31.7066,常州市,武进经发区,,27,27,27,12,11,64,,39,39,11,11,7,8,0.3,0.4
2024-07-30T0900,3430A,119.5826,31.7245,常州市,金坛城区,,37,37,27,11,13,78,,44,43,13,11,8,7,0.5,0.5
2024-07-30T0900,2220A,120.4318,41.5881,朝阳市,西梁,,,,33,24,11,,,19,18,26,14,11,9,0.8,0.5
2024-07-30T0900,2221A,120.4521,41.5646,朝阳市,河畔小区,,,55,69,,13,56,,28,28,13,12,7,6,0.9,0.8
2024-07-30T0900,2222A,120.4176,41.5648,朝阳市,八里堡,颗粒物(PM10),78,106,43,26,10,61,,24,24,16,16,3,2,1.0,0.7
2024-07-30T0900,2223A,120.3806,41.5969,朝阳市,农业园区,颗粒物(PM10),67,83,31,38,9,36,,15,15,21,11,8,6,0.8,0.4
2024-07-30T0900,1705A,116.6367,23.6719,潮州市,西园路,,28,28,21,7,9,28,,19,19,7,9,3,2,0.4,0.4
2024-07-30T0900,3026A,116.6183,23.6608,潮州市,市政府,,19,19,24,7,9,29,,25,25,3,7,4,5,0.5,0.5
2024-07-30T0900,4036A,116.6461,23.6761,潮州市,金山,,39,39,24,3,10,25,,11,11,5,6,4,4,0.5,0.6
2024-07-30T0900,2472A,113.0073,25.9061,郴州市,马头岭,,38,38,13,3,6,32,,28,28,6,4,11,8,0.3,0.2
2024-07-30T0900,2473A,113.0116,25.8226,郴州市,市职中,,15,15,9,8,6,23,,16,15,9,5,9,10,0.5,0.5
2024-07-30T0900,2474A,113.0161,25.8001,郴州市,兴隆步行街,,16,16,12,11,6,29,,24,23,7,5,11,10,0.5,0.5
2024-07-30T0900,2475A,113.0383,25.8071,郴州市,市审计局,,10,10,9,7,6,30,,18,18,6,6,9,5,0.3,0.3
2024-07-30T0900,2476A,113.0348,25.7759,郴州市,市环保局,,15,15,8,10,6,22,,25,24,14,7,14,8,0.5,0.4
2024-07-30T0900,1431A,103.9728,30.7236,成都市,金泉两河,,24,24,24,14,10,16,,11,10,25,14,2,1,0.5,0.4
2024-07-30T0900,1432A,104.176,30.6872,成都市,十里店,,,,22,,9,,,29,27,,20,,2,,0.5
2024-07-30T0900,1433A,104.079,30.5706,成都市,三瓦窑,,,27,26,23,16,,,23,21,31,24,3,1,0.5,0.4
2024-07-30T0900,1434A,104.1114,30.63,成都市,沙河铺,,,34,27,11,11,,,,,31,21,5,4,0.8,0.7
2024-07-30T0900,1437A,104.0786,30.6531,成都市,君平街,,17,17,24,3,10,30,,37,35,30,20,3,2,0.8,0.6
2024-07-30T0900,1438A,103.613,31.0283,成都市,灵岩寺,,,,,,,,,,,,,,,,
2024-07-30T0900,2880A,104.0239,30.65639,成都市,大石西路,,25,25,25,9,10,31,,26,24,21,19,4,4,0.5,0.4
2024-07-30T0900,3136A,104.2725,30.5589,成都市,龙泉驿区区政府,,17,17,17,7,10,41,,50,46,17,11,4,4,0.6,0.5
2024-07-30T0900,3357A,104.0106,30.6931,成都市,金博路,,24,24,16,3,9,4,,16,13,34,16,2,2,0.6,0.3
2024-07-30T0900,3359A,104.0578,30.5225,成都市,华阳,,32,24,25,22,20,22,,25,24,18,14,1,2,0.7,0.6
2024-07-30T0900,3487A,104.2394,30.5319,成都市,车城东七路,颗粒物(PM10),54,57,32,18,15,31,,43,38,21,11,3,2,0.8,0.6
2024-07-30T0900,3488A,104.3853,30.7453,成都市,青白江技师分院,,17,17,19,9,8,36,,23,20,21,23,3,2,0.5,0.5
2024-07-30T0900,3489A,104.0789,30.4072,成都市,科学城,,29,29,25,20,16,29,,40,36,14,12,3,2,0.7,0.6
2024-07-30T0900,4011A,103.8506,30.6947,成都市,光华大道三段,,38,38,24,26,9,20,,22,20,17,12,3,3,0.6,0.4
2024-07-30T0900,1062A,117.9531,40.9081,承德市,铁路,,27,27,30,10,16,36,,44,41,18,14,6,11,0.5,0.5
2024-07-30T0900,1063A,117.9392,40.9763,承德市,中国银行,,,22,32,3,15,29,,30,28,27,17,2,7,,0.4
2024-07-30T0900,1064A,117.9503,40.928,承德市,开发区,,25,25,32,10,15,31,,46,41,25,17,7,12,0.5,0.5
2024-07-30T0900,1065A,117.8051,40.9655,承德市,文化中心,,31,31,34,11,16,52,,48,46,19,15,4,11,0.5,0.4
2024-07-30T0900,1066A,117.9268,41.0026,承德市,离宫,,,,32,,20,,,93,,,7,,5,,0.4
2024-07-30T0900,2314A,117.47,30.6618,池州市,池州学院,,23,20,18,9,11,73,,38,38,6,7,7,7,0.6,0.6
2024-07-30T0900,3237A,117.4918,30.6617,池州市,展览馆,,23,19,18,12,9,72,,30,30,7,8,6,5,0.7,0.7
2024-07-30T0900,3333A,117.5627,30.695,池州市,第八中学,,27,27,21,12,11,71,,37,37,13,10,5,6,0.6,0.4
2024-07-30T0900,3334A,117.5038,30.6243,池州市,第十二中学,,24,24,24,13,13,60,,24,24,13,13,5,4,1.0,0.9
2024-07-30T0900,1744A,118.9233,42.2816,赤峰市,松山一中,,30,30,24,3,3,23,,22,22,32,21,8,11,0.6,0.6
2024-07-30T0900,1745A,118.9576,42.2728,赤峰市,哈达街,,31,31,17,3,5,20,,23,22,20,13,13,16,0.6,0.5
2024-07-30T0900,1746A,118.8788,42.2554,赤峰市,天义路,,17,17,11,6,9,32,,40,37,30,15,7,7,0.6,0.4
2024-07-30T0900,3058A,119.2658,42.0353,赤峰市,银河街,,,54,24,18,8,,,28,27,24,19,19,15,0.6,0.4
2024-07-30T0900,3286A,118.9359,42.3147,赤峰市,桥北物流园区,,19,18,14,13,7,20,,22,20,35,21,8,8,0.7,0.5
2024-07-30T0900,2521A,107.3476,22.4136,崇左市,市环保局江州分局,,25,25,19,15,9,27,,38,35,10,5,6,6,0.7,0.5
2024-07-30T0900,2522A,107.3702,22.3707,崇左市,城南新区,,22,22,16,14,9,24,,37,34,9,5,3,4,0.6,0.5
2024-07-30T0900,2298A,118.3093,32.3153,滁州市,老年大学,,30,28,21,16,12,96,,46,46,10,7,7,8,0.4,0.4
2024-07-30T0900,2299A,118.3244,32.2786,滁州市,人大宾馆,,39,39,25,15,13,103,,56,56,14,11,10,7,0.6,0.5
2024-07-30T0900,3207A,118.3118,32.3038,滁州市,市政府原办公楼,,30,26,20,17,14,93,,55,55,14,10,7,7,0.7,0.7
2024-07-30T0900,3331A,118.3267,32.2634,滁州市,图书馆,,33,33,23,11,13,102,,54,54,11,10,8,5,1.0,0.9
2024-07-30T0900,2605A,101.5482,25.0441,楚雄彝族自治州,州环境监测站,,23,,12,16,13,28,,44,40,16,12,4,6,0.9,0.8
2024-07-30T0900,2606A,101.538,25.0492,楚雄彝族自治州,市经济开发区,,13,12,14,9,10,27,,42,38,17,13,5,7,0.7,0.6
2024-07-30T0900,2548A,107.5277,31.2827,达州市,达州职业技术学院,,15,15,23,8,9,17,,18,18,14,15,4,4,0.5,0.6
2024-07-30T0900,2549A,107.5086,31.2186,达州市,市环境监测站,,13,10,26,3,10,20,,36,34,25,20,7,7,0.4,0.5
2024-07-30T0900,2550A,107.4988,31.2132,达州市,凤凰小区,,11,7,22,3,13,33,,43,43,18,16,7,8,0.5,0.6
2024-07-30T0900,2551A,107.5082,31.1986,达州市,达县机关宾馆,,14,7,26,7,14,21,,29,28,27,25,5,5,0.4,0.5
2024-07-30T0900,2552A,107.4644,31.2124,达州市,市政中心,,12,12,30,3,11,34,,43,41,20,16,8,9,0.5,0.6
2024-07-30T0900,2614A,100.1542,25.7054,大理白族自治州,大理市环境监测站,,17,9,20,7,11,53,,34,34,9,15,3,3,0.5,0.5
2024-07-30T0900,2615A,100.2171,25.5811,大理白族自治州,大理古城,,11,8,14,7,11,34,,44,42,17,10,6,6,0.5,0.5
2024-07-30T0900,1109A,121.612,38.9741,大连市,甘井子,,40,40,20,28,15,39,,55,50,43,21,8,7,0.5,0.4
2024-07-30T0900,1110A,121.565,38.9511,大连市,周水子,,49,,15,34,14,33,,47,44,39,22,8,7,0.7,0.6
2024-07-30T0900,1111A,121.5637,38.8845,大连市,星海三站,,,19,15,18,13,,,66,64,19,9,7,6,0.6,0.5
2024-07-30T0900,1112A,121.6302,38.9117,大连市,青泥洼桥,细颗粒物(PM2.5),57,44,16,40,14,46,,56,54,22,8,7,7,0.8,0.6
2024-07-30T0900,1113A,121.6251,38.8638,大连市,傅家庄,,29,21,16,20,13,43,,58,55,14,9,6,5,0.6,0.6
2024-07-30T0900,1114A,121.5213,38.8661,大连市,七贤岭,,,21,16,16,14,,,37,37,,11,,6,,0.4
2024-07-30T0900,1115A,121.2529,38.8061,大连市,旅顺,,35,29,15,24,13,60,,66,64,22,21,9,8,0.4,0.3
2024-07-30T0900,1116A,121.7485,39.1311,大连市,金州,,50,,19,35,20,27,,32,30,15,16,6,6,0.9,0.6
2024-07-30T0900,1117A,121.7811,39.0496,大连市,开发区,,39,35,38,27,19,37,,55,51,29,16,5,7,0.5,0.5
2024-07-30T0900,1118A,121.9762,39.0631,大连市,双D港,,29,29,25,11,16,44,,34,34,16,14,5,5,0.6,0.6
2024-07-30T0900,1789A,124.81117,46.03138,大庆市,大同区,,25,17,27,17,16,67,,32,32,8,12,8,8,0.4,0.3
2024-07-30T0900,1790A,125.129,46.533,大庆市,龙凤区,,40,40,28,9,9,86,,50,50,17,18,7,6,0.4,0.5
2024-07-30T0900,1791A,124.902,46.408,大庆市,红岗区,,32,21,23,9,13,100,,50,50,8,14,7,6,0.4,0.5
2024-07-30T0900,1792A,125.153,46.586,大庆市,萨尔图区,,30,20,21,19,10,94,,55,55,18,18,5,5,0.4,0.4
2024-07-30T0900,1793A,124.9042,46.6215,大庆市,让胡路区,,28,23,27,10,9,89,,51,51,14,13,6,6,0.3,0.3
2024-07-30T0900,3481A,125.141,46.634,大庆市,萨区政府监测点,,25,24,27,12,8,80,,54,54,22,16,7,7,0.7,0.3
2024-07-30T0900,1721A,113.3819,40.1097,大同市,果树场,,,,,,,,,,,,,,,,
2024-07-30T0900,1723A,113.2994,40.0758,大同市,云冈宾馆,,39,32,32,27,13,68,,87,84,18,13,7,7,0.6,0.5
2024-07-30T0900,1724A,113.3444,40.0917,大同市,大同大学,,31,31,23,10,12,74,,75,74,14,12,5,6,0.5,0.4
2024-07-30T0900,1725A,113.2661,40.1269,大同市,安家小村,,24,24,30,10,5,62,,62,62,21,14,8,9,0.9,0.7
2024-07-30T0900,1726A,113.2711,40.0844,大同市,教育学院,,23,23,26,15,12,58,,82,78,29,20,10,10,0.7,0.6
2024-07-30T0900,3282A,113.3397,40.0597,大同市,大同市卫生学校,,25,17,26,17,12,77,,92,91,15,13,6,7,0.8,0.6
2024-07-30T0900,3565A,113.1367,40.1122,大同市,云冈站,,35,,32,24,16,56,,43,42,16,16,8,11,0.6,0.6
2024-07-30T0900,3566A,113.1186,40.2556,大同市,图书馆,,26,,22,18,13,61,,59,59,17,12,16,10,0.9,0.6
2024-07-30T0900,3567A,113.5931,40.0461,大同市,区一中,,30,30,21,14,6,84,,70,70,15,11,4,5,0.5,0.4
2024-07-30T0900,3676A,113.2802,40.0995,大同市,第二人民医院,,38,38,36,15,12,60,,82,78,23,14,9,9,0.6,0.5
2024-07-30T0900,2269A,124.1069,50.4097,大兴安岭地区,科技局,,15,15,24,8,10,13,,8,8,2,5,3,3,0.1,0.1
2024-07-30T0900,3663A,124.1164,50.4278,大兴安岭地区,红旗社区,,17,17,15,11,15,12,,3,3,7,6,8,8,0.5,0.4
2024-07-30T0900,1600A,124.3303,40.0625,丹东市,江湾东路,,18,,8,11,7,57,,54,54,7,4,2,3,0.6,0.6
2024-07-30T0900,1601A,124.4256,40.1503,丹东市,临江后街,,25,17,11,17,10,56,,53,53,5,3,2,2,1.1,0.6
2024-07-30T0900,1602A,124.3933,40.1461,丹东市,元宝山,,18,12,12,10,7,57,,55,55,12,10,2,2,0.3,0.3
2024-07-30T0900,1603A,124.3633,40.1092,丹东市,民主桥,,19,11,11,6,7,59,,59,59,10,7,2,2,0.5,0.5
2024-07-30T0900,3541A,109.5726,19.5167,儋州市,第一中学子站,,18,18,14,8,5,15,,12,12,10,5,7,7,0.6,0.5
2024-07-30T0900,3542A,109.5567,19.5187,儋州市,东坡学校子站,,25,25,15,11,7,10,,12,11,12,5,8,5,0.7,0.6
2024-07-30T0900,2616A,98.5842,24.428,德宏傣族景颇族自治州,德宏州监测站,,18,18,18,6,7,14,,18,17,20,11,29,19,0.8,0.8
2024-07-30T0900,3677A,98.5881,24.4368,德宏傣族景颇族自治州,芒市人民政府综合楼,,10,10,19,6,7,14,,14,14,18,11,27,19,0.7,0.7
2024-07-30T0900,1901A,104.4239,31.1208,德阳市,东山公园,,24,24,26,9,9,28,,44,40,17,13,3,3,0.7,0.6
2024-07-30T0900,1902A,104.3826,31.1317,德阳市,西小区,,,,26,,13,30,,32,30,,22,5,3,,0.6
2024-07-30T0900,1904A,104.3553,31.1091,德阳市,耐火材料厂,,35,35,28,17,14,21,,23,20,32,19,5,4,0.8,0.6
2024-07-30T0900,3639A,104.4019,31.1244,德阳市,市教育局,,31,31,27,9,10,24,,38,35,32,18,4,3,0.8,0.6
2024-07-30T0900,1622A,116.3032,37.4674,德州市,儿童乐园,,25,22,15,12,9,78,,50,50,8,9,7,7,0.7,0.6
2024-07-30T0900,1624A,116.2991,37.4451,德州市,监理站,,,,11,,9,,,42,41,11,11,12,10,0.7,0.7
2024-07-30T0900,3066A,116.2721,37.4379,德州市,九衢泉纯净水厂,,29,29,15,12,10,70,,38,38,10,11,10,6,0.6,0.7
2024-07-30T0900,3371A,116.3728,37.4403,德州市,开发区人民医院,,24,24,17,9,8,69,,40,40,10,13,7,7,0.8,0.7
2024-07-30T0900,3372A,116.3572,37.4094,德州市,太阳城中学,,24,24,18,12,12,65,,34,34,9,12,9,7,0.8,0.6
2024-07-30T0900,3511A,116.5652,37.3319,德州市,陵城艺术中心,,23,22,20,3,8,72,,56,56,10,11,6,5,0.6,0.6
2024-07-30T0900,2621A,99.7056,27.8317,迪庆藏族自治州,迪庆州站,,20,20,15,9,7,54,,59,59,13,10,8,8,0.4,0.4
2024-07-30T0900,3180A,99.7136,27.8094,迪庆藏族自治州,质量技术监督局,,16,13,13,11,9,44,,57,56,23,11,8,7,0.8,0.7
2024-07-30T0900,2663A,104.6241,35.5734,定西市,东关小学,,24,24,29,14,16,39,,40,38,14,13,8,8,0.2,0.2
2024-07-30T0900,2664A,104.6194,35.5934,定西市,供电公司,,28,28,30,19,24,24,,29,27,22,16,5,6,0.4,0.3
2024-07-30T0900,1389A,113.7547,23.0494,东莞市,莞城梨川,,13,13,15,6,8,25,,19,19,15,17,10,10,0.6,0.6
2024-07-30T0900,1390A,113.7944,23.0128,东莞市,东城石井,,11,11,15,3,6,27,,14,14,11,18,5,5,0.7,0.6
2024-07-30T0900,1391A,113.7383,22.9658,东莞市,南城西平,,14,14,15,7,7,26,,13,13,15,18,4,4,0.7,0.6
2024-07-30T0900,3319A,113.7338,23.0381,东莞市,万江金泰,,14,14,15,3,6,23,,17,17,11,13,4,4,0.7,0.7
2024-07-30T0900,3626A,113.7533,23.0202,东莞市,南城元岭,,15,15,16,3,7,20,,14,14,11,14,5,5,0.6,0.6
2024-07-30T0900,3627A,113.7875,23.0457,东莞市,东城主山,,17,17,18,7,8,18,,12,12,13,14,6,6,0.7,0.7
2024-07-30T0900,1666A,118.6614,37.4309,东营市,市环保局,,31,31,25,14,16,73,,47,47,13,10,5,5,0.3,0.3
2024-07-30T0900,3036A,118.6904,37.4338,东营市,开发区管委会,,38,38,32,17,15,100,,63,63,17,12,7,6,0.2,0.3
2024-07-30T0900,3365A,118.5719,37.565,东营市,垦利区民丰路,,,39,28,,15,98,,64,64,15,10,6,6,0.5,0.5
2024-07-30T0900,3498A,118.5055,37.8612,东营市,河口城区,,39,39,20,17,13,119,,72,72,19,11,5,4,0.8,0.5
2024-07-30T0900,3646A,118.4978,37.4623,东营市,胜利站,颗粒物(PM10),53,55,32,22,16,106,,67,67,24,13,2,2,1.0,0.8
2024-07-30T0900,3734A,118.35,37.26,东营市,理想之城,,31,31,26,14,20,65,,36,36,12,9,8,8,0.7,0.7
2024-07-30T0900,1591A,110.0023,39.8129,鄂尔多斯市,综合楼,,29,29,39,14,13,87,,94,92,20,28,10,13,0.8,0.7
2024-07-30T0900,1592A,109.9486,39.8261,鄂尔多斯市,巴音孟克林场办事处,,,24,36,14,12,,,88,87,20,26,6,8,1.1,0.9
2024-07-30T0900,1593A,109.7736,39.5986,鄂尔多斯市,康泽苑,,25,24,31,17,13,80,,61,61,12,19,6,7,0.6,0.5
2024-07-30T0900,1594A,109.8119,39.5989,鄂尔多斯市,华泰汽车城,,28,24,28,19,16,74,,57,57,12,22,9,10,0.6,0.5
2024-07-30T0900,1595A,109.9734,39.7884,鄂尔多斯市,奥林花园,,26,24,35,17,15,81,,80,80,26,30,4,7,0.8,0.7
2024-07-30T0900,2436A,114.8938,30.3994,鄂州市,市政府,,27,27,21,7,4,48,,36,36,15,10,12,9,0.8,0.6
2024-07-30T0900,2437A,114.8989,30.3714,鄂州市,赵家坝,,34,34,20,10,5,45,,29,28,19,11,13,10,0.8,0.7
2024-07-30T0900,3654A,114.8094,30.4089,鄂州市,精准医疗中心,,,,21,,6,,,26,25,,13,,16,,1.1
2024-07-30T0900,2454A,109.4978,30.2981,恩施土家族苗族自治州,湖北民院,,20,20,13,8,5,18,,13,13,13,8,7,7,0.4,0.4
2024-07-30T0900,2455A,109.4707,30.2798,恩施土家族苗族自治州,州电力总公司,,12,12,12,7,6,16,,19,17,15,13,6,5,0.7,0.6
2024-07-30T0900,3549A,109.5061,30.3772,恩施土家族苗族自治州,龙凤新区,,14,14,11,3,3,12,,14,12,12,12,6,6,0.5,0.5
2024-07-30T0900,2499A,108.3411,21.6158,防城港市,沙万,,12,6,18,3,8,29,,44,42,23,17,8,9,0.5,0.6
2024-07-30T0900,2500A,108.3514,21.7731,防城港市,防城档案局,,12,,13,3,8,37,,35,35,17,12,6,6,1.0,0.8
2024-07-30T0900,2501A,108.3506,21.6414,防城港市,大海花园,,11,,16,3,5,35,,44,42,14,11,6,6,0.7,0.7
2024-07-30T0900,1371A,113.1294,23.0067,佛山市,湾梁,,,,8,10,11,,,6,6,19,23,7,7,0.9,0.9
2024-07-30T0900,1372A,113.1083,23.0478,佛山市,华材职中,,,7,10,6,7,,,4,4,,24,,6,,0.4
2024-07-30T0900,1373A,113.144,23.0453,佛山市,南海气象局,,29,29,18,6,8,18,,5,5,16,22,9,7,0.5,0.5
2024-07-30T0900,1374A,113.2881,22.8094,佛山市,顺德苏岗,,9,8,10,3,4,14,,4,4,18,22,6,6,0.6,0.5
2024-07-30T0900,1376A,112.8383,22.8678,佛山市,高明孔堂,,12,12,15,6,5,22,,9,9,14,18,6,6,0.6,0.6
2024-07-30T0900,1377A,112.8836,23.1588,佛山市,三水监测站,,14,14,11,8,8,17,,6,6,19,27,5,5,0.6,0.6
2024-07-30T0900,1378A,112.867,23.185,佛山市,三水云东海,,17,17,18,7,8,16,,4,4,15,22,4,4,0.6,0.6
2024-07-30T0900,3625A,113.2544,22.7642,佛山市,容桂街道办,,10,7,9,7,6,18,,8,8,20,25,5,5,0.7,0.6
2024-07-30T0900,1280A,119.3903,26.0543,福州市,鼓山,,,,,,,,,,,,,,,,
2024-07-30T0900,1282A,119.2681,26.0504,福州市,师大,,17,17,16,3,3,12,,8,8,4,6,4,4,0.4,0.3
2024-07-30T0900,1283A,119.2984,26.1028,福州市,五四北路,,26,26,13,3,3,18,,16,16,7,6,3,3,0.6,0.5
2024-07-30T0900,1284A,119.2648,26.0768,福州市,杨桥西路,,25,25,17,3,2,11,,10,10,7,7,3,3,0.5,0.5
2024-07-30T0900,1285A,119.317,26.0746,福州市,紫阳,,,,14,5,3,,,11,10,8,9,,3,0.3,0.3
2024-07-30T0900,3048A,119.5799,26.0936,福州市,九龙,,,,16,3,1,13,,12,12,3,3,5,5,0.5,0.4
2024-07-30T0900,3526A,119.5189,25.9664,福州市,吴航,,9,9,11,3,5,10,,10,10,6,3,5,4,0.5,0.3
2024-07-30T0900,1755A,123.7977,41.8491,抚顺市,望花区,颗粒物(PM10),63,75,40,37,31,84,,76,76,10,13,3,3,0.8,0.7
2024-07-30T0900,1756A,123.9161,41.8822,抚顺市,顺城区,细颗粒物(PM2.5),64,70,39,46,33,76,,80,80,16,16,2,2,1.7,0.9
2024-07-30T0900,1757A,124.0436,41.8611,抚顺市,东洲区,细颗粒物(PM2.5),77,78,44,56,36,68,,60,60,12,14,3,2,1.7,1.1
2024-07-30T0900,1758A,123.9247,41.8642,抚顺市,新抚区,颗粒物(PM10),58,66,39,40,29,81,,78,78,10,11,3,3,1.5,0.9
2024-07-30T0900,1759A,124.0972,41.8961,抚顺市,大伙房水库,,,,41,97,39,68,,66,66,12,12,2,3,1.9,1.2
2024-07-30T0900,1760A,123.7086,41.8391,抚顺市,沈抚新城,细颗粒物(PM2.5),62,51,37,44,32,68,,70,70,9,12,2,2,0.7,0.5
2024-07-30T0900,2376A,116.2127,28.0814,抚州市,桐源党溪,,21,21,22,11,8,42,,10,10,3,6,7,5,0.6,0.7
2024-07-30T0900,2377A,116.3544,27.9831,抚州市,市站,,28,28,21,10,8,47,,25,25,6,7,5,6,1.0,1
2024-07-30T0900,2378A,116.3565,27.963,抚州市,血防站,,15,15,22,10,7,39,,18,18,8,9,8,3,1.0,0.9
2024-07-30T0900,2379A,116.3564,28.0007,抚州市,采茶剧团,,18,18,18,8,7,38,,18,18,6,10,6,6,0.7,0.7
2024-07-30T0900,2380A,116.385,27.9647,抚州市,医学分院,,22,22,20,12,7,41,,21,21,7,10,4,4,0.9,0.9
2024-07-30T0900,2207A,121.6094,41.998,阜新市,工业园区,颗粒物(PM10),57,64,30,31,13,42,,19,19,21,17,12,5,0.9,0.6
2024-07-30T0900,2208A,121.6697,42.0279,阜新市,长青街,颗粒物(PM10),63,76,35,34,14,29,,14,13,31,15,7,5,1.1,0.7
2024-07-30T0900,2209A,121.6673,42.0705,阜新市,农业园区,细颗粒物(PM2.5),62,65,23,44,11,53,,32,32,22,14,8,5,0.9,0.6
2024-07-30T0900,2210A,121.6717,42.0224,阜新市,东苑,颗粒物(PM10),67,84,31,28,13,28,,20,18,33,18,6,8,1.4,0.9
2024-07-30T0900,2211A,121.6506,42.0498,阜新市,玉龙新城,颗粒物(PM10),64,77,30,32,14,43,,16,16,20,17,10,3,1.1,0.8
2024-07-30T0900,2301A,115.8277,32.8929,阜阳市,市监测站,,,,19,,7,51,,31,31,12,10,,5,0.4,0.3
2024-07-30T0900,2303A,115.8554,32.8605,阜阳市,开发区,,18,18,13,10,7,54,,34,34,10,8,6,5,0.3,0.3
2024-07-30T0900,2875A,115.784,32.8892,阜阳市,阜阳职业技术学院,,34,34,9,9,4,55,,38,38,11,7,6,6,0.4,0.4
2024-07-30T0900,3468A,115.7901,32.8613,阜阳市,市规划展馆,,30,30,20,14,9,52,,31,31,12,9,6,5,0.4,0.4
2024-07-30T0900,3469A,115.836,32.9183,阜阳市,枣园社区,,33,33,18,9,10,53,,31,31,10,9,3,3,0.5,0.4
2024-07-30T0900,2669A,102.9099,34.9841,甘南藏族自治州,州政府,,38,38,27,15,14,35,,18,18,16,14,10,9,0.6,0.4
2024-07-30T0900,3380A,102.8914,34.9617,甘南藏族自治州,甘肃民族师范学院,,37,37,25,15,12,27,,10,10,23,20,4,3,0.4,0.3
2024-07-30T0900,2570A,101.9603,30.0475,甘孜藏族自治州,水桥子,,19,19,8,10,7,15,,11,11,14,18,4,4,0.3,0.3
2024-07-30T0900,3065A,101.9533,29.9972,甘孜藏族自治州,州环保局,,24,24,12,8,6,12,,14,14,19,20,2,2,0.3,0.2
2024-07-30T0900,3414A,115.8347,28.932,赣江新区,桑海产业园,,17,17,26,10,8,42,,13,13,12,20,13,11,0.4,0.5
2024-07-30T0900,2362A,114.9017,25.9149,赣州市,通天岩,,,,,,,,,,,,,,,,
2024-07-30T0900,2363A,114.9367,25.8664,赣州市,地委,,26,26,17,10,7,25,,15,15,9,11,15,15,0.6,0.6
2024-07-30T0900,2364A,114.9461,25.8481,赣州市,气象台,,27,27,18,9,8,23,,11,11,12,12,12,12,0.8,0.8
2024-07-30T0900,2365A,114.9322,25.8333,赣州市,市图书馆,,20,20,14,7,5,27,,13,13,10,8,4,3,0.9,0.8
2024-07-30T0900,2366A,114.8905,25.8471,赣州市,华坚鞋城,,24,24,20,12,10,30,,14,14,11,10,21,28,0.6,0.5
2024-07-30T0900,3109A,115.0093,25.8613,赣州市,赣县区卫计委,,13,13,19,3,6,25,,20,20,12,13,8,8,0.7,0.7
2024-07-30T0900,2683A,106.2319,36.1417,固原市,马园,,,3,30,,9,101,,60,60,4,21,6,6,0.6,0.6
2024-07-30T0900,2684A,106.2792,36.0022,固原市,监测站,,32,32,23,13,16,67,,33,33,26,16,5,5,0.5,0.4
2024-07-30T0900,2685A,106.2375,36.0211,固原市,新区,,28,26,23,10,10,89,,38,38,16,16,6,6,0.4,0.5
2024-07-30T0900,3522A,106.2177,35.9959,固原市,原州区十五小,,36,20,23,12,14,114,,97,97,10,14,7,6,0.5,0.6
2024-07-30T0900,2543A,106.6308,30.5278,广安市,小平旧居,,,,,,,,,,,,,,,,
2024-07-30T0900,2544A,106.6303,30.4576,广安市,市委,,30,30,30,19,19,44,,59,56,14,9,3,4,0.5,0.4
2024-07-30T0900,2545A,106.6271,30.4663,广安市,友谊中学,,25,21,26,17,18,45,,64,62,18,11,4,5,0.5,0.4
2024-07-30T0900,2547A,106.6388,30.4551,广安市,广电花园,,32,32,27,19,16,37,,52,50,17,10,4,5,0.5,0.4
2024-07-30T0900,2902A,106.6351,30.4865,广安市,北辰小学,,23,23,27,15,17,46,,65,63,18,9,5,6,0.5,0.4
2024-07-30T0900,2523A,105.8945,32.4535,广元市,黑石坡,,15,15,13,3,6,29,,60,54,18,7,7,5,0.5,0.3
2024-07-30T0900,2524A,105.821,32.4444,广元市,老城,,24,24,17,3,8,20,,29,27,33,22,19,5,0.6,0.4
2024-07-30T0900,2526A,105.8628,32.4287,广元市,监测站,,19,19,14,9,10,34,,46,43,23,13,6,2,0.6,0.5
2024-07-30T0900,3617A,105.8047,32.4166,广元市,经开区,,32,32,26,12,12,23,,28,27,27,20,11,4,0.6,0.5
2024-07-30T0900,1345A,113.2347,23.1423,广州市,广雅中学,,12,12,15,6,8,24,,10,10,21,25,5,5,0.8,0.8
2024-07-30T0900,1346A,113.2612,23.105,广州市,市五中,,12,12,16,6,10,27,,14,14,16,22,6,4,0.6,0.6
2024-07-30T0900,1348A,113.3478,23.0916,广州市,广东商学院,,13,13,17,8,10,19,,9,9,24,26,8,5,0.6,0.5
2024-07-30T0900,1349A,113.4332,23.1047,广州市,市八十六中,,,17,18,7,8,,,13,13,22,27,8,4,0.5,0.5
2024-07-30T0900,1350A,113.3505,22.9483,广州市,番禺中学,,14,14,15,8,15,33,,14,14,16,21,2,3,0.5,0.5
2024-07-30T0900,1351A,113.2146,23.3916,广州市,花都师范,,16,16,19,7,10,17,,9,9,16,21,6,6,0.6,0.7
2024-07-30T0900,1352A,113.2597,23.1331,广州市,市监测站,,14,14,16,7,10,24,,9,9,18,24,6,5,0.6,0.6
2024-07-30T0900,1353A,113.5618,23.312,广州市,九龙镇镇龙,,16,16,16,7,8,12,,13,13,14,14,7,7,0.6,0.6
2024-07-30T0900,1354A,113.2765,23.1544,广州市,麓湖,,12,12,17,6,9,24,,7,7,16,25,5,5,0.6,0.6
2024-07-30T0900,1355A,113.443,23.3035,广州市,帽峰山森林公园,,8,6,8,3,5,23,,22,22,6,12,5,4,0.6,0.6
2024-07-30T0900,2846A,113.3221,23.1322,广州市,体育西,,17,17,21,7,10,18,,8,8,17,22,6,5,0.6,0.6
2024-07-30T0900,3298A,113.5717,23.5491,广州市,从化街口,,16,16,17,7,8,21,,6,6,12,12,5,6,0.6,0.5
2024-07-30T0900,3299A,113.3472,23.3692,广州市,白云竹料,,13,13,18,3,9,22,,11,11,12,19,5,4,0.6,0.6
2024-07-30T0900,3300A,113.2981,23.237,广州市,白云嘉禾,,10,7,15,3,7,30,,21,21,13,23,6,6,0.6,0.7
2024-07-30T0900,3301A,113.4256,23.1716,广州市,黄埔科学城,,11,11,15,6,8,27,,19,19,13,22,6,7,0.4,0.5
2024-07-30T0900,3302A,113.3942,23.0483,广州市,番禺大学城,,8,8,13,3,8,19,,6,6,15,22,6,6,0.8,0.8
2024-07-30T0900,3303A,113.4922,22.8168,广州市,南沙黄阁,,12,12,17,6,9,27,,12,12,15,23,6,6,0.1,0.4
2024-07-30T0900,3304A,113.5342,22.7896,广州市,南沙街,,9,9,15,6,7,24,,16,16,12,16,6,5,0.6,0.6
2024-07-30T0900,3443A,113.2902,23.5544,广州市,花都梯面,,15,15,14,7,6,15,,8,7,10,10,4,4,0.5,0.5
2024-07-30T0900,3445A,113.7858,23.7478,广州市,从化良口,,11,11,9,3,4,29,,21,21,5,5,5,5,0.5,0.6
2024-07-30T0900,3446A,113.8051,23.2614,广州市,增城荔城,,,15,14,7,6,20,,16,16,,9,,7,0.6,0.6
2024-07-30T0900,2505A,109.568,23.1478,贵港市,德智高中,,,,,,,,,,,,,,,,
2024-07-30T0900,2506A,109.6047,23.0666,贵港市,江南子站,,13,12,16,9,9,18,,18,18,6,8,8,8,0.5,0.5
2024-07-30T0900,2507A,109.6014,23.0948,贵港市,贵城子站,,34,34,22,13,11,13,,13,12,10,11,8,9,0.5,0.6
2024-07-30T0900,2508A,109.5669,23.1065,贵港市,荷城子站,,22,22,19,3,2,17,,21,20,7,7,9,10,0.4,0.3
2024-07-30T0900,3405A,109.5886,23.1172,贵港市,新世纪学校,,19,19,20,11,7,12,,18,16,11,9,8,10,0.6,0.5
2024-07-30T0900,1439A,106.6899,26.5998,贵阳市,马鞍山,,12,7,8,3,1,38,,48,46,8,6,6,4,0.4,0.5
2024-07-30T0900,1440A,106.6971,26.5694,贵阳市,市环保站,,18,12,8,12,8,31,,44,41,28,17,3,3,0.4,0.3
2024-07-30T0900,1441A,106.6243,26.6266,贵阳市,鉴湖路,,12,7,11,3,3,36,,49,47,13,8,5,6,0.3,0.3
2024-07-30T0900,1442A,106.7487,26.6343,贵阳市,燕子冲,,11,,4,3,7,34,,44,41,18,10,5,5,0.6,0.6
2024-07-30T0900,1443A,106.6555,26.4365,贵阳市,碧云窝,,14,14,11,3,1,30,,45,43,10,8,4,4,0.3,0.4
2024-07-30T0900,1444A,106.694,26.5161,贵阳市,中院村,,17,17,11,3,2,32,,47,45,26,15,3,3,0.6,0.4
2024-07-30T0900,1445A,106.7109,26.6027,贵阳市,红边门,,28,19,13,19,13,37,,51,48,20,15,4,4,0.5,0.5
2024-07-30T0900,1446A,106.7164,26.5699,贵阳市,新华路,,13,,4,9,8,31,,41,39,17,12,6,4,0.6,0.4
2024-07-30T0900,1447A,106.674,26.5424,贵阳市,太慈桥,,9,6,1,3,2,26,,32,31,12,10,5,6,0.3,0.3
2024-07-30T0900,1552A,106.805,26.3003,贵阳市,桐木岭,,,,,,,,,,,,,,,,
2024-07-30T0900,1862A,110.4144,25.3167,桂林市,电子科大尧山校区,,20,20,18,7,6,23,,20,20,4,4,10,5,0.5,0.5
2024-07-30T0900,1863A,110.2819,25.2697,桂林市,监测站,,29,29,23,12,11,12,,14,13,15,12,12,11,0.9,0.7
2024-07-30T0900,1864A,110.3089,25.2708,桂林市,龙隐路小学,,21,21,23,13,12,17,,14,14,10,10,19,14,0.6,0.6
2024-07-30T0900,1865A,110.2869,25.2178,桂林市,八中,,35,35,19,12,5,12,,16,15,14,10,16,8,0.9,0.7
2024-07-30T0900,3403A,110.1764,25.2381,桂林市,创业大厦,,36,36,21,22,14,6,,10,8,17,10,15,22,0.6,0.4
2024-07-30T0900,3531A,110.296,25.1253,桂林市,旅游学院,,12,12,6,3,3,17,,20,19,5,5,5,8,0.4,0.4
2024-07-30T0900,2674A,100.2561,34.4714,果洛藏族自治州,玛沁县大武镇,,28,19,26,3,10,89,,92,91,11,3,8,9,0.5,0.4
2024-07-30T0900,1129A,126.5422,45.755,哈尔滨市,岭北,,29,25,18,20,13,85,,43,43,16,16,8,8,0.6,0.6
2024-07-30T0900,1130A,126.561,45.8167,哈尔滨市,松北商大,,23,20,17,7,5,71,,23,23,14,19,8,7,0.5,0.5
2024-07-30T0900,1131A,126.979,45.5419,哈尔滨市,阿城会宁,,22,,21,15,9,53,,20,20,11,13,8,8,0.6,0.6
2024-07-30T0900,1132A,126.599,45.7222,哈尔滨市,南岗学府路,,29,29,27,14,7,77,,29,29,13,19,7,6,0.5,0.5
2024-07-30T0900,1133A,126.689,45.7733,哈尔滨市,太平宏伟公园,,26,16,24,11,9,83,,33,33,19,26,8,7,0.5,0.5
2024-07-30T0900,1134A,126.635,45.7667,哈尔滨市,道外承德广场,,,22,21,7,6,,,22,20,24,28,8,7,0.5,0.7
2024-07-30T0900,1135A,126.685,45.7319,哈尔滨市,香坊红旗大街,,27,24,32,10,14,84,,23,23,14,29,13,8,0.6,0.7
2024-07-30T0900,1136A,126.6411,45.7258,哈尔滨市,动力和平路,,24,,25,12,11,76,,25,25,17,26,10,7,0.6,0.6
2024-07-30T0900,1137A,126.593,45.7478,哈尔滨市,道里建国路,,25,22,26,8,9,77,,24,24,19,27,11,8,0.9,0.9
2024-07-30T0900,1138A,126.615,45.61,哈尔滨市,平房东轻厂,,23,21,27,9,7,71,,25,25,14,27,8,9,0.1,0.2
2024-07-30T0900,1139A,126.595,45.9855,哈尔滨市,呼兰师专,,25,18,20,6,6,77,,36,36,14,17,12,11,0.6,0.6
2024-07-30T0900,1140A,126.6206,45.6842,哈尔滨市,省农科院,,,25,21,10,11,,,16,16,10,28,8,7,0.4,0.4
2024-07-30T0900,2688A,93.5128,42.8172,哈密市,地区监测站,,46,46,43,17,14,98,,103,103,16,12,9,6,0.3,0.2
2024-07-30T0900,2689A,93.4961,42.8328,哈密市,哈密师范学校,颗粒物(PM10),58,66,43,18,13,60,,75,75,38,19,5,5,0.8,0.4
2024-07-30T0900,2671A,100.9048,36.9639,海北藏族自治州,海晏县西海镇,,20,,12,13,12,63,,70,69,19,10,13,12,0.4,0.4
2024-07-30T0900,3867A,102.0738,36.5056,海东市,平安区公安北苑,,35,35,25,22,10,44,,64,57,14,8,28,11,0.9,0.5
2024-07-30T0900,1409A,110.576,19.9507,海口市,东寨港,,,,,,,,,,,,,,,,
2024-07-30T0900,1410A,110.3232,20.0574,海口市,海南大学,,17,17,17,9,7,19,,27,27,11,13,4,5,0.5,0.4
2024-07-30T0900,1411A,110.283,20.0053,海口市,秀英海南医院,,20,20,16,11,8,14,,20,20,14,16,6,6,0.3,0.3
2024-07-30T0900,1412A,110.338,19.9969,海口市,海南师范大学,,24,24,15,10,8,16,,24,24,11,13,6,6,0.4,0.4
2024-07-30T0900,1413A,110.33,20.0356,海口市,龙华路环保局宿舍,,18,18,16,9,8,16,,25,25,13,14,7,7,0.4,0.4
2024-07-30T0900,3539A,110.5111,19.9736,海口市,桂林洋子站,,19,19,17,6,6,14,,17,17,8,12,6,6,0.3,0.3
2024-07-30T0900,2673A,100.6188,36.2866,海南藏族自治州,共和县恰卜恰镇,,27,27,55,16,9,82,,86,86,29,15,10,9,0.6,0.5
2024-07-30T0900,2676A,97.3731,37.3753,海西蒙古族藏族自治州,德令哈市,,40,16,19,9,11,128,,137,135,9,8,8,9,0.5,0.5
2024-07-30T0900,1048A,114.5302,36.6116,邯郸市,东污水处理厂,,23,11,11,3,1,72,,43,43,3,6,1,1,0.4,0.3
2024-07-30T0900,1049A,114.4918,36.5713,邯郸市,矿院,,21,9,11,7,4,67,,37,37,2,4,1,3,0.3,0.2
2024-07-30T0900,1050A,114.484,36.6133,邯郸市,丛台公园,,21,,10,3,5,65,,40,40,3,4,1,2,0.3,0.4
2024-07-30T0900,3458A,114.7895,36.5593,邯郸市,香泉濮院小区,,21,10,10,3,6,67,,45,45,1,3,1,1,0.2,0.2
2024-07-30T0900,3579A,114.50634,36.77178,邯郸市,永年区实验高中,,,12,14,9,9,,,40,38,2,3,1,2,0.4,0.5
2024-07-30T0900,3580A,114.20016,36.44293,邯郸市,峰峰矿区临水派出所,,20,18,13,6,2,64,,33,33,2,3,2,2,0.2,0.4
2024-07-30T0900,2634A,106.9893,33.1842,汉中市,汉川机床厂子校,,42,,35,29,15,45,,,,9,6,5,4,0.6,0.6
2024-07-30T0900,2635A,107.0154,33.0706,汉中市,市监测站,,30,30,28,15,17,42,,51,51,11,7,6,6,0.9,0.8
2024-07-30T0900,2636A,107.0089,33.1138,汉中市,鑫源开发区,,26,26,31,14,14,53,,40,40,10,12,9,12,0.6,0.7
2024-07-30T0900,2637A,107.007,33.0323,汉中市,南郑大河坎水厂,,33,33,27,18,18,30,,34,33,10,7,7,7,0.5,0.5
2024-07-30T0900,1223A,120.2072,30.2111,杭州市,滨江,,14,14,17,3,7,40,,26,26,6,8,3,4,0.6,0.6
2024-07-30T0900,1224A,120.0633,30.2747,杭州市,西溪,,14,13,15,3,7,43,,31,31,6,6,6,6,0.6,0.6
2024-07-30T0900,1226A,120.3461,30.3153,杭州市,下沙,,21,21,20,8,7,41,,28,28,10,15,5,6,0.4,0.5
2024-07-30T0900,1227A,120.1269,30.2456,杭州市,卧龙桥,,16,16,17,6,9,49,,32,32,10,11,6,5,0.5,0.5
2024-07-30T0900,1228A,120.1903,30.2692,杭州市,浙江农大,,,9,12,3,7,,,28,27,10,12,6,6,0.5,0.5
2024-07-30T0900,1230A,120.1197,30.3119,杭州市,和睦小学,,15,9,12,3,6,48,,36,36,10,9,6,5,0.6,0.6
2024-07-30T0900,1231A,120.3019,30.4183,杭州市,临平镇,,18,18,22,3,5,39,,28,28,8,12,5,5,0.4,0.4
2024-07-30T0900,1232A,120.2697,30.1819,杭州市,城厢镇,,15,15,16,6,8,43,,33,32,9,9,6,5,0.4,0.4
2024-07-30T0900,1233A,120.0883,30.1808,杭州市,云栖,,19,19,20,3,8,49,,21,21,10,13,7,7,0.5,0.5
2024-07-30T0900,3557A,119.9464,30.0494,杭州市,镇二中,,14,,22,6,10,42,,28,28,11,15,7,7,0.5,0.5
2024-07-30T0900,3558A,119.7183,30.2367,杭州市,市府大楼,,21,11,14,10,9,65,,34,34,13,14,5,5,0.5,0.5
2024-07-30T0900,3656A,120.1556,30.2864,杭州市,消防大队,,15,15,16,6,7,48,,32,32,7,8,7,7,0.5,0.5
2024-07-30T0900,1270A,117.1959,31.7848,合肥市,明珠广场,,29,29,21,9,11,58,,35,35,13,12,10,9,0.4,0.3
2024-07-30T0900,1271A,117.3072,31.8764,合肥市,三里街,,18,17,17,9,7,56,,25,25,15,21,6,6,0.4,0.4
2024-07-30T0900,1272A,117.2588,31.8707,合肥市,琥珀山庄,,27,27,20,3,5,67,,35,35,8,11,4,4,0.4,0.4
2024-07-30T0900,1273A,117.1604,31.9052,合肥市,董铺水库,,28,,16,19,9,58,,28,28,7,8,2,2,0.2,0.2
2024-07-30T0900,1274A,117.25,31.8571,合肥市,长江中路,,,22,25,9,10,,,32,31,,10,,6,,0.4
2024-07-30T0900,1275A,117.266,31.9436,合肥市,庐阳区,,21,14,18,12,11,67,,30,30,8,12,10,9,0.5,0.5
2024-07-30T0900,1276A,117.336,31.8586,合肥市,瑶海区,,22,22,22,12,8,56,,24,24,10,19,8,7,0.2,0.3
2024-07-30T0900,1277A,117.3027,31.7964,合肥市,包河区,,20,17,17,9,8,62,,38,38,4,8,8,7,0.4,0.4
2024-07-30T0900,1278A,117.2776,31.7385,合肥市,滨湖新区,,19,14,11,3,6,59,,43,43,6,6,8,8,0.3,0.2
2024-07-30T0900,1279A,117.1318,31.8403,合肥市,高新区,,22,22,15,10,8,56,,30,30,11,11,3,4,0.4,0.4
2024-07-30T0900,3464A,117.3803,31.9147,合肥市,高教基地,,19,13,15,3,6,60,,32,32,6,10,7,7,0.3,0.3
2024-07-30T0900,3614A,79.924,37.0877,和田地区,地区环保局,颗粒物(PM10),151,252,202,58,67,85,,86,86,8,11,9,9,0.4,0.4
2024-07-30T0900,3615A,79.9131,37.113,和田地区,市环保局,颗粒物(PM10),181,311,196,72,51,58,,38,38,56,62,16,9,0.5,0.5
2024-07-30T0900,2516A,108.2011,24.715,河池市,东仁乐园,,17,17,17,3,4,38,,31,31,9,8,4,4,0.6,0.5
2024-07-30T0900,2517A,108.0497,24.6947,河池市,市环保站,,16,16,13,11,11,29,,30,30,13,11,8,8,0.7,0.6
2024-07-30T0900,2518A,108.0983,24.6989,河池市,市疾控中心,,19,19,15,8,7,28,,26,26,15,16,7,7,0.5,0.5
2024-07-30T0900,1696A,114.6778,23.7569,河源市,源西,,13,13,13,3,7,16,,6,6,10,16,4,4,0.6,0.6
2024-07-30T0900,1697A,114.6944,23.7586,河源市,东埔,,23,23,11,8,6,20,,5,5,10,17,7,7,0.6,0.7
2024-07-30T0900,1698A,114.6892,23.7233,河源市,老城,,9,9,11,6,4,21,,8,8,4,11,4,4,0.4,0.5
2024-07-30T0900,1718A,115.4208,35.2464,菏泽市,气象局,,,,22,,7,,,50,49,,5,5,4,0.2,0.2
2024-07-30T0900,1719A,115.4747,35.2375,菏泽市,市政协,,23,23,18,12,11,67,,50,50,4,4,5,3,0.2,0.2
2024-07-30T0900,3374A,115.5564,35.0891,菏泽市,定陶老年大学,,20,19,16,3,1,64,,42,42,10,11,4,2,0.2,0.2
2024-07-30T0900,3647A,115.4702,35.2706,菏泽市,菏泽医专,,30,30,17,6,4,72,,61,60,6,5,4,3,0.3,0.3
2024-07-30T0900,2514A,111.5264,24.4172,贺州市,环保小区,,21,21,15,10,7,21,,24,23,13,11,9,7,0.7,0.5
2024-07-30T0900,2515A,111.5608,24.4078,贺州市,政协大楼,,33,33,18,13,8,17,,22,20,10,8,10,9,0.5,0.4
2024-07-30T0900,3534A,111.4744,24.4553,贺州市,西湾,,50,,11,35,7,16,,14,14,12,13,3,4,0.7,0.6
2024-07-30T0900,2385A,114.17,35.9019,鹤壁市,市监测站,,28,28,18,16,8,72,,58,58,8,7,3,2,0.7,0.7
2024-07-30T0900,2386A,114.2956,35.7511,鹤壁市,市交警支队,,23,23,14,3,13,54,,38,38,10,11,3,3,0.5,0.5
2024-07-30T0900,2387A,114.2878,35.7306,鹤壁市,迎宾馆,,,20,11,3,8,,,39,38,,12,3,3,0.8,0.8
2024-07-30T0900,3474A,114.2617,35.6822,鹤壁市,大新区,,,,15,,,,,56,,,12,,3,,0.4
2024-07-30T0900,3596A,114.1572,35.9603,鹤壁市,南山宾馆,,29,,6,20,15,65,,56,56,7,6,3,2,0.5,0.4
2024-07-30T0900,2244A,130.2537,47.3416,鹤岗市,哈啤分公司,,16,16,18,10,11,29,,20,20,3,5,27,15,0.3,0.4
2024-07-30T0900,2245A,130.2684,47.3086,鹤岗市,斯达机电,,14,14,16,6,8,31,,21,21,5,7,12,12,0.2,0.2
2024-07-30T0900,2246A,130.3114,47.3388,鹤岗市,东山纸板厂,,23,,14,16,13,29,,16,16,4,6,14,15,0.3,0.3
2024-07-30T0900,2247A,130.1097,47.3382,鹤岗市,五号水库,,10,6,6,3,4,32,,25,25,4,5,9,10,0.4,0.4
2024-07-30T0900,2263A,127.4833,50.2524,黑河市,交通局,,24,24,28,3,9,42,,17,17,12,11,7,7,0.4,0.3
2024-07-30T0900,2264A,127.5144,50.2341,黑河市,环保局,,12,10,23,7,11,36,,18,18,9,13,4,4,0.3,0.4
2024-07-30T0900,2265A,127.5291,50.2472,黑河市,大黑河岛,,,,11,10,14,,,,,8,14,1,1,,
2024-07-30T0900,1074A,115.6838,37.7541,衡水市,电机北厂,,20,14,21,3,7,63,,35,35,2,7,2,4,0.3,0.3
2024-07-30T0900,1075A,115.6303,37.7316,衡水市,市监测站,,23,21,12,3,4,71,,50,50,3,7,2,2,0.3,0.4
2024-07-30T0900,3188A,115.6683,37.7217,衡水市,市城管局,,21,,8,7,7,67,,41,41,4,7,2,2,0.3,0.3
2024-07-30T0900,3459A,115.5989,37.5491,衡水市,地表水厂,,22,12,15,6,3,68,,40,40,1,7,4,3,0.3,0.3
2024-07-30T0900,2456A,112.5003,26.9167,衡阳市,原169医院,,18,18,18,9,9,40,,20,20,6,12,12,11,0.4,0.5
2024-07-30T0900,2457A,112.6194,26.9258,衡阳市,衡阳化工总厂,,,25,20,,,34,,18,18,6,10,7,7,0.4,0.5
2024-07-30T0900,2458A,112.6211,26.8956,衡阳市,珠晖区环保局,,,17,17,,,38,,20,20,4,9,7,6,0.6,0.7
2024-07-30T0900,2459A,112.6197,26.8733,衡阳市,市委党校,,16,16,13,3,8,40,,23,23,4,7,5,4,0.5,0.6
2024-07-30T0900,2460A,112.6006,26.8919,衡阳市,市监测站,,15,15,20,6,9,39,,21,21,4,11,7,8,0.5,0.7
2024-07-30T0900,2461A,112.5664,26.9056,衡阳市,真空机电公司,,20,20,16,6,6,28,,17,17,11,10,13,8,1.2,0.7
2024-07-30T0900,3399A,112.6703,26.882,衡阳市,师范学院,,14,14,16,6,6,35,,20,20,6,8,8,8,0.5,0.5
2024-07-30T0900,2608A,103.3772,23.3993,红河哈尼族彝族自治州,污水处理厂,,18,,11,12,10,46,,52,52,4,5,5,6,0.4,0.4
2024-07-30T0900,2609A,103.3861,23.35,红河哈尼族彝族自治州,监测站,,15,,12,10,11,48,,40,40,8,7,8,17,0.4,0.4
2024-07-30T0900,3038A,103.3758,23.368,红河哈尼族彝族自治州,州图书馆,,20,20,9,3,7,45,,48,48,6,5,5,5,0.5,0.4
2024-07-30T0900,1090A,111.6507,40.7517,呼和浩特市,呼市一监,,25,7,40,7,28,77,,55,55,14,20,6,8,0.6,0.6
2024-07-30T0900,1091A,111.6572,40.8033,呼和浩特市,小召,,20,,36,7,17,63,,67,67,21,28,7,8,0.8,0.8
2024-07-30T0900,1094A,111.7516,40.8369,呼和浩特市,如意水处理厂,,25,14,42,7,15,77,,68,68,32,41,6,7,0.6,0.6
2024-07-30T0900,1095A,111.7276,40.8062,呼和浩特市,二十九中,,28,,44,9,21,87,,64,64,15,28,3,5,0.8,0.8
2024-07-30T0900,1096A,111.5512,40.7866,呼和浩特市,工大金川校区,,19,,42,7,14,59,,69,68,32,34,4,7,0.7,0.6
2024-07-30T0900,1097A,111.717,40.7612,呼和浩特市,化肥厂生活区,,25,14,62,10,30,80,,64,64,20,24,6,7,1.0,0.8
2024-07-30T0900,3698A,111.5968,40.8178,呼和浩特市,红旗小学,,,,42,8,16,,,74,74,26,37,3,6,0.5,0.6
2024-07-30T0900,3699A,111.6518,40.8389,呼和浩特市,海东办,,20,,40,8,15,64,,71,70,27,31,4,7,0.7,0.7
2024-07-30T0900,2192A,119.7594,49.2261,呼伦贝尔市,区环保局,,22,19,23,15,16,39,,50,48,22,14,5,5,0.6,0.5
2024-07-30T0900,3061A,119.7512,49.1577,呼伦贝尔市,国华电力东,,,14,16,8,13,80,,47,47,6,5,,3,0.2,0.2
2024-07-30T0900,1250A,120.0751,30.8669,湖州市,城西水厂,,23,23,27,10,12,45,,31,31,15,15,4,4,0.4,0.4
2024-07-30T0900,2873A,120.0875,30.8955,湖州市,仁皇山新区,,18,18,24,10,12,49,,31,31,15,15,7,6,0.4,0.4
2024-07-30T0900,2907A,120.1844,30.8596,湖州市,吴兴区站,,23,23,24,13,13,46,,25,25,20,13,7,7,0.3,0.3
2024-07-30T0900,3562A,120.4148,30.8538,湖州市,南浔区站,,17,17,20,9,11,37,,24,24,7,10,5,4,0.3,0.3
2024-07-30T0900,1607A,120.9092,40.7136,葫芦岛市,龙港区,,44,44,54,17,29,69,,61,61,9,12,2,4,0.6,0.9
2024-07-30T0900,1608A,120.8392,40.7514,葫芦岛市,化工街,,25,19,43,17,29,49,,43,43,22,23,3,3,1.0,1.1
2024-07-30T0900,1609A,120.8341,40.7073,葫芦岛市,新区,,29,22,46,20,30,56,,49,49,14,17,3,3,0.6,0.8
2024-07-30T0900,1610A,120.8695,40.7677,葫芦岛市,东城区,,31,31,48,21,32,76,,75,75,22,25,4,10,0.7,0.9
2024-07-30T0900,2482A,109.5981,27.5721,怀化市,林科所,,15,12,9,7,5,47,,30,30,6,6,6,4,0.6,0.6
2024-07-30T0900,2483A,109.9453,27.5444,怀化市,河西地税局,,29,24,15,20,8,22,,11,11,11,8,8,8,0.6,0.5
2024-07-30T0900,2484A,109.9781,27.5342,怀化市,市四医院,,38,38,17,20,10,16,,9,9,15,11,4,3,1.0,0.8
2024-07-30T0900,2485A,109.9972,27.5578,怀化市,监测楼,,20,20,16,10,9,23,,11,11,8,9,7,7,0.8,0.8
2024-07-30T0900,2486A,110.0394,27.583,怀化市,市委党校,,25,25,14,9,6,19,,8,8,9,8,23,9,0.6,0.5
2024-07-30T0900,1210A,119.036,33.5981,淮安市,钵池山,,39,36,25,22,16,123,,101,99,20,12,7,6,0.9,0.8
2024-07-30T0900,1211A,119.007,33.575,淮安市,北京南路,,,,28,,19,,,88,83,21,12,,8,0.6,0.6
2024-07-30T0900,1212A,118.989,33.6067,淮安市,市监测站,颗粒物(PM10),52,53,29,34,20,113,,94,92,24,17,8,8,0.7,0.7
2024-07-30T0900,1213A,119.135,33.5039,淮安市,楚州区监测站,颗粒物(PM10),56,61,41,23,19,111,,68,68,21,20,7,7,0.7,0.6
2024-07-30T0900,1214A,119.0186,33.6297,淮安市,淮阴区监测站,颗粒物(PM10),57,63,34,25,17,123,,103,101,23,15,8,8,0.7,0.6
2024-07-30T0900,3426A,118.8755,33.2894,淮安市,新华书店,,49,49,26,28,17,113,,82,82,19,15,6,6,0.6,0.6
2024-07-30T0900,2282A,116.8004,33.975,淮北市,监测站,,20,18,20,10,9,61,,39,39,8,8,6,5,0.5,0.4
2024-07-30T0900,2283A,116.8091,33.9007,淮北市,烈山区政府,,21,21,22,7,10,53,,34,34,7,9,8,7,0.3,0.3
2024-07-30T0900,3330A,116.8873,33.9836,淮北市,杜集区检察院,,38,38,27,12,11,55,,39,39,11,8,8,7,0.5,0.5
2024-07-30T0900,4017A,116.7923,33.9535,淮北市,市博物馆,,,24,20,12,11,,,39,36,9,10,5,4,0.5,0.5
2024-07-30T0900,2277A,116.8305,32.7727,淮南市,潘集区政府,,29,29,18,12,9,50,,31,31,18,11,7,5,0.5,0.4
2024-07-30T0900,2278A,117.0067,32.6524,淮南市,师范学院,,25,25,19,8,9,58,,45,45,10,5,8,8,0.1,0.4
2024-07-30T0900,2279A,116.8569,32.5951,淮南市,谢家集区政府,,15,12,15,3,6,48,,27,27,19,13,6,6,0.1,0.1
2024-07-30T0900,2280A,116.8281,32.633,淮南市,八公山区政府,,29,29,24,12,9,49,,29,29,15,10,8,8,0.1,0.1
2024-07-30T0900,2281A,116.6325,32.6201,淮南市,焦岗湖风景区管理处,,12,,5,8,4,26,,18,18,14,12,6,5,0.1,0.1
2024-07-30T0900,2894A,117.0566,32.6531,淮南市,经济技术开发区消防队,,23,23,13,14,5,53,,34,34,13,9,5,4,0.3,0.3
2024-07-30T0900,3329A,117.0108,32.5893,淮南市,山南新区,,36,36,19,3,6,57,,35,35,12,8,6,5,0.4,0.3
2024-07-30T0900,2446A,114.9028,30.4742,黄冈市,职工中心,,35,35,23,16,11,48,,42,42,19,12,14,10,0.4,0.3
2024-07-30T0900,2929A,114.8858,30.4519,黄冈市,红卫路,,34,34,24,18,10,49,,41,41,19,13,18,10,0.4,0.3
2024-07-30T0900,3398A,114.9136,30.4445,黄冈市,市林业局,,32,32,22,16,12,47,,37,37,16,11,14,9,0.5,0.4
2024-07-30T0900,2672A,102.0199,35.5102,黄南藏族自治州,同仁县隆务镇,,26,11,28,6,8,83,,83,83,1,3,5,11,0.2,0.2
2024-07-30T0900,2295A,118.2903,29.6963,黄山市,延安路89号,,31,31,24,7,6,54,,24,24,9,6,5,4,0.5,0.4
2024-07-30T0900,2296A,118.327,29.7178,黄山市,黄山东路89号,,32,27,17,22,6,60,,23,23,8,6,7,6,0.4,0.4
2024-07-30T0900,2297A,118.1371,30.2756,黄山市,黄山区政府5号楼,,,14,12,13,9,,,12,12,,6,,6,0.3,0.3
2024-07-30T0900,2423A,115.0601,30.2313,黄石市,沈家营,,44,44,30,11,6,50,,16,16,23,23,36,36,0.7,0.5
2024-07-30T0900,2424A,115.0817,30.2006,黄石市,陈家湾,,35,35,26,13,6,56,,31,31,12,11,13,10,0.6,0.5
2024-07-30T0900,2426A,114.8988,30.2019,黄石市,铁山,,27,27,20,7,4,58,,37,37,15,11,16,12,0.5,0.4
2024-07-30T0900,2427A,115.0307,30.2092,黄石市,团城山,,32,32,21,10,6,61,,33,33,12,13,15,12,0.7,0.5
2024-07-30T0900,3149A,115.0235,30.1578,黄石市,笔架山北路,,32,32,24,3,5,52,,32,32,14,13,12,8,0.4,0.4
2024-07-30T0900,1392A,114.4183,23.0528,惠州市,河南岸金山湖子站,,12,12,11,3,5,29,,17,17,5,6,4,4,0.4,0.4
2024-07-30T0900,1393A,114.4053,23.0822,惠州市,下埔横江三路子站,,11,11,13,3,6,35,,19,19,5,8,6,7,0.4,0.5
2024-07-30T0900,1394A,114.4103,23.1142,惠州市,江北云山西路子站,,13,13,17,6,5,33,,16,16,1,6,4,4,0.5,0.5
2024-07-30T0900,1395A,114.4645,22.7833,惠州市,惠阳区承修路船湖子站,,11,8,8,3,4,33,,31,31,13,11,1,2,0.4,0.4
2024-07-30T0900,1396A,114.5317,22.7422,惠州市,大亚湾管委会子站,,12,11,10,3,4,37,,29,29,13,13,6,7,0.5,0.5
2024-07-30T0900,3314A,114.4338,22.8134,惠州市,惠阳秋长,,9,9,8,6,6,28,,26,26,8,7,4,5,0.6,0.6
2024-07-30T0900,3452A,114.6517,22.775,惠州市,大亚湾霞涌,,12,,8,7,4,36,,26,26,4,6,4,4,0.7,0.6
2024-07-30T0900,2240A,130.9762,45.3001,鸡西市,环保局,,18,18,17,7,6,28,,32,30,19,10,8,8,0.3,0.2
2024-07-30T0900,2243A,130.9429,45.3039,鸡西市,第一中学,,,,19,,6,,,27,25,13,11,5,4,0.3,0.3
2024-07-30T0900,3707A,131.0207,45.3073,鸡西市,欧美日汽修厂,,,20,21,10,8,,,22,20,21,13,4,4,0.6,0.6
2024-07-30T0900,3709A,130.9967,45.3106,鸡西市,市政设施管理处,,21,21,23,13,14,31,,25,24,24,21,7,7,0.5,0.4
2024-07-30T0900,2367A,114.9754,27.0803,吉安市,红声器材厂,,16,16,18,9,7,45,,30,30,6,8,15,14,0.5,0.5
2024-07-30T0900,2368A,114.9658,27.0999,吉安市,市森林工业局,,21,21,18,9,8,44,,30,30,8,8,13,12,0.2,0.3
2024-07-30T0900,2369A,114.99,27.1312,吉安市,市环境监测站,,,16,14,7,7,,,30,30,4,6,15,15,0.4,0.5
2024-07-30T0900,2370A,115.0093,27.0968,吉安市,青原区法院,,17,17,17,9,8,44,,32,32,9,10,15,15,0.4,0.4
2024-07-30T0900,1772A,126.54,43.8622,吉林市,哈达湾,,20,16,14,8,8,62,,28,28,9,11,5,5,0.5,0.5
2024-07-30T0900,1773A,126.5844,43.8358,吉林市,东局子,,35,35,33,11,10,56,,21,21,11,16,4,5,0.6,0.6
2024-07-30T0900,1774A,126.5052,43.8245,吉林市,电力学院,,,6,13,3,6,56,,24,24,,9,,11,0.6,0.6
2024-07-30T0900,1775A,126.6133,43.8972,吉林市,江北,,23,23,17,8,8,58,,27,27,13,10,8,8,0.6,0.7
2024-07-30T0900,1776A,126.555,43.8306,吉林市,江南公园,,21,12,13,7,9,65,,31,31,8,12,2,3,0.7,0.9
2024-07-30T0900,1778A,126.7061,43.7133,吉林市,丰满,,,,,,,,,,,,,,,,
2024-07-30T0900,2868A,126.4739,43.953,吉林市,九站,,,16,9,3,6,,,36,36,6,10,3,3,0.5,0.5
2024-07-30T0900,1299A,116.9862,36.6114,济南市,科干所,,,,19,,9,,,73,72,,9,,7,0.5,0.5
2024-07-30T0900,1300A,116.9376,36.665,济南市,农科所,,27,27,20,7,10,79,,61,61,14,15,9,8,0.4,0.3
2024-07-30T0900,1301A,117.1265,36.6734,济南市,开发区,,29,,16,20,6,82,,84,83,12,10,10,9,0.5,0.5
2024-07-30T0900,1303A,117.0624,36.6868,济南市,省种子仓库,,27,17,21,3,6,84,,84,83,7,9,9,8,0.6,0.6
2024-07-30T0900,1304A,116.9489,36.6447,济南市,机床二厂,,30,20,21,3,2,93,,81,81,7,10,11,9,0.3,0.4
2024-07-30T0900,1305A,117.0495,36.663,济南市,市监测站,,26,12,17,10,8,83,,90,88,15,12,10,8,0.5,0.5
2024-07-30T0900,1306A,116.7675,36.5484,济南市,长清党校,,28,20,17,12,10,87,,74,74,8,8,12,10,0.6,0.6
2024-07-30T0900,1616A,117.6795,36.229,济南市,技术学院,,29,19,17,7,11,90,,66,66,7,11,12,10,0.8,0.8
2024-07-30T0900,1961A,117.532,36.6868,济南市,东山小学,,,22,27,3,9,,,78,77,,17,,5,,0.8
2024-07-30T0900,3059A,117.7161,36.2049,济南市,泰兴公司,,27,17,24,3,10,84,,63,63,9,16,11,11,0.5,0.5
2024-07-30T0900,3064A,117.6867,36.2171,济南市,莱芜战役纪念馆,,24,22,24,7,8,74,,59,59,8,10,12,10,0.6,0.6
2024-07-30T0900,3494A,117.1673,36.9782,济南市,济阳区政府,,37,37,31,7,11,80,,42,42,11,19,9,8,0.4,0.4
2024-07-30T0900,3495A,117.1171,36.63,济南市,锦屏中学,,25,12,16,3,8,80,,84,82,9,11,9,10,0.4,0.5
2024-07-30T0900,3682A,116.9814,36.6819,济南市,济南四建,,25,12,15,10,8,79,,72,72,8,11,9,8,0.6,0.6
2024-07-30T0900,1653A,116.6251,35.4302,济宁市,火炬城,,27,27,22,14,10,79,,59,59,13,10,10,9,0.8,0.7
2024-07-30T0900,1655A,116.5491,35.4042,济宁市,电化厂,,32,32,23,17,14,67,,47,47,11,8,7,5,0.8,0.7
2024-07-30T0900,3500A,116.5814,35.3707,济宁市,北湖一中,,25,22,23,14,7,78,,58,58,11,8,12,10,0.7,0.7
2024-07-30T0900,3501A,116.8249,35.5593,济宁市,服务中心,,33,33,24,14,9,73,,49,49,13,9,6,5,0.7,0.6
2024-07-30T0900,3678A,116.5907,35.4054,济宁市,市第七中学,,33,33,26,12,8,71,,47,47,14,11,7,4,0.6,0.6
2024-07-30T0900,2255A,130.2751,46.8028,佳木斯市,佳纺,,12,12,10,6,6,32,,28,28,3,7,9,10,0.4,0.5
2024-07-30T0900,2256A,130.3995,46.8307,佳木斯市,发电厂,,15,15,16,6,6,33,,29,29,2,6,6,7,0.5,0.6
2024-07-30T0900,2257A,130.3258,46.7975,佳木斯市,环保局,,,17,14,6,5,26,,24,24,8,11,8,8,,0.5
2024-07-30T0900,2258A,130.3648,46.8032,佳木斯市,十一中,,10,8,11,3,7,32,,30,30,6,9,10,8,0.3,0.4
2024-07-30T0900,2259A,130.3794,46.7588,佳木斯市,四丰,,,6,10,3,3,,,,,6,12,1,1,0.5,0.6
2024-07-30T0900,1252A,120.7436,30.778,嘉兴市,清河小学,,13,13,17,3,6,34,,28,27,7,11,7,7,0.3,0.3
2024-07-30T0900,1253A,120.726,30.7478,嘉兴市,嘉兴学院,,14,14,18,3,8,27,,22,21,8,12,1,1,0.3,0.4
2024-07-30T0900,2872A,120.7846,30.7525,嘉兴市,南湖区残联,,15,15,24,6,9,38,,28,27,5,10,5,5,0.3,0.3
2024-07-30T0900,3407A,120.6916,30.7739,嘉兴市,秀洲住建,,12,,16,7,9,36,,28,27,7,10,4,4,0.4,0.4
2024-07-30T0900,1945A,98.2908,39.7711,嘉峪关市,气象局,,,,40,,12,,,97,97,61,26,,22,1.0,0.4
2024-07-30T0900,2884A,98.2672,39.7978,嘉峪关市,酒钢宾馆,颗粒物(PM10),63,75,39,12,13,54,,87,85,56,14,13,23,0.9,0.3
2024-07-30T0900,3248A,98.2643,39.7724,嘉峪关市,雄关区,颗粒物(PM10),53,55,26,23,19,46,,94,93,61,17,11,11,1.1,0.3
2024-07-30T0900,1383A,113.1064,22.6058,江门市,北街,,10,10,18,7,8,25,,12,12,19,22,3,3,0.4,0.4
2024-07-30T0900,1384A,113.0731,22.5835,江门市,西区,,26,26,16,3,8,25,,10,10,15,20,6,5,0.5,0.5
2024-07-30T0900,1385A,113.0219,22.5311,江门市,圭峰西,,,,12,6,8,,,6,6,11,18,4,4,0.5,0.5
2024-07-30T0900,1386A,113.0828,22.5947,江门市,东湖,,12,12,14,3,7,17,,9,9,16,17,6,6,0.5,0.4
2024-07-30T0900,3311A,113.1075,22.5647,江门市,江海富民,,18,18,24,10,8,24,,11,11,17,21,7,6,0.5,0.5
2024-07-30T0900,3449A,113.05,22.4667,江门市,新会银湖,,9,9,12,3,2,28,,11,11,9,16,3,4,0.5,0.5
2024-07-30T0900,1828A,113.227,35.2125,焦作市,市环保局,,20,18,17,11,10,64,,40,40,11,12,3,3,0.4,0.4
2024-07-30T0900,1830A,113.1992,35.2590,焦作市,影视城,,,,,,,,,,,,,,,,
2024-07-30T0900,3169A,113.2725,35.2067,焦作市,太极体育中心,,31,31,29,10,13,61,,36,36,4,6,1,3,0.4,0.4
2024-07-30T0900,3335A,113.3137,35.2641,焦作市,马村街道办,,33,,15,23,11,60,,40,40,12,11,8,2,0.5,0.4
2024-07-30T0900,3336A,113.2465,35.2373,焦作市,焦作技师学院,,18,17,21,12,10,52,,31,31,8,8,3,3,0.4,0.5
2024-07-30T0900,3477A,113.1656,35.2539,焦作市,中站许衡医院,,,17,23,11,14,,,,,2,3,7,5,0.5,0.5
2024-07-30T0900,3981A,113.2449,35.1803,焦作市,原李万街道办,,20,19,28,9,11,62,,41,41,11,11,7,6,0.1,0.2
2024-07-30T0900,1708A,116.3701,23.5345,揭阳市,新兴,,24,24,26,12,12,35,,27,26,12,14,8,6,0.6,0.6
2024-07-30T0900,1709A,116.3264,23.5443,揭阳市,西马,,23,23,24,11,10,36,,30,28,8,6,11,4,0.7,0.7
2024-07-30T0900,1710A,116.3611,23.5626,揭阳市,东兴,,38,38,33,10,10,36,,24,24,8,10,10,7,0.7,0.9
2024-07-30T0900,1711A,116.4151,23.5294,揭阳市,渔湖,,24,24,29,16,9,32,,25,25,10,13,6,5,0.6,0.8
2024-07-30T0900,3320A,116.403,23.5699,揭阳市,曲溪,,,32,26,14,12,,,16,15,9,12,8,7,0.6,0.7
2024-07-30T0900,1944A,102.1692,38.5167,金昌市,天庆家园,颗粒物(PM10),137,223,196,55,43,90,,86,83,18,9,9,12,,0.6
2024-07-30T0900,3170A,102.1864,38.5253,金昌市,市委党校,颗粒物(PM10),147,243,220,42,45,93,,94,92,12,8,6,7,0.5,0.5
2024-07-30T0900,4022A,102.1647,38.5371,金昌市,金川区人防中心,颗粒物(PM10),151,251,220,51,39,93,,90,88,12,6,11,12,0.3,0.5
2024-07-30T0900,1262A,119.647,29.077,金华市,十五中,,,14,14,7,5,,,24,22,9,10,2,2,0.4,0.3
2024-07-30T0900,1263A,119.686,29.1029,金华市,监测站,,11,8,14,6,8,35,,19,18,7,11,2,2,0.4,0.4
2024-07-30T0900,3659A,119.656,29.1131,金华市,气象局,,12,12,15,3,2,32,,17,16,6,10,4,3,0.2,0.1
2024-07-30T0900,1767A,121.1115,41.0879,锦州市,南山,,28,,45,19,36,62,,51,51,14,13,2,3,1.0,1
2024-07-30T0900,1768A,121.0533,40.8434,锦州市,开发区,,46,46,55,23,34,65,,63,63,25,22,2,3,0.8,1
2024-07-30T0900,1769A,121.1836,41.1119,锦州市,百股街道,,22,22,40,12,22,65,,49,49,14,18,2,3,1.0,1
2024-07-30T0900,1770A,121.1178,41.1222,锦州市,天安街道,,30,,53,21,29,62,,53,53,15,14,1,1,1.0,1.1
2024-07-30T0900,1771A,121.1303,41.1386,锦州市,北湖公园,,22,18,50,15,33,62,,54,54,16,12,1,1,1.0,1
2024-07-30T0900,2160A,112.85,35.5051,晋城市,自来水公司,,24,13,16,9,5,74,,68,68,9,9,4,4,0.4,0.4
2024-07-30T0900,2161A,112.8318,35.4936,晋城市,白云商贸,,,11,20,7,4,,,62,62,10,10,7,6,0.6,0.6
2024-07-30T0900,2162A,112.8508,35.4887,晋城市,市环保局,,22,21,14,7,7,70,,64,64,11,11,7,6,0.5,0.5
2024-07-30T0900,2163A,112.8676,35.4897,晋城市,技术学院,,22,21,15,9,7,69,,62,62,13,11,7,7,0.7,0.7
2024-07-30T0900,2165A,112.8453,35.546,晋城市,白马寺,,,,,,,,,,,,,,,,
2024-07-30T0900,3620A,112.8271,35.4828,晋城市,泽州一中,,22,10,10,3,3,68,,62,62,9,9,8,8,0.7,0.6
2024-07-30T0900,2171A,112.7532,37.6945,晋中市,锦纶小区,,18,6,19,3,8,56,,73,70,9,9,8,8,0.4,0.4
2024-07-30T0900,2173A,112.7249,37.7067,晋中市,南都小区,,17,16,30,9,17,54,,70,66,13,11,6,7,0.4,0.3
2024-07-30T0900,2174A,112.6991,37.6982,晋中市,榆次区政府,,14,9,20,9,17,42,,64,58,21,14,5,7,0.4,0.3
2024-07-30T0900,2865A,112.7195,37.6828,晋中市,榆次三中,,17,6,21,3,8,52,,75,71,16,11,6,8,0.5,0.4
2024-07-30T0900,2439A,112.2014,31.0481,荆门市,竹园小学,,20,8,16,7,9,62,,51,51,11,10,10,10,0.5,0.5
2024-07-30T0900,2440A,112.1969,30.9891,荆门市,掇刀,,,19,18,,13,,,54,54,10,12,5,6,0.5,0.5
2024-07-30T0900,2441A,112.2213,31.0386,荆门市,石化一小,,24,24,17,10,8,72,,49,49,9,10,18,17,0.5,0.5
2024-07-30T0900,3012A,112.1849,31.0362,荆门市,西山林语,,21,18,15,3,8,65,,49,49,6,7,6,6,0.4,0.4
2024-07-30T0900,3547A,112.1632,31.0138,荆门市,龙泉中学南校,,,17,16,8,8,,,48,48,10,9,10,9,0.4,0.4
2024-07-30T0900,1844A,112.2494,30.3197,荆州市,市图书馆,,23,,15,16,10,57,,40,40,11,13,7,7,0.6,0.6
2024-07-30T0900,1845A,112.2008,30.3544,荆州市,市委党校,,17,14,11,8,15,52,,40,40,8,8,5,5,0.6,0.7
2024-07-30T0900,3194A,112.2747,30.3122,荆州市,管委会,,25,24,12,17,11,59,,43,43,10,11,7,6,0.5,0.5
2024-07-30T0900,3548A,112.1655,30.3364,荆州市,学苑路,,23,22,18,16,12,52,,33,33,10,12,6,7,0.4,0.3
2024-07-30T0900,2342A,117.3102,29.3867,景德镇市,王港中学,,,,,,,,,,,,,,,,
2024-07-30T0900,2343A,117.2117,29.2933,景德镇市,老干部活动中心,,22,22,20,15,12,37,,12,12,11,11,9,10,0.3,0.3
2024-07-30T0900,2344A,117.1894,29.2789,景德镇市,兽医站,,25,25,24,14,16,43,,20,20,14,14,8,14,0.3,0.2
2024-07-30T0900,2345A,117.1547,29.2617,景德镇市,台达陶瓷,,37,37,29,24,17,32,,16,16,30,20,48,35,0.5,0.3
2024-07-30T0900,2346A,117.2461,29.2956,景德镇市,陶研所,,47,47,25,18,9,68,,20,20,3,8,14,4,0.2,0.2
2024-07-30T0900,1803A,115.9872,29.6815,九江市,十里,,16,16,13,3,6,42,,20,20,20,12,11,8,0.7,0.6
2024-07-30T0900,1804A,115.9584,29.7046,九江市,茅山头,,28,28,16,11,11,30,,6,6,24,20,11,10,0.5,0.4
2024-07-30T0900,1805A,115.9877,29.7295,九江市,西园,,20,19,14,11,8,25,,6,6,40,23,10,11,0.8,0.7
2024-07-30T0900,1806A,116.0172,29.6547,九江市,五七二七厂,,16,11,10,9,5,49,,26,26,20,9,16,10,0.9,0.8
2024-07-30T0900,1808A,115.9114,29.6038,九江市,综合工业园,,19,13,11,13,7,35,,19,19,31,21,28,11,0.5,0.4
2024-07-30T0900,1809A,116.0721,29.7535,九江市,石化总厂,,25,25,17,17,8,35,,10,10,31,20,13,11,0.7,0.7
2024-07-30T0900,1810A,115.9773,29.5698,九江市,庐山气象台,,16,11,8,8,8,49,,49,48,2,2,9,10,1.2,0.9
2024-07-30T0900,3190A,116.0254,29.6994,九江市,外国语学校,,27,27,17,9,8,46,,21,21,18,16,21,17,0.4,0.3
2024-07-30T0900,2658A,98.5061,39.7443,酒泉市,仓门街子站,颗粒物(PM10),85,119,46,12,8,49,,82,77,38,12,18,11,0.5,0.3
2024-07-30T0900,2659A,98.4989,39.7256,酒泉市,油田生活基地,颗粒物(PM10),71,92,38,17,16,48,,86,80,45,16,23,12,0.4,0.3
2024-07-30T0900,2698A,76.0072,39.4467,喀什地区,巡警大队,颗粒物(PM10),128,206,214,56,46,21,,32,32,72,42,6,5,0.6,0.5
2024-07-30T0900,2699A,75.9755,39.4694,喀什地区,吾办,颗粒物(PM10),106,162,187,50,61,23,,11,11,43,35,4,4,1.0,0.7
2024-07-30T0900,4027A,75.9483,39.4689,喀什地区,老干局,颗粒物(PM10),126,202,232,49,49,19,,13,13,48,39,4,4,0.6,0.5
2024-07-30T0900,1824A,114.3389,34.7781,开封市,肿瘤医院,,26,26,20,3,5,64,,41,41,3,4,4,4,0.5,0.4
2024-07-30T0900,1826A,114.2885,34.7965,开封市,世纪星幼儿园,,,32,21,,3,67,,48,48,7,5,1,2,0.3,0.4
2024-07-30T0900,3147A,114.3438,34.8106,开封市,龙亭公园,,,23,19,,4,65,,42,42,7,8,1,1,0.4,0.4
2024-07-30T0900,3210A,114.3644,34.7964,开封市,汴京公园,,22,22,18,10,7,68,,43,43,3,6,2,3,0.4,0.4
2024-07-30T0900,3473A,114.2485,34.8306,开封市,技师学院,,21,20,21,6,6,65,,52,52,4,4,4,4,0.6,0.6
2024-07-30T0900,3592A,114.4644,34.7556,开封市,祥符区生态环境局,,21,19,15,12,9,67,,36,36,8,13,3,3,0.3,0.3
2024-07-30T0900,1951A,84.895,45.6094,克拉玛依市,长征新村,,24,24,24,9,7,49,,89,82,21,7,9,9,0.3,0.2
2024-07-30T0900,1952A,84.8988,45.5893,克拉玛依市,南林小区,,18,18,22,10,11,33,,79,70,20,15,7,9,0.3,0.2
2024-07-30T0900,1954A,84.905,44.3396,克拉玛依市,独山子区,颗粒物(PM10),108,165,65,29,19,92,,99,96,10,11,8,12,0.5,0.6
2024-07-30T0900,1955A,85.6979,46.098,克拉玛依市,乌尔禾区商贸楼,颗粒物(PM10),52,54,35,3,8,54,,58,58,13,13,4,5,0.8,0.5
2024-07-30T0900,3612A,85.1045,45.6899,克拉玛依市,白碱滩区新站,,26,,31,17,16,81,,96,96,6,7,7,8,0.4,0.3
2024-07-30T0900,2697A,76.1454,39.7142,克孜勒苏柯尔克孜自治州,市人民政府,颗粒物(PM10),86,121,142,50,58,92,,90,90,11,12,10,10,0.3,0.4
2024-07-30T0900,3665A,76.1658,39.7157,克孜勒苏柯尔克孜自治州,克州文化中心,颗粒物(PM10),81,111,142,57,54,111,,102,102,5,11,13,12,0.3,0.4
2024-07-30T0900,1450A,102.8204,24.8886,昆明市,呈贡新区,,26,,24,18,13,41,,60,56,16,12,7,4,0.8,0.8
2024-07-30T0900,1451A,102.6251,24.9608,昆明市,西山森林公园,,,,,,,,,,,,,,,,
2024-07-30T0900,1452A,102.7252,25.0902,昆明市,龙泉镇,,23,23,17,8,8,38,,44,43,10,11,6,6,0.7,0.7
2024-07-30T0900,1453A,102.7266,25.0375,昆明市,东风东路,,19,19,16,11,11,46,,50,48,14,19,1,3,0.5,0.6
2024-07-30T0900,1454A,102.6742,25.0669,昆明市,金鼎山,,30,30,22,19,12,41,,53,51,13,14,3,2,0.5,0.5
2024-07-30T0900,1455A,102.6644,25.0401,昆明市,碧鸡广场,,19,19,17,12,12,49,,55,53,15,16,3,3,0.5,0.5
2024-07-30T0900,3179A,102.7494,25.0119,昆明市,官渡区博物馆,,19,19,17,10,10,38,,27,27,17,27,6,5,0.5,0.6
2024-07-30T0900,3375A,102.8017,24.8336,昆明市,青年创业园,,16,13,13,8,10,51,,39,39,8,15,9,8,0.4,0.4
2024-07-30T0900,3550A,102.7997,24.9786,昆明市,昆明学院,,34,34,23,20,13,31,,38,38,25,24,6,4,0.6,0.6
2024-07-30T0900,3551A,102.5967,24.6736,昆明市,晋宁区生态环境分局,,17,12,27,3,13,52,,63,63,21,18,5,6,0.4,0.5
2024-07-30T0900,3552A,102.6678,24.9856,昆明市,云天化总部,,16,14,16,11,13,40,,44,43,16,16,5,5,0.6,0.7
2024-07-30T0900,1456A,91.1319,29.6514,拉萨市,八廓街,,33,13,13,9,8,105,,119,117,14,12,4,6,0.1,0.2
2024-07-30T0900,1457A,91.1221,29.6747,拉萨市,市环保局,,30,20,15,8,7,95,,125,116,21,14,10,9,0.4,0.4
2024-07-30T0900,1458A,91.0874,29.6475,拉萨市,区监测站,,30,22,12,9,7,96,,119,112,23,16,6,6,0.2,0.2
2024-07-30T0900,1459A,91.1774,29.6541,拉萨市,西藏大学,,35,11,10,8,7,110,,126,120,9,6,10,10,0.3,0.4
2024-07-30T0900,1460A,90.9798,29.6588,拉萨市,区辐射站,,,19,12,10,7,,,124,119,28,11,9,8,0.2,0.1
2024-07-30T0900,1461A,91.0834,29.6292,拉萨市,拉萨火车站,,23,17,10,8,9,72,,120,108,33,13,8,9,0.4,0.2
2024-07-30T0900,2520A,109.2203,23.7256,来宾市,来宾技工学校,,25,,20,17,19,22,,21,21,9,10,6,6,0.6,0.7
2024-07-30T0900,3535A,109.1781,23.7297,来宾市,兴宾区政府,,12,10,20,8,10,20,,20,20,7,8,4,5,0.7,0.7
2024-07-30T0900,4002A,109.2416,23.7461,来宾市,中南小学,,11,11,18,3,10,23,,22,22,9,9,8,9,0.7,0.7
2024-07-30T0900,1476A,103.631,36.1031,兰州市,兰炼宾馆,,38,38,33,24,23,62,,58,58,21,18,13,13,0.4,0.3
2024-07-30T0900,1477A,104.1373,35.9454,兰州市,榆中兰大校区,,,,,,,,,,,,,,,,
2024-07-30T0900,1478A,103.8412,36.0726,兰州市,生物制品所,颗粒物(PM10),55,60,33,24,19,29,,18,18,44,32,16,8,1.8,0.7
2024-07-30T0900,1479A,103.831,36.0464,兰州市,铁路设计院,颗粒物(PM10),52,53,34,23,18,26,,33,31,48,37,17,12,1.4,0.7
2024-07-30T0900,3186A,103.7158,36.1058,兰州市,教育港,,,51,40,30,24,,,52,49,,13,10,10,0.5,0.4
2024-07-30T0900,3241A,103.7439,36.0842,兰州市,百合公园,,43,43,33,18,17,50,,34,34,34,22,11,8,0.7,0.5
2024-07-30T0900,3242A,103.9611,35.998,兰州市,和平,颗粒物(PM10),57,64,42,27,20,58,,45,45,33,25,14,9,1.0,0.6
2024-07-30T0900,3245A,103.6633,36.533,兰州新区,新区管委会,,37,37,32,15,17,61,,50,50,24,17,19,11,0.6,0.5
2024-07-30T0900,3246A,103.6975,36.4789,兰州新区,舟曲中学,,30,29,21,21,12,81,,88,85,12,10,24,13,0.6,0.5
2024-07-30T0900,1067A,116.6708,39.5111,廊坊市,药材公司,,14,10,26,3,10,42,,35,35,12,11,2,2,0.4,0.4
2024-07-30T0900,1068A,116.7214,39.5589,廊坊市,开发区,,15,11,23,10,12,42,,32,32,9,9,3,3,0.4,0.3
2024-07-30T0900,1070A,116.7244,39.5269,廊坊市,北华航天学院,,23,23,37,9,12,40,,33,33,11,10,3,3,0.6,0.4
2024-07-30T0900,2919A,116.7022,39.5453,廊坊市,河北工业大学,,34,34,33,3,11,37,,31,31,11,9,3,3,0.4,0.3
2024-07-30T0900,2535A,103.7723,29.5462,乐山市,花湖湾,,28,28,22,18,20,16,,28,24,9,13,4,4,0.5,0.4
2024-07-30T0900,2536A,103.7627,29.5844,乐山市,牛耳桥,,25,25,28,15,16,18,,26,22,17,21,4,3,0.5,0.4
2024-07-30T0900,2537A,103.7508,29.6006,乐山市,市第三水厂,,26,26,28,18,17,22,,31,28,20,22,3,2,0.5,0.4
2024-07-30T0900,2538A,103.7571,29.5664,乐山市,市监测站,,30,30,25,16,14,26,,36,32,14,15,4,3,0.6,0.5
2024-07-30T0900,3361A,103.7311,29.5628,乐山市,理工大学,,25,25,25,16,15,26,,31,27,12,14,4,4,0.3,0.3
2024-07-30T0900,2598A,100.2143,26.8576,丽江市,西南郊,,,,,,,,,,,,,,,,
2024-07-30T0900,2599A,100.2497,26.8802,丽江市,丽江古城,,16,16,16,9,11,49,,36,36,14,11,5,5,0.8,0.7
2024-07-30T0900,2600A,100.2203,26.8906,丽江市,市中心,,15,,11,3,8,48,,43,43,20,10,6,7,0.6,0.5
2024-07-30T0900,1267A,119.914,28.4514,丽水市,监测站大楼,,11,11,12,3,6,23,,16,16,7,7,2,2,0.4,0.3
2024-07-30T0900,1268A,119.93,28.4586,丽水市,莲都小学,,9,9,13,3,3,23,,15,15,4,6,3,3,0.4,0.4
2024-07-30T0900,1269A,119.879,28.4231,丽水市,余庄前,,12,12,11,3,5,20,,9,9,5,7,3,2,0.3,0.3
2024-07-30T0900,1173A,119.176,34.5885,连云港市,市环境监测站,,46,46,28,29,14,106,,67,67,14,14,4,4,0.7,0.7
2024-07-30T0900,3000A,119.3581,34.6972,连云港市,德源药业,,41,41,23,24,13,116,,84,84,15,14,2,2,0.6,0.5
2024-07-30T0900,3007A,119.178,34.844,连云港市,新城一中,,42,39,25,24,14,133,,90,90,17,17,4,3,0.9,0.7
2024-07-30T0900,3008A,119.3608,34.7519,连云港市,胡沟管理处,,36,36,20,19,11,110,,103,102,14,9,10,7,0.8,0.6
2024-07-30T0900,3009A,119.1478,34.5911,连云港市,矿山设计院,,46,46,27,24,14,112,,89,89,15,13,9,5,1.0,0.7
2024-07-30T0900,3434A,119.2413,34.6539,连云港市,工贸学校,,38,35,24,24,14,119,,108,106,15,11,9,7,0.7,0.5
2024-07-30T0900,3664A,119.4172,34.7341,连云港市,连云街道,,43,27,21,15,12,136,,127,127,6,6,4,3,0.4,0.4
2024-07-30T0900,2571A,102.3431,27.8099,凉山彝族自治州,青龙寺,,10,10,13,3,6,30,,46,43,2,4,1,2,0.5,0.5
2024-07-30T0900,2572A,102.2721,27.8415,凉山彝族自治州,邛海宾馆,,13,9,11,3,7,40,,51,47,9,7,8,7,0.6,0.7
2024-07-30T0900,2573A,102.2625,27.898,凉山彝族自治州,西昌市政府,,15,6,12,3,8,45,,54,51,6,7,7,7,0.7,0.8
2024-07-30T0900,2574A,102.2685,27.8851,凉山彝族自治州,凉山州政府,,14,7,12,3,8,42,,57,55,11,8,6,6,0.9,0.8
2024-07-30T0900,2575A,102.237,27.8914,凉山彝族自治州,长安,,13,12,12,7,8,41,,53,50,11,9,12,8,0.4,0.4
2024-07-30T0900,2212A,123.2,41.1953,辽阳市,宏伟区,,,,69,11,28,69,,56,56,16,13,5,5,1.2,1.3
2024-07-30T0900,2213A,123.1683,41.2495,辽阳市,新华园,,25,,66,17,31,60,,49,48,21,14,12,7,1.4,1.4
2024-07-30T0900,2214A,123.2354,41.2639,辽阳市,滨河路,,23,17,46,16,29,59,,43,42,16,13,7,7,1.3,1.2
2024-07-30T0900,2215A,123.149,41.2991,辽阳市,铁西工业园,,,,87,20,28,52,,36,34,26,12,7,7,2.5,1.6
2024-07-30T0900,2227A,125.1358,42.8845,辽源市,环保局,,,,17,,9,,,26,26,7,8,7,7,,0.6
2024-07-30T0900,3239A,125.0764,42.9078,辽源市,银鹰制药,,20,16,16,8,8,64,,26,26,5,10,6,5,0.9,0.8
2024-07-30T0900,1625A,115.9848,36.4372,聊城市,区政府,,24,24,18,6,8,69,,54,54,9,11,7,6,0.5,0.5
2024-07-30T0900,2878A,116.0072,36.4343,聊城市,聊大东校,,,18,15,18,14,,,54,54,7,10,9,6,0.4,0.6
2024-07-30T0900,3200A,115.9819,36.4978,聊城市,监控中心,,22,16,16,7,7,70,,56,56,6,9,5,6,0.3,0.3
2024-07-30T0900,3513A,116.0445,36.4361,聊城市,九州社区,,24,24,26,7,7,66,,46,46,9,12,7,4,0.5,0.6
2024-07-30T0900,4018A,116.0567,36.4608,聊城市,星美广场,,28,28,30,8,11,62,,48,48,9,12,4,5,0.5,0.6
2024-07-30T0900,2632A,94.3681,29.6376,林芝市,林芝监测站,,14,14,12,9,7,26,,32,31,5,6,8,8,0.3,0.3
2024-07-30T0900,2633A,94.3616,29.6616,林芝市,林芝人民医院,,18,18,11,9,7,21,,33,30,10,7,10,10,0.2,0.2
2024-07-30T0900,2603A,100.0781,23.8982,临沧市,市环保局,,18,12,15,12,17,19,,15,15,8,9,4,4,0.3,0.3
2024-07-30T0900,2604A,100.0894,23.8822,临沧市,市气象局,,,12,14,8,9,,,16,15,9,8,5,4,0.4,0.3
2024-07-30T0900,1733A,111.5531,36.0783,临汾市,临钢医院,,19,10,21,3,10,58,,72,69,12,8,4,4,0.7,0.6
2024-07-30T0900,1734A,111.5028,36.0714,临汾市,技工学校,,20,9,19,3,8,63,,75,72,14,11,4,5,0.8,0.7
2024-07-30T0900,1736A,111.5018,36.0855,临汾市,市委,,21,12,22,3,9,67,,79,75,13,10,7,7,0.9,0.8
2024-07-30T0900,3018A,111.505,36.1014,临汾市,唐尧大酒店,,19,6,15,3,10,60,,69,66,11,9,4,4,1.0,0.8
2024-07-30T0900,3668A,111.5036,36.0414,临汾市,城南,,20,8,20,3,7,62,,75,72,11,9,2,2,0.7,0.6
2024-07-30T0900,2667A,103.2069,35.5993,临夏回族自治州,环保局,,46,46,42,25,21,46,,37,37,14,7,8,8,0.6,0.4
2024-07-30T0900,2668A,103.2417,35.6057,临夏回族自治州,建设大厦,,34,34,34,17,18,51,,38,38,11,9,14,13,0.4,0.4
2024-07-30T0900,1618A,118.3429,35.0532,临沂市,沂河小区,,39,39,28,19,17,96,,58,58,13,10,12,10,0.4,0.3
2024-07-30T0900,1619A,118.295,35.0583,临沂市,鲁南制药厂,,34,27,21,16,13,106,,61,61,18,14,10,7,0.4,0.3
2024-07-30T0900,1620A,118.2794,34.9976,临沂市,新光毛纺厂,,33,29,19,12,11,104,,64,64,12,10,11,8,0.7,0.6
2024-07-30T0900,1621A,118.3956,35.0888,临沂市,河东保险公司,,31,24,22,10,10,98,,60,60,12,13,12,9,0.6,0.5
2024-07-30T0900,3370A,118.3564,35.0215,临沂市,十里堡居委,,30,27,19,9,12,94,,54,54,12,13,11,9,0.7,0.6
2024-07-30T0900,3496A,118.3604,35.1084,临沂市,南坊新区,,39,39,27,17,11,97,,60,60,20,13,13,10,0.7,0.6
2024-07-30T0900,3860A,118.3920,35.0300,临沂市,皇山花园小区,,36,36,23,18,14,90,,52,52,15,13,14,10,0.6,0.5
2024-07-30T0900,1870A,109.4856,24.3895,柳州市,柳东小学,,12,12,14,7,6,25,,19,19,12,11,10,8,0.6,0.6
2024-07-30T0900,1871A,109.4157,24.3277,柳州市,环保监测站,,21,21,19,6,7,23,,20,19,9,9,8,7,0.7,0.7
2024-07-30T0900,1872A,109.389,24.341,柳州市,河西水厂,,15,,16,10,9,25,,12,12,6,10,11,11,0.6,0.6
2024-07-30T0900,1873A,109.4311,24.2921,柳州市,市四中,,12,12,17,3,6,27,,22,22,8,9,6,6,0.6,0.6
2024-07-30T0900,1874A,109.4006,24.3631,柳州市,市九中,,17,17,18,3,8,27,,18,18,10,12,5,5,0.7,0.7
2024-07-30T0900,1875A,109.4958,24.3134,柳州市,古亭山,,14,14,17,3,7,21,,11,11,11,12,8,7,0.7,0.7
2024-07-30T0900,3402A,109.5422,24.3996,柳州市,市二中,,17,17,17,10,8,23,,16,16,11,12,9,8,0.5,0.6
2024-07-30T0900,2307A,116.5079,31.737,六安市,监测大楼,,14,14,8,6,7,39,,32,31,16,8,9,6,0.3,0.3
2024-07-30T0900,2308A,116.4738,31.7643,六安市,皖西学院,,16,15,11,8,7,51,,33,33,9,5,5,5,0.1,0.1
2024-07-30T0900,2309A,116.4996,31.7905,六安市,朝阳厂,,10,9,7,7,7,32,,24,23,13,5,11,9,0.3,0.2
2024-07-30T0900,2310A,116.5567,31.7886,六安市,开发区,,,,12,11,12,35,,20,20,7,7,,10,,0.3
2024-07-30T0900,2576A,104.8,26.5892,六盘水市,窑上,,,,,,,,,,,,,,,,
2024-07-30T0900,2577A,104.83,26.5917,六盘水市,黄土坡,,14,10,10,6,6,43,,57,54,16,9,8,7,0.5,0.4
2024-07-30T0900,2578A,104.89,26.5939,六盘水市,水钢,,17,13,13,3,5,54,,63,61,8,6,5,5,0.3,0.4
2024-07-30T0900,2579A,104.8475,26.5894,六盘水市,民中,,16,8,10,3,6,50,,60,58,14,8,6,6,0.5,0.5
2024-07-30T0900,2580A,104.9544,26.5506,六盘水市,双水,,16,7,9,3,5,51,,62,59,9,4,5,6,0.4,0.3
2024-07-30T0900,2335A,117.0189,25.1181,龙岩市,龙岩师专,,,,,,,,,,,,,,,,
2024-07-30T0900,2336A,117.0217,25.1033,龙岩市,龙岩市监测站,,32,30,17,22,11,25,,14,14,12,14,13,6,0.4,0.3
2024-07-30T0900,2337A,117.0258,25.0661,龙岩市,闽西职业技术学院,,38,38,20,15,8,13,,9,8,16,12,7,8,0.7,0.3
2024-07-30T0900,2338A,117.0196,25.0306,龙岩市,龙岩学院,,23,23,18,16,6,20,,19,19,13,6,2,3,0.4,0.3
2024-07-30T0900,2665A,105.0822,33.3261,陇南市,汉王镇固水子,,,,,,,,,,,,,,,,
2024-07-30T0900,2885A,104.9339,33.3826,陇南市,滨江中学,,37,37,34,6,8,28,,24,24,18,15,5,4,0.8,0.7
2024-07-30T0900,3247A,104.955,33.371,陇南市,市总工会,,34,34,31,13,8,30,,27,27,12,12,4,4,0.7,0.6
2024-07-30T0900,2487A,111.9589,27.8901,娄底市,电视发射台,,22,22,19,12,6,24,,8,8,13,7,11,7,0.8,0.4
2024-07-30T0900,2488A,111.9975,27.725,娄底市,市监测站,,25,25,15,8,9,37,,29,29,5,5,8,8,0.4,0.4
2024-07-30T0900,2489A,112.0194,27.7314,娄底市,市委党校,,16,16,14,8,9,33,,22,22,11,9,11,8,0.3,0.3
2024-07-30T0900,2490A,111.9561,27.7569,娄底市,涟钢,,31,31,37,15,17,30,,19,19,15,24,20,22,1.4,1.7
2024-07-30T0900,2491A,111.9892,27.7044,娄底市,市政府,,22,22,13,14,8,43,,27,27,7,7,6,6,0.2,0.2
2024-07-30T0900,1893A,105.4324,28.9634,泸州市,九狮山,,33,28,22,23,13,51,,57,54,22,15,5,5,0.4,0.4
2024-07-30T0900,1894A,105.4427,28.9063,泸州市,小市上码头,,23,23,25,12,11,63,,67,66,16,12,6,6,0.3,0.3
2024-07-30T0900,1895A,105.4241,28.8573,泸州市,兰田宪桥,,27,27,22,18,17,43,,58,54,20,11,5,5,0.4,0.4
2024-07-30T0900,1896A,105.4379,28.8833,泸州市,市环监站,,30,28,24,21,17,60,,68,66,17,11,8,8,0.5,0.4
2024-07-30T0900,3490A,105.3617,28.7703,泸州市,纳溪区环保局,,34,34,28,22,19,40,,54,50,29,17,4,5,0.5,0.4
2024-07-30T0900,2183A,111.1406,37.5211,吕梁市,环保局,,19,15,39,10,29,60,,78,78,22,15,3,4,0.6,0.8
2024-07-30T0900,2185A,111.1297,37.5136,吕梁市,自来水公司,,23,9,41,8,32,72,,82,82,16,16,1,3,0.5,0.7
2024-07-30T0900,2867A,111.1283,37.51,吕梁市,马茂庄小学,,20,14,46,10,32,53,,77,77,39,21,3,3,0.6,0.8
2024-07-30T0900,1812A,112.3931,34.6516,洛阳市,市委党校,,19,19,15,11,13,58,,53,53,5,7,4,3,0.6,0.6
2024-07-30T0900,1814A,112.4657,34.6871,洛阳市,豫西宾馆,,24,24,18,12,10,65,,40,40,7,11,3,2,0.3,0.3
2024-07-30T0900,1815A,112.494,34.6886,洛阳市,河南林校,,20,15,8,12,10,62,,34,34,8,10,3,3,0.7,0.6
2024-07-30T0900,1816A,112.3844,34.623,洛阳市,开发区管委会,,19,18,16,8,10,58,,48,48,4,5,3,3,0.4,0.4
2024-07-30T0900,1817A,112.4267,34.6258,洛阳市,市委新办公区,,20,15,14,12,10,64,,53,53,3,4,8,6,0.5,0.5
2024-07-30T0900,3340A,112.6005,34.6326,洛阳市,伊滨,,43,43,16,10,11,59,,62,61,8,5,2,2,0.1,0.1
2024-07-30T0900,3341A,112.4951,34.6332,洛阳市,中移产业园,,21,13,13,13,12,65,,50,50,2,4,6,3,0.8,0.7
2024-07-30T0900,3593A,112.5736,34.8993,洛阳市,吉利监测站,,,,23,12,15,36,,24,24,4,5,3,3,0.9,0.9
2024-07-30T0900,3635A,112.3677,34.662,洛阳市,河科大西苑校区,,,12,9,6,7,,,46,46,1,5,4,4,0.6,0.7
2024-07-30T0900,3636A,112.4388,34.6781,洛阳市,英才小学,,20,,8,14,12,59,,42,42,3,4,3,2,0.8,0.7
2024-07-30T0900,2399A,114.051,33.5699,漯河市,三五一五工厂,,29,29,13,8,7,66,,54,54,9,7,7,6,0.6,0.5
2024-07-30T0900,2400A,114.0055,33.5698,漯河市,漯河大学,,23,20,16,12,8,71,,59,59,6,5,8,6,0.3,0.3
2024-07-30T0900,2401A,114.0138,33.5828,漯河市,市水利局,,27,27,13,9,5,59,,56,55,7,6,8,6,0.5,0.4
2024-07-30T0900,2402A,114.0261,33.5698,漯河市,市广电局,,22,22,11,3,5,68,,55,55,7,7,6,4,0.5,0.4
2024-07-30T0900,3478A,113.9749,33.5664,漯河市,市图书馆,,29,29,18,16,9,70,,55,55,8,8,10,10,0.4,0.4
2024-07-30T0900,3479A,114.0967,33.5906,漯河市,召陵区卫健委,,22,20,17,11,8,68,,57,57,6,5,2,1,0.5,0.4
2024-07-30T0900,1798A,118.5092,31.6837,马鞍山市,湖东路四小,颗粒物(PM10),54,57,31,19,15,114,,85,85,18,12,9,6,1.4,0.6
2024-07-30T0900,1799A,118.5024,31.6449,马鞍山市,开发区,,,57,34,21,15,115,,62,62,,14,3,4,0.8,0.6
2024-07-30T0900,1800A,118.5228,31.7231,马鞍山市,慈湖,,39,39,29,20,13,117,,75,75,20,20,6,5,1.1,0.5
2024-07-30T0900,1802A,118.6245,31.7241,马鞍山市,濮塘,,39,33,19,27,14,95,,55,55,12,8,4,4,0.7,0.6
2024-07-30T0900,3633A,118.4918,31.6809,马鞍山市,雨山,,50,50,31,25,14,108,,86,84,16,9,10,8,1.3,0.7
2024-07-30T0900,1686A,111.0286,21.4688,茂名市,电白南海,,,19,12,12,8,,,24,24,15,8,,6,0.5,0.4
2024-07-30T0900,1687A,110.9294,21.6533,茂名市,茂石化七小,,13,,9,9,10,21,,21,20,8,6,6,7,0.5,0.4
2024-07-30T0900,1688A,110.9107,21.6687,茂名市,健康路,,8,7,9,3,4,25,,25,25,8,6,9,9,0.5,0.4
2024-07-30T0900,1689A,110.8592,21.6828,茂名市,高岭,,20,,8,14,11,29,,27,27,7,10,10,16,0.7,0.7
2024-07-30T0900,3450A,111.01,21.5165,茂名市,电白水东,,13,12,6,9,6,20,,28,27,10,7,6,4,0.6,0.5
2024-07-30T0900,2539A,104.0308,30.0478,眉山市,黑龙滩水库,,39,,17,27,24,26,,36,33,10,8,3,2,0.2,0.2
2024-07-30T0900,2540A,103.8416,30.0874,眉山市,气象局,,39,39,27,27,14,7,,16,12,30,18,9,8,0.5,0.4
2024-07-30T0900,3137A,103.8578,30.0744,眉山市,市委党校,,36,36,21,19,8,13,,24,20,33,19,9,6,0.7,0.4
2024-07-30T0900,3148A,103.8291,30.0564,眉山市,区人社局,,24,24,24,14,10,10,,20,17,36,23,11,10,1.0,0.6
2024-07-30T0900,1690A,116.1231,24.3284,梅州市,梅江月梅,,26,26,18,10,6,34,,22,19,3,4,6,6,0.5,0.4
2024-07-30T0900,1691A,116.0797,24.2719,梅州市,梅县新城,,15,11,18,10,8,44,,17,17,3,9,4,4,0.5,0.5
2024-07-30T0900,1692A,116.1248,24.2654,梅州市,环境监控中心,,34,34,22,10,9,39,,15,15,8,12,5,8,0.5,0.5
2024-07-30T0900,3315A,116.1233,24.2991,梅州市,梅龙,,,14,15,9,10,,,33,30,2,4,8,9,0.6,0.6
2024-07-30T0900,1878A,104.7778,31.4741,绵阳市,富乐山,,36,36,26,18,14,17,,25,22,20,13,10,8,0.8,0.6
2024-07-30T0900,1879A,104.7563,31.4535,绵阳市,市人大,,46,46,34,28,16,14,,33,28,35,26,14,11,0.7,0.5
2024-07-30T0900,1880A,104.6697,31.4668,绵阳市,高新区自来水公司,颗粒物(PM10),58,66,38,31,16,18,,30,26,31,24,18,9,0.7,0.4
2024-07-30T0900,1881A,104.7287,31.5075,绵阳市,三水厂,,50,50,37,31,20,14,,20,16,30,31,10,6,0.7,0.6
2024-07-30T0900,3491A,104.69,31.5322,绵阳市,西科大附属小学,,44,44,36,29,19,29,,24,21,16,23,16,10,0.5,0.4
2024-07-30T0900,3492A,104.5648,31.5343,绵阳市,安州区旅游局,细颗粒物(PM2.5),52,48,33,36,26,29,,31,27,19,18,15,12,0.7,0.6
2024-07-30T0900,1784A,129.61,44.561,牡丹江市,环保大楼,,31,31,19,16,10,55,,30,30,8,10,7,7,0.3,0.3
2024-07-30T0900,1785A,129.6115,44.5782,牡丹江市,文化广场,,26,,20,18,24,59,,34,34,8,10,7,7,0.3,0.3
2024-07-30T0900,1786A,129.5904,44.5963,牡丹江市,第一医院,,23,,14,16,14,61,,36,36,6,8,5,5,0.4,0.4
2024-07-30T0900,1787A,129.6364,44.6075,牡丹江市,机车工厂,,19,10,28,10,20,59,,31,31,6,10,4,6,0.4,0.5
2024-07-30T0900,1788A,129.6386,44.5462,牡丹江市,第一中学,,,9,21,7,10,57,,30,30,8,10,5,4,,0.3
2024-07-30T0900,2531A,105.0703,29.61,内江市,市监测站,,35,33,22,24,18,49,,65,64,24,13,11,10,0.4,0.3
2024-07-30T0900,2532A,105.0717,29.5947,内江市,东兴区政府,,24,24,20,10,9,46,,58,57,19,14,11,11,0.6,0.5
2024-07-30T0900,2533A,105.0653,29.5817,内江市,内江二中,,27,27,23,12,16,47,,61,59,20,13,5,8,0.5,0.4
2024-07-30T0900,2534A,105.0406,29.5822,内江市,内江日报社,,,31,17,21,15,,,66,66,15,10,10,10,0.6,0.5
2024-07-30T0900,2628A,92.0657,31.4846,那曲市,那曲监测站,细颗粒物(PM2.5),82,109,60,60,24,69,,91,88,18,8,9,7,0.9,0.6
2024-07-30T0900,3128A,92.0506,31.4797,那曲市,那曲会议中心,颗粒物(PM10),93,135,39,52,14,64,,105,98,34,8,6,4,0.8,0.4
2024-07-30T0900,1290A,115.8931,28.6843,南昌市,省外办,,36,36,30,12,13,45,,19,19,15,19,14,9,0.2,0.3
2024-07-30T0900,1291A,115.8886,28.7003,南昌市,省林业公司,,17,17,23,9,9,37,,14,14,15,21,12,7,0.3,0.3
2024-07-30T0900,1292A,115.8126,28.7442,南昌市,林科所,,12,12,10,3,5,33,,11,11,19,14,8,5,0.5,0.2
2024-07-30T0900,1294A,115.8518,28.687,南昌市,建工学校,,22,22,20,3,9,32,,12,12,13,17,14,8,0.5,0.4
2024-07-30T0900,1295A,115.8921,28.6424,南昌市,象湖,,25,25,17,7,8,41,,13,13,7,16,12,6,0.3,0.2
2024-07-30T0900,1296A,115.7423,28.7996,南昌市,武术学校,,19,,19,13,10,27,,9,9,3,4,15,14,0.6,0.5
2024-07-30T0900,1298A,115.9314,28.6842,南昌市,省站,,27,27,25,7,12,38,,16,16,12,17,13,9,0.5,0.5
2024-07-30T0900,3046A,115.9084,28.6062,南昌市,机电学校,,22,22,26,9,8,36,,11,11,8,16,14,9,0.5,0.5
2024-07-30T0900,3690A,115.9721,28.7031,南昌市,外国语学校,,,20,21,10,7,,,17,17,9,14,,3,0.3,0.3
2024-07-30T0900,1905A,106.056,30.8064,南充市,西山风景区,,43,43,28,17,17,20,,35,31,10,6,3,3,0.1,0.1
2024-07-30T0900,1906A,106.0789,30.8023,南充市,南充市委,,30,30,31,17,20,47,,39,39,14,11,6,6,0.5,0.4
2024-07-30T0900,1907A,106.1031,30.8217,南充市,南充炼油厂,,42,42,32,17,18,43,,51,47,12,10,5,5,0.3,0.3
2024-07-30T0900,1908A,106.1064,30.7856,南充市,高坪区监测站,,30,30,27,7,16,45,,57,56,13,12,6,6,0.3,0.2
2024-07-30T0900,1909A,106.0642,30.7636,南充市,嘉陵区环保局,,,,31,,19,,,38,35,24,16,,5,0.5,0.3
2024-07-30T0900,1910A,106.1087,30.8388,南充市,市环境监测站,,42,42,33,22,17,35,,45,41,13,11,4,4,0.7,0.6
2024-07-30T0900,1151A,118.8086,32.1065,南京市,迈皋桥,,34,30,17,14,9,106,,75,74,19,13,6,5,0.3,0.2
2024-07-30T0900,1152A,118.7538,32.0551,南京市,草场门,,39,39,22,17,11,109,,77,77,14,10,7,6,0.5,0.5
2024-07-30T0900,1153A,118.7794,32.0745,南京市,山西路,,46,46,23,19,8,108,,79,78,16,4,3,4,0.4,0.3
2024-07-30T0900,1154A,118.7752,32.0023,南京市,中华门,,32,29,16,14,8,102,,70,70,9,5,8,8,0.5,0.4
2024-07-30T0900,1155A,118.8109,32.0309,南京市,瑞金路,,39,39,21,19,9,101,,72,71,7,4,8,7,0.4,0.3
2024-07-30T0900,1156A,118.7997,32.0754,南京市,玄武湖,,,26,24,17,7,,,65,60,12,4,4,4,0.5,0.4
2024-07-30T0900,1157A,118.6414,32.0931,南京市,浦口,,35,35,24,17,8,96,,69,69,20,10,5,7,1.0,0.7
2024-07-30T0900,1158A,118.7356,31.9996,南京市,奥体中心,,38,38,22,24,14,109,,75,75,15,13,8,8,0.2,0.2
2024-07-30T0900,1159A,118.9125,32.1028,南京市,仙林大学城,,41,41,24,17,10,103,,69,69,14,11,9,8,0.5,0.4
2024-07-30T0900,3422A,118.8436,31.9198,南京市,江宁彩虹桥,,32,28,25,22,9,93,,62,62,10,7,3,4,0.6,0.5
2024-07-30T0900,3423A,119.0138,31.6494,南京市,溧水永阳,,32,24,18,15,13,100,,64,64,13,11,3,4,0.8,0.6
2024-07-30T0900,3424A,118.879,31.3302,南京市,高淳老职中,,42,42,26,12,14,90,,66,64,8,9,7,6,0.6,0.5
2024-07-30T0900,3427A,118.8554,32.3578,南京市,六合雄州,,39,39,43,26,11,96,,55,55,5,8,9,7,0.6,0.6
2024-07-30T0900,1401A,108.3103,22.7881,南宁市,二十一中,,17,17,13,7,9,32,,35,34,8,9,3,3,0.6,0.6
2024-07-30T0900,1402A,108.3141,22.8528,南宁市,北湖,,13,13,15,7,9,26,,32,31,11,10,3,2,0.6,0.7
2024-07-30T0900,1403A,108.3206,22.8225,南宁市,市监测站,,10,,14,7,9,24,,38,35,16,10,4,4,0.5,0.5
2024-07-30T0900,1404A,108.3829,22.8037,南宁市,大自然花园,,18,18,13,6,8,28,,35,34,11,9,4,4,0.6,0.6
2024-07-30T0900,1405A,108.4394,22.7904,南宁市,仙葫,,,,,,,,,,,,,,,,
2024-07-30T0900,1406A,108.2397,22.8467,南宁市,区农职院,,10,8,15,6,8,30,,36,34,8,9,2,2,0.6,0.6
2024-07-30T0900,1407A,108.3275,22.735,南宁市,英华嘉园,,,,15,9,9,,,34,33,10,10,5,5,0.5,0.5
2024-07-30T0900,1408A,108.2257,22.7757,南宁市,沙井镇街道办,,16,16,19,6,11,35,,30,30,11,17,2,2,0.4,0.4
2024-07-30T0900,3401A,108.4834,22.7618,南宁市,红星社区,,10,,15,3,6,30,,32,31,4,6,4,4,0.5,0.5
2024-07-30T0900,2331A,118.0966,26.6761,南平市,茫荡山,,,,,,,,,,,,,,,,
2024-07-30T0900,2332A,118.1681,26.6369,南平市,南平市监测站,,23,23,17,8,8,15,,5,5,10,10,4,4,0.7,0.6
2024-07-30T0900,2333A,118.1825,26.6489,南平市,南平铝业有限公司,,19,15,18,13,6,18,,9,9,7,6,5,5,0.6,0.6
2024-07-30T0900,2334A,118.1756,26.6272,南平市,南平七中,,22,22,24,8,23,14,,6,6,10,7,4,4,0.7,0.6
2024-07-30T0900,1168A,120.9098,31.9663,南通市,狼山街道,,12,6,14,3,4,38,,14,14,15,29,7,7,0.4,0.4
2024-07-30T0900,1169A,120.86,32.0005,南通市,虹桥,,15,15,16,3,7,29,,17,17,12,21,6,7,0.6,0.6
2024-07-30T0900,1170A,120.87,32.02,南通市,城中,,15,15,22,3,4,36,,22,22,7,17,8,8,0.5,0.5
2024-07-30T0900,1171A,120.94,31.93,南通市,星湖花园,,12,9,11,3,3,36,,14,14,17,25,7,6,0.4,0.5
2024-07-30T0900,1172A,120.81,32.0417,南通市,紫琅学院,,11,11,16,3,5,27,,9,9,21,31,8,8,0.5,0.5
2024-07-30T0900,3291A,121.067,32.062,南通市,通州监测站,,17,17,22,3,5,37,,20,20,7,12,4,4,0.5,0.5
2024-07-30T0900,3432A,120.9348,31.9883,南通市,环境教育馆,,19,19,25,3,4,40,,19,19,17,22,10,9,0.4,0.4
2024-07-30T0900,2404A,112.5224,33.0122,南阳市,瓦房庄,,21,13,14,6,6,66,,56,56,10,10,6,5,0.4,0.4
2024-07-30T0900,2405A,112.5003,32.9735,南阳市,汉画馆,,,18,17,9,10,,,54,54,,11,,4,,0.3
2024-07-30T0900,2406A,112.5573,33.027,南阳市,气象站,,21,10,11,7,6,65,,50,50,7,9,4,5,0.5,0.5
2024-07-30T0900,2407A,112.5481,32.9689,南阳市,理工学院,,20,16,12,6,5,64,,54,54,7,10,2,2,0.1,0.2
2024-07-30T0900,4008A,112.5234,32.9922,南阳市,卧龙区政府,,20,13,16,13,11,62,,48,48,10,14,5,4,0.4,0.4
2024-07-30T0900,1234A,121.8358,29.911,宁波市,区环保大楼,,14,14,16,3,5,20,,17,17,9,9,6,6,0.6,0.5
2024-07-30T0900,1235A,121.56,29.82,宁波市,万里学院,,17,17,18,10,7,20,,14,14,8,8,8,8,0.6,0.6
2024-07-30T0900,1236A,121.713,29.9572,宁波市,龙赛医院,,11,11,12,3,4,24,,17,17,8,10,6,6,0.4,0.4
2024-07-30T0900,1239A,121.633,29.7733,宁波市,钱湖水厂,,12,12,9,7,4,20,,13,13,4,5,6,6,0.6,0.5
2024-07-30T0900,1240A,121.5856,29.8635,宁波市,太古小学,,15,15,14,3,4,18,,16,16,5,6,6,6,0.8,0.7
2024-07-30T0900,1241A,121.524,29.8674,宁波市,市环境监测中心,,11,11,15,3,7,26,,22,22,7,7,4,4,0.8,0.8
2024-07-30T0900,2871A,121.6147,29.9017,宁波市,万里国际学校,,8,8,8,3,6,20,,18,18,4,6,6,6,0.4,0.3
2024-07-30T0900,3710A,121.5594,29.8975,宁波市,白沙活动中心,,12,12,16,3,2,20,,18,18,5,6,6,6,0.3,0.3
2024-07-30T0900,2339A,119.5001,26.6946,宁德市,金涵水库,,,,,,,,,,,,,,,,
2024-07-30T0900,2341A,119.5388,26.6612,宁德市,宁德市监测站,,6,6,12,3,5,13,,13,13,8,7,5,5,0.6,0.6
2024-07-30T0900,3209A,119.5231,26.6562,宁德市,宁德一中,,7,6,13,3,1,16,,15,15,3,4,5,6,0.7,0.6
2024-07-30T0900,2618A,98.8601,25.8567,怒江傈僳族自治州,州监测站,,22,22,23,3,14,24,,18,17,12,10,9,8,0.5,0.4
2024-07-30T0900,2619A,98.8546,25.8417,怒江傈僳族自治州,泸水一中,,11,11,19,3,10,14,,13,12,12,12,4,4,0.5,0.5
2024-07-30T0900,1888A,101.6891,26.571,攀枝花市,弄弄坪,,31,31,36,3,13,48,,58,58,26,19,9,12,0.8,0.9
2024-07-30T0900,1889A,101.5769,26.5928,攀枝花市,河门口,,25,6,18,3,14,80,,71,71,8,14,4,6,0.4,0.8
2024-07-30T0900,1890A,101.7169,26.585,攀枝花市,炳草岗,,,,25,,10,,,63,63,19,17,18,13,0.6,0.9
2024-07-30T0900,1891A,101.7369,26.5008,攀枝花市,仁和,,17,6,17,3,11,54,,57,57,17,13,7,10,0.5,0.9
2024-07-30T0900,2835A,101.7227,26.567,攀枝花市,四十中小,,17,10,17,6,12,53,,76,76,25,12,4,9,0.7,0.7
2024-07-30T0900,1604A,122.0303,41.1489,盘锦市,开发区,,25,24,37,17,19,70,,78,75,14,12,4,4,0.4,0.4
2024-07-30T0900,1605A,122.0485,41.0883,盘锦市,兴隆台,,,19,37,14,19,,,61,58,15,12,6,5,0.4,0.6
2024-07-30T0900,1606A,121.8297,41.1028,盘锦市,新生街道,,25,22,23,16,14,78,,78,78,7,7,4,4,0.3,0.5
2024-07-30T0900,1832A,113.3257,33.742,平顶山市,新华旅馆,,,22,19,18,15,,,51,51,7,10,1,2,0.4,0.4
2024-07-30T0900,1833A,113.2919,33.737,平顶山市,规划设计院,,22,15,15,9,8,70,,60,60,10,11,5,5,0.6,0.6
2024-07-30T0900,1834A,113.182,33.774,平顶山市,平顶山工学院,,23,13,13,3,2,71,,62,62,3,5,6,5,0.6,0.7
2024-07-30T0900,3204A,113.3025,33.73,平顶山市,规划局,,21,19,16,9,10,67,,51,51,8,11,2,2,0.7,0.7
2024-07-30T0900,3594A,112.8867,33.9116,平顶山市,石龙区,,22,19,28,10,16,70,,57,57,2,2,8,8,0.3,0.3
2024-07-30T0900,2656A,106.6692,35.5461,平凉市,聚贤嘉苑,,,32,35,17,19,,,46,46,19,29,8,7,,0.2
2024-07-30T0900,2657A,106.7021,35.5307,平凉市,博物馆,,40,40,39,14,13,53,,55,55,14,17,6,6,0.7,0.5
2024-07-30T0900,2347A,114.0997,27.5002,萍乡市,武功山,,13,6,7,3,3,40,,26,26,3,3,13,13,0.2,0.2
2024-07-30T0900,2348A,113.8385,27.6434,萍乡市,中医院,,30,30,12,8,8,22,,14,14,18,8,11,6,1.1,0.7
2024-07-30T0900,2349A,113.8493,27.6253,萍乡市,市政府车库,,19,19,10,12,8,26,,13,13,11,5,11,10,1.4,0.5
2024-07-30T0900,2350A,113.8676,27.6435,萍乡市,市环保局,,,22,12,3,9,,,18,17,,4,,11,,0.6
2024-07-30T0900,2351A,113.866,27.6198,萍乡市,安源区政府,,29,16,18,3,3,24,,10,10,15,6,12,8,2.9,0.5
2024-07-30T0900,2319A,119.0141,25.4325,莆田市,荔城区仓后路,,8,7,16,3,3,18,,18,18,9,6,6,6,0.6,0.6
2024-07-30T0900,2320A,119.0015,25.4553,莆田市,莆田市监测站,,22,22,18,11,3,16,,15,15,3,3,5,5,0.4,0.4
2024-07-30T0900,2321A,119.1119,25.4561,莆田市,涵江区六中,,6,6,14,3,3,17,,13,13,5,5,6,6,0.4,0.4
2024-07-30T0900,2322A,119.1013,25.3215,莆田市,秀屿区政府,,19,19,16,3,1,20,,14,14,7,7,6,6,0.5,0.5
2024-07-30T0900,2323A,118.981,25.4792,莆田市,东圳水库,,,,,,,,,,,,,,,,
2024-07-30T0900,2392A,115.0312,35.7636,濮阳市,环保局,,,23,17,10,10,68,,50,50,,8,,4,0.6,0.5
2024-07-30T0900,2394A,115.0574,35.7609,濮阳市,油田运输公司,,25,25,16,13,12,64,,45,45,3,3,1,1,0.4,0.4
2024-07-30T0900,2395A,115.0866,35.7754,濮阳市,油田物探公司,,23,23,18,13,14,64,,40,40,4,5,7,6,0.5,0.5
2024-07-30T0900,3021A,115,35.7668,濮阳市,濮水河管理处,,24,24,16,13,15,59,,46,46,5,6,1,1,0.4,0.5
2024-07-30T0900,2601A,100.98,22.7633,普洱市,市环保局,,23,,7,16,10,22,,20,20,6,5,5,5,0.4,0.4
2024-07-30T0900,2602A,100.9817,22.8322,普洱市,普洱第二中学,,9,9,9,6,10,16,,15,15,10,8,1,2,0.5,0.5
2024-07-30T0900,2262A,131.0518,45.8751,七台河市,新一中,,16,,12,11,7,43,,34,33,6,10,10,10,0.9,0.9
2024-07-30T0900,3345A,131.0577,45.7879,七台河市,中波台,,10,6,8,6,7,31,,31,30,8,10,10,11,0.4,0.4
2024-07-30T0900,3637A,131.0176,45.7761,七台河市,人民广场,,12,12,16,3,6,33,,35,33,7,11,9,9,0.3,0.4
2024-07-30T0900,3684A,130.8781,45.8222,七台河市,新建矿广场,,29,29,36,11,14,41,,28,26,14,19,11,11,0.5,0.5
2024-07-30T0900,1779A,123.9305,47.3636,齐齐哈尔市,安居小区,,28,19,22,12,15,87,,41,41,10,13,6,6,0.6,0.5
2024-07-30T0900,1780A,123.9488,47.3386,齐齐哈尔市,中心广场,,28,28,22,9,9,88,,49,49,15,13,3,2,0.8,0.3
2024-07-30T0900,1781A,123.9483,47.3227,齐齐哈尔市,农牧车辆厂,,34,34,28,14,7,80,,47,47,15,14,8,8,0.5,0.4
2024-07-30T0900,1783A,123.945,47.2988,齐齐哈尔市,市环境监测站,,31,31,21,14,13,75,,37,37,14,13,7,6,0.3,0.3
2024-07-30T0900,3662A,123.6333,47.2075,齐齐哈尔市,富区青少年活动中心,,25,20,34,17,17,70,,35,35,21,19,6,5,0.8,0.4
2024-07-30T0900,2591A,107.9783,26.5747,黔东南苗族侗族自治州,市环境监测站,,9,,8,3,6,28,,34,32,15,13,3,3,0.6,0.6
2024-07-30T0900,2881A,107.8908,26.5311,黔东南苗族侗族自治州,凯里学院,,8,,5,3,5,21,,22,21,8,7,4,4,0.3,0.3
2024-07-30T0900,2593A,107.5228,26.2403,黔南布依族苗族自治州,小围寨,,10,7,3,3,0,30,,33,32,4,4,4,3,0.3,0.4
2024-07-30T0900,3538A,107.5175,26.2978,黔南布依族苗族自治州,沙坝,,11,9,7,3,1,34,,32,32,5,5,4,3,0.2,0.3
2024-07-30T0900,2589A,104.9022,25.0925,黔西南布依族苗族自治州,场坝街,,14,13,14,3,6,43,,43,43,12,6,7,4,0.3,0.2
2024-07-30T0900,2590A,104.8811,25.0992,黔西南布依族苗族自治州,坪东大道,,19,19,15,3,6,51,,48,48,7,4,5,4,0.4,0.3
2024-07-30T0900,2502A,108.6236,21.9667,钦州市,市环保站,,,0,9,,3,45,,40,40,7,9,5,7,0.5,0.5
2024-07-30T0900,2503A,108.6549,21.9481,钦州市,沙埠小学,,,,17,2,7,44,,36,36,10,10,6,7,0.4,0.5
2024-07-30T0900,2504A,108.5989,21.7431,钦州市,港区一小,,15,7,20,3,6,48,,42,42,10,11,7,8,0.5,0.6
2024-07-30T0900,3404A,108.5959,21.9633,钦州市,北职校,,15,6,15,3,7,45,,41,41,7,8,5,6,0.6,0.6
2024-07-30T0900,1042A,119.5134,39.8207,秦皇岛市,北戴河环保局,,,22,46,7,18,,,66,66,13,9,2,2,0.6,0.5
2024-07-30T0900,1043A,119.7493,40.0116,秦皇岛市,第一关,,38,30,47,26,32,27,,18,18,45,32,2,2,0.4,0.5
2024-07-30T0900,1044A,119.5897,39.9499,秦皇岛市,监测站,,31,31,66,10,29,80,,61,61,8,22,4,4,0.4,0.8
2024-07-30T0900,1046A,119.5251,39.9041,秦皇岛市,建设大厦,,,28,49,8,15,,,56,56,11,17,1,1,0.1,0.6
2024-07-30T0900,3132A,119.610547,39.943889,秦皇岛市,文明里,,23,18,35,8,20,72,,65,65,8,16,3,3,0.3,0.7
2024-07-30T0900,1307A,120.6659,36.2403,青岛市,仰口,,38,29,26,17,20,120,,113,111,9,12,5,5,0.0,0.1
2024-07-30T0900,1310A,120.4134,36.0658,青岛市,市南区东部子站,,27,24,29,3,9,86,,92,90,14,10,9,7,0.4,0.5
2024-07-30T0900,1311A,120.3664,36.1032,青岛市,四方区子站,,36,36,32,22,19,104,,108,103,18,14,13,12,0.7,0.7
2024-07-30T0900,1312A,120.2994,36.054,青岛市,市南区西部子站,,29,27,32,3,9,92,,105,101,15,14,8,7,0.6,0.6
2024-07-30T0900,1313A,120.4581,36.0858,青岛市,崂山区子站,,,24,33,3,11,102,,91,90,,12,9,8,0.5,0.6
2024-07-30T0900,1314A,120.1983,35.9608,青岛市,黄岛区子站,,29,29,31,10,18,91,,109,104,16,12,8,8,0.6,0.6
2024-07-30T0900,1315A,120.3999,36.3083,青岛市,城阳区子站,,44,44,38,15,18,128,,107,105,22,20,9,8,0.7,0.7
2024-07-30T0900,1966A,120.0405,35.8735,青岛市,黄岛区4号,,26,24,29,14,15,83,,90,86,17,15,7,6,0.6,0.6
2024-07-30T0900,3362A,120.5014,36.4034,青岛市,即墨2号,,45,41,35,16,16,142,,117,115,16,14,7,7,0.6,0.6
2024-07-30T0900,3642A,120.3503,36.0736,青岛市,市北区南部,,35,,28,24,16,89,,105,100,18,11,6,7,0.6,0.6
2024-07-30T0900,3643A,120.3948,36.1805,青岛市,李沧区北部,,,,43,,23,,,99,94,,21,,10,,0.5
2024-07-30T0900,1702A,113.0426,23.691,清远市,环保大楼,,8,8,10,3,5,21,,23,22,8,8,6,7,0.5,0.5
2024-07-30T0900,1703A,113.0208,23.7106,清远市,凤城街办,,11,11,13,6,8,19,,19,18,8,9,5,5,0.4,0.4
2024-07-30T0900,3025A,113.0477,23.6344,清远市,技师学院,,16,16,17,7,9,21,,16,16,11,17,4,6,0.4,0.5
2024-07-30T0900,3318A,112.9903,23.7403,清远市,清新太和,,17,17,12,7,6,16,,21,19,6,5,9,8,0.6,0.6
2024-07-30T0900,3455A,113.076,23.7198,清远市,清城东城,,15,15,16,3,7,18,,17,16,5,6,6,6,0.5,0.6
2024-07-30T0900,2661A,107.6325,35.7357,庆阳市,庆阳五中,,35,25,21,14,15,109,,110,107,7,7,4,4,0.4,0.4
2024-07-30T0900,2662A,107.6364,35.7067,庆阳市,市环保局,,35,,14,14,12,109,,111,108,6,8,4,5,0.5,0.5
2024-07-30T0900,1916A,103.7897,25.5035,曲靖市,环境监测站,,15,13,15,10,7,43,,46,46,12,8,5,2,0.6,0.6
2024-07-30T0900,1917A,103.8,25.5364,曲靖市,烟厂办公区,,12,,13,7,8,37,,44,42,13,9,4,4,0.6,0.5
2024-07-30T0900,3376A,103.7947,25.462,曲靖市,南苑二区,,16,11,12,8,8,49,,46,46,12,9,4,5,0.6,0.7
2024-07-30T0900,3377A,103.7444,25.5261,曲靖市,曲靖师范学院,,16,12,18,11,11,41,,42,41,13,12,8,10,0.6,0.6
2024-07-30T0900,1264A,118.8692,28.9398,衢州市,环保大楼,,20,20,18,8,8,47,,33,33,11,14,2,2,0.4,0.4
2024-07-30T0900,1265A,118.8709,28.9666,衢州市,实验学校,,19,19,17,7,7,49,,34,34,8,11,6,4,0.4,0.4
2024-07-30T0900,1266A,118.8621,28.9808,衢州市,衢州学院,,16,16,16,6,7,49,,32,32,8,13,3,3,0.4,0.3
2024-07-30T0900,1611A,118.5819,24.9117,泉州市,涂山街,,36,36,32,11,14,39,,19,19,8,12,4,4,0.6,0.6
2024-07-30T0900,1612A,118.5972,24.8978,泉州市,津头埔,,,34,29,10,13,,,16,16,12,15,3,3,0.7,0.7
2024-07-30T0900,1613A,118.6663,24.9424,泉州市,万安,,33,33,25,12,10,34,,13,13,12,10,2,2,0.5,0.5
2024-07-30T0900,1614A,118.6117,24.9604,泉州市,清源山,,,,,,,,,,,,,,,,
2024-07-30T0900,3529A,118.6333,24.9264,泉州市,城华南路,,26,26,22,16,10,24,,13,13,10,10,2,2,0.4,0.4
2024-07-30T0900,2626A,88.8876,29.2718,日喀则市,日喀则监测站,,35,35,20,13,8,89,,111,104,15,10,5,6,0.4,0.3
2024-07-30T0900,3726A,88.8781,29.2426,日喀则市,林业技术推广中心,,23,19,11,12,8,71,,108,98,19,10,6,6,0.6,0.5
2024-07-30T0900,1659A,119.471,35.4209,日照市,监测站,,41,41,37,23,20,98,,67,67,22,21,10,9,1.3,0.7
2024-07-30T0900,1660A,119.523,35.4216,日照市,市政府广场,颗粒物(PM10),52,53,40,27,19,96,,64,64,27,28,10,10,1.5,0.8
2024-07-30T0900,1661A,119.5587,35.4044,日照市,港务局,,,75,51,24,19,,,52,47,30,30,10,13,0.7,0.6
2024-07-30T0900,3507A,119.5328,35.4625,日照市,职业技术学院,颗粒物(PM10),53,56,47,27,21,94,,58,58,32,25,20,11,1.3,0.8
2024-07-30T0900,3604A,119.3266,35.1044,日照市,岚山环保分局,,41,41,27,24,15,125,,82,82,13,12,11,8,0.7,0.6
2024-07-30T0900,1835A,111.1922,34.7752,三门峡市,市政府,,27,,10,3,7,86,,83,83,16,10,8,7,0.6,0.6
2024-07-30T0900,1836A,111.1587,34.7942,三门峡市,开发区,,19,,15,12,13,58,,55,55,15,13,7,7,0.5,0.5
2024-07-30T0900,1838A,111.143,34.7955,三门峡市,风景区,,,,,,,,,,,,,,,,
2024-07-30T0900,3039A,111.1911,34.7829,三门峡市,三门峡市第一小学,,27,6,11,3,4,84,,83,83,17,9,10,7,0.5,0.5
2024-07-30T0900,3598A,111.1,34.7167,三门峡市,富达温泉假日酒店,,,,15,,12,,,69,,,13,,9,,0.8
2024-07-30T0900,2324A,117.6211,26.2625,三明市,三钢,细颗粒物(PM2.5),62,44,22,44,16,16,,7,7,20,13,20,9,1.3,0.7
2024-07-30T0900,2325A,117.635,26.2714,三明市,三明二中,,35,35,19,17,10,22,,8,8,18,12,16,4,0.8,0.5
2024-07-30T0900,2326A,117.6028,26.2378,三明市,三元区政府,细颗粒物(PM2.5),70,58,27,51,15,13,,5,5,23,15,19,7,0.8,0.5
2024-07-30T0900,2327A,117.7275,26.3108,三明市,洋溪,,,,,,,,,,,,,,,,
2024-07-30T0900,1876A,109.5078,18.2489,三亚市,河东子站,,18,18,14,10,7,33,,18,18,6,9,3,3,0.4,0.4
2024-07-30T0900,1877A,109.4964,18.2681,三亚市,河西子站,,,,13,,5,,,9,9,,13,,3,,0.3
2024-07-30T0900,3540A,109.7348,18.3443,三亚市,君悦子站,,22,22,17,11,8,13,,20,20,9,8,2,2,0.4,0.4
2024-07-30T0900,2624A,91.7608,29.2313,山南市,山南监测站,,29,27,15,20,7,71,,93,85,13,8,6,6,0.2,0.2
2024-07-30T0900,2625A,91.7706,29.2436,山南市,山南人民医院,,34,34,20,12,11,74,,95,88,17,11,6,6,0.2,0.1
2024-07-30T0900,1674A,116.6794,23.3667,汕头市,金平子站,,21,21,17,7,7,36,,49,47,10,8,6,6,0.9,0.8
2024-07-30T0900,1675A,116.7244,23.3633,汕头市,龙湖子站,,22,22,18,6,6,31,,47,44,8,6,5,5,0.7,0.7
2024-07-30T0900,1676A,116.7258,23.2775,汕头市,濠江子站,细颗粒物(PM2.5),62,,19,44,34,36,,48,46,9,10,4,5,0.5,0.5
2024-07-30T0900,1677A,116.7519,23.4714,汕头市,澄海子站,,,,46,20,11,31,,42,38,9,8,3,3,0.6,0.5
2024-07-30T0900,1678A,116.6092,23.2539,汕头市,潮阳子站,,12,12,17,8,9,30,,37,36,4,5,4,4,0.6,0.6
2024-07-30T0900,3444A,116.454,23.2684,汕头市,潮南峡山,,14,14,20,3,10,39,,41,41,2,5,4,4,0.6,0.7
2024-07-30T0900,3624A,116.4069,23.2533,汕头市,潮南子站,,15,15,25,3,10,37,,38,37,6,6,7,7,0.7,0.7
2024-07-30T0900,1693A,115.3653,22.775,汕尾市,市环保局,,10,,11,3,4,30,,26,26,10,11,5,6,0.4,0.4
2024-07-30T0900,1694A,115.3706,22.7898,汕尾市,市政府,,10,,12,7,11,32,,25,25,8,7,7,7,0.4,0.4
2024-07-30T0900,1695A,115.3622,22.7925,汕尾市,新城中学,,12,10,13,3,4,36,,29,29,7,7,5,6,0.5,0.4
2024-07-30T0900,2645A,109.9154,33.8715,商洛市,监测站,,20,,0,3,8,64,,77,74,10,5,6,6,0.8,0.8
2024-07-30T0900,3045A,109.9643,33.8471,商洛市,商州区中学,,,,8,,9,,,68,,,13,,4,,0.8
2024-07-30T0900,2408A,115.6702,34.4285,商丘市,环境监测站,,22,21,19,10,8,68,,47,47,6,5,6,4,0.3,0.3
2024-07-30T0900,2409A,115.6458,34.4045,商丘市,粮食局,,23,22,18,7,6,72,,49,49,6,6,5,4,0,0
2024-07-30T0900,2410A,115.6293,34.3948,商丘市,睢阳区环保局,,30,30,19,11,8,66,,43,43,6,6,6,5,0.4,0.4
2024-07-30T0900,3171A,115.6071,34.4465,商丘市,梁园区档案局,,29,29,17,11,9,69,,47,47,5,5,6,5,0.4,0.3
2024-07-30T0900,1141A,121.4,31.238,上海市,普陀,,18,18,22,3,6,28,,16,16,10,13,6,9,0.3,0.3
2024-07-30T0900,1142A,121.478,31.2036,上海市,十五厂,,18,18,20,6,10,29,,17,17,13,15,10,10,0.3,0.3
2024-07-30T0900,1143A,121.467,31.3008,上海市,虹口,,18,18,19,9,12,26,,17,17,10,12,9,8,0.4,0.4
2024-07-30T0900,1144A,121.412,31.1654,上海市,徐汇上师大,,26,26,20,10,9,31,,18,18,12,17,6,6,0.5,0.5
2024-07-30T0900,1145A,121.536,31.2659,上海市,杨浦四漂,,16,16,21,3,8,34,,19,19,8,13,6,7,0.2,0.2
2024-07-30T0900,1147A,121.425,31.2261,上海市,静安监测站,,18,18,21,12,9,29,,16,16,12,14,11,9,0.4,0.4
2024-07-30T0900,1148A,121.703,31.1907,上海市,浦东川沙,,23,23,19,3,7,30,,20,20,10,13,6,6,0.6,0.6
2024-07-30T0900,1149A,121.533,31.2284,上海市,浦东新区监测站,,13,13,17,7,7,29,,18,18,10,13,5,5,0.5,0.5
2024-07-30T0900,1150A,121.577,31.2071,上海市,浦东张江,,16,16,17,8,9,27,,17,17,11,14,5,5,0.5,0.5
2024-07-30T0900,3265A,121.4316,31.3322,上海市,宝山庙行,,15,15,23,3,8,33,,21,21,10,12,16,13,0.6,0.5
2024-07-30T0900,3266A,121.8791,31.4662,上海市,崇明上实东滩,,14,14,14,6,5,25,,18,18,8,11,8,7,0.5,0.4
2024-07-30T0900,3268A,121.3162,31.2838,上海市,嘉定南翔,,15,15,19,7,8,23,,13,13,16,19,6,7,0.4,0.4
2024-07-30T0900,3269A,121.3359,30.7456,上海市,金山新城,,15,15,17,7,8,37,,23,23,9,10,8,8,0.4,0.4
2024-07-30T0900,3270A,121.4996,31.0739,上海市,闵行浦江,,13,13,14,3,8,32,,18,18,12,15,6,6,0.2,0.2
2024-07-30T0900,3271A,121.2886,31.1663,上海市,青浦徐泾,,16,16,20,3,8,27,,16,16,12,14,7,6,0.5,0.5
2024-07-30T0900,3272A,121.2186,31.0378,上海市,松江图书馆,,14,14,18,6,9,30,,20,20,8,11,5,6,0.6,0.6
2024-07-30T0900,3273A,121.3902,31.2059,上海市,长宁仙霞,,16,16,20,8,9,29,,20,20,12,15,8,9,0.5,0.4
2024-07-30T0900,3274A,121.7965,31.0507,上海市,浦东惠南,,15,15,21,3,7,28,,19,19,8,13,8,8,0.6,0.5
2024-07-30T0900,3544A,121.4891,30.925,上海市,奉贤南桥新城,,17,17,16,8,7,29,,17,17,13,15,7,7,0.4,0.4
2024-07-30T0900,2381A,118.005,28.4572,上饶市,百草园,,22,22,15,14,9,46,,40,39,13,5,2,3,0.7,0.6
2024-07-30T0900,2382A,117.9756,28.4436,上饶市,市监测站,,28,28,17,11,8,56,,43,43,13,7,9,4,0.5,0.5
2024-07-30T0900,2383A,117.9519,28.4628,上饶市,凤凰光学,,36,36,17,9,8,40,,28,27,17,9,5,5,0.9,0.8
2024-07-30T0900,3413A,118.1953,28.4401,上饶市,广丰区教体局,,18,18,14,10,6,44,,21,21,5,7,10,10,0.5,0.6
2024-07-30T0900,3685A,117.897,28.4315,上饶市,双创科技城,,20,20,20,8,7,42,,36,35,11,6,6,6,0.6,0.6
2024-07-30T0900,1669A,113.5824,24.7733,韶关市,市八中,,28,28,16,8,5,19,,10,10,3,4,8,10,0.4,0.4
2024-07-30T0900,1671A,113.5917,24.7972,韶关市,园林处,,23,23,13,10,4,21,,13,13,2,3,9,10,0.5,0.5
2024-07-30T0900,1672A,113.6735,24.7791,韶关市,韶关学院,,24,24,12,9,4,16,,7,7,7,7,17,10,0.4,0.4
2024-07-30T0900,1673A,113.5971,24.6863,韶关市,曲江监测站,,29,29,18,11,6,20,,7,7,9,8,29,9,1.3,0.6
2024-07-30T0900,3622A,113.5556,24.8082,韶关市,碧湖山庄,,42,42,19,14,7,16,,9,9,3,3,9,10,0.6,0.6
2024-07-30T0900,2462A,111.5239,27.3033,邵阳市,市水土所,,16,16,16,8,10,39,,10,10,6,5,7,7,0.4,0.4
2024-07-30T0900,2463A,111.4733,27.2317,邵阳市,市一中,,13,12,16,7,7,41,,35,35,6,4,12,11,0.5,0.5
2024-07-30T0900,2464A,111.5283,27.2442,邵阳市,市化工厂,,18,,12,12,5,45,,28,28,5,6,10,9,0.6,0.6
2024-07-30T0900,2465A,111.4503,27.2537,邵阳市,市罐头厂,,27,27,16,10,9,46,,29,29,6,6,6,4,0.4,0.4
2024-07-30T0900,2466A,111.4328,27.2272,邵阳市,市环保局,,20,20,14,10,8,42,,34,34,6,4,11,7,0.2,0.2
2024-07-30T0900,1247A,120.6053,29.9928,绍兴市,城东开发委,,11,8,12,3,6,33,,26,25,4,8,5,5,0.5,0.4
2024-07-30T0900,2921A,120.5483,30.0003,绍兴市,树下王站,,12,10,11,3,8,38,,30,29,5,6,4,4,0.4,0.4
2024-07-30T0900,3408A,120.5683,29.9361,绍兴市,绍兴中专,,13,6,12,3,6,41,,30,30,4,6,2,3,0.4,0.4
2024-07-30T0900,3409A,120.4906,30.0861,绍兴市,柯桥区政府,,13,13,15,9,7,39,,32,31,2,5,5,6,0.5,0.5
2024-07-30T0900,3410A,120.8752,30.0249,绍兴市,重华小学,,12,9,13,3,7,38,,23,23,4,5,11,9,0.6,0.5
2024-07-30T0900,3411A,120.8369,30.0137,绍兴市,上虞中学,,13,13,15,8,8,30,,16,16,6,9,9,8,0.4,0.4
2024-07-30T0900,3560A,120.4722,30.0415,绍兴市,柯桥妇保,,14,14,15,3,6,37,,28,27,7,7,6,6,0.5,0.5
2024-07-30T0900,3658A,120.6153,30.0764,绍兴市,袍江中学,,12,12,15,3,6,37,,26,26,4,5,4,4,0.4,0.4
2024-07-30T0900,1356A,114.1063,22.5545,深圳市,通心岭子站,,9,9,9,3,4,26,,23,23,7,10,6,5,0.6,0.6
2024-07-30T0900,1357A,114.117,22.5625,深圳市,洪湖,,,,10,,3,,,11,11,9,13,6,6,0.3,0.3
2024-07-30T0900,1358A,113.987,22.5417,深圳市,华侨城,,9,8,11,3,5,27,,21,21,2,6,4,4,0.4,0.4
2024-07-30T0900,1359A,113.9181,22.5171,深圳市,南海子站,,,,12,,6,,,26,26,7,12,5,5,0.5,0.5
2024-07-30T0900,1360A,114.2458,22.5689,深圳市,盐田,,15,12,13,3,3,10,,11,11,30,28,8,7,0.4,0.4
2024-07-30T0900,1361A,114.2283,22.7244,深圳市,龙岗,,10,,9,3,3,30,,20,20,9,9,4,4,0.7,0.6
2024-07-30T0900,1363A,114.494,22.5422,深圳市,南澳,,10,8,8,3,3,32,,34,33,6,5,5,5,0.4,0.4
2024-07-30T0900,1364A,114.41,22.6342,深圳市,葵涌,,10,7,7,3,3,31,,33,33,8,6,5,5,0.6,0.5
2024-07-30T0900,1365A,114.297,22.5978,深圳市,梅沙,,11,10,12,3,0,35,,32,32,2,2,4,4,0.8,0.8
2024-07-30T0900,1366A,114.0678,22.738,深圳市,观澜,,13,13,15,3,6,22,,18,18,8,9,4,4,0.7,0.7
2024-07-30T0900,3305A,114.0731,22.559,深圳市,莲花,,11,11,13,3,5,22,,14,14,6,8,6,6,0.3,0.3
2024-07-30T0900,3306A,114.0261,22.6198,深圳市,民治,,10,10,11,6,6,19,,14,14,14,16,5,5,0.6,0.6
