timepoint,stationcode,longitude,latitude,area,positionname,primarypollutant,aqi,pm10,pm10_24h,pm2_5,pm2_5_24h,o3,o3_24h,o3_8h,o3_8h_24h,no2,no2_24h,so2,so2_24h,co,co_24h
2024-10-14T1600,2566A,102.1879,31.914,阿坝藏族羌族自治州,州农科所,,,,38,,8,,,54,,,24,,12,,0
2024-10-14T1600,2568A,102.2502,31.8896,阿坝藏族羌族自治州,马师校,,21,13,16,8,13,67,,50,50,12,10,5,4,0.2,0.2
2024-10-14T1600,3994A,102.2165,31.9024,阿坝藏族羌族自治州,马尔康中学西区,,21,21,23,11,16,63,,45,45,10,11,6,4,0.3,0.3
2024-10-14T1600,2695A,80.292,41.1694,阿克苏地区,电视台,颗粒物(PM10),89,127,97,36,32,116,,67,67,9,33,6,3,0.5,0.8
2024-10-14T1600,2696A,80.2613,41.1551,阿克苏地区,艺术中心,颗粒物(PM10),81,111,89,31,35,102,,60,60,12,36,4,4,0.2,0.4
2024-10-14T1600,2204A,105.6467,38.8363,阿拉善盟,西城区西花园,,35,29,43,15,20,111,,102,100,6,17,8,8,1.1,1.2
2024-10-14T1600,2205A,105.6985,38.8411,阿拉善盟,蒙二幼,,33,26,43,6,11,104,,101,95,7,13,6,8,0.6,0.7
2024-10-14T1600,2206A,105.724,38.8516,阿拉善盟,环保局新楼,,33,22,32,7,12,105,,108,99,6,8,8,9,0.8,0.8
2024-10-14T1600,2708A,88.1264,47.8517,阿勒泰地区,市站,,16,9,13,3,6,51,,37,37,19,18,7,8,0.5,0.5
2024-10-14T1600,2630A,80.1161,32.5,阿里地区,阿里监测站,,40,8,15,3,6,126,,97,97,2,16,9,12,0.3,0.5
2024-10-14T1600,3192A,80.0903,32.5028,阿里地区,阿里藏医院,,40,7,15,3,4,126,,104,104,3,11,6,8,0.3,0.4
2024-10-14T1600,2642A,109.0318,32.6537,安康市,香溪洞,,35,35,34,16,23,88,,42,42,6,10,8,9,0.3,0.5
2024-10-14T1600,2643A,109.0281,32.6939,安康市,安康市监测站,,30,,43,21,28,94,,46,46,8,16,8,11,0.5,0.6
2024-10-14T1600,2644A,109.0072,32.6975,安康市,汉滨区检察院,,30,20,43,20,29,96,,48,48,10,16,9,9,0.5,0.5
2024-10-14T1600,2291A,117.0809,30.5177,安庆市,环科院,细颗粒物(PM2.5),59,51,55,42,43,82,,90,74,19,17,8,8,0.7,0.7
2024-10-14T1600,2292A,117.0331,30.5119,安庆市,马山宾馆,细颗粒物(PM2.5),54,50,50,38,39,86,,96,79,22,18,10,10,0.8,0.7
2024-10-14T1600,2294A,116.9896,30.6145,安庆市,安庆大学,细颗粒物(PM2.5),57,50,50,40,40,85,,90,79,11,12,8,8,0.7,0.6
2024-10-14T1600,3173A,117.0598,30.5351,安庆市,市人大,细颗粒物(PM2.5),59,53,51,42,40,78,,88,74,23,18,9,9,0.7,0.6
2024-10-14T1600,3122A,105.9606,26.2611,安顺市,伍家关,,22,16,14,15,17,65,,57,57,10,9,3,6,0.8,0.8
2024-10-14T1600,3123A,105.9408,26.2431,安顺市,凤凰山,,23,18,20,14,18,72,,60,60,8,10,6,10,0.5,0.6
2024-10-14T1600,3124A,105.9439,26.2564,安顺市,金钟山,,25,18,19,17,20,73,,60,60,6,8,8,11,0.6,0.7
2024-10-14T1600,3125A,105.8983,26.2481,安顺市,娄家坡,,23,18,21,16,21,71,,58,58,10,10,6,9,0.6,0.7
2024-10-14T1600,1818A,114.4839,36.0621,安阳市,棉研所,细颗粒物(PM2.5),125,,181,95,141,200,,129,129,23,58,8,7,0.7,0.9
2024-10-14T1600,1819A,114.3551,36.1017,安阳市,红庙街,臭氧1小时,90,73,148,55,104,192,,140,140,11,48,6,4,0.6,1
2024-10-14T1600,1820A,114.361,36.0681,安阳市,银杏小区,臭氧1小时,88,76,134,60,110,190,,134,134,6,34,6,4,0.6,1
2024-10-14T1600,3141A,114.3922,36.0878,安阳市,信访局,臭氧1小时,89,95,159,53,95,191,,136,136,8,42,6,4,0.4,0.8
2024-10-14T1600,3669A,114.4705,36.0637,安阳市,左辅环卫站,臭氧1小时,87,121,188,58,119,189,,126,126,21,67,4,4,0.6,0.8
2024-10-14T1600,3703A,114.2917,36.0949,安阳市,安钢职工学校,臭氧1小时,97,106,143,46,97,197,,150,150,15,39,6,2,0.6,0.8
2024-10-14T1600,1748A,123.044,41.1196,鞍山市,深沟寺,,32,25,42,10,22,102,,104,104,10,12,5,5,0.4,0.6
2024-10-14T1600,1749A,123.011,41.0931,鞍山市,太阳城,,34,21,38,11,22,106,,110,110,11,12,9,10,0.4,0.5
2024-10-14T1600,1750A,123.0485,41.1442,鞍山市,太平,,32,31,47,12,26,102,,103,103,14,18,8,9,0.4,0.6
2024-10-14T1600,1751A,122.9642,41.0971,鞍山市,铁西三道街,,44,44,64,18,29,101,,103,103,23,29,6,5,0.6,0.7
2024-10-14T1600,1752A,122.9341,41.0833,鞍山市,铁西工业园区,,40,40,60,19,32,112,,112,112,16,25,11,9,0.6,0.6
2024-10-14T1600,1753A,123.022,41.0821,鞍山市,明达新区,,31,22,41,13,26,97,,101,101,10,9,4,5,0.4,0.5
2024-10-14T1600,1754A,123.1289,41.0228,鞍山市,千山,,,,36,,20,,,75,,,10,,6,,0.3
2024-10-14T1600,2195A,107.4212,40.761,巴彦淖尔市,附二中,颗粒物(PM10),60,69,101,21,35,98,,78,78,10,24,10,5,0.2,0.4
2024-10-14T1600,2196A,107.37,40.7372,巴彦淖尔市,市环保大楼,颗粒物(PM10),53,56,86,11,30,99,,78,78,8,18,4,4,0.2,0.3
2024-10-14T1600,1956A,86.1472,41.7538,巴音郭楞蒙古自治州,孔雀公园,颗粒物(PM10),60,69,113,15,28,102,,86,86,11,30,6,4,0.3,0.5
2024-10-14T1600,1957A,86.1972,41.7166,巴音郭楞蒙古自治州,棉纺厂,颗粒物(PM10),54,58,129,9,32,101,,86,86,6,25,2,4,0.2,0.4
2024-10-14T1600,1958A,86.2357,41.7173,巴音郭楞蒙古自治州,经济开发区,颗粒物(PM10),51,51,115,20,31,102,,92,92,4,14,2,2,0.2,0.3
2024-10-14T1600,2914A,106.7677,31.8794,巴中市,苏山坪,,33,14,18,9,15,104,,71,71,8,9,3,3,0.4,0.5
2024-10-14T1600,3182A,106.7656,31.8545,巴中市,丽阳花园,,31,14,22,9,15,99,,60,60,9,20,5,5,0.5,0.7
2024-10-14T1600,3183A,106.7418,31.8654,巴中市,圣泉水务公司,,32,14,17,10,12,101,,64,64,6,19,3,4,0.5,0.6
2024-10-14T1600,3616A,106.7616,31.8344,巴中市,市中心医院,,31,14,24,7,14,97,,59,59,8,21,4,5,0.5,0.7
2024-10-14T1600,2235A,122.7911,45.6077,白城市,洮北区环保局,颗粒物(PM10),71,91,68,36,39,131,,121,121,10,11,6,6,0.6,0.7
2024-10-14T1600,2236A,122.8738,45.5725,白城市,市环保局,颗粒物(PM10),76,102,75,31,34,128,,118,118,14,15,5,6,0.7,0.6
2024-10-14T1600,2231A,126.4219,41.9171,白山市,喜丰,,33,27,81,3,22,103,,93,93,6,33,8,11,0.5,0.7
2024-10-14T1600,2232A,126.4077,41.9419,白山市,环保局,,37,37,68,13,24,85,,78,78,18,35,9,9,0.6,0.8
2024-10-14T1600,2647A,104.1724,36.5446,白银市,第三小学,,36,36,60,14,32,84,,60,60,11,33,104,66,0.8,1.3
2024-10-14T1600,2648A,104.1465,36.5482,白银市,动力公司,,36,36,45,14,28,84,,53,53,11,26,10,29,0.7,0.9
2024-10-14T1600,2512A,106.6103,23.9011,百色市,市监测站,,16,,71,9,48,49,,40,40,8,21,6,12,0.9,1.1
2024-10-14T1600,2513A,106.6538,23.8859,百色市,市中心血站,,28,,86,19,56,44,,39,39,12,23,4,12,0.8,1
2024-10-14T1600,3406A,106.6085,23.8798,百色市,祈福高中,,33,,88,23,56,41,,36,36,7,24,4,8,0.9,1.1
2024-10-14T1600,2270A,117.396,32.939,蚌埠市,工人疗养院,,50,44,74,27,46,157,,128,128,10,22,6,6,0.5,0.6
2024-10-14T1600,2271A,117.3605,32.9427,蚌埠市,百货大楼,,50,47,69,27,45,158,,128,128,10,18,6,6,0.3,0.5
2024-10-14T1600,2273A,117.4185,32.8911,蚌埠市,蚌埠学院,臭氧1小时,58,46,58,34,49,166,,149,149,9,18,7,7,0.5,0.6
2024-10-14T1600,2274A,117.3533,32.9673,蚌埠市,淮上区政府,,49,44,67,29,49,156,,129,129,8,24,6,6,0.5,0.6
2024-10-14T1600,2275A,117.3145,32.8977,蚌埠市,高新区,,49,41,58,33,48,156,,130,130,12,23,7,7,0.4,0.5
2024-10-14T1600,3715A,117.3092,32.9314,蚌埠市,蚌埠田家炳中学,,49,45,74,28,46,154,,125,125,10,21,6,8,0.4,0.5
2024-10-14T1600,1585A,109.8756,40.6532,包头市,市环境监测站,,40,40,47,10,27,96,,76,76,12,32,5,11,0.4,0.9
2024-10-14T1600,1587A,109.9991,40.5842,包头市,包头八中,颗粒物(PM10),54,58,52,3,33,96,,51,51,11,32,1,11,0.4,0.9
2024-10-14T1600,1588A,109.8538,40.6821,包头市,青山宾馆,,31,31,43,3,31,95,,73,73,11,35,6,9,0.5,1
2024-10-14T1600,1589A,109.8642,40.6288,包头市,惠龙物流,,50,50,49,18,32,94,,59,59,11,33,5,14,0.4,1
2024-10-14T1600,1590A,110.0377,40.5546,包头市,东河鸿龙湾,颗粒物(PM10),58,65,34,20,26,93,,56,56,8,25,6,11,0.4,0.8
2024-10-14T1600,3283A,109.9154,40.5685,包头市,滨河大厦,,31,29,37,12,27,97,,56,56,12,30,9,12,0.4,0.8
2024-10-14T1600,3419A,109.9447,40.6261,包头市,包头市委党校,,31,30,53,3,25,97,,69,69,17,41,4,13,0.3,0.7
2024-10-14T1600,3683A,109.8331,40.6576,包头市,昆区政府,,40,40,46,6,34,94,,71,71,11,32,5,12,0.2,0.7
2024-10-14T1600,1930A,107.185,34.3063,宝鸡市,庙沟村,,35,31,33,18,22,111,,73,73,10,13,8,8,0.5,0.6
2024-10-14T1600,1931A,107.0708,34.3017,宝鸡市,竹园沟,,42,37,34,26,24,133,,80,80,17,21,8,7,0.5,0.5
2024-10-14T1600,1932A,107.1906,34.3672,宝鸡市,三陆医院,,42,42,62,25,43,123,,77,77,17,41,6,11,0.6,0.7
2024-10-14T1600,1933A,107.1431,34.3547,宝鸡市,监测站,,47,47,48,21,28,123,,87,87,18,25,7,8,0.5,0.7
2024-10-14T1600,1934A,107.1186,34.3739,宝鸡市,技工学校,,49,49,55,22,37,126,,77,77,21,26,7,9,0.6,0.7
2024-10-14T1600,1935A,107.3906,34.3528,宝鸡市,陈仓区环保局家属楼,,38,32,68,21,59,120,,87,87,12,43,9,10,0.5,0.7
2024-10-14T1600,1936A,107.2058,34.3497,宝鸡市,文理学院,,39,38,52,24,29,123,,81,81,11,25,9,10,0.6,0.7
2024-10-14T1600,1937A,107.2386,34.3622,宝鸡市,三迪小学,,40,40,60,20,37,120,,88,88,20,43,8,10,0.6,0.7
2024-10-14T1600,1051A,115.493,38.8632,保定市,游泳馆,细颗粒物(PM2.5),125,95,95,95,103,141,,84,84,16,29,8,4,1.0,0.9
2024-10-14T1600,1052A,115.5213,38.8959,保定市,华电二区,细颗粒物(PM2.5),103,92,103,77,94,140,,90,90,18,26,5,4,0.9,1
2024-10-14T1600,1053A,115.4713,38.9108,保定市,接待中心,细颗粒物(PM2.5),113,103,111,85,98,134,,81,81,17,25,5,2,1.0,1
2024-10-14T1600,1054A,115.4612,38.8416,保定市,地表水厂,细颗粒物(PM2.5),133,136,110,101,88,136,,78,78,20,29,4,3,0.9,0.9
2024-10-14T1600,3581A,115.31981,38.95208,保定市,满城区生态环境分局,细颗粒物(PM2.5),89,85,84,66,61,138,,84,84,18,25,4,3,0.9,1
2024-10-14T1600,3582A,115.47694,38.76408,保定市,清苑区第二中学,细颗粒物(PM2.5),149,141,120,114,95,149,,86,86,21,38,9,6,0.7,0.8
2024-10-14T1600,3583A,115.62909,39.02311,保定市,徐水物探局,细颗粒物(PM2.5),140,,88,107,89,139,,73,73,19,35,9,8,0.7,0.9
2024-10-14T1600,4004A,115.4202,38.8656,保定市,双鹰农机,细颗粒物(PM2.5),129,103,107,98,74,154,,90,90,22,34,6,3,1.0,1
2024-10-14T1600,4034A,115.5150,38.8590,保定市,植保所站,细颗粒物(PM2.5),122,111,117,92,96,145,,87,87,23,31,10,9,1.1,1
2024-10-14T1600,2594A,99.1678,25.1081,保山市,市环境监测站,,28,28,32,11,21,81,,59,59,4,8,4,4,0.4,0.4
2024-10-14T1600,2595A,99.1711,25.1328,保山市,市环保局,,34,34,36,14,14,84,,67,67,3,5,4,4,0.4,0.4
2024-10-14T1600,1866A,109.2262,21.588,北海市,牛尾岭水库,,,24,28,17,22,98,,90,90,,,5,8,0.7,0.7
2024-10-14T1600,1867A,109.1436,21.4086,北海市,海滩公园,,35,22,37,12,17,110,,107,107,4,8,7,10,0.6,0.8
2024-10-14T1600,1868A,109.0981,21.4661,北海市,新市环保局,,42,37,37,24,22,132,,113,113,10,11,7,10,0.6,0.7
2024-10-14T1600,1869A,109.1778,21.5233,北海市,北海工业园,,46,46,43,24,24,125,,105,105,18,13,8,14,0.7,0.7
2024-10-14T1600,3400A,109.1911,21.4415,北海市,龙潭自来水厂,,33,29,35,14,23,104,,104,104,5,8,7,10,0.5,0.6
2024-10-14T1600,1001A,116.3621,39.8784,北京市,万寿西宫,细颗粒物(PM2.5),134,126,150,102,110,112,,76,76,12,37,1,1,1.0,1.7
2024-10-14T1600,1002A,116.2202,40.2915,北京市,定陵,细颗粒物(PM2.5),122,,72,92,67,122,,75,75,14,8,1,2,1.0,1.1
2024-10-14T1600,1003A,116.4174,39.9289,北京市,东四,细颗粒物(PM2.5),149,142,164,114,124,121,,62,62,21,51,3,3,1.2,1.8
2024-10-14T1600,1004A,116.4072,39.8863,北京市,天坛,细颗粒物(PM2.5),135,121,106,103,84,104,,78,78,17,26,3,3,1.0,1.6
2024-10-14T1600,1005A,116.462,39.9365,北京市,农展馆,细颗粒物(PM2.5),152,138,136,116,100,120,,60,60,23,45,3,3,1.0,1.6
2024-10-14T1600,1006A,116.3392,39.9295,北京市,官园,细颗粒物(PM2.5),124,121,151,94,112,113,,72,72,22,39,3,3,1.0,1.6
2024-10-14T1600,1007A,116.2878,39.9611,北京市,海淀万柳,细颗粒物(PM2.5),120,111,127,91,89,114,,82,82,26,36,3,3,0.9,1.3
2024-10-14T1600,1008A,116.6636,40.135,北京市,顺义新城,细颗粒物(PM2.5),170,166,127,129,88,103,,61,61,38,41,3,3,1.1,1.2
2024-10-14T1600,1009A,116.6275,40.3275,北京市,怀柔镇,细颗粒物(PM2.5),135,125,84,103,69,101,,87,87,45,18,1,3,1.2,1.1
2024-10-14T1600,1010A,116.2296,40.217,北京市,昌平镇,细颗粒物(PM2.5),92,89,90,68,55,116,,69,69,20,27,3,3,1.0,1.3
2024-10-14T1600,1011A,116.3966,39.9821,北京市,奥体中心,细颗粒物(PM2.5),148,139,145,113,110,122,,59,59,25,47,3,3,1.2,1.7
2024-10-14T1600,1012A,116.184,39.9136,北京市,古城,细颗粒物(PM2.5),129,126,152,98,110,105,,82,82,20,39,3,3,1.2,1.5
2024-10-14T1600,3281A,115.9718,40.4529,北京市,延庆夏都,细颗粒物(PM2.5),62,50,58,44,46,92,,72,72,10,15,3,3,0.7,0.9
2024-10-14T1600,3417A,117.0709,40.1465,北京市,平谷新城,细颗粒物(PM2.5),215,270,164,165,117,138,,80,80,18,17,3,3,1.1,1.1
2024-10-14T1600,3418A,116.8336,40.4095,北京市,密云新城,细颗粒物(PM2.5),150,160,124,115,82,121,,85,85,24,28,3,3,1.1,1.2
2024-10-14T1600,3671A,116.088,39.9726,北京市,门头沟三家店,细颗粒物(PM2.5),104,88,76,78,62,115,,84,84,23,22,3,3,0.9,1
2024-10-14T1600,3672A,116.1541,39.8204,北京市,丰台云岗,细颗粒物(PM2.5),118,95,109,89,83,96,,70,70,18,29,3,3,0.8,1.2
2024-10-14T1600,3673A,116.6804,39.9081,北京市,通州东关,细颗粒物(PM2.5),150,143,177,115,119,131,,77,77,12,46,3,2,1.0,1.4
2024-10-14T1600,3674A,115.9577,39.7603,北京市,房山燕山,细颗粒物(PM2.5),93,85,84,69,64,110,,89,89,16,16,3,3,0.8,1
2024-10-14T1600,3675A,116.4672,39.7733,北京市,大兴旧宫,细颗粒物(PM2.5),123,104,114,93,76,104,,65,65,16,32,3,3,0.9,1.6
2024-10-14T1600,3694A,115.986,40.4563,北京市,延庆石河营,细颗粒物(PM2.5),64,46,51,46,42,84,,65,65,11,12,3,3,0.6,0.8
2024-10-14T1600,3695A,116.6151,40.3053,北京市,怀柔新城,细颗粒物(PM2.5),143,138,93,109,72,97,,80,80,40,11,3,3,1.3,1.1
2024-10-14T1600,3696A,116.2545,39.8768,北京市,丰台小屯,细颗粒物(PM2.5),108,96,115,81,78,90,,67,67,19,36,1,1,1.0,1.5
2024-10-14T1600,3697A,116.84,40.3844,北京市,密云镇,细颗粒物(PM2.5),168,160,124,127,92,117,,77,77,23,29,3,3,1.0,1.1
2024-10-14T1600,1761A,123.8275,41.3064,本溪市,大峪,细颗粒物(PM2.5),65,,38,47,30,111,,107,107,7,14,10,11,0.6,0.9
2024-10-14T1600,1762A,123.7567,41.3325,本溪市,溪湖,,31,28,55,12,29,98,,94,94,18,23,11,14,0.6,1.2
2024-10-14T1600,1763A,123.7169,41.3094,本溪市,彩屯,,40,40,64,22,40,82,,87,87,28,27,14,15,1.7,2
2024-10-14T1600,1764A,123.7669,41.2864,本溪市,东明,,32,28,43,12,20,101,,107,99,13,16,6,7,0.5,0.6
2024-10-14T1600,1765A,123.7992,41.2664,本溪市,新立屯,,35,20,36,9,17,110,,105,105,11,26,5,6,0.5,0.6
2024-10-14T1600,1766A,123.8142,41.3472,本溪市,威宁,,35,33,69,14,23,110,,102,102,8,36,8,8,0.5,0.7
2024-10-14T1600,2587A,105.2864,27.3125,毕节市,八中,,24,16,20,8,13,76,,58,58,7,14,6,6,0.5,0.7
2024-10-14T1600,2588A,105.31,27.2944,毕节市,师专,,25,13,19,9,12,78,,64,64,6,10,7,8,0.5,0.7
2024-10-14T1600,3537A,105.3631,27.3533,毕节市,长征村,,25,14,18,10,14,80,,79,79,7,7,8,8,0.6,0.7
2024-10-14T1600,1629A,118.0018,37.3617,滨州市,第二水厂,臭氧1小时,79,78,98,41,55,183,,125,125,10,39,6,8,0.1,0.3
2024-10-14T1600,1630A,117.9776,37.393,滨州市,北中新校,臭氧1小时,78,80,91,41,50,182,,125,125,14,34,8,12,0.5,0.8
2024-10-14T1600,3514A,117.9378,37.3956,滨州市,中海酒店,臭氧1小时,93,83,78,46,48,194,,137,137,18,35,8,9,0.7,0.8
2024-10-14T1600,3515A,117.9378,37.3553,滨州市,开发区一中,臭氧1小时,77,78,89,46,52,181,,152,152,12,40,6,12,0.5,0.4
2024-10-14T1600,3516A,118.0917,37.694,滨州市,金海六路,"细颗粒物(PM2.5),臭氧1小时",77,90,87,56,54,181,,119,119,21,29,4,8,0.5,0.6
2024-10-14T1600,4028A,117.9956,37.3753,滨州市,滨州市西街道办事处,臭氧1小时,90,70,81,51,60,192,,130,130,9,33,7,10,0.6,0.8
2024-10-14T1600,2311A,115.8072,33.8399,亳州市,污水处理厂,臭氧1小时,79,84,115,53,82,183,,128,128,12,25,5,9,0.2,0.4
2024-10-14T1600,2312A,115.7789,33.8518,亳州市,三国揽胜宫,颗粒物(PM10),77,104,112,54,81,172,,127,127,19,18,5,6,0.5,0.6
2024-10-14T1600,3332A,115.7633,33.8034,亳州市,亳州学院,臭氧1小时,85,103,133,52,82,188,,131,131,12,23,4,4,0.6,0.7
2024-10-14T1600,2693A,82.0485,44.8556,博尔塔拉蒙古自治州,市党校,,31,31,31,19,14,86,,52,52,7,11,8,7,0.2,0.3
2024-10-14T1600,2694A,82.0806,44.8969,博尔塔拉蒙古自治州,市环保局,,31,31,50,14,16,85,,54,54,9,20,6,6,0.3,0.4
2024-10-14T1600,1071A,116.8842,38.2991,沧州市,沧县城建局,细颗粒物(PM2.5),152,152,160,116,119,174,,95,95,24,48,8,6,0.9,0.7
2024-10-14T1600,1072A,116.8584,38.3254,沧州市,电视转播站,细颗粒物(PM2.5),168,146,159,127,130,185,,96,96,21,48,6,5,0.9,0.7
2024-10-14T1600,1073A,116.8709,38.3228,沧州市,市环保局,细颗粒物(PM2.5),163,170,173,124,126,181,,93,93,20,43,13,11,0.9,0.8
2024-10-14T1600,3324A,116.8136,38.3004,沧州市,河北水利电力学院,细颗粒物(PM2.5),160,151,167,122,129,187,,92,92,21,45,10,9,1.0,0.7
2024-10-14T1600,2622A,97.1806,31.1273,昌都市,昌都监测站,,31,7,7,3,6,98,,58,58,2,7,8,7,0.3,0.4
2024-10-14T1600,3719A,97.1714,31.1406,昌都市,昌都会议中心,,33,6,8,3,5,105,,64,64,2,5,8,8,0.4,0.4
2024-10-14T1600,2690A,88.1236,43.8886,昌吉回族自治州,天山天池,,23,21,14,8,6,72,,74,74,18,6,9,8,0.7,0.6
2024-10-14T1600,2692A,87.2717,44.0297,昌吉回族自治州,新区政务中心,颗粒物(PM10),53,56,51,20,19,71,,36,36,17,26,14,6,0.8,0.8
2024-10-14T1600,3613A,87.3095,44.0142,昌吉回族自治州,亚心广场,颗粒物(PM10),59,68,59,24,17,68,,37,37,22,33,14,6,0.8,0.8
2024-10-14T1600,1119A,125.3325,43.9166,长春市,食品厂,颗粒物(PM10),51,52,69,23,37,116,,100,100,16,29,6,9,0.4,0.6
2024-10-14T1600,1120A,125.2863,43.9027,长春市,客车厂,,46,46,64,23,42,110,,98,98,14,28,6,9,0.5,0.6
2024-10-14T1600,1121A,125.2841,43.8463,长春市,邮电学院,颗粒物(PM10),51,52,69,21,35,120,,105,105,12,24,6,9,0.4,0.5
2024-10-14T1600,1122A,125.3716,43.8772,长春市,劳动公园,颗粒物(PM10),53,56,77,18,34,123,,111,111,13,25,7,10,0.5,0.7
2024-10-14T1600,1123A,125.3297,43.8805,长春市,园林处,,,,68,21,34,122,,109,109,8,20,4,9,0.4,0.6
2024-10-14T1600,1124A,125.4605,43.79,长春市,净月潭,,36,33,52,16,32,113,,108,108,9,16,6,7,0.4,0.5
2024-10-14T1600,1125A,125.7194,43.515,长春市,甩湾子,,27,20,49,9,32,84,,83,83,6,14,6,7,0.5,0.7
2024-10-14T1600,1126A,125.3863,43.8447,长春市,经开区环卫处,,42,42,67,17,34,113,,101,101,12,25,8,11,0.5,0.6
2024-10-14T1600,1127A,125.245,43.7783,长春市,高新区管委会,,38,36,68,18,46,120,,108,108,8,23,5,8,0.5,0.7
2024-10-14T1600,1128A,125.1761,43.8325,长春市,岱山公园,,49,49,69,22,39,109,,100,100,17,41,5,8,0.4,0.6
2024-10-14T1600,1335A,113.0833,28.2325,长沙市,经开区环保局,,26,19,76,18,73,52,,66,48,24,25,1,2,0.7,0.7
2024-10-14T1600,1336A,112.8872,28.2189,长沙市,高开区环保局,,42,,66,29,70,61,,81,68,15,12,3,4,0.9,0.9
2024-10-14T1600,1337A,113.0792,28.2053,长沙市,马坡岭,,25,22,74,17,65,53,,66,49,16,16,3,4,0.7,0.7
2024-10-14T1600,1338A,112.9394,28.19,长沙市,湖南师范大学,,22,22,73,12,53,63,,81,66,13,12,3,3,0.7,0.7
2024-10-14T1600,1339A,113.0178,28.1322,长沙市,雨花区环保局,,43,35,71,30,79,55,,77,63,15,14,4,5,0.8,1.1
2024-10-14T1600,1340A,112.9792,28.2597,长沙市,伍家岭,,28,26,71,19,62,56,,68,58,15,14,3,4,0.9,1
2024-10-14T1600,1341A,113.0014,28.1944,长沙市,火车新站,,22,22,68,14,56,56,,73,59,16,13,4,4,0.9,0.9
2024-10-14T1600,1342A,112.9844,28.1178,长沙市,天心区环保局,,32,32,85,14,60,54,,72,55,19,17,2,4,0.7,1
2024-10-14T1600,1343A,112.8908,28.1308,长沙市,湖南中医药大学,,23,23,73,10,74,73,,87,76,14,12,4,5,1.1,1.1
2024-10-14T1600,1344A,112.9581,28.3611,长沙市,沙坪,,28,28,77,12,41,66,,67,59,8,10,6,7,0.9,1
2024-10-14T1600,1727A,113.1147,36.1547,长治市,清华站,,46,46,90,29,71,137,,106,106,19,38,9,8,0.8,1
2024-10-14T1600,1728A,113.1031,36.1989,长治市,监测站,,49,43,84,34,68,143,,110,110,19,32,12,10,0.9,1.2
2024-10-14T1600,1730A,113.0886,36.2125,长治市,审计局,,47,47,84,29,77,147,,110,110,14,24,8,7,0.4,0.7
2024-10-14T1600,1731A,113.0844,36.1856,长治市,长治八中,颗粒物(PM10),56,62,102,32,58,149,,120,120,15,32,9,7,0.7,1
2024-10-14T1600,2845A,113.1569,36.1911,长治市,德盛苑,,46,46,75,24,64,147,,124,124,15,20,5,6,0.5,1
2024-10-14T1600,3568A,113.06,36.0464,长治市,向阳小学,颗粒物(PM10),56,62,101,32,79,139,,113,113,17,28,8,9,0.3,0.7
2024-10-14T1600,3569A,112.8792,36.3144,长治市,屯留一中,细颗粒物(PM2.5),73,67,88,53,76,168,,123,123,14,31,14,12,0.9,1.1
2024-10-14T1600,3570A,113.235,36.3489,长治市,潞城四中,颗粒物(PM10),64,77,103,24,84,148,,125,125,9,41,7,10,0.4,1.1
2024-10-14T1600,1854A,111.6975,28.9703,常德市,市二中,,43,32,37,30,31,63,,64,52,15,16,3,3,0.7,0.8
2024-10-14T1600,1857A,111.7158,29.1456,常德市,白鹤山,,,,,,,,,,,,,,,,
2024-10-14T1600,3138A,111.7153,29.0289,常德市,武陵区永安,,48,35,35,33,29,65,,72,62,15,14,3,3,0.6,0.6
2024-10-14T1600,3139A,111.6892,28.9881,常德市,鼎城区玉霞,,40,40,37,25,29,64,,66,58,15,15,6,5,0.7,0.8
2024-10-14T1600,3140A,111.6625,29.0531,常德市,武陵区长庚,,43,38,34,30,31,68,,67,60,14,15,3,3,0.7,0.7
2024-10-14T1600,1196A,119.9633,31.762,常州市,市监测站,颗粒物(PM10),52,53,39,35,22,134,,106,106,23,22,8,8,0.7,0.6
2024-10-14T1600,1200A,119.9468,31.7069,常州市,武进监测站,,45,43,33,31,17,113,,98,98,26,17,8,8,0.6,0.5
2024-10-14T1600,1201A,119.9255,31.9087,常州市,安家,"颗粒物(PM10),细颗粒物(PM2.5)",53,56,40,37,23,140,,99,99,16,37,6,6,0.6,0.6
2024-10-14T1600,3002A,119.9805,31.8174,常州市,行政中心,颗粒物(PM10),53,56,33,35,16,137,,101,101,26,24,7,7,0.3,0.3
2024-10-14T1600,3003A,120.0522,31.7748,常州市,经开区,,42,41,37,29,18,134,,104,104,20,25,8,8,0.3,0.2
2024-10-14T1600,3010A,119.9025,31.7964,常州市,钟楼,,49,49,33,24,16,119,,90,90,21,24,8,9,0.5,0.5
2024-10-14T1600,3429A,119.8598,31.7066,常州市,武进经发区,,47,47,35,32,17,127,,96,96,15,24,6,6,0.7,0.7
2024-10-14T1600,3430A,119.5826,31.7245,常州市,金坛城区,,41,,23,25,19,130,,104,104,12,15,6,8,0.6,0.7
2024-10-14T1600,2220A,120.4318,41.5881,朝阳市,西梁,细颗粒物(PM2.5),69,78,42,50,36,126,,103,103,13,10,10,9,1.1,0.7
2024-10-14T1600,2221A,120.4521,41.5646,朝阳市,河畔小区,细颗粒物(PM2.5),62,72,38,44,34,128,,112,112,14,10,7,8,1.1,0.8
2024-10-14T1600,2222A,120.4176,41.5648,朝阳市,八里堡,颗粒物(PM10),62,74,44,40,31,127,,106,106,16,15,8,8,1.1,0.8
2024-10-14T1600,2223A,120.3806,41.5969,朝阳市,农业园区,,,77,46,70,48,137,,129,129,10,14,5,5,,0.7
2024-10-14T1600,1705A,116.6367,23.6719,潮州市,西园路,,40,35,37,26,24,126,,95,95,10,12,5,5,0.4,0.4
2024-10-14T1600,3026A,116.6183,23.6608,潮州市,市政府,,42,39,37,21,20,134,,102,102,9,12,6,7,0.5,0.6
2024-10-14T1600,4036A,116.6461,23.6761,潮州市,金山,,47,47,35,22,24,140,,110,110,7,11,9,9,0.5,0.6
2024-10-14T1600,2472A,113.0073,25.9061,郴州市,马头岭,颗粒物(PM10),83,115,127,59,66,129,,109,109,14,18,8,11,0.1,0.2
2024-10-14T1600,2473A,113.0116,25.8226,郴州市,市职中,细颗粒物(PM2.5),138,112,121,105,111,145,,115,115,15,25,6,8,0.9,0.9
2024-10-14T1600,2474A,113.0161,25.8001,郴州市,兴隆步行街,细颗粒物(PM2.5),120,118,133,91,98,154,,119,119,16,27,5,8,0.9,0.9
2024-10-14T1600,2475A,113.0383,25.8071,郴州市,市审计局,细颗粒物(PM2.5),137,120,121,104,106,148,,113,113,11,20,3,4,0.9,0.9
2024-10-14T1600,2476A,113.0348,25.7759,郴州市,市环保局,细颗粒物(PM2.5),117,130,129,88,102,152,,118,118,16,29,7,9,1.0,0.9
2024-10-14T1600,1431A,103.9728,30.7236,成都市,金泉两河,颗粒物(PM10),54,57,61,32,38,105,,54,54,14,34,3,3,0.7,0.8
2024-10-14T1600,1432A,104.176,30.6872,成都市,十里店,细颗粒物(PM2.5),72,76,57,52,38,75,,45,45,36,43,2,2,0.8,0.8
2024-10-14T1600,1433A,104.079,30.5706,成都市,三瓦窑,细颗粒物(PM2.5),70,53,50,51,35,79,,46,46,40,44,4,4,0.8,0.8
2024-10-14T1600,1434A,104.1114,30.63,成都市,沙河铺,颗粒物(PM10),60,69,52,42,34,67,,40,40,36,37,2,2,0.7,0.7
2024-10-14T1600,1437A,104.0786,30.6531,成都市,君平街,细颗粒物(PM2.5),54,56,65,38,40,103,,52,52,27,44,2,3,0.7,0.8
2024-10-14T1600,1438A,103.613,31.0283,成都市,灵岩寺,,,,,,,,,,,,,,,,
2024-10-14T1600,2880A,104.0239,30.65639,成都市,大石西路,颗粒物(PM10),56,61,61,37,38,109,,53,53,20,34,3,4,0.7,0.8
2024-10-14T1600,3136A,104.2725,30.5589,成都市,龙泉驿区区政府,,30,22,26,14,16,94,,65,65,12,17,2,2,0.6,0.6
2024-10-14T1600,3357A,104.0106,30.6931,成都市,金博路,颗粒物(PM10),53,55,59,33,37,99,,48,48,20,34,2,2,0.8,0.9
2024-10-14T1600,3359A,104.0578,30.5225,成都市,华阳,细颗粒物(PM2.5),58,58,46,41,32,83,,54,54,30,37,4,3,0.9,1
2024-10-14T1600,3487A,104.2394,30.5319,成都市,车城东七路,,36,36,35,22,24,84,,69,69,19,28,2,1,0.7,0.8
2024-10-14T1600,3488A,104.3853,30.7453,成都市,青白江技师分院,,30,28,23,12,15,94,,69,69,14,25,3,3,0.7,0.7
2024-10-14T1600,3489A,104.0789,30.4072,成都市,科学城,,,43,38,32,26,108,,78,78,,20,4,4,0.6,0.7
2024-10-14T1600,4011A,103.8506,30.6947,成都市,光华大道三段,细颗粒物(PM2.5),57,54,59,40,41,105,,59,59,9,18,3,3,0.7,0.8
2024-10-14T1600,1062A,117.9531,40.9081,承德市,铁路,细颗粒物(PM2.5),112,119,95,84,67,104,,82,82,26,37,3,3,0.6,0.7
2024-10-14T1600,1063A,117.9392,40.9763,承德市,中国银行,细颗粒物(PM2.5),94,98,79,70,56,115,,81,81,24,30,1,2,0.6,0.8
2024-10-14T1600,1064A,117.9503,40.928,承德市,开发区,"颗粒物(PM10),细颗粒物(PM2.5)",83,116,94,61,58,116,,87,87,24,29,6,5,0.7,0.8
2024-10-14T1600,1065A,117.8051,40.9655,承德市,文化中心,颗粒物(PM10),58,66,90,39,59,116,,96,96,13,30,19,7,0.6,0.8
2024-10-14T1600,1066A,117.9268,41.0026,承德市,离宫,细颗粒物(PM2.5),114,113,95,86,63,94,,96,96,,11,3,4,0.7,0.7
2024-10-14T1600,2314A,117.47,30.6618,池州市,池州学院,,42,42,54,28,39,82,,73,68,16,20,7,8,0.6,0.6
2024-10-14T1600,3237A,117.4918,30.6617,池州市,展览馆,,40,38,58,28,36,92,,71,71,12,18,4,5,0.6,0.6
2024-10-14T1600,3333A,117.5627,30.695,池州市,第八中学,,43,43,52,29,34,70,,70,65,20,17,4,5,0.7,0.6
2024-10-14T1600,3334A,117.5038,30.6243,池州市,第十二中学,,40,40,54,27,40,90,,70,70,10,18,4,4,0.8,0.8
2024-10-14T1600,1744A,118.9233,42.2816,赤峰市,松山一中,颗粒物(PM10),54,58,60,28,38,94,,94,94,17,22,9,10,0.7,0.8
2024-10-14T1600,1745A,118.9576,42.2728,赤峰市,哈达街,颗粒物(PM10),57,63,61,24,35,94,,100,91,15,15,9,9,0.7,0.8
2024-10-14T1600,1746A,118.8788,42.2554,赤峰市,天义路,,,,74,,54,103,,110,100,,22,,7,0.5,0.5
2024-10-14T1600,3058A,119.2658,42.0353,赤峰市,银河街,颗粒物(PM10),70,90,83,40,50,113,,111,111,15,19,12,17,0.7,0.9
2024-10-14T1600,3286A,118.9359,42.3147,赤峰市,桥北物流园区,颗粒物(PM10),55,59,61,33,34,103,,103,103,21,25,9,9,0.7,0.9
2024-10-14T1600,2521A,107.3476,22.4136,崇左市,市环保局江州分局,,34,27,48,13,26,107,,94,94,5,13,3,5,0.5,0.7
2024-10-14T1600,2522A,107.3702,22.3707,崇左市,城南新区,,35,19,33,16,23,112,,96,96,4,8,5,4,0.7,0.7
2024-10-14T1600,2298A,118.3093,32.3153,滁州市,老年大学,,42,,32,24,27,134,,124,124,7,11,2,3,0.4,0.4
2024-10-14T1600,2299A,118.3244,32.2786,滁州市,人大宾馆,,42,32,37,22,26,133,,123,123,13,16,6,6,0.3,0.4
2024-10-14T1600,3207A,118.3118,32.3038,滁州市,市政府原办公楼,,43,32,34,30,34,128,,126,126,12,16,5,5,0.4,0.4
2024-10-14T1600,3331A,118.3267,32.2634,滁州市,图书馆,,41,27,29,17,20,130,,120,120,10,16,4,4,0.4,0.4
2024-10-14T1600,2605A,101.5482,25.0441,楚雄彝族自治州,州环境监测站,,23,17,22,11,17,71,,59,59,4,13,8,18,0.4,0.5
2024-10-14T1600,2606A,101.538,25.0492,楚雄彝族自治州,市经济开发区,,22,,22,13,18,69,,56,56,5,14,6,9,0.6,0.6
2024-10-14T1600,2548A,107.5277,31.2827,达州市,达州职业技术学院,,28,21,31,8,13,88,,57,57,15,27,7,7,0.8,0.8
2024-10-14T1600,2549A,107.5086,31.2186,达州市,市环境监测站,,33,25,35,7,11,103,,60,60,16,32,8,8,0.6,0.7
2024-10-14T1600,2550A,107.4988,31.2132,达州市,凤凰小区,,31,22,30,7,16,99,,64,64,17,31,8,9,0.6,0.7
2024-10-14T1600,2551A,107.5082,31.1986,达州市,达县机关宾馆,,30,27,36,13,20,94,,66,66,26,39,7,8,0.6,0.8
2024-10-14T1600,2552A,107.4644,31.2124,达州市,市政中心,,32,13,39,7,16,101,,69,69,11,37,4,7,0.5,0.9
2024-10-14T1600,2614A,100.1542,25.7054,大理白族自治州,大理市环境监测站,,26,26,27,14,18,83,,66,66,7,10,7,7,0.6,0.6
2024-10-14T1600,2615A,100.2171,25.5811,大理白族自治州,大理古城,,27,22,27,3,16,86,,68,68,4,11,7,7,0.2,0.4
2024-10-14T1600,1109A,121.612,38.9741,大连市,甘井子,,29,20,31,8,12,92,,107,107,25,17,7,7,0.6,0.6
2024-10-14T1600,1110A,121.565,38.9511,大连市,周水子,,23,17,29,9,15,71,,95,95,28,22,9,9,0.6,0.6
2024-10-14T1600,1111A,121.5637,38.8845,大连市,星海三站,,34,20,25,10,11,107,,110,110,16,8,6,7,0.4,0.3
2024-10-14T1600,1112A,121.6302,38.9117,大连市,青泥洼桥,,33,15,24,7,12,104,,106,106,6,8,6,7,0.6,0.6
2024-10-14T1600,1113A,121.6251,38.8638,大连市,傅家庄,,34,14,21,8,11,108,,105,105,7,7,7,8,0.5,0.6
2024-10-14T1600,1114A,121.5213,38.8661,大连市,七贤岭,,35,17,29,12,13,111,,114,114,15,10,7,6,0.4,0.4
2024-10-14T1600,1115A,121.2529,38.8061,大连市,旅顺,,40,6,18,3,11,128,,123,123,14,12,6,9,0.4,0.3
2024-10-14T1600,1116A,121.7485,39.1311,大连市,金州,,29,14,22,7,12,92,,110,110,14,9,6,7,0.7,0.7
2024-10-14T1600,1117A,121.7811,39.0496,大连市,开发区,,32,19,32,7,12,100,,107,107,15,15,6,6,0.3,0.3
2024-10-14T1600,1118A,121.9762,39.0631,大连市,双D港,,31,,15,7,9,99,,116,115,11,10,5,6,0.6,0.6
2024-10-14T1600,1789A,124.81117,46.03138,大庆市,大同区,颗粒物(PM10),77,103,72,33,37,110,,95,95,11,14,4,5,0.6,0.6
2024-10-14T1600,1790A,125.129,46.533,大庆市,龙凤区,颗粒物(PM10),59,67,66,35,37,106,,97,97,23,20,3,4,0.5,0.6
2024-10-14T1600,1791A,124.902,46.408,大庆市,红岗区,颗粒物(PM10),60,69,63,32,33,107,,89,89,13,15,6,7,0.6,0.6
2024-10-14T1600,1792A,125.153,46.586,大庆市,萨尔图区,颗粒物(PM10),60,69,70,30,34,104,,93,93,16,15,7,7,0.4,0.4
2024-10-14T1600,1793A,124.9042,46.6215,大庆市,让胡路区,颗粒物(PM10),62,73,72,27,36,107,,97,97,13,12,5,6,0.5,0.5
2024-10-14T1600,3481A,125.141,46.634,大庆市,萨区政府监测点,颗粒物(PM10),59,68,62,25,32,110,,100,100,16,15,7,8,0.5,0.5
2024-10-14T1600,1721A,113.3819,40.1097,大同市,果树场,,42,42,44,28,41,102,,59,59,9,24,7,8,0.6,0.9
2024-10-14T1600,1723A,113.2994,40.0758,大同市,云冈宾馆,,33,31,62,20,52,104,,66,66,15,37,7,9,0.3,0.9
2024-10-14T1600,1724A,113.3444,40.0917,大同市,大同大学,颗粒物(PM10),51,52,52,20,39,106,,66,66,17,33,11,13,0.4,0.8
2024-10-14T1600,1725A,113.2661,40.1269,大同市,安家小村,颗粒物(PM10),51,51,65,24,44,107,,77,77,12,30,12,15,0.3,0.6
2024-10-14T1600,1726A,113.2711,40.0844,大同市,教育学院,颗粒物(PM10),59,67,71,18,42,95,,60,60,21,38,8,11,0.4,0.9
2024-10-14T1600,3282A,113.3397,40.0597,大同市,大同市卫生学校,颗粒物(PM10),54,58,70,21,43,104,,62,62,12,32,8,9,0.5,1
2024-10-14T1600,3565A,113.1367,40.1122,大同市,云冈站,颗粒物(PM10),59,67,63,20,38,107,,78,78,11,26,9,10,0.5,0.8
2024-10-14T1600,3566A,113.1186,40.2556,大同市,图书馆,,50,50,57,24,45,103,,76,76,18,25,9,13,0.5,0.8
2024-10-14T1600,3567A,113.5931,40.0461,大同市,区一中,颗粒物(PM10),63,75,55,25,28,107,,66,66,15,24,5,5,0.8,0.8
2024-10-14T1600,3676A,113.2802,40.0995,大同市,第二人民医院,颗粒物(PM10),56,62,70,22,42,108,,80,80,11,36,10,13,0.4,0.8
2024-10-14T1600,2269A,124.1069,50.4097,大兴安岭地区,科技局,,50,50,54,27,29,71,,56,,7,13,8,9,0.5,0.5
2024-10-14T1600,3663A,124.1164,50.4278,大兴安岭地区,红旗社区,,21,12,53,8,29,67,,92,92,6,17,2,4,0.5,0.6
2024-10-14T1600,1600A,124.3303,40.0625,丹东市,江湾东路,,32,32,59,12,31,75,,71,71,14,26,8,9,0.5,0.9
2024-10-14T1600,1601A,124.4256,40.1503,丹东市,临江后街,,24,22,76,13,36,75,,65,65,18,38,7,8,0.7,1.2
2024-10-14T1600,1602A,124.3933,40.1461,丹东市,元宝山,,24,19,51,13,25,74,,61,61,20,23,4,5,0.7,0.8
2024-10-14T1600,1603A,124.3633,40.1092,丹东市,民主桥,,32,32,57,16,28,75,,60,60,20,38,6,6,0.7,0.9
2024-10-14T1600,3541A,109.5726,19.5167,儋州市,第一中学子站,,17,10,19,3,9,54,,61,59,2,4,6,6,0.1,0.2
2024-10-14T1600,3542A,109.5567,19.5187,儋州市,东坡学校子站,,18,7,21,3,9,55,,64,61,2,2,5,4,0.3,0.4
2024-10-14T1600,2616A,98.5842,24.428,德宏傣族景颇族自治州,德宏州监测站,,39,39,40,24,23,98,,63,63,9,13,10,7,0.4,0.5
2024-10-14T1600,3677A,98.5881,24.4368,德宏傣族景颇族自治州,芒市人民政府综合楼,,46,46,43,23,25,105,,65,65,9,11,13,7,0.5,0.6
2024-10-14T1600,1901A,104.4239,31.1208,德阳市,东山公园,颗粒物(PM10),55,59,36,31,20,110,,56,56,22,22,3,3,0.9,0.8
2024-10-14T1600,1902A,104.3826,31.1317,德阳市,西小区,颗粒物(PM10),53,56,50,28,27,109,,53,53,15,30,3,3,0.7,0.7
2024-10-14T1600,1904A,104.3553,31.1091,德阳市,耐火材料厂,颗粒物(PM10),51,52,50,27,29,107,,56,56,13,26,4,5,0.5,0.5
2024-10-14T1600,3639A,104.4019,31.1244,德阳市,市教育局,颗粒物(PM10),59,67,45,33,20,109,,50,50,20,32,3,2,0.7,0.7
2024-10-14T1600,1622A,116.3032,37.4674,德州市,儿童乐园,细颗粒物(PM2.5),98,114,124,73,87,192,,124,124,21,42,10,10,0.7,0.8
2024-10-14T1600,1624A,116.2991,37.4451,德州市,监理站,细颗粒物(PM2.5),104,117,126,78,91,193,,122,122,19,39,12,11,0.6,0.7
2024-10-14T1600,3066A,116.2721,37.4379,德州市,九衢泉纯净水厂,颗粒物(PM10),90,129,135,66,75,182,,129,129,21,56,9,9,0.7,0.8
2024-10-14T1600,3371A,116.3728,37.4403,德州市,开发区人民医院,颗粒物(PM10),86,122,130,61,75,186,,116,116,13,43,9,11,0.6,0.7
2024-10-14T1600,3372A,116.3572,37.4094,德州市,太阳城中学,臭氧1小时,89,117,133,63,79,191,,122,122,21,69,11,12,0.6,0.7
2024-10-14T1600,3511A,116.5652,37.3319,德州市,陵城艺术中心,细颗粒物(PM2.5),85,97,115,63,75,187,,124,124,16,46,8,9,0.6,0.7
2024-10-14T1600,2621A,99.7056,27.8317,迪庆藏族自治州,迪庆州站,,28,18,20,7,12,88,,80,80,8,12,8,9,0.4,0.5
2024-10-14T1600,3180A,99.7136,27.8094,迪庆藏族自治州,质量技术监督局,,28,28,16,3,8,83,,73,73,10,12,6,6,0.5,0.5
2024-10-14T1600,2663A,104.6241,35.5734,定西市,东关小学,,26,26,33,17,19,80,,63,63,6,12,8,8,0.2,0.3
2024-10-14T1600,2664A,104.6194,35.5934,定西市,供电公司,,28,26,34,16,20,87,,65,65,2,13,7,7,0.3,0.4
2024-10-14T1600,1389A,113.7547,23.0494,东莞市,莞城梨川,,43,20,45,10,21,137,,144,144,11,21,7,8,0.6,0.7
2024-10-14T1600,1390A,113.7944,23.0128,东莞市,东城石井,,48,27,39,16,20,152,,145,145,14,21,6,7,0.5,0.6
2024-10-14T1600,1391A,113.7383,22.9658,东莞市,南城西平,,48,34,40,18,20,151,,126,126,14,22,12,11,0.5,0.6
2024-10-14T1600,3319A,113.7338,23.0381,东莞市,万江金泰,,45,29,45,15,22,143,,137,137,23,22,7,8,0.3,0.4
2024-10-14T1600,3626A,113.7533,23.0202,东莞市,南城元岭,,45,29,45,15,22,143,,132,132,9,20,8,8,0.7,0.8
2024-10-14T1600,3627A,113.7875,23.0457,东莞市,东城主山,臭氧1小时,69,42,47,18,23,175,,154,154,20,25,8,8,0.6,0.6
2024-10-14T1600,1666A,118.6614,37.4309,东营市,市环保局,"颗粒物(PM10),臭氧1小时",52,53,48,34,30,161,,133,133,14,16,7,10,0.4,0.5
2024-10-14T1600,3036A,118.6904,37.4338,东营市,开发区管委会,,,69,54,36,32,168,,138,138,19,20,8,8,,0.2
2024-10-14T1600,3365A,118.5719,37.565,东营市,垦利区民丰路,臭氧1小时,73,73,50,48,32,178,,134,134,18,21,11,11,0.7,0.7
2024-10-14T1600,3498A,118.5055,37.8612,东营市,河口城区,颗粒物(PM10),67,83,56,46,38,171,,127,127,12,17,6,8,0.6,0.7
2024-10-14T1600,3646A,118.4978,37.4623,东营市,胜利站,臭氧1小时,69,65,44,36,31,175,,133,133,22,24,10,11,0.7,0.7
2024-10-14T1600,3734A,118.35,37.26,东营市,理想之城,臭氧1小时,80,70,58,44,38,184,,139,139,21,25,6,6,0.4,0.3
2024-10-14T1600,1591A,110.0023,39.8129,鄂尔多斯市,综合楼,颗粒物(PM10),59,68,72,12,31,102,,92,92,14,20,4,6,0.3,0.6
2024-10-14T1600,1592A,109.9486,39.8261,鄂尔多斯市,巴音孟克林场办事处,颗粒物(PM10),58,66,67,14,33,90,,86,86,13,20,6,7,0.4,0.6
2024-10-14T1600,1593A,109.7736,39.5986,鄂尔多斯市,康泽苑,颗粒物(PM10),54,58,57,17,33,101,,84,84,6,15,6,6,0.3,0.5
2024-10-14T1600,1594A,109.8119,39.5989,鄂尔多斯市,华泰汽车城,颗粒物(PM10),52,53,52,14,33,94,,78,78,10,17,9,9,0.4,0.5
2024-10-14T1600,1595A,109.9734,39.7884,鄂尔多斯市,奥林花园,颗粒物(PM10),56,61,64,14,30,88,,79,79,13,21,5,6,0.4,0.6
2024-10-14T1600,2436A,114.8938,30.3994,鄂州市,市政府,细颗粒物(PM2.5),104,112,77,78,54,92,,82,82,29,26,14,12,2.1,1.2
2024-10-14T1600,2437A,114.8989,30.3714,鄂州市,赵家坝,细颗粒物(PM2.5),93,94,79,69,54,93,,84,84,26,22,12,11,2.2,1.4
2024-10-14T1600,3654A,114.8094,30.4089,鄂州市,精准医疗中心,细颗粒物(PM2.5),62,52,66,44,50,118,,92,92,12,21,6,8,1.0,0.9
2024-10-14T1600,2454A,109.4978,30.2981,恩施土家族苗族自治州,湖北民院,,31,22,33,11,19,97,,60,60,8,17,8,8,0.6,0.8
2024-10-14T1600,2455A,109.4707,30.2798,恩施土家族苗族自治州,州电力总公司,,30,13,28,6,17,93,,58,58,16,23,8,7,0.7,1
2024-10-14T1600,3549A,109.5061,30.3772,恩施土家族苗族自治州,龙凤新区,,32,17,25,3,16,100,,59,59,15,19,6,6,0.8,0.9
2024-10-14T1600,2499A,108.3411,21.6158,防城港市,沙万,,24,24,38,16,22,58,,86,85,21,15,21,13,0.9,0.7
2024-10-14T1600,2500A,108.3514,21.7731,防城港市,防城档案局,,28,28,59,15,26,68,,78,78,15,22,13,10,1.0,0.8
2024-10-14T1600,2501A,108.3506,21.6414,防城港市,大海花园,,23,20,36,13,21,71,,87,87,13,13,31,10,0.6,0.7
2024-10-14T1600,1371A,113.1294,23.0067,佛山市,湾梁,,42,19,49,13,22,133,,123,123,16,32,6,8,0.7,0.8
2024-10-14T1600,1372A,113.1083,23.0478,佛山市,华材职中,,41,19,46,19,27,129,,131,131,13,25,8,8,0.4,0.5
2024-10-14T1600,1373A,113.144,23.0453,佛山市,南海气象局,,36,36,47,18,27,109,,125,125,10,24,7,8,0.4,0.6
2024-10-14T1600,1374A,113.2881,22.8094,佛山市,顺德苏岗,,40,26,46,7,18,128,,97,97,10,21,8,9,0.4,0.6
2024-10-14T1600,1376A,112.8383,22.8678,佛山市,高明孔堂,,50,30,49,19,30,157,,125,125,9,20,5,6,0.5,0.6
2024-10-14T1600,1377A,112.8836,23.1588,佛山市,三水监测站,臭氧1小时,125,75,118,35,66,250,,176,176,27,70,8,9,0.7,0.9
2024-10-14T1600,1378A,112.867,23.185,佛山市,三水云东海,臭氧1小时,112,72,97,28,71,224,,169,169,27,60,12,13,0.7,0.9
2024-10-14T1600,3625A,113.2544,22.7642,佛山市,容桂街道办,,39,14,37,9,20,124,,94,94,15,21,8,8,0.4,0.6
2024-10-14T1600,1280A,119.3903,26.0543,福州市,鼓山,,,,24,,16,,,70,,,2,,3,,0.4
2024-10-14T1600,1282A,119.2681,26.0504,福州市,师大,,40,40,36,16,20,118,,99,99,6,10,3,2,0.3,0.4
2024-10-14T1600,1283A,119.2984,26.1028,福州市,五四北路,,38,33,31,19,20,119,,88,88,12,13,1,2,0.3,0.3
2024-10-14T1600,1284A,119.2648,26.0768,福州市,杨桥西路,,44,44,33,18,19,120,,98,98,8,9,4,4,0.3,0.3
2024-10-14T1600,1285A,119.317,26.0746,福州市,紫阳,,49,49,39,16,20,107,,87,87,15,14,3,2,0.3,0.4
2024-10-14T1600,3048A,119.5799,26.0936,福州市,九龙,,27,27,29,14,18,85,,82,82,2,5,1,2,0.1,0.2
2024-10-14T1600,3526A,119.5189,25.9664,福州市,吴航,,28,20,29,12,18,88,,80,80,5,8,3,3,0.3,0.3
2024-10-14T1600,1755A,123.7977,41.8491,抚顺市,望花区,,40,40,85,13,38,97,,92,92,17,41,8,15,0.4,0.9
2024-10-14T1600,1756A,123.9161,41.8822,抚顺市,顺城区,,34,32,82,13,42,106,,90,90,12,47,5,8,0.6,0.9
2024-10-14T1600,1757A,124.0436,41.8611,抚顺市,东洲区,,34,34,74,18,52,100,,89,89,10,36,8,9,0.4,0.8
2024-10-14T1600,1758A,123.9247,41.8642,抚顺市,新抚区,,36,36,84,13,39,107,,92,92,13,37,5,6,0.5,0.7
2024-10-14T1600,1759A,124.0972,41.8961,抚顺市,大伙房水库,,35,27,61,14,33,110,,105,105,7,25,7,8,0.5,0.7
2024-10-14T1600,1760A,123.7086,41.8391,抚顺市,沈抚新城,,42,42,67,13,33,108,,107,107,15,35,9,14,0.3,0.7
2024-10-14T1600,2376A,116.2127,28.0814,抚州市,桐源党溪,细颗粒物(PM2.5),69,78,87,50,58,142,,123,123,3,5,9,8,0.8,0.9
2024-10-14T1600,2377A,116.3544,27.9831,抚州市,市站,颗粒物(PM10),59,67,83,41,59,133,,118,118,10,14,9,10,0.6,0.9
2024-10-14T1600,2378A,116.3565,27.963,抚州市,血防站,细颗粒物(PM2.5),59,66,83,42,55,147,,139,139,1,6,10,6,0.8,1
2024-10-14T1600,2379A,116.3564,28.0007,抚州市,采茶剧团,"颗粒物(PM10),细颗粒物(PM2.5)",57,64,81,40,62,145,,128,128,5,8,9,7,0.9,1
2024-10-14T1600,2380A,116.385,27.9647,抚州市,医学分院,颗粒物(PM10),58,66,82,30,53,136,,117,117,7,11,4,7,0.9,1.1
2024-10-14T1600,2207A,121.6094,41.998,阜新市,工业园区,颗粒物(PM10),65,79,53,24,22,128,,116,116,14,16,7,5,0.8,0.7
2024-10-14T1600,2208A,121.6697,42.0279,阜新市,长青街,颗粒物(PM10),63,76,55,30,26,125,,113,113,16,16,11,10,0.6,0.5
2024-10-14T1600,2209A,121.6673,42.0705,阜新市,农业园区,细颗粒物(PM2.5),62,68,50,44,36,121,,110,110,11,12,10,8,0.5,0.5
2024-10-14T1600,2210A,121.6717,42.0224,阜新市,东苑,颗粒物(PM10),62,74,52,25,22,119,,109,109,15,20,12,13,0.6,0.8
2024-10-14T1600,2211A,121.6506,42.0498,阜新市,玉龙新城,颗粒物(PM10),58,65,46,24,27,132,,120,120,13,15,12,9,0.8,0.8
2024-10-14T1600,2301A,115.8277,32.8929,阜阳市,市监测站,臭氧1小时,65,50,57,44,42,172,,141,141,14,16,6,6,0.5,0.6
2024-10-14T1600,2303A,115.8554,32.8605,阜阳市,开发区,颗粒物(PM10),63,75,70,38,37,162,,132,132,15,16,6,7,0.4,0.4
2024-10-14T1600,2875A,115.784,32.8892,阜阳市,阜阳职业技术学院,臭氧1小时,62,57,61,40,41,169,,138,138,15,18,6,6,0.5,0.5
2024-10-14T1600,3468A,115.7901,32.8613,阜阳市,市规划展馆,臭氧1小时,67,57,57,37,45,173,,151,151,20,23,6,6,0.5,0.6
2024-10-14T1600,3469A,115.836,32.9183,阜阳市,枣园社区,臭氧1小时,64,52,56,41,44,171,,142,142,12,15,7,7,0.5,0.6
2024-10-14T1600,2669A,102.9099,34.9841,甘南藏族自治州,州政府,,31,14,30,8,14,97,,66,66,1,30,8,9,0.4,0.6
2024-10-14T1600,3380A,102.8914,34.9617,甘南藏族自治州,甘肃民族师范学院,,30,6,26,3,14,94,,60,60,3,33,4,5,0.4,0.6
2024-10-14T1600,2570A,101.9603,30.0475,甘孜藏族自治州,水桥子,,42,42,24,13,8,62,,34,34,26,17,6,6,0.3,0.3
2024-10-14T1600,3065A,101.9533,29.9972,甘孜藏族自治州,州环保局,,25,19,18,8,5,80,,47,47,18,17,3,3,0.2,0.2
2024-10-14T1600,3414A,115.8347,28.932,赣江新区,桑海产业园,细颗粒物(PM2.5),69,75,93,50,65,95,,108,107,20,19,10,11,0.5,0.8
2024-10-14T1600,2362A,114.9017,25.9149,赣州市,通天岩,,42,30,44,29,38,124,,124,124,6,9,39,36,0.6,0.3
2024-10-14T1600,2363A,114.9367,25.8664,赣州市,地委,,48,,57,33,38,146,,133,133,8,24,4,11,1.1,1.1
2024-10-14T1600,2364A,114.9461,25.8481,赣州市,气象台,臭氧1小时,59,44,58,26,37,167,,140,140,4,24,11,11,1.0,1.1
2024-10-14T1600,2365A,114.9322,25.8333,赣州市,市图书馆,臭氧1小时,62,44,59,25,33,169,,140,140,8,29,4,6,0.7,0.9
2024-10-14T1600,2366A,114.8905,25.8471,赣州市,华坚鞋城,,47,41,65,28,39,150,,124,124,10,27,3,5,0.6,0.7
2024-10-14T1600,3109A,115.0093,25.8613,赣州市,赣县区卫计委,,49,30,43,25,32,154,,125,125,10,22,4,6,0.6,0.7
2024-10-14T1600,2683A,106.2319,36.1417,固原市,马园,,30,25,41,6,21,93,,78,78,5,26,6,6,0.3,0.3
2024-10-14T1600,2684A,106.2792,36.0022,固原市,监测站,,30,30,41,14,29,80,,58,58,11,29,6,6,0.3,0.6
2024-10-14T1600,2685A,106.2375,36.0211,固原市,新区,,27,15,42,7,30,86,,64,64,7,26,6,5,0.3,0.6
2024-10-14T1600,3522A,106.2177,35.9959,固原市,原州区十五小,,27,19,46,9,24,85,,63,63,8,25,6,6,0.4,0.6
2024-10-14T1600,2543A,106.6308,30.5278,广安市,小平旧居,,,,,,,,,,,,,,,,
2024-10-14T1600,2544A,106.6303,30.4576,广安市,市委,,40,23,38,9,26,126,,94,94,8,23,3,3,0.5,0.6
2024-10-14T1600,2545A,106.6271,30.4663,广安市,友谊中学,,39,15,33,12,23,122,,85,85,11,21,3,2,0.8,0.7
2024-10-14T1600,2547A,106.6388,30.4551,广安市,广电花园,,40,25,42,19,25,126,,84,84,10,20,2,1,0.4,0.6
2024-10-14T1600,2902A,106.6351,30.4865,广安市,北辰小学,,40,21,38,9,21,125,,88,88,6,14,5,4,0.6,0.7
2024-10-14T1600,2523A,105.8945,32.4535,广元市,黑石坡,,18,13,18,9,12,57,,38,38,16,10,12,8,0.8,0.6
2024-10-14T1600,2524A,105.821,32.4444,广元市,老城,,35,35,26,14,12,58,,40,40,21,22,12,4,1.0,0.9
2024-10-14T1600,2526A,105.8628,32.4287,广元市,监测站,,28,28,21,19,15,60,,34,34,25,19,16,4,0.9,0.7
2024-10-14T1600,3617A,105.8047,32.4166,广元市,经开区,,44,44,28,25,15,48,,29,29,25,24,17,7,0.9,0.8
2024-10-14T1600,1345A,113.2347,23.1423,广州市,广雅中学,,46,26,42,11,21,146,,144,144,23,30,6,7,0.8,0.9
2024-10-14T1600,1346A,113.2612,23.105,广州市,市五中,臭氧1小时,60,29,43,26,33,168,,149,149,12,22,4,5,0.6,0.7
2024-10-14T1600,1348A,113.3478,23.0916,广州市,广东商学院,,,29,50,16,25,188,,148,148,14,34,,12,0.5,0.7
2024-10-14T1600,1349A,113.4332,23.1047,广州市,市八十六中,臭氧1小时,70,42,54,16,22,176,,159,159,26,45,6,7,0.6,0.8
2024-10-14T1600,1350A,113.3505,22.9483,广州市,番禺中学,臭氧1小时,60,26,37,12,20,168,,134,134,14,25,7,7,0.4,0.5
2024-10-14T1600,1351A,113.2146,23.3916,广州市,花都师范,臭氧1小时,117,46,68,24,33,233,,154,154,26,53,6,6,0.9,0.9
2024-10-14T1600,1352A,113.2597,23.1331,广州市,市监测站,臭氧1小时,53,28,46,12,22,162,,141,141,14,28,5,6,0.6,0.8
2024-10-14T1600,1353A,113.5618,23.312,广州市,九龙镇镇龙,臭氧1小时,62,45,54,19,28,169,,129,129,16,27,8,8,0.6,0.7
2024-10-14T1600,1354A,113.2765,23.1544,广州市,麓湖,,47,31,50,15,26,149,,136,136,14,35,6,7,0.5,0.7
2024-10-14T1600,1355A,113.443,23.3035,广州市,帽峰山森林公园,臭氧1小时,84,36,40,15,20,187,,141,141,14,21,7,8,0.6,0.7
2024-10-14T1600,2846A,113.3221,23.1322,广州市,体育西,臭氧1小时,59,36,49,17,25,167,,137,137,16,30,5,6,0.6,0.7
2024-10-14T1600,3298A,113.5717,23.5491,广州市,从化街口,,35,19,45,13,30,112,,100,100,7,28,7,7,0.5,0.7
2024-10-14T1600,3299A,113.3472,23.3692,广州市,白云竹料,臭氧1小时,110,44,58,18,32,220,,141,141,21,33,7,6,0.7,0.8
2024-10-14T1600,3300A,113.2981,23.237,广州市,白云嘉禾,臭氧1小时,72,30,56,14,28,177,,149,149,19,47,6,7,0.6,0.8
2024-10-14T1600,3301A,113.4256,23.1716,广州市,黄埔科学城,臭氧1小时,73,33,52,14,28,178,,152,152,22,37,10,8,0.6,0.8
2024-10-14T1600,3302A,113.3942,23.0483,广州市,番禺大学城,臭氧1小时,83,41,53,15,23,186,,142,142,15,28,5,6,0.5,0.6
2024-10-14T1600,3303A,113.4922,22.8168,广州市,南沙黄阁,,50,40,43,14,20,160,,127,127,17,27,6,6,0.7,0.8
2024-10-14T1600,3304A,113.5342,22.7896,广州市,南沙街,,49,36,41,12,17,154,,122,122,12,23,5,6,0.6,0.7
2024-10-14T1600,3443A,113.2902,23.5544,广州市,花都梯面,臭氧1小时,52,36,43,18,31,161,,120,120,18,31,6,6,0.6,0.7
2024-10-14T1600,3445A,113.7858,23.7478,广州市,从化良口,,45,42,30,31,22,112,,93,93,9,15,8,7,0.9,0.8
2024-10-14T1600,3446A,113.8051,23.2614,广州市,增城荔城,,46,26,41,15,25,146,,122,122,7,16,7,7,0.6,0.7
2024-10-14T1600,2505A,109.568,23.1478,贵港市,德智高中,,,,,,,,,,,,,,,,
2024-10-14T1600,2506A,109.6047,23.0666,贵港市,江南子站,,45,41,99,19,54,142,,144,144,6,24,8,11,0.7,1
2024-10-14T1600,2507A,109.6014,23.0948,贵港市,贵城子站,,45,42,96,19,61,142,,150,150,8,23,9,11,0.7,1
2024-10-14T1600,2508A,109.5669,23.1065,贵港市,荷城子站,颗粒物(PM10),51,51,82,19,49,140,,129,129,13,24,11,14,0.6,0.8
2024-10-14T1600,3405A,109.5886,23.1172,贵港市,新世纪学校,,45,39,88,26,50,141,,146,146,11,24,8,12,0.4,0.7
2024-10-14T1600,1439A,106.6899,26.5998,贵阳市,马鞍山,,15,7,14,3,6,45,,51,51,9,11,3,3,0.6,0.6
2024-10-14T1600,1440A,106.6971,26.5694,贵阳市,市环保站,,26,12,15,11,16,81,,76,76,16,13,3,3,0.6,0.6
2024-10-14T1600,1441A,106.6243,26.6266,贵阳市,鉴湖路,,,27,22,9,12,65,,60,60,10,9,5,4,,0.5
2024-10-14T1600,1442A,106.7487,26.6343,贵阳市,燕子冲,,24,,10,12,15,74,,70,70,7,9,5,5,0.5,0.6
2024-10-14T1600,1443A,106.6555,26.4365,贵阳市,碧云窝,,23,19,19,7,9,72,,70,70,17,13,5,4,0.7,0.7
2024-10-14T1600,1444A,106.694,26.5161,贵阳市,中院村,,24,22,19,12,11,75,,71,71,14,13,7,8,0.6,0.7
2024-10-14T1600,1445A,106.7109,26.6027,贵阳市,红边门,,25,,18,17,14,73,,71,71,15,16,3,3,0.5,0.8
2024-10-14T1600,1446A,106.7164,26.5699,贵阳市,新华路,,25,7,13,7,12,80,,74,74,10,10,6,5,0.5,0.6
2024-10-14T1600,1447A,106.674,26.5424,贵阳市,太慈桥,,,39,16,7,10,62,,62,62,16,13,,7,0.6,0.6
2024-10-14T1600,1552A,106.805,26.3003,贵阳市,桐木岭,,34,34,26,19,14,69,,63,63,1,2,5,6,0.5,0.6
2024-10-14T1600,1862A,110.4144,25.3167,桂林市,电子科大尧山校区,细颗粒物(PM2.5),80,79,87,59,66,78,,96,96,10,12,4,7,1.0,0.8
2024-10-14T1600,1863A,110.2819,25.2697,桂林市,监测站,细颗粒物(PM2.5),84,92,84,62,59,70,,97,95,19,17,8,14,1.2,0.9
2024-10-14T1600,1864A,110.3089,25.2708,桂林市,龙隐路小学,细颗粒物(PM2.5),92,88,75,68,60,82,,101,100,15,16,8,15,1.0,0.7
2024-10-14T1600,1865A,110.2869,25.2178,桂林市,八中,细颗粒物(PM2.5),90,98,78,67,60,71,,96,95,20,16,8,10,1.1,0.8
2024-10-14T1600,3403A,110.1764,25.2381,桂林市,创业大厦,细颗粒物(PM2.5),52,46,72,36,63,69,,98,92,13,15,18,24,0.6,0.5
2024-10-14T1600,3531A,110.296,25.1253,桂林市,旅游学院,细颗粒物(PM2.5),117,90,73,88,60,83,,105,105,18,16,9,14,0.9,0.7
2024-10-14T1600,2674A,100.2561,34.4714,果洛藏族自治州,玛沁县大武镇,,35,35,31,10,15,96,,72,72,9,11,8,9,0.4,0.5
2024-10-14T1600,1129A,126.5422,45.755,哈尔滨市,岭北,,41,41,54,17,33,127,,119,119,15,19,5,8,0.8,0.6
2024-10-14T1600,1130A,126.561,45.8167,哈尔滨市,松北商大,颗粒物(PM10),105,159,63,20,31,102,,96,96,18,20,8,10,0.5,0.6
2024-10-14T1600,1131A,126.979,45.5419,哈尔滨市,阿城会宁,,40,40,73,20,42,101,,94,94,14,19,3,3,0.6,0.7
2024-10-14T1600,1132A,126.599,45.7222,哈尔滨市,南岗学府路,颗粒物(PM10),58,66,81,15,35,105,,95,95,15,23,7,9,0.5,0.6
2024-10-14T1600,1133A,126.689,45.7733,哈尔滨市,太平宏伟公园,颗粒物(PM10),55,60,68,26,37,100,,88,88,21,26,2,5,0.3,0.5
2024-10-14T1600,1134A,126.635,45.7667,哈尔滨市,道外承德广场,颗粒物(PM10),58,65,74,18,29,97,,86,86,22,27,5,7,0.7,0.7
2024-10-14T1600,1135A,126.685,45.7319,哈尔滨市,香坊红旗大街,颗粒物(PM10),62,73,82,18,37,100,,87,87,22,30,9,11,0.6,0.7
2024-10-14T1600,1136A,126.6411,45.7258,哈尔滨市,动力和平路,颗粒物(PM10),53,55,71,24,37,101,,90,90,20,23,5,7,0.8,0.7
2024-10-14T1600,1137A,126.593,45.7478,哈尔滨市,道里建国路,颗粒物(PM10),53,56,70,20,35,102,,91,91,22,27,14,16,0.7,0.7
2024-10-14T1600,1138A,126.615,45.61,哈尔滨市,平房东轻厂,,50,50,70,21,33,104,,90,90,15,18,6,8,0.5,0.6
2024-10-14T1600,1139A,126.595,45.9855,哈尔滨市,呼兰师专,颗粒物(PM10),55,60,54,22,30,78,,73,73,30,30,4,5,0.5,0.6
2024-10-14T1600,1140A,126.6206,45.6842,哈尔滨市,省农科院,颗粒物(PM10),69,88,102,30,38,95,,85,85,22,34,2,4,0.4,0.6
2024-10-14T1600,2688A,93.5128,42.8172,哈密市,地区监测站,,45,45,69,21,23,104,,62,62,6,31,6,6,0.2,0.3
2024-10-14T1600,2689A,93.4961,42.8328,哈密市,哈密师范学校,,,32,82,17,25,98,,60,60,12,34,,5,0.3,0.5
2024-10-14T1600,2671A,100.9048,36.9639,海北藏族自治州,海晏县西海镇,,29,14,21,3,15,91,,77,77,3,10,10,10,0.2,0.4
2024-10-14T1600,3867A,102.0738,36.5056,海东市,平安区公安北苑,,34,31,44,11,22,108,,74,74,14,20,11,16,0.4,0.6
2024-10-14T1600,1409A,110.576,19.9507,海口市,东寨港,,,,,,,,,,,,,,,,
2024-10-14T1600,1410A,110.3232,20.0574,海口市,海南大学,,24,24,26,10,9,67,,78,65,6,7,3,4,0.4,0.4
2024-10-14T1600,1411A,110.283,20.0053,海口市,秀英海南医院,,,,23,,9,,,86,,,6,,6,,0.3
2024-10-14T1600,1412A,110.338,19.9969,海口市,海南师范大学,,24,24,24,9,10,67,,80,64,2,3,6,6,0.4,0.4
2024-10-14T1600,1413A,110.33,20.0356,海口市,龙华路环保局宿舍,,22,21,24,10,10,70,,82,66,5,5,4,5,0.3,0.3
2024-10-14T1600,3539A,110.5111,19.9736,海口市,桂林洋子站,,19,19,19,10,8,60,,69,60,2,4,7,7,0.3,0.3
2024-10-14T1600,2673A,100.6188,36.2866,海南藏族自治州,共和县恰卜恰镇,,29,,28,10,11,91,,68,68,5,17,6,10,0.4,0.6
2024-10-14T1600,2676A,97.3731,37.3753,海西蒙古族藏族自治州,德令哈市,,32,10,26,9,18,100,,80,80,1,7,11,8,0.4,0.5
2024-10-14T1600,1048A,114.5302,36.6116,邯郸市,东污水处理厂,细颗粒物(PM2.5),85,95,177,63,147,172,,145,145,16,42,3,3,0.6,1
2024-10-14T1600,1049A,114.4918,36.5713,邯郸市,矿院,细颗粒物(PM2.5),77,94,197,56,144,169,,115,115,14,38,4,5,0.3,0.7
2024-10-14T1600,1050A,114.484,36.6133,邯郸市,丛台公园,细颗粒物(PM2.5),79,70,182,58,145,164,,118,118,14,40,5,5,0.5,0.9
2024-10-14T1600,3458A,114.7895,36.5593,邯郸市,香泉濮院小区,臭氧1小时,88,109,195,51,130,190,,128,128,12,45,2,3,0.4,0.8
2024-10-14T1600,3579A,114.50634,36.77178,邯郸市,永年区实验高中,臭氧1小时,97,93,205,65,143,197,,140,140,14,39,5,6,0.7,1.1
2024-10-14T1600,3580A,114.20016,36.44293,邯郸市,峰峰矿区临水派出所,臭氧1小时,82,60,123,49,104,185,,135,135,15,24,8,10,0.0,0.6
2024-10-14T1600,2634A,106.9893,33.1842,汉中市,汉川机床厂子校,,36,36,28,20,19,77,,45,45,8,13,5,6,0.4,0.8
2024-10-14T1600,2635A,107.0154,33.0706,汉中市,市监测站,,40,40,36,23,20,84,,43,43,9,13,10,9,0.6,0.7
2024-10-14T1600,2636A,107.0089,33.1138,汉中市,鑫源开发区,,33,28,40,23,27,80,,40,40,9,22,11,13,0.4,0.5
2024-10-14T1600,2637A,107.007,33.0323,汉中市,南郑大河坎水厂,,36,28,32,25,22,86,,46,46,13,16,10,9,0.6,0.7
2024-10-14T1600,1223A,120.2072,30.2111,杭州市,滨江,颗粒物(PM10),56,62,58,34,27,116,,96,96,23,34,5,6,0.8,0.8
2024-10-14T1600,1224A,120.0633,30.2747,杭州市,西溪,颗粒物(PM10),54,57,43,37,26,103,,84,84,25,23,6,6,0.7,0.7
2024-10-14T1600,1226A,120.3461,30.3153,杭州市,下沙,颗粒物(PM10),70,90,51,33,26,115,,94,94,25,47,7,7,0.8,0.6
2024-10-14T1600,1227A,120.1269,30.2456,杭州市,卧龙桥,细颗粒物(PM2.5),55,51,35,39,28,99,,97,97,34,22,6,6,0.7,0.6
2024-10-14T1600,1228A,120.1903,30.2692,杭州市,浙江农大,颗粒物(PM10),51,51,41,35,28,99,,88,88,29,38,8,4,0.7,0.7
2024-10-14T1600,1230A,120.1197,30.3119,杭州市,和睦小学,颗粒物(PM10),52,53,47,31,26,100,,88,88,32,36,7,7,0.5,0.4
2024-10-14T1600,1231A,120.3019,30.4183,杭州市,临平镇,细颗粒物(PM2.5),52,48,54,36,23,116,,86,86,16,28,5,5,0.7,0.6
2024-10-14T1600,1232A,120.2697,30.1819,杭州市,城厢镇,细颗粒物(PM2.5),62,72,60,44,36,125,,101,101,27,41,7,7,0.7,0.7
2024-10-14T1600,1233A,120.0883,30.1808,杭州市,云栖,颗粒物(PM10),51,52,35,31,21,106,,90,90,36,26,7,7,0.8,0.6
2024-10-14T1600,3557A,119.9464,30.0494,杭州市,镇二中,,,69,48,40,35,145,,110,110,21,24,6,8,,1
2024-10-14T1600,3558A,119.7183,30.2367,杭州市,市府大楼,颗粒物(PM10),66,81,55,40,30,82,,88,88,27,28,6,6,0.7,0.7
2024-10-14T1600,3656A,120.1556,30.2864,杭州市,消防大队,颗粒物(PM10),53,56,50,35,30,113,,98,98,20,30,9,9,0.5,0.4
2024-10-14T1600,1270A,117.1959,31.7848,合肥市,明珠广场,,45,39,56,31,42,138,,112,112,16,25,6,6,0.5,0.6
2024-10-14T1600,1271A,117.3072,31.8764,合肥市,三里街,颗粒物(PM10),53,56,57,34,39,137,,117,117,24,21,3,3,0.6,0.7
2024-10-14T1600,1272A,117.2588,31.8707,合肥市,琥珀山庄,细颗粒物(PM2.5),59,58,57,42,44,151,,132,132,28,26,7,7,0.8,0.8
2024-10-14T1600,1273A,117.1604,31.9052,合肥市,董铺水库,细颗粒物(PM2.5),55,53,59,39,41,152,,123,123,15,14,2,3,0.4,0.4
2024-10-14T1600,1274A,117.25,31.8571,合肥市,长江中路,,,66,68,44,47,140,,118,118,,20,8,8,0.7,0.8
2024-10-14T1600,1275A,117.266,31.9436,合肥市,庐阳区,细颗粒物(PM2.5),55,58,57,39,42,162,,132,132,22,23,4,4,0.7,0.7
2024-10-14T1600,1276A,117.336,31.8586,合肥市,瑶海区,颗粒物(PM10),56,61,60,39,41,139,,117,117,23,27,2,3,0.6,0.7
2024-10-14T1600,1277A,117.3027,31.7964,合肥市,包河区,,49,44,51,34,39,140,,114,114,13,33,6,6,0.5,0.5
2024-10-14T1600,1278A,117.2776,31.7385,合肥市,滨湖新区,,45,41,53,31,38,131,,117,117,12,22,4,5,0.5,0.6
2024-10-14T1600,1279A,117.1318,31.8403,合肥市,高新区,,49,46,53,34,46,142,,118,118,15,17,5,5,0.7,0.8
2024-10-14T1600,3464A,117.3803,31.9147,合肥市,高教基地,颗粒物(PM10),52,54,56,32,29,125,,120,120,21,18,4,4,0.4,0.5
2024-10-14T1600,3614A,79.924,37.0877,和田地区,地区环保局,颗粒物(PM10),76,101,132,18,34,110,,85,85,6,14,7,7,0.4,0.5
2024-10-14T1600,3615A,79.9131,37.113,和田地区,市环保局,颗粒物(PM10),58,65,132,23,38,112,,75,75,6,30,7,8,0.5,0.8
2024-10-14T1600,2516A,108.2011,24.715,河池市,东仁乐园,,16,,38,3,30,50,,57,48,6,11,4,5,0.8,0.8
2024-10-14T1600,2517A,108.0497,24.6947,河池市,市环保站,,15,,39,6,28,47,,64,43,10,16,9,10,0.7,0.8
2024-10-14T1600,2518A,108.0983,24.6989,河池市,市疾控中心,,,6,44,3,36,53,,60,48,8,17,,8,0.7,0.8
2024-10-14T1600,1696A,114.6778,23.7569,河源市,源西,,44,39,44,23,31,138,,106,106,8,29,5,5,0.4,0.6
2024-10-14T1600,1697A,114.6944,23.7586,河源市,东埔,,,,44,,50,138,,106,106,10,20,3,4,0.6,0.7
2024-10-14T1600,1698A,114.6892,23.7233,河源市,老城,,42,36,42,24,27,133,,111,111,5,14,4,5,0.7,0.8
2024-10-14T1600,1718A,115.4208,35.2464,菏泽市,气象局,臭氧1小时,108,126,112,64,69,215,,130,130,22,33,4,4,0.4,0.5
2024-10-14T1600,1719A,115.4747,35.2375,菏泽市,市政协,臭氧1小时,105,129,112,75,72,209,,133,133,19,30,5,5,0.5,0.5
2024-10-14T1600,3374A,115.5564,35.0891,菏泽市,定陶老年大学,细颗粒物(PM2.5),117,146,111,88,69,209,,111,111,22,36,7,6,0.5,0.5
2024-10-14T1600,3647A,115.4702,35.2706,菏泽市,菏泽医专,细颗粒物(PM2.5),117,116,100,88,83,215,,126,126,19,33,5,6,0.6,0.6
2024-10-14T1600,2514A,111.5264,24.4172,贺州市,环保小区,臭氧1小时,74,40,68,33,45,179,,150,150,10,22,6,8,0.5,0.7
2024-10-14T1600,2515A,111.5608,24.4078,贺州市,政协大楼,臭氧1小时,83,49,67,33,46,186,,152,152,13,28,9,11,0.6,0.6
2024-10-14T1600,3534A,111.4744,24.4553,贺州市,西湾,臭氧1小时,63,57,70,34,55,170,,139,139,10,26,6,7,0.6,0.8
2024-10-14T1600,2385A,114.17,35.9019,鹤壁市,市监测站,细颗粒物(PM2.5),110,113,121,83,81,210,,146,146,27,43,,8,0.8,0.9
2024-10-14T1600,2386A,114.2956,35.7511,鹤壁市,市交警支队,臭氧1小时,107,116,115,78,72,214,,137,137,24,57,2,3,0.5,0.7
2024-10-14T1600,2387A,114.2878,35.7306,鹤壁市,迎宾馆,细颗粒物(PM2.5),113,131,123,85,76,216,,138,138,26,45,8,4,0.8,0.8
2024-10-14T1600,3474A,114.2617,35.6822,鹤壁市,大新区,细颗粒物(PM2.5),123,122,100,93,68,210,,147,147,,32,6,3,0.9,0.7
2024-10-14T1600,3596A,114.1572,35.9603,鹤壁市,南山宾馆,臭氧1小时,104,114,141,71,104,208,,150,150,10,25,4,12,0.5,0.8
2024-10-14T1600,2244A,130.2537,47.3416,鹤岗市,哈啤分公司,,42,42,53,22,22,80,,63,63,13,32,16,18,0.6,0.6
2024-10-14T1600,2245A,130.2684,47.3086,鹤岗市,斯达机电,,49,49,48,19,24,90,,75,75,13,23,14,16,0.2,0.2
2024-10-14T1600,2246A,130.3114,47.3388,鹤岗市,东山纸板厂,,35,29,93,24,29,79,,66,66,15,34,17,19,0.1,1.3
2024-10-14T1600,2247A,130.1097,47.3382,鹤岗市,五号水库,,34,34,27,11,10,103,,85,85,6,13,11,9,0.0,0.1
2024-10-14T1600,2263A,127.4833,50.2524,黑河市,交通局,颗粒物(PM10),60,70,63,42,37,98,,98,94,11,13,6,6,0.6,0.6
2024-10-14T1600,2264A,127.5144,50.2341,黑河市,环保局,颗粒物(PM10),62,74,63,31,32,105,,108,103,11,10,4,5,0.6,0.5
2024-10-14T1600,2265A,127.5291,50.2472,黑河市,大黑河岛,,,,,42,42,74,,85,74,13,13,2,2,,
2024-10-14T1600,1074A,115.6838,37.7541,衡水市,电机北厂,细颗粒物(PM2.5),169,173,211,128,161,197,,115,115,17,49,8,7,0.6,0.8
2024-10-14T1600,1075A,115.6303,37.7316,衡水市,市监测站,细颗粒物(PM2.5),152,152,181,116,149,191,,98,98,,55,10,8,0.6,0.9
2024-10-14T1600,3188A,115.6683,37.7217,衡水市,市城管局,细颗粒物(PM2.5),152,162,186,116,141,201,,103,103,23,51,12,10,0.7,0.9
2024-10-14T1600,3459A,115.5989,37.5491,衡水市,地表水厂,细颗粒物(PM2.5),128,156,180,97,131,197,,109,109,20,52,5,4,0.5,0.9
2024-10-14T1600,2456A,112.5003,26.9167,衡阳市,原169医院,,49,35,90,34,75,74,,89,88,16,17,10,10,0.7,0.8
2024-10-14T1600,2457A,112.6194,26.9258,衡阳市,衡阳化工总厂,细颗粒物(PM2.5),68,,119,49,105,71,,83,80,16,15,5,6,0.9,1
2024-10-14T1600,2458A,112.6211,26.8956,衡阳市,珠晖区环保局,细颗粒物(PM2.5),63,53,106,45,85,79,,86,84,17,21,7,9,0.9,1
2024-10-14T1600,2459A,112.6197,26.8733,衡阳市,市委党校,细颗粒物(PM2.5),59,64,104,42,79,76,,97,92,18,16,8,9,0.9,1
2024-10-14T1600,2460A,112.6006,26.8919,衡阳市,市监测站,细颗粒物(PM2.5),69,55,105,50,96,86,,90,90,13,15,7,9,0.9,1
2024-10-14T1600,2461A,112.5664,26.9056,衡阳市,真空机电公司,细颗粒物(PM2.5),60,45,104,43,90,85,,87,87,11,15,5,8,1.0,1.1
2024-10-14T1600,3399A,112.6703,26.882,衡阳市,师范学院,,46,46,100,25,71,76,,97,94,17,17,8,10,1.0,1.1
2024-10-14T1600,2608A,103.3772,23.3993,红河哈尼族彝族自治州,污水处理厂,,,25,38,14,27,72,,74,74,,6,4,4,0.5,0.6
2024-10-14T1600,2609A,103.3861,23.35,红河哈尼族彝族自治州,监测站,,29,22,37,20,32,74,,75,75,9,7,16,12,0.5,0.5
2024-10-14T1600,3038A,103.3758,23.368,红河哈尼族彝族自治州,州图书馆,,23,17,33,9,19,72,,74,74,4,7,6,6,0.3,0.4
2024-10-14T1600,1090A,111.6507,40.7517,呼和浩特市,呼市一监,颗粒物(PM10),58,66,50,30,40,106,,75,75,6,17,9,7,0.6,0.6
2024-10-14T1600,1091A,111.6572,40.8033,呼和浩特市,小召,颗粒物(PM10),57,63,53,31,43,105,,74,74,20,25,10,8,0.6,0.7
2024-10-14T1600,1094A,111.7516,40.8369,呼和浩特市,如意水处理厂,,37,37,59,20,40,97,,72,72,13,28,5,3,0.4,0.6
2024-10-14T1600,1095A,111.7276,40.8062,呼和浩特市,二十九中,颗粒物(PM10),52,54,55,34,53,107,,58,58,12,24,8,6,0.7,0.8
2024-10-14T1600,1096A,111.5512,40.7866,呼和浩特市,工大金川校区,颗粒物(PM10),58,65,58,40,43,109,,76,76,15,32,5,4,0.6,0.8
2024-10-14T1600,1097A,111.717,40.7612,呼和浩特市,化肥厂生活区,,50,50,57,30,50,106,,76,76,14,23,10,9,0.5,0.5
2024-10-14T1600,3698A,111.5968,40.8178,呼和浩特市,红旗小学,颗粒物(PM10),60,70,59,39,49,102,,69,69,20,39,4,5,0.6,0.7
2024-10-14T1600,3699A,111.6518,40.8389,呼和浩特市,海东办,颗粒物(PM10),56,61,53,26,44,103,,71,71,14,33,6,6,0.6,0.8
2024-10-14T1600,2192A,119.7594,49.2261,呼伦贝尔市,区环保局,,30,28,43,21,29,46,,104,47,7,11,5,6,0.3,0.4
2024-10-14T1600,3061A,119.7512,49.1577,呼伦贝尔市,国华电力东,,28,19,56,19,25,50,,109,51,4,7,3,4,0.4,0.5
2024-10-14T1600,1250A,120.0751,30.8669,湖州市,城西水厂,,40,40,36,27,17,100,,84,84,18,28,4,5,0.5,0.4
2024-10-14T1600,2873A,120.0875,30.8955,湖州市,仁皇山新区,,,41,34,31,21,108,,84,84,15,22,,7,0.7,0.6
2024-10-14T1600,2907A,120.1844,30.8596,湖州市,吴兴区站,,40,38,33,28,18,95,,78,78,19,23,6,6,0.5,0.5
2024-10-14T1600,3562A,120.4148,30.8538,湖州市,南浔区站,,40,40,30,25,19,96,,68,68,16,20,2,4,0.6,0.5
2024-10-14T1600,1607A,120.9092,40.7136,葫芦岛市,龙港区,,38,18,30,14,20,120,,112,112,4,6,10,10,0.5,0.5
2024-10-14T1600,1608A,120.8392,40.7514,葫芦岛市,化工街,,37,27,30,14,16,117,,113,113,10,11,16,15,0.8,0.7
2024-10-14T1600,1609A,120.8341,40.7073,葫芦岛市,新区,,39,33,29,18,21,124,,116,116,4,6,9,8,0.6,0.6
2024-10-14T1600,1610A,120.8695,40.7677,葫芦岛市,东城区,,35,29,28,19,25,112,,105,105,8,12,8,8,0.4,0.4
2024-10-14T1600,2482A,109.5981,27.5721,怀化市,林科所,,23,23,28,14,22,51,,58,51,7,7,4,6,1.1,1.2
2024-10-14T1600,2483A,109.9453,27.5444,怀化市,河西地税局,,,31,31,28,29,59,,61,55,13,13,11,11,,0.5
2024-10-14T1600,2484A,109.9781,27.5342,怀化市,市四医院,,40,40,32,25,27,58,,55,55,6,7,10,7,0.8,0.7
2024-10-14T1600,2485A,109.9972,27.5578,怀化市,监测楼,,36,30,35,25,28,64,,62,62,10,9,6,4,0.7,0.7
2024-10-14T1600,2486A,110.0394,27.583,怀化市,市委党校,,32,26,33,22,24,67,,55,55,8,10,32,11,0.8,0.7
2024-10-14T1600,1210A,119.036,33.5981,淮安市,钵池山,细颗粒物(PM2.5),88,83,39,65,39,122,,95,95,17,25,6,5,0.7,0.7
2024-10-14T1600,1211A,119.007,33.575,淮安市,北京南路,细颗粒物(PM2.5),104,102,48,78,41,122,,90,90,14,25,6,7,0.5,0.6
2024-10-14T1600,1212A,118.989,33.6067,淮安市,市监测站,细颗粒物(PM2.5),92,73,34,68,34,130,,95,95,18,28,6,6,0.7,0.7
2024-10-14T1600,1213A,119.135,33.5039,淮安市,楚州区监测站,细颗粒物(PM2.5),109,95,41,82,40,128,,99,99,18,26,6,6,0.6,0.6
2024-10-14T1600,1214A,119.0186,33.6297,淮安市,淮阴区监测站,细颗粒物(PM2.5),87,83,39,64,37,125,,97,97,21,32,6,7,0.6,0.6
2024-10-14T1600,3426A,118.8755,33.2894,淮安市,新华书店,颗粒物(PM10),64,77,42,44,26,156,,124,124,14,19,4,4,0.5,0.4
2024-10-14T1600,2282A,116.8004,33.975,淮北市,监测站,细颗粒物(PM2.5),78,83,79,57,54,172,,120,120,16,22,3,3,0.6,0.6
2024-10-14T1600,2283A,116.8091,33.9007,淮北市,烈山区政府,细颗粒物(PM2.5),109,98,110,82,78,179,,123,123,18,30,5,4,0.6,0.7
2024-10-14T1600,3330A,116.8873,33.9836,淮北市,杜集区检察院,细颗粒物(PM2.5),99,108,99,74,76,188,,132,132,20,24,4,3,0.4,0.4
2024-10-14T1600,4017A,116.7923,33.9535,淮北市,市博物馆,细颗粒物(PM2.5),85,90,81,63,56,174,,123,123,18,25,4,3,0.6,0.7
2024-10-14T1600,2277A,116.8305,32.7727,淮南市,潘集区政府,细颗粒物(PM2.5),58,46,67,41,49,151,,131,131,17,19,12,8,0.5,0.6
2024-10-14T1600,2278A,117.0067,32.6524,淮南市,师范学院,,,51,56,34,44,165,,141,141,13,17,,8,0.5,0.5
2024-10-14T1600,2279A,116.8569,32.5951,淮南市,谢家集区政府,,46,43,48,29,45,146,,125,125,12,22,6,6,0.4,0.5
2024-10-14T1600,2280A,116.8281,32.633,淮南市,八公山区政府,,47,44,55,28,42,148,,123,123,8,10,8,8,0.3,0.3
2024-10-14T1600,2281A,116.6325,32.6201,淮南市,焦岗湖风景区管理处,,38,28,49,26,28,116,,100,100,4,7,8,8,0.1,0.2
2024-10-14T1600,2894A,117.0566,32.6531,淮南市,经济技术开发区消防队,,48,35,50,22,32,153,,136,136,11,16,4,4,0.4,0.5
2024-10-14T1600,3329A,117.0108,32.5893,淮南市,山南新区,,47,42,62,27,47,148,,131,131,15,22,2,2,0.5,0.6
2024-10-14T1600,2446A,114.9028,30.4742,黄冈市,职工中心,细颗粒物(PM2.5),117,99,78,88,67,94,,80,80,26,23,9,8,1.1,0.8
2024-10-14T1600,2929A,114.8858,30.4519,黄冈市,红卫路,细颗粒物(PM2.5),107,95,69,80,57,88,,83,83,24,21,8,9,1.2,0.8
2024-10-14T1600,3398A,114.9136,30.4445,黄冈市,市林业局,细颗粒物(PM2.5),104,99,68,78,55,98,,93,93,18,14,8,8,1.0,0.7
2024-10-14T1600,2672A,102.0199,35.5102,黄南藏族自治州,同仁县隆务镇,,29,20,31,6,11,91,,71,71,5,6,14,12,0.4,0.3
2024-10-14T1600,2295A,118.2903,29.6963,黄山市,延安路89号,,33,33,46,8,14,98,,85,85,5,10,7,6,0.4,0.4
2024-10-14T1600,2296A,118.327,29.7178,黄山市,黄山东路89号,,35,35,40,11,16,98,,85,85,7,10,5,5,0.4,0.4
2024-10-14T1600,2297A,118.1371,30.2756,黄山市,黄山区政府5号楼,细颗粒物(PM2.5),52,52,55,36,36,78,,71,71,9,12,7,8,0.6,0.6
2024-10-14T1600,2423A,115.0601,30.2313,黄石市,沈家营,细颗粒物(PM2.5),64,72,91,46,53,77,,75,75,20,23,7,8,0.7,0.8
2024-10-14T1600,2424A,115.0817,30.2006,黄石市,陈家湾,细颗粒物(PM2.5),69,80,90,50,57,82,,76,76,22,20,11,12,0.8,0.8
2024-10-14T1600,2426A,114.8988,30.2019,黄石市,铁山,细颗粒物(PM2.5),90,73,69,67,70,88,,72,67,23,22,12,12,1.0,1.1
2024-10-14T1600,2427A,115.0307,30.2092,黄石市,团城山,细颗粒物(PM2.5),58,61,87,41,54,83,,70,70,20,22,7,11,0.7,0.8
2024-10-14T1600,3149A,115.0235,30.1578,黄石市,笔架山北路,细颗粒物(PM2.5),87,70,83,64,70,88,,76,74,22,19,8,9,0.8,0.8
2024-10-14T1600,1392A,114.4183,23.0528,惠州市,河南岸金山湖子站,,40,30,31,19,16,125,,100,100,7,8,6,6,0.6,0.6
2024-10-14T1600,1393A,114.4053,23.0822,惠州市,下埔横江三路子站,,40,28,34,10,18,126,,110,110,7,11,5,6,0.7,0.7
2024-10-14T1600,1394A,114.4103,23.1142,惠州市,江北云山西路子站,,38,21,33,15,18,120,,117,117,5,9,5,6,0.4,0.5
2024-10-14T1600,1395A,114.4645,22.7833,惠州市,惠阳区承修路船湖子站,,35,33,33,16,15,110,,92,92,13,16,7,7,0.4,0.6
2024-10-14T1600,1396A,114.5317,22.7422,惠州市,大亚湾管委会子站,,40,36,29,23,14,126,,104,104,10,15,8,9,0.6,0.6
2024-10-14T1600,3314A,114.4338,22.8134,惠州市,惠阳秋长,,41,27,22,21,15,130,,109,109,10,15,6,6,0.5,0.6
2024-10-14T1600,3452A,114.6517,22.775,惠州市,大亚湾霞涌,,49,38,25,34,15,127,,100,100,8,9,6,6,0.3,0.4
2024-10-14T1600,2240A,130.9762,45.3001,鸡西市,环保局,,42,42,73,10,26,80,,58,58,4,28,8,9,0.2,0.5
2024-10-14T1600,2243A,130.9429,45.3039,鸡西市,第一中学,,29,27,56,3,20,92,,66,66,2,36,5,10,0,0.2
2024-10-14T1600,3707A,131.0207,45.3073,鸡西市,欧美日汽修厂,,36,36,72,10,34,83,,66,66,9,24,7,13,0.1,0.4
2024-10-14T1600,3709A,130.9967,45.3106,鸡西市,市政设施管理处,颗粒物(PM10),56,61,75,11,26,79,,62,62,15,29,7,9,0.2,0.4
2024-10-14T1600,2367A,114.9754,27.0803,吉安市,红声器材厂,臭氧1小时,73,68,93,40,63,178,,145,145,18,32,14,16,0.6,0.7
2024-10-14T1600,2368A,114.9658,27.0999,吉安市,市森林工业局,臭氧1小时,70,57,79,39,53,176,,144,144,16,36,12,15,0.7,0.8
2024-10-14T1600,2369A,114.99,27.1312,吉安市,市环境监测站,臭氧1小时,77,56,72,38,46,181,,146,146,16,23,16,21,0.7,0.7
2024-10-14T1600,2370A,115.0093,27.0968,吉安市,青原区法院,臭氧1小时,74,52,95,31,64,179,,146,146,14,35,15,24,0.7,0.7
2024-10-14T1600,1772A,126.54,43.8622,吉林市,哈达湾,,35,27,37,10,20,110,,108,108,9,18,6,8,0.5,0.6
2024-10-14T1600,1773A,126.5844,43.8358,吉林市,东局子,,33,29,37,15,20,105,,107,107,12,25,5,6,0.5,0.6
2024-10-14T1600,1774A,126.5052,43.8245,吉林市,电力学院,,34,25,46,16,28,107,,105,105,7,30,4,6,0.5,0.8
2024-10-14T1600,1775A,126.6133,43.8972,吉林市,江北,,33,33,45,13,20,102,,105,105,14,21,7,8,0.5,0.7
2024-10-14T1600,1776A,126.555,43.8306,吉林市,江南公园,,35,30,43,17,25,110,,107,107,8,26,6,7,0.4,0.6
2024-10-14T1600,1778A,126.7061,43.7133,吉林市,丰满,,35,17,20,11,17,110,,108,108,4,5,6,6,0.5,0.3
2024-10-14T1600,2868A,126.4739,43.953,吉林市,九站,,40,40,52,12,24,106,,105,105,11,28,5,8,0.6,0.7
2024-10-14T1600,1299A,116.9862,36.6114,济南市,科干所,颗粒物(PM10),63,75,71,42,40,168,,140,140,14,18,7,7,0.7,0.7
2024-10-14T1600,1300A,116.9376,36.665,济南市,农科所,颗粒物(PM10),64,78,82,39,39,162,,136,136,19,32,5,5,0.6,0.7
2024-10-14T1600,1301A,117.1265,36.6734,济南市,开发区,臭氧1小时,62,54,60,34,38,169,,145,145,16,29,5,5,0.6,0.6
2024-10-14T1600,1303A,117.0624,36.6868,济南市,省种子仓库,臭氧1小时,65,73,76,39,48,172,,140,140,12,31,3,3,0.5,0.6
2024-10-14T1600,1304A,116.9489,36.6447,济南市,机床二厂,颗粒物(PM10),68,85,83,42,39,166,,141,141,22,40,4,4,0.7,0.8
2024-10-14T1600,1305A,117.0495,36.663,济南市,市监测站,臭氧1小时,69,68,64,44,48,175,,147,147,14,33,5,5,0.7,0.7
2024-10-14T1600,1306A,116.7675,36.5484,济南市,长清党校,臭氧1小时,80,93,84,46,49,184,,148,148,19,26,7,6,0.9,0.7
2024-10-14T1600,1616A,117.6795,36.229,济南市,技术学院,颗粒物(PM10),56,61,83,36,55,164,,118,118,12,36,9,11,0.7,1.1
2024-10-14T1600,1961A,117.532,36.6868,济南市,东山小学,臭氧1小时,73,51,68,29,38,178,,148,148,14,29,3,4,0.5,0.6
2024-10-14T1600,3059A,117.7161,36.2049,济南市,泰兴公司,颗粒物(PM10),51,51,76,27,48,159,,112,112,21,50,9,9,0.7,1
2024-10-14T1600,3064A,117.6867,36.2171,济南市,莱芜战役纪念馆,颗粒物(PM10),54,58,86,29,46,158,,113,113,17,41,10,9,0.8,1.1
2024-10-14T1600,3494A,117.1673,36.9782,济南市,济阳区政府,臭氧1小时,72,81,98,44,51,177,,136,136,19,51,3,4,0.4,0.5
2024-10-14T1600,3495A,117.1171,36.63,济南市,锦屏中学,臭氧1小时,65,51,49,37,34,172,,149,149,21,22,5,5,0.6,0.5
2024-10-14T1600,3682A,116.9814,36.6819,济南市,济南四建,"细颗粒物(PM2.5),臭氧1小时",59,56,67,42,42,167,,136,136,13,31,3,3,0.6,0.7
2024-10-14T1600,1653A,116.6251,35.4302,济宁市,火炬城,细颗粒物(PM2.5),67,65,66,48,43,165,,117,117,20,23,10,11,0.7,0.8
2024-10-14T1600,1655A,116.5491,35.4042,济宁市,电化厂,颗粒物(PM10),81,111,84,53,41,156,,114,114,30,23,7,8,1.0,1.1
2024-10-14T1600,3500A,116.5814,35.3707,济宁市,北湖一中,细颗粒物(PM2.5),94,,60,70,51,158,,116,116,15,19,8,9,0.5,0.6
2024-10-14T1600,3501A,116.8249,35.5593,济宁市,服务中心,细颗粒物(PM2.5),70,59,70,51,54,154,,96,96,17,30,7,8,0.8,0.8
2024-10-14T1600,3678A,116.5907,35.4054,济宁市,市第七中学,细颗粒物(PM2.5),73,66,60,53,45,167,,114,114,12,18,7,9,0.6,0.8
2024-10-14T1600,2255A,130.2751,46.8028,佳木斯市,佳纺,,35,35,41,14,16,94,,92,92,5,21,5,6,0.6,0.6
2024-10-14T1600,2256A,130.3995,46.8307,佳木斯市,发电厂,颗粒物(PM10),52,53,43,16,17,86,,82,82,11,23,6,6,0.4,0.5
2024-10-14T1600,2257A,130.3258,46.7975,佳木斯市,环保局,,32,32,30,13,12,89,,86,86,7,21,8,8,0.2,0.5
2024-10-14T1600,2258A,130.3648,46.8032,佳木斯市,十一中,,35,35,33,16,16,82,,84,84,15,22,8,7,0.5,0.5
2024-10-14T1600,2259A,130.3794,46.7588,佳木斯市,四丰,,,24,22,15,12,92,,90,90,,,1,1,0.1,0.1
2024-10-14T1600,1252A,120.7436,30.778,嘉兴市,清河小学,颗粒物(PM10),56,61,33,35,15,88,,82,82,32,22,6,5,1.1,0.6
2024-10-14T1600,1253A,120.726,30.7478,嘉兴市,嘉兴学院,细颗粒物(PM2.5),59,60,32,42,18,84,,80,80,34,20,4,5,0.8,0.5
2024-10-14T1600,2872A,120.7846,30.7525,嘉兴市,南湖区残联,细颗粒物(PM2.5),58,60,32,41,18,82,,70,70,25,17,6,8,0.9,0.6
2024-10-14T1600,3407A,120.6916,30.7739,嘉兴市,秀洲住建,"颗粒物(PM10),细颗粒物(PM2.5)",55,60,31,39,16,89,,84,84,27,19,7,7,0.8,0.6
2024-10-14T1600,1945A,98.2908,39.7711,嘉峪关市,气象局,颗粒物(PM10),74,97,77,24,24,120,,86,86,15,27,6,8,0.3,0.5
2024-10-14T1600,2884A,98.2672,39.7978,嘉峪关市,酒钢宾馆,颗粒物(PM10),74,97,77,19,23,119,,96,96,9,21,15,17,0.4,0.3
2024-10-14T1600,3248A,98.2643,39.7724,嘉峪关市,雄关区,颗粒物(PM10),65,79,64,14,21,120,,91,91,9,25,11,12,0.4,0.1
2024-10-14T1600,1383A,113.1064,22.6058,江门市,北街,,40,26,34,18,20,126,,111,111,12,17,5,6,0.4,0.5
2024-10-14T1600,1384A,113.0731,22.5835,江门市,西区,,43,34,41,21,20,137,,115,115,13,18,6,7,0.3,0.4
2024-10-14T1600,1385A,113.0219,22.5311,江门市,圭峰西,,39,27,37,14,20,123,,104,104,10,18,4,4,0.4,0.4
2024-10-14T1600,1386A,113.0828,22.5947,江门市,东湖,,39,30,37,20,19,123,,112,112,11,16,5,6,0.4,0.4
2024-10-14T1600,3311A,113.1075,22.5647,江门市,江海富民,,44,39,54,20,22,139,,116,116,11,17,7,8,0.4,0.5
2024-10-14T1600,3449A,113.05,22.4667,江门市,新会银湖,,41,35,38,15,23,129,,102,102,6,18,6,6,0.4,0.5
2024-10-14T1600,1828A,113.227,35.2125,焦作市,市环保局,臭氧1小时,90,84,117,55,83,192,,160,160,17,27,4,6,0.3,0.5
2024-10-14T1600,1830A,113.1992,35.2590,焦作市,影视城,臭氧1小时,113,88,97,72,79,225,,171,171,18,14,14,10,0.8,0.6
2024-10-14T1600,3169A,113.2725,35.2067,焦作市,太极体育中心,颗粒物(PM10),75,99,120,51,76,168,,138,138,15,33,4,5,0.6,0.8
2024-10-14T1600,3335A,113.3137,35.2641,焦作市,马村街道办,臭氧1小时,80,83,106,58,82,184,,140,140,13,23,4,4,0.2,0.4
2024-10-14T1600,3336A,113.2465,35.2373,焦作市,焦作技师学院,臭氧1小时,75,88,108,51,75,180,,141,141,8,19,4,4,0.8,0.9
2024-10-14T1600,3477A,113.1656,35.2539,焦作市,中站许衡医院,臭氧1小时,101,90,104,58,70,201,,151,151,20,27,11,7,0.4,0.4
2024-10-14T1600,3981A,113.2449,35.1803,焦作市,原李万街道办,细颗粒物(PM2.5),67,75,116,48,73,168,,141,141,23,38,8,9,0.6,0.8
2024-10-14T1600,1708A,116.3701,23.5345,揭阳市,新兴,,47,39,41,25,22,148,,117,117,11,16,6,7,0.5,0.5
2024-10-14T1600,1709A,116.3264,23.5443,揭阳市,西马,臭氧1小时,54,49,42,30,19,163,,124,124,6,10,7,7,0.6,0.7
2024-10-14T1600,1710A,116.3611,23.5626,揭阳市,东兴,,50,47,42,22,21,158,,122,122,7,12,6,7,0.7,0.8
2024-10-14T1600,1711A,116.4151,23.5294,揭阳市,渔湖,,49,49,36,20,17,150,,121,121,9,15,7,10,0.6,0.6
2024-10-14T1600,3320A,116.403,23.5699,揭阳市,曲溪,,49,38,38,24,21,155,,125,125,11,17,5,9,0.5,0.5
2024-10-14T1600,1944A,102.1692,38.5167,金昌市,天庆家园,颗粒物(PM10),63,75,62,23,28,114,,93,93,9,22,36,20,0.6,0.7
2024-10-14T1600,3170A,102.1864,38.5253,金昌市,市委党校,颗粒物(PM10),67,84,71,22,22,113,,91,91,8,19,9,9,0.5,0.6
2024-10-14T1600,4022A,102.1647,38.5371,金昌市,金川区人防中心,颗粒物(PM10),71,91,80,23,22,113,,94,94,9,16,12,10,0.4,0.5
2024-10-14T1600,1262A,119.647,29.077,金华市,十五中,,39,30,52,14,28,122,,100,100,10,30,3,4,0.3,0.4
2024-10-14T1600,1263A,119.686,29.1029,金华市,监测站,,38,18,52,11,29,120,,93,93,8,39,2,3,0.3,0.5
2024-10-14T1600,3659A,119.656,29.1131,金华市,气象局,,39,19,54,8,27,122,,95,95,8,44,4,4,0.3,0.5
2024-10-14T1600,1767A,121.1115,41.0879,锦州市,南山,,40,37,30,28,36,101,,94,94,11,17,22,12,0.5,0.5
2024-10-14T1600,1768A,121.0533,40.8434,锦州市,开发区,颗粒物(PM10),57,63,59,24,35,90,,87,87,25,38,6,6,0.6,0.6
2024-10-14T1600,1769A,121.1836,41.1119,锦州市,百股街道,,35,35,28,22,20,104,,98,98,11,12,16,9,0.7,0.8
2024-10-14T1600,1770A,121.1178,41.1222,锦州市,天安街道,,45,36,36,31,44,103,,98,98,15,20,21,12,0.7,0.7
2024-10-14T1600,1771A,121.1303,41.1386,锦州市,北湖公园,,46,,37,32,44,113,,105,105,13,16,22,13,0.7,0.7
2024-10-14T1600,2160A,112.85,35.5051,晋城市,自来水公司,细颗粒物(PM2.5),62,54,110,44,84,166,,138,138,17,39,10,10,1.0,1.5
2024-10-14T1600,2161A,112.8318,35.4936,晋城市,白云商贸,颗粒物(PM10),60,70,119,36,83,165,,134,134,18,39,8,7,0.9,1.4
2024-10-14T1600,2162A,112.8508,35.4887,晋城市,市环保局,颗粒物(PM10),68,85,118,46,79,170,,135,135,18,46,9,8,0.9,1.4
2024-10-14T1600,2163A,112.8676,35.4897,晋城市,技术学院,颗粒物(PM10),69,87,119,48,81,172,,134,134,21,46,9,8,1.1,1.5
2024-10-14T1600,2165A,112.8453,35.546,晋城市,白马寺,,,,,,,,,,,,,,,,
2024-10-14T1600,3620A,112.8271,35.4828,晋城市,泽州一中,细颗粒物(PM2.5),79,83,115,58,92,169,,134,134,20,35,11,11,1.0,1.5
2024-10-14T1600,2171A,112.7532,37.6945,晋中市,锦纶小区,细颗粒物(PM2.5),107,119,109,80,78,167,,107,107,26,30,11,9,1.0,0.9
2024-10-14T1600,2173A,112.7249,37.7067,晋中市,南都小区,细颗粒物(PM2.5),105,111,123,79,83,162,,109,109,26,36,10,7,0.9,0.9
2024-10-14T1600,2174A,112.6991,37.6982,晋中市,榆次区政府,颗粒物(PM10),91,132,124,66,71,167,,108,108,25,32,11,9,0.8,0.8
2024-10-14T1600,2865A,112.7195,37.6828,晋中市,榆次三中,细颗粒物(PM2.5),104,114,114,78,76,168,,106,106,23,31,13,10,1.2,1
2024-10-14T1600,2439A,112.2014,31.0481,荆门市,竹园小学,细颗粒物(PM2.5),97,92,79,72,64,133,,76,76,22,26,15,11,0.8,0.8
2024-10-14T1600,2440A,112.1969,30.9891,荆门市,掇刀,细颗粒物(PM2.5),84,76,81,62,68,128,,89,89,20,22,14,8,0.6,0.7
2024-10-14T1600,2441A,112.2213,31.0386,荆门市,石化一小,细颗粒物(PM2.5),99,92,82,74,70,127,,76,76,22,25,9,16,0.5,0.6
2024-10-14T1600,3012A,112.1849,31.0362,荆门市,西山林语,细颗粒物(PM2.5),88,80,71,65,59,128,,92,92,21,19,10,7,0.5,0.5
2024-10-14T1600,3547A,112.1632,31.0138,荆门市,龙泉中学南校,细颗粒物(PM2.5),63,67,49,45,39,129,,87,87,30,25,13,6,0.8,0.8
2024-10-14T1600,1844A,112.2494,30.3197,荆州市,市图书馆,细颗粒物(PM2.5),55,56,56,39,42,118,,85,85,19,25,9,10,0.9,0.9
2024-10-14T1600,1845A,112.2008,30.3544,荆州市,市委党校,细颗粒物(PM2.5),59,55,56,42,43,116,,81,81,21,22,6,6,0.6,0.7
2024-10-14T1600,3194A,112.2747,30.3122,荆州市,管委会,细颗粒物(PM2.5),59,59,58,42,46,119,,83,83,22,25,8,8,0.8,0.9
2024-10-14T1600,3548A,112.1655,30.3364,荆州市,学苑路,细颗粒物(PM2.5),78,,49,57,57,125,,88,88,13,20,7,7,0.8,0.9
2024-10-14T1600,2342A,117.3102,29.3867,景德镇市,王港中学,,,,,,,,,,,,,,,,
2024-10-14T1600,2343A,117.2117,29.2933,景德镇市,老干部活动中心,,41,41,44,26,32,124,,94,94,8,14,10,9,0.2,0.2
2024-10-14T1600,2344A,117.1894,29.2789,景德镇市,兽医站,,44,44,48,24,29,134,,105,105,8,15,9,7,0.5,0.5
2024-10-14T1600,2345A,117.1547,29.2617,景德镇市,台达陶瓷,颗粒物(PM10),52,53,54,34,36,120,,94,94,11,13,33,15,0.4,0.5
2024-10-14T1600,2346A,117.2461,29.2956,景德镇市,陶研所,颗粒物(PM10),51,52,48,35,32,141,,93,93,13,20,7,7,0.6,0.4
2024-10-14T1600,1803A,115.9872,29.6815,九江市,十里,"颗粒物(PM10),细颗粒物(PM2.5)",55,60,111,39,76,80,,79,79,15,19,9,12,0.8,1
2024-10-14T1600,1804A,115.9584,29.7046,九江市,茅山头,细颗粒物(PM2.5),74,60,104,54,84,59,,68,68,26,26,7,10,0.9,1
2024-10-14T1600,1805A,115.9877,29.7295,九江市,西园,细颗粒物(PM2.5),54,51,111,38,94,74,,80,80,25,28,8,21,0.6,0.9
2024-10-14T1600,1806A,116.0172,29.6547,九江市,五七二七厂,细颗粒物(PM2.5),62,45,97,44,88,90,,81,81,16,24,8,10,0.6,0.8
2024-10-14T1600,1808A,115.9114,29.6038,九江市,综合工业园,细颗粒物(PM2.5),82,70,99,60,82,83,,73,73,26,38,13,17,0.7,0.9
2024-10-14T1600,1809A,116.0721,29.7535,九江市,石化总厂,细颗粒物(PM2.5),54,48,117,38,97,79,,74,74,30,30,9,11,0.8,1
2024-10-14T1600,1810A,115.9773,29.5698,九江市,庐山气象台,,48,46,58,33,44,127,,152,144,6,7,25,13,0.8,0.7
2024-10-14T1600,3190A,116.0254,29.6994,九江市,外国语学校,细颗粒物(PM2.5),57,41,102,40,85,81,,71,71,22,29,5,8,0.2,0.4
2024-10-14T1600,2658A,98.5061,39.7443,酒泉市,仓门街子站,颗粒物(PM10),62,73,78,16,30,119,,86,86,6,20,10,7,0.3,0.4
2024-10-14T1600,2659A,98.4989,39.7256,酒泉市,油田生活基地,颗粒物(PM10),74,97,92,24,29,114,,87,87,6,17,18,8,0.3,0.4
2024-10-14T1600,2698A,76.0072,39.4467,喀什地区,巡警大队,颗粒物(PM10),73,96,140,3,30,107,,66,66,8,52,4,5,0.4,0.8
2024-10-14T1600,2699A,75.9755,39.4694,喀什地区,吾办,颗粒物(PM10),68,86,126,22,46,104,,57,57,11,45,2,2,0.4,0.9
2024-10-14T1600,4027A,75.9483,39.4689,喀什地区,老干局,颗粒物(PM10),71,91,167,8,29,111,,64,64,9,43,5,5,0.5,0.9
2024-10-14T1600,1824A,114.3389,34.7781,开封市,肿瘤医院,细颗粒物(PM2.5),129,106,151,98,116,225,,145,145,18,38,5,4,0.6,0.6
2024-10-14T1600,1826A,114.2885,34.7965,开封市,世纪星幼儿园,臭氧1小时,116,112,138,55,70,231,,152,152,15,35,2,2,0.6,0.7
2024-10-14T1600,3147A,114.3438,34.8106,开封市,龙亭公园,细颗粒物(PM2.5),120,121,144,91,123,230,,154,154,18,36,4,4,0.6,0.7
2024-10-14T1600,3210A,114.3644,34.7964,开封市,汴京公园,细颗粒物(PM2.5),119,129,154,90,105,201,,140,140,23,35,4,3,0.5,0.6
2024-10-14T1600,3473A,114.2485,34.8306,开封市,技师学院,臭氧1小时,116,120,140,55,69,231,,147,147,14,30,4,4,0.7,0.8
2024-10-14T1600,3592A,114.4644,34.7556,开封市,祥符区生态环境局,臭氧1小时,109,150,149,75,86,217,,157,157,18,61,4,4,0.5,0.6
2024-10-14T1600,1951A,84.895,45.6094,克拉玛依市,长征新村,,19,17,25,8,5,60,,42,36,5,14,6,6,0.2,0.3
2024-10-14T1600,1952A,84.8988,45.5893,克拉玛依市,南林小区,,21,14,25,14,14,65,,40,38,6,21,3,3,0.2,0.2
2024-10-14T1600,1954A,84.905,44.3396,克拉玛依市,独山子区,,29,28,33,10,11,91,,71,71,15,13,14,9,0.4,0.2
2024-10-14T1600,1955A,85.6979,46.098,克拉玛依市,乌尔禾区商贸楼,,23,,16,12,8,73,,49,49,4,11,2,2,0.1,0.1
2024-10-14T1600,3612A,85.1045,45.6899,克拉玛依市,白碱滩区新站,,20,10,25,7,6,64,,50,50,9,15,8,8,0.3,0.3
2024-10-14T1600,2697A,76.1454,39.7142,克孜勒苏柯尔克孜自治州,市人民政府,颗粒物(PM10),53,56,67,16,26,127,,90,90,2,19,4,25,0.3,0.4
2024-10-14T1600,3665A,76.1658,39.7157,克孜勒苏柯尔克孜自治州,克州文化中心,,,55,57,20,27,126,,101,101,,21,7,26,0.3,0.4
2024-10-14T1600,1450A,102.8204,24.8886,昆明市,呈贡新区,,30,30,29,13,15,92,,67,67,6,17,7,6,0.5,0.7
2024-10-14T1600,1451A,102.6251,24.9608,昆明市,西山森林公园,,,,,,,,,,,,,,,,
2024-10-14T1600,1452A,102.7252,25.0902,昆明市,龙泉镇,,27,,24,11,13,84,,56,56,8,18,8,7,0.6,0.8
2024-10-14T1600,1453A,102.7266,25.0375,昆明市,东风东路,,28,17,29,15,17,89,,63,63,9,23,9,7,0.5,0.6
2024-10-14T1600,1454A,102.6742,25.0669,昆明市,金鼎山,,,,27,9,15,84,,62,62,8,24,3,3,0.4,0.6
2024-10-14T1600,1455A,102.6644,25.0401,昆明市,碧鸡广场,,28,15,32,6,15,88,,64,64,11,25,9,7,0.3,0.4
2024-10-14T1600,3179A,102.7494,25.0119,昆明市,官渡区博物馆,,36,36,29,13,14,101,,68,68,7,24,10,7,0.5,0.7
2024-10-14T1600,3375A,102.8017,24.8336,昆明市,青年创业园,,30,20,22,15,16,94,,70,70,4,17,6,5,0.5,0.7
2024-10-14T1600,3550A,102.7997,24.9786,昆明市,昆明学院,,33,25,31,14,20,103,,68,68,10,23,8,6,0.5,0.6
2024-10-14T1600,3551A,102.5967,24.6736,昆明市,晋宁区生态环境分局,,26,19,21,12,17,82,,68,68,6,11,1,1,0.5,0.7
2024-10-14T1600,3552A,102.6678,24.9856,昆明市,云天化总部,,32,15,25,11,15,100,,68,68,8,20,9,6,0.5,0.5
2024-10-14T1600,1456A,91.1319,29.6514,拉萨市,八廓街,,39,16,15,8,7,124,,102,102,6,9,7,10,0.1,0.2
2024-10-14T1600,1457A,91.1221,29.6747,拉萨市,市环保局,,38,9,18,6,8,121,,94,94,8,14,6,9,0.3,0.3
2024-10-14T1600,1458A,91.0874,29.6475,拉萨市,区监测站,,37,6,12,3,6,118,,95,95,6,13,6,9,0.3,0.3
2024-10-14T1600,1459A,91.1774,29.6541,拉萨市,西藏大学,,38,11,12,6,6,119,,96,96,5,6,7,10,0.3,0.3
2024-10-14T1600,1460A,90.9798,29.6588,拉萨市,区辐射站,,37,7,18,3,8,118,,85,85,4,21,8,10,0.2,0.2
2024-10-14T1600,1461A,91.0834,29.6292,拉萨市,拉萨火车站,,35,6,11,6,7,112,,90,90,5,9,6,7,0.1,0.2
2024-10-14T1600,2520A,109.2203,23.7256,来宾市,来宾技工学校,,47,47,80,25,46,138,,122,122,8,24,8,18,0.7,0.9
2024-10-14T1600,3535A,109.1781,23.7297,来宾市,兴宾区政府,,43,32,68,21,47,136,,119,119,6,15,8,9,0.6,0.7
2024-10-14T1600,4002A,109.2416,23.7461,来宾市,中南小学,,50,45,79,35,48,134,,122,122,6,22,11,14,0.7,0.8
2024-10-14T1600,1476A,103.631,36.1031,兰州市,兰炼宾馆,细颗粒物(PM2.5),62,51,74,44,48,118,,92,92,29,62,20,21,0.8,1
2024-10-14T1600,1477A,104.1373,35.9454,兰州市,榆中兰大校区,,,,,,,,,,,,,,,,
2024-10-14T1600,1478A,103.8412,36.0726,兰州市,生物制品所,,43,43,67,28,39,89,,50,50,29,56,22,14,0.6,0.8
2024-10-14T1600,1479A,103.831,36.0464,兰州市,铁路设计院,细颗粒物(PM2.5),55,42,74,39,48,90,,46,46,32,72,20,14,0.6,1.2
2024-10-14T1600,3186A,103.7158,36.1058,兰州市,教育港,细颗粒物(PM2.5),59,64,84,42,47,93,,64,64,38,61,23,15,0.8,0.9
2024-10-14T1600,3241A,103.7439,36.0842,兰州市,百合公园,颗粒物(PM10),54,58,65,36,35,90,,53,53,32,56,23,14,0.9,0.9
2024-10-14T1600,3242A,103.9611,35.998,兰州市,和平,,41,41,48,20,25,119,,76,76,16,29,22,18,0.6,0.6
2024-10-14T1600,3245A,103.6633,36.533,兰州新区,新区管委会,,48,48,63,21,36,98,,72,72,10,28,18,15,0.6,0.7
2024-10-14T1600,3246A,103.6975,36.4789,兰州新区,舟曲中学,,46,46,61,27,33,100,,74,74,10,34,22,23,0.6,0.7
2024-10-14T1600,1067A,116.6708,39.5111,廊坊市,药材公司,细颗粒物(PM2.5),150,160,145,115,94,104,,77,77,21,38,2,2,1.0,1.5
2024-10-14T1600,1068A,116.7214,39.5589,廊坊市,开发区,细颗粒物(PM2.5),134,177,168,102,91,119,,83,83,20,37,2,2,0.9,1.4
2024-10-14T1600,1070A,116.7244,39.5269,廊坊市,北华航天学院,细颗粒物(PM2.5),178,171,168,134,123,112,,81,81,18,41,3,2,0.9,1.4
2024-10-14T1600,2919A,116.7022,39.5453,廊坊市,河北工业大学,细颗粒物(PM2.5),163,155,151,124,113,114,,82,82,22,45,3,3,0.9,1.4
2024-10-14T1600,2535A,103.7723,29.5462,乐山市,花湖湾,,33,6,37,3,25,103,,59,59,5,18,3,3,0.7,0.9
2024-10-14T1600,2536A,103.7627,29.5844,乐山市,牛耳桥,,31,13,34,10,28,98,,61,61,10,25,4,4,0.5,0.7
2024-10-14T1600,2537A,103.7508,29.6006,乐山市,市第三水厂,,34,14,38,12,30,106,,76,76,7,24,4,4,0.6,0.8
2024-10-14T1600,2538A,103.7571,29.5664,乐山市,市监测站,,31,14,36,8,24,98,,62,62,5,18,3,4,0.5,0.8
2024-10-14T1600,3361A,103.7311,29.5628,乐山市,理工大学,,34,17,33,13,30,106,,66,66,5,19,3,3,0.5,0.7
2024-10-14T1600,2598A,100.2143,26.8576,丽江市,西南郊,,28,,18,8,11,88,,75,75,3,7,7,6,0.6,0.7
2024-10-14T1600,2599A,100.2497,26.8802,丽江市,丽江古城,,25,17,20,7,12,77,,72,72,7,11,10,10,0.4,0.4
2024-10-14T1600,2600A,100.2203,26.8906,丽江市,市中心,,26,9,19,8,10,82,,69,69,7,9,6,6,0.5,0.5
2024-10-14T1600,1267A,119.914,28.4514,丽水市,监测站大楼,,41,41,43,10,20,78,,71,71,4,28,2,3,0.3,0.6
2024-10-14T1600,1268A,119.93,28.4586,丽水市,莲都小学,,28,28,51,10,32,77,,71,71,7,29,4,4,0.4,0.5
2024-10-14T1600,1269A,119.879,28.4231,丽水市,余庄前,,23,15,41,8,25,73,,72,72,7,17,4,4,0.4,0.5
2024-10-14T1600,1173A,119.176,34.5885,连云港市,市环境监测站,细颗粒物(PM2.5),55,53,24,39,19,141,,105,105,20,17,7,7,0.3,0.2
2024-10-14T1600,3000A,119.3581,34.6972,连云港市,德源药业,,46,29,18,17,14,145,,107,107,17,20,5,5,0.3,0.3
2024-10-14T1600,3007A,119.178,34.844,连云港市,新城一中,,50,48,35,33,16,159,,117,117,16,16,4,4,0.5,0.5
2024-10-14T1600,3008A,119.3608,34.7519,连云港市,胡沟管理处,,39,,19,24,16,124,,94,94,9,13,5,5,0.4,0.3
2024-10-14T1600,3009A,119.1478,34.5911,连云港市,矿山设计院,细颗粒物(PM2.5),52,48,23,36,21,144,,100,100,16,15,7,6,0.5,0.5
2024-10-14T1600,3434A,119.2413,34.6539,连云港市,工贸学校,,47,40,19,31,13,149,,109,109,15,13,8,7,0.6,0.6
2024-10-14T1600,3664A,119.4172,34.7341,连云港市,连云街道,,39,24,21,18,14,123,,102,102,14,13,5,5,0.6,0.5
2024-10-14T1600,2571A,102.3431,27.8099,凉山彝族自治州,青龙寺,,20,12,28,3,11,61,,38,38,2,6,7,9,0.5,0.8
2024-10-14T1600,2572A,102.2721,27.8415,凉山彝族自治州,邛海宾馆,,22,16,39,12,22,68,,41,41,11,20,10,14,0.6,1
2024-10-14T1600,2573A,102.2625,27.898,凉山彝族自治州,西昌市政府,,23,19,29,7,21,71,,42,42,8,17,7,14,0.6,0.9
2024-10-14T1600,2574A,102.2685,27.8851,凉山彝族自治州,凉山州政府,,24,11,36,7,22,74,,44,44,9,21,6,15,0.5,0.8
2024-10-14T1600,2575A,102.237,27.8914,凉山彝族自治州,长安,,24,11,33,8,20,75,,39,39,9,28,10,17,0.7,1
2024-10-14T1600,2212A,123.2,41.1953,辽阳市,宏伟区,,32,21,36,14,19,100,,105,101,8,7,6,7,0.5,0.6
2024-10-14T1600,2213A,123.1683,41.2495,辽阳市,新华园,,30,23,39,16,22,93,,97,94,10,14,10,12,0.5,0.6
2024-10-14T1600,2214A,123.2354,41.2639,辽阳市,滨河路,,29,23,36,15,20,91,,94,94,13,16,10,11,0.5,0.6
2024-10-14T1600,2215A,123.149,41.2991,辽阳市,铁西工业园,,32,32,42,14,21,89,,91,91,13,10,14,11,0.8,0.7
2024-10-14T1600,2227A,125.1358,42.8845,辽源市,环保局,,35,21,65,9,33,110,,109,109,9,32,4,6,0.5,0.8
2024-10-14T1600,3239A,125.0764,42.9078,辽源市,银鹰制药,,34,28,55,16,34,107,,107,107,13,36,8,14,0.6,0.7
2024-10-14T1600,1625A,115.9848,36.4372,聊城市,区政府,臭氧1小时,84,113,109,57,62,187,,126,126,17,29,9,9,0.6,0.7
2024-10-14T1600,2878A,116.0072,36.4343,聊城市,聊大东校,臭氧1小时,90,112,111,66,66,192,,130,130,20,32,8,8,0.5,0.6
2024-10-14T1600,3200A,115.9819,36.4978,聊城市,监控中心,细颗粒物(PM2.5),94,113,105,70,68,182,,125,125,25,36,8,8,0.7,0.8
2024-10-14T1600,3513A,116.0445,36.4361,聊城市,九州社区,臭氧1小时,88,123,115,62,62,190,,126,126,11,31,5,6,0.7,0.7
2024-10-14T1600,4018A,116.0567,36.4608,聊城市,星美广场,臭氧1小时,93,114,85,59,61,194,,130,130,14,28,7,9,0.9,0.8
2024-10-14T1600,2632A,94.3681,29.6376,林芝市,林芝监测站,,29,8,4,3,4,90,,58,58,3,4,6,6,0.2,0.2
2024-10-14T1600,2633A,94.3616,29.6616,林芝市,林芝人民医院,,29,10,6,3,4,92,,60,60,5,5,6,6,0.1,0.1
2024-10-14T1600,2603A,100.0781,23.8982,临沧市,市环保局,,39,29,27,27,16,75,,66,66,6,9,6,13,0.4,0.5
2024-10-14T1600,2604A,100.0894,23.8822,临沧市,市气象局,,28,28,27,17,20,72,,57,57,8,9,12,13,0.4,0.5
2024-10-14T1600,1733A,111.5531,36.0783,临汾市,临钢医院,颗粒物(PM10),66,81,110,38,63,140,,98,98,28,35,4,5,0.6,0.8
2024-10-14T1600,1734A,111.5028,36.0714,临汾市,技工学校,细颗粒物(PM2.5),60,68,111,43,73,162,,104,104,18,44,5,6,0.8,1
2024-10-14T1600,1736A,111.5018,36.0855,临汾市,市委,臭氧1小时,67,74,110,43,70,173,,112,112,13,34,7,7,0.8,1
2024-10-14T1600,3018A,111.505,36.1014,临汾市,唐尧大酒店,细颗粒物(PM2.5),62,72,108,44,70,164,,107,107,18,36,6,6,0.7,0.9
2024-10-14T1600,3668A,111.5036,36.0414,临汾市,城南,颗粒物(PM10),63,75,118,43,70,164,,112,112,20,40,6,6,0.7,0.9
2024-10-14T1600,2667A,103.2069,35.5993,临夏回族自治州,环保局,,42,42,47,15,19,121,,73,73,6,29,11,6,0.4,0.7
2024-10-14T1600,2668A,103.2417,35.6057,临夏回族自治州,建设大厦,,38,31,38,18,20,120,,75,75,7,23,10,4,0.4,0.5
2024-10-14T1600,1618A,118.3429,35.0532,临沂市,沂河小区,臭氧1小时,99,78,55,41,28,199,,151,151,22,19,7,7,0.4,0.5
2024-10-14T1600,1619A,118.295,35.0583,临沂市,鲁南制药厂,臭氧1小时,64,51,56,16,25,171,,144,144,11,20,6,7,0.5,0.6
2024-10-14T1600,1620A,118.2794,34.9976,临沂市,新光毛纺厂,,49,39,44,20,28,155,,138,138,19,24,5,5,0.6,0.8
2024-10-14T1600,1621A,118.3956,35.0888,临沂市,河东保险公司,臭氧1小时,104,68,45,38,32,208,,147,147,21,24,4,3,0.6,0.6
2024-10-14T1600,3370A,118.3564,35.0215,临沂市,十里堡居委,臭氧1小时,102,58,44,36,35,203,,150,150,20,25,6,6,0.7,0.8
2024-10-14T1600,3496A,118.3604,35.1084,临沂市,南坊新区,臭氧1小时,92,61,49,39,30,193,,143,143,20,22,8,8,0.6,0.7
2024-10-14T1600,3860A,118.3920,35.0300,临沂市,皇山花园小区,,,68,49,39,41,198,,154,154,26,27,8,8,,0.9
2024-10-14T1600,1870A,109.4856,24.3895,柳州市,柳东小学,,,37,63,26,42,82,,74,74,7,14,,10,0.8,0.9
2024-10-14T1600,1871A,109.4157,24.3277,柳州市,环保监测站,,48,37,65,33,44,78,,96,78,13,17,13,10,1.3,1.2
2024-10-14T1600,1872A,109.389,24.341,柳州市,河西水厂,,48,48,80,27,49,76,,73,73,10,23,25,14,1.2,1.2
2024-10-14T1600,1873A,109.4311,24.2921,柳州市,市四中,,46,43,71,32,46,82,,92,82,18,21,22,11,1.6,1.1
2024-10-14T1600,1874A,109.4006,24.3631,柳州市,市九中,,29,29,75,18,44,73,,77,77,14,22,10,8,1.1,0.8
2024-10-14T1600,1875A,109.4958,24.3134,柳州市,古亭山,,44,44,64,25,39,95,,84,84,9,31,8,9,1.0,1
2024-10-14T1600,3402A,109.5422,24.3996,柳州市,市二中,,38,38,72,17,45,86,,77,77,11,27,8,9,0.9,1
2024-10-14T1600,2307A,116.5079,31.737,六安市,监测大楼,,45,,39,31,40,136,,127,127,8,13,4,5,0.4,0.5
2024-10-14T1600,2308A,116.4738,31.7643,六安市,皖西学院,,49,49,50,30,36,141,,131,131,9,15,5,5,0.3,0.2
2024-10-14T1600,2309A,116.4996,31.7905,六安市,朝阳厂,,43,32,39,29,36,135,,134,134,9,12,2,2,0.6,0.6
2024-10-14T1600,2310A,116.5567,31.7886,六安市,开发区,,46,43,55,32,31,135,,128,128,11,15,5,5,0.5,0.6
2024-10-14T1600,2576A,104.8,26.5892,六盘水市,窑上,,,,30,12,23,66,,58,58,14,7,7,5,0.7,0.7
2024-10-14T1600,2577A,104.83,26.5917,六盘水市,黄土坡,,24,24,22,10,13,66,,57,57,23,16,10,9,0.9,0.7
2024-10-14T1600,2578A,104.89,26.5939,六盘水市,水钢,,34,34,23,14,13,70,,64,64,15,13,8,7,0.4,0.5
2024-10-14T1600,2579A,104.8475,26.5894,六盘水市,民中,,28,22,18,19,11,63,,53,53,24,18,10,8,0.7,0.7
2024-10-14T1600,2580A,104.9544,26.5506,六盘水市,双水,,19,19,19,13,12,60,,60,60,12,10,7,8,0.5,0.6
2024-10-14T1600,2335A,117.0189,25.1181,龙岩市,龙岩师专,,,,,,,,,,,,,,,,
2024-10-14T1600,2336A,117.0217,25.1033,龙岩市,龙岩市监测站,,42,26,30,20,23,132,,112,112,10,22,2,3,0.5,0.6
2024-10-14T1600,2337A,117.0258,25.0661,龙岩市,闽西职业技术学院,,38,32,42,23,22,121,,113,113,8,20,2,10,0.4,0.4
2024-10-14T1600,2338A,117.0196,25.0306,龙岩市,龙岩学院,,40,28,28,27,17,127,,112,112,7,11,3,4,0.5,0.5
2024-10-14T1600,2665A,105.0822,33.3261,陇南市,汉王镇固水子,,,,,,,,,,,,,,,,
2024-10-14T1600,2885A,104.9339,33.3826,陇南市,滨江中学,,36,36,31,6,13,62,,50,50,6,8,5,5,0.4,0.4
2024-10-14T1600,3247A,104.955,33.371,陇南市,市总工会,,25,25,23,6,4,65,,54,54,4,6,4,5,0.4,0.4
2024-10-14T1600,2487A,111.9589,27.8901,娄底市,电视发射台,,17,15,61,11,45,54,,59,48,9,9,5,6,0.7,0.7
2024-10-14T1600,2488A,111.9975,27.725,娄底市,市监测站,,21,21,63,14,50,62,,95,53,12,14,6,7,0.6,0.7
2024-10-14T1600,2489A,112.0194,27.7314,娄底市,市委党校,,25,19,65,17,51,60,,90,53,15,14,5,5,0.7,0.8
2024-10-14T1600,2490A,111.9561,27.7569,娄底市,涟钢,,36,28,65,25,50,45,,68,41,11,15,9,10,0.3,0.4
2024-10-14T1600,2491A,111.9892,27.7044,娄底市,市政府,,32,,58,22,52,48,,98,46,26,16,6,6,1.0,0.7
2024-10-14T1600,1893A,105.4324,28.9634,泸州市,九狮山,,30,10,36,10,22,96,,56,56,25,24,4,4,0.5,0.6
2024-10-14T1600,1894A,105.4427,28.9063,泸州市,小市上码头,,41,16,46,7,24,131,,76,76,10,22,5,5,0.5,0.7
2024-10-14T1600,1895A,105.4241,28.8573,泸州市,兰田宪桥,,40,18,31,10,23,126,,74,74,9,17,4,4,0.5,0.6
2024-10-14T1600,1896A,105.4379,28.8833,泸州市,市环监站,,38,13,38,10,29,121,,65,65,10,22,4,4,0.5,0.6
2024-10-14T1600,3490A,105.3617,28.7703,泸州市,纳溪区环保局,,37,,27,18,23,117,,75,75,12,20,5,6,0.5,0.6
2024-10-14T1600,2183A,111.1406,37.5211,吕梁市,环保局,细颗粒物(PM2.5),55,55,84,39,46,135,,87,87,14,30,5,3,0.5,0.7
2024-10-14T1600,2185A,111.1297,37.5136,吕梁市,自来水公司,,45,45,82,29,45,133,,77,77,19,30,3,2,0.6,0.7
2024-10-14T1600,2867A,111.1283,37.51,吕梁市,马茂庄小学,颗粒物(PM10),56,62,99,34,47,140,,80,80,15,31,4,3,0.4,0.6
2024-10-14T1600,1812A,112.3931,34.6516,洛阳市,市委党校,细颗粒物(PM2.5),60,49,146,43,126,145,,107,107,8,43,1,4,0.4,0.9
2024-10-14T1600,1814A,112.4657,34.6871,洛阳市,豫西宾馆,,49,47,147,34,110,156,,121,121,10,51,1,8,0.5,1
2024-10-14T1600,1815A,112.494,34.6886,洛阳市,河南林校,,50,50,141,31,123,143,,108,108,9,45,2,6,0.4,0.8
2024-10-14T1600,1816A,112.3844,34.623,洛阳市,开发区管委会,,,,152,,128,159,,138,138,,35,5,3,0.4,0.7
2024-10-14T1600,1817A,112.4267,34.6258,洛阳市,市委新办公区,细颗粒物(PM2.5),63,57,151,45,124,146,,113,113,9,35,3,3,0.2,0.6
2024-10-14T1600,3340A,112.6005,34.6326,洛阳市,伊滨,细颗粒物(PM2.5),70,73,133,51,112,160,,111,111,8,35,3,4,0.6,0.9
2024-10-14T1600,3341A,112.4951,34.6332,洛阳市,中移产业园,臭氧1小时,68,53,130,44,111,174,,121,121,11,37,6,5,0.6,0.9
2024-10-14T1600,3593A,112.5736,34.8993,洛阳市,吉利监测站,颗粒物(PM10),64,78,114,44,84,168,,124,124,11,38,4,3,0.5,0.7
2024-10-14T1600,3635A,112.3677,34.662,洛阳市,河科大西苑校区,细颗粒物(PM2.5),54,53,160,38,119,161,,118,118,12,46,3,10,0.5,1
2024-10-14T1600,3636A,112.4388,34.6781,洛阳市,英才小学,细颗粒物(PM2.5),52,47,175,36,104,138,,112,112,9,56,2,10,0.5,1
2024-10-14T1600,2399A,114.051,33.5699,漯河市,三五一五工厂,颗粒物(PM10),61,71,150,42,96,163,,127,127,12,23,6,7,0.6,0.9
2024-10-14T1600,2400A,114.0055,33.5698,漯河市,漯河大学,臭氧1小时,65,60,139,36,110,172,,130,130,9,23,5,6,0.4,0.6
2024-10-14T1600,2401A,114.0138,33.5828,漯河市,市水利局,臭氧1小时,62,70,151,34,105,169,,128,128,7,19,6,7,0.4,0.7
2024-10-14T1600,2402A,114.0261,33.5698,漯河市,市广电局,臭氧1小时,62,59,141,43,106,169,,130,130,8,21,5,6,0.6,0.8
2024-10-14T1600,3478A,113.9749,33.5664,漯河市,市图书馆,臭氧1小时,68,64,148,38,109,174,,131,131,7,21,4,6,0.6,0.9
2024-10-14T1600,3479A,114.0967,33.5906,漯河市,召陵区卫健委,臭氧1小时,68,70,160,32,118,174,,133,133,8,21,7,8,0.3,0.6
2024-10-14T1600,1798A,118.5092,31.6837,马鞍山市,湖东路四小,颗粒物(PM10),64,78,47,42,29,94,,86,72,43,37,17,10,1.9,1.1
2024-10-14T1600,1799A,118.5024,31.6449,马鞍山市,开发区,细颗粒物(PM2.5),57,59,45,40,29,91,,83,66,38,34,11,9,1.5,1
2024-10-14T1600,1800A,118.5228,31.7231,马鞍山市,慈湖,颗粒物(PM10),65,80,49,46,30,96,,91,91,47,36,19,10,1.8,0.9
2024-10-14T1600,1802A,118.6245,31.7241,马鞍山市,濮塘,,48,48,33,32,24,107,,124,124,25,23,6,6,0.8,0.7
2024-10-14T1600,3633A,118.4918,31.6809,马鞍山市,雨山,细颗粒物(PM2.5),57,54,44,40,28,103,,78,68,26,29,8,8,1.5,1.4
2024-10-14T1600,1686A,111.0286,21.4688,茂名市,电白南海,,39,39,41,12,18,77,,91,91,14,14,11,13,0.7,0.8
2024-10-14T1600,1687A,110.9294,21.6533,茂名市,茂石化七小,,34,34,43,14,21,70,,83,70,6,11,8,11,0.5,0.7
2024-10-14T1600,1688A,110.9107,21.6687,茂名市,健康路,,31,31,35,7,20,82,,96,96,4,9,9,14,0.6,0.7
2024-10-14T1600,1689A,110.8592,21.6828,茂名市,高岭,颗粒物(PM10),51,51,52,14,26,75,,87,87,9,15,9,16,0.5,0.8
2024-10-14T1600,3450A,111.01,21.5165,茂名市,电白水东,,36,36,32,12,18,70,,85,80,10,10,6,10,0.6,0.6
2024-10-14T1600,2539A,104.0308,30.0478,眉山市,黑龙滩水库,,40,24,32,15,23,127,,94,94,4,4,5,5,0.7,0.6
2024-10-14T1600,2540A,103.8416,30.0874,眉山市,气象局,,35,14,34,14,29,109,,72,72,8,25,6,6,0.5,0.6
2024-10-14T1600,3137A,103.8578,30.0744,眉山市,市委党校,,34,19,38,9,22,106,,72,72,10,33,6,7,0.6,0.7
2024-10-14T1600,3148A,103.8291,30.0564,眉山市,区人社局,,34,34,38,14,22,101,,78,78,16,35,8,8,0.6,0.9
2024-10-14T1600,1690A,116.1231,24.3284,梅州市,梅江月梅,,38,23,35,19,27,121,,102,102,4,17,7,8,0.6,0.7
2024-10-14T1600,1691A,116.0797,24.2719,梅州市,梅县新城,,42,25,44,19,32,132,,114,114,8,22,4,5,0.6,0.7
2024-10-14T1600,1692A,116.1248,24.2654,梅州市,环境监控中心,,35,31,38,22,27,110,,104,104,11,27,5,6,0.6,0.7
2024-10-14T1600,3315A,116.1233,24.2991,梅州市,梅龙,,36,17,35,16,21,114,,111,111,6,17,9,10,0.5,0.7
2024-10-14T1600,1878A,104.7778,31.4741,绵阳市,富乐山,,48,40,27,33,20,86,,56,56,17,13,3,2,0.6,0.6
2024-10-14T1600,1879A,104.7563,31.4535,绵阳市,市人大,颗粒物(PM10),52,53,35,26,22,78,,48,48,26,29,12,12,0.6,0.7
2024-10-14T1600,1880A,104.6697,31.4668,绵阳市,高新区自来水公司,,48,48,45,31,22,86,,50,50,12,30,3,4,0.6,0.7
2024-10-14T1600,1881A,104.7287,31.5075,绵阳市,三水厂,,48,48,40,32,28,83,,44,44,25,30,7,7,0.7,0.8
2024-10-14T1600,3491A,104.69,31.5322,绵阳市,西科大附属小学,颗粒物(PM10),55,59,45,29,23,56,,30,30,31,28,2,2,0.8,0.9
2024-10-14T1600,3492A,104.5648,31.5343,绵阳市,安州区旅游局,细颗粒物(PM2.5),52,41,38,36,30,72,,45,45,24,25,8,9,0.7,0.7
2024-10-14T1600,1784A,129.61,44.561,牡丹江市,环保大楼,,29,29,67,13,27,90,,77,77,9,36,7,10,0.3,0.7
2024-10-14T1600,1785A,129.6115,44.5782,牡丹江市,文化广场,,30,25,76,21,43,79,,68,68,16,45,8,12,0.4,1
2024-10-14T1600,1786A,129.5904,44.5963,牡丹江市,第一医院,细颗粒物(PM2.5),52,,65,36,43,76,,73,73,21,41,7,10,0.3,0.7
2024-10-14T1600,1787A,129.6364,44.6075,牡丹江市,机车工厂,,37,37,68,11,32,84,,71,71,11,31,6,91,0.3,0.6
2024-10-14T1600,1788A,129.6386,44.5462,牡丹江市,第一中学,,30,20,61,16,24,94,,80,80,7,33,7,8,0.3,0.5
2024-10-14T1600,2531A,105.0703,29.61,内江市,市监测站,,36,,22,17,24,114,,92,92,19,23,6,7,0.4,0.5
2024-10-14T1600,2532A,105.0717,29.5947,内江市,东兴区政府,,37,20,26,9,20,117,,92,92,14,19,6,6,0.6,0.7
2024-10-14T1600,2533A,105.0653,29.5817,内江市,内江二中,,38,28,31,16,27,121,,98,98,14,23,5,5,0.6,0.7
2024-10-14T1600,2534A,105.0406,29.5822,内江市,内江日报社,,39,25,30,14,27,124,,89,89,16,21,9,10,0.6,0.7
2024-10-14T1600,2628A,92.0657,31.4846,那曲市,那曲监测站,颗粒物(PM10),53,55,56,12,26,99,,73,73,5,14,6,8,0.4,0.7
2024-10-14T1600,3128A,92.0506,31.4797,那曲市,那曲会议中心,颗粒物(PM10),72,93,64,13,23,110,,79,79,5,19,2,3,0.5,0.7
2024-10-14T1600,1290A,115.8931,28.6843,南昌市,省外办,细颗粒物(PM2.5),79,82,89,58,71,119,,119,119,24,20,10,13,0.8,0.9
2024-10-14T1600,1291A,115.8886,28.7003,南昌市,省林业公司,细颗粒物(PM2.5),79,85,95,58,65,101,,117,117,37,24,7,9,0.4,0.5
2024-10-14T1600,1292A,115.8126,28.7442,南昌市,林科所,细颗粒物(PM2.5),67,73,79,48,57,114,,134,134,29,25,9,11,0.8,0.8
2024-10-14T1600,1294A,115.8518,28.687,南昌市,建工学校,颗粒物(PM10),69,88,95,46,64,117,,120,120,26,21,9,11,0.7,0.7
2024-10-14T1600,1295A,115.8921,28.6424,南昌市,象湖,细颗粒物(PM2.5),75,76,85,55,65,135,,134,134,23,22,11,12,0.8,0.9
2024-10-14T1600,1296A,115.7423,28.7996,南昌市,武术学校,,,59,56,54,59,78,,87,87,18,20,,2,0.7,0.8
2024-10-14T1600,1298A,115.9314,28.6842,南昌市,省站,细颗粒物(PM2.5),78,62,90,57,71,113,,114,114,26,16,11,12,0.9,0.9
2024-10-14T1600,3046A,115.9084,28.6062,南昌市,机电学校,颗粒物(PM10),71,91,98,51,65,128,,127,127,24,22,16,16,0.6,0.7
2024-10-14T1600,3690A,115.9721,28.7031,南昌市,外国语学校,颗粒物(PM10),70,90,93,49,64,112,,114,114,20,20,7,9,0.8,0.8
2024-10-14T1600,1905A,106.056,30.8064,南充市,西山风景区,,35,,28,21,25,112,,81,81,9,14,1,2,0.6,0.7
2024-10-14T1600,1906A,106.0789,30.8023,南充市,南充市委,,38,36,39,26,28,115,,89,89,12,24,3,3,0.5,0.7
2024-10-14T1600,1907A,106.1031,30.8217,南充市,南充炼油厂,,39,27,45,20,28,122,,81,81,10,24,4,3,0.5,0.6
2024-10-14T1600,1908A,106.1064,30.7856,南充市,高坪区监测站,,33,15,39,13,28,104,,74,74,5,19,5,5,0.5,0.7
2024-10-14T1600,1909A,106.0642,30.7636,南充市,嘉陵区环保局,,34,34,41,14,25,103,,77,77,8,28,2,2,0.5,0.7
2024-10-14T1600,1910A,106.1087,30.8388,南充市,市环境监测站,,40,32,39,28,29,123,,84,84,14,22,4,4,0.4,0.5
2024-10-14T1600,1151A,118.8086,32.1065,南京市,迈皋桥,,49,30,29,24,20,156,,114,114,9,21,4,5,0.3,0.5
2024-10-14T1600,1152A,118.7538,32.0551,南京市,草场门,,44,29,29,22,20,140,,105,105,18,31,4,4,0.2,0.3
2024-10-14T1600,1153A,118.7794,32.0745,南京市,山西路,,47,36,33,27,24,148,,109,109,10,18,4,4,0.5,0.6
2024-10-14T1600,1154A,118.7752,32.0023,南京市,中华门,,43,31,32,19,22,137,,100,100,14,28,5,5,0.4,0.5
2024-10-14T1600,1155A,118.8109,32.0309,南京市,瑞金路,,42,41,34,24,24,132,,101,101,28,34,6,7,0.1,0.2
2024-10-14T1600,1156A,118.7997,32.0754,南京市,玄武湖,,42,35,32,20,19,134,,96,96,16,30,5,6,0.6,0.8
2024-10-14T1600,1157A,118.6414,32.0931,南京市,浦口,,38,32,26,23,19,119,,108,108,15,11,4,4,0.5,0.5
2024-10-14T1600,1158A,118.7356,31.9996,南京市,奥体中心,,45,33,30,29,27,141,,114,114,15,25,5,5,0.3,0.4
2024-10-14T1600,1159A,118.9125,32.1028,南京市,仙林大学城,臭氧1小时,54,41,30,27,21,163,,118,118,12,24,6,6,0.5,0.6
2024-10-14T1600,3422A,118.8436,31.9198,南京市,江宁彩虹桥,,43,43,31,29,25,119,,83,83,20,22,4,5,0.6,0.7
2024-10-14T1600,3423A,119.0138,31.6494,南京市,溧水永阳,,36,36,25,24,17,102,,81,81,18,19,3,4,0.6,0.5
2024-10-14T1600,3424A,118.879,31.3302,南京市,高淳老职中,,37,37,28,23,20,117,,100,100,13,17,3,5,0.5,0.5
2024-10-14T1600,3427A,118.8554,32.3578,南京市,六合雄州,,43,,22,30,18,123,,100,100,12,20,3,3,0.5,0.5
2024-10-14T1600,1401A,108.3103,22.7881,南宁市,二十一中,,34,34,43,13,25,97,,97,97,8,16,4,6,0.6,0.8
2024-10-14T1600,1402A,108.3141,22.8528,南宁市,北湖,,32,22,47,18,33,100,,91,91,6,21,6,10,0.7,0.6
2024-10-14T1600,1403A,108.3206,22.8225,南宁市,市监测站,,30,26,42,17,26,95,,93,93,7,15,7,12,0.6,0.8
2024-10-14T1600,1404A,108.3829,22.8037,南宁市,大自然花园,,26,21,40,16,28,82,,91,91,12,16,6,7,0.5,0.7
2024-10-14T1600,1405A,108.4394,22.7904,南宁市,仙葫,,25,,49,16,34,80,,79,79,6,23,4,8,0.6,0.8
2024-10-14T1600,1406A,108.2397,22.8467,南宁市,区农职院,,30,15,49,14,30,94,,92,92,8,19,6,9,0.7,0.8
2024-10-14T1600,1407A,108.3275,22.735,南宁市,英华嘉园,,26,19,51,12,28,83,,87,87,13,34,7,8,0.6,0.8
2024-10-14T1600,1408A,108.2257,22.7757,南宁市,沙井镇街道办,,27,16,86,14,32,86,,84,84,7,50,4,6,0.7,0.9
2024-10-14T1600,3401A,108.4834,22.7618,南宁市,红星社区,,27,26,45,12,29,85,,86,86,6,17,4,5,0.5,0.8
2024-10-14T1600,2331A,118.0966,26.6761,南平市,茫荡山,,,,,,,,,,,,,,,,
2024-10-14T1600,2332A,118.1681,26.6369,南平市,南平市监测站,,27,15,23,14,18,86,,63,63,2,11,3,3,0.2,0.4
2024-10-14T1600,2333A,118.1825,26.6489,南平市,南平铝业有限公司,,26,,28,15,20,81,,59,59,4,19,2,4,0.4,0.5
2024-10-14T1600,2334A,118.1756,26.6272,南平市,南平七中,,28,28,26,12,18,88,,64,64,3,11,5,3,0.4,0.5
2024-10-14T1600,1168A,120.9098,31.9663,南通市,狼山街道,,42,37,17,29,10,76,,96,94,48,15,6,6,0.6,0.5
2024-10-14T1600,1169A,120.86,32.0005,南通市,虹桥,,43,35,19,30,10,92,,97,97,45,18,8,7,0.5,0.4
2024-10-14T1600,1170A,120.87,32.02,南通市,城中,,39,36,20,23,8,122,,106,106,19,21,5,6,0.6,0.5
2024-10-14T1600,1171A,120.94,31.93,南通市,星湖花园,,36,33,12,25,8,77,,96,96,58,21,7,6,0.7,0.6
2024-10-14T1600,1172A,120.81,32.0417,南通市,紫琅学院,,38,26,13,23,7,121,,103,103,11,15,7,7,0.6,0.5
2024-10-14T1600,3291A,121.067,32.062,南通市,通州监测站,,,27,20,22,13,120,,102,102,11,12,3,2,,0.6
2024-10-14T1600,3432A,120.9348,31.9883,南通市,环境教育馆,,39,34,19,18,7,123,,105,105,11,16,3,3,0.5,0.5
2024-10-14T1600,2404A,112.5224,33.0122,南阳市,瓦房庄,细颗粒物(PM2.5),92,82,73,68,68,150,,100,100,15,19,5,5,0.7,0.7
2024-10-14T1600,2405A,112.5003,32.9735,南阳市,汉画馆,细颗粒物(PM2.5),95,79,78,71,69,139,,89,89,17,25,7,7,0.7,0.7
2024-10-14T1600,2406A,112.5573,33.027,南阳市,气象站,细颗粒物(PM2.5),98,77,72,73,70,148,,99,99,18,21,6,6,0.7,0.6
2024-10-14T1600,2407A,112.5481,32.9689,南阳市,理工学院,细颗粒物(PM2.5),79,73,71,58,58,133,,89,89,20,24,7,7,0.6,0.8
2024-10-14T1600,4008A,112.5234,32.9922,南阳市,卧龙区政府,细颗粒物(PM2.5),85,83,75,63,63,147,,97,97,17,20,5,5,0.7,0.7
2024-10-14T1600,1234A,121.8358,29.911,宁波市,区环保大楼,,34,34,35,15,12,82,,77,77,15,32,6,7,0.8,0.8
2024-10-14T1600,1235A,121.56,29.82,宁波市,万里学院,,28,28,33,16,17,89,,80,80,10,28,6,6,0.6,0.7
2024-10-14T1600,1236A,121.713,29.9572,宁波市,龙赛医院,,40,40,31,17,13,59,,73,73,55,38,14,10,0.9,0.7
2024-10-14T1600,1239A,121.633,29.7733,宁波市,钱湖水厂,,29,21,21,12,9,92,,80,80,8,12,9,9,0.5,0.5
2024-10-14T1600,1240A,121.5856,29.8635,宁波市,太古小学,,27,27,32,16,14,84,,79,79,13,31,8,8,0.8,0.8
2024-10-14T1600,1241A,121.524,29.8674,宁波市,市环境监测中心,,26,26,34,16,14,81,,79,79,10,32,6,8,0.5,0.7
2024-10-14T1600,2871A,121.6147,29.9017,宁波市,万里国际学校,,41,41,41,18,16,95,,86,86,10,28,8,8,0.6,0.7
2024-10-14T1600,3710A,121.5594,29.8975,宁波市,白沙活动中心,,33,33,36,15,13,85,,85,85,17,31,9,9,0.4,0.5
2024-10-14T1600,2339A,119.5001,26.6946,宁德市,金涵水库,,,,,,,,,,,,,,,,
2024-10-14T1600,2341A,119.5388,26.6612,宁德市,宁德市监测站,,26,26,32,16,22,79,,72,72,6,11,3,3,0.4,0.5
2024-10-14T1600,3209A,119.5231,26.6562,宁德市,宁德一中,,37,37,32,21,23,78,,74,74,5,8,2,2,0.2,0.3
2024-10-14T1600,2618A,98.8601,25.8567,怒江傈僳族自治州,州监测站,,30,30,29,16,19,54,,41,41,12,13,5,7,0.3,0.3
2024-10-14T1600,2619A,98.8546,25.8417,怒江傈僳族自治州,泸水一中,,,25,25,13,15,50,,29,29,16,16,,7,0.5,0.4
2024-10-14T1600,1888A,101.6891,26.571,攀枝花市,弄弄坪,,25,23,35,10,16,77,,66,66,17,18,10,13,0.6,0.8
2024-10-14T1600,1889A,101.5769,26.5928,攀枝花市,河门口,,25,10,26,3,15,77,,68,68,10,20,6,26,0.5,1.4
2024-10-14T1600,1890A,101.7169,26.585,攀枝花市,炳草岗,,25,20,31,3,17,80,,76,76,12,18,11,11,0.4,0.6
2024-10-14T1600,1891A,101.7369,26.5008,攀枝花市,仁和,,28,15,44,8,28,89,,78,78,14,18,7,15,0.3,0.6
2024-10-14T1600,2835A,101.7227,26.567,攀枝花市,四十中小,,26,23,33,13,18,81,,73,73,10,10,11,12,0.5,0.7
2024-10-14T1600,1604A,122.0303,41.1489,盘锦市,开发区,,37,36,40,16,38,117,,112,112,14,26,2,4,0.4,0.6
2024-10-14T1600,1605A,122.0485,41.0883,盘锦市,兴隆台,,39,24,39,15,37,122,,114,114,13,35,5,7,0.3,0.6
2024-10-14T1600,1606A,121.8297,41.1028,盘锦市,新生街道,,41,23,28,10,21,130,,120,120,11,17,8,8,0.3,0.4
2024-10-14T1600,1832A,113.3257,33.742,平顶山市,新华旅馆,颗粒物(PM10),69,87,120,45,82,166,,133,133,9,20,6,9,0.4,0.6
2024-10-14T1600,1833A,113.2919,33.737,平顶山市,规划设计院,细颗粒物(PM2.5),60,61,124,43,82,167,,134,134,12,21,7,9,0.6,0.8
2024-10-14T1600,1834A,113.182,33.774,平顶山市,平顶山工学院,细颗粒物(PM2.5),55,58,109,39,77,162,,130,130,6,14,6,8,0.6,0.7
2024-10-14T1600,3204A,113.3025,33.73,平顶山市,规划局,细颗粒物(PM2.5),72,68,114,52,80,162,,128,128,11,22,5,8,0.9,1
2024-10-14T1600,3594A,112.8867,33.9116,平顶山市,石龙区,颗粒物(PM10),61,72,139,43,82,166,,135,135,13,50,8,12,0.8,0.9
2024-10-14T1600,2656A,106.6692,35.5461,平凉市,聚贤嘉苑,颗粒物(PM10),51,52,50,27,31,96,,60,60,16,35,9,9,0.2,0.2
2024-10-14T1600,2657A,106.7021,35.5307,平凉市,博物馆,颗粒物(PM10),55,60,59,29,35,92,,61,61,28,40,9,10,0.4,0.5
2024-10-14T1600,2347A,114.0997,27.5002,萍乡市,武功山,,,104,63,,56,110,,107,107,20,11,16,11,,0.9
2024-10-14T1600,2348A,113.8385,27.6434,萍乡市,中医院,细颗粒物(PM2.5),89,88,144,66,113,60,,61,61,22,34,9,21,1.1,1.6
2024-10-14T1600,2349A,113.8493,27.6253,萍乡市,市政府车库,细颗粒物(PM2.5),97,137,150,72,102,58,,63,63,20,24,14,20,1.2,1.1
2024-10-14T1600,2350A,113.8676,27.6435,萍乡市,市环保局,细颗粒物(PM2.5),120,96,122,91,101,61,,64,64,21,27,12,21,1.0,1.2
2024-10-14T1600,2351A,113.866,27.6198,萍乡市,安源区政府,细颗粒物(PM2.5),122,,130,92,109,64,,69,69,24,27,15,20,0.8,0.9
2024-10-14T1600,2319A,119.0141,25.4325,莆田市,荔城区仓后路,,43,43,29,19,16,99,,91,91,6,4,1,2,0.6,0.4
2024-10-14T1600,2320A,119.0015,25.4553,莆田市,莆田市监测站,,36,36,26,17,14,102,,88,88,7,3,2,1,0.3,0.5
2024-10-14T1600,2321A,119.1119,25.4561,莆田市,涵江区六中,,34,34,33,19,17,102,,93,93,1,2,2,1,0.5,0.4
2024-10-14T1600,2322A,119.1013,25.3215,莆田市,秀屿区政府,,44,44,35,13,19,89,,86,86,2,4,3,2,0.6,0.4
2024-10-14T1600,2323A,118.981,25.4792,莆田市,东圳水库,,,,,,,,,,,,,,,,
2024-10-14T1600,2392A,115.0312,35.7636,濮阳市,环保局,臭氧1小时,101,96,94,63,90,201,,133,133,17,32,3,3,0.7,0.8
2024-10-14T1600,2394A,115.0574,35.7609,濮阳市,油田运输公司,臭氧1小时,104,107,131,73,90,207,,130,130,14,30,3,4,0.6,0.7
2024-10-14T1600,2395A,115.0866,35.7754,濮阳市,油田物探公司,臭氧1小时,101,113,134,74,97,202,,126,126,15,37,2,2,0.6,0.7
2024-10-14T1600,3021A,115,35.7668,濮阳市,濮水河管理处,细颗粒物(PM2.5),87,116,132,64,87,188,,123,123,13,26,2,2,0.6,0.7
2024-10-14T1600,2601A,100.98,22.7633,普洱市,市环保局,,29,29,31,12,19,64,,52,52,5,8,4,4,0.5,0.6
2024-10-14T1600,2602A,100.9817,22.8322,普洱市,普洱第二中学,,23,23,36,6,13,64,,51,51,5,11,5,5,0.4,0.5
2024-10-14T1600,2262A,131.0518,45.8751,七台河市,新一中,,32,28,24,8,12,100,,92,92,13,12,10,11,1.1,1.1
2024-10-14T1600,3345A,131.0577,45.7879,七台河市,中波台,,44,44,31,7,8,77,,74,74,13,15,7,7,0.7,0.7
2024-10-14T1600,3637A,131.0176,45.7761,七台河市,人民广场,,44,44,34,21,18,80,,81,81,16,17,8,8,0.8,0.8
2024-10-14T1600,3684A,130.8781,45.8222,七台河市,新建矿广场,颗粒物(PM10),151,251,141,25,31,73,,70,70,20,33,6,9,0.6,0.9
2024-10-14T1600,1779A,123.9305,47.3636,齐齐哈尔市,安居小区,颗粒物(PM10),74,97,84,28,39,110,,100,100,17,17,13,12,0.7,0.7
2024-10-14T1600,1780A,123.9488,47.3386,齐齐哈尔市,中心广场,细颗粒物(PM2.5),78,84,77,57,57,105,,96,96,19,18,3,3,0.5,0.5
2024-10-14T1600,1781A,123.9483,47.3227,齐齐哈尔市,农牧车辆厂,颗粒物(PM10),70,90,79,26,27,111,,100,100,12,13,5,5,0.2,0.2
2024-10-14T1600,1783A,123.945,47.2988,齐齐哈尔市,市环境监测站,颗粒物(PM10),64,78,70,31,35,117,,106,106,10,11,8,9,0.5,0.5
2024-10-14T1600,3662A,123.6333,47.2075,齐齐哈尔市,富区青少年活动中心,颗粒物(PM10),66,82,84,20,27,111,,103,103,8,8,5,6,0.5,0.6
2024-10-14T1600,2591A,107.9783,26.5747,黔东南苗族侗族自治州,市环境监测站,,22,19,26,15,22,69,,62,62,20,17,4,4,0.6,0.6
2024-10-14T1600,2881A,107.8908,26.5311,黔东南苗族侗族自治州,凯里学院,,24,,14,14,23,74,,64,64,14,15,4,4,0.7,0.7
2024-10-14T1600,2593A,107.5228,26.2403,黔南布依族苗族自治州,小围寨,,18,7,8,3,7,57,,61,61,7,10,4,3,0.6,0.7
2024-10-14T1600,3538A,107.5175,26.2978,黔南布依族苗族自治州,沙坝,,20,12,12,3,7,63,,68,68,9,8,3,3,0.6,0.6
2024-10-14T1600,2589A,104.9022,25.0925,黔西南布依族苗族自治州,场坝街,,20,20,22,6,15,51,,41,41,13,13,4,7,0.5,0.4
2024-10-14T1600,2590A,104.8811,25.0992,黔西南布依族苗族自治州,坪东大道,,20,20,22,9,15,49,,39,39,8,7,2,2,0.5,0.5
2024-10-14T1600,2502A,108.6236,21.9667,钦州市,市环保站,,39,39,62,17,24,118,,94,94,11,26,9,10,0.7,0.8
2024-10-14T1600,2503A,108.6549,21.9481,钦州市,沙埠小学,,50,50,80,22,32,121,,93,93,11,41,7,9,0.7,0.9
2024-10-14T1600,2504A,108.5989,21.7431,钦州市,港区一小,,44,44,73,16,26,76,,91,91,16,27,8,8,0.7,0.8
2024-10-14T1600,3404A,108.5959,21.9633,钦州市,北职校,,39,36,58,19,33,122,,96,96,10,24,9,9,0.7,0.9
2024-10-14T1600,1042A,119.5134,39.8207,秦皇岛市,北戴河环保局,"颗粒物(PM10),细颗粒物(PM2.5)",60,69,41,43,18,152,,112,112,13,8,3,2,0.2,0.4
2024-10-14T1600,1043A,119.7493,40.0116,秦皇岛市,第一关,颗粒物(PM10),57,63,50,30,25,134,,112,112,12,21,5,2,0.3,0.3
2024-10-14T1600,1044A,119.5897,39.9499,秦皇岛市,监测站,细颗粒物(PM2.5),68,74,43,49,35,150,,109,109,19,19,7,2,0.4,0.3
2024-10-14T1600,1046A,119.5251,39.9041,秦皇岛市,建设大厦,颗粒物(PM10),65,80,51,39,26,158,,115,115,13,26,5,4,0.6,0.4
2024-10-14T1600,3132A,119.610547,39.943889,秦皇岛市,文明里,颗粒物(PM10),63,75,51,36,21,146,,115,115,18,12,5,2,0.6,0.4
2024-10-14T1600,1307A,120.6659,36.2403,青岛市,仰口,,,,6,,10,82,,82,80,,4,,6,0.7,0.6
2024-10-14T1600,1310A,120.4134,36.0658,青岛市,市南区东部子站,,32,22,17,12,9,102,,88,82,11,11,7,6,0.5,0.4
2024-10-14T1600,1311A,120.3664,36.1032,青岛市,四方区子站,,34,17,14,14,10,107,,83,83,20,23,9,9,0.4,0.4
2024-10-14T1600,1312A,120.2994,36.054,青岛市,市南区西部子站,,29,29,18,12,7,88,,87,87,22,17,9,8,0.6,0.6
2024-10-14T1600,1313A,120.4581,36.0858,青岛市,崂山区子站,,34,14,9,9,5,107,,92,92,20,20,8,8,0.5,0.5
2024-10-14T1600,1314A,120.1983,35.9608,青岛市,黄岛区子站,,32,22,12,12,11,101,,68,68,23,33,8,8,0.5,0.5
2024-10-14T1600,1315A,120.3999,36.3083,青岛市,城阳区子站,,35,9,15,7,11,109,,84,84,11,21,8,7,0.5,0.6
2024-10-14T1600,1966A,120.0405,35.8735,青岛市,黄岛区4号,,38,24,15,17,10,121,,88,88,22,20,6,5,0.5,0.5
2024-10-14T1600,3362A,120.5014,36.4034,青岛市,即墨2号,,28,16,14,7,8,88,,84,84,19,17,6,6,0.4,0.4
2024-10-14T1600,3642A,120.3503,36.0736,青岛市,市北区南部,,30,21,18,12,9,95,,76,76,25,26,7,6,0.6,0.6
2024-10-14T1600,3643A,120.3948,36.1805,青岛市,李沧区北部,,33,19,13,14,13,104,,78,74,21,26,9,9,0.6,0.7
2024-10-14T1600,1702A,113.0426,23.691,清远市,环保大楼,臭氧1小时,104,41,53,41,46,208,,72,,15,21,4,9,0.7,0.9
2024-10-14T1600,1703A,113.0208,23.7106,清远市,凤城街办,臭氧1小时,113,58,53,49,37,225,,167,167,15,16,10,12,0.7,0.7
2024-10-14T1600,3025A,113.0477,23.6344,清远市,技师学院,臭氧1小时,110,55,71,31,39,220,,149,149,15,27,10,12,0.7,0.7
2024-10-14T1600,3318A,112.9903,23.7403,清远市,清新太和,臭氧1小时,118,65,58,37,35,236,,163,163,17,18,3,5,0.8,0.8
2024-10-14T1600,3455A,113.076,23.7198,清远市,清城东城,臭氧1小时,101,63,50,37,34,202,,151,151,10,13,6,8,0.6,0.7
2024-10-14T1600,2661A,107.6325,35.7357,庆阳市,庆阳五中,,48,48,64,25,33,110,,103,92,12,15,8,7,0.4,0.5
2024-10-14T1600,2662A,107.6364,35.7067,庆阳市,市环保局,,38,38,60,13,30,100,,102,91,12,15,7,6,0.4,0.5
2024-10-14T1600,1916A,103.7897,25.5035,曲靖市,环境监测站,,31,22,22,17,12,98,,61,61,14,15,6,7,0.8,0.9
2024-10-14T1600,1917A,103.8,25.5364,曲靖市,烟厂办公区,,31,16,19,13,10,98,,64,64,9,12,4,4,0.8,0.9
2024-10-14T1600,3376A,103.7947,25.462,曲靖市,南苑二区,,36,36,18,23,12,99,,64,64,11,13,13,9,0.8,0.9
2024-10-14T1600,3377A,103.7444,25.5261,曲靖市,曲靖师范学院,,30,,19,19,14,94,,63,63,16,20,11,11,1.0,0.9
2024-10-14T1600,1264A,118.8692,28.9398,衢州市,环保大楼,,45,18,49,12,31,143,,104,104,11,28,6,7,0.4,0.5
2024-10-14T1600,1265A,118.8709,28.9666,衢州市,实验学校,,41,13,42,7,29,129,,93,93,7,24,5,6,0.4,0.4
2024-10-14T1600,1266A,118.8621,28.9808,衢州市,衢州学院,,40,15,43,10,28,128,,92,92,9,29,6,6,0.2,0.3
2024-10-14T1600,1611A,118.5819,24.9117,泉州市,涂山街,,40,39,33,17,18,128,,98,98,11,13,3,3,0.4,0.4
2024-10-14T1600,1612A,118.5972,24.8978,泉州市,津头埔,,43,43,37,18,18,121,,93,93,6,8,1,2,0.6,0.5
2024-10-14T1600,1613A,118.6663,24.9424,泉州市,万安,,,39,32,20,19,136,,102,102,12,11,,1,0.4,0.4
2024-10-14T1600,1614A,118.6117,24.9604,泉州市,清源山,,,,,,,,,,,,,,,,
2024-10-14T1600,3529A,118.6333,24.9264,泉州市,城华南路,,40,32,31,13,17,126,,98,98,6,7,2,2,0.4,0.3
2024-10-14T1600,2626A,88.8876,29.2718,日喀则市,日喀则监测站,,37,13,29,3,12,118,,87,87,4,19,5,5,0.3,0.4
2024-10-14T1600,3726A,88.8781,29.2426,日喀则市,林业技术推广中心,,39,10,22,3,6,122,,87,87,4,13,6,6,0.4,0.5
2024-10-14T1600,1659A,119.471,35.4209,日照市,监测站,,37,19,14,13,13,116,,93,93,20,22,10,10,0.4,0.5
