timepoint,stationcode,longitude,latitude,area,positionname,primarypollutant,aqi,pm10,pm10_24h,pm2_5,pm2_5_24h,o3,o3_24h,o3_8h,o3_8h_24h,no2,no2_24h,so2,so2_24h,co,co_24h
2023-09-03T15:00:00,1001A,116.3621,39.8784,北京市,万寿西宫,臭氧1小时,93,28,43,22,34,194,194,124,124,12,21,1,2,0.8,0.8
2023-09-03T15:00:00,1002A,116.2202,40.2915,北京市,定陵,,45,9,26,8,19,142,142,99,99,4,7,3,3,0.5,0.6
2023-09-03T15:00:00,1003A,116.4174,39.9289,北京市,东四,臭氧1小时,93,24,44,18,32,194,194,126,126,5,18,3,3,0.6,0.6
2023-09-03T15:00:00,1004A,116.4072,39.8863,北京市,天坛,臭氧1小时,87,39,44,28,33,189,189,117,117,15,20,1,2,0.6,0.7
2023-09-03T15:00:00,1005A,116.462,39.9365,北京市,农展馆,臭氧1小时,84,27,43,17,28,187,187,115,115,13,26,3,2,0.5,0.6
2023-09-03T15:00:00,1006A,116.3392,39.9295,北京市,官园,臭氧1小时,101,21,42,13,35,202,202,136,136,11,18,4,4,0.5,0.6
2023-09-03T15:00:00,1007A,116.2878,39.9611,北京市,海淀万柳,臭氧1小时,79,20,43,15,30,183,183,126,126,14,22,3,3,0.5,0.6
2023-09-03T15:00:00,1008A,116.6636,40.135,北京市,顺义新城,臭氧1小时,72,17,36,13,22,177,177,121,121,9,14,3,2,0.5,0.5
2023-09-03T15:00:00,1009A,116.6275,40.3275,北京市,怀柔镇,,36,11,34,9,22,150,113,99,99,2,10,3,3,0.4,0.5
2023-09-03T15:00:00,1010A,116.2296,40.217,北京市,昌平镇,,50,9,27,9,26,160,160,116,116,14,20,3,3,0.4,0.5
2023-09-03T15:00:00,1011A,116.3966,39.9821,北京市,奥体中心,,,24,36,12,32,187,152,110,110,16,25,,2,0.3,0.5
2023-09-03T15:00:00,1012A,116.184,39.9136,北京市,古城,臭氧1小时,99,19,49,19,34,199,199,131,131,14,19,3,3,0.7,0.7
2023-09-03T15:00:00,1015A,117.1444,39.1661,天津市,勤俭道,臭氧1小时,108,72,56,50,35,215,215,163,163,9,20,7,9,0.9,0.7
2023-09-03T15:00:00,1017A,117.237,39.1082,天津市,大直沽八号路,臭氧1小时,92,77,66,57,38,199,193,148,148,13,27,4,6,1.0,0.8
2023-09-03T15:00:00,1018A,117.202,39.0927,天津市,前进道,臭氧1小时,77,77,59,46,35,192,181,143,143,13,25,6,8,0.9,0.7
2023-09-03T15:00:00,1019A,117.1837,39.2133,天津市,淮河道,臭氧1小时,107,74,56,49,34,214,214,154,154,10,21,5,7,0.9,0.7
2023-09-03T15:00:00,1021A,117.307,39.0877,天津市,跃进路,臭氧1小时,100,97,59,55,31,203,200,152,152,11,33,6,8,0.9,0.8
2023-09-03T15:00:00,1023A,117.707,39.0343,天津市,第四大街,臭氧1小时,84,43,57,29,35,187,187,151,151,11,30,6,6,0.8,0.7
2023-09-03T15:00:00,1024A,117.457,38.8394,天津市,永明路,臭氧1小时,84,36,53,23,35,187,187,152,152,7,19,8,10,0.7,0.7
2023-09-03T15:00:00,1026A,117.764,39.1587,天津市,汉北路,臭氧1小时,116,60,51,38,30,232,231,161,161,10,22,8,8,1.2,0.8
2023-09-03T15:00:00,1027A,117.157,38.9194,天津市,团泊洼,细颗粒物(PM2.5),73,76,50,53,33,177,177,135,135,9,27,6,6,1.1,0.7
2023-09-03T15:00:00,1029A,114.4422,38.0444,石家庄市,职工医院,臭氧1小时,102,47,46,20,32,204,204,135,135,11,19,4,2,0.4,0.5
2023-09-03T15:00:00,1030A,114.6063,38.0266,石家庄市,高新区,臭氧1小时,115,68,50,22,29,230,230,158,158,14,17,2,1,0.6,0.5
2023-09-03T15:00:00,1031A,114.4898,38.1328,石家庄市,西北水源,臭氧1小时,101,65,48,27,31,202,202,132,132,9,12,2,2,0.7,0.7
2023-09-03T15:00:00,1032A,114.4586,38.0058,石家庄市,西南高教,臭氧1小时,98,37,48,14,24,198,198,130,130,13,17,4,2,0.5,0.5
2023-09-03T15:00:00,1033A,114.5331,38.0178,石家庄市,世纪公园,臭氧1小时,110,75,52,26,29,219,219,140,140,19,18,3,2,0.7,0.7
2023-09-03T15:00:00,1034A,114.509,38.0457,石家庄市,人民会堂,臭氧1小时,115,48,55,27,38,230,230,163,163,13,12,5,4,0.6,0.6
2023-09-03T15:00:00,1035A,114.3524,37.8911,石家庄市,封龙山,,,49,54,18,33,190,148,148,118,12,12,,7,1.0,1
2023-09-03T15:00:00,1037A,118.131,39.6363,唐山市,雷达站,臭氧1小时,113,99,54,62,27,226,226,126,126,29,30,4,8,0.8,0.8
2023-09-03T15:00:00,1038A,118.1725,39.6334,唐山市,物资局,臭氧1小时,108,90,57,62,35,216,216,119,119,18,30,6,11,1.0,1.1
2023-09-03T15:00:00,1040A,118.1705,39.6506,唐山市,十二中,臭氧1小时,106,78,43,53,29,216,212,115,115,24,33,4,8,0.7,0.9
2023-09-03T15:00:00,1041A,118.1869,39.622,唐山市,小山,臭氧1小时,112,92,56,52,22,225,223,124,124,14,32,4,7,0.7,0.8
2023-09-03T15:00:00,1042A,119.5134,39.8207,秦皇岛市,北戴河环保局,臭氧1小时,101,78,29,37,13,201,201,123,123,20,26,18,12,0.4,0.1
2023-09-03T15:00:00,1043A,119.7493,40.0116,秦皇岛市,第一关,,45,33,34,20,19,206,142,95,95,10,56,11,10,0.3,0.5
2023-09-03T15:00:00,1044A,119.5897,39.9499,秦皇岛市,监测站,颗粒物(PM10),52,54,40,26,20,184,134,82,82,18,41,7,7,0.4,0.6
2023-09-03T15:00:00,1046A,119.5251,39.9041,秦皇岛市,建设大厦,臭氧1小时,63,65,56,22,11,202,170,87,87,11,37,9,10,0.5,0.5
2023-09-03T15:00:00,1048A,114.5302,36.6116,邯郸市,东污水处理厂,臭氧1小时,106,54,53,46,46,220,212,154,154,9,15,13,8,0.9,0.8
2023-09-03T15:00:00,1049A,114.4918,36.5713,邯郸市,矿院,臭氧1小时,111,46,49,41,46,222,222,157,157,10,17,9,6,1.2,0.9
2023-09-03T15:00:00,1050A,114.484,36.6133,邯郸市,丛台公园,臭氧1小时,115,54,57,38,37,230,230,154,154,6,12,12,9,1.1,0.7
2023-09-03T15:00:00,1051A,115.493,38.8632,保定市,游泳馆,臭氧1小时,67,37,37,34,31,173,173,142,142,11,13,6,6,0.6,0.5
2023-09-03T15:00:00,1052A,115.5213,38.8959,保定市,华电二区,臭氧1小时,59,35,36,23,27,167,167,131,131,3,7,4,5,0.3,0.5
2023-09-03T15:00:00,1053A,115.4713,38.9108,保定市,接待中心,,50,31,52,24,27,158,157,126,126,4,8,7,6,0.4,0.4
2023-09-03T15:00:00,1054A,115.4612,38.8416,保定市,地表水厂,臭氧1小时,64,34,49,22,27,171,171,138,138,10,15,8,8,0.5,0.5
2023-09-03T15:00:00,1056A,115.5086,38.8639,保定市,监测站,臭氧1小时,73,35,41,28,29,178,178,144,144,9,12,7,6,0.4,0.5
2023-09-03T15:00:00,1057A,114.8883,40.8336,张家口市,人民公园,,49,30,26,10,10,156,156,112,112,10,11,5,2,0.3,0.3
2023-09-03T15:00:00,1059A,114.8687,40.8042,张家口市,五金库,,48,34,27,13,16,152,152,109,109,8,14,3,2,0.4,0.5
2023-09-03T15:00:00,1060A,114.8902,40.762,张家口市,世纪豪园,,48,13,29,18,24,152,152,101,101,7,19,4,3,0.3,0.4
2023-09-03T15:00:00,1061A,114.8916,40.8661,张家口市,北泵房,臭氧1小时,57,21,19,15,12,165,165,118,118,9,8,9,6,0.5,0.4
2023-09-03T15:00:00,1062A,117.9531,40.9081,承德市,铁路,,46,32,37,14,20,150,147,100,100,14,37,13,9,0.6,0.6
2023-09-03T15:00:00,1063A,117.9392,40.9763,承德市,中国银行,,48,36,38,19,20,152,152,113,113,9,17,21,11,0.8,0.6
2023-09-03T15:00:00,1064A,117.9503,40.928,承德市,开发区,,49,35,35,23,22,156,156,145,110,14,24,13,8,0.7,0.7
2023-09-03T15:00:00,1065A,117.8051,40.9655,承德市,文化中心,,45,16,39,9,19,143,142,109,109,11,27,31,14,0.5,0.6
2023-09-03T15:00:00,1066A,117.9268,41.0026,承德市,离宫,,48,35,34,20,22,152,151,115,115,5,11,18,5,0.6,0.6
2023-09-03T15:00:00,1067A,116.6708,39.5111,廊坊市,药材公司,臭氧1小时,83,75,52,53,35,188,186,122,122,12,21,2,2,0.6,0.5
2023-09-03T15:00:00,1068A,116.7214,39.5589,廊坊市,开发区,臭氧1小时,85,46,37,45,33,188,188,110,110,10,18,2,2,0.5,0.4
2023-09-03T15:00:00,1070A,116.7244,39.5269,廊坊市,北华航天学院,臭氧1小时,83,80,59,41,31,187,186,110,110,12,21,4,4,0.6,0.6
2023-09-03T15:00:00,1071A,116.8842,38.2991,沧州市,沧县城建局,臭氧1小时,52,45,51,24,28,161,161,137,137,6,23,5,9,0.5,0.5
2023-09-03T15:00:00,1072A,116.8584,38.3254,沧州市,电视转播站,臭氧1小时,58,47,53,31,36,166,166,144,144,9,23,6,11,0.5,0.5
2023-09-03T15:00:00,1073A,116.8709,38.3228,沧州市,市环保局,颗粒物(PM10),53,56,57,25,34,159,159,132,132,10,20,5,10,0.4,0.3
2023-09-03T15:00:00,1074A,115.6838,37.7541,衡水市,电机北厂,臭氧1小时,100,66,78,43,49,200,200,148,148,4,8,16,6,1.2,0.7
2023-09-03T15:00:00,1075A,115.6303,37.7316,衡水市,市监测站,臭氧1小时,97,69,69,40,43,197,197,140,140,7,12,12,6,1.2,0.7
2023-09-03T15:00:00,1077A,114.4704,37.0886,邢台市,达活泉,臭氧1小时,127,97,89,42,40,254,254,142,142,10,13,18,10,1.7,1.2
2023-09-03T15:00:00,1078A,114.5062,37.0349,邢台市,邢师高专,臭氧1小时,120,86,84,51,50,239,239,132,132,11,20,16,9,1.5,1.1
2023-09-03T15:00:00,1079A,114.5237,37.0851,邢台市,路桥公司,臭氧1小时,125,77,72,49,44,250,250,133,133,13,16,19,10,1.9,1.2
2023-09-03T15:00:00,1080A,114.4725,37.0719,邢台市,市环保局,臭氧1小时,123,94,88,45,42,245,245,138,138,9,13,17,10,1.8,1.2
2023-09-03T15:00:00,1081A,112.522,37.8873,太原市,尖草坪,臭氧1小时,103,39,34,21,20,205,205,130,130,13,21,8,8,0.8,0.8
2023-09-03T15:00:00,1083A,112.434,38.0108,太原市,上兰,,,,,,,,,,,,,,,,
2023-09-03T15:00:00,1084A,112.469,37.7124,太原市,晋源,臭氧1小时,90,56,47,17,19,198,192,132,132,11,25,6,6,0.7,0.8
2023-09-03T15:00:00,1085A,112.5583,37.7394,太原市,小店,臭氧1小时,102,42,39,21,16,203,203,130,130,15,23,7,9,0.7,0.9
2023-09-03T15:00:00,1086A,112.5369,37.8692,太原市,桃园,臭氧1小时,98,35,32,16,16,198,198,126,126,14,24,7,7,0.7,0.8
2023-09-03T15:00:00,1087A,112.57,37.8195,太原市,坞城,臭氧1小时,106,40,30,20,16,211,211,129,129,14,22,9,10,0.8,0.8
2023-09-03T15:00:00,1088A,112.549,37.9854,太原市,南寨,,,,,,,,,,,,,,,,
2023-09-03T15:00:00,1090A,111.6507,40.7517,呼和浩特市,呼市一监,,50,41,24,16,17,158,158,111,111,9,18,9,7,0.6,0.6
2023-09-03T15:00:00,1091A,111.6572,40.8033,呼和浩特市,小召,,47,44,28,14,15,156,150,106,106,15,23,9,6,0.7,0.7
2023-09-03T15:00:00,1094A,111.7516,40.8369,呼和浩特市,如意水处理厂,臭氧1小时,67,31,30,13,14,178,173,113,113,11,24,10,8,0.6,0.5
2023-09-03T15:00:00,1095A,111.7276,40.8062,呼和浩特市,二十九中,臭氧1小时,60,37,32,16,17,172,168,110,110,12,24,10,8,0.7,0.7
2023-09-03T15:00:00,1096A,111.5512,40.7866,呼和浩特市,工大金川校区,,50,48,36,16,18,157,157,105,105,12,30,14,6,0.7,0.6
2023-09-03T15:00:00,1097A,111.717,40.7612,呼和浩特市,化肥厂生活区,,49,31,32,14,18,160,154,112,112,18,22,9,8,0.5,0.5
2023-09-03T15:00:00,1098A,123.6836,41.9339,沈阳市,森林路,,,,,,,,,,,,,,,,
2023-09-03T15:00:00,1099A,123.505,41.7406,沈阳市,浑南东路,,41,30,49,13,19,132,130,89,89,11,43,11,14,0.7,1.1
2023-09-03T15:00:00,1100A,123.4231,41.6989,沈阳市,新秀街,,38,38,45,12,16,125,120,85,85,19,40,12,25,0.8,1.2
2023-09-03T15:00:00,1102A,123.5903,41.8411,沈阳市,东陵路,,44,25,48,13,20,152,139,95,95,9,31,10,14,0.5,1
2023-09-03T15:00:00,1103A,123.4264,41.8467,沈阳市,陵东街,,40,27,32,10,18,132,128,101,90,16,29,10,11,0.7,1.1
2023-09-03T15:00:00,1104A,123.4114,41.7653,沈阳市,文化路,,41,31,43,11,22,140,130,92,92,14,28,11,19,0.7,1.1
2023-09-03T15:00:00,1105A,123.4678,41.7867,沈阳市,小河沿,,39,29,35,10,18,125,124,85,85,16,30,10,11,0.8,1.1
2023-09-03T15:00:00,1106A,123.4017,41.7972,沈阳市,太原街,,42,42,45,10,22,142,130,92,92,14,25,13,18,0.7,1.1
2023-09-03T15:00:00,1108A,123.3783,41.9228,沈阳市,京沈街,,41,38,53,12,21,144,131,127,100,7,13,14,16,0.7,1.1
2023-09-03T15:00:00,1109A,121.612,38.9741,大连市,甘井子,,44,18,59,6,30,151,140,124,124,16,21,4,5,0.3,0.4
2023-09-03T15:00:00,1110A,121.565,38.9511,大连市,周水子,,44,19,50,8,30,164,140,107,107,11,35,11,11,0.3,0.7
2023-09-03T15:00:00,1111A,121.5637,38.8845,大连市,星海三站,臭氧1小时,63,24,34,14,27,182,170,120,120,6,20,6,8,0.5,0.7
2023-09-03T15:00:00,1112A,121.6302,38.9117,大连市,青泥洼桥,,42,15,29,9,22,158,133,113,113,8,18,6,7,0.6,0.9
2023-09-03T15:00:00,1113A,121.6251,38.8638,大连市,傅家庄,,46,22,24,15,21,178,145,128,120,8,14,8,8,0.5,0.7
2023-09-03T15:00:00,1114A,121.5213,38.8661,大连市,七贤岭,臭氧1小时,88,24,26,20,20,206,190,134,134,6,13,7,7,0.6,0.9
2023-09-03T15:00:00,1115A,121.2529,38.8061,大连市,旅顺,臭氧1小时,65,18,23,14,17,172,172,123,123,8,20,6,8,0.6,1
2023-09-03T15:00:00,1116A,121.7485,39.1311,大连市,金州,,38,10,27,8,19,141,121,117,117,11,18,8,9,0.4,0.5
2023-09-03T15:00:00,1117A,121.7811,39.0496,大连市,开发区,,39,21,37,4,31,159,123,117,117,7,26,6,10,0.5,0.9
2023-09-03T15:00:00,1118A,121.9762,39.0631,大连市,双D港,,50,21,27,9,24,179,157,111,111,9,14,10,9,0.5,0.8
2023-09-03T15:00:00,1119A,125.3325,43.9166,长春市,食品厂,,31,11,33,12,16,105,98,89,89,10,27,4,5,0.4,0.5
2023-09-03T15:00:00,1120A,125.2863,43.9027,长春市,客车厂,,32,20,41,13,17,105,101,92,92,7,31,5,6,0.4,0.6
2023-09-03T15:00:00,1121A,125.2841,43.8463,长春市,邮电学院,,33,21,31,15,12,113,104,94,94,6,18,5,5,0.3,0.4
2023-09-03T15:00:00,1122A,125.3716,43.8772,长春市,劳动公园,,35,22,35,9,11,115,110,96,96,9,26,7,7,0.5,0.5
2023-09-03T15:00:00,1123A,125.3297,43.8805,长春市,园林处,,33,24,31,9,11,110,104,92,92,7,20,5,6,0.4,0.5
2023-09-03T15:00:00,1124A,125.4605,43.79,长春市,净月潭,,34,15,18,7,8,119,107,100,100,5,8,6,6,0.3,0.3
2023-09-03T15:00:00,1125A,125.7194,43.515,长春市,甩湾子,,,,,,,,,,,,,,,,
2023-09-03T15:00:00,1126A,125.3863,43.8447,长春市,经开区环卫处,,31,21,34,8,11,108,99,85,85,10,24,5,5,0.4,0.5
2023-09-03T15:00:00,1127A,125.245,43.7783,长春市,高新区管委会,,31,13,25,8,13,105,97,91,91,4,18,6,6,0.4,0.5
2023-09-03T15:00:00,1128A,125.1761,43.8325,长春市,岱山公园,,31,21,43,10,13,112,97,94,94,10,34,4,4,0.4,0.5
2023-09-03T15:00:00,1129A,126.5422,45.755,哈尔滨市,岭北,,42,19,25,9,13,165,134,121,121,6,10,9,12,0.1,0.3
2023-09-03T15:00:00,1130A,126.561,45.8167,哈尔滨市,松北商大,,33,27,27,11,11,142,103,103,103,6,12,7,7,0.4,0.5
2023-09-03T15:00:00,1131A,126.979,45.5419,哈尔滨市,阿城会宁,,36,30,26,9,13,132,113,98,98,6,8,5,5,0.6,0.6
2023-09-03T15:00:00,1132A,126.599,45.7222,哈尔滨市,南岗学府路,,39,31,37,10,12,142,124,108,108,4,13,8,9,0.4,0.5
2023-09-03T15:00:00,1133A,126.689,45.7733,哈尔滨市,太平宏伟公园,,36,35,36,12,12,130,115,100,100,6,17,5,6,0.4,0.5
2023-09-03T15:00:00,1134A,126.635,45.7667,哈尔滨市,道外承德广场,,37,19,30,9,12,141,118,104,104,12,19,8,10,0.8,0.6
2023-09-03T15:00:00,1135A,126.685,45.7319,哈尔滨市,香坊红旗大街,,35,32,34,9,16,129,111,102,102,19,24,6,12,0.4,0.6
2023-09-03T15:00:00,1136A,126.6411,45.7258,哈尔滨市,动力和平路,,36,32,35,16,16,133,114,100,100,14,22,10,9,0.5,0.6
2023-09-03T15:00:00,1137A,126.593,45.7478,哈尔滨市,道里建国路,,36,30,41,10,12,138,114,103,103,13,18,4,5,0.7,0.7
2023-09-03T15:00:00,1138A,126.615,45.61,哈尔滨市,平房东轻厂,,35,33,27,14,10,121,109,98,98,9,9,6,6,0.4,0.4
2023-09-03T15:00:00,1139A,126.595,45.9855,哈尔滨市,呼兰师专,,37,10,30,11,13,151,117,118,118,8,16,7,7,0.5,0.6
2023-09-03T15:00:00,1140A,126.6206,45.6842,哈尔滨市,省农科院,,40,33,39,10,10,141,125,118,118,8,23,7,8,0.4,0.5
2023-09-03T15:00:00,1141A,121.4,31.238,上海市,普陀,,33,33,38,12,18,133,80,133,100,20,12,4,4,0.6,0.7
2023-09-03T15:00:00,1142A,121.478,31.2036,上海市,十五厂,,36,36,43,18,23,139,88,134,99,24,17,10,11,0.4,0.4
2023-09-03T15:00:00,1143A,121.467,31.3008,上海市,虹口,,,,37,,21,130,79,130,93,,18,,6,0.6,0.6
2023-09-03T15:00:00,1144A,121.412,31.1654,上海市,徐汇上师大,,40,40,39,24,23,136,94,127,104,24,15,6,6,0.6,0.6
2023-09-03T15:00:00,1145A,121.536,31.2659,上海市,杨浦四漂,,27,27,39,17,21,147,75,145,95,23,13,6,7,0.7,0.8
2023-09-03T15:00:00,1147A,121.425,31.2261,上海市,静安监测站,,36,36,37,20,21,140,94,136,106,22,15,3,3,0.8,0.6
2023-09-03T15:00:00,1148A,121.703,31.1907,上海市,浦东川沙,,23,18,40,11,22,145,72,144,85,7,10,5,6,0.5,0.6
2023-09-03T15:00:00,1149A,121.533,31.2284,上海市,浦东新区监测站,,24,24,38,14,17,135,76,130,88,15,13,6,6,0.4,0.5
2023-09-03T15:00:00,1150A,121.577,31.2071,上海市,浦东张江,,23,21,37,15,23,127,71,122,86,12,14,5,5,0.6,0.6
2023-09-03T15:00:00,1151A,118.8086,32.1065,南京市,迈皋桥,,40,28,43,17,24,167,127,121,121,2,19,4,5,0.3,0.4
2023-09-03T15:00:00,1152A,118.7538,32.0551,南京市,草场门,,43,31,43,19,23,178,136,128,128,14,20,3,4,0.5,0.6
2023-09-03T15:00:00,1153A,118.7794,32.0745,南京市,山西路,,42,39,50,22,25,179,132,128,128,8,17,3,4,0.3,0.4
2023-09-03T15:00:00,1154A,118.7752,32.0023,南京市,中华门,,44,41,42,19,23,195,138,127,127,12,15,3,3,0.7,0.7
2023-09-03T15:00:00,1155A,118.8109,32.0309,南京市,瑞金路,,41,34,43,19,22,191,129,122,122,5,8,11,10,0.3,0.5
2023-09-03T15:00:00,1156A,118.7997,32.0754,南京市,玄武湖,,39,35,44,18,23,173,124,116,116,8,22,6,6,0.0,0.2
2023-09-03T15:00:00,1157A,118.6414,32.0931,南京市,浦口,,40,35,45,20,25,169,126,118,118,9,20,4,6,0.2,0.4
2023-09-03T15:00:00,1158A,118.7356,31.9996,南京市,奥体中心,,,,,,,,,,,,,,,,
2023-09-03T15:00:00,1159A,118.9125,32.1028,南京市,仙林大学城,,41,27,42,14,24,176,131,131,131,8,18,9,9,0.6,0.7
2023-09-03T15:00:00,1160A,120.561,31.2472,苏州市,上方山,,45,26,41,31,26,130,129,112,112,8,9,7,7,0.5,0.5
2023-09-03T15:00:00,1162A,120.591,31.3019,苏州市,彩香,臭氧1小时,55,28,40,19,24,164,164,134,134,5,6,7,7,0.7,0.7
2023-09-03T15:00:00,1163A,120.596,31.3264,苏州市,轧钢厂,臭氧1小时,73,40,43,20,24,178,178,138,138,8,9,8,8,0.7,0.7
2023-09-03T15:00:00,1164A,120.613,31.2703,苏州市,吴中区,,49,35,44,19,23,157,156,138,138,9,10,8,8,0.7,0.7
2023-09-03T15:00:00,1165A,120.543,31.2994,苏州市,苏州新区,,,,,,,,,,,,,,,,
2023-09-03T15:00:00,1166A,120.669,31.3097,苏州市,苏州工业园区,,50,31,40,19,22,158,158,137,137,9,11,7,8,0.7,0.7
2023-09-03T15:00:00,1167A,120.641,31.3708,苏州市,相城区,臭氧1小时,53,41,40,18,24,162,162,131,131,16,14,9,8,0.7,0.7
2023-09-03T15:00:00,1168A,120.9098,31.9663,南通市,狼山街道,,39,28,31,8,16,138,124,116,116,10,14,8,8,0.4,0.5
2023-09-03T15:00:00,1169A,120.86,32.0005,南通市,虹桥,,39,24,33,17,23,134,122,118,114,8,12,6,6,0.5,0.6
2023-09-03T15:00:00,1170A,120.87,32.02,南通市,城中,,35,19,30,10,18,125,111,106,106,1,7,6,6,0.5,0.5
2023-09-03T15:00:00,1171A,120.94,31.93,南通市,星湖花园,,37,24,33,10,17,136,116,112,112,8,12,5,6,0.5,0.6
2023-09-03T15:00:00,1172A,120.81,32.0417,南通市,紫琅学院,,37,16,35,6,18,132,118,106,106,5,14,5,6,0.5,0.6
2023-09-03T15:00:00,1173A,119.176,34.5885,连云港市,市环境监测站,,33,19,37,9,20,146,104,102,80,7,14,7,7,0.3,0.4
2023-09-03T15:00:00,1177A,117.179,34.2761,徐州市,黄河新村,臭氧1小时,65,66,71,36,45,208,172,122,122,13,16,10,10,0.4,0.5
2023-09-03T15:00:00,1178A,117.1918,34.2384,徐州市,淮塔,臭氧1小时,67,64,72,34,43,219,173,121,121,13,18,9,9,0.3,0.4
2023-09-03T15:00:00,1180A,117.256,34.2153,徐州市,新城区,颗粒物(PM10),59,68,71,25,40,210,165,115,115,13,17,6,7,0.6,0.6
2023-09-03T15:00:00,1181A,117.244,34.2911,徐州市,桃园路,颗粒物(PM10),67,83,75,39,41,209,171,115,115,7,12,11,10,0.7,0.7
2023-09-03T15:00:00,1182A,117.2933,34.2778,徐州市,农科院,臭氧1小时,64,53,59,33,40,214,171,115,115,10,20,8,8,0.5,0.5
2023-09-03T15:00:00,1186A,119.389,32.3761,扬州市,邗江监测站,,36,31,42,21,26,149,114,117,117,10,11,6,9,0.4,0.5
2023-09-03T15:00:00,1188A,120.269,31.4867,无锡市,雪浪,臭氧1小时,52,44,41,17,20,173,161,141,141,22,12,5,5,0.6,0.8
2023-09-03T15:00:00,1189A,120.275,31.6219,无锡市,黄巷,臭氧1小时,52,48,48,19,24,165,161,124,124,16,20,8,8,1.0,1
2023-09-03T15:00:00,1190A,120.294,31.56,无锡市,曹张,臭氧1小时,62,39,41,17,24,169,169,131,131,11,17,9,9,0.8,0.8
2023-09-03T15:00:00,1191A,120.242,31.5031,无锡市,漆塘,臭氧1小时,73,39,42,19,22,188,178,145,145,15,17,6,7,0.7,0.8
2023-09-03T15:00:00,1192A,120.3489,31.5863,无锡市,东亭,,50,46,44,22,27,163,160,127,127,18,22,6,6,0.7,0.7
2023-09-03T15:00:00,1193A,120.354,31.5475,无锡市,旺庄,臭氧1小时,62,46,41,22,25,169,169,134,134,8,10,10,10,1.0,1
2023-09-03T15:00:00,1194A,120.245,31.5631,无锡市,荣巷,臭氧1小时,68,27,37,17,20,175,174,139,139,7,10,11,12,0.8,0.8
2023-09-03T15:00:00,1195A,120.299,31.6817,无锡市,堰桥,臭氧1小时,75,53,42,27,24,180,180,122,122,12,15,14,8,1.3,0.9
2023-09-03T15:00:00,1196A,119.9633,31.762,常州市,市监测站,臭氧1小时,80,33,47,22,24,186,184,142,142,13,17,8,8,0.4,0.6
2023-09-03T15:00:00,1200A,119.9468,31.7069,常州市,武进监测站,臭氧1小时,104,31,48,24,22,208,208,155,155,14,13,5,5,0.7,0.8
2023-09-03T15:00:00,1201A,119.9255,31.9087,常州市,安家,,43,22,40,20,23,155,135,134,134,12,13,6,7,0.5,0.6
2023-09-03T15:00:00,1203A,119.6707,32.1875,镇江市,新区办事处,,43,27,36,18,24,154,137,129,129,17,16,4,2,0.4,0.7
2023-09-03T15:00:00,1204A,119.4974,32.1968,镇江市,职教中心,,44,20,42,14,29,167,140,132,132,5,18,3,4,0.4,0.7
2023-09-03T15:00:00,1205A,119.4303,32.1328,镇江市,丹徒区监测站,,50,30,40,13,33,176,159,139,139,5,11,3,3,0.6,0.7
2023-09-03T15:00:00,1206A,119.905,32.4878,泰州市,公园路,,36,31,40,14,26,140,113,112,110,7,11,7,8,0.6,0.8
2023-09-03T15:00:00,1207A,119.9189,32.4625,泰州市,莲花,,41,29,39,9,23,136,129,119,118,7,9,4,5,0.6,0.7
2023-09-03T15:00:00,1209A,119.888,32.4639,泰州市,留学生创业园,,38,25,42,12,25,137,120,114,114,9,12,8,8,0.6,0.6
2023-09-03T15:00:00,1210A,119.036,33.5981,淮安市,钵池山,,30,14,33,10,25,131,95,90,78,5,10,8,8,0.6,0.8
2023-09-03T15:00:00,1211A,119.007,33.575,淮安市,北京南路,,32,22,34,12,23,138,100,111,82,11,13,8,8,0.6,0.6
2023-09-03T15:00:00,1212A,118.989,33.6067,淮安市,市监测站,,32,22,39,7,21,141,100,114,80,12,14,6,7,0.6,0.7
2023-09-03T15:00:00,1213A,119.135,33.5039,淮安市,楚州区监测站,,28,17,36,10,24,136,87,102,78,7,12,7,8,0.6,0.7
2023-09-03T15:00:00,1214A,119.0186,33.6297,淮安市,淮阴区监测站,,30,24,41,16,27,138,93,97,77,12,16,7,7,0.6,0.7
2023-09-03T15:00:00,1215A,120.118,33.4022,盐城市,盐城电厂,,38,17,35,12,21,156,119,99,99,2,6,6,8,0.3,0.4
2023-09-03T15:00:00,1216A,120.156,33.3942,盐城市,市监测站,,39,19,32,8,22,152,124,102,102,3,9,5,9,0.3,0.4
2023-09-03T15:00:00,1218A,120.2144,33.38,盐城市,开发区管委会,,34,15,27,6,19,155,108,102,95,4,9,8,9,0.4,0.4
2023-09-03T15:00:00,1220A,118.293,33.9528,宿迁市,宿迁学院,,41,28,40,13,31,181,131,111,111,10,12,10,9,0.4,0.5
2023-09-03T15:00:00,1221A,118.2442,33.9592,宿迁市,宿迁中学,,39,30,41,14,27,183,124,112,112,11,12,7,6,0.6,0.6
2023-09-03T15:00:00,1223A,120.2072,30.2111,杭州市,滨江,,50,47,49,28,26,196,159,130,130,10,13,8,8,0.7,0.7
2023-09-03T15:00:00,1224A,120.0633,30.2747,杭州市,西溪,细颗粒物(PM2.5),54,50,46,38,29,190,159,121,121,9,15,3,4,0.8,0.8
2023-09-03T15:00:00,1226A,120.3461,30.3153,杭州市,下沙,,48,47,44,30,27,188,152,122,122,11,18,3,3,0.7,0.7
2023-09-03T15:00:00,1227A,120.1269,30.2456,杭州市,卧龙桥,臭氧1小时,60,49,42,25,28,191,168,126,126,11,16,5,5,0.7,0.7
2023-09-03T15:00:00,1228A,120.1903,30.2692,杭州市,浙江农大,,,44,39,29,25,164,130,114,114,11,17,7,8,,0.7
2023-09-03T15:00:00,1230A,120.1197,30.3119,杭州市,和睦小学,颗粒物(PM10),52,54,51,32,28,184,151,124,124,21,24,7,8,0.7,0.7
2023-09-03T15:00:00,1231A,120.3019,30.4183,杭州市,临平镇,"颗粒物(PM10),臭氧1小时",55,59,50,30,26,182,164,128,128,9,12,4,5,0.6,0.6
2023-09-03T15:00:00,1232A,120.2697,30.1819,杭州市,城厢镇,,50,49,52,35,37,187,147,117,117,12,17,6,6,0.6,0.6
2023-09-03T15:00:00,1233A,120.0883,30.1808,杭州市,云栖,"细颗粒物(PM2.5),臭氧1小时",52,50,35,36,36,187,161,120,120,12,14,6,6,0.5,0.5
2023-09-03T15:00:00,1234A,121.8358,29.911,宁波市,区环保大楼,,15,15,24,9,18,138,48,98,57,6,25,4,4,0.3,0.5
2023-09-03T15:00:00,1235A,121.56,29.82,宁波市,万里学院,,,14,31,,22,131,72,93,68,17,18,6,5,0.7,0.7
2023-09-03T15:00:00,1236A,121.713,29.9572,宁波市,龙赛医院,,25,14,30,7,12,136,80,109,70,13,13,8,7,0.4,0.5
2023-09-03T15:00:00,1239A,121.633,29.7733,宁波市,钱湖水厂,,31,11,37,10,22,149,99,68,68,13,19,7,5,0.5,0.6
2023-09-03T15:00:00,1240A,121.5856,29.8635,宁波市,太古小学,,22,22,26,12,17,134,66,92,64,26,20,5,5,0.8,0.9
2023-09-03T15:00:00,1241A,121.524,29.8674,宁波市,市环境监测中心,,22,7,31,8,17,140,68,100,71,12,12,8,8,0.4,0.5
2023-09-03T15:00:00,1242A,120.634,28.0089,温州市,瓯海,,12,12,27,7,18,60,28,28,28,16,29,5,6,0.5,0.6
2023-09-03T15:00:00,1243A,120.6748,27.9939,温州市,南浦,,12,12,25,7,13,72,30,29,29,11,23,5,5,0.4,0.6
2023-09-03T15:00:00,1244A,120.76,27.9747,温州市,龙湾,,9,8,25,4,12,51,27,30,30,12,33,6,6,0.5,0.6
2023-09-03T15:00:00,1245A,120.6709,28.0167,温州市,市站,,11,11,22,4,15,66,22,29,29,20,21,5,5,0.4,0.5
2023-09-03T15:00:00,1247A,120.6053,29.9928,绍兴市,城东开发委,,45,45,50,29,26,167,130,109,109,13,14,6,7,0.6,0.6
2023-09-03T15:00:00,1250A,120.0751,30.8669,湖州市,城西水厂,臭氧1小时,83,39,43,23,27,186,186,150,150,11,18,3,3,0.6,0.6
2023-09-03T15:00:00,1252A,120.7436,30.778,嘉兴市,清河小学,,44,35,44,19,21,163,138,126,126,8,13,5,5,0.7,0.7
2023-09-03T15:00:00,1253A,120.726,30.7478,嘉兴市,嘉兴学院,,48,40,41,21,25,175,151,133,133,12,14,4,4,0.6,0.6
2023-09-03T15:00:00,1255A,121.273,28.6459,台州市,黄岩环保大楼,,14,14,23,6,15,67,42,54,33,4,14,5,5,0.5,0.6
2023-09-03T15:00:00,1256A,121.419,28.6542,台州市,台州环保大楼,,20,20,18,9,11,107,45,71,38,6,7,6,6,0.3,0.4
2023-09-03T15:00:00,1257A,121.377,28.5773,台州市,路桥田洋王,,19,19,21,10,14,96,40,59,36,1,8,3,4,0.3,0.5
2023-09-03T15:00:00,1258A,122.122,30.0203,舟山市,定海檀枫,,16,14,22,11,14,125,35,82,39,3,6,5,6,0.4,0.5
2023-09-03T15:00:00,1259A,122.3094,29.9558,舟山市,普陀东港,,16,13,19,6,10,139,50,88,43,9,6,5,4,0.4,0.5
2023-09-03T15:00:00,1260A,122.19,29.9944,舟山市,临城新区,,15,15,22,6,11,140,38,88,39,2,5,7,7,0.2,0.4
2023-09-03T15:00:00,1262A,119.647,29.077,金华市,十五中,,49,49,47,32,28,154,143,119,119,14,20,3,3,0.5,0.5
2023-09-03T15:00:00,1263A,119.686,29.1029,金华市,监测站,,49,48,50,34,31,136,127,109,109,12,22,4,4,0.6,0.6
2023-09-03T15:00:00,1264A,118.8692,28.9398,衢州市,环保大楼,,,32,54,22,35,138,116,100,100,,19,3,4,0.5,0.6
2023-09-03T15:00:00,1265A,118.8709,28.9666,衢州市,实验学校,,38,38,56,24,30,142,119,105,105,7,16,7,5,0.4,0.5
2023-09-03T15:00:00,1266A,118.8621,28.9808,衢州市,衢州学院,,35,29,50,19,33,149,112,103,103,8,21,5,5,0.3,0.4
2023-09-03T15:00:00,1267A,119.914,28.4514,丽水市,监测站大楼,,31,31,40,12,21,94,46,62,62,11,20,6,7,0.5,0.6
2023-09-03T15:00:00,1268A,119.93,28.4586,丽水市,莲都小学,,20,20,44,10,22,101,48,61,61,13,18,4,6,0.5,0.5
2023-09-03T15:00:00,1269A,119.879,28.4231,丽水市,余庄前,,15,15,47,9,23,91,46,62,62,9,18,5,5,0.5,0.6
2023-09-03T15:00:00,1270A,117.1959,31.7848,合肥市,明珠广场,,50,46,53,27,30,171,159,116,116,15,23,6,7,0.7,0.8
2023-09-03T15:00:00,1271A,117.3072,31.8764,合肥市,三里街,细颗粒物(PM2.5),52,51,53,36,34,161,132,102,102,13,22,6,6,0.4,0.5
2023-09-03T15:00:00,1272A,117.2588,31.8707,合肥市,琥珀山庄,,46,46,50,27,28,167,140,119,118,13,18,6,5,0.6,0.7
2023-09-03T15:00:00,1273A,117.1604,31.9052,合肥市,董铺水库,,44,44,52,22,28,158,131,113,113,5,15,5,5,0.4,0.5
2023-09-03T15:00:00,1274A,117.25,31.8571,合肥市,长江中路,颗粒物(PM10),54,58,58,31,34,166,140,119,119,8,16,8,8,0.5,0.7
2023-09-03T15:00:00,1275A,117.266,31.9436,合肥市,庐阳区,,46,46,60,29,34,154,128,103,103,8,21,5,5,0.4,0.6
2023-09-03T15:00:00,1276A,117.336,31.8586,合肥市,瑶海区,,46,46,56,26,29,157,133,110,110,6,14,6,5,0.6,0.7
2023-09-03T15:00:00,1277A,117.3027,31.7964,合肥市,包河区,细颗粒物(PM2.5),58,46,59,41,33,152,132,103,103,19,49,6,7,0.6,0.6
2023-09-03T15:00:00,1278A,117.2776,31.7385,合肥市,滨湖新区,颗粒物(PM10),54,58,56,29,30,172,147,118,118,16,18,6,8,0.5,0.6
2023-09-03T15:00:00,1279A,117.1318,31.8403,合肥市,高新区,颗粒物(PM10),54,58,52,35,34,161,146,124,124,14,22,10,9,0.6,0.7
2023-09-03T15:00:00,1280A,119.3903,26.0543,福州市,鼓山,,,,,,,,,,,,,,,,
2023-09-03T15:00:00,1282A,119.2681,26.0504,福州市,师大,,12,12,15,4,4,62,36,38,38,2,5,3,3,0.3,0.4
2023-09-03T15:00:00,1283A,119.2984,26.1028,福州市,五四北路,,12,10,14,2,4,67,36,39,39,4,6,2,2,0.3,0.5
2023-09-03T15:00:00,1284A,119.2648,26.0768,福州市,杨桥西路,,15,15,16,0,4,65,37,37,37,3,8,3,3,0.3,0.5
2023-09-03T15:00:00,1285A,119.317,26.0746,福州市,紫阳,,11,10,14,1,4,63,35,38,38,1,5,3,3,0.2,0.4
2023-09-03T15:00:00,1286A,118.1608,24.8169,厦门市,溪东,,,,,,,,,,,,,,,,
2023-09-03T15:00:00,1287A,118.1514,24.4767,厦门市,洪文,,19,19,17,4,7,74,52,47,47,2,3,3,2,0.2,0.2
2023-09-03T15:00:00,1288A,118.0661,24.4444,厦门市,鼓浪屿,,14,10,12,3,7,76,43,39,39,2,4,1,1,0.3,0.3
2023-09-03T15:00:00,1290A,115.8931,28.6843,南昌市,省外办,,36,29,53,12,27,145,115,125,125,10,16,2,7,0.5,0.8
2023-09-03T15:00:00,1291A,115.8886,28.7003,南昌市,省林业公司,,35,31,46,17,27,141,109,121,121,1,11,4,8,0.6,0.8
2023-09-03T15:00:00,1292A,115.8126,28.7442,南昌市,林科所,,33,7,29,7,20,158,103,138,136,6,11,5,8,0.6,0.8
2023-09-03T15:00:00,1294A,115.8518,28.687,南昌市,建工学校,,43,43,44,10,22,170,126,146,146,8,14,9,12,0.5,0.8
2023-09-03T15:00:00,1295A,115.8921,28.6424,南昌市,象湖,,41,27,39,16,29,162,131,140,140,8,14,5,9,0.2,0.5
2023-09-03T15:00:00,1296A,115.7423,28.7996,南昌市,武术学校,,32,17,18,22,17,145,101,123,123,6,9,3,3,0.2,0.3
2023-09-03T15:00:00,1298A,115.9314,28.6842,南昌市,省站,,42,36,48,13,27,156,132,133,133,4,11,5,11,0.7,0.8
2023-09-03T15:00:00,1299A,116.9862,36.6114,济南市,科干所,,,68,89,44,61,203,194,169,169,8,14,6,7,,0.7
2023-09-03T15:00:00,1300A,116.9376,36.665,济南市,农科所,臭氧1小时,85,61,79,32,52,191,188,160,160,12,21,7,7,0.5,0.6
2023-09-03T15:00:00,1301A,117.1265,36.6734,济南市,开发区,臭氧1小时,80,56,81,37,53,223,184,162,162,7,30,5,6,0.7,0.8
2023-09-03T15:00:00,1303A,117.0624,36.6868,济南市,省种子仓库,臭氧1小时,89,63,82,39,52,202,191,170,170,12,20,6,7,0.9,1
2023-09-03T15:00:00,1304A,116.9489,36.6447,济南市,机床二厂,臭氧1小时,77,63,88,37,53,191,181,161,161,15,20,5,7,0.8,0.9
2023-09-03T15:00:00,1305A,117.0495,36.663,济南市,市监测站,臭氧1小时,94,59,79,37,56,213,195,175,175,12,22,4,6,0.6,0.7
2023-09-03T15:00:00,1306A,116.7675,36.5484,济南市,长清党校,臭氧1小时,90,71,85,54,63,206,192,161,161,10,16,4,4,0.6,0.6
2023-09-03T15:00:00,1307A,120.6659,36.2403,青岛市,仰口,,30,17,14,14,11,93,93,78,78,5,5,6,6,0.4,0.2
2023-09-03T15:00:00,1310A,120.4134,36.0658,青岛市,市南区东部子站,,39,12,18,9,9,122,122,108,108,14,15,6,5,0.4,0.5
2023-09-03T15:00:00,1311A,120.3664,36.1032,青岛市,四方区子站,,39,14,20,7,8,124,124,101,101,18,24,9,6,0.5,0.5
2023-09-03T15:00:00,1312A,120.2994,36.054,青岛市,市南区西部子站,,38,14,16,7,6,123,119,99,99,16,22,5,6,0.4,0.4
2023-09-03T15:00:00,1313A,120.4581,36.0858,青岛市,崂山区子站,,42,14,17,14,10,132,132,110,110,7,16,8,7,0.2,0.3
2023-09-03T15:00:00,1314A,120.1983,35.9608,青岛市,黄岛区子站,,41,9,15,12,12,156,129,108,108,10,17,6,6,0.4,0.4
2023-09-03T15:00:00,1315A,120.3999,36.3083,青岛市,城阳区子站,,48,48,36,12,11,132,132,85,85,28,36,7,5,0.5,0.5
2023-09-03T15:00:00,1316A,113.69031,34.76122,郑州市,烟厂,臭氧1小时,89,59,65,21,33,197,191,158,158,13,22,4,3,0.5,0.6
2023-09-03T15:00:00,1317A,113.65724,34.77134,郑州市,郑纺机,臭氧1小时,89,54,64,22,31,198,191,153,153,8,19,3,2,0.5,0.7
2023-09-03T15:00:00,1318A,113.67526,34.80246,郑州市,银行学校,,,,,,,,,,,,,,,,
2023-09-03T15:00:00,1319A,113.56746,34.81334,郑州市,供水公司,臭氧1小时,78,47,64,20,33,191,182,144,144,11,21,4,4,0.4,0.5
2023-09-03T15:00:00,1320A,113.7329,34.7178,郑州市,经开区管委,,,56,73,21,39,196,189,153,153,,22,4,5,0.8,0.8
2023-09-03T15:00:00,1321A,113.73961,34.77172,郑州市,四十七中,臭氧1小时,83,51,61,29,38,186,186,153,153,9,17,9,8,0.5,0.6
2023-09-03T15:00:00,1322A,113.60532,34.74838,郑州市,市监测站,臭氧1小时,69,52,68,26,35,191,175,136,136,9,22,6,6,0.4,0.6
2023-09-03T15:00:00,1323A,113.64164,34.7525,郑州市,河医大,臭氧1小时,69,44,56,22,31,188,175,139,139,9,20,6,5,0.6,0.7
2023-09-03T15:00:00,1324A,113.51488,34.91089,郑州市,岗李水库,,,,,,,,,,,,,,,,
2023-09-03T15:00:00,1325A,114.3677,30.5584,武汉市,东湖梨园,,50,46,36,34,25,167,159,120,120,19,23,9,10,0.7,1
2023-09-03T15:00:00,1326A,114.2529,30.558,武汉市,汉阳月湖,,49,46,37,34,22,160,122,100,100,33,26,10,7,1.1,0.7
2023-09-03T15:00:00,1327A,114.282,30.6189,武汉市,汉口花桥,颗粒物(PM10),51,51,36,24,24,153,141,118,118,30,20,10,7,0.9,0.6
2023-09-03T15:00:00,1328A,114.3025,30.5332,武汉市,武昌紫阳,,50,45,36,28,21,164,159,115,115,28,29,11,10,0.8,1
2023-09-03T15:00:00,1329A,114.3646,30.6217,武汉市,青山钢花,,50,44,39,29,28,160,160,117,117,20,26,10,10,0.8,0.8
2023-09-03T15:00:00,1330A,114.1566,30.4825,武汉市,沌口新区,臭氧1小时,60,34,38,31,29,171,168,120,120,20,32,10,10,0.7,0.8
2023-09-03T15:00:00,1331A,114.3014,30.5944,武汉市,汉口江滩,,46,46,37,30,22,155,133,118,118,41,17,11,7,1.1,0.6
2023-09-03T15:00:00,1333A,114.135,30.6319,武汉市,吴家山,臭氧1小时,83,63,34,39,23,186,186,130,130,28,18,10,9,0.9,0.7
2023-09-03T15:00:00,1334A,113.8454,30.2917,武汉市,沉湖七壕,,45,38,35,31,20,170,135,106,106,21,18,4,3,1.1,0.7
2023-09-03T15:00:00,1335A,113.0833,28.2325,长沙市,经开区环保局,,24,4,29,10,23,147,75,104,83,12,14,5,7,0.4,0.5
2023-09-03T15:00:00,1336A,112.8872,28.2189,长沙市,高开区环保局,,43,25,41,30,30,157,87,104,90,3,6,5,7,0.7,0.7
2023-09-03T15:00:00,1337A,113.0792,28.2053,长沙市,马坡岭,,27,13,40,17,28,158,84,111,87,10,18,5,7,0.7,0.8
2023-09-03T15:00:00,1338A,112.9394,28.19,长沙市,湖南师范大学,,,34,45,,26,157,85,98,89,2,5,3,4,0.8,0.8
2023-09-03T15:00:00,1339A,113.0178,28.1322,长沙市,雨花区环保局,,25,13,33,17,21,159,72,102,81,17,16,5,6,0.4,0.5
2023-09-03T15:00:00,1340A,112.9792,28.2597,长沙市,伍家岭,,22,11,38,8,28,155,70,79,73,10,17,2,4,0.7,0.8
2023-09-03T15:00:00,1341A,113.0014,28.1944,长沙市,火车新站,,24,8,29,7,25,150,74,91,79,9,14,5,6,0.8,0.8
2023-09-03T15:00:00,1342A,112.9844,28.1178,长沙市,天心区环保局,,27,12,33,16,21,162,85,105,92,11,13,3,4,0.6,0.6
2023-09-03T15:00:00,1343A,112.8908,28.1308,长沙市,湖南中医药大学,,35,23,46,24,28,157,90,92,92,8,10,2,3,0.9,0.9
2023-09-03T15:00:00,1344A,112.9581,28.3611,长沙市,沙坪,,38,38,45,15,25,158,79,107,73,6,11,6,7,0.8,0.8
2023-09-03T15:00:00,1345A,113.2347,23.1423,广州市,广雅中学,,27,16,17,11,13,88,85,54,54,11,26,5,5,0.8,0.9
2023-09-03T15:00:00,1346A,113.2612,23.105,广州市,市五中,,36,18,17,12,12,114,113,69,69,8,15,6,5,0.7,0.7
2023-09-03T15:00:00,1348A,113.3478,23.0916,广州市,广东商学院,,30,25,19,16,12,99,96,58,58,16,21,3,3,0.4,0.4
2023-09-03T15:00:00,1349A,113.4332,23.1047,广州市,市八十六中,,28,16,16,12,11,92,89,62,62,8,19,4,4,0.6,0.6
2023-09-03T15:00:00,1350A,113.3505,22.9483,广州市,番禺中学,,43,21,19,9,13,135,135,74,74,10,24,5,5,0.7,0.7
2023-09-03T15:00:00,1351A,113.2146,23.3916,广州市,花都师范,,28,23,21,19,18,79,77,63,63,7,11,6,6,0.6,0.8
2023-09-03T15:00:00,1352A,113.2597,23.1331,广州市,市监测站,,28,8,13,7,10,101,89,58,58,13,24,6,6,0.7,0.7
2023-09-03T15:00:00,1353A,113.5618,23.312,广州市,九龙镇镇龙,,22,21,15,15,10,58,58,44,44,10,10,6,6,0.4,0.4
2023-09-03T15:00:00,1354A,113.2765,23.1544,广州市,麓湖,,24,14,15,9,10,86,76,54,54,9,17,5,5,0.6,0.7
2023-09-03T15:00:00,1355A,113.443,23.3035,广州市,帽峰山森林公园,,21,11,11,9,7,66,65,47,47,5,8,7,7,0.2,0.3
2023-09-03T15:00:00,1356A,114.1063,22.5545,深圳市,通心岭子站,,19,11,18,5,8,79,59,56,55,6,10,5,6,0.4,0.5
2023-09-03T15:00:00,1357A,114.117,22.5625,深圳市,洪湖,,21,11,20,6,8,84,65,60,56,5,8,5,5,0.4,0.5
2023-09-03T15:00:00,1358A,113.987,22.5417,深圳市,华侨城,,20,9,16,8,10,77,61,57,54,6,8,6,6,0.6,0.7
2023-09-03T15:00:00,1359A,113.9181,22.5171,深圳市,南海子站,,17,14,20,4,9,77,54,56,54,6,8,4,4,0.6,0.7
2023-09-03T15:00:00,1360A,114.2458,22.5689,深圳市,盐田,,20,6,20,4,9,95,62,56,56,7,23,5,5,0.6,0.7
2023-09-03T15:00:00,1361A,114.2283,22.7244,深圳市,龙岗,,,,21,10,12,109,108,87,87,6,9,8,8,0.7,0.8
2023-09-03T15:00:00,1363A,114.494,22.5422,深圳市,南澳,,34,18,19,9,9,111,106,79,79,7,8,4,4,0.8,0.7
2023-09-03T15:00:00,1364A,114.41,22.6342,深圳市,葵涌,,27,22,21,8,10,85,84,61,61,5,7,5,5,0.5,0.6
2023-09-03T15:00:00,1365A,114.297,22.5978,深圳市,梅沙,,23,18,26,14,16,92,72,64,64,5,6,5,5,0.6,0.7
2023-09-03T15:00:00,1366A,114.0678,22.738,深圳市,观澜,,35,25,22,13,12,122,109,83,83,12,12,6,6,0.6,0.6
2023-09-03T15:00:00,1367A,113.5814,22.2618,珠海市,吉大,,31,24,21,10,13,104,98,71,71,9,14,4,3,0.5,0.5
2023-09-03T15:00:00,1368A,113.4881,22.2335,珠海市,前山,,25,16,15,12,10,93,78,70,63,7,9,8,7,0.3,0.4
2023-09-03T15:00:00,1369A,113.628,22.4251,珠海市,唐家,,41,22,19,7,12,129,129,80,80,6,11,6,5,0.4,0.4
2023-09-03T15:00:00,1370A,113.299,22.2281,珠海市,斗门,,23,7,15,11,10,96,72,72,55,3,8,6,6,0.6,0.6
2023-09-03T15:00:00,1371A,113.1294,23.0067,佛山市,湾梁,,36,14,11,13,12,114,114,60,60,6,22,7,6,0.6,0.7
2023-09-03T15:00:00,1372A,113.1083,23.0478,佛山市,华材职中,,29,22,16,13,13,100,92,52,52,17,26,8,8,0.4,0.5
2023-09-03T15:00:00,1373A,113.144,23.0453,佛山市,南海气象局,,32,32,24,12,11,83,83,42,42,13,21,6,6,0.6,0.6
2023-09-03T15:00:00,1374A,113.2881,22.8094,佛山市,顺德苏岗,,46,25,18,7,10,145,145,75,75,15,18,6,7,0.6,0.6
2023-09-03T15:00:00,1376A,112.8383,22.8678,佛山市,高明孔堂,,45,35,30,18,14,142,142,60,60,20,29,7,5,0.7,0.7
2023-09-03T15:00:00,1377A,112.8836,23.1588,佛山市,三水监测站,,35,14,19,24,19,107,90,67,67,15,16,5,4,0.8,0.8
2023-09-03T15:00:00,1378A,112.867,23.185,佛山市,三水云东海,,24,10,21,15,19,103,76,65,65,8,13,5,5,0.6,0.7
2023-09-03T15:00:00,1379A,113.3769,22.5211,中山市,华柏园,,32,24,20,22,31,95,95,66,66,8,10,4,4,0.4,0.4
2023-09-03T15:00:00,1380A,113.3881,22.5497,中山市,张溪,,35,22,22,6,12,111,111,67,67,5,12,4,4,0.5,0.5
2023-09-03T15:00:00,1381A,113.4075,22.5111,中山市,紫马岭,,32,25,17,9,11,102,102,70,70,4,7,5,4,0.3,0.3
2023-09-03T15:00:00,1382A,113.4411,22.4853,中山市,长江旅游区,,,,,,,,,,,,,,,,
2023-09-03T15:00:00,1383A,113.1064,22.6058,江门市,北街,,46,36,25,12,15,146,146,80,80,9,16,6,5,0.4,0.4
2023-09-03T15:00:00,1384A,113.0731,22.5835,江门市,西区,,46,20,19,15,10,146,146,81,81,10,15,5,5,0.6,0.6
2023-09-03T15:00:00,1385A,113.0219,22.5311,江门市,圭峰西,,36,27,22,11,11,123,115,73,73,8,15,4,4,0.5,0.5
2023-09-03T15:00:00,1386A,113.0828,22.5947,江门市,东湖,,48,23,24,19,16,152,152,84,84,8,13,7,6,0.5,0.5
2023-09-03T15:00:00,1389A,113.7547,23.0494,东莞市,莞城梨川,,28,16,18,8,12,91,89,64,64,7,16,9,10,0.6,0.7
2023-09-03T15:00:00,1390A,113.7944,23.0128,东莞市,东城石井,,27,12,18,9,11,94,85,65,65,6,14,8,7,0.6,0.7
2023-09-03T15:00:00,1391A,113.7383,22.9658,东莞市,南城西平,,30,23,21,14,11,103,95,62,62,8,21,7,5,0.8,0.9
2023-09-03T15:00:00,1392A,114.4183,23.0528,惠州市,河南岸金山湖子站,,20,18,16,8,12,73,62,50,50,8,10,4,4,0.4,0.5
2023-09-03T15:00:00,1393A,114.4053,23.0822,惠州市,下埔横江三路子站,,22,16,16,9,9,70,70,54,54,3,7,5,5,0.4,0.5
2023-09-03T15:00:00,1394A,114.4103,23.1142,惠州市,江北云山西路子站,,22,16,15,12,10,73,70,53,53,1,5,4,5,0.3,0.4
2023-09-03T15:00:00,1395A,114.4645,22.7833,惠州市,惠阳区承修路船湖子站,,28,15,21,11,12,100,88,67,67,6,9,4,4,0.7,0.7
2023-09-03T15:00:00,1396A,114.5317,22.7422,惠州市,大亚湾管委会子站,,34,15,22,10,12,108,108,72,72,11,14,6,6,0.5,0.5
2023-09-03T15:00:00,1397A,112.4267,23.0706,肇庆市,睦岗子站,,37,33,20,23,15,116,116,69,69,11,12,11,10,0.4,0.5
2023-09-03T15:00:00,1398A,112.4645,23.0475,肇庆市,城中子站,,37,25,20,18,15,116,116,70,70,9,13,10,10,0.6,0.6
2023-09-03T15:00:00,1399A,112.5544,23.1522,肇庆市,坑口子站,,32,22,24,11,19,101,101,56,56,16,20,6,6,0.4,0.5
2023-09-03T15:00:00,1400A,112.4753,23.1,肇庆市,七星岩子站,,,,,,,,,,,,,,,,
2023-09-03T15:00:00,1401A,108.3103,22.7881,南宁市,二十一中,,22,16,19,13,12,116,68,90,72,16,14,5,6,0.7,0.6
2023-09-03T15:00:00,1402A,108.3141,22.8528,南宁市,北湖,,20,17,21,12,13,113,64,88,69,14,12,11,8,0.7,0.6
2023-09-03T15:00:00,1403A,108.3206,22.8225,南宁市,市监测站,,20,20,21,12,15,106,63,83,67,22,24,11,9,0.8,0.7
2023-09-03T15:00:00,1404A,108.3829,22.8037,南宁市,大自然花园,,20,13,19,8,11,103,63,89,65,8,8,5,5,0.7,0.6
2023-09-03T15:00:00,1405A,108.4394,22.7904,南宁市,仙葫,,19,10,16,6,12,101,60,79,65,15,14,5,6,0.5,0.4
2023-09-03T15:00:00,1406A,108.2397,22.8467,南宁市,区农职院,,20,18,23,10,11,112,61,96,70,14,12,6,8,0.6,0.6
2023-09-03T15:00:00,1407A,108.3275,22.735,南宁市,英华嘉园,,20,13,19,10,10,108,61,86,62,16,13,5,6,0.6,0.5
2023-09-03T15:00:00,1408A,108.2257,22.7757,南宁市,沙井镇街道办,,20,12,24,8,15,111,64,88,66,12,15,4,5,0.6,0.5
2023-09-03T15:00:00,1409A,110.576,19.9507,海口市,东寨港,,,,,,,,,,,,,,,,
2023-09-03T15:00:00,1410A,110.3232,20.0574,海口市,海南大学,,28,9,18,5,10,96,89,81,81,10,9,6,6,0.5,0.6
2023-09-03T15:00:00,1411A,110.283,20.0053,海口市,秀英海南医院,,27,13,19,5,12,126,86,77,77,11,10,6,7,0.5,0.5
2023-09-03T15:00:00,1412A,110.338,19.9969,海口市,海南师范大学,,29,6,18,4,11,121,91,77,77,8,11,7,7,0.5,0.5
2023-09-03T15:00:00,1413A,110.33,20.0356,海口市,龙华路环保局宿舍,,28,9,15,5,11,96,89,79,79,10,9,7,7,0.5,0.4
2023-09-03T15:00:00,1414A,106.3787,29.8279,重庆市,缙云山,臭氧1小时,65,29,29,17,16,172,172,149,149,7,7,10,10,0.3,0.3
2023-09-03T15:00:00,1416A,106.4213,29.8253,重庆市,天生,臭氧1小时,53,44,50,30,34,164,162,90,90,9,29,8,7,0.6,0.7
2023-09-03T15:00:00,1417A,106.6263,29.7228,重庆市,两路,臭氧1小时,95,35,48,22,34,196,196,107,107,12,42,9,10,0.8,1
2023-09-03T15:00:00,1418A,106.2953,29.5983,重庆市,虎溪,臭氧1小时,95,47,48,32,31,196,196,124,124,11,36,6,6,0.7,0.7
2023-09-03T15:00:00,1419A,106.5777,29.5102,重庆市,南坪,臭氧1小时,122,43,61,44,36,244,244,141,141,21,27,8,11,0.7,0.7
2023-09-03T15:00:00,1420A,106.6556,29.6277,重庆市,唐家沱,臭氧1小时,146,65,55,28,32,291,291,146,146,28,38,8,7,0.7,0.6
2023-09-03T15:00:00,1421A,106.6349,29.4906,重庆市,茶园,臭氧1小时,118,51,59,25,32,253,236,147,147,18,40,6,7,0.9,1
2023-09-03T15:00:00,1422A,106.3754,29.4572,重庆市,白市驿,臭氧1小时,102,54,59,40,39,204,204,121,121,12,23,8,13,0.7,0.8
2023-09-03T15:00:00,1425A,106.6205,29.7166,重庆市,空港,臭氧1小时,107,40,54,16,34,214,214,124,124,9,39,6,8,0.7,0.8
2023-09-03T15:00:00,1426A,106.4782,29.4875,重庆市,新山村,臭氧1小时,134,76,68,49,39,268,268,145,145,31,51,14,15,0.7,0.7
2023-09-03T15:00:00,1427A,106.5616,29.6453,重庆市,礼嘉,臭氧1小时,55,34,52,24,34,164,164,96,96,9,38,10,11,0.7,0.9
2023-09-03T15:00:00,1428A,106.4522,29.7091,重庆市,蔡家,臭氧1小时,57,41,51,25,29,173,165,109,109,8,26,7,7,0.7,0.8
2023-09-03T15:00:00,1429A,106.5093,29.3917,重庆市,鱼新街,臭氧1小时,120,41,60,35,42,240,240,124,124,20,38,8,12,0.9,1
2023-09-03T15:00:00,1431A,103.9728,30.7236,成都市,金泉两河,臭氧1小时,101,40,41,22,23,202,202,103,103,5,22,6,5,0.5,0.6
2023-09-03T15:00:00,1432A,104.176,30.6872,成都市,十里店,臭氧1小时,123,62,63,32,40,246,246,121,121,11,46,5,4,0.6,0.8
2023-09-03T15:00:00,1433A,104.079,30.5706,成都市,三瓦窑,臭氧1小时,116,72,55,45,31,232,232,118,118,15,66,1,3,0.4,0.6
2023-09-03T15:00:00,1434A,104.1114,30.63,成都市,沙河铺,臭氧1小时,117,57,51,38,31,234,234,117,117,14,29,5,3,0.6,0.7
2023-09-03T15:00:00,1437A,104.0786,30.6531,成都市,君平街,臭氧1小时,126,58,57,39,38,252,252,128,128,12,43,3,4,0.6,0.8
2023-09-03T15:00:00,1438A,103.613,31.0283,成都市,灵岩寺,,42,42,30,26,19,150,132,90,90,3,6,6,16,0.7,0.7
2023-09-03T15:00:00,1439A,106.6899,26.5998,贵阳市,马鞍山,,34,22,35,12,22,129,106,87,87,4,12,4,4,0.3,0.4
2023-09-03T15:00:00,1440A,106.6971,26.5694,贵阳市,市环保站,,38,19,33,14,28,144,120,108,108,8,16,4,5,0.2,0.3
2023-09-03T15:00:00,1441A,106.6243,26.6266,贵阳市,鉴湖路,,37,22,37,12,21,140,116,104,104,6,13,5,5,0.5,0.5
2023-09-03T15:00:00,1442A,106.7487,26.6343,贵阳市,燕子冲,,32,14,32,9,21,123,102,93,93,5,10,7,6,0.6,0.6
2023-09-03T15:00:00,1443A,106.6555,26.4365,贵阳市,碧云窝,,35,31,43,7,23,132,112,94,94,6,11,5,5,0.3,0.4
2023-09-03T15:00:00,1444A,106.694,26.5161,贵阳市,中院村,,33,29,39,12,23,128,103,92,92,11,16,5,7,0.2,0.3
2023-09-03T15:00:00,1445A,106.7109,26.6027,贵阳市,红边门,,35,27,39,9,27,138,111,100,100,8,14,5,6,0.4,0.5
2023-09-03T15:00:00,1446A,106.7164,26.5699,贵阳市,新华路,,37,19,32,14,23,137,117,104,104,1,9,7,7,0.4,0.4
2023-09-03T15:00:00,1447A,106.674,26.5424,贵阳市,太慈桥,,35,12,27,12,20,135,112,98,98,6,18,4,5,0.4,0.5
2023-09-03T15:00:00,1450A,102.8204,24.8886,昆明市,呈贡新区,,36,25,34,10,19,120,113,90,90,10,22,5,7,0.5,0.7
2023-09-03T15:00:00,1451A,102.6251,24.9608,昆明市,西山森林公园,,48,18,22,7,16,157,152,129,129,4,10,7,11,0.7,0.7
2023-09-03T15:00:00,1452A,102.7252,25.0902,昆明市,龙泉镇,,39,7,27,5,17,128,124,98,98,7,22,9,9,0.3,0.5
2023-09-03T15:00:00,1453A,102.7266,25.0375,昆明市,东风东路,,,,,,,,,,,,,,,,
2023-09-03T15:00:00,1454A,102.6742,25.0669,昆明市,金鼎山,,40,25,43,11,19,132,128,97,97,8,20,7,41,0.4,0.5
2023-09-03T15:00:00,1455A,102.6644,25.0401,昆明市,碧鸡广场,,41,13,32,14,18,137,131,106,106,5,12,7,23,0.3,0.4
2023-09-03T15:00:00,1456A,91.1319,29.6514,拉萨市,八廓街,,44,17,16,12,8,160,139,100,100,9,18,7,7,0.3,0.3
2023-09-03T15:00:00,1457A,91.1221,29.6747,拉萨市,市环保局,,40,10,20,6,9,155,126,85,85,15,22,7,7,0.1,0.3
2023-09-03T15:00:00,1458A,91.0874,29.6475,拉萨市,区监测站,,41,11,17,7,8,153,130,89,89,8,22,8,8,0.2,0.3
2023-09-03T15:00:00,1459A,91.1774,29.6541,拉萨市,西藏大学,,42,13,12,6,6,155,134,97,97,5,9,8,8,0.2,0.3
2023-09-03T15:00:00,1460A,90.9798,29.6588,拉萨市,区辐射站,,39,10,21,6,9,146,124,81,81,7,22,10,11,0.1,0.2
2023-09-03T15:00:00,1461A,91.0834,29.6292,拉萨市,拉萨火车站,,40,10,23,5,10,151,128,85,85,5,19,6,6,0.1,0.2
2023-09-03T15:00:00,1462A,108.882,34.2749,西安市,高压开关厂,臭氧1小时,116,73,63,30,31,232,231,137,137,16,28,9,9,0.6,0.6
2023-09-03T15:00:00,1463A,108.993,34.2629,西安市,兴庆小区,臭氧1小时,117,61,53,28,27,234,234,116,116,18,26,7,7,0.7,0.6
2023-09-03T15:00:00,1464A,109.06,34.2572,西安市,纺织城,臭氧1小时,114,67,60,31,33,228,228,113,113,23,36,5,5,0.6,0.6
2023-09-03T15:00:00,1465A,108.9356,34.2173,西安市,小寨,臭氧1小时,125,65,55,31,24,249,249,126,126,14,22,6,6,0.7,0.6
2023-09-03T15:00:00,1466A,108.954,34.2713,西安市,市人民体育场,臭氧1小时,116,63,56,35,31,231,231,128,128,16,25,8,8,0.6,0.6
2023-09-03T15:00:00,1467A,108.8922,34.2322,西安市,高新西区,臭氧1小时,126,58,52,33,30,252,252,135,135,20,26,7,7,0.7,0.6
2023-09-03T15:00:00,1468A,108.935,34.3474,西安市,经开区,臭氧1小时,90,53,54,23,26,192,192,114,114,13,19,4,4,0.6,0.6
2023-09-03T15:00:00,1469A,108.906,34.1546,西安市,长安区,臭氧1小时,122,71,61,33,28,255,243,128,128,16,29,8,8,0.5,0.4
2023-09-03T15:00:00,1471A,109.2186,34.3731,西安市,临潼区,臭氧1小时,90,54,52,30,29,192,192,113,113,13,22,7,6,0.4,0.4
2023-09-03T15:00:00,1472A,108.869,34.378,西安市,草滩,臭氧1小时,103,41,52,9,16,205,205,130,130,13,29,12,12,0.7,0.7
2023-09-03T15:00:00,1473A,108.985,34.1978,西安市,曲江文化产业集团,臭氧1小时,124,48,60,35,24,247,247,123,123,19,34,6,6,0.8,0.7
2023-09-03T15:00:00,1474A,109.051,34.3213,西安市,广运潭,臭氧1小时,102,61,55,28,29,204,204,103,103,18,26,8,8,0.6,0.6
2023-09-03T15:00:00,1476A,103.631,36.1031,兰州市,兰炼宾馆,臭氧1小时,97,47,66,19,27,208,197,124,124,15,21,9,18,0.5,0.4
2023-09-03T15:00:00,1477A,104.1373,35.9454,兰州市,榆中兰大校区,,,,,,,,,,,,,,,,
2023-09-03T15:00:00,1478A,103.8412,36.0726,兰州市,生物制品所,臭氧1小时,52,39,80,19,30,161,161,88,88,16,36,7,8,0.5,0.7
2023-09-03T15:00:00,1479A,103.831,36.0464,兰州市,铁路设计院,"颗粒物(PM10),臭氧1小时",53,55,84,19,33,162,162,97,97,28,51,8,10,0.5,0.7
2023-09-03T15:00:00,1483A,101.524,36.6867,西宁市,第五水厂,,,,,,,,,,,,,,,,
2023-09-03T15:00:00,1484A,105.9512,38.6016,银川市,贺兰山马莲口,臭氧1小时,52,36,30,15,15,161,161,126,122,9,9,11,17,0.3,0.4
2023-09-03T15:00:00,1488A,106.2328,38.4975,银川市,贺兰山东路,臭氧1小时,119,66,75,27,28,237,237,122,122,22,50,16,15,0.6,0.8
2023-09-03T15:00:00,1489A,106.1358,38.5036,银川市,学院路,臭氧1小时,90,46,59,9,17,192,192,100,100,12,38,12,12,0.6,0.6
2023-09-03T15:00:00,1490A,87.5801,43.8303,乌鲁木齐市,监测站,颗粒物(PM10),57,63,56,19,10,134,134,61,61,14,32,6,6,0.3,0.5
2023-09-03T15:00:00,1491A,87.6046,43.768,乌鲁木齐市,收费所,颗粒物(PM10),57,63,57,23,18,145,145,64,64,20,34,5,4,0.4,0.4
2023-09-03T15:00:00,1492A,87.4754,43.9469,乌鲁木齐市,新疆农科院农场,,34,30,66,10,16,120,106,55,55,16,38,4,4,0.4,0.4
2023-09-03T15:00:00,1493A,87.5525,43.8711,乌鲁木齐市,铁路局,颗粒物(PM10),57,63,58,20,16,135,135,59,56,13,32,5,5,0.4,0.5
2023-09-03T15:00:00,1494A,87.6432,43.831,乌鲁木齐市,三十一中学,颗粒物(PM10),56,62,52,14,12,128,128,75,75,7,19,7,7,0.2,0.2
2023-09-03T15:00:00,1496A,87.7216,44.1747,乌鲁木齐市,米东区环保局,,36,26,44,7,15,118,114,72,72,1,13,7,9,0.3,0.5
2023-09-03T15:00:00,1508A,112.9433,27.8614,湘潭市,板塘,,35,22,47,24,22,142,92,90,88,12,15,6,7,0.7,0.7
2023-09-03T15:00:00,1511A,112.9118,27.8403,湘潭市,市监测站,,27,20,39,17,28,136,86,91,82,10,13,4,5,0.6,0.6
2023-09-03T15:00:00,1512A,112.8937,27.8728,湘潭市,江麓,,30,26,46,21,30,141,85,93,80,16,16,7,9,0.3,0.4
2023-09-03T15:00:00,1513A,112.9227,27.8159,湘潭市,岳塘,,29,18,45,20,29,140,91,98,84,13,17,6,7,0.3,0.4
2023-09-03T15:00:00,1514A,112.9074,27.9119,湘潭市,科大,,29,29,50,20,31,136,83,87,82,9,11,4,5,0.5,0.5
2023-09-03T15:00:00,1515A,113.135,27.8244,株洲市,天台山庄,,29,10,46,8,26,155,90,94,91,10,18,5,6,0.6,0.7
2023-09-03T15:00:00,1518A,113.095,27.8867,株洲市,株冶医院,,26,11,46,6,28,152,82,83,83,11,19,3,4,0.6,0.7
2023-09-03T15:00:00,1519A,113.167,27.8667,株洲市,市四中,,28,11,51,11,30,146,88,86,86,10,20,6,8,0.5,0.6
2023-09-03T15:00:00,1520A,113.143,27.8381,株洲市,火车站,,30,13,46,9,27,152,93,94,94,11,18,5,6,0.5,0.5
2023-09-03T15:00:00,1524A,113.13,27.8528,株洲市,市监测站,,30,11,46,11,30,156,93,92,92,9,18,4,7,0.8,0.8
2023-09-03T15:00:00,1552A,106.805,26.3003,贵阳市,桐木岭,,,,,,,,,,,,,,,,
2023-09-03T15:00:00,1559A,113.251,27.8336,株洲市,大京风景区,,30,12,42,10,28,130,95,87,87,3,7,5,5,0.5,0.6
2023-09-03T15:00:00,1562A,113.0048,27.9153,湘潭市,昭山,,31,31,48,20,28,157,78,88,88,14,17,4,5,0.6,0.7
2023-09-03T15:00:00,1564A,112.4876,27.9164,湘潭市,韶山,,34,34,43,10,23,142,92,124,82,7,9,6,7,0.4,0.4
2023-09-03T15:00:00,1585A,109.8756,40.6532,包头市,市环境监测站,,48,36,46,15,28,178,151,115,115,10,34,8,18,0.5,0.8
2023-09-03T15:00:00,1587A,109.9991,40.5842,包头市,包头八中,,50,42,53,8,31,180,160,111,111,11,27,13,32,0.7,0.8
2023-09-03T15:00:00,1588A,109.8538,40.6821,包头市,青山宾馆,,44,27,51,5,37,180,139,100,100,7,37,8,18,0.5,1
2023-09-03T15:00:00,1589A,109.8642,40.6288,包头市,惠龙物流,,47,39,48,21,25,184,149,111,111,10,28,9,24,0.5,0.8
2023-09-03T15:00:00,1590A,110.0377,40.5546,包头市,东河鸿龙湾,臭氧1小时,55,32,42,20,24,186,164,116,116,10,28,12,22,0.6,0.7
2023-09-03T15:00:00,1591A,110.0023,39.8129,鄂尔多斯市,综合楼,,41,34,55,7,17,150,130,93,93,12,28,14,13,0.4,0.6
2023-09-03T15:00:00,1592A,109.9486,39.8261,鄂尔多斯市,巴音孟克林场办事处,,45,36,43,12,19,163,141,113,113,9,20,14,13,0.4,0.6
2023-09-03T15:00:00,1593A,109.7736,39.5986,鄂尔多斯市,康泽苑,,41,22,38,7,20,143,129,92,92,7,22,10,9,0.4,0.5
2023-09-03T15:00:00,1594A,109.8119,39.5989,鄂尔多斯市,华泰汽车城,,42,41,43,17,22,135,133,88,88,9,27,10,7,0.4,0.5
2023-09-03T15:00:00,1595A,109.9734,39.7884,鄂尔多斯市,奥林花园,,41,36,54,9,20,150,131,91,91,7,38,14,10,0.5,0.8
2023-09-03T15:00:00,1597A,122.2703,40.7094,营口市,大庆路,,46,27,36,16,25,197,147,102,102,12,16,5,10,0.6,1
2023-09-03T15:00:00,1598A,122.2150,40.6511,营口市,镜湖西路,,45,29,37,10,19,188,144,98,98,10,18,7,9,0.5,0.8
2023-09-03T15:00:00,1599A,122.1658,40.6789,营口市,西炮台,,46,32,37,13,17,193,146,97,97,15,20,7,8,0.6,0.8
2023-09-03T15:00:00,1600A,124.3303,40.0625,丹东市,江湾东路,,33,25,30,16,19,145,105,80,80,6,15,8,8,0.6,0.8
2023-09-03T15:00:00,1601A,124.4256,40.1503,丹东市,临江后街,,34,26,26,12,11,114,107,80,80,7,16,6,6,0.5,0.6
2023-09-03T15:00:00,1602A,124.3933,40.1461,丹东市,元宝山,,36,36,33,18,16,99,93,69,69,8,16,9,9,1.0,1.1
2023-09-03T15:00:00,1603A,124.3633,40.1092,丹东市,民主桥,,35,26,30,14,18,126,109,80,80,4,20,6,5,0.6,0.8
2023-09-03T15:00:00,1604A,122.0303,41.1489,盘锦市,开发区,臭氧1小时,53,32,29,11,22,169,162,162,128,14,17,4,5,0.8,1.1
2023-09-03T15:00:00,1605A,122.0485,41.0883,盘锦市,兴隆台,臭氧1小时,52,33,32,12,20,162,161,155,122,12,17,6,7,0.5,0.8
2023-09-03T15:00:00,1606A,121.8297,41.1028,盘锦市,新生街道,臭氧1小时,64,33,29,15,18,175,171,134,134,15,16,8,7,0.5,0.8
2023-09-03T15:00:00,1607A,120.9092,40.7136,葫芦岛市,龙港区,,45,32,28,19,14,226,141,144,122,5,8,7,8,0.5,0.6
2023-09-03T15:00:00,1608A,120.8392,40.7514,葫芦岛市,化工街,,39,34,29,21,17,178,123,113,111,7,13,7,8,0.4,0.6
2023-09-03T15:00:00,1609A,120.8341,40.7073,葫芦岛市,新区,,39,34,30,19,16,193,122,119,109,4,10,5,6,0.7,0.9
2023-09-03T15:00:00,1610A,120.8695,40.7677,葫芦岛市,东城区,,40,23,32,18,19,192,127,114,114,11,21,6,9,0.5,0.7
2023-09-03T15:00:00,1611A,118.5819,24.9117,泉州市,涂山街,,20,20,15,4,5,76,52,50,50,3,4,4,4,0.6,0.6
2023-09-03T15:00:00,1612A,118.5972,24.8978,泉州市,津头埔,,16,13,11,5,6,76,50,49,49,7,7,3,4,0.4,0.4
2023-09-03T15:00:00,1613A,118.6663,24.9424,泉州市,万安,,29,29,17,8,7,81,53,51,51,5,6,2,2,0.5,0.5
2023-09-03T15:00:00,1614A,118.6117,24.9604,泉州市,清源山,,,,,,,,,,,,,,,,
2023-09-03T15:00:00,1616A,117.6795,36.229,济南市,技术学院,臭氧1小时,101,66,68,31,33,206,202,152,152,9,23,8,9,1.2,1.2
2023-09-03T15:00:00,1618A,118.3429,35.0532,临沂市,沂河小区,,,46,50,22,28,196,150,146,146,13,16,6,7,,0.4
2023-09-03T15:00:00,1619A,118.295,35.0583,临沂市,鲁南制药厂,臭氧1小时,87,48,52,18,26,216,189,132,132,11,12,4,6,0.3,0.4
2023-09-03T15:00:00,1620A,118.2794,34.9976,临沂市,新光毛纺厂,臭氧1小时,60,44,40,22,28,173,168,118,118,11,15,7,11,0.5,0.6
2023-09-03T15:00:00,1621A,118.3956,35.0888,临沂市,河东保险公司,,46,36,45,20,23,187,146,101,101,6,16,3,4,0.4,0.5
2023-09-03T15:00:00,1622A,116.3032,37.4674,德州市,儿童乐园,臭氧1小时,82,53,77,27,49,200,185,162,162,9,12,9,10,0.7,0.8
2023-09-03T15:00:00,1624A,116.2991,37.4451,德州市,监理站,臭氧1小时,73,56,80,27,51,190,178,153,153,12,16,6,7,0.5,0.7
2023-09-03T15:00:00,1625A,115.9848,36.4372,聊城市,区政府,臭氧1小时,88,62,74,36,53,194,190,163,163,3,8,4,5,0.5,0.5
2023-09-03T15:00:00,1628A,118.0062,37.3803,滨州市,市环保局,臭氧1小时,87,77,78,53,43,190,189,152,152,4,33,4,10,0.4,0.6
2023-09-03T15:00:00,1629A,118.0018,37.3617,滨州市,第二水厂,臭氧1小时,95,75,75,48,42,196,196,151,151,1,37,1,6,0.8,0.8
2023-09-03T15:00:00,1630A,117.9776,37.393,滨州市,北中新校,臭氧1小时,93,78,81,50,43,201,194,159,159,8,33,6,12,0.6,0.7
2023-09-03T15:00:00,1631A,118.0414,36.8103,淄博市,人民公园,臭氧1小时,121,68,69,41,35,242,242,179,179,7,24,6,9,0.5,0.7
2023-09-03T15:00:00,1633A,117.8525,36.4847,淄博市,双山,臭氧1小时,93,53,58,33,36,230,194,155,155,8,14,8,9,0.5,0.7
2023-09-03T15:00:00,1634A,117.9592,36.6331,淄博市,气象站,臭氧1小时,90,47,58,36,38,214,192,160,160,5,15,6,9,0.2,0.3
2023-09-03T15:00:00,1635A,118.3092,36.8194,淄博市,莆田园,臭氧1小时,113,68,79,48,43,236,226,188,188,14,30,4,11,0.6,1.2
2023-09-03T15:00:00,1637A,117.558,34.8438,枣庄市,市中区政府,臭氧1小时,102,75,77,39,47,225,203,129,129,21,25,12,12,0.4,0.5
2023-09-03T15:00:00,1638A,117.2852,34.7837,枣庄市,薛城环保局,臭氧1小时,90,71,81,48,51,208,192,133,133,14,26,10,11,0.7,0.8
2023-09-03T15:00:00,1639A,117.5852,34.7745,枣庄市,峄城区政府,臭氧1小时,75,63,73,27,41,218,180,131,131,13,17,10,12,0.6,0.7
2023-09-03T15:00:00,1640A,117.7276,34.5578,枣庄市,台儿庄区环保局,,46,36,55,17,34,185,147,113,113,14,17,10,9,0.5,0.7
2023-09-03T15:00:00,1641A,117.4518,35.0992,枣庄市,山亭区环保局,臭氧1小时,62,46,57,32,42,176,169,119,119,14,16,12,10,0.5,0.6
2023-09-03T15:00:00,1642A,121.2514,37.5639,烟台市,开发区,,39,34,29,12,14,129,124,102,102,16,23,5,4,0.6,0.7
2023-09-03T15:00:00,1643A,121.3719,37.5433,烟台市,轴承厂,,44,22,28,13,16,144,139,113,113,5,19,6,5,0.3,0.4
2023-09-03T15:00:00,1644A,121.3181,37.5436,烟台市,西郊化工站,,45,19,30,9,14,144,144,117,117,6,20,9,8,0.5,0.6
2023-09-03T15:00:00,1645A,121.4478,37.4822,烟台市,莱山环保局,,47,14,18,11,11,151,148,117,117,2,9,6,6,0.5,0.5
2023-09-03T15:00:00,1646A,121.2611,37.4967,烟台市,福山环保局,,45,41,40,12,10,145,141,101,101,15,28,10,11,0.7,0.7
2023-09-03T15:00:00,1650A,119.1437,36.7023,潍坊市,环保局,,,,,,,,,,,,,,,,
2023-09-03T15:00:00,1653A,116.6251,35.4302,济宁市,火炬城,臭氧1小时,77,69,78,31,34,200,181,132,132,5,16,6,8,0.7,0.8
2023-09-03T15:00:00,1655A,116.5491,35.4042,济宁市,电化厂,臭氧1小时,72,75,86,31,36,186,177,132,132,6,18,8,9,0.8,0.8
2023-09-03T15:00:00,1656A,117.1437,36.1937,泰安市,监测站,臭氧1小时,89,73,78,46,53,202,191,159,159,6,15,8,10,0.5,0.7
2023-09-03T15:00:00,1657A,117.0885,36.2017,泰安市,人口学校,臭氧1小时,85,58,67,33,42,194,188,158,158,12,17,5,7,0.7,0.7
2023-09-03T15:00:00,1658A,117.1089,36.1758,泰安市,电力学校,臭氧1小时,95,63,75,34,45,203,196,159,159,2,15,8,10,0.5,0.6
2023-09-03T15:00:00,1659A,119.471,35.4209,日照市,监测站,,43,19,25,9,16,141,136,82,82,13,40,6,6,0.4,0.6
2023-09-03T15:00:00,1660A,119.523,35.4216,日照市,市政府广场,,38,14,23,7,13,145,120,94,94,8,22,6,5,0.4,0.5
2023-09-03T15:00:00,1661A,119.5587,35.4044,日照市,港务局,,37,12,24,7,15,148,118,105,105,6,17,7,7,0.4,0.4
2023-09-03T15:00:00,1662A,122.1214,37.4236,威海市,华夏技校,,34,29,24,12,16,128,107,95,86,16,22,7,7,0.4,0.6
2023-09-03T15:00:00,1663A,122.0508,37.5236,威海市,山大分校,,,17,28,12,16,154,111,101,101,8,22,,11,0.4,0.8
2023-09-03T15:00:00,1664A,122.1067,37.5072,威海市,市监测站,,35,27,27,24,16,136,108,92,92,12,21,11,11,0.5,0.8
2023-09-03T15:00:00,1666A,118.6614,37.4309,东营市,市环保局,臭氧1小时,111,85,54,58,33,222,222,165,165,9,14,21,21,0.5,0.4
2023-09-03T15:00:00,1669A,113.5824,24.7733,韶关市,市八中,,30,22,29,21,19,82,76,70,70,3,7,10,10,0.5,0.6
2023-09-03T15:00:00,1671A,113.5917,24.7972,韶关市,园林处,,25,19,27,14,18,79,79,71,71,1,4,11,9,0.6,0.7
2023-09-03T15:00:00,1672A,113.6735,24.7791,韶关市,韶关学院,,21,14,29,13,19,69,65,60,60,2,8,7,8,0.4,0.5
2023-09-03T15:00:00,1673A,113.5971,24.6863,韶关市,曲江监测站,,26,17,29,18,20,77,75,65,65,2,9,7,8,0.5,0.6
2023-09-03T15:00:00,1674A,116.6794,23.3667,汕头市,金平子站,,25,14,25,6,15,79,79,51,51,14,22,7,7,0.7,0.8
2023-09-03T15:00:00,1675A,116.7244,23.3633,汕头市,龙湖子站,,24,10,27,16,26,101,74,64,64,9,18,6,9,0.6,0.7
2023-09-03T15:00:00,1676A,116.7258,23.2775,汕头市,濠江子站,,27,18,27,12,36,118,84,69,69,7,14,8,12,0.5,0.4
2023-09-03T15:00:00,1677A,116.7519,23.4714,汕头市,澄海子站,,,,38,,,78,59,49,49,7,22,2,7,0.4,0.2
2023-09-03T15:00:00,1678A,116.6092,23.2539,汕头市,潮阳子站,,22,16,30,8,38,96,69,61,61,6,9,9,8,0.4,0.4
2023-09-03T15:00:00,1680A,110.3539,21.2706,湛江市,湛江影剧院,,34,16,17,11,11,108,108,86,86,8,9,7,7,0.7,0.7
2023-09-03T15:00:00,1681A,110.3928,21.2228,湛江市,市环境监测站,,31,14,14,9,14,101,99,82,82,10,9,7,6,0.6,0.6
2023-09-03T15:00:00,1682A,110.4019,21.1997,湛江市,环保局宿舍,,31,12,16,7,12,98,98,83,83,7,8,5,6,0.9,0.9
2023-09-03T15:00:00,1683A,110.4111,21.2028,湛江市,霞山游泳场,,29,9,15,7,12,97,92,86,86,16,9,6,6,0.8,0.7
2023-09-03T15:00:00,1684A,110.3316,21.2679,湛江市,麻章区环保局,,32,16,18,9,16,100,100,81,81,7,9,5,5,0.7,0.8
2023-09-03T15:00:00,1685A,110.4558,21.2567,湛江市,坡头区环保局,,36,13,14,10,12,117,115,95,95,6,8,7,6,0.8,0.7
2023-09-03T15:00:00,1686A,111.0286,21.4688,茂名市,电白南海,,37,17,17,9,11,121,116,98,98,5,6,7,7,0.7,0.7
2023-09-03T15:00:00,1687A,110.9294,21.6533,茂名市,茂石化七小,,23,14,13,14,12,92,72,76,76,6,7,6,7,0.6,0.6
2023-09-03T15:00:00,1688A,110.9107,21.6687,茂名市,健康路,,25,12,10,5,7,99,80,82,82,4,5,4,5,0.6,0.6
2023-09-03T15:00:00,1689A,110.8592,21.6828,茂名市,高岭,,28,14,15,19,13,104,78,83,83,8,11,6,9,0.7,0.8
2023-09-03T15:00:00,1690A,116.1231,24.3284,梅州市,梅江月梅,,18,15,20,8,8,58,55,38,38,6,14,2,3,0.5,0.6
2023-09-03T15:00:00,1691A,116.0797,24.2719,梅州市,梅县新城,,,18,19,10,8,56,50,47,47,,14,6,6,0.6,0.7
2023-09-03T15:00:00,1692A,116.1248,24.2654,梅州市,环境监控中心,,19,15,25,9,11,64,60,44,44,4,13,7,7,0.5,0.5
2023-09-03T15:00:00,1693A,115.3653,22.775,汕尾市,市环保局,,30,20,28,10,13,102,95,67,67,6,12,6,7,0.5,0.6
2023-09-03T15:00:00,1694A,115.3706,22.7898,汕尾市,市政府,,31,19,24,16,24,104,97,74,74,5,6,6,8,0.8,0.9
2023-09-03T15:00:00,1695A,115.3622,22.7925,汕尾市,新城中学,,26,9,22,10,10,98,82,66,66,4,5,6,6,0.6,0.7
2023-09-03T15:00:00,1696A,114.6778,23.7569,河源市,源西,,25,25,22,13,15,65,56,49,49,3,11,5,5,0.6,0.7
2023-09-03T15:00:00,1697A,114.6944,23.7586,河源市,东埔,,19,15,24,13,12,67,56,50,50,5,10,5,5,0.6,0.6
2023-09-03T15:00:00,1698A,114.6892,23.7233,河源市,老城,,24,24,23,12,10,65,61,52,52,5,11,4,4,0.5,0.6
2023-09-03T15:00:00,1699A,111.9797,21.8593,阳江市,鸳鸯湖,,26,23,15,18,15,81,69,79,60,3,4,4,4,0.6,0.7
2023-09-03T15:00:00,1701A,111.9491,21.8658,阳江市,马南垌,,21,16,12,12,11,83,67,74,60,4,3,5,5,0.4,0.4
2023-09-03T15:00:00,1702A,113.0426,23.691,清远市,环保大楼,,,14,19,17,17,81,72,64,64,,3,6,8,0.6,0.7
2023-09-03T15:00:00,1703A,113.0208,23.7106,清远市,凤城街办,,25,20,25,17,16,68,62,56,56,4,7,10,7,0.5,0.7
2023-09-03T15:00:00,1705A,116.6367,23.6719,潮州市,西园路,,20,18,19,14,9,41,35,25,25,5,9,3,4,0.3,0.4
2023-09-03T15:00:00,1706A,116.6447,23.6706,潮州市,档案局,,24,24,22,6,8,50,50,36,36,3,8,5,6,0.4,0.6
2023-09-03T15:00:00,1708A,116.3701,23.5345,揭阳市,新兴,,24,24,28,12,13,68,66,46,46,1,14,6,13,0.5,0.8
2023-09-03T15:00:00,1709A,116.3264,23.5443,揭阳市,西马,,21,16,27,6,14,66,66,44,44,3,13,6,10,0.6,0.8
2023-09-03T15:00:00,1710A,116.3611,23.5626,揭阳市,东兴,,20,14,26,9,11,63,63,42,42,7,18,4,7,0.7,0.8
2023-09-03T15:00:00,1711A,116.4151,23.5294,揭阳市,渔湖,,,13,30,,13,84,57,50,50,5,19,4,10,0.5,0.8
2023-09-03T15:00:00,1712A,112.0392,22.9169,云浮市,新市府,,28,28,17,13,10,60,60,44,33,10,11,5,5,1.0,0.8
2023-09-03T15:00:00,1714A,112.0539,22.9539,云浮市,牧羊,,47,47,19,17,12,70,61,49,43,14,12,12,6,0.7,0.6
2023-09-03T15:00:00,1715A,102.575,24.3711,玉溪市,东风水库,,42,16,23,13,15,134,134,89,89,5,9,5,6,0.6,0.7
2023-09-03T15:00:00,1718A,115.4208,35.2464,菏泽市,气象局,臭氧1小时,95,68,82,41,51,196,196,170,170,9,19,4,12,0.5,0.6
2023-09-03T15:00:00,1719A,115.4747,35.2375,菏泽市,市政协,臭氧1小时,99,74,79,47,51,206,199,178,178,6,11,6,9,0.6,0.6
2023-09-03T15:00:00,1721A,113.3819,40.1097,大同市,果树场,,,,,,,,,,,,,,,,
2023-09-03T15:00:00,1723A,113.2994,40.0758,大同市,云冈宾馆,臭氧1小时,68,23,31,25,20,174,174,122,122,14,20,11,10,0.6,0.7
2023-09-03T15:00:00,1724A,113.3444,40.0917,大同市,大同大学,臭氧1小时,59,38,34,16,19,167,167,113,113,13,19,12,19,0.6,0.6
2023-09-03T15:00:00,1725A,113.2661,40.1269,大同市,安家小村,,48,31,32,14,16,167,153,109,109,7,17,13,13,0.4,0.7
2023-09-03T15:00:00,1726A,113.2711,40.0844,大同市,教育学院,臭氧1小时,63,46,38,22,21,175,170,115,115,14,26,10,8,0.6,0.7
2023-09-03T15:00:00,1727A,113.1147,36.1547,长治市,清华站,臭氧1小时,62,29,40,14,27,173,169,143,143,8,14,11,11,0.5,0.6
2023-09-03T15:00:00,1728A,113.1031,36.1989,长治市,监测站,臭氧1小时,67,31,45,17,30,173,173,147,147,12,17,6,7,0.6,0.7
2023-09-03T15:00:00,1730A,113.0886,36.2125,长治市,审计局,,49,30,44,22,36,158,156,132,131,14,18,8,8,0.4,0.9
2023-09-03T15:00:00,1731A,113.0844,36.1856,长治市,长治八中,,50,24,46,15,26,158,157,136,136,9,17,11,11,0.4,0.6
2023-09-03T15:00:00,1733A,111.5531,36.0783,临汾市,临钢医院,,,50,51,20,20,181,165,110,110,10,21,,11,0.8,0.8
2023-09-03T15:00:00,1734A,111.5028,36.0714,临汾市,技工学校,颗粒物(PM10),52,54,60,24,29,166,148,108,108,8,21,9,11,0.6,0.8
2023-09-03T15:00:00,1736A,111.5018,36.0855,临汾市,市委,,45,36,60,18,24,158,141,104,104,9,21,9,11,0.5,0.6
2023-09-03T15:00:00,1738A,113.5758,37.8572,阳泉市,市中心,臭氧1小时,77,21,44,16,30,181,181,128,127,12,22,12,10,0.7,1
2023-09-03T15:00:00,1739A,113.4894,37.8731,阳泉市,赛鱼,臭氧1小时,63,30,49,15,31,170,170,116,116,13,29,11,11,0.7,0.8
2023-09-03T15:00:00,1740A,113.5819,37.8486,阳泉市,南庄,臭氧1小时,80,46,64,23,31,184,184,132,126,13,20,13,13,0.7,0.9
2023-09-03T15:00:00,1742A,113.5614,37.8703,阳泉市,平坦,臭氧1小时,83,31,52,13,27,186,186,130,130,13,23,12,11,0.6,0.8
2023-09-03T15:00:00,1743A,113.5158,37.8392,阳泉市,大阳泉,臭氧1小时,68,18,37,25,37,174,174,125,125,15,19,12,11,0.6,0.8
2023-09-03T15:00:00,1744A,118.9233,42.2816,赤峰市,松山一中,,41,24,27,8,14,139,130,127,127,20,19,9,10,0.4,0.5
2023-09-03T15:00:00,1745A,118.9576,42.2728,赤峰市,哈达街,,41,20,31,11,18,134,130,120,120,16,18,14,15,0.4,0.4
2023-09-03T15:00:00,1746A,118.8788,42.2554,赤峰市,天义路,,45,17,23,4,16,146,141,137,137,10,13,8,11,0.3,0.4
2023-09-03T15:00:00,1748A,123.044,41.1196,鞍山市,深沟寺,,37,19,32,8,17,141,116,100,89,10,14,6,6,0.5,0.8
2023-09-03T15:00:00,1749A,123.011,41.0931,鞍山市,太阳城,,36,20,38,10,21,132,113,90,90,9,14,8,7,0.5,1
2023-09-03T15:00:00,1750A,123.0485,41.1442,鞍山市,太平,,36,20,43,8,19,154,113,108,93,13,19,8,10,0.4,0.9
2023-09-03T15:00:00,1751A,122.9642,41.0971,鞍山市,铁西三道街,,36,22,52,8,22,146,113,89,84,11,27,9,9,0.5,1.1
2023-09-03T15:00:00,1752A,122.9341,41.0833,鞍山市,铁西工业园区,,39,26,53,10,25,154,122,95,95,8,25,12,10,0.6,1.1
2023-09-03T15:00:00,1753A,123.022,41.0821,鞍山市,明达新区,,34,25,41,9,21,146,108,96,88,10,19,5,6,0.5,1
2023-09-03T15:00:00,1754A,123.1289,41.0228,鞍山市,千山,,,,,,,,,,,,,,,,
2023-09-03T15:00:00,1755A,123.7977,41.8491,抚顺市,望花区,,37,32,55,12,27,152,116,92,92,10,27,11,12,0.3,0.7
2023-09-03T15:00:00,1756A,123.9161,41.8822,抚顺市,顺城区,,44,42,41,14,20,152,138,95,95,15,29,8,8,0.6,0.6
2023-09-03T15:00:00,1757A,124.0436,41.8611,抚顺市,东洲区,,42,31,27,13,13,140,132,106,106,7,9,8,7,0.5,0.5
2023-09-03T15:00:00,1758A,123.9247,41.8642,抚顺市,新抚区,,44,34,41,10,14,143,140,95,95,9,24,9,8,0.7,0.6
2023-09-03T15:00:00,1759A,124.0972,41.8961,抚顺市,大伙房水库,,42,20,20,10,11,135,132,92,92,3,7,7,5,0.4,0.4
2023-09-03T15:00:00,1760A,123.7086,41.8391,抚顺市,沈抚新城,,,21,57,10,23,149,114,84,84,6,27,,19,0.4,1.3
2023-09-03T15:00:00,1761A,123.8275,41.3064,本溪市,大峪,,35,24,33,11,10,110,110,78,78,6,18,6,5,0.5,0.6
2023-09-03T15:00:00,1762A,123.7567,41.3325,本溪市,溪湖,,32,30,46,9,17,112,100,74,74,6,20,9,9,0.6,1
2023-09-03T15:00:00,1763A,123.7169,41.3094,本溪市,彩屯,,29,28,54,16,27,105,92,64,64,14,27,13,11,1.3,2
2023-09-03T15:00:00,1764A,123.7669,41.2864,本溪市,东明,,33,18,43,13,18,106,105,78,78,8,29,7,7,0.6,0.8
2023-09-03T15:00:00,1765A,123.7992,41.2664,本溪市,新立屯,,33,22,27,11,10,105,104,81,81,8,27,8,8,0.6,0.6
2023-09-03T15:00:00,1766A,123.8142,41.3472,本溪市,威宁,,30,20,34,10,17,96,96,68,68,8,20,6,6,0.6,0.7
2023-09-03T15:00:00,1767A,121.1115,41.0879,锦州市,南山,,50,50,38,34,27,151,112,111,111,17,23,8,17,0.7,0.8
2023-09-03T15:00:00,1768A,121.0533,40.8434,锦州市,开发区,,42,39,47,20,20,199,133,130,109,15,21,5,33,0.6,0.9
2023-09-03T15:00:00,1769A,121.1836,41.1119,锦州市,百股街道,,38,38,30,19,16,165,116,123,118,11,16,11,26,0.7,0.8
2023-09-03T15:00:00,1770A,121.1178,41.1222,锦州市,天安街道,颗粒物(PM10),68,85,42,14,18,138,114,112,112,18,19,10,16,1.0,1
2023-09-03T15:00:00,1771A,121.1303,41.1386,锦州市,北湖公园,颗粒物(PM10),58,65,37,26,23,149,116,112,112,18,18,12,16,0.7,0.8
2023-09-03T15:00:00,1772A,126.54,43.8622,吉林市,哈达湾,,33,14,25,10,14,121,104,91,91,7,19,7,7,0.5,0.6
2023-09-03T15:00:00,1773A,126.5844,43.8358,吉林市,东局子,,31,17,22,10,12,114,97,83,83,7,13,6,6,0.6,0.6
2023-09-03T15:00:00,1774A,126.5052,43.8245,吉林市,电力学院,,35,20,40,5,18,121,112,88,88,5,22,9,9,0.5,0.7
2023-09-03T15:00:00,1775A,126.6133,43.8972,吉林市,江北,,34,18,29,9,15,117,106,88,88,5,14,9,8,0.6,0.6
2023-09-03T15:00:00,1776A,126.555,43.8306,吉林市,江南公园,,31,20,24,14,15,118,97,86,86,10,18,7,6,0.7,0.7
2023-09-03T15:00:00,1778A,126.7061,43.7133,吉林市,丰满,,,,,,,,,,,,,,,,
2023-09-03T15:00:00,1779A,123.9305,47.3636,齐齐哈尔市,安居小区,,45,45,38,18,11,86,47,78,43,5,10,5,5,0.2,0.3
2023-09-03T15:00:00,1780A,123.9488,47.3386,齐齐哈尔市,中心广场,,21,21,22,8,12,86,44,72,41,6,10,1,4,0.3,0.3
2023-09-03T15:00:00,1781A,123.9483,47.3227,齐齐哈尔市,农牧车辆厂,,39,39,34,9,7,90,45,70,42,6,9,5,7,0.3,0.3
2023-09-03T15:00:00,1783A,123.945,47.2988,齐齐哈尔市,市环境监测站,,34,34,25,12,12,96,46,71,42,6,8,3,4,0.2,0.2
2023-09-03T15:00:00,1784A,129.61,44.561,牡丹江市,环保大楼,,29,26,23,16,12,91,91,62,62,6,14,5,5,0.4,0.4
2023-09-03T15:00:00,1785A,129.6115,44.5782,牡丹江市,文化广场,,28,24,24,8,19,89,89,60,60,9,16,6,6,0.3,0.5
2023-09-03T15:00:00,1786A,129.5904,44.5963,牡丹江市,第一医院,,30,30,27,19,14,88,88,61,61,6,15,5,5,0.2,0.4
2023-09-03T15:00:00,1787A,129.6364,44.6075,牡丹江市,机车工厂,,28,28,25,13,9,91,88,64,64,7,13,2,3,0.4,0.5
2023-09-03T15:00:00,1788A,129.6386,44.5462,牡丹江市,第一中学,,29,28,20,20,8,90,87,61,61,6,12,5,5,0.4,0.4
2023-09-03T15:00:00,1789A,124.81117,46.03138,大庆市,大同区,,45,26,32,24,20,152,141,116,116,10,9,8,7,0.7,0.5
2023-09-03T15:00:00,1790A,125.129,46.533,大庆市,龙凤区,,44,33,30,10,13,139,139,106,106,17,11,5,3,0.5,0.4
2023-09-03T15:00:00,1791A,124.902,46.408,大庆市,红岗区,,49,29,23,10,13,154,154,119,119,8,9,5,4,0.6,0.5
2023-09-03T15:00:00,1792A,125.153,46.586,大庆市,萨尔图区,,46,46,31,24,16,132,132,103,103,12,11,7,6,0.1,0.2
2023-09-03T15:00:00,1793A,124.9042,46.6215,大庆市,让胡路区,,40,22,26,14,10,127,127,108,108,9,10,6,5,0.5,0.4
2023-09-03T15:00:00,1794A,118.3606,31.3519,芜湖市,监测站,,42,34,39,19,27,163,134,121,121,9,13,5,6,0.6,0.6
2023-09-03T15:00:00,1795A,118.3714,31.4134,芜湖市,科创中心,,42,37,47,25,28,163,134,118,118,23,30,7,7,0.7,0.8
2023-09-03T15:00:00,1796A,118.3673,31.3131,芜湖市,四水厂,,,52,45,22,27,170,140,125,125,15,17,4,4,,0.6
2023-09-03T15:00:00,1798A,118.5092,31.6837,马鞍山市,湖东路四小,,46,26,36,17,27,175,147,127,127,17,14,8,10,0.5,0.5
2023-09-03T15:00:00,1799A,118.5024,31.6449,马鞍山市,开发区,,45,33,37,19,24,180,144,129,129,16,14,7,7,0.7,0.7
2023-09-03T15:00:00,1800A,118.5228,31.7231,马鞍山市,慈湖,臭氧1小时,73,44,42,29,25,196,178,134,134,18,14,10,12,0.7,0.6
2023-09-03T15:00:00,1802A,118.6245,31.7241,马鞍山市,濮塘,,44,27,31,19,24,161,139,115,115,5,8,4,4,0.8,0.8
2023-09-03T15:00:00,1803A,115.9872,29.6815,九江市,十里,,37,24,37,18,25,149,116,134,106,11,13,8,9,0.7,0.7
2023-09-03T15:00:00,1804A,115.9584,29.7046,九江市,茅山头,,36,20,35,18,27,147,113,146,106,14,17,8,9,0.7,0.8
2023-09-03T15:00:00,1805A,115.9877,29.7295,九江市,西园,,35,22,32,20,24,154,112,153,110,24,18,9,10,0.6,0.6
2023-09-03T15:00:00,1806A,116.0172,29.6547,九江市,五七二七厂,,35,17,35,20,24,151,110,131,98,14,11,10,10,0.6,0.6
2023-09-03T15:00:00,1808A,115.9114,29.6038,九江市,综合工业园,,41,17,38,16,24,157,130,157,99,19,19,11,12,0.6,0.7
2023-09-03T15:00:00,1809A,116.0721,29.7535,九江市,石化总厂,,38,25,41,22,23,156,119,143,105,12,17,9,9,0.9,0.8
2023-09-03T15:00:00,1810A,115.9773,29.5698,九江市,庐山气象台,,26,24,25,8,21,150,82,118,82,6,27,8,10,0.8,0.7
2023-09-03T15:00:00,1812A,112.3931,34.6516,洛阳市,市委党校,,50,34,48,21,34,161,157,126,119,2,7,8,8,0.2,0.4
2023-09-03T15:00:00,1814A,112.4657,34.6871,洛阳市,豫西宾馆,颗粒物(PM10),81,112,52,21,30,160,160,117,117,6,15,7,5,0.5,0.8
2023-09-03T15:00:00,1815A,112.494,34.6886,洛阳市,河南林校,臭氧1小时,54,32,44,25,29,163,163,119,119,8,17,10,7,0.4,0.4
2023-09-03T15:00:00,1816A,112.3844,34.623,洛阳市,开发区管委会,,48,31,47,19,27,159,153,114,114,5,10,3,3,0.3,0.4
2023-09-03T15:00:00,1817A,112.4267,34.6258,洛阳市,市委新办公区,,48,31,49,22,39,153,153,110,110,2,5,8,6,0.3,0.4
2023-09-03T15:00:00,1818A,114.4839,36.0621,安阳市,棉研所,,,,,,,,,,,,,,,,
2023-09-03T15:00:00,1819A,114.3551,36.1017,安阳市,红庙街,臭氧1小时,78,45,66,16,40,182,182,146,146,3,12,5,6,0.7,0.8
2023-09-03T15:00:00,1820A,114.361,36.0681,安阳市,银杏小区,,,56,62,,,187,187,152,152,2,10,7,8,0.5,0.6
2023-09-03T15:00:00,1824A,114.3389,34.7781,开封市,肿瘤医院,臭氧1小时,60,52,70,26,45,179,168,146,146,2,15,4,4,0.5,0.7
2023-09-03T15:00:00,1826A,114.2885,34.7965,开封市,世纪星幼儿园,,,39,71,,42,180,165,144,144,7,18,6,6,0.5,0.7
2023-09-03T15:00:00,1828A,113.227,35.2125,焦作市,市环保局,臭氧1小时,62,48,61,17,38,193,169,131,131,7,14,4,6,0.4,0.6
2023-09-03T15:00:00,1830A,113.1992,35.2590,焦作市,影视城,,,,,,,,,,,,,,,,
2023-09-03T15:00:00,1832A,113.3257,33.742,平顶山市,新华旅馆,臭氧1小时,72,49,70,31,38,188,177,138,138,10,27,8,5,0.4,0.6
2023-09-03T15:00:00,1833A,113.2919,33.737,平顶山市,规划设计院,臭氧1小时,80,45,60,20,39,184,184,134,134,6,24,7,8,0.5,0.7
2023-09-03T15:00:00,1834A,113.182,33.774,平顶山市,平顶山工学院,臭氧1小时,62,36,71,17,32,177,169,130,130,8,18,6,6,0.5,0.5
2023-09-03T15:00:00,1835A,111.1922,34.7752,三门峡市,市政府,,48,33,42,16,22,154,153,125,125,9,14,5,7,0.5,0.6
2023-09-03T15:00:00,1836A,111.1587,34.7942,三门峡市,开发区,,45,22,46,23,26,148,144,124,124,6,16,4,6,0.4,0.5
2023-09-03T15:00:00,1838A,111.143,34.7955,三门峡市,风景区,,,,,,,,,,,,,,,,
2023-09-03T15:00:00,1840A,111.2992,30.6981,宜昌市,白龙岗,臭氧1小时,52,41,36,14,17,161,161,102,102,11,16,4,2,0.5,0.5
2023-09-03T15:00:00,1841A,111.3549,30.6465,宜昌市,伍家岗,,49,22,26,12,18,156,156,100,100,10,18,6,5,0.4,0.4
2023-09-03T15:00:00,1842A,111.2628,30.6961,宜昌市,点军区,臭氧1小时,60,36,37,19,18,168,168,98,98,13,17,8,7,0.7,0.6
2023-09-03T15:00:00,1843A,111.3275,30.7819,宜昌市,夷陵区,,49,34,34,9,17,156,156,100,100,14,18,6,5,0.4,0.4
2023-09-03T15:00:00,1844A,112.2494,30.3197,荆州市,市图书馆,颗粒物(PM10),51,52,44,33,28,155,150,123,123,10,13,11,10,0.7,0.7
2023-09-03T15:00:00,1845A,112.2008,30.3544,荆州市,市委党校,,48,48,48,33,26,154,148,120,120,13,17,10,11,0.8,0.8
2023-09-03T15:00:00,1847A,113.1094,29.3578,岳阳市,南湖风景区,颗粒物(PM10),56,61,50,39,38,166,95,82,82,15,19,8,9,0.8,0.8
2023-09-03T15:00:00,1848A,113.1493,29.4251,岳阳市,城陵矶,细颗粒物(PM2.5),58,55,55,41,38,148,91,75,75,19,22,9,10,1.0,1
2023-09-03T15:00:00,1849A,113.1497,29.3575,岳阳市,开发区,细颗粒物(PM2.5),59,56,57,42,38,165,74,78,78,14,19,8,10,0.8,0.8
2023-09-03T15:00:00,1850A,113.2621,29.4758,岳阳市,云溪区,细颗粒物(PM2.5),52,48,52,36,38,162,93,81,73,11,14,7,9,0.8,0.7
2023-09-03T15:00:00,1851A,112.9943,29.4402,岳阳市,君山区,细颗粒物(PM2.5),64,58,55,46,44,147,107,79,79,21,15,10,9,0.9,0.8
2023-09-03T15:00:00,1852A,113.2117,29.355,岳阳市,金凤水库,细颗粒物(PM2.5),55,56,52,39,37,176,83,78,78,11,16,4,6,0.7,0.7
2023-09-03T15:00:00,1854A,111.6975,28.9703,常德市,市二中,细颗粒物(PM2.5),55,34,45,39,35,157,107,95,91,11,12,6,7,0.9,0.8
2023-09-03T15:00:00,1857A,111.7158,29.1456,常德市,白鹤山,,26,26,24,8,7,160,65,122,90,2,3,8,8,0.6,0.6
2023-09-03T15:00:00,1858A,110.5319,29.1217,张家界市,永定新区,细颗粒物(PM2.5),69,72,49,50,33,118,99,72,72,21,20,6,6,0.5,0.4
2023-09-03T15:00:00,1859A,110.4697,29.1242,张家界市,电业局,"颗粒物(PM10),细颗粒物(PM2.5)",54,58,40,38,27,138,102,77,76,14,14,5,4,0.5,0.5
2023-09-03T15:00:00,1860A,110.5594,29.3547,张家界市,未央路,,36,35,33,16,20,132,113,76,76,3,8,4,3,0.4,0.4
2023-09-03T15:00:00,1861A,110.4417,29.315,张家界市,袁家界,,35,26,23,18,16,145,111,105,97,5,6,8,8,0.7,0.7
2023-09-03T15:00:00,1862A,110.4144,25.3167,桂林市,电子科大尧山校区,,32,17,28,14,20,108,102,103,103,7,7,4,4,0.7,0.7
2023-09-03T15:00:00,1863A,110.2819,25.2697,桂林市,监测站,,33,17,35,19,20,121,103,99,99,8,11,6,7,0.7,0.7
2023-09-03T15:00:00,1864A,110.3089,25.2708,桂林市,龙隐路小学,,33,18,30,18,24,120,103,100,100,4,8,5,7,0.7,0.7
2023-09-03T15:00:00,1865A,110.2869,25.2178,桂林市,八中,,34,20,32,10,20,126,108,104,104,10,12,4,5,0.6,0.7
2023-09-03T15:00:00,1866A,109.2262,21.588,北海市,牛尾岭水库,,15,10,14,2,12,106,46,74,44,7,8,4,4,0.6,0.6
2023-09-03T15:00:00,1867A,109.1436,21.4086,北海市,海滩公园,,20,11,21,2,10,113,63,89,63,6,6,4,4,0.7,0.6
2023-09-03T15:00:00,1868A,109.0981,21.4661,北海市,新市环保局,,24,14,20,2,13,119,74,94,71,6,6,4,5,0.6,0.6
2023-09-03T15:00:00,1869A,109.1778,21.5233,北海市,北海工业园,,21,10,19,7,14,114,66,91,64,9,8,9,6,0.7,0.7
2023-09-03T15:00:00,1870A,109.4856,24.3895,柳州市,柳东小学,,35,20,24,24,25,204,69,80,75,4,6,9,7,0.5,0.5
2023-09-03T15:00:00,1871A,109.4157,24.3277,柳州市,环保监测站,,35,30,32,24,24,106,54,76,54,26,17,17,8,1.2,0.7
2023-09-03T15:00:00,1872A,109.389,24.341,柳州市,河西水厂,,30,30,37,15,25,87,65,71,68,8,21,6,8,0.5,0.8
2023-09-03T15:00:00,1873A,109.4311,24.2921,柳州市,市四中,,33,33,25,17,18,110,61,83,66,20,14,15,9,1.3,0.8
2023-09-03T15:00:00,1874A,109.4006,24.3631,柳州市,市九中,,49,49,38,28,24,101,40,69,52,38,17,36,11,2.5,1.1
2023-09-03T15:00:00,1875A,109.4958,24.3134,柳州市,古亭山,,,67,31,31,19,109,72,81,76,,8,7,6,0.2,0.5
2023-09-03T15:00:00,1876A,109.5078,18.2489,三亚市,河东子站,,35,24,28,13,14,147,110,84,84,5,7,3,3,0.4,0.5
2023-09-03T15:00:00,1877A,109.4964,18.2681,三亚市,河西子站,,33,21,23,12,14,139,104,80,80,4,6,2,2,0.4,0.3
2023-09-03T15:00:00,1878A,104.7778,31.4741,绵阳市,富乐山,臭氧1小时,107,49,36,29,25,217,213,121,121,11,20,4,4,0.7,0.7
2023-09-03T15:00:00,1879A,104.7563,31.4535,绵阳市,市人大,臭氧1小时,87,51,48,28,29,198,189,106,106,11,36,10,9,0.5,0.7
2023-09-03T15:00:00,1880A,104.6697,31.4668,绵阳市,高新区自来水公司,臭氧1小时,69,39,57,20,29,188,175,108,108,11,39,9,8,0.2,0.4
2023-09-03T15:00:00,1881A,104.7287,31.5075,绵阳市,三水厂,臭氧1小时,80,46,57,30,35,186,184,98,98,16,39,7,7,0.3,0.4
2023-09-03T15:00:00,1882A,104.563,28.793,宜宾市,石马中学,,,,,,,,,,,,,,,,
2023-09-03T15:00:00,1883A,104.6201,28.7728,宜宾市,市委,臭氧1小时,89,34,51,22,31,191,191,127,127,9,24,12,10,0.5,0.6
2023-09-03T15:00:00,1884A,104.6055,28.793,宜宾市,宜宾四中,臭氧1小时,104,34,54,20,35,208,208,138,138,11,24,7,7,0.6,0.7
2023-09-03T15:00:00,1885A,104.639,28.7562,宜宾市,市政府,臭氧1小时,78,52,53,24,32,182,182,128,128,25,36,17,10,0.6,0.7
2023-09-03T15:00:00,1886A,104.5742,28.7199,宜宾市,黄金嘴,臭氧1小时,99,34,43,21,29,199,199,130,130,13,23,10,10,0.5,0.5
2023-09-03T15:00:00,1888A,101.6891,26.571,攀枝花市,弄弄坪,,43,38,36,22,18,136,136,76,76,10,17,11,11,0.8,1.1
2023-09-03T15:00:00,1889A,101.5769,26.5928,攀枝花市,河门口,臭氧1小时,59,31,29,18,17,167,167,78,78,15,20,22,17,1.4,1.5
2023-09-03T15:00:00,1890A,101.7169,26.585,攀枝花市,炳草岗,,47,40,38,18,22,150,150,76,76,10,25,11,15,1.1,1.5
2023-09-03T15:00:00,1891A,101.7369,26.5008,攀枝花市,仁和,,49,31,30,19,17,155,155,89,89,9,14,19,10,0.6,0.8
2023-09-03T15:00:00,1893A,105.4324,28.9634,泸州市,九狮山,,43,37,45,10,25,137,137,84,84,10,17,6,5,0.4,0.5
2023-09-03T15:00:00,1894A,105.4427,28.9063,泸州市,小市上码头,臭氧1小时,67,34,58,33,41,204,173,131,131,8,20,5,6,0.5,0.6
2023-09-03T15:00:00,1895A,105.4241,28.8573,泸州市,兰田宪桥,臭氧1小时,88,32,58,27,46,201,190,126,126,5,15,6,7,0.6,0.6
2023-09-03T15:00:00,1896A,105.4379,28.8833,泸州市,市环监站,臭氧1小时,73,31,55,19,34,178,178,121,121,10,23,5,7,0.4,0.5
2023-09-03T15:00:00,1901A,104.4239,31.1208,德阳市,东山公园,臭氧1小时,74,59,69,23,33,192,179,115,115,8,22,2,14,0.4,0.6
2023-09-03T15:00:00,1902A,104.3826,31.1317,德阳市,西小区,臭氧1小时,84,59,70,26,41,205,187,107,107,12,36,3,17,0.6,0.8
2023-09-03T15:00:00,1904A,104.3553,31.1091,德阳市,耐火材料厂,臭氧1小时,88,58,80,24,41,238,190,111,111,8,30,2,8,0.6,0.8
2023-09-03T15:00:00,1905A,106.056,30.8064,南充市,西山风景区,臭氧1小时,72,19,30,18,26,177,177,156,108,6,8,4,7,0.5,0.5
2023-09-03T15:00:00,1906A,106.0789,30.8023,南充市,南充市委,臭氧1小时,80,43,48,33,38,184,184,118,118,13,21,10,10,0.4,0.5
2023-09-03T15:00:00,1907A,106.1031,30.8217,南充市,南充炼油厂,臭氧1小时,79,32,58,21,32,183,183,101,101,9,23,9,11,0.4,0.5
2023-09-03T15:00:00,1908A,106.1064,30.7856,南充市,高坪区监测站,臭氧1小时,62,24,55,21,40,169,169,109,109,17,30,8,10,0.3,0.4
2023-09-03T15:00:00,1909A,106.0642,30.7636,南充市,嘉陵区环保局,,50,34,57,19,34,160,160,99,99,14,34,8,13,0.5,0.5
2023-09-03T15:00:00,1910A,106.1087,30.8388,南充市,市环境监测站,,50,34,55,22,36,159,157,102,102,10,26,8,9,0.3,0.5
2023-09-03T15:00:00,1911A,106.9222,27.6869,遵义市,丁字口,,35,28,33,9,22,136,109,96,96,24,21,4,5,0.6,0.7
2023-09-03T15:00:00,1912A,106.9242,27.7019,遵义市,凤凰山,,41,30,37,26,32,149,129,108,108,6,15,7,8,0.5,0.6
2023-09-03T15:00:00,1913A,106.8906,27.6486,遵义市,忠庄,,40,30,44,12,22,157,125,108,108,8,15,2,3,0.4,0.6
2023-09-03T15:00:00,1914A,106.9231,27.6506,遵义市,舟水桥,,41,33,46,17,22,150,129,101,101,5,17,2,2,0.6,0.8
2023-09-03T15:00:00,1915A,106.9178,27.72,遵义市,干田坝,,40,12,36,14,26,146,125,106,106,6,16,6,7,0.6,0.7
2023-09-03T15:00:00,1916A,103.7897,25.5035,曲靖市,环境监测站,,35,22,33,12,17,121,110,99,99,8,16,4,8,0.4,0.6
2023-09-03T15:00:00,1917A,103.8,25.5364,曲靖市,烟厂办公区,,36,15,34,5,19,120,114,100,100,5,13,3,8,0.5,0.7
2023-09-03T15:00:00,1918A,108.7197,34.3956,咸阳市,气象站,,,,,,,,,,,,,,,,
2023-09-03T15:00:00,1919A,108.673,34.3155,咸阳市,实验中学,,,,,,,,,,,,,,,,
2023-09-03T15:00:00,1920A,108.7233,34.3617,咸阳市,师范学院,臭氧1小时,83,46,52,20,26,186,186,124,124,12,23,4,4,0.6,0.7
2023-09-03T15:00:00,1922A,109.0656,35.0994,铜川市,党校,,47,38,48,18,24,149,149,97,97,16,24,14,12,0.8,0.7
2023-09-03T15:00:00,1923A,109.0697,35.0697,铜川市,王益区政府,,47,35,40,23,25,151,149,100,100,13,18,7,7,0.6,0.6
2023-09-03T15:00:00,1924A,108.9344,34.9058,铜川市,新区管委会,臭氧1小时,72,53,49,26,27,182,177,121,121,12,18,7,7,0.7,0.7
2023-09-03T15:00:00,1926A,109.4131,36.6275,延安市,枣园,,48,34,34,20,18,152,152,100,100,7,18,7,6,0.4,0.4
2023-09-03T15:00:00,1927A,109.4761,36.6028,延安市,延大医附院,,49,36,36,17,21,155,155,102,102,6,18,5,5,0.5,0.6
2023-09-03T15:00:00,1929A,109.5056,36.6106,延安市,百米大道,,46,45,40,18,20,146,145,103,103,6,17,6,5,0.5,0.6
2023-09-03T15:00:00,1930A,107.185,34.3063,宝鸡市,庙沟村,颗粒物(PM10),51,52,44,24,25,146,143,94,94,8,14,9,8,0.2,0.2
2023-09-03T15:00:00,1931A,107.0708,34.3017,宝鸡市,竹园沟,臭氧1小时,70,47,36,29,26,184,176,111,111,10,15,6,6,0.6,0.6
2023-09-03T15:00:00,1932A,107.1906,34.3672,宝鸡市,三陆医院,颗粒物(PM10),52,53,60,23,33,171,160,102,102,13,24,7,9,0.5,0.6
2023-09-03T15:00:00,1933A,107.1431,34.3547,宝鸡市,监测站,,49,43,48,23,29,172,156,103,103,15,24,8,8,0.5,0.5
2023-09-03T15:00:00,1934A,107.1186,34.3739,宝鸡市,技工学校,,50,47,53,26,35,169,160,116,116,14,18,7,7,0.5,0.6
2023-09-03T15:00:00,1935A,107.3906,34.3528,宝鸡市,陈仓区环保局家属楼,颗粒物(PM10),51,52,66,20,31,170,147,104,104,24,37,8,8,0.6,0.7
2023-09-03T15:00:00,1936A,107.2058,34.3497,宝鸡市,文理学院,,50,43,55,17,29,178,160,104,104,10,20,7,6,0.5,0.6
2023-09-03T15:00:00,1937A,107.2386,34.3622,宝鸡市,三迪小学,,49,46,56,23,33,165,155,103,103,10,21,7,7,0.5,0.6
2023-09-03T15:00:00,1938A,109.5293,34.5101,渭南市,农科所,,48,48,50,27,29,151,146,99,99,8,27,6,5,0.4,0.4
2023-09-03T15:00:00,1939A,109.4974,34.4877,渭南市,日报社,,50,44,50,31,33,163,158,104,104,10,28,5,6,0.4,0.4
2023-09-03T15:00:00,1940A,109.4636,34.493,渭南市,体育馆,臭氧1小时,59,41,49,24,26,167,167,103,103,8,32,4,5,0.5,0.5
2023-09-03T15:00:00,1941A,109.4259,34.5023,渭南市,高新一小,,50,50,52,24,26,158,158,104,104,9,16,6,6,0.5,0.5
2023-09-03T15:00:00,1943A,102.1725,38.5339,金昌市,新川苑,,,,,,,,,,,,,,,,
2023-09-03T15:00:00,1944A,102.1692,38.5167,金昌市,天庆家园,,48,48,47,17,19,141,141,105,105,12,33,22,19,0.4,0.6
2023-09-03T15:00:00,1945A,98.2908,39.7711,嘉峪关市,气象局,,48,48,45,14,16,136,133,93,93,3,20,3,7,0.1,0.2
2023-09-03T15:00:00,1947A,106.3394,38.817,石嘴山市,沙湖旅游区,臭氧1小时,58,40,64,14,22,203,166,106,106,5,23,17,25,0.6,1
2023-09-03T15:00:00,1948A,106.3668,39.0145,石嘴山市,大武口朝阳西街,臭氧1小时,70,63,72,18,24,178,176,105,105,16,49,87,31,0.5,0.8
2023-09-03T15:00:00,1949A,106.7704,39.2282,石嘴山市,惠农南大街,细颗粒物(PM2.5),53,28,63,37,20,160,154,92,92,10,43,14,20,0.5,0.8
2023-09-03T15:00:00,1950A,106.7099,39.1325,石嘴山市,红果子镇惠新街,,49,43,45,13,13,155,155,90,90,11,33,14,15,0.3,0.4
2023-09-03T15:00:00,1951A,84.895,45.6094,克拉玛依市,长征新村,,,30,34,4,6,120,120,89,78,4,9,10,10,,0.2
2023-09-03T15:00:00,1952A,84.8988,45.5893,克拉玛依市,南林小区,,37,36,36,12,11,120,118,72,72,8,23,7,6,0.3,0.4
2023-09-03T15:00:00,1954A,84.905,44.3396,克拉玛依市,独山子区,,40,35,30,13,15,138,125,105,102,4,6,14,10,0.4,0.4
2023-09-03T15:00:00,1955A,85.6979,46.098,克拉玛依市,乌尔禾区商贸楼,,,14,32,3,7,120,100,65,65,2,10,,7,0.2,0.3
2023-09-03T15:00:00,1956A,86.1472,41.7538,巴音郭楞州,孔雀公园,颗粒物(PM10),54,58,78,16,24,133,116,90,90,12,30,9,9,0.2,0.5
2023-09-03T15:00:00,1957A,86.1972,41.7166,巴音郭楞州,棉纺厂,颗粒物(PM10),61,71,91,39,29,147,116,93,93,3,23,5,6,0.2,0.3
2023-09-03T15:00:00,1958A,86.2357,41.7173,巴音郭楞州,经济开发区,颗粒物(PM10),57,64,71,19,19,152,118,104,103,2,7,8,8,0.2,0.2
2023-09-03T15:00:00,1961A,117.532,36.6868,济南市,东山小学,臭氧1小时,108,63,81,42,46,256,215,167,167,10,25,5,7,0.7,0.8
2023-09-03T15:00:00,1966A,120.0405,35.8735,青岛市,黄岛区4号,,41,14,28,9,13,160,129,95,95,8,23,6,6,0.4,0.4
2023-09-03T15:00:00,1982A,122.0693,37.2174,威海市,文登开发区,,36,22,32,7,13,122,115,94,94,7,20,7,7,0.4,0.6
2023-09-03T15:00:00,2031A,113.1817,27.9958,株洲市,云田中学,,29,9,43,6,25,153,92,99,88,7,15,5,7,0.7,0.8
2023-09-03T15:00:00,2054A,114.1099,32.1059,信阳市,平桥分局,,46,34,50,20,31,146,146,109,109,11,16,5,3,0.6,0.8
2023-09-03T15:00:00,2064A,113.9956,32.1271,信阳市,南湾水厂,,46,39,52,18,31,145,145,121,121,6,9,3,3,0.8,0.8
2023-09-03T15:00:00,2065A,114.0775,32.1195,信阳市,市酿酒公司,,49,41,55,23,30,154,154,118,118,13,17,3,3,0.7,0.8
2023-09-03T15:00:00,2066A,114.0609,32.1399,信阳市,审计局,,49,33,54,30,29,155,155,124,124,7,16,4,4,0.7,0.8
2023-09-03T15:00:00,2067A,114.6613,33.6128,周口市,市环境监测站,臭氧1小时,101,49,84,,52,202,202,159,159,11,22,10,19,0.6,0.6
2023-09-03T15:00:00,2068A,114.6758,33.6347,周口市,周口师范,臭氧1小时,88,70,77,36,45,190,190,144,144,3,16,7,6,0.7,0.7
2023-09-03T15:00:00,2069A,114.6546,33.5979,周口市,市运管处,臭氧1小时,85,62,84,37,47,188,188,146,146,12,22,13,25,0.6,0.7
2023-09-03T15:00:00,2070A,114.6369,33.6406,周口市,川汇区环保局,臭氧1小时,85,56,75,31,41,188,188,140,140,7,22,7,8,0.6,0.7
2023-09-03T15:00:00,2075A,117.6336,24.4674,漳州市,九湖,,,,,,,,,,,,,,,,
2023-09-03T15:00:00,2160A,112.85,35.5051,晋城市,自来水公司,臭氧1小时,95,54,71,22,35,196,196,138,138,13,22,10,10,1.0,1
2023-09-03T15:00:00,2161A,112.8318,35.4936,晋城市,白云商贸,臭氧1小时,84,54,78,22,36,187,187,131,131,17,27,10,9,1.0,1.1
2023-09-03T15:00:00,2162A,112.8508,35.4887,晋城市,市环保局,臭氧1小时,70,62,76,24,37,176,176,129,129,17,30,9,9,0.9,0.9
2023-09-03T15:00:00,2163A,112.8676,35.4897,晋城市,技术学院,臭氧1小时,73,37,57,24,32,178,178,133,133,17,29,9,9,1.0,0.9
2023-09-03T15:00:00,2165A,112.8453,35.546,晋城市,白马寺,,,,,,,,,,,,,,,,
2023-09-03T15:00:00,2166A,112.4397,39.3522,朔州市,平朔,,49,49,35,21,16,160,142,106,106,12,18,7,6,0.4,0.5
2023-09-03T15:00:00,2167A,112.4575,39.3617,朔州市,朔唯,,50,50,46,19,19,147,138,99,99,13,19,10,8,0.6,0.4
2023-09-03T15:00:00,2168A,112.4258,39.3197,朔州市,区政府,,,30,37,,14,160,146,104,104,10,18,5,6,0.5,0.6
2023-09-03T15:00:00,2169A,112.4072,39.3278,朔州市,市环保局,,46,46,43,18,16,161,144,105,105,11,21,8,8,0.5,0.5
2023-09-03T15:00:00,2170A,112.4272,39.3681,朔州市,市二中,,41,41,38,21,19,151,120,98,98,12,21,6,7,0.5,0.6
2023-09-03T15:00:00,2171A,112.7532,37.6945,晋中市,锦纶小区,臭氧1小时,82,39,38,18,16,191,185,137,137,11,19,11,11,0.4,0.4
2023-09-03T15:00:00,2173A,112.7249,37.7067,晋中市,南都小区,臭氧1小时,88,44,40,18,19,192,190,137,137,12,18,9,8,0.6,0.6
2023-09-03T15:00:00,2174A,112.6991,37.6982,晋中市,榆次区政府,臭氧1小时,80,41,32,22,18,184,184,130,130,12,21,11,10,0.3,0.4
2023-09-03T15:00:00,2175A,110.9956,35.0147,运城市,运城中学,颗粒物(PM10),57,64,49,26,22,143,141,114,110,7,10,5,6,0.5,0.5
2023-09-03T15:00:00,2178A,110.9686,35.0303,运城市,地区技校,颗粒物(PM10),51,51,44,21,22,137,131,109,109,5,12,5,5,0.3,0.3
2023-09-03T15:00:00,2179A,111.0414,35.1147,运城市,空港新区,颗粒物(PM10),56,61,56,31,30,177,164,135,135,10,18,5,6,0.6,0.6
2023-09-03T15:00:00,2181A,112.7383,38.4519,忻州市,开发区,,45,40,40,31,27,173,141,93,91,10,18,12,16,0.5,0.6
2023-09-03T15:00:00,2182A,112.7003,38.4928,忻州市,会展中心,,45,28,36,17,27,176,142,99,99,9,19,11,12,0.4,0.5
2023-09-03T15:00:00,2183A,111.1406,37.5211,吕梁市,环保局,臭氧1小时,64,43,47,20,18,171,171,97,97,10,31,7,4,0.7,0.7
2023-09-03T15:00:00,2185A,111.1297,37.5136,吕梁市,自来水公司,臭氧1小时,64,46,47,21,18,171,171,98,98,14,26,6,4,0.7,0.8
2023-09-03T15:00:00,2187A,106.8174,39.6973,乌海市,市林业局,,49,27,66,7,22,156,156,98,98,9,35,12,32,0.7,1
2023-09-03T15:00:00,2188A,106.7907,39.6667,乌海市,中海勃湾学校,臭氧1小时,54,36,63,12,25,163,163,100,100,8,44,19,32,0.4,0.9
2023-09-03T15:00:00,2191A,122.2532,43.6801,通辽市,艺术职业学校,,43,32,44,22,17,148,135,134,134,15,15,11,8,0.6,0.6
2023-09-03T15:00:00,2192A,119.7594,49.2261,呼伦贝尔市,区环保局,,36,30,39,25,24,80,46,43,41,9,14,5,4,0.4,0.4
2023-09-03T15:00:00,2195A,107.4212,40.761,巴彦淖尔市,附二中,臭氧1小时,62,55,59,18,18,202,169,113,110,8,24,6,6,0.5,0.6
2023-09-03T15:00:00,2196A,107.37,40.7372,巴彦淖尔市,市环保大楼,"颗粒物(PM10),臭氧1小时",55,60,57,10,18,168,164,98,98,10,17,6,5,0.4,0.5
2023-09-03T15:00:00,2197A,113.1306,40.9923,乌兰察布市,集宁新区,,47,23,29,14,16,151,150,101,101,9,19,10,12,0.4,0.5
2023-09-03T15:00:00,2200A,122.0392,46.0656,兴安盟,胜华新制药厂,,24,24,25,11,12,99,65,73,65,9,12,3,3,0.2,0.2
2023-09-03T15:00:00,2201A,121.9504,46.0741,兴安盟,科右前旗环保局,,,36,32,17,16,96,64,67,67,7,11,2,4,,0.4
2023-09-03T15:00:00,2202A,116.1042,43.9317,锡林郭勒盟,市环保监测站,,36,13,20,10,12,134,114,100,100,3,6,10,10,0.2,0.3
2023-09-03T15:00:00,2203A,116.0781,43.9311,锡林郭勒盟,市政府,,37,10,21,8,6,140,116,103,103,5,10,10,10,0.2,0.3
2023-09-03T15:00:00,2204A,105.6467,38.8363,阿拉善盟,西城区西花园,,36,9,23,9,14,114,114,98,98,6,11,8,7,0.4,0.5
2023-09-03T15:00:00,2205A,105.6985,38.8411,阿拉善盟,蒙二幼,,43,22,26,9,11,135,135,120,120,5,7,7,6,0.3,0.3
2023-09-03T15:00:00,2206A,105.724,38.8516,阿拉善盟,环保局新楼,,41,10,21,11,10,131,131,120,120,5,5,9,8,0.4,0.4
2023-09-03T15:00:00,2207A,121.6094,41.998,阜新市,工业园区,颗粒物(PM10),53,55,46,19,16,144,131,113,113,19,20,9,18,0.8,0.8
2023-09-03T15:00:00,2208A,121.6697,42.0279,阜新市,长青街,,49,49,35,23,17,137,135,119,111,15,17,12,20,0.6,0.6
2023-09-03T15:00:00,2209A,121.6673,42.0705,阜新市,农业园区,,,44,39,27,19,141,134,118,113,,15,11,15,0.9,0.9
2023-09-03T15:00:00,2210A,121.6717,42.0224,阜新市,东苑,,49,49,38,6,8,141,131,120,117,13,14,13,19,0.6,0.6
2023-09-03T15:00:00,2211A,121.6506,42.0498,阜新市,玉龙新城,,48,48,42,24,16,130,124,103,103,16,19,10,13,0.7,0.7
2023-09-03T15:00:00,2212A,123.2,41.1953,辽阳市,宏伟区,,35,12,28,11,10,157,112,94,94,2,11,7,9,0.4,0.6
2023-09-03T15:00:00,2213A,123.1683,41.2495,辽阳市,新华园,,33,32,42,12,15,117,104,79,79,10,23,6,11,0.5,0.8
2023-09-03T15:00:00,2214A,123.2354,41.2639,辽阳市,滨河路,,,142,43,11,15,142,108,86,86,9,21,7,10,,0.9
2023-09-03T15:00:00,2215A,123.149,41.2991,辽阳市,铁西工业园,,36,28,45,12,21,127,114,89,89,14,24,13,11,0.6,0.9
2023-09-03T15:00:00,2216A,123.8139,42.3022,铁岭市,汇工街西,,43,32,40,13,20,171,135,114,114,9,25,11,19,0.5,0.9
2023-09-03T15:00:00,2217A,123.8649,42.2923,铁岭市,水上乐园,,41,31,48,9,21,174,129,108,108,14,23,5,5,0.5,0.8
2023-09-03T15:00:00,2218A,123.8486,42.2867,铁岭市,银州路东段,,36,27,44,12,18,148,114,97,97,13,30,6,6,0.4,0.8
2023-09-03T15:00:00,2219A,123.7153,42.2217,铁岭市,金沙江路北,,43,36,36,11,16,163,137,109,109,16,25,13,10,0.8,0.9
2023-09-03T15:00:00,2220A,120.4318,41.5881,朝阳市,西梁,,43,31,36,24,21,158,135,152,104,8,13,10,10,0.8,0.9
2023-09-03T15:00:00,2221A,120.4521,41.5646,朝阳市,河畔小区,,43,38,34,25,17,178,137,170,110,8,10,10,12,0.7,0.9
2023-09-03T15:00:00,2222A,120.4176,41.5648,朝阳市,八里堡,,42,32,43,21,22,142,134,136,104,9,19,9,10,0.9,1.1
2023-09-03T15:00:00,2223A,120.3806,41.5969,朝阳市,农业园区,,43,21,36,24,21,135,135,130,107,5,14,6,8,0.8,1
2023-09-03T15:00:00,2225A,124.4002,43.1713,四平市,一商场,,41,41,36,11,18,139,118,113,113,12,15,8,9,0.2,0.5
2023-09-03T15:00:00,2226A,124.388,43.193,四平市,境园,,39,18,32,12,18,142,122,116,116,11,16,3,4,0.4,0.6
2023-09-03T15:00:00,2227A,125.1358,42.8845,辽源市,环保局,,33,10,22,8,11,103,103,83,83,5,21,7,8,0.5,0.6
2023-09-03T15:00:00,2229A,125.9358,41.7173,通化市,光明,,26,13,29,12,14,98,82,58,58,4,17,7,9,0.5,0.7
2023-09-03T15:00:00,2230A,125.9446,41.7325,通化市,铁路,,25,15,28,10,14,86,80,58,58,6,20,5,8,0.5,0.8
2023-09-03T15:00:00,2231A,126.4219,41.9171,白山市,喜丰,颗粒物(PM10),95,139,60,15,14,27,25,19,19,8,17,16,12,0.6,0.7
2023-09-03T15:00:00,2232A,126.4077,41.9419,白山市,环保局,,,,44,3,7,102,81,81,81,,2,6,3,0.7,0.6
2023-09-03T15:00:00,2233A,124.8006,45.1214,松原市,江南,,40,21,27,12,16,143,128,122,122,8,10,7,7,0.6,0.6
2023-09-03T15:00:00,2234A,124.7965,45.1722,松原市,江北,,39,12,19,12,15,138,122,120,120,5,7,5,5,0.6,0.7
2023-09-03T15:00:00,2235A,122.7911,45.6077,白城市,洮北区环保局,,44,44,31,18,12,167,120,126,126,11,14,7,7,0.3,0.2
2023-09-03T15:00:00,2236A,122.8738,45.5725,白城市,市环保局,,44,40,28,21,12,157,139,127,127,8,11,10,8,0.6,0.4
2023-09-03T15:00:00,2237A,129.47,42.8883,延边朝鲜族自治州,妇幼医院,,24,23,24,14,13,93,75,60,60,6,11,8,8,0.5,0.5
2023-09-03T15:00:00,2238A,129.5055,42.9108,延边朝鲜族自治州,延边医院,,24,22,35,12,14,93,76,60,60,10,19,6,6,0.6,0.7
2023-09-03T15:00:00,2239A,129.3964,42.8881,延边朝鲜族自治州,朝阳川镇医院,,25,22,21,10,9,103,79,67,67,4,9,7,8,0.5,0.5
2023-09-03T15:00:00,2240A,130.9762,45.3001,鸡西市,环保局,,24,24,37,10,16,63,63,54,54,8,20,5,5,0.2,0.4
2023-09-03T15:00:00,2243A,130.9429,45.3039,鸡西市,第一中学,,28,17,23,10,13,89,89,72,72,5,9,6,6,0.1,0.2
2023-09-03T15:00:00,2244A,130.2537,47.3416,鹤岗市,哈啤分公司,,32,23,25,16,11,107,101,88,88,8,14,12,13,0.3,0.4
2023-09-03T15:00:00,2245A,130.2684,47.3086,鹤岗市,斯达机电,,29,19,22,6,10,99,92,83,83,10,10,12,10,0.3,0.5
2023-09-03T15:00:00,2246A,130.3114,47.3388,鹤岗市,东山纸板厂,,45,45,27,10,13,100,97,82,82,11,15,11,12,0.4,0.5
2023-09-03T15:00:00,2247A,130.1097,47.3382,鹤岗市,五号水库,,33,19,16,9,12,108,104,95,95,4,8,12,12,0.3,0.4
2023-09-03T15:00:00,2248A,131.1511,46.6937,双鸭山市,双合村,,32,22,26,11,11,106,102,92,92,4,8,7,10,0.1,0.2
2023-09-03T15:00:00,2249A,131.1652,46.6191,双鸭山市,南小市,,34,34,28,11,13,110,104,89,89,6,7,6,5,0.2,0.2
2023-09-03T15:00:00,2250A,131.1524,46.6554,双鸭山市,环保局,,30,22,26,10,11,104,96,88,88,9,10,9,9,0.3,0.3
2023-09-03T15:00:00,2251A,131.12,46.5656,双鸭山市,苗圃,,,9,11,5,8,127,122,103,103,,4,4,3,0.4,0.3
2023-09-03T15:00:00,2252A,128.5159,47.4311,伊春市,环保局,,34,25,31,12,15,119,108,92,92,8,10,4,5,0.4,0.4
2023-09-03T15:00:00,2253A,128.9102,47.7412,伊春市,电力嘉园,,36,29,19,14,10,128,113,102,102,7,7,5,5,0.5,0.5
2023-09-03T15:00:00,2254A,129.5029,48.471,伊春市,汤旺河国家公园,,17,17,26,1,17,75,51,61,44,2,2,17,16,0.4,0.4
2023-09-03T15:00:00,2255A,130.2751,46.8028,佳木斯市,佳纺,,37,24,21,14,13,116,116,90,90,7,5,6,4,0.5,0.4
2023-09-03T15:00:00,2256A,130.3995,46.8307,佳木斯市,发电厂,,37,28,23,13,13,118,118,97,97,5,8,4,3,0.4,0.3
2023-09-03T15:00:00,2257A,130.3258,46.7975,佳木斯市,环保局,,37,35,25,17,12,116,116,92,92,6,6,4,4,0.5,0.4
2023-09-03T15:00:00,2258A,130.3648,46.8032,佳木斯市,十一中,,35,27,26,13,13,112,112,89,89,11,11,5,4,0.5,0.5
2023-09-03T15:00:00,2259A,130.3794,46.7588,佳木斯市,四丰,,46,16,15,6,7,212,145,123,123,3,2,1,1,0.4,0.3
2023-09-03T15:00:00,2262A,131.0518,45.8751,七台河市,新一中,,38,18,27,6,14,129,120,100,100,5,8,8,8,0.5,0.7
2023-09-03T15:00:00,2263A,127.4833,50.2524,黑河市,交通局,,,19,20,7,10,71,50,57,35,,6,6,5,0.2,0.3
2023-09-03T15:00:00,2264A,127.5144,50.2341,黑河市,环保局,,17,8,24,4,11,75,52,41,41,5,10,2,11,0.2,0.2
2023-09-03T15:00:00,2265A,127.5291,50.2472,黑河市,大黑河岛,,,9,28,13,12,,,,,2,2,1,12,0.3,0.4
2023-09-03T15:00:00,2266A,126.9785,46.6365,绥化市,人和东街,臭氧1小时,70,45,34,17,14,176,176,121,121,10,13,5,6,0.6,0.4
2023-09-03T15:00:00,2267A,126.964,46.6528,绥化市,党政办公中心,臭氧1小时,60,33,31,14,13,168,168,117,117,8,12,12,11,0.6,0.4
2023-09-03T15:00:00,2269A,124.1069,50.4097,大兴安岭地区,科技局,,16,16,18,8,16,69,43,59,43,4,4,2,3,0.4,0.3
2023-09-03T15:00:00,2270A,117.396,32.939,蚌埠市,工人疗养院,,38,23,58,11,29,168,121,105,105,2,17,3,4,0.4,0.5
2023-09-03T15:00:00,2271A,117.3605,32.9427,蚌埠市,百货大楼,,39,28,61,10,29,168,124,114,114,3,15,4,6,0.2,0.5
2023-09-03T15:00:00,2273A,117.4185,32.8911,蚌埠市,蚌埠学院,,36,22,56,14,34,161,114,92,92,18,23,11,6,0.4,0.5
2023-09-03T15:00:00,2274A,117.3533,32.9673,蚌埠市,淮上区政府,,41,34,59,16,37,164,129,102,102,4,17,5,6,0.4,0.5
2023-09-03T15:00:00,2275A,117.3145,32.8977,蚌埠市,高新区,,40,19,48,16,31,167,126,112,112,11,22,6,7,0.4,0.6
2023-09-03T15:00:00,2277A,116.8305,32.7727,淮南市,潘集区政府,,48,41,63,24,34,176,152,111,111,9,14,8,10,0.3,0.4
2023-09-03T15:00:00,2278A,117.0067,32.6524,淮南市,师范学院,,41,30,55,14,28,159,131,134,106,9,12,10,16,0.4,0.7
2023-09-03T15:00:00,2279A,116.8569,32.5951,淮南市,谢家集区政府,,42,12,42,1,17,166,132,135,109,10,17,6,11,0.2,0.4
2023-09-03T15:00:00,2280A,116.8281,32.633,淮南市,八公山区政府,,42,31,54,16,35,163,133,108,108,8,14,6,10,0.3,0.6
2023-09-03T15:00:00,2281A,116.6325,32.6201,淮南市,焦岗湖风景区管理处,,37,28,42,6,29,152,117,92,92,6,19,4,4,0.3,0.5
2023-09-03T15:00:00,2282A,116.8004,33.975,淮北市,监测站,,48,39,53,22,33,175,153,117,117,6,11,4,5,0.8,0.8
2023-09-03T15:00:00,2283A,116.8091,33.9007,淮北市,烈山区政府,颗粒物(PM10),53,56,74,32,39,190,151,132,132,7,15,7,7,0.6,0.6
2023-09-03T15:00:00,2285A,117.8177,30.9412,铜陵市,市第四中学,颗粒物(PM10),53,56,54,34,31,149,112,94,93,7,11,6,7,0.4,0.4
2023-09-03T15:00:00,2286A,117.8059,30.9273,铜陵市,市公路局,颗粒物(PM10),56,61,51,29,29,164,124,101,101,11,14,11,11,0.6,0.6
2023-09-03T15:00:00,2287A,117.7807,30.9413,铜陵市,市新民污水厂,颗粒物(PM10),59,68,60,31,25,171,124,106,106,22,28,5,6,0.6,0.6
2023-09-03T15:00:00,2288A,117.7439,30.8792,铜陵市,市第九中学,细颗粒物(PM2.5),57,61,75,40,34,150,103,91,91,26,32,6,12,0.6,1.2
2023-09-03T15:00:00,2289A,117.846,30.9413,铜陵市,车站新区,颗粒物(PM10),51,51,48,22,34,164,121,101,100,9,13,4,5,0.5,0.4
2023-09-03T15:00:00,2290A,117.8483,30.97,铜陵市,市职教基地,颗粒物(PM10),52,53,47,25,22,164,120,99,99,9,12,4,4,0.7,0.7
2023-09-03T15:00:00,2291A,117.0809,30.5177,安庆市,环科院,,49,48,42,34,28,176,128,153,84,12,13,7,8,0.8,0.7
2023-09-03T15:00:00,2292A,117.0331,30.5119,安庆市,马山宾馆,细颗粒物(PM2.5),52,49,41,36,29,178,124,156,90,14,16,5,6,0.9,0.8
2023-09-03T15:00:00,2294A,116.9896,30.6145,安庆市,安庆大学,,49,46,46,34,33,175,119,137,102,9,11,6,7,0.9,0.8
2023-09-03T15:00:00,2295A,118.2903,29.6963,黄山市,延安路89号,,25,25,35,5,8,128,59,84,84,3,7,4,4,0.3,0.4
2023-09-03T15:00:00,2296A,118.327,29.7178,黄山市,黄山东路89号,,19,15,27,6,10,118,60,105,87,2,8,4,5,0.4,0.5
2023-09-03T15:00:00,2297A,118.1371,30.2756,黄山市,黄山区政府5号楼,,32,32,45,11,23,149,100,90,90,6,9,6,6,0.5,0.6
2023-09-03T15:00:00,2298A,118.3093,32.3153,滁州市,老年大学,,43,27,40,18,24,167,137,128,128,10,13,10,9,0.3,0.4
2023-09-03T15:00:00,2299A,118.3244,32.2786,滁州市,人大宾馆,,43,34,42,22,31,170,136,130,130,14,16,6,8,0.4,0.5
2023-09-03T15:00:00,2301A,115.8277,32.8929,阜阳市,市监测站,,49,43,54,33,37,171,155,119,119,8,17,8,9,0.5,0.6
2023-09-03T15:00:00,2303A,115.8554,32.8605,阜阳市,开发区,,49,43,65,28,46,166,154,119,119,10,19,8,9,0.6,0.6
2023-09-03T15:00:00,2307A,116.5079,31.737,六安市,监测大楼,,44,32,46,20,25,175,140,92,92,8,17,6,6,0.5,0.5
2023-09-03T15:00:00,2308A,116.4738,31.7643,六安市,皖西学院,,43,40,57,19,25,176,136,105,105,10,20,7,8,0.3,0.4
2023-09-03T15:00:00,2309A,116.4996,31.7905,六安市,朝阳厂,,47,24,46,17,28,176,148,100,100,9,20,8,9,0.6,0.7
2023-09-03T15:00:00,2310A,116.5567,31.7886,六安市,开发区,,47,45,60,22,30,163,149,88,88,8,20,6,8,0.6,0.6
2023-09-03T15:00:00,2311A,115.8072,33.8399,亳州市,污水处理厂,,48,42,64,23,41,188,152,126,126,3,11,8,12,0.7,0.8
2023-09-03T15:00:00,2312A,115.7789,33.8518,亳州市,三国揽胜宫,,47,46,62,31,44,185,149,125,125,6,14,6,10,0.7,0.8
2023-09-03T15:00:00,2314A,117.47,30.6618,池州市,池州学院,颗粒物(PM10),51,51,52,32,25,163,85,93,74,23,24,5,6,0.7,0.7
2023-09-03T15:00:00,2316A,118.7581,30.9454,宣城市,鳌峰子站,,40,33,46,28,27,166,120,106,106,10,15,5,5,0.6,0.6
2023-09-03T15:00:00,2317A,118.7385,30.9743,宣城市,敬亭山子站,,50,50,50,27,27,172,135,101,101,12,25,6,7,0.4,0.6
2023-09-03T15:00:00,2318A,118.7173,30.9427,宣城市,开发区子站,,43,43,41,23,26,177,136,112,112,8,16,8,7,0.6,0.6
2023-09-03T15:00:00,2319A,119.0141,25.4325,莆田市,荔城区仓后路,,17,17,14,4,4,65,40,43,43,3,5,8,8,0.5,0.6
2023-09-03T15:00:00,2320A,119.0015,25.4553,莆田市,莆田市监测站,,31,31,17,5,3,66,40,44,44,2,3,7,6,0.4,0.5
2023-09-03T15:00:00,2321A,119.1119,25.4561,莆田市,涵江区六中,,17,17,14,3,3,70,40,45,45,4,4,7,7,0.5,0.5
2023-09-03T15:00:00,2322A,119.1013,25.3215,莆田市,秀屿区政府,,50,50,22,9,6,79,41,43,43,3,4,7,7,0.5,0.6
2023-09-03T15:00:00,2323A,118.981,25.4792,莆田市,东圳水库,,,,,,,,,,,,,,,,
2023-09-03T15:00:00,2324A,117.6211,26.2625,三明市,三钢,,25,13,20,11,14,80,77,55,55,3,7,8,7,0.3,0.3
2023-09-03T15:00:00,2325A,117.635,26.2714,三明市,三明二中,,25,18,17,8,12,79,77,57,57,9,11,4,4,0.6,0.6
2023-09-03T15:00:00,2326A,117.6028,26.2378,三明市,三元区政府,,23,16,17,10,12,85,72,56,56,6,9,8,8,0.6,0.7
2023-09-03T15:00:00,2327A,117.7275,26.3108,三明市,洋溪,,,,,,,,,,,,,,,,
2023-09-03T15:00:00,2331A,118.0966,26.6761,南平市,茫荡山,,,,,,,,,,,,,,,,
2023-09-03T15:00:00,2332A,118.1681,26.6369,南平市,南平市监测站,,24,19,21,14,12,82,76,67,67,9,7,5,4,0.5,0.5
2023-09-03T15:00:00,2333A,118.1825,26.6489,南平市,南平铝业有限公司,,25,12,17,12,11,82,79,69,69,5,8,5,4,0.5,0.5
2023-09-03T15:00:00,2334A,118.1756,26.6272,南平市,南平七中,,25,23,22,12,13,88,79,61,61,3,8,5,5,0.6,0.7
2023-09-03T15:00:00,2335A,117.0189,25.1181,龙岩市,龙岩师专,,,,,,,,,,,,,,,,
2023-09-03T15:00:00,2336A,117.0217,25.1033,龙岩市,龙岩市监测站,,21,21,13,5,6,61,61,49,49,6,8,3,6,0.3,0.4
2023-09-03T15:00:00,2337A,117.0258,25.0661,龙岩市,闽西职业技术学院,,18,11,15,4,6,57,57,46,46,2,5,5,7,0.3,0.4
2023-09-03T15:00:00,2338A,117.0196,25.0306,龙岩市,龙岩学院,,19,14,15,3,6,60,58,47,47,2,6,4,6,0.4,0.4
2023-09-03T15:00:00,2339A,119.5001,26.6946,宁德市,金涵水库,,,,,,,,,,,,,,,,
2023-09-03T15:00:00,2341A,119.5388,26.6612,宁德市,宁德市监测站,,13,13,12,7,7,52,38,35,35,8,12,3,3,0.5,0.6
2023-09-03T15:00:00,2342A,117.3102,29.3867,景德镇市,王港中学,,22,14,20,10,11,108,70,76,76,4,5,4,4,0.3,0.4
2023-09-03T15:00:00,2343A,117.2117,29.2933,景德镇市,老干部活动中心,,28,28,32,18,20,109,86,94,94,3,10,3,3,0.2,0.3
2023-09-03T15:00:00,2344A,117.1894,29.2789,景德镇市,兽医站,,35,32,37,24,26,111,90,98,98,6,11,6,6,0.4,0.5
2023-09-03T15:00:00,2345A,117.1547,29.2617,景德镇市,台达陶瓷,,30,30,29,7,17,112,88,100,100,6,11,24,17,0.3,0.4
2023-09-03T15:00:00,2346A,117.2461,29.2956,景德镇市,陶研所,,29,29,38,7,13,110,88,90,90,4,9,6,5,0.3,0.4
2023-09-03T15:00:00,2347A,114.0997,27.5002,萍乡市,武功山,,30,11,12,13,7,108,94,62,62,5,5,10,9,0.4,0.4
2023-09-03T15:00:00,2348A,113.8385,27.6434,萍乡市,中医院,,43,43,40,26,27,132,111,78,78,9,18,10,12,0.6,0.7
2023-09-03T15:00:00,2349A,113.8493,27.6253,萍乡市,市政府车库,,39,37,40,25,23,134,122,82,82,6,18,11,13,0.4,0.6
2023-09-03T15:00:00,2350A,113.8676,27.6435,萍乡市,市环保局,,41,29,36,18,24,148,130,91,91,6,15,6,10,0.5,0.6
2023-09-03T15:00:00,2351A,113.866,27.6198,萍乡市,安源区政府,,39,30,37,23,23,138,122,82,82,7,14,8,9,0.5,0.6
2023-09-03T15:00:00,2352A,115.0861,27.9317,新余市,北岗,,46,35,34,23,24,147,147,118,118,6,9,13,19,0.7,0.7
2023-09-03T15:00:00,2353A,114.9886,27.8431,新余市,飞宇,,50,50,50,25,25,142,138,114,114,7,13,7,19,0.4,0.4
2023-09-03T15:00:00,2354A,114.9231,27.8246,新余市,第二水厂,臭氧1小时,52,48,47,27,26,162,161,136,136,18,18,10,13,0.4,0.4
2023-09-03T15:00:00,2355A,114.9308,27.8036,新余市,市气象局,,47,47,44,32,27,145,145,120,120,8,11,11,14,0.8,0.7
2023-09-03T15:00:00,2357A,116.9822,28.1136,鹰潭市,龙虎山,,43,39,35,30,25,163,133,136,136,2,5,7,6,0.5,0.3
2023-09-03T15:00:00,2358A,117.0564,28.2642,鹰潭市,新监测站,,41,41,49,14,26,173,124,138,138,1,11,4,18,0.3,0.5
2023-09-03T15:00:00,2359A,117.0311,28.2475,鹰潭市,财苑宾馆,,44,44,53,16,25,173,117,140,140,10,11,2,18,0.4,0.5
2023-09-03T15:00:00,2360A,117.0222,28.2264,鹰潭市,体育馆,,40,36,50,18,28,166,125,136,136,2,13,3,14,0.7,0.7
2023-09-03T15:00:00,2361A,117.0017,28.2131,鹰潭市,三川水表,,45,45,53,19,28,164,126,136,136,3,16,3,11,0.5,0.6
2023-09-03T15:00:00,2362A,114.9017,25.9149,赣州市,通天岩,,,,,,,,,,,,,,,,
2023-09-03T15:00:00,2363A,114.9367,25.8664,赣州市,地委,,38,35,38,26,26,112,104,105,94,5,5,9,11,1.2,1.1
2023-09-03T15:00:00,2364A,114.9461,25.8481,赣州市,气象台,,36,33,36,18,24,118,113,112,98,9,10,5,6,0.8,0.8
2023-09-03T15:00:00,2365A,114.9322,25.8333,赣州市,市图书馆,,45,45,55,27,29,111,104,103,93,9,8,7,7,0.8,1
2023-09-03T15:00:00,2366A,114.8905,25.8471,赣州市,华坚鞋城,,42,42,41,16,27,116,102,106,94,6,7,4,3,0.8,0.8
2023-09-03T15:00:00,2367A,114.9754,27.0803,吉安市,红声器材厂,颗粒物(PM10),52,54,42,30,24,143,141,103,103,11,11,8,10,0.8,0.8
2023-09-03T15:00:00,2368A,114.9658,27.0999,吉安市,市森林工业局,颗粒物(PM10),53,55,43,30,26,151,145,108,108,3,9,11,11,0.7,0.5
2023-09-03T15:00:00,2369A,114.99,27.1312,吉安市,市环境监测站,,,46,42,25,23,150,150,109,109,,13,10,10,0.6,0.7
2023-09-03T15:00:00,2370A,115.0093,27.0968,吉安市,青原区法院,,46,45,40,32,25,148,143,107,107,12,12,15,15,0.8,0.8
2023-09-03T15:00:00,2371A,114.3408,27.8064,宜春市,槟榔水业,,40,37,35,22,20,128,126,88,88,10,17,3,2,1.1,1.1
2023-09-03T15:00:00,2373A,114.3956,27.7844,宜春市,市石油公司,,49,49,40,27,24,140,132,93,93,9,14,4,5,0.8,0.8
2023-09-03T15:00:00,2374A,114.3703,27.7914,宜春市,市气象局,,46,46,39,27,22,136,131,98,98,13,17,5,5,0.8,0.7
2023-09-03T15:00:00,2375A,114.4013,27.8074,宜春市,市广电局,颗粒物(PM10),51,51,40,27,23,144,138,102,102,10,15,6,8,0.8,0.8
2023-09-03T15:00:00,2376A,116.2127,28.0814,抚州市,桐源党溪,,40,30,35,14,21,129,127,110,110,3,2,3,2,0.7,0.8
2023-09-03T15:00:00,2377A,116.3544,27.9831,抚州市,市站,,44,44,43,27,26,132,127,114,114,6,9,2,3,0.8,1
2023-09-03T15:00:00,2378A,116.3565,27.963,抚州市,血防站,,45,45,48,26,24,136,131,118,118,3,3,1,2,1.1,1.2
2023-09-03T15:00:00,2379A,116.3564,28.0007,抚州市,采茶剧团,,39,39,44,22,26,126,122,108,108,6,7,5,4,1.0,1.1
2023-09-03T15:00:00,2380A,116.385,27.9647,抚州市,医学分院,,40,38,43,25,26,140,127,117,117,5,8,6,9,1.0,1
2023-09-03T15:00:00,2381A,118.005,28.4572,上饶市,百草园,,,,,,,,,,,,,,,,
2023-09-03T15:00:00,2382A,117.9756,28.4436,上饶市,市监测站,,36,26,45,17,23,131,114,118,118,2,11,7,13,0.3,0.5
2023-09-03T15:00:00,2383A,117.9519,28.4628,上饶市,凤凰光学,,34,27,44,14,24,121,107,109,109,1,11,5,12,0.3,0.4
2023-09-03T15:00:00,2385A,114.17,35.9019,鹤壁市,市监测站,臭氧1小时,65,39,65,31,42,192,172,144,144,13,18,6,7,0.7,0.9
2023-09-03T15:00:00,2386A,114.2956,35.7511,鹤壁市,市交警支队,臭氧1小时,70,35,70,34,45,176,176,142,142,9,22,6,5,0.4,0.6
2023-09-03T15:00:00,2387A,114.2878,35.7306,鹤壁市,迎宾馆,臭氧1小时,74,36,70,25,47,179,179,142,142,14,24,8,8,0.5,0.7
2023-09-03T15:00:00,2389A,113.836,35.311,新乡市,环保西院,臭氧1小时,54,54,65,20,42,183,163,136,136,7,18,8,7,0.7,0.8
2023-09-03T15:00:00,2390A,113.884,35.272,新乡市,开发区,臭氧1小时,68,37,58,27,46,181,174,142,142,5,16,5,5,0.2,0.3
2023-09-03T15:00:00,2391A,113.883,35.303,新乡市,环保东院,臭氧1小时,64,46,65,24,38,181,171,138,138,11,19,6,6,0.7,0.8
2023-09-03T15:00:00,2392A,115.0312,35.7636,濮阳市,环保局,,48,42,53,24,43,159,151,138,138,5,9,6,6,0.7,0.7
2023-09-03T15:00:00,2394A,115.0574,35.7609,濮阳市,油田运输公司,,49,48,69,32,42,161,154,140,140,8,12,8,7,0.5,0.7
2023-09-03T15:00:00,2395A,115.0866,35.7754,濮阳市,油田物探公司,,49,48,73,27,51,164,156,140,140,6,10,6,5,0.5,0.6
2023-09-03T15:00:00,2396A,113.8276,34.0159,许昌市,监测站,臭氧1小时,69,47,67,16,45,177,175,141,141,11,28,4,5,0.3,0.5
2023-09-03T15:00:00,2398A,113.7906,33.9953,许昌市,开发区,臭氧1小时,64,40,67,18,43,178,171,135,135,5,30,3,4,0.5,0.7
2023-09-03T15:00:00,2399A,114.051,33.5699,漯河市,三五一五工厂,,,37,71,17,44,175,166,135,135,6,25,,11,0.5,0.7
2023-09-03T15:00:00,2400A,114.0055,33.5698,漯河市,漯河大学,臭氧1小时,78,38,65,22,44,182,182,144,144,8,20,6,7,0.5,0.6
2023-09-03T15:00:00,2401A,114.0138,33.5828,漯河市,市水利局,臭氧1小时,70,36,68,25,48,176,176,140,140,8,20,8,9,0.5,0.7
2023-09-03T15:00:00,2402A,114.0261,33.5698,漯河市,市广电局,臭氧1小时,70,37,67,23,45,178,176,143,143,8,20,7,8,0.5,0.7
2023-09-03T15:00:00,2404A,112.5224,33.0122,南阳市,瓦房庄,臭氧1小时,79,44,52,27,30,189,183,141,141,16,14,5,6,0.6,0.7
2023-09-03T15:00:00,2405A,112.5003,32.9735,南阳市,汉画馆,臭氧1小时,90,55,48,30,27,199,192,156,156,25,15,7,8,0.6,0.6
2023-09-03T15:00:00,2406A,112.5573,33.027,南阳市,气象站,臭氧1小时,59,50,48,24,24,179,167,132,132,18,14,7,7,0.6,0.7
2023-09-03T15:00:00,2407A,112.5481,32.9689,南阳市,理工学院,臭氧1小时,62,42,49,29,31,185,169,143,143,19,13,6,7,0.5,0.5
2023-09-03T15:00:00,2408A,115.6702,34.4285,商丘市,环境监测站,臭氧1小时,58,56,72,35,43,193,166,146,146,5,21,7,6,1.0,1
2023-09-03T15:00:00,2409A,115.6458,34.4045,商丘市,粮食局,臭氧1小时,69,55,69,43,39,191,175,154,154,5,18,5,5,0.7,0.7
2023-09-03T15:00:00,2410A,115.6293,34.3948,商丘市,睢阳区环保局,臭氧1小时,65,57,89,35,45,189,172,149,149,6,35,6,7,0.6,0.7
2023-09-03T15:00:00,2420A,114.0189,32.9656,驻马店市,市一纸厂,,43,29,53,25,30,170,137,114,114,5,24,6,7,0.3,0.4
2023-09-03T15:00:00,2421A,114.0114,33.015,驻马店市,市彩印厂,,44,41,61,28,37,177,139,123,123,7,14,7,7,0.4,0.5
2023-09-03T15:00:00,2422A,113.9976,32.9771,驻马店市,天方二分厂,,43,26,52,30,40,165,132,112,112,3,14,5,5,0.2,0.3
2023-09-03T15:00:00,2423A,115.0601,30.2313,黄石市,沈家营,颗粒物(PM10),52,54,51,28,27,141,99,99,99,8,23,5,8,0.6,0.7
2023-09-03T15:00:00,2424A,115.0817,30.2006,黄石市,陈家湾,颗粒物(PM10),54,57,51,23,29,134,106,105,105,3,13,6,8,0.5,0.5
2023-09-03T15:00:00,2426A,114.8988,30.2019,黄石市,铁山,,43,34,51,30,29,164,112,106,106,18,29,7,9,0.8,0.8
2023-09-03T15:00:00,2427A,115.0307,30.2092,黄石市,团城山,,44,44,52,13,21,150,126,116,116,6,19,6,7,0.6,0.6
2023-09-03T15:00:00,2428A,111.0419,32.395,十堰市,武当山,,41,24,23,14,18,129,129,116,112,8,7,10,10,0.8,0.8
2023-09-03T15:00:00,2429A,110.78,32.6494,十堰市,滨河新村,,46,38,44,21,26,149,145,106,106,1,13,7,9,0.5,0.6
2023-09-03T15:00:00,2430A,110.7258,32.6389,十堰市,刘家沟,,47,36,41,21,23,153,149,108,108,3,6,8,8,0.6,0.7
2023-09-03T15:00:00,2431A,110.8839,32.5714,十堰市,铁二处,臭氧1小时,65,40,36,23,21,177,172,122,122,4,7,6,6,0.5,0.7
2023-09-03T15:00:00,2432A,112.155,32.0197,襄阳市,襄城运动路,臭氧1小时,64,46,50,25,26,171,171,119,119,9,18,8,9,0.7,0.7
2023-09-03T15:00:00,2433A,112.1392,32.0564,襄阳市,樊城新华路,臭氧1小时,72,49,56,26,33,177,177,126,126,10,19,9,11,0.5,0.5
2023-09-03T15:00:00,2434A,112.1825,32.1142,襄阳市,高新管委会,臭氧1小时,65,50,58,25,41,172,172,124,124,8,28,7,11,0.8,0.8
2023-09-03T15:00:00,2435A,112.2106,32.0903,襄阳市,襄州航空路,臭氧1小时,63,44,53,23,32,170,170,122,122,8,22,8,10,0.8,0.8
2023-09-03T15:00:00,2436A,114.8938,30.3994,鄂州市,市政府,颗粒物(PM10),51,52,50,22,28,141,109,105,104,14,21,3,4,0.8,0.8
2023-09-03T15:00:00,2437A,114.8989,30.3714,鄂州市,赵家坝,颗粒物(PM10),53,55,66,22,31,157,116,107,107,19,28,4,6,0.6,0.6
2023-09-03T15:00:00,2439A,112.2014,31.0481,荆门市,竹园小学,臭氧1小时,78,70,56,41,31,189,182,134,130,14,15,12,10,0.7,0.7
2023-09-03T15:00:00,2440A,112.1969,30.9891,荆门市,掇刀,臭氧1小时,54,55,51,33,28,171,163,132,132,17,12,15,7,0.6,0.6
2023-09-03T15:00:00,2441A,112.2213,31.0386,荆门市,石化一小,臭氧1小时,74,65,58,34,30,186,179,132,132,10,13,16,8,0.5,0.5
2023-09-03T15:00:00,2443A,113.9153,30.9285,孝感市,文化路,颗粒物(PM10),53,56,43,26,27,161,161,120,120,12,14,7,7,0.9,0.9
2023-09-03T15:00:00,2444A,113.942,30.9075,孝感市,东城区,,,,,,,,,,,,,,,,
2023-09-03T15:00:00,2446A,114.9028,30.4742,黄冈市,职工中心,颗粒物(PM10),65,80,53,45,34,152,128,114,114,18,6,13,10,1.0,0.8
2023-09-03T15:00:00,2447A,114.3175,29.8142,咸宁市,森林公园,,46,24,42,32,23,169,83,118,91,4,4,5,7,0.7,0.8
2023-09-03T15:00:00,2448A,114.3107,29.8454,咸宁市,市发改委,细颗粒物(PM2.5),54,22,39,38,32,179,113,142,113,5,10,8,12,0.5,0.6
2023-09-03T15:00:00,2449A,114.2936,29.8566,咸宁市,咸安区政府,,39,26,46,27,32,183,110,146,111,8,16,9,12,0.6,0.7
2023-09-03T15:00:00,2451A,113.3583,31.7275,随州市,市委党校,,47,44,47,27,30,159,149,118,118,2,11,8,8,0.7,0.7
2023-09-03T15:00:00,2452A,113.3833,31.6908,随州市,市林业局,,48,40,42,27,29,162,153,115,115,8,14,6,7,0.9,0.8
2023-09-03T15:00:00,2453A,113.3983,31.7308,随州市,市立交桥水厂,,41,31,39,24,28,152,130,108,108,7,18,8,9,0.6,0.7
2023-09-03T15:00:00,2454A,109.4978,30.2981,恩施土家族苗族自治州,湖北民院,,46,36,33,18,21,145,145,100,100,5,7,10,10,0.7,0.8
2023-09-03T15:00:00,2455A,109.4707,30.2798,恩施土家族苗族自治州,州电力总公司,,37,16,33,16,32,123,118,85,85,7,17,9,9,0.7,0.8
2023-09-03T15:00:00,2456A,112.5003,26.9167,衡阳市,原169医院,,30,28,37,21,23,122,80,83,74,11,12,9,7,0.6,0.6
2023-09-03T15:00:00,2457A,112.6194,26.9258,衡阳市,衡阳化工总厂,,35,35,43,17,25,136,96,121,84,6,10,8,8,0.7,0.7
2023-09-03T15:00:00,2458A,112.6211,26.8956,衡阳市,珠晖区环保局,,,25,40,,25,134,94,116,84,10,13,5,6,0.7,0.7
