timepoint,stationcode,longitude,latitude,area,positionname,primarypollutant,aqi,pm10,pm10_24h,pm2_5,pm2_5_24h,o3,o3_24h,o3_8h,o3_8h_24h,no2,no2_24h,so2,so2_24h,co,co_24h
2025-10-16T1700,2568A,102.2502,31.8896,阿坝藏族羌族自治州,马师校,,19,17,16,12,14,59,,52,52,8,12,5,5,0.5,0.5
2025-10-16T1700,3994A,102.2165,31.9024,阿坝藏族羌族自治州,马尔康中学西区,,,,20,16,14,80,,64,64,,7,,5,0.5,0.5
2025-10-16T1700,2695A,80.292,41.1694,阿克苏地区,电视台,颗粒物(PM10),500,1341,398,308,91,82,,76,76,6,20,5,5,0.3,0.5
2025-10-16T1700,2696A,80.2613,41.1551,阿克苏地区,艺术中心,颗粒物(PM10),500,1234,364,274,93,,,79,79,5,34,3,4,0.2,0.6
2025-10-16T1700,2205A,105.6985,38.8411,阿拉善盟,蒙二幼,颗粒物(PM10),61,72,59,13,18,80,,73,73,7,12,8,9,0.5,0.6
2025-10-16T1700,2206A,105.724,38.8516,阿拉善盟,环保局新楼,颗粒物(PM10),55,59,45,12,18,80,,79,72,7,8,8,8,0.5,0.6
2025-10-16T1700,2708A,88.1264,47.8517,阿勒泰地区,市站,,24,24,28,16,12,54,,41,41,11,20,4,4,0.1,0.6
2025-10-16T1700,2630A,80.1161,32.5,阿里地区,阿里监测站,,38,6,3,3,3,120,,99,99,1,10,4,6,0.2,0.3
2025-10-16T1700,3192A,80.0903,32.5028,阿里地区,阿里藏医院,,41,6,15,3,5,131,,117,117,1,5,7,8,0.1,0.2
2025-10-16T1700,2644A,109.0072,32.6975,安康市,汉滨区检察院,,22,14,15,8,8,69,,70,70,8,10,5,5,0.6,0.7
2025-10-16T1700,4054A,109.0325,32.6913,安康市,市邮政管理局,,20,19,14,8,7,62,,64,64,10,10,6,6,0.6,0.7
2025-10-16T1700,2291A,117.0809,30.5177,安庆市,环科院,,30,30,25,20,16,61,,55,55,12,10,6,6,0.8,0.8
2025-10-16T1700,2292A,117.0331,30.5119,安庆市,马山宾馆,,36,36,26,22,18,64,,60,60,15,14,6,6,1.0,0.9
2025-10-16T1700,2294A,116.9896,30.6145,安庆市,安庆大学,,26,21,24,18,18,63,,64,64,12,11,4,4,0.7,0.6
2025-10-16T1700,3173A,117.0598,30.5351,安庆市,市人大,,30,,25,21,17,61,,59,59,12,10,6,6,0.8,0.7
2025-10-16T1700,3123A,105.9408,26.2431,安顺市,凤凰山,,13,6,7,3,5,41,,46,46,3,4,6,5,0.4,0.3
2025-10-16T1700,3124A,105.9439,26.2564,安顺市,金钟山,,14,8,9,3,5,44,,49,48,2,3,8,8,0.6,0.6
2025-10-16T1700,3125A,105.8983,26.2481,安顺市,娄家坡,,12,,5,7,6,37,,41,40,4,4,8,8,0.4,0.4
2025-10-16T1700,1819A,114.3551,36.1017,安阳市,红庙街,,36,31,48,25,35,90,,82,82,10,22,1,2,0.3,0.6
2025-10-16T1700,1820A,114.361,36.0681,安阳市,银杏小区,,37,37,52,23,33,96,,88,88,12,24,2,3,0.2,0.5
2025-10-16T1700,3141A,114.3922,36.0878,安阳市,信访局,,29,28,49,19,30,92,,86,86,9,18,1,2,0.4,0.7
2025-10-16T1700,3669A,114.4705,36.0637,安阳市,左辅环卫站,颗粒物(PM10),55,60,61,25,32,91,,81,81,11,28,1,2,0.4,0.6
2025-10-16T1700,3703A,114.2917,36.0949,安阳市,安钢职工学校,,39,36,71,27,50,93,,87,87,7,17,3,2,0.4,0.7
2025-10-16T1700,1748A,123.044,41.1196,鞍山市,深沟寺,细颗粒物(PM2.5),54,54,55,38,33,38,,33,33,29,28,7,7,0.6,0.5
2025-10-16T1700,1749A,123.011,41.0931,鞍山市,太阳城,细颗粒物(PM2.5),55,52,57,39,35,42,,34,34,24,23,9,10,0.4,0.5
2025-10-16T1700,1751A,122.9642,41.0971,鞍山市,铁西三道街,细颗粒物(PM2.5),107,117,72,80,42,44,,34,34,,34,,23,0.6,1.7
2025-10-16T1700,1753A,123.022,41.0821,鞍山市,明达新区,细颗粒物(PM2.5),58,60,56,41,35,39,,34,34,24,19,12,11,0.7,0.7
2025-10-16T1700,4201A,122.9446,41.0826,鞍山市,兴盛南路290号,"颗粒物(PM10),细颗粒物(PM2.5)",58,66,65,41,38,42,,32,32,35,34,14,22,0.8,1.4
2025-10-16T1700,2195A,107.4212,40.761,巴彦淖尔市,附二中,颗粒物(PM10),53,56,70,31,33,77,,72,72,9,18,9,9,0.4,0.4
2025-10-16T1700,2196A,107.37,40.7372,巴彦淖尔市,市环保大楼,,50,50,60,26,26,70,,70,70,11,20,10,11,0.5,0.6
2025-10-16T1700,1956A,86.1472,41.7538,巴音郭楞蒙古自治州,孔雀公园,颗粒物(PM10),102,154,148,35,30,85,,68,68,2,12,6,7,0.3,0.3
2025-10-16T1700,1957A,86.1972,41.7166,巴音郭楞蒙古自治州,棉纺厂,,,,163,,23,90,,73,73,2,8,5,5,0.3,0.3
2025-10-16T1700,1958A,86.2357,41.7173,巴音郭楞蒙古自治州,经济开发区,颗粒物(PM10),102,154,137,23,16,82,,61,57,5,9,6,5,0.4,0.4
2025-10-16T1700,3181A,106.7768,31.8526,巴中市,市五中,,21,21,19,12,10,16,,12,12,12,11,8,8,1.0,0.9
2025-10-16T1700,3183A,106.7418,31.8654,巴中市,圣泉水务公司,,15,15,15,7,8,13,,9,9,13,14,7,7,0.8,0.8
2025-10-16T1700,3616A,106.7616,31.8344,巴中市,市中心医院,,24,24,20,12,9,14,,10,10,16,17,9,9,0.8,0.9
2025-10-16T1700,2235A,122.7911,45.6077,白城市,洮北区环保局,,28,28,27,11,18,50,,54,54,18,12,4,4,0.3,0.2
2025-10-16T1700,2236A,122.8738,45.5725,白城市,市环保局,,18,,25,10,22,57,,57,57,9,9,4,3,0.0,0.1
2025-10-16T1700,2231A,126.4219,41.9171,白山市,喜丰,,48,48,68,25,40,50,,43,43,23,20,5,7,0.5,0.7
2025-10-16T1700,2232A,126.4077,41.9419,白山市,环保局,,45,36,51,31,46,49,,56,44,21,14,7,8,0.6,0.7
2025-10-16T1700,2647A,104.1724,36.5446,白银市,第三小学,颗粒物(PM10),73,96,71,15,23,71,,67,67,8,28,8,26,0.2,0.8
2025-10-16T1700,2648A,104.1465,36.5482,白银市,动力公司,颗粒物(PM10),68,86,59,15,22,80,,72,72,5,23,6,11,0.2,0.6
2025-10-16T1700,2512A,106.6103,23.9011,百色市,市监测站,,31,31,26,12,11,56,,52,52,10,12,8,9,0.4,0.5
2025-10-16T1700,2513A,106.6538,23.8859,百色市,市中心血站,,27,27,26,13,12,58,,53,53,13,19,5,8,0.5,0.6
2025-10-16T1700,3406A,106.6085,23.8798,百色市,祈福高中,,41,41,33,13,15,57,,48,48,10,19,5,7,0.5,0.6
2025-10-16T1700,2270A,117.396,32.939,蚌埠市,工人疗养院,,25,25,33,10,19,56,,42,42,10,13,4,4,0.4,0.7
2025-10-16T1700,2271A,117.3605,32.9427,蚌埠市,百货大楼,,24,24,27,15,20,47,,41,41,19,15,6,6,0.5,0.7
2025-10-16T1700,2273A,117.4185,32.8911,蚌埠市,蚌埠学院,,29,29,24,18,19,27,,34,33,41,14,6,5,0.4,0.6
2025-10-16T1700,2274A,117.3533,32.9673,蚌埠市,淮上区政府,,27,27,28,11,18,60,,42,42,14,16,5,5,0.4,0.6
2025-10-16T1700,2275A,117.3145,32.8977,蚌埠市,高新区,,27,27,25,15,18,50,,40,40,17,15,6,6,0.5,0.7
2025-10-16T1700,3715A,117.3092,32.9314,蚌埠市,蚌埠田家炳中学,,28,28,32,15,19,54,,43,43,11,13,2,2,0.4,0.6
2025-10-16T1700,1585A,109.8756,40.6532,包头市,市环境监测站,,38,38,60,15,28,79,,40,40,12,52,5,10,0.2,0.6
2025-10-16T1700,1587A,109.9991,40.5842,包头市,包头八中,,36,36,60,7,37,74,,46,46,13,49,7,12,0.4,0.8
2025-10-16T1700,1588A,109.8538,40.6821,包头市,青山宾馆,,39,39,52,3,37,79,,40,40,10,51,6,10,0.3,0.8
2025-10-16T1700,1589A,109.8642,40.6288,包头市,惠龙物流,,27,27,48,12,28,80,,44,44,10,42,5,10,0.4,0.7
2025-10-16T1700,1590A,110.0377,40.5546,包头市,东河鸿龙湾,,24,24,46,11,24,75,,48,48,13,50,8,12,0.4,0.8
2025-10-16T1700,3283A,109.9154,40.5685,包头市,滨河大厦,,26,21,41,18,27,80,,48,48,5,37,6,9,0.3,0.7
2025-10-16T1700,3419A,109.9447,40.6261,包头市,包头市委党校,,26,26,54,17,28,81,,44,44,7,47,6,14,0.4,0.9
2025-10-16T1700,3683A,109.8331,40.6576,包头市,昆区政府,,26,26,52,3,34,78,,42,42,8,41,7,13,0.4,0.8
2025-10-16T1700,1931A,107.0708,34.3017,宝鸡市,竹园沟,,23,23,19,13,15,31,,65,44,24,11,8,8,0.6,0.4
2025-10-16T1700,1932A,107.1906,34.3672,宝鸡市,三陆医院,,33,30,30,23,22,36,,69,44,27,17,6,6,0.9,0.7
2025-10-16T1700,1933A,107.1431,34.3547,宝鸡市,监测站,,33,28,28,23,21,42,,73,45,21,14,7,7,0.8,0.7
2025-10-16T1700,1934A,107.1186,34.3739,宝鸡市,技工学校,,45,,25,31,23,35,,68,43,24,15,5,5,1.0,0.8
2025-10-16T1700,1936A,107.2058,34.3497,宝鸡市,文理学院,,32,28,28,22,21,37,,68,44,25,16,4,5,0.8,0.6
2025-10-16T1700,1937A,107.2386,34.3622,宝鸡市,三迪小学,,46,34,29,32,28,36,,67,42,27,18,5,5,1.0,0.9
2025-10-16T1700,4308A,107.3898,34.3601,宝鸡市,陈仓区北开路21号,,29,29,29,19,22,25,,55,27,21,16,6,6,0.8,0.7
2025-10-16T1700,1051A,115.493,38.8632,保定市,游泳馆,,,74,79,46,59,57,,52,52,19,39,,3,0.2,0.4
2025-10-16T1700,1052A,115.5213,38.8959,保定市,华电二区,,,,80,,54,55,,47,47,17,45,4,5,0.8,1
2025-10-16T1700,1053A,115.4713,38.9108,保定市,接待中心,细颗粒物(PM2.5),60,55,83,43,60,48,,48,48,21,36,2,2,0.5,0.7
2025-10-16T1700,1054A,115.4612,38.8416,保定市,地表水厂,颗粒物(PM10),65,79,91,37,44,60,,47,47,22,40,8,8,0.3,0.5
2025-10-16T1700,3581A,115.31981,38.95208,保定市,满城区生态环境分局,细颗粒物(PM2.5),52,48,96,36,62,22,,46,44,35,35,1,2,0.4,0.5
2025-10-16T1700,3582A,115.47694,38.76408,保定市,清苑区第二中学,颗粒物(PM10),66,81,86,38,42,58,,47,47,25,39,1,3,0.4,0.5
2025-10-16T1700,3583A,115.62909,39.02311,保定市,徐水物探局,细颗粒物(PM2.5),54,49,73,38,56,43,,46,46,26,43,2,4,0.4,0.6
2025-10-16T1700,4004A,115.4202,38.8656,保定市,双鹰农机,颗粒物(PM10),60,70,68,41,56,60,,52,52,20,35,3,3,0.3,0.4
2025-10-16T1700,4034A,115.5150,38.8590,保定市,植保所站,颗粒物(PM10),62,74,96,34,53,46,,42,42,18,37,3,2,0.4,0.6
2025-10-16T1700,2594A,99.1678,25.1081,保山市,市环境监测站,,42,,22,29,21,64,,41,41,11,10,6,8,0.5,0.5
2025-10-16T1700,2595A,99.1711,25.1328,保山市,市环保局,,30,30,25,7,15,72,,48,48,11,7,6,6,0.6,0.5
2025-10-16T1700,1867A,109.1436,21.4086,北海市,海滩公园,,38,29,25,7,10,120,,97,97,4,8,6,7,0.5,0.5
2025-10-16T1700,1868A,109.0981,21.4661,北海市,新市环保局,,36,25,26,14,14,115,,96,96,7,11,7,8,0.4,0.4
2025-10-16T1700,1869A,109.1778,21.5233,北海市,北海工业园,,35,33,29,17,16,110,,97,97,5,12,4,7,0.3,0.3
2025-10-16T1700,3400A,109.1911,21.4415,北海市,龙潭自来水厂,,35,23,23,15,16,112,,95,95,5,10,7,7,0.5,0.6
2025-10-16T1700,1001A,116.3621,39.8784,北京市,万寿西宫,颗粒物(PM10),53,56,81,31,54,25,,29,26,26,25,2,3,0.7,1
2025-10-16T1700,1003A,116.4174,39.9289,北京市,东四,颗粒物(PM10),59,67,86,41,53,19,,38,29,33,24,3,4,1.0,1
2025-10-16T1700,1004A,116.4072,39.8863,北京市,天坛,,49,49,67,30,44,33,,30,30,27,23,3,3,0.8,1
2025-10-16T1700,1005A,116.462,39.9365,北京市,农展馆,颗粒物(PM10),54,57,70,35,49,13,,32,23,32,24,4,4,0.8,1
2025-10-16T1700,1006A,116.3392,39.9295,北京市,官园,颗粒物(PM10),52,53,78,30,51,28,,30,29,28,23,5,5,0.7,0.9
2025-10-16T1700,1007A,116.2878,39.9611,北京市,海淀万柳,细颗粒物(PM2.5),52,47,74,36,50,14,,24,22,31,35,4,5,0.7,0.9
2025-10-16T1700,1008A,116.6636,40.135,北京市,顺义新城,,46,46,87,28,53,31,,34,29,24,27,6,6,0.9,1
2025-10-16T1700,1009A,116.6275,40.3275,北京市,怀柔镇,细颗粒物(PM2.5),53,51,77,37,53,27,,30,23,22,23,4,4,0.9,1
2025-10-16T1700,1010A,116.2296,40.217,北京市,昌平镇,,,59,73,38,49,23,,29,23,26,25,3,3,,1
2025-10-16T1700,1011A,116.3966,39.9821,北京市,奥体中心,颗粒物(PM10),54,57,74,34,48,12,,34,24,33,26,4,4,0.8,0.9
2025-10-16T1700,3281A,115.9718,40.4529,北京市,延庆夏都,,25,22,47,17,35,31,,59,34,22,17,1,1,0.8,0.8
2025-10-16T1700,3418A,116.8336,40.4095,北京市,密云新城,,45,43,72,31,50,20,,23,20,20,28,1,1,0.8,1
2025-10-16T1700,3671A,116.088,39.9726,北京市,门头沟三家店,,43,43,84,28,51,21,,23,20,27,34,3,3,0.7,0.9
2025-10-16T1700,3672A,116.1541,39.8204,北京市,丰台云岗,,48,48,81,30,52,4,,21,14,29,28,4,4,0.7,0.9
2025-10-16T1700,3673A,116.6804,39.9081,北京市,通州东关,颗粒物(PM10),55,60,89,33,55,23,,27,25,28,36,4,4,0.6,0.8
2025-10-16T1700,3674A,115.9577,39.7603,北京市,房山燕山,,50,38,77,35,59,23,,23,22,26,27,1,1,0.7,0.9
2025-10-16T1700,3675A,116.4672,39.7733,北京市,大兴旧宫,,50,50,72,28,42,37,,32,32,25,23,4,4,0.7,0.9
2025-10-16T1700,3694A,115.986,40.4563,北京市,延庆石河营,,29,21,45,20,38,28,,56,31,21,16,3,3,0.8,0.8
2025-10-16T1700,3695A,116.6151,40.3053,北京市,怀柔新城,细颗粒物(PM2.5),52,43,69,36,51,24,,28,23,19,18,6,6,0.7,0.9
2025-10-16T1700,3696A,116.2545,39.8768,北京市,丰台小屯,,44,44,89,25,46,12,,24,15,23,27,2,3,0.8,1
2025-10-16T1700,3697A,116.84,40.3844,北京市,密云镇,,48,47,79,33,52,10,,32,18,32,32,5,5,0.8,1
2025-10-16T1700,4182A,116.1942,39.9158,北京市,八角北路9号,,47,47,88,29,54,15,,22,16,31,46,1,2,0.7,0.9
2025-10-16T1700,4194A,117.0790,40.1518,北京市,洳河巡河路,颗粒物(PM10),53,55,84,32,54,9,,34,20,32,22,4,4,0.8,1
2025-10-16T1700,1761A,123.8275,41.3064,本溪市,大峪,细颗粒物(PM2.5),70,74,73,51,38,37,,31,31,25,27,8,9,0.8,0.8
2025-10-16T1700,1762A,123.7567,41.3325,本溪市,溪湖,细颗粒物(PM2.5),70,68,73,51,40,49,,37,37,20,28,7,7,0.6,0.7
2025-10-16T1700,1763A,123.7169,41.3094,本溪市,彩屯,细颗粒物(PM2.5),73,71,80,53,47,34,,24,24,29,31,7,10,0.7,0.8
2025-10-16T1700,1764A,123.7669,41.2864,本溪市,东明,细颗粒物(PM2.5),62,72,71,44,33,38,,29,29,29,33,7,8,0.9,0.9
2025-10-16T1700,1765A,123.7992,41.2664,本溪市,新立屯,细颗粒物(PM2.5),75,56,67,55,43,36,,29,29,27,26,8,9,0.6,0.7
2025-10-16T1700,1766A,123.8142,41.3472,本溪市,威宁,细颗粒物(PM2.5),67,82,69,48,40,37,,32,32,24,27,7,7,0.7,0.7
2025-10-16T1700,2587A,105.2864,27.3125,毕节市,八中,,18,13,35,10,26,55,,44,44,4,10,9,11,0.4,0.5
2025-10-16T1700,2588A,105.31,27.2944,毕节市,师专,,17,17,26,9,18,50,,39,39,8,13,7,8,0.5,0.6
2025-10-16T1700,4263A,105.3688,27.3598,毕节市,工业大道,,18,12,32,8,24,57,,48,48,8,12,10,10,0.6,0.7
2025-10-16T1700,1629A,118.0018,37.3617,滨州市,第二水厂,,39,39,35,17,21,70,,71,71,10,20,4,4,0.1,0.3
2025-10-16T1700,1630A,117.9776,37.393,滨州市,北中新校,,34,34,37,17,19,74,,75,75,12,25,6,6,0.3,0.4
2025-10-16T1700,3514A,117.9378,37.3956,滨州市,中海酒店,,34,34,30,19,21,76,,75,75,7,23,2,2,0.4,0.5
2025-10-16T1700,3515A,117.9378,37.3553,滨州市,开发区一中,,44,44,40,17,24,80,,80,80,11,25,3,4,0.6,0.7
2025-10-16T1700,3516A,118.0917,37.694,滨州市,金海六路,,32,32,32,17,19,81,,88,88,6,19,3,4,0.4,0.5
2025-10-16T1700,4028A,117.9956,37.3753,滨州市,滨州市西街道办事处,,28,27,27,19,24,76,,78,78,14,22,4,4,0.3,0.5
2025-10-16T1700,2311A,115.8072,33.8399,亳州市,污水处理厂,,26,26,35,17,27,52,,53,53,12,12,6,6,0.6,0.8
2025-10-16T1700,2312A,115.7789,33.8518,亳州市,三国揽胜宫,,31,31,31,21,29,53,,52,52,9,9,5,4,0.5,0.7
2025-10-16T1700,3332A,115.7633,33.8034,亳州市,亳州学院,,38,29,31,26,29,56,,57,57,11,10,4,4,0.5,0.6
2025-10-16T1700,2693A,82.0485,44.8556,博尔塔拉蒙古自治州,市党校,,32,32,48,20,32,72,,51,51,8,18,6,6,0.3,0.3
2025-10-16T1700,2694A,82.0806,44.8969,博尔塔拉蒙古自治州,市环保局,,36,36,71,15,23,73,,52,52,7,25,8,7,0.3,0.5
2025-10-16T1700,1071A,116.8842,38.2991,沧州市,沧县城建局,,48,48,72,22,49,71,,68,68,13,35,2,4,0.3,0.6
2025-10-16T1700,1072A,116.8584,38.3254,沧州市,电视转播站,,48,48,69,27,49,70,,66,66,13,29,1,2,0.3,0.6
2025-10-16T1700,1073A,116.8709,38.3228,沧州市,市环保局,颗粒物(PM10),56,62,72,37,51,71,,68,68,13,35,1,2,0.3,0.6
2025-10-16T1700,3324A,116.8136,38.3004,沧州市,河北水利电力学院,,39,39,67,20,50,65,,61,61,12,29,2,4,0.3,0.6
2025-10-16T1700,3719A,97.1714,31.1406,昌都市,昌都会议中心,,35,10,13,3,7,110,,91,91,2,5,3,8,0.2,0.2
2025-10-16T1700,2692A,87.2717,44.0297,昌吉回族自治州,新区政务中心,,23,17,24,6,14,73,,48,48,8,25,8,7,0.5,0.7
2025-10-16T1700,3613A,87.3095,44.0142,昌吉回族自治州,亚心广场,,25,19,32,9,12,78,,51,51,7,32,7,7,0.2,0.4
2025-10-16T1700,1120A,125.2863,43.9027,长春市,客车厂,细颗粒物(PM2.5),72,60,42,52,38,69,,53,53,26,18,6,6,0.3,0.3
2025-10-16T1700,1121A,125.2841,43.8463,长春市,邮电学院,颗粒物(PM10),62,73,45,36,36,75,,56,56,18,18,6,7,0.4,0.4
2025-10-16T1700,1122A,125.3716,43.8772,长春市,劳动公园,细颗粒物(PM2.5),62,60,54,44,34,73,,60,60,26,20,8,8,0.5,0.7
2025-10-16T1700,1123A,125.3297,43.8805,长春市,园林处,细颗粒物(PM2.5),64,63,50,46,46,73,,56,56,26,22,3,3,0.3,0.3
2025-10-16T1700,1124A,125.4605,43.79,长春市,净月潭,颗粒物(PM10),52,53,48,32,31,77,,67,67,12,16,5,5,0.3,0.3
2025-10-16T1700,1126A,125.3863,43.8447,长春市,经开区环卫处,颗粒物(PM10),56,62,48,35,33,71,,58,58,23,20,7,6,0.3,0.4
2025-10-16T1700,1127A,125.245,43.7783,长春市,高新区管委会,细颗粒物(PM2.5),58,57,42,41,33,66,,53,53,25,20,6,6,0.3,0.3
2025-10-16T1700,1128A,125.1761,43.8325,长春市,岱山公园,细颗粒物(PM2.5),70,65,49,51,38,48,,48,48,50,22,7,6,0.4,0.3
2025-10-16T1700,4281A,125.3346,43.9164,长春市,北亚泰大街1068号,细颗粒物(PM2.5),67,68,44,48,38,74,,57,57,22,19,6,7,0.3,0.4
2025-10-16T1700,1335A,113.0833,28.2325,长沙市,经开区环保局,,28,28,44,19,29,25,,25,25,18,18,4,5,0.8,0.7
2025-10-16T1700,1336A,112.8872,28.2189,长沙市,高开区环保局,,39,32,41,27,46,32,,25,25,15,13,4,5,0.6,0.6
2025-10-16T1700,1337A,113.0792,28.2053,长沙市,马坡岭,,32,32,46,22,30,35,,29,29,20,20,5,5,0.6,0.7
2025-10-16T1700,1338A,112.9394,28.19,长沙市,湖南师范大学,,28,28,41,19,29,37,,31,31,13,14,4,3,0.9,1
2025-10-16T1700,1339A,113.0178,28.1322,长沙市,雨花区环保局,,38,32,43,26,37,34,,30,30,17,19,6,6,0.8,0.9
2025-10-16T1700,1340A,112.9792,28.2597,长沙市,伍家岭,,38,27,44,26,33,39,,30,30,14,16,3,3,0.6,0.7
2025-10-16T1700,1341A,113.0014,28.1944,长沙市,火车新站,,28,28,43,17,33,37,,31,31,15,16,8,8,0.9,1
2025-10-16T1700,1342A,112.9844,28.1178,长沙市,天心区环保局,,34,34,46,23,33,41,,35,35,18,19,4,4,0.6,0.7
2025-10-16T1700,1343A,112.8908,28.1308,长沙市,湖南中医药大学,,35,35,47,15,19,36,,30,28,14,14,4,4,0.9,1
2025-10-16T1700,1727A,113.1147,36.1547,长治市,清华站,,32,29,39,19,28,100,,84,84,11,20,8,9,0.5,1.2
2025-10-16T1700,1730A,113.0886,36.2125,长治市,审计局,,42,,30,29,35,100,,86,86,11,18,5,6,0.4,0.8
2025-10-16T1700,1731A,113.0844,36.1856,长治市,长治八中,,48,,42,33,36,96,,81,81,6,14,7,7,0.5,1.1
2025-10-16T1700,2845A,113.1569,36.1911,长治市,德盛苑,,,,36,,27,101,,87,87,,11,5,4,,1
2025-10-16T1700,3568A,113.06,36.0464,长治市,向阳小学,细颗粒物(PM2.5),58,43,57,41,35,100,,87,87,13,22,6,6,0.6,0.9
2025-10-16T1700,3569A,112.8792,36.3144,长治市,屯留一中,,,60,55,35,38,92,,93,93,,22,,10,0.6,0.9
2025-10-16T1700,4189A,113.1131,36.19948,长治市,英华南巷50号,,42,,44,29,34,89,,80,80,15,18,5,6,0.7,1.2
2025-10-16T1700,4190A,113.2367,36.3344,长治市,学府街1号,细颗粒物(PM2.5),55,47,45,39,37,103,,110,110,10,14,6,7,0.6,0.7
2025-10-16T1700,1854A,111.6975,28.9703,常德市,市二中,,12,12,25,3,16,36,,43,39,16,9,6,6,0.7,0.8
2025-10-16T1700,3138A,111.7153,29.0289,常德市,武陵区永安,,15,9,24,3,17,48,,44,43,10,9,4,4,0.8,0.9
2025-10-16T1700,3139A,111.6892,28.9881,常德市,鼎城区玉霞,,16,8,25,3,17,49,,45,45,9,11,4,4,0.7,0.8
2025-10-16T1700,3140A,111.6625,29.0531,常德市,武陵区长庚,,16,11,22,7,18,50,,42,42,10,11,2,2,0.7,0.8
2025-10-16T1700,1196A,119.9633,31.762,常州市,市监测站,,19,11,32,10,19,59,,57,57,19,16,10,9,0.6,0.9
2025-10-16T1700,1200A,119.9468,31.7069,常州市,武进监测站,,15,15,30,10,18,48,,53,53,28,20,12,10,0.7,0.9
2025-10-16T1700,1201A,119.9255,31.9087,常州市,安家,,21,21,40,6,17,63,,52,52,20,26,9,8,0.5,0.8
2025-10-16T1700,3002A,119.9805,31.8174,常州市,行政中心,,30,30,30,10,21,59,,57,57,20,22,2,2,0.6,0.9
2025-10-16T1700,3003A,120.0522,31.7748,常州市,经开区,,17,17,32,9,16,47,,48,48,25,19,7,7,0.7,1
2025-10-16T1700,3010A,119.9025,31.7964,常州市,钟楼,,20,12,30,7,19,63,,57,57,18,21,8,8,0.5,0.8
2025-10-16T1700,3429A,119.8598,31.7066,常州市,武进经发区,,17,12,31,6,16,46,,42,42,33,24,10,9,1.0,1.2
2025-10-16T1700,3430A,119.5826,31.7245,常州市,金坛城区,,17,14,26,7,17,52,,46,46,19,15,9,9,0.7,0.9
2025-10-16T1700,2220A,120.4318,41.5881,朝阳市,西梁,,21,19,19,12,20,65,,66,66,16,13,7,5,0.4,0.4
2025-10-16T1700,2221A,120.4521,41.5646,朝阳市,河畔小区,,22,21,25,13,18,70,,70,70,13,12,7,6,0.4,0.4
2025-10-16T1700,2222A,120.4176,41.5648,朝阳市,八里堡,,34,34,30,18,20,69,,70,70,16,13,8,7,0.5,0.4
2025-10-16T1700,2223A,120.3806,41.5969,朝阳市,农业园区,,24,24,20,16,20,66,,71,71,16,13,5,4,0.4,0.4
2025-10-16T1700,3026A,116.6183,23.6608,潮州市,市政府,,40,40,26,17,12,96,,92,92,4,5,6,6,0.2,0.2
2025-10-16T1700,4036A,116.6461,23.6761,潮州市,金山,,40,40,25,10,12,98,,88,88,4,5,8,6,0.6,0.6
2025-10-16T1700,2473A,113.0116,25.8226,郴州市,市职中,细颗粒物(PM2.5),54,47,56,38,50,60,,49,49,10,18,3,4,0.9,0.9
2025-10-16T1700,2475A,113.0383,25.8071,郴州市,市审计局,细颗粒物(PM2.5),53,45,58,37,51,63,,54,54,6,13,5,8,1.0,1.1
2025-10-16T1700,2476A,113.0348,25.7759,郴州市,市环保局,细颗粒物(PM2.5),54,46,67,38,50,68,,54,54,9,26,2,3,0.8,0.9
2025-10-16T1700,4252A,113.0138,25.8011,郴州市,好美居路49号,,46,42,60,32,44,69,,59,59,12,25,4,7,0.9,0.9
2025-10-16T1700,1431A,103.9728,30.7236,成都市,金泉两河,细颗粒物(PM2.5),63,45,37,45,19,85,,59,59,19,22,3,3,0.9,0.8
2025-10-16T1700,1432A,104.176,30.6872,成都市,十里店,细颗粒物(PM2.5),85,84,39,63,23,102,,59,59,31,25,4,4,0.7,0.7
2025-10-16T1700,1433A,104.079,30.5706,成都市,三瓦窑,细颗粒物(PM2.5),87,74,48,64,36,108,,65,65,31,33,5,4,0.8,0.8
2025-10-16T1700,1434A,104.1114,30.63,成都市,沙河铺,细颗粒物(PM2.5),87,85,49,64,34,99,,56,56,37,33,5,4,0.6,0.6
2025-10-16T1700,1437A,104.0786,30.6531,成都市,君平街,细颗粒物(PM2.5),72,72,44,52,27,36,,38,23,20,19,4,4,0.7,0.7
2025-10-16T1700,2880A,104.0239,30.65639,成都市,大石西路,,,,32,,26,92,,59,59,23,24,3,2,,0.6
2025-10-16T1700,3136A,104.2725,30.5589,成都市,龙泉驿区区政府,,39,39,24,22,16,93,,63,63,19,15,6,6,0.7,0.6
2025-10-16T1700,3357A,104.0106,30.6931,成都市,金博路,细颗粒物(PM2.5),59,64,31,42,15,92,,59,59,22,25,7,6,0.7,0.6
2025-10-16T1700,3359A,104.0578,30.5225,成都市,华阳,细颗粒物(PM2.5),62,61,37,44,29,88,,62,62,33,25,5,5,0.8,0.7
2025-10-16T1700,3488A,104.3880,30.7467,成都市,青石路225号,颗粒物(PM10),56,61,34,38,23,101,,72,72,14,18,4,5,0.6,0.6
2025-10-16T1700,3489A,104.0789,30.4072,成都市,科学城,,,53,35,37,27,88,,75,75,24,15,5,5,,0.7
2025-10-16T1700,4011A,103.8506,30.6947,成都市,光华大道三段,颗粒物(PM10),51,52,42,27,26,94,,58,58,17,23,2,2,0.7,0.7
2025-10-16T1700,4224A,104.2433,30.5353,成都市,鲸龙路1057号,,45,45,38,31,26,93,,62,62,25,29,5,5,0.7,0.7
2025-10-16T1700,1062A,117.9531,40.9081,承德市,铁路,,24,24,46,7,23,41,,38,38,12,22,1,1,0.3,0.4
2025-10-16T1700,1063A,117.9392,40.9763,承德市,中国银行,,27,27,35,11,18,40,,47,47,11,12,1,2,0.3,0.4
2025-10-16T1700,1064A,117.9503,40.928,承德市,开发区,,41,41,54,19,27,40,,41,41,16,16,3,3,0.3,0.4
2025-10-16T1700,4274A,117.7994,40.9605,承德市,滨河大街98号,,16,15,29,9,22,49,,45,45,6,10,1,2,0.3,0.4
2025-10-16T1700,2314A,117.47,30.6618,池州市,池州学院,细颗粒物(PM2.5),52,49,26,36,19,43,,33,33,25,18,6,6,1.1,0.9
2025-10-16T1700,3237A,117.4918,30.6617,池州市,展览馆,,49,49,30,32,19,42,,34,34,27,19,7,6,1.1,0.9
2025-10-16T1700,3333A,117.5627,30.695,池州市,第八中学,,40,40,30,27,17,40,,34,34,21,16,6,6,1.3,1.1
2025-10-16T1700,3334A,117.5038,30.6243,池州市,第十二中学,,46,44,28,32,20,37,,33,33,26,17,4,4,1.4,1.2
2025-10-16T1700,1744A,118.9233,42.2816,赤峰市,松山一中,,32,32,17,20,11,23,,32,32,32,17,19,8,0.6,0.6
2025-10-16T1700,1745A,118.9576,42.2728,赤峰市,哈达街,,,,22,,14,27,,36,35,,19,27,12,0.6,0.6
2025-10-16T1700,1746A,118.8788,42.2554,赤峰市,天义路,,38,28,14,26,16,30,,30,29,24,19,13,12,0.4,0.4
2025-10-16T1700,3058A,119.2658,42.0353,赤峰市,银河街,,23,,20,16,17,38,,40,40,14,11,6,5,0.4,0.4
2025-10-16T1700,3286A,118.9359,42.3147,赤峰市,桥北物流园区,,25,21,16,17,14,30,,36,36,24,12,12,7,0.5,0.5
2025-10-16T1700,2521A,107.3476,22.4136,崇左市,市环保局江州分局,,22,,32,12,11,68,,68,68,4,12,1,2,0.5,0.7
2025-10-16T1700,4256A,107.3750,22.3736,崇左市,石景林东路7号,,,,22,13,11,75,,70,70,4,11,,6,0.5,0.6
2025-10-16T1700,2298A,118.3093,32.3153,滁州市,老年大学,,24,24,29,15,22,58,,51,51,11,7,5,5,0.2,0.4
2025-10-16T1700,2299A,118.3244,32.2786,滁州市,人大宾馆,,17,15,20,8,22,54,,48,48,13,8,4,4,0.1,0.4
2025-10-16T1700,3207A,118.3118,32.3038,滁州市,市政府原办公楼,,25,21,25,17,28,52,,46,46,15,11,5,5,0.2,0.5
2025-10-16T1700,3331A,118.3267,32.2634,滁州市,图书馆,,20,20,19,6,18,61,,48,48,10,9,7,7,0.3,0.6
2025-10-16T1700,2605A,101.5482,25.0441,楚雄彝族自治州,州环境监测站,,10,7,15,3,9,31,,29,29,3,14,6,10,0.6,0.7
2025-10-16T1700,2606A,101.538,25.0492,楚雄彝族自治州,市经济开发区,,10,6,14,3,7,30,,31,31,6,16,5,10,0.7,0.7
2025-10-16T1700,2549A,107.5086,31.2186,达州市,市环境监测站,,30,30,23,3,3,2,,5,5,28,23,7,8,0.8,0.8
2025-10-16T1700,2550A,107.4988,31.2132,达州市,凤凰小区,,27,27,25,3,6,4,,6,6,27,23,6,7,0.7,0.8
2025-10-16T1700,2551A,107.5082,31.1986,达州市,达县机关宾馆,,19,19,21,3,5,4,,8,8,25,22,5,7,0.6,0.7
2025-10-16T1700,2552A,107.4644,31.2124,达州市,市政中心,,32,32,35,9,4,4,,5,5,27,24,6,6,0.7,0.7
2025-10-16T1700,2614A,100.1542,25.7054,大理白族自治州,大理市环境监测站,,14,8,14,3,13,42,,47,45,11,8,5,5,0.8,0.7
2025-10-16T1700,2615A,100.2171,25.5811,大理白族自治州,大理古城,,22,,16,15,15,53,,46,46,6,9,6,6,0.7,0.7
2025-10-16T1700,1109A,121.612,38.9741,大连市,甘井子,颗粒物(PM10),69,88,87,47,48,49,,52,52,43,38,7,10,0.8,1
2025-10-16T1700,1110A,121.565,38.9511,大连市,周水子,颗粒物(PM10),64,78,78,44,46,51,,57,57,39,34,8,11,0.8,0.8
2025-10-16T1700,1111A,121.5637,38.8845,大连市,星海三站,细颗粒物(PM2.5),68,76,73,49,49,60,,63,63,17,17,5,5,0.9,0.9
2025-10-16T1700,1112A,121.6302,38.9117,大连市,青泥洼桥,细颗粒物(PM2.5),68,82,85,49,49,47,,54,54,43,32,10,11,0.7,0.9
2025-10-16T1700,1113A,121.6251,38.8638,大连市,傅家庄,颗粒物(PM10),61,71,71,43,46,47,,53,53,38,30,8,10,0.9,1.1
2025-10-16T1700,1114A,121.5213,38.8661,大连市,七贤岭,细颗粒物(PM2.5),67,76,82,48,47,66,,63,63,26,28,5,7,0.8,0.9
2025-10-16T1700,1115A,121.2529,38.8061,大连市,旅顺,细颗粒物(PM2.5),58,51,58,41,41,68,,67,67,16,16,8,8,0.5,0.5
2025-10-16T1700,1116A,121.7485,39.1311,大连市,金州,细颗粒物(PM2.5),74,75,69,54,51,48,,58,58,44,32,11,10,0.6,0.7
2025-10-16T1700,1117A,121.7811,39.0496,大连市,开发区,细颗粒物(PM2.5),64,74,76,46,46,42,,52,52,40,30,4,4,0.7,0.7
2025-10-16T1700,1118A,121.9762,39.0631,大连市,双D港,颗粒物(PM10),56,61,68,38,42,62,,72,72,25,22,9,10,0.7,0.9
2025-10-16T1700,1789A,124.81117,46.03138,大庆市,大同区,,27,27,29,12,13,39,,44,44,28,14,8,8,0.5,0.5
2025-10-16T1700,1790A,125.129,46.533,大庆市,龙凤区,,30,29,34,21,19,49,,50,50,16,15,11,10,0.6,0.6
2025-10-16T1700,1791A,124.902,46.408,大庆市,红岗区,,29,,27,20,14,58,,54,54,12,17,5,4,0.4,0.5
2025-10-16T1700,1792A,125.153,46.586,大庆市,萨尔图区,,39,39,30,3,10,48,,51,51,21,15,10,10,0.3,0.3
2025-10-16T1700,1793A,124.9042,46.6215,大庆市,让胡路区,,27,27,30,15,19,41,,52,52,25,14,6,6,0.2,0.2
2025-10-16T1700,3481A,125.141,46.634,大庆市,萨区政府监测点,,24,24,25,3,5,54,,56,56,9,8,8,8,0.6,0.6
2025-10-16T1700,1721A,113.3819,40.1097,大同市,果树场,,43,34,47,30,33,76,,69,69,24,31,6,6,0.4,0.5
2025-10-16T1700,1723A,113.2994,40.0758,大同市,云冈宾馆,,49,49,48,31,27,90,,77,77,13,33,6,6,0.8,0.9
2025-10-16T1700,1724A,113.3444,40.0917,大同市,大同大学,,40,38,40,28,25,97,,85,85,18,30,7,7,0.5,0.5
2025-10-16T1700,1725A,113.2661,40.1269,大同市,安家小村,,44,44,45,23,28,95,,84,84,16,29,3,4,0.5,0.8
2025-10-16T1700,1726A,113.2711,40.0844,大同市,教育学院,,49,49,51,32,28,87,,77,77,20,30,5,6,0.4,0.6
2025-10-16T1700,3282A,113.3397,40.0597,大同市,大同市卫生学校,,,34,41,29,25,90,,76,76,,30,,5,0.7,0.8
2025-10-16T1700,3565A,113.1367,40.1122,大同市,云冈站,,44,44,58,22,32,90,,78,78,18,26,6,6,0.6,0.6
2025-10-16T1700,3566A,113.1186,40.2556,大同市,图书馆,细颗粒物(PM2.5),62,60,41,44,32,92,,86,86,20,23,6,6,0.6,0.7
2025-10-16T1700,3567A,113.5931,40.0461,大同市,区一中,,,34,34,27,22,103,,,,,16,2,3,,0.6
2025-10-16T1700,4199A,113.2798,40.0997,大同市,魏都大道141号,颗粒物(PM10),54,57,52,30,31,98,,85,85,17,31,4,5,0.5,0.8
2025-10-16T1700,2269A,124.1069,50.4097,大兴安岭地区,科技局,,23,23,19,10,12,55,,56,56,7,5,3,4,0.2,0.2
2025-10-16T1700,3663A,124.1164,50.4278,大兴安岭地区,红旗社区,,18,6,12,3,7,56,,56,56,3,12,3,4,0.3,0.3
2025-10-16T1700,1600A,124.3303,40.0625,丹东市,江湾东路,细颗粒物(PM2.5),57,52,51,40,40,78,,83,83,24,21,10,9,0.8,0.8
2025-10-16T1700,1601A,124.4256,40.1503,丹东市,临江后街,,49,49,49,26,29,79,,83,83,22,18,6,7,0.8,0.9
2025-10-16T1700,1602A,124.3933,40.1461,丹东市,元宝山,,,43,46,31,36,66,,76,76,,17,8,8,0.7,0.8
2025-10-16T1700,1603A,124.3633,40.1092,丹东市,民主桥,颗粒物(PM10),52,53,53,29,34,73,,82,82,30,25,5,6,0.8,0.9
2025-10-16T1700,3541A,109.5726,19.5167,儋州市,第一中学子站,,17,17,19,8,11,44,,43,43,4,3,3,4,0.3,0.4
2025-10-16T1700,3542A,109.5567,19.5187,儋州市,东坡学校子站,,16,12,19,7,9,50,,48,48,4,4,4,4,0.2,0.2
2025-10-16T1700,2616A,98.5842,24.428,德宏傣族景颇族自治州,德宏州监测站,,22,20,32,15,21,39,,23,23,12,15,6,8,0.8,0.8
2025-10-16T1700,3677A,98.5881,24.4368,德宏傣族景颇族自治州,芒市人民政府综合楼,,27,27,35,13,21,45,,29,29,8,12,8,9,0.7,0.7
2025-10-16T1700,1901A,104.4239,31.1208,德阳市,东山公园,,28,21,24,16,20,87,,51,51,9,15,3,3,0.8,0.8
2025-10-16T1700,1902A,104.3826,31.1317,德阳市,西小区,,35,35,40,23,22,81,,59,59,11,15,1,3,0.4,0.5
2025-10-16T1700,1904A,104.3553,31.1091,德阳市,耐火材料厂,,33,33,42,16,25,76,,54,54,14,19,3,2,0.8,0.9
2025-10-16T1700,3639A,104.4019,31.1244,德阳市,市教育局,,28,27,34,16,20,89,,54,54,8,17,4,4,0.8,0.8
2025-10-16T1700,1622A,116.3032,37.4674,德州市,儿童乐园,颗粒物(PM10),57,63,81,36,58,88,,86,86,16,36,9,10,0.5,0.9
2025-10-16T1700,1624A,116.2991,37.4451,德州市,监理站,颗粒物(PM10),52,53,63,31,50,88,,80,80,17,33,10,10,0.5,0.7
2025-10-16T1700,3066A,116.2721,37.4379,德州市,九衢泉纯净水厂,颗粒物(PM10),52,53,70,27,43,80,,72,72,17,41,10,11,0.5,0.9
2025-10-16T1700,3371A,116.3728,37.4403,德州市,开发区人民医院,颗粒物(PM10),52,53,64,27,39,80,,70,70,19,41,11,12,0.6,0.9
2025-10-16T1700,3511A,116.5652,37.3319,德州市,陵城艺术中心,颗粒物(PM10),52,53,58,31,41,87,,74,74,17,27,7,9,0.6,0.8
2025-10-16T1700,4292A,116.3525,37.4209,德州市,新河东路,,,,67,,40,82,,74,74,15,39,,8,,1
2025-10-16T1700,2621A,99.7056,27.8317,迪庆藏族自治州,迪庆州站,,23,16,25,8,16,73,,78,78,5,8,6,6,0.2,0.4
2025-10-16T1700,3180A,99.7136,27.8094,迪庆藏族自治州,质量技术监督局,,31,31,24,6,14,76,,74,74,8,13,7,8,0.4,0.4
2025-10-16T1700,4257A,104.6092,35.5962,定西市,将台街,,36,36,40,18,20,63,,39,39,14,25,7,7,0.4,0.5
2025-10-16T1700,4309A,104.6159,35.5701,定西市,正龙路62号,,42,32,43,29,25,66,,46,40,9,14,4,5,0.3,0.4
2025-10-16T1700,1389A,113.7547,23.0494,东莞市,莞城梨川,,50,26,23,16,13,160,,140,140,12,22,6,8,0.6,0.7
2025-10-16T1700,1390A,113.7944,23.0128,东莞市,东城石井,,48,33,41,26,24,152,,140,140,11,20,5,6,0.5,0.6
2025-10-16T1700,1391A,113.7383,22.9658,东莞市,南城西平,,50,26,48,23,27,159,,153,153,14,33,7,6,0.6,0.6
2025-10-16T1700,3319A,113.7338,23.0381,东莞市,万江金泰,,48,34,45,25,29,152,,134,134,12,20,7,8,0.8,0.8
2025-10-16T1700,3626A,113.7533,23.0202,东莞市,南城元岭,臭氧1小时,63,40,45,26,29,170,,151,151,17,26,5,6,0.5,0.6
2025-10-16T1700,3627A,113.7875,23.0457,东莞市,东城主山,臭氧1小时,62,41,48,25,27,169,,149,149,16,29,3,4,0.6,0.6
2025-10-16T1700,1666A,118.6614,37.4309,东营市,市环保局,,29,29,26,9,14,81,,80,80,14,23,4,5,0.5,0.5
2025-10-16T1700,3036A,118.6904,37.4338,东营市,开发区管委会,,35,35,39,22,23,86,,84,84,12,15,5,5,0.3,0.4
2025-10-16T1700,3365A,118.5719,37.565,东营市,垦利区民丰路,,31,31,33,17,17,82,,80,80,13,22,2,2,0.4,0.4
2025-10-16T1700,3498A,118.5055,37.8612,东营市,河口城区,,31,31,36,10,18,91,,88,88,14,18,5,6,0.4,0.5
2025-10-16T1700,3646A,118.4978,37.4623,东营市,胜利站,,28,28,35,17,18,84,,80,80,21,26,7,7,0.4,0.6
2025-10-16T1700,3734A,118.35,37.26,东营市,理想之城,,36,36,34,19,21,67,,70,70,22,27,1,2,0.3,0.4
2025-10-16T1700,1591A,110.0023,39.8129,鄂尔多斯市,综合楼,,34,34,38,22,21,51,,55,55,27,30,8,10,0.7,0.8
2025-10-16T1700,1592A,109.9486,39.8261,鄂尔多斯市,巴音孟克林场办事处,,28,24,42,19,29,50,,65,52,20,20,7,15,0.8,0.7
2025-10-16T1700,1593A,109.7736,39.5986,鄂尔多斯市,康泽苑,,36,36,38,24,22,50,,56,56,21,30,6,7,0.8,0.6
2025-10-16T1700,1594A,109.8119,39.5989,鄂尔多斯市,华泰汽车城,,39,34,40,27,25,45,,46,46,24,34,4,6,0.6,0.6
2025-10-16T1700,1595A,109.9734,39.7884,鄂尔多斯市,奥林花园,,35,31,46,24,23,41,,49,49,29,29,5,6,0.6,0.5
2025-10-16T1700,2436A,114.8938,30.3994,鄂州市,市政府,,29,24,33,20,14,29,,29,29,20,16,6,7,0.9,1
2025-10-16T1700,2437A,114.8989,30.3714,鄂州市,赵家坝,,32,32,30,14,12,34,,34,34,14,12,8,8,0.9,1.1
2025-10-16T1700,3654A,114.8094,30.4089,鄂州市,精准医疗中心,,28,28,27,14,13,28,,27,27,12,12,5,7,0.9,1.1
2025-10-16T1700,2454A,109.4978,30.2981,恩施土家族苗族自治州,湖北民院,,,14,13,,10,22,,21,21,11,9,7,7,0.8,0.7
2025-10-16T1700,2455A,109.4707,30.2798,恩施土家族苗族自治州,州电力总公司,,10,,10,3,6,10,,18,14,20,11,7,7,0.9,0.9
2025-10-16T1700,3549A,109.5061,30.3772,恩施土家族苗族自治州,龙凤新区,,9,,10,6,7,9,,16,16,12,5,6,6,0.6,0.6
2025-10-16T1700,2499A,108.3411,21.6158,防城港市,沙万,颗粒物(PM10),54,57,29,16,11,114,,81,81,14,11,10,5,0.6,0.5
2025-10-16T1700,2500A,108.3514,21.7731,防城港市,防城档案局,,33,25,30,23,13,91,,73,73,8,11,5,4,0.5,0.4
2025-10-16T1700,2501A,108.3506,21.6414,防城港市,大海花园,,50,50,31,15,11,140,,98,98,9,10,6,5,0.6,0.6
2025-10-16T1700,1371A,113.1294,23.0067,佛山市,湾梁,臭氧1小时,79,46,41,27,19,183,,138,138,25,45,6,7,0.6,0.6
2025-10-16T1700,1372A,113.1083,23.0478,佛山市,华材职中,臭氧1小时,100,44,59,32,34,200,,143,143,12,42,6,7,0.5,0.6
2025-10-16T1700,1373A,113.144,23.0453,佛山市,南海气象局,臭氧1小时,74,57,50,30,24,179,,144,144,15,36,7,8,0.8,0.8
2025-10-16T1700,1374A,113.2881,22.8094,佛山市,顺德苏岗,臭氧1小时,74,48,43,29,19,179,,152,152,18,32,7,7,0.6,0.6
2025-10-16T1700,1376A,112.8383,22.8678,佛山市,高明孔堂,臭氧1小时,115,50,48,35,28,230,,201,201,26,21,4,5,0.5,0.5
2025-10-16T1700,1377A,112.8836,23.1588,佛山市,三水监测站,臭氧1小时,55,56,74,35,37,164,,156,156,24,45,7,10,0.6,0.7
2025-10-16T1700,1378A,112.867,23.185,佛山市,三水云东海,臭氧1小时,59,63,81,30,48,167,,166,166,30,50,5,6,0.8,0.9
2025-10-16T1700,3625A,113.2544,22.7642,佛山市,容桂街道办,臭氧1小时,73,41,31,24,20,178,,151,151,17,32,6,6,0.7,0.7
2025-10-16T1700,1282A,119.2681,26.0504,福州市,师大,,34,34,23,14,11,86,,89,89,9,12,6,6,0.4,0.4
2025-10-16T1700,1283A,119.2984,26.1028,福州市,五四北路,,29,,21,20,12,89,,84,84,10,11,4,5,0.3,0.4
2025-10-16T1700,1284A,119.2648,26.0768,福州市,杨桥西路,,29,26,22,20,12,89,,88,88,8,9,4,4,0.3,0.4
2025-10-16T1700,1285A,119.317,26.0746,福州市,紫阳,,35,35,25,14,11,84,,79,79,8,10,6,6,0.2,0.3
2025-10-16T1700,3048A,119.5799,26.0936,福州市,九龙,,22,21,19,15,10,70,,73,73,3,7,4,4,0.3,0.4
2025-10-16T1700,3526A,119.5189,25.9664,福州市,吴航,,21,20,20,13,12,65,,72,71,2,7,5,5,0.4,0.5
2025-10-16T1700,1755A,123.7977,41.8491,抚顺市,望花区,颗粒物(PM10),60,70,55,41,36,52,,51,51,32,21,8,8,0.5,0.5
2025-10-16T1700,1756A,123.9161,41.8822,抚顺市,顺城区,,,58,58,39,35,61,,52,52,23,23,,6,,0.5
2025-10-16T1700,1757A,124.0436,41.8611,抚顺市,东洲区,,42,42,56,27,39,54,,50,50,13,21,7,7,0.7,0.7
2025-10-16T1700,1758A,123.9247,41.8642,抚顺市,新抚区,颗粒物(PM10),66,82,62,45,36,58,,51,51,23,22,8,8,0.6,0.6
2025-10-16T1700,1759A,124.0972,41.8961,抚顺市,大伙房水库,,43,34,58,30,41,53,,50,50,17,23,9,10,0.5,0.6
2025-10-16T1700,1760A,123.7086,41.8391,抚顺市,沈抚新城,细颗粒物(PM2.5),52,49,56,36,27,72,,59,59,18,20,6,7,0.5,0.5
2025-10-16T1700,2377A,116.3544,27.9831,抚州市,市站,,42,40,63,21,41,132,,117,117,5,12,6,10,1.5,1.6
2025-10-16T1700,2378A,116.3565,27.963,抚州市,血防站,,42,42,62,25,42,132,,118,118,4,13,7,11,0.7,0.8
2025-10-16T1700,2379A,116.3564,28.0007,抚州市,采茶剧团,,40,35,63,22,41,127,,112,112,2,8,7,12,0.8,1
2025-10-16T1700,2380A,116.385,27.9647,抚州市,医学分院,,49,49,67,22,43,130,,116,116,3,10,4,7,1.1,1.2
2025-10-16T1700,2207A,121.6094,41.998,阜新市,工业园区,,37,37,24,11,13,59,,62,62,17,12,9,8,0.3,0.4
2025-10-16T1700,2208A,121.6697,42.0279,阜新市,长青街,,25,25,19,13,14,57,,59,58,14,11,8,7,0.3,0.4
2025-10-16T1700,2209A,121.6673,42.0705,阜新市,农业园区,,,,19,7,14,60,,60,60,,9,3,3,0.4,0.6
2025-10-16T1700,2210A,121.6717,42.0224,阜新市,东苑,,41,41,27,12,15,57,,57,57,17,13,6,5,0.3,0.5
2025-10-16T1700,2211A,121.6506,42.0498,阜新市,玉龙新城,,29,29,23,12,11,59,,62,62,16,11,8,8,0.2,0.4
2025-10-16T1700,2301A,115.8277,32.8929,阜阳市,市监测站,,25,25,29,7,19,38,,40,31,17,17,3,4,0.4,0.5
2025-10-16T1700,2303A,115.8554,32.8605,阜阳市,开发区,,17,17,43,6,18,33,,38,28,17,16,7,7,0.5,0.6
2025-10-16T1700,2875A,115.784,32.8892,阜阳市,阜阳职业技术学院,,28,28,43,13,24,36,,41,30,16,15,5,5,0.5,0.5
2025-10-16T1700,3468A,115.7901,32.8613,阜阳市,市规划展馆,,23,23,42,10,24,39,,46,34,15,15,4,4,0.5,0.5
2025-10-16T1700,3469A,115.836,32.9183,阜阳市,枣园社区,,17,17,32,10,25,38,,39,32,17,16,6,6,0.4,0.5
2025-10-16T1700,2669A,102.9099,34.9841,甘南藏族自治州,州政府,,32,28,40,22,23,72,,62,62,7,25,6,8,0.4,0.5
2025-10-16T1700,3380A,102.8914,34.9617,甘南藏族自治州,甘肃民族师范学院,,40,31,43,28,21,79,,64,64,9,28,4,9,0.3,0.3
2025-10-16T1700,2570A,101.9603,30.0475,甘孜藏族自治州,水桥子,,26,,17,8,4,82,,70,70,4,20,8,7,0.2,0.5
2025-10-16T1700,3065A,101.9533,29.9972,甘孜藏族自治州,州环保局,,30,,18,8,6,93,,78,78,6,16,5,5,0.7,0.6
2025-10-16T1700,3414A,115.8347,28.932,赣江新区,桑海产业园,,32,27,47,16,38,100,,93,93,10,14,6,6,0.5,0.6
2025-10-16T1700,2362A,114.9017,25.9149,赣州市,通天岩,,27,23,26,10,13,84,,84,84,5,6,16,16,0.7,0.8
2025-10-16T1700,2363A,114.9367,25.8664,赣州市,地委,,23,22,32,16,19,73,,65,65,7,13,5,6,0.7,0.7
2025-10-16T1700,2364A,114.9461,25.8481,赣州市,气象台,,28,28,32,14,16,80,,75,75,6,13,4,6,0.4,0.7
2025-10-16T1700,2365A,114.9322,25.8333,赣州市,市图书馆,,25,17,29,17,19,79,,73,73,4,10,4,4,0.7,0.8
2025-10-16T1700,2366A,114.8905,25.8471,赣州市,华坚鞋城,,29,24,30,20,17,72,,66,66,8,11,4,4,0.7,0.8
2025-10-16T1700,3109A,115.0093,25.8613,赣州市,赣县区卫计委,,26,21,26,18,24,79,,72,72,4,14,7,8,0.6,0.6
2025-10-16T1700,2684A,106.2792,36.0022,固原市,监测站,颗粒物(PM10),61,72,26,16,12,62,,58,53,7,11,4,4,0.3,0.4
2025-10-16T1700,2685A,106.2375,36.0211,固原市,新区,颗粒物(PM10),61,72,25,9,16,62,,54,52,8,10,4,4,0.3,0.6
2025-10-16T1700,3522A,106.2177,35.9959,固原市,原州区十五小,,31,31,30,13,16,60,,52,48,9,11,7,7,0.4,0.5
2025-10-16T1700,2544A,106.6303,30.4576,广安市,市委,,18,18,21,8,13,50,,26,26,6,17,4,4,0.7,0.9
2025-10-16T1700,2545A,106.6271,30.4663,广安市,友谊中学,,20,20,20,10,10,58,,37,37,8,17,4,8,0.7,1.1
2025-10-16T1700,2547A,106.6388,30.4551,广安市,广电花园,,20,20,18,13,10,49,,26,26,8,17,8,7,0.7,0.8
2025-10-16T1700,2902A,106.6351,30.4865,广安市,北辰小学,,16,14,17,6,9,49,,29,29,6,12,10,8,0.3,0.8
2025-10-16T1700,2524A,105.821,32.4444,广元市,老城,,32,23,16,22,18,10,,13,13,30,34,9,10,1.0,1
2025-10-16T1700,2526A,105.8628,32.4287,广元市,监测站,,12,11,16,6,12,18,,13,13,23,26,6,10,1.1,1.1
2025-10-16T1700,3617A,105.8047,32.4166,广元市,经开区,,50,50,44,30,25,7,,10,10,43,37,23,12,1.6,1.1
2025-10-16T1700,1345A,113.2347,23.1423,广州市,广雅中学,臭氧1小时,63,48,46,30,27,170,,117,117,22,41,5,5,0.5,0.5
2025-10-16T1700,1346A,113.2612,23.105,广州市,市五中,臭氧1小时,106,48,39,30,21,211,,148,148,22,40,8,7,0.6,0.6
2025-10-16T1700,1348A,113.3478,23.0916,广州市,广东商学院,臭氧1小时,84,54,47,32,31,187,,146,146,21,45,6,5,0.2,0.3
2025-10-16T1700,1349A,113.4332,23.1047,广州市,市八十六中,臭氧1小时,55,43,43,27,25,164,,139,139,34,55,8,7,0.5,0.5
2025-10-16T1700,1350A,113.3505,22.9483,广州市,番禺中学,臭氧1小时,84,44,40,24,22,187,,152,152,12,27,6,7,0.7,0.7
2025-10-16T1700,1351A,113.2146,23.3916,广州市,花都师范,,48,48,49,25,26,82,,113,113,27,41,4,5,0.6,0.6
2025-10-16T1700,1352A,113.2597,23.1331,广州市,市监测站,,,53,49,26,26,179,,125,125,,47,,7,0.7,0.7
2025-10-16T1700,1353A,113.5618,23.312,广州市,九龙镇镇龙,,,36,35,21,20,109,,82,82,,21,5,5,0.4,0.4
2025-10-16T1700,1354A,113.2765,23.1544,广州市,麓湖,,41,38,42,26,30,130,,104,104,16,52,6,5,0.5,0.6
2025-10-16T1700,2846A,113.3221,23.1322,广州市,体育西,臭氧1小时,65,49,55,34,31,172,,132,132,27,44,6,5,0.4,0.4
2025-10-16T1700,3298A,113.5717,23.5491,广州市,从化街口,,34,34,28,22,18,53,,77,77,17,22,6,6,0.6,0.6
2025-10-16T1700,3299A,113.3472,23.3692,广州市,白云竹料,,36,36,42,18,25,89,,97,97,10,30,4,5,0.4,0.5
2025-10-16T1700,3300A,113.2981,23.237,广州市,白云嘉禾,,47,39,48,25,28,149,,112,112,15,43,6,6,0.6,0.6
2025-10-16T1700,3301A,113.4256,23.1716,广州市,黄埔科学城,,49,41,44,26,28,155,,130,130,16,35,5,4,0.6,0.7
2025-10-16T1700,3302A,113.3942,23.0483,广州市,番禺大学城,,,56,47,32,30,185,,147,147,,43,6,7,,0.6
2025-10-16T1700,3303A,113.4922,22.8168,广州市,南沙黄阁,臭氧1小时,92,42,41,27,25,193,,167,167,17,33,7,8,0.7,0.7
2025-10-16T1700,3304A,113.5342,22.7896,广州市,南沙街,臭氧1小时,82,51,39,23,22,185,,164,164,14,25,5,6,0.4,0.4
2025-10-16T1700,3443A,113.2902,23.5544,广州市,花都梯面,,28,28,30,18,20,67,,83,83,16,26,6,7,0.5,0.5
2025-10-16T1700,3445A,113.7858,23.7478,广州市,从化良口,,18,13,18,12,13,53,,57,57,8,12,5,5,0.4,0.4
2025-10-16T1700,3446A,113.8051,23.2614,广州市,增城荔城,,39,34,29,27,19,101,,108,108,7,13,6,6,0.4,0.5
2025-10-16T1700,2506A,109.6047,23.0666,贵港市,江南子站,,44,36,37,21,21,139,,102,102,8,18,6,6,0.6,0.7
2025-10-16T1700,2508A,109.5669,23.1065,贵港市,荷城子站,,37,29,32,17,15,118,,93,93,8,21,4,5,0.5,0.6
2025-10-16T1700,3405A,109.5886,23.1172,贵港市,新世纪学校,,41,34,36,22,20,130,,100,100,14,17,4,3,0.5,0.6
2025-10-16T1700,4260A,109.5933,23.0951,贵港市,中山路155-3号,,44,30,37,22,19,138,,103,103,7,17,4,5,0.4,0.4
2025-10-16T1700,1439A,106.6899,26.5998,贵阳市,马鞍山,,10,7,8,7,7,29,,30,30,7,6,4,4,0.2,0.2
2025-10-16T1700,1441A,106.6243,26.6266,贵阳市,鉴湖路,,17,17,18,3,4,23,,30,26,7,7,6,7,0.3,0.3
2025-10-16T1700,1442A,106.7487,26.6343,贵阳市,燕子冲,,13,,7,9,5,38,,42,42,11,10,5,5,0.2,0.2
2025-10-16T1700,1443A,106.6555,26.4365,贵阳市,碧云窝,,22,22,17,3,2,31,,31,31,5,6,7,5,0.2,0.2
2025-10-16T1700,1445A,106.7109,26.6027,贵阳市,红边门,,18,12,15,12,9,28,,31,31,10,10,4,4,0,0
2025-10-16T1700,1446A,106.7164,26.5699,贵阳市,新华路,,14,14,15,3,3,30,,37,34,12,14,8,4,0.2,0.4
2025-10-16T1700,1447A,106.674,26.5424,贵阳市,太慈桥,,17,17,11,3,2,25,,27,27,8,8,4,4,0.0,0.1
2025-10-16T1700,4230A,106.6882,26.5695,贵阳市,花果园大街66号,,8,,4,3,5,25,,27,25,8,7,2,1,0.1,0.2
2025-10-16T1700,4231A,106.6873,26.5169,贵阳市,漓江路57号,,10,9,11,3,3,29,,31,31,6,8,7,7,0.6,0.6
2025-10-16T1700,1864A,110.3089,25.2708,桂林市,龙隐路小学,,44,44,39,27,25,102,,94,94,7,15,6,10,0.4,0.5
2025-10-16T1700,1865A,110.2869,25.2178,桂林市,八中,,35,32,40,23,26,109,,98,98,8,17,7,10,0.7,0.7
2025-10-16T1700,3531A,110.296,25.1253,桂林市,旅游学院,,,,27,,19,107,,95,95,5,19,6,5,0.4,0.6
2025-10-16T1700,4222A,110.1835,25.2444,桂林市,环湖路276号,,35,31,39,19,25,110,,97,97,8,19,5,17,0.4,0.5
2025-10-16T1700,4301A,110.2803,25.2773,桂林市,信义路13号,,34,34,38,18,20,105,,97,97,7,19,6,10,0.5,0.5
2025-10-16T1700,2674A,100.2561,34.4714,果洛藏族自治州,玛沁县大武镇,,27,24,37,13,19,84,,74,74,1,8,14,17,0.1,0.3
2025-10-16T1700,1130A,126.561,45.8167,哈尔滨市,松北商大,,17,17,39,9,31,46,,42,42,14,19,6,4,0.3,0.5
2025-10-16T1700,1131A,126.979,45.5419,哈尔滨市,阿城会宁,,16,16,38,9,34,50,,61,61,16,14,7,8,0.4,0.5
2025-10-16T1700,1132A,126.599,45.7222,哈尔滨市,南岗学府路,,25,25,52,9,32,42,,39,39,21,19,8,8,0.4,0.5
2025-10-16T1700,1133A,126.689,45.7733,哈尔滨市,太平宏伟公园,,25,,46,17,34,50,,47,47,14,16,8,8,0.5,0.7
2025-10-16T1700,1134A,126.635,45.7667,哈尔滨市,道外承德广场,,40,40,66,14,38,50,,46,46,17,16,8,7,0.8,0.9
2025-10-16T1700,1135A,126.685,45.7319,哈尔滨市,香坊红旗大街,,36,36,47,12,34,38,,42,42,30,21,13,11,0.4,0.5
2025-10-16T1700,1136A,126.6411,45.7258,哈尔滨市,动力和平路,,26,26,43,13,39,50,,46,46,20,20,6,8,0.4,0.5
2025-10-16T1700,1137A,126.593,45.7478,哈尔滨市,道里建国路,,25,18,22,17,37,52,,47,47,17,18,8,10,0.5,0.2
2025-10-16T1700,1138A,126.615,45.61,哈尔滨市,平房东轻厂,,49,49,69,25,31,29,,44,42,40,28,12,10,0.4,0.7
2025-10-16T1700,1139A,126.595,45.9855,哈尔滨市,呼兰师专,,38,27,68,26,37,51,,50,50,17,14,6,6,0.4,0.5
2025-10-16T1700,1140A,126.6206,45.6842,哈尔滨市,省农科院,,23,23,48,14,34,31,,42,42,39,25,10,9,0.5,0.7
2025-10-16T1700,2688A,93.5128,42.8172,哈密市,地区监测站,,31,31,24,13,10,82,,71,71,5,7,6,6,0.1,0.1
2025-10-16T1700,2689A,93.4961,42.8328,哈密市,哈密师范学校,,26,24,23,3,7,83,,73,73,7,8,7,6,0.2,0.2
2025-10-16T1700,2671A,100.9048,36.9639,海北藏族自治州,海晏县西海镇,,40,40,34,17,16,99,,85,85,1,6,8,7,0.3,0.3
2025-10-16T1700,3867A,102.0738,36.5056,海东市,平安区公安北苑,,42,41,57,29,33,58,,41,41,15,27,28,17,0.8,1
2025-10-16T1700,1410A,110.3232,20.0574,海口市,海南大学,,24,24,24,11,10,66,,70,70,3,2,4,4,0.3,0.3
2025-10-16T1700,1411A,110.283,20.0053,海口市,秀英海南医院,,,,21,,11,59,,64,64,3,3,6,6,0.2,0.2
2025-10-16T1700,1412A,110.338,19.9969,海口市,海南师范大学,,24,24,23,10,11,59,,66,66,3,4,4,4,0.3,0.4
2025-10-16T1700,1413A,110.33,20.0356,海口市,龙华路环保局宿舍,,21,20,21,10,10,65,,68,68,4,4,6,6,0.1,0.1
2025-10-16T1700,3539A,110.5111,19.9736,海口市,桂林洋子站,,19,19,23,11,10,53,,60,60,7,6,6,6,0.2,0.2
2025-10-16T1700,2673A,100.6188,36.2866,海南藏族自治州,共和县恰卜恰镇,,41,41,54,17,22,108,,67,67,3,18,12,14,0.4,0.5
2025-10-16T1700,2676A,97.3731,37.3753,海西蒙古族藏族自治州,德令哈市,,42,42,39,7,15,111,,86,86,2,11,19,18,0.4,0.5
2025-10-16T1700,1048A,114.5302,36.6116,邯郸市,东污水处理厂,细颗粒物(PM2.5),62,,61,44,67,106,,85,85,9,33,6,8,0.4,0.6
2025-10-16T1700,1049A,114.4918,36.5713,邯郸市,矿院,细颗粒物(PM2.5),62,,55,44,59,101,,85,85,10,27,4,5,0.3,0.5
2025-10-16T1700,1050A,114.484,36.6133,邯郸市,丛台公园,细颗粒物(PM2.5),52,46,69,36,49,112,,95,95,9,27,4,6,0.3,0.6
2025-10-16T1700,3458A,114.7895,36.5593,邯郸市,香泉濮院小区,细颗粒物(PM2.5),52,,54,36,38,102,,78,78,12,19,3,5,0.3,0.5
2025-10-16T1700,3579A,114.50634,36.77178,邯郸市,永年区实验高中,,48,48,78,30,47,112,,88,88,11,35,1,2,0.3,0.6
2025-10-16T1700,3580A,114.20016,36.44293,邯郸市,峰峰矿区临水派出所,,,,56,,50,107,,98,,,15,5,7,,0.6
2025-10-16T1700,2635A,107.0154,33.0706,汉中市,市监测站,,17,9,13,8,6,54,,53,53,6,8,3,4,0.8,0.7
2025-10-16T1700,2636A,107.0089,33.1138,汉中市,鑫源开发区,,17,,8,3,5,52,,52,52,6,8,4,4,0.8,0.8
2025-10-16T1700,2637A,107.007,33.0323,汉中市,南郑大河坎水厂,,16,13,17,6,8,50,,46,46,7,10,6,5,0.9,0.9
2025-10-16T1700,1223A,120.2072,30.2111,杭州市,滨江,,36,36,35,21,21,106,,75,75,24,25,9,8,0.9,0.9
2025-10-16T1700,1224A,120.0633,30.2747,杭州市,西溪,,32,,25,20,16,102,,76,76,23,22,6,6,0.7,0.7
2025-10-16T1700,1226A,120.3417,30.3150,杭州市,下沙,,35,28,33,16,20,112,,86,86,13,16,8,8,0.7,0.8
2025-10-16T1700,1227A,120.1269,30.2456,杭州市,卧龙桥,,31,25,23,19,18,97,,71,71,19,16,8,8,0.8,0.9
2025-10-16T1700,1228A,120.1903,30.2692,杭州市,浙江农大,,46,46,39,24,22,100,,70,70,26,24,6,6,0.8,0.9
2025-10-16T1700,1230A,120.1197,30.3119,杭州市,和睦小学,,33,25,26,18,21,104,,74,74,17,13,7,8,0.8,0.9
2025-10-16T1700,1231A,120.3019,30.4183,杭州市,临平镇,,37,34,42,18,23,117,,86,86,10,18,6,6,0.7,0.8
2025-10-16T1700,1232A,120.2753,30.1839,杭州市,城厢镇,,,31,38,29,28,99,,78,78,,22,4,6,0.9,0.9
2025-10-16T1700,1233A,120.0883,30.1808,杭州市,云栖,,28,20,22,16,17,89,,68,68,15,19,7,6,0.8,0.9
2025-10-16T1700,3557A,119.9464,30.0494,杭州市,镇二中,,26,20,20,14,15,82,,67,67,17,19,5,5,0.8,0.9
2025-10-16T1700,3558A,119.7183,30.2367,杭州市,市府大楼,,27,12,17,8,11,86,,74,74,10,12,8,8,0.5,0.6
2025-10-16T1700,3656A,120.1556,30.2864,杭州市,消防大队,,35,31,32,20,21,111,,79,79,21,23,8,8,0.9,1.1
2025-10-16T1700,1270A,117.1959,31.7848,合肥市,明珠广场,,35,31,27,24,23,16,,32,23,30,21,4,4,0.9,0.8
2025-10-16T1700,1271A,117.3072,31.8764,合肥市,三里街,,31,31,29,17,19,8,,31,18,28,18,5,5,0.9,0.9
2025-10-16T1700,1272A,117.2588,31.8707,合肥市,琥珀山庄,,31,31,29,21,22,19,,38,27,21,15,8,8,0.8,0.8
2025-10-16T1700,1274A,117.25,31.8571,合肥市,长江中路,细颗粒物(PM2.5),53,51,36,37,23,13,,35,26,25,14,4,4,0.9,0.8
2025-10-16T1700,1275A,117.266,31.9436,合肥市,庐阳区,,32,29,29,22,20,13,,34,24,28,18,6,6,1.0,1
2025-10-16T1700,1276A,117.3453,31.8616,合肥市,瑶海区,,32,29,32,22,21,9,,30,19,34,23,8,8,0.7,0.7
2025-10-16T1700,1277A,117.3027,31.7964,合肥市,包河区,,35,34,30,24,23,9,,27,22,41,30,8,8,1.0,0.9
2025-10-16T1700,1278A,117.2776,31.7385,合肥市,滨湖新区,,39,39,29,27,25,16,,33,30,35,21,5,5,1.0,0.9
2025-10-16T1700,1279A,117.1318,31.8403,合肥市,高新区,,29,29,32,19,25,23,,38,29,25,18,5,5,0.9,0.9
2025-10-16T1700,3464A,117.3803,31.9147,合肥市,高教基地,,22,19,35,15,23,10,,28,22,21,17,6,6,0.7,0.8
2025-10-16T1700,3614A,79.924,37.0877,和田地区,地区环保局,颗粒物(PM10),82,114,142,57,50,112,,97,97,6,15,3,9,0.3,0.4
2025-10-16T1700,3615A,79.9131,37.113,和田地区,市环保局,颗粒物(PM10),79,108,151,28,49,120,,88,88,9,33,3,5,0.4,0.6
2025-10-16T1700,2517A,108.0497,24.6947,河池市,市环保站,,24,24,21,9,8,44,,41,41,5,9,6,6,0.5,0.6
2025-10-16T1700,2518A,108.0983,24.6989,河池市,市疾控中心,,16,16,20,8,10,50,,42,42,6,12,9,9,0.6,0.6
2025-10-16T1700,1697A,114.6944,23.7586,河源市,东埔,,24,24,26,15,15,73,,78,78,8,17,5,6,0.5,0.6
2025-10-16T1700,1698A,114.6892,23.7233,河源市,老城,,35,33,30,24,17,76,,79,79,6,16,5,7,0.5,0.6
2025-10-16T1700,1718A,115.4208,35.2464,菏泽市,气象局,颗粒物(PM10),52,54,66,35,50,93,,80,80,16,16,3,3,0.5,0.5
2025-10-16T1700,3374A,115.5564,35.0891,菏泽市,定陶老年大学,,36,36,65,14,44,75,,74,74,17,16,6,7,0.3,0.6
2025-10-16T1700,4184A,115.4797,35.24401,菏泽市,永昌路1号,,46,46,54,27,43,81,,84,84,19,13,6,6,0.4,0.3
2025-10-16T1700,4193A,115.4715,35.2800,菏泽市,长城路999号,,45,45,62,27,51,91,,76,76,20,20,10,9,0.5,0.6
2025-10-16T1700,2514A,111.5264,24.4172,贺州市,环保小区,,,27,26,18,18,101,,96,96,,14,9,13,0.6,0.7
2025-10-16T1700,2515A,111.5608,24.4078,贺州市,政协大楼,,30,27,25,3,16,94,,84,84,10,16,7,9,0.7,0.7
2025-10-16T1700,3534A,111.4744,24.4553,贺州市,西湾,,30,30,35,8,17,87,,84,84,8,15,5,5,0.5,0.6
2025-10-16T1700,2385A,114.17,35.9019,鹤壁市,市监测站,"颗粒物(PM10),细颗粒物(PM2.5)",52,53,61,36,44,81,,88,88,14,17,1,6,0.6,0.9
2025-10-16T1700,2386A,114.2956,35.7511,鹤壁市,市交警支队,颗粒物(PM10),56,61,65,38,39,72,,78,78,17,24,4,4,0.5,0.7
2025-10-16T1700,2387A,114.2878,35.7306,鹤壁市,迎宾馆,颗粒物(PM10),51,51,70,32,45,77,,83,83,13,18,2,4,0.5,0.7
2025-10-16T1700,3474A,114.2617,35.6822,鹤壁市,大新区,,38,36,43,26,36,74,,80,80,9,8,3,4,0.4,0.7
2025-10-16T1700,3596A,114.1572,35.9603,鹤壁市,南山宾馆,细颗粒物(PM2.5),60,50,67,43,54,84,,90,90,12,12,2,5,0.2,0.7
2025-10-16T1700,2244A,130.2537,47.3416,鹤岗市,哈啤分公司,,32,24,16,22,8,51,,74,72,23,4,11,10,0.5,0.4
2025-10-16T1700,2245A,130.2684,47.3086,鹤岗市,斯达机电,,41,41,16,27,11,59,,71,70,20,6,14,10,0.5,0.4
2025-10-16T1700,2246A,130.3114,47.3388,鹤岗市,东山纸板厂,颗粒物(PM10),66,81,24,25,13,35,,77,72,44,7,12,13,0.6,0.3
2025-10-16T1700,2263A,127.4833,50.2524,黑河市,交通局,,30,30,21,11,13,45,,59,58,27,12,4,4,0.3,0.3
2025-10-16T1700,2264A,127.5144,50.2341,黑河市,环保局,,25,25,17,11,11,47,,54,54,19,11,4,4,0.4,0.3
2025-10-16T1700,1074A,115.6838,37.7541,衡水市,电机北厂,细颗粒物(PM2.5),69,59,105,50,78,86,,66,66,13,48,4,6,0.3,0.6
2025-10-16T1700,1075A,115.6303,37.7316,衡水市,市监测站,细颗粒物(PM2.5),62,56,92,44,72,85,,65,65,13,45,5,6,0.4,0.7
2025-10-16T1700,3188A,115.6683,37.7217,衡水市,市城管局,细颗粒物(PM2.5),67,78,102,48,75,96,,80,80,13,41,7,8,0.4,0.8
2025-10-16T1700,3459A,115.5989,37.5491,衡水市,地表水厂,颗粒物(PM10),60,69,80,34,49,88,,71,71,14,50,5,7,0.3,0.5
2025-10-16T1700,2457A,112.6194,26.9258,衡阳市,衡阳化工总厂,细颗粒物(PM2.5),60,64,55,43,47,96,,72,72,11,12,6,7,1.2,1.2
2025-10-16T1700,2458A,112.6211,26.8956,衡阳市,珠晖区环保局,,49,43,47,34,35,87,,67,67,16,17,8,8,1.4,1.4
2025-10-16T1700,2459A,112.6197,26.8733,衡阳市,市委党校,颗粒物(PM10),53,55,47,34,30,93,,74,74,8,8,7,8,1.0,1
2025-10-16T1700,2460A,112.6006,26.8919,衡阳市,市监测站,,49,46,50,34,35,87,,72,72,10,12,4,5,1.1,1.2
2025-10-16T1700,2461A,112.5664,26.9056,衡阳市,真空机电公司,,43,39,45,30,34,85,,65,65,5,10,5,6,1.2,1.3
2025-10-16T1700,3399A,112.6703,26.882,衡阳市,师范学院,颗粒物(PM10),55,60,54,34,32,103,,76,76,13,12,7,7,1.2,1.2
2025-10-16T1700,2608A,103.3772,23.3993,红河哈尼族彝族自治州,污水处理厂,,19,14,17,13,13,39,,43,40,5,6,10,10,0.1,0.2
2025-10-16T1700,2609A,103.3861,23.35,红河哈尼族彝族自治州,监测站,,20,20,14,7,9,39,,42,42,1,4,10,11,0,0
2025-10-16T1700,3038A,103.3758,23.368,红河哈尼族彝族自治州,州图书馆,,23,,7,16,17,41,,44,43,4,5,2,2,0.2,0.2
2025-10-16T1700,1090A,111.6507,40.7517,呼和浩特市,呼市一监,,46,46,33,29,21,48,,53,53,35,25,9,7,0.5,0.5
2025-10-16T1700,1091A,111.6572,40.8033,呼和浩特市,小召,,38,36,39,26,23,59,,49,49,32,36,8,8,0.5,0.7
2025-10-16T1700,1094A,111.7516,40.8369,呼和浩特市,如意水处理厂,颗粒物(PM10),54,58,45,34,23,55,,56,56,36,45,11,9,0.6,0.6
2025-10-16T1700,1095A,111.7276,40.8062,呼和浩特市,二十九中,颗粒物(PM10),54,58,40,31,23,62,,60,60,28,27,10,9,0.7,0.6
2025-10-16T1700,1096A,111.5512,40.7866,呼和浩特市,工大金川校区,颗粒物(PM10),53,56,50,25,23,57,,48,48,32,42,6,6,0.5,0.5
2025-10-16T1700,1097A,111.717,40.7612,呼和浩特市,化肥厂生活区,颗粒物(PM10),53,55,41,35,26,46,,49,49,46,34,8,7,0.6,0.5
2025-10-16T1700,3698A,111.5968,40.8178,呼和浩特市,红旗小学,,36,36,37,21,24,52,,44,44,34,40,8,8,0.5,0.5
2025-10-16T1700,3699A,111.6518,40.8389,呼和浩特市,海东办,,36,36,38,19,22,69,,58,58,24,34,7,6,0.7,0.7
2025-10-16T1700,2192A,119.7594,49.2261,呼伦贝尔市,区环保局,,23,23,30,13,16,39,,47,47,28,21,5,5,0.7,0.6
2025-10-16T1700,3061A,119.7512,49.1577,呼伦贝尔市,国华电力东,,19,14,22,6,11,60,,53,53,9,13,6,6,0.5,0.5
2025-10-16T1700,1250A,120.0751,30.8669,湖州市,城西水厂,,25,15,32,11,25,78,,71,71,18,22,6,7,0.4,0.6
2025-10-16T1700,2873A,120.0830,30.8929,湖州市,仁皇山新区,,22,12,31,9,25,68,,67,67,14,16,5,5,0.4,0.7
2025-10-16T1700,2907A,120.1844,30.8596,湖州市,吴兴区站,,21,17,26,8,18,66,,67,67,15,18,6,6,0.5,0.9
2025-10-16T1700,3562A,120.4148,30.8538,湖州市,南浔区站,,22,8,28,7,29,68,,81,81,19,15,7,8,0.6,0.8
2025-10-16T1700,1607A,120.9049,40.7211,葫芦岛市,龙港区,颗粒物(PM10),66,82,51,25,23,60,,65,65,34,21,19,14,0.5,0.5
2025-10-16T1700,1608A,120.8392,40.7514,葫芦岛市,化工街,颗粒物(PM10),56,61,43,19,20,54,,60,60,26,17,6,7,0.4,0.3
2025-10-16T1700,1609A,120.8341,40.7073,葫芦岛市,新区,颗粒物(PM10),55,60,36,19,18,57,,61,61,30,19,7,8,0.5,0.5
2025-10-16T1700,1610A,120.8695,40.7677,葫芦岛市,东城区,,44,44,37,24,20,61,,66,66,30,19,7,7,0.6,0.6
2025-10-16T1700,2484A,109.9781,27.5342,怀化市,市四医院,,42,30,27,29,19,41,,28,28,5,6,6,7,0.4,0.4
2025-10-16T1700,2485A,109.9972,27.5578,怀化市,监测楼,,30,30,25,8,17,39,,28,28,6,7,3,3,0.3,0.3
2025-10-16T1700,2486A,110.0394,27.583,怀化市,市委党校,,26,21,24,18,18,45,,40,40,5,8,7,8,0.5,0.5
2025-10-16T1700,1210A,119.036,33.5981,淮安市,钵池山,,23,14,15,12,14,71,,60,60,8,16,6,6,0.2,0.4
2025-10-16T1700,1211A,119.007,33.575,淮安市,北京南路,,23,19,17,10,15,73,,63,63,10,15,6,7,0.5,0.6
2025-10-16T1700,1212A,118.989,33.6067,淮安市,市监测站,,25,12,13,3,11,79,,65,65,12,18,5,5,0.7,0.8
2025-10-16T1700,1213A,119.135,33.5039,淮安市,楚州区监测站,,24,24,20,10,11,71,,65,65,12,18,8,8,0.4,0.5
2025-10-16T1700,3426A,118.8755,33.2894,淮安市,新华书店,,20,19,19,3,8,62,,60,60,10,15,6,7,0.5,0.5
2025-10-16T1700,4206A,119.0288,33.6319,淮安市,承德北路606号,,24,24,19,9,12,71,,60,60,10,15,6,6,0.4,0.4
2025-10-16T1700,2282A,116.8004,33.975,淮北市,监测站,,26,26,22,12,14,70,,62,62,17,18,8,8,0.6,0.6
2025-10-16T1700,2283A,116.8091,33.9007,淮北市,烈山区政府,,25,10,11,6,12,77,,68,68,14,16,8,8,0.3,0.4
2025-10-16T1700,3330A,116.8873,33.9836,淮北市,杜集区检察院,,32,32,28,18,22,84,,72,72,9,11,4,3,0.4,0.5
2025-10-16T1700,4017A,116.7923,33.9535,淮北市,市博物馆,,35,35,23,11,14,82,,72,72,15,18,7,9,0.4,0.5
2025-10-16T1700,2277A,116.8305,32.7727,淮南市,潘集区政府,,25,19,29,17,22,44,,35,35,9,9,3,5,0.5,0.6
2025-10-16T1700,2279A,116.8569,32.5951,淮南市,谢家集区政府,,12,8,22,3,13,29,,26,26,23,15,6,7,0.4,0.5
2025-10-16T1700,2280A,116.8281,32.633,淮南市,八公山区政府,,25,25,31,13,20,37,,31,31,14,12,4,2,0.5,0.6
2025-10-16T1700,2894A,117.0566,32.6531,淮南市,经济技术开发区消防队,,13,13,25,3,13,32,,31,29,25,16,8,8,0.3,0.4
2025-10-16T1700,3329A,117.0108,32.5893,淮南市,山南新区,,13,7,21,6,12,39,,31,31,20,17,4,4,0.3,0.4
2025-10-16T1700,4209A,117.0031,32.6445,淮南市,国庆中路369号,,,,35,,20,33,,25,25,21,18,,7,0.5,0.7
2025-10-16T1700,2446A,114.9028,30.4742,黄冈市,职工中心,,33,31,29,23,20,40,,36,36,10,11,6,6,0.7,0.7
2025-10-16T1700,2929A,114.8858,30.4519,黄冈市,红卫路,,29,29,27,14,17,42,,38,38,12,14,4,4,0.7,0.7
2025-10-16T1700,3398A,114.9136,30.4445,黄冈市,市林业局,,30,30,24,15,13,41,,36,36,13,11,3,3,0.6,0.7
2025-10-16T1700,2672A,102.0199,35.5102,黄南藏族自治州,同仁县隆务镇,,37,37,29,12,10,83,,67,67,19,10,12,11,0.1,0.2
2025-10-16T1700,2295A,118.2903,29.6963,黄山市,延安路89号,,29,21,28,8,10,92,,85,85,6,8,4,3,0.8,0.8
2025-10-16T1700,2297A,118.1371,30.2756,黄山市,黄山区政府5号楼,,50,,27,35,22,52,,46,46,9,10,4,5,0.9,0.8
2025-10-16T1700,4210A,118.3354,29.7203,黄山市,滨江东路7-2号,,28,25,28,9,10,88,,80,80,6,8,3,3,0.8,0.8
2025-10-16T1700,2423A,115.0601,30.2313,黄石市,沈家营,,44,44,51,18,18,18,,19,19,26,10,9,8,0.6,0.8
2025-10-16T1700,2426A,114.8988,30.2019,黄石市,铁山,,20,20,41,13,24,12,,17,17,24,20,4,4,1.1,0.9
2025-10-16T1700,2427A,115.0307,30.2092,黄石市,团城山,,37,37,44,14,18,20,,15,15,16,14,7,8,1.0,1.1
2025-10-16T1700,3149A,115.0235,30.1578,黄石市,笔架山北路,,41,41,57,8,18,19,,12,12,10,15,5,6,0.6,0.9
2025-10-16T1700,4185A,115.0780,30.21118,黄石市,磁湖东路29号,,37,37,43,24,21,20,,19,19,26,14,7,7,0.8,1
2025-10-16T1700,1392A,114.4183,23.0528,惠州市,河南岸金山湖子站,,39,31,33,27,18,92,,88,88,12,14,8,10,0.6,0.6
2025-10-16T1700,1393A,114.4053,23.0822,惠州市,下埔横江三路子站,,33,29,38,15,22,104,,100,100,6,9,4,5,0.6,0.6
2025-10-16T1700,1394A,114.4103,23.1142,惠州市,江北云山西路子站,,34,24,35,15,21,106,,105,105,8,13,5,7,0.6,0.6
2025-10-16T1700,1395A,114.4645,22.7833,惠州市,惠阳区承修路船湖子站,,35,28,34,13,17,112,,104,104,7,13,8,9,0.6,0.6
2025-10-16T1700,1396A,114.5317,22.7422,惠州市,大亚湾管委会子站,,38,27,28,16,16,119,,100,100,8,15,11,11,0.6,0.6
2025-10-16T1700,3314A,114.4338,22.8134,惠州市,惠阳秋长,,37,34,32,18,19,116,,112,112,8,13,12,14,0.6,0.7
2025-10-16T1700,3452A,114.6517,22.775,惠州市,大亚湾霞涌,,37,,27,22,16,118,,108,108,6,12,7,7,0.6,0.7
2025-10-16T1700,2240A,130.9762,45.3001,鸡西市,环保局,,18,18,64,3,50,45,,61,61,21,13,6,7,0.4,0.4
2025-10-16T1700,2243A,130.9429,45.3039,鸡西市,第一中学,,18,17,61,3,43,55,,62,62,9,12,8,9,0.5,0.6
2025-10-16T1700,3707A,131.0207,45.3073,鸡西市,欧美日汽修厂,,23,23,84,13,65,50,,60,60,14,13,8,8,0.5,0.7
2025-10-16T1700,3709A,130.9967,45.3106,鸡西市,市政设施管理处,,25,25,72,16,57,36,,58,58,31,15,9,8,0.7,0.6
2025-10-16T1700,2367A,114.9754,27.0803,吉安市,红声器材厂,,38,38,55,15,32,108,,105,105,3,18,8,11,0.6,0.8
2025-10-16T1700,2368A,114.9658,27.0999,吉安市,市森林工业局,,40,40,53,23,34,111,,93,93,6,18,9,12,0.6,0.7
2025-10-16T1700,2369A,114.99,27.1312,吉安市,市环境监测站,,34,34,51,21,33,105,,91,91,4,16,8,12,0.5,0.7
2025-10-16T1700,2370A,115.0093,27.0968,吉安市,青原区法院,,36,36,54,18,36,106,,91,91,7,23,8,12,0.9,1.1
2025-10-16T1700,1772A,126.54,43.8622,吉林市,哈达湾,细颗粒物(PM2.5),52,48,60,36,41,48,,39,39,16,19,5,10,0.1,0.3
2025-10-16T1700,1773A,126.5844,43.8358,吉林市,东局子,,49,46,57,34,41,48,,38,38,14,19,6,14,0.5,0.6
2025-10-16T1700,1774A,126.5052,43.8245,吉林市,电力学院,细颗粒物(PM2.5),57,48,59,40,49,42,,34,34,25,22,6,10,0.6,0.5
2025-10-16T1700,1775A,126.6133,43.8972,吉林市,江北,细颗粒物(PM2.5),64,59,59,46,42,46,,39,39,14,15,4,5,0.7,0.6
2025-10-16T1700,1776A,126.555,43.8306,吉林市,江南公园,细颗粒物(PM2.5),55,41,56,39,47,49,,39,39,17,21,4,8,0.8,0.6
2025-10-16T1700,2868A,126.4739,43.953,吉林市,九站,细颗粒物(PM2.5),60,51,74,43,58,45,,40,40,28,28,6,16,0.4,0.6
2025-10-16T1700,1299A,116.9862,36.6114,济南市,科干所,,46,46,47,32,36,62,,56,56,20,30,6,6,0.4,0.6
2025-10-16T1700,1300A,116.9376,36.665,济南市,农科所,颗粒物(PM10),63,76,55,39,32,64,,50,50,26,36,7,7,0.6,0.7
2025-10-16T1700,1301A,117.1265,36.6734,济南市,开发区,颗粒物(PM10),63,76,48,42,35,55,,48,48,30,31,3,3,0.6,0.7
2025-10-16T1700,1303A,117.0624,36.6868,济南市,省种子仓库,颗粒物(PM10),69,88,63,39,41,61,,58,58,28,37,6,7,0.8,0.9
2025-10-16T1700,1304A,116.9489,36.6447,济南市,机床二厂,颗粒物(PM10),69,88,61,46,43,60,,49,49,25,37,7,7,0.6,0.7
2025-10-16T1700,1305A,117.0495,36.663,济南市,市监测站,颗粒物(PM10),66,81,52,46,39,63,,50,50,26,38,3,3,0.8,0.9
2025-10-16T1700,1306A,116.7675,36.5484,济南市,长清党校,颗粒物(PM10),51,51,56,22,32,64,,63,63,22,37,5,6,0.7,0.8
2025-10-16T1700,1616A,117.6795,36.229,济南市,技术学院,,39,36,24,27,23,68,,64,64,14,21,8,7,0.5,0.5
2025-10-16T1700,1961A,117.532,36.6868,济南市,东山小学,颗粒物(PM10),67,83,47,46,26,44,,54,54,36,28,7,6,0.5,0.4
2025-10-16T1700,3059A,117.7161,36.2049,济南市,泰兴公司,,39,39,28,24,18,71,,65,65,10,20,8,8,0.2,0.2
2025-10-16T1700,3064A,117.6867,36.2171,济南市,莱芜战役纪念馆,,44,44,31,27,21,68,,63,63,14,21,8,8,0.5,0.5
2025-10-16T1700,3494A,117.1673,36.9782,济南市,济阳区政府,颗粒物(PM10),57,63,45,34,24,78,,75,75,14,20,8,7,0.4,0.4
2025-10-16T1700,3495A,117.1171,36.63,济南市,锦屏中学,,,61,36,37,21,66,,50,50,19,22,5,5,,0.6
2025-10-16T1700,3682A,116.9814,36.6819,济南市,济南四建,细颗粒物(PM2.5),62,70,56,44,40,56,,50,50,25,31,5,5,0.7,0.8
2025-10-16T1700,1653A,116.6251,35.4302,济宁市,火炬城,,32,32,33,17,23,86,,86,86,13,15,6,6,0.1,0.4
2025-10-16T1700,1655A,116.5491,35.4042,济宁市,电化厂,,31,31,44,14,28,96,,89,89,15,21,3,3,0.3,0.5
2025-10-16T1700,3500A,116.5814,35.3707,济宁市,北湖一中,,27,22,29,15,31,85,,79,79,9,16,3,4,0.2,0.4
2025-10-16T1700,3501A,116.8249,35.5593,济宁市,服务中心,,25,24,22,12,10,80,,82,82,13,13,6,6,0.3,0.4
2025-10-16T1700,3678A,116.5907,35.4054,济宁市,市第七中学,,,29,33,3,15,86,,80,80,12,16,,9,0.2,0.5
2025-10-16T1700,2255A,130.2751,46.8028,佳木斯市,佳纺,,24,24,29,8,16,36,,50,50,22,19,2,3,0.4,0.5
2025-10-16T1700,2256A,130.3995,46.8307,佳木斯市,发电厂,,43,43,39,7,15,43,,55,55,24,21,6,6,0.3,0.7
2025-10-16T1700,2257A,130.3258,46.7975,佳木斯市,环保局,,20,20,25,6,15,36,,51,51,25,19,4,4,0.5,0.4
2025-10-16T1700,2258A,130.3648,46.8032,佳木斯市,十一中,,,,30,,23,28,,51,50,32,21,,7,,0.5
2025-10-16T1700,1252A,120.7436,30.778,嘉兴市,清河小学,,16,11,32,8,20,50,,63,63,26,22,7,7,0.7,1
2025-10-16T1700,1253A,120.726,30.7478,嘉兴市,嘉兴学院,,17,13,29,9,23,54,,72,72,23,18,4,6,0.4,1
2025-10-16T1700,2872A,120.7846,30.7525,嘉兴市,南湖区残联,,21,7,28,6,25,67,,77,77,18,17,6,6,0.7,1
2025-10-16T1700,3407A,120.6916,30.7739,嘉兴市,秀洲住建,,19,12,31,6,21,59,,71,71,23,19,7,8,0.7,1
2025-10-16T1700,1945A,98.2908,39.7711,嘉峪关市,气象局,颗粒物(PM10),63,75,79,24,20,81,,77,77,11,16,14,13,0.5,0.9
2025-10-16T1700,2884A,98.2672,39.7978,嘉峪关市,酒钢宾馆,颗粒物(PM10),60,70,81,19,21,78,,69,69,8,17,24,35,0.4,0.9
2025-10-16T1700,3248A,98.2643,39.7724,嘉峪关市,雄关区,颗粒物(PM10),58,65,66,22,24,75,,71,71,17,23,19,27,0.6,0.6
2025-10-16T1700,1383A,113.1064,22.6058,江门市,北街,臭氧1小时,79,32,36,22,24,183,,152,152,18,23,5,5,0.6,0.5
2025-10-16T1700,1384A,113.0731,22.5835,江门市,西区,臭氧1小时,53,19,35,14,21,162,,143,143,14,27,4,5,0.7,0.6
2025-10-16T1700,1385A,113.0219,22.5311,江门市,圭峰西,,49,44,32,26,22,155,,140,140,11,21,5,5,0.5,0.5
2025-10-16T1700,1386A,113.0828,22.5947,江门市,东湖,,50,46,38,24,21,159,,133,133,16,25,3,4,0.6,0.6
2025-10-16T1700,3311A,113.1075,22.5647,江门市,江海富民,臭氧1小时,52,52,46,22,16,161,,156,156,18,27,7,8,0.4,0.6
2025-10-16T1700,3449A,113.05,22.4667,江门市,新会银湖,,42,31,45,20,22,134,,125,125,10,21,4,4,0.5,0.6
2025-10-16T1700,3336A,113.2465,35.2373,焦作市,焦作技师学院,,48,48,49,29,37,99,,100,100,18,15,10,9,0.6,0.8
2025-10-16T1700,3477A,113.1656,35.2539,焦作市,中站许衡医院,细颗粒物(PM2.5),53,54,58,37,48,108,,107,107,16,18,6,6,0.5,0.7
2025-10-16T1700,3981A,113.2449,35.1803,焦作市,原李万街道办,,50,50,71,19,39,102,,99,99,10,14,5,7,0.5,0.8
2025-10-16T1700,4264A,113.2340,35.2190,焦作市,新安路1731号,,49,49,63,30,43,110,,106,106,12,16,5,6,0.6,0.8
2025-10-16T1700,4295A,113.2722,35.2121,焦作市,人民路3066号,,46,46,62,18,28,107,,104,104,13,16,5,5,0.6,0.9
2025-10-16T1700,1708A,116.3701,23.5345,揭阳市,新兴,,39,39,33,20,20,98,,103,103,10,16,6,7,0.5,0.5
2025-10-16T1700,1709A,116.3264,23.5443,揭阳市,西马,,46,46,37,27,18,106,,108,108,7,12,4,4,0.6,0.6
2025-10-16T1700,1710A,116.3611,23.5626,揭阳市,东兴,,37,37,33,18,17,99,,101,101,8,16,5,7,0.6,0.5
2025-10-16T1700,1711A,116.4151,23.5294,揭阳市,渔湖,,32,30,34,18,16,101,,110,110,10,15,6,7,0.7,0.7
2025-10-16T1700,3320A,116.403,23.5699,揭阳市,曲溪,,35,33,30,16,16,111,,110,110,8,12,5,4,0.5,0.5
2025-10-16T1700,1944A,102.1692,38.5167,金昌市,天庆家园,,29,29,81,9,23,67,,79,73,4,10,3,3,0.2,0.5
2025-10-16T1700,4022A,102.1647,38.5371,金昌市,金川区人防中心,,41,41,70,11,19,66,,77,72,3,6,2,4,0.4,0.5
2025-10-16T1700,4239A,102.1930,38.5319,金昌市,长春路96号,,33,33,68,9,19,62,,74,69,4,10,4,5,0.3,0.4
2025-10-16T1700,1262A,119.647,29.077,金华市,十五中,,34,27,28,18,19,106,,103,103,20,20,2,2,0.9,0.8
2025-10-16T1700,1263A,119.686,29.1029,金华市,监测站,,33,26,27,17,18,104,,104,104,22,20,5,5,0.9,0.7
2025-10-16T1700,3659A,119.656,29.1131,金华市,气象局,,30,29,25,16,15,94,,91,91,26,24,3,4,0.8,0.7
2025-10-16T1700,1767A,121.1115,41.0879,锦州市,南山,颗粒物(PM10),56,62,34,20,20,67,,64,64,18,15,7,9,0.5,0.6
2025-10-16T1700,1768A,121.0604,40.8428,锦州市,开发区,颗粒物(PM10),59,68,43,21,23,68,,59,59,20,22,8,10,0.5,0.5
2025-10-16T1700,1769A,121.1836,41.1119,锦州市,百股街道,颗粒物(PM10),51,51,41,17,19,65,,62,62,19,16,6,7,0.5,0.6
2025-10-16T1700,1770A,121.1178,41.1222,锦州市,天安街道,颗粒物(PM10),54,57,40,19,21,65,,64,64,22,16,8,10,0.6,0.6
2025-10-16T1700,1771A,121.1303,41.1386,锦州市,北湖公园,颗粒物(PM10),58,66,40,19,18,67,,66,66,18,14,7,8,0.4,0.5
2025-10-16T1700,2160A,112.85,35.5051,晋城市,自来水公司,,45,45,58,27,37,93,,83,83,14,16,4,4,0.8,1
2025-10-16T1700,2161A,112.8318,35.4936,晋城市,白云商贸,颗粒物(PM10),66,81,69,27,29,97,,87,87,12,14,3,3,0.6,0.7
2025-10-16T1700,2162A,112.8508,35.4887,晋城市,市环保局,颗粒物(PM10),54,57,60,24,30,96,,85,85,10,11,5,4,0.6,0.7
2025-10-16T1700,2163A,112.8676,35.4897,晋城市,技术学院,颗粒物(PM10),52,53,52,22,28,84,,74,74,13,16,4,4,0.8,0.9
2025-10-16T1700,3620A,112.8271,35.4828,晋城市,泽州一中,细颗粒物(PM2.5),64,76,64,46,38,102,,92,92,15,14,3,3,0.6,0.8
2025-10-16T1700,2173A,112.7249,37.7067,晋中市,南都小区,颗粒物(PM10),58,65,58,29,37,99,,96,96,17,18,5,5,0.5,0.5
2025-10-16T1700,2174A,112.6991,37.6982,晋中市,榆次区政府,颗粒物(PM10),52,53,59,34,45,88,,90,90,18,21,6,6,0.9,0.8
2025-10-16T1700,2865A,112.7195,37.6828,晋中市,榆次三中,颗粒物(PM10),54,58,58,31,35,87,,92,92,20,16,7,7,0.5,0.5
2025-10-16T1700,4200A,112.7478,37.6954,晋中市,迎宾街26号,颗粒物(PM10),57,63,55,39,36,101,,97,97,19,18,4,9,0.5,0.7
2025-10-16T1700,2439A,112.2014,31.0481,荆门市,竹园小学,,50,50,37,33,28,59,,62,62,19,16,1,1,0.1,0.1
2025-10-16T1700,2440A,112.1969,30.9891,荆门市,掇刀,细颗粒物(PM2.5),54,42,36,38,28,65,,68,68,13,10,1,1,0.5,0.8
2025-10-16T1700,2441A,112.2213,31.0386,荆门市,石化一小,,46,,42,32,33,54,,54,54,17,14,10,8,1.0,1.1
2025-10-16T1700,3012A,112.1849,31.0362,荆门市,西山林语,,45,31,29,31,25,59,,59,58,15,11,3,3,0.5,0.6
2025-10-16T1700,3547A,112.1632,31.0138,荆门市,龙泉中学南校,,29,29,20,3,15,63,,69,65,18,13,5,5,0.5,0.4
2025-10-16T1700,1844A,112.2494,30.3197,荆州市,市图书馆,,18,12,16,9,8,57,,50,50,16,17,6,7,0.4,0.5
2025-10-16T1700,1845A,112.2008,30.3544,荆州市,市委党校,,16,12,25,8,14,50,,50,50,15,19,7,8,0.5,0.5
2025-10-16T1700,3194A,112.2747,30.3122,荆州市,管委会,,19,14,24,12,18,58,,45,45,12,15,8,8,0.6,0.7
2025-10-16T1700,4268A,112.1722,30.3366,荆州市,学苑路85号,,25,,22,17,22,50,,55,55,17,14,1,2,0.5,0.6
2025-10-16T1700,2343A,117.2117,29.2933,景德镇市,老干部活动中心,,29,24,50,20,38,74,,75,75,2,7,3,5,0.4,0.7
2025-10-16T1700,2344A,117.1894,29.2789,景德镇市,兽医站,,29,29,59,18,41,83,,80,80,5,15,6,8,0.9,1
2025-10-16T1700,2346A,117.2461,29.2956,景德镇市,陶研所,,26,24,48,17,40,83,,86,86,5,10,5,6,0.8,1
2025-10-16T1700,4289A,117.1542,29.2566,景德镇市,青少年活动中心,,25,22,53,11,38,80,,77,77,7,18,3,13,0.7,0.9
2025-10-16T1700,1803A,115.9872,29.6815,九江市,十里,,35,29,55,24,47,84,,69,69,11,19,4,6,0.9,1
2025-10-16T1700,1804A,115.9584,29.7046,九江市,茅山头,,40,,58,28,50,77,,61,61,10,18,3,4,0.9,1
2025-10-16T1700,1805A,115.9877,29.7295,九江市,西园,,25,24,58,17,43,78,,69,69,27,32,4,8,0.9,1.1
2025-10-16T1700,1808A,115.9114,29.6038,九江市,综合工业园,,32,32,50,21,37,76,,64,64,22,27,5,6,0.8,1
2025-10-16T1700,1809A,116.0721,29.7535,九江市,石化总厂,,38,32,57,26,48,76,,70,70,18,27,2,2,0.8,1
2025-10-16T1700,3190A,116.0254,29.6994,九江市,外国语学校,,30,28,53,21,46,74,,66,66,16,21,2,7,0.8,0.9
2025-10-16T1700,4253A,116.0102,29.6594,九江市,莲花大道8号,,45,39,60,31,50,71,,56,56,6,12,5,6,0.8,1
2025-10-16T1700,4240A,98.4958,39.7339,酒泉市,玉门东路5号,颗粒物(PM10),57,63,61,19,18,75,,69,69,6,7,28,12,0.3,0.2
2025-10-16T1700,4241A,98.5099,39.7506,酒泉市,北大街108号,颗粒物(PM10),56,61,65,13,17,81,,73,73,2,4,10,9,0.3,0.2
2025-10-16T1700,2698A,76.0072,39.4467,喀什地区,巡警大队,细颗粒物(PM2.5),113,161,178,85,56,114,,68,68,8,33,4,5,0.1,0.3
2025-10-16T1700,2699A,75.9755,39.4694,喀什地区,吾办,颗粒物(PM10),100,149,171,54,54,107,,64,64,9,33,6,6,0.2,0.4
2025-10-16T1700,4027A,75.9483,39.4689,喀什地区,老干局,颗粒物(PM10),101,152,166,38,40,111,,65,65,9,30,3,3,0.2,0.4
2025-10-16T1700,1824A,114.3389,34.7781,开封市,肿瘤医院,细颗粒物(PM2.5),53,,44,37,38,70,,72,72,18,20,6,6,0.8,0.8
2025-10-16T1700,1826A,114.2885,34.7965,开封市,世纪星幼儿园,细颗粒物(PM2.5),53,44,39,37,37,74,,74,74,19,20,6,6,0.9,0.8
2025-10-16T1700,3147A,114.3438,34.8106,开封市,龙亭公园,,40,40,44,24,27,67,,66,66,16,20,7,8,0.9,0.9
2025-10-16T1700,3210A,114.3644,34.7964,开封市,汴京公园,,47,47,48,26,32,69,,70,70,17,20,7,7,0.8,0.7
2025-10-16T1700,3473A,114.2485,34.8306,开封市,技师学院,细颗粒物(PM2.5),67,48,41,48,45,66,,70,70,17,22,9,8,1.0,1
2025-10-16T1700,3592A,114.4644,34.7556,开封市,祥符区生态环境局,,36,34,42,25,28,64,,60,60,16,22,5,6,0.8,0.8
2025-10-16T1700,1951A,84.895,45.6094,克拉玛依市,长征新村,,21,20,18,6,8,65,,54,54,3,7,2,2,0.2,0.2
2025-10-16T1700,1952A,84.8988,45.5893,克拉玛依市,南林小区,,20,15,18,8,9,64,,53,53,3,7,5,6,0.3,0.3
2025-10-16T1700,1954A,84.905,44.3396,克拉玛依市,独山子区,,40,40,27,25,15,79,,50,50,11,17,6,5,0.4,0.4
2025-10-16T1700,1955A,85.6979,46.098,克拉玛依市,乌尔禾区商贸楼,,22,11,24,3,7,69,,54,54,4,8,5,4,0.2,0.2
2025-10-16T1700,3612A,85.1045,45.6899,克拉玛依市,白碱滩区新站,,32,32,33,9,11,70,,62,62,4,5,4,4,0.2,0.3
2025-10-16T1700,2697A,76.1454,39.7142,克孜勒苏柯尔克孜自治州,市人民政府,颗粒物(PM10),101,152,134,51,46,114,,90,90,4,13,6,15,0.1,0.1
2025-10-16T1700,3665A,76.1658,39.7157,克孜勒苏柯尔克孜自治州,克州文化中心,颗粒物(PM10),106,162,137,45,43,111,,88,88,2,9,8,15,0.2,0.2
2025-10-16T1700,1450A,102.8204,24.8886,昆明市,呈贡新区,,15,8,25,3,16,46,,39,39,8,22,2,4,0.4,0.5
2025-10-16T1700,1452A,102.7252,25.0902,昆明市,龙泉镇,,10,6,22,3,5,30,,34,34,15,23,2,3,0.5,0.6
2025-10-16T1700,1453A,102.7266,25.0375,昆明市,东风东路,,14,7,18,3,10,42,,40,40,12,21,3,4,0.3,0.4
2025-10-16T1700,1454A,102.6742,25.0669,昆明市,金鼎山,,,,18,2,8,39,,42,42,8,14,1,3,0.3,0.4
2025-10-16T1700,1455A,102.6644,25.0401,昆明市,碧鸡广场,,12,6,20,3,12,37,,40,40,11,19,7,9,0.3,0.4
2025-10-16T1700,3179A,102.7494,25.0119,昆明市,官渡区博物馆,,13,7,20,3,11,41,,37,37,11,27,2,2,0.4,0.5
2025-10-16T1700,3375A,102.8017,24.8336,昆明市,青年创业园,,14,7,17,3,10,42,,39,39,6,14,1,2,0.4,0.5
2025-10-16T1700,3550A,102.7997,24.9786,昆明市,昆明学院,,10,8,30,3,16,32,,32,32,17,29,8,8,0.4,0.5
2025-10-16T1700,3551A,102.5967,24.6736,昆明市,晋宁区生态环境分局,,17,10,23,3,15,52,,44,44,8,20,6,8,0.4,0.5
2025-10-16T1700,3552A,102.6678,24.9856,昆明市,云天化总部,,14,6,16,3,10,42,,41,41,7,20,4,5,0.5,0.5
2025-10-16T1700,1456A,91.1319,29.6514,拉萨市,八廓街,,38,11,18,6,10,119,,94,94,3,22,6,7,0.1,0.3
2025-10-16T1700,1457A,91.1221,29.6747,拉萨市,市环保局,,39,6,19,3,9,124,,97,97,5,17,8,10,0.3,0.5
2025-10-16T1700,1458A,91.0874,29.6475,拉萨市,区监测站,,35,7,17,3,10,112,,89,89,11,36,4,5,0.2,0.4
2025-10-16T1700,1459A,91.1774,29.6541,拉萨市,西藏大学,,36,6,17,3,7,114,,90,90,8,21,6,9,0.2,0.3
2025-10-16T1700,1460A,90.9798,29.6588,拉萨市,区辐射站,,30,10,27,7,12,96,,75,75,11,34,4,8,0.3,0.4
2025-10-16T1700,1461A,91.0834,29.6292,拉萨市,拉萨火车站,,38,11,15,3,8,120,,83,83,4,20,5,6,0.2,0.3
2025-10-16T1700,2520A,109.2203,23.7256,来宾市,来宾技工学校,,35,34,29,15,14,112,,92,92,5,11,9,9,0.7,0.8
2025-10-16T1700,3535A,109.1781,23.7297,来宾市,兴宾区政府,,35,26,26,14,13,109,,98,98,5,6,7,8,0.6,0.6
2025-10-16T1700,4002A,109.2416,23.7461,来宾市,中南小学,,36,22,30,11,14,113,,88,88,6,15,6,6,0.5,0.6
2025-10-16T1700,3241A,103.7439,36.0842,兰州市,百合公园,颗粒物(PM10),62,74,77,25,35,62,,41,41,9,47,2,6,0.4,0.6
2025-10-16T1700,3242A,103.9611,35.998,兰州市,和平,颗粒物(PM10),69,88,59,30,24,64,,43,43,10,24,5,5,0.4,0.6
2025-10-16T1700,4236A,103.6293,36.0938,兰州市,庄浪东路808号,颗粒物(PM10),69,87,75,43,46,71,,47,47,15,60,8,15,0.3,0.7
2025-10-16T1700,4237A,103.7251,36.1043,兰州市,安宁西路88号,颗粒物(PM10),71,91,82,43,49,80,,53,53,6,50,6,9,0.3,0.7
2025-10-16T1700,4238A,103.8470,36.0676,兰州市,北滨河东路1号,颗粒物(PM10),62,74,65,29,36,64,,47,47,18,56,9,8,0.5,0.8
2025-10-16T1700,3245A,103.6633,36.533,兰州新区,新区管委会,颗粒物(PM10),54,58,54,24,32,81,,80,80,8,19,7,10,0.2,0.5
2025-10-16T1700,3246A,103.6975,36.4789,兰州新区,舟曲中学,颗粒物(PM10),57,64,61,16,30,79,,80,80,12,34,2,12,0.2,0.4
2025-10-16T1700,1067A,116.6708,39.5111,廊坊市,药材公司,细颗粒物(PM2.5),58,55,86,41,62,62,,52,52,28,34,8,9,0.7,1
2025-10-16T1700,1068A,116.7214,39.5589,廊坊市,开发区,颗粒物(PM10),55,59,87,30,44,67,,46,46,23,34,2,3,0.5,0.8
2025-10-16T1700,1070A,116.7244,39.5269,廊坊市,北华航天学院,,45,45,70,25,42,65,,55,55,22,30,7,8,0.6,0.8
2025-10-16T1700,2919A,116.7022,39.5453,廊坊市,河北工业大学,,40,38,62,28,56,65,,52,52,24,32,3,4,0.5,0.8
2025-10-16T1700,2536A,103.7627,29.5844,乐山市,牛耳桥,,38,35,40,26,35,76,,71,71,19,19,7,7,0.8,0.8
2025-10-16T1700,2537A,103.7508,29.6006,乐山市,市第三水厂,,38,32,40,26,35,80,,71,71,13,16,6,6,0.7,0.8
2025-10-16T1700,2538A,103.7571,29.5664,乐山市,市监测站,,40,35,41,28,32,80,,77,77,10,12,5,6,0.7,1
2025-10-16T1700,3361A,103.7311,29.5628,乐山市,理工大学,,33,30,38,23,31,80,,80,80,12,12,6,8,0.9,0.9
2025-10-16T1700,2598A,100.2143,26.8576,丽江市,西南郊,,22,20,23,12,12,69,,61,61,5,10,7,7,1.0,1
2025-10-16T1700,2599A,100.2497,26.8802,丽江市,丽江古城,,30,30,29,3,7,68,,58,58,11,14,9,9,0.5,0.5
2025-10-16T1700,2600A,100.2203,26.8906,丽江市,市中心,,34,34,20,18,15,70,,58,58,12,14,11,10,0.5,0.5
2025-10-16T1700,1267A,119.914,28.4514,丽水市,监测站大楼,,32,,21,19,10,101,,90,90,10,13,4,5,0.7,0.4
2025-10-16T1700,1268A,119.93,28.4586,丽水市,莲都小学,,40,36,24,28,12,107,,84,84,10,14,4,4,0.6,0.4
2025-10-16T1700,1269A,119.879,28.4231,丽水市,余庄前,,38,38,25,25,15,78,,76,76,19,14,4,4,0.6,0.5
2025-10-16T1700,1173A,119.176,34.5885,连云港市,市环境监测站,,28,24,15,9,8,87,,77,77,12,17,5,6,0.4,0.5
2025-10-16T1700,3000A,119.3581,34.6972,连云港市,德源药业,,34,34,16,12,8,87,,74,74,11,13,5,5,0.3,0.3
2025-10-16T1700,3007A,119.178,34.844,连云港市,新城一中,,32,28,23,10,15,101,,93,93,9,27,4,8,0.6,1
2025-10-16T1700,3008A,119.3608,34.7519,连云港市,胡沟管理处,,33,27,11,12,4,103,,86,86,9,9,6,6,0.8,0.6
2025-10-16T1700,3009A,119.1478,34.5911,连云港市,矿山设计院,,28,22,15,9,9,88,,81,81,9,13,5,6,0.5,0.6
2025-10-16T1700,3434A,119.2413,34.6539,连云港市,工贸学校,,29,19,16,10,8,91,,81,81,8,11,8,8,0.6,0.6
2025-10-16T1700,3664A,119.4172,34.7341,连云港市,连云街道,,38,38,17,15,8,95,,80,80,22,17,2,2,0.6,0.5
2025-10-16T1700,2572A,102.2721,27.8415,凉山彝族自治州,邛海宾馆,,37,37,25,19,15,58,,63,63,7,7,10,13,0.5,0.6
2025-10-16T1700,2573A,102.2625,27.898,凉山彝族自治州,西昌市政府,,34,34,26,18,17,55,,49,49,8,13,8,12,0.3,0.4
2025-10-16T1700,2574A,102.2685,27.8851,凉山彝族自治州,凉山州政府,,32,32,31,21,21,57,,53,53,4,11,9,11,0.6,0.7
2025-10-16T1700,4229A,102.2342,27.8859,凉山彝族自治州,凯乐南路30号,,30,30,34,14,16,59,,51,51,10,28,15,12,0.5,0.7
2025-10-16T1700,2212A,123.2,41.1953,辽阳市,宏伟区,颗粒物(PM10),53,56,59,34,33,36,,29,29,31,26,12,7,0.6,0.5
2025-10-16T1700,2213A,123.1683,41.2495,辽阳市,新华园,颗粒物(PM10),51,52,53,34,31,48,,37,37,28,27,8,8,0.6,0.5
2025-10-16T1700,2214A,123.2354,41.2639,辽阳市,滨河路,颗粒物(PM10),59,68,53,36,31,38,,35,35,34,23,7,7,0.4,0.4
2025-10-16T1700,2215A,123.149,41.2991,辽阳市,铁西工业园,,50,49,50,35,32,40,,36,36,25,20,8,7,0.6,0.6
2025-10-16T1700,2227A,125.1358,42.8845,辽源市,环保局,颗粒物(PM10),66,82,81,40,39,83,,74,74,23,25,6,6,0.5,0.5
2025-10-16T1700,3239A,125.0764,42.9078,辽源市,银鹰制药,细颗粒物(PM2.5),62,58,58,44,43,88,,82,82,13,16,5,5,0.4,0.4
2025-10-16T1700,1625A,115.9848,36.4372,聊城市,区政府,颗粒物(PM10),54,58,69,34,45,97,,89,89,22,24,7,9,0.6,0.8
2025-10-16T1700,2878A,116.0072,36.4343,聊城市,聊大东校,颗粒物(PM10),63,75,74,42,50,103,,94,94,26,26,7,10,0.5,0.8
2025-10-16T1700,3200A,115.9819,36.4978,聊城市,监控中心,细颗粒物(PM2.5),62,70,67,44,46,96,,92,92,18,24,9,10,0.6,0.8
2025-10-16T1700,3513A,116.0445,36.4361,聊城市,九州社区,颗粒物(PM10),62,73,75,38,42,94,,95,95,17,20,3,6,0.4,0.6
2025-10-16T1700,4018A,116.0567,36.4608,聊城市,星美广场,颗粒物(PM10),65,80,79,38,41,83,,83,83,21,24,5,8,0.5,0.7
2025-10-16T1700,2632A,94.3681,29.6376,林芝市,林芝监测站,,,8,6,3,6,108,,82,82,2,5,4,4,,0.2
2025-10-16T1700,2633A,94.3616,29.6616,林芝市,林芝人民医院,,31,9,14,3,6,98,,69,69,2,4,7,6,0.2,0.3
2025-10-16T1700,2603A,100.0781,23.8982,临沧市,市环保局,,35,,15,24,24,33,,30,30,6,5,7,6,0.7,0.7
2025-10-16T1700,2604A,100.0894,23.8822,临沧市,市气象局,,16,13,15,11,15,39,,29,29,9,9,6,6,0.6,0.6
2025-10-16T1700,1733A,111.5531,36.0783,临汾市,临钢医院,颗粒物(PM10),56,62,44,29,21,74,,68,68,14,22,6,7,0.6,0.7
2025-10-16T1700,1734A,111.5028,36.0714,临汾市,技工学校,,46,44,51,32,32,68,,66,66,20,26,5,6,0.6,0.7
2025-10-16T1700,1736A,111.5018,36.0855,临汾市,市委,颗粒物(PM10),51,52,61,29,27,78,,72,72,13,25,4,5,0.5,0.7
2025-10-16T1700,3018A,111.505,36.1014,临汾市,唐尧大酒店,,48,48,59,27,25,82,,78,78,8,22,3,4,0.7,0.8
2025-10-16T1700,4244A,111.4879,36.0530,临汾市,启星学校,,36,36,47,25,28,76,,70,70,11,25,6,6,0.6,0.8
2025-10-16T1700,4271A,103.2464,35.6123,临夏回族自治州,滨河东路1号,,,110,100,42,45,26,,22,22,28,28,,11,0.6,0.7
2025-10-16T1700,4310A,103.2093,35.5995,临夏回族自治州,新华街21号,颗粒物(PM10),61,72,83,41,49,50,,34,34,19,30,8,8,0.6,0.9
2025-10-16T1700,1618A,118.3429,35.0532,临沂市,沂河小区,,44,44,28,17,19,89,,84,84,19,17,9,7,0.6,0.3
2025-10-16T1700,1619A,118.295,35.0583,临沂市,鲁南制药厂,,31,31,21,13,12,96,,89,89,18,16,9,7,0.8,0.6
2025-10-16T1700,1620A,118.2794,34.9976,临沂市,新光毛纺厂,,32,29,21,13,13,101,,91,91,20,20,10,7,0.7,0.3
2025-10-16T1700,1621A,118.3956,35.0888,临沂市,河东保险公司,,31,31,26,10,13,80,,87,87,20,18,7,6,0.5,0.4
2025-10-16T1700,3370A,118.3564,35.0215,临沂市,十里堡居委,,34,31,17,9,9,107,,96,96,20,21,10,7,0.8,0.4
2025-10-16T1700,3496A,118.3604,35.1084,临沂市,南坊新区,,34,34,24,14,15,90,,87,87,19,17,10,8,0.5,0.5
2025-10-16T1700,3860A,118.3920,35.0300,临沂市,皇山花园小区,,34,34,22,18,14,103,,97,97,16,16,10,9,1.1,0.6
2025-10-16T1700,1870A,109.4856,24.3895,柳州市,柳东小学,,32,17,26,13,17,102,,96,96,4,9,4,6,0.4,0.6
2025-10-16T1700,1871A,109.4157,24.3277,柳州市,环保监测站,,31,20,41,15,18,98,,88,88,8,14,7,9,0.5,0.8
2025-10-16T1700,1872A,109.389,24.341,柳州市,河西水厂,,42,42,43,18,21,120,,93,93,12,17,5,6,0.6,0.6
2025-10-16T1700,1873A,109.4311,24.2921,柳州市,市四中,,35,35,37,18,16,105,,88,88,11,16,8,10,0.4,0.6
2025-10-16T1700,1874A,109.4006,24.3631,柳州市,市九中,,36,34,40,7,24,115,,30,,11,21,4,4,0.4,0.7
2025-10-16T1700,1875A,109.4958,24.3134,柳州市,古亭山,,30,19,30,15,13,95,,90,90,8,14,6,8,0.3,0.4
2025-10-16T1700,3402A,109.5422,24.3996,柳州市,市二中,,34,22,29,13,18,107,,102,102,7,14,6,7,0.5,0.7
2025-10-16T1700,2307A,116.5079,31.737,六安市,监测大楼,,30,30,25,21,19,36,,42,42,18,11,3,3,0.7,0.6
2025-10-16T1700,2308A,116.4738,31.7643,六安市,皖西学院,,33,,18,23,21,38,,48,48,14,10,3,3,0.6,0.6
2025-10-16T1700,2309A,116.4996,31.7905,六安市,朝阳厂,,34,34,22,21,17,29,,40,38,20,15,2,2,0.7,0.6
2025-10-16T1700,2310A,116.5567,31.7886,六安市,开发区,,,,31,,25,34,,40,40,12,13,2,2,0.6,0.6
2025-10-16T1700,2577A,104.83,26.5917,六盘水市,黄土坡,,23,,10,16,6,40,,40,40,10,8,1,2,0.4,0.4
2025-10-16T1700,2578A,104.89,26.5939,六盘水市,水钢,,14,11,16,3,7,43,,41,41,6,5,3,3,0.3,0.3
2025-10-16T1700,2579A,104.8475,26.5894,六盘水市,民中,,12,9,12,3,6,38,,38,38,10,6,2,2,0.4,0.3
2025-10-16T1700,2580A,104.9544,26.5506,六盘水市,双水,,14,7,11,7,7,44,,41,41,7,5,3,2,0.2,0.2
2025-10-16T1700,2336A,117.0217,25.1033,龙岩市,龙岩市监测站,,24,16,23,6,17,76,,75,75,7,15,5,12,0.3,0.5
2025-10-16T1700,2337A,117.0258,25.0661,龙岩市,闽西职业技术学院,,28,28,28,10,16,64,,75,75,15,16,9,9,0.3,0.4
2025-10-16T1700,2338A,117.0196,25.0306,龙岩市,龙岩学院,,24,24,24,9,14,52,,69,69,11,13,8,9,0.5,0.5
2025-10-16T1700,2885A,104.9339,33.3826,陇南市,滨江中学,,39,39,51,20,21,57,,42,42,9,20,7,8,0.7,0.8
2025-10-16T1700,3247A,104.955,33.371,陇南市,市总工会,,36,36,44,16,16,64,,46,42,9,16,8,8,0.7,0.8
2025-10-16T1700,2488A,111.9975,27.725,娄底市,市监测站,,26,23,35,16,23,83,,67,67,11,12,7,7,0.6,0.6
2025-10-16T1700,2489A,112.0194,27.7314,娄底市,市委党校,,28,,30,19,24,89,,71,71,9,10,2,3,0.4,0.4
2025-10-16T1700,2490A,111.9561,27.7569,娄底市,涟钢,,32,32,39,20,26,50,,43,43,14,15,4,4,1.0,1
2025-10-16T1700,2491A,111.9892,27.7044,娄底市,市政府,,29,22,33,20,25,87,,69,69,7,8,7,7,1.0,1
2025-10-16T1700,1894A,105.4427,28.9063,泸州市,小市上码头,,30,17,32,15,19,96,,68,68,15,18,6,8,0.8,0.8
2025-10-16T1700,1895A,105.4241,28.8573,泸州市,兰田宪桥,,23,21,38,12,19,72,,53,53,9,15,5,6,0.6,0.6
2025-10-16T1700,1896A,105.4379,28.8833,泸州市,市环监站,,25,19,41,12,21,80,,57,57,13,20,10,10,0.6,0.6
2025-10-16T1700,4272A,105.3689,28.7783,泸州市,纳溪中医医院,,32,25,29,16,19,100,,93,93,11,14,6,7,0.7,0.7
2025-10-16T1700,2183A,111.1406,37.5211,吕梁市,环保局,"颗粒物(PM10),细颗粒物(PM2.5)",67,83,72,48,31,80,,69,69,28,37,7,5,0.7,0.5
2025-10-16T1700,2185A,111.1297,37.5136,吕梁市,自来水公司,细颗粒物(PM2.5),67,70,64,48,29,70,,65,65,26,28,4,3,0.9,0.8
2025-10-16T1700,2867A,111.1283,37.51,吕梁市,马茂庄小学,颗粒物(PM10),68,86,76,46,30,73,,69,69,34,36,5,4,0.8,0.6
2025-10-16T1700,1812A,112.3931,34.6516,洛阳市,市委党校,,46,44,54,32,40,94,,67,67,22,32,6,6,0.5,0.7
2025-10-16T1700,1815A,112.494,34.6886,洛阳市,河南林校,细颗粒物(PM2.5),54,50,62,38,50,96,,77,77,25,38,8,8,0.5,0.6
2025-10-16T1700,1816A,112.3844,34.623,洛阳市,开发区管委会,细颗粒物(PM2.5),60,59,56,43,43,92,,68,68,20,23,8,6,0.6,0.7
2025-10-16T1700,1817A,112.4267,34.6258,洛阳市,市委新办公区,颗粒物(PM10),65,79,61,37,35,78,,59,59,25,24,8,7,0.3,0.6
2025-10-16T1700,3340A,112.6005,34.6326,洛阳市,伊滨,细颗粒物(PM2.5),58,,52,41,43,88,,62,62,17,24,5,4,0.5,0.5
2025-10-16T1700,3341A,112.4951,34.6332,洛阳市,中移产业园,,,58,65,36,40,81,,54,54,,32,9,7,,0.6
2025-10-16T1700,3593A,112.5736,34.8993,洛阳市,吉利监测站,,48,48,53,20,37,101,,98,98,15,20,7,7,0.4,0.5
2025-10-16T1700,3635A,112.3677,34.662,洛阳市,河科大西苑校区,颗粒物(PM10),52,53,74,35,38,96,,66,66,22,37,8,8,0.7,0.9
2025-10-16T1700,3636A,112.4388,34.6781,洛阳市,英才小学,细颗粒物(PM2.5),62,62,87,44,45,87,,62,62,18,34,6,7,0.7,0.8
2025-10-16T1700,4214A,112.4600,34.6949,洛阳市,春都路1号院,,43,42,55,30,38,88,,70,70,16,28,6,7,0.6,0.7
2025-10-16T1700,2399A,114.051,33.5699,漯河市,三五一五工厂,,38,31,35,26,27,49,,53,53,15,23,6,6,0.7,0.7
2025-10-16T1700,2400A,114.0055,33.5698,漯河市,漯河大学,细颗粒物(PM2.5),55,,38,39,35,55,,56,56,13,26,5,5,0.6,0.7
2025-10-16T1700,2401A,114.0138,33.5828,漯河市,市水利局,颗粒物(PM10),51,51,52,27,34,50,,51,51,12,24,6,7,0.7,0.7
2025-10-16T1700,2402A,114.0261,33.5698,漯河市,市广电局,颗粒物(PM10),53,56,52,33,36,54,,55,55,9,19,4,4,0.7,0.8
2025-10-16T1700,3478A,113.9749,33.5664,漯河市,市图书馆,,40,40,48,19,20,52,,,,13,22,3,3,0.6,0.7
2025-10-16T1700,4250A,114.0892,33.5882,漯河市,韶山路11号,,,35,43,25,33,41,,46,46,19,28,,6,0.5,0.6
2025-10-16T1700,1798A,118.5092,31.6837,马鞍山市,湖东路四小,,22,22,29,11,21,40,,29,29,18,22,5,6,0.6,1
2025-10-16T1700,1799A,118.5024,31.6449,马鞍山市,开发区,,21,21,32,8,17,42,,28,28,16,23,5,8,0.6,1.2
2025-10-16T1700,3633A,118.4918,31.6809,马鞍山市,雨山,,22,22,32,8,17,40,,29,29,20,27,6,12,0.6,1.3
2025-10-16T1700,4191A,118.5274,31.72227,马鞍山市,慈湖高新区,,19,19,37,9,18,35,,24,24,19,21,5,6,0.5,0.8
2025-10-16T1700,1686A,111.0286,21.4688,茂名市,电白南海,,39,39,32,19,19,97,,99,99,6,12,5,9,0.7,0.8
2025-10-16T1700,1687A,110.9294,21.6533,茂名市,茂石化七小,,39,39,31,14,15,105,,95,95,8,10,7,11,0.5,0.6
2025-10-16T1700,1688A,110.9107,21.6687,茂名市,健康路,,37,29,25,12,14,116,,104,104,9,13,6,14,0.6,0.6
2025-10-16T1700,1689A,110.8592,21.6828,茂名市,高岭,颗粒物(PM10),52,53,44,17,12,112,,99,99,18,17,5,13,0.4,0.5
2025-10-16T1700,3450A,111.01,21.5165,茂名市,电白水东,,32,27,21,12,11,102,,98,98,9,13,6,10,0.4,0.5
2025-10-16T1700,2540A,103.8416,30.0874,眉山市,气象局,细颗粒物(PM2.5),73,89,50,53,31,93,,65,65,30,18,9,8,0.7,0.6
2025-10-16T1700,3137A,103.8578,30.0744,眉山市,市委党校,细颗粒物(PM2.5),64,70,42,46,26,100,,71,71,19,17,9,8,0.6,0.6
2025-10-16T1700,3148A,103.8291,30.0564,眉山市,区人社局,细颗粒物(PM2.5),73,86,58,53,28,90,,70,70,27,18,8,5,1.2,1.2
2025-10-16T1700,1690A,116.1231,24.3284,梅州市,梅江月梅,,26,22,26,18,18,70,,69,69,6,11,4,6,0.2,0.3
2025-10-16T1700,1691A,116.0797,24.2719,梅州市,梅县新城,,23,21,21,10,11,73,,73,73,6,10,7,7,0.6,0.6
2025-10-16T1700,1692A,116.1248,24.2654,梅州市,环境监控中心,,21,20,22,12,14,67,,69,69,7,11,4,9,0.5,0.5
2025-10-16T1700,3315A,116.1233,24.2991,梅州市,梅龙,,21,14,19,10,14,65,,63,63,4,8,8,9,0.6,0.6
2025-10-16T1700,1878A,104.7778,31.4741,绵阳市,富乐山,,28,27,30,19,18,70,,52,52,7,12,7,7,0.6,0.8
2025-10-16T1700,1880A,104.6697,31.4668,绵阳市,高新区自来水公司,,25,25,35,14,24,60,,40,40,14,25,8,8,0.8,0.8
2025-10-16T1700,1881A,104.7287,31.5075,绵阳市,三水厂,,28,20,32,19,25,56,,42,42,20,25,6,6,0.7,0.7
2025-10-16T1700,3491A,104.69,31.5322,绵阳市,西科大附属小学,,39,39,37,20,22,56,,42,42,20,34,10,9,0.8,0.8
2025-10-16T1700,3492A,104.5648,31.5343,绵阳市,安州区旅游局,,20,16,35,12,24,62,,42,42,9,22,9,9,0.8,0.8
2025-10-16T1700,4226A,104.7651,31.4531,绵阳市,绵阳市气象局,,23,21,30,16,20,60,,46,46,15,15,8,8,0.6,0.7
2025-10-16T1700,1784A,129.61,44.561,牡丹江市,环保大楼,,32,32,38,15,20,37,,28,28,18,19,9,13,0.3,0.3
2025-10-16T1700,1785A,129.6115,44.5782,牡丹江市,文化广场,,35,31,41,24,24,39,,30,30,21,21,4,8,0.4,0.3
2025-10-16T1700,1786A,129.5904,44.5963,牡丹江市,第一医院,细颗粒物(PM2.5),55,,45,39,32,47,,34,34,15,19,4,6,0.3,0.3
2025-10-16T1700,1787A,129.6364,44.6075,牡丹江市,机车工厂,细颗粒物(PM2.5),67,75,46,48,25,41,,31,31,12,18,12,9,0.6,0.3
2025-10-16T1700,1788A,129.6386,44.5462,牡丹江市,第一中学,,39,29,36,27,21,28,,31,30,24,17,8,6,0.3,0.2
2025-10-16T1700,2531A,105.0703,29.61,内江市,市监测站,,36,36,33,17,21,80,,72,72,8,13,5,2,0.4,0.9
2025-10-16T1700,2532A,105.0717,29.5947,内江市,东兴区政府,,26,15,20,9,15,82,,62,62,8,14,8,8,0.4,0.4
2025-10-16T1700,2533A,105.0653,29.5817,内江市,内江二中,,25,19,25,12,22,79,,59,59,9,13,2,2,0.7,0.7
2025-10-16T1700,2534A,105.0406,29.5822,内江市,内江日报社,,26,16,24,13,24,83,,66,66,14,18,5,5,0.6,0.6
2025-10-16T1700,2628A,92.0657,31.4846,那曲市,那曲监测站,颗粒物(PM10),58,65,58,9,26,116,,95,95,6,22,5,8,0.3,0.7
2025-10-16T1700,4243A,92.0515,31.4787,那曲市,那曲市委宣传部,,38,33,37,6,14,120,,98,98,4,17,3,3,0.5,0.8
2025-10-16T1700,1290A,115.8931,28.6843,南昌市,省外办,,40,36,52,24,42,128,,114,114,12,13,5,6,1.2,1.3
2025-10-16T1700,1291A,115.8886,28.7003,南昌市,省林业公司,,37,27,45,19,37,116,,102,102,9,14,2,2,0.7,0.9
2025-10-16T1700,1292A,115.8126,28.7442,南昌市,林科所,,35,29,39,17,30,110,,100,100,8,9,7,8,0.7,0.9
2025-10-16T1700,1294A,115.8518,28.687,南昌市,建工学校,,36,31,57,20,38,113,,103,103,7,11,9,9,0.6,0.7
2025-10-16T1700,1295A,115.8921,28.6424,南昌市,象湖,,38,38,48,22,34,121,,106,106,8,13,7,8,0.8,0.9
2025-10-16T1700,3046A,115.9084,28.6062,南昌市,机电学校,,42,42,60,19,39,131,,112,112,7,10,6,7,0.7,0.9
2025-10-16T1700,3690A,115.9721,28.7031,南昌市,外国语学校,,43,43,57,23,39,119,,103,103,18,19,7,9,0.7,0.8
2025-10-16T1700,4192A,115.9316,28.68677,南昌市,南京东路235号,,43,43,62,23,40,118,,103,103,14,19,4,4,1.1,1.2
2025-10-16T1700,1906A,106.0789,30.8023,南充市,南充市委,,26,26,23,16,14,40,,22,22,14,19,4,4,0.6,0.7
2025-10-16T1700,1907A,106.1031,30.8217,南充市,南充炼油厂,,31,31,33,14,15,43,,23,23,9,19,6,6,0.6,0.6
2025-10-16T1700,4227A,106.1083,30.7884,南充市,梨树横街98号,,25,22,22,17,13,46,,28,28,10,19,4,4,0.5,0.7
2025-10-16T1700,4304A,106.1172,30.843,南充市,清泉寺北路188号,,25,25,19,13,12,52,,26,26,7,14,5,5,0.5,0.6
2025-10-16T1700,4305A,106.067,30.7616,南充市,同庆路1号,,34,34,25,12,10,40,,21,21,17,22,6,6,0.6,0.7
2025-10-16T1700,1151A,118.8086,32.1065,南京市,迈皋桥,,24,24,23,9,14,50,,40,40,13,12,3,4,0.2,0.7
2025-10-16T1700,1152A,118.7538,32.0551,南京市,草场门,,31,31,24,17,18,48,,35,35,25,24,2,3,0.5,0.7
2025-10-16T1700,1153A,118.7794,32.0745,南京市,山西路,,29,29,25,3,10,54,,42,42,23,19,3,4,0.6,0.8
2025-10-16T1700,1154A,118.7752,32.0023,南京市,中华门,,29,29,25,17,15,29,,26,26,28,17,4,4,0.5,0.7
2025-10-16T1700,1155A,118.8109,32.0309,南京市,瑞金路,,25,24,20,17,15,51,,42,42,12,13,7,6,0.4,0.6
2025-10-16T1700,1156A,118.7997,32.0754,南京市,玄武湖,,22,22,28,3,10,47,,32,32,14,14,12,10,0.3,0.6
2025-10-16T1700,1157A,118.6414,32.0931,南京市,浦口,,27,27,22,3,12,52,,40,40,18,15,6,6,0.4,0.7
2025-10-16T1700,1158A,118.7356,31.9996,南京市,奥体中心,,,29,24,17,19,44,,39,39,26,18,,6,0.4,0.6
2025-10-16T1700,1159A,118.9125,32.1028,南京市,仙林大学城,,19,19,27,7,10,55,,49,49,18,20,8,8,0.5,0.7
2025-10-16T1700,3422A,118.8436,31.9198,南京市,江宁彩虹桥,,20,17,26,14,18,45,,34,34,25,19,5,4,0.7,0.9
2025-10-16T1700,3427A,118.8554,32.3578,南京市,六合雄州,,,11,19,10,10,58,,62,62,,10,,6,0.6,0.5
2025-10-16T1700,4249A,118.8708,31.3402,南京市,汶溪路181号,,28,,23,19,19,50,,39,39,16,14,5,5,0.7,0.9
2025-10-16T1700,4312A,119.019,31.6512,南京市,中山西路1号,,18,14,26,12,20,50,,39,39,19,21,3,4,0.6,0.9
2025-10-16T1700,1401A,108.3103,22.7881,南宁市,二十一中,,39,39,29,18,14,95,,68,68,5,18,4,8,0.3,0.5
2025-10-16T1700,1402A,108.3141,22.8528,南宁市,北湖,,34,16,29,15,19,107,,76,76,6,22,5,12,0.4,0.6
2025-10-16T1700,1403A,108.3206,22.8225,南宁市,市监测站,,29,23,30,15,12,91,,66,66,9,18,4,7,0.4,0.5
2025-10-16T1700,1404A,108.3829,22.8037,南宁市,大自然花园,,33,18,24,11,11,103,,69,69,5,15,5,5,0.5,0.5
2025-10-16T1700,1406A,108.2397,22.8467,南宁市,区农职院,,31,18,32,10,17,98,,78,78,13,19,2,8,0.4,0.5
2025-10-16T1700,1407A,108.3275,22.735,南宁市,英华嘉园,,27,,29,11,14,86,,65,65,6,15,2,4,0.4,0.5
2025-10-16T1700,3401A,108.4834,22.7618,南宁市,红星社区,,28,10,18,9,7,87,,68,68,5,14,3,3,0.3,0.3
2025-10-16T1700,4221A,108.2177,22.7774,南宁市,乐贤路16号,,29,22,33,14,14,90,,74,74,8,19,6,9,0.3,0.4
2025-10-16T1700,2332A,118.1681,26.6369,南平市,南平市监测站,,23,20,17,12,14,72,,78,78,6,12,2,3,0.5,0.6
2025-10-16T1700,2333A,118.1825,26.6489,南平市,南平铝业有限公司,,22,19,19,13,11,68,,76,76,10,13,15,5,0.9,0.6
2025-10-16T1700,2334A,118.1756,26.6272,南平市,南平七中,,25,21,19,12,12,77,,77,77,3,10,3,5,0.5,0.6
2025-10-16T1700,1168A,120.9098,31.9663,南通市,狼山街道,,26,15,20,3,14,83,,77,77,8,21,3,3,0.4,0.7
2025-10-16T1700,1169A,120.86,32.0005,南通市,虹桥,,28,17,26,3,15,88,,77,77,8,18,3,4,0.5,0.9
2025-10-16T1700,1170A,120.87,32.02,南通市,城中,,27,19,30,3,15,84,,74,74,11,23,4,5,0,0.3
2025-10-16T1700,1171A,120.94,31.93,南通市,星湖花园,,28,10,25,3,14,87,,76,76,7,25,4,4,0.7,0.9
2025-10-16T1700,1172A,120.81,32.0417,南通市,紫琅学院,,26,14,28,3,14,83,,73,73,11,20,3,4,0.6,1
2025-10-16T1700,3291A,121.067,32.062,南通市,通州监测站,,30,7,17,3,14,95,,86,86,5,13,1,2,0.3,0.7
2025-10-16T1700,3432A,120.9348,31.9883,南通市,环境教育馆,,27,17,28,3,16,85,,80,80,8,19,4,4,0.2,0.5
2025-10-16T1700,2404A,112.5224,33.0122,南阳市,瓦房庄,,45,45,41,23,20,68,,78,77,12,16,7,8,0.7,0.7
2025-10-16T1700,2405A,112.5003,32.9735,南阳市,汉画馆,,48,48,38,33,25,65,,74,74,15,17,8,8,0.7,0.6
2025-10-16T1700,2406A,112.5573,33.027,南阳市,气象站,,45,45,36,29,23,68,,76,76,16,17,7,8,0.8,0.7
2025-10-16T1700,2407A,112.5481,32.9689,南阳市,理工学院,,47,47,41,25,18,66,,75,75,13,14,8,9,0.8,0.7
2025-10-16T1700,4008A,112.5234,32.9922,南阳市,卧龙区政府,,45,41,36,31,25,67,,76,76,16,18,7,7,0.8,0.8
2025-10-16T1700,1234A,121.8358,29.911,宁波市,区环保大楼,,29,14,16,3,8,92,,96,96,20,17,6,6,0.6,0.7
2025-10-16T1700,1235A,121.56,29.82,宁波市,万里学院,,33,18,24,6,14,104,,86,86,14,18,7,8,0.7,0.8
2025-10-16T1700,1236A,121.713,29.9572,宁波市,龙赛医院,,31,8,18,3,8,97,,94,94,17,17,6,6,0.6,0.7
2025-10-16T1700,1239A,121.633,29.7733,宁波市,钱湖水厂,,32,8,16,3,12,101,,86,86,11,12,6,6,0.5,0.6
2025-10-16T1700,1240A,121.5856,29.8635,宁波市,太古小学,,30,9,18,3,7,93,,78,78,10,11,4,4,0.7,0.8
2025-10-16T1700,1241A,121.524,29.8674,宁波市,市环境监测中心,,29,16,25,9,13,92,,76,76,12,15,7,8,0.7,0.8
2025-10-16T1700,3710A,121.5594,29.8975,宁波市,白沙活动中心,,31,14,20,3,11,98,,85,85,15,18,5,6,0.5,0.6
2025-10-16T1700,2341A,119.5388,26.6612,宁德市,宁德市监测站,,29,,18,15,13,92,,83,83,10,8,4,4,0.4,0.4
2025-10-16T1700,3209A,119.5231,26.6562,宁德市,宁德一中,,29,19,21,3,8,92,,83,83,6,6,4,4,0.3,0.3
2025-10-16T1700,2618A,98.8601,25.8567,怒江傈僳族自治州,州监测站,,28,28,29,17,20,42,,42,42,10,9,5,6,0.4,0.4
2025-10-16T1700,2619A,98.8546,25.8417,怒江傈僳族自治州,泸水一中,,,,22,,14,25,,26,26,,14,5,5,,0.6
2025-10-16T1700,1888A,101.6891,26.571,攀枝花市,弄弄坪,,39,39,42,12,17,38,,40,40,10,25,7,16,0.6,1.2
2025-10-16T1700,1889A,101.5769,26.5928,攀枝花市,河门口,,32,32,33,17,17,47,,46,46,14,16,14,17,1.3,0.9
2025-10-16T1700,1890A,101.7169,26.585,攀枝花市,炳草岗,,32,32,41,15,22,42,,44,44,17,28,10,16,0.8,1.1
2025-10-16T1700,1891A,101.7369,26.5008,攀枝花市,仁和,,16,16,25,8,15,35,,45,45,8,14,9,13,0.7,0.9
2025-10-16T1700,2835A,101.7227,26.567,攀枝花市,四十中小,,38,38,35,21,18,43,,44,44,10,22,9,27,0.9,1.2
2025-10-16T1700,1604A,122.0303,41.1489,盘锦市,开发区,颗粒物(PM10),60,69,32,41,23,78,,63,63,17,13,5,10,0.4,0.3
2025-10-16T1700,1605A,122.0485,41.0883,盘锦市,兴隆台,细颗粒物(PM2.5),57,55,35,40,23,78,,60,60,25,18,6,26,0.4,0.4
2025-10-16T1700,1606A,121.8297,41.1028,盘锦市,新生街道,,45,39,25,31,15,68,,61,61,19,15,7,7,0.3,0.2
2025-10-16T1700,1832A,113.3257,33.742,平顶山市,新华旅馆,颗粒物(PM10),56,61,44,33,28,61,,69,69,24,21,6,6,0.6,0.5
2025-10-16T1700,1833A,113.2919,33.737,平顶山市,规划设计院,细颗粒物(PM2.5),89,68,56,66,45,50,,66,66,25,25,4,4,0.8,0.7
2025-10-16T1700,1834A,113.182,33.774,平顶山市,平顶山工学院,,,,50,,35,,,,,,18,,6,,0.7
2025-10-16T1700,3204A,113.3025,33.73,平顶山市,规划局,颗粒物(PM10),64,78,55,45,40,53,,74,71,25,19,6,6,0.8,0.7
2025-10-16T1700,3594A,112.8867,33.9116,平顶山市,石龙区,细颗粒物(PM2.5),62,48,41,44,35,83,,91,91,17,18,6,7,0.9,0.6
2025-10-16T1700,2656A,106.6692,35.5461,平凉市,聚贤嘉苑,,36,36,38,22,22,57,,67,41,10,15,8,10,0.6,0.7
2025-10-16T1700,2657A,106.7021,35.5307,平凉市,博物馆,,32,32,43,18,21,56,,74,42,9,18,8,10,0.7,0.8
2025-10-16T1700,2348A,113.8385,27.6434,萍乡市,中医院,,,72,68,32,48,93,,76,76,,5,6,8,1.2,1.3
2025-10-16T1700,2349A,113.8493,27.6253,萍乡市,市政府车库,,50,48,65,35,54,107,,84,84,21,28,15,16,1.5,1.5
2025-10-16T1700,2350A,113.8676,27.6435,萍乡市,市环保局,,41,41,65,26,45,118,,88,88,15,29,1,7,1.0,1.1
2025-10-16T1700,2351A,113.866,27.6198,萍乡市,安源区政府,细颗粒物(PM2.5),70,,71,51,63,117,,86,86,23,25,15,12,1.3,1.5
2025-10-16T1700,2319A,119.0141,25.4325,莆田市,荔城区仓后路,,,48,26,18,7,,,76,,14,9,8,8,,0.4
2025-10-16T1700,2320A,119.0015,25.4553,莆田市,莆田市监测站,,26,21,19,13,9,81,,85,85,7,7,7,7,0.4,0.5
2025-10-16T1700,2321A,119.1119,25.4561,莆田市,涵江区六中,,32,32,21,18,10,81,,87,87,7,6,6,5,0.5,0.5
2025-10-16T1700,2322A,119.1013,25.3215,莆田市,秀屿区政府,,50,50,24,32,13,75,,79,79,9,9,9,7,0.7,0.6
2025-10-16T1700,2392A,115.0312,35.7636,濮阳市,环保局,细颗粒物(PM2.5),58,,41,41,46,80,,84,83,20,23,8,8,0.6,0.9
2025-10-16T1700,2394A,115.0574,35.7609,濮阳市,油田运输公司,细颗粒物(PM2.5),54,56,71,38,42,88,,86,86,22,29,9,9,0.7,1
2025-10-16T1700,3021A,115,35.7668,濮阳市,濮水河管理处,颗粒物(PM10),53,55,55,26,24,66,,69,69,15,19,8,8,0.6,0.6
2025-10-16T1700,4216A,115.0924,35.7686,濮阳市,任丘路479号,细颗粒物(PM2.5),62,66,68,44,43,74,,80,80,20,23,8,8,0.7,0.8
2025-10-16T1700,2601A,100.98,22.7633,普洱市,市环保局,,23,23,23,3,21,42,,44,44,3,4,2,3,0.3,0.4
2025-10-16T1700,2602A,100.9817,22.8322,普洱市,普洱第二中学,,,20,25,7,15,38,,39,39,4,7,,7,,0.5
2025-10-16T1700,3345A,131.0577,45.7879,七台河市,中波台,,15,15,78,8,74,44,,45,44,17,22,8,7,0.5,0.6
2025-10-16T1700,3637A,131.0176,45.7761,七台河市,人民广场,,36,,87,25,76,49,,52,52,18,19,8,8,0.5,0.6
2025-10-16T1700,3684A,130.8781,45.8222,七台河市,新建矿广场,,34,34,34,12,31,33,,41,41,23,12,5,7,0.5,0.6
2025-10-16T1700,1779A,123.9305,47.3636,齐齐哈尔市,安居小区,,18,18,41,3,25,51,,50,50,11,13,2,3,0.3,0.4
2025-10-16T1700,1780A,123.9488,47.3386,齐齐哈尔市,中心广场,,17,16,41,3,20,52,,54,54,15,14,2,3,0.3,0.3
2025-10-16T1700,1781A,123.9483,47.3227,齐齐哈尔市,农牧车辆厂,,39,39,39,8,19,49,,49,49,18,13,3,4,0.4,0.5
2025-10-16T1700,1783A,123.945,47.2988,齐齐哈尔市,市环境监测站,,22,22,38,10,21,47,,50,50,16,13,6,7,0.3,0.3
2025-10-16T1700,3662A,123.6333,47.2075,齐齐哈尔市,富区青少年活动中心,,38,38,36,17,24,42,,51,51,16,10,5,5,0.4,0.5
2025-10-16T1700,2591A,107.9783,26.5747,黔东南苗族侗族自治州,市环境监测站,,11,7,17,3,11,34,,27,27,1,9,3,3,0.4,0.7
2025-10-16T1700,2881A,107.8908,26.5311,黔东南苗族侗族自治州,凯里学院,,10,,17,3,7,29,,26,26,4,9,2,2,0.4,0.5
2025-10-16T1700,2593A,107.5228,26.2403,黔南布依族苗族自治州,小围寨,,10,6,4,3,1,31,,33,33,2,2,2,4,0.4,0.4
2025-10-16T1700,3538A,107.5175,26.2978,黔南布依族苗族自治州,沙坝,,9,7,11,3,5,28,,34,33,4,3,3,3,0.4,0.3
2025-10-16T1700,2589A,104.9022,25.0925,黔西南布依族苗族自治州,场坝街,,14,14,13,7,7,36,,37,37,4,4,2,3,0.3,0.3
2025-10-16T1700,2590A,104.8811,25.0992,黔西南布依族苗族自治州,坪东大道,,11,11,15,6,8,34,,35,35,4,5,3,2,0.3,0.4
2025-10-16T1700,2502A,108.6236,21.9667,钦州市,市环保站,,31,31,23,17,10,80,,69,69,14,13,3,3,0.6,0.6
2025-10-16T1700,2503A,108.6549,21.9481,钦州市,沙埠小学,,38,33,26,26,17,84,,71,71,12,9,2,4,0.4,0.3
2025-10-16T1700,2504A,108.5989,21.7431,钦州市,港区一小,,31,31,34,15,12,96,,86,86,20,21,4,5,0.6,0.5
2025-10-16T1700,3404A,108.5959,21.9633,钦州市,北职校,,25,20,27,13,11,80,,71,71,9,12,3,3,0.6,0.6
2025-10-16T1700,1043A,119.7493,40.0116,秦皇岛市,第一关,颗粒物(PM10),55,60,57,27,43,57,,74,73,27,28,5,5,0.3,0.4
2025-10-16T1700,1044A,119.5897,39.9499,秦皇岛市,监测站,,47,47,64,10,32,61,,70,70,28,30,6,7,0.4,0.5
2025-10-16T1700,1046A,119.5251,39.9041,秦皇岛市,建设大厦,,48,48,62,16,30,71,,72,72,16,21,4,4,0.3,0.5
2025-10-16T1700,3132A,119.610547,39.943889,秦皇岛市,文明里,,50,50,57,15,33,64,,71,71,21,26,8,8,0.3,0.3
2025-10-16T1700,4198A,119.5090,39.8253,秦皇岛市,北戴河轮滑馆,颗粒物(PM10),51,51,55,18,31,73,,75,75,16,19,3,4,0.2,0.3
2025-10-16T1700,1310A,120.4134,36.0658,青岛市,市南区东部子站,,39,39,19,24,12,71,,76,76,4,17,6,6,0.3,0.3
2025-10-16T1700,1311A,120.3664,36.1032,青岛市,四方区子站,颗粒物(PM10),58,66,25,31,15,102,,100,100,14,10,2,2,0.5,0.3
2025-10-16T1700,1312A,120.2994,36.054,青岛市,市南区西部子站,颗粒物(PM10),58,66,29,27,15,89,,90,90,22,16,7,8,0.7,0.5
2025-10-16T1700,1313A,120.4581,36.0858,青岛市,崂山区子站,,39,36,16,14,8,122,,104,104,7,10,8,8,0.4,0.3
2025-10-16T1700,1315A,120.3999,36.3083,青岛市,城阳区子站,颗粒物(PM10),53,56,28,29,15,100,,104,104,12,12,3,3,0.6,0.5
2025-10-16T1700,3362A,120.5014,36.4034,青岛市,即墨2号,细颗粒物(PM2.5),72,56,28,52,26,90,,90,90,19,16,4,4,0.5,0.4
2025-10-16T1700,3642A,120.3503,36.0736,青岛市,市北区南部,,41,41,23,27,13,96,,93,93,21,17,4,3,0.6,0.4
2025-10-16T1700,3643A,120.3948,36.1805,青岛市,李沧区北部,颗粒物(PM10),59,68,27,36,21,95,,94,94,18,13,6,6,0.6,0.4
2025-10-16T1700,4290A,120.1969,35.9546,青岛市,珠江路669号,颗粒物(PM10),60,70,30,32,18,91,,100,100,36,34,9,9,0.5,0.4
2025-10-16T1700,4291A,120.0424,35.8656,青岛市,黄岛区人民政府广场,颗粒物(PM10),53,56,22,29,9,123,,103,103,16,15,5,6,0.7,0.5
2025-10-16T1700,1703A,113.0208,23.7106,清远市,凤城街办,,30,30,34,21,22,78,,96,96,11,18,5,8,0.6,0.7
2025-10-16T1700,3025A,113.0477,23.6344,清远市,技师学院,,25,25,42,14,24,78,,90,90,10,25,5,8,0.4,0.6
2025-10-16T1700,3318A,112.9903,23.7403,清远市,清新太和,,38,38,33,22,20,88,,95,95,10,15,5,7,0.5,0.5
2025-10-16T1700,3455A,113.076,23.7198,清远市,清城东城,,46,38,38,32,21,75,,90,90,8,14,5,6,0.5,0.8
2025-10-16T1700,2661A,107.6325,35.7357,庆阳市,庆阳五中,,21,21,27,6,13,37,,54,39,14,10,8,8,0.7,0.5
2025-10-16T1700,2662A,107.6364,35.7067,庆阳市,市环保局,,18,18,23,11,12,42,,56,44,16,12,4,4,0.6,0.6
2025-10-16T1700,1916A,103.7897,25.5035,曲靖市,环境监测站,,14,10,18,3,7,42,,40,40,6,11,4,5,0.3,0.3
2025-10-16T1700,1917A,103.8,25.5364,曲靖市,烟厂办公区,,22,,12,15,7,46,,41,41,3,9,4,4,0.3,0.4
2025-10-16T1700,3376A,103.7947,25.462,曲靖市,南苑二区,,14,6,9,3,5,44,,42,42,3,7,4,4,0.4,0.4
2025-10-16T1700,3377A,103.7444,25.5261,曲靖市,曲靖师范学院,,,,14,2,6,50,,44,44,4,11,,2,0.3,0.4
2025-10-16T1700,1264A,118.8692,28.9398,衢州市,环保大楼,,34,29,36,18,24,106,,104,104,12,20,5,5,0.9,0.7
2025-10-16T1700,1265A,118.8709,28.9666,衢州市,实验学校,,35,25,34,18,24,111,,108,108,12,21,5,4,1.1,0.9
2025-10-16T1700,1266A,118.8621,28.9808,衢州市,衢州学院,,31,30,36,18,24,97,,98,98,14,27,5,5,0.8,0.7
2025-10-16T1700,1611A,118.5819,24.9117,泉州市,涂山街,,32,32,23,17,13,79,,97,97,6,4,4,3,0.4,0.4
2025-10-16T1700,1612A,118.5972,24.8978,泉州市,津头埔,,,29,22,16,12,78,,95,95,11,10,,3,0.4,0.4
2025-10-16T1700,1613A,118.6663,24.9424,泉州市,万安,,36,36,28,15,13,69,,91,91,7,8,4,3,0.5,0.5
2025-10-16T1700,3529A,118.6333,24.9264,泉州市,城华南路,,28,28,24,17,13,73,,94,94,16,10,5,4,0.4,0.4
2025-10-16T1700,2626A,88.8876,29.2718,日喀则市,日喀则监测站,,37,9,14,3,3,116,,96,96,2,10,15,14,0.1,0.2
2025-10-16T1700,3726A,88.8781,29.2426,日喀则市,林业技术推广中心,,,8,11,3,2,120,,100,100,,3,6,6,0.4,0.4
2025-10-16T1700,1659A,119.471,35.4209,日照市,监测站,,38,29,17,15,12,120,,98,98,11,15,6,6,1.0,0.7
2025-10-16T1700,1660A,119.523,35.4216,日照市,市政府广场,,,22,11,15,8,122,,101,101,,9,9,6,0.8,0.6
2025-10-16T1700,1661A,119.5587,35.4044,日照市,港务局,,41,39,15,26,18,129,,105,105,7,8,4,4,0.7,0.5
2025-10-16T1700,3507A,119.5328,35.4625,日照市,职业技术学院,,39,36,19,22,11,123,,102,102,12,10,5,5,0.8,0.6
2025-10-16T1700,3604A,119.3266,35.1044,日照市,岚山环保分局,,35,29,28,12,15,110,,97,97,11,26,7,25,0.7,2.4
2025-10-16T1700,1835A,111.1922,34.7752,三门峡市,市政府,,36,36,35,25,23,80,,93,92,18,22,6,7,0.6,0.6
2025-10-16T1700,1836A,111.1587,34.7942,三门峡市,开发区,细颗粒物(PM2.5),58,55,38,41,31,76,,86,86,23,22,4,5,0.5,0.5
2025-10-16T1700,3039A,111.1911,34.7829,三门峡市,三门峡市第一小学,,47,47,39,31,26,78,,90,90,14,13,6,6,0.7,0.6
2025-10-16T1700,3598A,111.1,34.7167,三门峡市,富达温泉假日酒店,,39,39,34,17,24,84,,91,90,9,17,7,7,0.4,0.8
2025-10-16T1700,2324A,117.6211,26.2625,三明市,三钢,,33,,24,23,10,90,,82,82,6,15,3,7,0.4,0.8
2025-10-16T1700,2325A,117.635,26.2714,三明市,三明二中,,30,30,27,21,16,84,,78,78,6,11,3,4,0.4,0.4
2025-10-16T1700,2326A,117.6028,26.2378,三明市,三元区政府,,28,20,27,12,13,88,,82,82,7,16,2,5,0.5,0.6
2025-10-16T1700,1876A,109.5078,18.2489,三亚市,河东子站,,32,32,20,10,11,37,,46,44,6,5,3,3,0.3,0.4
2025-10-16T1700,1877A,109.4964,18.2681,三亚市,河西子站,,27,27,21,3,4,42,,52,51,5,4,6,6,0.3,0.4
2025-10-16T1700,3540A,109.7348,18.3443,三亚市,君悦子站,,26,26,20,9,10,48,,49,49,2,4,3,3,0.4,0.4
2025-10-16T1700,2624A,91.7608,29.2313,山南市,山南监测站,,36,7,14,3,7,113,,91,91,4,9,6,6,0.2,0.2
2025-10-16T1700,2625A,91.7706,29.2436,山南市,山南人民医院,,36,8,13,3,6,114,,92,92,2,6,4,4,0.2,0.2
2025-10-16T1700,1674A,116.6794,23.3667,汕头市,金平子站,,33,33,28,16,13,91,,90,90,6,10,3,4,0.5,0.5
2025-10-16T1700,1675A,116.7244,23.3633,汕头市,龙湖子站,,36,36,25,17,12,88,,84,84,4,7,7,9,0.5,0.5
2025-10-16T1700,1676A,116.7258,23.2775,汕头市,濠江子站,,35,35,24,18,10,88,,81,81,2,5,6,6,0.5,0.5
2025-10-16T1700,1677A,116.7519,23.4714,汕头市,澄海子站,,35,35,30,15,23,81,,85,85,6,11,5,7,0.6,0.6
2025-10-16T1700,1678A,116.6092,23.2539,汕头市,潮阳子站,,35,35,22,8,9,87,,80,80,4,7,5,6,0.5,0.6
2025-10-16T1700,3444A,116.454,23.2684,汕头市,潮南峡山,,,26,26,19,16,90,,89,89,,7,,9,0.7,0.8
2025-10-16T1700,3624A,116.4069,23.2533,汕头市,潮南子站,,,40,31,18,14,79,,82,82,7,10,,6,0.5,0.6
2025-10-16T1700,1693A,115.3653,22.775,汕尾市,市环保局,,36,30,27,18,17,113,,101,101,4,8,5,5,0.6,0.7
2025-10-16T1700,1694A,115.3706,22.7898,汕尾市,市政府,,35,20,27,6,18,111,,,,8,10,7,6,0.5,0.6
2025-10-16T1700,1695A,115.3622,22.7925,汕尾市,新城中学,,35,30,30,12,16,111,,101,101,7,12,7,6,0.7,0.7
2025-10-16T1700,2645A,109.9154,33.8715,商洛市,监测站,,28,28,14,17,7,59,,60,60,16,11,6,6,0.7,0.6
2025-10-16T1700,3045A,109.9643,33.8471,商洛市,商州区中学,,38,,17,26,10,47,,56,51,24,14,4,4,0.6,0.6
2025-10-16T1700,2408A,115.6702,34.4285,商丘市,环境监测站,,23,16,38,13,28,72,,60,60,13,15,2,2,0.3,0.6
2025-10-16T1700,2409A,115.6458,34.4045,商丘市,粮食局,,22,22,36,12,28,69,,57,57,9,10,3,3,0.1,0.5
2025-10-16T1700,2410A,115.6293,34.3948,商丘市,睢阳区环保局,,25,23,38,15,39,77,,60,60,7,12,5,4,0.4,0.6
2025-10-16T1700,3171A,115.6071,34.4465,商丘市,梁园区档案局,,24,,34,13,40,75,,58,58,7,15,3,4,0.5,0.6
2025-10-16T1700,1141A,121.4,31.238,上海市,普陀,,,7,30,,26,74,,64,64,20,23,5,6,0.4,0.7
2025-10-16T1700,1142A,121.478,31.2036,上海市,十五厂,,21,9,30,8,26,65,,61,61,23,22,7,7,0.7,1
2025-10-16T1700,1143A,121.467,31.3008,上海市,虹口,,23,,34,11,26,71,,59,59,13,20,8,8,0.5,0.8
2025-10-16T1700,1147A,121.425,31.2261,上海市,静安监测站,,24,,30,11,26,74,,65,65,18,23,3,4,0.6,0.8
2025-10-16T1700,1148A,121.703,31.1907,上海市,浦东川沙,,26,8,33,3,22,82,,73,73,16,22,9,9,0.4,0.7
2025-10-16T1700,1149A,121.533,31.2284,上海市,浦东新区监测站,,20,9,30,7,19,64,,54,54,24,23,5,6,0.7,1
2025-10-16T1700,1150A,121.577,31.2071,上海市,浦东张江,,24,8,30,3,18,75,,70,70,17,14,5,6,0.5,0.8
2025-10-16T1700,3265A,121.4316,31.3322,上海市,宝山庙行,,24,9,44,3,26,76,,65,65,15,29,6,7,0.4,0.7
2025-10-16T1700,3266A,121.8791,31.4662,上海市,崇明上实东滩,,30,6,25,3,17,96,,88,88,5,13,4,5,0.2,0.5
2025-10-16T1700,3268A,121.3162,31.2838,上海市,嘉定南翔,,19,8,33,7,26,59,,52,52,29,29,6,6,0.4,0.7
2025-10-16T1700,3269A,121.3359,30.7456,上海市,金山新城,,20,,26,10,27,62,,57,57,17,15,6,6,0.6,0.9
2025-10-16T1700,3270A,121.4996,31.0739,上海市,闵行浦江,,22,7,29,3,22,69,,62,62,18,20,4,5,0.6,0.9
2025-10-16T1700,3271A,121.2886,31.1663,上海市,青浦徐泾,,21,7,34,3,27,65,,63,63,19,19,7,8,0.6,1
2025-10-16T1700,3272A,121.2186,31.0378,上海市,松江图书馆,,23,10,32,7,26,46,,49,49,46,29,5,5,0.6,0.9
2025-10-16T1700,3273A,121.3902,31.2059,上海市,长宁仙霞,,23,7,32,7,25,72,,62,62,17,24,5,6,0.5,0.8
2025-10-16T1700,3274A,121.7965,31.0507,上海市,浦东惠南,,28,,25,9,21,88,,79,79,8,21,7,7,0.9,1
2025-10-16T1700,3544A,121.4891,30.925,上海市,奉贤南桥新城,,21,6,25,3,22,67,,64,64,22,22,6,5,0.6,0.8
2025-10-16T1700,4183A,121.4174,31.16637,上海市,冠生园路458号,,22,8,31,7,26,70,,58,58,21,25,5,5,0.6,1
2025-10-16T1700,4205A,121.5419,31.2683,上海市,宁武路151号,,23,8,35,8,16,73,,56,56,20,26,5,5,0.5,0.8
2025-10-16T1700,2382A,117.9756,28.4436,上饶市,市监测站,,33,30,37,20,25,104,,100,100,9,17,5,11,0.4,0.5
2025-10-16T1700,2383A,117.9519,28.4628,上饶市,凤凰光学,,33,32,42,23,26,102,,95,95,4,18,5,12,0.2,0.4
2025-10-16T1700,3685A,117.897,28.4315,上饶市,双创科技城,,35,31,44,19,33,110,,107,107,9,23,5,10,0.4,0.6
2025-10-16T1700,4211A,118.1904,28.4448,上饶市,裕丰大道,,46,38,33,20,16,146,,99,99,14,13,7,6,0.7,0.5
2025-10-16T1700,1669A,113.5824,24.7733,韶关市,市八中,,30,30,33,17,22,65,,64,64,3,14,6,12,0.2,0.5
2025-10-16T1700,1671A,113.5917,24.7972,韶关市,园林处,,23,12,31,10,28,71,,68,68,6,15,5,9,0.5,0.7
2025-10-16T1700,1673A,113.5971,24.6863,韶关市,曲江监测站,,24,14,35,13,20,74,,77,77,6,17,6,8,0.5,0.7
2025-10-16T1700,2809A,113.6668,24.7756,韶关市,大学路288号,,25,25,31,12,23,65,,68,68,8,14,6,12,0.5,0.6
2025-10-16T1700,3622A,113.5556,24.8082,韶关市,碧湖山庄,,23,17,36,11,22,73,,66,66,7,13,6,7,0.5,0.5
2025-10-16T1700,2464A,111.5283,27.2442,邵阳市,市化工厂,细颗粒物(PM2.5),54,45,41,38,31,94,,78,78,15,16,7,8,0.8,0.8
2025-10-16T1700,2466A,111.4328,27.2272,邵阳市,市环保局,颗粒物(PM10),57,63,44,33,35,92,,73,73,14,13,7,7,0.9,0.9
2025-10-16T1700,4218A,111.4460,27.2472,邵阳市,北塔二期4-26地块,,40,40,44,17,30,87,,68,68,14,15,4,4,0.8,0.9
2025-10-16T1700,4219A,111.4739,27.2282,邵阳市,邵水西路287号,细颗粒物(PM2.5),54,38,44,38,32,90,,73,73,14,13,9,9,0.6,0.6
2025-10-16T1700,1247A,120.6053,29.9928,绍兴市,城东开发委,,34,28,36,18,23,108,,72,72,24,21,8,7,0.8,0.8
2025-10-16T1700,2921A,120.5483,30.0003,绍兴市,树下王站,,37,21,31,16,20,118,,80,80,13,15,7,6,0.9,0.9
2025-10-16T1700,3408A,120.5683,29.9361,绍兴市,绍兴中专,,38,23,29,16,20,120,,79,79,15,22,8,8,0.8,0.8
2025-10-16T1700,3409A,120.4906,30.0861,绍兴市,柯桥区政府,,33,27,29,18,20,104,,80,80,24,20,7,7,0.9,0.9
2025-10-16T1700,3410A,120.8752,30.0249,绍兴市,重华小学,,36,21,30,16,23,113,,74,74,20,22,8,8,0.9,1
2025-10-16T1700,3411A,120.8369,30.0137,绍兴市,上虞中学,,38,18,34,15,29,120,,73,73,15,26,5,7,0.8,0.9
2025-10-16T1700,3560A,120.4722,30.0415,绍兴市,柯桥妇保,,36,29,34,16,22,115,,90,90,20,18,6,5,0.9,1
2025-10-16T1700,3658A,120.6153,30.0764,绍兴市,袍江中学,,35,26,31,15,21,109,,76,76,25,23,4,4,0.8,0.9
2025-10-16T1700,1356A,114.1063,22.5545,深圳市,通心岭子站,,30,22,18,12,9,96,,91,91,5,9,8,8,0.6,0.6
2025-10-16T1700,1357A,114.117,22.5625,深圳市,洪湖,,31,24,26,14,13,99,,93,93,9,14,8,8,0.5,0.6
2025-10-16T1700,1358A,113.987,22.5417,深圳市,华侨城,,31,27,20,11,12,99,,93,93,6,11,7,8,0.7,0.7
2025-10-16T1700,1359A,113.9181,22.5171,深圳市,南海子站,,34,22,26,17,14,107,,101,101,10,14,6,6,0.8,0.8
2025-10-16T1700,1360A,114.2458,22.5689,深圳市,盐田,,31,25,23,10,7,98,,89,89,4,12,8,8,0.4,0.4
2025-10-16T1700,1361A,114.2283,22.7244,深圳市,龙岗,,32,30,30,16,18,100,,101,101,2,9,6,6,0.8,1
2025-10-16T1700,1363A,114.494,22.5422,深圳市,南澳,,35,20,23,11,16,110,,94,94,5,5,9,9,0.6,0.6
2025-10-16T1700,1364A,114.41,22.6342,深圳市,葵涌,,31,29,27,20,16,98,,87,87,10,9,8,7,0.5,0.5
2025-10-16T1700,1365A,114.297,22.5978,深圳市,梅沙,,29,27,24,10,13,91,,94,94,5,6,8,8,0.5,0.5
2025-10-16T1700,1366A,114.0678,22.738,深圳市,观澜,,,56,49,31,16,107,,112,112,,25,9,9,,0.7
2025-10-16T1700,3305A,114.0731,22.559,深圳市,莲花,,28,23,25,14,16,88,,80,80,8,12,6,6,0.6,0.6
2025-10-16T1700,3306A,114.0261,22.6198,深圳市,民治,,38,38,27,26,16,103,,97,97,14,23,8,8,0.6,0.7
2025-10-16T1700,3307A,114.1871,22.6451,深圳市,横岗,,30,24,28,12,16,95,,98,98,10,14,8,9,0.8,0.8
2025-10-16T1700,3447A,114.3551,22.7151,深圳市,坪山,,43,43,31,24,17,93,,90,90,9,15,8,9,1.1,0.6
2025-10-16T1700,3623A,113.8953,22.5861,深圳市,西乡,,35,31,29,24,14,104,,98,98,23,26,10,7,0.6,0.7
2025-10-16T1700,1099A,123.505,41.7406,沈阳市,浑南东路,,46,43,54,32,37,56,,46,46,24,18,7,7,0.5,0.5
2025-10-16T1700,1100A,123.4231,41.6989,沈阳市,新秀街,,49,49,49,32,38,55,,47,47,30,24,5,6,0.6,0.6
2025-10-16T1700,1102A,123.5903,41.8411,沈阳市,东陵路,,43,43,43,28,26,58,,50,50,14,17,8,8,0.4,0.4
2025-10-16T1700,1103A,123.4264,41.8467,沈阳市,陵东街,,49,44,56,34,32,65,,56,56,27,20,6,6,0.5,0.5
2025-10-16T1700,1104A,123.4114,41.7653,沈阳市,文化路,颗粒物(PM10),54,58,50,37,30,58,,51,51,27,21,6,6,0.5,0.5
2025-10-16T1700,1105A,123.4678,41.7867,沈阳市,小河沿,颗粒物(PM10),52,54,53,32,31,58,,50,50,22,21,8,5,0.5,0.6
2025-10-16T1700,1106A,123.4017,41.7972,沈阳市,太原街,"颗粒物(PM10),细颗粒物(PM2.5)",58,65,53,41,33,52,,48,48,39,24,7,7,0.5,0.4
2025-10-16T1700,1108A,123.3783,41.9228,沈阳市,京沈街,颗粒物(PM10),52,53,38,34,23,78,,62,62,19,18,8,8,0.5,0.5
2025-10-16T1700,2897A,123.2444,41.7347,沈阳市,沈辽西路,颗粒物(PM10),54,58,56,35,28,62,,53,53,25,20,6,6,0.5,0.5
2025-10-16T1700,2429A,110.78,32.6494,十堰市,滨河新村,,42,42,38,19,17,71,,71,71,13,17,7,8,0.7,0.7
2025-10-16T1700,2430A,110.7258,32.6389,十堰市,刘家沟,,35,35,31,11,13,77,,77,77,11,13,6,7,0.6,0.7
2025-10-16T1700,2431A,110.8839,32.5714,十堰市,铁二处,,30,26,22,21,20,67,,70,70,15,13,7,6,0.7,0.9
2025-10-16T1700,3545A,110.8054,32.8401,十堰市,郧阳区金沙路,,36,36,30,16,15,80,,79,79,10,9,6,6,0.8,0.8
2025-10-16T1700,2709A,86.0497,44.2967,石河子市,艾青诗歌馆,,24,18,22,16,15,76,,55,55,3,14,6,6,0.4,0.4
2025-10-16T1700,3442A,86.047,44.2331,石河子市,南区管委会,,28,25,21,19,14,73,,57,57,11,14,10,9,0.3,0.3
2025-10-16T1700,4051A,86.0791,44.3017,石河子市,世纪广场,,32,32,26,3,10,74,,53,53,6,21,8,7,0.3,0.3
2025-10-16T1700,1029A,114.4422,38.0444,石家庄市,职工医院,细颗粒物(PM2.5),78,76,124,57,82,74,,48,48,14,45,3,1,0.7,0.8
2025-10-16T1700,1030A,114.6063,38.0266,石家庄市,高新区,细颗粒物(PM2.5),80,80,128,59,84,75,,45,45,20,42,3,3,0.5,0.7
2025-10-16T1700,1031A,114.4898,38.1328,石家庄市,西北水源,,,54,112,,85,58,,42,42,,36,2,2,0.6,0.6
2025-10-16T1700,1032A,114.4586,38.0058,石家庄市,西南高教,细颗粒物(PM2.5),92,79,131,68,104,67,,46,46,18,44,3,2,0.4,0.6
2025-10-16T1700,1033A,114.5331,38.0178,石家庄市,世纪公园,细颗粒物(PM2.5),78,76,98,57,72,63,,48,48,18,35,3,3,0.6,0.8
