timepoint,stationcode,longitude,latitude,area,positionname,primarypollutant,aqi,pm10,pm10_24h,pm2_5,pm2_5_24h,o3,o3_24h,o3_8h,o3_8h_24h,no2,no2_24h,so2,so2_24h,co,co_24h
2022-12-26T05:00:00,1001A,116.3621,39.8784,北京市,万寿西宫,,50,50,38,23,22,52,1,0,0,60,45,3,2,0.4,0.5
2022-12-26T05:00:00,1002A,116.2202,40.2915,北京市,定陵(对照点),,37,37,44,14,25,57,57,52,52,6,20,3,3,0.3,0.4
2022-12-26T05:00:00,1003A,116.4174,39.9289,北京市,东四,,48,48,36,21,20,52,5,26,19,45,28,4,2,0.5,0.4
2022-12-26T05:00:00,1004A,116.4072,39.8863,北京市,天坛,,45,45,35,23,21,50,4,5,5,62,43,2,1,0.5,0.4
2022-12-26T05:00:00,1005A,116.462,39.9365,北京市,农展馆,,43,43,37,24,20,48,7,4,4,61,48,4,2,0.5,0.4
2022-12-26T05:00:00,1006A,116.3392,39.9295,北京市,官园,颗粒物(PM10),51,52,41,24,22,52,1,0,0,50,39,4,4,0.4,0.5
2022-12-26T05:00:00,1007A,116.2878,39.9611,北京市,海淀万柳,颗粒物(PM10),57,63,48,31,23,46,0,1,1,66,54,2,2,0.5,0.5
2022-12-26T05:00:00,1008A,116.6636,40.135,北京市,顺义新城,,31,31,31,18,19,71,27,22,22,29,25,1,1,0.3,0.3
2022-12-26T05:00:00,1009A,116.6275,40.3275,北京市,怀柔镇,,25,25,27,15,17,63,36,40,39,11,17,3,2,0.2,0.3
2022-12-26T05:00:00,1010A,116.2296,40.217,北京市,昌平镇,,40,40,46,16,28,56,48,30,30,12,44,1,3,0.4,0.7
2022-12-26T05:00:00,1011A,116.3966,39.9821,北京市,奥体中心,颗粒物(PM10),54,58,38,32,22,51,2,1,1,64,45,4,2,0.5,0.5
2022-12-26T05:00:00,1012A,116.184,39.9136,北京市,古城,颗粒物(PM10),56,61,53,28,27,47,16,6,6,41,47,2,2,0.6,0.7
2022-12-26T05:00:00,1015A,117.1444,39.1661,天津市,勤俭道,细颗粒物(PM2.5),103,121,99,77,63,38,2,2,2,68,63,11,17,1.8,1.5
2022-12-26T05:00:00,1017A,117.237,39.1082,天津市,大直沽八号路,颗粒物(PM10),59,67,97,41,57,33,6,3,3,71,72,10,18,1.2,1.8
2022-12-26T05:00:00,1018A,117.202,39.0927,天津市,前进道,细颗粒物(PM2.5),62,70,83,44,53,38,6,6,6,74,70,13,16,1.2,1.5
2022-12-26T05:00:00,1019A,117.1837,39.2133,天津市,淮河道,细颗粒物(PM2.5),69,81,111,50,69,28,4,5,5,76,76,12,18,1.2,1.8
2022-12-26T05:00:00,1021A,117.307,39.0877,天津市,跃进路,细颗粒物(PM2.5),75,77,108,55,69,29,3,3,3,67,66,14,20,1.2,1.6
2022-12-26T05:00:00,1023A,117.707,39.0343,天津市,第四大街,细颗粒物(PM2.5),92,113,112,68,64,18,2,2,2,76,78,21,13,1.8,1.4
2022-12-26T05:00:00,1024A,117.457,38.8394,天津市,永明路,细颗粒物(PM2.5),107,121,97,80,65,19,6,6,6,77,77,15,14,1.7,1
2022-12-26T05:00:00,1026A,117.764,39.1587,天津市,汉北路,细颗粒物(PM2.5),99,126,120,74,70,22,3,3,2,66,65,16,12,2.2,1.6
2022-12-26T05:00:00,1027A,117.157,38.9194,天津市,团泊洼(对照点),细颗粒物(PM2.5),102,133,103,76,70,40,1,2,2,78,76,13,15,2.4,1.6
2022-12-26T05:00:00,1029A,114.4422,38.0444,石家庄市,职工医院,细颗粒物(PM2.5),113,162,132,85,77,22,4,4,4,75,75,17,18,1.9,1.6
2022-12-26T05:00:00,1030A,114.6063,38.0266,石家庄市,高新区,细颗粒物(PM2.5),139,144,126,106,82,19,9,10,10,75,74,15,15,1.7,1.3
2022-12-26T05:00:00,1031A,114.4898,38.1328,石家庄市,西北水源,,44,0,139,0,81,16,7,10,9,88,80,34,19,1.0,1.4
2022-12-26T05:00:00,1032A,114.4586,38.0058,石家庄市,西南高教,细颗粒物(PM2.5),127,150,127,96,92,18,3,4,4,70,70,16,16,1.6,1.2
2022-12-26T05:00:00,1033A,114.5331,38.0178,石家庄市,世纪公园,细颗粒物(PM2.5),120,118,105,91,73,28,2,2,2,81,76,14,18,1.6,1.3
2022-12-26T05:00:00,1034A,114.509,38.0457,石家庄市,人民会堂,细颗粒物(PM2.5),132,139,124,100,84,28,5,5,5,70,70,14,16,1.8,1.4
2022-12-26T05:00:00,1035A,114.3524,37.8911,石家庄市,封龙山(对照点),颗粒物(PM10),68,86,97,35,55,62,51,42,42,34,52,3,10,0.9,1.6
2022-12-26T05:00:00,1037A,118.131,39.6363,唐山市,雷达站,细颗粒物(PM2.5),100,107,116,75,70,42,4,7,6,70,66,20,22,1.9,2.2
2022-12-26T05:00:00,1038A,118.1725,39.6334,唐山市,物资局,细颗粒物(PM2.5),88,107,108,65,58,84,0,2,1,78,72,22,25,1.8,2
2022-12-26T05:00:00,1040A,118.1705,39.6506,唐山市,十二中,细颗粒物(PM2.5),107,104,112,80,70,27,1,1,1,89,81,17,23,1.9,2.1
2022-12-26T05:00:00,1041A,118.1869,39.622,唐山市,小山,细颗粒物(PM2.5),87,89,99,64,57,29,1,5,2,82,82,24,23,1.8,2.1
2022-12-26T05:00:00,1042A,119.5134,39.8207,秦皇岛市,北戴河环保局,"颗粒物(PM10),细颗粒物(PM2.5)",57,64,46,40,25,52,0,1,0,61,37,8,12,0.3,0.1
2022-12-26T05:00:00,1043A,119.7493,40.0116,秦皇岛市,第一关,颗粒物(PM10),53,56,64,35,38,43,18,9,9,42,55,11,16,0.5,0.8
2022-12-26T05:00:00,1044A,119.5897,39.9499,秦皇岛市,监测站,"颗粒物(PM10),细颗粒物(PM2.5)",58,66,74,41,44,51,9,8,8,41,41,10,15,0.9,0.9
2022-12-26T05:00:00,1046A,119.5251,39.9041,秦皇岛市,建设大厦,颗粒物(PM10),59,68,71,27,32,47,5,5,5,47,46,9,12,1.1,1
2022-12-26T05:00:00,1048A,114.5302,36.6116,邯郸市,东污水处理厂,细颗粒物(PM2.5),117,121,98,88,68,61,7,6,6,76,55,20,18,1.0,0.7
2022-12-26T05:00:00,1049A,114.4918,36.5713,邯郸市,矿院,细颗粒物(PM2.5),134,125,97,102,78,56,1,3,2,60,56,8,12,0.7,0.5
2022-12-26T05:00:00,1050A,114.484,36.6133,邯郸市,丛台公园,细颗粒物(PM2.5),129,106,86,98,74,54,3,4,3,62,43,16,15,1.2,0.9
2022-12-26T05:00:00,1051A,115.493,38.8632,保定市,游泳馆,细颗粒物(PM2.5),113,113,95,85,69,34,6,7,6,98,82,14,11,1.2,1
2022-12-26T05:00:00,1052A,115.5213,38.8959,保定市,华电二区,细颗粒物(PM2.5),132,113,88,100,69,28,7,6,6,72,69,24,14,1.3,1.1
2022-12-26T05:00:00,1053A,115.4713,38.9108,保定市,接待中心,颗粒物(PM10),79,108,103,55,58,30,3,4,3,64,64,11,9,1.0,0.8
2022-12-26T05:00:00,1054A,115.4612,38.8416,保定市,地表水厂,细颗粒物(PM2.5),110,126,149,83,80,28,9,8,8,63,69,13,11,1.1,1.1
2022-12-26T05:00:00,1056A,115.5086,38.8639,保定市,监测站,细颗粒物(PM2.5),118,116,92,89,61,29,7,6,6,72,68,14,11,0.5,0.7
2022-12-26T05:00:00,1057A,114.8883,40.8336,张家口市,人民公园,,34,34,47,5,17,75,52,53,53,10,11,11,8,0.7,0.7
2022-12-26T05:00:00,1059A,114.8687,40.8042,张家口市,五金库,,29,29,36,17,25,67,50,58,54,13,18,11,13,0.6,0.6
2022-12-26T05:00:00,1060A,114.8902,40.762,张家口市,世纪豪园,,35,35,48,13,21,64,50,58,56,15,22,2,5,0.7,0.8
2022-12-26T05:00:00,1061A,114.8916,40.8661,张家口市,北泵房(对照点),,45,41,55,31,32,78,46,55,52,16,15,19,14,0.6,0.7
2022-12-26T05:00:00,1062A,117.9531,40.9081,承德市,铁路,细颗粒物(PM2.5),75,80,75,55,46,33,7,7,7,47,49,10,12,1.5,1.1
2022-12-26T05:00:00,1063A,117.9392,40.9763,承德市,中国银行,细颗粒物(PM2.5),68,62,60,49,42,47,10,10,10,45,42,6,7,1.1,0.9
2022-12-26T05:00:00,1064A,117.9503,40.928,承德市,开发区,细颗粒物(PM2.5),67,71,64,48,42,30,6,6,6,50,49,7,7,1.2,1
2022-12-26T05:00:00,1065A,117.8051,40.9655,承德市,文化中心,颗粒物(PM10),79,108,99,44,52,31,3,4,3,49,46,8,28,1.2,1.3
2022-12-26T05:00:00,1066A,117.9268,41.0026,承德市,离宫(对照点),细颗粒物(PM2.5),62,57,47,44,35,46,1,1,1,46,39,9,10,1.0,0.8
2022-12-26T05:00:00,1067A,116.6708,39.5111,廊坊市,药材公司,颗粒物(PM10),71,92,81,49,44,41,7,8,7,84,68,8,13,1.1,1.3
2022-12-26T05:00:00,1068A,116.7214,39.5589,廊坊市,开发区,细颗粒物(PM2.5),58,63,64,41,40,34,5,6,6,83,74,10,15,1.1,1.3
2022-12-26T05:00:00,1070A,116.7244,39.5269,廊坊市,北华航天学院,颗粒物(PM10),51,52,66,19,36,37,4,4,4,82,71,9,15,0.6,1.1
2022-12-26T05:00:00,1071A,116.8842,38.2991,沧州市,沧县城建局,细颗粒物(PM2.5),139,,68,106,79,39,3,4,3,85,71,18,17,1.4,1.3
2022-12-26T05:00:00,1072A,116.8584,38.3254,沧州市,电视转播站,细颗粒物(PM2.5),148,147,105,113,81,46,12,12,12,84,74,18,16,1.7,1.3
2022-12-26T05:00:00,1073A,116.8709,38.3228,沧州市,市环保局,细颗粒物(PM2.5),143,163,114,109,75,39,5,5,5,87,75,15,15,1.5,1.2
2022-12-26T05:00:00,1074A,115.6838,37.7541,衡水市,电机北厂,细颗粒物(PM2.5),97,120,96,72,53,64,0,1,0,87,62,14,12,1.0,0.8
2022-12-26T05:00:00,1075A,115.6303,37.7316,衡水市,市监测站,细颗粒物(PM2.5),89,107,76,66,45,62,5,4,4,73,50,21,16,1.5,1.2
2022-12-26T05:00:00,1077A,114.4704,37.0886,邢台市,达活泉,细颗粒物(PM2.5),119,96,80,90,74,54,8,8,8,58,49,7,9,1.0,0.8
2022-12-26T05:00:00,1078A,114.5062,37.0349,邢台市,邢师高专,细颗粒物(PM2.5),107,93,76,80,64,55,7,8,7,56,50,13,11,1.0,0.8
2022-12-26T05:00:00,1079A,114.5237,37.0851,邢台市,路桥公司,细颗粒物(PM2.5),100,90,76,75,62,57,4,4,4,36,39,12,10,1.1,0.8
2022-12-26T05:00:00,1080A,114.4725,37.0719,邢台市,市环保局,细颗粒物(PM2.5),125,121,97,95,72,54,7,8,7,60,50,10,12,1.1,1
2022-12-26T05:00:00,1081A,112.522,37.8873,太原市,尖草坪,,38,38,64,16,37,63,43,63,54,28,42,33,22,0.4,0.8
2022-12-26T05:00:00,1083A,112.434,38.0108,太原市,上兰(对照点),,,,,,,,,,,,,,,,
2022-12-26T05:00:00,1084A,112.469,37.7124,太原市,晋源,,44,44,87,19,50,56,8,21,12,68,65,7,26,0.6,1.2
2022-12-26T05:00:00,1085A,112.5583,37.7394,太原市,小店,,33,33,85,12,51,51,46,50,45,30,51,8,24,0.4,1
2022-12-26T05:00:00,1086A,112.5369,37.8692,太原市,桃园,,44,44,73,17,41,55,32,55,48,36,45,21,20,0.4,0.8
2022-12-26T05:00:00,1087A,112.57,37.8195,太原市,坞城,,30,30,77,12,44,63,56,61,60,22,49,12,22,0.4,1
2022-12-26T05:00:00,1088A,112.549,37.9854,太原市,南寨,颗粒物(PM10),72,94,98,36,49,12,4,4,4,53,54,6,21,0.7,1.1
2022-12-26T05:00:00,1089A,112.4783,37.7778,太原市,金胜(停运211219),,,,,,,,,,,,,,,,
2022-12-26T05:00:00,1090A,111.6507,40.7517,呼和浩特市,呼市一监,颗粒物(PM10),58,66,74,38,39,52,6,16,10,49,40,12,16,0.9,0.9
2022-12-26T05:00:00,1091A,111.6572,40.8033,呼和浩特市,小召,颗粒物(PM10),54,58,75,25,30,64,20,22,22,38,39,19,25,0.6,0.9
2022-12-26T05:00:00,1094A,111.7516,40.8369,呼和浩特市,如意水处理厂,,44,44,76,20,32,71,8,14,10,57,44,11,15,1.0,1.1
2022-12-26T05:00:00,1095A,111.7276,40.8062,呼和浩特市,二十九中,,48,48,68,17,29,66,4,24,12,55,39,9,14,0.6,0.7
2022-12-26T05:00:00,1096A,111.5512,40.7866,呼和浩特市,工大金川校区,,30,30,93,15,43,41,26,15,15,27,38,12,20,0.5,0.8
2022-12-26T05:00:00,1097A,111.717,40.7612,呼和浩特市,化肥厂生活区,颗粒物(PM10),63,76,81,36,34,65,8,15,11,44,42,9,16,1.0,0.9
2022-12-26T05:00:00,1098A,123.6836,41.9339,沈阳市,森林路(对照点),,,,,,,,,,,,,,,,
2022-12-26T05:00:00,1099A,123.505,41.7406,沈阳市,浑南东路,细颗粒物(PM2.5),185,174,137,139,114,31,5,6,6,53,55,3,7,2.4,1.8
2022-12-26T05:00:00,1100A,123.4231,41.6989,沈阳市,新秀街,细颗粒物(PM2.5),252,273,135,202,103,36,5,5,5,65,60,6,15,2.8,1.5
2022-12-26T05:00:00,1102A,123.5903,41.8411,沈阳市,东陵路,细颗粒物(PM2.5),102,85,73,76,65,36,7,5,5,41,40,10,11,1.2,1
2022-12-26T05:00:00,1103A,123.4264,41.8467,沈阳市,陵东街,细颗粒物(PM2.5),140,142,117,107,87,48,6,7,6,61,58,8,12,1.8,1.4
2022-12-26T05:00:00,1104A,123.4114,41.7653,沈阳市,文化路,细颗粒物(PM2.5),269,285,129,219,103,40,5,5,5,53,51,21,28,3.5,2.1
2022-12-26T05:00:00,1105A,123.4678,41.7867,沈阳市,小河沿,细颗粒物(PM2.5),160,168,100,122,78,38,7,7,6,56,56,12,15,2.2,1.4
2022-12-26T05:00:00,1106A,123.4017,41.7972,沈阳市,太原街,细颗粒物(PM2.5),196,205,98,147,69,50,4,4,4,56,53,25,26,2.4,1.3
2022-12-26T05:00:00,1108A,123.3783,41.9228,沈阳市,京沈街,细颗粒物(PM2.5),155,110,102,118,91,59,6,6,6,58,52,25,25,1.7,1.5
2022-12-26T05:00:00,1109A,121.612,38.9741,大连市,甘井子,,29,18,21,20,19,69,52,60,54,18,16,9,8,0.8,0.7
2022-12-26T05:00:00,1110A,121.565,38.9511,大连市,周水子,,22,22,28,15,16,67,38,55,50,29,19,10,10,0.8,0.7
2022-12-26T05:00:00,1111A,121.5637,38.8845,大连市,星海三站,,45,42,30,31,19,59,27,53,42,42,27,48,24,0.7,0.6
2022-12-26T05:00:00,1112A,121.6302,38.9117,大连市,青泥洼桥,,22,19,33,15,15,62,49,57,53,24,25,13,11,0.6,0.5
2022-12-26T05:00:00,1113A,121.6251,38.8638,大连市,傅家庄,,21,21,25,13,14,61,41,55,49,28,24,16,12,0.7,0.7
2022-12-26T05:00:00,1114A,121.5213,38.8661,大连市,七贤岭,,18,18,24,11,11,74,57,68,63,16,13,20,14,0.6,0.5
2022-12-26T05:00:00,1115A,121.2529,38.8061,大连市,旅顺,,19,18,23,12,14,70,60,60,60,15,15,9,8,0.7,0.6
2022-12-26T05:00:00,1116A,121.7485,39.1311,大连市,金州,,29,29,36,18,20,63,44,48,45,26,20,16,13,0.7,0.3
2022-12-26T05:00:00,1117A,121.7811,39.0496,大连市,开发区,,27,27,30,18,19,60,45,50,48,30,27,22,16,0.6,0.5
2022-12-26T05:00:00,1118A,121.9762,39.0631,大连市,双D港,,29,29,34,17,20,65,57,53,53,17,19,11,11,0.8,0.8
2022-12-26T05:00:00,1119A,125.3325,43.9166,长春市,食品厂,细颗粒物(PM2.5),145,102,73,111,74,56,13,14,14,59,46,38,14,1.2,1
2022-12-26T05:00:00,1120A,125.2863,43.9027,长春市,客车厂,细颗粒物(PM2.5),153,108,79,117,80,59,5,5,5,61,48,15,22,1.1,0.8
2022-12-26T05:00:00,1121A,125.2841,43.8463,长春市,邮电学院,细颗粒物(PM2.5),160,147,101,122,90,64,5,5,5,74,54,13,20,1.2,0.9
2022-12-26T05:00:00,1122A,125.3716,43.8772,长春市,劳动公园,细颗粒物(PM2.5),147,103,73,112,74,64,12,12,12,64,59,18,28,1.3,0.9
2022-12-26T05:00:00,1123A,125.3297,43.8805,长春市,园林处,细颗粒物(PM2.5),173,123,80,131,78,60,13,13,13,69,54,23,29,1.2,0.9
2022-12-26T05:00:00,1124A,125.4605,43.79,长春市,净月潭,细颗粒物(PM2.5),80,78,87,59,64,52,28,32,30,30,44,4,9,0.9,0.9
2022-12-26T05:00:00,1125A,125.7194,43.515,长春市,甩湾子(对照点),,,,,,,,,,,,,,,,
2022-12-26T05:00:00,1126A,125.3863,43.8447,长春市,经开区环卫处,细颗粒物(PM2.5),143,119,82,109,75,55,10,10,10,53,52,6,26,1.2,0.9
2022-12-26T05:00:00,1127A,125.245,43.7783,长春市,高新区管委会,细颗粒物(PM2.5),168,121,100,127,104,77,8,8,8,48,49,7,9,1.3,0.9
2022-12-26T05:00:00,1128A,125.1761,43.8325,长春市,岱山公园,细颗粒物(PM2.5),140,120,115,107,111,81,12,13,13,63,43,10,8,1.4,1.2
2022-12-26T05:00:00,1129A,126.5422,45.755,哈尔滨市,岭北(对照点),细颗粒物(PM2.5),196,161,76,147,70,75,14,18,18,51,32,39,21,1.9,1
2022-12-26T05:00:00,1130A,126.561,45.8167,哈尔滨市,松北商大,细颗粒物(PM2.5),118,94,54,89,52,60,9,6,6,44,36,1,5,1.4,0.9
2022-12-26T05:00:00,1131A,126.979,45.5419,哈尔滨市,阿城会宁,细颗粒物(PM2.5),113,88,96,85,83,59,26,28,28,34,35,12,18,1.0,1
2022-12-26T05:00:00,1132A,126.599,45.7222,哈尔滨市,南岗学府路,细颗粒物(PM2.5),169,182,73,128,60,60,12,14,13,63,40,34,24,1.3,1
2022-12-26T05:00:00,1133A,126.689,45.7733,哈尔滨市,太平宏伟公园,细颗粒物(PM2.5),211,197,105,161,89,55,15,17,15,71,46,16,42,2.1,1.3
2022-12-26T05:00:00,1134A,126.635,45.7667,哈尔滨市,道外承德广场,细颗粒物(PM2.5),112,110,48,84,45,60,5,22,10,67,36,14,18,1.1,0.6
2022-12-26T05:00:00,1135A,126.685,45.7319,哈尔滨市,香坊红旗大街,细颗粒物(PM2.5),139,118,89,106,92,59,16,21,18,66,45,40,43,1.5,1.4
2022-12-26T05:00:00,1136A,126.6411,45.7258,哈尔滨市,动力和平路,细颗粒物(PM2.5),155,114,60,118,58,60,9,12,11,62,39,22,26,1.5,0.9
2022-12-26T05:00:00,1137A,126.593,45.7478,哈尔滨市,道里建国路,细颗粒物(PM2.5),135,110,47,103,43,57,7,21,10,59,31,27,23,1.0,0.4
2022-12-26T05:00:00,1138A,126.615,45.61,哈尔滨市,平房东轻厂,细颗粒物(PM2.5),188,144,97,141,91,51,13,12,12,51,51,9,19,1.5,1.2
2022-12-26T05:00:00,1139A,126.595,45.9855,哈尔滨市,呼兰师专,细颗粒物(PM2.5),92,71,64,68,65,67,17,28,20,33,26,5,10,1.0,0.8
2022-12-26T05:00:00,1140A,126.6206,45.6842,哈尔滨市,省农科院,颗粒物(PM10),106,161,124,42,102,62,8,10,9,64,53,22,38,1.5,1.4
2022-12-26T05:00:00,1141A,121.4,31.238,上海市,普陀,,48,48,49,32,33,74,5,15,13,73,52,5,6,1.1,1.1
2022-12-26T05:00:00,1142A,121.478,31.2036,上海市,十五厂,,42,34,40,29,31,64,28,41,35,59,40,10,10,0.7,0.7
2022-12-26T05:00:00,1143A,121.467,31.3008,上海市,虹口,颗粒物(PM10),53,56,62,20,37,66,19,6,6,68,54,10,11,0.8,1
2022-12-26T05:00:00,1144A,121.412,31.1654,上海市,徐汇上师大,颗粒物(PM10),51,52,47,34,28,62,4,35,16,94,58,5,5,1.3,1.1
2022-12-26T05:00:00,1145A,121.536,31.2659,上海市,杨浦四漂,,38,36,46,26,29,72,32,25,23,59,46,5,6,0.8,0.7
2022-12-26T05:00:00,1147A,121.425,31.2261,上海市,静安监测站,颗粒物(PM10),51,52,53,33,31,68,6,18,13,82,53,6,7,1.1,1.2
2022-12-26T05:00:00,1148A,121.703,31.1907,上海市,浦东川沙,,40,31,38,28,30,68,5,48,22,72,42,6,7,0.8,0.8
2022-12-26T05:00:00,1149A,121.533,31.2284,上海市,浦东新区监测站,,36,36,46,23,29,66,35,29,29,45,41,6,6,1.0,0.9
2022-12-26T05:00:00,1150A,121.577,31.2071,上海市,浦东张江,,37,37,41,20,24,65,2,22,9,66,41,4,5,1.0,0.9
2022-12-26T05:00:00,1151A,118.8086,32.1065,南京市,迈皋桥,颗粒物(PM10),59,67,66,29,32,78,2,3,3,77,61,4,4,0.8,0.7
2022-12-26T05:00:00,1152A,118.7538,32.0551,南京市,草场门,,42,41,48,29,26,74,29,24,24,52,48,5,5,0.5,0.4
2022-12-26T05:00:00,1153A,118.7794,32.0745,南京市,山西路,,49,48,57,34,34,79,40,35,35,36,41,5,4,0.4,0.4
2022-12-26T05:00:00,1154A,118.7752,32.0023,南京市,中华门,二氧化氮,77,46,53,31,30,74,2,12,6,153,74,8,9,0.4,0.4
2022-12-26T05:00:00,1155A,118.8109,32.0309,南京市,瑞金路,颗粒物(PM10),54,57,61,24,31,74,11,12,12,68,57,10,10,0.5,0.5
2022-12-26T05:00:00,1156A,118.7997,32.0754,南京市,玄武湖,颗粒物(PM10),55,59,56,33,33,75,11,15,14,66,53,5,5,0.4,0.4
2022-12-26T05:00:00,1157A,118.6414,32.0931,南京市,浦口,颗粒物(PM10),54,57,55,31,33,85,33,60,38,50,35,12,12,0.5,0.6
2022-12-26T05:00:00,1158A,118.7356,31.9996,南京市,奥体中心,细颗粒物(PM2.5),55,55,64,39,41,68,14,12,12,76,59,5,6,0.5,0.5
2022-12-26T05:00:00,1159A,118.9125,32.1028,南京市,仙林大学城,细颗粒物(PM2.5),52,51,52,36,32,84,9,28,8,66,45,5,6,0.7,0.6
2022-12-26T05:00:00,1160A,120.561,31.2472,苏州市,上方山(对照点),细颗粒物(PM2.5),82,69,65,60,49,67,15,10,10,41,42,8,10,0.8,0.7
2022-12-26T05:00:00,1162A,120.591,31.3019,苏州市,彩香,细颗粒物(PM2.5),95,94,72,71,52,70,0,1,0,68,48,5,7,1.2,1.1
2022-12-26T05:00:00,1163A,120.596,31.3264,苏州市,轧钢厂,细颗粒物(PM2.5),90,102,81,67,49,74,2,4,3,60,50,6,8,1.0,0.9
2022-12-26T05:00:00,1164A,120.613,31.2703,苏州市,吴中区,细颗粒物(PM2.5),90,87,71,67,49,76,4,4,4,65,50,7,9,0.8,0.7
2022-12-26T05:00:00,1165A,120.543,31.2994,苏州市,苏州新区,细颗粒物(PM2.5),85,76,66,63,50,73,2,6,4,61,46,6,9,0.9,0.9
2022-12-26T05:00:00,1166A,120.669,31.3097,苏州市,苏州工业园区,细颗粒物(PM2.5),97,96,68,72,47,75,2,4,3,76,49,8,8,1.2,1
2022-12-26T05:00:00,1167A,120.641,31.3708,苏州市,相城区,细颗粒物(PM2.5),97,100,74,72,49,77,1,2,1,64,50,8,9,1.1,0.9
2022-12-26T05:00:00,1168A,120.9098,31.9663,南通市,狼山街道,,39,35,46,27,33,73,22,37,30,16,16,6,7,0.6,0.6
2022-12-26T05:00:00,1169A,120.86,32.0005,南通市,虹桥,细颗粒物(PM2.5),83,52,54,61,51,73,39,44,36,32,27,5,5,0.3,0.5
2022-12-26T05:00:00,1170A,120.87,32.02,南通市,城中,细颗粒物(PM2.5),65,53,56,47,40,78,26,40,26,42,26,5,6,0.4,0.4
2022-12-26T05:00:00,1171A,120.94,31.93,南通市,星湖花园,,39,38,45,27,29,76,32,37,34,17,20,5,6,0.5,0.5
2022-12-26T05:00:00,1172A,120.81,32.0417,南通市,紫琅学院,细颗粒物(PM2.5),79,82,66,58,39,78,6,31,15,56,31,4,5,0.6,0.5
2022-12-26T05:00:00,1173A,119.176,34.5885,连云港市,市环境监测站,细颗粒物(PM2.5),119,107,72,90,60,66,15,14,14,59,50,66,21,1.0,1.3
2022-12-26T05:00:00,1177A,117.179,34.2761,徐州市,黄河新村,细颗粒物(PM2.5),67,70,101,48,64,73,53,22,22,19,55,13,19,0.8,1.1
2022-12-26T05:00:00,1178A,117.1918,34.2384,徐州市,淮塔,细颗粒物(PM2.5),67,74,100,48,64,81,60,24,24,18,55,10,15,0.9,1.2
2022-12-26T05:00:00,1180A,117.256,34.2153,徐州市,新城区,细颗粒物(PM2.5),79,83,100,58,63,77,49,17,17,21,54,12,17,0.8,1
2022-12-26T05:00:00,1181A,117.244,34.2911,徐州市,桃园路,细颗粒物(PM2.5),62,66,108,44,64,71,53,24,24,21,55,10,15,0.9,1.1
2022-12-26T05:00:00,1182A,117.2933,34.2778,徐州市,农科院,细颗粒物(PM2.5),73,80,106,53,61,73,47,15,15,17,50,14,18,1.1,1.2
2022-12-26T05:00:00,1186A,119.389,32.3761,扬州市,邗江监测站,细颗粒物(PM2.5),80,68,57,59,47,90,44,62,41,34,34,10,4,0.8,0.7
2022-12-26T05:00:00,1188A,120.269,31.4867,无锡市,雪浪,,,,67,51,43,64,11,24,20,31,30,6,8,0.9,0.9
2022-12-26T05:00:00,1189A,120.275,31.6219,无锡市,黄巷,,,131,91,83,49,75,6,8,7,81,60,12,11,0.9,0.5
2022-12-26T05:00:00,1190A,120.294,31.56,无锡市,曹张,细颗粒物(PM2.5),79,103,86,58,44,72,2,2,2,65,52,17,17,1.9,1.7
2022-12-26T05:00:00,1191A,120.242,31.5031,无锡市,漆塘,细颗粒物(PM2.5),64,61,57,46,40,75,10,30,22,50,36,7,8,1.0,1
2022-12-26T05:00:00,1192A,120.3489,31.5863,无锡市,东亭,细颗粒物(PM2.5),85,75,68,63,44,72,2,2,2,64,53,10,11,1.5,1.1
2022-12-26T05:00:00,1193A,120.354,31.5475,无锡市,旺庄,细颗粒物(PM2.5),70,68,72,51,47,70,3,1,1,59,50,5,6,1.1,0.9
2022-12-26T05:00:00,1194A,120.245,31.5631,无锡市,荣巷,细颗粒物(PM2.5),73,63,57,53,44,70,7,28,19,53,38,9,11,0.9,0.8
2022-12-26T05:00:00,1195A,120.299,31.6817,无锡市,堰桥,细颗粒物(PM2.5),85,83,72,63,46,77,4,5,4,59,42,11,10,1.1,1
2022-12-26T05:00:00,1196A,119.9633,31.762,常州市,市监测站,细颗粒物(PM2.5),83,93,73,61,46,84,23,14,14,42,49,8,9,0.7,0.7
2022-12-26T05:00:00,1200A,119.9468,31.7069,常州市,武进监测站,细颗粒物(PM2.5),69,78,67,50,40,85,7,5,5,63,48,8,7,0.8,0.7
2022-12-26T05:00:00,1201A,119.9255,31.9087,常州市,安家,细颗粒物(PM2.5),73,80,71,53,45,90,6,8,7,43,42,8,9,0.7,0.7
2022-12-26T05:00:00,1203A,119.6707,32.1875,镇江市,新区办事处,细颗粒物(PM2.5),89,90,72,66,49,84,30,19,19,43,50,6,6,0.9,0.8
2022-12-26T05:00:00,1204A,119.4974,32.1968,镇江市,职教中心,,,,66,,42,25,,20,,,44,,6,,0.6
2022-12-26T05:00:00,1205A,119.4303,32.1328,镇江市,丹徒区监测站,细颗粒物(PM2.5),65,65,61,47,41,88,11,28,14,82,48,5,6,0.7,0.6
2022-12-26T05:00:00,1206A,119.905,32.4878,泰州市,公园路,细颗粒物(PM2.5),79,70,54,58,45,82,12,30,17,37,30,5,4,0.9,0.8
2022-12-26T05:00:00,1207A,119.9189,32.4625,泰州市,莲花,细颗粒物(PM2.5),85,78,57,63,46,87,27,44,32,40,34,13,10,0.7,0.6
2022-12-26T05:00:00,1209A,119.888,32.4639,泰州市,留学生创业园,细颗粒物(PM2.5),82,85,70,60,47,83,7,32,12,48,34,14,19,0.9,0.9
2022-12-26T05:00:00,1210A,119.036,33.5981,淮安市,钵池山,细颗粒物(PM2.5),109,102,75,82,58,82,5,4,4,74,47,11,12,0.8,0.7
2022-12-26T05:00:00,1211A,119.007,33.575,淮安市,北京南路,细颗粒物(PM2.5),102,107,94,76,56,82,0,0,0,71,55,11,12,1.0,1
2022-12-26T05:00:00,1212A,118.989,33.6067,淮安市,市监测站,细颗粒物(PM2.5),107,102,85,80,62,85,3,34,14,70,49,7,10,1.1,1
2022-12-26T05:00:00,1213A,119.135,33.5039,淮安市,楚州区监测站,细颗粒物(PM2.5),114,110,90,86,69,74,0,14,8,71,50,11,10,0.8,0.7
2022-12-26T05:00:00,1214A,119.0186,33.6297,淮安市,淮阴区监测站,细颗粒物(PM2.5),119,112,97,90,74,81,2,4,3,74,52,11,12,0.8,0.7
2022-12-26T05:00:00,1215A,120.118,33.4022,盐城市,盐城电厂,细颗粒物(PM2.5),67,75,60,48,38,88,26,18,18,34,31,8,8,0.8,0.6
2022-12-26T05:00:00,1216A,120.156,33.3942,盐城市,市监测站,颗粒物(PM10),58,66,54,38,35,91,36,33,33,22,22,10,9,0.6,0.5
2022-12-26T05:00:00,1218A,120.2144,33.38,盐城市,开发区管委会,细颗粒物(PM2.5),67,67,56,48,33,81,15,32,19,49,28,10,10,0.6,0.5
2022-12-26T05:00:00,1220A,118.293,33.9528,宿迁市,宿迁学院,细颗粒物(PM2.5),95,88,74,71,53,76,41,43,42,34,39,9,10,0.5,0.6
2022-12-26T05:00:00,1221A,118.2442,33.9592,宿迁市,宿迁中学,细颗粒物(PM2.5),99,97,76,74,52,75,30,37,36,34,35,7,8,0.7,0.7
2022-12-26T05:00:00,1223A,120.2072,30.2111,杭州市,滨江,细颗粒物(PM2.5),75,75,73,55,45,75,2,16,7,64,43,7,9,0.7,0.7
2022-12-26T05:00:00,1224A,120.0633,30.2747,杭州市,西溪,细颗粒物(PM2.5),72,74,64,52,40,76,4,4,4,46,39,5,6,0.7,0.7
2022-12-26T05:00:00,1226A,120.3461,30.3153,杭州市,下沙,细颗粒物(PM2.5),85,99,88,63,54,80,3,4,4,73,59,7,9,0.8,0.7
2022-12-26T05:00:00,1227A,120.1269,30.2456,杭州市,卧龙桥,细颗粒物(PM2.5),75,70,51,55,36,77,8,10,9,36,31,7,9,0.7,0.7
2022-12-26T05:00:00,1228A,120.1903,30.2692,杭州市,浙江农大,细颗粒物(PM2.5),68,80,64,49,39,82,6,6,6,62,46,8,10,1.0,0.9
2022-12-26T05:00:00,1230A,120.1197,30.3119,杭州市,和睦小学,细颗粒物(PM2.5),79,80,69,58,48,68,2,9,7,61,54,6,8,1.0,0.9
2022-12-26T05:00:00,1231A,120.3019,30.4183,杭州市,临平镇,细颗粒物(PM2.5),70,81,71,51,46,83,13,10,10,57,39,9,11,0.6,0.6
2022-12-26T05:00:00,1232A,120.2697,30.1819,杭州市,城厢镇,细颗粒物(PM2.5),77,75,69,56,46,72,3,3,3,62,48,5,7,0.7,0.7
2022-12-26T05:00:00,1233A,120.0883,30.1808,杭州市,云栖,细颗粒物(PM2.5),85,84,55,63,38,75,12,19,17,36,29,6,8,0.7,0.6
2022-12-26T05:00:00,1234A,121.8358,29.911,宁波市,区环保大楼,细颗粒物(PM2.5),85,76,57,63,43,72,22,21,21,39,35,9,12,0.7,0.7
2022-12-26T05:00:00,1235A,121.56,29.82,宁波市,万里学院,细颗粒物(PM2.5),74,78,68,54,47,81,4,26,20,52,39,9,12,0.8,0.8
2022-12-26T05:00:00,1236A,121.713,29.9572,宁波市,龙赛医院,细颗粒物(PM2.5),70,79,64,51,37,82,15,8,8,49,42,7,8,0.8,0.8
2022-12-26T05:00:00,1239A,121.633,29.7733,宁波市,钱湖水厂,细颗粒物(PM2.5),72,59,63,52,47,81,25,35,26,32,32,8,9,0.9,0.9
2022-12-26T05:00:00,1240A,121.5856,29.8635,宁波市,太古小学,细颗粒物(PM2.5),70,75,71,51,48,80,14,14,14,45,40,6,8,0.6,0.6
2022-12-26T05:00:00,1241A,121.524,29.8674,宁波市,市环境监测中心,细颗粒物(PM2.5),69,73,73,50,45,74,13,15,14,38,36,4,8,0.6,0.7
2022-12-26T05:00:00,1242A,120.634,28.0089,温州市,瓯海,细颗粒物(PM2.5),78,93,69,57,41,79,3,5,3,59,44,8,9,0.5,0.5
2022-12-26T05:00:00,1243A,120.6748,27.9939,温州市,南浦,细颗粒物(PM2.5),72,75,64,52,42,80,6,6,6,52,43,6,7,0.4,0.4
2022-12-26T05:00:00,1244A,120.76,27.9747,温州市,龙湾,颗粒物(PM10),63,75,70,43,37,78,4,11,6,53,47,6,8,0.5,0.5
2022-12-26T05:00:00,1245A,120.6709,28.0167,温州市,市站,细颗粒物(PM2.5),58,63,63,41,35,79,18,20,19,40,37,10,12,0.4,0.4
2022-12-26T05:00:00,1247A,120.6053,29.9928,绍兴市,城东开发委,细颗粒物(PM2.5),73,71,70,53,45,62,9,16,9,40,42,4,6,0.8,0.8
2022-12-26T05:00:00,1250A,120.0751,30.8669,湖州市,城西水厂,细颗粒物(PM2.5),67,47,58,48,47,89,4,8,5,52,56,8,11,0.8,0.9
2022-12-26T05:00:00,1252A,120.7436,30.778,嘉兴市,清河小学,细颗粒物(PM2.5),92,96,77,68,50,71,5,9,8,59,45,6,8,1.4,1.2
2022-12-26T05:00:00,1253A,120.726,30.7478,嘉兴市,嘉兴学院,细颗粒物(PM2.5),88,90,70,65,51,75,7,17,14,60,46,7,10,0.9,0.8
2022-12-26T05:00:00,1255A,121.273,28.6459,台州市,黄岩环保大楼,"颗粒物(PM10),细颗粒物(PM2.5)",54,58,50,38,34,93,43,44,40,16,23,8,10,0.6,0.6
2022-12-26T05:00:00,1256A,121.419,28.6542,台州市,台州环保大楼,细颗粒物(PM2.5),80,72,56,59,39,90,34,58,39,33,23,10,11,0.5,0.4
2022-12-26T05:00:00,1257A,121.377,28.5773,台州市,路桥田洋王,细颗粒物(PM2.5),59,66,66,42,41,93,31,52,28,30,26,9,10,0.6,0.6
2022-12-26T05:00:00,1258A,122.122,30.0203,舟山市,定海檀枫,,30,30,33,19,19,83,60,74,69,10,15,4,4,0.3,0.3
2022-12-26T05:00:00,1259A,122.3094,29.9558,舟山市,普陀东港,,25,25,30,16,18,81,78,77,77,10,13,5,5,0.4,0.4
2022-12-26T05:00:00,1260A,122.19,29.9944,舟山市,临城新区,,32,32,33,19,18,86,72,80,76,10,12,4,4,0.3,0.4
2022-12-26T05:00:00,1262A,119.647,29.077,金华市,十五中,细颗粒物(PM2.5),77,58,60,56,45,87,6,13,10,63,46,6,6,0.5,0.4
2022-12-26T05:00:00,1263A,119.686,29.1029,金华市,监测站,细颗粒物(PM2.5),74,60,66,54,51,78,3,6,4,53,43,8,8,0.7,0.6
2022-12-26T05:00:00,1264A,118.8692,28.9398,衢州市,环保大楼,细颗粒物(PM2.5),83,77,64,61,52,77,14,15,11,51,45,18,11,0.6,0.6
2022-12-26T05:00:00,1265A,118.8709,28.9666,衢州市,实验学校,细颗粒物(PM2.5),88,84,71,65,50,81,18,20,18,44,40,31,13,0.6,0.5
2022-12-26T05:00:00,1266A,118.8621,28.9808,衢州市,衢州学院,细颗粒物(PM2.5),88,85,70,65,52,78,5,22,17,57,43,19,12,0.8,0.7
2022-12-26T05:00:00,1267A,119.914,28.4514,丽水市,监测站大楼,,43,36,44,30,33,83,7,24,15,39,26,8,9,0.4,0.4
2022-12-26T05:00:00,1268A,119.93,28.4586,丽水市,莲都小学,,40,40,50,24,31,94,33,48,41,26,25,8,10,0.5,0.5
2022-12-26T05:00:00,1269A,119.879,28.4231,丽水市,余庄前,细颗粒物(PM2.5),52,46,52,36,37,90,6,16,12,26,21,7,8,0.5,0.4
2022-12-26T05:00:00,1270A,117.1959,31.7848,合肥市,明珠广场,颗粒物(PM10),86,122,92,61,50,72,2,2,2,69,60,10,10,0.7,0.6
2022-12-26T05:00:00,1271A,117.3072,31.8764,合肥市,三里街,细颗粒物(PM2.5),75,73,82,55,59,68,2,6,5,84,67,13,16,0.7,0.7
2022-12-26T05:00:00,1272A,117.2588,31.8707,合肥市,琥珀山庄,细颗粒物(PM2.5),89,102,82,66,47,59,2,3,2,72,57,10,11,0.8,0.7
2022-12-26T05:00:00,1273A,117.1604,31.9052,合肥市,董铺水库(对照点),细颗粒物(PM2.5),83,106,83,61,49,64,4,5,4,74,56,4,4,0.6,0.6
2022-12-26T05:00:00,1274A,117.25,31.8571,合肥市,长江中路,细颗粒物(PM2.5),85,92,81,63,56,66,1,2,2,72,56,9,11,0.9,0.9
2022-12-26T05:00:00,1275A,117.266,31.9436,合肥市,庐阳区,细颗粒物(PM2.5),77,85,88,56,54,67,12,25,17,58,58,8,11,0.7,0.7
2022-12-26T05:00:00,1276A,117.336,31.8586,合肥市,瑶海区,细颗粒物(PM2.5),78,88,96,57,61,73,8,6,5,74,61,11,11,0.8,0.7
2022-12-26T05:00:00,1277A,117.3027,31.7964,合肥市,包河区,细颗粒物(PM2.5),92,117,95,68,60,83,6,6,6,79,64,12,12,0.8,0.8
2022-12-26T05:00:00,1278A,117.2776,31.7385,合肥市,滨湖新区,"颗粒物(PM10),细颗粒物(PM2.5)",92,134,91,68,57,84,2,20,8,81,64,9,11,0.8,0.7
2022-12-26T05:00:00,1279A,117.1318,31.8403,合肥市,高新区,细颗粒物(PM2.5),89,88,83,66,53,68,6,6,6,68,60,9,10,0.9,0.8
2022-12-26T05:00:00,1280A,119.3903,26.0543,福州市,鼓山(对照点),,,,,,,,,,,,,,,,
2022-12-26T05:00:00,1282A,119.2681,26.0504,福州市,师大,,29,26,38,20,23,108,54,58,56,17,20,4,7,0.4,0.4
2022-12-26T05:00:00,1283A,119.2984,26.1028,福州市,五四北路,,33,33,34,21,23,106,56,70,60,15,18,3,5,0.4,0.4
2022-12-26T05:00:00,1284A,119.2648,26.0768,福州市,杨桥西路,,28,28,37,17,19,109,57,59,51,13,17,3,5,0.6,0.7
2022-12-26T05:00:00,1285A,119.317,26.0746,福州市,紫阳,,29,26,37,20,23,110,68,90,73,13,17,4,5,0.4,0.4
2022-12-26T05:00:00,1286A,118.1608,24.8169,厦门市,溪东(对照点),,,,,,,,,,,,,,,,
2022-12-26T05:00:00,1287A,118.1514,24.4767,厦门市,洪文,,32,32,45,13,22,128,80,84,83,16,23,2,4,0.6,0.6
2022-12-26T05:00:00,1288A,118.0661,24.4444,厦门市,鼓浪屿,,36,36,42,16,20,126,71,86,82,32,26,5,5,0.5,0.4
2022-12-26T05:00:00,1290A,115.8931,28.6843,南昌市,省外办,细颗粒物(PM2.5),73,92,81,53,49,90,44,39,39,26,36,13,14,0.7,0.6
2022-12-26T05:00:00,1291A,115.8886,28.7003,南昌市,省林业公司,细颗粒物(PM2.5),77,90,80,56,49,86,43,38,38,32,41,15,13,0.9,0.7
2022-12-26T05:00:00,1292A,115.8126,28.7442,南昌市,林科所,细颗粒物(PM2.5),70,70,63,51,40,90,53,60,57,20,27,11,11,0.6,0.5
2022-12-26T05:00:00,1294A,115.8518,28.687,南昌市,建工学校,颗粒物(PM10),65,79,67,44,41,90,50,50,49,24,28,11,11,0.9,0.8
2022-12-26T05:00:00,1295A,115.8921,28.6424,南昌市,象湖,细颗粒物(PM2.5),88,79,66,65,51,93,43,41,41,23,29,13,12,1.0,0.8
2022-12-26T05:00:00,1296A,115.7423,28.7996,南昌市,武术学校(对照点),,50,45,34,35,31,78,44,35,35,17,19,6,4,0.9,0.7
2022-12-26T05:00:00,1298A,115.9314,28.6842,南昌市,省站,细颗粒物(PM2.5),93,123,94,69,54,103,43,41,41,25,29,18,15,0.7,0.6
2022-12-26T05:00:00,1299A,116.9862,36.6114,济南市,科干所,细颗粒物(PM2.5),59,56,49,42,30,66,30,36,28,38,37,15,18,0.5,0.5
2022-12-26T05:00:00,1300A,116.9376,36.665,济南市,农科所,,,122,82,49,32,63,4,4,4,84,61,33,27,1.1,0.9
2022-12-26T05:00:00,1301A,117.1265,36.6734,济南市,开发区,颗粒物(PM10),68,85,64,46,33,68,6,5,5,65,51,14,15,0.7,0.7
2022-12-26T05:00:00,1303A,117.0624,36.6868,济南市,省种子仓库,颗粒物(PM10),60,70,64,36,30,72,13,12,12,72,56,13,13,0.9,0.8
2022-12-26T05:00:00,1304A,116.9489,36.6447,济南市,机床二厂,颗粒物(PM10),118,186,90,66,42,67,8,8,8,76,53,54,30,1.7,1
2022-12-26T05:00:00,1305A,117.0495,36.663,济南市,市监测站,颗粒物(PM10),52,54,52,34,26,69,50,33,33,33,48,13,12,0.5,0.6
2022-12-26T05:00:00,1306A,116.7675,36.5484,济南市,长清党校,细颗粒物(PM2.5),62,68,62,44,32,68,9,10,9,70,61,20,15,0.9,0.9
2022-12-26T05:00:00,1307A,120.6659,36.2403,青岛市,仰口(对照点),,32,29,38,22,29,83,77,78,78,11,16,7,6,0.7,0.8
2022-12-26T05:00:00,1310A,120.4134,36.0658,青岛市,市南区东部子站,,39,39,73,19,42,65,41,52,45,39,44,14,17,0.5,0.8
2022-12-26T05:00:00,1311A,120.3664,36.1032,青岛市,四方区子站,颗粒物(PM10),52,53,74,29,47,63,22,19,19,46,45,14,17,0.6,0.8
2022-12-26T05:00:00,1312A,120.2994,36.054,青岛市,市南区西部子站,,34,34,68,17,41,75,59,60,60,21,38,12,19,0.8,1.1
2022-12-26T05:00:00,1313A,120.4581,36.0858,青岛市,崂山区子站,,36,36,66,17,37,72,57,62,59,30,40,12,15,0.5,0.7
2022-12-26T05:00:00,1314A,120.1983,35.9608,青岛市,黄岛区子站,,44,44,75,29,48,67,36,33,33,40,48,11,16,0.6,0.9
2022-12-26T05:00:00,1315A,120.3999,36.3083,青岛市,城阳区子站,细颗粒物(PM2.5),80,95,71,59,39,77,9,41,16,60,45,13,15,1.0,1
2022-12-26T05:00:00,1316A,113.69031,34.76122,郑州市,烟厂,细颗粒物(PM2.5),159,90,92,121,90,46,1,8,3,38,44,5,9,0.8,0.8
2022-12-26T05:00:00,1317A,113.65724,34.77134,郑州市,郑纺机,细颗粒物(PM2.5),140,98,92,107,85,50,4,12,6,46,52,9,14,1.2,1.1
2022-12-26T05:00:00,1318A,113.67526,34.80246,郑州市,银行学校,细颗粒物(PM2.5),156,99,93,119,93,54,6,9,7,40,49,5,12,0.7,0.7
2022-12-26T05:00:00,1319A,113.56746,34.81334,郑州市,供水公司,细颗粒物(PM2.5),133,105,104,101,87,59,2,7,4,45,48,5,13,1.0,0.9
2022-12-26T05:00:00,1320A,113.7329,34.7178,郑州市,经开区管委,细颗粒物(PM2.5),176,96,87,133,86,51,4,10,6,39,45,5,8,1.0,0.8
2022-12-26T05:00:00,1321A,113.73961,34.77172,郑州市,四十七中,细颗粒物(PM2.5),165,104,90,125,88,48,1,8,5,35,41,4,8,1.0,0.8
2022-12-26T05:00:00,1322A,113.60532,34.74838,郑州市,市监测站,细颗粒物(PM2.5),120,99,107,91,90,56,4,13,7,39,49,5,10,1.1,1
2022-12-26T05:00:00,1323A,113.64164,34.7525,郑州市,河医大,细颗粒物(PM2.5),149,93,92,114,89,55,2,11,5,40,43,2,8,0.7,0.6
2022-12-26T05:00:00,1324A,113.51488,34.91089,郑州市,岗李水库(对照点),,,,,,,,,,,,,,,,
2022-12-26T05:00:00,1325A,114.3677,30.5584,武汉市,东湖梨园,细颗粒物(PM2.5),98,84,77,73,61,106,49,53,51,29,35,11,13,0.6,0.7
2022-12-26T05:00:00,1326A,114.2529,30.558,武汉市,汉阳月湖,细颗粒物(PM2.5),92,87,84,68,61,85,41,46,45,30,39,8,11,0.7,0.9
2022-12-26T05:00:00,1327A,114.282,30.6189,武汉市,汉口花桥,细颗粒物(PM2.5),77,72,77,56,59,91,46,49,48,20,31,10,12,0.7,0.8
2022-12-26T05:00:00,1328A,114.3025,30.5332,武汉市,武昌紫阳,细颗粒物(PM2.5),78,81,74,57,59,99,51,55,51,28,40,10,12,0.5,0.7
2022-12-26T05:00:00,1329A,114.3646,30.6217,武汉市,青山钢花,细颗粒物(PM2.5),92,78,87,68,66,112,42,52,46,33,44,12,15,0.6,0.8
2022-12-26T05:00:00,1330A,114.1566,30.4825,武汉市,沌口新区,,,,,,,,,,,,,,,,
2022-12-26T05:00:00,1331A,114.3014,30.5944,武汉市,汉口江滩,细颗粒物(PM2.5),85,83,78,63,64,101,47,53,51,28,36,10,13,0.7,0.8
2022-12-26T05:00:00,1333A,114.135,30.6319,武汉市,吴家山,细颗粒物(PM2.5),77,65,78,56,62,91,54,50,50,24,41,8,12,0.6,0.7
2022-12-26T05:00:00,1334A,113.8454,30.2917,武汉市,沉湖七壕(对照点),细颗粒物(PM2.5),59,62,73,42,48,88,58,55,55,16,30,10,13,0.7,0.9
2022-12-26T05:00:00,1335A,113.0833,28.2325,长沙市,经开区环保局,细颗粒物(PM2.5),105,118,100,79,72,66,34,37,33,20,32,8,8,0.7,0.7
2022-12-26T05:00:00,1336A,112.8872,28.2189,长沙市,高开区环保局,细颗粒物(PM2.5),87,86,106,64,79,70,42,38,38,17,34,12,10,0.6,0.7
2022-12-26T05:00:00,1337A,113.0792,28.2053,长沙市,马坡岭,细颗粒物(PM2.5),108,127,100,81,70,68,33,37,32,22,33,9,9,0.6,0.7
2022-12-26T05:00:00,1338A,112.9394,28.19,长沙市,湖南师范大学,细颗粒物(PM2.5),103,120,110,77,76,44,35,35,33,18,34,8,7,0.4,0.6
2022-12-26T05:00:00,1339A,113.0178,28.1322,长沙市,雨花区环保局,细颗粒物(PM2.5),112,117,95,84,70,64,32,36,32,20,32,5,5,0.5,0.6
2022-12-26T05:00:00,1340A,112.9792,28.2597,长沙市,伍家岭,细颗粒物(PM2.5),92,121,126,68,80,66,40,42,40,24,38,8,8,0.5,0.7
2022-12-26T05:00:00,1341A,113.0014,28.1944,长沙市,火车新站,细颗粒物(PM2.5),107,127,98,80,66,62,36,37,35,22,34,8,8,0.6,0.7
2022-12-26T05:00:00,1342A,112.9844,28.1178,长沙市,天心区环保局,细颗粒物(PM2.5),107,114,95,80,57,74,36,38,36,26,34,12,11,0.5,0.6
2022-12-26T05:00:00,1343A,112.8908,28.1308,长沙市,湖南中医药大学,细颗粒物(PM2.5),89,108,119,66,86,77,38,35,35,18,34,10,7,0.8,1
2022-12-26T05:00:00,1344A,112.9581,28.3611,长沙市,沙坪(对照点),细颗粒物(PM2.5),88,104,98,65,66,75,33,31,31,16,18,6,6,0.5,0.6
2022-12-26T05:00:00,1345A,113.2347,23.1423,广州市,广雅中学,颗粒物(PM10),69,87,63,47,31,82,4,7,6,84,58,5,6,1.0,0.9
2022-12-26T05:00:00,1346A,113.2612,23.105,广州市,市五中,细颗粒物(PM2.5),78,90,57,57,34,98,6,8,8,91,47,8,7,0.8,0.7
2022-12-26T05:00:00,1348A,113.3478,23.0916,广州市,广东商学院,颗粒物(PM10),67,84,57,42,29,101,4,4,4,91,52,6,7,0.8,0.6
2022-12-26T05:00:00,1349A,113.4332,23.1047,广州市,市八十六中,颗粒物(PM10),76,101,71,49,32,90,3,20,8,79,63,6,7,1.0,0.8
2022-12-26T05:00:00,1350A,113.3505,22.9483,广州市,番禺中学,颗粒物(PM10),68,85,69,48,37,98,5,6,6,87,58,9,12,0.7,0.6
2022-12-26T05:00:00,1351A,113.2146,23.3916,广州市,花都师范,颗粒物(PM10),57,64,56,36,29,118,7,6,6,67,43,6,7,0.6,0.6
2022-12-26T05:00:00,1352A,113.2597,23.1331,广州市,市监测站,颗粒物(PM10),66,81,58,46,30,95,4,6,5,83,50,6,7,0.8,0.7
2022-12-26T05:00:00,1353A,113.5618,23.312,广州市,九龙镇镇龙,颗粒物(PM10),55,60,58,35,27,94,0,0,0,37,36,5,5,0.6,0.5
2022-12-26T05:00:00,1354A,113.2765,23.1544,广州市,麓湖,颗粒物(PM10),71,92,52,46,26,95,4,4,4,83,49,4,5,0.7,0.5
2022-12-26T05:00:00,1355A,113.443,23.3035,广州市,帽峰山森林公园(对照点),颗粒物(PM10),52,54,34,24,15,106,30,43,40,41,18,5,5,0.4,0.4
2022-12-26T05:00:00,1356A,114.1063,22.5545,深圳市,通心岭子站,,39,39,35,20,18,110,47,62,50,26,19,2,3,0.6,0.6
2022-12-26T05:00:00,1357A,114.117,22.5625,深圳市,洪湖,,47,47,43,19,19,119,18,43,33,60,31,7,8,0.6,0.5
2022-12-26T05:00:00,1358A,113.987,22.5417,深圳市,华侨城,,37,37,37,21,22,108,56,70,63,26,27,4,5,0.4,0.4
2022-12-26T05:00:00,1359A,113.9181,22.5171,深圳市,南海子站,,42,42,42,22,22,104,70,91,78,23,28,5,6,0.6,0.6
2022-12-26T05:00:00,1360A,114.2458,22.5689,深圳市,盐田,,34,34,30,21,18,116,53,88,80,47,23,7,7,0.6,0.6
2022-12-26T05:00:00,1361A,114.2283,22.7244,深圳市,龙岗,颗粒物(PM10),54,58,42,28,19,108,62,84,63,27,21,7,6,0.6,0.5
2022-12-26T05:00:00,1363A,114.494,22.5422,深圳市,南澳,,36,36,34,16,16,117,101,102,101,12,13,3,3,0.5,0.4
2022-12-26T05:00:00,1364A,114.41,22.6342,深圳市,葵涌,,28,28,29,17,17,116,69,74,68,8,16,7,8,0.5,0.5
2022-12-26T05:00:00,1365A,114.297,22.5978,深圳市,梅沙,,36,36,35,18,16,132,101,106,104,10,11,7,7,0.6,0.6
2022-12-26T05:00:00,1366A,114.0678,22.738,深圳市,观澜,颗粒物(PM10),58,66,64,29,26,108,40,33,33,34,45,6,7,0.4,0.4
2022-12-26T05:00:00,1367A,113.5814,22.2618,珠海市,吉大,,38,38,38,15,18,120,89,79,76,19,22,7,8,0.5,0.4
2022-12-26T05:00:00,1368A,113.4881,22.2335,珠海市,前山,,35,35,49,22,24,111,72,27,27,23,42,3,4,0.4,0.4
2022-12-26T05:00:00,1369A,113.628,22.4251,珠海市,唐家,,40,40,35,19,23,122,66,89,72,23,22,7,8,0.3,0.2
2022-12-26T05:00:00,1370A,113.299,22.2281,珠海市,斗门,细颗粒物(PM2.5),63,72,46,45,26,107,21,48,36,55,37,4,4,0.5,0.2
2022-12-26T05:00:00,1371A,113.1294,23.0067,佛山市,湾梁,细颗粒物(PM2.5),64,70,49,46,26,98,5,12,8,92,53,7,8,0.6,0.5
2022-12-26T05:00:00,1372A,113.1083,23.0478,佛山市,华材职中,细颗粒物(PM2.5),63,58,49,45,34,95,5,8,6,83,56,9,11,0.7,0.7
2022-12-26T05:00:00,1373A,113.144,23.0453,佛山市,南海气象局,细颗粒物(PM2.5),55,47,46,39,30,82,16,7,7,66,50,4,5,0.5,0.4
2022-12-26T05:00:00,1374A,113.2881,22.8094,佛山市,顺德苏岗,细颗粒物(PM2.5),58,62,44,41,28,127,0,0,0,88,52,7,10,0.9,0.7
2022-12-26T05:00:00,1376A,112.8383,22.8678,佛山市,高明孔堂,,34,34,47,23,24,92,35,53,45,25,31,4,7,0.5,0.4
2022-12-26T05:00:00,1377A,112.8836,23.1588,佛山市,三水监测站,细颗粒物(PM2.5),72,90,59,52,34,110,2,2,2,89,58,11,14,0.7,0.6
2022-12-26T05:00:00,1378A,112.867,23.185,佛山市,三水云东海,颗粒物(PM10),57,63,48,34,24,110,2,2,2,69,43,8,10,0.6,0.5
2022-12-26T05:00:00,1379A,113.3769,22.5211,中山市,华柏园,,38,32,45,26,25,128,26,64,34,40,42,5,7,0.4,0.4
2022-12-26T05:00:00,1380A,113.3881,22.5497,中山市,张溪,颗粒物(PM10),53,55,56,34,28,129,15,36,21,55,51,2,4,0.5,0.4
2022-12-26T05:00:00,1381A,113.4075,22.5111,中山市,紫马岭,细颗粒物(PM2.5),57,26,40,40,19,124,26,69,42,21,31,7,9,0.5,0.5
2022-12-26T05:00:00,1382A,113.4411,22.4853,中山市,长江旅游区(对照点),,,,,,,,,,,,,,,,
2022-12-26T05:00:00,1383A,113.1064,22.6058,江门市,北街,细颗粒物(PM2.5),57,57,51,40,29,141,16,53,27,52,46,7,10,0.7,0.6
2022-12-26T05:00:00,1384A,113.0731,22.5835,江门市,西区,细颗粒物(PM2.5),70,70,66,51,34,136,2,33,16,71,54,6,9,0.5,0.5
2022-12-26T05:00:00,1385A,113.0219,22.5311,江门市,圭峰西,,35,31,44,24,28,143,58,100,74,22,38,2,5,0.4,0.4
2022-12-26T05:00:00,1386A,113.0828,22.5947,江门市,东湖,细颗粒物(PM2.5),70,65,59,51,32,138,5,22,15,61,46,5,8,0.7,0.6
2022-12-26T05:00:00,1389A,113.7547,23.0494,东莞市,莞城梨川,颗粒物(PM10),63,76,52,43,28,118,43,26,26,40,37,16,11,0.6,0.5
2022-12-26T05:00:00,1390A,113.7944,23.0128,东莞市,东城石井,颗粒物(PM10),59,67,42,40,23,112,8,28,20,52,24,11,12,0.6,0.5
2022-12-26T05:00:00,1391A,113.7383,22.9658,东莞市,南城西平,颗粒物(PM10),68,86,56,38,28,114,4,4,4,84,54,10,12,0.6,0.4
2022-12-26T05:00:00,1392A,114.4183,23.0528,惠州市,河南岸金山湖子站,颗粒物(PM10),51,52,47,27,20,96,23,64,44,33,26,7,6,0.5,0.5
2022-12-26T05:00:00,1393A,114.4053,23.0822,惠州市,下埔横江三路子站,,49,49,38,27,19,103,58,90,77,26,21,10,9,0.4,0.4
2022-12-26T05:00:00,1394A,114.4103,23.1142,惠州市,江北云山西路子站,细颗粒物(PM2.5),62,54,39,44,22,108,34,97,70,31,12,4,6,0.6,0.4
2022-12-26T05:00:00,1395A,114.4645,22.7833,惠州市,惠阳区承修路船湖子站,颗粒物(PM10),57,64,48,29,23,124,43,103,57,40,26,4,5,0.3,0.3
2022-12-26T05:00:00,1396A,114.5317,22.7422,惠州市,大亚湾管委会子站,,40,40,49,22,24,127,93,92,91,25,30,7,6,0.6,0.6
2022-12-26T05:00:00,1397A,112.4267,23.0706,肇庆市,睦岗子站,,46,46,45,25,23,107,5,6,5,76,60,9,11,0.4,0.4
2022-12-26T05:00:00,1398A,112.4645,23.0475,肇庆市,城中子站,颗粒物(PM10),57,64,54,35,28,118,5,6,5,60,53,24,17,0.5,0.4
2022-12-26T05:00:00,1399A,112.5544,23.1522,肇庆市,坑口子站,,38,38,38,26,23,112,48,57,52,32,29,5,9,0.3,0.3
2022-12-26T05:00:00,1400A,112.4753,23.1,肇庆市,七星岩子站(对照点),,50,50,42,30,22,116,24,73,37,54,24,4,7,0.4,0.4
2022-12-26T05:00:00,1401A,108.3103,22.7881,南宁市,二十一中,,49,46,65,34,42,145,84,86,85,18,26,10,12,0.8,0.8
2022-12-26T05:00:00,1402A,108.3141,22.8528,南宁市,北湖,"颗粒物(PM10),细颗粒物(PM2.5)",64,78,79,46,47,137,16,8,8,56,38,17,16,0.9,0.9
2022-12-26T05:00:00,1403A,108.3206,22.8225,南宁市,市监测站,,50,50,67,33,42,135,59,85,75,34,40,19,16,0.7,0.8
2022-12-26T05:00:00,1404A,108.3829,22.8037,南宁市,大自然花园,"颗粒物(PM10),细颗粒物(PM2.5)",52,54,64,36,44,134,7,96,65,69,28,7,10,0.8,0.7
2022-12-26T05:00:00,1405A,108.4394,22.7904,南宁市,仙葫(对照点),细颗粒物(PM2.5),68,75,70,49,48,127,5,88,30,64,33,16,12,1.0,0.9
2022-12-26T05:00:00,1406A,108.2397,22.8467,南宁市,区农职院,颗粒物(PM10),53,56,64,25,34,142,13,30,18,64,47,13,14,0.5,0.6
2022-12-26T05:00:00,1407A,108.3275,22.735,南宁市,英华嘉园,颗粒物(PM10),60,70,77,40,47,126,22,50,26,62,46,8,11,0.7,0.7
2022-12-26T05:00:00,1408A,108.2257,22.7757,南宁市,沙井镇街道办,颗粒物(PM10),56,61,97,38,47,145,35,54,47,80,62,11,11,0.9,0.9
2022-12-26T05:00:00,1409A,110.576,19.9507,海口市,东寨港(对照点),,,28,29,16,17,108,53,58,57,,,1,2,0.4,0.4
2022-12-26T05:00:00,1410A,110.3232,20.0574,海口市,海南大学,,35,35,47,15,18,155,106,108,107,8,10,4,5,0.5,0.5
2022-12-26T05:00:00,1411A,110.283,20.0053,海口市,秀英海南医院,,34,34,41,13,16,153,106,107,106,7,11,5,6,0.6,0.6
2022-12-26T05:00:00,1412A,110.338,19.9969,海口市,海南师范大学,,37,37,43,15,17,148,100,99,99,6,12,4,5,0.6,0.6
2022-12-26T05:00:00,1413A,110.33,20.0356,海口市,龙华路环保局宿舍,,33,28,42,14,20,151,104,104,104,6,10,4,5,0.5,0.5
2022-12-26T05:00:00,1414A,106.3787,29.8279,重庆市,缙云山(对照点),,36,36,54,11,33,79,60,62,61,23,31,2,3,0.6,0.6
2022-12-26T05:00:00,1416A,106.4213,29.8253,重庆市,天生,细颗粒物(PM2.5),74,60,90,54,76,64,50,62,60,16,27,6,9,0.7,0.8
2022-12-26T05:00:00,1417A,106.6263,29.7228,重庆市,两路,细颗粒物(PM2.5),54,50,97,38,71,58,41,36,36,16,46,6,8,0.8,0.9
2022-12-26T05:00:00,1418A,106.2953,29.5983,重庆市,虎溪,细颗粒物(PM2.5),79,56,89,58,81,55,55,52,52,12,32,10,13,0.7,0.8
2022-12-26T05:00:00,1419A,106.5777,29.5102,重庆市,南坪,细颗粒物(PM2.5),60,56,132,43,104,35,35,24,24,18,47,3,11,0.8,1.1
2022-12-26T05:00:00,1420A,106.6556,29.6277,重庆市,唐家沱,细颗粒物(PM2.5),70,58,132,51,102,35,29,33,30,23,53,7,11,0.6,0.8
2022-12-26T05:00:00,1421A,106.6349,29.4906,重庆市,茶园,细颗粒物(PM2.5),53,47,137,37,105,55,51,52,43,16,45,6,12,0.6,0.9
2022-12-26T05:00:00,1422A,106.3754,29.4572,重庆市,白市驿,细颗粒物(PM2.5),63,44,115,45,100,48,39,44,42,15,38,6,13,0.6,0.8
2022-12-26T05:00:00,1425A,106.6205,29.7166,重庆市,空港,细颗粒物(PM2.5),64,51,93,46,73,62,42,36,36,14,43,5,8,0.8,1
2022-12-26T05:00:00,1426A,106.4782,29.4875,重庆市,新山村,细颗粒物(PM2.5),69,58,131,50,105,43,42,35,35,22,51,5,11,0.2,0.3
2022-12-26T05:00:00,1427A,106.5616,29.6453,重庆市,礼嘉,,50,50,115,28,80,49,49,45,45,16,45,8,11,1.3,1.6
2022-12-26T05:00:00,1428A,106.4522,29.7091,重庆市,蔡家,细颗粒物(PM2.5),64,61,108,46,75,44,42,37,37,22,42,4,6,0.6,0.8
2022-12-26T05:00:00,1429A,106.5093,29.3917,重庆市,鱼新街,细颗粒物(PM2.5),62,42,129,44,104,38,32,28,28,13,39,6,14,0.7,1.2
2022-12-26T05:00:00,1431A,103.9728,30.7236,成都市,金泉两河,,36,34,51,25,29,58,6,19,10,21,18,3,2,0.5,0.4
2022-12-26T05:00:00,1432A,104.1419,30.6764,成都市,十里店,颗粒物(PM10),53,56,67,32,45,63,1,24,11,40,28,3,3,0.6,0.5
2022-12-26T05:00:00,1433A,104.0594,30.5767,成都市,三瓦窑,颗粒物(PM10),59,67,69,39,38,68,2,10,3,31,22,2,2,0.5,0.4
2022-12-26T05:00:00,1434A,104.1122,30.6306,成都市,沙河铺,颗粒物(PM10),52,53,68,33,43,66,7,24,19,25,21,2,2,0.6,0.6
2022-12-26T05:00:00,1437A,104.0431,30.6556,成都市,君平街,细颗粒物(PM2.5),54,42,68,38,49,64,24,25,25,32,28,2,2,0.5,0.6
2022-12-26T05:00:00,1438A,103.6202,31.0201,成都市,灵岩寺(对照点),,,18,49,,,87,69,69,68,5,11,3,2,0.5,0.6
2022-12-26T05:00:00,1439A,106.6899,26.5998,贵阳市,马鞍山,,15,7,52,7,39,116,47,55,54,11,18,4,12,0.7,0.7
2022-12-26T05:00:00,1440A,106.6971,26.5694,贵阳市,市环保站,,20,12,58,12,40,111,62,67,66,12,21,5,12,0.5,0.5
2022-12-26T05:00:00,1441A,106.6243,26.6266,贵阳市,鉴湖路,,17,14,62,2,34,112,52,62,58,12,18,3,13,0.4,0.3
2022-12-26T05:00:00,1442A,106.7487,26.6343,贵阳市,燕子冲,,25,17,61,17,45,112,47,59,56,10,17,5,13,0.6,0.4
2022-12-26T05:00:00,1443A,106.6555,26.4365,贵阳市,碧云窝,,20,14,57,9,36,116,62,60,60,14,18,5,13,0.6,0.6
2022-12-26T05:00:00,1444A,106.694,26.5161,贵阳市,中院村,,20,14,59,7,38,101,62,66,65,14,21,5,13,0.6,0.6
2022-12-26T05:00:00,1445A,106.7109,26.6027,贵阳市,红边门,,19,19,59,12,38,112,60,70,68,13,24,5,16,0.6,0.7
2022-12-26T05:00:00,1446A,106.7164,26.5699,贵阳市,新华路,,22,22,63,5,36,115,62,68,67,9,18,4,13,0.5,0.5
2022-12-26T05:00:00,1447A,106.674,26.5424,贵阳市,太慈桥,,22,22,69,7,32,109,57,60,59,13,20,5,14,0.5,0.5
2022-12-26T05:00:00,1450A,102.8204,24.8886,昆明市,呈贡新区,,36,28,28,25,20,76,55,49,49,10,15,8,8,0.8,0.7
2022-12-26T05:00:00,1451A,102.6251,24.9608,昆明市,西山森林公园(对照点),,30,30,23,16,16,83,63,74,68,4,5,6,7,0.4,0.4
2022-12-26T05:00:00,1452A,102.7252,25.0902,昆明市,龙泉镇,颗粒物(PM10),51,52,34,28,19,78,6,7,7,38,27,7,8,0.8,0.7
2022-12-26T05:00:00,1453A,102.7266,25.0375,昆明市,东风东路,,43,43,33,29,22,73,26,30,29,29,24,10,8,0.9,0.6
2022-12-26T05:00:00,1454A,102.6742,25.0669,昆明市,金鼎山,,38,37,32,26,23,73,31,49,37,23,18,10,9,0.6,0.6
2022-12-26T05:00:00,1455A,102.6644,25.0401,昆明市,碧鸡广场,,40,40,33,27,21,74,22,24,23,39,26,6,6,0.6,0.6
2022-12-26T05:00:00,1456A,91.1319,29.6514,拉萨市,八廓街,,18,16,23,2,8,106,57,60,59,14,16,7,7,0.3,0.3
2022-12-26T05:00:00,1457A,91.1221,29.6747,拉萨市,市环保局,,15,15,24,2,10,108,42,48,47,23,20,6,7,0.6,0.6
2022-12-26T05:00:00,1458A,91.0874,29.6475,拉萨市,区监测站,,20,16,21,5,6,108,61,60,60,14,14,6,6,0.3,0.3
2022-12-26T05:00:00,1459A,91.1774,29.6541,拉萨市,西藏大学,,22,13,20,5,12,113,70,76,74,10,16,10,10,0.4,1.1
2022-12-26T05:00:00,1460A,90.9798,29.6588,拉萨市,区辐射站,,21,7,26,2,14,108,65,58,58,10,22,7,9,0.6,0.8
2022-12-26T05:00:00,1461A,91.0834,29.6292,拉萨市,拉萨火车站,,17,10,17,2,3,100,53,60,56,14,12,9,8,0.5,0.3
2022-12-26T05:00:00,1462A,108.882,34.2749,西安市,高压开关厂,,33,32,57,23,39,61,14,38,22,49,27,3,4,0.6,0.6
2022-12-26T05:00:00,1463A,108.993,34.2629,西安市,兴庆小区,,45,36,50,31,39,54,35,42,39,20,20,5,6,0.3,0.5
2022-12-26T05:00:00,1464A,109.06,34.2572,西安市,纺织城,,46,32,56,32,40,54,18,18,17,29,32,7,8,0.4,0.5
2022-12-26T05:00:00,1465A,108.9356,34.2173,西安市,小寨,,41,41,67,22,33,56,38,39,37,27,23,6,7,0.8,0.8
2022-12-26T05:00:00,1466A,108.954,34.2713,西安市,市人民体育场,,45,34,55,31,38,55,13,30,23,37,21,6,6,0.4,0.5
2022-12-26T05:00:00,1467A,108.8922,34.2322,西安市,高新西区,,45,29,53,31,35,58,25,53,33,35,19,6,6,0.6,0.6
2022-12-26T05:00:00,1468A,108.935,34.3474,西安市,经开区,,50,35,54,35,42,58,10,15,14,42,25,4,4,0.5,0.5
2022-12-26T05:00:00,1469A,108.906,34.1546,西安市,长安区,,39,36,60,27,41,62,32,40,37,17,16,3,4,0.7,0.7
2022-12-26T05:00:00,1471A,109.2186,34.3731,西安市,临潼区,细颗粒物(PM2.5),57,37,63,40,45,57,12,42,21,37,22,7,8,0.9,0.8
2022-12-26T05:00:00,1472A,108.869,34.378,西安市,草滩(对照点),细颗粒物(PM2.5),70,42,43,51,42,49,10,20,16,27,24,8,9,0.6,0.4
2022-12-26T05:00:00,1473A,108.985,34.1978,西安市,曲江文化产业集团,,40,33,58,28,40,57,27,43,38,32,22,4,4,0.5,0.5
2022-12-26T05:00:00,1474A,109.051,34.3213,西安市,广运潭,,48,35,55,33,39,51,24,28,27,19,21,4,5,0.6,0.7
2022-12-26T05:00:00,1476A,103.631,36.1031,兰州市,兰炼宾馆,颗粒物(PM10),70,90,71,42,33,76,6,8,7,59,47,37,18,1.0,0.7
2022-12-26T05:00:00,1477A,104.1373,35.9454,兰州市,榆中兰大校区(对照点),,,,,,,,,,,,,,,,
2022-12-26T05:00:00,1478A,103.8412,36.0726,兰州市,生物制品所,颗粒物(PM10),53,56,66,29,26,76,5,5,5,61,41,9,11,0.9,0.7
2022-12-26T05:00:00,1479A,103.831,36.0464,兰州市,铁路设计院,颗粒物(PM10),63,76,62,38,36,77,10,11,10,61,50,23,14,1.8,1.1
2022-12-26T05:00:00,1483A,101.524,36.6867,西宁市,第五水厂(对照点),,,,,,,,,,,,,,,,
2022-12-26T05:00:00,1484A,105.9512,38.6016,银川市,贺兰山马莲口(对照点),,23,23,39,7,16,75,65,68,67,12,16,14,17,0.5,0.5
2022-12-26T05:00:00,1488A,106.2328,38.4975,银川市,贺兰山东路,,41,41,58,23,30,77,32,37,36,31,29,5,15,0.9,0.7
2022-12-26T05:00:00,1489A,106.1358,38.5036,银川市,学院路,颗粒物(PM10),54,58,71,30,25,71,31,28,28,34,35,13,19,0.8,0.8
2022-12-26T05:00:00,1490A,87.5801,43.8303,乌鲁木齐市,监测站,颗粒物(PM10),136,221,166,50,104,18,1,1,1,82,72,5,5,1.5,1.4
2022-12-26T05:00:00,1491A,87.6046,43.768,乌鲁木齐市,收费所,颗粒物(PM10),66,81,106,45,81,22,3,4,4,62,66,3,2,1.0,1
2022-12-26T05:00:00,1492A,87.4754,43.9469,乌鲁木齐市,新疆农科院农场(对照点),,,111,99,38,107,33,0,1,0,77,56,6,8,1.6,1.4
2022-12-26T05:00:00,1493A,87.5525,43.8711,乌鲁木齐市,铁路局,细颗粒物(PM2.5),189,214,159,142,138,32,3,3,3,83,70,3,3,1.3,1.1
2022-12-26T05:00:00,1494A,87.6432,43.831,乌鲁木齐市,三十一中学,细颗粒物(PM2.5),175,209,163,132,115,28,5,5,5,81,70,4,3,1.7,1.2
2022-12-26T05:00:00,1496A,87.7216,44.1747,乌鲁木齐市,米东区环保局,细颗粒物(PM2.5),165,173,73,125,115,62,4,3,3,70,49,4,6,2.1,1.5
2022-12-26T05:00:00,1508A,112.9433,27.8614,湘潭市,板塘,细颗粒物(PM2.5),92,99,93,68,70,86,36,35,35,21,33,15,16,0.8,0.8
2022-12-26T05:00:00,1511A,112.9118,27.8403,湘潭市,市监测站,细颗粒物(PM2.5),88,113,103,65,66,84,37,39,36,26,41,12,12,0.5,0.6
2022-12-26T05:00:00,1512A,112.8937,27.8728,湘潭市,江麓,颗粒物(PM10),78,106,95,52,65,95,42,45,41,25,37,14,14,0.6,0.7
2022-12-26T05:00:00,1513A,112.9227,27.8159,湘潭市,岳塘,细颗粒物(PM2.5),89,108,103,66,69,91,37,38,36,22,37,11,9,0.5,0.6
2022-12-26T05:00:00,1514A,112.9074,27.9119,湘潭市,科大,细颗粒物(PM2.5),92,106,98,68,70,85,32,33,31,21,32,18,16,0.8,0.7
2022-12-26T05:00:00,1515A,113.135,27.8244,株洲市,天台山庄,细颗粒物(PM2.5),95,113,80,71,62,110,31,32,31,29,37,7,7,0.6,0.6
2022-12-26T05:00:00,1518A,113.095,27.8867,株洲市,株冶医院,细颗粒物(PM2.5),95,126,89,71,66,97,33,30,30,28,38,8,8,0.7,0.8
2022-12-26T05:00:00,1519A,113.167,27.8667,株洲市,市四中,细颗粒物(PM2.5),100,117,88,75,64,102,29,34,32,27,35,6,6,0.5,0.5
2022-12-26T05:00:00,1520A,113.143,27.8381,株洲市,火车站,细颗粒物(PM2.5),102,132,97,76,66,108,31,30,30,29,35,14,14,0.8,0.9
2022-12-26T05:00:00,1524A,113.13,27.8528,株洲市,市监测站,细颗粒物(PM2.5),109,132,98,82,69,106,35,34,34,30,39,10,7,0.9,0.9
2022-12-26T05:00:00,1552A,106.805,26.3003,贵阳市,桐木岭(对照点),,,,,,,,,,,,,,,,
2022-12-26T05:00:00,1559A,113.251,27.8336,株洲市,大京风景区(对照点),颗粒物(PM10),98,146,79,67,55,116,30,33,31,22,21,7,6,0.6,0.5
2022-12-26T05:00:00,1562A,113.0048,27.9153,湘潭市,昭山,细颗粒物(PM2.5),90,120,104,67,59,89,31,32,30,27,39,7,5,0.7,0.6
2022-12-26T05:00:00,1564A,112.4876,27.9164,湘潭市,韶山(对照点),细颗粒物(PM2.5),84,94,86,62,52,82,40,42,39,16,22,12,12,0.8,0.9
2022-12-26T05:00:00,1585A,109.8756,40.6532,包头市,市环境监测站,,35,35,61,14,30,79,30,19,19,25,34,12,15,0.6,0.9
2022-12-26T05:00:00,1587A,109.9991,40.5842,包头市,包头八中,颗粒物(PM10),58,65,97,25,34,74,0,4,1,55,43,13,21,1.2,0.8
2022-12-26T05:00:00,1588A,109.8538,40.6821,包头市,青山宾馆,,40,40,50,13,26,79,26,25,25,23,32,13,14,0.7,0.8
2022-12-26T05:00:00,1589A,109.8642,40.6288,包头市,惠龙物流,颗粒物(PM10),82,114,99,55,43,80,3,4,4,60,42,12,13,0.9,0.8
2022-12-26T05:00:00,1590A,110.0377,40.5546,包头市,东河鸿龙湾,,33,33,76,7,20,73,16,15,14,39,34,10,13,0.9,0.8
2022-12-26T05:00:00,1591A,110.0023,39.8129,鄂尔多斯市,综合楼,,29,29,58,5,11,54,52,44,43,13,14,43,9,0.9,0.5
2022-12-26T05:00:00,1592A,109.9486,39.8261,鄂尔多斯市,巴音孟克林场办事处,,24,22,51,12,14,81,74,71,71,6,9,6,7,0.6,0.7
2022-12-26T05:00:00,1593A,109.7736,39.5986,鄂尔多斯市,康泽苑,,34,34,48,7,10,74,44,42,42,12,14,5,5,0.5,0.6
2022-12-26T05:00:00,1594A,109.8119,39.5989,鄂尔多斯市,华泰汽车城,,39,39,46,14,16,84,16,40,24,37,17,9,9,0.5,0.4
2022-12-26T05:00:00,1595A,109.9734,39.7884,鄂尔多斯市,奥林花园,,29,29,58,5,11,84,48,27,27,23,16,8,6,0.6,0.6
2022-12-26T05:00:00,1596A,122.2414,40.6592,营口市,学府南路(停运211214),,,,,,,,,,,,,,,,
2022-12-26T05:00:00,1597A,122.2703,40.7094,营口市,大庆路,细颗粒物(PM2.5),110,114,84,83,59,62,8,10,8,57,45,38,36,1.9,1.5
2022-12-26T05:00:00,1598A,122.2150,40.6511,营口市,镜湖西路,细颗粒物(PM2.5),95,97,52,71,31,65,15,28,21,56,29,20,12,1.5,0.7
2022-12-26T05:00:00,1599A,122.1658,40.6789,营口市,西炮台,细颗粒物(PM2.5),107,110,50,80,33,60,7,15,12,62,34,12,12,1.4,0.6
2022-12-26T05:00:00,1600A,124.3303,40.0625,丹东市,江湾东路,,39,39,38,27,30,71,54,47,47,13,20,12,16,0.7,0.9
2022-12-26T05:00:00,1601A,124.4256,40.1503,丹东市,临江后街,,39,39,34,26,23,73,52,48,46,12,16,5,6,0.5,0.5
2022-12-26T05:00:00,1602A,124.3933,40.1461,丹东市,元宝山,,45,41,40,31,31,60,31,33,31,30,28,14,14,0.9,1
2022-12-26T05:00:00,1603A,124.3633,40.1092,丹东市,民主桥,细颗粒物(PM2.5),52,49,33,36,25,67,39,43,42,22,22,15,14,0.9,0.9
2022-12-26T05:00:00,1604A,122.0303,41.1489,盘锦市,开发区,细颗粒物(PM2.5),77,82,45,56,27,69,7,32,17,58,27,26,17,1.2,0.8
2022-12-26T05:00:00,1605A,122.0485,41.0883,盘锦市,兴隆台,细颗粒物(PM2.5),78,80,50,57,28,64,6,29,15,67,32,28,23,1.0,0.7
2022-12-26T05:00:00,1606A,121.8297,41.1028,盘锦市,新生街道,细颗粒物(PM2.5),74,78,46,54,29,61,7,8,7,46,42,14,12,1.3,0.8
2022-12-26T05:00:00,1607A,120.9092,40.7136,葫芦岛市,龙港区,细颗粒物(PM2.5),93,103,69,69,43,65,13,11,11,64,37,40,59,1.3,1
2022-12-26T05:00:00,1608A,120.8392,40.7514,葫芦岛市,化工街,细颗粒物(PM2.5),85,94,87,63,53,59,8,10,8,51,44,30,38,1.2,1.1
2022-12-26T05:00:00,1609A,120.8341,40.7073,葫芦岛市,新区,细颗粒物(PM2.5),107,123,85,80,62,61,7,8,7,51,43,29,35,1.6,1.2
2022-12-26T05:00:00,1610A,120.8695,40.7677,葫芦岛市,东城区,颗粒物(PM10),65,80,93,42,63,66,12,13,12,41,41,30,41,1.4,1.4
2022-12-26T05:00:00,1611A,118.5819,24.9117,泉州市,涂山街,,29,29,43,17,14,122,79,92,85,10,17,7,9,0.7,0.7
2022-12-26T05:00:00,1612A,118.5972,24.8978,泉州市,津头埔,,28,28,38,17,21,119,77,91,83,12,19,8,9,0.5,0.5
2022-12-26T05:00:00,1613A,118.6663,24.9424,泉州市,万安,,25,25,36,15,21,124,78,93,85,13,18,7,9,0.5,0.6
2022-12-26T05:00:00,1614A,118.6117,24.9604,泉州市,清源山(对照点),,,,,,,,,,,,,,,,
2022-12-26T05:00:00,1616A,117.6795,36.229,济南市,技术学院,颗粒物(PM10),95,139,87,57,50,74,7,7,7,72,55,29,21,1.1,1.1
2022-12-26T05:00:00,1618A,118.3429,35.0532,临沂市,沂河小区,细颗粒物(PM2.5),137,129,87,104,65,72,9,15,12,73,51,28,27,1.4,1.1
2022-12-26T05:00:00,1619A,118.295,35.0583,临沂市,鲁南制药厂,细颗粒物(PM2.5),127,122,98,96,73,71,7,8,8,80,69,39,40,1.8,1.4
2022-12-26T05:00:00,1620A,118.2794,34.9976,临沂市,新光毛纺厂,细颗粒物(PM2.5),118,110,101,89,74,71,7,8,7,76,66,24,29,1.6,1.5
2022-12-26T05:00:00,1621A,118.3956,35.0888,临沂市,河东保险公司,细颗粒物(PM2.5),133,114,86,101,65,75,10,15,12,78,62,32,23,1.7,1.3
2022-12-26T05:00:00,1622A,116.3032,37.4674,德州市,儿童乐园,细颗粒物(PM2.5),89,90,74,66,44,63,4,5,5,75,63,15,14,1.0,0.9
2022-12-26T05:00:00,1624A,116.2991,37.4451,德州市,监理站,细颗粒物(PM2.5),83,81,70,61,46,71,12,17,13,72,56,16,14,0.9,0.9
2022-12-26T05:00:00,1625A,115.9848,36.4372,聊城市,区政府,细颗粒物(PM2.5),112,118,73,84,46,70,22,18,14,32,48,8,13,0.9,0.9
2022-12-26T05:00:00,1628A,118.0062,37.3803,滨州市,市环保局,细颗粒物(PM2.5),94,94,88,70,61,71,8,7,7,76,59,18,20,1.4,1.4
2022-12-26T05:00:00,1629A,118.0018,37.3617,滨州市,第二水厂,细颗粒物(PM2.5),93,92,91,69,56,73,7,14,10,79,60,9,16,1.1,1.1
2022-12-26T05:00:00,1630A,117.9776,37.393,滨州市,北中新校,细颗粒物(PM2.5),112,116,91,84,61,74,5,6,5,73,55,16,14,1.2,0.9
2022-12-26T05:00:00,1631A,118.0414,36.8103,淄博市,人民公园,细颗粒物(PM2.5),123,141,97,93,64,68,4,4,4,79,62,63,35,1.5,0.9
2022-12-26T05:00:00,1633A,117.8525,36.4847,淄博市,双山,,,90,81,59,49,71,4,4,4,56,48,,24,1.0,0.9
2022-12-26T05:00:00,1634A,117.9592,36.6331,淄博市,气象站,细颗粒物(PM2.5),113,136,108,85,57,65,1,2,1,63,49,42,32,1.3,1
2022-12-26T05:00:00,1635A,118.3092,36.8194,淄博市,莆田园,细颗粒物(PM2.5),104,129,103,78,61,75,2,3,2,69,46,90,32,1.5,1.9
2022-12-26T05:00:00,1637A,117.558,34.8438,枣庄市,市中区政府,细颗粒物(PM2.5),92,90,119,68,74,70,38,23,23,40,57,22,29,1.1,1.3
2022-12-26T05:00:00,1638A,117.2852,34.7837,枣庄市,薛城环保局,细颗粒物(PM2.5),85,88,104,63,70,79,33,30,25,53,59,14,22,1.1,1.2
2022-12-26T05:00:00,1639A,117.5852,34.7745,枣庄市,峄城区政府,细颗粒物(PM2.5),117,119,103,88,65,76,24,38,28,56,53,25,24,0.9,0.9
2022-12-26T05:00:00,1640A,117.7276,34.5578,枣庄市,台儿庄区环保局,细颗粒物(PM2.5),117,144,116,88,81,78,6,9,7,77,58,22,18,1.2,1
2022-12-26T05:00:00,1641A,117.4518,35.0992,枣庄市,山亭区环保局,,46,44,99,32,70,71,55,30,30,29,53,8,20,0.8,1.2
2022-12-26T05:00:00,1642A,121.2514,37.5639,烟台市,开发区,,20,17,12,14,7,68,46,56,53,16,9,8,9,0.5,0.3
2022-12-26T05:00:00,1643A,121.3719,37.5433,烟台市,轴承厂,,38,36,23,26,14,73,51,56,55,16,12,14,14,0.5,0.4
2022-12-26T05:00:00,1644A,121.3181,37.5436,烟台市,西郊化工站,,29,29,21,17,10,75,50,46,46,15,13,10,9,0.6,0.5
2022-12-26T05:00:00,1645A,121.4478,37.4822,烟台市,莱山环保局,,24,24,16,12,7,73,52,64,57,12,7,11,9,0.8,0.6
2022-12-26T05:00:00,1646A,121.2611,37.4967,烟台市,福山环保局,,27,27,23,17,9,70,24,55,46,32,17,7,8,0.7,0.4
2022-12-26T05:00:00,1650A,119.1437,36.7023,潍坊市,环保局,细颗粒物(PM2.5),115,112,70,87,54,42,4,12,8,65,53,13,17,1.4,0.9
2022-12-26T05:00:00,1653A,116.6251,35.4302,济宁市,火炬城,细颗粒物(PM2.5),98,67,59,73,48,82,42,82,62,18,35,6,18,0.6,0.7
2022-12-26T05:00:00,1655A,116.5491,35.4042,济宁市,电化厂,细颗粒物(PM2.5),98,71,67,73,51,71,39,71,56,24,46,14,29,0.8,0.9
2022-12-26T05:00:00,1656A,117.1437,36.1937,泰安市,监测站,细颗粒物(PM2.5),103,97,82,77,62,72,6,8,7,66,48,25,21,1.2,1.2
2022-12-26T05:00:00,1657A,117.0885,36.2017,泰安市,人口学校,颗粒物(PM10),60,70,66,40,38,64,5,6,6,72,47,17,17,0.7,0.8
2022-12-26T05:00:00,1658A,117.1089,36.1758,泰安市,电力学校,细颗粒物(PM2.5),110,122,78,83,52,68,5,5,5,65,50,30,26,1.6,1.2
2022-12-26T05:00:00,1659A,119.471,35.4209,日照市,监测站,细颗粒物(PM2.5),73,78,74,53,46,70,2,4,2,71,58,18,20,1.7,1.5
2022-12-26T05:00:00,1660A,119.523,35.4216,日照市,市政府广场,细颗粒物(PM2.5),67,70,62,48,40,72,37,33,33,30,41,11,12,1.1,1
2022-12-26T05:00:00,1661A,119.5587,35.4044,日照市,港务局,细颗粒物(PM2.5),72,68,71,52,46,71,35,19,19,30,47,8,11,1.2,1.1
2022-12-26T05:00:00,1662A,122.1214,37.4236,威海市,华夏技校,,23,17,20,7,12,80,73,79,77,9,12,2,3,0.3,0.3
2022-12-26T05:00:00,1663A,122.0508,37.5236,威海市,山大分校,,24,12,23,2,7,80,75,80,78,10,10,4,4,0.6,0.6
2022-12-26T05:00:00,1664A,122.1067,37.5072,威海市,市监测站,,23,17,23,7,10,76,73,75,74,8,11,1,2,0.2,0.2
2022-12-26T05:00:00,1666A,118.6614,37.4309,东营市,市环保局,细颗粒物(PM2.5),100,97,68,75,45,59,6,31,19,70,41,60,34,1.0,0.7
2022-12-26T05:00:00,1669A,113.5824,24.7733,韶关市,市八中,,45,45,41,20,21,108,15,24,19,41,27,11,12,0.6,0.5
2022-12-26T05:00:00,1671A,113.5917,24.7972,韶关市,园林处,,42,36,38,29,27,110,5,6,6,45,31,9,11,0.5,0.5
2022-12-26T05:00:00,1672A,113.6735,24.7791,韶关市,韶关学院,,,27,43,,,105,3,12,7,34,28,11,12,0.7,0.7
2022-12-26T05:00:00,1673A,113.5971,24.6863,韶关市,曲江监测站,颗粒物(PM10),53,55,44,34,24,118,14,13,11,41,34,23,14,1.0,0.5
2022-12-26T05:00:00,1674A,116.6794,23.3667,汕头市,金平子站,,28,14,36,19,20,125,78,94,86,14,17,13,13,0.7,0.7
2022-12-26T05:00:00,1675A,116.7244,23.3633,汕头市,龙湖子站,,28,28,37,18,17,133,83,103,93,16,18,12,12,0.6,0.6
2022-12-26T05:00:00,1676A,116.7258,23.2775,汕头市,濠江子站,,26,24,33,16,22,121,81,100,90,16,14,10,10,0.4,0.4
2022-12-26T05:00:00,1677A,116.7519,23.4714,汕头市,澄海子站,,43,37,39,30,23,130,80,97,88,22,20,10,7,0.5,0.5
2022-12-26T05:00:00,1678A,116.6092,23.2539,汕头市,潮阳子站,,38,38,36,8,14,122,78,98,86,12,12,8,8,0.6,0.6
2022-12-26T05:00:00,1680A,110.3539,21.2706,湛江市,湛江影剧院,,39,37,49,27,26,135,98,114,104,15,18,14,18,0.7,0.6
2022-12-26T05:00:00,1681A,110.3928,21.2228,湛江市,市环境监测站,,37,37,46,19,23,138,105,111,109,13,16,8,13,0.4,0.4
2022-12-26T05:00:00,1682A,110.4019,21.1997,湛江市,环保局宿舍,,37,37,43,19,24,142,109,116,114,10,16,6,10,0.5,0.4
2022-12-26T05:00:00,1683A,110.4111,21.2028,湛江市,霞山游泳场,,38,38,46,22,27,140,105,114,111,12,15,8,14,0.4,0.4
2022-12-26T05:00:00,1684A,110.3316,21.2679,湛江市,麻章区环保局,,48,48,55,32,29,136,94,114,102,15,21,12,18,0.5,0.5
2022-12-26T05:00:00,1685A,110.4558,21.2567,湛江市,坡头区环保局,,37,37,44,21,27,141,104,115,111,14,17,8,13,0.5,0.5
2022-12-26T05:00:00,1686A,111.0286,21.4688,茂名市,电白南海,细颗粒物(PM2.5),55,56,65,39,27,138,54,116,78,17,21,10,11,0.5,0.4
2022-12-26T05:00:00,1687A,110.9294,21.6533,茂名市,茂石化七小,,41,41,50,27,28,128,96,111,101,15,16,13,13,0.5,0.5
2022-12-26T05:00:00,1688A,110.9107,21.6687,茂名市,健康路,,46,46,56,23,27,137,113,126,117,13,19,15,19,0.5,0.6
2022-12-26T05:00:00,1689A,110.8592,21.6828,茂名市,高岭,颗粒物(PM10),54,58,65,34,39,133,103,118,106,21,25,24,23,0.5,0.7
2022-12-26T05:00:00,1690A,116.1231,24.3284,梅州市,梅江月梅,,36,36,40,21,21,84,4,8,6,38,31,6,7,0.4,0.4
2022-12-26T05:00:00,1691A,116.0797,24.2719,梅州市,梅县新城,,29,29,47,18,25,81,9,5,5,30,36,7,7,0.5,0.6
2022-12-26T05:00:00,1692A,116.1248,24.2654,梅州市,环境监控中心,,42,42,42,25,22,90,4,3,3,38,37,9,9,0.4,0.5
2022-12-26T05:00:00,1693A,115.3653,22.775,汕尾市,市环保局,,38,38,41,24,22,124,87,94,90,12,12,9,9,0.4,0.4
2022-12-26T05:00:00,1694A,115.3706,22.7898,汕尾市,市政府,,38,38,39,25,24,128,82,94,87,13,15,9,10,0.6,0.5
2022-12-26T05:00:00,1695A,115.3622,22.7925,汕尾市,新城中学,颗粒物(PM10),55,60,54,26,24,121,78,92,86,12,14,10,11,0.5,0.5
2022-12-26T05:00:00,1696A,114.6778,23.7569,河源市,源西(对照点),,30,30,42,19,22,104,22,13,13,29,32,5,7,0.5,0.5
2022-12-26T05:00:00,1697A,114.6944,23.7586,河源市,东埔,,32,32,45,21,25,101,6,17,6,35,29,6,6,0.5,0.6
2022-12-26T05:00:00,1698A,114.6892,23.7233,河源市,老城,,24,24,47,16,19,104,27,16,16,22,28,5,6,0.4,0.5
2022-12-26T05:00:00,1699A,111.9797,21.8593,阳江市,鸳鸯湖(对照点),细颗粒物(PM2.5),52,47,54,36,33,139,55,84,55,29,28,7,9,0.4,0.5
2022-12-26T05:00:00,1701A,111.9491,21.8658,阳江市,马南垌,细颗粒物(PM2.5),52,40,47,36,32,144,28,40,34,34,32,5,8,0.6,0.6
2022-12-26T05:00:00,1702A,113.0426,23.691,清远市,环保大楼(对照点),,34,34,36,23,20,119,27,46,41,34,25,5,7,0.6,0.7
2022-12-26T05:00:00,1703A,113.0208,23.7106,清远市,凤城街办,,37,37,38,20,19,97,34,46,42,21,20,11,7,0.5,0.5
2022-12-26T05:00:00,1705A,116.6367,23.6719,潮州市,西园路(对照点),,50,39,41,35,31,127,46,61,52,10,16,6,9,0.5,0.5
2022-12-26T05:00:00,1706A,116.6447,23.6706,潮州市,档案局,,34,34,46,20,29,124,45,50,47,10,18,5,8,0.5,0.5
2022-12-26T05:00:00,1708A,116.3701,23.5345,揭阳市,新兴,细颗粒物(PM2.5),62,47,57,44,37,133,74,78,77,18,23,24,18,0.5,0.6
2022-12-26T05:00:00,1709A,116.3264,23.5443,揭阳市,西马,细颗粒物(PM2.5),62,70,59,44,33,129,26,72,48,36,24,11,14,0.6,0.6
2022-12-26T05:00:00,1710A,116.3611,23.5626,揭阳市,东兴,细颗粒物(PM2.5),53,47,56,37,31,130,41,70,62,34,27,8,16,0.5,0.5
2022-12-26T05:00:00,1711A,116.4151,23.5294,揭阳市,渔湖,细颗粒物(PM2.5),65,64,58,47,40,135,52,58,55,33,29,24,17,0.5,0.5
2022-12-26T05:00:00,1712A,112.0392,22.9169,云浮市,新市府(对照点),,33,26,33,23,24,108,55,68,61,12,25,7,10,0.4,0.4
2022-12-26T05:00:00,1714A,112.0539,22.9539,云浮市,牧羊,,48,48,57,32,26,108,6,24,18,38,35,16,24,1.5,0.8
2022-12-26T05:00:00,1715A,102.575,24.3711,玉溪市,东风水库,,38,26,34,26,20,75,20,36,27,15,14,4,5,0.8,0.8
2022-12-26T05:00:00,1718A,115.4208,35.2464,菏泽市,气象局,细颗粒物(PM2.5),89,74,85,66,61,81,58,56,54,18,33,5,10,0.4,0.7
2022-12-26T05:00:00,1719A,115.4747,35.2375,菏泽市,市政协,细颗粒物(PM2.5),92,68,73,68,54,73,57,57,56,24,36,6,13,0.5,0.7
2022-12-26T05:00:00,1721A,113.3819,40.1097,大同市,果树场(对照点),,,,,,,,,,,,,,,,
2022-12-26T05:00:00,1723A,113.2994,40.0758,大同市,云冈宾馆,颗粒物(PM10),62,74,100,25,46,46,6,42,19,42,46,15,41,1.4,1.6
2022-12-26T05:00:00,1724A,113.3444,40.0917,大同市,大同大学,颗粒物(PM10),61,71,82,27,40,52,23,37,26,31,41,35,47,1.3,1.7
2022-12-26T05:00:00,1725A,113.2661,40.1269,大同市,安家小村,颗粒物(PM10),63,75,127,18,43,62,11,23,19,43,45,22,45,1.2,1.8
2022-12-26T05:00:00,1726A,113.2711,40.0844,大同市,教育学院,颗粒物(PM10),67,83,110,36,54,49,11,41,23,48,46,34,44,1.0,1.3
2022-12-26T05:00:00,1727A,113.1147,36.1547,长治市,清华站,细颗粒物(PM2.5),67,74,103,48,71,63,19,20,20,44,58,12,17,1.1,1.3
2022-12-26T05:00:00,1728A,113.1031,36.1989,长治市,监测站,"颗粒物(PM10),细颗粒物(PM2.5)",62,74,92,44,71,55,19,21,19,34,44,19,21,1.1,1.3
2022-12-26T05:00:00,1730A,113.0886,36.2125,长治市,审计局,细颗粒物(PM2.5),67,71,92,48,76,55,20,20,19,30,40,16,18,0.8,1.1
2022-12-26T05:00:00,1731A,113.0844,36.1856,长治市,长治八中,颗粒物(PM10),67,84,106,37,68,53,19,19,19,26,36,21,25,0.8,1.1
2022-12-26T05:00:00,1733A,111.5531,36.0783,临汾市,临钢医院,,,85,118,58,75,49,5,34,24,,43,4,13,1.2,1.4
2022-12-26T05:00:00,1734A,111.5028,36.0714,临汾市,技工学校,细颗粒物(PM2.5),117,122,134,88,86,56,5,7,5,44,46,10,19,1.3,1.3
2022-12-26T05:00:00,1736A,111.5018,36.0855,临汾市,市委,细颗粒物(PM2.5),103,133,129,77,78,50,8,17,12,37,40,5,14,1.4,1.3
2022-12-26T05:00:00,1738A,113.5758,37.8572,阳泉市,市中心,颗粒物(PM10),65,80,106,35,51,31,4,6,5,66,67,23,46,0.7,1.3
2022-12-26T05:00:00,1739A,113.4894,37.8731,阳泉市,赛鱼,颗粒物(PM10),64,78,93,39,55,34,2,3,3,60,62,15,28,0.9,1.3
2022-12-26T05:00:00,1740A,113.5819,37.8486,阳泉市,南庄,颗粒物(PM10),66,82,105,43,53,34,10,15,14,59,62,19,44,0.9,1.6
2022-12-26T05:00:00,1742A,113.5614,37.8703,阳泉市,平坦,颗粒物(PM10),75,100,103,35,54,33,6,7,7,66,65,19,35,1.0,1.5
2022-12-26T05:00:00,1743A,113.5158,37.8392,阳泉市,大阳泉,颗粒物(PM10),55,60,72,37,51,46,28,26,24,44,59,14,25,0.8,1.1
2022-12-26T05:00:00,1744A,118.9233,42.2816,赤峰市,松山一中,颗粒物(PM10),54,58,54,26,34,41,25,19,19,36,50,14,28,0.8,1.1
2022-12-26T05:00:00,1745A,118.9576,42.2728,赤峰市,哈达街,颗粒物(PM10),51,51,61,18,35,46,30,28,28,26,41,16,35,1.0,1.1
2022-12-26T05:00:00,1746A,118.8788,42.2554,赤峰市,天义路,颗粒物(PM10),57,64,59,34,32,47,16,16,16,33,45,15,23,1.3,1.2
2022-12-26T05:00:00,1748A,123.044,41.1196,鞍山市,深沟寺,细颗粒物(PM2.5),73,78,72,53,47,52,12,20,14,46,40,8,14,1.0,1.1
2022-12-26T05:00:00,1749A,123.011,41.0931,鞍山市,太阳城,细颗粒物(PM2.5),80,89,84,59,50,52,8,10,9,56,44,14,24,1.0,1.5
2022-12-26T05:00:00,1750A,123.0485,41.1442,鞍山市,太平,细颗粒物(PM2.5),79,102,94,58,55,48,9,12,10,47,47,11,19,1.3,1.3
2022-12-26T05:00:00,1751A,122.9642,41.0971,鞍山市,铁西三道街,细颗粒物(PM2.5),200,231,114,150,66,48,13,16,14,53,50,46,34,3.8,2.4
2022-12-26T05:00:00,1752A,122.9341,41.0833,鞍山市,铁西工业园区,细颗粒物(PM2.5),134,167,126,102,83,54,9,14,12,55,57,16,30,3.1,2.6
2022-12-26T05:00:00,1753A,123.022,41.0821,鞍山市,明达新区,细颗粒物(PM2.5),84,89,80,62,49,50,9,10,9,51,44,13,24,1.4,1.4
2022-12-26T05:00:00,1754A,123.1289,41.0228,鞍山市,千山(对照点),,,,,,,,,,,,,,,,
2022-12-26T05:00:00,1755A,123.7977,41.8491,抚顺市,望花区,细颗粒物(PM2.5),132,145,145,100,107,53,6,8,7,50,50,5,9,1.6,1.8
2022-12-26T05:00:00,1756A,123.9161,41.8822,抚顺市,顺城区,细颗粒物(PM2.5),94,104,114,70,94,61,8,5,5,44,45,14,15,1.4,1.8
2022-12-26T05:00:00,1757A,124.0436,41.8611,抚顺市,东洲区,细颗粒物(PM2.5),102,117,140,76,102,38,6,6,6,44,45,8,10,1.7,1.8
2022-12-26T05:00:00,1758A,123.9247,41.8642,抚顺市,新抚区,细颗粒物(PM2.5),105,107,111,79,90,46,8,10,9,42,46,5,6,1.2,1.3
2022-12-26T05:00:00,1759A,124.0972,41.8961,抚顺市,大伙房水库,细颗粒物(PM2.5),90,70,108,67,87,57,10,14,14,45,43,8,7,1.2,1.5
2022-12-26T05:00:00,1760A,123.7086,41.8391,抚顺市,沈抚新城,细颗粒物(PM2.5),75,89,105,55,66,47,15,16,16,39,44,2,6,1.3,1.3
2022-12-26T05:00:00,1761A,123.8275,41.3064,本溪市,大峪,"颗粒物(PM10),细颗粒物(PM2.5)",88,125,117,65,73,34,3,3,3,54,56,8,16,2.0,1.9
2022-12-26T05:00:00,1762A,123.7567,41.3325,本溪市,溪湖,细颗粒物(PM2.5),114,153,152,86,90,56,6,7,6,57,55,6,12,2.2,1.7
2022-12-26T05:00:00,1763A,123.7169,41.3094,本溪市,彩屯,细颗粒物(PM2.5),110,126,161,83,101,51,9,9,9,61,58,8,12,1.6,1.8
2022-12-26T05:00:00,1764A,123.7669,41.2864,本溪市,东明,细颗粒物(PM2.5),97,109,119,72,82,42,6,7,6,56,59,10,18,1.5,1.7
2022-12-26T05:00:00,1765A,123.7992,41.2664,本溪市,新立屯,细颗粒物(PM2.5),85,64,90,63,75,43,9,9,8,60,61,14,18,1.2,1.5
2022-12-26T05:00:00,1766A,123.8142,41.3472,本溪市,威宁,细颗粒物(PM2.5),110,102,115,83,93,40,5,6,5,46,49,6,9,1.3,1.2
2022-12-26T05:00:00,1767A,121.1115,41.0879,锦州市,南山,细颗粒物(PM2.5),112,91,56,84,56,77,11,11,11,43,36,32,31,1.7,1
2022-12-26T05:00:00,1768A,121.0533,40.8434,锦州市,开发区,细颗粒物(PM2.5),104,128,82,78,48,82,8,10,9,51,43,152,39,1.5,0.9
2022-12-26T05:00:00,1769A,121.1836,41.1119,锦州市,百股街道,细颗粒物(PM2.5),117,122,89,88,55,73,12,13,12,53,41,75,38,1.3,1.1
2022-12-26T05:00:00,1770A,121.1178,41.1222,锦州市,天安街道,细颗粒物(PM2.5),94,103,70,70,54,71,8,7,7,51,42,89,62,0.9,0.7
2022-12-26T05:00:00,1771A,121.1303,41.1386,锦州市,北湖公园,细颗粒物(PM2.5),84,71,60,62,47,79,19,24,20,45,32,112,43,1.0,0.9
2022-12-26T05:00:00,1772A,126.54,43.8622,吉林市,哈达湾,细颗粒物(PM2.5),88,78,64,65,55,65,36,36,35,34,33,11,13,0.9,0.8
2022-12-26T05:00:00,1773A,126.5844,43.8358,吉林市,东局子,细颗粒物(PM2.5),93,86,63,69,52,61,24,26,24,36,32,7,12,1.0,0.8
2022-12-26T05:00:00,1774A,126.5052,43.8245,吉林市,电力学院,细颗粒物(PM2.5),89,93,94,66,75,67,20,19,19,39,36,11,17,1.8,1.8
2022-12-26T05:00:00,1775A,126.6133,43.8972,吉林市,江北,细颗粒物(PM2.5),103,93,73,77,58,62,28,38,33,31,36,14,18,1.7,1.5
2022-12-26T05:00:00,1776A,126.555,43.8306,吉林市,江南公园,细颗粒物(PM2.5),97,80,61,72,57,62,23,25,23,41,33,9,14,1.0,0.9
2022-12-26T05:00:00,1778A,126.7061,43.7133,吉林市,丰满(对照点),,,,,,,,,,,,,,,,
2022-12-26T05:00:00,1779A,123.9305,47.3636,齐齐哈尔市,安居小区,细颗粒物(PM2.5),55,50,29,39,23,61,16,30,25,31,18,5,6,0.6,0.3
2022-12-26T05:00:00,1780A,123.9488,47.3386,齐齐哈尔市,中心广场,,48,48,20,28,7,63,28,52,34,29,15,4,5,0.8,0.5
2022-12-26T05:00:00,1781A,123.9483,47.3227,齐齐哈尔市,农牧车辆厂,细颗粒物(PM2.5),52,44,21,36,14,66,26,49,38,24,15,7,7,0.7,0.4
2022-12-26T05:00:00,1783A,123.945,47.2988,齐齐哈尔市,市环境监测站,细颗粒物(PM2.5),53,44,25,37,22,66,29,45,31,26,16,4,5,0.6,0.4
2022-12-26T05:00:00,1784A,129.61,44.561,牡丹江市,环保大楼,,39,26,37,27,28,59,40,41,41,16,17,4,6,0.3,0.4
2022-12-26T05:00:00,1785A,129.6115,44.5782,牡丹江市,文化广场,细颗粒物(PM2.5),63,46,35,45,34,56,16,25,23,36,21,4,6,0.6,0.5
2022-12-26T05:00:00,1786A,129.5904,44.5963,牡丹江市,第一医院,细颗粒物(PM2.5),52,44,42,36,36,60,38,38,37,16,16,4,5,0.6,0.6
2022-12-26T05:00:00,1787A,129.6364,44.6075,牡丹江市,机车工厂,细颗粒物(PM2.5),62,55,48,44,35,61,16,16,16,31,25,3,4,0.7,0.5
2022-12-26T05:00:00,1788A,129.6386,44.5462,牡丹江市,第一中学,,49,33,36,34,33,62,41,48,44,14,15,2,5,0.4,0.4
2022-12-26T05:00:00,1789A,124.81117,46.03138,大庆市,大同区,,29,29,26,20,18,66,39,49,47,19,10,3,4,0.5,0.5
2022-12-26T05:00:00,1790A,125.129,46.533,大庆市,龙凤区,细颗粒物(PM2.5),54,45,23,38,14,63,16,43,27,41,19,6,8,0.6,0.4
2022-12-26T05:00:00,1791A,124.902,46.408,大庆市,红岗区,,22,20,22,15,15,65,33,52,46,24,13,5,5,0.4,0.2
2022-12-26T05:00:00,1792A,125.153,46.586,大庆市,萨尔图区,,37,37,15,21,13,65,47,50,49,12,14,5,6,0.4,0.4
2022-12-26T05:00:00,1793A,124.9042,46.6215,大庆市,让胡路区,,42,33,21,29,15,70,35,50,42,23,11,6,6,0.5,0.4
2022-12-26T05:00:00,1794A,118.3606,31.3519,芜湖市,监测站,细颗粒物(PM2.5),85,83,74,63,50,79,9,25,10,80,65,7,8,1.1,1
2022-12-26T05:00:00,1795A,118.3714,31.4134,芜湖市,科创中心,细颗粒物(PM2.5),90,85,78,67,57,81,7,5,4,69,56,10,11,0.8,0.7
2022-12-26T05:00:00,1796A,118.3673,31.3131,芜湖市,四水厂,细颗粒物(PM2.5),87,75,69,64,54,82,11,43,26,69,46,8,9,1.1,0.8
2022-12-26T05:00:00,1798A,118.5092,31.6837,马鞍山市,湖东路四小,细颗粒物(PM2.5),73,50,55,53,53,70,27,19,19,40,52,8,9,0.7,0.8
2022-12-26T05:00:00,1799A,118.5024,31.6449,马鞍山市,开发区,细颗粒物(PM2.5),78,56,64,57,55,71,16,10,10,55,53,6,7,0.7,0.8
2022-12-26T05:00:00,1800A,118.5228,31.7231,马鞍山市,慈湖,细颗粒物(PM2.5),80,81,80,59,55,71,8,10,9,60,50,9,10,0.8,0.8
2022-12-26T05:00:00,1802A,118.6245,31.7241,马鞍山市,濮塘(对照点),"颗粒物(PM10),细颗粒物(PM2.5)",52,53,51,36,36,72,28,37,31,18,21,6,7,0.5,0.5
2022-12-26T05:00:00,1803A,115.9872,29.6815,九江市,十里,细颗粒物(PM2.5),63,53,63,45,43,77,56,58,57,26,32,15,14,0.8,0.8
2022-12-26T05:00:00,1804A,115.9584,29.7046,九江市,茅山头,细颗粒物(PM2.5),65,48,63,47,45,71,51,58,53,23,29,14,16,0.9,0.9
2022-12-26T05:00:00,1805A,115.9877,29.7295,九江市,西园,细颗粒物(PM2.5),67,53,58,48,47,67,44,50,47,30,32,11,11,0.7,0.7
2022-12-26T05:00:00,1806A,116.0172,29.6547,九江市,五七二七厂,细颗粒物(PM2.5),54,54,59,38,38,76,60,59,59,19,25,12,14,0.7,0.6
2022-12-26T05:00:00,1808A,115.9114,29.6038,九江市,综合工业园,细颗粒物(PM2.5),64,64,67,46,50,63,52,54,53,30,43,11,12,0.6,0.7
2022-12-26T05:00:00,1809A,116.0721,29.7535,九江市,石化总厂,细颗粒物(PM2.5),64,61,65,46,44,71,48,55,51,28,30,14,14,0.8,0.8
2022-12-26T05:00:00,1810A,115.9773,29.5698,九江市,庐山气象台(对照点),,28,19,21,12,15,97,88,94,92,13,17,7,8,0.6,0.7
2022-12-26T05:00:00,1812A,112.3931,34.6516,洛阳市,市委党校,颗粒物(PM10),52,53,100,32,68,39,34,34,34,13,34,6,9,0.6,0.8
2022-12-26T05:00:00,1814A,112.4657,34.6871,洛阳市,豫西宾馆,细颗粒物(PM2.5),57,44,103,40,75,36,35,29,29,13,39,6,9,0.8,0.9
2022-12-26T05:00:00,1815A,112.494,34.6886,洛阳市,河南林校,细颗粒物(PM2.5),55,51,100,39,75,46,34,28,28,16,38,3,4,0.5,0.8
2022-12-26T05:00:00,1816A,112.3844,34.623,洛阳市,开发区管委会,细颗粒物(PM2.5),54,47,97,38,74,47,37,37,37,13,33,4,7,0.3,0.6
2022-12-26T05:00:00,1817A,112.4267,34.6258,洛阳市,市委新办公区,细颗粒物(PM2.5),59,46,98,42,77,56,21,23,22,17,34,3,6,0.5,0.8
2022-12-26T05:00:00,1818A,114.4839,36.0621,安阳市,棉研所(对照点),,,,,,,,,,,,,,,,
2022-12-26T05:00:00,1819A,114.3551,36.1017,安阳市,红庙街,细颗粒物(PM2.5),152,147,109,116,80,47,2,4,4,54,53,8,10,1.2,1
2022-12-26T05:00:00,1820A,114.361,36.0681,安阳市,银杏小区,细颗粒物(PM2.5),189,138,110,142,90,57,7,8,8,50,53,7,16,1.0,1.1
2022-12-26T05:00:00,1824A,114.3389,34.7781,开封市,肿瘤医院,细颗粒物(PM2.5),129,129,100,98,66,66,26,31,23,22,34,3,6,1.3,1.2
2022-12-26T05:00:00,1826A,114.2885,34.7965,开封市,世纪星幼儿园,细颗粒物(PM2.5),178,101,79,134,82,72,19,31,21,31,38,4,6,0.7,0.9
2022-12-26T05:00:00,1828A,113.227,35.2125,焦作市,市环保局,细颗粒物(PM2.5),156,166,124,119,86,29,4,2,2,47,45,7,13,1.3,1.2
2022-12-26T05:00:00,1830A,113.1992,35.2590,焦作市,影视城(对照点),,,,,,,,,,,,,,,,
2022-12-26T05:00:00,1832A,113.3257,33.742,平顶山市,新华旅馆,细颗粒物(PM2.5),99,96,142,74,92,45,37,36,36,18,39,7,18,0.5,0.6
2022-12-26T05:00:00,1833A,113.2919,33.737,平顶山市,规划设计院,细颗粒物(PM2.5),89,66,106,66,85,51,30,33,32,19,32,8,13,0.8,1
2022-12-26T05:00:00,1834A,113.182,33.774,平顶山市,平顶山工学院,细颗粒物(PM2.5),77,56,87,56,71,54,45,39,39,21,39,2,7,0.5,0.6
2022-12-26T05:00:00,1835A,111.1922,34.7752,三门峡市,市政府,细颗粒物(PM2.5),64,34,66,46,75,45,20,24,23,15,34,5,10,0.7,0.8
2022-12-26T05:00:00,1836A,111.1587,34.7942,三门峡市,开发区,细颗粒物(PM2.5),70,53,92,51,68,37,14,24,19,13,28,3,7,0.6,0.7
2022-12-26T05:00:00,1838A,111.143,34.7955,三门峡市,风景区(对照点),,,,,,,,,,,,,,,,
2022-12-26T05:00:00,1840A,111.2992,30.6981,宜昌市,白龙岗,细颗粒物(PM2.5),70,68,109,51,82,84,65,80,76,22,34,5,8,0.6,0.8
2022-12-26T05:00:00,1841A,111.3549,30.6465,宜昌市,伍家岗,细颗粒物(PM2.5),94,71,119,70,89,76,29,72,51,24,39,1,5,0.7,0.8
2022-12-26T05:00:00,1842A,111.2628,30.6961,宜昌市,点军区,细颗粒物(PM2.5),70,66,119,51,88,75,40,58,50,14,25,5,7,0.6,0.8
2022-12-26T05:00:00,1843A,111.3275,30.7819,宜昌市,夷陵区,细颗粒物(PM2.5),77,70,105,56,93,76,42,50,42,14,33,5,7,0.5,0.7
2022-12-26T05:00:00,1844A,112.2494,30.3197,荆州市,市图书馆,细颗粒物(PM2.5),88,71,102,65,83,72,53,58,57,18,29,4,9,0.6,0.7
2022-12-26T05:00:00,1845A,112.2008,30.3544,荆州市,市委党校,细颗粒物(PM2.5),95,59,98,71,78,70,52,60,57,20,27,5,8,0.8,0.9
2022-12-26T05:00:00,1847A,113.1094,29.3578,岳阳市,南湖风景区,细颗粒物(PM2.5),105,95,94,79,69,75,49,44,44,22,40,9,12,0.5,0.7
2022-12-26T05:00:00,1848A,113.1493,29.4251,岳阳市,城陵矶,细颗粒物(PM2.5),93,88,100,69,66,68,48,38,38,20,41,10,13,0.7,0.9
2022-12-26T05:00:00,1849A,113.1497,29.3575,岳阳市,开发区,细颗粒物(PM2.5),94,95,102,70,80,60,41,33,33,19,41,10,15,0.8,0.9
2022-12-26T05:00:00,1850A,113.2621,29.4758,岳阳市,云溪区,细颗粒物(PM2.5),97,100,100,72,66,71,54,47,46,16,37,9,14,0.6,0.8
2022-12-26T05:00:00,1851A,112.9943,29.4402,岳阳市,君山区,细颗粒物(PM2.5),77,74,95,56,72,70,49,44,44,21,32,10,12,0.4,0.6
2022-12-26T05:00:00,1852A,113.2117,29.355,岳阳市,金凤水库(对照点),细颗粒物(PM2.5),122,127,98,92,64,70,38,38,37,16,26,14,16,0.8,0.8
2022-12-26T05:00:00,1854A,111.6975,28.9703,常德市,市二中,细颗粒物(PM2.5),93,73,117,69,98,71,68,68,68,10,25,4,9,0.4,0.6
2022-12-26T05:00:00,1857A,111.7158,29.1456,常德市,白鹤山(对照点),细颗粒物(PM2.5),80,42,95,59,76,72,61,72,67,8,19,3,9,0.4,0.5
2022-12-26T05:00:00,1858A,110.5319,29.1217,张家界市,永定新区,细颗粒物(PM2.5),108,103,125,81,93,70,56,66,64,23,31,9,13,0.6,0.7
2022-12-26T05:00:00,1859A,110.4697,29.1242,张家界市,电业局,细颗粒物(PM2.5),102,95,106,76,78,73,58,70,66,15,24,9,13,0.6,0.7
2022-12-26T05:00:00,1860A,110.5594,29.3547,张家界市,未央路,细颗粒物(PM2.5),90,104,140,67,93,70,65,69,68,12,16,5,6,0.8,1
2022-12-26T05:00:00,1861A,110.4417,29.315,张家界市,袁家界(对照点),细颗粒物(PM2.5),89,88,94,66,67,108,74,80,77,11,13,10,15,0.8,0.8
2022-12-26T05:00:00,1862A,110.4144,25.3167,桂林市,电子科大尧山校区(对照点),细颗粒物(PM2.5),67,68,66,48,44,121,81,94,90,6,6,16,14,0.7,0.6
2022-12-26T05:00:00,1863A,110.2819,25.2697,桂林市,监测站,细颗粒物(PM2.5),67,66,82,48,52,125,84,81,81,12,26,21,14,0.5,0.7
2022-12-26T05:00:00,1864A,110.3089,25.2708,桂林市,龙隐路小学,细颗粒物(PM2.5),65,60,71,47,51,116,78,78,78,15,22,18,17,0.6,0.6
2022-12-26T05:00:00,1865A,110.2869,25.2178,桂林市,八中,细颗粒物(PM2.5),64,57,84,46,59,116,76,71,71,11,29,18,13,0.4,0.6
2022-12-26T05:00:00,1866A,109.2262,21.588,北海市,牛尾岭水库(对照点),细颗粒物(PM2.5),55,51,49,39,37,117,75,83,78,19,18,22,15,0.5,0.5
2022-12-26T05:00:00,1867A,109.1436,21.4086,北海市,海滩公园,颗粒物(PM10),54,58,53,29,27,161,80,129,106,15,12,13,12,0.5,0.6
2022-12-26T05:00:00,1868A,109.0981,21.4661,北海市,新市环保局,颗粒物(PM10),53,55,48,36,32,149,87,125,104,20,21,18,11,0.3,0.3
2022-12-26T05:00:00,1869A,109.1778,21.5233,北海市,北海工业园,细颗粒物(PM2.5),59,61,60,42,35,148,74,105,82,24,23,15,15,0.5,0.4
2022-12-26T05:00:00,1870A,109.4856,24.3895,柳州市,柳东小学,细颗粒物(PM2.5),94,91,88,70,65,121,70,54,54,23,35,25,19,0.6,0.7
2022-12-26T05:00:00,1871A,109.4157,24.3277,柳州市,环保监测站,细颗粒物(PM2.5),98,95,84,73,63,114,28,31,29,40,43,12,11,0.9,0.9
2022-12-26T05:00:00,1872A,109.389,24.341,柳州市,河西水厂,细颗粒物(PM2.5),87,109,106,64,60,119,26,13,13,38,50,14,16,0.9,1.1
2022-12-26T05:00:00,1873A,109.4311,24.2921,柳州市,市四中,细颗粒物(PM2.5),80,68,88,59,62,122,40,41,41,31,47,16,15,0.8,1.1
2022-12-26T05:00:00,1874A,109.4006,24.3631,柳州市,市九中,细颗粒物(PM2.5),83,89,96,61,62,110,38,37,35,36,42,17,15,0.8,0.9
2022-12-26T05:00:00,1875A,109.4958,24.3134,柳州市,古亭山,,39,39,62,27,39,121,47,50,47,18,31,15,14,0.6,0.7
2022-12-26T05:00:00,1876A,109.5078,18.2489,三亚市,河东子站,,31,31,34,12,13,106,88,104,97,5,6,3,2,0.4,0.4
2022-12-26T05:00:00,1877A,109.4964,18.2681,三亚市,河西子站,,28,28,32,14,13,104,79,87,82,5,7,2,3,0.3,0.3
2022-12-26T05:00:00,1878A,104.7778,31.4741,绵阳市,富乐山,颗粒物(PM10),60,69,59,40,39,89,2,4,3,46,27,3,3,0.6,0.6
2022-12-26T05:00:00,1879A,104.7563,31.4535,绵阳市,市人大,细颗粒物(PM2.5),69,79,64,50,38,82,1,1,1,45,34,7,4,0.7,0.7
2022-12-26T05:00:00,1880A,104.6697,31.4668,绵阳市,高新区自来水公司,颗粒物(PM10),75,100,76,39,42,94,16,10,10,30,29,4,5,0.9,0.8
2022-12-26T05:00:00,1881A,104.7287,31.5075,绵阳市,三水厂,颗粒物(PM10),60,70,71,42,44,89,0,1,0,38,30,2,3,0.8,0.7
2022-12-26T05:00:00,1882A,104.563,28.793,宜宾市,石马中学(对照点),,32,29,94,22,81,51,35,45,42,8,17,4,6,0.6,0.7
2022-12-26T05:00:00,1883A,104.6201,28.7728,宜宾市,市委,,,31,97,23,78,50,41,48,46,19,26,7,9,,
2022-12-26T05:00:00,1884A,104.6055,28.793,宜宾市,宜宾四中,,38,31,97,26,84,59,46,49,48,18,26,7,8,0.4,0.6
2022-12-26T05:00:00,1885A,104.639,28.7562,宜宾市,市政府,,36,29,94,25,81,60,49,51,51,15,24,7,8,0.4,0.6
2022-12-26T05:00:00,1886A,104.5742,28.7199,宜宾市,黄金嘴,,35,30,92,24,77,64,44,54,51,16,14,7,9,0.5,0.7
2022-12-26T05:00:00,1888A,101.6891,26.571,攀枝花市,弄弄坪,细颗粒物(PM2.5),109,137,80,82,53,102,3,7,5,53,43,84,51,6.6,3.8
2022-12-26T05:00:00,1889A,101.5769,26.5928,攀枝花市,河门口,,41,41,49,22,34,101,14,17,14,39,33,13,21,1.2,1.5
2022-12-26T05:00:00,1890A,101.7169,26.585,攀枝花市,炳草岗,颗粒物(PM10),67,83,67,41,41,95,2,8,4,48,45,12,26,2.0,1.9
2022-12-26T05:00:00,1891A,101.7369,26.5008,攀枝花市,仁和,,27,27,53,18,34,98,40,42,42,13,26,8,23,0.5,1.8
2022-12-26T05:00:00,1893A,105.4324,28.9634,泸州市,九狮山(对照点),,40,23,72,28,69,51,30,29,29,9,14,8,8,0.3,0.4
2022-12-26T05:00:00,1894A,105.4427,28.9063,泸州市,小市上码头,,40,39,98,28,73,40,32,30,30,8,21,4,6,0.0,0.3
2022-12-26T05:00:00,1895A,105.4241,28.8573,泸州市,兰田宪桥,,50,38,99,35,79,57,43,40,40,10,19,8,10,0.4,0.6
2022-12-26T05:00:00,1896A,105.4379,28.8833,泸州市,市环监站,,35,7,40,24,31,45,45,43,43,8,11,4,3,0.5,0.5
2022-12-26T05:00:00,1901A,104.4239,31.1208,德阳市,东山公园,细颗粒物(PM2.5),68,76,67,49,43,87,5,18,11,45,29,3,2,0.7,0.5
2022-12-26T05:00:00,1902A,104.3826,31.1317,德阳市,西小区,"颗粒物(PM10),细颗粒物(PM2.5)",62,73,73,44,45,81,3,10,6,46,30,2,2,0.8,0.7
2022-12-26T05:00:00,1904A,104.3553,31.1091,德阳市,耐火材料厂,颗粒物(PM10),71,92,82,47,49,84,4,7,5,41,29,2,2,0.7,0.6
2022-12-26T05:00:00,1905A,106.056,30.8064,南充市,西山风景区(对照点),,,,52,22,36,64,57,50,50,6,9,2,3,0.6,0.8
2022-12-26T05:00:00,1906A,106.0789,30.8023,南充市,南充市委,,42,42,57,21,39,50,11,26,21,21,24,4,5,0.4,0.6
2022-12-26T05:00:00,1907A,106.1031,30.8217,南充市,南充炼油厂,,41,41,52,20,38,61,20,39,34,15,10,6,7,0.4,0.5
2022-12-26T05:00:00,1908A,106.1064,30.7856,南充市,高坪区监测站,,45,45,56,26,42,54,27,39,36,20,17,7,8,0.4,0.5
2022-12-26T05:00:00,1909A,106.0642,30.7636,南充市,嘉陵区环保局,,38,38,51,22,35,55,16,41,30,28,21,6,6,0.5,0.6
2022-12-26T05:00:00,1910A,106.1087,30.8388,南充市,市环境监测站,颗粒物(PM10),51,51,58,34,40,56,26,34,32,17,11,7,8,0.6,0.7
2022-12-26T05:00:00,1911A,106.9222,27.6869,遵义市,丁字口,"颗粒物(PM10),细颗粒物(PM2.5)",54,57,60,38,42,96,72,70,70,15,22,9,18,0.7,0.7
2022-12-26T05:00:00,1912A,106.9242,27.7019,遵义市,凤凰山,,36,36,57,16,30,101,71,64,64,14,19,5,11,0.7,0.7
2022-12-26T05:00:00,1913A,106.8906,27.6486,遵义市,忠庄,细颗粒物(PM2.5),59,41,56,42,43,92,64,71,69,12,18,2,7,0.7,0.7
2022-12-26T05:00:00,1914A,106.9231,27.6506,遵义市,舟水桥,细颗粒物(PM2.5),65,53,64,47,43,87,67,61,61,8,16,4,12,0.4,0.4
2022-12-26T05:00:00,1915A,106.9178,27.72,遵义市,干田坝,,46,37,54,32,36,90,64,60,60,14,18,8,13,0.7,0.6
2022-12-26T05:00:00,1916A,103.7897,25.5035,曲靖市,环境监测站,,38,34,42,26,29,81,33,36,35,17,15,2,3,0.4,0.4
2022-12-26T05:00:00,1917A,103.8,25.5364,曲靖市,烟厂办公区,,40,15,32,28,24,53,42,44,42,11,15,6,6,0.7,0.8
2022-12-26T05:00:00,1918A,108.7197,34.3956,咸阳市,气象站(对照点),细颗粒物(PM2.5),82,54,61,60,40,42,3,20,14,40,22,8,8,1.1,0.9
2022-12-26T05:00:00,1919A,108.673,34.3155,咸阳市,实验中学,,49,43,58,34,39,52,6,36,24,34,22,3,4,0.8,0.6
2022-12-26T05:00:00,1920A,108.7233,34.3617,咸阳市,师范学院,细颗粒物(PM2.5),77,53,60,56,44,57,12,39,34,33,15,6,6,1.0,0.9
2022-12-26T05:00:00,1922A,109.0656,35.0994,铜川市,党校(对照点),,40,40,72,16,37,71,35,26,26,15,35,9,12,0.8,1
2022-12-26T05:00:00,1923A,109.0697,35.0697,铜川市,王益区政府,,50,50,78,26,62,65,26,30,27,16,28,5,8,0.5,0.8
2022-12-26T05:00:00,1924A,108.9344,34.9058,铜川市,新区管委会,,39,38,92,27,80,59,46,45,37,4,26,6,10,0.5,0.9
2022-12-26T05:00:00,1926A,109.4131,36.6275,延安市,枣园(对照点),,42,42,43,20,24,80,21,20,20,20,26,3,5,0.6,0.5
2022-12-26T05:00:00,1927A,109.4761,36.6028,延安市,延大医附院,,30,30,42,19,25,75,15,13,13,26,32,5,7,1.2,1
2022-12-26T05:00:00,1929A,109.5056,36.6106,延安市,百米大道,,40,40,52,24,27,77,16,19,19,38,32,6,9,0.6,0.5
2022-12-26T05:00:00,1930A,107.185,34.3063,宝鸡市,庙沟村(对照点),,26,26,35,15,22,74,38,37,37,16,15,3,4,0.7,0.7
2022-12-26T05:00:00,1931A,107.0708,34.3017,宝鸡市,竹园沟,,22,22,37,15,22,82,30,31,31,14,14,3,4,0.6,0.6
2022-12-26T05:00:00,1932A,107.1906,34.3672,宝鸡市,三陆医院,,36,32,56,25,35,76,31,33,30,18,28,6,7,0.9,0.8
2022-12-26T05:00:00,1933A,107.1431,34.3547,宝鸡市,监测站,,27,27,46,16,26,79,26,29,27,22,22,4,4,0.6,0.6
2022-12-26T05:00:00,1934A,107.1186,34.3739,宝鸡市,技工学校,,33,27,44,23,29,73,33,35,33,10,16,2,4,0.4,0.5
2022-12-26T05:00:00,1935A,107.3906,34.3528,宝鸡市,陈仓区环保局家属楼,细颗粒物(PM2.5),57,56,60,40,39,64,18,16,16,31,29,9,8,0.8,0.7
2022-12-26T05:00:00,1936A,107.2058,34.3497,宝鸡市,文理学院,,37,37,51,25,27,78,27,28,27,17,20,6,7,0.5,0.5
2022-12-26T05:00:00,1937A,107.2386,34.3622,宝鸡市,三迪小学,,46,46,55,26,30,71,32,31,31,12,21,6,7,0.5,0.5
2022-12-26T05:00:00,1938A,109.5293,34.5101,渭南市,农科所(对照点),,35,24,64,24,54,50,30,50,42,26,32,5,6,0.6,0.8
2022-12-26T05:00:00,1939A,109.4974,34.4877,渭南市,日报社,,38,29,61,26,52,40,36,38,33,22,34,13,9,0.4,0.6
2022-12-26T05:00:00,1940A,109.4636,34.493,渭南市,体育馆,,31,31,65,20,52,32,15,28,23,37,40,6,6,0.5,0.6
2022-12-26T05:00:00,1941A,109.4259,34.5023,渭南市,高新一小,颗粒物(PM10),54,57,68,32,55,48,14,37,26,37,35,6,8,0.7,0.8
2022-12-26T05:00:00,1943A,102.1725,38.5339,金昌市,新川苑,颗粒物(PM10),66,82,88,37,26,87,41,49,47,18,24,8,38,1.0,0.9
2022-12-26T05:00:00,1944A,102.1692,38.5167,金昌市,天庆家园,,48,48,80,19,33,91,39,37,37,21,30,10,43,1.1,1
2022-12-26T05:00:00,1945A,98.2908,39.7711,嘉峪关市,气象局,,27,27,52,12,20,89,54,54,54,20,28,15,12,0.2,0.3
2022-12-26T05:00:00,1947A,106.3394,38.817,石嘴山市,沙湖旅游区(对照点),颗粒物(PM10),59,68,63,24,26,91,30,39,28,35,27,6,11,0.9,0.8
2022-12-26T05:00:00,1948A,106.3668,39.0145,石嘴山市,大武口朝阳西街,颗粒物(PM10),60,70,59,25,22,81,9,25,19,57,31,23,15,0.5,0.5
2022-12-26T05:00:00,1949A,106.7704,39.2282,石嘴山市,惠农南大街,,42,42,55,14,20,76,21,8,8,36,35,13,21,0.4,0.7
2022-12-26T05:00:00,1950A,106.7099,39.1325,石嘴山市,红果子镇惠新街,,44,44,46,13,16,83,25,25,24,28,30,8,44,0.1,0.3
2022-12-26T05:00:00,1951A,84.895,45.6094,克拉玛依市,长征新村,,39,39,39,19,31,72,24,30,26,44,32,6,7,0.5,0.4
2022-12-26T05:00:00,1952A,84.8988,45.5893,克拉玛依市,南林小区,,33,33,41,21,31,72,20,20,20,38,26,5,6,0.5,0.4
2022-12-26T05:00:00,1954A,84.905,44.3396,克拉玛依市,独山子区,细颗粒物(PM2.5),107,81,138,80,102,69,68,42,42,14,50,6,6,0.6,0.7
2022-12-26T05:00:00,1955A,85.6979,46.098,克拉玛依市,乌尔禾区商贸楼,,30,25,27,19,23,64,3,17,8,60,28,3,2,1.1,0.7
2022-12-26T05:00:00,1956A,86.1472,41.7538,巴音郭楞州,孔雀公园,颗粒物(PM10),91,132,119,30,33,90,1,2,1,65,48,9,10,0.8,0.7
2022-12-26T05:00:00,1957A,86.1972,41.7166,巴音郭楞州,棉纺厂,颗粒物(PM10),105,159,134,30,30,90,25,13,13,41,46,5,6,0.6,0.6
2022-12-26T05:00:00,1958A,86.2357,41.7173,巴音郭楞州,经济开发区,颗粒物(PM10),104,157,96,21,21,88,38,58,47,25,28,8,9,0.3,0.4
2022-12-26T05:00:00,1961A,117.532,36.6868,济南市,东山小学,颗粒物(PM10),59,68,63,39,32,68,6,6,5,57,42,11,11,0.5,0.5
2022-12-26T05:00:00,1966A,120.0405,35.8735,青岛市,黄岛区4号,颗粒物(PM10),51,51,70,34,48,65,36,28,28,39,52,13,17,1.0,1.2
2022-12-26T05:00:00,1982A,122.0693,37.2174,威海市,文登开发区,,24,24,25,14,14,74,60,63,62,14,15,4,5,0.4,0.4
2022-12-26T05:00:00,2031A,113.1817,27.9958,株洲市,云田中学,细颗粒物(PM2.5),99,127,93,74,63,111,30,30,29,28,31,12,12,0.6,0.6
2022-12-26T05:00:00,2054A,114.1099,32.1059,信阳市,平桥分局,细颗粒物(PM2.5),55,49,84,39,64,67,53,61,58,19,30,8,11,0.6,0.8
2022-12-26T05:00:00,2064A,113.9956,32.1271,信阳市,南湾水厂,颗粒物(PM10),55,60,75,34,56,73,58,61,59,12,23,6,9,0.5,0.6
2022-12-26T05:00:00,2065A,114.0775,32.1195,信阳市,市酿酒公司,细颗粒物(PM2.5),55,43,78,39,60,70,58,63,62,14,31,7,10,0.7,0.9
2022-12-26T05:00:00,2066A,114.0609,32.1399,信阳市,审计局,细颗粒物(PM2.5),60,47,77,43,59,71,53,64,60,13,30,8,11,0.6,0.7
2022-12-26T05:00:00,2067A,114.6613,33.6128,周口市,市环境监测站,细颗粒物(PM2.5),105,78,60,79,51,77,40,48,47,24,26,4,6,0.6,0.6
2022-12-26T05:00:00,2068A,114.6758,33.6347,周口市,周口师范,细颗粒物(PM2.5),118,67,60,89,56,79,46,52,51,22,28,5,8,0.8,0.7
2022-12-26T05:00:00,2069A,114.6546,33.5979,周口市,市运管处,细颗粒物(PM2.5),112,75,65,84,53,84,44,48,47,20,28,4,7,0.7,0.6
2022-12-26T05:00:00,2070A,114.6369,33.6406,周口市,川汇区环保局,细颗粒物(PM2.5),119,78,64,90,58,77,45,47,44,26,38,2,4,0.6,0.6
2022-12-26T05:00:00,2075A,117.6336,24.4674,漳州市,九湖(对照点),,,,,,,,,,,,,,,,
2022-12-26T05:00:00,2160A,112.85,35.5051,晋城市,自来水公司,颗粒物(PM10),54,57,104,27,68,48,44,43,43,24,37,5,14,0.6,1.6
2022-12-26T05:00:00,2161A,112.8318,35.4936,晋城市,白云商贸,,50,50,98,34,61,51,49,47,47,25,42,7,14,0.8,1.6
2022-12-26T05:00:00,2162A,112.8508,35.4887,晋城市,市环保局,颗粒物(PM10),58,65,103,29,67,49,45,44,44,25,44,11,18,0.7,1.4
2022-12-26T05:00:00,2163A,112.8676,35.4897,晋城市,技术学院,颗粒物(PM10),56,61,91,34,69,46,44,42,42,20,39,6,14,0.8,1.5
2022-12-26T05:00:00,2165A,112.8453,35.546,晋城市,白马寺 (对照点),,,,,,,,,,,,,,,,
2022-12-26T05:00:00,2166A,112.4397,39.3522,朔州市,平朔,颗粒物(PM10),78,105,111,24,42,53,10,20,16,47,41,21,29,0.6,0.7
2022-12-26T05:00:00,2167A,112.4575,39.3617,朔州市,朔唯,颗粒物(PM10),70,90,136,25,49,51,7,14,13,52,46,26,32,0.6,0.7
2022-12-26T05:00:00,2168A,112.4258,39.3197,朔州市,区政府,颗粒物(PM10),60,70,97,21,42,62,20,21,20,40,39,13,22,0.8,0.9
2022-12-26T05:00:00,2169A,112.4072,39.3278,朔州市,市环保局,颗粒物(PM10),68,85,91,27,40,58,21,20,17,36,38,15,20,0.6,0.6
2022-12-26T05:00:00,2170A,112.4272,39.3681,朔州市,市二中,颗粒物(PM10),69,87,126,26,45,53,7,18,14,46,40,38,36,0.8,0.9
2022-12-26T05:00:00,2171A,112.7532,37.6945,晋中市,锦纶小区,颗粒物(PM10),60,70,90,37,52,58,10,55,34,44,47,10,27,0.6,1
2022-12-26T05:00:00,2173A,112.7249,37.7067,晋中市,南都小区,颗粒物(PM10),59,68,90,26,46,54,14,50,40,48,49,10,27,0.5,0.9
2022-12-26T05:00:00,2174A,112.6991,37.6982,晋中市,榆次区政府,颗粒物(PM10),55,59,90,24,44,55,18,53,41,42,43,15,26,0.6,0.9
2022-12-26T05:00:00,2175A,110.9956,35.0147,运城市,运城中学,细颗粒物(PM2.5),57,50,98,40,67,51,42,39,39,14,25,5,9,0.6,0.9
2022-12-26T05:00:00,2178A,110.9686,35.0303,运城市,地区技校,细颗粒物(PM2.5),63,52,97,45,68,42,34,26,26,10,22,7,12,0.4,0.8
2022-12-26T05:00:00,2179A,111.0414,35.1147,运城市,空港新区,细颗粒物(PM2.5),79,58,112,58,75,50,36,32,32,11,24,6,12,0.4,0.8
2022-12-26T05:00:00,2181A,112.7383,38.4519,忻州市,开发区,颗粒物(PM10),59,67,105,37,63,22,8,7,7,37,44,8,24,0.9,1.1
2022-12-26T05:00:00,2182A,112.7003,38.4928,忻州市,会展中心,颗粒物(PM10),57,64,97,30,59,17,12,9,9,43,53,8,18,0.9,0.9
2022-12-26T05:00:00,2183A,111.1406,37.5211,吕梁市,环保局,颗粒物(PM10),53,55,74,14,22,61,17,6,6,31,38,3,7,0.2,0.4
2022-12-26T05:00:00,2185A,111.1297,37.5136,吕梁市,自来水公司,颗粒物(PM10),65,79,83,22,27,58,2,2,2,42,37,9,8,0.5,0.5
2022-12-26T05:00:00,2187A,106.8174,39.6973,乌海市,市林业局,,44,44,43,19,22,85,11,22,19,50,25,11,13,0.9,0.7
2022-12-26T05:00:00,2188A,106.7907,39.6667,乌海市,中海勃湾学校,,48,48,36,14,19,86,36,51,23,32,19,11,10,0.7,0.4
2022-12-26T05:00:00,2191A,122.2532,43.6801,通辽市,艺术职业学校,细颗粒物(PM2.5),196,185,90,147,66,67,7,8,8,71,41,20,12,2.4,1
2022-12-26T05:00:00,2192A,119.7594,49.2261,呼伦贝尔市,区环保局,细颗粒物(PM2.5),59,57,65,42,51,20,8,8,8,47,43,6,6,0.5,0.8
2022-12-26T05:00:00,2195A,107.4212,40.761,巴彦淖尔市,附二中,,40,40,41,14,16,82,39,41,33,20,13,5,5,0.5,0.4
2022-12-26T05:00:00,2196A,107.37,40.7372,巴彦淖尔市,市环保大楼,,36,36,36,23,24,82,51,27,27,16,19,5,6,0.6,0.6
2022-12-26T05:00:00,2197A,113.1306,40.9923,乌兰察布市,集宁新区,,35,35,43,6,18,70,32,40,32,19,24,10,16,0.5,0.5
2022-12-26T05:00:00,2200A,122.0392,46.0656,兴安盟,胜华新制药厂,细颗粒物(PM2.5),59,50,60,42,49,69,15,10,10,28,35,3,7,0.9,0.9
2022-12-26T05:00:00,2201A,121.9504,46.0741,兴安盟,科右前旗环保局,细颗粒物(PM2.5),70,57,54,51,46,73,7,16,14,38,36,5,4,1.6,1
2022-12-26T05:00:00,2202A,116.1042,43.9317,锡林郭勒盟,市环保监测站,,42,42,50,11,10,66,56,55,55,3,5,7,8,0.2,0.3
2022-12-26T05:00:00,2203A,116.0781,43.9311,锡林郭勒盟,市政府,颗粒物(PM10),54,57,52,2,8,66,56,56,56,2,7,11,11,0.2,0.2
2022-12-26T05:00:00,2204A,105.6467,38.8363,阿拉善盟,西城区西花园(对照点),,23,23,38,9,17,88,65,70,68,11,15,6,6,0.4,0.5
2022-12-26T05:00:00,2205A,105.6985,38.8411,阿拉善盟,蒙二幼,,30,11,25,21,23,88,72,70,68,6,13,11,11,0.4,0.4
2022-12-26T05:00:00,2206A,105.724,38.8516,阿拉善盟,环保局新楼,,29,25,28,20,19,92,92,89,89,4,8,10,10,0.5,0.5
2022-12-26T05:00:00,2207A,121.6094,41.998,阜新市,工业园区,颗粒物(PM10),74,97,95,24,44,70,4,6,5,28,29,10,19,1.6,1.1
2022-12-26T05:00:00,2208A,121.6697,42.0279,阜新市,长青街,颗粒物(PM10),61,71,55,36,26,63,8,10,10,36,28,19,12,5.3,2.2
2022-12-26T05:00:00,2209A,121.6673,42.0705,阜新市,农业园区,,,134,45,,22,66,13,54,27,44,15,93,34,1.7,0.7
2022-12-26T05:00:00,2210A,121.6717,42.0224,阜新市,东苑,颗粒物(PM10),62,73,67,34,30,69,12,13,12,32,26,30,25,6.0,2.5
2022-12-26T05:00:00,2211A,121.6506,42.0498,阜新市,玉龙新城,颗粒物(PM10),51,51,57,27,34,71,9,9,9,32,29,13,11,1.7,1.3
2022-12-26T05:00:00,2212A,123.2,41.1953,辽阳市,宏伟区,细颗粒物(PM2.5),120,113,83,91,64,46,4,6,5,49,46,10,21,2.1,1.2
2022-12-26T05:00:00,2213A,123.1683,41.2495,辽阳市,新华园,细颗粒物(PM2.5),105,96,91,79,83,45,5,8,7,55,46,31,23,1.8,1.8
2022-12-26T05:00:00,2214A,123.2354,41.2639,辽阳市,滨河路,细颗粒物(PM2.5),148,110,91,113,88,51,5,6,5,49,46,16,20,1.6,1.3
2022-12-26T05:00:00,2215A,123.149,41.2991,辽阳市,铁西工业园,细颗粒物(PM2.5),238,153,114,188,118,48,7,10,7,52,50,9,15,3.3,1.8
2022-12-26T05:00:00,2216A,123.8139,42.3022,铁岭市,汇工街西,细颗粒物(PM2.5),85,62,96,63,98,66,5,6,6,49,48,13,22,1.2,1.3
2022-12-26T05:00:00,2217A,123.8649,42.2923,铁岭市,水上乐园,细颗粒物(PM2.5),85,67,84,63,73,61,16,24,22,36,35,5,10,0.7,0.6
2022-12-26T05:00:00,2218A,123.8486,42.2867,铁岭市,银州路东段,细颗粒物(PM2.5),80,80,86,59,64,60,27,19,19,26,34,4,6,1.0,0.9
2022-12-26T05:00:00,2219A,123.7153,42.2217,铁岭市,金沙江路北,细颗粒物(PM2.5),163,130,97,124,87,56,10,10,10,55,52,6,8,1.6,1.1
2022-12-26T05:00:00,2220A,120.4318,41.5881,朝阳市,西梁,细颗粒物(PM2.5),85,102,97,63,53,62,6,6,6,41,43,23,27,2.4,1.9
2022-12-26T05:00:00,2221A,120.4521,41.5646,朝阳市,河畔小区,颗粒物(PM10),67,83,78,46,54,55,7,6,6,37,36,20,19,1.6,1.4
2022-12-26T05:00:00,2222A,120.4176,41.5648,朝阳市,八里堡,细颗粒物(PM2.5),72,86,93,52,54,56,4,5,4,41,46,20,26,1.9,1.8
2022-12-26T05:00:00,2223A,120.3806,41.5969,朝阳市,农业园区,细颗粒物(PM2.5),93,99,90,69,49,58,8,10,9,46,48,17,22,2.1,1.6
2022-12-26T05:00:00,2225A,124.4002,43.1713,四平市,一商场,细颗粒物(PM2.5),69,56,86,50,76,58,7,11,9,47,47,8,11,0.6,0.9
2022-12-26T05:00:00,2226A,124.388,43.193,四平市,境园,,45,45,94,18,67,65,8,7,7,40,38,8,13,0.5,0.9
2022-12-26T05:00:00,2227A,125.1358,42.8845,辽源市,环保局,细颗粒物(PM2.5),97,90,97,72,81,73,16,19,15,39,39,7,11,1.3,1.4
2022-12-26T05:00:00,2229A,125.9358,41.7173,通化市,光明,,35,35,38,22,28,62,12,23,18,42,35,15,23,0.9,0.7
2022-12-26T05:00:00,2230A,125.9446,41.7325,通化市,铁路,,22,22,43,13,28,69,16,21,18,40,37,15,25,0.9,0.9
2022-12-26T05:00:00,2231A,126.4219,41.9171,白山市,喜丰,颗粒物(PM10),55,60,68,25,40,53,25,32,27,28,28,14,16,0.6,0.7
2022-12-26T05:00:00,2232A,126.4077,41.9419,白山市,环保局,颗粒物(PM10),64,78,78,36,42,51,36,37,37,19,23,16,16,0.7,1
2022-12-26T05:00:00,2233A,124.8006,45.1214,松原市,江南,颗粒物(PM10),53,55,38,36,31,57,3,6,5,41,26,10,10,0.9,0.8
2022-12-26T05:00:00,2234A,124.7965,45.1722,松原市,江北,,44,44,32,30,22,63,5,20,12,50,25,4,5,0.9,0.6
2022-12-26T05:00:00,2235A,122.7911,45.6077,白城市,洮北区环保局,,43,37,45,30,32,71,52,42,42,19,24,6,7,0.3,0.4
2022-12-26T05:00:00,2236A,122.8738,45.5725,白城市,市环保局,,46,46,40,22,15,72,12,14,14,43,28,5,6,0.7,0.5
2022-12-26T05:00:00,2237A,129.47,42.8883,延边朝鲜族自治州,妇幼医院,,48,31,25,33,25,68,51,55,54,19,17,24,14,0.6,0.6
2022-12-26T05:00:00,2238A,129.5055,42.9108,延边朝鲜族自治州,延边医院,,48,38,24,33,25,70,61,64,63,12,11,8,7,0.6,0.6
2022-12-26T05:00:00,2239A,129.3964,42.8881,延边朝鲜族自治州,朝阳川镇医院,,39,31,24,27,20,67,52,54,53,13,9,8,7,0.7,0.6
2022-12-26T05:00:00,2240A,130.9762,45.3001,鸡西市,环保局,,30,25,24,21,20,62,56,59,58,11,15,4,6,0.3,0.3
2022-12-26T05:00:00,2243A,130.9429,45.3039,鸡西市,第一中学,,30,30,26,20,20,66,49,60,56,14,8,5,6,0.6,0.5
2022-12-26T05:00:00,2244A,130.2537,47.3416,鹤岗市,哈啤分公司,,26,23,18,18,15,67,61,64,62,7,6,8,9,0.4,0.2
2022-12-26T05:00:00,2245A,130.2684,47.3086,鹤岗市,斯达机电,,21,20,17,14,13,72,66,70,68,5,5,9,9,0.2,0.2
2022-12-26T05:00:00,2246A,130.3114,47.3388,鹤岗市,东山纸板厂,,29,20,23,20,15,69,58,62,60,11,7,13,10,1.1,0.4
2022-12-26T05:00:00,2247A,130.1097,47.3382,鹤岗市,五号水库(对照点),,19,14,16,11,13,71,60,58,58,4,4,5,6,0.4,0.3
2022-12-26T05:00:00,2248A,131.1511,46.6937,双鸭山市,双合村,细颗粒物(PM2.5),75,60,51,55,40,67,44,43,43,25,20,16,11,1.0,1.1
2022-12-26T05:00:00,2249A,131.1652,46.6191,双鸭山市,南小市,细颗粒物(PM2.5),58,41,42,41,36,68,59,62,61,13,16,12,14,0.8,0.7
2022-12-26T05:00:00,2250A,131.1524,46.6554,双鸭山市,环保局,细颗粒物(PM2.5),62,47,46,44,39,69,58,51,51,12,33,8,8,0.6,0.7
2022-12-26T05:00:00,2251A,131.12,46.5656,双鸭山市,苗圃(对照点),细颗粒物(PM2.5),58,45,43,41,41,57,55,57,55,16,14,8,7,0.5,0.5
2022-12-26T05:00:00,2252A,128.5159,47.4311,伊春市,环保局,,15,14,14,6,7,68,46,51,50,8,7,4,6,0.4,0.4
2022-12-26T05:00:00,2253A,128.9102,47.7412,伊春市,电力嘉园,,15,15,17,7,13,70,46,48,44,6,7,5,6,0.4,0.4
2022-12-26T05:00:00,2254A,129.5029,48.471,伊春市,汤旺河国家公园(对照点),,19,19,24,7,8,92,45,55,51,2,2,6,6,0.3,0.2
2022-12-26T05:00:00,2255A,130.2751,46.8028,佳木斯市,佳纺,细颗粒物(PM2.5),59,48,44,42,40,61,47,54,49,14,17,4,6,0.5,0.8
2022-12-26T05:00:00,2256A,130.3995,46.8307,佳木斯市,发电厂,细颗粒物(PM2.5),67,46,31,48,29,66,36,45,28,24,21,4,8,0.4,0.4
2022-12-26T05:00:00,2257A,130.3258,46.7975,佳木斯市,环保局,,35,28,34,24,33,59,44,49,48,19,30,6,8,0.3,0.4
2022-12-26T05:00:00,2258A,130.3648,46.8032,佳木斯市,十一中,,33,25,26,23,24,55,38,49,43,30,27,3,7,0.4,0.5
2022-12-26T05:00:00,2259A,130.3794,46.7588,佳木斯市,四丰(对照点),细颗粒物(PM2.5),59,48,29,42,23,80,65,70,67,18,11,1,1,0.5,0.3
2022-12-26T05:00:00,2262A,131.0518,45.8751,七台河市,新一中(对照点),,43,38,36,30,30,74,64,67,66,14,14,14,13,0.8,0.6
2022-12-26T05:00:00,2263A,127.4833,50.2524,黑河市,交通局,,19,7,9,13,10,69,58,61,59,1,2,5,5,0.4,0.4
2022-12-26T05:00:00,2264A,127.5144,50.2341,黑河市,环保局,,20,2,3,9,14,68,61,62,62,3,5,7,8,0.3,0.2
2022-12-26T05:00:00,2265A,127.5291,50.2472,黑河市,大黑河岛(对照点),,19,13,10,4,6,69,58,60,59,1,2,2,2,0.3,0.3
2022-12-26T05:00:00,2266A,126.9785,46.6365,绥化市,人和东街,细颗粒物(PM2.5),54,51,30,38,23,82,31,58,51,33,14,4,4,0.4,0.3
2022-12-26T05:00:00,2267A,126.964,46.6528,绥化市,党政办公中心,,45,36,28,31,26,81,45,60,56,20,12,4,4,0.5,0.4
2022-12-26T05:00:00,2269A,124.1069,50.4097,大兴安岭地区,科技局,,18,7,11,12,14,65,50,47,47,7,8,14,9,0.3,0.3
2022-12-26T05:00:00,2270A,117.396,32.939,蚌埠市,工人疗养院,细颗粒物(PM2.5),113,104,97,85,73,81,15,25,15,60,45,10,13,0.8,0.7
2022-12-26T05:00:00,2271A,117.3605,32.9427,蚌埠市,百货大楼,细颗粒物(PM2.5),119,102,91,90,73,79,8,10,6,68,54,16,17,0.9,0.8
2022-12-26T05:00:00,2273A,117.4185,32.8911,蚌埠市,蚌埠学院,细颗粒物(PM2.5),140,146,107,107,74,88,22,20,19,51,47,14,15,0.6,0.5
2022-12-26T05:00:00,2274A,117.3533,32.9673,蚌埠市,淮上区政府,细颗粒物(PM2.5),125,141,108,95,71,74,8,6,6,69,50,17,19,0.6,0.6
2022-12-26T05:00:00,2275A,117.3145,32.8977,蚌埠市,高新区,细颗粒物(PM2.5),149,141,97,114,74,82,6,10,8,67,51,11,15,0.7,0.5
2022-12-26T05:00:00,2277A,116.8305,32.7727,淮南市,潘集区政府,细颗粒物(PM2.5),124,125,118,94,94,82,55,29,29,12,35,4,10,0.5,0.6
2022-12-26T05:00:00,2278A,117.0067,32.6524,淮南市,师范学院,细颗粒物(PM2.5),130,145,130,99,93,79,22,14,13,40,41,11,13,0.8,0.8
2022-12-26T05:00:00,2279A,116.8569,32.5951,淮南市,谢家集区政府,细颗粒物(PM2.5),129,123,107,98,79,81,43,32,31,28,37,11,15,0.6,0.6
2022-12-26T05:00:00,2280A,116.8281,32.633,淮南市,八公山区政府,细颗粒物(PM2.5),100,83,84,75,87,75,46,37,37,13,29,7,16,0.5,0.5
2022-12-26T05:00:00,2281A,116.6325,32.6201,淮南市,焦岗湖风景区管理处(对照点),颗粒物(PM10),71,92,115,51,84,74,49,29,29,2,7,16,20,0.3,0.4
2022-12-26T05:00:00,2282A,116.8004,33.975,淮北市,监测站,细颗粒物(PM2.5),89,79,89,66,60,75,65,61,61,8,29,6,14,0.6,0.9
2022-12-26T05:00:00,2283A,116.8091,33.9007,淮北市,烈山区政府,细颗粒物(PM2.5),67,62,91,48,66,81,61,50,50,18,39,4,12,0.4,0.7
2022-12-26T05:00:00,2284A,116.7856,33.9477,淮北市,职业技术学院,细颗粒物(PM2.5),95,72,91,71,71,76,62,58,58,14,34,9,15,0.6,0.8
2022-12-26T05:00:00,2285A,117.8177,30.9412,铜陵市,市第四中学,细颗粒物(PM2.5),79,81,73,58,45,82,16,33,30,64,40,9,10,0.8,0.8
2022-12-26T05:00:00,2286A,117.8059,30.9273,铜陵市,市公路局,细颗粒物(PM2.5),69,74,64,50,44,77,19,38,34,60,37,8,9,0.7,0.7
2022-12-26T05:00:00,2287A,117.7807,30.9413,铜陵市,市新民污水厂,细颗粒物(PM2.5),67,63,61,48,42,81,7,14,12,83,52,9,9,0.6,0.5
2022-12-26T05:00:00,2288A,117.7439,30.8792,铜陵市,市第九中学,细颗粒物(PM2.5),85,102,90,63,54,71,5,25,14,72,44,13,18,1.0,1.4
2022-12-26T05:00:00,2289A,117.846,30.9413,铜陵市,车站新区,细颗粒物(PM2.5),67,70,58,48,43,81,28,18,18,42,37,8,10,0.6,0.6
2022-12-26T05:00:00,2290A,117.8483,30.97,铜陵市,市职教基地,细颗粒物(PM2.5),69,78,64,50,46,79,14,36,21,38,29,9,14,0.4,0.5
2022-12-26T05:00:00,2291A,117.0809,30.5177,安庆市,环科院,细颗粒物(PM2.5),79,83,72,58,56,109,26,54,40,36,26,14,13,0.8,0.7
2022-12-26T05:00:00,2292A,117.0331,30.5119,安庆市,马山宾馆,细颗粒物(PM2.5),82,74,67,60,50,71,36,56,46,32,29,15,14,0.9,0.8
2022-12-26T05:00:00,2294A,116.9896,30.6145,安庆市,安庆大学,细颗粒物(PM2.5),79,75,67,58,51,76,42,56,48,28,26,16,15,0.9,0.8
2022-12-26T05:00:00,2295A,118.2903,29.6963,黄山市,延安路89号,,16,16,34,9,28,96,21,19,19,15,19,4,5,0.2,0.3
2022-12-26T05:00:00,2296A,118.327,29.7178,黄山市,黄山东路89号,,30,30,41,16,30,94,10,34,23,22,21,6,7,0.4,0.5
2022-12-26T05:00:00,2297A,118.1371,30.2756,黄山市,黄山区政府5号楼,,,40,51,20,31,91,26,35,31,14,16,6,7,,0.6
2022-12-26T05:00:00,2298A,118.3093,32.3153,滁州市,老年大学,细颗粒物(PM2.5),70,65,65,51,52,82,15,24,20,39,33,6,8,0.5,0.6
2022-12-26T05:00:00,2299A,118.3244,32.2786,滁州市,人大宾馆,细颗粒物(PM2.5),65,64,62,47,39,82,23,35,27,35,38,6,9,0.6,0.7
2022-12-26T05:00:00,2301A,115.8277,32.8929,阜阳市,市监测站,细颗粒物(PM2.5),68,49,64,49,56,71,61,62,62,14,30,7,13,0.4,0.5
2022-12-26T05:00:00,2303A,115.8554,32.8605,阜阳市,开发区,细颗粒物(PM2.5),68,81,90,49,56,75,63,70,68,18,34,4,9,0.4,0.7
2022-12-26T05:00:00,2307A,116.5079,31.737,六安市,监测大楼,细颗粒物(PM2.5),207,157,94,157,84,80,36,32,32,25,32,10,9,0.6,0.5
2022-12-26T05:00:00,2308A,116.4738,31.7643,六安市,皖西学院,细颗粒物(PM2.5),156,137,94,119,71,81,28,38,33,28,29,6,7,0.5,0.4
2022-12-26T05:00:00,2309A,116.4996,31.7905,六安市,朝阳厂,细颗粒物(PM2.5),166,145,96,126,85,80,17,30,26,40,38,5,8,0.6,0.6
2022-12-26T05:00:00,2310A,116.5567,31.7886,六安市,开发区,细颗粒物(PM2.5),188,184,120,141,83,76,23,19,19,35,38,11,10,0.7,0.5
2022-12-26T05:00:00,2311A,115.8072,33.8399,亳州市,污水处理厂,细颗粒物(PM2.5),72,54,60,52,46,71,52,51,48,8,19,3,6,0.4,0.5
2022-12-26T05:00:00,2312A,115.7789,33.8518,亳州市,三国揽胜宫,细颗粒物(PM2.5),90,66,70,67,58,77,62,59,56,8,22,2,7,0.5,0.6
2022-12-26T05:00:00,2314A,117.47,30.6618,池州市,池州学院,细颗粒物(PM2.5),92,84,80,68,60,76,44,46,46,30,35,15,14,0.8,0.8
2022-12-26T05:00:00,2316A,118.7581,30.9454,宣城市,鳌峰子站,细颗粒物(PM2.5),85,78,70,63,51,87,25,36,24,49,38,4,7,0.7,0.7
2022-12-26T05:00:00,2317A,118.7385,30.9743,宣城市,敬亭山子站,细颗粒物(PM2.5),82,92,72,60,50,94,21,44,29,67,39,6,9,0.8,0.8
2022-12-26T05:00:00,2318A,118.7173,30.9427,宣城市,开发区子站,细颗粒物(PM2.5),94,85,70,70,53,86,22,29,21,51,35,6,6,0.9,0.8
2022-12-26T05:00:00,2319A,119.0141,25.4325,莆田市,荔城区仓后路,,27,24,39,16,20,114,84,87,85,8,16,6,7,0.6,0.7
2022-12-26T05:00:00,2320A,119.0015,25.4553,莆田市,莆田市监测站,,29,29,34,18,20,116,88,89,89,6,12,6,7,0.6,0.6
2022-12-26T05:00:00,2321A,119.1119,25.4561,莆田市,涵江区六中,,28,24,37,19,27,113,71,84,73,11,16,4,5,0.5,0.5
2022-12-26T05:00:00,2322A,119.1013,25.3215,莆田市,秀屿区政府,,30,30,37,18,21,115,74,80,78,12,16,7,9,0.4,0.4
2022-12-26T05:00:00,2323A,118.981,25.4792,莆田市,东圳水库(对照点),,,,,,,,,,,,,,,,
2022-12-26T05:00:00,2324A,117.6211,26.2625,三明市,三钢,,32,24,36,22,26,104,23,21,21,21,27,5,6,0.7,0.7
2022-12-26T05:00:00,2325A,117.635,26.2714,三明市,三明二中,,24,24,32,16,20,102,20,20,18,16,16,8,10,0.6,0.5
2022-12-26T05:00:00,2326A,117.6028,26.2378,三明市,三元区政府,,39,27,42,27,27,100,16,16,16,22,35,9,12,0.9,1
2022-12-26T05:00:00,2327A,117.7275,26.3108,三明市,洋溪(对照点),,,,,,,,,,,,,,,,
2022-12-26T05:00:00,2331A,118.0966,26.6761,南平市,茫荡山(对照点),,,,,,,,,,,,,,,,
2022-12-26T05:00:00,2332A,118.1681,26.6369,南平市,南平市监测站,,48,48,37,23,22,100,19,24,22,21,21,10,7,0.7,0.5
2022-12-26T05:00:00,2333A,118.1825,26.6489,南平市,南平铝业有限公司,,50,47,36,35,28,95,18,11,11,22,27,13,11,0.6,0.5
2022-12-26T05:00:00,2334A,118.1756,26.6272,南平市,南平七中,,38,29,38,26,29,102,28,30,29,13,19,7,6,0.7,0.6
2022-12-26T05:00:00,2335A,117.0189,25.1181,龙岩市,龙岩师专(对照点),,,,,,,,,,,,,,,,
2022-12-26T05:00:00,2336A,117.0217,25.1033,龙岩市,龙岩市监测站,,30,26,36,21,23,98,23,20,18,26,31,7,10,0.3,0.4
2022-12-26T05:00:00,2337A,117.0258,25.0661,龙岩市,闽西职业技术学院,颗粒物(PM10),55,59,52,28,25,92,3,10,7,48,37,49,31,0.7,0.6
2022-12-26T05:00:00,2338A,117.0196,25.0306,龙岩市,龙岩学院,,29,19,35,20,22,94,24,32,28,18,20,7,10,0.4,0.4
2022-12-26T05:00:00,2339A,119.5001,26.6946,宁德市,金涵水库(对照点),,,,,,,,,,,,,,,,
2022-12-26T05:00:00,2341A,119.5388,26.6612,宁德市,宁德市监测站,,35,23,32,24,25,104,53,59,56,9,15,4,5,0.6,0.6
2022-12-26T05:00:00,2342A,117.3102,29.3867,景德镇市,王港中学(对照点),,,,,,,,,,,,,,,,
2022-12-26T05:00:00,2343A,117.2117,29.2933,景德镇市,老干部活动中心,颗粒物(PM10),64,78,77,28,32,107,20,44,17,24,25,5,8,0.6,0.7
2022-12-26T05:00:00,2344A,117.1894,29.2789,景德镇市,兽医站,,40,40,44,28,30,116,37,61,41,15,19,6,8,0.6,0.8
2022-12-26T05:00:00,2345A,117.1547,29.2617,景德镇市,台达陶瓷,,31,31,56,16,27,105,45,53,52,15,30,5,13,0.8,1
2022-12-26T05:00:00,2346A,117.2461,29.2956,景德镇市,陶研所,颗粒物(PM10),51,52,55,19,22,105,19,18,12,21,22,3,4,0.7,0.7
2022-12-26T05:00:00,2347A,114.0997,27.5002,萍乡市,武功山(对照点),颗粒物(PM10),52,53,46,30,31,94,23,32,27,16,17,12,13,1.0,0.9
2022-12-26T05:00:00,2348A,113.8385,27.6434,萍乡市,中医院,细颗粒物(PM2.5),62,65,69,44,36,96,64,75,69,24,26,12,20,0.7,0.7
2022-12-26T05:00:00,2349A,113.8493,27.6253,萍乡市,市政府车库,细颗粒物(PM2.5),67,75,74,48,44,98,65,67,65,20,25,19,29,0.9,1.2
2022-12-26T05:00:00,2350A,113.8676,27.6435,萍乡市,市环保局,细颗粒物(PM2.5),70,76,72,51,46,92,61,66,62,18,22,25,33,0.4,0.5
2022-12-26T05:00:00,2351A,113.866,27.6198,萍乡市,安源区政府,细颗粒物(PM2.5),63,73,78,45,47,93,59,59,59,21,29,24,33,0.7,1.3
2022-12-26T05:00:00,2352A,115.0861,27.9317,新余市,北岗(对照点),细颗粒物(PM2.5),63,65,54,45,36,78,21,29,25,29,17,16,26,0.7,0.5
2022-12-26T05:00:00,2353A,114.9886,27.8431,新余市,飞宇,颗粒物(PM10),68,86,68,45,37,80,25,38,31,35,28,28,33,0.9,0.8
2022-12-26T05:00:00,2354A,114.9231,27.8246,新余市,第二水厂,细颗粒物(PM2.5),74,89,75,54,49,70,26,40,32,34,30,17,24,0.6,0.5
2022-12-26T05:00:00,2355A,114.9308,27.8036,新余市,市气象局,细颗粒物(PM2.5),62,61,66,44,42,70,27,46,35,29,29,20,27,0.4,0.4
2022-12-26T05:00:00,2357A,116.9822,28.1136,鹰潭市,龙虎山(对照点),,43,43,50,30,29,111,37,49,39,27,19,17,14,0.6,0.5
2022-12-26T05:00:00,2358A,117.0564,28.2642,鹰潭市,新监测站,细颗粒物(PM2.5),72,67,56,52,36,105,24,33,31,36,31,69,34,0.7,0.4
2022-12-26T05:00:00,2359A,117.0311,28.2475,鹰潭市,财苑宾馆,细颗粒物(PM2.5),73,72,59,53,35,106,31,36,35,36,33,110,41,0.8,0.5
2022-12-26T05:00:00,2360A,117.0222,28.2264,鹰潭市,体育馆,细颗粒物(PM2.5),79,65,60,58,38,105,28,33,31,39,31,111,36,0.9,0.4
2022-12-26T05:00:00,2361A,117.0017,28.2131,鹰潭市,三川水表,细颗粒物(PM2.5),70,70,65,51,38,101,23,20,20,42,37,81,29,0.5,0.4
2022-12-26T05:00:00,2362A,114.9017,25.9149,赣州市,通天岩(对照点),,25,18,22,17,13,107,68,64,64,11,12,6,5,0.9,0.8
2022-12-26T05:00:00,2363A,114.9367,25.8664,赣州市,地委,,50,50,57,19,23,111,29,26,26,27,28,9,12,0.6,0.5
2022-12-26T05:00:00,2364A,114.9461,25.8481,赣州市,气象台,颗粒物(PM10),59,67,47,22,24,99,10,10,9,35,35,8,12,0.5,0.5
2022-12-26T05:00:00,2365A,114.9322,25.8333,赣州市,市图书馆,,41,41,50,23,23,105,4,7,6,45,34,12,10,0.7,0.7
2022-12-26T05:00:00,2366A,114.8905,25.8471,赣州市,华坚鞋城,颗粒物(PM10),52,53,70,26,26,92,50,41,41,18,32,6,6,0.6,0.6
2022-12-26T05:00:00,2367A,114.9754,27.0803,吉安市,红声器材厂,"颗粒物(PM10),细颗粒物(PM2.5)",53,56,63,37,33,102,67,65,65,18,28,16,14,0.5,0.6
2022-12-26T05:00:00,2368A,114.9658,27.0999,吉安市,市森林工业局,颗粒物(PM10),54,57,55,36,35,105,64,66,66,18,26,13,14,0.4,0.5
2022-12-26T05:00:00,2369A,114.99,27.1312,吉安市,市环境监测站,颗粒物(PM10),55,59,57,35,33,109,57,69,65,23,25,9,14,0.7,0.6
2022-12-26T05:00:00,2370A,115.0093,27.0968,吉安市,青原区法院,颗粒物(PM10),53,56,58,35,33,103,72,74,74,13,22,12,14,0.5,0.5
2022-12-26T05:00:00,2371A,114.3408,27.8064,宜春市,槟榔水业(对照点),颗粒物(PM10),60,69,62,40,35,76,42,50,48,20,24,29,30,0.5,0.6
2022-12-26T05:00:00,2373A,114.3956,27.7844,宜春市,市石油公司,细颗粒物(PM2.5),72,79,73,52,41,93,47,48,48,34,34,17,14,0.4,0.4
2022-12-26T05:00:00,2374A,114.3703,27.7914,宜春市,市气象局,细颗粒物(PM2.5),63,71,68,45,37,83,39,45,43,29,33,20,20,0.6,0.7
2022-12-26T05:00:00,2375A,114.4013,27.8074,宜春市,市广电局,细颗粒物(PM2.5),65,68,72,47,40,91,46,57,52,30,33,18,20,1.2,1.3
2022-12-26T05:00:00,2376A,116.2127,28.0814,抚州市,桐源党溪(对照点),细颗粒物(PM2.5),60,66,59,43,37,114,30,36,30,10,12,16,10,0.5,0.4
2022-12-26T05:00:00,2377A,116.3544,27.9831,抚州市,市站,颗粒物(PM10),53,55,56,36,35,99,34,59,43,16,16,3,9,1.0,0.9
2022-12-26T05:00:00,2378A,116.3565,27.963,抚州市,血防站,颗粒物(PM10),57,63,64,33,32,102,34,62,44,27,26,5,13,0.6,0.5
2022-12-26T05:00:00,2379A,116.3564,28.0007,抚州市,采茶剧团,颗粒物(PM10),55,59,56,36,36,96,28,55,37,20,18,5,11,0.7,0.6
2022-12-26T05:00:00,2380A,116.385,27.9647,抚州市,医学分院,颗粒物(PM10),52,53,59,31,32,97,28,55,39,24,21,7,15,0.9,0.7
2022-12-26T05:00:00,2381A,118.005,28.4572,上饶市,百草园(对照点),颗粒物(PM10),58,65,62,38,31,59,28,30,29,27,25,12,12,1.0,0.8
2022-12-26T05:00:00,2382A,117.9756,28.4436,上饶市,市监测站,细颗粒物(PM2.5),62,70,60,44,33,101,29,35,33,30,28,22,22,0.8,0.6
2022-12-26T05:00:00,2383A,117.9519,28.4628,上饶市,凤凰光学,细颗粒物(PM2.5),62,70,60,44,31,89,12,37,27,48,32,16,19,0.9,0.8
2022-12-26T05:00:00,2385A,114.17,35.9019,鹤壁市,市监测站,细颗粒物(PM2.5),192,176,142,144,102,38,4,10,6,51,56,6,19,1.2,1.1
2022-12-26T05:00:00,2386A,114.2956,35.7511,鹤壁市,市交警支队,细颗粒物(PM2.5),119,112,112,90,81,45,12,17,15,37,46,9,13,0.6,0.8
2022-12-26T05:00:00,2387A,114.2878,35.7306,鹤壁市,迎宾馆,细颗粒物(PM2.5),127,94,91,96,81,44,14,17,16,33,45,6,10,0.6,0.9
2022-12-26T05:00:00,2389A,113.836,35.311,新乡市,环保西院,细颗粒物(PM2.5),128,99,126,97,95,48,3,4,2,42,44,4,11,0.9,1.1
2022-12-26T05:00:00,2390A,113.884,35.272,新乡市,开发区,细颗粒物(PM2.5),138,136,115,105,85,54,7,8,6,35,43,1,8,0.9,1
2022-12-26T05:00:00,2391A,113.883,35.303,新乡市,环保东院,细颗粒物(PM2.5),118,87,90,89,74,52,6,8,5,40,44,4,10,0.8,0.8
2022-12-26T05:00:00,2392A,115.0312,35.7636,濮阳市,环保局,细颗粒物(PM2.5),102,74,65,76,64,74,44,40,40,17,32,4,18,0.6,0.7
2022-12-26T05:00:00,2394A,115.0574,35.7609,濮阳市,油田运输公司,细颗粒物(PM2.5),112,99,93,84,72,79,43,40,40,17,30,6,25,0.5,0.6
2022-12-26T05:00:00,2395A,115.0866,35.7754,濮阳市,油田物探公司,细颗粒物(PM2.5),114,64,69,86,71,76,42,40,40,18,35,4,23,0.4,0.5
