timepoint,stationcode,longitude,latitude,area,positionname,primarypollutant,aqi,pm10,pm10_24h,pm2_5,pm2_5_24h,o3,o3_24h,o3_8h,o3_8h_24h,no2,no2_24h,so2,so2_24h,co,co_24h
2024-12-06T1700,2566A,102.1879,31.914,阿坝藏族羌族自治州,州农科所,,26,17,35,3,13,81,,72,72,34,15,14,9,0.3,0.5
2024-12-06T1700,2568A,102.2502,31.8896,阿坝藏族羌族自治州,马师校,,27,27,21,3,13,76,,53,53,4,21,3,4,0.2,0.4
2024-12-06T1700,3994A,102.2165,31.9024,阿坝藏族羌族自治州,马尔康中学西区,,34,34,27,13,12,73,,64,64,6,15,6,5,0.3,0.5
2024-12-06T1700,2695A,80.292,41.1694,阿克苏地区,电视台,细颗粒物(PM2.5),77,77,159,56,90,82,,42,42,28,67,4,6,0.7,2.3
2024-12-06T1700,2696A,80.2613,41.1551,阿克苏地区,艺术中心,,,96,137,52,68,,,38,35,35,61,3,4,,1.7
2024-12-06T1700,2204A,105.6467,38.8363,阿拉善盟,西城区西花园,,33,33,27,13,22,88,,86,86,10,18,8,8,0.4,0.6
2024-12-06T1700,2205A,105.6985,38.8411,阿拉善盟,蒙二幼,,27,13,15,6,6,84,,83,83,8,11,6,6,0.4,0.5
2024-12-06T1700,2206A,105.724,38.8516,阿拉善盟,环保局新楼,,26,10,9,3,5,83,,86,84,6,6,8,8,0.5,0.5
2024-12-06T1700,2708A,88.1264,47.8517,阿勒泰地区,市站,,16,16,11,10,8,39,,51,38,26,14,9,8,0.1,0.4
2024-12-06T1700,2630A,80.1161,32.5,阿里地区,阿里监测站,,32,6,10,3,4,102,,83,83,1,8,4,7,0.4,0.5
2024-12-06T1700,3192A,80.0903,32.5028,阿里地区,阿里藏医院,,31,22,13,3,5,97,,86,79,1,6,4,6,0.5,0.6
2024-12-06T1700,2642A,109.0318,32.6537,安康市,香溪洞,,28,25,44,19,34,57,,33,33,11,22,9,10,0.3,0.5
2024-12-06T1700,2644A,109.0072,32.6975,安康市,汉滨区检察院,,34,34,56,23,43,52,,34,34,19,28,6,7,0.4,0.5
2024-12-06T1700,4054A,109.0325,32.6913,安康市,市邮政管理局,,35,35,59,23,47,50,,34,34,17,24,7,8,0.5,0.7
2024-12-06T1700,2291A,117.0809,30.5177,安庆市,环科院,,,,83,36,64,106,,91,91,16,28,8,6,0.6,0.8
2024-12-06T1700,2292A,117.0331,30.5119,安庆市,马山宾馆,颗粒物(PM10),55,60,75,35,60,103,,93,93,21,32,8,7,0.4,0.6
2024-12-06T1700,2294A,116.9896,30.6145,安庆市,安庆大学,细颗粒物(PM2.5),52,43,70,36,52,113,,104,104,21,35,12,10,0.7,0.7
2024-12-06T1700,3173A,117.0598,30.5351,安庆市,市人大,颗粒物(PM10),53,55,69,34,63,101,,96,96,27,30,6,5,0.5,0.8
2024-12-06T1700,3122A,105.9606,26.2611,安顺市,伍家关,,50,50,18,35,11,52,,58,58,18,14,10,11,0.4,0.8
2024-12-06T1700,3123A,105.9408,26.2431,安顺市,凤凰山,,39,27,16,27,12,43,,52,51,19,14,17,10,0.5,0.6
2024-12-06T1700,3124A,105.9439,26.2564,安顺市,金钟山,,48,37,15,33,13,48,,53,53,13,11,16,11,0.5,0.6
2024-12-06T1700,3125A,105.8983,26.2481,安顺市,娄家坡,,36,30,15,25,14,47,,51,51,16,14,11,10,0.5,0.6
2024-12-06T1700,1818A,114.4839,36.0621,安阳市,棉研所,"颗粒物(PM10),细颗粒物(PM2.5)",53,55,126,37,107,74,,57,57,27,42,12,10,0.5,1
2024-12-06T1700,1819A,114.3551,36.1017,安阳市,红庙街,细颗粒物(PM2.5),58,54,94,41,71,63,,52,52,18,38,8,8,0.7,1.1
2024-12-06T1700,1820A,114.361,36.0681,安阳市,银杏小区,细颗粒物(PM2.5),55,,92,39,70,61,,5,,26,39,6,7,0.6,1.6
2024-12-06T1700,3141A,114.3922,36.0878,安阳市,信访局,"颗粒物(PM10),细颗粒物(PM2.5)",55,59,107,39,69,65,,44,44,22,42,8,8,0.6,1
2024-12-06T1700,3669A,114.4705,36.0637,安阳市,左辅环卫站,颗粒物(PM10),58,65,126,35,94,72,,54,54,18,42,8,7,0.6,0.9
2024-12-06T1700,3703A,114.2917,36.0949,安阳市,安钢职工学校,细颗粒物(PM2.5),68,62,96,49,66,66,,59,59,27,43,7,8,0.5,0.9
2024-12-06T1700,1748A,123.044,41.1196,鞍山市,深沟寺,,27,27,41,14,16,54,,55,55,12,14,9,10,0.5,0.6
2024-12-06T1700,1749A,123.011,41.0931,鞍山市,太阳城,,26,26,41,12,14,61,,57,57,11,22,8,22,0.4,1.2
2024-12-06T1700,1750A,123.0485,41.1442,鞍山市,太平,,30,30,53,12,18,51,,54,54,18,21,10,13,0.7,0.9
2024-12-06T1700,1751A,122.9642,41.0971,鞍山市,铁西三道街,,29,29,50,11,16,57,,57,57,14,21,10,13,0.6,0.7
2024-12-06T1700,1752A,122.9341,41.0833,鞍山市,铁西工业园区,,40,40,58,18,22,50,,57,57,24,32,9,11,0.3,0.7
2024-12-06T1700,1753A,123.022,41.0821,鞍山市,明达新区,,22,22,41,12,14,58,,52,52,8,17,6,18,0.7,1.4
2024-12-06T1700,1754A,123.1289,41.0228,鞍山市,千山,,,,32,,9,,,32,,,12,,7,,0.4
2024-12-06T1700,2195A,107.4212,40.761,巴彦淖尔市,附二中,,41,41,34,26,18,64,,57,56,16,15,11,7,0.4,0.4
2024-12-06T1700,2196A,107.37,40.7372,巴彦淖尔市,市环保大楼,,38,38,32,24,16,62,,58,58,15,13,7,4,0.2,0.2
2024-12-06T1700,1956A,86.1472,41.7538,巴音郭楞蒙古自治州,孔雀公园,颗粒物(PM10),55,59,67,27,33,85,,59,59,14,40,4,5,0.3,0.5
2024-12-06T1700,1957A,86.1972,41.7166,巴音郭楞蒙古自治州,棉纺厂,颗粒物(PM10),61,72,89,15,31,85,,51,51,12,50,2,3,0.4,0.6
2024-12-06T1700,1958A,86.2357,41.7173,巴音郭楞蒙古自治州,经济开发区,颗粒物(PM10),53,56,67,17,30,85,,60,60,12,26,3,3,0.3,0.4
2024-12-06T1700,2914A,106.7677,31.8794,巴中市,苏山坪,,40,30,15,28,12,22,,49,29,15,10,3,4,0.4,0.4
2024-12-06T1700,3182A,106.7656,31.8545,巴中市,丽阳花园,,42,39,22,29,16,5,,17,13,43,29,3,4,0.7,0.4
2024-12-06T1700,3183A,106.7418,31.8654,巴中市,圣泉水务公司,,30,24,17,21,13,12,,27,20,31,26,3,3,0.4,0.3
2024-12-06T1700,3616A,106.7616,31.8344,巴中市,市中心医院,,49,35,23,34,19,5,,18,13,38,26,3,3,0.6,0.4
2024-12-06T1700,2235A,122.7911,45.6077,白城市,洮北区环保局,,28,28,23,15,26,45,,69,68,38,16,7,8,0.6,0.6
2024-12-06T1700,2236A,122.8738,45.5725,白城市,市环保局,颗粒物(PM10),86,122,20,18,13,20,,71,66,56,15,4,5,0.5,0.5
2024-12-06T1700,2231A,126.4219,41.9171,白山市,喜丰,,33,33,56,14,14,52,,55,55,19,15,10,13,0.6,0.6
2024-12-06T1700,2232A,126.4077,41.9419,白山市,环保局,,47,47,60,6,16,58,,53,53,4,11,5,7,0.4,0.6
2024-12-06T1700,2647A,104.1724,36.5446,白银市,第三小学,,28,28,57,16,31,78,,66,66,19,34,10,33,0.4,0.9
2024-12-06T1700,2648A,104.1465,36.5482,白银市,动力公司,,30,30,47,16,29,85,,74,74,15,25,9,14,0.4,1
2024-12-06T1700,2512A,106.6103,23.9011,百色市,市监测站,,18,16,17,12,11,26,,31,27,21,15,9,8,0.9,0.9
2024-12-06T1700,2513A,106.6538,23.8859,百色市,市中心血站,,25,25,19,7,15,25,,27,26,23,17,8,7,0.8,0.8
2024-12-06T1700,3406A,106.6085,23.8798,百色市,祈福高中,,18,18,18,11,14,26,,28,27,18,14,5,5,0.8,0.8
2024-12-06T1700,2270A,117.396,32.939,蚌埠市,工人疗养院,细颗粒物(PM2.5),108,113,159,81,123,76,,59,59,32,32,5,4,0.6,0.8
2024-12-06T1700,2271A,117.3605,32.9427,蚌埠市,百货大楼,细颗粒物(PM2.5),103,98,157,77,124,76,,64,64,34,34,7,5,0.6,0.8
2024-12-06T1700,2273A,117.4185,32.8911,蚌埠市,蚌埠学院,细颗粒物(PM2.5),123,114,134,93,117,80,,70,70,40,35,7,6,0.6,0.8
2024-12-06T1700,2274A,117.3533,32.9673,蚌埠市,淮上区政府,细颗粒物(PM2.5),98,97,148,73,123,76,,59,59,29,35,6,5,0.5,0.7
2024-12-06T1700,2275A,117.3145,32.8977,蚌埠市,高新区,细颗粒物(PM2.5),162,141,142,123,122,68,,64,64,50,44,7,7,0.7,0.8
2024-12-06T1700,3715A,117.3092,32.9314,蚌埠市,蚌埠田家炳中学,细颗粒物(PM2.5),109,128,161,82,120,58,,60,60,52,42,7,6,0.7,0.8
2024-12-06T1700,1585A,109.8756,40.6532,包头市,市环境监测站,,22,12,21,3,10,68,,68,68,11,19,7,8,0.4,0.5
2024-12-06T1700,1587A,109.9991,40.5842,包头市,包头八中,,21,21,37,3,15,56,,57,57,12,33,6,8,0.2,0.5
2024-12-06T1700,1588A,109.8538,40.6821,包头市,青山宾馆,,22,14,23,3,12,68,,67,67,9,21,10,10,0.4,0.5
2024-12-06T1700,1589A,109.8642,40.6288,包头市,惠龙物流,,21,18,24,3,10,66,,66,66,12,23,5,7,0.4,0.6
2024-12-06T1700,1590A,110.0377,40.5546,包头市,东河鸿龙湾,,,,29,,11,60,,58,58,,25,9,9,0.8,1
2024-12-06T1700,3283A,109.9154,40.5685,包头市,滨河大厦,,21,6,28,3,13,65,,64,64,14,29,6,10,0.3,0.5
2024-12-06T1700,3419A,109.9447,40.6261,包头市,包头市委党校,,22,21,34,6,13,68,,65,65,10,32,5,7,0.2,0.3
2024-12-06T1700,3683A,109.8331,40.6576,包头市,昆区政府,,22,14,26,3,14,68,,65,65,10,20,8,9,0.4,0.6
2024-12-06T1700,1930A,107.185,34.3063,宝鸡市,庙沟村,,49,49,34,27,25,63,,63,63,29,26,7,7,0.4,0.3
2024-12-06T1700,1931A,107.0708,34.3017,宝鸡市,竹园沟,,46,41,40,32,23,55,,53,53,21,21,6,6,0.5,0.4
2024-12-06T1700,1932A,107.1906,34.3672,宝鸡市,三陆医院,颗粒物(PM10),58,65,57,30,38,66,,51,51,38,37,7,6,0.5,0.7
2024-12-06T1700,1933A,107.1431,34.3547,宝鸡市,监测站,,46,46,49,28,27,64,,58,58,39,35,8,7,0.7,0.6
2024-12-06T1700,1934A,107.1186,34.3739,宝鸡市,技工学校,,49,49,57,23,32,76,,60,60,27,25,6,6,0.5,0.6
2024-12-06T1700,1935A,107.3906,34.3528,宝鸡市,陈仓区环保局家属楼,颗粒物(PM10),53,55,73,19,48,78,,60,60,27,38,7,43,0.5,0.8
2024-12-06T1700,1936A,107.2058,34.3497,宝鸡市,文理学院,,50,50,53,26,30,72,,58,58,26,31,8,7,0.4,0.4
2024-12-06T1700,1937A,107.2386,34.3622,宝鸡市,三迪小学,颗粒物(PM10),57,63,57,35,35,63,,46,46,44,45,7,6,0.5,0.6
2024-12-06T1700,1051A,115.493,38.8632,保定市,游泳馆,,45,45,56,14,30,53,,51,51,10,32,3,3,0.3,0.5
2024-12-06T1700,1052A,115.5213,38.8959,保定市,华电二区,,43,43,56,22,35,42,,41,41,33,51,3,3,0,0.2
2024-12-06T1700,1053A,115.4713,38.9108,保定市,接待中心,,39,39,57,18,31,47,,40,40,17,39,3,2,0,0.1
2024-12-06T1700,1054A,115.4612,38.8416,保定市,地表水厂,颗粒物(PM10),54,58,64,14,32,64,,58,58,13,41,3,3,0.1,0.3
2024-12-06T1700,3581A,115.31981,38.95208,保定市,满城区生态环境分局,,44,44,49,27,26,47,,57,57,33,48,3,2,0.4,0.5
2024-12-06T1700,3582A,115.47694,38.76408,保定市,清苑区第二中学,,50,50,66,22,30,53,,54,54,25,43,3,6,0.3,0.4
2024-12-06T1700,3583A,115.62909,39.02311,保定市,徐水物探局,,36,36,55,19,26,34,,42,42,29,39,3,6,0.2,0.4
2024-12-06T1700,4004A,115.4202,38.8656,保定市,双鹰农机,,35,28,55,24,28,66,,57,57,10,36,3,4,0.3,0.4
2024-12-06T1700,4034A,115.5150,38.8590,保定市,植保所站,,42,36,67,29,37,48,,41,41,25,46,2,5,0.3,0.5
2024-12-06T1700,2594A,99.1678,25.1081,保山市,市环境监测站,,,,,,,,,,,,,,,,
2024-12-06T1700,2595A,99.1711,25.1328,保山市,市环保局,,29,19,24,9,14,90,,72,72,3,7,6,6,0.3,0.4
2024-12-06T1700,1866A,109.2262,21.588,北海市,牛尾岭水库,细颗粒物(PM2.5),115,92,55,87,48,87,,74,74,12,10,5,7,1.0,0.7
2024-12-06T1700,1867A,109.1436,21.4086,北海市,海滩公园,细颗粒物(PM2.5),64,61,55,46,35,158,,144,144,16,13,10,12,0.7,0.5
2024-12-06T1700,1868A,109.0981,21.4661,北海市,新市环保局,细颗粒物(PM2.5),122,111,64,92,46,115,,103,103,19,17,9,10,1.3,0.9
2024-12-06T1700,1869A,109.1778,21.5233,北海市,北海工业园,细颗粒物(PM2.5),125,128,69,95,49,108,,105,105,23,18,10,14,1.1,0.8
2024-12-06T1700,3400A,109.1911,21.4415,北海市,龙潭自来水厂,细颗粒物(PM2.5),68,66,53,49,42,152,,136,136,14,12,9,12,0.7,0.6
2024-12-06T1700,1001A,116.3621,39.8784,北京市,万寿西宫,,19,14,29,7,13,60,,52,52,8,38,3,3,0.1,0.3
2024-12-06T1700,1002A,116.2202,40.2915,北京市,定陵,,15,6,11,3,8,45,,43,43,3,6,4,4,0.2,0.2
2024-12-06T1700,1003A,116.4174,39.9289,北京市,东四,,18,14,28,6,13,55,,46,46,9,33,1,1,0.3,0.5
2024-12-06T1700,1004A,116.4072,39.8863,北京市,天坛,,19,15,25,7,13,60,,52,52,8,26,3,3,0.1,0.3
2024-12-06T1700,1005A,116.462,39.9365,北京市,农展馆,,17,12,26,3,12,54,,45,45,4,34,3,3,0.2,0.4
2024-12-06T1700,1006A,116.3392,39.9295,北京市,官园,,18,13,26,6,13,55,,47,47,6,30,2,3,0.4,0.5
2024-12-06T1700,1007A,116.2878,39.9611,北京市,海淀万柳,,19,16,31,3,12,58,,53,53,9,37,3,3,0.4,0.5
2024-12-06T1700,1008A,116.6636,40.135,北京市,顺义新城,,19,10,32,3,9,58,,47,47,2,26,3,3,0.2,0.2
2024-12-06T1700,1009A,116.6275,40.3275,北京市,怀柔镇,,18,9,13,3,8,57,,48,48,7,11,3,3,0.3,0.3
2024-12-06T1700,1010A,116.2296,40.217,北京市,昌平镇,,19,10,17,3,9,58,,53,53,3,10,5,5,0.2,0.3
2024-12-06T1700,1011A,116.3966,39.9821,北京市,奥体中心,,18,11,31,3,11,56,,43,43,8,36,3,3,0.2,0.4
2024-12-06T1700,1012A,116.184,39.9136,北京市,古城,,19,16,32,8,13,58,,53,53,6,23,5,5,0.1,0.2
2024-12-06T1700,3281A,115.9718,40.4529,北京市,延庆夏都,,17,10,19,3,11,53,,50,50,3,12,1,1,0.2,0.2
2024-12-06T1700,3417A,117.0709,40.1465,北京市,平谷新城,,18,10,14,3,5,57,,50,50,2,11,3,3,0.2,0.2
2024-12-06T1700,3418A,116.8336,40.4095,北京市,密云新城,,20,7,14,3,7,62,,55,55,2,16,3,3,0.1,0.2
2024-12-06T1700,3671A,116.088,39.9726,北京市,门头沟三家店,,18,14,30,6,10,57,,54,54,6,30,2,2,0.2,0.2
2024-12-06T1700,3672A,116.1541,39.8204,北京市,丰台云岗,,18,11,28,3,12,55,,55,55,1,23,2,2,0.2,0.2
2024-12-06T1700,3673A,116.6804,39.9081,北京市,通州东关,,29,29,39,7,14,48,,34,34,10,41,1,2,0.2,0.3
2024-12-06T1700,3674A,115.9577,39.7603,北京市,房山燕山,,17,11,21,3,11,54,,55,55,2,11,1,2,0.1,0.2
2024-12-06T1700,3675A,116.4672,39.7733,北京市,大兴旧宫,,17,14,26,6,11,52,,43,43,6,31,1,2,0.1,0.3
2024-12-06T1700,3694A,115.986,40.4563,北京市,延庆石河营,,18,11,18,6,11,56,,52,52,3,12,3,2,0.1,0.2
2024-12-06T1700,3695A,116.6151,40.3053,北京市,怀柔新城,,19,6,13,3,8,60,,44,44,2,6,3,3,0.1,0.1
2024-12-06T1700,3696A,116.2545,39.8768,北京市,丰台小屯,,18,14,37,6,14,55,,49,49,2,32,3,3,0.2,0.4
2024-12-06T1700,3697A,116.84,40.3844,北京市,密云镇,,20,9,22,3,8,63,,52,52,5,31,3,3,0.1,0.2
2024-12-06T1700,1761A,123.8275,41.3064,本溪市,大峪,,30,30,36,12,12,43,,49,49,27,16,12,12,0.6,0.8
2024-12-06T1700,1762A,123.7567,41.3325,本溪市,溪湖,,29,29,41,13,12,52,,56,56,18,14,9,8,0.4,0.4
2024-12-06T1700,1763A,123.7169,41.3094,本溪市,彩屯,,42,42,34,28,19,38,,53,53,38,18,10,9,0.7,0.5
2024-12-06T1700,1764A,123.7669,41.2864,本溪市,东明,,28,28,42,16,14,44,,51,51,29,22,12,11,0.5,0.6
2024-12-06T1700,1765A,123.7992,41.2664,本溪市,新立屯,,22,22,39,12,13,50,,54,54,26,21,8,9,0.4,0.5
2024-12-06T1700,1766A,123.8142,41.3472,本溪市,威宁,,35,35,64,17,13,44,,50,50,30,23,10,9,0.6,0.6
2024-12-06T1700,2587A,105.2864,27.3125,毕节市,八中,,46,46,32,30,24,67,,74,74,16,11,8,7,0.4,0.4
2024-12-06T1700,2588A,105.31,27.2944,毕节市,师专,,46,45,33,32,26,68,,73,73,11,10,5,6,0.5,0.5
2024-12-06T1700,3537A,105.3631,27.3533,毕节市,长征村,,45,37,33,31,28,75,,75,75,13,9,9,7,0.5,0.4
2024-12-06T1700,1629A,118.0018,37.3617,滨州市,第二水厂,细颗粒物(PM2.5),83,102,108,61,70,55,,49,49,41,56,13,14,0.5,0.7
2024-12-06T1700,1630A,117.9776,37.393,滨州市,北中新校,细颗粒物(PM2.5),94,112,110,70,73,52,,57,57,44,54,10,10,0.4,1
2024-12-06T1700,3514A,117.9378,37.3956,滨州市,中海酒店,细颗粒物(PM2.5),100,122,115,75,81,54,,59,59,41,48,10,13,0.6,0.9
2024-12-06T1700,3515A,117.9378,37.3553,滨州市,开发区一中,细颗粒物(PM2.5),92,117,115,68,74,56,,53,53,45,60,13,15,0.7,0.9
2024-12-06T1700,3516A,118.0917,37.694,滨州市,金海六路,细颗粒物(PM2.5),117,127,94,88,60,36,,39,39,44,50,13,17,0.8,0.9
2024-12-06T1700,4028A,117.9956,37.3753,滨州市,滨州市西街道办事处,细颗粒物(PM2.5),107,112,110,80,82,52,,53,53,40,46,10,11,0.8,1
2024-12-06T1700,2311A,115.8072,33.8399,亳州市,污水处理厂,颗粒物(PM10),66,81,143,40,92,44,,42,42,35,28,9,6,0.9,0.9
2024-12-06T1700,2312A,115.7789,33.8518,亳州市,三国揽胜宫,颗粒物(PM10),69,87,165,44,98,55,,47,47,33,30,10,6,0.7,0.9
2024-12-06T1700,3332A,115.7633,33.8034,亳州市,亳州学院,细颗粒物(PM2.5),69,83,153,50,103,53,,46,46,32,30,8,4,0.7,0.8
2024-12-06T1700,2693A,82.0485,44.8556,博尔塔拉蒙古自治州,市党校,,27,27,21,15,19,67,,64,64,11,11,4,4,0.4,0.4
2024-12-06T1700,2694A,82.0806,44.8969,博尔塔拉蒙古自治州,市环保局,,35,35,37,10,15,45,,41,41,18,15,4,3,0.6,0.8
2024-12-06T1700,1071A,116.8842,38.2991,沧州市,沧县城建局,细颗粒物(PM2.5),70,78,62,51,36,40,,31,31,39,53,7,7,0.5,0.6
2024-12-06T1700,1072A,116.8584,38.3254,沧州市,电视转播站,颗粒物(PM10),58,65,61,31,34,44,,32,32,33,54,4,6,0.5,0.6
2024-12-06T1700,1073A,116.8709,38.3228,沧州市,市环保局,细颗粒物(PM2.5),64,64,55,46,36,36,,30,30,38,50,5,5,0.5,0.6
2024-12-06T1700,3324A,116.8136,38.3004,沧州市,河北水利电力学院,颗粒物(PM10),52,53,57,26,38,48,,36,36,27,45,8,9,0.4,0.5
2024-12-06T1700,2622A,97.1806,31.1273,昌都市,昌都监测站,,24,24,44,10,22,61,,56,56,30,37,6,7,0.9,1.3
2024-12-06T1700,3719A,97.1714,31.1406,昌都市,昌都会议中心,,28,28,16,7,10,81,,66,66,3,14,5,5,0.3,0.4
2024-12-06T1700,2690A,88.1236,43.8886,昌吉回族自治州,天山天池,,24,,1,3,4,75,,77,77,2,2,2,2,0.5,0.5
2024-12-06T1700,2692A,87.2717,44.0297,昌吉回族自治州,新区政务中心,细颗粒物(PM2.5),54,46,46,38,30,43,,29,29,17,22,7,7,0.9,1
2024-12-06T1700,3613A,87.3095,44.0142,昌吉回族自治州,亚心广场,细颗粒物(PM2.5),55,48,53,39,39,44,,38,38,22,28,6,6,0.6,0.8
2024-12-06T1700,1119A,125.3325,43.9166,长春市,食品厂,细颗粒物(PM2.5),67,54,46,48,25,36,,42,42,36,25,7,8,0.6,0.4
2024-12-06T1700,1120A,125.2863,43.9027,长春市,客车厂,细颗粒物(PM2.5),69,,41,50,24,34,,43,43,40,25,8,11,0.4,0.3
2024-12-06T1700,1121A,125.2841,43.8463,长春市,邮电学院,,49,44,39,34,19,40,,51,51,39,28,12,16,0.4,0.3
2024-12-06T1700,1122A,125.3716,43.8772,长春市,劳动公园,,,62,42,38,18,49,,50,50,33,26,,13,,0.4
2024-12-06T1700,1123A,125.3297,43.8805,长春市,园林处,,43,43,34,28,16,45,,47,47,29,23,9,11,0.4,0.4
2024-12-06T1700,1124A,125.4605,43.79,长春市,净月潭,细颗粒物(PM2.5),59,43,34,42,15,46,,45,45,27,19,8,10,0.5,0.4
2024-12-06T1700,1125A,125.7194,43.515,长春市,甩湾子,细颗粒物(PM2.5),70,,30,51,15,39,,45,45,18,12,6,7,0.6,0.5
2024-12-06T1700,1126A,125.3863,43.8447,长春市,经开区环卫处,,42,42,37,29,16,45,,45,45,30,26,11,19,0.6,0.5
2024-12-06T1700,1127A,125.245,43.7783,长春市,高新区管委会,,33,31,33,23,16,36,,50,50,39,19,8,8,0.6,0.5
2024-12-06T1700,1128A,125.1761,43.8325,长春市,岱山公园,,50,39,37,35,19,43,,52,51,31,15,8,7,0.4,0.4
2024-12-06T1700,1335A,113.0833,28.2325,长沙市,经开区环保局,颗粒物(PM10),57,63,59,37,40,47,,48,48,36,30,4,3,0.5,0.5
2024-12-06T1700,1336A,112.8872,28.2189,长沙市,高开区环保局,细颗粒物(PM2.5),72,75,54,52,45,50,,51,51,25,19,8,6,0.7,0.6
2024-12-06T1700,1337A,113.0792,28.2053,长沙市,马坡岭,细颗粒物(PM2.5),60,66,62,43,46,50,,51,51,28,25,5,4,0.7,0.7
2024-12-06T1700,1338A,112.9394,28.19,长沙市,湖南师范大学,"颗粒物(PM10),细颗粒物(PM2.5)",65,79,71,47,45,48,,47,47,30,24,8,6,0.7,0.6
2024-12-06T1700,1339A,113.0178,28.1322,长沙市,雨花区环保局,细颗粒物(PM2.5),67,72,59,48,48,45,,45,45,36,28,7,6,0.5,0.5
2024-12-06T1700,1340A,112.9792,28.2597,长沙市,伍家岭,细颗粒物(PM2.5),67,67,58,48,45,46,,40,40,30,25,5,4,0.8,0.8
2024-12-06T1700,1341A,113.0014,28.1944,长沙市,火车新站,细颗粒物(PM2.5),67,64,63,48,50,55,,50,50,28,26,4,3,0.6,0.6
2024-12-06T1700,1342A,112.9844,28.1178,长沙市,天心区环保局,颗粒物(PM10),58,66,66,37,39,48,,44,44,29,26,5,4,0.5,0.5
2024-12-06T1700,1343A,112.8908,28.1308,长沙市,湖南中医药大学,,,71,67,51,46,48,,47,47,,24,,6,0.8,0.7
2024-12-06T1700,1344A,112.9581,28.3611,长沙市,沙坪,细颗粒物(PM2.5),54,55,49,38,39,49,,53,53,11,14,9,8,0.6,0.5
2024-12-06T1700,1727A,113.1147,36.1547,长治市,清华站,,25,22,37,17,20,79,,71,71,18,30,10,11,0.4,0.5
2024-12-06T1700,1728A,113.1031,36.1989,长治市,监测站,,24,17,36,14,23,76,,74,74,12,25,12,13,0.2,0.6
2024-12-06T1700,1730A,113.0886,36.2125,长治市,审计局,,25,20,38,17,24,72,,62,62,14,29,8,9,0.3,0.5
2024-12-06T1700,1731A,113.0844,36.1856,长治市,长治八中,,,28,30,17,29,,,65,65,7,25,8,10,0.5,0.6
2024-12-06T1700,2845A,113.1569,36.1911,长治市,德盛苑,,26,24,30,14,21,83,,75,75,11,16,6,7,0.2,0.6
2024-12-06T1700,3568A,113.06,36.0464,长治市,向阳小学,颗粒物(PM10),51,51,51,20,28,76,,74,74,20,25,8,10,0.4,0.5
2024-12-06T1700,3569A,112.8792,36.3144,长治市,屯留一中,,28,21,26,13,18,89,,79,79,14,25,9,9,0.3,0.4
2024-12-06T1700,3570A,113.235,36.3489,长治市,潞城四中,,32,32,48,13,25,81,,71,71,17,32,10,14,0.6,1
2024-12-06T1700,1854A,111.6975,28.9703,常德市,市二中,,50,46,45,35,30,86,,72,72,15,20,6,4,0.5,0.6
2024-12-06T1700,1857A,111.7158,29.1456,常德市,白鹤山,,,,,,,,,,,,,,,,
2024-12-06T1700,3138A,111.7153,29.0289,常德市,武陵区永安,颗粒物(PM10),53,56,50,34,32,81,,69,69,18,18,5,8,0.6,0.6
2024-12-06T1700,3139A,111.6892,28.9881,常德市,鼎城区玉霞,,49,42,48,34,26,83,,73,73,19,19,4,4,0.5,0.6
2024-12-06T1700,3140A,111.6625,29.0531,常德市,武陵区长庚,颗粒物(PM10),52,54,52,35,31,74,,60,60,19,20,4,11,0.4,0.5
2024-12-06T1700,1196A,119.9633,31.762,常州市,市监测站,细颗粒物(PM2.5),134,136,127,102,92,107,,88,88,23,40,9,9,0.8,0.8
2024-12-06T1700,1200A,119.9468,31.7069,常州市,武进监测站,细颗粒物(PM2.5),122,119,104,92,79,95,,82,82,28,43,8,9,0.9,0.9
2024-12-06T1700,1201A,119.9255,31.9087,常州市,安家,细颗粒物(PM2.5),148,142,131,113,98,96,,85,85,38,60,10,9,1.0,0.9
2024-12-06T1700,3002A,119.9805,31.8174,常州市,行政中心,细颗粒物(PM2.5),147,131,110,112,92,102,,82,82,,45,,10,0.7,0.7
2024-12-06T1700,3003A,120.0522,31.7748,常州市,经开区,细颗粒物(PM2.5),129,127,112,98,82,103,,84,84,35,45,9,9,0.7,0.9
2024-12-06T1700,3010A,119.9025,31.7964,常州市,钟楼,细颗粒物(PM2.5),129,133,119,98,88,102,,85,85,22,45,8,8,0.8,0.8
2024-12-06T1700,3429A,119.8598,31.7066,常州市,武进经发区,细颗粒物(PM2.5),132,127,115,100,89,95,,85,85,25,32,8,7,0.9,0.9
2024-12-06T1700,3430A,119.5826,31.7245,常州市,金坛城区,细颗粒物(PM2.5),123,116,114,93,91,110,,87,87,23,30,10,9,0.8,0.8
2024-12-06T1700,2220A,120.4318,41.5881,朝阳市,西梁,,18,18,26,8,11,56,,62,62,12,14,6,7,0.5,0.6
2024-12-06T1700,2221A,120.4521,41.5646,朝阳市,河畔小区,,17,11,23,10,9,52,,56,56,11,12,6,8,0.6,0.6
2024-12-06T1700,2222A,120.4176,41.5648,朝阳市,八里堡,,28,28,33,12,14,56,,61,61,12,16,10,11,0.6,0.7
2024-12-06T1700,2223A,120.3806,41.5969,朝阳市,农业园区,,29,,17,20,10,58,,67,67,13,9,6,7,0.4,0.4
2024-12-06T1700,1705A,116.6367,23.6719,潮州市,西园路,,46,40,48,32,38,77,,69,69,8,14,4,4,0.4,0.4
2024-12-06T1700,3026A,116.6183,23.6608,潮州市,市政府,,42,42,47,23,30,86,,73,73,10,14,4,5,0.6,0.7
2024-12-06T1700,4036A,116.6461,23.6761,潮州市,金山,细颗粒物(PM2.5),52,51,46,36,34,79,,72,72,9,15,5,6,0.7,0.7
2024-12-06T1700,2472A,113.0073,25.9061,郴州市,马头岭,,27,27,30,15,16,36,,33,33,16,17,7,7,0.6,0.5
2024-12-06T1700,2473A,113.0116,25.8226,郴州市,市职中,,26,,25,18,23,25,,22,22,19,20,4,4,0.6,0.6
2024-12-06T1700,2474A,113.0161,25.8001,郴州市,兴隆步行街,,32,23,28,22,27,24,,22,22,17,17,5,5,0.7,0.7
2024-12-06T1700,2475A,113.0383,25.8071,郴州市,市审计局,,25,21,27,17,23,27,,24,24,14,13,3,4,0.8,0.8
2024-12-06T1700,2476A,113.0348,25.7759,郴州市,市环保局,,32,,29,22,25,26,,23,23,16,14,4,4,0.7,0.6
2024-12-06T1700,1431A,103.9728,30.7236,成都市,金泉两河,颗粒物(PM10),51,51,40,15,18,40,,28,28,40,38,2,2,0.3,0.4
2024-12-06T1700,1432A,104.176,30.6872,成都市,十里店,颗粒物(PM10),51,52,33,34,20,56,,50,50,28,35,2,2,0.4,0.4
2024-12-06T1700,1433A,104.079,30.5706,成都市,三瓦窑,,41,41,37,25,15,51,,47,47,32,44,2,2,0.6,0.4
2024-12-06T1700,1434A,104.1114,30.63,成都市,沙河铺,,48,48,35,25,17,53,,49,48,24,24,4,4,0.4,0.4
2024-12-06T1700,1437A,104.0786,30.6531,成都市,君平街,,49,49,41,23,26,37,,52,51,46,31,6,4,0.6,0.6
2024-12-06T1700,1438A,103.613,31.0283,成都市,灵岩寺,,,,,,,,,,,,,,,,
2024-12-06T1700,2880A,104.0239,30.65639,成都市,大石西路,颗粒物(PM10),55,60,48,27,23,32,,47,46,44,27,5,4,0.4,0.3
2024-12-06T1700,3136A,104.2725,30.5589,成都市,龙泉驿区区政府,,31,31,25,17,14,52,,55,55,26,18,4,4,0.4,0.4
2024-12-06T1700,3357A,104.0106,30.6931,成都市,金博路,颗粒物(PM10),52,53,40,20,20,27,,28,28,49,36,4,2,0.6,0.6
2024-12-06T1700,3359A,104.0578,30.5225,成都市,华阳,,39,39,37,17,19,46,,41,41,24,29,1,1,0.4,0.4
2024-12-06T1700,3487A,104.2394,30.5319,成都市,车城东七路,,36,36,28,22,18,49,,53,53,33,25,4,4,0.3,0.3
2024-12-06T1700,3488A,104.3853,30.7453,成都市,青白江技师分院,,42,32,25,29,14,70,,48,48,18,42,6,6,0.6,0.6
2024-12-06T1700,3489A,104.0789,30.4072,成都市,科学城,,34,34,34,23,25,43,,42,42,36,30,4,4,0.4,0.4
2024-12-06T1700,4011A,103.8506,30.6947,成都市,光华大道三段,,47,47,50,21,28,38,,29,29,39,43,2,1,0.5,0.6
2024-12-06T1700,1062A,117.9531,40.9081,承德市,铁路,,22,,30,3,14,68,,44,44,6,22,4,6,0.2,0.5
2024-12-06T1700,1063A,117.9392,40.9763,承德市,中国银行,,22,22,30,3,10,70,,48,48,2,15,1,2,0.2,0.4
2024-12-06T1700,1064A,117.9503,40.928,承德市,开发区,,32,32,39,16,20,68,,46,46,7,22,3,5,0.2,0.4
2024-12-06T1700,1065A,117.8051,40.9655,承德市,文化中心,,23,17,46,3,13,73,,52,52,3,24,2,10,0.2,0.5
2024-12-06T1700,1066A,117.9268,41.0026,承德市,离宫,,35,24,30,24,26,70,,49,49,2,16,2,2,0.2,0.3
2024-12-06T1700,2314A,117.47,30.6618,池州市,池州学院,细颗粒物(PM2.5),84,96,61,62,47,92,,87,87,29,26,9,6,0.7,0.7
2024-12-06T1700,3237A,117.4918,30.6617,池州市,展览馆,,,81,54,52,43,97,,97,97,26,29,,7,0.6,0.7
2024-12-06T1700,3333A,117.5627,30.695,池州市,第八中学,细颗粒物(PM2.5),78,84,60,57,49,92,,86,86,28,27,6,5,0.6,0.7
2024-12-06T1700,3334A,117.5038,30.6243,池州市,第十二中学,细颗粒物(PM2.5),75,76,54,55,41,97,,88,88,25,29,6,4,0.6,0.8
2024-12-06T1700,1744A,118.9233,42.2816,赤峰市,松山一中,,18,17,20,6,5,57,,62,62,13,11,9,9,0.5,0.5
2024-12-06T1700,1745A,118.9576,42.2728,赤峰市,哈达街,,18,9,17,3,6,56,,61,61,25,22,10,8,0.5,0.5
2024-12-06T1700,1746A,118.8788,42.2554,赤峰市,天义路,,18,,16,11,9,55,,60,60,17,17,8,7,0.3,0.4
2024-12-06T1700,3058A,119.2658,42.0353,赤峰市,银河街,,29,29,22,13,11,55,,59,59,14,16,14,18,0.4,0.5
2024-12-06T1700,3286A,118.9359,42.3147,赤峰市,桥北物流园区,,22,22,16,3,11,57,,64,64,17,15,11,10,0.6,0.7
2024-12-06T1700,2521A,107.3476,22.4136,崇左市,市环保局江州分局,细颗粒物(PM2.5),74,75,92,54,62,62,,100,67,15,12,5,9,1.0,1
2024-12-06T1700,2522A,107.3702,22.3707,崇左市,城南新区,细颗粒物(PM2.5),87,68,78,64,70,67,,105,67,17,15,6,10,1.1,1.1
2024-12-06T1700,2298A,118.3093,32.3153,滁州市,老年大学,细颗粒物(PM2.5),139,132,100,106,80,87,,56,56,30,29,4,8,0.8,0.7
2024-12-06T1700,2299A,118.3244,32.2786,滁州市,人大宾馆,细颗粒物(PM2.5),144,127,105,110,92,81,,57,57,34,36,7,6,0.5,0.5
2024-12-06T1700,3207A,118.3118,32.3038,滁州市,市政府原办公楼,细颗粒物(PM2.5),138,116,101,105,88,86,,62,62,27,30,5,4,0.8,0.7
2024-12-06T1700,3331A,118.3267,32.2634,滁州市,图书馆,细颗粒物(PM2.5),135,140,115,103,85,72,,55,55,34,26,3,4,0.5,0.5
2024-12-06T1700,2605A,101.5482,25.0441,楚雄彝族自治州,州环境监测站,,23,11,23,7,17,73,,57,57,4,20,5,9,0.3,0.5
2024-12-06T1700,2606A,101.538,25.0492,楚雄彝族自治州,市经济开发区,,25,25,28,9,18,69,,55,55,7,20,6,9,0.5,0.7
2024-12-06T1700,2548A,107.5277,31.2827,达州市,达州职业技术学院,,50,43,26,35,22,13,,12,12,33,31,10,9,0.8,0.7
2024-12-06T1700,2549A,107.5086,31.2186,达州市,市环境监测站,,40,40,27,24,12,8,,16,12,42,32,7,6,0.6,0.5
2024-12-06T1700,2550A,107.4988,31.2132,达州市,凤凰小区,,39,39,22,27,14,9,,19,16,40,30,8,9,0.6,0.5
2024-12-06T1700,2551A,107.5082,31.1986,达州市,达县机关宾馆,,49,36,23,34,18,6,,17,10,43,39,7,8,0.7,0.6
2024-12-06T1700,2552A,107.4644,31.2124,达州市,市政中心,,38,38,30,22,12,17,,19,15,38,33,9,8,0.5,0.4
2024-12-06T1700,2614A,100.1542,25.7054,大理白族自治州,大理市环境监测站,,29,21,18,11,13,92,,81,81,5,7,6,7,0.4,0.5
2024-12-06T1700,2615A,100.2171,25.5811,大理白族自治州,大理古城,,32,23,18,22,9,90,,87,87,8,10,5,5,0.5,0.4
2024-12-06T1700,1109A,121.612,38.9741,大连市,甘井子,,30,26,19,21,10,57,,61,61,24,20,8,16,0.4,0.2
2024-12-06T1700,1110A,121.565,38.9511,大连市,周水子,,41,41,25,28,12,35,,47,47,38,27,12,11,0.5,0.4
2024-12-06T1700,1111A,121.5637,38.8845,大连市,星海三站,,23,23,18,15,9,41,,64,62,34,16,11,9,0.4,0.3
2024-12-06T1700,1112A,121.6302,38.9117,大连市,青泥洼桥,,34,34,22,18,10,43,,55,52,23,16,11,12,0.3,0.3
2024-12-06T1700,1113A,121.6251,38.8638,大连市,傅家庄,,21,21,18,12,8,53,,66,66,21,12,10,11,0.6,0.5
2024-12-06T1700,1114A,121.5213,38.8661,大连市,七贤岭,,30,30,21,14,10,46,,65,65,32,18,10,10,0.7,0.7
2024-12-06T1700,1115A,121.2529,38.8061,大连市,旅顺,,22,20,15,15,8,60,,64,64,12,8,10,10,0.4,0.4
2024-12-06T1700,1116A,121.7485,39.1311,大连市,金州,,31,31,26,20,13,54,,65,65,20,14,12,8,0.7,0.6
2024-12-06T1700,1117A,121.7811,39.0496,大连市,开发区,,30,26,22,21,11,53,,62,57,19,14,13,17,0.5,0.4
2024-12-06T1700,1118A,121.9762,39.0631,大连市,双D港,,34,34,21,20,10,64,,73,72,13,11,12,9,0.7,0.5
2024-12-06T1700,1789A,124.81117,46.03138,大庆市,大同区,,50,50,27,23,20,33,,51,48,34,14,5,5,0.5,0.4
2024-12-06T1700,1790A,125.129,46.533,大庆市,龙凤区,,30,25,29,21,21,40,,52,48,30,19,7,12,0.4,0.4
2024-12-06T1700,1791A,124.902,46.408,大庆市,红岗区,,30,30,23,18,17,40,,52,48,29,16,6,7,0.5,0.4
2024-12-06T1700,1792A,125.153,46.586,大庆市,萨尔图区,,24,24,22,11,14,40,,59,52,37,20,4,5,0.5,0.4
2024-12-06T1700,1793A,124.9042,46.6215,大庆市,让胡路区,,,,27,,23,,,45,,,14,,6,,0.3
2024-12-06T1700,3481A,125.141,46.634,大庆市,萨区政府监测点,,21,14,19,14,11,25,,53,48,41,20,6,5,0.5,0.5
2024-12-06T1700,1721A,113.3819,40.1097,大同市,果树场,,36,36,53,19,29,61,,56,56,16,34,7,11,0.3,1
2024-12-06T1700,1723A,113.2994,40.0758,大同市,云冈宾馆,,23,11,32,7,14,71,,60,60,5,21,7,14,0.3,0.5
2024-12-06T1700,1724A,113.3444,40.0917,大同市,大同大学,,22,13,37,9,19,70,,58,58,4,31,3,10,0.3,0.6
2024-12-06T1700,1725A,113.2661,40.1269,大同市,安家小村,二氧化氮,77,16,36,3,15,17,,53,53,154,26,11,17,0.3,0.7
2024-12-06T1700,1726A,113.2711,40.0844,大同市,教育学院,,24,24,40,11,16,60,,52,52,15,31,6,13,0.4,0.6
2024-12-06T1700,3282A,113.3397,40.0597,大同市,大同市卫生学校,,21,14,40,8,18,66,,55,55,8,30,5,11,0.5,0.7
2024-12-06T1700,3565A,113.1367,40.1122,大同市,云冈站,,21,21,43,6,16,65,,60,60,10,34,8,13,0.2,0.4
2024-12-06T1700,3566A,113.1186,40.2556,大同市,图书馆,,32,32,35,6,21,69,,64,64,5,15,7,12,0.4,0.6
2024-12-06T1700,3567A,113.5931,40.0461,大同市,区一中,,21,19,44,3,18,66,,61,61,11,25,15,20,0.4,0.8
2024-12-06T1700,3676A,113.2802,40.0995,大同市,第二人民医院,,21,21,39,11,17,67,,58,58,9,29,10,16,0.3,0.5
2024-12-06T1700,2269A,124.1069,50.4097,大兴安岭地区,科技局,,28,,12,19,16,59,,63,61,4,4,6,5,0.5,0.4
2024-12-06T1700,3663A,124.1164,50.4278,大兴安岭地区,红旗社区,,18,7,7,3,5,57,,58,58,3,6,5,6,0.3,0.2
2024-12-06T1700,1600A,124.3303,40.0625,丹东市,江湾东路,,45,45,43,22,18,43,,52,52,22,18,12,17,0.5,0.6
2024-12-06T1700,1601A,124.4256,40.1503,丹东市,临江后街,,28,28,33,15,22,53,,57,57,15,18,5,7,0.5,0.6
2024-12-06T1700,1602A,124.3933,40.1461,丹东市,元宝山,,26,26,28,11,12,52,,54,54,12,11,7,8,0.5,0.5
2024-12-06T1700,1603A,124.3633,40.1092,丹东市,民主桥,,32,32,45,11,14,49,,56,56,22,22,7,10,0.6,0.7
2024-12-06T1700,3541A,109.5726,19.5167,儋州市,第一中学子站,,32,32,32,15,15,90,,86,86,3,3,5,6,0.5,0.5
2024-12-06T1700,3542A,109.5567,19.5187,儋州市,东坡学校子站,,31,23,31,16,15,98,,94,94,4,3,4,6,0.5,0.5
2024-12-06T1700,2616A,98.5842,24.428,德宏傣族景颇族自治州,德宏州监测站,,,25,45,10,26,84,,58,58,,28,10,20,0.5,0.8
2024-12-06T1700,3677A,98.5881,24.4368,德宏傣族景颇族自治州,芒市人民政府综合楼,,34,34,41,12,23,76,,61,61,10,18,12,12,0.3,0.6
2024-12-06T1700,1901A,104.4239,31.1208,德阳市,东山公园,颗粒物(PM10),54,58,37,29,19,47,,60,56,25,15,2,2,0.5,0.4
2024-12-06T1700,1902A,104.3826,31.1317,德阳市,西小区,,50,50,31,29,15,37,,56,46,30,19,3,2,0.6,0.5
2024-12-06T1700,1904A,104.3553,31.1091,德阳市,耐火材料厂,颗粒物(PM10),53,56,31,29,17,34,,56,43,34,20,5,4,0.5,0.4
2024-12-06T1700,3639A,104.4019,31.1244,德阳市,市教育局,,48,48,29,32,18,40,,59,50,31,23,3,3,0.6,0.5
2024-12-06T1700,1622A,116.3032,37.4674,德州市,儿童乐园,颗粒物(PM10),58,66,119,31,81,51,,56,56,40,55,3,8,0.7,0.9
2024-12-06T1700,1624A,116.2991,37.4451,德州市,监理站,,48,48,106,24,71,59,,51,51,36,56,12,15,0.5,0.9
2024-12-06T1700,3066A,116.2721,37.4379,德州市,九衢泉纯净水厂,颗粒物(PM10),52,53,107,27,68,62,,47,47,29,51,8,11,0.5,0.9
2024-12-06T1700,3371A,116.3728,37.4403,德州市,开发区人民医院,颗粒物(PM10),59,68,121,29,76,60,,52,52,33,54,8,12,0.5,0.8
2024-12-06T1700,3372A,116.3572,37.4094,德州市,太阳城中学,,,70,119,31,80,64,,50,50,35,59,,11,,0.8
2024-12-06T1700,3511A,116.5652,37.3319,德州市,陵城艺术中心,颗粒物(PM10),64,78,132,41,97,59,,51,51,31,50,10,12,0.6,1
2024-12-06T1700,2621A,99.7056,27.8317,迪庆藏族自治州,迪庆州站,,24,23,31,10,20,74,,62,62,8,14,9,9,0.5,0.6
2024-12-06T1700,3180A,99.7136,27.8094,迪庆藏族自治州,质量技术监督局,,32,32,33,20,23,64,,50,50,10,17,8,8,0.6,0.7
2024-12-06T1700,2663A,104.6241,35.5734,定西市,东关小学,颗粒物(PM10),52,53,77,33,42,75,,54,54,10,26,8,12,0.4,0.9
2024-12-06T1700,2664A,104.6194,35.5934,定西市,供电公司,,48,48,71,21,41,82,,52,52,12,36,8,11,0.2,0.7
2024-12-06T1700,1389A,113.7547,23.0494,东莞市,莞城梨川,,43,40,72,30,48,98,,87,87,15,25,6,8,0.7,0.8
2024-12-06T1700,1390A,113.7944,23.0128,东莞市,东城石井,,40,37,73,28,50,102,,96,96,18,25,5,6,0.7,0.8
2024-12-06T1700,1391A,113.7383,22.9658,东莞市,南城西平,,44,44,72,29,48,102,,93,93,19,41,3,3,0.7,0.8
2024-12-06T1700,3319A,113.7338,23.0381,东莞市,万江金泰,,42,36,66,29,45,96,,84,84,16,24,7,6,0.9,0.9
2024-12-06T1700,3626A,113.7533,23.0202,东莞市,南城元岭,,35,33,68,24,46,94,,86,86,11,26,9,9,0.7,0.9
2024-12-06T1700,3627A,113.7875,23.0457,东莞市,东城主山,,39,39,68,27,47,95,,88,88,17,33,7,9,0.6,0.7
2024-12-06T1700,1666A,118.6614,37.4309,东营市,市环保局,颗粒物(PM10),52,53,68,31,45,61,,54,54,52,59,18,15,0.7,0.9
2024-12-06T1700,3036A,118.6904,37.4338,东营市,开发区管委会,颗粒物(PM10),54,58,68,31,42,59,,54,54,59,61,11,12,0.8,0.9
2024-12-06T1700,3365A,118.5719,37.565,东营市,垦利区民丰路,颗粒物(PM10),53,56,76,29,46,47,,50,50,47,50,15,12,0.4,0.6
2024-12-06T1700,3498A,118.5055,37.8612,东营市,河口城区,,29,29,55,15,30,63,,61,61,19,39,4,8,0.6,0.7
2024-12-06T1700,3646A,118.4978,37.4623,东营市,胜利站,颗粒物(PM10),85,119,86,56,55,51,,53,53,48,59,14,14,0.6,1
2024-12-06T1700,3734A,118.35,37.26,东营市,理想之城,颗粒物(PM10),67,83,96,39,60,48,,52,52,62,56,15,10,0.7,0.9
2024-12-06T1700,1591A,110.0023,39.8129,鄂尔多斯市,综合楼,,36,36,21,3,5,75,,78,72,12,14,8,8,0.4,0.4
2024-12-06T1700,1592A,109.9486,39.8261,鄂尔多斯市,巴音孟克林场办事处,,36,36,24,3,8,66,,64,64,12,12,6,6,0.3,0.3
2024-12-06T1700,1593A,109.7736,39.5986,鄂尔多斯市,康泽苑,,23,7,17,3,8,72,,70,70,4,8,6,6,0.3,0.3
2024-12-06T1700,1594A,109.8119,39.5989,鄂尔多斯市,华泰汽车城,,24,14,20,9,10,74,,72,72,8,11,4,5,0.3,0.3
2024-12-06T1700,1595A,109.9734,39.7884,鄂尔多斯市,奥林花园,,31,31,26,7,7,68,,66,66,11,19,5,6,0.3,0.3
2024-12-06T1700,2436A,114.8938,30.3994,鄂州市,市政府,,47,47,50,31,33,87,,76,76,26,36,8,9,1.4,1.6
2024-12-06T1700,2437A,114.8989,30.3714,鄂州市,赵家坝,,45,40,52,31,34,104,,84,84,18,32,7,7,0.4,0.6
2024-12-06T1700,3654A,114.8094,30.4089,鄂州市,精准医疗中心,,48,46,54,33,32,111,,88,88,15,28,9,10,0.7,0.8
2024-12-06T1700,2454A,109.4978,30.2981,恩施土家族苗族自治州,湖北民院,,40,39,33,28,26,18,,25,25,27,16,7,7,0.6,0.5
2024-12-06T1700,2455A,109.4707,30.2798,恩施土家族苗族自治州,州电力总公司,,37,37,30,24,23,16,,25,24,32,20,7,7,0.7,0.7
2024-12-06T1700,3549A,109.5061,30.3772,恩施土家族苗族自治州,龙凤新区,,35,35,25,23,20,17,,23,23,28,18,6,6,0.3,0.3
2024-12-06T1700,2499A,108.3411,21.6158,防城港市,沙万,细颗粒物(PM2.5),85,86,77,63,53,86,,77,77,21,32,8,17,0.9,1
2024-12-06T1700,2500A,108.3514,21.7731,防城港市,防城档案局,细颗粒物(PM2.5),84,101,100,62,61,72,,70,70,23,25,8,10,0.8,0.8
2024-12-06T1700,2501A,108.3506,21.6414,防城港市,大海花园,细颗粒物(PM2.5),84,95,80,62,49,85,,80,80,21,24,6,15,0.9,0.9
2024-12-06T1700,1371A,113.1294,23.0067,佛山市,湾梁,颗粒物(PM10),63,75,72,38,41,127,,89,89,32,38,7,8,0.7,0.8
2024-12-06T1700,1372A,113.1083,23.0478,佛山市,华材职中,颗粒物(PM10),62,73,77,43,52,114,,94,94,41,48,8,9,0.7,0.8
2024-12-06T1700,1373A,113.144,23.0453,佛山市,南海气象局,细颗粒物(PM2.5),57,62,66,40,45,120,,88,88,27,37,8,8,0.6,0.7
2024-12-06T1700,1374A,113.2881,22.8094,佛山市,顺德苏岗,颗粒物(PM10),55,59,70,36,49,86,,67,67,28,42,8,8,0.6,0.7
2024-12-06T1700,1376A,112.8383,22.8678,佛山市,高明孔堂,细颗粒物(PM2.5),73,66,81,53,58,138,,98,98,34,36,8,9,0.8,1
2024-12-06T1700,1377A,112.8836,23.1588,佛山市,三水监测站,细颗粒物(PM2.5),63,68,86,45,58,117,,91,91,26,32,8,11,0.7,0.9
2024-12-06T1700,1378A,112.867,23.185,佛山市,三水云东海,细颗粒物(PM2.5),67,56,71,48,60,114,,98,98,25,32,10,10,0.9,0.9
2024-12-06T1700,3625A,113.2544,22.7642,佛山市,容桂街道办,"颗粒物(PM10),细颗粒物(PM2.5)",52,53,68,36,47,98,,74,74,30,40,7,8,0.7,0.8
2024-12-06T1700,1280A,119.3903,26.0543,福州市,鼓山,,,,28,,18,,,66,,,13,,2,,0.4
2024-12-06T1700,1282A,119.2681,26.0504,福州市,师大,,41,41,44,25,27,60,,65,65,21,21,2,3,0.4,0.4
2024-12-06T1700,1283A,119.2984,26.1028,福州市,五四北路,,40,40,36,25,22,59,,67,67,21,18,3,3,0.4,0.4
2024-12-06T1700,1284A,119.2648,26.0768,福州市,杨桥西路,,43,43,43,25,26,62,,66,66,21,22,3,2,0.3,0.3
2024-12-06T1700,1285A,119.317,26.0746,福州市,紫阳,,40,40,43,22,25,62,,57,57,17,27,2,2,0.4,0.4
2024-12-06T1700,3048A,119.5799,26.0936,福州市,九龙,,22,14,28,3,14,69,,65,65,7,8,3,2,0.4,0.3
2024-12-06T1700,3526A,119.5189,25.9664,福州市,吴航,,24,20,32,14,20,74,,73,70,12,10,2,3,0.4,0.3
2024-12-06T1700,1755A,123.7977,41.8491,抚顺市,望花区,,25,23,46,17,14,51,,52,52,17,18,5,5,0.5,0.6
2024-12-06T1700,1756A,123.9161,41.8822,抚顺市,顺城区,,24,24,48,13,15,62,,61,61,21,25,5,7,0.3,0.5
2024-12-06T1700,1757A,124.0436,41.8611,抚顺市,东洲区,,28,28,53,15,15,54,,50,50,16,18,5,8,0.4,0.4
2024-12-06T1700,1758A,123.9247,41.8642,抚顺市,新抚区,,36,36,52,12,16,52,,51,51,16,17,5,7,0.3,0.4
2024-12-06T1700,1759A,124.0972,41.8961,抚顺市,大伙房水库,,20,20,47,12,15,54,,52,52,16,18,7,8,0.3,0.4
2024-12-06T1700,1760A,123.7086,41.8391,抚顺市,沈抚新城,,31,31,38,19,12,58,,59,59,10,15,7,6,0.3,0.3
2024-12-06T1700,2376A,116.2127,28.0814,抚州市,桐源党溪,颗粒物(PM10),56,62,46,31,27,66,,63,63,10,8,6,5,0.7,0.6
2024-12-06T1700,2377A,116.3544,27.9831,抚州市,市站,颗粒物(PM10),52,53,43,31,27,73,,65,65,17,16,2,3,0.6,0.8
2024-12-06T1700,2378A,116.3565,27.963,抚州市,血防站,,49,49,44,29,27,73,,65,65,9,11,1,4,0.7,0.7
2024-12-06T1700,2379A,116.3564,28.0007,抚州市,采茶剧团,,49,45,40,34,28,70,,64,64,12,12,6,6,0.9,0.9
2024-12-06T1700,2380A,116.385,27.9647,抚州市,医学分院,,50,50,41,29,25,76,,70,70,10,12,4,5,1.0,1
2024-12-06T1700,2207A,121.6094,41.998,阜新市,工业园区,,27,27,40,13,8,53,,62,62,15,10,8,9,0.4,0.4
2024-12-06T1700,2208A,121.6697,42.0279,阜新市,长青街,,19,12,30,11,11,59,,60,60,10,10,6,7,0.3,0.3
2024-12-06T1700,2209A,121.6673,42.0705,阜新市,农业园区,,18,14,27,3,3,56,,59,59,11,9,9,10,0.5,0.4
2024-12-06T1700,2210A,121.6717,42.0224,阜新市,东苑,,20,,37,14,9,55,,57,57,8,6,8,9,0.3,0.2
2024-12-06T1700,2211A,121.6506,42.0498,阜新市,玉龙新城,,25,,54,17,12,50,,63,63,21,11,4,5,0.5,0.4
2024-12-06T1700,2301A,115.8277,32.8929,阜阳市,市监测站,,50,42,142,35,128,64,,60,60,19,32,8,6,0.4,0.8
2024-12-06T1700,2303A,115.8554,32.8605,阜阳市,开发区,颗粒物(PM10),55,59,172,30,126,70,,62,62,17,33,9,8,0.5,0.8
2024-12-06T1700,2875A,115.784,32.8892,阜阳市,阜阳职业技术学院,,44,44,144,27,119,66,,65,65,22,34,10,8,0.5,0.9
2024-12-06T1700,3468A,115.7901,32.8613,阜阳市,市规划展馆,,36,28,156,25,120,71,,66,66,19,32,8,7,0.3,0.7
2024-12-06T1700,3469A,115.836,32.9183,阜阳市,枣园社区,,33,33,152,17,110,77,,69,69,16,37,8,7,0.5,0.8
2024-12-06T1700,2669A,102.9099,34.9841,甘南藏族自治州,州政府,,27,24,51,12,20,85,,62,62,9,34,6,9,0.4,0.8
2024-12-06T1700,3380A,102.8914,34.9617,甘南藏族自治州,甘肃民族师范学院,,28,,26,11,21,89,,64,64,11,38,4,8,0.3,0.6
2024-12-06T1700,2570A,101.9603,30.0475,甘孜藏族自治州,水桥子,,17,13,22,3,10,53,,43,43,9,20,8,8,0.4,0.5
2024-12-06T1700,3065A,101.9533,29.9972,甘孜藏族自治州,州环保局,,25,25,19,3,7,57,,49,48,10,16,4,4,0.3,0.4
2024-12-06T1700,3414A,115.8347,28.932,赣江新区,桑海产业园,细颗粒物(PM2.5),70,70,59,51,43,79,,72,72,22,25,10,11,0.7,0.7
2024-12-06T1700,2362A,114.9017,25.9149,赣州市,通天岩,,35,32,65,24,54,66,,54,54,10,14,5,4,0.5,0.6
2024-12-06T1700,2363A,114.9367,25.8664,赣州市,地委,,,35,64,20,41,62,,60,60,,20,,6,0.9,1
2024-12-06T1700,2364A,114.9461,25.8481,赣州市,气象台,,33,33,65,14,36,56,,57,57,22,27,10,11,0.8,0.9
2024-12-06T1700,2365A,114.9322,25.8333,赣州市,市图书馆,,26,26,56,14,38,62,,61,61,16,20,3,4,0.9,0.9
2024-12-06T1700,2366A,114.8905,25.8471,赣州市,华坚鞋城,,29,29,56,14,32,52,,55,55,17,17,4,5,0.5,0.6
2024-12-06T1700,3109A,115.0093,25.8613,赣州市,赣县区卫计委,,,,59,,45,,,48,,,17,,6,,0.8
2024-12-06T1700,2683A,106.2319,36.1417,固原市,马园,,44,44,69,11,26,70,,61,61,18,33,7,8,0.8,1.1
2024-12-06T1700,2684A,106.2792,36.0022,固原市,监测站,,28,28,51,10,28,81,,70,70,14,29,7,7,0.4,0.9
2024-12-06T1700,2685A,106.2375,36.0211,固原市,新区,,,25,53,12,22,82,,71,71,9,41,3,3,,0.6
2024-12-06T1700,3522A,106.2177,35.9959,固原市,原州区十五小,,28,28,50,12,23,84,,79,79,11,24,6,6,0.4,0.6
2024-12-06T1700,2543A,106.6308,30.5278,广安市,小平旧居,,,,,,,,,,,,,,,,
2024-12-06T1700,2544A,106.6303,30.4576,广安市,市委,,,,19,23,17,27,,48,26,21,15,2,2,0.5,0.5
2024-12-06T1700,2545A,106.6271,30.4663,广安市,友谊中学,,28,23,18,19,15,28,,46,26,18,17,2,2,0.6,0.6
2024-12-06T1700,2547A,106.6388,30.4551,广安市,广电花园,,23,23,17,14,15,19,,48,22,26,20,3,3,0.6,0.6
2024-12-06T1700,2902A,106.6351,30.4865,广安市,北辰小学,,25,23,20,17,15,29,,46,29,17,15,4,3,0.7,0.6
2024-12-06T1700,2523A,105.8945,32.4535,广元市,黑石坡,细颗粒物(PM2.5),57,47,43,40,30,3,,21,17,39,27,6,6,0.7,0.6
2024-12-06T1700,2524A,105.821,32.4444,广元市,老城,颗粒物(PM10),64,77,54,33,30,10,,25,22,53,42,1,3,0.8,0.8
2024-12-06T1700,2526A,105.8628,32.4287,广元市,监测站,细颗粒物(PM2.5),63,52,48,45,35,19,,26,26,51,39,6,6,1.7,1.1
2024-12-06T1700,3617A,105.8047,32.4166,广元市,经开区,细颗粒物(PM2.5),68,70,58,49,38,20,,24,24,49,42,6,10,0.8,0.6
2024-12-06T1700,1345A,113.2347,23.1423,广州市,广雅中学,颗粒物(PM10),54,58,80,36,52,103,,86,86,36,41,7,8,0.9,0.9
2024-12-06T1700,1346A,113.2612,23.105,广州市,市五中,细颗粒物(PM2.5),68,60,67,49,52,122,,90,90,19,23,5,6,0.7,0.8
2024-12-06T1700,1348A,113.3478,23.0916,广州市,广东商学院,细颗粒物(PM2.5),52,49,68,36,47,110,,78,78,24,36,3,5,0.7,0.8
2024-12-06T1700,1349A,113.4332,23.1047,广州市,市八十六中,细颗粒物(PM2.5),55,57,78,39,47,104,,70,70,17,46,6,7,0.7,0.9
2024-12-06T1700,1350A,113.3505,22.9483,广州市,番禺中学,颗粒物(PM10),53,55,77,33,45,98,,80,80,27,41,7,7,0.7,0.9
2024-12-06T1700,1351A,113.2146,23.3916,广州市,花都师范,,48,44,70,33,50,108,,95,95,17,22,6,8,0.6,0.7
2024-12-06T1700,1352A,113.2597,23.1331,广州市,市监测站,颗粒物(PM10),55,59,68,37,47,114,,89,89,23,28,5,6,0.5,0.6
2024-12-06T1700,1353A,113.5618,23.312,广州市,九龙镇镇龙,,49,45,66,34,48,97,,75,75,14,20,5,6,0.7,0.7
2024-12-06T1700,1354A,113.2765,23.1544,广州市,麓湖,细颗粒物(PM2.5),55,49,61,39,49,108,,90,90,20,30,5,5,0.6,0.6
2024-12-06T1700,1355A,113.443,23.3035,广州市,帽峰山森林公园,,40,40,50,23,35,108,,88,88,16,19,4,5,0.6,0.6
2024-12-06T1700,2846A,113.3221,23.1322,广州市,体育西,"颗粒物(PM10),细颗粒物(PM2.5)",54,58,71,38,46,105,,78,78,15,20,3,4,0.7,0.8
2024-12-06T1700,3298A,113.5717,23.5491,广州市,从化街口,细颗粒物(PM2.5),60,54,68,43,49,88,,88,88,18,23,4,3,0.7,0.7
2024-12-06T1700,3299A,113.3472,23.3692,广州市,白云竹料,,50,50,77,35,52,108,,98,98,17,23,7,7,0.7,0.8
2024-12-06T1700,3300A,113.2981,23.237,广州市,白云嘉禾,颗粒物(PM10),54,58,81,35,51,106,,89,89,30,45,7,8,0.7,0.9
2024-12-06T1700,3301A,113.4256,23.1716,广州市,黄埔科学城,,49,43,64,34,48,107,,78,78,15,23,7,7,0.7,0.8
2024-12-06T1700,3302A,113.3942,23.0483,广州市,番禺大学城,颗粒物(PM10),53,56,71,34,44,100,,75,75,27,37,8,10,0.9,1.1
2024-12-06T1700,3303A,113.4922,22.8168,广州市,南沙黄阁,颗粒物(PM10),58,66,75,37,51,95,,79,79,34,53,8,8,0.7,0.9
2024-12-06T1700,3304A,113.5342,22.7896,广州市,南沙街,颗粒物(PM10),59,68,72,38,50,96,,83,83,33,42,9,6,0.7,0.8
2024-12-06T1700,3443A,113.2902,23.5544,广州市,花都梯面,,,54,65,43,52,92,,91,91,22,18,,12,,0.8
2024-12-06T1700,3445A,113.7858,23.7478,广州市,从化良口,,50,41,51,35,42,93,,84,84,7,9,6,6,0.7,0.7
2024-12-06T1700,3446A,113.8051,23.2614,广州市,增城荔城,,45,40,59,31,46,98,,89,89,12,16,2,3,0.6,0.6
2024-12-06T1700,2505A,109.568,23.1478,贵港市,德智高中,,,,,,,,,,,,,,,,
2024-12-06T1700,2506A,109.6047,23.0666,贵港市,江南子站,"颗粒物(PM10),细颗粒物(PM2.5)",63,75,88,45,64,52,,56,53,24,23,8,10,0.9,0.9
2024-12-06T1700,2507A,109.6014,23.0948,贵港市,贵城子站,细颗粒物(PM2.5),63,74,80,45,63,47,,51,45,22,22,8,9,1.0,1
2024-12-06T1700,2508A,109.5669,23.1065,贵港市,荷城子站,细颗粒物(PM2.5),62,66,81,44,55,45,,52,43,20,19,12,14,0.8,0.9
2024-12-06T1700,3405A,109.5886,23.1172,贵港市,新世纪学校,"颗粒物(PM10),细颗粒物(PM2.5)",62,73,87,44,59,44,,48,43,19,20,9,12,0.9,0.9
2024-12-06T1700,1439A,106.6899,26.5998,贵阳市,马鞍山,,14,14,7,3,1,39,,42,38,17,11,4,4,0.5,0.5
2024-12-06T1700,1440A,106.6971,26.5694,贵阳市,市环保站,,,,14,12,8,52,,52,48,19,17,5,5,0.4,0.3
2024-12-06T1700,1441A,106.6243,26.6266,贵阳市,鉴湖路,,32,27,14,22,10,26,,39,26,18,10,5,4,0.5,0.5
2024-12-06T1700,1442A,106.7487,26.6343,贵阳市,燕子冲,,18,,4,12,8,49,,49,49,13,8,6,6,0.5,0.4
2024-12-06T1700,1443A,106.6555,26.4365,贵阳市,碧云窝,,24,24,15,7,6,39,,50,38,26,17,9,7,0.5,0.5
2024-12-06T1700,1444A,106.694,26.5161,贵阳市,中院村,,16,14,10,7,6,50,,50,48,16,11,9,8,0.5,0.5
2024-12-06T1700,1445A,106.7109,26.6027,贵阳市,红边门,,18,17,11,12,9,48,,47,46,19,16,12,10,0.5,0.5
2024-12-06T1700,1446A,106.7164,26.5699,贵阳市,新华路,,32,,9,22,5,51,,50,50,16,12,3,4,0.5,0.4
2024-12-06T1700,1447A,106.674,26.5424,贵阳市,太慈桥,,14,12,7,3,4,43,,47,41,18,12,6,6,0.5,0.5
2024-12-06T1700,1552A,106.805,26.3003,贵阳市,桐木岭,,,27,23,14,14,40,,52,42,,2,5,6,0.7,0.5
2024-12-06T1700,1862A,110.4144,25.3167,桂林市,电子科大尧山校区,,18,13,15,11,16,55,,58,52,10,12,4,5,0.7,0.7
2024-12-06T1700,1863A,110.2819,25.2697,桂林市,监测站,,14,14,24,3,17,39,,53,44,21,16,7,9,1.0,1
2024-12-06T1700,1864A,110.3089,25.2708,桂林市,龙隐路小学,,32,,22,22,31,47,,56,50,17,15,11,12,0.8,1
2024-12-06T1700,1865A,110.2869,25.2178,桂林市,八中,,22,,29,15,29,42,,,,16,14,13,11,0.7,0.7
2024-12-06T1700,3403A,110.1764,25.2381,桂林市,创业大厦,,18,17,21,12,19,42,,50,44,17,14,7,8,0.8,0.8
2024-12-06T1700,3531A,110.296,25.1253,桂林市,旅游学院,,25,24,18,17,18,45,,55,49,19,16,7,8,0.9,0.9
2024-12-06T1700,2674A,100.2561,34.4714,果洛藏族自治州,玛沁县大武镇,,32,22,26,3,10,102,,76,76,1,4,6,10,0.4,0.5
2024-12-06T1700,1129A,126.5422,45.755,哈尔滨市,岭北,,40,40,25,22,20,46,,66,64,26,19,7,8,0.2,0.7
2024-12-06T1700,1130A,126.561,45.8167,哈尔滨市,松北商大,,30,28,26,21,21,24,,50,47,43,24,10,12,0.5,0.3
2024-12-06T1700,1131A,126.979,45.5419,哈尔滨市,阿城会宁,细颗粒物(PM2.5),60,45,33,43,26,21,,51,47,40,19,8,9,0.6,0.6
2024-12-06T1700,1132A,126.599,45.7222,哈尔滨市,南岗学府路,,31,31,36,17,17,44,,49,49,21,22,6,10,0.5,0.4
2024-12-06T1700,1133A,126.689,45.7733,哈尔滨市,太平宏伟公园,,,28,27,23,22,,,49,49,32,21,13,10,0.6,0.5
2024-12-06T1700,1134A,126.635,45.7667,哈尔滨市,道外承德广场,,39,35,33,27,21,38,,49,46,36,28,10,12,0.7,0.5
2024-12-06T1700,1135A,126.685,45.7319,哈尔滨市,香坊红旗大街,,32,22,26,22,20,46,,49,48,20,22,3,8,0.3,0.3
2024-12-06T1700,1136A,126.6411,45.7258,哈尔滨市,动力和平路,,29,24,32,20,21,35,,46,45,28,21,8,10,0.3,0.3
2024-12-06T1700,1137A,126.593,45.7478,哈尔滨市,道里建国路,,33,,26,23,21,38,,51,51,27,21,7,11,0.8,0.5
2024-12-06T1700,1138A,126.615,45.61,哈尔滨市,平房东轻厂,细颗粒物(PM2.5),55,41,31,39,24,18,,44,42,50,26,10,9,0.7,0.5
2024-12-06T1700,1139A,126.595,45.9855,哈尔滨市,呼兰师专,,46,38,28,32,24,45,,50,49,24,20,8,8,0.5,0.5
2024-12-06T1700,1140A,126.6206,45.6842,哈尔滨市,省农科院,细颗粒物(PM2.5),69,,31,50,25,33,,47,46,29,22,8,8,0.6,0.5
2024-12-06T1700,2688A,93.5128,42.8172,哈密市,地区监测站,,35,35,59,24,29,68,,57,57,13,26,7,5,0.3,0.4
2024-12-06T1700,2689A,93.4961,42.8328,哈密市,哈密师范学校,,36,33,52,25,30,65,,51,51,14,41,6,6,0.2,0.5
2024-12-06T1700,2671A,100.9048,36.9639,海北藏族自治州,海晏县西海镇,,31,15,35,13,23,99,,85,85,7,13,11,12,0.4,0.5
2024-12-06T1700,3867A,102.0738,36.5056,海东市,平安区公安北苑,颗粒物(PM10),67,84,82,33,57,96,,64,64,24,31,23,20,0.6,0.8
2024-12-06T1700,1409A,110.576,19.9507,海口市,东寨港,,42,42,30,18,11,109,,100,100,4,3,10,11,0.5,0.5
2024-12-06T1700,1410A,110.3232,20.0574,海口市,海南大学,颗粒物(PM10),62,74,51,42,25,147,,127,127,15,9,5,5,0.6,0.4
2024-12-06T1700,1411A,110.283,20.0053,海口市,秀英海南医院,,,,40,52,22,,,118,118,13,9,3,4,0.5,0.3
2024-12-06T1700,1412A,110.338,19.9969,海口市,海南师范大学,颗粒物(PM10),54,58,41,35,23,146,,123,123,11,9,5,4,0.5,0.4
2024-12-06T1700,1413A,110.33,20.0356,海口市,龙华路环保局宿舍,颗粒物(PM10),56,62,42,35,23,151,,128,128,8,6,5,5,0.6,0.5
2024-12-06T1700,3539A,110.5111,19.9736,海口市,桂林洋子站,颗粒物(PM10),52,53,39,28,21,133,,117,117,11,10,5,5,0.5,0.4
2024-12-06T1700,2673A,100.6188,36.2866,海南藏族自治州,共和县恰卜恰镇,,28,,25,12,12,88,,69,69,5,17,9,10,0.5,0.6
2024-12-06T1700,2676A,97.3731,37.3753,海西蒙古族藏族自治州,德令哈市,,35,35,33,9,15,98,,90,90,6,8,16,15,0.5,0.5
2024-12-06T1700,1048A,114.5302,36.6116,邯郸市,东污水处理厂,,37,37,70,19,52,59,,53,53,23,41,4,9,0.6,1.3
2024-12-06T1700,1049A,114.4918,36.5713,邯郸市,矿院,颗粒物(PM10),52,54,85,17,56,61,,52,52,25,43,4,6,0.2,1.2
2024-12-06T1700,1050A,114.484,36.6133,邯郸市,丛台公园,,40,40,76,16,51,61,,57,57,23,41,1,7,0.4,1.2
2024-12-06T1700,3458A,114.7895,36.5593,邯郸市,香泉濮院小区,,43,43,112,17,78,70,,62,62,10,32,5,10,0.2,1
2024-12-06T1700,3579A,114.50634,36.77178,邯郸市,永年区实验高中,,46,46,86,17,47,57,,54,54,19,38,6,9,0.0,0.9
2024-12-06T1700,3580A,114.20016,36.44293,邯郸市,峰峰矿区临水派出所,颗粒物(PM10),55,60,59,21,30,63,,64,64,21,18,13,14,0.8,0.9
2024-12-06T1700,2634A,106.9893,33.1842,汉中市,汉川机床厂子校,细颗粒物(PM2.5),79,60,46,58,38,43,,43,43,19,15,5,6,0.7,0.6
2024-12-06T1700,2635A,107.0154,33.0706,汉中市,市监测站,细颗粒物(PM2.5),72,53,74,52,65,45,,36,36,21,31,5,6,0.8,1.1
2024-12-06T1700,2636A,107.0089,33.1138,汉中市,鑫源开发区,细颗粒物(PM2.5),75,,72,55,69,48,,35,35,20,34,4,6,0.6,1
2024-12-06T1700,2637A,107.007,33.0323,汉中市,南郑大河坎水厂,细颗粒物(PM2.5),72,60,91,52,66,50,,40,40,19,27,4,5,0.7,1
2024-12-06T1700,1223A,120.2072,30.2111,杭州市,滨江,细颗粒物(PM2.5),105,96,70,79,65,32,,46,44,52,36,8,7,0.9,0.8
2024-12-06T1700,1224A,120.0633,30.2747,杭州市,西溪,颗粒物(PM10),65,80,82,45,42,53,,58,58,28,33,6,6,0.8,0.9
2024-12-06T1700,1226A,120.3461,30.3153,杭州市,下沙,细颗粒物(PM2.5),102,88,70,76,58,47,,57,57,58,44,7,7,1.1,1.1
2024-12-06T1700,1227A,120.1269,30.2456,杭州市,卧龙桥,细颗粒物(PM2.5),67,76,78,48,45,45,,57,57,35,34,7,7,0.7,0.7
2024-12-06T1700,1228A,120.1903,30.2692,杭州市,浙江农大,细颗粒物(PM2.5),89,72,60,66,52,43,,48,48,45,38,4,4,0.9,0.8
2024-12-06T1700,1230A,120.1197,30.3119,杭州市,和睦小学,细颗粒物(PM2.5),95,97,78,71,57,56,,56,56,49,40,5,5,0.7,0.7
2024-12-06T1700,1231A,120.3019,30.4183,杭州市,临平镇,细颗粒物(PM2.5),105,108,90,79,73,102,,80,80,21,28,7,6,0.9,0.9
2024-12-06T1700,1232A,120.2697,30.1819,杭州市,城厢镇,细颗粒物(PM2.5),102,110,93,76,60,31,,43,43,58,42,6,6,0.9,1
2024-12-06T1700,1233A,120.0883,30.1808,杭州市,云栖,细颗粒物(PM2.5),87,88,70,64,56,22,,46,46,53,32,7,7,0.8,0.8
2024-12-06T1700,3557A,119.9464,30.0494,杭州市,镇二中,颗粒物(PM10),52,53,51,35,29,39,,46,46,34,31,6,6,0.8,0.8
2024-12-06T1700,3558A,119.7183,30.2367,杭州市,市府大楼,细颗粒物(PM2.5),62,62,65,44,36,56,,49,49,38,35,7,6,0.7,0.8
2024-12-06T1700,3656A,120.1556,30.2864,杭州市,消防大队,细颗粒物(PM2.5),99,90,88,74,69,51,,57,57,45,38,8,8,0.8,0.7
2024-12-06T1700,1270A,117.1959,31.7848,合肥市,明珠广场,细颗粒物(PM2.5),77,83,126,56,95,72,,62,62,43,47,9,8,0.6,0.9
2024-12-06T1700,1271A,117.3072,31.8764,合肥市,三里街,细颗粒物(PM2.5),85,88,138,63,101,69,,60,60,34,46,8,7,0.4,0.6
2024-12-06T1700,1272A,117.2588,31.8707,合肥市,琥珀山庄,细颗粒物(PM2.5),80,75,129,59,93,92,,66,66,34,48,5,4,0.8,1.1
2024-12-06T1700,1273A,117.1604,31.9052,合肥市,董铺水库,颗粒物(PM10),64,78,129,44,82,96,,66,66,14,30,5,4,0.4,0.6
2024-12-06T1700,1274A,117.25,31.8571,合肥市,长江中路,细颗粒物(PM2.5),82,80,133,60,107,88,,67,67,31,41,9,7,0.8,1
2024-12-06T1700,1275A,117.266,31.9436,合肥市,庐阳区,细颗粒物(PM2.5),67,75,139,48,90,95,,67,67,30,48,6,5,0.7,0.9
2024-12-06T1700,1276A,117.336,31.8586,合肥市,瑶海区,细颗粒物(PM2.5),77,88,132,56,95,73,,61,61,37,52,10,10,0.8,1
2024-12-06T1700,1277A,117.3027,31.7964,合肥市,包河区,细颗粒物(PM2.5),85,85,127,63,92,50,,56,56,53,55,4,4,0.5,0.7
2024-12-06T1700,1278A,117.2776,31.7385,合肥市,滨湖新区,颗粒物(PM10),68,85,126,46,79,68,,58,58,38,46,8,8,0.3,0.5
2024-12-06T1700,1279A,117.1318,31.8403,合肥市,高新区,细颗粒物(PM2.5),68,75,125,49,98,98,,68,68,23,44,3,2,0.6,0.8
2024-12-06T1700,3464A,117.3803,31.9147,合肥市,高教基地,颗粒物(PM10),61,72,124,40,85,77,,76,76,34,46,9,7,0.5,0.7
2024-12-06T1700,3614A,79.924,37.0877,和田地区,地区环保局,颗粒物(PM10),74,97,137,28,57,82,,64,64,9,34,11,17,0.5,1.2
2024-12-06T1700,3615A,79.9131,37.113,和田地区,市环保局,,,,117,32,51,77,,52,52,7,49,8,15,0.6,1.9
2024-12-06T1700,2516A,108.2011,24.715,河池市,东仁乐园,,22,22,18,3,13,35,,47,42,13,7,9,4,0.7,1.1
2024-12-06T1700,2517A,108.0497,24.6947,河池市,市环保站,,14,9,12,8,10,44,,48,47,11,11,7,8,0.6,0.6
2024-12-06T1700,2518A,108.0983,24.6989,河池市,市疾控中心,,17,17,16,7,11,35,,48,45,20,13,9,9,0.5,0.6
2024-12-06T1700,1696A,114.6778,23.7569,河源市,源西,,,46,52,39,60,,,80,80,11,14,5,6,0.5,0.6
2024-12-06T1700,1697A,114.6944,23.7586,河源市,东埔,,46,43,55,32,65,88,,84,84,12,16,4,6,0.7,0.7
2024-12-06T1700,1698A,114.6892,23.7233,河源市,老城,,48,48,59,31,54,87,,82,82,9,12,4,6,0.7,0.8
2024-12-06T1700,1718A,115.4208,35.2464,菏泽市,气象局,细颗粒物(PM2.5),217,205,213,167,163,10,,27,17,60,42,2,3,1.2,1.1
2024-12-06T1700,1719A,115.4747,35.2375,菏泽市,市政协,细颗粒物(PM2.5),207,194,217,157,170,14,,32,20,56,42,5,5,1.2,1.1
2024-12-06T1700,3374A,115.5564,35.0891,菏泽市,定陶老年大学,细颗粒物(PM2.5),199,178,182,149,137,14,,18,18,57,46,6,7,1.0,1
2024-12-06T1700,3647A,115.4702,35.2706,菏泽市,菏泽医专,细颗粒物(PM2.5),205,212,191,155,144,17,,36,20,72,47,7,6,1.2,1.1
2024-12-06T1700,2514A,111.5264,24.4172,贺州市,环保小区,,45,34,63,31,54,30,,32,32,20,18,5,5,0.7,0.8
2024-12-06T1700,2515A,111.5608,24.4078,贺州市,政协大楼,,49,49,73,27,50,27,,33,33,19,17,6,6,0.7,0.7
2024-12-06T1700,3534A,111.4744,24.4553,贺州市,西湾,,38,38,73,26,58,30,,32,32,19,16,5,5,0.8,0.8
2024-12-06T1700,2385A,114.17,35.9019,鹤壁市,市监测站,细颗粒物(PM2.5),72,70,83,52,48,62,,61,61,25,38,4,4,0.5,0.5
2024-12-06T1700,2386A,114.2956,35.7511,鹤壁市,市交警支队,细颗粒物(PM2.5),70,68,125,51,90,63,,49,49,22,40,1,4,0.7,1
2024-12-06T1700,2387A,114.2878,35.7306,鹤壁市,迎宾馆,细颗粒物(PM2.5),59,65,125,42,81,65,,51,51,19,37,7,5,0.3,0.6
2024-12-06T1700,3474A,114.2617,35.6822,鹤壁市,大新区,颗粒物(PM10),53,55,116,35,100,54,,51,51,29,38,6,5,0.8,1.1
2024-12-06T1700,3596A,114.1572,35.9603,鹤壁市,南山宾馆,细颗粒物(PM2.5),83,81,65,61,53,64,,71,71,18,13,4,3,0.3,0.3
2024-12-06T1700,2244A,130.2537,47.3416,鹤岗市,哈啤分公司,,25,,19,17,16,51,,50,50,5,4,14,15,0.4,0.4
2024-12-06T1700,2245A,130.2684,47.3086,鹤岗市,斯达机电,,26,22,22,18,18,52,,55,52,13,8,13,14,0.2,0.2
2024-12-06T1700,2246A,130.3114,47.3388,鹤岗市,东山纸板厂,,23,19,24,16,18,54,,52,52,8,7,13,12,0.3,0.4
2024-12-06T1700,2247A,130.1097,47.3382,鹤岗市,五号水库,,23,18,23,7,11,71,,66,66,4,4,8,9,0.0,0.1
2024-12-06T1700,2263A,127.4833,50.2524,黑河市,交通局,,25,,18,17,19,46,,54,53,15,11,6,7,0.3,0.3
2024-12-06T1700,2264A,127.5144,50.2341,黑河市,环保局,,18,16,16,12,15,49,,55,54,9,10,5,5,0.3,0.3
2024-12-06T1700,2265A,127.5291,50.2472,黑河市,大黑河岛,,,17,19,,,49,,51,51,9,9,2,2,0.6,0.6
2024-12-06T1700,1074A,115.6838,37.7541,衡水市,电机北厂,细颗粒物(PM2.5),57,56,83,40,47,56,,50,50,21,40,4,8,0.3,0.6
2024-12-06T1700,1075A,115.6303,37.7316,衡水市,市监测站,颗粒物(PM10),53,55,73,21,44,56,,44,44,24,49,5,7,0.3,0.6
2024-12-06T1700,3188A,115.6683,37.7217,衡水市,市城管局,,45,40,76,31,47,59,,51,51,21,44,3,6,0.4,0.6
2024-12-06T1700,3459A,115.5989,37.5491,衡水市,地表水厂,,,,90,,70,61,,50,50,15,50,5,17,,0.7
2024-12-06T1700,2456A,112.5003,26.9167,衡阳市,原169医院,,26,23,31,18,20,37,,33,33,8,16,3,4,0.6,0.7
2024-12-06T1700,2457A,112.6194,26.9258,衡阳市,衡阳化工总厂,,43,36,31,30,32,25,,36,31,30,22,6,8,0.7,0.7
2024-12-06T1700,2458A,112.6211,26.8956,衡阳市,珠晖区环保局,,48,,29,33,35,28,,38,33,24,17,7,7,0.8,0.8
2024-12-06T1700,2459A,112.6197,26.8733,衡阳市,市委党校,细颗粒物(PM2.5),112,,32,84,33,27,,38,,32,22,6,16,0.8,0.8
2024-12-06T1700,2460A,112.6006,26.8919,衡阳市,市监测站,,41,41,36,25,27,28,,38,33,28,18,6,8,0.7,0.7
2024-12-06T1700,2461A,112.5664,26.9056,衡阳市,真空机电公司,细颗粒物(PM2.5),53,,20,37,37,37,,41,36,22,17,4,4,0.9,0.8
2024-12-06T1700,3399A,112.6703,26.882,衡阳市,师范学院,,43,43,34,30,28,34,,40,35,24,20,8,9,0.8,0.8
2024-12-06T1700,2608A,103.3772,23.3993,红河哈尼族彝族自治州,污水处理厂,,22,22,20,11,18,64,,65,64,7,8,6,7,0.5,0.6
2024-12-06T1700,2609A,103.3861,23.35,红河哈尼族彝族自治州,监测站,,28,,23,19,25,60,,63,63,12,14,12,13,0.7,0.6
2024-12-06T1700,3038A,103.3758,23.368,红河哈尼族彝族自治州,州图书馆,,20,,11,11,14,61,,59,59,6,10,6,7,0.5,0.5
2024-12-06T1700,1090A,111.6507,40.7517,呼和浩特市,呼市一监,,20,7,40,3,16,62,,67,67,10,24,8,9,0.5,0.6
2024-12-06T1700,1091A,111.6572,40.8033,呼和浩特市,小召,,20,12,17,3,8,61,,66,66,13,18,8,8,0.3,0.4
2024-12-06T1700,1094A,111.7516,40.8369,呼和浩特市,如意水处理厂,,18,8,20,3,7,57,,60,60,5,11,7,6,0.2,0.2
2024-12-06T1700,1095A,111.7276,40.8062,呼和浩特市,二十九中,,20,10,19,3,9,63,,66,66,10,18,6,7,0.4,0.4
2024-12-06T1700,1096A,111.5512,40.7866,呼和浩特市,工大金川校区,,20,6,33,3,11,64,,63,63,8,29,4,5,0.4,0.5
2024-12-06T1700,1097A,111.717,40.7612,呼和浩特市,化肥厂生活区,,19,15,38,3,15,58,,56,56,5,30,6,8,0.3,0.4
2024-12-06T1700,3698A,111.5968,40.8178,呼和浩特市,红旗小学,,20,7,14,3,7,61,,65,65,10,19,4,4,0.3,0.3
2024-12-06T1700,3699A,111.6518,40.8389,呼和浩特市,海东办,,19,6,9,3,7,58,,66,66,15,20,8,7,0.5,0.5
2024-12-06T1700,2192A,119.7594,49.2261,呼伦贝尔市,区环保局,,28,28,24,18,16,52,,57,56,18,13,7,7,0.3,0.3
2024-12-06T1700,3061A,119.7512,49.1577,呼伦贝尔市,国华电力东,,30,30,25,14,15,58,,64,63,10,7,4,4,0.3,0.2
2024-12-06T1700,1250A,120.0751,30.8669,湖州市,城西水厂,细颗粒物(PM2.5),120,125,100,91,65,109,,76,76,26,38,10,8,0.9,0.9
2024-12-06T1700,2873A,120.0875,30.8955,湖州市,仁皇山新区,细颗粒物(PM2.5),124,123,89,94,68,110,,86,86,27,37,10,8,0.9,0.9
2024-12-06T1700,2907A,120.1844,30.8596,湖州市,吴兴区站,细颗粒物(PM2.5),224,,105,174,73,101,,76,76,31,39,9,7,0.8,0.7
2024-12-06T1700,3562A,120.4148,30.8538,湖州市,南浔区站,细颗粒物(PM2.5),119,122,96,90,65,112,,89,89,25,30,9,7,0.7,0.7
2024-12-06T1700,1607A,120.9092,40.7136,葫芦岛市,龙港区,,35,35,39,13,13,54,,57,57,26,25,50,32,0.6,0.4
2024-12-06T1700,1608A,120.8392,40.7514,葫芦岛市,化工街,,34,34,47,9,19,55,,56,56,24,41,15,32,0.5,0.7
2024-12-06T1700,1609A,120.8341,40.7073,葫芦岛市,新区,,23,23,28,14,13,54,,55,55,15,29,14,19,0.3,0.4
2024-12-06T1700,1610A,120.8695,40.7677,葫芦岛市,东城区,,29,,32,20,15,50,,55,55,18,29,15,30,0.8,1
2024-12-06T1700,2482A,109.5981,27.5721,怀化市,林科所,,19,19,17,12,16,51,,54,54,11,10,6,5,0.3,0.3
2024-12-06T1700,2483A,109.9453,27.5444,怀化市,河西地税局,,44,44,32,11,20,53,,52,52,19,16,7,6,0.4,0.4
2024-12-06T1700,2484A,109.9781,27.5342,怀化市,市四医院,,38,38,29,21,21,51,,56,52,12,11,14,10,0.5,0.5
2024-12-06T1700,2485A,109.9972,27.5578,怀化市,监测楼,,37,37,32,19,20,49,,54,50,16,14,11,4,0.5,0.5
2024-12-06T1700,2486A,110.0394,27.583,怀化市,市委党校,,35,35,35,21,21,47,,45,45,11,14,11,8,0.4,0.4
2024-12-06T1700,1210A,119.036,33.5981,淮安市,钵池山,细颗粒物(PM2.5),195,156,150,146,134,77,,63,63,36,32,7,6,0.9,0.9
2024-12-06T1700,1211A,119.007,33.575,淮安市,北京南路,细颗粒物(PM2.5),170,151,143,129,122,54,,53,53,49,40,8,8,1.1,1.2
2024-12-06T1700,1212A,118.989,33.6067,淮安市,市监测站,颗粒物(PM10),111,171,154,,135,55,,58,58,53,42,7,6,1.1,1.1
2024-12-06T1700,1213A,119.135,33.5039,淮安市,楚州区监测站,细颗粒物(PM2.5),209,173,152,159,127,39,,46,46,50,42,6,6,0.9,0.9
2024-12-06T1700,1214A,119.0186,33.6297,淮安市,淮阴区监测站,细颗粒物(PM2.5),183,183,168,138,130,63,,60,60,50,45,7,6,1.1,1.1
2024-12-06T1700,3426A,118.8755,33.2894,淮安市,新华书店,细颗粒物(PM2.5),209,184,137,159,122,78,,62,62,35,29,6,5,1.0,0.9
2024-12-06T1700,2282A,116.8004,33.975,淮北市,监测站,细颗粒物(PM2.5),125,113,165,95,121,75,,67,67,25,31,4,3,0.8,1.1
2024-12-06T1700,2283A,116.8091,33.9007,淮北市,烈山区政府,细颗粒物(PM2.5),150,146,152,115,113,74,,68,68,34,42,4,4,0.7,0.9
2024-12-06T1700,3330A,116.8873,33.9836,淮北市,杜集区检察院,细颗粒物(PM2.5),109,120,143,82,100,85,,68,68,25,33,4,2,0.5,0.8
2024-12-06T1700,4017A,116.7923,33.9535,淮北市,市博物馆,细颗粒物(PM2.5),128,133,155,97,110,75,,70,70,29,38,4,2,0.8,1
2024-12-06T1700,2277A,116.8305,32.7727,淮南市,潘集区政府,细颗粒物(PM2.5),139,137,174,106,132,74,,70,70,32,40,8,8,0.8,0.9
2024-12-06T1700,2278A,117.0067,32.6524,淮南市,师范学院,细颗粒物(PM2.5),95,109,177,71,126,83,,71,71,33,36,7,4,0.8,0.8
2024-12-06T1700,2279A,116.8569,32.5951,淮南市,谢家集区政府,细颗粒物(PM2.5),132,126,158,100,131,65,,61,61,46,39,9,10,0.8,0.9
2024-12-06T1700,2280A,116.8281,32.633,淮南市,八公山区政府,细颗粒物(PM2.5),142,146,167,108,127,66,,61,61,34,28,8,7,0.8,0.8
2024-12-06T1700,2281A,116.6325,32.6201,淮南市,焦岗湖风景区管理处,细颗粒物(PM2.5),94,92,128,70,102,72,,48,48,15,34,5,5,0.5,0.7
2024-12-06T1700,2894A,117.0566,32.6531,淮南市,经济技术开发区消防队,细颗粒物(PM2.5),88,101,164,65,127,85,,74,74,28,32,8,5,0.6,0.8
2024-12-06T1700,3329A,117.0108,32.5893,淮南市,山南新区,细颗粒物(PM2.5),87,96,164,64,133,80,,71,71,28,31,3,3,0.3,0.6
2024-12-06T1700,2446A,114.9028,30.4742,黄冈市,职工中心,细颗粒物(PM2.5),53,54,55,37,34,101,,85,85,16,24,10,11,0.6,0.7
2024-12-06T1700,2929A,114.8858,30.4519,黄冈市,红卫路,细颗粒物(PM2.5),52,48,49,36,32,99,,86,86,20,28,7,8,0.5,0.6
2024-12-06T1700,3398A,114.9136,30.4445,黄冈市,市林业局,,46,46,47,30,30,110,,92,92,8,19,10,10,0.6,0.7
2024-12-06T1700,2672A,102.0199,35.5102,黄南藏族自治州,同仁县隆务镇,颗粒物(PM10),55,60,59,28,41,88,,80,80,19,9,6,7,0.6,0.6
2024-12-06T1700,2295A,118.2903,29.6963,黄山市,延安路89号,颗粒物(PM10),54,57,33,28,23,68,,54,54,10,13,8,7,0.4,0.4
2024-12-06T1700,2296A,118.327,29.7178,黄山市,黄山东路89号,细颗粒物(PM2.5),63,67,43,45,24,61,,58,58,17,13,7,6,0.4,0.4
2024-12-06T1700,2297A,118.1371,30.2756,黄山市,黄山区政府5号楼,颗粒物(PM10),52,54,38,20,26,97,,90,90,15,17,9,8,0.3,0.4
2024-12-06T1700,2423A,115.0601,30.2313,黄石市,沈家营,,37,37,54,22,30,102,,84,84,16,23,7,9,0.6,0.8
2024-12-06T1700,2424A,115.0817,30.2006,黄石市,陈家湾,,45,38,50,31,36,98,,79,79,20,22,9,13,0.5,0.7
2024-12-06T1700,2426A,114.8988,30.2019,黄石市,铁山,颗粒物(PM10),51,52,58,33,37,108,,90,90,22,40,11,11,0.9,1
2024-12-06T1700,2427A,115.0307,30.2092,黄石市,团城山,,42,42,58,28,32,99,,84,84,18,26,6,11,0.6,0.8
2024-12-06T1700,3149A,115.0235,30.1578,黄石市,笔架山北路,,33,28,58,20,40,105,,88,88,16,35,8,14,0.5,0.9
2024-12-06T1700,1392A,114.4183,23.0528,惠州市,河南岸金山湖子站,细颗粒物(PM2.5),52,50,64,36,48,93,,79,79,18,14,8,8,0.6,0.6
2024-12-06T1700,1393A,114.4053,23.0822,惠州市,下埔横江三路子站,细颗粒物(PM2.5),52,52,64,36,48,107,,92,92,15,13,6,7,0.5,0.6
2024-12-06T1700,1394A,114.4103,23.1142,惠州市,江北云山西路子站,,50,49,63,35,46,108,,92,92,16,15,7,8,0.7,0.7
2024-12-06T1700,1395A,114.4645,22.7833,惠州市,惠阳区承修路船湖子站,颗粒物(PM10),57,63,76,39,43,101,,83,83,12,18,8,8,0.5,0.6
2024-12-06T1700,1396A,114.5317,22.7422,惠州市,大亚湾管委会子站,,49,47,63,34,39,90,,84,84,27,29,8,7,0.6,0.7
2024-12-06T1700,3314A,114.4338,22.8134,惠州市,惠阳秋长,颗粒物(PM10),56,61,57,38,44,115,,94,94,14,17,7,7,0.7,0.8
2024-12-06T1700,3452A,114.6517,22.775,惠州市,大亚湾霞涌,,,58,54,37,44,93,,86,86,9,14,6,6,,0.4
2024-12-06T1700,2240A,130.9762,45.3001,鸡西市,环保局,,21,21,20,12,13,52,,54,54,5,5,5,6,0.4,0.4
2024-12-06T1700,2243A,130.9429,45.3039,鸡西市,第一中学,,19,13,23,12,12,58,,61,58,7,6,9,6,0.3,0.3
2024-12-06T1700,3707A,131.0207,45.3073,鸡西市,欧美日汽修厂,,,22,26,21,19,55,,56,,,14,10,18,0.3,0.4
2024-12-06T1700,3709A,130.9967,45.3106,鸡西市,市政设施管理处,,26,23,27,18,15,56,,55,55,9,12,1,4,0.5,0.5
2024-12-06T1700,2367A,114.9754,27.0803,吉安市,红声器材厂,,50,50,45,22,27,67,,55,55,23,31,11,12,0.6,0.7
2024-12-06T1700,2368A,114.9658,27.0999,吉安市,市森林工业局,,39,36,38,27,29,64,,56,56,24,32,11,13,0.4,0.5
2024-12-06T1700,2369A,114.99,27.1312,吉安市,市环境监测站,,27,27,42,12,27,61,,54,54,26,34,12,13,0.7,0.7
2024-12-06T1700,2370A,115.0093,27.0968,吉安市,青原区法院,,44,44,41,25,27,64,,55,55,25,32,10,11,0.7,0.8
2024-12-06T1700,1772A,126.54,43.8622,吉林市,哈达湾,细颗粒物(PM2.5),53,43,34,37,19,55,,52,52,22,15,8,8,0.5,0.5
2024-12-06T1700,1773A,126.5844,43.8358,吉林市,东局子,颗粒物(PM10),54,57,43,26,15,53,,50,50,22,14,6,7,0.6,0.5
2024-12-06T1700,1774A,126.5052,43.8245,吉林市,电力学院,颗粒物(PM10),55,59,37,30,17,53,,53,53,21,13,6,8,0.6,0.6
2024-12-06T1700,1775A,126.6133,43.8972,吉林市,江北,颗粒物(PM10),61,71,50,41,20,52,,49,49,21,17,11,11,0.7,0.5
2024-12-06T1700,1776A,126.555,43.8306,吉林市,江南公园,细颗粒物(PM2.5),54,55,38,38,20,51,,49,49,23,15,8,9,1.6,0.7
2024-12-06T1700,1778A,126.7061,43.7133,吉林市,丰满,颗粒物(PM10),60,69,33,40,13,49,,49,49,17,8,11,9,0.5,0.4
2024-12-06T1700,2868A,126.4739,43.953,吉林市,九站,,50,50,38,35,17,51,,51,51,20,15,10,6,0.6,0.6
2024-12-06T1700,1299A,116.9862,36.6114,济南市,科干所,细颗粒物(PM2.5),150,171,87,115,52,84,,79,79,47,47,11,11,1.0,0.7
2024-12-06T1700,1300A,116.9376,36.665,济南市,农科所,细颗粒物(PM2.5),140,156,104,107,55,,,62,62,48,60,10,10,1.2,1
2024-12-06T1700,1301A,117.1265,36.6734,济南市,开发区,细颗粒物(PM2.5),150,156,80,115,55,76,,66,66,48,47,10,7,0.9,0.7
2024-12-06T1700,1303A,117.0624,36.6868,济南市,省种子仓库,细颗粒物(PM2.5),156,171,109,119,59,78,,68,68,39,52,10,8,1.0,0.9
2024-12-06T1700,1304A,116.9489,36.6447,济南市,机床二厂,细颗粒物(PM2.5),153,171,120,117,66,79,,78,78,40,53,11,18,1.1,1.1
2024-12-06T1700,1305A,117.0495,36.663,济南市,市监测站,细颗粒物(PM2.5),140,149,87,107,54,81,,72,72,44,56,10,8,0.9,0.7
2024-12-06T1700,1306A,116.7675,36.5484,济南市,长清党校,细颗粒物(PM2.5),144,142,90,110,65,73,,75,75,48,47,12,9,0.9,0.7
2024-12-06T1700,1616A,117.6795,36.229,济南市,技术学院,细颗粒物(PM2.5),110,117,108,83,78,80,,58,58,36,54,16,13,1.3,1.2
2024-12-06T1700,1961A,117.532,36.6868,济南市,东山小学,细颗粒物(PM2.5),80,90,74,59,43,70,,55,55,29,47,9,8,0.6,0.6
2024-12-06T1700,3059A,117.7161,36.2049,济南市,泰兴公司,细颗粒物(PM2.5),98,110,134,73,90,73,,52,52,36,51,13,13,0.8,1
2024-12-06T1700,3064A,117.6867,36.2171,济南市,莱芜战役纪念馆,细颗粒物(PM2.5),107,119,129,80,87,77,,49,49,26,53,10,11,1.2,1.1
2024-12-06T1700,3494A,117.1673,36.9782,济南市,济阳区政府,细颗粒物(PM2.5),189,186,126,142,81,67,,51,51,45,59,14,12,1.1,0.9
2024-12-06T1700,3495A,117.1171,36.63,济南市,锦屏中学,细颗粒物(PM2.5),138,132,62,105,45,95,,84,84,38,32,10,7,0.9,0.6
2024-12-06T1700,3682A,116.9814,36.6819,济南市,济南四建,细颗粒物(PM2.5),138,141,94,105,58,67,,64,64,48,56,9,11,1.0,0.9
2024-12-06T1700,1653A,116.6251,35.4302,济宁市,火炬城,细颗粒物(PM2.5),132,,149,100,150,92,,55,55,23,49,9,8,0.7,1
2024-12-06T1700,1655A,116.5491,35.4042,济宁市,电化厂,细颗粒物(PM2.5),144,150,182,110,114,58,,47,47,48,59,9,10,1.2,1.2
2024-12-06T1700,3500A,116.5814,35.3707,济宁市,北湖一中,细颗粒物(PM2.5),168,,152,127,142,69,,57,57,39,54,2,3,1.0,1
2024-12-06T1700,3501A,116.8249,35.5593,济宁市,服务中心,细颗粒物(PM2.5),145,156,187,111,124,70,,54,54,33,49,10,10,1.0,1.1
2024-12-06T1700,3678A,116.5907,35.4054,济宁市,市第七中学,细颗粒物(PM2.5),128,99,152,97,142,86,,62,62,35,50,5,4,1.1,1.1
2024-12-06T1700,2255A,130.2751,46.8028,佳木斯市,佳纺,,26,26,27,16,21,42,,52,51,25,13,11,12,0.5,0.5
2024-12-06T1700,2256A,130.3995,46.8307,佳木斯市,发电厂,,14,10,18,8,13,42,,55,50,17,7,5,6,0.4,0.4
2024-12-06T1700,2257A,130.3258,46.7975,佳木斯市,环保局,,18,12,23,12,17,42,,47,44,18,16,9,11,0.3,0.4
2024-12-06T1700,2258A,130.3648,46.8032,佳木斯市,十一中,,15,12,20,9,14,48,,52,50,17,15,6,9,0.3,0.3
2024-12-06T1700,2259A,130.3794,46.7588,佳木斯市,四丰,,18,11,19,3,11,57,,54,54,2,7,1,1,0.2,0.2
2024-12-06T1700,1252A,120.7436,30.778,嘉兴市,清河小学,细颗粒物(PM2.5),98,103,82,73,52,106,,74,74,28,32,18,17,1.1,1
2024-12-06T1700,1253A,120.726,30.7478,嘉兴市,嘉兴学院,细颗粒物(PM2.5),102,113,93,76,66,104,,76,76,26,32,8,7,0.9,0.8
2024-12-06T1700,2872A,120.7846,30.7525,嘉兴市,南湖区残联,细颗粒物(PM2.5),110,110,80,83,69,106,,82,82,25,25,10,8,1.0,0.9
2024-12-06T1700,3407A,120.6916,30.7739,嘉兴市,秀洲住建,细颗粒物(PM2.5),117,111,79,88,60,106,,79,79,25,30,12,11,0.9,0.9
2024-12-06T1700,1945A,98.2908,39.7711,嘉峪关市,气象局,,29,29,40,14,17,80,,58,58,15,35,22,25,0.4,0.5
2024-12-06T1700,2884A,98.2672,39.7978,嘉峪关市,酒钢宾馆,,41,41,52,19,19,67,,53,53,30,35,60,50,1.0,1
2024-12-06T1700,3248A,98.2643,39.7724,嘉峪关市,雄关区,,,,36,,19,,,60,,,39,,14,,0.3
2024-12-06T1700,1383A,113.1064,22.6058,江门市,北街,细颗粒物(PM2.5),64,64,80,46,53,106,,80,80,30,54,7,8,0.5,0.7
2024-12-06T1700,1384A,113.0731,22.5835,江门市,西区,颗粒物(PM10),60,70,86,37,49,106,,77,77,32,56,8,9,0.6,0.8
2024-12-06T1700,1385A,113.0219,22.5311,江门市,圭峰西,颗粒物(PM10),57,63,74,39,52,111,,73,73,22,33,4,4,0.4,0.6
2024-12-06T1700,1386A,113.0828,22.5947,江门市,东湖,颗粒物(PM10),54,57,79,37,47,100,,75,75,27,46,7,8,0.6,0.8
2024-12-06T1700,3311A,113.1075,22.5647,江门市,江海富民,颗粒物(PM10),61,72,99,40,52,101,,75,75,41,64,7,9,0.7,0.9
2024-12-06T1700,3449A,113.05,22.4667,江门市,新会银湖,细颗粒物(PM2.5),62,56,79,44,60,92,,70,70,36,52,6,6,0.6,0.8
2024-12-06T1700,1828A,113.227,35.2125,焦作市,市环保局,,45,45,46,30,26,73,,72,72,20,19,5,9,0.3,0.3
2024-12-06T1700,1830A,113.1992,35.2590,焦作市,影视城,颗粒物(PM10),62,73,42,35,22,74,,62,,25,15,13,10,0.6,0.4
2024-12-06T1700,3169A,113.2725,35.2067,焦作市,太极体育中心,,46,46,48,16,15,70,,72,72,25,20,8,11,0.5,0.5
2024-12-06T1700,3335A,113.3137,35.2641,焦作市,马村街道办,颗粒物(PM10),52,54,44,33,22,76,,76,76,16,14,7,7,0.4,0.4
2024-12-06T1700,3336A,113.2465,35.2373,焦作市,焦作技师学院,,46,46,42,24,21,72,,70,70,14,15,7,9,0.4,0.5
2024-12-06T1700,3477A,113.1656,35.2539,焦作市,中站许衡医院,颗粒物(PM10),55,59,53,35,28,63,,68,68,27,25,12,10,0.5,0.7
2024-12-06T1700,3981A,113.2449,35.1803,焦作市,原李万街道办,,41,41,48,19,18,68,,74,74,26,16,5,14,0.5,0.5
2024-12-06T1700,1708A,116.3701,23.5345,揭阳市,新兴,"颗粒物(PM10),细颗粒物(PM2.5)",53,55,55,37,38,97,,94,94,15,18,6,8,0.6,0.5
2024-12-06T1700,1709A,116.3264,23.5443,揭阳市,西马,颗粒物(PM10),55,60,60,32,37,89,,87,87,16,17,7,8,0.7,0.6
2024-12-06T1700,1710A,116.3611,23.5626,揭阳市,东兴,颗粒物(PM10),54,57,60,37,36,92,,91,91,17,21,9,11,0.8,0.8
2024-12-06T1700,1711A,116.4151,23.5294,揭阳市,渔湖,,,53,53,,30,106,,98,98,14,20,8,11,0.6,0.6
2024-12-06T1700,3320A,116.403,23.5699,揭阳市,曲溪,,47,47,54,32,34,108,,101,101,18,19,2,4,0.7,0.7
2024-12-06T1700,1944A,102.1692,38.5167,金昌市,天庆家园,,,21,56,7,28,85,,77,77,,28,,17,0.7,0.9
2024-12-06T1700,3170A,102.1864,38.5253,金昌市,市委党校,,27,18,42,9,24,85,,79,79,8,20,10,13,0.5,0.8
2024-12-06T1700,4022A,102.1647,38.5371,金昌市,金川区人防中心,,27,12,37,8,23,86,,81,81,6,15,11,12,0.6,0.7
2024-12-06T1700,1262A,119.647,29.077,金华市,十五中,细颗粒物(PM2.5),59,44,45,42,44,30,,25,25,43,43,4,4,0.8,1
2024-12-06T1700,1263A,119.686,29.1029,金华市,监测站,细颗粒物(PM2.5),70,60,50,51,44,22,,22,22,51,47,4,3,0.9,0.8
2024-12-06T1700,3659A,119.656,29.1131,金华市,气象局,细颗粒物(PM2.5),69,62,55,50,44,20,,19,19,52,50,4,4,1.0,0.7
2024-12-06T1700,1767A,121.1115,41.0879,锦州市,南山,,23,23,22,14,9,62,,66,66,11,14,9,13,0.4,0.5
2024-12-06T1700,1768A,121.0533,40.8434,锦州市,开发区,,41,41,52,26,20,49,,59,59,25,45,11,17,0.4,0.8
2024-12-06T1700,1769A,121.1836,41.1119,锦州市,百股街道,,40,40,25,19,9,48,,58,58,19,15,8,10,0.6,0.5
2024-12-06T1700,1770A,121.1178,41.1222,锦州市,天安街道,,28,28,25,14,10,55,,64,64,18,22,10,14,0.6,0.5
2024-12-06T1700,1771A,121.1303,41.1386,锦州市,北湖公园,,28,,21,19,10,55,,60,60,14,10,9,11,0.4,0.3
2024-12-06T1700,2160A,112.85,35.5051,晋城市,自来水公司,,33,33,35,12,20,74,,70,70,25,23,6,8,0.4,0.7
2024-12-06T1700,2161A,112.8318,35.4936,晋城市,白云商贸,,,14,37,,14,81,,76,76,20,24,4,5,0.4,0.7
2024-12-06T1700,2162A,112.8508,35.4887,晋城市,市环保局,,25,24,37,12,21,79,,72,72,21,25,5,7,0.5,0.7
2024-12-06T1700,2163A,112.8676,35.4897,晋城市,技术学院,,29,29,44,3,19,84,,74,74,21,28,6,8,0.5,0.7
2024-12-06T1700,2165A,112.8453,35.546,晋城市,白马寺,,33,33,33,19,19,82,,66,,12,16,11,13,0.5,0.7
2024-12-06T1700,3620A,112.8271,35.4828,晋城市,泽州一中,,29,29,36,12,17,81,,76,76,16,21,6,6,0.4,0.7
2024-12-06T1700,2171A,112.7532,37.6945,晋中市,锦纶小区,,46,46,58,7,27,80,,61,61,13,35,2,16,0.4,0.8
2024-12-06T1700,2173A,112.7249,37.7067,晋中市,南都小区,颗粒物(PM10),51,51,58,22,32,80,,67,67,12,34,3,20,0.3,0.7
2024-12-06T1700,2174A,112.6991,37.6982,晋中市,榆次区政府,颗粒物(PM10),51,51,64,13,30,78,,60,60,17,36,7,17,0.2,0.7
2024-12-06T1700,2865A,112.7195,37.6828,晋中市,榆次三中,颗粒物(PM10),52,53,65,9,28,81,,59,59,10,33,5,18,0.3,0.8
2024-12-06T1700,2439A,112.2014,31.0481,荆门市,竹园小学,,37,37,66,21,39,81,,77,77,22,32,12,12,0.5,0.7
2024-12-06T1700,2440A,112.1969,30.9891,荆门市,掇刀,,42,42,66,27,39,91,,87,87,19,35,9,11,0.4,0.7
2024-12-06T1700,2441A,112.2213,31.0386,荆门市,石化一小,颗粒物(PM10),51,51,76,27,42,85,,80,80,19,36,10,10,0.3,0.6
2024-12-06T1700,3012A,112.1849,31.0362,荆门市,西山林语,,,,52,,33,,,82,82,13,18,9,8,0.3,0.4
2024-12-06T1700,3547A,112.1632,31.0138,荆门市,龙泉中学南校,,49,38,59,34,39,91,,87,87,18,29,12,11,0.3,0.5
2024-12-06T1700,1844A,112.2494,30.3197,荆州市,市图书馆,,,52,53,49,51,105,,81,81,21,34,6,6,,0.9
2024-12-06T1700,1845A,112.2008,30.3544,荆州市,市委党校,细颗粒物(PM2.5),67,57,61,48,48,103,,83,83,24,31,6,6,0.6,0.8
2024-12-06T1700,3194A,112.2747,30.3122,荆州市,管委会,细颗粒物(PM2.5),64,56,59,46,52,105,,83,83,25,32,6,6,0.5,0.7
2024-12-06T1700,3548A,112.1655,30.3364,荆州市,学苑路,细颗粒物(PM2.5),62,62,72,44,48,110,,87,87,26,29,11,10,0.7,0.7
2024-12-06T1700,2342A,117.3102,29.3867,景德镇市,王港中学,,,,,,,,,,,,,,,,
2024-12-06T1700,2343A,117.2117,29.2933,景德镇市,老干部活动中心,,36,33,23,25,22,38,,42,42,18,14,7,7,0.6,0.6
2024-12-06T1700,2344A,117.1894,29.2789,景德镇市,兽医站,,48,48,33,26,17,46,,47,47,12,13,7,7,0.5,0.5
2024-12-06T1700,2345A,117.1547,29.2617,景德镇市,台达陶瓷,,42,39,25,29,17,35,,40,40,19,7,6,4,0.6,0.6
2024-12-06T1700,2346A,117.2461,29.2956,景德镇市,陶研所,,28,27,22,19,14,35,,38,38,14,14,3,4,0.6,0.7
2024-12-06T1700,1803A,115.9872,29.6815,九江市,十里,,50,50,46,35,36,97,,80,80,22,37,7,7,0.6,0.9
2024-12-06T1700,1804A,115.9584,29.7046,九江市,茅山头,细颗粒物(PM2.5),62,64,47,44,39,98,,81,81,21,31,14,11,0.7,0.8
2024-12-06T1700,1805A,115.9877,29.7295,九江市,西园,细颗粒物(PM2.5),58,48,49,41,39,98,,82,82,22,29,7,8,0.6,0.7
2024-12-06T1700,1806A,116.0172,29.6547,九江市,五七二七厂,细颗粒物(PM2.5),57,58,56,40,42,78,,76,76,20,20,6,5,0.7,0.9
2024-12-06T1700,1808A,115.9114,29.6038,九江市,综合工业园,细颗粒物(PM2.5),72,52,48,52,54,81,,79,79,40,39,20,16,0.8,0.8
2024-12-06T1700,1809A,116.0721,29.7535,九江市,石化总厂,,49,42,48,34,40,102,,90,90,25,31,10,11,0.7,0.9
2024-12-06T1700,1810A,115.9773,29.5698,九江市,庐山气象台,颗粒物(PM10),55,60,40,37,34,82,,78,78,12,8,10,8,0.3,0.8
2024-12-06T1700,3190A,116.0254,29.6994,九江市,外国语学校,颗粒物(PM10),55,59,52,36,40,87,,75,75,24,36,6,7,0.7,0.6
2024-12-06T1700,2658A,98.5061,39.7443,酒泉市,仓门街子站,,33,31,42,23,22,85,,66,66,7,22,11,13,0.9,0.8
2024-12-06T1700,2659A,98.4989,39.7256,酒泉市,油田生活基地,,,31,54,28,30,82,,68,68,13,33,,11,0.8,0.8
2024-12-06T1700,2698A,76.0072,39.4467,喀什地区,巡警大队,颗粒物(PM10),62,74,163,18,68,70,,30,30,13,61,5,13,0.2,2.4
2024-12-06T1700,2699A,75.9755,39.4694,喀什地区,吾办,颗粒物(PM10),65,79,138,28,69,78,,41,41,19,61,4,3,0.4,1.8
2024-12-06T1700,4027A,75.9483,39.4689,喀什地区,老干局,,,90,186,18,66,79,,40,40,,50,6,4,0.3,2.9
2024-12-06T1700,1824A,114.3389,34.7781,开封市,肿瘤医院,,39,39,54,26,33,71,,69,69,20,30,7,6,0.5,0.5
2024-12-06T1700,1826A,114.2885,34.7965,开封市,世纪星幼儿园,颗粒物(PM10),51,52,54,32,31,74,,66,66,20,37,7,6,0.4,0.5
2024-12-06T1700,3147A,114.3438,34.8106,开封市,龙亭公园,颗粒物(PM10),54,57,54,32,32,76,,70,70,22,33,6,5,0.5,0.7
2024-12-06T1700,3210A,114.3644,34.7964,开封市,汴京公园,颗粒物(PM10),54,58,66,36,36,72,,69,69,26,38,7,5,0.6,0.6
2024-12-06T1700,3473A,114.2485,34.8306,开封市,技师学院,,40,,51,28,32,74,,66,66,20,32,7,6,0.5,0.5
2024-12-06T1700,3592A,114.4644,34.7556,开封市,祥符区生态环境局,细颗粒物(PM2.5),62,59,78,44,58,49,,65,65,36,39,4,5,0.5,0.6
2024-12-06T1700,1951A,84.895,45.6094,克拉玛依市,长征新村,,30,30,32,12,22,44,,20,15,16,28,5,5,0.4,0.6
2024-12-06T1700,1952A,84.8988,45.5893,克拉玛依市,南林小区,,,27,30,14,24,44,,14,,14,29,,2,,0.7
2024-12-06T1700,1954A,84.905,44.3396,克拉玛依市,独山子区,,32,32,17,20,16,54,,60,55,12,12,4,4,0.4,0.3
2024-12-06T1700,1955A,85.6979,46.098,克拉玛依市,乌尔禾区商贸楼,,,,15,,14,41,,19,18,22,26,4,3,0.5,0.6
2024-12-06T1700,3612A,85.1045,45.6899,克拉玛依市,白碱滩区新站,,26,26,30,16,18,36,,12,12,27,44,8,8,0.7,0.8
2024-12-06T1700,2697A,76.1454,39.7142,克孜勒苏柯尔克孜自治州,市人民政府,颗粒物(PM10),57,64,79,15,30,100,,72,72,6,14,5,5,0.7,0.8
2024-12-06T1700,3665A,76.1658,39.7157,克孜勒苏柯尔克孜自治州,克州文化中心,,,,78,,30,92,,64,64,,26,8,9,0.2,0.8
2024-12-06T1700,1450A,102.8204,24.8886,昆明市,呈贡新区,,23,12,21,3,12,71,,59,59,8,23,4,5,0.4,0.5
2024-12-06T1700,1451A,102.6251,24.9608,昆明市,西山森林公园,,,,,,,,,,,,,,,,
2024-12-06T1700,1452A,102.7252,25.0902,昆明市,龙泉镇,,,16,25,7,16,72,,54,54,10,28,6,6,,0.8
2024-12-06T1700,1453A,102.7266,25.0375,昆明市,东风东路,,,12,22,9,14,65,,54,54,,20,8,9,0.3,0.5
2024-12-06T1700,1454A,102.6742,25.0669,昆明市,金鼎山,,24,24,32,9,14,76,,58,58,10,31,12,14,0.4,0.7
2024-12-06T1700,1455A,102.6644,25.0401,昆明市,碧鸡广场,,23,10,29,7,15,73,,56,56,8,31,4,8,0.4,0.6
2024-12-06T1700,3179A,102.7494,25.0119,昆明市,官渡区博物馆,,24,16,28,10,13,75,,63,63,6,17,7,7,0.3,0.6
2024-12-06T1700,3375A,102.8017,24.8336,昆明市,青年创业园,,26,9,18,6,9,83,,67,67,3,14,5,6,0.6,0.6
2024-12-06T1700,3550A,102.7997,24.9786,昆明市,昆明学院,,24,13,36,3,20,74,,59,59,8,20,7,9,0.3,0.5
2024-12-06T1700,3551A,102.5967,24.6736,昆明市,晋宁区生态环境分局,,25,12,20,3,15,80,,66,66,3,14,2,2,0.3,0.5
2024-12-06T1700,3552A,102.6678,24.9856,昆明市,云天化总部,,25,9,22,3,13,80,,71,71,4,23,5,7,0.2,0.4
2024-12-06T1700,1456A,91.1319,29.6514,拉萨市,八廓街,,30,28,25,3,11,95,,80,80,16,22,8,7,0.3,0.4
2024-12-06T1700,1457A,91.1221,29.6747,拉萨市,市环保局,,33,29,50,11,27,103,,83,83,19,33,7,8,0.5,1.1
2024-12-06T1700,1458A,91.0874,29.6475,拉萨市,区监测站,,32,28,25,7,11,102,,83,83,18,30,5,5,0.4,0.5
2024-12-06T1700,1459A,91.1774,29.6541,拉萨市,西藏大学,,32,30,30,3,9,102,,85,85,10,15,4,3,0.4,0.6
2024-12-06T1700,1460A,90.9798,29.6588,拉萨市,区辐射站,,42,42,48,12,23,93,,68,68,34,43,8,10,0.6,0.9
2024-12-06T1700,1461A,91.0834,29.6292,拉萨市,拉萨火车站,,30,30,28,11,14,96,,82,82,29,36,6,5,0.6,0.9
2024-12-06T1700,2520A,109.2203,23.7256,来宾市,来宾技工学校,,42,42,40,23,29,33,,44,37,17,15,4,5,0.9,1
2024-12-06T1700,3535A,109.1781,23.7297,来宾市,兴宾区政府,,,,48,,34,,,48,41,17,16,4,6,0.9,0.9
2024-12-06T1700,4002A,109.2416,23.7461,来宾市,中南小学,,42,42,41,19,29,31,,40,35,17,17,6,6,0.9,0.9
2024-12-06T1700,1476A,103.631,36.1031,兰州市,兰炼宾馆,颗粒物(PM10),57,63,90,36,51,72,,56,56,41,61,16,27,0.7,1
2024-12-06T1700,1477A,104.1373,35.9454,兰州市,榆中兰大校区,,,,,,,,,,,,,,,,
2024-12-06T1700,1478A,103.8412,36.0726,兰州市,生物制品所,,42,42,72,23,42,72,,44,44,36,60,13,14,0.5,0.9
2024-12-06T1700,1479A,103.831,36.0464,兰州市,铁路设计院,细颗粒物(PM2.5),58,58,89,41,53,57,,38,38,52,71,10,16,0.7,1.4
2024-12-06T1700,3186A,103.7158,36.1058,兰州市,教育港,"颗粒物(PM10),细颗粒物(PM2.5)",57,64,91,40,48,66,,51,51,48,59,17,21,0.7,1
2024-12-06T1700,3241A,103.7439,36.0842,兰州市,百合公园,,41,41,80,26,44,72,,46,46,29,59,10,18,0.5,1.1
2024-12-06T1700,3242A,103.9611,35.998,兰州市,和平,,49,49,85,22,45,71,,54,54,32,50,14,17,0.5,1
2024-12-06T1700,3245A,103.6633,36.533,兰州新区,新区管委会,,46,46,65,23,38,90,,77,77,15,28,17,14,0.4,0.6
2024-12-06T1700,3246A,103.6975,36.4789,兰州新区,舟曲中学,,37,37,74,21,35,88,,76,76,17,36,19,24,0.3,0.5
2024-12-06T1700,1067A,116.6708,39.5111,廊坊市,药材公司,,,15,26,,20,46,,37,37,28,44,2,3,0.4,0.5
2024-12-06T1700,1068A,116.7214,39.5589,廊坊市,开发区,,22,22,27,7,12,50,,34,34,19,42,2,3,0.3,0.4
2024-12-06T1700,1070A,116.7244,39.5269,廊坊市,北华航天学院,,26,26,31,8,14,46,,33,33,24,44,4,4,0.3,0.5
2024-12-06T1700,2919A,116.7022,39.5453,廊坊市,河北工业大学,,22,22,33,8,13,49,,33,33,17,39,4,4,0.3,0.4
2024-12-06T1700,2535A,103.7723,29.5462,乐山市,花湖湾,,49,,53,34,51,56,,40,40,11,16,3,2,0.4,0.5
2024-12-06T1700,2536A,103.7627,29.5844,乐山市,牛耳桥,,42,37,65,29,49,48,,36,36,26,29,6,5,0.4,0.5
2024-12-06T1700,2537A,103.7508,29.6006,乐山市,市第三水厂,,39,39,63,27,47,61,,45,45,20,29,4,4,0.3,0.5
2024-12-06T1700,2538A,103.7571,29.5664,乐山市,市监测站,,48,40,63,33,46,52,,39,39,17,23,5,6,0.4,0.5
2024-12-06T1700,3361A,103.7311,29.5628,乐山市,理工大学,,45,39,60,31,47,63,,48,48,14,23,6,6,0.4,0.6
2024-12-06T1700,2598A,100.2143,26.8576,丽江市,西南郊,,,,,,,,,,,,,,,,
2024-12-06T1700,2599A,100.2497,26.8802,丽江市,丽江古城,,26,23,23,14,14,82,,75,75,9,14,9,9,0.4,0.7
2024-12-06T1700,2600A,100.2203,26.8906,丽江市,市中心,,25,14,14,9,10,78,,75,75,11,16,5,5,0.7,0.7
2024-12-06T1700,1267A,119.914,28.4514,丽水市,监测站大楼,,17,12,9,7,5,19,,25,24,33,27,3,2,0.7,0.5
2024-12-06T1700,1268A,119.93,28.4586,丽水市,莲都小学,,16,9,8,6,6,26,,29,29,31,26,5,5,0.7,0.6
2024-12-06T1700,1269A,119.879,28.4231,丽水市,余庄前,,15,8,9,3,7,17,,20,20,29,26,5,5,0.6,0.5
2024-12-06T1700,1173A,119.176,34.5885,连云港市,市环境监测站,细颗粒物(PM2.5),94,92,165,70,124,72,,56,56,35,51,11,12,0.7,0.9
2024-12-06T1700,3000A,119.3581,34.6972,连云港市,德源药业,细颗粒物(PM2.5),73,85,170,53,123,44,,46,46,50,62,9,8,0.5,0.9
2024-12-06T1700,3007A,119.178,34.844,连云港市,新城一中,细颗粒物(PM2.5),85,90,158,63,127,55,,56,56,38,46,11,13,0.6,1.1
2024-12-06T1700,3008A,119.3608,34.7519,连云港市,胡沟管理处,颗粒物(PM10),63,75,147,44,104,57,,49,49,21,32,6,6,0.3,0.5
2024-12-06T1700,3009A,119.1478,34.5911,连云港市,矿山设计院,细颗粒物(PM2.5),94,102,176,70,127,70,,55,55,32,47,10,10,0.9,1.1
2024-12-06T1700,3434A,119.2413,34.6539,连云港市,工贸学校,细颗粒物(PM2.5),90,94,166,67,128,45,,55,55,46,37,11,10,0.8,1
2024-12-06T1700,3664A,119.4172,34.7341,连云港市,连云街道,细颗粒物(PM2.5),84,84,131,62,98,27,,37,37,53,37,9,10,0.7,0.9
2024-12-06T1700,2571A,102.3431,27.8099,凉山彝族自治州,青龙寺,,24,22,28,10,12,74,,57,57,7,12,6,6,0.8,0.8
2024-12-06T1700,2572A,102.2721,27.8415,凉山彝族自治州,邛海宾馆,,40,40,31,19,18,63,,46,46,24,18,12,12,0.7,0.8
2024-12-06T1700,2573A,102.2625,27.898,凉山彝族自治州,西昌市政府,,36,36,30,24,21,65,,48,48,16,19,6,7,0.8,0.8
2024-12-06T1700,2574A,102.2685,27.8851,凉山彝族自治州,凉山州政府,,32,32,35,19,22,66,,48,48,15,21,11,10,0.7,0.8
2024-12-06T1700,2575A,102.237,27.8914,凉山彝族自治州,长安,,37,37,41,25,23,62,,49,49,20,28,10,9,0.8,0.7
2024-12-06T1700,2212A,123.2,41.1953,辽阳市,宏伟区,,24,24,40,14,15,50,,52,52,12,12,6,8,0.5,0.6
2024-12-06T1700,2213A,123.1683,41.2495,辽阳市,新华园,,20,16,40,14,20,50,,54,54,18,18,5,7,0.8,0.9
2024-12-06T1700,2214A,123.2354,41.2639,辽阳市,滨河路,,20,20,38,14,15,51,,54,54,13,15,8,10,0.5,0.5
2024-12-06T1700,2215A,123.149,41.2991,辽阳市,铁西工业园,,34,34,48,14,18,38,,50,50,25,23,8,9,0.4,0.6
2024-12-06T1700,2227A,125.1358,42.8845,辽源市,环保局,,29,29,30,14,9,53,,57,57,18,11,7,8,0.6,0.5
2024-12-06T1700,3239A,125.0764,42.9078,辽源市,银鹰制药,,32,32,33,22,14,42,,54,54,34,14,12,10,0.5,0.4
2024-12-06T1700,1625A,115.9848,36.4372,聊城市,区政府,,,94,165,64,121,,,38,38,37,51,,8,1.0,1.2
2024-12-06T1700,2878A,116.0072,36.4343,聊城市,聊大东校,细颗粒物(PM2.5),93,100,180,69,133,56,,42,42,35,49,13,10,0.9,1.1
2024-12-06T1700,3200A,115.9819,36.4978,聊城市,监控中心,细颗粒物(PM2.5),94,96,170,70,134,48,,44,44,48,57,12,10,0.8,1
2024-12-06T1700,3513A,116.0445,36.4361,聊城市,九州社区,细颗粒物(PM2.5),83,79,161,61,132,61,,44,44,26,41,11,10,0.8,1.1
2024-12-06T1700,4018A,116.0567,36.4608,聊城市,星美广场,细颗粒物(PM2.5),79,96,185,58,132,58,,47,47,29,39,9,8,0.8,1.1
2024-12-06T1700,2632A,94.3681,29.6376,林芝市,林芝监测站,,22,11,15,3,5,70,,66,61,4,5,6,6,0.1,0.2
2024-12-06T1700,2633A,94.3616,29.6616,林芝市,林芝人民医院,,,,14,,8,,,57,54,1,9,5,6,0.3,0.3
2024-12-06T1700,2603A,100.0781,23.8982,临沧市,市环保局,,25,16,24,10,18,77,,62,62,8,13,13,10,0.3,0.5
2024-12-06T1700,2604A,100.0894,23.8822,临沧市,市气象局,,23,20,23,11,18,73,,56,56,9,14,10,8,0.4,0.5
2024-12-06T1700,1733A,111.5531,36.0783,临汾市,临钢医院,,47,47,48,31,27,70,,47,47,20,33,10,7,0.5,0.6
2024-12-06T1700,1734A,111.5028,36.0714,临汾市,技工学校,,,48,47,30,31,,,41,41,23,37,8,7,0.7,0.7
2024-12-06T1700,1736A,111.5018,36.0855,临汾市,市委,颗粒物(PM10),55,60,53,31,24,66,,45,45,22,29,9,7,0.6,0.5
2024-12-06T1700,3018A,111.505,36.1014,临汾市,唐尧大酒店,颗粒物(PM10),53,56,48,33,27,66,,45,45,22,28,12,9,0.7,0.7
2024-12-06T1700,3668A,111.5036,36.0414,临汾市,城南,,50,45,61,35,35,74,,51,51,22,36,8,7,0.7,0.7
2024-12-06T1700,2667A,103.2069,35.5993,临夏回族自治州,环保局,颗粒物(PM10),57,64,95,22,20,84,,47,47,16,37,11,11,0.6,1.5
2024-12-06T1700,2668A,103.2417,35.6057,临夏回族自治州,建设大厦,,42,42,70,21,24,100,,60,60,15,28,13,12,0.8,1.2
2024-12-06T1700,1618A,118.3429,35.0532,临沂市,沂河小区,细颗粒物(PM2.5),115,117,161,87,121,80,,61,61,39,58,16,13,0.8,0.9
2024-12-06T1700,1619A,118.295,35.0583,临沂市,鲁南制药厂,细颗粒物(PM2.5),104,112,174,78,121,82,,58,58,28,54,12,13,0.6,0.9
2024-12-06T1700,1620A,118.2794,34.9976,临沂市,新光毛纺厂,细颗粒物(PM2.5),104,110,172,78,122,75,,58,58,38,60,14,12,1.0,1.2
2024-12-06T1700,1621A,118.3956,35.0888,临沂市,河东保险公司,细颗粒物(PM2.5),102,107,156,76,114,89,,62,62,30,47,10,7,0.5,0.7
2024-12-06T1700,3370A,118.3564,35.0215,临沂市,十里堡居委,细颗粒物(PM2.5),104,112,156,78,112,82,,64,64,36,52,16,12,0.8,1.1
2024-12-06T1700,3496A,118.3604,35.1084,临沂市,南坊新区,细颗粒物(PM2.5),104,105,149,78,114,87,,63,63,40,58,10,8,0.8,1
2024-12-06T1700,3860A,118.3920,35.0300,临沂市,皇山花园小区,细颗粒物(PM2.5),102,114,164,76,109,78,,56,56,40,66,11,8,0.8,1
2024-12-06T1700,1870A,109.4856,24.3895,柳州市,柳东小学,,30,30,25,14,20,30,,38,30,12,10,8,9,0.6,0.6
2024-12-06T1700,1871A,109.4157,24.3277,柳州市,环保监测站,,41,41,35,18,21,32,,35,28,18,20,9,12,0.7,0.9
2024-12-06T1700,1872A,109.389,24.341,柳州市,河西水厂,,,50,38,24,21,18,,32,26,28,19,,19,1.6,1.2
2024-12-06T1700,1873A,109.4311,24.2921,柳州市,市四中,,31,31,27,15,24,34,,41,33,18,16,7,8,0.7,0.8
2024-12-06T1700,1874A,109.4006,24.3631,柳州市,市九中,,42,42,35,15,21,32,,34,29,16,18,6,10,0.7,1.1
2024-12-06T1700,1875A,109.4958,24.3134,柳州市,古亭山,,33,33,26,16,19,33,,42,33,15,13,9,10,0.7,1
2024-12-06T1700,3402A,109.5422,24.3996,柳州市,市二中,,31,31,30,16,22,19,,36,20,22,18,9,9,0.8,0.9
2024-12-06T1700,2307A,116.5079,31.737,六安市,监测大楼,细颗粒物(PM2.5),57,56,73,40,54,90,,72,72,20,29,7,6,0.5,0.6
2024-12-06T1700,2308A,116.4738,31.7643,六安市,皖西学院,,,68,79,41,50,,,69,69,24,31,6,6,0.6,0.7
2024-12-06T1700,2309A,116.4996,31.7905,六安市,朝阳厂,细颗粒物(PM2.5),58,50,82,41,60,84,,66,66,23,31,3,2,0.7,0.8
2024-12-06T1700,2310A,116.5567,31.7886,六安市,开发区,"颗粒物(PM10),细颗粒物(PM2.5)",64,78,108,46,68,80,,70,70,32,36,6,5,0.7,0.7
2024-12-06T1700,2576A,104.8,26.5892,六盘水市,窑上,,30,30,31,21,22,35,,38,35,16,14,6,6,0.7,0.8
2024-12-06T1700,2577A,104.83,26.5917,六盘水市,黄土坡,,46,39,21,32,13,24,,40,29,28,19,15,9,0.8,0.6
2024-12-06T1700,2578A,104.89,26.5939,六盘水市,水钢,,38,27,23,26,15,32,,46,43,24,17,10,7,0.7,0.7
2024-12-06T1700,2579A,104.8475,26.5894,六盘水市,民中,,35,27,19,24,13,25,,39,24,26,22,9,8,0.7,0.7
2024-12-06T1700,2580A,104.9544,26.5506,六盘水市,双水,,23,22,17,16,13,44,,51,46,14,12,8,8,0.6,0.6
2024-12-06T1700,2335A,117.0189,25.1181,龙岩市,龙岩师专,,,,,,,,,,,,,,,,
2024-12-06T1700,2336A,117.0217,25.1033,龙岩市,龙岩市监测站,细颗粒物(PM2.5),57,50,35,40,29,70,,83,83,18,20,5,4,0.7,0.6
2024-12-06T1700,2337A,117.0258,25.0661,龙岩市,闽西职业技术学院,,49,38,45,34,28,64,,80,80,17,19,2,8,0.3,0.3
2024-12-06T1700,2338A,117.0196,25.0306,龙岩市,龙岩学院,,43,38,38,30,30,72,,80,80,11,17,3,3,0.6,0.6
2024-12-06T1700,2665A,105.0822,33.3261,陇南市,汉王镇固水子,,,,,,,,,,,,,,,,
2024-12-06T1700,2885A,104.9339,33.3826,陇南市,滨江中学,颗粒物(PM10),53,56,63,30,31,81,,57,57,16,34,5,30,0.4,0.8
2024-12-06T1700,3247A,104.955,33.371,陇南市,市总工会,颗粒物(PM10),61,71,56,18,25,90,,65,65,10,20,1,7,0.3,0.4
2024-12-06T1700,2487A,111.9589,27.8901,娄底市,电视发射台,,46,33,25,32,22,34,,51,44,17,13,7,6,0.2,0.1
2024-12-06T1700,2488A,111.9975,27.725,娄底市,市监测站,细颗粒物(PM2.5),55,54,43,39,37,52,,53,53,26,22,8,10,0.6,0.7
2024-12-06T1700,2489A,112.0194,27.7314,娄底市,市委党校,细颗粒物(PM2.5),57,45,44,40,35,50,,50,50,25,21,6,7,0.6,0.7
2024-12-06T1700,2490A,111.9561,27.7569,娄底市,涟钢,,40,40,50,28,33,50,,51,51,18,15,5,8,0.4,0.5
2024-12-06T1700,2491A,111.9892,27.7044,娄底市,市政府,,,,43,19,31,46,,50,46,21,19,8,8,,0.6
2024-12-06T1700,1893A,105.4324,28.9634,泸州市,九狮山,,,,,,,,,,,,,,,,
2024-12-06T1700,1894A,105.4427,28.9063,泸州市,小市上码头,,45,44,39,31,28,33,,41,41,41,28,3,3,0.5,0.4
2024-12-06T1700,1895A,105.4241,28.8573,泸州市,兰田宪桥,,42,42,36,28,32,58,,47,47,19,20,4,3,0.6,0.6
2024-12-06T1700,1896A,105.4379,28.8833,泸州市,市环监站,,45,40,37,31,28,30,,34,34,34,27,4,4,0.4,0.4
2024-12-06T1700,3490A,105.3617,28.7703,泸州市,纳溪区环保局,细颗粒物(PM2.5),62,72,52,44,41,32,,27,27,36,29,6,5,0.7,0.6
2024-12-06T1700,2183A,111.1406,37.5211,吕梁市,环保局,,28,28,72,10,23,68,,50,50,11,35,4,3,0.3,0.4
2024-12-06T1700,2185A,111.1297,37.5136,吕梁市,自来水公司,,22,22,91,14,31,67,,53,53,14,32,2,3,0.3,0.4
2024-12-06T1700,2867A,111.1283,37.51,吕梁市,马茂庄小学,,32,32,83,15,24,70,,52,52,13,38,2,5,0.1,0.3
2024-12-06T1700,1812A,112.3931,34.6516,洛阳市,市委党校,,47,47,57,20,32,75,,64,64,20,25,5,8,0.5,0.6
2024-12-06T1700,1814A,112.4657,34.6871,洛阳市,豫西宾馆,颗粒物(PM10),53,56,70,23,35,75,,64,64,20,31,7,20,0.3,0.5
2024-12-06T1700,1815A,112.494,34.6886,洛阳市,河南林校,,45,45,56,28,38,68,,62,62,21,32,5,9,0.4,0.5
2024-12-06T1700,1816A,112.3844,34.623,洛阳市,开发区管委会,,43,42,52,30,36,77,,65,65,13,20,7,7,0.3,0.4
2024-12-06T1700,1817A,112.4267,34.6258,洛阳市,市委新办公区,,45,45,56,31,42,80,,67,67,12,19,5,6,0.4,0.4
2024-12-06T1700,3340A,112.6005,34.6326,洛阳市,伊滨,,45,45,55,15,25,74,,65,65,18,19,6,6,0.3,0.4
2024-12-06T1700,3341A,112.4951,34.6332,洛阳市,中移产业园,,39,39,47,17,31,80,,69,69,18,22,5,7,0.2,0.4
2024-12-06T1700,3593A,112.5736,34.8993,洛阳市,吉利监测站,,27,23,33,17,26,85,,75,75,8,24,6,5,0.3,0.4
2024-12-06T1700,3635A,112.3677,34.662,洛阳市,河科大西苑校区,,47,47,57,27,35,84,,70,70,15,23,5,10,0.4,0.6
2024-12-06T1700,3636A,112.4388,34.6781,洛阳市,英才小学,,42,42,60,22,36,73,,61,61,21,30,5,19,0.3,0.5
2024-12-06T1700,2399A,114.051,33.5699,漯河市,三五一五工厂,颗粒物(PM10),55,59,64,38,40,81,,73,73,18,25,8,9,0.4,0.4
2024-12-06T1700,2400A,114.0055,33.5698,漯河市,漯河大学,颗粒物(PM10),62,73,67,36,38,78,,73,73,23,30,8,9,0.3,0.3
2024-12-06T1700,2401A,114.0138,33.5828,漯河市,市水利局,颗粒物(PM10),56,61,66,36,39,75,,68,68,21,28,9,10,0.5,0.6
2024-12-06T1700,2402A,114.0261,33.5698,漯河市,市广电局,细颗粒物(PM2.5),53,54,55,37,41,80,,72,72,18,24,8,9,0.3,0.4
2024-12-06T1700,3478A,113.9749,33.5664,漯河市,市图书馆,颗粒物(PM10),57,64,65,32,39,75,,69,69,23,29,7,8,0.3,0.3
2024-12-06T1700,3479A,114.0967,33.5906,漯河市,召陵区卫健委,颗粒物(PM10),52,54,65,34,41,73,,69,69,26,31,11,12,0.4,0.5
2024-12-06T1700,1798A,118.5092,31.6837,马鞍山市,湖东路四小,细颗粒物(PM2.5),143,154,135,109,97,51,,56,56,63,57,16,10,1.5,1.3
2024-12-06T1700,1799A,118.5024,31.6449,马鞍山市,开发区,细颗粒物(PM2.5),172,151,129,130,110,72,,60,60,48,54,9,7,1.1,1
2024-12-06T1700,1800A,118.5228,31.7231,马鞍山市,慈湖,细颗粒物(PM2.5),150,151,121,115,107,59,,39,39,,54,15,12,1.0,1.4
2024-12-06T1700,1802A,118.6245,31.7241,马鞍山市,濮塘,细颗粒物(PM2.5),162,146,110,123,89,62,,42,42,62,41,16,10,1.6,1.2
2024-12-06T1700,3633A,118.4918,31.6809,马鞍山市,雨山,细颗粒物(PM2.5),137,159,133,104,93,51,,51,51,62,53,22,11,1.7,1.2
2024-12-06T1700,1686A,111.0286,21.4688,茂名市,电白南海,颗粒物(PM10),57,63,70,12,38,147,,130,130,17,19,6,8,0.6,0.6
2024-12-06T1700,1687A,110.9294,21.6533,茂名市,茂石化七小,细颗粒物(PM2.5),58,58,76,41,46,130,,119,119,13,15,8,10,0.8,0.8
2024-12-06T1700,1688A,110.9107,21.6687,茂名市,健康路,颗粒物(PM10),53,56,66,36,45,135,,126,126,14,17,12,15,0.7,0.7
2024-12-06T1700,1689A,110.8592,21.6828,茂名市,高岭,颗粒物(PM10),62,73,78,41,45,119,,112,112,27,23,10,17,0.7,0.8
2024-12-06T1700,3450A,111.01,21.5165,茂名市,电白水东,细颗粒物(PM2.5),55,56,66,39,40,132,,117,117,14,12,9,11,1.0,0.9
2024-12-06T1700,2539A,104.0308,30.0478,眉山市,黑龙滩水库,,38,38,50,16,30,69,,72,72,12,11,2,2,0.4,0.4
2024-12-06T1700,2540A,103.8416,30.0874,眉山市,气象局,,43,43,53,24,40,56,,50,50,24,32,5,4,0.3,0.5
2024-12-06T1700,3137A,103.8578,30.0744,眉山市,市委党校,,44,44,47,27,32,59,,50,50,20,27,7,5,0.4,0.4
2024-12-06T1700,3148A,103.8291,30.0564,眉山市,区人社局,,40,40,42,22,33,56,,50,50,32,32,7,5,0.3,0.4
2024-12-06T1700,1690A,116.1231,24.3284,梅州市,梅江月梅,,46,45,54,32,44,72,,64,64,19,26,8,9,0.7,0.7
2024-12-06T1700,1691A,116.0797,24.2719,梅州市,梅县新城,,46,41,49,32,44,88,,68,68,12,16,4,5,0.6,0.6
2024-12-06T1700,1692A,116.1248,24.2654,梅州市,环境监控中心,,49,36,63,34,42,82,,61,61,15,24,6,8,0.8,0.8
2024-12-06T1700,3315A,116.1233,24.2991,梅州市,梅龙,,41,41,52,27,43,78,,61,61,14,24,6,6,0.8,0.8
2024-12-06T1700,1878A,104.7778,31.4741,绵阳市,富乐山,,34,34,28,19,18,60,,47,47,17,18,3,2,0.4,0.3
2024-12-06T1700,1879A,104.7563,31.4535,绵阳市,市人大,,35,33,35,24,20,51,,42,42,23,25,1,2,0.4,0.4
2024-12-06T1700,1880A,104.6697,31.4668,绵阳市,高新区自来水公司,,32,31,39,22,20,62,,42,42,18,32,3,4,0.3,0.4
2024-12-06T1700,1881A,104.7287,31.5075,绵阳市,三水厂,,35,35,38,21,22,63,,48,48,16,27,6,6,0.3,0.4
2024-12-06T1700,3491A,104.69,31.5322,绵阳市,西科大附属小学,,35,35,43,24,26,66,,45,45,11,30,5,5,0.4,0.5
2024-12-06T1700,3492A,104.5648,31.5343,绵阳市,安州区旅游局,,32,30,47,22,29,66,,43,43,18,33,7,7,0.5,0.5
2024-12-06T1700,1784A,129.61,44.561,牡丹江市,环保大楼,,33,33,27,19,21,50,,62,57,14,10,5,6,0.4,0.3
2024-12-06T1700,1785A,129.6115,44.5782,牡丹江市,文化广场,,23,,27,16,21,46,,63,56,26,16,8,10,1.3,0.7
2024-12-06T1700,1786A,129.5904,44.5963,牡丹江市,第一医院,,49,,29,34,26,45,,61,56,20,10,4,6,0.5,0.4
2024-12-06T1700,1787A,129.6364,44.6075,牡丹江市,机车工厂,,38,38,30,21,18,56,,59,57,9,12,6,9,0.4,0.4
2024-12-06T1700,1788A,129.6386,44.5462,牡丹江市,第一中学,,26,19,23,18,16,57,,64,61,9,10,5,5,0.3,0.3
2024-12-06T1700,2531A,105.0703,29.61,内江市,市监测站,,27,27,28,17,23,47,,40,35,10,16,6,6,0.5,0.5
2024-12-06T1700,2532A,105.0717,29.5947,内江市,东兴区政府,,33,33,28,19,18,41,,53,30,23,22,5,5,0.8,0.8
2024-12-06T1700,2533A,105.0653,29.5817,内江市,内江二中,,33,26,36,23,21,45,,51,32,21,25,7,7,0.5,0.5
2024-12-06T1700,2534A,105.0406,29.5822,内江市,内江日报社,,29,28,34,20,20,45,,41,34,18,25,8,8,0.5,0.5
2024-12-06T1700,2628A,92.0657,31.4846,那曲市,那曲监测站,,33,33,99,9,42,99,,71,71,6,25,6,10,0.4,1.2
2024-12-06T1700,3128A,92.0506,31.4797,那曲市,那曲会议中心,,33,33,124,3,39,96,,71,71,1,17,2,6,0.7,1.4
2024-12-06T1700,1290A,115.8931,28.6843,南昌市,省外办,细颗粒物(PM2.5),83,75,61,61,51,76,,69,69,22,26,7,6,0.6,0.7
2024-12-06T1700,1291A,115.8886,28.7003,南昌市,省林业公司,细颗粒物(PM2.5),79,70,53,58,44,78,,73,73,22,23,9,9,0.6,0.7
2024-12-06T1700,1292A,115.8126,28.7442,南昌市,林科所,细颗粒物(PM2.5),73,68,46,53,37,81,,77,77,28,30,10,8,0.8,0.8
2024-12-06T1700,1294A,115.8518,28.687,南昌市,建工学校,"颗粒物(PM10),细颗粒物(PM2.5)",62,74,53,44,30,80,,72,72,23,27,9,8,0.7,0.7
2024-12-06T1700,1295A,115.8921,28.6424,南昌市,象湖,细颗粒物(PM2.5),72,58,45,52,46,81,,76,76,32,31,8,8,0.8,0.8
2024-12-06T1700,1296A,115.7423,28.7996,南昌市,武术学校,"颗粒物(PM10),细颗粒物(PM2.5)",57,64,39,40,23,50,,56,56,18,15,3,3,0.7,0.7
2024-12-06T1700,1298A,115.9314,28.6842,南昌市,省站,细颗粒物(PM2.5),82,93,78,60,48,74,,74,74,32,27,10,10,0.7,0.7
2024-12-06T1700,3046A,115.9084,28.6062,南昌市,机电学校,细颗粒物(PM2.5),79,82,64,58,48,74,,71,71,29,26,9,11,0.8,0.8
2024-12-06T1700,3690A,115.9721,28.7031,南昌市,外国语学校,细颗粒物(PM2.5),65,74,60,47,39,73,,75,75,30,29,7,7,0.8,0.8
2024-12-06T1700,1905A,106.056,30.8064,南充市,西山风景区,,13,9,14,9,9,30,,41,32,6,3,3,3,0.8,0.7
2024-12-06T1700,1906A,106.0789,30.8023,南充市,南充市委,,18,14,19,12,15,21,,37,27,22,17,3,3,0.3,0.3
2024-12-06T1700,1907A,106.1031,30.8217,南充市,南充炼油厂,,20,20,25,14,17,20,,42,27,24,15,3,3,0.4,0.5
2024-12-06T1700,1908A,106.1064,30.7856,南充市,高坪区监测站,,19,14,23,13,16,21,,39,25,23,18,5,2,0.4,0.3
2024-12-06T1700,1909A,106.0642,30.7636,南充市,嘉陵区环保局,,17,17,25,9,15,25,,37,24,22,21,10,4,0.5,0.4
2024-12-06T1700,1910A,106.1087,30.8388,南充市,市环境监测站,,31,31,28,21,19,27,,40,34,15,9,4,5,0.3,0.2
2024-12-06T1700,1151A,118.8086,32.1065,南京市,迈皋桥,细颗粒物(PM2.5),134,141,103,102,74,48,,66,66,56,37,6,5,1.1,0.6
2024-12-06T1700,1152A,118.7538,32.0551,南京市,草场门,细颗粒物(PM2.5),147,144,101,112,77,58,,59,59,59,46,10,4,2.0,1
2024-12-06T1700,1153A,118.7794,32.0745,南京市,山西路,细颗粒物(PM2.5),156,163,114,119,85,91,,89,89,66,55,3,4,1.4,0.7
2024-12-06T1700,1154A,118.7752,32.0023,南京市,中华门,细颗粒物(PM2.5),140,149,110,107,79,66,,60,60,53,50,11,5,1.8,1
2024-12-06T1700,1155A,118.8109,32.0309,南京市,瑞金路,细颗粒物(PM2.5),147,158,116,112,80,63,,58,58,45,49,13,7,1.7,0.8
2024-12-06T1700,1156A,118.7997,32.0754,南京市,玄武湖,细颗粒物(PM2.5),148,141,113,113,82,61,,58,58,57,52,10,7,1.2,0.6
2024-12-06T1700,1157A,118.6414,32.0931,南京市,浦口,细颗粒物(PM2.5),130,148,110,99,74,76,,60,60,28,21,6,6,1.0,0.9
2024-12-06T1700,1158A,118.7356,31.9996,南京市,奥体中心,细颗粒物(PM2.5),140,159,113,107,76,49,,55,55,87,63,18,9,2.2,0.8
2024-12-06T1700,1159A,118.9125,32.1028,南京市,仙林大学城,细颗粒物(PM2.5),156,136,101,119,81,61,,60,60,53,52,9,6,1.3,0.9
2024-12-06T1700,3422A,118.8436,31.9198,南京市,江宁彩虹桥,,,145,115,,74,54,,59,59,,52,8,6,1.0,0.7
2024-12-06T1700,3423A,119.0138,31.6494,南京市,溧水永阳,细颗粒物(PM2.5),134,107,85,102,70,77,,73,73,37,33,4,4,0.7,0.7
2024-12-06T1700,3424A,118.879,31.3302,南京市,高淳老职中,细颗粒物(PM2.5),95,101,85,71,74,94,,67,67,32,32,8,5,0.9,1
2024-12-06T1700,3427A,118.8554,32.3578,南京市,六合雄州,,,125,102,,67,78,,72,72,19,27,5,6,0.6,0.6
2024-12-06T1700,1401A,108.3103,22.7881,南宁市,二十一中,细颗粒物(PM2.5),60,60,75,43,57,53,,74,55,25,24,7,9,0.9,1
2024-12-06T1700,1402A,108.3141,22.8528,南宁市,北湖,细颗粒物(PM2.5),64,68,79,46,61,44,,63,49,30,25,8,11,0.8,0.9
2024-12-06T1700,1403A,108.3206,22.8225,南宁市,市监测站,细颗粒物(PM2.5),69,84,81,50,61,42,,67,48,31,27,11,14,1.0,1
2024-12-06T1700,1404A,108.3829,22.8037,南宁市,大自然花园,细颗粒物(PM2.5),65,64,78,47,58,52,,72,53,22,22,8,10,0.9,0.7
2024-12-06T1700,1405A,108.4394,22.7904,南宁市,仙葫,细颗粒物(PM2.5),69,66,67,50,57,48,,60,48,16,15,7,7,0.8,0.9
2024-12-06T1700,1406A,108.2397,22.8467,南宁市,区农职院,颗粒物(PM10),64,78,83,44,59,46,,60,45,30,26,8,13,1.0,1
2024-12-06T1700,1407A,108.3275,22.735,南宁市,英华嘉园,"颗粒物(PM10),细颗粒物(PM2.5)",57,64,72,40,58,48,,69,52,25,25,9,9,0.8,1
2024-12-06T1700,1408A,108.2257,22.7757,南宁市,沙井镇街道办,,,76,87,50,62,,,63,44,39,34,,11,1.1,1.1
2024-12-06T1700,3401A,108.4834,22.7618,南宁市,红星社区,,,60,70,48,58,,,67,54,16,17,10,10,,1
2024-12-06T1700,2331A,118.0966,26.6761,南平市,茫荡山,,,,,,,,,,,,,,,,
2024-12-06T1700,2332A,118.1681,26.6369,南平市,南平市监测站,,36,31,42,25,33,24,,30,29,15,22,3,3,0.8,0.7
2024-12-06T1700,2333A,118.1825,26.6489,南平市,南平铝业有限公司,,32,32,38,22,33,23,,28,27,15,20,3,4,0.7,0.6
2024-12-06T1700,2334A,118.1756,26.6272,南平市,南平七中,,45,45,41,27,34,22,,26,26,15,21,10,4,0.8,0.6
2024-12-06T1700,1168A,120.9098,31.9663,南通市,狼山街道,细颗粒物(PM2.5),145,136,121,111,96,93,,85,85,22,26,7,8,0.7,0.8
2024-12-06T1700,1169A,120.86,32.0005,南通市,虹桥,细颗粒物(PM2.5),142,134,120,108,99,88,,82,82,31,30,6,7,0.7,0.8
2024-12-06T1700,1170A,120.87,32.02,南通市,城中,细颗粒物(PM2.5),137,146,134,104,97,95,,89,89,28,31,7,9,0.8,0.8
2024-12-06T1700,1171A,120.94,31.93,南通市,星湖花园,细颗粒物(PM2.5),122,133,122,92,85,90,,70,70,32,39,6,8,0.6,0.7
2024-12-06T1700,1172A,120.81,32.0417,南通市,紫琅学院,细颗粒物(PM2.5),134,134,131,102,99,93,,87,87,28,38,4,6,0.8,0.8
2024-12-06T1700,3291A,121.067,32.062,南通市,通州监测站,细颗粒物(PM2.5),149,151,144,114,110,102,,93,93,21,30,2,3,0.7,0.8
2024-12-06T1700,3432A,120.9348,31.9883,南通市,环境教育馆,细颗粒物(PM2.5),142,124,117,108,95,96,,88,88,31,33,4,5,0.8,0.9
2024-12-06T1700,2404A,112.5224,33.0122,南阳市,瓦房庄,细颗粒物(PM2.5),88,78,91,65,71,71,,64,64,33,42,9,7,0.6,0.6
2024-12-06T1700,2405A,112.5003,32.9735,南阳市,汉画馆,细颗粒物(PM2.5),77,78,92,56,67,71,,67,67,34,42,8,6,0.6,0.7
2024-12-06T1700,2406A,112.5573,33.027,南阳市,气象站,,,81,92,56,67,79,,73,73,,47,6,5,0.9,1
2024-12-06T1700,2407A,112.5481,32.9689,南阳市,理工学院,细颗粒物(PM2.5),109,98,90,82,74,73,,68,68,28,42,8,6,0.6,0.7
2024-12-06T1700,4008A,112.5234,32.9922,南阳市,卧龙区政府,细颗粒物(PM2.5),83,87,94,61,70,69,,68,68,36,43,7,5,0.5,0.7
2024-12-06T1700,1234A,121.8358,29.911,宁波市,区环保大楼,细颗粒物(PM2.5),124,122,76,94,61,42,,44,31,57,50,10,9,0.9,0.8
2024-12-06T1700,1235A,121.56,29.82,宁波市,万里学院,细颗粒物(PM2.5),90,106,80,67,51,43,,47,47,47,39,9,7,0.9,0.8
2024-12-06T1700,1236A,121.713,29.9572,宁波市,龙赛医院,细颗粒物(PM2.5),107,,40,80,46,30,,56,40,72,42,11,10,1.0,0.8
2024-12-06T1700,1239A,121.633,29.7733,宁波市,钱湖水厂,细颗粒物(PM2.5),88,82,62,65,46,45,,40,40,45,41,6,6,1.0,1
2024-12-06T1700,1240A,121.5856,29.8635,宁波市,太古小学,细颗粒物(PM2.5),82,104,68,60,38,52,,50,50,40,39,9,8,0.9,0.9
2024-12-06T1700,1241A,121.524,29.8674,宁波市,市环境监测中心,颗粒物(PM10),75,100,61,49,35,42,,42,42,46,42,9,8,0.9,0.9
2024-12-06T1700,2871A,121.6147,29.9017,宁波市,万里国际学校,颗粒物(PM10),76,102,73,53,35,40,,37,37,49,51,8,7,0.9,0.9
2024-12-06T1700,3710A,121.5594,29.8975,宁波市,白沙活动中心,颗粒物(PM10),69,87,55,44,31,49,,46,46,40,38,10,9,0.9,0.9
2024-12-06T1700,2339A,119.5001,26.6946,宁德市,金涵水库,,,,,,,,,,,,,,,,
2024-12-06T1700,2341A,119.5388,26.6612,宁德市,宁德市监测站,细颗粒物(PM2.5),53,,33,37,28,52,,63,62,23,18,2,4,0.4,0.4
2024-12-06T1700,3209A,119.5231,26.6562,宁德市,宁德一中,,49,,34,34,28,59,,67,67,19,13,3,3,0.5,0.4
2024-12-06T1700,2618A,98.8601,25.8567,怒江傈僳族自治州,州监测站,,28,28,31,6,14,87,,67,67,6,16,4,4,0.4,0.4
2024-12-06T1700,2619A,98.8546,25.8417,怒江傈僳族自治州,泸水一中,,30,30,27,10,17,72,,53,53,14,23,6,6,0.5,0.7
2024-12-06T1700,1888A,101.6891,26.571,攀枝花市,弄弄坪,,33,33,59,17,38,91,,53,53,29,42,28,27,2.6,2
2024-12-06T1700,1889A,101.5769,26.5928,攀枝花市,河门口,,28,19,42,14,25,89,,72,72,19,30,8,13,0.8,1.5
2024-12-06T1700,1890A,101.7169,26.585,攀枝花市,炳草岗,,40,40,65,14,33,83,,59,59,40,48,47,22,2.6,1.4
2024-12-06T1700,1891A,101.7369,26.5008,攀枝花市,仁和,,35,17,49,10,31,110,,72,72,14,30,12,13,0.8,1.2
2024-12-06T1700,2835A,101.7227,26.567,攀枝花市,四十中小,,44,44,56,28,32,90,,60,60,30,48,27,14,2.3,1.6
2024-12-06T1700,1604A,122.0303,41.1489,盘锦市,开发区,,40,40,28,3,10,58,,63,63,13,17,5,8,0.5,0.5
2024-12-06T1700,1605A,122.0485,41.0883,盘锦市,兴隆台,,32,32,29,13,9,53,,60,60,18,26,8,10,0.4,0.5
2024-12-06T1700,1606A,121.8297,41.1028,盘锦市,新生街道,,18,17,22,12,10,47,,63,63,20,34,7,10,0.4,0.5
2024-12-06T1700,1832A,113.3257,33.742,平顶山市,新华旅馆,颗粒物(PM10),68,86,69,48,38,66,,62,62,23,19,8,10,0.5,0.5
2024-12-06T1700,1833A,113.2919,33.737,平顶山市,规划设计院,,,,65,,37,61,,56,56,,24,7,8,0.6,0.6
2024-12-06T1700,1834A,113.182,33.774,平顶山市,平顶山工学院,,,58,59,24,31,71,,57,57,18,19,8,10,,0.7
2024-12-06T1700,3204A,113.3025,33.73,平顶山市,规划局,颗粒物(PM10),59,68,63,33,38,64,,59,59,25,20,8,9,0.8,0.7
2024-12-06T1700,3594A,112.8867,33.9116,平顶山市,石龙区,"颗粒物(PM10),细颗粒物(PM2.5)",57,64,68,40,34,73,,56,56,19,40,10,11,1.0,0.9
2024-12-06T1700,2656A,106.6692,35.5461,平凉市,聚贤嘉苑,,39,39,43,16,23,102,,83,83,12,37,10,10,0.3,0.4
2024-12-06T1700,2657A,106.7021,35.5307,平凉市,博物馆,,,,51,,26,,,53,,,42,,13,,0.5
2024-12-06T1700,2347A,114.0997,27.5002,萍乡市,武功山,,39,39,20,17,9,28,,25,25,16,16,9,9,0.5,0.5
2024-12-06T1700,2348A,113.8385,27.6434,萍乡市,中医院,颗粒物(PM10),54,57,35,37,26,44,,44,44,24,24,10,11,0.9,1
2024-12-06T1700,2349A,113.8493,27.6253,萍乡市,市政府车库,细颗粒物(PM2.5),64,46,27,46,23,42,,46,46,21,19,12,13,0.8,0.7
2024-12-06T1700,2350A,113.8676,27.6435,萍乡市,市环保局,细颗粒物(PM2.5),54,51,27,38,21,48,,47,47,17,18,15,14,0.8,0.8
2024-12-06T1700,2351A,113.866,27.6198,萍乡市,安源区政府,细颗粒物(PM2.5),60,50,29,43,20,36,,41,41,25,18,11,9,1.0,0.8
2024-12-06T1700,2319A,119.0141,25.4325,莆田市,荔城区仓后路,,39,39,35,27,20,71,,84,84,17,13,2,2,0.5,0.5
2024-12-06T1700,2320A,119.0015,25.4553,莆田市,莆田市监测站,,30,27,28,21,17,77,,90,90,16,9,3,3,0.4,0.4
2024-12-06T1700,2321A,119.1119,25.4561,莆田市,涵江区六中,,43,43,34,27,22,74,,85,85,15,15,2,2,0.4,0.3
2024-12-06T1700,2322A,119.1013,25.3215,莆田市,秀屿区政府,,43,31,35,30,25,74,,81,81,16,16,2,2,0.5,0.5
2024-12-06T1700,2323A,118.981,25.4792,莆田市,东圳水库,,,,,,,,,,,,,,,,
2024-12-06T1700,2392A,115.0312,35.7636,濮阳市,环保局,细颗粒物(PM2.5),83,62,117,61,115,81,,92,92,41,53,8,4,1.1,1.4
2024-12-06T1700,2394A,115.0574,35.7609,濮阳市,油田运输公司,细颗粒物(PM2.5),83,106,140,61,108,77,,66,66,40,40,9,4,0.8,1
2024-12-06T1700,2395A,115.0866,35.7754,濮阳市,油田物探公司,细颗粒物(PM2.5),119,129,145,90,113,71,,62,62,44,40,16,4,0.8,1.1
2024-12-06T1700,3021A,115,35.7668,濮阳市,濮水河管理处,细颗粒物(PM2.5),72,82,148,52,104,66,,75,75,39,49,7,5,0.8,0.9
2024-12-06T1700,2601A,100.98,22.7633,普洱市,市环保局,,24,24,32,8,15,65,,50,50,5,9,5,6,0.4,0.6
2024-12-06T1700,2602A,100.9817,22.8322,普洱市,普洱第二中学,,20,15,29,9,13,64,,49,49,4,11,6,7,0.4,0.6
2024-12-06T1700,2262A,131.0518,45.8751,七台河市,新一中,,30,30,29,14,14,68,,67,65,13,10,11,11,1.4,1.4
2024-12-06T1700,3345A,131.0577,45.7879,七台河市,中波台,,41,41,29,20,18,31,,56,46,43,20,11,10,0.7,0.7
2024-12-06T1700,3637A,131.0176,45.7761,七台河市,人民广场,,40,33,37,28,24,30,,55,46,46,23,8,8,0.7,0.6
2024-12-06T1700,3684A,130.8781,45.8222,七台河市,新建矿广场,细颗粒物(PM2.5),59,,21,42,26,36,,54,45,36,20,7,5,0.6,0.5
2024-12-06T1700,1779A,123.9305,47.3636,齐齐哈尔市,安居小区,,20,20,23,10,14,53,,64,63,25,15,3,4,0.4,0.3
2024-12-06T1700,1780A,123.9488,47.3386,齐齐哈尔市,中心广场,,25,,15,17,8,60,,64,60,14,12,4,3,0.4,0.4
2024-12-06T1700,1781A,123.9483,47.3227,齐齐哈尔市,农牧车辆厂,,,,16,7,10,60,,72,72,14,14,5,5,0.3,0.3
2024-12-06T1700,1783A,123.945,47.2988,齐齐哈尔市,市环境监测站,,31,31,19,12,11,55,,67,64,24,15,4,2,0.5,0.4
2024-12-06T1700,3662A,123.6333,47.2075,齐齐哈尔市,富区青少年活动中心,颗粒物(PM10),54,58,20,12,10,41,,55,54,27,13,18,9,1.8,0.7
2024-12-06T1700,2591A,107.9783,26.5747,黔东南苗族侗族自治州,市环境监测站,,23,21,18,16,13,57,,64,59,24,16,3,2,0.6,0.6
2024-12-06T1700,2881A,107.8908,26.5311,黔东南苗族侗族自治州,凯里学院,,20,,9,13,11,62,,64,59,12,11,3,3,0.4,0.4
2024-12-06T1700,2593A,107.5228,26.2403,黔南布依族苗族自治州,小围寨,,15,9,5,7,4,47,,55,54,8,4,4,4,0.6,0.6
2024-12-06T1700,3538A,107.5175,26.2978,黔南布依族苗族自治州,沙坝,,20,17,8,14,5,53,,62,62,12,7,3,4,0.4,0.4
2024-12-06T1700,2589A,104.9022,25.0925,黔西南布依族苗族自治州,场坝街,,,32,26,10,18,42,,33,33,12,12,2,4,,0.6
2024-12-06T1700,2590A,104.8811,25.0992,黔西南布依族苗族自治州,坪东大道,,19,,21,13,19,36,,30,30,14,12,4,4,0.7,0.6
2024-12-06T1700,2502A,108.6236,21.9667,钦州市,市环保站,颗粒物(PM10),75,100,117,51,61,69,,65,62,23,32,8,9,1.6,1.1
2024-12-06T1700,2503A,108.6549,21.9481,钦州市,沙埠小学,细颗粒物(PM2.5),73,91,108,53,60,79,,67,67,26,36,8,12,0.9,0.9
2024-12-06T1700,2504A,108.5989,21.7431,钦州市,港区一小,颗粒物(PM10),87,123,97,58,48,74,,62,62,33,34,11,9,1.0,0.9
2024-12-06T1700,3404A,108.5959,21.9633,钦州市,北职校,细颗粒物(PM2.5),83,71,96,61,68,64,,63,63,20,26,10,15,1.0,1
2024-12-06T1700,1042A,119.5134,39.8207,秦皇岛市,北戴河环保局,,20,18,18,8,11,64,,50,50,7,25,3,3,0.4,0.6
2024-12-06T1700,1043A,119.7493,40.0116,秦皇岛市,第一关,,43,42,21,30,17,20,,38,38,48,35,8,5,0.4,0.3
2024-12-06T1700,1044A,119.5897,39.9499,秦皇岛市,监测站,,43,43,28,22,15,32,,36,36,35,32,9,5,0.4,0.4
2024-12-06T1700,1046A,119.5251,39.9041,秦皇岛市,建设大厦,,40,40,30,18,18,45,,37,37,20,33,7,3,0.3,0.4
2024-12-06T1700,3132A,119.610547,39.943889,秦皇岛市,文明里,,45,45,32,28,19,41,,39,39,27,29,10,5,0.3,0.3
2024-12-06T1700,1307A,120.6659,36.2403,青岛市,仰口,,39,39,52,23,38,74,,75,75,18,18,8,9,0.4,0.5
2024-12-06T1700,1310A,120.4134,36.0658,青岛市,市南区东部子站,,36,36,103,12,60,59,,56,56,34,58,10,15,0.6,0.9
2024-12-06T1700,1311A,120.3664,36.1032,青岛市,四方区子站,,48,48,101,29,75,42,,54,54,58,61,12,17,0.6,1
2024-12-06T1700,1312A,120.2994,36.054,青岛市,市南区西部子站,,36,36,86,15,54,55,,52,52,38,50,12,14,0.6,0.9
2024-12-06T1700,1313A,120.4581,36.0858,青岛市,崂山区子站,,24,24,92,14,60,57,,60,60,38,54,11,14,0.6,0.9
2024-12-06T1700,1314A,120.1983,35.9608,青岛市,黄岛区子站,,25,22,82,12,55,78,,55,55,18,54,7,11,0.5,0.8
2024-12-06T1700,1315A,120.3999,36.3083,青岛市,城阳区子站,颗粒物(PM10),54,58,147,29,77,55,,53,53,40,62,10,16,0.8,1.5
2024-12-06T1700,1966A,120.0405,35.8735,青岛市,黄岛区4号,,39,39,86,17,54,76,,65,65,26,51,8,12,0.5,0.8
2024-12-06T1700,3362A,120.5014,36.4034,青岛市,即墨2号,颗粒物(PM10),53,55,150,22,99,50,,50,50,45,72,12,24,0.7,1.6
2024-12-06T1700,3642A,120.3503,36.0736,青岛市,市北区南部,颗粒物(PM10),57,63,117,14,61,53,,48,48,41,60,9,15,0.5,1
2024-12-06T1700,3643A,120.3948,36.1805,青岛市,李沧区北部,颗粒物(PM10),59,68,128,39,87,49,,50,50,63,75,12,17,0.8,1.1
2024-12-06T1700,1702A,113.0426,23.691,清远市,环保大楼,细颗粒物(PM2.5),57,58,85,40,66,103,,85,85,14,13,6,7,0.9,1
2024-12-06T1700,1703A,113.0208,23.7106,清远市,凤城街办,细颗粒物(PM2.5),58,45,70,41,64,99,,84,84,14,14,10,10,0.9,1
2024-12-06T1700,3025A,113.0477,23.6344,清远市,技师学院,,,47,73,34,56,102,,84,84,15,19,,10,1.1,1.2
2024-12-06T1700,3318A,112.9903,23.7403,清远市,清新太和,细颗粒物(PM2.5),60,58,68,43,50,95,,84,84,18,14,5,6,0.9,0.9
2024-12-06T1700,3455A,113.076,23.7198,清远市,清城东城,细颗粒物(PM2.5),52,49,69,36,55,101,,84,84,11,11,8,9,0.9,1
2024-12-06T1700,2661A,107.6325,35.7357,庆阳市,庆阳五中,,40,40,50,12,23,81,,74,74,11,17,4,6,0.4,0.5
2024-12-06T1700,2662A,107.6364,35.7067,庆阳市,市环保局,,34,34,44,8,17,86,,79,79,8,12,3,4,0.4,0.5
2024-12-06T1700,1916A,103.7897,25.5035,曲靖市,环境监测站,,48,48,34,21,18,26,,26,26,18,19,8,9,0.7,0.9
2024-12-06T1700,1917A,103.8,25.5364,曲靖市,烟厂办公区,,28,23,33,19,16,34,,30,30,15,16,3,4,0.6,0.7
2024-12-06T1700,3376A,103.7947,25.462,曲靖市,南苑二区,,33,33,30,15,17,33,,34,34,12,12,7,9,0.9,0.8
2024-12-06T1700,3377A,103.7444,25.5261,曲靖市,曲靖师范学院,,32,32,35,19,22,40,,36,36,16,22,9,11,0.9,0.9
2024-12-06T1700,1264A,118.8692,28.9398,衢州市,环保大楼,细颗粒物(PM2.5),58,44,39,41,35,14,,20,20,49,40,5,4,0.9,0.7
2024-12-06T1700,1265A,118.8709,28.9666,衢州市,实验学校,,49,,32,34,29,22,,29,29,45,37,6,7,0.7,0.6
2024-12-06T1700,1266A,118.8621,28.9808,衢州市,衢州学院,,,,41,,31,29,,32,32,37,37,5,4,,0.5
2024-12-06T1700,1611A,118.5819,24.9117,泉州市,涂山街,,49,49,39,30,22,98,,102,102,15,13,2,1,0.4,0.4
2024-12-06T1700,1612A,118.5972,24.8978,泉州市,津头埔,,49,49,39,32,23,91,,96,96,18,15,2,2,0.4,0.4
2024-12-06T1700,1613A,118.6663,24.9424,泉州市,万安,,47,47,37,31,22,97,,107,107,16,14,2,1,0.4,0.4
2024-12-06T1700,1614A,118.6117,24.9604,泉州市,清源山,,,,,,,,,,,,,,,,
2024-12-06T1700,3529A,118.6333,24.9264,泉州市,城华南路,,50,50,36,18,20,92,,102,102,19,19,2,2,0.4,0.3
2024-12-06T1700,2626A,88.8876,29.2718,日喀则市,日喀则监测站,,36,36,65,10,32,91,,70,70,16,37,4,6,0.4,1
2024-12-06T1700,3726A,88.8781,29.2426,日喀则市,林业技术推广中心,颗粒物(PM10),52,53,40,3,12,94,,72,72,3,14,6,8,0.3,0.4
2024-12-06T1700,1659A,119.471,35.4209,日照市,监测站,颗粒物(PM10),53,56,117,31,76,67,,49,49,33,58,12,11,1.0,1
2024-12-06T1700,1660A,119.523,35.4216,日照市,市政府广场,颗粒物(PM10),60,70,95,32,62,53,,56,56,46,51,11,8,1.0,0.9
2024-12-06T1700,1661A,119.5587,35.4044,日照市,港务局,颗粒物(PM10),54,58,104,33,67,68,,60,60,34,56,13,10,0.8,0.7
2024-12-06T1700,3507A,119.5328,35.4625,日照市,职业技术学院,颗粒物(PM10),52,53,91,24,56,61,,60,60,38,53,9,8,0.8,0.7
2024-12-06T1700,3604A,119.3266,35.1044,日照市,岚山环保分局,颗粒物(PM10),63,75,138,44,91,70,,59,59,23,57,10,14,0.6,1.4
2024-12-06T1700,1835A,111.1922,34.7752,三门峡市,市政府,,38,28,56,26,37,80,,49,49,13,45,4,9,0.4,0.6
2024-12-06T1700,1836A,111.1587,34.7942,三门峡市,开发区,,32,32,63,15,35,77,,52,52,17,33,3,4,0.5,0.8
2024-12-06T1700,1838A,111.143,34.7955,三门峡市,风景区,,35,35,55,16,35,85,,56,56,17,37,12,12,0.3,0.4
2024-12-06T1700,3039A,111.1911,34.7829,三门峡市,三门峡市第一小学,,46,46,58,18,36,78,,49,49,15,40,5,10,0.3,0.6
2024-12-06T1700,3598A,111.1,34.7167,三门峡市,富达温泉假日酒店,细颗粒物(PM2.5),62,70,88,44,56,72,,52,52,29,42,9,10,0.5,0.7
2024-12-06T1700,2324A,117.6211,26.2625,三明市,三钢,细颗粒物(PM2.5),84,64,55,62,53,34,,35,34,15,18,3,6,0.7,1.1
