timepoint,stationcode,longitude,latitude,area,positionname,primarypollutant,aqi,pm10,pm10_24h,pm2_5,pm2_5_24h,o3,o3_24h,o3_8h,o3_8h_24h,no2,no2_24h,so2,so2_24h,co,co_24h
2025-03-27T0600,2566A,102.1879,31.914,阿坝藏族羌族自治州,州农科所,,16,14,21,11,10,46,,,,6,15,11,11,0.2,0.2
2025-03-27T0600,2568A,102.2502,31.8896,阿坝藏族羌族自治州,马师校,,17,17,28,11,16,43,,,,12,22,4,4,0.3,0.3
2025-03-27T0600,3994A,102.2165,31.9024,阿坝藏族羌族自治州,马尔康中学西区,,17,15,18,9,15,52,,,,9,13,5,5,0.3,0.3
2025-03-27T0600,2695A,80.292,41.1694,阿克苏地区,电视台,"颗粒物(PM10),细颗粒物(PM2.5)",500,3103,4369,648,811,82,,,,2,4,5,4,0.3,0.3
2025-03-27T0600,2696A,80.2613,41.1551,阿克苏地区,艺术中心,"颗粒物(PM10),细颗粒物(PM2.5)",500,3624,4976,710,898,81,,,,2,5,4,4,0.5,0.5
2025-03-27T0600,2204A,105.6467,38.8363,阿拉善盟,西城区西花园,颗粒物(PM10),57,64,275,16,61,92,,,,5,6,9,9,0.5,0.7
2025-03-27T0600,2205A,105.6985,38.8411,阿拉善盟,蒙二幼,颗粒物(PM10),51,51,316,14,76,82,,,,5,7,5,5,0.6,0.6
2025-03-27T0600,2206A,105.724,38.8516,阿拉善盟,环保局新楼,,50,50,300,12,85,87,,,,2,3,7,8,0.5,0.4
2025-03-27T0600,2708A,88.1264,47.8517,阿勒泰地区,市站,,25,6,14,3,6,80,,,,2,5,2,3,0.4,0.4
2025-03-27T0600,2630A,80.1161,32.5,阿里地区,阿里监测站,,21,17,10,10,7,67,,,,10,5,6,7,0.5,0.5
2025-03-27T0600,3192A,80.0903,32.5028,阿里地区,阿里藏医院,,28,7,11,3,4,87,,,,1,2,9,7,0.4,0.4
2025-03-27T0600,2642A,109.0318,32.6537,安康市,香溪洞,颗粒物(PM10),175,300,121,82,41,81,,,,8,10,11,10,0.6,0.7
2025-03-27T0600,2644A,109.0072,32.6975,安康市,汉滨区检察院,颗粒物(PM10),172,294,89,59,32,82,,,,10,24,9,11,0.3,0.5
2025-03-27T0600,4054A,109.0325,32.6913,安康市,市邮政管理局,颗粒物(PM10),165,280,89,78,40,78,,,,9,33,9,13,0.3,0.9
2025-03-27T0600,2291A,117.0809,30.5177,安庆市,环科院,,39,30,68,27,46,112,,,,7,32,6,10,0.6,0.7
2025-03-27T0600,2292A,117.0331,30.5119,安庆市,马山宾馆,,46,,58,32,45,106,,,,5,25,3,6,0.7,0.6
2025-03-27T0600,2294A,116.9896,30.6145,安庆市,安庆大学,细颗粒物(PM2.5),57,47,70,40,50,108,,,,8,20,6,8,0.5,0.5
2025-03-27T0600,3173A,117.0598,30.5351,安庆市,市人大,,43,32,60,30,42,108,,,,6,19,7,10,0.7,0.7
2025-03-27T0600,3123A,105.9408,26.2431,安顺市,凤凰山,细颗粒物(PM2.5),53,41,40,37,28,116,,,,16,17,8,8,0.4,0.3
2025-03-27T0600,3124A,105.9439,26.2564,安顺市,金钟山,细颗粒物(PM2.5),52,45,41,36,26,122,,,,11,12,10,8,0.5,0.5
2025-03-27T0600,3125A,105.8983,26.2481,安顺市,娄家坡,,50,47,39,35,28,124,,,,9,10,7,7,0.6,0.5
2025-03-27T0600,1819A,114.3551,36.1017,安阳市,红庙街,颗粒物(PM10),98,146,153,49,50,57,,,,23,25,7,7,0.6,0.8
2025-03-27T0600,1820A,114.361,36.0681,安阳市,银杏小区,颗粒物(PM10),86,122,145,57,53,61,,,,19,23,4,5,0.6,0.6
2025-03-27T0600,3141A,114.3922,36.0878,安阳市,信访局,颗粒物(PM10),95,140,144,56,51,59,,,,20,24,5,6,0.6,0.6
2025-03-27T0600,3669A,114.4705,36.0637,安阳市,左辅环卫站,颗粒物(PM10),114,177,171,58,52,76,,,,15,20,5,7,0.4,0.4
2025-03-27T0600,3703A,114.2917,36.0949,安阳市,安钢职工学校,颗粒物(PM10),101,151,156,57,51,60,,,,24,30,5,9,0.6,0.8
2025-03-27T0600,1748A,123.044,41.1196,鞍山市,深沟寺,,36,36,105,17,70,66,,,,15,29,22,20,0.5,1.2
2025-03-27T0600,1749A,123.011,41.0931,鞍山市,太阳城,,30,30,108,15,72,71,,,,19,34,17,18,1.6,1.5
2025-03-27T0600,1750A,123.0485,41.1442,鞍山市,太平,,28,28,136,12,83,68,,,,16,42,16,20,0.9,1.7
2025-03-27T0600,1751A,122.9642,41.0971,鞍山市,铁西三道街,,25,21,120,8,79,79,,,,11,41,3,14,0.4,1.1
2025-03-27T0600,1753A,123.022,41.0821,鞍山市,明达新区,,28,28,103,15,77,69,,,,18,33,15,17,1.3,1.1
2025-03-27T0600,4201A,122.9446,41.0826,鞍山市,兴盛南路290号,,22,18,129,9,87,69,,,,23,50,10,16,0.4,1
2025-03-27T0600,2195A,107.4212,40.761,巴彦淖尔市,附二中,颗粒物(PM10),138,225,483,40,92,81,,,,2,5,4,6,0.5,0.6
2025-03-27T0600,2196A,107.37,40.7372,巴彦淖尔市,市环保大楼,颗粒物(PM10),126,201,287,42,107,79,,,,2,4,4,4,0.1,0.1
2025-03-27T0600,1956A,86.1472,41.7538,巴音郭楞蒙古自治州,孔雀公园,颗粒物(PM10),115,180,2880,25,314,72,,,,8,10,4,5,0.3,0.2
2025-03-27T0600,1957A,86.1972,41.7166,巴音郭楞蒙古自治州,棉纺厂,颗粒物(PM10),163,275,1843,20,409,78,,,,4,7,2,2,0.2,0.2
2025-03-27T0600,1958A,86.2357,41.7173,巴音郭楞蒙古自治州,经济开发区,颗粒物(PM10),106,162,2925,21,545,78,,,,4,4,3,4,0.1,0.1
2025-03-27T0600,2914A,106.7677,31.8794,巴中市,苏山坪,颗粒物(PM10),90,130,50,47,29,109,,,,6,9,5,6,0.2,0.4
2025-03-27T0600,3181A,106.7768,31.8526,巴中市,市五中,,,94,64,36,39,,,,,6,31,6,6,0.5,0.7
2025-03-27T0600,3183A,106.7418,31.8654,巴中市,圣泉水务公司,,,118,50,40,30,,,,,28,31,8,9,0.3,0.5
2025-03-27T0600,3616A,106.7616,31.8344,巴中市,市中心医院,细颗粒物(PM2.5),68,70,64,49,43,46,,,,27,43,8,9,0.8,0.9
2025-03-27T0600,2235A,122.7911,45.6077,白城市,洮北区环保局,,27,27,71,7,57,80,,,,6,14,3,5,0.3,0.5
2025-03-27T0600,2236A,122.8738,45.5725,白城市,市环保局,,25,19,70,7,62,79,,,,4,13,3,4,0.3,0.5
2025-03-27T0600,2231A,126.4219,41.9171,白山市,喜丰,,33,31,70,23,40,24,,,,25,23,6,7,1.0,1.1
2025-03-27T0600,2232A,126.4077,41.9419,白山市,环保局,颗粒物(PM10),51,52,70,32,44,27,,,,27,30,7,8,1.2,1.3
2025-03-27T0600,2647A,104.1724,36.5446,白银市,第三小学,颗粒物(PM10),69,87,462,22,92,84,,,,1,3,7,7,0.1,0.2
2025-03-27T0600,2648A,104.1465,36.5482,白银市,动力公司,颗粒物(PM10),67,83,426,27,115,84,,,,4,4,4,4,0.2,0.2
2025-03-27T0600,2512A,106.6103,23.9011,百色市,市监测站,细颗粒物(PM2.5),88,77,93,65,65,54,,,,19,21,12,13,1.0,1
2025-03-27T0600,2513A,106.6538,23.8859,百色市,市中心血站,细颗粒物(PM2.5),98,90,110,73,74,69,,,,21,23,16,17,1.1,1.1
2025-03-27T0600,3406A,106.6085,23.8798,百色市,祈福高中,细颗粒物(PM2.5),85,94,107,63,67,33,,,,38,23,13,13,0.9,1
2025-03-27T0600,2270A,117.396,32.939,蚌埠市,工人疗养院,颗粒物(PM10),89,128,100,59,51,95,,,,19,29,7,8,1.0,0.8
2025-03-27T0600,2271A,117.3605,32.9427,蚌埠市,百货大楼,细颗粒物(PM2.5),94,131,107,70,57,86,,,,22,21,8,9,0.8,0.6
2025-03-27T0600,2273A,117.4185,32.8911,蚌埠市,蚌埠学院,"颗粒物(PM10),细颗粒物(PM2.5)",84,117,94,62,58,108,,,,16,13,6,7,0.9,0.8
2025-03-27T0600,2274A,117.3533,32.9673,蚌埠市,淮上区政府,细颗粒物(PM2.5),100,124,98,75,58,90,,,,19,19,8,9,0.8,0.7
2025-03-27T0600,2275A,117.3145,32.8977,蚌埠市,高新区,细颗粒物(PM2.5),103,117,102,77,62,91,,,,17,20,7,10,0.9,0.8
2025-03-27T0600,3715A,117.3092,32.9314,蚌埠市,蚌埠田家炳中学,细颗粒物(PM2.5),98,143,114,73,58,92,,,,22,22,9,11,0.7,0.6
2025-03-27T0600,1585A,109.8756,40.6532,包头市,市环境监测站,颗粒物(PM10),83,116,328,34,70,78,,,,6,6,9,9,0.2,0.2
2025-03-27T0600,1587A,109.9991,40.5842,包头市,包头八中,颗粒物(PM10),91,131,323,39,76,76,,,,7,6,6,5,0.4,0.3
2025-03-27T0600,1588A,109.8538,40.6821,包头市,青山宾馆,颗粒物(PM10),78,106,291,34,72,78,,,,3,4,7,6,0.3,0.3
2025-03-27T0600,1589A,109.8642,40.6288,包头市,惠龙物流,颗粒物(PM10),83,116,346,27,53,71,,,,15,7,11,6,0.7,0.4
2025-03-27T0600,1590A,110.0377,40.5546,包头市,东河鸿龙湾,颗粒物(PM10),86,122,315,18,61,74,,,,9,6,8,6,0.6,0.4
2025-03-27T0600,3283A,109.9154,40.5685,包头市,滨河大厦,颗粒物(PM10),86,122,288,31,67,66,,,,15,5,11,8,1.1,0.7
2025-03-27T0600,3419A,109.9447,40.6261,包头市,包头市委党校,颗粒物(PM10),87,124,309,30,57,80,,,,3,4,5,5,0.2,0.2
2025-03-27T0600,3683A,109.8331,40.6576,包头市,昆区政府,颗粒物(PM10),84,117,300,27,55,74,,,,8,7,6,5,0.5,0.5
2025-03-27T0600,1930A,107.185,34.3063,宝鸡市,庙沟村,颗粒物(PM10),364,471,676,108,174,80,,,,5,6,6,7,0.2,0.2
2025-03-27T0600,1931A,107.0708,34.3017,宝鸡市,竹园沟,颗粒物(PM10),347,457,580,101,144,81,,,,4,9,6,6,0.3,0.3
2025-03-27T0600,1932A,107.1906,34.3672,宝鸡市,三陆医院,颗粒物(PM10),413,513,691,116,202,77,,,,6,12,4,5,0.3,0.3
2025-03-27T0600,1933A,107.1431,34.3547,宝鸡市,监测站,颗粒物(PM10),403,503,740,100,178,80,,,,3,9,6,7,0.4,0.4
2025-03-27T0600,1934A,107.1186,34.3739,宝鸡市,技工学校,颗粒物(PM10),365,472,698,144,212,81,,,,7,11,4,5,0.2,0.3
2025-03-27T0600,1935A,107.3906,34.3528,宝鸡市,陈仓区环保局家属楼,颗粒物(PM10),413,513,647,117,164,69,,,,2,8,6,8,0.5,0.6
2025-03-27T0600,1936A,107.2058,34.3497,宝鸡市,文理学院,颗粒物(PM10),408,508,729,103,180,79,,,,3,7,4,7,0.3,0.3
2025-03-27T0600,1937A,107.2386,34.3622,宝鸡市,三迪小学,颗粒物(PM10),466,566,726,126,200,77,,,,8,15,5,9,0.3,0.3
2025-03-27T0600,1051A,115.493,38.8632,保定市,游泳馆,颗粒物(PM10),153,255,118,64,54,88,,,,2,26,3,6,0.3,0.2
2025-03-27T0600,1052A,115.5213,38.8959,保定市,华电二区,颗粒物(PM10),127,203,108,59,42,93,,,,2,18,3,2,0,0.3
2025-03-27T0600,1053A,115.4713,38.9108,保定市,接待中心,颗粒物(PM10),154,257,116,57,47,88,,,,5,26,1,3,0.2,0.5
2025-03-27T0600,1054A,115.4612,38.8416,保定市,地表水厂,颗粒物(PM10),170,290,146,44,45,85,,,,8,36,3,3,0.2,0.5
2025-03-27T0600,3581A,115.31981,38.95208,保定市,满城区生态环境分局,颗粒物(PM10),112,173,121,46,43,84,,,,6,24,3,4,0.2,0.4
2025-03-27T0600,3582A,115.47694,38.76408,保定市,清苑区第二中学,颗粒物(PM10),177,304,157,40,46,83,,,,6,33,2,5,0.2,0.4
2025-03-27T0600,3583A,115.62909,39.02311,保定市,徐水物探局,颗粒物(PM10),135,219,147,56,44,87,,,,4,23,6,9,0.2,0.3
2025-03-27T0600,4004A,115.4202,38.8656,保定市,双鹰农机,颗粒物(PM10),134,217,120,44,42,85,,,,4,27,2,3,0.2,0.4
2025-03-27T0600,4034A,115.5150,38.8590,保定市,植保所站,颗粒物(PM10),162,273,121,62,45,88,,,,2,18,3,3,0.2,0.5
2025-03-27T0600,2594A,99.1678,25.1081,保山市,市环境监测站,,39,27,32,27,19,58,,,,12,10,6,5,0.3,0.4
2025-03-27T0600,2595A,99.1711,25.1328,保山市,市环保局,,31,31,33,15,21,71,,,,11,8,3,4,0.4,0.4
2025-03-27T0600,1867A,109.1436,21.4086,北海市,海滩公园,,27,27,30,12,10,52,,,,10,11,5,5,0.6,0.6
2025-03-27T0600,1868A,109.0981,21.4661,北海市,新市环保局,,25,25,33,9,15,63,,,,9,10,3,3,0.5,0.5
2025-03-27T0600,1869A,109.1778,21.5233,北海市,北海工业园,颗粒物(PM10),55,59,39,27,19,7,,,,36,11,7,7,0.4,0.4
2025-03-27T0600,3400A,109.1911,21.4415,北海市,龙潭自来水厂,,31,31,30,21,16,33,,,,13,9,8,6,0.4,0.3
2025-03-27T0600,1001A,116.3621,39.8784,北京市,万寿西宫,颗粒物(PM10),59,67,130,13,35,91,,,,3,13,3,3,0.1,0.3
2025-03-27T0600,1003A,116.4174,39.9289,北京市,东四,颗粒物(PM10),58,65,124,16,35,84,,,,5,14,4,5,0.2,0.4
2025-03-27T0600,1005A,116.462,39.9365,北京市,农展馆,颗粒物(PM10),55,59,115,10,30,78,,,,2,10,6,7,0.3,0.5
2025-03-27T0600,1006A,116.3392,39.9295,北京市,官园,颗粒物(PM10),59,68,130,12,33,78,,,,3,11,5,6,0.4,0.5
2025-03-27T0600,1007A,116.2878,39.9611,北京市,海淀万柳,颗粒物(PM10),53,56,113,12,31,72,,,,6,13,3,4,0.4,0.5
2025-03-27T0600,1008A,116.6636,40.135,北京市,顺义新城,,38,38,110,9,29,87,,,,2,9,4,5,0.1,0.3
2025-03-27T0600,1009A,116.6275,40.3275,北京市,怀柔镇,,31,31,117,7,30,78,,,,2,6,2,3,0.2,0.3
2025-03-27T0600,1010A,116.2296,40.217,北京市,昌平镇,,46,46,109,10,29,82,,,,5,8,1,2,0.4,0.5
2025-03-27T0600,1011A,116.3966,39.9821,北京市,奥体中心,颗粒物(PM10),54,58,115,13,33,76,,,,7,17,3,4,0.4,0.6
2025-03-27T0600,3281A,115.9718,40.4529,北京市,延庆夏都,,33,33,127,6,30,85,,,,1,6,5,6,0.4,0.5
2025-03-27T0600,3418A,116.8336,40.4095,北京市,密云新城,,38,38,120,8,28,78,,,,1,7,3,4,0.4,0.4
2025-03-27T0600,3671A,116.088,39.9726,北京市,门头沟三家店,颗粒物(PM10),52,53,127,12,34,79,,,,2,16,4,6,0.3,0.4
2025-03-27T0600,3672A,116.1541,39.8204,北京市,丰台云岗,颗粒物(PM10),60,70,122,14,34,91,,,,1,11,5,5,0.4,0.5
2025-03-27T0600,3673A,116.6804,39.9081,北京市,通州东关,颗粒物(PM10),74,97,140,20,38,75,,,,11,17,4,5,0.3,0.4
2025-03-27T0600,3674A,115.9577,39.7603,北京市,房山燕山,颗粒物(PM10),63,76,126,17,34,82,,,,1,12,4,4,0.2,0.4
2025-03-27T0600,3675A,116.4672,39.7733,北京市,大兴旧宫,颗粒物(PM10),72,94,137,23,38,75,,,,3,12,5,5,0.3,0.4
2025-03-27T0600,3694A,115.986,40.4563,北京市,延庆石河营,,28,27,123,6,29,87,,,,1,6,4,4,0.3,0.4
2025-03-27T0600,3695A,116.6151,40.3053,北京市,怀柔新城,,38,38,112,11,33,80,,,,2,4,4,4,0.3,0.4
2025-03-27T0600,3696A,116.2545,39.8768,北京市,丰台小屯,颗粒物(PM10),61,71,154,15,36,77,,,,3,14,1,2,0.2,0.4
2025-03-27T0600,3697A,116.84,40.3844,北京市,密云镇,颗粒物(PM10),51,52,126,12,29,83,,,,3,9,5,5,0.3,0.3
2025-03-27T0600,4182A,116.1942,39.9158,北京市,八角北路9号,颗粒物(PM10),57,63,130,13,32,84,,,,1,10,3,3,0.0,0.3
2025-03-27T0600,4194A,117.0790,40.1518,北京市,洳河巡河路,,35,35,108,10,33,84,,,,2,7,1,3,0.3,0.4
2025-03-27T0600,1761A,123.8275,41.3064,本溪市,大峪,,33,33,68,18,41,79,,,,6,21,9,10,0.4,0.8
2025-03-27T0600,1762A,123.7567,41.3325,本溪市,溪湖,颗粒物(PM10),57,63,81,14,34,54,,,,39,39,12,15,0.6,1.3
2025-03-27T0600,1763A,123.7169,41.3094,本溪市,彩屯,,39,39,76,17,41,84,,,,10,28,9,16,0.5,1.7
2025-03-27T0600,1764A,123.7669,41.2864,本溪市,东明,,46,46,87,23,40,76,,,,12,19,9,10,0.5,0.7
2025-03-27T0600,1765A,123.7992,41.2664,本溪市,新立屯,,46,46,72,11,26,80,,,,13,22,6,7,0.4,0.6
2025-03-27T0600,1766A,123.8142,41.3472,本溪市,威宁,颗粒物(PM10),52,53,112,11,34,76,,,,10,27,6,6,0.4,0.8
2025-03-27T0600,2587A,105.2864,27.3125,毕节市,八中,,32,32,43,21,25,47,,,,10,16,9,11,0.5,0.6
2025-03-27T0600,2588A,105.31,27.2944,毕节市,师专,颗粒物(PM10),57,63,64,38,37,21,,,,27,37,9,8,0.9,0.9
2025-03-27T0600,4263A,105.3688,27.3598,毕节市,工业大道,颗粒物(PM10),60,70,79,31,39,34,,,,21,30,9,12,0.7,0.7
2025-03-27T0600,1629A,118.0018,37.3617,滨州市,第二水厂,颗粒物(PM10),170,290,188,31,38,63,,,,12,26,7,15,0.2,0.8
2025-03-27T0600,1630A,117.9776,37.393,滨州市,北中新校,颗粒物(PM10),152,254,170,41,40,69,,,,11,30,12,18,0.2,0.5
2025-03-27T0600,3514A,117.9378,37.3956,滨州市,中海酒店,颗粒物(PM10),135,219,154,34,47,65,,,,14,29,10,16,0.2,0.5
2025-03-27T0600,3515A,117.9378,37.3553,滨州市,开发区一中,颗粒物(PM10),159,268,183,31,38,65,,,,16,32,13,20,0.0,0.4
2025-03-27T0600,3516A,118.0917,37.694,滨州市,金海六路,颗粒物(PM10),153,256,183,29,31,73,,,,15,29,4,10,0.5,0.7
2025-03-27T0600,4028A,117.9956,37.3753,滨州市,滨州市西街道办事处,颗粒物(PM10),162,273,179,39,46,72,,,,12,26,6,14,0.2,0.5
2025-03-27T0600,2311A,115.8072,33.8399,亳州市,污水处理厂,颗粒物(PM10),115,180,134,49,49,65,,,,19,17,6,6,0.5,0.5
2025-03-27T0600,2312A,115.7789,33.8518,亳州市,三国揽胜宫,颗粒物(PM10),114,177,125,49,52,63,,,,17,12,6,7,0.4,0.4
2025-03-27T0600,3332A,115.7633,33.8034,亳州市,亳州学院,颗粒物(PM10),116,182,123,52,51,68,,,,14,11,6,7,0.6,0.6
2025-03-27T0600,2693A,82.0485,44.8556,博尔塔拉蒙古自治州,市党校,,28,28,49,17,14,68,,,,11,11,2,2,0.5,0.3
2025-03-27T0600,2694A,82.0806,44.8969,博尔塔拉蒙古自治州,市环保局,,33,32,53,23,14,54,,,,12,14,5,4,0.6,0.5
2025-03-27T0600,1071A,116.8842,38.2991,沧州市,沧县城建局,颗粒物(PM10),137,223,167,53,54,62,,,,13,30,4,7,0.1,0.4
2025-03-27T0600,1072A,116.8584,38.3254,沧州市,电视转播站,颗粒物(PM10),132,214,156,44,55,71,,,,11,39,3,9,0.3,0.5
2025-03-27T0600,1073A,116.8709,38.3228,沧州市,市环保局,颗粒物(PM10),137,224,149,40,52,71,,,,9,33,6,11,0.2,0.5
2025-03-27T0600,3324A,116.8136,38.3004,沧州市,河北水利电力学院,颗粒物(PM10),178,305,186,43,54,75,,,,10,34,3,9,0.1,0.5
2025-03-27T0600,2622A,97.1806,31.1273,昌都市,昌都监测站,,18,14,13,6,6,56,,,,6,6,7,7,0.2,0.3
2025-03-27T0600,3719A,97.1714,31.1406,昌都市,昌都会议中心,,,10,14,6,7,70,,,,,9,2,2,0.2,0.3
2025-03-27T0600,2690A,88.1236,43.8886,昌吉回族自治州,天山天池,,26,6,27,3,9,82,,,,2,4,1,2,0.5,0.5
2025-03-27T0600,2692A,87.2717,44.0297,昌吉回族自治州,新区政务中心,,20,16,44,3,7,64,,,,7,5,12,7,0.6,0.5
2025-03-27T0600,3613A,87.3095,44.0142,昌吉回族自治州,亚心广场,,24,24,51,3,8,66,,,,2,7,8,5,0.3,0.4
2025-03-27T0600,1119A,125.3325,43.9166,长春市,食品厂,,48,48,76,30,61,60,,,,13,26,6,9,0.5,0.7
2025-03-27T0600,1120A,125.2863,43.9027,长春市,客车厂,,45,40,70,31,67,51,,,,16,27,5,7,0.5,0.8
2025-03-27T0600,1121A,125.2841,43.8463,长春市,邮电学院,,49,46,78,34,72,57,,,,10,26,6,10,0.4,0.6
2025-03-27T0600,1122A,125.3716,43.8772,长春市,劳动公园,细颗粒物(PM2.5),53,54,69,37,69,54,,,,8,20,6,8,0.9,1.1
2025-03-27T0600,1123A,125.3297,43.8805,长春市,园林处,颗粒物(PM10),53,56,75,32,72,54,,,,12,23,8,8,0.3,0.6
2025-03-27T0600,1124A,125.4605,43.79,长春市,净月潭,细颗粒物(PM2.5),82,71,72,60,62,52,,,,12,14,6,6,0.5,0.6
2025-03-27T0600,1126A,125.3863,43.8447,长春市,经开区环卫处,,,79,75,46,66,49,,,,16,23,7,7,,0.7
2025-03-27T0600,1127A,125.245,43.7783,长春市,高新区管委会,颗粒物(PM10),53,55,74,28,69,60,,,,11,24,7,8,0.4,0.7
2025-03-27T0600,1128A,125.1761,43.8325,长春市,岱山公园,,39,39,70,24,70,64,,,,10,30,3,5,0.6,0.9
2025-03-27T0600,1335A,113.0833,28.2325,长沙市,经开区环保局,细颗粒物(PM2.5),78,80,85,57,56,95,,,,15,16,8,9,0.6,0.7
2025-03-27T0600,1336A,112.8872,28.2189,长沙市,高开区环保局,细颗粒物(PM2.5),70,74,82,51,57,114,,,,3,7,6,8,0.6,0.8
2025-03-27T0600,1337A,113.0792,28.2053,长沙市,马坡岭,细颗粒物(PM2.5),79,85,90,58,58,76,,,,20,12,7,7,0.6,0.6
2025-03-27T0600,1338A,112.9394,28.19,长沙市,湖南师范大学,细颗粒物(PM2.5),72,75,87,52,56,91,,,,6,8,9,8,1.0,0.9
2025-03-27T0600,1339A,113.0178,28.1322,长沙市,雨花区环保局,细颗粒物(PM2.5),73,80,82,53,54,99,,,,12,14,10,10,0.7,0.8
2025-03-27T0600,1340A,112.9792,28.2597,长沙市,伍家岭,细颗粒物(PM2.5),64,76,94,46,58,14,,,,37,26,2,5,0.7,0.8
2025-03-27T0600,1341A,113.0014,28.1944,长沙市,火车新站,细颗粒物(PM2.5),73,81,87,53,55,85,,,,23,18,10,8,1.1,0.9
2025-03-27T0600,1342A,112.9844,28.1178,长沙市,天心区环保局,细颗粒物(PM2.5),80,81,84,59,60,105,,,,13,16,5,5,0.4,0.6
2025-03-27T0600,1343A,112.8908,28.1308,长沙市,湖南中医药大学,细颗粒物(PM2.5),79,82,90,58,56,86,,,,15,14,4,5,1.0,1.1
2025-03-27T0600,1344A,112.9581,28.3611,长沙市,沙坪,细颗粒物(PM2.5),70,85,84,51,50,63,,,,10,12,6,7,0.6,0.9
2025-03-27T0600,1727A,113.1147,36.1547,长治市,清华站,颗粒物(PM10),100,149,179,29,51,89,,,,7,21,5,11,0.3,0.6
2025-03-27T0600,1730A,113.0886,36.2125,长治市,审计局,颗粒物(PM10),87,124,178,31,54,84,,,,11,26,10,16,0.2,0.6
2025-03-27T0600,1731A,113.0844,36.1856,长治市,长治八中,颗粒物(PM10),106,161,223,42,70,87,,,,12,23,11,14,0.4,0.7
2025-03-27T0600,2845A,113.1569,36.1911,长治市,德盛苑,颗粒物(PM10),96,142,166,31,51,82,,,,10,21,10,12,0.6,0.8
2025-03-27T0600,3568A,113.06,36.0464,长治市,向阳小学,颗粒物(PM10),105,159,198,57,67,84,,,,11,25,13,15,0.3,0.5
2025-03-27T0600,3569A,112.8792,36.3144,长治市,屯留一中,颗粒物(PM10),112,173,188,41,62,81,,,,16,27,21,20,0.2,0.5
2025-03-27T0600,4189A,113.1131,36.19948,长治市,英华南巷50号,颗粒物(PM10),103,156,196,34,60,90,,,,11,26,12,18,0.6,1.1
2025-03-27T0600,4190A,113.2367,36.3344,长治市,学府街1号,颗粒物(PM10),96,142,220,29,59,96,,,,2,27,2,15,0.4,1
2025-03-27T0600,1854A,111.6975,28.9703,常德市,市二中,细颗粒物(PM2.5),93,,72,69,59,60,,,,17,13,9,7,0.7,0.7
2025-03-27T0600,3138A,111.7153,29.0289,常德市,武陵区永安,细颗粒物(PM2.5),72,79,69,52,59,76,,,,14,16,9,6,0.8,0.8
2025-03-27T0600,3139A,111.6892,28.9881,常德市,鼎城区玉霞,细颗粒物(PM2.5),74,72,78,54,54,63,,,,15,17,9,7,0.8,0.7
2025-03-27T0600,3140A,111.6625,29.0531,常德市,武陵区长庚,细颗粒物(PM2.5),92,86,78,68,56,90,,,,12,13,10,8,0.8,0.7
2025-03-27T0600,1196A,119.9633,31.762,常州市,市监测站,,40,39,118,23,58,126,,,,2,36,3,3,0.7,0.9
2025-03-27T0600,1200A,119.9468,31.7069,常州市,武进监测站,颗粒物(PM10),52,53,96,15,49,128,,,,11,34,14,15,0.6,0.8
2025-03-27T0600,1201A,119.9255,31.9087,常州市,安家,,46,46,98,15,50,110,,,,18,39,25,13,0.5,0.6
2025-03-27T0600,3002A,119.9805,31.8174,常州市,行政中心,,39,39,92,20,51,112,,,,11,32,20,21,0.5,0.7
2025-03-27T0600,3003A,120.0522,31.7748,常州市,经开区,颗粒物(PM10),58,66,109,18,54,126,,,,12,43,11,21,0.5,1.9
2025-03-27T0600,3010A,119.9025,31.7964,常州市,钟楼,,42,42,100,18,50,116,,,,10,33,8,10,0.9,1
2025-03-27T0600,3429A,119.8598,31.7066,常州市,武进经发区,,40,36,99,21,58,126,,,,9,40,8,16,0.8,0.9
2025-03-27T0600,3430A,119.5826,31.7245,常州市,金坛城区,,40,32,92,20,51,127,,,,8,31,6,14,0.8,1.1
2025-03-27T0600,2220A,120.4318,41.5881,朝阳市,西梁,,40,,156,28,45,84,,,,6,13,10,12,0.5,0.6
2025-03-27T0600,2221A,120.4521,41.5646,朝阳市,河畔小区,,28,24,155,15,39,88,,,,4,14,6,8,0.5,0.6
2025-03-27T0600,2222A,120.4176,41.5648,朝阳市,八里堡,,41,41,161,18,38,83,,,,4,11,7,8,0.4,0.5
2025-03-27T0600,2223A,120.3806,41.5969,朝阳市,农业园区,,30,29,184,21,46,89,,,,4,12,8,10,0.4,0.5
2025-03-27T0600,3026A,116.6183,23.6608,潮州市,市政府,,38,36,62,26,32,17,,,,21,26,4,8,0.6,0.7
2025-03-27T0600,4036A,116.6461,23.6761,潮州市,金山,,39,30,56,27,33,3,,,,29,25,6,10,0.5,0.6
2025-03-27T0600,2472A,113.0073,25.9061,郴州市,马头岭,颗粒物(PM10),54,58,71,27,27,102,,,,12,14,9,9,0.6,0.6
2025-03-27T0600,2473A,113.0116,25.8226,郴州市,市职中,,50,50,65,32,44,122,,,,10,11,8,9,0.6,0.6
2025-03-27T0600,2475A,113.0383,25.8071,郴州市,市审计局,颗粒物(PM10),51,52,62,34,43,121,,,,10,11,4,4,0.3,0.4
2025-03-27T0600,2476A,113.0348,25.7759,郴州市,市环保局,,,64,71,35,44,,,,,12,11,13,12,0.4,0.5
2025-03-27T0600,4252A,113.0138,25.8011,郴州市,好美居路49号,细颗粒物(PM2.5),52,49,63,36,44,123,,,,9,10,8,9,0.6,0.7
2025-03-27T0600,1431A,103.9728,30.7236,成都市,金泉两河,细颗粒物(PM2.5),73,72,83,53,45,17,,,,45,38,3,5,1.0,0.9
2025-03-27T0600,1432A,104.176,30.6872,成都市,十里店,颗粒物(PM10),63,76,81,41,45,84,,,,37,35,6,8,0.8,0.8
2025-03-27T0600,1433A,104.079,30.5706,成都市,三瓦窑,细颗粒物(PM2.5),108,109,100,81,58,72,,,,42,66,7,7,1.0,1.1
2025-03-27T0600,1434A,104.1114,30.63,成都市,沙河铺,细颗粒物(PM2.5),103,93,84,77,56,3,,,,68,46,6,8,1.1,0.9
2025-03-27T0600,1437A,104.0786,30.6531,成都市,君平街,细颗粒物(PM2.5),104,99,89,78,60,14,,,,76,53,7,10,1.2,1
2025-03-27T0600,2880A,104.0239,30.65639,成都市,大石西路,细颗粒物(PM2.5),93,104,90,69,56,3,,,,72,51,4,6,1.3,1
2025-03-27T0600,3136A,104.2725,30.5589,成都市,龙泉驿区区政府,细颗粒物(PM2.5),58,58,71,41,42,83,,,,20,26,6,7,0.8,0.8
2025-03-27T0600,3357A,104.0106,30.6931,成都市,金博路,细颗粒物(PM2.5),72,85,78,52,44,9,,,,76,53,7,9,0.9,0.8
2025-03-27T0600,3359A,104.0578,30.5225,成都市,华阳,细颗粒物(PM2.5),89,95,89,66,60,43,,,,58,62,7,8,1.2,1.2
2025-03-27T0600,3488A,104.3853,30.7453,成都市,青白江技师分院,细颗粒物(PM2.5),88,105,86,65,58,24,,,,66,45,12,11,1.1,0.9
2025-03-27T0600,3489A,104.0789,30.4072,成都市,科学城,细颗粒物(PM2.5),69,79,79,50,49,28,,,,38,42,5,6,0.8,0.8
2025-03-27T0600,4011A,103.8506,30.6947,成都市,光华大道三段,细颗粒物(PM2.5),65,,72,47,42,92,,,,25,38,9,7,0.8,0.8
2025-03-27T0600,4224A,104.2433,30.5353,成都市,鲸龙路1057号,细颗粒物(PM2.5),83,99,85,61,52,20,,,,81,54,6,8,1.0,1
2025-03-27T0600,1062A,117.9531,40.9081,承德市,铁路,颗粒物(PM10),51,52,164,15,32,78,,,,5,9,6,9,0.2,0.4
2025-03-27T0600,1063A,117.9392,40.9763,承德市,中国银行,颗粒物(PM10),52,54,162,23,33,78,,,,1,6,3,6,0.2,0.4
2025-03-27T0600,1064A,117.9503,40.928,承德市,开发区,颗粒物(PM10),56,62,152,22,32,81,,,,4,9,6,9,0.2,0.4
2025-03-27T0600,1065A,117.8051,40.9655,承德市,文化中心,颗粒物(PM10),53,55,178,13,32,74,,,,6,9,4,8,0.2,0.4
2025-03-27T0600,1066A,117.9268,41.0026,承德市,离宫,,38,38,142,26,33,56,,,,2,6,20,24,0.2,0.3
2025-03-27T0600,2314A,117.47,30.6618,池州市,池州学院,,32,25,64,19,42,101,,,,9,17,4,10,0.8,0.9
2025-03-27T0600,3237A,117.4918,30.6617,池州市,展览馆,,30,29,66,17,39,93,,,,6,14,4,8,0.7,0.8
2025-03-27T0600,3333A,117.5627,30.695,池州市,第八中学,,32,31,64,20,38,101,,,,6,13,4,8,0.6,0.7
2025-03-27T0600,3334A,117.5038,30.6243,池州市,第十二中学,,33,20,61,18,46,105,,,,5,16,5,8,0.8,0.8
2025-03-27T0600,1744A,118.9233,42.2816,赤峰市,松山一中,,25,21,196,3,27,77,,,,8,12,9,8,0.4,0.4
2025-03-27T0600,1745A,118.9576,42.2728,赤峰市,哈达街,,28,,211,19,36,72,,,,7,12,7,8,0.4,0.5
2025-03-27T0600,1746A,118.8788,42.2554,赤峰市,天义路,,26,,188,18,46,72,,,,11,12,7,7,0.3,0.3
2025-03-27T0600,3058A,119.2658,42.0353,赤峰市,银河街,,23,20,211,11,38,71,,,,11,15,15,17,0.3,0.5
2025-03-27T0600,3286A,118.9359,42.3147,赤峰市,桥北物流园区,,28,24,167,19,36,78,,,,5,10,8,8,0.7,0.6
2025-03-27T0600,2521A,107.3476,22.4136,崇左市,市环保局江州分局,细颗粒物(PM2.5),72,80,71,52,42,51,,,,13,13,11,12,0.6,0.7
2025-03-27T0600,4256A,107.3750,22.3736,崇左市,石景林东路7号,细颗粒物(PM2.5),62,60,66,44,44,57,,,,14,17,9,12,0.6,0.6
2025-03-27T0600,2298A,118.3093,32.3153,滁州市,老年大学,细颗粒物(PM2.5),94,120,77,70,50,83,,,,19,20,9,12,0.8,0.8
2025-03-27T0600,2299A,118.3244,32.2786,滁州市,人大宾馆,细颗粒物(PM2.5),120,118,80,91,58,76,,,,33,34,9,15,0.7,0.8
2025-03-27T0600,3207A,118.3118,32.3038,滁州市,市政府原办公楼,细颗粒物(PM2.5),104,127,70,78,50,82,,,,20,15,6,11,0.7,0.7
2025-03-27T0600,3331A,118.3267,32.2634,滁州市,图书馆,细颗粒物(PM2.5),103,84,76,77,45,78,,,,23,24,9,15,0.8,0.9
2025-03-27T0600,2605A,101.5482,25.0441,楚雄彝族自治州,州环境监测站,,36,25,24,25,20,53,,,,28,13,10,8,0.5,0.5
2025-03-27T0600,2606A,101.538,25.0492,楚雄彝族自治州,市经济开发区,,29,29,28,18,19,66,,,,18,14,9,7,0.4,0.5
2025-03-27T0600,2548A,107.5277,31.2827,达州市,达州职业技术学院,颗粒物(PM10),52,54,68,33,34,43,,,,25,39,11,12,0.1,0.2
2025-03-27T0600,2549A,107.5086,31.2186,达州市,市环境监测站,,45,43,65,31,31,80,,,,24,49,20,12,0.6,0.8
2025-03-27T0600,2550A,107.4988,31.2132,达州市,凤凰小区,,48,48,69,29,37,78,,,,26,53,22,16,0.5,0.8
2025-03-27T0600,2551A,107.5082,31.1986,达州市,达县机关宾馆,颗粒物(PM10),54,58,86,33,40,25,,,,67,67,15,12,0.7,1.3
2025-03-27T0600,2552A,107.4644,31.2124,达州市,市政中心,颗粒物(PM10),52,53,75,31,36,58,,,,27,59,13,11,0.5,1
2025-03-27T0600,2614A,100.1542,25.7054,大理白族自治州,大理市环境监测站,,33,,21,23,19,103,,,,5,7,7,7,0.5,0.5
2025-03-27T0600,2615A,100.2171,25.5811,大理白族自治州,大理古城,,27,17,24,12,14,84,,,,8,9,7,7,0.4,0.4
2025-03-27T0600,1109A,121.612,38.9741,大连市,甘井子,颗粒物(PM10),87,123,127,45,56,76,,,,26,26,8,6,0.5,0.6
2025-03-27T0600,1110A,121.565,38.9511,大连市,周水子,细颗粒物(PM2.5),107,152,132,80,65,53,,,,37,29,6,7,0.5,0.5
2025-03-27T0600,1111A,121.5637,38.8845,大连市,星海三站,颗粒物(PM10),106,161,128,70,56,67,,,,17,12,9,8,1.0,0.8
2025-03-27T0600,1112A,121.6302,38.9117,大连市,青泥洼桥,颗粒物(PM10),92,133,126,51,56,69,,,,17,14,11,9,0.7,0.8
2025-03-27T0600,1113A,121.6251,38.8638,大连市,傅家庄,细颗粒物(PM2.5),98,137,125,73,95,68,,,,22,18,11,9,0.5,0.6
2025-03-27T0600,1114A,121.5213,38.8661,大连市,七贤岭,颗粒物(PM10),107,164,147,56,55,73,,,,18,19,8,6,0.5,0.5
2025-03-27T0600,1115A,121.2529,38.8061,大连市,旅顺,颗粒物(PM10),91,131,129,66,62,75,,,,14,17,8,8,0.7,0.7
2025-03-27T0600,1116A,121.7485,39.1311,大连市,金州,颗粒物(PM10),79,107,135,36,51,69,,,,24,20,12,8,0.9,1.1
2025-03-27T0600,1117A,121.7811,39.0496,大连市,开发区,颗粒物(PM10),74,98,120,24,50,74,,,,14,21,8,7,0.8,1
2025-03-27T0600,1118A,121.9762,39.0631,大连市,双D港,颗粒物(PM10),94,138,127,35,54,83,,,,20,21,8,7,0.8,0.9
2025-03-27T0600,1789A,124.81117,46.03138,大庆市,大同区,,20,13,81,13,72,64,,,,5,19,4,5,0.2,0.5
2025-03-27T0600,1790A,125.129,46.533,大庆市,龙凤区,,28,28,50,15,29,63,,,,9,14,5,6,0.2,0.4
2025-03-27T0600,1791A,124.902,46.408,大庆市,红岗区,,35,24,47,24,42,66,,,,4,11,4,5,0.3,0.5
2025-03-27T0600,1792A,125.153,46.586,大庆市,萨尔图区,,26,26,45,9,29,64,,,,5,13,6,7,0.2,0.3
2025-03-27T0600,1793A,124.9042,46.6215,大庆市,让胡路区,,23,22,45,16,37,61,,,,5,16,7,8,0.1,0.3
2025-03-27T0600,3481A,125.141,46.634,大庆市,萨区政府监测点,,24,24,44,3,18,68,,,,3,10,4,5,0.3,0.4
2025-03-27T0600,1723A,113.2994,40.0758,大同市,云冈宾馆,颗粒物(PM10),64,78,174,18,35,87,,,,5,13,8,10,0.5,0.6
2025-03-27T0600,1724A,113.3444,40.0917,大同市,大同大学,颗粒物(PM10),70,89,177,41,41,82,,,,3,11,14,17,0.4,0.5
2025-03-27T0600,1725A,113.2661,40.1269,大同市,安家小村,颗粒物(PM10),127,203,208,27,41,83,,,,1,9,9,11,0.2,0.4
2025-03-27T0600,1726A,113.2711,40.0844,大同市,教育学院,颗粒物(PM10),67,83,190,28,45,86,,,,6,14,6,9,0.3,0.4
2025-03-27T0600,3282A,113.3397,40.0597,大同市,大同市卫生学校,颗粒物(PM10),65,80,176,19,45,82,,,,5,17,7,10,0.3,0.6
2025-03-27T0600,3565A,113.1367,40.1122,大同市,云冈站,,,83,196,21,46,,,,,5,13,8,12,0.3,0.4
2025-03-27T0600,3566A,113.1186,40.2556,大同市,图书馆,颗粒物(PM10),77,103,190,18,47,78,,,,2,7,7,8,0.7,0.8
2025-03-27T0600,3567A,113.5931,40.0461,大同市,区一中,颗粒物(PM10),69,88,194,9,24,83,,,,3,12,13,18,0.1,0.2
2025-03-27T0600,4199A,113.2798,40.0997,大同市,魏都大道141号,颗粒物(PM10),67,84,197,12,44,85,,,,6,15,12,13,0.4,0.5
2025-03-27T0600,2269A,124.1069,50.4097,大兴安岭地区,科技局,,22,20,20,13,16,69,,,,8,5,6,6,0.3,0.3
2025-03-27T0600,3663A,124.1164,50.4278,大兴安岭地区,红旗社区,,19,,8,13,6,60,,,,12,6,5,5,0.3,0.3
2025-03-27T0600,1600A,124.3303,40.0625,丹东市,江湾东路,颗粒物(PM10),69,87,114,27,46,73,,,,16,24,10,12,0.7,0.9
2025-03-27T0600,1601A,124.4256,40.1503,丹东市,临江后街,颗粒物(PM10),64,78,112,27,45,65,,,,16,22,10,12,0.9,1
2025-03-27T0600,1602A,124.3933,40.1461,丹东市,元宝山,颗粒物(PM10),61,72,102,27,44,61,,,,20,22,10,9,0.4,0.5
2025-03-27T0600,1603A,124.3633,40.1092,丹东市,民主桥,颗粒物(PM10),72,93,113,21,39,69,,,,15,24,9,11,0.7,0.9
2025-03-27T0600,3541A,109.5726,19.5167,儋州市,第一中学子站,,40,40,46,20,26,70,,,,6,8,4,5,0.6,0.7
2025-03-27T0600,3542A,109.5567,19.5187,儋州市,东坡学校子站,,50,50,47,30,27,40,,,,13,9,5,6,0.8,0.7
2025-03-27T0600,2616A,98.5842,24.428,德宏傣族景颇族自治州,德宏州监测站,细颗粒物(PM2.5),72,66,58,52,41,8,,,,57,28,9,9,0.7,0.6
2025-03-27T0600,3677A,98.5881,24.4368,德宏傣族景颇族自治州,芒市人民政府综合楼,细颗粒物(PM2.5),68,76,67,49,39,67,,,,14,16,8,9,0.5,0.5
2025-03-27T0600,1901A,104.4239,31.1208,德阳市,东山公园,颗粒物(PM10),71,91,65,46,43,98,,,,12,19,4,8,0.5,0.6
2025-03-27T0600,1902A,104.3826,31.1317,德阳市,西小区,颗粒物(PM10),71,92,80,49,55,56,,,,45,36,7,14,0.7,0.7
2025-03-27T0600,1904A,104.3553,31.1091,德阳市,耐火材料厂,细颗粒物(PM2.5),80,105,82,59,55,42,,,,62,39,11,14,0.8,0.6
2025-03-27T0600,3639A,104.4019,31.1244,德阳市,市教育局,细颗粒物(PM2.5),59,65,73,42,55,70,,,,27,39,7,12,0.6,0.7
2025-03-27T0600,1622A,116.3032,37.4674,德州市,儿童乐园,颗粒物(PM10),128,205,165,31,51,52,,,,25,45,6,9,0.6,0.9
2025-03-27T0600,1624A,116.2991,37.4451,德州市,监理站,颗粒物(PM10),139,227,177,27,52,59,,,,16,31,10,17,0.2,0.5
2025-03-27T0600,3066A,116.2721,37.4379,德州市,九衢泉纯净水厂,颗粒物(PM10),126,202,161,34,48,63,,,,15,35,9,13,0.3,0.7
2025-03-27T0600,3371A,116.3728,37.4403,德州市,开发区人民医院,颗粒物(PM10),140,229,166,41,45,52,,,,25,35,6,9,0.3,0.6
2025-03-27T0600,3372A,116.3572,37.4094,德州市,太阳城中学,颗粒物(PM10),156,261,175,34,47,65,,,,21,36,6,9,0.7,0.6
2025-03-27T0600,3511A,116.5652,37.3319,德州市,陵城艺术中心,颗粒物(PM10),134,217,176,24,47,52,,,,22,33,10,12,0.5,0.7
2025-03-27T0600,2621A,99.7056,27.8317,迪庆藏族自治州,迪庆州站,,21,21,26,11,14,51,,,,10,10,8,8,0.4,0.5
2025-03-27T0600,3180A,99.7136,27.8094,迪庆藏族自治州,质量技术监督局,,25,,43,17,12,62,,,,7,13,8,9,0.5,0.5
2025-03-27T0600,4257A,104.6092,35.5962,定西市,将台街,颗粒物(PM10),115,180,424,44,93,89,,,,5,7,6,6,1.4,0.5
2025-03-27T0600,4309A,104.6159,35.5701,定西市,正龙路62号,颗粒物(PM10),104,158,459,46,110,91,,,,4,4,11,8,1.2,0.3
2025-03-27T0600,1389A,113.7547,23.0494,东莞市,莞城梨川,,28,28,34,15,17,63,,,,9,12,4,4,0.3,0.3
2025-03-27T0600,1390A,113.7944,23.0128,东莞市,东城石井,,27,27,31,12,14,58,,,,13,13,5,5,0.5,0.5
2025-03-27T0600,1391A,113.7383,22.9658,东莞市,南城西平,,24,24,27,10,12,69,,,,8,10,6,5,0.6,0.6
2025-03-27T0600,3319A,113.7338,23.0381,东莞市,万江金泰,,26,26,30,11,13,71,,,,5,7,14,16,0.7,0.7
2025-03-27T0600,3626A,113.7533,23.0202,东莞市,南城元岭,,26,26,31,12,13,59,,,,8,10,5,5,0.6,0.6
2025-03-27T0600,3627A,113.7875,23.0457,东莞市,东城主山,,24,24,38,10,14,65,,,,11,16,6,7,0.5,0.5
2025-03-27T0600,1666A,118.6614,37.4309,东营市,市环保局,颗粒物(PM10),135,219,171,31,33,63,,,,18,24,6,7,0.6,0.6
2025-03-27T0600,3036A,118.6904,37.4338,东营市,开发区管委会,颗粒物(PM10),152,254,196,29,38,56,,,,22,28,6,6,0.7,0.7
2025-03-27T0600,3365A,118.5719,37.565,东营市,垦利区民丰路,颗粒物(PM10),139,227,174,31,35,63,,,,10,21,3,4,1.0,0.8
2025-03-27T0600,3498A,118.5055,37.8612,东营市,河口城区,颗粒物(PM10),163,276,198,29,35,76,,,,14,24,4,6,0.6,0.7
2025-03-27T0600,3646A,118.4978,37.4623,东营市,胜利站,颗粒物(PM10),130,209,170,29,34,67,,,,14,26,9,10,0.8,1
2025-03-27T0600,3734A,118.35,37.26,东营市,理想之城,颗粒物(PM10),144,237,169,34,42,64,,,,14,25,5,8,0.4,0.5
2025-03-27T0600,1591A,110.0023,39.8129,鄂尔多斯市,综合楼,颗粒物(PM10),245,381,512,73,98,78,,,,6,10,5,6,0.3,0.3
2025-03-27T0600,1592A,109.9486,39.8261,鄂尔多斯市,巴音孟克林场办事处,颗粒物(PM10),220,364,472,80,102,81,,,,4,7,5,6,0.3,0.3
2025-03-27T0600,1593A,109.7736,39.5986,鄂尔多斯市,康泽苑,颗粒物(PM10),269,398,541,95,115,79,,,,3,4,2,3,0.2,0.2
2025-03-27T0600,1594A,109.8119,39.5989,鄂尔多斯市,华泰汽车城,颗粒物(PM10),315,432,526,105,121,80,,,,5,6,4,3,0.3,0.3
2025-03-27T0600,1595A,109.9734,39.7884,鄂尔多斯市,奥林花园,颗粒物(PM10),289,412,514,80,88,80,,,,6,9,3,5,0.4,0.3
2025-03-27T0600,2436A,114.8938,30.3994,鄂州市,市政府,细颗粒物(PM2.5),69,64,84,50,56,77,,,,19,18,9,9,1.2,1.3
2025-03-27T0600,2437A,114.8989,30.3714,鄂州市,赵家坝,颗粒物(PM10),65,79,81,32,45,66,,,,19,12,5,7,1.0,1.2
2025-03-27T0600,3654A,114.8094,30.4089,鄂州市,精准医疗中心,颗粒物(PM10),72,93,93,46,54,95,,,,22,26,5,17,0.8,1.4
2025-03-27T0600,2454A,109.4978,30.2981,恩施土家族苗族自治州,湖北民院,细颗粒物(PM2.5),75,65,64,55,52,46,,,,8,24,2,2,0.5,0.4
2025-03-27T0600,2455A,109.4707,30.2798,恩施土家族苗族自治州,州电力总公司,细颗粒物(PM2.5),68,65,65,49,50,10,,,,32,33,4,7,0.2,0.2
2025-03-27T0600,3549A,109.5061,30.3772,恩施土家族苗族自治州,龙凤新区,细颗粒物(PM2.5),60,57,58,43,44,14,,,,13,18,6,6,0.5,0.6
2025-03-27T0600,2499A,108.3411,21.6158,防城港市,沙万,,39,39,39,19,16,39,,,,22,15,11,8,0.3,0.3
2025-03-27T0600,2500A,108.3514,21.7731,防城港市,防城档案局,,38,38,37,18,16,43,,,,15,9,11,3,0.2,0.2
2025-03-27T0600,2501A,108.3506,21.6414,防城港市,大海花园,,37,37,33,16,12,53,,,,9,6,9,5,0.7,0.6
2025-03-27T0600,1371A,113.1294,23.0067,佛山市,湾梁,,19,19,45,12,18,44,,,,27,21,7,7,0.5,0.5
2025-03-27T0600,1372A,113.1083,23.0478,佛山市,华材职中,,25,19,39,17,24,60,,,,17,19,6,6,0.4,0.4
2025-03-27T0600,1373A,113.144,23.0453,佛山市,南海气象局,,23,,48,16,23,40,,,,21,21,6,6,0.5,0.5
2025-03-27T0600,1374A,113.2881,22.8094,佛山市,顺德苏岗,,31,31,42,7,13,45,,,,11,13,6,7,0.6,0.6
2025-03-27T0600,1376A,112.8383,22.8678,佛山市,高明孔堂,,26,26,36,15,21,42,,,,8,7,5,5,0.3,0.3
2025-03-27T0600,1377A,112.8836,23.1588,佛山市,三水监测站,,30,27,44,21,29,44,,,,22,35,1,3,0.5,0.5
2025-03-27T0600,1378A,112.867,23.185,佛山市,三水云东海,,28,28,47,19,25,41,,,,27,30,3,2,0.4,0.5
2025-03-27T0600,3625A,113.2544,22.7642,佛山市,容桂街道办,,20,17,31,14,17,42,,,,23,18,6,7,0.6,0.6
2025-03-27T0600,1282A,119.2681,26.0504,福州市,师大,细颗粒物(PM2.5),52,50,67,36,38,25,,,,29,21,3,5,0.3,0.3
2025-03-27T0600,1283A,119.2984,26.1028,福州市,五四北路,,45,45,64,31,41,33,,,,34,29,4,5,0.5,0.5
2025-03-27T0600,1284A,119.2648,26.0768,福州市,杨桥西路,颗粒物(PM10),64,77,74,41,43,11,,,,51,27,4,5,0.4,0.5
2025-03-27T0600,1285A,119.317,26.0746,福州市,紫阳,,50,37,72,35,38,50,,,,19,37,4,5,0.2,0.3
2025-03-27T0600,3048A,119.5799,26.0936,福州市,九龙,,39,32,56,27,34,54,,,,11,16,4,5,0.3,0.3
2025-03-27T0600,3526A,119.5189,25.9664,福州市,吴航,,44,44,49,28,29,58,,,,9,15,3,5,0.3,0.4
2025-03-27T0600,1755A,123.7977,41.8491,抚顺市,望花区,颗粒物(PM10),57,63,165,19,95,81,,,,11,45,9,19,0.5,1.3
2025-03-27T0600,1756A,123.9161,41.8822,抚顺市,顺城区,颗粒物(PM10),51,52,168,19,102,79,,,,16,54,6,13,0.4,1.4
2025-03-27T0600,1757A,124.0436,41.8611,抚顺市,东洲区,,50,50,186,16,114,76,,,,15,43,6,10,0.5,1.4
2025-03-27T0600,1758A,123.9247,41.8642,抚顺市,新抚区,颗粒物(PM10),53,55,175,17,117,74,,,,14,52,5,11,0.4,1.4
2025-03-27T0600,1759A,124.0972,41.8961,抚顺市,大伙房水库,,48,48,169,17,124,75,,,,14,42,6,10,0.5,1.4
2025-03-27T0600,1760A,123.7086,41.8391,抚顺市,沈抚新城,颗粒物(PM10),59,68,146,26,90,76,,,,14,42,12,15,0.7,1.4
2025-03-27T0600,2376A,116.2127,28.0814,抚州市,桐源党溪,细颗粒物(PM2.5),53,52,74,37,45,72,,,,3,6,8,5,0.5,0.5
2025-03-27T0600,2377A,116.3544,27.9831,抚州市,市站,颗粒物(PM10),52,53,73,31,40,71,,,,11,13,25,7,1.1,1.1
2025-03-27T0600,2378A,116.3565,27.963,抚州市,血防站,颗粒物(PM10),58,66,73,33,42,91,,,,5,11,16,18,1.0,1.3
2025-03-27T0600,2379A,116.3564,28.0007,抚州市,采茶剧团,细颗粒物(PM2.5),57,54,72,40,43,58,,,,10,7,33,6,1.0,0.8
2025-03-27T0600,2380A,116.385,27.9647,抚州市,医学分院,,49,49,77,33,40,58,,,,14,13,4,5,1.2,1
2025-03-27T0600,2207A,121.6094,41.998,阜新市,工业园区,,40,40,109,22,71,78,,,,10,26,5,12,0.4,0.6
2025-03-27T0600,2208A,121.6697,42.0279,阜新市,长青街,,35,35,105,20,65,78,,,,7,23,5,12,0.4,0.7
2025-03-27T0600,2209A,121.6673,42.0705,阜新市,农业园区,,49,36,103,34,59,74,,,,6,18,6,12,0.5,0.7
2025-03-27T0600,2210A,121.6717,42.0224,阜新市,东苑,,32,31,110,22,69,78,,,,6,25,4,14,0.4,0.6
2025-03-27T0600,2211A,121.6506,42.0498,阜新市,玉龙新城,,40,40,113,21,68,74,,,,10,28,6,17,0.4,0.6
2025-03-27T0600,2301A,115.8277,32.8929,阜阳市,市监测站,细颗粒物(PM2.5),100,145,97,75,54,53,,,,24,20,9,10,0.4,0.5
2025-03-27T0600,2303A,115.8554,32.8605,阜阳市,开发区,颗粒物(PM10),119,188,114,72,50,55,,,,22,16,7,8,0.6,0.6
2025-03-27T0600,2875A,115.784,32.8892,阜阳市,阜阳职业技术学院,颗粒物(PM10),106,162,104,70,52,54,,,,21,18,9,9,0.6,0.6
2025-03-27T0600,3468A,115.7901,32.8613,阜阳市,市规划展馆,颗粒物(PM10),104,157,103,69,60,59,,,,18,15,9,9,0.6,0.6
2025-03-27T0600,3469A,115.836,32.9183,阜阳市,枣园社区,颗粒物(PM10),106,161,111,68,63,56,,,,20,14,10,9,0.6,0.6
2025-03-27T0600,2669A,102.9099,34.9841,甘南藏族自治州,州政府,颗粒物(PM10),184,318,252,69,76,64,,,,4,12,8,10,0.3,0.4
2025-03-27T0600,3380A,102.8914,34.9617,甘南藏族自治州,甘肃民族师范学院,颗粒物(PM10),184,318,285,68,82,71,,,,2,10,7,9,0.3,0.4
2025-03-27T0600,2570A,101.9603,30.0475,甘孜藏族自治州,水桥子,,19,15,47,13,11,42,,,,20,36,4,4,0.6,0.8
2025-03-27T0600,3065A,101.9533,29.9972,甘孜藏族自治州,州环保局,,25,11,30,8,7,78,,,,4,14,5,5,0.4,0.4
2025-03-27T0600,3414A,115.8347,28.932,赣江新区,桑海产业园,,46,46,86,28,50,64,,,,24,28,9,13,0.6,0.7
2025-03-27T0600,2363A,114.9367,25.8664,赣州市,地委,,48,48,57,27,36,100,,,,12,12,5,4,1.2,1.3
2025-03-27T0600,2364A,114.9461,25.8481,赣州市,气象台,颗粒物(PM10),54,58,59,26,31,109,,,,16,15,12,11,0.5,0.5
2025-03-27T0600,2365A,114.9322,25.8333,赣州市,市图书馆,,46,43,55,32,37,102,,,,13,15,6,6,0.7,0.9
2025-03-27T0600,2366A,114.8905,25.8471,赣州市,华坚鞋城,,50,48,58,35,33,108,,,,16,18,15,12,0.8,0.8
2025-03-27T0600,3109A,115.0093,25.8613,赣州市,赣县区卫计委,,50,50,61,28,36,98,,,,8,10,5,6,0.5,0.7
2025-03-27T0600,2683A,106.2319,36.1417,固原市,马园,颗粒物(PM10),141,231,452,40,87,77,,,,5,7,4,4,0.6,0.5
2025-03-27T0600,2684A,106.2792,36.0022,固原市,监测站,颗粒物(PM10),124,197,398,44,93,85,,,,1,4,6,5,0.4,0.4
2025-03-27T0600,2685A,106.2375,36.0211,固原市,新区,颗粒物(PM10),124,197,400,58,103,85,,,,2,4,6,6,0.3,0.2
2025-03-27T0600,3522A,106.2177,35.9959,固原市,原州区十五小,颗粒物(PM10),130,210,426,47,97,80,,,,4,5,6,6,0.3,0.2
2025-03-27T0600,2544A,106.6303,30.4576,广安市,市委,细颗粒物(PM2.5),67,73,69,48,45,74,,,,21,28,21,11,0.5,0.6
2025-03-27T0600,2545A,106.6271,30.4663,广安市,友谊中学,细颗粒物(PM2.5),65,63,72,47,41,72,,,,28,31,18,6,0.6,0.7
2025-03-27T0600,2547A,106.6388,30.4551,广安市,广电花园,细颗粒物(PM2.5),82,67,71,60,47,69,,,,25,36,18,9,0.7,0.7
2025-03-27T0600,2902A,106.6351,30.4865,广安市,北辰小学,细颗粒物(PM2.5),67,68,64,48,41,69,,,,25,20,21,10,0.4,0.4
2025-03-27T0600,2523A,105.8945,32.4535,广元市,黑石坡,颗粒物(PM10),408,508,151,110,42,82,,,,1,16,1,7,0.2,0.5
2025-03-27T0600,2524A,105.821,32.4444,广元市,老城,颗粒物(PM10),298,418,137,121,54,88,,,,3,42,1,11,0.3,0.9
2025-03-27T0600,2526A,105.8628,32.4287,广元市,监测站,颗粒物(PM10),280,406,110,78,44,92,,,,3,21,5,18,0.2,0.6
2025-03-27T0600,3617A,105.8047,32.4166,广元市,经开区,颗粒物(PM10),338,450,142,104,61,79,,,,7,43,2,15,0.3,0.8
2025-03-27T0600,1345A,113.2347,23.1423,广州市,广雅中学,,22,22,38,15,20,61,,,,14,25,4,4,0.3,0.5
2025-03-27T0600,1346A,113.2612,23.105,广州市,市五中,,26,26,45,11,20,42,,,,20,24,2,3,0.5,0.5
2025-03-27T0600,1348A,113.3478,23.0916,广州市,广东商学院,,31,31,41,17,22,8,,,,48,30,4,4,0.6,0.6
2025-03-27T0600,1349A,113.4332,23.1047,广州市,市八十六中,,24,24,34,9,13,28,,,,44,40,4,4,0.6,0.5
2025-03-27T0600,1350A,113.3505,22.9483,广州市,番禺中学,,31,31,41,17,21,32,,,,33,26,4,5,0.4,0.4
2025-03-27T0600,1351A,113.2146,23.3916,广州市,花都师范,,34,34,55,17,23,43,,,,17,24,3,4,0.3,0.4
2025-03-27T0600,1352A,113.2597,23.1331,广州市,市监测站,,32,32,41,15,18,42,,,,21,24,5,6,0.5,0.5
2025-03-27T0600,1353A,113.5618,23.312,广州市,九龙镇镇龙,,35,35,48,19,23,36,,,,27,28,6,6,0.4,0.4
2025-03-27T0600,1354A,113.2765,23.1544,广州市,麓湖,,35,35,39,16,17,31,,,,27,23,10,4,0.5,0.5
2025-03-27T0600,1355A,113.443,23.3035,广州市,帽峰山森林公园,,35,,38,24,20,34,,,,22,23,5,6,0.5,0.6
2025-03-27T0600,2846A,113.3221,23.1322,广州市,体育西,,42,42,47,23,25,26,,,,28,21,4,4,0.4,0.4
2025-03-27T0600,3298A,113.5717,23.5491,广州市,从化街口,,34,34,51,16,24,65,,,,13,22,8,8,0.5,0.6
2025-03-27T0600,3299A,113.3472,23.3692,广州市,白云竹料,,42,42,57,20,26,46,,,,26,29,7,7,0.4,0.5
2025-03-27T0600,3300A,113.2981,23.237,广州市,白云嘉禾,,38,38,47,21,23,18,,,,42,35,4,4,0.1,0.2
2025-03-27T0600,3301A,113.4256,23.1716,广州市,黄埔科学城,,38,38,47,15,19,38,,,,31,31,9,8,0.4,0.4
2025-03-27T0600,3302A,113.3942,23.0483,广州市,番禺大学城,,46,46,62,16,16,23,,,,37,28,10,10,0.3,0.3
2025-03-27T0600,3303A,113.4922,22.8168,广州市,南沙黄阁,,24,24,37,14,16,44,,,,21,18,4,5,0.6,0.6
2025-03-27T0600,3304A,113.5342,22.7896,广州市,南沙街,,19,19,32,13,14,37,,,,21,17,4,3,0.5,0.5
2025-03-27T0600,3443A,113.2902,23.5544,广州市,花都梯面,,43,43,66,18,26,39,,,,21,23,4,5,0.5,0.6
2025-03-27T0600,3445A,113.7858,23.7478,广州市,从化良口,,29,29,44,18,31,20,,,,21,17,7,7,0.5,0.6
2025-03-27T0600,3446A,113.8051,23.2614,广州市,增城荔城,颗粒物(PM10),51,52,46,25,21,26,,,,30,21,7,6,0.2,0.3
2025-03-27T0600,2506A,109.6047,23.0666,贵港市,江南子站,,49,46,57,34,29,59,,,,12,14,5,5,0.7,0.7
2025-03-27T0600,2507A,109.6014,23.0948,贵港市,贵城子站,,50,50,53,35,28,55,,,,14,13,6,7,0.8,0.8
2025-03-27T0600,2508A,109.5669,23.1065,贵港市,荷城子站,,36,36,51,19,22,51,,,,16,14,4,5,0.2,0.4
2025-03-27T0600,3405A,109.5886,23.1172,贵港市,新世纪学校,,41,41,52,25,29,59,,,,13,12,6,6,0.6,0.6
2025-03-27T0600,1439A,106.6899,26.5998,贵阳市,马鞍山,细颗粒物(PM2.5),83,63,49,61,32,29,,,,12,15,4,5,0.7,0.5
2025-03-27T0600,1441A,106.6243,26.6266,贵阳市,鉴湖路,细颗粒物(PM2.5),100,102,76,75,38,90,,,,14,9,12,9,0.8,0.5
2025-03-27T0600,1442A,106.7487,26.6343,贵阳市,燕子冲,细颗粒物(PM2.5),73,66,65,53,45,88,,,,14,18,9,9,0.8,0.6
2025-03-27T0600,1443A,106.6555,26.4365,贵阳市,碧云窝,细颗粒物(PM2.5),85,90,80,63,46,111,,,,12,12,14,11,0.7,0.5
2025-03-27T0600,1445A,106.7109,26.6027,贵阳市,红边门,细颗粒物(PM2.5),77,75,83,56,51,90,,,,21,39,12,11,0.7,0.8
2025-03-27T0600,1446A,106.7164,26.5699,贵阳市,新华路,细颗粒物(PM2.5),77,70,71,56,43,90,,,,16,27,21,35,0.6,0.7
2025-03-27T0600,1447A,106.674,26.5424,贵阳市,太慈桥,细颗粒物(PM2.5),89,83,67,66,39,61,,,,23,23,7,8,0.7,0.6
2025-03-27T0600,4230A,106.6882,26.5695,贵阳市,花果园大街66号,细颗粒物(PM2.5),89,73,65,66,45,107,,,,17,23,10,8,0.5,0.4
2025-03-27T0600,4231A,106.6873,26.5169,贵阳市,漓江路57号,细颗粒物(PM2.5),83,78,70,61,40,95,,,,14,19,23,15,0.6,0.5
2025-03-27T0600,1864A,110.3089,25.2708,桂林市,龙隐路小学,细颗粒物(PM2.5),82,75,72,60,52,38,,,,22,15,9,10,0.7,0.6
2025-03-27T0600,1865A,110.2869,25.2178,桂林市,八中,细颗粒物(PM2.5),78,90,80,57,53,42,,,,39,26,13,10,0.8,0.8
2025-03-27T0600,3531A,110.296,25.1253,桂林市,旅游学院,细颗粒物(PM2.5),64,61,66,46,44,67,,,,23,16,17,12,0.5,0.5
2025-03-27T0600,4222A,110.1835,25.2444,桂林市,环湖路276号,细颗粒物(PM2.5),58,63,68,41,41,67,,,,31,20,8,7,0.5,0.5
2025-03-27T0600,4301A,110.2803,25.2773,桂林市,信义路13号,细颗粒物(PM2.5),65,75,70,47,42,52,,,,34,17,12,12,0.9,0.8
2025-03-27T0600,2674A,100.2561,34.4714,果洛藏族自治州,玛沁县大武镇,颗粒物(PM10),413,513,109,100,27,94,,,,1,4,4,10,0.3,0.4
2025-03-27T0600,1129A,126.5422,45.755,哈尔滨市,岭北,,27,,60,13,51,85,,,,8,26,21,21,1.0,1.1
2025-03-27T0600,1130A,126.561,45.8167,哈尔滨市,松北商大,,26,,55,18,48,74,,,,5,26,6,6,0.4,0.7
2025-03-27T0600,1131A,126.979,45.5419,哈尔滨市,阿城会宁,,46,33,53,32,47,65,,,,10,11,2,2,0.7,0.7
2025-03-27T0600,1132A,126.599,45.7222,哈尔滨市,南岗学府路,,35,35,67,18,40,69,,,,10,27,6,7,0.6,0.7
2025-03-27T0600,1133A,126.689,45.7733,哈尔滨市,太平宏伟公园,,38,,61,26,55,62,,,,12,31,4,6,0.9,1.1
2025-03-27T0600,1134A,126.635,45.7667,哈尔滨市,道外承德广场,,35,35,84,22,55,59,,,,32,34,5,7,0.4,0.7
2025-03-27T0600,1135A,126.685,45.7319,哈尔滨市,香坊红旗大街,,24,24,71,11,54,64,,,,11,33,12,13,0.5,0.8
2025-03-27T0600,1136A,126.6411,45.7258,哈尔滨市,动力和平路,,35,,65,24,55,63,,,,11,29,15,12,0.4,0.6
2025-03-27T0600,1137A,126.593,45.7478,哈尔滨市,道里建国路,,29,,58,20,53,67,,,,8,29,8,9,0.3,0.8
2025-03-27T0600,1138A,126.615,45.61,哈尔滨市,平房东轻厂,,40,,54,28,46,63,,,,9,14,8,8,0.7,0.8
2025-03-27T0600,1139A,126.595,45.9855,哈尔滨市,呼兰师专,,21,12,42,11,38,66,,,,10,19,10,9,0.4,0.6
2025-03-27T0600,1140A,126.6206,45.6842,哈尔滨市,省农科院,,40,31,64,28,52,65,,,,10,33,13,10,0.5,0.7
2025-03-27T0600,2688A,93.5128,42.8172,哈密市,地区监测站,颗粒物(PM10),52,53,200,11,23,55,,,,10,6,3,5,0.2,0.2
2025-03-27T0600,2689A,93.4961,42.8328,哈密市,哈密师范学校,颗粒物(PM10),59,68,176,14,35,59,,,,15,9,4,4,0.1,0.3
2025-03-27T0600,2671A,100.9048,36.9639,海北藏族自治州,海晏县西海镇,颗粒物(PM10),156,262,215,63,55,83,,,,4,3,20,12,0.7,0.5
2025-03-27T0600,3867A,102.0738,36.5056,海东市,平安区公安北苑,颗粒物(PM10),116,181,852,52,237,81,,,,2,4,10,8,0.6,0.7
2025-03-27T0600,1409A,110.576,19.9507,海口市,东寨港,,15,10,24,10,17,40,,,,4,4,3,3,0.2,0.2
2025-03-27T0600,1410A,110.3232,20.0574,海口市,海南大学,,29,29,39,16,22,48,,,,6,13,2,2,0.3,0.4
2025-03-27T0600,1411A,110.283,20.0053,海口市,秀英海南医院,,25,25,42,14,24,44,,,,9,19,4,5,0.3,0.4
2025-03-27T0600,1412A,110.338,19.9969,海口市,海南师范大学,,26,26,38,18,21,45,,,,5,8,4,4,0.2,0.3
2025-03-27T0600,1413A,110.33,20.0356,海口市,龙华路环保局宿舍,,24,24,35,16,21,50,,,,4,10,4,4,0.3,0.3
2025-03-27T0600,3539A,110.5111,19.9736,海口市,桂林洋子站,,40,40,34,21,16,43,,,,5,8,3,3,0.2,0.3
2025-03-27T0600,2673A,100.6188,36.2866,海南藏族自治州,共和县恰卜恰镇,颗粒物(PM10),357,465,153,89,43,121,,,,1,7,8,12,0.3,0.4
2025-03-27T0600,2676A,97.3731,37.3753,海西蒙古族藏族自治州,德令哈市,颗粒物(PM10),92,134,118,42,25,98,,,,1,6,12,11,0.3,0.5
2025-03-27T0600,1048A,114.5302,36.6116,邯郸市,东污水处理厂,颗粒物(PM10),84,117,108,44,33,46,,,,42,33,7,5,0.5,0.5
2025-03-27T0600,1049A,114.4918,36.5713,邯郸市,矿院,颗粒物(PM10),95,140,130,44,34,58,,,,24,24,6,5,0.5,0.5
2025-03-27T0600,1050A,114.484,36.6133,邯郸市,丛台公园,颗粒物(PM10),96,142,114,51,40,52,,,,30,26,10,8,0.5,0.5
2025-03-27T0600,3458A,114.7895,36.5593,邯郸市,香泉濮院小区,颗粒物(PM10),94,138,134,56,35,36,,,,30,21,4,5,0.6,0.4
2025-03-27T0600,3579A,114.50634,36.77178,邯郸市,永年区实验高中,颗粒物(PM10),112,173,136,50,42,45,,,,32,30,8,8,0.6,0.6
2025-03-27T0600,3580A,114.20016,36.44293,邯郸市,峰峰矿区临水派出所,颗粒物(PM10),105,159,138,52,43,70,,,,10,16,15,16,1.1,1
2025-03-27T0600,2634A,106.9893,33.1842,汉中市,汉川机床厂子校,颗粒物(PM10),475,575,189,126,62,91,,,,2,5,6,8,0.5,0.5
2025-03-27T0600,2635A,107.0154,33.0706,汉中市,市监测站,颗粒物(PM10),415,515,160,107,54,82,,,,8,24,4,7,0.4,0.8
2025-03-27T0600,2636A,107.0089,33.1138,汉中市,鑫源开发区,颗粒物(PM10),450,550,181,130,62,88,,,,6,25,4,9,0.4,0.7
2025-03-27T0600,2637A,107.007,33.0323,汉中市,南郑大河坎水厂,颗粒物(PM10),410,510,144,124,55,89,,,,18,24,6,8,0.4,0.6
2025-03-27T0600,1223A,120.2072,30.2111,杭州市,滨江,,45,43,79,31,47,117,,,,12,39,6,8,0.6,0.7
2025-03-27T0600,1224A,120.0633,30.2747,杭州市,西溪,细颗粒物(PM2.5),57,43,74,40,55,93,,,,24,25,6,8,0.2,0.3
2025-03-27T0600,1226A,120.3417,30.3150,杭州市,下沙,颗粒物(PM10),58,66,105,34,57,108,,,,18,40,5,8,0.5,0.6
2025-03-27T0600,1227A,120.1269,30.2456,杭州市,卧龙桥,,49,44,75,34,48,96,,,,11,28,5,7,0.5,0.6
2025-03-27T0600,1228A,120.1903,30.2692,杭州市,浙江农大,,41,41,81,27,49,111,,,,14,33,1,4,0.4,0.6
2025-03-27T0600,1230A,120.1197,30.3119,杭州市,和睦小学,细颗粒物(PM2.5),54,40,81,38,52,117,,,,12,36,7,8,0.6,0.8
2025-03-27T0600,1231A,120.3019,30.4183,杭州市,临平镇,,41,36,92,20,51,129,,,,9,45,5,7,0.5,0.7
2025-03-27T0600,1232A,120.2753,30.1839,杭州市,城厢镇,细颗粒物(PM2.5),55,53,88,39,52,104,,,,16,38,6,9,0.6,0.7
2025-03-27T0600,1233A,120.0883,30.1808,杭州市,云栖,,35,33,74,24,43,98,,,,15,44,8,9,0.6,0.7
2025-03-27T0600,3557A,119.9464,30.0494,杭州市,镇二中,,46,38,77,32,56,91,,,,16,40,6,8,0.7,0.7
2025-03-27T0600,3558A,119.7183,30.2367,杭州市,市府大楼,,37,28,75,21,47,116,,,,18,33,7,9,0.8,0.8
2025-03-27T0600,3656A,120.1556,30.2864,杭州市,消防大队,,40,37,79,26,51,126,,,,12,34,2,3,0.6,0.7
2025-03-27T0600,1270A,117.1959,31.7848,合肥市,明珠广场,细颗粒物(PM2.5),104,107,79,78,50,90,,,,16,17,3,7,0.7,0.6
2025-03-27T0600,1271A,117.3072,31.8764,合肥市,三里街,细颗粒物(PM2.5),64,70,79,46,46,107,,,,11,28,3,8,0.8,0.7
2025-03-27T0600,1272A,117.2588,31.8707,合肥市,琥珀山庄,细颗粒物(PM2.5),94,,80,70,58,102,,,,14,18,2,4,0.6,0.6
2025-03-27T0600,1273A,117.1604,31.9052,合肥市,董铺水库,细颗粒物(PM2.5),57,54,83,40,44,114,,,,4,9,2,4,0.6,0.5
2025-03-27T0600,1274A,117.25,31.8571,合肥市,长江中路,细颗粒物(PM2.5),89,92,83,66,54,102,,,,13,16,6,9,0.8,0.7
2025-03-27T0600,1275A,117.266,31.9436,合肥市,庐阳区,细颗粒物(PM2.5),94,114,84,70,48,108,,,,17,19,6,10,0.8,0.7
2025-03-27T0600,1276A,117.3453,31.8616,合肥市,瑶海区,细颗粒物(PM2.5),77,68,89,56,47,109,,,,14,26,7,9,0.8,0.8
2025-03-27T0600,1277A,117.3027,31.7964,合肥市,包河区,细颗粒物(PM2.5),104,102,78,78,50,87,,,,14,15,5,8,0.9,0.8
2025-03-27T0600,1278A,117.2776,31.7385,合肥市,滨湖新区,细颗粒物(PM2.5),113,117,78,85,54,85,,,,19,17,5,8,0.8,0.7
2025-03-27T0600,1279A,117.1318,31.8403,合肥市,高新区,细颗粒物(PM2.5),95,105,81,71,49,97,,,,10,14,2,6,0.9,0.9
2025-03-27T0600,3464A,117.3803,31.9147,合肥市,高教基地,细颗粒物(PM2.5),114,131,82,86,57,105,,,,15,18,3,7,0.6,0.5
2025-03-27T0600,3614A,79.924,37.0877,和田地区,地区环保局,细颗粒物(PM2.5),500,,375,3397,1588,62,,,,2,6,2,2,0.8,0.9
2025-03-27T0600,3615A,79.9131,37.113,和田地区,市环保局,细颗粒物(PM2.5),500,,412,2957,1372,71,,,,2,7,2,2,0.3,0.5
2025-03-27T0600,2516A,108.2011,24.715,河池市,东仁乐园,,50,,88,35,55,72,,,,19,20,15,12,0.9,1
2025-03-27T0600,2517A,108.0497,24.6947,河池市,市环保站,颗粒物(PM10),57,64,76,38,53,70,,,,20,15,12,9,0.7,0.8
2025-03-27T0600,2518A,108.0983,24.6989,河池市,市疾控中心,颗粒物(PM10),57,63,82,38,52,66,,,,21,20,15,12,0.7,0.8
2025-03-27T0600,1696A,114.6778,23.7569,河源市,源西,,34,34,45,23,27,45,,,,14,14,4,5,0.6,0.6
2025-03-27T0600,1697A,114.6944,23.7586,河源市,东埔,,,,48,32,32,50,,,,13,18,4,5,,0.5
2025-03-27T0600,1698A,114.6892,23.7233,河源市,老城,,42,32,47,29,29,47,,,,13,17,4,5,0.5,0.6
2025-03-27T0600,1718A,115.4208,35.2464,菏泽市,气象局,颗粒物(PM10),119,187,174,77,71,57,,,,25,24,7,9,0.7,0.6
2025-03-27T0600,3374A,115.5564,35.0891,菏泽市,定陶老年大学,颗粒物(PM10),126,202,164,56,61,54,,,,26,25,6,8,0.8,0.8
2025-03-27T0600,4184A,115.4797,35.24401,菏泽市,永昌路1号,颗粒物(PM10),127,204,189,77,75,53,,,,27,21,9,9,0.5,0.5
2025-03-27T0600,4193A,115.4715,35.2800,菏泽市,长城路999号,颗粒物(PM10),133,216,174,69,67,51,,,,30,27,7,10,0.9,0.8
2025-03-27T0600,2514A,111.5264,24.4172,贺州市,环保小区,颗粒物(PM10),54,57,71,33,45,66,,,,18,20,14,13,0.8,0.9
2025-03-27T0600,2515A,111.5608,24.4078,贺州市,政协大楼,颗粒物(PM10),55,60,62,30,44,60,,,,18,20,16,16,0.6,0.7
2025-03-27T0600,3534A,111.4744,24.4553,贺州市,西湾,颗粒物(PM10),57,63,73,36,51,62,,,,21,27,10,11,0.7,0.8
2025-03-27T0600,2385A,114.17,35.9019,鹤壁市,市监测站,颗粒物(PM10),106,162,162,52,52,70,,,,22,30,13,14,1.0,1
2025-03-27T0600,2386A,114.2956,35.7511,鹤壁市,市交警支队,颗粒物(PM10),108,165,157,43,46,75,,,,14,24,6,10,0.2,0.5
2025-03-27T0600,2387A,114.2878,35.7306,鹤壁市,迎宾馆,颗粒物(PM10),128,205,194,38,38,77,,,,16,25,5,7,0.4,0.6
2025-03-27T0600,3474A,114.2617,35.6822,鹤壁市,大新区,颗粒物(PM10),104,158,166,42,48,76,,,,17,28,6,11,0.6,0.8
2025-03-27T0600,3596A,114.1572,35.9603,鹤壁市,南山宾馆,颗粒物(PM10),113,176,198,55,55,73,,,,21,33,7,11,0.7,0.9
2025-03-27T0600,2244A,130.2537,47.3416,鹤岗市,哈啤分公司,颗粒物(PM10),55,59,29,13,14,71,,,,3,4,15,15,0.6,0.6
2025-03-27T0600,2245A,130.2684,47.3086,鹤岗市,斯达机电,,25,24,24,17,16,73,,,,5,4,15,14,0.3,0.3
2025-03-27T0600,2246A,130.3114,47.3388,鹤岗市,东山纸板厂,,33,29,40,23,18,79,,,,6,7,14,14,0.4,0.4
2025-03-27T0600,2263A,127.4833,50.2524,黑河市,交通局,,25,25,22,14,14,72,,,,8,10,6,7,0.5,0.5
2025-03-27T0600,2264A,127.5144,50.2341,黑河市,环保局,,25,22,21,17,16,74,,,,6,9,3,4,0.2,0.3
2025-03-27T0600,2265A,127.5291,50.2472,黑河市,大黑河岛,,,6,18,3,6,11,,,,13,11,3,2,,
2025-03-27T0600,1074A,115.6838,37.7541,衡水市,电机北厂,颗粒物(PM10),116,182,146,56,57,25,,,,46,30,2,10,0.3,0.5
2025-03-27T0600,1075A,115.6303,37.7316,衡水市,市监测站,颗粒物(PM10),109,167,129,46,46,43,,,,34,27,8,10,0.4,0.5
2025-03-27T0600,3188A,115.6683,37.7217,衡水市,市城管局,颗粒物(PM10),118,185,142,52,55,46,,,,29,26,4,7,0.3,0.5
2025-03-27T0600,3459A,115.5989,37.5491,衡水市,地表水厂,颗粒物(PM10),114,177,130,50,47,48,,,,29,23,9,11,0.4,0.5
2025-03-27T0600,2456A,112.5003,26.9167,衡阳市,原169医院,细颗粒物(PM2.5),72,72,71,52,49,48,,,,22,7,10,8,0.7,0.6
2025-03-27T0600,2457A,112.6194,26.9258,衡阳市,衡阳化工总厂,细颗粒物(PM2.5),102,,83,76,74,92,,,,10,11,8,9,0.7,0.7
2025-03-27T0600,2458A,112.6211,26.8956,衡阳市,珠晖区环保局,细颗粒物(PM2.5),58,62,75,41,49,89,,,,15,10,9,9,0.9,1
2025-03-27T0600,2459A,112.6197,26.8733,衡阳市,市委党校,,,58,76,38,49,,,,,25,13,6,8,0.8,0.9
2025-03-27T0600,2460A,112.6006,26.8919,衡阳市,市监测站,细颗粒物(PM2.5),62,58,77,44,57,87,,,,14,17,9,10,0.8,0.9
2025-03-27T0600,2461A,112.5664,26.9056,衡阳市,真空机电公司,细颗粒物(PM2.5),60,67,77,43,51,98,,,,12,13,7,8,1.0,1.1
2025-03-27T0600,3399A,112.6703,26.882,衡阳市,师范学院,细颗粒物(PM2.5),65,62,88,47,56,104,,,,11,14,11,11,0.7,0.8
2025-03-27T0600,2608A,103.3772,23.3993,红河哈尼族彝族自治州,污水处理厂,细颗粒物(PM2.5),82,62,64,60,52,105,,,,12,11,12,9,0.5,0.5
2025-03-27T0600,2609A,103.3861,23.35,红河哈尼族彝族自治州,监测站,细颗粒物(PM2.5),69,77,64,50,48,136,,,,6,10,11,10,0.4,0.4
2025-03-27T0600,3038A,103.3758,23.368,红河哈尼族彝族自治州,州图书馆,细颗粒物(PM2.5),63,55,52,45,46,125,,,,8,9,10,6,0.4,0.4
2025-03-27T0600,1090A,111.6507,40.7517,呼和浩特市,呼市一监,颗粒物(PM10),73,95,222,22,46,84,,,,2,4,8,9,0.3,0.3
2025-03-27T0600,1091A,111.6572,40.8033,呼和浩特市,小召,颗粒物(PM10),60,70,234,17,41,82,,,,6,9,2,2,0.3,0.3
2025-03-27T0600,1094A,111.7516,40.8369,呼和浩特市,如意水处理厂,颗粒物(PM10),66,81,214,19,55,76,,,,4,4,6,5,0.2,0.2
2025-03-27T0600,1095A,111.7276,40.8062,呼和浩特市,二十九中,颗粒物(PM10),54,58,233,22,51,84,,,,1,4,3,3,0.5,0.4
2025-03-27T0600,1096A,111.5512,40.7866,呼和浩特市,工大金川校区,颗粒物(PM10),60,70,214,22,47,86,,,,2,8,5,5,0.4,0.4
2025-03-27T0600,1097A,111.717,40.7612,呼和浩特市,化肥厂生活区,颗粒物(PM10),66,81,207,18,39,82,,,,5,8,6,6,0.3,0.3
2025-03-27T0600,3698A,111.5968,40.8178,呼和浩特市,红旗小学,颗粒物(PM10),57,63,233,19,47,83,,,,5,6,3,4,0.3,0.3
2025-03-27T0600,3699A,111.6518,40.8389,呼和浩特市,海东办,颗粒物(PM10),62,73,232,19,50,79,,,,2,3,5,5,0.4,0.4
2025-03-27T0600,2192A,119.7594,49.2261,呼伦贝尔市,区环保局,,33,33,49,19,34,77,,,,6,10,6,6,0.3,0.4
2025-03-27T0600,3061A,119.7512,49.1577,呼伦贝尔市,国华电力东,颗粒物(PM10),65,79,46,18,28,79,,,,4,7,4,5,0.3,0.3
2025-03-27T0600,1250A,120.0751,30.8669,湖州市,城西水厂,,40,40,79,26,45,101,,,,20,47,6,9,0.4,0.6
2025-03-27T0600,2873A,120.0830,30.8929,湖州市,仁皇山新区,,45,42,76,31,47,96,,,,13,40,3,6,0.8,0.8
2025-03-27T0600,2907A,120.1844,30.8596,湖州市,吴兴区站,,36,30,81,23,51,115,,,,4,36,5,9,0.4,0.5
2025-03-27T0600,3562A,120.4148,30.8538,湖州市,南浔区站,,40,35,107,20,61,127,,,,10,41,2,6,0.5,0.6
2025-03-27T0600,1607A,120.9049,40.7211,葫芦岛市,龙港区,,47,47,123,7,62,78,,,,8,26,8,10,0.4,0.7
2025-03-27T0600,1608A,120.8392,40.7514,葫芦岛市,化工街,颗粒物(PM10),65,80,160,9,61,88,,,,7,35,10,15,0.4,0.7
2025-03-27T0600,1609A,120.8341,40.7073,葫芦岛市,新区,颗粒物(PM10),57,64,141,9,64,92,,,,11,37,13,13,0.5,0.7
2025-03-27T0600,1610A,120.8695,40.7677,葫芦岛市,东城区,颗粒物(PM10),52,54,142,3,64,82,,,,9,38,5,8,0.4,0.7
2025-03-27T0600,2482A,109.5981,27.5721,怀化市,林科所,颗粒物(PM10),62,74,77,42,45,105,,,,12,12,4,5,0.1,0.3
2025-03-27T0600,2483A,109.9453,27.5444,怀化市,河西地税局,细颗粒物(PM2.5),67,73,70,48,50,106,,,,8,7,11,11,0.5,0.5
2025-03-27T0600,2484A,109.9781,27.5342,怀化市,市四医院,细颗粒物(PM2.5),69,67,82,50,53,105,,,,15,17,10,10,0.6,0.7
2025-03-27T0600,2485A,109.9972,27.5578,怀化市,监测楼,细颗粒物(PM2.5),73,84,71,53,47,51,,,,25,11,16,11,0.6,0.5
2025-03-27T0600,2486A,110.0394,27.583,怀化市,市委党校,细颗粒物(PM2.5),93,83,72,69,52,76,,,,16,10,15,7,0.9,0.8
2025-03-27T0600,1210A,119.036,33.5981,淮安市,钵池山,颗粒物(PM10),80,110,95,53,58,96,,,,17,24,9,12,0.8,0.9
2025-03-27T0600,1211A,119.007,33.575,淮安市,北京南路,颗粒物(PM10),82,114,106,47,57,101,,,,21,36,9,12,0.8,0.9
2025-03-27T0600,1212A,118.989,33.6067,淮安市,市监测站,颗粒物(PM10),84,117,97,46,54,108,,,,21,35,9,13,0.4,0.6
2025-03-27T0600,1213A,119.135,33.5039,淮安市,楚州区监测站,颗粒物(PM10),78,105,112,48,58,102,,,,10,25,9,11,0.5,0.7
2025-03-27T0600,3426A,118.8755,33.2894,淮安市,新华书店,颗粒物(PM10),84,117,98,52,60,112,,,,16,26,10,13,0.9,1
2025-03-27T0600,4206A,119.0288,33.6319,淮安市,承德北路606号,颗粒物(PM10),92,134,113,49,56,99,,,,21,38,9,12,0.6,0.9
2025-03-27T0600,2282A,116.8004,33.975,淮北市,监测站,颗粒物(PM10),109,168,124,58,61,53,,,,31,22,10,9,0.7,0.6
2025-03-27T0600,2283A,116.8091,33.9007,淮北市,烈山区政府,颗粒物(PM10),105,159,119,70,64,63,,,,25,21,9,9,1.0,0.9
2025-03-27T0600,3330A,116.8873,33.9836,淮北市,杜集区检察院,颗粒物(PM10),94,137,115,67,60,52,,,,27,21,9,9,1.0,0.9
2025-03-27T0600,4017A,116.7923,33.9535,淮北市,市博物馆,颗粒物(PM10),109,168,126,59,62,58,,,,25,19,11,11,1.2,1.1
2025-03-27T0600,2277A,116.8305,32.7727,淮南市,潘集区政府,细颗粒物(PM2.5),115,167,118,87,65,57,,,,28,22,10,10,0.8,0.7
2025-03-27T0600,2279A,116.8569,32.5951,淮南市,谢家集区政府,细颗粒物(PM2.5),123,164,109,93,61,55,,,,25,21,15,12,0.8,0.6
2025-03-27T0600,2280A,116.8281,32.633,淮南市,八公山区政府,细颗粒物(PM2.5),119,171,113,90,59,54,,,,21,15,9,8,0.6,0.5
2025-03-27T0600,2281A,116.6325,32.6201,淮南市,焦岗湖风景区管理处,颗粒物(PM10),93,136,86,62,40,46,,,,14,12,9,10,0.9,0.8
2025-03-27T0600,2894A,117.0566,32.6531,淮南市,经济技术开发区消防队,细颗粒物(PM2.5),98,117,100,73,59,97,,,,16,16,12,10,0.7,0.6
2025-03-27T0600,3329A,117.0108,32.5893,淮南市,山南新区,细颗粒物(PM2.5),94,128,114,70,69,102,,,,23,12,12,11,0.7,0.6
2025-03-27T0600,4209A,117.0031,32.6445,淮南市,国庆中路369号,颗粒物(PM10),96,142,101,68,57,66,,,,19,18,14,16,0.7,0.6
2025-03-27T0600,2446A,114.9028,30.4742,黄冈市,职工中心,细颗粒物(PM2.5),62,50,82,44,63,110,,,,11,23,9,15,0.7,0.9
2025-03-27T0600,2929A,114.8858,30.4519,黄冈市,红卫路,细颗粒物(PM2.5),73,,78,53,55,110,,,,9,16,7,12,1.0,1
2025-03-27T0600,3398A,114.9136,30.4445,黄冈市,市林业局,细颗粒物(PM2.5),58,49,82,41,55,103,,,,14,22,8,15,0.7,0.8
2025-03-27T0600,2672A,102.0199,35.5102,黄南藏族自治州,同仁县隆务镇,颗粒物(PM10),171,292,409,80,128,80,,,,1,8,19,18,0.3,0.4
2025-03-27T0600,2295A,118.2903,29.6963,黄山市,延安路89号,,50,50,68,24,43,96,,,,4,10,4,6,0.6,0.6
2025-03-27T0600,2297A,118.1371,30.2756,黄山市,黄山区政府5号楼,,33,,54,15,32,103,,,,2,5,8,9,0.7,0.8
2025-03-27T0600,4210A,118.3354,29.7203,黄山市,滨江东路7-2号,,38,38,68,24,40,82,,,,3,12,5,6,0.7,0.6
2025-03-27T0600,2423A,115.0601,30.2313,黄石市,沈家营,,49,49,87,30,46,99,,,,15,21,7,9,0.6,0.8
2025-03-27T0600,2426A,114.8988,30.2019,黄石市,铁山,颗粒物(PM10),58,65,73,36,48,96,,,,12,21,13,21,0.4,0.6
2025-03-27T0600,2427A,115.0307,30.2092,黄石市,团城山,颗粒物(PM10),57,64,83,23,40,97,,,,17,18,8,10,0.7,0.7
2025-03-27T0600,3149A,115.0235,30.1578,黄石市,笔架山北路,,42,42,76,29,42,91,,,,12,12,10,12,0.9,0.8
2025-03-27T0600,4185A,115.0780,30.21118,黄石市,磁湖东路29号,颗粒物(PM10),98,145,114,33,48,58,,,,63,23,13,10,0.9,0.8
2025-03-27T0600,1392A,114.4183,23.0528,惠州市,河南岸金山湖子站,,31,31,37,17,20,20,,,,28,23,7,8,0.5,0.5
2025-03-27T0600,1393A,114.4053,23.0822,惠州市,下埔横江三路子站,,40,40,42,21,21,43,,,,18,19,8,8,0.4,0.4
2025-03-27T0600,1394A,114.4103,23.1142,惠州市,江北云山西路子站,,35,35,38,17,18,52,,,,15,18,9,9,0.4,0.5
2025-03-27T0600,1395A,114.4645,22.7833,惠州市,惠阳区承修路船湖子站,,31,31,34,16,16,52,,,,15,15,8,8,0.5,0.6
2025-03-27T0600,1396A,114.5317,22.7422,惠州市,大亚湾管委会子站,,28,28,29,3,12,9,,,,48,23,6,7,0.7,0.5
2025-03-27T0600,3314A,114.4338,22.8134,惠州市,惠阳秋长,,36,36,40,15,16,17,,,,36,12,10,13,0.6,0.6
2025-03-27T0600,3452A,114.6517,22.775,惠州市,大亚湾霞涌,,21,21,25,13,13,27,,,,20,16,7,8,0.2,0.3
2025-03-27T0600,2240A,130.9762,45.3001,鸡西市,环保局,,25,25,76,17,59,58,,,,11,16,6,10,0.5,0.5
2025-03-27T0600,2243A,130.9429,45.3039,鸡西市,第一中学,,24,24,65,16,52,60,,,,12,16,7,11,0.5,0.5
2025-03-27T0600,3707A,131.0207,45.3073,鸡西市,欧美日汽修厂,,23,23,80,14,66,64,,,,8,18,6,12,0.5,0.7
2025-03-27T0600,3709A,130.9967,45.3106,鸡西市,市政设施管理处,,25,24,86,17,66,43,,,,18,20,5,9,0.4,0.5
2025-03-27T0600,2367A,114.9754,27.0803,吉安市,红声器材厂,颗粒物(PM10),53,55,68,30,40,130,,,,11,12,12,13,0.5,0.6
2025-03-27T0600,2368A,114.9658,27.0999,吉安市,市森林工业局,颗粒物(PM10),51,52,66,34,40,125,,,,16,14,12,13,0.7,0.6
2025-03-27T0600,2369A,114.99,27.1312,吉安市,市环境监测站,,48,48,63,33,40,130,,,,10,11,13,16,0.4,0.4
2025-03-27T0600,2370A,115.0093,27.0968,吉安市,青原区法院,细颗粒物(PM2.5),55,55,45,39,42,146,,,,12,13,14,15,0.4,0.6
2025-03-27T0600,1772A,126.54,43.8622,吉林市,哈达湾,,35,35,67,16,44,68,,,,11,16,6,7,0.6,0.7
2025-03-27T0600,1773A,126.5844,43.8358,吉林市,东局子,,30,30,60,17,45,72,,,,9,14,6,6,0.5,0.6
2025-03-27T0600,1774A,126.5052,43.8245,吉林市,电力学院,,26,26,57,17,47,69,,,,9,18,4,5,0.2,0.4
2025-03-27T0600,1775A,126.6133,43.8972,吉林市,江北,,34,34,66,15,45,69,,,,13,19,3,4,0.5,0.7
2025-03-27T0600,1776A,126.555,43.8306,吉林市,江南公园,,30,30,59,19,50,69,,,,9,15,5,6,0.2,0.4
2025-03-27T0600,1778A,126.7061,43.7133,吉林市,丰满,,35,30,49,24,47,81,,,,11,11,6,5,0.8,1.1
2025-03-27T0600,2868A,126.4739,43.953,吉林市,九站,,32,32,70,16,50,58,,,,11,20,9,11,0.5,0.7
2025-03-27T0600,1299A,116.9862,36.6114,济南市,科干所,颗粒物(PM10),148,246,167,46,54,70,,,,14,38,7,10,0.5,0.6
2025-03-27T0600,1300A,116.9376,36.665,济南市,农科所,颗粒物(PM10),157,264,174,29,40,63,,,,22,42,8,11,0.4,0.6
2025-03-27T0600,1301A,117.1265,36.6734,济南市,开发区,颗粒物(PM10),146,242,170,44,51,64,,,,24,42,10,11,0.6,0.8
2025-03-27T0600,1303A,117.0624,36.6868,济南市,省种子仓库,颗粒物(PM10),155,259,191,36,48,63,,,,18,36,7,9,0.8,0.9
2025-03-27T0600,1304A,116.9489,36.6447,济南市,机床二厂,颗粒物(PM10),177,303,190,34,52,59,,,,20,45,10,11,0.7,0.9
2025-03-27T0600,1305A,117.0495,36.663,济南市,市监测站,颗粒物(PM10),153,256,185,27,47,62,,,,21,44,10,12,0.5,0.7
2025-03-27T0600,1306A,116.7675,36.5484,济南市,长清党校,颗粒物(PM10),175,300,162,34,39,76,,,,20,41,4,8,0.6,0.8
2025-03-27T0600,1616A,117.6795,36.229,济南市,技术学院,颗粒物(PM10),153,256,166,31,53,91,,,,11,27,9,17,0.3,0.7
2025-03-27T0600,1961A,117.532,36.6868,济南市,东山小学,颗粒物(PM10),162,274,174,37,42,81,,,,8,24,8,11,0.7,0.8
2025-03-27T0600,3059A,117.7161,36.2049,济南市,泰兴公司,颗粒物(PM10),135,219,163,31,51,79,,,,16,27,11,16,0.5,0.8
2025-03-27T0600,3064A,117.6867,36.2171,济南市,莱芜战役纪念馆,颗粒物(PM10),135,219,160,27,42,91,,,,14,27,5,12,0.3,0.8
2025-03-27T0600,3494A,117.1673,36.9782,济南市,济阳区政府,颗粒物(PM10),129,208,169,44,46,42,,,,33,30,13,14,0.6,0.6
2025-03-27T0600,3495A,117.1171,36.63,济南市,锦屏中学,颗粒物(PM10),152,254,168,39,42,68,,,,14,36,10,12,0.4,0.6
2025-03-27T0600,3682A,116.9814,36.6819,济南市,济南四建,颗粒物(PM10),164,278,172,63,49,59,,,,20,40,7,9,0.4,0.6
2025-03-27T0600,1653A,116.6251,35.4302,济宁市,火炬城,颗粒物(PM10),91,132,133,39,55,71,,,,17,22,12,15,0.4,0.6
2025-03-27T0600,1655A,116.5491,35.4042,济宁市,电化厂,颗粒物(PM10),132,214,173,44,62,72,,,,17,24,7,11,0.6,0.8
2025-03-27T0600,3500A,116.5814,35.3707,济宁市,北湖一中,颗粒物(PM10),89,127,129,29,47,77,,,,17,25,15,20,0.5,0.6
2025-03-27T0600,3501A,116.8249,35.5593,济宁市,服务中心,颗粒物(PM10),117,184,149,24,47,83,,,,13,27,6,9,0.5,0.7
2025-03-27T0600,3678A,116.5907,35.4054,济宁市,市第七中学,颗粒物(PM10),101,152,139,29,48,73,,,,15,22,7,10,0.5,0.5
2025-03-27T0600,2255A,130.2751,46.8028,佳木斯市,佳纺,,22,10,53,6,36,69,,,,6,14,4,6,0.2,0.3
2025-03-27T0600,2256A,130.3995,46.8307,佳木斯市,发电厂,,25,9,31,3,24,78,,,,3,10,3,5,0.5,0.6
2025-03-27T0600,2257A,130.3258,46.7975,佳木斯市,环保局,,23,,45,6,33,73,,,,7,15,2,4,0.3,0.4
2025-03-27T0600,2258A,130.3648,46.8032,佳木斯市,十一中,,23,6,43,3,35,72,,,,5,14,4,5,0.3,0.4
2025-03-27T0600,2259A,130.3794,46.7588,佳木斯市,四丰,,20,9,39,3,26,63,,,,6,10,1,1,0.7,0.8
2025-03-27T0600,1252A,120.7436,30.778,嘉兴市,清河小学,,41,41,90,20,49,109,,,,16,52,4,7,0.7,0.8
2025-03-27T0600,1253A,120.726,30.7478,嘉兴市,嘉兴学院,颗粒物(PM10),56,62,93,29,52,102,,,,18,45,7,10,0.7,0.9
2025-03-27T0600,2872A,120.7846,30.7525,嘉兴市,南湖区残联,颗粒物(PM10),63,75,97,25,54,118,,,,9,36,8,12,0.4,0.6
2025-03-27T0600,3407A,120.6916,30.7739,嘉兴市,秀洲住建,,36,,101,22,49,114,,,,14,44,5,9,0.5,0.6
2025-03-27T0600,1945A,98.2908,39.7711,嘉峪关市,气象局,,44,44,77,3,18,80,,,,6,9,3,12,0.4,0.7
2025-03-27T0600,2884A,98.2672,39.7978,嘉峪关市,酒钢宾馆,颗粒物(PM10),56,61,81,7,19,81,,,,4,10,10,23,0.6,0.5
2025-03-27T0600,3248A,98.2643,39.7724,嘉峪关市,雄关区,颗粒物(PM10),51,51,96,23,26,76,,,,13,15,14,13,0.8,0.7
2025-03-27T0600,1383A,113.1064,22.6058,江门市,北街,,25,21,32,17,16,36,,,,12,6,2,2,0.4,0.4
2025-03-27T0600,1384A,113.0731,22.5835,江门市,西区,,24,24,41,16,21,45,,,,21,18,6,7,0.4,0.4
2025-03-27T0600,1385A,113.0219,22.5311,江门市,圭峰西,,19,14,35,13,19,28,,,,20,16,4,5,0.5,0.5
2025-03-27T0600,1386A,113.0828,22.5947,江门市,东湖,,36,36,36,12,17,44,,,,13,12,8,8,0.3,0.3
2025-03-27T0600,3311A,113.1075,22.5647,江门市,江海富民,,38,38,43,17,18,36,,,,22,11,7,6,0.4,0.3
2025-03-27T0600,3449A,113.05,22.4667,江门市,新会银湖,,22,22,39,15,18,3,,,,42,26,2,4,0.5,0.4
2025-03-27T0600,3169A,113.2725,35.2067,焦作市,太极体育中心,颗粒物(PM10),111,172,202,44,60,84,,,,16,27,14,15,0.7,0.6
2025-03-27T0600,3335A,113.3137,35.2641,焦作市,马村街道办,颗粒物(PM10),95,140,184,51,63,49,,,,29,30,16,15,0.8,0.8
2025-03-27T0600,3336A,113.2465,35.2373,焦作市,焦作技师学院,颗粒物(PM10),113,175,205,51,54,58,,,,28,27,21,14,0.9,0.9
2025-03-27T0600,3477A,113.1656,35.2539,焦作市,中站许衡医院,颗粒物(PM10),108,166,176,53,56,50,,,,38,30,20,16,1.0,1
2025-03-27T0600,3981A,113.2449,35.1803,焦作市,原李万街道办,颗粒物(PM10),97,143,199,48,55,77,,,,24,31,29,21,0.9,0.5
2025-03-27T0600,4264A,113.2340,35.2190,焦作市,新安路1731号,,,,206,54,62,62,,,,25,25,22,18,0.8,0.8
2025-03-27T0600,1708A,116.3701,23.5345,揭阳市,新兴,,43,,50,30,35,42,,,,22,18,9,7,0.5,0.5
2025-03-27T0600,1709A,116.3264,23.5443,揭阳市,西马,细颗粒物(PM2.5),55,,55,39,31,40,,,,14,15,7,8,0.5,0.6
2025-03-27T0600,1710A,116.3611,23.5626,揭阳市,东兴,,40,,59,28,29,43,,,,9,7,5,6,0.7,0.7
2025-03-27T0600,1711A,116.4151,23.5294,揭阳市,渔湖,,39,39,43,15,24,13,,,,35,12,6,6,0.6,0.6
2025-03-27T0600,3320A,116.403,23.5699,揭阳市,曲溪,,26,26,47,16,28,36,,,,25,18,3,4,0.5,0.5
2025-03-27T0600,1944A,102.1692,38.5167,金昌市,天庆家园,颗粒物(PM10),52,53,108,8,23,88,,,,2,3,9,10,0.6,0.6
2025-03-27T0600,4022A,102.1647,38.5371,金昌市,金川区人防中心,颗粒物(PM10),54,58,149,9,28,84,,,,2,3,7,9,0.4,0.4
2025-03-27T0600,4239A,102.1930,38.5319,金昌市,长春路96号,颗粒物(PM10),59,67,172,8,24,84,,,,2,3,3,10,0.9,0.6
2025-03-27T0600,1262A,119.647,29.077,金华市,十五中,细颗粒物(PM2.5),118,132,121,89,78,18,,,,61,51,7,8,1.1,1.1
2025-03-27T0600,1263A,119.686,29.1029,金华市,监测站,细颗粒物(PM2.5),115,112,110,87,69,6,,,,76,52,5,7,0.8,0.7
2025-03-27T0600,3659A,119.656,29.1131,金华市,气象局,细颗粒物(PM2.5),92,125,108,68,65,1,,,,74,66,4,7,0.8,0.8
2025-03-27T0600,1767A,121.1115,41.0879,锦州市,南山,,50,50,116,14,76,83,,,,9,28,11,15,0.4,0.8
2025-03-27T0600,1768A,121.0604,40.8428,锦州市,开发区,颗粒物(PM10),55,60,142,11,70,86,,,,6,39,10,17,0.7,1
2025-03-27T0600,1769A,121.1836,41.1119,锦州市,百股街道,颗粒物(PM10),55,60,122,14,64,86,,,,7,27,5,11,0.5,0.8
2025-03-27T0600,1770A,121.1178,41.1222,锦州市,天安街道,,45,45,128,25,69,80,,,,8,26,8,14,0.4,0.8
2025-03-27T0600,1771A,121.1303,41.1386,锦州市,北湖公园,颗粒物(PM10),51,52,131,17,66,85,,,,5,22,6,13,0.4,0.7
2025-03-27T0600,2160A,112.85,35.5051,晋城市,自来水公司,颗粒物(PM10),112,173,235,24,53,80,,,,11,18,8,10,0.4,0.6
2025-03-27T0600,2161A,112.8318,35.4936,晋城市,白云商贸,颗粒物(PM10),109,167,250,39,65,80,,,,12,20,8,9,0.3,0.5
2025-03-27T0600,2162A,112.8508,35.4887,晋城市,市环保局,颗粒物(PM10),119,188,247,27,53,82,,,,10,18,7,9,0.3,0.3
2025-03-27T0600,2163A,112.8676,35.4897,晋城市,技术学院,颗粒物(PM10),113,175,242,29,60,80,,,,15,22,14,10,0.7,0.6
2025-03-27T0600,3620A,112.8271,35.4828,晋城市,泽州一中,颗粒物(PM10),120,189,254,36,72,81,,,,9,16,11,11,0.4,0.5
2025-03-27T0600,2173A,112.7249,37.7067,晋中市,南都小区,颗粒物(PM10),180,310,249,45,46,79,,,,7,14,4,6,0.3,0.4
2025-03-27T0600,2174A,112.6991,37.6982,晋中市,榆次区政府,颗粒物(PM10),181,312,275,50,44,82,,,,7,16,6,6,0.3,0.4
2025-03-27T0600,2865A,112.7195,37.6828,晋中市,榆次三中,颗粒物(PM10),200,349,298,48,60,83,,,,3,13,2,4,0.2,0.3
2025-03-27T0600,4200A,112.7478,37.6954,晋中市,迎宾街26号,颗粒物(PM10),315,432,280,48,50,85,,,,4,13,3,6,0.4,0.4
2025-03-27T0600,2439A,112.2014,31.0481,荆门市,竹园小学,颗粒物(PM10),147,243,117,30,61,115,,,,13,14,4,9,0.5,0.8
2025-03-27T0600,2440A,112.1969,30.9891,荆门市,掇刀,颗粒物(PM10),146,241,120,35,65,115,,,,9,16,10,12,0.4,0.5
2025-03-27T0600,2441A,112.2213,31.0386,荆门市,石化一小,颗粒物(PM10),147,243,117,30,63,114,,,,10,21,10,12,0.2,0.6
2025-03-27T0600,3012A,112.1849,31.0362,荆门市,西山林语,颗粒物(PM10),132,213,105,39,61,119,,,,7,11,9,10,0.2,0.4
2025-03-27T0600,3547A,112.1632,31.0138,荆门市,龙泉中学南校,颗粒物(PM10),151,252,116,52,58,115,,,,1,6,12,10,0.6,0.7
2025-03-27T0600,1844A,112.2494,30.3197,荆州市,市图书馆,颗粒物(PM10),113,175,89,60,61,129,,,,13,16,9,10,0.6,0.7
2025-03-27T0600,1845A,112.2008,30.3544,荆州市,市委党校,颗粒物(PM10),120,189,91,63,65,135,,,,12,16,11,12,0.5,0.6
2025-03-27T0600,3194A,112.2747,30.3122,荆州市,管委会,颗粒物(PM10),110,170,102,63,65,135,,,,10,12,10,12,0.5,0.6
2025-03-27T0600,4268A,112.1722,30.3366,荆州市,学苑路85号,颗粒物(PM10),109,168,74,63,67,129,,,,14,14,11,10,0.6,0.7
2025-03-27T0600,2343A,117.2117,29.2933,景德镇市,老干部活动中心,,38,35,73,19,47,121,,,,7,16,6,10,0.4,0.5
2025-03-27T0600,2344A,117.1894,29.2789,景德镇市,兽医站,,49,43,73,34,42,116,,,,8,14,4,6,0.7,0.8
2025-03-27T0600,2345A,117.1547,29.2617,景德镇市,台达陶瓷,,50,50,79,34,45,107,,,,19,19,15,19,0.6,0.6
2025-03-27T0600,2346A,117.2461,29.2956,景德镇市,陶研所,,40,39,67,28,50,110,,,,8,18,4,5,0.6,0.7
2025-03-27T0600,1803A,115.9872,29.6815,九江市,十里,颗粒物(PM10),87,124,79,28,48,98,,,,10,18,4,6,0.6,0.7
2025-03-27T0600,1804A,115.9584,29.7046,九江市,茅山头,细颗粒物(PM2.5),59,48,70,42,48,106,,,,19,28,12,8,0.4,0.6
2025-03-27T0600,1805A,115.9877,29.7295,九江市,西园,,36,36,80,18,43,92,,,,29,26,7,10,0.8,0.9
2025-03-27T0600,1808A,115.9114,29.6038,九江市,综合工业园,,42,42,92,23,42,98,,,,33,22,7,12,0.9,0.9
2025-03-27T0600,1809A,116.0721,29.7535,九江市,石化总厂,细颗粒物(PM2.5),55,,85,39,58,92,,,,24,18,11,16,0.7,0.8
2025-03-27T0600,1810A,115.9773,29.5698,九江市,庐山气象台,细颗粒物(PM2.5),78,,53,57,42,122,,,,4,7,7,10,1.0,0.7
2025-03-27T0600,3190A,116.0254,29.6994,九江市,外国语学校,,40,,69,28,45,108,,,,9,21,3,7,0.6,0.7
2025-03-27T0600,4253A,116.0102,29.6594,九江市,莲花大道8号,细颗粒物(PM2.5),53,,65,37,49,75,,,,2,11,5,9,0.6,0.7
2025-03-27T0600,4240A,98.4958,39.7339,酒泉市,玉门东路5号,,33,27,74,23,26,78,,,,2,3,6,6,0.2,0.2
2025-03-27T0600,4241A,98.5099,39.7506,酒泉市,北大街108号,,26,,64,18,21,78,,,,2,4,6,7,0.2,0.2
2025-03-27T0600,2698A,76.0072,39.4467,喀什地区,巡警大队,"颗粒物(PM10),细颗粒物(PM2.5)",500,3355,1949,1016,623,76,,,,5,15,3,4,0.4,0.4
2025-03-27T0600,2699A,75.9755,39.4694,喀什地区,吾办,细颗粒物(PM2.5),500,,767,1148,690,74,,,,11,16,2,3,0.4,0.4
2025-03-27T0600,4027A,75.9483,39.4689,喀什地区,老干局,"颗粒物(PM10),细颗粒物(PM2.5)",500,3180,1896,1013,626,82,,,,4,11,3,3,0.3,0.4
2025-03-27T0600,1824A,114.3389,34.7781,开封市,肿瘤医院,颗粒物(PM10),97,143,143,47,45,66,,,,21,22,9,10,0.8,0.7
2025-03-27T0600,1826A,114.2885,34.7965,开封市,世纪星幼儿园,颗粒物(PM10),92,134,134,53,51,66,,,,27,27,7,8,0.8,0.7
2025-03-27T0600,3147A,114.3438,34.8106,开封市,龙亭公园,颗粒物(PM10),96,142,143,54,53,68,,,,28,29,4,6,0.4,0.4
2025-03-27T0600,3210A,114.3644,34.7964,开封市,汴京公园,颗粒物(PM10),100,150,134,58,55,66,,,,28,29,6,8,0.7,0.8
2025-03-27T0600,3473A,114.2485,34.8306,开封市,技师学院,颗粒物(PM10),86,122,133,59,57,63,,,,27,27,11,14,1.1,1
2025-03-27T0600,3592A,114.4644,34.7556,开封市,祥符区生态环境局,颗粒物(PM10),103,156,169,58,55,58,,,,23,24,6,8,0.7,0.7
2025-03-27T0600,1951A,84.895,45.6094,克拉玛依市,长征新村,,21,21,22,3,7,62,,,,10,9,5,5,0.2,0.2
2025-03-27T0600,1952A,84.8988,45.5893,克拉玛依市,南林小区,,21,20,22,8,9,65,,,,1,3,4,4,0.3,0.3
2025-03-27T0600,1954A,84.905,44.3396,克拉玛依市,独山子区,,26,26,43,7,9,54,,,,9,6,4,6,0.4,0.4
2025-03-27T0600,1955A,85.6979,46.098,克拉玛依市,乌尔禾区商贸楼,,15,15,27,3,6,42,,,,16,9,5,4,0.4,0.4
2025-03-27T0600,3612A,85.1045,45.6899,克拉玛依市,白碱滩区新站,,20,18,20,6,7,64,,,,5,8,6,6,0.1,0.1
2025-03-27T0600,2697A,76.1454,39.7142,克孜勒苏柯尔克孜自治州,市人民政府,"颗粒物(PM10),细颗粒物(PM2.5)",500,2972,1957,1244,792,79,,,,2,3,4,6,0.5,0.5
2025-03-27T0600,3665A,76.1658,39.7157,克孜勒苏柯尔克孜自治州,克州文化中心,"颗粒物(PM10),细颗粒物(PM2.5)",500,4752,3521,1223,758,75,,,,2,4,4,6,0.4,0.4
2025-03-27T0600,1450A,102.8204,24.8886,昆明市,呈贡新区,,43,42,41,30,31,117,,,,19,13,6,5,0.4,0.4
2025-03-27T0600,1452A,102.7252,25.0902,昆明市,龙泉镇,颗粒物(PM10),53,56,37,27,22,5,,,,99,39,9,8,0.6,0.6
2025-03-27T0600,1453A,102.7266,25.0375,昆明市,东风东路,,39,36,34,27,23,105,,,,20,18,17,11,0.4,0.4
2025-03-27T0600,1454A,102.6742,25.0669,昆明市,金鼎山,颗粒物(PM10),54,58,41,30,24,35,,,,63,29,5,6,0.6,0.5
2025-03-27T0600,1455A,102.6644,25.0401,昆明市,碧鸡广场,,49,47,37,34,25,85,,,,30,23,12,10,0.5,0.4
2025-03-27T0600,3179A,102.7494,25.0119,昆明市,官渡区博物馆,细颗粒物(PM2.5),62,50,39,44,26,72,,,,35,17,10,9,0.9,0.5
2025-03-27T0600,3375A,102.8017,24.8336,昆明市,青年创业园,,48,41,39,33,34,125,,,,8,8,8,7,0.4,0.4
2025-03-27T0600,3550A,102.7997,24.9786,昆明市,昆明学院,细颗粒物(PM2.5),57,59,42,40,29,107,,,,21,15,10,6,0.4,0.3
2025-03-27T0600,3551A,102.5967,24.6736,昆明市,晋宁区生态环境分局,,42,36,31,29,27,120,,,,8,7,6,6,0.4,0.4
2025-03-27T0600,3552A,102.6678,24.9856,昆明市,云天化总部,,36,35,29,25,20,86,,,,31,10,10,10,0.4,0.2
2025-03-27T0600,1456A,91.1319,29.6514,拉萨市,八廓街,,23,15,24,6,14,71,,,,12,22,18,10,1.2,0.8
2025-03-27T0600,1457A,91.1221,29.6747,拉萨市,市环保局,,16,16,28,10,14,50,,,,20,24,16,11,0.9,0.9
2025-03-27T0600,1458A,91.0874,29.6475,拉萨市,区监测站,,20,15,20,3,11,63,,,,18,30,17,9,0.4,0.5
2025-03-27T0600,1459A,91.1774,29.6541,拉萨市,西藏大学,,21,12,18,6,8,67,,,,10,16,16,6,0.8,0.8
2025-03-27T0600,1460A,90.9798,29.6588,拉萨市,区辐射站,,21,21,19,12,12,35,,,,30,22,8,8,0.6,0.5
2025-03-27T0600,1461A,91.0834,29.6292,拉萨市,拉萨火车站,,17,17,19,8,10,42,,,,24,26,7,4,0.7,0.5
2025-03-27T0600,2520A,109.2203,23.7256,来宾市,来宾技工学校,,39,39,64,22,31,60,,,,10,11,4,6,0.7,0.7
2025-03-27T0600,3535A,109.1781,23.7297,来宾市,兴宾区政府,,42,42,55,27,30,64,,,,10,10,7,8,0.8,0.8
2025-03-27T0600,4002A,109.2416,23.7461,来宾市,中南小学,,41,41,60,25,30,60,,,,8,10,5,7,1.0,0.8
2025-03-27T0600,1479A,103.831,36.0464,兰州市,铁路设计院,颗粒物(PM10),78,105,467,37,109,82,,,,7,14,6,7,0.4,0.4
2025-03-27T0600,3241A,103.7439,36.0842,兰州市,百合公园,颗粒物(PM10),74,98,498,33,106,78,,,,3,3,3,5,0.5,0.4
2025-03-27T0600,3242A,103.9611,35.998,兰州市,和平,颗粒物(PM10),112,173,683,48,184,79,,,,5,5,21,12,0.8,0.6
2025-03-27T0600,4236A,103.6293,36.0938,兰州市,庄浪东路808号,颗粒物(PM10),99,147,541,47,142,81,,,,5,7,8,9,0.4,0.3
2025-03-27T0600,4237A,103.7251,36.1043,兰州市,安宁西路88号,颗粒物(PM10),86,122,565,39,122,82,,,,1,3,3,5,0.2,0.2
2025-03-27T0600,4238A,103.8470,36.0676,兰州市,北滨河东路1号,颗粒物(PM10),86,122,500,45,118,84,,,,7,9,7,9,0.6,0.5
2025-03-27T0600,3245A,103.6633,36.533,兰州新区,新区管委会,颗粒物(PM10),55,60,402,33,104,81,,,,5,5,17,13,0.3,0.3
2025-03-27T0600,3246A,103.6975,36.4789,兰州新区,舟曲中学,颗粒物(PM10),77,103,657,33,226,84,,,,4,5,2,2,0.7,0.6
2025-03-27T0600,1067A,116.6708,39.5111,廊坊市,药材公司,颗粒物(PM10),74,98,141,27,58,82,,,,5,16,2,4,0.3,0.6
2025-03-27T0600,1068A,116.7214,39.5589,廊坊市,开发区,颗粒物(PM10),69,88,152,20,51,82,,,,8,16,2,4,0.2,0.4
2025-03-27T0600,1070A,116.7244,39.5269,廊坊市,北华航天学院,颗粒物(PM10),76,101,135,18,43,80,,,,10,16,3,5,0.2,0.5
2025-03-27T0600,2919A,116.7022,39.5453,廊坊市,河北工业大学,颗粒物(PM10),73,96,132,23,44,82,,,,1,13,5,6,0.2,0.4
2025-03-27T0600,2535A,103.7723,29.5462,乐山市,花湖湾,细颗粒物(PM2.5),84,80,75,62,55,80,,,,28,27,11,11,1.2,0.6
2025-03-27T0600,2536A,103.7627,29.5844,乐山市,牛耳桥,细颗粒物(PM2.5),93,94,87,69,59,14,,,,52,44,7,10,0.8,0.8
2025-03-27T0600,2537A,103.7508,29.6006,乐山市,市第三水厂,细颗粒物(PM2.5),82,77,85,60,60,30,,,,36,39,4,8,0.6,0.7
2025-03-27T0600,2538A,103.7571,29.5664,乐山市,市监测站,细颗粒物(PM2.5),83,76,77,61,58,122,,,,17,23,8,10,0.8,0.8
2025-03-27T0600,3361A,103.7311,29.5628,乐山市,理工大学,细颗粒物(PM2.5),80,78,78,59,52,52,,,,34,28,5,9,0.6,0.6
2025-03-27T0600,2599A,100.2497,26.8802,丽江市,丽江古城,,27,14,20,10,12,84,,,,9,9,8,8,0.4,0.4
2025-03-27T0600,2600A,100.2203,26.8906,丽江市,市中心,,26,14,15,9,9,83,,,,11,16,8,8,0.6,0.6
2025-03-27T0600,1267A,119.914,28.4514,丽水市,监测站大楼,细颗粒物(PM2.5),88,84,86,65,66,56,,,,39,38,3,5,1.0,1.1
2025-03-27T0600,1268A,119.93,28.4586,丽水市,莲都小学,细颗粒物(PM2.5),77,101,95,56,56,5,,,,73,51,3,4,0.8,0.8
2025-03-27T0600,1269A,119.879,28.4231,丽水市,余庄前,细颗粒物(PM2.5),92,86,84,68,59,6,,,,27,27,5,6,0.9,0.8
2025-03-27T0600,1173A,119.176,34.5885,连云港市,市环境监测站,颗粒物(PM10),148,246,144,46,54,90,,,,15,30,14,16,0.8,0.7
2025-03-27T0600,3000A,119.3581,34.6972,连云港市,德源药业,颗粒物(PM10),130,210,145,44,50,87,,,,18,40,12,11,0.8,0.6
2025-03-27T0600,3007A,119.178,34.844,连云港市,新城一中,颗粒物(PM10),100,150,145,47,53,70,,,,36,39,12,10,1.2,1
2025-03-27T0600,3008A,119.3608,34.7519,连云港市,胡沟管理处,颗粒物(PM10),86,122,94,46,44,88,,,,23,31,10,9,0.8,0.6
2025-03-27T0600,3009A,119.1478,34.5911,连云港市,矿山设计院,颗粒物(PM10),153,256,138,44,45,84,,,,31,40,16,13,1.0,0.8
2025-03-27T0600,3434A,119.2413,34.6539,连云港市,工贸学校,颗粒物(PM10),107,163,145,43,57,89,,,,18,27,12,12,0.8,0.9
2025-03-27T0600,3664A,119.4172,34.7341,连云港市,连云街道,颗粒物(PM10),109,167,152,55,55,82,,,,25,42,10,9,0.7,0.6
2025-03-27T0600,2571A,102.3431,27.8099,凉山彝族自治州,青龙寺,,25,25,26,7,8,63,,,,7,9,6,7,0.7,0.7
2025-03-27T0600,2572A,102.2721,27.8415,凉山彝族自治州,邛海宾馆,,29,29,32,18,18,43,,,,29,25,4,7,0.5,0.5
2025-03-27T0600,2573A,102.2625,27.898,凉山彝族自治州,西昌市政府,,25,23,29,17,22,68,,,,16,14,10,12,0.8,0.7
2025-03-27T0600,2574A,102.2685,27.8851,凉山彝族自治州,凉山州政府,,,30,37,16,21,,,,,34,24,5,8,0.5,0.5
2025-03-27T0600,4229A,102.2342,27.8859,凉山彝族自治州,凯乐南路30号,,35,35,43,15,21,36,,,,38,37,8,12,0.6,0.7
2025-03-27T0600,2212A,123.2,41.1953,辽阳市,宏伟区,,39,39,95,16,63,82,,,,7,22,10,15,0.9,1.4
2025-03-27T0600,2213A,123.1683,41.2495,辽阳市,新华园,,41,41,109,23,77,75,,,,11,37,9,17,0.7,1.4
2025-03-27T0600,2214A,123.2354,41.2639,辽阳市,滨河路,,45,45,94,17,64,77,,,,8,30,6,12,0.4,1
2025-03-27T0600,2215A,123.149,41.2991,辽阳市,铁西工业园,,35,35,128,16,86,72,,,,12,41,8,17,0.6,1.5
2025-03-27T0600,2227A,125.1358,42.8845,辽源市,环保局,细颗粒物(PM2.5),67,79,74,48,47,58,,,,17,28,5,6,0.9,0.9
2025-03-27T0600,3239A,125.0764,42.9078,辽源市,银鹰制药,细颗粒物(PM2.5),67,63,72,48,54,61,,,,14,30,5,13,1.0,1
2025-03-27T0600,1625A,115.9848,36.4372,聊城市,区政府,颗粒物(PM10),106,162,139,61,55,53,,,,34,37,10,13,0.7,0.8
2025-03-27T0600,2878A,116.0072,36.4343,聊城市,聊大东校,颗粒物(PM10),147,244,184,59,59,51,,,,32,34,12,11,0.7,0.8
2025-03-27T0600,3200A,115.9819,36.4978,聊城市,监控中心,颗粒物(PM10),120,190,165,58,61,43,,,,37,34,13,14,0.8,0.8
2025-03-27T0600,3513A,116.0445,36.4361,聊城市,九州社区,颗粒物(PM10),126,202,171,62,55,40,,,,46,35,17,14,0.8,0.7
2025-03-27T0600,4018A,116.0567,36.4608,聊城市,星美广场,颗粒物(PM10),119,188,167,55,51,35,,,,34,28,14,14,0.9,0.9
2025-03-27T0600,2632A,94.3681,29.6376,林芝市,林芝监测站,,21,,15,7,7,67,,,,3,5,4,4,0.1,0.1
2025-03-27T0600,2633A,94.3616,29.6616,林芝市,林芝人民医院,,19,12,18,6,5,60,,,,1,3,7,7,0.0,0
2025-03-27T0600,2603A,100.0781,23.8982,临沧市,市环保局,细颗粒物(PM2.5),54,46,44,38,30,76,,,,12,13,8,9,0.6,0.5
2025-03-27T0600,2604A,100.0894,23.8822,临沧市,市气象局,细颗粒物(PM2.5),64,52,44,46,37,74,,,,14,16,7,7,0.5,0.4
2025-03-27T0600,1733A,111.5531,36.0783,临汾市,临钢医院,颗粒物(PM10),185,319,446,39,79,89,,,,2,9,4,6,0.3,0.5
2025-03-27T0600,1734A,111.5028,36.0714,临汾市,技工学校,颗粒物(PM10),162,273,365,49,77,84,,,,2,12,4,7,0.4,0.5
2025-03-27T0600,1736A,111.5018,36.0855,临汾市,市委,颗粒物(PM10),173,296,420,39,98,86,,,,1,13,1,4,0.3,0.4
2025-03-27T0600,3018A,111.505,36.1014,临汾市,唐尧大酒店,颗粒物(PM10),161,272,377,41,77,84,,,,1,12,6,8,0.3,0.4
2025-03-27T0600,4244A,111.4879,36.0530,临汾市,启星学校,颗粒物(PM10),158,266,440,49,99,83,,,,2,10,1,3,0.2,0.3
2025-03-27T0600,4271A,103.2464,35.6123,临夏回族自治州,滨河东路1号,颗粒物(PM10),160,269,1020,74,227,76,,,,1,4,5,6,0.2,0.2
2025-03-27T0600,4310A,103.2093,35.5995,临夏回族自治州,新华街21号,颗粒物(PM10),154,258,962,69,249,73,,,,5,6,8,10,0.2,0.3
2025-03-27T0600,1618A,118.3429,35.0532,临沂市,沂河小区,颗粒物(PM10),124,197,150,38,52,80,,,,14,17,12,13,0.8,0.7
2025-03-27T0600,1619A,118.295,35.0583,临沂市,鲁南制药厂,颗粒物(PM10),123,195,146,30,47,95,,,,19,27,12,15,0.4,0.4
2025-03-27T0600,1620A,118.2794,34.9976,临沂市,新光毛纺厂,颗粒物(PM10),124,197,143,33,45,80,,,,22,26,9,12,0.8,0.8
2025-03-27T0600,1621A,118.3956,35.0888,临沂市,河东保险公司,颗粒物(PM10),107,163,136,32,43,82,,,,23,28,8,10,0.5,0.5
2025-03-27T0600,3370A,118.3564,35.0215,临沂市,十里堡居委,颗粒物(PM10),120,190,147,31,41,83,,,,19,23,8,10,0.8,0.8
2025-03-27T0600,3496A,118.3604,35.1084,临沂市,南坊新区,颗粒物(PM10),115,180,141,31,43,86,,,,16,23,10,12,0.9,0.7
2025-03-27T0600,3860A,118.3920,35.0300,临沂市,皇山花园小区,颗粒物(PM10),129,207,159,32,44,82,,,,14,20,9,13,0.5,0.7
2025-03-27T0600,1870A,109.4856,24.3895,柳州市,柳东小学,,43,37,54,30,33,78,,,,14,14,10,11,0.4,0.4
2025-03-27T0600,1871A,109.4157,24.3277,柳州市,环保监测站,细颗粒物(PM2.5),55,50,66,39,36,75,,,,8,11,10,11,0.8,0.7
2025-03-27T0600,1872A,109.389,24.341,柳州市,河西水厂,,44,44,73,19,30,70,,,,10,13,5,7,0.5,0.5
2025-03-27T0600,1873A,109.4311,24.2921,柳州市,市四中,,37,37,60,24,32,78,,,,9,13,8,9,0.1,0.2
2025-03-27T0600,1874A,109.4006,24.3631,柳州市,市九中,细颗粒物(PM2.5),59,49,75,42,32,75,,,,8,10,8,8,0.6,0.7
2025-03-27T0600,1875A,109.4958,24.3134,柳州市,古亭山,,40,38,62,28,36,74,,,,10,10,7,8,0.6,0.6
2025-03-27T0600,3402A,109.5422,24.3996,柳州市,市二中,,43,43,54,26,30,72,,,,12,11,12,13,0.4,0.3
2025-03-27T0600,2307A,116.5079,31.737,六安市,监测大楼,细颗粒物(PM2.5),103,115,60,77,45,97,,,,17,23,5,8,0.8,0.8
2025-03-27T0600,2308A,116.4738,31.7643,六安市,皖西学院,细颗粒物(PM2.5),87,118,69,64,45,97,,,,14,13,5,7,0.7,0.6
2025-03-27T0600,2309A,116.4996,31.7905,六安市,朝阳厂,细颗粒物(PM2.5),87,109,62,64,44,91,,,,15,16,4,6,0.7,0.7
2025-03-27T0600,2310A,116.5567,31.7886,六安市,开发区,颗粒物(PM10),89,127,84,61,49,97,,,,17,19,4,7,0.8,0.8
2025-03-27T0600,2577A,104.83,26.5917,六盘水市,黄土坡,,38,27,34,18,18,121,,,,9,11,11,9,0.4,0.4
2025-03-27T0600,2578A,104.89,26.5939,六盘水市,水钢,,43,43,62,29,23,108,,,,12,10,12,10,0.3,0.4
2025-03-27T0600,2579A,104.8475,26.5894,六盘水市,民中,,41,41,33,22,14,92,,,,16,13,11,9,0.5,0.4
2025-03-27T0600,2580A,104.9544,26.5506,六盘水市,双水,,39,39,40,18,16,67,,,,24,14,12,10,0.6,0.5
2025-03-27T0600,2336A,117.0217,25.1033,龙岩市,龙岩市监测站,细颗粒物(PM2.5),52,50,80,36,56,64,,,,22,24,7,12,0.4,1
2025-03-27T0600,2337A,117.0258,25.0661,龙岩市,闽西职业技术学院,颗粒物(PM10),66,82,73,45,49,50,,,,28,25,66,36,0.6,0.6
2025-03-27T0600,2338A,117.0196,25.0306,龙岩市,龙岩学院,,43,39,52,30,39,66,,,,13,10,3,3,0.4,0.6
2025-03-27T0600,2885A,104.9339,33.3826,陇南市,滨江中学,颗粒物(PM10),255,388,265,101,71,80,,,,1,9,6,8,0.4,0.4
2025-03-27T0600,3247A,104.955,33.371,陇南市,市总工会,颗粒物(PM10),256,389,274,104,91,84,,,,2,8,7,9,0.3,0.4
2025-03-27T0600,2487A,111.9589,27.8901,娄底市,电视发射台,细颗粒物(PM2.5),74,96,98,54,54,47,,,,6,11,6,8,0.5,0.8
2025-03-27T0600,2488A,111.9975,27.725,娄底市,市监测站,细颗粒物(PM2.5),83,87,85,61,64,46,,,,60,30,13,14,0.7,0.7
2025-03-27T0600,2489A,112.0194,27.7314,娄底市,市委党校,细颗粒物(PM2.5),79,66,85,58,63,104,,,,7,13,4,4,0.6,0.7
2025-03-27T0600,2490A,111.9561,27.7569,娄底市,涟钢,细颗粒物(PM2.5),100,111,98,75,64,24,,,,22,29,4,25,1.7,1.2
2025-03-27T0600,2491A,111.9892,27.7044,娄底市,市政府,细颗粒物(PM2.5),79,71,81,58,59,68,,,,8,10,10,10,0.4,0.5
2025-03-27T0600,1894A,105.4427,28.9063,泸州市,小市上码头,细颗粒物(PM2.5),85,94,88,63,61,109,,,,21,34,14,11,0.7,0.7
2025-03-27T0600,1895A,105.4241,28.8573,泸州市,兰田宪桥,细颗粒物(PM2.5),103,88,86,77,69,75,,,,17,26,11,10,0.7,0.7
2025-03-27T0600,4272A,105.3689,28.7783,泸州市,纳溪中医医院,细颗粒物(PM2.5),70,81,104,51,52,54,,,,20,33,12,10,0.8,0.8
2025-03-27T0600,2183A,111.1406,37.5211,吕梁市,环保局,颗粒物(PM10),223,366,432,77,106,85,,,,1,12,1,3,0.2,0.3
2025-03-27T0600,2185A,111.1297,37.5136,吕梁市,自来水公司,颗粒物(PM10),194,337,422,74,97,88,,,,2,12,1,2,0.2,0.3
2025-03-27T0600,2867A,111.1283,37.51,吕梁市,马茂庄小学,颗粒物(PM10),216,361,477,84,121,87,,,,4,13,3,3,0.2,0.3
2025-03-27T0600,1812A,112.3931,34.6516,洛阳市,市委党校,颗粒物(PM10),110,170,242,54,73,63,,,,28,32,10,8,0.7,0.7
2025-03-27T0600,1815A,112.494,34.6886,洛阳市,河南林校,颗粒物(PM10),109,168,262,64,78,47,,,,28,27,8,8,0.8,0.8
2025-03-27T0600,1816A,112.3844,34.623,洛阳市,开发区管委会,颗粒物(PM10),107,163,254,67,80,59,,,,27,28,9,10,0.5,0.5
2025-03-27T0600,1817A,112.4267,34.6258,洛阳市,市委新办公区,颗粒物(PM10),109,168,236,56,67,57,,,,35,30,9,9,0.5,0.8
2025-03-27T0600,3340A,112.6005,34.6326,洛阳市,伊滨,颗粒物(PM10),104,157,227,76,75,30,,,,44,31,10,10,1.0,0.8
2025-03-27T0600,3341A,112.4951,34.6332,洛阳市,中移产业园,颗粒物(PM10),123,196,290,70,86,41,,,,37,30,11,11,0.6,0.7
2025-03-27T0600,3593A,112.5736,34.8993,洛阳市,吉利监测站,颗粒物(PM10),90,129,222,60,76,36,,,,41,32,10,12,0.6,0.6
2025-03-27T0600,3635A,112.3677,34.662,洛阳市,河科大西苑校区,颗粒物(PM10),113,175,250,56,63,52,,,,35,32,11,12,0.6,0.6
2025-03-27T0600,3636A,112.4388,34.6781,洛阳市,英才小学,颗粒物(PM10),115,180,251,52,73,49,,,,40,34,12,12,0.7,0.7
2025-03-27T0600,4214A,112.4600,34.6949,洛阳市,春都路1号院,颗粒物(PM10),108,166,255,50,62,46,,,,38,32,10,10,0.9,0.8
2025-03-27T0600,2399A,114.051,33.5699,漯河市,三五一五工厂,颗粒物(PM10),127,203,147,60,57,79,,,,17,15,6,7,0.5,0.5
2025-03-27T0600,2400A,114.0055,33.5698,漯河市,漯河大学,颗粒物(PM10),120,189,136,46,47,81,,,,18,17,6,8,0.5,0.5
2025-03-27T0600,2401A,114.0138,33.5828,漯河市,市水利局,颗粒物(PM10),122,193,146,51,50,80,,,,16,15,4,6,0.5,0.4
2025-03-27T0600,2402A,114.0261,33.5698,漯河市,市广电局,颗粒物(PM10),124,198,139,47,50,79,,,,14,13,5,7,0.5,0.5
2025-03-27T0600,3478A,113.9749,33.5664,漯河市,市图书馆,颗粒物(PM10),110,170,130,54,49,82,,,,17,17,5,7,0.6,0.6
2025-03-27T0600,4250A,114.0892,33.5882,漯河市,韶山路11号,颗粒物(PM10),110,170,129,52,54,77,,,,17,16,7,6,0.6,0.6
2025-03-27T0600,1798A,118.5092,31.6837,马鞍山市,湖东路四小,,43,38,85,30,49,123,,,,9,26,7,12,0.7,1
2025-03-27T0600,1799A,118.5024,31.6449,马鞍山市,开发区,,,42,92,42,57,,,,,14,40,3,8,0.7,1
2025-03-27T0600,1802A,118.6245,31.7241,马鞍山市,濮塘,,42,41,81,27,51,133,,,,5,18,8,12,0.6,1
2025-03-27T0600,3633A,118.4918,31.6809,马鞍山市,雨山,,39,39,85,27,53,115,,,,11,31,8,12,0.9,1.2
2025-03-27T0600,4191A,118.5274,31.72227,马鞍山市,慈湖高新区,,,45,92,31,50,119,,,,14,35,,10,0.8,1
2025-03-27T0600,1686A,111.0286,21.4688,茂名市,电白南海,,29,29,35,19,20,41,,,,7,7,1,1,0.6,0.6
2025-03-27T0600,1687A,110.9294,21.6533,茂名市,茂石化七小,,27,27,34,17,13,44,,,,2,4,1,1,0.6,0.7
2025-03-27T0600,1688A,110.9107,21.6687,茂名市,健康路,,24,24,32,7,12,55,,,,5,6,2,2,0.5,0.5
2025-03-27T0600,1689A,110.8592,21.6828,茂名市,高岭,,36,36,46,12,13,57,,,,5,7,3,4,0.5,0.5
2025-03-27T0600,3450A,111.01,21.5165,茂名市,电白水东,,19,19,23,9,9,45,,,,4,2,2,2,0.3,0.3
2025-03-27T0600,2539A,104.0308,30.0478,眉山市,黑龙滩水库,,44,44,42,28,26,34,,,,18,10,3,5,0.8,0.7
2025-03-27T0600,2540A,103.8416,30.0874,眉山市,气象局,细颗粒物(PM2.5),92,111,109,68,62,12,,,,68,40,7,10,0.7,0.8
2025-03-27T0600,3137A,103.8578,30.0744,眉山市,市委党校,细颗粒物(PM2.5),85,85,85,63,53,24,,,,62,41,14,19,0.7,0.7
2025-03-27T0600,3148A,103.8291,30.0564,眉山市,区人社局,细颗粒物(PM2.5),77,69,69,56,50,72,,,,51,46,20,20,0.8,0.8
2025-03-27T0600,1690A,116.1231,24.3284,梅州市,梅江月梅,,38,29,49,26,37,43,,,,12,16,5,6,0.4,0.5
2025-03-27T0600,1691A,116.0797,24.2719,梅州市,梅县新城,,40,36,52,28,32,14,,,,35,24,8,7,0.5,0.5
2025-03-27T0600,1692A,116.1248,24.2654,梅州市,环境监控中心,,45,,54,31,37,30,,,,22,29,11,9,0.6,0.7
2025-03-27T0600,3315A,116.1233,24.2991,梅州市,梅龙,,33,31,50,23,32,42,,,,15,18,8,9,0.6,0.6
2025-03-27T0600,1878A,104.7778,31.4741,绵阳市,富乐山,颗粒物(PM10),57,64,55,34,36,87,,,,12,26,4,5,0.5,0.6
2025-03-27T0600,1880A,104.6697,31.4668,绵阳市,高新区自来水公司,颗粒物(PM10),109,168,85,61,37,95,,,,9,47,3,5,0.3,0.5
2025-03-27T0600,1881A,104.7287,31.5075,绵阳市,三水厂,颗粒物(PM10),72,94,83,48,45,82,,,,21,44,6,8,0.5,0.6
2025-03-27T0600,3491A,104.69,31.5322,绵阳市,西科大附属小学,颗粒物(PM10),90,130,73,50,38,90,,,,15,40,7,8,0.5,0.6
2025-03-27T0600,3492A,104.5648,31.5343,绵阳市,安州区旅游局,颗粒物(PM10),82,113,69,46,32,85,,,,14,31,12,11,0.3,0.5
2025-03-27T0600,4226A,104.7651,31.4531,绵阳市,绵阳市气象局,颗粒物(PM10),80,109,67,34,35,81,,,,11,40,4,6,0.4,0.6
2025-03-27T0600,1784A,129.61,44.561,牡丹江市,环保大楼,,46,42,49,32,37,47,,,,17,21,6,6,0.4,0.4
2025-03-27T0600,1785A,129.6115,44.5782,牡丹江市,文化广场,,42,,45,29,36,50,,,,20,23,11,11,0.5,0.5
2025-03-27T0600,1786A,129.5904,44.5963,牡丹江市,第一医院,,42,,37,29,42,64,,,,11,20,10,10,0.1,0.2
2025-03-27T0600,1787A,129.6364,44.6075,牡丹江市,机车工厂,颗粒物(PM10),68,85,57,42,39,18,,,,29,20,21,29,0.8,0.6
2025-03-27T0600,1788A,129.6386,44.5462,牡丹江市,第一中学,,38,38,39,23,31,48,,,,13,17,8,8,0.5,0.5
2025-03-27T0600,2531A,105.0703,29.61,内江市,市监测站,细颗粒物(PM2.5),59,47,56,42,46,119,,,,14,30,11,11,0.2,0.3
2025-03-27T0600,2532A,105.0717,29.5947,内江市,东兴区政府,细颗粒物(PM2.5),52,50,58,36,41,94,,,,23,33,9,10,0.6,0.7
2025-03-27T0600,2533A,105.0653,29.5817,内江市,内江二中,颗粒物(PM10),65,79,64,46,47,110,,,,21,32,12,13,0.4,0.6
2025-03-27T0600,2534A,105.0406,29.5822,内江市,内江日报社,细颗粒物(PM2.5),64,59,61,46,45,58,,,,47,31,16,12,0.7,0.7
2025-03-27T0600,2628A,92.0657,31.4846,那曲市,那曲监测站,,30,30,39,18,19,50,,,,13,16,10,8,1.0,1
2025-03-27T0600,4243A,92.0515,31.4787,那曲市,那曲市委宣传部,,35,35,42,17,18,47,,,,16,16,6,6,1.1,0.8
2025-03-27T0600,1290A,115.8931,28.6843,南昌市,省外办,,45,43,88,31,61,88,,,,24,37,6,12,0.7,0.9
2025-03-27T0600,1291A,115.8886,28.7003,南昌市,省林业公司,,49,34,85,34,56,89,,,,21,29,6,12,0.1,0.2
2025-03-27T0600,1292A,115.8126,28.7442,南昌市,林科所,细颗粒物(PM2.5),55,56,80,39,51,37,,,,52,46,2,6,0.4,0.4
2025-03-27T0600,1294A,115.8518,28.687,南昌市,建工学校,细颗粒物(PM2.5),67,,91,48,63,102,,,,17,35,3,8,0.6,0.8
2025-03-27T0600,1295A,115.8921,28.6424,南昌市,象湖,,44,44,89,29,54,96,,,,15,28,10,11,1.2,0.9
2025-03-27T0600,1296A,115.7423,28.7996,南昌市,武术学校,,49,36,60,34,43,42,,,,11,11,10,13,0.7,0.8
2025-03-27T0600,3046A,115.9084,28.6062,南昌市,机电学校,,48,48,95,24,57,93,,,,16,28,7,12,0.8,0.8
2025-03-27T0600,3690A,115.9721,28.7031,南昌市,外国语学校,,48,33,85,33,54,109,,,,9,23,2,8,0.3,0.4
2025-03-27T0600,4192A,115.9316,28.68677,南昌市,南京东路235号,颗粒物(PM10),57,64,110,27,56,101,,,,18,32,4,10,0.7,0.8
2025-03-27T0600,1905A,106.056,30.8064,南充市,西山风景区,,45,42,39,31,29,113,,,,6,9,8,7,0.3,0.4
2025-03-27T0600,1906A,106.0789,30.8023,南充市,南充市委,,47,47,71,28,43,90,,,,19,40,8,6,0.6,0.8
2025-03-27T0600,1907A,106.1031,30.8217,南充市,南充炼油厂,细颗粒物(PM2.5),57,58,63,40,41,91,,,,12,26,10,7,0.5,0.6
2025-03-27T0600,1909A,106.0642,30.7636,南充市,嘉陵区环保局,颗粒物(PM10),52,54,71,31,41,93,,,,11,56,8,6,0.3,0.7
2025-03-27T0600,4227A,106.1083,30.7884,南充市,梨树横街98号,,50,50,67,27,26,95,,,,14,33,11,8,0.4,0.6
2025-03-27T0600,4304A,106.1172,30.843,南充市,清泉寺北路188号,颗粒物(PM10),55,59,64,34,37,101,,,,14,21,13,10,0.3,0.4
2025-03-27T0600,1151A,118.8086,32.1065,南京市,迈皋桥,,42,38,69,29,45,116,,,,17,33,4,6,0.6,0.9
2025-03-27T0600,1152A,118.7538,32.0551,南京市,草场门,,42,39,74,29,43,102,,,,16,29,9,13,0.6,1
2025-03-27T0600,1153A,118.7794,32.0745,南京市,山西路,,,,93,24,41,82,,,,21,28,6,6,0.9,1.1
2025-03-27T0600,1154A,118.7752,32.0023,南京市,中华门,,39,39,71,27,42,87,,,,17,23,16,13,0.8,0.8
2025-03-27T0600,1155A,118.8109,32.0309,南京市,瑞金路,颗粒物(PM10),51,51,86,31,44,90,,,,14,48,7,6,0.8,0.8
2025-03-27T0600,1156A,118.7997,32.0754,南京市,玄武湖,颗粒物(PM10),54,58,81,23,40,101,,,,10,20,7,10,0.6,0.9
2025-03-27T0600,1157A,118.6414,32.0931,南京市,浦口,,49,49,80,25,38,126,,,,8,23,7,11,0.4,0.6
2025-03-27T0600,1158A,118.7356,31.9996,南京市,奥体中心,,43,43,78,24,44,97,,,,21,29,11,12,0.8,0.9
2025-03-27T0600,1159A,118.9125,32.1028,南京市,仙林大学城,颗粒物(PM10),53,56,83,31,45,102,,,,19,33,13,14,1.0,1.1
2025-03-27T0600,3422A,118.8436,31.9198,南京市,江宁彩虹桥,,44,44,85,22,44,116,,,,5,47,4,4,0.6,0.7
2025-03-27T0600,3427A,118.8554,32.3578,南京市,六合雄州,颗粒物(PM10),77,104,89,50,44,107,,,,9,32,7,11,0.7,1
2025-03-27T0600,4249A,118.8708,31.3402,南京市,汶溪路181号,,39,,47,20,42,122,,,,9,18,4,6,0.9,0.8
2025-03-27T0600,4312A,119.019,31.6512,南京市,中山西路1号,,35,,51,20,43,112,,,,7,16,6,6,0.5,0.6
2025-03-27T0600,1401A,108.3103,22.7881,南宁市,二十一中,,25,25,44,16,23,66,,,,15,18,10,9,0.6,0.6
2025-03-27T0600,1402A,108.3141,22.8528,南宁市,北湖,,35,35,43,20,26,41,,,,21,18,9,10,0.5,0.5
2025-03-27T0600,1403A,108.3206,22.8225,南宁市,市监测站,,32,32,48,19,26,65,,,,11,16,7,10,0.5,0.6
2025-03-27T0600,1404A,108.3829,22.8037,南宁市,大自然花园,,30,29,44,21,28,66,,,,8,12,6,9,0.7,0.8
2025-03-27T0600,1405A,108.4394,22.7904,南宁市,仙葫,,29,29,42,19,23,57,,,,12,13,4,5,0.3,0.5
2025-03-27T0600,1406A,108.2397,22.8467,南宁市,区农职院,,31,31,51,21,26,31,,,,26,21,5,8,0.7,0.7
2025-03-27T0600,1407A,108.3275,22.735,南宁市,英华嘉园,,40,40,43,20,22,44,,,,31,19,10,11,0.4,0.5
2025-03-27T0600,3401A,108.4834,22.7618,南宁市,红星社区,,30,30,42,19,25,51,,,,20,13,10,12,0.5,0.7
2025-03-27T0600,4221A,108.2177,22.7774,南宁市,乐贤路16号,颗粒物(PM10),52,54,54,21,26,35,,,,32,22,9,10,0.6,0.6
2025-03-27T0600,2332A,118.1681,26.6369,南平市,南平市监测站,细颗粒物(PM2.5),90,71,82,67,67,5,,,,44,31,3,3,1.1,1.3
2025-03-27T0600,2333A,118.1825,26.6489,南平市,南平铝业有限公司,细颗粒物(PM2.5),93,80,85,69,68,18,,,,30,35,5,10,1.0,1.2
2025-03-27T0600,2334A,118.1756,26.6272,南平市,南平七中,细颗粒物(PM2.5),85,,79,63,60,24,,,,26,27,4,6,0.9,1
2025-03-27T0600,1168A,120.9098,31.9663,南通市,狼山街道,细颗粒物(PM2.5),53,47,90,37,53,105,,,,19,66,6,10,0.7,0.8
2025-03-27T0600,1169A,120.86,32.0005,南通市,虹桥,细颗粒物(PM2.5),52,51,95,36,58,110,,,,27,56,6,10,0.9,0.9
2025-03-27T0600,1170A,120.87,32.02,南通市,城中,颗粒物(PM10),51,52,99,32,52,106,,,,23,50,7,12,0.9,0.9
2025-03-27T0600,1171A,120.94,31.93,南通市,星湖花园,,50,36,93,35,56,88,,,,38,67,7,11,0.5,0.6
2025-03-27T0600,1172A,120.81,32.0417,南通市,紫琅学院,,48,41,97,33,56,103,,,,30,49,4,7,1.2,1.1
2025-03-27T0600,3291A,121.067,32.062,南通市,通州监测站,,48,48,92,29,52,113,,,,16,45,5,9,0.9,0.9
2025-03-27T0600,3432A,120.9348,31.9883,南通市,环境教育馆,颗粒物(PM10),52,53,98,31,56,116,,,,15,66,6,11,0.4,0.6
2025-03-27T0600,2404A,112.5224,33.0122,南阳市,瓦房庄,颗粒物(PM10),133,216,126,45,47,103,,,,8,12,3,6,0.5,0.6
2025-03-27T0600,2405A,112.5003,32.9735,南阳市,汉画馆,颗粒物(PM10),145,239,127,49,48,101,,,,13,19,6,8,0.4,0.5
2025-03-27T0600,2406A,112.5573,33.027,南阳市,气象站,颗粒物(PM10),151,252,130,36,47,101,,,,11,16,7,9,0.5,0.6
2025-03-27T0600,2407A,112.5481,32.9689,南阳市,理工学院,颗粒物(PM10),145,239,133,43,47,105,,,,10,15,5,7,0.4,0.6
2025-03-27T0600,4008A,112.5234,32.9922,南阳市,卧龙区政府,颗粒物(PM10),151,252,139,52,52,106,,,,9,15,6,8,0.4,0.5
2025-03-27T0600,1234A,121.8358,29.911,宁波市,区环保大楼,颗粒物(PM10),74,97,92,38,35,2,,,,88,73,15,13,0.7,0.8
2025-03-27T0600,1235A,121.56,29.82,宁波市,万里学院,"颗粒物(PM10),细颗粒物(PM2.5)",58,65,76,41,49,73,,,,24,28,9,13,0.7,0.8
2025-03-27T0600,1236A,121.713,29.9572,宁波市,龙赛医院,颗粒物(PM10),72,94,97,46,47,38,,,,54,63,14,13,0.8,0.8
2025-03-27T0600,1239A,121.633,29.7733,宁波市,钱湖水厂,颗粒物(PM10),56,62,63,39,42,80,,,,16,19,8,9,0.7,0.7
2025-03-27T0600,1240A,121.5856,29.8635,宁波市,太古小学,颗粒物(PM10),68,85,81,42,43,63,,,,33,26,9,11,0.9,0.9
2025-03-27T0600,1241A,121.524,29.8674,宁波市,市环境监测中心,细颗粒物(PM2.5),69,80,79,50,52,58,,,,45,41,8,10,1.0,1
2025-03-27T0600,2871A,121.6147,29.9017,宁波市,万里国际学校,颗粒物(PM10),72,94,78,47,43,60,,,,36,22,10,10,0.8,0.7
2025-03-27T0600,3710A,121.5594,29.8975,宁波市,白沙活动中心,细颗粒物(PM2.5),65,68,70,47,43,71,,,,26,28,7,9,0.6,0.7
2025-03-27T0600,2341A,119.5388,26.6612,宁德市,宁德市监测站,细颗粒物(PM2.5),87,,75,64,62,8,,,,52,44,4,6,0.7,0.8
2025-03-27T0600,3209A,119.5231,26.6562,宁德市,宁德一中,细颗粒物(PM2.5),65,60,76,47,59,48,,,,16,24,6,7,0.6,0.7
2025-03-27T0600,2618A,98.8601,25.8567,怒江傈僳族自治州,州监测站,,28,21,30,19,19,62,,,,5,6,5,5,0.4,0.4
2025-03-27T0600,2619A,98.8546,25.8417,怒江傈僳族自治州,泸水一中,,22,,28,15,19,43,,,,9,12,6,6,0.4,0.4
2025-03-27T0600,1888A,101.6891,26.571,攀枝花市,弄弄坪,,39,39,46,18,23,57,,,,34,33,18,21,2.1,1.5
2025-03-27T0600,1889A,101.5769,26.5928,攀枝花市,河门口,颗粒物(PM10),58,66,38,29,18,28,,,,34,23,12,16,0.7,0.6
2025-03-27T0600,1890A,101.7169,26.585,攀枝花市,炳草岗,,49,49,38,30,19,6,,,,65,36,15,14,0.7,0.6
2025-03-27T0600,1891A,101.7369,26.5008,攀枝花市,仁和,,36,36,28,19,18,62,,,,15,18,8,9,0.5,0.5
2025-03-27T0600,2835A,101.7227,26.567,攀枝花市,四十中小,,33,33,44,17,23,68,,,,24,26,12,13,0.1,0.2
2025-03-27T0600,1604A,122.0303,41.1489,盘锦市,开发区,,42,42,88,8,70,76,,,,14,30,13,15,0.5,0.8
2025-03-27T0600,1605A,122.0485,41.0883,盘锦市,兴隆台,,43,43,89,7,70,80,,,,11,34,4,7,0.4,0.8
2025-03-27T0600,1606A,121.8297,41.1028,盘锦市,新生街道,,35,35,82,7,66,68,,,,24,39,7,9,0.5,0.8
2025-03-27T0600,1832A,113.3257,33.742,平顶山市,新华旅馆,颗粒物(PM10),127,204,143,39,40,93,,,,14,21,5,7,0.4,0.5
2025-03-27T0600,1833A,113.2919,33.737,平顶山市,规划设计院,颗粒物(PM10),120,190,135,40,49,96,,,,12,16,6,8,0.3,0.5
2025-03-27T0600,1834A,113.182,33.774,平顶山市,平顶山工学院,颗粒物(PM10),119,187,132,41,47,98,,,,12,9,7,11,0.7,0.7
2025-03-27T0600,3204A,113.3025,33.73,平顶山市,规划局,颗粒物(PM10),144,237,153,46,55,100,,,,10,17,6,8,0.5,0.6
2025-03-27T0600,3594A,112.8867,33.9116,平顶山市,石龙区,颗粒物(PM10),142,234,196,42,57,87,,,,20,30,12,17,0.3,0.4
2025-03-27T0600,2656A,106.6692,35.5461,平凉市,聚贤嘉苑,颗粒物(PM10),112,173,521,47,99,94,,,,3,4,6,8,0.3,0.3
2025-03-27T0600,2657A,106.7021,35.5307,平凉市,博物馆,颗粒物(PM10),114,178,509,44,95,90,,,,3,5,15,16,0.4,0.4
2025-03-27T0600,2347A,114.0997,27.5002,萍乡市,武功山,细颗粒物(PM2.5),59,47,59,42,49,110,,,,9,8,15,16,0.6,0.7
2025-03-27T0600,2348A,113.8385,27.6434,萍乡市,中医院,细颗粒物(PM2.5),67,58,79,48,48,94,,,,16,16,14,12,1.0,1
2025-03-27T0600,2349A,113.8493,27.6253,萍乡市,市政府车库,细颗粒物(PM2.5),70,,68,51,58,92,,,,14,16,9,8,0.7,0.8
2025-03-27T0600,2350A,113.8676,27.6435,萍乡市,市环保局,细颗粒物(PM2.5),73,67,81,53,59,85,,,,16,15,12,10,0.8,0.8
2025-03-27T0600,2351A,113.866,27.6198,萍乡市,安源区政府,细颗粒物(PM2.5),62,68,79,44,48,81,,,,14,18,15,17,0.6,1
2025-03-27T0600,2319A,119.0141,25.4325,莆田市,荔城区仓后路,,40,39,62,28,28,46,,,,16,21,2,3,0.5,0.6
2025-03-27T0600,2320A,119.0015,25.4553,莆田市,莆田市监测站,,43,43,58,29,30,24,,,,11,18,3,5,0.4,0.5
2025-03-27T0600,2321A,119.1119,25.4561,莆田市,涵江区六中,,45,41,55,31,32,37,,,,24,25,5,6,0.4,0.4
2025-03-27T0600,2322A,119.1013,25.3215,莆田市,秀屿区政府,,41,41,39,19,19,48,,,,12,14,5,6,0.4,0.4
2025-03-27T0600,2392A,115.0312,35.7636,濮阳市,环保局,颗粒物(PM10),102,154,124,39,54,74,,,,16,25,4,6,0.7,0.9
2025-03-27T0600,2394A,115.0574,35.7609,濮阳市,油田运输公司,颗粒物(PM10),116,181,148,46,54,76,,,,14,22,4,7,0.9,1.1
2025-03-27T0600,3021A,115,35.7668,濮阳市,濮水河管理处,颗粒物(PM10),136,221,163,30,54,80,,,,23,32,6,8,0.7,0.7
2025-03-27T0600,4216A,115.0924,35.7686,濮阳市,任丘路479号,颗粒物(PM10),108,166,155,37,55,79,,,,14,22,6,8,0.7,1
2025-03-27T0600,2601A,100.98,22.7633,普洱市,市环保局,"颗粒物(PM10),细颗粒物(PM2.5)",63,76,75,45,30,61,,,,10,14,4,4,0.7,0.7
2025-03-27T0600,2602A,100.9817,22.8322,普洱市,普洱第二中学,,,,,33,38,32,,,,29,26,6,6,0.4,0.4
2025-03-27T0600,2262A,131.0518,45.8751,七台河市,新一中,,20,19,66,12,51,64,,,,12,19,10,15,0.6,0.7
2025-03-27T0600,3345A,131.0577,45.7879,七台河市,中波台,,20,14,63,14,49,48,,,,13,24,5,10,0.4,0.6
2025-03-27T0600,3637A,131.0176,45.7761,七台河市,人民广场,,35,,79,24,45,57,,,,9,21,6,10,0.5,0.7
2025-03-27T0600,3684A,130.8781,45.8222,七台河市,新建矿广场,细颗粒物(PM2.5),52,,69,36,47,30,,,,24,23,20,13,0.7,0.7
2025-03-27T0600,1779A,123.9305,47.3636,齐齐哈尔市,安居小区,,,17,44,,46,76,,,,6,14,3,5,0.2,0.3
2025-03-27T0600,1780A,123.9488,47.3386,齐齐哈尔市,中心广场,,,17,46,3,25,,,,,4,13,6,6,0.2,0.4
2025-03-27T0600,1781A,123.9483,47.3227,齐齐哈尔市,农牧车辆厂,,25,14,40,3,22,78,,,,5,12,4,6,0.2,0.3
2025-03-27T0600,1783A,123.945,47.2988,齐齐哈尔市,市环境监测站,,24,14,43,3,26,76,,,,4,12,2,3,0.3,0.4
2025-03-27T0600,3662A,123.6333,47.2075,齐齐哈尔市,富区青少年活动中心,,22,12,41,9,25,69,,,,5,9,5,6,0.3,0.4
2025-03-27T0600,2591A,107.9783,26.5747,黔东南苗族侗族自治州,市环境监测站,细颗粒物(PM2.5),75,67,63,55,51,126,,,,7,8,5,4,0.6,0.5
2025-03-27T0600,2881A,107.8908,26.5311,黔东南苗族侗族自治州,凯里学院,细颗粒物(PM2.5),103,97,68,77,54,117,,,,11,5,6,4,0.8,0.5
2025-03-27T0600,2593A,107.5228,26.2403,黔南布依族苗族自治州,小围寨,细颗粒物(PM2.5),73,61,58,53,42,129,,,,8,7,7,5,0.9,0.9
2025-03-27T0600,3538A,107.5175,26.2978,黔南布依族苗族自治州,沙坝,细颗粒物(PM2.5),70,63,61,51,43,120,,,,8,11,7,5,0.7,0.7
2025-03-27T0600,2589A,104.9022,25.0925,黔西南布依族苗族自治州,场坝街,细颗粒物(PM2.5),54,48,41,38,27,133,,,,7,9,3,3,0.4,0.3
2025-03-27T0600,2590A,104.8811,25.0992,黔西南布依族苗族自治州,坪东大道,,49,48,34,34,25,113,,,,14,14,2,2,0.3,0.3
2025-03-27T0600,2502A,108.6236,21.9667,钦州市,市环保站,,27,27,42,14,14,58,,,,14,18,8,9,0.4,0.6
2025-03-27T0600,2503A,108.6549,21.9481,钦州市,沙埠小学,,35,35,45,17,15,40,,,,24,17,11,8,0.9,0.7
2025-03-27T0600,2504A,108.5989,21.7431,钦州市,港区一小,,45,45,52,15,16,52,,,,21,20,8,7,0.5,0.6
2025-03-27T0600,3404A,108.5959,21.9633,钦州市,北职校,,32,32,45,16,16,54,,,,14,18,10,11,0.5,0.7
2025-03-27T0600,1043A,119.7493,40.0116,秦皇岛市,第一关,颗粒物(PM10),121,191,185,36,65,74,,,,16,41,3,5,0.2,0.4
2025-03-27T0600,1044A,119.5897,39.9499,秦皇岛市,监测站,颗粒物(PM10),102,153,169,34,53,85,,,,1,31,2,4,0.2,0.4
2025-03-27T0600,1046A,119.5251,39.9041,秦皇岛市,建设大厦,颗粒物(PM10),126,202,184,42,54,74,,,,18,37,3,4,0.2,0.5
2025-03-27T0600,3132A,119.610547,39.943889,秦皇岛市,文明里,颗粒物(PM10),115,180,185,33,44,83,,,,6,32,3,4,0.1,0.4
2025-03-27T0600,4198A,119.5090,39.8253,秦皇岛市,北戴河轮滑馆,颗粒物(PM10),116,182,161,35,54,81,,,,2,18,5,6,0.2,0.4
2025-03-27T0600,1307A,120.6659,36.2403,青岛市,仰口,颗粒物(PM10),111,172,169,47,41,101,,,,11,10,6,4,0.6,0.6
2025-03-27T0600,1310A,120.4134,36.0658,青岛市,市南区东部子站,颗粒物(PM10),117,183,161,44,38,90,,,,16,18,9,9,0.6,0.5
2025-03-27T0600,1311A,120.3664,36.1032,青岛市,四方区子站,颗粒物(PM10),111,171,147,44,46,89,,,,27,33,6,7,0.9,0.8
2025-03-27T0600,1312A,120.2994,36.054,青岛市,市南区西部子站,颗粒物(PM10),112,173,147,44,36,74,,,,22,23,7,8,0.9,0.7
2025-03-27T0600,1313A,120.4581,36.0858,青岛市,崂山区子站,颗粒物(PM10),107,163,147,41,36,99,,,,13,16,10,9,0.7,0.6
2025-03-27T0600,1315A,120.3999,36.3083,青岛市,城阳区子站,颗粒物(PM10),102,153,151,34,38,86,,,,23,37,8,10,0.7,0.8
2025-03-27T0600,1966A,120.0405,35.8735,青岛市,黄岛区4号,颗粒物(PM10),112,173,154,46,37,81,,,,25,24,12,9,1.0,0.7
2025-03-27T0600,3362A,120.5014,36.4034,青岛市,即墨2号,颗粒物(PM10),101,151,177,46,41,77,,,,17,17,8,8,0.7,0.7
2025-03-27T0600,3642A,120.3503,36.0736,青岛市,市北区南部,颗粒物(PM10),107,163,158,41,43,73,,,,16,20,8,8,0.8,0.8
2025-03-27T0600,3643A,120.3948,36.1805,青岛市,李沧区北部,颗粒物(PM10),115,180,164,44,49,88,,,,18,27,9,10,0.7,0.7
2025-03-27T0600,4290A,120.1969,35.9546,青岛市,珠江路669号,颗粒物(PM10),118,185,161,56,42,53,,,,53,33,11,8,1.1,0.8
2025-03-27T0600,1702A,113.0426,23.691,清远市,环保大楼,,43,43,40,24,31,50,,,,10,19,1,3,0.6,0.7
2025-03-27T0600,1703A,113.0208,23.7106,清远市,凤城街办,,42,42,53,16,24,46,,,,17,28,7,7,0.4,0.5
2025-03-27T0600,3025A,113.0477,23.6344,清远市,技师学院,,42,42,59,20,25,43,,,,20,29,6,8,0.2,0.4
2025-03-27T0600,3318A,112.9903,23.7403,清远市,清新太和,,38,38,58,17,27,55,,,,18,27,7,8,0.3,0.4
2025-03-27T0600,3455A,113.076,23.7198,清远市,清城东城,,42,42,62,18,29,44,,,,13,23,7,8,0.2,0.3
2025-03-27T0600,2661A,107.6325,35.7357,庆阳市,庆阳五中,颗粒物(PM10),150,250,511,73,136,67,,,,7,7,1,2,0.4,0.4
2025-03-27T0600,2662A,107.6364,35.7067,庆阳市,市环保局,颗粒物(PM10),156,262,491,80,132,75,,,,6,7,3,3,0.5,0.5
2025-03-27T0600,1916A,103.7897,25.5035,曲靖市,环境监测站,,41,41,40,22,20,112,,,,15,13,6,4,0.5,0.4
2025-03-27T0600,1917A,103.8,25.5364,曲靖市,烟厂办公区,,40,40,38,21,19,121,,,,10,9,3,4,0.5,0.4
2025-03-27T0600,3376A,103.7947,25.462,曲靖市,南苑二区,,40,40,37,27,21,121,,,,8,9,8,8,0.4,0.3
2025-03-27T0600,3377A,103.7444,25.5261,曲靖市,曲靖师范学院,,48,43,38,33,25,120,,,,13,13,7,8,0.3,0.2
2025-03-27T0600,1264A,118.8692,28.9398,衢州市,环保大楼,细颗粒物(PM2.5),92,96,92,68,57,18,,,,57,36,3,5,0.6,0.6
2025-03-27T0600,1265A,118.8709,28.9666,衢州市,实验学校,细颗粒物(PM2.5),92,107,95,68,55,6,,,,65,41,1,3,0.6,0.7
2025-03-27T0600,1266A,118.8621,28.9808,衢州市,衢州学院,细颗粒物(PM2.5),93,89,82,69,60,2,,,,69,45,2,3,0.7,0.6
2025-03-27T0600,1611A,118.5819,24.9117,泉州市,涂山街,,40,30,46,28,22,34,,,,24,23,2,5,0.6,0.6
2025-03-27T0600,1612A,118.5972,24.8978,泉州市,津头埔,,38,,41,26,23,42,,,,21,26,2,5,0.5,0.6
2025-03-27T0600,1613A,118.6663,24.9424,泉州市,万安,,28,,40,19,18,53,,,,6,17,3,4,0.5,0.5
2025-03-27T0600,3529A,118.6333,24.9264,泉州市,城华南路,,36,36,36,25,20,37,,,,22,22,2,4,0.3,0.4
2025-03-27T0600,2626A,88.8876,29.2718,日喀则市,日喀则监测站,,38,38,34,21,18,42,,,,19,27,2,1,0.9,1.1
2025-03-27T0600,3726A,88.8781,29.2426,日喀则市,林业技术推广中心,,27,27,27,13,7,16,,,,46,10,8,7,1.0,0.6
2025-03-27T0600,1659A,119.471,35.4209,日照市,监测站,颗粒物(PM10),122,193,147,46,45,82,,,,24,26,9,8,1.0,0.7
2025-03-27T0600,1660A,119.523,35.4216,日照市,市政府广场,颗粒物(PM10),119,188,137,42,40,81,,,,19,19,12,7,1.1,0.7
2025-03-27T0600,1661A,119.5587,35.4044,日照市,港务局,颗粒物(PM10),141,232,149,56,44,84,,,,21,18,10,6,1.1,0.7
2025-03-27T0600,3507A,119.5328,35.4625,日照市,职业技术学院,颗粒物(PM10),168,285,154,48,39,80,,,,26,24,10,6,1.2,0.8
2025-03-27T0600,3604A,119.3266,35.1044,日照市,岚山环保分局,颗粒物(PM10),191,332,170,49,53,79,,,,32,32,32,26,3.4,2.7
2025-03-27T0600,1835A,111.1922,34.7752,三门峡市,市政府,颗粒物(PM10),182,314,320,85,106,90,,,,6,15,4,8,0.3,0.5
2025-03-27T0600,1836A,111.1587,34.7942,三门峡市,开发区,颗粒物(PM10),295,416,365,91,102,81,,,,10,17,7,9,0.2,0.4
2025-03-27T0600,3039A,111.1911,34.7829,三门峡市,三门峡市第一小学,颗粒物(PM10),200,349,355,66,83,88,,,,9,15,5,9,0.4,0.5
2025-03-27T0600,3598A,111.1,34.7167,三门峡市,富达温泉假日酒店,颗粒物(PM10),209,356,364,136,146,88,,,,4,22,9,15,0.3,0.6
2025-03-27T0600,2324A,117.6211,26.2625,三明市,三钢,细颗粒物(PM2.5),94,76,79,70,63,36,,,,34,34,13,13,2.0,2.3
2025-03-27T0600,2325A,117.635,26.2714,三明市,三明二中,细颗粒物(PM2.5),74,71,72,54,55,36,,,,31,33,7,12,1.1,1.5
2025-03-27T0600,2326A,117.6028,26.2378,三明市,三元区政府,细颗粒物(PM2.5),74,88,81,54,58,35,,,,33,32,9,11,0.9,0.9
2025-03-27T0600,1876A,109.5078,18.2489,三亚市,河东子站,,28,28,28,16,14,37,,,,9,8,4,4,0.4,0.4
2025-03-27T0600,1877A,109.4964,18.2681,三亚市,河西子站,,23,22,25,16,14,42,,,,6,7,4,3,0.4,0.4
2025-03-27T0600,3540A,109.7348,18.3443,三亚市,君悦子站,,22,22,24,13,13,39,,,,6,9,4,4,0.3,0.3
2025-03-27T0600,2624A,91.7608,29.2313,山南市,山南监测站,,20,14,22,6,11,61,,,,9,11,6,6,0.3,0.3
2025-03-27T0600,2625A,91.7706,29.2436,山南市,山南人民医院,,23,20,28,8,10,71,,,,4,7,5,4,0.4,0.4
2025-03-27T0600,1674A,116.6794,23.3667,汕头市,金平子站,,29,,30,20,22,45,,,,19,14,4,5,0.6,0.6
2025-03-27T0600,1675A,116.7244,23.3633,汕头市,龙湖子站,,23,23,32,16,16,42,,,,18,10,3,4,0.5,0.5
2025-03-27T0600,1676A,116.7258,23.2775,汕头市,濠江子站,,39,,39,27,22,57,,,,14,12,4,4,0.6,0.7
2025-03-27T0600,1677A,116.7519,23.4714,汕头市,澄海子站,,,18,40,,26,55,,,,15,18,4,4,0.5,0.7
2025-03-27T0600,1678A,116.6092,23.2539,汕头市,潮阳子站,,22,17,32,12,18,70,,,,5,7,6,6,0.2,0.2
2025-03-27T0600,3444A,116.454,23.2684,汕头市,潮南峡山,,26,26,35,11,18,66,,,,2,3,7,8,0.5,0.5
2025-03-27T0600,3624A,116.4069,23.2533,汕头市,潮南子站,,38,38,42,22,20,62,,,,11,11,8,8,0.6,0.6
2025-03-27T0600,1693A,115.3653,22.775,汕尾市,市环保局,,20,16,20,14,18,52,,,,9,7,6,6,0.7,0.7
2025-03-27T0600,1694A,115.3706,22.7898,汕尾市,市政府,,26,,19,18,16,47,,,,12,9,5,4,0.5,0.5
2025-03-27T0600,1695A,115.3622,22.7925,汕尾市,新城中学,,19,18,24,13,13,37,,,,9,7,8,8,0.5,0.5
2025-03-27T0600,2645A,109.9154,33.8715,商洛市,监测站,颗粒物(PM10),266,396,303,118,94,86,,,,4,14,4,7,0.3,0.4
2025-03-27T0600,3045A,109.9643,33.8471,商洛市,商州区中学,颗粒物(PM10),385,488,389,107,84,84,,,,3,20,3,5,0.6,0.7
2025-03-27T0600,2408A,115.6702,34.4285,商丘市,环境监测站,颗粒物(PM10),124,197,141,57,64,69,,,,24,17,7,9,0.6,0.5
2025-03-27T0600,2409A,115.6458,34.4045,商丘市,粮食局,颗粒物(PM10),116,181,129,58,62,61,,,,17,17,3,5,0.4,0.4
2025-03-27T0600,2410A,115.6293,34.3948,商丘市,睢阳区环保局,颗粒物(PM10),130,209,153,58,66,66,,,,18,16,4,5,0.5,0.4
2025-03-27T0600,3171A,115.6071,34.4465,商丘市,梁园区档案局,颗粒物(PM10),116,182,138,59,68,65,,,,22,21,4,5,0.7,0.7
2025-03-27T0600,1141A,121.4,31.238,上海市,普陀,细颗粒物(PM2.5),87,107,96,64,56,49,,,,51,45,9,12,0.8,0.8
2025-03-27T0600,1142A,121.478,31.2036,上海市,十五厂,细颗粒物(PM2.5),88,87,89,65,60,54,,,,41,40,9,10,1.1,1
2025-03-27T0600,1143A,121.467,31.3008,上海市,虹口,细颗粒物(PM2.5),89,94,88,66,58,49,,,,43,45,11,12,0.8,0.8
2025-03-27T0600,1147A,121.425,31.2261,上海市,静安监测站,细颗粒物(PM2.5),79,98,93,58,53,53,,,,46,48,9,12,1.1,0.8
2025-03-27T0600,1148A,121.703,31.1907,上海市,浦东川沙,细颗粒物(PM2.5),82,89,97,60,53,60,,,,44,45,8,9,0.7,0.7
2025-03-27T0600,1149A,121.533,31.2284,上海市,浦东新区监测站,,,83,78,,54,63,,,,47,40,8,9,0.9,0.8
2025-03-27T0600,1150A,121.577,31.2071,上海市,浦东张江,,,90,99,,56,55,,,,42,36,6,7,1.1,1
2025-03-27T0600,3265A,121.4316,31.3322,上海市,宝山庙行,颗粒物(PM10),84,118,97,52,52,49,,,,44,41,8,11,0.8,0.7
2025-03-27T0600,3268A,121.3162,31.2838,上海市,嘉定南翔,细颗粒物(PM2.5),84,96,93,62,58,45,,,,49,63,6,9,0.8,0.8
2025-03-27T0600,3269A,121.3359,30.7456,上海市,金山新城,细颗粒物(PM2.5),53,52,73,37,56,97,,,,25,39,6,8,0.7,0.8
2025-03-27T0600,3270A,121.4996,31.0739,上海市,闵行浦江,细颗粒物(PM2.5),64,74,82,46,52,49,,,,56,39,6,7,1.1,1
2025-03-27T0600,3271A,121.2886,31.1663,上海市,青浦徐泾,细颗粒物(PM2.5),87,89,89,64,56,57,,,,48,49,7,9,0.8,0.7
2025-03-27T0600,3272A,121.2186,31.0378,上海市,松江图书馆,细颗粒物(PM2.5),89,80,84,66,57,44,,,,58,59,7,9,1.0,0.9
2025-03-27T0600,3273A,121.3902,31.2059,上海市,长宁仙霞,细颗粒物(PM2.5),87,102,91,64,55,45,,,,46,48,8,12,1.0,0.9
2025-03-27T0600,3274A,121.7965,31.0507,上海市,浦东惠南,颗粒物(PM10),59,68,76,39,50,66,,,,43,42,7,9,1.1,1.1
2025-03-27T0600,3544A,121.4891,30.925,上海市,奉贤南桥新城,细颗粒物(PM2.5),58,52,69,41,55,73,,,,43,45,5,8,1.0,1
2025-03-27T0600,4183A,121.4174,31.16637,上海市,冠生园路458号,细颗粒物(PM2.5),84,81,86,62,58,48,,,,35,47,10,12,1.0,1
2025-03-27T0600,4205A,121.5419,31.2683,上海市,宁武路151号,细颗粒物(PM2.5),83,96,108,61,56,48,,,,52,53,7,9,0.9,0.8
2025-03-27T0600,2382A,117.9756,28.4436,上饶市,市监测站,细颗粒物(PM2.5),73,76,79,53,50,58,,,,19,26,6,19,0.8,0.9
2025-03-27T0600,2383A,117.9519,28.4628,上饶市,凤凰光学,细颗粒物(PM2.5),72,92,81,52,48,78,,,,21,29,10,15,1.0,1.1
