timepoint,stationcode,longitude,latitude,area,positionname,primarypollutant,aqi,pm10,pm10_24h,pm2_5,pm2_5_24h,o3,o3_24h,o3_8h,o3_8h_24h,no2,no2_24h,so2,so2_24h,co,co_24h
2025-03-27T2200,2566A,102.1879,31.914,阿坝藏族羌族自治州,州农科所,,33,33,28,10,11,62,,90,82,14,12,11,11,0.2,0.2
2025-03-27T2200,2568A,102.2502,31.8896,阿坝藏族羌族自治州,马师校,,43,43,24,25,14,43,,103,91,38,21,4,4,0.4,0.3
2025-03-27T2200,3994A,102.2165,31.9024,阿坝藏族羌族自治州,马尔康中学西区,,32,32,19,18,11,66,,106,98,22,13,5,5,0.4,0.3
2025-03-27T2200,2695A,80.292,41.1694,阿克苏地区,电视台,颗粒物(PM10),500,1349,2426,247,489,79,,85,85,8,3,3,3,0.3,0.3
2025-03-27T2200,2696A,80.2613,41.1551,阿克苏地区,艺术中心,颗粒物(PM10),500,1663,2815,296,556,77,,83,82,9,4,4,4,0.6,0.5
2025-03-27T2200,2204A,105.6467,38.8363,阿拉善盟,西城区西花园,颗粒物(PM10),367,473,215,132,47,92,,95,94,6,6,8,8,0.5,0.5
2025-03-27T2200,2205A,105.6985,38.8411,阿拉善盟,蒙二幼,颗粒物(PM10),500,745,225,141,47,82,,84,84,6,6,5,5,0.6,0.6
2025-03-27T2200,2206A,105.724,38.8516,阿拉善盟,环保局新楼,颗粒物(PM10),500,670,242,147,55,88,,89,88,2,3,7,8,0.5,0.5
2025-03-27T2200,2708A,88.1264,47.8517,阿勒泰地区,市站,,22,12,8,7,6,69,,80,75,5,4,2,3,0.4,0.4
2025-03-27T2200,2630A,80.1161,32.5,阿里地区,阿里监测站,,35,6,10,3,9,110,,111,111,1,4,6,6,0.5,0.5
2025-03-27T2200,3192A,80.0903,32.5028,阿里地区,阿里藏医院,,34,11,13,3,5,106,,109,108,1,3,6,7,0.4,0.4
2025-03-27T2200,2642A,109.0318,32.6537,安康市,香溪洞,颗粒物(PM10),77,104,251,46,66,66,,92,74,6,8,6,8,0.7,0.6
2025-03-27T2200,2644A,109.0072,32.6975,安康市,汉滨区检察院,颗粒物(PM10),99,148,247,51,60,78,,87,80,7,14,7,9,0.3,0.3
2025-03-27T2200,4054A,109.0325,32.6913,安康市,市邮政管理局,颗粒物(PM10),100,149,245,46,62,73,,84,77,8,19,6,10,0.3,0.5
2025-03-27T2200,2291A,117.0809,30.5177,安庆市,环科院,颗粒物(PM10),111,171,84,36,37,78,,114,93,16,15,8,8,0.5,0.6
2025-03-27T2200,2292A,117.0331,30.5119,安庆市,马山宾馆,颗粒物(PM10),109,167,82,32,36,76,,112,94,13,11,3,4,0.4,0.7
2025-03-27T2200,2294A,116.9896,30.6145,安庆市,安庆大学,颗粒物(PM10),118,186,90,32,40,95,,119,101,11,12,5,5,0.3,0.4
2025-03-27T2200,3173A,117.0598,30.5351,安庆市,市人大,颗粒物(PM10),117,184,88,33,34,75,,120,92,12,10,7,7,0.6,0.7
2025-03-27T2200,3122A,105.9606,26.2611,安顺市,伍家关,细颗粒物(PM2.5),55,56,43,39,28,132,,161,155,9,9,13,7,0.7,0.4
2025-03-27T2200,3123A,105.9408,26.2431,安顺市,凤凰山,细颗粒物(PM2.5),63,59,45,45,32,134,,162,155,15,16,13,9,0.4,0.3
2025-03-27T2200,3124A,105.9439,26.2564,安顺市,金钟山,细颗粒物(PM2.5),65,48,42,47,32,147,,168,164,11,11,9,8,0.6,0.5
2025-03-27T2200,3125A,105.8983,26.2481,安顺市,娄家坡,细颗粒物(PM2.5),70,63,45,51,34,145,,169,163,14,12,12,8,0.6,0.5
2025-03-27T2200,1818A,114.4839,36.0621,安阳市,棉研所,,,,,,,,,,,,,,,,
2025-03-27T2200,1819A,114.3551,36.1017,安阳市,红庙街,颗粒物(PM10),73,96,170,23,42,44,,76,66,17,18,3,6,0.3,0.6
2025-03-27T2200,1820A,114.361,36.0681,安阳市,银杏小区,颗粒物(PM10),66,81,156,29,44,46,,86,71,19,16,3,3,0.4,0.6
2025-03-27T2200,3141A,114.3922,36.0878,安阳市,信访局,颗粒物(PM10),66,82,160,26,43,44,,87,74,20,17,3,5,0.4,0.6
2025-03-27T2200,3669A,114.4705,36.0637,安阳市,左辅环卫站,颗粒物(PM10),58,66,167,29,44,57,,99,84,15,13,2,5,0.2,0.3
2025-03-27T2200,3703A,114.2917,36.0949,安阳市,安钢职工学校,颗粒物(PM10),74,97,163,27,46,42,,76,66,21,24,2,6,0.6,0.8
2025-03-27T2200,1748A,123.044,41.1196,鞍山市,深沟寺,颗粒物(PM10),66,82,60,28,31,51,,81,76,26,16,16,15,0.8,0.8
2025-03-27T2200,1749A,123.011,41.0931,鞍山市,太阳城,颗粒物(PM10),67,84,55,27,29,49,,84,77,34,19,20,12,1.3,1.1
2025-03-27T2200,1750A,123.0485,41.1442,鞍山市,太平,颗粒物(PM10),69,88,78,26,35,48,,77,67,24,21,14,13,1.1,1.1
2025-03-27T2200,1751A,122.9642,41.0971,鞍山市,铁西三道街,颗粒物(PM10),65,80,66,25,33,57,,78,66,26,28,9,15,0.6,1.3
2025-03-27T2200,1753A,123.022,41.0821,鞍山市,明达新区,颗粒物(PM10),61,72,52,25,31,54,,81,74,25,18,12,10,0.6,0.7
2025-03-27T2200,1754A,123.1289,41.0228,鞍山市,千山,,,,63,,22,,,74,,,16,,4,,0.9
2025-03-27T2200,4201A,122.9446,41.0826,鞍山市,兴盛南路290号,颗粒物(PM10),73,95,73,30,40,52,,79,70,35,33,17,14,0.7,0.8
2025-03-27T2200,2195A,107.4212,40.761,巴彦淖尔市,附二中,,,,308,23,55,,,82,78,5,4,6,5,0.2,0.4
2025-03-27T2200,2196A,107.37,40.7372,巴彦淖尔市,市环保大楼,细颗粒物(PM2.5),52,45,246,36,57,75,,85,80,6,2,4,4,0.1,0.1
2025-03-27T2200,1956A,86.1472,41.7538,巴音郭楞蒙古自治州,孔雀公园,颗粒物(PM10),117,184,504,34,65,77,,87,85,13,10,4,4,0.3,0.3
2025-03-27T2200,1957A,86.1972,41.7166,巴音郭楞蒙古自治州,棉纺厂,颗粒物(PM10),142,234,656,33,67,71,,88,84,22,9,2,2,0.3,0.2
2025-03-27T2200,1958A,86.2357,41.7173,巴音郭楞蒙古自治州,经济开发区,颗粒物(PM10),130,210,479,37,61,86,,93,92,8,4,4,3,0.3,0.1
2025-03-27T2200,2914A,106.7677,31.8794,巴中市,苏山坪,颗粒物(PM10),158,265,257,71,78,89,,122,94,5,6,3,4,0.2,0.2
2025-03-27T2200,3181A,106.7768,31.8526,巴中市,市五中,颗粒物(PM10),172,293,239,63,70,86,,91,88,3,16,4,5,0.3,0.5
2025-03-27T2200,3183A,106.7418,31.8654,巴中市,圣泉水务公司,颗粒物(PM10),157,264,248,62,67,89,,100,93,6,17,6,7,0.3,0.4
2025-03-27T2200,3616A,106.7616,31.8344,巴中市,市中心医院,颗粒物(PM10),174,298,248,89,82,85,,88,84,5,24,7,8,0.4,0.6
2025-03-27T2200,2235A,122.7911,45.6077,白城市,洮北区环保局,,36,32,30,25,14,56,,87,74,16,10,5,4,0.5,0.3
2025-03-27T2200,2236A,122.8738,45.5725,白城市,市环保局,,21,19,20,14,13,66,,87,78,12,6,4,4,0.3,0.3
2025-03-27T2200,2231A,126.4219,41.9171,白山市,喜丰,,33,33,34,8,18,76,,73,73,10,17,5,6,0.7,0.9
2025-03-27T2200,2232A,126.4077,41.9419,白山市,环保局,,37,37,46,10,19,79,,77,77,10,18,4,7,0.6,0.9
2025-03-27T2200,2647A,104.1724,36.5446,白银市,第三小学,颗粒物(PM10),77,104,100,22,29,74,,85,80,7,3,10,8,0.1,0.1
2025-03-27T2200,2648A,104.1465,36.5482,白银市,动力公司,颗粒物(PM10),64,77,87,18,27,79,,86,82,6,4,3,4,0.2,0.2
2025-03-27T2200,2512A,106.6103,23.9011,百色市,市监测站,细颗粒物(PM2.5),69,76,84,50,59,122,,148,140,15,17,16,14,1.0,1
2025-03-27T2200,2513A,106.6538,23.8859,百色市,市中心血站,细颗粒物(PM2.5),69,,89,50,67,123,,143,138,13,17,19,17,1.0,1
2025-03-27T2200,3406A,106.6085,23.8798,百色市,祈福高中,细颗粒物(PM2.5),70,84,91,51,59,114,,138,131,13,19,14,13,1.0,1
2025-03-27T2200,2270A,117.396,32.939,蚌埠市,工人疗养院,颗粒物(PM10),80,110,192,32,49,74,,109,76,10,17,3,6,0.4,0.6
2025-03-27T2200,2271A,117.3605,32.9427,蚌埠市,百货大楼,,,115,185,,51,63,,100,68,18,20,4,7,0.3,0.5
2025-03-27T2200,2273A,117.4185,32.8911,蚌埠市,蚌埠学院,颗粒物(PM10),79,107,170,32,50,74,,110,77,10,14,2,5,0.4,0.6
2025-03-27T2200,2274A,117.3533,32.9673,蚌埠市,淮上区政府,颗粒物(PM10),78,105,174,33,53,64,,104,72,14,18,4,7,0.4,0.5
2025-03-27T2200,2275A,117.3145,32.8977,蚌埠市,高新区,颗粒物(PM10),79,107,172,29,53,62,,105,72,17,19,6,7,0.3,0.6
2025-03-27T2200,3715A,117.3092,32.9314,蚌埠市,蚌埠田家炳中学,颗粒物(PM10),86,122,196,33,52,62,,104,70,21,22,4,7,0.2,0.5
2025-03-27T2200,1585A,109.8756,40.6532,包头市,市环境监测站,颗粒物(PM10),86,122,191,14,40,50,,86,74,33,9,16,10,2.1,0.4
2025-03-27T2200,1587A,109.9991,40.5842,包头市,包头八中,颗粒物(PM10),76,102,191,21,44,66,,85,78,15,8,10,6,0.5,0.4
2025-03-27T2200,1588A,109.8538,40.6821,包头市,青山宾馆,颗粒物(PM10),68,86,176,14,39,69,,85,78,13,5,8,7,0.6,0.4
2025-03-27T2200,1589A,109.8642,40.6288,包头市,惠龙物流,颗粒物(PM10),75,99,182,23,30,61,,88,79,23,10,8,7,0.8,0.5
2025-03-27T2200,1590A,110.0377,40.5546,包头市,东河鸿龙湾,颗粒物(PM10),78,106,174,6,29,71,,87,82,11,7,7,8,0.5,0.6
2025-03-27T2200,3283A,109.9154,40.5685,包头市,滨河大厦,颗粒物(PM10),69,88,164,11,31,69,,88,81,11,6,8,10,0.9,0.9
2025-03-27T2200,3419A,109.9447,40.6261,包头市,包头市委党校,颗粒物(PM10),80,109,187,16,31,64,,86,81,18,5,6,5,0.7,0.4
2025-03-27T2200,3683A,109.8331,40.6576,包头市,昆区政府,颗粒物(PM10),65,80,182,38,36,32,,84,66,49,12,11,6,2.2,0.6
2025-03-27T2200,1930A,107.185,34.3063,宝鸡市,庙沟村,颗粒物(PM10),127,204,298,78,76,52,,86,74,22,7,6,6,0.4,0.2
2025-03-27T2200,1931A,107.0708,34.3017,宝鸡市,竹园沟,颗粒物(PM10),123,195,327,77,75,66,,89,82,12,6,6,6,0.4,0.3
2025-03-27T2200,1932A,107.1906,34.3672,宝鸡市,三陆医院,颗粒物(PM10),134,218,325,90,90,55,,83,74,19,9,4,4,0.5,0.3
2025-03-27T2200,1933A,107.1431,34.3547,宝鸡市,监测站,颗粒物(PM10),138,225,335,84,76,60,,83,75,16,6,7,7,0.5,0.4
2025-03-27T2200,1934A,107.1186,34.3739,宝鸡市,技工学校,颗粒物(PM10),122,194,303,73,90,62,,84,75,16,10,7,4,0.4,0.3
2025-03-27T2200,1935A,107.3906,34.3528,宝鸡市,陈仓区环保局家属楼,颗粒物(PM10),138,225,353,94,85,51,,77,68,21,8,6,6,0.4,0.4
2025-03-27T2200,1936A,107.2058,34.3497,宝鸡市,文理学院,颗粒物(PM10),140,229,330,84,80,59,,85,77,14,5,5,5,0.4,0.3
2025-03-27T2200,1937A,107.2386,34.3622,宝鸡市,三迪小学,颗粒物(PM10),132,213,342,89,97,57,,83,73,19,12,5,5,0.4,0.3
2025-03-27T2200,1051A,115.493,38.8632,保定市,游泳馆,颗粒物(PM10),55,59,119,11,37,78,,86,84,9,16,3,3,0.2,0.2
2025-03-27T2200,1052A,115.5213,38.8959,保定市,华电二区,,50,50,109,28,38,80,,92,88,2,10,3,2,0.1,0.1
2025-03-27T2200,1053A,115.4713,38.9108,保定市,接待中心,颗粒物(PM10),58,66,119,15,39,77,,87,83,6,17,2,2,0.1,0.3
2025-03-27T2200,1054A,115.4612,38.8416,保定市,地表水厂,颗粒物(PM10),57,64,152,16,36,81,,90,87,12,25,3,3,0.3,0.3
2025-03-27T2200,3581A,115.31981,38.95208,保定市,满城区生态环境分局,,48,48,127,19,34,82,,88,86,8,13,3,2,0.2,0.2
2025-03-27T2200,3582A,115.47694,38.76408,保定市,清苑区第二中学,颗粒物(PM10),69,88,167,17,38,80,,90,88,8,18,1,3,0.2,0.3
2025-03-27T2200,3583A,115.62909,39.02311,保定市,徐水物探局,,42,42,125,14,34,81,,96,92,10,9,4,5,0.2,0.2
2025-03-27T2200,4004A,115.4202,38.8656,保定市,双鹰农机,颗粒物(PM10),64,77,135,21,35,82,,91,88,6,16,1,2,0.3,0.3
2025-03-27T2200,4034A,115.5150,38.8590,保定市,植保所站,颗粒物(PM10),58,66,121,35,41,82,,90,88,3,7,1,2,0.3,0.3
2025-03-27T2200,2594A,99.1678,25.1081,保山市,市环境监测站,细颗粒物(PM2.5),55,54,37,39,23,114,,135,134,9,11,6,5,0.4,0.4
2025-03-27T2200,2595A,99.1711,25.1328,保山市,市环保局,细颗粒物(PM2.5),55,53,39,39,21,128,,141,140,5,8,4,4,0.5,0.4
2025-03-27T2200,1866A,109.2262,21.588,北海市,牛尾岭水库,,,31,28,29,17,30,,74,58,,6,5,5,0.5,0.4
2025-03-27T2200,1867A,109.1436,21.4086,北海市,海滩公园,颗粒物(PM10),56,62,39,29,16,57,,93,79,23,14,6,6,0.7,0.6
2025-03-27T2200,1868A,109.0981,21.4661,北海市,新市环保局,,42,40,33,29,15,57,,77,70,26,13,3,3,0.6,0.5
2025-03-27T2200,1869A,109.1778,21.5233,北海市,北海工业园,,50,50,42,17,19,61,,82,76,13,13,7,7,0.5,0.4
2025-03-27T2200,3400A,109.1911,21.4415,北海市,龙潭自来水厂,"颗粒物(PM10),细颗粒物(PM2.5)",59,68,39,42,24,30,,97,80,22,11,6,6,0.6,0.4
2025-03-27T2200,1001A,116.3621,39.8784,北京市,万寿西宫,,28,28,72,9,14,88,,92,91,10,5,3,3,0.2,0.2
2025-03-27T2200,1002A,116.2202,40.2915,北京市,定陵,,,,,,,,,,,,,,,,
2025-03-27T2200,1003A,116.4174,39.9289,北京市,东四,,30,30,71,13,16,88,,87,87,7,6,3,3,0.2,0.2
2025-03-27T2200,1004A,116.4072,39.8863,北京市,天坛,,31,31,72,12,16,87,,86,86,8,6,3,3,0.4,0.4
2025-03-27T2200,1005A,116.462,39.9365,北京市,农展馆,,30,30,62,12,12,87,,86,86,6,3,5,5,0,0.2
2025-03-27T2200,1006A,116.3392,39.9295,北京市,官园,,31,31,75,10,15,73,,80,79,11,5,5,5,0.4,0.4
2025-03-27T2200,1007A,116.2878,39.9611,北京市,海淀万柳,,24,24,64,10,14,73,,74,74,9,7,2,3,0.4,0.4
2025-03-27T2200,1008A,116.6636,40.135,北京市,顺义新城,,36,36,59,14,15,90,,96,96,7,3,5,4,0.1,0.1
2025-03-27T2200,1009A,116.6275,40.3275,北京市,怀柔镇,,32,32,65,13,15,84,,85,85,2,2,3,2,0.2,0.2
2025-03-27T2200,1010A,116.2296,40.217,北京市,昌平镇,,29,29,63,14,15,91,,92,92,1,2,1,1,0.5,0.4
2025-03-27T2200,1011A,116.3966,39.9821,北京市,奥体中心,,27,27,63,11,15,76,,79,78,11,9,3,3,0.4,0.4
2025-03-27T2200,3281A,115.9718,40.4529,北京市,延庆夏都,,29,22,56,11,13,90,,93,93,2,2,5,5,0.4,0.4
2025-03-27T2200,3418A,116.8336,40.4095,北京市,密云新城,,27,26,63,11,14,84,,88,88,1,1,3,3,0.4,0.4
2025-03-27T2200,3671A,116.088,39.9726,北京市,门头沟三家店,,23,23,87,10,19,58,,78,,20,8,4,6,0.3,0.3
2025-03-27T2200,3672A,116.1541,39.8204,北京市,丰台云岗,,29,24,71,7,16,90,,93,93,7,3,4,4,0.4,0.4
2025-03-27T2200,3673A,116.6804,39.9081,北京市,通州东关,,34,34,83,13,17,89,,87,87,7,8,3,3,0.4,0.3
2025-03-27T2200,3674A,115.9577,39.7603,北京市,房山燕山,,26,22,74,8,16,82,,82,82,3,3,3,3,0.2,0.2
2025-03-27T2200,3675A,116.4672,39.7733,北京市,大兴旧宫,,34,34,80,10,19,80,,79,79,7,4,4,4,0.3,0.3
2025-03-27T2200,3694A,115.986,40.4563,北京市,延庆石河营,,29,23,55,11,13,91,,93,93,3,2,4,4,0.3,0.3
2025-03-27T2200,3695A,116.6151,40.3053,北京市,怀柔新城,,27,27,61,11,16,85,,87,87,1,2,4,4,0.4,0.3
2025-03-27T2200,3696A,116.2545,39.8768,北京市,丰台小屯,,32,32,88,12,19,71,,78,76,17,8,1,1,0.2,0.2
2025-03-27T2200,3697A,116.84,40.3844,北京市,密云镇,,29,27,68,10,14,91,,93,93,2,3,6,5,0.3,0.3
2025-03-27T2200,4182A,116.1942,39.9158,北京市,八角北路9号,,28,26,76,10,16,89,,85,83,2,2,2,3,0.1,0.1
2025-03-27T2200,4194A,117.0790,40.1518,北京市,洳河巡河路,,28,27,58,11,15,89,,92,92,1,2,1,1,0.3,0.3
2025-03-27T2200,1761A,123.8275,41.3064,本溪市,大峪,,48,48,57,17,26,75,,83,82,6,12,8,9,0.5,0.6
2025-03-27T2200,1762A,123.7567,41.3325,本溪市,溪湖,颗粒物(PM10),53,55,68,15,23,76,,88,86,17,24,9,11,0.6,0.7
2025-03-27T2200,1763A,123.7169,41.3094,本溪市,彩屯,颗粒物(PM10),63,76,63,23,26,59,,79,75,32,20,8,9,0.8,0.6
2025-03-27T2200,1764A,123.7669,41.2864,本溪市,东明,颗粒物(PM10),64,78,69,24,29,55,,78,75,33,18,9,9,0.7,0.6
2025-03-27T2200,1765A,123.7992,41.2664,本溪市,新立屯,颗粒物(PM10),54,57,64,24,23,22,,82,71,64,25,6,7,0.4,0.5
2025-03-27T2200,1766A,123.8142,41.3472,本溪市,威宁,颗粒物(PM10),76,102,81,37,24,7,,80,67,69,21,4,5,0.6,0.6
2025-03-27T2200,2587A,105.2864,27.3125,毕节市,八中,细颗粒物(PM2.5),60,62,50,43,30,158,,165,158,11,14,11,12,0.7,0.6
2025-03-27T2200,2588A,105.31,27.2944,毕节市,师专,臭氧1小时,62,70,73,41,43,169,,178,176,11,26,9,10,0.7,0.8
2025-03-27T2200,4263A,105.3688,27.3598,毕节市,工业大道,臭氧1小时,84,71,80,42,39,187,,180,180,10,25,11,12,0.8,0.7
2025-03-27T2200,1629A,118.0018,37.3617,滨州市,第二水厂,,46,46,148,22,28,71,,70,68,17,18,7,9,0.4,0.4
2025-03-27T2200,1630A,117.9776,37.393,滨州市,北中新校,,48,48,135,27,35,83,,76,76,14,19,9,11,0.3,0.4
2025-03-27T2200,3514A,117.9378,37.3956,滨州市,中海酒店,,49,41,119,34,36,89,,79,79,11,19,6,9,0.4,0.4
2025-03-27T2200,3515A,117.9378,37.3553,滨州市,开发区一中,颗粒物(PM10),51,51,148,22,30,80,,74,74,17,22,9,12,0.3,0.3
2025-03-27T2200,3516A,118.0917,37.694,滨州市,金海六路,颗粒物(PM10),52,54,133,29,24,79,,79,79,17,26,7,8,0.7,0.7
2025-03-27T2200,4028A,117.9956,37.3753,滨州市,滨州市西街道办事处,,46,46,144,29,40,83,,78,78,14,18,6,7,0.4,0.4
2025-03-27T2200,2311A,115.8072,33.8399,亳州市,污水处理厂,颗粒物(PM10),61,71,207,31,46,57,,77,69,10,15,2,4,0.2,0.3
2025-03-27T2200,2312A,115.7789,33.8518,亳州市,三国揽胜宫,颗粒物(PM10),70,90,197,32,45,56,,72,64,9,14,2,5,0.2,0.3
2025-03-27T2200,3332A,115.7633,33.8034,亳州市,亳州学院,颗粒物(PM10),63,75,198,27,46,50,,75,66,13,12,3,5,0.3,0.4
2025-03-27T2200,2693A,82.0485,44.8556,博尔塔拉蒙古自治州,市党校,颗粒物(PM10),67,84,46,24,15,92,,94,94,22,15,3,2,0.5,0.5
2025-03-27T2200,2694A,82.0806,44.8969,博尔塔拉蒙古自治州,市环保局,颗粒物(PM10),80,110,70,9,15,73,,75,70,16,16,4,4,0.5,0.5
2025-03-27T2200,1071A,116.8842,38.2991,沧州市,沧县城建局,,49,49,120,27,35,38,,80,69,38,19,3,4,0.2,0.2
2025-03-27T2200,1072A,116.8584,38.3254,沧州市,电视转播站,,47,47,107,19,27,51,,88,80,34,21,3,5,0.3,0.3
2025-03-27T2200,1073A,116.8709,38.3228,沧州市,市环保局,"颗粒物(PM10),细颗粒物(PM2.5)",53,55,104,37,36,42,,83,74,35,20,8,7,0.3,0.3
2025-03-27T2200,3324A,116.8136,38.3004,沧州市,河北水利电力学院,,36,36,136,20,31,58,,80,75,24,21,3,4,0.2,0.2
2025-03-27T2200,2622A,97.1806,31.1273,昌都市,昌都监测站,,32,31,19,22,9,56,,109,101,36,9,8,7,0.6,0.3
2025-03-27T2200,3719A,97.1714,31.1406,昌都市,昌都会议中心,,32,32,20,13,8,88,,112,108,8,6,3,2,0.3,0.3
2025-03-27T2200,2690A,88.1236,43.8886,昌吉回族自治州,天山天池,,24,14,10,11,7,76,,93,86,6,4,5,3,0.4,0.5
2025-03-27T2200,2692A,87.2717,44.0297,昌吉回族自治州,新区政务中心,,26,26,21,3,3,72,,86,86,9,7,8,9,0.5,0.6
2025-03-27T2200,3613A,87.3095,44.0142,昌吉回族自治州,亚心广场,,44,44,26,9,5,72,,87,86,4,6,6,7,0.3,0.3
2025-03-27T2200,1119A,125.3325,43.9166,长春市,食品厂,,41,41,56,17,28,67,,76,70,16,18,6,7,0.3,0.4
2025-03-27T2200,1120A,125.2863,43.9027,长春市,客车厂,,32,32,50,22,30,67,,70,65,15,20,4,5,0.3,0.5
2025-03-27T2200,1121A,125.2841,43.8463,长春市,邮电学院,,37,37,51,16,27,71,,79,77,9,12,6,7,0.3,0.4
2025-03-27T2200,1122A,125.3716,43.8772,长春市,劳动公园,,45,45,46,13,22,68,,78,74,12,10,6,6,0.1,0.6
2025-03-27T2200,1123A,125.3297,43.8805,长春市,园林处,,31,31,47,9,21,72,,79,75,10,12,6,7,0.2,0.3
2025-03-27T2200,1124A,125.4605,43.79,长春市,净月潭,,30,30,50,12,23,68,,78,74,13,12,7,6,0.4,0.4
2025-03-27T2200,1125A,125.7194,43.515,长春市,甩湾子,,50,49,46,35,29,38,,80,71,22,11,2,2,0.7,0.5
2025-03-27T2200,1126A,125.3863,43.8447,长春市,经开区环卫处,,36,36,50,13,22,63,,75,68,17,16,8,7,0.2,0.3
2025-03-27T2200,1127A,125.245,43.7783,长春市,高新区管委会,,30,30,44,12,22,66,,78,69,15,15,7,7,0.3,0.4
2025-03-27T2200,1128A,125.1761,43.8325,长春市,岱山公园,,24,22,42,11,23,74,,86,78,12,14,3,3,0.4,0.6
2025-03-27T2200,1335A,113.0833,28.2325,长沙市,经开区环保局,颗粒物(PM10),87,123,114,22,53,92,,119,107,12,19,4,7,0.4,0.6
2025-03-27T2200,1336A,112.8872,28.2189,长沙市,高开区环保局,颗粒物(PM10),91,131,112,23,51,90,,126,109,10,9,5,7,0.5,0.7
2025-03-27T2200,1337A,113.0792,28.2053,长沙市,马坡岭,颗粒物(PM10),90,130,120,30,56,85,,113,100,9,14,4,7,0.4,0.6
2025-03-27T2200,1338A,112.9394,28.19,长沙市,湖南师范大学,颗粒物(PM10),90,129,115,30,54,87,,121,105,11,11,5,7,0.6,0.8
2025-03-27T2200,1339A,113.0178,28.1322,长沙市,雨花区环保局,颗粒物(PM10),89,128,116,32,53,85,,122,105,14,15,6,9,0.6,0.7
2025-03-27T2200,1340A,112.9792,28.2597,长沙市,伍家岭,,,,117,,55,82,,114,100,,23,4,4,,0.7
2025-03-27T2200,1341A,113.0014,28.1944,长沙市,火车新站,颗粒物(PM10),90,130,120,41,56,86,,121,106,15,19,7,8,0.6,0.8
2025-03-27T2200,1342A,112.9844,28.1178,长沙市,天心区环保局,颗粒物(PM10),89,128,119,40,59,90,,128,111,15,17,2,5,0.1,0.4
2025-03-27T2200,1343A,112.8908,28.1308,长沙市,湖南中医药大学,颗粒物(PM10),93,136,118,48,61,87,,122,106,9,13,4,5,0.8,1
2025-03-27T2200,1344A,112.9581,28.3611,长沙市,沙坪,颗粒物(PM10),70,90,90,39,50,86,,110,99,8,11,6,7,0.6,0.7
2025-03-27T2200,1727A,113.1147,36.1547,长治市,清华站,颗粒物(PM10),112,174,178,19,31,82,,86,83,8,11,4,6,0.3,0.4
2025-03-27T2200,1730A,113.0886,36.2125,长治市,审计局,颗粒物(PM10),117,183,155,22,34,81,,85,83,12,14,6,8,0.2,0.3
2025-03-27T2200,1731A,113.0844,36.1856,长治市,长治八中,颗粒物(PM10),138,226,189,35,47,84,,88,85,12,13,8,9,0.3,0.4
2025-03-27T2200,2845A,113.1569,36.1911,长治市,德盛苑,颗粒物(PM10),130,209,169,29,40,82,,86,85,8,11,3,7,0.4,0.5
2025-03-27T2200,3568A,113.06,36.0464,长治市,向阳小学,颗粒物(PM10),126,201,186,39,51,80,,82,79,9,13,6,9,0.2,0.3
2025-03-27T2200,3569A,112.8792,36.3144,长治市,屯留一中,颗粒物(PM10),129,207,156,37,38,84,,86,85,13,16,6,11,0.2,0.1
2025-03-27T2200,4189A,113.1131,36.19948,长治市,英华南巷50号,颗粒物(PM10),129,207,181,29,38,83,,88,86,12,15,10,12,0.6,0.8
2025-03-27T2200,4190A,113.2367,36.3344,长治市,学府街1号,颗粒物(PM10),132,214,174,30,37,84,,95,86,5,10,3,5,0.4,0.6
2025-03-27T2200,1854A,111.6975,28.9703,常德市,市二中,颗粒物(PM10),152,254,154,46,55,73,,109,92,8,12,5,7,0.3,0.5
2025-03-27T2200,1857A,111.7158,29.1456,常德市,白鹤山,,,,,,,,,,,,,,,,
2025-03-27T2200,3138A,111.7153,29.0289,常德市,武陵区永安,颗粒物(PM10),145,239,159,38,47,75,,112,95,11,15,5,6,0.5,0.7
2025-03-27T2200,3139A,111.6892,28.9881,常德市,鼎城区玉霞,颗粒物(PM10),149,248,160,36,48,85,,125,107,11,15,5,7,0.3,0.6
2025-03-27T2200,3140A,111.6625,29.0531,常德市,武陵区长庚,颗粒物(PM10),150,250,164,38,51,82,,122,104,9,13,5,8,0.4,0.6
2025-03-27T2200,1196A,119.9633,31.762,常州市,市监测站,颗粒物(PM10),124,198,120,48,49,86,,122,98,14,16,3,3,0.5,0.8
2025-03-27T2200,1200A,119.9468,31.7069,常州市,武进监测站,颗粒物(PM10),116,181,108,52,44,85,,121,97,20,24,11,14,0.3,0.5
2025-03-27T2200,1201A,119.9255,31.9087,常州市,安家,颗粒物(PM10),129,208,121,49,44,81,,111,87,20,28,8,12,0.8,0.7
2025-03-27T2200,3002A,119.9805,31.8174,常州市,行政中心,,,,96,,43,77,,112,,,20,,17,0.4,0.6
2025-03-27T2200,3003A,120.0522,31.7748,常州市,经开区,颗粒物(PM10),117,184,114,42,45,85,,118,96,20,27,8,13,0.5,0.8
2025-03-27T2200,3010A,119.9025,31.7964,常州市,钟楼,颗粒物(PM10),125,199,114,48,46,80,,112,89,15,21,8,9,0.7,0.9
2025-03-27T2200,3429A,119.8598,31.7066,常州市,武进经发区,颗粒物(PM10),171,292,128,50,46,82,,112,92,22,26,8,11,0.5,0.8
2025-03-27T2200,3430A,119.5826,31.7245,常州市,金坛城区,颗粒物(PM10),165,280,124,47,41,85,,128,96,15,19,7,9,0.6,0.8
2025-03-27T2200,2220A,120.4318,41.5881,朝阳市,西梁,,43,32,91,30,28,88,,91,90,6,6,18,10,0.4,0.5
2025-03-27T2200,2221A,120.4521,41.5646,朝阳市,河畔小区,,28,27,91,12,17,88,,92,91,6,6,6,6,0.5,0.5
2025-03-27T2200,2222A,120.4176,41.5648,朝阳市,八里堡,细颗粒物(PM2.5),78,,104,57,21,79,,87,85,7,4,9,7,0.4,0.4
2025-03-27T2200,2223A,120.3806,41.5969,朝阳市,农业园区,,50,50,93,14,19,82,,93,90,9,5,9,8,0.3,0.3
2025-03-27T2200,1705A,116.6367,23.6719,潮州市,西园路,,,,,,,,,,,,,,,,
2025-03-27T2200,3026A,116.6183,23.6608,潮州市,市政府,,43,43,43,22,25,32,,93,65,25,23,7,6,0.6,0.6
2025-03-27T2200,4036A,116.6461,23.6761,潮州市,金山,,30,28,42,21,26,40,,106,80,17,19,7,8,0.6,0.5
2025-03-27T2200,2472A,113.0073,25.9061,郴州市,马头岭,颗粒物(PM10),102,154,66,30,27,103,,105,95,16,13,11,9,0.7,0.6
2025-03-27T2200,2473A,113.0116,25.8226,郴州市,市职中,细颗粒物(PM2.5),78,98,53,57,38,120,,130,110,13,10,12,9,0.7,0.6
2025-03-27T2200,2475A,113.0383,25.8071,郴州市,市审计局,颗粒物(PM10),82,113,50,52,35,118,,129,109,15,11,6,3,0.4,0.3
2025-03-27T2200,2476A,113.0348,25.7759,郴州市,市环保局,细颗粒物(PM2.5),65,72,57,47,36,107,,129,106,13,10,12,11,0.5,0.5
2025-03-27T2200,4252A,113.0138,25.8011,郴州市,好美居路49号,细颗粒物(PM2.5),62,71,53,44,37,118,,132,109,13,10,10,8,0.7,0.6
2025-03-27T2200,1431A,103.9728,30.7236,成都市,金泉两河,颗粒物(PM10),192,334,228,83,75,83,,104,97,11,27,2,3,0.5,0.8
2025-03-27T2200,1432A,104.176,30.6872,成都市,十里店,颗粒物(PM10),156,261,220,85,77,88,,111,104,14,27,3,5,0.5,0.7
2025-03-27T2200,1433A,104.079,30.5706,成都市,三瓦窑,颗粒物(PM10),258,390,255,88,83,87,,110,104,14,48,2,5,0.5,0.8
2025-03-27T2200,1434A,104.1114,30.63,成都市,沙河铺,颗粒物(PM10),157,263,221,82,84,84,,105,99,,40,,6,,0.7
2025-03-27T2200,1437A,104.0786,30.6531,成都市,君平街,颗粒物(PM10),162,274,221,85,86,87,,111,104,18,42,6,7,0.6,0.9
2025-03-27T2200,1438A,103.613,31.0283,成都市,灵岩寺,,,,,,,,,,,,,,,,
2025-03-27T2200,2880A,104.0239,30.65639,成都市,大石西路,颗粒物(PM10),168,285,231,90,87,84,,103,98,14,40,4,5,0.5,0.8
2025-03-27T2200,3136A,104.2725,30.5589,成都市,龙泉驿区区政府,颗粒物(PM10),169,288,223,68,68,88,,110,103,13,20,5,6,0.6,0.7
2025-03-27T2200,3357A,104.0106,30.6931,成都市,金博路,颗粒物(PM10),162,274,215,74,66,79,,94,92,15,43,6,7,0.4,0.7
2025-03-27T2200,3359A,104.0578,30.5225,成都市,华阳,颗粒物(PM10),159,268,230,75,85,80,,108,100,21,47,5,6,0.8,1
2025-03-27T2200,3488A,104.3853,30.7453,成都市,青白江技师分院,颗粒物(PM10),153,256,242,86,92,91,,112,105,10,33,5,8,0.5,0.7
2025-03-27T2200,3489A,104.0789,30.4072,成都市,科学城,颗粒物(PM10),180,309,187,79,68,88,,114,107,11,34,5,5,0.4,0.7
2025-03-27T2200,4011A,103.8506,30.6947,成都市,光华大道三段,颗粒物(PM10),161,272,206,82,73,88,,115,107,19,30,4,6,0.5,0.7
2025-03-27T2200,4224A,104.2433,30.5353,成都市,鲸龙路1057号,颗粒物(PM10),182,314,217,76,72,87,,112,103,18,44,4,5,0.6,0.8
2025-03-27T2200,1062A,117.9531,40.9081,承德市,铁路,,27,25,72,11,15,84,,89,88,5,5,5,6,0.2,0.2
2025-03-27T2200,1063A,117.9392,40.9763,承德市,中国银行,,27,20,65,13,17,86,,90,88,3,3,4,3,0.2,0.2
2025-03-27T2200,1064A,117.9503,40.928,承德市,开发区,,32,32,73,15,21,82,,91,90,10,5,4,5,0.2,0.2
2025-03-27T2200,1065A,117.8051,40.9655,承德市,文化中心,,38,38,78,15,15,82,,90,88,7,6,3,3,0.2,0.2
2025-03-27T2200,1066A,117.9268,41.0026,承德市,离宫,,22,21,58,15,21,62,,71,70,3,2,17,19,0.2,0.2
2025-03-27T2200,2314A,117.47,30.6618,池州市,池州学院,颗粒物(PM10),135,220,86,57,41,74,,115,91,21,15,6,6,0.5,0.7
2025-03-27T2200,3237A,117.4918,30.6617,池州市,展览馆,颗粒物(PM10),134,217,84,49,38,74,,115,92,18,13,6,6,0.7,0.7
2025-03-27T2200,3333A,117.5627,30.695,池州市,第八中学,颗粒物(PM10),135,219,86,53,37,69,,119,88,14,12,6,6,0.7,0.6
2025-03-27T2200,3334A,117.5038,30.6243,池州市,第十二中学,颗粒物(PM10),137,223,81,39,35,72,,118,93,17,11,7,6,0.7,0.8
2025-03-27T2200,1744A,118.9233,42.2816,赤峰市,松山一中,,25,25,38,11,7,70,,82,77,14,10,8,8,0.4,0.4
2025-03-27T2200,1745A,118.9576,42.2728,赤峰市,哈达街,,26,26,61,15,14,72,,67,66,9,14,5,6,0.4,0.4
2025-03-27T2200,1746A,118.8788,42.2554,赤峰市,天义路,,28,24,28,19,14,70,,78,75,12,11,7,7,0.4,0.3
2025-03-27T2200,3058A,119.2658,42.0353,赤峰市,银河街,,26,23,64,18,17,61,,77,74,16,13,18,13,0.2,0.2
2025-03-27T2200,3286A,118.9359,42.3147,赤峰市,桥北物流园区,细颗粒物(PM2.5),58,,30,41,34,71,,81,77,20,9,7,7,0.6,0.7
2025-03-27T2200,2521A,107.3476,22.4136,崇左市,市环保局江州分局,细颗粒物(PM2.5),90,82,78,67,54,99,,132,128,10,11,5,8,0.8,0.7
2025-03-27T2200,4256A,107.3750,22.3736,崇左市,石景林东路7号,细颗粒物(PM2.5),95,76,70,71,56,106,,140,136,14,14,5,7,0.8,0.7
2025-03-27T2200,2298A,118.3093,32.3153,滁州市,老年大学,颗粒物(PM10),179,308,169,52,50,82,,123,90,17,17,5,8,0.5,0.6
2025-03-27T2200,2299A,118.3244,32.2786,滁州市,人大宾馆,颗粒物(PM10),173,295,165,51,50,78,,119,87,14,21,7,10,0.5,0.6
2025-03-27T2200,3207A,118.3118,32.3038,滁州市,市政府原办公楼,颗粒物(PM10),166,281,153,59,52,83,,128,90,16,14,4,7,0.3,0.4
2025-03-27T2200,3331A,118.3267,32.2634,滁州市,图书馆,颗粒物(PM10),162,273,155,64,55,77,,117,88,20,18,7,10,0.4,0.6
2025-03-27T2200,2605A,101.5482,25.0441,楚雄彝族自治州,州环境监测站,,49,47,27,34,22,150,,142,142,10,14,8,9,0.6,0.5
2025-03-27T2200,2606A,101.538,25.0492,楚雄彝族自治州,市经济开发区,"颗粒物(PM10),细颗粒物(PM2.5)",54,58,29,38,22,150,,138,138,10,14,6,7,0.6,0.5
2025-03-27T2200,2548A,107.5277,31.2827,达州市,达州职业技术学院,颗粒物(PM10),187,323,221,56,56,79,,96,85,6,23,5,9,0.2,0.1
2025-03-27T2200,2549A,107.5086,31.2186,达州市,市环境监测站,颗粒物(PM10),163,276,201,63,58,77,,97,85,13,29,5,11,0.4,0.6
2025-03-27T2200,2550A,107.4988,31.2132,达州市,凤凰小区,颗粒物(PM10),192,334,173,51,53,83,,106,91,11,28,6,12,0.2,0.4
2025-03-27T2200,2551A,107.5082,31.1986,达州市,达县机关宾馆,颗粒物(PM10),179,307,217,62,58,78,,97,84,10,43,5,10,0.5,0.8
2025-03-27T2200,2552A,107.4644,31.2124,达州市,市政中心,颗粒物(PM10),161,271,193,58,58,78,,98,85,11,32,2,7,0.2,0.5
2025-03-27T2200,2614A,100.1542,25.7054,大理白族自治州,大理市环境监测站,细颗粒物(PM2.5),65,56,29,47,24,144,,132,132,7,7,8,7,0.7,0.5
2025-03-27T2200,2615A,100.2171,25.5811,大理白族自治州,大理古城,细颗粒物(PM2.5),54,51,24,38,16,137,,124,124,7,7,8,7,0.5,0.4
2025-03-27T2200,1109A,121.612,38.9741,大连市,甘井子,颗粒物(PM10),59,68,111,14,33,84,,94,92,20,22,6,6,0.4,0.5
2025-03-27T2200,1110A,121.565,38.9511,大连市,周水子,,50,50,98,15,40,72,,83,82,25,25,6,7,0.3,0.4
2025-03-27T2200,1111A,121.5637,38.8845,大连市,星海三站,,46,46,92,16,35,81,,88,88,9,12,7,8,0.5,0.7
2025-03-27T2200,1112A,121.6302,38.9117,大连市,青泥洼桥,,38,38,90,13,33,82,,91,90,9,12,9,9,0.4,0.6
2025-03-27T2200,1113A,121.6251,38.8638,大连市,傅家庄,,44,44,87,14,49,76,,86,85,19,18,9,9,0.4,0.4
2025-03-27T2200,1114A,121.5213,38.8661,大连市,七贤岭,,47,47,100,15,33,80,,86,86,13,15,6,6,0.4,0.4
2025-03-27T2200,1115A,121.2529,38.8061,大连市,旅顺,,41,41,83,24,40,82,,91,90,10,11,8,8,0.6,0.6
2025-03-27T2200,1116A,121.7485,39.1311,大连市,金州,,42,42,87,15,30,78,,89,87,17,18,8,8,0.9,0.9
2025-03-27T2200,1117A,121.7811,39.0496,大连市,开发区,,48,48,84,12,26,75,,83,82,16,17,8,7,0.9,0.9
2025-03-27T2200,1118A,121.9762,39.0631,大连市,双D港,颗粒物(PM10),52,53,98,14,28,86,,97,94,14,16,7,7,0.5,0.7
2025-03-27T2200,1789A,124.81117,46.03138,大庆市,大同区,,20,14,20,14,17,61,,84,76,6,6,3,4,0.3,0.3
2025-03-27T2200,1790A,125.129,46.533,大庆市,龙凤区,,27,27,26,17,14,54,,80,70,22,9,6,6,0.4,0.3
2025-03-27T2200,1791A,124.902,46.408,大庆市,红岗区,,20,19,21,14,19,59,,88,78,7,6,4,5,0.4,0.4
2025-03-27T2200,1792A,125.153,46.586,大庆市,萨尔图区,,30,30,21,8,10,52,,78,70,22,8,6,6,0.4,0.3
2025-03-27T2200,1793A,124.9042,46.6215,大庆市,让胡路区,,23,20,20,16,17,60,,77,71,11,7,7,7,0.2,0.2
2025-03-27T2200,3481A,125.141,46.634,大庆市,萨区政府监测点,,18,18,21,3,2,54,,84,76,16,4,4,4,0.4,0.3
2025-03-27T2200,1721A,113.3819,40.1097,大同市,果树场,,28,27,105,19,25,71,,84,80,8,6,17,8,0.5,0.6
2025-03-27T2200,1723A,113.2994,40.0758,大同市,云冈宾馆,,35,35,118,15,21,77,,90,86,11,6,10,7,0.6,0.5
2025-03-27T2200,1724A,113.3444,40.0917,大同市,大同大学,,32,32,118,17,29,66,,87,79,11,4,14,13,0.6,0.3
2025-03-27T2200,1725A,113.2661,40.1269,大同市,安家小村,,46,46,154,11,28,77,,86,80,5,3,10,8,0.2,0.2
2025-03-27T2200,1726A,113.2711,40.0844,大同市,教育学院,,31,31,127,12,31,74,,88,83,12,7,8,6,0.4,0.3
2025-03-27T2200,3282A,113.3397,40.0597,大同市,大同市卫生学校,,25,21,116,17,28,71,,85,80,14,7,8,6,0.5,0.3
2025-03-27T2200,3565A,113.1367,40.1122,大同市,云冈站,,40,40,126,11,29,62,,84,78,14,7,11,8,0.3,0.3
2025-03-27T2200,3566A,113.1186,40.2556,大同市,图书馆,,35,35,120,12,28,66,,81,75,5,4,8,7,0.9,0.8
2025-03-27T2200,3567A,113.5931,40.0461,大同市,区一中,,28,28,143,18,21,56,,86,80,25,6,8,12,0.4,0.2
2025-03-27T2200,4199A,113.2798,40.0997,大同市,魏都大道141号,,26,26,130,8,26,74,,90,85,14,7,13,10,0.4,0.4
2025-03-27T2200,2269A,124.1069,50.4097,大兴安岭地区,科技局,,24,20,20,15,14,74,,77,76,3,4,6,6,0.3,0.3
2025-03-27T2200,3663A,124.1164,50.4278,大兴安岭地区,红旗社区,,25,6,3,3,3,78,,80,79,1,2,4,4,0.3,0.3
2025-03-27T2200,1600A,124.3303,40.0625,丹东市,江湾东路,,50,50,81,10,28,91,,87,87,7,16,7,8,0.4,0.6
2025-03-27T2200,1601A,124.4256,40.1503,丹东市,临江后街,,30,30,72,10,26,86,,83,83,6,14,6,8,0.5,0.7
2025-03-27T2200,1602A,124.3933,40.1461,丹东市,元宝山,,32,32,70,13,28,82,,80,80,7,15,5,7,0.3,0.4
2025-03-27T2200,1603A,124.3633,40.1092,丹东市,民主桥,,50,50,84,6,24,86,,82,82,8,15,7,8,0.6,0.7
2025-03-27T2200,3541A,109.5726,19.5167,儋州市,第一中学子站,颗粒物(PM10),56,61,51,35,32,59,,100,92,10,10,6,5,0.8,0.8
2025-03-27T2200,3542A,109.5567,19.5187,儋州市,东坡学校子站,颗粒物(PM10),54,58,53,30,33,69,,112,105,8,11,8,6,0.7,0.8
2025-03-27T2200,2616A,98.5842,24.428,德宏傣族景颇族自治州,德宏州监测站,细颗粒物(PM2.5),134,139,75,102,58,51,,158,142,61,32,9,10,1.7,0.8
2025-03-27T2200,3677A,98.5881,24.4368,德宏傣族景颇族自治州,芒市人民政府综合楼,细颗粒物(PM2.5),124,159,94,94,57,108,,165,154,24,20,10,10,0.9,0.6
2025-03-27T2200,1901A,104.4239,31.1208,德阳市,东山公园,颗粒物(PM10),255,388,313,76,83,92,,105,100,8,14,3,5,0.2,0.4
2025-03-27T2200,1902A,104.3826,31.1317,德阳市,西小区,颗粒物(PM10),188,325,283,75,87,87,,100,96,10,22,4,10,0.3,0.5
2025-03-27T2200,1904A,104.3553,31.1091,德阳市,耐火材料厂,颗粒物(PM10),175,300,290,76,89,85,,98,95,13,32,5,10,0.2,0.4
2025-03-27T2200,3639A,104.4019,31.1244,德阳市,市教育局,颗粒物(PM10),164,278,247,75,88,86,,101,96,11,24,4,8,0.3,0.5
2025-03-27T2200,1622A,116.3032,37.4674,德州市,儿童乐园,颗粒物(PM10),100,149,176,34,38,15,,84,73,84,34,6,6,0.8,0.7
2025-03-27T2200,1624A,116.2991,37.4451,德州市,监理站,颗粒物(PM10),73,95,182,22,36,66,,86,83,24,20,8,11,0.3,0.3
2025-03-27T2200,3066A,116.2721,37.4379,德州市,九衢泉纯净水厂,颗粒物(PM10),74,97,166,22,36,37,,85,80,56,25,7,10,0.3,0.4
2025-03-27T2200,3371A,116.3728,37.4403,德州市,开发区人民医院,颗粒物(PM10),67,83,173,19,35,37,,86,76,55,27,5,6,0.4,0.4
2025-03-27T2200,3372A,116.3572,37.4094,德州市,太阳城中学,颗粒物(PM10),68,85,186,24,37,52,,93,76,35,26,4,6,0.4,0.5
2025-03-27T2200,3511A,116.5652,37.3319,德州市,陵城艺术中心,颗粒物(PM10),75,100,183,24,34,70,,84,79,18,22,7,8,0.6,0.5
2025-03-27T2200,2621A,99.7056,27.8317,迪庆藏族自治州,迪庆州站,,38,38,29,22,14,93,,93,93,10,11,8,8,0.5,0.5
2025-03-27T2200,3180A,99.7136,27.8094,迪庆藏族自治州,质量技术监督局,,33,30,30,23,13,97,,97,96,8,12,10,9,0.5,0.5
2025-03-27T2200,4257A,104.6092,35.5962,定西市,将台街,颗粒物(PM10),60,69,145,30,37,77,,91,85,10,6,4,5,0.4,0.5
2025-03-27T2200,4309A,104.6159,35.5701,定西市,正龙路62号,颗粒物(PM10),60,69,151,27,43,81,,95,87,7,4,7,8,0.8,0.4
2025-03-27T2200,1389A,113.7547,23.0494,东莞市,莞城梨川,,39,39,33,20,18,33,,81,58,14,10,5,4,0.4,0.3
2025-03-27T2200,1390A,113.7944,23.0128,东莞市,东城石井,,37,37,30,17,15,33,,84,59,17,13,5,5,0.6,0.5
2025-03-27T2200,1391A,113.7383,22.9658,东莞市,南城西平,,30,30,28,15,14,43,,83,61,10,9,5,5,0.6,0.6
2025-03-27T2200,3319A,113.7338,23.0381,东莞市,万江金泰,,38,38,30,20,15,40,,90,65,9,6,2,15,0.7,0.7
2025-03-27T2200,3626A,113.7533,23.0202,东莞市,南城元岭,,28,28,30,18,16,27,,76,52,12,8,4,5,0.7,0.6
2025-03-27T2200,3627A,113.7875,23.0457,东莞市,东城主山,,40,40,36,18,14,32,,80,56,17,14,7,7,0.5,0.5
2025-03-27T2200,1666A,118.6614,37.4309,东营市,市环保局,,,44,121,19,25,81,,90,90,16,19,3,4,,0.5
2025-03-27T2200,3036A,118.6904,37.4338,东营市,开发区管委会,颗粒物(PM10),53,55,139,29,31,90,,91,91,18,20,2,4,0.5,0.6
2025-03-27T2200,3365A,118.5719,37.565,东营市,垦利区民丰路,,48,48,116,27,27,85,,85,85,16,13,9,5,0.7,0.9
2025-03-27T2200,3498A,118.5055,37.8612,东营市,河口城区,颗粒物(PM10),52,53,125,29,23,80,,87,87,18,17,4,4,0.7,0.7
2025-03-27T2200,3646A,118.4978,37.4623,东营市,胜利站,颗粒物(PM10),51,51,128,24,27,92,,89,89,17,18,7,8,0.8,0.9
2025-03-27T2200,3734A,118.35,37.26,东营市,理想之城,,41,41,130,27,31,88,,88,88,16,18,3,5,0.4,0.4
2025-03-27T2200,1591A,110.0023,39.8129,鄂尔多斯市,综合楼,颗粒物(PM10),108,166,365,19,52,76,,84,81,8,8,6,5,0.4,0.4
2025-03-27T2200,1592A,109.9486,39.8261,鄂尔多斯市,巴音孟克林场办事处,颗粒物(PM10),90,129,333,22,58,80,,88,85,6,5,5,5,0.4,0.3
2025-03-27T2200,1593A,109.7736,39.5986,鄂尔多斯市,康泽苑,颗粒物(PM10),172,293,502,68,85,77,,84,83,5,4,2,2,0.3,0.2
2025-03-27T2200,1594A,109.8119,39.5989,鄂尔多斯市,华泰汽车城,颗粒物(PM10),165,280,490,70,89,77,,85,83,6,5,3,3,0.4,0.4
2025-03-27T2200,1595A,109.9734,39.7884,鄂尔多斯市,奥林花园,颗粒物(PM10),98,146,401,19,54,80,,84,78,7,10,4,5,0.4,0.4
2025-03-27T2200,2436A,114.8938,30.3994,鄂州市,市政府,颗粒物(PM10),97,143,102,36,55,62,,97,84,6,16,4,7,0.8,1.1
2025-03-27T2200,2437A,114.8989,30.3714,鄂州市,赵家坝,颗粒物(PM10),87,124,109,38,50,48,,77,60,16,18,3,5,0.4,0.9
2025-03-27T2200,3654A,114.8094,30.4089,鄂州市,精准医疗中心,颗粒物(PM10),103,156,110,36,54,73,,109,91,11,19,4,7,0.2,0.8
2025-03-27T2200,2454A,109.4978,30.2981,恩施土家族苗族自治州,湖北民院,颗粒物(PM10),115,180,102,50,61,119,,110,110,2,29,3,2,0.2,0.5
2025-03-27T2200,2455A,109.4707,30.2798,恩施土家族苗族自治州,州电力总公司,颗粒物(PM10),116,181,116,51,60,107,,94,94,7,35,7,5,0.2,0.4
2025-03-27T2200,3549A,109.5061,30.3772,恩施土家族苗族自治州,龙凤新区,细颗粒物(PM2.5),119,181,105,90,54,103,,112,112,10,16,7,6,0.3,0.6
2025-03-27T2200,2499A,108.3411,21.6158,防城港市,沙万,,48,48,44,32,22,46,,70,62,21,16,8,9,0.4,0.3
2025-03-27T2200,2500A,108.3514,21.7731,防城港市,防城档案局,,,32,39,32,26,59,,86,80,10,8,2,3,,0.2
2025-03-27T2200,2501A,108.3506,21.6414,防城港市,大海花园,,45,45,38,31,19,55,,85,77,14,6,5,6,0.8,0.7
2025-03-27T2200,1371A,113.1294,23.0067,佛山市,湾梁,,31,31,33,14,16,30,,87,61,22,20,8,7,0.6,0.5
2025-03-27T2200,1372A,113.1083,23.0478,佛山市,华材职中,,31,31,32,18,18,32,,90,64,20,17,6,6,0.4,0.4
2025-03-27T2200,1373A,113.144,23.0453,佛山市,南海气象局,,47,47,35,20,19,21,,75,51,24,20,6,6,0.6,0.5
2025-03-27T2200,1374A,113.2881,22.8094,佛山市,顺德苏岗,,34,34,36,12,11,24,,66,44,13,14,6,6,0.6,0.6
2025-03-27T2200,1376A,112.8383,22.8678,佛山市,高明孔堂,,,38,27,19,18,,,74,64,6,5,4,5,0.4,0.3
2025-03-27T2200,1377A,112.8836,23.1588,佛山市,三水监测站,,35,,32,24,24,18,,73,47,27,31,2,2,0.4,0.5
2025-03-27T2200,1378A,112.867,23.185,佛山市,三水云东海,,31,31,36,20,20,22,,85,57,27,25,1,2,0.5,0.4
2025-03-27T2200,3625A,113.2544,22.7642,佛山市,容桂街道办,,29,29,25,19,15,21,,65,42,22,18,7,6,0.7,0.6
2025-03-27T2200,1280A,119.3903,26.0543,福州市,鼓山,,,,42,,23,,,99,,,9,,1,,0.4
2025-03-27T2200,1282A,119.2681,26.0504,福州市,师大,颗粒物(PM10),55,60,57,38,31,48,,117,93,28,22,4,4,0.3,0.3
2025-03-27T2200,1283A,119.2984,26.1028,福州市,五四北路,颗粒物(PM10),54,58,50,30,29,58,,118,98,26,26,5,4,0.4,0.5
2025-03-27T2200,1284A,119.2648,26.0768,福州市,杨桥西路,颗粒物(PM10),57,63,62,34,33,55,,120,97,29,25,5,4,0.4,0.4
2025-03-27T2200,1285A,119.317,26.0746,福州市,紫阳,颗粒物(PM10),56,61,52,33,28,39,,104,84,42,26,5,5,0.2,0.2
2025-03-27T2200,3048A,119.5799,26.0936,福州市,九龙,,45,45,42,25,24,59,,115,100,18,11,5,4,0.3,0.3
2025-03-27T2200,3526A,119.5189,25.9664,福州市,吴航,颗粒物(PM10),52,54,42,27,23,58,,112,93,15,11,4,4,0.4,0.4
2025-03-27T2200,1755A,123.7977,41.8491,抚顺市,望花区,颗粒物(PM10),65,80,86,23,28,68,,92,85,22,20,9,10,0.6,0.6
2025-03-27T2200,1756A,123.9161,41.8822,抚顺市,顺城区,颗粒物(PM10),86,121,84,27,29,52,,90,72,34,27,8,7,0.7,0.6
2025-03-27T2200,1757A,124.0436,41.8611,抚顺市,东洲区,颗粒物(PM10),65,80,75,20,28,62,,87,80,24,20,7,7,0.6,0.6
2025-03-27T2200,1758A,123.9247,41.8642,抚顺市,新抚区,颗粒物(PM10),64,77,73,23,27,59,,85,77,29,21,5,6,0.5,0.5
2025-03-27T2200,1759A,124.0972,41.8961,抚顺市,大伙房水库,颗粒物(PM10),60,69,71,11,28,76,,84,79,13,21,6,9,0.5,0.6
2025-03-27T2200,1760A,123.7086,41.8391,抚顺市,沈抚新城,颗粒物(PM10),69,88,80,19,25,54,,92,80,30,21,8,9,0.7,0.8
2025-03-27T2200,2376A,116.2127,28.0814,抚州市,桐源党溪,颗粒物(PM10),65,80,66,45,42,75,,134,107,2,3,2,6,0.5,0.4
2025-03-27T2200,2377A,116.3544,27.9831,抚州市,市站,颗粒物(PM10),61,72,65,35,37,69,,116,96,11,9,1,5,1.3,1.1
2025-03-27T2200,2378A,116.3565,27.963,抚州市,血防站,"颗粒物(PM10),细颗粒物(PM2.5)",64,77,70,46,39,72,,125,103,8,9,3,16,1.0,1.1
2025-03-27T2200,2379A,116.3564,28.0007,抚州市,采茶剧团,细颗粒物(PM2.5),62,68,62,44,39,61,,104,87,6,6,3,4,1.3,1.1
2025-03-27T2200,2380A,116.385,27.9647,抚州市,医学分院,颗粒物(PM10),62,73,67,37,36,56,,97,80,10,10,4,4,1.1,1
2025-03-27T2200,2207A,121.6094,41.998,阜新市,工业园区,颗粒物(PM10),52,53,72,9,15,87,,91,90,5,9,6,6,0.3,0.3
2025-03-27T2200,2208A,121.6697,42.0279,阜新市,长青街,,28,23,57,7,15,89,,94,93,3,7,6,5,0.3,0.4
2025-03-27T2200,2209A,121.6673,42.0705,阜新市,农业园区,,34,34,52,7,12,84,,89,88,2,4,6,6,0.4,0.5
2025-03-27T2200,2210A,121.6717,42.0224,阜新市,东苑,,42,42,65,8,15,86,,92,91,2,7,4,5,0.4,0.4
2025-03-27T2200,2211A,121.6506,42.0498,阜新市,玉龙新城,,39,39,65,7,14,81,,88,86,5,9,4,6,0.3,0.4
2025-03-27T2200,2301A,115.8277,32.8929,阜阳市,市监测站,细颗粒物(PM2.5),55,56,174,39,57,76,,75,69,11,18,6,9,0.1,0.3
2025-03-27T2200,2303A,115.8554,32.8605,阜阳市,开发区,颗粒物(PM10),62,73,235,33,52,76,,75,70,10,17,4,7,0.3,0.5
2025-03-27T2200,2875A,115.784,32.8892,阜阳市,阜阳职业技术学院,颗粒物(PM10),63,75,187,35,57,76,,76,68,11,16,6,8,0.3,0.5
2025-03-27T2200,3468A,115.7901,32.8613,阜阳市,市规划展馆,颗粒物(PM10),88,125,189,29,51,79,,82,73,9,14,6,8,0.3,0.5
2025-03-27T2200,3469A,115.836,32.9183,阜阳市,枣园社区,颗粒物(PM10),79,108,191,22,48,82,,79,75,8,14,4,8,0.2,0.4
2025-03-27T2200,2669A,102.9099,34.9841,甘南藏族自治州,州政府,颗粒物(PM10),63,76,263,33,61,56,,67,64,10,6,7,8,0.4,0.3
2025-03-27T2200,3380A,102.8914,34.9617,甘南藏族自治州,甘肃民族师范学院,颗粒物(PM10),63,75,285,25,73,58,,77,70,10,5,7,8,0.2,0.3
2025-03-27T2200,2570A,101.9603,30.0475,甘孜藏族自治州,水桥子,颗粒物(PM10),74,98,46,35,13,138,,124,124,11,26,4,4,0.2,0.7
2025-03-27T2200,3065A,101.9533,29.9972,甘孜藏族自治州,州环保局,颗粒物(PM10),60,70,34,19,9,31,,108,95,66,17,4,5,0.6,0.5
2025-03-27T2200,3414A,115.8347,28.932,赣江新区,桑海产业园,颗粒物(PM10),133,215,93,46,41,85,,124,95,9,16,7,9,0.6,0.6
2025-03-27T2200,2362A,114.9017,25.9149,赣州市,通天岩,,,,51,,10,,,145,,,6,,11,,1.0
2025-03-27T2200,2363A,114.9367,25.8664,赣州市,地委,颗粒物(PM10),52,54,46,32,28,21,,109,69,30,15,7,4,1.3,1.2
2025-03-27T2200,2364A,114.9461,25.8481,赣州市,气象台,颗粒物(PM10),57,63,51,31,24,25,,121,80,41,18,11,10,0.5,0.4
2025-03-27T2200,2365A,114.9322,25.8333,赣州市,市图书馆,颗粒物(PM10),55,60,44,36,29,31,,115,77,42,15,5,5,0.9,0.8
2025-03-27T2200,2366A,114.8905,25.8471,赣州市,华坚鞋城,"颗粒物(PM10),细颗粒物(PM2.5)",55,60,50,39,29,33,,116,81,48,18,11,10,0.7,0.7
2025-03-27T2200,3109A,115.0093,25.8613,赣州市,赣县区卫计委,颗粒物(PM10),53,56,47,31,29,45,,115,72,14,10,5,6,0.5,0.5
2025-03-27T2200,2683A,106.2319,36.1417,固原市,马园,颗粒物(PM10),95,139,215,24,35,72,,81,78,6,5,4,5,0.6,0.6
2025-03-27T2200,2684A,106.2792,36.0022,固原市,监测站,颗粒物(PM10),92,134,183,23,35,78,,87,83,6,3,6,6,0.3,0.4
2025-03-27T2200,2685A,106.2375,36.0211,固原市,新区,颗粒物(PM10),88,125,176,27,44,78,,86,82,6,4,6,6,0.3,0.3
2025-03-27T2200,3522A,106.2177,35.9959,固原市,原州区十五小,颗粒物(PM10),88,125,180,25,37,73,,83,78,10,5,5,6,0.2,0.2
2025-03-27T2200,2543A,106.6308,30.5278,广安市,小平旧居,,,,,,,,,,,,,,,,
2025-03-27T2200,2544A,106.6303,30.4576,广安市,市委,颗粒物(PM10),193,336,164,93,66,86,,124,111,6,17,6,10,0.3,0.5
2025-03-27T2200,2545A,106.6271,30.4663,广安市,友谊中学,颗粒物(PM10),167,284,149,93,64,83,,127,109,12,20,2,5,0.4,0.6
2025-03-27T2200,2547A,106.6388,30.4551,广安市,广电花园,颗粒物(PM10),181,311,160,84,66,85,,123,108,12,25,2,8,0.4,0.6
2025-03-27T2200,2902A,106.6351,30.4865,广安市,北辰小学,颗粒物(PM10),230,371,182,87,62,81,,122,108,9,17,2,7,0.2,0.4
2025-03-27T2200,2523A,105.8945,32.4535,广元市,黑石坡,颗粒物(PM10),109,168,372,40,79,82,,89,84,1,3,2,2,0.2,0.3
2025-03-27T2200,2524A,105.821,32.4444,广元市,老城,颗粒物(PM10),96,142,362,38,101,85,,90,88,4,15,3,2,0.3,0.3
2025-03-27T2200,2526A,105.8628,32.4287,广元市,监测站,颗粒物(PM10),105,159,293,39,71,91,,94,94,3,6,4,6,0.2,0.3
2025-03-27T2200,3617A,105.8047,32.4166,广元市,经开区,颗粒物(PM10),114,178,347,43,89,78,,81,81,6,18,2,3,0.3,0.4
2025-03-27T2200,1345A,113.2347,23.1423,广州市,广雅中学,,31,31,30,21,18,21,,98,67,31,19,3,4,0.5,0.4
2025-03-27T2200,1346A,113.2612,23.105,广州市,市五中,,,89,46,47,24,,,103,,,18,2,2,0.4,0.5
2025-03-27T2200,1348A,113.3478,23.0916,广州市,广东商学院,,40,40,37,22,23,14,,86,50,41,30,4,4,0.7,0.6
2025-03-27T2200,1349A,113.4332,23.1047,广州市,市八十六中,,38,38,33,15,12,9,,64,41,52,42,3,3,0.7,0.6
2025-03-27T2200,1350A,113.3505,22.9483,广州市,番禺中学,,37,37,36,19,18,20,,89,56,35,24,4,4,0.5,0.4
2025-03-27T2200,1351A,113.2146,23.3916,广州市,花都师范,细颗粒物(PM2.5),62,60,50,44,25,26,,108,76,30,22,4,4,0.6,0.4
2025-03-27T2200,1352A,113.2597,23.1331,广州市,市监测站,,40,40,35,21,17,14,,90,60,41,19,5,5,0.6,0.5
2025-03-27T2200,1353A,113.5618,23.312,广州市,九龙镇镇龙,,43,43,42,23,22,22,,87,63,33,25,7,6,0.4,0.4
2025-03-27T2200,1354A,113.2765,23.1544,广州市,麓湖,,39,39,35,20,17,21,,99,65,36,21,2,4,0.3,0.3
2025-03-27T2200,1355A,113.443,23.3035,广州市,帽峰山森林公园,,34,34,30,16,22,12,,92,62,42,21,7,6,0.7,0.6
2025-03-27T2200,2846A,113.3221,23.1322,广州市,体育西,,50,50,46,26,25,14,,91,53,35,24,4,4,0.5,0.4
2025-03-27T2200,3298A,113.5717,23.5491,广州市,从化街口,颗粒物(PM10),52,54,48,21,20,40,,114,91,19,16,8,8,0.6,0.6
2025-03-27T2200,3299A,113.3472,23.3692,广州市,白云竹料,,50,50,50,22,22,27,,109,77,35,25,7,7,0.5,0.4
2025-03-27T2200,3300A,113.2981,23.237,广州市,白云嘉禾,,46,46,44,24,22,13,,91,56,42,35,4,4,0.7,0.3
2025-03-27T2200,3301A,113.4256,23.1716,广州市,黄埔科学城,,47,47,42,20,18,10,,84,54,42,29,8,8,0.3,0.3
2025-03-27T2200,3302A,113.3942,23.0483,广州市,番禺大学城,,50,50,48,18,16,23,,85,50,31,27,9,10,0.2,0.3
2025-03-27T2200,3303A,113.4922,22.8168,广州市,南沙黄阁,,28,,35,19,17,35,,64,52,19,19,4,5,0.6,0.6
2025-03-27T2200,3304A,113.5342,22.7896,广州市,南沙街,,33,31,32,23,15,29,,57,47,25,20,4,4,0.6,0.5
2025-03-27T2200,3443A,113.2902,23.5544,广州市,花都梯面,,50,50,50,21,20,23,,115,87,32,22,5,4,0.6,0.6
2025-03-27T2200,3445A,113.7858,23.7478,广州市,从化良口,,29,29,35,19,23,52,,120,103,14,14,7,7,0.5,0.5
2025-03-27T2200,3446A,113.8051,23.2614,广州市,增城荔城,,40,40,39,20,19,31,,100,71,18,16,6,6,0.2,0.2
2025-03-27T2200,2505A,109.568,23.1478,贵港市,德智高中,,,,,,,,,,,,,,,,
2025-03-27T2200,2506A,109.6047,23.0666,贵港市,江南子站,细颗粒物(PM2.5),64,68,54,46,35,103,,132,130,17,12,6,5,0.8,0.7
2025-03-27T2200,2507A,109.6014,23.0948,贵港市,贵城子站,细颗粒物(PM2.5),60,62,58,43,34,95,,127,124,20,12,9,6,0.9,0.8
2025-03-27T2200,2508A,109.5669,23.1065,贵港市,荷城子站,细颗粒物(PM2.5),62,66,47,44,27,94,,115,114,18,13,5,4,0.4,0.3
2025-03-27T2200,3405A,109.5886,23.1172,贵港市,新世纪学校,细颗粒物(PM2.5),68,70,51,49,33,99,,127,124,17,12,11,7,0.8,0.6
2025-03-27T2200,1439A,106.6899,26.5998,贵阳市,马鞍山,细颗粒物(PM2.5),62,56,58,44,43,92,,168,140,14,14,6,6,0.6,0.6
2025-03-27T2200,1441A,106.6243,26.6266,贵阳市,鉴湖路,颗粒物(PM10),67,83,91,46,47,114,,161,151,12,11,9,10,0.5,0.6
2025-03-27T2200,1442A,106.7487,26.6343,贵阳市,燕子冲,细颗粒物(PM2.5),83,70,61,61,56,129,,172,154,16,18,8,10,0.7,0.6
2025-03-27T2200,1443A,106.6555,26.4365,贵阳市,碧云窝,颗粒物(PM10),65,80,83,44,53,135,,154,142,11,13,8,11,0.2,0.6
2025-03-27T2200,1445A,106.7109,26.6027,贵阳市,红边门,细颗粒物(PM2.5),79,80,78,58,54,107,,163,140,30,36,6,10,0.7,0.8
2025-03-27T2200,1446A,106.7164,26.5699,贵阳市,新华路,细颗粒物(PM2.5),73,78,76,53,52,112,,151,131,16,28,5,29,0.4,0.7
2025-03-27T2200,1447A,106.674,26.5424,贵阳市,太慈桥,细颗粒物(PM2.5),70,73,71,51,47,129,,162,155,15,20,8,10,0.5,0.6
2025-03-27T2200,1552A,106.805,26.3003,贵阳市,桐木岭,细颗粒物(PM2.5),85,79,73,63,50,118,,148,140,14,8,3,16,1.1,0.8
2025-03-27T2200,4230A,106.6882,26.5695,贵阳市,花果园大街66号,细颗粒物(PM2.5),79,73,67,58,55,128,,160,150,19,22,6,9,0.4,0.5
2025-03-27T2200,4231A,106.6873,26.5169,贵阳市,漓江路57号,细颗粒物(PM2.5),64,73,72,46,48,112,,155,142,18,18,12,15,0.6,0.6
2025-03-27T2200,1862A,110.4144,25.3167,桂林市,电子科大尧山校区,,,,,,,,,,,,,,,,
2025-03-27T2200,1864A,110.3089,25.2708,桂林市,龙隐路小学,细颗粒物(PM2.5),72,66,70,52,53,104,,122,116,11,15,8,10,0.6,0.6
2025-03-27T2200,1865A,110.2869,25.2178,桂林市,八中,细颗粒物(PM2.5),73,75,76,53,50,82,,114,106,26,25,7,9,0.9,0.8
2025-03-27T2200,3531A,110.296,25.1253,桂林市,旅游学院,细颗粒物(PM2.5),62,51,62,44,45,102,,82,,10,18,8,13,0.5,0.5
2025-03-27T2200,4222A,110.1835,25.2444,桂林市,环湖路276号,细颗粒物(PM2.5),64,61,68,46,45,102,,110,109,9,24,5,7,0.4,0.5
2025-03-27T2200,4301A,110.2803,25.2773,桂林市,信义路13号,细颗粒物(PM2.5),70,65,68,51,47,98,,120,115,18,16,9,11,0.8,0.8
2025-03-27T2200,2674A,100.2561,34.4714,果洛藏族自治州,玛沁县大武镇,颗粒物(PM10),101,151,292,38,64,101,,112,110,2,2,4,4,0.3,0.3
2025-03-27T2200,1129A,126.5422,45.755,哈尔滨市,岭北,,26,12,20,8,19,81,,104,95,12,13,19,20,1.0,1
2025-03-27T2200,1130A,126.561,45.8167,哈尔滨市,松北商大,,18,17,25,10,21,57,,87,74,16,13,6,6,0.5,0.5
2025-03-27T2200,1131A,126.979,45.5419,哈尔滨市,阿城会宁,,23,23,38,13,27,67,,86,78,9,12,8,5,0.6,0.7
2025-03-27T2200,1132A,126.599,45.7222,哈尔滨市,南岗学府路,,25,25,38,7,16,63,,84,76,13,18,10,9,0.6,0.6
2025-03-27T2200,1133A,126.689,45.7733,哈尔滨市,太平宏伟公园,,22,,28,12,27,69,,85,76,16,16,6,5,0.5,0.8
2025-03-27T2200,1134A,126.635,45.7667,哈尔滨市,道外承德广场,,30,30,44,12,24,69,,84,77,13,17,12,6,0.4,0.4
2025-03-27T2200,1135A,126.685,45.7319,哈尔滨市,香坊红旗大街,,23,12,28,3,14,72,,83,77,11,17,10,12,0.4,0.5
2025-03-27T2200,1136A,126.6411,45.7258,哈尔滨市,动力和平路,,21,13,30,12,24,66,,83,75,13,16,16,13,0.4,0.4
2025-03-27T2200,1137A,126.593,45.7478,哈尔滨市,道里建国路,,19,18,29,13,22,60,,84,74,15,15,4,7,0.3,0.4
2025-03-27T2200,1138A,126.615,45.61,哈尔滨市,平房东轻厂,,25,22,36,17,30,38,,77,60,28,18,10,9,0.6,0.7
2025-03-27T2200,1139A,126.595,45.9855,哈尔滨市,呼兰师专,,19,,18,9,13,60,,80,71,11,11,9,9,0.5,0.4
2025-03-27T2200,1140A,126.6206,45.6842,哈尔滨市,省农科院,,24,24,35,16,27,70,,82,76,8,18,11,11,0.5,0.5
2025-03-27T2200,2688A,93.5128,42.8172,哈密市,地区监测站,颗粒物(PM10),62,73,64,25,15,52,,75,73,28,10,3,3,0.3,0.3
2025-03-27T2200,2689A,93.4961,42.8328,哈密市,哈密师范学校,颗粒物(PM10),72,93,64,25,15,51,,82,79,36,12,4,4,0.4,0.2
2025-03-27T2200,2671A,100.9048,36.9639,海北藏族自治州,海晏县西海镇,颗粒物(PM10),90,130,316,39,71,83,,104,102,3,4,12,12,0.5,0.7
2025-03-27T2200,3867A,102.0738,36.5056,海东市,平安区公安北苑,颗粒物(PM10),69,88,173,26,56,66,,78,76,7,4,16,8,0.6,0.5
2025-03-27T2200,1409A,110.576,19.9507,海口市,东寨港,,33,,26,23,16,33,,58,43,4,4,3,3,0.1,0.2
2025-03-27T2200,1410A,110.3232,20.0574,海口市,海南大学,,30,30,34,17,20,33,,76,72,8,13,2,2,0.3,0.3
2025-03-27T2200,1411A,110.283,20.0053,海口市,秀英海南医院,,39,39,42,17,20,34,,63,59,10,23,4,5,0.3,0.4
2025-03-27T2200,1412A,110.338,19.9969,海口市,海南师范大学,,38,38,34,16,18,35,,88,71,4,7,3,4,0.3,0.3
2025-03-27T2200,1413A,110.33,20.0356,海口市,龙华路环保局宿舍,,,,36,,18,34,,78,75,5,11,4,4,,0.3
2025-03-27T2200,3539A,110.5111,19.9736,海口市,桂林洋子站,,29,29,34,17,19,36,,74,56,6,7,3,3,0.3,0.3
2025-03-27T2200,2673A,100.6188,36.2866,海南藏族自治州,共和县恰卜恰镇,颗粒物(PM10),136,221,339,72,93,108,,124,117,2,2,15,11,0.4,0.4
2025-03-27T2200,2676A,97.3731,37.3753,海西蒙古族藏族自治州,德令哈市,颗粒物(PM10),82,114,250,21,38,104,,124,122,5,4,13,11,0.4,0.4
2025-03-27T2200,1048A,114.5302,36.6116,邯郸市,东污水处理厂,颗粒物(PM10),92,133,128,31,34,45,,80,64,32,25,1,4,0.2,0.5
2025-03-27T2200,1049A,114.4918,36.5713,邯郸市,矿院,颗粒物(PM10),104,157,159,36,35,35,,74,58,31,17,2,4,0.3,0.4
2025-03-27T2200,1050A,114.484,36.6133,邯郸市,丛台公园,颗粒物(PM10),93,135,146,32,44,56,,77,67,17,19,4,7,0.3,0.5
2025-03-27T2200,3458A,114.7895,36.5593,邯郸市,香泉濮院小区,颗粒物(PM10),105,160,158,28,34,52,,83,71,15,16,2,4,0.2,0.4
2025-03-27T2200,3579A,114.50634,36.77178,邯郸市,永年区实验高中,颗粒物(PM10),98,145,159,39,41,60,,79,61,34,23,5,6,0.4,0.6
2025-03-27T2200,3580A,114.20016,36.44293,邯郸市,峰峰矿区临水派出所,颗粒物(PM10),106,161,149,40,45,46,,80,70,28,13,7,12,0.5,0.8
2025-03-27T2200,2634A,106.9893,33.1842,汉中市,汉川机床厂子校,颗粒物(PM10),98,145,383,30,87,93,,96,94,2,2,6,6,0.7,0.6
2025-03-27T2200,2635A,107.0154,33.0706,汉中市,市监测站,颗粒物(PM10),94,137,360,53,88,82,,82,81,6,11,5,5,0.5,0.5
2025-03-27T2200,2636A,107.0089,33.1138,汉中市,鑫源开发区,颗粒物(PM10),92,133,372,43,94,86,,89,89,8,10,4,4,0.4,0.4
2025-03-27T2200,2637A,107.007,33.0323,汉中市,南郑大河坎水厂,颗粒物(PM10),97,143,362,44,94,86,,88,88,5,12,6,6,0.5,0.5
2025-03-27T2200,1223A,120.2072,30.2111,杭州市,滨江,颗粒物(PM10),64,77,71,36,42,89,,130,118,15,27,7,7,0.4,0.7
2025-03-27T2200,1224A,120.0633,30.2747,杭州市,西溪,颗粒物(PM10),69,87,68,15,44,84,,130,116,18,21,6,6,0.3,0.3
2025-03-27T2200,1226A,120.3417,30.3150,杭州市,下沙,颗粒物(PM10),74,97,90,22,46,70,,114,99,31,30,5,6,0.4,0.6
2025-03-27T2200,1227A,120.1269,30.2456,杭州市,卧龙桥,颗粒物(PM10),69,88,66,27,38,86,,130,115,15,21,6,6,0.6,0.6
2025-03-27T2200,1228A,120.1903,30.2692,杭州市,浙江农大,颗粒物(PM10),74,98,65,30,39,80,,125,111,18,24,2,2,0.5,0.5
2025-03-27T2200,1230A,120.1197,30.3119,杭州市,和睦小学,颗粒物(PM10),76,102,72,26,43,83,,131,115,17,22,7,7,0.5,0.7
2025-03-27T2200,1231A,120.3019,30.4183,杭州市,临平镇,颗粒物(PM10),92,133,83,21,42,83,,129,112,19,30,6,6,0.4,0.6
2025-03-27T2200,1232A,120.2753,30.1839,杭州市,城厢镇,颗粒物(PM10),74,97,75,29,44,86,,128,112,26,28,8,8,0.5,0.7
2025-03-27T2200,1233A,120.0883,30.1808,杭州市,云栖,颗粒物(PM10),73,96,63,22,37,88,,128,115,18,29,10,9,0.6,0.7
2025-03-27T2200,3557A,119.9464,30.0494,杭州市,镇二中,颗粒物(PM10),62,73,61,16,39,82,,122,107,20,28,6,6,0.7,0.7
2025-03-27T2200,3558A,119.7183,30.2367,杭州市,市府大楼,颗粒物(PM10),69,88,65,30,38,88,,125,110,23,25,8,8,0.7,0.8
2025-03-27T2200,3656A,120.1556,30.2864,杭州市,消防大队,颗粒物(PM10),78,105,69,30,43,89,,134,121,21,24,4,3,0.5,0.7
2025-03-27T2200,1270A,117.1959,31.7848,合肥市,明珠广场,颗粒物(PM10),128,205,130,36,48,55,,116,77,19,16,5,5,0.3,0.5
2025-03-27T2200,1271A,117.3072,31.8764,合肥市,三里街,颗粒物(PM10),136,222,128,39,42,53,,109,67,16,19,5,5,0.5,0.7
2025-03-27T2200,1272A,117.2588,31.8707,合肥市,琥珀山庄,颗粒物(PM10),140,229,132,36,47,56,,117,72,24,19,4,3,0.3,0.5
2025-03-27T2200,1273A,117.1604,31.9052,合肥市,董铺水库,颗粒物(PM10),144,237,134,34,42,59,,132,79,18,10,3,3,0.2,0.5
2025-03-27T2200,1274A,117.25,31.8571,合肥市,长江中路,颗粒物(PM10),145,239,140,40,46,57,,124,74,16,14,8,7,0.4,0.6
2025-03-27T2200,1275A,117.266,31.9436,合肥市,庐阳区,颗粒物(PM10),153,256,144,39,44,53,,129,68,24,21,6,7,0.5,0.7
2025-03-27T2200,1276A,117.3453,31.8616,合肥市,瑶海区,颗粒物(PM10),146,241,139,34,43,55,,120,70,18,20,7,8,0.4,0.7
2025-03-27T2200,1277A,117.3027,31.7964,合肥市,包河区,颗粒物(PM10),134,217,136,41,50,49,,108,59,22,23,6,6,0.5,0.7
2025-03-27T2200,1278A,117.2776,31.7385,合肥市,滨湖新区,颗粒物(PM10),137,224,134,41,53,53,,111,72,19,17,4,5,0.4,0.7
2025-03-27T2200,1279A,117.1318,31.8403,合肥市,高新区,颗粒物(PM10),146,241,136,39,48,50,,117,67,23,15,3,3,0.2,0.7
2025-03-27T2200,3464A,117.3803,31.9147,合肥市,高教基地,颗粒物(PM10),130,209,132,25,42,58,,120,73,16,17,2,3,0.1,0.4
2025-03-27T2200,3614A,79.924,37.0877,和田地区,地区环保局,"颗粒物(PM10),细颗粒物(PM2.5)",500,4722,3807,796,1962,40,,63,54,16,6,1,2,0.3,0.8
2025-03-27T2200,3615A,79.9131,37.113,和田地区,市环保局,颗粒物(PM10),500,3637,3405,474,1643,48,,73,60,15,6,1,2,0.9,0.4
2025-03-27T2200,2516A,108.2011,24.715,河池市,东仁乐园,细颗粒物(PM2.5),100,,73,75,54,78,,139,131,41,19,9,12,1.1,0.9
2025-03-27T2200,2517A,108.0497,24.6947,河池市,市环保站,细颗粒物(PM2.5),84,71,71,62,50,127,,133,133,11,14,5,9,0.8,0.7
2025-03-27T2200,2518A,108.0983,24.6989,河池市,市疾控中心,细颗粒物(PM2.5),85,93,71,63,51,76,,146,139,46,18,7,11,1.0,0.8
2025-03-27T2200,1696A,114.6778,23.7569,河源市,源西,,32,32,34,21,20,48,,112,96,16,12,4,4,0.7,0.6
2025-03-27T2200,1697A,114.6944,23.7586,河源市,东埔,,,58,32,27,27,46,,118,100,19,15,4,4,,0.7
2025-03-27T2200,1698A,114.6892,23.7233,河源市,老城,,40,39,35,28,25,43,,121,100,21,14,4,4,0.6,0.6
2025-03-27T2200,1718A,115.4208,35.2464,菏泽市,气象局,颗粒物(PM10),55,60,204,27,52,54,,72,65,18,20,1,5,0.4,0.5
2025-03-27T2200,3374A,115.5564,35.0891,菏泽市,定陶老年大学,,34,34,169,9,42,58,,71,68,16,21,3,5,0.4,0.6
2025-03-27T2200,4184A,115.4797,35.24401,菏泽市,永昌路1号,,50,50,211,24,55,58,,73,66,20,21,5,7,0.1,0.3
2025-03-27T2200,4193A,115.4715,35.2800,菏泽市,长城路999号,颗粒物(PM10),55,59,205,20,46,54,,70,63,19,22,3,4,0.5,0.6
2025-03-27T2200,2514A,111.5264,24.4172,贺州市,环保小区,颗粒物(PM10),58,65,57,34,32,100,,103,103,14,15,14,12,0.8,0.8
2025-03-27T2200,2515A,111.5608,24.4078,贺州市,政协大楼,细颗粒物(PM2.5),59,59,51,42,31,88,,96,95,15,15,22,12,0.6,0.6
2025-03-27T2200,3534A,111.4744,24.4553,贺州市,西湾,,,72,60,47,38,,,96,95,22,22,10,9,0.8,0.7
2025-03-27T2200,2385A,114.17,35.9019,鹤壁市,市监测站,颗粒物(PM10),77,104,160,40,48,28,,90,72,30,20,9,9,0.6,0.8
2025-03-27T2200,2386A,114.2956,35.7511,鹤壁市,市交警支队,颗粒物(PM10),73,95,152,27,34,30,,87,65,24,18,5,7,0.3,0.4
2025-03-27T2200,2387A,114.2878,35.7306,鹤壁市,迎宾馆,颗粒物(PM10),67,83,167,22,30,27,,88,65,25,19,4,5,0.5,0.6
2025-03-27T2200,3474A,114.2617,35.6822,鹤壁市,大新区,颗粒物(PM10),65,80,157,34,35,19,,86,58,34,25,5,7,0.6,0.7
2025-03-27T2200,3596A,114.1572,35.9603,鹤壁市,南山宾馆,颗粒物(PM10),104,157,181,46,50,56,,91,81,16,18,4,6,0.4,0.6
2025-03-27T2200,2244A,130.2537,47.3416,鹤岗市,哈啤分公司,,23,19,34,9,15,71,,78,74,1,3,14,14,0.1,0.4
2025-03-27T2200,2245A,130.2684,47.3086,鹤岗市,斯达机电,,33,,24,23,17,72,,77,73,2,2,13,14,0.2,0.3
2025-03-27T2200,2246A,130.3114,47.3388,鹤岗市,东山纸板厂,,49,49,37,22,18,78,,85,81,3,5,12,14,0.2,0.3
2025-03-27T2200,2247A,130.1097,47.3382,鹤岗市,五号水库,,,,,,,,,,,,,,,,
2025-03-27T2200,2263A,127.4833,50.2524,黑河市,交通局,,20,19,24,14,14,63,,77,72,7,5,6,6,0.6,0.5
2025-03-27T2200,2264A,127.5144,50.2341,黑河市,环保局,,21,14,27,12,15,65,,77,66,8,9,3,6,0.3,0.3
2025-03-27T2200,2265A,127.5291,50.2472,黑河市,大黑河岛,,25,25,29,3,5,27,,52,52,10,12,1,16,0.5,0.5
2025-03-27T2200,1074A,115.6838,37.7541,衡水市,电机北厂,颗粒物(PM10),81,112,162,41,51,59,,85,80,28,24,3,4,0.2,0.3
2025-03-27T2200,1075A,115.6303,37.7316,衡水市,市监测站,颗粒物(PM10),80,110,148,31,44,58,,87,83,22,21,6,8,0.2,0.3
2025-03-27T2200,3188A,115.6683,37.7217,衡水市,市城管局,颗粒物(PM10),87,123,160,36,44,49,,84,78,32,19,5,5,0.3,0.3
2025-03-27T2200,3459A,115.5989,37.5491,衡水市,地表水厂,颗粒物(PM10),86,122,154,34,42,73,,91,81,18,17,8,8,0.3,0.3
2025-03-27T2200,2456A,112.5003,26.9167,衡阳市,原169医院,颗粒物(PM10),92,134,88,40,45,58,,114,93,11,13,7,11,0.5,0.6
2025-03-27T2200,2457A,112.6194,26.9258,衡阳市,衡阳化工总厂,颗粒物(PM10),93,135,101,54,70,96,,147,131,12,12,7,10,0.7,0.7
2025-03-27T2200,2458A,112.6211,26.8956,衡阳市,珠晖区环保局,颗粒物(PM10),83,115,85,48,45,90,,147,130,20,11,7,9,0.8,0.9
2025-03-27T2200,2459A,112.6197,26.8733,衡阳市,市委党校,颗粒物(PM10),85,120,86,42,43,98,,153,135,16,14,5,7,0.7,0.8
2025-03-27T2200,2460A,112.6006,26.8919,衡阳市,市监测站,颗粒物(PM10),98,145,91,63,55,96,,147,132,15,17,9,10,0.7,0.8
2025-03-27T2200,2461A,112.5664,26.9056,衡阳市,真空机电公司,颗粒物(PM10),101,152,96,52,49,97,,147,134,13,16,6,10,0.7,1.1
2025-03-27T2200,3399A,112.6703,26.882,衡阳市,师范学院,颗粒物(PM10),100,149,96,53,51,99,,152,136,15,13,9,11,0.8,0.8
2025-03-27T2200,2608A,103.3772,23.3993,红河哈尼族彝族自治州,污水处理厂,,,,73,,62,,,109,,,17,,10,,0.5
2025-03-27T2200,2609A,103.3861,23.35,红河哈尼族彝族自治州,监测站,细颗粒物(PM2.5),95,101,69,71,48,119,,165,159,22,10,12,10,0.7,0.5
2025-03-27T2200,3038A,103.3758,23.368,红河哈尼族彝族自治州,州图书馆,,,,62,,57,,,118,,,15,,7,,0.5
2025-03-27T2200,1090A,111.6507,40.7517,呼和浩特市,呼市一监,颗粒物(PM10),65,80,105,20,24,72,,84,81,9,2,8,8,0.4,0.3
2025-03-27T2200,1091A,111.6572,40.8033,呼和浩特市,小召,颗粒物(PM10),80,110,103,22,21,77,,83,80,10,8,5,3,0.3,0.3
2025-03-27T2200,1094A,111.7516,40.8369,呼和浩特市,如意水处理厂,颗粒物(PM10),78,106,92,26,22,70,,82,80,12,4,6,6,0.3,0.2
2025-03-27T2200,1095A,111.7276,40.8062,呼和浩特市,二十九中,颗粒物(PM10),68,85,97,24,24,68,,84,80,13,3,2,3,0.6,0.5
2025-03-27T2200,1096A,111.5512,40.7866,呼和浩特市,工大金川校区,颗粒物(PM10),70,90,103,21,24,61,,87,78,20,5,5,5,0.5,0.4
2025-03-27T2200,1097A,111.717,40.7612,呼和浩特市,化肥厂生活区,颗粒物(PM10),68,86,101,19,22,69,,85,82,16,6,12,6,0.4,0.3
2025-03-27T2200,3698A,111.5968,40.8178,呼和浩特市,红旗小学,颗粒物(PM10),85,119,103,25,23,73,,86,82,13,6,3,3,0.4,0.3
2025-03-27T2200,3699A,111.6518,40.8389,呼和浩特市,海东办,颗粒物(PM10),76,102,92,22,24,57,,80,76,21,3,7,5,0.5,0.4
2025-03-27T2200,2192A,119.7594,49.2261,呼伦贝尔市,区环保局,,36,32,27,25,21,78,,84,83,9,7,6,6,0.3,0.3
2025-03-27T2200,3061A,119.7512,49.1577,呼伦贝尔市,国华电力东,,29,29,31,18,16,80,,86,84,5,5,4,4,0.4,0.3
2025-03-27T2200,1250A,120.0751,30.8669,湖州市,城西水厂,颗粒物(PM10),134,218,85,40,40,90,,124,110,12,37,6,7,0.4,0.6
2025-03-27T2200,2873A,120.0830,30.8929,湖州市,仁皇山新区,颗粒物(PM10),137,224,81,44,42,90,,124,110,13,23,4,4,0.5,0.8
2025-03-27T2200,2907A,120.1844,30.8596,湖州市,吴兴区站,颗粒物(PM10),113,176,81,44,46,76,,121,104,17,23,6,6,0.5,0.5
2025-03-27T2200,3562A,120.4148,30.8538,湖州市,南浔区站,颗粒物(PM10),100,149,85,30,41,90,,122,111,14,27,2,3,0.4,0.6
2025-03-27T2200,1607A,120.9049,40.7211,葫芦岛市,龙港区,颗粒物(PM10),57,63,94,11,22,71,,83,80,12,17,8,9,0.4,0.5
2025-03-27T2200,1608A,120.8392,40.7514,葫芦岛市,化工街,颗粒物(PM10),59,68,122,12,26,81,,88,86,12,19,7,10,0.4,0.4
2025-03-27T2200,1609A,120.8341,40.7073,葫芦岛市,新区,颗粒物(PM10),60,70,110,10,21,92,,95,95,8,19,7,10,0.3,0.4
2025-03-27T2200,1610A,120.8695,40.7677,葫芦岛市,东城区,颗粒物(PM10),56,61,105,9,19,80,,85,84,9,17,6,6,0.4,0.5
2025-03-27T2200,2482A,109.5981,27.5721,怀化市,林科所,颗粒物(PM10),96,141,90,43,43,94,,135,124,12,12,4,4,0.1,0.1
2025-03-27T2200,2483A,109.9453,27.5444,怀化市,河西地税局,颗粒物(PM10),109,168,97,41,50,94,,134,123,12,9,11,11,0.4,0.5
2025-03-27T2200,2484A,109.9781,27.5342,怀化市,市四医院,颗粒物(PM10),105,160,100,29,48,97,,137,123,5,17,8,10,1.5,1
2025-03-27T2200,2485A,109.9972,27.5578,怀化市,监测楼,颗粒物(PM10),108,166,100,41,50,100,,145,131,10,15,12,12,0.3,0.5
2025-03-27T2200,2486A,110.0394,27.583,怀化市,市委党校,颗粒物(PM10),119,188,105,45,54,101,,142,130,10,13,6,8,0.2,0.7
2025-03-27T2200,1210A,119.036,33.5981,淮安市,钵池山,,48,,173,33,52,71,,100,76,11,20,7,10,0.4,0.7
2025-03-27T2200,1211A,119.007,33.575,淮安市,北京南路,,39,31,182,27,48,74,,105,78,11,24,6,9,0.4,0.7
2025-03-27T2200,1212A,118.989,33.6067,淮安市,市监测站,,24,17,171,14,50,75,,108,80,15,27,6,10,0.6,0.6
2025-03-27T2200,1213A,119.135,33.5039,淮安市,楚州区监测站,细颗粒物(PM2.5),52,42,182,36,50,68,,99,74,9,16,6,9,0.5,0.7
2025-03-27T2200,3426A,118.8755,33.2894,淮安市,新华书店,颗粒物(PM10),61,72,185,26,54,70,,103,72,14,26,7,11,0.4,0.8
2025-03-27T2200,4206A,119.0288,33.6319,淮安市,承德北路606号,,46,,195,32,51,71,,100,73,12,27,6,9,0.4,0.7
2025-03-27T2200,2282A,116.8004,33.975,淮北市,监测站,颗粒物(PM10),61,71,183,26,45,58,,73,67,11,23,4,7,0.3,0.5
2025-03-27T2200,2283A,116.8091,33.9007,淮北市,烈山区政府,颗粒物(PM10),54,57,191,32,52,61,,79,74,16,19,2,6,0.5,0.8
2025-03-27T2200,3330A,116.8873,33.9836,淮北市,杜集区检察院,颗粒物(PM10),54,58,182,26,48,53,,78,70,18,20,4,7,0.6,0.7
2025-03-27T2200,4017A,116.7923,33.9535,淮北市,市博物馆,颗粒物(PM10),61,71,189,29,45,56,,76,69,13,18,6,8,0.8,0.9
2025-03-27T2200,2277A,116.8305,32.7727,淮南市,潘集区政府,颗粒物(PM10),73,95,209,39,62,72,,81,69,13,21,2,6,0.4,0.6
2025-03-27T2200,2279A,116.8569,32.5951,淮南市,谢家集区政府,颗粒物(PM10),86,121,194,33,57,68,,87,68,14,18,7,10,0.2,0.5
2025-03-27T2200,2280A,116.8281,32.633,淮南市,八公山区政府,颗粒物(PM10),76,102,194,26,53,68,,91,71,11,14,4,8,0.2,0.4
2025-03-27T2200,2281A,116.6325,32.6201,淮南市,焦岗湖风景区管理处,,,,146,,48,,,67,,,12,,8,,0.7
2025-03-27T2200,2894A,117.0566,32.6531,淮南市,经济技术开发区消防队,颗粒物(PM10),93,136,191,35,57,71,,101,77,9,15,6,9,0.3,0.5
2025-03-27T2200,3329A,117.0108,32.5893,淮南市,山南新区,颗粒物(PM10),104,158,240,34,59,69,,100,74,17,20,6,9,0.4,0.6
2025-03-27T2200,4209A,117.0031,32.6445,淮南市,国庆中路369号,颗粒物(PM10),79,107,189,30,55,67,,93,72,10,17,8,13,0.1,0.6
2025-03-27T2200,2446A,114.9028,30.4742,黄冈市,职工中心,颗粒物(PM10),87,124,90,34,56,72,,115,92,11,17,5,9,0.3,0.7
2025-03-27T2200,2929A,114.8858,30.4519,黄冈市,红卫路,,,,94,,68,,,116,,,15,,9,,1.0
2025-03-27T2200,3398A,114.9136,30.4445,黄冈市,市林业局,颗粒物(PM10),107,164,100,33,56,64,,110,88,11,18,7,9,0.6,0.7
2025-03-27T2200,2672A,102.0199,35.5102,黄南藏族自治州,同仁县隆务镇,颗粒物(PM10),76,101,283,40,82,76,,82,76,4,5,20,19,0.6,0.4
2025-03-27T2200,2295A,118.2903,29.6963,黄山市,延安路89号,细颗粒物(PM2.5),68,65,49,49,33,93,,109,101,8,6,4,4,0.4,0.6
2025-03-27T2200,2297A,118.1371,30.2756,黄山市,黄山区政府5号楼,颗粒物(PM10),143,235,63,48,27,81,,103,89,9,8,8,8,0.6,0.8
2025-03-27T2200,4210A,118.3354,29.7203,黄山市,滨江东路7-2号,颗粒物(PM10),83,115,55,37,30,90,,106,100,7,6,5,5,0.4,0.7
2025-03-27T2200,2423A,115.0601,30.2313,黄石市,沈家营,颗粒物(PM10),73,96,92,29,42,73,,115,91,13,17,7,7,0.5,0.6
2025-03-27T2200,2426A,114.8988,30.2019,黄石市,铁山,颗粒物(PM10),90,130,97,34,52,73,,109,94,11,17,7,14,1.2,0.9
2025-03-27T2200,2427A,115.0307,30.2092,黄石市,团城山,颗粒物(PM10),71,92,95,26,39,67,,111,85,12,19,6,9,0.6,0.7
2025-03-27T2200,3149A,115.0235,30.1578,黄石市,笔架山北路,颗粒物(PM10),65,79,81,24,38,75,,116,94,8,10,7,9,0.5,0.8
2025-03-27T2200,4185A,115.0780,30.21118,黄石市,磁湖东路29号,颗粒物(PM10),78,106,122,26,49,73,,106,91,15,24,6,8,0.6,0.8
2025-03-27T2200,1392A,114.4183,23.0528,惠州市,河南岸金山湖子站,,41,41,33,20,18,24,,79,56,29,21,8,8,0.5,0.5
2025-03-27T2200,1393A,114.4053,23.0822,惠州市,下埔横江三路子站,,47,47,35,26,18,28,,91,64,24,16,8,8,0.5,0.4
2025-03-27T2200,1394A,114.4103,23.1142,惠州市,江北云山西路子站,,40,40,33,23,17,32,,101,74,23,16,9,9,0.4,0.4
2025-03-27T2200,1395A,114.4645,22.7833,惠州市,惠阳区承修路船湖子站,,36,36,31,19,15,29,,69,48,19,13,8,8,0.5,0.5
2025-03-27T2200,1396A,114.5317,22.7422,惠州市,大亚湾管委会子站,,40,40,31,22,10,44,,65,52,15,21,7,7,0.6,0.6
2025-03-27T2200,3314A,114.4338,22.8134,惠州市,惠阳秋长,,34,34,34,20,16,28,,75,54,19,14,8,9,0.7,0.6
2025-03-27T2200,3452A,114.6517,22.775,惠州市,大亚湾霞涌,,23,23,23,11,12,54,,73,63,8,14,6,7,0.2,0.3
2025-03-27T2200,2240A,130.9762,45.3001,鸡西市,环保局,,25,16,26,10,17,80,,82,82,7,11,5,7,0.5,0.5
2025-03-27T2200,2243A,130.9429,45.3039,鸡西市,第一中学,,26,14,22,10,15,83,,83,83,3,11,5,8,0.4,0.5
2025-03-27T2200,3707A,131.0207,45.3073,鸡西市,欧美日汽修厂,,28,19,23,11,18,88,,88,88,6,8,4,6,0.5,0.5
2025-03-27T2200,3709A,130.9967,45.3106,鸡西市,市政设施管理处,,23,20,25,10,16,73,,78,77,10,12,4,5,0.4,0.4
2025-03-27T2200,2367A,114.9754,27.0803,吉安市,红声器材厂,颗粒物(PM10),58,65,59,39,36,94,,135,111,17,12,15,13,0.6,0.6
2025-03-27T2200,2368A,114.9658,27.0999,吉安市,市森林工业局,,,62,56,42,35,,,135,118,14,12,13,12,0.7,0.5
2025-03-27T2200,2369A,114.99,27.1312,吉安市,市环境监测站,颗粒物(PM10),60,69,56,41,34,94,,134,112,15,10,18,15,0.6,0.4
2025-03-27T2200,2370A,115.0093,27.0968,吉安市,青原区法院,"颗粒物(PM10),细颗粒物(PM2.5)",57,64,55,40,38,99,,144,116,18,13,14,14,0.5,0.5
2025-03-27T2200,1772A,126.54,43.8622,吉林市,哈达湾,,34,34,45,11,22,70,,72,70,15,14,6,6,0.6,0.6
2025-03-27T2200,1773A,126.5844,43.8358,吉林市,东局子,,38,38,42,26,24,52,,73,68,28,15,6,6,0.6,0.5
2025-03-27T2200,1774A,126.5052,43.8245,吉林市,电力学院,细颗粒物(PM2.5),62,71,47,44,31,55,,75,66,21,13,6,5,0.6,0.4
2025-03-27T2200,1775A,126.6133,43.8972,吉林市,江北,颗粒物(PM10),60,69,50,29,25,44,,70,60,37,18,4,4,0.4,0.5
2025-03-27T2200,1776A,126.555,43.8306,吉林市,江南公园,,39,39,39,20,26,62,,72,68,18,13,5,6,0.3,0.3
2025-03-27T2200,1778A,126.7061,43.7133,吉林市,丰满,,26,23,33,12,26,82,,85,84,7,10,5,5,0.8,0.9
2025-03-27T2200,2868A,126.4739,43.953,吉林市,九站,,39,39,45,18,26,42,,71,59,28,14,9,10,0.5,0.6
2025-03-27T2200,1299A,116.9862,36.6114,济南市,科干所,颗粒物(PM10),62,73,165,37,55,61,,78,74,22,19,5,7,0.4,0.5
2025-03-27T2200,1300A,116.9376,36.665,济南市,农科所,颗粒物(PM10),78,105,181,17,30,34,,74,65,49,27,8,8,0.4,0.4
2025-03-27T2200,1301A,117.1265,36.6734,济南市,开发区,颗粒物(PM10),56,61,165,20,38,59,,75,68,29,27,6,8,0.4,0.6
2025-03-27T2200,1303A,117.0624,36.6868,济南市,省种子仓库,颗粒物(PM10),67,83,187,17,35,57,,76,68,25,21,3,6,0.6,0.7
2025-03-27T2200,1304A,116.9489,36.6447,济南市,机床二厂,细颗粒物(PM2.5),80,98,196,59,38,42,,71,66,42,27,8,8,0.6,0.7
2025-03-27T2200,1305A,117.0495,36.663,济南市,市监测站,颗粒物(PM10),61,71,177,12,35,56,,72,64,28,25,8,9,0.4,0.5
2025-03-27T2200,1306A,116.7675,36.5484,济南市,长清党校,颗粒物(PM10),84,117,192,20,36,69,,83,78,24,25,3,5,0.5,0.6
2025-03-27T2200,1616A,117.6795,36.229,济南市,技术学院,颗粒物(PM10),58,66,186,17,35,59,,88,75,29,20,16,12,0.3,0.4
2025-03-27T2200,1961A,117.532,36.6868,济南市,东山小学,颗粒物(PM10),58,66,170,17,32,56,,82,72,27,16,8,8,0.6,0.7
2025-03-27T2200,3059A,117.7161,36.2049,济南市,泰兴公司,颗粒物(PM10),53,56,166,17,36,65,,86,76,20,19,9,11,0.3,0.5
2025-03-27T2200,3064A,117.6867,36.2171,济南市,莱芜战役纪念馆,颗粒物(PM10),58,66,171,14,31,64,,89,75,28,21,10,8,0.3,0.4
2025-03-27T2200,3494A,117.1673,36.9782,济南市,济阳区政府,颗粒物(PM10),61,71,164,17,38,54,,77,65,26,25,10,10,0.4,0.4
2025-03-27T2200,3495A,117.1171,36.63,济南市,锦屏中学,颗粒物(PM10),55,59,164,10,29,61,,74,68,21,19,7,9,0.2,0.4
2025-03-27T2200,3682A,116.9814,36.6819,济南市,济南四建,颗粒物(PM10),75,100,178,20,44,34,,74,64,49,23,4,6,0.2,0.3
2025-03-27T2200,1653A,116.6251,35.4302,济宁市,火炬城,颗粒物(PM10),66,82,165,24,39,63,,80,70,15,18,6,9,0.2,0.3
2025-03-27T2200,1655A,116.5491,35.4042,济宁市,电化厂,颗粒物(PM10),69,88,224,29,46,50,,77,64,27,22,3,6,0.5,0.5
2025-03-27T2200,3500A,116.5814,35.3707,济宁市,北湖一中,颗粒物(PM10),64,77,152,19,33,56,,78,66,19,20,8,13,0.2,0.4
2025-03-27T2200,3501A,116.8249,35.5593,济宁市,服务中心,颗粒物(PM10),104,157,185,33,34,41,,78,65,32,23,6,6,0.7,0.6
2025-03-27T2200,3678A,116.5907,35.4054,济宁市,市第七中学,颗粒物(PM10),63,76,204,22,35,64,,78,69,10,18,3,6,0.2,0.3
2025-03-27T2200,2255A,130.2751,46.8028,佳木斯市,佳纺,,26,26,27,11,17,68,,83,72,6,7,4,5,0.2,0.2
2025-03-27T2200,2256A,130.3995,46.8307,佳木斯市,发电厂,,24,14,22,11,13,75,,91,84,3,3,2,3,0.5,0.5
2025-03-27T2200,2257A,130.3258,46.7975,佳木斯市,环保局,,26,26,26,8,17,75,,85,78,10,10,3,3,0.3,0.3
2025-03-27T2200,2258A,130.3648,46.8032,佳木斯市,十一中,,24,20,21,9,16,74,,87,79,7,8,4,4,0.3,0.3
2025-03-27T2200,2259A,130.3794,46.7588,佳木斯市,四丰,,22,14,22,10,17,69,,79,73,4,6,1,2,0.7,0.7
2025-03-27T2200,1252A,120.7436,30.778,嘉兴市,清河小学,颗粒物(PM10),96,141,71,26,34,84,,104,100,14,33,5,5,0.7,0.8
2025-03-27T2200,1253A,120.726,30.7478,嘉兴市,嘉兴学院,颗粒物(PM10),84,118,84,28,40,84,,103,99,12,29,9,8,0.7,0.8
2025-03-27T2200,2872A,120.7846,30.7525,嘉兴市,南湖区残联,颗粒物(PM10),86,121,85,25,37,77,,107,100,12,20,8,8,0.2,0.5
2025-03-27T2200,3407A,120.6916,30.7739,嘉兴市,秀洲住建,颗粒物(PM10),101,152,74,42,36,87,,110,106,15,27,7,6,0.3,0.6
2025-03-27T2200,1945A,98.2908,39.7711,嘉峪关市,气象局,颗粒物(PM10),76,102,65,31,17,78,,80,80,15,10,4,10,0.5,0.7
2025-03-27T2200,2884A,98.2672,39.7978,嘉峪关市,酒钢宾馆,颗粒物(PM10),84,117,72,29,19,81,,83,83,12,9,9,23,0.3,0.5
2025-03-27T2200,3248A,98.2643,39.7724,嘉峪关市,雄关区,颗粒物(PM10),77,104,62,34,23,81,,84,84,17,16,8,11,0.3,0.6
2025-03-27T2200,1383A,113.1064,22.6058,江门市,北街,,20,,37,14,13,32,,69,48,5,6,2,2,0.4,0.4
2025-03-27T2200,1384A,113.0731,22.5835,江门市,西区,,39,39,32,19,18,37,,70,51,12,15,6,6,0.4,0.4
2025-03-27T2200,1385A,113.0219,22.5311,江门市,圭峰西,,32,,31,22,17,35,,61,46,14,14,4,4,0.5,0.5
2025-03-27T2200,1386A,113.0828,22.5947,江门市,东湖,,31,31,31,16,14,38,,73,54,8,10,7,8,0.3,0.3
2025-03-27T2200,3311A,113.1075,22.5647,江门市,江海富民,,35,35,37,22,16,36,,70,51,9,11,6,6,0.3,0.3
2025-03-27T2200,3449A,113.05,22.4667,江门市,新会银湖,,39,28,30,27,19,35,,62,49,15,22,3,2,0.4,0.5
2025-03-27T2200,1830A,113.1992,35.2590,焦作市,影视城,,,,157,,51,,,,,,19,,9,,0.5
2025-03-27T2200,3169A,113.2725,35.2067,焦作市,太极体育中心,颗粒物(PM10),114,178,157,48,43,52,,84,68,18,20,6,10,0.6,0.7
2025-03-27T2200,3335A,113.3137,35.2641,焦作市,马村街道办,颗粒物(PM10),110,169,155,63,46,51,,86,71,23,23,7,10,0.5,0.6
2025-03-27T2200,3336A,113.2465,35.2373,焦作市,焦作技师学院,颗粒物(PM10),113,175,183,34,36,54,,89,71,22,20,6,10,0.5,0.7
2025-03-27T2200,3477A,113.1656,35.2539,焦作市,中站许衡医院,颗粒物(PM10),124,197,166,70,50,48,,92,71,39,27,29,14,1.5,0.8
2025-03-27T2200,3981A,113.2449,35.1803,焦作市,原李万街道办,颗粒物(PM10),110,170,160,44,41,51,,86,69,23,25,8,14,0.4,0.4
2025-03-27T2200,4264A,113.2340,35.2190,焦作市,新安路1731号,颗粒物(PM10),118,185,172,40,44,51,,86,67,21,21,6,13,0.5,0.6
2025-03-27T2200,1708A,116.3701,23.5345,揭阳市,新兴,,38,31,40,26,27,40,,93,64,16,17,8,8,0.6,0.5
2025-03-27T2200,1709A,116.3264,23.5443,揭阳市,西马,,49,49,44,25,25,32,,86,59,17,13,6,7,0.7,0.6
2025-03-27T2200,1710A,116.3611,23.5626,揭阳市,东兴,,36,36,40,21,23,42,,95,70,15,6,5,5,0.7,0.7
2025-03-27T2200,1711A,116.4151,23.5294,揭阳市,渔湖,,33,32,32,23,19,42,,97,68,9,11,5,7,0.6,0.6
2025-03-27T2200,3320A,116.403,23.5699,揭阳市,曲溪,,45,45,36,20,21,46,,109,78,17,15,2,4,0.5,0.5
2025-03-27T2200,1944A,102.1692,38.5167,金昌市,天庆家园,,,146,63,28,13,,,88,87,1,2,8,9,0.5,0.6
2025-03-27T2200,4022A,102.1647,38.5371,金昌市,金川区人防中心,颗粒物(PM10),112,173,82,29,15,85,,85,82,3,4,7,7,0.5,0.4
2025-03-27T2200,4239A,102.1930,38.5319,金昌市,长春路96号,颗粒物(PM10),99,147,91,25,14,89,,88,88,3,3,5,9,0.3,0.6
2025-03-27T2200,1262A,119.647,29.077,金华市,十五中,颗粒物(PM10),57,63,104,23,65,95,,163,142,19,34,5,7,0.5,0.9
2025-03-27T2200,1263A,119.686,29.1029,金华市,监测站,颗粒物(PM10),55,59,97,30,67,105,,232,220,26,51,3,5,0.5,0.7
2025-03-27T2200,3659A,119.656,29.1131,金华市,气象局,颗粒物(PM10),56,61,108,22,56,91,,164,148,16,47,4,6,0.5,0.8
2025-03-27T2200,1767A,121.1115,41.0879,锦州市,南山,,42,42,80,11,24,80,,88,87,11,12,16,10,0.4,0.5
2025-03-27T2200,1768A,121.0604,40.8428,锦州市,开发区,颗粒物(PM10),57,64,120,20,30,82,,91,89,12,18,10,10,0.4,0.6
2025-03-27T2200,1769A,121.1836,41.1119,锦州市,百股街道,颗粒物(PM10),52,53,90,12,22,80,,88,87,8,11,7,7,0.5,0.6
2025-03-27T2200,1770A,121.1178,41.1222,锦州市,天安街道,颗粒物(PM10),52,54,93,10,19,82,,83,83,10,12,18,9,0.4,0.5
2025-03-27T2200,1771A,121.1303,41.1386,锦州市,北湖公园,,49,49,94,13,22,80,,87,86,6,7,18,8,0.4,0.4
2025-03-27T2200,2160A,112.85,35.5051,晋城市,自来水公司,颗粒物(PM10),113,175,223,27,41,67,,77,63,13,15,6,7,0.5,0.5
2025-03-27T2200,2161A,112.8318,35.4936,晋城市,白云商贸,颗粒物(PM10),116,182,230,24,47,61,,80,63,23,17,5,6,0.4,0.4
2025-03-27T2200,2162A,112.8508,35.4887,晋城市,市环保局,颗粒物(PM10),116,181,240,36,48,67,,80,66,15,12,4,5,0.3,0.3
2025-03-27T2200,2163A,112.8676,35.4897,晋城市,技术学院,颗粒物(PM10),125,199,236,22,45,71,,82,66,16,16,5,7,0.4,0.5
2025-03-27T2200,2165A,112.8453,35.546,晋城市,白马寺,颗粒物(PM10),116,181,185,33,63,81,,80,69,6,10,4,4,0.4,0.5
2025-03-27T2200,3620A,112.8271,35.4828,晋城市,泽州一中,颗粒物(PM10),120,190,250,31,54,64,,83,69,19,12,7,8,0.4,0.4
2025-03-27T2200,2173A,112.7249,37.7067,晋中市,南都小区,颗粒物(PM10),500,642,334,85,54,84,,90,89,5,7,2,4,0.3,0.3
2025-03-27T2200,2174A,112.6991,37.6982,晋中市,榆次区政府,颗粒物(PM10),500,686,342,58,48,87,,95,94,5,6,4,5,0.3,0.3
2025-03-27T2200,2865A,112.7195,37.6828,晋中市,榆次三中,颗粒物(PM10),500,810,392,88,51,86,,92,92,1,3,2,2,0.2,0.2
2025-03-27T2200,4200A,112.7478,37.6954,晋中市,迎宾街26号,颗粒物(PM10),500,708,342,83,58,88,,94,94,3,4,2,3,0.1,0.3
2025-03-27T2200,2439A,112.2014,31.0481,荆门市,竹园小学,颗粒物(PM10),128,205,209,27,44,88,,124,93,9,14,6,7,0.2,0.5
2025-03-27T2200,2440A,112.1969,30.9891,荆门市,掇刀,颗粒物(PM10),135,219,198,30,44,80,,134,85,8,11,6,9,0.3,0.4
2025-03-27T2200,2441A,112.2213,31.0386,荆门市,石化一小,颗粒物(PM10),126,202,204,21,42,84,,121,88,11,15,9,10,0,0.2
2025-03-27T2200,3012A,112.1849,31.0362,荆门市,西山林语,颗粒物(PM10),115,180,177,41,45,85,,130,89,8,11,6,8,0.2,0.3
2025-03-27T2200,3547A,112.1632,31.0138,荆门市,龙泉中学南校,颗粒物(PM10),140,229,227,41,49,80,,127,86,4,6,8,9,0.4,0.5
2025-03-27T2200,1844A,112.2494,30.3197,荆州市,市图书馆,颗粒物(PM10),145,239,153,37,51,73,,110,92,14,16,5,9,0.4,0.6
2025-03-27T2200,1845A,112.2008,30.3544,荆州市,市委党校,颗粒物(PM10),135,219,161,46,57,80,,119,99,17,16,6,10,0.3,0.4
2025-03-27T2200,3194A,112.2747,30.3122,荆州市,管委会,颗粒物(PM10),143,236,159,48,58,78,,118,98,13,12,6,10,0.3,0.4
2025-03-27T2200,4268A,112.1722,30.3366,荆州市,学苑路85号,颗粒物(PM10),120,189,148,46,54,77,,113,93,10,14,5,9,0.4,0.5
2025-03-27T2200,2342A,117.3102,29.3867,景德镇市,王港中学,,,,,,,,,,,,,,,,
2025-03-27T2200,2343A,117.2117,29.2933,景德镇市,老干部活动中心,颗粒物(PM10),58,66,55,27,34,82,,128,108,12,13,5,7,0.5,0.5
2025-03-27T2200,2344A,117.1894,29.2789,景德镇市,兽医站,颗粒物(PM10),83,116,62,30,33,82,,127,105,19,14,3,4,0.8,0.8
2025-03-27T2200,2345A,117.1547,29.2617,景德镇市,台达陶瓷,颗粒物(PM10),57,64,57,30,36,83,,129,105,10,17,2,20,0.6,0.6
2025-03-27T2200,2346A,117.2461,29.2956,景德镇市,陶研所,细颗粒物(PM2.5),62,61,51,44,39,84,,132,106,13,15,4,4,0.7,0.7
2025-03-27T2200,1803A,115.9872,29.6815,九江市,十里,颗粒物(PM10),87,124,77,46,40,94,,122,100,8,9,4,4,0.7,0.7
2025-03-27T2200,1804A,115.9584,29.7046,九江市,茅山头,颗粒物(PM10),101,152,66,52,39,96,,122,102,8,14,6,6,0.6,0.5
2025-03-27T2200,1805A,115.9877,29.7295,九江市,西园,颗粒物(PM10),80,110,73,32,30,101,,122,105,12,15,7,6,0.7,0.8
2025-03-27T2200,1808A,115.9114,29.6038,九江市,综合工业园,颗粒物(PM10),98,146,82,40,32,102,,122,106,17,26,8,8,0.8,0.8
2025-03-27T2200,1809A,116.0721,29.7535,九江市,石化总厂,颗粒物(PM10),91,131,88,56,45,91,,112,96,10,15,5,10,0.7,0.7
2025-03-27T2200,1810A,115.9773,29.5698,九江市,庐山气象台,颗粒物(PM10),85,120,60,44,41,90,,132,94,9,7,6,7,1.1,0.9
2025-03-27T2200,3190A,116.0254,29.6994,九江市,外国语学校,颗粒物(PM10),84,117,67,40,39,82,,116,87,14,15,11,6,0.8,0.7
2025-03-27T2200,4253A,116.0102,29.6594,九江市,莲花大道8号,颗粒物(PM10),95,140,71,37,42,92,,111,96,10,7,8,8,0.6,0.7
2025-03-27T2200,4240A,98.4958,39.7339,酒泉市,玉门东路5号,颗粒物(PM10),114,178,65,37,26,,,79,77,13,4,10,9,0.4,0.3
2025-03-27T2200,4241A,98.5099,39.7506,酒泉市,北大街108号,颗粒物(PM10),80,110,56,29,22,70,,80,78,15,6,11,9,0.4,0.3
2025-03-27T2200,2698A,76.0072,39.4467,喀什地区,巡警大队,颗粒物(PM10),500,1745,2627,417,693,64,,76,70,15,11,3,3,0.5,0.4
2025-03-27T2200,2699A,75.9755,39.4694,喀什地区,吾办,颗粒物(PM10),500,1693,1950,453,885,59,,74,68,14,11,2,3,0.5,0.4
2025-03-27T2200,4027A,75.9483,39.4689,喀什地区,老干局,颗粒物(PM10),500,1898,2579,374,676,59,,79,72,12,9,2,3,0.4,0.4
2025-03-27T2200,1824A,114.3389,34.7781,开封市,肿瘤医院,颗粒物(PM10),60,69,168,27,36,36,,81,63,29,19,6,7,0.7,0.7
2025-03-27T2200,1826A,114.2885,34.7965,开封市,世纪星幼儿园,颗粒物(PM10),64,78,128,29,33,36,,81,68,35,24,5,6,0.6,0.7
2025-03-27T2200,3147A,114.3438,34.8106,开封市,龙亭公园,颗粒物(PM10),65,79,144,26,34,42,,82,71,33,25,2,3,0.1,0.3
2025-03-27T2200,3210A,114.3644,34.7964,开封市,汴京公园,颗粒物(PM10),67,84,159,30,37,41,,79,66,32,25,4,5,0.5,0.6
2025-03-27T2200,3473A,114.2485,34.8306,开封市,技师学院,颗粒物(PM10),68,86,123,42,43,40,,75,64,32,26,9,10,0.6,0.9
2025-03-27T2200,3592A,114.4644,34.7556,开封市,祥符区生态环境局,颗粒物(PM10),60,70,187,26,37,37,,76,66,34,21,4,6,0.6,0.6
2025-03-27T2200,1951A,84.895,45.6094,克拉玛依市,长征新村,,23,18,20,3,8,72,,84,83,13,10,5,5,0.3,0.2
2025-03-27T2200,1952A,84.8988,45.5893,克拉玛依市,南林小区,,23,20,20,7,8,73,,82,82,4,3,4,4,0.4,0.3
2025-03-27T2200,1954A,84.905,44.3396,克拉玛依市,独山子区,,24,15,28,13,10,74,,83,81,8,8,6,5,0.3,0.4
2025-03-27T2200,1955A,85.6979,46.098,克拉玛依市,乌尔禾区商贸楼,,35,35,18,7,5,66,,84,82,13,10,5,4,0.4,0.4
2025-03-27T2200,3612A,85.1045,45.6899,克拉玛依市,白碱滩区新站,,22,15,13,3,5,69,,80,79,9,8,7,6,0.2,0.2
2025-03-27T2200,2697A,76.1454,39.7142,克孜勒苏柯尔克孜自治州,市人民政府,颗粒物(PM10),500,1230,2284,284,870,72,,85,78,7,3,4,4,0.5,0.5
2025-03-27T2200,3665A,76.1658,39.7157,克孜勒苏柯尔克孜自治州,克州文化中心,颗粒物(PM10),500,1768,3565,273,838,75,,82,78,4,2,4,4,0.4,0.4
2025-03-27T2200,1450A,102.8204,24.8886,昆明市,呈贡新区,细颗粒物(PM2.5),58,54,43,41,30,129,,138,136,16,13,6,6,0.4,0.4
2025-03-27T2200,1451A,102.6251,24.9608,昆明市,西山森林公园,,,,,,,,,,,,,,,,
2025-03-27T2200,1452A,102.7252,25.0902,昆明市,龙泉镇,颗粒物(PM10),53,55,43,35,24,116,,134,132,20,47,7,9,0.5,0.6
2025-03-27T2200,1453A,102.7266,25.0375,昆明市,东风东路,细颗粒物(PM2.5),59,52,35,42,24,133,,133,133,14,19,8,12,0.4,0.4
2025-03-27T2200,1454A,102.6742,25.0669,昆明市,金鼎山,细颗粒物(PM2.5),57,41,44,40,25,108,,123,121,26,35,4,6,0.5,0.6
2025-03-27T2200,1455A,102.6644,25.0401,昆明市,碧鸡广场,细颗粒物(PM2.5),54,51,39,38,24,105,,131,126,32,26,7,11,0.4,0.4
2025-03-27T2200,3179A,102.7494,25.0119,昆明市,官渡区博物馆,,49,45,42,34,27,129,,140,137,14,22,8,10,0.4,0.5
2025-03-27T2200,3375A,102.8017,24.8336,昆明市,青年创业园,颗粒物(PM10),51,52,39,31,32,130,,138,136,12,11,7,8,0.4,0.4
2025-03-27T2200,3550A,102.7997,24.9786,昆明市,昆明学院,细颗粒物(PM2.5),58,59,47,41,30,121,,141,135,18,15,6,7,0.4,0.3
2025-03-27T2200,3551A,102.5967,24.6736,昆明市,晋宁区生态环境分局,细颗粒物(PM2.5),77,56,34,56,30,125,,137,136,15,8,9,7,0.6,0.4
2025-03-27T2200,3552A,102.6678,24.9856,昆明市,云天化总部,,45,43,33,29,22,142,,142,141,9,17,4,11,0.5,0.3
2025-03-27T2200,1456A,91.1319,29.6514,拉萨市,八廓街,,36,23,22,17,10,114,,132,130,24,21,9,13,0.7,0.9
2025-03-27T2200,1457A,91.1221,29.6747,拉萨市,市环保局,,43,27,28,12,12,136,,130,130,24,24,12,14,1.3,1
2025-03-27T2200,1458A,91.0874,29.6475,拉萨市,区监测站,,32,20,21,8,10,100,,124,124,33,27,6,11,0.4,0.5
2025-03-27T2200,1459A,91.1774,29.6541,拉萨市,西藏大学,,35,19,18,7,8,111,,125,125,16,14,7,10,1.2,0.9
2025-03-27T2200,1460A,90.9798,29.6588,拉萨市,区辐射站,,31,26,23,14,13,98,,117,116,30,26,7,9,0.6,0.6
2025-03-27T2200,1461A,91.0834,29.6292,拉萨市,拉萨火车站,,39,12,20,7,9,124,,127,127,6,24,3,6,0.2,0.5
2025-03-27T2200,2520A,109.2203,23.7256,来宾市,来宾技工学校,细颗粒物(PM2.5),84,71,59,62,40,103,,126,124,14,14,7,5,1.0,0.8
2025-03-27T2200,3535A,109.1781,23.7297,来宾市,兴宾区政府,细颗粒物(PM2.5),70,78,54,51,35,103,,124,122,12,9,8,8,1.0,0.8
2025-03-27T2200,4002A,109.2416,23.7461,来宾市,中南小学,细颗粒物(PM2.5),67,79,59,48,35,102,,123,121,9,7,6,6,0.9,0.8
2025-03-27T2200,1477A,104.1373,35.9454,兰州市,榆中兰大校区,,,,,,,,,,,,,,,,
2025-03-27T2200,1479A,103.831,36.0464,兰州市,铁路设计院,颗粒物(PM10),57,63,108,18,29,79,,81,79,14,13,9,9,0.4,0.4
2025-03-27T2200,3241A,103.7439,36.0842,兰州市,百合公园,颗粒物(PM10),61,71,111,16,30,65,,81,70,4,3,8,6,0.6,0.4
2025-03-27T2200,3242A,103.9611,35.998,兰州市,和平,颗粒物(PM10),61,71,141,19,43,77,,84,82,10,5,12,13,0.7,0.7
2025-03-27T2200,4236A,103.6293,36.0938,兰州市,庄浪东路808号,颗粒物(PM10),63,76,129,36,41,79,,82,78,10,8,9,9,0.3,0.3
2025-03-27T2200,4237A,103.7251,36.1043,兰州市,安宁西路88号,颗粒物(PM10),68,85,127,29,40,77,,83,80,6,3,8,6,0.3,0.2
2025-03-27T2200,4238A,103.8470,36.0676,兰州市,北滨河东路1号,颗粒物(PM10),64,78,114,34,40,83,,87,85,11,9,13,11,0.6,0.6
2025-03-27T2200,3245A,103.6633,36.533,兰州新区,新区管委会,颗粒物(PM10),66,82,84,32,29,78,,83,83,6,5,7,14,0.3,0.3
2025-03-27T2200,3246A,103.6975,36.4789,兰州新区,舟曲中学,颗粒物(PM10),87,124,129,21,39,79,,85,84,7,5,9,2,0.8,0.7
2025-03-27T2200,1067A,116.6708,39.5111,廊坊市,药材公司,,28,28,83,9,25,63,,83,79,20,8,1,2,0.3,0.3
2025-03-27T2200,1068A,116.7214,39.5589,廊坊市,开发区,颗粒物(PM10),51,51,87,9,20,58,,86,80,31,11,1,1,0.3,0.2
2025-03-27T2200,1070A,116.7244,39.5269,廊坊市,北华航天学院,,29,29,74,13,14,63,,82,78,22,11,2,3,0.3,0.2
2025-03-27T2200,2919A,116.7022,39.5453,廊坊市,河北工业大学,,32,32,81,10,24,62,,86,81,22,6,4,4,0.2,0.2
2025-03-27T2200,2535A,103.7723,29.5462,乐山市,花湖湾,颗粒物(PM10),179,308,135,119,79,108,,170,146,11,21,1,7,0.3,0.5
2025-03-27T2200,2536A,103.7627,29.5844,乐山市,牛耳桥,颗粒物(PM10),180,309,148,94,67,94,,148,125,21,40,9,10,0.4,0.7
2025-03-27T2200,2537A,103.7508,29.6006,乐山市,市第三水厂,颗粒物(PM10),182,314,148,86,67,104,,156,136,12,34,6,7,0.3,0.6
2025-03-27T2200,2538A,103.7571,29.5664,乐山市,市监测站,颗粒物(PM10),179,308,140,89,68,103,,157,136,14,21,8,10,0.5,0.7
2025-03-27T2200,3361A,103.7311,29.5628,乐山市,理工大学,颗粒物(PM10),184,317,145,105,70,106,,164,143,15,25,6,7,0.2,0.5
2025-03-27T2200,2598A,100.2143,26.8576,丽江市,西南郊,,,,,,,,,,,,,,,,
2025-03-27T2200,2599A,100.2497,26.8802,丽江市,丽江古城,,32,32,23,19,13,95,,95,95,11,10,8,8,0.5,0.5
2025-03-27T2200,2600A,100.2203,26.8906,丽江市,市中心,,30,11,16,11,10,94,,94,94,17,16,9,8,0.6,0.6
2025-03-27T2200,1267A,119.914,28.4514,丽水市,监测站大楼,,44,44,89,20,57,97,,165,143,15,30,2,4,0.6,1
2025-03-27T2200,1268A,119.93,28.4586,丽水市,莲都小学,,31,29,92,20,51,97,,166,143,13,37,3,4,0.7,0.8
2025-03-27T2200,1269A,119.879,28.4231,丽水市,余庄前,,39,34,74,27,58,95,,166,131,13,20,3,5,0.8,0.8
2025-03-27T2200,1173A,119.176,34.5885,连云港市,市环境监测站,,27,27,212,14,44,62,,102,79,17,16,7,13,0.4,0.8
2025-03-27T2200,3000A,119.3581,34.6972,连云港市,德源药业,,31,31,213,19,42,51,,107,74,23,16,8,10,0.5,0.6
2025-03-27T2200,3007A,119.178,34.844,连云港市,新城一中,颗粒物(PM10),81,111,159,23,43,57,,80,74,21,32,7,10,0.4,1
2025-03-27T2200,3008A,119.3608,34.7519,连云港市,胡沟管理处,,27,27,123,14,40,40,,93,78,41,27,6,10,0.5,0.6
2025-03-27T2200,3009A,119.1478,34.5911,连云港市,矿山设计院,,29,29,202,19,40,48,,95,76,41,29,6,13,0.4,0.9
2025-03-27T2200,3434A,119.2413,34.6539,连云港市,工贸学校,颗粒物(PM10),65,79,182,24,42,63,,104,77,18,18,7,11,0.5,0.8
2025-03-27T2200,3664A,119.4172,34.7341,连云港市,连云街道,颗粒物(PM10),69,88,173,25,44,60,,96,69,23,26,5,9,0.3,0.5
2025-03-27T2200,2571A,102.3431,27.8099,凉山彝族自治州,青龙寺,,36,36,29,8,8,64,,128,112,28,9,6,7,0.5,0.6
2025-03-27T2200,2572A,102.2721,27.8415,凉山彝族自治州,邛海宾馆,,34,34,31,22,18,66,,130,118,39,23,3,5,0.5,0.5
2025-03-27T2200,2573A,102.2625,27.898,凉山彝族自治州,西昌市政府,,32,32,34,19,22,87,,121,112,9,15,9,12,0.3,0.7
2025-03-27T2200,2574A,102.2685,27.8851,凉山彝族自治州,凉山州政府,,46,46,38,24,20,92,,130,122,17,25,6,8,0.3,0.5
2025-03-27T2200,4229A,102.2342,27.8859,凉山彝族自治州,凯乐南路30号,,46,46,47,22,20,83,,121,114,19,37,9,11,0.4,0.6
2025-03-27T2200,2212A,123.2,41.1953,辽阳市,宏伟区,颗粒物(PM10),67,83,63,21,34,64,,87,79,21,14,15,13,1.0,1
2025-03-27T2200,2213A,123.1683,41.2495,辽阳市,新华园,,,,86,,60,,,70,,,26,,13,,1.0
2025-03-27T2200,2214A,123.2354,41.2639,辽阳市,滨河路,颗粒物(PM10),68,85,61,26,32,48,,80,66,29,17,12,8,0.7,0.6
2025-03-27T2200,2215A,123.149,41.2991,辽阳市,铁西工业园,颗粒物(PM10),65,80,68,33,38,46,,82,66,32,23,10,9,0.8,0.8
2025-03-27T2200,2227A,125.1358,42.8845,辽源市,环保局,,44,44,53,14,24,57,,83,77,25,16,7,11,0.6,0.7
2025-03-27T2200,3239A,125.0764,42.9078,辽源市,银鹰制药,,40,34,46,28,28,30,,87,72,34,14,7,6,0.9,0.8
2025-03-27T2200,1625A,115.9848,36.4372,聊城市,区政府,颗粒物(PM10),104,157,168,38,47,39,,79,70,42,28,7,9,0.5,0.6
2025-03-27T2200,2878A,116.0072,36.4343,聊城市,聊大东校,颗粒物(PM10),101,151,212,29,50,46,,78,70,32,25,6,8,0.5,0.6
2025-03-27T2200,3200A,115.9819,36.4978,聊城市,监控中心,颗粒物(PM10),116,182,203,41,47,13,,74,54,63,31,11,11,0.6,0.6
2025-03-27T2200,3513A,116.0445,36.4361,聊城市,九州社区,颗粒物(PM10),101,151,204,31,45,31,,80,68,45,29,10,11,0.5,0.6
2025-03-27T2200,4018A,116.0567,36.4608,聊城市,星美广场,颗粒物(PM10),112,174,190,41,43,26,,74,63,43,22,10,11,0.6,0.7
2025-03-27T2200,2632A,94.3681,29.6376,林芝市,林芝监测站,,42,42,20,14,9,83,,89,87,3,5,4,5,0.2,0.1
2025-03-27T2200,2633A,94.3616,29.6616,林芝市,林芝人民医院,,41,41,27,15,8,79,,87,85,1,3,7,7,0.1,0.1
2025-03-27T2200,2603A,100.0781,23.8982,临沧市,市环保局,细颗粒物(PM2.5),103,108,62,77,44,119,,160,157,22,15,9,9,0.9,0.7
2025-03-27T2200,2604A,100.0894,23.8822,临沧市,市气象局,细颗粒物(PM2.5),104,83,57,78,50,116,,167,162,23,16,7,7,0.9,0.5
2025-03-27T2200,1733A,111.5531,36.0783,临汾市,临钢医院,颗粒物(PM10),262,393,365,38,52,83,,92,88,2,2,3,4,0.5,0.4
2025-03-27T2200,1734A,111.5028,36.0714,临汾市,技工学校,颗粒物(PM10),141,231,311,55,57,54,,82,75,15,6,6,5,0.5,0.4
2025-03-27T2200,1736A,111.5018,36.0855,临汾市,市委,颗粒物(PM10),180,310,344,40,60,65,,88,84,11,5,2,2,0.5,0.4
2025-03-27T2200,3018A,111.505,36.1014,临汾市,唐尧大酒店,颗粒物(PM10),223,366,320,41,55,80,,85,85,3,4,6,5,0.2,0.3
2025-03-27T2200,4244A,111.4879,36.0530,临汾市,启星学校,颗粒物(PM10),134,217,328,50,64,47,,82,72,13,4,3,2,0.6,0.3
2025-03-27T2200,4271A,103.2464,35.6123,临夏回族自治州,滨河东路1号,颗粒物(PM10),64,77,227,23,60,81,,77,77,3,3,3,4,0.3,0.3
2025-03-27T2200,4310A,103.2093,35.5995,临夏回族自治州,新华街21号,颗粒物(PM10),66,81,201,29,53,74,,77,73,9,6,7,8,0.3,0.3
2025-03-27T2200,1618A,118.3429,35.0532,临沂市,沂河小区,,48,48,178,28,34,51,,82,68,19,14,5,9,0.5,0.6
2025-03-27T2200,1619A,118.295,35.0583,临沂市,鲁南制药厂,,39,39,170,22,30,60,,100,76,24,21,7,10,0.3,0.3
2025-03-27T2200,1620A,118.2794,34.9976,临沂市,新光毛纺厂,,34,34,167,19,30,58,,87,68,26,24,4,7,0.6,0.6
2025-03-27T2200,1621A,118.3956,35.0888,临沂市,河东保险公司,,44,44,164,18,34,57,,84,73,27,24,2,5,0.3,0.4
2025-03-27T2200,3370A,118.3564,35.0215,临沂市,十里堡居委,,41,41,183,22,30,61,,88,73,21,18,1,5,0.6,0.6
2025-03-27T2200,3496A,118.3604,35.1084,临沂市,南坊新区,,46,46,172,22,33,60,,86,72,20,18,4,7,0.5,0.6
2025-03-27T2200,3860A,118.3920,35.0300,临沂市,皇山花园小区,,34,34,209,20,34,62,,87,75,16,14,4,7,0.4,0.4
2025-03-27T2200,1870A,109.4856,24.3895,柳州市,柳东小学,细颗粒物(PM2.5),69,64,52,50,35,104,,130,128,21,14,42,12,0.6,0.5
2025-03-27T2200,1871A,109.4157,24.3277,柳州市,环保监测站,细颗粒物(PM2.5),79,80,62,58,40,100,,121,120,17,11,10,10,1.0,0.8
2025-03-27T2200,1872A,109.389,24.341,柳州市,河西水厂,细颗粒物(PM2.5),68,80,63,49,31,96,,124,121,20,12,7,6,0.8,0.6
2025-03-27T2200,1873A,109.4311,24.2921,柳州市,市四中,细颗粒物(PM2.5),72,77,56,52,33,102,,130,128,22,13,10,8,0.8,0.3
2025-03-27T2200,1874A,109.4006,24.3631,柳州市,市九中,颗粒物(PM10),67,84,67,47,35,102,,124,122,14,10,9,8,0.9,0.7
2025-03-27T2200,1875A,109.4958,24.3134,柳州市,古亭山,,,65,59,43,33,,,137,137,19,10,8,8,0.8,0.7
2025-03-27T2200,3402A,109.5422,24.3996,柳州市,市二中,细颗粒物(PM2.5),64,64,55,46,35,107,,134,132,13,11,11,12,0.5,0.4
2025-03-27T2200,2307A,116.5079,31.737,六安市,监测大楼,颗粒物(PM10),134,218,125,42,50,54,,108,68,10,18,4,7,0.3,0.7
2025-03-27T2200,2308A,116.4738,31.7643,六安市,皖西学院,颗粒物(PM10),139,227,154,42,52,62,,104,70,16,17,4,6,0.4,0.6
2025-03-27T2200,2309A,116.4996,31.7905,六安市,朝阳厂,颗粒物(PM10),106,161,122,38,49,51,,99,68,13,18,3,5,0.4,0.6
2025-03-27T2200,2310A,116.5567,31.7886,六安市,开发区,颗粒物(PM10),146,241,165,45,53,65,,103,67,14,22,3,5,0.4,0.7
2025-03-27T2200,2576A,104.8,26.5892,六盘水市,窑上,,,,38,38,23,108,,145,137,6,7,6,7,0.5,0.5
2025-03-27T2200,2577A,104.83,26.5917,六盘水市,黄土坡,颗粒物(PM10),61,72,38,25,20,104,,152,147,29,15,11,12,0.6,0.5
2025-03-27T2200,2578A,104.89,26.5939,六盘水市,水钢,颗粒物(PM10),71,91,58,43,25,136,,152,152,25,12,16,11,0.3,0.4
2025-03-27T2200,2579A,104.8475,26.5894,六盘水市,民中,细颗粒物(PM2.5),62,69,42,44,19,110,,151,148,36,17,14,11,0.9,0.5
2025-03-27T2200,2580A,104.9544,26.5506,六盘水市,双水,颗粒物(PM10),52,53,44,33,19,150,,157,157,13,15,12,11,0.5,0.5
2025-03-27T2200,2335A,117.0189,25.1181,龙岩市,龙岩师专,,,,,,,,,,,,,,,,
2025-03-27T2200,2336A,117.0217,25.1033,龙岩市,龙岩市监测站,,50,50,54,34,34,43,,109,87,34,22,10,10,0.5,0.5
2025-03-27T2200,2337A,117.0258,25.0661,龙岩市,闽西职业技术学院,颗粒物(PM10),57,64,61,30,37,41,,104,78,37,23,37,32,0.6,0.6
2025-03-27T2200,2338A,117.0196,25.0306,龙岩市,龙岩学院,,46,37,38,32,27,56,,112,91,18,9,4,3,0.4,0.5
2025-03-27T2200,2665A,105.0822,33.3261,陇南市,汉王镇固水子,,,,,,,,,,,,,,,,
2025-03-27T2200,2885A,104.9339,33.3826,陇南市,滨江中学,颗粒物(PM10),89,128,292,44,66,75,,83,79,3,2,5,6,0.4,0.4
2025-03-27T2200,3247A,104.955,33.371,陇南市,市总工会,颗粒物(PM10),84,118,276,29,78,80,,87,84,2,2,6,7,0.3,0.3
2025-03-27T2200,2487A,111.9589,27.8901,娄底市,电视发射台,颗粒物(PM10),134,217,132,45,53,90,,129,117,11,10,7,8,0.5,0.6
2025-03-27T2200,2488A,111.9975,27.725,娄底市,市监测站,颗粒物(PM10),116,181,121,32,57,92,,139,122,16,31,12,17,0.4,0.7
2025-03-27T2200,2489A,112.0194,27.7314,娄底市,市委党校,颗粒物(PM10),122,193,116,49,59,93,,134,120,7,10,4,5,0.5,0.7
2025-03-27T2200,2490A,111.9561,27.7569,娄底市,涟钢,颗粒物(PM10),122,193,132,53,67,87,,128,114,16,22,3,12,0.9,1.5
2025-03-27T2200,2491A,111.9892,27.7044,娄底市,市政府,颗粒物(PM10),111,172,115,48,59,93,,136,121,9,12,8,10,0.3,0.5
2025-03-27T2200,1893A,105.4324,28.9634,泸州市,九狮山,,,,,,,,,,,,,,,,
2025-03-27T2200,1894A,105.4427,28.9063,泸州市,小市上码头,颗粒物(PM10),192,333,126,107,68,99,,161,137,16,23,8,11,0.4,0.6
2025-03-27T2200,1895A,105.4241,28.8573,泸州市,兰田宪桥,细颗粒物(PM2.5),147,182,99,112,75,93,,149,131,19,18,8,10,0.4,0.6
2025-03-27T2200,1896A,105.4379,28.8833,泸州市,市环监站,,,,,,,,,,,,,,,,
2025-03-27T2200,4272A,105.3689,28.7783,泸州市,纳溪中医医院,颗粒物(PM10),191,331,144,72,53,104,,150,129,11,26,7,9,0.4,0.7
2025-03-27T2200,2183A,111.1406,37.5211,吕梁市,环保局,颗粒物(PM10),500,663,384,128,78,79,,90,88,2,3,3,2,0.3,0.3
2025-03-27T2200,2185A,111.1297,37.5136,吕梁市,自来水公司,颗粒物(PM10),500,620,365,117,71,82,,92,90,3,4,3,2,0.2,0.2
2025-03-27T2200,2867A,111.1283,37.51,吕梁市,马茂庄小学,颗粒物(PM10),500,697,408,125,85,82,,92,91,4,5,3,3,0.2,0.2
2025-03-27T2200,1812A,112.3931,34.6516,洛阳市,市委党校,颗粒物(PM10),95,140,177,49,51,57,,72,61,13,23,2,4,0.4,0.5
2025-03-27T2200,1815A,112.494,34.6886,洛阳市,河南林校,颗粒物(PM10),112,173,192,55,55,59,,76,63,13,18,5,4,0.5,0.6
2025-03-27T2200,1816A,112.3844,34.623,洛阳市,开发区管委会,颗粒物(PM10),101,151,176,51,56,67,,80,67,10,20,3,5,0.2,0.3
2025-03-27T2200,1817A,112.4267,34.6258,洛阳市,市委新办公区,颗粒物(PM10),102,154,174,54,53,66,,80,66,14,23,3,5,0.2,0.3
2025-03-27T2200,3340A,112.6005,34.6326,洛阳市,伊滨,颗粒物(PM10),95,140,160,47,52,64,,78,68,13,24,4,6,0.5,0.7
2025-03-27T2200,3341A,112.4951,34.6332,洛阳市,中移产业园,颗粒物(PM10),113,176,213,61,62,59,,69,60,11,22,5,7,0.2,0.4
2025-03-27T2200,3593A,112.5736,34.8993,洛阳市,吉利监测站,颗粒物(PM10),131,211,228,52,54,71,,84,78,12,25,5,7,0.4,0.5
2025-03-27T2200,3635A,112.3677,34.662,洛阳市,河科大西苑校区,颗粒物(PM10),99,147,191,45,47,56,,73,61,14,23,5,7,0.3,0.4
2025-03-27T2200,3636A,112.4388,34.6781,洛阳市,英才小学,颗粒物(PM10),111,171,193,52,49,58,,74,62,18,25,6,7,0.4,0.5
2025-03-27T2200,4214A,112.4600,34.6949,洛阳市,春都路1号院,颗粒物(PM10),114,178,203,44,46,62,,80,66,12,23,9,8,0.7,0.7
2025-03-27T2200,2399A,114.051,33.5699,漯河市,三五一五工厂,颗粒物(PM10),59,68,200,21,49,59,,84,77,13,15,5,5,0.4,0.4
2025-03-27T2200,2400A,114.0055,33.5698,漯河市,漯河大学,颗粒物(PM10),62,74,179,31,39,56,,88,76,17,17,7,6,0.4,0.4
2025-03-27T2200,2401A,114.0138,33.5828,漯河市,市水利局,颗粒物(PM10),59,68,186,31,43,56,,87,75,15,15,5,4,0.4,0.4
2025-03-27T2200,2402A,114.0261,33.5698,漯河市,市广电局,颗粒物(PM10),62,73,179,32,36,55,,84,73,13,14,6,5,0.4,0.4
2025-03-27T2200,3478A,113.9749,33.5664,漯河市,市图书馆,颗粒物(PM10),52,53,175,28,44,54,,92,78,14,15,5,4,0.5,0.5
2025-03-27T2200,4250A,114.0892,33.5882,漯河市,韶山路11号,,39,39,162,21,44,64,,83,76,9,14,4,4,0.3,0.5
2025-03-27T2200,1798A,118.5092,31.6837,马鞍山市,湖东路四小,颗粒物(PM10),192,333,139,54,50,79,,106,87,16,23,6,10,0.5,0.9
2025-03-27T2200,1799A,118.5024,31.6449,马鞍山市,开发区,颗粒物(PM10),195,339,144,52,50,73,,105,87,25,29,2,6,0.6,1
2025-03-27T2200,1802A,118.6245,31.7241,马鞍山市,濮塘,细颗粒物(PM2.5),112,,132,84,55,82,,114,93,11,16,7,10,0.3,0.7
2025-03-27T2200,3633A,118.4918,31.6809,马鞍山市,雨山,颗粒物(PM10),198,345,145,60,47,78,,102,83,19,27,7,11,0.7,1.1
2025-03-27T2200,4191A,118.5274,31.72227,马鞍山市,慈湖高新区,颗粒物(PM10),187,324,139,58,50,82,,104,87,14,27,6,10,0.6,0.9
2025-03-27T2200,1686A,111.0286,21.4688,茂名市,电白南海,,41,41,35,22,22,34,,46,40,6,8,1,1,0.7,0.7
2025-03-27T2200,1687A,110.9294,21.6533,茂名市,茂石化七小,,29,29,34,12,15,25,,46,33,2,3,1,1,0.7,0.7
2025-03-27T2200,1688A,110.9107,21.6687,茂名市,健康路,,34,34,35,17,14,33,,57,44,5,6,2,2,0.5,0.5
2025-03-27T2200,1689A,110.8592,21.6828,茂名市,高岭,,36,36,45,9,14,28,,56,41,7,7,2,3,0.5,0.5
2025-03-27T2200,3450A,111.01,21.5165,茂名市,电白水东,,27,27,28,12,11,35,,48,39,11,5,1,2,0.5,0.4
2025-03-27T2200,2539A,104.0308,30.0478,眉山市,黑龙滩水库,颗粒物(PM10),179,307,144,63,40,93,,129,121,2,8,2,3,0.4,0.6
2025-03-27T2200,2540A,103.8416,30.0874,眉山市,气象局,颗粒物(PM10),239,377,208,90,84,91,,138,121,12,36,5,8,0.3,0.6
2025-03-27T2200,3137A,103.8578,30.0744,眉山市,市委党校,颗粒物(PM10),220,364,187,90,70,,,130,122,9,37,3,15,0.3,0.6
2025-03-27T2200,3148A,103.8291,30.0564,眉山市,区人社局,颗粒物(PM10),167,283,153,80,67,89,,136,119,17,40,3,12,0.4,0.7
2025-03-27T2200,1690A,116.1231,24.3284,梅州市,梅江月梅,,41,41,36,27,26,68,,102,94,17,12,5,6,0.5,0.5
2025-03-27T2200,1691A,116.0797,24.2719,梅州市,梅县新城,颗粒物(PM10),51,51,40,28,26,59,,101,86,25,22,6,7,0.4,0.4
2025-03-27T2200,1692A,116.1248,24.2654,梅州市,环境监控中心,,36,35,36,25,28,65,,100,93,21,20,8,8,0.6,0.6
2025-03-27T2200,3315A,116.1233,24.2991,梅州市,梅龙,,48,48,34,27,22,50,,100,89,30,13,8,9,0.6,0.5
2025-03-27T2200,1878A,104.7778,31.4741,绵阳市,富乐山,颗粒物(PM10),165,280,234,71,69,87,,93,92,6,16,2,3,0.4,0.5
2025-03-27T2200,1880A,104.6697,31.4668,绵阳市,高新区自来水公司,颗粒物(PM10),148,245,274,53,72,86,,93,90,10,26,2,3,0.2,0.3
2025-03-27T2200,1881A,104.7287,31.5075,绵阳市,三水厂,颗粒物(PM10),180,310,271,77,78,96,,103,100,5,21,5,6,0.3,0.4
2025-03-27T2200,3491A,104.69,31.5322,绵阳市,西科大附属小学,颗粒物(PM10),149,247,272,58,78,88,,90,,6,19,6,6,0.4,0.5
2025-03-27T2200,3492A,104.5648,31.5343,绵阳市,安州区旅游局,颗粒物(PM10),146,242,257,46,62,76,,85,82,7,16,7,9,0.1,0.3
2025-03-27T2200,4226A,104.7651,31.4531,绵阳市,绵阳市气象局,颗粒物(PM10),147,244,270,50,63,70,,78,72,5,19,3,5,0.3,0.5
2025-03-27T2200,1784A,129.61,44.561,牡丹江市,环保大楼,,33,25,40,23,31,62,,64,64,19,15,7,6,0.3,0.4
2025-03-27T2200,1785A,129.6115,44.5782,牡丹江市,文化广场,,23,21,34,16,28,61,,66,66,22,15,10,11,0.4,0.5
2025-03-27T2200,1786A,129.5904,44.5963,牡丹江市,第一医院,,28,28,33,15,33,67,,67,67,15,16,10,11,0.1,0.1
2025-03-27T2200,1787A,129.6364,44.6075,牡丹江市,机车工厂,,32,32,45,12,32,57,,69,68,21,18,10,19,0.4,0.5
2025-03-27T2200,1788A,129.6386,44.5462,牡丹江市,第一中学,,39,,32,27,27,61,,68,67,20,14,9,8,0.4,0.5
2025-03-27T2200,2531A,105.0703,29.61,内江市,市监测站,颗粒物(PM10),169,287,127,107,66,88,,127,116,11,19,3,9,0.4,0.2
2025-03-27T2200,2532A,105.0717,29.5947,内江市,东兴区政府,颗粒物(PM10),168,286,153,94,67,82,,120,112,13,22,4,8,0.4,0.6
2025-03-27T2200,2533A,105.0653,29.5817,内江市,内江二中,颗粒物(PM10),180,309,157,121,79,85,,122,115,11,23,8,11,0.2,0.4
2025-03-27T2200,2534A,105.0406,29.5822,内江市,内江日报社,颗粒物(PM10),223,366,179,99,69,87,,124,116,10,20,5,9,0.3,0.5
2025-03-27T2200,2628A,92.0657,31.4846,那曲市,那曲监测站,,28,26,46,17,23,87,,107,106,20,17,12,11,0.9,1
2025-03-27T2200,4243A,92.0515,31.4787,那曲市,那曲市委宣传部,,36,,43,14,27,113,,117,117,8,16,4,7,0.5,0.8
2025-03-27T2200,1290A,115.8931,28.6843,南昌市,省外办,颗粒物(PM10),122,194,97,46,48,88,,138,105,18,27,6,8,0.6,0.8
2025-03-27T2200,1291A,115.8886,28.7003,南昌市,省林业公司,颗粒物(PM10),148,246,115,53,47,91,,137,107,6,20,7,9,0,0.2
2025-03-27T2200,1292A,115.8126,28.7442,南昌市,林科所,颗粒物(PM10),147,244,91,41,44,95,,150,113,13,32,2,4,0.3,0.4
2025-03-27T2200,1294A,115.8518,28.687,南昌市,建工学校,颗粒物(PM10),165,280,109,60,55,91,,140,110,8,25,3,5,0.5,0.8
2025-03-27T2200,1295A,115.8921,28.6424,南昌市,象湖,颗粒物(PM10),124,198,90,44,45,101,,164,127,7,17,7,9,0.6,0.9
2025-03-27T2200,1296A,115.7423,28.7996,南昌市,武术学校,颗粒物(PM10),86,122,63,28,41,89,,140,107,8,11,10,12,0.6,0.8
2025-03-27T2200,3046A,115.9084,28.6062,南昌市,机电学校,颗粒物(PM10),144,238,114,41,47,89,,152,115,13,20,3,7,0.5,0.8
2025-03-27T2200,3690A,115.9721,28.7031,南昌市,外国语学校,颗粒物(PM10),112,174,96,51,46,92,,152,112,10,15,3,4,0.2,0.3
2025-03-27T2200,4192A,115.9316,28.68677,南昌市,南京东路235号,细颗粒物(PM2.5),64,,87,46,45,94,,150,116,12,23,1,6,0.4,0.7
2025-03-27T2200,1905A,106.056,30.8064,南充市,西山风景区,颗粒物(PM10),184,318,218,81,70,87,,124,106,3,5,3,6,0.1,0.2
2025-03-27T2200,1906A,106.0789,30.8023,南充市,南充市委,颗粒物(PM10),260,392,255,108,85,83,,106,100,11,23,3,5,0.4,0.6
2025-03-27T2200,1907A,106.1031,30.8217,南充市,南充炼油厂,颗粒物(PM10),233,373,270,94,87,76,,100,93,9,14,3,6,0.3,0.4
2025-03-27T2200,1909A,106.0642,30.7636,南充市,嘉陵区环保局,颗粒物(PM10),250,385,271,88,82,75,,97,91,8,30,3,5,0.1,0.4
2025-03-27T2200,4227A,106.1083,30.7884,南充市,梨树横街98号,颗粒物(PM10),259,391,251,64,24,82,,104,99,10,21,4,7,0.2,0.4
2025-03-27T2200,4304A,106.1172,30.843,南充市,清泉寺北路188号,颗粒物(PM10),276,403,283,87,78,82,,106,100,11,14,6,9,0.2,0.3
2025-03-27T2200,1151A,118.8086,32.1065,南京市,迈皋桥,颗粒物(PM10),128,205,132,48,46,73,,108,83,19,26,4,5,0.3,0.6
2025-03-27T2200,1152A,118.7538,32.0551,南京市,草场门,颗粒物(PM10),168,285,156,,45,77,,104,83,21,22,6,10,0.6,0.8
2025-03-27T2200,1153A,118.7794,32.0745,南京市,山西路,颗粒物(PM10),183,315,244,44,46,67,,82,72,20,28,4,5,0.4,0.8
2025-03-27T2200,1154A,118.7752,32.0023,南京市,中华门,颗粒物(PM10),161,271,163,53,45,68,,92,73,15,13,8,11,0.4,0.6
2025-03-27T2200,1155A,118.8109,32.0309,南京市,瑞金路,颗粒物(PM10),162,273,171,51,48,72,,97,78,6,29,6,6,0.6,0.7
2025-03-27T2200,1156A,118.7997,32.0754,南京市,玄武湖,颗粒物(PM10),171,291,153,44,43,72,,100,80,16,19,4,6,0.4,0.7
2025-03-27T2200,1157A,118.6414,32.0931,南京市,浦口,颗粒物(PM10),186,321,158,44,40,76,,116,88,19,18,9,10,0.5,0.5
2025-03-27T2200,1158A,118.7356,31.9996,南京市,奥体中心,颗粒物(PM10),171,292,156,53,46,76,,104,84,18,24,6,9,0.4,0.7
2025-03-27T2200,1159A,118.9125,32.1028,南京市,仙林大学城,颗粒物(PM10),173,295,180,48,49,66,,100,77,19,25,8,11,0.7,0.9
2025-03-27T2200,3422A,118.8436,31.9198,南京市,江宁彩虹桥,颗粒物(PM10),180,309,157,53,44,78,,107,83,11,29,4,4,0.4,0.6
2025-03-27T2200,3427A,118.8554,32.3578,南京市,六合雄州,颗粒物(PM10),134,218,141,31,44,69,,97,78,10,20,6,7,0.4,0.7
2025-03-27T2200,4249A,118.8708,31.3402,南京市,汶溪路181号,颗粒物(PM10),185,320,108,60,41,83,,126,89,15,17,3,6,0.6,0.8
2025-03-27T2200,4312A,119.019,31.6512,南京市,中山西路1号,颗粒物(PM10),136,222,117,56,43,86,,119,89,12,15,4,5,0.3,0.5
2025-03-27T2200,1401A,108.3103,22.7881,南宁市,二十一中,颗粒物(PM10),71,91,48,32,25,89,,123,116,11,15,5,7,0.7,0.6
2025-03-27T2200,1402A,108.3141,22.8528,南宁市,北湖,细颗粒物(PM2.5),65,66,45,47,30,87,,125,112,11,16,5,8,0.7,0.6
2025-03-27T2200,1403A,108.3206,22.8225,南宁市,市监测站,"颗粒物(PM10),细颗粒物(PM2.5)",54,57,44,38,28,83,,115,108,10,14,5,8,0.7,0.6
2025-03-27T2200,1404A,108.3829,22.8037,南宁市,大自然花园,细颗粒物(PM2.5),53,54,44,37,28,86,,118,111,6,10,5,6,0.9,0.8
2025-03-27T2200,1405A,108.4394,22.7904,南宁市,仙葫,,49,47,43,34,29,72,,102,97,9,11,2,3,0.5,0.4
2025-03-27T2200,1406A,108.2397,22.8467,南宁市,区农职院,,,56,52,35,30,82,,122,114,,19,6,6,0.8,0.7
2025-03-27T2200,1407A,108.3275,22.735,南宁市,英华嘉园,颗粒物(PM10),57,64,46,34,27,79,,117,109,17,18,8,9,0.6,0.5
2025-03-27T2200,3401A,108.4834,22.7618,南宁市,红星社区,细颗粒物(PM2.5),52,,34,36,30,78,,109,103,7,11,8,9,0.8,0.7
2025-03-27T2200,4221A,108.2177,22.7774,南宁市,乐贤路16号,颗粒物(PM10),57,63,58,30,30,70,,117,102,17,23,6,10,0.8,0.7
2025-03-27T2200,2331A,118.0966,26.6761,南平市,茫荡山,,,,,,,,,,,,,,,,
2025-03-27T2200,2332A,118.1681,26.6369,南平市,南平市监测站,细颗粒物(PM2.5),64,50,64,46,50,58,,140,113,17,24,4,4,0.8,1
2025-03-27T2200,2333A,118.1825,26.6489,南平市,南平铝业有限公司,细颗粒物(PM2.5),67,52,67,48,55,57,,134,110,21,25,7,7,0.8,0.9
2025-03-27T2200,2334A,118.1756,26.6272,南平市,南平七中,细颗粒物(PM2.5),54,49,64,38,51,56,,135,109,14,20,4,5,0.7,0.9
2025-03-27T2200,1168A,120.9098,31.9663,南通市,狼山街道,颗粒物(PM10),90,130,103,22,39,86,,114,94,13,38,6,7,0.4,0.6
2025-03-27T2200,1169A,120.86,32.0005,南通市,虹桥,,,,107,30,46,81,,108,89,14,29,5,7,0.6,0.8
2025-03-27T2200,1170A,120.87,32.02,南通市,城中,颗粒物(PM10),98,146,117,25,41,80,,105,87,16,29,7,9,0.5,0.8
2025-03-27T2200,1171A,120.94,31.93,南通市,星湖花园,颗粒物(PM10),85,120,98,27,43,76,,103,86,14,40,7,8,0.3,0.5
2025-03-27T2200,1172A,120.81,32.0417,南通市,紫琅学院,,,137,112,22,43,83,,104,87,,29,3,4,0.7,1
2025-03-27T2200,3291A,121.067,32.062,南通市,通州监测站,颗粒物(PM10),81,112,108,17,42,87,,114,95,11,27,4,6,0.5,0.8
2025-03-27T2200,3432A,120.9348,31.9883,南通市,环境教育馆,颗粒物(PM10),81,112,106,21,42,87,,115,95,8,34,6,8,0.3,0.5
2025-03-27T2200,2404A,112.5224,33.0122,南阳市,瓦房庄,颗粒物(PM10),73,96,180,21,44,83,,106,81,8,11,3,3,0.4,0.5
2025-03-27T2200,2405A,112.5003,32.9735,南阳市,汉画馆,颗粒物(PM10),68,86,182,22,45,81,,103,80,10,16,3,6,0.2,0.4
2025-03-27T2200,2406A,112.5573,33.027,南阳市,气象站,颗粒物(PM10),74,98,196,19,39,77,,101,76,11,15,3,6,0.4,0.5
2025-03-27T2200,2407A,112.5481,32.9689,南阳市,理工学院,颗粒物(PM10),75,100,191,17,43,85,,100,82,8,13,2,4,0.3,0.4
2025-03-27T2200,4008A,112.5234,32.9922,南阳市,卧龙区政府,颗粒物(PM10),76,102,205,28,45,86,,109,84,6,12,3,5,0.3,0.4
2025-03-27T2200,1234A,121.8358,29.911,宁波市,区环保大楼,颗粒物(PM10),69,88,79,38,36,76,,118,98,21,57,8,12,0.5,0.7
2025-03-27T2200,1235A,121.56,29.82,宁波市,万里学院,颗粒物(PM10),77,103,66,22,37,83,,138,108,11,21,7,10,0.5,0.7
2025-03-27T2200,1236A,121.713,29.9572,宁波市,龙赛医院,颗粒物(PM10),81,112,82,25,37,82,,120,104,12,38,8,11,0.5,0.7
2025-03-27T2200,1239A,121.633,29.7733,宁波市,钱湖水厂,颗粒物(PM10),74,98,58,24,34,83,,136,114,15,17,8,8,0.5,0.7
2025-03-27T2200,1240A,121.5856,29.8635,宁波市,太古小学,颗粒物(PM10),75,99,71,20,34,86,,130,110,10,20,8,9,0.5,0.9
2025-03-27T2200,1241A,121.524,29.8674,宁波市,市环境监测中心,颗粒物(PM10),72,94,67,26,40,79,,129,106,20,31,7,8,0.6,0.9
2025-03-27T2200,2871A,121.6147,29.9017,宁波市,万里国际学校,颗粒物(PM10),64,78,72,20,33,82,,127,105,11,19,8,8,0.5,0.7
2025-03-27T2200,3710A,121.5594,29.8975,宁波市,白沙活动中心,颗粒物(PM10),65,79,58,28,37,86,,132,110,13,22,6,7,0.4,0.6
2025-03-27T2200,2339A,119.5001,26.6946,宁德市,金涵水库,,,,,,,,,,,,,,,,
2025-03-27T2200,2341A,119.5388,26.6612,宁德市,宁德市监测站,细颗粒物(PM2.5),62,67,72,44,55,51,,122,95,54,48,5,6,0.6,0.7
2025-03-27T2200,3209A,119.5231,26.6562,宁德市,宁德一中,细颗粒物(PM2.5),80,84,72,59,53,50,,126,101,41,26,6,7,0.6,0.7
2025-03-27T2200,2618A,98.8601,25.8567,怒江傈僳族自治州,州监测站,细颗粒物(PM2.5),88,95,42,65,28,137,,138,138,9,7,7,6,0.7,0.5
2025-03-27T2200,2619A,98.8546,25.8417,怒江傈僳族自治州,泸水一中,细颗粒物(PM2.5),65,52,36,47,26,128,,124,124,12,11,7,6,0.7,0.4
2025-03-27T2200,1888A,101.6891,26.571,攀枝花市,弄弄坪,,49,49,48,28,23,87,,130,117,22,30,12,16,0.5,1.3
2025-03-27T2200,1889A,101.5769,26.5928,攀枝花市,河门口,,40,40,43,20,18,72,,121,112,29,23,13,16,0.9,0.7
2025-03-27T2200,1890A,101.7169,26.585,攀枝花市,炳草岗,颗粒物(PM10),66,82,47,26,20,42,,140,113,64,37,12,14,0.5,0.7
2025-03-27T2200,1891A,101.7369,26.5008,攀枝花市,仁和,颗粒物(PM10),52,54,31,28,18,65,,132,110,25,17,9,9,0.7,0.5
2025-03-27T2200,2835A,101.7227,26.567,攀枝花市,四十中小,,45,45,38,29,21,91,,134,113,31,28,11,14,0.2,0.2
2025-03-27T2200,1604A,122.0303,41.1489,盘锦市,开发区,颗粒物(PM10),79,108,63,10,22,83,,89,88,4,15,6,11,0.4,0.5
2025-03-27T2200,1605A,122.0485,41.0883,盘锦市,兴隆台,颗粒物(PM10),79,108,60,10,21,84,,84,83,8,18,5,6,0.4,0.5
2025-03-27T2200,1606A,121.8297,41.1028,盘锦市,新生街道,颗粒物(PM10),64,78,50,10,23,53,,86,75,34,30,6,8,0.5,0.6
2025-03-27T2200,1832A,113.3257,33.742,平顶山市,新华旅馆,颗粒物(PM10),125,199,166,36,36,72,,88,73,11,17,4,5,0.2,0.4
2025-03-27T2200,1833A,113.2919,33.737,平顶山市,规划设计院,颗粒物(PM10),105,160,154,44,38,70,,94,72,6,14,4,6,0.3,0.4
2025-03-27T2200,1834A,113.182,33.774,平顶山市,平顶山工学院,颗粒物(PM10),97,143,151,44,35,64,,91,73,8,16,4,5,0.6,0.7
2025-03-27T2200,3204A,113.3025,33.73,平顶山市,规划局,颗粒物(PM10),124,197,182,32,43,71,,93,73,7,15,4,5,0.5,0.5
2025-03-27T2200,3594A,112.8867,33.9116,平顶山市,石龙区,颗粒物(PM10),143,236,237,45,45,76,,86,78,8,23,3,9,0.2,0.3
2025-03-27T2200,2656A,106.6692,35.5461,平凉市,聚贤嘉苑,颗粒物(PM10),58,66,203,19,40,81,,92,88,6,4,6,7,0.3,0.3
2025-03-27T2200,2657A,106.7021,35.5307,平凉市,博物馆,颗粒物(PM10),62,74,203,18,40,76,,88,84,7,5,9,11,0.3,0.4
2025-03-27T2200,2347A,114.0997,27.5002,萍乡市,武功山,颗粒物(PM10),93,136,70,65,49,96,,126,122,17,10,14,16,0.8,0.7
2025-03-27T2200,2348A,113.8385,27.6434,萍乡市,中医院,颗粒物(PM10),106,161,93,59,45,76,,148,124,28,16,17,15,1.0,1.1
2025-03-27T2200,2349A,113.8493,27.6253,萍乡市,市政府车库,颗粒物(PM10),100,150,83,49,56,84,,143,124,23,16,10,10,0.6,0.8
2025-03-27T2200,2350A,113.8676,27.6435,萍乡市,市环保局,颗粒物(PM10),96,142,94,60,55,81,,148,128,26,16,11,11,0.7,0.9
2025-03-27T2200,2351A,113.866,27.6198,萍乡市,安源区政府,颗粒物(PM10),102,154,89,63,48,84,,143,125,22,16,11,14,0.7,0.8
2025-03-27T2200,2319A,119.0141,25.4325,莆田市,荔城区仓后路,颗粒物(PM10),56,61,50,39,24,25,,97,67,35,18,3,2,0.6,0.5
2025-03-27T2200,2320A,119.0015,25.4553,莆田市,莆田市监测站,细颗粒物(PM2.5),59,53,46,42,24,36,,102,74,26,16,4,4,0.5,0.4
2025-03-27T2200,2321A,119.1119,25.4561,莆田市,涵江区六中,"颗粒物(PM10),细颗粒物(PM2.5)",52,53,44,36,23,39,,95,68,27,22,5,5,0.4,0.4
2025-03-27T2200,2322A,119.1013,25.3215,莆田市,秀屿区政府,,46,33,30,32,18,53,,89,71,15,13,6,6,0.4,0.4
2025-03-27T2200,2323A,118.981,25.4792,莆田市,东圳水库,,,,,,,,,,,,,,,,
2025-03-27T2200,2392A,115.0312,35.7636,濮阳市,环保局,颗粒物(PM10),60,69,142,21,38,59,,86,75,17,20,3,4,0.8,0.7
2025-03-27T2200,2394A,115.0574,35.7609,濮阳市,油田运输公司,颗粒物(PM10),56,61,158,22,38,64,,90,79,16,19,3,4,0.5,0.7
2025-03-27T2200,3021A,115,35.7668,濮阳市,濮水河管理处,颗粒物(PM10),56,61,170,20,36,57,,88,74,24,27,4,6,0.7,0.7
2025-03-27T2200,4216A,115.0924,35.7686,濮阳市,任丘路479号,颗粒物(PM10),64,78,171,17,36,69,,94,87,13,17,5,6,0.8,0.7
2025-03-27T2200,2601A,100.98,22.7633,普洱市,市环保局,细颗粒物(PM2.5),109,157,98,82,45,136,,173,169,17,16,5,5,1.1,0.8
2025-03-27T2200,2602A,100.9817,22.8322,普洱市,普洱第二中学,细颗粒物(PM2.5),128,,,97,49,,,168,168,36,28,8,7,1.1,0.6
2025-03-27T2200,2262A,131.0518,45.8751,七台河市,新一中,,27,14,16,8,11,84,,90,89,9,11,11,11,0.6,0.6
2025-03-27T2200,3345A,131.0577,45.7879,七台河市,中波台,,23,16,17,11,14,72,,78,78,13,13,5,5,0.4,0.4
2025-03-27T2200,3637A,131.0176,45.7761,七台河市,人民广场,,32,32,26,22,23,65,,80,77,19,13,6,6,0.7,0.5
2025-03-27T2200,3684A,130.8781,45.8222,七台河市,新建矿广场,,38,,23,26,29,62,,76,70,12,18,8,10,0.5,0.6
2025-03-27T2200,1779A,123.9305,47.3636,齐齐哈尔市,安居小区,,,11,16,,,58,,85,73,12,8,3,2,0.3,0.2
2025-03-27T2200,1780A,123.9488,47.3386,齐齐哈尔市,中心广场,,22,22,19,15,7,57,,80,68,10,7,4,5,0.4,0.3
2025-03-27T2200,1781A,123.9483,47.3227,齐齐哈尔市,农牧车辆厂,,27,27,17,9,7,64,,86,77,8,6,4,4,0.3,0.2
2025-03-27T2200,1783A,123.945,47.2988,齐齐哈尔市,市环境监测站,,21,20,19,10,6,65,,84,75,8,6,2,2,0.3,0.3
2025-03-27T2200,3662A,123.6333,47.2075,齐齐哈尔市,富区青少年活动中心,,31,31,18,3,9,66,,78,68,8,7,6,6,0.4,0.3
2025-03-27T2200,2591A,107.9783,26.5747,黔东南苗族侗族自治州,市环境监测站,细颗粒物(PM2.5),64,58,64,46,51,126,,144,140,9,10,3,4,0.5,0.6
2025-03-27T2200,2881A,107.8908,26.5311,黔东南苗族侗族自治州,凯里学院,细颗粒物(PM2.5),68,61,72,49,57,128,,147,145,6,6,2,4,0.5,0.6
2025-03-27T2200,2593A,107.5228,26.2403,黔南布依族苗族自治州,小围寨,细颗粒物(PM2.5),64,51,60,46,46,142,,148,145,7,7,2,5,0.8,0.9
2025-03-27T2200,3538A,107.5175,26.2978,黔南布依族苗族自治州,沙坝,细颗粒物(PM2.5),62,68,64,44,49,133,,140,135,8,10,6,7,0.7,0.7
2025-03-27T2200,2589A,104.9022,25.0925,黔西南布依族苗族自治州,场坝街,细颗粒物(PM2.5),80,87,37,59,29,128,,162,150,13,10,5,4,0.4,0.4
2025-03-27T2200,2590A,104.8811,25.0992,黔西南布依族苗族自治州,坪东大道,细颗粒物(PM2.5),67,56,35,48,29,110,,151,127,21,18,5,3,0.4,0.3
2025-03-27T2200,2502A,108.6236,21.9667,钦州市,市环保站,颗粒物(PM10),51,51,44,24,17,56,,92,81,23,17,9,9,0.7,0.7
2025-03-27T2200,2503A,108.6549,21.9481,钦州市,沙埠小学,,38,38,48,26,25,59,,93,81,19,16,6,8,0.6,0.8
2025-03-27T2200,2504A,108.5989,21.7431,钦州市,港区一小,,49,49,58,26,21,55,,75,69,30,24,8,9,0.8,0.6
2025-03-27T2200,3404A,108.5959,21.9633,钦州市,北职校,颗粒物(PM10),52,54,46,32,22,57,,88,77,22,15,13,9,0.8,0.7
2025-03-27T2200,1043A,119.7493,40.0116,秦皇岛市,第一关,颗粒物(PM10),55,60,126,28,40,68,,88,83,23,26,2,3,0.2,0.3
2025-03-27T2200,1044A,119.5897,39.9499,秦皇岛市,监测站,颗粒物(PM10),52,53,116,29,29,76,,93,87,13,14,2,3,0.4,0.3
2025-03-27T2200,1046A,119.5251,39.9041,秦皇岛市,建设大厦,颗粒物(PM10),56,62,127,35,36,70,,89,85,19,26,3,4,0.3,0.3
2025-03-27T2200,3132A,119.610547,39.943889,秦皇岛市,文明里,颗粒物(PM10),54,58,131,34,27,61,,89,84,28,20,4,4,0.3,0.3
2025-03-27T2200,4198A,119.5090,39.8253,秦皇岛市,北戴河轮滑馆,颗粒物(PM10),53,56,120,31,30,86,,93,92,5,10,5,5,0.3,0.3
2025-03-27T2200,1307A,120.6659,36.2403,青岛市,仰口,,46,46,212,31,44,92,,115,87,7,9,4,5,0.5,0.5
2025-03-27T2200,1310A,120.4134,36.0658,青岛市,市南区东部子站,颗粒物(PM10),52,53,213,24,35,86,,83,81,11,18,7,8,0.6,0.5
2025-03-27T2200,1311A,120.3664,36.1032,青岛市,四方区子站,,48,48,185,31,40,84,,84,83,15,25,4,6,0.5,0.7
2025-03-27T2200,1312A,120.2994,36.054,青岛市,市南区西部子站,,48,48,187,27,34,84,,79,77,13,21,7,8,0.6,0.7
2025-03-27T2200,1313A,120.4581,36.0858,青岛市,崂山区子站,,39,39,193,27,36,91,,94,89,10,14,7,9,0.6,0.6
2025-03-27T2200,1315A,120.3999,36.3083,青岛市,城阳区子站,颗粒物(PM10),51,51,169,29,34,81,,82,82,14,22,9,9,0.6,0.7
2025-03-27T2200,1966A,120.0405,35.8735,青岛市,黄岛区4号,颗粒物(PM10),53,56,200,34,37,69,,89,78,22,21,8,10,0.7,0.7
2025-03-27T2200,3362A,120.5014,36.4034,青岛市,即墨2号,细颗粒物(PM2.5),52,52,174,36,38,76,,84,80,18,17,7,8,0.6,0.6
2025-03-27T2200,3642A,120.3503,36.0736,青岛市,市北区南部,颗粒物(PM10),57,63,181,31,40,74,,72,71,14,21,5,8,0.6,0.7
2025-03-27T2200,3643A,120.3948,36.1805,青岛市,李沧区北部,细颗粒物(PM2.5),55,48,221,39,45,85,,84,84,14,20,7,9,0.7,0.7
