timepoint,stationcode,longitude,latitude,area,positionname,primarypollutant,aqi,pm10,pm10_24h,pm2_5,pm2_5_24h,o3,o3_24h,o3_8h,o3_8h_24h,no2,no2_24h,so2,so2_24h,co,co_24h
2025-03-27T0200,2566A,102.1879,31.914,阿坝藏族羌族自治州,州农科所,,17,9,22,7,9,52,,,,12,14,11,11,0.2,0.2
2025-03-27T0200,2568A,102.2502,31.8896,阿坝藏族羌族自治州,马师校,,28,26,26,19,16,30,,,,40,21,4,4,0.3,0.4
2025-03-27T0200,3994A,102.2165,31.9024,阿坝藏族羌族自治州,马尔康中学西区,,18,17,19,8,15,56,,,,13,12,4,5,0.3,0.3
2025-03-27T0200,2695A,80.292,41.1694,阿克苏地区,电视台,"颗粒物(PM10),细颗粒物(PM2.5)",500,3341,4005,676,722,83,,,,2,4,5,4,0.3,0.3
2025-03-27T0200,2696A,80.2613,41.1551,阿克苏地区,艺术中心,"颗粒物(PM10),细颗粒物(PM2.5)",500,3895,4541,754,801,82,,,,3,5,4,4,0.5,0.5
2025-03-27T0200,2204A,105.6467,38.8363,阿拉善盟,西城区西花园,颗粒物(PM10),78,105,392,25,91,94,,,,5,6,8,10,0.5,0.7
2025-03-27T0200,2205A,105.6985,38.8411,阿拉善盟,蒙二幼,颗粒物(PM10),85,120,495,30,119,84,,,,6,7,5,5,0.6,0.6
2025-03-27T0200,2206A,105.724,38.8516,阿拉善盟,环保局新楼,颗粒物(PM10),78,105,462,36,126,90,,,,2,3,8,8,0.5,0.4
2025-03-27T0200,2708A,88.1264,47.8517,阿勒泰地区,市站,,25,,16,9,6,79,,,,2,5,2,3,0.4,0.4
2025-03-27T0200,2630A,80.1161,32.5,阿里地区,阿里监测站,,29,,9,14,6,91,,,,2,4,8,7,0.5,0.5
2025-03-27T0200,3192A,80.0903,32.5028,阿里地区,阿里藏医院,,31,8,11,3,4,97,,,,1,2,7,6,0.4,0.4
2025-03-27T0200,2642A,109.0318,32.6537,安康市,香溪洞,颗粒物(PM10),152,254,81,58,32,105,,,,8,10,6,10,0.6,0.7
2025-03-27T0200,2644A,109.0072,32.6975,安康市,汉滨区检察院,颗粒物(PM10),104,158,63,49,28,48,,,,32,23,11,10,0.5,0.5
2025-03-27T0200,4054A,109.0325,32.6913,安康市,市邮政管理局,颗粒物(PM10),95,139,66,53,35,37,,,,34,32,10,13,0.7,0.9
2025-03-27T0200,2291A,117.0809,30.5177,安庆市,环科院,,45,32,73,31,49,125,,,,8,50,7,10,0.6,0.7
2025-03-27T0200,2292A,117.0331,30.5119,安庆市,马山宾馆,,49,,62,34,46,122,,,,5,36,2,6,0.6,0.6
2025-03-27T0200,2294A,116.9896,30.6145,安庆市,安庆大学,,46,42,73,32,50,138,,,,8,28,5,9,0.4,0.5
2025-03-27T0200,3173A,117.0598,30.5351,安庆市,市人大,,40,29,68,28,46,128,,,,5,27,7,11,0.7,0.7
2025-03-27T0200,3122A,105.9606,26.2611,安顺市,伍家关,,44,39,39,21,24,140,,,,9,9,7,6,0.3,0.3
2025-03-27T0200,3123A,105.9408,26.2431,安顺市,凤凰山,,45,39,41,31,29,136,,,,16,16,8,9,0.3,0.3
2025-03-27T0200,3124A,105.9439,26.2564,安顺市,金钟山,,44,43,41,28,26,138,,,,12,12,9,8,0.4,0.5
2025-03-27T0200,3125A,105.8983,26.2481,安顺市,娄家坡,,44,41,39,28,28,138,,,,9,10,7,7,0.5,0.5
2025-03-27T0200,1818A,114.4839,36.0621,安阳市,棉研所,,,,,,,,,,,,,,,,
2025-03-27T0200,1819A,114.3551,36.1017,安阳市,红庙街,颗粒物(PM10),93,136,182,54,52,44,,,,27,26,10,7,1.0,0.7
2025-03-27T0200,1820A,114.361,36.0681,安阳市,银杏小区,颗粒物(PM10),91,131,175,63,55,53,,,,24,29,6,5,1.0,0.6
2025-03-27T0200,3141A,114.3922,36.0878,安阳市,信访局,颗粒物(PM10),91,131,169,61,51,60,,,,23,28,7,6,0.8,0.6
2025-03-27T0200,3669A,114.4705,36.0637,安阳市,左辅环卫站,颗粒物(PM10),98,145,191,58,53,63,,,,24,26,8,7,0.7,0.3
2025-03-27T0200,3703A,114.2917,36.0949,安阳市,安钢职工学校,颗粒物(PM10),91,132,201,59,56,38,,,,42,35,16,9,1.4,0.8
2025-03-27T0200,1748A,123.044,41.1196,鞍山市,深沟寺,细颗粒物(PM2.5),114,138,130,86,89,56,,,,30,30,30,19,1.5,1.3
2025-03-27T0200,1749A,123.011,41.0931,鞍山市,太阳城,细颗粒物(PM2.5),79,97,134,58,92,53,,,,40,35,32,16,2.1,1.5
2025-03-27T0200,1750A,123.0485,41.1442,鞍山市,太平,细颗粒物(PM2.5),110,145,164,83,102,45,,,,42,43,40,19,1.4,1.7
2025-03-27T0200,1751A,122.9642,41.0971,鞍山市,铁西三道街,细颗粒物(PM2.5),94,110,148,70,100,61,,,,31,43,15,14,0.8,1.1
2025-03-27T0200,1753A,123.022,41.0821,鞍山市,明达新区,细颗粒物(PM2.5),87,96,128,64,97,54,,,,35,35,27,15,1.4,1.1
2025-03-27T0200,1754A,123.1289,41.0228,鞍山市,千山,,,,101,,50,,,78,,,18,,4,,1.0
2025-03-27T0200,4201A,122.9446,41.0826,鞍山市,兴盛南路290号,细颗粒物(PM2.5),150,175,154,115,106,34,,,,64,50,17,16,1.2,1.1
2025-03-27T0200,2195A,107.4212,40.761,巴彦淖尔市,附二中,颗粒物(PM10),411,511,615,118,119,79,,,,3,5,5,6,0.5,0.6
2025-03-27T0200,2196A,107.37,40.7372,巴彦淖尔市,市环保大楼,颗粒物(PM10),250,385,301,97,133,78,,,,3,4,4,5,0.1,0
2025-03-27T0200,1956A,86.1472,41.7538,巴音郭楞蒙古自治州,孔雀公园,颗粒物(PM10),500,858,3315,77,361,78,,,,9,10,4,5,0.2,0.2
2025-03-27T0200,1957A,86.1972,41.7166,巴音郭楞蒙古自治州,棉纺厂,颗粒物(PM10),500,1103,2153,84,449,80,,,,10,7,2,2,0.2,0.2
2025-03-27T0200,1958A,86.2357,41.7173,巴音郭楞蒙古自治州,经济开发区,颗粒物(PM10),500,715,3263,64,579,88,,,,3,4,3,4,0.1,0.1
2025-03-27T0200,2914A,106.7677,31.8794,巴中市,苏山坪,,45,44,44,31,27,139,,,,7,9,7,6,0.4,0.4
2025-03-27T0200,3181A,106.7768,31.8526,巴中市,市五中,细颗粒物(PM2.5),82,90,62,60,38,31,,,,37,32,6,6,0.7,0.7
2025-03-27T0200,3183A,106.7418,31.8654,巴中市,圣泉水务公司,,44,44,46,29,29,72,,,,24,30,8,9,0.5,0.5
2025-03-27T0200,3616A,106.7616,31.8344,巴中市,市中心医院,细颗粒物(PM2.5),70,82,62,51,41,15,,,,52,44,8,9,0.9,0.9
2025-03-27T0200,2235A,122.7911,45.6077,白城市,洮北区环保局,,30,30,76,12,66,78,,,,7,16,2,6,0.3,0.5
2025-03-27T0200,2236A,122.8738,45.5725,白城市,市环保局,,24,17,78,13,71,75,,,,5,15,4,3,0.3,0.6
2025-03-27T0200,2231A,126.4219,41.9171,白山市,喜丰,,23,23,84,13,52,33,,,,20,23,11,8,1.0,1.2
2025-03-27T0200,2232A,126.4077,41.9419,白山市,环保局,,42,42,82,14,55,37,,,,19,31,7,8,1.2,1.3
2025-03-27T0200,2647A,104.1724,36.5446,白银市,第三小学,颗粒物(PM10),109,167,785,33,146,87,,,,2,3,8,7,0.1,0.2
2025-03-27T0200,2648A,104.1465,36.5482,白银市,动力公司,颗粒物(PM10),99,148,748,47,181,89,,,,4,4,4,4,0.2,0.2
2025-03-27T0200,2512A,106.6103,23.9011,百色市,市监测站,细颗粒物(PM2.5),82,79,96,60,67,72,,,,16,21,10,12,0.9,1.1
2025-03-27T0200,2513A,106.6538,23.8859,百色市,市中心血站,细颗粒物(PM2.5),82,79,115,60,78,103,,,,15,29,17,14,1.0,1.1
2025-03-27T0200,3406A,106.6085,23.8798,百色市,祈福高中,细颗粒物(PM2.5),78,74,110,57,70,101,,,,15,25,11,10,0.9,1
2025-03-27T0200,2270A,117.396,32.939,蚌埠市,工人疗养院,颗粒物(PM10),102,153,87,69,46,137,,,,15,30,8,8,0.8,0.8
2025-03-27T0200,2271A,117.3605,32.9427,蚌埠市,百货大楼,细颗粒物(PM2.5),102,149,95,76,50,130,,,,16,23,9,9,0.7,0.6
2025-03-27T0200,2273A,117.4185,32.8911,蚌埠市,蚌埠学院,细颗粒物(PM2.5),112,132,84,84,51,134,,,,12,14,6,7,0.8,0.7
2025-03-27T0200,2274A,117.3533,32.9673,蚌埠市,淮上区政府,细颗粒物(PM2.5),109,134,87,82,52,128,,,,16,20,9,9,0.7,0.6
2025-03-27T0200,2275A,117.3145,32.8977,蚌埠市,高新区,细颗粒物(PM2.5),105,132,94,79,56,133,,,,17,21,10,10,0.8,0.7
2025-03-27T0200,3715A,117.3092,32.9314,蚌埠市,蚌埠田家炳中学,颗粒物(PM10),102,154,102,73,52,131,,,,19,23,9,14,0.6,0.5
2025-03-27T0200,1585A,109.8756,40.6532,包头市,市环境监测站,颗粒物(PM10),139,227,347,43,78,87,,,,3,13,9,13,0.2,0.3
2025-03-27T0200,1587A,109.9991,40.5842,包头市,包头八中,颗粒物(PM10),116,182,337,60,84,86,,,,3,10,5,8,0.3,0.4
2025-03-27T0200,1588A,109.8538,40.6821,包头市,青山宾馆,颗粒物(PM10),122,193,308,48,82,86,,,,1,7,6,8,0.3,0.4
2025-03-27T0200,1589A,109.8642,40.6288,包头市,惠龙物流,颗粒物(PM10),143,236,358,30,59,90,,,,3,11,5,12,0.3,0.5
2025-03-27T0200,1590A,110.0377,40.5546,包头市,东河鸿龙湾,颗粒物(PM10),127,203,322,48,65,87,,,,3,9,6,7,0.4,0.5
2025-03-27T0200,3283A,109.9154,40.5685,包头市,滨河大厦,颗粒物(PM10),120,190,296,40,71,85,,,,4,10,8,9,0.8,0.6
2025-03-27T0200,3419A,109.9447,40.6261,包头市,包头市委党校,颗粒物(PM10),137,223,322,34,65,86,,,,2,9,5,10,0.2,0.3
2025-03-27T0200,3683A,109.8331,40.6576,包头市,昆区政府,颗粒物(PM10),141,232,317,36,64,86,,,,4,13,5,9,0.4,0.6
2025-03-27T0200,1930A,107.185,34.3063,宝鸡市,庙沟村,颗粒物(PM10),478,578,593,147,158,87,,,,5,6,6,8,0.2,0.3
2025-03-27T0200,1931A,107.0708,34.3017,宝鸡市,竹园沟,颗粒物(PM10),481,581,500,136,129,87,,,,4,11,6,7,0.3,0.3
2025-03-27T0200,1932A,107.1906,34.3672,宝鸡市,三陆医院,颗粒物(PM10),500,635,604,168,186,81,,,,9,17,4,7,0.3,0.4
2025-03-27T0200,1933A,107.1431,34.3547,宝鸡市,监测站,颗粒物(PM10),500,644,657,144,165,86,,,,2,14,6,9,0.4,0.4
2025-03-27T0200,1934A,107.1186,34.3739,宝鸡市,技工学校,颗粒物(PM10),500,616,621,152,195,86,,,,7,16,4,6,0.2,0.3
2025-03-27T0200,1935A,107.3906,34.3528,宝鸡市,陈仓区环保局家属楼,颗粒物(PM10),500,627,554,144,149,79,,,,2,11,6,9,0.5,0.6
2025-03-27T0200,1936A,107.2058,34.3497,宝鸡市,文理学院,颗粒物(PM10),500,654,642,149,166,84,,,,4,11,4,9,0.3,0.4
2025-03-27T0200,1937A,107.2386,34.3622,宝鸡市,三迪小学,颗粒物(PM10),500,716,625,189,181,81,,,,11,20,5,12,0.3,0.4
2025-03-27T0200,1051A,115.493,38.8632,保定市,游泳馆,颗粒物(PM10),88,125,105,61,48,22,,,,74,26,4,6,0.3,0.2
2025-03-27T0200,1052A,115.5213,38.8959,保定市,华电二区,颗粒物(PM10),76,101,89,43,37,75,,,,10,20,1,2,0.1,0.3
2025-03-27T0200,1053A,115.4713,38.9108,保定市,接待中心,颗粒物(PM10),88,125,99,55,44,29,,,,58,27,3,4,0.6,0.5
2025-03-27T0200,1054A,115.4612,38.8416,保定市,地表水厂,颗粒物(PM10),113,175,128,72,42,6,,,,86,37,3,3,0.6,0.5
2025-03-27T0200,3581A,115.31981,38.95208,保定市,满城区生态环境分局,颗粒物(PM10),90,129,105,27,39,81,,,,9,26,2,4,0.2,0.4
2025-03-27T0200,3582A,115.47694,38.76408,保定市,清苑区第二中学,细颗粒物(PM2.5),112,172,142,84,43,34,,,,55,33,6,5,0.5,0.4
2025-03-27T0200,3583A,115.62909,39.02311,保定市,徐水物探局,颗粒物(PM10),157,264,124,56,39,95,,,,2,25,6,9,0.2,0.3
2025-03-27T0200,4004A,115.4202,38.8656,保定市,双鹰农机,颗粒物(PM10),85,119,103,55,43,10,,,,78,29,5,4,0.6,0.4
2025-03-27T0200,4034A,115.5150,38.8590,保定市,植保所站,颗粒物(PM10),90,129,103,35,44,60,,,,14,19,1,3,0.4,0.5
2025-03-27T0200,2594A,99.1678,25.1081,保山市,市环境监测站,,29,29,32,13,20,92,,,,6,10,4,5,0.3,0.4
2025-03-27T0200,2595A,99.1711,25.1328,保山市,市环保局,,36,30,33,16,22,114,,,,4,7,4,4,0.4,0.4
2025-03-27T0200,1866A,109.2262,21.588,北海市,牛尾岭水库,,,21,23,6,15,33,,,,,11,5,5,0.4,0.4
2025-03-27T0200,1867A,109.1436,21.4086,北海市,海滩公园,,27,27,30,3,11,62,,,,13,11,5,5,0.6,0.6
2025-03-27T0200,1868A,109.0981,21.4661,北海市,新市环保局,,32,32,33,12,16,64,,,,10,11,3,3,0.5,0.5
2025-03-27T0200,1869A,109.1778,21.5233,北海市,北海工业园,,45,45,38,12,19,64,,,,9,9,7,7,0.3,0.4
2025-03-27T0200,3400A,109.1911,21.4415,北海市,龙潭自来水厂,,29,29,30,14,16,58,,,,6,7,6,6,0.3,0.3
2025-03-27T0200,1001A,116.3621,39.8784,北京市,万寿西宫,颗粒物(PM10),147,244,122,45,36,95,,,,2,15,3,3,0.1,0.3
2025-03-27T0200,1002A,116.2202,40.2915,北京市,定陵,,,,,,,,,,,,,,,,
2025-03-27T0200,1003A,116.4174,39.9289,北京市,东四,颗粒物(PM10),145,240,118,43,37,88,,,,4,17,3,6,0.2,0.4
2025-03-27T0200,1004A,116.4072,39.8863,北京市,天坛,颗粒物(PM10),148,245,131,50,39,87,,,,4,15,3,2,0.3,0.6
2025-03-27T0200,1005A,116.462,39.9365,北京市,农展馆,颗粒物(PM10),132,214,109,36,32,77,,,,2,11,5,7,0.3,0.5
2025-03-27T0200,1006A,116.3392,39.9295,北京市,官园,颗粒物(PM10),155,259,122,46,34,83,,,,2,13,5,6,0.4,0.6
2025-03-27T0200,1007A,116.2878,39.9611,北京市,海淀万柳,颗粒物(PM10),133,215,108,43,31,74,,,,6,14,3,4,0.4,0.5
2025-03-27T0200,1008A,116.6636,40.135,北京市,顺义新城,颗粒物(PM10),126,201,111,47,30,95,,,,2,10,4,6,0.1,0.4
2025-03-27T0200,1009A,116.6275,40.3275,北京市,怀柔镇,颗粒物(PM10),130,210,117,43,32,84,,,,2,7,2,3,0.2,0.3
2025-03-27T0200,1010A,116.2296,40.217,北京市,昌平镇,颗粒物(PM10),134,218,108,49,30,91,,,,2,9,1,2,0.4,0.6
2025-03-27T0200,1011A,116.3966,39.9821,北京市,奥体中心,颗粒物(PM10),134,218,110,43,33,74,,,,14,18,3,4,0.4,0.6
2025-03-27T0200,3281A,115.9718,40.4529,北京市,延庆夏都,颗粒物(PM10),111,171,132,36,32,94,,,,2,8,5,6,0.4,0.5
2025-03-27T0200,3418A,116.8336,40.4095,北京市,密云新城,颗粒物(PM10),112,174,122,34,30,86,,,,2,9,3,4,0.4,0.5
2025-03-27T0200,3671A,116.088,39.9726,北京市,门头沟三家店,颗粒物(PM10),131,212,120,46,33,81,,,,3,20,4,6,0.3,0.4
2025-03-27T0200,3672A,116.1541,39.8204,北京市,丰台云岗,颗粒物(PM10),140,229,115,44,33,94,,,,1,12,4,6,0.3,0.6
2025-03-27T0200,3673A,116.6804,39.9081,北京市,通州东关,颗粒物(PM10),144,238,125,45,37,73,,,,13,18,3,5,0.3,0.5
2025-03-27T0200,3674A,115.9577,39.7603,北京市,房山燕山,颗粒物(PM10),146,241,118,51,34,79,,,,1,15,3,5,0.2,0.4
2025-03-27T0200,3675A,116.4672,39.7733,北京市,大兴旧宫,颗粒物(PM10),155,259,123,52,37,78,,,,3,14,4,4,0.3,0.4
2025-03-27T0200,3694A,115.986,40.4563,北京市,延庆石河营,颗粒物(PM10),111,171,127,38,31,95,,,,2,8,4,5,0.3,0.4
2025-03-27T0200,3695A,116.6151,40.3053,北京市,怀柔新城,颗粒物(PM10),119,187,112,47,34,88,,,,2,5,4,4,0.3,0.5
2025-03-27T0200,3696A,116.2545,39.8768,北京市,丰台小屯,颗粒物(PM10),166,282,143,51,36,78,,,,4,17,1,2,0.3,0.4
2025-03-27T0200,3697A,116.84,40.3844,北京市,密云镇,颗粒物(PM10),113,175,130,33,31,92,,,,2,11,5,5,0.2,0.4
2025-03-27T0200,4182A,116.1942,39.9158,北京市,八角北路9号,颗粒物(PM10),145,239,123,43,32,91,,,,2,12,3,3,0,0.3
2025-03-27T0200,4194A,117.0790,40.1518,北京市,洳河巡河路,颗粒物(PM10),118,186,111,41,36,91,,,,1,9,1,3,0.3,0.5
2025-03-27T0200,1761A,123.8275,41.3064,本溪市,大峪,颗粒物(PM10),78,105,92,45,64,65,,,,22,24,13,10,0.8,0.9
2025-03-27T0200,1762A,123.7567,41.3325,本溪市,溪湖,颗粒物(PM10),79,107,107,48,62,43,,,,53,40,30,14,0.9,1.4
2025-03-27T0200,1763A,123.7169,41.3094,本溪市,彩屯,颗粒物(PM10),61,72,108,34,69,81,,,,14,32,11,16,0.6,1.9
2025-03-27T0200,1764A,123.7669,41.2864,本溪市,东明,颗粒物(PM10),76,101,106,39,64,72,,,,18,22,11,9,0.6,0.9
2025-03-27T0200,1765A,123.7992,41.2664,本溪市,新立屯,颗粒物(PM10),76,101,86,40,49,72,,,,24,26,10,7,0.6,0.7
2025-03-27T0200,1766A,123.8142,41.3472,本溪市,威宁,颗粒物(PM10),88,125,133,57,60,38,,,,43,30,6,6,1.0,1
2025-03-27T0200,2587A,105.2864,27.3125,毕节市,八中,"颗粒物(PM10),细颗粒物(PM2.5)",52,53,47,36,28,46,,,,15,16,10,11,0.6,0.6
2025-03-27T0200,2588A,105.31,27.2944,毕节市,师专,细颗粒物(PM2.5),83,110,66,61,39,10,,,,54,37,8,9,1.2,0.9
2025-03-27T0200,4263A,105.3688,27.3598,毕节市,工业大道,颗粒物(PM10),85,120,80,50,42,29,,,,35,30,10,11,0.7,0.7
2025-03-27T0200,1629A,118.0018,37.3617,滨州市,第二水厂,颗粒物(PM10),129,207,160,66,35,41,,,,38,28,20,15,1.2,1
2025-03-27T0200,1630A,117.9776,37.393,滨州市,北中新校,颗粒物(PM10),126,202,149,78,35,37,,,,46,30,20,19,1.1,0.5
2025-03-27T0200,3514A,117.9378,37.3956,滨州市,中海酒店,颗粒物(PM10),119,188,133,80,43,42,,,,49,28,17,18,1.1,0.5
2025-03-27T0200,3515A,117.9378,37.3553,滨州市,开发区一中,颗粒物(PM10),131,212,161,63,35,48,,,,44,32,23,22,0.9,0.4
2025-03-27T0200,3516A,118.0917,37.694,滨州市,金海六路,颗粒物(PM10),123,195,165,61,29,16,,,,71,28,16,10,1.3,0.7
2025-03-27T0200,4028A,117.9956,37.3753,滨州市,滨州市西街道办事处,颗粒物(PM10),130,210,154,83,43,44,,,,38,26,15,15,1.2,0.5
2025-03-27T0200,2311A,115.8072,33.8399,亳州市,污水处理厂,颗粒物(PM10),104,158,113,60,45,73,,,,20,16,6,6,0.5,0.5
2025-03-27T0200,2312A,115.7789,33.8518,亳州市,三国揽胜宫,颗粒物(PM10),115,179,106,64,49,68,,,,19,11,6,7,0.4,0.4
2025-03-27T0200,3332A,115.7633,33.8034,亳州市,亳州学院,颗粒物(PM10),107,163,104,68,47,75,,,,15,10,7,7,0.5,0.6
2025-03-27T0200,2693A,82.0485,44.8556,博尔塔拉蒙古自治州,市党校,颗粒物(PM10),63,75,48,17,13,59,,,,15,11,2,3,0.5,0.2
2025-03-27T0200,2694A,82.0806,44.8969,博尔塔拉蒙古自治州,市环保局,颗粒物(PM10),63,75,56,20,14,52,,,,16,13,3,4,0.4,0.5
2025-03-27T0200,1071A,116.8842,38.2991,沧州市,沧县城建局,颗粒物(PM10),116,181,147,51,52,53,,,,24,30,4,7,0.2,0.5
2025-03-27T0200,1072A,116.8584,38.3254,沧州市,电视转播站,颗粒物(PM10),103,155,138,41,54,41,,,,40,39,6,9,0.4,0.6
2025-03-27T0200,1073A,116.8709,38.3228,沧州市,市环保局,颗粒物(PM10),97,144,134,53,51,37,,,,38,33,8,11,0.3,0.5
2025-03-27T0200,3324A,116.8136,38.3004,沧州市,河北水利电力学院,颗粒物(PM10),123,195,161,38,54,52,,,,28,34,6,9,0.3,0.5
2025-03-27T0200,2622A,97.1806,31.1273,昌都市,昌都监测站,,19,19,12,9,6,58,,,,12,6,7,7,0.3,0.3
2025-03-27T0200,3719A,97.1714,31.1406,昌都市,昌都会议中心,,,13,14,8,6,83,,,,,8,2,2,0.3,0.3
2025-03-27T0200,2690A,88.1236,43.8886,昌吉回族自治州,天山天池,,32,32,27,12,9,74,,,,3,4,2,3,0.5,0.5
2025-03-27T0200,2692A,87.2717,44.0297,昌吉回族自治州,新区政务中心,,21,20,51,3,8,66,,,,6,4,7,7,0.5,0.5
2025-03-27T0200,3613A,87.3095,44.0142,昌吉回族自治州,亚心广场,,31,31,58,3,8,67,,,,9,7,5,5,0.4,0.4
2025-03-27T0200,1119A,125.3325,43.9166,长春市,食品厂,,49,44,79,34,62,75,,,,10,31,7,9,0.4,0.7
2025-03-27T0200,1120A,125.2863,43.9027,长春市,客车厂,细颗粒物(PM2.5),53,44,73,37,69,67,,,,15,29,6,7,0.5,0.8
2025-03-27T0200,1121A,125.2841,43.8463,长春市,邮电学院,颗粒物(PM10),54,57,86,26,82,73,,,,10,31,6,10,0.3,0.7
2025-03-27T0200,1122A,125.3716,43.8772,长春市,劳动公园,,43,43,70,20,70,75,,,,4,23,6,8,0.8,1
2025-03-27T0200,1123A,125.3297,43.8805,长春市,园林处,,47,47,75,18,74,74,,,,9,27,6,8,0.3,0.6
2025-03-27T0200,1124A,125.4605,43.79,长春市,净月潭,颗粒物(PM10),55,59,74,19,66,71,,,,8,15,6,6,0.4,0.6
2025-03-27T0200,1125A,125.7194,43.515,长春市,甩湾子,颗粒物(PM10),59,68,57,26,50,71,,,,10,14,2,2,0.5,0.6
2025-03-27T0200,1126A,125.3863,43.8447,长春市,经开区环卫处,颗粒物(PM10),52,54,75,21,69,70,,,,10,26,6,6,0.4,0.7
2025-03-27T0200,1127A,125.245,43.7783,长春市,高新区管委会,,36,36,91,16,88,71,,,,12,29,7,8,0.3,0.7
2025-03-27T0200,1128A,125.1761,43.8325,长春市,岱山公园,,39,39,86,17,87,74,,,,11,37,4,5,0.5,0.9
2025-03-27T0200,1335A,113.0833,28.2325,长沙市,经开区环保局,细颗粒物(PM2.5),69,79,86,50,57,116,,,,10,18,6,10,0.6,0.7
2025-03-27T0200,1336A,112.8872,28.2189,长沙市,高开区环保局,细颗粒物(PM2.5),67,72,85,48,60,120,,,,4,9,9,9,0.6,0.8
2025-03-27T0200,1337A,113.0792,28.2053,长沙市,马坡岭,细颗粒物(PM2.5),72,80,91,52,60,105,,,,7,14,8,8,0.7,0.6
2025-03-27T0200,1338A,112.9394,28.19,长沙市,湖南师范大学,细颗粒物(PM2.5),70,87,89,51,59,90,,,,8,12,6,8,0.9,1
2025-03-27T0200,1339A,113.0178,28.1322,长沙市,雨花区环保局,细颗粒物(PM2.5),73,73,82,53,55,110,,,,10,15,8,10,0.7,0.7
2025-03-27T0200,1340A,112.9792,28.2597,长沙市,伍家岭,细颗粒物(PM2.5),77,85,102,56,64,94,,,,18,33,3,5,0.7,0.8
2025-03-27T0200,1341A,113.0014,28.1944,长沙市,火车新站,颗粒物(PM10),65,80,91,44,57,111,,,,8,26,6,9,0.7,0.9
2025-03-27T0200,1342A,112.9844,28.1178,长沙市,天心区环保局,细颗粒物(PM2.5),79,76,84,58,61,113,,,,15,17,3,5,0.4,0.6
2025-03-27T0200,1343A,112.8908,28.1308,长沙市,湖南中医药大学,细颗粒物(PM2.5),75,83,94,55,58,83,,,,28,24,4,6,1.1,1.1
2025-03-27T0200,1344A,112.9581,28.3611,长沙市,沙坪,颗粒物(PM10),67,84,84,37,52,65,,,,10,14,5,8,0.6,1
2025-03-27T0200,1727A,113.1147,36.1547,长治市,清华站,颗粒物(PM10),153,256,160,31,50,88,,,,8,22,5,10,0.3,0.6
2025-03-27T0200,1730A,113.0886,36.2125,长治市,审计局,颗粒物(PM10),124,198,177,34,57,87,,,,12,29,8,16,0.2,0.7
2025-03-27T0200,1731A,113.0844,36.1856,长治市,长治八中,颗粒物(PM10),152,254,212,54,70,91,,,,11,25,8,14,0.4,0.8
2025-03-27T0200,2845A,113.1569,36.1911,长治市,德盛苑,颗粒物(PM10),131,211,153,88,49,89,,,,6,21,7,11,0.5,0.7
2025-03-27T0200,3568A,113.06,36.0464,长治市,向阳小学,颗粒物(PM10),139,227,181,59,65,84,,,,13,25,11,15,0.3,0.6
2025-03-27T0200,3569A,112.8792,36.3144,长治市,屯留一中,颗粒物(PM10),108,165,188,38,64,82,,,,16,30,11,19,0.1,0.6
2025-03-27T0200,4189A,113.1131,36.19948,长治市,英华南巷50号,颗粒物(PM10),152,253,193,39,64,89,,,,12,28,12,18,0.7,1.2
2025-03-27T0200,4190A,113.2367,36.3344,长治市,学府街1号,颗粒物(PM10),123,196,253,33,66,99,,,,2,36,2,17,0.4,1.1
2025-03-27T0200,1854A,111.6975,28.9703,常德市,市二中,细颗粒物(PM2.5),85,70,71,63,59,97,,,,11,14,10,7,0.7,0.7
2025-03-27T0200,1857A,111.7158,29.1456,常德市,白鹤山,,,,,,,,,,,,,,,,
2025-03-27T0200,3138A,111.7153,29.0289,常德市,武陵区永安,细颗粒物(PM2.5),94,85,63,70,61,59,,,,30,15,6,5,0.8,0.8
2025-03-27T0200,3139A,111.6892,28.9881,常德市,鼎城区玉霞,细颗粒物(PM2.5),94,84,79,70,54,44,,,,34,19,6,7,0.8,0.7
2025-03-27T0200,3140A,111.6625,29.0531,常德市,武陵区长庚,细颗粒物(PM2.5),89,88,79,66,56,84,,,,15,17,8,7,0.8,0.7
2025-03-27T0200,1196A,119.9633,31.762,常州市,市监测站,颗粒物(PM10),107,164,130,78,62,71,,,,38,45,3,2,1.2,0.9
2025-03-27T0200,1200A,119.9468,31.7069,常州市,武进监测站,颗粒物(PM10),89,127,101,59,50,74,,,,38,39,19,13,0.8,0.8
2025-03-27T0200,1201A,119.9255,31.9087,常州市,安家,颗粒物(PM10),96,142,108,66,54,38,,,,84,51,11,11,0.7,0.7
2025-03-27T0200,3002A,119.9805,31.8174,常州市,行政中心,颗粒物(PM10),88,126,101,63,55,79,,,,36,40,23,21,1.1,0.7
2025-03-27T0200,3003A,120.0522,31.7748,常州市,经开区,细颗粒物(PM2.5),89,120,116,66,57,56,,,,60,56,18,21,1.5,1.9
2025-03-27T0200,3010A,119.9025,31.7964,常州市,钟楼,颗粒物(PM10),99,148,110,69,54,72,,,,40,41,12,10,1.2,1
2025-03-27T0200,3429A,119.8598,31.7066,常州市,武进经发区,细颗粒物(PM2.5),108,131,112,81,64,81,,,,45,48,13,18,1.0,0.9
2025-03-27T0200,3430A,119.5826,31.7245,常州市,金坛城区,细颗粒物(PM2.5),89,107,108,66,57,80,,,,40,37,16,15,1.3,1.1
2025-03-27T0200,2220A,120.4318,41.5881,朝阳市,西梁,,43,43,164,25,50,80,,,,3,14,10,14,0.4,0.6
2025-03-27T0200,2221A,120.4521,41.5646,朝阳市,河畔小区,,40,40,163,13,47,82,,,,4,15,7,10,0.5,0.7
2025-03-27T0200,2222A,120.4176,41.5648,朝阳市,八里堡,,38,38,167,9,45,76,,,,3,13,8,10,0.3,0.5
2025-03-27T0200,2223A,120.3806,41.5969,朝阳市,农业园区,,38,38,192,8,55,81,,,,4,14,9,12,0.3,0.6
2025-03-27T0200,1705A,116.6367,23.6719,潮州市,西园路,,,,,,,,,,,,,,,,
2025-03-27T0200,3026A,116.6183,23.6608,潮州市,市政府,,,,64,30,35,30,,,,23,26,7,9,0.6,0.7
2025-03-27T0200,4036A,116.6461,23.6761,潮州市,金山,细颗粒物(PM2.5),60,,57,43,36,20,,,,23,24,7,10,0.5,0.6
2025-03-27T0200,2472A,113.0073,25.9061,郴州市,马头岭,颗粒物(PM10),54,58,74,26,30,116,,,,12,14,9,10,0.6,0.7
2025-03-27T0200,2473A,113.0116,25.8226,郴州市,市职中,颗粒物(PM10),57,64,68,39,47,147,,,,10,11,8,9,0.6,0.7
2025-03-27T0200,2475A,113.0383,25.8071,郴州市,市审计局,细颗粒物(PM2.5),53,49,64,37,46,146,,,,10,11,4,4,0.4,0.5
2025-03-27T0200,2476A,113.0348,25.7759,郴州市,市环保局,颗粒物(PM10),55,59,74,36,48,145,,,,10,11,13,12,0.5,0.5
2025-03-27T0200,4252A,113.0138,25.8011,郴州市,好美居路49号,细颗粒物(PM2.5),55,50,66,39,46,149,,,,8,11,9,10,0.6,0.7
2025-03-27T0200,1431A,103.9728,30.7236,成都市,金泉两河,细颗粒物(PM2.5),69,86,87,50,49,34,,,,52,42,3,4,1.1,1
2025-03-27T0200,1432A,104.176,30.6872,成都市,十里店,细颗粒物(PM2.5),69,80,87,50,51,112,,,,36,37,6,8,0.8,0.8
2025-03-27T0200,1433A,104.079,30.5706,成都市,三瓦窑,细颗粒物(PM2.5),82,105,99,60,56,9,,,,128,73,7,7,1.2,1.1
2025-03-27T0200,1434A,104.1114,30.63,成都市,沙河铺,细颗粒物(PM2.5),84,81,88,62,60,13,,,,76,44,6,8,1.1,0.8
2025-03-27T0200,1437A,104.0786,30.6531,成都市,君平街,细颗粒物(PM2.5),95,96,93,71,63,50,,,,76,50,9,11,1.1,1
2025-03-27T0200,1438A,103.613,31.0283,成都市,灵岩寺,,,,,,,,,,,,,,,,
2025-03-27T0200,2880A,104.0239,30.65639,成都市,大石西路,细颗粒物(PM2.5),92,100,96,68,62,16,,,,85,46,5,6,1.2,1
2025-03-27T0200,3136A,104.2725,30.5589,成都市,龙泉驿区区政府,细颗粒物(PM2.5),64,70,71,46,41,94,,,,20,26,7,7,0.9,0.8
2025-03-27T0200,3357A,104.0106,30.6931,成都市,金博路,细颗粒物(PM2.5),73,86,81,53,47,36,,,,77,50,8,10,0.9,0.9
2025-03-27T0200,3359A,104.0578,30.5225,成都市,华阳,细颗粒物(PM2.5),85,92,87,63,58,12,,,,108,66,7,7,1.6,1.3
2025-03-27T0200,3488A,104.3853,30.7453,成都市,青白江技师分院,细颗粒物(PM2.5),102,109,82,76,55,55,,,,54,48,12,10,0.9,0.9
2025-03-27T0200,3489A,104.0789,30.4072,成都市,科学城,"颗粒物(PM10),细颗粒物(PM2.5)",68,86,76,49,47,18,,,,79,43,5,6,0.9,0.8
2025-03-27T0200,4011A,103.8506,30.6947,成都市,光华大道三段,细颗粒物(PM2.5),74,89,75,54,43,72,,,,49,39,7,7,1.0,0.8
2025-03-27T0200,4224A,104.2433,30.5353,成都市,鲸龙路1057号,细颗粒物(PM2.5),69,85,91,50,56,37,,,,73,50,6,9,0.9,1.1
2025-03-27T0200,1062A,117.9531,40.9081,承德市,铁路,颗粒物(PM10),110,169,168,30,33,86,,,,4,11,6,10,0.2,0.5
2025-03-27T0200,1063A,117.9392,40.9763,承德市,中国银行,颗粒物(PM10),106,161,161,36,32,88,,,,2,8,3,6,0.2,0.4
2025-03-27T0200,1064A,117.9503,40.928,承德市,开发区,颗粒物(PM10),104,158,154,38,32,90,,,,3,11,6,10,0.2,0.5
2025-03-27T0200,1065A,117.8051,40.9655,承德市,文化中心,颗粒物(PM10),107,163,181,32,32,85,,,,4,10,3,9,0.2,0.4
2025-03-27T0200,1066A,117.9268,41.0026,承德市,离宫,颗粒物(PM10),102,153,140,39,32,71,,,,2,7,23,24,0.2,0.4
2025-03-27T0200,2314A,117.47,30.6618,池州市,池州学院,,41,33,69,26,45,129,,,,7,24,5,11,0.7,0.9
2025-03-27T0200,3237A,117.4918,30.6617,池州市,展览馆,,42,36,70,24,41,133,,,,4,20,5,8,0.7,0.8
2025-03-27T0200,3333A,117.5627,30.695,池州市,第八中学,,43,33,70,21,43,136,,,,4,19,4,9,0.5,0.7
2025-03-27T0200,3334A,117.5038,30.6243,池州市,第十二中学,,41,30,67,25,49,131,,,,3,21,5,8,0.7,0.9
2025-03-27T0200,1744A,118.9233,42.2816,赤峰市,松山一中,,24,20,200,3,28,76,,,,6,14,8,9,0.3,0.4
2025-03-27T0200,1745A,118.9576,42.2728,赤峰市,哈达街,,22,,214,15,35,68,,,,7,13,6,9,0.4,0.5
2025-03-27T0200,1746A,118.8788,42.2554,赤峰市,天义路,,23,15,192,7,47,72,,,,8,13,6,7,0.3,0.3
2025-03-27T0200,3058A,119.2658,42.0353,赤峰市,银河街,,23,20,215,12,40,72,,,,9,16,12,18,0.2,0.5
2025-03-27T0200,3286A,118.9359,42.3147,赤峰市,桥北物流园区,,24,22,170,3,39,76,,,,4,13,7,8,0.7,0.7
2025-03-27T0200,2521A,107.3476,22.4136,崇左市,市环保局江州分局,颗粒物(PM10),66,81,72,41,43,69,,,,14,13,12,12,0.7,0.7
2025-03-27T0200,4256A,107.3750,22.3736,崇左市,石景林东路7号,"颗粒物(PM10),细颗粒物(PM2.5)",54,58,69,38,45,70,,,,17,17,12,13,0.7,0.6
2025-03-27T0200,2298A,118.3093,32.3153,滁州市,老年大学,细颗粒物(PM2.5),88,77,75,65,47,105,,,,20,22,10,12,0.8,0.9
2025-03-27T0200,2299A,118.3244,32.2786,滁州市,人大宾馆,细颗粒物(PM2.5),100,91,78,75,54,98,,,,36,38,13,16,0.7,0.9
2025-03-27T0200,3207A,118.3118,32.3038,滁州市,市政府原办公楼,细颗粒物(PM2.5),82,74,67,60,47,126,,,,14,20,8,12,0.6,0.7
2025-03-27T0200,3331A,118.3267,32.2634,滁州市,图书馆,细颗粒物(PM2.5),84,87,76,62,41,101,,,,28,29,14,16,0.7,0.9
2025-03-27T0200,2605A,101.5482,25.0441,楚雄彝族自治州,州环境监测站,,39,,26,27,21,76,,,,22,15,7,9,0.5,0.5
2025-03-27T0200,2606A,101.538,25.0492,楚雄彝族自治州,市经济开发区,,38,37,28,26,21,92,,,,27,14,6,8,0.7,0.5
2025-03-27T0200,2548A,107.5277,31.2827,达州市,达州职业技术学院,颗粒物(PM10),60,70,67,42,33,30,,,,41,40,8,11,0.2,0.2
2025-03-27T0200,2549A,107.5086,31.2186,达州市,市环境监测站,颗粒物(PM10),57,63,65,34,30,63,,,,39,51,13,11,0.7,0.8
2025-03-27T0200,2550A,107.4988,31.2132,达州市,凤凰小区,细颗粒物(PM2.5),55,58,69,39,36,59,,,,40,54,14,15,0.6,0.8
2025-03-27T0200,2551A,107.5082,31.1986,达州市,达县机关宾馆,颗粒物(PM10),64,78,87,35,39,6,,,,81,66,11,11,1.0,1.3
2025-03-27T0200,2552A,107.4644,31.2124,达州市,市政中心,颗粒物(PM10),63,76,75,41,35,28,,,,57,60,6,10,0.6,1
2025-03-27T0200,2614A,100.1542,25.7054,大理白族自治州,大理市环境监测站,,35,24,21,20,18,111,,,,4,7,7,7,0.5,0.5
2025-03-27T0200,2615A,100.2171,25.5811,大理白族自治州,大理古城,,31,23,25,13,16,98,,,,7,9,7,7,0.4,0.4
2025-03-27T0200,1109A,121.612,38.9741,大连市,甘井子,颗粒物(PM10),90,130,130,46,56,84,,,,21,24,6,5,0.6,0.6
2025-03-27T0200,1110A,121.565,38.9511,大连市,周水子,颗粒物(PM10),90,130,132,57,62,66,,,,25,28,6,7,0.5,0.5
2025-03-27T0200,1111A,121.5637,38.8845,大连市,星海三站,颗粒物(PM10),90,130,126,46,55,84,,,,10,11,7,7,0.7,0.7
2025-03-27T0200,1112A,121.6302,38.9117,大连市,青泥洼桥,颗粒物(PM10),101,152,118,48,55,78,,,,14,13,11,9,0.8,0.8
2025-03-27T0200,1113A,121.6251,38.8638,大连市,傅家庄,细颗粒物(PM2.5),132,132,124,100,96,77,,,,20,17,11,8,0.5,0.6
2025-03-27T0200,1114A,121.5213,38.8661,大连市,七贤岭,颗粒物(PM10),97,143,145,43,55,84,,,,14,18,8,6,0.5,0.5
2025-03-27T0200,1115A,121.2529,38.8061,大连市,旅顺,颗粒物(PM10),102,153,125,73,58,72,,,,14,16,9,8,0.7,0.7
2025-03-27T0200,1116A,121.7485,39.1311,大连市,金州,颗粒物(PM10),91,132,137,40,53,79,,,,20,19,8,8,0.9,1.1
2025-03-27T0200,1117A,121.7811,39.0496,大连市,开发区,颗粒物(PM10),87,123,125,38,53,82,,,,18,21,10,6,1.1,1
2025-03-27T0200,1118A,121.9762,39.0631,大连市,双D港,颗粒物(PM10),103,156,110,40,57,92,,,,21,20,7,6,0.9,0.8
2025-03-27T0200,1789A,124.81117,46.03138,大庆市,大同区,,32,,97,22,85,71,,,,9,23,5,6,0.3,0.5
2025-03-27T0200,1790A,125.129,46.533,大庆市,龙凤区,,30,23,54,21,31,74,,,,5,17,5,6,0.2,0.5
2025-03-27T0200,1791A,124.902,46.408,大庆市,红岗区,,45,,53,31,49,75,,,,6,14,5,5,0.3,0.5
2025-03-27T0200,1792A,125.153,46.586,大庆市,萨尔图区,,22,20,51,11,33,68,,,,5,15,6,8,0.2,0.4
2025-03-27T0200,1793A,124.9042,46.6215,大庆市,让胡路区,,26,22,49,18,40,68,,,,6,18,7,9,0.2,0.3
2025-03-27T0200,3481A,125.141,46.634,大庆市,萨区政府监测点,,24,18,48,3,23,76,,,,3,12,4,6,0.3,0.4
2025-03-27T0200,1721A,113.3819,40.1097,大同市,果树场,颗粒物(PM10),116,181,162,50,46,72,,,,10,23,11,13,1.0,0.9
2025-03-27T0200,1723A,113.2994,40.0758,大同市,云冈宾馆,颗粒物(PM10),111,172,176,30,37,91,,,,3,21,6,13,0.4,0.7
2025-03-27T0200,1724A,113.3444,40.0917,大同市,大同大学,颗粒物(PM10),139,228,174,46,42,85,,,,1,18,12,21,0.3,0.6
2025-03-27T0200,1725A,113.2661,40.1269,大同市,安家小村,颗粒物(PM10),156,262,192,43,43,82,,,,2,16,7,12,0.2,0.7
2025-03-27T0200,1726A,113.2711,40.0844,大同市,教育学院,颗粒物(PM10),136,222,189,39,47,91,,,,3,21,5,11,0.3,0.5
2025-03-27T0200,3282A,113.3397,40.0597,大同市,大同市卫生学校,颗粒物(PM10),137,224,175,38,48,86,,,,3,25,5,12,0.2,0.7
2025-03-27T0200,3565A,113.1367,40.1122,大同市,云冈站,颗粒物(PM10),119,187,198,44,49,,,,,5,21,8,16,0.3,0.5
2025-03-27T0200,3566A,113.1186,40.2556,大同市,图书馆,颗粒物(PM10),120,189,181,43,50,76,,,,2,11,6,9,0.7,0.8
2025-03-27T0200,3567A,113.5931,40.0461,大同市,区一中,颗粒物(PM10),169,288,191,28,25,82,,,,4,13,15,18,0.1,0.3
2025-03-27T0200,4199A,113.2798,40.0997,大同市,魏都大道141号,颗粒物(PM10),141,232,197,32,47,90,,,,3,22,9,15,0.3,0.7
2025-03-27T0200,2269A,124.1069,50.4097,大兴安岭地区,科技局,,26,17,20,14,17,81,,,,4,5,6,6,0.3,0.3
2025-03-27T0200,3663A,124.1164,50.4278,大兴安岭地区,红旗社区,,26,6,9,3,6,83,,,,1,10,4,5,0.2,0.3
2025-03-27T0200,1600A,124.3303,40.0625,丹东市,江湾东路,颗粒物(PM10),80,110,119,36,54,68,,,,19,24,8,12,0.8,0.9
2025-03-27T0200,1601A,124.4256,40.1503,丹东市,临江后街,颗粒物(PM10),80,110,120,37,54,50,,,,18,23,10,11,0.9,1
2025-03-27T0200,1602A,124.3933,40.1461,丹东市,元宝山,颗粒物(PM10),79,107,108,36,51,59,,,,15,23,7,8,0.4,0.5
2025-03-27T0200,1603A,124.3633,40.1092,丹东市,民主桥,颗粒物(PM10),81,112,116,29,48,70,,,,15,25,9,10,0.8,0.9
2025-03-27T0200,3541A,109.5726,19.5167,儋州市,第一中学子站,颗粒物(PM10),54,58,46,33,28,52,,,,10,8,8,5,0.9,0.7
2025-03-27T0200,3542A,109.5567,19.5187,儋州市,东坡学校子站,颗粒物(PM10),53,56,46,34,27,54,,,,9,8,7,6,0.7,0.7
2025-03-27T0200,2616A,98.5842,24.428,德宏傣族景颇族自治州,德宏州监测站,细颗粒物(PM2.5),67,57,56,48,39,63,,,,32,28,11,9,0.7,0.6
2025-03-27T0200,3677A,98.5881,24.4368,德宏傣族景颇族自治州,芒市人民政府综合楼,细颗粒物(PM2.5),65,76,64,47,37,87,,,,12,16,8,9,0.5,0.5
2025-03-27T0200,1901A,104.4239,31.1208,德阳市,东山公园,颗粒物(PM10),59,68,69,40,46,116,,,,20,19,7,8,0.6,0.6
2025-03-27T0200,1902A,104.3826,31.1317,德阳市,西小区,细颗粒物(PM2.5),100,97,82,75,57,80,,,,37,37,26,12,0.8,0.7
2025-03-27T0200,1904A,104.3553,31.1091,德阳市,耐火材料厂,细颗粒物(PM2.5),93,107,78,69,54,60,,,,74,34,24,13,0.8,0.6
2025-03-27T0200,3639A,104.4019,31.1244,德阳市,市教育局,细颗粒物(PM2.5),90,89,75,67,57,81,,,,46,43,26,11,0.8,0.7
2025-03-27T0200,1622A,116.3032,37.4674,德州市,儿童乐园,颗粒物(PM10),122,193,145,83,49,27,,,,78,43,8,11,1.1,0.9
2025-03-27T0200,1624A,116.2991,37.4451,德州市,监理站,颗粒物(PM10),126,202,155,83,49,45,,,,48,31,16,19,0.7,0.5
2025-03-27T0200,3066A,116.2721,37.4379,德州市,九衢泉纯净水厂,颗粒物(PM10),123,195,140,83,44,48,,,,54,36,14,15,0.8,0.7
2025-03-27T0200,3371A,116.3728,37.4403,德州市,开发区人民医院,颗粒物(PM10),126,202,145,75,39,45,,,,45,35,12,10,0.8,0.6
2025-03-27T0200,3372A,116.3572,37.4094,德州市,太阳城中学,颗粒物(PM10),131,212,150,75,43,50,,,,47,36,11,11,0.9,0.6
2025-03-27T0200,3511A,116.5652,37.3319,德州市,陵城艺术中心,颗粒物(PM10),128,205,156,75,42,39,,,,40,30,12,13,0.8,0.7
2025-03-27T0200,2621A,99.7056,27.8317,迪庆藏族自治州,迪庆州站,,21,21,26,8,14,64,,,,10,10,8,8,0.5,0.4
2025-03-27T0200,3180A,99.7136,27.8094,迪庆藏族自治州,质量技术监督局,,25,18,43,11,12,79,,,,7,13,8,9,0.5,0.5
2025-03-27T0200,4257A,104.6092,35.5962,定西市,将台街,颗粒物(PM10),148,246,603,57,127,93,,,,5,7,5,6,0.4,0.4
2025-03-27T0200,4309A,104.6159,35.5701,定西市,正龙路62号,颗粒物(PM10),154,257,648,78,148,99,,,,1,4,7,8,0.2,0.3
2025-03-27T0200,1389A,113.7547,23.0494,东莞市,莞城梨川,,26,26,39,12,19,68,,,,8,14,4,4,0.3,0.4
2025-03-27T0200,1390A,113.7944,23.0128,东莞市,东城石井,,25,24,34,10,15,77,,,,9,15,5,5,0.5,0.5
2025-03-27T0200,1391A,113.7383,22.9658,东莞市,南城西平,,24,24,32,8,14,75,,,,7,11,5,5,0.6,0.6
2025-03-27T0200,3319A,113.7338,23.0381,东莞市,万江金泰,,25,25,35,10,16,75,,,,5,8,16,14,0.7,0.7
2025-03-27T0200,3626A,113.7533,23.0202,东莞市,南城元岭,,24,24,35,10,15,64,,,,6,11,5,5,0.6,0.6
2025-03-27T0200,3627A,113.7875,23.0457,东莞市,东城主山,,24,24,42,9,16,72,,,,9,17,6,7,0.4,0.5
2025-03-27T0200,1666A,118.6614,37.4309,东营市,市环保局,颗粒物(PM10),108,166,155,61,30,71,,,,26,25,9,8,0.8,0.5
2025-03-27T0200,3036A,118.6904,37.4338,东营市,开发区管委会,颗粒物(PM10),122,194,178,63,35,72,,,,30,29,10,7,0.9,0.6
2025-03-27T0200,3365A,118.5719,37.565,东营市,垦利区民丰路,颗粒物(PM10),115,180,162,61,32,63,,,,18,22,3,4,1.3,0.8
2025-03-27T0200,3498A,118.5055,37.8612,东营市,河口城区,颗粒物(PM10),123,195,191,46,34,64,,,,27,23,6,6,1.0,0.8
2025-03-27T0200,3646A,118.4978,37.4623,东营市,胜利站,颗粒物(PM10),117,184,155,56,30,68,,,,24,26,11,10,1.3,1
2025-03-27T0200,3734A,118.35,37.26,东营市,理想之城,颗粒物(PM10),114,178,151,58,38,73,,,,23,25,9,8,0.8,0.5
2025-03-27T0200,1591A,110.0023,39.8129,鄂尔多斯市,综合楼,颗粒物(PM10),104,158,503,22,96,80,,,,9,11,5,6,0.3,0.3
2025-03-27T0200,1592A,109.9486,39.8261,鄂尔多斯市,巴音孟克林场办事处,颗粒物(PM10),96,141,458,29,98,84,,,,5,13,5,6,0.3,0.4
2025-03-27T0200,1593A,109.7736,39.5986,鄂尔多斯市,康泽苑,颗粒物(PM10),135,219,488,41,101,83,,,,3,6,2,3,0.2,0.2
2025-03-27T0200,1594A,109.8119,39.5989,鄂尔多斯市,华泰汽车城,颗粒物(PM10),117,183,475,44,107,82,,,,5,9,3,3,0.4,0.4
2025-03-27T0200,1595A,109.9734,39.7884,鄂尔多斯市,奥林花园,颗粒物(PM10),106,161,500,24,84,85,,,,7,12,3,6,0.4,0.3
2025-03-27T0200,2436A,114.8938,30.3994,鄂州市,市政府,细颗粒物(PM2.5),83,94,85,61,56,114,,,,17,19,10,10,1.4,1.3
2025-03-27T0200,2437A,114.8989,30.3714,鄂州市,赵家坝,颗粒物(PM10),70,90,84,47,48,92,,,,10,11,6,8,1.1,1.3
2025-03-27T0200,3654A,114.8094,30.4089,鄂州市,精准医疗中心,颗粒物(PM10),80,110,96,54,57,119,,,,22,30,12,21,1.1,1.5
2025-03-27T0200,2454A,109.4978,30.2981,恩施土家族苗族自治州,湖北民院,细颗粒物(PM2.5),92,73,61,68,48,67,,,,22,25,2,2,0.6,0.3
2025-03-27T0200,2455A,109.4707,30.2798,恩施土家族苗族自治州,州电力总公司,细颗粒物(PM2.5),94,92,61,70,46,11,,,,55,33,5,7,0.4,0.2
2025-03-27T0200,3549A,109.5061,30.3772,恩施土家族苗族自治州,龙凤新区,细颗粒物(PM2.5),77,72,54,56,41,41,,,,15,18,7,6,0.6,0.5
2025-03-27T0200,2499A,108.3411,21.6158,防城港市,沙万,,41,41,35,15,16,54,,,,18,14,7,7,0.3,0.3
2025-03-27T0200,2500A,108.3514,21.7731,防城港市,防城档案局,,40,40,36,13,17,51,,,,10,8,2,3,0.3,0.2
2025-03-27T0200,2501A,108.3506,21.6414,防城港市,大海花园,,34,34,32,11,12,70,,,,6,5,4,4,0.6,0.6
2025-03-27T0200,1371A,113.1294,23.0067,佛山市,湾梁,,34,34,48,15,19,57,,,,17,23,6,7,0.5,0.6
2025-03-27T0200,1372A,113.1083,23.0478,佛山市,华材职中,,29,24,42,20,25,64,,,,14,21,6,6,0.4,0.4
2025-03-27T0200,1373A,113.144,23.0453,佛山市,南海气象局,,32,32,50,19,25,46,,,,17,23,6,6,0.5,0.5
2025-03-27T0200,1374A,113.2881,22.8094,佛山市,顺德苏岗,,26,26,45,3,15,50,,,,9,13,6,7,0.5,0.6
2025-03-27T0200,1376A,112.8383,22.8678,佛山市,高明孔堂,,27,27,39,15,22,59,,,,5,7,6,6,0.3,0.4
2025-03-27T0200,1377A,112.8836,23.1588,佛山市,三水监测站,,32,29,47,22,30,25,,,,42,37,2,3,0.5,0.5
2025-03-27T0200,1378A,112.867,23.185,佛山市,三水云东海,,34,34,49,21,26,38,,,,34,32,2,2,0.4,0.5
2025-03-27T0200,3625A,113.2544,22.7642,佛山市,容桂街道办,,18,14,33,9,18,56,,,,12,18,6,7,0.5,0.6
2025-03-27T0200,1280A,119.3903,26.0543,福州市,鼓山,,,,63,,36,,,163,,,10,,3,,0.5
2025-03-27T0200,1282A,119.2681,26.0504,福州市,师大,,43,43,74,30,44,57,,,,19,25,4,5,0.2,0.4
2025-03-27T0200,1283A,119.2984,26.1028,福州市,五四北路,,42,40,69,29,45,60,,,,26,31,5,5,0.4,0.6
2025-03-27T0200,1284A,119.2648,26.0768,福州市,杨桥西路,,46,46,80,30,48,58,,,,23,28,5,5,0.4,0.5
2025-03-27T0200,1285A,119.317,26.0746,福州市,紫阳,,44,44,77,30,44,55,,,,25,40,5,5,0.2,0.3
2025-03-27T0200,3048A,119.5799,26.0936,福州市,九龙,,36,36,60,23,40,69,,,,12,21,5,5,0.3,0.4
2025-03-27T0200,3526A,119.5189,25.9664,福州市,吴航,,43,43,53,24,32,58,,,,11,17,4,5,0.3,0.4
2025-03-27T0200,1755A,123.7977,41.8491,抚顺市,望花区,颗粒物(PM10),101,151,191,44,126,74,,,,22,48,13,19,0.6,1.4
2025-03-27T0200,1756A,123.9161,41.8822,抚顺市,顺城区,颗粒物(PM10),87,124,189,46,128,68,,,,30,57,9,13,0.6,1.5
2025-03-27T0200,1757A,124.0436,41.8611,抚顺市,东洲区,颗粒物(PM10),100,150,207,62,142,57,,,,33,44,10,10,0.8,1.5
2025-03-27T0200,1758A,123.9247,41.8642,抚顺市,新抚区,颗粒物(PM10),89,127,198,47,147,66,,,,30,54,7,11,0.6,1.5
2025-03-27T0200,1759A,124.0972,41.8961,抚顺市,大伙房水库,颗粒物(PM10),93,136,189,63,152,54,,,,35,44,11,10,0.9,1.5
2025-03-27T0200,1760A,123.7086,41.8391,抚顺市,沈抚新城,颗粒物(PM10),90,129,171,38,123,71,,,,22,47,10,15,0.8,1.6
2025-03-27T0200,2376A,116.2127,28.0814,抚州市,桐源党溪,颗粒物(PM10),62,73,77,39,47,115,,,,3,7,4,6,0.4,0.5
2025-03-27T0200,2377A,116.3544,27.9831,抚州市,市站,颗粒物(PM10),53,56,77,33,38,93,,,,3,15,5,7,1.1,1.1
2025-03-27T0200,2378A,116.3565,27.963,抚州市,血防站,细颗粒物(PM2.5),55,56,71,39,44,104,,,,3,13,17,20,1.0,1.3
2025-03-27T0200,2379A,116.3564,28.0007,抚州市,采茶剧团,颗粒物(PM10),54,57,76,36,46,84,,,,2,9,2,5,0.9,0.8
2025-03-27T0200,2380A,116.385,27.9647,抚州市,医学分院,颗粒物(PM10),57,64,80,32,42,79,,,,3,14,3,6,0.8,1.1
2025-03-27T0200,2207A,121.6094,41.998,阜新市,工业园区,颗粒物(PM10),55,60,117,6,85,90,,,,6,29,4,13,0.3,0.7
2025-03-27T0200,2208A,121.6697,42.0279,阜新市,长青街,颗粒物(PM10),51,52,116,3,77,90,,,,5,25,5,13,0.3,0.7
2025-03-27T0200,2209A,121.6673,42.0705,阜新市,农业园区,,40,40,114,3,69,90,,,,2,20,5,14,0.4,0.7
2025-03-27T0200,2210A,121.6717,42.0224,阜新市,东苑,,46,46,120,3,80,90,,,,5,27,5,15,0.2,0.7
2025-03-27T0200,2211A,121.6506,42.0498,阜新市,玉龙新城,颗粒物(PM10),53,55,124,3,80,87,,,,6,30,6,19,0.3,0.7
2025-03-27T0200,2301A,115.8277,32.8929,阜阳市,市监测站,细颗粒物(PM2.5),107,146,81,80,47,102,,,,17,22,9,10,0.4,0.5
2025-03-27T0200,2303A,115.8554,32.8605,阜阳市,开发区,颗粒物(PM10),108,166,93,72,42,103,,,,16,15,7,8,0.5,0.5
2025-03-27T0200,2875A,115.784,32.8892,阜阳市,阜阳职业技术学院,颗粒物(PM10),107,164,85,76,45,105,,,,16,17,9,9,0.6,0.7
2025-03-27T0200,3468A,115.7901,32.8613,阜阳市,市规划展馆,细颗粒物(PM2.5),108,152,87,81,55,109,,,,15,15,10,9,0.6,0.6
2025-03-27T0200,3469A,115.836,32.9183,阜阳市,枣园社区,颗粒物(PM10),110,170,94,75,57,105,,,,14,22,10,9,0.6,0.6
2025-03-27T0200,2669A,102.9099,34.9841,甘南藏族自治州,州政府,颗粒物(PM10),270,399,203,83,68,69,,,,4,20,9,11,0.3,0.5
2025-03-27T0200,3380A,102.8914,34.9617,甘南藏族自治州,甘肃民族师范学院,颗粒物(PM10),315,432,237,94,71,74,,,,3,19,8,9,0.3,0.4
2025-03-27T0200,2570A,101.9603,30.0475,甘孜藏族自治州,水桥子,颗粒物(PM10),55,60,47,12,12,18,,,,48,35,4,4,0.7,0.7
2025-03-27T0200,3065A,101.9533,29.9972,甘孜藏族自治州,州环保局,,24,14,30,6,7,76,,,,9,14,5,5,0.4,0.4
2025-03-27T0200,3414A,115.8347,28.932,赣江新区,桑海产业园,细颗粒物(PM2.5),54,48,97,38,54,111,,,,9,37,10,13,0.6,0.7
2025-03-27T0200,2362A,114.9017,25.9149,赣州市,通天岩,臭氧1小时,65,58,60,8,12,172,,,,6,4,12,12,1.0,1
2025-03-27T0200,2363A,114.9367,25.8664,赣州市,地委,,45,45,58,30,37,125,,,,10,12,2,5,1.3,1.3
2025-03-27T0200,2364A,114.9461,25.8481,赣州市,气象台,颗粒物(PM10),53,55,60,23,32,141,,,,14,15,13,11,0.4,0.6
2025-03-27T0200,2365A,114.9322,25.8333,赣州市,市图书馆,,49,49,57,32,38,135,,,,11,14,6,6,0.8,0.9
2025-03-27T0200,2366A,114.8905,25.8471,赣州市,华坚鞋城,颗粒物(PM10),51,52,60,31,34,130,,,,14,18,8,12,0.8,0.9
2025-03-27T0200,3109A,115.0093,25.8613,赣州市,赣县区卫计委,,48,43,62,33,38,140,,,,5,11,6,6,0.6,0.7
2025-03-27T0200,2683A,106.2319,36.1417,固原市,马园,颗粒物(PM10),190,329,770,65,150,82,,,,3,8,4,4,0.5,0.5
2025-03-27T0200,2684A,106.2792,36.0022,固原市,监测站,颗粒物(PM10),160,269,670,62,150,87,,,,2,4,5,5,0.4,0.3
2025-03-27T0200,2685A,106.2375,36.0211,固原市,新区,颗粒物(PM10),161,272,671,78,150,88,,,,3,3,7,7,0.2,0.2
2025-03-27T0200,3522A,106.2177,35.9959,固原市,原州区十五小,颗粒物(PM10),180,310,627,64,140,85,,,,4,5,6,6,0.2,0.2
2025-03-27T0200,2543A,106.6308,30.5278,广安市,小平旧居,,,,,,,,,,,,,,,,
2025-03-27T0200,2544A,106.6303,30.4576,广安市,市委,细颗粒物(PM2.5),64,61,68,46,44,109,,,,13,29,9,10,0.5,0.6
2025-03-27T0200,2545A,106.6271,30.4663,广安市,友谊中学,颗粒物(PM10),55,59,72,38,40,122,,,,16,31,4,5,0.6,0.7
2025-03-27T0200,2547A,106.6388,30.4551,广安市,广电花园,细颗粒物(PM2.5),68,58,71,49,46,115,,,,17,36,8,8,0.6,0.7
2025-03-27T0200,2902A,106.6351,30.4865,广安市,北辰小学,细颗粒物(PM2.5),64,56,63,46,40,113,,,,13,21,7,10,0.3,0.5
2025-03-27T0200,2523A,105.8945,32.4535,广元市,黑石坡,颗粒物(PM10),165,279,74,53,28,100,,,,3,18,1,8,0.3,0.6
2025-03-27T0200,2524A,105.821,32.4444,广元市,老城,颗粒物(PM10),166,282,74,98,35,98,,,,8,55,1,11,0.4,0.9
2025-03-27T0200,2526A,105.8628,32.4287,广元市,监测站,颗粒物(PM10),106,162,52,51,33,93,,,,12,23,6,18,0.4,0.6
2025-03-27T0200,3617A,105.8047,32.4166,广元市,经开区,颗粒物(PM10),152,254,90,100,54,84,,,,11,53,3,17,0.4,0.9
2025-03-27T0200,1345A,113.2347,23.1423,广州市,广雅中学,,24,24,44,16,23,60,,,,16,27,4,5,0.3,0.5
2025-03-27T0200,1346A,113.2612,23.105,广州市,市五中,,29,29,48,12,21,56,,,,14,26,2,3,0.4,0.5
2025-03-27T0200,1348A,113.3478,23.0916,广州市,广东商学院,,34,34,45,18,24,33,,,,29,32,4,4,0.6,0.7
2025-03-27T0200,1349A,113.4332,23.1047,广州市,市八十六中,,25,21,38,7,14,24,,,,49,40,3,4,0.6,0.5
2025-03-27T0200,1350A,113.3505,22.9483,广州市,番禺中学,,32,32,44,15,22,43,,,,26,27,4,5,0.4,0.4
2025-03-27T0200,1351A,113.2146,23.3916,广州市,花都师范,,39,39,59,17,25,21,,,,29,28,4,4,0.4,0.4
2025-03-27T0200,1352A,113.2597,23.1331,广州市,市监测站,,32,32,44,13,20,55,,,,11,27,6,6,0.4,0.6
2025-03-27T0200,1353A,113.5618,23.312,广州市,九龙镇镇龙,,30,30,53,14,25,52,,,,21,32,5,6,0.3,0.4
2025-03-27T0200,1354A,113.2765,23.1544,广州市,麓湖,,28,28,42,12,19,56,,,,15,26,4,4,0.4,0.4
2025-03-27T0200,1355A,113.443,23.3035,广州市,帽峰山森林公园,,40,,42,28,19,48,,,,18,25,6,6,0.6,0.6
2025-03-27T0200,2846A,113.3221,23.1322,广州市,体育西,,39,39,50,22,25,46,,,,19,20,4,4,0.4,0.5
2025-03-27T0200,3298A,113.5717,23.5491,广州市,从化街口,,38,38,54,16,26,60,,,,17,25,8,9,0.5,0.6
2025-03-27T0200,3299A,113.3472,23.3692,广州市,白云竹料,,47,47,59,20,27,49,,,,24,31,6,8,0.4,0.5
2025-03-27T0200,3300A,113.2981,23.237,广州市,白云嘉禾,,41,41,50,20,24,22,,,,42,37,4,4,0.2,0.2
2025-03-27T0200,3301A,113.4256,23.1716,广州市,黄埔科学城,,38,38,51,14,21,43,,,,28,33,7,8,0.3,0.5
2025-03-27T0200,3302A,113.3942,23.0483,广州市,番禺大学城,,46,46,65,15,18,48,,,,23,28,10,11,0.3,0.3
2025-03-27T0200,3303A,113.4922,22.8168,广州市,南沙黄阁,,24,24,39,14,17,44,,,,20,18,4,5,0.6,0.6
2025-03-27T0200,3304A,113.5342,22.7896,广州市,南沙街,,26,26,35,13,16,41,,,,20,18,3,4,0.5,0.5
2025-03-27T0200,3443A,113.2902,23.5544,广州市,花都梯面,颗粒物(PM10),54,57,67,19,27,41,,,,22,25,4,6,0.6,0.6
2025-03-27T0200,3445A,113.7858,23.7478,广州市,从化良口,,32,32,49,21,35,46,,,,19,17,6,7,0.5,0.6
2025-03-27T0200,3446A,113.8051,23.2614,广州市,增城荔城,,30,30,49,12,22,61,,,,14,24,6,6,0.2,0.3
2025-03-27T0200,2505A,109.568,23.1478,贵港市,德智高中,,,,,,,,,,,,,,,,
2025-03-27T0200,2506A,109.6047,23.0666,贵港市,江南子站,,34,34,57,21,29,68,,,,10,16,4,5,0.7,0.7
2025-03-27T0200,2507A,109.6014,23.0948,贵港市,贵城子站,颗粒物(PM10),51,51,52,25,27,64,,,,11,13,6,7,0.7,0.7
2025-03-27T0200,2508A,109.5669,23.1065,贵港市,荷城子站,,39,39,50,19,22,59,,,,13,15,4,6,0.2,0.4
2025-03-27T0200,3405A,109.5886,23.1172,贵港市,新世纪学校,,46,46,51,28,29,66,,,,10,12,4,5,0.6,0.6
2025-03-27T0200,1439A,106.6899,26.5998,贵阳市,马鞍山,细颗粒物(PM2.5),58,61,47,41,31,49,,,,16,16,4,5,0.6,0.5
2025-03-27T0200,1441A,106.6243,26.6266,贵阳市,鉴湖路,细颗粒物(PM2.5),79,95,70,58,32,105,,,,13,8,10,9,0.7,0.5
2025-03-27T0200,1442A,106.7487,26.6343,贵阳市,燕子冲,细颗粒物(PM2.5),83,78,64,61,44,129,,,,15,20,12,9,0.8,0.6
2025-03-27T0200,1443A,106.6555,26.4365,贵阳市,碧云窝,细颗粒物(PM2.5),92,95,74,68,40,124,,,,16,12,13,11,0.6,0.5
2025-03-27T0200,1445A,106.7109,26.6027,贵阳市,红边门,细颗粒物(PM2.5),79,88,82,58,50,108,,,,26,43,12,12,0.8,0.9
2025-03-27T0200,1446A,106.7164,26.5699,贵阳市,新华路,细颗粒物(PM2.5),79,78,73,58,43,94,,,,20,32,20,34,0.8,0.8
2025-03-27T0200,1447A,106.674,26.5424,贵阳市,太慈桥,细颗粒物(PM2.5),79,80,64,58,35,111,,,,19,23,13,8,0.7,0.5
2025-03-27T0200,1552A,106.805,26.3003,贵阳市,桐木岭,细颗粒物(PM2.5),79,82,78,58,48,102,,,,10,6,18,22,0.9,0.6
2025-03-27T0200,4230A,106.6882,26.5695,贵阳市,花果园大街66号,细颗粒物(PM2.5),93,92,61,69,42,116,,,,23,23,14,9,0.5,0.3
2025-03-27T0200,4231A,106.6873,26.5169,贵阳市,漓江路57号,细颗粒物(PM2.5),79,83,68,58,38,106,,,,20,20,17,14,0.6,0.5
2025-03-27T0200,1862A,110.4144,25.3167,桂林市,电子科大尧山校区,,,,,,,,,,,,,,,,
2025-03-27T0200,1864A,110.3089,25.2708,桂林市,龙隐路小学,细颗粒物(PM2.5),74,69,73,54,54,63,,,,17,16,9,10,0.6,0.6
2025-03-27T0200,1865A,110.2869,25.2178,桂林市,八中,细颗粒物(PM2.5),73,89,82,53,56,45,,,,44,27,9,10,1.0,0.8
2025-03-27T0200,3531A,110.296,25.1253,桂林市,旅游学院,细颗粒物(PM2.5),70,66,66,51,45,81,,,,20,17,14,11,0.5,0.5
2025-03-27T0200,4222A,110.1835,25.2444,桂林市,环湖路276号,细颗粒物(PM2.5),62,66,75,44,49,100,,,,32,22,8,7,0.5,0.5
2025-03-27T0200,4301A,110.2803,25.2773,桂林市,信义路13号,细颗粒物(PM2.5),67,73,74,48,48,81,,,,18,20,12,12,0.8,0.8
2025-03-27T0200,2674A,100.2561,34.4714,果洛藏族自治州,玛沁县大武镇,颗粒物(PM10),124,197,71,43,20,100,,,,2,4,4,12,0.3,0.4
2025-03-27T0200,1129A,126.5422,45.755,哈尔滨市,岭北,细颗粒物(PM2.5),64,,65,46,54,54,,,,30,33,24,20,1.1,1.2
2025-03-27T0200,1130A,126.561,45.8167,哈尔滨市,松北商大,,43,35,66,30,52,50,,,,12,36,5,6,0.5,0.7
2025-03-27T0200,1131A,126.979,45.5419,哈尔滨市,阿城会宁,细颗粒物(PM2.5),89,72,52,66,43,43,,,,12,13,2,2,1.0,0.7
2025-03-27T0200,1132A,126.599,45.7222,哈尔滨市,南岗学府路,"颗粒物(PM10),细颗粒物(PM2.5)",65,80,69,47,41,23,,,,35,31,7,7,0.8,0.7
2025-03-27T0200,1133A,126.689,45.7733,哈尔滨市,太平宏伟公园,颗粒物(PM10),51,51,67,35,57,41,,,,16,37,5,7,0.9,1.1
2025-03-27T0200,1134A,126.635,45.7667,哈尔滨市,道外承德广场,颗粒物(PM10),61,72,85,34,56,40,,,,15,38,5,7,0.4,0.7
2025-03-27T0200,1135A,126.685,45.7319,哈尔滨市,香坊红旗大街,细颗粒物(PM2.5),63,56,80,45,61,21,,,,36,39,14,13,0.7,0.9
2025-03-27T0200,1136A,126.6411,45.7258,哈尔滨市,动力和平路,细颗粒物(PM2.5),79,78,68,58,56,24,,,,35,32,11,12,0.7,0.7
2025-03-27T0200,1137A,126.593,45.7478,哈尔滨市,道里建国路,细颗粒物(PM2.5),62,65,62,44,54,38,,,,16,35,16,8,0.4,0.9
2025-03-27T0200,1138A,126.615,45.61,哈尔滨市,平房东轻厂,细颗粒物(PM2.5),102,82,55,76,47,7,,,,43,15,8,8,1.1,0.8
2025-03-27T0200,1139A,126.595,45.9855,哈尔滨市,呼兰师专,,35,,50,24,42,57,,,,12,23,9,8,0.5,0.6
2025-03-27T0200,1140A,126.6206,45.6842,哈尔滨市,省农科院,细颗粒物(PM2.5),103,85,67,77,53,14,,,,43,39,11,10,0.9,0.7
2025-03-27T0200,2688A,93.5128,42.8172,哈密市,地区监测站,,48,48,232,10,26,64,,,,5,5,4,5,0.2,0.2
2025-03-27T0200,2689A,93.4961,42.8328,哈密市,哈密师范学校,颗粒物(PM10),52,53,188,19,38,72,,,,5,8,4,4,0.1,0.3
2025-03-27T0200,2671A,100.9048,36.9639,海北藏族自治州,海晏县西海镇,颗粒物(PM10),212,358,171,81,45,89,,,,3,3,9,11,0.6,0.5
2025-03-27T0200,3867A,102.0738,36.5056,海东市,平安区公安北苑,颗粒物(PM10),162,273,994,97,260,78,,,,4,6,8,11,0.4,0.7
2025-03-27T0200,1409A,110.576,19.9507,海口市,东寨港,,19,13,25,13,17,42,,,,4,4,3,3,0.1,0.2
2025-03-27T0200,1410A,110.3232,20.0574,海口市,海南大学,,27,27,39,15,22,47,,,,9,12,2,2,0.3,0.4
2025-03-27T0200,1411A,110.283,20.0053,海口市,秀英海南医院,,47,47,41,14,24,46,,,,11,20,4,5,0.3,0.4
2025-03-27T0200,1412A,110.338,19.9969,海口市,海南师范大学,,29,29,38,18,20,48,,,,5,8,4,3,0.2,0.3
2025-03-27T0200,1413A,110.33,20.0356,海口市,龙华路环保局宿舍,,32,32,35,14,20,53,,,,5,10,4,4,0.3,0.3
2025-03-27T0200,3539A,110.5111,19.9736,海口市,桂林洋子站,,36,36,32,18,15,40,,,,8,8,3,3,0.3,0.3
2025-03-27T0200,2673A,100.6188,36.2866,海南藏族自治州,共和县恰卜恰镇,颗粒物(PM10),489,589,100,69,30,107,,,,1,9,12,13,0.4,0.4
2025-03-27T0200,2676A,97.3731,37.3753,海西蒙古族藏族自治州,德令哈市,颗粒物(PM10),116,182,100,36,22,105,,,,1,8,8,12,0.4,0.5
2025-03-27T0200,1048A,114.5302,36.6116,邯郸市,东污水处理厂,颗粒物(PM10),77,104,115,41,32,58,,,,27,39,5,4,0.6,0.4
2025-03-27T0200,1049A,114.4918,36.5713,邯郸市,矿院,颗粒物(PM10),86,122,137,48,33,54,,,,24,32,6,4,0.7,0.5
2025-03-27T0200,1050A,114.484,36.6133,邯郸市,丛台公园,颗粒物(PM10),76,102,122,47,39,56,,,,25,33,9,7,0.7,0.5
2025-03-27T0200,3458A,114.7895,36.5593,邯郸市,香泉濮院小区,颗粒物(PM10),87,123,136,52,31,26,,,,42,23,7,5,0.6,0.4
2025-03-27T0200,3579A,114.50634,36.77178,邯郸市,永年区实验高中,颗粒物(PM10),87,124,145,46,42,44,,,,35,36,7,8,0.7,0.6
2025-03-27T0200,3580A,114.20016,36.44293,邯郸市,峰峰矿区临水派出所,颗粒物(PM10),92,133,157,44,45,91,,,,13,17,15,16,0.9,1
2025-03-27T0200,2634A,106.9893,33.1842,汉中市,汉川机床厂子校,颗粒物(PM10),325,440,108,131,48,107,,,,1,6,7,8,0.4,0.5
2025-03-27T0200,2635A,107.0154,33.0706,汉中市,市监测站,颗粒物(PM10),226,368,96,86,45,82,,,,12,30,5,8,0.5,0.9
2025-03-27T0200,2636A,107.0089,33.1138,汉中市,鑫源开发区,颗粒物(PM10),269,398,115,107,52,78,,,,20,33,5,10,0.5,0.8
2025-03-27T0200,2637A,107.007,33.0323,汉中市,南郑大河坎水厂,颗粒物(PM10),183,315,79,97,42,66,,,,21,26,7,8,0.6,0.7
2025-03-27T0200,1223A,120.2072,30.2111,杭州市,滨江,细颗粒物(PM2.5),84,85,79,62,45,93,,,,38,43,8,8,0.8,0.7
2025-03-27T0200,1224A,120.0633,30.2747,杭州市,西溪,细颗粒物(PM2.5),100,90,70,75,52,100,,,,22,25,7,8,0.4,0.3
2025-03-27T0200,1226A,120.3417,30.3150,杭州市,下沙,细颗粒物(PM2.5),95,126,104,71,56,84,,,,41,50,9,8,0.7,0.6
2025-03-27T0200,1227A,120.1269,30.2456,杭州市,卧龙桥,细颗粒物(PM2.5),79,88,71,58,45,88,,,,32,30,7,7,0.6,0.6
2025-03-27T0200,1228A,120.1903,30.2692,杭州市,浙江农大,细颗粒物(PM2.5),83,93,83,61,49,90,,,,36,38,3,4,0.6,0.6
2025-03-27T0200,1230A,120.1197,30.3119,杭州市,和睦小学,细颗粒物(PM2.5),87,90,80,64,51,120,,,,19,45,8,8,0.8,0.8
2025-03-27T0200,1231A,120.3019,30.4183,杭州市,临平镇,细颗粒物(PM2.5),88,114,97,65,54,91,,,,38,61,7,7,0.7,0.7
2025-03-27T0200,1232A,120.2753,30.1839,杭州市,城厢镇,细颗粒物(PM2.5),95,110,91,71,52,92,,,,39,43,11,10,0.9,0.7
2025-03-27T0200,1233A,120.0883,30.1808,杭州市,云栖,细颗粒物(PM2.5),77,79,74,56,42,25,,,,65,51,9,9,0.7,0.6
2025-03-27T0200,3557A,119.9464,30.0494,杭州市,镇二中,细颗粒物(PM2.5),94,96,80,70,57,54,,,,56,47,7,8,0.8,0.8
2025-03-27T0200,3558A,119.7183,30.2367,杭州市,市府大楼,细颗粒物(PM2.5),72,82,76,52,47,95,,,,29,36,8,9,0.9,0.8
2025-03-27T0200,3656A,120.1556,30.2864,杭州市,消防大队,细颗粒物(PM2.5),87,93,80,64,50,103,,,,35,41,3,4,0.8,0.7
2025-03-27T0200,1270A,117.1959,31.7848,合肥市,明珠广场,细颗粒物(PM2.5),73,70,75,53,45,143,,,,12,18,5,8,0.6,0.6
2025-03-27T0200,1271A,117.3072,31.8764,合肥市,三里街,颗粒物(PM10),56,61,80,36,44,128,,,,20,33,4,8,0.6,0.7
2025-03-27T0200,1272A,117.2588,31.8707,合肥市,琥珀山庄,细颗粒物(PM2.5),78,75,79,57,54,151,,,,12,20,2,4,0.6,0.6
2025-03-27T0200,1273A,117.1604,31.9052,合肥市,董铺水库,颗粒物(PM10),71,92,81,48,40,160,,,,4,11,1,4,0.6,0.5
2025-03-27T0200,1274A,117.25,31.8571,合肥市,长江中路,细颗粒物(PM2.5),69,68,80,50,50,160,,,,9,17,7,10,0.7,0.7
2025-03-27T0200,1275A,117.266,31.9436,合肥市,庐阳区,细颗粒物(PM2.5),70,85,82,51,45,158,,,,13,21,8,11,0.7,0.7
2025-03-27T0200,1276A,117.3453,31.8616,合肥市,瑶海区,细颗粒物(PM2.5),62,63,88,44,45,147,,,,12,28,8,9,0.8,0.8
2025-03-27T0200,1277A,117.3027,31.7964,合肥市,包河区,细颗粒物(PM2.5),73,78,75,53,45,130,,,,19,17,6,8,0.8,0.7
2025-03-27T0200,1278A,117.2776,31.7385,合肥市,滨湖新区,细颗粒物(PM2.5),73,73,74,53,49,139,,,,12,17,6,10,0.7,0.6
2025-03-27T0200,1279A,117.1318,31.8403,合肥市,高新区,细颗粒物(PM2.5),64,73,77,46,44,159,,,,8,15,4,7,0.9,0.8
2025-03-27T0200,3464A,117.3803,31.9147,合肥市,高教基地,细颗粒物(PM2.5),72,69,80,52,54,143,,,,12,19,4,9,0.5,0.5
2025-03-27T0200,3614A,79.924,37.0877,和田地区,地区环保局,细颗粒物(PM2.5),500,,838,3319,1075,60,,,,1,7,1,2,0.8,0.9
2025-03-27T0200,3615A,79.9131,37.113,和田地区,市环保局,细颗粒物(PM2.5),500,,771,2953,891,70,,,,2,6,2,2,0.4,0.5
2025-03-27T0200,2516A,108.2011,24.715,河池市,东仁乐园,,,,91,45,60,100,,,,23,22,14,11,1.0,1
2025-03-27T0200,2517A,108.0497,24.6947,河池市,市环保站,细颗粒物(PM2.5),68,82,78,49,56,91,,,,21,15,10,8,0.8,0.8
2025-03-27T0200,2518A,108.0983,24.6989,河池市,市疾控中心,细颗粒物(PM2.5),72,92,84,52,56,99,,,,23,19,15,11,0.8,0.9
2025-03-27T0200,1696A,114.6778,23.7569,河源市,源西,,29,28,48,20,30,64,,,,9,17,4,5,0.6,0.7
2025-03-27T0200,1697A,114.6944,23.7586,河源市,东埔,,38,,55,26,35,64,,,,12,20,4,6,0.4,0.5
2025-03-27T0200,1698A,114.6892,23.7233,河源市,老城,,28,23,51,19,31,64,,,,12,18,4,6,0.5,0.6
2025-03-27T0200,1718A,115.4208,35.2464,菏泽市,气象局,颗粒物(PM10),118,185,163,73,68,48,,,,27,24,6,9,0.7,0.6
2025-03-27T0200,3374A,115.5564,35.0891,菏泽市,定陶老年大学,颗粒物(PM10),152,254,150,61,59,53,,,,28,25,8,8,0.8,0.8
2025-03-27T0200,4184A,115.4797,35.24401,菏泽市,永昌路1号,颗粒物(PM10),125,199,178,78,73,51,,,,26,21,7,9,0.5,0.5
2025-03-27T0200,4193A,115.4715,35.2800,菏泽市,长城路999号,颗粒物(PM10),114,178,162,70,65,46,,,,32,27,6,12,0.9,0.8
2025-03-27T0200,2514A,111.5264,24.4172,贺州市,环保小区,细颗粒物(PM2.5),52,52,75,36,50,99,,,,17,23,12,13,0.8,0.9
2025-03-27T0200,2515A,111.5608,24.4078,贺州市,政协大楼,颗粒物(PM10),52,54,65,34,48,94,,,,17,25,13,16,0.6,0.8
2025-03-27T0200,3534A,111.4744,24.4553,贺州市,西湾,细颗粒物(PM2.5),72,79,77,52,55,68,,,,37,30,10,11,0.7,0.9
2025-03-27T0200,2385A,114.17,35.9019,鹤壁市,市监测站,颗粒物(PM10),97,143,198,48,56,58,,,,28,34,16,12,1.2,0.9
2025-03-27T0200,2386A,114.2956,35.7511,鹤壁市,市交警支队,颗粒物(PM10),95,139,183,41,48,47,,,,31,28,8,10,1.1,0.4
2025-03-27T0200,2387A,114.2878,35.7306,鹤壁市,迎宾馆,颗粒物(PM10),101,152,228,40,38,51,,,,30,28,11,6,1.2,0.6
2025-03-27T0200,3474A,114.2617,35.6822,鹤壁市,大新区,颗粒物(PM10),95,139,195,50,50,57,,,,31,29,12,9,1.3,0.8
2025-03-27T0200,3596A,114.1572,35.9603,鹤壁市,南山宾馆,颗粒物(PM10),106,161,240,55,58,50,,,,38,33,16,11,1.2,0.8
2025-03-27T0200,2244A,130.2537,47.3416,鹤岗市,哈啤分公司,,36,36,23,19,14,65,,,,2,4,14,15,0.6,0.6
2025-03-27T0200,2245A,130.2684,47.3086,鹤岗市,斯达机电,,26,18,24,18,16,68,,,,1,4,14,14,0.4,0.3
2025-03-27T0200,2246A,130.3114,47.3388,鹤岗市,东山纸板厂,,35,35,48,18,19,75,,,,4,10,13,14,0.3,0.6
2025-03-27T0200,2247A,130.1097,47.3382,鹤岗市,五号水库,,,,,,,,,,,,,,,,
2025-03-27T0200,2263A,127.4833,50.2524,黑河市,交通局,,25,19,22,13,14,80,,,,6,10,6,7,0.4,0.5
2025-03-27T0200,2264A,127.5144,50.2341,黑河市,环保局,,26,22,21,16,15,82,,,,6,9,4,4,0.2,0.3
2025-03-27T0200,2265A,127.5291,50.2472,黑河市,大黑河岛,,,16,18,3,6,15,,,,12,10,3,2,,
2025-03-27T0200,1074A,115.6838,37.7541,衡水市,电机北厂,颗粒物(PM10),107,164,131,73,54,61,,,,36,29,5,12,0.5,0.5
2025-03-27T0200,1075A,115.6303,37.7316,衡水市,市监测站,颗粒物(PM10),94,137,113,62,43,63,,,,34,25,12,11,0.5,0.5
2025-03-27T0200,3188A,115.6683,37.7217,衡水市,市城管局,颗粒物(PM10),97,143,123,59,52,77,,,,29,26,9,8,0.6,0.5
2025-03-27T0200,3459A,115.5989,37.5491,衡水市,地表水厂,颗粒物(PM10),96,142,116,62,42,67,,,,27,24,10,12,0.5,0.4
2025-03-27T0200,2456A,112.5003,26.9167,衡阳市,原169医院,细颗粒物(PM2.5),63,68,78,45,50,70,,,,21,8,7,8,0.6,0.6
2025-03-27T0200,2457A,112.6194,26.9258,衡阳市,衡阳化工总厂,细颗粒物(PM2.5),134,,87,102,73,89,,,,15,13,9,9,0.8,0.8
2025-03-27T0200,2458A,112.6211,26.8956,衡阳市,珠晖区环保局,细颗粒物(PM2.5),70,77,79,51,52,88,,,,17,13,10,10,1.0,1
2025-03-27T0200,2459A,112.6197,26.8733,衡阳市,市委党校,细颗粒物(PM2.5),67,64,78,48,50,108,,,,10,12,8,8,0.8,0.9
2025-03-27T0200,2460A,112.6006,26.8919,衡阳市,市监测站,细颗粒物(PM2.5),72,78,82,52,60,81,,,,20,19,9,15,0.9,0.9
2025-03-27T0200,2461A,112.5664,26.9056,衡阳市,真空机电公司,细颗粒物(PM2.5),69,72,81,50,52,82,,,,26,14,8,14,1.3,1.2
2025-03-27T0200,3399A,112.6703,26.882,衡阳市,师范学院,细颗粒物(PM2.5),78,75,91,57,58,96,,,,13,14,10,11,0.9,0.8
2025-03-27T0200,2608A,103.3772,23.3993,红河哈尼族彝族自治州,污水处理厂,细颗粒物(PM2.5),88,72,61,65,50,84,,,,16,10,8,9,0.5,0.5
2025-03-27T0200,2609A,103.3861,23.35,红河哈尼族彝族自治州,监测站,细颗粒物(PM2.5),89,,61,66,44,87,,,,19,10,10,10,0.5,0.4
2025-03-27T0200,3038A,103.3758,23.368,红河哈尼族彝族自治州,州图书馆,细颗粒物(PM2.5),68,53,53,49,46,125,,,,9,9,6,6,0.4,0.4
2025-03-27T0200,1090A,111.6507,40.7517,呼和浩特市,呼市一监,颗粒物(PM10),75,100,237,26,51,88,,,,1,8,8,9,0.3,0.4
2025-03-27T0200,1091A,111.6572,40.8033,呼和浩特市,小召,颗粒物(PM10),68,85,256,19,46,85,,,,7,13,2,3,0.3,0.3
2025-03-27T0200,1094A,111.7516,40.8369,呼和浩特市,如意水处理厂,颗粒物(PM10),65,79,239,25,62,80,,,,2,5,6,5,0.2,0.2
2025-03-27T0200,1095A,111.7276,40.8062,呼和浩特市,二十九中,颗粒物(PM10),83,115,254,31,55,86,,,,1,6,3,3,0.4,0.4
2025-03-27T0200,1096A,111.5512,40.7866,呼和浩特市,工大金川校区,颗粒物(PM10),77,103,231,26,53,90,,,,2,13,5,8,0.4,0.5
2025-03-27T0200,1097A,111.717,40.7612,呼和浩特市,化肥厂生活区,颗粒物(PM10),79,107,234,23,48,88,,,,5,13,6,6,0.3,0.4
2025-03-27T0200,3698A,111.5968,40.8178,呼和浩特市,红旗小学,颗粒物(PM10),67,83,256,25,52,86,,,,6,11,3,6,0.3,0.4
2025-03-27T0200,3699A,111.6518,40.8389,呼和浩特市,海东办,细颗粒物(PM2.5),67,61,261,48,56,81,,,,2,5,5,6,0.4,0.5
2025-03-27T0200,2192A,119.7594,49.2261,呼伦贝尔市,区环保局,,29,29,48,20,34,82,,,,7,10,6,7,0.3,0.4
2025-03-27T0200,3061A,119.7512,49.1577,呼伦贝尔市,国华电力东,,30,24,42,21,27,80,,,,6,6,4,5,0.3,0.3
2025-03-27T0200,1250A,120.0751,30.8669,湖州市,城西水厂,细颗粒物(PM2.5),82,94,88,60,47,31,,,,104,60,8,9,0.7,0.6
2025-03-27T0200,2873A,120.0830,30.8929,湖州市,仁皇山新区,细颗粒物(PM2.5),84,87,84,62,50,64,,,,55,53,6,7,0.8,0.8
2025-03-27T0200,2907A,120.1844,30.8596,湖州市,吴兴区站,细颗粒物(PM2.5),97,112,99,72,58,46,,,,71,50,10,10,0.6,0.5
2025-03-27T0200,3562A,120.4148,30.8538,湖州市,南浔区站,细颗粒物(PM2.5),97,133,125,72,71,39,,,,71,47,6,7,0.8,0.6
2025-03-27T0200,1607A,120.9049,40.7211,葫芦岛市,龙港区,颗粒物(PM10),288,411,122,35,80,68,,,,12,27,9,10,0.5,0.7
2025-03-27T0200,1608A,120.8392,40.7514,葫芦岛市,化工街,颗粒物(PM10),420,520,165,68,75,72,,,,15,36,10,17,0.4,0.7
2025-03-27T0200,1609A,120.8341,40.7073,葫芦岛市,新区,颗粒物(PM10),319,435,130,45,81,80,,,,15,38,10,12,0.3,0.8
2025-03-27T0200,1610A,120.8695,40.7677,葫芦岛市,东城区,颗粒物(PM10),430,530,139,35,83,76,,,,11,39,5,9,0.4,0.8
2025-03-27T0200,2482A,109.5981,27.5721,怀化市,林科所,细颗粒物(PM2.5),64,74,78,46,45,117,,,,11,12,5,6,0.1,0.4
2025-03-27T0200,2483A,109.9453,27.5444,怀化市,河西地税局,细颗粒物(PM2.5),69,66,70,50,52,122,,,,7,8,10,11,0.5,0.5
2025-03-27T0200,2484A,109.9781,27.5342,怀化市,市四医院,细颗粒物(PM2.5),64,76,84,46,55,114,,,,19,18,9,10,0.6,0.7
2025-03-27T0200,2485A,109.9972,27.5578,怀化市,监测楼,细颗粒物(PM2.5),59,66,70,42,48,125,,,,9,10,10,10,0.5,0.5
2025-03-27T0200,2486A,110.0394,27.583,怀化市,市委党校,细颗粒物(PM2.5),79,72,72,58,53,121,,,,9,10,7,6,0.8,0.8
2025-03-27T0200,1210A,119.036,33.5981,淮安市,钵池山,颗粒物(PM10),91,132,104,65,57,119,,,,21,24,13,12,0.8,0.9
2025-03-27T0200,1211A,119.007,33.575,淮安市,北京南路,颗粒物(PM10),101,151,114,64,58,122,,,,24,38,11,12,0.8,0.9
2025-03-27T0200,1212A,118.989,33.6067,淮安市,市监测站,颗粒物(PM10),87,124,104,63,55,124,,,,25,35,11,14,0.2,0.7
2025-03-27T0200,1213A,119.135,33.5039,淮安市,楚州区监测站,颗粒物(PM10),95,139,125,63,57,114,,,,17,26,10,11,0.7,0.7
2025-03-27T0200,3426A,118.8755,33.2894,淮安市,新华书店,细颗粒物(PM2.5),109,159,102,82,60,61,,,,70,27,20,13,1.0,1
2025-03-27T0200,4206A,119.0288,33.6319,淮安市,承德北路606号,颗粒物(PM10),103,156,122,64,55,115,,,,27,38,10,12,0.7,0.9
2025-03-27T0200,2282A,116.8004,33.975,淮北市,监测站,颗粒物(PM10),113,176,111,78,61,68,,,,29,22,10,9,0.6,0.6
2025-03-27T0200,2283A,116.8091,33.9007,淮北市,烈山区政府,细颗粒物(PM2.5),117,157,110,88,61,76,,,,28,21,8,9,1.0,0.9
2025-03-27T0200,3330A,116.8873,33.9836,淮北市,杜集区检察院,细颗粒物(PM2.5),104,150,108,78,59,70,,,,26,21,9,9,1.0,0.9
2025-03-27T0200,4017A,116.7923,33.9535,淮北市,市博物馆,颗粒物(PM10),112,174,114,78,61,75,,,,24,19,11,10,1.2,1.1
2025-03-27T0200,2277A,116.8305,32.7727,淮南市,潘集区政府,颗粒物(PM10),115,180,101,80,58,101,,,,21,21,10,10,0.7,0.7
2025-03-27T0200,2279A,116.8569,32.5951,淮南市,谢家集区政府,颗粒物(PM10),118,185,94,86,52,112,,,,21,20,12,11,0.7,0.6
2025-03-27T0200,2280A,116.8281,32.633,淮南市,八公山区政府,颗粒物(PM10),113,176,95,82,50,107,,,,18,14,10,8,0.6,0.5
2025-03-27T0200,2281A,116.6325,32.6201,淮南市,焦岗湖风景区管理处,颗粒物(PM10),95,140,73,67,35,85,,,,11,12,10,10,0.8,0.7
2025-03-27T0200,2894A,117.0566,32.6531,淮南市,经济技术开发区消防队,细颗粒物(PM2.5),129,163,88,98,52,126,,,,12,17,10,10,0.6,0.5
2025-03-27T0200,3329A,117.0108,32.5893,淮南市,山南新区,细颗粒物(PM2.5),117,172,101,88,62,131,,,,19,10,12,11,0.6,0.6
2025-03-27T0200,4209A,117.0031,32.6445,淮南市,国庆中路369号,颗粒物(PM10),115,179,86,71,51,124,,,,16,18,16,15,0.6,0.6
2025-03-27T0200,2446A,114.9028,30.4742,黄冈市,职工中心,细颗粒物(PM2.5),92,85,83,68,65,113,,,,23,26,16,18,1.0,0.9
2025-03-27T0200,2929A,114.8858,30.4519,黄冈市,红卫路,细颗粒物(PM2.5),87,90,83,64,57,111,,,,21,15,15,14,1.1,1
2025-03-27T0200,3398A,114.9136,30.4445,黄冈市,市林业局,细颗粒物(PM2.5),79,79,90,58,59,113,,,,26,24,15,16,0.9,0.8
2025-03-27T0200,2672A,102.0199,35.5102,黄南藏族自治州,同仁县隆务镇,颗粒物(PM10),222,365,361,95,115,86,,,,1,8,20,17,0.3,0.4
2025-03-27T0200,2295A,118.2903,29.6963,黄山市,延安路89号,颗粒物(PM10),62,73,65,40,43,123,,,,5,14,5,6,0.7,0.6
2025-03-27T0200,2297A,118.1371,30.2756,黄山市,黄山区政府5号楼,,30,22,59,12,37,96,,,,4,6,8,9,0.8,0.8
2025-03-27T0200,4210A,118.3354,29.7203,黄山市,滨江东路7-2号,颗粒物(PM10),52,53,68,29,39,116,,,,4,13,6,6,0.7,0.6
2025-03-27T0200,2423A,115.0601,30.2313,黄石市,沈家营,颗粒物(PM10),73,96,91,41,50,151,,,,2,24,6,10,0.6,0.8
2025-03-27T0200,2426A,114.8988,30.2019,黄石市,铁山,颗粒物(PM10),76,101,74,46,50,133,,,,11,23,18,23,0.7,0.7
2025-03-27T0200,2427A,115.0307,30.2092,黄石市,团城山,颗粒物(PM10),80,110,85,35,44,141,,,,8,21,7,12,0.6,0.7
2025-03-27T0200,3149A,115.0235,30.1578,黄石市,笔架山北路,颗粒物(PM10),96,141,80,31,46,143,,,,2,15,8,13,0.7,0.9
2025-03-27T0200,4185A,115.0780,30.21118,黄石市,磁湖东路29号,颗粒物(PM10),72,94,107,38,53,164,,,,1,25,6,11,0.6,0.8
2025-03-27T0200,1392A,114.4183,23.0528,惠州市,河南岸金山湖子站,,33,33,41,17,22,43,,,,21,24,8,8,0.5,0.5
2025-03-27T0200,1393A,114.4053,23.0822,惠州市,下埔横江三路子站,,37,37,47,19,24,58,,,,15,21,8,9,0.4,0.4
2025-03-27T0200,1394A,114.4103,23.1142,惠州市,江北云山西路子站,,36,36,43,16,20,58,,,,15,20,8,10,0.4,0.5
2025-03-27T0200,1395A,114.4645,22.7833,惠州市,惠阳区承修路船湖子站,,30,30,37,15,18,71,,,,8,17,8,8,0.5,0.6
2025-03-27T0200,1396A,114.5317,22.7422,惠州市,大亚湾管委会子站,,26,26,31,12,15,69,,,,13,26,6,7,0.6,0.4
2025-03-27T0200,3314A,114.4338,22.8134,惠州市,惠阳秋长,,24,24,45,13,18,72,,,,6,13,9,14,0.6,0.6
2025-03-27T0200,3452A,114.6517,22.775,惠州市,大亚湾霞涌,,23,23,25,9,14,54,,,,17,16,8,8,0.2,0.3
2025-03-27T0200,2240A,130.9762,45.3001,鸡西市,环保局,,26,26,76,7,59,67,,,,9,16,6,10,0.4,0.5
2025-03-27T0200,2243A,130.9429,45.3039,鸡西市,第一中学,,26,26,67,12,53,68,,,,9,15,6,11,0.4,0.5
2025-03-27T0200,3707A,131.0207,45.3073,鸡西市,欧美日汽修厂,,33,26,81,23,67,64,,,,9,19,6,13,0.5,0.7
2025-03-27T0200,3709A,130.9967,45.3106,鸡西市,市政设施管理处,,40,,86,28,66,59,,,,9,23,4,9,0.3,0.5
2025-03-27T0200,2367A,114.9754,27.0803,吉安市,红声器材厂,颗粒物(PM10),53,55,70,31,43,125,,,,11,12,14,14,0.5,0.6
2025-03-27T0200,2368A,114.9658,27.0999,吉安市,市森林工业局,,48,48,68,33,42,127,,,,11,14,23,13,0.3,0.6
2025-03-27T0200,2369A,114.99,27.1312,吉安市,市环境监测站,,43,43,65,30,42,124,,,,11,11,14,17,0.4,0.4
2025-03-27T0200,2370A,115.0093,27.0968,吉安市,青原区法院,颗粒物(PM10),52,54,51,33,43,138,,,,10,13,13,16,0.4,0.6
2025-03-27T0200,1772A,126.54,43.8622,吉林市,哈达湾,细颗粒物(PM2.5),79,102,70,58,47,65,,,,18,16,7,7,0.9,0.7
2025-03-27T0200,1773A,126.5844,43.8358,吉林市,东局子,细颗粒物(PM2.5),82,104,61,60,47,69,,,,16,15,7,6,0.7,0.6
2025-03-27T0200,1774A,126.5052,43.8245,吉林市,电力学院,细颗粒物(PM2.5),82,84,59,60,51,66,,,,17,19,6,6,0.5,0.4
2025-03-27T0200,1775A,126.6133,43.8972,吉林市,江北,颗粒物(PM10),76,102,71,55,50,68,,,,19,24,4,4,0.7,0.8
2025-03-27T0200,1776A,126.555,43.8306,吉林市,江南公园,细颗粒物(PM2.5),84,92,61,62,53,66,,,,17,16,7,6,0.5,0.4
2025-03-27T0200,1778A,126.7061,43.7133,吉林市,丰满,细颗粒物(PM2.5),70,67,50,51,49,80,,,,16,10,7,5,1.1,1.1
2025-03-27T0200,2868A,126.4739,43.953,吉林市,九站,细颗粒物(PM2.5),87,105,73,64,53,57,,,,20,20,10,11,0.9,0.7
2025-03-27T0200,1299A,116.9862,36.6114,济南市,科干所,"颗粒物(PM10),细颗粒物(PM2.5)",104,158,152,78,49,67,,,,32,36,11,10,0.8,0.6
2025-03-27T0200,1300A,116.9376,36.665,济南市,农科所,颗粒物(PM10),113,176,162,44,38,60,,,,35,51,13,11,0.7,0.6
2025-03-27T0200,1301A,117.1265,36.6734,济南市,开发区,颗粒物(PM10),111,171,160,51,48,67,,,,34,40,12,11,0.9,0.7
2025-03-27T0200,1303A,117.0624,36.6868,济南市,省种子仓库,颗粒物(PM10),123,195,182,56,47,65,,,,27,46,10,9,1.0,0.9
2025-03-27T0200,1304A,116.9489,36.6447,济南市,机床二厂,颗粒物(PM10),122,193,175,56,50,50,,,,46,50,9,12,1.0,0.9
2025-03-27T0200,1305A,117.0495,36.663,济南市,市监测站,颗粒物(PM10),114,178,172,54,45,66,,,,33,49,14,12,0.8,0.7
2025-03-27T0200,1306A,116.7675,36.5484,济南市,长清党校,颗粒物(PM10),107,164,154,49,36,72,,,,39,39,11,8,1.0,0.8
2025-03-27T0200,1616A,117.6795,36.229,济南市,技术学院,颗粒物(PM10),115,180,161,48,52,86,,,,34,28,21,17,0.9,0.7
2025-03-27T0200,1961A,117.532,36.6868,济南市,东山小学,颗粒物(PM10),117,183,164,54,39,44,,,,34,23,9,11,0.9,0.8
2025-03-27T0200,3059A,117.7161,36.2049,济南市,泰兴公司,颗粒物(PM10),109,168,157,66,49,74,,,,36,28,21,15,1.0,0.8
2025-03-27T0200,3064A,117.6867,36.2171,济南市,莱芜战役纪念馆,颗粒物(PM10),112,173,155,48,40,90,,,,35,28,17,12,0.9,0.8
2025-03-27T0200,3494A,117.1673,36.9782,济南市,济阳区政府,颗粒物(PM10),118,186,156,66,41,44,,,,34,27,13,15,0.7,0.6
2025-03-27T0200,3495A,117.1171,36.63,济南市,锦屏中学,颗粒物(PM10),106,161,155,49,41,71,,,,24,36,14,12,0.8,0.6
2025-03-27T0200,3682A,116.9814,36.6819,济南市,济南四建,颗粒物(PM10),115,180,160,56,46,52,,,,38,48,11,9,0.7,0.5
2025-03-27T0200,1653A,116.6251,35.4302,济宁市,火炬城,颗粒物(PM10),93,136,144,56,54,50,,,,29,21,13,21,0.6,0.6
2025-03-27T0200,1655A,116.5491,35.4042,济宁市,电化厂,颗粒物(PM10),125,199,177,66,61,51,,,,33,23,12,13,0.7,0.7
2025-03-27T0200,3500A,116.5814,35.3707,济宁市,北湖一中,颗粒物(PM10),102,153,135,51,47,54,,,,31,25,18,20,0.6,0.6
2025-03-27T0200,3501A,116.8249,35.5593,济宁市,服务中心,颗粒物(PM10),100,150,152,54,47,46,,,,39,27,8,9,0.9,0.7
2025-03-27T0200,3678A,116.5907,35.4054,济宁市,市第七中学,颗粒物(PM10),105,160,150,41,48,50,,,,30,22,9,13,0.5,0.5
2025-03-27T0200,2255A,130.2751,46.8028,佳木斯市,佳纺,,39,30,58,27,39,57,,,,5,19,4,6,0.2,0.4
2025-03-27T0200,2256A,130.3995,46.8307,佳木斯市,发电厂,,34,34,30,21,24,62,,,,4,13,2,5,0.5,0.6
2025-03-27T0200,2257A,130.3258,46.7975,佳木斯市,环保局,,35,31,47,24,33,60,,,,6,19,2,4,0.3,0.4
2025-03-27T0200,2258A,130.3648,46.8032,佳木斯市,十一中,,36,,45,25,36,59,,,,5,21,3,6,0.3,0.4
2025-03-27T0200,2259A,130.3794,46.7588,佳木斯市,四丰,,43,43,39,24,26,52,,,,8,10,1,1,0.7,0.8
2025-03-27T0200,1252A,120.7436,30.778,嘉兴市,清河小学,细颗粒物(PM2.5),84,106,100,62,57,44,,,,61,57,7,8,0.9,0.9
2025-03-27T0200,1253A,120.726,30.7478,嘉兴市,嘉兴学院,细颗粒物(PM2.5),92,110,101,68,56,54,,,,52,48,10,11,0.9,0.9
2025-03-27T0200,2872A,120.7846,30.7525,嘉兴市,南湖区残联,细颗粒物(PM2.5),88,104,101,65,58,67,,,,39,39,11,12,0.6,0.6
2025-03-27T0200,3407A,120.6916,30.7739,嘉兴市,秀洲住建,颗粒物(PM10),90,129,110,57,52,55,,,,56,49,8,9,0.7,0.6
2025-03-27T0200,1945A,98.2908,39.7711,嘉峪关市,气象局,颗粒物(PM10),58,66,94,12,20,86,,,,4,10,2,13,0.4,0.8
2025-03-27T0200,2884A,98.2672,39.7978,嘉峪关市,酒钢宾馆,颗粒物(PM10),58,66,100,22,23,68,,,,17,12,21,24,0.6,0.6
2025-03-27T0200,3248A,98.2643,39.7724,嘉峪关市,雄关区,颗粒物(PM10),53,55,114,23,30,75,,,,14,17,10,12,0.5,0.7
2025-03-27T0200,1383A,113.1064,22.6058,江门市,北街,,22,22,35,9,18,50,,,,4,7,2,2,0.4,0.4
2025-03-27T0200,1384A,113.0731,22.5835,江门市,西区,,30,30,44,18,22,53,,,,16,19,7,7,0.4,0.4
2025-03-27T0200,1385A,113.0219,22.5311,江门市,圭峰西,,18,,36,12,20,55,,,,10,16,4,5,0.4,0.5
2025-03-27T0200,1386A,113.0828,22.5947,江门市,东湖,,29,29,38,9,18,58,,,,11,12,8,8,0.3,0.3
2025-03-27T0200,3311A,113.1075,22.5647,江门市,江海富民,,28,28,46,11,20,54,,,,13,11,6,6,0.3,0.4
2025-03-27T0200,3449A,113.05,22.4667,江门市,新会银湖,,33,28,42,23,20,10,,,,39,28,2,5,0.4,0.4
2025-03-27T0200,1830A,113.1992,35.2590,焦作市,影视城,,,,82,,29,,,,,,8,,14,,0.6
2025-03-27T0200,3169A,113.2725,35.2067,焦作市,太极体育中心,颗粒物(PM10),95,140,229,53,65,42,,,,36,26,13,14,0.7,0.5
2025-03-27T0200,3335A,113.3137,35.2641,焦作市,马村街道办,颗粒物(PM10),90,129,203,55,67,45,,,,39,30,19,15,0.7,0.8
2025-03-27T0200,3336A,113.2465,35.2373,焦作市,焦作技师学院,颗粒物(PM10),95,139,224,51,57,45,,,,35,24,33,13,0.8,0.9
2025-03-27T0200,3477A,113.1656,35.2539,焦作市,中站许衡医院,颗粒物(PM10),86,122,169,57,54,43,,,,44,25,13,14,0.9,0.9
2025-03-27T0200,3981A,113.2449,35.1803,焦作市,原李万街道办,颗粒物(PM10),102,154,234,51,60,50,,,,36,29,18,20,0.5,0.5
2025-03-27T0200,4264A,113.2340,35.2190,焦作市,新安路1731号,颗粒物(PM10),97,143,227,53,65,44,,,,35,23,55,16,0.7,0.8
2025-03-27T0200,1708A,116.3701,23.5345,揭阳市,新兴,,46,34,53,32,37,54,,,,17,18,9,7,0.5,0.5
2025-03-27T0200,1709A,116.3264,23.5443,揭阳市,西马,,45,40,58,31,34,51,,,,12,15,7,8,0.5,0.6
2025-03-27T0200,1710A,116.3611,23.5626,揭阳市,东兴,,38,35,65,26,31,56,,,,6,9,5,6,0.7,0.7
2025-03-27T0200,1711A,116.4151,23.5294,揭阳市,渔湖,,19,15,46,13,28,55,,,,4,17,4,7,0.5,0.6
2025-03-27T0200,3320A,116.403,23.5699,揭阳市,曲溪,,35,33,50,24,30,52,,,,18,21,3,5,0.4,0.5
2025-03-27T0200,1944A,102.1692,38.5167,金昌市,天庆家园,,45,45,143,10,30,90,,,,2,3,9,10,0.5,0.7
2025-03-27T0200,4022A,102.1647,38.5371,金昌市,金川区人防中心,,50,50,205,12,35,86,,,,2,3,7,10,0.4,0.4
2025-03-27T0200,4239A,102.1930,38.5319,金昌市,长春路96号,颗粒物(PM10),59,67,198,10,29,85,,,,2,3,4,12,0.7,0.5
2025-03-27T0200,1262A,119.647,29.077,金华市,十五中,细颗粒物(PM2.5),108,119,120,81,76,85,,,,28,57,8,9,0.9,1
2025-03-27T0200,1263A,119.686,29.1029,金华市,监测站,细颗粒物(PM2.5),107,113,108,80,64,79,,,,41,57,6,7,0.7,0.6
2025-03-27T0200,3659A,119.656,29.1131,金华市,气象局,细颗粒物(PM2.5),94,118,104,70,64,61,,,,48,72,5,8,0.8,0.8
2025-03-27T0200,1767A,121.1115,41.0879,锦州市,南山,颗粒物(PM10),88,125,124,11,93,77,,,,7,31,21,16,0.4,0.9
2025-03-27T0200,1768A,121.0604,40.8428,锦州市,开发区,颗粒物(PM10),248,383,147,27,88,76,,,,9,41,11,17,0.7,1
2025-03-27T0200,1769A,121.1836,41.1119,锦州市,百股街道,颗粒物(PM10),78,106,132,9,79,72,,,,12,30,8,14,0.4,0.9
2025-03-27T0200,1770A,121.1178,41.1222,锦州市,天安街道,颗粒物(PM10),79,107,137,8,86,76,,,,9,28,11,16,0.4,0.8
2025-03-27T0200,1771A,121.1303,41.1386,锦州市,北湖公园,颗粒物(PM10),67,83,141,14,81,72,,,,6,25,10,14,0.3,0.7
2025-03-27T0200,2160A,112.85,35.5051,晋城市,自来水公司,颗粒物(PM10),175,300,229,46,55,83,,,,12,21,8,10,0.5,0.6
2025-03-27T0200,2161A,112.8318,35.4936,晋城市,白云商贸,颗粒物(PM10),197,343,239,58,64,82,,,,14,23,7,8,0.3,0.5
2025-03-27T0200,2162A,112.8508,35.4887,晋城市,市环保局,颗粒物(PM10),199,348,240,56,56,86,,,,11,22,7,8,0.3,0.3
2025-03-27T0200,2163A,112.8676,35.4897,晋城市,技术学院,颗粒物(PM10),198,345,234,56,62,87,,,,14,25,12,10,0.8,0.6
2025-03-27T0200,2165A,112.8453,35.546,晋城市,白马寺,颗粒物(PM10),158,265,225,104,80,82,,,,9,10,6,7,0.5,0.6
2025-03-27T0200,3620A,112.8271,35.4828,晋城市,泽州一中,颗粒物(PM10),245,381,240,70,72,81,,,,10,18,9,11,0.4,0.6
2025-03-27T0200,2173A,112.7249,37.7067,晋中市,南都小区,颗粒物(PM10),132,213,240,34,46,95,,,,9,18,4,7,0.3,0.5
2025-03-27T0200,2174A,112.6991,37.6982,晋中市,榆次区政府,颗粒物(PM10),123,195,263,34,42,102,,,,4,20,3,7,0.3,0.5
2025-03-27T0200,2865A,112.7195,37.6828,晋中市,榆次三中,颗粒物(PM10),136,222,285,31,61,101,,,,1,18,2,5,0.2,0.4
2025-03-27T0200,4200A,112.7478,37.6954,晋中市,迎宾街26号,颗粒物(PM10),117,183,274,31,48,99,,,,6,17,3,7,0.4,0.4
2025-03-27T0200,2439A,112.2014,31.0481,荆门市,竹园小学,细颗粒物(PM2.5),103,107,98,77,68,112,,,,16,13,12,9,0.9,0.8
2025-03-27T0200,2440A,112.1969,30.9891,荆门市,掇刀,细颗粒物(PM2.5),108,109,102,81,70,145,,,,16,16,17,11,0.5,0.6
2025-03-27T0200,2441A,112.2213,31.0386,荆门市,石化一小,细颗粒物(PM2.5),107,114,99,80,69,108,,,,22,22,15,12,0.7,0.7
2025-03-27T0200,3012A,112.1849,31.0362,荆门市,西山林语,细颗粒物(PM2.5),104,98,89,78,66,123,,,,13,12,15,9,0.5,0.4
2025-03-27T0200,3547A,112.1632,31.0138,荆门市,龙泉中学南校,"颗粒物(PM10),细颗粒物(PM2.5)",75,99,92,55,60,124,,,,3,7,12,10,1.0,0.7
2025-03-27T0200,1844A,112.2494,30.3197,荆州市,市图书馆,细颗粒物(PM2.5),85,74,81,63,61,88,,,,18,16,12,11,0.8,0.7
2025-03-27T0200,1845A,112.2008,30.3544,荆州市,市委党校,细颗粒物(PM2.5),85,83,83,63,64,91,,,,16,16,8,12,0.6,0.6
2025-03-27T0200,3194A,112.2747,30.3122,荆州市,管委会,细颗粒物(PM2.5),93,86,95,69,65,87,,,,16,12,22,13,0.7,0.6
2025-03-27T0200,4268A,112.1722,30.3366,荆州市,学苑路85号,细颗粒物(PM2.5),94,,67,70,67,84,,,,9,14,9,10,0.8,0.7
2025-03-27T0200,2342A,117.3102,29.3867,景德镇市,王港中学,,,,,,,,,,,,,,,,
2025-03-27T0200,2343A,117.2117,29.2933,景德镇市,老干部活动中心,细颗粒物(PM2.5),74,81,74,54,48,109,,,,18,21,8,11,0.5,0.5
2025-03-27T0200,2344A,117.1894,29.2789,景德镇市,兽医站,细颗粒物(PM2.5),72,90,76,52,41,113,,,,16,16,5,6,0.8,0.8
2025-03-27T0200,2345A,117.1547,29.2617,景德镇市,台达陶瓷,细颗粒物(PM2.5),75,83,81,55,43,114,,,,21,19,25,18,0.6,0.6
2025-03-27T0200,2346A,117.2461,29.2956,景德镇市,陶研所,细颗粒物(PM2.5),84,78,68,62,52,85,,,,24,21,4,5,0.8,0.7
2025-03-27T0200,1803A,115.9872,29.6815,九江市,十里,细颗粒物(PM2.5),59,56,75,42,53,144,,,,4,23,3,6,0.6,0.7
2025-03-27T0200,1804A,115.9584,29.7046,九江市,茅山头,,45,,80,30,54,141,,,,6,44,4,9,0.4,0.7
2025-03-27T0200,1805A,115.9877,29.7295,九江市,西园,颗粒物(PM10),66,82,88,32,47,147,,,,6,34,5,11,0.8,0.9
2025-03-27T0200,1808A,115.9114,29.6038,九江市,综合工业园,,47,32,100,20,48,149,,,,12,22,7,13,0.8,0.9
2025-03-27T0200,1809A,116.0721,29.7535,九江市,石化总厂,颗粒物(PM10),106,161,85,51,60,131,,,,14,18,11,16,0.7,0.8
2025-03-27T0200,1810A,115.9773,29.5698,九江市,庐山气象台,,45,44,56,24,44,143,,,,4,7,9,10,0.5,0.7
2025-03-27T0200,3190A,116.0254,29.6994,九江市,外国语学校,颗粒物(PM10),71,91,77,34,49,133,,,,11,24,1,9,0.6,0.7
2025-03-27T0200,4253A,116.0102,29.6594,九江市,莲花大道8号,细颗粒物(PM2.5),59,51,72,42,52,138,,,,2,12,7,9,0.6,0.7
2025-03-27T0200,4240A,98.4958,39.7339,酒泉市,玉门东路5号,颗粒物(PM10),64,78,98,25,29,79,,,,3,3,7,6,0.2,0.2
2025-03-27T0200,4241A,98.5099,39.7506,酒泉市,北大街108号,颗粒物(PM10),63,75,87,21,23,79,,,,4,4,7,7,0.2,0.2
2025-03-27T0200,2698A,76.0072,39.4467,喀什地区,巡警大队,颗粒物(PM10),500,3258,1449,431,438,89,,,,5,15,4,4,0.4,0.4
2025-03-27T0200,2699A,75.9755,39.4694,喀什地区,吾办,细颗粒物(PM2.5),500,,561,1406,517,87,,,,5,16,3,3,0.4,0.4
2025-03-27T0200,4027A,75.9483,39.4689,喀什地区,老干局,"颗粒物(PM10),细颗粒物(PM2.5)",500,3195,1416,540,448,93,,,,4,11,3,3,0.4,0.4
2025-03-27T0200,1824A,114.3389,34.7781,开封市,肿瘤医院,颗粒物(PM10),107,164,133,36,45,77,,,,21,23,9,9,0.8,0.7
2025-03-27T0200,1826A,114.2885,34.7965,开封市,世纪星幼儿园,颗粒物(PM10),105,160,125,43,50,84,,,,23,27,6,7,0.7,0.7
2025-03-27T0200,3147A,114.3438,34.8106,开封市,龙亭公园,颗粒物(PM10),106,162,134,46,52,77,,,,29,30,4,6,0.4,0.3
2025-03-27T0200,3210A,114.3644,34.7964,开封市,汴京公园,颗粒物(PM10),101,151,121,49,56,75,,,,28,33,7,8,0.7,0.8
2025-03-27T0200,3473A,114.2485,34.8306,开封市,技师学院,颗粒物(PM10),81,111,127,51,56,81,,,,26,26,12,14,0.9,1
2025-03-27T0200,3592A,114.4644,34.7556,开封市,祥符区生态环境局,颗粒物(PM10),114,178,155,46,54,63,,,,23,26,10,8,0.7,0.6
2025-03-27T0200,1951A,84.895,45.6094,克拉玛依市,长征新村,,31,31,20,3,7,60,,,,13,8,5,6,0.2,0.2
2025-03-27T0200,1952A,84.8988,45.5893,克拉玛依市,南林小区,,33,33,19,9,8,59,,,,5,3,4,4,0.3,0.3
2025-03-27T0200,1954A,84.905,44.3396,克拉玛依市,独山子区,,26,26,45,6,8,73,,,,7,6,5,6,0.4,0.4
2025-03-27T0200,1955A,85.6979,46.098,克拉玛依市,乌尔禾区商贸楼,,26,26,29,3,7,50,,,,14,7,4,4,0.4,0.3
2025-03-27T0200,3612A,85.1045,45.6899,克拉玛依市,白碱滩区新站,,16,16,19,3,8,48,,,,22,7,6,7,0.2,0.1
2025-03-27T0200,2697A,76.1454,39.7142,克孜勒苏柯尔克孜自治州,市人民政府,"颗粒物(PM10),细颗粒物(PM2.5)",500,3192,1428,1880,554,78,,,,2,3,4,7,0.5,0.5
2025-03-27T0200,3665A,76.1658,39.7157,克孜勒苏柯尔克孜自治州,克州文化中心,"颗粒物(PM10),细颗粒物(PM2.5)",500,7344,2548,1780,528,74,,,,2,4,4,7,0.4,0.4
2025-03-27T0200,1450A,102.8204,24.8886,昆明市,呈贡新区,细颗粒物(PM2.5),59,,43,42,33,135,,,,11,13,4,6,0.4,0.4
2025-03-27T0200,1451A,102.6251,24.9608,昆明市,西山森林公园,,,,,,,,,,,,,,,,
2025-03-27T0200,1452A,102.7252,25.0902,昆明市,龙泉镇,颗粒物(PM10),63,75,35,31,23,4,,,,111,34,10,8,0.7,0.6
2025-03-27T0200,1453A,102.7266,25.0375,昆明市,东风东路,,40,33,38,24,26,125,,,,15,20,9,12,0.3,0.4
2025-03-27T0200,1454A,102.6742,25.0669,昆明市,金鼎山,细颗粒物(PM2.5),77,83,38,56,24,31,,,,79,21,6,6,0.7,0.5
2025-03-27T0200,1455A,102.6644,25.0401,昆明市,碧鸡广场,细颗粒物(PM2.5),52,50,38,36,26,106,,,,29,21,10,10,0.3,0.4
2025-03-27T0200,3179A,102.7494,25.0119,昆明市,官渡区博物馆,,39,39,39,27,25,124,,,,10,16,8,10,0.5,0.5
2025-03-27T0200,3375A,102.8017,24.8336,昆明市,青年创业园,细颗粒物(PM2.5),65,53,41,47,34,132,,,,10,8,7,8,0.4,0.4
2025-03-27T0200,3550A,102.7997,24.9786,昆明市,昆明学院,细颗粒物(PM2.5),58,62,40,41,28,120,,,,17,14,6,6,0.3,0.3
2025-03-27T0200,3551A,102.5967,24.6736,昆明市,晋宁区生态环境分局,细颗粒物(PM2.5),58,,30,41,26,135,,,,7,6,6,6,0.5,0.4
2025-03-27T0200,3552A,102.6678,24.9856,昆明市,云天化总部,,46,28,32,19,22,145,,,,8,10,10,10,0.2,0.2
2025-03-27T0200,1456A,91.1319,29.6514,拉萨市,八廓街,,25,22,24,8,14,77,,,,19,25,10,9,0.9,0.8
2025-03-27T0200,1457A,91.1221,29.6747,拉萨市,市环保局,,34,34,29,18,15,62,,,,32,25,12,10,1.2,0.9
2025-03-27T0200,1458A,91.0874,29.6475,拉萨市,区监测站,,33,27,21,23,12,54,,,,38,36,8,8,0.6,0.5
2025-03-27T0200,1459A,91.1774,29.6541,拉萨市,西藏大学,,22,19,18,7,9,69,,,,17,18,8,5,1.0,0.8
2025-03-27T0200,1460A,90.9798,29.6588,拉萨市,区辐射站,,20,17,18,14,11,63,,,,23,22,8,8,0.6,0.5
2025-03-27T0200,1461A,91.0834,29.6292,拉萨市,拉萨火车站,,31,31,18,14,9,24,,,,54,25,3,4,0.7,0.5
2025-03-27T0200,2520A,109.2203,23.7256,来宾市,来宾技工学校,,45,45,64,26,32,100,,,,6,10,4,6,0.7,0.7
2025-03-27T0200,3535A,109.1781,23.7297,来宾市,兴宾区政府,颗粒物(PM10),51,51,56,33,30,107,,,,5,10,6,8,0.8,0.8
2025-03-27T0200,4002A,109.2416,23.7461,来宾市,中南小学,颗粒物(PM10),53,56,60,30,29,83,,,,7,9,15,7,0.6,0.7
2025-03-27T0200,1477A,104.1373,35.9454,兰州市,榆中兰大校区,,,,,,,,,,,,,,,,
2025-03-27T0200,1479A,103.831,36.0464,兰州市,铁路设计院,颗粒物(PM10),110,169,740,43,174,86,,,,8,14,7,6,0.4,0.4
2025-03-27T0200,3241A,103.7439,36.0842,兰州市,百合公园,颗粒物(PM10),112,174,783,43,168,84,,,,1,3,2,5,0.4,0.4
2025-03-27T0200,3242A,103.9611,35.998,兰州市,和平,颗粒物(PM10),148,246,1016,82,273,87,,,,4,5,14,10,0.7,0.6
2025-03-27T0200,4236A,103.6293,36.0938,兰州市,庄浪东路808号,颗粒物(PM10),125,199,819,55,212,86,,,,4,7,6,9,0.3,0.3
2025-03-27T0200,4237A,103.7251,36.1043,兰州市,安宁西路88号,颗粒物(PM10),125,200,885,51,183,85,,,,3,3,4,5,0.2,0.2
2025-03-27T0200,4238A,103.8470,36.0676,兰州市,北滨河东路1号,颗粒物(PM10),125,199,787,52,179,90,,,,8,9,8,8,0.5,0.5
2025-03-27T0200,3245A,103.6633,36.533,兰州新区,新区管委会,颗粒物(PM10),96,141,602,42,153,87,,,,5,5,15,12,0.2,0.3
2025-03-27T0200,3246A,103.6975,36.4789,兰州新区,舟曲中学,颗粒物(PM10),142,233,983,63,357,88,,,,4,4,2,2,0.7,0.6
2025-03-27T0200,1067A,116.6708,39.5111,廊坊市,药材公司,颗粒物(PM10),129,207,117,52,54,83,,,,6,17,2,4,0.3,0.6
2025-03-27T0200,1068A,116.7214,39.5589,廊坊市,开发区,颗粒物(PM10),135,220,123,42,50,80,,,,10,19,2,4,0.2,0.5
2025-03-27T0200,1070A,116.7244,39.5269,廊坊市,北华航天学院,颗粒物(PM10),128,205,111,26,42,81,,,,9,17,3,6,0.2,0.5
2025-03-27T0200,2919A,116.7022,39.5453,廊坊市,河北工业大学,颗粒物(PM10),119,188,110,37,43,83,,,,4,14,4,7,0.2,0.5
2025-03-27T0200,2535A,103.7723,29.5462,乐山市,花湖湾,细颗粒物(PM2.5),88,89,78,65,57,110,,,,32,30,9,11,0.6,0.6
2025-03-27T0200,2536A,103.7627,29.5844,乐山市,牛耳桥,细颗粒物(PM2.5),94,106,83,70,56,90,,,,44,44,9,10,0.8,0.8
2025-03-27T0200,2537A,103.7508,29.6006,乐山市,市第三水厂,细颗粒物(PM2.5),123,122,83,93,58,51,,,,58,39,6,8,0.8,0.7
2025-03-27T0200,2538A,103.7571,29.5664,乐山市,市监测站,细颗粒物(PM2.5),78,77,80,57,58,136,,,,21,27,8,10,0.8,0.8
2025-03-27T0200,3361A,103.7311,29.5628,乐山市,理工大学,细颗粒物(PM2.5),77,80,82,56,54,89,,,,39,32,6,9,0.7,0.7
2025-03-27T0200,2598A,100.2143,26.8576,丽江市,西南郊,,,,,,,,,,,,,,,,
2025-03-27T0200,2599A,100.2497,26.8802,丽江市,丽江古城,,28,18,21,11,12,88,,,,6,9,8,8,0.4,0.5
2025-03-27T0200,2600A,100.2203,26.8906,丽江市,市中心,,28,13,15,11,10,88,,,,14,16,8,8,0.6,0.6
2025-03-27T0200,1267A,119.914,28.4514,丽水市,监测站大楼,细颗粒物(PM2.5),88,89,81,65,63,79,,,,39,38,4,5,1.0,1.1
2025-03-27T0200,1268A,119.93,28.4586,丽水市,莲都小学,细颗粒物(PM2.5),78,89,90,57,54,38,,,,61,49,4,4,0.8,0.8
2025-03-27T0200,1269A,119.879,28.4231,丽水市,余庄前,细颗粒物(PM2.5),85,81,81,63,55,19,,,,27,26,5,6,0.9,0.8
2025-03-27T0200,1173A,119.176,34.5885,连云港市,市环境监测站,颗粒物(PM10),102,153,135,48,50,117,,,,19,29,16,14,0.8,0.7
2025-03-27T0200,3000A,119.3581,34.6972,连云港市,德源药业,颗粒物(PM10),109,168,135,44,48,135,,,,14,40,11,11,0.6,0.5
2025-03-27T0200,3007A,119.178,34.844,连云港市,新城一中,颗粒物(PM10),100,150,142,54,50,84,,,,36,36,9,9,1.0,1
2025-03-27T0200,3008A,119.3608,34.7519,连云港市,胡沟管理处,颗粒物(PM10),84,117,94,41,41,101,,,,42,30,13,9,0.6,0.6
2025-03-27T0200,3009A,119.1478,34.5911,连云港市,矿山设计院,颗粒物(PM10),101,151,133,44,42,108,,,,38,37,16,11,0.8,0.7
2025-03-27T0200,3434A,119.2413,34.6539,连云港市,工贸学校,颗粒物(PM10),94,137,153,49,55,119,,,,23,26,14,11,0.9,0.8
2025-03-27T0200,3664A,119.4172,34.7341,连云港市,连云街道,颗粒物(PM10),88,125,158,47,52,116,,,,25,40,10,9,0.5,0.6
2025-03-27T0200,2571A,102.3431,27.8099,凉山彝族自治州,青龙寺,,20,20,26,7,8,63,,,,12,10,6,7,0.6,0.7
2025-03-27T0200,2572A,102.2721,27.8415,凉山彝族自治州,邛海宾馆,,30,30,32,19,18,38,,,,47,24,7,7,0.5,0.6
2025-03-27T0200,2573A,102.2625,27.898,凉山彝族自治州,西昌市政府,,25,24,28,17,21,73,,,,14,14,9,12,0.7,0.7
2025-03-27T0200,2574A,102.2685,27.8851,凉山彝族自治州,凉山州政府,,38,38,38,22,21,45,,,,34,25,5,8,0.7,0.5
2025-03-27T0200,4229A,102.2342,27.8859,凉山彝族自治州,凯乐南路30号,,44,44,43,22,21,18,,,,68,37,8,11,0.6,0.7
2025-03-27T0200,2212A,123.2,41.1953,辽阳市,宏伟区,细颗粒物(PM2.5),92,121,110,68,84,68,,,,22,24,17,15,1.2,1.5
2025-03-27T0200,2213A,123.1683,41.2495,辽阳市,新华园,细颗粒物(PM2.5),94,134,126,70,99,55,,,,32,40,14,17,1.1,1.5
2025-03-27T0200,2214A,123.2354,41.2639,辽阳市,滨河路,"颗粒物(PM10),细颗粒物(PM2.5)",77,104,111,56,88,65,,,,21,34,13,12,0.7,1.1
2025-03-27T0200,2215A,123.149,41.2991,辽阳市,铁西工业园,颗粒物(PM10),93,135,150,65,112,56,,,,32,46,12,18,0.9,1.6
2025-03-27T0200,2227A,125.1358,42.8845,辽源市,环保局,颗粒物(PM10),65,79,78,37,52,79,,,,14,30,5,6,0.6,0.9
2025-03-27T0200,3239A,125.0764,42.9078,辽源市,银鹰制药,细颗粒物(PM2.5),74,89,78,54,62,79,,,,14,33,6,13,0.8,1
2025-03-27T0200,1625A,115.9848,36.4372,聊城市,区政府,细颗粒物(PM2.5),103,141,142,77,51,41,,,,44,36,13,13,1.0,0.8
2025-03-27T0200,2878A,116.0072,36.4343,聊城市,聊大东校,颗粒物(PM10),120,190,182,78,56,34,,,,43,33,11,12,0.9,0.8
2025-03-27T0200,3200A,115.9819,36.4978,聊城市,监控中心,细颗粒物(PM2.5),110,162,165,83,56,28,,,,47,36,13,15,1.0,0.8
2025-03-27T0200,3513A,116.0445,36.4361,聊城市,九州社区,颗粒物(PM10),108,166,170,78,50,34,,,,45,33,14,13,0.8,0.7
2025-03-27T0200,4018A,116.0567,36.4608,聊城市,星美广场,颗粒物(PM10),109,168,169,72,48,25,,,,37,27,12,13,1.0,0.9
2025-03-27T0200,2632A,94.3681,29.6376,林芝市,林芝监测站,,26,10,14,7,6,81,,,,2,6,5,4,0.1,0.1
2025-03-27T0200,2633A,94.3616,29.6616,林芝市,林芝人民医院,,23,15,18,6,5,73,,,,1,4,7,7,0.0,0
2025-03-27T0200,2603A,100.0781,23.8982,临沧市,市环保局,细颗粒物(PM2.5),54,46,44,38,30,78,,,,15,13,8,9,0.6,0.5
2025-03-27T0200,2604A,100.0894,23.8822,临沧市,市气象局,细颗粒物(PM2.5),59,,44,42,38,77,,,,16,15,7,7,0.5,0.5
2025-03-27T0200,1733A,111.5531,36.0783,临汾市,临钢医院,颗粒物(PM10),492,592,406,91,78,93,,,,2,13,4,6,0.3,0.5
2025-03-27T0200,1734A,111.5028,36.0714,临汾市,技工学校,颗粒物(PM10),410,510,341,88,77,81,,,,4,17,6,8,0.4,0.6
2025-03-27T0200,1736A,111.5018,36.0855,临汾市,市委,颗粒物(PM10),464,564,388,106,96,84,,,,4,17,3,4,0.3,0.4
2025-03-27T0200,3018A,111.505,36.1014,临汾市,唐尧大酒店,颗粒物(PM10),413,513,345,89,72,82,,,,3,16,6,8,0.3,0.5
2025-03-27T0200,4244A,111.4879,36.0530,临汾市,启星学校,颗粒物(PM10),484,584,411,110,99,83,,,,1,18,2,4,0.2,0.4
2025-03-27T0200,4271A,103.2464,35.6123,临夏回族自治州,滨河东路1号,颗粒物(PM10),249,384,1174,96,283,80,,,,3,4,5,6,0.2,0.2
2025-03-27T0200,4310A,103.2093,35.5995,临夏回族自治州,新华街21号,颗粒物(PM10),200,349,1216,89,314,83,,,,3,6,9,10,0.2,0.3
2025-03-27T0200,1618A,118.3429,35.0532,临沂市,沂河小区,颗粒物(PM10),101,151,126,56,47,82,,,,22,16,13,12,0.6,0.6
2025-03-27T0200,1619A,118.295,35.0583,临沂市,鲁南制药厂,颗粒物(PM10),107,163,127,48,44,109,,,,27,27,15,14,0.3,0.4
2025-03-27T0200,1620A,118.2794,34.9976,临沂市,新光毛纺厂,颗粒物(PM10),109,168,124,45,43,100,,,,29,26,12,12,0.8,0.8
2025-03-27T0200,1621A,118.3956,35.0888,临沂市,河东保险公司,颗粒物(PM10),93,136,115,54,39,74,,,,38,27,10,9,0.4,0.4
2025-03-27T0200,3370A,118.3564,35.0215,临沂市,十里堡居委,颗粒物(PM10),102,153,122,44,37,89,,,,25,23,8,11,0.7,0.7
2025-03-27T0200,3496A,118.3604,35.1084,临沂市,南坊新区,颗粒物(PM10),100,149,123,46,39,84,,,,28,22,12,11,0.7,0.7
2025-03-27T0200,3860A,118.3920,35.0300,临沂市,皇山花园小区,颗粒物(PM10),104,158,126,50,39,75,,,,30,20,12,12,0.6,0.6
2025-03-27T0200,1870A,109.4856,24.3895,柳州市,柳东小学,细颗粒物(PM2.5),53,52,58,37,35,98,,,,12,14,10,11,0.4,0.4
2025-03-27T0200,1871A,109.4157,24.3277,柳州市,环保监测站,颗粒物(PM10),55,59,67,30,37,90,,,,9,11,10,11,0.7,0.7
2025-03-27T0200,1872A,109.389,24.341,柳州市,河西水厂,颗粒物(PM10),55,59,74,36,33,85,,,,11,13,6,7,0.5,0.5
2025-03-27T0200,1873A,109.4311,24.2921,柳州市,市四中,,46,39,61,32,33,94,,,,12,14,8,9,0.1,0.2
2025-03-27T0200,1874A,109.4006,24.3631,柳州市,市九中,颗粒物(PM10),55,60,75,24,32,87,,,,8,10,8,9,0.7,0.7
2025-03-27T0200,1875A,109.4958,24.3134,柳州市,古亭山,,46,45,62,32,38,91,,,,15,9,8,8,0.6,0.6
2025-03-27T0200,3402A,109.5422,24.3996,柳州市,市二中,,,47,55,32,31,98,,,,11,11,,13,0.4,0.2
2025-03-27T0200,2307A,116.5079,31.737,六安市,监测大楼,,,43,53,,38,129,,,,9,25,5,8,0.8,0.7
2025-03-27T0200,2308A,116.4738,31.7643,六安市,皖西学院,细颗粒物(PM2.5),72,56,58,52,38,129,,,,7,12,5,7,0.6,0.6
2025-03-27T0200,2309A,116.4996,31.7905,六安市,朝阳厂,细颗粒物(PM2.5),80,63,55,59,37,113,,,,12,16,6,7,0.7,0.6
2025-03-27T0200,2310A,116.5567,31.7886,六安市,开发区,细颗粒物(PM2.5),95,76,78,71,46,110,,,,12,20,5,8,0.8,0.7
2025-03-27T0200,2576A,104.8,26.5892,六盘水市,窑上,,43,43,38,22,24,130,,,,7,5,6,5,0.4,0.4
2025-03-27T0200,2577A,104.83,26.5917,六盘水市,黄土坡,,39,39,34,19,18,115,,,,14,11,11,9,0.5,0.4
2025-03-27T0200,2578A,104.89,26.5939,六盘水市,水钢,颗粒物(PM10),53,55,61,21,22,123,,,,10,10,9,10,0.2,0.5
2025-03-27T0200,2579A,104.8475,26.5894,六盘水市,民中,,34,34,30,19,14,96,,,,23,9,11,9,0.5,0.4
2025-03-27T0200,2580A,104.9544,26.5506,六盘水市,双水,,44,44,39,19,17,108,,,,21,12,11,10,0.5,0.4
2025-03-27T0200,2335A,117.0189,25.1181,龙岩市,龙岩师专,,,,,,,,,,,,,,,,
2025-03-27T0200,2336A,117.0217,25.1033,龙岩市,龙岩市监测站,颗粒物(PM10),63,76,84,43,61,81,,,,27,24,19,10,0.6,1.1
2025-03-27T0200,2337A,117.0258,25.0661,龙岩市,闽西职业技术学院,细颗粒物(PM2.5),72,80,76,52,52,73,,,,33,27,50,39,0.7,0.6
2025-03-27T0200,2338A,117.0196,25.0306,龙岩市,龙岩学院,,45,45,55,31,42,92,,,,12,11,3,3,0.5,0.6
2025-03-27T0200,2665A,105.0822,33.3261,陇南市,汉王镇固水子,,,,,,,,,,,,,,,,
2025-03-27T0200,2885A,104.9339,33.3826,陇南市,滨江中学,颗粒物(PM10),196,342,214,63,61,87,,,,2,11,6,8,0.4,0.5
2025-03-27T0200,3247A,104.955,33.371,陇南市,市总工会,颗粒物(PM10),185,319,219,82,77,90,,,,2,8,8,9,0.3,0.4
2025-03-27T0200,2487A,111.9589,27.8901,娄底市,电视发射台,细颗粒物(PM2.5),80,97,96,59,56,36,,,,13,12,5,8,1.0,1
2025-03-27T0200,2488A,111.9975,27.725,娄底市,市监测站,细颗粒物(PM2.5),70,72,92,51,69,110,,,,20,31,13,15,0.6,0.7
2025-03-27T0200,2489A,112.0194,27.7314,娄底市,市委党校,细颗粒物(PM2.5),79,71,91,58,68,105,,,,5,16,4,4,0.6,0.7
2025-03-27T0200,2490A,111.9561,27.7569,娄底市,涟钢,细颗粒物(PM2.5),107,124,97,80,65,61,,,,24,29,15,24,1.1,1.2
2025-03-27T0200,2491A,111.9892,27.7044,娄底市,市政府,细颗粒物(PM2.5),68,72,88,49,64,110,,,,6,16,10,9,0.4,0.5
2025-03-27T0200,1893A,105.4324,28.9634,泸州市,九狮山,,,,,,,,,,,,,,,,
2025-03-27T0200,1894A,105.4427,28.9063,泸州市,小市上码头,细颗粒物(PM2.5),88,90,88,65,60,117,,,,24,41,10,10,0.6,0.7
2025-03-27T0200,1895A,105.4241,28.8573,泸州市,兰田宪桥,细颗粒物(PM2.5),122,110,87,92,70,79,,,,22,30,10,9,0.7,0.7
2025-03-27T0200,1896A,105.4379,28.8833,泸州市,市环监站,,,,,,,,,,,,,,,,
2025-03-27T0200,4272A,105.3689,28.7783,泸州市,纳溪中医医院,细颗粒物(PM2.5),102,133,100,76,49,44,,,,35,33,7,9,0.8,0.8
2025-03-27T0200,2183A,111.1406,37.5211,吕梁市,环保局,颗粒物(PM10),228,369,443,88,109,75,,,,4,20,2,4,0.2,0.3
2025-03-27T0200,2185A,111.1297,37.5136,吕梁市,自来水公司,颗粒物(PM10),248,383,438,80,99,79,,,,5,20,1,3,0.2,0.3
2025-03-27T0200,2867A,111.1283,37.51,吕梁市,马茂庄小学,颗粒物(PM10),289,412,490,88,124,78,,,,6,23,1,3,0.2,0.4
2025-03-27T0200,1812A,112.3931,34.6516,洛阳市,市委党校,颗粒物(PM10),111,172,278,61,77,67,,,,44,31,8,8,0.7,0.7
2025-03-27T0200,1815A,112.494,34.6886,洛阳市,河南林校,颗粒物(PM10),114,178,310,68,84,62,,,,36,26,6,8,0.8,0.8
2025-03-27T0200,1816A,112.3844,34.623,洛阳市,开发区管委会,颗粒物(PM10),108,166,287,65,86,83,,,,34,28,8,9,0.5,0.5
2025-03-27T0200,1817A,112.4267,34.6258,洛阳市,市委新办公区,颗粒物(PM10),115,179,272,58,71,81,,,,39,31,8,8,0.5,0.9
2025-03-27T0200,3340A,112.6005,34.6326,洛阳市,伊滨,颗粒物(PM10),103,155,255,58,76,82,,,,27,30,9,10,0.9,0.8
2025-03-27T0200,3341A,112.4951,34.6332,洛阳市,中移产业园,颗粒物(PM10),127,204,334,73,90,70,,,,34,30,9,11,0.6,0.7
2025-03-27T0200,3593A,112.5736,34.8993,洛阳市,吉利监测站,颗粒物(PM10),102,154,265,57,81,41,,,,51,31,9,11,0.6,0.6
2025-03-27T0200,3635A,112.3677,34.662,洛阳市,河科大西苑校区,颗粒物(PM10),109,168,290,59,66,72,,,,37,30,13,12,0.6,0.7
2025-03-27T0200,3636A,112.4388,34.6781,洛阳市,英才小学,颗粒物(PM10),114,177,290,55,81,88,,,,33,33,10,12,0.7,0.7
2025-03-27T0200,4214A,112.4600,34.6949,洛阳市,春都路1号院,颗粒物(PM10),113,175,298,52,67,80,,,,36,31,9,10,0.8,0.8
2025-03-27T0200,2399A,114.051,33.5699,漯河市,三五一五工厂,颗粒物(PM10),108,166,126,43,56,94,,,,16,15,7,7,0.4,0.5
2025-03-27T0200,2400A,114.0055,33.5698,漯河市,漯河大学,颗粒物(PM10),101,152,119,41,46,102,,,,16,16,8,8,0.4,0.5
2025-03-27T0200,2401A,114.0138,33.5828,漯河市,市水利局,颗粒物(PM10),103,156,127,39,49,99,,,,14,15,6,6,0.4,0.4
2025-03-27T0200,2402A,114.0261,33.5698,漯河市,市广电局,颗粒物(PM10),102,154,120,33,51,95,,,,13,14,7,7,0.4,0.5
2025-03-27T0200,3478A,113.9749,33.5664,漯河市,市图书馆,颗粒物(PM10),97,144,115,35,49,109,,,,14,17,6,7,0.4,0.5
2025-03-27T0200,4250A,114.0892,33.5882,漯河市,韶山路11号,颗粒物(PM10),98,146,114,37,54,94,,,,15,17,6,6,0.5,0.5
2025-03-27T0200,1798A,118.5092,31.6837,马鞍山市,湖东路四小,细颗粒物(PM2.5),104,86,83,78,48,84,,,,37,27,15,12,1.2,1
2025-03-27T0200,1799A,118.5024,31.6449,马鞍山市,开发区,细颗粒物(PM2.5),115,120,97,87,58,67,,,,53,43,11,8,1.4,1
2025-03-27T0200,1802A,118.6245,31.7241,马鞍山市,濮塘,细颗粒物(PM2.5),90,102,79,67,48,83,,,,32,16,15,13,1.6,0.9
2025-03-27T0200,3633A,118.4918,31.6809,马鞍山市,雨山,细颗粒物(PM2.5),93,99,83,69,52,66,,,,48,31,14,12,1.5,1.2
2025-03-27T0200,4191A,118.5274,31.72227,马鞍山市,慈湖高新区,细颗粒物(PM2.5),90,118,91,67,49,72,,,,49,34,14,10,1.3,0.9
2025-03-27T0200,1686A,111.0286,21.4688,茂名市,电白南海,,29,29,36,14,21,36,,,,8,8,1,1,0.5,0.6
2025-03-27T0200,1687A,110.9294,21.6533,茂名市,茂石化七小,,29,29,36,12,14,50,,,,2,5,1,1,0.6,0.7
2025-03-27T0200,1688A,110.9107,21.6687,茂名市,健康路,,24,24,34,9,13,60,,,,4,7,2,2,0.5,0.5
2025-03-27T0200,1689A,110.8592,21.6828,茂名市,高岭,,29,29,46,12,13,58,,,,6,8,3,4,0.5,0.5
2025-03-27T0200,3450A,111.01,21.5165,茂名市,电白水东,,19,19,24,12,10,50,,,,4,3,2,2,0.3,0.3
2025-03-27T0200,2539A,104.0308,30.0478,眉山市,黑龙滩水库,,43,43,41,27,25,43,,,,12,8,3,5,0.7,0.7
2025-03-27T0200,2540A,103.8416,30.0874,眉山市,气象局,细颗粒物(PM2.5),104,133,110,78,62,100,,,,48,40,8,10,0.8,0.8
2025-03-27T0200,3137A,103.8578,30.0744,眉山市,市委党校,细颗粒物(PM2.5),92,102,85,68,51,99,,,,43,42,23,19,0.8,0.7
2025-03-27T0200,3148A,103.8291,30.0564,眉山市,区人社局,细颗粒物(PM2.5),79,66,67,58,49,101,,,,51,47,18,19,0.8,0.8
2025-03-27T0200,1690A,116.1231,24.3284,梅州市,梅江月梅,,46,45,56,32,43,55,,,,18,21,8,6,0.5,0.6
2025-03-27T0200,1691A,116.0797,24.2719,梅州市,梅县新城,颗粒物(PM10),59,68,57,29,36,31,,,,37,25,8,8,0.5,0.6
2025-03-27T0200,1692A,116.1248,24.2654,梅州市,环境监控中心,,48,43,59,33,40,51,,,,23,33,10,8,0.6,0.7
2025-03-27T0200,3315A,116.1233,24.2991,梅州市,梅龙,,41,41,56,23,36,61,,,,14,21,9,9,0.6,0.7
2025-03-27T0200,1878A,104.7778,31.4741,绵阳市,富乐山,颗粒物(PM10),61,71,57,41,37,46,,,,50,30,5,5,0.7,0.6
2025-03-27T0200,1880A,104.6697,31.4668,绵阳市,高新区自来水公司,颗粒物(PM10),75,100,83,44,38,35,,,,64,51,4,5,0.6,0.6
2025-03-27T0200,1881A,104.7287,31.5075,绵阳市,三水厂,颗粒物(PM10),77,103,84,52,46,50,,,,50,48,7,8,0.7,0.7
2025-03-27T0200,3491A,104.69,31.5322,绵阳市,西科大附属小学,颗粒物(PM10),61,71,71,38,38,68,,,,39,43,7,8,0.6,0.7
2025-03-27T0200,3492A,104.5648,31.5343,绵阳市,安州区旅游局,颗粒物(PM10),58,66,67,31,33,41,,,,42,31,11,10,0.5,0.5
2025-03-27T0200,4226A,104.7651,31.4531,绵阳市,绵阳市气象局,细颗粒物(PM2.5),67,81,69,48,37,49,,,,48,45,6,6,0.7,0.6
2025-03-27T0200,1784A,129.61,44.561,牡丹江市,环保大楼,,34,34,49,20,38,64,,,,11,21,7,5,0.3,0.4
2025-03-27T0200,1785A,129.6115,44.5782,牡丹江市,文化广场,,22,19,47,15,38,69,,,,8,22,10,11,0.5,0.5
2025-03-27T0200,1786A,129.5904,44.5963,牡丹江市,第一医院,,45,,45,31,47,70,,,,7,21,10,10,0.0,0.2
2025-03-27T0200,1787A,129.6364,44.6075,牡丹江市,机车工厂,,46,32,60,32,41,40,,,,24,18,10,41,0.7,0.6
2025-03-27T0200,1788A,129.6386,44.5462,牡丹江市,第一中学,,33,33,40,21,32,45,,,,16,17,7,8,0.5,0.5
2025-03-27T0200,2531A,105.0703,29.61,内江市,市监测站,细颗粒物(PM2.5),64,67,57,46,48,104,,,,25,31,11,11,0.3,0.3
2025-03-27T0200,2532A,105.0717,29.5947,内江市,东兴区政府,"颗粒物(PM10),细颗粒物(PM2.5)",53,55,60,37,43,112,,,,24,35,9,10,0.6,0.8
2025-03-27T0200,2533A,105.0653,29.5817,内江市,内江二中,颗粒物(PM10),68,86,68,48,49,111,,,,23,35,12,12,0.5,0.6
2025-03-27T0200,2534A,105.0406,29.5822,内江市,内江日报社,颗粒物(PM10),60,70,62,41,48,131,,,,14,32,10,13,0.6,0.7
2025-03-27T0200,2628A,92.0657,31.4846,那曲市,那曲监测站,,24,23,38,14,19,54,,,,31,17,9,7,2.4,1
2025-03-27T0200,4243A,92.0515,31.4787,那曲市,那曲市委宣传部,,26,26,41,13,17,83,,,,11,18,5,7,0.8,0.8
2025-03-27T0200,1290A,115.8931,28.6843,南昌市,省外办,细颗粒物(PM2.5),98,101,99,73,68,45,,,,59,50,9,12,1.0,1
2025-03-27T0200,1291A,115.8886,28.7003,南昌市,省林业公司,颗粒物(PM10),80,110,100,58,63,69,,,,34,42,9,13,0.2,0.3
2025-03-27T0200,1292A,115.8126,28.7442,南昌市,林科所,细颗粒物(PM2.5),67,70,83,48,53,103,,,,22,55,6,7,0.4,0.4
2025-03-27T0200,1294A,115.8518,28.687,南昌市,建工学校,细颗粒物(PM2.5),87,98,100,64,68,51,,,,61,50,6,8,0.8,0.8
2025-03-27T0200,1295A,115.8921,28.6424,南昌市,象湖,细颗粒物(PM2.5),79,83,101,58,60,55,,,,52,39,11,11,0.9,1
2025-03-27T0200,1296A,115.7423,28.7996,南昌市,武术学校,细颗粒物(PM2.5),74,61,57,54,40,79,,,,19,9,12,13,0.8,0.8
2025-03-27T0200,3046A,115.9084,28.6062,南昌市,机电学校,细颗粒物(PM2.5),92,129,108,68,63,46,,,,58,38,9,13,0.8,0.9
2025-03-27T0200,3690A,115.9721,28.7031,南昌市,外国语学校,细颗粒物(PM2.5),78,94,94,57,56,87,,,,26,32,5,8,0.4,0.4
2025-03-27T0200,4192A,115.9316,28.68677,南昌市,南京东路235号,细颗粒物(PM2.5),83,104,121,61,63,79,,,,34,44,7,10,0.8,0.8
2025-03-27T0200,1905A,106.056,30.8064,南充市,西山风景区,,49,37,40,34,29,142,,,,7,10,7,7,0.3,0.5
2025-03-27T0200,1906A,106.0789,30.8023,南充市,南充市委,颗粒物(PM10),66,82,73,47,44,73,,,,35,42,6,6,0.8,0.8
2025-03-27T0200,1907A,106.1031,30.8217,南充市,南充炼油厂,细颗粒物(PM2.5),59,48,64,42,41,105,,,,18,28,8,6,0.5,0.6
2025-03-27T0200,1909A,106.0642,30.7636,南充市,嘉陵区环保局,"颗粒物(PM10),细颗粒物(PM2.5)",58,65,72,41,41,22,,,,81,55,6,6,0.8,0.7
2025-03-27T0200,4227A,106.1083,30.7884,南充市,梨树横街98号,颗粒物(PM10),62,74,80,25,28,75,,,,37,37,8,7,0.5,0.6
2025-03-27T0200,4304A,106.1172,30.843,南充市,清泉寺北路188号,颗粒物(PM10),59,67,65,36,36,105,,,,19,21,10,9,0.4,0.4
2025-03-27T0200,1151A,118.8086,32.1065,南京市,迈皋桥,细颗粒物(PM2.5),79,77,66,58,43,73,,,,46,33,13,6,1.4,0.8
2025-03-27T0200,1152A,118.7538,32.0551,南京市,草场门,细颗粒物(PM2.5),79,88,75,58,42,88,,,,39,33,19,13,1.7,1
2025-03-27T0200,1153A,118.7794,32.0745,南京市,山西路,,,,88,56,38,58,,,,39,27,8,6,1.6,1
2025-03-27T0200,1154A,118.7752,32.0023,南京市,中华门,"颗粒物(PM10),细颗粒物(PM2.5)",70,90,71,51,41,74,,,,38,30,18,12,1.0,0.8
2025-03-27T0200,1155A,118.8109,32.0309,南京市,瑞金路,细颗粒物(PM2.5),83,95,91,61,43,18,,,,92,54,6,6,1.1,0.8
2025-03-27T0200,1156A,118.7997,32.0754,南京市,玄武湖,细颗粒物(PM2.5),80,98,79,59,38,68,,,,32,21,10,9,1.2,0.8
2025-03-27T0200,1157A,118.6414,32.0931,南京市,浦口,颗粒物(PM10),74,97,79,52,36,78,,,,33,24,18,11,0.9,0.6
2025-03-27T0200,1158A,118.7356,31.9996,南京市,奥体中心,细颗粒物(PM2.5),77,94,78,56,42,84,,,,35,33,17,11,1.4,0.8
2025-03-27T0200,1159A,118.9125,32.1028,南京市,仙林大学城,细颗粒物(PM2.5),85,105,82,63,44,58,,,,58,36,15,14,1.5,1
2025-03-27T0200,3422A,118.8436,31.9198,南京市,江宁彩虹桥,细颗粒物(PM2.5),83,110,87,61,45,23,,,,87,55,3,4,0.8,0.7
2025-03-27T0200,3427A,118.8554,32.3578,南京市,六合雄州,颗粒物(PM10),82,113,82,51,39,32,,,,48,35,8,10,1.1,0.9
2025-03-27T0200,4249A,118.8708,31.3402,南京市,汶溪路181号,细颗粒物(PM2.5),78,,52,57,45,144,,,,10,21,4,6,0.8,0.8
2025-03-27T0200,4312A,119.019,31.6512,南京市,中山西路1号,细颗粒物(PM2.5),80,61,57,59,47,108,,,,16,18,5,6,0.6,0.6
2025-03-27T0200,1401A,108.3103,22.7881,南宁市,二十一中,,26,26,46,17,24,61,,,,13,20,6,9,0.6,0.6
2025-03-27T0200,1402A,108.3141,22.8528,南宁市,北湖,,30,30,45,19,27,59,,,,11,19,8,10,0.5,0.5
2025-03-27T0200,1403A,108.3206,22.8225,南宁市,市监测站,,36,36,49,22,27,58,,,,11,18,7,10,0.6,0.7
2025-03-27T0200,1404A,108.3829,22.8037,南宁市,大自然花园,,33,31,46,23,30,62,,,,9,13,6,10,0.8,0.8
2025-03-27T0200,1405A,108.4394,22.7904,南宁市,仙葫,,38,38,43,18,24,58,,,,10,14,3,5,0.4,0.5
2025-03-27T0200,1406A,108.2397,22.8467,南宁市,区农职院,,38,38,53,18,27,55,,,,13,22,6,8,0.7,0.7
2025-03-27T0200,1407A,108.3275,22.735,南宁市,英华嘉园,,30,30,46,14,24,62,,,,10,21,8,12,0.5,0.5
2025-03-27T0200,3401A,108.4834,22.7618,南宁市,红星社区,,28,20,42,19,26,62,,,,8,13,9,12,0.6,0.7
2025-03-27T0200,4221A,108.2177,22.7774,南宁市,乐贤路16号,,47,47,57,22,27,34,,,,30,25,11,10,0.6,0.7
2025-03-27T0200,2331A,118.0966,26.6761,南平市,茫荡山,,,,,,,,,,,,,,,,
2025-03-27T0200,2332A,118.1681,26.6369,南平市,南平市监测站,细颗粒物(PM2.5),105,84,82,79,66,20,,,,39,29,3,3,1.4,1.3
2025-03-27T0200,2333A,118.1825,26.6489,南平市,南平铝业有限公司,细颗粒物(PM2.5),103,85,83,77,67,14,,,,62,34,17,10,1.1,1.1
2025-03-27T0200,2334A,118.1756,26.6272,南平市,南平七中,细颗粒物(PM2.5),95,81,77,71,60,35,,,,27,27,4,6,1.1,1
2025-03-27T0200,1168A,120.9098,31.9663,南通市,狼山街道,细颗粒物(PM2.5),83,95,94,61,55,10,,,,99,82,8,10,0.9,0.7
2025-03-27T0200,1169A,120.86,32.0005,南通市,虹桥,细颗粒物(PM2.5),100,108,98,75,60,57,,,,62,61,10,11,1.0,0.9
2025-03-27T0200,1170A,120.87,32.02,南通市,城中,细颗粒物(PM2.5),85,112,104,63,55,58,,,,65,57,12,12,1.1,0.9
2025-03-27T0200,1171A,120.94,31.93,南通市,星湖花园,细颗粒物(PM2.5),89,98,99,66,57,19,,,,116,77,13,11,0.7,0.6
2025-03-27T0200,1172A,120.81,32.0417,南通市,紫琅学院,细颗粒物(PM2.5),92,105,99,68,58,54,,,,40,57,7,8,1.2,1.1
2025-03-27T0200,3291A,121.067,32.062,南通市,通州监测站,细颗粒物(PM2.5),85,102,99,63,54,60,,,,53,58,9,9,1.0,0.9
2025-03-27T0200,3432A,120.9348,31.9883,南通市,环境教育馆,细颗粒物(PM2.5),95,105,102,71,58,2,,,,120,81,10,12,0.7,0.6
2025-03-27T0200,2404A,112.5224,33.0122,南阳市,瓦房庄,颗粒物(PM10),112,174,106,51,46,123,,,,9,14,5,5,0.5,0.6
2025-03-27T0200,2405A,112.5003,32.9735,南阳市,汉画馆,颗粒物(PM10),114,177,104,50,45,121,,,,15,20,8,8,0.5,0.5
2025-03-27T0200,2406A,112.5573,33.027,南阳市,气象站,颗粒物(PM10),128,206,104,46,45,116,,,,15,18,10,8,0.6,0.6
2025-03-27T0200,2407A,112.5481,32.9689,南阳市,理工学院,颗粒物(PM10),123,196,109,51,44,112,,,,17,16,7,7,0.6,0.5
2025-03-27T0200,4008A,112.5234,32.9922,南阳市,卧龙区政府,颗粒物(PM10),124,198,114,52,50,126,,,,11,16,8,8,0.5,0.6
2025-03-27T0200,1234A,121.8358,29.911,宁波市,区环保大楼,颗粒物(PM10),66,82,98,37,39,15,,,,86,76,13,12,0.8,0.8
2025-03-27T0200,1235A,121.56,29.82,宁波市,万里学院,细颗粒物(PM2.5),64,72,80,46,52,107,,,,17,31,13,12,0.8,0.8
2025-03-27T0200,1236A,121.713,29.9572,宁波市,龙赛医院,颗粒物(PM10),70,90,101,46,49,73,,,,46,74,12,12,0.8,0.8
2025-03-27T0200,1239A,121.633,29.7733,宁波市,钱湖水厂,"颗粒物(PM10),细颗粒物(PM2.5)",58,66,64,41,43,105,,,,14,19,8,9,0.7,0.7
2025-03-27T0200,1240A,121.5856,29.8635,宁波市,太古小学,颗粒物(PM10),70,90,86,40,46,98,,,,21,29,11,11,0.9,0.9
2025-03-27T0200,1241A,121.524,29.8674,宁波市,市环境监测中心,细颗粒物(PM2.5),74,80,82,54,54,91,,,,33,46,11,11,1.0,1
2025-03-27T0200,2871A,121.6147,29.9017,宁波市,万里国际学校,颗粒物(PM10),64,77,84,40,45,110,,,,17,23,9,10,0.7,0.7
2025-03-27T0200,3710A,121.5594,29.8975,宁波市,白沙活动中心,细颗粒物(PM2.5),60,66,76,43,46,107,,,,20,34,10,9,0.7,0.7
2025-03-27T0200,2339A,119.5001,26.6946,宁德市,金涵水库,,,,,,,,,,,,,,,,
2025-03-27T0200,2341A,119.5388,26.6612,宁德市,宁德市监测站,细颗粒物(PM2.5),87,68,76,64,65,22,,,,55,44,4,6,0.8,0.8
2025-03-27T0200,3209A,119.5231,26.6562,宁德市,宁德一中,细颗粒物(PM2.5),67,69,78,48,61,71,,,,15,24,5,7,0.7,0.7
2025-03-27T0200,2618A,98.8601,25.8567,怒江傈僳族自治州,州监测站,,30,30,29,18,18,79,,,,5,6,5,5,0.4,0.3
2025-03-27T0200,2619A,98.8546,25.8417,怒江傈僳族自治州,泸水一中,,20,20,28,10,19,56,,,,12,12,6,6,0.4,0.4
2025-03-27T0200,1888A,101.6891,26.571,攀枝花市,弄弄坪,,40,40,49,16,25,76,,,,28,37,19,21,1.1,1.3
2025-03-27T0200,1889A,101.5769,26.5928,攀枝花市,河门口,,43,43,36,15,18,65,,,,19,25,45,19,0.4,0.7
2025-03-27T0200,1890A,101.7169,26.585,攀枝花市,炳草岗,,44,44,42,20,21,78,,,,25,38,13,15,0.6,0.6
2025-03-27T0200,1891A,101.7369,26.5008,攀枝花市,仁和,,27,27,28,16,18,83,,,,14,18,7,9,0.5,0.5
2025-03-27T0200,2835A,101.7227,26.567,攀枝花市,四十中小,,34,34,47,20,24,106,,,,13,32,10,13,0,0.3
2025-03-27T0200,1604A,122.0303,41.1489,盘锦市,开发区,颗粒物(PM10),73,96,98,21,90,62,,,,23,32,16,15,0.6,0.8
2025-03-27T0200,1605A,122.0485,41.0883,盘锦市,兴隆台,颗粒物(PM10),84,117,100,22,90,67,,,,18,36,9,7,0.5,0.8
2025-03-27T0200,1606A,121.8297,41.1028,盘锦市,新生街道,颗粒物(PM10),77,104,92,32,85,40,,,,49,39,11,9,0.7,0.8
2025-03-27T0200,1832A,113.3257,33.742,平顶山市,新华旅馆,颗粒物(PM10),101,151,129,36,40,85,,,,23,28,7,7,0.5,0.5
2025-03-27T0200,1833A,113.2919,33.737,平顶山市,规划设计院,颗粒物(PM10),107,164,120,44,49,95,,,,18,20,9,8,0.4,0.5
2025-03-27T0200,1834A,113.182,33.774,平顶山市,平顶山工学院,颗粒物(PM10),114,178,113,46,46,91,,,,19,8,11,11,0.8,0.6
2025-03-27T0200,3204A,113.3025,33.73,平顶山市,规划局,颗粒物(PM10),112,173,130,56,54,93,,,,20,19,8,7,0.6,0.6
2025-03-27T0200,3594A,112.8867,33.9116,平顶山市,石龙区,颗粒物(PM10),163,275,163,74,52,94,,,,44,31,19,16,0.4,0.3
2025-03-27T0200,2656A,106.6692,35.5461,平凉市,聚贤嘉苑,颗粒物(PM10),181,311,780,54,134,93,,,,3,5,7,9,0.3,0.3
2025-03-27T0200,2657A,106.7021,35.5307,平凉市,博物馆,颗粒物(PM10),186,322,740,66,130,90,,,,3,5,15,16,0.4,0.4
2025-03-27T0200,2347A,114.0997,27.5002,萍乡市,武功山,细颗粒物(PM2.5),70,63,58,51,47,124,,,,7,8,17,16,0.7,0.6
2025-03-27T0200,2348A,113.8385,27.6434,萍乡市,中医院,颗粒物(PM10),57,63,84,31,51,139,,,,2,21,10,12,0.8,1
2025-03-27T0200,2349A,113.8493,27.6253,萍乡市,市政府车库,细颗粒物(PM2.5),75,55,72,55,62,136,,,,5,22,6,8,0.5,0.9
2025-03-27T0200,2350A,113.8676,27.6435,萍乡市,市环保局,细颗粒物(PM2.5),73,67,84,53,62,138,,,,2,19,6,10,0.6,0.8
2025-03-27T0200,2351A,113.866,27.6198,萍乡市,安源区政府,细颗粒物(PM2.5),62,64,84,44,52,138,,,,6,22,14,17,0.6,1.3
2025-03-27T0200,2319A,119.0141,25.4325,莆田市,荔城区仓后路,,38,38,67,20,31,51,,,,15,22,2,3,0.5,0.6
2025-03-27T0200,2320A,119.0015,25.4553,莆田市,莆田市监测站,,29,29,61,16,32,40,,,,12,19,3,5,0.4,0.5
2025-03-27T0200,2321A,119.1119,25.4561,莆田市,涵江区六中,,39,38,60,27,35,45,,,,22,27,5,5,0.5,0.4
2025-03-27T0200,2322A,119.1013,25.3215,莆田市,秀屿区政府,,23,19,41,16,24,56,,,,11,16,5,6,0.4,0.4
2025-03-27T0200,2323A,118.981,25.4792,莆田市,东圳水库,,,,,,,,,,,,,,,,
2025-03-27T0200,2392A,115.0312,35.7636,濮阳市,环保局,细颗粒物(PM2.5),85,111,128,63,55,75,,,,25,27,5,7,0.9,0.9
2025-03-27T0200,2394A,115.0574,35.7609,濮阳市,油田运输公司,颗粒物(PM10),92,133,152,60,54,73,,,,21,23,6,8,1.1,1.1
2025-03-27T0200,3021A,115,35.7668,濮阳市,濮水河管理处,颗粒物(PM10),91,132,162,60,56,64,,,,33,33,6,8,0.7,0.7
2025-03-27T0200,4216A,115.0924,35.7686,濮阳市,任丘路479号,颗粒物(PM10),92,133,154,62,57,68,,,,23,24,7,9,1.0,1.1
2025-03-27T0200,2601A,100.98,22.7633,普洱市,市环保局,颗粒物(PM10),58,65,73,25,28,69,,,,12,14,4,4,0.7,0.7
2025-03-27T0200,2602A,100.9817,22.8322,普洱市,普洱第二中学,,,,,47,38,16,,,,64,24,6,6,0.4,0.5
2025-03-27T0200,2262A,131.0518,45.8751,七台河市,新一中,,23,13,65,10,50,71,,,,12,18,11,15,0.6,0.7
2025-03-27T0200,3345A,131.0577,45.7879,七台河市,中波台,,20,14,63,12,48,64,,,,14,25,6,11,0.4,0.7
2025-03-27T0200,3637A,131.0176,45.7761,七台河市,人民广场,,30,,81,21,46,68,,,,10,23,7,11,0.5,0.8
2025-03-27T0200,3684A,130.8781,45.8222,七台河市,新建矿广场,,50,,71,35,46,49,,,,29,22,12,12,0.7,0.7
2025-03-27T0200,1779A,123.9305,47.3636,齐齐哈尔市,安居小区,,,12,48,,40,73,,,,7,16,1,6,0.2,0.4
2025-03-27T0200,1780A,123.9488,47.3386,齐齐哈尔市,中心广场,,22,22,48,3,27,70,,,,4,14,5,6,0.3,0.5
2025-03-27T0200,1781A,123.9483,47.3227,齐齐哈尔市,农牧车辆厂,,24,,42,8,24,76,,,,4,14,5,6,0.2,0.3
2025-03-27T0200,1783A,123.945,47.2988,齐齐哈尔市,市环境监测站,,23,17,46,6,28,72,,,,4,14,2,4,0.3,0.4
2025-03-27T0200,3662A,123.6333,47.2075,齐齐哈尔市,富区青少年活动中心,,22,14,44,3,27,69,,,,5,10,6,6,0.3,0.4
2025-03-27T0200,2591A,107.9783,26.5747,黔东南苗族侗族自治州,市环境监测站,细颗粒物(PM2.5),79,74,65,58,53,143,,,,6,8,4,4,0.6,0.5
2025-03-27T0200,2881A,107.8908,26.5311,黔东南苗族侗族自治州,凯里学院,细颗粒物(PM2.5),75,73,64,55,52,149,,,,4,4,4,4,0.6,0.5
2025-03-27T0200,2593A,107.5228,26.2403,黔南布依族苗族自治州,小围寨,细颗粒物(PM2.5),70,68,57,51,41,143,,,,8,7,6,5,1.0,0.9
2025-03-27T0200,3538A,107.5175,26.2978,黔南布依族苗族自治州,沙坝,细颗粒物(PM2.5),73,70,59,53,42,125,,,,10,11,7,5,0.7,0.7
2025-03-27T0200,2589A,104.9022,25.0925,黔西南布依族苗族自治州,场坝街,,45,34,39,13,27,144,,,,7,9,2,3,0.3,0.3
2025-03-27T0200,2590A,104.8811,25.0992,黔西南布依族苗族自治州,坪东大道,细颗粒物(PM2.5),54,,33,38,25,135,,,,9,15,2,2,0.2,0.3
2025-03-27T0200,2502A,108.6236,21.9667,钦州市,市环保站,,34,34,45,9,15,47,,,,25,20,10,10,1.1,0.7
2025-03-27T0200,2503A,108.6549,21.9481,钦州市,沙埠小学,,33,33,45,13,16,50,,,,19,17,6,8,0.8,0.6
2025-03-27T0200,2504A,108.5989,21.7431,钦州市,港区一小,,42,42,51,13,17,60,,,,16,19,6,7,0.5,0.6
2025-03-27T0200,3404A,108.5959,21.9633,钦州市,北职校,,34,34,46,12,18,59,,,,14,20,7,11,0.6,0.7
2025-03-27T0200,1043A,119.7493,40.0116,秦皇岛市,第一关,颗粒物(PM10),163,276,150,53,68,41,,,,62,44,4,5,0.4,0.5
2025-03-27T0200,1044A,119.5897,39.9499,秦皇岛市,监测站,颗粒物(PM10),194,337,144,52,53,92,,,,2,32,2,4,0.2,0.5
2025-03-27T0200,1046A,119.5251,39.9041,秦皇岛市,建设大厦,颗粒物(PM10),174,298,154,55,56,41,,,,50,35,7,4,0.4,0.5
2025-03-27T0200,3132A,119.610547,39.943889,秦皇岛市,文明里,颗粒物(PM10),272,400,155,45,46,90,,,,7,34,2,5,0.1,0.4
2025-03-27T0200,4198A,119.5090,39.8253,秦皇岛市,北戴河轮滑馆,颗粒物(PM10),152,253,131,39,57,48,,,,31,19,6,6,0.4,0.4
2025-03-27T0200,1307A,120.6659,36.2403,青岛市,仰口,颗粒物(PM10),114,178,201,45,39,133,,,,10,9,7,4,0.6,0.6
2025-03-27T0200,1310A,120.4134,36.0658,青岛市,市南区东部子站,颗粒物(PM10),113,175,176,41,35,77,,,,28,17,10,9,0.6,0.5
2025-03-27T0200,1311A,120.3664,36.1032,青岛市,四方区子站,颗粒物(PM10),103,156,167,63,43,84,,,,36,30,8,6,0.8,0.8
2025-03-27T0200,1312A,120.2994,36.054,青岛市,市南区西部子站,颗粒物(PM10),108,166,165,34,34,81,,,,27,21,8,8,0.7,0.7
2025-03-27T0200,1313A,120.4581,36.0858,青岛市,崂山区子站,颗粒物(PM10),103,156,166,36,33,93,,,,26,14,11,9,0.7,0.6
2025-03-27T0200,1315A,120.3999,36.3083,青岛市,城阳区子站,颗粒物(PM10),102,153,161,34,36,69,,,,40,36,11,9,0.8,0.8
2025-03-27T0200,1966A,120.0405,35.8735,青岛市,黄岛区4号,颗粒物(PM10),114,178,156,34,33,96,,,,24,22,10,9,0.7,0.7
2025-03-27T0200,3362A,120.5014,36.4034,青岛市,即墨2号,颗粒物(PM10),109,168,211,37,39,96,,,,19,16,10,8,0.7,0.7
2025-03-27T0200,3642A,120.3503,36.0736,青岛市,市北区南部,颗粒物(PM10),103,155,163,41,40,65,,,,26,18,8,8,0.8,0.8
2025-03-27T0200,3643A,120.3948,36.1805,青岛市,李沧区北部,颗粒物(PM10),114,178,186,51,45,69,,,,41,25,10,9,0.7,0.7
2025-03-27T0200,4290A,120.1969,35.9546,青岛市,珠江路669号,颗粒物(PM10),114,178,166,44,38,88,,,,31,30,9,8,0.8,0.8
2025-03-27T0200,1702A,113.0426,23.691,清远市,环保大楼,,48,48,41,25,34,51,,,,11,24,2,3,0.6,0.8
2025-03-27T0200,1703A,113.0208,23.7106,清远市,凤城街办,,42,42,59,15,26,46,,,,19,33,4,7,0.4,0.6
2025-03-27T0200,3025A,113.0477,23.6344,清远市,技师学院,,45,45,62,19,27,49,,,,22,36,6,8,0.2,0.4
2025-03-27T0200,3318A,112.9903,23.7403,清远市,清新太和,,48,48,63,19,29,50,,,,23,32,7,9,0.4,0.5
2025-03-27T0200,3455A,113.076,23.7198,清远市,清城东城,颗粒物(PM10),52,53,70,21,32,37,,,,21,28,8,8,0.2,0.3
2025-03-27T0200,2661A,107.6325,35.7357,庆阳市,庆阳五中,颗粒物(PM10),392,493,625,117,159,78,,,,4,7,2,1,0.4,0.4
2025-03-27T0200,2662A,107.6364,35.7067,庆阳市,市环保局,颗粒物(PM10),394,495,610,124,152,80,,,,5,7,3,3,0.5,0.5
2025-03-27T0200,1916A,103.7897,25.5035,曲靖市,环境监测站,,40,40,41,21,20,125,,,,12,14,4,5,0.5,0.4
2025-03-27T0200,1917A,103.8,25.5364,曲靖市,烟厂办公区,,45,45,40,28,21,130,,,,10,12,3,5,0.4,0.4
2025-03-27T0200,3376A,103.7947,25.462,曲靖市,南苑二区,,48,48,36,21,20,133,,,,8,10,7,8,0.4,0.3
2025-03-27T0200,3377A,103.7444,25.5261,曲靖市,曲靖师范学院,,49,42,41,34,28,126,,,,17,16,9,11,0.2,0.3
2025-03-27T0200,1264A,118.8692,28.9398,衢州市,环保大楼,细颗粒物(PM2.5),92,108,87,68,53,85,,,,23,39,5,5,0.6,0.5
2025-03-27T0200,1265A,118.8709,28.9666,衢州市,实验学校,颗粒物(PM10),97,143,85,67,49,41,,,,57,41,2,3,0.6,0.6
2025-03-27T0200,1266A,118.8621,28.9808,衢州市,衢州学院,细颗粒物(PM2.5),98,94,78,73,56,6,,,,89,47,1,4,0.6,0.6
2025-03-27T0200,1611A,118.5819,24.9117,泉州市,涂山街,,25,25,48,17,26,49,,,,19,23,4,6,0.5,0.6
2025-03-27T0200,1612A,118.5972,24.8978,泉州市,津头埔,,25,20,43,17,27,52,,,,19,25,3,5,0.5,0.6
2025-03-27T0200,1613A,118.6663,24.9424,泉州市,万安,,20,20,43,13,22,61,,,,6,19,3,4,0.5,0.6
2025-03-27T0200,1614A,118.6117,24.9604,泉州市,清源山,,,,,,,,,,,,,,,,
2025-03-27T0200,3529A,118.6333,24.9264,泉州市,城华南路,,29,29,40,15,23,51,,,,15,21,3,4,0.3,0.4
2025-03-27T0200,2626A,88.8876,29.2718,日喀则市,日喀则监测站,,50,50,29,30,15,14,,,,54,23,2,1,1.3,1
2025-03-27T0200,3726A,88.8781,29.2426,日喀则市,林业技术推广中心,,21,21,25,8,6,54,,,,6,7,7,7,0.6,0.5
2025-03-27T0200,1659A,119.471,35.4209,日照市,监测站,颗粒物(PM10),106,161,125,43,39,110,,,,23,25,9,7,0.7,0.7
2025-03-27T0200,1660A,119.523,35.4216,日照市,市政府广场,颗粒物(PM10),104,158,118,37,35,94,,,,21,17,8,6,0.8,0.7
2025-03-27T0200,1661A,119.5587,35.4044,日照市,港务局,颗粒物(PM10),112,173,126,47,38,116,,,,19,17,8,6,0.7,0.6
2025-03-27T0200,3507A,119.5328,35.4625,日照市,职业技术学院,颗粒物(PM10),113,175,128,39,33,101,,,,27,22,8,6,0.8,0.8
2025-03-27T0200,3604A,119.3266,35.1044,日照市,岚山环保分局,颗粒物(PM10),114,178,139,50,48,106,,,,39,30,50,21,3.6,2.1
2025-03-27T0200,1835A,111.1922,34.7752,三门峡市,市政府,颗粒物(PM10),338,450,306,122,100,91,,,,8,16,5,9,0.4,0.6
2025-03-27T0200,1836A,111.1587,34.7942,三门峡市,开发区,颗粒物(PM10),312,429,348,134,98,82,,,,14,18,8,9,0.3,0.4
2025-03-27T0200,1838A,111.143,34.7955,三门峡市,风景区,颗粒物(PM10),417,517,349,109,85,82,,,,9,13,9,13,0.4,0.6
2025-03-27T0200,3039A,111.1911,34.7829,三门峡市,三门峡市第一小学,颗粒物(PM10),402,502,339,100,82,89,,,,10,15,6,10,0.5,0.6
