timepoint,stationcode,longitude,latitude,area,positionname,primarypollutant,aqi,pm10,pm10_24h,pm2_5,pm2_5_24h,o3,o3_24h,o3_8h,o3_8h_24h,no2,no2_24h,so2,so2_24h,co,co_24h
2025-03-27T0800,2566A,102.1879,31.914,阿坝藏族羌族自治州,州农科所,颗粒物(PM10),97,143,25,25,10,40,,47,47,19,15,12,11,0.3,0.2
2025-03-27T0800,2568A,102.2502,31.8896,阿坝藏族羌族自治州,马师校,,22,17,24,15,16,29,,35,35,26,22,4,4,0.3,0.3
2025-03-27T0800,3994A,102.2165,31.9024,阿坝藏族羌族自治州,马尔康中学西区,,18,18,18,8,14,37,,50,50,21,13,5,5,0.3,0.3
2025-03-27T0800,2695A,80.292,41.1694,阿克苏地区,电视台,"颗粒物(PM10),细颗粒物(PM2.5)",500,2690,4426,531,838,84,,82,82,2,3,5,4,0.2,0.3
2025-03-27T0800,2696A,80.2613,41.1551,阿克苏地区,艺术中心,"颗粒物(PM10),细颗粒物(PM2.5)",500,3161,5058,605,927,82,,82,82,3,4,4,4,0.5,0.5
2025-03-27T0800,2204A,105.6467,38.8363,阿拉善盟,西城区西花园,颗粒物(PM10),67,83,256,19,57,90,,93,93,7,6,8,9,0.5,0.7
2025-03-27T0800,2205A,105.6985,38.8411,阿拉善盟,蒙二幼,颗粒物(PM10),51,52,294,12,70,81,,83,83,7,7,5,5,0.6,0.6
2025-03-27T0800,2206A,105.724,38.8516,阿拉善盟,环保局新楼,,41,41,280,8,79,89,,89,89,4,3,7,8,0.5,0.4
2025-03-27T0800,2708A,88.1264,47.8517,阿勒泰地区,市站,,25,,13,10,6,80,,80,80,2,5,2,3,0.4,0.4
2025-03-27T0800,2630A,80.1161,32.5,阿里地区,阿里监测站,,27,6,10,3,7,84,,84,84,6,5,6,7,0.4,0.5
2025-03-27T0800,3192A,80.0903,32.5028,阿里地区,阿里藏医院,,30,6,11,3,4,96,,94,94,2,2,7,7,0.4,0.4
2025-03-27T0800,2642A,109.0318,32.6537,安康市,香溪洞,颗粒物(PM10),236,375,148,95,47,82,,92,92,7,10,12,10,0.6,0.7
2025-03-27T0800,2644A,109.0072,32.6975,安康市,汉滨区检察院,颗粒物(PM10),276,403,117,82,37,87,,68,68,9,23,7,11,0.3,0.5
2025-03-27T0800,4054A,109.0325,32.6913,安康市,市邮政管理局,颗粒物(PM10),276,403,116,94,45,85,,48,48,8,32,6,12,0.3,0.9
2025-03-27T0800,2291A,117.0809,30.5177,安庆市,环科院,,39,33,65,27,44,66,,114,114,48,24,10,9,1.1,0.7
2025-03-27T0800,2292A,117.0331,30.5119,安庆市,马山宾馆,,46,32,56,32,44,76,,112,112,36,20,6,6,1.3,0.7
2025-03-27T0800,2294A,116.9896,30.6145,安庆市,安庆大学,细颗粒物(PM2.5),54,39,69,38,49,90,,119,119,20,17,4,8,0.5,0.5
2025-03-27T0800,3173A,117.0598,30.5351,安庆市,市人大,,39,39,58,25,41,86,,120,120,28,14,8,10,1.1,0.7
2025-03-27T0800,3122A,105.9606,26.2611,安顺市,伍家关,,48,48,39,26,21,111,,126,126,10,9,7,6,0.4,0.3
2025-03-27T0800,3123A,105.9408,26.2431,安顺市,凤凰山,细颗粒物(PM2.5),54,45,41,38,28,112,,125,125,18,17,10,8,0.4,0.3
2025-03-27T0800,3124A,105.9439,26.2564,安顺市,金钟山,细颗粒物(PM2.5),57,47,41,40,27,118,,129,129,12,12,8,7,0.5,0.5
2025-03-27T0800,3125A,105.8983,26.2481,安顺市,娄家坡,细颗粒物(PM2.5),53,48,40,37,28,118,,128,128,10,10,8,7,0.6,0.5
2025-03-27T0800,1818A,114.4839,36.0621,安阳市,棉研所,,,,,,,,,,,,,,,,
2025-03-27T0800,1819A,114.3551,36.1017,安阳市,红庙街,颗粒物(PM10),103,156,148,54,50,51,,50,50,30,23,5,7,0.5,0.9
2025-03-27T0800,1820A,114.361,36.0681,安阳市,银杏小区,颗粒物(PM10),105,160,142,61,53,57,,58,58,26,21,3,5,0.6,0.6
2025-03-27T0800,3141A,114.3922,36.0878,安阳市,信访局,颗粒物(PM10),107,164,141,66,51,52,,56,56,30,22,4,6,0.6,0.6
2025-03-27T0800,3669A,114.4705,36.0637,安阳市,左辅环卫站,颗粒物(PM10),119,188,170,61,51,70,,68,68,21,18,5,7,0.4,0.4
2025-03-27T0800,3703A,114.2917,36.0949,安阳市,安钢职工学校,颗粒物(PM10),111,172,148,60,51,,,50,50,26,27,4,8,0.6,0.8
2025-03-27T0800,1748A,123.044,41.1196,鞍山市,深沟寺,颗粒物(PM10),58,65,99,35,64,63,,62,62,12,27,10,19,0.7,1.1
2025-03-27T0800,1749A,123.011,41.0931,鞍山市,太阳城,颗粒物(PM10),58,65,101,37,66,64,,62,62,15,32,10,17,0.9,1.5
2025-03-27T0800,1750A,123.0485,41.1442,鞍山市,太平,颗粒物(PM10),66,82,129,35,77,58,,59,59,16,40,8,19,1.1,1.6
2025-03-27T0800,1751A,122.9642,41.0971,鞍山市,铁西三道街,颗粒物(PM10),61,71,113,36,73,52,,64,64,30,39,17,13,1.9,1
2025-03-27T0800,1753A,123.022,41.0821,鞍山市,明达新区,颗粒物(PM10),55,59,96,34,71,63,,62,62,14,31,8,16,0.5,1.1
2025-03-27T0800,1754A,123.1289,41.0228,鞍山市,千山,,,,89,,42,,,79,,,20,,4,,1.1
2025-03-27T0800,4201A,122.9446,41.0826,鞍山市,兴盛南路290号,颗粒物(PM10),55,60,120,32,80,61,,53,53,23,47,11,14,0.6,0.9
2025-03-27T0800,2195A,107.4212,40.761,巴彦淖尔市,附二中,颗粒物(PM10),112,174,429,26,79,76,,79,79,5,5,5,6,0.6,0.6
2025-03-27T0800,2196A,107.37,40.7372,巴彦淖尔市,市环保大楼,颗粒物(PM10),99,148,293,26,94,80,,79,79,3,4,4,4,0.1,0.1
2025-03-27T0800,1956A,86.1472,41.7538,巴音郭楞蒙古自治州,孔雀公园,颗粒物(PM10),81,111,2813,23,308,59,,75,75,17,10,6,5,0.3,0.2
2025-03-27T0800,1957A,86.1972,41.7166,巴音郭楞蒙古自治州,棉纺厂,颗粒物(PM10),92,134,1758,10,403,75,,79,79,6,7,2,2,0.2,0.2
2025-03-27T0800,1958A,86.2357,41.7173,巴音郭楞蒙古自治州,经济开发区,颗粒物(PM10),64,77,2854,12,540,81,,84,84,3,4,3,4,0.1,0.1
2025-03-27T0800,2914A,106.7677,31.8794,巴中市,苏山坪,颗粒物(PM10),174,297,68,85,34,93,,122,122,6,9,5,6,0.2,0.3
2025-03-27T0800,3181A,106.7768,31.8526,巴中市,市五中,颗粒物(PM10),136,222,73,66,40,83,,58,58,15,28,5,6,0.4,0.7
2025-03-27T0800,3183A,106.7418,31.8654,巴中市,圣泉水务公司,颗粒物(PM10),155,260,65,72,33,97,,91,91,16,30,8,9,0.3,0.5
2025-03-27T0800,3616A,106.7616,31.8344,巴中市,市中心医院,颗粒物(PM10),127,203,73,59,44,78,,37,37,21,41,8,9,0.5,0.9
2025-03-27T0800,2235A,122.7911,45.6077,白城市,洮北区环保局,,25,18,69,7,55,79,,78,78,10,14,7,5,0.3,0.5
2025-03-27T0800,2236A,122.8738,45.5725,白城市,市环保局,,25,19,67,6,60,80,,78,78,5,13,4,4,0.3,0.5
2025-03-27T0800,2231A,126.4219,41.9171,白山市,喜丰,,43,43,63,20,34,71,,36,36,15,23,6,7,0.9,1
2025-03-27T0800,2232A,126.4077,41.9419,白山市,环保局,,46,46,65,13,38,79,,42,42,17,29,8,8,1.0,1.2
2025-03-27T0800,2647A,104.1724,36.5446,白银市,第三小学,颗粒物(PM10),68,86,389,20,70,81,,85,85,3,2,7,7,0.2,0.2
2025-03-27T0800,2648A,104.1465,36.5482,白银市,动力公司,颗粒物(PM10),66,81,336,24,84,82,,86,86,4,5,5,4,0.3,0.2
2025-03-27T0800,2512A,106.6103,23.9011,百色市,市监测站,细颗粒物(PM2.5),94,90,92,70,65,50,,63,63,24,20,15,14,1.1,1
2025-03-27T0800,2513A,106.6538,23.8859,百色市,市中心血站,细颗粒物(PM2.5),108,100,109,81,74,43,,82,82,30,22,18,18,1.1,1.1
2025-03-27T0800,3406A,106.6085,23.8798,百色市,祈福高中,细颗粒物(PM2.5),97,95,106,72,66,27,,64,64,41,23,10,13,1.0,1
2025-03-27T0800,2270A,117.396,32.939,蚌埠市,工人疗养院,颗粒物(PM10),76,101,103,32,51,97,,109,109,15,28,6,8,0.6,0.8
2025-03-27T0800,2271A,117.3605,32.9427,蚌埠市,百货大楼,颗粒物(PM10),80,109,110,36,57,88,,100,100,18,20,7,9,0.5,0.6
2025-03-27T0800,2273A,117.4185,32.8911,蚌埠市,蚌埠学院,颗粒物(PM10),74,97,96,41,57,99,,110,110,13,13,5,7,0.7,0.8
2025-03-27T0800,2274A,117.3533,32.9673,蚌埠市,淮上区政府,颗粒物(PM10),82,114,101,34,58,98,,104,104,14,18,6,9,0.5,0.7
2025-03-27T0800,2275A,117.3145,32.8977,蚌埠市,高新区,颗粒物(PM10),82,114,104,42,62,97,,105,105,13,19,6,9,0.6,0.8
2025-03-27T0800,3715A,117.3092,32.9314,蚌埠市,蚌埠田家炳中学,颗粒物(PM10),101,151,119,37,58,98,,104,104,17,21,6,11,0.5,0.6
2025-03-27T0800,1585A,109.8756,40.6532,包头市,市环境监测站,颗粒物(PM10),103,155,294,42,62,75,,81,81,8,6,9,9,0.2,0.2
2025-03-27T0800,1587A,109.9991,40.5842,包头市,包头八中,颗粒物(PM10),118,185,293,51,71,70,,78,78,14,7,7,6,0.5,0.3
2025-03-27T0800,1588A,109.8538,40.6821,包头市,青山宾馆,颗粒物(PM10),87,124,258,45,66,70,,79,79,9,4,7,6,0.4,0.3
2025-03-27T0800,1589A,109.8642,40.6288,包头市,惠龙物流,颗粒物(PM10),108,166,312,34,48,72,,80,80,15,8,8,6,0.6,0.4
2025-03-27T0800,1590A,110.0377,40.5546,包头市,东河鸿龙湾,颗粒物(PM10),96,142,281,33,54,67,,79,79,11,6,10,6,0.6,0.5
2025-03-27T0800,3283A,109.9154,40.5685,包头市,滨河大厦,颗粒物(PM10),96,142,261,36,60,63,,75,75,10,6,10,9,0.7,0.7
2025-03-27T0800,3419A,109.9447,40.6261,包头市,包头市委党校,颗粒物(PM10),107,163,280,35,50,77,,82,82,5,4,5,5,0.2,0.2
2025-03-27T0800,3683A,109.8331,40.6576,包头市,昆区政府,颗粒物(PM10),101,152,270,36,49,72,,79,79,11,7,5,5,0.5,0.5
2025-03-27T0800,1930A,107.185,34.3063,宝鸡市,庙沟村,颗粒物(PM10),202,351,661,81,168,82,,84,84,5,6,6,6,0.2,0.2
2025-03-27T0800,1931A,107.0708,34.3017,宝鸡市,竹园沟,颗粒物(PM10),219,363,608,72,148,82,,84,84,5,8,6,6,0.3,0.3
2025-03-27T0800,1932A,107.1906,34.3672,宝鸡市,三陆医院,颗粒物(PM10),279,405,696,83,196,80,,79,79,6,9,3,4,0.3,0.3
2025-03-27T0800,1933A,107.1431,34.3547,宝鸡市,监测站,颗粒物(PM10),286,410,724,74,170,80,,82,82,4,8,6,7,0.5,0.4
2025-03-27T0800,1934A,107.1186,34.3739,宝鸡市,技工学校,颗粒物(PM10),223,366,674,119,211,82,,83,83,8,10,4,4,0.3,0.2
2025-03-27T0800,1935A,107.3906,34.3528,宝鸡市,陈仓区环保局家属楼,颗粒物(PM10),292,414,666,96,164,66,,74,74,1,6,6,7,0.6,0.5
2025-03-27T0800,1936A,107.2058,34.3497,宝鸡市,文理学院,颗粒物(PM10),282,407,716,77,174,81,,82,82,3,6,4,7,0.3,0.3
2025-03-27T0800,1937A,107.2386,34.3622,宝鸡市,三迪小学,颗粒物(PM10),298,418,733,92,201,79,,80,80,9,12,5,8,0.3,0.3
2025-03-27T0800,1051A,115.493,38.8632,保定市,游泳馆,颗粒物(PM10),90,129,124,39,54,86,,69,69,5,24,3,5,0.2,0.3
2025-03-27T0800,1052A,115.5213,38.8959,保定市,华电二区,颗粒物(PM10),76,101,112,47,44,86,,80,80,1,17,3,2,0,0.3
2025-03-27T0800,1053A,115.4713,38.9108,保定市,接待中心,颗粒物(PM10),82,114,121,35,48,85,,68,68,7,25,1,3,0.2,0.5
2025-03-27T0800,1054A,115.4612,38.8416,保定市,地表水厂,颗粒物(PM10),88,125,153,30,46,80,,59,59,12,36,1,3,0.2,0.4
2025-03-27T0800,3581A,115.31981,38.95208,保定市,满城区生态环境分局,颗粒物(PM10),78,105,123,31,43,83,,78,78,5,22,3,4,0.1,0.4
2025-03-27T0800,3582A,115.47694,38.76408,保定市,清苑区第二中学,颗粒物(PM10),119,188,165,37,47,82,,59,59,7,32,3,5,0.2,0.4
2025-03-27T0800,3583A,115.62909,39.02311,保定市,徐水物探局,颗粒物(PM10),93,135,154,36,46,88,,90,90,5,21,5,9,0.2,0.3
2025-03-27T0800,4004A,115.4202,38.8656,保定市,双鹰农机,颗粒物(PM10),90,129,128,40,43,83,,67,67,6,26,2,3,0.2,0.4
2025-03-27T0800,4034A,115.5150,38.8590,保定市,植保所站,颗粒物(PM10),90,130,127,49,47,83,,75,75,2,16,3,3,0.3,0.5
2025-03-27T0800,2594A,99.1678,25.1081,保山市,市环境监测站,,30,,31,21,18,62,,77,77,13,10,4,5,0.4,0.3
2025-03-27T0800,2595A,99.1711,25.1328,保山市,市环保局,,46,,33,32,22,77,,92,92,7,8,3,4,0.4,0.4
2025-03-27T0800,1866A,109.2262,21.588,北海市,牛尾岭水库,,,26,23,15,12,12,,20,20,,,5,5,0.5,0.4
2025-03-27T0800,1867A,109.1436,21.4086,北海市,海滩公园,,33,33,31,15,10,42,,55,55,13,11,7,5,0.7,0.6
2025-03-27T0800,1868A,109.0981,21.4661,北海市,新市环保局,,28,28,33,9,14,55,,61,61,15,11,3,3,0.5,0.5
2025-03-27T0800,1869A,109.1778,21.5233,北海市,北海工业园,,47,47,40,24,18,22,,37,37,25,13,7,7,0.4,0.4
2025-03-27T0800,3400A,109.1911,21.4415,北海市,龙潭自来水厂,,38,38,31,23,16,29,,36,36,13,9,8,6,0.5,0.3
2025-03-27T0800,1001A,116.3621,39.8784,北京市,万寿西宫,,30,30,127,6,33,87,,92,92,6,12,3,3,0.2,0.3
2025-03-27T0800,1002A,116.2202,40.2915,北京市,定陵,,,,,,,,,,,,,,,,
2025-03-27T0800,1003A,116.4174,39.9289,北京市,东四,,36,36,121,8,33,78,,85,85,9,13,3,5,0.2,0.4
2025-03-27T0800,1004A,116.4072,39.8863,北京市,天坛,,33,33,132,8,35,79,,85,85,7,13,3,3,0.4,0.5
2025-03-27T0800,1005A,116.462,39.9365,北京市,农展馆,,26,26,111,3,28,74,,78,78,2,9,5,6,0.3,0.4
2025-03-27T0800,1006A,116.3392,39.9295,北京市,官园,,30,30,127,6,31,74,,80,80,5,10,5,6,0.4,0.5
2025-03-27T0800,1007A,116.2878,39.9611,北京市,海淀万柳,,26,26,110,6,29,68,,72,72,8,12,3,4,0.4,0.5
2025-03-27T0800,1008A,116.6636,40.135,北京市,顺义新城,,25,13,105,3,27,79,,89,89,4,8,4,5,0.1,0.3
2025-03-27T0800,1009A,116.6275,40.3275,北京市,怀柔镇,,27,27,113,6,28,72,,80,80,1,5,2,3,0.2,0.3
2025-03-27T0800,1010A,116.2296,40.217,北京市,昌平镇,,26,19,105,3,27,83,,86,86,2,7,3,2,0.5,0.5
2025-03-27T0800,1011A,116.3966,39.9821,北京市,奥体中心,,27,27,111,7,31,73,,74,74,9,16,3,4,0.4,0.5
2025-03-27T0800,3281A,115.9718,40.4529,北京市,延庆夏都,,26,16,122,3,28,82,,88,88,2,5,4,5,0.4,0.5
2025-03-27T0800,3418A,116.8336,40.4095,北京市,密云新城,,24,18,115,3,26,76,,81,81,1,5,3,4,0.4,0.4
2025-03-27T0800,3671A,116.088,39.9726,北京市,门头沟三家店,颗粒物(PM10),61,72,122,9,31,65,,78,78,17,14,4,5,0.3,0.4
2025-03-27T0800,3672A,116.1541,39.8204,北京市,丰台云岗,,29,29,119,3,32,90,,93,93,1,9,4,5,0.4,0.5
2025-03-27T0800,3673A,116.6804,39.9081,北京市,通州东关,,43,43,137,8,35,77,,77,77,8,17,3,5,0.3,0.4
2025-03-27T0800,3674A,115.9577,39.7603,北京市,房山燕山,,41,41,122,9,32,78,,80,80,1,11,4,4,0.3,0.4
2025-03-27T0800,3675A,116.4672,39.7733,北京市,大兴旧宫,,40,40,135,12,36,74,,78,78,4,11,4,5,0.3,0.4
2025-03-27T0800,3694A,115.986,40.4563,北京市,延庆石河营,,27,16,116,3,27,84,,89,89,2,5,4,4,0.3,0.4
2025-03-27T0800,3695A,116.6151,40.3053,北京市,怀柔新城,,24,21,108,3,31,75,,83,83,2,4,4,4,0.4,0.4
2025-03-27T0800,3696A,116.2545,39.8768,北京市,丰台小屯,,34,34,152,14,35,75,,76,76,5,13,1,2,0.2,0.3
2025-03-27T0800,3697A,116.84,40.3844,北京市,密云镇,,26,26,122,3,27,80,,86,86,3,8,4,5,0.3,0.3
2025-03-27T0800,4182A,116.1942,39.9158,北京市,八角北路9号,,27,27,126,6,30,79,,85,85,1,9,3,3,0.1,0.2
2025-03-27T0800,4194A,117.0790,40.1518,北京市,洳河巡河路,,25,17,103,6,30,79,,87,87,3,6,1,2,0.3,0.4
2025-03-27T0800,1761A,123.8275,41.3064,本溪市,大峪,颗粒物(PM10),71,91,64,39,35,66,,67,67,12,20,8,10,0.6,0.7
2025-03-27T0800,1762A,123.7567,41.3325,本溪市,溪湖,颗粒物(PM10),71,92,80,43,32,69,,53,53,16,37,8,15,0.6,1.2
2025-03-27T0800,1763A,123.7169,41.3094,本溪市,彩屯,颗粒物(PM10),74,97,75,44,38,62,,79,79,23,27,8,16,0.7,1.6
2025-03-27T0800,1764A,123.7669,41.2864,本溪市,东明,颗粒物(PM10),59,68,86,38,37,61,,70,70,21,19,8,10,0.6,0.7
2025-03-27T0800,1765A,123.7992,41.2664,本溪市,新立屯,细颗粒物(PM2.5),59,66,72,42,25,70,,73,73,19,22,6,7,0.5,0.6
2025-03-27T0800,1766A,123.8142,41.3472,本溪市,威宁,细颗粒物(PM2.5),77,75,104,56,28,64,,62,62,12,26,4,6,0.6,0.8
2025-03-27T0800,2587A,105.2864,27.3125,毕节市,八中,,35,35,41,21,25,47,,48,48,13,16,10,11,0.5,0.6
2025-03-27T0800,2588A,105.31,27.2944,毕节市,师专,颗粒物(PM10),53,55,63,33,36,27,,19,19,24,37,8,8,0.8,0.9
2025-03-27T0800,4263A,105.3688,27.3598,毕节市,工业大道,颗粒物(PM10),71,92,80,44,39,24,,28,28,34,30,15,12,0.9,0.7
2025-03-27T0800,1629A,118.0018,37.3617,滨州市,第二水厂,颗粒物(PM10),134,217,198,29,40,68,,55,55,13,25,8,14,0.2,0.6
2025-03-27T0800,1630A,117.9776,37.393,滨州市,北中新校,颗粒物(PM10),123,195,178,44,42,74,,54,54,11,29,11,17,0.2,0.5
2025-03-27T0800,3514A,117.9378,37.3956,滨州市,中海酒店,颗粒物(PM10),115,180,164,41,49,75,,58,58,12,27,8,15,0.1,0.5
2025-03-27T0800,3515A,117.9378,37.3553,滨州市,开发区一中,颗粒物(PM10),134,217,192,31,39,73,,60,60,15,30,10,18,0.1,0.4
2025-03-27T0800,3516A,118.0917,37.694,滨州市,金海六路,颗粒物(PM10),138,225,191,22,32,81,,58,58,13,28,5,8,0.5,0.7
2025-03-27T0800,4028A,117.9956,37.3753,滨州市,滨州市西街道办事处,颗粒物(PM10),129,207,188,48,48,77,,60,60,14,25,7,13,0.3,0.5
2025-03-27T0800,2311A,115.8072,33.8399,亳州市,污水处理厂,颗粒物(PM10),130,210,145,47,50,70,,66,66,19,16,6,6,0.5,0.5
2025-03-27T0800,2312A,115.7789,33.8518,亳州市,三国揽胜宫,颗粒物(PM10),118,186,133,42,53,67,,63,63,18,12,6,7,0.5,0.4
2025-03-27T0800,3332A,115.7633,33.8034,亳州市,亳州学院,颗粒物(PM10),127,204,133,44,52,74,,70,70,15,11,6,7,0.6,0.6
2025-03-27T0800,2693A,82.0485,44.8556,博尔塔拉蒙古自治州,市党校,,26,18,48,18,14,70,,64,64,12,12,2,2,0.4,0.4
2025-03-27T0800,2694A,82.0806,44.8969,博尔塔拉蒙古自治州,市环保局,,30,30,53,16,15,50,,51,51,13,15,4,4,0.3,0.5
2025-03-27T0800,1071A,116.8842,38.2991,沧州市,沧县城建局,颗粒物(PM10),125,200,175,43,55,74,,59,59,8,29,4,7,0.1,0.4
2025-03-27T0800,1072A,116.8584,38.3254,沧州市,电视转播站,颗粒物(PM10),111,171,162,29,54,81,,59,59,10,38,6,9,0.3,0.5
2025-03-27T0800,1073A,116.8709,38.3228,沧州市,市环保局,颗粒物(PM10),97,143,154,33,53,76,,57,57,9,32,7,11,0.2,0.5
2025-03-27T0800,3324A,116.8136,38.3004,沧州市,河北水利电力学院,颗粒物(PM10),130,210,197,33,53,77,,63,63,10,33,3,8,0.1,0.5
2025-03-27T0800,2622A,97.1806,31.1273,昌都市,昌都监测站,,18,18,14,9,6,51,,58,58,12,6,7,7,0.4,0.3
2025-03-27T0800,3719A,97.1714,31.1406,昌都市,昌都会议中心,,,12,15,8,7,65,,75,75,,9,2,2,0.3,0.3
2025-03-27T0800,2690A,88.1236,43.8886,昌吉回族自治州,天山天池,,27,6,26,6,10,84,,78,78,2,4,1,2,0.5,0.5
2025-03-27T0800,2692A,87.2717,44.0297,昌吉回族自治州,新区政务中心,,20,15,38,3,7,63,,64,64,10,5,14,8,0.6,0.5
2025-03-27T0800,3613A,87.3095,44.0142,昌吉回族自治州,亚心广场,,18,17,44,7,7,57,,63,63,9,7,11,6,0.3,0.4
2025-03-27T0800,1119A,125.3325,43.9166,长春市,食品厂,,26,25,75,18,60,69,,67,67,14,25,6,9,0.4,0.7
2025-03-27T0800,1120A,125.2863,43.9027,长春市,客车厂,,35,,69,24,66,53,,59,59,26,27,5,7,0.5,0.8
2025-03-27T0800,1121A,125.2841,43.8463,长春市,邮电学院,,26,,76,18,70,69,,65,65,9,25,6,10,0.3,0.6
2025-03-27T0800,1122A,125.3716,43.8772,长春市,劳动公园,,21,15,67,9,66,67,,65,65,7,19,6,8,0.8,1
2025-03-27T0800,1123A,125.3297,43.8805,长春市,园林处,,22,22,73,8,69,68,,65,65,11,22,8,8,0.2,0.6
2025-03-27T0800,1124A,125.4605,43.79,长春市,净月潭,,21,21,69,13,59,64,,62,62,11,14,6,6,0.3,0.6
2025-03-27T0800,1125A,125.7194,43.515,长春市,甩湾子,,45,37,60,31,51,57,,63,63,15,13,2,2,0.5,0.6
2025-03-27T0800,1126A,125.3863,43.8447,长春市,经开区环卫处,,21,16,73,13,64,65,,60,60,12,23,5,7,0.2,0.7
2025-03-27T0800,1127A,125.245,43.7783,长春市,高新区管委会,,21,11,71,11,66,66,,64,64,13,23,7,8,0.4,0.7
2025-03-27T0800,1128A,125.1761,43.8325,长春市,岱山公园,,23,16,68,15,68,71,,66,66,13,28,3,5,0.5,0.9
2025-03-27T0800,1335A,113.0833,28.2325,长沙市,经开区环保局,细颗粒物(PM2.5),75,78,85,55,55,52,,98,98,44,17,7,9,0.7,0.7
2025-03-27T0800,1336A,112.8872,28.2189,长沙市,高开区环保局,细颗粒物(PM2.5),74,78,82,54,56,83,,110,110,21,7,9,8,0.9,0.8
2025-03-27T0800,1337A,113.0792,28.2053,长沙市,马坡岭,细颗粒物(PM2.5),73,78,90,53,58,80,,90,90,17,12,8,7,0.6,0.6
2025-03-27T0800,1338A,112.9394,28.19,长沙市,湖南师范大学,细颗粒物(PM2.5),73,80,86,53,55,61,,89,89,23,9,8,7,1.2,1
2025-03-27T0800,1339A,113.0178,28.1322,长沙市,雨花区环保局,细颗粒物(PM2.5),63,72,82,45,53,100,,104,104,15,14,9,9,0.6,0.8
2025-03-27T0800,1340A,112.9792,28.2597,长沙市,伍家岭,细颗粒物(PM2.5),73,86,92,53,56,25,,54,54,39,24,4,5,0.8,0.8
2025-03-27T0800,1341A,113.0014,28.1944,长沙市,火车新站,细颗粒物(PM2.5),79,85,87,58,54,56,,97,97,48,18,9,8,1.0,0.9
2025-03-27T0800,1342A,112.9844,28.1178,长沙市,天心区环保局,细颗粒物(PM2.5),70,72,83,51,59,105,,108,108,19,16,5,5,0.4,0.5
2025-03-27T0800,1343A,112.8908,28.1308,长沙市,湖南中医药大学,颗粒物(PM10),64,78,88,42,56,76,,91,91,23,14,5,5,1.1,1.1
2025-03-27T0800,1344A,112.9581,28.3611,长沙市,沙坪,细颗粒物(PM2.5),80,80,84,59,49,74,,65,65,11,12,8,7,0.7,0.9
2025-03-27T0800,1727A,113.1147,36.1547,长治市,清华站,颗粒物(PM10),137,223,185,46,49,82,,86,86,10,19,5,11,0.4,0.6
2025-03-27T0800,1730A,113.0886,36.2125,长治市,审计局,颗粒物(PM10),139,227,177,34,52,83,,85,85,13,24,8,14,0.3,0.5
2025-03-27T0800,1731A,113.0844,36.1856,长治市,长治八中,颗粒物(PM10),155,259,222,48,68,86,,88,88,13,21,9,14,0.4,0.7
2025-03-27T0800,2845A,113.1569,36.1911,长治市,德盛苑,颗粒物(PM10),176,302,174,44,50,84,,84,84,8,19,6,12,0.4,0.8
2025-03-27T0800,3568A,113.06,36.0464,长治市,向阳小学,颗粒物(PM10),166,282,209,66,68,79,,82,82,11,23,11,15,0.3,0.5
2025-03-27T0800,3569A,112.8792,36.3144,长治市,屯留一中,颗粒物(PM10),151,252,194,53,62,85,,83,83,12,23,10,20,0.1,0.4
2025-03-27T0800,4189A,113.1131,36.19948,长治市,英华南巷50号,颗粒物(PM10),171,291,198,44,56,84,,87,87,16,24,12,18,0.7,1.1
2025-03-27T0800,4190A,113.2367,36.3344,长治市,学府街1号,颗粒物(PM10),126,202,205,37,55,89,,95,95,2,22,3,14,0.4,1
2025-03-27T0800,1854A,111.6975,28.9703,常德市,市二中,颗粒物(PM10),107,163,76,63,59,116,,87,87,11,12,8,7,0.6,0.7
2025-03-27T0800,1857A,111.7158,29.1456,常德市,白鹤山,,,,,,,,,,,,,,,,
2025-03-27T0800,3138A,111.7153,29.0289,常德市,武陵区永安,颗粒物(PM10),106,162,78,41,57,121,,84,84,13,16,6,6,0.7,0.8
2025-03-27T0800,3139A,111.6892,28.9881,常德市,鼎城区玉霞,颗粒物(PM10),108,165,83,46,53,133,,74,74,7,15,9,7,0.7,0.7
2025-03-27T0800,3140A,111.6625,29.0531,常德市,武陵区长庚,颗粒物(PM10),104,158,84,50,56,131,,91,91,12,12,9,8,0.7,0.7
2025-03-27T0800,1196A,119.9633,31.762,常州市,市监测站,颗粒物(PM10),89,128,112,54,54,88,,93,93,14,32,1,3,0.9,0.9
2025-03-27T0800,1200A,119.9468,31.7069,常州市,武进监测站,颗粒物(PM10),67,84,92,32,46,93,,92,92,25,31,12,15,0.6,0.8
2025-03-27T0800,1201A,119.9255,31.9087,常州市,安家,颗粒物(PM10),110,170,97,74,48,106,,86,86,28,35,12,13,0.6,0.6
2025-03-27T0800,3002A,119.9805,31.8174,常州市,行政中心,颗粒物(PM10),102,154,90,66,49,88,,95,95,28,29,20,21,0.7,0.7
2025-03-27T0800,3003A,120.0522,31.7748,常州市,经开区,颗粒物(PM10),71,91,103,48,51,99,,86,86,25,37,10,19,0.8,1.6
2025-03-27T0800,3010A,119.9025,31.7964,常州市,钟楼,细颗粒物(PM2.5),98,136,97,73,48,89,,94,94,27,30,10,10,1.0,1
2025-03-27T0800,3429A,119.8598,31.7066,常州市,武进经发区,"颗粒物(PM10),细颗粒物(PM2.5)",67,84,92,48,53,95,,101,101,24,35,8,14,0.8,0.9
2025-03-27T0800,3430A,119.5826,31.7245,常州市,金坛城区,颗粒物(PM10),73,96,86,52,49,106,,114,114,24,28,9,13,1.0,1
2025-03-27T0800,2220A,120.4318,41.5881,朝阳市,西梁,,,45,152,36,43,,,82,82,12,12,11,12,0.6,0.6
2025-03-27T0800,2221A,120.4521,41.5646,朝阳市,河畔小区,颗粒物(PM10),52,53,152,27,36,80,,84,84,10,13,6,8,0.6,0.6
2025-03-27T0800,2222A,120.4176,41.5648,朝阳市,八里堡,,44,44,158,28,35,75,,78,78,8,10,7,8,0.5,0.4
2025-03-27T0800,2223A,120.3806,41.5969,朝阳市,农业园区,,48,39,181,33,43,83,,84,84,7,10,7,9,0.4,0.5
2025-03-27T0800,1705A,116.6367,23.6719,潮州市,西园路,,,,,,,,,,,,,,,,
2025-03-27T0800,3026A,116.6183,23.6608,潮州市,市政府,,42,37,61,29,31,12,,24,24,28,26,6,8,0.9,0.7
2025-03-27T0800,4036A,116.6461,23.6761,潮州市,金山,,42,34,55,29,32,6,,11,11,26,25,7,10,0.7,0.6
2025-03-27T0800,2472A,113.0073,25.9061,郴州市,马头岭,颗粒物(PM10),55,59,69,29,26,83,,105,105,13,14,8,9,0.7,0.6
2025-03-27T0800,2473A,113.0116,25.8226,郴州市,市职中,细颗粒物(PM2.5),54,51,63,38,43,99,,130,130,12,11,8,8,0.6,0.6
2025-03-27T0800,2475A,113.0383,25.8071,郴州市,市审计局,颗粒物(PM10),51,52,61,34,41,101,,129,129,12,11,3,4,0.3,0.4
2025-03-27T0800,2476A,113.0348,25.7759,郴州市,市环保局,颗粒物(PM10),54,57,70,37,43,99,,129,129,11,11,12,13,0.5,0.5
2025-03-27T0800,4252A,113.0138,25.8011,郴州市,好美居路49号,颗粒物(PM10),51,52,62,35,43,98,,132,132,12,10,8,9,0.6,0.7
2025-03-27T0800,1431A,103.9728,30.7236,成都市,金泉两河,颗粒物(PM10),78,105,83,46,44,72,,33,33,28,36,5,5,0.8,0.9
2025-03-27T0800,1432A,104.176,30.6872,成都市,十里店,颗粒物(PM10),76,101,79,51,42,58,,79,79,46,34,6,8,0.9,0.8
2025-03-27T0800,1433A,104.079,30.5706,成都市,三瓦窑,细颗粒物(PM2.5),102,127,99,76,57,17,,33,33,81,65,7,7,1.2,1
2025-03-27T0800,1434A,104.1114,30.63,成都市,沙河铺,细颗粒物(PM2.5),100,100,83,75,56,6,,8,8,67,47,6,8,1.3,0.9
2025-03-27T0800,1437A,104.0786,30.6531,成都市,君平街,细颗粒物(PM2.5),85,108,88,63,58,27,,32,32,70,53,8,10,1.3,1
2025-03-27T0800,1438A,103.613,31.0283,成都市,灵岩寺,,,,,,,,,,,,,,,,
2025-03-27T0800,2880A,104.0239,30.65639,成都市,大石西路,细颗粒物(PM2.5),79,102,89,58,54,13,,12,12,62,51,5,6,1.3,1
2025-03-27T0800,3136A,104.2725,30.5589,成都市,龙泉驿区区政府,细颗粒物(PM2.5),70,83,72,51,43,51,,84,84,38,26,5,7,1.0,0.9
2025-03-27T0800,3357A,104.0106,30.6931,成都市,金博路,颗粒物(PM10),82,113,78,32,43,31,,22,22,57,51,9,9,0.9,0.8
2025-03-27T0800,3359A,104.0578,30.5225,成都市,华阳,细颗粒物(PM2.5),92,102,89,68,60,37,,33,33,66,60,7,8,1.3,1.2
2025-03-27T0800,3488A,104.3853,30.7453,成都市,青白江技师分院,颗粒物(PM10),95,140,90,70,59,33,,38,38,57,44,14,11,1.1,0.9
2025-03-27T0800,3489A,104.0789,30.4072,成都市,科学城,细颗粒物(PM2.5),69,77,78,50,49,23,,26,26,40,41,5,6,0.8,0.8
2025-03-27T0800,4011A,103.8506,30.6947,成都市,光华大道三段,颗粒物(PM10),76,102,73,36,42,68,,80,80,47,37,7,8,0.8,0.8
2025-03-27T0800,4224A,104.2433,30.5353,成都市,鲸龙路1057号,细颗粒物(PM2.5),97,113,86,72,53,26,,34,34,75,54,6,8,1.1,1
2025-03-27T0800,1062A,117.9531,40.9081,承德市,铁路,,25,25,160,6,30,79,,83,83,6,7,5,9,0.2,0.3
2025-03-27T0800,1063A,117.9392,40.9763,承德市,中国银行,,32,32,158,7,32,78,,84,84,4,5,3,6,0.2,0.4
2025-03-27T0800,1064A,117.9503,40.928,承德市,开发区,,39,39,149,18,31,83,,86,86,4,8,5,9,0.2,0.4
2025-03-27T0800,1065A,117.8051,40.9655,承德市,文化中心,,36,36,172,3,30,76,,80,80,9,9,4,7,0.2,0.4
2025-03-27T0800,1066A,117.9268,41.0026,承德市,离宫,,32,22,138,22,33,64,,65,65,3,6,19,24,0.2,0.3
2025-03-27T0800,2314A,117.47,30.6618,池州市,池州学院,,30,27,61,21,40,86,,115,115,15,13,4,10,0.7,0.9
2025-03-27T0800,3237A,117.4918,30.6617,池州市,展览馆,,30,30,64,19,37,86,,115,115,15,12,4,8,0.7,0.8
2025-03-27T0800,3333A,117.5627,30.695,池州市,第八中学,,31,31,61,20,36,90,,119,119,10,11,4,8,0.6,0.7
2025-03-27T0800,3334A,117.5038,30.6243,池州市,第十二中学,,32,24,57,22,43,92,,118,118,14,12,5,8,1.0,0.8
2025-03-27T0800,1744A,118.9233,42.2816,赤峰市,松山一中,,38,38,194,17,27,68,,74,74,16,11,11,8,0.4,0.4
2025-03-27T0800,1745A,118.9576,42.2728,赤峰市,哈达街,,35,35,208,21,37,57,,67,67,20,11,9,7,0.4,0.4
2025-03-27T0800,1746A,118.8788,42.2554,赤峰市,天义路,,35,32,186,24,46,68,,70,70,14,12,8,7,0.3,0.3
2025-03-27T0800,3058A,119.2658,42.0353,赤峰市,银河街,,32,28,208,22,37,66,,69,69,16,13,18,14,0.3,0.4
2025-03-27T0800,3286A,118.9359,42.3147,赤峰市,桥北物流园区,,45,,165,31,36,72,,75,75,12,9,11,7,0.7,0.6
2025-03-27T0800,2521A,107.3476,22.4136,崇左市,市环保局江州分局,细颗粒物(PM2.5),78,77,73,57,44,46,,58,58,15,13,11,11,0.7,0.7
2025-03-27T0800,4256A,107.3750,22.3736,崇左市,石景林东路7号,细颗粒物(PM2.5),72,66,67,52,45,43,,62,62,24,17,8,12,0.7,0.6
2025-03-27T0800,2298A,118.3093,32.3153,滁州市,老年大学,颗粒物(PM10),84,118,81,50,50,123,,123,123,19,19,8,11,0.7,0.8
2025-03-27T0800,2299A,118.3244,32.2786,滁州市,人大宾馆,颗粒物(PM10),83,116,84,44,58,117,,119,119,23,31,9,14,0.6,0.8
2025-03-27T0800,3207A,118.3118,32.3038,滁州市,市政府原办公楼,颗粒物(PM10),80,110,75,52,52,121,,128,128,15,13,8,10,0.5,0.6
2025-03-27T0800,3331A,118.3267,32.2634,滁州市,图书馆,颗粒物(PM10),91,131,80,59,48,115,,117,117,20,22,9,14,0.6,0.8
2025-03-27T0800,2605A,101.5482,25.0441,楚雄彝族自治州,州环境监测站,,39,,23,27,19,47,,71,71,34,14,11,8,0.6,0.5
2025-03-27T0800,2606A,101.538,25.0492,楚雄彝族自治州,市经济开发区,,34,34,28,22,18,46,,77,77,30,14,8,7,0.5,0.5
2025-03-27T0800,2548A,107.5277,31.2827,达州市,达州职业技术学院,颗粒物(PM10),59,67,68,32,34,26,,34,34,34,39,10,12,0.2,0.2
2025-03-27T0800,2549A,107.5086,31.2186,达州市,市环境监测站,颗粒物(PM10),74,98,66,34,32,52,,70,70,49,48,13,12,0.7,0.8
2025-03-27T0800,2550A,107.4988,31.2132,达州市,凤凰小区,,,,70,34,37,48,,64,64,50,53,15,16,0.6,0.8
2025-03-27T0800,2551A,107.5082,31.1986,达州市,达县机关宾馆,颗粒物(PM10),85,119,88,36,41,10,,21,21,90,68,16,13,1.7,1.3
2025-03-27T0800,2552A,107.4644,31.2124,达州市,市政中心,颗粒物(PM10),63,75,76,29,36,45,,44,44,48,58,13,11,0.7,1
2025-03-27T0800,2614A,100.1542,25.7054,大理白族自治州,大理市环境监测站,,33,,21,23,20,95,,104,104,9,7,7,7,0.5,0.5
2025-03-27T0800,2615A,100.2171,25.5811,大理白族自治州,大理古城,,,25,24,16,14,57,,84,84,,8,7,7,0.5,0.4
2025-03-27T0800,1109A,121.612,38.9741,大连市,甘井子,颗粒物(PM10),69,87,123,10,53,84,,78,78,19,26,6,6,0.3,0.6
2025-03-27T0800,1110A,121.565,38.9511,大连市,周水子,颗粒物(PM10),62,73,128,11,61,71,,61,61,20,29,8,7,0.4,0.5
2025-03-27T0800,1111A,121.5637,38.8845,大连市,星海三站,颗粒物(PM10),58,65,125,11,53,69,,75,75,13,13,10,8,0.5,0.8
2025-03-27T0800,1112A,121.6302,38.9117,大连市,青泥洼桥,,36,36,122,9,52,78,,74,74,8,14,10,9,0.4,0.8
2025-03-27T0800,1113A,121.6251,38.8638,大连市,傅家庄,颗粒物(PM10),52,54,119,9,86,74,,74,74,14,18,11,9,0.3,0.6
2025-03-27T0800,1114A,121.5213,38.8661,大连市,七贤岭,颗粒物(PM10),61,71,144,11,52,73,,78,78,13,19,8,7,0.4,0.5
2025-03-27T0800,1115A,121.2529,38.8061,大连市,旅顺,,44,44,125,13,59,76,,69,69,8,17,9,8,0.5,0.7
2025-03-27T0800,1116A,121.7485,39.1311,大连市,金州,颗粒物(PM10),58,66,126,12,47,79,,76,76,15,20,10,8,0.7,1
2025-03-27T0800,1117A,121.7811,39.0496,大连市,开发区,颗粒物(PM10),58,66,115,8,45,74,,74,74,16,20,7,7,0.7,1
2025-03-27T0800,1118A,121.9762,39.0631,大连市,双D港,颗粒物(PM10),61,72,127,8,49,89,,87,87,16,21,6,7,0.6,0.9
2025-03-27T0800,1789A,124.81117,46.03138,大庆市,大同区,,21,14,72,11,64,65,,68,68,5,17,5,5,0.3,0.5
2025-03-27T0800,1790A,125.129,46.533,大庆市,龙凤区,,24,24,44,7,26,63,,68,68,10,12,7,6,0.3,0.4
2025-03-27T0800,1791A,124.902,46.408,大庆市,红岗区,,33,23,39,23,35,68,,72,72,7,9,4,5,0.4,0.5
2025-03-27T0800,1792A,125.153,46.586,大庆市,萨尔图区,,20,13,39,8,25,63,,66,66,9,11,7,7,0.3,0.3
2025-03-27T0800,1793A,124.9042,46.6215,大庆市,让胡路区,,23,16,37,16,30,63,,63,63,7,13,7,8,0.2,0.3
2025-03-27T0800,3481A,125.141,46.634,大庆市,萨区政府监测点,,22,19,38,3,15,69,,72,72,4,8,4,5,0.3,0.4
2025-03-27T0800,1721A,113.3819,40.1097,大同市,果树场,颗粒物(PM10),61,71,156,16,41,72,,76,76,11,12,10,11,0.6,0.7
2025-03-27T0800,1723A,113.2994,40.0758,大同市,云冈宾馆,颗粒物(PM10),67,84,170,7,32,83,,88,88,6,9,7,9,0.5,0.5
2025-03-27T0800,1724A,113.3444,40.0917,大同市,大同大学,颗粒物(PM10),65,80,174,26,40,81,,83,83,4,7,13,15,0.3,0.4
2025-03-27T0800,1725A,113.2661,40.1269,大同市,安家小村,颗粒物(PM10),104,157,211,27,39,79,,83,83,2,6,8,10,0.2,0.4
2025-03-27T0800,1726A,113.2711,40.0844,大同市,教育学院,颗粒物(PM10),64,77,184,20,44,80,,87,87,9,11,6,8,0.3,0.3
2025-03-27T0800,3282A,113.3397,40.0597,大同市,大同市卫生学校,颗粒物(PM10),64,77,172,22,42,79,,82,82,7,13,5,8,0.3,0.4
2025-03-27T0800,3565A,113.1367,40.1122,大同市,云冈站,,,72,187,20,43,,,,,7,10,8,10,0.3,0.3
2025-03-27T0800,3566A,113.1186,40.2556,大同市,图书馆,颗粒物(PM10),66,81,188,22,45,76,,77,77,3,5,7,7,0.7,0.7
2025-03-27T0800,3567A,113.5931,40.0461,大同市,区一中,颗粒物(PM10),61,72,184,13,22,77,,80,80,6,10,20,18,0.2,0.2
2025-03-27T0800,4199A,113.2798,40.0997,大同市,魏都大道141号,颗粒物(PM10),65,80,191,15,41,81,,86,86,8,10,10,12,0.4,0.4
2025-03-27T0800,2269A,124.1069,50.4097,大兴安岭地区,科技局,,26,,20,18,16,67,,74,74,7,6,6,6,0.3,0.3
2025-03-27T0800,3663A,124.1164,50.4278,大兴安岭地区,红旗社区,,24,7,8,3,5,75,,74,74,4,5,4,5,0.3,0.3
2025-03-27T0800,1600A,124.3303,40.0625,丹东市,江湾东路,颗粒物(PM10),57,64,107,12,38,81,,72,72,14,22,10,11,0.5,0.8
2025-03-27T0800,1601A,124.4256,40.1503,丹东市,临江后街,,42,42,103,7,37,75,,62,62,15,19,9,11,0.7,1
2025-03-27T0800,1602A,124.3933,40.1461,丹东市,元宝山,,45,45,96,17,38,70,,59,59,14,21,8,9,0.3,0.5
2025-03-27T0800,1603A,124.3633,40.1092,丹东市,民主桥,颗粒物(PM10),62,73,110,10,33,69,,70,70,21,21,10,11,0.7,0.9
2025-03-27T0800,3541A,109.5726,19.5167,儋州市,第一中学子站,细颗粒物(PM2.5),60,68,47,43,27,26,,47,47,17,9,4,5,0.9,0.7
2025-03-27T0800,3542A,109.5567,19.5187,儋州市,东坡学校子站,细颗粒物(PM2.5),52,47,47,36,27,11,,37,37,18,10,4,6,0.9,0.7
2025-03-27T0800,2616A,98.5842,24.428,德宏傣族景颇族自治州,德宏州监测站,细颗粒物(PM2.5),75,61,58,55,42,23,,37,37,45,28,11,9,0.7,0.7
2025-03-27T0800,3677A,98.5881,24.4368,德宏傣族景颇族自治州,芒市人民政府综合楼,细颗粒物(PM2.5),73,82,69,53,41,55,,72,72,18,16,8,9,0.6,0.5
2025-03-27T0800,1901A,104.4239,31.1208,德阳市,东山公园,颗粒物(PM10),145,239,75,87,45,86,,105,105,12,18,4,7,0.4,0.6
2025-03-27T0800,1902A,104.3826,31.1317,德阳市,西小区,颗粒物(PM10),128,206,87,79,55,82,,67,67,16,33,5,14,0.4,0.7
2025-03-27T0800,1904A,104.3553,31.1091,德阳市,耐火材料厂,颗粒物(PM10),157,264,93,80,56,75,,56,56,24,37,6,14,0.4,0.6
2025-03-27T0800,3639A,104.4019,31.1244,德阳市,市教育局,颗粒物(PM10),111,172,77,81,55,79,,64,64,18,35,5,11,0.5,0.7
2025-03-27T0800,1622A,116.3032,37.4674,德州市,儿童乐园,颗粒物(PM10),152,254,174,61,53,55,,43,43,24,45,6,8,0.6,0.9
2025-03-27T0800,1624A,116.2991,37.4451,德州市,监理站,颗粒物(PM10),164,278,187,39,53,59,,54,54,18,30,10,16,0.3,0.5
2025-03-27T0800,3066A,116.2721,37.4379,德州市,九衢泉纯净水厂,颗粒物(PM10),146,241,171,36,50,62,,57,57,17,34,10,12,0.3,0.6
2025-03-27T0800,3371A,116.3728,37.4403,德州市,开发区人民医院,颗粒物(PM10),158,266,177,41,46,49,,46,46,28,35,6,8,0.4,0.6
2025-03-27T0800,3372A,116.3572,37.4094,德州市,太阳城中学,颗粒物(PM10),168,285,188,46,49,60,,57,57,24,35,6,9,0.3,0.6
2025-03-27T0800,3511A,116.5652,37.3319,德州市,陵城艺术中心,颗粒物(PM10),164,278,188,34,48,61,,44,44,14,32,9,11,0.4,0.7
2025-03-27T0800,2621A,99.7056,27.8317,迪庆藏族自治州,迪庆州站,,34,34,26,16,14,39,,55,55,17,11,8,8,0.6,0.5
2025-03-27T0800,3180A,99.7136,27.8094,迪庆藏族自治州,质量技术监督局,,36,27,43,25,13,42,,65,65,23,13,8,9,0.7,0.5
2025-03-27T0800,4257A,104.6092,35.5962,定西市,将台街,颗粒物(PM10),106,162,354,41,78,85,,91,91,6,6,5,6,0.7,0.5
2025-03-27T0800,4309A,104.6159,35.5701,定西市,正龙路62号,颗粒物(PM10),104,158,380,53,91,87,,95,95,4,4,8,8,0.3,0.3
2025-03-27T0800,1389A,113.7547,23.0494,东莞市,莞城梨川,,32,32,32,18,16,55,,64,64,16,12,4,4,0.3,0.3
2025-03-27T0800,1390A,113.7944,23.0128,东莞市,东城石井,,31,31,30,14,13,36,,61,61,22,13,5,5,0.5,0.5
2025-03-27T0800,1391A,113.7383,22.9658,东莞市,南城西平,,26,26,26,12,11,66,,70,70,9,10,5,5,0.6,0.6
2025-03-27T0800,3319A,113.7338,23.0381,东莞市,万江金泰,,28,28,29,11,13,59,,70,70,14,7,13,16,0.7,0.7
2025-03-27T0800,3626A,113.7533,23.0202,东莞市,南城元岭,,33,33,29,16,13,40,,58,58,23,9,5,5,0.6,0.6
2025-03-27T0800,3627A,113.7875,23.0457,东莞市,东城主山,,32,32,37,13,13,40,,63,63,32,16,7,7,0.5,0.5
2025-03-27T0800,1666A,118.6614,37.4309,东营市,市环保局,颗粒物(PM10),124,197,176,27,34,73,,67,67,17,24,3,7,0.5,0.6
2025-03-27T0800,3036A,118.6904,37.4338,东营市,开发区管委会,颗粒物(PM10),147,243,202,39,40,67,,64,64,18,28,3,6,0.5,0.7
2025-03-27T0800,3365A,118.5719,37.565,东营市,垦利区民丰路,颗粒物(PM10),112,173,177,29,36,75,,64,64,8,20,3,4,0.9,0.9
2025-03-27T0800,3498A,118.5055,37.8612,东营市,河口城区,颗粒物(PM10),115,180,200,20,35,82,,74,74,14,23,4,6,0.6,0.7
2025-03-27T0800,3646A,118.4978,37.4623,东营市,胜利站,颗粒物(PM10),137,223,179,31,35,78,,66,66,14,25,8,10,0.8,1
2025-03-27T0800,3734A,118.35,37.26,东营市,理想之城,颗粒物(PM10),117,183,175,29,42,72,,66,66,16,24,4,7,0.3,0.5
2025-03-27T0800,1591A,110.0023,39.8129,鄂尔多斯市,综合楼,颗粒物(PM10),213,359,408,63,73,76,,79,79,9,9,5,5,0.4,0.3
2025-03-27T0800,1592A,109.9486,39.8261,鄂尔多斯市,巴音孟克林场办事处,颗粒物(PM10),191,332,377,70,77,76,,82,82,8,7,5,6,0.4,0.3
2025-03-27T0800,1593A,109.7736,39.5986,鄂尔多斯市,康泽苑,颗粒物(PM10),192,334,460,78,94,75,,80,80,5,4,2,3,0.3,0.2
2025-03-27T0800,1594A,109.8119,39.5989,鄂尔多斯市,华泰汽车城,颗粒物(PM10),198,346,453,83,102,75,,81,81,8,6,3,3,0.4,0.3
2025-03-27T0800,1595A,109.9734,39.7884,鄂尔多斯市,奥林花园,颗粒物(PM10),258,390,414,78,67,72,,82,82,14,9,4,5,0.4,0.4
2025-03-27T0800,2436A,114.8938,30.3994,鄂州市,市政府,细颗粒物(PM2.5),93,115,86,69,57,70,,97,97,19,18,6,9,1.2,1.3
2025-03-27T0800,2437A,114.8989,30.3714,鄂州市,赵家坝,细颗粒物(PM2.5),89,95,82,66,47,61,,77,77,20,13,4,7,0.9,1.2
2025-03-27T0800,3654A,114.8094,30.4089,鄂州市,精准医疗中心,细颗粒物(PM2.5),95,113,94,71,56,97,,109,109,14,23,4,14,0.7,1.1
2025-03-27T0800,2454A,109.4978,30.2981,恩施土家族苗族自治州,湖北民院,细颗粒物(PM2.5),80,63,66,59,54,34,,43,43,20,23,2,2,0.6,0.5
2025-03-27T0800,2455A,109.4707,30.2798,恩施土家族苗族自治州,州电力总公司,细颗粒物(PM2.5),74,68,67,54,52,7,,12,12,33,34,4,7,0.3,0.2
2025-03-27T0800,3549A,109.5061,30.3772,恩施土家族苗族自治州,龙凤新区,细颗粒物(PM2.5),60,55,60,43,45,3,,26,26,18,18,6,6,0.7,0.6
2025-03-27T0800,2499A,108.3411,21.6158,防城港市,沙万,颗粒物(PM10),52,54,42,25,16,31,,45,45,27,15,14,8,0.3,0.3
2025-03-27T0800,2500A,108.3514,21.7731,防城港市,防城档案局,,45,45,36,15,15,49,,48,48,12,9,6,4,0.2,0.2
2025-03-27T0800,2501A,108.3506,21.6414,防城港市,大海花园,,41,41,33,17,12,50,,60,60,12,6,11,5,0.7,0.6
2025-03-27T0800,1371A,113.1294,23.0067,佛山市,湾梁,,31,31,44,15,17,38,,49,49,33,22,8,7,0.5,0.5
2025-03-27T0800,1372A,113.1083,23.0478,佛山市,华材职中,,27,27,39,16,23,44,,60,60,28,19,6,6,0.4,0.4
2025-03-27T0800,1373A,113.144,23.0453,佛山市,南海气象局,,27,27,47,17,22,24,,39,39,36,21,6,6,0.6,0.5
2025-03-27T0800,1374A,113.2881,22.8094,佛山市,顺德苏岗,,40,40,43,19,13,12,,40,40,40,15,6,6,0.6,0.6
2025-03-27T0800,1376A,112.8383,22.8678,佛山市,高明孔堂,,28,28,35,18,20,34,,46,46,11,7,5,5,0.4,0.3
2025-03-27T0800,1377A,112.8836,23.1588,佛山市,三水监测站,,46,46,42,21,29,21,,26,26,45,33,3,3,0.6,0.5
2025-03-27T0800,1378A,112.867,23.185,佛山市,三水云东海,,41,41,47,21,24,39,,40,40,33,29,2,2,0.5,0.5
2025-03-27T0800,3625A,113.2544,22.7642,佛山市,容桂街道办,,27,27,30,17,17,30,,47,47,33,18,7,7,0.7,0.6
2025-03-27T0800,1280A,119.3903,26.0543,福州市,鼓山,,,,59,,31,,,162,,,11,,2,,0.5
2025-03-27T0800,1282A,119.2681,26.0504,福州市,师大,细颗粒物(PM2.5),68,76,66,49,35,24,,43,43,39,22,4,5,0.4,0.3
2025-03-27T0800,1283A,119.2984,26.1028,福州市,五四北路,,,59,61,34,38,,,46,46,43,29,,5,0.5,0.5
2025-03-27T0800,1284A,119.2648,26.0768,福州市,杨桥西路,细颗粒物(PM2.5),64,74,73,46,41,25,,40,40,38,27,4,5,0.5,0.4
2025-03-27T0800,1285A,119.317,26.0746,福州市,紫阳,,49,43,68,34,35,42,,52,52,26,35,4,5,0.2,0.3
2025-03-27T0800,3048A,119.5799,26.0936,福州市,九龙,,43,39,53,30,31,53,,60,60,14,14,4,5,0.3,0.3
2025-03-27T0800,3526A,119.5189,25.9664,福州市,吴航,,40,40,46,26,27,56,,58,58,10,13,3,5,0.4,0.4
2025-03-27T0800,1755A,123.7977,41.8491,抚顺市,望花区,细颗粒物(PM2.5),62,71,153,44,84,70,,74,74,17,42,9,18,0.6,1.3
2025-03-27T0800,1756A,123.9161,41.8822,抚顺市,顺城区,细颗粒物(PM2.5),59,62,157,42,92,69,,73,73,20,51,6,13,0.6,1.4
2025-03-27T0800,1757A,124.0436,41.8611,抚顺市,东洲区,细颗粒物(PM2.5),67,66,175,48,104,67,,67,67,16,41,5,10,0.7,1.3
2025-03-27T0800,1758A,123.9247,41.8642,抚顺市,新抚区,细颗粒物(PM2.5),68,64,164,49,105,62,,69,69,20,50,5,11,0.6,1.3
2025-03-27T0800,1759A,124.0972,41.8961,抚顺市,大伙房水库,细颗粒物(PM2.5),69,64,160,50,114,66,,67,67,15,40,6,10,0.7,1.4
2025-03-27T0800,1760A,123.7086,41.8391,抚顺市,沈抚新城,细颗粒物(PM2.5),60,58,134,43,79,71,,74,74,14,40,7,15,0.8,1.3
2025-03-27T0800,2376A,116.2127,28.0814,抚州市,桐源党溪,细颗粒物(PM2.5),62,61,72,44,44,55,,94,94,16,5,34,6,0.6,0.5
2025-03-27T0800,2377A,116.3544,27.9831,抚州市,市站,颗粒物(PM10),57,63,72,37,40,67,,84,84,24,13,4,7,1.2,1.1
2025-03-27T0800,2378A,116.3565,27.963,抚州市,血防站,颗粒物(PM10),55,60,72,38,42,68,,94,94,25,12,32,18,1.1,1.3
2025-03-27T0800,2379A,116.3564,28.0007,抚州市,采茶剧团,细颗粒物(PM2.5),57,59,71,40,42,55,,74,74,15,8,2,6,1.1,0.9
2025-03-27T0800,2380A,116.385,27.9647,抚州市,医学分院,颗粒物(PM10),56,62,76,34,39,59,,71,71,18,14,3,5,1.2,1
2025-03-27T0800,2207A,121.6094,41.998,阜新市,工业园区,,49,43,104,34,63,72,,82,82,14,25,6,11,0.4,0.6
2025-03-27T0800,2208A,121.6697,42.0279,阜新市,长青街,,40,39,98,28,58,73,,83,83,10,22,5,11,0.5,0.6
2025-03-27T0800,2209A,121.6673,42.0705,阜新市,农业园区,,42,33,97,29,53,73,,82,82,7,16,6,11,0.6,0.6
2025-03-27T0800,2210A,121.6717,42.0224,阜新市,东苑,,42,31,104,29,61,74,,83,83,8,24,5,13,0.5,0.6
2025-03-27T0800,2211A,121.6506,42.0498,阜新市,玉龙新城,,42,42,106,29,60,71,,80,80,12,26,6,16,0.5,0.6
2025-03-27T0800,2301A,115.8277,32.8929,阜阳市,市监测站,颗粒物(PM10),101,152,105,58,56,50,,75,75,28,21,10,10,0.4,0.5
2025-03-27T0800,2303A,115.8554,32.8605,阜阳市,开发区,颗粒物(PM10),127,204,125,66,53,53,,75,75,25,17,8,8,0.6,0.6
2025-03-27T0800,2875A,115.784,32.8892,阜阳市,阜阳职业技术学院,颗粒物(PM10),105,159,113,62,55,53,,76,76,23,19,9,9,0.6,0.6
2025-03-27T0800,3468A,115.7901,32.8613,阜阳市,市规划展馆,颗粒物(PM10),108,166,112,52,62,56,,82,82,21,15,10,10,0.6,0.6
2025-03-27T0800,3469A,115.836,32.9183,阜阳市,枣园社区,颗粒物(PM10),105,160,120,54,65,54,,79,79,22,13,11,10,0.6,0.6
2025-03-27T0800,2669A,102.9099,34.9841,甘南藏族自治州,州政府,颗粒物(PM10),175,300,272,61,79,54,,65,65,10,9,8,10,0.4,0.4
2025-03-27T0800,3380A,102.8914,34.9617,甘南藏族自治州,甘肃民族师范学院,颗粒物(PM10),183,315,307,73,86,63,,72,72,6,7,7,8,0.3,0.3
2025-03-27T0800,2570A,101.9603,30.0475,甘孜藏族自治州,水桥子,颗粒物(PM10),55,60,47,20,12,26,,32,32,32,35,4,4,0.8,0.8
2025-03-27T0800,3065A,101.9533,29.9972,甘孜藏族自治州,州环保局,,39,39,30,3,7,72,,77,77,11,14,5,5,0.4,0.4
2025-03-27T0800,3414A,115.8347,28.932,赣江新区,桑海产业园,,44,44,82,28,48,70,,87,87,23,24,9,13,0.6,0.6
2025-03-27T0800,2362A,114.9017,25.9149,赣州市,通天岩,,47,47,56,12,11,103,,144,144,8,5,10,11,1.0,1
2025-03-27T0800,2363A,114.9367,25.8664,赣州市,地委,,50,50,56,30,35,78,,109,109,14,12,5,4,1.2,1.3
2025-03-27T0800,2364A,114.9461,25.8481,赣州市,气象台,,48,48,58,24,30,87,,121,121,18,15,13,11,0.5,0.5
2025-03-27T0800,2365A,114.9322,25.8333,赣州市,市图书馆,,48,39,53,33,36,79,,115,115,16,14,6,6,0.8,0.9
2025-03-27T0800,2366A,114.8905,25.8471,赣州市,华坚鞋城,,48,48,57,29,32,82,,116,116,19,17,13,11,0.8,0.8
2025-03-27T0800,3109A,115.0093,25.8613,赣州市,赣县区卫计委,,47,47,59,30,35,74,,115,115,18,9,5,6,0.5,0.6
2025-03-27T0800,2683A,106.2319,36.1417,固原市,马园,颗粒物(PM10),102,154,376,29,71,77,,79,79,6,7,4,4,0.6,0.5
2025-03-27T0800,2684A,106.2792,36.0022,固原市,监测站,颗粒物(PM10),97,144,324,28,75,84,,86,86,3,3,6,5,0.5,0.4
2025-03-27T0800,2685A,106.2375,36.0211,固原市,新区,颗粒物(PM10),94,138,313,28,84,82,,85,85,5,4,6,6,0.3,0.2
2025-03-27T0800,3522A,106.2177,35.9959,固原市,原州区十五小,颗粒物(PM10),100,149,334,32,76,79,,82,82,5,5,6,6,0.2,0.2
2025-03-27T0800,2543A,106.6308,30.5278,广安市,小平旧居,,,,,,,,,,,,,,,,
2025-03-27T0800,2544A,106.6303,30.4576,广安市,市委,细颗粒物(PM2.5),72,91,70,52,46,46,,86,86,49,27,18,12,0.8,0.6
2025-03-27T0800,2545A,106.6271,30.4663,广安市,友谊中学,颗粒物(PM10),73,95,74,50,42,40,,94,94,52,30,10,7,1.0,0.7
2025-03-27T0800,2547A,106.6388,30.4551,广安市,广电花园,细颗粒物(PM2.5),83,108,72,61,49,21,,83,83,64,37,15,10,1.0,0.7
2025-03-27T0800,2902A,106.6351,30.4865,广安市,北辰小学,颗粒物(PM10),68,85,66,43,42,52,,87,87,39,20,9,10,0.7,0.4
2025-03-27T0800,2523A,105.8945,32.4535,广元市,黑石坡,颗粒物(PM10),485,585,193,106,48,79,,89,89,1,15,1,7,0.2,0.5
2025-03-27T0800,2524A,105.821,32.4444,广元市,老城,颗粒物(PM10),399,499,172,135,63,84,,86,86,5,37,1,11,0.3,0.8
2025-03-27T0800,2526A,105.8628,32.4287,广元市,监测站,颗粒物(PM10),322,437,142,95,48,86,,92,92,4,20,5,18,0.2,0.5
2025-03-27T0800,3617A,105.8047,32.4166,广元市,经开区,颗粒物(PM10),453,553,178,131,66,74,,73,73,14,38,2,15,0.3,0.8
2025-03-27T0800,1345A,113.2347,23.1423,广州市,广雅中学,,27,27,36,18,19,36,,54,54,30,24,4,4,0.4,0.4
2025-03-27T0800,1346A,113.2612,23.105,广州市,市五中,,31,31,44,15,19,27,,44,44,31,23,2,3,0.5,0.5
2025-03-27T0800,1348A,113.3478,23.0916,广州市,广东商学院,,34,34,39,17,21,14,,20,20,44,30,4,4,0.7,0.6
2025-03-27T0800,1349A,113.4332,23.1047,广州市,市八十六中,,31,31,33,10,12,28,,26,26,42,40,3,4,0.6,0.5
2025-03-27T0800,1350A,113.3505,22.9483,广州市,番禺中学,,30,30,40,17,20,33,,37,37,33,25,4,5,0.4,0.4
2025-03-27T0800,1351A,113.2146,23.3916,广州市,花都师范,,45,45,53,20,23,20,,34,34,34,23,4,4,0.4,0.4
2025-03-27T0800,1352A,113.2597,23.1331,广州市,市监测站,,38,38,40,18,17,27,,44,44,34,23,5,6,0.6,0.5
2025-03-27T0800,1353A,113.5618,23.312,广州市,九龙镇镇龙,,46,46,46,25,23,29,,44,44,33,28,5,6,0.4,0.4
2025-03-27T0800,1354A,113.2765,23.1544,广州市,麓湖,,34,34,38,16,17,33,,43,43,28,23,3,4,0.4,0.5
2025-03-27T0800,1355A,113.443,23.3035,广州市,帽峰山森林公园,,33,,36,23,20,30,,40,40,19,22,5,6,0.6,0.6
2025-03-27T0800,2846A,113.3221,23.1322,广州市,体育西,,40,40,46,23,24,28,,31,31,29,21,4,4,0.4,0.4
2025-03-27T0800,3298A,113.5717,23.5491,广州市,从化街口,,36,36,49,17,23,59,,62,62,16,19,8,8,0.6,0.6
2025-03-27T0800,3299A,113.3472,23.3692,广州市,白云竹料,,44,44,54,22,24,41,,47,47,33,28,7,7,0.5,0.4
2025-03-27T0800,3300A,113.2981,23.237,广州市,白云嘉禾,,35,35,45,20,22,23,,20,20,41,34,4,4,0.1,0.2
2025-03-27T0800,3301A,113.4256,23.1716,广州市,黄埔科学城,,38,38,45,15,17,35,,38,38,34,30,8,8,0.4,0.4
2025-03-27T0800,3302A,113.3942,23.0483,广州市,番禺大学城,,46,46,59,15,15,19,,33,33,45,28,11,10,0.4,0.3
2025-03-27T0800,3303A,113.4922,22.8168,广州市,南沙黄阁,,27,27,35,17,15,40,,44,44,20,18,5,5,0.6,0.6
2025-03-27T0800,3304A,113.5342,22.7896,广州市,南沙街,,26,26,31,15,13,36,,38,38,24,18,4,4,0.6,0.5
2025-03-27T0800,3443A,113.2902,23.5544,广州市,花都梯面,,42,42,61,19,23,37,,40,40,24,23,5,5,0.6,0.6
2025-03-27T0800,3445A,113.7858,23.7478,广州市,从化良口,,30,30,43,17,29,25,,33,33,14,16,7,7,0.6,0.6
2025-03-27T0800,3446A,113.8051,23.2614,广州市,增城荔城,,50,50,46,25,21,32,,47,47,28,20,10,7,0.3,0.3
2025-03-27T0800,2505A,109.568,23.1478,贵港市,德智高中,,,,,,,,,,,,,,,,
2025-03-27T0800,2506A,109.6047,23.0666,贵港市,江南子站,颗粒物(PM10),54,58,56,30,30,45,,58,58,22,14,4,5,0.7,0.7
2025-03-27T0800,2507A,109.6014,23.0948,贵港市,贵城子站,颗粒物(PM10),62,74,55,34,29,52,,58,58,16,13,6,6,0.8,0.8
2025-03-27T0800,2508A,109.5669,23.1065,贵港市,荷城子站,,48,48,51,24,23,53,,55,55,14,14,4,5,0.3,0.3
2025-03-27T0800,3405A,109.5886,23.1172,贵港市,新世纪学校,,46,46,52,30,29,55,,61,61,15,12,6,6,0.6,0.6
2025-03-27T0800,1439A,106.6899,26.5998,贵阳市,马鞍山,细颗粒物(PM2.5),70,63,50,51,32,29,,38,38,10,15,4,5,0.7,0.5
2025-03-27T0800,1441A,106.6243,26.6266,贵阳市,鉴湖路,细颗粒物(PM2.5),70,85,78,51,39,90,,98,98,13,10,12,9,0.6,0.5
2025-03-27T0800,1442A,106.7487,26.6343,贵阳市,燕子冲,,,68,64,48,44,,,108,108,37,18,7,9,0.9,0.6
2025-03-27T0800,1443A,106.6555,26.4365,贵阳市,碧云窝,细颗粒物(PM2.5),77,83,80,56,46,107,,115,115,13,12,14,11,0.6,0.5
2025-03-27T0800,1445A,106.7109,26.6027,贵阳市,红边门,细颗粒物(PM2.5),79,80,83,58,50,58,,82,82,45,41,13,11,0.9,0.8
2025-03-27T0800,1446A,106.7164,26.5699,贵阳市,新华路,细颗粒物(PM2.5),79,92,73,58,43,16,,76,76,62,30,19,35,1.0,0.7
2025-03-27T0800,1447A,106.674,26.5424,贵阳市,太慈桥,细颗粒物(PM2.5),85,83,69,63,40,33,,71,71,35,23,7,8,0.8,0.6
2025-03-27T0800,1552A,106.805,26.3003,贵阳市,桐木岭,细颗粒物(PM2.5),74,74,77,54,47,94,,100,100,8,6,15,22,0.7,0.6
2025-03-27T0800,4230A,106.6882,26.5695,贵阳市,花果园大街66号,细颗粒物(PM2.5),77,66,64,56,45,107,,109,109,16,22,13,9,0.4,0.4
2025-03-27T0800,4231A,106.6873,26.5169,贵阳市,漓江路57号,细颗粒物(PM2.5),70,73,69,51,39,84,,100,100,26,18,17,15,0.6,0.5
2025-03-27T0800,1862A,110.4144,25.3167,桂林市,电子科大尧山校区,,,,,,,,,,,,,,,,
2025-03-27T0800,1864A,110.3089,25.2708,桂林市,龙隐路小学,细颗粒物(PM2.5),87,72,72,64,51,40,,52,52,30,15,12,10,0.7,0.6
2025-03-27T0800,1865A,110.2869,25.2178,桂林市,八中,细颗粒物(PM2.5),84,101,81,62,52,38,,44,44,46,26,13,10,0.9,0.8
2025-03-27T0800,3531A,110.296,25.1253,桂林市,旅游学院,细颗粒物(PM2.5),70,66,65,51,44,48,,65,65,24,16,15,12,0.5,0.5
2025-03-27T0800,4222A,110.1835,25.2444,桂林市,环湖路276号,细颗粒物(PM2.5),67,73,70,48,42,38,,74,74,45,22,8,7,0.6,0.5
2025-03-27T0800,4301A,110.2803,25.2773,桂林市,信义路13号,细颗粒物(PM2.5),89,81,69,66,41,41,,73,73,34,16,14,12,1.0,0.8
2025-03-27T0800,2674A,100.2561,34.4714,果洛藏族自治州,玛沁县大武镇,颗粒物(PM10),367,473,148,98,33,98,,98,98,1,3,5,10,0.3,0.4
2025-03-27T0800,1129A,126.5422,45.755,哈尔滨市,岭北,,28,10,58,10,50,89,,74,74,7,24,20,21,1.0,1.1
2025-03-27T0800,1130A,126.561,45.8167,哈尔滨市,松北商大,,28,,50,19,46,74,,63,63,9,22,6,6,0.5,0.6
2025-03-27T0800,1131A,126.979,45.5419,哈尔滨市,阿城会宁,,26,21,52,18,46,67,,50,50,12,11,2,2,0.7,0.7
2025-03-27T0800,1132A,126.599,45.7222,哈尔滨市,南岗学府路,,23,23,64,9,39,68,,52,52,13,25,7,7,0.6,0.7
2025-03-27T0800,1133A,126.689,45.7733,哈尔滨市,太平宏伟公园,,26,,56,18,54,69,,53,53,10,28,4,6,0.9,1
2025-03-27T0800,1134A,126.635,45.7667,哈尔滨市,道外承德广场,,25,24,80,17,53,67,,51,51,12,31,5,6,0.4,0.6
2025-03-27T0800,1135A,126.685,45.7319,哈尔滨市,香坊红旗大街,,21,12,62,8,49,66,,48,48,12,29,11,13,0.5,0.7
2025-03-27T0800,1136A,126.6411,45.7258,哈尔滨市,动力和平路,,22,15,60,15,53,66,,50,50,11,26,14,12,0.4,0.6
2025-03-27T0800,1137A,126.593,45.7478,哈尔滨市,道里建国路,,22,,55,15,51,66,,53,53,13,26,5,9,0.3,0.7
2025-03-27T0800,1138A,126.615,45.61,哈尔滨市,平房东轻厂,,32,,53,22,46,68,,44,44,9,14,8,8,0.6,0.8
2025-03-27T0800,1139A,126.595,45.9855,哈尔滨市,呼兰师专,,22,12,38,11,37,69,,62,62,10,17,8,9,0.4,0.6
2025-03-27T0800,1140A,126.6206,45.6842,哈尔滨市,省农科院,,28,,60,19,50,66,,47,47,11,31,12,11,0.5,0.7
2025-03-27T0800,2688A,93.5128,42.8172,哈密市,地区监测站,,34,34,198,13,23,47,,59,59,17,7,3,5,0.3,0.2
2025-03-27T0800,2689A,93.4961,42.8328,哈密市,哈密师范学校,颗粒物(PM10),61,71,167,15,33,55,,64,64,16,10,4,4,0.2,0.3
2025-03-27T0800,2671A,100.9048,36.9639,海北藏族自治州,海晏县西海镇,颗粒物(PM10),125,199,231,56,58,81,,84,84,5,4,13,13,0.8,0.6
2025-03-27T0800,3867A,102.0738,36.5056,海东市,平安区公安北苑,颗粒物(PM10),131,211,682,59,196,69,,78,78,11,4,12,8,0.6,0.6
2025-03-27T0800,1409A,110.576,19.9507,海口市,东寨港,,14,14,24,7,16,35,,40,40,5,4,4,3,0.2,0.2
2025-03-27T0800,1410A,110.3232,20.0574,海口市,海南大学,,31,31,39,18,23,48,,48,48,10,13,2,2,0.3,0.4
2025-03-27T0800,1411A,110.283,20.0053,海口市,秀英海南医院,,26,26,42,17,24,41,,42,42,16,19,4,5,0.3,0.4
2025-03-27T0800,1412A,110.338,19.9969,海口市,海南师范大学,,26,25,38,18,21,46,,46,46,10,8,3,4,0.3,0.3
2025-03-27T0800,1413A,110.33,20.0356,海口市,龙华路环保局宿舍,,26,26,35,18,21,48,,50,50,10,10,4,4,0.3,0.3
2025-03-27T0800,3539A,110.5111,19.9736,海口市,桂林洋子站,,36,36,35,20,17,40,,41,41,9,8,3,3,0.2,0.3
2025-03-27T0800,2673A,100.6188,36.2866,海南藏族自治州,共和县恰卜恰镇,颗粒物(PM10),308,426,189,123,52,119,,116,116,2,5,8,12,0.4,0.4
2025-03-27T0800,2676A,97.3731,37.3753,海西蒙古族藏族自治州,德令哈市,颗粒物(PM10),89,128,125,34,27,86,,100,100,17,6,13,11,0.7,0.5
2025-03-27T0800,1048A,114.5302,36.6116,邯郸市,东污水处理厂,颗粒物(PM10),103,156,111,41,34,43,,49,49,34,33,2,5,0.4,0.5
2025-03-27T0800,1049A,114.4918,36.5713,邯郸市,矿院,颗粒物(PM10),149,247,139,46,36,51,,57,57,19,23,3,5,0.4,0.5
2025-03-27T0800,1050A,114.484,36.6133,邯郸市,丛台公园,颗粒物(PM10),121,191,119,43,41,50,,56,56,24,25,6,8,0.4,0.5
2025-03-27T0800,3458A,114.7895,36.5593,邯郸市,香泉濮院小区,颗粒物(PM10),110,169,137,47,37,43,,34,34,23,20,4,5,0.5,0.4
2025-03-27T0800,3579A,114.50634,36.77178,邯郸市,永年区实验高中,颗粒物(PM10),178,306,145,61,43,59,,47,47,18,30,5,8,0.5,0.6
2025-03-27T0800,3580A,114.20016,36.44293,邯郸市,峰峰矿区临水派出所,颗粒物(PM10),124,197,139,51,44,58,,74,74,13,15,14,16,0.9,1
2025-03-27T0800,2634A,106.9893,33.1842,汉中市,汉川机床厂子校,颗粒物(PM10),500,600,239,122,71,86,,96,96,2,5,6,8,0.6,0.5
2025-03-27T0800,2635A,107.0154,33.0706,汉中市,市监测站,颗粒物(PM10),463,563,202,115,59,73,,82,82,13,22,5,7,0.5,0.8
2025-03-27T0800,2636A,107.0089,33.1138,汉中市,鑫源开发区,颗粒物(PM10),480,580,224,135,69,81,,89,89,10,22,4,8,0.4,0.7
2025-03-27T0800,2637A,107.007,33.0323,汉中市,南郑大河坎水厂,颗粒物(PM10),500,607,193,132,63,82,,78,78,10,22,6,8,0.5,0.6
2025-03-27T0800,1223A,120.2072,30.2111,杭州市,滨江,,37,29,76,20,45,117,,104,104,16,35,6,8,0.6,0.7
2025-03-27T0800,1224A,120.0633,30.2747,杭州市,西溪,,42,36,73,29,54,95,,85,85,23,24,6,8,0.2,0.3
2025-03-27T0800,1226A,120.3417,30.3150,杭州市,下沙,,47,47,100,24,54,101,,90,90,24,36,4,7,0.5,0.6
2025-03-27T0800,1227A,120.1269,30.2456,杭州市,卧龙桥,,34,30,73,22,48,108,,85,85,12,26,6,7,0.5,0.6
2025-03-27T0800,1228A,120.1903,30.2692,杭州市,浙江农大,,32,27,77,18,47,101,,92,92,19,31,1,3,0.5,0.6
2025-03-27T0800,1230A,120.1197,30.3119,杭州市,和睦小学,,49,,78,34,52,104,,107,107,18,32,6,8,0.6,0.8
2025-03-27T0800,1231A,120.3019,30.4183,杭州市,临平镇,,38,38,86,23,48,108,,103,103,21,39,4,7,0.5,0.6
2025-03-27T0800,1232A,120.2753,30.1839,杭州市,城厢镇,,40,38,85,28,51,105,,98,98,22,35,6,9,0.6,0.7
2025-03-27T0800,1233A,120.0883,30.1808,杭州市,云栖,,32,27,71,21,42,100,,70,70,17,41,8,9,0.6,0.7
2025-03-27T0800,3557A,119.9464,30.0494,杭州市,镇二中,,39,32,76,27,55,74,,74,74,30,38,6,7,0.7,0.7
2025-03-27T0800,3558A,119.7183,30.2367,杭州市,市府大楼,,35,31,73,24,45,111,,104,104,23,31,7,9,0.8,0.8
2025-03-27T0800,3656A,120.1556,30.2864,杭州市,消防大队,,34,32,75,22,49,106,,108,108,24,31,2,3,0.6,0.7
2025-03-27T0800,1270A,117.1959,31.7848,合肥市,明珠广场,细颗粒物(PM2.5),83,97,82,61,53,98,,116,116,19,17,4,7,0.6,0.6
2025-03-27T0800,1271A,117.3072,31.8764,合肥市,三里街,颗粒物(PM10),73,95,83,44,47,109,,109,109,16,24,4,7,0.8,0.7
2025-03-27T0800,1272A,117.2588,31.8707,合肥市,琥珀山庄,颗粒物(PM10),70,90,82,47,59,116,,117,117,17,16,2,4,0.6,0.6
2025-03-27T0800,1273A,117.1604,31.9052,合肥市,董铺水库,颗粒物(PM10),86,121,87,62,47,124,,132,132,6,7,2,3,0.6,0.5
2025-03-27T0800,1274A,117.25,31.8571,合肥市,长江中路,细颗粒物(PM2.5),72,92,86,52,55,118,,124,124,14,15,7,9,0.7,0.7
2025-03-27T0800,1275A,117.266,31.9436,合肥市,庐阳区,颗粒物(PM10),74,97,87,53,50,118,,129,129,19,18,6,10,0.7,0.7
2025-03-27T0800,1276A,117.3453,31.8616,合肥市,瑶海区,细颗粒物(PM2.5),74,92,91,54,50,113,,120,120,18,24,8,9,0.8,0.8
2025-03-27T0800,1277A,117.3027,31.7964,合肥市,包河区,颗粒物(PM10),76,102,82,53,52,100,,108,108,21,13,6,8,0.8,0.8
2025-03-27T0800,1278A,117.2776,31.7385,合肥市,滨湖新区,细颗粒物(PM2.5),94,117,83,70,58,94,,111,111,22,17,5,8,0.8,0.7
2025-03-27T0800,1279A,117.1318,31.8403,合肥市,高新区,细颗粒物(PM2.5),89,102,85,66,52,96,,117,117,16,14,3,6,1.0,0.9
2025-03-27T0800,3464A,117.3803,31.9147,合肥市,高教基地,颗粒物(PM10),70,90,86,45,58,113,,120,120,16,17,3,6,0.5,0.5
2025-03-27T0800,3614A,79.924,37.0877,和田地区,地区环保局,细颗粒物(PM2.5),500,,324,3031,1850,64,,61,61,2,5,1,2,0.8,0.9
2025-03-27T0800,3615A,79.9131,37.113,和田地区,市环保局,细颗粒物(PM2.5),500,,336,2659,1609,74,,71,71,2,7,1,2,0.5,0.5
2025-03-27T0800,2516A,108.2011,24.715,河池市,东仁乐园,细颗粒物(PM2.5),53,53,83,37,54,55,,82,82,26,19,14,12,1.0,0.9
2025-03-27T0800,2517A,108.0497,24.6947,河池市,市环保站,细颗粒物(PM2.5),59,60,75,42,51,55,,78,78,23,15,12,10,0.7,0.8
2025-03-27T0800,2518A,108.0983,24.6989,河池市,市疾控中心,"颗粒物(PM10),细颗粒物(PM2.5)",57,63,80,40,50,46,,77,77,31,20,15,12,0.7,0.8
2025-03-27T0800,1696A,114.6778,23.7569,河源市,源西,,35,32,43,24,26,43,,54,54,18,14,5,5,0.7,0.6
2025-03-27T0800,1697A,114.6944,23.7586,河源市,东埔,,,30,45,30,31,45,,54,54,19,17,5,5,,0.5
2025-03-27T0800,1698A,114.6892,23.7233,河源市,老城,,45,32,44,31,28,43,,54,54,21,16,5,5,0.7,0.6
2025-03-27T0800,1718A,115.4208,35.2464,菏泽市,气象局,颗粒物(PM10),149,247,182,45,70,64,,56,56,18,24,3,9,0.5,0.6
2025-03-27T0800,3374A,115.5564,35.0891,菏泽市,定陶老年大学,颗粒物(PM10),118,185,168,46,60,58,,52,52,24,25,5,7,0.7,0.8
2025-03-27T0800,4184A,115.4797,35.24401,菏泽市,永昌路1号,颗粒物(PM10),183,315,200,35,73,68,,55,55,17,21,5,9,0.3,0.5
2025-03-27T0800,4193A,115.4715,35.2800,菏泽市,长城路999号,颗粒物(PM10),199,348,187,40,66,64,,52,52,20,27,3,9,0.6,0.8
2025-03-27T0800,2514A,111.5264,24.4172,贺州市,环保小区,颗粒物(PM10),59,68,70,32,44,53,,80,80,22,18,17,13,0.8,0.9
2025-03-27T0800,2515A,111.5608,24.4078,贺州市,政协大楼,颗粒物(PM10),52,53,61,35,42,50,,74,74,20,18,13,14,0.6,0.7
2025-03-27T0800,3534A,111.4744,24.4553,贺州市,西湾,颗粒物(PM10),54,58,72,36,49,48,,66,66,26,26,12,11,0.7,0.8
2025-03-27T0800,2385A,114.17,35.9019,鹤壁市,市监测站,颗粒物(PM10),106,161,152,56,51,61,,61,61,25,28,9,14,0.9,1
2025-03-27T0800,2386A,114.2956,35.7511,鹤壁市,市交警支队,颗粒物(PM10),124,198,148,38,44,62,,61,61,16,22,4,10,0,0.4
2025-03-27T0800,2387A,114.2878,35.7306,鹤壁市,迎宾馆,颗粒物(PM10),132,214,181,27,36,63,,63,63,18,23,2,7,0.3,0.6
2025-03-27T0800,3474A,114.2617,35.6822,鹤壁市,大新区,颗粒物(PM10),119,188,155,31,45,64,,64,64,26,26,5,10,0.5,0.8
2025-03-27T0800,3596A,114.1572,35.9603,鹤壁市,南山宾馆,颗粒物(PM10),115,180,186,61,54,68,,60,60,24,31,5,10,0.5,0.8
2025-03-27T0800,2244A,130.2537,47.3416,鹤岗市,哈啤分公司,颗粒物(PM10),53,56,32,17,14,69,,68,68,6,4,15,15,0.6,0.6
2025-03-27T0800,2245A,130.2684,47.3086,鹤岗市,斯达机电,,38,38,25,12,16,74,,72,72,5,3,14,14,0.3,0.3
2025-03-27T0800,2246A,130.3114,47.3388,鹤岗市,东山纸板厂,,34,34,33,20,18,79,,77,77,7,6,14,13,0.4,0.3
2025-03-27T0800,2247A,130.1097,47.3382,鹤岗市,五号水库,,,,,,,,,,,,,,,,
2025-03-27T0800,2263A,127.4833,50.2524,黑河市,交通局,,32,32,23,19,14,71,,77,77,6,9,6,7,0.5,0.5
2025-03-27T0800,2264A,127.5144,50.2341,黑河市,环保局,,25,25,23,15,16,65,,77,77,14,9,3,4,0.3,0.3
2025-03-27T0800,2265A,127.5291,50.2472,黑河市,大黑河岛,,,28,20,3,6,7,,13,13,14,11,3,2,,
2025-03-27T0800,1074A,115.6838,37.7541,衡水市,电机北厂,颗粒物(PM10),125,199,152,56,59,26,,45,45,46,32,3,9,0.4,0.5
2025-03-27T0800,1075A,115.6303,37.7316,衡水市,市监测站,颗粒物(PM10),116,181,134,42,48,44,,53,53,34,28,9,10,0.4,0.5
2025-03-27T0800,3188A,115.6683,37.7217,衡水市,市城管局,颗粒物(PM10),117,184,148,63,57,40,,57,57,34,27,5,6,0.4,0.5
2025-03-27T0800,3459A,115.5989,37.5491,衡水市,地表水厂,颗粒物(PM10),129,207,136,48,49,62,,64,64,17,23,9,11,0.3,0.5
2025-03-27T0800,2456A,112.5003,26.9167,衡阳市,原169医院,细颗粒物(PM2.5),62,69,67,44,48,48,,58,58,39,10,20,9,0.7,0.6
2025-03-27T0800,2457A,112.6194,26.9258,衡阳市,衡阳化工总厂,细颗粒物(PM2.5),103,,83,77,75,84,,89,89,16,11,9,9,0.7,0.7
2025-03-27T0800,2458A,112.6211,26.8956,衡阳市,珠晖区环保局,颗粒物(PM10),56,62,74,39,48,90,,92,92,16,9,9,9,1.0,0.9
2025-03-27T0800,2459A,112.6197,26.8733,衡阳市,市委党校,颗粒物(PM10),56,61,75,38,48,87,,100,100,20,13,6,8,0.8,0.8
2025-03-27T0800,2460A,112.6006,26.8919,衡阳市,市监测站,细颗粒物(PM2.5),65,71,75,47,55,82,,82,82,23,16,10,10,0.8,0.8
2025-03-27T0800,2461A,112.5664,26.9056,衡阳市,真空机电公司,颗粒物(PM10),63,76,76,42,50,83,,86,86,27,14,21,9,1.4,1.1
2025-03-27T0800,3399A,112.6703,26.882,衡阳市,师范学院,细颗粒物(PM2.5),68,79,88,49,55,96,,102,102,15,13,10,11,0.7,0.8
2025-03-27T0800,2608A,103.3772,23.3993,红河哈尼族彝族自治州,污水处理厂,细颗粒物(PM2.5),88,79,67,65,54,97,,97,97,21,12,9,9,0.5,0.5
2025-03-27T0800,2609A,103.3861,23.35,红河哈尼族彝族自治州,监测站,细颗粒物(PM2.5),78,89,67,57,50,135,,125,125,12,10,10,10,0.5,0.4
2025-03-27T0800,3038A,103.3758,23.368,红河哈尼族彝族自治州,州图书馆,细颗粒物(PM2.5),93,,54,69,50,117,,118,118,17,10,7,7,0.5,0.4
2025-03-27T0800,1090A,111.6507,40.7517,呼和浩特市,呼市一监,颗粒物(PM10),106,161,207,34,42,86,,84,84,1,2,7,8,0.3,0.3
2025-03-27T0800,1091A,111.6572,40.8033,呼和浩特市,小召,颗粒物(PM10),115,180,212,34,37,82,,83,83,8,8,1,2,0.3,0.3
2025-03-27T0800,1094A,111.7516,40.8369,呼和浩特市,如意水处理厂,颗粒物(PM10),107,163,190,39,48,74,,76,76,6,4,6,5,0.2,0.2
2025-03-27T0800,1095A,111.7276,40.8062,呼和浩特市,二十九中,颗粒物(PM10),89,128,216,39,44,81,,84,84,4,3,2,3,0.5,0.4
2025-03-27T0800,1096A,111.5512,40.7866,呼和浩特市,工大金川校区,颗粒物(PM10),88,126,205,37,43,85,,87,87,4,5,5,5,0.4,0.4
2025-03-27T0800,1097A,111.717,40.7612,呼和浩特市,化肥厂生活区,颗粒物(PM10),103,156,196,34,37,82,,84,84,7,6,5,5,0.3,0.3
2025-03-27T0800,3698A,111.5968,40.8178,呼和浩特市,红旗小学,颗粒物(PM10),113,175,212,39,42,85,,85,85,5,5,3,3,0.3,0.3
2025-03-27T0800,3699A,111.6518,40.8389,呼和浩特市,海东办,颗粒物(PM10),112,173,202,37,43,77,,79,79,2,2,4,5,0.4,0.4
2025-03-27T0800,2192A,119.7594,49.2261,呼伦贝尔市,区环保局,,35,35,45,20,34,77,,77,77,9,10,6,6,0.3,0.4
2025-03-27T0800,3061A,119.7512,49.1577,呼伦贝尔市,国华电力东,,31,31,46,16,29,80,,76,76,6,7,4,5,0.3,0.3
2025-03-27T0800,1250A,120.0751,30.8669,湖州市,城西水厂,,47,47,75,31,44,64,,74,74,43,45,6,8,0.5,0.6
2025-03-27T0800,2873A,120.0830,30.8929,湖州市,仁皇山新区,,45,40,72,31,46,90,,88,88,22,34,3,6,0.8,0.8
2025-03-27T0800,2907A,120.1844,30.8596,湖州市,吴兴区站,,42,36,75,29,48,91,,91,91,17,30,5,9,0.4,0.5
2025-03-27T0800,3562A,120.4148,30.8538,湖州市,南浔区站,,40,40,97,27,56,105,,101,101,22,38,2,5,0.6,0.6
2025-03-27T0800,1607A,120.9049,40.7211,葫芦岛市,龙港区,,38,38,117,17,53,75,,68,68,12,25,8,10,0.5,0.7
2025-03-27T0800,1608A,120.8392,40.7514,葫芦岛市,化工街,,44,44,153,14,53,79,,75,75,14,32,10,15,0.5,0.6
2025-03-27T0800,1609A,120.8341,40.7073,葫芦岛市,新区,,42,42,135,16,56,83,,81,81,16,33,11,13,0.4,0.6
2025-03-27T0800,1610A,120.8695,40.7677,葫芦岛市,东城区,,37,37,136,14,54,77,,76,76,14,34,4,8,0.5,0.7
2025-03-27T0800,2482A,109.5981,27.5721,怀化市,林科所,颗粒物(PM10),62,74,76,39,44,96,,109,109,13,12,4,5,0.1,0.3
2025-03-27T0800,2483A,109.9453,27.5444,怀化市,河西地税局,细颗粒物(PM2.5),67,64,69,48,50,89,,110,110,13,8,11,11,0.5,0.5
2025-03-27T0800,2484A,109.9781,27.5342,怀化市,市四医院,细颗粒物(PM2.5),69,71,80,50,52,71,,104,104,34,18,9,10,0.8,0.7
2025-03-27T0800,2485A,109.9972,27.5578,怀化市,监测楼,细颗粒物(PM2.5),75,90,72,55,47,49,,88,88,25,12,15,11,0.7,0.5
2025-03-27T0800,2486A,110.0394,27.583,怀化市,市委党校,细颗粒物(PM2.5),92,94,73,68,53,29,,86,86,36,11,13,7,0.9,0.8
2025-03-27T0800,1210A,119.036,33.5981,淮安市,钵池山,颗粒物(PM10),75,100,93,51,56,83,,99,99,16,23,9,12,1.0,0.9
2025-03-27T0800,1211A,119.007,33.575,淮安市,北京南路,颗粒物(PM10),78,105,103,45,54,87,,104,104,19,34,9,11,1.0,0.9
2025-03-27T0800,1212A,118.989,33.6067,淮安市,市监测站,颗粒物(PM10),73,95,95,44,52,91,,108,108,21,32,9,13,0.7,0.6
2025-03-27T0800,1213A,119.135,33.5039,淮安市,楚州区监测站,颗粒物(PM10),80,110,108,47,56,82,,99,99,14,22,9,11,0.7,0.7
2025-03-27T0800,3426A,118.8755,33.2894,淮安市,新华书店,颗粒物(PM10),86,121,95,36,56,95,,96,96,15,25,8,13,0.9,1
2025-03-27T0800,4206A,119.0288,33.6319,淮安市,承德北路606号,颗粒物(PM10),82,114,109,50,54,83,,100,100,19,35,8,12,0.9,0.9
2025-03-27T0800,2282A,116.8004,33.975,淮北市,监测站,颗粒物(PM10),112,173,130,34,60,62,,61,61,31,22,9,9,0.7,0.6
2025-03-27T0800,2283A,116.8091,33.9007,淮北市,烈山区政府,颗粒物(PM10),128,205,128,41,64,74,,71,71,24,21,8,9,0.9,0.9
2025-03-27T0800,3330A,116.8873,33.9836,淮北市,杜集区检察院,颗粒物(PM10),118,185,122,48,60,49,,59,59,31,21,9,9,1.0,0.9
2025-03-27T0800,4017A,116.7923,33.9535,淮北市,市博物馆,颗粒物(PM10),119,187,133,34,60,68,,68,68,24,19,10,11,1.1,1.1
2025-03-27T0800,2277A,116.8305,32.7727,淮南市,潘集区政府,颗粒物(PM10),108,166,124,59,67,83,,78,78,16,21,7,10,0.5,0.7
2025-03-27T0800,2279A,116.8569,32.5951,淮南市,谢家集区政府,,,112,111,62,62,84,,86,86,,19,,11,0.6,0.6
2025-03-27T0800,2280A,116.8281,32.633,淮南市,八公山区政府,颗粒物(PM10),87,124,117,46,60,96,,86,86,13,15,9,8,0.4,0.5
2025-03-27T0800,2281A,116.6325,32.6201,淮南市,焦岗湖风景区管理处,颗粒物(PM10),94,138,92,67,44,42,,62,62,16,12,8,10,0.8,0.8
2025-03-27T0800,2894A,117.0566,32.6531,淮南市,经济技术开发区消防队,细颗粒物(PM2.5),94,133,104,70,62,94,,101,101,16,15,12,10,0.5,0.6
2025-03-27T0800,3329A,117.0108,32.5893,淮南市,山南新区,颗粒物(PM10),97,143,120,64,70,91,,100,100,25,13,12,11,0.6,0.6
2025-03-27T0800,4209A,117.0031,32.6445,淮南市,国庆中路369号,颗粒物(PM10),90,129,106,62,59,94,,93,93,18,18,16,16,0.7,0.6
2025-03-27T0800,2446A,114.9028,30.4742,黄冈市,职工中心,细颗粒物(PM2.5),94,111,83,70,62,94,,115,115,17,21,8,13,0.7,0.8
2025-03-27T0800,2929A,114.8858,30.4519,黄冈市,红卫路,细颗粒物(PM2.5),112,127,82,84,58,90,,112,112,15,17,7,11,0.9,1
2025-03-27T0800,3398A,114.9136,30.4445,黄冈市,市林业局,细颗粒物(PM2.5),109,130,86,82,56,92,,110,110,16,21,8,13,0.7,0.8
2025-03-27T0800,2672A,102.0199,35.5102,黄南藏族自治州,同仁县隆务镇,颗粒物(PM10),156,262,430,79,134,74,,82,82,4,7,20,19,0.4,0.4
2025-03-27T0800,2295A,118.2903,29.6963,黄山市,延安路89号,,44,44,67,29,43,84,,102,102,6,9,4,6,0.6,0.6
2025-03-27T0800,2297A,118.1371,30.2756,黄山市,黄山区政府5号楼,,26,23,52,12,30,81,,103,103,6,4,8,9,0.8,0.8
2025-03-27T0800,4210A,118.3354,29.7203,黄山市,滨江东路7-2号,,39,39,66,26,39,75,,94,94,4,11,5,6,0.7,0.7
2025-03-27T0800,2423A,115.0601,30.2313,黄石市,沈家营,细颗粒物(PM2.5),59,55,85,42,45,78,,115,115,21,20,6,9,0.7,0.8
2025-03-27T0800,2426A,114.8988,30.2019,黄石市,铁山,"颗粒物(PM10),细颗粒物(PM2.5)",83,115,76,61,48,71,,109,109,37,20,18,20,1.3,0.7
2025-03-27T0800,2427A,115.0307,30.2092,黄石市,团城山,颗粒物(PM10),60,69,82,35,38,73,,111,111,28,17,10,10,0.7,0.7
2025-03-27T0800,3149A,115.0235,30.1578,黄石市,笔架山北路,颗粒物(PM10),53,55,74,27,39,77,,116,116,17,11,10,12,1.0,0.8
2025-03-27T0800,4185A,115.0780,30.21118,黄石市,磁湖东路29号,颗粒物(PM10),76,101,109,50,46,58,,106,106,51,22,10,10,0.7,0.8
2025-03-27T0800,1392A,114.4183,23.0528,惠州市,河南岸金山湖子站,,37,37,36,21,19,33,,32,32,27,23,8,8,0.5,0.5
2025-03-27T0800,1393A,114.4053,23.0822,惠州市,下埔横江三路子站,,42,42,41,24,20,43,,48,48,22,19,8,8,0.5,0.4
2025-03-27T0800,1394A,114.4103,23.1142,惠州市,江北云山西路子站,,37,37,37,19,17,52,,55,55,18,18,9,9,0.5,0.5
2025-03-27T0800,1395A,114.4645,22.7833,惠州市,惠阳区承修路船湖子站,,30,30,31,14,15,44,,61,61,21,12,8,8,0.6,0.5
2025-03-27T0800,1396A,114.5317,22.7422,惠州市,大亚湾管委会子站,,29,29,28,3,11,39,,41,41,22,21,6,7,0.7,0.5
2025-03-27T0800,3314A,114.4338,22.8134,惠州市,惠阳秋长,,39,39,38,16,15,24,,44,44,36,13,11,12,0.7,0.6
2025-03-27T0800,3452A,114.6517,22.775,惠州市,大亚湾霞涌,,23,17,23,16,12,26,,45,45,26,15,8,8,0.2,0.3
2025-03-27T0800,2240A,130.9762,45.3001,鸡西市,环保局,,26,26,76,18,59,48,,61,61,20,17,6,9,0.6,0.6
2025-03-27T0800,2243A,130.9429,45.3039,鸡西市,第一中学,,30,27,65,21,52,40,,61,61,26,17,7,10,0.6,0.6
2025-03-27T0800,3707A,131.0207,45.3073,鸡西市,欧美日汽修厂,,29,26,76,20,65,61,,64,64,9,17,6,11,0.5,0.7
2025-03-27T0800,3709A,130.9967,45.3106,鸡西市,市政设施管理处,,26,24,84,18,65,47,,52,52,17,19,5,8,0.5,0.5
2025-03-27T0800,2367A,114.9754,27.0803,吉安市,红声器材厂,颗粒物(PM10),55,60,67,36,39,122,,126,126,15,13,20,13,0.6,0.6
2025-03-27T0800,2368A,114.9658,27.0999,吉安市,市森林工业局,"颗粒物(PM10),细颗粒物(PM2.5)",55,59,66,39,40,119,,124,124,20,14,14,13,0.5,0.6
2025-03-27T0800,2369A,114.99,27.1312,吉安市,市环境监测站,,46,,62,32,40,118,,126,126,13,11,25,16,0.5,0.4
2025-03-27T0800,2370A,115.0093,27.0968,吉安市,青原区法院,细颗粒物(PM2.5),58,56,42,41,41,130,,140,140,17,13,18,15,0.6,0.6
2025-03-27T0800,1772A,126.54,43.8622,吉林市,哈达湾,,38,38,64,21,42,61,,66,66,13,15,5,7,0.6,0.7
2025-03-27T0800,1773A,126.5844,43.8358,吉林市,东局子,,47,47,58,24,42,59,,70,70,15,13,5,6,0.5,0.6
2025-03-27T0800,1774A,126.5052,43.8245,吉林市,电力学院,,36,32,55,25,46,63,,68,68,10,16,4,5,0.3,0.4
2025-03-27T0800,1775A,126.6133,43.8972,吉林市,江北,,47,47,63,26,42,55,,65,65,19,18,6,4,0.5,0.7
2025-03-27T0800,1776A,126.555,43.8306,吉林市,江南公园,,38,37,57,26,47,56,,67,67,15,14,6,6,0.3,0.4
2025-03-27T0800,1778A,126.7061,43.7133,吉林市,丰满,细颗粒物(PM2.5),55,46,47,39,44,64,,80,80,14,11,5,5,1.0,1
2025-03-27T0800,2868A,126.4739,43.953,吉林市,九站,,25,25,65,16,45,64,,60,60,10,18,11,11,0.5,0.7
2025-03-27T0800,1299A,116.9862,36.6114,济南市,科干所,颗粒物(PM10),162,273,179,44,55,64,,65,65,18,36,6,10,0.5,0.6
2025-03-27T0800,1300A,116.9376,36.665,济南市,农科所,颗粒物(PM10),166,281,186,32,41,62,,58,58,21,38,6,11,0.4,0.6
2025-03-27T0800,1301A,117.1265,36.6734,济南市,开发区,颗粒物(PM10),157,264,179,46,51,60,,63,63,28,39,9,11,0.6,0.7
2025-03-27T0800,1303A,117.0624,36.6868,济南市,省种子仓库,颗粒物(PM10),175,300,200,39,49,58,,60,60,22,31,8,9,0.6,0.9
2025-03-27T0800,1304A,116.9489,36.6447,济南市,机床二厂,颗粒物(PM10),184,317,203,42,52,60,,52,52,22,40,7,11,0.6,0.9
2025-03-27T0800,1305A,117.0495,36.663,济南市,市监测站,颗粒物(PM10),177,303,194,37,47,59,,60,60,24,38,8,12,0.5,0.6
2025-03-27T0800,1306A,116.7675,36.5484,济南市,长清党校,颗粒物(PM10),172,293,176,39,40,77,,69,69,17,37,3,8,0.6,0.8
2025-03-27T0800,1616A,117.6795,36.229,济南市,技术学院,颗粒物(PM10),206,354,182,36,53,84,,86,86,12,26,8,16,0.3,0.7
2025-03-27T0800,1961A,117.532,36.6868,济南市,东山小学,颗粒物(PM10),161,271,185,39,43,78,,65,65,10,23,9,11,0.7,0.8
2025-03-27T0800,3059A,117.7161,36.2049,济南市,泰兴公司,颗粒物(PM10),155,259,170,36,52,78,,80,80,14,26,9,16,0.4,0.8
2025-03-27T0800,3064A,117.6867,36.2171,济南市,莱芜战役纪念馆,颗粒物(PM10),240,378,176,34,43,84,,89,89,16,27,5,12,0.3,0.7
2025-03-27T0800,3494A,117.1673,36.9782,济南市,济阳区政府,颗粒物(PM10),142,234,177,49,49,25,,37,37,50,32,10,13,0.5,0.6
2025-03-27T0800,3495A,117.1171,36.63,济南市,锦屏中学,颗粒物(PM10),162,274,179,37,43,65,,66,66,16,33,9,12,0.4,0.6
2025-03-27T0800,3682A,116.9814,36.6819,济南市,济南四建,颗粒物(PM10),165,280,183,76,51,60,,55,55,20,35,4,9,0.2,0.5
2025-03-27T0800,1653A,116.6251,35.4302,济宁市,火炬城,颗粒物(PM10),105,159,133,29,54,70,,64,64,15,21,8,14,0.2,0.5
2025-03-27T0800,1655A,116.5491,35.4042,济宁市,电化厂,颗粒物(PM10),138,225,180,39,62,67,,65,65,19,24,5,11,0.4,0.7
2025-03-27T0800,3500A,116.5814,35.3707,济宁市,北湖一中,颗粒物(PM10),108,166,132,19,46,74,,68,68,16,25,12,19,0.3,0.6
2025-03-27T0800,3501A,116.8249,35.5593,济宁市,服务中心,颗粒物(PM10),124,198,153,28,47,74,,69,69,16,26,5,9,0.4,0.7
2025-03-27T0800,3678A,116.5907,35.4054,济宁市,市第七中学,颗粒物(PM10),128,206,142,27,48,65,,64,64,19,22,5,10,0.3,0.5
2025-03-27T0800,2255A,130.2751,46.8028,佳木斯市,佳纺,,23,13,49,7,34,73,,64,64,7,12,5,6,0.3,0.3
2025-03-27T0800,2256A,130.3995,46.8307,佳木斯市,发电厂,,26,11,30,7,23,82,,71,71,3,8,3,5,0.5,0.5
2025-03-27T0800,2257A,130.3258,46.7975,佳木斯市,环保局,,24,7,43,6,32,75,,67,67,10,13,3,4,0.4,0.4
2025-03-27T0800,2258A,130.3648,46.8032,佳木斯市,十一中,,24,9,39,6,33,74,,68,68,8,13,4,5,0.3,0.4
2025-03-27T0800,2259A,130.3794,46.7588,佳木斯市,四丰,,23,8,39,6,26,71,,60,60,6,9,1,1,0.7,0.8
2025-03-27T0800,1252A,120.7436,30.778,嘉兴市,清河小学,,37,37,87,16,46,93,,84,84,23,49,4,7,0.7,0.8
2025-03-27T0800,1253A,120.726,30.7478,嘉兴市,嘉兴学院,颗粒物(PM10),58,66,92,26,51,91,,85,85,20,43,7,10,0.8,0.9
2025-03-27T0800,2872A,120.7846,30.7525,嘉兴市,南湖区残联,颗粒物(PM10),58,65,94,24,52,103,,100,100,14,34,7,11,0.4,0.6
2025-03-27T0800,3407A,120.6916,30.7739,嘉兴市,秀洲住建,,30,,94,19,46,93,,89,89,19,42,5,8,0.5,0.6
2025-03-27T0800,1945A,98.2908,39.7711,嘉峪关市,气象局,,41,41,72,3,17,79,,79,79,6,10,3,12,0.4,0.7
2025-03-27T0800,2884A,98.2672,39.7978,嘉峪关市,酒钢宾馆,,41,41,76,12,18,79,,79,79,6,9,11,22,0.5,0.4
2025-03-27T0800,3248A,98.2643,39.7724,嘉峪关市,雄关区,,49,49,85,12,25,76,,75,75,12,14,11,13,0.6,0.7
2025-03-27T0800,1383A,113.1064,22.6058,江门市,北街,,31,31,32,21,16,28,,40,40,13,6,2,2,0.5,0.4
2025-03-27T0800,1384A,113.0731,22.5835,江门市,西区,,35,35,39,16,21,34,,47,47,27,17,7,7,0.6,0.4
2025-03-27T0800,1385A,113.0219,22.5311,江门市,圭峰西,,20,18,35,14,18,36,,39,39,22,17,4,5,0.6,0.5
2025-03-27T0800,1386A,113.0828,22.5947,江门市,东湖,,36,36,36,16,16,37,,46,46,16,11,8,8,0.4,0.3
2025-03-27T0800,3311A,113.1075,22.5647,江门市,江海富民,,48,48,42,30,17,35,,45,45,20,12,7,6,0.5,0.3
2025-03-27T0800,3449A,113.05,22.4667,江门市,新会银湖,,30,29,38,21,17,10,,9,9,42,25,2,3,0.5,0.4
2025-03-27T0800,1830A,113.1992,35.2590,焦作市,影视城,,,,157,,51,,,,,,19,,9,,0.5
2025-03-27T0800,3169A,113.2725,35.2067,焦作市,太极体育中心,颗粒物(PM10),113,176,191,43,58,82,,63,63,20,26,12,15,0.9,0.7
2025-03-27T0800,3335A,113.3137,35.2641,焦作市,马村街道办,颗粒物(PM10),93,135,175,35,60,82,,53,53,19,29,10,15,0.7,0.8
2025-03-27T0800,3336A,113.2465,35.2373,焦作市,焦作技师学院,颗粒物(PM10),110,169,197,34,53,87,,56,56,19,26,9,15,0.7,0.9
2025-03-27T0800,3477A,113.1656,35.2539,焦作市,中站许衡医院,颗粒物(PM10),100,149,175,52,57,83,,50,50,20,30,13,16,0.7,1
2025-03-27T0800,3981A,113.2449,35.1803,焦作市,原李万街道办,颗粒物(PM10),109,167,185,41,53,81,,63,63,24,30,14,21,0.6,0.5
2025-03-27T0800,4264A,113.2340,35.2190,焦作市,新安路1731号,颗粒物(PM10),110,170,193,40,60,87,,56,56,18,25,12,18,0.7,0.8
2025-03-27T0800,1708A,116.3701,23.5345,揭阳市,新兴,,48,43,49,33,34,19,,40,40,40,20,9,8,0.9,0.6
2025-03-27T0800,1709A,116.3264,23.5443,揭阳市,西马,细颗粒物(PM2.5),68,,52,49,29,21,,40,40,31,15,7,8,0.7,0.6
2025-03-27T0800,1710A,116.3611,23.5626,揭阳市,东兴,,50,41,58,35,28,28,,47,47,23,8,6,6,0.8,0.7
2025-03-27T0800,1711A,116.4151,23.5294,揭阳市,渔湖,,26,,41,18,23,21,,33,33,27,12,9,6,0.7,0.6
2025-03-27T0800,3320A,116.403,23.5699,揭阳市,曲溪,,47,47,46,20,27,28,,46,46,32,18,5,4,0.6,0.5
2025-03-27T0800,1944A,102.1692,38.5167,金昌市,天庆家园,颗粒物(PM10),53,55,99,9,21,84,,88,88,4,3,9,10,0.7,0.6
2025-03-27T0800,4022A,102.1647,38.5371,金昌市,金川区人防中心,颗粒物(PM10),53,56,134,10,25,81,,85,85,4,3,7,8,0.4,0.4
2025-03-27T0800,4239A,102.1930,38.5319,金昌市,长春路96号,颗粒物(PM10),62,74,156,10,21,80,,84,84,4,3,3,9,0.9,0.6
2025-03-27T0800,1262A,119.647,29.077,金华市,十五中,细颗粒物(PM2.5),107,131,123,80,79,34,,47,47,57,50,8,8,1.1,1.1
2025-03-27T0800,1263A,119.686,29.1029,金华市,监测站,细颗粒物(PM2.5),127,124,111,96,72,15,,40,40,70,51,6,7,1.0,0.7
2025-03-27T0800,3659A,119.656,29.1131,金华市,气象局,细颗粒物(PM2.5),112,165,113,84,67,14,,29,29,65,65,7,7,1.1,0.8
2025-03-27T0800,1767A,121.1115,41.0879,锦州市,南山,,44,44,110,20,65,77,,79,79,13,25,6,15,0.5,0.8
2025-03-27T0800,1768A,121.0604,40.8428,锦州市,开发区,颗粒物(PM10),56,62,137,23,61,80,,75,75,11,37,9,17,0.8,0.9
2025-03-27T0800,1769A,121.1836,41.1119,锦州市,百股街道,,41,41,117,19,57,80,,78,78,9,25,5,10,0.5,0.8
2025-03-27T0800,1770A,121.1178,41.1222,锦州市,天安街道,,40,40,123,19,60,74,,76,76,12,24,8,14,0.5,0.7
2025-03-27T0800,1771A,121.1303,41.1386,锦州市,北湖公园,,49,49,125,24,58,77,,78,78,10,20,6,13,0.4,0.7
2025-03-27T0800,2160A,112.85,35.5051,晋城市,自来水公司,颗粒物(PM10),198,345,250,61,53,65,,77,77,14,16,7,10,0.5,0.6
2025-03-27T0800,2161A,112.8318,35.4936,晋城市,白云商贸,颗粒物(PM10),195,339,269,68,67,68,,78,78,15,18,7,9,0.4,0.5
2025-03-27T0800,2162A,112.8508,35.4887,晋城市,市环保局,颗粒物(PM10),215,360,261,58,54,69,,80,80,11,14,6,9,0.3,0.3
2025-03-27T0800,2163A,112.8676,35.4897,晋城市,技术学院,颗粒物(PM10),242,379,258,68,62,70,,82,82,14,18,7,10,0.4,0.6
2025-03-27T0800,2165A,112.8453,35.546,晋城市,白马寺,颗粒物(PM10),170,289,221,65,77,67,,80,80,10,9,7,7,0.5,0.6
2025-03-27T0800,3620A,112.8271,35.4828,晋城市,泽州一中,颗粒物(PM10),218,362,269,75,75,70,,79,79,11,14,9,11,0.4,0.5
2025-03-27T0800,2173A,112.7249,37.7067,晋中市,南都小区,颗粒物(PM10),286,410,262,78,48,74,,84,84,10,13,4,6,0.3,0.4
2025-03-27T0800,2174A,112.6991,37.6982,晋中市,榆次区政府,颗粒物(PM10),240,378,285,74,46,81,,89,89,7,14,6,6,0.3,0.4
2025-03-27T0800,2865A,112.7195,37.6828,晋中市,榆次三中,颗粒物(PM10),339,451,312,80,59,79,,88,88,4,10,2,3,0.2,0.3
2025-03-27T0800,4200A,112.7478,37.6954,晋中市,迎宾街26号,颗粒物(PM10),245,381,290,100,53,79,,89,89,5,11,4,5,0.2,0.4
2025-03-27T0800,2439A,112.2014,31.0481,荆门市,竹园小学,颗粒物(PM10),134,217,126,30,56,111,,124,124,14,14,8,8,0.5,0.8
2025-03-27T0800,2440A,112.1969,30.9891,荆门市,掇刀,颗粒物(PM10),134,218,130,34,61,109,,134,134,11,14,8,11,0.3,0.5
2025-03-27T0800,2441A,112.2213,31.0386,荆门市,石化一小,颗粒物(PM10),132,213,127,31,57,109,,121,121,12,19,10,12,0.1,0.5
2025-03-27T0800,3012A,112.1849,31.0362,荆门市,西山林语,颗粒物(PM10),123,195,113,38,58,115,,130,130,9,11,8,10,0.4,0.4
2025-03-27T0800,3547A,112.1632,31.0138,荆门市,龙泉中学南校,颗粒物(PM10),146,242,129,48,57,112,,127,127,3,5,9,10,0.5,0.7
2025-03-27T0800,1844A,112.2494,30.3197,荆州市,市图书馆,颗粒物(PM10),127,203,100,57,60,99,,105,105,18,16,8,10,0.6,0.7
2025-03-27T0800,1845A,112.2008,30.3544,荆州市,市委党校,颗粒物(PM10),122,194,102,57,64,109,,110,110,16,15,9,12,0.4,0.6
2025-03-27T0800,3194A,112.2747,30.3122,荆州市,管委会,颗粒物(PM10),123,196,110,61,65,108,,109,109,12,12,10,12,0.4,0.6
2025-03-27T0800,4268A,112.1722,30.3366,荆州市,学苑路85号,颗粒物(PM10),128,206,86,53,66,106,,100,100,14,14,10,10,0.5,0.7
2025-03-27T0800,2342A,117.3102,29.3867,景德镇市,王港中学,,,,,,,,,,,,,,,,
2025-03-27T0800,2343A,117.2117,29.2933,景德镇市,老干部活动中心,,38,31,70,26,46,86,,107,107,16,16,7,10,0.5,0.5
2025-03-27T0800,2344A,117.1894,29.2789,景德镇市,兽医站,,36,36,72,21,41,82,,106,106,20,14,4,6,0.8,0.8
2025-03-27T0800,2345A,117.1547,29.2617,景德镇市,台达陶瓷,,39,34,78,27,45,86,,102,102,26,19,18,20,0.6,0.6
2025-03-27T0800,2346A,117.2461,29.2956,景德镇市,陶研所,,38,29,65,26,49,88,,100,100,14,17,3,5,0.6,0.7
2025-03-27T0800,1803A,115.9872,29.6815,九江市,十里,,46,41,75,32,46,65,,118,118,27,15,6,6,0.6,0.7
2025-03-27T0800,1804A,115.9584,29.7046,九江市,茅山头,细颗粒物(PM2.5),53,39,66,37,46,76,,120,120,33,22,8,8,0.5,0.6
2025-03-27T0800,1805A,115.9877,29.7295,九江市,西园,,43,43,78,24,41,78,,122,122,34,24,9,10,0.9,0.9
2025-03-27T0800,1808A,115.9114,29.6038,九江市,综合工业园,,50,50,89,32,40,52,,118,118,56,24,8,11,0.9,0.9
2025-03-27T0800,1809A,116.0721,29.7535,九江市,石化总厂,细颗粒物(PM2.5),53,39,83,37,55,73,,112,112,33,19,16,15,0.7,0.8
2025-03-27T0800,1810A,115.9773,29.5698,九江市,庐山气象台,细颗粒物(PM2.5),82,81,54,60,44,117,,132,132,5,6,6,10,0.8,0.7
2025-03-27T0800,3190A,116.0254,29.6994,九江市,外国语学校,,39,,65,27,43,71,,116,116,27,19,13,7,0.7,0.7
2025-03-27T0800,4253A,116.0102,29.6594,九江市,莲花大道8号,细颗粒物(PM2.5),52,,62,36,48,55,,108,108,16,9,7,9,0.7,0.7
2025-03-27T0800,4240A,98.4958,39.7339,酒泉市,玉门东路5号,,33,27,67,23,26,76,,77,77,2,3,6,6,0.2,0.2
2025-03-27T0800,4241A,98.5099,39.7506,酒泉市,北大街108号,,33,29,59,23,21,74,,77,77,6,5,7,7,0.2,0.2
2025-03-27T0800,2698A,76.0072,39.4467,喀什地区,巡警大队,"颗粒物(PM10),细颗粒物(PM2.5)",500,2976,2209,565,677,81,,76,76,5,14,3,4,0.4,0.4
2025-03-27T0800,2699A,75.9755,39.4694,喀什地区,吾办,细颗粒物(PM2.5),500,,954,1157,786,77,,73,73,3,15,3,2,0.4,0.4
2025-03-27T0800,4027A,75.9483,39.4689,喀什地区,老干局,"颗粒物(PM10),细颗粒物(PM2.5)",500,2825,2140,536,681,75,,79,79,4,10,3,3,0.4,0.4
2025-03-27T0800,1824A,114.3389,34.7781,开封市,肿瘤医院,颗粒物(PM10),100,150,150,51,46,60,,68,68,24,21,8,10,0.8,0.7
2025-03-27T0800,1826A,114.2885,34.7965,开封市,世纪星幼儿园,颗粒物(PM10),96,142,140,51,52,58,,70,70,33,27,6,8,0.8,0.8
2025-03-27T0800,3147A,114.3438,34.8106,开封市,龙亭公园,颗粒物(PM10),96,142,148,50,53,61,,68,68,33,28,4,5,0.4,0.4
2025-03-27T0800,3210A,114.3644,34.7964,开封市,汴京公园,颗粒物(PM10),108,165,143,54,56,56,,68,68,35,28,6,7,0.6,0.7
2025-03-27T0800,3473A,114.2485,34.8306,开封市,技师学院,颗粒物(PM10),86,122,138,54,58,56,,66,66,32,28,10,14,1.0,1
2025-03-27T0800,3592A,114.4644,34.7556,开封市,祥符区生态环境局,颗粒物(PM10),112,173,176,57,56,52,,61,61,27,22,6,8,0.7,0.7
2025-03-27T0800,1951A,84.895,45.6094,克拉玛依市,长征新村,,20,15,23,14,7,64,,62,62,9,9,5,5,0.2,0.2
2025-03-27T0800,1952A,84.8988,45.5893,克拉玛依市,南林小区,,22,18,23,8,9,68,,63,63,2,3,4,4,0.3,0.3
2025-03-27T0800,1954A,84.905,44.3396,克拉玛依市,独山子区,,27,27,38,3,8,58,,66,66,7,6,4,6,0.4,0.4
2025-03-27T0800,1955A,85.6979,46.098,克拉玛依市,乌尔禾区商贸楼,,17,7,26,3,6,53,,46,46,9,10,4,4,0.4,0.4
2025-03-27T0800,3612A,85.1045,45.6899,克拉玛依市,白碱滩区新站,,21,12,19,3,7,67,,59,59,3,8,6,6,0.1,0.1
2025-03-27T0800,2697A,76.1454,39.7142,克孜勒苏柯尔克孜自治州,市人民政府,"颗粒物(PM10),细颗粒物(PM2.5)",500,2843,2207,988,879,87,,80,80,2,3,4,5,0.5,0.5
2025-03-27T0800,3665A,76.1658,39.7157,克孜勒苏柯尔克孜自治州,克州文化中心,"颗粒物(PM10),细颗粒物(PM2.5)",500,3622,3867,965,842,82,,76,76,2,4,5,6,0.4,0.4
2025-03-27T0800,1450A,102.8204,24.8886,昆明市,呈贡新区,,43,42,41,30,30,116,,127,127,17,13,7,5,0.4,0.4
2025-03-27T0800,1451A,102.6251,24.9608,昆明市,西山森林公园,,,,,,,,,,,,,,,,
2025-03-27T0800,1452A,102.7252,25.0902,昆明市,龙泉镇,颗粒物(PM10),56,62,38,27,22,7,,12,12,100,44,7,8,0.8,0.6
2025-03-27T0800,1453A,102.7266,25.0375,昆明市,东风东路,,42,39,33,29,22,79,,111,111,40,18,19,11,0.7,0.4
2025-03-27T0800,1454A,102.6742,25.0669,昆明市,金鼎山,,39,38,42,27,24,52,,48,48,65,32,7,6,0.7,0.6
2025-03-27T0800,1455A,102.6644,25.0401,昆明市,碧鸡广场,,46,46,37,30,24,45,,84,84,68,24,12,9,0.8,0.4
2025-03-27T0800,3179A,102.7494,25.0119,昆明市,官渡区博物馆,颗粒物(PM10),55,59,40,37,26,39,,88,88,74,20,12,8,0.9,0.5
2025-03-27T0800,3375A,102.8017,24.8336,昆明市,青年创业园,,44,44,38,27,33,72,,115,115,42,10,12,7,0.5,0.4
2025-03-27T0800,3550A,102.7997,24.9786,昆明市,昆明学院,,49,49,42,33,28,100,,116,116,24,14,7,6,0.4,0.3
2025-03-27T0800,3551A,102.5967,24.6736,昆明市,晋宁区生态环境分局,,42,34,32,29,26,104,,122,122,16,7,6,6,0.5,0.4
2025-03-27T0800,3552A,102.6678,24.9856,昆明市,云天化总部,,48,48,28,30,19,37,,111,111,69,14,12,9,0.5,0.2
2025-03-27T0800,1456A,91.1319,29.6514,拉萨市,八廓街,,19,17,23,7,13,58,,69,69,19,22,22,11,1.4,0.9
2025-03-27T0800,1457A,91.1221,29.6747,拉萨市,市环保局,,34,34,29,12,15,26,,54,54,33,24,18,11,1.1,0.9
2025-03-27T0800,1458A,91.0874,29.6475,拉萨市,区监测站,,20,20,20,8,11,38,,53,53,36,29,20,9,0.5,0.5
2025-03-27T0800,1459A,91.1774,29.6541,拉萨市,西藏大学,,16,15,18,7,9,50,,64,64,19,17,17,7,0.7,0.8
2025-03-27T0800,1460A,90.9798,29.6588,拉萨市,区辐射站,,27,27,20,12,12,32,,48,48,36,23,9,8,0.7,0.5
2025-03-27T0800,1461A,91.0834,29.6292,拉萨市,拉萨火车站,,19,17,20,8,10,27,,36,36,38,26,9,5,0.6,0.5
2025-03-27T0800,2520A,109.2203,23.7256,来宾市,来宾技工学校,,42,40,63,29,31,56,,74,74,15,11,4,5,0.7,0.7
2025-03-27T0800,3535A,109.1781,23.7297,来宾市,兴宾区政府,颗粒物(PM10),51,52,55,34,31,60,,81,81,13,10,6,8,0.7,0.8
2025-03-27T0800,4002A,109.2416,23.7461,来宾市,中南小学,,47,47,59,24,30,59,,70,70,10,9,5,7,0.7,0.7
2025-03-27T0800,1477A,104.1373,35.9454,兰州市,榆中兰大校区,,,,,,,,,,,,,,,,
2025-03-27T0800,1479A,103.831,36.0464,兰州市,铁路设计院,颗粒物(PM10),78,105,382,29,91,70,,81,81,20,14,12,7,0.5,0.4
2025-03-27T0800,3241A,103.7439,36.0842,兰州市,百合公园,颗粒物(PM10),67,83,414,32,90,75,,81,81,6,3,7,5,0.5,0.4
2025-03-27T0800,3242A,103.9611,35.998,兰州市,和平,颗粒物(PM10),97,143,512,54,138,79,,84,84,6,5,11,12,0.8,0.6
2025-03-27T0800,4236A,103.6293,36.0938,兰州市,庄浪东路808号,,,,458,,122,77,,82,82,,6,9,9,0.4,0.3
2025-03-27T0800,4237A,103.7251,36.1043,兰州市,安宁西路88号,颗粒物(PM10),80,110,477,36,105,81,,83,83,2,3,3,5,0.2,0.2
2025-03-27T0800,4238A,103.8470,36.0676,兰州市,北滨河东路1号,颗粒物(PM10),79,108,415,38,100,77,,86,86,13,9,14,9,0.6,0.5
2025-03-27T0800,3245A,103.6633,36.533,兰州新区,新区管委会,颗粒物(PM10),76,102,302,27,78,78,,83,83,7,5,22,14,0.3,0.3
2025-03-27T0800,3246A,103.6975,36.4789,兰州新区,舟曲中学,颗粒物(PM10),76,102,526,28,183,80,,84,84,6,5,2,2,0.7,0.7
2025-03-27T0800,1067A,116.6708,39.5111,廊坊市,药材公司,颗粒物(PM10),51,51,141,29,58,74,,83,83,10,15,2,4,0.3,0.5
2025-03-27T0800,1068A,116.7214,39.5589,廊坊市,开发区,颗粒物(PM10),51,52,153,20,47,79,,83,83,10,16,2,4,0.2,0.4
2025-03-27T0800,1070A,116.7244,39.5269,廊坊市,北华航天学院,颗粒物(PM10),52,53,135,7,41,77,,82,82,11,16,3,5,0.2,0.5
2025-03-27T0800,2919A,116.7022,39.5453,廊坊市,河北工业大学,,,80,138,,44,80,,84,84,,12,,6,0.2,0.4
2025-03-27T0800,2535A,103.7723,29.5462,乐山市,花湖湾,细颗粒物(PM2.5),99,90,76,74,56,67,,95,95,37,27,10,11,0.6,0.6
2025-03-27T0800,2536A,103.7627,29.5844,乐山市,牛耳桥,细颗粒物(PM2.5),80,81,87,59,59,11,,46,46,63,45,6,10,1.2,0.8
2025-03-27T0800,2537A,103.7508,29.6006,乐山市,市第三水厂,细颗粒物(PM2.5),90,86,85,67,61,17,,34,34,62,40,6,8,0.9,0.7
2025-03-27T0800,2538A,103.7571,29.5664,乐山市,市监测站,细颗粒物(PM2.5),90,86,79,67,60,79,,118,118,38,24,14,10,1.0,0.8
2025-03-27T0800,3361A,103.7311,29.5628,乐山市,理工大学,细颗粒物(PM2.5),87,84,79,64,53,45,,83,83,48,28,7,9,0.7,0.6
2025-03-27T0800,2598A,100.2143,26.8576,丽江市,西南郊,,,,,,,,,,,,,,,,
2025-03-27T0800,2599A,100.2497,26.8802,丽江市,丽江古城,,23,23,20,14,12,70,,84,84,21,9,8,8,0.5,0.4
2025-03-27T0800,2600A,100.2203,26.8906,丽江市,市中心,,24,13,14,13,9,75,,84,84,19,16,8,8,0.6,0.6
2025-03-27T0800,1267A,119.914,28.4514,丽水市,监测站大楼,细颗粒物(PM2.5),89,82,89,66,68,54,,59,59,39,38,4,5,1.1,1.1
2025-03-27T0800,1268A,119.93,28.4586,丽水市,莲都小学,细颗粒物(PM2.5),85,112,98,63,57,31,,25,25,49,51,4,4,0.9,0.8
2025-03-27T0800,1269A,119.879,28.4231,丽水市,余庄前,细颗粒物(PM2.5),99,94,86,74,61,15,,12,12,30,26,5,6,0.9,0.9
2025-03-27T0800,1173A,119.176,34.5885,连云港市,市环境监测站,颗粒物(PM10),128,205,150,51,55,76,,102,102,25,31,20,16,1.5,0.8
2025-03-27T0800,3000A,119.3581,34.6972,连云港市,德源药业,颗粒物(PM10),128,205,151,51,52,84,,107,107,20,39,14,11,0.9,0.6
2025-03-27T0800,3007A,119.178,34.844,连云港市,新城一中,颗粒物(PM10),105,159,147,55,54,53,,71,71,45,40,13,10,1.3,1.1
2025-03-27T0800,3008A,119.3608,34.7519,连云港市,胡沟管理处,颗粒物(PM10),90,129,98,51,45,76,,88,88,32,31,13,9,1.1,0.7
2025-03-27T0800,3009A,119.1478,34.5911,连云港市,矿山设计院,颗粒物(PM10),129,207,144,46,46,67,,95,95,43,40,20,14,1.8,0.9
2025-03-27T0800,3434A,119.2413,34.6539,连云港市,工贸学校,颗粒物(PM10),117,183,143,52,57,81,,104,104,23,27,13,12,1.0,0.9
2025-03-27T0800,3664A,119.4172,34.7341,连云港市,连云街道,颗粒物(PM10),118,186,151,64,55,73,,96,96,30,43,13,10,0.9,0.6
2025-03-27T0800,2571A,102.3431,27.8099,凉山彝族自治州,青龙寺,,30,30,26,8,8,56,,63,63,9,9,6,7,0.9,0.7
2025-03-27T0800,2572A,102.2721,27.8415,凉山彝族自治州,邛海宾馆,,30,30,32,18,18,44,,44,44,34,24,4,6,0.5,0.5
2025-03-27T0800,2573A,102.2625,27.898,凉山彝族自治州,西昌市政府,,32,28,29,22,22,54,,71,71,28,14,13,12,1.0,0.7
2025-03-27T0800,2574A,102.2685,27.8851,凉山彝族自治州,凉山州政府,,40,40,37,19,20,18,,38,38,51,25,6,8,0.6,0.5
2025-03-27T0800,4229A,102.2342,27.8859,凉山彝族自治州,凯乐南路30号,颗粒物(PM10),54,57,43,24,22,6,,25,25,68,36,9,12,0.8,0.7
2025-03-27T0800,2212A,123.2,41.1953,辽阳市,宏伟区,细颗粒物(PM2.5),55,57,90,39,57,72,,76,76,12,20,11,15,1.1,1.3
2025-03-27T0800,2213A,123.1683,41.2495,辽阳市,新华园,细颗粒物(PM2.5),62,62,104,44,72,64,,64,64,17,35,9,16,0.9,1.3
2025-03-27T0800,2214A,123.2354,41.2639,辽阳市,滨河路,细颗粒物(PM2.5),67,71,90,48,58,63,,70,70,14,27,6,12,0.6,0.9
2025-03-27T0800,2215A,123.149,41.2991,辽阳市,铁西工业园,颗粒物(PM10),62,73,122,40,80,70,,64,64,17,38,9,15,0.8,1.3
2025-03-27T0800,2227A,125.1358,42.8845,辽源市,环保局,颗粒物(PM10),53,56,75,36,48,57,,69,69,17,27,14,6,0.7,0.9
2025-03-27T0800,3239A,125.0764,42.9078,辽源市,银鹰制药,细颗粒物(PM2.5),64,58,73,46,55,60,,71,71,13,29,4,12,0.8,1
2025-03-27T0800,1625A,115.9848,36.4372,聊城市,区政府,颗粒物(PM10),144,238,144,38,55,58,,50,50,30,35,8,12,0.5,0.8
2025-03-27T0800,2878A,116.0072,36.4343,聊城市,聊大东校,颗粒物(PM10),186,322,192,45,59,57,,46,46,25,33,8,11,0.5,0.8
2025-03-27T0800,3200A,115.9819,36.4978,聊城市,监控中心,颗粒物(PM10),172,294,176,31,60,56,,40,40,23,33,11,14,0.5,0.7
2025-03-27T0800,3513A,116.0445,36.4361,聊城市,九州社区,颗粒物(PM10),150,250,176,33,54,53,,43,43,32,35,10,14,0.5,0.7
2025-03-27T0800,4018A,116.0567,36.4608,聊城市,星美广场,颗粒物(PM10),143,236,170,42,51,43,,35,35,27,28,9,14,0.6,0.9
2025-03-27T0800,2632A,94.3681,29.6376,林芝市,林芝监测站,,18,,15,10,7,55,,72,72,7,5,4,4,0.2,0.1
2025-03-27T0800,2633A,94.3616,29.6616,林芝市,林芝人民医院,,17,17,18,10,6,52,,65,65,3,3,7,7,0.1,0
2025-03-27T0800,2603A,100.0781,23.8982,临沧市,市环保局,细颗粒物(PM2.5),67,60,45,48,31,66,,76,76,22,13,7,9,0.8,0.5
2025-03-27T0800,2604A,100.0894,23.8822,临沧市,市气象局,细颗粒物(PM2.5),78,63,46,57,38,74,,73,73,20,16,7,7,0.6,0.5
2025-03-27T0800,1733A,111.5531,36.0783,临汾市,临钢医院,颗粒物(PM10),420,520,469,56,80,93,,92,92,2,6,4,6,0.4,0.4
2025-03-27T0800,1734A,111.5028,36.0714,临汾市,技工学校,颗粒物(PM10),194,338,382,64,78,82,,82,82,4,9,4,7,0.4,0.5
2025-03-27T0800,1736A,111.5018,36.0855,临汾市,市委,颗粒物(PM10),315,432,441,72,99,84,,84,84,4,10,1,4,0.3,0.4
2025-03-27T0800,3018A,111.505,36.1014,临汾市,唐尧大酒店,颗粒物(PM10),239,377,395,72,80,81,,82,82,3,9,5,7,0.3,0.4
2025-03-27T0800,4244A,111.4879,36.0530,临汾市,启星学校,颗粒物(PM10),202,351,455,74,100,82,,82,82,1,6,2,3,0.2,0.3
2025-03-27T0800,4271A,103.2464,35.6123,临夏回族自治州,滨河东路1号,颗粒物(PM10),152,253,886,70,200,68,,76,76,4,4,4,6,0.3,0.2
2025-03-27T0800,4310A,103.2093,35.5995,临夏回族自治州,新华街21号,颗粒物(PM10),146,242,829,66,215,70,,77,77,8,6,10,10,0.3,0.3
2025-03-27T0800,1618A,118.3429,35.0532,临沂市,沂河小区,颗粒物(PM10),131,212,156,27,52,67,,82,82,19,16,9,13,0.6,0.7
2025-03-27T0800,1619A,118.295,35.0583,临沂市,鲁南制药厂,颗粒物(PM10),133,215,151,23,46,84,,100,100,20,26,8,14,0.3,0.4
2025-03-27T0800,1620A,118.2794,34.9976,临沂市,新光毛纺厂,颗粒物(PM10),128,205,147,25,44,69,,87,87,23,26,7,12,0.6,0.8
2025-03-27T0800,1621A,118.3956,35.0888,临沂市,河东保险公司,颗粒物(PM10),133,215,143,31,43,70,,84,84,27,27,5,10,0.4,0.5
2025-03-27T0800,3370A,118.3564,35.0215,临沂市,十里堡居委,颗粒物(PM10),150,249,157,27,41,72,,88,88,21,22,4,10,0.6,0.8
2025-03-27T0800,3496A,118.3604,35.1084,临沂市,南坊新区,颗粒物(PM10),130,210,147,31,44,70,,86,86,22,22,7,12,0.7,0.7
2025-03-27T0800,3860A,118.3920,35.0300,临沂市,皇山花园小区,,,,165,,45,,,87,87,,19,8,13,0.4,0.6
2025-03-27T0800,1870A,109.4856,24.3895,柳州市,柳东小学,,40,40,54,28,33,60,,84,84,19,14,12,11,0.5,0.4
2025-03-27T0800,1871A,109.4157,24.3277,柳州市,环保监测站,细颗粒物(PM2.5),55,45,67,39,38,71,,82,82,9,11,9,10,0.8,0.7
2025-03-27T0800,1872A,109.389,24.341,柳州市,河西水厂,,47,47,72,27,30,68,,77,77,10,13,5,6,0.5,0.5
2025-03-27T0800,1873A,109.4311,24.2921,柳州市,市四中,,35,34,60,24,32,72,,84,84,12,13,7,9,0.2,0.2
2025-03-27T0800,1874A,109.4006,24.3631,柳州市,市九中,颗粒物(PM10),59,67,76,37,34,70,,81,81,10,10,8,8,0.7,0.7
2025-03-27T0800,1875A,109.4958,24.3134,柳州市,古亭山,,42,34,62,29,35,72,,82,82,9,10,7,8,0.6,0.6
2025-03-27T0800,3402A,109.5422,24.3996,柳州市,市二中,,43,42,55,30,31,66,,82,82,12,11,11,13,0.4,0.3
2025-03-27T0800,2307A,116.5079,31.737,六安市,监测大楼,细颗粒物(PM2.5),113,144,68,85,50,63,,108,108,24,22,5,7,0.8,0.8
2025-03-27T0800,2308A,116.4738,31.7643,六安市,皖西学院,细颗粒物(PM2.5),107,151,76,80,48,61,,104,104,21,13,6,6,0.7,0.6
2025-03-27T0800,2309A,116.4996,31.7905,六安市,朝阳厂,细颗粒物(PM2.5),102,138,68,76,47,58,,99,99,23,16,4,6,0.7,0.7
2025-03-27T0800,2310A,116.5567,31.7886,六安市,开发区,颗粒物(PM10),108,165,89,76,50,65,,103,103,24,18,4,7,0.8,0.8
2025-03-27T0800,2576A,104.8,26.5892,六盘水市,窑上,,31,31,37,19,21,81,,122,122,29,6,7,6,0.6,0.4
2025-03-27T0800,2577A,104.83,26.5917,六盘水市,黄土坡,颗粒物(PM10),57,63,33,22,17,86,,110,110,34,12,15,10,0.8,0.4
2025-03-27T0800,2578A,104.89,26.5939,六盘水市,水钢,颗粒物(PM10),60,70,63,35,24,99,,114,114,17,10,13,10,0.3,0.4
2025-03-27T0800,2579A,104.8475,26.5894,六盘水市,民中,颗粒物(PM10),69,88,35,34,15,51,,82,82,45,14,17,9,0.9,0.4
2025-03-27T0800,2580A,104.9544,26.5506,六盘水市,双水,颗粒物(PM10),58,66,40,19,16,64,,88,88,24,14,12,10,0.7,0.5
2025-03-27T0800,2335A,117.0189,25.1181,龙岩市,龙岩师专,,,,,,,,,,,,,,,,
2025-03-27T0800,2336A,117.0217,25.1033,龙岩市,龙岩市监测站,"颗粒物(PM10),细颗粒物(PM2.5)",55,59,78,39,55,51,,65,65,29,25,11,12,0.6,0.9
2025-03-27T0800,2337A,117.0258,25.0661,龙岩市,闽西职业技术学院,细颗粒物(PM2.5),62,72,71,44,47,42,,58,58,39,24,66,36,0.7,0.6
2025-03-27T0800,2338A,117.0196,25.0306,龙岩市,龙岩学院,,,34,50,30,36,69,,79,79,11,10,,3,0.5,0.6
2025-03-27T0800,2665A,105.0822,33.3261,陇南市,汉王镇固水子,,,,,,,,,,,,,,,,
2025-03-27T0800,2885A,104.9339,33.3826,陇南市,滨江中学,颗粒物(PM10),253,387,293,91,76,79,,83,83,2,7,6,7,0.4,0.4
2025-03-27T0800,3247A,104.955,33.371,陇南市,市总工会,颗粒物(PM10),206,354,301,100,98,83,,87,87,2,6,7,8,0.3,0.4
2025-03-27T0800,2487A,111.9589,27.8901,娄底市,电视发射台,"颗粒物(PM10),细颗粒物(PM2.5)",73,96,99,53,54,34,,39,39,11,11,6,8,0.7,0.7
2025-03-27T0800,2488A,111.9975,27.725,娄底市,市监测站,细颗粒物(PM2.5),95,93,84,71,62,27,,72,72,78,30,14,14,0.9,0.7
2025-03-27T0800,2489A,112.0194,27.7314,娄底市,市委党校,细颗粒物(PM2.5),89,83,83,66,62,87,,101,101,15,11,3,4,0.8,0.7
2025-03-27T0800,2490A,111.9561,27.7569,娄底市,涟钢,细颗粒物(PM2.5),92,95,98,68,64,13,,33,33,24,29,3,25,1.2,1.2
2025-03-27T0800,2491A,111.9892,27.7044,娄底市,市政府,细颗粒物(PM2.5),104,106,80,78,59,49,,89,89,20,8,11,10,0.6,0.4
2025-03-27T0800,1893A,105.4324,28.9634,泸州市,九狮山,,,,,,,,,,,,,,,,
2025-03-27T0800,1894A,105.4427,28.9063,泸州市,小市上码头,细颗粒物(PM2.5),89,96,87,66,60,94,,108,108,32,32,15,11,0.8,0.7
2025-03-27T0800,1895A,105.4241,28.8573,泸州市,兰田宪桥,细颗粒物(PM2.5),105,88,86,79,69,51,,78,78,35,26,13,11,0.8,0.7
2025-03-27T0800,1896A,105.4379,28.8833,泸州市,市环监站,,,,,,,,,,,,,,,,
2025-03-27T0800,4272A,105.3689,28.7783,泸州市,纳溪中医医院,细颗粒物(PM2.5),80,95,105,59,52,36,,51,51,35,33,12,10,1.0,0.8
2025-03-27T0800,2183A,111.1406,37.5211,吕梁市,环保局,颗粒物(PM10),185,319,428,72,104,78,,80,80,5,7,1,3,0.3,0.3
2025-03-27T0800,2185A,111.1297,37.5136,吕梁市,自来水公司,颗粒物(PM10),181,311,420,64,95,82,,83,83,6,8,3,2,0.2,0.2
2025-03-27T0800,2867A,111.1283,37.51,吕梁市,马茂庄小学,颗粒物(PM10),199,347,473,84,120,82,,83,83,6,9,3,2,0.2,0.3
2025-03-27T0800,1812A,112.3931,34.6516,洛阳市,市委党校,颗粒物(PM10),171,291,230,62,71,53,,60,60,30,31,5,8,0.6,0.7
2025-03-27T0800,1815A,112.494,34.6886,洛阳市,河南林校,颗粒物(PM10),156,261,244,59,75,58,,57,57,23,25,5,8,0.7,0.8
2025-03-27T0800,1816A,112.3844,34.623,洛阳市,开发区管委会,颗粒物(PM10),137,224,239,70,79,59,,70,70,31,27,7,10,0.4,0.5
2025-03-27T0800,1817A,112.4267,34.6258,洛阳市,市委新办公区,颗粒物(PM10),140,230,222,71,65,59,,65,65,33,31,7,9,0.4,0.8
2025-03-27T0800,3340A,112.6005,34.6326,洛阳市,伊滨,颗粒物(PM10),109,167,212,63,74,37,,51,51,49,32,10,11,1.0,0.8
2025-03-27T0800,3341A,112.4951,34.6332,洛阳市,中移产业园,,,,276,71,85,38,,50,50,44,30,10,11,0.7,0.7
2025-03-27T0800,3593A,112.5736,34.8993,洛阳市,吉利监测站,颗粒物(PM10),166,281,211,54,73,64,,43,43,25,33,8,12,0.6,0.6
2025-03-27T0800,3635A,112.3677,34.662,洛阳市,河科大西苑校区,颗粒物(PM10),167,283,239,60,62,48,,58,58,34,32,8,11,0.4,0.6
2025-03-27T0800,3636A,112.4388,34.6781,洛阳市,英才小学,颗粒物(PM10),175,300,238,69,70,60,,65,65,28,32,8,12,0.6,0.7
2025-03-27T0800,4214A,112.4600,34.6949,洛阳市,春都路1号院,颗粒物(PM10),160,270,241,56,59,46,,60,60,42,31,8,10,0.8,0.8
2025-03-27T0800,2399A,114.051,33.5699,漯河市,三五一五工厂,颗粒物(PM10),129,208,158,64,57,66,,84,84,21,14,6,7,0.5,0.5
2025-03-27T0800,2400A,114.0055,33.5698,漯河市,漯河大学,颗粒物(PM10),126,201,146,53,48,68,,88,88,24,17,6,8,0.6,0.5
2025-03-27T0800,2401A,114.0138,33.5828,漯河市,市水利局,颗粒物(PM10),133,215,158,63,51,66,,87,87,20,15,4,6,0.6,0.4
2025-03-27T0800,2402A,114.0261,33.5698,漯河市,市广电局,颗粒物(PM10),124,198,149,53,50,65,,84,84,19,14,5,7,0.5,0.5
2025-03-27T0800,3478A,113.9749,33.5664,漯河市,市图书馆,颗粒物(PM10),118,186,140,56,50,69,,92,92,21,17,5,6,0.6,0.6
2025-03-27T0800,4250A,114.0892,33.5882,漯河市,韶山路11号,颗粒物(PM10),112,174,138,59,55,65,,83,83,21,16,5,6,0.6,0.6
2025-03-27T0800,1798A,118.5092,31.6837,马鞍山市,湖东路四小,细颗粒物(PM2.5),80,,83,59,49,82,,96,96,24,24,11,12,1.6,1
2025-03-27T0800,1799A,118.5024,31.6449,马鞍山市,开发区,细颗粒物(PM2.5),103,,87,77,58,79,,86,86,29,38,4,8,0.9,1
2025-03-27T0800,1802A,118.6245,31.7241,马鞍山市,濮塘,,46,39,79,32,50,104,,99,99,14,17,8,12,1.0,1
2025-03-27T0800,3633A,118.4918,31.6809,马鞍山市,雨山,细颗粒物(PM2.5),70,,82,51,53,81,,84,84,22,30,8,12,1.3,1.2
2025-03-27T0800,4191A,118.5274,31.72227,马鞍山市,慈湖高新区,细颗粒物(PM2.5),67,82,91,48,50,80,,93,93,28,33,11,10,1.1,1
2025-03-27T0800,1686A,111.0286,21.4688,茂名市,电白南海,,45,36,34,31,21,40,,39,39,10,7,1,1,0.7,0.6
2025-03-27T0800,1687A,110.9294,21.6533,茂名市,茂石化七小,,34,34,34,19,14,42,,46,46,6,3,1,1,0.8,0.7
2025-03-27T0800,1688A,110.9107,21.6687,茂名市,健康路,,31,31,32,14,12,53,,57,57,8,6,2,2,0.6,0.5
2025-03-27T0800,1689A,110.8592,21.6828,茂名市,高岭,,39,39,45,17,13,52,,56,56,7,7,4,4,0.5,0.5
2025-03-27T0800,3450A,111.01,21.5165,茂名市,电白水东,,29,29,23,12,9,44,,48,48,4,3,2,2,0.4,0.3
2025-03-27T0800,2539A,104.0308,30.0478,眉山市,黑龙滩水库,颗粒物(PM10),53,56,43,35,27,22,,34,34,13,10,3,5,0.7,0.7
2025-03-27T0800,2540A,103.8416,30.0874,眉山市,气象局,细颗粒物(PM2.5),113,130,110,85,64,4,,49,49,59,41,7,10,1.1,0.8
2025-03-27T0800,3137A,103.8578,30.0744,眉山市,市委党校,细颗粒物(PM2.5),89,107,87,66,54,8,,47,47,75,42,15,19,0.9,0.7
2025-03-27T0800,3148A,103.8291,30.0564,眉山市,区人社局,细颗粒物(PM2.5),92,110,72,68,52,4,,68,68,86,46,18,20,1.2,0.8
2025-03-27T0800,1690A,116.1231,24.3284,梅州市,梅江月梅,,49,,46,34,35,37,,52,52,16,14,7,6,0.5,0.5
2025-03-27T0800,1691A,116.0797,24.2719,梅州市,梅县新城,,46,37,50,32,30,20,,22,22,28,23,8,7,0.5,0.5
2025-03-27T0800,1692A,116.1248,24.2654,梅州市,环境监控中心,,45,31,52,31,36,27,,38,38,28,28,7,9,0.6,0.7
2025-03-27T0800,3315A,116.1233,24.2991,梅州市,梅龙,,43,41,48,30,30,35,,49,49,21,16,19,10,0.7,0.6
2025-03-27T0800,1878A,104.7778,31.4741,绵阳市,富乐山,颗粒物(PM10),130,210,64,66,37,86,,75,75,9,24,3,5,0.4,0.6
2025-03-27T0800,1880A,104.6697,31.4668,绵阳市,高新区自来水公司,颗粒物(PM10),167,283,98,88,40,78,,70,70,16,43,3,5,0.3,0.5
2025-03-27T0800,1881A,104.7287,31.5075,绵阳市,三水厂,颗粒物(PM10),128,206,89,66,45,86,,61,61,10,39,6,8,0.4,0.6
2025-03-27T0800,3491A,104.69,31.5322,绵阳市,西科大附属小学,颗粒物(PM10),164,278,87,83,42,85,,81,81,11,37,6,8,0.4,0.6
2025-03-27T0800,3492A,104.5648,31.5343,绵阳市,安州区旅游局,颗粒物(PM10),159,267,83,75,34,69,,66,66,21,29,12,11,0.3,0.5
2025-03-27T0800,4226A,104.7651,31.4531,绵阳市,绵阳市气象局,颗粒物(PM10),196,342,87,73,37,80,,67,67,10,36,4,6,0.4,0.6
2025-03-27T0800,1784A,129.61,44.561,牡丹江市,环保大楼,细颗粒物(PM2.5),54,45,49,38,37,53,,56,56,18,21,6,6,0.4,0.4
2025-03-27T0800,1785A,129.6115,44.5782,牡丹江市,文化广场,细颗粒物(PM2.5),60,46,45,43,36,50,,55,55,20,23,14,12,0.6,0.5
2025-03-27T0800,1786A,129.5904,44.5963,牡丹江市,第一医院,,36,33,36,25,39,42,,57,57,29,21,14,11,0.3,0.2
2025-03-27T0800,1787A,129.6364,44.6075,牡丹江市,机车工厂,细颗粒物(PM2.5),72,55,54,52,39,44,,34,34,24,20,14,29,0.6,0.6
2025-03-27T0800,1788A,129.6386,44.5462,牡丹江市,第一中学,,40,34,39,28,31,57,,47,47,15,17,9,8,0.5,0.5
2025-03-27T0800,2531A,105.0703,29.61,内江市,市监测站,细颗粒物(PM2.5),70,68,55,51,45,73,,106,106,46,29,10,11,0.4,0.3
2025-03-27T0800,2532A,105.0717,29.5947,内江市,东兴区政府,细颗粒物(PM2.5),72,82,59,52,41,24,,92,92,68,34,9,10,1.1,0.7
2025-03-27T0800,2533A,105.0653,29.5817,内江市,内江二中,细颗粒物(PM2.5),79,70,64,58,46,19,,92,92,74,33,12,13,0.9,0.5
2025-03-27T0800,2534A,105.0406,29.5822,内江市,内江日报社,细颗粒物(PM2.5),75,,60,55,44,77,,91,91,39,30,14,12,0.8,0.6
2025-03-27T0800,2628A,92.0657,31.4846,那曲市,那曲监测站,颗粒物(PM10),66,82,40,46,19,30,,48,48,49,17,22,9,1.7,1
2025-03-27T0800,4243A,92.0515,31.4787,那曲市,那曲市委宣传部,细颗粒物(PM2.5),104,85,43,78,19,19,,57,57,41,16,16,6,1.6,0.8
2025-03-27T0800,1290A,115.8931,28.6843,南昌市,省外办,颗粒物(PM10),51,51,82,31,56,85,,78,78,31,32,7,11,0.9,0.9
2025-03-27T0800,1291A,115.8886,28.7003,南昌市,省林业公司,颗粒物(PM10),53,56,80,36,52,72,,84,84,32,23,10,12,0.5,0.2
2025-03-27T0800,1292A,115.8126,28.7442,南昌市,林科所,颗粒物(PM10),56,61,78,39,50,65,,72,72,33,43,3,6,0.4,0.4
2025-03-27T0800,1294A,115.8518,28.687,南昌市,建工学校,,47,47,85,32,59,89,,82,82,26,30,4,8,0.9,0.8
2025-03-27T0800,1295A,115.8921,28.6424,南昌市,象湖,,46,46,81,29,51,98,,85,85,19,23,6,11,0.9,0.9
2025-03-27T0800,1296A,115.7423,28.7996,南昌市,武术学校,,48,48,62,27,43,43,,56,56,11,11,11,13,0.7,0.8
2025-03-27T0800,3046A,115.9084,28.6062,南昌市,机电学校,颗粒物(PM10),51,52,89,29,53,93,,76,76,19,24,6,11,0.8,0.8
2025-03-27T0800,3690A,115.9721,28.7031,南昌市,外国语学校,,44,44,80,28,51,107,,106,106,12,20,2,7,0.3,0.3
2025-03-27T0800,4192A,115.9316,28.68677,南昌市,南京东路235号,颗粒物(PM10),59,67,103,30,51,96,,97,97,24,28,6,9,0.9,0.8
2025-03-27T0800,1905A,106.056,30.8064,南充市,西山风景区,颗粒物(PM10),154,258,51,87,32,92,,124,124,7,9,6,7,0.2,0.4
2025-03-27T0800,1906A,106.0789,30.8023,南充市,南充市委,颗粒物(PM10),100,149,75,50,44,72,,82,82,26,39,6,6,0.6,0.8
2025-03-27T0800,1907A,106.1031,30.8217,南充市,南充炼油厂,颗粒物(PM10),144,238,72,90,43,78,,95,95,14,25,7,7,0.4,0.5
2025-03-27T0800,1909A,106.0642,30.7636,南充市,嘉陵区环保局,颗粒物(PM10),166,281,82,92,43,74,,59,59,16,53,6,7,0.3,0.7
2025-03-27T0800,4227A,106.1083,30.7884,南充市,梨树横街98号,颗粒物(PM10),87,124,65,24,25,81,,87,87,17,31,8,8,0.4,0.5
2025-03-27T0800,4304A,106.1172,30.843,南充市,清泉寺北路188号,颗粒物(PM10),157,264,74,77,39,85,,101,101,15,21,10,10,0.3,0.4
2025-03-27T0800,1151A,118.8086,32.1065,南京市,迈皋桥,颗粒物(PM10),80,110,73,39,46,110,,94,94,26,32,4,6,0.5,0.9
2025-03-27T0800,1152A,118.7538,32.0551,南京市,草场门,颗粒物(PM10),96,141,77,44,44,109,,100,100,20,26,8,13,0.7,1
2025-03-27T0800,1153A,118.7794,32.0745,南京市,山西路,,,,96,48,42,79,,75,75,35,29,4,6,0.6,1.1
2025-03-27T0800,1154A,118.7752,32.0023,南京市,中华门,颗粒物(PM10),101,151,73,46,43,89,,86,86,13,18,11,13,0.5,0.8
2025-03-27T0800,1155A,118.8109,32.0309,南京市,瑞金路,颗粒物(PM10),92,134,87,44,44,97,,72,72,21,43,7,6,0.6,0.8
2025-03-27T0800,1156A,118.7997,32.0754,南京市,玄武湖,颗粒物(PM10),75,100,82,46,41,104,,91,91,19,20,6,10,0.6,0.9
2025-03-27T0800,1157A,118.6414,32.0931,南京市,浦口,颗粒物(PM10),78,106,81,48,40,113,,106,106,19,22,11,11,0.6,0.6
2025-03-27T0800,1158A,118.7356,31.9996,南京市,奥体中心,颗粒物(PM10),96,142,80,46,44,103,,92,92,24,27,8,12,0.6,0.9
2025-03-27T0800,1159A,118.9125,32.1028,南京市,仙林大学城,颗粒物(PM10),81,112,86,44,47,104,,88,88,22,31,12,13,0.9,1.1
2025-03-27T0800,3422A,118.8436,31.9198,南京市,江宁彩虹桥,细颗粒物(PM2.5),64,58,83,46,44,99,,83,83,18,43,4,4,0.8,0.7
2025-03-27T0800,3427A,118.8554,32.3578,南京市,六合雄州,颗粒物(PM10),68,85,90,42,45,98,,60,60,11,27,6,11,0.5,0.9
2025-03-27T0800,4249A,118.8708,31.3402,南京市,汶溪路181号,,35,,42,22,40,109,,126,126,12,16,6,6,1.0,0.9
2025-03-27T0800,4312A,119.019,31.6512,南京市,中山西路1号,,38,,48,26,42,110,,116,116,15,15,4,6,0.6,0.6
2025-03-27T0800,1401A,108.3103,22.7881,南宁市,二十一中,,34,34,43,17,22,49,,62,62,24,17,8,9,0.6,0.6
2025-03-27T0800,1402A,108.3141,22.8528,南宁市,北湖,,34,34,43,20,25,32,,49,49,28,18,6,9,0.5,0.5
2025-03-27T0800,1403A,108.3206,22.8225,南宁市,市监测站,,35,35,46,20,25,50,,61,61,20,16,9,9,0.5,0.6
2025-03-27T0800,1404A,108.3829,22.8037,南宁市,大自然花园,,32,32,43,20,28,53,,65,65,16,12,7,8,0.8,0.8
2025-03-27T0800,1405A,108.4394,22.7904,南宁市,仙葫,,32,31,41,22,23,28,,53,53,33,14,3,5,0.4,0.4
2025-03-27T0800,1406A,108.2397,22.8467,南宁市,区农职院,,39,39,50,22,26,20,,43,43,33,21,4,7,0.7,0.7
2025-03-27T0800,1407A,108.3275,22.735,南宁市,英华嘉园,颗粒物(PM10),55,60,43,25,22,11,,51,51,54,20,9,11,0.9,0.5
2025-03-27T0800,3401A,108.4834,22.7618,南宁市,红星社区,,33,26,41,23,25,28,,51,51,26,14,8,11,0.7,0.7
2025-03-27T0800,4221A,108.2177,22.7774,南宁市,乐贤路16号,颗粒物(PM10),58,65,54,24,26,15,,33,33,48,23,11,10,0.6,0.6
2025-03-27T0800,2331A,118.0966,26.6761,南平市,茫荡山,,,,,,,,,,,,,,,,
2025-03-27T0800,2332A,118.1681,26.6369,南平市,南平市监测站,,,,83,,68,,,16,16,,32,4,3,1.3,1.3
2025-03-27T0800,2333A,118.1825,26.6489,南平市,南平铝业有限公司,细颗粒物(PM2.5),82,68,85,60,67,29,,22,22,25,35,5,9,1.0,1.2
2025-03-27T0800,2334A,118.1756,26.6272,南平市,南平七中,细颗粒物(PM2.5),80,,78,59,60,17,,26,26,33,27,4,6,0.9,1
2025-03-27T0800,1168A,120.9098,31.9663,南通市,狼山街道,,48,48,84,30,50,57,,58,58,37,60,6,10,0.9,0.8
2025-03-27T0800,1169A,120.86,32.0005,南通市,虹桥,颗粒物(PM10),64,77,92,41,56,55,,75,75,50,55,7,10,1.3,0.9
2025-03-27T0800,1170A,120.87,32.02,南通市,城中,细颗粒物(PM2.5),68,70,95,49,51,63,,76,76,39,48,8,11,1.3,0.9
2025-03-27T0800,1171A,120.94,31.93,南通市,星湖花园,细颗粒物(PM2.5),57,54,88,40,54,53,,60,60,52,62,8,10,0.9,0.6
2025-03-27T0800,1172A,120.81,32.0417,南通市,紫琅学院,细颗粒物(PM2.5),75,72,94,55,55,60,,65,65,33,45,5,7,1.5,1.2
2025-03-27T0800,3291A,121.067,32.062,南通市,通州监测站,细颗粒物(PM2.5),85,73,88,63,51,67,,78,78,34,40,6,8,1.2,0.9
2025-03-27T0800,3432A,120.9348,31.9883,南通市,环境教育馆,"颗粒物(PM10),细颗粒物(PM2.5)",52,53,93,36,52,72,,62,62,28,57,6,11,0.6,0.6
2025-03-27T0800,2404A,112.5224,33.0122,南阳市,瓦房庄,颗粒物(PM10),137,224,136,47,47,95,,106,106,10,12,2,5,0.5,0.6
2025-03-27T0800,2405A,112.5003,32.9735,南阳市,汉画馆,颗粒物(PM10),142,234,139,49,47,93,,103,103,15,18,6,8,0.4,0.5
2025-03-27T0800,2406A,112.5573,33.027,南阳市,气象站,颗粒物(PM10),149,248,143,46,46,91,,101,101,14,16,8,9,0.5,0.6
2025-03-27T0800,2407A,112.5481,32.9689,南阳市,理工学院,颗粒物(PM10),142,234,146,47,46,94,,100,100,12,14,4,7,0.4,0.5
2025-03-27T0800,4008A,112.5234,32.9922,南阳市,卧龙区政府,颗粒物(PM10),154,258,152,39,51,97,,109,109,11,14,5,8,0.4,0.5
2025-03-27T0800,1234A,121.8358,29.911,宁波市,区环保大楼,颗粒物(PM10),67,84,91,35,35,12,,11,11,73,72,14,13,0.8,0.8
2025-03-27T0800,1235A,121.56,29.82,宁波市,万里学院,细颗粒物(PM2.5),62,68,74,44,47,56,,84,84,39,27,10,12,0.8,0.8
2025-03-27T0800,1236A,121.713,29.9572,宁波市,龙赛医院,颗粒物(PM10),72,93,95,45,46,55,,47,47,52,60,14,13,0.9,0.8
2025-03-27T0800,1239A,121.633,29.7733,宁波市,钱湖水厂,,50,50,61,32,40,74,,91,91,15,19,8,9,0.7,0.7
2025-03-27T0800,1240A,121.5856,29.8635,宁波市,太古小学,颗粒物(PM10),67,84,79,42,42,58,,82,82,38,26,9,10,1.1,0.9
2025-03-27T0800,1241A,121.524,29.8674,宁波市,市环境监测中心,细颗粒物(PM2.5),79,96,79,58,51,47,,74,74,56,40,9,10,1.1,1
2025-03-27T0800,2871A,121.6147,29.9017,宁波市,万里国际学校,,,102,77,53,42,,,89,89,44,23,,10,1.0,0.7
2025-03-27T0800,3710A,121.5594,29.8975,宁波市,白沙活动中心,细颗粒物(PM2.5),75,80,68,55,43,47,,83,83,48,28,8,9,0.8,0.7
2025-03-27T0800,2339A,119.5001,26.6946,宁德市,金涵水库,,,,,,,,,,,,,,,,
2025-03-27T0800,2341A,119.5388,26.6612,宁德市,宁德市监测站,细颗粒物(PM2.5),79,60,74,58,61,12,,12,12,49,43,4,6,0.8,0.8
2025-03-27T0800,3209A,119.5231,26.6562,宁德市,宁德一中,细颗粒物(PM2.5),73,55,76,53,58,40,,56,56,24,24,6,7,0.7,0.7
2025-03-27T0800,2618A,98.8601,25.8567,怒江傈僳族自治州,州监测站,,26,24,30,18,19,47,,67,67,9,6,4,5,0.4,0.4
2025-03-27T0800,2619A,98.8546,25.8417,怒江傈僳族自治州,泸水一中,,22,18,28,15,18,31,,47,47,17,12,6,6,0.4,0.4
2025-03-27T0800,1888A,101.6891,26.571,攀枝花市,弄弄坪,颗粒物(PM10),70,89,45,28,22,13,,59,59,68,33,21,22,2.5,1.6
2025-03-27T0800,1889A,101.5769,26.5928,攀枝花市,河门口,颗粒物(PM10),56,62,39,26,18,26,,44,44,41,23,17,16,1.0,0.6
2025-03-27T0800,1890A,101.7169,26.585,攀枝花市,炳草岗,颗粒物(PM10),65,79,38,39,19,7,,34,34,64,36,16,14,0.8,0.6
2025-03-27T0800,1891A,101.7369,26.5008,攀枝花市,仁和,,38,38,27,19,17,58,,69,69,21,17,8,9,0.6,0.5
2025-03-27T0800,2835A,101.7227,26.567,攀枝花市,四十中小,,37,37,42,17,22,34,,77,77,49,25,19,13,0.4,0.2
2025-03-27T0800,1604A,122.0303,41.1489,盘锦市,开发区,,50,50,81,33,60,67,,72,72,14,28,11,15,0.6,0.7
2025-03-27T0800,1605A,122.0485,41.0883,盘锦市,兴隆台,,42,42,82,26,60,66,,74,74,17,31,4,7,0.6,0.7
2025-03-27T0800,1606A,121.8297,41.1028,盘锦市,新生街道,,34,34,77,23,57,64,,54,54,21,37,7,9,0.6,0.7
2025-03-27T0800,1832A,113.3257,33.742,平顶山市,新华旅馆,颗粒物(PM10),109,168,151,39,40,74,,88,88,21,19,6,7,0.5,0.5
2025-03-27T0800,1833A,113.2919,33.737,平顶山市,规划设计院,颗粒物(PM10),114,177,143,37,48,80,,94,94,17,16,6,8,0.5,0.4
2025-03-27T0800,1834A,113.182,33.774,平顶山市,平顶山工学院,颗粒物(PM10),119,188,142,36,46,80,,91,91,23,10,5,10,0.8,0.7
2025-03-27T0800,3204A,113.3025,33.73,平顶山市,规划局,颗粒物(PM10),123,195,164,46,55,82,,93,93,17,16,6,7,0.6,0.6
2025-03-27T0800,3594A,112.8867,33.9116,平顶山市,石龙区,颗粒物(PM10),138,226,210,41,56,77,,86,86,21,30,11,17,0.3,0.4
2025-03-27T0800,2656A,106.6692,35.5461,平凉市,聚贤嘉苑,颗粒物(PM10),120,189,395,40,78,90,,92,92,4,4,9,8,0.3,0.3
2025-03-27T0800,2657A,106.7021,35.5307,平凉市,博物馆,颗粒物(PM10),109,167,392,36,74,86,,88,88,5,5,15,16,0.4,0.4
2025-03-27T0800,2347A,114.0997,27.5002,萍乡市,武功山,细颗粒物(PM2.5),68,49,59,49,49,80,,112,112,17,8,14,16,0.7,0.7
2025-03-27T0800,2348A,113.8385,27.6434,萍乡市,中医院,颗粒物(PM10),64,77,78,42,47,47,,107,107,47,16,20,13,1.8,1.1
2025-03-27T0800,2349A,113.8493,27.6253,萍乡市,市政府车库,细颗粒物(PM2.5),64,71,66,46,56,57,,108,108,36,15,11,8,1.2,0.8
2025-03-27T0800,2350A,113.8676,27.6435,萍乡市,市环保局,细颗粒物(PM2.5),78,87,79,57,58,60,,108,108,40,14,17,11,1.3,0.8
2025-03-27T0800,2351A,113.866,27.6198,萍乡市,安源区政府,细颗粒物(PM2.5),70,82,77,51,47,46,,107,107,46,17,16,17,1.0,0.8
2025-03-27T0800,2319A,119.0141,25.4325,莆田市,荔城区仓后路,,50,43,60,35,26,44,,47,47,16,20,2,3,0.6,0.5
2025-03-27T0800,2320A,119.0015,25.4553,莆田市,莆田市监测站,,46,38,56,32,29,39,,33,33,18,18,4,5,0.5,0.5
2025-03-27T0800,2321A,119.1119,25.4561,莆田市,涵江区六中,,36,29,53,25,30,38,,39,39,24,24,5,6,0.5,0.4
2025-03-27T0800,2322A,119.1013,25.3215,莆田市,秀屿区政府,,39,39,38,27,18,49,,52,52,14,14,9,6,0.4,0.4
2025-03-27T0800,2323A,118.981,25.4792,莆田市,东圳水库,,,,,,,,,,,,,,,,
2025-03-27T0800,2392A,115.0312,35.7636,濮阳市,环保局,颗粒物(PM10),119,187,130,34,52,61,,72,72,26,25,4,6,0.7,0.8
2025-03-27T0800,2394A,115.0574,35.7609,濮阳市,油田运输公司,颗粒物(PM10),131,212,156,33,52,64,,71,71,21,21,4,7,0.9,1
2025-03-27T0800,3021A,115,35.7668,濮阳市,濮水河管理处,颗粒物(PM10),134,218,173,29,52,65,,68,68,30,31,5,8,0.7,0.7
2025-03-27T0800,4216A,115.0924,35.7686,濮阳市,任丘路479号,颗粒物(PM10),121,192,161,44,54,66,,73,73,23,22,6,8,0.7,1
2025-03-27T0800,2601A,100.98,22.7633,普洱市,市环保局,颗粒物(PM10),68,86,77,36,32,48,,65,65,20,14,4,4,0.9,0.7
2025-03-27T0800,2602A,100.9817,22.8322,普洱市,普洱第二中学,,,,,38,38,27,,27,27,32,26,6,6,0.6,0.4
2025-03-27T0800,2262A,131.0518,45.8751,七台河市,新一中,,28,22,67,19,52,63,,68,68,13,19,11,15,0.6,0.7
2025-03-27T0800,3345A,131.0577,45.7879,七台河市,中波台,,28,23,61,19,49,48,,54,54,15,23,6,9,0.4,0.6
2025-03-27T0800,3637A,131.0176,45.7761,七台河市,人民广场,,50,38,78,35,45,49,,60,60,14,20,7,9,0.6,0.7
2025-03-27T0800,3684A,130.8781,45.8222,七台河市,新建矿广场,,50,36,65,35,48,31,,40,40,31,23,18,13,0.7,0.7
2025-03-27T0800,1779A,123.9305,47.3636,齐齐哈尔市,安居小区,,,11,39,,46,80,,76,76,6,12,3,4,0.2,0.3
2025-03-27T0800,1780A,123.9488,47.3386,齐齐哈尔市,中心广场,,,,45,,24,74,,72,72,6,12,7,6,0.3,0.4
2025-03-27T0800,1781A,123.9483,47.3227,齐齐哈尔市,农牧车辆厂,,25,17,37,8,20,79,,78,78,6,11,4,6,0.2,0.3
2025-03-27T0800,1783A,123.945,47.2988,齐齐哈尔市,市环境监测站,,25,25,40,6,23,78,,75,75,5,11,2,3,0.3,0.4
2025-03-27T0800,3662A,123.6333,47.2075,齐齐哈尔市,富区青少年活动中心,,23,23,38,7,22,68,,69,69,7,8,6,6,0.4,0.4
2025-03-27T0800,2591A,107.9783,26.5747,黔东南苗族侗族自治州,市环境监测站,细颗粒物(PM2.5),84,75,63,62,51,88,,127,127,27,9,5,4,0.8,0.5
2025-03-27T0800,2881A,107.8908,26.5311,黔东南苗族侗族自治州,凯里学院,细颗粒物(PM2.5),105,105,71,79,55,104,,128,128,14,6,6,4,0.7,0.5
2025-03-27T0800,2593A,107.5228,26.2403,黔南布依族苗族自治州,小围寨,细颗粒物(PM2.5),67,58,58,48,42,123,,134,134,8,7,8,5,0.9,0.9
2025-03-27T0800,3538A,107.5175,26.2978,黔南布依族苗族自治州,沙坝,细颗粒物(PM2.5),67,66,61,48,42,111,,121,121,10,11,8,5,0.7,0.7
2025-03-27T0800,2589A,104.9022,25.0925,黔西南布依族苗族自治州,场坝街,,40,32,40,25,26,125,,136,136,11,9,3,3,0.4,0.3
2025-03-27T0800,2590A,104.8811,25.0992,黔西南布依族苗族自治州,坪东大道,,45,34,33,31,25,128,,128,128,12,13,2,2,0.3,0.3
2025-03-27T0800,2502A,108.6236,21.9667,钦州市,市环保站,,39,39,42,12,13,49,,54,54,21,18,10,9,0.7,0.6
2025-03-27T0800,2503A,108.6549,21.9481,钦州市,沙埠小学,,44,44,45,20,14,43,,46,46,22,17,13,8,0.9,0.7
2025-03-27T0800,2504A,108.5989,21.7431,钦州市,港区一小,,41,41,53,19,15,47,,53,53,25,20,9,7,0.6,0.6
2025-03-27T0800,3404A,108.5959,21.9633,钦州市,北职校,,41,41,45,20,15,42,,54,54,23,18,12,11,0.8,0.7
2025-03-27T0800,1043A,119.7493,40.0116,秦皇岛市,第一关,颗粒物(PM10),77,103,187,36,61,66,,62,62,17,36,4,5,0.2,0.4
2025-03-27T0800,1044A,119.5897,39.9499,秦皇岛市,监测站,颗粒物(PM10),60,69,168,22,50,76,,82,82,6,28,3,4,0.2,0.4
2025-03-27T0800,1046A,119.5251,39.9041,秦皇岛市,建设大厦,颗粒物(PM10),65,79,184,31,51,69,,61,61,18,35,3,4,0.2,0.5
2025-03-27T0800,3132A,119.610547,39.943889,秦皇岛市,文明里,颗粒物(PM10),69,87,186,21,41,70,,76,76,15,31,3,4,0.2,0.4
2025-03-27T0800,4198A,119.5090,39.8253,秦皇岛市,北戴河轮滑馆,颗粒物(PM10),81,112,163,28,50,67,,68,68,11,18,5,6,0.2,0.4
2025-03-27T0800,1307A,120.6659,36.2403,青岛市,仰口,颗粒物(PM10),209,356,175,56,43,98,,115,115,8,10,4,4,0.5,0.6
2025-03-27T0800,1310A,120.4134,36.0658,青岛市,市南区东部子站,颗粒物(PM10),144,237,160,39,39,78,,83,83,23,19,8,9,0.6,0.6
2025-03-27T0800,1311A,120.3664,36.1032,青岛市,四方区子站,颗粒物(PM10),126,202,145,53,48,69,,82,82,42,34,7,7,0.9,0.9
2025-03-27T0800,1312A,120.2994,36.054,青岛市,市南区西部子站,颗粒物(PM10),123,195,145,42,38,79,,76,76,24,23,8,8,0.8,0.8
2025-03-27T0800,1313A,120.4581,36.0858,青岛市,崂山区子站,颗粒物(PM10),139,227,146,36,37,86,,94,94,19,17,9,10,0.6,0.7
2025-03-27T0800,1315A,120.3999,36.3083,青岛市,城阳区子站,颗粒物(PM10),126,202,147,37,39,73,,78,78,31,37,9,10,0.8,0.8
2025-03-27T0800,1966A,120.0405,35.8735,青岛市,黄岛区4号,颗粒物(PM10),139,227,152,53,39,80,,89,89,28,25,12,10,1.0,0.8
2025-03-27T0800,3362A,120.5014,36.4034,青岛市,即墨2号,颗粒物(PM10),131,211,169,47,42,69,,84,84,24,18,10,9,0.8,0.7
2025-03-27T0800,3642A,120.3503,36.0736,青岛市,市北区南部,颗粒物(PM10),106,162,151,41,45,54,,61,61,29,22,7,9,0.8,0.8
2025-03-27T0800,3643A,120.3948,36.1805,青岛市,李沧区北部,颗粒物(PM10),144,237,159,51,52,75,,81,81,28,28,9,10,0.7,0.7
2025-03-27T0800,4290A,120.1969,35.9546,青岛市,珠江路669号,颗粒物(PM10),137,224,160,54,45,51,,72,72,52,36,10,9,1.0,0.8
2025-03-27T0800,1702A,113.0426,23.691,清远市,环保大楼,,47,47,41,28,30,36,,46,46,23,17,2,2,0.7,0.7
