timepoint,stationcode,longitude,latitude,area,positionname,primarypollutant,aqi,pm10,pm10_24h,pm2_5,pm2_5_24h,o3,o3_24h,o3_8h,o3_8h_24h,no2,no2_24h,so2,so2_24h,co,co_24h
2025-09-04T2100,2566A,102.1879,31.914,阿坝藏族羌族自治州,州农科所,,20,20,12,10,6,23,,42,38,9,7,3,3,0.3,0.2
2025-09-04T2100,2568A,102.2502,31.8896,阿坝藏族羌族自治州,马师校,,29,29,12,17,11,6,,35,30,12,6,8,8,0.6,0.6
2025-09-04T2100,3994A,102.2165,31.9024,阿坝藏族羌族自治州,马尔康中学西区,,,,15,,11,,,43,41,10,4,9,9,0.7,0.6
2025-09-04T2100,2695A,80.292,41.1694,阿克苏地区,电视台,颗粒物(PM10),500,1218,513,373,148,66,,86,84,9,10,4,4,0.6,0.7
2025-09-04T2100,2696A,80.2613,41.1551,阿克苏地区,艺术中心,颗粒物(PM10),500,1092,441,366,147,69,,92,89,2,12,5,4,0.4,0.5
2025-09-04T2100,2204A,105.6467,38.8363,阿拉善盟,西城区西花园,颗粒物(PM10),262,393,50,74,19,93,,130,126,7,11,8,10,0.7,0.8
2025-09-04T2100,2205A,105.6985,38.8411,阿拉善盟,蒙二幼,颗粒物(PM10),492,592,69,76,19,88,,124,120,3,8,7,9,0.3,0.5
2025-09-04T2100,2206A,105.724,38.8516,阿拉善盟,环保局新楼,颗粒物(PM10),158,266,46,74,17,88,,127,123,3,6,8,8,0.4,0.4
2025-09-04T2100,2708A,88.1264,47.8517,阿勒泰地区,市站,,24,24,18,3,6,53,,64,63,21,13,3,3,0.3,0.4
2025-09-04T2100,2630A,80.1161,32.5,阿里地区,阿里监测站,,17,6,4,3,1,52,,57,55,7,6,5,5,0.3,0.3
2025-09-04T2100,3192A,80.0903,32.5028,阿里地区,阿里藏医院,,19,12,5,3,1,60,,66,64,4,2,6,6,0.3,0.3
2025-09-04T2100,2642A,109.0318,32.6537,安康市,香溪洞,,18,17,16,6,5,57,,60,60,4,7,8,8,0.5,0.5
2025-09-04T2100,2644A,109.0072,32.6975,安康市,汉滨区检察院,,24,24,22,10,8,51,,60,60,5,9,5,5,0.6,0.6
2025-09-04T2100,4054A,109.0325,32.6913,安康市,市邮政管理局,,23,23,23,11,8,42,,60,57,7,11,4,5,0.7,0.7
2025-09-04T2100,2291A,117.0809,30.5177,安庆市,环科院,,40,37,32,28,22,104,,130,123,4,11,5,7,0.7,0.8
2025-09-04T2100,2292A,117.0331,30.5119,安庆市,马山宾馆,,46,43,32,32,24,87,,123,110,11,13,4,5,0.9,0.9
2025-09-04T2100,2294A,116.9896,30.6145,安庆市,安庆大学,,38,38,34,24,21,88,,143,119,8,13,4,5,0.6,0.6
2025-09-04T2100,3173A,117.0598,30.5351,安庆市,市人大,,43,43,32,29,22,105,,129,121,9,14,4,5,0.6,0.6
2025-09-04T2100,3122A,105.9606,26.2611,安顺市,伍家关,,17,17,15,8,9,51,,66,64,4,3,7,6,0.5,0.4
2025-09-04T2100,3123A,105.9408,26.2431,安顺市,凤凰山,,40,,17,28,15,48,,64,62,7,4,6,6,0.7,0.6
2025-09-04T2100,3124A,105.9439,26.2564,安顺市,金钟山,,26,18,16,18,12,54,,68,66,5,3,7,7,0.6,0.5
2025-09-04T2100,3125A,105.8983,26.2481,安顺市,娄家坡,,30,28,16,21,14,50,,62,60,5,2,6,7,0.6,0.5
2025-09-04T2100,1818A,114.4839,36.0621,安阳市,棉研所,,,,,,,,,,,,,,,,
2025-09-04T2100,1819A,114.3551,36.1017,安阳市,红庙街,,30,30,27,14,10,94,,88,88,12,15,5,9,1.2,0.9
2025-09-04T2100,1820A,114.361,36.0681,安阳市,银杏小区,,45,31,27,31,17,98,,102,102,16,17,6,7,0.8,0.5
2025-09-04T2100,3141A,114.3922,36.0878,安阳市,信访局,,50,,24,35,9,104,,103,103,13,16,5,7,1.2,0.8
2025-09-04T2100,3669A,114.4705,36.0637,安阳市,左辅环卫站,,39,29,27,27,19,90,,100,100,18,23,6,6,1.1,0.9
2025-09-04T2100,3703A,114.2917,36.0949,安阳市,安钢职工学校,,35,25,29,24,17,96,,90,90,11,14,4,5,1.0,0.8
2025-09-04T2100,1748A,123.044,41.1196,鞍山市,深沟寺,,40,40,28,24,15,66,,122,116,13,5,6,7,1.0,0.9
2025-09-04T2100,1749A,123.011,41.0931,鞍山市,太阳城,"颗粒物(PM10),细颗粒物(PM2.5)",57,64,32,40,20,61,,133,125,21,10,7,7,0.9,0.8
2025-09-04T2100,1750A,123.0485,41.1442,鞍山市,太平,细颗粒物(PM2.5),137,159,45,104,25,42,,120,106,52,14,12,8,1.8,1
2025-09-04T2100,1751A,122.9642,41.0971,鞍山市,铁西三道街,细颗粒物(PM2.5),102,144,51,76,28,39,,132,115,66,24,11,8,1.4,1.1
2025-09-04T2100,1753A,123.022,41.0821,鞍山市,明达新区,颗粒物(PM10),57,63,29,36,17,61,,117,108,21,11,8,8,1.2,1
2025-09-04T2100,1754A,123.1289,41.0228,鞍山市,千山,,,,27,,12,,,53,,,3,,3,,0.5
2025-09-04T2100,4201A,122.9446,41.0826,鞍山市,兴盛南路290号,细颗粒物(PM2.5),170,260,56,129,26,32,,137,114,81,30,9,8,1.6,1.1
2025-09-04T2100,2195A,107.4212,40.761,巴彦淖尔市,附二中,颗粒物(PM10),52,54,31,20,16,63,,88,83,19,8,8,8,0.7,0.5
2025-09-04T2100,2196A,107.37,40.7372,巴彦淖尔市,市环保大楼,,43,43,33,12,12,62,,81,77,19,6,9,8,0.6,0.5
2025-09-04T2100,1956A,86.1472,41.7538,巴音郭楞蒙古自治州,孔雀公园,颗粒物(PM10),94,138,85,40,23,74,,88,75,11,6,4,4,0.4,0.2
2025-09-04T2100,1957A,86.1972,41.7166,巴音郭楞蒙古自治州,棉纺厂,颗粒物(PM10),99,148,117,34,52,80,,90,84,7,4,4,4,0.2,0.2
2025-09-04T2100,1958A,86.2357,41.7173,巴音郭楞蒙古自治州,经济开发区,颗粒物(PM10),79,108,95,14,22,76,,88,81,9,2,4,4,0.2,0.1
2025-09-04T2100,2914A,106.7677,31.8794,巴中市,苏山坪,,23,21,26,16,20,45,,38,38,3,4,4,4,0.5,0.6
2025-09-04T2100,3181A,106.7768,31.8526,巴中市,市五中,,35,33,27,24,21,9,,21,20,25,19,7,6,0.8,0.8
2025-09-04T2100,3183A,106.7418,31.8654,巴中市,圣泉水务公司,,25,24,19,17,12,14,,20,20,13,10,6,6,0.7,0.7
2025-09-04T2100,3616A,106.7616,31.8344,巴中市,市中心医院,,38,38,29,24,16,7,,25,24,24,19,6,6,0.9,0.8
2025-09-04T2100,2235A,122.7911,45.6077,白城市,洮北区环保局,,,35,36,23,22,,,120,116,10,8,2,4,0.5,0.6
2025-09-04T2100,2236A,122.8738,45.5725,白城市,市环保局,,35,31,36,24,24,73,,108,100,12,12,2,4,0.6,0.6
2025-09-04T2100,2231A,126.4219,41.9171,白山市,喜丰,颗粒物(PM10),61,71,38,19,14,11,,78,57,25,14,5,6,0.6,0.6
2025-09-04T2100,2232A,126.4077,41.9419,白山市,环保局,,40,40,26,28,16,25,,84,66,14,10,4,6,0.8,0.7
2025-09-04T2100,2647A,104.1724,36.5446,白银市,第三小学,颗粒物(PM10),175,299,119,29,33,97,,102,102,4,20,4,42,0.2,0.4
2025-09-04T2100,2648A,104.1465,36.5482,白银市,动力公司,颗粒物(PM10),139,227,105,32,33,99,,106,106,4,20,6,26,0.3,0.5
2025-09-04T2100,2512A,106.6103,23.9011,百色市,市监测站,,34,34,31,22,16,62,,101,92,12,15,13,8,0.6,0.5
2025-09-04T2100,2513A,106.6538,23.8859,百色市,市中心血站,,22,19,38,15,16,65,,96,85,15,16,18,9,0.7,0.7
2025-09-04T2100,3406A,106.6085,23.8798,百色市,祈福高中,,36,,40,25,18,55,,90,83,14,17,9,8,0.6,0.6
2025-09-04T2100,2270A,117.396,32.939,蚌埠市,工人疗养院,,35,35,41,8,17,91,,123,112,9,11,4,4,0.4,0.4
2025-09-04T2100,2271A,117.3605,32.9427,蚌埠市,百货大楼,,38,38,35,20,20,90,,124,113,12,14,6,6,0.6,0.6
2025-09-04T2100,2273A,117.4185,32.8911,蚌埠市,蚌埠学院,,31,31,38,21,25,76,,126,114,25,27,7,9,0.5,0.5
2025-09-04T2100,2274A,117.3533,32.9673,蚌埠市,淮上区政府,,44,44,34,27,20,86,,129,117,19,13,6,5,0.7,0.5
2025-09-04T2100,2275A,117.3145,32.8977,蚌埠市,高新区,,,,35,,23,,,80,,,18,,8,,0.6
2025-09-04T2100,3715A,117.3092,32.9314,蚌埠市,蚌埠田家炳中学,,34,30,34,14,20,108,,133,124,7,12,5,5,0.4,0.4
2025-09-04T2100,1585A,109.8756,40.6532,包头市,市环境监测站,,43,43,45,25,22,101,,136,130,23,25,6,9,0.7,0.7
2025-09-04T2100,1587A,109.9991,40.5842,包头市,包头八中,,49,49,50,30,30,90,,134,129,26,25,6,14,0.7,0.7
2025-09-04T2100,1588A,109.8538,40.6821,包头市,青山宾馆,,39,31,41,27,26,109,,142,138,24,34,5,6,0.7,0.7
2025-09-04T2100,1589A,109.8642,40.6288,包头市,惠龙物流,,44,44,42,18,22,95,,134,129,18,18,5,8,0.7,0.6
2025-09-04T2100,1590A,110.0377,40.5546,包头市,东河鸿龙湾,,,51,46,22,25,,,145,142,20,24,6,8,0.8,0.8
2025-09-04T2100,3283A,109.9154,40.5685,包头市,滨河大厦,,44,44,41,30,25,94,,143,137,18,17,5,7,0.7,0.6
2025-09-04T2100,3419A,109.9447,40.6261,包头市,包头市委党校,,38,37,45,26,25,99,,141,136,26,22,7,14,0.7,0.8
2025-09-04T2100,3683A,109.8331,40.6576,包头市,昆区政府,,50,50,46,24,30,108,,148,144,24,23,6,10,0.7,0.7
2025-09-04T2100,1930A,107.185,34.3063,宝鸡市,庙沟村,,22,18,30,6,15,69,,66,66,8,12,4,4,0.7,0.6
2025-09-04T2100,1931A,107.0708,34.3017,宝鸡市,竹园沟,,20,15,34,10,18,64,,62,62,9,10,8,8,0.6,0.5
2025-09-04T2100,1932A,107.1906,34.3672,宝鸡市,三陆医院,,26,20,30,18,17,50,,60,58,18,14,7,7,0.8,0.7
2025-09-04T2100,1933A,107.1431,34.3547,宝鸡市,监测站,,22,22,32,15,20,60,,66,65,13,11,8,8,0.8,0.7
2025-09-04T2100,1934A,107.1186,34.3739,宝鸡市,技工学校,,30,30,32,21,19,51,,60,59,18,13,5,6,0.9,0.8
2025-09-04T2100,1936A,107.2058,34.3497,宝鸡市,文理学院,,22,22,29,13,19,64,,67,66,11,11,7,7,0.7,0.7
2025-09-04T2100,1937A,107.2386,34.3622,宝鸡市,三迪小学,,33,,30,23,24,55,,63,61,19,15,4,5,0.7,0.6
2025-09-04T2100,4308A,107.3898,34.3601,宝鸡市,陈仓区北开路21号,,22,,16,15,15,50,,64,62,15,10,5,5,0.6,0.6
2025-09-04T2100,1051A,115.493,38.8632,保定市,游泳馆,,42,42,44,19,24,122,,166,156,20,27,2,2,0.3,0.3
2025-09-04T2100,1052A,115.5213,38.8959,保定市,华电二区,,44,44,56,19,23,115,,157,148,13,20,3,3,0.4,0.5
2025-09-04T2100,1053A,115.4713,38.9108,保定市,接待中心,,34,34,40,21,23,105,,146,138,16,14,3,2,0.3,0.3
2025-09-04T2100,1054A,115.4612,38.8416,保定市,地表水厂,颗粒物(PM10),56,61,59,22,20,85,,150,133,36,29,6,5,0.4,0.4
2025-09-04T2100,3581A,115.31981,38.95208,保定市,满城区生态环境分局,颗粒物(PM10),57,63,46,24,20,109,,163,153,17,20,1,2,0.3,0.3
2025-09-04T2100,3582A,115.47694,38.76408,保定市,清苑区第二中学,颗粒物(PM10),60,69,60,35,23,90,,152,135,28,21,2,2,0.5,0.5
2025-09-04T2100,3583A,115.62909,39.02311,保定市,徐水物探局,颗粒物(PM10),52,54,52,24,30,95,,157,144,26,24,3,3,0.4,0.5
2025-09-04T2100,4004A,115.4202,38.8656,保定市,双鹰农机,颗粒物(PM10),53,55,55,27,23,101,,154,142,18,22,4,3,0.4,0.4
2025-09-04T2100,4034A,115.5150,38.8590,保定市,植保所站,颗粒物(PM10),56,62,57,32,27,109,,163,151,24,32,6,5,0.4,0.4
2025-09-04T2100,2594A,99.1678,25.1081,保山市,市环境监测站,,35,,15,24,21,39,,50,48,10,8,10,10,0.3,0.3
2025-09-04T2100,2595A,99.1711,25.1328,保山市,市环保局,,16,16,19,10,10,44,,54,52,3,6,6,7,0.3,0.4
2025-09-04T2100,1866A,109.2262,21.588,北海市,牛尾岭水库,,14,14,18,3,9,29,,52,49,10,7,4,5,0.5,0.4
2025-09-04T2100,1867A,109.1436,21.4086,北海市,海滩公园,,16,6,12,3,2,50,,64,62,6,5,4,4,0.5,0.6
2025-09-04T2100,1868A,109.0981,21.4661,北海市,新市环保局,,16,,10,9,8,50,,56,56,7,7,5,5,0.4,0.5
2025-09-04T2100,1869A,109.1778,21.5233,北海市,北海工业园,,,,15,5,7,44,,62,60,11,8,3,4,0.5,0.5
2025-09-04T2100,3400A,109.1911,21.4415,北海市,龙潭自来水厂,,17,9,9,8,6,53,,61,60,6,5,3,4,0.4,0.4
2025-09-04T2100,1001A,116.3621,39.8784,北京市,万寿西宫,,43,25,54,23,41,135,,173,167,21,16,4,3,0.8,0.8
2025-09-04T2100,1002A,116.2202,40.2915,北京市,定陵,,50,50,42,35,33,66,,172,149,3,2,3,3,0.6,0.6
2025-09-04T2100,1003A,116.4174,39.9289,北京市,东四,,44,29,60,17,40,139,,184,177,19,20,4,4,0.5,0.6
2025-09-04T2100,1004A,116.4072,39.8863,北京市,天坛,,28,28,49,17,38,83,,170,154,10,11,3,4,0.6,0.7
2025-09-04T2100,1005A,116.462,39.9365,北京市,农展馆,,41,39,59,22,43,131,,167,163,14,19,2,2,0.5,0.7
2025-09-04T2100,1006A,116.3392,39.9295,北京市,官园,,47,32,52,21,35,150,,178,173,15,17,4,3,0.5,0.6
2025-09-04T2100,1007A,116.2878,39.9611,北京市,海淀万柳,,39,34,51,22,37,123,,159,151,17,14,4,4,0.6,0.6
2025-09-04T2100,1008A,116.6636,40.135,北京市,顺义新城,,,,,,,,,,,,,,,,
2025-09-04T2100,1009A,116.6275,40.3275,北京市,怀柔镇,细颗粒物(PM2.5),55,58,48,39,34,102,,162,157,15,10,1,1,0.8,0.7
2025-09-04T2100,1010A,116.2296,40.217,北京市,昌平镇,,42,41,44,29,32,119,,166,162,17,12,4,4,0.7,0.7
2025-09-04T2100,1011A,116.3966,39.9821,北京市,奥体中心,,41,33,51,20,37,131,,156,152,13,18,4,4,0.5,0.6
2025-09-04T2100,3281A,115.9718,40.4529,北京市,延庆夏都,细颗粒物(PM2.5),70,72,44,51,31,144,,152,152,13,7,2,2,0.8,0.6
2025-09-04T2100,3418A,116.8336,40.4095,北京市,密云新城,细颗粒物(PM2.5),55,54,44,39,32,79,,152,142,7,4,2,2,0.6,0.6
2025-09-04T2100,3671A,116.088,39.9726,北京市,门头沟三家店,细颗粒物(PM2.5),55,54,42,39,29,60,,160,142,25,9,3,3,0.6,0.6
2025-09-04T2100,3672A,116.1541,39.8204,北京市,丰台云岗,,48,48,48,30,28,89,,157,143,29,12,3,3,0.6,0.6
2025-09-04T2100,3673A,116.6804,39.9081,北京市,通州东关,,48,34,69,21,50,151,,170,169,16,12,4,3,0.7,0.9
2025-09-04T2100,3674A,115.9577,39.7603,北京市,房山燕山,颗粒物(PM10),52,53,41,30,28,126,,140,136,7,7,3,1,0.5,0.5
2025-09-04T2100,3675A,116.4672,39.7733,北京市,大兴旧宫,,30,30,51,18,35,81,,158,143,7,7,2,2,0.6,0.7
2025-09-04T2100,3694A,115.986,40.4563,北京市,延庆石河营,细颗粒物(PM2.5),78,80,46,57,32,126,,140,140,9,4,1,1,0.6,0.5
2025-09-04T2100,3695A,116.6151,40.3053,北京市,怀柔新城,细颗粒物(PM2.5),55,51,46,39,35,97,,159,151,8,6,3,3,0.7,0.7
2025-09-04T2100,3696A,116.2545,39.8768,北京市,丰台小屯,,39,39,52,24,37,114,,152,143,15,12,2,1,0.7,0.6
2025-09-04T2100,3697A,116.84,40.3844,北京市,密云镇,颗粒物(PM10),53,56,47,36,34,134,,156,153,15,10,5,5,0.7,0.7
2025-09-04T2100,4182A,116.1942,39.9158,北京市,八角北路9号,,49,49,55,27,35,113,,174,161,26,12,4,4,0.6,0.7
2025-09-04T2100,4194A,117.0790,40.1518,北京市,洳河巡河路,细颗粒物(PM2.5),62,64,65,44,51,101,,157,149,13,7,4,4,0.7,0.7
2025-09-04T2100,1761A,123.8275,41.3064,本溪市,大峪,,44,44,36,21,17,27,,112,84,11,14,6,6,0.6,0.7
2025-09-04T2100,1762A,123.7567,41.3325,本溪市,溪湖,颗粒物(PM10),53,56,44,23,19,31,,117,90,32,13,6,7,0.9,1.1
2025-09-04T2100,1763A,123.7169,41.3094,本溪市,彩屯,细颗粒物(PM2.5),73,77,47,53,29,29,,95,69,38,28,11,12,1.3,1.5
2025-09-04T2100,1764A,123.7669,41.2864,本溪市,东明,颗粒物(PM10),69,88,47,49,20,33,,112,89,44,25,7,4,1.4,0.9
2025-09-04T2100,1765A,123.7992,41.2664,本溪市,新立屯,,36,36,31,15,17,31,,97,71,44,23,6,5,0.8,0.6
2025-09-04T2100,1766A,123.8142,41.3472,本溪市,威宁,,40,40,46,15,19,16,,96,74,22,14,4,4,0.5,0.8
2025-09-04T2100,2587A,105.2864,27.3125,毕节市,八中,细颗粒物(PM2.5),54,47,29,38,24,68,,78,77,10,8,7,6,0.6,0.6
2025-09-04T2100,2588A,105.31,27.2944,毕节市,师专,,37,37,31,23,18,66,,76,75,9,8,13,11,0.6,0.5
2025-09-04T2100,4263A,105.3688,27.3598,毕节市,工业大道,,46,43,25,32,18,62,,76,75,11,8,7,7,0.7,0.6
2025-09-04T2100,1629A,118.0018,37.3617,滨州市,第二水厂,,44,44,56,17,36,74,,148,128,24,21,5,5,0.4,0.6
2025-09-04T2100,1630A,117.9776,37.393,滨州市,北中新校,,39,39,46,22,32,70,,153,129,28,16,3,5,0.1,0.2
2025-09-04T2100,3514A,117.9378,37.3956,滨州市,中海酒店,,48,48,48,24,31,79,,157,135,23,16,3,5,0.5,0.6
2025-09-04T2100,3515A,117.9378,37.3553,滨州市,开发区一中,,46,46,61,22,36,85,,154,136,20,18,4,7,0.5,0.7
2025-09-04T2100,3516A,118.0917,37.694,滨州市,金海六路,,,22,46,9,37,,,145,131,10,16,4,7,0.1,0.3
2025-09-04T2100,4028A,117.9956,37.3753,滨州市,滨州市西街道办事处,,35,34,45,24,37,71,,148,126,23,20,2,4,0.3,0.5
2025-09-04T2100,2311A,115.8072,33.8399,亳州市,污水处理厂,,22,21,24,15,20,65,,87,84,14,11,4,5,0.6,0.5
2025-09-04T2100,2312A,115.7789,33.8518,亳州市,三国揽胜宫,,36,36,33,19,20,74,,88,87,10,9,7,5,0.7,0.7
2025-09-04T2100,3332A,115.7633,33.8034,亳州市,亳州学院,,29,21,28,16,20,90,,105,104,8,9,6,7,0.6,0.7
2025-09-04T2100,2693A,82.0485,44.8556,博尔塔拉蒙古自治州,市党校,,40,32,42,28,25,82,,83,83,7,7,2,3,0.3,0.3
2025-09-04T2100,2694A,82.0806,44.8969,博尔塔拉蒙古自治州,市环保局,,,41,41,14,17,78,,83,83,,10,4,6,,0.4
2025-09-04T2100,1071A,116.8842,38.2991,沧州市,沧县城建局,细颗粒物(PM2.5),55,55,46,39,28,116,,195,180,19,18,3,5,0.5,0.5
2025-09-04T2100,1072A,116.8584,38.3254,沧州市,电视转播站,颗粒物(PM10),58,66,52,39,29,124,,181,172,16,14,4,3,0.7,0.6
2025-09-04T2100,1073A,116.8709,38.3228,沧州市,市环保局,细颗粒物(PM2.5),59,62,53,42,34,112,,188,173,14,13,5,6,0.5,0.5
2025-09-04T2100,3324A,116.8136,38.3004,沧州市,河北水利电力学院,细颗粒物(PM2.5),65,61,50,47,37,145,,196,185,16,14,7,7,0.7,0.6
2025-09-04T2100,2622A,97.1806,31.1273,昌都市,昌都监测站,,16,8,8,8,5,51,,65,62,6,4,3,3,0.2,0.2
2025-09-04T2100,3719A,97.1714,31.1406,昌都市,昌都会议中心,,,13,8,8,5,,,67,64,9,4,3,3,0.3,0.2
2025-09-04T2100,2690A,88.1236,43.8886,昌吉回族自治州,天山天池,,12,9,5,3,3,37,,51,49,6,7,3,2,0.5,0.5
2025-09-04T2100,2692A,87.2717,44.0297,昌吉回族自治州,新区政务中心,,29,24,20,3,8,91,,97,97,12,20,10,6,0.3,0.3
2025-09-04T2100,3613A,87.3095,44.0142,昌吉回族自治州,亚心广场,,,,33,,8,,,102,102,13,27,9,7,0.4,0.4
2025-09-04T2100,1120A,125.2863,43.9027,长春市,客车厂,颗粒物(PM10),63,76,38,38,18,9,,116,87,83,21,4,5,0.9,0.6
2025-09-04T2100,1121A,125.2841,43.8463,长春市,邮电学院,颗粒物(PM10),52,53,33,24,16,37,,111,90,39,12,5,5,0.9,0.6
2025-09-04T2100,1122A,125.3716,43.8772,长春市,劳动公园,细颗粒物(PM2.5),67,77,43,48,19,33,,112,91,47,20,8,8,0.9,0.5
2025-09-04T2100,1123A,125.3297,43.8805,长春市,园林处,,39,39,31,23,13,55,,111,95,28,14,5,5,0.8,0.7
2025-09-04T2100,1124A,125.4605,43.79,长春市,净月潭,,26,26,23,9,10,56,,98,81,6,5,5,5,0.3,0.4
2025-09-04T2100,1125A,125.7194,43.515,长春市,甩湾子,,,,23,,15,,,50,,,10,,3,,0.6
2025-09-04T2100,1126A,125.3863,43.8447,长春市,经开区环卫处,颗粒物(PM10),55,60,32,22,14,0,,104,80,76,21,5,4,0.9,0.6
2025-09-04T2100,1127A,125.245,43.7783,长春市,高新区管委会,,39,33,30,27,17,37,,108,84,32,15,3,4,0.6,0.6
2025-09-04T2100,1128A,125.1761,43.8325,长春市,岱山公园,颗粒物(PM10),66,81,52,27,22,2,,110,74,96,27,4,4,0.7,0.5
2025-09-04T2100,4281A,125.3346,43.9164,长春市,北亚泰大街1068号,,,71,39,44,18,,,111,100,53,20,,8,0.9,0.6
2025-09-04T2100,1335A,113.0833,28.2325,长沙市,经开区环保局,,33,33,38,19,20,84,,132,115,17,13,5,5,0.4,0.4
2025-09-04T2100,1336A,112.8872,28.2189,长沙市,高开区环保局,,35,35,35,20,18,89,,104,96,9,9,5,6,0.4,0.4
2025-09-04T2100,1337A,113.0792,28.2053,长沙市,马坡岭,,45,45,32,29,20,98,,140,126,12,9,6,6,0.6,0.5
2025-09-04T2100,1338A,112.9394,28.19,长沙市,湖南师范大学,,,29,32,23,18,,,116,109,14,11,4,5,0.5,0.6
2025-09-04T2100,1339A,113.0178,28.1322,长沙市,雨花区环保局,,34,34,33,22,16,89,,124,112,13,9,7,7,0.5,0.5
2025-09-04T2100,1340A,112.9792,28.2597,长沙市,伍家岭,,30,30,34,17,14,76,,117,103,12,14,2,3,0.3,0.3
2025-09-04T2100,1341A,113.0014,28.1944,长沙市,火车新站,细颗粒物(PM2.5),58,45,35,41,17,91,,120,111,14,11,7,7,0.6,0.5
2025-09-04T2100,1342A,112.9844,28.1178,长沙市,天心区环保局,,42,32,31,29,19,81,,122,108,21,13,4,5,0.4,0.4
2025-09-04T2100,1343A,112.8908,28.1308,长沙市,湖南中医药大学,,39,39,35,18,23,67,,108,96,24,11,5,5,0.6,0.6
2025-09-04T2100,1344A,112.9581,28.3611,长沙市,沙坪,,41,41,26,16,17,78,,135,115,6,9,2,4,0.4,0.4
2025-09-04T2100,1727A,113.1147,36.1547,长治市,清华站,,31,19,20,12,10,97,,82,82,8,12,7,8,0.6,0.8
2025-09-04T2100,1730A,113.0886,36.2125,长治市,审计局,,,25,15,22,13,,,96,96,7,14,5,6,0.6,0.8
2025-09-04T2100,1731A,113.0844,36.1856,长治市,长治八中,,36,19,19,18,20,113,,95,95,3,10,8,8,0.7,0.9
2025-09-04T2100,2845A,113.1569,36.1911,长治市,德盛苑,,30,16,21,9,9,96,,80,80,4,10,7,7,0.7,0.9
2025-09-04T2100,3568A,113.06,36.0464,长治市,向阳小学,,36,36,48,19,20,47,,76,73,30,17,4,4,1.0,1
2025-09-04T2100,3569A,112.8792,36.3144,长治市,屯留一中,细颗粒物(PM2.5),52,36,24,36,18,92,,87,87,14,17,8,9,0.7,0.6
2025-09-04T2100,4189A,113.1131,36.19948,长治市,英华南巷50号,,33,22,21,22,14,105,,90,90,6,13,7,8,0.7,0.9
2025-09-04T2100,4190A,113.2367,36.3344,长治市,学府街1号,,32,24,26,21,17,100,,107,107,6,15,1,2,0.5,0.8
2025-09-04T2100,1854A,111.6975,28.9703,常德市,市二中,,,52,38,33,30,,,115,106,15,14,6,9,0.8,0.7
2025-09-04T2100,1857A,111.7158,29.1456,常德市,白鹤山,,,,,,,,,,,,,,,,
2025-09-04T2100,3138A,111.7153,29.0289,常德市,武陵区永安,颗粒物(PM10),51,51,42,30,28,72,,114,106,11,9,5,6,0.5,0.5
2025-09-04T2100,3139A,111.6892,28.9881,常德市,鼎城区玉霞,细颗粒物(PM2.5),65,57,42,47,30,63,,110,96,9,13,4,9,0.7,0.6
2025-09-04T2100,3140A,111.6625,29.0531,常德市,武陵区长庚,细颗粒物(PM2.5),55,51,40,39,31,80,,114,107,9,9,6,6,0.7,0.6
2025-09-04T2100,1196A,119.9633,31.762,常州市,市监测站,细颗粒物(PM2.5),54,46,50,38,37,116,,218,186,22,26,14,13,1.0,0.9
2025-09-04T2100,1200A,119.9468,31.7069,常州市,武进监测站,颗粒物(PM10),52,53,50,35,37,108,,184,163,21,25,8,8,1.0,0.9
2025-09-04T2100,1201A,119.9255,31.9087,常州市,安家,,49,39,51,34,36,77,,194,154,26,37,15,13,1.3,1.1
2025-09-04T2100,3002A,119.9805,31.8174,常州市,行政中心,,,64,55,,37,101,,205,171,,34,6,3,,0.8
2025-09-04T2100,3003A,120.0522,31.7748,常州市,经开区,颗粒物(PM10),59,68,62,38,35,94,,215,176,41,49,5,5,1.2,1
2025-09-04T2100,3010A,119.9025,31.7964,常州市,钟楼,,45,44,51,31,35,110,,191,163,23,29,8,8,1.0,0.9
2025-09-04T2100,3429A,119.8598,31.7066,常州市,武进经发区,,,67,58,35,33,115,,196,173,23,46,,11,0.9,0.9
2025-09-04T2100,3430A,119.5826,31.7245,常州市,金坛城区,,50,47,53,35,37,110,,204,176,18,23,8,9,0.7,0.8
2025-09-04T2100,2220A,120.4318,41.5881,朝阳市,西梁,细颗粒物(PM2.5),52,52,51,36,42,116,,114,114,10,11,5,5,0.7,1
2025-09-04T2100,2221A,120.4521,41.5646,朝阳市,河畔小区,,43,37,46,30,37,130,,126,126,5,5,5,5,0.6,0.8
2025-09-04T2100,2222A,120.4176,41.5648,朝阳市,八里堡,细颗粒物(PM2.5),63,,51,45,40,111,,122,120,12,12,6,6,0.7,0.9
2025-09-04T2100,2223A,120.3806,41.5969,朝阳市,农业园区,,43,41,45,30,40,85,,117,112,15,10,4,4,0.7,0.9
2025-09-04T2100,1705A,116.6367,23.6719,潮州市,西园路,,33,33,31,15,20,40,,108,84,14,12,9,6,0.2,0.3
2025-09-04T2100,3026A,116.6183,23.6608,潮州市,市政府,,,68,41,18,20,,,99,82,15,15,10,12,0.5,0.5
2025-09-04T2100,4036A,116.6461,23.6761,潮州市,金山,,26,26,33,16,21,37,,112,81,15,11,10,8,0.5,0.6
2025-09-04T2100,2472A,113.0073,25.9061,郴州市,马头岭,,43,43,29,14,11,72,,96,85,13,17,11,6,0.5,0.5
2025-09-04T2100,2473A,113.0116,25.8226,郴州市,市职中,,42,41,26,29,19,45,,96,84,19,13,12,7,0.7,0.6
2025-09-04T2100,2475A,113.0383,25.8071,郴州市,市审计局,,39,39,28,22,19,57,,98,87,11,10,6,14,0.4,0.4
2025-09-04T2100,2476A,113.0348,25.7759,郴州市,市环保局,,32,32,29,22,21,64,,100,92,14,10,7,17,0.4,0.4
2025-09-04T2100,4252A,113.0138,25.8011,郴州市,好美居路49号,,26,24,28,18,17,58,,96,86,16,12,18,11,0.4,0.3
2025-09-04T2100,1431A,103.9728,30.7236,成都市,金泉两河,"颗粒物(PM10),细颗粒物(PM2.5)",52,53,58,36,21,125,,140,140,16,19,2,4,0.7,0.7
2025-09-04T2100,1432A,104.176,30.6872,成都市,十里店,颗粒物(PM10),60,69,56,37,23,122,,146,146,21,21,3,4,0.6,0.2
2025-09-04T2100,1433A,104.079,30.5706,成都市,三瓦窑,细颗粒物(PM2.5),52,48,45,36,21,132,,156,156,23,25,2,3,0.6,0.5
2025-09-04T2100,1434A,104.1114,30.63,成都市,沙河铺,细颗粒物(PM2.5),62,60,54,44,22,103,,126,124,20,17,4,4,0.7,0.5
2025-09-04T2100,1437A,104.0786,30.6531,成都市,君平街,颗粒物(PM10),56,61,63,37,27,126,,168,168,19,19,3,4,0.5,0.5
2025-09-04T2100,1438A,103.613,31.0283,成都市,灵岩寺,,,,,,,,,,,,,,,,
2025-09-04T2100,2880A,104.0239,30.65639,成都市,大石西路,细颗粒物(PM2.5),59,56,56,42,29,108,,144,144,23,24,2,3,0.7,0.7
2025-09-04T2100,3136A,104.2725,30.5589,成都市,龙泉驿区区政府,,39,36,29,27,15,64,,104,100,14,14,5,5,0.7,0.6
2025-09-04T2100,3357A,104.0106,30.6931,成都市,金博路,颗粒物(PM10),52,54,52,25,23,106,,141,141,21,25,5,7,0.7,0.7
2025-09-04T2100,3359A,104.0578,30.5225,成都市,华阳,,49,48,44,34,27,115,,144,144,22,20,2,2,0.7,0.6
2025-09-04T2100,3488A,104.3853,30.7453,成都市,青白江技师分院,,36,36,43,21,22,29,,106,98,43,25,3,2,0.6,0.5
2025-09-04T2100,3489A,104.0789,30.4072,成都市,科学城,,34,34,46,19,25,79,,125,124,17,18,4,4,0.6,0.6
2025-09-04T2100,4011A,103.8506,30.6947,成都市,光华大道三段,细颗粒物(PM2.5),55,56,54,39,24,114,,133,133,25,22,2,3,0.7,0.6
2025-09-04T2100,4224A,104.2433,30.5353,成都市,鲸龙路1057号,,50,50,45,32,25,66,,106,103,23,21,4,4,0.6,0.5
2025-09-04T2100,1062A,117.9531,40.9081,承德市,铁路,颗粒物(PM10),58,65,46,36,29,78,,137,122,32,14,3,4,0.7,0.6
2025-09-04T2100,1063A,117.9392,40.9763,承德市,中国银行,颗粒物(PM10),61,71,51,21,37,47,,144,122,16,11,2,3,0.6,0.6
2025-09-04T2100,1064A,117.9503,40.928,承德市,开发区,,49,49,47,30,23,66,,139,123,15,14,4,5,0.7,0.6
2025-09-04T2100,1066A,117.9268,41.0026,承德市,离宫,,34,34,44,14,19,54,,124,98,7,8,5,7,0.4,0.5
2025-09-04T2100,4274A,117.7994,40.9605,承德市,滨河大街98号,颗粒物(PM10),52,53,43,31,30,66,,129,102,5,9,2,11,0.4,0.7
2025-09-04T2100,2314A,117.47,30.6618,池州市,池州学院,,33,31,31,23,20,99,,142,134,10,14,6,7,0.8,0.9
2025-09-04T2100,3237A,117.4918,30.6617,池州市,展览馆,,36,36,33,20,18,88,,142,133,13,13,6,7,0.8,0.8
2025-09-04T2100,3333A,117.5627,30.695,池州市,第八中学,,37,37,35,23,20,78,,140,125,11,8,6,6,0.7,0.6
2025-09-04T2100,3334A,117.5038,30.6243,池州市,第十二中学,,36,36,29,23,18,85,,141,130,18,16,4,5,0.8,1
2025-09-04T2100,1744A,118.9233,42.2816,赤峰市,松山一中,,33,31,37,21,17,103,,121,115,15,26,7,6,0.7,0.7
2025-09-04T2100,1745A,118.9576,42.2728,赤峰市,哈达街,,43,43,36,14,18,92,,127,120,22,19,11,16,0.7,0.6
2025-09-04T2100,1746A,118.8788,42.2554,赤峰市,天义路,,35,,23,24,24,95,,127,120,21,15,13,10,0.4,0.4
2025-09-04T2100,3058A,119.2658,42.0353,赤峰市,银河街,颗粒物(PM10),54,58,51,29,30,83,,116,108,6,8,8,20,0.8,1
2025-09-04T2100,3286A,118.9359,42.3147,赤峰市,桥北物流园区,,49,49,37,23,21,70,,126,110,33,25,10,9,1.1,0.9
2025-09-04T2100,2521A,107.3476,22.4136,崇左市,市环保局江州分局,,23,23,22,11,10,26,,68,57,23,12,7,7,0.6,0.6
2025-09-04T2100,4256A,107.3750,22.3736,崇左市,石景林东路7号,,25,19,20,17,11,27,,63,52,12,10,4,4,0.5,0.5
2025-09-04T2100,2298A,118.3093,32.3153,滁州市,老年大学,,42,36,38,29,29,76,,146,108,6,13,5,7,0.3,0.4
2025-09-04T2100,2299A,118.3244,32.2786,滁州市,人大宾馆,,29,23,29,18,28,92,,152,127,9,11,4,5,0.5,0.6
2025-09-04T2100,3207A,118.3118,32.3038,滁州市,市政府原办公楼,,35,30,36,24,31,83,,142,110,9,12,5,5,0.4,0.5
2025-09-04T2100,3331A,118.3267,32.2634,滁州市,图书馆,,30,22,30,18,28,94,,150,128,10,10,10,11,0.4,0.5
2025-09-04T2100,2605A,101.5482,25.0441,楚雄彝族自治州,州环境监测站,,20,20,12,8,9,40,,39,39,2,5,7,6,0.4,0.4
2025-09-04T2100,2606A,101.538,25.0492,楚雄彝族自治州,市经济开发区,,28,28,27,13,12,38,,39,39,8,10,6,6,0.7,0.8
2025-09-04T2100,2548A,107.5277,31.2827,达州市,达州职业技术学院,颗粒物(PM10),64,78,48,38,19,16,,73,58,38,17,8,11,0.6,0.5
2025-09-04T2100,2549A,107.5086,31.2186,达州市,市环境监测站,,,40,42,24,17,,,61,61,37,25,6,9,0.6,0.5
2025-09-04T2100,2550A,107.4988,31.2132,达州市,凤凰小区,,42,41,38,29,20,18,,48,45,38,22,1,2,0.6,0.5
2025-09-04T2100,2551A,107.5082,31.1986,达州市,达县机关宾馆,颗粒物(PM10),64,78,44,39,21,8,,68,58,60,26,6,8,0.7,0.5
2025-09-04T2100,2552A,107.4644,31.2124,达州市,市政中心,,45,45,46,29,18,27,,64,60,37,20,4,7,0.5,0.4
2025-09-04T2100,2614A,100.1542,25.7054,大理白族自治州,大理市环境监测站,,,,13,17,17,,,53,53,10,8,4,4,,0.5
2025-09-04T2100,2615A,100.2171,25.5811,大理白族自治州,大理古城,,38,,15,26,9,28,,59,49,20,8,8,6,0.8,0.7
2025-09-04T2100,1109A,121.612,38.9741,大连市,甘井子,,38,36,29,26,24,96,,115,112,15,18,8,8,0.5,0.4
2025-09-04T2100,1110A,121.565,38.9511,大连市,周水子,,43,32,31,30,24,89,,107,106,17,18,11,11,0.6,0.5
2025-09-04T2100,1111A,121.5637,38.8845,大连市,星海三站,,38,32,33,26,28,68,,116,105,20,14,4,4,0.6,0.5
2025-09-04T2100,1112A,121.6302,38.9117,大连市,青泥洼桥,,27,27,32,17,24,82,,112,105,12,12,8,8,0.6,0.6
2025-09-04T2100,1113A,121.6251,38.8638,大连市,傅家庄,,36,27,25,25,26,82,,109,106,14,10,11,12,0.6,0.5
2025-09-04T2100,1114A,121.5213,38.8661,大连市,七贤岭,,33,33,29,21,23,57,,118,107,12,8,7,7,0.7,0.6
2025-09-04T2100,1115A,121.2529,38.8061,大连市,旅顺,,38,28,23,26,22,85,,108,106,10,9,6,7,0.6,0.4
2025-09-04T2100,1116A,121.7485,39.1311,大连市,金州,,47,47,23,23,18,61,,118,105,31,10,7,6,0.4,0.4
2025-09-04T2100,1117A,121.7811,39.0496,大连市,开发区,,49,36,32,34,23,68,,110,102,32,15,5,6,0.5,0.5
2025-09-04T2100,1118A,121.9762,39.0631,大连市,双D港,,32,25,28,22,22,57,,119,95,5,5,9,9,0.5,0.8
2025-09-04T2100,1789A,124.81117,46.03138,大庆市,大同区,,38,37,48,26,26,78,,104,99,12,12,8,8,1.0,1.1
2025-09-04T2100,1790A,125.129,46.533,大庆市,龙凤区,细颗粒物(PM2.5),53,54,38,37,20,67,,109,103,21,13,10,5,1.1,0.9
2025-09-04T2100,1791A,124.902,46.408,大庆市,红岗区,颗粒物(PM10),51,52,47,27,28,92,,121,116,10,11,6,6,1.0,0.9
2025-09-04T2100,1792A,125.153,46.586,大庆市,萨尔图区,颗粒物(PM10),56,62,56,33,29,83,,106,103,19,15,9,9,1.0,1
2025-09-04T2100,1793A,124.9042,46.6215,大庆市,让胡路区,颗粒物(PM10),54,57,50,27,25,95,,122,116,14,12,7,7,0.8,0.7
2025-09-04T2100,3481A,125.141,46.634,大庆市,萨区政府监测点,颗粒物(PM10),54,57,56,27,24,102,,125,123,13,11,9,8,0.9,0.8
2025-09-04T2100,1721A,113.3819,40.1097,大同市,果树场,,38,38,36,21,18,79,,104,92,18,20,4,4,0.3,0.4
2025-09-04T2100,1723A,113.2994,40.0758,大同市,云冈宾馆,,40,37,41,28,21,98,,124,116,13,21,5,5,0.7,0.9
2025-09-04T2100,1724A,113.3444,40.0917,大同市,大同大学,,42,42,36,20,21,102,,127,119,16,22,7,7,0.6,0.6
2025-09-04T2100,1725A,113.2661,40.1269,大同市,安家小村,,40,40,43,24,21,95,,130,121,19,18,3,3,0.6,0.7
2025-09-04T2100,1726A,113.2711,40.0844,大同市,教育学院,,44,44,44,21,25,98,,126,118,14,24,6,6,0.6,0.9
2025-09-04T2100,3282A,113.3397,40.0597,大同市,大同市卫生学校,,48,48,38,18,22,94,,122,113,17,21,8,7,0.6,0.6
2025-09-04T2100,3565A,113.1367,40.1122,大同市,云冈站,颗粒物(PM10),53,56,47,29,25,79,,118,108,18,11,6,5,0.9,1
2025-09-04T2100,3566A,113.1186,40.2556,大同市,图书馆,,,,39,46,23,,,123,109,34,10,4,4,0.7,0.7
2025-09-04T2100,3567A,113.5931,40.0461,大同市,区一中,,36,,29,18,19,114,,131,125,15,15,10,4,0.4,0.4
2025-09-04T2100,4199A,113.2798,40.0997,大同市,魏都大道141号,,40,40,42,21,24,100,,128,120,14,22,3,3,0.6,0.8
2025-09-04T2100,2269A,124.1069,50.4097,大兴安岭地区,科技局,颗粒物(PM10),78,105,27,31,12,11,,54,44,19,7,9,5,0.6,0.4
2025-09-04T2100,3663A,124.1164,50.4278,大兴安岭地区,红旗社区,,46,46,19,19,9,4,,57,46,20,7,6,4,0.5,0.4
2025-09-04T2100,1600A,124.3303,40.0625,丹东市,江湾东路,,41,41,44,25,27,31,,89,73,23,20,6,6,0.8,0.9
2025-09-04T2100,1601A,124.4256,40.1503,丹东市,临江后街,颗粒物(PM10),97,144,43,42,20,12,,91,76,44,16,9,8,1.1,0.8
2025-09-04T2100,1602A,124.3933,40.1461,丹东市,元宝山,颗粒物(PM10),51,51,31,27,21,64,,78,75,16,14,6,6,0.8,0.9
2025-09-04T2100,1603A,124.3633,40.1092,丹东市,民主桥,颗粒物(PM10),56,62,37,36,20,21,,90,72,41,19,8,7,1.0,0.8
2025-09-04T2100,3541A,109.5726,19.5167,儋州市,第一中学子站,,16,16,17,7,8,39,,41,41,5,5,6,6,0.4,0.4
2025-09-04T2100,3542A,109.5567,19.5187,儋州市,东坡学校子站,,15,15,15,7,8,42,,45,45,6,6,8,8,0.5,0.5
2025-09-04T2100,2616A,98.5842,24.428,德宏傣族景颇族自治州,德宏州监测站,,31,31,27,16,18,35,,68,62,10,10,7,11,0.5,0.4
2025-09-04T2100,3677A,98.5881,24.4368,德宏傣族景颇族自治州,芒市人民政府综合楼,,35,30,31,24,16,24,,60,54,10,8,6,9,0.6,0.5
2025-09-04T2100,1901A,104.4239,31.1208,德阳市,东山公园,,29,24,31,20,17,64,,82,81,23,13,4,5,0.8,0.7
2025-09-04T2100,1902A,104.3826,31.1317,德阳市,西小区,,45,45,53,29,24,70,,91,89,21,20,3,4,0.9,0.8
2025-09-04T2100,1904A,104.3553,31.1091,德阳市,耐火材料厂,,35,31,60,24,27,58,,101,98,21,24,3,6,0.8,0.8
2025-09-04T2100,3639A,104.4019,31.1244,德阳市,市教育局,,37,37,46,25,22,64,,90,88,24,17,1,3,1.2,1.1
2025-09-04T2100,1622A,116.3032,37.4674,德州市,儿童乐园,颗粒物(PM10),71,92,57,51,39,95,,159,144,45,18,11,10,0.9,0.8
2025-09-04T2100,1624A,116.2991,37.4451,德州市,监理站,"颗粒物(PM10),细颗粒物(PM2.5)",58,66,54,41,34,141,,163,155,18,19,14,13,0.8,0.8
2025-09-04T2100,3066A,116.2721,37.4379,德州市,九衢泉纯净水厂,细颗粒物(PM2.5),67,80,57,48,37,63,,155,134,73,29,6,6,0.8,0.7
2025-09-04T2100,3371A,116.3728,37.4403,德州市,开发区人民医院,颗粒物(PM10),63,75,59,44,38,100,,153,139,40,21,10,9,1.3,1.3
2025-09-04T2100,3511A,116.5652,37.3319,德州市,陵城艺术中心,细颗粒物(PM2.5),77,92,64,56,37,116,,169,157,24,19,13,15,1.2,1
2025-09-04T2100,4292A,116.3525,37.4209,德州市,新河东路,细颗粒物(PM2.5),67,68,63,48,41,96,,151,136,30,21,8,8,1.1,1
2025-09-04T2100,2621A,99.7056,27.8317,迪庆藏族自治州,迪庆州站,,20,20,17,12,12,40,,51,49,5,5,6,6,0.4,0.4
2025-09-04T2100,3180A,99.7136,27.8094,迪庆藏族自治州,质量技术监督局,,17,17,16,9,7,43,,53,51,6,7,6,6,0.4,0.4
2025-09-04T2100,4257A,104.6092,35.5962,定西市,将台街,,45,41,47,31,23,50,,82,70,14,13,7,7,0.4,0.4
2025-09-04T2100,4309A,104.6159,35.5701,定西市,正龙路62号,,47,47,50,18,23,61,,85,75,6,9,5,5,0.2,0.2
2025-09-04T2100,1389A,113.7547,23.0494,东莞市,莞城梨川,,34,34,30,16,18,64,,176,163,24,25,6,6,0.4,0.4
2025-09-04T2100,1390A,113.7944,23.0128,东莞市,东城石井,,33,33,32,14,13,54,,155,138,26,22,5,5,0.5,0.4
2025-09-04T2100,1391A,113.7383,22.9658,东莞市,南城西平,,,28,24,3,13,54,,155,138,,24,4,7,,0.5
2025-09-04T2100,3319A,113.7338,23.0381,东莞市,万江金泰,,31,31,28,14,13,51,,161,147,23,26,4,4,0.6,0.6
2025-09-04T2100,3626A,113.7533,23.0202,东莞市,南城元岭,,18,18,28,10,15,56,,170,153,24,27,6,5,0.3,0.3
2025-09-04T2100,3627A,113.7875,23.0457,东莞市,东城主山,,32,32,34,13,14,73,,168,155,28,24,7,7,0.4,0.4
2025-09-04T2100,1666A,118.6614,37.4309,东营市,市环保局,,40,19,24,7,15,126,,128,120,9,15,5,6,0.2,0.3
2025-09-04T2100,3036A,118.6904,37.4338,东营市,开发区管委会,,41,19,33,17,17,131,,134,126,9,13,5,6,0.4,0.4
2025-09-04T2100,3365A,118.5719,37.565,东营市,垦利区民丰路,,,12,30,,19,108,,129,114,14,18,6,7,0.7,0.8
2025-09-04T2100,3498A,118.5055,37.8612,东营市,河口城区,,40,17,30,3,14,126,,145,129,10,17,5,5,0.7,0.7
2025-09-04T2100,3646A,118.4978,37.4623,东营市,胜利站,,37,13,39,7,20,116,,136,122,12,17,5,4,0.4,0.5
2025-09-04T2100,3734A,118.35,37.26,东营市,理想之城,,,,27,,20,106,,127,115,,24,4,4,,0.4
2025-09-04T2100,1591A,110.0023,39.8129,鄂尔多斯市,综合楼,,39,39,36,14,18,84,,124,114,19,18,4,7,0.6,0.7
2025-09-04T2100,1592A,109.9486,39.8261,鄂尔多斯市,巴音孟克林场办事处,,34,34,42,17,17,85,,131,120,23,16,6,7,0.4,0.5
2025-09-04T2100,1593A,109.7736,39.5986,鄂尔多斯市,康泽苑,,31,31,41,9,17,91,,113,108,15,17,7,7,0.5,0.5
2025-09-04T2100,1594A,109.8119,39.5989,鄂尔多斯市,华泰汽车城,,34,34,42,14,22,84,,102,98,14,20,7,7,0.6,0.6
2025-09-04T2100,1595A,109.9734,39.7884,鄂尔多斯市,奥林花园,,41,41,43,14,19,70,,115,104,21,19,6,7,0.7,0.7
2025-09-04T2100,2436A,114.8938,30.3994,鄂州市,市政府,,38,38,42,14,19,66,,138,110,20,16,5,9,0.6,0.6
2025-09-04T2100,2437A,114.8989,30.3714,鄂州市,赵家坝,,47,47,46,14,15,65,,123,100,12,12,8,10,0.5,0.6
2025-09-04T2100,3654A,114.8094,30.4089,鄂州市,精准医疗中心,,42,42,43,15,22,78,,134,112,13,20,6,10,0.6,1.5
2025-09-04T2100,2454A,109.4978,30.2981,恩施土家族苗族自治州,湖北民院,,30,29,24,21,13,44,,75,67,9,8,6,6,0.6,0.5
2025-09-04T2100,2455A,109.4707,30.2798,恩施土家族苗族自治州,州电力总公司,,,,21,,14,38,,70,60,,5,5,5,0.4,0.4
2025-09-04T2100,3549A,109.5061,30.3772,恩施土家族苗族自治州,龙凤新区,,35,26,21,24,13,36,,84,70,10,5,6,6,0.5,0.4
2025-09-04T2100,2499A,108.3411,21.6158,防城港市,沙万,,28,28,31,8,10,69,,66,66,8,15,3,3,0.4,0.5
2025-09-04T2100,2500A,108.3514,21.7731,防城港市,防城档案局,,28,28,25,14,14,52,,65,63,10,11,4,3,0.5,0.5
2025-09-04T2100,2501A,108.3506,21.6414,防城港市,大海花园,,,13,22,7,8,,,72,72,6,9,3,7,0.5,0.5
2025-09-04T2100,1371A,113.1294,23.0067,佛山市,湾梁,细颗粒物(PM2.5),70,,21,51,45,62,,139,127,28,21,9,7,0.6,0.5
2025-09-04T2100,1372A,113.1083,23.0478,佛山市,华材职中,,27,27,19,18,9,79,,155,146,19,13,5,4,0.5,0.5
2025-09-04T2100,1373A,113.144,23.0453,佛山市,南海气象局,,28,28,22,14,9,58,,137,125,27,17,6,5,0.7,0.6
2025-09-04T2100,1374A,113.2881,22.8094,佛山市,顺德苏岗,,29,29,21,7,6,42,,84,73,24,15,6,6,0.5,0.5
2025-09-04T2100,1376A,112.8383,22.8678,佛山市,高明孔堂,,32,32,20,9,9,83,,120,116,14,11,3,3,0.5,0.5
2025-09-04T2100,1377A,112.8836,23.1588,佛山市,三水监测站,,,48,23,11,13,,,108,105,50,19,7,6,0.6,0.5
2025-09-04T2100,1378A,112.867,23.185,佛山市,三水云东海,,38,38,27,16,16,94,,126,122,27,25,3,3,0.7,0.4
2025-09-04T2100,3625A,113.2544,22.7642,佛山市,容桂街道办,,29,29,12,14,8,41,,87,78,27,17,6,6,0.7,0.6
2025-09-04T2100,1280A,119.3903,26.0543,福州市,鼓山,,,,29,,17,,,92,,,8,,2,,0.4
2025-09-04T2100,1282A,119.2681,26.0504,福州市,师大,,46,46,31,32,18,104,,140,129,13,10,6,5,0.4,0.4
2025-09-04T2100,1283A,119.2984,26.1028,福州市,五四北路,,45,45,31,29,17,95,,136,124,17,14,4,4,0.4,0.4
2025-09-04T2100,1284A,119.2648,26.0768,福州市,杨桥西路,,,43,30,29,17,,,137,132,10,10,5,4,0.4,0.4
2025-09-04T2100,1285A,119.317,26.0746,福州市,紫阳,,45,45,34,30,17,83,,128,115,18,14,4,5,0.4,0.3
2025-09-04T2100,3048A,119.5799,26.0936,福州市,九龙,,32,27,29,22,20,102,,126,120,5,11,4,5,0.3,0.3
2025-09-04T2100,3526A,119.5189,25.9664,福州市,吴航,,34,32,28,22,18,107,,138,127,9,14,4,5,0.3,0.4
2025-09-04T2100,1755A,123.7977,41.8491,抚顺市,望花区,细颗粒物(PM2.5),65,74,49,47,23,33,,132,112,48,24,10,11,1.1,0.9
2025-09-04T2100,1756A,123.9161,41.8822,抚顺市,顺城区,,,88,46,33,22,,,132,110,58,27,6,6,1.0,0.9
2025-09-04T2100,1757A,124.0436,41.8611,抚顺市,东洲区,,47,47,29,15,16,71,,118,108,23,10,3,3,0.9,0.5
2025-09-04T2100,1758A,123.9247,41.8642,抚顺市,新抚区,颗粒物(PM10),60,70,42,42,20,17,,126,102,46,21,6,6,1.4,0.9
2025-09-04T2100,1759A,124.0972,41.8961,抚顺市,大伙房水库,,35,35,22,17,14,59,,113,107,18,13,7,7,0.8,0.7
2025-09-04T2100,1760A,123.7086,41.8391,抚顺市,沈抚新城,颗粒物(PM10),52,53,49,27,25,7,,135,113,64,27,6,9,0.9,1.5
2025-09-04T2100,2376A,116.2127,28.0814,抚州市,桐源党溪,,45,45,30,23,17,52,,89,77,15,10,9,7,0.5,0.5
2025-09-04T2100,2377A,116.3544,27.9831,抚州市,市站,,29,29,26,19,14,76,,102,94,6,8,1,2,0.5,0.5
2025-09-04T2100,2378A,116.3565,27.963,抚州市,血防站,,,,28,17,15,,,100,95,7,7,4,4,0.4,0.5
2025-09-04T2100,2379A,116.3564,28.0007,抚州市,采茶剧团,,30,30,30,21,15,72,,95,89,2,5,5,5,0.4,0.5
2025-09-04T2100,2380A,116.385,27.9647,抚州市,医学分院,,38,38,32,15,15,73,,97,92,3,8,4,4,0.6,0.6
2025-09-04T2100,2207A,121.6094,41.998,阜新市,工业园区,颗粒物(PM10),52,54,45,27,27,80,,140,125,17,14,8,11,0.7,0.7
2025-09-04T2100,2208A,121.6697,42.0279,阜新市,长青街,颗粒物(PM10),52,53,45,34,30,70,,134,121,23,12,12,12,0.6,0.6
2025-09-04T2100,2209A,121.6673,42.0705,阜新市,农业园区,,43,43,45,29,25,90,,138,125,13,9,5,6,0.7,0.8
2025-09-04T2100,2210A,121.6717,42.0224,阜新市,东苑,,46,46,53,28,25,75,,133,119,27,14,17,16,0.7,0.6
2025-09-04T2100,2211A,121.6506,42.0498,阜新市,玉龙新城,颗粒物(PM10),53,56,44,31,22,75,,132,118,18,13,11,10,0.7,0.7
2025-09-04T2100,2301A,115.8277,32.8929,阜阳市,市监测站,,32,32,39,21,27,102,,132,127,15,15,4,5,0.4,0.5
2025-09-04T2100,2303A,115.8554,32.8605,阜阳市,开发区,,,55,43,19,20,,,130,129,15,13,6,6,0.4,0.4
2025-09-04T2100,2875A,115.784,32.8892,阜阳市,阜阳职业技术学院,,38,30,41,26,19,114,,140,137,10,11,6,6,0.5,0.5
2025-09-04T2100,3468A,115.7901,32.8613,阜阳市,市规划展馆,,41,41,45,11,23,122,,152,148,13,14,3,4,0.5,0.5
2025-09-04T2100,3469A,115.836,32.9183,阜阳市,枣园社区,,43,43,44,21,25,112,,141,136,12,14,4,5,0.6,0.7
2025-09-04T2100,2669A,102.9099,34.9841,甘南藏族自治州,州政府,,32,,25,22,14,51,,65,63,13,9,6,6,0.3,0.2
2025-09-04T2100,3380A,102.8914,34.9617,甘南藏族自治州,甘肃民族师范学院,,,,25,13,14,,,76,76,16,12,4,4,0.3,0.4
2025-09-04T2100,2570A,101.9603,30.0475,甘孜藏族自治州,水桥子,,,16,19,12,6,9,,54,44,31,17,7,6,,0.5
2025-09-04T2100,3065A,101.9533,29.9972,甘孜藏族自治州,州环保局,,13,11,17,3,5,19,,56,47,25,15,4,4,0.5,0.4
2025-09-04T2100,3414A,115.8347,28.932,赣江新区,桑海产业园,,22,22,27,13,16,49,,123,98,17,20,5,7,0.3,0.5
2025-09-04T2100,2362A,114.9017,25.9149,赣州市,通天岩,,25,25,23,15,11,77,,96,76,4,4,15,15,0.7,0.6
2025-09-04T2100,2363A,114.9367,25.8664,赣州市,地委,,34,34,31,22,19,72,,120,98,9,14,9,6,0.7,0.7
2025-09-04T2100,2364A,114.9461,25.8481,赣州市,气象台,,22,22,30,13,15,63,,110,89,10,15,10,8,0.7,0.7
2025-09-04T2100,2365A,114.9322,25.8333,赣州市,市图书馆,,28,27,28,19,18,63,,103,86,14,15,7,5,0.7,0.7
2025-09-04T2100,2366A,114.8905,25.8471,赣州市,华坚鞋城,,,34,32,23,16,,,108,91,,14,7,6,0.5,0.7
2025-09-04T2100,3109A,115.0093,25.8613,赣州市,赣县区卫计委,,26,,25,18,17,62,,108,89,5,12,6,6,0.6,0.6
2025-09-04T2100,2683A,106.2319,36.1417,固原市,马园,,,,,,,,,,,,,,,,
2025-09-04T2100,2684A,106.2792,36.0022,固原市,监测站,,17,9,37,3,17,53,,67,64,9,8,7,7,0.3,0.3
2025-09-04T2100,2685A,106.2375,36.0211,固原市,新区,,15,,37,10,22,42,,57,53,10,10,8,8,0.5,0.4
2025-09-04T2100,3522A,106.2177,35.9959,固原市,原州区十五小,,14,10,40,7,20,42,,56,54,12,10,10,10,0.4,0.3
2025-09-04T2100,2543A,106.6308,30.5278,广安市,小平旧居,,,,,,,,,,,,,,,,
2025-09-04T2100,2544A,106.6303,30.4576,广安市,市委,细颗粒物(PM2.5),85,,43,63,39,61,,111,105,11,12,3,4,0.5,0.4
2025-09-04T2100,2545A,106.6271,30.4663,广安市,友谊中学,细颗粒物(PM2.5),53,48,39,37,28,80,,120,116,10,11,4,6,0.8,0.9
2025-09-04T2100,2547A,106.6388,30.4551,广安市,广电花园,,49,40,36,34,27,64,,108,103,9,11,4,4,0.7,0.6
2025-09-04T2100,2902A,106.6351,30.4865,广安市,北辰小学,"颗粒物(PM10),细颗粒物(PM2.5)",54,57,38,38,26,76,,116,113,9,8,8,7,0.7,0.6
2025-09-04T2100,2523A,105.8945,32.4535,广元市,黑石坡,,11,11,21,3,10,0,,8,8,12,11,9,10,0.3,0.4
2025-09-04T2100,2524A,105.821,32.4444,广元市,老城,,33,33,14,6,6,13,,29,22,28,19,2,2,1.0,1
2025-09-04T2100,2526A,105.8628,32.4287,广元市,监测站,,16,13,12,8,7,6,,32,20,31,17,9,8,1.1,0.9
2025-09-04T2100,3617A,105.8047,32.4166,广元市,经开区,,24,24,21,15,10,4,,21,17,32,22,5,5,1.0,0.8
2025-09-04T2100,1345A,113.2347,23.1423,广州市,广雅中学,,26,26,24,13,10,69,,119,109,16,17,4,4,0.7,0.6
2025-09-04T2100,1346A,113.2612,23.105,广州市,市五中,,22,21,18,12,9,69,,123,111,26,20,6,5,0.2,0.2
2025-09-04T2100,1348A,113.3478,23.0916,广州市,广东商学院,,32,32,20,19,8,61,,117,107,34,22,4,4,0.2,0.2
2025-09-04T2100,1349A,113.4332,23.1047,广州市,市八十六中,,25,20,15,10,7,58,,104,96,50,31,4,4,0.6,0.6
2025-09-04T2100,1350A,113.3505,22.9483,广州市,番禺中学,,23,23,17,7,8,63,,98,92,20,10,5,5,0.6,0.5
2025-09-04T2100,1351A,113.2146,23.3916,广州市,花都师范,,37,37,37,8,13,84,,161,153,31,28,5,5,0.6,0.6
2025-09-04T2100,1352A,113.2597,23.1331,广州市,市监测站,,,38,21,14,9,,,116,111,16,17,5,6,0.4,0.3
2025-09-04T2100,1353A,113.5618,23.312,广州市,九龙镇镇龙,细颗粒物(PM2.5),58,62,39,41,21,52,,173,163,66,28,7,8,0.5,0.5
2025-09-04T2100,1354A,113.2765,23.1544,广州市,麓湖,,25,25,19,16,10,60,,111,102,24,22,3,3,0.3,0.3
2025-09-04T2100,1355A,113.443,23.3035,广州市,帽峰山森林公园,,30,30,17,7,7,79,,144,133,44,27,9,7,0.5,0.5
2025-09-04T2100,2846A,113.3221,23.1322,广州市,体育西,,30,29,19,21,10,64,,118,109,26,22,4,5,0.6,0.5
2025-09-04T2100,3298A,113.5717,23.5491,广州市,从化街口,,,65,35,37,20,,,184,184,18,22,9,9,0.7,0.6
2025-09-04T2100,3299A,113.3472,23.3692,广州市,白云竹料,,,39,26,16,11,,,130,130,38,28,5,5,0.5,0.4
2025-09-04T2100,3300A,113.2981,23.237,广州市,白云嘉禾,,38,38,25,15,11,66,,132,121,42,26,7,6,0.4,0.4
2025-09-04T2100,3301A,113.4256,23.1716,广州市,黄埔科学城,,40,40,21,15,10,52,,115,109,38,22,5,4,0.6,0.5
2025-09-04T2100,3302A,113.3942,23.0483,广州市,番禺大学城,,23,,17,12,8,71,,115,109,28,18,10,9,0.4,0.4
2025-09-04T2100,3303A,113.4922,22.8168,广州市,南沙黄阁,,22,22,24,6,8,42,,101,94,14,15,4,4,0.4,0.5
2025-09-04T2100,3304A,113.5342,22.7896,广州市,南沙街,,20,20,16,3,8,46,,104,97,11,14,5,4,0.3,0.3
2025-09-04T2100,3443A,113.2902,23.5544,广州市,花都梯面,,45,45,33,22,15,31,,146,130,42,24,6,6,0.6,0.6
2025-09-04T2100,3445A,113.7858,23.7478,广州市,从化良口,,38,28,24,24,18,120,,122,120,7,11,5,5,0.5,0.5
2025-09-04T2100,3446A,113.8051,23.2614,广州市,增城荔城,,49,49,37,27,22,127,,195,186,19,19,8,9,0.6,0.5
2025-09-04T2100,2505A,109.568,23.1478,贵港市,德智高中,,,,,,,,,,,,,,,,
2025-09-04T2100,2506A,109.6047,23.0666,贵港市,江南子站,,29,29,33,19,19,45,,81,74,8,13,4,5,0.5,0.5
2025-09-04T2100,2508A,109.5669,23.1065,贵港市,荷城子站,,22,22,25,12,9,47,,84,79,12,12,4,4,0.5,0.5
2025-09-04T2100,3405A,109.5886,23.1172,贵港市,新世纪学校,,20,14,22,14,14,56,,94,89,7,11,2,3,0.5,0.5
2025-09-04T2100,4260A,109.5933,23.0951,贵港市,中山路155-3号,,20,16,30,14,14,51,,89,83,8,11,3,5,0.4,0.4
2025-09-04T2100,1439A,106.6899,26.5998,贵阳市,马鞍山,,,,,,,,,,,,,,,,
2025-09-04T2100,1441A,106.6243,26.6266,贵阳市,鉴湖路,细颗粒物(PM2.5),58,63,28,41,10,41,,54,53,14,7,6,6,0.5,0.3
2025-09-04T2100,1442A,106.7487,26.6343,贵阳市,燕子冲,,32,22,13,22,15,48,,63,60,10,8,3,4,0.4,0.4
2025-09-04T2100,1443A,106.6555,26.4365,贵阳市,碧云窝,,46,46,26,22,7,48,,58,57,10,6,6,6,0.4,0.3
2025-09-04T2100,1445A,106.7109,26.6027,贵阳市,红边门,细颗粒物(PM2.5),67,58,24,48,16,38,,59,56,22,11,3,2,0.5,0.3
2025-09-04T2100,1446A,106.7164,26.5699,贵阳市,新华路,,41,41,20,24,9,45,,58,55,15,11,12,14,0.3,0.3
2025-09-04T2100,1447A,106.674,26.5424,贵阳市,太慈桥,,39,34,21,27,9,50,,61,60,12,10,5,5,0.2,0.1
2025-09-04T2100,1552A,106.805,26.3003,贵阳市,桐木岭,,25,20,26,17,15,56,,58,58,5,4,2,5,1.0,1
2025-09-04T2100,4230A,106.6882,26.5695,贵阳市,花果园大街66号,细颗粒物(PM2.5),62,56,10,44,13,39,,56,53,18,6,4,4,0.8,0.5
2025-09-04T2100,4231A,106.6873,26.5169,贵阳市,漓江路57号,,45,44,20,31,10,40,,61,58,14,6,6,6,0.6,0.5
2025-09-04T2100,1862A,110.4144,25.3167,桂林市,电子科大尧山校区,,,,,,,,,,,,,,,,
2025-09-04T2100,1864A,110.3089,25.2708,桂林市,龙隐路小学,,32,24,23,22,12,56,,76,69,10,8,5,5,0.4,0.3
2025-09-04T2100,1865A,110.2869,25.2178,桂林市,八中,,39,39,32,16,18,44,,76,69,10,7,6,6,0.5,0.4
2025-09-04T2100,3531A,110.296,25.1253,桂林市,旅游学院,,,,20,22,11,,,85,81,10,10,3,4,0.4,0.4
2025-09-04T2100,4222A,110.1835,25.2444,桂林市,环湖路276号,,,27,26,17,14,,,86,86,9,19,4,6,0.3,0.2
2025-09-04T2100,4301A,110.2803,25.2773,桂林市,信义路13号,,26,,22,18,16,72,,79,77,12,8,4,5,0.4,0.4
2025-09-04T2100,2674A,100.2561,34.4714,果洛藏族自治州,玛沁县大武镇,,37,37,25,19,13,58,,81,75,4,5,17,16,0.5,0.5
2025-09-04T2100,1129A,126.5422,45.755,哈尔滨市,岭北,,37,31,34,21,23,118,,144,138,17,15,14,14,0.9,1
2025-09-04T2100,1130A,126.561,45.8167,哈尔滨市,松北商大,,42,42,40,23,21,77,,111,101,20,13,8,8,0.6,0.7
2025-09-04T2100,1131A,126.979,45.5419,哈尔滨市,阿城会宁,颗粒物(PM10),55,59,35,34,20,41,,114,97,30,8,6,8,0.7,0.6
2025-09-04T2100,1132A,126.599,45.7222,哈尔滨市,南岗学府路,颗粒物(PM10),62,74,46,27,18,50,,122,105,48,16,8,9,0.8,0.6
2025-09-04T2100,1133A,126.689,45.7733,哈尔滨市,太平宏伟公园,,44,44,46,25,21,86,,114,107,18,16,10,9,0.7,0.7
2025-09-04T2100,1134A,126.635,45.7667,哈尔滨市,道外承德广场,颗粒物(PM10),55,59,60,21,19,67,,106,96,26,16,8,8,0.8,0.6
2025-09-04T2100,1135A,126.685,45.7319,哈尔滨市,香坊红旗大街,颗粒物(PM10),54,58,43,36,26,71,,113,102,34,23,10,8,0.8,0.7
2025-09-04T2100,1136A,126.6411,45.7258,哈尔滨市,动力和平路,,,62,46,,16,66,,113,101,34,19,8,6,0.8,0.8
2025-09-04T2100,1137A,126.593,45.7478,哈尔滨市,道里建国路,,39,30,43,27,24,74,,102,94,33,20,4,6,1.0,0.4
2025-09-04T2100,1138A,126.615,45.61,哈尔滨市,平房东轻厂,,30,30,35,17,17,75,,108,101,14,9,8,8,0.6,0.6
2025-09-04T2100,1139A,126.595,45.9855,哈尔滨市,呼兰师专,,38,38,41,17,25,90,,123,110,22,15,12,12,0.7,0.7
2025-09-04T2100,1140A,126.6206,45.6842,哈尔滨市,省农科院,颗粒物(PM10),62,74,65,28,22,16,,101,76,84,31,6,6,0.8,0.7
2025-09-04T2100,2688A,93.5128,42.8172,哈密市,地区监测站,,,76,87,,20,60,,86,84,29,7,,4,,0.1
2025-09-04T2100,2689A,93.4961,42.8328,哈密市,哈密师范学校,颗粒物(PM10),65,79,70,11,20,57,,88,85,24,8,4,4,0.3,0.2
2025-09-04T2100,2671A,100.9048,36.9639,海北藏族自治州,海晏县西海镇,,34,24,37,18,27,108,,116,116,6,6,7,8,0.5,0.6
2025-09-04T2100,3867A,102.0738,36.5056,海东市,平安区公安北苑,颗粒物(PM10),61,71,42,29,25,96,,118,112,6,10,15,12,0.7,0.8
2025-09-04T2100,1409A,110.576,19.9507,海口市,东寨港,,12,10,14,6,8,38,,42,42,3,5,6,6,0.3,0.3
2025-09-04T2100,1410A,110.3232,20.0574,海口市,海南大学,,16,14,11,7,5,50,,48,48,3,3,3,3,0.3,0.3
2025-09-04T2100,1411A,110.283,20.0053,海口市,秀英海南医院,,16,16,14,9,5,41,,43,43,5,8,6,6,0.2,0.2
2025-09-04T2100,1412A,110.338,19.9969,海口市,海南师范大学,,19,19,12,7,5,47,,49,47,4,4,4,4,0.4,0.3
2025-09-04T2100,1413A,110.33,20.0356,海口市,龙华路环保局宿舍,,16,15,11,8,5,50,,50,50,4,4,6,6,0.3,0.3
2025-09-04T2100,3539A,110.5111,19.9736,海口市,桂林洋子站,,16,15,16,11,8,38,,46,45,5,7,5,5,0.2,0.2
2025-09-04T2100,2673A,100.6188,36.2866,海南藏族自治州,共和县恰卜恰镇,,,59,42,8,18,106,,100,98,,13,8,10,0.3,0.5
2025-09-04T2100,2676A,97.3731,37.3753,海西蒙古族藏族自治州,德令哈市,颗粒物(PM10),78,106,31,23,16,96,,99,98,3,3,10,8,0.1,0.3
2025-09-04T2100,1048A,114.5302,36.6116,邯郸市,东污水处理厂,,39,35,28,27,21,97,,132,130,18,15,8,10,1.1,0.8
2025-09-04T2100,1049A,114.4918,36.5713,邯郸市,矿院,,34,23,22,22,21,108,,128,128,12,21,5,7,0.7,0.8
2025-09-04T2100,1050A,114.484,36.6133,邯郸市,丛台公园,,39,,19,27,15,95,,132,131,19,15,10,11,0.9,0.7
2025-09-04T2100,3458A,114.7895,36.5593,邯郸市,香泉濮院小区,,42,42,37,11,12,89,,122,120,19,17,3,3,0.9,0.6
2025-09-04T2100,3579A,114.50634,36.77178,邯郸市,永年区实验高中,,43,43,32,26,17,90,,127,124,24,13,6,6,0.2,0.3
2025-09-04T2100,3580A,114.20016,36.44293,邯郸市,峰峰矿区临水派出所,,45,45,34,22,15,119,,113,113,11,18,7,13,0.7,0.9
2025-09-04T2100,2634A,106.9893,33.1842,汉中市,汉川机床厂子校,,23,22,17,16,9,30,,42,42,10,8,3,3,0.6,0.6
2025-09-04T2100,2635A,107.0154,33.0706,汉中市,市监测站,,23,23,15,11,8,19,,40,36,11,8,6,6,0.7,0.8
2025-09-04T2100,2636A,107.0089,33.1138,汉中市,鑫源开发区,,21,21,14,6,7,21,,36,34,8,9,6,6,0.6,0.6
2025-09-04T2100,2637A,107.007,33.0323,汉中市,南郑大河坎水厂,,23,23,14,3,6,10,,37,33,19,11,6,6,0.7,0.6
2025-09-04T2100,1223A,120.2072,30.2111,杭州市,滨江,,44,44,37,23,23,107,,178,166,28,23,7,7,0.6,0.6
2025-09-04T2100,1224A,120.0633,30.2747,杭州市,西溪,,46,34,26,32,22,92,,151,139,22,17,7,7,0.6,0.6
2025-09-04T2100,1226A,120.3417,30.3150,杭州市,下沙,,32,32,35,18,24,94,,195,174,22,29,6,6,0.4,0.4
2025-09-04T2100,1227A,120.1269,30.2456,杭州市,卧龙桥,,42,38,30,29,23,49,,139,108,21,10,7,7,0.8,0.7
2025-09-04T2100,1228A,120.1903,30.2692,杭州市,浙江农大,,48,48,46,22,26,78,,145,134,43,32,6,5,0.6,0.6
2025-09-04T2100,1230A,120.1197,30.3119,杭州市,和睦小学,,41,41,32,25,21,114,,164,153,20,17,5,5,0.6,0.5
2025-09-04T2100,1231A,120.3019,30.4183,杭州市,临平镇,,43,43,48,21,25,121,,197,180,22,23,6,6,0.6,0.7
2025-09-04T2100,1232A,120.2753,30.1839,杭州市,城厢镇,颗粒物(PM10),51,51,39,29,28,90,,196,174,30,20,10,9,0.7,0.6
2025-09-04T2100,1233A,120.0883,30.1808,杭州市,云栖,,,35,30,,,53,,148,114,25,18,10,10,0.8,0.8
2025-09-04T2100,3557A,119.9464,30.0494,杭州市,镇二中,,,39,30,32,27,,,142,133,17,20,5,5,0.7,0.8
2025-09-04T2100,3558A,119.7183,30.2367,杭州市,市府大楼,,30,30,31,19,19,74,,138,113,12,13,8,8,0.4,0.4
2025-09-04T2100,3656A,120.1556,30.2864,杭州市,消防大队,,39,37,33,27,26,113,,165,158,19,16,7,7,0.5,0.6
2025-09-04T2100,1270A,117.1959,31.7848,合肥市,明珠广场,,27,27,30,17,21,46,,156,122,36,20,6,7,0.6,0.7
2025-09-04T2100,1271A,117.3072,31.8764,合肥市,三里街,,32,31,33,22,22,101,,140,128,13,14,5,6,0.7,0.8
2025-09-04T2100,1272A,117.2588,31.8707,合肥市,琥珀山庄,,43,41,38,30,25,114,,157,142,11,12,8,8,0.8,0.8
2025-09-04T2100,1273A,117.1604,31.9052,合肥市,董铺水库,,39,31,38,27,30,70,,139,123,10,11,4,4,0.4,0.5
2025-09-04T2100,1274A,117.25,31.8571,合肥市,长江中路,,39,34,36,27,20,123,,165,150,10,12,6,7,0.7,0.7
2025-09-04T2100,1275A,117.266,31.9436,合肥市,庐阳区,,48,48,43,24,23,98,,165,140,20,21,6,7,0.6,0.7
2025-09-04T2100,1276A,117.3453,31.8616,合肥市,瑶海区,,39,36,36,27,21,107,,156,141,16,16,6,7,0.7,0.7
2025-09-04T2100,1277A,117.3027,31.7964,合肥市,包河区,,45,41,36,31,22,78,,146,118,52,42,9,14,0.9,0.8
2025-09-04T2100,1278A,117.2776,31.7385,合肥市,滨湖新区,,,41,32,24,25,,,146,126,40,15,5,6,0.7,0.8
2025-09-04T2100,1279A,117.1318,31.8403,合肥市,高新区,,21,17,34,8,22,67,,172,140,23,19,5,6,0.6,0.8
2025-09-04T2100,3464A,117.3803,31.9147,合肥市,高教基地,,36,31,32,25,19,95,,128,112,9,10,6,6,0.8,0.8
2025-09-04T2100,3614A,79.924,37.0877,和田地区,地区环保局,颗粒物(PM10),430,530,697,159,203,,,99,99,12,15,3,4,0.5,0.4
2025-09-04T2100,3615A,79.9131,37.113,和田地区,市环保局,颗粒物(PM10),397,497,682,124,168,72,,97,96,29,34,1,4,0.3,0.4
2025-09-04T2100,2516A,108.2011,24.715,河池市,东仁乐园,,,,,,,,,,,,,,,,
2025-09-04T2100,2517A,108.0497,24.6947,河池市,市环保站,,16,,22,11,11,45,,68,58,6,9,5,7,0.5,0.5
2025-09-04T2100,2518A,108.0983,24.6989,河池市,市疾控中心,,29,29,18,13,12,24,,72,61,28,13,8,8,0.6,0.5
2025-09-04T2100,1696A,114.6778,23.7569,河源市,源西,,50,,19,35,18,32,,91,77,36,14,6,6,1.0,0.8
2025-09-04T2100,1697A,114.6944,23.7586,河源市,东埔,,35,35,23,15,12,46,,93,83,24,11,4,5,0.9,0.7
2025-09-04T2100,1698A,114.6892,23.7233,河源市,老城,,,,25,,13,,,62,,,9,,6,,0.6
2025-09-04T2100,1718A,115.4208,35.2464,菏泽市,气象局,,41,41,31,23,23,69,,86,76,15,14,4,4,0.5,0.4
2025-09-04T2100,3374A,115.5564,35.0891,菏泽市,定陶老年大学,,35,34,38,24,23,54,,69,64,20,16,6,6,0.3,0.4
2025-09-04T2100,4184A,115.4797,35.24401,菏泽市,永昌路1号,,36,25,36,25,27,74,,80,76,9,11,7,8,0.6,0.5
2025-09-04T2100,4193A,115.4715,35.2800,菏泽市,长城路999号,,42,30,33,29,24,67,,72,72,16,18,10,11,0.5,0.4
2025-09-04T2100,2514A,111.5264,24.4172,贺州市,环保小区,,31,31,23,15,17,80,,95,90,7,11,16,15,0.4,0.5
2025-09-04T2100,2515A,111.5608,24.4078,贺州市,政协大楼,,39,39,21,17,17,85,,117,111,13,11,13,14,0.9,0.8
2025-09-04T2100,3534A,111.4744,24.4553,贺州市,西湾,,33,24,27,23,15,75,,92,88,11,12,5,6,0.3,0.3
2025-09-04T2100,2385A,114.17,35.9019,鹤壁市,市监测站,,35,27,21,24,17,95,,87,87,9,6,9,7,0.8,0.6
2025-09-04T2100,2386A,114.2956,35.7511,鹤壁市,市交警支队,,35,34,23,24,19,73,,80,80,7,10,3,4,0.9,0.8
2025-09-04T2100,2387A,114.2878,35.7306,鹤壁市,迎宾馆,,32,28,23,22,16,72,,74,74,14,13,5,4,0.9,0.7
2025-09-04T2100,3474A,114.2617,35.6822,鹤壁市,大新区,,33,33,21,14,10,73,,82,81,6,9,7,7,0.8,0.6
2025-09-04T2100,3596A,114.1572,35.9603,鹤壁市,南山宾馆,,45,,14,31,15,88,,84,84,10,7,4,4,0.9,0.5
2025-09-04T2100,2244A,130.2537,47.3416,鹤岗市,哈啤分公司,颗粒物(PM10),56,62,36,27,17,35,,108,83,20,11,11,11,0.5,0.5
2025-09-04T2100,2245A,130.2684,47.3086,鹤岗市,斯达机电,颗粒物(PM10),52,54,35,26,13,59,,110,100,32,14,13,12,0.6,0.5
2025-09-04T2100,2246A,130.3114,47.3388,鹤岗市,东山纸板厂,颗粒物(PM10),102,153,52,25,16,14,,102,67,32,18,13,13,1.0,0.7
2025-09-04T2100,2247A,130.1097,47.3382,鹤岗市,五号水库,,25,25,18,9,8,32,,102,75,14,12,5,5,0.3,0.3
2025-09-04T2100,2263A,127.4833,50.2524,黑河市,交通局,颗粒物(PM10),61,71,28,33,15,25,,61,49,26,13,13,8,0.8,0.5
2025-09-04T2100,2264A,127.5144,50.2341,黑河市,环保局,,50,50,23,26,12,37,,68,54,23,11,13,6,0.5,0.3
2025-09-04T2100,2265A,127.5291,50.2472,黑河市,大黑河岛,,,,,19,8,25,,56,47,2,2,31,24,0.5,0.4
2025-09-04T2100,1074A,115.6838,37.7541,衡水市,电机北厂,颗粒物(PM10),58,65,43,24,21,117,,151,146,17,14,5,5,0.5,0.4
2025-09-04T2100,1075A,115.6303,37.7316,衡水市,市监测站,颗粒物(PM10),61,72,48,25,18,107,,145,137,14,12,8,8,0.6,0.6
2025-09-04T2100,3188A,115.6683,37.7217,衡水市,市城管局,颗粒物(PM10),56,62,49,31,22,130,,150,148,10,16,8,8,0.6,0.5
2025-09-04T2100,3459A,115.5989,37.5491,衡水市,地表水厂,颗粒物(PM10),54,57,54,22,22,115,,148,143,10,25,3,4,0.4,0.4
2025-09-04T2100,2456A,112.5003,26.9167,衡阳市,原169医院,细颗粒物(PM2.5),55,47,41,39,23,48,,94,79,4,4,5,7,0.7,0.6
2025-09-04T2100,2457A,112.6194,26.9258,衡阳市,衡阳化工总厂,细颗粒物(PM2.5),102,94,45,76,27,51,,100,79,23,12,6,9,1.6,1
2025-09-04T2100,2458A,112.6211,26.8956,衡阳市,珠晖区环保局,,45,45,38,22,22,69,,106,89,13,11,8,12,1.1,1
2025-09-04T2100,2459A,112.6197,26.8733,衡阳市,市委党校,,,52,31,39,25,,,97,83,14,12,5,17,0.7,0.6
2025-09-04T2100,2460A,112.6006,26.8919,衡阳市,市监测站,,50,,35,35,23,58,,96,80,19,10,4,4,1.0,0.8
2025-09-04T2100,2461A,112.5664,26.9056,衡阳市,真空机电公司,,32,32,35,21,22,57,,91,78,12,11,5,9,0.9,1.1
2025-09-04T2100,3399A,112.6703,26.882,衡阳市,师范学院,细颗粒物(PM2.5),57,58,37,40,23,65,,102,87,11,9,9,10,0.7,0.6
2025-09-04T2100,2608A,103.3772,23.3993,红河哈尼族彝族自治州,污水处理厂,,29,29,22,20,20,45,,44,43,5,7,8,9,0.3,0.3
2025-09-04T2100,2609A,103.3861,23.35,红河哈尼族彝族自治州,监测站,,39,39,27,13,14,50,,50,50,5,3,11,10,0.2,0.2
2025-09-04T2100,3038A,103.3758,23.368,红河哈尼族彝族自治州,州图书馆,,32,,19,22,22,50,,48,48,6,5,3,2,0.3,0.3
2025-09-04T2100,1090A,111.6507,40.7517,呼和浩特市,呼市一监,,39,39,42,13,25,85,,132,116,19,20,5,4,0.3,0.5
2025-09-04T2100,1091A,111.6572,40.8033,呼和浩特市,小召,,,34,40,8,21,,,128,122,17,26,6,6,0.5,0.6
2025-09-04T2100,1094A,111.7516,40.8369,呼和浩特市,如意水处理厂,,46,46,42,17,22,84,,131,120,22,24,9,7,0.4,0.4
2025-09-04T2100,1095A,111.7276,40.8062,呼和浩特市,二十九中,,50,50,46,14,25,101,,130,123,12,19,9,7,0.5,0.7
2025-09-04T2100,1096A,111.5512,40.7866,呼和浩特市,工大金川校区,颗粒物(PM10),68,86,53,20,23,64,,130,106,42,34,7,7,0.6,0.6
2025-09-04T2100,1097A,111.717,40.7612,呼和浩特市,化肥厂生活区,,46,46,48,19,24,82,,127,111,22,23,8,8,0.5,0.7
2025-09-04T2100,3698A,111.5968,40.8178,呼和浩特市,红旗小学,颗粒物(PM10),70,90,43,21,24,29,,141,118,71,27,6,6,0.4,0.4
2025-09-04T2100,3699A,111.6518,40.8389,呼和浩特市,海东办,,41,41,46,12,23,101,,143,132,20,29,8,7,0.5,0.4
2025-09-04T2100,2192A,119.7594,49.2261,呼伦贝尔市,区环保局,,,83,37,29,21,,,70,63,28,19,7,6,0.4,0.5
2025-09-04T2100,3061A,119.7512,49.1577,呼伦贝尔市,国华电力东,,39,39,23,17,10,58,,90,82,15,8,6,6,0.3,0.2
2025-09-04T2100,1250A,120.0751,30.8669,湖州市,城西水厂,,46,42,39,32,27,27,,171,147,77,42,8,9,0.5,0.5
2025-09-04T2100,2873A,120.0830,30.8929,湖州市,仁皇山新区,,49,44,42,34,28,132,,173,165,12,31,4,5,0.5,0.5
2025-09-04T2100,2907A,120.1844,30.8596,湖州市,吴兴区站,,,39,35,25,26,,,172,172,17,21,7,7,0.7,0.6
2025-09-04T2100,3562A,120.4148,30.8538,湖州市,南浔区站,,39,35,31,27,24,106,,158,146,16,16,8,7,0.8,0.7
2025-09-04T2100,1607A,120.9049,40.7211,葫芦岛市,龙港区,,45,35,44,31,28,122,,141,139,6,13,4,5,0.6,0.6
2025-09-04T2100,1608A,120.8392,40.7514,葫芦岛市,化工街,,42,39,41,29,29,101,,133,128,13,30,6,6,0.7,0.7
2025-09-04T2100,1609A,120.8341,40.7073,葫芦岛市,新区,细颗粒物(PM2.5),68,,47,49,49,102,,135,130,12,16,4,4,0.7,0.7
2025-09-04T2100,1610A,120.8695,40.7677,葫芦岛市,东城区,细颗粒物(PM2.5),68,,42,49,48,111,,137,133,16,26,5,6,0.9,0.8
2025-09-04T2100,2482A,109.5981,27.5721,怀化市,林科所,,31,31,21,16,7,47,,71,65,13,7,5,5,0.8,0.5
2025-09-04T2100,2483A,109.9453,27.5444,怀化市,河西地税局,细颗粒物(PM2.5),55,44,20,39,13,35,,68,58,17,8,4,4,0.6,0.2
2025-09-04T2100,2484A,109.9781,27.5342,怀化市,市四医院,,31,31,29,19,17,45,,72,65,12,8,6,7,0.1,0.2
2025-09-04T2100,2485A,109.9972,27.5578,怀化市,监测楼,,32,28,23,22,14,47,,71,65,12,7,5,6,0.3,0.1
2025-09-04T2100,2486A,110.0394,27.583,怀化市,市委党校,,32,31,23,22,13,47,,63,59,8,9,4,4,0.4,0.3
2025-09-04T2100,1210A,119.036,33.5981,淮安市,钵池山,,,17,22,15,17,,,113,105,10,12,6,6,0.4,0.5
2025-09-04T2100,1211A,119.007,33.575,淮安市,北京南路,,27,19,22,12,14,84,,119,109,10,12,6,7,0.5,0.6
2025-09-04T2100,1212A,118.989,33.6067,淮安市,市监测站,,,22,22,12,14,85,,120,115,,14,10,9,0.6,0.5
2025-09-04T2100,1213A,119.135,33.5039,淮安市,楚州区监测站,,26,24,29,12,15,81,,116,105,12,12,8,8,0.4,0.4
2025-09-04T2100,3426A,118.8755,33.2894,淮安市,新华书店,,,18,22,9,14,,,129,123,15,17,6,9,0.5,0.6
2025-09-04T2100,4206A,119.0288,33.6319,淮安市,承德北路606号,,27,27,26,14,14,75,,118,107,14,12,6,6,0.4,0.4
2025-09-04T2100,2282A,116.8004,33.975,淮北市,监测站,,35,29,31,10,19,110,,140,135,12,13,7,8,0.9,0.9
2025-09-04T2100,2283A,116.8091,33.9007,淮北市,烈山区政府,,,38,38,15,13,107,,130,124,,9,8,9,0.4,0.5
2025-09-04T2100,3330A,116.8873,33.9836,淮北市,杜集区检察院,,44,44,36,19,22,109,,132,130,9,8,9,9,0.6,0.7
2025-09-04T2100,4017A,116.7923,33.9535,淮北市,市博物馆,,37,24,30,16,19,118,,134,132,12,12,6,7,0.5,0.6
2025-09-04T2100,2277A,116.8305,32.7727,淮南市,潘集区政府,,48,48,35,30,19,85,,141,126,15,13,5,3,0.5,0.4
2025-09-04T2100,2279A,116.8569,32.5951,淮南市,谢家集区政府,,32,20,31,15,20,102,,136,127,6,11,6,8,0.3,0.4
2025-09-04T2100,2280A,116.8281,32.633,淮南市,八公山区政府,,41,41,40,24,24,93,,140,129,10,10,5,5,0.4,0.4
2025-09-04T2100,2281A,116.6325,32.6201,淮南市,焦岗湖风景区管理处,,,,,,,,,,,,,,,,
2025-09-04T2100,2894A,117.0566,32.6531,淮南市,经济技术开发区消防队,,29,26,35,3,11,90,,126,114,14,17,8,9,0.3,0.4
2025-09-04T2100,3329A,117.0108,32.5893,淮南市,山南新区,,32,17,30,12,15,102,,135,126,9,12,5,6,0.5,0.5
2025-09-04T2100,4209A,117.0031,32.6445,淮南市,国庆中路369号,,,39,40,20,27,,,149,142,7,12,4,5,0.4,0.6
2025-09-04T2100,2446A,114.9028,30.4742,黄冈市,职工中心,,27,24,37,18,27,84,,138,115,9,14,4,7,0.5,0.6
2025-09-04T2100,2929A,114.8858,30.4519,黄冈市,红卫路,,,30,35,20,25,,,140,121,5,18,4,10,0.5,0.6
2025-09-04T2100,3398A,114.9136,30.4445,黄冈市,市林业局,,26,26,38,15,22,79,,131,106,6,16,4,8,0.4,0.6
2025-09-04T2100,2672A,102.0199,35.5102,黄南藏族自治州,同仁县隆务镇,,,35,30,14,14,,,84,77,2,5,9,10,,0.3
2025-09-04T2100,2295A,118.2903,29.6963,黄山市,延安路89号,,38,38,31,3,9,82,,94,85,4,6,4,4,0.4,0.4
2025-09-04T2100,2297A,118.1371,30.2756,黄山市,黄山区政府5号楼,,35,35,21,24,11,23,,85,66,7,3,4,4,0.7,0.6
2025-09-04T2100,4210A,118.3354,29.7203,黄山市,滨江东路7-2号,,33,33,25,6,6,75,,95,86,4,5,3,3,0.4,0.3
2025-09-04T2100,2423A,115.0601,30.2313,黄石市,沈家营,颗粒物(PM10),66,82,62,29,19,49,,112,81,19,19,6,10,0.5,0.6
2025-09-04T2100,2426A,114.8988,30.2019,黄石市,铁山,,39,39,35,26,17,60,,107,81,12,7,4,5,0.6,0.5
2025-09-04T2100,2427A,115.0307,30.2092,黄石市,团城山,细颗粒物(PM2.5),54,55,37,38,19,59,,125,99,19,10,7,9,0.6,0.6
2025-09-04T2100,3149A,115.0235,30.1578,黄石市,笔架山北路,颗粒物(PM10),52,54,37,17,15,66,,111,90,16,9,6,6,0.5,0.5
2025-09-04T2100,4185A,115.0780,30.21118,黄石市,磁湖东路29号,颗粒物(PM10),80,110,65,40,23,43,,120,89,30,19,7,13,0.8,0.9
2025-09-04T2100,1392A,114.4183,23.0528,惠州市,河南岸金山湖子站,,22,22,21,8,12,23,,105,85,23,15,9,9,0.5,0.4
2025-09-04T2100,1393A,114.4053,23.0822,惠州市,下埔横江三路子站,,36,36,22,18,11,23,,109,91,26,12,7,6,0.2,0.2
2025-09-04T2100,1394A,114.4103,23.1142,惠州市,江北云山西路子站,,26,26,22,9,11,29,,123,104,25,15,10,9,0.5,0.5
2025-09-04T2100,1395A,114.4645,22.7833,惠州市,惠阳区承修路船湖子站,,12,11,15,3,6,38,,62,53,8,10,7,7,0.5,0.5
2025-09-04T2100,1396A,114.5317,22.7422,惠州市,大亚湾管委会子站,,13,11,15,3,7,39,,58,50,8,10,8,8,0.5,0.5
2025-09-04T2100,3314A,114.4338,22.8134,惠州市,惠阳秋长,,,9,19,3,8,,,71,60,7,13,7,8,0.4,0.5
2025-09-04T2100,3452A,114.6517,22.775,惠州市,大亚湾霞涌,,16,,12,6,8,49,,66,58,6,7,6,7,0.3,0.4
2025-09-04T2100,2240A,130.9762,45.3001,鸡西市,环保局,颗粒物(PM10),55,59,42,25,19,18,,123,86,40,25,8,7,0.9,0.7
2025-09-04T2100,2243A,130.9429,45.3039,鸡西市,第一中学,颗粒物(PM10),58,65,40,24,15,32,,111,87,27,19,10,10,0.7,0.7
2025-09-04T2100,3707A,131.0207,45.3073,鸡西市,欧美日汽修厂,颗粒物(PM10),59,68,52,19,19,30,,115,89,22,19,9,11,0.7,0.8
2025-09-04T2100,3709A,130.9967,45.3106,鸡西市,市政设施管理处,颗粒物(PM10),67,84,47,32,19,26,,121,88,38,25,8,9,0.7,0.7
2025-09-04T2100,2367A,114.9754,27.0803,吉安市,红声器材厂,,,37,34,15,16,,,109,101,5,6,8,16,0.4,0.5
2025-09-04T2100,2368A,114.9658,27.0999,吉安市,市森林工业局,,31,31,31,21,15,71,,111,98,5,7,9,9,0.5,0.6
2025-09-04T2100,2369A,114.99,27.1312,吉安市,市环境监测站,,31,31,27,14,14,77,,125,110,4,5,11,11,0.6,0.6
2025-09-04T2100,2370A,115.0093,27.0968,吉安市,青原区法院,,36,36,32,17,17,78,,123,109,4,9,12,10,0.7,0.6
2025-09-04T2100,1772A,126.54,43.8622,吉林市,哈达湾,,49,49,27,18,15,42,,101,87,31,14,8,7,0.5,0.3
2025-09-04T2100,1773A,126.5844,43.8358,吉林市,东局子,细颗粒物(PM2.5),72,73,30,52,19,25,,98,69,42,15,6,6,0.9,0.6
2025-09-04T2100,1774A,126.5052,43.8245,吉林市,电力学院,颗粒物(PM10),74,98,34,49,17,11,,92,68,35,15,7,6,0.9,0.7
2025-09-04T2100,1775A,126.6133,43.8972,吉林市,江北,,,,30,57,19,,,98,79,24,10,6,5,0.7,0.6
2025-09-04T2100,1776A,126.555,43.8306,吉林市,江南公园,,37,37,26,16,15,39,,95,77,16,10,2,2,0.5,0.5
2025-09-04T2100,1778A,126.7061,43.7133,吉林市,丰满,,23,20,16,16,14,50,,84,74,4,4,6,5,0.6,0.7
2025-09-04T2100,2868A,126.4739,43.953,吉林市,九站,,38,38,30,21,15,21,,106,82,56,16,74,9,0.5,0.4
2025-09-04T2100,1299A,116.9862,36.6114,济南市,科干所,细颗粒物(PM2.5),53,51,43,37,28,123,,163,160,22,23,7,7,0.7,0.8
2025-09-04T2100,1300A,116.9376,36.665,济南市,农科所,颗粒物(PM10),53,56,52,27,30,104,,171,163,29,29,8,9,0.5,0.6
2025-09-04T2100,1301A,117.1265,36.6734,济南市,开发区,颗粒物(PM10),55,59,44,34,29,121,,167,158,24,24,9,8,0.7,0.7
2025-09-04T2100,1303A,117.0624,36.6868,济南市,省种子仓库,颗粒物(PM10),56,61,58,39,29,122,,176,169,22,30,6,5,0.7,0.7
2025-09-04T2100,1304A,116.9489,36.6447,济南市,机床二厂,,,59,59,29,28,,,172,171,27,34,12,10,0.6,0.6
2025-09-04T2100,1305A,117.0495,36.663,济南市,市监测站,细颗粒物(PM2.5),53,54,46,37,27,113,,164,156,24,24,10,10,0.8,0.8
2025-09-04T2100,1306A,116.7675,36.5484,济南市,长清党校,细颗粒物(PM2.5),59,66,48,42,30,92,,165,156,37,26,7,7,0.7,0.7
2025-09-04T2100,1616A,117.6795,36.229,济南市,技术学院,,39,34,25,27,18,83,,122,111,21,21,9,10,0.8,0.7
2025-09-04T2100,1961A,117.532,36.6868,济南市,东山小学,颗粒物(PM10),53,56,45,34,24,102,,168,155,27,24,7,7,0.6,0.5
2025-09-04T2100,3059A,117.7161,36.2049,济南市,泰兴公司,,46,46,28,27,18,61,,117,100,34,23,13,12,0.6,0.6
2025-09-04T2100,3064A,117.6867,36.2171,济南市,莱芜战役纪念馆,颗粒物(PM10),53,56,32,32,21,60,,116,104,39,24,8,7,0.6,0.5
2025-09-04T2100,3494A,117.1673,36.9782,济南市,济阳区政府,细颗粒物(PM2.5),85,90,68,63,40,93,,157,146,45,22,8,11,0.5,0.6
2025-09-04T2100,3495A,117.1171,36.63,济南市,锦屏中学,,46,46,36,29,19,117,,161,156,18,19,11,9,0.8,0.8
2025-09-04T2100,3682A,116.9814,36.6819,济南市,济南四建,颗粒物(PM10),53,56,53,34,32,110,,176,166,26,32,6,6,0.7,0.8
2025-09-04T2100,1653A,116.6251,35.4302,济宁市,火炬城,颗粒物(PM10),62,73,44,36,25,64,,108,96,15,14,5,5,0.6,0.4
2025-09-04T2100,1655A,116.5491,35.4042,济宁市,电化厂,细颗粒物(PM2.5),58,64,48,41,25,72,,120,101,23,19,3,4,0.9,0.9
2025-09-04T2100,3500A,116.5814,35.3707,济宁市,北湖一中,颗粒物(PM10),65,79,43,38,25,74,,115,103,15,13,7,7,0.7,0.6
2025-09-04T2100,3501A,116.8249,35.5593,济宁市,服务中心,,45,43,41,31,19,76,,118,109,25,21,6,5,0.5,0.5
2025-09-04T2100,3678A,116.5907,35.4054,济宁市,市第七中学,,,65,41,34,17,,,115,108,18,14,5,7,0.7,0.6
2025-09-04T2100,2255A,130.2751,46.8028,佳木斯市,佳纺,颗粒物(PM10),70,89,44,32,22,27,,104,69,31,17,6,6,0.8,0.7
2025-09-04T2100,2256A,130.3995,46.8307,佳木斯市,发电厂,颗粒物(PM10),54,58,42,25,22,16,,105,77,59,18,8,7,1.0,0.8
2025-09-04T2100,2257A,130.3258,46.7975,佳木斯市,环保局,颗粒物(PM10),55,59,36,34,22,42,,104,80,36,16,9,8,0.8,0.7
2025-09-04T2100,2258A,130.3648,46.8032,佳木斯市,十一中,颗粒物(PM10),56,61,38,32,22,31,,98,75,41,16,7,8,1.1,0.8
2025-09-04T2100,2259A,130.3794,46.7588,佳木斯市,四丰,,,23,15,13,9,,,0,,16,13,1,1,0.6,0.6
2025-09-04T2100,1252A,120.7436,30.778,嘉兴市,清河小学,,22,19,29,13,16,69,,155,134,22,21,6,6,0.8,0.8
2025-09-04T2100,1253A,120.726,30.7478,嘉兴市,嘉兴学院,,,,28,,17,,,174,162,19,21,5,5,0.5,0.6
2025-09-04T2100,2872A,120.7846,30.7525,嘉兴市,南湖区残联,,27,22,27,16,20,84,,164,141,22,20,6,6,0.7,0.7
2025-09-04T2100,3407A,120.6916,30.7739,嘉兴市,秀洲住建,,27,27,30,15,18,67,,182,153,26,20,7,7,0.7,0.7
2025-09-04T2100,1945A,98.2908,39.7711,嘉峪关市,气象局,颗粒物(PM10),65,80,122,22,26,70,,89,88,25,20,4,33,0.6,0.9
2025-09-04T2100,2884A,98.2672,39.7978,嘉峪关市,酒钢宾馆,颗粒物(PM10),69,88,136,27,38,83,,92,91,22,22,15,54,0.5,1.1
2025-09-04T2100,3248A,98.2643,39.7724,嘉峪关市,雄关区,颗粒物(PM10),66,81,106,33,30,70,,79,79,23,23,12,25,0.2,0.7
2025-09-04T2100,1383A,113.1064,22.6058,江门市,北街,,18,15,17,3,11,56,,102,94,9,8,4,4,0.3,0.3
2025-09-04T2100,1384A,113.0731,22.5835,江门市,西区,,18,18,21,7,6,51,,99,89,12,10,8,8,0.6,0.5
2025-09-04T2100,1385A,113.0219,22.5311,江门市,圭峰西,,17,16,20,8,9,52,,84,78,10,9,4,4,0.4,0.4
2025-09-04T2100,1386A,113.0828,22.5947,江门市,东湖,,21,21,18,7,10,50,,90,83,11,9,6,5,0.4,0.4
2025-09-04T2100,3311A,113.1075,22.5647,江门市,江海富民,,,,24,9,9,56,,105,96,9,9,4,4,,0.2
2025-09-04T2100,3449A,113.05,22.4667,江门市,新会银湖,,16,,19,11,9,39,,82,74,13,10,2,2,0.4,0.4
2025-09-04T2100,1830A,113.1992,35.2590,焦作市,影视城,,,,12,,8,,,96,,,3,,7,,0.5
2025-09-04T2100,3335A,113.3137,35.2641,焦作市,马村街道办,,23,17,19,14,11,71,,81,75,14,11,4,3,0.7,0.5
2025-09-04T2100,3336A,113.2465,35.2373,焦作市,焦作技师学院,,28,28,19,3,4,74,,83,76,11,12,6,5,0.8,0.6
2025-09-04T2100,3477A,113.1656,35.2539,焦作市,中站许衡医院,,,26,18,24,17,77,,93,84,10,8,,4,0.6,0.5
2025-09-04T2100,3981A,113.2449,35.1803,焦作市,原李万街道办,,22,21,24,3,7,68,,93,82,12,13,9,9,0.7,0.5
2025-09-04T2100,4264A,113.2340,35.2190,焦作市,新安路1731号,,24,23,22,3,8,75,,84,78,9,12,3,3,0.8,0.7
2025-09-04T2100,4295A,113.2722,35.2121,焦作市,人民路3066号,,35,35,29,9,7,66,,86,76,10,12,1,2,0.6,0.4
2025-09-04T2100,1708A,116.3701,23.5345,揭阳市,新兴,,28,19,35,19,20,45,,94,79,12,18,5,7,0.5,0.5
2025-09-04T2100,1709A,116.3264,23.5443,揭阳市,西马,,21,21,34,11,18,43,,96,82,9,12,3,4,0.5,0.5
2025-09-04T2100,1710A,116.3611,23.5626,揭阳市,东兴,,,,38,17,18,,,96,86,7,17,6,11,0.8,0.7
2025-09-04T2100,1711A,116.4151,23.5294,揭阳市,渔湖,,23,,40,16,16,47,,99,82,8,22,4,9,0.6,0.7
2025-09-04T2100,3320A,116.403,23.5699,揭阳市,曲溪,,34,34,34,13,20,46,,107,86,11,13,1,6,0.6,0.6
2025-09-04T2100,1944A,102.1692,38.5167,金昌市,天庆家园,,34,34,140,19,42,67,,78,66,12,12,1,3,0.5,0.5
2025-09-04T2100,4022A,102.1647,38.5371,金昌市,金川区人防中心,,47,47,152,18,45,79,,76,68,6,8,13,13,0.4,0.5
2025-09-04T2100,4239A,102.1930,38.5319,金昌市,长春路96号,,,33,150,16,35,,,79,71,7,8,6,13,,0.6
2025-09-04T2100,1262A,119.647,29.077,金华市,十五中,颗粒物(PM10),55,59,40,29,24,52,,166,138,42,21,4,3,0.7,0.5
2025-09-04T2100,1263A,119.686,29.1029,金华市,监测站,颗粒物(PM10),60,69,42,37,22,74,,168,152,43,22,4,4,0.7,0.6
2025-09-04T2100,3659A,119.656,29.1131,金华市,气象局,颗粒物(PM10),54,57,37,31,20,70,,167,149,45,22,3,3,0.5,0.4
2025-09-04T2100,1767A,121.1115,41.0879,锦州市,南山,,46,,39,32,33,88,,134,125,22,16,6,5,0.6,0.7
2025-09-04T2100,1768A,121.0604,40.8428,锦州市,开发区,颗粒物(PM10),60,70,52,22,29,105,,134,128,32,31,11,7,0.8,0.8
2025-09-04T2100,1769A,121.1836,41.1119,锦州市,百股街道,,32,28,37,22,31,93,,144,130,14,13,6,6,0.7,0.7
2025-09-04T2100,1770A,121.1178,41.1222,锦州市,天安街道,,45,42,44,31,36,115,,150,140,18,16,13,8,0.9,0.9
2025-09-04T2100,1771A,121.1303,41.1386,锦州市,北湖公园,,46,41,47,32,29,110,,134,127,13,10,6,4,0.8,0.8
2025-09-04T2100,2160A,112.85,35.5051,晋城市,自来水公司,,23,23,22,7,10,52,,62,48,18,16,2,2,0.9,0.9
2025-09-04T2100,2161A,112.8318,35.4936,晋城市,白云商贸,,,22,20,,5,48,,70,50,19,15,2,2,1.0,0.9
2025-09-04T2100,2162A,112.8508,35.4887,晋城市,市环保局,,14,,14,7,8,44,,62,46,16,14,2,2,1.1,0.9
2025-09-04T2100,2163A,112.8676,35.4897,晋城市,技术学院,,15,8,16,3,5,45,,63,46,20,17,3,4,1.1,1
2025-09-04T2100,2165A,112.8453,35.546,晋城市,白马寺,,20,17,15,14,15,54,,82,62,10,7,6,6,1.3,1.1
2025-09-04T2100,3620A,112.8271,35.4828,晋城市,泽州一中,,17,12,18,3,5,54,,76,56,19,16,2,2,1.2,1.1
2025-09-04T2100,2173A,112.7249,37.7067,晋中市,南都小区,,38,37,38,26,22,99,,104,104,9,16,4,8,0.5,0.6
2025-09-04T2100,2174A,112.6991,37.6982,晋中市,榆次区政府,,32,22,33,20,22,101,,101,101,6,17,5,7,0.5,0.7
2025-09-04T2100,2865A,112.7195,37.6828,晋中市,榆次三中,,33,22,25,14,14,103,,104,104,3,16,6,9,0.4,0.5
2025-09-04T2100,4200A,112.7478,37.6954,晋中市,迎宾街26号,,33,22,29,12,13,103,,105,105,4,15,4,8,0.4,0.5
2025-09-04T2100,2439A,112.2014,31.0481,荆门市,竹园小学,细颗粒物(PM2.5),54,45,38,38,24,64,,111,103,10,9,1,2,0.7,0.5
2025-09-04T2100,2440A,112.1969,30.9891,荆门市,掇刀,颗粒物(PM10),51,52,32,32,22,83,,119,116,10,7,1,1,0.7,0.6
2025-09-04T2100,2441A,112.2213,31.0386,荆门市,石化一小,,,,39,44,28,,,124,124,,10,9,4,,0.6
2025-09-04T2100,3012A,112.1849,31.0362,荆门市,西山林语,细颗粒物(PM2.5),64,,37,46,34,67,,108,101,10,8,1,1,0.5,0.3
2025-09-04T2100,3547A,112.1632,31.0138,荆门市,龙泉中学南校,,41,41,29,28,20,76,,113,106,10,6,2,2,0.8,0.8
2025-09-04T2100,1844A,112.2494,30.3197,荆州市,市图书馆,,,24,24,22,17,88,,126,116,,11,5,4,0.5,0.5
2025-09-04T2100,1845A,112.2008,30.3544,荆州市,市委党校,,43,34,27,30,18,93,,129,120,12,11,6,6,0.5,0.5
2025-09-04T2100,3194A,112.2747,30.3122,荆州市,管委会,,37,37,28,24,15,80,,123,113,10,9,7,3,0.6,0.6
2025-09-04T2100,4268A,112.1722,30.3366,荆州市,学苑路85号,,44,44,24,30,21,65,,131,110,25,10,6,6,0.4,0.4
2025-09-04T2100,2342A,117.3102,29.3867,景德镇市,王港中学,,,,,,,,,,,,,,,,
2025-09-04T2100,2343A,117.2117,29.2933,景德镇市,老干部活动中心,,36,29,27,25,22,88,,133,126,11,9,8,8,0.8,0.7
2025-09-04T2100,2344A,117.1894,29.2789,景德镇市,兽医站,,50,50,35,26,20,65,,131,116,14,8,6,5,0.9,0.8
2025-09-04T2100,2346A,117.2461,29.2956,景德镇市,陶研所,,41,41,36,22,24,70,,137,127,3,5,5,6,0.7,0.7
2025-09-04T2100,4289A,117.1542,29.2566,景德镇市,青少年活动中心,,39,35,31,27,22,64,,112,101,28,11,41,7,0.6,0.6
2025-09-04T2100,1803A,115.9872,29.6815,九江市,十里,细颗粒物(PM2.5),113,,34,85,32,36,,127,93,31,22,7,7,0.9,0.4
2025-09-04T2100,1804A,115.9584,29.7046,九江市,茅山头,细颗粒物(PM2.5),63,52,32,45,23,33,,124,98,22,18,4,4,0.9,0.6
2025-09-04T2100,1805A,115.9877,29.7295,九江市,西园,,38,32,30,18,16,25,,134,106,76,34,6,8,0.9,0.9
2025-09-04T2100,1808A,115.9114,29.6038,九江市,综合工业园,细颗粒物(PM2.5),59,59,36,42,24,19,,105,76,99,30,9,8,1.1,0.8
2025-09-04T2100,1809A,116.0721,29.7535,九江市,石化总厂,,50,39,38,35,28,48,,115,87,37,30,14,7,1.2,0.6
2025-09-04T2100,1810A,115.9773,29.5698,九江市,庐山气象台,,,,,,,,,,,,,,,,
2025-09-04T2100,3190A,116.0254,29.6994,九江市,外国语学校,细颗粒物(PM2.5),79,74,33,58,28,38,,120,92,22,28,5,6,1.0,0.6
2025-09-04T2100,4253A,116.0102,29.6594,九江市,莲花大道8号,,28,22,31,19,26,41,,98,74,5,13,5,6,0.5,0.6
2025-09-04T2100,4240A,98.4958,39.7339,酒泉市,玉门东路5号,,,,133,,40,,,91,91,24,12,12,9,0.8,0.3
2025-09-04T2100,4241A,98.5099,39.7506,酒泉市,北大街108号,颗粒物(PM10),67,83,131,30,34,67,,88,86,20,13,12,10,0.3,0.2
2025-09-04T2100,2698A,76.0072,39.4467,喀什地区,巡警大队,颗粒物(PM10),500,916,478,375,214,69,,82,81,17,28,3,4,,0.4
2025-09-04T2100,2699A,75.9755,39.4694,喀什地区,吾办,颗粒物(PM10),500,957,500,293,167,65,,82,80,22,29,5,5,0.4,0.4
2025-09-04T2100,4027A,75.9483,39.4689,喀什地区,老干局,颗粒物(PM10),500,786,409,231,125,61,,84,82,11,25,4,4,0.3,0.5
2025-09-04T2100,1824A,114.3389,34.7781,开封市,肿瘤医院,,29,28,20,20,15,91,,98,94,12,14,1,2,1.0,0.7
2025-09-04T2100,1826A,114.2885,34.7965,开封市,世纪星幼儿园,,40,,18,28,19,93,,103,98,14,13,5,5,0.9,0.6
2025-09-04T2100,3147A,114.3438,34.8106,开封市,龙亭公园,,29,29,20,12,11,84,,93,89,10,12,6,5,0.8,0.6
2025-09-04T2100,3210A,114.3644,34.7964,开封市,汴京公园,,30,29,23,21,16,89,,97,94,9,11,4,4,0.7,0.5
2025-09-04T2100,3473A,114.2485,34.8306,开封市,技师学院,,33,,20,23,19,82,,91,88,10,14,7,6,1.4,0.9
2025-09-04T2100,3592A,114.4644,34.7556,开封市,祥符区生态环境局,,23,23,21,16,13,67,,77,74,12,14,2,3,1.0,0.8
2025-09-04T2100,1951A,84.895,45.6094,克拉玛依市,长征新村,,30,30,14,21,8,72,,88,88,20,6,3,3,0.3,0.2
2025-09-04T2100,1952A,84.8988,45.5893,克拉玛依市,南林小区,颗粒物(PM10),54,58,18,3,6,29,,87,81,55,9,8,7,0.2,0.2
2025-09-04T2100,1954A,84.905,44.3396,克拉玛依市,独山子区,,29,24,30,11,11,90,,91,91,16,15,8,5,0.2,0.3
2025-09-04T2100,1955A,85.6979,46.098,克拉玛依市,乌尔禾区商贸楼,,,29,15,3,7,,,88,88,15,10,3,3,0.1,0.3
2025-09-04T2100,3612A,85.1045,45.6899,克拉玛依市,白碱滩区新站,颗粒物(PM10),53,55,36,13,11,74,,89,89,9,4,9,9,0.3,0.3
2025-09-04T2100,2697A,76.1454,39.7142,克孜勒苏柯尔克孜自治州,市人民政府,颗粒物(PM10),500,635,439,209,149,,,85,85,11,17,5,9,0.1,0.2
2025-09-04T2100,3665A,76.1658,39.7157,克孜勒苏柯尔克孜自治州,克州文化中心,颗粒物(PM10),500,657,470,236,161,84,,92,92,9,14,6,10,0.2,0.3
2025-09-04T2100,1450A,102.8204,24.8886,昆明市,呈贡新区,,49,,12,34,12,45,,67,62,16,13,3,4,0.4,0.4
2025-09-04T2100,1451A,102.6251,24.9608,昆明市,西山森林公园,,,,,,,,,,,,,,,,
2025-09-04T2100,1452A,102.7252,25.0902,昆明市,龙泉镇,,25,25,23,13,10,41,,68,65,14,16,4,3,0.4,0.4
2025-09-04T2100,1453A,102.7266,25.0375,昆明市,东风东路,,20,20,18,14,10,45,,72,67,13,12,5,4,0.3,0.3
2025-09-04T2100,1454A,102.6742,25.0669,昆明市,金鼎山,,32,32,26,10,8,38,,64,60,16,13,2,3,0.3,0.3
2025-09-04T2100,1455A,102.6644,25.0401,昆明市,碧鸡广场,,42,42,24,12,10,28,,62,56,25,19,10,9,0.5,0.4
2025-09-04T2100,3179A,102.7494,25.0119,昆明市,官渡区博物馆,,22,22,10,10,15,45,,70,65,13,11,3,3,0.1,0.1
2025-09-04T2100,3375A,102.8017,24.8336,昆明市,青年创业园,,24,24,14,13,9,40,,64,60,15,10,2,2,0.6,0.5
2025-09-04T2100,3550A,102.7997,24.9786,昆明市,昆明学院,,23,23,18,14,9,47,,66,61,11,12,7,8,0.4,0.3
2025-09-04T2100,3551A,102.5967,24.6736,昆明市,晋宁区生态环境分局,,29,29,18,12,8,52,,56,56,6,8,5,4,0.5,0.5
2025-09-04T2100,3552A,102.6678,24.9856,昆明市,云天化总部,,15,9,14,3,8,46,,65,60,9,11,6,6,0.2,0.4
2025-09-04T2100,1456A,91.1319,29.6514,拉萨市,八廓街,,23,6,12,3,7,73,,85,84,10,16,7,6,0.2,0.2
2025-09-04T2100,1457A,91.1221,29.6747,拉萨市,市环保局,,21,10,16,6,8,65,,88,86,12,14,8,7,0.3,0.3
2025-09-04T2100,1458A,91.0874,29.6475,拉萨市,区监测站,,23,10,13,6,7,71,,82,82,13,21,4,4,0.2,0.3
2025-09-04T2100,1459A,91.1774,29.6541,拉萨市,西藏大学,,,,13,6,6,,,84,84,12,16,7,7,,0.4
2025-09-04T2100,1460A,90.9798,29.6588,拉萨市,区辐射站,,19,19,20,6,9,41,,71,68,35,23,5,6,0.4,0.4
2025-09-04T2100,1461A,91.0834,29.6292,拉萨市,拉萨火车站,,24,6,13,6,7,75,,79,79,5,15,5,6,0.4,0.5
2025-09-04T2100,2520A,109.2203,23.7256,来宾市,来宾技工学校,,20,17,27,13,10,61,,80,79,10,12,8,10,0.5,0.5
2025-09-04T2100,3535A,109.1781,23.7297,来宾市,兴宾区政府,,23,23,21,14,11,67,,85,84,13,10,9,10,0.6,0.5
2025-09-04T2100,4002A,109.2416,23.7461,来宾市,中南小学,,26,,22,18,15,78,,88,88,6,10,6,9,0.4,0.4
2025-09-04T2100,1477A,104.1373,35.9454,兰州市,榆中兰大校区,,,,,,,,,,,,,,,,
2025-09-04T2100,1479A,103.831,36.0464,兰州市,铁路设计院,颗粒物(PM10),144,237,79,66,32,77,,96,96,20,26,11,12,0.5,0.7
2025-09-04T2100,3241A,103.7439,36.0842,兰州市,百合公园,颗粒物(PM10),127,203,72,42,23,81,,94,94,2,19,6,7,0.1,0.5
2025-09-04T2100,3242A,103.9611,35.998,兰州市,和平,颗粒物(PM10),208,355,68,92,24,87,,108,107,6,14,16,10,0.3,0.4
2025-09-04T2100,4236A,103.6293,36.0938,兰州市,庄浪东路808号,颗粒物(PM10),118,186,71,63,29,82,,116,114,11,33,14,14,0.2,0.5
2025-09-04T2100,4237A,103.7251,36.1043,兰州市,安宁西路88号,颗粒物(PM10),137,223,82,61,32,97,,124,123,2,15,5,6,0.3,0.4
2025-09-04T2100,4238A,103.8470,36.0676,兰州市,北滨河东路1号,颗粒物(PM10),145,240,75,71,30,,,116,116,11,19,9,12,0.2,0.6
2025-09-04T2100,3245A,103.6633,36.533,兰州新区,新区管委会,颗粒物(PM10),55,59,48,34,26,97,,124,121,3,14,11,7,0.4,0.3
2025-09-04T2100,3246A,103.6975,36.4789,兰州新区,舟曲中学,颗粒物(PM10),92,133,71,27,23,96,,111,110,12,13,6,8,0.3,0.4
2025-09-04T2100,1067A,116.6708,39.5111,廊坊市,药材公司,颗粒物(PM10),59,67,74,37,39,108,,173,161,25,18,6,6,0.7,0.8
2025-09-04T2100,1068A,116.7214,39.5589,廊坊市,开发区,颗粒物(PM10),60,69,70,41,37,105,,174,164,31,18,2,2,0.6,0.6
2025-09-04T2100,1070A,116.7244,39.5269,廊坊市,北华航天学院,颗粒物(PM10),57,64,55,34,54,128,,184,177,23,13,6,5,0.6,0.6
2025-09-04T2100,2919A,116.7022,39.5453,廊坊市,河北工业大学,,48,48,56,26,38,137,,181,176,21,15,4,4,0.4,0.6
2025-09-04T2100,2535A,103.7723,29.5462,乐山市,花湖湾,细颗粒物(PM2.5),73,72,44,53,34,89,,108,108,21,16,5,8,0.5,0.4
2025-09-04T2100,2536A,103.7627,29.5844,乐山市,牛耳桥,细颗粒物(PM2.5),65,72,51,47,35,86,,105,105,23,22,5,5,0.8,0.7
2025-09-04T2100,2537A,103.7508,29.6006,乐山市,市第三水厂,细颗粒物(PM2.5),69,73,53,50,36,74,,103,102,32,18,4,4,0.8,0.7
2025-09-04T2100,2538A,103.7571,29.5664,乐山市,市监测站,细颗粒物(PM2.5),62,72,50,44,34,76,,97,97,20,15,7,7,0.9,0.8
2025-09-04T2100,3361A,103.7311,29.5628,乐山市,理工大学,颗粒物(PM10),65,79,50,45,32,56,,100,98,29,17,8,8,0.9,0.8
2025-09-04T2100,2598A,100.2143,26.8576,丽江市,西南郊,,15,6,8,3,4,46,,52,50,4,3,6,6,1.0,0.9
2025-09-04T2100,2599A,100.2497,26.8802,丽江市,丽江古城,,29,23,16,20,5,48,,53,52,15,10,11,10,0.4,0.4
2025-09-04T2100,2600A,100.2203,26.8906,丽江市,市中心,,12,9,10,8,6,36,,50,48,16,10,11,10,0.5,0.4
2025-09-04T2100,1267A,119.914,28.4514,丽水市,监测站大楼,,,,23,25,12,,,111,94,17,13,4,4,,0.5
2025-09-04T2100,1268A,119.93,28.4586,丽水市,莲都小学,,36,36,28,16,11,63,,110,92,25,15,3,4,0.4,0.4
2025-09-04T2100,1269A,119.879,28.4231,丽水市,余庄前,,42,39,27,29,17,18,,106,65,30,16,5,5,0.4,0.4
2025-09-04T2100,1173A,119.176,34.5885,连云港市,市环境监测站,,29,14,19,3,7,90,,104,98,8,13,2,5,0.4,0.5
2025-09-04T2100,3000A,119.3581,34.6972,连云港市,德源药业,,24,22,17,3,7,74,,85,79,17,21,4,4,0.6,0.7
2025-09-04T2100,3007A,119.178,34.844,连云港市,新城一中,,,18,23,3,14,,,104,101,8,18,3,5,0.5,0.8
2025-09-04T2100,3008A,119.3608,34.7519,连云港市,胡沟管理处,,29,6,14,3,4,91,,105,100,5,8,4,5,0.8,1.1
2025-09-04T2100,3009A,119.1478,34.5911,连云港市,矿山设计院,,29,14,19,7,11,92,,105,100,8,13,5,6,0.6,0.8
2025-09-04T2100,3434A,119.2413,34.6539,连云港市,工贸学校,,29,12,18,6,12,92,,102,98,5,10,6,7,0.8,1
2025-09-04T2100,3664A,119.4172,34.7341,连云港市,连云街道,,25,13,26,3,10,77,,100,94,16,14,4,5,0.7,0.9
2025-09-04T2100,2571A,102.3431,27.8099,凉山彝族自治州,青龙寺,,16,16,15,7,4,38,,61,,8,5,2,3,0.3,0.3
2025-09-04T2100,2572A,102.2721,27.8415,凉山彝族自治州,邛海宾馆,,18,18,20,11,13,53,,75,71,11,9,9,9,0.5,0.4
2025-09-04T2100,2573A,102.2625,27.898,凉山彝族自治州,西昌市政府,细颗粒物(PM2.5),72,,21,52,14,41,,65,61,18,9,11,11,0.8,0.5
2025-09-04T2100,2574A,102.2685,27.8851,凉山彝族自治州,凉山州政府,,42,42,24,15,14,44,,75,70,26,10,10,10,1.5,1
2025-09-04T2100,4229A,102.2342,27.8859,凉山彝族自治州,凯乐南路30号,,,,23,,12,63,,68,68,14,13,16,12,,0.8
2025-09-04T2100,2212A,123.2,41.1953,辽阳市,宏伟区,细颗粒物(PM2.5),133,,29,101,21,83,,122,120,30,9,4,3,1.3,0.8
2025-09-04T2100,2213A,123.1683,41.2495,辽阳市,新华园,颗粒物(PM10),75,100,40,48,19,49,,136,126,52,16,7,6,1.1,0.7
2025-09-04T2100,2214A,123.2354,41.2639,辽阳市,滨河路,颗粒物(PM10),67,83,40,22,19,41,,120,103,50,17,5,5,0.9,0.7
2025-09-04T2100,2215A,123.149,41.2991,辽阳市,铁西工业园,细颗粒物(PM2.5),67,78,41,48,21,36,,129,109,38,15,4,5,1.0,0.9
2025-09-04T2100,2227A,125.1358,42.8845,辽源市,环保局,颗粒物(PM10),57,64,43,24,14,12,,96,70,36,13,9,8,0.8,0.6
2025-09-04T2100,3239A,125.0764,42.9078,辽源市,银鹰制药,,45,45,26,24,14,12,,98,69,48,20,11,11,0.6,0.5
2025-09-04T2100,1625A,115.9848,36.4372,聊城市,区政府,颗粒物(PM10),53,55,38,30,25,71,,123,102,26,17,12,11,0.9,0.7
2025-09-04T2100,2878A,116.0072,36.4343,聊城市,聊大东校,颗粒物(PM10),53,56,40,29,22,77,,127,108,26,18,12,11,0.7,0.5
2025-09-04T2100,3200A,115.9819,36.4978,聊城市,监控中心,颗粒物(PM10),57,63,51,29,24,80,,137,119,31,23,9,12,1.0,0.8
2025-09-04T2100,3513A,116.0445,36.4361,聊城市,九州社区,颗粒物(PM10),58,65,44,23,23,95,,127,114,18,17,6,7,0.7,0.5
2025-09-04T2100,4018A,116.0567,36.4608,聊城市,星美广场,颗粒物(PM10),56,62,45,30,24,91,,131,118,17,13,8,8,0.9,0.7
2025-09-04T2100,2632A,94.3681,29.6376,林芝市,林芝监测站,,,,6,8,5,,,49,49,,3,,4,,0.4
2025-09-04T2100,2633A,94.3616,29.6616,林芝市,林芝人民医院,,13,10,10,6,4,39,,48,47,2,4,5,5,0.3,0.3
2025-09-04T2100,2603A,100.0781,23.8982,临沧市,市环保局,,49,,18,34,21,36,,51,48,10,8,18,5,0.4,0.5
2025-09-04T2100,2604A,100.0894,23.8822,临沧市,市气象局,,25,,14,17,17,29,,44,41,10,8,15,9,0.6,0.5
2025-09-04T2100,1733A,111.5531,36.0783,临汾市,临钢医院,,24,24,20,3,7,65,,76,74,14,10,3,3,1.2,0.9
2025-09-04T2100,1734A,111.5028,36.0714,临汾市,技工学校,,23,,16,16,17,65,,79,76,11,9,5,4,0.9,0.7
2025-09-04T2100,1736A,111.5018,36.0855,临汾市,市委,,30,30,29,3,6,67,,82,79,14,11,3,4,0.9,0.7
2025-09-04T2100,3018A,111.505,36.1014,临汾市,唐尧大酒店,,32,32,30,8,8,63,,77,75,13,10,5,5,1.0,0.8
2025-09-04T2100,4244A,111.4879,36.0530,临汾市,启星学校,,22,,18,15,18,70,,83,80,12,10,3,3,1.0,0.8
2025-09-04T2100,4271A,103.2464,35.6123,临夏回族自治州,滨河东路1号,,,52,61,13,25,,,67,67,7,14,8,8,0.2,0.3
2025-09-04T2100,4310A,103.2093,35.5995,临夏回族自治州,新华街21号,颗粒物(PM10),67,83,57,30,28,88,,84,84,4,13,5,6,0.2,0.4
2025-09-04T2100,1618A,118.3429,35.0532,临沂市,沂河小区,,39,39,29,23,18,83,,104,102,22,15,10,8,0.6,0.4
2025-09-04T2100,1619A,118.295,35.0583,临沂市,鲁南制药厂,,36,36,24,17,17,88,,111,109,23,13,9,8,0.7,0.6
2025-09-04T2100,1620A,118.2794,34.9976,临沂市,新光毛纺厂,,31,31,20,15,14,86,,110,108,19,13,7,7,0.5,0.4
2025-09-04T2100,1621A,118.3956,35.0888,临沂市,河东保险公司,,29,29,27,14,12,78,,105,102,22,15,7,6,0.4,0.3
2025-09-04T2100,3370A,118.3564,35.0215,临沂市,十里堡居委,细颗粒物(PM2.5),67,58,25,48,16,84,,111,107,23,16,10,9,0.5,0.4
2025-09-04T2100,3496A,118.3604,35.1084,临沂市,南坊新区,,34,34,30,12,12,85,,108,105,22,17,8,8,0.6,0.5
2025-09-04T2100,3860A,118.3920,35.0300,临沂市,皇山花园小区,,41,41,30,16,16,80,,109,105,21,16,11,9,0.6,0.4
2025-09-04T2100,1870A,109.4856,24.3895,柳州市,柳东小学,,25,15,26,13,15,79,,94,90,6,14,4,6,0.3,0.4
2025-09-04T2100,1871A,109.4157,24.3277,柳州市,环保监测站,,23,19,24,7,13,71,,86,82,10,11,6,7,0.5,0.6
2025-09-04T2100,1872A,109.389,24.341,柳州市,河西水厂,,32,32,34,12,17,75,,86,84,11,15,5,6,0.5,0.6
2025-09-04T2100,1873A,109.4311,24.2921,柳州市,市四中,,19,18,27,13,12,57,,84,78,18,16,7,7,0.5,0.5
2025-09-04T2100,1874A,109.4006,24.3631,柳州市,市九中,,,,39,,18,76,,86,84,10,18,3,4,0.4,0.5
2025-09-04T2100,1875A,109.4958,24.3134,柳州市,古亭山,,40,40,26,24,12,35,,87,73,25,21,6,6,0.4,0.4
2025-09-04T2100,3402A,109.5422,24.3996,柳州市,市二中,,21,20,28,11,15,66,,90,85,11,20,6,7,0.5,0.6
2025-09-04T2100,2307A,116.5079,31.737,六安市,监测大楼,,19,,24,11,19,60,,116,92,10,8,4,4,0.3,0.4
2025-09-04T2100,2308A,116.4738,31.7643,六安市,皖西学院,,22,,36,13,18,69,,125,102,4,9,3,3,0.3,0.4
2025-09-04T2100,2309A,116.4996,31.7905,六安市,朝阳厂,,23,,28,16,19,58,,125,96,8,15,6,6,0.3,0.5
2025-09-04T2100,2310A,116.5567,31.7886,六安市,开发区,,18,14,21,12,20,37,,127,92,12,15,2,3,0.5,0.6
2025-09-04T2100,2576A,104.8,26.5892,六盘水市,窑上,,,32,28,,8,59,,76,74,9,4,3,5,0.6,0.4
2025-09-04T2100,2577A,104.83,26.5917,六盘水市,黄土坡,,31,31,22,19,14,65,,78,77,10,8,6,6,0.4,0.3
2025-09-04T2100,2578A,104.89,26.5939,六盘水市,水钢,,,55,27,34,20,,,79,79,8,5,5,7,0.4,0.2
2025-09-04T2100,2579A,104.8475,26.5894,六盘水市,民中,,28,21,18,19,10,65,,79,78,6,5,3,2,0.5,0.4
2025-09-04T2100,2580A,104.9544,26.5506,六盘水市,双水,,29,29,18,20,12,59,,75,74,6,6,3,3,0.2,0.2
2025-09-04T2100,2335A,117.0189,25.1181,龙岩市,龙岩师专,,,,,,,,,,,,,,,,
2025-09-04T2100,2336A,117.0217,25.1033,龙岩市,龙岩市监测站,,22,22,25,9,16,20,,94,65,39,19,5,9,0.6,0.6
2025-09-04T2100,2337A,117.0258,25.0661,龙岩市,闽西职业技术学院,,13,12,32,9,16,34,,91,69,18,14,21,17,0.5,0.5
2025-09-04T2100,2338A,117.0196,25.0306,龙岩市,龙岩学院,,22,22,24,15,16,22,,80,57,10,8,3,4,0.6,0.6
2025-09-04T2100,2665A,105.0822,33.3261,陇南市,汉王镇固水子,,,,,,,,,,,,,,,,
2025-09-04T2100,2885A,104.9339,33.3826,陇南市,滨江中学,,,39,45,29,18,61,,70,68,,8,5,8,,0.7
2025-09-04T2100,3247A,104.955,33.371,陇南市,市总工会,,41,41,57,8,17,64,,67,66,5,10,6,7,0.4,0.3
2025-09-04T2100,2487A,111.9589,27.8901,娄底市,电视发射台,,37,37,37,17,18,34,,83,71,8,8,4,5,0.3,0.6
2025-09-04T2100,2488A,111.9975,27.725,娄底市,市监测站,,38,26,37,26,22,73,,90,87,11,16,25,9,0.5,0.5
2025-09-04T2100,2489A,112.0194,27.7314,娄底市,市委党校,细颗粒物(PM2.5),54,56,37,38,27,62,,90,85,18,12,24,7,0.4,0.3
2025-09-04T2100,2490A,111.9561,27.7569,娄底市,涟钢,,,52,48,32,26,,,78,78,26,16,9,7,1.3,1.1
2025-09-04T2100,2491A,111.9892,27.7044,娄底市,市政府,,43,34,32,30,22,70,,92,89,10,9,6,6,0.8,0.7
2025-09-04T2100,1893A,105.4324,28.9634,泸州市,九狮山,细颗粒物(PM2.5),70,53,70,51,43,67,,112,108,9,9,7,7,0.3,0.3
2025-09-04T2100,1894A,105.4427,28.9063,泸州市,小市上码头,,,72,48,47,32,,,79,79,,11,,4,,0.6
2025-09-04T2100,1895A,105.4241,28.8573,泸州市,兰田宪桥,细颗粒物(PM2.5),70,88,57,51,35,88,,112,109,10,15,5,5,0.7,0.6
2025-09-04T2100,1896A,105.4379,28.8833,泸州市,市环监站,细颗粒物(PM2.5),73,74,47,53,36,86,,106,105,13,13,5,6,0.6,0.5
2025-09-04T2100,4272A,105.3689,28.7783,泸州市,纳溪中医医院,细颗粒物(PM2.5),90,115,50,67,37,80,,111,108,17,22,2,2,0.8,0.6
2025-09-04T2100,2183A,111.1406,37.5211,吕梁市,环保局,,25,25,32,14,14,47,,89,78,39,25,4,2,2.2,0.7
2025-09-04T2100,2185A,111.1297,37.5136,吕梁市,自来水公司,,28,28,32,3,13,42,,86,74,37,18,5,4,2.2,0.7
2025-09-04T2100,2867A,111.1283,37.51,吕梁市,马茂庄小学,,42,42,37,15,14,42,,84,76,43,27,8,4,2.8,0.8
2025-09-04T2100,1812A,112.3931,34.6516,洛阳市,市委党校,,21,9,13,7,10,67,,84,75,15,11,5,5,0.6,0.5
2025-09-04T2100,1815A,112.494,34.6886,洛阳市,河南林校,,24,14,20,9,12,75,,95,83,20,16,5,6,0.5,0.4
2025-09-04T2100,1816A,112.3844,34.623,洛阳市,开发区管委会,,,,13,34,12,,,100,94,,7,,3,,0.5
2025-09-04T2100,1817A,112.4267,34.6258,洛阳市,市委新办公区,,22,,13,9,10,69,,86,77,11,9,6,6,0.5,0.4
2025-09-04T2100,3340A,112.6005,34.6326,洛阳市,伊滨,,21,12,13,10,13,65,,86,76,21,15,8,8,0.6,0.5
2025-09-04T2100,3341A,112.4951,34.6332,洛阳市,中移产业园,,24,9,17,8,12,74,,87,80,14,14,7,7,0.5,0.4
2025-09-04T2100,3593A,112.5736,34.8993,洛阳市,吉利监测站,,,30,20,,12,,,89,82,6,10,4,4,0.7,0.6
2025-09-04T2100,3635A,112.3677,34.662,洛阳市,河科大西苑校区,,26,6,12,3,7,81,,90,83,16,15,7,7,0.6,0.5
2025-09-04T2100,3636A,112.4388,34.6781,洛阳市,英才小学,,24,,13,10,16,76,,89,81,15,12,6,6,0.6,0.5
2025-09-04T2100,4214A,112.4600,34.6949,洛阳市,春都路1号院,,24,12,16,3,7,74,,84,78,12,9,7,7,0.5,0.6
2025-09-04T2100,2399A,114.051,33.5699,漯河市,三五一五工厂,,42,42,29,27,26,49,,48,48,11,11,5,6,0.8,0.7
2025-09-04T2100,2400A,114.0055,33.5698,漯河市,漯河大学,,42,33,28,29,28,48,,49,49,12,10,4,5,0.6,0.6
2025-09-04T2100,2401A,114.0138,33.5828,漯河市,市水利局,,42,41,37,29,27,47,,48,48,10,10,5,6,0.6,0.6
2025-09-04T2100,2402A,114.0261,33.5698,漯河市,市广电局,,46,34,30,32,33,54,,52,52,9,9,3,3,0.6,0.6
2025-09-04T2100,3478A,113.9749,33.5664,漯河市,市图书馆,,49,49,35,20,22,49,,50,50,11,12,5,5,0.6,0.5
2025-09-04T2100,4250A,114.0892,33.5882,漯河市,韶山路11号,,28,28,27,14,22,50,,48,48,10,11,4,4,0.6,0.6
2025-09-04T2100,1798A,118.5092,31.6837,马鞍山市,湖东路四小,细颗粒物(PM2.5),59,50,50,42,34,150,,206,200,16,16,7,7,0.7,0.8
2025-09-04T2100,1799A,118.5024,31.6449,马鞍山市,开发区,臭氧1小时,58,52,53,31,30,166,,201,199,15,21,8,9,0.7,0.8
2025-09-04T2100,1802A,118.6245,31.7241,马鞍山市,濮塘,,43,42,38,27,27,137,,189,182,10,9,8,8,1.0,0.9
2025-09-04T2100,3633A,118.4918,31.6809,马鞍山市,雨山,颗粒物(PM10),51,52,45,35,32,151,,198,194,17,18,6,8,0.6,0.7
2025-09-04T2100,4191A,118.5274,31.72227,马鞍山市,慈湖高新区,颗粒物(PM10),51,52,49,33,31,141,,197,194,16,19,7,8,0.6,0.6
2025-09-04T2100,1686A,111.0286,21.4688,茂名市,电白南海,,22,22,18,12,11,44,,45,42,8,7,3,4,0.3,0.4
2025-09-04T2100,1687A,110.9294,21.6533,茂名市,茂石化七小,,14,14,20,9,8,32,,57,47,9,8,5,7,0.6,0.6
2025-09-04T2100,1688A,110.9107,21.6687,茂名市,健康路,,24,24,14,14,10,34,,59,48,10,9,10,6,0.7,0.7
2025-09-04T2100,1689A,110.8592,21.6828,茂名市,高岭,,22,22,27,3,4,26,,58,44,13,13,6,9,0.5,0.5
2025-09-04T2100,3450A,111.01,21.5165,茂名市,电白水东,,15,7,11,3,5,47,,47,42,9,10,5,5,0.4,0.4
2025-09-04T2100,2539A,104.0308,30.0478,眉山市,黑龙滩水库,,46,,20,32,13,88,,137,134,8,7,3,2,0.6,0.3
2025-09-04T2100,2540A,103.8416,30.0874,眉山市,气象局,细颗粒物(PM2.5),110,118,80,83,42,102,,158,154,23,24,8,10,0.6,0.5
2025-09-04T2100,3137A,103.8578,30.0744,眉山市,市委党校,,,102,61,68,30,,,148,148,27,24,11,11,0.8,0.6
2025-09-04T2100,3148A,103.8291,30.0564,眉山市,区人社局,细颗粒物(PM2.5),104,128,83,78,33,100,,151,147,27,24,17,24,1.0,0.9
2025-09-04T2100,1690A,116.1231,24.3284,梅州市,梅江月梅,,22,,21,15,15,55,,89,79,16,12,8,8,0.5,0.5
2025-09-04T2100,1691A,116.0797,24.2719,梅州市,梅县新城,,,,23,,13,,,81,78,13,11,6,7,0.6,0.6
2025-09-04T2100,1692A,116.1248,24.2654,梅州市,环境监控中心,,21,,21,13,14,65,,74,70,10,12,5,4,0.4,0.4
2025-09-04T2100,3315A,116.1233,24.2991,梅州市,梅龙,,19,17,19,10,9,58,,77,70,8,9,8,9,0.6,0.6
2025-09-04T2100,1878A,104.7778,31.4741,绵阳市,富乐山,,28,25,40,19,21,40,,72,68,6,10,8,9,0.7,0.6
2025-09-04T2100,1880A,104.6697,31.4668,绵阳市,高新区自来水公司,,48,48,49,22,18,51,,82,79,31,23,8,8,0.7,0.6
2025-09-04T2100,1881A,104.7287,31.5075,绵阳市,三水厂,,30,28,50,21,28,60,,84,82,16,21,10,10,0.6,0.6
2025-09-04T2100,3491A,104.69,31.5322,绵阳市,西科大附属小学,颗粒物(PM10),54,57,59,34,29,38,,85,80,39,24,8,8,0.7,0.6
2025-09-04T2100,3492A,104.5648,31.5343,绵阳市,安州区旅游局,,39,36,35,27,18,60,,88,87,19,14,10,9,0.8,0.6
2025-09-04T2100,4226A,104.7651,31.4531,绵阳市,绵阳市气象局,,36,36,42,21,21,62,,76,76,9,17,7,7,0.6,0.5
2025-09-04T2100,1784A,129.61,44.561,牡丹江市,环保大楼,,48,48,30,23,13,20,,84,62,35,20,5,4,0.5,0.4
2025-09-04T2100,1785A,129.6115,44.5782,牡丹江市,文化广场,,50,48,25,35,20,26,,83,61,32,21,7,6,0.7,0.5
2025-09-04T2100,1786A,129.5904,44.5963,牡丹江市,第一医院,,48,41,31,33,20,27,,89,68,29,20,8,8,0.3,0.2
2025-09-04T2100,1787A,129.6364,44.6075,牡丹江市,机车工厂,细颗粒物(PM2.5),59,62,41,42,17,12,,88,65,36,19,10,9,0.7,0.5
2025-09-04T2100,1788A,129.6386,44.5462,牡丹江市,第一中学,颗粒物(PM10),63,75,27,24,13,15,,87,65,30,16,5,4,0.4,0.3
2025-09-04T2100,2531A,105.0703,29.61,内江市,市监测站,,49,35,24,34,23,72,,108,102,15,8,6,6,0.6,0.7
2025-09-04T2100,2532A,105.0717,29.5947,内江市,东兴区政府,,38,38,24,26,16,74,,101,98,16,10,4,4,0.7,0.6
2025-09-04T2100,2533A,105.0653,29.5817,内江市,内江二中,,39,27,22,27,26,74,,106,102,16,11,3,3,0.7,0.7
2025-09-04T2100,2534A,105.0406,29.5822,内江市,内江日报社,颗粒物(PM10),61,72,31,34,24,69,,111,105,26,15,6,5,0.6,0.5
2025-09-04T2100,2628A,92.0657,31.4846,那曲市,那曲监测站,,25,17,28,17,15,72,,79,78,24,14,3,3,0.5,0.4
2025-09-04T2100,4243A,92.0515,31.4787,那曲市,那曲市委宣传部,,25,14,19,12,9,80,,88,87,14,10,5,4,0.5,0.5
2025-09-04T2100,1290A,115.8931,28.6843,南昌市,省外办,,49,47,38,34,28,67,,117,101,14,12,5,5,0.9,0.8
2025-09-04T2100,1291A,115.8886,28.7003,南昌市,省林业公司,颗粒物(PM10),53,56,44,27,23,31,,116,92,27,19,2,3,0.7,0.7
2025-09-04T2100,1292A,115.8126,28.7442,南昌市,林科所,,32,24,22,22,15,89,,119,102,12,9,4,5,0.6,0.7
2025-09-04T2100,1294A,115.8518,28.687,南昌市,建工学校,颗粒物(PM10),51,52,43,18,16,67,,125,107,29,25,7,7,0.9,0.8
2025-09-04T2100,1295A,115.8921,28.6424,南昌市,象湖,,39,39,31,27,18,90,,131,119,28,18,8,8,0.8,0.8
2025-09-04T2100,1296A,115.7423,28.7996,南昌市,武术学校,,23,23,17,9,14,17,,80,60,8,8,8,8,0.6,0.6
2025-09-04T2100,3046A,115.9084,28.6062,南昌市,机电学校,颗粒物(PM10),58,65,42,31,23,63,,120,98,40,22,6,6,0.7,0.6
2025-09-04T2100,3690A,115.9721,28.7031,南昌市,外国语学校,,45,45,36,24,18,51,,126,103,27,18,6,8,0.4,0.5
2025-09-04T2100,4192A,115.9316,28.68677,南昌市,南京东路235号,颗粒物(PM10),54,58,40,33,21,61,,122,105,25,20,10,10,0.9,0.9
2025-09-04T2100,1905A,106.056,30.8064,南充市,西山风景区,,,,,,,,,,,,,,,,
2025-09-04T2100,1906A,106.0789,30.8023,南充市,南充市委,细颗粒物(PM2.5),52,36,27,36,20,49,,73,71,13,11,3,3,0.6,0.5
2025-09-04T2100,1907A,106.1031,30.8217,南充市,南充炼油厂,,39,39,26,23,15,57,,77,76,6,7,4,4,0.3,0.2
2025-09-04T2100,4227A,106.1083,30.7884,南充市,梨树横街98号,,41,41,27,24,18,68,,98,94,7,6,3,3,0.4,0.3
2025-09-04T2100,4304A,106.1172,30.843,南充市,清泉寺北路188号,,50,41,25,35,22,57,,80,78,9,7,4,3,0.4,0.4
2025-09-04T2100,4305A,106.067,30.7616,南充市,同庆路1号,,,,18,14,14,61,,99,91,,10,4,4,0.6,0.5
2025-09-04T2100,1151A,118.8086,32.1065,南京市,迈皋桥,,28,28,31,17,24,65,,122,93,31,44,4,4,0.5,0.7
2025-09-04T2100,1152A,118.7538,32.0551,南京市,草场门,,39,39,42,27,28,89,,174,142,21,23,4,4,0.7,0.8
2025-09-04T2100,1153A,118.7794,32.0745,南京市,山西路,,36,36,45,14,20,103,,177,147,12,25,4,4,0.6,0.6
2025-09-04T2100,1154A,118.7752,32.0023,南京市,中华门,,31,31,34,12,23,89,,160,134,16,20,4,4,0.8,0.9
2025-09-04T2100,1155A,118.8109,32.0309,南京市,瑞金路,,35,27,33,24,24,95,,153,132,11,13,7,7,0.4,0.4
2025-09-04T2100,1156A,118.7997,32.0754,南京市,玄武湖,,31,31,37,12,17,83,,161,134,12,11,4,4,0.4,0.4
2025-09-04T2100,1157A,118.6414,32.0931,南京市,浦口,,,,45,,23,,,165,144,14,17,,8,0.7,0.9
2025-09-04T2100,1158A,118.7356,31.9996,南京市,奥体中心,,36,31,44,19,25,115,,173,155,17,25,6,6,0.6,0.6
2025-09-04T2100,1159A,118.9125,32.1028,南京市,仙林大学城,,36,36,42,17,20,88,,176,151,20,23,6,7,0.7,0.9
2025-09-04T2100,3422A,118.8436,31.9198,南京市,江宁彩虹桥,,39,36,40,22,25,124,,177,167,19,26,4,4,0.6,0.7
2025-09-04T2100,3427A,118.8554,32.3578,南京市,六合雄州,,,34,38,17,24,,,132,115,14,14,5,6,0.6,0.9
2025-09-04T2100,4249A,118.8708,31.3402,南京市,汶溪路181号,,,,36,50,26,155,,172,163,17,12,7,7,1.0,0.7
2025-09-04T2100,4312A,119.019,31.6512,南京市,中山西路1号,,50,41,38,35,28,130,,170,164,21,21,4,4,0.9,0.8
2025-09-04T2100,1401A,108.3103,22.7881,南宁市,二十一中,,22,22,22,13,13,69,,84,82,12,10,10,7,0.5,0.6
2025-09-04T2100,1402A,108.3141,22.8528,南宁市,北湖,,22,16,23,15,17,68,,92,86,9,8,3,4,0.5,0.6
2025-09-04T2100,1403A,108.3206,22.8225,南宁市,市监测站,,22,,20,14,14,68,,88,84,11,9,6,6,0.4,0.5
2025-09-04T2100,1404A,108.3829,22.8037,南宁市,大自然花园,,25,23,24,17,16,71,,85,82,8,8,5,6,0.4,0.5
2025-09-04T2100,1405A,108.4394,22.7904,南宁市,仙葫,,20,19,22,11,11,64,,79,76,8,7,3,4,0.5,0.6
2025-09-04T2100,1406A,108.2397,22.8467,南宁市,区农职院,,25,18,20,13,10,77,,99,92,13,12,5,7,0.3,0.3
2025-09-04T2100,1407A,108.3275,22.735,南宁市,英华嘉园,,29,,24,20,15,59,,73,71,15,13,8,5,0.4,0.5
2025-09-04T2100,3401A,108.4834,22.7618,南宁市,红星社区,,,,24,,13,67,,86,83,10,11,3,4,0.4,0.5
2025-09-04T2100,4221A,108.2177,22.7774,南宁市,乐贤路16号,,22,20,28,15,15,56,,84,78,20,18,4,5,0.5,0.5
2025-09-04T2100,2331A,118.0966,26.6761,南平市,茫荡山,,,,17,,14,,,86,,,,,3,,
2025-09-04T2100,2332A,118.1681,26.6369,南平市,南平市监测站,,28,9,20,8,14,87,,95,84,3,10,4,6,0.3,0.5
2025-09-04T2100,2333A,118.1825,26.6489,南平市,南平铝业有限公司,,27,14,21,7,15,86,,96,85,2,11,4,5,0.6,0.7
2025-09-04T2100,2334A,118.1756,26.6272,南平市,南平七中,,29,,23,6,13,91,,94,86,2,8,3,4,0.8,0.8
2025-09-04T2100,1168A,120.9098,31.9663,南通市,狼山街道,,30,28,26,21,18,94,,152,137,21,25,6,4,0.9,0.8
2025-09-04T2100,1169A,120.86,32.0005,南通市,虹桥,,35,29,31,24,22,100,,155,139,17,32,5,6,0.8,0.8
2025-09-04T2100,1170A,120.87,32.02,南通市,城中,,42,42,38,26,20,70,,118,105,26,33,7,7,1.0,0.9
2025-09-04T2100,1171A,120.94,31.93,南通市,星湖花园,,26,23,25,18,18,76,,125,112,18,27,3,3,0.5,0.5
2025-09-04T2100,1172A,120.81,32.0417,南通市,紫琅学院,,36,30,34,25,20,88,,150,133,19,32,4,6,0.8,0.9
2025-09-04T2100,3291A,121.067,32.062,南通市,通州监测站,,30,29,21,19,15,94,,145,132,15,17,2,2,1.0,0.8
2025-09-04T2100,3432A,120.9348,31.9883,南通市,环境教育馆,,,41,31,23,16,55,,106,96,,28,3,5,0.7,0.5
2025-09-04T2100,2404A,112.5224,33.0122,南阳市,瓦房庄,,21,17,27,7,10,67,,82,68,7,5,7,7,0.6,0.5
2025-09-04T2100,2405A,112.5003,32.9735,南阳市,汉画馆,,21,18,26,3,12,65,,78,65,9,7,7,8,0.7,0.6
2025-09-04T2100,2406A,112.5573,33.027,南阳市,气象站,,21,10,19,3,10,67,,83,70,11,8,7,7,0.6,0.5
2025-09-04T2100,2407A,112.5481,32.9689,南阳市,理工学院,,21,16,26,8,7,67,,82,69,8,6,8,8,0.6,0.5
2025-09-04T2100,4008A,112.5234,32.9922,南阳市,卧龙区政府,,20,7,21,6,17,64,,78,64,10,8,6,6,0.7,0.6
2025-09-04T2100,1234A,121.8358,29.911,宁波市,区环保大楼,,15,13,26,9,8,46,,117,98,14,16,5,7,0.3,0.4
2025-09-04T2100,1235A,121.56,29.82,宁波市,万里学院,,,27,22,15,14,,,156,145,12,12,6,7,,0.5
2025-09-04T2100,1236A,121.713,29.9572,宁波市,龙赛医院,,20,18,25,8,7,62,,134,116,9,12,4,6,0.3,0.3
2025-09-04T2100,1239A,121.633,29.7733,宁波市,钱湖水厂,,20,20,17,8,10,50,,147,,10,9,6,6,0.4,0.5
2025-09-04T2100,1240A,121.5856,29.8635,宁波市,太古小学,,21,21,27,10,11,58,,141,122,10,11,2,4,0.4,0.5
2025-09-04T2100,1241A,121.524,29.8674,宁波市,市环境监测中心,,23,23,22,13,9,66,,142,124,10,14,5,7,0.5,0.5
2025-09-04T2100,2871A,121.6147,29.9017,宁波市,万里国际学校,,25,25,24,10,9,67,,152,129,7,10,4,5,0.4,0.4
2025-09-04T2100,3710A,121.5594,29.8975,宁波市,白沙活动中心,,23,20,17,12,10,71,,155,136,11,14,6,7,0.3,0.4
2025-09-04T2100,2339A,119.5001,26.6946,宁德市,金涵水库,,,,16,,5,,,44,,,3,,1,,0.8
2025-09-04T2100,2341A,119.5388,26.6612,宁德市,宁德市监测站,,25,19,23,15,15,78,,118,107,11,8,4,4,0.6,0.6
2025-09-04T2100,3209A,119.5231,26.6562,宁德市,宁德一中,,31,31,25,21,15,78,,117,106,10,7,5,5,0.4,0.5
2025-09-04T2100,2618A,98.8601,25.8567,怒江傈僳族自治州,州监测站,,30,28,23,21,16,28,,65,60,17,9,6,5,0.6,0.4
2025-09-04T2100,2619A,98.8546,25.8417,怒江傈僳族自治州,泸水一中,,14,14,21,3,11,18,,51,44,17,11,4,4,0.6,0.5
2025-09-04T2100,1888A,101.6891,26.571,攀枝花市,弄弄坪,,38,38,39,21,17,43,,81,72,20,23,10,11,0.7,1.1
2025-09-04T2100,1889A,101.5769,26.5928,攀枝花市,河门口,,44,44,31,24,16,43,,87,76,19,14,10,14,0.7,0.9
2025-09-04T2100,1890A,101.7169,26.585,攀枝花市,炳草岗,,29,29,40,14,18,49,,83,76,19,21,2,3,0.6,0.9
2025-09-04T2100,1891A,101.7369,26.5008,攀枝花市,仁和,细颗粒物(PM2.5),69,73,22,50,15,28,,63,57,20,12,9,8,0.9,0.6
2025-09-04T2100,2835A,101.7227,26.567,攀枝花市,四十中小,,28,28,32,15,16,33,,78,67,32,19,11,16,1.1,1
2025-09-04T2100,1604A,122.0303,41.1489,盘锦市,开发区,,38,31,30,26,28,70,,119,97,30,22,8,9,0.5,0.5
2025-09-04T2100,1605A,122.0485,41.0883,盘锦市,兴隆台,,39,39,34,18,21,71,,122,101,36,22,8,7,0.7,0.6
2025-09-04T2100,1606A,121.8297,41.1028,盘锦市,新生街道,,40,,25,28,18,44,,113,88,27,12,4,4,0.5,0.5
2025-09-04T2100,1832A,113.3257,33.742,平顶山市,新华旅馆,,23,11,21,6,15,72,,84,78,11,10,4,4,0.6,0.5
2025-09-04T2100,1833A,113.2919,33.737,平顶山市,规划设计院,,21,8,17,3,12,66,,76,74,11,10,4,4,0.7,0.6
2025-09-04T2100,1834A,113.182,33.774,平顶山市,平顶山工学院,,23,6,16,3,6,72,,78,75,8,9,5,5,0.5,0.4
2025-09-04T2100,3204A,113.3025,33.73,平顶山市,规划局,,23,6,16,3,12,72,,82,78,11,11,3,4,0.6,0.5
2025-09-04T2100,3594A,112.8867,33.9116,平顶山市,石龙区,,,,17,8,12,75,,81,74,,7,4,4,0.7,0.6
2025-09-04T2100,2656A,106.6692,35.5461,平凉市,聚贤嘉苑,,,37,50,20,22,33,,64,55,16,16,,8,0.9,0.8
2025-09-04T2100,2657A,106.7021,35.5307,平凉市,博物馆,,32,32,56,11,17,40,,56,50,13,19,9,9,0.7,0.6
2025-09-04T2100,2347A,114.0997,27.5002,萍乡市,武功山,,13,,8,9,6,30,,65,50,4,4,11,10,0.3,0.2
2025-09-04T2100,2348A,113.8385,27.6434,萍乡市,中医院,,30,30,32,13,16,58,,107,93,19,20,12,16,0.8,0.9
2025-09-04T2100,2349A,113.8493,27.6253,萍乡市,市政府车库,,25,25,25,16,19,44,,99,82,13,9,10,11,0.7,0.8
2025-09-04T2100,2350A,113.8676,27.6435,萍乡市,市环保局,,38,38,32,25,24,50,,101,86,15,16,6,13,0.8,1
2025-09-04T2100,2351A,113.866,27.6198,萍乡市,安源区政府,,,31,28,21,18,,,98,88,12,11,17,20,0.6,0.8
2025-09-04T2100,2319A,119.0141,25.4325,莆田市,荔城区仓后路,细颗粒物(PM2.5),52,45,44,36,30,85,,142,116,15,10,8,7,0.6,0.7
2025-09-04T2100,2320A,119.0015,25.4553,莆田市,莆田市监测站,,46,34,39,32,31,66,,144,117,14,9,6,6,0.5,0.6
2025-09-04T2100,2321A,119.1119,25.4561,莆田市,涵江区六中,,40,39,41,28,33,94,,134,113,11,12,6,6,0.4,0.5
2025-09-04T2100,2322A,119.1013,25.3215,莆田市,秀屿区政府,,32,27,38,17,30,100,,128,113,10,9,6,6,0.4,0.5
2025-09-04T2100,2323A,118.981,25.4792,莆田市,东圳水库,,,,37,,25,,,104,,,7,,4,,0.8
2025-09-04T2100,2392A,115.0312,35.7636,濮阳市,环保局,,25,16,18,13,15,79,,84,84,11,12,3,4,0.6,0.6
2025-09-04T2100,2394A,115.0574,35.7609,濮阳市,油田运输公司,,46,,26,32,20,84,,88,88,10,15,2,3,0.8,0.8
2025-09-04T2100,3021A,115,35.7668,濮阳市,濮水河管理处,,20,20,20,10,11,59,,62,59,15,16,3,3,0.4,0.4
2025-09-04T2100,4216A,115.0924,35.7686,濮阳市,任丘路479号,,,32,31,16,16,72,,76,76,,15,,4,0.8,0.8
2025-09-04T2100,2601A,100.98,22.7633,普洱市,市环保局,,42,42,26,16,16,29,,43,40,7,5,7,6,0.6,0.5
2025-09-04T2100,2602A,100.9817,22.8322,普洱市,普洱第二中学,,,28,27,15,12,,,45,41,11,7,6,6,0.5,0.4
2025-09-04T2100,2262A,131.0518,45.8751,七台河市,新一中,颗粒物(PM10),52,54,31,23,16,58,,141,114,29,17,11,11,0.9,0.9
2025-09-04T2100,3345A,131.0577,45.7879,七台河市,中波台,,50,50,25,6,7,86,,119,110,29,23,7,7,0.8,0.7
2025-09-04T2100,3637A,131.0176,45.7761,七台河市,人民广场,,50,50,33,21,14,69,,103,92,22,16,11,12,0.8,0.7
2025-09-04T2100,3684A,130.8781,45.8222,七台河市,新建矿广场,,31,31,27,14,9,30,,115,80,41,22,15,11,0.6,0.6
2025-09-04T2100,1779A,123.9305,47.3636,齐齐哈尔市,安居小区,颗粒物(PM10),52,53,54,29,21,90,,95,92,14,17,8,7,0.8,0.7
2025-09-04T2100,1780A,123.9488,47.3386,齐齐哈尔市,中心广场,颗粒物(PM10),54,58,55,27,21,97,,103,102,15,16,5,6,0.9,0.7
2025-09-04T2100,1781A,123.9483,47.3227,齐齐哈尔市,农牧车辆厂,,48,48,57,17,18,95,,99,99,7,12,7,7,0.5,0.5
2025-09-04T2100,1783A,123.945,47.2988,齐齐哈尔市,市环境监测站,,45,39,43,31,21,95,,102,102,7,11,6,6,0.7,0.6
2025-09-04T2100,3662A,123.6333,47.2075,齐齐哈尔市,富区青少年活动中心,细颗粒物(PM2.5),58,52,57,41,28,58,,91,85,12,12,5,7,0.8,0.8
2025-09-04T2100,2591A,107.9783,26.5747,黔东南苗族侗族自治州,市环境监测站,,19,14,13,13,13,56,,59,59,3,2,2,2,0.4,0.4
2025-09-04T2100,2881A,107.8908,26.5311,黔东南苗族侗族自治州,凯里学院,,21,,11,14,11,65,,66,66,7,6,4,3,0.3,0.4
2025-09-04T2100,2593A,107.5228,26.2403,黔南布依族苗族自治州,小围寨,,18,12,7,3,4,57,,56,56,3,4,2,2,0.3,0.3
2025-09-04T2100,3538A,107.5175,26.2978,黔南布依族苗族自治州,沙坝,,20,19,12,14,2,32,,44,38,4,4,4,4,0.1,0.2
2025-09-04T2100,2589A,104.9022,25.0925,黔西南布依族苗族自治州,场坝街,细颗粒物(PM2.5),64,58,20,46,11,52,,58,58,15,6,8,5,0.6,0.4
2025-09-04T2100,2590A,104.8811,25.0992,黔西南布依族苗族自治州,坪东大道,细颗粒物(PM2.5),60,57,26,43,15,50,,54,54,16,5,2,2,0.8,0.5
2025-09-04T2100,2502A,108.6236,21.9667,钦州市,市环保站,,17,17,28,7,9,53,,88,82,15,18,3,6,0.4,0.5
2025-09-04T2100,2503A,108.6549,21.9481,钦州市,沙埠小学,,45,41,34,31,17,28,,81,72,30,19,10,4,0.5,0.3
2025-09-04T2100,2504A,108.5989,21.7431,钦州市,港区一小,,23,23,28,9,8,67,,74,74,12,13,2,3,0.4,0.5
2025-09-04T2100,3404A,108.5959,21.9633,钦州市,北职校,,19,19,31,12,13,50,,81,74,12,17,2,5,0.6,0.6
2025-09-04T2100,1043A,119.7493,40.0116,秦皇岛市,第一关,颗粒物(PM10),58,65,50,35,30,97,,147,133,12,31,5,5,0.4,0.4
2025-09-04T2100,1044A,119.5897,39.9499,秦皇岛市,监测站,颗粒物(PM10),51,52,60,21,25,129,,143,136,9,28,5,5,0.4,0.5
2025-09-04T2100,1046A,119.5251,39.9041,秦皇岛市,建设大厦,,36,35,52,25,22,114,,138,129,7,23,5,5,0.5,0.5
2025-09-04T2100,3132A,119.610547,39.943889,秦皇岛市,文明里,,39,38,58,20,30,124,,134,128,6,19,6,6,0.4,0.3
2025-09-04T2100,4198A,119.5090,39.8253,秦皇岛市,北戴河轮滑馆,,50,50,61,21,28,132,,133,131,3,11,2,2,0.5,0.6
2025-09-04T2100,1307A,120.6659,36.2403,青岛市,仰口,,25,11,12,3,4,79,,82,82,5,5,9,10,0.6,0.6
2025-09-04T2100,1310A,120.4134,36.0658,青岛市,市南区东部子站,,24,9,8,7,7,76,,85,78,1,3,6,6,0.2,0.2
2025-09-04T2100,1311A,120.3664,36.1032,青岛市,四方区子站,,31,14,12,9,8,97,,90,90,5,5,4,5,0.2,0.2
2025-09-04T2100,1312A,120.2994,36.054,青岛市,市南区西部子站,,33,14,15,7,7,103,,96,96,4,12,5,6,0.5,0.6
2025-09-04T2100,1313A,120.4581,36.0858,青岛市,崂山区子站,,29,9,7,3,2,92,,92,92,2,3,7,7,0.2,0.2
2025-09-04T2100,1315A,120.3999,36.3083,青岛市,城阳区子站,,31,31,15,12,8,65,,95,92,26,8,3,3,0.4,0.3
2025-09-04T2100,1966A,120.0405,35.8735,青岛市,黄岛区4号,,30,9,15,3,6,94,,100,97,8,11,5,5,0.4,0.5
2025-09-04T2100,3362A,120.5014,36.4034,青岛市,即墨2号,,33,17,16,6,10,105,,104,104,5,5,4,4,0.2,0.2
2025-09-04T2100,3642A,120.3503,36.0736,青岛市,市北区南部,,32,16,14,7,6,102,,95,95,6,8,8,6,0.6,0.7
2025-09-04T2100,3643A,120.3948,36.1805,青岛市,李沧区北部,,,31,10,17,11,,,73,72,,6,6,5,0.4,0.2
2025-09-04T2100,4290A,120.1969,35.9546,青岛市,珠江路669号,,25,14,16,7,10,79,,89,87,14,19,6,6,0.3,0.4
2025-09-04T2100,1702A,113.0426,23.691,清远市,环保大楼,,,56,36,32,22,,,197,197,22,17,8,9,0.6,0.6
2025-09-04T2100,1703A,113.0208,23.7106,清远市,凤城街办,,44,44,35,25,20,130,,163,163,19,23,9,10,0.6,0.6
2025-09-04T2100,3025A,113.0477,23.6344,清远市,技师学院,颗粒物(PM10),62,74,37,38,19,117,,172,169,41,22,10,9,0.5,0.4
2025-09-04T2100,3318A,112.9903,23.7403,清远市,清新太和,,48,35,34,18,19,151,,152,152,15,19,13,11,0.5,0.5
2025-09-04T2100,3455A,113.076,23.7198,清远市,清城东城,,40,32,36,18,19,127,,160,160,16,18,7,7,0.7,0.6
2025-09-04T2100,2661A,107.6325,35.7357,庆阳市,庆阳五中,,21,14,17,7,9,66,,68,68,9,7,7,7,0.6,0.5
2025-09-04T2100,2662A,107.6364,35.7067,庆阳市,市环保局,,23,11,14,7,7,71,,73,73,6,4,3,2,0.8,0.7
2025-09-04T2100,1916A,103.7897,25.5035,曲靖市,环境监测站,,27,27,21,15,10,64,,79,78,11,8,6,5,0.4,0.4
2025-09-04T2100,1917A,103.8,25.5364,曲靖市,烟厂办公区,,26,26,20,6,9,61,,78,76,7,5,4,4,0.5,0.5
2025-09-04T2100,3376A,103.7947,25.462,曲靖市,南苑二区,,22,22,16,8,9,62,,78,77,11,8,4,4,0.4,0.4
2025-09-04T2100,3377A,103.7444,25.5261,曲靖市,曲靖师范学院,,28,28,17,12,12,65,,84,83,8,8,2,3,0.4,0.4
2025-09-04T2100,1264A,118.8692,28.9398,衢州市,环保大楼,,37,37,36,20,22,71,,124,108,16,16,4,5,0.4,0.5
2025-09-04T2100,1265A,118.8709,28.9666,衢州市,实验学校,,25,25,38,13,21,67,,131,111,14,19,4,4,0.3,0.4
2025-09-04T2100,1266A,118.8621,28.9808,衢州市,衢州学院,,21,20,35,13,22,67,,145,116,17,24,4,4,0.3,0.4
2025-09-04T2100,1611A,118.5819,24.9117,泉州市,涂山街,,43,43,42,29,29,91,,177,153,20,17,3,3,0.6,0.6
2025-09-04T2100,1612A,118.5972,24.8978,泉州市,津头埔,,,36,42,22,27,,,175,156,14,15,4,4,,0.6
2025-09-04T2100,1613A,118.6663,24.9424,泉州市,万安,,38,38,37,24,24,86,,158,136,16,15,3,3,0.5,0.5
2025-09-04T2100,1614A,118.6117,24.9604,泉州市,清源山,,,,36,,23,,,128,,,10,,2,,0.6
2025-09-04T2100,3529A,118.6333,24.9264,泉州市,城华南路,,39,31,34,27,28,75,,160,134,20,16,4,4,0.5,0.5
2025-09-04T2100,2626A,88.8876,29.2718,日喀则市,日喀则监测站,,21,13,6,3,1,65,,76,75,16,7,11,10,0.2,0.1
2025-09-04T2100,3726A,88.8781,29.2426,日喀则市,林业技术推广中心,,40,40,8,3,1,65,,75,75,4,3,6,6,0.3,0.3
2025-09-04T2100,1659A,119.471,35.4209,日照市,监测站,,25,7,10,3,9,78,,102,96,11,10,7,6,0.4,0.4
2025-09-04T2100,1660A,119.523,35.4216,日照市,市政府广场,,28,9,13,3,7,89,,102,97,4,6,5,5,0.6,0.6
2025-09-04T2100,1661A,119.5587,35.4044,日照市,港务局,,29,,13,13,17,91,,106,99,4,6,5,5,0.5,0.6
2025-09-04T2100,3507A,119.5328,35.4625,日照市,职业技术学院,,25,,14,14,10,78,,105,95,7,7,4,5,0.5,0.6
2025-09-04T2100,3604A,119.3266,35.1044,日照市,岚山环保分局,,29,19,23,3,5,91,,111,106,9,17,7,23,0.5,1.6
2025-09-04T2100,1835A,111.1922,34.7752,三门峡市,市政府,,29,9,10,3,6,90,,103,93,8,7,5,5,0.6,0.6
2025-09-04T2100,1836A,111.1587,34.7942,三门峡市,开发区,,27,6,9,6,6,85,,99,84,12,11,4,4,0.4,0.3
2025-09-04T2100,1838A,111.143,34.7955,三门峡市,风景区,,29,,8,3,6,92,,102,89,8,7,4,4,0.5,0.6
2025-09-04T2100,3039A,111.1911,34.7829,三门峡市,三门峡市第一小学,,30,,10,3,4,95,,102,92,6,6,4,3,0.6,0.5
2025-09-04T2100,3598A,111.1,34.7167,三门峡市,富达温泉假日酒店,,,12,12,3,7,,,90,86,10,8,5,5,0.4,0.4
2025-09-04T2100,2324A,117.6211,26.2625,三明市,三钢,,32,32,31,12,17,57,,113,90,15,16,13,8,2.7,1.7
2025-09-04T2100,2325A,117.635,26.2714,三明市,三明二中,,29,,31,20,17,42,,113,88,12,15,4,5,0.9,1.3
2025-09-04T2100,2326A,117.6028,26.2378,三明市,三元区政府,,26,,28,18,18,70,,108,89,5,12,3,3,0.4,0.6
2025-09-04T2100,2327A,117.7275,26.3108,三明市,洋溪,,,,18,,18,,,65,,,10,,3,,0.9
2025-09-04T2100,1876A,109.5078,18.2489,三亚市,河东子站,,12,12,13,8,6,34,,49,45,10,7,2,3,0.6,0.5
2025-09-04T2100,1877A,109.4964,18.2681,三亚市,河西子站,,12,6,12,3,2,36,,50,48,6,6,3,3,0.4,0.2
2025-09-04T2100,3540A,109.7348,18.3443,三亚市,君悦子站,,13,13,12,3,3,39,,36,36,4,4,2,3,0.2,0.3
2025-09-04T2100,2624A,91.7608,29.2313,山南市,山南监测站,,28,10,6,3,2,88,,77,77,1,3,3,3,0.2,0.2
2025-09-04T2100,2625A,91.7706,29.2436,山南市,山南人民医院,,26,11,7,3,4,82,,77,77,2,2,3,3,0.1,0.1
2025-09-04T2100,1674A,116.6794,23.3667,汕头市,金平子站,,,,22,7,12,56,,89,63,14,10,5,3,0.6,0.7
2025-09-04T2100,1675A,116.7244,23.3633,汕头市,龙湖子站,,18,12,16,3,9,55,,77,62,8,7,6,7,0.5,0.6
2025-09-04T2100,1676A,116.7258,23.2775,汕头市,濠江子站,,15,8,20,3,11,47,,64,55,11,7,5,6,0.6,0.6
2025-09-04T2100,1677A,116.7519,23.4714,汕头市,澄海子站,,21,21,29,7,18,40,,84,59,14,13,4,5,0.6,0.7
2025-09-04T2100,1678A,116.6092,23.2539,汕头市,潮阳子站,,20,20,16,6,10,60,,71,62,3,3,5,6,0.4,0.5
2025-09-04T2100,3444A,116.454,23.2684,汕头市,潮南峡山,,,23,24,11,16,,,78,69,8,9,6,6,0.4,0.4
2025-09-04T2100,3624A,116.4069,23.2533,汕头市,潮南子站,,,18,26,9,15,,,70,63,8,8,5,5,0.5,0.6
2025-09-04T2100,1693A,115.3653,22.775,汕尾市,市环保局,,15,,13,3,7,48,,62,53,6,6,3,3,0.4,0.4
2025-09-04T2100,1694A,115.3706,22.7898,汕尾市,市政府,,15,6,11,3,12,48,,60,54,6,6,4,4,0.4,0.4
2025-09-04T2100,1695A,115.3622,22.7925,汕尾市,新城中学,,16,6,17,6,8,50,,60,53,4,7,5,5,0.4,0.4
2025-09-04T2100,2645A,109.9154,33.8715,商洛市,监测站,,18,18,15,7,9,30,,48,40,9,12,3,4,0.7,0.7
2025-09-04T2100,3045A,109.9643,33.8471,商洛市,商州区中学,,31,31,21,9,10,30,,46,35,26,22,5,5,0.6,0.7
2025-09-04T2100,2408A,115.6702,34.4285,商丘市,环境监测站,细颗粒物(PM2.5),115,,60,87,48,56,,65,61,16,14,3,3,0.7,0.7
2025-09-04T2100,2409A,115.6458,34.4045,商丘市,粮食局,,45,34,52,31,32,57,,66,62,14,13,4,4,0.7,0.7
2025-09-04T2100,2410A,115.6293,34.3948,商丘市,睢阳区环保局,颗粒物(PM10),54,58,57,30,27,56,,66,62,12,10,5,5,0.6,0.5
2025-09-04T2100,3171A,115.6071,34.4465,商丘市,梁园区档案局,,,47,47,30,29,,,60,60,19,18,5,4,0.7,0.8
2025-09-04T2100,1141A,121.4,31.238,上海市,普陀,,23,23,25,16,13,63,,136,107,24,21,6,6,0.4,0.4
2025-09-04T2100,1142A,121.478,31.2036,上海市,十五厂,,26,23,26,18,14,48,,119,90,25,23,8,9,0.7,0.7
