timepoint,stationcode,longitude,latitude,area,positionname,primarypollutant,aqi,pm10,pm10_24h,pm2_5,pm2_5_24h,o3,o3_24h,o3_8h,o3_8h_24h,no2,no2_24h,so2,so2_24h,co,co_24h
2026-03-16T1800,2568A,102.2503,31.8896,阿坝藏族羌族自治州,马师校,,29,13,15,6,8,90,90,75,75,4,6,5,5,0.3,0.3
2026-03-16T1800,3994A,102.2174,31.9016,阿坝藏族羌族自治州,马尔康中学西区,,27,11,16,6,7,86,86,77,77,7,6,2,3,0.4,0.4
2026-03-16T1800,2695A,80.2899,41.1684,阿克苏地区,电视台,颗粒物(PM10),500,724,956,219,277,96,96,63,63,8,36,2,3,0.5,1.4
2026-03-16T1800,2696A,80.2592,41.1541,阿克苏地区,艺术中心,颗粒物(PM10),500,689,899,215,267,98,98,65,65,8,37,3,4,0.1,0.7
2026-03-16T1800,2205A,105.699,38.8409,阿拉善盟,蒙二幼,颗粒物(PM10),90,105,78,26,22,97,97,95,95,8,8,10,9,0.5,0.6
2026-03-16T1800,2206A,105.7198,38.8508,阿拉善盟,环保局新楼,颗粒物(PM10),80,92,74,27,22,92,92,89,89,6,7,8,8,0.5,0.5
2026-03-16T1800,2708A,88.1266,47.8515,阿勒泰地区,市站,,25,22,20,3,6,79,79,77,64,13,13,5,6,0.2,0.1
2026-03-16T1800,4166A,88.1198,47.7931,阿勒泰地区,阿勒泰路33号,,25,11,20,8,5,77,77,74,72,10,10,5,5,0.3,0.4
2026-03-16T1800,2630A,80.1171,32.4999,阿里地区,阿里监测站,,49,49,19,7,3,101,101,114,107,1,1,7,9,0.3,0.3
2026-03-16T1800,3192A,80.0906,32.5029,阿里地区,阿里藏医院,颗粒物(PM10),53,54,20,3,3,101,101,116,109,2,1,8,10,0.5,0.4
2026-03-16T1800,2644A,109.0088,32.6974,安康市,汉滨区检察院,,24,9,17,6,10,74,74,70,70,15,19,5,4,0.7,0.6
2026-03-16T1800,4054A,109.0324,32.6913,安康市,市邮政管理局,,21,11,18,8,10,66,66,65,65,20,25,5,6,0.8,0.6
2026-03-16T1800,2291A,117.0806,30.5181,安庆市,环科院,,12,6,35,3,37,36,36,65,42,16,10,7,7,0.8,0.7
2026-03-16T1800,2292A,117.0331,30.5118,安庆市,马山宾馆,,13,7,30,3,34,39,39,69,45,23,15,5,5,0.8,0.7
2026-03-16T1800,2294A,116.9897,30.6146,安庆市,安庆大学,,15,10,39,3,27,45,45,69,50,15,10,4,4,0.7,0.6
2026-03-16T1800,3173A,117.0598,30.5351,安庆市,市人大,,13,12,37,3,30,34,34,66,42,25,16,6,5,0.8,0.6
2026-03-16T1800,3123A,105.9408,26.2431,安顺市,凤凰山,,35,35,18,20,12,32,32,39,39,20,14,13,14,0.7,0.6
2026-03-16T1800,3124A,105.9443,26.2567,安顺市,金钟山,,28,NA,13,19,11,32,32,41,40,17,10,12,12,0.8,0.7
2026-03-16T1800,3125A,105.8983,26.248,安顺市,娄家坡,,32,32,17,18,11,32,32,40,40,18,11,12,12,0.7,0.7
2026-03-16T1800,1819A,114.3552,36.1017,安阳市,红庙街,细颗粒物(PM2.5),70,68,47,45,35,94,94,80,80,11,19,3,2,0.3,0.3
2026-03-16T1800,1820A,114.361,36.0681,安阳市,银杏小区,细颗粒物(PM2.5),84,55,52,52,38,93,93,80,80,16,24,2,2,0.3,0.3
2026-03-16T1800,3141A,114.3921,36.0879,安阳市,信访局,细颗粒物(PM2.5),86,62,48,53,36,102,102,86,86,7,11,4,3,0.3,0.3
2026-03-16T1800,3669A,114.4706,36.0634,安阳市,左辅环卫站,细颗粒物(PM2.5),86,80,69,53,38,96,96,84,84,8,26,4,3,0.3,0.3
2026-03-16T1800,4117A,114.2918,36.0769,安阳市,钢三路198号,NA,NA,NA,64,NA,37,NA,NA,83,71,NA,24,NA,4,NA,0.2
2026-03-16T1800,1748A,123.0441,41.1201,鞍山市,深沟寺,细颗粒物(PM2.5),125,122,118,87,96,98,98,96,96,46,38,28,20,1.7,1.4
2026-03-16T1800,1749A,123.011,41.0931,鞍山市,太阳城,细颗粒物(PM2.5),140,117,113,103,104,97,97,92,92,53,41,41,31,2.2,1.7
2026-03-16T1800,1750A,123.0483,41.1445,鞍山市,太平,细颗粒物(PM2.5),140,136,125,103,100,108,108,104,104,36,38,19,19,1.2,1.5
2026-03-16T1800,1751A,122.964,41.0968,鞍山市,铁西三道街,细颗粒物(PM2.5),139,123,154,102,133,76,76,82,82,78,61,48,33,3.2,2.2
2026-03-16T1800,1753A,123.0219,41.0822,鞍山市,明达新区,细颗粒物(PM2.5),128,124,114,90,99,98,98,90,90,44,35,38,25,2.1,1.5
2026-03-16T1800,4201A,122.944647,41.082639,鞍山市,兴盛南路290号,细颗粒物(PM2.5),135,121,160,98,141,70,70,80,80,82,63,46,27,3.3,2.1
2026-03-16T1800,2195A,107.4206,40.7609,巴彦淖尔市,附二中,颗粒物(PM10),158,266,104,52,45,91,91,84,84,5,16,8,12,0.4,0.6
2026-03-16T1800,2196A,107.37,40.7372,巴彦淖尔市,市环保大楼,颗粒物(PM10),143,231,104,66,37,96,96,92,92,6,14,5,7,0.4,0.5
2026-03-16T1800,1956A,86.1476,41.7529,巴音郭楞蒙古自治州,孔雀公园,颗粒物(PM10),110,145,267,44,73,98,98,86,86,3,23,9,9,0.3,0.5
2026-03-16T1800,1957A,86.1971,41.7166,巴音郭楞蒙古自治州,棉纺厂,颗粒物(PM10),123,179,363,50,97,101,101,93,93,1,20,/,/,/,/
2026-03-16T1800,1958A,86.236,41.7172,巴音郭楞蒙古自治州,经济开发区,颗粒物(PM10),114,155,289,44,76,90,90,85,85,6,11,7,7,0.4,0.4
2026-03-16T1800,3181A,106.776805,31.852614,巴中市,市五中,,16,16,12,10,6,43,43,45,45,16,12,8,7,0.9,0.8
2026-03-16T1800,3183A,106.7419,31.8654,巴中市,圣泉水务公司,,14,14,10,3,4,44,44,50,50,15,11,10,9,1.0,0.9
2026-03-16T1800,3616A,106.7617,31.8343,巴中市,市中心医院,,16,13,11,7,6,50,50,49,49,8,9,10,9,0.8,0.7
2026-03-16T1800,2235A,122.7909,45.608,白城市,洮北区环保局,,28,26,50,17,31,89,89,103,103,15,18,2,6,0.0,0.2
2026-03-16T1800,2236A,122.8741,45.5725,白城市,市环保局,,41,41,37,22,24,67,67,96,95,27,17,4,5,0.2,0.3
2026-03-16T1800,2231A,126.4219,41.9172,白山市,喜丰,颗粒物(PM10),78,89,153,46,118,113,113,114,114,16,35,15,14,1.1,1.2
2026-03-16T1800,2232A,126.4082,41.9416,白山市,环保局,细颗粒物(PM2.5),100,89,132,60,122,104,104,112,112,22,21,16,16,1.5,1.2
2026-03-16T1800,2647A,104.1727,36.5448,白银市,第三小学,颗粒物(PM10),100,119,153,57,69,92,92,76,76,11,22,48,36,0.3,0.6
2026-03-16T1800,2648A,104.1467,36.5482,白银市,动力公司,颗粒物(PM10),104,129,137,55,53,93,93,85,85,12,17,9,17,0.5,0.6
2026-03-16T1800,2512A,106.6102,23.901,百色市,市监测站,,37,37,57,13,36,81,81,83,83,11,19,15,20,0.5,0.7
2026-03-16T1800,2513A,106.6524,23.8842,百色市,市中心血站,,39,39,60,17,39,78,78,80,80,14,19,14,21,0.5,0.7
2026-03-16T1800,4133A,106.6273,23.8798,百色市,龙景西路,,47,47,72,18,39,82,82,83,83,10,17,21,23,0.5,0.7
2026-03-16T1800,2270A,117.396,32.9389,蚌埠市,工人疗养院,,42,42,86,29,74,87,87,105,105,18,20,3,4,0.6,0.7
2026-03-16T1800,2271A,117.3606,32.9428,蚌埠市,百货大楼,NA,NA,41,85,NA,78,89,89,104,104,14,22,NA,8,NA,0.7
2026-03-16T1800,2273A,117.4183,32.8909,蚌埠市,蚌埠学院,,48,39,67,33,74,77,77,87,87,20,27,4,4,0.5,0.6
2026-03-16T1800,2274A,117.3534,32.9672,蚌埠市,淮上区政府,NA,NA,34,77,31,81,91,91,104,104,14,22,4,4,NA,0.6
2026-03-16T1800,2275A,117.3143,32.8977,蚌埠市,高新区,,45,41,75,31,77,78,78,96,96,22,28,6,6,0.6,0.7
2026-03-16T1800,3715A,117.3091,32.9314,蚌埠市,蚌埠田家炳中学,,43,40,86,30,80,90,90,107,107,13,18,3,4,0.4,0.6
2026-03-16T1800,1585A,109.8761,40.6533,包头市,市环境监测站,颗粒物(PM10),66,72,85,34,44,110,110,106,106,20,38,11,12,0.7,0.7
2026-03-16T1800,1587A,109.9992,40.5843,包头市,包头八中,颗粒物(PM10),65,70,100,34,58,98,98,98,98,18,46,13,15,0.6,0.9
2026-03-16T1800,1589A,109.8641,40.6288,包头市,惠龙物流,颗粒物(PM10),61,65,78,40,49,109,109,103,103,17,38,10,13,0.5,0.7
2026-03-16T1800,1590A,110.0376,40.5546,包头市,东河鸿龙湾,颗粒物(PM10),53,53,93,30,62,109,109,103,103,11,59,10,13,0.5,0.9
2026-03-16T1800,3283A,109.9154,40.5684,包头市,滨河大厦,颗粒物(PM10),58,61,81,20,44,108,108,102,102,13,50,10,11,0.5,0.8
2026-03-16T1800,3419A,109.9449,40.6259,包头市,包头市委党校,颗粒物(PM10),59,62,80,21,43,107,107,99,99,13,44,13,16,0.6,0.9
2026-03-16T1800,3683A,109.8332,40.6577,包头市,昆区政府,颗粒物(PM10),68,74,84,31,52,98,98,100,100,30,57,13,15,0.9,0.9
2026-03-16T1800,1931A,107.0802,34.3129,宝鸡市,竹园沟,颗粒物(PM10),65,71,66,37,33,79,79,70,70,12,12,6,6,0.7,0.7
2026-03-16T1800,1933A,107.1429,34.3549,宝鸡市,监测站,NA,NA,55,73,40,35,69,69,68,68,15,17,5,5,NA,0.3
2026-03-16T1800,1934A,107.1172,34.3759,宝鸡市,技工学校,颗粒物(PM10),65,71,77,38,33,75,75,75,75,24,18,3,3,0.7,0.6
2026-03-16T1800,1936A,107.2025,34.3518,宝鸡市,文理学院,颗粒物(PM10),66,72,77,42,37,65,65,63,63,16,17,4,4,0.5,0.4
2026-03-16T1800,1937A,107.2396,34.3626,宝鸡市,三迪小学,颗粒物(PM10),65,71,79,39,34,75,75,77,77,20,22,3,4,0.5,0.5
2026-03-16T1800,4155A,107.1721,34.3558,宝鸡市,滨河北路,颗粒物(PM10),72,80,80,39,31,75,75,74,74,16,18,5,5,0.4,0.4
2026-03-16T1800,4308A,107.3898,34.3601,宝鸡市,陈仓区北开路21号,颗粒物(PM10),65,70,76,35,30,75,75,80,80,17,18,6,6,0.4,0.4
2026-03-16T1800,1051A,115.4803,38.8568,保定市,游泳馆,细颗粒物(PM2.5),98,72,57,59,41,135,135,114,114,18,30,9,7,0.4,0.5
2026-03-16T1800,1052A,115.509,38.8895,保定市,华电二区,细颗粒物(PM2.5),82,53,48,51,32,141,141,116,116,10,18,4,3,0.3,0.3
2026-03-16T1800,1053A,115.4588,38.9037,保定市,接待中心,细颗粒物(PM2.5),76,61,54,48,37,128,128,109,109,14,20,5,4,0.2,0.2
2026-03-16T1800,1054A,115.4484,38.8344,保定市,地表水厂,细颗粒物(PM2.5),74,72,62,47,32,134,134,114,114,17,28,7,6,0.3,0.4
2026-03-16T1800,3581A,115.3136,38.9511,保定市,满城区生态环境分局,颗粒物(PM10),67,73,74,38,40,127,127,114,114,12,26,7,6,0.4,0.4
2026-03-16T1800,3582A,115.4709,38.7628,保定市,清苑区第二中学,细颗粒物(PM2.5),84,78,63,52,35,131,131,117,117,16,27,8,7,0.3,0.3
2026-03-16T1800,3583A,115.6231,39.0223,保定市,徐水物探局,细颗粒物(PM2.5),74,82,74,47,41,136,136,114,114,14,25,5,3,0.5,0.5
2026-03-16T1800,4004A,115.4199,38.8665,保定市,双鹰农机,细颗粒物(PM2.5),80,70,67,50,39,140,140,118,118,15,25,5,5,0.4,0.4
2026-03-16T1800,4034A,115.515,38.8589,保定市,植保所站,细颗粒物(PM2.5),92,71,68,56,40,138,138,113,113,13,29,4,3,0.4,0.4
2026-03-16T1800,2594A,99.1589,25.1137,保山市,市环境监测站,,42,NA,28,29,21,130,130,126,126,6,8,12,12,0.2,0.2
2026-03-16T1800,2595A,99.1616,25.1381,保山市,市环保局,,48,NA,30,33,24,128,128,125,125,4,5,5,5,0.5,0.5
2026-03-16T1800,1867A,109.1435,21.4085,北海市,海滩公园,,49,49,40,12,17,122,122,123,123,8,7,7,8,0.7,0.6
2026-03-16T1800,1868A,109.0983,21.466,北海市,新市环保局,NA,NA,43,38,16,19,114,114,112,112,NA,9,7,7,0.5,0.5
2026-03-16T1800,1869A,109.1775,21.5232,北海市,北海工业园,颗粒物(PM10),53,53,52,19,23,108,108,105,105,5,8,7,8,0.4,0.5
2026-03-16T1800,3400A,109.1844,21.4396,北海市,龙潭自来水厂,NA,NA,NA,43,11,20,110,110,112,112,2,4,5,7,0.4,0.4
2026-03-16T1800,1001A,116.3611,39.8786,北京市,万寿西宫,颗粒物(PM10),53,54,62,30,36,128,128,112,112,14,29,4,3,0.4,0.5
2026-03-16T1800,1003A,116.4174,39.9289,北京市,东四,颗粒物(PM10),55,56,62,37,38,124,124,105,105,12,30,7,6,0.3,0.4
2026-03-16T1800,1004A,116.4073,39.8858,北京市,天坛,颗粒物(PM10),53,53,62,32,33,115,115,102,102,13,28,5,3,0.7,0.8
2026-03-16T1800,1005A,116.4622,39.9364,北京市,农展馆,颗粒物(PM10),56,58,64,36,35,117,117,102,102,9,26,7,5,0.4,0.5
2026-03-16T1800,1006A,116.3399,39.9293,北京市,官园,颗粒物(PM10),53,54,67,29,38,116,116,98,98,18,38,3,3,0.3,0.4
2026-03-16T1800,1007A,116.2879,39.9613,北京市,海淀万柳,,50,50,64,29,37,99,99,82,82,15,38,5,4,0.4,0.5
2026-03-16T1800,1008A,116.6635,40.1349,北京市,顺义新城,细颗粒物(PM2.5),86,82,71,53,41,111,111,105,105,23,30,7,5,0.6,0.5
2026-03-16T1800,1009A,116.6275,40.327,北京市,怀柔镇,细颗粒物(PM2.5),66,64,67,43,45,112,112,94,94,23,22,7,5,0.6,0.6
2026-03-16T1800,1010A,116.2295,40.217,北京市,昌平镇,颗粒物(PM10),55,57,66,30,38,121,121,95,95,16,32,3,3,0.7,0.7
2026-03-16T1800,1011A,116.3968,39.982,北京市,奥体中心,颗粒物(PM10),52,52,64,31,37,107,107,91,91,13,34,6,4,0.5,0.6
2026-03-16T1800,3418A,116.8336,40.4095,北京市,密云新城,颗粒物(PM10),74,83,77,42,37,100,100,94,94,22,27,6,4,0.6,0.6
2026-03-16T1800,3671A,116.0879,39.9725,北京市,门头沟三家店,,38,38,62,18,35,106,106,104,104,11,32,5,4,0.3,0.5
2026-03-16T1800,3672A,116.1507,39.8246,北京市,丰台云岗,,43,43,75,23,39,112,112,106,106,14,32,4,4,0.4,0.5
2026-03-16T1800,3674A,115.9578,39.7602,北京市,房山燕山,,43,43,52,22,35,97,97,94,94,19,21,4,4,0.3,0.4
2026-03-16T1800,3675A,116.4669,39.7734,北京市,大兴旧宫,颗粒物(PM10),59,62,60,38,33,116,116,109,109,13,22,6,4,0.5,0.5
2026-03-16T1800,3694A,115.9859,40.4562,北京市,延庆石河营,,50,50,65,29,39,108,108,100,100,17,18,2,2,0.5,0.6
2026-03-16T1800,3695A,116.6151,40.3052,北京市,怀柔新城,颗粒物(PM10),61,65,63,34,40,114,114,95,95,24,18,5,4,0.4,0.5
2026-03-16T1800,3696A,116.2542,39.8764,北京市,丰台小屯,颗粒物(PM10),53,54,75,30,39,109,109,95,95,22,47,5,4,0.2,0.4
2026-03-16T1800,3697A,116.8399,40.3843,北京市,密云镇,颗粒物(PM10),71,79,65,44,37,102,102,95,95,22,36,9,6,0.6,0.5
2026-03-16T1800,4057A,115.9423,40.4431,北京市,延庆百泉,,49,49,64,23,35,111,111,97,97,15,19,1,2,0.4,0.4
2026-03-16T1800,4058A,116.6598,39.9164,北京市,通州新华,细颗粒物(PM2.5),104,113,76,64,41,91,91,91,91,28,33,5,3,0.7,0.5
2026-03-16T1800,4182A,116.1942,39.9158,北京市,石景山八角,,44,44,76,20,36,96,96,88,88,13,35,4,5,0.3,0.4
2026-03-16T1800,4194A,117.078628,40.151726,北京市,平谷新城,细颗粒物(PM2.5),92,95,75,56,43,103,103,93,93,28,28,6,3,0.8,0.6
2026-03-16T1800,1761A,123.8274146,41.31234549,本溪市,大峪,细颗粒物(PM2.5),131,152,178,94,123,125,125,114,114,31,45,15,18,1.0,2.3
2026-03-16T1800,1763A,123.7169,41.3094,本溪市,彩屯,NA,NA,NA,172,NA,145,117,117,131,131,36,42,14,16,0.9,1.8
2026-03-16T1800,1764A,123.7672166,41.28649327,本溪市,东明,细颗粒物(PM2.5),129,111,173,91,137,118,118,112,112,46,62,21,20,1.4,2.1
2026-03-16T1800,1765A,123.799345,41.266614,本溪市,新立屯,细颗粒物(PM2.5),143,128,151,107,128,51,51,97,97,85,51,24,22,3.2,3.1
2026-03-16T1800,1766A,123.829144,41.336777,本溪市,威宁,细颗粒物(PM2.5),148,187,197,112,125,129,129,122,122,36,48,13,10,1.1,1.7
2026-03-16T1800,2587A,105.287,27.3133,毕节市,八中,颗粒物(PM10),57,59,32,28,20,54,54,69,62,20,10,12,10,0.7,0.6
2026-03-16T1800,2588A,105.3079,27.2987,毕节市,师专,颗粒物(PM10),60,64,32,24,16,48,48,61,55,18,10,10,9,0.5,0.5
2026-03-16T1800,4263A,105.3688,27.3598,毕节市,工业大道,颗粒物(PM10),55,56,35,26,17,60,60,72,68,14,7,11,10,/,/
2026-03-16T1800,1629A,117.9961,37.3604,滨州市,第二水厂,细颗粒物(PM2.5),98,70,65,59,46,137,137,128,128,18,40,14,13,0.5,0.5
2026-03-16T1800,1630A,117.9789,37.3931,滨州市,北中新校,细颗粒物(PM2.5),86,75,64,53,40,141,141,129,129,20,39,15,14,0.3,0.3
2026-03-16T1800,3514A,117.9379,37.3959,滨州市,中海酒店,细颗粒物(PM2.5),90,73,63,55,42,140,140,133,133,23,35,13,11,0.8,0.7
2026-03-16T1800,3515A,117.9381509,37.35547456,滨州市,开发区一中,细颗粒物(PM2.5),96,80,75,58,48,132,132,128,128,11,24,19,17,0.7,0.7
2026-03-16T1800,3516A,118.0914,37.6938,滨州市,金海六路,颗粒物(PM10),53,54,64,34,46,140,140,128,128,18,33,10,13,0.5,0.6
2026-03-16T1800,4028A,117.9955,37.3752,滨州市,滨州市西街道办事处,细颗粒物(PM2.5),98,70,65,59,44,140,140,129,129,13,27,14,12,0.6,0.6
2026-03-16T1800,2311A,115.8071,33.8399,亳州市,污水处理厂,细颗粒物(PM2.5),131,109,94,94,81,94,94,79,79,16,18,3,4,0.3,0.3
2026-03-16T1800,2312A,115.7789,33.8519,亳州市,三国揽胜宫,细颗粒物(PM2.5),140,105,100,103,85,84,84,71,71,15,17,4,5,0.4,0.4
2026-03-16T1800,3332A,115.7631,33.803,亳州市,亳州学院,细颗粒物(PM2.5),137,116,105,100,88,86,86,73,73,NA,16,4,5,0.3,0.3
2026-03-16T1800,2693A,82.0482,44.8553,博尔塔拉蒙古自治州,市党校,颗粒物(PM10),63,67,66,29,18,101,101,84,84,7,9,5,4,0.5,0.5
2026-03-16T1800,2694A,82.0805,44.8966,博尔塔拉蒙古自治州,市环保局,,48,48,50,19,18,90,90,68,68,15,24,2,3,0.4,0.5
2026-03-16T1800,1071A,116.8733,38.2922,沧州市,沧县城建局,细颗粒物(PM2.5),102,88,64,62,42,120,120,127,127,18,27,4,6,0.6,0.6
2026-03-16T1800,1072A,116.8462,38.3189,沧州市,电视转播站,细颗粒物(PM2.5),110,78,55,70,43,129,129,131,131,19,23,3,4,0.5,0.5
2026-03-16T1800,1073A,116.8588,38.3161,沧州市,市环保局,细颗粒物(PM2.5),103,92,65,63,43,126,126,129,128,19,25,7,6,0.5,0.5
2026-03-16T1800,3324A,116.8011,38.294,沧州市,河北水利电力学院,NA,NA,NA,62,NA,43,100,100,107,107,19,27,8,9,0.5,0.4
2026-03-16T1800,2622A,97.1813,31.1289,昌都市,昌都监测站,,30,NA,12,3,4,95,95,83,83,5,5,3,3,0.5,0.5
2026-03-16T1800,3719A,97.1707,31.1428,昌都市,昌都会议中心,,29,7,10,3,7,90,90,82,82,6,4,5,5,0.4,0.3
2026-03-16T1800,2692A,87.2722,44.0298,昌吉回族自治州,新区政务中心,细颗粒物(PM2.5),100,83,58,60,43,137,137,104,104,18,24,10,6,0.7,0.6
2026-03-16T1800,3613A,87.3069,44.0093,昌吉回族自治州,亚心广场,颗粒物(PM10),95,112,75,54,36,144,144,110,110,10,24,13,9,0.6,0.6
2026-03-16T1800,4164A,87.2057,43.9289,昌吉回族自治州,财政所,颗粒物(PM10),82,94,73,40,27,123,123,100,100,16,11,8,7,0.6,0.4
2026-03-16T1800,1120A,125.2874,43.9024,长春市,客车厂,细颗粒物(PM2.5),158,147,127,120,107,92,92,117,117,60,35,13,12,1.0,0.8
2026-03-16T1800,1121A,125.2943,43.8508,长春市,邮电学院,细颗粒物(PM2.5),144,143,131,108,103,124,124,118,118,22,28,11,11,0.6,0.6
2026-03-16T1800,1122A,125.3648,43.8745,长春市,劳动公园,细颗粒物(PM2.5),150,136,131,114,102,129,129,126,126,32,30,11,11,0.6,0.5
2026-03-16T1800,1123A,125.3233,43.8781,长春市,园林处,细颗粒物(PM2.5),150,132,127,114,103,125,125,121,121,26,27,11,11,0.7,0.7
2026-03-16T1800,1124A,125.4604,43.7904,长春市,净月潭,细颗粒物(PM2.5),150,150,154,115,134,132,132,112,112,21,29,9,9,0.6,0.8
2026-03-16T1800,1126A,125.38,43.8422,长春市,经开区环卫处,细颗粒物(PM2.5),145,147,148,109,113,122,122,119,119,34,36,9,10,0.6,0.8
2026-03-16T1800,1127A,125.234,43.7761,长春市,高新区管委会,细颗粒物(PM2.5),116,92,145,77,118,83,83,106,106,52,38,9,12,0.8,1
2026-03-16T1800,1128A,125.1695,43.83,长春市,岱山公园,细颗粒物(PM2.5),149,NA,133,113,112,84,84,105,105,58,39,9,9,0.7,0.7
2026-03-16T1800,4281A,125.334645,43.916281,长春市,北亚泰大街1068号,细颗粒物(PM2.5),155,153,139,118,108,112,112,112,112,30,37,11,11,0.6,0.6
2026-03-16T1800,1335A,113.082,28.2421,长沙市,经开区环保局,,15,15,15,3,9,32,32,43,31,22,17,2,2,0.6,0.6
2026-03-16T1800,1336A,112.8873,28.2202,长沙市,高开区环保局,,12,8,12,3,9,37,37,49,NA,20,14,4,4,0.8,0.8
2026-03-16T1800,1337A,113.0785,28.2012,长沙市,马坡岭,,13,13,14,3,12,36,36,48,35,22,15,4,4,0.9,0.9
2026-03-16T1800,1338A,112.9448,28.1894,长沙市,湖南师范大学,,14,11,14,3,8,43,43,57,44,25,17,4,4,0.8,0.8
2026-03-16T1800,1339A,113.0177,28.1322,长沙市,雨花区环保局,,12,12,14,3,9,36,36,50,38,18,11,3,3,1.0,0.9
2026-03-16T1800,1340A,112.9795,28.2593,长沙市,伍家岭,,13,10,11,3,9,41,41,53,42,20,13,3,3,0.8,0.7
2026-03-16T1800,1341A,113.002,28.1944,长沙市,火车新站,,13,NA,12,3,9,41,41,54,41,18,12,3,3,0.7,0.7
2026-03-16T1800,1342A,112.9846,28.1177,长沙市,天心区环保局,,13,6,16,3,10,41,41,55,41,22,15,5,5,0.9,0.8
2026-03-16T1800,1343A,112.8906,28.1307,长沙市,湖南中医药大学,,14,9,12,3,8,43,43,56,41,14,9,5,5,0.8,0.7
2026-03-16T1800,1727A,113.1146,36.1547,长治市,清华站,细颗粒物(PM2.5),101,90,68,61,53,85,85,80,80,16,18,6,7,1.1,0.9
2026-03-16T1800,1730A,113.0887,36.2126,长治市,审计局,细颗粒物(PM2.5),106,94,65,66,57,86,86,77,77,12,17,6,7,0.8,0.8
2026-03-16T1800,1731A,113.0845,36.1856,长治市,长治八中,"颗粒物(PM10),细颗粒物(PM2.5)",101,122,80,61,59,86,86,78,78,10,14,8,9,0.9,0.9
2026-03-16T1800,2845A,113.1561,36.1912,长治市,德盛苑,细颗粒物(PM2.5),101,100,75,61,61,92,92,83,83,14,16,8,9,0.9,0.9
2026-03-16T1800,3568A,113.0603,36.0464,长治市,向阳小学,颗粒物(PM10),117,163,102,73,56,88,88,87,87,24,23,10,10,1.1,0.9
2026-03-16T1800,3569A,112.8788,36.315,长治市,屯留一中,颗粒物(PM10),83,96,65,46,44,86,86,77,77,15,23,4,5,0.5,0.7
2026-03-16T1800,4189A,113.113092,36.199482,长治市,英华南巷50号,细颗粒物(PM2.5),102,107,74,62,59,85,85,80,80,21,19,7,7,0.8,0.8
2026-03-16T1800,4190A,113.23666,36.33435,长治市,学府街1号,NA,NA,NA,62,NA,51,94,94,77,77,NA,25,3,2,NA,0.9
2026-03-16T1800,1854A,111.696,28.9725,常德市,市二中,,18,15,15,3,8,57,57,55,54,14,11,6,6,1.1,1.1
2026-03-16T1800,3138A,111.7152,29.0288,常德市,武陵区永安,,19,13,12,10,10,58,58,55,55,18,15,3,4,0.8,0.8
2026-03-16T1800,3139A,111.6891,28.9881,常德市,鼎城区玉霞,,19,10,13,9,9,58,58,55,54,17,16,6,6,0.9,0.9
2026-03-16T1800,3140A,111.6651,29.0526,常德市,武陵区长庚,,20,13,14,12,13,62,62,58,58,13,11,6,5,0.9,0.9
2026-03-16T1800,1196A,119.9524,31.7586,常州市,市监测站,细颗粒物(PM2.5),74,72,71,47,40,59,59,64,51,32,24,7,6,0.7,0.6
2026-03-16T1800,1200A,119.9351,31.703,常州市,武进监测站,细颗粒物(PM2.5),80,77,67,50,41,54,54,62,50,34,24,6,7,0.6,0.5
2026-03-16T1800,3002A,119.9701,31.813,常州市,行政中心,细颗粒物(PM2.5),66,62,56,43,40,44,44,58,45,39,24,4,4,0.4,0.5
2026-03-16T1800,3003A,120.0434,31.7726,常州市,经开区,颗粒物(PM10),70,78,72,41,35,64,64,65,55,32,25,7,8,0.9,0.8
2026-03-16T1800,3010A,119.8919,31.7892,常州市,钟楼,细颗粒物(PM2.5),68,61,58,44,39,60,60,70,56,37,25,6,6,0.5,0.4
2026-03-16T1800,3429A,119.8595,31.706,常州市,武进经发区,细颗粒物(PM2.5),68,55,51,44,41,46,46,57,44,45,32,6,6,0.7,0.7
2026-03-16T1800,3430A,119.5812,31.7256,常州市,金坛城区,细颗粒物(PM2.5),84,NA,49,52,51,45,45,58,47,37,22,7,7,0.7,0.6
2026-03-16T1800,4089A,119.9551,31.863,常州市,崇义南街5-H号,细颗粒物(PM2.5),74,58,55,47,43,50,50,56,47,32,22,4,4,0.7,0.6
2026-03-16T1800,2220A,120.4318,41.588,朝阳市,西梁,,49,39,43,34,20,104,104,98,98,14,27,10,11,0.5,0.5
2026-03-16T1800,2221A,120.452,41.565,朝阳市,河畔小区,细颗粒物(PM2.5),56,39,38,38,21,109,109,101,101,14,18,12,13,0.4,0.6
2026-03-16T1800,2222A,120.4176,41.5648,朝阳市,八里堡,,50,49,40,35,21,103,103,98,98,15,25,8,10,0.4,0.5
2026-03-16T1800,3026A,116.6179,23.6608,潮州市,市政府,颗粒物(PM10),53,53,52,25,30,123,123,127,127,10,17,4,7,0.4,0.4
2026-03-16T1800,4036A,116.646,23.676,潮州市,金山,,50,50,39,27,25,119,119,123,123,12,12,4,4,0.5,0.5
2026-03-16T1800,2473A,113.0116,25.8228,郴州市,市职中,细颗粒物(PM2.5),100,66,92,60,90,60,60,64,64,14,17,4,5,0.7,0.7
2026-03-16T1800,2475A,113.0381,25.8074,郴州市,市审计局,细颗粒物(PM2.5),66,59,94,43,82,56,56,57,57,14,15,4,5,/,/
2026-03-16T1800,2476A,113.0348,25.7757,郴州市,市环保局,细颗粒物(PM2.5),82,72,98,51,94,54,54,55,55,24,24,6,7,0.7,0.6
2026-03-16T1800,4252A,113.0138,25.8011,郴州市,好美居路49号,细颗粒物(PM2.5),103,NA,85,63,89,61,61,66,66,23,25,4,7,/,/
2026-03-16T1800,1431A,103.9727,30.7242,成都市,金泉两河,,39,39,43,25,20,56,56,66,66,29,17,2,2,0.4,0.3
2026-03-16T1800,1432A,104.1423,30.6765,成都市,十里店,,33,33,39,23,24,63,63,61,61,18,14,4,4,0.5,0.5
2026-03-16T1800,1433A,104.0594,30.5765,成都市,三瓦窑,,45,45,44,23,21,55,55,49,49,16,16,2,2,0.6,0.6
2026-03-16T1800,1434A,104.1122,30.6306,成都市,沙河铺,,35,35,41,20,22,58,58,52,52,27,22,4,4,0.3,0.2
2026-03-16T1800,2880A,104.0219,30.6561,成都市,大石西路,,49,49,46,27,23,68,68,65,65,23,16,2,2,0.5,0.5
2026-03-16T1800,3136A,104.2724,30.559,成都市,龙泉驿区区政府,,29,27,29,20,21,56,56,59,59,11,10,6,6,0.5,0.4
2026-03-16T1800,3357A,104.0028,30.6891,成都市,金博路,颗粒物(PM10),55,57,34,25,23,55,55,64,64,35,22,6,6,0.8,0.7
2026-03-16T1800,3359A,104.056,30.5228,成都市,华阳,,34,34,44,21,24,57,57,50,50,21,19,2,2,0.5,0.5
2026-03-16T1800,3488A,104.387954,30.746684,成都市,青石路225号,,28,21,33,19,24,63,63,60,60,10,13,6,10,0.7,0.6
2026-03-16T1800,3489A,104.0788,30.4054,成都市,科学城,,25,25,43,17,25,59,59,56,56,10,11,6,6,0.6,0.6
2026-03-16T1800,4011A,103.8505,30.6946,成都市,光华大道三段,,38,34,44,26,21,69,69,66,66,30,23,3,3,0.4,0.4
2026-03-16T1800,4144A,104.3257,30.6406,成都市,八角井街185号,,44,44,42,24,21,56,56,53,53,15,14,4,5,0.5,0.5
2026-03-16T1800,4224A,104.2433276,30.53529463,成都市,鲸龙路1057号,,33,33,40,20,20,56,56,62,62,11,12,5,5,0.4,0.4
2026-03-16T1800,1062A,117.9531,40.908,承德市,铁路,颗粒物(PM10),58,60,67,31,27,99,99,97,97,19,24,5,4,0.4,0.5
2026-03-16T1800,1063A,117.9397,40.9763,承德市,中国银行,颗粒物(PM10),61,65,67,27,24,99,99,97,97,14,20,4,3,0.5,0.5
2026-03-16T1800,4073A,117.9462,40.95,承德市,杏林街1号,颗粒物(PM10),62,66,60,35,31,110,110,104,104,12,18,6,5,0.5,0.5
2026-03-16T1800,4274A,117.7994,40.9605,承德市,滨河大街98号,细颗粒物(PM2.5),80,64,51,50,27,102,102,105,105,23,18,49,10,0.5,0.5
2026-03-16T1800,2314A,117.4698,30.6617,池州市,池州学院,,19,11,38,9,31,29,29,52,34,38,30,3,4,0.5,0.5
2026-03-16T1800,3237A,117.4918,30.6617,池州市,展览馆,,20,16,47,14,43,26,26,48,32,39,30,2,3,0.8,0.7
2026-03-16T1800,3333A,117.5626,30.695,池州市,第八中学,,21,16,38,12,28,24,24,52,28,42,29,3,3,0.8,0.7
2026-03-16T1800,3334A,117.5037,30.6242,池州市,第十二中学,,22,14,32,11,26,23,23,56,26,43,28,4,4,0.9,0.8
2026-03-16T1800,1744A,118.9229,42.2816,赤峰市,松山一中,颗粒物(PM10),65,71,51,36,33,89,89,100,100,24,32,6,10,0.7,0.8
2026-03-16T1800,1745A,118.9588,42.2733,赤峰市,哈达街,颗粒物(PM10),60,64,53,33,31,86,86,91,91,20,30,9,16,0.6,0.8
2026-03-16T1800,1746A,118.8792,42.2551,赤峰市,天义路,NA,NA,44,38,32,27,101,101,110,110,18,25,6,9,NA,0.4
2026-03-16T1800,3058A,119.2656,42.0356,赤峰市,银河街,颗粒物(PM10),103,127,85,59,41,105,105,119,119,17,20,11,16,0.6,0.8
2026-03-16T1800,3286A,118.9359,42.3146,赤峰市,桥北物流园区,颗粒物(PM10),68,75,56,28,37,76,76,109,109,40,31,4,10,0.6,0.8
2026-03-16T1800,2521A,107.3473,22.4137,崇左市,市环保局江州分局,,46,46,62,23,39,78,78,82,82,14,14,4,5,0.8,0.9
2026-03-16T1800,4256A,107.375,22.3736,崇左市,石景林东路7号,,38,38,44,25,29,84,84,90,90,10,15,3,3,0.9,0.9
2026-03-16T1800,3207A,118.31131,32.3033,滁州市,市政府原办公楼,细颗粒物(PM2.5),80,51,41,50,45,59,59,78,66,20,16,4,4,0.4,0.3
2026-03-16T1800,3331A,118.3268,32.2633,滁州市,图书馆,细颗粒物(PM2.5),56,45,42,38,35,55,55,74,62,21,17,7,7,0.5,0.4
2026-03-16T1800,4101A,118.3196,32.3335,滁州市,银山路666号,细颗粒物(PM2.5),68,44,37,44,37,63,63,83,72,17,14,9,10,0.6,0.5
2026-03-16T1800,4102A,118.3426,32.2979,滁州市,黄山路555号,细颗粒物(PM2.5),72,66,53,46,41,54,54,80,67,30,24,6,5,0.7,0.6
2026-03-16T1800,2606A,101.5379,25.0492,楚雄彝族自治州,市经济开发区,,35,30,24,24,18,112,112,101,101,7,8,4,4,0.7,0.7
2026-03-16T1800,4153A,101.5536,25.0343,楚雄彝族自治州,团结路562号,,37,27,19,21,17,116,116,105,105,4,3,8,7,0.3,0.3
2026-03-16T1800,2549A,107.5087,31.2186,达州市,市环境监测站,,22,22,21,6,5,36,36,28,28,25,26,5,6,0.4,0.3
2026-03-16T1800,2550A,107.4988,31.2132,达州市,凤凰小区,,27,27,21,7,5,40,40,33,33,24,25,5,7,0.4,0.3
2026-03-16T1800,2551A,107.5081,31.1987,达州市,达县机关宾馆,,24,24,21,8,7,37,37,29,29,26,31,4,6,0.5,0.5
2026-03-16T1800,2552A,107.4644,31.2124,达州市,市政中心,,33,33,23,8,4,33,33,32,32,26,23,5,6,0.5,0.4
2026-03-16T1800,2614A,100.2168,25.5818,大理白族自治州,大理市环境监测站,,37,20,24,19,22,116,116,110,110,8,10,7,7,0.5,0.5
2026-03-16T1800,2615A,100.1542,25.7055,大理白族自治州,大理古城,,38,NA,26,20,18,120,120,116,116,6,7,8,8,0.5,0.5
2026-03-16T1800,1109A,121.6119,38.974,大连市,甘井子,细颗粒物(PM2.5),101,84,75,61,61,121,121,106,106,30,31,10,10,0.4,0.5
2026-03-16T1800,1110A,121.565,38.9509,大连市,周水子,细颗粒物(PM2.5),117,96,83,78,66,77,77,85,85,44,40,15,10,1.0,0.8
2026-03-16T1800,1111A,121.5637,38.8849,大连市,星海三站,细颗粒物(PM2.5),108,81,78,68,61,77,77,70,70,20,23,6,8,0.8,0.9
2026-03-16T1800,1112A,121.6301,38.9117,大连市,青泥洼桥,细颗粒物(PM2.5),105,81,86,65,64,120,120,110,110,20,33,11,9,1.1,0.9
2026-03-16T1800,1113A,121.6248,38.8643,大连市,傅家庄,细颗粒物(PM2.5),82,81,83,51,59,84,84,64,64,25,29,10,12,0.7,0.8
2026-03-16T1800,1114A,121.5117,38.8636,大连市,七贤岭,细颗粒物(PM2.5),105,88,72,65,54,81,81,99,99,35,22,9,9,0.8,0.8
2026-03-16T1800,1116A,121.7507,39.1339,大连市,金州,细颗粒物(PM2.5),126,113,88,88,67,135,135,93,93,35,30,12,8,0.9,0.8
2026-03-16T1800,1117A,121.7811,39.0495,大连市,开发区,细颗粒物(PM2.5),115,94,81,76,61,118,118,107,107,45,34,14,9,0.7,0.6
2026-03-16T1800,1118A,121.9762,39.0631,大连市,双D港,细颗粒物(PM2.5),109,89,77,69,59,114,114,106,106,34,22,11,9,0.7,0.7
2026-03-16T1800,4082A,121.2548,38.8188,大连市,旅顺,细颗粒物(PM2.5),104,84,74,64,58,104,104,103,103,17,26,8,10,0.6,0.6
2026-03-16T1800,1789A,124.8085,46.0381,大庆市,大同区,,43,43,29,25,15,90,90,96,96,16,8,10,9,0.6,0.5
2026-03-16T1800,1790A,125.1166,46.5255,大庆市,龙凤区,细颗粒物(PM2.5),104,NA,43,64,19,84,84,85,85,NA,19,3,4,0.3,0.3
2026-03-16T1800,1791A,124.8894,46.4007,大庆市,红岗区,NA,NA,6,29,3,13,55,55,85,83,14,11,NA,6,0.4,0.4
2026-03-16T1800,1792A,125.1391,46.578,大庆市,萨尔图区,,42,42,36,16,16,71,71,80,80,27,19,6,6,0.5,0.5
2026-03-16T1800,1793A,124.9026,46.6217,大庆市,让胡路区,,36,36,32,18,15,85,85,86,86,12,9,6,6,0.4,0.4
2026-03-16T1800,3481A,125.127,46.6277,大庆市,萨区政府监测点,,43,43,31,17,14,72,72,76,76,20,16,9,9,0.3,0.3
2026-03-16T1800,1723A,113.2926,40.0759,大同市,云冈宾馆,细颗粒物(PM2.5),112,111,109,73,67,104,104,102,102,25,39,11,11,0.9,1.2
2026-03-16T1800,1724A,113.3437,40.0921,大同市,大同大学,细颗粒物(PM2.5),111,116,105,72,62,117,117,116,116,29,37,11,11,0.7,0.8
2026-03-16T1800,1725A,113.2637,40.129,大同市,安家小村,颗粒物(PM10),93,109,125,55,74,105,105,101,101,21,35,15,18,0.7,1.3
2026-03-16T1800,3282A,113.3399,40.0586,大同市,大同市卫生学校,细颗粒物(PM2.5),103,112,118,63,69,113,113,114,114,22,41,10,12,0.7,1
2026-03-16T1800,3565A,113.1371,40.1122,大同市,云冈站,颗粒物(PM10),61,65,118,26,63,92,92,94,94,7,34,4,13,0.5,0.8
2026-03-16T1800,3566A,113.1186,40.2556,大同市,图书馆,颗粒物(PM10),53,53,102,30,60,95,95,90,90,13,26,4,10,0.4,0.6
2026-03-16T1800,3567A,113.5931,40.0459,大同市,区一中,颗粒物(PM10),88,103,109,49,76,124,124,126,126,16,20,14,15,0.6,0.8
2026-03-16T1800,4199A,113.2798248,40.09972476,大同市,魏都大道141号,细颗粒物(PM2.5),115,108,129,76,77,111,111,106,106,20,45,12,14,0.8,1.4
2026-03-16T1800,2269A,124.1068,50.4091,大兴安岭地区,科技局,,26,23,22,10,10,81,81,79,79,5,4,6,6,0.4,0.3
2026-03-16T1800,3663A,124.117,50.4279,大兴安岭地区,红旗社区,,29,14,16,10,11,91,91,89,89,7,9,9,11,0.3,0.4
2026-03-16T1800,1600A,124.33,40.0625,丹东市,江湾东路,细颗粒物(PM2.5),192,176,130,144,121,98,98,121,121,58,26,18,17,1.4,1.4
2026-03-16T1800,1601A,124.4242,40.1513,丹东市,临江后街,细颗粒物(PM2.5),188,186,128,141,113,103,103,115,114,45,31,24,16,1.5,1.1
2026-03-16T1800,1602A,124.3935,40.1461,丹东市,元宝山,细颗粒物(PM2.5),173,185,109,131,92,100,100,112,112,55,32,18,14,1.5,1.3
2026-03-16T1800,1603A,124.3634,40.1093,丹东市,民主桥,细颗粒物(PM2.5),189,196,126,142,104,97,97,117,117,54,38,21,14,1.2,1.1
2026-03-16T1800,3541A,109.5726195,19.51688767,儋州市,第一中学子站,,30,30,35,11,13,84,84,82,82,2,2,6,6,0.3,0.4
2026-03-16T1800,3542A,109.5567,19.5187,儋州市,东坡学校子站,,28,26,34,12,15,88,88,87,87,3,3,5,5,0.3,0.3
2026-03-16T1800,2616A,98.5611,24.4273,德宏傣族景颇族自治州,德宏州监测站,,36,NA,29,25,32,112,112,81,81,5,13,12,12,0.7,0.8
2026-03-16T1800,3677A,98.5887,24.4366,德宏傣族景颇族自治州,芒市人民政府综合楼,颗粒物(PM10),53,53,53,24,30,102,102,73,73,7,12,8,7,0.4,0.7
2026-03-16T1800,1901A,104.424,31.1209,德阳市,东山公园,,22,15,30,15,19,56,56,58,58,7,9,2,2,0.5,0.5
2026-03-16T1800,1902A,104.3827,31.1318,德阳市,西小区,,18,18,38,12,16,57,57,61,61,8,14,2,2,0.6,0.6
2026-03-16T1800,1904A,104.3553,31.1091,德阳市,耐火材料厂,,20,19,36,14,20,58,58,61,61,10,19,3,2,0.4,0.4
2026-03-16T1800,4145A,104.4144,31.1495,德阳市,市林业局,,20,18,32,14,18,55,55,61,61,7,14,4,4,0.4,0.5
2026-03-16T1800,1622A,116.3034,37.4675,德州市,儿童乐园,细颗粒物(PM2.5),146,132,86,110,63,105,105,106,106,24,31,11,15,0.9,0.7
2026-03-16T1800,1624A,116.2992,37.4449,德州市,监理站,细颗粒物(PM2.5),144,129,91,108,64,109,109,109,109,28,41,6,11,0.8,0.7
2026-03-16T1800,3066A,116.2722,37.438,德州市,九衢泉纯净水厂,细颗粒物(PM2.5),142,127,94,106,69,96,96,106,106,40,61,5,10,0.9,0.8
2026-03-16T1800,3371A,116.3693,37.44,德州市,开发区人民医院,细颗粒物(PM2.5),144,132,88,108,66,99,99,102,102,25,41,6,12,0.8,0.6
2026-03-16T1800,3511A,116.5687,37.3331,德州市,陵城艺术中心,细颗粒物(PM2.5),144,114,98,108,81,94,94,92,92,17,32,2,11,0.8,1
2026-03-16T1800,4292A,116.352738,37.420875,德州市,新河东路,细颗粒物(PM2.5),138,124,86,101,63,101,101,102,102,21,40,9,12,0.8,0.7
2026-03-16T1800,2621A,99.7054,27.8319,迪庆藏族自治州,迪庆州站,,33,16,15,3,8,104,104,102,102,7,8,6,6,0.6,0.6
2026-03-16T1800,3180A,99.7122,27.8129,迪庆藏族自治州,质量技术监督局,,33,17,16,3,7,105,105,99,99,6,8,6,5,0.6,0.5
2026-03-16T1800,4257A,104.6092,35.5962,定西市,将台街,颗粒物(PM10),60,64,121,31,49,70,70,69,69,9,12,8,8,0.4,0.5
2026-03-16T1800,4309A,104.6159,35.5701,定西市,正龙路62号,颗粒物(PM10),74,83,111,34,43,62,62,64,63,12,11,4,3,0.4,0.4
2026-03-16T1800,4071A,114.9883,38.5232,定州市,交通局,细颗粒物(PM2.5),60,46,50,40,31,123,123,114,114,18,28,12,11,0.5,0.4
2026-03-16T1800,4072A,115.0045,38.5136,定州市,第五中学,细颗粒物(PM2.5),72,64,65,46,33,118,118,112,112,16,27,9,8,0.4,0.4
2026-03-16T1800,1390A,113.7943,23.0132,东莞市,东城石井,,42,25,40,12,21,132,132,169,169,21,31,4,6,0.5,0.5
2026-03-16T1800,1391A,113.7384,22.9659,东莞市,南城西平,,41,30,42,12,22,129,129,139,139,22,38,9,9,0.4,0.5
2026-03-16T1800,3319A,113.7283,23.041,东莞市,万江金泰,,39,22,42,12,22,122,122,154,154,16,22,6,7,0.5,0.6
2026-03-16T1800,4129A,113.8666,23.1062,东莞市,裕兴路,,47,30,40,13,24,150,150,174,174,29,28,7,10,0.5,0.6
2026-03-16T1800,4130A,114.0076,22.9739,东莞市,教育路1号,,43,33,48,12,22,136,136,159,159,22,29,6,6,0.2,0.3
2026-03-16T1800,4131A,113.7981,22.8124,东莞市,长怡路1号,,50,50,50,19,22,126,126,135,135,36,34,6,5,0.5,0.5
2026-03-16T1800,1666A,118.6612,37.4313,东营市,市环保局,颗粒物(PM10),51,51,71,29,49,112,112,127,127,19,21,20,21,0.5,0.6
2026-03-16T1800,3036A,118.6903,37.4337,东营市,开发区管委会,,49,49,69,29,48,118,118,132,132,31,30,14,16,0.7,0.7
2026-03-16T1800,3365A,118.5721,37.5654,东营市,垦利区民丰路,,49,44,60,34,48,135,135,142,142,17,28,13,14,0.6,0.7
2026-03-16T1800,3498A,118.5063,37.8606,东营市,河口城区,NA,NA,61,73,25,47,136,136,137,137,14,25,7,9,NA,0.7
2026-03-16T1800,3646A,118.4979,37.4623,东营市,胜利站,颗粒物(PM10),53,54,67,32,40,109,109,111,111,24,28,12,11,0.7,0.8
2026-03-16T1800,3734A,118.5753,37.4405,东营市,理想之城,颗粒物(PM10),58,61,72,32,44,124,124,134,134,27,35,13,10,0.7,0.9
2026-03-16T1800,1591A,110.0024,39.8127,鄂尔多斯市,综合楼,颗粒物(PM10),70,78,71,29,28,105,105,95,95,15,31,6,9,0.3,0.4
2026-03-16T1800,1592A,109.9485,39.8259,鄂尔多斯市,巴音孟克林场办事处,颗粒物(PM10),62,66,62,26,23,109,109,99,99,10,22,6,9,0.4,0.5
2026-03-16T1800,1593A,109.7734,39.5987,鄂尔多斯市,康泽苑,颗粒物(PM10),68,75,61,29,22,112,112,107,107,13,22,8,8,0.3,0.4
2026-03-16T1800,1594A,109.8121,39.5987,鄂尔多斯市,华泰汽车城,颗粒物(PM10),65,70,63,29,26,119,119,108,108,10,33,7,8,0.4,0.4
2026-03-16T1800,1595A,109.9734,39.7884,鄂尔多斯市,奥林花园,颗粒物(PM10),70,78,72,29,29,108,108,99,99,15,39,4,7,0.3,0.5
2026-03-16T1800,2436A,114.894,30.3989,鄂州市,市政府,,20,11,28,3,19,63,63,61,58,18,19,6,7,0.4,0.5
2026-03-16T1800,2437A,114.8986,30.3714,鄂州市,赵家坝,,22,16,33,7,19,68,68,66,64,15,12,8,7,0.7,0.7
2026-03-16T1800,3654A,114.8093,30.4091,鄂州市,精准医疗中心,,18,18,34,7,19,55,55,52,51,15,14,4,6,0.7,0.8
2026-03-16T1800,2454A,109.4978,30.2979,恩施土家族苗族自治州,湖北民院,,21,21,14,7,5,62,62,56,56,16,11,6,6,0.8,0.7
2026-03-16T1800,3549A,109.5061,30.3771,恩施土家族苗族自治州,龙凤新区,,18,NA,6,3,6,57,57,54,54,8,5,7,7,0.7,0.6
2026-03-16T1800,2499A,108.3411,21.6159,防城港市,沙万,颗粒物(PM10),62,66,54,19,21,86,86,92,92,11,13,5,8,0.6,0.6
2026-03-16T1800,2500A,108.3515,21.7733,防城港市,防城档案局,,45,45,50,18,23,85,85,95,95,13,11,9,7,0.7,0.7
2026-03-16T1800,2501A,108.3506,21.6414,防城港市,大海花园,颗粒物(PM10),60,64,46,19,23,86,86,102,100,20,15,12,11,0.9,0.5
2026-03-16T1800,1371A,113.1293,23.0065,佛山市,湾梁,,49,39,44,18,25,156,156,144,144,16,25,/,/,/,/
2026-03-16T1800,1372A,113.1082,23.0477,佛山市,华材职中,,48,46,48,20,27,152,152,147,147,18,25,6,6,0.3,0.3
2026-03-16T1800,1373A,113.1439,23.045,佛山市,南海气象局,颗粒物(PM10),63,68,51,30,29,151,151,140,140,19,29,/,/,/,/
2026-03-16T1800,1374A,113.2879,22.8094,佛山市,顺德苏岗,,41,41,43,10,21,105,105,128,128,15,26,/,/,0.5,0.7
2026-03-16T1800,1376A,112.8384,22.8678,佛山市,高明孔堂,,42,37,35,15,17,134,134,124,124,7,13,/,/,/,/
2026-03-16T1800,1377A,112.8835,23.1584,佛山市,三水监测站,,39,39,51,16,28,123,123,124,124,26,53,5,6,0.5,0.4
2026-03-16T1800,1378A,112.8668,23.185,佛山市,三水云东海,,50,50,49,20,25,148,148,142,142,18,25,/,/,/,/
2026-03-16T1800,3625A,113.2568,22.7629,佛山市,容桂街道办,,39,39,44,10,24,89,89,107,107,23,33,/,/,/,/
2026-03-16T1800,1282A,119.2681,26.0506,福州市,师大,,40,40,40,10,15,95,95,92,92,19,18,4,4,0.2,0.2
2026-03-16T1800,1283A,119.2983,26.1028,福州市,五四北路,,37,37,35,15,15,93,93,93,93,19,18,5,4,0.3,0.3
2026-03-16T1800,1284A,119.2648,26.0769,福州市,杨桥西路,,36,36,37,12,16,97,97,96,96,19,19,4,4,/,/
2026-03-16T1800,3048A,119.5799,26.0937,福州市,九龙,,35,22,27,10,10,111,111,108,108,11,12,4,5,0.2,0.3
2026-03-16T1800,3526A,119.5188,25.9666,福州市,吴航,,31,24,25,11,11,99,99,101,101,13,14,5,6,0.4,0.4
2026-03-16T1800,4104A,119.3106,26.0648,福州市,路通桥巷6号,,40,40,39,14,17,90,90,91,91,14,14,/,/,/,/
2026-03-16T1800,1755A,123.7974,41.8494,抚顺市,望花区,颗粒物(PM10),72,80,220,32,164,76,76,92,92,44,57,12,16,1.1,1.8
2026-03-16T1800,1756A,123.9161,41.8827,抚顺市,顺城区,颗粒物(PM10),60,64,198,35,168,77,77,94,94,44,65,16,16,1.2,1.5
2026-03-16T1800,1757A,124.0437,41.8615,抚顺市,东洲区,颗粒物(PM10),66,72,165,36,129,93,93,100,100,29,35,13,19,0.7,1
2026-03-16T1800,1758A,123.9246,41.8638,抚顺市,新抚区,颗粒物(PM10),75,84,211,33,143,82,82,97,97,42,55,16,12,1.1,1.3
2026-03-16T1800,1759A,124.0972,41.8961,抚顺市,大伙房水库,颗粒物(PM10),65,70,125,41,106,112,112,118,118,20,25,13,13,0.6,1
2026-03-16T1800,1760A,123.708,41.8386,抚顺市,沈抚新城,颗粒物(PM10),66,72,231,23,179,71,71,82,81,43,64,11,14,0.6,1.3
2026-03-16T1800,2377A,116.3544,27.9833,抚州市,市站,细颗粒物(PM2.5),102,NA,70,62,73,75,75,77,77,14,14,7,7,1.2,1.2
2026-03-16T1800,2378A,116.3562,27.9631,抚州市,血防站,细颗粒物(PM2.5),80,60,71,50,67,78,78,76,76,7,7,1,2,1.1,1.1
2026-03-16T1800,2379A,116.3561,28.0007,抚州市,采茶剧团,NA,NA,78,72,25,68,69,69,75,75,13,12,9,9,NA,1.2
2026-03-16T1800,2380A,116.3854,27.9648,抚州市,医学分院,颗粒物(PM10),70,78,81,41,63,73,73,75,75,11,11,16,8,1.2,1.2
2026-03-16T1800,2207A,121.6095,41.9978,阜新市,工业园区,细颗粒物(PM2.5),72,74,63,46,32,113,113,104,104,14,24,11,12,0.5,0.5
2026-03-16T1800,2208A,121.6567,42.0188,阜新市,长青街,细颗粒物(PM2.5),82,68,34,51,16,108,108,96,96,17,14,14,9,0.5,0.5
2026-03-16T1800,2209A,121.6672,42.07,阜新市,农业园区,细颗粒物(PM2.5),100,108,39,60,16,105,105,97,97,17,11,9,7,0.5,0.5
2026-03-16T1800,2211A,121.6343,42.0455,阜新市,玉龙新城,细颗粒物(PM2.5),66,64,43,43,18,117,117,106,106,15,23,8,7,0.5,0.5
2026-03-16T1800,2301A,115.8276,32.8929,阜阳市,市监测站,细颗粒物(PM2.5),102,86,91,62,75,88,88,78,78,14,20,4,4,0.6,0.6
2026-03-16T1800,2303A,115.8551,32.8606,阜阳市,开发区,细颗粒物(PM2.5),112,93,98,73,73,80,80,72,72,17,19,4,4,0.6,0.7
2026-03-16T1800,2875A,115.783962,32.889217,阜阳市,阜阳职业技术学院,细颗粒物(PM2.5),96,81,78,58,63,91,91,78,78,13,17,5,6,0.6,0.7
2026-03-16T1800,3468A,115.79,32.8614,阜阳市,市规划展馆,细颗粒物(PM2.5),108,93,93,68,76,91,91,80,80,12,15,6,6,0.6,0.7
2026-03-16T1800,3469A,115.835101,32.918568,阜阳市,枣园社区,细颗粒物(PM2.5),106,84,87,66,75,85,85,77,77,14,19,8,7,0.7,0.7
2026-03-16T1800,2669A,102.9097,34.9841,甘南藏族自治州,州政府,NA,NA,NA,66,39,35,76,76,67,67,NA,17,8,5,0.3,0.5
2026-03-16T1800,3380A,102.8915,34.9618,甘南藏族自治州,甘肃民族师范学院,颗粒物(PM10),51,51,61,25,26,93,93,89,89,8,21,1,3,0.4,0.5
2026-03-16T1800,2570A,101.96,30.048,甘孜藏族自治州,水桥子,,15,12,7,3,3,48,48,45,43,12,11,3,3,0.5,0.4
2026-03-16T1800,3065A,101.9534,29.9976,甘孜藏族自治州,州环保局,,16,6,5,3,2,51,51,56,54,25,13,6,6,0.5,0.4
2026-03-16T1800,2363A,114.9368,25.8663,赣州市,地委,颗粒物(PM10),51,51,72,35,50,146,146,169,169,18,22,5,6,0.8,0.8
2026-03-16T1800,2364A,114.946,25.8483,赣州市,气象台,,50,48,70,30,53,159,159,171,171,16,23,8,11,0.4,0.5
2026-03-16T1800,2365A,114.932,25.8332,赣州市,市图书馆,,49,44,70,34,53,125,125,138,138,15,17,3,6,0.5,0.6
2026-03-16T1800,2366A,114.8905,25.8472,赣州市,华坚鞋城,"颗粒物(PM10),细颗粒物(PM2.5)",52,52,69,36,51,144,144,158,158,13,19,6,8,0.4,0.5
2026-03-16T1800,3109A,115.0094,25.8614,赣州市,赣县区卫计委,,46,46,64,28,40,147,147,143,143,15,36,3,4,0.6,0.6
2026-03-16T1800,2684A,106.2753,36.0057,固原市,监测站,颗粒物(PM10),72,80,87,38,36,79,79,81,81,12,12,8,8,0.5,0.5
2026-03-16T1800,2685A,106.2384,36.0189,固原市,新区,颗粒物(PM10),65,70,90,36,36,77,77,84,84,10,15,7,7,0.6,0.6
2026-03-16T1800,2544A,106.6307,30.4577,广安市,市委,,29,29,14,14,15,33,33,32,32,18,17,5,5,0.6,0.6
2026-03-16T1800,2545A,106.6266,30.4662,广安市,友谊中学,,28,28,17,11,12,38,38,35,35,16,16,6,6,0.7,0.6
2026-03-16T1800,2547A,106.6386,30.4551,广安市,广电花园,,26,26,17,15,15,37,37,32,32,18,17,7,8,0.7,0.7
2026-03-16T1800,2902A,106.6347,30.4868,广安市,北辰小学,,22,22,13,14,13,37,37,32,32,15,15,4,4,0.7,0.6
2026-03-16T1800,2524A,105.8211,32.4444,广元市,老城,,15,15,18,6,4,38,38,52,43,22,14,5,4,0.4,0.4
2026-03-16T1800,2526A,105.8629,32.429,广元市,监测站,,14,14,17,7,3,37,37,46,41,24,16,1,2,0.5,0.4
2026-03-16T1800,3617A,105.8047,32.4167,广元市,经开区,,23,23,17,15,11,39,39,47,38,22,15,3,3,0.5,0.4
2026-03-16T1800,1345A,113.2346,23.1423,广州市,广雅中学,臭氧1小时(O3_1h),54,46,47,21,23,163,163,136,136,15,28,3,3,0.5,0.5
2026-03-16T1800,1346A,113.2611,23.105,广州市,市五中,臭氧1小时(O3_1h),64,36,43,20,25,171,171,153,153,19,33,7,7,/,/
2026-03-16T1800,1348A,113.3477,23.0916,广州市,广东商学院,,42,32,45,14,25,134,134,144,144,15,34,5,6,0.5,0.6
2026-03-16T1800,1349A,113.4332,23.105,广州市,市八十六中,,36,21,34,12,20,114,114,136,136,29,50,5,7,/,/
2026-03-16T1800,1350A,113.3506,22.9488,广州市,番禺中学,NA,NA,25,47,NA,21,115,115,130,130,15,26,NA,3,0.4,0.5
2026-03-16T1800,1351A,113.2147,23.3918,广州市,花都师范,臭氧1小时(O3_1h),65,37,61,16,31,172,172,141,141,18,45,6,6,0.4,0.6
2026-03-16T1800,1352A,113.2599,23.1329,广州市,市监测站,,49,43,48,20,25,154,154,135,135,20,31,1,2,/,/
2026-03-16T1800,1353A,113.5618,23.3119,广州市,九龙镇镇龙,,38,25,57,11,31,121,121,140,140,16,36,6,6,0.2,0.4
2026-03-16T1800,1354A,113.2764,23.1544,广州市,麓湖,臭氧1小时(O3_1h),54,43,44,19,24,163,163,146,146,13,38,3,4,0.1,0.2
2026-03-16T1800,2846A,113.3209,23.1323,广州市,体育西,,45,38,47,17,22,144,144,142,142,21,37,5,6,0.6,0.6
2026-03-16T1800,3298A,113.5718,23.5493,广州市,从化街口,臭氧1小时(O3_1h),97,30,62,20,32,197,197,141,141,18,30,7,5,0.5,0.7
2026-03-16T1800,3299A,113.3463,23.369,广州市,白云竹料,,49,39,58,16,30,156,156,136,136,20,42,4,4,0.5,0.6
2026-03-16T1800,3300A,113.2981,23.2365,广州市,白云嘉禾,,50,38,49,16,24,159,159,146,146,27,51,6,7,/,/
2026-03-16T1800,3301A,113.4256,23.1716,广州市,黄埔科学城,,41,30,41,14,22,131,131,144,144,22,33,7,8,0.4,0.5
2026-03-16T1800,3302A,113.3942,23.0485,广州市,番禺大学城,,47,29,45,8,19,148,148,161,161,15,28,7,8,0.3,0.4
2026-03-16T1800,3303A,113.4923,22.8169,广州市,南沙黄阁,,39,25,39,9,19,124,124,124,124,15,31,6,7,/,/
2026-03-16T1800,3304A,113.534,22.7893,广州市,南沙街,,37,30,38,10,19,116,116,113,113,13,22,7,7,0.4,0.5
2026-03-16T1800,3443A,113.2905,23.5541,广州市,花都梯面,,50,30,39,15,23,158,158,122,122,18,29,6,6,/,/
2026-03-16T1800,3445A,113.786,23.7479,广州市,从化良口,,48,30,29,22,19,152,152,127,127,13,13,5,4,/,/
2026-03-16T1800,3446A,113.805,23.2614,广州市,增城荔城,,49,36,47,18,26,155,155,164,164,20,28,8,9,0.4,0.5
2026-03-16T1800,2506A,109.604387,23.066791,贵港市,江南子站,颗粒物(PM10),72,80,77,32,40,84,84,97,97,14,17,7,8,0.5,0.6
2026-03-16T1800,2508A,109.5669,23.1065,贵港市,荷城子站,,48,48,63,23,35,85,85,96,96,17,18,7,9,0.6,0.6
2026-03-16T1800,3405A,109.5886,23.1172,贵港市,新世纪学校,颗粒物(PM10),55,56,75,19,42,92,92,101,101,16,23,/,/,0.4,0.5
2026-03-16T1800,4260A,109.5933,23.095,贵港市,中山路155-3号,NA,NA,48,75,31,43,91,91,101,101,12,17,/,/,NA,0.5
2026-03-16T1800,1439A,106.6863,26.6035,贵阳市,马鞍山,,15,14,10,10,8,42,42,38,38,10,11,3,3,/,/
2026-03-16T1800,1441A,106.6241,26.6266,贵阳市,鉴湖路,,24,24,21,7,9,43,43,37,37,15,14,4,3,0.3,0.4
2026-03-16T1800,1442A,106.7468,26.6344,贵阳市,燕子冲,,17,17,12,8,6,43,43,43,43,11,11,6,6,1.0,0.9
2026-03-16T1800,1443A,106.6556,26.4362,贵阳市,碧云窝,,27,27,16,7,7,38,38,40,40,20,16,9,9,/,/
2026-03-16T1800,1445A,106.6963,26.6063,贵阳市,红边门,,22,22,15,11,10,44,44,43,43,15,14,6,5,/,/
2026-03-16T1800,1446A,106.7162383,26.56964667,贵阳市,新华路,,27,27,21,9,5,40,40,45,45,20,15,4,4,1.2,0.5
2026-03-16T1800,1447A,106.6742,26.542,贵阳市,太慈桥,,17,17,11,10,8,43,43,40,40,14,15,2,2,/,/
2026-03-16T1800,4230A,106.688212,26.56952,贵阳市,花果园大街66号,,27,27,11,8,9,34,34,37,37,16,13,2,1,/,/
2026-03-16T1800,4231A,106.687268,26.516892,贵阳市,漓江路57号,,12,9,7,6,7,38,38,41,41,18,15,8,7,0.8,0.7
2026-03-16T1800,1864A,110.3091,25.2705,桂林市,龙隐路小学,细颗粒物(PM2.5),127,108,90,89,93,69,69,69,69,26,21,5,5,0.8,0.7
2026-03-16T1800,1865A,110.2849361,25.22909545,桂林市,八中,颗粒物(PM10),75,85,83,36,48,64,64,63,63,27,22,5,5,1.1,1
2026-03-16T1800,3531A,110.296,25.1254,桂林市,旅游学院,细颗粒物(PM2.5),115,105,99,76,85,80,80,85,85,26,18,7,7,0.8,0.8
2026-03-16T1800,4222A,110.1835,25.2444,桂林市,环湖路276号,细颗粒物(PM2.5),120,102,108,81,84,74,74,75,75,25,19,16,6,1.0,1
2026-03-16T1800,4301A,110.2803,25.2773,桂林市,信义路13号,细颗粒物(PM2.5),105,92,84,65,79,67,67,64,64,24,20,7,6,1.0,1
2026-03-16T1800,2674A,100.2262,34.4854,果洛藏族自治州,玛沁县大武镇,,32,25,44,3,13,101,101,91,91,1,3,17,21,0.4,0.4
2026-03-16T1800,1130A,126.5557,45.8109,哈尔滨市,松北商大,NA,NA,31,46,26,35,82,82,92,92,NA,14,5,7,NA,0.2
2026-03-16T1800,1132A,126.6162,45.719,哈尔滨市,南岗学府路,,32,32,59,18,32,96,96,98,98,11,20,9,16,0.1,0.3
2026-03-16T1800,1133A,126.6894,45.7733,哈尔滨市,太平宏伟公园,,40,NA,48,28,30,98,98,96,96,12,18,10,17,0.4,0.5
2026-03-16T1800,1134A,126.6361,45.7672,哈尔滨市,道外承德广场,颗粒物(PM10),53,54,71,27,29,97,97,95,95,13,17,8,11,0.1,0.4
2026-03-16T1800,1136A,126.644,45.7261,哈尔滨市,动力和平路,,38,29,52,26,31,93,93,94,94,12,16,11,13,0.7,0.7
2026-03-16T1800,1137A,126.5933,45.7479,哈尔滨市,道里建国路,,36,36,50,22,32,82,82,94,94,25,22,10,14,0.1,0
2026-03-16T1800,1138A,126.6127,45.6119,哈尔滨市,平房东轻厂,细颗粒物(PM2.5),84,56,52,52,42,64,64,84,84,116,57,10,10,0.7,0.7
2026-03-16T1800,1139A,126.5875,45.9827,哈尔滨市,呼兰师专,细颗粒物(PM2.5),54,42,51,37,32,78,78,88,88,19,18,13,10,0.2,0.2
2026-03-16T1800,1140A,126.6299,45.6799,哈尔滨市,省农科院,细颗粒物(PM2.5),80,70,70,50,36,90,90,94,94,13,17,13,12,0.6,0.7
2026-03-16T1800,4282A,126.6769,45.7379,哈尔滨市,华山路1号,,36,36,48,16,28,91,91,90,90,20,18,4,6,0.6,0.7
2026-03-16T1800,4283A,126.9717,45.5356,哈尔滨市,解放大街52号,,48,48,75,26,38,91,91,103,103,20,20,11,8,0,0.1
2026-03-16T1800,2688A,93.5124,42.8176,哈密市,地区监测站,颗粒物(PM10),54,55,62,20,24,91,91,82,82,6,12,5,5,0.2,0.4
2026-03-16T1800,2689A,93.5014,42.8312,哈密市,哈密师范学校,,44,44,56,13,19,100,100,91,91,6,19,7,7,0.2,0.4
2026-03-16T1800,2671A,100.9016,36.9464,海北藏族自治州,海晏县西海镇,颗粒物(PM10),96,114,40,48,19,111,111,95,95,6,5,10,7,0.7,0.4
2026-03-16T1800,3867A,102.074,36.5056,海东市,平安区公安局北苑,颗粒物(PM10),111,148,133,56,66,117,117,97,97,5,10,16,13,0.7,0.8
2026-03-16T1800,4163A,102.0984,36.5119,海东市,滨河路,颗粒物(PM10),121,173,138,64,64,95,95,80,80,22,29,15,12,0.7,0.9
2026-03-16T1800,1410A,110.3189,20.0596,海口市,海南大学,,39,39,29,13,16,95,95,107,104,3,4,6,6,0.3,0.3
2026-03-16T1800,1411A,110.2827,20.0051,海口市,秀英海南医院,,27,26,31,13,17,86,86,96,94,5,5,8,8,0.4,0.5
2026-03-16T1800,1412A,110.3391,19.9979,海口市,海南师范大学,,36,36,40,15,17,93,93,104,102,5,7,6,6,0.4,0.4
2026-03-16T1800,1413A,110.3303,20.0359,海口市,龙华路环保局宿舍,,30,30,37,16,18,94,94,108,105,6,6,/,/,0.3,0.2
2026-03-16T1800,3539A,110.5111,19.9737,海口市,桂林洋子站,,36,36,41,19,18,86,86,103,100,10,7,/,/,/,/
2026-03-16T1800,4134A,110.1952,20.0451,海口市,长滨二路9号,,30,26,34,12,17,94,94,104,103,5,4,/,/,/,/
2026-03-16T1800,2673A,100.6158,36.2985,海南藏族自治州,共和县恰卜恰镇,颗粒物(PM10),63,68,43,29,21,100,100,105,105,6,13,11,10,0.4,0.3
2026-03-16T1800,2676A,97.373,37.376,海西蒙古族藏族自治州,德令哈市,,37,13,25,9,9,117,117,118,118,1,3,14,16,0.3,0.4
2026-03-16T1800,1049A,114.492,36.5712,邯郸市,矿院,,48,35,45,33,23,94,94,98,98,8,31,6,4,0.4,0.4
2026-03-16T1800,1050A,114.4839,36.6136,邯郸市,丛台公园,细颗粒物(PM2.5),54,44,41,37,25,91,91,98,98,9,17,4,3,0.4,0.4
2026-03-16T1800,3458A,114.7893,36.5592,邯郸市,香泉濮院小区,颗粒物(PM10),62,66,49,24,18,97,97,104,104,11,18,2,3,0.5,0.5
2026-03-16T1800,3580A,114.1998,36.4439,邯郸市,峰峰矿区临水派出所,细颗粒物(PM2.5),58,49,44,39,24,90,90,96,96,5,7,5,6,0.6,0.8
2026-03-16T1800,4068A,114.5209,36.7697,邯郸市,建安街268号,细颗粒物(PM2.5),64,60,54,42,30,106,106,103,103,11,30,2,2,0.4,0.4
2026-03-16T1800,4069A,114.5488,36.6177,邯郸市,丛台东路558号,,36,35,43,25,25,96,96,101,101,4,28,1,2,0.4,0.4
2026-03-16T1800,2635A,107.0155,33.0707,汉中市,市监测站,,16,16,17,7,12,48,48,52,52,10,13,6,6,0.6,0.6
2026-03-16T1800,2636A,107.0083,33.114,汉中市,鑫源开发区,,19,9,18,3,8,58,58,57,57,10,17,4,4,0.3,0.4
2026-03-16T1800,2637A,107.0072,33.0323,汉中市,南郑大河坎水厂,,15,12,16,3,10,48,48,51,51,13,18,4,4,0.6,0.6
2026-03-16T1800,1223A,120.2073,30.2111,杭州市,滨江,,42,42,59,18,31,70,70,66,66,30,32,7,9,0.8,0.9
2026-03-16T1800,1224A,120.0625,30.2737,杭州市,西溪,颗粒物(PM10),59,62,79,21,42,66,66,65,64,27,26,8,9,0.6,0.7
2026-03-16T1800,1226A,120.3417,30.315,杭州市,下沙,,48,48,61,22,32,78,78,68,68,20,24,7,8,0.6,0.6
2026-03-16T1800,1227A,120.1252,30.2465,杭州市,卧龙桥,,46,46,69,21,37,70,70,69,69,30,29,8,9,0.3,0.4
2026-03-16T1800,1228A,120.1902,30.2691,杭州市,浙江农大,,37,37,57,20,34,68,68,71,70,42,32,6,7,0.5,0.7
2026-03-16T1800,1230A,120.1195,30.3121,杭州市,和睦小学,,49,49,75,24,40,66,66,67,64,29,28,6,7,0.6,0.7
2026-03-16T1800,1231A,120.3076,30.4146,杭州市,临平镇,,40,40,53,20,33,92,92,80,80,21,23,6,7,0.5,0.7
2026-03-16T1800,1232A,120.2753,30.1839,杭州市,城厢镇,,47,47,64,18,31,71,71,69,69,24,25,9,10,0.6,0.7
2026-03-16T1800,1233A,120.0883,30.1808,杭州市,云栖,颗粒物(PM10),51,51,65,18,31,72,72,75,75,33,36,5,5,0.6,0.7
2026-03-16T1800,3557A,119.9463,30.0496,杭州市,镇二中,,45,42,47,31,44,68,68,79,79,33,24,5,6,0.7,0.8
2026-03-16T1800,3558A,119.7184,30.2367,杭州市,市府大楼,颗粒物(PM10),56,58,80,29,48,63,63,70,70,25,21,6,7,0.3,0.4
2026-03-16T1800,3656A,120.1554,30.2863,杭州市,消防大队,,44,44,68,25,43,70,70,63,63,25,27,7,8,0.5,0.7
2026-03-16T1800,1270A,117.1957,31.7845,合肥市,明珠广场,,29,24,42,20,40,34,34,75,57,36,16,6,6,1.0,0.9
2026-03-16T1800,1271A,117.307,31.8765,合肥市,三里街,,30,22,42,21,41,44,44,69,54,31,22,5,6,0.8,0.7
2026-03-16T1800,1272A,117.2587,31.8703,合肥市,琥珀山庄,,32,24,41,22,40,50,50,76,64,33,26,6,6,0.7,0.6
2026-03-16T1800,1275A,117.2593,31.9376,合肥市,庐阳区,,28,22,49,19,38,52,52,75,65,25,18,4,3,0.8,0.7
2026-03-16T1800,1276A,117.345251,31.861615,合肥市,瑶海区,,27,27,43,15,33,44,44,76,58,33,18,5,5,0.8,0.7
2026-03-16T1800,1277A,117.3033,31.7967,合肥市,包河区,,35,27,45,17,36,17,17,50,35,70,54,10,9,1.1,0.9
2026-03-16T1800,1278A,117.278,31.7392,合肥市,滨湖新区,,22,22,44,14,35,52,52,74,57,22,17,3,3,0.8,0.7
2026-03-16T1800,1279A,117.1324,31.8395,合肥市,高新区,NA,NA,NA,46,NA,38,48,48,75,62,18,14,NA,4,NA,0.7
2026-03-16T1800,3464A,117.3802,31.9148,合肥市,高教基地,,20,19,42,14,35,58,58,82,69,22,18,6,6,0.6,0.5
2026-03-16T1800,4098A,117.2518,31.8404,合肥市,中国科学技术大学,,20,19,39,14,33,51,51,77,64,26,15,5,5,0.9,0.7
2026-03-16T1800,3614A,79.9241,37.0878,和田地区,地区环保局,颗粒物(PM10),129,195,396,59,127,75,75,67,67,2,9,1,2,0.8,1
2026-03-16T1800,3615A,79.9132,37.1137,和田地区,市环保局,颗粒物(PM10),121,174,408,60,131,79,79,70,70,5,14,3,2,0.6,0.8
2026-03-16T1800,2517A,108.0496,24.6957,河池市,市环保站,,31,31,62,21,40,75,75,75,75,7,11,7,7,0.4,0.5
2026-03-16T1800,4302A,108.0901,24.6945,河池市,上任中路54号,,45,45,63,21,42,72,72,71,71,6,16,10,9,0.5,0.6
2026-03-16T1800,1697A,114.6962,23.7538,河源市,东埔,,44,24,35,17,24,140,140,126,126,9,18,6,6,0.5,0.6
2026-03-16T1800,1698A,114.6895,23.7232,河源市,老城,,43,35,39,17,25,135,135,120,120,8,17,6,6,0.5,0.6
2026-03-16T1800,3374A,115.5562,35.089,菏泽市,定陶老年大学,细颗粒物(PM2.5),139,117,94,102,80,94,94,82,82,14,19,4,5,0.8,0.7
2026-03-16T1800,4114A,115.4239,35.2593,菏泽市,黄河路600号,细颗粒物(PM2.5),152,132,95,116,74,85,85,95,95,17,18,2,2,0.7,0.6
2026-03-16T1800,4115A,115.5025,35.2727,菏泽市,菏泽市人社局,细颗粒物(PM2.5),143,124,95,107,77,82,82,91,90,20,24,4,5,0.7,0.7
2026-03-16T1800,4184A,115.479691,35.244011,菏泽市,永昌路1号,细颗粒物(PM2.5),153,132,92,117,78,90,90,99,99,20,24,1,3,0.5,0.6
2026-03-16T1800,4193A,115.471542,35.280012,菏泽市,长城路999号,细颗粒物(PM2.5),145,128,91,109,74,89,89,99,99,18,22,4,4,0.6,0.5
2026-03-16T1800,2514A,111.5264,24.4178,贺州市,环保小区,颗粒物(PM10),70,77,93,35,73,82,82,88,88,42,25,6,6,0.5,0.7
2026-03-16T1800,2515A,111.561,24.4074,贺州市,政协大楼,NA,NA,64,89,24,67,96,96,78,78,18,35,7,7,NA,0.9
2026-03-16T1800,3534A,111.4744,24.455,贺州市,西湾,颗粒物(PM10),71,79,106,34,67,97,97,91,91,20,26,8,8,0.7,0.8
2026-03-16T1800,2385A,114.17,35.9019,鹤壁市,市监测站,NA,NA,76,63,56,39,100,100,84,84,NA,18,6,7,0.5,0.7
2026-03-16T1800,2386A,114.2953,35.7512,鹤壁市,市交警支队,细颗粒物(PM2.5),76,62,57,48,32,95,95,76,76,15,35,5,5,0.5,0.5
2026-03-16T1800,2387A,114.2877,35.7302,鹤壁市,迎宾馆,细颗粒物(PM2.5),105,76,63,65,36,103,103,82,82,11,29,12,9,0.6,0.6
2026-03-16T1800,3474A,114.2616,35.6824,鹤壁市,大新区,细颗粒物(PM2.5),90,67,54,55,39,95,95,81,81,15,34,5,5,0.6,0.6
2026-03-16T1800,3596A,114.1573,35.9607,鹤壁市,南山宾馆,细颗粒物(PM2.5),104,72,61,64,41,99,99,82,82,9,11,6,11,0.3,0.3
2026-03-16T1800,2244A,130.2537,47.3416,鹤岗市,哈啤分公司,,27,27,22,17,15,84,84,88,87,8,7,10,10,0.4,0.4
2026-03-16T1800,2245A,130.2683,47.3087,鹤岗市,斯达机电,,29,28,23,20,12,86,86,97,95,10,7,8,8,0.5,0.5
2026-03-16T1800,2246A,130.3114,47.3388,鹤岗市,东山纸板厂,,29,24,46,3,16,90,90,94,93,5,14,5,8,0.4,0.7
2026-03-16T1800,2263A,127.4832,50.2524,黑河市,交通局,,26,25,27,11,16,82,82,91,90,15,11,7,7,0.3,0.3
2026-03-16T1800,2264A,127.5146,50.2339,黑河市,环保局,,29,22,23,19,18,91,91,94,94,15,15,6,7,0.3,0.4
2026-03-16T1800,1074A,115.6839,37.754,衡水市,电机北厂,细颗粒物(PM2.5),112,NA,57,73,38,125,125,126,126,17,27,3,7,0.5,0.5
2026-03-16T1800,1075A,115.6303,37.7318,衡水市,市监测站,细颗粒物(PM2.5),104,74,54,64,34,116,116,121,121,20,26,6,7,0.5,0.4
2026-03-16T1800,3188A,115.6684,37.7216,衡水市,市城管局,细颗粒物(PM2.5),104,80,59,64,36,117,117,119,119,18,30,9,9,0.6,0.5
2026-03-16T1800,3459A,115.599,37.5491,衡水市,地表水厂,细颗粒物(PM2.5),120,NA,64,82,46,120,120,123,123,15,45,6,9,0.5,0.5
2026-03-16T1800,2457A,112.6209,26.9268,衡阳市,衡阳化工总厂,,25,25,25,12,28,42,42,54,41,11,10,4,4,1.1,1.1
2026-03-16T1800,2458A,112.621,26.8957,衡阳市,珠晖区环保局,,19,19,27,9,22,38,38,50,38,17,16,5,5,1.1,1
2026-03-16T1800,2459A,112.628,26.8654,衡阳市,市委党校,NA,NA,NA,28,NA,30,43,43,52,40,8,10,5,5,1.1,1
2026-03-16T1800,2460A,112.6007,26.8977,衡阳市,市监测站,,33,NA,34,23,25,43,43,53,41,8,6,6,6,0.9,0.8
2026-03-16T1800,2461A,112.5658,26.9013,衡阳市,真空机电公司,,24,24,37,16,35,37,37,52,42,16,14,6,6,1.1,1
2026-03-16T1800,3399A,112.6703,26.8817,衡阳市,师范学院,,19,15,28,13,24,51,51,57,49,9,8,4,4,1.1,1
2026-03-16T1800,3038A,103.3757,23.3679,红河哈尼族彝族自治州,州图书馆,,32,32,21,21,16,92,92,90,90,6,7,4,4,0.3,0.3
2026-03-16T1800,4154A,103.401,23.3561,红河哈尼族彝族自治州,蒙自市朝阳路,,36,25,16,25,14,100,100,97,97,5,6,8,7,0.3,0.2
2026-03-16T1800,1090A,111.6506,40.7517,呼和浩特市,呼市一监,颗粒物(PM10),74,83,86,36,44,106,106,89,89,15,33,10,10,0.4,0.6
2026-03-16T1800,1094A,111.7516,40.8369,呼和浩特市,如意水处理厂,颗粒物(PM10),73,82,74,35,31,103,103,94,94,20,38,13,11,0.4,0.4
2026-03-16T1800,1095A,111.727798,40.806187,呼和浩特市,二十九中,颗粒物(PM10),69,76,76,27,30,97,97,85,85,17,35,15,14,0.5,0.6
2026-03-16T1800,1097A,111.717,40.7617,呼和浩特市,化肥厂生活区,颗粒物(PM10),74,83,86,35,41,96,96,87,87,23,35,8,8,0.5,0.6
2026-03-16T1800,3699A,111.6519,40.8389,呼和浩特市,海东办,细颗粒物(PM2.5),90,90,76,55,43,106,106,85,85,16,44,6,6,0.3,0.6
2026-03-16T1800,4275A,111.591512,40.827312,呼和浩特市,成吉思汗西街8号,颗粒物(PM10),79,90,72,39,33,102,102,84,84,21,37,10,10,0.4,0.5
2026-03-16T1800,4276A,111.6597,40.8077,呼和浩特市,公园东路75号,颗粒物(PM10),78,88,80,42,40,100,100,81,81,17,33,10,11,0.5,0.6
2026-03-16T1800,4277A,111.5427,40.7846,呼和浩特市,金海路35号,颗粒物(PM10),84,97,72,41,34,98,98,80,80,19,35,8,8,0.5,0.5
2026-03-16T1800,3061A,119.7511,49.1576,呼伦贝尔市,国华电力东,,32,22,24,22,13,89,89,91,91,10,11,5,5,0.2,0.2
2026-03-16T1800,4279A,119.7569,49.2222,呼伦贝尔市,伊敏大街东7号,,27,16,25,16,12,84,84,86,86,15,16,6,6,0.4,0.3
2026-03-16T1800,1250A,120.075,30.867,湖州市,城西水厂,颗粒物(PM10),58,60,54,30,33,80,80,84,83,24,22,5,6,0.4,0.4
2026-03-16T1800,2873A,120.083,30.8929,湖州市,仁皇山新区,颗粒物(PM10),52,52,49,25,28,65,65,78,75,36,25,5,6,0.6,0.5
2026-03-16T1800,2907A,120.1846,30.8592,湖州市,吴兴区站,颗粒物(PM10),57,59,59,26,27,57,57,65,62,29,21,5,6,0.2,0.2
2026-03-16T1800,3562A,120.4146,30.8538,湖州市,南浔区站,,41,41,48,26,31,84,84,78,78,23,23,8,9,0.5,0.6
2026-03-16T1800,1607A,120.904878,40.721091,葫芦岛市,龙港区,细颗粒物(PM2.5),84,NA,96,52,67,117,117,100,100,20,43,12,23,0.5,1.3
2026-03-16T1800,1608A,120.8382,40.7521,葫芦岛市,化工街,,40,NA,89,28,60,99,99,92,92,16,47,12,21,0.3,0.9
2026-03-16T1800,1609A,120.8339,40.7078,葫芦岛市,新区,细颗粒物(PM2.5),60,49,80,40,66,101,101,88,88,24,45,10,17,0.4,1.1
2026-03-16T1800,1610A,120.8697,40.7679,葫芦岛市,东城区,细颗粒物(PM2.5),56,NA,87,38,74,101,101,95,95,22,52,10,20,0.6,1.2
2026-03-16T1800,2483A,109.9297,27.5383,怀化市,河西地税局,,14,7,4,7,3,44,44,55,48,16,10,3,3,/,/
2026-03-16T1800,2484A,109.9783,27.5342,怀化市,市四医院,,14,8,7,3,2,44,44,50,45,10,8,7,6,0.7,0.7
2026-03-16T1800,2485A,109.9971,27.5579,怀化市,监测楼,NA,NA,3,4,NA,2,47,47,52,47,8,6,4,2,0.7,0.6
2026-03-16T1800,1210A,119.0566,33.5991,淮安市,钵池山,细颗粒物(PM2.5),86,61,80,53,74,88,88,95,95,20,25,8,8,0.4,0.4
2026-03-16T1800,1211A,119.0083,33.578,淮安市,北京南路,细颗粒物(PM2.5),96,58,74,58,77,81,81,88,88,17,20,6,6,0.6,0.6
2026-03-16T1800,1212A,118.9938,33.6083,淮安市,市监测站,细颗粒物(PM2.5),101,NA,67,61,78,85,85,93,92,NA,20,4,4,0.4,0.7
2026-03-16T1800,1213A,119.135,33.5038,淮安市,楚州区监测站,细颗粒物(PM2.5),82,54,78,51,73,86,86,96,96,16,20,6,6,0.6,0.6
2026-03-16T1800,3426A,118.8757,33.2897,淮安市,新华书店,细颗粒物(PM2.5),60,53,75,40,68,80,80,86,86,16,20,6,6,0.5,0.5
2026-03-16T1800,4092A,119.119691,33.550006,淮安市,枚皋中路89号,细颗粒物(PM2.5),88,61,89,54,79,86,86,98,98,17,23,9,9,0.5,0.5
2026-03-16T1800,4206A,119.028838,33.631911,淮安市,承德北路606号,细颗粒物(PM2.5),84,73,97,52,76,76,76,92,92,21,23,7,7,0.4,0.5
2026-03-16T1800,2282A,116.8005,33.9749,淮北市,监测站,细颗粒物(PM2.5),98,83,118,59,90,119,119,104,104,17,26,6,6,0.6,0.8
2026-03-16T1800,2283A,116.8094,33.9008,淮北市,烈山区政府,细颗粒物(PM2.5),66,63,107,43,90,119,119,112,112,12,20,5,4,0.4,0.6
2026-03-16T1800,4017A,116.7926,33.9534,淮北市,市博物馆,细颗粒物(PM2.5),90,80,111,55,95,117,117,108,108,15,22,4,3,0.5,0.7
2026-03-16T1800,4100A,116.8322,33.9884,淮北市,杜集区第一实验学校,细颗粒物(PM2.5),98,87,114,59,92,110,110,105,105,14,21,6,5,0.5,0.7
2026-03-16T1800,2277A,116.8304,32.7726,淮南市,潘集区政府,细颗粒物(PM2.5),88,78,80,54,67,92,92,96,96,17,18,5,5,0.5,0.6
2026-03-16T1800,2279A,116.8569,32.5949,淮南市,谢家集区政府,,50,NA,67,35,67,83,83,97,97,18,20,7,7,0.6,0.6
2026-03-16T1800,2280A,116.8279,32.6333,淮南市,八公山区政府,细颗粒物(PM2.5),76,60,73,48,68,84,84,98,98,14,14,5,4,0.5,0.6
2026-03-16T1800,2894A,117.0561,32.6536,淮南市,经济技术开发区消防队,颗粒物(PM10),55,57,69,37,64,66,66,93,91,22,21,6,6,0.5,0.5
2026-03-16T1800,3329A,117.011,32.5891,淮南市,山南新区,细颗粒物(PM2.5),58,49,66,39,65,75,75,95,94,18,20,6,6,0.5,0.5
2026-03-16T1800,4209A,117.003137,32.644456,淮南市,国庆中路369号,细颗粒物(PM2.5),72,59,74,46,65,62,62,84,84,18,16,6,6,0.6,0.6
2026-03-16T1800,2446A,114.9021,30.474,黄冈市,职工中心,,25,NA,38,17,25,40,40,48,47,14,10,4,4,0.5,0.5
2026-03-16T1800,2929A,114.8858,30.4519,黄冈市,红卫路,,19,17,35,11,22,58,58,62,62,10,10,3,3,0.6,0.6
2026-03-16T1800,3398A,114.9134,30.4446,黄冈市,市林业局,,25,10,34,9,26,77,77,70,70,7,9,4,4,0.6,0.7
2026-03-16T1800,2672A,102.02,35.5101,黄南藏族自治州,同仁县隆务镇,颗粒物(PM10),85,99,87,48,32,90,90,82,82,5,4,10,10,0.4,0.3
2026-03-16T1800,2295A,118.2905,29.6965,黄山市,延安路89号,细颗粒物(PM2.5),78,65,81,49,69,85,85,97,97,22,19,6,5,0.8,0.8
2026-03-16T1800,2297A,118.1369,30.2755,黄山市,黄山区政府5号楼,细颗粒物(PM2.5),54,52,70,37,53,31,31,46,45,20,15,3,3,0.7,0.6
2026-03-16T1800,4210A,118.335445,29.720283,黄山市,滨江东路7-2号,细颗粒物(PM2.5),74,68,93,47,65,79,79,95,95,25,16,/,/,/,/
2026-03-16T1800,2423A,115.0547,30.2332,黄石市,沈家营,,18,18,41,3,19,44,44,54,53,18,14,7,6,1.0,1
2026-03-16T1800,2426A,114.899,30.211,黄石市,铁山,,20,20,30,10,24,63,63,56,56,9,12,10,7,0.6,0.9
2026-03-16T1800,2427A,115.0259,30.2108,黄石市,团城山,,14,13,37,3,20,43,43,45,45,17,13,7,6,0.7,0.7
2026-03-16T1800,3149A,115.0174,30.1591,黄石市,笔架山北路,,21,21,42,3,18,58,58,55,55,8,17,5,5,0.9,0.9
2026-03-16T1800,4185A,115.078022,30.21118,黄石市,磁湖东路29号,,14,14,38,3,23,38,38,44,44,27,20,7,6,1.2,1.2
2026-03-16T1800,1392A,114.4181,23.0528,惠州市,河南岸金山湖子站,,37,24,42,13,24,117,117,129,129,7,14,7,9,0.4,0.5
2026-03-16T1800,1393A,114.4055,23.0824,惠州市,下埔横江三路子站,,35,25,48,10,23,110,110,131,131,9,14,4,10,0.4,0.6
2026-03-16T1800,1395A,114.4645,22.7832,惠州市,惠阳区承修路船湖子站,,40,40,45,15,20,128,128,136,136,12,15,7,8,0.4,0.5
2026-03-16T1800,1396A,114.5316,22.7423,惠州市,大亚湾管委会子站,,46,46,46,17,20,123,123,126,126,16,15,4,5,0.5,0.5
2026-03-16T1800,3314A,114.4334,22.8134,惠州市,惠阳秋长,,46,41,44,15,21,147,147,157,157,13,19,/,/,/,/
2026-03-16T1800,3452A,114.6521,22.7755,惠州市,大亚湾霞涌,,49,49,38,17,20,147,147,137,137,11,14,/,/,/,/
2026-03-16T1800,4300A,114.4089,23.1147,惠州市,文华一路1号,,37,27,46,10,24,116,116,138,138,10,17,/,/,/,/
2026-03-16T1800,2240A,130.9618,45.2926,鸡西市,环保局,颗粒物(PM10),59,62,139,36,94,90,90,102,102,16,25,10,9,0.6,0.8
2026-03-16T1800,2243A,130.9294,45.2959,鸡西市,第一中学,,28,17,137,3,105,87,87,97,97,13,14,7,6,0.5,0.7
2026-03-16T1800,3707A,131.0069,45.2988,鸡西市,欧美日汽修厂,细颗粒物(PM2.5),70,56,156,45,98,99,99,102,102,9,28,6,17,0.4,0.8
2026-03-16T1800,2367A,114.9753,27.0803,吉安市,红声器材厂,细颗粒物(PM2.5),90,86,89,55,79,132,132,135,135,20,23,7,8,1.0,1
2026-03-16T1800,2369A,114.9903,27.1313,吉安市,市环境监测站,细颗粒物(PM2.5),102,74,85,62,82,123,123,131,131,16,19,8,9,/,/
2026-03-16T1800,2370A,115.009527,27.096792,吉安市,青原区法院,细颗粒物(PM2.5),110,82,93,71,87,122,122,123,123,NA,26,6,8,0.8,0.8
2026-03-16T1800,1772A,126.54,43.8622,吉林市,哈达湾,细颗粒物(PM2.5),212,174,132,162,110,136,136,136,136,34,27,16,13,0.9,0.8
2026-03-16T1800,1773A,126.5843,43.8358,吉林市,东局子,细颗粒物(PM2.5),223,201,126,173,116,138,138,131,131,38,29,14,8,1.2,1.1
2026-03-16T1800,1774A,126.5051,43.8243,吉林市,电力学院,细颗粒物(PM2.5),205,188,148,155,117,136,136,138,138,41,34,15,12,1.3,1.2
2026-03-16T1800,1775A,126.6133,43.8971,吉林市,江北,细颗粒物(PM2.5),230,263,150,180,108,152,152,147,147,43,29,19,11,1.4,1.1
2026-03-16T1800,1776A,126.5549,43.8304,吉林市,江南公园,细颗粒物(PM2.5),209,171,118,159,103,126,126,134,134,39,29,15,12,1.0,0.9
2026-03-16T1800,2868A,126.4737,43.953,吉林市,九站,细颗粒物(PM2.5),255,216,155,205,134,136,136,135,135,41,32,22,18,1.3,1.1
2026-03-16T1800,1299A,116.9866,36.6118,济南市,科干所,细颗粒物(PM2.5),130,110,75,92,57,98,98,93,93,18,24,5,8,0.8,0.7
2026-03-16T1800,1300A,116.9379,36.6652,济南市,农科所,细颗粒物(PM2.5),144,125,83,108,65,74,74,85,85,31,37,NA,8,0.8,0.7
2026-03-16T1800,1301A,117.1265,36.6736,济南市,开发区,细颗粒物(PM2.5),118,90,69,79,54,101,101,99,99,20,35,4,5,0.9,0.8
2026-03-16T1800,1303A,117.0616,36.6865,济南市,省种子仓库,细颗粒物(PM2.5),128,122,89,90,57,94,94,80,80,18,45,4,7,0.8,0.8
2026-03-16T1800,1304A,116.9495185,36.644937,济南市,机床二厂,细颗粒物(PM2.5),134,115,86,97,64,86,86,88,88,27,35,6,11,0.9,0.9
2026-03-16T1800,1305A,117.0496,36.6629,济南市,市监测站,细颗粒物(PM2.5),137,115,81,100,59,93,93,81,81,21,36,4,5,0.8,0.7
2026-03-16T1800,1306A,116.7674,36.5458,济南市,长清党校,细颗粒物(PM2.5),145,147,88,109,64,83,83,81,81,26,38,5,5,0.9,0.7
2026-03-16T1800,1961A,117.5323,36.6865,济南市,东山小学,细颗粒物(PM2.5),84,81,75,52,43,100,100,34,NA,26,40,4,5,0.8,0.9
2026-03-16T1800,3059A,117.7181,36.205,济南市,泰兴公司,细颗粒物(PM2.5),109,110,77,69,47,112,112,104,104,25,38,13,9,1.3,1
2026-03-16T1800,3064A,117.6861,36.2172,济南市,莱芜战役纪念馆,细颗粒物(PM2.5),109,114,78,69,45,114,114,109,109,28,35,10,7,1.0,0.7
2026-03-16T1800,3494A,117.1673,36.9782,济南市,济阳区政府,细颗粒物(PM2.5),146,129,88,110,66,87,87,99,99,27,32,7,10,0.8,0.7
2026-03-16T1800,3495A,117.1168,36.6299,济南市,锦屏中学,细颗粒物(PM2.5),92,76,64,56,46,104,104,97,97,14,19,8,8,0.7,0.6
2026-03-16T1800,4108A,117.7107,36.2385,济南市,山财大街5号,细颗粒物(PM2.5),110,114,68,70,43,98,98,101,100,41,43,13,9,1.3,0.7
2026-03-16T1800,4109A,116.9744,36.6889,济南市,无影山路12号,细颗粒物(PM2.5),146,110,85,110,66,84,84,81,81,22,48,4,9,0.9,0.9
2026-03-16T1800,1653A,116.6229,35.4288,济宁市,火炬城,细颗粒物(PM2.5),123,87,89,85,80,115,115,90,90,18,29,4,3,0.7,0.8
2026-03-16T1800,3500A,116.5808,35.3703,济宁市,北湖一中,细颗粒物(PM2.5),131,NA,86,94,82,104,104,85,85,25,32,6,5,0.7,0.8
2026-03-16T1800,3501A,116.8251,35.5592,济宁市,服务中心,细颗粒物(PM2.5),146,133,117,110,95,108,108,89,89,22,33,3,2,1.0,0.6
2026-03-16T1800,3678A,116.5907,35.4054,济宁市,市第七中学,细颗粒物(PM2.5),121,NA,84,83,84,125,125,94,94,16,28,3,3,0.7,0.9
2026-03-16T1800,4111A,116.6075,35.4566,济宁市,任和路,细颗粒物(PM2.5),131,126,113,94,81,117,117,91,91,19,34,5,5,0.8,0.9
2026-03-16T1800,4112A,116.5648,35.3921,济宁市,文体南路1号,细颗粒物(PM2.5),140,130,110,104,89,107,107,88,88,22,32,3,3,0.8,0.8
2026-03-16T1800,4122A,112.6071,35.1015,济源市,市委党校,细颗粒物(PM2.5),82,92,118,51,72,109,109,95,95,14,23,5,6,0.6,0.8
2026-03-16T1800,4123A,112.596,35.0702,济源市,沁园中路1号,细颗粒物(PM2.5),78,76,91,49,65,105,105,98,98,20,27,4,4,0.6,0.9
2026-03-16T1800,2255A,130.2749,46.8028,佳木斯市,佳纺,,27,27,69,16,24,78,78,92,90,13,27,4,5,0.4,0.5
2026-03-16T1800,2257A,130.3258,46.7975,佳木斯市,环保局,,26,NA,28,18,17,83,83,98,96,11,23,2,3,0.3,0.3
2026-03-16T1800,4285A,130.363,46.806,佳木斯市,顺和街,,25,NA,26,15,18,77,77,88,87,14,22,4,4,0.3,0.3
2026-03-16T1800,4286A,130.3952,46.8268,佳木斯市,长安路196号,,26,NA,26,15,16,82,82,92,91,5,18,1,2,0.3,0.5
2026-03-16T1800,1252A,120.7439,30.778,嘉兴市,清河小学,,42,42,33,19,16,87,87,90,90,23,20,6,7,0.6,0.5
2026-03-16T1800,1253A,120.7261,30.7477,嘉兴市,嘉兴学院,,37,37,31,20,17,95,95,90,90,25,25,6,7,0.5,0.5
2026-03-16T1800,2872A,120.7845,30.7524,嘉兴市,南湖区残联,,34,34,28,20,16,92,92,89,89,21,20,5,5,0.6,0.5
2026-03-16T1800,3407A,120.6915,30.7741,嘉兴市,秀洲住建,,44,44,35,21,17,88,88,90,90,27,23,8,9,0.6,0.5
2026-03-16T1800,1945A,98.291,39.7705,嘉峪关市,气象局,颗粒物(PM10),101,122,122,38,41,94,94,86,86,8,18,13,12,0.5,0.5
2026-03-16T1800,2884A,98.2672,39.7978,嘉峪关市,酒钢宾馆,颗粒物(PM10),108,139,135,34,41,92,92,85,85,12,16,43,31,1.1,0.8
2026-03-16T1800,3248A,98.2644,39.7723,嘉峪关市,雄关区,颗粒物(PM10),103,127,114,38,39,85,85,79,79,15,22,22,15,1.2,0.7
2026-03-16T1800,1383A,113.1063,22.6058,江门市,北街,,35,26,39,9,21,111,111,125,125,14,19,/,/,/,/
2026-03-16T1800,1384A,113.073,22.5835,江门市,西区,,37,32,42,9,22,118,118,125,125,13,19,/,/,/,/
2026-03-16T1800,1385A,113.0218,22.531,江门市,圭峰西,,41,41,38,10,20,124,124,123,123,12,16,/,/,/,/
2026-03-16T1800,1386A,113.0826,22.5947,江门市,东湖,,38,26,37,9,21,119,119,124,124,11,16,6,6,0.5,0.5
2026-03-16T1800,3311A,113.1077,22.5647,江门市,江海富民,,39,37,54,8,23,122,122,131,131,12,19,/,/,0.3,0.3
2026-03-16T1800,3449A,113.0496,22.4669,江门市,新会银湖,,41,41,40,10,24,128,128,128,128,14,30,9,9,0.2,0.3
2026-03-16T1800,3335A,113.3137,35.2643,焦作市,马村街道办,细颗粒物(PM2.5),103,89,87,63,59,100,100,86,86,18,21,6,7,0.6,0.8
2026-03-16T1800,3336A,113.2464,35.2374,焦作市,焦作技师学院,细颗粒物(PM2.5),76,85,71,48,54,104,104,89,89,12,20,5,7,0.6,0.8
2026-03-16T1800,3477A,113.1656,35.2536,焦作市,中站许衡医院,细颗粒物(PM2.5),102,80,73,62,53,114,114,95,95,16,22,8,8,0.7,0.8
2026-03-16T1800,3981A,113.2456,35.18,焦作市,原李万街道办,NA,NA,NA,70,NA,54,98,98,88,88,NA,21,8,10,NA,0.8
2026-03-16T1800,4264A,113.234,35.219,焦作市,新安路1731号,细颗粒物(PM2.5),94,100,65,57,59,111,111,100,100,16,24,7,8,0.6,0.8
2026-03-16T1800,4295A,113.2722,35.2121,焦作市,人民路3066号,细颗粒物(PM2.5),104,90,86,64,65,105,105,94,94,16,26,6,8,0.5,0.8
2026-03-16T1800,1708A,116.3701,23.5345,揭阳市,新兴,,49,49,50,21,26,105,105,118,118,19,24,10,11,0.6,0.6
2026-03-16T1800,1709A,116.3261,23.5442,揭阳市,西马,颗粒物(PM10),54,55,54,18,26,110,110,122,122,13,23,6,8,0.4,0.5
2026-03-16T1800,1710A,116.361,23.5627,揭阳市,东兴,,44,44,49,18,25,116,116,126,126,10,15,5,9,/,/
2026-03-16T1800,1711A,116.4151,23.5295,揭阳市,渔湖,颗粒物(PM10),59,62,49,17,29,131,131,142,142,14,22,4,7,/,/
2026-03-16T1800,3320A,116.4028,23.5699,揭阳市,曲溪,颗粒物(PM10),54,55,50,22,25,130,130,142,142,15,19,7,9,1.1,0.7
2026-03-16T1800,1944A,102.1691,38.5166,金昌市,天庆家园,颗粒物(PM10),104,129,124,30,44,100,100,101,101,3,16,4,9,0.5,0.7
2026-03-16T1800,4022A,102.1648,38.5369,金昌市,金川区人防中心,颗粒物(PM10),102,125,114,46,43,95,95,98,98,3,12,7,9,0.4,0.6
2026-03-16T1800,4239A,102.193042,38.531887,金昌市,长春路96号,颗粒物(PM10),95,113,126,28,42,91,91,92,92,3,15,6,16,0.3,0.5
2026-03-16T1800,1262A,119.6478,29.0773,金华市,十五中,,42,42,72,19,42,126,126,136,136,16,18,5,5,0.0,0.1
2026-03-16T1800,1263A,119.6859,29.1032,金华市,监测站,,37,37,74,17,41,93,93,104,104,33,29,5,5,0.5,0.6
2026-03-16T1800,3659A,119.656,29.1132,金华市,气象局,,41,41,71,18,42,102,102,114,114,30,31,4,4,0.3,0.4
2026-03-16T1800,1767A,121.1114,41.0879,锦州市,南山,细颗粒物(PM2.5),92,89,80,56,68,118,118,106,106,25,36,10,10,0.6,0.9
2026-03-16T1800,1768A,121.060361,40.842794,锦州市,开发区,细颗粒物(PM2.5),74,72,97,47,75,82,82,104,104,50,45,8,13,0.6,1.1
2026-03-16T1800,1769A,121.1836,41.1118,锦州市,百股街道,细颗粒物(PM2.5),115,93,86,76,78,109,109,110,110,32,36,11,14,0.8,1.2
2026-03-16T1800,1770A,121.1176,41.1224,锦州市,天安街道,细颗粒物(PM2.5),103,87,80,63,64,121,121,108,108,26,41,9,10,0.7,0.9
2026-03-16T1800,1771A,121.1303,41.1385,锦州市,北湖公园,细颗粒物(PM2.5),107,90,74,67,62,122,122,112,112,25,27,10,10,NA,0.8
2026-03-16T1800,2160A,112.8496,35.5051,晋城市,自来水公司,细颗粒物(PM2.5),92,95,82,56,49,98,98,77,77,15,14,4,3,0.5,0.6
2026-03-16T1800,2162A,112.8509,35.4886,晋城市,市环保局,细颗粒物(PM2.5),112,92,71,73,53,99,99,80,80,14,12,5,4,0.7,0.8
2026-03-16T1800,3620A,112.8258,35.4804,晋城市,泽州一中,细颗粒物(PM2.5),98,98,69,59,50,101,101,82,82,15,13,4,3,0.7,0.8
2026-03-16T1800,4078A,112.8246,35.5152,晋城市,前书院路,细颗粒物(PM2.5),105,107,78,65,45,93,93,72,72,14,14,4,4,0.9,0.9
2026-03-16T1800,4079A,112.8864,35.4773,晋城市,祥云街666号,细颗粒物(PM2.5),110,83,74,70,62,98,98,84,84,14,20,5,4,0.5,0.6
2026-03-16T1800,2174A,112.6992,37.6984,晋中市,榆次区政府,细颗粒物(PM2.5),110,105,89,71,56,120,120,105,105,17,29,11,13,0.8,0.7
2026-03-16T1800,2865A,112.7195,37.683,晋中市,榆次三中,细颗粒物(PM2.5),107,110,97,67,47,120,120,107,107,14,28,11,13,0.5,0.5
2026-03-16T1800,4080A,112.7375,37.7215,晋中市,广安街188号,细颗粒物(PM2.5),110,111,97,70,54,120,120,107,107,16,31,12,13,0.4,0.5
2026-03-16T1800,4200A,112.7478,37.6954,晋中市,迎宾街26号,细颗粒物(PM2.5),108,110,88,68,51,121,121,108,108,17,24,11,12,0.7,0.7
2026-03-16T1800,2439A,112.2012,31.048,荆门市,竹园小学,颗粒物(PM10),59,62,42,38,27,67,67,66,66,24,17,2,1,0.4,0.4
2026-03-16T1800,2440A,112.1968,30.9892,荆门市,掇刀,细颗粒物(PM2.5),74,69,41,47,29,81,81,77,77,17,13,6,5,0.7,0.7
2026-03-16T1800,3012A,112.1849,31.0361,荆门市,西山林语,颗粒物(PM10),62,66,39,38,26,63,63,67,67,23,14,3,3,0.8,0.7
2026-03-16T1800,3547A,112.1631,31.0134,荆门市,龙泉中学南校,细颗粒物(PM2.5),66,58,41,43,32,76,76,78,78,19,14,2,3,0.8,0.8
2026-03-16T1800,4124A,112.2213,31.0654,荆门市,新台西路6号,细颗粒物(PM2.5),76,59,41,48,34,66,66,66,66,18,13,5,4,0.6,0.6
2026-03-16T1800,1844A,112.2493,30.3198,荆州市,市图书馆,,45,38,26,31,28,54,54,53,53,24,17,5,5,1.0,0.9
2026-03-16T1800,1845A,112.2009,30.3543,荆州市,市委党校,细颗粒物(PM2.5),76,NA,35,48,36,50,50,51,51,27,24,6,6,0.7,0.8
2026-03-16T1800,3194A,112.2749,30.3124,荆州市,管委会,,43,NA,28,30,27,55,55,57,57,16,12,8,8,1.0,0.9
2026-03-16T1800,4268A,112.1722,30.3366,荆州市,学苑路85号,细颗粒物(PM2.5),68,47,36,44,34,56,56,64,64,18,11,1,1,1.0,1
2026-03-16T1800,2343A,117.2114,29.2931,景德镇市,老干部活动中心,细颗粒物(PM2.5),66,48,55,43,53,54,54,78,78,11,12,5,6,0.8,0.8
2026-03-16T1800,2344A,117.1893,29.2789,景德镇市,兽医站,颗粒物(PM10),57,59,57,31,54,65,65,87,87,13,14,5,4,0.6,0.7
2026-03-16T1800,2346A,117.246,29.2958,景德镇市,陶研所,,41,41,50,28,54,59,59,82,82,18,19,4,4,0.9,0.9
2026-03-16T1800,4289A,117.154766,29.256967,景德镇市,青少年活动中心,细颗粒物(PM2.5),78,NA,58,49,62,67,67,79,79,15,17,4,5,/,/
2026-03-16T1800,1803A,115.9873,29.6816,九江市,十里,,15,12,41,3,45,45,45,78,55,30,24,7,7,1.0,0.9
2026-03-16T1800,1804A,115.9583,29.7047,九江市,茅山头,,19,19,43,7,49,47,47,81,54,23,18,4,4,0.7,0.6
2026-03-16T1800,1805A,115.9877,29.7295,九江市,西园,,19,14,44,7,44,44,44,80,58,37,30,3,3,0.9,0.7
2026-03-16T1800,1808A,115.9112,29.6038,九江市,综合工业园,,26,14,40,7,41,13,13,65,39,51,30,7,6,0.8,0.7
2026-03-16T1800,3190A,116.0254,29.6995,九江市,外国语学校,,24,24,38,8,46,36,36,69,46,29,20,2,2,0.9,0.8
2026-03-16T1800,4253A,116.010205,29.659402,九江市,莲花大道8号,,15,13,48,6,44,45,45,68,52,26,21,4,4,0.6,0.5
2026-03-16T1800,4240A,98.495752,39.733935,酒泉市,玉门东路5号,颗粒物(PM10),103,127,134,36,48,91,91,84,84,2,15,8,8,0.2,0.4
2026-03-16T1800,4241A,98.5099,39.7506,酒泉市,北大街108号,颗粒物(PM10),95,112,133,42,52,91,91,84,84,5,19,8,9,0.5,0.6
2026-03-16T1800,2698A,76.0071,39.466,喀什地区,巡警大队,颗粒物(PM10),276,403,848,153,264,71,71,60,60,6,9,2,3,0.2,0.3
2026-03-16T1800,2699A,75.9756,39.4693,喀什地区,吾办,颗粒物(PM10),275,402,818,150,253,66,66,58,56,7,7,2,2,0.3,0.3
2026-03-16T1800,4027A,75.9485,39.4688,喀什地区,老干局,颗粒物(PM10),269,398,884,144,240,71,71,58,55,3,6,2,2,0.3,0.4
2026-03-16T1800,1824A,114.3389,34.778,开封市,肿瘤医院,细颗粒物(PM2.5),124,NA,54,86,45,104,104,106,106,17,22,7,7,1.1,0.9
2026-03-16T1800,1826A,114.2884,34.7966,开封市,世纪星幼儿园,细颗粒物(PM2.5),109,76,52,69,40,102,102,102,102,17,23,8,8,0.8,0.6
2026-03-16T1800,3147A,114.3434,34.8101,开封市,龙亭公园,细颗粒物(PM2.5),114,NA,57,75,41,105,105,108,108,10,23,8,9,0.8,0.6
2026-03-16T1800,3210A,114.3645,34.7955,开封市,汴京公园,细颗粒物(PM2.5),136,NA,59,99,46,103,103,109,109,19,24,4,4,0.8,0.6
2026-03-16T1800,3473A,114.2485,34.8306,开封市,技师学院,细颗粒物(PM2.5),112,NA,52,73,39,109,109,104,104,14,22,5,6,0.9,0.8
2026-03-16T1800,3592A,114.4518,34.7503,开封市,祥符区生态环境局,细颗粒物(PM2.5),148,117,79,112,49,97,97,104,104,26,34,5,6,0.7,0.5
2026-03-16T1800,1951A,84.886,45.6029,克拉玛依市,长征新村,颗粒物(PM10),68,75,52,14,20,104,104,90,90,9,17,6,6,0.4,0.5
2026-03-16T1800,1952A,84.8894,45.5827,克拉玛依市,南林小区,颗粒物(PM10),68,74,53,15,18,105,105,91,91,1,5,6,5,0.1,0.3
2026-03-16T1800,1954A,84.896,44.3328,克拉玛依市,独山子区,颗粒物(PM10),73,81,67,21,22,125,125,98,98,12,14,6,5,0.7,0.6
2026-03-16T1800,1955A,85.6888,46.0909,克拉玛依市,乌尔禾区商贸楼,,49,49,51,24,24,106,106,87,87,7,16,10,8,0.6,0.7
2026-03-16T1800,3612A,85.1045,45.6895,克拉玛依市,白碱滩区新站,颗粒物(PM10),55,57,49,23,25,104,104,100,100,12,17,10,10,0.5,0.5
2026-03-16T1800,2697A,76.1457,39.7143,克孜勒苏柯尔克孜自治州,市人民政府,颗粒物(PM10),348,458,751,151,210,73,73,72,65,6,8,3,3,0.2,0.2
2026-03-16T1800,3665A,76.1654,39.7157,克孜勒苏柯尔克孜自治州,克州文化中心,颗粒物(PM10),329,443,780,156,220,72,72,74,68,5,6,4,5,0.2,0.3
2026-03-16T1800,1450A,102.8203,24.889,昆明市,呈贡新区,,35,28,22,22,16,110,110,112,112,14,10,5,4,0.5,0.5
2026-03-16T1800,1452A,102.7253,25.0904,昆明市,龙泉镇,,36,NA,27,24,18,114,114,106,106,8,17,4,4,0.5,0.5
2026-03-16T1800,1453A,102.7267,25.0378,昆明市,东风东路,,35,33,26,24,19,112,112,107,107,16,15,3,3,0.8,0.8
2026-03-16T1800,1454A,102.6744,25.0671,昆明市,金鼎山,,38,38,34,21,17,114,114,107,107,14,16,4,3,0.7,0.6
2026-03-16T1800,1455A,102.6643,25.0401,昆明市,碧鸡广场,,36,31,26,21,18,115,115,106,106,12,18,7,5,0.8,0.7
2026-03-16T1800,3179A,102.7491,25.012,昆明市,官渡区博物馆,,36,32,28,25,17,111,111,106,106,12,14,3,4,0.4,0.5
2026-03-16T1800,3375A,102.8016,24.8336,昆明市,青年创业园,,33,30,23,16,16,104,104,106,106,6,7,4,5,0.4,0.5
2026-03-16T1800,3550A,102.8,24.9787,昆明市,昆明学院,,37,33,26,19,15,117,117,110,110,9,11,4,4,0.5,0.5
2026-03-16T1800,3551A,102.5969,24.6738,昆明市,晋宁区生态环境分局,,37,25,20,25,17,117,117,109,109,6,8,1,2,0.4,0.4
2026-03-16T1800,3552A,102.6673,24.9861,昆明市,云天化总部,,35,27,24,17,14,112,112,112,112,10,11,8,8,0.4,0.4
2026-03-16T1800,1456A,91.132,29.6515,拉萨市,八廓街,,40,27,15,3,6,127,127,117,117,5,8,6,5,0.2,0.4
2026-03-16T1800,1457A,91.1221,29.6748,拉萨市,市环保局,,40,40,17,16,8,115,115,110,110,13,11,4,4,0.4,0.3
2026-03-16T1800,1458A,91.0874,29.6476,拉萨市,区监测站,NA,NA,18,10,6,5,115,115,108,108,8,10,NA,4,0.2,0.4
2026-03-16T1800,1459A,91.1774,29.6541,拉萨市,西藏大学,,39,24,11,6,6,123,123,113,113,8,9,6,6,0.5,0.5
2026-03-16T1800,1460A,90.9798,29.6586,拉萨市,区辐射站,,39,34,18,6,6,124,124,111,111,10,16,4,4,0.4,0.5
2026-03-16T1800,1461A,91.0831,29.6292,拉萨市,拉萨火车站,,38,33,14,7,8,120,120,100,100,5,9,4,4,0.4,0.4
2026-03-16T1800,2520A,109.2203,23.7252,来宾市,来宾技工学校,颗粒物(PM10),60,63,78,24,47,85,85,92,92,10,16,8,14,0.6,0.7
2026-03-16T1800,3535A,109.1781,23.7293,来宾市,兴宾区政府,颗粒物(PM10),53,53,78,24,46,89,89,98,98,11,16,8,11,0.5,0.6
2026-03-16T1800,4002A,109.2312,23.7428,来宾市,中南小学,颗粒物(PM10),51,51,76,28,48,80,80,100,99,19,18,9,10,0.6,0.6
2026-03-16T1800,1479A,103.8309,36.0467,兰州市,铁路设计院,NA,NA,NA,NA,NA,NA,NA,NA,NA,NA,NA,NA,NA,NA,NA,NA
2026-03-16T1800,3241A,103.7439,36.0841,兰州市,百合公园,细颗粒物(PM2.5),100,115,129,60,65,85,85,77,77,6,28,3,5,0.5,0.8
2026-03-16T1800,3242A,103.9613,35.9985,兰州市,和平,颗粒物(PM10),87,101,140,53,54,80,80,82,82,12,21,11,12,0.6,0.8
2026-03-16T1800,4236A,103.629272,36.093822,兰州市,庄浪东路808号,颗粒物(PM10),95,113,137,53,61,96,96,89,89,6,23,8,10,0.4,0.6
2026-03-16T1800,4237A,103.7251,36.104344,兰州市,安宁西路88号,颗粒物(PM10),103,127,153,61,63,102,102,94,94,3,20,7,9,0.3,0.5
2026-03-16T1800,4238A,103.846982,36.067567,兰州市,北滨河东路1号,细颗粒物(PM2.5),107,114,136,67,60,83,83,80,80,20,36,8,8,0.7,0.8
2026-03-16T1800,1067A,116.6712,39.5109,廊坊市,药材公司,细颗粒物(PM2.5),109,102,74,69,49,111,111,110,110,26,29,5,3,0.5,0.5
2026-03-16T1800,1068A,116.7215,39.5592,廊坊市,开发区,细颗粒物(PM2.5),109,90,71,69,50,111,111,106,106,25,26,7,4,0.5,0.4
2026-03-16T1800,1070A,116.7246,39.5273,廊坊市,北华航天学院,细颗粒物(PM2.5),114,95,80,75,46,110,110,104,104,24,31,8,5,0.4,0.4
2026-03-16T1800,2919A,116.7022,39.5454,廊坊市,河北工业大学,细颗粒物(PM2.5),110,84,67,70,46,110,110,106,106,22,22,6,4,0.5,0.4
2026-03-16T1800,2536A,103.7629,29.5844,乐山市,牛耳桥,颗粒物(PM10),54,55,59,28,26,70,70,70,70,19,16,7,7,0.6,0.5
2026-03-16T1800,2537A,103.7501,29.6002,乐山市,市第三水厂,颗粒物(PM10),53,53,56,25,25,74,74,68,68,17,17,3,3,0.6,0.6
2026-03-16T1800,2538A,103.7571,29.5664,乐山市,市监测站,,50,50,58,26,25,67,67,67,67,13,13,4,4,0.6,0.6
2026-03-16T1800,3361A,103.7313,29.563,乐山市,理工大学,颗粒物(PM10),57,59,57,31,28,76,76,72,72,10,11,6,6,0.6,0.6
2026-03-16T1800,2599A,100.2497,26.8802,丽江市,丽江古城,,32,22,23,14,11,101,101,102,102,12,12,13,12,0.1,0.1
2026-03-16T1800,2600A,100.2203,26.8906,丽江市,市中心,,32,13,15,10,11,101,101,104,104,14,12,7,8,0.4,0.3
2026-03-16T1800,1267A,119.9141,28.4513,丽水市,监测站大楼,,31,31,34,17,17,93,93,99,98,12,12,5,5,0.4,0.3
2026-03-16T1800,1268A,119.93,28.4589,丽水市,莲都小学,,32,32,34,14,16,96,96,99,98,9,11,/,/,/,/
2026-03-16T1800,1269A,119.8794,28.4232,丽水市,余庄前,,34,34,38,15,19,96,96,97,97,14,12,4,4,0.3,0.4
2026-03-16T1800,1173A,119.1759,34.5885,连云港市,市环境监测站,细颗粒物(PM2.5),72,56,68,46,58,87,87,94,94,22,22,10,8,0.6,0.6
2026-03-16T1800,3000A,119.3577,34.6971,连云港市,德源药业,,48,48,77,31,49,87,87,100,100,21,30,6,6,0.4,0.5
2026-03-16T1800,3007A,119.178,34.8442,连云港市,新城一中,颗粒物(PM10),55,56,71,33,58,86,86,101,100,27,36,8,8,0.4,0.6
2026-03-16T1800,3008A,119.3607,34.7519,连云港市,胡沟管理处,NA,NA,41,72,NA,49,30,30,90,80,84,55,17,9,0.5,0.6
2026-03-16T1800,3009A,119.1478,34.5913,连云港市,矿山设计院,细颗粒物(PM2.5),68,61,73,44,56,92,92,99,99,29,30,9,8,0.8,0.9
2026-03-16T1800,3434A,119.2414,34.6539,连云港市,工贸学校,细颗粒物(PM2.5),68,53,74,44,57,97,97,106,106,19,21,11,9,0.7,0.7
2026-03-16T1800,3664A,119.4171,34.734,连云港市,连云街道,,39,39,68,26,48,98,98,89,89,17,36,6,6,0.6,0.7
2026-03-16T1800,2573A,102.2629,27.8981,凉山彝族自治州,西昌市政府,,32,29,21,18,16,101,101,85,85,6,10,10,10,0.6,0.8
2026-03-16T1800,2574A,102.2686,27.885,凉山彝族自治州,凉山州政府,,31,31,25,19,17,96,96,78,78,6,14,11,11,0.6,0.8
2026-03-16T1800,4229A,102.2342,27.8859,凉山彝族自治州,凯乐南路30号,,36,36,26,17,12,103,103,85,85,8,19,13,9,0.7,0.8
2026-03-16T1800,2212A,123.1978,41.2036,辽阳市,宏伟区,细颗粒物(PM2.5),163,161,155,124,124,130,130,116,116,28,31,14,16,0.8,1.1
2026-03-16T1800,2213A,123.1684,41.2497,辽阳市,新华园,细颗粒物(PM2.5),163,163,166,124,140,148,148,123,123,37,46,15,18,0.8,1.6
2026-03-16T1800,2214A,123.2355,41.2663,辽阳市,滨河路,细颗粒物(PM2.5),198,152,176,148,154,129,129,123,123,39,48,12,13,1.2,1.8
2026-03-16T1800,4083A,123.153,41.2874,辽阳市,铁西路150号,细颗粒物(PM2.5),201,162,185,151,154,141,141,118,118,33,44,17,19,1.0,1.8
2026-03-16T1800,2227A,125.1359,42.8845,辽源市,环保局,细颗粒物(PM2.5),104,95,128,64,96,113,113,106,106,24,33,7,8,1.0,1.2
2026-03-16T1800,4085A,125.0998,42.9134,辽源市,安宁大街333号,细颗粒物(PM2.5),121,111,131,83,96,108,108,108,108,21,29,8,10,0.8,0.9
2026-03-16T1800,1625A,115.9789,36.4372,聊城市,区政府,细颗粒物(PM2.5),150,130,84,114,65,95,95,78,78,21,40,8,12,0.8,0.9
2026-03-16T1800,3200A,115.9772,36.4986,聊城市,监控中心,细颗粒物(PM2.5),140,127,96,103,68,108,108,94,94,21,43,9,11,0.9,0.9
2026-03-16T1800,3513A,116.0443,36.436,聊城市,九州社区,细颗粒物(PM2.5),138,118,85,101,63,110,110,92,92,22,37,1,3,0.9,0.8
2026-03-16T1800,4018A,116.0564,36.4609,聊城市,星美广场,细颗粒物(PM2.5),141,141,107,105,78,94,94,84,84,25,40,3,7,0.8,0.7
2026-03-16T1800,4113A,116.0091,36.4495,聊城市,利民路,细颗粒物(PM2.5),137,136,92,100,64,107,107,88,88,21,38,7,9,0.9,0.9
2026-03-16T1800,2632A,94.3683,29.6373,林芝市,林芝监测站,,27,NA,5,8,3,84,84,77,75,4,3,6,5,0.5,0.5
2026-03-16T1800,2633A,94.3616,29.6634,林芝市,林芝人民医院,,30,7,6,3,5,96,96,80,80,3,3,7,6,0.5,0.4
2026-03-16T1800,2603A,100.0779,23.8981,临沧市,市环保局,,49,43,33,34,30,103,103,68,68,8,8,7,6,0.5,0.6
2026-03-16T1800,2604A,100.0894,23.882,临沧市,市气象局,,50,40,35,35,31,112,112,73,73,8,9,8,7,0.5,0.5
2026-03-16T1800,1733A,111.5552,36.0791,临汾市,临钢医院,颗粒物(PM10),100,120,89,51,54,94,94,84,84,17,20,7,7,1.1,1
2026-03-16T1800,1734A,111.4984,36.0734,临汾市,技工学校,细颗粒物(PM2.5),104,94,88,64,64,92,92,81,81,14,23,8,7,1.2,1.1
2026-03-16T1800,1736A,111.5017,36.0857,临汾市,市委,颗粒物(PM10),98,116,101,58,54,94,94,84,84,14,27,3,4,1.2,1
2026-03-16T1800,3018A,111.5048,36.1015,临汾市,唐尧大酒店,NA,NA,NA,100,50,53,93,93,82,82,16,27,8,7,1.2,1
2026-03-16T1800,4244A,111.4879,36.053,临汾市,启星学校,细颗粒物(PM2.5),101,101,93,61,57,92,92,81,81,16,34,5,4,1.2,1
2026-03-16T1800,4271A,103.2464,35.6123,临夏回族自治州,滨河东路1号,颗粒物(PM10),108,140,166,67,75,80,80,81,81,30,28,9,8,0.5,0.8
2026-03-16T1800,4310A,103.207136,35.599807,临夏回族自治州,新华街21号,"颗粒物(PM10),细颗粒物(PM2.5)",111,147,169,72,86,79,79,76,76,10,15,8,7,0.3,0.9
2026-03-16T1800,1618A,118.3429,35.0532,临沂市,沂河小区,细颗粒物(PM2.5),90,66,111,55,84,104,104,106,106,16,42,9,13,0.5,0.9
2026-03-16T1800,1619A,118.2962,35.0568,临沂市,鲁南制药厂,细颗粒物(PM2.5),86,56,105,53,76,107,107,109,109,21,46,10,15,0.4,0.9
2026-03-16T1800,1620A,118.2793,34.9976,临沂市,新光毛纺厂,细颗粒物(PM2.5),88,58,93,54,78,104,104,108,108,22,43,10,12,0.5,0.9
2026-03-16T1800,1621A,118.3955,35.0889,临沂市,河东保险公司,细颗粒物(PM2.5),84,66,96,52,73,108,108,114,114,31,48,9,11,0.4,0.7
2026-03-16T1800,3370A,118.3563,35.0215,临沂市,十里堡居委,细颗粒物(PM2.5),88,NA,94,54,75,108,108,112,112,20,46,8,12,0.5,0.9
2026-03-16T1800,3496A,118.359,35.1067,临沂市,南坊新区,细颗粒物(PM2.5),82,51,93,51,73,110,110,112,112,25,43,8,11,0.5,0.8
2026-03-16T1800,3860A,118.3915,35.0297,临沂市,皇山花园小区,细颗粒物(PM2.5),96,68,100,58,81,110,110,114,114,23,47,10,13,0.6,0.9
2026-03-16T1800,1870A,109.4854,24.3898,柳州市,柳东小学,,42,42,74,23,52,101,101,104,104,8,18,4,8,0.5,0.6
2026-03-16T1800,1871A,109.4109,24.3304,柳州市,环保监测站,,45,45,62,22,33,84,84,92,92,16,26,4,5,0.8,0.8
2026-03-16T1800,1872A,109.3886,24.3408,柳州市,河西水厂,颗粒物(PM10),66,72,73,31,37,78,78,98,98,30,26,16,10,0.7,0.7
2026-03-16T1800,1873A,109.4263,24.2951,柳州市,市四中,颗粒物(PM10),54,55,62,28,37,91,91,98,98,14,25,7,8,0.3,0.5
2026-03-16T1800,1874A,109.396,24.3658,柳州市,市九中,颗粒物(PM10),68,74,74,29,42,76,76,88,88,21,19,12,10,0.8,0.7
2026-03-16T1800,1875A,109.4912,24.3164,柳州市,古亭山,颗粒物(PM10),58,60,63,25,41,88,88,99,99,18,23,7,8,0.5,0.6
2026-03-16T1800,3402A,109.5422,24.3994,柳州市,市二中,颗粒物(PM10),52,52,81,18,56,96,96,97,97,12,24,7,9,0.5,0.6
2026-03-16T1800,2307A,116.5078,31.7369,六安市,监测大楼,,25,22,40,17,44,55,55,64,63,26,19,5,5,0.6,0.5
2026-03-16T1800,2308A,116.4738,31.7642,六安市,皖西学院,,23,17,46,16,43,70,70,74,74,18,15,4,4,0.5,0.4
2026-03-16T1800,2309A,116.4997,31.7904,六安市,朝阳厂,,32,31,48,22,49,64,64,72,72,25,22,4,4,0.5,0.5
2026-03-16T1800,2310A,116.5566,31.7885,六安市,开发区,,26,NA,39,18,49,67,67,76,76,12,11,4,4,0.4,0.4
2026-03-16T1800,2577A,104.8293,26.592,六盘水市,黄土坡,,29,29,28,16,16,46,46,27,27,25,19,6,7,0.6,0.8
2026-03-16T1800,2579A,104.8481,26.5898,六盘水市,民中,,30,29,25,21,14,46,46,27,27,18,16,4,4,0.8,0.8
2026-03-16T1800,2580A,104.9541,26.5506,六盘水市,双水,,25,NA,14,17,5,41,41,33,33,16,12,4,4,0.3,0.3
2026-03-16T1800,4151A,104.8899,26.5685,六盘水市,钟山大道中段564号,,25,19,15,17,10,43,43,31,31,15,11,8,8,0.7,0.6
2026-03-16T1800,2336A,117.022,25.1031,龙岩市,龙岩市监测站,,35,22,37,12,25,111,111,120,120,7,16,5,13,0.5,0.5
2026-03-16T1800,2337A,117.0257,25.0662,龙岩市,闽西职业技术学院,,34,24,37,12,20,107,107,116,116,6,11,5,7,0.4,0.4
2026-03-16T1800,2338A,117.0195,25.0306,龙岩市,龙岩学院,,34,27,32,20,20,108,108,118,118,6,8,5,5,/,/
2026-03-16T1800,2885A,104.9344,33.3827,陇南市,滨江中学,颗粒物(PM10),68,75,68,23,30,61,61,64,62,10,10,6,6,0.7,0.6
2026-03-16T1800,3247A,104.9551,33.3709,陇南市,市总工会,颗粒物(PM10),60,64,68,19,30,67,67,64,64,5,8,5,5,0.6,0.6
2026-03-16T1800,2488A,111.9984,27.7346,娄底市,市监测站,,12,8,5,3,2,37,37,48,42,15,12,4,5,0.8,0.7
2026-03-16T1800,2491A,111.9888,27.7035,娄底市,市政府,,10,10,8,3,1,32,32,46,37,14,10,3,3,0.5,0.4
2026-03-16T1800,4127A,111.9812,27.7591,娄底市,涟钢职大,NA,NA,20,7,6,4,31,31,46,37,NA,11,NA,3,0.4,0.3
2026-03-16T1800,4128A,112.0303,27.7457,娄底市,娄底体校,,11,9,12,3,2,35,35,42,37,6,6,2,2,0.5,0.5
2026-03-16T1800,1894A,105.4427,28.9063,泸州市,小市上码头,,22,17,26,12,18,68,68,58,58,14,17,6,7,0.5,0.5
2026-03-16T1800,1895A,105.4241,28.8573,泸州市,兰田宪桥,,21,20,29,10,15,66,66,60,60,14,15,5,6,0.6,0.6
2026-03-16T1800,1896A,105.4378,28.8833,泸州市,市环监站,,21,21,30,9,14,65,65,57,57,19,20,2,3,0.4,0.4
2026-03-16T1800,4272A,105.3689,28.7783,泸州市,纳溪中医医院,,36,36,39,16,26,76,76,64,64,14,17,6,7,0.6,0.6
2026-03-16T1800,2183A,111.1447,37.5212,吕梁市,环保局,颗粒物(PM10),93,109,87,48,38,91,91,86,86,14,37,6,7,0.4,0.5
2026-03-16T1800,2185A,111.1285,37.5338,吕梁市,自来水公司,颗粒物(PM10),88,102,97,52,37,93,93,83,83,16,32,5,6,0.4,0.5
2026-03-16T1800,2867A,111.1225,37.5093,吕梁市,马茂庄小学,颗粒物(PM10),99,118,95,42,31,88,88,80,80,17,36,4,5,0.3,0.5
2026-03-16T1800,1812A,112.3934,34.6517,洛阳市,市委党校,细颗粒物(PM2.5),102,69,62,62,57,86,86,98,91,18,22,12,8,0.9,0.9
2026-03-16T1800,1815A,112.494,34.6883,洛阳市,河南林校,细颗粒物(PM2.5),90,62,64,55,56,94,94,94,94,24,27,10,11,0.7,0.7
2026-03-16T1800,1816A,112.3843,34.623,洛阳市,开发区管委会,细颗粒物(PM2.5),104,86,70,64,51,85,85,92,92,23,22,15,10,0.7,0.8
2026-03-16T1800,1817A,112.4263,34.6249,洛阳市,市委新办公区,细颗粒物(PM2.5),103,78,74,63,63,86,86,92,92,26,25,12,9,0.8,0.8
2026-03-16T1800,3340A,112.6005,34.6323,洛阳市,伊滨,NA,NA,66,76,55,57,92,92,93,93,NA,38,7,7,0.5,0.6
2026-03-16T1800,3341A,112.495,34.6338,洛阳市,中移产业园,细颗粒物(PM2.5),102,64,69,62,61,94,94,94,94,21,28,12,9,0.8,0.7
2026-03-16T1800,3593A,112.5736,34.8993,洛阳市,吉利监测站,细颗粒物(PM2.5),80,64,57,50,56,104,104,97,97,21,33,9,8,0.6,0.7
2026-03-16T1800,3635A,112.3678,34.6623,洛阳市,河科大西苑校区,细颗粒物(PM2.5),104,73,62,64,55,90,90,95,95,21,24,12,8,0.8,0.8
2026-03-16T1800,3636A,112.4387,34.678,洛阳市,英才小学,细颗粒物(PM2.5),107,79,73,67,56,91,91,95,95,22,26,12,10,0.8,0.8
2026-03-16T1800,4214A,112.460027,34.694929,洛阳市,春都路1号院,细颗粒物(PM2.5),96,78,66,58,54,89,89,91,91,17,22,10,9,0.8,0.9
2026-03-16T1800,2399A,114.051,33.5721,漯河市,三五一五工厂,细颗粒物(PM2.5),156,140,85,119,72,74,74,80,80,22,21,4,4,0.8,0.6
2026-03-16T1800,2400A,114.0055,33.5698,漯河市,漯河大学,细颗粒物(PM2.5),160,NA,72,122,76,89,89,83,83,19,19,5,5,0.7,0.6
2026-03-16T1800,2401A,114.0134,33.5826,漯河市,市水利局,细颗粒物(PM2.5),156,NA,74,119,72,82,82,80,80,21,19,5,5,0.8,0.7
2026-03-16T1800,2402A,114.0261,33.5697,漯河市,市广电局,细颗粒物(PM2.5),156,NA,68,119,70,75,75,74,74,20,20,5,4,0.6,0.5
2026-03-16T1800,3478A,113.9691,33.568,漯河市,市图书馆,细颗粒物(PM2.5),148,126,81,112,68,84,84,78,78,17,17,5,5,0.9,0.7
2026-03-16T1800,4250A,114.089259,33.588274,漯河市,韶山路11号,细颗粒物(PM2.5),152,127,80,116,68,66,66,76,76,21,22,6,6,0.8,0.7
2026-03-16T1800,1798A,118.5084,31.6838,马鞍山市,湖东路四小,,26,20,29,18,31,42,42,62,50,30,19,5,5,0.6,0.6
2026-03-16T1800,1799A,118.5019,31.6449,马鞍山市,开发区,,22,17,30,15,30,43,43,64,50,32,20,4,4,0.6,0.5
2026-03-16T1800,3633A,118.4914,31.681,马鞍山市,雨山,,25,25,31,13,20,42,42,64,50,31,16,4,4,0.6,0.5
2026-03-16T1800,4191A,118.527362,31.722269,马鞍山市,慈湖高新区,,28,25,41,19,31,45,45,64,54,30,18,5,4,0.5,0.5
2026-03-16T1800,1686A,111.0285,21.469,茂名市,电白南海,,41,41,47,13,19,90,90,100,100,12,13,5,7,0.7,0.7
2026-03-16T1800,1687A,110.9294,21.6533,茂名市,茂石化七小,,36,36,40,10,18,83,83,92,92,12,14,6,8,0.4,0.4
2026-03-16T1800,1688A,110.9108,21.6688,茂名市,健康路,,29,24,33,11,17,90,90,99,99,12,15,3,6,0.5,0.5
2026-03-16T1800,1689A,110.8592,21.6826,茂名市,高岭,,48,48,50,12,19,85,85,99,98,15,15,3,7,/,/
2026-03-16T1800,3450A,111.0101,21.5165,茂名市,电白水东,,28,27,38,15,21,88,88,92,92,10,14,3,5,/,/
2026-03-16T1800,2540A,103.8414,30.0871,眉山市,气象局,颗粒物(PM10),53,53,60,27,23,75,75,76,76,16,12,6,6,0.6,0.5
2026-03-16T1800,3148A,103.829,30.0563,眉山市,区人社局,细颗粒物(PM2.5),100,62,59,60,29,67,67,69,69,27,14,8,8,0.7,0.6
2026-03-16T1800,4148A,103.8836,30.0695,眉山市,眉职院,,48,48,57,26,25,56,56,72,72,18,15,5,6,0.7,0.7
2026-03-16T1800,1690A,116.1248,24.3307,梅州市,梅江月梅,,36,28,42,13,28,115,115,123,123,9,20,/,/,/,/
2026-03-16T1800,1691A,116.0798,24.2719,梅州市,梅县新城,,37,25,46,12,28,118,118,124,124,15,24,8,9,0.5,0.6
2026-03-16T1800,3315A,116.1234,24.2994,梅州市,梅龙,,36,29,45,15,27,114,114,124,124,11,17,6,7,0.6,0.7
2026-03-16T1800,1878A,104.7775,31.4741,绵阳市,富乐山,,16,15,33,6,15,50,50,55,55,7,9,6,6,0.7,0.6
2026-03-16T1800,1880A,104.6698,31.4668,绵阳市,高新区自来水公司,,16,16,33,8,15,48,48,53,53,12,14,7,8,0.6,0.6
2026-03-16T1800,3491A,104.6899,31.5324,绵阳市,西科大附属小学,,20,20,38,12,20,48,48,55,55,23,24,8,7,0.5,0.6
2026-03-16T1800,3492A,104.5647,31.5343,绵阳市,安州区旅游局,,18,NA,43,8,18,55,55,61,61,13,10,5,7,0.5,0.4
2026-03-16T1800,4146A,104.7092,31.4972,绵阳市,科技城新区公安局,,15,15,39,8,16,48,48,52,52,8,11,9,9,0.7,0.6
2026-03-16T1800,4226A,104.765114,31.453094,绵阳市,绵阳市气象局,,15,10,28,6,14,46,46,49,49,12,15,6,8,0.7,0.7
2026-03-16T1800,1784A,129.61,44.561,牡丹江市,环保大楼,,40,40,71,22,58,81,81,96,94,24,23,2,4,0.4,0.6
2026-03-16T1800,1787A,129.6364,44.6075,牡丹江市,机车工厂,,34,34,71,23,46,79,79,90,90,16,28,2,3,0.4,0.6
2026-03-16T1800,1788A,129.6386,44.5462,牡丹江市,第一中学,,29,22,56,20,49,86,86,95,94,13,20,2,4,0.2,0.4
2026-03-16T1800,4287A,129.5992,44.5964,牡丹江市,东晓云街98号,,30,26,72,21,52,88,88,93,93,8,18,3,4,0.4,0.7
2026-03-16T1800,2531A,105.0703,29.61,内江市,市监测站,,23,23,26,6,14,56,56,50,50,10,9,7,6,0.6,0.5
2026-03-16T1800,2533A,105.0657,29.5807,内江市,内江二中,,26,26,37,6,15,56,56,51,51,13,15,7,7,0.4,0.3
2026-03-16T1800,2534A,105.0407,29.5828,内江市,内江日报社,,18,18,25,6,15,57,57,53,53,13,11,10,9,0.4,0.4
2026-03-16T1800,4147A,105.0433,29.6105,内江市,玉峰路西段888号,NA,NA,NA,25,NA,18,65,65,59,59,NA,12,8,5,NA,0.3
2026-03-16T1800,2628A,92.0653,31.4846,那曲市,那曲监测站,,47,47,36,16,25,137,137,96,96,5,16,8,8,0.5,0.8
2026-03-16T1800,4243A,92.0515,31.4787,那曲市,那曲市委宣传部,颗粒物(PM10),55,56,28,16,19,143,143,103,103,3,12,6,7,0.4,0.8
2026-03-16T1800,1291A,115.8887,28.7006,南昌市,省林业公司,,29,NA,48,20,63,47,47,70,54,19,15,4,3,1.1,0.9
2026-03-16T1800,1292A,115.813,28.7443,南昌市,林科所,,42,NA,62,29,79,37,37,76,52,22,16,7,7,1.0,0.9
2026-03-16T1800,1294A,115.8518,28.687,南昌市,建工学校,,45,45,76,27,64,42,42,71,54,30,20,7,8,0.8,0.7
2026-03-16T1800,1295A,115.8926,28.6425,南昌市,象湖,,30,21,66,21,68,51,51,70,55,14,12,7,7,0.8,0.7
2026-03-16T1800,3046A,115.9084,28.6062,南昌市,机电学校,,46,41,81,32,72,48,48,71,58,20,15,5,5,0.7,0.6
2026-03-16T1800,3690A,115.9718,28.7032,南昌市,外国语学校,,46,32,66,32,70,42,42,64,52,23,19,7,7,0.8,0.7
2026-03-16T1800,4106A,115.7923,28.6873,南昌市,工业二路,,42,42,78,23,62,42,42,80,58,26,18,4,4,0.7,0.7
2026-03-16T1800,4192A,115.931587,28.686774,南昌市,南京东路235号,,40,40,78,24,64,48,48,74,57,22,17,5,5,0.7,0.6
2026-03-16T1800,1906A,106.0791,30.8022,南充市,南充市委,,16,14,13,11,9,32,32,30,30,20,15,6,6,0.5,0.5
2026-03-16T1800,1907A,106.1038,30.8215,南充市,南充炼油厂,,24,24,18,10,9,33,33,31,31,17,14,5,4,0.5,0.5
2026-03-16T1800,4227A,106.108336,30.788436,南充市,梨树横街98号,,13,13,11,9,9,36,36,35,35,18,14,5,5,0.4,0.3
2026-03-16T1800,4304A,106.1172,30.843,南充市,清泉寺北路188号,,14,13,11,7,8,42,42,35,35,12,10,5,5,0.4,0.3
2026-03-16T1800,4305A,106.067,30.7616,南充市,同庆路1号,NA,NA,NA,22,11,8,38,38,32,32,11,14,5,6,0.5,0.5
2026-03-16T1800,1151A,118.8033,32.1085,南京市,迈皋桥,细颗粒物(PM2.5),52,38,42,36,36,59,59,68,58,28,23,6,5,0.5,0.4
2026-03-16T1800,1152A,118.7487,32.057,南京市,草场门,,42,41,34,29,29,44,44,61,49,51,35,8,7,0.8,0.9
2026-03-16T1800,1154A,118.770105,32.004342,南京市,中华门,,29,29,37,17,27,35,35,57,45,24,17,5,5,0.6,0.6
2026-03-16T1800,1155A,118.8059,32.0329,南京市,瑞金路,,36,36,39,23,34,41,41,57,48,39,20,4,4,1.0,0.9
2026-03-16T1800,1156A,118.7946,32.0774,南京市,玄武湖,,46,38,41,32,37,32,32,59,42,41,23,6,6,0.9,0.8
2026-03-16T1800,1157A,118.6415,32.0964,南京市,浦口,,40,40,45,25,35,37,37,57,46,34,25,4,4,0.6,0.5
2026-03-16T1800,1158A,118.730129,32.000956,南京市,奥体中心,,29,29,39,20,28,49,49,65,56,33,23,10,10,0.6,0.4
2026-03-16T1800,1159A,118.9072,32.1047,南京市,仙林大学城,,41,41,45,28,33,44,44,62,48,38,28,6,5,0.7,0.6
2026-03-16T1800,3422A,118.8443,31.919,南京市,江宁彩虹桥,,28,28,32,15,22,56,56,69,60,45,36,4,4,0.9,0.7
2026-03-16T1800,3427A,118.8497,32.3599,南京市,六合雄州,,50,36,40,35,38,57,57,71,63,20,18,4,4,0.6,0.5
2026-03-16T1800,4086A,118.7641,32.0841,南京市,新模范马路66号,,44,44,40,30,31,48,48,62,51,39,30,5,3,0.9,0.8
2026-03-16T1800,4249A,118.8707617,31.34017673,南京市,汶溪路181号,细颗粒物(PM2.5),80,NA,44,50,41,35,35,53,49,39,23,6,6,0.6,0.3
2026-03-16T1800,4312A,119.019,31.6512,南京市,中山西路1号,,34,34,34,21,28,29,29,54,41,30,16,4,4,0.5,0.4
2026-03-16T1800,1401A,108.3098,22.788,南宁市,二十一中,,37,37,41,19,27,82,82,83,83,7,11,4,6,0.5,0.5
2026-03-16T1800,1402A,108.3135,22.8529,南宁市,北湖,,33,33,45,19,29,83,83,81,81,13,13,2,4,0.6,0.6
2026-03-16T1800,1403A,108.3205,22.8222,南宁市,市监测站,,36,36,45,18,24,90,90,96,96,11,12,6,8,0.5,0.6
2026-03-16T1800,1404A,108.3828,22.8038,南宁市,大自然花园,,33,33,46,14,23,90,90,95,95,9,10,6,6,0.4,0.4
2026-03-16T1800,1406A,108.2397,22.8462,南宁市,区农职院,,28,28,46,19,25,86,86,80,80,10,13,5,6,0.5,0.6
2026-03-16T1800,1407A,108.3285,22.7356,南宁市,英华嘉园,,49,49,58,17,26,85,85,88,88,12,16,3,5,0.6,0.6
2026-03-16T1800,3401A,108.4829,22.762,南宁市,红星社区,,36,36,45,16,26,85,85,96,96,7,12,5,6,0.4,0.5
2026-03-16T1800,4132A,108.2927,23.1477,南宁市,起凤路9号,细颗粒物(PM2.5),60,59,53,40,31,85,85,88,88,14,10,3,3,0.4,0.4
2026-03-16T1800,4221A,108.2177,22.7774,南宁市,乐贤路16号,,45,45,47,17,24,78,78,78,78,12,18,5,5,0.5,0.5
2026-03-16T1800,2332A,118.1682,26.6371,南平市,南平市监测站,,30,24,24,13,17,94,94,96,96,10,17,4,4,0.5,0.6
2026-03-16T1800,2334A,118.1757,26.6276,南平市,南平七中,,37,37,29,11,16,102,102,100,100,5,14,2,3,0.3,0.4
2026-03-16T1800,1168A,120.9056,31.9669,南通市,狼山街道,细颗粒物(PM2.5),60,53,43,40,36,84,84,83,83,17,14,4,3,0.8,0.6
2026-03-16T1800,1170A,120.8635,32.0231,南通市,城中,细颗粒物(PM2.5),66,58,55,43,41,89,89,88,87,20,16,3,3,0.8,0.6
2026-03-16T1800,1171A,120.9376,31.9301,南通市,星湖花园,细颗粒物(PM2.5),70,56,46,45,40,81,81,82,82,16,11,3,3,0.7,0.6
2026-03-16T1800,1172A,120.8053,32.046,南通市,紫琅学院,,49,49,51,33,37,91,91,87,84,19,17,4,4,0.7,0.7
2026-03-16T1800,3291A,121.0631,32.0644,南通市,通州监测站,NA,NA,61,50,34,37,99,99,92,92,13,11,3,3,NA,0.5
2026-03-16T1800,3432A,120.9348,31.9874,南通市,环境教育馆,细颗粒物(PM2.5),56,53,45,38,35,86,86,85,85,23,18,3,3,0.7,0.5
2026-03-16T1800,4091A,120.8692,31.9885,南通市,洪江路,细颗粒物(PM2.5),60,59,47,40,36,80,80,82,80,18,14,3,3,1.0,0.7
2026-03-16T1800,2404A,112.5338,33.0086,南阳市,瓦房庄,,49,49,47,30,27,93,93,84,84,12,12,4,4,0.7,0.6
2026-03-16T1800,2405A,112.5002,32.9734,南阳市,汉画馆,细颗粒物(PM2.5),74,50,51,47,48,102,102,88,88,15,16,4,4,0.7,0.7
2026-03-16T1800,2406A,112.5778,33.0144,南阳市,气象站,细颗粒物(PM2.5),58,57,52,39,33,101,101,90,90,13,16,4,4,0.6,0.5
2026-03-16T1800,2407A,112.548,32.9687,南阳市,理工学院,细颗粒物(PM2.5),60,47,49,40,37,98,98,87,87,10,15,5,5,0.6,0.6
2026-03-16T1800,4008A,112.5233,32.9921,南阳市,卧龙区政府,细颗粒物(PM2.5),62,49,47,41,36,93,93,84,84,14,12,5,5,0.7,0.6
2026-03-16T1800,1234A,121.8352,29.9111,宁波市,区环保大楼,,47,47,32,21,12,85,85,103,103,34,21,6,6,0.4,0.3
2026-03-16T1800,1235A,121.5595,29.8208,宁波市,万里学院,,35,35,30,20,11,110,110,104,104,11,15,4,6,0.4,0.4
2026-03-16T1800,1236A,121.713,29.9564,宁波市,龙赛医院,,47,47,32,21,11,103,103,99,99,12,22,4,5,0.3,0.4
2026-03-16T1800,1240A,121.5855,29.8635,宁波市,太古小学,,45,45,30,22,11,108,108,105,105,19,22,3,4,0.4,0.3
2026-03-16T1800,1241A,121.5239,29.8673,宁波市,市环境监测中心,,39,39,36,22,12,104,104,99,99,19,20,5,6,0.4,0.4
2026-03-16T1800,2871A,121.6156,29.9015,宁波市,万里国际学校,,35,35,32,22,13,112,112,107,107,13,20,3,5,0.4,0.3
2026-03-16T1800,3710A,121.5593,29.8976,宁波市,白沙活动中心,,35,30,31,20,13,110,110,104,104,12,17,4,5,0.3,0.3
2026-03-16T1800,4095A,121.8962,29.7529,宁波市,中科路88号,,37,22,24,13,8,116,116,115,115,13,17,5,6,0.4,0.3
2026-03-16T1800,2341A,119.5387,26.6611,宁德市,宁德市监测站,,32,29,27,11,13,100,100,105,105,14,15,4,5,0.4,0.4
2026-03-16T1800,3209A,119.5231,26.6562,宁德市,宁德一中,,40,40,30,14,15,98,98,102,102,12,12,5,5,0.4,0.4
2026-03-16T1800,2618A,98.859,25.8541,怒江傈僳族自治州,州监测站,,34,34,23,22,14,69,69,52,52,14,10,8,7,0.8,0.7
2026-03-16T1800,2619A,98.8607,25.8168,怒江傈僳族自治州,泸水一中,,43,NA,16,30,16,68,68,41,41,9,30,5,5,0.4,0.3
2026-03-16T1800,1888A,101.6891,26.571,攀枝花市,弄弄坪,,37,37,43,18,21,110,110,100,100,15,18,17,18,0.7,0.9
2026-03-16T1800,1889A,101.577,26.5914,攀枝花市,河门口,,44,44,40,27,22,127,127,106,106,5,16,5,24,0.5,0.9
2026-03-16T1800,1891A,101.7365,26.4986,攀枝花市,仁和,,38,34,34,22,20,120,120,100,100,6,9,8,9,0.5,0.5
2026-03-16T1800,2835A,101.7222,26.567,攀枝花市,四十中小,,37,37,34,19,25,109,109,95,95,9,17,4,16,0.7,0.8
2026-03-16T1800,1604A,122.0303,41.1489,盘锦市,开发区,细颗粒物(PM2.5),136,116,56,99,48,120,120,113,113,17,16,12,7,0.7,0.6
2026-03-16T1800,1605A,122.0486,41.0883,盘锦市,兴隆台,细颗粒物(PM2.5),201,NA,53,151,48,128,128,109,109,39,28,16,7,0.9,0.6
2026-03-16T1800,1606A,121.8297,41.1026,盘锦市,新生街道,细颗粒物(PM2.5),137,NA,72,100,60,108,108,131,131,34,33,13,10,0.7,0.7
2026-03-16T1800,1832A,113.3257,33.7423,平顶山市,新华旅馆,细颗粒物(PM2.5),103,71,74,63,55,105,105,88,88,10,20,6,7,0.7,0.6
2026-03-16T1800,1833A,113.2917,33.737,平顶山市,规划设计院,细颗粒物(PM2.5),102,78,74,62,51,105,105,86,86,14,20,5,6,0.7,0.5
2026-03-16T1800,1834A,113.182,33.7738,平顶山市,平顶山工学院,NA,NA,72,59,53,47,108,108,82,82,14,18,NA,4,0.4,0.3
2026-03-16T1800,3594A,112.8736,33.9068,平顶山市,石龙区,细颗粒物(PM2.5),108,73,58,68,49,84,84,87,87,27,22,7,6,0.3,0.5
2026-03-16T1800,4116A,113.284,33.7139,平顶山市,姚电大道23号,细颗粒物(PM2.5),103,77,71,63,53,108,108,91,91,14,22,5,5,0.7,0.6
2026-03-16T1800,2656A,106.6633,35.5338,平凉市,聚贤嘉苑,颗粒物(PM10),83,95,100,42,44,76,76,62,62,15,24,8,6,0.7,0.8
2026-03-16T1800,2657A,106.7021,35.5307,平凉市,博物馆,颗粒物(PM10),75,85,105,41,44,78,78,64,64,14,25,11,11,0.6,0.7
2026-03-16T1800,2348A,113.8384,27.6436,萍乡市,中医院,颗粒物(PM10),52,52,108,32,70,6,6,14,12,31,23,9,6,1.2,1.1
2026-03-16T1800,2350A,113.8677,27.6438,萍乡市,市环保局,细颗粒物(PM2.5),54,40,88,37,77,8,8,17,15,32,24,5,3,1.5,1.3
2026-03-16T1800,2351A,113.8663,27.6202,萍乡市,安源区政府,NA,NA,NA,96,27,74,16,16,21,21,23,21,4,6,NA,0.7
2026-03-16T1800,4107A,113.8686,27.6668,萍乡市,联洪村委会,,43,39,100,30,72,9,9,12,12,30,26,7,6,1.2,1
2026-03-16T1800,2319A,119.0142,25.4324,莆田市,荔城区仓后路,,40,40,35,14,14,100,100,106,106,17,15,/,/,/,/
2026-03-16T1800,2320A,119.0016,25.4553,莆田市,莆田市监测站,,41,41,27,20,13,102,102,109,109,17,8,5,3,0.5,0.3
2026-03-16T1800,2321A,119.112,25.4561,莆田市,涵江区六中,,49,49,37,17,12,98,98,104,104,14,17,/,/,0.4,0.4
2026-03-16T1800,2322A,119.1014,25.3215,莆田市,秀屿区政府,,41,41,31,10,13,105,105,109,109,8,9,4,4,0.3,0.3
2026-03-16T1800,2392A,115.0312,35.7636,濮阳市,环保局,细颗粒物(PM2.5),96,NA,52,58,43,115,115,94,94,14,24,6,6,0.6,0.7
2026-03-16T1800,3021A,115,35.7667,濮阳市,濮水河管理处,细颗粒物(PM2.5),88,72,61,54,41,126,126,106,106,12,22,8,8,0.4,0.4
2026-03-16T1800,4118A,115.0552,35.7816,濮阳市,中原东路68号,细颗粒物(PM2.5),86,79,68,53,40,118,118,97,97,11,24,6,5,0.6,0.6
2026-03-16T1800,4216A,115.0923632,35.76857718,濮阳市,任丘路479号,细颗粒物(PM2.5),98,78,66,59,42,123,123,103,103,18,28,7,7,0.6,0.7
2026-03-16T1800,2601A,100.9801,22.7634,普洱市,市环保局,,48,48,35,24,18,106,106,94,94,5,7,6,6,0.6,0.6
2026-03-16T1800,2602A,100.9763,22.8237,普洱市,普洱第二中学,,50,50,32,26,18,107,107,100,100,7,11,3,3,0.6,0.6
2026-03-16T1800,3345A,131.0413,45.7795,七台河市,中波台,颗粒物(PM10),85,98,132,23,80,78,78,91,91,18,23,16,15,0.4,0.6
2026-03-16T1800,3637A,131.0136,45.7688,七台河市,人民广场,,34,34,108,21,66,75,75,92,91,25,33,14,15,0.5,0.7
2026-03-16T1800,3684A,130.8639,45.8144,七台河市,新建矿广场,颗粒物(PM10),51,51,108,26,77,76,76,88,88,12,20,4,6,0.1,0.3
2026-03-16T1800,1779A,123.9307,47.3641,齐齐哈尔市,安居小区,,50,50,34,30,15,92,92,100,100,16,11,5,3,0.4,0.3
2026-03-16T1800,1780A,123.9497,47.3389,齐齐哈尔市,中心广场,,41,41,32,22,12,91,91,91,91,11,10,9,9,0.4,0.4
2026-03-16T1800,1781A,123.9483,47.3229,齐齐哈尔市,农牧车辆厂,,41,41,32,20,14,85,85,90,90,11,8,7,7,0.3,0.2
2026-03-16T1800,1783A,123.9442,47.2994,齐齐哈尔市,市环境监测站,,32,32,35,16,10,87,87,91,91,10,9,4,4,0.7,0.6
2026-03-16T1800,3662A,123.6341,47.2079,齐齐哈尔市,富区青少年活动中心,细颗粒物(PM2.5),98,95,32,59,14,96,96,102,102,11,8,4,3,0.7,0.5
2026-03-16T1800,2591A,107.9765,26.5724,黔东南苗族侗族自治州,市环境监测站,,16,8,6,3,6,49,49,68,55,12,8,2,2,0.6,0.6
2026-03-16T1800,2881A,107.8909,26.531,黔东南苗族侗族自治州,凯里学院,,15,9,7,3,5,47,47,70,55,20,19,4,4,0.9,0.8
2026-03-16T1800,2593A,107.5223,26.2371,黔南布依族苗族自治州,小围寨,,14,NA,2,3,4,44,44,61,53,9,7,5,4,0.8,0.7
2026-03-16T1800,3538A,107.5175,26.2977,黔南布依族苗族自治州,沙坝,,16,9,7,6,4,49,49,67,55,8,7,3,4,0.7,0.6
2026-03-16T1800,2589A,104.9022,25.0943,黔西南布依族苗族自治州,场坝街,NA,NA,NA,23,26,20,89,89,85,85,NA,6,4,3,0.6,0.6
2026-03-16T1800,2590A,104.8812,25.0994,黔西南布依族苗族自治州,坪东大道,,29,29,29,17,23,64,64,85,85,15,10,5,4,0.6,0.5
2026-03-16T1800,2502A,108.6238,21.9667,钦州市,市环保站,,46,46,54,21,23,86,86,97,97,13,13,6,4,0.5,0.5
2026-03-16T1800,2503A,108.655,21.9481,钦州市,沙埠小学,,48,48,54,12,26,95,95,100,100,8,13,6,5,0.2,0.3
2026-03-16T1800,2504A,108.5989,21.7435,钦州市,港区一小,颗粒物(PM10),53,54,57,26,23,95,95,99,99,10,13,2,4,0.4,0.4
2026-03-16T1800,3404A,108.5959,21.9634,钦州市,北职校,,40,40,47,19,22,90,90,103,103,11,13,4,5,0.5,0.5
2026-03-16T1800,1046A,119.5247,39.9346,秦皇岛市,建设大厦,,25,25,82,16,48,77,77,78,78,15,38,6,9,0.3,0.7
2026-03-16T1800,3132A,119.5979,39.938,秦皇岛市,文明里,,33,33,87,18,49,72,72,74,74,20,46,9,12,0.3,0.7
2026-03-16T1800,4066A,119.7458,39.9952,秦皇岛市,南园路157号,,37,37,81,17,50,76,76,75,75,19,51,7,10,0.2,0.7
2026-03-16T1800,4067A,119.5131,39.8858,秦皇岛市,翠岛大街1号,,38,38,79,9,51,72,72,76,76,16,38,8,11,0.2,0.6
2026-03-16T1800,4198A,119.509013,39.825305,秦皇岛市,北戴河轮滑馆,,28,28,78,14,45,80,80,79,79,17,38,8,9,0.3,0.6
2026-03-16T1800,1310A,120.404,36.0625,青岛市,市南区东部子站,细颗粒物(PM2.5),62,61,91,41,74,104,104,93,93,18,30,8,10,0.6,0.7
2026-03-16T1800,1311A,120.362344,36.10282,青岛市,四方区子站,NA,NA,46,92,NA,79,102,102,118,118,24,38,5,6,0.6,0.8
2026-03-16T1800,1312A,120.294373,36.054183,青岛市,市南区西部子站,,46,41,92,32,76,94,94,78,78,28,52,3,5,0.7,0.9
2026-03-16T1800,1313A,120.4581,36.0858,青岛市,崂山区子站,颗粒物(PM10),56,58,80,37,61,112,112,100,100,15,29,7,8,0.5,0.6
2026-03-16T1800,1315A,120.3945,36.3083,青岛市,城阳区子站,"颗粒物(PM10),细颗粒物(PM2.5)",68,75,90,44,66,102,102,104,104,38,40,7,8,0.7,0.9
2026-03-16T1800,3642A,120.3454,36.0735,青岛市,市北区南部,,47,47,88,26,64,104,104,111,111,24,36,2,3,0.6,0.7
2026-03-16T1800,3643A,120.3897,36.18,青岛市,李沧区北部,颗粒物(PM10),51,51,95,29,70,110,110,105,105,24,46,9,9,0.6,0.8
2026-03-16T1800,4110A,120.5222,36.4089,青岛市,盟旺路653号,细颗粒物(PM2.5),66,66,94,43,65,124,124,116,116,14,25,5,5,0.7,1
2026-03-16T1800,4290A,120.196923,35.954556,青岛市,珠江路669号,,49,48,95,34,72,101,101,99,99,33,54,5,7,0.4,0.6
2026-03-16T1800,4291A,120.0424,35.8656,青岛市,黄岛区人民政府广场,,45,44,87,31,63,110,110,96,96,15,39,6,8,0.5,0.7
2026-03-16T1800,1703A,113.0218,23.7086,清远市,凤城街办,臭氧1小时(O3_1h),73,31,58,17,35,178,178,143,143,19,30,/,/,/,/
2026-03-16T1800,3025A,113.0479,23.6343,清远市,技师学院,臭氧1小时(O3_1h),73,31,68,14,35,178,178,147,147,18,42,5,7,0.3,0.4
2026-03-16T1800,3318A,112.9898,23.7403,清远市,清新太和,臭氧1小时(O3_1h),99,38,55,18,32,199,199,165,165,21,27,6,8,0.4,0.4
2026-03-16T1800,3455A,113.076,23.72,清远市,清城东城,臭氧1小时(O3_1h),75,35,64,18,37,180,180,147,147,17,26,/,/,/,/
2026-03-16T1800,2661A,107.6325,35.7357,庆阳市,庆阳五中,颗粒物(PM10),61,65,73,27,32,88,88,86,86,13,15,6,7,0.4,0.4
2026-03-16T1800,2662A,107.6361,35.7067,庆阳市,市环保局,颗粒物(PM10),55,56,73,24,32,89,89,88,88,14,14,6,7,0.4,0.4
2026-03-16T1800,1916A,103.7897,25.5036,曲靖市,环境监测站,NA,NA,46,27,23,16,128,128,116,116,10,12,6,7,NA,0.6
2026-03-16T1800,1917A,103.8013,25.5357,曲靖市,烟厂办公区,,43,43,27,18,16,116,116,106,106,8,9,5,4,0.5,0.5
2026-03-16T1800,3376A,103.7926,25.4651,曲靖市,南苑二区,,38,38,22,22,16,117,117,104,104,11,11,4,4,0.4,0.6
2026-03-16T1800,3377A,103.7442,25.5259,曲靖市,曲靖师范学院,颗粒物(PM10),55,56,28,24,18,125,125,114,114,8,9,2,2,0.3,0.3
2026-03-16T1800,1264A,118.8694,28.94,衢州市,环保大楼,"颗粒物(PM10),细颗粒物(PM2.5)",60,64,81,40,52,128,128,132,132,22,20,/,/,/,/
2026-03-16T1800,1266A,118.8622,28.9809,衢州市,衢州学院,颗粒物(PM10),55,56,72,37,50,127,127,133,133,22,21,6,6,0.6,0.6
2026-03-16T1800,4097A,118.9646,28.9832,衢州市,衢州三中,,50,50,76,34,51,124,124,132,132,22,21,7,6,0.6,0.7
2026-03-16T1800,1611A,118.5818,24.9116,泉州市,涂山街,,48,48,36,17,18,77,77,87,87,14,16,3,3,0.4,0.5
2026-03-16T1800,1612A,118.597,24.8976,泉州市,津头埔,,50,50,34,17,16,82,82,94,94,16,13,2,3,0.4,0.5
2026-03-16T1800,1613A,118.6669,24.9422,泉州市,万安,,33,33,32,12,14,79,79,88,88,6,12,3,4,0.4,0.4
2026-03-16T1800,4105A,118.6355,24.9148,泉州市,霞新路6号,,24,24,29,10,13,76,76,88,88,7,13,/,/,0.4,0.4
2026-03-16T1800,2626A,88.8873,29.2723,日喀则市,日喀则监测站,,32,27,20,7,8,100,100,110,110,4,6,8,8,0.3,0.4
2026-03-16T1800,3726A,88.8775,29.2425,日喀则市,林业技术推广中心,颗粒物(PM10),67,73,27,3,4,100,100,110,110,3,4,5,10,0.2,0.4
2026-03-16T1800,1659A,119.4711,35.421,日照市,监测站,颗粒物(PM10),56,58,74,25,53,72,72,93,93,49,52,10,9,0.6,0.8
2026-03-16T1800,1660A,119.523,35.4216,日照市,市政府广场,,48,48,78,22,57,102,102,106,106,26,38,6,6,0.5,0.6
2026-03-16T1800,1661A,119.5511,35.4113,日照市,港务局,颗粒物(PM10),51,51,85,33,60,108,108,106,106,25,36,5,5,0.6,0.7
2026-03-16T1800,3507A,119.5326,35.4627,日照市,职业技术学院,颗粒物(PM10),56,58,72,32,54,109,109,109,109,24,33,8,7,0.7,0.8
2026-03-16T1800,3604A,119.3267,35.1043,日照市,岚山环保分局,颗粒物(PM10),58,61,85,35,56,89,89,100,100,32,34,10,11,0.7,0.9
2026-03-16T1800,1835A,111.1922,34.7752,三门峡市,市政府,,36,36,51,24,40,61,61,69,69,20,16,8,8,0.6,0.7
2026-03-16T1800,1836A,111.1588,34.794,三门峡市,开发区,细颗粒物(PM2.5),52,46,69,36,51,66,66,71,71,13,14,10,11,0.8,0.8
2026-03-16T1800,3039A,111.1911,34.7829,三门峡市,三门峡市第一小学,,49,39,51,34,44,64,64,71,71,16,15,12,10,0.6,0.6
2026-03-16T1800,3598A,111.1031,34.719,三门峡市,富达温泉假日酒店,,46,33,55,32,44,60,60,67,67,18,19,10,11,0.5,0.6
2026-03-16T1800,2324A,117.621,26.2626,三明市,三钢,,42,38,33,21,26,132,132,130,130,17,22,8,7,0.7,0.6
2026-03-16T1800,2325A,117.6352,26.2714,三明市,三明二中,,39,36,33,22,23,124,124,127,127,19,20,8,8,0.8,0.6
2026-03-16T1800,2326A,117.6028,26.2377,三明市,三元区政府,NA,NA,54,41,NA,29,116,116,130,129,19,26,5,8,0.6,0.8
2026-03-16T1800,1877A,109.4962,18.2682,三亚市,河西子站,,37,37,34,13,16,91,91,96,95,4,4,4,4,0.4,0.4
2026-03-16T1800,3540A,109.7348,18.3443,三亚市,君悦子站,,45,45,46,15,16,89,89,93,93,4,5,4,4,0.4,0.4
2026-03-16T1800,4135A,109.1714,18.3739,三亚市,城东小学站,,28,28,29,17,17,88,88,100,99,10,8,/,/,/,/
2026-03-16T1800,2624A,91.7592,29.234,山南市,山南监测站,,50,50,21,7,5,108,108,104,104,1,5,3,10,0.2,0.3
2026-03-16T1800,2625A,91.7701,29.2436,山南市,山南人民医院,颗粒物(PM10),97,115,27,9,6,108,108,104,104,2,5,5,6,0.3,0.3
2026-03-16T1800,1674A,116.6795,23.3666,汕头市,金平子站,,35,33,34,11,18,111,111,119,119,6,11,4,5,0.6,0.6
2026-03-16T1800,1675A,116.7248,23.3632,汕头市,龙湖子站,,36,36,32,12,17,104,104,113,113,12,14,5,6,/,/
2026-03-16T1800,1676A,116.7257,23.2774,汕头市,濠江子站,,35,35,36,14,25,99,99,105,105,11,13,7,8,/,/
2026-03-16T1800,1677A,116.7518,23.4712,汕头市,澄海子站,颗粒物(PM10),53,54,38,14,20,106,106,112,112,11,13,6,9,0.6,0.6
2026-03-16T1800,1678A,116.6088,23.2539,汕头市,潮阳子站,,42,42,30,16,17,107,107,114,114,8,8,6,6,0.6,0.5
2026-03-16T1800,3444A,116.4539,23.2684,汕头市,潮南峡山,,38,30,40,16,21,120,120,125,125,5,8,6,7,0.6,0.6
2026-03-16T1800,3624A,116.4069,23.2533,汕头市,潮南子站,,49,49,53,23,28,97,97,110,110,13,13,6,7,/,/
2026-03-16T1800,1693A,115.3653,22.7751,汕尾市,市环保局,,41,32,38,20,21,130,130,124,124,11,13,6,7,0.5,0.5
2026-03-16T1800,1695A,115.362,22.7926,汕尾市,新城中学,,41,36,38,17,22,130,130,128,128,9,12,7,7,0.4,0.4
2026-03-16T1800,2645A,109.9155,33.8714,商洛市,监测站,,19,16,30,10,19,58,58,79,78,22,22,8,8,0.7,0.6
2026-03-16T1800,3045A,109.9647,33.8486,商洛市,商州区中学,,33,33,25,10,18,51,51,73,73,20,21,6,6,0.7,0.7
2026-03-16T1800,2408A,115.6701,34.4283,商丘市,环境监测站,细颗粒物(PM2.5),150,NA,96,114,93,79,79,63,63,17,21,1,2,0.7,0.7
2026-03-16T1800,2409A,115.6458,34.4047,商丘市,粮食局,细颗粒物(PM2.5),142,NA,84,106,90,81,81,64,64,22,21,1,1,0.7,0.6
2026-03-16T1800,3171A,115.6069,34.4465,商丘市,梁园区档案局,细颗粒物(PM2.5),130,NA,80,93,79,92,92,68,68,18,27,1,2,0.6,0.6
2026-03-16T1800,4119A,115.6701,34.3767,商丘市,北海东路185号,细颗粒物(PM2.5),145,124,104,109,89,74,74,61,61,18,24,3,2,0.6,0.6
