timepoint,stationcode,longitude,latitude,area,positionname,primarypollutant,aqi,pm10,pm10_24h,pm2_5,pm2_5_24h,o3,o3_24h,o3_8h,o3_8h_24h,no2,no2_24h,so2,so2_24h,co,co_24h
2022-05-21T15:00:00,1001A,116.3621,39.8784,北京市,万寿西宫,臭氧1小时,109,43,84,26,35,261,218,201,201,13,20,2,2,0.5,0.7
2022-05-21T15:00:00,1002A,116.2202,40.2915,北京市,定陵(对照点),臭氧1小时,110,47,68,19,36,219,219,171,171,16,17,3,2,0.3,0.4
2022-05-21T15:00:00,1003A,116.4174,39.9289,北京市,东四,臭氧1小时,120,51,92,25,41,261,239,207,207,11,22,3,3,0.4,0.6
2022-05-21T15:00:00,1004A,116.4072,39.8863,北京市,天坛,臭氧1小时,115,44,81,25,38,257,229,198,198,19,23,2,2,0.3,0.6
2022-05-21T15:00:00,1005A,116.462,39.9365,北京市,农展馆,臭氧1小时,121,49,90,25,36,262,242,204,204,17,29,4,4,0.0,0.5
2022-05-21T15:00:00,1006A,116.3392,39.9295,北京市,官园,臭氧1小时,122,53,82,30,39,270,243,212,212,17,24,6,7,0.4,0.6
2022-05-21T15:00:00,1008A,116.6636,40.135,北京市,顺义新城,臭氧1小时,88,40,81,29,33,193,190,156,156,8,14,1,2,0.4,0.5
2022-05-21T15:00:00,1009A,116.6275,40.3275,北京市,怀柔镇,臭氧1小时,103,38,71,19,37,226,205,184,184,11,14,1,2,0.4,0.5
2022-05-21T15:00:00,1010A,116.2296,40.217,北京市,昌平镇,臭氧1小时,107,42,86,24,41,223,214,167,167,13,20,1,2,0.4,0.5
2022-05-21T15:00:00,1011A,116.3966,39.9821,北京市,奥体中心,臭氧1小时,116,53,103,28,39,242,232,196,196,13,23,3,3,0.3,0.5
2022-05-21T15:00:00,1012A,116.184,39.9136,北京市,古城,臭氧1小时,115,57,79,25,37,255,230,209,209,9,16,3,3,0.4,0.5
2022-05-21T15:00:00,1015A,117.1444,39.1661,天津市,勤俭道,臭氧1小时,103,41,72,15,31,234,205,157,157,12,17,11,13,0.8,0.9
2022-05-21T15:00:00,1018A,117.202,39.0927,天津市,前进道,臭氧1小时,87,48,65,21,30,201,189,140,140,11,19,9,12,0.7,0.8
2022-05-21T15:00:00,1019A,117.1837,39.2133,天津市,淮河道,臭氧1小时,104,50,77,17,34,242,207,166,166,11,18,8,11,0.2,0.4
2022-05-21T15:00:00,1021A,117.307,39.0877,天津市,跃进路,臭氧1小时,101,43,71,22,29,218,201,148,148,11,19,10,10,0.5,0.6
2022-05-21T15:00:00,1023A,117.707,39.0343,天津市,第四大街,臭氧1小时,102,61,79,23,32,204,204,143,143,16,24,10,10,0.8,0.7
2022-05-21T15:00:00,1024A,117.457,38.8394,天津市,永明路,臭氧1小时,90,34,60,15,29,196,192,148,148,9,18,11,13,0.4,0.5
2022-05-21T15:00:00,1026A,117.764,39.1587,天津市,汉北路,臭氧1小时,104,47,70,15,28,235,208,153,153,10,24,12,13,1.1,1.3
2022-05-21T15:00:00,1027A,117.157,38.9194,天津市,团泊洼(对照点),臭氧1小时,106,34,65,36,35,219,212,156,156,11,19,10,11,1.0,1
2022-05-21T15:00:00,1029A,114.4422,38.0444,石家庄市,职工医院,臭氧1小时,100,50,73,14,25,216,200,142,142,21,59,12,13,0.7,0.9
2022-05-21T15:00:00,1030A,114.6063,38.0266,石家庄市,高新区,臭氧1小时,90,50,87,20,32,210,192,120,120,11,53,11,12,0.5,0.6
2022-05-21T15:00:00,1031A,114.4898,38.1328,石家庄市,西北水源,臭氧1小时,89,56,72,37,31,208,191,142,142,13,41,9,15,0.7,0.8
2022-05-21T15:00:00,1032A,114.4586,38.0058,石家庄市,西南高教,臭氧1小时,83,42,98,23,38,208,186,119,119,19,60,8,9,0.9,0.9
2022-05-21T15:00:00,1033A,114.5331,38.0178,石家庄市,世纪公园,臭氧1小时,80,62,90,20,33,191,184,112,112,7,46,7,8,0.9,0.9
2022-05-21T15:00:00,1034A,114.509,38.0457,石家庄市,人民会堂,臭氧1小时,100,49,74,28,28,220,200,141,141,14,59,13,15,0.7,0.9
2022-05-21T15:00:00,1035A,114.3524,37.8911,石家庄市,封龙山(对照点),臭氧1小时,83,47,44,15,19,209,186,158,158,9,6,15,13,0.9,0.7
2022-05-21T15:00:00,1037A,118.131,39.6363,唐山市,雷达站,臭氧1小时,107,83,81,24,34,220,214,160,160,6,22,4,6,0.4,0.6
2022-05-21T15:00:00,1038A,118.1725,39.6334,唐山市,物资局,臭氧1小时,108,75,86,24,32,220,215,162,162,13,32,5,7,0.5,0.6
2022-05-21T15:00:00,1040A,118.1705,39.6506,唐山市,十二中,臭氧1小时,103,58,74,29,40,212,206,158,158,12,27,6,8,0.4,0.6
2022-05-21T15:00:00,1041A,118.1869,39.622,唐山市,小山,臭氧1小时,109,65,87,18,24,226,217,157,157,10,43,7,9,0.4,0.6
2022-05-21T15:00:00,1042A,119.5134,39.8207,秦皇岛市,北戴河环保局,臭氧1小时,107,118,92,40,39,224,213,162,162,10,27,11,16,1.3,1.5
2022-05-21T15:00:00,1043A,119.7493,40.0116,秦皇岛市,第一关,臭氧1小时,108,106,89,36,46,237,215,186,186,26,38,20,22,0.9,1
2022-05-21T15:00:00,1044A,119.5897,39.9499,秦皇岛市,监测站,臭氧1小时,117,46,84,19,44,253,233,197,197,15,44,11,16,0.6,0.8
2022-05-21T15:00:00,1046A,119.5251,39.9041,秦皇岛市,建设大厦,臭氧1小时,112,44,86,18,37,240,223,188,188,12,32,8,17,0.7,1.3
2022-05-21T15:00:00,1048A,114.5302,36.6116,邯郸市,东污水处理厂,臭氧1小时,105,54,47,44,32,209,209,155,155,9,22,10,12,0.5,0.7
2022-05-21T15:00:00,1049A,114.4918,36.5713,邯郸市,矿院,臭氧1小时,107,70,64,34,31,213,213,147,147,2,17,8,10,0.5,0.7
2022-05-21T15:00:00,1050A,114.484,36.6133,邯郸市,丛台公园,臭氧1小时,103,45,58,32,30,206,206,154,154,13,19,9,12,0.6,0.8
2022-05-21T15:00:00,1051A,115.493,38.8632,保定市,游泳馆,臭氧1小时,102,50,73,11,32,228,204,122,122,12,35,17,17,0.4,0.6
2022-05-21T15:00:00,1053A,115.4713,38.9108,保定市,接待中心,臭氧1小时,102,45,76,22,38,235,204,127,127,15,38,11,11,0.7,1
2022-05-21T15:00:00,1054A,115.4612,38.8416,保定市,地表水厂,臭氧1小时,103,63,80,24,30,223,205,119,119,14,29,13,13,0.6,0.8
2022-05-21T15:00:00,1055A,115.4323,38.8697,保定市,胶片厂,臭氧1小时,106,47,73,10,35,230,211,125,125,12,29,16,15,0.6,0.9
2022-05-21T15:00:00,1056A,115.5086,38.8639,保定市,监测站,臭氧1小时,95,68,88,17,36,225,196,123,123,14,29,10,12,0.5,0.8
2022-05-21T15:00:00,1057A,114.8883,40.8336,张家口市,人民公园,,45,16,31,1,5,151,142,116,116,5,9,5,4,0.3,0.3
2022-05-21T15:00:00,1059A,114.8687,40.8042,张家口市,五金库,,44,29,41,5,13,154,138,114,114,5,9,5,5,0.4,0.4
2022-05-21T15:00:00,1060A,114.8902,40.762,张家口市,世纪豪园,,44,16,33,2,13,153,140,113,113,10,15,6,4,0.3,0.3
2022-05-21T15:00:00,1061A,114.8916,40.8661,张家口市,北泵房(对照点),,,2,31,2,13,,,,,6,7,,,,
2022-05-21T15:00:00,1062A,117.9531,40.9081,承德市,铁路,,44,44,68,18,33,195,118,134,134,9,25,7,10,0.2,0.5
2022-05-21T15:00:00,1063A,117.9392,40.9763,承德市,中国银行,,,,47,8,28,190,123,139,139,5,21,4,4,0.2,0.4
2022-05-21T15:00:00,1064A,117.9503,40.928,承德市,开发区,,46,46,66,19,30,216,130,144,144,6,28,8,11,0.3,0.7
2022-05-21T15:00:00,1065A,117.8051,40.9655,承德市,文化中心,颗粒物(PM10),52,53,62,12,34,190,128,146,146,3,16,6,13,0.2,0.6
2022-05-21T15:00:00,1066A,117.9268,41.0026,承德市,离宫(对照点),,,,51,12,27,199,125,141,141,2,16,7,7,0.3,0.4
2022-05-21T15:00:00,1067A,116.6708,39.5111,廊坊市,药材公司,臭氧1小时,101,53,80,21,35,233,201,151,151,14,32,8,9,0.6,0.6
2022-05-21T15:00:00,1068A,116.7214,39.5589,廊坊市,开发区,臭氧1小时,101,53,75,29,41,226,202,151,151,13,25,9,9,0.4,0.5
2022-05-21T15:00:00,1070A,116.7244,39.5269,廊坊市,北华航天学院,臭氧1小时,93,65,88,20,42,222,194,149,149,14,26,9,10,0.3,0.5
2022-05-21T15:00:00,1071A,116.8842,38.2991,沧州市,沧县城建局,臭氧1小时,83,52,60,21,29,186,186,151,151,13,22,10,12,0.6,0.5
2022-05-21T15:00:00,1072A,116.8584,38.3254,沧州市,电视转播站,臭氧1小时,64,51,55,19,25,171,171,140,140,15,18,7,10,0.5,0.5
2022-05-21T15:00:00,1073A,116.8709,38.3228,沧州市,市环保局,臭氧1小时,92,58,60,30,31,194,193,158,158,22,26,8,9,0.6,0.6
2022-05-21T15:00:00,1074A,115.6838,37.7541,衡水市,电机北厂,臭氧1小时,102,70,74,19,26,212,204,156,156,6,14,9,12,0.4,0.6
2022-05-21T15:00:00,1075A,115.6303,37.7316,衡水市,市监测站,臭氧1小时,95,56,73,20,27,207,196,149,149,10,19,15,16,0.5,0.6
2022-05-21T15:00:00,1077A,114.4704,37.0886,邢台市,达活泉,臭氧1小时,106,56,54,38,22,242,212,165,165,10,22,8,12,0.6,1.1
2022-05-21T15:00:00,1078A,114.5062,37.0349,邢台市,邢师高专,臭氧1小时,105,45,55,27,29,236,210,161,161,5,29,5,9,0.4,0.9
2022-05-21T15:00:00,1079A,114.5237,37.0851,邢台市,路桥公司,臭氧1小时,101,41,58,22,25,224,201,160,160,14,27,9,16,0.5,1.1
2022-05-21T15:00:00,1081A,112.5139,37.8873,太原市,尖草坪,,50,41,81,16,33,187,159,117,117,11,46,6,10,0.3,0.6
2022-05-21T15:00:00,1083A,112.434,38.0108,太原市,上兰(对照点),颗粒物(PM10),54,58,46,24,23,155,150,112,112,21,17,10,8,0.7,0.5
2022-05-21T15:00:00,1084A,112.469,37.7124,太原市,晋源,,49,32,69,19,27,169,154,106,106,11,50,4,7,0.4,0.6
2022-05-21T15:00:00,1085A,112.5583,37.7394,太原市,小店,臭氧1小时,77,44,83,18,32,184,181,124,124,13,57,7,11,0.4,0.6
2022-05-21T15:00:00,1086A,112.5369,37.8692,太原市,桃园,,50,25,72,14,27,193,160,121,121,7,51,5,9,0.3,0.6
2022-05-21T15:00:00,1087A,112.57,37.8195,太原市,坞城,臭氧1小时,68,48,80,26,32,188,174,127,127,14,55,7,10,0.3,0.6
2022-05-21T15:00:00,1088A,112.549,37.9854,太原市,南寨,颗粒物(PM10),53,55,83,30,29,167,158,98,98,25,49,16,13,0.9,0.8
2022-05-21T15:00:00,1090A,111.6507,40.7517,呼和浩特市,呼市一监,颗粒物(PM10),54,58,78,16,25,158,146,108,108,10,35,8,7,0.3,0.4
2022-05-21T15:00:00,1091A,111.6572,40.8033,呼和浩特市,小召,,43,39,63,15,28,136,136,98,98,27,54,6,7,0.4,0.6
2022-05-21T15:00:00,1094A,111.7516,40.8369,呼和浩特市,如意水处理厂,,49,33,70,10,21,156,156,115,115,10,43,8,9,0.4,0.5
2022-05-21T15:00:00,1095A,111.7276,40.8062,呼和浩特市,二十九中,颗粒物(PM10),54,57,68,14,18,153,153,112,112,14,44,8,9,0.5,0.6
2022-05-21T15:00:00,1096A,111.5512,40.7866,呼和浩特市,工大金川校区,,45,37,60,13,19,144,144,97,97,11,34,6,8,0.3,0.4
2022-05-21T15:00:00,1097A,111.717,40.7612,呼和浩特市,化肥厂生活区,,47,47,73,24,23,148,148,109,109,10,32,10,11,0.4,0.5
2022-05-21T15:00:00,1098A,123.6836,41.9339,沈阳市,森林路(对照点),,39,28,57,17,33,189,122,152,152,7,17,9,15,0.3,0.8
2022-05-21T15:00:00,1099A,123.505,41.7406,沈阳市,浑南东路,,50,15,61,14,33,221,157,176,176,13,19,14,24,0.5,0.8
2022-05-21T15:00:00,1100A,123.4231,41.6989,沈阳市,新秀街,臭氧1小时,67,54,67,25,34,209,173,172,172,27,26,10,24,0.8,0.9
2022-05-21T15:00:00,1102A,123.5903,41.8411,沈阳市,东陵路,,43,38,66,26,33,207,137,160,160,12,22,13,18,0.8,0.9
2022-05-21T15:00:00,1103A,123.4264,41.8467,沈阳市,陵东街,,45,40,59,14,32,199,142,162,162,19,20,8,15,0.6,0.8
2022-05-21T15:00:00,1104A,123.4114,41.7653,沈阳市,文化路,,50,37,74,19,39,223,157,172,172,14,16,8,22,0.6,0.8
2022-05-21T15:00:00,1105A,123.4678,41.7867,沈阳市,小河沿,,44,34,66,16,34,216,139,164,164,17,20,7,18,0.5,0.8
2022-05-21T15:00:00,1106A,123.4017,41.7972,沈阳市,太原街,臭氧1小时,53,40,79,18,38,227,162,180,180,17,22,8,18,0.6,0.9
2022-05-21T15:00:00,1108A,123.3783,41.9228,沈阳市,京沈街,,47,47,84,16,35,191,149,162,162,16,21,10,17,0.6,0.8
2022-05-21T15:00:00,1109A,121.612,38.9741,大连市,甘井子,臭氧1小时,93,40,94,30,56,194,194,128,128,15,51,16,10,0.6,0.6
2022-05-21T15:00:00,1110A,121.565,38.9511,大连市,周水子,,,42,91,15,54,196,196,107,107,,31,13,12,,1.4
2022-05-21T15:00:00,1111A,121.5637,38.8845,大连市,星海三站,臭氧1小时,122,63,71,42,58,244,244,170,170,28,28,,7,1.0,0.9
2022-05-21T15:00:00,1112A,121.6302,38.9117,大连市,青泥洼桥,臭氧1小时,108,38,78,30,45,216,216,166,166,19,23,16,11,0.7,0.6
2022-05-21T15:00:00,1113A,121.6251,38.8638,大连市,傅家庄,臭氧1小时,133,110,59,89,47,265,265,158,158,21,15,15,5,1.2,0.8
2022-05-21T15:00:00,1114A,121.5213,38.8661,大连市,七贤岭,,,50,54,,,364,,35,15,,28,,15,0.1,0.6
2022-05-21T15:00:00,1115A,121.2529,38.8061,大连市,旅顺,臭氧1小时,107,55,43,44,34,214,214,156,156,40,22,16,10,0.9,0.8
2022-05-21T15:00:00,1116A,121.7485,39.1311,大连市,金州,颗粒物(PM10),52,53,74,27,38,153,153,102,102,16,29,16,10,0.9,0.7
2022-05-21T15:00:00,1117A,121.7811,39.0496,大连市,开发区,臭氧1小时,112,61,65,37,44,223,223,125,125,36,42,15,8,1.1,0.9
2022-05-21T15:00:00,1118A,121.9762,39.0631,大连市,双D港,,45,18,27,28,20,142,142,121,121,19,13,9,7,0.9,0.8
2022-05-21T15:00:00,1119A,125.3325,43.9166,长春市,食品厂,,35,27,72,5,31,151,112,140,110,15,20,6,8,0.4,0.6
2022-05-21T15:00:00,1120A,125.2863,43.9027,长春市,客车厂,,36,30,85,14,31,143,114,134,112,12,19,5,8,0.5,0.8
2022-05-21T15:00:00,1121A,125.2841,43.8463,长春市,邮电学院,,38,29,93,10,48,142,121,135,118,6,15,1,4,0.3,0.6
2022-05-21T15:00:00,1122A,125.3716,43.8772,长春市,劳动公园,,38,36,76,8,32,158,119,150,119,8,13,2,4,0.4,0.6
2022-05-21T15:00:00,1123A,125.3297,43.8805,长春市,园林处,,38,22,59,10,29,149,121,144,121,4,15,5,8,0.3,0.6
2022-05-21T15:00:00,1124A,125.4605,43.79,长春市,净月潭,,37,32,50,6,26,145,118,126,117,3,8,6,8,0.4,0.6
2022-05-21T15:00:00,1125A,125.7194,43.515,长春市,甩湾子(对照点),,43,29,51,4,24,152,136,132,132,5,11,8,10,0.4,0.7
2022-05-21T15:00:00,1126A,125.3863,43.8447,长春市,经开区环卫处,,39,4,61,6,30,161,124,151,128,3,11,7,10,0.4,0.7
2022-05-21T15:00:00,1127A,125.245,43.7783,长春市,高新区管委会,,41,16,64,9,30,154,130,143,125,6,14,5,7,0.2,0.5
2022-05-21T15:00:00,1128A,125.1761,43.8325,长春市,岱山公园,颗粒物(PM10),59,68,76,12,39,139,118,130,111,8,16,5,8,0.3,0.6
2022-05-21T15:00:00,1129A,126.5422,45.755,哈尔滨市,岭北(对照点),,33,20,28,6,12,113,104,97,97,8,14,10,10,0.2,0.3
2022-05-21T15:00:00,1130A,126.561,45.8167,哈尔滨市,松北商大,,,,23,2,12,113,,99,99,8,12,3,4,,0.5
2022-05-21T15:00:00,1131A,126.979,45.5419,哈尔滨市,阿城会宁,,35,35,29,13,24,107,105,100,100,15,19,14,13,0.9,0.8
2022-05-21T15:00:00,1132A,126.599,45.7222,哈尔滨市,南岗学府路,,35,13,26,3,11,122,111,106,106,5,14,6,7,0.6,0.7
2022-05-21T15:00:00,1133A,126.689,45.7733,哈尔滨市,太平宏伟公园,,38,38,49,12,19,120,111,104,104,11,18,16,16,0.4,0.5
2022-05-21T15:00:00,1134A,126.635,45.7667,哈尔滨市,道外承德广场,,35,32,40,13,15,123,112,104,104,14,21,7,7,0.3,0.4
2022-05-21T15:00:00,1135A,126.685,45.7319,哈尔滨市,香坊红旗大街,,34,31,50,11,18,118,108,101,101,8,19,8,11,0.5,0.6
2022-05-21T15:00:00,1136A,126.6411,45.7258,哈尔滨市,动力和平路,,34,16,37,13,15,117,108,102,102,3,10,9,10,0.3,0.3
2022-05-21T15:00:00,1137A,126.593,45.7478,哈尔滨市,道里建国路,,30,16,33,11,17,97,96,89,89,11,18,15,19,0.4,0.5
2022-05-21T15:00:00,1138A,126.615,45.61,哈尔滨市,平房东轻厂,,44,44,35,12,15,116,99,97,97,10,20,6,14,0.3,0.8
2022-05-21T15:00:00,1139A,126.595,45.9855,哈尔滨市,呼兰师专,,,26,28,,12,115,101,94,94,13,13,9,9,0.4,0.5
2022-05-21T15:00:00,1140A,126.6206,45.6842,哈尔滨市,省农科院,,35,14,38,9,16,126,111,106,106,7,15,8,9,0.5,0.6
2022-05-21T15:00:00,1141A,121.4,31.238,上海市,普陀,,46,27,20,8,13,146,146,116,116,11,18,3,2,0.9,0.9
2022-05-21T15:00:00,1142A,121.478,31.2036,上海市,十五厂,,41,13,13,9,10,131,131,121,121,8,11,5,5,1.0,1
2022-05-21T15:00:00,1143A,121.467,31.3008,上海市,虹口,,37,19,15,13,14,122,118,102,102,6,20,5,5,1.2,1.2
2022-05-21T15:00:00,1144A,121.412,31.1654,上海市,徐汇上师大,,40,16,20,0,12,128,126,105,105,5,10,6,6,1.0,1.2
2022-05-21T15:00:00,1145A,121.536,31.2659,上海市,杨浦四漂,,39,7,7,9,11,125,124,109,109,3,13,6,8,0.1,0.2
2022-05-21T15:00:00,1147A,121.425,31.2261,上海市,静安监测站,,43,16,19,10,15,136,136,112,112,13,20,5,5,0,0.1
2022-05-21T15:00:00,1148A,121.703,31.1907,上海市,浦东川沙,,35,17,19,14,11,117,112,110,110,12,18,4,4,1.1,1.1
2022-05-21T15:00:00,1149A,121.533,31.2284,上海市,浦东新区监测站,,39,18,18,10,14,126,124,107,107,6,17,5,5,0.6,0.6
2022-05-21T15:00:00,1150A,121.577,31.2071,上海市,浦东张江,,33,8,10,12,14,106,105,95,95,8,15,3,3,0.6,0.7
2022-05-21T15:00:00,1151A,118.8086,32.1065,南京市,迈皋桥,臭氧1小时,106,53,80,24,47,211,211,142,142,30,44,7,8,0.6,0.8
2022-05-21T15:00:00,1152A,118.7538,32.0551,南京市,草场门,臭氧1小时,115,44,76,29,49,230,230,149,149,15,34,3,6,0.2,0.5
2022-05-21T15:00:00,1153A,118.7794,32.0745,南京市,山西路,臭氧1小时,120,63,87,27,53,240,240,162,162,12,38,6,7,0.2,0.5
2022-05-21T15:00:00,1154A,118.7752,32.0023,南京市,中华门,臭氧1小时,115,63,88,24,48,242,230,160,160,4,25,5,5,0.5,0.7
2022-05-21T15:00:00,1155A,118.8109,32.0309,南京市,瑞金路,臭氧1小时,112,55,96,31,50,236,223,156,156,11,25,8,8,0.6,0.7
2022-05-21T15:00:00,1156A,118.7997,32.0754,南京市,玄武湖,臭氧1小时,112,36,62,27,48,223,223,147,147,15,32,3,5,0.6,0.9
2022-05-21T15:00:00,1157A,118.6414,32.0931,南京市,浦口,臭氧1小时,116,53,85,24,59,232,232,155,155,14,36,9,7,0.4,0.6
2022-05-21T15:00:00,1158A,118.7356,31.9996,南京市,奥体中心,臭氧1小时,111,58,86,36,51,231,222,149,149,11,34,7,6,0.8,0.9
2022-05-21T15:00:00,1159A,118.9125,32.1028,南京市,仙林大学城,臭氧1小时,124,51,73,31,49,248,248,168,168,10,25,13,10,0.8,0.9
2022-05-21T15:00:00,1160A,120.561,31.2472,苏州市,上方山(对照点),,,15,31,17,26,142,,101,101,16,28,5,5,0.5,0.5
2022-05-21T15:00:00,1162A,120.591,31.3019,苏州市,彩香,臭氧1小时,63,25,36,11,35,170,170,123,123,7,30,5,6,0.3,0.4
2022-05-21T15:00:00,1163A,120.596,31.3264,苏州市,轧钢厂,臭氧1小时,68,18,40,10,21,174,174,124,124,12,33,6,7,0.5,0.6
2022-05-21T15:00:00,1164A,120.613,31.2703,苏州市,吴中区,臭氧1小时,70,21,37,13,30,176,176,121,121,12,35,5,6,0.4,0.6
2022-05-21T15:00:00,1165A,120.543,31.2994,苏州市,苏州新区,臭氧1小时,65,19,37,11,50,172,172,123,123,7,34,5,6,0.5,0.6
2022-05-21T15:00:00,1166A,120.669,31.3097,苏州市,苏州工业园区,臭氧1小时,60,22,27,19,17,168,168,115,115,10,23,5,6,0.5,0.6
2022-05-21T15:00:00,1167A,120.641,31.3708,苏州市,相城区,臭氧1小时,57,24,34,14,28,165,165,119,119,7,28,5,6,0.5,0.6
2022-05-21T15:00:00,1168A,120.9098,31.9663,南通市,狼山街道,,41,41,29,9,13,175,124,119,119,26,15,11,10,0.5,0.6
2022-05-21T15:00:00,1169A,120.86,32.0005,南通市,虹桥,臭氧1小时,89,47,30,22,26,199,191,143,143,27,18,6,6,0.5,0.5
2022-05-21T15:00:00,1170A,120.87,32.02,南通市,城中,臭氧1小时,60,47,31,22,28,180,168,128,128,22,18,9,8,0.4,0.4
2022-05-21T15:00:00,1171A,120.94,31.93,南通市,星湖花园,,38,31,27,12,16,152,121,113,113,13,18,9,9,0.5,0.6
2022-05-21T15:00:00,1172A,120.81,32.0417,南通市,紫琅学院,,50,47,37,24,18,158,158,113,113,46,35,7,7,0.4,0.5
2022-05-21T15:00:00,1173A,119.176,34.5885,连云港市,市环境监测站,臭氧1小时,110,63,76,34,38,224,219,163,163,10,17,9,11,0.2,0.4
2022-05-21T15:00:00,1177A,117.179,34.2761,徐州市,黄河新村,臭氧1小时,79,61,61,23,26,183,183,148,148,11,25,6,9,0.4,0.4
2022-05-21T15:00:00,1178A,117.1918,34.2384,徐州市,淮塔,臭氧1小时,88,52,46,24,25,190,190,158,158,9,14,9,11,0.5,0.5
2022-05-21T15:00:00,1180A,117.256,34.2153,徐州市,新城区,臭氧1小时,101,63,64,28,26,201,201,160,160,13,31,8,9,0.6,0.6
2022-05-21T15:00:00,1181A,117.244,34.2911,徐州市,桃园路,臭氧1小时,92,61,71,22,27,193,193,149,149,14,34,10,13,0.8,0.6
2022-05-21T15:00:00,1186A,119.389,32.3761,扬州市,邗江监测站,臭氧1小时,115,73,92,38,45,237,229,173,173,15,20,11,13,0.7,0.9
2022-05-21T15:00:00,1188A,120.269,31.4867,无锡市,雪浪,臭氧1小时,117,58,53,31,36,233,233,158,158,7,15,12,8,1.0,0.7
2022-05-21T15:00:00,1189A,120.275,31.6219,无锡市,黄巷,臭氧1小时,110,51,61,29,35,219,219,147,147,15,38,9,8,0.8,0.6
2022-05-21T15:00:00,1190A,120.294,31.56,无锡市,曹张,臭氧1小时,103,43,50,36,31,205,205,139,139,11,35,8,7,1.1,0.9
2022-05-21T15:00:00,1191A,120.242,31.5031,无锡市,漆塘,臭氧1小时,97,56,46,40,32,197,197,140,140,12,23,9,6,1.0,0.6
2022-05-21T15:00:00,1192A,120.3489,31.5863,无锡市,东亭,臭氧1小时,99,68,56,39,35,199,199,138,138,11,23,11,9,1.0,0.9
2022-05-21T15:00:00,1193A,120.354,31.5475,无锡市,旺庄,,,52,54,31,37,199,199,180,180,,33,13,10,1.1,0.9
2022-05-21T15:00:00,1194A,120.245,31.5631,无锡市,荣巷,臭氧1小时,103,63,52,41,39,206,206,140,140,11,20,12,10,0.8,0.6
2022-05-21T15:00:00,1195A,120.299,31.6817,无锡市,堰桥,臭氧1小时,62,53,60,36,38,196,169,140,140,19,35,9,8,0.7,0.9
2022-05-21T15:00:00,1196A,119.9633,31.762,常州市,市监测站,臭氧1小时,110,,114,34,54,219,219,157,157,,36,7,9,0.7,0.9
2022-05-21T15:00:00,1200A,119.9468,31.7069,常州市,武进监测站,臭氧1小时,123,84,108,67,85,245,245,176,176,19,33,12,13,1.1,1
2022-05-21T15:00:00,1201A,119.9255,31.9087,常州市,安家,臭氧1小时,115,42,108,32,80,238,229,177,177,19,47,9,9,0.8,0.9
2022-05-21T15:00:00,1203A,119.6707,32.1875,镇江市,新区办事处,臭氧1小时,114,56,74,46,64,228,228,180,180,26,33,6,10,1.0,1.1
2022-05-21T15:00:00,1204A,119.4974,32.1968,镇江市,职教中心,臭氧1小时,123,60,74,45,73,259,246,199,199,26,23,10,11,0.9,0.9
2022-05-21T15:00:00,1205A,119.4303,32.1328,镇江市,丹徒区监测站,臭氧1小时,122,34,69,24,82,271,244,192,192,15,22,8,8,0.7,1
2022-05-21T15:00:00,1206A,119.905,32.4878,泰州市,公园路,臭氧1小时,65,31,69,29,51,188,172,150,150,9,21,6,8,0.6,0.8
2022-05-21T15:00:00,1207A,119.9189,32.4625,泰州市,莲花,臭氧1小时,73,49,75,36,56,185,178,146,146,8,22,8,10,0.7,0.9
2022-05-21T15:00:00,1209A,119.888,32.4639,泰州市,留学生创业园,臭氧1小时,80,34,78,21,56,196,184,156,156,10,24,7,9,0.6,0.9
2022-05-21T15:00:00,1210A,119.036,33.5981,淮安市,钵池山,臭氧1小时,109,64,54,26,32,218,218,172,172,13,18,10,10,0.8,0.8
2022-05-21T15:00:00,1211A,119.007,33.575,淮安市,北京南路,臭氧1小时,103,73,66,31,37,206,205,165,165,14,20,13,12,0.6,0.5
2022-05-21T15:00:00,1212A,118.989,33.6067,淮安市,市监测站,臭氧1小时,105,70,67,34,35,209,209,165,165,14,22,14,15,0.6,0.7
2022-05-21T15:00:00,1213A,119.135,33.5039,淮安市,楚州区监测站,臭氧1小时,107,63,72,24,44,214,214,165,165,16,24,11,11,0.7,0.7
2022-05-21T15:00:00,1214A,119.0186,33.6297,淮安市,淮阴区监测站,臭氧1小时,97,54,52,30,37,197,197,159,159,11,19,10,11,0.8,0.9
2022-05-21T15:00:00,1215A,120.118,33.4022,盐城市,盐城电厂,臭氧1小时,75,51,52,33,39,180,180,124,124,12,15,11,11,0.6,0.6
2022-05-21T15:00:00,1216A,120.156,33.3942,盐城市,市监测站,臭氧1小时,85,49,45,28,26,188,188,130,130,12,15,8,8,0.1,0.1
2022-05-21T15:00:00,1218A,120.2144,33.38,盐城市,开发区管委会,臭氧1小时,84,59,47,21,31,187,187,128,128,11,15,10,9,0.5,0.4
2022-05-21T15:00:00,1220A,118.293,33.9528,宿迁市,宿迁学院,臭氧1小时,104,59,68,29,34,207,207,160,160,8,33,8,7,0.4,0.5
2022-05-21T15:00:00,1221A,118.2442,33.9592,宿迁市,宿迁中学,臭氧1小时,103,46,55,27,28,205,205,157,157,7,20,8,8,0.4,0.5
2022-05-21T15:00:00,1223A,120.2072,30.2111,杭州市,滨江,臭氧1小时,78,46,46,35,26,182,182,107,107,19,34,4,4,0.5,0.6
2022-05-21T15:00:00,1224A,120.0633,30.2747,杭州市,西溪,臭氧1小时,54,40,34,25,22,163,163,88,88,14,25,9,9,0.8,0.8
2022-05-21T15:00:00,1227A,120.1269,30.2456,杭州市,卧龙桥,臭氧1小时,63,48,33,23,23,170,170,99,99,18,21,5,4,0.6,0.6
2022-05-21T15:00:00,1228A,120.1903,30.2692,杭州市,浙江农大,臭氧1小时,64,42,38,32,35,171,171,96,96,21,32,5,5,0.5,0.5
2022-05-21T15:00:00,1230A,120.1197,30.3119,杭州市,和睦小学,臭氧1小时,77,63,49,32,30,181,181,104,104,23,39,4,3,0.6,0.7
2022-05-21T15:00:00,1231A,120.3019,30.4183,杭州市,临平镇,臭氧1小时,72,39,58,24,32,177,177,123,123,15,43,4,4,0.6,0.7
2022-05-21T15:00:00,1232A,120.2697,30.1819,杭州市,城厢镇,臭氧1小时,68,45,48,27,32,174,174,96,96,20,35,7,6,0.5,0.6
2022-05-21T15:00:00,1233A,120.0883,30.1808,杭州市,云栖,臭氧1小时,63,48,35,23,17,170,170,99,99,16,22,7,7,0.1,0.6
2022-05-21T15:00:00,1234A,121.8358,29.911,宁波市,区环保大楼,,37,23,16,13,11,124,116,88,88,22,29,7,6,0.3,0.4
2022-05-21T15:00:00,1235A,121.56,29.82,宁波市,万里学院,,49,11,31,5,22,155,155,97,97,11,23,9,8,0.4,0.5
2022-05-21T15:00:00,1236A,121.713,29.9572,宁波市,龙赛医院,,44,20,23,9,13,144,138,115,115,13,20,5,7,0.3,0.3
2022-05-21T15:00:00,1239A,121.633,29.7733,宁波市,钱湖水厂,,38,10,26,6,19,121,121,71,71,8,26,7,7,0.5,0.6
2022-05-21T15:00:00,1240A,121.5856,29.8635,宁波市,太古小学,,42,4,23,8,29,139,134,97,97,16,25,7,7,0.4,0.4
2022-05-21T15:00:00,1241A,121.524,29.8674,宁波市,市环境监测中心,,42,9,31,4,18,150,132,105,105,9,25,7,7,0.4,0.5
2022-05-21T15:00:00,1242A,120.634,28.0089,温州市,瓯海,,37,37,39,24,22,117,55,65,58,32,25,5,5,0.5,0.5
2022-05-21T15:00:00,1243A,120.6748,27.9939,温州市,南浦,,50,50,47,28,26,110,95,65,64,25,24,6,6,0.4,0.4
2022-05-21T15:00:00,1244A,120.76,27.9747,温州市,龙湾,,48,48,58,22,20,82,79,52,52,33,37,5,5,0.4,0.5
2022-05-21T15:00:00,1245A,120.6709,28.0167,温州市,市站,颗粒物(PM10),56,62,48,31,25,113,93,67,62,26,24,5,5,0.5,0.5
2022-05-21T15:00:00,1247A,120.6053,29.9928,绍兴市,城东开发委,,45,18,51,5,48,161,142,91,91,6,33,5,6,0.4,0.6
2022-05-21T15:00:00,1250A,120.0751,30.8669,湖州市,城西水厂,,49,39,44,14,25,157,155,106,106,12,37,5,6,0.3,0.4
2022-05-21T15:00:00,1252A,120.7436,30.778,嘉兴市,清河小学,,45,13,26,10,17,144,144,106,106,8,19,6,6,0.4,0.6
2022-05-21T15:00:00,1253A,120.726,30.7478,嘉兴市,嘉兴学院,,45,21,33,6,20,143,143,105,105,13,26,5,5,0.3,0.4
2022-05-21T15:00:00,1255A,121.273,28.6459,台州市,黄岩环保大楼,,28,28,46,6,20,97,87,74,74,16,21,6,6,0.4,0.5
2022-05-21T15:00:00,1256A,121.419,28.6542,台州市,台州环保大楼,,34,27,39,13,24,108,108,90,90,12,13,4,5,0.3,0.4
2022-05-21T15:00:00,1257A,121.377,28.5773,台州市,路桥田洋王,,32,15,36,6,24,101,101,82,82,8,16,5,6,0.2,0.3
2022-05-21T15:00:00,1258A,122.122,30.0203,舟山市,定海檀枫,,36,14,15,7,8,113,113,96,96,2,7,2,2,0.2,0.2
2022-05-21T15:00:00,1259A,122.3094,29.9558,舟山市,普陀东港,,40,19,13,10,6,127,127,115,115,1,4,3,3,0.3,0.3
2022-05-21T15:00:00,1260A,122.19,29.9944,舟山市,临城新区,,35,10,11,6,6,110,110,96,96,2,5,4,3,0.4,0.4
2022-05-21T15:00:00,1262A,119.647,29.077,金华市,十五中,,47,47,49,29,40,124,124,84,84,19,28,9,12,0.5,0.5
2022-05-21T15:00:00,1263A,119.686,29.1029,金华市,监测站,,41,34,41,22,31,131,131,93,93,14,25,7,9,0.5,0.6
2022-05-21T15:00:00,1264A,118.8692,28.9398,衢州市,环保大楼,,43,39,48,28,29,135,135,94,94,14,24,4,5,0.6,0.7
2022-05-21T15:00:00,1265A,118.8709,28.9666,衢州市,实验学校,,49,39,45,34,29,144,144,91,91,7,20,4,4,0.5,0.6
2022-05-21T15:00:00,1266A,118.8621,28.9808,衢州市,衢州学院,,45,40,52,26,27,143,143,92,92,14,29,6,6,0.5,0.5
2022-05-21T15:00:00,1267A,119.914,28.4514,丽水市,监测站大楼,,39,39,31,20,23,91,91,52,52,10,18,5,5,0.4,0.5
2022-05-21T15:00:00,1268A,119.93,28.4586,丽水市,莲都小学,,44,44,42,22,29,101,101,61,61,10,19,6,6,0.3,0.4
2022-05-21T15:00:00,1269A,119.879,28.4231,丽水市,余庄前,,31,27,36,20,21,98,98,49,49,8,16,5,5,0.4,0.4
2022-05-21T15:00:00,1270A,117.1959,31.7848,合肥市,明珠广场,臭氧1小时,67,56,69,27,37,178,173,133,133,17,43,6,6,0.4,0.5
2022-05-21T15:00:00,1271A,117.3072,31.8764,合肥市,三里街,,,44,68,22,34,164,148,127,127,10,25,9,9,,0.7
2022-05-21T15:00:00,1272A,117.2588,31.8707,合肥市,琥珀山庄,臭氧1小时,55,45,69,14,37,172,164,135,135,7,25,8,8,0.4,0.8
2022-05-21T15:00:00,1273A,117.1604,31.9052,合肥市,董铺水库(对照点),臭氧1小时,65,53,64,17,30,178,172,132,132,12,22,8,8,0.3,0.5
2022-05-21T15:00:00,1274A,117.25,31.8571,合肥市,长江中路,颗粒物(PM10),78,105,69,27,42,179,171,145,145,17,25,9,9,0.4,0.5
2022-05-21T15:00:00,1275A,117.266,31.9436,合肥市,庐阳区,,49,44,69,34,54,172,153,133,133,14,25,10,10,0.3,0.5
2022-05-21T15:00:00,1276A,117.336,31.8586,合肥市,瑶海区,,50,44,66,20,41,176,160,135,135,6,25,8,8,0.3,0.4
2022-05-21T15:00:00,1277A,117.3027,31.7964,合肥市,包河区,臭氧1小时,90,53,73,22,38,192,192,149,149,16,49,10,8,0.2,0.3
2022-05-21T15:00:00,1278A,117.2776,31.7385,合肥市,滨湖新区,臭氧1小时,102,58,82,27,42,203,203,149,149,11,47,9,8,0.1,0.3
2022-05-21T15:00:00,1279A,117.1318,31.8403,合肥市,高新区,臭氧1小时,79,51,64,24,37,191,183,144,144,13,21,10,9,0.4,0.6
2022-05-21T15:00:00,1280A,119.3903,26.0543,福州市,鼓山(对照点),,,19,24,21,21,,,,,,,,,,
2022-05-21T15:00:00,1282A,119.2681,26.0504,福州市,师大,,27,20,34,12,16,114,85,58,58,14,20,2,3,0.2,0.2
2022-05-21T15:00:00,1283A,119.2984,26.1028,福州市,五四北路,,27,27,29,16,13,130,72,68,68,18,17,2,3,0.3,0.4
2022-05-21T15:00:00,1284A,119.2648,26.0768,福州市,杨桥西路,,26,21,34,12,17,108,81,58,58,14,23,3,4,0.4,0.4
2022-05-21T15:00:00,1285A,119.317,26.0746,福州市,紫阳,,25,25,40,16,20,116,71,62,62,17,24,4,5,0.4,0.5
2022-05-21T15:00:00,1286A,118.1608,24.8169,厦门市,溪东(对照点),,40,40,59,28,36,170,65,53,53,6,8,2,2,0.4,0.5
2022-05-21T15:00:00,1287A,118.1514,24.4767,厦门市,洪文,颗粒物(PM10),64,78,41,33,20,113,80,67,67,45,30,5,5,0.5,0.5
2022-05-21T15:00:00,1288A,118.0661,24.4444,厦门市,鼓浪屿,,46,46,31,23,19,119,97,66,66,20,19,3,3,0.5,0.5
2022-05-21T15:00:00,1290A,115.8931,28.6843,南昌市,省外办,,38,37,41,26,26,116,115,91,91,7,19,4,6,0.8,0.8
2022-05-21T15:00:00,1291A,115.8886,28.7003,南昌市,省林业公司,,46,46,43,22,19,122,118,93,93,16,30,6,7,0.9,0.9
2022-05-21T15:00:00,1292A,115.8126,28.7442,南昌市,林科所,,40,36,33,26,23,126,126,106,106,8,16,5,5,0.7,0.7
2022-05-21T15:00:00,1294A,115.8518,28.687,南昌市,建工学校,,43,43,39,27,25,125,121,103,103,12,23,9,10,0.6,0.6
2022-05-21T15:00:00,1295A,115.8921,28.6424,南昌市,象湖,,41,41,38,21,21,119,104,93,93,19,21,4,3,0.9,0.8
2022-05-21T15:00:00,1296A,115.7423,28.7996,南昌市,武术学校(对照点),,40,40,28,25,14,128,128,101,101,7,6,10,10,0.6,0.5
2022-05-21T15:00:00,1298A,115.9314,28.6842,南昌市,省站,,40,40,56,24,26,115,115,91,91,8,24,6,7,0.5,0.6
2022-05-21T15:00:00,1299A,116.9862,36.6114,济南市,科干所,臭氧1小时,97,56,53,20,19,197,197,164,164,11,14,12,14,0.4,0.5
2022-05-21T15:00:00,1300A,116.9376,36.665,济南市,农科所,颗粒物(PM10),62,73,55,15,17,170,163,139,139,15,24,9,10,0.3,0.3
2022-05-21T15:00:00,1301A,117.1265,36.6734,济南市,开发区,臭氧1小时,99,56,50,30,22,199,199,166,166,15,18,11,12,0.3,0.4
2022-05-21T15:00:00,1303A,117.0624,36.6868,济南市,省种子仓库,臭氧1小时,82,53,56,29,24,185,185,151,151,7,13,11,12,0.4,0.4
2022-05-21T15:00:00,1304A,116.9489,36.6447,济南市,机床二厂,臭氧1小时,70,78,75,34,22,179,176,144,144,9,22,7,8,0.3,0.3
2022-05-21T15:00:00,1305A,117.0495,36.663,济南市,市监测站,臭氧1小时,88,59,54,17,17,190,190,156,156,10,18,8,9,0.4,0.5
2022-05-21T15:00:00,1306A,116.7675,36.5484,济南市,长清党校,臭氧1小时,59,56,49,15,20,171,167,146,146,9,18,10,13,0.6,0.7
2022-05-21T15:00:00,1307A,120.6659,36.2403,青岛市,仰口(对照点),,50,46,54,29,40,171,160,122,122,9,15,9,7,0.8,0.7
2022-05-21T15:00:00,1310A,120.4134,36.0658,青岛市,市南区东部子站,,31,14,59,19,34,205,98,89,82,5,11,5,6,0.3,0.5
2022-05-21T15:00:00,1311A,120.3664,36.1032,青岛市,四方区子站,,,58,66,39,42,222,148,113,113,15,19,11,8,,0.9
2022-05-21T15:00:00,1312A,120.2994,36.054,青岛市,市南区西部子站,,34,17,51,15,30,225,106,105,93,6,14,5,7,0.5,0.6
2022-05-21T15:00:00,1313A,120.4581,36.0858,青岛市,崂山区子站,,33,14,51,19,37,222,104,105,86,13,18,7,8,0.4,0.5
2022-05-21T15:00:00,1314A,120.1983,35.9608,青岛市,黄岛区子站,,46,27,52,27,42,262,147,123,99,17,18,9,7,0.4,0.4
2022-05-21T15:00:00,1315A,120.3999,36.3083,青岛市,城阳区子站,臭氧1小时,102,76,90,39,37,204,203,148,145,21,26,10,9,0.9,0.8
2022-05-21T15:00:00,1316A,113.69031,34.76122,郑州市,烟厂,,,66,43,,20,184,184,151,151,,16,6,9,0.4,0.5
2022-05-21T15:00:00,1317A,113.65724,34.77134,郑州市,郑纺机,臭氧1小时,63,44,44,18,17,177,170,141,141,6,14,8,9,0.4,0.5
2022-05-21T15:00:00,1318A,113.67526,34.80246,郑州市,银行学校,臭氧1小时,85,38,39,18,19,188,188,156,156,9,15,7,8,0.3,0.4
2022-05-21T15:00:00,1319A,113.56746,34.81334,郑州市,供水公司,臭氧1小时,58,45,48,16,19,196,166,145,145,11,20,8,8,0.3,0.4
2022-05-21T15:00:00,1320A,113.7329,34.7178,郑州市,经开区管委,臭氧1小时,77,54,54,24,21,181,181,146,146,13,20,6,8,0.5,0.5
2022-05-21T15:00:00,1321A,113.73961,34.77172,郑州市,四十七中,,,5,44,23,20,193,193,158,158,,28,7,8,0.8,0.7
2022-05-21T15:00:00,1322A,113.60532,34.74838,郑州市,市监测站,臭氧1小时,54,45,49,15,19,180,163,138,138,8,19,8,10,0.6,0.7
2022-05-21T15:00:00,1323A,113.64164,34.7525,郑州市,河医大,臭氧1小时,67,46,45,14,17,180,173,144,144,4,12,5,7,0.4,0.5
2022-05-21T15:00:00,1324A,113.51488,34.91089,郑州市,岗李水库(对照点),臭氧1小时,74,58,73,27,26,211,179,129,129,10,29,9,9,0.4,0.5
2022-05-21T15:00:00,1325A,114.3677,30.5584,武汉市,东湖梨园,臭氧1小时,87,41,84,34,51,189,189,118,118,9,36,8,9,0.6,1.3
2022-05-21T15:00:00,1326A,114.2529,30.558,武汉市,汉阳月湖,臭氧1小时,103,53,81,41,50,206,206,125,125,20,52,10,9,0.8,1.1
2022-05-21T15:00:00,1327A,114.282,30.6189,武汉市,汉口花桥,臭氧1小时,78,48,74,37,51,182,182,112,112,23,51,10,9,0.8,1.1
2022-05-21T15:00:00,1328A,114.3025,30.5332,武汉市,武昌紫阳,臭氧1小时,90,60,92,20,39,192,192,110,110,20,59,10,9,1.0,1.4
2022-05-21T15:00:00,1329A,114.3646,30.6217,武汉市,青山钢花,臭氧1小时,77,56,75,51,51,181,181,100,100,23,45,14,9,1.2,1.2
2022-05-21T15:00:00,1330A,114.1566,30.4825,武汉市,沌口新区,臭氧1小时,93,46,84,18,38,194,194,129,129,20,52,9,9,0.7,1
2022-05-21T15:00:00,1331A,114.3014,30.5944,武汉市,汉口江滩,臭氧1小时,103,67,88,30,42,206,206,109,109,21,66,8,7,0.9,1.1
2022-05-21T15:00:00,1333A,114.135,30.6319,武汉市,吴家山,臭氧1小时,79,52,73,27,39,183,183,118,118,19,33,8,8,0.7,0.8
2022-05-21T15:00:00,1334A,113.8454,30.2917,武汉市,沉湖七壕(对照点),臭氧1小时,77,47,45,24,17,181,181,121,121,15,17,6,5,0.9,0.9
2022-05-21T15:00:00,1335A,113.0833,28.2325,长沙市,经开区环保局,,,,26,,26,135,,89,89,,22,,2,,0.6
2022-05-21T15:00:00,1336A,112.8872,28.2189,长沙市,高开区环保局,,45,15,26,27,28,141,141,96,96,7,31,6,7,0.4,0.4
2022-05-21T15:00:00,1337A,113.0792,28.2053,长沙市,马坡岭,,,22,40,14,25,149,149,104,104,8,25,,4,0.5,0.5
2022-05-21T15:00:00,1338A,112.9394,28.19,长沙市,湖南师范大学,,46,34,34,32,39,147,145,104,104,10,24,1,1,0.6,0.6
2022-05-21T15:00:00,1339A,113.0178,28.1322,长沙市,雨花区环保局,,47,31,36,21,28,149,149,94,94,10,30,5,5,0.4,0.5
2022-05-21T15:00:00,1340A,112.9792,28.2597,长沙市,伍家岭,,43,28,44,12,28,137,137,88,88,8,32,7,7,0.5,0.5
2022-05-21T15:00:00,1341A,113.0014,28.1944,长沙市,火车新站,,44,30,38,13,36,140,140,98,98,14,26,6,7,0.3,0.4
2022-05-21T15:00:00,1342A,112.9844,28.1178,长沙市,天心区环保局,,47,19,30,19,33,150,150,84,84,5,29,4,4,0.5,0.6
2022-05-21T15:00:00,1343A,112.8908,28.1308,长沙市,湖南中医药大学,,45,28,32,31,37,124,124,83,83,14,32,3,3,0.5,0.6
2022-05-21T15:00:00,1344A,112.9581,28.3611,长沙市,沙坪(对照点),,40,35,34,26,26,129,128,94,94,8,10,4,4,0.6,0.5
2022-05-21T15:00:00,1345A,113.2347,23.1423,广州市,广雅中学,细颗粒物(PM2.5),59,55,59,42,34,174,86,59,59,39,43,6,8,1.0,1
2022-05-21T15:00:00,1346A,113.2612,23.105,广州市,市五中,,50,47,57,35,33,196,109,75,75,29,34,4,6,0.8,0.8
2022-05-21T15:00:00,1348A,113.3478,23.0916,广州市,广东商学院,,46,43,58,32,32,202,90,65,65,35,46,4,5,0.9,0.8
2022-05-21T15:00:00,1349A,113.4332,23.1047,广州市,市八十六中,颗粒物(PM10),54,57,70,30,27,231,103,65,65,47,49,7,8,0.8,0.7
2022-05-21T15:00:00,1350A,113.3505,22.9483,广州市,番禺中学,,39,39,56,27,28,226,105,84,84,28,28,8,10,0.7,0.7
2022-05-21T15:00:00,1351A,113.2146,23.3916,广州市,花都师范,细颗粒物(PM2.5),60,58,64,43,43,152,132,90,90,13,27,5,5,0.9,0.8
2022-05-21T15:00:00,1352A,113.2597,23.1331,广州市,市监测站,细颗粒物(PM2.5),54,53,60,38,32,197,102,63,63,32,36,6,7,0.8,0.8
2022-05-21T15:00:00,1353A,113.5618,23.312,广州市,九龙镇镇龙,细颗粒物(PM2.5),60,66,89,43,40,217,96,46,46,19,56,6,6,0.9,0.9
2022-05-21T15:00:00,1354A,113.2765,23.1544,广州市,麓湖,"颗粒物(PM10),细颗粒物(PM2.5)",55,59,56,39,33,195,83,53,45,35,43,3,5,1.0,1
2022-05-21T15:00:00,1355A,113.443,23.3035,广州市,帽峰山森林公园(对照点),细颗粒物(PM2.5),64,71,54,46,36,211,140,78,78,14,30,5,5,1.0,0.8
2022-05-21T15:00:00,1356A,114.1063,22.5545,深圳市,通心岭子站,,34,24,40,14,25,176,106,70,70,15,27,3,4,0.4,0.4
2022-05-21T15:00:00,1357A,114.117,22.5625,深圳市,洪湖,,41,26,45,16,27,183,129,81,81,12,26,7,7,0.4,0.4
2022-05-21T15:00:00,1358A,113.987,22.5417,深圳市,华侨城,,27,27,40,16,20,136,73,66,58,40,30,6,5,0.6,0.6
2022-05-21T15:00:00,1359A,113.9181,22.5171,深圳市,南海子站,,32,32,46,13,26,180,58,55,55,48,36,9,6,0.5,0.5
2022-05-21T15:00:00,1360A,114.2458,22.5689,深圳市,盐田,,36,26,35,15,23,114,114,62,62,8,30,4,4,0.6,0.6
2022-05-21T15:00:00,1361A,114.2283,22.7244,深圳市,龙岗,,42,39,63,18,31,196,132,77,77,18,41,4,4,0.6,0.6
2022-05-21T15:00:00,1363A,114.494,22.5422,深圳市,南澳,,36,29,32,20,19,117,113,82,82,6,10,6,6,0.6,0.7
2022-05-21T15:00:00,1364A,114.41,22.6342,深圳市,葵涌,,30,22,34,12,20,100,96,67,67,10,12,5,5,0.4,0.4
2022-05-21T15:00:00,1365A,114.297,22.5978,深圳市,梅沙,,35,23,36,13,21,109,109,79,75,6,12,6,6,0.5,0.5
2022-05-21T15:00:00,1366A,114.0678,22.738,深圳市,观澜,颗粒物(PM10),57,63,68,29,32,213,132,64,64,34,44,5,5,0.6,0.6
2022-05-21T15:00:00,1367A,113.5814,22.2618,珠海市,吉大,,29,28,33,20,24,116,88,69,69,4,7,7,7,0.5,0.5
2022-05-21T15:00:00,1368A,113.4881,22.2335,珠海市,前山,,34,34,52,14,18,127,94,74,74,18,21,9,10,0.4,0.4
2022-05-21T15:00:00,1369A,113.628,22.4251,珠海市,唐家,,32,29,29,18,22,139,100,83,83,4,8,8,8,0.4,0.4
2022-05-21T15:00:00,1370A,113.299,22.2281,珠海市,斗门,,35,27,33,14,22,134,112,91,91,8,9,11,9,0.6,0.5
2022-05-21T15:00:00,1371A,113.1294,23.0067,佛山市,湾梁,颗粒物(PM10),74,97,53,27,29,154,110,75,75,15,22,5,6,0.6,0.7
2022-05-21T15:00:00,1372A,113.1083,23.0478,佛山市,华材职中,颗粒物(PM10),68,85,55,44,31,162,139,84,84,22,30,7,9,0.6,0.6
2022-05-21T15:00:00,1373A,113.144,23.0453,佛山市,南海气象局,颗粒物(PM10),61,71,55,40,35,155,115,78,78,27,32,5,5,0.5,0.6
2022-05-21T15:00:00,1374A,113.2881,22.8094,佛山市,顺德苏岗,细颗粒物(PM2.5),67,56,43,48,25,184,106,90,90,28,24,5,6,1.0,0.9
2022-05-21T15:00:00,1376A,112.8383,22.8678,佛山市,高明孔堂,细颗粒物(PM2.5),88,66,42,65,28,148,103,75,75,27,16,8,9,0.7,0.5
2022-05-21T15:00:00,1377A,112.8836,23.1588,佛山市,三水监测站,细颗粒物(PM2.5),70,75,70,51,45,137,136,87,87,15,50,6,9,0.9,0.8
2022-05-21T15:00:00,1378A,112.867,23.185,佛山市,三水云东海,细颗粒物(PM2.5),64,70,62,46,34,155,149,100,100,15,38,7,8,0.7,0.7
2022-05-21T15:00:00,1379A,113.3769,22.5211,中山市,华柏园,颗粒物(PM10),51,51,39,27,25,169,134,90,90,12,15,4,5,0.8,0.7
2022-05-21T15:00:00,1380A,113.3881,22.5497,中山市,张溪,颗粒物(PM10),58,66,56,23,34,135,117,85,85,21,14,1,3,0.7,0.7
2022-05-21T15:00:00,1381A,113.4075,22.5111,中山市,紫马岭,,48,48,35,21,18,136,127,83,83,12,14,5,5,0.7,0.5
2022-05-21T15:00:00,1382A,113.4411,22.4853,中山市,长江旅游区(对照点),,49,49,30,22,18,139,128,78,78,9,8,4,4,0.6,0.5
2022-05-21T15:00:00,1383A,113.1064,22.6058,江门市,北街,,40,40,35,25,16,160,123,98,98,22,17,5,5,0.7,0.6
2022-05-21T15:00:00,1384A,113.0731,22.5835,江门市,西区,颗粒物(PM10),51,52,40,30,21,150,130,95,95,20,19,5,5,0.7,0.6
2022-05-21T15:00:00,1385A,113.0219,22.5311,江门市,圭峰西,,49,49,35,24,23,132,130,92,92,11,12,5,5,0.4,0.5
2022-05-21T15:00:00,1386A,113.0828,22.5947,江门市,东湖,颗粒物(PM10),51,51,41,33,21,146,133,96,96,17,15,8,8,0.6,0.5
2022-05-21T15:00:00,1389A,113.7547,23.0494,东莞市,莞城梨川,细颗粒物(PM2.5),103,88,60,77,32,250,153,100,100,35,29,8,9,0.9,0.7
2022-05-21T15:00:00,1390A,113.7944,23.0128,东莞市,东城石井,细颗粒物(PM2.5),83,97,50,61,29,268,156,106,106,25,23,6,7,0.8,0.6
2022-05-21T15:00:00,1391A,113.7383,22.9658,东莞市,南城西平,细颗粒物(PM2.5),93,93,47,69,30,257,133,100,100,43,24,4,5,0.7,0.5
2022-05-21T15:00:00,1392A,114.4183,23.0528,惠州市,河南岸金山湖子站,臭氧1小时,77,48,54,35,34,225,181,108,108,13,17,2,4,0.7,0.6
2022-05-21T15:00:00,1393A,114.4053,23.0822,惠州市,下埔横江三路子站,臭氧1小时,97,71,53,26,28,242,197,124,124,16,20,3,4,0.8,0.7
2022-05-21T15:00:00,1394A,114.4103,23.1142,惠州市,江北云山西路子站,臭氧1小时,108,52,55,42,33,271,215,136,136,12,15,5,8,0.6,0.5
2022-05-21T15:00:00,1395A,114.4645,22.7833,惠州市,惠阳区承修路船湖子站,,47,47,44,19,26,145,114,85,85,12,20,1,1,0.4,0.4
2022-05-21T15:00:00,1396A,114.5317,22.7422,惠州市,大亚湾管委会子站,,41,41,39,19,21,122,114,94,94,11,17,5,5,0.4,0.4
2022-05-21T15:00:00,1397A,112.4267,23.0706,肇庆市,睦岗子站,细颗粒物(PM2.5),97,98,71,72,46,122,116,73,73,26,40,9,10,1.1,1
2022-05-21T15:00:00,1398A,112.4645,23.0475,肇庆市,城中子站,细颗粒物(PM2.5),99,101,70,74,46,124,94,70,70,50,43,9,18,1.0,0.8
2022-05-21T15:00:00,1399A,112.5544,23.1522,肇庆市,坑口子站,细颗粒物(PM2.5),100,93,63,75,47,148,111,90,90,18,18,5,5,0.9,0.7
2022-05-21T15:00:00,1400A,112.4753,23.1,肇庆市,七星岩子站(对照点),细颗粒物(PM2.5),99,86,63,74,46,137,119,83,83,13,26,10,13,0.8,0.8
2022-05-21T15:00:00,1401A,108.3103,22.7881,南宁市,二十一中,,44,44,33,23,17,68,56,47,47,26,24,8,10,0.6,0.6
2022-05-21T15:00:00,1402A,108.3141,22.8528,南宁市,北湖,,48,48,36,32,16,64,63,49,49,20,22,9,17,0.8,0.7
2022-05-21T15:00:00,1403A,108.3206,22.8225,南宁市,市监测站,,49,38,37,34,21,59,59,41,41,34,34,16,15,0.8,0.7
2022-05-21T15:00:00,1404A,108.3829,22.8037,南宁市,大自然花园,,40,40,31,24,20,86,69,60,60,34,25,8,10,0.8,0.7
2022-05-21T15:00:00,1405A,108.4394,22.7904,南宁市,仙葫(对照点),,44,44,31,26,20,83,72,59,59,32,23,6,7,0.7,0.7
2022-05-21T15:00:00,1406A,108.2397,22.8467,南宁市,区农职院,,38,38,33,21,14,69,59,49,49,15,18,8,10,0.7,0.7
2022-05-21T15:00:00,1407A,108.3275,22.735,南宁市,英华嘉园,颗粒物(PM10),52,53,37,27,19,76,41,46,46,38,29,6,7,0.8,0.8
2022-05-21T15:00:00,1408A,108.2257,22.7757,南宁市,沙井镇街道办,,35,33,38,24,18,55,47,40,40,26,27,10,8,0.7,0.7
2022-05-21T15:00:00,1409A,110.576,19.9507,海口市,东寨港(对照点),,19,19,18,8,8,34,27,21,21,1,4,1,2,0.1,0.1
2022-05-21T15:00:00,1410A,110.3232,20.0574,海口市,海南大学,,21,18,21,13,13,84,67,63,61,2,2,4,4,0.4,0.4
2022-05-21T15:00:00,1411A,110.283,20.0053,海口市,秀英海南医院,,21,20,22,12,11,96,65,59,59,2,11,3,3,0.4,0.4
2022-05-21T15:00:00,1412A,110.338,19.9969,海口市,海南师范大学,,25,25,25,5,14,67,50,46,46,2,5,3,2,0.4,0.4
2022-05-21T15:00:00,1413A,110.33,20.0356,海口市,龙华路环保局宿舍,,23,23,22,9,9,76,60,63,63,2,5,4,4,0.4,0.4
2022-05-21T15:00:00,1414A,106.3787,29.8279,重庆市,缙云山(对照点),,35,8,20,9,13,174,112,161,98,13,15,10,12,0.3,0.4
2022-05-21T15:00:00,1416A,106.4213,29.8253,重庆市,天生,细颗粒物(PM2.5),74,92,60,54,29,158,75,30,30,50,47,13,8,1.2,1
2022-05-21T15:00:00,1417A,106.6263,29.7228,重庆市,两路,颗粒物(PM10),53,56,36,35,19,158,66,49,32,77,71,9,7,1.2,1.1
2022-05-21T15:00:00,1418A,106.2953,29.5983,重庆市,虎溪,颗粒物(PM10),70,90,52,49,30,169,61,28,28,50,57,14,7,1.0,1
2022-05-21T15:00:00,1419A,106.5777,29.5102,重庆市,南坪,,48,48,48,30,26,151,86,59,50,44,54,10,6,0.8,0.8
2022-05-21T15:00:00,1420A,106.6556,29.6277,重庆市,唐家沱,,,,39,29,17,168,66,37,37,67,52,8,6,0.8,0.7
2022-05-21T15:00:00,1421A,106.6349,29.4906,重庆市,茶园,,41,41,45,15,18,154,51,33,33,66,72,9,7,0.5,0.6
2022-05-21T15:00:00,1422A,106.3754,29.4572,重庆市,白市驿,颗粒物(PM10),61,71,46,33,27,159,52,107,42,30,30,15,10,0.8,0.8
2022-05-21T15:00:00,1425A,106.6205,29.7166,重庆市,空港,细颗粒物(PM2.5),53,39,47,37,27,143,83,55,27,52,65,8,6,0.9,1
2022-05-21T15:00:00,1426A,106.4782,29.4875,重庆市,新山村,颗粒物(PM10),58,65,59,34,26,152,80,36,36,54,91,20,13,1.0,1.5
2022-05-21T15:00:00,1427A,106.5616,29.6453,重庆市,礼嘉,颗粒物(PM10),72,93,52,38,24,149,28,14,14,115,94,15,12,0.9,0.9
2022-05-21T15:00:00,1428A,106.4522,29.7091,重庆市,蔡家,细颗粒物(PM2.5),53,52,35,37,19,141,59,34,27,59,45,10,6,0.9,0.7
2022-05-21T15:00:00,1429A,106.5093,29.3917,重庆市,鱼新街,,42,42,44,24,25,184,58,31,31,43,66,12,10,1.0,1
2022-05-21T15:00:00,1431A,103.9728,30.7236,成都市,金泉两河,,27,18,37,14,29,183,84,54,54,18,37,1,2,0.4,0.6
2022-05-21T15:00:00,1432A,104.1419,30.6764,成都市,十里店,,26,22,32,14,25,152,82,57,57,19,39,2,3,0.4,0.6
2022-05-21T15:00:00,1433A,104.0594,30.5767,成都市,三瓦窑,,26,26,40,18,28,129,79,55,55,26,50,2,3,0.4,0.5
2022-05-21T15:00:00,1434A,104.1122,30.6306,成都市,沙河铺,,35,24,40,24,34,138,59,59,59,21,31,3,3,0.5,0.5
2022-05-21T15:00:00,1437A,104.0431,30.6556,成都市,君平街,,28,25,43,18,30,156,89,71,71,25,44,3,3,0.6,0.8
2022-05-21T15:00:00,1438A,103.6202,31.0201,成都市,灵岩寺(对照点),,22,18,36,15,38,164,49,155,82,17,6,4,4,0.4,0.4
2022-05-21T15:00:00,1439A,106.6899,26.5998,贵阳市,马鞍山,,45,19,28,31,26,101,82,59,59,6,12,4,4,0.3,0.4
2022-05-21T15:00:00,1440A,106.6971,26.5694,贵阳市,市环保站,,25,18,36,9,26,86,80,50,50,13,30,12,8,0.3,0.5
2022-05-21T15:00:00,1441A,106.6243,26.6266,贵阳市,鉴湖路,,31,31,41,9,23,98,98,59,59,9,20,3,4,0.6,0.5
2022-05-21T15:00:00,1442A,106.7487,26.6343,贵阳市,燕子冲,,35,22,37,24,28,91,88,52,52,4,14,6,7,0.4,0.6
2022-05-21T15:00:00,1443A,106.6555,26.4365,贵阳市,碧云窝,,39,39,47,24,28,101,94,58,58,13,19,3,3,0.6,0.6
2022-05-21T15:00:00,1444A,106.694,26.5161,贵阳市,中院村,,32,27,44,12,25,100,100,56,56,11,29,4,6,0.4,0.6
2022-05-21T15:00:00,1445A,106.7109,26.6027,贵阳市,红边门,,30,22,37,14,27,100,93,60,60,18,33,3,5,0.3,0.5
2022-05-21T15:00:00,1446A,106.7164,26.5699,贵阳市,新华路,,29,12,34,17,24,101,90,59,59,8,23,5,5,0.4,0.5
2022-05-21T15:00:00,1447A,106.674,26.5424,贵阳市,太慈桥,,30,29,42,9,19,104,96,57,57,14,22,3,4,0.6,0.7
2022-05-21T15:00:00,1450A,102.8204,24.8886,昆明市,呈贡新区,,18,7,24,5,13,102,55,56,38,13,15,9,8,0.6,0.6
2022-05-21T15:00:00,1451A,102.6251,24.9608,昆明市,西山森林公园(对照点),,28,28,28,4,5,130,70,62,54,2,6,7,7,0.6,0.7
2022-05-21T15:00:00,1452A,102.7252,25.0902,昆明市,龙泉镇,,20,20,34,8,20,106,30,48,27,26,21,10,10,0.7,0.6
2022-05-21T15:00:00,1453A,102.7266,25.0375,昆明市,东风东路,,18,12,31,12,18,109,34,40,24,26,23,6,6,0.6,0.5
2022-05-21T15:00:00,1454A,102.6742,25.0669,昆明市,金鼎山,,17,15,19,5,23,120,53,48,36,16,17,12,11,0.5,0.5
2022-05-21T15:00:00,1455A,102.6644,25.0401,昆明市,碧鸡广场,,17,6,27,7,14,123,53,49,45,18,20,8,9,0.6,0.6
2022-05-21T15:00:00,1456A,91.1319,29.6514,拉萨市,八廓街,,44,13,9,9,6,149,138,125,123,5,8,5,5,0.2,0.2
2022-05-21T15:00:00,1457A,91.1221,29.6747,拉萨市,市环保局,,45,12,9,4,3,146,144,125,125,8,9,6,6,0.1,0.2
2022-05-21T15:00:00,1458A,91.0874,29.6475,拉萨市,区监测站,,40,11,8,5,3,141,128,119,115,7,10,7,7,0.0,0.1
2022-05-21T15:00:00,1459A,91.1774,29.6541,拉萨市,西藏大学,,,,,8,4,145,141,126,121,9,9,8,8,0.2,0.2
2022-05-21T15:00:00,1460A,90.9798,29.6588,拉萨市,区辐射站,,37,11,10,4,5,140,117,111,110,12,14,7,7,0.2,0.2
2022-05-21T15:00:00,1461A,91.0834,29.6292,拉萨市,拉萨火车站,,40,8,10,2,1,146,127,124,114,7,9,7,7,0.2,0.2
2022-05-21T15:00:00,1462A,108.882,34.2749,西安市,高压开关厂,颗粒物(PM10),76,101,97,45,39,203,168,96,96,30,67,10,8,0.5,0.5
2022-05-21T15:00:00,1463A,108.993,34.2629,西安市,兴庆小区,臭氧1小时,83,88,83,49,39,194,186,87,87,33,55,7,8,0.6,0.8
2022-05-21T15:00:00,1464A,109.06,34.2572,西安市,纺织城,臭氧1小时,92,88,91,44,36,196,193,90,90,31,56,10,9,0.6,0.5
2022-05-21T15:00:00,1465A,108.9356,34.2173,西安市,小寨,臭氧1小时,67,79,79,32,30,204,173,106,106,22,55,4,3,0.6,0.6
2022-05-21T15:00:00,1466A,108.954,34.2713,西安市,市人民体育场,颗粒物(PM10),75,99,89,47,39,194,174,92,92,29,56,9,8,0.5,0.5
2022-05-21T15:00:00,1467A,108.8922,34.2322,西安市,高新西区,颗粒物(PM10),67,83,78,35,35,206,171,102,102,20,46,10,8,0.5,0.6
2022-05-21T15:00:00,1468A,108.935,34.3474,西安市,经开区,臭氧1小时,80,79,77,33,33,185,184,112,112,24,52,8,8,0.4,0.4
2022-05-21T15:00:00,1469A,108.906,34.1546,西安市,长安区,臭氧1小时,77,72,85,32,34,246,181,112,112,17,45,8,7,0.5,0.6
2022-05-21T15:00:00,1471A,109.2186,34.3731,西安市,临潼区,臭氧1小时,87,71,75,26,32,189,189,108,108,14,40,6,10,0.5,0.5
2022-05-21T15:00:00,1472A,108.869,34.378,西安市,草滩(对照点),臭氧1小时,80,62,75,35,31,184,184,128,128,23,42,16,13,0.6,0.6
2022-05-21T15:00:00,1473A,108.985,34.1978,西安市,曲江文化产业集团,臭氧1小时,80,87,96,44,39,204,184,104,104,28,60,5,5,0.9,0.9
2022-05-21T15:00:00,1474A,109.051,34.3213,西安市,广运潭,臭氧1小时,73,83,91,36,37,178,178,98,98,19,49,8,9,0.6,0.6
2022-05-21T15:00:00,1476A,103.631,36.1031,兰州市,兰炼宾馆,,48,39,46,18,27,168,152,105,105,10,21,5,6,0.3,0.3
2022-05-21T15:00:00,1478A,103.8412,36.0726,兰州市,生物制品所,,,38,59,,24,163,134,76,76,13,40,6,11,0.3,0.9
2022-05-21T15:00:00,1479A,103.831,36.0464,兰州市,铁路设计院,,41,41,55,13,22,135,114,70,70,21,43,5,11,0.0,0.6
2022-05-21T15:00:00,1483A,101.524,36.6867,西宁市,第五水厂(对照点),,50,38,30,18,15,160,160,102,102,10,11,19,13,0.8,0.6
2022-05-21T15:00:00,1484A,105.9512,38.6016,银川市,贺兰山马莲口(对照点),臭氧1小时,101,47,38,23,22,208,201,156,146,11,13,14,11,0.4,0.4
2022-05-21T15:00:00,1488A,106.2328,38.4975,银川市,贺兰山东路,臭氧1小时,84,37,45,15,19,187,187,127,127,14,45,14,10,0.5,0.6
2022-05-21T15:00:00,1489A,106.1358,38.5036,银川市,学院路,臭氧1小时,65,43,54,13,15,179,172,128,128,10,26,11,12,0.3,0.4
2022-05-21T15:00:00,1490A,87.5801,43.8303,乌鲁木齐市,监测站,,48,48,44,10,20,122,122,88,88,6,34,8,8,0.4,0.6
2022-05-21T15:00:00,1491A,87.6046,43.768,乌鲁木齐市,收费所,,49,49,43,10,17,118,118,89,89,6,36,6,6,0.3,0.4
2022-05-21T15:00:00,1492A,87.4754,43.9469,乌鲁木齐市,新疆农科院农场(对照点),,35,24,51,13,28,121,112,77,77,5,40,8,8,0.1,0.3
2022-05-21T15:00:00,1493A,87.5525,43.8711,乌鲁木齐市,铁路局,,40,40,39,23,17,121,121,87,87,6,41,8,9,0.5,0.6
2022-05-21T15:00:00,1494A,87.6432,43.831,乌鲁木齐市,三十一中学,颗粒物(PM10),51,52,38,0,8,128,122,117,93,4,17,12,12,0.3,0.4
2022-05-21T15:00:00,1496A,87.7216,44.1747,乌鲁木齐市,米东区环保局,,36,26,67,3,21,136,115,74,74,2,22,10,13,0.1,0.4
2022-05-21T15:00:00,1508A,112.9433,27.8614,湘潭市,板塘,,45,29,42,15,26,144,144,95,95,11,21,8,4,0.5,0.5
2022-05-21T15:00:00,1511A,112.9118,27.8403,湘潭市,市监测站,,44,12,30,20,36,140,140,90,90,11,24,7,8,0.6,0.7
2022-05-21T15:00:00,1512A,112.8937,27.8728,湘潭市,江麓,,47,35,40,19,29,150,150,95,95,13,21,7,5,0.6,0.7
2022-05-21T15:00:00,1513A,112.9227,27.8159,湘潭市,岳塘,,43,36,42,20,29,135,135,93,93,17,26,12,9,0.7,0.6
2022-05-21T15:00:00,1514A,112.9074,27.9119,湘潭市,科大,,47,31,37,25,30,148,148,94,94,17,30,1,4,0.9,0.9
2022-05-21T15:00:00,1515A,113.135,27.8244,株洲市,天台山庄,,39,9,30,9,29,126,124,82,82,13,32,5,7,0.4,0.7
2022-05-21T15:00:00,1518A,113.095,27.8867,株洲市,株冶医院,,40,19,28,14,23,127,126,81,81,9,26,7,8,0.5,0.6
2022-05-21T15:00:00,1519A,113.167,27.8667,株洲市,市四中,,39,19,35,15,32,129,122,82,82,3,23,5,5,0.5,0.7
2022-05-21T15:00:00,1520A,113.143,27.8381,株洲市,火车站,,43,14,45,13,30,140,136,90,90,10,29,6,8,0.5,0.8
2022-05-21T15:00:00,1524A,113.13,27.8528,株洲市,市监测站,,39,17,47,14,37,126,124,79,79,7,31,5,9,0.4,0.6
2022-05-21T15:00:00,1552A,106.805,26.3003,贵阳市,桐木岭(对照点),,32,29,36,22,23,106,85,78,78,5,5,2,12,0.4,0.4
2022-05-21T15:00:00,1559A,113.251,27.8336,株洲市,大京风景区(对照点),,30,13,28,15,18,108,94,70,70,5,6,5,6,0.5,0.6
2022-05-21T15:00:00,1562A,113.0048,27.9153,湘潭市,昭山,,41,19,29,18,26,131,131,74,74,11,27,6,6,0.8,0.8
2022-05-21T15:00:00,1564A,112.4876,27.9164,湘潭市,韶山(对照点),,36,35,33,16,13,117,113,98,98,5,5,5,4,0.6,0.6
2022-05-21T15:00:00,1585A,109.8756,40.6532,包头市,市环境监测站,颗粒物(PM10),59,68,69,18,24,164,138,109,109,17,46,15,14,0.7,0.8
2022-05-21T15:00:00,1587A,109.9991,40.5842,包头市,包头八中,细颗粒物(PM2.5),60,47,72,43,28,177,145,120,120,15,39,7,25,0.4,0.8
2022-05-21T15:00:00,1588A,109.8538,40.6821,包头市,青山宾馆,颗粒物(PM10),60,70,75,35,28,160,135,107,107,20,46,21,16,0.5,0.8
2022-05-21T15:00:00,1589A,109.8642,40.6288,包头市,惠龙物流,颗粒物(PM10),70,90,69,20,28,170,140,119,119,19,40,18,15,0.8,0.8
2022-05-21T15:00:00,1590A,110.0377,40.5546,包头市,东河鸿龙湾,,47,40,77,14,26,184,148,122,122,5,30,10,19,0.4,0.6
2022-05-21T15:00:00,1591A,110.0023,39.8129,鄂尔多斯市,综合楼,颗粒物(PM10),59,68,85,41,42,171,150,139,139,14,37,6,12,0.6,0.8
2022-05-21T15:00:00,1592A,109.9486,39.8261,鄂尔多斯市,巴音孟克林场办事处,颗粒物(PM10),57,63,60,22,25,177,142,146,146,19,31,6,10,0.5,0.6
2022-05-21T15:00:00,1593A,109.7736,39.5986,鄂尔多斯市,康泽苑,臭氧1小时,63,56,60,22,20,177,170,133,133,8,23,5,5,0.4,0.5
2022-05-21T15:00:00,1594A,109.8119,39.5989,鄂尔多斯市,华泰汽车城,臭氧1小时,63,41,59,22,24,175,170,135,135,3,34,5,7,0.4,0.6
2022-05-21T15:00:00,1595A,109.9734,39.7884,鄂尔多斯市,奥林花园,,47,39,73,19,32,172,148,140,140,11,44,5,7,0.6,0.8
2022-05-21T15:00:00,1597A,122.2703,40.7094,营口市,大庆路,臭氧1小时,109,93,80,64,46,224,217,182,182,15,13,11,10,1.1,0.9
2022-05-21T15:00:00,1598A,122.215,40.6511,营口市,镜湖西路,臭氧1小时,119,70,62,41,32,240,238,195,195,15,17,10,8,1.3,0.9
2022-05-21T15:00:00,1600A,124.3303,40.0625,丹东市,江湾东路,,46,35,44,32,35,130,112,129,123,8,10,7,11,0.5,0.5
2022-05-21T15:00:00,1601A,124.4256,40.1503,丹东市,临江后街,,,,,21,16,130,120,124,124,5,4,12,11,1.3,1.2
2022-05-21T15:00:00,1602A,124.3933,40.1461,丹东市,元宝山,细颗粒物(PM2.5),54,41,38,38,33,125,114,120,120,8,6,9,10,0.8,0.8
2022-05-21T15:00:00,1603A,124.3633,40.1092,丹东市,民主桥,,38,34,41,26,28,126,110,120,118,4,4,9,10,0.9,0.9
2022-05-21T15:00:00,1604A,122.0303,41.1489,盘锦市,开发区,臭氧1小时,107,104,87,58,66,214,214,158,158,20,19,11,7,1.0,0.9
2022-05-21T15:00:00,1605A,122.0485,41.0883,盘锦市,兴隆台,臭氧1小时,108,111,103,70,63,215,215,154,154,21,20,7,6,0.9,0.7
2022-05-21T15:00:00,1606A,121.8297,41.1028,盘锦市,新生街道,臭氧1小时,92,121,80,41,45,209,193,149,149,21,16,8,9,1.2,0.9
2022-05-21T15:00:00,1607A,120.9092,40.7136,葫芦岛市,龙港区,臭氧1小时,68,72,75,46,52,202,174,146,146,20,19,15,17,0.9,0.7
2022-05-21T15:00:00,1608A,120.8392,40.7514,葫芦岛市,化工街,颗粒物(PM10),103,156,112,64,61,189,138,143,143,48,26,143,18,2.0,0.7
2022-05-21T15:00:00,1609A,120.8341,40.7073,葫芦岛市,新区,细颗粒物(PM2.5),97,127,101,72,69,195,160,126,126,26,23,11,11,1.2,0.9
2022-05-21T15:00:00,1610A,120.8695,40.7677,葫芦岛市,东城区,细颗粒物(PM2.5),115,139,112,87,81,198,138,141,141,44,27,46,16,1.0,0.8
2022-05-21T15:00:00,1611A,118.5819,24.9117,泉州市,涂山街,,28,17,31,13,16,134,87,83,83,8,16,6,9,0.3,0.3
2022-05-21T15:00:00,1612A,118.5972,24.8978,泉州市,津头埔,,26,26,38,16,19,121,76,72,72,14,22,3,6,0.3,0.4
2022-05-21T15:00:00,1613A,118.6663,24.9424,泉州市,万安,,30,30,37,19,19,130,69,68,68,17,18,6,9,0.4,0.4
2022-05-21T15:00:00,1614A,118.6117,24.9604,泉州市,清源山(对照点),,25,17,29,17,17,138,64,73,72,8,12,6,9,0.3,0.4
2022-05-21T15:00:00,1616A,117.6795,36.229,济南市,技术学院,臭氧1小时,101,78,89,28,43,204,202,158,158,8,41,13,21,0.5,1.5
2022-05-21T15:00:00,1618A,118.3429,35.0532,临沂市,沂河小区,臭氧1小时,98,66,87,27,43,210,198,165,165,12,31,11,17,0.4,0.5
2022-05-21T15:00:00,1619A,118.295,35.0583,临沂市,鲁南制药厂,臭氧1小时,103,53,93,23,47,214,205,175,175,13,38,9,16,0.4,0.6
2022-05-21T15:00:00,1620A,118.2794,34.9976,临沂市,新光毛纺厂,臭氧1小时,103,58,99,24,49,217,206,166,166,3,37,10,14,0.5,0.8
2022-05-21T15:00:00,1621A,118.3956,35.0888,临沂市,河东保险公司,臭氧1小时,103,53,82,20,37,218,205,165,165,13,33,8,12,0.2,0.3
2022-05-21T15:00:00,1622A,116.3032,37.4674,德州市,儿童乐园,颗粒物(PM10),62,74,62,19,24,174,168,142,142,5,11,8,9,0.3,0.4
2022-05-21T15:00:00,1624A,116.2991,37.4451,德州市,监理站,颗粒物(PM10),59,67,55,24,30,166,161,134,134,5,13,13,17,0.2,0.3
2022-05-21T15:00:00,1625A,115.9848,36.4372,聊城市,区政府,颗粒物(PM10),56,61,62,17,23,166,155,131,131,8,19,10,16,0.4,0.5
2022-05-21T15:00:00,1628A,118.0062,37.3803,滨州市,市环保局,臭氧1小时,83,62,73,33,32,188,186,161,161,6,17,9,11,0.2,0
2022-05-21T15:00:00,1629A,118.0018,37.3617,滨州市,第二水厂,颗粒物(PM10),66,81,74,13,33,162,162,137,137,8,29,8,10,0.3,0.5
2022-05-21T15:00:00,1630A,117.9776,37.393,滨州市,北中新校,臭氧1小时,63,62,61,20,32,170,170,145,145,10,22,12,18,0.5,0.6
2022-05-21T15:00:00,1631A,118.0414,36.8103,淄博市,人民公园,臭氧1小时,106,44,77,20,42,221,211,169,169,,39,7,16,0.3,0.5
2022-05-21T15:00:00,1633A,117.8525,36.4847,淄博市,双山,,,40,65,34,44,200,182,158,158,,27,12,16,0.2,0.6
2022-05-21T15:00:00,1634A,117.9592,36.6331,淄博市,气象站,臭氧1小时,98,56,86,29,36,228,198,171,171,8,31,10,17,0.3,0.5
2022-05-21T15:00:00,1635A,118.3092,36.8194,淄博市,莆田园,臭氧1小时,110,66,88,31,38,227,219,188,188,12,30,17,21,0.2,0.9
2022-05-21T15:00:00,1637A,117.558,34.8438,枣庄市,市中区政府,臭氧1小时,100,58,85,19,30,202,200,166,166,20,37,8,68,0.4,0.5
2022-05-21T15:00:00,1638A,117.2852,34.7837,枣庄市,薛城环保局,臭氧1小时,65,68,73,27,30,180,172,150,150,12,33,12,14,0.5,0.7
2022-05-21T15:00:00,1639A,117.5852,34.7745,枣庄市,峄城区政府,臭氧1小时,80,56,64,22,22,184,184,153,153,14,24,30,25,0.4,0.5
2022-05-21T15:00:00,1640A,117.7276,34.5578,枣庄市,台儿庄区环保局,臭氧1小时,78,58,73,19,25,182,182,144,144,12,36,10,14,0.8,0.9
2022-05-21T15:00:00,1641A,117.4518,35.0992,枣庄市,山亭区环保局,臭氧1小时,94,58,59,32,28,195,195,154,154,14,22,13,12,0.5,0.6
2022-05-21T15:00:00,1642A,121.2514,37.5639,烟台市,开发区,臭氧1小时,83,90,72,51,36,207,186,180,180,25,24,8,8,0.6,0.7
2022-05-21T15:00:00,1643A,121.3719,37.5433,烟台市,轴承厂,臭氧1小时,104,70,68,25,37,214,208,190,190,14,16,10,8,0.7,0.8
2022-05-21T15:00:00,1644A,121.3181,37.5436,烟台市,西郊化工站,,,66,65,27,35,200,200,172,172,,20,14,12,0.7,0.7
2022-05-21T15:00:00,1645A,121.4478,37.4822,烟台市,莱山环保局,臭氧1小时,104,53,70,23,41,223,207,190,190,14,15,11,9,0.4,0.6
2022-05-21T15:00:00,1646A,121.2611,37.4967,烟台市,福山环保局,臭氧1小时,84,51,74,22,38,187,187,169,169,4,15,14,11,0.5,0.7
2022-05-21T15:00:00,1650A,119.1437,36.7023,潍坊市,环保局,臭氧1小时,103,53,88,19,41,209,206,177,177,11,25,9,12,0.5,0.8
2022-05-21T15:00:00,1653A,116.6251,35.4302,济宁市,火炬城,臭氧1小时,83,51,57,17,23,186,186,152,152,7,21,11,17,0.6,0.7
2022-05-21T15:00:00,1655A,116.5491,35.4042,济宁市,电化厂,臭氧1小时,79,55,69,19,25,184,183,149,149,21,33,6,9,0.7,0.8
2022-05-21T15:00:00,1656A,117.1437,36.1937,泰安市,监测站,臭氧1小时,72,59,67,25,32,180,177,147,147,12,21,10,12,0.3,0.4
2022-05-21T15:00:00,1657A,117.0885,36.2017,泰安市,人口学校,臭氧1小时,77,63,54,22,23,181,181,153,153,14,15,9,10,0.2,0.2
2022-05-21T15:00:00,1658A,117.1089,36.1758,泰安市,电力学校,臭氧1小时,63,56,63,22,24,172,170,145,145,5,29,8,9,0.7,0.7
2022-05-21T15:00:00,1659A,119.471,35.4209,日照市,监测站,"颗粒物(PM10),臭氧1小时",92,134,91,57,61,193,193,115,115,42,39,20,12,1.0,0.8
2022-05-21T15:00:00,1660A,119.523,35.4216,日照市,市政府广场,臭氧1小时,118,95,80,65,52,236,236,119,119,19,22,24,12,1.3,0.8
2022-05-21T15:00:00,1661A,119.5587,35.4044,日照市,港务局,臭氧1小时,118,119,80,56,40,243,236,139,139,35,24,24,11,1.3,0.8
2022-05-21T15:00:00,1662A,122.1214,37.4236,威海市,华夏技校,臭氧1小时,102,68,74,36,50,204,204,181,181,20,17,8,7,0.5,0.7
2022-05-21T15:00:00,1663A,122.0508,37.5236,威海市,山大分校,臭氧1小时,132,59,58,37,38,264,264,220,220,13,16,12,10,0.5,0.5
2022-05-21T15:00:00,1664A,122.1067,37.5072,威海市,市监测站,臭氧1小时,122,73,68,34,38,243,243,209,209,14,28,12,11,0.5,0.6
2022-05-21T15:00:00,1666A,118.6614,37.4309,东营市,市环保局,臭氧1小时,75,61,74,24,39,190,180,162,162,8,25,7,16,0.4,0.7
2022-05-21T15:00:00,1669A,113.5824,24.7733,韶关市,市八中,,22,18,38,11,28,194,70,71,68,10,12,7,8,0.7,0.7
2022-05-21T15:00:00,1671A,113.5917,24.7972,韶关市,园林处,,22,18,43,10,31,180,68,71,62,6,9,7,8,0.6,0.7
2022-05-21T15:00:00,1672A,113.6735,24.7791,韶关市,韶关学院,,23,11,36,9,28,198,72,68,65,7,11,7,9,0.5,0.6
2022-05-21T15:00:00,1673A,113.5971,24.6863,韶关市,曲江监测站,,22,19,40,10,29,186,70,69,69,9,11,6,9,0.6,0.7
2022-05-21T15:00:00,1674A,116.6794,23.3667,汕头市,金平子站,,35,22,34,8,20,130,110,106,106,4,7,10,11,0.5,0.5
2022-05-21T15:00:00,1675A,116.7244,23.3633,汕头市,龙湖子站,,35,30,36,10,16,132,109,104,104,8,9,7,8,0.4,0.5
2022-05-21T15:00:00,1676A,116.7258,23.2775,汕头市,濠江子站,,31,19,30,8,19,127,97,102,98,5,9,8,9,0.4,0.4
2022-05-21T15:00:00,1677A,116.7519,23.4714,汕头市,澄海子站,,39,33,34,15,19,137,124,104,104,10,13,6,7,0.5,0.6
2022-05-21T15:00:00,1678A,116.6092,23.2539,汕头市,潮阳子站,,,,37,19,17,115,113,100,100,6,10,8,9,0.3,0.5
2022-05-21T15:00:00,1680A,110.3539,21.2706,湛江市,湛江影剧院,,24,21,33,8,20,125,75,74,74,4,9,5,9,0.6,0.7
2022-05-21T15:00:00,1681A,110.3928,21.2228,湛江市,市环境监测站,,24,12,26,8,17,137,75,79,79,3,9,5,6,0.5,0.6
2022-05-21T15:00:00,1682A,110.4019,21.1997,湛江市,环保局宿舍,,22,15,25,9,15,109,68,72,72,2,10,4,6,0.4,0.5
2022-05-21T15:00:00,1683A,110.4111,21.2028,湛江市,霞山游泳场,,20,11,20,6,12,94,61,70,70,3,10,6,6,0.4,0.5
2022-05-21T15:00:00,1684A,110.3316,21.2679,湛江市,麻章区环保局,,29,29,34,8,20,120,84,84,84,6,10,6,10,0.6,0.6
2022-05-21T15:00:00,1685A,110.4558,21.2567,湛江市,坡头区环保局,,23,15,23,10,15,133,71,71,71,4,6,5,5,0.6,0.6
2022-05-21T15:00:00,1686A,111.0286,21.4688,茂名市,电白南海,,19,19,25,9,10,71,58,70,58,9,12,5,4,0.6,0.6
2022-05-21T15:00:00,1687A,110.9294,21.6533,茂名市,茂石化七小,,26,19,30,14,19,106,81,80,80,6,10,6,8,0.5,0.5
2022-05-21T15:00:00,1688A,110.9107,21.6687,茂名市,健康路,,21,19,22,8,10,100,67,73,73,4,8,6,7,0.5,0.5
2022-05-21T15:00:00,1689A,110.8592,21.6828,茂名市,高岭,,21,19,17,2,8,97,67,71,71,6,9,8,8,0.3,0.4
2022-05-21T15:00:00,1690A,116.1231,24.3284,梅州市,梅江月梅,,48,44,48,33,36,94,26,28,28,33,27,3,4,0.7,0.7
2022-05-21T15:00:00,1691A,116.0797,24.2719,梅州市,梅县新城,,,50,41,43,28,93,61,39,39,,26,6,5,0.8,0.8
2022-05-21T15:00:00,1692A,116.1248,24.2654,梅州市,环境监控中心,,49,39,39,34,33,89,64,47,47,16,31,5,5,0.7,0.7
2022-05-21T15:00:00,1693A,115.3653,22.775,汕尾市,市环保局,,35,18,30,15,17,122,109,100,100,6,6,8,7,0.5,0.5
2022-05-21T15:00:00,1694A,115.3706,22.7898,汕尾市,市政府,,36,8,30,14,22,131,115,107,107,5,6,6,6,0.5,0.5
2022-05-21T15:00:00,1695A,115.3622,22.7925,汕尾市,新城中学,,37,18,34,22,22,127,116,107,107,5,4,6,6,0.5,0.5
2022-05-21T15:00:00,1696A,114.6778,23.7569,河源市,源西(对照点),,36,36,57,20,34,198,72,73,57,2,21,4,5,0.5,0.4
2022-05-21T15:00:00,1697A,114.6944,23.7586,河源市,东埔,,35,35,55,23,34,196,74,88,60,10,22,4,4,0.8,0.8
2022-05-21T15:00:00,1698A,114.6892,23.7233,河源市,老城,,43,43,55,26,34,199,80,92,64,3,14,2,3,0.9,0.8
2022-05-21T15:00:00,1699A,111.9797,21.8593,阳江市,鸳鸯湖(对照点),,23,12,21,14,16,127,71,77,70,1,4,8,11,0.5,0.5
2022-05-21T15:00:00,1701A,111.9491,21.8658,阳江市,马南垌,,20,17,26,8,16,121,63,69,66,2,6,5,10,0.4,0.5
2022-05-21T15:00:00,1702A,113.0426,23.691,清远市,环保大楼(对照点),,41,32,56,28,38,200,131,87,87,4,17,3,5,0.7,0.7
2022-05-21T15:00:00,1703A,113.0208,23.7106,清远市,凤城街办,,43,42,61,30,39,178,101,78,78,4,16,3,11,0.8,0.8
2022-05-21T15:00:00,1705A,116.6367,23.6719,潮州市,西园路(对照点),,41,38,46,20,30,169,131,106,106,10,15,5,9,0.6,0.7
2022-05-21T15:00:00,1706A,116.6447,23.6706,潮州市,档案局,,,52,45,22,27,190,143,115,115,11,16,,14,0.6,0.6
2022-05-21T15:00:00,1708A,116.3701,23.5345,揭阳市,新兴,臭氧1小时,59,59,48,25,26,167,167,117,117,14,14,10,11,0.8,0.7
2022-05-21T15:00:00,1709A,116.3264,23.5443,揭阳市,西马,臭氧1小时,62,47,43,23,25,169,169,116,116,9,12,8,9,0.7,0.7
2022-05-21T15:00:00,1710A,116.3611,23.5626,揭阳市,东兴,臭氧1小时,58,62,53,23,23,166,166,116,116,9,11,6,7,0.7,0.6
2022-05-21T15:00:00,1711A,116.4151,23.5294,揭阳市,渔湖,,50,43,38,24,20,159,159,119,119,14,13,8,9,0.5,0.6
2022-05-21T15:00:00,1714A,112.0539,22.9539,云浮市,牧羊,细颗粒物(PM2.5),72,59,67,52,42,119,98,48,48,18,31,13,22,0.8,0.7
2022-05-21T15:00:00,1715A,102.575,24.3711,玉溪市,东风水库,,16,3,17,3,11,92,50,61,44,11,9,8,8,0.8,0.7
2022-05-21T15:00:00,1718A,115.4208,35.2464,菏泽市,气象局,臭氧1小时,68,78,76,22,28,181,174,144,144,9,24,7,11,0.3,0.4
2022-05-21T15:00:00,1719A,115.4747,35.2375,菏泽市,市政协,臭氧1小时,64,75,78,22,26,179,171,144,144,7,21,8,12,0.2,0.2
2022-05-21T15:00:00,1721A,113.3819,40.1097,大同市,果树场(对照点),颗粒物(PM10),57,63,86,29,34,157,150,118,118,7,29,16,27,0.4,0.5
2022-05-21T15:00:00,1723A,113.2994,40.0758,大同市,云冈宾馆,颗粒物(PM10),73,95,90,25,26,150,145,109,109,18,37,11,27,0.7,1
2022-05-21T15:00:00,1724A,113.3444,40.0917,大同市,大同大学,,48,40,46,22,26,157,153,120,120,9,29,13,29,0.3,0.4
2022-05-21T15:00:00,1725A,113.2661,40.1269,大同市,安家小村,颗粒物(PM10),55,59,92,24,26,160,158,119,119,10,30,16,33,0.4,1.5
2022-05-21T15:00:00,1726A,113.2711,40.0844,大同市,教育学院,,,60,96,23,27,153,147,108,108,17,38,14,32,,0.9
2022-05-21T15:00:00,1727A,113.1147,36.1547,长治市,清华站,臭氧1小时,95,45,51,19,23,196,196,136,136,10,21,16,13,0.3,0.5
2022-05-21T15:00:00,1728A,113.1031,36.1989,长治市,监测站,臭氧1小时,106,45,50,22,25,212,212,139,139,5,26,14,13,0.6,0.7
2022-05-21T15:00:00,1730A,113.0886,36.2125,长治市,审计局,臭氧1小时,110,37,42,24,23,220,220,144,144,13,34,9,9,0.8,0.9
2022-05-21T15:00:00,1731A,113.0844,36.1856,长治市,长治八中,臭氧1小时,101,39,53,11,19,202,202,136,136,11,27,10,11,0.6,0.6
2022-05-21T15:00:00,1733A,111.5531,36.0783,临汾市,临钢医院,臭氧1小时,112,39,59,18,28,236,224,153,153,11,30,9,9,0.6,0.7
2022-05-21T15:00:00,1734A,111.5028,36.0714,临汾市,技工学校,臭氧1小时,105,25,59,18,33,210,209,131,131,12,37,9,11,0.6,0.7
2022-05-21T15:00:00,1736A,111.5018,36.0855,临汾市,市委,臭氧1小时,115,42,60,25,29,236,229,144,144,11,42,15,16,0.5,0.7
2022-05-21T15:00:00,1738A,113.5758,37.8572,阳泉市,市中心,,50,19,68,11,26,165,158,127,127,6,49,7,24,0.4,0.7
2022-05-21T15:00:00,1739A,113.4894,37.8731,阳泉市,赛鱼,,50,16,48,8,21,165,159,136,136,10,54,8,14,0.3,0.6
2022-05-21T15:00:00,1740A,113.5819,37.8486,阳泉市,南庄,,49,31,65,9,24,166,154,123,123,14,37,8,11,0.3,0.7
2022-05-21T15:00:00,1742A,113.5614,37.8703,阳泉市,平坦,,49,21,63,7,22,160,155,133,133,8,46,7,17,0.4,0.7
2022-05-21T15:00:00,1743A,113.5158,37.8392,阳泉市,大阳泉,,50,24,34,7,22,166,157,134,134,9,24,11,12,0.4,0.5
2022-05-21T15:00:00,1744A,118.9233,42.2816,赤峰市,松山一中,,39,18,34,13,16,122,122,94,94,17,31,10,11,0.5,0.7
2022-05-21T15:00:00,1745A,118.9576,42.2728,赤峰市,哈达街,,38,34,42,14,14,119,119,90,90,16,27,22,10,0.5,0.6
2022-05-21T15:00:00,1746A,118.8788,42.2554,赤峰市,天义路,,,19,24,10,10,130,130,98,98,10,28,11,17,,0.5
2022-05-21T15:00:00,1748A,123.044,41.1196,鞍山市,深沟寺,臭氧1小时,114,128,89,68,46,228,228,180,180,32,16,34,15,2.0,1
2022-05-21T15:00:00,1749A,123.011,41.0931,鞍山市,太阳城,臭氧1小时,115,112,86,62,46,230,230,178,178,20,18,18,13,1.5,1.1
2022-05-21T15:00:00,1750A,123.0485,41.1442,鞍山市,太平,臭氧1小时,111,136,95,76,49,221,221,166,166,28,19,28,18,2.0,1.2
2022-05-21T15:00:00,1751A,122.9642,41.0971,鞍山市,铁西三道街,臭氧1小时,116,126,102,63,51,232,232,177,177,26,21,16,14,1.5,1.2
2022-05-21T15:00:00,1752A,122.9341,41.0833,鞍山市,铁西工业园区,臭氧1小时,118,107,90,60,49,235,235,180,180,17,13,18,15,1.3,1
2022-05-21T15:00:00,1753A,123.022,41.0821,鞍山市,明达新区,臭氧1小时,119,110,80,68,47,238,238,182,182,19,16,14,11,1.2,0.9
2022-05-21T15:00:00,1754A,123.1289,41.0228,鞍山市,千山(对照点),臭氧1小时,101,84,48,54,31,210,202,149,149,13,11,16,13,1.0,1
2022-05-21T15:00:00,1755A,123.7977,41.8491,抚顺市,望花区,颗粒物(PM10),58,66,75,20,38,195,132,157,157,14,21,9,15,0.5,1
2022-05-21T15:00:00,1756A,123.9161,41.8822,抚顺市,顺城区,颗粒物(PM10),52,53,76,13,37,180,106,143,142,14,21,8,14,0.4,0.8
2022-05-21T15:00:00,1757A,124.0436,41.8611,抚顺市,东洲区,,42,34,73,16,36,210,134,164,164,7,16,6,13,0.6,0.9
2022-05-21T15:00:00,1758A,123.9247,41.8642,抚顺市,新抚区,颗粒物(PM10),57,63,72,30,33,190,123,152,152,11,20,5,11,0.3,0.6
2022-05-21T15:00:00,1759A,124.0972,41.8961,抚顺市,大伙房水库,,41,34,56,13,33,215,130,170,169,2,8,6,12,0.4,0.7
2022-05-21T15:00:00,1760A,123.7086,41.8391,抚顺市,沈抚新城,颗粒物(PM10),55,60,68,20,43,211,149,162,162,11,22,12,16,0.2,0.7
2022-05-21T15:00:00,1761A,123.8275,41.3064,本溪市,大峪,臭氧1小时,84,106,63,43,29,195,187,159,159,20,20,17,10,1.0,0.8
2022-05-21T15:00:00,1762A,123.7567,41.3325,本溪市,溪湖,臭氧1小时,87,79,64,44,34,208,189,141,141,22,38,32,28,1.2,1.5
2022-05-21T15:00:00,1763A,123.7169,41.3094,本溪市,彩屯,臭氧1小时,87,66,77,39,56,204,189,128,128,16,45,23,29,1.0,2.6
2022-05-21T15:00:00,1764A,123.7669,41.2864,本溪市,东明,,,88,53,32,27,186,186,154,154,20,12,,10,1.1,0.8
2022-05-21T15:00:00,1765A,123.7992,41.2664,本溪市,新立屯,,,118,55,65,33,186,186,160,156,16,9,18,8,,0.9
2022-05-21T15:00:00,1766A,123.8142,41.3472,本溪市,威宁,臭氧1小时,88,95,56,44,32,199,190,148,148,13,19,19,13,1.3,0.7
2022-05-21T15:00:00,1767A,121.1115,41.0879,锦州市,南山,,,,93,40,80,172,147,116,116,13,21,14,20,0.5,0.6
2022-05-21T15:00:00,1768A,121.0533,40.8434,锦州市,开发区,细颗粒物(PM2.5),132,142,135,100,96,167,149,118,118,28,39,12,23,1.3,1
2022-05-21T15:00:00,1769A,121.1836,41.1119,锦州市,百股街道,颗粒物(PM10),75,100,88,33,55,197,172,136,136,15,25,16,17,1.1,1.1
2022-05-21T15:00:00,1770A,121.1178,41.1222,锦州市,天安街道,臭氧1小时,59,60,104,16,70,188,167,135,135,17,29,17,24,0.9,1.1
2022-05-21T15:00:00,1771A,121.1303,41.1386,锦州市,北湖公园,,50,47,100,21,80,179,158,128,128,13,26,11,18,0.7,0.9
2022-05-21T15:00:00,1772A,126.54,43.8622,吉林市,哈达湾,,41,19,49,4,27,155,131,149,136,5,11,3,6,0.6,0.9
2022-05-21T15:00:00,1773A,126.5844,43.8358,吉林市,东局子,,40,13,51,6,28,152,126,146,133,8,15,5,7,0.4,0.7
2022-05-21T15:00:00,1774A,126.5052,43.8245,吉林市,电力学院,,45,14,48,5,28,161,143,150,147,5,14,8,11,0.5,0.8
2022-05-21T15:00:00,1775A,126.6133,43.8972,吉林市,江北,,40,17,48,4,27,150,126,148,132,8,12,11,10,0.5,0.7
2022-05-21T15:00:00,1776A,126.555,43.8306,吉林市,江南公园,,39,11,45,7,28,147,122,139,128,8,13,4,7,0.3,0.6
2022-05-21T15:00:00,1778A,126.7061,43.7133,吉林市,丰满(对照点),颗粒物(PM10),59,67,68,12,28,161,124,161,136,6,7,4,6,0.6,0.8
2022-05-21T15:00:00,1779A,123.9305,47.3636,齐齐哈尔市,安居小区,,30,22,37,3,12,96,96,86,86,13,23,4,4,0.4,0.6
2022-05-21T15:00:00,1780A,123.9488,47.3386,齐齐哈尔市,中心广场,,31,12,34,3,12,98,98,86,86,10,22,4,4,0.3,0.4
2022-05-21T15:00:00,1781A,123.9483,47.3227,齐齐哈尔市,农牧车辆厂,,33,24,37,8,14,104,104,92,92,5,16,2,4,0.2,0.3
2022-05-21T15:00:00,1783A,123.945,47.2988,齐齐哈尔市,市环境监测站,,32,22,37,7,17,104,102,94,94,8,15,3,4,0.5,0.5
2022-05-21T15:00:00,1784A,129.61,44.561,牡丹江市,环保大楼,,35,29,44,9,17,135,109,121,121,7,14,3,4,0.3,0.5
2022-05-21T15:00:00,1785A,129.6115,44.5782,牡丹江市,文化广场,,33,30,37,15,19,129,103,115,115,10,18,2,4,0.2,0.4
2022-05-21T15:00:00,1786A,129.5904,44.5963,牡丹江市,第一医院,,,,,,,126,103,114,114,7,19,2,3,0.6,0.8
2022-05-21T15:00:00,1787A,129.6364,44.6075,牡丹江市,机车工厂,,33,33,43,7,15,129,105,116,116,6,22,4,9,0.2,0.4
2022-05-21T15:00:00,1788A,129.6386,44.5462,牡丹江市,第一中学,,34,25,36,12,16,132,108,119,119,8,16,2,3,0.3,0.4
2022-05-21T15:00:00,1789A,124.81117,46.03138,大庆市,大同区,,,8,23,5,11,108,100,97,97,,8,3,4,0.4,0.4
2022-05-21T15:00:00,1790A,125.129,46.533,大庆市,龙凤区,,30,20,27,6,10,98,94,91,91,12,14,5,5,0.1,0.2
2022-05-21T15:00:00,1791A,124.902,46.408,大庆市,红岗区,,32,9,25,7,11,109,100,100,100,4,8,11,9,0.4,0.4
2022-05-21T15:00:00,1792A,125.153,46.586,大庆市,萨尔图区,,31,14,24,8,11,101,98,96,96,9,10,4,5,0.5,0.4
2022-05-21T15:00:00,1793A,124.9042,46.6215,大庆市,让胡路区,,36,20,27,20,18,113,113,106,106,6,11,12,12,0.2,0.3
2022-05-21T15:00:00,1794A,118.3606,31.3519,芜湖市,监测站,臭氧1小时,88,58,74,18,47,200,190,136,136,16,42,10,12,0.7,0.9
2022-05-21T15:00:00,1795A,118.3714,31.4134,芜湖市,科创中心,臭氧1小时,92,53,74,23,51,201,193,130,130,12,49,8,10,0.6,0.7
2022-05-21T15:00:00,1796A,118.3673,31.3131,芜湖市,四水厂,臭氧1小时,90,64,75,30,47,193,192,140,140,14,37,8,9,0.7,0.9
2022-05-21T15:00:00,1798A,118.5092,31.6837,马鞍山市,湖东路四小,臭氧1小时,103,44,77,17,60,253,206,155,155,13,34,5,8,0.5,0.9
2022-05-21T15:00:00,1799A,118.5024,31.6449,马鞍山市,开发区,臭氧1小时,108,76,81,33,50,245,215,151,151,13,42,10,12,0.9,1.1
2022-05-21T15:00:00,1800A,118.5228,31.7231,马鞍山市,慈湖,臭氧1小时,83,47,97,17,52,223,186,134,134,9,36,12,15,0.6,1.1
2022-05-21T15:00:00,1802A,118.6245,31.7241,马鞍山市,濮塘(对照点),臭氧1小时,67,56,75,24,47,195,173,134,134,6,19,9,11,0.7,0.9
2022-05-21T15:00:00,1803A,115.9872,29.6815,九江市,十里,臭氧1小时,94,58,53,42,38,195,195,122,122,12,32,7,6,0.7,0.7
2022-05-21T15:00:00,1804A,115.9584,29.7046,九江市,茅山头,臭氧1小时,83,66,49,43,38,186,186,112,112,16,34,6,5,0.6,0.5
2022-05-21T15:00:00,1805A,115.9877,29.7295,九江市,西园,臭氧1小时,65,67,58,39,38,172,172,100,100,24,42,6,9,0.7,0.6
2022-05-21T15:00:00,1806A,116.0172,29.6547,九江市,五七二七厂,臭氧1小时,104,66,51,35,27,210,207,142,142,6,9,10,7,0.7,0.5
2022-05-21T15:00:00,1808A,115.9114,29.6038,九江市,综合工业园,臭氧1小时,84,62,55,44,35,204,187,120,120,26,50,10,8,0.6,0.7
2022-05-21T15:00:00,1809A,116.0721,29.7535,九江市,石化总厂,臭氧1小时,70,66,72,50,43,176,176,108,108,13,42,7,8,0.6,0.6
2022-05-21T15:00:00,1810A,115.9773,29.5698,九江市,庐山气象台(对照点),"细颗粒物(PM2.5),臭氧1小时",53,39,27,37,26,168,162,158,158,8,5,9,7,0.9,0.6
2022-05-21T15:00:00,1812A,112.3931,34.6516,洛阳市,市委党校,臭氧1小时,70,40,50,18,24,178,176,142,142,4,10,16,12,0.4,0.5
2022-05-21T15:00:00,1814A,112.4657,34.6871,洛阳市,豫西宾馆,臭氧1小时,68,45,55,19,27,184,174,149,149,7,13,8,8,0.2,0.5
2022-05-21T15:00:00,1815A,112.494,34.6886,洛阳市,河南林校,臭氧1小时,65,36,50,20,26,187,172,148,148,9,15,12,10,0.2,0.3
2022-05-21T15:00:00,1816A,112.3844,34.623,洛阳市,开发区管委会,臭氧1小时,80,40,49,23,27,184,184,140,140,14,16,15,10,0.2,0.3
2022-05-21T15:00:00,1817A,112.4267,34.6258,洛阳市,市委新办公区,臭氧1小时,69,37,48,17,26,175,175,136,136,13,14,17,11,0.3,0.4
2022-05-21T15:00:00,1818A,114.4839,36.0621,安阳市,棉研所(对照点),臭氧1小时,83,84,71,27,24,192,186,135,135,10,21,10,7,0.6,0.5
2022-05-21T15:00:00,1819A,114.3551,36.1017,安阳市,红庙街,臭氧1小时,101,87,71,28,23,209,201,144,144,15,29,13,16,0.4,0.5
2022-05-21T15:00:00,1820A,114.361,36.0681,安阳市,银杏小区,臭氧1小时,101,90,75,26,26,212,202,142,142,14,28,11,14,0.6,0.7
2022-05-21T15:00:00,1824A,114.3389,34.7781,开封市,肿瘤医院,臭氧1小时,62,55,60,20,26,169,169,140,140,4,15,6,15,0.5,0.6
2022-05-21T15:00:00,1826A,114.2885,34.7965,开封市,世纪星幼儿园,臭氧1小时,63,56,58,20,23,173,170,142,142,6,17,5,16,0.4,0.5
2022-05-21T15:00:00,1828A,113.2269,35.2127,焦作市,市环保局,臭氧1小时,73,37,52,12,26,194,178,144,144,12,25,4,6,0.3,0.4
2022-05-21T15:00:00,1829A,113.2467,35.176,焦作市,高新区政府,臭氧1小时,62,49,71,14,28,193,169,132,132,11,31,9,12,0.2,0.3
2022-05-21T15:00:00,1830A,113.1987,35.2703,焦作市,影视城(对照点),臭氧1小时,83,43,39,22,22,191,186,152,152,11,13,10,9,0.4,0.5
2022-05-21T15:00:00,1832A,113.3257,33.742,平顶山市,新华旅馆,,49,33,69,21,31,155,155,127,127,4,18,1,3,0.1,0.2
2022-05-21T15:00:00,1833A,113.2919,33.737,平顶山市,规划设计院,,47,31,46,16,23,149,148,125,125,8,18,4,5,0.3,0.4
2022-05-21T15:00:00,1834A,113.182,33.774,平顶山市,平顶山工学院,,46,38,50,22,30,164,145,122,122,8,15,3,2,0.3,0.4
2022-05-21T15:00:00,1835A,111.1922,34.7752,三门峡市,市政府,臭氧1小时,67,40,54,16,25,190,173,150,150,11,32,7,12,0.3,0.5
2022-05-21T15:00:00,1836A,111.1587,34.7942,三门峡市,开发区,臭氧1小时,60,45,54,15,26,181,168,146,146,7,18,4,9,0.4,0.6
2022-05-21T15:00:00,1838A,111.143,34.7955,三门峡市,风景区(对照点),臭氧1小时,68,46,55,16,19,185,174,157,157,5,10,4,7,0.4,0.6
2022-05-21T15:00:00,1840A,111.2992,30.6981,宜昌市,白龙岗,臭氧1小时,68,44,50,24,33,174,174,104,104,17,25,8,7,0.3,0.4
2022-05-21T15:00:00,1841A,111.3549,30.6465,宜昌市,伍家岗,,,,50,,38,156,149,99,99,,27,6,5,0.4,0.4
2022-05-21T15:00:00,1842A,111.2628,30.6961,宜昌市,点军区,臭氧1小时,58,43,52,27,34,166,166,95,95,16,23,6,5,0.4,0.4
2022-05-21T15:00:00,1843A,111.3275,30.7819,宜昌市,夷陵区,,48,40,49,27,32,152,151,98,98,13,16,6,6,0.3,0.3
2022-05-21T15:00:00,1844A,112.2494,30.3197,荆州市,市图书馆,颗粒物(PM10),52,53,58,31,38,142,131,116,116,21,40,10,9,0.5,0.7
2022-05-21T15:00:00,1845A,112.2008,30.3544,荆州市,市委党校,细颗粒物(PM2.5),52,51,59,36,39,158,158,121,121,16,40,10,12,0.5,0.7
2022-05-21T15:00:00,1847A,113.1094,29.3578,岳阳市,南湖风景区,,50,36,50,24,34,160,157,118,118,12,32,10,10,0.9,0.9
2022-05-21T15:00:00,1848A,113.1493,29.4251,岳阳市,城陵矶,,42,39,48,25,28,137,132,106,106,20,43,13,13,0.9,0.7
2022-05-21T15:00:00,1849A,113.1497,29.3575,岳阳市,开发区,,47,40,48,28,30,150,150,112,112,15,29,12,9,0.9,0.8
2022-05-21T15:00:00,1850A,113.2621,29.4758,岳阳市,云溪区,,,29,39,29,31,116,,94,94,,25,,14,,0.9
2022-05-21T15:00:00,1851A,112.9943,29.4402,岳阳市,君山区,,46,36,41,28,35,152,146,116,116,7,22,5,6,0.8,0.8
2022-05-21T15:00:00,1852A,113.2117,29.355,岳阳市,金凤水库(对照点),,44,34,32,26,26,141,138,106,106,9,14,10,8,0.8,0.6
2022-05-21T15:00:00,1854A,111.6975,28.9703,常德市,市二中,,38,32,39,14,30,130,119,90,90,6,15,6,8,0.5,0.6
2022-05-21T15:00:00,1857A,111.7158,29.1456,常德市,白鹤山(对照点),,35,33,39,23,35,115,109,95,95,3,3,5,6,0.4,0.4
2022-05-21T15:00:00,1858A,110.5319,29.1217,张家界市,永定新区,,,34,21,25,15,110,100,78,78,6,8,3,1,,0.7
2022-05-21T15:00:00,1859A,110.4697,29.1242,张家界市,电业局,,39,29,15,27,13,103,94,68,68,12,11,2,1,0.1,0.1
2022-05-21T15:00:00,1860A,110.5594,29.3547,张家界市,未央路,,40,40,36,18,21,101,97,83,83,5,5,3,2,0.3,0.3
2022-05-21T15:00:00,1861A,110.4417,29.315,张家界市,袁家界(对照点),,36,35,32,6,12,120,114,102,102,5,5,6,6,0.2,0.3
2022-05-21T15:00:00,1862A,110.4144,25.3167,桂林市,电子科大尧山校区(对照点),,,37,24,26,20,88,75,78,63,4,4,,6,0.7,0.7
2022-05-21T15:00:00,1863A,110.2819,25.2697,桂林市,监测站,颗粒物(PM10),54,57,35,33,25,89,78,82,58,12,11,7,8,0.7,0.7
2022-05-21T15:00:00,1864A,110.3089,25.2708,桂林市,龙隐路小学,,49,49,32,33,25,92,73,84,56,13,11,9,16,0.7,0.6
2022-05-21T15:00:00,1865A,110.2869,25.2178,桂林市,八中,细颗粒物(PM2.5),74,51,32,54,19,87,61,86,50,16,13,8,12,0.6,0.6
2022-05-21T15:00:00,1866A,109.2262,21.588,北海市,牛尾岭水库(对照点),,47,47,41,27,31,106,106,70,70,8,11,6,6,0.5,0.5
2022-05-21T15:00:00,1867A,109.1436,21.4086,北海市,海滩公园,,30,18,42,15,22,122,96,83,83,2,8,4,6,0.8,0.6
2022-05-21T15:00:00,1868A,109.0981,21.4661,北海市,新市环保局,细颗粒物(PM2.5),52,37,39,36,29,132,129,90,90,6,8,5,7,0.8,0.7
2022-05-21T15:00:00,1869A,109.1778,21.5233,北海市,北海工业园,颗粒物(PM10),53,55,51,22,30,120,120,76,76,7,12,6,9,0.7,0.7
2022-05-21T15:00:00,1870A,109.4856,24.3895,柳州市,柳东小学,,40,28,25,28,24,68,47,48,37,9,12,12,20,0.9,0.8
2022-05-21T15:00:00,1871A,109.4157,24.3277,柳州市,环保监测站,细颗粒物(PM2.5),58,42,28,41,20,65,50,39,39,18,23,19,19,0.8,0.8
2022-05-21T15:00:00,1873A,109.4311,24.2921,柳州市,市四中,颗粒物(PM10),54,58,33,27,18,67,49,43,42,18,18,16,16,0.9,0.8
2022-05-21T15:00:00,1874A,109.4006,24.3631,柳州市,市九中,颗粒物(PM10),55,60,38,38,22,56,43,36,34,21,24,19,20,1.0,1
2022-05-21T15:00:00,1875A,109.4958,24.3134,柳州市,古亭山,,32,31,24,22,16,71,55,46,46,9,11,4,11,0.8,0.7
2022-05-21T15:00:00,1876A,109.5078,18.2489,三亚市,河东子站,,19,15,16,6,9,69,59,55,55,2,4,3,3,0.4,0.4
2022-05-21T15:00:00,1877A,109.4964,18.2681,三亚市,河西子站,,20,10,17,5,8,69,61,52,52,2,5,1,2,0.3,0.3
2022-05-21T15:00:00,1878A,104.7778,31.4741,绵阳市,富乐山,细颗粒物(PM2.5),58,46,36,41,28,137,60,70,32,26,15,5,5,0.8,0.8
2022-05-21T15:00:00,1879A,104.7563,31.4535,绵阳市,市人大,细颗粒物(PM2.5),59,62,61,42,36,126,35,26,26,44,46,8,9,0.7,0.8
2022-05-21T15:00:00,1880A,104.6697,31.4668,绵阳市,高新区自来水公司,细颗粒物(PM2.5),54,37,79,38,54,139,55,23,23,37,49,5,5,0.7,0.9
2022-05-21T15:00:00,1881A,104.7287,31.5075,绵阳市,三水厂,细颗粒物(PM2.5),82,79,88,60,59,143,62,21,21,26,44,8,8,0.9,1
2022-05-21T15:00:00,1882A,104.563,28.793,宜宾市,石马中学(对照点),,35,30,42,24,27,121,44,22,22,12,21,7,8,0.7,0.8
2022-05-21T15:00:00,1883A,104.6201,28.7728,宜宾市,市委,,32,32,45,21,28,122,38,21,21,26,35,8,7,0.5,0.7
2022-05-21T15:00:00,1884A,104.6055,28.793,宜宾市,宜宾四中,,37,37,49,24,30,120,40,21,21,23,39,6,7,0.5,0.8
2022-05-21T15:00:00,1885A,104.639,28.7562,宜宾市,市政府,,34,34,52,16,27,124,48,24,24,24,42,6,6,0.6,0.7
2022-05-21T15:00:00,1886A,104.5742,28.7199,宜宾市,黄金嘴,,33,33,45,20,27,108,38,24,24,20,31,8,7,0.5,0.7
2022-05-21T15:00:00,1888A,101.6891,26.571,攀枝花市,弄弄坪,,30,20,27,9,13,112,94,71,61,4,10,3,5,0.7,0.8
2022-05-21T15:00:00,1889A,101.5769,26.5928,攀枝花市,河门口,,43,43,41,23,20,106,86,54,50,23,32,30,25,1.7,1.9
2022-05-21T15:00:00,1890A,101.7169,26.585,攀枝花市,炳草岗,,28,25,25,15,16,100,87,66,52,7,15,16,18,0.4,0.5
2022-05-21T15:00:00,1893A,105.4324,28.9634,泸州市,九狮山(对照点),,49,46,38,34,15,107,66,35,28,16,20,15,9,0.5,0.5
2022-05-21T15:00:00,1894A,105.4427,28.9063,泸州市,小市上码头,,49,49,39,22,15,110,54,29,25,20,24,31,20,0.6,0.6
2022-05-21T15:00:00,1895A,105.4241,28.8573,泸州市,兰田宪桥,,44,44,37,17,14,122,58,28,28,14,24,104,13,0.6,0.6
2022-05-21T15:00:00,1896A,105.4379,28.8833,泸州市,市环监站,颗粒物(PM10),53,55,34,15,13,114,45,34,22,25,29,33,19,0.5,0.6
2022-05-21T15:00:00,1901A,104.4239,31.1208,德阳市,东山公园,,44,44,47,27,30,157,78,90,50,25,22,5,7,0.5,0.6
2022-05-21T15:00:00,1902A,104.3826,31.1317,德阳市,西小区,颗粒物(PM10),58,65,74,36,37,161,65,39,39,35,49,6,8,0.7,0.8
2022-05-21T15:00:00,1904A,104.3553,31.1091,德阳市,耐火材料厂,颗粒物(PM10),51,51,83,30,42,178,71,41,41,35,42,6,8,0.6,0.8
2022-05-21T15:00:00,1905A,106.056,30.8064,南充市,西山风景区(对照点),细颗粒物(PM2.5),52,37,36,36,31,104,98,58,58,12,21,1,4,0.5,0.6
2022-05-21T15:00:00,1906A,106.0789,30.8023,南充市,南充市委,,46,46,47,28,26,113,109,79,79,11,27,1,2,0.6,0.7
2022-05-21T15:00:00,1907A,106.1031,30.8217,南充市,南充炼油厂,颗粒物(PM10),51,51,56,25,32,126,117,56,56,5,22,2,1,0.6,0.6
2022-05-21T15:00:00,1908A,106.1064,30.7856,南充市,高坪区监测站,,49,49,45,30,29,113,95,66,66,8,23,2,2,0.6,0.7
2022-05-21T15:00:00,1909A,106.0642,30.7636,南充市,嘉陵区环保局,,43,35,38,30,30,113,90,60,60,9,27,6,6,0.5,0.7
2022-05-21T15:00:00,1910A,106.1087,30.8388,南充市,市环境监测站,,42,41,53,29,36,118,118,80,80,12,27,2,2,0.5,0.5
2022-05-21T15:00:00,1911A,106.9222,27.6869,遵义市,丁字口,,32,28,46,22,32,100,87,35,35,11,22,5,7,0.6,0.8
2022-05-21T15:00:00,1912A,106.9242,27.7019,遵义市,凤凰山,,,30,33,19,23,124,,36,36,8,19,5,5,0.5,0.7
2022-05-21T15:00:00,1913A,106.8906,27.6486,遵义市,忠庄,,32,32,58,21,36,92,81,32,32,9,25,1,1,0.3,0.6
2022-05-21T15:00:00,1914A,106.9231,27.6506,遵义市,舟水桥,,35,27,60,24,45,103,76,32,32,10,16,2,2,0.3,0.7
2022-05-21T15:00:00,1915A,106.9178,27.72,遵义市,干田坝,,36,32,31,25,22,94,81,39,39,7,19,5,5,0.7,0.7
2022-05-21T15:00:00,1916A,103.7897,25.5035,曲靖市,环境监测站,,29,22,32,20,20,121,49,56,50,21,17,8,9,1.0,0.9
2022-05-21T15:00:00,1917A,103.8,25.5364,曲靖市,烟厂办公区,,26,26,34,13,18,132,62,65,60,14,12,5,5,0.9,0.9
2022-05-21T15:00:00,1918A,108.7197,34.3956,咸阳市,气象站(对照点),臭氧1小时,100,71,83,31,30,200,200,126,126,15,58,12,10,0.7,0.8
2022-05-21T15:00:00,1919A,108.673,34.3155,咸阳市,实验中学,颗粒物(PM10),88,126,87,45,35,194,149,103,103,43,51,6,6,0.4,0.4
2022-05-21T15:00:00,1920A,108.7233,34.3617,咸阳市,师范学院,臭氧1小时,108,84,75,41,33,216,216,135,135,22,53,9,9,0.6,0.6
2022-05-21T15:00:00,1922A,109.0656,35.0994,铜川市,党校(对照点),颗粒物(PM10),62,74,47,29,25,170,161,118,118,29,35,14,8,0.7,0.5
2022-05-21T15:00:00,1923A,109.0697,35.0697,铜川市,王益区政府,颗粒物(PM10),65,80,52,30,23,179,155,126,126,31,29,14,9,0.7,0.5
2022-05-21T15:00:00,1924A,108.9344,34.9058,铜川市,新区管委会,臭氧1小时,60,53,48,26,25,179,168,135,135,12,20,10,13,0.5,0.5
2022-05-21T15:00:00,1926A,109.4131,36.6275,延安市,枣园(对照点),臭氧1小时,65,44,45,18,22,174,172,118,118,5,29,5,4,0.5,0.5
2022-05-21T15:00:00,1927A,109.4761,36.6028,延安市,延大医附院,,,,58,18,25,180,178,139,139,4,36,4,4,0.5,0.6
2022-05-21T15:00:00,1929A,109.5056,36.6106,延安市,百米大道,臭氧1小时,65,32,59,21,25,175,172,117,117,8,40,4,4,0.5,0.7
2022-05-21T15:00:00,1930A,107.185,34.3063,宝鸡市,庙沟村(对照点),颗粒物(PM10),57,64,51,30,25,147,96,92,92,21,11,5,5,0.5,0.5
2022-05-21T15:00:00,1931A,107.0708,34.3017,宝鸡市,竹园沟,颗粒物(PM10),52,53,40,23,24,168,115,111,111,11,14,7,7,0.5,0.5
2022-05-21T15:00:00,1932A,107.1906,34.3672,宝鸡市,三陆医院,颗粒物(PM10),63,76,63,36,33,158,136,103,103,25,29,9,11,0.7,0.6
2022-05-21T15:00:00,1933A,107.1431,34.3547,宝鸡市,监测站,颗粒物(PM10),64,77,53,38,31,162,136,106,106,29,25,7,6,0.8,0.7
2022-05-21T15:00:00,1934A,107.1186,34.3739,宝鸡市,技工学校,颗粒物(PM10),64,78,58,40,33,164,152,109,109,31,20,9,6,0.7,0.5
2022-05-21T15:00:00,1935A,107.3906,34.3528,宝鸡市,陈仓区环保局家属楼,颗粒物(PM10),56,62,72,30,28,165,135,139,138,17,26,9,8,0.5,0.5
2022-05-21T15:00:00,1936A,107.2058,34.3497,宝鸡市,文理学院,颗粒物(PM10),61,71,62,38,37,170,140,110,110,26,29,9,10,0.4,0.5
2022-05-21T15:00:00,1937A,107.2386,34.3622,宝鸡市,三迪小学,颗粒物(PM10),59,67,65,27,36,163,119,105,105,23,32,9,11,0.4,0.5
2022-05-21T15:00:00,1938A,109.5293,34.5101,渭南市,农科所(对照点),细颗粒物(PM2.5),58,34,48,41,32,162,162,119,119,15,34,10,11,0.6,0.5
2022-05-21T15:00:00,1939A,109.4974,34.4877,渭南市,日报社,臭氧1小时,72,56,59,27,25,177,177,119,119,5,33,8,10,0.5,0.5
2022-05-21T15:00:00,1940A,109.4636,34.493,渭南市,体育馆,臭氧1小时,83,56,56,27,23,186,186,128,128,14,46,6,7,0.5,0.5
2022-05-21T15:00:00,1941A,109.4259,34.5023,渭南市,高新一小,臭氧1小时,68,64,74,22,26,174,174,122,122,12,38,9,7,0.5,0.5
2022-05-21T15:00:00,1943A,102.1725,38.5339,金昌市,新川苑,,45,40,85,9,15,141,141,102,102,10,30,18,27,0.4,0.6
2022-05-21T15:00:00,1944A,102.1692,38.5167,金昌市,天庆家园,,49,49,87,12,28,139,139,108,108,6,31,20,33,0.3,0.6
2022-05-21T15:00:00,1945A,98.2908,39.7711,嘉峪关市,气象局,颗粒物(PM10),65,80,104,27,36,130,130,99,99,3,16,3,6,0.5,0.6
2022-05-21T15:00:00,1947A,106.3394,38.817,石嘴山市,沙湖旅游区(对照点),颗粒物(PM10),60,69,72,20,23,179,163,122,122,9,26,27,27,0.3,0.4
2022-05-21T15:00:00,1948A,106.3668,39.0145,石嘴山市,大武口朝阳西街,,50,38,63,28,29,183,160,123,123,8,36,9,17,0.3,0.4
2022-05-21T15:00:00,1949A,106.7704,39.2282,石嘴山市,惠农南大街,颗粒物(PM10),63,76,62,21,21,199,134,127,127,31,31,21,13,0.7,0.6
2022-05-21T15:00:00,1950A,106.7099,39.1325,石嘴山市,红果子镇惠新街,颗粒物(PM10),65,79,84,35,31,155,134,111,111,11,30,9,10,0.5,0.5
2022-05-21T15:00:00,1951A,84.895,45.6094,克拉玛依市,长征新村,,36,36,33,2,4,117,105,94,94,4,12,5,5,0.1,0.2
2022-05-21T15:00:00,1952A,84.8988,45.5893,克拉玛依市,南林小区,,34,28,31,11,11,125,108,94,94,6,17,8,9,0.3,0.3
2022-05-21T15:00:00,1954A,84.905,44.3396,克拉玛依市,独山子区,颗粒物(PM10),58,66,21,8,8,120,120,105,105,6,8,5,5,0.3,0.4
2022-05-21T15:00:00,1955A,85.6979,46.098,克拉玛依市,乌尔禾区商贸楼,,34,5,18,4,7,113,106,72,72,1,12,9,9,0.3,0.3
2022-05-21T15:00:00,1956A,86.1472,41.7538,巴音郭楞州,孔雀公园,,39,38,65,3,17,129,122,109,105,7,11,2,2,0.4,0.4
2022-05-21T15:00:00,1957A,86.1972,41.7166,巴音郭楞州,棉纺厂,,35,17,48,7,23,124,111,99,94,7,13,2,3,0.2,0.3
2022-05-21T15:00:00,1958A,86.2357,41.7173,巴音郭楞州,经济开发区,,38,18,54,22,17,136,119,110,100,6,7,2,2,0.1,0.2
2022-05-21T15:00:00,1961A,117.532,36.6868,济南市,东山小学,臭氧1小时,92,49,69,24,27,222,193,170,170,9,32,10,10,0.3,0.3
2022-05-21T15:00:00,1966A,120.0405,35.8735,青岛市,黄岛区4号,颗粒物(PM10),53,56,37,27,43,246,114,138,86,26,26,12,10,0.5,0.6
2022-05-21T15:00:00,1982A,122.0693,37.2174,威海市,文登开发区,颗粒物(PM10),56,61,77,24,54,214,149,177,144,18,23,6,7,0.4,0.5
2022-05-21T15:00:00,2031A,113.1817,27.9958,株洲市,云田中学,,45,17,35,24,27,144,144,85,85,5,16,3,4,0.5,0.6
2022-05-21T15:00:00,2054A,114.1099,32.1059,信阳市,平桥分局,臭氧1小时,77,27,23,26,20,181,181,118,118,13,16,9,7,0.6,0.6
2022-05-21T15:00:00,2064A,113.9956,32.1271,信阳市,南湾水厂,臭氧1小时,52,43,28,29,18,171,161,116,116,9,11,7,6,0.4,0.4
2022-05-21T15:00:00,2065A,114.0775,32.1195,信阳市,市酿酒公司,臭氧1小时,73,26,24,26,19,178,178,117,117,11,20,7,5,0.5,0.6
2022-05-21T15:00:00,2066A,114.0609,32.1399,信阳市,审计局,臭氧1小时,53,30,32,20,18,162,162,116,116,10,18,7,6,0.3,0.4
2022-05-21T15:00:00,2067A,114.6613,33.6128,周口市,市环境监测站,,50,38,46,14,24,167,157,149,149,9,14,5,5,0.5,0.6
2022-05-21T15:00:00,2068A,114.6758,33.6347,周口市,周口师范,,49,30,45,16,23,163,154,144,144,7,12,7,7,0.4,0.6
2022-05-21T15:00:00,2069A,114.6546,33.5979,周口市,市运管处,颗粒物(PM10),57,64,55,13,25,163,155,144,144,11,18,4,5,0.3,0.5
2022-05-21T15:00:00,2070A,114.6369,33.6406,周口市,川汇区环保局,,48,35,54,18,27,163,153,141,141,9,17,5,6,0.7,0.8
2022-05-21T15:00:00,2075A,117.6336,24.4674,漳州市,九湖(对照点),颗粒物(PM10),55,60,56,31,30,156,58,76,56,42,23,10,8,0.5,0.4
2022-05-21T15:00:00,2160A,112.85,35.5051,晋城市,自来水公司,臭氧1小时,110,49,53,14,25,220,219,164,164,11,34,12,11,0.7,0.8
2022-05-21T15:00:00,2161A,112.8318,35.4936,晋城市,白云商贸,臭氧1小时,112,54,65,22,26,226,223,169,169,5,26,9,9,0.5,0.6
2022-05-21T15:00:00,2162A,112.8508,35.4887,晋城市,市环保局,臭氧1小时,112,83,88,24,30,223,223,164,164,7,42,14,12,0.7,0.7
2022-05-21T15:00:00,2163A,112.8676,35.4897,晋城市,技术学院,臭氧1小时,111,75,71,14,24,222,222,159,159,9,38,10,8,0.7,0.6
2022-05-21T15:00:00,2166A,112.4397,39.3522,朔州市,平朔,臭氧1小时,55,41,98,16,30,185,164,133,133,15,41,3,10,0.4,0.5
2022-05-21T15:00:00,2167A,112.4575,39.3617,朔州市,朔唯,臭氧1小时,59,36,110,17,28,191,167,139,139,16,44,3,11,0.5,0.5
2022-05-21T15:00:00,2168A,112.4258,39.3197,朔州市,区政府,臭氧1小时,65,46,95,14,28,190,172,141,141,14,36,6,12,0.4,0.5
2022-05-21T15:00:00,2169A,112.4072,39.3278,朔州市,市环保局,,,98,93,,27,185,149,132,132,22,31,9,15,0.4,0.5
2022-05-21T15:00:00,2170A,112.4272,39.3681,朔州市,市二中,颗粒物(PM10),53,56,99,17,30,181,159,132,132,12,40,9,15,0.5,0.5
2022-05-21T15:00:00,2171A,112.7532,37.6945,晋中市,锦纶小区,,50,24,55,14,25,192,160,132,132,8,33,7,10,0.2,0.4
2022-05-21T15:00:00,2173A,112.7249,37.7067,晋中市,南都小区,臭氧1小时,53,26,63,16,24,191,162,135,135,12,37,4,6,0.2,0.4
2022-05-21T15:00:00,2174A,112.6991,37.6982,晋中市,榆次区政府,臭氧1小时,54,31,57,23,28,175,163,127,127,10,30,5,8,0.3,0.5
2022-05-21T15:00:00,2175A,110.9956,35.0147,运城市,运城中学,臭氧1小时,59,46,49,21,27,167,167,149,140,6,13,7,9,0.4,0.6
2022-05-21T15:00:00,2178A,110.9686,35.0303,运城市,地区技校,臭氧1小时,60,46,48,19,22,168,168,146,146,3,11,5,8,0.3,0.5
2022-05-21T15:00:00,2179A,111.0414,35.1147,运城市,空港新区,臭氧1小时,69,41,66,17,30,179,175,152,152,5,18,7,14,0.3,0.6
2022-05-21T15:00:00,2181A,112.7383,38.4519,忻州市,开发区,细颗粒物(PM2.5),95,47,52,71,27,148,148,96,96,20,28,11,16,0.2,0.4
2022-05-21T15:00:00,2182A,112.7003,38.4928,忻州市,会展中心,颗粒物(PM10),52,53,54,2,14,147,147,94,94,11,36,8,11,0.3,0.4
2022-05-21T15:00:00,2183A,111.1406,37.5211,吕梁市,环保局,臭氧1小时,101,44,56,38,20,202,202,134,134,12,41,8,6,0.6,0.5
2022-05-21T15:00:00,2185A,111.1297,37.5136,吕梁市,自来水公司,臭氧1小时,106,42,60,20,18,211,211,133,133,13,33,8,6,0.5,0.3
2022-05-21T15:00:00,2187A,106.8174,39.6973,乌海市,市林业局,颗粒物(PM10),83,115,73,22,26,193,150,130,118,6,23,7,24,0.5,0.7
2022-05-21T15:00:00,2188A,106.7907,39.6667,乌海市,中海勃湾学校,颗粒物(PM10),71,92,58,19,26,196,150,125,125,9,27,9,21,0.4,0.7
2022-05-21T15:00:00,2191A,122.2532,43.6801,通辽市,艺术职业学校,,44,33,67,29,28,140,140,111,87,11,20,5,6,0,0.1
2022-05-21T15:00:00,2192A,119.7594,49.2261,呼伦贝尔市,区环保局,,31,25,61,16,27,119,97,81,81,8,27,5,6,0.4,0.6
2022-05-21T15:00:00,2195A,107.4212,40.761,巴彦淖尔市,附二中,颗粒物(PM10),61,71,91,20,27,185,167,131,131,6,14,6,15,0.2,0.3
2022-05-21T15:00:00,2196A,107.37,40.7372,巴彦淖尔市,市环保大楼,颗粒物(PM10),66,82,84,27,33,182,169,128,124,1,8,6,8,0.4,0.4
2022-05-21T15:00:00,2197A,113.1306,40.9923,乌兰察布市,集宁新区,,45,26,30,16,14,143,143,107,97,4,17,8,12,0.3,0.3
2022-05-21T15:00:00,2200A,122.0392,46.0656,兴安盟,胜华新制药厂,,37,19,42,8,17,116,116,99,99,15,17,5,3,0.5,0.2
2022-05-21T15:00:00,2201A,121.9504,46.0741,兴安盟,科右前旗环保局,,,18,33,9,18,124,124,108,108,9,13,,3,0.2,0.2
2022-05-21T15:00:00,2202A,116.1042,43.9317,锡林郭勒盟,市环保监测站,颗粒物(PM10),59,67,30,8,7,111,106,93,93,3,13,8,9,0.3,0.3
2022-05-21T15:00:00,2203A,116.0781,43.9311,锡林郭勒盟,市政府,,35,35,21,5,10,115,110,96,96,5,13,7,6,0.4,0.4
2022-05-21T15:00:00,2204A,105.6467,38.8363,阿拉善盟,西城区西花园(对照点),,50,31,48,13,21,175,157,158,158,6,8,15,11,0.2,0.2
2022-05-21T15:00:00,2205A,105.6985,38.8411,阿拉善盟,蒙二幼,,50,36,49,17,24,173,157,158,158,5,8,8,8,0.2,0.2
2022-05-21T15:00:00,2206A,105.724,38.8516,阿拉善盟,环保局新楼,,46,26,37,21,24,166,146,157,155,6,8,7,7,0.3,0.3
2022-05-21T15:00:00,2207A,121.6094,41.998,阜新市,工业园区,,49,37,92,3,59,209,156,185,137,15,23,7,20,0.6,0.9
2022-05-21T15:00:00,2208A,121.6697,42.0279,阜新市,长青街,,42,27,80,4,37,152,134,128,118,7,18,12,26,0.6,0.9
2022-05-21T15:00:00,2209A,121.6673,42.0705,阜新市,农业园区,,43,9,65,8,44,160,135,136,121,7,15,8,17,0.4,0.7
2022-05-21T15:00:00,2210A,121.6717,42.0224,阜新市,东苑,,43,14,92,12,55,150,136,135,122,18,26,11,31,0.4,0.8
2022-05-21T15:00:00,2211A,121.6506,42.0498,阜新市,玉龙新城,,42,12,72,8,37,149,132,123,115,6,14,12,18,0.2,0.4
2022-05-21T15:00:00,2212A,123.2,41.1953,辽阳市,宏伟区,臭氧1小时,106,71,73,37,37,217,212,170,170,15,15,23,16,1.1,0.8
2022-05-21T15:00:00,2213A,123.1683,41.2495,辽阳市,新华园,臭氧1小时,101,73,80,36,43,215,201,171,171,15,20,17,14,0.6,0.6
2022-05-21T15:00:00,2214A,123.2354,41.2639,辽阳市,滨河路,臭氧1小时,107,81,74,42,44,218,213,176,176,15,15,19,14,1.1,0.8
2022-05-21T15:00:00,2215A,123.149,41.2991,辽阳市,铁西工业园,臭氧1小时,99,61,83,44,52,210,199,163,163,19,24,15,18,0.8,0.9
2022-05-21T15:00:00,2216A,123.8139,42.3022,铁岭市,汇工街西,,,,87,17,36,173,138,154,154,23,27,13,16,0.5,0.7
2022-05-21T15:00:00,2217A,123.8649,42.2923,铁岭市,水上乐园,颗粒物(PM10),51,52,72,18,38,183,145,160,159,20,24,8,12,0.4,0.6
2022-05-21T15:00:00,2218A,123.8486,42.2867,铁岭市,银州路东段,颗粒物(PM10),73,95,79,19,34,176,138,157,156,20,27,8,11,0.5,0.7
2022-05-21T15:00:00,2219A,123.7153,42.2217,铁岭市,金沙江路北,颗粒物(PM10),55,60,72,17,31,169,118,148,148,34,32,8,10,0.8,0.9
2022-05-21T15:00:00,2220A,120.4318,41.5881,朝阳市,西梁,,46,32,65,13,31,167,146,152,149,6,17,16,13,0.7,0.9
2022-05-21T15:00:00,2221A,120.4521,41.5646,朝阳市,河畔小区,,48,34,67,15,30,171,152,150,150,6,18,17,16,0.6,0.9
2022-05-21T15:00:00,2222A,120.4176,41.5648,朝阳市,八里堡,颗粒物(PM10),51,52,71,21,44,170,154,156,156,8,17,17,13,0.6,0.9
2022-05-21T15:00:00,2223A,120.3806,41.5969,朝阳市,农业园区,,49,46,71,20,37,168,156,152,152,6,20,15,14,0.6,0.9
2022-05-21T15:00:00,2225A,124.4002,43.1713,四平市,一商场,颗粒物(PM10),63,75,74,39,37,161,156,154,132,12,19,10,13,0.3,0.5
2022-05-21T15:00:00,2226A,124.388,43.193,四平市,境园,颗粒物(PM10),55,60,62,31,28,164,160,160,136,10,14,4,6,0.6,0.5
2022-05-21T15:00:00,2227A,125.1358,42.8845,辽源市,环保局,臭氧1小时,63,43,35,39,26,175,170,162,162,6,9,13,13,0.7,0.7
2022-05-21T15:00:00,2229A,125.9358,41.7173,通化市,光明,,43,34,34,25,18,184,137,171,171,9,8,9,10,0.7,0.7
2022-05-21T15:00:00,2230A,125.9446,41.7325,通化市,铁路,,41,40,37,26,22,176,130,163,163,10,14,9,8,0.7,0.8
2022-05-21T15:00:00,2231A,126.4219,41.9171,白山市,喜丰,颗粒物(PM10),68,85,74,31,24,195,164,154,154,18,24,26,16,1.3,0.9
2022-05-21T15:00:00,2232A,126.4077,41.9419,白山市,环保局,颗粒物(PM10),52,53,56,31,29,187,157,145,145,11,23,10,14,0.6,0.8
2022-05-21T15:00:00,2233A,124.8006,45.1214,松原市,江南,,32,19,24,14,20,103,102,100,95,6,10,2,2,0.2,0.3
2022-05-21T15:00:00,2234A,124.7965,45.1722,松原市,江北,,37,12,28,6,13,117,117,104,104,7,10,2,2,0.2,0.3
2022-05-21T15:00:00,2235A,122.7911,45.6077,白城市,洮北区环保局,,37,18,52,2,8,119,116,106,106,9,12,7,6,0.2,0.2
2022-05-21T15:00:00,2236A,122.8738,45.5725,白城市,市环保局,,30,20,53,13,23,98,94,84,84,16,21,5,5,0.3,0.4
2022-05-21T15:00:00,2237A,129.47,42.8883,延边朝鲜族自治州,妇幼医院,颗粒物(PM10),70,90,41,13,20,137,124,102,102,13,15,6,6,0.5,0.6
2022-05-21T15:00:00,2238A,129.5055,42.9108,延边朝鲜族自治州,延边医院,颗粒物(PM10),66,81,44,11,22,138,131,106,106,6,15,6,6,0.5,0.7
2022-05-21T15:00:00,2239A,129.3964,42.8881,延边朝鲜族自治州,朝阳川镇医院,,,207,48,,17,145,133,109,109,8,17,10,10,0.5,0.5
2022-05-21T15:00:00,2240A,130.9762,45.3001,鸡西市,环保局,,39,39,39,20,23,115,96,92,84,23,30,7,6,0.1,0.2
2022-05-21T15:00:00,2243A,130.9429,45.3039,鸡西市,第一中学,,31,22,44,12,15,127,97,106,90,28,23,12,8,0.3,0.3
2022-05-21T15:00:00,2244A,130.2537,47.3416,鹤岗市,哈啤分公司,,26,17,25,9,12,136,82,96,72,6,10,13,13,0.4,0.4
2022-05-21T15:00:00,2245A,130.2684,47.3086,鹤岗市,斯达机电,,24,10,24,6,12,127,76,93,74,10,11,6,8,0.3,0.3
2022-05-21T15:00:00,2246A,130.3114,47.3388,鹤岗市,东山纸板厂,,27,13,26,7,12,120,84,86,71,5,12,10,10,0.1,0.3
2022-05-21T15:00:00,2247A,130.1097,47.3382,鹤岗市,五号水库(对照点),,23,10,16,14,13,131,72,86,74,6,7,5,6,0.4,0.4
2022-05-21T15:00:00,2248A,131.1511,46.6937,双鸭山市,双合村,,34,12,26,12,16,123,107,89,89,8,11,5,9,0.1,0.3
2022-05-21T15:00:00,2249A,131.1652,46.6191,双鸭山市,南小市,,34,17,29,15,17,115,108,90,81,6,9,5,6,0.0,0.2
2022-05-21T15:00:00,2250A,131.1524,46.6554,双鸭山市,环保局,,35,19,33,14,22,118,110,92,82,8,16,3,7,0.2,0.5
2022-05-21T15:00:00,2251A,131.12,46.5656,双鸭山市,苗圃(对照点),,35,31,20,24,22,127,92,91,84,5,6,1,3,0.3,0.4
2022-05-21T15:00:00,2252A,128.5159,47.4311,伊春市,环保局,,25,11,16,4,11,102,78,74,74,8,10,5,6,0.1,0.1
2022-05-21T15:00:00,2253A,128.9102,47.7412,伊春市,电力嘉园,,27,27,29,10,16,113,83,82,82,5,7,6,6,0.4,0.4
2022-05-21T15:00:00,2254A,129.5029,48.471,伊春市,汤旺河国家公园(对照点),,29,8,12,4,8,107,91,91,91,2,1,17,10,0.4,0.3
2022-05-21T15:00:00,2255A,130.2751,46.8028,佳木斯市,佳纺,,25,12,26,17,19,128,58,82,78,26,12,3,2,0.5,0.5
2022-05-21T15:00:00,2256A,130.3995,46.8307,佳木斯市,发电厂,,,21,25,15,16,141,74,95,90,,10,,6,0.5,0.4
2022-05-21T15:00:00,2257A,130.3258,46.7975,佳木斯市,环保局,,22,15,27,5,15,139,68,90,88,24,11,5,5,0.5,0.4
2022-05-21T15:00:00,2258A,130.3648,46.8032,佳木斯市,十一中,,24,24,29,8,9,111,63,88,84,35,17,5,5,0.4,0.1
2022-05-21T15:00:00,2259A,130.3794,46.7588,佳木斯市,四丰(对照点),,29,14,21,15,15,137,91,98,98,6,8,4,4,0.5,0.5
2022-05-21T15:00:00,2262A,131.0518,45.8751,七台河市,新一中(对照点),,37,12,24,11,16,124,117,109,87,9,12,9,8,0.8,0.8
2022-05-21T15:00:00,2263A,127.4833,50.2524,黑河市,交通局,,22,16,16,10,9,101,68,78,69,7,8,8,6,0.3,0.5
2022-05-21T15:00:00,2264A,127.5144,50.2341,黑河市,环保局,,23,11,21,6,11,116,72,85,73,7,9,6,7,0.4,0.4
2022-05-21T15:00:00,2265A,127.5291,50.2472,黑河市,大黑河岛(对照点),,24,19,22,13,11,105,74,82,74,1,5,6,8,0.3,0.3
2022-05-21T15:00:00,2266A,126.9785,46.6365,绥化市,人和东街,,30,8,21,4,11,108,94,89,89,5,9,6,8,0.3,0.3
2022-05-21T15:00:00,2267A,126.964,46.6528,绥化市,党政办公中心,,30,7,17,4,10,113,95,91,91,5,9,5,5,0.2,0.3
2022-05-21T15:00:00,2269A,124.1069,50.4097,大兴安岭地区,科技局,,25,13,11,8,10,95,80,72,72,5,6,3,4,0.3,0.3
2022-05-21T15:00:00,2270A,117.396,32.939,蚌埠市,工人疗养院,臭氧1小时,103,46,55,29,30,205,205,151,151,11,26,7,10,0.2,0.3
2022-05-21T15:00:00,2271A,117.3605,32.9427,蚌埠市,百货大楼,臭氧1小时,102,63,66,13,26,204,204,152,152,16,26,8,10,0.4,0.5
2022-05-21T15:00:00,2273A,117.4185,32.8911,蚌埠市,蚌埠学院,臭氧1小时,104,53,63,22,32,207,207,148,148,13,24,9,10,0.3,0.4
2022-05-21T15:00:00,2274A,117.3533,32.9673,蚌埠市,淮上区政府,臭氧1小时,97,46,66,19,29,197,197,149,149,6,23,10,14,0.4,0.4
2022-05-21T15:00:00,2275A,117.3145,32.8977,蚌埠市,高新区,臭氧1小时,101,46,62,22,34,202,202,147,147,11,29,8,11,0.4,0.5
2022-05-21T15:00:00,2277A,116.8305,32.7727,淮南市,潘集区政府,臭氧1小时,83,48,58,32,38,186,186,146,146,11,16,7,9,0.2,0.3
2022-05-21T15:00:00,2278A,117.0067,32.6524,淮南市,师范学院,臭氧1小时,94,57,61,15,36,195,195,147,147,12,19,9,10,0.4,0.4
2022-05-21T15:00:00,2279A,116.8569,32.5951,淮南市,谢家集区政府,臭氧1小时,77,48,50,30,28,181,181,149,149,12,16,5,6,0.3,0.3
2022-05-21T15:00:00,2280A,116.8281,32.633,淮南市,八公山区政府,臭氧1小时,77,55,50,25,29,181,181,145,145,7,10,5,5,0.2,0.3
2022-05-21T15:00:00,2281A,116.6325,32.6201,淮南市,焦岗湖风景区管理处(对照点),臭氧1小时,78,42,53,17,33,182,182,142,142,7,14,9,11,0.2,0.3
2022-05-21T15:00:00,2282A,116.8004,33.975,淮北市,监测站,臭氧1小时,70,55,48,27,24,176,176,146,146,4,9,10,11,0.3,0.3
2022-05-21T15:00:00,2283A,116.8091,33.9007,淮北市,烈山区政府,臭氧1小时,87,44,61,37,45,189,189,151,151,6,27,7,9,0.4,0.5
2022-05-21T15:00:00,2284A,116.7856,33.9477,淮北市,职业技术学院,臭氧1小时,68,52,58,29,29,174,174,143,143,5,15,7,9,0.4,0.5
2022-05-21T15:00:00,2285A,117.8177,30.9412,铜陵市,市第四中学,臭氧1小时,112,65,73,36,47,224,224,146,146,10,29,12,12,0.6,0.8
2022-05-21T15:00:00,2286A,117.8059,30.9273,铜陵市,市公路局,臭氧1小时,93,71,98,30,47,194,194,132,132,9,22,7,7,0.7,0.9
2022-05-21T15:00:00,2287A,117.7807,30.9413,铜陵市,市新民污水厂,臭氧1小时,112,77,92,45,52,224,224,140,140,13,33,3,16,0.4,0.7
2022-05-21T15:00:00,2288A,117.7439,30.8792,铜陵市,市第九中学,臭氧1小时,70,56,84,40,41,176,176,118,118,32,34,9,6,0.8,1
2022-05-21T15:00:00,2289A,117.846,30.9413,铜陵市,车站新区,臭氧1小时,106,56,60,34,48,212,212,141,141,12,23,5,5,0.6,0.8
2022-05-21T15:00:00,2290A,117.8483,30.97,铜陵市,市职教基地,臭氧1小时,103,63,75,36,44,205,205,129,129,14,21,10,7,0.9,0.9
2022-05-21T15:00:00,2291A,117.0809,30.5177,安庆市,环科院,臭氧1小时,69,40,51,22,35,177,175,122,122,9,41,6,7,0.3,0.5
2022-05-21T15:00:00,2292A,117.0331,30.5119,安庆市,马山宾馆,臭氧1小时,58,40,47,20,35,171,166,123,123,6,35,6,7,0.5,0.7
2022-05-21T15:00:00,2294A,116.9896,30.6145,安庆市,安庆大学,,49,36,52,19,37,169,155,110,110,6,26,6,5,0.5,0.6
2022-05-21T15:00:00,2295A,118.2903,29.6963,黄山市,延安路89号,,33,25,34,4,20,105,103,92,92,1,6,5,5,0.2,0.3
2022-05-21T15:00:00,2296A,118.327,29.7178,黄山市,黄山东路89号,,33,25,31,13,23,104,104,88,88,2,6,5,5,0.4,0.5
2022-05-21T15:00:00,2297A,118.1371,30.2756,黄山市,黄山区政府5号楼,,40,38,34,12,19,135,128,110,110,4,6,6,5,0.3,0.4
2022-05-21T15:00:00,2298A,118.3093,32.3153,滁州市,老年大学,臭氧1小时,82,51,66,22,38,191,185,157,157,19,26,6,7,0.3,0.4
2022-05-21T15:00:00,2299A,118.3244,32.2786,滁州市,人大宾馆,臭氧1小时,80,51,78,28,49,192,184,158,158,16,36,7,7,0.3,0.5
2022-05-21T15:00:00,2301A,115.8277,32.8929,阜阳市,市监测站,臭氧1小时,60,39,45,25,29,188,168,156,156,9,12,8,8,0.4,0.6
2022-05-21T15:00:00,2303A,115.8554,32.8605,阜阳市,开发区,,,41,53,22,31,183,163,150,150,,16,5,5,0.6,0.5
2022-05-21T15:00:00,2307A,116.5079,31.737,六安市,监测大楼,臭氧1小时,67,42,47,24,28,186,173,128,128,12,16,6,6,0.3,0.4
2022-05-21T15:00:00,2308A,116.4738,31.7643,六安市,皖西学院,臭氧1小时,74,43,53,26,31,190,179,125,125,8,18,8,8,0.3,0.5
2022-05-21T15:00:00,2309A,116.4996,31.7905,六安市,朝阳厂,臭氧1小时,65,51,53,38,34,182,172,120,120,8,16,8,7,0.4,0.5
2022-05-21T15:00:00,2310A,116.5567,31.7886,六安市,开发区,臭氧1小时,79,50,63,17,32,199,183,134,134,9,21,8,7,0.3,0.4
2022-05-21T15:00:00,2311A,115.8072,33.8399,亳州市,污水处理厂,臭氧1小时,75,34,34,18,21,180,180,154,154,3,8,6,7,0.2,0.2
2022-05-21T15:00:00,2312A,115.7789,33.8518,亳州市,三国揽胜宫,臭氧1小时,65,44,43,19,22,172,172,147,147,5,8,5,7,0.3,0.3
2022-05-21T15:00:00,2314A,117.47,30.6618,池州市,池州学院,臭氧1小时,83,59,53,37,35,186,186,134,134,10,16,8,8,0.5,0.8
2022-05-21T15:00:00,2316A,118.7581,30.9454,宣城市,鳌峰子站,,48,48,45,24,29,139,132,106,106,10,17,5,5,0.5,0.6
2022-05-21T15:00:00,2317A,118.7385,30.9743,宣城市,敬亭山子站,,41,37,44,24,27,141,130,103,103,8,19,7,7,0.4,0.5
2022-05-21T15:00:00,2318A,118.7173,30.9427,宣城市,开发区子站,,41,38,42,20,27,135,130,105,105,10,18,5,6,0.5,0.5
2022-05-21T15:00:00,2319A,119.0141,25.4325,莆田市,荔城区仓后路,,23,20,35,14,19,112,72,60,60,14,17,4,5,0.5,0.6
2022-05-21T15:00:00,2320A,119.0015,25.4553,莆田市,莆田市监测站,,26,19,32,18,23,121,75,56,56,6,9,4,5,0.5,0.6
2022-05-21T15:00:00,2321A,119.1119,25.4561,莆田市,涵江区六中,,40,19,34,28,25,106,73,65,51,11,17,6,7,0.5,0.6
2022-05-21T15:00:00,2322A,119.1013,25.3215,莆田市,秀屿区政府,细颗粒物(PM2.5),54,28,29,38,18,95,73,66,57,18,16,6,8,0.8,0.7
2022-05-21T15:00:00,2323A,118.981,25.4792,莆田市,东圳水库(对照点),,21,15,27,13,20,120,66,51,51,2,4,4,5,0.6,0.7
2022-05-21T15:00:00,2324A,117.6211,26.2625,三明市,三钢,细颗粒物(PM2.5),58,48,55,41,39,106,61,54,48,22,24,3,11,0.7,1
2022-05-21T15:00:00,2325A,117.635,26.2714,三明市,三明二中,细颗粒物(PM2.5),53,48,48,37,38,111,64,51,50,17,22,2,7,0.6,0.7
2022-05-21T15:00:00,2326A,117.6028,26.2378,三明市,三元区政府,细颗粒物(PM2.5),65,58,53,47,40,106,40,44,44,37,25,7,8,1.3,0.8
2022-05-21T15:00:00,2327A,117.7275,26.3108,三明市,洋溪(对照点),,45,35,45,31,32,120,74,57,57,7,13,4,6,0.6,0.8
2022-05-21T15:00:00,2331A,118.0966,26.6761,南平市,茫荡山(对照点),,33,12,21,23,24,93,69,77,62,4,4,4,5,0.8,0.7
2022-05-21T15:00:00,2332A,118.1681,26.6369,南平市,南平市监测站,细颗粒物(PM2.5),60,50,53,43,36,107,81,70,70,10,22,5,7,0.6,0.8
2022-05-21T15:00:00,2333A,118.1825,26.6489,南平市,南平铝业有限公司,细颗粒物(PM2.5),52,43,48,36,35,105,82,69,69,7,18,5,6,0.7,0.8
2022-05-21T15:00:00,2334A,118.1756,26.6272,南平市,南平七中,细颗粒物(PM2.5),58,47,46,41,40,90,75,66,66,7,17,2,4,0.5,0.6
2022-05-21T15:00:00,2335A,117.0189,25.1181,龙岩市,龙岩师专(对照点),,39,27,50,27,35,101,68,41,41,14,28,5,8,0.7,0.8
2022-05-21T15:00:00,2336A,117.0217,25.1033,龙岩市,龙岩市监测站,,39,30,49,27,35,105,67,44,44,17,28,5,8,0.6,0.8
2022-05-21T15:00:00,2338A,117.0196,25.0306,龙岩市,龙岩学院,,27,27,44,16,31,105,62,41,33,18,17,3,4,0.6,0.6
2022-05-21T15:00:00,2339A,119.5001,26.6946,宁德市,金涵水库(对照点),,46,46,33,10,6,110,74,51,51,15,13,8,7,0.4,0.4
2022-05-21T15:00:00,2341A,119.5388,26.6612,宁德市,宁德市监测站,,25,22,24,17,14,105,69,77,46,15,16,9,9,0.5,0.5
2022-05-21T15:00:00,2342A,117.3102,29.3867,景德镇市,王港中学(对照点),,31,19,25,6,16,99,99,74,74,3,5,4,4,0.4,0.6
2022-05-21T15:00:00,2343A,117.2117,29.2933,景德镇市,老干部活动中心,,35,35,42,14,22,105,105,80,80,5,12,4,5,0.3,0.4
2022-05-21T15:00:00,2344A,117.1894,29.2789,景德镇市,兽医站,,32,26,30,19,22,101,101,76,76,9,14,4,6,0.7,0.8
2022-05-21T15:00:00,2345A,117.1547,29.2617,景德镇市,台达陶瓷,,34,22,34,14,19,108,106,81,81,6,16,6,9,0.5,0.5
2022-05-21T15:00:00,2346A,117.2461,29.2956,景德镇市,陶研所,,30,26,38,18,20,93,93,71,71,4,10,5,5,0.4,0.5
2022-05-21T15:00:00,2347A,114.0997,27.5002,萍乡市,武功山(对照点),,34,7,6,9,5,107,107,80,80,5,6,13,13,0.3,0.5
2022-05-21T15:00:00,2348A,113.8385,27.6434,萍乡市,中医院,,38,11,27,22,26,120,120,106,106,5,12,7,6,0.6,0.9
2022-05-21T15:00:00,2349A,113.8493,27.6253,萍乡市,市政府车库,,35,27,34,9,17,112,112,79,79,7,14,9,8,0.5,0.8
2022-05-21T15:00:00,2350A,113.8676,27.6435,萍乡市,市环保局,,38,28,34,22,29,120,120,84,84,12,24,10,10,0.4,0.8
2022-05-21T15:00:00,2351A,113.866,27.6198,萍乡市,安源区政府,,37,31,35,16,16,116,116,78,78,11,18,10,9,0.6,0.8
2022-05-21T15:00:00,2352A,115.0861,27.9317,新余市,北岗(对照点),,39,34,36,26,29,122,122,98,98,7,8,8,7,0.5,0.6
2022-05-21T15:00:00,2353A,114.9886,27.8431,新余市,飞宇,细颗粒物(PM2.5),75,52,50,55,27,123,120,103,103,7,14,6,10,0.4,0.5
2022-05-21T15:00:00,2354A,114.9231,27.8246,新余市,第二水厂,,40,39,48,28,34,120,119,96,96,11,15,7,13,0.3,0.4
2022-05-21T15:00:00,2355A,114.9308,27.8036,新余市,市气象局,,,36,46,29,37,115,114,86,86,12,16,7,12,,0.5
2022-05-21T15:00:00,2357A,116.9822,28.1136,鹰潭市,龙虎山(对照点),,40,40,28,28,18,103,97,73,73,3,4,4,2,0.4,0.2
2022-05-21T15:00:00,2358A,117.0564,28.2642,鹰潭市,新监测站,,40,40,32,27,22,115,115,83,83,5,8,7,4,0.5,0.2
2022-05-21T15:00:00,2359A,117.0311,28.2475,鹰潭市,财苑宾馆,,35,33,32,22,18,109,109,81,81,4,8,4,3,0.5,0.3
2022-05-21T15:00:00,2360A,117.0222,28.2264,鹰潭市,体育馆,,40,40,35,24,24,105,105,84,84,3,7,10,6,0.7,0.4
2022-05-21T15:00:00,2361A,117.0017,28.2131,鹰潭市,三川水表,颗粒物(PM10),51,52,35,31,26,107,98,80,80,9,10,9,7,0.4,0.5
2022-05-21T15:00:00,2362A,114.9017,25.9149,赣州市,通天岩(对照点),,38,35,49,26,40,120,107,95,85,5,13,3,4,1.0,1.1
2022-05-21T15:00:00,2363A,114.9367,25.8664,赣州市,地委,,32,29,55,22,41,104,87,72,65,7,10,6,7,0.7,0.8
2022-05-21T15:00:00,2364A,114.9461,25.8481,赣州市,气象台,,38,33,53,26,39,111,95,80,72,9,13,5,7,0.8,0.8
2022-05-21T15:00:00,2365A,114.9322,25.8333,赣州市,市图书馆,,43,43,54,30,44,116,97,77,71,9,13,15,9,1.1,1.2
2022-05-21T15:00:00,2366A,114.8905,25.8471,赣州市,华坚鞋城,,40,40,49,25,39,113,89,82,76,17,12,5,3,1.0,1.1
2022-05-21T15:00:00,2367A,114.9754,27.0803,吉安市,红声器材厂,,46,42,56,27,41,148,145,112,112,7,11,7,9,0.5,0.5
2022-05-21T15:00:00,2368A,114.9658,27.0999,吉安市,市森林工业局,细颗粒物(PM2.5),52,50,52,36,39,135,134,107,107,6,12,5,6,0.4,0.5
2022-05-21T15:00:00,2369A,114.99,27.1312,吉安市,市环境监测站,颗粒物(PM10),51,51,55,32,41,130,130,105,105,6,12,7,8,0.4,0.6
2022-05-21T15:00:00,2370A,115.0093,27.0968,吉安市,青原区法院,颗粒物(PM10),51,51,57,32,40,138,138,115,115,7,11,11,14,0.5,0.5
2022-05-21T15:00:00,2371A,114.3408,27.8064,宜春市,槟榔水业(对照点),,40,40,38,28,28,127,126,91,91,4,12,5,5,0.4,0.5
2022-05-21T15:00:00,2373A,114.3956,27.7844,宜春市,市石油公司,,44,43,45,30,32,140,139,99,99,6,11,6,5,0.6,0.7
2022-05-21T15:00:00,2374A,114.3703,27.7914,宜春市,市气象局,,44,44,42,25,30,138,135,100,100,9,14,6,5,0.5,0.7
2022-05-21T15:00:00,2375A,114.4013,27.8074,宜春市,市广电局,,44,44,45,28,37,130,130,94,94,12,15,3,3,0.7,0.8
2022-05-21T15:00:00,2376A,116.2127,28.0814,抚州市,桐源党溪(对照点),,32,32,32,16,22,103,100,77,77,3,13,1,2,0.5,0.6
2022-05-21T15:00:00,2377A,116.3544,27.9831,抚州市,市站,,37,37,40,18,24,103,98,98,86,4,8,6,11,0.8,0.9
2022-05-21T15:00:00,2378A,116.3565,27.963,抚州市,血防站,,37,37,37,19,21,104,100,103,88,5,9,3,10,0.6,0.6
2022-05-21T15:00:00,2379A,116.3564,28.0007,抚州市,采茶剧团,,29,29,36,14,20,98,92,86,81,5,9,3,11,0.8,0.9
2022-05-21T15:00:00,2380A,116.385,27.9647,抚州市,医学分院,,35,35,36,19,21,100,100,94,86,4,7,3,7,0.7,0.8
2022-05-21T15:00:00,2381A,118.005,28.4572,上饶市,百草园(对照点),,46,43,52,32,35,98,98,58,58,8,10,6,8,0.5,0.4
2022-05-21T15:00:00,2382A,117.9756,28.4436,上饶市,市监测站,,,45,63,,42,99,97,65,65,10,15,7,10,0.5,0.4
2022-05-21T15:00:00,2383A,117.9519,28.4628,上饶市,凤凰光学,,45,40,58,31,39,109,101,67,67,7,13,7,10,0.6,0.6
2022-05-21T15:00:00,2385A,114.17,35.9019,鹤壁市,市监测站,臭氧1小时,92,70,68,29,30,196,193,143,143,16,23,14,14,1.1,1.1
2022-05-21T15:00:00,2386A,114.2956,35.7511,鹤壁市,市交警支队,臭氧1小时,89,46,57,22,25,193,191,142,142,14,21,12,12,0.8,0.8
2022-05-21T15:00:00,2387A,114.2878,35.7306,鹤壁市,迎宾馆,臭氧1小时,94,50,63,18,25,198,195,145,145,20,26,6,9,0.4,0.5
2022-05-21T15:00:00,2389A,113.836,35.311,新乡市,环保西院,臭氧1小时,77,40,63,12,26,185,181,141,141,5,19,6,10,0.6,0.7
2022-05-21T15:00:00,2390A,113.884,35.272,新乡市,开发区,臭氧1小时,89,40,58,19,25,191,191,143,143,12,26,5,7,0.3,0.4
2022-05-21T15:00:00,2391A,113.883,35.303,新乡市,环保东院,臭氧1小时,89,43,55,13,21,191,191,147,147,12,26,5,7,0.3,0.4
2022-05-21T15:00:00,2392A,115.0312,35.7636,濮阳市,环保局,,50,47,49,16,22,157,157,132,132,8,14,7,8,0.3,0.4
2022-05-21T15:00:00,2394A,115.0574,35.7609,濮阳市,油田运输公司,臭氧1小时,68,69,63,20,25,174,174,144,144,13,18,8,8,0.2,0.3
2022-05-21T15:00:00,2396A,113.8276,34.0159,许昌市,监测站,,46,38,43,9,27,150,147,124,124,4,15,5,7,0.1,0.2
2022-05-21T15:00:00,2398A,113.7906,33.9953,许昌市,开发区,颗粒物(PM10),51,52,55,11,25,161,154,126,126,5,26,4,5,0.4,0.5
2022-05-21T15:00:00,2399A,114.051,33.5699,漯河市,三五一五工厂,臭氧1小时,70,27,47,22,30,176,176,147,147,3,12,8,7,0.4,0.5
2022-05-21T15:00:00,2400A,114.0055,33.5698,漯河市,漯河大学,臭氧1小时,68,38,48,25,29,174,174,138,138,3,12,7,8,0.6,0.7
2022-05-21T15:00:00,2401A,114.0138,33.5828,漯河市,市水利局,臭氧1小时,67,56,46,19,27,173,173,142,142,5,10,8,7,0.5,0.6
2022-05-21T15:00:00,2402A,114.0261,33.5698,漯河市,市广电局,臭氧1小时,62,34,45,27,38,169,169,141,141,4,10,7,7,0.4,0.5
2022-05-21T15:00:00,2403A,112.5192,32.9917,南阳市,环保局,,45,44,56,18,29,157,143,110,110,6,18,2,2,0.4,0.5
2022-05-21T15:00:00,2404A,112.5339,33.0086,南阳市,瓦房庄,,45,31,50,17,28,154,142,111,111,8,18,4,4,0.5,0.6
2022-05-21T15:00:00,2405A,112.5003,32.9735,南阳市,汉画馆,,46,39,47,19,28,157,145,110,110,8,22,5,5,0.5,0.6
2022-05-21T15:00:00,2406A,112.5779,33.0144,南阳市,气象站,,49,43,50,18,28,167,155,118,118,10,20,5,5,0.4,0.5
2022-05-21T15:00:00,2407A,112.548,32.9692,南阳市,理工学院,,44,37,50,23,28,151,139,104,104,5,20,4,4,0.4,0.6
2022-05-21T15:00:00,2408A,115.6702,34.4285,商丘市,环境监测站,臭氧1小时,65,57,44,23,23,172,172,148,148,9,14,7,8,0.4,0.4
2022-05-21T15:00:00,2409A,115.6458,34.4045,商丘市,粮食局,臭氧1小时,64,56,50,23,24,175,171,146,146,16,21,6,7,0.4,0.4
2022-05-21T15:00:00,2410A,115.6293,34.3948,商丘市,睢阳区环保局,臭氧1小时,69,58,54,32,27,175,175,145,145,9,27,6,8,0.4,0.4
2022-05-21T15:00:00,2420A,114.0189,32.9656,驻马店市,市一纸厂,臭氧1小时,72,39,41,24,27,177,177,134,134,8,19,5,6,0.3,0.4
2022-05-21T15:00:00,2421A,114.0114,33.015,驻马店市,市彩印厂,臭氧1小时,74,33,38,12,20,179,179,139,139,6,12,6,5,0.3,0.3
2022-05-21T15:00:00,2422A,113.9976,32.9771,驻马店市,天方二分厂,臭氧1小时,73,29,37,10,20,178,178,135,135,2,9,2,2,0.5,0.5
2022-05-21T15:00:00,2423A,115.0601,30.2313,黄石市,沈家营,臭氧1小时,84,61,70,35,34,200,187,133,133,20,27,14,10,0.7,0.8
2022-05-21T15:00:00,2424A,115.0817,30.2006,黄石市,陈家湾,臭氧1小时,89,55,66,34,38,191,191,119,119,8,19,4,6,0.7,1
2022-05-21T15:00:00,2426A,114.8988,30.2019,黄石市,铁山,臭氧1小时,89,77,80,43,47,209,191,131,131,25,25,8,13,0.6,1.1
2022-05-21T15:00:00,2427A,115.0307,30.2092,黄石市,团城山,臭氧1小时,101,60,67,36,38,208,201,132,132,10,21,9,8,0.5,0.7
2022-05-21T15:00:00,2428A,111.0419,32.395,十堰市,武当山(对照点),,38,33,28,24,20,132,121,129,116,6,7,9,8,0.5,0.5
