timepoint,stationcode,longitude,latitude,area,positionname,primarypollutant,aqi,pm10,pm10_24h,pm2_5,pm2_5_24h,o3,o3_24h,o3_8h,o3_8h_24h,no2,no2_24h,so2,so2_24h,co,co_24h
2024-03-23T2200,2566A,102.1879,31.914,阿坝藏族羌族自治州,州农科所,,23,23,18,14,8,33,,34,34,3,11,3,3,0.1,0.2
2024-03-23T2200,2568A,102.2502,31.8896,阿坝藏族羌族自治州,马师校,,33,27,19,20,11,104,,103,103,6,13,3,4,0.5,0.5
2024-03-23T2200,3994A,102.2165,31.9024,阿坝藏族羌族自治州,马尔康中学西区,,,29,13,,7,105,,104,104,5,7,5,4,0.5,0.4
2024-03-23T2200,2695A,80.292,41.1694,阿克苏地区,电视台,颗粒物(PM10),139,228,241,54,54,86,,105,103,13,7,4,6,0.6,0.6
2024-03-23T2200,2696A,80.2613,41.1551,阿克苏地区,艺术中心,颗粒物(PM10),144,238,236,70,58,90,,111,109,21,9,4,3,0.7,0.6
2024-03-23T2200,2204A,105.6467,38.8363,阿拉善盟,西城区西花园,,34,31,90,14,26,107,,119,117,8,7,8,9,0.6,0.6
2024-03-23T2200,2205A,105.6985,38.8411,阿拉善盟,蒙二幼,,33,29,98,9,29,105,,105,105,6,7,7,7,0.4,0.5
2024-03-23T2200,2206A,105.724,38.8516,阿拉善盟,环保局新楼,,34,26,85,8,24,106,,111,110,6,6,6,7,0.3,0.3
2024-03-23T2200,2708A,88.1264,47.8517,阿勒泰地区,市站,,22,20,21,15,13,54,,68,66,19,14,4,5,0.4,0.4
2024-03-23T2200,2630A,80.1161,32.5,阿里地区,阿里监测站,,30,2,7,2,4,94,,92,92,4,4,8,8,0.4,0.5
2024-03-23T2200,3192A,80.0903,32.5028,阿里地区,阿里藏医院,,32,10,10,3,3,100,,101,101,3,3,8,8,0.4,0.4
2024-03-23T2200,2642A,109.0318,32.6537,安康市,香溪洞,,43,40,58,30,40,71,,122,84,15,12,6,6,1.0,0.9
2024-03-23T2200,2643A,109.0281,32.6939,安康市,安康市监测站,细颗粒物(PM2.5),54,50,70,38,47,53,,87,73,40,20,7,8,1.1,0.8
2024-03-23T2200,2644A,109.0072,32.6975,安康市,汉滨区检察院,,47,47,73,24,39,34,,95,66,16,15,8,10,0.6,0.6
2024-03-23T2200,2291A,117.0809,30.5177,安庆市,环科院,,36,36,44,24,26,35,,74,66,35,33,6,9,0.8,0.9
2024-03-23T2200,2292A,117.0331,30.5119,安庆市,马山宾馆,,32,32,41,22,26,58,,69,66,11,28,8,9,0.6,0.7
2024-03-23T2200,2294A,116.9896,30.6145,安庆市,安庆大学,,38,38,50,23,26,53,,75,70,17,31,10,12,0.3,0.4
2024-03-23T2200,3173A,117.0598,30.5351,安庆市,市人大,,37,37,48,23,28,60,,79,76,13,31,7,8,0.4,0.5
2024-03-23T2200,3123A,105.9408,26.2431,安顺市,凤凰山,,42,42,31,26,19,85,,122,114,21,10,8,9,0.5,0.5
2024-03-23T2200,3124A,105.9439,26.2564,安顺市,金钟山,,36,36,27,25,19,104,,129,125,6,6,6,6,0.6,0.6
2024-03-23T2200,3125A,105.8983,26.2481,安顺市,娄家坡,,36,36,32,22,19,105,,,,7,6,5,6,0.4,0.4
2024-03-23T2200,1819A,114.3551,36.1017,安阳市,红庙街,细颗粒物(PM2.5),65,77,176,47,83,81,,72,72,30,63,8,13,1.4,1.7
2024-03-23T2200,1820A,114.361,36.0681,安阳市,银杏小区,细颗粒物(PM2.5),67,50,157,48,90,77,,75,75,26,61,9,13,1.8,1.8
2024-03-23T2200,3141A,114.3922,36.0878,安阳市,信访局,细颗粒物(PM2.5),68,69,181,49,93,86,,82,82,19,57,6,12,1.0,1.3
2024-03-23T2200,3669A,114.4705,36.0637,安阳市,左辅环卫站,细颗粒物(PM2.5),67,63,175,48,92,75,,65,65,32,82,9,12,1.1,1.1
2024-03-23T2200,3703A,114.2917,36.0949,安阳市,安钢职工学校,细颗粒物(PM2.5),74,94,213,54,93,73,,70,70,35,66,8,16,1.3,1.9
2024-03-23T2200,1748A,123.044,41.1196,鞍山市,深沟寺,细颗粒物(PM2.5),124,133,75,94,53,64,,103,92,35,23,7,8,1.2,0.9
2024-03-23T2200,1749A,123.011,41.0931,鞍山市,太阳城,细颗粒物(PM2.5),109,131,80,82,53,64,,109,96,34,24,9,9,1.6,1.2
2024-03-23T2200,1750A,123.0485,41.1442,鞍山市,太平,细颗粒物(PM2.5),122,153,94,92,60,,,86,82,55,39,8,11,1.4,1.3
2024-03-23T2200,1751A,122.9642,41.0971,鞍山市,铁西三道街,细颗粒物(PM2.5),148,165,96,113,67,17,,109,85,88,50,8,9,1.4,1.2
2024-03-23T2200,1752A,122.9341,41.0833,鞍山市,铁西工业园区,细颗粒物(PM2.5),140,152,99,107,70,39,,112,92,60,44,8,7,1.2,1.2
2024-03-23T2200,1753A,123.022,41.0821,鞍山市,明达新区,细颗粒物(PM2.5),108,119,69,81,52,50,,102,89,41,30,10,11,1.4,1.2
2024-03-23T2200,2195A,107.4212,40.761,巴彦淖尔市,附二中,颗粒物(PM10),81,112,113,39,44,60,,105,91,17,19,6,16,0.4,0.5
2024-03-23T2200,2196A,107.37,40.7372,巴彦淖尔市,市环保大楼,颗粒物(PM10),71,92,102,33,36,76,,109,98,12,16,4,13,0.3,0.4
2024-03-23T2200,1956A,86.1472,41.7538,巴音郭楞蒙古自治州,孔雀公园,颗粒物(PM10),119,187,152,59,41,46,,100,92,37,43,5,6,0.5,0.6
2024-03-23T2200,1957A,86.1972,41.7166,巴音郭楞蒙古自治州,棉纺厂,颗粒物(PM10),114,178,184,21,40,69,,98,92,20,32,2,3,0.2,0.3
2024-03-23T2200,1958A,86.2357,41.7173,巴音郭楞蒙古自治州,经济开发区,颗粒物(PM10),98,145,169,40,41,76,,100,96,15,20,5,5,0.2,0.2
2024-03-23T2200,2914A,106.7677,31.8794,巴中市,苏山坪,,38,38,66,23,36,101,,103,103,5,9,4,5,0.4,0.5
2024-03-23T2200,3182A,106.7656,31.8545,巴中市,丽阳花园,细颗粒物(PM2.5),60,68,73,43,46,14,,85,65,52,41,4,5,0.9,0.8
2024-03-23T2200,3183A,106.7418,31.8654,巴中市,圣泉水务公司,"颗粒物(PM10),细颗粒物(PM2.5)",63,76,77,45,41,4,,89,68,68,39,5,5,0.8,0.7
2024-03-23T2200,3616A,106.7616,31.8344,巴中市,市中心医院,颗粒物(PM10),60,69,73,40,45,16,,85,70,50,34,6,6,0.8,0.7
2024-03-23T2200,2235A,122.7911,45.6077,白城市,洮北区环保局,,24,23,50,8,39,76,,87,85,8,11,7,6,0.3,0.4
2024-03-23T2200,2236A,122.8738,45.5725,白城市,市环保局,,37,37,55,10,41,78,,86,84,11,17,5,4,0.3,0.4
2024-03-23T2200,2231A,126.4219,41.9171,白山市,喜丰,颗粒物(PM10),60,70,50,29,27,31,,91,70,39,25,16,13,1.0,1
2024-03-23T2200,2232A,126.4077,41.9419,白山市,环保局,颗粒物(PM10),63,76,62,42,37,15,,82,50,37,26,13,10,1.3,1.1
2024-03-23T2200,2647A,104.1724,36.5446,白银市,第三小学,颗粒物(PM10),54,57,174,34,37,70,,95,85,14,8,8,38,0.6,0.6
2024-03-23T2200,2648A,104.1465,36.5482,白银市,动力公司,,46,41,137,32,36,71,,102,93,27,13,14,13,0.3,0.2
2024-03-23T2200,2512A,106.6103,23.9011,百色市,市监测站,颗粒物(PM10),52,54,52,28,26,89,,101,98,15,14,26,17,0.7,0.7
2024-03-23T2200,2513A,106.6538,23.8859,百色市,市中心血站,,44,44,48,24,30,84,,96,92,14,17,12,17,0.7,0.8
2024-03-23T2200,3406A,106.6085,23.8798,百色市,祈福高中,,50,50,48,34,30,91,,99,98,12,16,20,17,0.8,0.9
2024-03-23T2200,2270A,117.396,32.939,蚌埠市,工人疗养院,,27,27,78,10,40,67,,91,89,36,20,7,8,0.6,0.6
2024-03-23T2200,2271A,117.3605,32.9427,蚌埠市,百货大楼,,26,25,80,18,42,75,,88,88,28,25,4,5,0.6,0.7
2024-03-23T2200,2273A,117.4185,32.8911,蚌埠市,蚌埠学院,,30,,68,10,42,96,,86,86,11,35,4,8,0.6,0.7
2024-03-23T2200,2274A,117.3533,32.9673,蚌埠市,淮上区政府,,29,,75,17,46,90,,94,94,17,23,4,6,0.4,0.5
2024-03-23T2200,2275A,117.3145,32.8977,蚌埠市,高新区,,32,,64,13,41,100,,95,95,8,23,4,8,0.7,0.8
2024-03-23T2200,3715A,117.3092,32.9314,蚌埠市,蚌埠田家炳中学,,30,21,78,12,43,96,,95,95,12,22,5,8,0.5,0.6
2024-03-23T2200,1585A,109.8756,40.6532,包头市,市环境监测站,颗粒物(PM10),64,78,105,14,45,72,,91,91,25,57,13,25,0.6,1.1
2024-03-23T2200,1587A,109.9991,40.5842,包头市,包头八中,颗粒物(PM10),77,103,119,32,57,66,,91,90,37,50,13,31,0.7,0.9
2024-03-23T2200,1588A,109.8538,40.6821,包头市,青山宾馆,颗粒物(PM10),61,72,111,17,48,75,,100,97,18,49,12,21,0.6,1.1
2024-03-23T2200,1589A,109.8642,40.6288,包头市,惠龙物流,颗粒物(PM10),61,71,100,22,49,81,,94,94,21,55,14,30,0.5,1
2024-03-23T2200,1590A,110.0377,40.5546,包头市,东河鸿龙湾,颗粒物(PM10),66,81,102,36,52,83,,96,95,23,35,15,21,0.9,0.9
2024-03-23T2200,3283A,109.9154,40.5685,包头市,滨河大厦,颗粒物(PM10),56,61,93,35,51,67,,99,97,32,38,10,23,0.6,0.9
2024-03-23T2200,3419A,109.9447,40.6261,包头市,包头市委党校,颗粒物(PM10),59,68,100,17,48,80,,96,96,24,60,10,24,0.7,1.2
2024-03-23T2200,3683A,109.8331,40.6576,包头市,昆区政府,颗粒物(PM10),62,73,104,26,55,72,,90,90,20,61,10,30,0.8,1.5
2024-03-23T2200,1930A,107.185,34.3063,宝鸡市,庙沟村,细颗粒物(PM2.5),138,197,168,105,76,27,,69,55,55,32,10,11,0.8,0.6
2024-03-23T2200,1931A,107.0708,34.3017,宝鸡市,竹园沟,颗粒物(PM10),111,172,149,80,60,26,,86,67,45,32,4,5,0.7,0.6
2024-03-23T2200,1932A,107.1906,34.3672,宝鸡市,三陆医院,细颗粒物(PM2.5),135,189,183,103,79,63,,83,78,42,48,7,9,0.9,0.8
2024-03-23T2200,1933A,107.1431,34.3547,宝鸡市,监测站,细颗粒物(PM2.5),122,190,167,92,70,64,,81,73,37,39,9,10,0.8,0.7
2024-03-23T2200,1934A,107.1186,34.3739,宝鸡市,技工学校,细颗粒物(PM2.5),123,187,173,93,71,70,,88,79,35,36,6,10,0.9,0.7
2024-03-23T2200,1935A,107.3906,34.3528,宝鸡市,陈仓区环保局家属楼,细颗粒物(PM2.5),139,191,191,106,83,60,,78,68,35,65,6,7,0.8,0.7
2024-03-23T2200,1936A,107.2058,34.3497,宝鸡市,文理学院,细颗粒物(PM2.5),132,202,184,100,73,60,,79,74,35,40,7,7,0.8,0.6
2024-03-23T2200,1937A,107.2386,34.3622,宝鸡市,三迪小学,细颗粒物(PM2.5),139,201,188,106,75,59,,80,75,45,50,6,9,0.9,0.8
2024-03-23T2200,1051A,115.493,38.8632,保定市,游泳馆,颗粒物(PM10),98,146,139,60,56,104,,130,113,27,51,12,10,0.4,0.4
2024-03-23T2200,1052A,115.5213,38.8959,保定市,华电二区,颗粒物(PM10),81,111,113,54,53,88,,123,104,33,50,9,5,0.7,0.6
2024-03-23T2200,1053A,115.4713,38.9108,保定市,接待中心,颗粒物(PM10),87,124,97,56,48,97,,127,103,29,38,8,4,0.6,0.5
2024-03-23T2200,1054A,115.4612,38.8416,保定市,地表水厂,颗粒物(PM10),121,191,156,79,52,80,,127,108,42,52,9,7,0.9,0.7
2024-03-23T2200,3581A,115.31981,38.95208,保定市,满城区生态环境分局,细颗粒物(PM2.5),125,190,149,95,64,14,,123,88,95,49,7,5,0.7,0.4
2024-03-23T2200,3582A,115.47694,38.76408,保定市,清苑区第二中学,颗粒物(PM10),112,174,163,80,67,75,,130,103,48,53,8,7,0.7,0.6
2024-03-23T2200,3583A,115.62909,39.02311,保定市,徐水物探局,颗粒物(PM10),85,119,139,44,51,110,,125,113,20,51,8,9,0.4,0.4
2024-03-23T2200,4004A,115.4202,38.8656,保定市,双鹰农机,颗粒物(PM10),86,121,116,44,51,102,,130,113,31,49,8,7,0.8,0.7
2024-03-23T2200,4034A,115.5150,38.8590,保定市,植保所站,细颗粒物(PM2.5),97,135,119,72,62,72,,130,104,44,49,6,4,0.6,0.6
2024-03-23T2200,2594A,99.1678,25.1081,保山市,市环境监测站,,39,35,23,27,15,114,,113,113,7,7,7,7,0.6,0.6
2024-03-23T2200,2595A,99.1711,25.1328,保山市,市环保局,,38,36,27,26,15,111,,111,111,4,5,5,4,0.4,0.4
2024-03-23T2200,1867A,109.1436,21.4086,北海市,海滩公园,颗粒物(PM10),62,73,43,39,15,47,,78,67,30,13,8,8,0.9,0.7
2024-03-23T2200,1868A,109.0981,21.4661,北海市,新市环保局,颗粒物(PM10),53,56,43,34,19,50,,73,70,30,12,7,7,0.8,0.5
2024-03-23T2200,1869A,109.1778,21.5233,北海市,北海工业园,,42,41,43,29,18,38,,75,71,33,11,7,7,0.6,0.5
2024-03-23T2200,3400A,109.1911,21.4415,北海市,龙潭自来水厂,细颗粒物(PM2.5),78,72,39,57,23,19,,81,69,25,7,8,8,0.7,0.5
2024-03-23T2200,1001A,116.3621,39.8784,北京市,万寿西宫,细颗粒物(PM2.5),123,145,118,93,63,64,,104,95,59,65,8,6,1.1,0.9
2024-03-23T2200,1003A,116.4174,39.9289,北京市,东四,细颗粒物(PM2.5),110,137,117,83,62,73,,114,106,48,55,13,7,1.3,1
2024-03-23T2200,1004A,116.4072,39.8863,北京市,天坛,细颗粒物(PM2.5),113,134,112,85,62,74,,111,102,49,49,8,5,1.1,0.8
2024-03-23T2200,1005A,116.462,39.9365,北京市,农展馆,细颗粒物(PM2.5),99,124,115,74,59,82,,48,,50,61,9,5,1.0,0.8
2024-03-23T2200,1006A,116.3392,39.9295,北京市,官园,细颗粒物(PM2.5),129,155,112,98,64,75,,116,107,50,53,11,7,0.9,0.6
2024-03-23T2200,1007A,116.2878,39.9611,北京市,海淀万柳,细颗粒物(PM2.5),125,164,113,95,52,71,,108,101,55,63,10,6,1.2,0.8
2024-03-23T2200,1008A,116.6636,40.135,北京市,顺义新城,细颗粒物(PM2.5),105,137,102,79,54,115,,125,124,28,32,11,6,1.1,0.8
2024-03-23T2200,1009A,116.6275,40.3275,北京市,怀柔镇,细颗粒物(PM2.5),100,123,76,75,41,122,,120,120,30,25,10,5,1.1,0.7
2024-03-23T2200,1010A,116.2296,40.217,北京市,昌平镇,细颗粒物(PM2.5),117,162,103,88,46,87,,100,97,39,38,6,4,0.9,0.6
2024-03-23T2200,1011A,116.3966,39.9821,北京市,奥体中心,细颗粒物(PM2.5),107,133,105,80,57,69,,106,101,49,51,9,5,1.2,0.9
2024-03-23T2200,1012A,116.184,39.9136,北京市,古城,颗粒物(PM10),105,160,96,78,42,70,,106,101,64,52,6,4,0.9,0.6
2024-03-23T2200,3281A,115.9718,40.4529,北京市,延庆夏都,细颗粒物(PM2.5),128,162,80,97,43,96,,92,88,27,33,6,3,0.9,0.5
2024-03-23T2200,3417A,117.0709,40.1465,北京市,平谷新城,细颗粒物(PM2.5),102,127,73,76,37,126,,140,140,30,29,11,5,1.0,0.6
2024-03-23T2200,3418A,116.8336,40.4095,北京市,密云新城,细颗粒物(PM2.5),90,126,70,67,30,131,,130,130,18,19,9,4,1.0,0.4
2024-03-23T2200,3672A,116.1541,39.8204,北京市,丰台云岗,颗粒物(PM10),83,116,100,53,41,102,,103,103,30,41,6,4,0.6,0.4
2024-03-23T2200,3673A,116.6804,39.9081,北京市,通州东关,细颗粒物(PM2.5),88,115,134,65,65,91,,123,116,39,57,7,6,0.7,0.8
2024-03-23T2200,3674A,115.9577,39.7603,北京市,房山燕山,细颗粒物(PM2.5),95,130,80,71,36,62,,105,100,49,32,3,2,0.6,0.4
2024-03-23T2200,3675A,116.4672,39.7733,北京市,大兴旧宫,细颗粒物(PM2.5),105,126,122,79,66,65,,103,93,47,58,6,5,1.0,0.8
2024-03-23T2200,3694A,115.986,40.4563,北京市,延庆石河营,细颗粒物(PM2.5),123,158,77,93,38,103,,105,101,25,33,5,3,1.0,0.5
2024-03-23T2200,3695A,116.6151,40.3053,北京市,怀柔新城,细颗粒物(PM2.5),102,124,78,76,44,127,,126,126,26,19,10,5,0.9,0.5
2024-03-23T2200,3696A,116.2545,39.8768,北京市,丰台小屯,细颗粒物(PM2.5),130,176,112,99,52,47,,103,92,72,63,7,4,1.0,0.6
2024-03-23T2200,3697A,116.84,40.3844,北京市,密云镇,颗粒物(PM10),88,126,75,62,33,124,,126,126,19,32,8,4,1.0,0.6
2024-03-23T2200,1761A,123.8275,41.3064,本溪市,大峪,细颗粒物(PM2.5),115,131,74,87,48,35,,84,72,50,37,10,14,2.5,1.7
2024-03-23T2200,1762A,123.7567,41.3325,本溪市,溪湖,细颗粒物(PM2.5),185,211,98,139,67,23,,100,78,55,34,9,11,2.3,1.9
2024-03-23T2200,1763A,123.7169,41.3094,本溪市,彩屯,细颗粒物(PM2.5),139,163,104,106,68,40,,97,72,48,40,10,13,2.0,1.9
2024-03-23T2200,1764A,123.7669,41.2864,本溪市,东明,细颗粒物(PM2.5),166,175,86,126,65,15,,87,65,81,50,9,14,2.6,1.7
2024-03-23T2200,1765A,123.7992,41.2664,本溪市,新立屯,"颗粒物(PM10),细颗粒物(PM2.5)",72,93,75,52,42,14,,88,54,63,43,10,16,1.0,1.4
2024-03-23T2200,1766A,123.8142,41.3472,本溪市,威宁,颗粒物(PM10),88,126,80,55,43,15,,85,59,59,41,6,8,1.4,1.4
2024-03-23T2200,2587A,105.2864,27.3125,毕节市,八中,细颗粒物(PM2.5),65,65,27,47,14,135,,128,128,10,14,9,9,0.6,0.6
2024-03-23T2200,2588A,105.31,27.2944,毕节市,师专,细颗粒物(PM2.5),62,62,20,44,12,134,,130,130,12,10,8,8,0.6,0.3
2024-03-23T2200,3537A,105.3631,27.3533,毕节市,长征村,细颗粒物(PM2.5),69,71,21,50,14,152,,145,145,10,7,9,9,0.6,0.4
2024-03-23T2200,1629A,118.0018,37.3617,滨州市,第二水厂,颗粒物(PM10),67,83,109,41,50,86,,126,120,28,46,13,15,0.7,1
2024-03-23T2200,1630A,117.9776,37.393,滨州市,北中新校,颗粒物(PM10),79,107,109,56,46,77,,128,116,35,45,14,19,0.7,0.8
2024-03-23T2200,3514A,117.9378,37.3956,滨州市,中海酒店,细颗粒物(PM2.5),70,85,86,51,47,87,,132,124,30,38,15,18,0.7,0.8
2024-03-23T2200,3515A,117.9378,37.3553,滨州市,开发区一中,颗粒物(PM10),62,73,103,31,50,90,,126,121,29,54,22,24,0.5,0.7
2024-03-23T2200,3516A,118.0917,37.694,滨州市,金海六路,颗粒物(PM10),65,80,105,39,43,82,,127,110,24,39,16,24,0.5,0.7
2024-03-23T2200,4028A,117.9956,37.3753,滨州市,滨州市西街道办事处,细颗粒物(PM2.5),83,95,105,61,56,80,,122,115,28,41,18,20,0.8,0.9
2024-03-23T2200,2311A,115.8072,33.8399,亳州市,污水处理厂,细颗粒物(PM2.5),80,79,97,59,47,87,,97,83,13,18,6,10,0.7,0.7
2024-03-23T2200,2312A,115.7789,33.8518,亳州市,三国揽胜宫,细颗粒物(PM2.5),64,67,100,46,42,83,,92,80,9,13,6,8,0.6,0.6
2024-03-23T2200,3332A,115.7633,33.8034,亳州市,亳州学院,细颗粒物(PM2.5),89,103,108,66,49,86,,93,84,12,15,6,9,0.7,0.7
2024-03-23T2200,2693A,82.0485,44.8556,博尔塔拉蒙古自治州,市党校,,27,27,23,17,16,65,,62,62,9,10,7,7,0.4,0.5
2024-03-23T2200,2694A,82.0806,44.8969,博尔塔拉蒙古自治州,市环保局,,21,21,34,12,18,59,,58,58,12,18,6,8,0.4,0.7
2024-03-23T2200,1071A,116.8842,38.2991,沧州市,沧县城建局,细颗粒物(PM2.5),99,91,105,74,55,55,,150,111,49,47,8,13,0.8,0.6
2024-03-23T2200,1072A,116.8584,38.3254,沧州市,电视转播站,颗粒物(PM10),83,115,102,41,48,39,,147,110,61,46,8,10,0.9,0.7
2024-03-23T2200,1073A,116.8709,38.3228,沧州市,市环保局,细颗粒物(PM2.5),70,80,105,51,53,44,,144,108,58,45,14,13,0.7,0.6
2024-03-23T2200,3324A,116.8136,38.3004,沧州市,河北水利电力学院,细颗粒物(PM2.5),72,90,112,52,52,73,,148,120,38,42,12,13,0.7,0.5
2024-03-23T2200,2622A,97.1806,31.1273,昌都市,昌都监测站,,,13,10,8,6,,,92,91,3,12,6,6,0.4,0.6
2024-03-23T2200,3719A,97.1714,31.1406,昌都市,昌都会议中心,,30,8,10,6,5,94,,96,95,1,5,6,6,0.4,0.4
2024-03-23T2200,2690A,88.1236,43.8886,昌吉回族自治州,天山天池,,,,15,8,11,32,,66,54,5,7,9,9,0.5,0.5
2024-03-23T2200,2692A,87.2717,44.0297,昌吉回族自治州,新区政务中心,,32,,17,22,16,50,,73,70,20,13,8,8,0.7,0.5
2024-03-23T2200,3613A,87.3095,44.0142,昌吉回族自治州,亚心广场,,22,22,15,5,5,56,,75,74,18,12,5,5,0.7,0.6
2024-03-23T2200,1119A,125.3325,43.9166,长春市,食品厂,细颗粒物(PM2.5),100,77,41,75,41,46,,74,70,37,24,8,8,0.7,0.6
2024-03-23T2200,1120A,125.2863,43.9027,长春市,客车厂,细颗粒物(PM2.5),85,71,35,63,38,59,,77,74,25,21,6,8,0.8,0.6
2024-03-23T2200,1121A,125.2841,43.8463,长春市,邮电学院,细颗粒物(PM2.5),102,82,42,76,42,58,,78,71,30,25,10,10,0.7,0.6
2024-03-23T2200,1122A,125.3716,43.8772,长春市,劳动公园,细颗粒物(PM2.5),92,74,37,68,38,68,,83,80,24,18,8,6,0.7,0.6
2024-03-23T2200,1123A,125.3297,43.8805,长春市,园林处,细颗粒物(PM2.5),98,,36,73,37,56,,76,72,31,24,10,10,0.7,0.5
2024-03-23T2200,1124A,125.4605,43.79,长春市,净月潭,细颗粒物(PM2.5),90,,29,67,33,47,,80,71,30,11,8,7,0.8,0.6
2024-03-23T2200,1126A,125.3863,43.8447,长春市,经开区环卫处,细颗粒物(PM2.5),93,79,40,69,35,54,,79,72,37,21,9,6,0.7,0.5
2024-03-23T2200,1127A,125.245,43.7783,长春市,高新区管委会,细颗粒物(PM2.5),102,77,37,76,42,58,,84,64,26,19,9,8,0.8,0.7
2024-03-23T2200,1128A,125.1761,43.8325,长春市,岱山公园,细颗粒物(PM2.5),95,,33,71,40,48,,85,77,34,16,6,6,0.7,0.5
2024-03-23T2200,1335A,113.0833,28.2325,长沙市,经开区环保局,,33,33,34,20,19,70,,106,85,5,8,5,6,0.5,0.4
2024-03-23T2200,1336A,112.8872,28.2189,长沙市,高开区环保局,,35,35,40,18,19,70,,102,90,5,5,6,5,0.6,0.5
2024-03-23T2200,1337A,113.0792,28.2053,长沙市,马坡岭,,30,28,35,21,20,68,,97,84,2,4,6,6,0.5,0.5
2024-03-23T2200,1338A,112.9394,28.19,长沙市,湖南师范大学,,42,42,39,24,24,47,,96,66,22,13,4,4,0.8,0.9
2024-03-23T2200,1339A,113.0178,28.1322,长沙市,雨花区环保局,,29,29,30,16,14,67,,96,86,4,4,5,5,0.6,0.6
2024-03-23T2200,1340A,112.9792,28.2597,长沙市,伍家岭,,49,49,38,26,22,58,,99,77,16,19,5,5,0.7,0.7
2024-03-23T2200,1341A,113.0014,28.1944,长沙市,火车新站,,35,35,35,19,18,65,,92,75,5,13,3,3,0.6,0.6
2024-03-23T2200,1342A,112.9844,28.1178,长沙市,天心区环保局,,31,31,33,19,21,71,,98,86,2,5,2,2,0.7,0.7
2024-03-23T2200,1343A,112.8908,28.1308,长沙市,湖南中医药大学,,36,36,36,20,21,65,,95,74,8,13,5,4,0.9,0.8
2024-03-23T2200,1344A,112.9581,28.3611,长沙市,沙坪,,35,35,29,18,14,67,,104,88,6,6,5,5,0.6,0.6
2024-03-23T2200,1727A,113.1147,36.1547,长治市,清华站,,41,41,160,27,75,104,,95,95,12,47,9,14,0.8,1.2
2024-03-23T2200,1728A,113.1031,36.1989,长治市,监测站,,42,39,130,29,65,107,,105,105,17,41,10,15,0.6,0.9
2024-03-23T2200,1730A,113.0886,36.2125,长治市,审计局,,42,34,109,29,60,114,,111,111,12,32,12,16,0.5,0.7
2024-03-23T2200,1731A,113.0844,36.1856,长治市,长治八中,,43,42,176,30,75,111,,109,109,18,54,6,11,0.8,1.1
2024-03-23T2200,2845A,113.1569,36.1911,长治市,德盛苑,,44,44,122,29,62,108,,97,97,14,37,8,12,0.9,1.1
2024-03-23T2200,3568A,113.06,36.0464,长治市,向阳小学,颗粒物(PM10),65,80,203,29,112,97,,92,92,19,52,9,19,0.9,1.3
2024-03-23T2200,3569A,112.8792,36.3144,长治市,屯留一中,,45,45,125,30,64,99,,97,97,16,43,7,17,0.4,0.9
2024-03-23T2200,3570A,113.235,36.3489,长治市,潞城四中,,48,35,105,33,50,102,,112,112,20,22,7,8,0.7,0.7
2024-03-23T2200,1854A,111.6975,28.9703,常德市,市二中,颗粒物(PM10),52,53,36,27,21,67,,84,81,9,14,8,8,0.8,0.7
2024-03-23T2200,1857A,111.7158,29.1456,常德市,白鹤山,细颗粒物(PM2.5),69,82,51,50,33,34,,63,60,5,3,6,5,0.8,0.7
2024-03-23T2200,3138A,111.7153,29.0289,常德市,武陵区永安,颗粒物(PM10),52,54,45,35,28,66,,100,91,10,16,8,9,0.7,0.7
2024-03-23T2200,3139A,111.6892,28.9881,常德市,鼎城区玉霞,,47,47,53,30,30,68,,91,83,11,30,9,11,0.8,0.8
2024-03-23T2200,3140A,111.6625,29.0531,常德市,武陵区长庚,,,,54,,31,,,97,,,26,,9,,1
2024-03-23T2200,1196A,119.9633,31.762,常州市,市监测站,细颗粒物(PM2.5),90,126,168,67,71,40,,38,37,51,101,12,13,1.1,1
2024-03-23T2200,1200A,119.9468,31.7069,常州市,武进监测站,颗粒物(PM10),89,128,163,53,64,32,,37,37,60,96,23,25,1.5,1.4
2024-03-23T2200,1201A,119.9255,31.9087,常州市,安家,颗粒物(PM10),82,114,167,54,65,14,,34,33,70,87,14,14,1.5,1.3
2024-03-23T2200,3002A,119.9805,31.8174,常州市,行政中心,细颗粒物(PM2.5),82,103,136,60,70,24,,18,18,63,97,18,19,1.0,0.9
2024-03-23T2200,3003A,120.0522,31.7748,常州市,经开区,颗粒物(PM10),88,125,154,52,62,44,,36,36,48,96,10,11,1.4,0.9
2024-03-23T2200,3010A,119.9025,31.7964,常州市,钟楼,颗粒物(PM10),90,130,155,65,67,25,,22,21,65,96,12,12,1.5,1.4
2024-03-23T2200,3429A,119.8598,31.7066,常州市,武进经发区,颗粒物(PM10),80,109,137,41,58,28,,32,32,63,90,11,13,1.5,1.4
2024-03-23T2200,3430A,119.5826,31.7245,常州市,金坛城区,颗粒物(PM10),70,89,113,34,57,6,,43,19,86,77,10,13,1.4,1.2
2024-03-23T2200,2220A,120.4318,41.5881,朝阳市,西梁,细颗粒物(PM2.5),64,64,77,46,54,65,,103,99,31,27,18,15,0.8,1.2
2024-03-23T2200,2221A,120.4521,41.5646,朝阳市,河畔小区,细颗粒物(PM2.5),64,64,66,46,47,70,,109,104,29,18,13,10,0.7,0.9
2024-03-23T2200,2222A,120.4176,41.5648,朝阳市,八里堡,颗粒物(PM10),59,68,73,34,49,88,,102,101,20,24,21,13,0.7,0.9
2024-03-23T2200,2223A,120.3806,41.5969,朝阳市,农业园区,细颗粒物(PM2.5),68,,71,49,56,71,,103,98,29,28,19,12,0.8,1.1
2024-03-23T2200,1705A,116.6367,23.6719,潮州市,西园路,颗粒物(PM10),52,54,76,29,38,45,,113,83,24,24,6,7,0.6,0.6
2024-03-23T2200,3026A,116.6183,23.6608,潮州市,市政府,颗粒物(PM10),54,58,86,28,49,51,,123,90,24,38,7,21,1.1,1
2024-03-23T2200,4036A,116.6461,23.6761,潮州市,金山,,50,50,66,32,44,46,,119,88,26,23,11,11,0.8,0.8
2024-03-23T2200,2472A,113.0073,25.9061,郴州市,马头岭,,16,13,27,11,10,47,,69,58,18,11,4,5,0.6,0.6
2024-03-23T2200,2473A,113.0116,25.8226,郴州市,市职中,,19,13,20,6,12,60,,82,70,10,7,7,8,0.6,0.6
2024-03-23T2200,2474A,113.0161,25.8001,郴州市,兴隆步行街,,19,14,26,0,14,59,,80,69,11,8,5,6,0.6,0.6
2024-03-23T2200,2475A,113.0383,25.8071,郴州市,市审计局,,19,12,21,5,13,60,,82,70,11,8,11,8,0.4,0.4
2024-03-23T2200,2476A,113.0348,25.7759,郴州市,市环保局,,19,16,25,8,15,59,,79,69,12,9,15,9,0.5,0.5
2024-03-23T2200,1431A,103.9728,30.7236,成都市,金泉两河,细颗粒物(PM2.5),87,83,100,64,66,55,,139,125,35,40,3,4,0.7,0.7
2024-03-23T2200,1432A,104.176,30.6872,成都市,十里店,细颗粒物(PM2.5),68,83,122,49,67,76,,153,139,22,56,2,3,0.7,1
2024-03-23T2200,1433A,104.079,30.5706,成都市,三瓦窑,细颗粒物(PM2.5),64,66,110,46,62,88,,145,133,15,57,4,4,0.6,0.7
2024-03-23T2200,1434A,104.1114,30.63,成都市,沙河铺,细颗粒物(PM2.5),69,76,108,50,67,74,,141,131,21,49,4,6,0.7,1
2024-03-23T2200,1437A,104.0786,30.6531,成都市,君平街,细颗粒物(PM2.5),73,65,111,53,68,84,,157,146,25,55,3,6,0.5,0.7
2024-03-23T2200,1438A,103.613,31.0283,成都市,灵岩寺,颗粒物(PM10),55,60,61,29,34,124,,145,140,13,14,6,13,0.6,0.6
2024-03-23T2200,2880A,104.0239,30.65639,成都市,大石西路,细颗粒物(PM2.5),62,68,110,44,63,81,,155,145,21,54,7,8,0.7,0.9
2024-03-23T2200,3136A,104.2725,30.5589,成都市,龙泉驿区区政府,细颗粒物(PM2.5),58,63,93,41,53,98,,173,156,15,26,4,4,0.6,0.7
2024-03-23T2200,3357A,104.0106,30.6931,成都市,金博路,细颗粒物(PM2.5),69,84,114,50,66,53,,146,132,37,49,3,4,1.0,1.2
2024-03-23T2200,3359A,104.0578,30.5225,成都市,华阳,细颗粒物(PM2.5),73,68,110,53,66,84,,166,155,22,42,3,4,0.8,0.9
2024-03-23T2200,3487A,104.2394,30.5319,成都市,车城东七路,细颗粒物(PM2.5),69,84,113,50,67,93,,178,153,18,28,5,5,0.7,0.7
2024-03-23T2200,3488A,104.3853,30.7453,成都市,青白江技师分院,细颗粒物(PM2.5),62,60,91,44,55,76,,154,124,17,50,3,6,0.6,0.7
2024-03-23T2200,3489A,104.0789,30.4072,成都市,科学城,"颗粒物(PM10),细颗粒物(PM2.5)",70,90,114,51,69,94,,191,172,26,41,5,5,0.7,0.8
2024-03-23T2200,4011A,103.8506,30.6947,成都市,光华大道三段,细颗粒物(PM2.5),84,103,100,62,67,73,,138,127,28,34,2,3,0.8,0.8
2024-03-23T2200,1062A,117.9531,40.9081,承德市,铁路,细颗粒物(PM2.5),87,108,54,64,18,103,,97,97,36,27,11,8,0.7,0.4
2024-03-23T2200,1063A,117.9392,40.9763,承德市,中国银行,颗粒物(PM10),66,82,51,35,15,48,,108,99,52,25,9,9,0.8,0.4
2024-03-23T2200,1064A,117.9503,40.928,承德市,开发区,颗粒物(PM10),74,98,58,45,23,106,,105,105,29,31,10,8,0.8,0.5
2024-03-23T2200,1065A,117.8051,40.9655,承德市,文化中心,颗粒物(PM10),69,88,70,32,18,26,,96,82,63,35,8,14,0.8,0.5
2024-03-23T2200,1066A,117.9268,41.0026,承德市,离宫,颗粒物(PM10),55,59,40,33,19,75,,99,98,21,14,5,4,0.7,0.4
2024-03-23T2200,2314A,117.47,30.6618,池州市,池州学院,,39,39,41,19,22,40,,86,76,31,26,4,4,0.6,0.7
2024-03-23T2200,3237A,117.4918,30.6617,池州市,展览馆,,36,,54,25,29,45,,83,75,27,29,3,4,0.5,0.6
2024-03-23T2200,3333A,117.5627,30.695,池州市,第八中学,,40,40,51,24,30,3,,81,65,73,28,6,5,0.6,0.6
2024-03-23T2200,3334A,117.5038,30.6243,池州市,第十二中学,,46,46,52,27,31,42,,84,77,24,29,4,4,0.6,0.7
2024-03-23T2200,1744A,118.9233,42.2816,赤峰市,松山一中,颗粒物(PM10),161,272,61,19,13,72,,90,86,10,31,6,10,0.4,0.7
2024-03-23T2200,1745A,118.9576,42.2728,赤峰市,哈达街,颗粒物(PM10),159,267,58,21,12,65,,86,80,14,25,10,12,0.5,0.6
2024-03-23T2200,1746A,118.8788,42.2554,赤峰市,天义路,颗粒物(PM10),152,253,52,15,12,63,,87,81,12,23,5,7,0.4,0.5
2024-03-23T2200,3058A,119.2658,42.0353,赤峰市,银河街,颗粒物(PM10),285,409,100,42,28,68,,106,86,12,24,10,19,0.4,0.7
2024-03-23T2200,3286A,118.9359,42.3147,赤峰市,桥北物流园区,颗粒物(PM10),125,199,49,15,16,75,,94,87,5,26,4,8,0.8,0.6
2024-03-23T2200,2521A,107.3476,22.4136,崇左市,市环保局江州分局,,40,40,57,26,35,72,,89,85,6,16,7,7,0.6,0.7
2024-03-23T2200,2522A,107.3702,22.3707,崇左市,城南新区,,36,28,43,25,30,69,,86,82,8,15,6,6,0.7,0.7
2024-03-23T2200,2298A,118.3093,32.3153,滁州市,老年大学,细颗粒物(PM2.5),57,,89,40,71,90,,70,70,14,41,8,11,0.5,0.8
2024-03-23T2200,2299A,118.3244,32.2786,滁州市,人大宾馆,细颗粒物(PM2.5),53,51,106,37,81,88,,66,66,23,57,4,8,0.6,1
2024-03-23T2200,3207A,118.3118,32.3038,滁州市,市政府原办公楼,细颗粒物(PM2.5),62,50,104,44,74,90,,69,69,14,49,5,8,0.5,0.9
2024-03-23T2200,3331A,118.3267,32.2634,滁州市,图书馆,细颗粒物(PM2.5),54,55,100,38,83,87,,66,66,16,52,7,10,0.7,1.1
2024-03-23T2200,2605A,101.5482,25.0441,楚雄彝族自治州,州环境监测站,,35,10,15,10,10,111,,122,116,6,5,7,6,0.4,0.4
2024-03-23T2200,2606A,101.538,25.0492,楚雄彝族自治州,市经济开发区,,32,24,19,13,12,102,,111,107,7,6,6,6,0.6,0.5
2024-03-23T2200,2548A,107.5277,31.2827,达州市,达州职业技术学院,颗粒物(PM10),61,72,73,21,34,7,,51,40,39,34,10,13,0.7,0.8
2024-03-23T2200,2549A,107.5086,31.2186,达州市,市环境监测站,颗粒物(PM10),52,53,66,27,34,5,,50,46,56,46,10,10,0.8,0.8
2024-03-23T2200,2550A,107.4988,31.2132,达州市,凤凰小区,颗粒物(PM10),53,56,64,29,40,4,,51,46,58,46,10,9,1.1,1
2024-03-23T2200,2551A,107.5082,31.1986,达州市,达县机关宾馆,颗粒物(PM10),58,66,64,23,36,1,,53,38,58,49,6,7,0.8,0.8
2024-03-23T2200,2552A,107.4644,31.2124,达州市,市政中心,颗粒物(PM10),61,72,77,31,40,3,,50,46,70,54,9,9,1.1,0.9
2024-03-23T2200,2614A,100.1542,25.7054,大理白族自治州,大理市环境监测站,,36,25,21,25,15,110,,108,108,7,7,7,7,0.5,0.5
2024-03-23T2200,2615A,100.2171,25.5811,大理白族自治州,大理古城,,35,,14,24,11,107,,110,104,6,7,6,6,0.5,0.5
2024-03-23T2200,1109A,121.612,38.9741,大连市,甘井子,,33,31,49,23,25,90,,102,88,20,19,4,4,0.7,0.8
2024-03-23T2200,1110A,121.565,38.9511,大连市,周水子,,43,40,57,30,35,77,,87,77,24,24,2,4,0.9,0.9
2024-03-23T2200,1111A,121.5637,38.8845,大连市,星海三站,细颗粒物(PM2.5),54,43,49,38,33,50,,98,80,34,17,3,2,0.9,0.8
2024-03-23T2200,1112A,121.6302,38.9117,大连市,青泥洼桥,,38,38,44,26,31,72,,98,73,22,17,10,9,0.9,0.9
2024-03-23T2200,1113A,121.6251,38.8638,大连市,傅家庄,,50,50,42,25,25,74,,107,92,20,13,9,8,0.7,0.7
2024-03-23T2200,1114A,121.5213,38.8661,大连市,七贤岭,细颗粒物(PM2.5),53,54,53,37,28,39,,100,82,36,16,8,8,0.9,0.7
2024-03-23T2200,1115A,121.2529,38.8061,大连市,旅顺,,28,25,40,14,20,87,,100,94,12,11,7,7,0.6,0.7
2024-03-23T2200,1116A,121.7485,39.1311,大连市,金州,细颗粒物(PM2.5),69,77,67,50,43,47,,79,62,30,24,9,10,1.1,0.9
2024-03-23T2200,1117A,121.7811,39.0496,大连市,开发区,,48,48,51,31,30,57,,90,74,43,23,2,2,0.8,0.6
2024-03-23T2200,1118A,121.9762,39.0631,大连市,双D港,,23,23,31,13,23,55,,105,94,10,11,6,6,0.6,0.7
2024-03-23T2200,1789A,124.81117,46.03138,大庆市,大同区,,29,29,58,16,47,75,,75,75,4,15,5,6,0.3,0.5
2024-03-23T2200,1790A,125.129,46.533,大庆市,龙凤区,,48,48,76,21,48,78,,78,78,9,28,4,5,0.3,0.6
2024-03-23T2200,1791A,124.902,46.408,大庆市,红岗区,,47,47,60,13,38,84,,81,81,3,15,5,6,0.3,0.6
2024-03-23T2200,1792A,125.153,46.586,大庆市,萨尔图区,,38,38,77,9,49,79,,75,75,8,33,8,9,0.4,0.6
2024-03-23T2200,1793A,124.9042,46.6215,大庆市,让胡路区,颗粒物(PM10),52,54,67,24,47,83,,84,84,4,14,6,7,0.4,0.6
2024-03-23T2200,3481A,125.141,46.634,大庆市,萨区政府监测点,,32,32,70,15,53,87,,84,84,3,28,6,8,0.2,0.5
2024-03-23T2200,1723A,113.2994,40.0758,大同市,云冈宾馆,颗粒物(PM10),91,131,105,46,38,104,,121,114,25,33,6,12,0.9,1.2
2024-03-23T2200,1724A,113.3444,40.0917,大同市,大同大学,颗粒物(PM10),80,110,92,39,36,107,,122,117,20,29,13,20,0.4,0.5
2024-03-23T2200,1725A,113.2661,40.1269,大同市,安家小村,颗粒物(PM10),124,198,129,64,42,69,,116,106,47,33,16,23,0.6,1.4
2024-03-23T2200,1726A,113.2711,40.0844,大同市,教育学院,颗粒物(PM10),103,155,114,54,42,92,,109,105,31,41,9,14,0.6,1.2
2024-03-23T2200,3282A,113.3397,40.0597,大同市,大同市卫生学校,颗粒物(PM10),99,148,93,50,37,101,,125,118,29,27,7,12,0.6,0.6
2024-03-23T2200,3565A,113.1367,40.1122,大同市,云冈站,颗粒物(PM10),104,158,115,73,46,109,,116,113,19,40,9,27,0.5,0.6
2024-03-23T2200,3566A,113.1186,40.2556,大同市,图书馆,颗粒物(PM10),100,149,104,64,49,84,,111,106,29,21,19,19,1.2,1
2024-03-23T2200,3567A,113.5931,40.0461,大同市,区一中,颗粒物(PM10),76,102,80,30,24,109,,131,121,24,14,7,8,0.6,0.5
2024-03-23T2200,3676A,113.2802,40.0995,大同市,第二人民医院,颗粒物(PM10),96,142,112,44,46,101,,122,117,31,39,9,16,0.7,1.2
2024-03-23T2200,2269A,124.1069,50.4097,大兴安岭地区,科技局,,30,30,31,21,27,85,,84,84,3,8,6,7,0.3,0.4
2024-03-23T2200,3663A,124.1164,50.4278,大兴安岭地区,红旗社区,,28,9,18,2,15,87,,85,85,2,10,8,11,0.4,0.5
2024-03-23T2200,1600A,124.3303,40.0625,丹东市,江湾东路,细颗粒物(PM2.5),90,88,49,67,41,42,,97,85,34,21,12,8,1.1,0.7
2024-03-23T2200,1601A,124.4256,40.1503,丹东市,临江后街,细颗粒物(PM2.5),92,95,45,68,33,67,,101,93,25,17,17,11,1.8,0.9
2024-03-23T2200,1602A,124.3933,40.1461,丹东市,元宝山,细颗粒物(PM2.5),84,85,41,62,31,48,,88,81,33,19,12,8,2.0,0.8
2024-03-23T2200,1603A,124.3633,40.1092,丹东市,民主桥,细颗粒物(PM2.5),83,86,42,61,31,49,,89,80,29,19,19,10,1.2,0.7
2024-03-23T2200,3541A,109.5726,19.5167,儋州市,第一中学子站,,27,27,36,14,21,57,,78,73,3,6,9,8,0.4,0.6
2024-03-23T2200,3542A,109.5567,19.5187,儋州市,东坡学校子站,,33,33,36,14,21,57,,90,83,3,7,9,9,0.5,0.6
2024-03-23T2200,2616A,98.5842,24.428,德宏傣族景颇族自治州,德宏州监测站,细颗粒物(PM2.5),60,61,39,43,23,77,,121,111,23,21,3,5,0.8,0.7
2024-03-23T2200,3677A,98.5881,24.4368,德宏傣族景颇族自治州,芒市人民政府综合楼,颗粒物(PM10),52,53,33,28,22,84,,125,118,16,14,5,4,0.7,0.7
2024-03-23T2200,1901A,104.4239,31.1208,德阳市,东山公园,,49,43,86,34,53,93,,128,121,12,31,2,5,0.5,0.6
2024-03-23T2200,1902A,104.3826,31.1317,德阳市,西小区,细颗粒物(PM2.5),54,53,98,38,61,78,,124,114,21,56,2,6,0.7,0.9
2024-03-23T2200,1904A,104.3553,31.1091,德阳市,耐火材料厂,细颗粒物(PM2.5),54,50,101,38,62,85,,131,121,13,39,3,8,0.5,0.7
2024-03-23T2200,3639A,104.4019,31.1244,德阳市,市教育局,,50,50,83,33,50,79,,122,113,17,49,2,4,0.6,0.7
2024-03-23T2200,1622A,116.3032,37.4674,德州市,儿童乐园,颗粒物(PM10),90,129,130,51,45,91,,113,107,34,39,13,13,0.7,0.7
2024-03-23T2200,1624A,116.2991,37.4451,德州市,监理站,颗粒物(PM10),80,110,114,44,42,108,,123,120,24,40,17,18,0.6,0.6
2024-03-23T2200,3066A,116.2721,37.4379,德州市,九衢泉纯净水厂,颗粒物(PM10),80,110,115,46,45,109,,122,120,23,46,12,11,0.6,0.7
2024-03-23T2200,3371A,116.3728,37.4403,德州市,开发区人民医院,颗粒物(PM10),81,112,107,39,39,101,,120,114,24,36,13,14,0.5,0.6
2024-03-23T2200,3372A,116.3572,37.4094,德州市,太阳城中学,颗粒物(PM10),76,102,104,53,48,102,,118,114,23,38,12,14,0.6,0.6
2024-03-23T2200,3511A,116.5652,37.3319,德州市,陵城艺术中心,颗粒物(PM10),78,105,121,39,47,92,,118,108,16,32,10,13,0.6,0.7
2024-03-23T2200,2621A,99.7056,27.8317,迪庆藏族自治州,迪庆州站,,29,16,18,13,12,92,,108,98,9,10,8,10,0.3,0.3
2024-03-23T2200,3180A,99.7136,27.8094,迪庆藏族自治州,质量技术监督局,,29,14,14,3,4,90,,105,96,10,11,6,6,0.4,0.4
2024-03-23T2200,2663A,104.6241,35.5734,定西市,东关小学,颗粒物(PM10),58,66,114,34,37,100,,103,103,9,14,9,12,0.3,0.5
2024-03-23T2200,2664A,104.6194,35.5934,定西市,供电公司,颗粒物(PM10),56,61,107,37,39,97,,98,98,4,18,9,12,0.2,0.3
2024-03-23T2200,1389A,113.7547,23.0494,东莞市,莞城梨川,,34,34,49,12,21,41,,72,63,17,24,7,7,0.6,0.6
2024-03-23T2200,1390A,113.7944,23.0128,东莞市,东城石井,,37,37,42,15,18,34,,73,60,24,25,8,7,0.6,0.6
2024-03-23T2200,1391A,113.7383,22.9658,东莞市,南城西平,,35,35,50,11,19,40,,71,60,20,30,5,8,0.7,0.7
2024-03-23T2200,3319A,113.7338,23.0381,东莞市,万江金泰,,36,36,49,14,19,39,,71,60,16,21,10,9,0.7,0.7
2024-03-23T2200,3626A,113.7533,23.0202,东莞市,南城元岭,,34,34,47,13,17,38,,71,60,18,22,8,8,0.8,0.8
2024-03-23T2200,3627A,113.7875,23.0457,东莞市,东城主山,,37,37,46,15,19,31,,72,58,23,25,8,7,0.6,0.6
2024-03-23T2200,1666A,118.6614,37.4309,东营市,市环保局,颗粒物(PM10),53,56,88,24,44,102,,137,126,19,37,8,18,0.3,0.6
2024-03-23T2200,3036A,118.6904,37.4338,东营市,开发区管委会,颗粒物(PM10),58,66,85,29,46,92,,127,115,29,38,4,14,0.5,0.8
2024-03-23T2200,3365A,118.5719,37.565,东营市,垦利区民丰路,颗粒物(PM10),53,56,82,29,40,94,,128,117,25,44,10,15,0.6,0.8
2024-03-23T2200,3498A,118.5055,37.8612,东营市,河口城区,颗粒物(PM10),54,58,96,37,53,99,,130,112,16,36,5,16,0.7,0.9
2024-03-23T2200,3646A,118.4978,37.4623,东营市,胜利站,,50,50,98,22,40,96,,127,121,17,43,10,16,0.5,0.9
2024-03-23T2200,3734A,118.35,37.26,东营市,理想之城,颗粒物(PM10),53,56,93,24,45,89,,120,111,21,46,10,15,0.6,0.8
2024-03-23T2200,1591A,110.0023,39.8129,鄂尔多斯市,综合楼,颗粒物(PM10),100,149,146,63,44,53,,74,70,60,48,15,15,0.9,0.7
2024-03-23T2200,1592A,109.9486,39.8261,鄂尔多斯市,巴音孟克林场办事处,颗粒物(PM10),78,105,133,46,42,57,,75,68,50,47,15,21,0.7,0.8
2024-03-23T2200,1593A,109.7736,39.5986,鄂尔多斯市,康泽苑,颗粒物(PM10),91,132,130,46,37,63,,72,72,49,47,12,13,0.8,0.8
2024-03-23T2200,1594A,109.8119,39.5989,鄂尔多斯市,华泰汽车城,颗粒物(PM10),90,129,134,46,39,42,,70,67,59,52,10,13,0.7,0.7
2024-03-23T2200,1595A,109.9734,39.7884,鄂尔多斯市,奥林花园,颗粒物(PM10),107,163,142,63,42,35,,78,70,72,53,19,18,1.1,0.9
2024-03-23T2200,2436A,114.8938,30.3994,鄂州市,市政府,,47,47,49,22,22,59,,78,72,12,16,8,11,0.6,0.7
2024-03-23T2200,2437A,114.8989,30.3714,鄂州市,赵家坝,,35,35,47,19,21,64,,93,84,6,13,4,8,1.0,0.9
2024-03-23T2200,3654A,114.8094,30.4089,鄂州市,精准医疗中心,颗粒物(PM10),51,52,65,23,26,59,,90,74,17,26,14,22,1.8,1.7
2024-03-23T2200,2454A,109.4978,30.2981,恩施土家族苗族自治州,湖北民院,细颗粒物(PM2.5),67,74,71,48,60,1,,54,50,49,35,9,9,1.6,1.5
2024-03-23T2200,2455A,109.4707,30.2798,恩施土家族苗族自治州,州电力总公司,细颗粒物(PM2.5),69,62,62,50,52,6,,51,48,43,32,8,8,1.5,1.3
2024-03-23T2200,3549A,109.5061,30.3772,恩施土家族苗族自治州,龙凤新区,细颗粒物(PM2.5),55,51,55,39,47,0,,53,48,28,22,7,6,1.2,1
2024-03-23T2200,2499A,108.3411,21.6158,防城港市,沙万,,38,38,58,20,22,7,,46,39,51,47,4,6,0.7,0.7
2024-03-23T2200,2500A,108.3514,21.7731,防城港市,防城档案局,,48,48,45,28,20,36,,57,53,13,21,11,7,0.6,0.6
2024-03-23T2200,2501A,108.3506,21.6414,防城港市,大海花园,颗粒物(PM10),51,52,47,16,19,40,,60,57,18,31,4,5,0.6,0.7
2024-03-23T2200,1371A,113.1294,23.0067,佛山市,湾梁,,44,44,53,17,19,26,,71,56,29,36,11,9,0.6,0.6
2024-03-23T2200,1372A,113.1083,23.0478,佛山市,华材职中,,46,46,51,18,22,33,,64,56,20,28,11,11,0.4,0.4
2024-03-23T2200,1373A,113.144,23.0453,佛山市,南海气象局,颗粒物(PM10),54,57,51,21,22,22,,59,50,31,34,9,8,0.6,0.6
2024-03-23T2200,1374A,113.2881,22.8094,佛山市,顺德苏岗,,38,38,43,17,15,23,,61,54,28,21,4,4,0.6,0.5
2024-03-23T2200,1376A,112.8383,22.8678,佛山市,高明孔堂,,33,33,38,16,21,51,,61,58,8,9,4,4,0.7,0.7
2024-03-23T2200,1377A,112.8836,23.1588,佛山市,三水监测站,,34,34,51,19,22,21,,42,30,26,41,5,6,0.6,0.7
2024-03-23T2200,1378A,112.867,23.185,佛山市,三水云东海,,31,31,45,19,22,30,,51,41,28,38,4,4,0.5,0.6
2024-03-23T2200,3625A,113.2544,22.7642,佛山市,容桂街道办,,22,22,42,14,16,31,,52,47,21,27,5,6,0.5,0.5
2024-03-23T2200,1282A,119.2681,26.0504,福州市,师大,颗粒物(PM10),60,69,79,34,46,25,,63,62,48,45,4,5,0.5,0.5
2024-03-23T2200,1283A,119.2984,26.1028,福州市,五四北路,细颗粒物(PM2.5),67,68,75,48,49,8,,65,63,67,52,4,4,1.0,0.8
2024-03-23T2200,1284A,119.2648,26.0768,福州市,杨桥西路,细颗粒物(PM2.5),60,60,78,43,50,22,,65,63,45,46,4,5,0.5,0.5
2024-03-23T2200,1285A,119.317,26.0746,福州市,紫阳,颗粒物(PM10),57,63,92,35,55,42,,64,64,34,56,3,3,0.6,0.8
2024-03-23T2200,3048A,119.5799,26.0936,福州市,九龙,细颗粒物(PM2.5),67,49,52,48,37,27,,79,69,20,29,3,4,0.5,0.5
2024-03-23T2200,3526A,119.5189,25.9664,福州市,吴航,,42,42,79,19,40,54,,84,80,15,33,4,5,0.6,0.7
2024-03-23T2200,1755A,123.7977,41.8491,抚顺市,望花区,细颗粒物(PM2.5),166,183,93,126,67,12,,101,78,75,40,16,15,2.1,1.2
2024-03-23T2200,1756A,123.9161,41.8822,抚顺市,顺城区,细颗粒物(PM2.5),143,168,94,109,67,8,,111,72,73,41,8,10,1.8,1.2
2024-03-23T2200,1757A,124.0436,41.8611,抚顺市,东洲区,细颗粒物(PM2.5),138,159,91,105,67,18,,102,78,50,29,8,11,1.9,1.3
2024-03-23T2200,1758A,123.9247,41.8642,抚顺市,新抚区,细颗粒物(PM2.5),122,178,89,92,62,6,,118,84,69,34,9,10,2.2,1.3
2024-03-23T2200,1759A,124.0972,41.8961,抚顺市,大伙房水库,细颗粒物(PM2.5),95,98,78,71,56,72,,118,103,17,23,6,7,1.1,1
2024-03-23T2200,1760A,123.7086,41.8391,抚顺市,沈抚新城,细颗粒物(PM2.5),160,164,88,122,68,27,,101,77,65,39,11,9,2.3,1.2
2024-03-23T2200,2376A,116.2127,28.0814,抚州市,桐源党溪,,31,31,39,19,17,55,,73,69,5,6,5,4,0.2,0.2
2024-03-23T2200,2377A,116.3544,27.9831,抚州市,市站,,40,40,36,24,19,28,,68,55,23,10,1,1,1.0,0.9
2024-03-23T2200,2378A,116.3565,27.963,抚州市,血防站,,43,43,36,25,18,28,,77,61,35,15,8,4,1.1,0.9
2024-03-23T2200,2379A,116.3564,28.0007,抚州市,采茶剧团,,43,39,37,30,19,40,,69,57,22,12,6,6,0.8,0.7
2024-03-23T2200,2380A,116.385,27.9647,抚州市,医学分院,,45,45,38,21,17,16,,68,49,57,18,15,16,0.9,0.9
2024-03-23T2200,2207A,121.6094,41.998,阜新市,工业园区,颗粒物(PM10),66,81,66,44,44,78,,94,94,42,25,10,14,1.1,1
2024-03-23T2200,2208A,121.6697,42.0279,阜新市,长青街,细颗粒物(PM2.5),108,104,88,81,64,80,,88,88,26,23,9,15,0.9,0.8
2024-03-23T2200,2209A,121.6673,42.0705,阜新市,农业园区,细颗粒物(PM2.5),104,112,80,78,47,116,,102,102,24,19,9,10,1.0,0.9
2024-03-23T2200,2210A,121.6717,42.0224,阜新市,东苑,细颗粒物(PM2.5),110,,72,83,67,91,,86,86,36,27,14,21,1.0,0.9
2024-03-23T2200,2211A,121.6506,42.0498,阜新市,玉龙新城,颗粒物(PM10),73,96,62,52,38,66,,91,89,45,24,9,13,1.0,0.8
2024-03-23T2200,2301A,115.8277,32.8929,阜阳市,市监测站,,28,20,64,11,36,87,,80,80,11,16,6,7,0.7,0.7
2024-03-23T2200,2303A,115.8554,32.8605,阜阳市,开发区,,30,,65,21,45,84,,78,78,12,18,4,6,0.5,0.5
2024-03-23T2200,2875A,115.784,32.8892,阜阳市,阜阳职业技术学院,,32,32,69,12,35,89,,80,80,13,18,3,4,0.7,0.7
2024-03-23T2200,3468A,115.7901,32.8613,阜阳市,市规划展馆,,32,,63,22,43,90,,82,82,15,20,5,7,0.8,0.7
2024-03-23T2200,3469A,115.836,32.9183,阜阳市,枣园社区,,33,,62,23,45,87,,79,79,14,19,7,8,0.6,0.6
2024-03-23T2200,2669A,102.9099,34.9841,甘南藏族自治州,州政府,颗粒物(PM10),80,109,118,38,39,84,,88,88,8,30,10,13,0.6,0.8
2024-03-23T2200,3380A,102.8914,34.9617,甘南藏族自治州,甘肃民族师范学院,颗粒物(PM10),96,142,143,36,41,94,,97,96,14,38,4,11,0.7,0.7
2024-03-23T2200,2570A,101.9603,30.0475,甘孜藏族自治州,水桥子,,44,,33,19,20,140,,129,129,6,21,11,12,0.4,0.4
2024-03-23T2200,3065A,101.9533,29.9972,甘孜藏族自治州,州环保局,,42,23,33,5,11,132,,123,123,11,16,8,8,0.4,0.3
2024-03-23T2200,3414A,115.8347,28.932,赣江新区,桑海产业园,,46,46,48,20,20,35,,76,63,36,41,8,8,0.4,0.5
2024-03-23T2200,2363A,114.9367,25.8664,赣州市,地委,颗粒物(PM10),60,69,40,27,19,6,,67,48,66,10,14,10,1.1,0.8
2024-03-23T2200,2364A,114.9461,25.8481,赣州市,气象台,颗粒物(PM10),61,72,35,31,18,12,,80,66,63,13,16,9,0.8,0.5
2024-03-23T2200,2365A,114.9322,25.8333,赣州市,市图书馆,,43,,34,30,17,8,,67,51,57,14,21,8,1.0,0.7
2024-03-23T2200,2366A,114.8905,25.8471,赣州市,华坚鞋城,颗粒物(PM10),63,75,47,32,19,9,,69,42,43,13,10,8,0.7,0.7
2024-03-23T2200,3109A,115.0093,25.8613,赣州市,赣县区卫计委,颗粒物(PM10),51,51,35,29,19,26,,75,61,31,8,10,8,1.0,0.5
2024-03-23T2200,2683A,106.2319,36.1417,固原市,马园,,42,38,185,29,45,66,,85,77,20,26,5,6,0.5,0.6
2024-03-23T2200,2684A,106.2792,36.0022,固原市,监测站,,45,44,164,31,50,74,,109,82,15,17,7,8,0.5,0.5
2024-03-23T2200,2685A,106.2375,36.0211,固原市,新区,,45,42,154,31,43,75,,115,85,11,14,7,9,0.4,0.4
2024-03-23T2200,3522A,106.2177,35.9959,固原市,原州区十五小,颗粒物(PM10),67,83,162,33,42,80,,126,89,12,17,8,11,0.3,0.4
2024-03-23T2200,2544A,106.6303,30.4576,广安市,市委,细颗粒物(PM2.5),62,64,92,44,58,86,,125,121,16,30,6,7,0.8,0.9
2024-03-23T2200,2545A,106.6271,30.4663,广安市,友谊中学,细颗粒物(PM2.5),62,54,80,44,54,87,,130,125,18,30,6,7,0.9,1
2024-03-23T2200,2547A,106.6388,30.4551,广安市,广电花园,细颗粒物(PM2.5),64,67,92,46,56,87,,126,122,16,30,8,9,0.7,0.8
2024-03-23T2200,2902A,106.6351,30.4865,广安市,北辰小学,细颗粒物(PM2.5),63,58,89,45,56,93,,127,122,13,23,10,11,0.8,0.9
2024-03-23T2200,2523A,105.8945,32.4535,广元市,黑石坡,细颗粒物(PM2.5),67,60,59,48,32,94,,103,103,11,22,4,7,0.4,0.6
2024-03-23T2200,2524A,105.821,32.4444,广元市,老城,颗粒物(PM10),73,95,89,35,42,84,,94,94,13,52,1,8,0.5,0.8
2024-03-23T2200,2526A,105.8628,32.4287,广元市,监测站,颗粒物(PM10),68,86,63,30,36,92,,99,99,10,28,4,7,0.5,0.7
2024-03-23T2200,3617A,105.8047,32.4166,广元市,经开区,颗粒物(PM10),76,102,86,32,43,88,,98,98,13,43,4,7,0.5,0.7
2024-03-23T2200,1345A,113.2347,23.1423,广州市,广雅中学,颗粒物(PM10),51,51,51,22,23,19,,60,49,46,39,5,5,0.8,0.7
2024-03-23T2200,1346A,113.2612,23.105,广州市,市五中,颗粒物(PM10),51,51,52,22,24,16,,58,47,43,37,6,6,0.6,0.6
2024-03-23T2200,1348A,113.3478,23.0916,广州市,广东商学院,,40,40,51,23,24,28,,62,54,32,44,4,5,0.6,0.6
2024-03-23T2200,1349A,113.4332,23.1047,广州市,市八十六中,,33,33,51,15,20,11,,49,38,47,50,4,6,0.5,0.6
2024-03-23T2200,1350A,113.3505,22.9483,广州市,番禺中学,,39,39,50,15,21,35,,74,61,30,35,5,5,0.6,0.7
2024-03-23T2200,1351A,113.2146,23.3916,广州市,花都师范,,50,50,59,20,23,25,,62,51,37,45,6,6,0.6,0.6
2024-03-23T2200,1352A,113.2597,23.1331,广州市,市监测站,颗粒物(PM10),51,51,54,21,23,22,,56,48,38,39,4,5,0.5,0.5
2024-03-23T2200,1353A,113.5618,23.312,广州市,九龙镇镇龙,,38,38,57,15,24,35,,70,58,21,36,6,6,0.5,0.6
2024-03-23T2200,1354A,113.2765,23.1544,广州市,麓湖,,43,43,47,20,21,31,,62,56,26,31,4,5,0.5,0.5
2024-03-23T2200,1355A,113.443,23.3035,广州市,帽峰山森林公园,,32,32,46,14,17,27,,73,62,29,31,5,5,0.6,0.5
2024-03-23T2200,2846A,113.3221,23.1322,广州市,体育西,颗粒物(PM10),65,79,67,19,23,26,,62,53,32,37,6,7,0.7,0.7
2024-03-23T2200,3298A,113.5717,23.5491,广州市,从化街口,,32,32,46,15,22,45,,80,69,14,26,6,6,0.6,0.6
2024-03-23T2200,3299A,113.3472,23.3692,广州市,白云竹料,,40,40,56,14,21,38,,64,57,21,37,6,6,0.7,0.6
2024-03-23T2200,3300A,113.2981,23.237,广州市,白云嘉禾,,43,43,53,17,19,24,,58,50,40,44,4,4,0.6,0.6
2024-03-23T2200,3301A,113.4256,23.1716,广州市,黄埔科学城,,41,41,56,17,23,23,,58,46,39,46,5,6,0.5,0.6
2024-03-23T2200,3302A,113.3942,23.0483,广州市,番禺大学城,,47,47,52,14,17,35,,67,58,22,33,5,6,0.6,0.8
2024-03-23T2200,3303A,113.4922,22.8168,广州市,南沙黄阁,,30,30,44,15,20,45,,68,60,19,32,4,5,0.7,0.7
2024-03-23T2200,3304A,113.5342,22.7896,广州市,南沙街,,31,31,40,14,17,44,,67,58,17,30,6,6,0.7,0.7
2024-03-23T2200,3443A,113.2902,23.5544,广州市,花都梯面,,43,43,49,16,21,39,,70,64,22,30,6,6,0.6,0.7
2024-03-23T2200,3445A,113.7858,23.7478,广州市,从化良口,,17,17,26,9,14,53,,83,75,8,17,4,4,0.6,0.7
2024-03-23T2200,3446A,113.8051,23.2614,广州市,增城荔城,,40,40,49,18,23,34,,82,65,16,22,5,6,0.4,0.5
2024-03-23T2200,2505A,109.568,23.1478,贵港市,德智高中,细颗粒物(PM2.5),64,69,56,46,33,57,,62,62,17,33,5,5,0.7,0.6
2024-03-23T2200,2506A,109.6047,23.0666,贵港市,江南子站,颗粒物(PM10),60,70,56,41,31,41,,74,70,24,21,6,7,1.0,0.9
2024-03-23T2200,2507A,109.6014,23.0948,贵港市,贵城子站,颗粒物(PM10),59,68,61,40,35,41,,68,65,24,24,6,7,0.8,0.7
2024-03-23T2200,2508A,109.5669,23.1065,贵港市,荷城子站,细颗粒物(PM2.5),83,102,56,61,28,9,,64,56,51,23,10,10,0.9,0.6
2024-03-23T2200,3405A,109.5886,23.1172,贵港市,新世纪学校,颗粒物(PM10),70,90,61,46,34,11,,71,63,46,31,8,8,1.2,1
2024-03-23T2200,1440A,106.6971,26.5694,贵阳市,市环保站,,40,31,40,28,24,91,,121,114,23,14,5,5,0.4,0.4
2024-03-23T2200,1441A,106.6243,26.6266,贵阳市,鉴湖路,颗粒物(PM10),56,61,40,19,17,102,,132,126,12,8,6,5,0.3,0.4
2024-03-23T2200,1442A,106.7487,26.6343,贵阳市,燕子冲,,39,39,35,22,18,105,,126,123,13,10,6,7,0.5,0.5
2024-03-23T2200,1443A,106.6555,26.4365,贵阳市,碧云窝,,48,48,39,19,18,107,,128,124,10,7,7,7,0.1,0.4
2024-03-23T2200,1444A,106.694,26.5161,贵阳市,中院村,,44,44,34,24,20,86,,111,106,15,12,9,9,0.5,0.5
2024-03-23T2200,1445A,106.7109,26.6027,贵阳市,红边门,"颗粒物(PM10),细颗粒物(PM2.5)",52,53,43,36,27,72,,122,112,39,13,6,5,0.5,0.4
2024-03-23T2200,1446A,106.7164,26.5699,贵阳市,新华路,,48,48,38,27,22,81,,123,115,34,14,6,6,0.4,0.5
2024-03-23T2200,1447A,106.674,26.5424,贵阳市,太慈桥,,41,41,38,24,18,101,,122,118,15,12,11,9,0.4,0.3
2024-03-23T2200,1862A,110.4144,25.3167,桂林市,电子科大尧山校区,,42,42,33,21,37,85,,87,87,5,5,4,4,0.7,0.6
2024-03-23T2200,1863A,110.2819,25.2697,桂林市,监测站,,42,42,40,22,32,72,,71,71,8,13,8,7,0.7,0.7
2024-03-23T2200,1864A,110.3089,25.2708,桂林市,龙隐路小学,颗粒物(PM10),53,56,39,33,34,53,,72,69,16,14,5,5,0.8,0.8
2024-03-23T2200,1865A,110.2869,25.2178,桂林市,八中,,45,40,35,31,26,65,,71,69,10,10,6,5,0.5,0.5
2024-03-23T2200,3403A,110.1764,25.2381,桂林市,创业大厦,,42,39,33,29,25,72,,82,79,4,12,6,7,0.5,0.5
2024-03-23T2200,3531A,110.296,25.1253,桂林市,旅游学院,,42,36,29,29,21,37,,55,33,15,10,6,6,0.6,0.5
2024-03-23T2200,2674A,100.2561,34.4714,果洛藏族自治州,玛沁县大武镇,,30,,27,14,15,94,,98,92,5,9,8,9,0.5,0.5
2024-03-23T2200,1129A,126.5422,45.755,哈尔滨市,岭北,,25,7,51,4,46,79,,70,,9,21,10,18,0.4,1.1
2024-03-23T2200,1130A,126.561,45.8167,哈尔滨市,松北商大,,33,33,46,9,39,70,,70,70,13,18,4,5,0.4,0.6
2024-03-23T2200,1131A,126.979,45.5419,哈尔滨市,阿城会宁,颗粒物(PM10),55,59,41,20,38,64,,67,66,17,16,6,4,0.6,0.7
2024-03-23T2200,1132A,126.599,45.7222,哈尔滨市,南岗学府路,颗粒物(PM10),56,62,59,6,32,76,,64,64,9,22,11,8,0.2,0.5
2024-03-23T2200,1133A,126.689,45.7733,哈尔滨市,太平宏伟公园,,43,43,51,7,41,79,,65,65,10,27,8,9,0.3,0.6
2024-03-23T2200,1134A,126.635,45.7667,哈尔滨市,道外承德广场,,43,43,57,9,39,78,,62,62,9,31,6,8,0.2,0.4
2024-03-23T2200,1135A,126.685,45.7319,哈尔滨市,香坊红旗大街,,46,46,45,6,36,77,,58,58,9,31,3,3,0.3,0.6
2024-03-23T2200,1136A,126.6411,45.7258,哈尔滨市,动力和平路,,43,43,47,10,36,84,,68,68,5,23,8,9,0.4,0.6
2024-03-23T2200,1137A,126.593,45.7478,哈尔滨市,道里建国路,,43,,47,30,41,73,,51,,3,20,19,13,0.7,0.9
2024-03-23T2200,1138A,126.615,45.61,哈尔滨市,平房东轻厂,颗粒物(PM10),55,60,43,18,32,60,,64,62,13,13,6,5,0.4,0.5
2024-03-23T2200,1139A,126.595,45.9855,哈尔滨市,呼兰师专,颗粒物(PM10),55,59,58,7,49,78,,70,70,8,29,10,13,0.5,0.8
2024-03-23T2200,1140A,126.6206,45.6842,哈尔滨市,省农科院,颗粒物(PM10),55,60,52,16,40,81,,64,64,2,30,11,10,0.3,0.6
2024-03-23T2200,2688A,93.5128,42.8172,哈密市,地区监测站,,23,,88,14,23,73,,102,95,14,15,3,5,0.4,0.3
2024-03-23T2200,2689A,93.4961,42.8328,哈密市,哈密师范学校,,22,22,83,11,24,66,,98,92,19,29,6,8,0.4,0.4
2024-03-23T2200,2671A,100.9048,36.9639,海北藏族自治州,海晏县西海镇,,,93,95,37,33,96,,106,103,11,11,16,17,,0.5
2024-03-23T2200,3867A,102.0738,36.5056,海东市,平安区公安北苑,颗粒物(PM10),65,79,113,30,37,95,,100,98,10,18,8,11,0.4,0.5
2024-03-23T2200,1410A,110.3232,20.0574,海口市,海南大学,,32,32,31,18,15,47,,76,65,6,4,7,7,0.3,0.3
2024-03-23T2200,1411A,110.283,20.0053,海口市,秀英海南医院,,32,32,36,19,16,45,,73,62,6,7,9,9,0.3,0.4
2024-03-23T2200,1412A,110.338,19.9969,海口市,海南师范大学,,30,30,33,19,17,44,,75,64,6,4,8,8,0.4,0.4
2024-03-23T2200,1413A,110.33,20.0356,海口市,龙华路环保局宿舍,,,36,35,18,16,,,68,60,,5,,8,,0.3
2024-03-23T2200,3539A,110.5111,19.9736,海口市,桂林洋子站,,34,34,28,20,16,45,,68,58,6,5,8,7,0.3,0.3
2024-03-23T2200,2673A,100.6188,36.2866,海南藏族自治州,共和县恰卜恰镇,颗粒物(PM10),98,145,115,50,42,91,,120,106,19,13,13,14,0.3,0.4
2024-03-23T2200,2676A,97.3731,37.3753,海西蒙古族藏族自治州,德令哈市,颗粒物(PM10),57,64,116,25,29,101,,104,104,9,11,12,12,0.5,0.6
2024-03-23T2200,1048A,114.5302,36.6116,邯郸市,东污水处理厂,颗粒物(PM10),70,90,174,41,86,62,,67,58,31,63,8,8,1.3,1
2024-03-23T2200,1049A,114.4918,36.5713,邯郸市,矿院,颗粒物(PM10),80,109,142,50,78,45,,64,52,45,56,8,9,1.4,1.1
2024-03-23T2200,1050A,114.484,36.6133,邯郸市,丛台公园,细颗粒物(PM2.5),62,60,142,44,77,68,,66,66,25,49,10,11,1.3,1.1
2024-03-23T2200,3458A,114.7895,36.5593,邯郸市,香泉濮院小区,颗粒物(PM10),118,186,184,87,88,31,,81,60,63,41,11,13,0.7,0.6
2024-03-23T2200,3579A,114.50634,36.77178,邯郸市,永年区实验高中,细颗粒物(PM2.5),93,134,193,69,89,53,,68,68,40,58,9,12,0.9,1.1
2024-03-23T2200,3580A,114.20016,36.44293,邯郸市,峰峰矿区临水派出所,细颗粒物(PM2.5),54,51,130,38,66,107,,104,85,6,26,14,22,1.1,1.5
2024-03-23T2200,2634A,106.9893,33.1842,汉中市,汉川机床厂子校,颗粒物(PM10),75,99,66,38,44,72,,120,101,16,12,6,4,0.9,0.8
2024-03-23T2200,2635A,107.0154,33.0706,汉中市,市监测站,颗粒物(PM10),75,99,82,52,47,72,,130,110,28,19,26,12,0.7,0.7
2024-03-23T2200,2636A,107.0089,33.1138,汉中市,鑫源开发区,颗粒物(PM10),76,102,86,42,51,74,,126,105,29,22,25,11,0.8,0.7
2024-03-23T2200,2637A,107.007,33.0323,汉中市,南郑大河坎水厂,颗粒物(PM10),75,99,84,44,44,80,,111,109,16,24,7,8,0.6,0.7
2024-03-23T2200,1223A,120.2072,30.2111,杭州市,滨江,颗粒物(PM10),63,76,77,39,35,3,,72,31,71,54,5,6,0.9,0.7
2024-03-23T2200,1224A,120.0633,30.2747,杭州市,西溪,颗粒物(PM10),60,70,61,42,38,3,,50,8,51,40,7,7,1.0,0.9
2024-03-23T2200,1226A,120.3461,30.3153,杭州市,下沙,细颗粒物(PM2.5),80,96,88,59,47,6,,79,24,93,79,6,8,1.0,0.8
2024-03-23T2200,1227A,120.1269,30.2456,杭州市,卧龙桥,颗粒物(PM10),51,51,50,35,32,6,,71,18,38,32,4,5,0.9,0.7
2024-03-23T2200,1228A,120.1903,30.2692,杭州市,浙江农大,颗粒物(PM10),56,62,73,39,39,1,,63,18,64,57,6,7,1.0,0.9
2024-03-23T2200,1230A,120.1197,30.3119,杭州市,和睦小学,颗粒物(PM10),61,71,77,42,43,14,,72,22,61,59,8,8,0.9,0.9
2024-03-23T2200,1231A,120.3019,30.4183,杭州市,临平镇,颗粒物(PM10),91,132,113,67,54,6,,72,24,83,73,5,7,1.2,0.9
2024-03-23T2200,1232A,120.2697,30.1819,杭州市,城厢镇,细颗粒物(PM2.5),75,78,82,55,52,3,,73,24,71,52,8,10,1.0,0.9
2024-03-23T2200,1233A,120.0883,30.1808,杭州市,云栖,,39,39,48,26,27,5,,52,18,28,36,9,9,0.7,0.7
2024-03-23T2200,3557A,119.9464,30.0494,杭州市,镇二中,"颗粒物(PM10),细颗粒物(PM2.5)",53,55,58,37,40,4,,49,19,56,60,11,12,1.2,1.1
2024-03-23T2200,3558A,119.7183,30.2367,杭州市,市府大楼,颗粒物(PM10),51,52,64,31,34,28,,54,31,29,40,6,6,0.9,0.8
2024-03-23T2200,3656A,120.1556,30.2864,杭州市,消防大队,颗粒物(PM10),61,71,71,41,39,11,,72,28,70,58,9,11,1.2,1
2024-03-23T2200,1270A,117.1959,31.7848,合肥市,明珠广场,,39,27,54,27,33,63,,80,80,28,30,7,10,0.8,0.7
2024-03-23T2200,1271A,117.3072,31.8764,合肥市,三里街,,39,31,66,27,38,40,,43,40,33,44,5,6,0.6,0.6
2024-03-23T2200,1272A,117.2588,31.8707,合肥市,琥珀山庄,,22,22,62,9,27,64,,75,75,31,34,4,5,0.7,0.6
2024-03-23T2200,1273A,117.1604,31.9052,合肥市,董铺水库,,25,22,60,17,31,47,,84,81,9,13,2,3,0.7,0.5
2024-03-23T2200,1274A,117.25,31.8571,合肥市,长江中路,,41,41,65,27,37,63,,77,75,25,28,6,8,0.9,0.8
2024-03-23T2200,1275A,117.266,31.9436,合肥市,庐阳区,,44,44,65,24,35,69,,68,66,20,32,4,6,0.8,0.7
2024-03-23T2200,1276A,117.336,31.8586,合肥市,瑶海区,,41,41,69,16,34,60,,64,64,32,39,7,8,0.9,0.8
2024-03-23T2200,1277A,117.3027,31.7964,合肥市,包河区,,39,,56,27,33,61,,76,69,39,32,6,9,0.6,0.6
2024-03-23T2200,1278A,117.2776,31.7385,合肥市,滨湖新区,,28,,50,19,32,66,,81,80,33,23,6,9,0.7,0.7
2024-03-23T2200,1279A,117.1318,31.8403,合肥市,高新区,细颗粒物(PM2.5),72,,53,52,33,48,,86,83,28,26,4,6,1.0,0.7
2024-03-23T2200,3464A,117.3803,31.9147,合肥市,高教基地,细颗粒物(PM2.5),70,81,66,51,37,23,,78,42,43,34,5,7,1.0,0.6
2024-03-23T2200,3614A,79.924,37.0877,和田地区,地区环保局,颗粒物(PM10),102,154,97,24,19,99,,125,123,24,7,8,7,0.7,0.8
2024-03-23T2200,3615A,79.9131,37.113,和田地区,市环保局,颗粒物(PM10),85,120,96,26,23,100,,126,124,14,7,6,6,0.6,0.6
2024-03-23T2200,2516A,108.2011,24.715,河池市,东仁乐园,颗粒物(PM10),55,60,53,28,32,38,,66,53,16,11,9,9,0.5,0.5
2024-03-23T2200,2517A,108.0497,24.6947,河池市,市环保站,,48,44,39,33,29,73,,98,96,17,12,7,6,0.8,0.7
2024-03-23T2200,2518A,108.0983,24.6989,河池市,市疾控中心,,45,45,45,27,30,69,,98,95,23,21,5,6,0.7,0.7
2024-03-23T2200,1696A,114.6778,23.7569,河源市,源西,,19,,42,13,20,53,,81,,12,14,4,4,0.5,0.6
2024-03-23T2200,1697A,114.6944,23.7586,河源市,东埔,颗粒物(PM10),53,56,54,22,23,48,,86,78,15,11,6,7,0.6,0.6
2024-03-23T2200,1698A,114.6892,23.7233,河源市,老城,,43,43,44,17,20,47,,89,78,14,12,5,6,0.6,0.7
2024-03-23T2200,1718A,115.4208,35.2464,菏泽市,气象局,,40,40,150,22,65,108,,93,93,18,52,4,11,0.3,0.7
2024-03-23T2200,1719A,115.4747,35.2375,菏泽市,市政协,,38,38,143,24,64,110,,94,94,14,49,3,10,0.4,0.7
2024-03-23T2200,3374A,115.5564,35.0891,菏泽市,定陶老年大学,,44,44,137,19,62,113,,79,79,10,36,4,11,0.5,0.8
2024-03-23T2200,3647A,115.4702,35.2706,菏泽市,菏泽医专,,41,41,145,14,62,105,,87,87,16,53,4,14,0.4,0.8
2024-03-23T2200,2514A,111.5264,24.4172,贺州市,环保小区,,48,48,49,26,25,41,,61,45,18,17,7,7,0.8,0.7
2024-03-23T2200,2515A,111.5608,24.4078,贺州市,政协大楼,,45,45,44,26,25,40,,64,44,19,18,6,7,0.6,0.6
2024-03-23T2200,3534A,111.4744,24.4553,贺州市,西湾,颗粒物(PM10),51,52,45,30,26,37,,58,38,19,18,8,8,0.6,0.6
2024-03-23T2200,2385A,114.17,35.9019,鹤壁市,市监测站,细颗粒物(PM2.5),58,,160,41,91,100,,63,56,5,44,10,17,0.1,1
2024-03-23T2200,2386A,114.2956,35.7511,鹤壁市,市交警支队,颗粒物(PM10),57,63,154,38,80,94,,62,60,20,47,8,16,0.4,1.1
2024-03-23T2200,2387A,114.2878,35.7306,鹤壁市,迎宾馆,细颗粒物(PM2.5),59,62,137,42,78,93,,63,62,22,44,16,24,0.7,1.3
2024-03-23T2200,3474A,114.2617,35.6822,鹤壁市,大新区,细颗粒物(PM2.5),53,46,136,37,73,102,,76,71,14,42,10,18,0.7,1.1
2024-03-23T2200,3596A,114.1572,35.9603,鹤壁市,南山宾馆,,45,34,152,31,71,109,,84,84,8,32,5,15,0.5,1.3
2024-03-23T2200,2244A,130.2537,47.3416,鹤岗市,哈啤分公司,,45,45,35,31,23,33,,66,56,21,17,14,18,0.6,0.6
2024-03-23T2200,2245A,130.2684,47.3086,鹤岗市,斯达机电,,46,37,31,32,22,43,,81,64,16,13,10,11,0.7,0.5
2024-03-23T2200,2246A,130.3114,47.3388,鹤岗市,东山纸板厂,细颗粒物(PM2.5),54,56,45,38,22,39,,80,65,15,15,13,14,0.5,0.5
2024-03-23T2200,2247A,130.1097,47.3382,鹤岗市,五号水库,,35,35,25,21,15,64,,90,80,10,10,10,10,0.3,0.2
2024-03-23T2200,2263A,127.4833,50.2524,黑河市,交通局,,40,,29,28,20,82,,68,68,3,15,8,8,0.3,0.5
2024-03-23T2200,2264A,127.5144,50.2341,黑河市,环保局,,33,,33,23,26,93,,82,82,8,15,3,6,0.2,0.4
2024-03-23T2200,1074A,115.6838,37.7541,衡水市,电机北厂,细颗粒物(PM2.5),82,102,117,60,61,62,,124,101,41,34,9,7,0.4,0.5
2024-03-23T2200,1075A,115.6303,37.7316,衡水市,市监测站,颗粒物(PM10),66,81,102,19,45,90,,119,110,26,27,7,6,0.5,0.6
2024-03-23T2200,3188A,115.6683,37.7217,衡水市,市城管局,颗粒物(PM10),77,104,112,37,52,84,,117,107,30,36,10,8,0.4,0.5
2024-03-23T2200,3459A,115.5989,37.5491,衡水市,地表水厂,颗粒物(PM10),71,92,122,28,51,88,,120,107,21,43,5,7,0.4,0.5
2024-03-23T2200,2456A,112.5003,26.9167,衡阳市,原169医院,,23,23,25,14,16,59,,89,79,16,8,16,13,0.5,0.4
2024-03-23T2200,2457A,112.6194,26.9258,衡阳市,衡阳化工总厂,,26,22,30,18,21,69,,95,84,9,9,5,6,0.5,0.5
2024-03-23T2200,2458A,112.6211,26.8956,衡阳市,珠晖区环保局,,26,26,30,16,17,69,,95,85,6,7,5,7,0.6,0.6
2024-03-23T2200,2459A,112.6197,26.8733,衡阳市,市委党校,,38,38,29,12,14,67,,96,85,8,7,2,4,0.7,0.7
2024-03-23T2200,2460A,112.6006,26.8919,衡阳市,市监测站,,27,27,28,17,18,72,,98,89,8,8,7,8,0.5,0.6
2024-03-23T2200,2461A,112.5664,26.9056,衡阳市,真空机电公司,颗粒物(PM10),54,58,32,21,16,46,,88,72,23,12,16,12,1.7,0.9
2024-03-23T2200,3399A,112.6703,26.882,衡阳市,师范学院,,22,20,26,15,14,66,,95,84,7,5,7,7,0.6,0.6
2024-03-23T2200,2608A,103.3772,23.3993,红河哈尼族彝族自治州,污水处理厂,,48,46,34,33,25,96,,118,111,10,6,6,7,0.5,0.5
2024-03-23T2200,2609A,103.3861,23.35,红河哈尼族彝族自治州,监测站,,42,38,36,29,22,100,,113,110,6,6,6,6,0.6,0.6
2024-03-23T2200,3038A,103.3758,23.368,红河哈尼族彝族自治州,州图书馆,,46,34,28,32,23,99,,107,103,6,5,5,5,0.5,0.5
2024-03-23T2200,1090A,111.6507,40.7517,呼和浩特市,呼市一监,颗粒物(PM10),69,88,68,35,29,82,,109,103,17,29,10,11,0.4,0.5
2024-03-23T2200,1091A,111.6572,40.8033,呼和浩特市,小召,颗粒物(PM10),65,80,73,26,30,80,,101,98,28,46,8,11,0.3,0.4
2024-03-23T2200,1094A,111.7516,40.8369,呼和浩特市,如意水处理厂,颗粒物(PM10),64,77,67,22,23,75,,98,95,23,43,9,10,0.4,0.5
2024-03-23T2200,1095A,111.7276,40.8062,呼和浩特市,二十九中,颗粒物(PM10),66,81,62,25,24,80,,101,98,17,32,10,11,0.4,0.5
2024-03-23T2200,1096A,111.5512,40.7866,呼和浩特市,工大金川校区,颗粒物(PM10),62,73,73,28,30,86,,94,92,12,40,6,10,0.4,0.5
2024-03-23T2200,1097A,111.717,40.7612,呼和浩特市,化肥厂生活区,颗粒物(PM10),69,87,69,27,26,79,,102,98,23,29,10,11,0.3,0.5
2024-03-23T2200,3698A,111.5968,40.8178,呼和浩特市,红旗小学,颗粒物(PM10),58,66,76,23,30,82,,95,94,15,44,6,11,0.3,0.5
2024-03-23T2200,3699A,111.6518,40.8389,呼和浩特市,海东办,颗粒物(PM10),63,75,78,28,30,67,,97,93,31,54,11,13,0.3,0.5
2024-03-23T2200,2192A,119.7594,49.2261,呼伦贝尔市,区环保局,,30,28,51,21,36,84,,109,88,12,12,4,4,0.3,0.4
2024-03-23T2200,3061A,119.7512,49.1577,呼伦贝尔市,国华电力东,,36,36,51,14,32,80,,108,86,9,9,4,4,0.2,0.3
2024-03-23T2200,1250A,120.0751,30.8669,湖州市,城西水厂,细颗粒物(PM2.5),102,123,93,76,49,50,,77,62,66,65,6,7,0.9,0.8
2024-03-23T2200,2873A,120.0875,30.8955,湖州市,仁皇山新区,细颗粒物(PM2.5),102,117,86,76,49,49,,75,62,63,64,7,8,1.1,0.9
2024-03-23T2200,2907A,120.1844,30.8596,湖州市,吴兴区站,细颗粒物(PM2.5),98,108,93,73,51,60,,72,60,58,70,9,10,0.8,0.7
2024-03-23T2200,3562A,120.4148,30.8538,湖州市,南浔区站,细颗粒物(PM2.5),95,93,99,71,54,87,,109,101,41,58,12,13,1.0,0.9
2024-03-23T2200,1607A,120.9092,40.7136,葫芦岛市,龙港区,颗粒物(PM10),53,55,79,34,40,65,,81,79,26,43,5,24,0.7,0.6
2024-03-23T2200,1608A,120.8392,40.7514,葫芦岛市,化工街,细颗粒物(PM2.5),85,97,80,63,56,37,,67,60,64,52,11,16,1.1,1
2024-03-23T2200,1609A,120.8341,40.7073,葫芦岛市,新区,细颗粒物(PM2.5),60,68,57,43,56,65,,78,73,30,47,7,8,0.9,1
2024-03-23T2200,1610A,120.8695,40.7677,葫芦岛市,东城区,细颗粒物(PM2.5),120,,69,91,59,31,,74,67,69,52,14,9,1.4,1.2
2024-03-23T2200,2482A,109.5981,27.5721,怀化市,林科所,,35,35,25,10,9,87,,101,95,4,4,4,4,0.7,0.7
2024-03-23T2200,2483A,109.9453,27.5444,怀化市,河西地税局,细颗粒物(PM2.5),54,55,30,38,19,77,,99,90,16,7,4,3,0.7,0.6
2024-03-23T2200,2484A,109.9781,27.5342,怀化市,市四医院,颗粒物(PM10),51,52,37,30,19,69,,103,96,18,6,5,5,0.7,0.7
2024-03-23T2200,2485A,109.9972,27.5578,怀化市,监测楼,,41,41,33,24,17,64,,100,93,23,7,6,6,0.6,0.5
2024-03-23T2200,2486A,110.0394,27.583,怀化市,市委党校,,42,42,30,26,15,64,,102,96,23,5,7,6,0.5,0.5
2024-03-23T2200,1210A,119.036,33.5981,淮安市,钵池山,,49,,87,34,57,122,,100,100,12,24,8,9,0.6,0.7
2024-03-23T2200,1211A,119.007,33.575,淮安市,北京南路,,45,,88,31,55,136,,107,107,11,24,6,7,0.7,0.8
2024-03-23T2200,1212A,118.989,33.6067,淮安市,市监测站,,44,22,90,17,46,138,,110,110,11,23,6,8,0.8,0.8
2024-03-23T2200,1213A,119.135,33.5039,淮安市,楚州区监测站,,43,,96,30,54,115,,101,99,13,26,6,8,0.5,0.6
2024-03-23T2200,1214A,119.0186,33.6297,淮安市,淮阴区监测站,细颗粒物(PM2.5),57,,100,40,57,127,,100,100,15,36,5,6,0.5,0.6
2024-03-23T2200,3426A,118.8755,33.2894,淮安市,新华书店,,44,10,90,5,43,139,,108,108,18,32,4,7,0.5,0.6
2024-03-23T2200,2282A,116.8004,33.975,淮北市,监测站,细颗粒物(PM2.5),94,,101,70,59,115,,106,106,10,19,4,6,0.6,0.6
2024-03-23T2200,2283A,116.8091,33.9007,淮北市,烈山区政府,细颗粒物(PM2.5),95,,109,71,55,102,,104,100,10,16,4,6,0.5,0.5
2024-03-23T2200,3330A,116.8873,33.9836,淮北市,杜集区检察院,细颗粒物(PM2.5),65,62,110,47,54,126,,114,114,10,16,6,8,0.7,0.6
2024-03-23T2200,4017A,116.7923,33.9535,淮北市,市博物馆,细颗粒物(PM2.5),64,,91,46,51,119,,110,110,7,12,4,6,0.7,0.6
2024-03-23T2200,2277A,116.8305,32.7727,淮南市,潘集区政府,,27,18,70,11,44,84,,82,82,12,23,2,3,0.4,0.5
2024-03-23T2200,2278A,117.0067,32.6524,淮南市,师范学院,,27,27,83,12,51,78,,77,71,22,30,7,10,0.4,0.6
2024-03-23T2200,2279A,116.8569,32.5951,淮南市,谢家集区政府,,25,14,68,6,34,79,,82,70,15,24,11,10,0.5,0.5
2024-03-23T2200,2280A,116.8281,32.633,淮南市,八公山区政府,,26,20,89,16,55,81,,73,73,13,27,1,4,0.6,0.7
2024-03-23T2200,2281A,116.6325,32.6201,淮南市,焦岗湖风景区管理处,,33,33,76,10,26,59,,57,52,20,32,4,4,0.2,0.3
2024-03-23T2200,2894A,117.0566,32.6531,淮南市,经济技术开发区消防队,,26,18,70,17,45,83,,81,81,23,28,3,7,0.7,0.7
2024-03-23T2200,3329A,117.0108,32.5893,淮南市,山南新区,,28,,83,19,54,87,,90,80,20,26,4,6,0.8,0.8
2024-03-23T2200,2446A,114.9028,30.4742,黄冈市,职工中心,颗粒物(PM10),51,52,54,35,30,63,,96,87,14,13,14,16,0.9,0.9
2024-03-23T2200,2929A,114.8858,30.4519,黄冈市,红卫路,,45,38,46,31,28,64,,101,91,21,15,9,10,0.8,0.8
2024-03-23T2200,3398A,114.9136,30.4445,黄冈市,市林业局,,46,42,49,32,28,56,,92,82,16,11,7,7,0.8,0.5
2024-03-23T2200,2672A,102.0199,35.5102,黄南藏族自治州,同仁县隆务镇,颗粒物(PM10),77,103,126,38,47,90,,100,99,6,7,6,5,0.8,0.7
2024-03-23T2200,2295A,118.2903,29.6963,黄山市,延安路89号,颗粒物(PM10),77,104,72,42,31,16,,54,41,28,23,6,7,1.0,0.8
2024-03-23T2200,2296A,118.327,29.7178,黄山市,黄山东路89号,细颗粒物(PM2.5),60,62,58,43,32,8,,54,38,26,23,6,6,0.9,0.8
2024-03-23T2200,2297A,118.1371,30.2756,黄山市,黄山区政府5号楼,,25,25,44,16,26,79,,88,87,10,14,4,5,0.6,0.6
2024-03-23T2200,2423A,115.0601,30.2313,黄石市,沈家营,颗粒物(PM10),51,52,71,27,26,31,,80,55,43,31,8,22,1.7,1
2024-03-23T2200,2424A,115.0817,30.2006,黄石市,陈家湾,颗粒物(PM10),53,56,55,15,29,75,,93,73,12,23,11,14,0.7,0.8
2024-03-23T2200,2426A,114.8988,30.2019,黄石市,铁山,,40,40,52,25,21,52,,88,76,25,23,12,9,0.6,0.6
2024-03-23T2200,2427A,115.0307,30.2092,黄石市,团城山,颗粒物(PM10),55,60,75,22,19,56,,92,74,22,18,7,11,0.7,0.6
2024-03-23T2200,3149A,115.0235,30.1578,黄石市,笔架山北路,,46,46,77,22,19,50,,92,79,20,17,4,10,0.6,0.6
2024-03-23T2200,1392A,114.4183,23.0528,惠州市,河南岸金山湖子站,,47,47,47,21,20,52,,94,79,13,10,5,6,0.6,0.6
2024-03-23T2200,1393A,114.4053,23.0822,惠州市,下埔横江三路子站,,48,48,50,20,20,52,,97,82,16,12,5,6,0.6,0.6
2024-03-23T2200,1394A,114.4103,23.1142,惠州市,江北云山西路子站,,38,38,46,21,17,55,,97,81,9,7,9,10,0.4,0.4
2024-03-23T2200,1395A,114.4645,22.7833,惠州市,惠阳区承修路船湖子站,,46,46,46,22,19,58,,85,74,10,9,8,8,0.5,0.5
2024-03-23T2200,1396A,114.5317,22.7422,惠州市,大亚湾管委会子站,,50,50,55,19,20,59,,91,80,22,17,7,8,0.6,0.5
2024-03-23T2200,3314A,114.4338,22.8134,惠州市,惠阳秋长,,41,41,46,14,17,59,,93,80,21,16,7,7,0.7,0.6
2024-03-23T2200,3452A,114.6517,22.775,惠州市,大亚湾霞涌,,30,30,39,11,18,60,,84,76,10,7,7,11,0.5,0.4
2024-03-23T2200,2240A,130.9762,45.3001,鸡西市,环保局,,20,18,19,14,12,54,,68,61,10,8,5,6,0.4,0.2
2024-03-23T2200,2243A,130.9429,45.3039,鸡西市,第一中学,,21,17,17,14,13,66,,83,76,9,8,8,7,0.3,0.2
2024-03-23T2200,3707A,131.0207,45.3073,鸡西市,欧美日汽修厂,,23,17,22,16,13,59,,70,66,9,9,2,2,0.0,0.1
2024-03-23T2200,3709A,130.9967,45.3106,鸡西市,市政设施管理处,,23,20,24,16,12,61,,75,69,13,12,4,4,0.3,0.4
2024-03-23T2200,2367A,114.9754,27.0803,吉安市,红声器材厂,,43,43,52,25,19,54,,73,68,13,11,10,10,0.4,0.5
2024-03-23T2200,2368A,114.9658,27.0999,吉安市,市森林工业局,,38,36,35,26,22,48,,74,67,18,14,9,9,0.4,0.3
2024-03-23T2200,2369A,114.99,27.1312,吉安市,市环境监测站,,39,39,42,17,17,62,,82,76,11,10,9,10,0.7,0.6
2024-03-23T2200,2370A,115.0093,27.0968,吉安市,青原区法院,,,57,44,26,19,62,,78,72,,3,12,14,0.5,0.5
2024-03-23T2200,1772A,126.54,43.8622,吉林市,哈达湾,细颗粒物(PM2.5),57,57,30,40,24,66,,80,74,22,15,4,3,0.7,0.6
2024-03-23T2200,1773A,126.5844,43.8358,吉林市,东局子,细颗粒物(PM2.5),65,59,29,47,23,39,,76,70,41,15,5,5,0.9,0.7
2024-03-23T2200,1774A,126.5052,43.8245,吉林市,电力学院,细颗粒物(PM2.5),82,83,36,60,27,36,,87,69,39,17,9,7,1.2,0.7
2024-03-23T2200,1775A,126.6133,43.8972,吉林市,江北,二氧化氮,87,77,38,58,27,16,,78,66,174,22,10,10,1.2,0.8
2024-03-23T2200,1776A,126.555,43.8306,吉林市,江南公园,细颗粒物(PM2.5),64,48,31,46,29,62,,82,76,22,12,6,5,0.8,0.6
2024-03-23T2200,2868A,126.4739,43.953,吉林市,九站,细颗粒物(PM2.5),74,63,33,54,26,45,,91,83,34,15,25,9,0.8,0.6
2024-03-23T2200,1299A,116.9862,36.6114,济南市,科干所,,39,39,78,10,24,100,,101,99,21,37,6,8,0.5,0.7
2024-03-23T2200,1300A,116.9376,36.665,济南市,农科所,颗粒物(PM10),51,51,127,15,42,78,,101,92,33,68,5,9,0.7,1
2024-03-23T2200,1301A,117.1265,36.6734,济南市,开发区,颗粒物(PM10),74,98,96,22,27,46,,101,87,60,57,7,8,0.5,0.6
2024-03-23T2200,1303A,117.0624,36.6868,济南市,省种子仓库,颗粒物(PM10),74,97,150,27,40,47,,96,83,60,74,6,8,0.4,0.7
2024-03-23T2200,1304A,116.9489,36.6447,济南市,机床二厂,,39,39,115,10,34,101,,112,106,19,64,4,9,0.7,1
2024-03-23T2200,1305A,117.0495,36.663,济南市,市监测站,颗粒物(PM10),57,63,104,12,29,83,,105,96,39,70,9,12,0.6,0.8
2024-03-23T2200,1306A,116.7675,36.5484,济南市,长清党校,颗粒物(PM10),73,95,86,34,33,67,,106,88,43,37,7,8,0.6,0.7
2024-03-23T2200,1616A,117.6795,36.229,济南市,技术学院,颗粒物(PM10),56,61,75,19,30,110,,114,114,18,31,8,9,0.4,0.4
2024-03-23T2200,1961A,117.532,36.6868,济南市,东山小学,颗粒物(PM10),52,54,85,12,22,67,,112,100,37,51,12,10,0.4,0.4
2024-03-23T2200,3059A,117.7161,36.2049,济南市,泰兴公司,颗粒物(PM10),65,80,81,31,33,102,,110,107,29,49,9,10,0.6,0.7
2024-03-23T2200,3064A,117.6867,36.2171,济南市,莱芜战役纪念馆,颗粒物(PM10),59,68,94,19,32,112,,113,111,16,35,7,8,0.5,0.6
2024-03-23T2200,3494A,117.1673,36.9782,济南市,济阳区政府,颗粒物(PM10),64,78,125,27,53,73,,127,117,27,42,16,22,0.7,0.9
2024-03-23T2200,3495A,117.1171,36.63,济南市,锦屏中学,,35,27,49,7,17,110,,115,114,7,15,5,7,0.2,0.4
2024-03-23T2200,3682A,116.9814,36.6819,济南市,济南四建,颗粒物(PM10),78,105,130,32,46,29,,87,75,73,80,10,11,0.7,1
2024-03-23T2200,1653A,116.6251,35.4302,济宁市,火炬城,颗粒物(PM10),69,88,92,46,33,131,,100,100,15,32,5,6,0.8,0.7
2024-03-23T2200,1655A,116.5491,35.4042,济宁市,电化厂,颗粒物(PM10),76,102,103,36,35,108,,96,96,16,23,6,7,0.8,0.7
2024-03-23T2200,3500A,116.5814,35.3707,济宁市,北湖一中,颗粒物(PM10),60,70,88,27,34,92,,92,91,17,26,7,8,1.0,0.8
2024-03-23T2200,3501A,116.8249,35.5593,济宁市,服务中心,颗粒物(PM10),90,129,111,42,35,111,,107,107,23,37,5,6,0.8,0.7
2024-03-23T2200,3678A,116.5907,35.4054,济宁市,市第七中学,颗粒物(PM10),66,81,100,41,31,100,,92,91,18,26,4,5,0.9,0.8
2024-03-23T2200,2255A,130.2751,46.8028,佳木斯市,佳纺,,49,41,29,34,19,76,,88,76,9,15,5,7,0.6,0.5
2024-03-23T2200,2256A,130.3995,46.8307,佳木斯市,发电厂,,49,34,35,34,19,74,,84,75,14,11,4,4,0.7,0.5
2024-03-23T2200,2257A,130.3258,46.7975,佳木斯市,环保局,,49,36,28,34,21,75,,86,73,9,15,3,4,0.7,0.6
2024-03-23T2200,2258A,130.3648,46.8032,佳木斯市,十一中,细颗粒物(PM2.5),54,38,27,38,21,74,,83,70,10,13,6,6,0.6,0.5
2024-03-23T2200,2259A,130.3794,46.7588,佳木斯市,四丰,,39,32,26,27,17,86,,101,86,6,13,1,1,0.6,0.5
2024-03-23T2200,1252A,120.7436,30.778,嘉兴市,清河小学,颗粒物(PM10),72,93,87,45,33,55,,102,93,54,63,8,10,0.3,0.4
2024-03-23T2200,1253A,120.726,30.7478,嘉兴市,嘉兴学院,细颗粒物(PM2.5),74,94,88,54,44,63,,115,107,46,45,7,10,0.7,0.6
2024-03-23T2200,2872A,120.7846,30.7525,嘉兴市,南湖区残联,细颗粒物(PM2.5),83,92,85,61,47,53,,117,104,64,49,9,13,0.9,0.9
2024-03-23T2200,3407A,120.6916,30.7739,嘉兴市,秀洲住建,颗粒物(PM10),65,79,51,17,25,41,,106,96,72,58,7,10,0.8,0.7
2024-03-23T2200,1945A,98.2908,39.7711,嘉峪关市,气象局,颗粒物(PM10),68,85,83,29,24,66,,112,104,37,15,4,19,0.6,0.7
2024-03-23T2200,2884A,98.2672,39.7978,嘉峪关市,酒钢宾馆,颗粒物(PM10),63,75,87,27,26,93,,108,104,15,16,6,22,0.4,0.5
2024-03-23T2200,3248A,98.2643,39.7724,嘉峪关市,雄关区,颗粒物(PM10),55,60,79,21,27,92,,106,103,16,17,5,16,0.3,0.5
2024-03-23T2200,1383A,113.1064,22.6058,江门市,北街,,31,31,37,20,18,35,,56,50,18,16,7,7,0.5,0.5
2024-03-23T2200,1384A,113.0731,22.5835,江门市,西区,,38,38,40,19,19,33,,64,55,22,18,6,6,0.5,0.4
2024-03-23T2200,1385A,113.0219,22.5311,江门市,圭峰西,,30,30,36,16,18,46,,61,53,13,17,6,6,0.5,0.5
2024-03-23T2200,1386A,113.0828,22.5947,江门市,东湖,,48,48,42,23,18,26,,62,53,23,18,7,7,0.6,0.4
2024-03-23T2200,3311A,113.1075,22.5647,江门市,江海富民,颗粒物(PM10),53,55,56,25,23,30,,59,49,28,20,7,7,0.4,0.4
2024-03-23T2200,3449A,113.05,22.4667,江门市,新会银湖,,29,29,35,14,18,50,,68,63,10,17,5,5,0.6,0.6
2024-03-23T2200,1828A,113.227,35.2125,焦作市,市环保局,细颗粒物(PM2.5),88,106,115,65,50,34,,92,71,42,23,6,12,1.1,0.8
2024-03-23T2200,3169A,113.2725,35.2067,焦作市,太极体育中心,细颗粒物(PM2.5),100,102,130,75,52,30,,93,71,52,26,6,12,1.0,0.8
2024-03-23T2200,3335A,113.3137,35.2641,焦作市,马村街道办,细颗粒物(PM2.5),80,105,122,59,51,64,,92,83,25,26,8,12,0.8,0.6
2024-03-23T2200,3336A,113.2465,35.2373,焦作市,焦作技师学院,细颗粒物(PM2.5),70,84,117,51,46,65,,90,78,30,25,4,8,1.0,0.7
2024-03-23T2200,3477A,113.1656,35.2539,焦作市,中站许衡医院,细颗粒物(PM2.5),67,64,113,48,45,87,,105,85,19,18,6,9,0.7,0.6
2024-03-23T2200,3981A,113.2449,35.1803,焦作市,原李万街道办,细颗粒物(PM2.5),83,101,114,61,45,21,,90,70,53,24,9,16,0.7,0.6
2024-03-23T2200,1708A,116.3701,23.5345,揭阳市,新兴,,38,38,111,22,66,49,,106,79,15,36,8,13,0.5,0.9
2024-03-23T2200,1709A,116.3264,23.5443,揭阳市,西马,,36,36,112,10,64,51,,113,86,12,34,11,12,0.6,1
2024-03-23T2200,1710A,116.3611,23.5626,揭阳市,东兴,,42,42,121,24,65,53,,112,82,9,41,8,14,0.7,1.2
2024-03-23T2200,1711A,116.4151,23.5294,揭阳市,渔湖,,35,35,114,23,48,51,,99,77,13,37,8,11,0.6,0.9
2024-03-23T2200,3320A,116.403,23.5699,揭阳市,曲溪,,40,40,106,22,55,55,,108,82,10,39,4,12,0.5,1
2024-03-23T2200,1944A,102.1692,38.5167,金昌市,天庆家园,,42,42,72,5,13,93,,104,101,9,7,15,11,0.3,0.2
2024-03-23T2200,3170A,102.1864,38.5253,金昌市,市委党校,颗粒物(PM10),56,61,80,25,27,91,,104,100,7,4,16,17,0.2,0.3
2024-03-23T2200,4022A,102.1647,38.5371,金昌市,金川区人防中心,颗粒物(PM10),54,57,70,20,21,102,,111,108,3,3,7,6,0.4,0.3
2024-03-23T2200,1262A,119.647,29.077,金华市,十五中,颗粒物(PM10),76,101,82,52,43,8,,112,79,71,53,6,7,1.0,0.9
2024-03-23T2200,1263A,119.686,29.1029,金华市,监测站,"颗粒物(PM10),细颗粒物(PM2.5)",69,87,84,50,41,13,,106,78,61,53,4,5,0.8,0.7
2024-03-23T2200,3659A,119.656,29.1131,金华市,气象局,颗粒物(PM10),60,69,81,32,42,18,,108,72,43,52,3,5,0.6,0.7
2024-03-23T2200,1767A,121.1115,41.0879,锦州市,南山,细颗粒物(PM2.5),100,99,79,75,69,66,,107,99,58,37,11,15,0.6,0.7
2024-03-23T2200,1768A,121.0533,40.8434,锦州市,开发区,细颗粒物(PM2.5),64,68,74,46,57,47,,59,51,52,58,10,20,0.6,0.7
2024-03-23T2200,1769A,121.1836,41.1119,锦州市,百股街道,细颗粒物(PM2.5),79,,60,58,57,48,,106,82,45,30,9,11,0.6,0.6
2024-03-23T2200,1770A,121.1178,41.1222,锦州市,天安街道,细颗粒物(PM2.5),104,101,91,78,77,55,,99,93,54,31,11,12,0.8,0.8
2024-03-23T2200,1771A,121.1303,41.1386,锦州市,北湖公园,细颗粒物(PM2.5),107,84,75,80,67,41,,96,88,53,33,11,12,1.0,0.7
2024-03-23T2200,2160A,112.85,35.5051,晋城市,自来水公司,细颗粒物(PM2.5),62,70,133,44,54,87,,87,87,18,48,6,8,1.0,1.3
2024-03-23T2200,2161A,112.8318,35.4936,晋城市,白云商贸,颗粒物(PM10),58,66,140,34,47,86,,86,86,21,46,6,11,0.9,1.3
2024-03-23T2200,2162A,112.8508,35.4887,晋城市,市环保局,颗粒物(PM10),61,72,137,39,50,86,,87,86,23,53,5,7,0.9,1.1
2024-03-23T2200,2163A,112.8676,35.4897,晋城市,技术学院,颗粒物(PM10),58,65,145,31,49,95,,92,92,20,56,4,6,0.9,1.3
2024-03-23T2200,3620A,112.8271,35.4828,晋城市,泽州一中,颗粒物(PM10),62,74,122,41,48,90,,90,89,19,39,6,10,0.9,1.2
2024-03-23T2200,2171A,112.7532,37.6945,晋中市,锦纶小区,,48,48,138,17,48,101,,121,110,17,30,9,14,0.4,0.6
2024-03-23T2200,2173A,112.7249,37.7067,晋中市,南都小区,颗粒物(PM10),62,73,131,22,45,98,,121,107,15,27,8,12,0.4,0.6
2024-03-23T2200,2174A,112.6991,37.6982,晋中市,榆次区政府,颗粒物(PM10),52,53,108,29,46,92,,122,100,21,27,7,12,0.3,0.5
2024-03-23T2200,2865A,112.7195,37.6828,晋中市,榆次三中,颗粒物(PM10),56,61,145,17,47,93,,122,108,20,31,8,13,0.4,0.6
2024-03-23T2200,2439A,112.2014,31.0481,荆门市,竹园小学,细颗粒物(PM2.5),69,,59,50,51,43,,62,61,22,24,7,8,0.8,0.8
2024-03-23T2200,2440A,112.1969,30.9891,荆门市,掇刀,细颗粒物(PM2.5),54,,57,38,49,46,,64,63,17,16,10,12,0.7,0.7
2024-03-23T2200,2441A,112.2213,31.0386,荆门市,石化一小,细颗粒物(PM2.5),64,,65,46,49,46,,70,67,20,22,14,15,0.8,0.8
2024-03-23T2200,3012A,112.1849,31.0362,荆门市,西山林语,细颗粒物(PM2.5),65,,58,47,44,51,,70,69,18,19,10,14,0.7,0.7
2024-03-23T2200,3547A,112.1632,31.0138,荆门市,龙泉中学南校,,33,33,44,19,29,51,,68,67,12,14,7,10,0.9,0.9
2024-03-23T2200,1844A,112.2494,30.3197,荆州市,市图书馆,,27,27,39,16,26,46,,85,75,22,19,5,7,0.9,0.8
2024-03-23T2200,1845A,112.2008,30.3544,荆州市,市委党校,,23,23,39,8,27,47,,86,76,20,18,5,7,0.9,0.9
2024-03-23T2200,3194A,112.2747,30.3122,荆州市,管委会,,31,31,43,20,26,48,,85,72,18,18,8,10,0.9,0.8
2024-03-23T2200,3548A,112.1655,30.3364,荆州市,学苑路,,36,25,42,25,32,44,,78,63,19,24,6,7,0.9,0.9
2024-03-23T2200,2342A,117.3102,29.3867,景德镇市,王港中学,,31,31,32,13,22,17,,60,48,3,3,5,6,0.0,0.1
2024-03-23T2200,2343A,117.2117,29.2933,景德镇市,老干部活动中心,,43,43,45,24,26,34,,54,45,20,21,11,10,0.4,0.4
2024-03-23T2200,2344A,117.1894,29.2789,景德镇市,兽医站,颗粒物(PM10),55,59,42,34,22,42,,77,65,19,16,15,11,0.9,0.8
2024-03-23T2200,2345A,117.1547,29.2617,景德镇市,台达陶瓷,,43,43,35,28,21,31,,76,58,27,20,25,21,0.6,0.6
2024-03-23T2200,2346A,117.2461,29.2956,景德镇市,陶研所,,37,37,40,24,22,29,,61,50,23,21,7,14,0.4,0.5
2024-03-23T2200,1803A,115.9872,29.6815,九江市,十里,,44,44,49,26,24,62,,92,86,16,29,9,10,0.5,0.7
2024-03-23T2200,1804A,115.9584,29.7046,九江市,茅山头,,43,37,40,30,22,43,,90,80,34,32,4,7,0.7,0.7
2024-03-23T2200,1805A,115.9877,29.7295,九江市,西园,,40,40,44,26,25,42,,90,79,34,31,11,13,0.6,0.7
2024-03-23T2200,1806A,116.0172,29.6547,九江市,五七二七厂,,32,24,33,22,23,63,,88,84,12,14,8,9,0.5,0.5
2024-03-23T2200,1808A,115.9114,29.6038,九江市,综合工业园,,27,23,40,18,19,86,,95,94,8,17,11,12,0.7,0.7
2024-03-23T2200,1809A,116.0721,29.7535,九江市,石化总厂,,41,41,50,24,20,58,,88,79,15,12,15,14,0.6,0.6
2024-03-23T2200,1810A,115.9773,29.5698,九江市,庐山气象台,,32,,19,22,15,82,,86,84,4,5,6,6,0.8,0.7
2024-03-23T2200,3190A,116.0254,29.6994,九江市,外国语学校,,40,39,41,28,22,62,,86,82,22,24,8,10,0.5,1.6
2024-03-23T2200,2658A,98.5061,39.7443,酒泉市,仓门街子站,颗粒物(PM10),70,90,79,36,26,80,,102,96,21,10,7,7,0.4,0.3
2024-03-23T2200,2659A,98.4989,39.7256,酒泉市,油田生活基地,颗粒物(PM10),71,92,86,29,29,73,,100,94,24,9,8,9,0.4,0.3
2024-03-23T2200,2698A,76.0072,39.4467,喀什地区,巡警大队,颗粒物(PM10),83,115,103,23,16,85,,108,107,32,30,2,3,0.5,0.5
2024-03-23T2200,2699A,75.9755,39.4694,喀什地区,吾办,颗粒物(PM10),93,135,99,34,24,95,,110,110,27,20,4,3,0.6,0.6
2024-03-23T2200,4027A,75.9483,39.4689,喀什地区,老干局,颗粒物(PM10),86,121,93,23,16,98,,117,117,21,17,3,2,0.6,0.6
2024-03-23T2200,1824A,114.3389,34.7781,开封市,肿瘤医院,细颗粒物(PM2.5),65,57,135,47,77,80,,66,66,17,32,4,7,0.6,0.8
2024-03-23T2200,1826A,114.2885,34.7965,开封市,世纪星幼儿园,细颗粒物(PM2.5),62,47,126,44,78,91,,73,73,20,35,3,5,0.4,0.6
2024-03-23T2200,3147A,114.3438,34.8106,开封市,龙亭公园,,,,138,,84,73,,58,58,20,36,4,6,,1.1
2024-03-23T2200,3210A,114.3644,34.7964,开封市,汴京公园,细颗粒物(PM2.5),63,,138,45,83,78,,64,64,12,29,2,5,0.6,0.8
2024-03-23T2200,3592A,114.4644,34.7556,开封市,祥符区生态环境局,细颗粒物(PM2.5),62,71,135,44,86,70,,57,57,28,47,10,15,1.3,1.5
2024-03-23T2200,1951A,84.895,45.6094,克拉玛依市,长征新村,,23,,14,9,6,72,,77,77,10,15,9,9,0.2,0.2
2024-03-23T2200,1952A,84.8988,45.5893,克拉玛依市,南林小区,,24,12,16,4,13,74,,80,80,14,20,6,6,0.3,0.3
2024-03-23T2200,1954A,84.905,44.3396,克拉玛依市,独山子区,,20,19,15,14,13,63,,76,75,14,8,7,7,0.5,0.4
2024-03-23T2200,1955A,85.6979,46.098,克拉玛依市,乌尔禾区商贸楼,,26,26,15,6,9,65,,85,84,20,10,8,8,0.4,0.2
2024-03-23T2200,3612A,85.1045,45.6899,克拉玛依市,白碱滩区新站,,24,24,15,14,17,68,,82,80,12,11,8,8,0.1,0.1
2024-03-23T2200,2697A,76.1454,39.7142,克孜勒苏柯尔克孜自治州,市人民政府,颗粒物(PM10),80,110,109,30,26,98,,113,113,12,5,6,5,0.5,0.3
2024-03-23T2200,3665A,76.1658,39.7157,克孜勒苏柯尔克孜自治州,克州文化中心,颗粒物(PM10),79,107,109,28,25,101,,113,113,16,6,7,6,0.3,0.2
2024-03-23T2200,1450A,102.8204,24.8886,昆明市,呈贡新区,,33,31,23,18,13,105,,125,118,9,10,4,6,0.4,0.4
2024-03-23T2200,1452A,102.7252,25.0902,昆明市,龙泉镇,,42,42,22,18,13,104,,126,119,14,11,6,6,0.5,0.5
2024-03-23T2200,1453A,102.7266,25.0375,昆明市,东风东路,,34,24,23,16,18,106,,123,116,12,13,6,7,0.4,0.4
2024-03-23T2200,1454A,102.6742,25.0669,昆明市,金鼎山,,32,32,25,18,14,102,,120,112,14,12,6,5,0.4,0.4
2024-03-23T2200,1455A,102.6644,25.0401,昆明市,碧鸡广场,,32,32,22,19,14,94,,122,114,18,10,8,9,0.5,0.6
2024-03-23T2200,3179A,102.7494,25.0119,昆明市,官渡区博物馆,,31,25,23,19,16,99,,123,114,13,10,8,9,0.5,0.5
2024-03-23T2200,3375A,102.8017,24.8336,昆明市,青年创业园,,34,26,21,16,13,108,,128,122,6,6,8,9,0.5,0.5
2024-03-23T2200,3550A,102.7997,24.9786,昆明市,昆明学院,,31,26,22,16,14,97,,118,110,10,9,8,9,0.6,0.6
2024-03-23T2200,3551A,102.5967,24.6736,昆明市,晋宁区生态环境分局,,34,23,26,14,14,107,,128,121,8,6,4,3,0.4,0.4
2024-03-23T2200,3552A,102.6678,24.9856,昆明市,云天化总部,,37,23,20,15,13,117,,133,126,4,6,5,6,0.5,0.6
2024-03-23T2200,1456A,91.1319,29.6514,拉萨市,八廓街,,43,43,14,14,7,109,,108,108,15,12,7,7,0.4,0.4
2024-03-23T2200,1457A,91.1221,29.6747,拉萨市,市环保局,,44,44,16,15,8,107,,108,108,11,9,8,7,0.7,0.6
2024-03-23T2200,1458A,91.0874,29.6475,拉萨市,区监测站,,34,32,13,12,8,108,,110,110,8,7,5,5,0.4,0.4
2024-03-23T2200,1459A,91.1774,29.6541,拉萨市,西藏大学,,44,44,14,12,6,108,,109,109,5,8,4,4,0.3,0.3
2024-03-23T2200,1460A,90.9798,29.6588,拉萨市,区辐射站,颗粒物(PM10),54,58,23,20,8,110,,106,106,6,9,6,5,0.4,0.4
2024-03-23T2200,1461A,91.0834,29.6292,拉萨市,拉萨火车站,颗粒物(PM10),54,58,15,15,8,106,,107,107,8,5,3,3,0.3,0.3
2024-03-23T2200,2520A,109.2203,23.7256,来宾市,来宾技工学校,,43,43,54,25,32,57,,74,71,9,10,8,9,0.7,0.7
2024-03-23T2200,3535A,109.1781,23.7297,来宾市,兴宾区政府,,32,32,44,18,28,66,,78,76,8,12,4,4,0.7,0.7
2024-03-23T2200,4002A,109.2416,23.7461,来宾市,中南小学,,43,43,52,22,30,50,,74,71,17,14,6,4,0.6,0.7
2024-03-23T2200,1476A,103.631,36.1031,兰州市,兰炼宾馆,细颗粒物(PM2.5),64,74,134,46,49,102,,102,101,11,28,9,11,0.3,0.4
2024-03-23T2200,1478A,103.8412,36.0726,兰州市,生物制品所,颗粒物(PM10),62,73,131,42,47,102,,102,102,10,34,8,11,0.4,0.5
2024-03-23T2200,1479A,103.831,36.0464,兰州市,铁路设计院,"颗粒物(PM10),细颗粒物(PM2.5)",60,69,121,43,42,84,,94,93,28,40,7,9,0.6,0.8
2024-03-23T2200,3186A,103.7158,36.1058,兰州市,教育港,颗粒物(PM10),57,63,129,36,44,106,,105,104,14,41,8,11,0.3,0.6
2024-03-23T2200,3241A,103.7439,36.0842,兰州市,百合公园,颗粒物(PM10),64,77,121,33,42,102,,101,101,10,35,7,6,0.5,0.6
2024-03-23T2200,3242A,103.9611,35.998,兰州市,和平,颗粒物(PM10),60,70,132,37,41,100,,106,105,14,17,9,10,0.5,0.5
2024-03-23T2200,3245A,103.6633,36.533,兰州新区,新区管委会,颗粒物(PM10),59,67,168,34,45,89,,104,102,13,7,16,8,2.0,0.4
2024-03-23T2200,3246A,103.6975,36.4789,兰州新区,舟曲中学,颗粒物(PM10),73,96,192,40,44,85,,94,92,10,10,14,10,0.5,0.4
2024-03-23T2200,1067A,116.6708,39.5111,廊坊市,药材公司,颗粒物(PM10),96,142,151,71,78,39,,93,78,82,77,11,9,1.3,1.1
2024-03-23T2200,1068A,116.7214,39.5589,廊坊市,开发区,细颗粒物(PM2.5),103,122,142,77,78,47,,96,81,67,70,8,8,1.1,0.9
2024-03-23T2200,1070A,116.7244,39.5269,廊坊市,北华航天学院,细颗粒物(PM2.5),95,120,146,71,76,52,,96,81,58,68,8,8,1.1,1.1
2024-03-23T2200,2919A,116.7022,39.5453,廊坊市,河北工业大学,细颗粒物(PM2.5),105,127,138,79,77,50,,94,78,68,77,9,9,1.1,1
2024-03-23T2200,2535A,103.7723,29.5462,乐山市,花湖湾,颗粒物(PM10),94,138,106,62,62,159,,194,189,27,29,7,11,0.6,1
2024-03-23T2200,2536A,103.7627,29.5844,乐山市,牛耳桥,颗粒物(PM10),90,130,106,66,71,154,,186,181,33,39,8,6,0.7,0.9
2024-03-23T2200,2537A,103.7508,29.6006,乐山市,市第三水厂,颗粒物(PM10),79,107,96,57,59,154,,192,184,38,46,8,6,0.8,1.1
2024-03-23T2200,2538A,103.7571,29.5664,乐山市,市监测站,颗粒物(PM10),80,110,100,56,59,165,,197,192,26,28,9,12,0.8,1.1
2024-03-23T2200,3361A,103.7311,29.5628,乐山市,理工大学,"颗粒物(PM10),细颗粒物(PM2.5)",87,123,105,64,61,162,,203,197,26,30,12,11,0.6,1
2024-03-23T2200,2599A,100.2497,26.8802,丽江市,丽江古城,,27,23,23,10,11,86,,105,98,10,10,10,9,0.5,0.5
2024-03-23T2200,2600A,100.2203,26.8906,丽江市,市中心,,28,8,10,6,5,87,,103,96,6,9,9,8,0.5,0.5
2024-03-23T2200,1267A,119.914,28.4514,丽水市,监测站大楼,细颗粒物(PM2.5),74,84,56,54,40,4,,92,46,58,31,6,5,1.1,0.7
2024-03-23T2200,1268A,119.93,28.4586,丽水市,莲都小学,细颗粒物(PM2.5),67,80,66,48,41,8,,97,48,52,31,3,4,0.6,0.6
2024-03-23T2200,1269A,119.879,28.4231,丽水市,余庄前,细颗粒物(PM2.5),59,64,49,42,30,4,,85,43,36,19,4,4,0.7,0.5
2024-03-23T2200,1173A,119.176,34.5885,连云港市,市环境监测站,细颗粒物(PM2.5),64,68,95,46,45,133,,133,132,12,24,5,7,0.4,0.5
2024-03-23T2200,3000A,119.3581,34.6972,连云港市,德源药业,细颗粒物(PM2.5),62,70,94,44,42,139,,134,133,8,16,4,5,0.6,0.5
2024-03-23T2200,3007A,119.178,34.844,连云港市,新城一中,颗粒物(PM10),62,74,108,36,59,140,,127,126,14,29,6,8,0.7,0.7
2024-03-23T2200,3008A,119.3608,34.7519,连云港市,胡沟管理处,细颗粒物(PM2.5),55,53,99,39,44,129,,119,116,6,29,7,10,0.6,0.7
2024-03-23T2200,3009A,119.1478,34.5911,连云港市,矿山设计院,颗粒物(PM10),63,75,108,44,45,131,,130,130,13,24,4,5,0.7,0.7
2024-03-23T2200,3434A,119.2413,34.6539,连云港市,工贸学校,细颗粒物(PM2.5),69,76,95,50,47,152,,159,157,10,15,8,9,0.7,0.7
2024-03-23T2200,3664A,119.4172,34.7341,连云港市,连云街道,细颗粒物(PM2.5),74,86,96,54,44,146,,163,155,14,16,2,4,0.6,0.6
2024-03-23T2200,2571A,102.3431,27.8099,凉山彝族自治州,青龙寺,,32,20,17,4,4,102,,127,124,5,6,5,6,0.8,0.9
2024-03-23T2200,2572A,102.2721,27.8415,凉山彝族自治州,邛海宾馆,,32,20,16,10,9,102,,121,120,14,9,9,12,0.5,0.7
2024-03-23T2200,2573A,102.2625,27.898,凉山彝族自治州,西昌市政府,,34,24,17,13,9,106,,117,116,11,7,11,11,0.6,0.7
2024-03-23T2200,2574A,102.2685,27.8851,凉山彝族自治州,凉山州政府,,34,25,16,15,9,106,,115,114,9,8,9,10,0.5,0.7
2024-03-23T2200,2575A,102.237,27.8914,凉山彝族自治州,长安,,36,29,20,12,10,114,,124,124,11,9,15,11,1.3,0.9
2024-03-23T2200,2212A,123.2,41.1953,辽阳市,宏伟区,细颗粒物(PM2.5),118,128,79,89,48,40,,80,71,55,31,12,13,1.3,1.4
2024-03-23T2200,2213A,123.1683,41.2495,辽阳市,新华园,细颗粒物(PM2.5),168,149,96,127,68,31,,77,70,72,47,12,14,1.5,1.5
2024-03-23T2200,2214A,123.2354,41.2639,辽阳市,滨河路,细颗粒物(PM2.5),148,127,73,113,61,16,,83,66,74,31,13,11,1.9,1.5
2024-03-23T2200,2215A,123.149,41.2991,辽阳市,铁西工业园,细颗粒物(PM2.5),170,149,104,129,83,22,,91,80,69,42,18,15,1.4,1.8
2024-03-23T2200,2227A,125.1358,42.8845,辽源市,环保局,细颗粒物(PM2.5),84,83,33,62,26,13,,93,61,50,18,9,8,1.3,0.8
2024-03-23T2200,3239A,125.0764,42.9078,辽源市,银鹰制药,细颗粒物(PM2.5),63,69,31,45,24,6,,94,66,76,16,20,10,1.2,0.7
2024-03-23T2200,1625A,115.9848,36.4372,聊城市,区政府,颗粒物(PM10),117,183,126,75,52,20,,82,72,66,55,7,7,0.8,0.9
2024-03-23T2200,2878A,116.0072,36.4343,聊城市,聊大东校,细颗粒物(PM2.5),104,156,121,78,56,29,,88,77,65,56,10,10,0.8,0.9
2024-03-23T2200,3200A,115.9819,36.4978,聊城市,监控中心,颗粒物(PM10),89,127,147,46,62,48,,82,69,59,69,8,11,0.7,0.9
2024-03-23T2200,3513A,116.0445,36.4361,聊城市,九州社区,颗粒物(PM10),110,169,129,67,50,25,,85,73,52,50,11,12,0.7,0.7
2024-03-23T2200,4018A,116.0567,36.4608,聊城市,星美广场,颗粒物(PM10),103,155,133,63,53,44,,82,73,41,53,10,11,0.7,0.7
2024-03-23T2200,2632A,94.3681,29.6376,林芝市,林芝监测站,,31,5,7,3,2,98,,103,,2,2,5,5,0.4,0.6
2024-03-23T2200,2633A,94.3616,29.6616,林芝市,林芝人民医院,,,9,10,4,8,102,,104,104,4,6,,6,0.5,0.4
2024-03-23T2200,2603A,100.0781,23.8982,临沧市,市环保局,细颗粒物(PM2.5),65,,25,47,30,85,,119,109,13,8,6,6,0.5,0.3
2024-03-23T2200,2604A,100.0894,23.8822,临沧市,市气象局,,43,36,27,30,24,75,,118,105,17,11,6,5,0.4,0.3
2024-03-23T2200,1733A,111.5531,36.0783,临汾市,临钢医院,细颗粒物(PM2.5),54,48,136,38,38,81,,93,86,12,18,6,6,0.6,0.5
2024-03-23T2200,1734A,111.5028,36.0714,临汾市,技工学校,细颗粒物(PM2.5),64,57,131,46,42,86,,112,99,15,18,8,10,1.2,0.7
2024-03-23T2200,1736A,111.5018,36.0855,临汾市,市委,颗粒物(PM10),53,56,135,36,35,87,,109,96,14,18,13,8,0.7,0.6
2024-03-23T2200,3018A,111.505,36.1014,临汾市,唐尧大酒店,细颗粒物(PM2.5),58,59,124,41,36,87,,106,95,10,15,6,8,0.6,0.5
2024-03-23T2200,3668A,111.5036,36.0414,临汾市,城南,细颗粒物(PM2.5),62,52,124,44,43,84,,100,90,11,16,12,9,0.7,0.6
2024-03-23T2200,2667A,103.2069,35.5993,临夏回族自治州,环保局,颗粒物(PM10),78,105,140,38,44,86,,90,87,8,18,5,6,0.3,0.6
2024-03-23T2200,2668A,103.2417,35.6057,临夏回族自治州,建设大厦,颗粒物(PM10),86,121,133,33,46,90,,93,90,9,18,4,5,0.3,0.6
2024-03-23T2200,1618A,118.3429,35.0532,临沂市,沂河小区,细颗粒物(PM2.5),107,95,129,80,69,104,,124,116,20,33,8,14,1.0,1.2
2024-03-23T2200,1619A,118.295,35.0583,临沂市,鲁南制药厂,细颗粒物(PM2.5),87,90,130,64,54,115,,132,122,21,32,6,14,0.9,1.2
2024-03-23T2200,1620A,118.2794,34.9976,临沂市,新光毛纺厂,细颗粒物(PM2.5),84,88,114,62,51,104,,125,117,27,36,3,11,1.4,1.4
2024-03-23T2200,1621A,118.3956,35.0888,临沂市,河东保险公司,细颗粒物(PM2.5),74,85,127,54,57,111,,126,117,24,44,6,10,0.9,1
2024-03-23T2200,3370A,118.3564,35.0215,临沂市,十里堡居委,细颗粒物(PM2.5),79,90,120,58,50,104,,132,122,24,33,5,11,1.3,1.3
2024-03-23T2200,3496A,118.3604,35.1084,临沂市,南坊新区,细颗粒物(PM2.5),73,83,128,53,54,121,,131,123,21,39,9,14,0.9,1
2024-03-23T2200,3860A,118.3920,35.0300,临沂市,皇山花园小区,细颗粒物(PM2.5),78,85,138,57,58,103,,130,120,25,37,8,14,1.4,1.4
2024-03-23T2200,1870A,109.4856,24.3895,柳州市,柳东小学,,45,45,45,31,31,69,,88,85,11,9,7,6,0.4,0.4
2024-03-23T2200,1871A,109.4157,24.3277,柳州市,环保监测站,,47,47,47,26,30,62,,80,77,9,8,6,6,0.8,0.8
2024-03-23T2200,1872A,109.389,24.341,柳州市,河西水厂,,48,48,50,27,26,62,,81,79,9,9,3,3,0.9,0.9
2024-03-23T2200,1874A,109.4006,24.3631,柳州市,市九中,颗粒物(PM10),51,52,56,23,31,64,,84,81,13,12,8,7,0.8,0.7
2024-03-23T2200,3402A,109.5422,24.3996,柳州市,市二中,,49,49,45,29,26,65,,85,81,14,11,8,7,0.8,0.7
2024-03-23T2200,2307A,116.5079,31.737,六安市,监测大楼,细颗粒物(PM2.5),58,,40,41,29,56,,87,84,19,14,5,6,0.8,0.6
2024-03-23T2200,2308A,116.4738,31.7643,六安市,皖西学院,细颗粒物(PM2.5),52,,46,36,28,54,,92,87,21,14,4,4,0.9,0.6
2024-03-23T2200,2309A,116.4996,31.7905,六安市,朝阳厂,,50,,39,35,30,48,,80,72,18,12,5,6,0.7,0.5
2024-03-23T2200,2310A,116.5567,31.7886,六安市,开发区,,28,,46,19,28,50,,81,77,18,22,4,9,0.9,0.7
2024-03-23T2200,2577A,104.83,26.5917,六盘水市,黄土坡,,44,33,23,7,10,138,,144,144,8,6,8,7,0.5,0.5
2024-03-23T2200,2578A,104.89,26.5939,六盘水市,水钢,,43,31,32,16,11,136,,147,147,9,6,8,7,0.5,0.5
2024-03-23T2200,2579A,104.8475,26.5894,六盘水市,民中,,40,32,22,12,8,128,,139,139,11,5,9,6,0.6,0.6
2024-03-23T2200,2580A,104.9544,26.5506,六盘水市,双水,,45,36,25,13,9,142,,152,152,7,6,7,7,0.5,0.5
2024-03-23T2200,2336A,117.0217,25.1033,龙岩市,龙岩市监测站,颗粒物(PM10),51,52,40,34,30,14,,80,62,44,23,6,6,0.8,0.7
2024-03-23T2200,2337A,117.0258,25.0661,龙岩市,闽西职业技术学院,颗粒物(PM10),56,62,38,27,26,19,,75,59,43,20,24,6,0.5,0.6
2024-03-23T2200,2338A,117.0196,25.0306,龙岩市,龙岩学院,,42,39,28,29,25,54,,82,72,10,10,5,6,0.5,0.4
2024-03-23T2200,2885A,104.9339,33.3826,陇南市,滨江中学,颗粒物(PM10),83,115,90,44,35,80,,96,88,6,16,6,9,0.7,0.8
2024-03-23T2200,3247A,104.955,33.371,陇南市,市总工会,颗粒物(PM10),73,95,78,31,31,76,,95,85,10,18,8,9,0.5,0.6
2024-03-23T2200,2487A,111.9589,27.8901,娄底市,电视发射台,,43,43,40,17,20,71,,93,87,14,21,6,7,0.5,0.9
2024-03-23T2200,2489A,112.0194,27.7314,娄底市,市委党校,,40,37,36,28,20,69,,74,67,8,11,4,5,0.6,0.7
2024-03-23T2200,2490A,111.9561,27.7569,娄底市,涟钢,,40,40,56,23,26,38,,68,60,52,32,61,32,1.6,1.6
2024-03-23T2200,2491A,111.9892,27.7044,娄底市,市政府,,29,,28,20,21,78,,82,78,4,7,8,8,0.3,0.4
2024-03-23T2200,1893A,105.4324,28.9634,泸州市,九狮山,细颗粒物(PM2.5),90,100,115,67,65,90,,199,176,18,20,4,7,0.6,0.6
2024-03-23T2200,1894A,105.4427,28.9063,泸州市,小市上码头,细颗粒物(PM2.5),102,135,121,76,69,131,,187,181,44,37,12,13,0.8,0.8
2024-03-23T2200,1895A,105.4241,28.8573,泸州市,兰田宪桥,细颗粒物(PM2.5),98,130,118,73,74,86,,183,167,44,26,9,10,0.9,0.7
2024-03-23T2200,1896A,105.4379,28.8833,泸州市,市环监站,细颗粒物(PM2.5),104,115,113,78,72,144,,179,175,26,25,12,14,0.8,0.7
2024-03-23T2200,3490A,105.3617,28.7703,泸州市,纳溪区环保局,颗粒物(PM10),96,141,116,70,68,45,,194,165,83,39,6,7,1.3,0.9
2024-03-23T2200,2183A,111.1406,37.5211,吕梁市,环保局,颗粒物(PM10),81,111,182,53,58,22,,91,67,67,53,5,9,0.6,0.6
2024-03-23T2200,2185A,111.1297,37.5136,吕梁市,自来水公司,颗粒物(PM10),85,120,167,50,55,14,,90,65,74,45,4,6,0.6,0.5
2024-03-23T2200,2867A,111.1283,37.51,吕梁市,马茂庄小学,颗粒物(PM10),80,110,179,52,56,40,,91,70,56,53,3,6,0.6,0.6
2024-03-23T2200,1812A,112.3931,34.6516,洛阳市,市委党校,细颗粒物(PM2.5),80,64,116,59,72,66,,73,73,24,33,2,5,0.8,0.8
2024-03-23T2200,1814A,112.4657,34.6871,洛阳市,豫西宾馆,细颗粒物(PM2.5),74,76,130,54,67,75,,82,80,20,29,5,8,0.7,0.5
2024-03-23T2200,1815A,112.494,34.6886,洛阳市,河南林校,细颗粒物(PM2.5),84,,112,62,82,68,,74,73,20,32,5,8,0.7,0.6
2024-03-23T2200,1816A,112.3844,34.623,洛阳市,开发区管委会,细颗粒物(PM2.5),90,80,143,67,86,75,,84,84,15,22,2,6,0.6,0.6
2024-03-23T2200,1817A,112.4267,34.6258,洛阳市,市委新办公区,细颗粒物(PM2.5),77,74,142,56,74,69,,71,71,22,30,3,6,0.6,0.6
2024-03-23T2200,3340A,112.6005,34.6326,洛阳市,伊滨,细颗粒物(PM2.5),79,77,136,58,75,63,,79,79,25,31,5,7,0.9,0.9
2024-03-23T2200,3341A,112.4951,34.6332,洛阳市,中移产业园,细颗粒物(PM2.5),80,61,113,59,74,68,,78,77,23,30,4,7,0.8,0.8
2024-03-23T2200,3593A,112.5736,34.8993,洛阳市,吉利监测站,细颗粒物(PM2.5),75,62,119,55,70,55,,83,76,35,38,5,12,1.2,0.9
2024-03-23T2200,3635A,112.3677,34.662,洛阳市,河科大西苑校区,细颗粒物(PM2.5),73,61,117,53,66,72,,82,82,23,27,1,5,0.5,0.5
2024-03-23T2200,3636A,112.4388,34.6781,洛阳市,英才小学,细颗粒物(PM2.5),72,81,129,52,63,74,,76,76,21,30,3,7,0.8,0.8
2024-03-23T2200,2399A,114.051,33.5699,漯河市,三五一五工厂,细颗粒物(PM2.5),65,,87,47,62,86,,75,73,8,18,6,8,0.5,0.7
2024-03-23T2200,2400A,114.0055,33.5698,漯河市,漯河大学,细颗粒物(PM2.5),55,51,98,39,58,85,,77,75,9,17,5,8,0.6,0.6
2024-03-23T2200,2401A,114.0138,33.5828,漯河市,市水利局,细颗粒物(PM2.5),52,39,95,36,62,87,,76,76,13,21,5,8,0.6,0.7
2024-03-23T2200,2402A,114.0261,33.5698,漯河市,市广电局,细颗粒物(PM2.5),54,42,87,38,54,86,,78,76,8,15,2,5,0.6,0.7
2024-03-23T2200,3478A,113.9749,33.5664,漯河市,市图书馆,,39,34,92,27,54,85,,78,76,14,19,10,12,0.5,0.6
2024-03-23T2200,3479A,114.0967,33.5906,漯河市,召陵区卫健委,,,,116,,69,84,,65,,,26,,7,,0.8
2024-03-23T2200,1798A,118.5092,31.6837,马鞍山市,湖东路四小,颗粒物(PM10),106,161,110,71,62,13,,54,46,72,60,12,9,2.3,1.2
2024-03-23T2200,1799A,118.5024,31.6449,马鞍山市,开发区,颗粒物(PM10),91,132,116,54,63,17,,49,44,72,78,9,8,2.0,1.1
2024-03-23T2200,1800A,118.5228,31.7231,马鞍山市,慈湖,颗粒物(PM10),97,143,102,57,59,14,,63,45,68,64,10,11,1.6,1.1
2024-03-23T2200,3633A,118.4918,31.6809,马鞍山市,雨山,颗粒物(PM10),66,81,79,46,53,11,,57,47,73,57,11,7,2.5,1.3
2024-03-23T2200,1686A,111.0286,21.4688,茂名市,电白南海,,34,34,40,17,15,48,,63,55,7,8,6,6,0.5,0.6
2024-03-23T2200,1687A,110.9294,21.6533,茂名市,茂石化七小,,36,36,41,17,20,52,,71,58,9,10,6,7,0.5,0.6
2024-03-23T2200,1688A,110.9107,21.6687,茂名市,健康路,,32,31,34,22,17,50,,67,55,7,9,5,5,0.3,0.4
2024-03-23T2200,1689A,110.8592,21.6828,茂名市,高岭,,39,39,42,19,21,49,,65,54,5,6,6,7,0.6,0.6
2024-03-23T2200,3450A,111.01,21.5165,茂名市,电白水东,,29,29,32,17,13,42,,64,51,10,7,5,5,0.4,0.4
2024-03-23T2200,2539A,104.0308,30.0478,眉山市,黑龙滩水库,颗粒物(PM10),64,78,77,44,41,131,,198,186,6,12,6,6,0.5,0.6
2024-03-23T2200,2540A,103.8416,30.0874,眉山市,气象局,颗粒物(PM10),70,90,106,41,64,93,,199,178,38,50,11,11,0.7,0.7
2024-03-23T2200,3137A,103.8578,30.0744,眉山市,市委党校,颗粒物(PM10),82,114,116,56,65,91,,194,176,47,55,11,11,0.7,0.8
2024-03-23T2200,3148A,103.8291,30.0564,眉山市,区人社局,颗粒物(PM10),72,93,96,48,68,102,,194,179,41,54,13,14,0.6,0.7
2024-03-23T2200,1690A,116.1231,24.3284,梅州市,梅江月梅,细颗粒物(PM2.5),57,46,49,40,33,83,,86,85,13,26,10,12,0.6,0.6
2024-03-23T2200,1691A,116.0797,24.2719,梅州市,梅县新城,颗粒物(PM10),51,51,55,33,34,57,,82,78,24,26,6,6,0.7,0.7
2024-03-23T2200,1692A,116.1248,24.2654,梅州市,环境监控中心,颗粒物(PM10),55,59,55,36,32,39,,87,81,42,32,6,6,0.8,0.6
2024-03-23T2200,3315A,116.1233,24.2991,梅州市,梅龙,颗粒物(PM10),54,58,50,36,34,68,,86,81,22,28,10,9,0.9,0.7
2024-03-23T2200,1878A,104.7778,31.4741,绵阳市,富乐山,细颗粒物(PM2.5),59,55,73,42,46,93,,123,114,13,28,8,8,0.7,0.8
2024-03-23T2200,1879A,104.7563,31.4535,绵阳市,市人大,颗粒物(PM10),59,67,99,40,49,67,,99,89,42,58,7,7,0.6,0.8
2024-03-23T2200,1880A,104.6697,31.4668,绵阳市,高新区自来水公司,颗粒物(PM10),59,67,111,37,52,89,,120,113,25,54,8,9,0.7,0.8
2024-03-23T2200,1881A,104.7287,31.5075,绵阳市,三水厂,"颗粒物(PM10),细颗粒物(PM2.5)",54,57,100,38,54,92,,115,110,19,52,4,5,0.7,0.9
2024-03-23T2200,3491A,104.69,31.5322,绵阳市,西科大附属小学,颗粒物(PM10),62,74,87,41,46,88,,115,107,24,47,7,8,0.6,0.8
2024-03-23T2200,3492A,104.5648,31.5343,绵阳市,安州区旅游局,细颗粒物(PM2.5),75,82,94,55,51,75,,119,105,19,27,8,8,0.6,0.6
2024-03-23T2200,1784A,129.61,44.561,牡丹江市,环保大楼,,48,41,25,33,21,63,,81,62,22,14,7,7,0.6,0.4
2024-03-23T2200,1785A,129.6115,44.5782,牡丹江市,文化广场,,50,41,26,35,29,60,,75,55,17,13,10,11,0.7,0.6
2024-03-23T2200,1786A,129.5904,44.5963,牡丹江市,第一医院,细颗粒物(PM2.5),77,,27,56,30,57,,75,52,20,14,8,9,0.7,0.6
2024-03-23T2200,1787A,129.6364,44.6075,牡丹江市,机车工厂,颗粒物(PM10),53,56,31,31,19,63,,70,53,16,15,9,9,0.5,0.4
2024-03-23T2200,1788A,129.6386,44.5462,牡丹江市,第一中学,,38,31,22,26,18,70,,74,62,13,13,8,8,0.7,0.5
2024-03-23T2200,2531A,105.0703,29.61,内江市,市监测站,细颗粒物(PM2.5),80,98,82,59,62,116,,187,165,33,42,13,13,0.6,0.7
2024-03-23T2200,2532A,105.0717,29.5947,内江市,东兴区政府,颗粒物(PM10),71,92,93,49,54,136,,189,176,18,45,15,14,0.6,0.9
2024-03-23T2200,2533A,105.0653,29.5817,内江市,内江二中,细颗粒物(PM2.5),70,76,89,51,62,135,,193,179,20,46,12,10,0.9,1
2024-03-23T2200,2534A,105.0406,29.5822,内江市,内江日报社,细颗粒物(PM2.5),72,81,85,52,56,133,,190,171,24,54,16,16,0.8,1
2024-03-23T2200,2628A,92.0657,31.4846,那曲市,那曲监测站,,27,27,29,13,14,85,,97,94,4,7,6,6,0.6,0.7
2024-03-23T2200,3128A,92.0506,31.4797,那曲市,那曲会议中心,,30,30,32,13,11,90,,97,88,5,8,8,8,0.4,0.5
2024-03-23T2200,1290A,115.8931,28.6843,南昌市,省外办,,50,50,47,29,26,34,,70,63,16,23,8,7,0.4,0.6
2024-03-23T2200,1291A,115.8886,28.7003,南昌市,省林业公司,,48,48,41,24,21,36,,72,65,29,28,10,7,0.7,0.6
2024-03-23T2200,1292A,115.8126,28.7442,南昌市,林科所,颗粒物(PM10),54,58,44,27,22,4,,84,71,66,47,9,9,0.4,0.4
2024-03-23T2200,1294A,115.8518,28.687,南昌市,建工学校,,47,47,45,23,24,37,,70,64,26,22,5,7,0.6,0.6
2024-03-23T2200,1295A,115.8921,28.6424,南昌市,象湖,,50,50,41,22,18,34,,72,65,26,19,6,7,0.6,0.6
2024-03-23T2200,1296A,115.7423,28.7996,南昌市,武术学校,,40,,18,28,20,10,,76,54,1,4,15,13,0.4,0.4
2024-03-23T2200,1298A,115.9314,28.6842,南昌市,省站,颗粒物(PM10),53,56,49,25,23,46,,72,66,16,14,9,9,0.9,0.8
2024-03-23T2200,3046A,115.9084,28.6062,南昌市,机电学校,,45,45,42,19,20,37,,73,65,21,18,8,9,0.6,0.6
2024-03-23T2200,3690A,115.9721,28.7031,南昌市,外国语学校,,45,37,35,31,25,54,,70,66,9,11,4,6,0.4,0.5
2024-03-23T2200,1905A,106.056,30.8064,南充市,西山风景区,细颗粒物(PM2.5),53,43,70,37,48,95,,121,112,8,15,3,11,0.5,0.6
2024-03-23T2200,1906A,106.0789,30.8023,南充市,南充市委,颗粒物(PM10),56,62,94,31,39,62,,114,96,30,36,7,9,0.7,0.7
2024-03-23T2200,1907A,106.1031,30.8217,南充市,南充炼油厂,"颗粒物(PM10),细颗粒物(PM2.5)",70,89,110,51,60,80,,118,106,23,44,7,9,1.5,0.8
2024-03-23T2200,1908A,106.1064,30.7856,南充市,高坪区监测站,"颗粒物(PM10),细颗粒物(PM2.5)",60,69,103,43,55,67,,122,105,28,48,8,9,0.2,0.4
2024-03-23T2200,1909A,106.0642,30.7636,南充市,嘉陵区环保局,颗粒物(PM10),57,63,95,39,52,78,,119,103,20,46,5,9,0.5,0.6
2024-03-23T2200,1910A,106.1087,30.8388,南充市,市环境监测站,颗粒物(PM10),62,74,104,42,55,93,,122,111,13,40,6,10,0.6,0.5
2024-03-23T2200,1151A,118.8086,32.1065,南京市,迈皋桥,细颗粒物(PM2.5),64,68,107,46,60,48,,26,26,30,89,4,7,0.4,0.8
2024-03-23T2200,1152A,118.7538,32.0551,南京市,草场门,细颗粒物(PM2.5),52,46,88,36,56,46,,43,26,33,78,2,3,0.6,0.9
2024-03-23T2200,1153A,118.7794,32.0745,南京市,山西路,细颗粒物(PM2.5),79,63,98,58,68,48,,44,26,38,74,4,4,0.5,0.8
2024-03-23T2200,1154A,118.7752,32.0023,南京市,中华门,细颗粒物(PM2.5),73,75,97,53,58,32,,37,34,51,82,6,6,0.9,1.1
2024-03-23T2200,1155A,118.8109,32.0309,南京市,瑞金路,"颗粒物(PM10),细颗粒物(PM2.5)",64,78,99,46,56,28,,32,28,36,68,12,11,0.5,0.8
2024-03-23T2200,1156A,118.7997,32.0754,南京市,玄武湖,细颗粒物(PM2.5),79,86,106,58,62,50,,24,24,38,88,8,10,0.7,0.9
2024-03-23T2200,1157A,118.6414,32.0931,南京市,浦口,颗粒物(PM10),52,54,90,31,48,58,,31,,20,68,6,7,0.7,1
2024-03-23T2200,1158A,118.7356,31.9996,南京市,奥体中心,细颗粒物(PM2.5),73,78,106,53,57,34,,38,38,41,77,8,10,0.7,0.9
2024-03-23T2200,1159A,118.9125,32.1028,南京市,仙林大学城,细颗粒物(PM2.5),64,66,99,46,59,48,,33,28,36,76,8,10,0.8,1
2024-03-23T2200,3422A,118.8436,31.9198,南京市,江宁彩虹桥,细颗粒物(PM2.5),73,67,90,53,57,38,,61,48,40,63,4,6,0.7,0.8
2024-03-23T2200,3423A,119.0138,31.6494,南京市,溧水永阳,颗粒物(PM10),86,122,99,56,48,15,,47,42,89,67,4,5,1.3,1
2024-03-23T2200,3424A,118.879,31.3302,南京市,高淳老职中,细颗粒物(PM2.5),85,87,78,63,52,11,,60,57,96,47,9,9,1.4,1.1
2024-03-23T2200,3427A,118.8554,32.3578,南京市,六合雄州,细颗粒物(PM2.5),65,48,80,47,72,81,,68,68,16,47,4,9,0.6,0.9
2024-03-23T2200,1401A,108.3103,22.7881,南宁市,二十一中,,35,29,43,24,24,43,,74,61,18,14,4,4,0.8,0.9
2024-03-23T2200,1402A,108.3141,22.8528,南宁市,北湖,,45,45,44,20,24,38,,68,58,16,15,4,5,0.6,0.7
2024-03-23T2200,1403A,108.3206,22.8225,南宁市,市监测站,,26,20,45,18,21,42,,68,59,15,15,6,6,0.7,0.8
2024-03-23T2200,1404A,108.3829,22.8037,南宁市,大自然花园,,30,30,38,17,21,52,,70,62,11,10,6,6,0.7,0.8
2024-03-23T2200,1405A,108.4394,22.7904,南宁市,仙葫,,36,36,41,15,21,59,,74,67,13,12,7,7,0.3,0.4
2024-03-23T2200,1406A,108.2397,22.8467,南宁市,区农职院,,43,43,45,21,23,34,,68,56,26,24,6,6,0.6,0.8
2024-03-23T2200,1407A,108.3275,22.735,南宁市,英华嘉园,,36,36,47,23,23,32,,58,49,30,25,6,7,0.6,0.7
2024-03-23T2200,1408A,108.2257,22.7757,南宁市,沙井镇街道办,,,43,49,22,19,,,66,57,23,27,4,5,0.4,0.5
2024-03-23T2200,3401A,108.4834,22.7618,南宁市,红星社区,,44,44,41,16,24,52,,73,66,17,12,8,7,1.0,0.9
2024-03-23T2200,2332A,118.1681,26.6369,南平市,南平市监测站,细颗粒物(PM2.5),88,94,71,65,52,2,,91,55,51,29,4,5,1.9,1
2024-03-23T2200,2333A,118.1825,26.6489,南平市,南平铝业有限公司,细颗粒物(PM2.5),104,91,71,78,56,7,,85,49,54,32,6,8,2.0,1.1
2024-03-23T2200,2334A,118.1756,26.6272,南平市,南平七中,细颗粒物(PM2.5),82,63,65,60,61,18,,92,60,32,27,4,5,0.9,0.8
2024-03-23T2200,1168A,120.9098,31.9663,南通市,狼山街道,,43,43,77,25,39,40,,91,65,32,59,10,11,0.7,0.6
2024-03-23T2200,1169A,120.86,32.0005,南通市,虹桥,颗粒物(PM10),51,51,88,35,45,38,,73,55,27,56,5,7,0.8,0.8
2024-03-23T2200,1170A,120.87,32.02,南通市,城中,颗粒物(PM10),55,60,103,37,46,38,,73,55,28,59,5,7,0.6,0.8
2024-03-23T2200,1171A,120.94,31.93,南通市,星湖花园,,42,42,80,28,37,32,,88,64,35,58,9,10,0.8,0.8
2024-03-23T2200,1172A,120.81,32.0417,南通市,紫琅学院,,41,41,85,23,38,46,,76,59,26,55,7,10,0.7,0.9
2024-03-23T2200,3291A,121.067,32.062,南通市,通州监测站,细颗粒物(PM2.5),58,58,83,41,44,38,,75,46,19,37,8,9,1.2,0.7
2024-03-23T2200,3432A,120.9348,31.9883,南通市,环境教育馆,,50,39,83,35,45,37,,79,55,29,59,8,10,0.6,0.6
2024-03-23T2200,2404A,112.5224,33.0122,南阳市,瓦房庄,细颗粒物(PM2.5),58,,55,41,41,76,,93,72,16,18,4,5,0.7,0.7
2024-03-23T2200,2405A,112.5003,32.9735,南阳市,汉画馆,,45,36,58,31,35,78,,96,73,16,18,5,6,0.8,0.9
2024-03-23T2200,2406A,112.5573,33.027,南阳市,气象站,细颗粒物(PM2.5),52,,52,36,45,74,,89,72,19,19,4,5,0.6,0.6
2024-03-23T2200,2407A,112.5481,32.9689,南阳市,理工学院,,40,37,54,28,33,75,,94,74,21,19,3,3,0.7,0.7
2024-03-23T2200,4008A,112.5234,32.9922,南阳市,卧龙区政府,细颗粒物(PM2.5),59,,48,42,41,73,,91,67,16,19,4,5,0.8,0.9
2024-03-23T2200,1234A,121.8358,29.911,宁波市,区环保大楼,颗粒物(PM10),79,107,101,34,36,0,,40,18,90,110,9,15,0.9,0.9
2024-03-23T2200,1235A,121.56,29.82,宁波市,万里学院,颗粒物(PM10),66,82,76,36,35,62,,117,104,34,34,9,11,0.8,0.7
2024-03-23T2200,1236A,121.713,29.9572,宁波市,龙赛医院,颗粒物(PM10),67,83,92,32,33,16,,84,65,91,88,11,12,0.8,0.7
2024-03-23T2200,1239A,121.633,29.7733,宁波市,钱湖水厂,颗粒物(PM10),59,68,62,38,34,71,,129,117,15,16,7,8,0.8,0.8
2024-03-23T2200,1240A,121.5856,29.8635,宁波市,太古小学,颗粒物(PM10),79,107,68,35,33,70,,120,109,25,30,8,10,0.9,0.8
2024-03-23T2200,1241A,121.524,29.8674,宁波市,市环境监测中心,颗粒物(PM10),58,65,61,30,32,60,,110,95,42,38,7,9,0.9,0.8
2024-03-23T2200,2871A,121.6147,29.9017,宁波市,万里国际学校,,,94,69,31,32,88,,133,122,22,35,,10,0.6,0.7
2024-03-23T2200,3710A,121.5594,29.8975,宁波市,白沙活动中心,颗粒物(PM10),68,86,75,32,31,61,,116,103,38,40,8,10,0.6,0.6
2024-03-23T2200,2341A,119.5388,26.6612,宁德市,宁德市监测站,细颗粒物(PM2.5),109,,59,82,42,2,,75,50,68,38,7,9,1.4,0.9
2024-03-23T2200,3209A,119.5231,26.6562,宁德市,宁德一中,,,,51,,28,20,,69,52,26,26,7,8,,0.8
2024-03-23T2200,2618A,98.8601,25.8567,怒江傈僳族自治州,州监测站,,44,44,22,23,15,56,,100,90,23,12,6,6,0.6,0.4
2024-03-23T2200,2619A,98.8546,25.8417,怒江傈僳族自治州,泸水一中,,29,26,22,20,16,41,,84,68,28,20,6,6,0.6,0.4
2024-03-23T2200,1888A,101.6891,26.571,攀枝花市,弄弄坪,,32,28,27,12,13,100,,120,113,9,19,9,15,0.3,0.6
2024-03-23T2200,1889A,101.5769,26.5928,攀枝花市,河门口,,34,19,23,9,10,106,,124,118,8,19,6,10,0.5,0.8
2024-03-23T2200,1890A,101.7169,26.585,攀枝花市,炳草岗,,31,31,25,11,10,99,,128,120,11,20,12,15,0.5,0.5
2024-03-23T2200,1891A,101.7369,26.5008,攀枝花市,仁和,,34,23,20,11,11,108,,124,120,8,11,6,7,0.7,0.8
2024-03-23T2200,2835A,101.7227,26.567,攀枝花市,四十中小,,36,20,21,12,11,114,,131,125,7,15,8,11,0.5,0.6
2024-03-23T2200,1604A,122.0303,41.1489,盘锦市,开发区,,43,,51,30,50,74,,95,88,24,49,4,5,0.6,0.8
2024-03-23T2200,1605A,122.0485,41.0883,盘锦市,兴隆台,,39,,48,27,47,74,,93,86,22,46,5,6,0.8,1.1
2024-03-23T2200,1606A,121.8297,41.1028,盘锦市,新生街道,,26,,32,18,32,65,,97,89,33,44,7,8,0.6,0.7
2024-03-23T2200,1832A,113.3257,33.742,平顶山市,新华旅馆,细颗粒物(PM2.5),62,55,118,44,67,87,,82,73,16,26,6,8,0.7,0.8
2024-03-23T2200,1833A,113.2919,33.737,平顶山市,规划设计院,细颗粒物(PM2.5),58,53,111,41,69,76,,80,66,15,24,4,6,0.9,1
2024-03-23T2200,1834A,113.182,33.774,平顶山市,平顶山工学院,细颗粒物(PM2.5),58,56,130,41,69,75,,78,72,15,22,3,5,0.6,0.7
2024-03-23T2200,3204A,113.3025,33.73,平顶山市,规划局,,50,39,112,35,71,83,,81,71,14,22,6,8,0.3,0.5
2024-03-23T2200,3594A,112.8867,33.9116,平顶山市,石龙区,细颗粒物(PM2.5),87,,104,64,71,67,,84,64,17,26,6,8,0.7,0.7
2024-03-23T2200,2656A,106.6692,35.5461,平凉市,聚贤嘉苑,颗粒物(PM10),75,100,163,36,41,83,,92,92,19,37,8,11,0.5,0.6
2024-03-23T2200,2657A,106.7021,35.5307,平凉市,博物馆,颗粒物(PM10),75,100,167,44,47,87,,95,95,25,45,6,11,0.4,0.7
2024-03-23T2200,2347A,114.0997,27.5002,萍乡市,武功山,,24,24,20,9,7,72,,84,77,6,6,11,10,0.5,0.5
2024-03-23T2200,2348A,113.8385,27.6434,萍乡市,中医院,,26,26,38,12,25,66,,84,80,11,22,3,7,0.7,0.8
2024-03-23T2200,2349A,113.8493,27.6253,萍乡市,市政府车库,,23,13,37,7,30,73,,83,81,10,24,3,11,0.7,1.1
2024-03-23T2200,2350A,113.8676,27.6435,萍乡市,市环保局,,21,14,43,12,27,65,,79,76,10,23,6,16,0.6,0.7
2024-03-23T2200,2351A,113.866,27.6198,萍乡市,安源区政府,,24,20,43,8,20,74,,83,81,11,25,6,12,0.5,0.9
2024-03-23T2200,2319A,119.0141,25.4325,莆田市,荔城区仓后路,,37,37,62,25,36,36,,87,74,27,23,5,6,0.9,0.9
2024-03-23T2200,2320A,119.0015,25.4553,莆田市,莆田市监测站,,31,31,51,18,29,43,,86,72,8,14,6,6,0.6,0.7
2024-03-23T2200,2321A,119.1119,25.4561,莆田市,涵江区六中,,33,33,68,16,37,45,,92,72,23,39,7,7,0.7,0.9
2024-03-23T2200,2322A,119.1013,25.3215,莆田市,秀屿区政府,,50,50,74,32,44,31,,92,69,34,33,11,10,0.8,0.9
2024-03-23T2200,2392A,115.0312,35.7636,濮阳市,环保局,细颗粒物(PM2.5),132,141,127,100,79,8,,64,35,77,54,12,16,1.2,0.9
2024-03-23T2200,2394A,115.0574,35.7609,濮阳市,油田运输公司,细颗粒物(PM2.5),128,179,151,97,77,6,,64,34,80,56,14,18,1.0,0.7
2024-03-23T2200,2395A,115.0866,35.7754,濮阳市,油田物探公司,细颗粒物(PM2.5),129,187,161,98,87,5,,55,31,75,56,9,14,1.0,0.7
2024-03-23T2200,3021A,115,35.7668,濮阳市,濮水河管理处,细颗粒物(PM2.5),113,114,130,85,79,14,,62,20,59,55,9,15,0.7,0.6
2024-03-23T2200,2601A,100.98,22.7633,普洱市,市环保局,细颗粒物(PM2.5),59,57,37,42,28,72,,123,110,17,12,10,9,0.3,0.3
2024-03-23T2200,2602A,100.9817,22.8322,普洱市,普洱第二中学,细颗粒物(PM2.5),60,52,34,43,19,62,,128,113,33,22,8,9,0.6,0.4
2024-03-23T2200,2262A,131.0518,45.8751,七台河市,新一中,,23,17,17,16,14,71,,90,80,20,9,13,9,0.9,0.7
2024-03-23T2200,3345A,131.0577,45.7879,七台河市,中波台,,25,13,17,10,11,80,,84,75,17,15,6,7,0.6,0.5
2024-03-23T2200,3637A,131.0176,45.7761,七台河市,人民广场,,28,,21,19,16,82,,91,80,15,12,6,7,0.8,0.6
2024-03-23T2200,3684A,130.8781,45.8222,七台河市,新建矿广场,,35,,16,24,23,79,,92,78,15,20,7,11,0.7,0.6
2024-03-23T2200,1779A,123.9305,47.3636,齐齐哈尔市,安居小区,,26,21,69,4,54,81,,92,89,6,17,5,8,0.2,0.5
2024-03-23T2200,1780A,123.9488,47.3386,齐齐哈尔市,中心广场,,27,27,81,13,51,75,,82,80,6,16,4,5,0.2,0.5
2024-03-23T2200,1781A,123.9483,47.3227,齐齐哈尔市,农牧车辆厂,,24,22,70,9,44,75,,84,82,4,15,6,7,0.3,0.5
2024-03-23T2200,1783A,123.945,47.2988,齐齐哈尔市,市环境监测站,,32,32,79,10,50,78,,86,84,5,15,2,3,0.2,0.4
2024-03-23T2200,3662A,123.6333,47.2075,齐齐哈尔市,富区青少年活动中心,,,28,72,6,41,80,,82,81,,10,4,9,0.3,0.7
2024-03-23T2200,2591A,107.9783,26.5747,黔东南苗族侗族自治州,市环境监测站,,44,44,33,24,21,98,,102,102,4,6,2,2,0.6,0.6
2024-03-23T2200,2881A,107.8908,26.5311,黔东南苗族侗族自治州,凯里学院,,31,28,27,21,20,97,,108,107,3,3,3,3,0.4,0.5
2024-03-23T2200,2593A,107.5228,26.2403,黔南布依族苗族自治州,小围寨,,34,34,23,22,13,86,,100,98,6,5,6,5,0.4,0.4
2024-03-23T2200,3538A,107.5175,26.2978,黔南布依族苗族自治州,沙坝,,32,29,23,22,13,92,,109,106,3,2,4,4,0.3,0.3
2024-03-23T2200,2589A,104.9022,25.0925,黔西南布依族苗族自治州,场坝街,,45,45,23,21,12,121,,135,131,9,7,2,2,0.2,0.1
2024-03-23T2200,2590A,104.8811,25.0992,黔西南布依族苗族自治州,坪东大道,,,,18,,13,123,,135,132,7,6,2,2,,0.3
2024-03-23T2200,2502A,108.6236,21.9667,钦州市,市环保站,颗粒物(PM10),67,83,56,29,22,13,,58,46,54,31,12,10,0.9,0.8
2024-03-23T2200,2503A,108.6549,21.9481,钦州市,沙埠小学,颗粒物(PM10),63,75,49,29,25,14,,66,54,55,26,10,8,0.8,0.7
2024-03-23T2200,2504A,108.5989,21.7431,钦州市,港区一小,颗粒物(PM10),72,93,84,26,32,24,,53,50,47,38,9,8,0.8,1
2024-03-23T2200,3404A,108.5959,21.9633,钦州市,北职校,颗粒物(PM10),63,75,57,38,26,4,,59,51,63,26,11,10,0.9,0.8
2024-03-23T2200,1042A,119.5134,39.8207,秦皇岛市,北戴河环保局,,31,31,50,21,25,84,,93,93,15,27,6,6,0.5,0.4
2024-03-23T2200,1043A,119.7493,40.0116,秦皇岛市,第一关,细颗粒物(PM2.5),108,112,77,81,59,3,,80,55,80,50,7,6,0.9,0.5
2024-03-23T2200,1044A,119.5897,39.9499,秦皇岛市,监测站,细颗粒物(PM2.5),88,108,93,65,53,22,,82,63,80,47,5,5,0.8,0.5
2024-03-23T2200,1046A,119.5251,39.9041,秦皇岛市,建设大厦,细颗粒物(PM2.5),83,94,71,61,51,11,,84,69,85,41,3,2,0.8,0.5
2024-03-23T2200,3132A,119.610547,39.943889,秦皇岛市,文明里,颗粒物(PM10),71,91,74,51,43,33,,81,65,60,42,4,4,0.8,0.6
2024-03-23T2200,1307A,120.6659,36.2403,青岛市,仰口,,49,44,64,34,38,113,,117,117,13,15,3,3,0.4,0.4
2024-03-23T2200,1310A,120.4134,36.0658,青岛市,市南区东部子站,,41,41,78,9,32,107,,122,121,8,25,7,8,0.4,0.6
2024-03-23T2200,1311A,120.3664,36.1032,青岛市,四方区子站,颗粒物(PM10),74,97,80,39,34,40,,117,108,79,43,4,5,0.9,0.8
2024-03-23T2200,1312A,120.2994,36.054,青岛市,市南区西部子站,颗粒物(PM10),59,68,79,24,37,118,,126,126,15,39,6,7,0.7,0.9
2024-03-23T2200,1313A,120.4581,36.0858,青岛市,崂山区子站,,46,46,83,9,31,113,,130,130,6,22,6,7,0.4,0.6
2024-03-23T2200,1314A,120.1983,35.9608,青岛市,黄岛区子站,,41,41,78,20,39,120,,119,119,18,42,5,8,0.6,0.8
2024-03-23T2200,1315A,120.3999,36.3083,青岛市,城阳区子站,,39,39,87,15,40,103,,104,102,17,48,6,9,0.6,1
2024-03-23T2200,1966A,120.0405,35.8735,青岛市,黄岛区4号,,41,31,61,22,29,129,,125,125,18,28,6,8,0.6,0.6
2024-03-23T2200,3362A,120.5014,36.4034,青岛市,即墨2号,细颗粒物(PM2.5),54,54,94,38,49,121,,142,140,16,20,4,6,0.6,0.6
2024-03-23T2200,3642A,120.3503,36.0736,青岛市,市北区南部,颗粒物(PM10),57,63,85,14,32,113,,131,130,15,39,5,9,0.5,0.8
2024-03-23T2200,3643A,120.3948,36.1805,青岛市,李沧区北部,颗粒物(PM10),86,122,97,51,38,16,,99,72,111,57,8,9,0.8,0.8
2024-03-23T2200,1702A,113.0426,23.691,清远市,环保大楼,颗粒物(PM10),56,62,73,25,32,1,,5,3,55,49,5,4,2.1,1.3
2024-03-23T2200,1703A,113.0208,23.7106,清远市,凤城街办,,,96,85,51,43,1,,2,,60,59,,4,1.7,1.2
2024-03-23T2200,3025A,113.0477,23.6344,清远市,技师学院,颗粒物(PM10),55,59,89,25,40,15,,8,8,40,52,3,4,1.1,1.2
2024-03-23T2200,3318A,112.9903,23.7403,清远市,清新太和,颗粒物(PM10),53,56,57,26,27,22,,23,23,36,39,9,8,0.7,0.7
2024-03-23T2200,3455A,113.076,23.7198,清远市,清城东城,颗粒物(PM10),60,69,61,32,33,4,,8,4,57,48,4,4,1.1,1
2024-03-23T2200,2661A,107.6325,35.7357,庆阳市,庆阳五中,颗粒物(PM10),74,97,150,44,59,71,,108,81,18,17,8,10,0.5,0.6
2024-03-23T2200,2662A,107.6364,35.7067,庆阳市,市环保局,颗粒物(PM10),77,104,143,42,59,79,,115,87,16,15,7,8,0.5,0.6
2024-03-23T2200,1916A,103.7897,25.5035,曲靖市,环境监测站,,35,33,29,14,13,112,,146,138,9,8,6,7,0.4,0.6
2024-03-23T2200,1917A,103.8,25.5364,曲靖市,烟厂办公区,,37,27,28,10,12,117,,145,138,6,8,4,4,0.3,0.4
2024-03-23T2200,3376A,103.7947,25.462,曲靖市,南苑二区,,33,30,24,13,12,105,,130,124,9,9,5,5,0.4,0.4
2024-03-23T2200,3377A,103.7444,25.5261,曲靖市,曲靖师范学院,,35,35,27,15,14,108,,136,130,8,9,3,5,0.3,0.3
2024-03-23T2200,1264A,118.8692,28.9398,衢州市,环保大楼,,48,48,61,31,34,29,,79,47,30,40,6,9,0.5,0.5
2024-03-23T2200,1265A,118.8709,28.9666,衢州市,实验学校,,39,39,59,22,31,28,,76,44,31,36,8,10,0.4,0.5
2024-03-23T2200,1266A,118.8621,28.9808,衢州市,衢州学院,,49,49,55,31,32,12,,78,42,41,41,8,12,0.4,0.5
2024-03-23T2200,1611A,118.5819,24.9117,泉州市,涂山街,,44,44,102,21,57,36,,68,59,33,44,4,5,0.7,1
2024-03-23T2200,1612A,118.5972,24.8978,泉州市,津头埔,,44,44,98,20,56,31,,62,52,38,49,5,6,0.7,1.2
2024-03-23T2200,1613A,118.6663,24.9424,泉州市,万安,,40,40,81,18,42,38,,72,60,30,43,4,4,0.7,0.8
2024-03-23T2200,3529A,118.6333,24.9264,泉州市,城华南路,,39,39,87,18,44,43,,70,56,27,49,4,7,0.4,0.6
2024-03-23T2200,2626A,88.8876,29.2718,日喀则市,日喀则监测站,颗粒物(PM10),73,96,17,18,5,90,,104,100,6,7,4,4,0.4,0.4
2024-03-23T2200,3726A,88.8781,29.2426,日喀则市,林业技术推广中心,颗粒物(PM10),98,145,17,15,4,88,,104,102,13,6,8,8,0.6,0.5
2024-03-23T2200,1659A,119.471,35.4209,日照市,监测站,颗粒物(PM10),51,51,80,33,38,138,,124,123,20,45,8,9,0.6,0.7
2024-03-23T2200,1660A,119.523,35.4216,日照市,市政府广场,,46,46,75,28,34,135,,124,124,27,37,6,8,0.8,0.8
2024-03-23T2200,1661A,119.5587,35.4044,日照市,港务局,,48,48,91,27,41,146,,136,136,18,31,5,6,0.5,0.6
2024-03-23T2200,3507A,119.5328,35.4625,日照市,职业技术学院,颗粒物(PM10),52,53,70,27,31,116,,111,108,20,24,6,8,0.7,0.7
2024-03-23T2200,3604A,119.3266,35.1044,日照市,岚山环保分局,,48,48,87,29,37,142,,135,127,8,16,5,7,0.6,0.7
2024-03-23T2200,1835A,111.1922,34.7752,三门峡市,市政府,细颗粒物(PM2.5),75,,107,55,66,82,,106,78,14,21,6,8,0.9,0.9
2024-03-23T2200,1836A,111.1587,34.7942,三门峡市,开发区,细颗粒物(PM2.5),90,78,150,67,74,78,,104,76,22,25,4,7,0.7,0.7
2024-03-23T2200,3039A,111.1911,34.7829,三门峡市,三门峡市第一小学,细颗粒物(PM2.5),69,58,109,50,63,83,,111,82,16,20,4,7,0.7,0.7
2024-03-23T2200,3598A,111.1,34.7167,三门峡市,富达温泉假日酒店,细颗粒物(PM2.5),78,58,124,57,69,56,,98,76,32,21,6,10,0.8,0.8
2024-03-23T2200,2324A,117.6211,26.2625,三明市,三钢,颗粒物(PM10),64,77,54,42,38,5,,81,52,54,33,6,12,1.2,1.6
2024-03-23T2200,2325A,117.635,26.2714,三明市,三明二中,细颗粒物(PM2.5),67,61,50,48,38,6,,77,40,52,36,5,7,1.5,1.5
