timepoint,stationcode,longitude,latitude,area,positionname,primarypollutant,aqi,pm10,pm10_24h,pm2_5,pm2_5_24h,o3,o3_24h,o3_8h,o3_8h_24h,no2,no2_24h,so2,so2_24h,co,co_24h
2024-05-10T0000,2566A,102.1879,31.914,阿坝藏族羌族自治州,州农科所,,25,25,18,12,9,60,,138,95,5,10,3,4,0.0,0.1
2024-05-10T0000,2568A,102.2502,31.8896,阿坝藏族羌族自治州,马师校,,28,,10,19,14,37,,110,72,18,10,3,4,0.3,0.3
2024-05-10T0000,3994A,102.2165,31.9024,阿坝藏族羌族自治州,马尔康中学西区,,22,20,18,15,13,50,,119,84,12,8,6,6,0.3,0.3
2024-05-10T0000,2695A,80.292,41.1694,阿克苏地区,电视台,颗粒物(PM10),82,114,79,37,24,66,,134,109,33,30,7,6,0.4,0.4
2024-05-10T0000,2696A,80.2613,41.1551,阿克苏地区,艺术中心,颗粒物(PM10),90,129,80,41,31,16,,135,98,87,47,4,5,0.9,0.6
2024-05-10T0000,2204A,105.6467,38.8363,阿拉善盟,西城区西花园,颗粒物(PM10),308,426,112,137,34,136,,147,140,7,8,9,10,0.6,0.5
2024-05-10T0000,2205A,105.6985,38.8411,阿拉善盟,蒙二幼,颗粒物(PM10),500,611,91,145,31,126,,138,134,5,7,9,10,0.5,0.5
2024-05-10T0000,2206A,105.724,38.8516,阿拉善盟,环保局新楼,颗粒物(PM10),265,395,86,128,29,131,,138,137,4,8,9,9,0.4,0.4
2024-05-10T0000,2708A,88.1264,47.8517,阿勒泰地区,市站,,31,20,20,3,5,99,,102,98,2,8,5,5,0.2,0.2
2024-05-10T0000,2630A,80.1161,32.5,阿里地区,阿里监测站,,28,12,12,7,8,88,,150,134,48,14,4,4,0.5,0.4
2024-05-10T0000,3192A,80.0903,32.5028,阿里地区,阿里藏医院,,40,18,12,7,7,127,,162,154,11,7,10,10,0.4,0.5
2024-05-10T0000,2642A,109.0318,32.6537,安康市,香溪洞,,,,22,,13,,,93,,,6,,8,,0.4
2024-05-10T0000,2643A,109.0281,32.6939,安康市,安康市监测站,,48,48,31,26,18,39,,97,66,16,10,10,10,0.5,0.4
2024-05-10T0000,2644A,109.0072,32.6975,安康市,汉滨区检察院,,32,32,29,12,14,31,,90,60,10,10,7,8,0.4,0.4
2024-05-10T0000,2291A,117.0809,30.5177,安庆市,环科院,细颗粒物(PM2.5),85,78,64,63,42,68,,168,120,43,32,9,12,0.9,0.7
2024-05-10T0000,2292A,117.0331,30.5119,安庆市,马山宾馆,细颗粒物(PM2.5),82,70,62,60,42,104,,164,130,34,34,9,11,0.7,0.7
2024-05-10T0000,2294A,116.9896,30.6145,安庆市,安庆大学,细颗粒物(PM2.5),60,57,58,43,35,82,,154,110,22,21,8,10,0.7,0.7
2024-05-10T0000,3173A,117.0598,30.5351,安庆市,市人大,细颗粒物(PM2.5),80,74,64,59,44,83,,173,134,37,26,7,9,0.8,0.7
2024-05-10T0000,3122A,105.9606,26.2611,安顺市,伍家关,,,,,,,,,,,,,,,,
2024-05-10T0000,3123A,105.9408,26.2431,安顺市,凤凰山,,24,10,18,6,16,74,,76,63,3,6,7,10,0.3,0.3
2024-05-10T0000,3124A,105.9439,26.2564,安顺市,金钟山,,23,10,15,7,15,71,,74,62,3,6,4,7,0.2,0.3
2024-05-10T0000,3125A,105.8983,26.2481,安顺市,娄家坡,,23,8,20,7,16,72,,75,62,2,5,6,8,0.5,0.5
2024-05-10T0000,1818A,114.4839,36.0621,安阳市,棉研所,,,,,,,,,,,,,,,,
2024-05-10T0000,1819A,114.3551,36.1017,安阳市,红庙街,颗粒物(PM10),68,86,112,18,23,107,,170,142,12,11,5,6,0.6,0.6
2024-05-10T0000,1820A,114.361,36.0681,安阳市,银杏小区,颗粒物(PM10),59,67,88,37,28,102,,167,138,9,7,9,9,0.9,0.9
2024-05-10T0000,3141A,114.3922,36.0878,安阳市,信访局,颗粒物(PM10),58,66,116,24,28,96,,163,138,13,10,2,4,0.5,0.5
2024-05-10T0000,3669A,114.4705,36.0637,安阳市,左辅环卫站,,49,49,69,25,25,106,,155,135,9,8,9,8,0.6,0.6
2024-05-10T0000,3703A,114.2917,36.0949,安阳市,安钢职工学校,颗粒物(PM10),66,82,147,28,29,110,,166,137,12,15,7,11,0.5,0.6
2024-05-10T0000,1748A,123.044,41.1196,鞍山市,深沟寺,颗粒物(PM10),81,112,130,36,38,152,,132,105,7,17,9,12,0.6,0.9
2024-05-10T0000,1749A,123.011,41.0931,鞍山市,太阳城,颗粒物(PM10),75,100,110,25,30,158,,135,104,10,21,9,12,0.7,1.1
2024-05-10T0000,1750A,123.0485,41.1442,鞍山市,太平,颗粒物(PM10),82,114,141,47,40,156,,124,103,10,27,7,12,0.5,0.9
2024-05-10T0000,1751A,122.9642,41.0971,鞍山市,铁西三道街,颗粒物(PM10),90,129,143,42,38,138,,127,102,24,29,11,12,1.1,1.1
2024-05-10T0000,1752A,122.9341,41.0833,鞍山市,铁西工业园区,颗粒物(PM10),94,138,122,40,43,141,,123,104,12,25,9,12,0.6,1.2
2024-05-10T0000,1753A,123.022,41.0821,鞍山市,明达新区,颗粒物(PM10),88,126,115,27,33,156,,128,107,10,21,11,14,0.7,0.9
2024-05-10T0000,1754A,123.1289,41.0228,鞍山市,千山,,,,,,,,,,,,,,,,
2024-05-10T0000,2195A,107.4212,40.761,巴彦淖尔市,附二中,颗粒物(PM10),90,129,122,40,43,104,,148,122,17,17,5,6,0.4,0.6
2024-05-10T0000,2196A,107.37,40.7372,巴彦淖尔市,市环保大楼,颗粒物(PM10),84,118,133,41,31,92,,143,120,20,13,5,7,0.4,0.5
2024-05-10T0000,1956A,86.1472,41.7538,巴音郭楞蒙古自治州,孔雀公园,颗粒物(PM10),262,393,125,106,31,83,,125,107,24,23,7,7,0.3,0.2
2024-05-10T0000,1957A,86.1972,41.7166,巴音郭楞蒙古自治州,棉纺厂,颗粒物(PM10),225,367,127,113,34,98,,118,109,4,7,3,3,0.2,0.2
2024-05-10T0000,1958A,86.2357,41.7173,巴音郭楞蒙古自治州,经济开发区,颗粒物(PM10),215,360,106,98,38,102,,128,120,4,4,7,7,0.1,0.2
2024-05-10T0000,2914A,106.7677,31.8794,巴中市,苏山坪,,32,31,32,22,22,77,,88,78,6,6,5,4,0.4,0.4
2024-05-10T0000,3182A,106.7656,31.8545,巴中市,丽阳花园,,40,40,54,28,25,37,,83,55,21,14,4,5,0.5,0.5
2024-05-10T0000,3183A,106.7418,31.8654,巴中市,圣泉水务公司,,33,31,31,23,25,39,,77,54,18,15,4,4,0.6,0.6
2024-05-10T0000,3616A,106.7616,31.8344,巴中市,市中心医院,,49,43,34,34,25,39,,86,56,17,11,5,5,0.6,0.5
2024-05-10T0000,2235A,122.7911,45.6077,白城市,洮北区环保局,,27,27,22,5,7,84,,98,87,6,5,3,2,0.3,0.3
2024-05-10T0000,2236A,122.8738,45.5725,白城市,市环保局,,33,33,34,8,9,86,,99,86,10,11,3,3,0.3,0.2
2024-05-10T0000,2231A,126.4219,41.9171,白山市,喜丰,颗粒物(PM10),66,81,82,26,20,46,,143,76,28,22,15,11,1.0,1
2024-05-10T0000,2232A,126.4077,41.9419,白山市,环保局,颗粒物(PM10),56,62,73,16,19,53,,131,85,20,18,8,10,0.7,0.7
2024-05-10T0000,2647A,104.1724,36.5446,白银市,第三小学,颗粒物(PM10),91,132,63,31,26,72,,143,117,43,16,65,54,0.6,0.7
2024-05-10T0000,2648A,104.1465,36.5482,白银市,动力公司,颗粒物(PM10),73,96,56,34,25,68,,144,116,47,18,23,49,0.5,0.6
2024-05-10T0000,2512A,106.6103,23.9011,百色市,市监测站,,22,22,22,12,11,31,,62,49,14,11,7,7,0.8,0.8
2024-05-10T0000,2513A,106.6538,23.8859,百色市,市中心血站,,22,22,23,13,14,31,,56,47,19,16,4,6,0.7,0.7
2024-05-10T0000,3406A,106.6085,23.8798,百色市,祈福高中,,19,19,22,9,11,45,,62,55,8,9,11,13,0.8,0.8
2024-05-10T0000,2270A,117.396,32.939,蚌埠市,工人疗养院,,47,47,42,20,18,118,,168,148,15,11,8,8,0.4,0.4
2024-05-10T0000,2271A,117.3605,32.9427,蚌埠市,百货大楼,,46,46,44,20,19,126,,171,153,18,15,5,5,0.5,0.5
2024-05-10T0000,2273A,117.4185,32.8911,蚌埠市,蚌埠学院,,44,44,43,27,24,102,,155,130,16,14,6,7,0.4,0.4
2024-05-10T0000,2274A,117.3533,32.9673,蚌埠市,淮上区政府,颗粒物(PM10),51,51,41,26,25,122,,164,147,15,11,7,7,0.4,0.4
2024-05-10T0000,2275A,117.3145,32.8977,蚌埠市,高新区,,46,46,42,24,24,120,,170,152,14,10,7,6,0.4,0.4
2024-05-10T0000,3715A,117.3092,32.9314,蚌埠市,蚌埠田家炳中学,,47,47,45,22,23,124,,171,152,11,9,7,7,0.4,0.4
2024-05-10T0000,1585A,109.8756,40.6532,包头市,市环境监测站,颗粒物(PM10),58,66,63,18,23,86,,137,112,26,23,27,14,1.0,0.5
2024-05-10T0000,1587A,109.9991,40.5842,包头市,包头八中,,50,50,74,24,26,107,,141,120,18,23,23,15,0.8,0.5
2024-05-10T0000,1588A,109.8538,40.6821,包头市,青山宾馆,颗粒物(PM10),58,66,55,26,22,74,,132,102,30,22,24,17,1.1,0.5
2024-05-10T0000,1589A,109.8642,40.6288,包头市,惠龙物流,细颗粒物(PM2.5),62,53,65,44,25,106,,139,123,20,23,17,13,0.5,0.4
2024-05-10T0000,1590A,110.0377,40.5546,包头市,东河鸿龙湾,,32,32,65,17,23,84,,141,116,23,22,34,17,0.8,0.6
2024-05-10T0000,3283A,109.9154,40.5685,包头市,滨河大厦,,30,28,59,7,16,96,,138,121,19,29,15,14,0.6,0.6
2024-05-10T0000,3419A,109.9447,40.6261,包头市,包头市委党校,颗粒物(PM10),71,92,89,23,19,97,,139,118,23,22,39,15,1.2,0.6
2024-05-10T0000,3683A,109.8331,40.6576,包头市,昆区政府,颗粒物(PM10),55,59,74,20,22,98,,136,113,19,23,20,16,0.8,0.6
2024-05-10T0000,1930A,107.185,34.3063,宝鸡市,庙沟村,,24,9,19,2,9,75,,93,83,7,7,8,8,0.5,0.5
2024-05-10T0000,1931A,107.0708,34.3017,宝鸡市,竹园沟,,21,21,20,6,10,45,,97,73,18,14,5,5,0.6,0.6
2024-05-10T0000,1932A,107.1906,34.3672,宝鸡市,三陆医院,,35,,32,24,18,35,,105,75,33,21,5,6,0.6,0.6
2024-05-10T0000,1933A,107.1431,34.3547,宝鸡市,监测站,,21,21,28,5,12,44,,99,76,34,20,8,8,0.5,0.5
2024-05-10T0000,1934A,107.1186,34.3739,宝鸡市,技工学校,,24,14,27,11,15,75,,104,89,18,15,6,6,0.4,0.5
2024-05-10T0000,1935A,107.3906,34.3528,宝鸡市,陈仓区环保局家属楼,,22,22,35,10,18,54,,117,83,24,14,5,4,0.4,0.5
2024-05-10T0000,1936A,107.2058,34.3497,宝鸡市,文理学院,,28,28,28,2,11,30,,112,75,35,17,5,6,0.4,0.4
2024-05-10T0000,1937A,107.2386,34.3622,宝鸡市,三迪小学,,17,12,30,1,14,39,,112,81,34,15,7,7,0.6,0.5
2024-05-10T0000,1051A,115.493,38.8632,保定市,游泳馆,颗粒物(PM10),71,92,124,25,37,125,,182,148,6,13,6,7,0.1,0.3
2024-05-10T0000,1052A,115.5213,38.8959,保定市,华电二区,颗粒物(PM10),57,63,79,22,30,118,,183,142,16,20,5,6,0.4,0.5
2024-05-10T0000,1053A,115.4713,38.9108,保定市,接待中心,颗粒物(PM10),56,61,71,22,27,124,,182,152,8,13,5,7,0.3,0.4
2024-05-10T0000,1054A,115.4612,38.8416,保定市,地表水厂,颗粒物(PM10),64,77,99,30,41,115,,180,141,15,18,4,6,0.3,0.4
2024-05-10T0000,3581A,115.31981,38.95208,保定市,满城区生态环境分局,颗粒物(PM10),82,114,112,36,40,93,,182,138,16,17,6,6,0.3,0.4
2024-05-10T0000,3582A,115.47694,38.76408,保定市,清苑区第二中学,颗粒物(PM10),82,113,113,25,33,107,,181,141,25,23,6,8,0.3,0.4
2024-05-10T0000,3583A,115.62909,39.02311,保定市,徐水物探局,颗粒物(PM10),81,112,110,24,29,104,,184,143,16,13,10,8,0.1,0.2
2024-05-10T0000,4004A,115.4202,38.8656,保定市,双鹰农机,颗粒物(PM10),62,74,95,28,34,128,,195,153,11,18,7,9,0.1,0.3
2024-05-10T0000,4034A,115.5150,38.8590,保定市,植保所站,颗粒物(PM10),67,84,108,34,41,100,,187,138,34,22,6,7,0.3,0.4
2024-05-10T0000,2594A,99.1678,25.1081,保山市,市环境监测站,,26,26,37,11,18,75,,102,85,6,9,8,8,0.8,0.6
2024-05-10T0000,2595A,99.1711,25.1328,保山市,市环保局,,32,31,44,22,21,75,,100,88,4,7,6,6,0.5,0.5
2024-05-10T0000,1866A,109.2262,21.588,北海市,牛尾岭水库,,,,,,,,,,,,,,,,
2024-05-10T0000,1867A,109.1436,21.4086,北海市,海滩公园,,41,41,32,20,14,122,,121,117,5,12,7,9,0.5,0.5
2024-05-10T0000,1868A,109.0981,21.4661,北海市,新市环保局,,41,41,31,22,17,116,,119,112,6,12,5,8,0.7,0.7
2024-05-10T0000,1869A,109.1778,21.5233,北海市,北海工业园,,41,41,34,22,20,111,,106,95,6,11,7,11,0.6,0.6
2024-05-10T0000,3400A,109.1911,21.4415,北海市,龙潭自来水厂,,40,40,28,23,21,116,,117,113,4,11,5,7,1.7,0.9
2024-05-10T0000,1001A,116.3621,39.8784,北京市,万寿西宫,颗粒物(PM10),69,88,93,24,37,106,,218,173,26,27,1,4,0.4,0.5
2024-05-10T0000,1002A,116.2202,40.2915,北京市,定陵,,,,,,,,,,,,,,,,
2024-05-10T0000,1003A,116.4174,39.9289,北京市,东四,颗粒物(PM10),75,100,105,24,38,114,,207,167,21,27,3,5,0.5,0.6
2024-05-10T0000,1004A,116.4072,39.8863,北京市,天坛,颗粒物(PM10),61,71,78,27,35,113,,207,167,20,23,3,5,0.4,0.5
2024-05-10T0000,1005A,116.462,39.9365,北京市,农展馆,颗粒物(PM10),70,90,93,26,38,106,,185,154,20,28,3,3,0.4,0.5
2024-05-10T0000,1006A,116.3392,39.9295,北京市,官园,颗粒物(PM10),66,82,95,23,37,124,,217,179,15,27,4,5,0.3,0.4
2024-05-10T0000,1007A,116.2878,39.9611,北京市,海淀万柳,颗粒物(PM10),65,80,93,20,36,121,,215,177,33,32,6,7,0.3,0.5
2024-05-10T0000,1008A,116.6636,40.135,北京市,顺义新城,颗粒物(PM10),71,92,88,37,39,85,,202,159,36,26,2,4,0.4,0.4
2024-05-10T0000,1009A,116.6275,40.3275,北京市,怀柔镇,颗粒物(PM10),65,80,90,32,41,109,,210,176,24,17,6,6,0.5,0.7
2024-05-10T0000,1010A,116.2296,40.217,北京市,昌平镇,颗粒物(PM10),66,81,91,20,39,92,,166,141,18,21,2,3,0.2,0.5
2024-05-10T0000,1011A,116.3966,39.9821,北京市,奥体中心,颗粒物(PM10),70,90,87,31,39,106,,186,158,18,29,3,3,0.4,0.5
2024-05-10T0000,1012A,116.184,39.9136,北京市,古城,颗粒物(PM10),76,101,101,22,38,105,,202,162,27,39,2,4,0.1,0.3
2024-05-10T0000,3281A,115.9718,40.4529,北京市,延庆夏都,颗粒物(PM10),68,85,98,32,44,139,,211,199,14,14,2,3,0.6,0.5
2024-05-10T0000,3417A,117.0709,40.1465,北京市,平谷新城,颗粒物(PM10),74,98,88,33,39,109,,198,162,21,17,3,4,0.5,0.5
2024-05-10T0000,3418A,116.8336,40.4095,北京市,密云新城,颗粒物(PM10),60,69,84,21,34,138,,208,185,14,16,4,5,0.3,0.4
2024-05-10T0000,3671A,116.088,39.9726,北京市,门头沟三家店,,,,,,,,,,,,,,,,
2024-05-10T0000,3672A,116.1541,39.8204,北京市,丰台云岗,颗粒物(PM10),71,92,92,24,35,87,,188,146,22,21,2,4,0.4,0.5
2024-05-10T0000,3673A,116.6804,39.9081,北京市,通州东关,颗粒物(PM10),68,86,102,24,37,112,,193,157,19,20,2,4,0.4,0.5
2024-05-10T0000,3674A,115.9577,39.7603,北京市,房山燕山,颗粒物(PM10),72,93,100,24,39,89,,183,154,23,24,2,2,0.4,0.5
2024-05-10T0000,3675A,116.4672,39.7733,北京市,大兴旧宫,颗粒物(PM10),66,82,83,24,33,119,,206,167,17,20,1,3,0.4,0.5
2024-05-10T0000,3694A,115.986,40.4563,北京市,延庆石河营,颗粒物(PM10),62,74,82,29,42,141,,221,205,14,14,2,3,0.4,0.5
2024-05-10T0000,3695A,116.6151,40.3053,北京市,怀柔新城,颗粒物(PM10),66,82,87,34,39,94,,199,165,27,15,2,3,0.6,0.6
2024-05-10T0000,3696A,116.2545,39.8768,北京市,丰台小屯,颗粒物(PM10),65,80,90,23,36,93,,194,150,25,26,1,3,0.3,0.5
2024-05-10T0000,3697A,116.84,40.3844,北京市,密云镇,颗粒物(PM10),63,75,82,23,35,134,,205,183,15,21,3,2,0.4,0.5
2024-05-10T0000,1761A,123.8275,41.3064,本溪市,大峪,颗粒物(PM10),77,104,125,29,39,159,,154,147,11,21,11,14,0.7,1.1
2024-05-10T0000,1762A,123.7567,41.3325,本溪市,溪湖,颗粒物(PM10),92,134,124,42,38,130,,137,124,15,24,10,16,0.8,1.5
2024-05-10T0000,1763A,123.7169,41.3094,本溪市,彩屯,颗粒物(PM10),96,142,109,57,43,95,,131,100,47,31,22,15,3.6,1.6
2024-05-10T0000,1764A,123.7669,41.2864,本溪市,东明,颗粒物(PM10),71,92,141,30,39,135,,138,124,14,24,10,16,0.6,1.2
2024-05-10T0000,1765A,123.7992,41.2664,本溪市,新立屯,颗粒物(PM10),63,75,110,31,38,139,,151,117,14,27,12,15,0.6,0.9
2024-05-10T0000,1766A,123.8142,41.3472,本溪市,威宁,颗粒物(PM10),71,91,143,40,36,83,,134,87,23,27,7,9,0.7,0.9
2024-05-10T0000,2587A,105.2864,27.3125,毕节市,八中,,32,29,24,22,19,20,,84,56,20,13,5,6,0.7,0.6
2024-05-10T0000,2588A,105.31,27.2944,毕节市,师专,,27,27,21,18,14,24,,82,61,36,13,6,8,0.6,0.5
2024-05-10T0000,3537A,105.3631,27.3533,毕节市,长征村,,33,32,29,23,23,50,,92,70,9,8,6,7,0.5,0.5
2024-05-10T0000,1629A,118.0018,37.3617,滨州市,第二水厂,,33,29,70,14,43,104,,191,138,23,38,10,15,0.7,0.7
2024-05-10T0000,1630A,117.9776,37.393,滨州市,北中新校,,48,48,81,12,39,102,,198,143,30,28,14,18,0.7,0.8
2024-05-10T0000,3514A,117.9378,37.3956,滨州市,中海酒店,,36,36,70,24,42,98,,211,158,32,21,13,24,0.4,0.8
2024-05-10T0000,3515A,117.9378,37.3553,滨州市,开发区一中,颗粒物(PM10),60,70,89,19,43,88,,190,133,41,32,13,19,0.7,0.8
2024-05-10T0000,3516A,118.0917,37.694,滨州市,金海六路,颗粒物(PM10),63,76,89,24,38,80,,197,136,44,34,14,14,0.6,0.5
2024-05-10T0000,4028A,117.9956,37.3753,滨州市,滨州市西街道办事处,颗粒物(PM10),51,51,87,29,48,99,,183,135,22,28,13,17,0.7,0.8
2024-05-10T0000,2311A,115.8072,33.8399,亳州市,污水处理厂,颗粒物(PM10),57,63,50,31,26,129,,155,149,18,13,13,11,0.3,0.3
2024-05-10T0000,2312A,115.7789,33.8518,亳州市,三国揽胜宫,颗粒物(PM10),56,61,54,26,22,158,,160,160,14,10,11,11,0.4,0.4
2024-05-10T0000,3332A,115.7633,33.8034,亳州市,亳州学院,颗粒物(PM10),57,63,52,30,24,153,,157,157,12,10,11,11,0.5,0.5
2024-05-10T0000,2693A,82.0485,44.8556,博尔塔拉蒙古自治州,市党校,,40,40,30,22,10,76,,120,110,19,7,10,9,0.4,0.3
2024-05-10T0000,2694A,82.0806,44.8969,博尔塔拉蒙古自治州,市环保局,颗粒物(PM10),70,90,35,26,14,29,,122,93,69,17,11,8,1.0,0.4
2024-05-10T0000,1071A,116.8842,38.2991,沧州市,沧县城建局,颗粒物(PM10),53,56,80,21,21,131,,158,150,13,14,4,5,0.4,0.4
2024-05-10T0000,1072A,116.8584,38.3254,沧州市,电视转播站,细颗粒物(PM2.5),64,64,87,46,31,124,,153,146,10,10,7,7,0.3,0.2
2024-05-10T0000,1073A,116.8709,38.3228,沧州市,市环保局,细颗粒物(PM2.5),124,,77,94,39,127,,156,148,15,17,5,6,0.4,0.4
2024-05-10T0000,3324A,116.8136,38.3004,沧州市,河北水利电力学院,颗粒物(PM10),53,56,88,35,28,127,,154,146,13,19,7,9,1.2,0.4
2024-05-10T0000,2622A,97.1806,31.1273,昌都市,昌都监测站,,24,24,11,13,7,55,,123,106,35,11,9,9,0.5,0.4
2024-05-10T0000,3719A,97.1714,31.1406,昌都市,昌都会议中心,,30,,12,11,8,96,,134,129,16,9,10,10,0.3,0.3
2024-05-10T0000,2690A,88.1236,43.8886,昌吉回族自治州,天山天池,,21,0,25,0,5,66,,112,86,5,5,5,5,0.4,0.4
2024-05-10T0000,2692A,87.2717,44.0297,昌吉回族自治州,新区政务中心,,30,30,24,14,17,67,,124,109,39,13,10,9,0.6,0.5
2024-05-10T0000,3613A,87.3095,44.0142,昌吉回族自治州,亚心广场,,44,44,26,9,7,54,,130,115,61,15,6,12,0.4,0.5
2024-05-10T0000,1119A,125.3325,43.9166,长春市,食品厂,颗粒物(PM10),57,64,88,32,18,84,,112,94,27,18,8,7,0.3,0.2
2024-05-10T0000,1120A,125.2863,43.9027,长春市,客车厂,,42,42,97,19,21,86,,111,82,26,20,5,5,0.3,0.3
2024-05-10T0000,1121A,125.2841,43.8463,长春市,邮电学院,,42,42,92,27,20,72,,110,84,26,15,8,8,0.4,0.2
2024-05-10T0000,1122A,125.3716,43.8772,长春市,劳动公园,,49,49,86,22,18,67,,115,91,45,19,4,5,0.4,0.3
2024-05-10T0000,1123A,125.3297,43.8805,长春市,园林处,,42,42,69,24,14,93,,112,97,21,17,6,5,0.3,0.3
2024-05-10T0000,1124A,125.4605,43.79,长春市,净月潭,,41,41,66,20,12,84,,110,92,8,5,8,8,0.2,0.1
2024-05-10T0000,1125A,125.7194,43.515,长春市,甩湾子,,,,,,,,,,,,,,,,
2024-05-10T0000,1126A,125.3863,43.8447,长春市,经开区环卫处,,41,41,82,18,17,92,,112,88,17,16,6,6,0.4,0.4
2024-05-10T0000,1127A,125.245,43.7783,长春市,高新区管委会,颗粒物(PM10),58,66,74,38,21,75,,109,83,22,16,10,7,0.4,0.3
2024-05-10T0000,1128A,125.1761,43.8325,长春市,岱山公园,颗粒物(PM10),57,63,82,29,24,79,,110,84,32,21,7,6,0.4,0.4
2024-05-10T0000,1335A,113.0833,28.2325,长沙市,经开区环保局,细颗粒物(PM2.5),57,51,56,40,31,92,,111,104,18,23,8,9,0.4,0.4
2024-05-10T0000,1336A,112.8872,28.2189,长沙市,高开区环保局,颗粒物(PM10),52,53,60,31,32,112,,117,116,17,28,9,8,0.6,0.7
2024-05-10T0000,1337A,113.0792,28.2053,长沙市,马坡岭,细颗粒物(PM2.5),73,57,61,53,32,75,,103,94,24,26,8,9,0.6,0.5
2024-05-10T0000,1338A,112.9394,28.19,长沙市,湖南师范大学,颗粒物(PM10),53,56,64,35,35,89,,109,104,21,22,5,6,0.5,0.5
2024-05-10T0000,1339A,113.0178,28.1322,长沙市,雨花区环保局,,49,47,57,34,33,95,,106,104,21,24,6,8,0.5,0.5
2024-05-10T0000,1340A,112.9792,28.2597,长沙市,伍家岭,颗粒物(PM10),51,51,68,24,33,84,,112,103,34,38,6,8,0.5,0.6
2024-05-10T0000,1341A,113.0014,28.1944,长沙市,火车新站,,49,44,63,34,38,92,,110,107,29,35,4,6,0.6,0.7
2024-05-10T0000,1342A,112.9844,28.1178,长沙市,天心区环保局,,50,50,56,34,33,99,,105,98,23,31,4,5,0.0,0.2
2024-05-10T0000,1343A,112.8908,28.1308,长沙市,湖南中医药大学,颗粒物(PM10),52,53,62,32,32,73,,98,91,40,42,10,10,0.5,0.6
2024-05-10T0000,1344A,112.9581,28.3611,长沙市,沙坪,颗粒物(PM10),71,91,58,32,28,86,,119,96,15,20,9,9,1.1,1.3
2024-05-10T0000,1727A,113.1147,36.1547,长治市,清华站,颗粒物(PM10),51,52,56,22,33,148,,175,170,12,12,11,10,0.4,0.5
2024-05-10T0000,1728A,113.1031,36.1989,长治市,监测站,,50,50,69,22,35,154,,181,176,15,17,14,14,0.7,0.8
2024-05-10T0000,1730A,113.0886,36.2125,长治市,审计局,颗粒物(PM10),55,60,60,27,36,154,,180,175,13,14,14,14,0.4,0.5
2024-05-10T0000,1731A,113.0844,36.1856,长治市,长治八中,颗粒物(PM10),64,77,71,20,40,154,,181,176,17,18,10,10,0.5,0.6
2024-05-10T0000,2845A,113.1569,36.1911,长治市,德盛苑,,48,48,54,24,34,150,,177,171,12,10,7,8,0.4,0.6
2024-05-10T0000,3568A,113.06,36.0464,长治市,向阳小学,颗粒物(PM10),58,65,77,32,45,161,,184,179,12,14,14,14,0.6,0.7
2024-05-10T0000,3569A,112.8792,36.3144,长治市,屯留一中,颗粒物(PM10),55,59,61,35,41,153,,169,167,12,15,10,9,0.7,0.7
2024-05-10T0000,3570A,113.235,36.3489,长治市,潞城四中,臭氧1小时,63,68,73,27,41,170,,182,180,7,12,6,7,0.4,0.7
2024-05-10T0000,1854A,111.6975,28.9703,常德市,市二中,细颗粒物(PM2.5),55,50,76,39,60,106,,137,115,12,17,10,13,0.5,0.6
2024-05-10T0000,1857A,111.7158,29.1456,常德市,白鹤山,,,,,,,,,,,,,,,,
2024-05-10T0000,3138A,111.7153,29.0289,常德市,武陵区永安,细颗粒物(PM2.5),63,60,80,45,59,65,,142,108,42,19,12,12,0.6,0.6
2024-05-10T0000,3139A,111.6892,28.9881,常德市,鼎城区玉霞,细颗粒物(PM2.5),57,60,83,40,64,105,,139,110,12,20,13,15,0.5,0.6
2024-05-10T0000,3140A,111.6625,29.0531,常德市,武陵区长庚,细颗粒物(PM2.5),57,57,77,40,57,106,,147,114,11,16,12,14,0.7,0.8
2024-05-10T0000,1196A,119.9633,31.762,常州市,市监测站,,44,44,39,20,24,85,,157,127,29,27,4,4,0.4,0.4
2024-05-10T0000,1200A,119.9468,31.7069,常州市,武进监测站,,30,30,32,7,16,96,,161,133,21,21,6,6,0.4,0.5
2024-05-10T0000,1201A,119.9255,31.9087,常州市,安家,,50,50,41,27,22,50,,143,106,48,31,9,9,0.6,0.6
2024-05-10T0000,3002A,119.9805,31.8174,常州市,行政中心,,36,36,39,19,20,75,,149,124,33,22,8,8,0.7,0.7
2024-05-10T0000,3003A,120.0522,31.7748,常州市,经开区,,50,50,44,23,21,72,,149,120,41,33,8,8,0.4,0.4
2024-05-10T0000,3010A,119.9025,31.7964,常州市,钟楼,,33,33,35,15,18,95,,157,133,22,22,10,9,0.4,0.6
2024-05-10T0000,3429A,119.8598,31.7066,常州市,武进经发区,,36,36,36,16,18,90,,158,127,21,21,8,10,0.5,0.5
2024-05-10T0000,3430A,119.5826,31.7245,常州市,金坛城区,,37,37,34,17,16,98,,164,139,16,15,8,8,0.6,0.6
2024-05-10T0000,2220A,120.4318,41.5881,朝阳市,西梁,颗粒物(PM10),54,58,50,21,17,100,,113,109,13,8,10,9,0.4,0.3
2024-05-10T0000,2221A,120.4521,41.5646,朝阳市,河畔小区,颗粒物(PM10),97,144,105,26,18,125,,122,122,11,8,10,8,0.5,0.3
2024-05-10T0000,2222A,120.4176,41.5648,朝阳市,八里堡,颗粒物(PM10),101,152,113,21,17,90,,110,104,21,12,11,10,0.6,0.5
2024-05-10T0000,2223A,120.3806,41.5969,朝阳市,农业园区,细颗粒物(PM2.5),222,,52,172,29,108,,105,,25,10,13,9,0.6,0.4
2024-05-10T0000,1705A,116.6367,23.6719,潮州市,西园路,,46,40,49,32,29,126,,168,142,13,16,7,8,0.2,0.3
2024-05-10T0000,3026A,116.6183,23.6608,潮州市,市政府,,48,48,54,25,27,117,,173,140,13,15,7,8,0.6,0.7
2024-05-10T0000,4036A,116.6461,23.6761,潮州市,金山,,42,42,50,27,26,122,,168,139,10,15,8,9,0.5,0.6
2024-05-10T0000,2472A,113.0073,25.9061,郴州市,马头岭,细颗粒物(PM2.5),75,95,70,55,29,23,,53,43,32,28,8,22,1.1,1
2024-05-10T0000,2473A,113.0116,25.8226,郴州市,市职中,细颗粒物(PM2.5),105,87,59,79,48,35,,66,48,20,19,14,22,1.0,0.8
2024-05-10T0000,2474A,113.0161,25.8001,郴州市,兴隆步行街,细颗粒物(PM2.5),97,93,65,72,43,44,,65,55,25,21,16,22,0.9,0.8
2024-05-10T0000,2475A,113.0383,25.8071,郴州市,市审计局,细颗粒物(PM2.5),84,76,57,62,41,42,,56,47,20,22,19,20,0.9,0.8
2024-05-10T0000,2476A,113.0348,25.7759,郴州市,市环保局,细颗粒物(PM2.5),102,86,72,76,55,36,,57,47,26,31,19,21,1.0,0.9
2024-05-10T0000,1431A,103.9728,30.7236,成都市,金泉两河,,50,50,51,29,27,70,,149,113,15,14,2,2,0.4,0.4
2024-05-10T0000,1432A,104.176,30.6872,成都市,十里店,,43,42,44,30,27,80,,143,116,21,24,4,4,0.7,0.7
2024-05-10T0000,1433A,104.079,30.5706,成都市,三瓦窑,细颗粒物(PM2.5),55,44,41,39,29,90,,135,115,12,24,1,3,0.5,0.5
2024-05-10T0000,1434A,104.1114,30.63,成都市,沙河铺,,49,49,40,33,22,64,,125,96,16,19,2,4,0.4,0.4
2024-05-10T0000,1437A,104.0786,30.6531,成都市,君平街,,46,42,40,32,25,85,,149,118,10,16,4,5,0.6,0.6
2024-05-10T0000,1438A,103.613,31.0283,成都市,灵岩寺,,,,,,,,,,,,,,,,
2024-05-10T0000,2880A,104.0239,30.65639,成都市,大石西路,细颗粒物(PM2.5),58,54,40,41,23,75,,152,116,22,21,3,4,0.5,0.4
2024-05-10T0000,3136A,104.2725,30.5589,成都市,龙泉驿区区政府,,35,34,26,24,17,97,,131,117,4,6,4,3,0.4,0.4
2024-05-10T0000,3357A,104.0106,30.6931,成都市,金博路,颗粒物(PM10),63,75,49,28,28,58,,150,111,28,19,1,2,0.6,0.5
2024-05-10T0000,3359A,104.0578,30.5225,成都市,华阳,,45,36,37,31,30,89,,138,118,8,13,2,3,0.4,0.3
2024-05-10T0000,3487A,104.2394,30.5319,成都市,车城东七路,,46,44,35,32,24,96,,130,116,6,10,3,3,0.5,0.5
2024-05-10T0000,3488A,104.3853,30.7453,成都市,青白江技师分院,,46,,32,32,21,88,,127,108,6,17,3,3,0.5,0.6
2024-05-10T0000,3489A,104.0789,30.4072,成都市,科学城,细颗粒物(PM2.5),53,45,38,37,29,90,,138,120,11,10,2,3,0.6,0.5
2024-05-10T0000,4011A,103.8506,30.6947,成都市,光华大道三段,,48,48,51,31,28,98,,154,126,13,20,1,2,0.5,0.5
2024-05-10T0000,1062A,117.9531,40.9081,承德市,铁路,颗粒物(PM10),72,94,89,23,27,134,,200,176,22,20,14,10,0.8,0.5
2024-05-10T0000,1063A,117.9392,40.9763,承德市,中国银行,颗粒物(PM10),74,98,89,25,26,131,,206,187,18,18,11,11,0.7,0.5
2024-05-10T0000,1064A,117.9503,40.928,承德市,开发区,颗粒物(PM10),73,96,84,29,26,136,,205,185,22,21,14,9,0.9,0.6
2024-05-10T0000,1065A,117.8051,40.9655,承德市,文化中心,颗粒物(PM10),66,82,98,22,30,125,,221,199,34,19,9,11,0.5,0.5
2024-05-10T0000,1066A,117.9268,41.0026,承德市,离宫,颗粒物(PM10),55,60,69,35,28,117,,207,185,16,12,3,4,0.4,0.4
2024-05-10T0000,2314A,117.47,30.6618,池州市,池州学院,细颗粒物(PM2.5),60,65,60,43,36,43,,159,111,41,25,5,7,0.9,0.6
2024-05-10T0000,3237A,117.4918,30.6617,池州市,展览馆,颗粒物(PM10),54,57,56,27,33,35,,150,100,39,26,3,5,0.7,0.7
2024-05-10T0000,3333A,117.5627,30.695,池州市,第八中学,,50,50,52,29,31,97,,158,131,18,20,4,5,0.6,0.7
2024-05-10T0000,3334A,117.5038,30.6243,池州市,第十二中学,细颗粒物(PM2.5),54,52,54,38,34,27,,169,88,52,32,4,6,0.8,0.6
2024-05-10T0000,1744A,118.9233,42.2816,赤峰市,松山一中,臭氧1小时,89,94,75,34,27,191,,162,162,17,21,12,11,0.9,0.7
2024-05-10T0000,1745A,118.9576,42.2728,赤峰市,哈达街,臭氧1小时,83,100,80,34,16,186,,192,192,18,21,12,11,0.7,0.4
2024-05-10T0000,1746A,118.8788,42.2554,赤峰市,天义路,臭氧1小时,83,86,68,33,15,186,,160,160,17,20,10,9,0.6,0.4
2024-05-10T0000,3058A,119.2658,42.0353,赤峰市,银河街,颗粒物(PM10),74,98,102,30,20,155,,143,143,17,15,16,16,0.7,0.4
2024-05-10T0000,3286A,118.9359,42.3147,赤峰市,桥北物流园区,臭氧1小时,90,76,67,43,21,192,,164,164,8,16,11,11,0.8,0.5
2024-05-10T0000,2521A,107.3476,22.4136,崇左市,市环保局江州分局,,19,18,13,10,9,60,,88,72,9,5,8,8,0.8,0.7
2024-05-10T0000,2522A,107.3702,22.3707,崇左市,城南新区,,20,,10,8,8,64,,82,67,5,6,6,6,0.6,0.6
2024-05-10T0000,2298A,118.3093,32.3153,滁州市,老年大学,,47,47,41,25,20,116,,142,133,26,21,6,6,0.5,0.5
2024-05-10T0000,2299A,118.3244,32.2786,滁州市,人大宾馆,颗粒物(PM10),51,52,39,27,21,100,,154,130,29,24,6,6,0.6,0.6
2024-05-10T0000,3207A,118.3118,32.3038,滁州市,市政府原办公楼,颗粒物(PM10),51,51,41,29,25,116,,157,135,28,23,6,6,0.5,0.5
2024-05-10T0000,3331A,118.3267,32.2634,滁州市,图书馆,颗粒物(PM10),53,56,45,28,20,97,,152,124,30,21,8,8,0.6,0.6
2024-05-10T0000,2605A,101.5482,25.0441,楚雄彝族自治州,州环境监测站,,30,,26,21,22,65,,101,77,8,12,6,6,0.6,0.6
2024-05-10T0000,2606A,101.538,25.0492,楚雄彝族自治州,市经济开发区,,30,28,29,21,22,58,,96,74,12,13,4,5,0.6,0.5
2024-05-10T0000,2548A,107.5277,31.2827,达州市,达州职业技术学院,,36,36,25,15,10,12,,63,36,30,19,5,5,0.3,0.3
2024-05-10T0000,2549A,107.5086,31.2186,达州市,市环境监测站,,44,44,31,19,12,8,,74,38,43,24,5,5,0.6,0.5
2024-05-10T0000,2550A,107.4988,31.2132,达州市,凤凰小区,,41,41,30,27,17,11,,81,42,43,21,6,6,0.7,0.6
2024-05-10T0000,2551A,107.5082,31.1986,达州市,达县机关宾馆,,39,39,31,21,17,30,,64,39,33,28,5,4,0.3,0.3
2024-05-10T0000,2552A,107.4644,31.2124,达州市,市政中心,,43,43,35,22,15,34,,70,52,28,19,5,5,0.5,0.4
2024-05-10T0000,2614A,100.1542,25.7054,大理白族自治州,大理市环境监测站,,26,22,23,16,16,83,,112,90,12,12,6,6,0.5,0.5
2024-05-10T0000,2615A,100.2171,25.5811,大理白族自治州,大理古城,,22,,20,14,13,70,,96,79,9,14,7,7,0.6,0.6
2024-05-10T0000,1109A,121.612,38.9741,大连市,甘井子,颗粒物(PM10),75,100,94,50,41,144,,161,152,22,25,12,12,0.6,0.7
2024-05-10T0000,1110A,121.565,38.9511,大连市,周水子,颗粒物(PM10),69,88,80,45,39,140,,153,149,22,25,12,10,1.0,1
2024-05-10T0000,1111A,121.5637,38.8845,大连市,星海三站,颗粒物(PM10),71,91,94,45,43,158,,162,162,14,20,8,9,0.7,0.8
2024-05-10T0000,1112A,121.6302,38.9117,大连市,青泥洼桥,颗粒物(PM10),60,70,90,35,35,139,,153,151,16,20,9,11,0.5,0.6
2024-05-10T0000,1113A,121.6251,38.8638,大连市,傅家庄,颗粒物(PM10),67,84,92,43,45,161,,177,176,11,16,8,10,0.6,0.6
2024-05-10T0000,1114A,121.5213,38.8661,大连市,七贤岭,颗粒物(PM10),68,86,86,33,36,137,,159,152,15,19,10,11,0.4,0.5
2024-05-10T0000,1115A,121.2529,38.8061,大连市,旅顺,颗粒物(PM10),61,72,84,33,42,147,,181,179,17,22,9,11,0.6,0.7
2024-05-10T0000,1116A,121.7485,39.1311,大连市,金州,颗粒物(PM10),70,89,84,44,40,170,,150,150,14,20,10,12,0.6,0.8
2024-05-10T0000,1117A,121.7811,39.0496,大连市,开发区,颗粒物(PM10),86,121,94,55,40,158,,165,161,23,28,10,10,0.7,0.7
2024-05-10T0000,1118A,121.9762,39.0631,大连市,双D港,细颗粒物(PM2.5),74,65,105,54,42,148,,158,135,24,27,11,10,0.8,0.9
2024-05-10T0000,1789A,124.81117,46.03138,大庆市,大同区,,41,41,29,26,22,72,,101,86,12,7,6,6,0.4,0.3
2024-05-10T0000,1790A,125.129,46.533,大庆市,龙凤区,,40,,22,28,18,74,,94,82,12,10,18,7,0.4,0.3
2024-05-10T0000,1791A,124.902,46.408,大庆市,红岗区,,30,30,23,9,14,88,,99,88,8,10,6,6,0.5,0.4
2024-05-10T0000,1792A,125.153,46.586,大庆市,萨尔图区,,29,22,22,14,10,90,,91,85,7,9,13,7,0.1,0.1
2024-05-10T0000,1793A,124.9042,46.6215,大庆市,让胡路区,,26,26,29,13,16,75,,91,84,14,11,8,5,0.2,0.2
2024-05-10T0000,3481A,125.141,46.634,大庆市,萨区政府监测点,,31,31,25,7,11,89,,88,87,6,12,11,7,0.1,0.2
2024-05-10T0000,1721A,113.3819,40.1097,大同市,果树场,,,,,,,,,,,,,,,,
2024-05-10T0000,1723A,113.2994,40.0758,大同市,云冈宾馆,,50,50,74,20,37,115,,183,154,17,34,6,11,0.5,0.7
2024-05-10T0000,1724A,113.3444,40.0917,大同市,大同大学,,46,46,64,32,40,119,,182,154,11,27,12,17,0.4,0.6
2024-05-10T0000,1725A,113.2661,40.1269,大同市,安家小村,颗粒物(PM10),64,77,111,25,33,99,,174,148,18,29,12,16,0.6,1
2024-05-10T0000,1726A,113.2711,40.0844,大同市,教育学院,颗粒物(PM10),56,62,116,13,38,119,,188,163,13,39,8,14,0.4,0.8
2024-05-10T0000,3282A,113.3397,40.0597,大同市,大同市卫生学校,,46,46,75,17,26,113,,178,150,17,37,7,10,0.4,0.6
2024-05-10T0000,3565A,113.1367,40.1122,大同市,云冈站,颗粒物(PM10),73,95,97,32,29,102,,181,159,24,29,15,17,0.5,0.5
2024-05-10T0000,3566A,113.1186,40.2556,大同市,图书馆,颗粒物(PM10),61,72,67,29,25,107,,157,143,17,20,14,16,0.5,0.5
2024-05-10T0000,3567A,113.5931,40.0461,大同市,区一中,臭氧1小时,85,78,82,39,26,188,,203,203,19,22,8,11,0.8,0.5
2024-05-10T0000,3676A,113.2802,40.0995,大同市,第二人民医院,颗粒物(PM10),58,65,114,19,38,113,,180,155,14,35,10,16,0.5,0.8
2024-05-10T0000,2269A,124.1069,50.4097,大兴安岭地区,科技局,,33,32,14,23,15,60,,76,72,13,6,6,6,0.3,0.4
2024-05-10T0000,3663A,124.1164,50.4278,大兴安岭地区,红旗社区,,26,19,5,12,7,82,,94,80,4,7,4,4,0.3,0.3
2024-05-10T0000,1600A,124.3303,40.0625,丹东市,江湾东路,颗粒物(PM10),55,60,44,33,28,141,,128,124,9,12,15,12,0.4,0.4
2024-05-10T0000,1601A,124.4256,40.1503,丹东市,临江后街,颗粒物(PM10),58,66,43,25,23,138,,137,129,6,11,9,10,0.7,0.8
2024-05-10T0000,1602A,124.3933,40.1461,丹东市,元宝山,颗粒物(PM10),51,51,39,24,21,129,,124,122,10,13,9,10,0.7,0.8
2024-05-10T0000,1603A,124.3633,40.1092,丹东市,民主桥,颗粒物(PM10),54,58,43,27,22,129,,126,119,8,12,13,14,0.5,0.6
2024-05-10T0000,3541A,109.5726,19.5167,儋州市,第一中学子站,,26,26,23,12,12,56,,78,68,4,3,3,4,0.5,0.5
2024-05-10T0000,3542A,109.5567,19.5187,儋州市,东坡学校子站,,20,20,21,13,13,55,,77,67,4,3,3,4,0.5,0.5
2024-05-10T0000,2616A,98.5842,24.428,德宏傣族景颇族自治州,德宏州监测站,细颗粒物(PM2.5),67,57,60,48,45,41,,113,80,20,22,3,6,0.7,0.7
2024-05-10T0000,3677A,98.5881,24.4368,德宏傣族景颇族自治州,芒市人民政府综合楼,颗粒物(PM10),51,52,56,30,34,55,,102,79,11,15,4,5,0.6,0.7
2024-05-10T0000,1901A,104.4239,31.1208,德阳市,东山公园,,48,48,54,30,29,62,,117,88,8,16,2,4,0.5,0.5
2024-05-10T0000,1902A,104.3826,31.1317,德阳市,西小区,,45,45,58,30,33,53,,113,76,19,22,1,3,0.6,0.6
2024-05-10T0000,1904A,104.3553,31.1091,德阳市,耐火材料厂,,45,45,57,30,34,57,,127,85,18,20,2,4,0.6,0.6
2024-05-10T0000,3639A,104.4019,31.1244,德阳市,市教育局,,48,48,51,29,31,52,,108,75,13,16,2,4,0.6,0.6
2024-05-10T0000,1622A,116.3032,37.4674,德州市,儿童乐园,颗粒物(PM10),67,83,109,24,24,122,,148,139,19,20,12,9,0.7,0.6
2024-05-10T0000,1624A,116.2991,37.4451,德州市,监理站,颗粒物(PM10),62,73,97,27,22,123,,167,148,19,14,14,10,0.6,0.5
2024-05-10T0000,3066A,116.2721,37.4379,德州市,九衢泉纯净水厂,颗粒物(PM10),56,61,107,24,29,115,,159,139,24,20,8,8,0.4,0.3
2024-05-10T0000,3371A,116.3728,37.4403,德州市,开发区人民医院,颗粒物(PM10),60,70,109,22,28,126,,167,147,17,13,12,12,0.5,0.4
2024-05-10T0000,3372A,116.3572,37.4094,德州市,太阳城中学,颗粒物(PM10),56,61,107,24,29,119,,162,144,16,12,9,9,0.5,0.4
2024-05-10T0000,3511A,116.5652,37.3319,德州市,陵城艺术中心,颗粒物(PM10),53,56,92,9,23,131,,166,155,19,18,8,11,0.7,0.6
2024-05-10T0000,2621A,99.7056,27.8317,迪庆藏族自治州,迪庆州站,,34,19,26,15,15,107,,115,105,10,11,7,7,0.5,0.4
2024-05-10T0000,3180A,99.7136,27.8094,迪庆藏族自治州,质量技术监督局,,36,14,23,3,9,114,,116,108,7,11,7,7,0.5,0.5
2024-05-10T0000,2663A,104.6241,35.5734,定西市,东关小学,,46,46,45,24,18,87,,136,112,8,9,3,4,0.2,0.2
2024-05-10T0000,2664A,104.6194,35.5934,定西市,供电公司,,45,42,44,31,26,69,,129,106,15,6,5,5,0.2,0.2
2024-05-10T0000,1389A,113.7547,23.0494,东莞市,莞城梨川,颗粒物(PM10),52,53,42,25,24,123,,170,140,23,20,9,8,0.7,0.8
2024-05-10T0000,1390A,113.7944,23.0128,东莞市,东城石井,,47,47,38,22,22,110,,170,129,22,20,7,7,0.8,0.8
2024-05-10T0000,1391A,113.7383,22.9658,东莞市,南城西平,,44,44,39,17,21,128,,172,142,21,23,5,5,0.8,0.8
2024-05-10T0000,3319A,113.7338,23.0381,东莞市,万江金泰,,46,46,39,25,26,117,,165,134,23,20,7,7,0.6,0.8
2024-05-10T0000,3626A,113.7533,23.0202,东莞市,南城元岭,,48,48,41,22,24,117,,182,138,32,23,9,9,0.7,0.8
2024-05-10T0000,3627A,113.7875,23.0457,东莞市,东城主山,,49,49,39,25,24,115,,173,136,28,21,8,8,0.6,0.7
2024-05-10T0000,1666A,118.6614,37.4309,东营市,市环保局,颗粒物(PM10),52,53,73,19,30,129,,208,165,22,31,9,12,0.2,0.3
2024-05-10T0000,3036A,118.6904,37.4338,东营市,开发区管委会,颗粒物(PM10),62,73,80,22,32,125,,196,156,21,32,6,9,0.4,0.5
2024-05-10T0000,3365A,118.5719,37.565,东营市,垦利区民丰路,颗粒物(PM10),59,68,82,17,31,138,,214,164,21,34,11,17,0.4,0.6
2024-05-10T0000,3498A,118.5055,37.8612,东营市,河口城区,细颗粒物(PM2.5),104,,91,78,40,103,,197,152,27,23,14,12,0.4,0.5
2024-05-10T0000,3646A,118.4978,37.4623,东营市,胜利站,颗粒物(PM10),55,59,76,19,30,131,,206,155,18,36,10,14,0.6,0.8
2024-05-10T0000,3734A,118.35,37.26,东营市,理想之城,颗粒物(PM10),57,63,75,19,32,126,,205,158,18,34,10,14,0.7,0.8
2024-05-10T0000,1591A,110.0023,39.8129,鄂尔多斯市,综合楼,细颗粒物(PM2.5),100,,96,75,33,109,,143,129,12,21,3,8,0.6,0.6
2024-05-10T0000,1592A,109.9486,39.8261,鄂尔多斯市,巴音孟克林场办事处,,39,34,73,27,28,105,,138,124,11,16,8,11,0.7,0.6
2024-05-10T0000,1593A,109.7736,39.5986,鄂尔多斯市,康泽苑,,48,48,59,22,27,116,,146,132,13,15,6,9,0.2,0.4
2024-05-10T0000,1594A,109.8119,39.5989,鄂尔多斯市,华泰汽车城,,48,48,53,24,27,107,,134,121,12,14,5,8,0.4,0.4
2024-05-10T0000,1595A,109.9734,39.7884,鄂尔多斯市,奥林花园,,35,34,76,24,32,93,,136,122,13,21,12,12,0.6,0.6
2024-05-10T0000,2436A,114.8938,30.3994,鄂州市,市政府,细颗粒物(PM2.5),122,125,72,92,45,109,,186,156,33,24,24,18,1.3,1
2024-05-10T0000,2437A,114.8989,30.3714,鄂州市,赵家坝,细颗粒物(PM2.5),128,119,67,97,45,109,,181,151,28,19,26,17,1.2,0.8
2024-05-10T0000,3654A,114.8094,30.4089,鄂州市,精准医疗中心,细颗粒物(PM2.5),129,148,81,98,44,101,,171,142,34,26,24,21,1.7,1.2
2024-05-10T0000,2454A,109.4978,30.2981,恩施土家族苗族自治州,湖北民院,颗粒物(PM10),57,63,52,39,34,42,,106,74,26,24,8,7,0.7,0.7
2024-05-10T0000,2455A,109.4707,30.2798,恩施土家族苗族自治州,州电力总公司,细颗粒物(PM2.5),55,50,47,39,33,36,,96,70,26,32,8,8,0.7,0.7
2024-05-10T0000,3549A,109.5061,30.3772,恩施土家族苗族自治州,龙凤新区,,46,43,40,32,28,48,,105,76,15,14,7,6,0.6,0.6
2024-05-10T0000,2499A,108.3411,21.6158,防城港市,沙万,颗粒物(PM10),61,72,24,17,14,59,,99,82,35,15,6,6,0.8,1
2024-05-10T0000,2500A,108.3514,21.7731,防城港市,防城档案局,,22,16,30,9,12,70,,85,71,14,16,3,4,0.6,0.6
2024-05-10T0000,2501A,108.3506,21.6414,防城港市,大海花园,,25,25,18,13,11,63,,99,86,20,14,4,6,0.6,0.8
2024-05-10T0000,1371A,113.1294,23.0067,佛山市,湾梁,颗粒物(PM10),51,51,47,22,21,112,,198,143,26,23,9,9,0.4,0.4
2024-05-10T0000,1372A,113.1083,23.0478,佛山市,华材职中,颗粒物(PM10),51,51,47,26,25,114,,170,95,26,30,3,2,0.6,0.6
2024-05-10T0000,1373A,113.144,23.0453,佛山市,南海气象局,,43,39,45,30,27,97,,182,121,35,27,8,8,0.7,0.7
2024-05-10T0000,1374A,113.2881,22.8094,佛山市,顺德苏岗,,35,35,39,22,28,105,,195,148,28,24,5,6,0.7,0.8
2024-05-10T0000,1376A,112.8383,22.8678,佛山市,高明孔堂,颗粒物(PM10),54,58,46,32,22,71,,194,116,31,23,7,6,0.7,0.6
2024-05-10T0000,1377A,112.8836,23.1588,佛山市,三水监测站,颗粒物(PM10),57,63,49,34,28,8,,138,58,55,39,7,7,0.8,0.8
2024-05-10T0000,1378A,112.867,23.185,佛山市,三水云东海,,40,39,41,28,36,7,,120,47,37,32,4,4,0.7,0.7
2024-05-10T0000,3625A,113.2544,22.7642,佛山市,容桂街道办,颗粒物(PM10),53,56,42,22,26,104,,184,146,33,26,5,5,0.5,0.5
2024-05-10T0000,1280A,119.3903,26.0543,福州市,鼓山,,,,,,,,,,,,,,,,
2024-05-10T0000,1282A,119.2681,26.0504,福州市,师大,,29,23,29,6,12,92,,154,103,10,8,4,4,0.3,0.4
2024-05-10T0000,1283A,119.2984,26.1028,福州市,五四北路,,32,15,31,6,13,100,,157,110,12,12,4,4,0.4,0.5
2024-05-10T0000,1284A,119.2648,26.0768,福州市,杨桥西路,,30,22,32,4,13,94,,159,107,8,7,4,4,0.3,0.4
2024-05-10T0000,1285A,119.317,26.0746,福州市,紫阳,,33,14,30,3,11,105,,152,107,8,7,3,4,0.2,0.3
2024-05-10T0000,3048A,119.5799,26.0936,福州市,九龙,,25,19,23,2,5,79,,138,107,19,10,4,4,0.3,0.3
2024-05-10T0000,3526A,119.5189,25.9664,福州市,吴航,,24,14,17,6,9,76,,135,101,14,6,4,4,0.4,0.5
2024-05-10T0000,1755A,123.7977,41.8491,抚顺市,望花区,颗粒物(PM10),88,126,178,47,34,104,,136,116,22,18,6,7,1.2,0.5
2024-05-10T0000,1756A,123.9161,41.8822,抚顺市,顺城区,颗粒物(PM10),84,118,184,37,29,119,,130,111,16,20,7,8,0.7,0.5
2024-05-10T0000,1757A,124.0436,41.8611,抚顺市,东洲区,颗粒物(PM10),70,90,167,44,39,121,,127,113,14,13,5,7,0.7,0.4
2024-05-10T0000,1758A,123.9247,41.8642,抚顺市,新抚区,颗粒物(PM10),75,99,182,26,27,111,,127,108,12,13,6,7,0.7,0.5
2024-05-10T0000,1759A,124.0972,41.8961,抚顺市,大伙房水库,颗粒物(PM10),64,77,190,36,29,129,,129,114,8,12,6,7,0.4,0.2
2024-05-10T0000,1760A,123.7086,41.8391,抚顺市,沈抚新城,颗粒物(PM10),119,187,176,43,26,75,,126,94,30,18,8,8,0.7,0.4
2024-05-10T0000,2376A,116.2127,28.0814,抚州市,桐源党溪,颗粒物(PM10),56,62,53,37,34,78,,156,98,7,8,6,8,0.6,0.6
2024-05-10T0000,2377A,116.3544,27.9831,抚州市,市站,颗粒物(PM10),51,52,53,35,32,89,,146,117,10,12,8,7,0.8,0.8
2024-05-10T0000,2378A,116.3565,27.963,抚州市,血防站,,50,50,53,34,32,94,,147,118,11,12,8,9,0.7,0.7
2024-05-10T0000,2379A,116.3564,28.0007,抚州市,采茶剧团,细颗粒物(PM2.5),57,50,54,40,31,86,,144,111,7,10,6,6,0.8,0.7
2024-05-10T0000,2380A,116.385,27.9647,抚州市,医学分院,颗粒物(PM10),52,54,57,29,29,93,,146,118,12,14,10,13,0.9,0.9
2024-05-10T0000,2207A,121.6094,41.998,阜新市,工业园区,颗粒物(PM10),134,218,108,26,21,114,,122,114,16,11,14,10,0.6,0.4
2024-05-10T0000,2208A,121.6697,42.0279,阜新市,长青街,颗粒物(PM10),105,160,86,27,21,118,,120,113,16,12,15,10,0.5,0.5
2024-05-10T0000,2209A,121.6673,42.0705,阜新市,农业园区,颗粒物(PM10),126,202,98,36,15,120,,117,114,10,6,12,9,0.4,0.4
2024-05-10T0000,2210A,121.6717,42.0224,阜新市,东苑,颗粒物(PM10),117,183,96,30,24,116,,117,111,15,11,15,11,0.5,0.4
2024-05-10T0000,2211A,121.6506,42.0498,阜新市,玉龙新城,颗粒物(PM10),115,180,89,29,22,113,,119,113,14,10,13,9,0.5,0.4
2024-05-10T0000,2301A,115.8277,32.8929,阜阳市,市监测站,颗粒物(PM10),59,67,59,33,37,127,,155,144,24,22,11,9,0.4,0.4
2024-05-10T0000,2303A,115.8554,32.8605,阜阳市,开发区,颗粒物(PM10),55,59,66,32,32,144,,162,158,20,20,7,7,0.4,0.4
2024-05-10T0000,2875A,115.784,32.8892,阜阳市,阜阳职业技术学院,颗粒物(PM10),56,62,51,30,27,164,,166,166,13,15,7,8,0.4,0.4
2024-05-10T0000,3468A,115.7901,32.8613,阜阳市,市规划展馆,颗粒物(PM10),61,71,74,39,31,144,,162,154,17,16,6,7,0.5,0.5
2024-05-10T0000,3469A,115.836,32.9183,阜阳市,枣园社区,颗粒物(PM10),51,52,52,32,31,141,,163,156,21,20,8,8,0.4,0.4
2024-05-10T0000,2669A,102.9099,34.9841,甘南藏族自治州,州政府,,30,28,34,19,20,94,,134,115,10,18,8,9,0.6,0.7
2024-05-10T0000,3380A,102.8914,34.9617,甘南藏族自治州,甘肃民族师范学院,,34,30,40,23,18,106,,149,125,9,22,9,12,0.7,0.7
2024-05-10T0000,2570A,101.9603,30.0475,甘孜藏族自治州,水桥子,,17,14,10,1,7,26,,83,56,34,18,2,2,0.3,0.3
2024-05-10T0000,3065A,101.9533,29.9972,甘孜藏族自治州,州环保局,,24,20,16,11,5,18,,86,44,48,22,1,1,0.3,0.3
2024-05-10T0000,3414A,115.8347,28.932,赣江新区,桑海产业园,颗粒物(PM10),102,153,70,48,37,16,,160,96,89,41,8,10,0.7,0.7
2024-05-10T0000,2362A,114.9017,25.9149,赣州市,通天岩,,,,,,,,,,,,,,,,
2024-05-10T0000,2363A,114.9367,25.8664,赣州市,地委,颗粒物(PM10),51,52,43,29,26,40,,108,65,20,15,10,11,0.7,0.6
2024-05-10T0000,2364A,114.9461,25.8481,赣州市,气象台,颗粒物(PM10),53,56,47,33,26,34,,108,71,27,20,8,10,0.5,0.4
2024-05-10T0000,2365A,114.9322,25.8333,赣州市,市图书馆,颗粒物(PM10),55,59,49,38,27,46,,115,71,33,20,5,7,0.9,0.8
2024-05-10T0000,2366A,114.8905,25.8471,赣州市,华坚鞋城,颗粒物(PM10),61,71,53,35,28,33,,121,66,36,20,41,16,0.6,0.5
2024-05-10T0000,3109A,115.0093,25.8613,赣州市,赣县区卫计委,细颗粒物(PM2.5),60,58,49,43,28,32,,108,65,38,27,10,11,0.6,0.6
2024-05-10T0000,2683A,106.2319,36.1417,固原市,马园,,33,33,34,18,18,55,,120,89,28,17,4,5,0.5,0.4
2024-05-10T0000,2684A,106.2792,36.0022,固原市,监测站,,28,27,23,19,15,36,,117,91,36,11,3,3,0.3,0.3
2024-05-10T0000,2685A,106.2375,36.0211,固原市,新区,,37,37,32,17,14,50,,117,84,35,13,3,2,0.3,0.3
2024-05-10T0000,3522A,106.2177,35.9959,固原市,原州区十五小,,38,38,31,20,16,87,,119,103,11,8,5,5,0.1,0.1
2024-05-10T0000,2543A,106.6308,30.5278,广安市,小平旧居,,,,,,,,,,,,,,,,
2024-05-10T0000,2544A,106.6303,30.4576,广安市,市委,颗粒物(PM10),51,51,63,34,42,69,,108,91,19,15,8,8,0.7,0.8
2024-05-10T0000,2545A,106.6271,30.4663,广安市,友谊中学,,42,42,50,29,35,75,,107,91,18,17,6,7,0.7,0.8
2024-05-10T0000,2547A,106.6388,30.4551,广安市,广电花园,,42,38,56,29,37,55,,101,84,22,16,8,8,0.7,0.7
2024-05-10T0000,2902A,106.6351,30.4865,广安市,北辰小学,,49,49,58,30,38,70,,108,92,13,12,8,8,0.7,0.8
2024-05-10T0000,2523A,105.8945,32.4535,广元市,黑石坡,,26,26,20,6,11,41,,55,44,12,12,5,5,0.5,0.4
2024-05-10T0000,2524A,105.821,32.4444,广元市,老城,,44,44,40,19,19,2,,49,24,46,32,8,8,0.9,1
2024-05-10T0000,2526A,105.8628,32.4287,广元市,监测站,,32,32,30,6,20,31,,63,51,10,15,4,5,0.5,0.6
2024-05-10T0000,3617A,105.8047,32.4166,广元市,经开区,,,,46,,30,,,35,,,22,,11,,0.8
2024-05-10T0000,1345A,113.2347,23.1423,广州市,广雅中学,颗粒物(PM10),51,51,45,29,28,96,,170,104,38,36,6,6,0.8,0.9
2024-05-10T0000,1346A,113.2612,23.105,广州市,市五中,颗粒物(PM10),53,55,43,36,32,95,,202,140,40,28,4,6,0.6,0.8
2024-05-10T0000,1348A,113.3478,23.0916,广州市,广东商学院,细颗粒物(PM2.5),53,47,43,37,33,96,,188,115,40,33,6,5,0.5,0.5
2024-05-10T0000,1349A,113.4332,23.1047,广州市,市八十六中,颗粒物(PM10),54,58,51,28,29,45,,149,103,94,62,6,6,0.8,0.8
2024-05-10T0000,1350A,113.3505,22.9483,广州市,番禺中学,,45,45,39,25,23,119,,222,157,29,26,6,5,0.5,0.6
2024-05-10T0000,1351A,113.2146,23.3916,广州市,花都师范,颗粒物(PM10),52,54,45,31,30,15,,88,55,51,34,7,6,0.7,0.7
2024-05-10T0000,1352A,113.2597,23.1331,广州市,市监测站,,50,50,44,28,28,104,,170,122,28,26,5,6,0.5,0.6
2024-05-10T0000,1353A,113.5618,23.312,广州市,九龙镇镇龙,颗粒物(PM10),53,56,48,31,30,18,,120,46,33,26,6,6,0.7,0.7
2024-05-10T0000,1354A,113.2765,23.1544,广州市,麓湖,,44,44,43,26,28,108,,152,90,24,26,6,6,0.5,0.7
2024-05-10T0000,1355A,113.443,23.3035,广州市,帽峰山森林公园,,43,43,37,24,23,37,,120,57,22,23,5,6,0.7,0.6
2024-05-10T0000,2846A,113.3221,23.1322,广州市,体育西,颗粒物(PM10),52,53,47,28,29,106,,179,130,26,22,6,6,0.7,0.8
2024-05-10T0000,3298A,113.5717,23.5491,广州市,从化街口,,48,48,47,29,32,14,,78,41,48,28,8,6,0.8,0.8
2024-05-10T0000,3299A,113.3472,23.3692,广州市,白云竹料,,50,50,55,33,37,33,,116,55,36,32,5,5,0.7,0.7
2024-05-10T0000,3300A,113.2981,23.237,广州市,白云嘉禾,颗粒物(PM10),56,61,51,30,33,51,,142,59,75,48,6,5,0.8,0.9
2024-05-10T0000,3301A,113.4256,23.1716,广州市,黄埔科学城,,50,50,48,26,34,75,,149,84,45,37,6,5,0.8,0.8
2024-05-10T0000,3302A,113.3942,23.0483,广州市,番禺大学城,,46,46,35,27,25,107,,191,136,34,29,10,9,0.6,0.8
2024-05-10T0000,3303A,113.4922,22.8168,广州市,南沙黄阁,,40,40,45,21,26,118,,195,141,31,32,7,6,0.6,0.8
2024-05-10T0000,3304A,113.5342,22.7896,广州市,南沙街,,39,39,43,20,24,113,,182,134,24,23,8,8,0.6,0.8
2024-05-10T0000,3443A,113.2902,23.5544,广州市,花都梯面,,40,40,38,25,25,17,,67,40,34,25,5,5,0.7,0.8
2024-05-10T0000,3445A,113.7858,23.7478,广州市,从化良口,,36,36,36,24,22,25,,70,46,16,10,4,5,0.7,0.8
2024-05-10T0000,3446A,113.8051,23.2614,广州市,增城荔城,,50,50,44,24,27,127,,145,104,20,18,6,5,0.7,0.7
2024-05-10T0000,2505A,109.568,23.1478,贵港市,德智高中,,,,,,,,,,,,,,,,
2024-05-10T0000,2506A,109.6047,23.0666,贵港市,江南子站,,38,36,26,26,22,44,,66,55,19,15,10,8,0.6,0.7
2024-05-10T0000,2507A,109.6014,23.0948,贵港市,贵城子站,,48,48,36,30,23,38,,66,54,20,12,9,7,0.6,0.6
2024-05-10T0000,2508A,109.5669,23.1065,贵港市,荷城子站,,39,34,25,27,18,48,,71,58,12,9,10,8,0.6,0.6
2024-05-10T0000,3405A,109.5886,23.1172,贵港市,新世纪学校,,43,41,25,30,19,45,,72,57,12,8,9,8,0.8,0.7
2024-05-10T0000,1439A,106.6899,26.5998,贵阳市,马鞍山,,20,17,16,7,5,61,,80,60,10,12,8,7,0.3,0.3
2024-05-10T0000,1440A,106.6971,26.5694,贵阳市,市环保站,,23,,17,16,15,61,,80,58,8,16,4,4,0.3,0.4
2024-05-10T0000,1441A,106.6243,26.6266,贵阳市,鉴湖路,,20,9,16,5,7,64,,80,62,4,9,3,3,0.4,0.4
2024-05-10T0000,1442A,106.7487,26.6343,贵阳市,燕子冲,,22,22,17,9,8,56,,84,58,10,12,7,6,0.5,0.5
2024-05-10T0000,1443A,106.6555,26.4365,贵阳市,碧云窝,,19,14,17,5,6,59,,82,63,6,11,4,4,0.4,0.5
2024-05-10T0000,1444A,106.694,26.5161,贵阳市,中院村,,15,14,20,7,9,47,,73,46,9,14,8,7,0.5,0.5
2024-05-10T0000,1445A,106.7109,26.6027,贵阳市,红边门,,32,24,22,22,16,56,,81,58,14,17,4,4,0.6,0.6
2024-05-10T0000,1446A,106.7164,26.5699,贵阳市,新华路,,20,,15,14,12,56,,90,59,12,12,4,4,0.5,0.5
2024-05-10T0000,1447A,106.674,26.5424,贵阳市,太慈桥,,18,9,16,9,8,55,,81,57,10,13,5,5,0.4,0.4
2024-05-10T0000,1552A,106.805,26.3003,贵阳市,桐木岭,,,,,,,,,,,,,,,,
2024-05-10T0000,1862A,110.4144,25.3167,桂林市,电子科大尧山校区,,29,29,42,20,31,55,,106,78,5,8,3,5,0.7,0.7
2024-05-10T0000,1863A,110.2819,25.2697,桂林市,监测站,,45,35,48,31,38,67,,86,72,15,16,4,5,0.7,0.8
2024-05-10T0000,1864A,110.3089,25.2708,桂林市,龙隐路小学,,43,33,45,30,38,62,,86,72,12,13,5,6,0.7,0.8
2024-05-10T0000,1865A,110.2869,25.2178,桂林市,八中,,43,34,47,30,34,56,,85,74,16,15,4,6,0.8,0.8
2024-05-10T0000,3403A,110.1764,25.2381,桂林市,创业大厦,,39,31,42,27,32,72,,90,78,11,12,9,17,0.6,0.7
2024-05-10T0000,3531A,110.296,25.1253,桂林市,旅游学院,,45,,36,31,30,62,,91,73,13,12,5,6,0.7,0.7
2024-05-10T0000,2674A,100.2561,34.4714,果洛藏族自治州,玛沁县大武镇,,30,30,21,17,16,78,,133,117,13,9,11,13,0.4,0.5
2024-05-10T0000,1129A,126.5422,45.755,哈尔滨市,岭北,颗粒物(PM10),73,95,28,36,11,29,,101,62,65,18,11,8,0.7,0.3
2024-05-10T0000,1130A,126.561,45.8167,哈尔滨市,松北商大,颗粒物(PM10),71,91,38,12,10,5,,98,36,69,20,5,4,0.6,0.4
2024-05-10T0000,1131A,126.979,45.5419,哈尔滨市,阿城会宁,颗粒物(PM10),71,92,47,24,13,26,,100,57,42,13,4,5,0.5,0.5
2024-05-10T0000,1132A,126.599,45.7222,哈尔滨市,南岗学府路,颗粒物(PM10),82,113,39,47,12,4,,102,54,91,21,10,4,0.8,0.4
2024-05-10T0000,1133A,126.689,45.7733,哈尔滨市,太平宏伟公园,细颗粒物(PM2.5),117,182,48,88,19,3,,103,65,80,16,14,6,0.8,0.4
2024-05-10T0000,1134A,126.635,45.7667,哈尔滨市,道外承德广场,颗粒物(PM10),68,85,34,38,18,7,,99,59,85,22,8,6,0.5,0.2
2024-05-10T0000,1135A,126.685,45.7319,哈尔滨市,香坊红旗大街,,,,10,48,20,4,,102,60,86,16,12,6,0.8,0.4
2024-05-10T0000,1136A,126.6411,45.7258,哈尔滨市,动力和平路,颗粒物(PM10),67,83,37,37,12,3,,99,53,91,22,11,5,0.6,0.4
2024-05-10T0000,1137A,126.593,45.7478,哈尔滨市,道里建国路,细颗粒物(PM2.5),67,80,36,48,14,4,,96,50,98,23,9,5,5.7,0.6
2024-05-10T0000,1138A,126.615,45.61,哈尔滨市,平房东轻厂,颗粒物(PM10),67,83,55,24,15,36,,92,50,45,22,9,6,0.5,0.3
2024-05-10T0000,1139A,126.595,45.9855,哈尔滨市,呼兰师专,颗粒物(PM10),67,84,49,37,20,42,,98,64,52,17,7,6,0.5,0.3
2024-05-10T0000,1140A,126.6206,45.6842,哈尔滨市,省农科院,颗粒物(PM10),96,142,46,38,16,4,,104,52,89,23,8,4,0.7,0.4
2024-05-10T0000,2688A,93.5128,42.8172,哈密市,地区监测站,,25,15,36,12,14,77,,122,114,25,12,5,4,0.2,0.2
2024-05-10T0000,2689A,93.4961,42.8328,哈密市,哈密师范学校,,40,40,36,11,16,82,,117,111,22,12,4,5,0.4,0.3
2024-05-10T0000,2671A,100.9048,36.9639,海北藏族自治州,海晏县西海镇,颗粒物(PM10),71,92,48,22,19,142,,153,145,8,10,17,16,0.6,0.5
2024-05-10T0000,3867A,102.0738,36.5056,海东市,平安区公安北苑,,,68,63,34,29,,,151,,7,14,12,13,0.4,0.6
2024-05-10T0000,1409A,110.576,19.9507,海口市,东寨港,,,,,,,,,,,,,,,,
2024-05-10T0000,1410A,110.3232,20.0574,海口市,海南大学,,46,46,39,23,19,108,,119,107,7,6,4,5,0.6,0.5
2024-05-10T0000,1411A,110.283,20.0053,海口市,秀英海南医院,,44,44,33,26,19,100,,112,99,4,6,5,5,0.5,0.5
2024-05-10T0000,1412A,110.338,19.9969,海口市,海南师范大学,,42,42,29,24,18,102,,112,100,1,3,6,6,0.5,0.5
2024-05-10T0000,1413A,110.33,20.0356,海口市,龙华路环保局宿舍,,40,40,31,22,17,102,,115,102,3,4,6,6,0.4,0.4
2024-05-10T0000,3539A,110.5111,19.9736,海口市,桂林洋子站,,44,44,31,21,16,105,,107,103,4,5,5,5,0.4,0.4
2024-05-10T0000,2673A,100.6188,36.2866,海南藏族自治州,共和县恰卜恰镇,,46,46,35,14,16,144,,155,146,8,13,12,12,0.5,0.5
2024-05-10T0000,2676A,97.3731,37.3753,海西蒙古族藏族自治州,德令哈市,,47,20,180,19,47,148,,126,126,3,5,5,7,0.6,0.5
2024-05-10T0000,1048A,114.5302,36.6116,邯郸市,东污水处理厂,颗粒物(PM10),54,58,72,22,30,109,,154,136,9,12,7,8,0.4,0.4
2024-05-10T0000,1049A,114.4918,36.5713,邯郸市,矿院,,50,50,61,27,27,101,,152,135,15,15,8,9,0.4,0.5
2024-05-10T0000,1050A,114.484,36.6133,邯郸市,丛台公园,细颗粒物(PM2.5),53,47,69,37,27,107,,159,141,9,9,6,8,0.3,0.4
2024-05-10T0000,3458A,114.7895,36.5593,邯郸市,香泉濮院小区,颗粒物(PM10),51,52,94,23,24,136,,164,148,7,8,7,8,0.4,0.4
2024-05-10T0000,3579A,114.50634,36.77178,邯郸市,永年区实验高中,颗粒物(PM10),55,60,89,32,30,126,,175,157,11,18,8,12,0.4,0.5
2024-05-10T0000,3580A,114.20016,36.44293,邯郸市,峰峰矿区临水派出所,颗粒物(PM10),60,70,96,20,33,123,,176,151,12,18,7,11,0.5,1
2024-05-10T0000,2634A,106.9893,33.1842,汉中市,汉川机床厂子校,,21,21,24,10,15,28,,71,56,16,7,3,4,0.4,0.4
2024-05-10T0000,2635A,107.0154,33.0706,汉中市,市监测站,颗粒物(PM10),51,52,24,18,19,35,,88,73,27,10,11,8,0.7,0.5
2024-05-10T0000,2636A,107.0089,33.1138,汉中市,鑫源开发区,,43,,22,30,16,23,,90,66,35,11,9,9,0.6,0.6
2024-05-10T0000,2637A,107.007,33.0323,汉中市,南郑大河坎水厂,,42,42,27,29,17,29,,76,60,23,9,8,7,0.6,0.5
2024-05-10T0000,1223A,120.2072,30.2111,杭州市,滨江,颗粒物(PM10),55,60,40,16,19,28,,151,92,60,28,6,6,0.6,0.5
2024-05-10T0000,1224A,120.0633,30.2747,杭州市,西溪,,34,34,24,17,14,27,,138,103,28,22,6,6,0.5,0.5
2024-05-10T0000,1226A,120.3461,30.3153,杭州市,下沙,颗粒物(PM10),57,63,46,28,18,7,,142,79,93,34,8,9,0.6,0.5
2024-05-10T0000,1227A,120.1269,30.2456,杭州市,卧龙桥,,37,37,30,21,18,18,,149,97,40,22,4,5,0.5,0.5
2024-05-10T0000,1228A,120.1903,30.2692,杭州市,浙江农大,,50,50,40,21,18,24,,129,87,56,27,7,7,0.5,0.4
2024-05-10T0000,1230A,120.1197,30.3119,杭州市,和睦小学,,44,44,34,22,15,32,,141,96,57,25,5,5,0.6,0.5
2024-05-10T0000,1231A,120.3019,30.4183,杭州市,临平镇,,48,48,38,33,21,36,,150,91,43,22,5,6,0.5,0.5
2024-05-10T0000,1232A,120.2697,30.1819,杭州市,城厢镇,颗粒物(PM10),53,55,37,31,18,30,,139,86,58,30,8,7,0.7,0.6
2024-05-10T0000,1233A,120.0883,30.1808,杭州市,云栖,,39,39,33,25,15,22,,143,89,42,30,7,7,0.6,0.5
2024-05-10T0000,3557A,119.9464,30.0494,杭州市,镇二中,,48,48,31,30,16,63,,149,115,36,26,8,8,0.6,0.5
2024-05-10T0000,3558A,119.7183,30.2367,杭州市,市府大楼,,48,48,35,30,24,71,,152,123,35,26,6,6,0.6,0.5
2024-05-10T0000,3656A,120.1556,30.2864,杭州市,消防大队,颗粒物(PM10),51,51,36,25,20,18,,142,93,78,29,7,7,0.7,0.5
2024-05-10T0000,1270A,117.1959,31.7848,合肥市,明珠广场,颗粒物(PM10),56,61,54,34,29,112,,177,150,29,31,7,9,0.6,0.6
2024-05-10T0000,1271A,117.3072,31.8764,合肥市,三里街,颗粒物(PM10),56,61,56,27,27,86,,160,132,50,42,8,8,0.4,0.4
2024-05-10T0000,1272A,117.2588,31.8707,合肥市,琥珀山庄,颗粒物(PM10),54,58,51,19,18,112,,173,149,28,25,5,6,0.7,0.7
2024-05-10T0000,1273A,117.1604,31.9052,合肥市,董铺水库,颗粒物(PM10),52,53,53,24,22,133,,176,165,20,22,3,3,0.3,0.4
2024-05-10T0000,1274A,117.25,31.8571,合肥市,长江中路,颗粒物(PM10),53,56,54,32,30,116,,162,146,24,28,6,8,0.5,0.6
2024-05-10T0000,1275A,117.266,31.9436,合肥市,庐阳区,颗粒物(PM10),57,63,61,29,32,115,,175,151,29,39,5,4,0.4,0.4
2024-05-10T0000,1276A,117.336,31.8586,合肥市,瑶海区,颗粒物(PM10),58,66,57,31,26,86,,161,126,39,30,8,9,0.6,0.6
2024-05-10T0000,1277A,117.3027,31.7964,合肥市,包河区,,48,48,53,27,27,100,,167,146,33,40,7,8,0.4,0.4
2024-05-10T0000,1278A,117.2776,31.7385,合肥市,滨湖新区,颗粒物(PM10),52,53,47,31,25,117,,173,155,18,17,6,7,0.5,0.5
2024-05-10T0000,1279A,117.1318,31.8403,合肥市,高新区,颗粒物(PM10),56,61,51,33,27,114,,168,150,28,27,8,8,0.6,0.6
2024-05-10T0000,3464A,117.3803,31.9147,合肥市,高教基地,颗粒物(PM10),59,67,46,32,21,81,,167,138,40,22,9,7,0.5,0.5
2024-05-10T0000,3614A,79.924,37.0877,和田地区,地区环保局,颗粒物(PM10),111,171,146,53,37,61,,118,95,25,11,8,9,0.6,0.5
2024-05-10T0000,3615A,79.9131,37.113,和田地区,市环保局,颗粒物(PM10),117,184,148,48,45,22,,113,86,69,24,7,10,1.1,0.6
2024-05-10T0000,2516A,108.2011,24.715,河池市,东仁乐园,,47,47,34,18,14,5,,6,6,10,6,2,2,0.8,0.8
2024-05-10T0000,2517A,108.0497,24.6947,河池市,市环保站,,45,45,27,27,17,36,,57,42,12,12,8,8,0.6,0.5
2024-05-10T0000,2518A,108.0983,24.6989,河池市,市疾控中心,,36,33,26,25,18,28,,56,36,21,15,8,9,0.6,0.6
2024-05-10T0000,1696A,114.6778,23.7569,河源市,源西,,,,38,,27,,,114,,,15,,4,,0.7
2024-05-10T0000,1697A,114.6944,23.7586,河源市,东埔,细颗粒物(PM2.5),62,61,46,44,28,46,,117,74,24,14,8,7,0.7,0.7
2024-05-10T0000,1698A,114.6892,23.7233,河源市,老城,,46,46,40,24,22,40,,120,73,17,11,5,6,0.7,0.7
2024-05-10T0000,1718A,115.4208,35.2464,菏泽市,气象局,颗粒物(PM10),58,65,73,30,33,113,,147,136,31,21,4,5,0.5,0.4
2024-05-10T0000,1719A,115.4747,35.2375,菏泽市,市政协,,44,40,56,28,34,138,,149,146,14,13,4,5,0.1,0.1
2024-05-10T0000,3374A,115.5564,35.0891,菏泽市,定陶老年大学,,48,48,64,22,20,120,,149,132,19,22,5,6,0.4,0.3
2024-05-10T0000,3647A,115.4702,35.2706,菏泽市,菏泽医专,颗粒物(PM10),60,69,71,19,20,146,,152,148,17,16,4,5,0.3,0.3
2024-05-10T0000,2514A,111.5264,24.4172,贺州市,环保小区,,49,49,47,19,29,62,,56,56,12,18,7,7,0.6,0.7
2024-05-10T0000,2515A,111.5608,24.4078,贺州市,政协大楼,,50,50,49,35,31,57,,51,51,15,20,8,8,0.6,0.7
2024-05-10T0000,3534A,111.4744,24.4553,贺州市,西湾,,38,37,42,26,30,48,,54,53,14,19,7,8,0.6,0.7
2024-05-10T0000,2385A,114.17,35.9019,鹤壁市,市监测站,颗粒物(PM10),55,60,93,35,44,136,,172,156,18,24,9,11,0.5,0.5
2024-05-10T0000,2386A,114.2956,35.7511,鹤壁市,市交警支队,颗粒物(PM10),55,59,69,32,29,103,,165,134,20,17,10,11,0.3,0.3
2024-05-10T0000,2387A,114.2878,35.7306,鹤壁市,迎宾馆,颗粒物(PM10),55,60,74,28,31,103,,166,135,21,18,13,14,0.4,0.4
2024-05-10T0000,3474A,114.2617,35.6822,鹤壁市,大新区,颗粒物(PM10),60,70,86,26,27,72,,160,122,34,19,10,12,0.5,0.4
2024-05-10T0000,3596A,114.1572,35.9603,鹤壁市,南山宾馆,颗粒物(PM10),55,59,96,34,37,146,,178,164,8,17,9,12,0.6,0.7
2024-05-10T0000,2244A,130.2537,47.3416,鹤岗市,哈啤分公司,,30,30,19,11,10,52,,80,67,9,6,11,12,0.4,0.4
2024-05-10T0000,2245A,130.2684,47.3086,鹤岗市,斯达机电,,38,,26,26,17,69,,84,75,11,8,9,9,0.6,0.5
2024-05-10T0000,2246A,130.3114,47.3388,鹤岗市,东山纸板厂,颗粒物(PM10),126,201,57,40,27,16,,82,49,31,10,12,12,1.1,0.4
2024-05-10T0000,2247A,130.1097,47.3382,鹤岗市,五号水库,,20,20,21,9,7,62,,96,78,8,5,10,10,0.1,0.1
2024-05-10T0000,2263A,127.4833,50.2524,黑河市,交通局,颗粒物(PM10),62,74,25,29,13,7,,85,63,45,13,4,3,0.3,0.2
2024-05-10T0000,2264A,127.5144,50.2341,黑河市,环保局,,48,33,14,33,12,44,,93,71,18,8,6,5,0.4,0.3
2024-05-10T0000,2265A,127.5291,50.2472,黑河市,大黑河岛,细颗粒物(PM2.5),83,85,18,61,12,35,,88,62,34,12,10,7,0.6,0.3
2024-05-10T0000,1074A,115.6838,37.7541,衡水市,电机北厂,颗粒物(PM10),69,88,97,14,22,126,,163,144,9,10,4,6,0.4,0.4
2024-05-10T0000,1075A,115.6303,37.7316,衡水市,市监测站,颗粒物(PM10),58,65,90,14,22,126,,165,147,12,14,3,3,0.3,0.3
2024-05-10T0000,3188A,115.6683,37.7217,衡水市,市城管局,细颗粒物(PM2.5),64,68,78,46,24,124,,161,142,12,14,4,5,0.3,0.3
2024-05-10T0000,3459A,115.5989,37.5491,衡水市,地表水厂,,49,49,100,16,21,119,,161,143,15,16,8,9,0.4,0.4
2024-05-10T0000,2456A,112.5003,26.9167,衡阳市,原169医院,细颗粒物(PM2.5),75,59,74,55,51,69,,103,82,11,22,10,13,0.8,0.9
2024-05-10T0000,2457A,112.6194,26.9258,衡阳市,衡阳化工总厂,细颗粒物(PM2.5),93,84,79,69,49,95,,120,104,11,18,12,16,0.7,0.7
2024-05-10T0000,2458A,112.6211,26.8956,衡阳市,珠晖区环保局,细颗粒物(PM2.5),103,81,70,77,53,88,,124,105,15,25,14,13,0.9,0.9
2024-05-10T0000,2459A,112.6197,26.8733,衡阳市,市委党校,细颗粒物(PM2.5),92,78,75,68,50,87,,117,102,18,22,25,18,0.9,0.9
2024-05-10T0000,2460A,112.6006,26.8919,衡阳市,市监测站,细颗粒物(PM2.5),102,86,71,76,52,95,,123,106,16,19,19,15,1.0,0.9
2024-05-10T0000,2461A,112.5664,26.9056,衡阳市,真空机电公司,细颗粒物(PM2.5),87,73,69,64,49,91,,122,102,14,18,12,16,0.9,0.8
2024-05-10T0000,3399A,112.6703,26.882,衡阳市,师范学院,细颗粒物(PM2.5),108,89,77,81,57,75,,109,94,11,16,9,16,0.9,0.9
2024-05-10T0000,2608A,103.3772,23.3993,红河哈尼族彝族自治州,污水处理厂,,28,,20,16,17,89,,95,80,6,10,7,10,0.4,0.4
2024-05-10T0000,2609A,103.3861,23.35,红河哈尼族彝族自治州,监测站,,30,12,15,8,13,96,,99,84,7,10,7,10,0.3,0.4
2024-05-10T0000,3038A,103.3758,23.368,红河哈尼族彝族自治州,州图书馆,,30,12,15,12,13,95,,97,85,6,9,6,7,0.4,0.4
2024-05-10T0000,1090A,111.6507,40.7517,呼和浩特市,呼市一监,,35,22,74,13,31,109,,180,146,9,29,7,6,0.5,0.5
2024-05-10T0000,1091A,111.6572,40.8033,呼和浩特市,小召,,28,24,82,17,23,88,,161,130,14,32,7,9,0.5,0.5
2024-05-10T0000,1094A,111.7516,40.8369,呼和浩特市,如意水处理厂,颗粒物(PM10),52,54,72,13,22,92,,162,134,16,31,7,8,0.5,0.5
2024-05-10T0000,1095A,111.7276,40.8062,呼和浩特市,二十九中,,33,32,73,19,24,103,,170,142,13,32,3,4,0.5,0.5
2024-05-10T0000,1096A,111.5512,40.7866,呼和浩特市,工大金川校区,,34,34,67,18,27,70,,162,127,23,38,9,8,0.4,0.4
2024-05-10T0000,1097A,111.717,40.7612,呼和浩特市,化肥厂生活区,,43,43,95,12,29,110,,166,138,12,32,8,8,0.4,0.4
2024-05-10T0000,3698A,111.5968,40.8178,呼和浩特市,红旗小学,,33,31,89,23,32,87,,170,135,17,41,5,7,0.4,0.4
2024-05-10T0000,3699A,111.6518,40.8389,呼和浩特市,海东办,,33,,95,23,35,90,,164,134,16,38,10,11,0.2,0.4
2024-05-10T0000,2192A,119.7594,49.2261,呼伦贝尔市,区环保局,,34,21,30,10,20,108,,96,94,5,12,5,5,0.3,0.4
2024-05-10T0000,3061A,119.7512,49.1577,呼伦贝尔市,国华电力东,,35,18,29,10,12,109,,98,94,3,6,3,4,0.2,0.2
2024-05-10T0000,1250A,120.0751,30.8669,湖州市,城西水厂,,36,36,33,13,14,70,,142,98,30,25,5,5,0.5,0.5
2024-05-10T0000,2873A,120.0875,30.8955,湖州市,仁皇山新区,,32,32,28,16,16,62,,146,104,40,28,6,6,0.6,0.6
2024-05-10T0000,2907A,120.1844,30.8596,湖州市,吴兴区站,,28,28,30,14,14,58,,140,99,29,17,6,5,0.4,0.4
2024-05-10T0000,3562A,120.4148,30.8538,湖州市,南浔区站,,27,27,24,12,12,55,,127,88,26,17,7,6,0.3,0.2
2024-05-10T0000,1607A,120.9092,40.7136,葫芦岛市,龙港区,颗粒物(PM10),89,127,173,26,27,142,,124,124,8,10,9,12,0.5,0.6
2024-05-10T0000,1608A,120.8392,40.7514,葫芦岛市,化工街,颗粒物(PM10),82,114,189,14,24,106,,109,102,32,24,10,10,0.4,0.6
2024-05-10T0000,1609A,120.8341,40.7073,葫芦岛市,新区,颗粒物(PM10),85,119,137,22,20,136,,120,120,15,16,8,9,0.5,0.5
2024-05-10T0000,1610A,120.8695,40.7677,葫芦岛市,东城区,颗粒物(PM10),86,121,142,26,23,107,,104,99,27,17,7,8,0.6,0.6
2024-05-10T0000,2482A,109.5981,27.5721,怀化市,林科所,,49,47,42,34,18,59,,121,91,5,5,8,9,0.5,0.6
2024-05-10T0000,2483A,109.9453,27.5444,怀化市,河西地税局,细颗粒物(PM2.5),58,62,39,41,28,6,,113,55,42,19,3,4,0.7,0.6
2024-05-10T0000,2484A,109.9781,27.5342,怀化市,市四医院,细颗粒物(PM2.5),64,55,42,46,32,48,,121,76,24,20,4,4,0.6,0.8
2024-05-10T0000,2485A,109.9972,27.5578,怀化市,监测楼,细颗粒物(PM2.5),59,63,45,42,30,32,,114,83,22,17,9,6,0.7,0.7
2024-05-10T0000,2486A,110.0394,27.583,怀化市,市委党校,,42,36,42,29,27,94,,118,100,5,12,4,7,0.5,0.6
2024-05-10T0000,1210A,119.036,33.5981,淮安市,钵池山,颗粒物(PM10),56,61,41,34,29,80,,151,131,33,21,14,10,0.9,0.6
2024-05-10T0000,1211A,119.007,33.575,淮安市,北京南路,颗粒物(PM10),56,61,43,35,29,72,,159,132,40,23,14,10,0.7,0.6
2024-05-10T0000,1212A,118.989,33.6067,淮安市,市监测站,颗粒物(PM10),56,61,45,36,28,78,,157,135,36,25,13,10,0.8,0.6
2024-05-10T0000,1213A,119.135,33.5039,淮安市,楚州区监测站,细颗粒物(PM2.5),55,56,49,39,29,57,,153,116,54,35,10,9,0.8,0.7
2024-05-10T0000,1214A,119.0186,33.6297,淮安市,淮阴区监测站,颗粒物(PM10),59,68,50,35,29,79,,157,134,39,29,13,8,0.9,0.6
2024-05-10T0000,3426A,118.8755,33.2894,淮安市,新华书店,"颗粒物(PM10),细颗粒物(PM2.5)",53,55,41,37,27,77,,150,126,36,29,9,7,0.9,0.5
2024-05-10T0000,2282A,116.8004,33.975,淮北市,监测站,,49,49,65,28,31,115,,170,148,20,17,9,9,0.6,0.6
2024-05-10T0000,2283A,116.8091,33.9007,淮北市,烈山区政府,颗粒物(PM10),56,62,70,31,30,115,,167,148,20,18,9,8,0.6,0.5
2024-05-10T0000,3330A,116.8873,33.9836,淮北市,杜集区检察院,颗粒物(PM10),55,60,59,35,36,122,,173,158,26,18,10,8,0.7,0.6
2024-05-10T0000,4017A,116.7923,33.9535,淮北市,市博物馆,,50,50,56,28,32,116,,167,149,16,15,9,10,0.7,0.7
2024-05-10T0000,2277A,116.8305,32.7727,淮南市,潘集区政府,颗粒物(PM10),56,62,62,39,38,104,,170,138,30,20,7,9,0.3,0.4
2024-05-10T0000,2278A,117.0067,32.6524,淮南市,师范学院,,47,47,52,32,29,115,,164,145,16,14,9,10,0.3,0.4
2024-05-10T0000,2279A,116.8569,32.5951,淮南市,谢家集区政府,颗粒物(PM10),58,66,63,40,35,91,,164,108,43,31,10,14,0.2,0.3
2024-05-10T0000,2280A,116.8281,32.633,淮南市,八公山区政府,颗粒物(PM10),62,74,59,42,31,100,,167,138,28,18,9,8,0.4,0.4
2024-05-10T0000,2281A,116.6325,32.6201,淮南市,焦岗湖风景区管理处,颗粒物(PM10),58,65,50,26,20,89,,155,130,29,24,1,4,0.1,0.1
2024-05-10T0000,2894A,117.0566,32.6531,淮南市,经济技术开发区消防队,,49,49,55,27,34,100,,156,132,25,22,5,7,0.3,0.4
2024-05-10T0000,3329A,117.0108,32.5893,淮南市,山南新区,细颗粒物(PM2.5),67,65,54,48,27,114,,174,148,19,16,5,6,0.3,0.3
2024-05-10T0000,2446A,114.9028,30.4742,黄冈市,职工中心,细颗粒物(PM2.5),110,111,80,83,47,126,,187,158,20,15,10,13,0.7,0.5
2024-05-10T0000,2929A,114.8858,30.4519,黄冈市,红卫路,细颗粒物(PM2.5),114,108,76,86,48,113,,176,145,26,26,13,12,0.8,0.7
2024-05-10T0000,3398A,114.9136,30.4445,黄冈市,市林业局,细颗粒物(PM2.5),110,103,74,83,46,131,,190,162,18,17,11,10,0.7,0.6
2024-05-10T0000,2672A,102.0199,35.5102,黄南藏族自治州,同仁县隆务镇,,43,43,29,20,13,101,,148,134,3,3,11,11,0.4,0.3
2024-05-10T0000,2295A,118.2903,29.6963,黄山市,延安路89号,,,,64,,27,55,,167,113,15,10,6,7,0.5,0.5
2024-05-10T0000,2296A,118.327,29.7178,黄山市,黄山东路89号,细颗粒物(PM2.5),98,93,58,73,37,47,,160,98,18,12,6,6,0.8,0.5
2024-05-10T0000,2297A,118.1371,30.2756,黄山市,黄山区政府5号楼,颗粒物(PM10),53,56,46,33,29,36,,140,82,9,9,4,5,0.8,0.7
2024-05-10T0000,2423A,115.0601,30.2313,黄石市,沈家营,细颗粒物(PM2.5),114,113,60,86,40,100,,183,137,37,23,17,12,1.1,0.8
2024-05-10T0000,2424A,115.0817,30.2006,黄石市,陈家湾,细颗粒物(PM2.5),110,108,63,83,40,129,,199,184,26,14,16,11,0.9,0.5
2024-05-10T0000,2426A,114.8988,30.2019,黄石市,铁山,,,,64,,39,,,198,171,,15,,10,,0.7
2024-05-10T0000,2427A,115.0307,30.2092,黄石市,团城山,细颗粒物(PM2.5),98,122,63,73,33,145,,185,169,19,12,20,14,0.9,0.6
2024-05-10T0000,3149A,115.0235,30.1578,黄石市,笔架山北路,细颗粒物(PM2.5),133,117,58,101,39,136,,195,171,24,14,23,14,1.3,0.8
2024-05-10T0000,1392A,114.4183,23.0528,惠州市,河南岸金山湖子站,,44,44,36,25,23,123,,145,140,12,9,5,5,0.5,0.6
2024-05-10T0000,1393A,114.4053,23.0822,惠州市,下埔横江三路子站,,45,44,39,25,24,141,,151,150,15,11,7,7,0.6,0.7
2024-05-10T0000,1394A,114.4103,23.1142,惠州市,江北云山西路子站,,45,45,38,22,22,142,,152,152,11,10,6,6,0.9,1
2024-05-10T0000,1395A,114.4645,22.7833,惠州市,惠阳区承修路船湖子站,,44,44,35,22,19,131,,163,149,17,14,6,5,0.5,0.5
2024-05-10T0000,1396A,114.5317,22.7422,惠州市,大亚湾管委会子站,,47,46,37,22,21,148,,177,161,17,16,6,5,0.8,0.9
2024-05-10T0000,3314A,114.4338,22.8134,惠州市,惠阳秋长,,,46,45,6,16,,,192,184,20,14,7,6,0.7,0.7
2024-05-10T0000,3452A,114.6517,22.775,惠州市,大亚湾霞涌,颗粒物(PM10),52,53,36,24,21,147,,167,150,9,10,9,6,0.5,0.6
2024-05-10T0000,2240A,130.9762,45.3001,鸡西市,环保局,,33,33,34,14,18,44,,75,69,22,6,5,5,0.4,0.3
2024-05-10T0000,2243A,130.9429,45.3039,鸡西市,第一中学,,34,34,33,19,12,72,,89,79,7,5,7,8,0.3,0.3
2024-05-10T0000,3707A,131.0207,45.3073,鸡西市,欧美日汽修厂,颗粒物(PM10),58,65,41,31,19,26,,82,62,38,17,5,3,0.4,0.2
2024-05-10T0000,3709A,130.9967,45.3106,鸡西市,市政设施管理处,颗粒物(PM10),53,55,51,22,20,26,,85,56,24,16,6,6,0.4,0.3
2024-05-10T0000,2367A,114.9754,27.0803,吉安市,红声器材厂,颗粒物(PM10),55,60,62,38,34,75,,104,85,26,28,11,15,0.8,0.6
2024-05-10T0000,2368A,114.9658,27.0999,吉安市,市森林工业局,细颗粒物(PM2.5),62,59,61,44,40,72,,100,83,28,25,11,17,0.4,0.6
2024-05-10T0000,2369A,114.99,27.1312,吉安市,市环境监测站,细颗粒物(PM2.5),57,58,60,40,36,96,,115,104,18,23,15,19,0.7,0.6
2024-05-10T0000,2370A,115.0093,27.0968,吉安市,青原区法院,细颗粒物(PM2.5),63,59,65,45,42,83,,103,81,21,36,20,22,0.5,0.6
2024-05-10T0000,1772A,126.54,43.8622,吉林市,哈达湾,,36,36,43,16,14,80,,118,89,20,14,6,8,0.6,0.6
2024-05-10T0000,1773A,126.5844,43.8358,吉林市,东局子,,39,39,42,17,19,75,,112,84,19,15,5,6,0.5,0.5
2024-05-10T0000,1774A,126.5052,43.8245,吉林市,电力学院,颗粒物(PM10),67,84,57,36,19,15,,120,62,49,19,10,12,0.8,0.7
2024-05-10T0000,1775A,126.6133,43.8972,吉林市,江北,颗粒物(PM10),59,68,52,35,18,56,,110,81,44,14,9,8,0.6,0.5
2024-05-10T0000,1776A,126.555,43.8306,吉林市,江南公园,,40,40,44,15,17,80,,109,86,16,15,5,7,0.5,0.5
2024-05-10T0000,1778A,126.7061,43.7133,吉林市,丰满,,,,,,,,,,,,,,,,
2024-05-10T0000,2868A,126.4739,43.953,吉林市,九站,颗粒物(PM10),61,72,68,31,22,28,,114,64,50,24,10,13,0.6,0.6
2024-05-10T0000,1299A,116.9862,36.6114,济南市,科干所,颗粒物(PM10),58,66,58,12,19,139,,167,157,12,11,8,8,0.7,0.6
2024-05-10T0000,1300A,116.9376,36.665,济南市,农科所,颗粒物(PM10),70,90,84,15,16,135,,160,151,16,16,6,6,0.5,0.5
2024-05-10T0000,1301A,117.1265,36.6734,济南市,开发区,颗粒物(PM10),61,71,68,24,20,148,,174,163,11,9,8,7,0.6,0.5
2024-05-10T0000,1303A,117.0624,36.6868,济南市,省种子仓库,颗粒物(PM10),91,132,94,12,20,144,,163,154,8,13,4,4,0.4,0.3
2024-05-10T0000,1304A,116.9489,36.6447,济南市,机床二厂,颗粒物(PM10),122,193,129,15,24,145,,169,162,8,16,6,6,0.6,0.6
2024-05-10T0000,1305A,117.0495,36.663,济南市,市监测站,颗粒物(PM10),66,81,69,15,23,150,,176,165,15,15,9,8,0.3,0.2
2024-05-10T0000,1306A,116.7675,36.5484,济南市,长清党校,颗粒物(PM10),56,61,63,22,21,136,,176,162,15,14,10,10,0.6,0.5
2024-05-10T0000,1616A,117.6795,36.229,济南市,技术学院,,44,39,53,22,24,140,,172,149,17,20,12,12,0.5,0.4
2024-05-10T0000,1961A,117.532,36.6868,济南市,东山小学,颗粒物(PM10),58,66,68,17,20,142,,184,160,16,14,8,7,0.4,0.3
2024-05-10T0000,3059A,117.7161,36.2049,济南市,泰兴公司,,46,46,55,17,22,131,,166,145,12,23,12,13,0.8,0.7
2024-05-10T0000,3064A,117.6867,36.2171,济南市,莱芜战役纪念馆,,44,44,58,19,24,127,,160,140,14,18,9,9,0.7,0.7
2024-05-10T0000,3494A,117.1673,36.9782,济南市,济阳区政府,颗粒物(PM10),52,54,87,22,31,133,,172,146,23,22,6,6,0.6,0.6
2024-05-10T0000,3495A,117.1171,36.63,济南市,锦屏中学,颗粒物(PM10),67,83,54,17,17,147,,174,165,8,8,7,7,0.4,0.3
2024-05-10T0000,3682A,116.9814,36.6819,济南市,济南四建,颗粒物(PM10),68,85,83,20,18,135,,162,152,13,12,7,8,0.3,0.3
2024-05-10T0000,1653A,116.6251,35.4302,济宁市,火炬城,,47,47,63,9,15,117,,165,144,13,10,9,10,0.5,0.5
2024-05-10T0000,1655A,116.5491,35.4042,济宁市,电化厂,颗粒物(PM10),62,73,76,14,24,135,,164,147,8,9,8,8,0.7,0.6
2024-05-10T0000,3500A,116.5814,35.3707,济宁市,北湖一中,颗粒物(PM10),55,60,63,17,20,123,,158,136,11,9,2,6,0.4,0.3
2024-05-10T0000,3501A,116.8249,35.5593,济宁市,服务中心,颗粒物(PM10),56,62,76,18,21,104,,159,132,15,15,4,6,0.7,0.5
2024-05-10T0000,3678A,116.5907,35.4054,济宁市,市第七中学,颗粒物(PM10),53,55,63,9,15,131,,168,150,13,11,7,8,0.5,0.5
2024-05-10T0000,2255A,130.2751,46.8028,佳木斯市,佳纺,颗粒物(PM10),56,62,34,35,18,20,,90,54,50,12,4,3,0.6,0.3
2024-05-10T0000,2256A,130.3995,46.8307,佳木斯市,发电厂,,29,29,40,16,13,49,,91,68,19,6,4,4,0.4,0.4
2024-05-10T0000,2257A,130.3258,46.7975,佳木斯市,环保局,,49,49,34,33,14,28,,90,59,40,11,4,4,0.5,0.3
2024-05-10T0000,2258A,130.3648,46.8032,佳木斯市,十一中,,49,46,30,34,14,29,,93,62,47,14,5,4,0.5,0.4
2024-05-10T0000,2259A,130.3794,46.7588,佳木斯市,四丰,,33,33,21,0,2,57,,93,74,9,7,1,7,0.5,0.4
2024-05-10T0000,1252A,120.7436,30.778,嘉兴市,清河小学,,30,30,23,11,10,64,,121,89,33,23,6,5,0.6,0.5
2024-05-10T0000,1253A,120.726,30.7478,嘉兴市,嘉兴学院,,26,26,24,11,9,64,,125,93,21,12,8,6,0.5,0.4
2024-05-10T0000,2872A,120.7846,30.7525,嘉兴市,南湖区残联,,24,24,27,12,10,72,,130,96,25,19,8,7,0.4,0.4
2024-05-10T0000,3407A,120.6916,30.7739,嘉兴市,秀洲住建,,28,28,21,13,11,71,,133,97,19,12,8,6,0.5,0.4
2024-05-10T0000,1945A,98.2908,39.7711,嘉峪关市,气象局,颗粒物(PM10),184,317,97,41,30,92,,111,99,24,24,17,18,1.0,0.8
2024-05-10T0000,2884A,98.2672,39.7978,嘉峪关市,酒钢宾馆,颗粒物(PM10),476,576,103,58,30,85,,114,111,36,16,32,37,0.5,0.5
2024-05-10T0000,3248A,98.2643,39.7724,嘉峪关市,雄关区,颗粒物(PM10),148,245,70,30,25,97,,112,107,22,19,10,12,0.5,0.5
2024-05-10T0000,1383A,113.1064,22.6058,江门市,北街,,44,44,41,20,23,116,,177,138,24,22,4,4,0.6,0.6
2024-05-10T0000,1384A,113.0731,22.5835,江门市,西区,,40,35,44,25,24,128,,186,152,23,22,8,8,0.4,0.5
2024-05-10T0000,1385A,113.0219,22.5311,江门市,圭峰西,,38,38,41,22,19,115,,182,152,26,16,5,4,0.7,0.7
2024-05-10T0000,1386A,113.0828,22.5947,江门市,东湖,,38,38,39,17,19,111,,173,139,24,19,8,7,0.6,0.7
2024-05-10T0000,3311A,113.1075,22.5647,江门市,江海富民,颗粒物(PM10),56,62,51,25,27,129,,184,150,22,25,5,5,0.5,0.6
2024-05-10T0000,3449A,113.05,22.4667,江门市,新会银湖,,46,46,41,20,18,106,,180,144,26,19,5,3,0.6,0.6
2024-05-10T0000,1828A,113.227,35.2125,焦作市,市环保局,颗粒物(PM10),56,61,69,26,39,133,,188,160,12,16,3,6,0.5,0.5
2024-05-10T0000,1830A,113.1992,35.2590,焦作市,影视城,,,,,,,,,,,,,,,,
2024-05-10T0000,3169A,113.2725,35.2067,焦作市,太极体育中心,颗粒物(PM10),63,75,87,31,38,128,,189,159,16,22,4,10,0.3,0.3
2024-05-10T0000,3335A,113.3137,35.2641,焦作市,马村街道办,颗粒物(PM10),54,57,82,36,40,115,,190,160,21,16,10,6,0.7,0.6
2024-05-10T0000,3336A,113.2465,35.2373,焦作市,焦作技师学院,颗粒物(PM10),59,67,74,29,36,112,,168,144,16,18,4,6,0.4,0.4
2024-05-10T0000,3477A,113.1656,35.2539,焦作市,中站许衡医院,颗粒物(PM10),55,59,68,31,37,130,,177,155,9,15,7,9,0.4,0.4
2024-05-10T0000,3981A,113.2449,35.1803,焦作市,原李万街道办,颗粒物(PM10),53,55,78,24,31,121,,169,143,10,15,6,10,0.4,0.4
2024-05-10T0000,1708A,116.3701,23.5345,揭阳市,新兴,,46,46,52,27,30,126,,188,151,12,17,6,9,0.5,0.7
2024-05-10T0000,1709A,116.3264,23.5443,揭阳市,西马,,50,50,56,24,30,122,,185,154,11,16,7,8,0.6,0.8
2024-05-10T0000,1710A,116.3611,23.5626,揭阳市,东兴,,49,49,59,22,26,129,,186,156,6,13,7,11,0.6,0.8
2024-05-10T0000,1711A,116.4151,23.5294,揭阳市,渔湖,,41,41,53,21,19,120,,180,147,8,14,7,10,0.6,0.8
2024-05-10T0000,3320A,116.403,23.5699,揭阳市,曲溪,,48,48,54,26,30,125,,191,155,11,17,11,10,0.6,0.7
2024-05-10T0000,1944A,102.1692,38.5167,金昌市,天庆家园,颗粒物(PM10),118,186,125,41,39,121,,136,124,4,15,7,13,0.6,0.6
2024-05-10T0000,3170A,102.1864,38.5253,金昌市,市委党校,颗粒物(PM10),113,176,172,68,64,127,,143,130,2,12,8,31,0.4,0.5
2024-05-10T0000,4022A,102.1647,38.5371,金昌市,金川区人防中心,颗粒物(PM10),144,237,152,44,48,125,,139,127,2,11,8,22,0.9,0.6
2024-05-10T0000,1262A,119.647,29.077,金华市,十五中,,41,41,63,23,34,100,,185,121,20,25,4,5,0.4,0.5
2024-05-10T0000,1263A,119.686,29.1029,金华市,监测站,颗粒物(PM10),64,77,70,42,36,66,,177,114,45,29,4,4,0.6,0.5
2024-05-10T0000,3659A,119.656,29.1131,金华市,气象局,颗粒物(PM10),59,67,62,40,38,73,,192,113,48,33,6,6,0.6,0.6
2024-05-10T0000,1767A,121.1115,41.0879,锦州市,南山,颗粒物(PM10),87,124,120,27,34,87,,121,106,40,18,11,13,0.5,0.5
2024-05-10T0000,1768A,121.0533,40.8434,锦州市,开发区,颗粒物(PM10),90,130,175,56,35,127,,108,108,26,30,30,16,0.8,0.7
2024-05-10T0000,1769A,121.1836,41.1119,锦州市,百股街道,颗粒物(PM10),97,144,130,27,34,122,,118,115,25,20,12,12,0.6,0.6
2024-05-10T0000,1770A,121.1178,41.1222,锦州市,天安街道,颗粒物(PM10),96,141,133,24,25,93,,108,100,34,18,12,16,0.6,0.7
2024-05-10T0000,1771A,121.1303,41.1386,锦州市,北湖公园,颗粒物(PM10),83,116,90,21,26,102,,111,104,32,18,9,13,0.6,0.6
2024-05-10T0000,2160A,112.85,35.5051,晋城市,自来水公司,颗粒物(PM10),59,68,75,24,35,130,,187,176,21,25,9,13,0.7,0.8
2024-05-10T0000,2161A,112.8318,35.4936,晋城市,白云商贸,颗粒物(PM10),59,68,69,19,35,135,,193,183,22,25,12,9,0.6,0.7
2024-05-10T0000,2162A,112.8508,35.4887,晋城市,市环保局,颗粒物(PM10),61,71,104,29,36,128,,189,177,22,36,10,9,0.6,0.7
2024-05-10T0000,2163A,112.8676,35.4897,晋城市,技术学院,颗粒物(PM10),53,56,68,29,38,125,,187,173,25,30,9,9,0.8,0.8
2024-05-10T0000,2165A,112.8453,35.546,晋城市,白马寺,,,,,,,,,,,,,,,,
2024-05-10T0000,3620A,112.8271,35.4828,晋城市,泽州一中,颗粒物(PM10),67,84,76,17,32,146,,191,183,18,26,12,10,0.9,0.8
2024-05-10T0000,2171A,112.7532,37.6945,晋中市,锦纶小区,,46,46,69,22,27,116,,178,127,22,23,11,12,0.4,0.5
2024-05-10T0000,2173A,112.7249,37.7067,晋中市,南都小区,,45,39,66,31,32,116,,180,130,20,19,8,11,0.5,0.6
2024-05-10T0000,2174A,112.6991,37.6982,晋中市,榆次区政府,,44,44,65,29,34,102,,178,121,25,21,8,12,0.9,0.6
2024-05-10T0000,2865A,112.7195,37.6828,晋中市,榆次三中,,39,39,71,19,28,111,,180,124,21,23,9,12,0.6,0.7
2024-05-10T0000,2439A,112.2014,31.0481,荆门市,竹园小学,颗粒物(PM10),55,60,71,33,39,125,,180,156,17,26,12,15,0.5,0.6
2024-05-10T0000,2440A,112.1969,30.9891,荆门市,掇刀,细颗粒物(PM2.5),60,65,76,43,45,118,,177,149,22,28,11,14,0.5,0.6
2024-05-10T0000,2441A,112.2213,31.0386,荆门市,石化一小,颗粒物(PM10),57,63,86,36,44,125,,182,151,20,32,10,22,0.7,0.8
2024-05-10T0000,3012A,112.1849,31.0362,荆门市,西山林语,细颗粒物(PM2.5),57,60,60,40,38,114,,182,159,17,17,12,12,0.5,0.5
2024-05-10T0000,3547A,112.1632,31.0138,荆门市,龙泉中学南校,细颗粒物(PM2.5),73,73,70,53,41,98,,178,145,22,22,12,13,0.5,0.5
2024-05-10T0000,1844A,112.2494,30.3197,荆州市,市图书馆,细颗粒物(PM2.5),74,67,69,54,50,106,,164,,22,40,14,10,0.6,0.7
2024-05-10T0000,1845A,112.2008,30.3544,荆州市,市委党校,细颗粒物(PM2.5),77,61,66,56,49,109,,167,141,24,28,10,9,0.7,0.7
2024-05-10T0000,3194A,112.2747,30.3122,荆州市,管委会,细颗粒物(PM2.5),64,72,65,46,46,104,,169,136,28,29,11,8,0.6,0.6
2024-05-10T0000,3548A,112.1655,30.3364,荆州市,学苑路,细颗粒物(PM2.5),88,,60,65,60,98,,178,128,25,27,6,7,0.7,0.6
2024-05-10T0000,2342A,117.3102,29.3867,景德镇市,王港中学,,,,,,,,,,,,,,,,
2024-05-10T0000,2343A,117.2117,29.2933,景德镇市,老干部活动中心,颗粒物(PM10),55,60,46,38,31,25,,161,106,38,14,8,7,0.4,0.4
2024-05-10T0000,2344A,117.1894,29.2789,景德镇市,兽医站,,50,50,49,29,28,68,,168,113,18,12,6,9,0.6,0.5
2024-05-10T0000,2345A,117.1547,29.2617,景德镇市,台达陶瓷,颗粒物(PM10),71,92,45,49,32,50,,163,97,58,27,21,25,0.8,0.5
2024-05-10T0000,2346A,117.2461,29.2956,景德镇市,陶研所,,50,50,41,21,20,39,,143,96,28,24,4,4,0.3,0.3
2024-05-10T0000,1803A,115.9872,29.6815,九江市,十里,细颗粒物(PM2.5),64,62,57,46,36,36,,179,115,48,26,8,16,0.8,0.8
2024-05-10T0000,1804A,115.9584,29.7046,九江市,茅山头,细颗粒物(PM2.5),79,76,57,58,37,75,,172,119,57,32,13,14,0.6,0.7
2024-05-10T0000,1805A,115.9877,29.7295,九江市,西园,细颗粒物(PM2.5),89,85,56,66,38,27,,163,108,78,31,18,17,1.0,0.8
2024-05-10T0000,1806A,116.0172,29.6547,九江市,五七二七厂,,48,48,56,23,31,105,,163,131,8,15,10,23,0.6,0.6
2024-05-10T0000,1808A,115.9114,29.6038,九江市,综合工业园,颗粒物(PM10),63,75,63,39,43,92,,166,119,42,38,11,14,0.8,0.9
2024-05-10T0000,1809A,116.0721,29.7535,九江市,石化总厂,细颗粒物(PM2.5),105,103,64,79,39,77,,156,126,38,35,20,15,1.1,0.8
2024-05-10T0000,1810A,115.9773,29.5698,九江市,庐山气象台,,45,21,25,18,16,144,,152,145,2,5,6,9,0.5,0.8
2024-05-10T0000,3190A,116.0254,29.6994,九江市,外国语学校,细颗粒物(PM2.5),124,,66,94,43,4,,182,123,96,33,15,14,1.3,1.1
2024-05-10T0000,2658A,98.5061,39.7443,酒泉市,仓门街子站,颗粒物(PM10),76,102,84,29,25,94,,110,94,10,11,9,10,0.3,0.3
2024-05-10T0000,2659A,98.4989,39.7256,酒泉市,油田生活基地,颗粒物(PM10),85,119,90,26,29,97,,109,95,10,12,12,13,0.2,0.3
2024-05-10T0000,2698A,76.0072,39.4467,喀什地区,巡警大队,颗粒物(PM10),93,136,112,41,24,47,,143,121,97,38,4,5,0.7,0.4
2024-05-10T0000,2699A,75.9755,39.4694,喀什地区,吾办,颗粒物(PM10),98,146,108,57,40,21,,138,107,100,36,8,5,1.4,0.5
2024-05-10T0000,4027A,75.9483,39.4689,喀什地区,老干局,颗粒物(PM10),159,267,235,61,37,14,,140,110,108,50,7,6,1.0,0.5
2024-05-10T0000,1824A,114.3389,34.7781,开封市,肿瘤医院,颗粒物(PM10),60,69,80,20,21,125,,154,135,10,14,6,5,0.4,0.3
2024-05-10T0000,1826A,114.2885,34.7965,开封市,世纪星幼儿园,颗粒物(PM10),55,59,84,38,33,114,,151,133,12,13,9,7,0.4,0.4
2024-05-10T0000,3147A,114.3438,34.8106,开封市,龙亭公园,,45,45,64,22,23,124,,157,138,9,11,7,7,0.4,0.3
2024-05-10T0000,3210A,114.3644,34.7964,开封市,汴京公园,颗粒物(PM10),97,143,118,24,27,122,,159,138,15,13,13,7,0.5,0.4
2024-05-10T0000,3473A,114.2485,34.8306,开封市,技师学院,颗粒物(PM10),126,202,115,43,34,120,,158,137,13,14,8,6,0.4,0.2
2024-05-10T0000,3592A,114.4644,34.7556,开封市,祥符区生态环境局,颗粒物(PM10),77,104,121,24,28,118,,141,126,18,21,8,9,0.4,0.3
2024-05-10T0000,1951A,84.895,45.6094,克拉玛依市,长征新村,颗粒物(PM10),78,105,25,28,8,32,,118,92,55,18,9,8,0.7,0.3
2024-05-10T0000,1952A,84.8988,45.5893,克拉玛依市,南林小区,颗粒物(PM10),64,78,28,40,12,8,,117,77,86,25,9,7,1.5,0.4
2024-05-10T0000,1954A,84.905,44.3396,克拉玛依市,独山子区,,37,37,19,10,10,103,,132,127,11,7,8,11,0.3,0.3
2024-05-10T0000,1955A,85.6979,46.098,克拉玛依市,乌尔禾区商贸楼,,19,19,13,8,6,59,,119,103,18,10,9,9,0.2,0.2
2024-05-10T0000,3612A,85.1045,45.6899,克拉玛依市,白碱滩区新站,,27,27,19,16,10,78,,121,110,17,10,7,7,0.1,0.1
2024-05-10T0000,2697A,76.1454,39.7142,克孜勒苏柯尔克孜自治州,市人民政府,颗粒物(PM10),77,104,64,34,24,74,,147,121,32,11,7,9,0.5,0.4
2024-05-10T0000,3665A,76.1658,39.7157,克孜勒苏柯尔克孜自治州,克州文化中心,颗粒物(PM10),69,87,74,25,28,70,,145,126,48,11,8,12,0.3,0.4
2024-05-10T0000,1450A,102.8204,24.8886,昆明市,呈贡新区,,24,24,23,9,14,74,,120,89,20,13,3,9,0.7,0.7
2024-05-10T0000,1451A,102.6251,24.9608,昆明市,西山森林公园,,,,,,,,,,,,,,,,
2024-05-10T0000,1452A,102.7252,25.0902,昆明市,龙泉镇,,25,21,22,13,14,78,,112,69,16,20,6,7,0.8,0.7
2024-05-10T0000,1453A,102.7266,25.0375,昆明市,东风东路,,26,26,22,17,16,75,,109,81,14,18,5,7,0.6,0.6
2024-05-10T0000,1454A,102.6742,25.0669,昆明市,金鼎山,,25,21,24,12,14,79,,113,83,13,19,1,2,0.6,0.6
2024-05-10T0000,1455A,102.6644,25.0401,昆明市,碧鸡广场,,28,27,20,19,10,63,,110,80,21,17,4,5,0.7,0.7
2024-05-10T0000,3179A,102.7494,25.0119,昆明市,官渡区博物馆,,30,13,24,12,14,94,,121,81,8,18,8,9,0.6,0.6
2024-05-10T0000,3375A,102.8017,24.8336,昆明市,青年创业园,,23,16,21,11,16,71,,122,87,20,19,7,7,0.6,0.6
2024-05-10T0000,3550A,102.7997,24.9786,昆明市,昆明学院,,28,22,22,14,15,88,,120,90,14,16,9,10,0.6,0.6
2024-05-10T0000,3551A,102.5967,24.6736,昆明市,晋宁区生态环境分局,,35,30,26,24,23,83,,115,96,11,11,1,1,0.9,0.7
2024-05-10T0000,3552A,102.6678,24.9856,昆明市,云天化总部,,28,22,17,19,14,80,,118,92,7,10,6,6,0.7,0.8
2024-05-10T0000,1456A,91.1319,29.6514,拉萨市,八廓街,,47,7,11,6,8,148,,156,152,6,8,8,8,0.4,0.4
2024-05-10T0000,1457A,91.1221,29.6747,拉萨市,市环保局,,41,11,11,7,6,131,,148,146,18,17,6,6,0.4,0.4
2024-05-10T0000,1458A,91.0874,29.6475,拉萨市,区监测站,,45,9,9,6,6,142,,151,149,12,13,5,5,0.2,0.1
2024-05-10T0000,1459A,91.1774,29.6541,拉萨市,西藏大学,,36,7,9,5,6,113,,157,136,8,7,3,4,0.4,0.3
2024-05-10T0000,1460A,90.9798,29.6588,拉萨市,区辐射站,,40,12,10,6,7,126,,144,135,19,13,6,6,0.5,0.4
2024-05-10T0000,1461A,91.0834,29.6292,拉萨市,拉萨火车站,,42,7,10,7,6,134,,151,148,16,13,6,7,0.3,0.3
2024-05-10T0000,2520A,109.2203,23.7256,来宾市,来宾技工学校,,20,17,28,14,22,40,,55,45,13,11,5,6,0.9,0.9
2024-05-10T0000,3535A,109.1781,23.7297,来宾市,兴宾区政府,,17,17,26,7,19,28,,54,44,12,12,5,5,0.8,0.8
2024-05-10T0000,4002A,109.2416,23.7461,来宾市,中南小学,,18,,28,12,20,35,,55,42,15,11,4,6,0.9,0.9
2024-05-10T0000,1476A,103.631,36.1031,兰州市,兰炼宾馆,颗粒物(PM10),67,83,49,28,27,29,,158,108,85,30,7,7,0.5,0.3
2024-05-10T0000,1477A,104.1373,35.9454,兰州市,榆中兰大校区,,,,,,,,,,,,,,,,
2024-05-10T0000,1478A,103.8412,36.0726,兰州市,生物制品所,,46,,43,32,36,87,,144,116,22,20,11,11,0.3,0.3
2024-05-10T0000,1479A,103.831,36.0464,兰州市,铁路设计院,,45,45,42,26,21,61,,145,109,49,29,10,11,0.4,0.4
2024-05-10T0000,3186A,103.7158,36.1058,兰州市,教育港,颗粒物(PM10),62,74,49,37,29,55,,160,126,47,16,8,8,0.4,0.3
2024-05-10T0000,3241A,103.7439,36.0842,兰州市,百合公园,细颗粒物(PM2.5),62,58,38,44,22,32,,151,116,64,21,4,3,0.5,0.3
2024-05-10T0000,3242A,103.9611,35.998,兰州市,和平,颗粒物(PM10),52,53,46,24,20,83,,149,122,28,14,9,9,0.5,0.5
2024-05-10T0000,3245A,103.6633,36.533,兰州新区,新区管委会,颗粒物(PM10),66,82,58,35,23,117,,145,134,10,13,4,11,0.4,0.4
2024-05-10T0000,3246A,103.6975,36.4789,兰州新区,舟曲中学,颗粒物(PM10),74,98,62,30,21,121,,151,138,14,12,41,17,0.4,0.4
2024-05-10T0000,1067A,116.6708,39.5111,廊坊市,药材公司,颗粒物(PM10),64,77,85,34,41,124,,198,162,14,18,4,8,0.4,0.5
2024-05-10T0000,1068A,116.7214,39.5589,廊坊市,开发区,颗粒物(PM10),66,82,89,27,38,127,,193,162,15,18,4,7,0.5,0.5
2024-05-10T0000,1070A,116.7244,39.5269,廊坊市,北华航天学院,颗粒物(PM10),74,97,99,27,35,123,,190,157,14,17,3,7,0.4,0.5
2024-05-10T0000,2919A,116.7022,39.5453,廊坊市,河北工业大学,颗粒物(PM10),67,84,96,32,37,126,,192,161,14,18,1,7,0.4,0.4
2024-05-10T0000,2535A,103.7723,29.5462,乐山市,花湖湾,,35,34,23,24,22,73,,96,83,11,10,3,3,0.6,0.6
2024-05-10T0000,2536A,103.7627,29.5844,乐山市,牛耳桥,,38,36,31,26,22,78,,101,84,17,17,6,5,0.6,0.6
2024-05-10T0000,2537A,103.7508,29.6006,乐山市,市第三水厂,,35,33,30,24,20,78,,105,92,17,13,5,4,0.5,0.5
2024-05-10T0000,2538A,103.7571,29.5664,乐山市,市监测站,,30,30,28,17,21,88,,99,92,11,12,5,6,0.5,0.7
2024-05-10T0000,3361A,103.7311,29.5628,乐山市,理工大学,,36,34,32,25,24,86,,108,91,12,12,9,10,0.6,0.5
2024-05-10T0000,2598A,100.2143,26.8576,丽江市,西南郊,,,,,,,,,,,,,,,,
2024-05-10T0000,2599A,100.2497,26.8802,丽江市,丽江古城,,28,25,32,16,18,89,,104,95,8,13,6,7,0.5,0.5
2024-05-10T0000,2600A,100.2203,26.8906,丽江市,市中心,,28,16,25,12,14,88,,104,93,8,11,8,8,0.5,0.7
2024-05-10T0000,1267A,119.914,28.4514,丽水市,监测站大楼,,33,33,51,7,31,102,,162,137,13,12,4,3,0.3,0.5
2024-05-10T0000,1268A,119.93,28.4586,丽水市,莲都小学,,33,29,54,10,35,105,,164,143,14,14,5,4,0.3,0.5
2024-05-10T0000,1269A,119.879,28.4231,丽水市,余庄前,,34,30,51,16,34,107,,163,130,12,13,4,3,0.3,0.5
2024-05-10T0000,1173A,119.176,34.5885,连云港市,市环境监测站,细颗粒物(PM2.5),55,58,55,39,32,105,,146,128,20,22,9,8,0.4,0.4
2024-05-10T0000,3000A,119.3581,34.6972,连云港市,德源药业,,46,46,44,24,21,105,,152,139,22,17,7,7,0.5,0.4
2024-05-10T0000,3007A,119.178,34.844,连云港市,新城一中,颗粒物(PM10),62,74,68,31,32,141,,159,145,19,27,9,9,0.7,0.6
2024-05-10T0000,3008A,119.3608,34.7519,连云港市,胡沟管理处,,46,46,42,17,19,123,,154,151,15,16,9,8,0.4,0.4
2024-05-10T0000,3009A,119.1478,34.5911,连云港市,矿山设计院,颗粒物(PM10),65,80,62,39,29,108,,146,129,21,20,10,9,0.7,0.6
2024-05-10T0000,3434A,119.2413,34.6539,连云港市,工贸学校,颗粒物(PM10),54,57,55,31,25,128,,159,155,13,10,11,9,0.6,0.6
2024-05-10T0000,3664A,119.4172,34.7341,连云港市,连云街道,颗粒物(PM10),52,54,45,28,24,115,,158,153,24,16,7,5,0.8,0.6
2024-05-10T0000,2571A,102.3431,27.8099,凉山彝族自治州,青龙寺,,22,15,15,3,2,69,,123,106,13,7,6,6,0.5,0.5
2024-05-10T0000,2572A,102.2721,27.8415,凉山彝族自治州,邛海宾馆,,30,,22,15,14,93,,127,112,13,10,12,9,0.6,0.7
2024-05-10T0000,2573A,102.2625,27.898,凉山彝族自治州,西昌市政府,,24,21,26,15,17,74,,131,108,9,11,11,10,0.5,0.7
2024-05-10T0000,2574A,102.2685,27.8851,凉山彝族自治州,凉山州政府,,32,19,25,15,17,100,,130,116,9,12,16,9,0.6,0.7
2024-05-10T0000,2575A,102.237,27.8914,凉山彝族自治州,长安,,35,21,29,14,16,109,,139,127,9,15,17,12,0.8,0.9
2024-05-10T0000,2212A,123.2,41.1953,辽阳市,宏伟区,颗粒物(PM10),55,60,142,30,28,124,,124,105,10,21,10,14,0.7,0.9
2024-05-10T0000,2213A,123.1683,41.2495,辽阳市,新华园,颗粒物(PM10),60,70,146,35,33,119,,126,86,13,29,11,15,0.6,0.8
2024-05-10T0000,2214A,123.2354,41.2639,辽阳市,滨河路,颗粒物(PM10),63,75,160,36,39,116,,127,97,11,19,8,11,0.5,0.6
2024-05-10T0000,2215A,123.149,41.2991,辽阳市,铁西工业园,颗粒物(PM10),79,108,145,57,52,111,,121,92,15,23,11,17,0.6,0.7
2024-05-10T0000,2227A,125.1358,42.8845,辽源市,环保局,,50,50,42,25,15,50,,120,82,35,16,8,8,0.6,0.5
2024-05-10T0000,3239A,125.0764,42.9078,辽源市,银鹰制药,,49,49,62,30,17,54,,111,64,34,22,13,10,0.5,0.5
2024-05-10T0000,1625A,115.9848,36.4372,聊城市,区政府,颗粒物(PM10),58,66,87,25,22,139,,153,140,12,14,6,7,0.6,0.6
2024-05-10T0000,2878A,116.0072,36.4343,聊城市,聊大东校,,44,44,71,22,24,137,,156,140,14,16,11,10,0.6,0.6
2024-05-10T0000,3200A,115.9819,36.4978,聊城市,监控中心,颗粒物(PM10),91,132,93,14,15,147,,159,148,9,10,9,9,0.4,0.5
2024-05-10T0000,3513A,116.0445,36.4361,聊城市,九州社区,颗粒物(PM10),60,69,82,16,17,138,,159,143,11,11,16,10,0.4,0.4
2024-05-10T0000,4018A,116.0567,36.4608,聊城市,星美广场,颗粒物(PM10),58,66,100,29,27,134,,152,137,10,11,8,9,0.5,0.5
2024-05-10T0000,2632A,94.3681,29.6376,林芝市,林芝监测站,,35,3,13,3,8,109,,127,122,1,3,6,6,0.4,0.5
2024-05-10T0000,2633A,94.3616,29.6616,林芝市,林芝人民医院,,36,5,19,3,9,113,,130,125,3,6,7,7,0.3,0.4
2024-05-10T0000,2603A,100.0781,23.8982,临沧市,市环保局,,46,39,39,32,34,41,,103,75,11,13,6,11,0.4,0.4
2024-05-10T0000,2604A,100.0894,23.8822,临沧市,市气象局,细颗粒物(PM2.5),52,40,36,36,33,40,,104,84,15,14,6,10,0.7,0.6
2024-05-10T0000,1733A,111.5531,36.0783,临汾市,临钢医院,颗粒物(PM10),69,88,83,27,34,123,,173,144,20,17,9,8,0.7,0.7
2024-05-10T0000,1734A,111.5028,36.0714,临汾市,技工学校,颗粒物(PM10),67,83,78,38,43,130,,186,139,24,20,9,10,0.6,0.8
2024-05-10T0000,1736A,111.5018,36.0855,临汾市,市委,颗粒物(PM10),61,71,86,28,36,141,,189,152,14,11,12,10,1.0,1.1
2024-05-10T0000,3018A,111.505,36.1014,临汾市,唐尧大酒店,颗粒物(PM10),65,79,94,29,37,123,,169,135,21,15,12,10,0.8,0.9
2024-05-10T0000,3668A,111.5036,36.0414,临汾市,城南,颗粒物(PM10),52,54,86,34,44,134,,183,147,22,21,9,8,0.6,0.8
2024-05-10T0000,2667A,103.2069,35.5993,临夏回族自治州,环保局,,46,46,62,24,27,108,,146,130,5,16,5,6,0.2,0.4
2024-05-10T0000,2668A,103.2417,35.6057,临夏回族自治州,建设大厦,颗粒物(PM10),53,56,52,26,25,120,,152,140,3,8,11,10,0.2,0.3
2024-05-10T0000,1618A,118.3429,35.0532,临沂市,沂河小区,细颗粒物(PM2.5),67,58,54,48,36,125,,159,138,23,21,12,13,0.4,0.4
2024-05-10T0000,1619A,118.295,35.0583,临沂市,鲁南制药厂,颗粒物(PM10),58,66,53,29,28,131,,167,150,27,21,17,12,0.4,0.4
2024-05-10T0000,1620A,118.2794,34.9976,临沂市,新光毛纺厂,颗粒物(PM10),53,56,53,34,29,131,,161,145,20,22,18,12,0.6,0.5
2024-05-10T0000,1621A,118.3956,35.0888,临沂市,河东保险公司,细颗粒物(PM2.5),64,73,45,46,22,94,,160,140,53,20,20,10,0.4,0.2
2024-05-10T0000,3370A,118.3564,35.0215,临沂市,十里堡居委,颗粒物(PM10),51,51,58,34,31,125,,165,148,23,25,8,15,0.5,0.6
2024-05-10T0000,3496A,118.3604,35.1084,临沂市,南坊新区,颗粒物(PM10),52,53,46,24,23,124,,154,141,22,20,12,12,0.6,0.4
2024-05-10T0000,3860A,118.3920,35.0300,临沂市,皇山花园小区,细颗粒物(PM2.5),57,56,53,40,30,122,,159,144,21,22,17,15,0.5,0.5
2024-05-10T0000,1870A,109.4856,24.3895,柳州市,柳东小学,,20,20,25,12,20,62,,69,66,10,10,9,8,0.6,0.6
2024-05-10T0000,1871A,109.4157,24.3277,柳州市,环保监测站,,16,15,33,8,22,50,,50,50,16,18,7,8,0.8,0.8
2024-05-10T0000,1872A,109.389,24.341,柳州市,河西水厂,,19,15,30,13,19,52,,49,49,13,12,6,8,0.9,0.8
2024-05-10T0000,1873A,109.4311,24.2921,柳州市,市四中,,26,18,27,18,23,46,,52,51,21,16,7,6,0.8,0.9
2024-05-10T0000,1874A,109.4006,24.3631,柳州市,市九中,,22,19,33,15,22,56,,56,56,14,19,6,8,0.6,0.8
2024-05-10T0000,1875A,109.4958,24.3134,柳州市,古亭山,,23,16,30,16,20,55,,61,54,14,11,6,5,0.5,0.5
2024-05-10T0000,3402A,109.5422,24.3996,柳州市,市二中,,23,16,28,16,18,62,,68,64,12,13,9,7,0.5,0.5
2024-05-10T0000,2307A,116.5079,31.737,六安市,监测大楼,,46,36,38,32,26,117,,171,153,14,15,5,5,0.5,0.5
2024-05-10T0000,2308A,116.4738,31.7643,六安市,皖西学院,,44,44,49,27,22,119,,178,159,17,16,4,4,0.5,0.5
2024-05-10T0000,2309A,116.4996,31.7905,六安市,朝阳厂,,48,39,43,33,26,115,,169,148,11,16,6,6,0.4,0.3
2024-05-10T0000,2310A,116.5567,31.7886,六安市,开发区,细颗粒物(PM2.5),134,155,58,102,39,115,,169,148,23,23,8,13,1.6,0.6
2024-05-10T0000,2576A,104.8,26.5892,六盘水市,窑上,,,,,,,,,,,,,,,,
2024-05-10T0000,2577A,104.83,26.5917,六盘水市,黄土坡,,26,10,12,5,9,81,,97,81,8,10,5,5,0.5,0.5
2024-05-10T0000,2578A,104.89,26.5939,六盘水市,水钢,,29,,13,9,11,92,,103,90,3,5,7,7,0.3,0.3
2024-05-10T0000,2579A,104.8475,26.5894,六盘水市,民中,,26,11,11,5,8,81,,97,82,9,9,5,6,0.5,0.4
2024-05-10T0000,2580A,104.9544,26.5506,六盘水市,双水,,30,,7,5,6,95,,109,90,3,5,6,6,0.3,0.4
2024-05-10T0000,2335A,117.0189,25.1181,龙岩市,龙岩师专,,,,,,,,,,,,,,,,
2024-05-10T0000,2336A,117.0217,25.1033,龙岩市,龙岩市监测站,细颗粒物(PM2.5),54,56,43,38,31,15,,108,66,74,23,6,10,0.6,0.6
2024-05-10T0000,2337A,117.0258,25.0661,龙岩市,闽西职业技术学院,细颗粒物(PM2.5),63,53,45,45,32,76,,99,89,24,22,25,11,0.6,0.6
2024-05-10T0000,2338A,117.0196,25.0306,龙岩市,龙岩学院,细颗粒物(PM2.5),53,45,42,37,28,71,,100,74,12,18,7,5,0.7,0.6
2024-05-10T0000,2665A,105.0822,33.3261,陇南市,汉王镇固水子,,,,,,,,,,,,,,,,
2024-05-10T0000,2885A,104.9339,33.3826,陇南市,滨江中学,颗粒物(PM10),51,52,53,19,18,82,,107,95,2,5,5,8,0.6,0.6
2024-05-10T0000,3247A,104.955,33.371,陇南市,市总工会,,30,30,34,9,8,77,,101,92,4,5,5,6,0.8,0.7
2024-05-10T0000,2487A,111.9589,27.8901,娄底市,电视发射台,,41,41,42,28,26,68,,87,87,6,7,6,6,0.8,0.8
2024-05-10T0000,2488A,111.9975,27.725,娄底市,市监测站,,36,36,74,18,43,115,,122,121,6,32,5,7,0.6,0.9
2024-05-10T0000,2489A,112.0194,27.7314,娄底市,市委党校,,40,32,66,28,45,114,,116,116,7,21,8,8,0.3,0.6
2024-05-10T0000,2490A,111.9561,27.7569,娄底市,涟钢,颗粒物(PM10),57,64,66,31,43,101,,101,101,29,28,28,15,0.5,0.8
2024-05-10T0000,2491A,111.9892,27.7044,娄底市,市政府,,39,34,71,27,51,118,,127,126,6,16,7,8,0.7,1
2024-05-10T0000,1893A,105.4324,28.9634,泸州市,九狮山,颗粒物(PM10),57,63,36,34,24,18,,65,48,20,13,5,5,0.5,0.4
2024-05-10T0000,1894A,105.4427,28.9063,泸州市,小市上码头,细颗粒物(PM2.5),62,59,46,44,32,25,,71,61,37,14,5,5,0.5,0.4
2024-05-10T0000,1895A,105.4241,28.8573,泸州市,兰田宪桥,细颗粒物(PM2.5),64,69,50,46,34,21,,67,51,23,13,5,6,0.5,0.4
2024-05-10T0000,1896A,105.4379,28.8833,泸州市,市环监站,细颗粒物(PM2.5),69,67,47,50,35,37,,65,57,29,17,7,7,0.7,0.5
2024-05-10T0000,3490A,105.3617,28.7703,泸州市,纳溪区环保局,细颗粒物(PM2.5),67,50,36,48,28,28,,69,53,30,18,2,2,0.5,0.4
2024-05-10T0000,2183A,111.1406,37.5211,吕梁市,环保局,颗粒物(PM10),68,86,69,29,29,3,,114,42,77,41,5,5,0.6,0.6
2024-05-10T0000,2185A,111.1297,37.5136,吕梁市,自来水公司,颗粒物(PM10),60,69,66,31,31,20,,117,58,61,32,6,6,0.7,0.6
2024-05-10T0000,2867A,111.1283,37.51,吕梁市,马茂庄小学,颗粒物(PM10),72,93,71,33,31,2,,120,48,85,47,4,4,0.6,0.6
2024-05-10T0000,1812A,112.3931,34.6516,洛阳市,市委党校,颗粒物(PM10),58,65,64,36,38,146,,176,162,13,12,8,8,0.6,0.6
2024-05-10T0000,1814A,112.4657,34.6871,洛阳市,豫西宾馆,颗粒物(PM10),62,74,77,28,34,154,,177,164,15,17,16,9,0.6,0.5
2024-05-10T0000,1815A,112.494,34.6886,洛阳市,河南林校,颗粒物(PM10),52,53,61,30,37,155,,174,165,15,21,8,12,0.4,0.5
2024-05-10T0000,1816A,112.3844,34.623,洛阳市,开发区管委会,颗粒物(PM10),58,66,65,35,36,139,,173,157,13,12,8,9,0.5,0.4
2024-05-10T0000,1817A,112.4267,34.6258,洛阳市,市委新办公区,细颗粒物(PM2.5),57,61,60,40,38,148,,173,161,14,13,12,9,0.8,0.7
2024-05-10T0000,3340A,112.6005,34.6326,洛阳市,伊滨,颗粒物(PM10),63,75,72,29,37,156,,170,167,10,20,6,7,0.4,0.5
2024-05-10T0000,3341A,112.4951,34.6332,洛阳市,中移产业园,颗粒物(PM10),54,58,62,29,32,154,,171,165,10,14,7,7,0.6,0.6
2024-05-10T0000,3593A,112.5736,34.8993,洛阳市,吉利监测站,颗粒物(PM10),58,65,78,27,35,85,,179,141,41,28,3,4,0.3,0.4
2024-05-10T0000,3635A,112.3677,34.662,洛阳市,河科大西苑校区,颗粒物(PM10),64,77,71,30,32,142,,172,157,9,8,9,9,0.5,0.5
2024-05-10T0000,3636A,112.4388,34.6781,洛阳市,英才小学,颗粒物(PM10),62,73,73,34,34,150,,171,160,13,13,13,9,0.6,0.6
2024-05-10T0000,2399A,114.051,33.5699,漯河市,三五一五工厂,,,,,,,,,,,,,,,,
2024-05-10T0000,2400A,114.0055,33.5698,漯河市,漯河大学,颗粒物(PM10),51,52,64,22,30,122,,164,142,17,17,8,8,0.3,0.3
2024-05-10T0000,2401A,114.0138,33.5828,漯河市,市水利局,,48,48,61,22,29,119,,162,138,15,13,8,8,0.4,0.4
2024-05-10T0000,2402A,114.0261,33.5698,漯河市,市广电局,,46,46,59,24,29,116,,161,135,16,15,5,6,0.5,0.5
2024-05-10T0000,3478A,113.9749,33.5664,漯河市,市图书馆,,45,45,58,21,30,115,,167,143,14,12,6,5,0.4,0.5
2024-05-10T0000,3479A,114.0967,33.5906,漯河市,召陵区卫健委,颗粒物(PM10),51,52,62,23,35,100,,159,129,19,16,6,6,0.4,0.4
2024-05-10T0000,1798A,118.5092,31.6837,马鞍山市,湖东路四小,,49,49,42,31,19,116,,152,139,23,19,11,7,0.6,0.6
2024-05-10T0000,1799A,118.5024,31.6449,马鞍山市,开发区,颗粒物(PM10),57,63,48,32,22,95,,152,121,45,35,10,9,0.6,0.6
2024-05-10T0000,1800A,118.5228,31.7231,马鞍山市,慈湖,细颗粒物(PM2.5),52,50,37,36,22,114,,142,128,30,27,9,6,0.6,0.6
2024-05-10T0000,1802A,118.6245,31.7241,马鞍山市,濮塘,,42,42,32,23,18,129,,147,143,17,14,5,4,0.7,0.7
2024-05-10T0000,3633A,118.4918,31.6809,马鞍山市,雨山,,50,50,39,27,20,115,,155,141,25,18,13,10,0.6,0.6
2024-05-10T0000,1686A,111.0286,21.4688,茂名市,电白南海,颗粒物(PM10),53,56,50,31,25,133,,131,131,7,9,8,10,0.6,0.6
2024-05-10T0000,1687A,110.9294,21.6533,茂名市,茂石化七小,颗粒物(PM10),53,56,45,31,26,108,,116,111,10,11,10,11,0.8,0.8
2024-05-10T0000,1688A,110.9107,21.6687,茂名市,健康路,颗粒物(PM10),53,56,41,27,20,111,,114,107,8,10,9,10,0.7,0.7
2024-05-10T0000,1689A,110.8592,21.6828,茂名市,高岭,颗粒物(PM10),54,58,49,34,28,112,,110,108,20,15,15,13,0.8,0.9
2024-05-10T0000,3450A,111.01,21.5165,茂名市,电白水东,,48,48,44,29,23,128,,130,130,13,15,9,7,0.6,0.6
2024-05-10T0000,2539A,104.0308,30.0478,眉山市,黑龙滩水库,,41,41,31,28,22,75,,122,111,10,7,5,3,0.4,0.3
2024-05-10T0000,2540A,103.8416,30.0874,眉山市,气象局,,41,41,38,12,12,85,,129,104,14,18,9,10,0.4,0.4
2024-05-10T0000,3137A,103.8578,30.0744,眉山市,市委党校,,39,39,39,22,21,86,,123,102,16,18,6,7,0.4,0.4
2024-05-10T0000,3148A,103.8291,30.0564,眉山市,区人社局,,44,44,38,29,23,81,,123,97,18,22,7,8,0.4,0.4
2024-05-10T0000,1690A,116.1231,24.3284,梅州市,梅江月梅,,43,37,35,30,21,40,,131,76,32,10,4,5,0.7,0.7
2024-05-10T0000,1691A,116.0797,24.2719,梅州市,梅县新城,细颗粒物(PM2.5),53,48,42,37,23,35,,116,59,23,20,4,5,0.6,0.6
2024-05-10T0000,1692A,116.1248,24.2654,梅州市,环境监控中心,,44,44,39,29,20,37,,118,58,29,22,4,6,0.7,0.7
2024-05-10T0000,3315A,116.1233,24.2991,梅州市,梅龙,细颗粒物(PM2.5),55,48,38,39,28,95,,126,81,10,8,14,11,0.8,0.8
2024-05-10T0000,1878A,104.7778,31.4741,绵阳市,富乐山,,45,45,65,26,51,52,,101,85,8,13,7,8,0.5,0.6
2024-05-10T0000,1879A,104.7563,31.4535,绵阳市,市人大,,41,41,71,5,43,73,,91,79,9,21,6,10,0.5,0.7
2024-05-10T0000,1880A,104.6697,31.4668,绵阳市,高新区自来水公司,颗粒物(PM10),59,67,85,33,51,76,,100,87,11,22,8,10,0.4,0.5
2024-05-10T0000,1881A,104.7287,31.5075,绵阳市,三水厂,,49,43,70,34,61,78,,98,90,8,21,7,9,0.6,0.7
2024-05-10T0000,3491A,104.69,31.5322,绵阳市,西科大附属小学,"颗粒物(PM10),细颗粒物(PM2.5)",52,54,64,36,44,23,,89,65,38,26,6,7,0.6,0.6
2024-05-10T0000,3492A,104.5648,31.5343,绵阳市,安州区旅游局,细颗粒物(PM2.5),75,61,79,55,65,51,,86,66,14,24,2,5,0.7,0.7
2024-05-10T0000,1784A,129.61,44.561,牡丹江市,环保大楼,,36,30,28,25,21,55,,100,78,15,9,5,5,0.3,0.3
2024-05-10T0000,1785A,129.6115,44.5782,牡丹江市,文化广场,,48,48,33,29,27,52,,100,69,21,14,8,8,0.4,0.3
2024-05-10T0000,1786A,129.5904,44.5963,牡丹江市,第一医院,,31,31,28,21,16,52,,101,71,14,12,5,4,0.4,0.3
2024-05-10T0000,1787A,129.6364,44.6075,牡丹江市,机车工厂,,50,50,44,18,14,49,,101,73,21,13,13,7,0.4,0.3
2024-05-10T0000,1788A,129.6386,44.5462,牡丹江市,第一中学,,26,26,29,18,15,56,,105,78,13,10,5,5,0.2,0.2
2024-05-10T0000,2531A,105.0703,29.61,内江市,市监测站,细颗粒物(PM2.5),53,40,36,37,37,12,,73,51,38,22,6,7,0.6,0.5
2024-05-10T0000,2532A,105.0717,29.5947,内江市,东兴区政府,,45,45,41,29,24,33,,80,67,27,18,9,9,0.6,0.5
2024-05-10T0000,2533A,105.0653,29.5817,内江市,内江二中,细颗粒物(PM2.5),52,37,39,36,27,19,,77,64,36,15,8,7,0.6,0.5
2024-05-10T0000,2534A,105.0406,29.5822,内江市,内江日报社,细颗粒物(PM2.5),54,46,39,38,34,6,,82,60,51,21,7,6,0.7,0.5
2024-05-10T0000,2628A,92.0657,31.4846,那曲市,那曲监测站,,34,26,26,22,16,108,,129,104,6,8,4,5,0.5,0.6
2024-05-10T0000,3128A,92.0506,31.4797,那曲市,那曲会议中心,,36,16,21,11,9,113,,133,117,7,7,2,3,0.5,0.6
2024-05-10T0000,1290A,115.8931,28.6843,南昌市,省外办,细颗粒物(PM2.5),79,93,75,58,43,88,,163,123,38,23,8,8,0.5,0.5
2024-05-10T0000,1291A,115.8886,28.7003,南昌市,省林业公司,"颗粒物(PM10),细颗粒物(PM2.5)",79,107,70,58,42,68,,158,128,52,29,7,6,0.7,0.6
2024-05-10T0000,1292A,115.8126,28.7442,南昌市,林科所,颗粒物(PM10),64,78,58,41,32,14,,171,98,104,29,7,8,0.6,0.5
2024-05-10T0000,1294A,115.8518,28.687,南昌市,建工学校,颗粒物(PM10),74,97,63,51,34,69,,168,124,54,19,8,8,0.7,0.6
2024-05-10T0000,1295A,115.8921,28.6424,南昌市,象湖,细颗粒物(PM2.5),77,94,64,56,41,102,,179,131,28,20,8,7,0.7,0.7
2024-05-10T0000,1296A,115.7423,28.7996,南昌市,武术学校,,50,,34,35,31,37,,144,89,5,10,8,8,0.4,0.4
2024-05-10T0000,1298A,115.9314,28.6842,南昌市,省站,细颗粒物(PM2.5),90,104,76,67,47,92,,165,127,24,16,15,11,0.8,0.7
2024-05-10T0000,3046A,115.9084,28.6062,南昌市,机电学校,细颗粒物(PM2.5),73,92,80,53,41,101,,171,128,24,21,10,11,0.8,0.8
2024-05-10T0000,3690A,115.9721,28.7031,南昌市,外国语学校,细颗粒物(PM2.5),73,90,69,53,43,110,,169,136,25,17,8,6,0.7,0.8
2024-05-10T0000,1905A,106.056,30.8064,南充市,西山风景区,,,,,,,,,,,,,,,,
2024-05-10T0000,1906A,106.0789,30.8023,南充市,南充市委,细颗粒物(PM2.5),72,68,62,52,51,32,,90,64,36,19,5,7,0.4,0.4
2024-05-10T0000,1907A,106.1031,30.8217,南充市,南充炼油厂,"颗粒物(PM10),细颗粒物(PM2.5)",70,90,73,51,51,58,,98,73,22,19,8,8,0.6,0.6
2024-05-10T0000,1908A,106.1064,30.7856,南充市,高坪区监测站,颗粒物(PM10),57,64,69,39,46,65,,93,70,17,19,6,7,0.2,0.2
2024-05-10T0000,1909A,106.0642,30.7636,南充市,嘉陵区环保局,细颗粒物(PM2.5),67,73,63,48,46,38,,94,56,37,25,5,9,0.6,0.5
2024-05-10T0000,1910A,106.1087,30.8388,南充市,市环境监测站,细颗粒物(PM2.5),63,72,69,45,48,46,,90,68,22,22,6,7,0.7,0.7
2024-05-10T0000,1151A,118.8086,32.1065,南京市,迈皋桥,,34,23,29,19,16,107,,146,136,22,17,4,4,0.6,0.6
2024-05-10T0000,1152A,118.7538,32.0551,南京市,草场门,,34,29,33,19,24,106,,149,139,24,21,4,3,0.2,0.3
2024-05-10T0000,1153A,118.7794,32.0745,南京市,山西路,,36,36,36,14,12,97,,148,131,16,14,4,4,0.2,0.3
2024-05-10T0000,1154A,118.7752,32.0023,南京市,中华门,,31,31,31,17,17,98,,140,130,22,19,6,12,0.6,0.6
2024-05-10T0000,1155A,118.8109,32.0309,南京市,瑞金路,,38,38,38,17,20,98,,138,130,19,17,9,8,0.3,0.4
2024-05-10T0000,1156A,118.7997,32.0754,南京市,玄武湖,,33,33,33,14,18,105,,139,132,19,13,9,8,0.3,0.4
2024-05-10T0000,1157A,118.6414,32.0931,南京市,浦口,,37,37,37,16,19,96,,136,124,26,25,6,6,0.5,0.5
2024-05-10T0000,1158A,118.7356,31.9996,南京市,奥体中心,,36,36,38,19,23,102,,145,134,21,19,8,8,0.4,0.4
2024-05-10T0000,1159A,118.9125,32.1028,南京市,仙林大学城,,31,24,34,12,15,97,,148,139,26,21,10,9,0.4,0.5
2024-05-10T0000,3422A,118.8436,31.9198,南京市,江宁彩虹桥,,34,34,41,19,23,96,,149,134,18,18,3,4,0.6,0.6
2024-05-10T0000,3423A,119.0138,31.6494,南京市,溧水永阳,,36,36,34,20,20,89,,155,132,30,23,4,4,0.3,0.3
2024-05-10T0000,3424A,118.879,31.3302,南京市,高淳老职中,,46,46,33,27,20,113,,154,140,24,19,7,7,0.3,0.2
2024-05-10T0000,3427A,118.8554,32.3578,南京市,六合雄州,,30,26,35,16,20,96,,138,127,26,28,3,4,0.4,0.5
2024-05-10T0000,1401A,108.3103,22.7881,南宁市,二十一中,,33,33,25,21,19,49,,74,62,16,15,4,4,0.9,0.9
2024-05-10T0000,1402A,108.3141,22.8528,南宁市,北湖,,36,33,29,25,19,50,,64,60,12,16,4,5,0.9,0.9
2024-05-10T0000,1403A,108.3206,22.8225,南宁市,市监测站,,40,,28,28,20,46,,62,54,16,19,4,5,0.8,0.8
2024-05-10T0000,1404A,108.3829,22.8037,南宁市,大自然花园,,38,27,27,26,20,48,,67,61,14,15,4,5,0.7,0.7
2024-05-10T0000,1405A,108.4394,22.7904,南宁市,仙葫,,42,42,27,22,19,44,,63,59,15,14,4,5,0.9,1
2024-05-10T0000,1406A,108.2397,22.8467,南宁市,区农职院,,40,28,26,28,19,60,,78,67,13,19,5,5,1.0,1
2024-05-10T0000,1407A,108.3275,22.735,南宁市,英华嘉园,,48,,29,33,22,45,,74,64,19,16,6,6,0.9,0.8
2024-05-10T0000,1408A,108.2257,22.7757,南宁市,沙井镇街道办,,43,36,31,30,24,35,,72,57,30,27,4,4,0.8,0.7
2024-05-10T0000,3401A,108.4834,22.7618,南宁市,红星社区,细颗粒物(PM2.5),52,43,29,36,21,42,,66,60,18,16,7,7,0.8,0.8
2024-05-10T0000,2331A,118.0966,26.6761,南平市,茫荡山,,,,,,,,,,,,,,,,
2024-05-10T0000,2332A,118.1681,26.6369,南平市,南平市监测站,,35,35,45,23,27,109,,173,135,18,13,5,5,0.5,0.6
2024-05-10T0000,2333A,118.1825,26.6489,南平市,南平铝业有限公司,,33,33,47,22,34,102,,159,121,17,14,6,5,0.6,0.7
2024-05-10T0000,2334A,118.1756,26.6272,南平市,南平七中,,37,29,43,21,30,116,,172,142,12,9,4,4,0.6,0.7
2024-05-10T0000,1168A,120.9098,31.9663,南通市,狼山街道,,21,21,28,11,13,57,,112,86,26,27,10,11,0.4,0.5
2024-05-10T0000,1169A,120.86,32.0005,南通市,虹桥,,28,28,37,6,13,61,,108,84,33,30,7,7,0.4,0.5
2024-05-10T0000,1170A,120.87,32.02,南通市,城中,,28,28,42,18,18,60,,107,83,34,29,7,7,0.5,0.6
2024-05-10T0000,1171A,120.94,31.93,南通市,星湖花园,,19,18,25,8,11,59,,112,82,38,30,9,9,0.5,0.5
2024-05-10T0000,1172A,120.81,32.0417,南通市,紫琅学院,,23,23,29,10,12,63,,109,84,38,40,10,11,0.3,0.5
2024-05-10T0000,3291A,121.067,32.062,南通市,通州监测站,,27,19,26,2,7,84,,126,103,14,12,8,9,0.4,0.4
2024-05-10T0000,3432A,120.9348,31.9883,南通市,环境教育馆,,31,31,37,10,14,53,,110,83,39,35,8,9,0.4,0.5
2024-05-10T0000,2404A,112.5224,33.0122,南阳市,瓦房庄,颗粒物(PM10),51,52,58,35,28,134,,160,146,18,19,7,6,0.5,0.5
2024-05-10T0000,2405A,112.5003,32.9735,南阳市,汉画馆,细颗粒物(PM2.5),59,61,65,42,37,140,,167,145,17,22,6,5,0.5,0.5
2024-05-10T0000,2406A,112.5573,33.027,南阳市,气象站,颗粒物(PM10),55,60,58,36,28,150,,171,151,14,18,4,4,0.8,0.8
2024-05-10T0000,2407A,112.5481,32.9689,南阳市,理工学院,细颗粒物(PM2.5),58,59,59,41,26,139,,167,150,18,18,6,5,0.6,0.5
2024-05-10T0000,4008A,112.5234,32.9922,南阳市,卧龙区政府,细颗粒物(PM2.5),57,58,57,40,32,141,,168,149,18,20,7,6,0.7,0.7
2024-05-10T0000,1234A,121.8358,29.911,宁波市,区环保大楼,,34,15,19,4,10,106,,103,102,3,16,5,4,0.5,0.5
2024-05-10T0000,1235A,121.56,29.82,宁波市,万里学院,,26,20,28,8,11,82,,116,98,20,25,3,4,0.4,0.5
2024-05-10T0000,1236A,121.713,29.9572,宁波市,龙赛医院,,27,14,25,9,11,84,,102,96,15,24,4,6,0.5,0.5
2024-05-10T0000,1239A,121.633,29.7733,宁波市,钱湖水厂,,27,14,16,6,7,86,,114,102,6,9,3,3,0.6,0.6
2024-05-10T0000,1240A,121.5856,29.8635,宁波市,太古小学,,29,22,30,3,11,90,,111,96,13,28,5,5,0.5,0.6
2024-05-10T0000,1241A,121.524,29.8674,宁波市,市环境监测中心,,28,19,25,9,9,87,,118,98,19,26,8,9,0.4,0.5
2024-05-10T0000,2871A,121.6147,29.9017,宁波市,万里国际学校,,33,31,38,10,14,103,,119,104,12,28,3,3,0.4,0.5
2024-05-10T0000,3710A,121.5594,29.8975,宁波市,白沙活动中心,,28,22,25,7,11,89,,115,97,18,27,8,9,0.4,0.5
2024-05-10T0000,2339A,119.5001,26.6946,宁德市,金涵水库,,,,,,,,,,,,,,,,
2024-05-10T0000,2341A,119.5388,26.6612,宁德市,宁德市监测站,,25,,31,12,21,80,,135,98,10,11,6,9,0.4,0.5
2024-05-10T0000,3209A,119.5231,26.6562,宁德市,宁德一中,,27,12,36,12,23,84,,136,100,9,12,6,8,0.3,0.4
2024-05-10T0000,2618A,98.8601,25.8567,怒江傈僳族自治州,州监测站,,27,27,25,18,19,55,,68,66,6,7,7,7,0.4,0.4
2024-05-10T0000,2619A,98.8546,25.8417,怒江傈僳族自治州,泸水一中,,,33,31,26,23,34,,52,47,14,16,6,7,,0.3
2024-05-10T0000,1888A,101.6891,26.571,攀枝花市,弄弄坪,细颗粒物(PM2.5),94,120,61,70,38,19,,121,62,65,31,56,35,1.3,1.1
2024-05-10T0000,1889A,101.5769,26.5928,攀枝花市,河门口,细颗粒物(PM2.5),58,62,45,41,28,47,,118,77,49,31,54,32,1.9,1.6
2024-05-10T0000,1890A,101.7169,26.585,攀枝花市,炳草岗,细颗粒物(PM2.5),113,98,54,85,44,14,,131,64,65,34,83,72,1.1,1
2024-05-10T0000,1891A,101.7369,26.5008,攀枝花市,仁和,颗粒物(PM10),52,54,38,34,25,28,,124,65,31,20,9,16,0.6,0.5
2024-05-10T0000,2835A,101.7227,26.567,攀枝花市,四十中小,细颗粒物(PM2.5),72,86,52,52,33,44,,140,84,37,25,104,69,1.4,1
2024-05-10T0000,1604A,122.0303,41.1489,盘锦市,开发区,颗粒物(PM10),73,95,97,50,33,107,,130,112,20,16,5,5,0.5,0.5
2024-05-10T0000,1605A,122.0485,41.0883,盘锦市,兴隆台,颗粒物(PM10),81,111,98,24,24,97,,120,102,21,21,7,7,0.5,0.4
2024-05-10T0000,1606A,121.8297,41.1028,盘锦市,新生街道,颗粒物(PM10),70,89,95,20,23,120,,124,124,18,16,6,8,0.5,0.4
2024-05-10T0000,1832A,113.3257,33.742,平顶山市,新华旅馆,细颗粒物(PM2.5),64,76,83,46,39,110,,181,147,17,22,8,13,0.5,0.5
2024-05-10T0000,1833A,113.2919,33.737,平顶山市,规划设计院,"颗粒物(PM10),细颗粒物(PM2.5)",58,65,67,41,33,98,,170,133,25,25,7,8,0.7,0.7
2024-05-10T0000,1834A,113.182,33.774,平顶山市,平顶山工学院,颗粒物(PM10),55,59,61,34,28,122,,169,151,15,15,5,6,0.6,0.5
2024-05-10T0000,3204A,113.3025,33.73,平顶山市,规划局,颗粒物(PM10),59,68,82,41,37,101,,168,131,21,21,6,7,0.6,0.6
2024-05-10T0000,3594A,112.8867,33.9116,平顶山市,石龙区,颗粒物(PM10),55,60,104,29,40,147,,161,157,9,24,5,7,0.5,0.5
2024-05-10T0000,2656A,106.6692,35.5461,平凉市,聚贤嘉苑,,38,38,37,14,16,38,,114,91,49,17,8,9,0.3,0.4
2024-05-10T0000,2657A,106.7021,35.5307,平凉市,博物馆,,46,46,40,17,18,55,,118,96,32,14,15,12,0.6,0.4
2024-05-10T0000,2347A,114.0997,27.5002,萍乡市,武功山,,29,29,19,5,6,59,,95,78,6,6,7,7,0.3,0.3
2024-05-10T0000,2348A,113.8385,27.6434,萍乡市,中医院,细颗粒物(PM2.5),74,68,55,54,36,84,,134,108,17,17,9,17,1.1,0.9
2024-05-10T0000,2349A,113.8493,27.6253,萍乡市,市政府车库,细颗粒物(PM2.5),72,74,58,52,41,78,,128,100,20,21,16,18,0.9,1.3
2024-05-10T0000,2350A,113.8676,27.6435,萍乡市,市环保局,细颗粒物(PM2.5),87,72,64,64,46,79,,128,101,19,21,13,19,0.8,0.6
2024-05-10T0000,2351A,113.866,27.6198,萍乡市,安源区政府,细颗粒物(PM2.5),75,93,63,55,35,67,,133,102,24,18,14,15,0.9,0.8
2024-05-10T0000,2319A,119.0141,25.4325,莆田市,荔城区仓后路,,34,24,38,8,16,106,,163,108,9,11,5,5,0.6,0.6
2024-05-10T0000,2320A,119.0015,25.4553,莆田市,莆田市监测站,,31,16,35,6,16,97,,165,109,8,12,7,7,0.6,0.6
2024-05-10T0000,2321A,119.1119,25.4561,莆田市,涵江区六中,,36,17,34,4,13,114,,160,111,13,14,8,8,0.5,0.6
2024-05-10T0000,2322A,119.1013,25.3215,莆田市,秀屿区政府,,32,17,34,3,10,102,,149,106,11,13,7,9,0.4,0.5
2024-05-10T0000,2323A,118.981,25.4792,莆田市,东圳水库,,,,,,,,,,,,,,,,
2024-05-10T0000,2392A,115.0312,35.7636,濮阳市,环保局,颗粒物(PM10),52,54,71,24,22,120,,137,127,13,10,12,10,0.5,0.4
2024-05-10T0000,2394A,115.0574,35.7609,濮阳市,油田运输公司,颗粒物(PM10),52,53,68,20,23,125,,145,135,11,10,13,11,0.4,0.3
2024-05-10T0000,2395A,115.0866,35.7754,濮阳市,油田物探公司,颗粒物(PM10),55,60,56,21,22,125,,145,133,12,12,10,9,0.4,0.3
2024-05-10T0000,3021A,115,35.7668,濮阳市,濮水河管理处,颗粒物(PM10),57,64,82,25,24,129,,141,131,12,12,10,11,0.3,0.3
2024-05-10T0000,2601A,100.98,22.7633,普洱市,市环保局,,42,37,48,29,34,75,,117,97,8,10,8,8,0.4,0.4
2024-05-10T0000,2602A,100.9817,22.8322,普洱市,普洱第二中学,颗粒物(PM10),52,53,44,29,24,42,,117,88,27,20,9,10,0.5,0.5
2024-05-10T0000,2262A,131.0518,45.8751,七台河市,新一中,,32,32,17,15,10,71,,103,90,8,7,9,9,0.6,0.8
2024-05-10T0000,3345A,131.0577,45.7879,七台河市,中波台,,27,22,26,10,8,86,,96,81,15,14,6,7,0.3,0.4
2024-05-10T0000,3637A,131.0176,45.7761,七台河市,人民广场,,37,37,30,13,15,66,,96,77,17,12,8,10,0.3,0.3
2024-05-10T0000,3684A,130.8781,45.8222,七台河市,新建矿广场,颗粒物(PM10),54,58,35,23,20,52,,92,77,25,16,9,10,0.5,0.5
2024-05-10T0000,1779A,123.9305,47.3636,齐齐哈尔市,安居小区,,26,24,38,15,21,82,,98,84,8,12,5,6,0.3,0.4
2024-05-10T0000,1780A,123.9488,47.3386,齐齐哈尔市,中心广场,,27,27,33,15,15,84,,102,84,8,11,7,8,0.2,0.3
2024-05-10T0000,1781A,123.9483,47.3227,齐齐哈尔市,农牧车辆厂,,31,31,36,7,8,88,,103,93,7,11,8,8,0.3,0.4
2024-05-10T0000,1783A,123.945,47.2988,齐齐哈尔市,市环境监测站,,43,38,31,30,11,91,,107,91,7,10,5,5,0.2,0.2
2024-05-10T0000,3662A,123.6333,47.2075,齐齐哈尔市,富区青少年活动中心,,26,16,38,8,16,83,,104,90,6,14,5,22,0.7,0.8
2024-05-10T0000,2591A,107.9783,26.5747,黔东南苗族侗族自治州,市环境监测站,,42,42,29,28,21,6,,71,27,31,16,3,3,0.8,0.6
2024-05-10T0000,2881A,107.8908,26.5311,黔东南苗族侗族自治州,凯里学院,,38,38,29,20,18,30,,88,48,11,8,2,2,0.5,0.4
2024-05-10T0000,2593A,107.5228,26.2403,黔南布依族苗族自治州,小围寨,,15,7,15,5,9,48,,68,52,4,5,3,4,0.5,0.5
2024-05-10T0000,3538A,107.5175,26.2978,黔南布依族苗族自治州,沙坝,,14,14,17,9,9,38,,70,49,5,6,2,3,0.4,0.5
2024-05-10T0000,2589A,104.9022,25.0925,黔西南布依族苗族自治州,场坝街,,26,9,15,8,9,82,,76,76,4,4,1,2,0.5,0.5
2024-05-10T0000,2590A,104.8811,25.0992,黔西南布依族苗族自治州,坪东大道,,28,12,12,6,6,87,,80,78,5,6,2,2,0.1,0.2
2024-05-10T0000,2502A,108.6236,21.9667,钦州市,市环保站,,24,14,16,7,10,74,,87,78,9,10,6,6,0.7,0.8
2024-05-10T0000,2503A,108.6549,21.9481,钦州市,沙埠小学,,23,19,19,13,13,72,,91,82,10,9,5,6,0.8,0.9
2024-05-10T0000,2504A,108.5989,21.7431,钦州市,港区一小,,28,23,34,19,16,60,,102,86,24,21,6,7,0.8,0.7
2024-05-10T0000,3404A,108.5959,21.9633,钦州市,北职校,,23,,27,16,17,67,,84,74,12,12,6,6,0.7,1
2024-05-10T0000,1042A,119.5134,39.8207,秦皇岛市,北戴河环保局,臭氧1小时,73,78,123,26,26,178,,135,135,18,24,9,9,0.4,0.5
2024-05-10T0000,1043A,119.7493,40.0116,秦皇岛市,第一关,颗粒物(PM10),79,108,163,39,31,86,,113,94,61,28,9,9,0.3,0.4
2024-05-10T0000,1044A,119.5897,39.9499,秦皇岛市,监测站,颗粒物(PM10),77,104,127,34,33,65,,122,115,67,27,6,8,0.5,0.5
2024-05-10T0000,1046A,119.5251,39.9041,秦皇岛市,建设大厦,颗粒物(PM10),77,103,148,30,29,90,,110,106,50,21,5,7,0.2,0.3
2024-05-10T0000,3132A,119.610547,39.943889,秦皇岛市,文明里,颗粒物(PM10),67,83,155,22,27,142,,118,118,22,23,5,5,0.5,0.5
2024-05-10T0000,1307A,120.6659,36.2403,青岛市,仰口,,40,27,42,24,26,127,,159,145,7,7,5,5,0.6,0.5
2024-05-10T0000,1310A,120.4134,36.0658,青岛市,市南区东部子站,,,31,58,12,28,99,,138,120,8,26,6,9,,0.6
2024-05-10T0000,1311A,120.3664,36.1032,青岛市,四方区子站,,36,22,53,14,30,113,,155,132,12,30,4,6,0.4,0.6
2024-05-10T0000,1312A,120.2994,36.054,青岛市,市南区西部子站,,34,27,57,10,26,108,,151,128,16,36,6,10,0.4,0.6
2024-05-10T0000,1313A,120.4581,36.0858,青岛市,崂山区子站,,33,27,53,12,28,105,,144,125,16,30,7,9,0.4,0.6
2024-05-10T0000,1314A,120.1983,35.9608,青岛市,黄岛区子站,,33,27,51,12,29,105,,147,126,12,22,6,9,0.5,0.7
2024-05-10T0000,1315A,120.3999,36.3083,青岛市,城阳区子站,,34,34,59,15,23,108,,158,128,20,35,8,9,0.6,0.6
2024-05-10T0000,1966A,120.0405,35.8735,青岛市,黄岛区4号,,35,29,50,12,24,110,,144,128,14,25,8,11,0.6,0.8
2024-05-10T0000,3362A,120.5014,36.4034,青岛市,即墨2号,,43,36,67,16,30,136,,175,153,10,23,7,7,0.7,0.6
2024-05-10T0000,3642A,120.3503,36.0736,青岛市,市北区南部,,34,25,50,12,23,106,,154,131,18,25,5,8,0.5,0.7
2024-05-10T0000,3643A,120.3948,36.1805,青岛市,李沧区北部,,35,24,57,14,27,112,,172,133,13,29,8,10,0.4,0.6
2024-05-10T0000,1702A,113.0426,23.691,清远市,环保大楼,,50,50,36,32,26,32,,72,39,24,19,12,6,1.0,0.9
2024-05-10T0000,1703A,113.0208,23.7106,清远市,凤城街办,颗粒物(PM10),52,54,41,31,25,34,,69,42,30,30,10,5,0.6,0.5
2024-05-10T0000,3025A,113.0477,23.6344,清远市,技师学院,颗粒物(PM10),54,57,46,32,27,25,,78,36,32,29,8,6,0.7,0.7
2024-05-10T0000,3318A,112.9903,23.7403,清远市,清新太和,,43,43,39,27,23,37,,74,47,18,19,6,6,0.6,0.6
2024-05-10T0000,3455A,113.076,23.7198,清远市,清城东城,细颗粒物(PM2.5),52,52,39,36,26,29,,80,42,26,16,10,6,0.8,0.6
2024-05-10T0000,2661A,107.6325,35.7357,庆阳市,庆阳五中,,31,26,28,9,13,99,,116,103,7,8,5,5,0.4,0.4
2024-05-10T0000,2662A,107.6364,35.7067,庆阳市,市环保局,,32,25,26,10,10,100,,116,104,7,9,4,5,0.4,0.4
2024-05-10T0000,1916A,103.7897,25.5035,曲靖市,环境监测站,,29,29,16,19,9,70,,113,92,16,11,4,3,0.9,0.8
2024-05-10T0000,1917A,103.8,25.5364,曲靖市,烟厂办公区,,27,21,17,16,11,85,,121,104,13,11,3,4,0.6,0.5
2024-05-10T0000,3376A,103.7947,25.462,曲靖市,南苑二区,,27,27,15,18,9,76,,116,99,17,12,6,4,0.7,0.6
2024-05-10T0000,3377A,103.7444,25.5261,曲靖市,曲靖师范学院,,25,19,13,16,10,78,,117,102,13,11,5,6,0.4,0.4
2024-05-10T0000,1264A,118.8692,28.9398,衢州市,环保大楼,细颗粒物(PM2.5),60,64,63,43,41,111,,190,146,23,20,5,5,0.7,0.7
