timepoint,stationcode,longitude,latitude,area,positionname,primarypollutant,aqi,pm10,pm10_24h,pm2_5,pm2_5_24h,o3,o3_24h,o3_8h,o3_8h_24h,no2,no2_24h,so2,so2_24h,co,co_24h
2024-05-10T1600,2566A,102.1879,31.914,阿坝藏族羌族自治州,州农科所,,,20,21,6,7,79,,89,89,13,8,25,9,,0
2024-05-10T1600,2568A,102.2502,31.8896,阿坝藏族羌族自治州,马师校,颗粒物(PM10),57,63,16,22,13,132,,90,90,5,10,3,3,0.3,0.3
2024-05-10T1600,3994A,102.2165,31.9024,阿坝藏族羌族自治州,马尔康中学西区,,,,16,,12,135,,101,101,5,9,3,6,0.3,0.3
2024-05-10T1600,2695A,80.292,41.1694,阿克苏地区,电视台,颗粒物(PM10),173,295,598,75,158,119,,95,95,6,17,6,6,0.2,0.3
2024-05-10T1600,2696A,80.2613,41.1551,阿克苏地区,艺术中心,颗粒物(PM10),174,297,579,89,190,124,,96,96,4,27,3,4,0.2,0.4
2024-05-10T1600,2204A,105.6467,38.8363,阿拉善盟,西城区西花园,颗粒物(PM10),119,188,187,29,50,110,,121,115,7,9,9,9,0.7,0.6
2024-05-10T1600,2205A,105.6985,38.8411,阿拉善盟,蒙二幼,颗粒物(PM10),107,164,224,47,62,104,,119,110,5,7,9,9,0.5,0.5
2024-05-10T1600,2206A,105.724,38.8516,阿拉善盟,环保局新楼,颗粒物(PM10),120,190,183,51,59,107,,124,112,5,5,8,9,0.3,0.4
2024-05-10T1600,2708A,88.1264,47.8517,阿勒泰地区,市站,,34,15,21,0,5,106,,99,96,10,6,5,5,0.2,0.2
2024-05-10T1600,2630A,80.1161,32.5,阿里地区,阿里监测站,,49,17,15,5,10,156,,133,133,7,15,3,4,0.4,0.4
2024-05-10T1600,3192A,80.0903,32.5028,阿里地区,阿里藏医院,臭氧1小时,60,8,14,6,7,168,,146,146,3,8,9,10,0.4,0.5
2024-05-10T1600,2642A,109.0318,32.6537,安康市,香溪洞,,23,,24,15,16,72,,53,53,3,7,6,9,0.5,0.5
2024-05-10T1600,2643A,109.0281,32.6939,安康市,安康市监测站,,26,26,37,18,20,76,,54,54,6,12,8,10,0.4,0.5
2024-05-10T1600,2644A,109.0072,32.6975,安康市,汉滨区检察院,,28,28,31,16,17,66,,48,48,4,10,7,8,0.5,0.5
2024-05-10T1600,2291A,117.0809,30.5177,安庆市,环科院,颗粒物(PM10),52,53,66,24,44,144,,139,139,10,41,9,10,0.5,0.8
2024-05-10T1600,2292A,117.0331,30.5119,安庆市,马山宾馆,,47,47,65,22,46,138,,132,132,18,42,9,10,0.5,0.8
2024-05-10T1600,2294A,116.9896,30.6145,安庆市,安庆大学,颗粒物(PM10),52,54,64,25,42,150,,148,148,14,24,10,10,0.5,0.7
2024-05-10T1600,3173A,117.0598,30.5351,安庆市,市人大,颗粒物(PM10),52,54,69,23,47,144,,147,147,5,29,7,8,0.5,0.8
2024-05-10T1600,3123A,105.9408,26.2431,安顺市,凤凰山,,33,15,11,12,8,103,,93,93,5,4,7,7,0.3,0.3
2024-05-10T1600,3124A,105.9439,26.2564,安顺市,金钟山,,32,18,12,16,9,102,,91,91,4,4,4,5,0.3,0.2
2024-05-10T1600,3125A,105.8983,26.2481,安顺市,娄家坡,,31,27,14,16,10,99,,90,90,3,3,6,6,0.4,0.5
2024-05-10T1600,1819A,114.3551,36.1017,安阳市,红庙街,臭氧1小时,105,120,91,36,24,209,,161,161,7,9,6,6,0.3,0.5
2024-05-10T1600,1820A,114.361,36.0681,安阳市,银杏小区,臭氧1小时,102,99,77,45,35,203,,157,157,2,6,10,9,0.9,0.8
2024-05-10T1600,3141A,114.3922,36.0878,安阳市,信访局,臭氧1小时,101,110,97,41,32,202,,154,154,6,9,3,4,0.6,0.5
2024-05-10T1600,3669A,114.4705,36.0637,安阳市,左辅环卫站,颗粒物(PM10),85,120,68,31,31,184,,148,148,6,8,8,8,0.7,0.6
2024-05-10T1600,3703A,114.2917,36.0949,安阳市,安钢职工学校,颗粒物(PM10),109,168,121,33,30,197,,155,155,8,12,7,7,0.6,0.6
2024-05-10T1600,1748A,123.044,41.1196,鞍山市,深沟寺,,49,49,104,15,34,152,,150,140,7,12,8,11,0.6,0.7
2024-05-10T1600,1749A,123.011,41.0931,鞍山市,太阳城,,49,49,94,15,25,156,,157,142,9,16,7,10,0.7,0.8
2024-05-10T1600,1750A,123.0485,41.1442,鞍山市,太平,颗粒物(PM10),53,55,114,22,37,160,,153,145,10,18,6,8,0.5,0.6
2024-05-10T1600,1751A,122.9642,41.0971,鞍山市,铁西三道街,颗粒物(PM10),70,89,123,29,40,156,,152,143,14,22,4,8,0.5,0.8
2024-05-10T1600,1752A,122.9341,41.0833,鞍山市,铁西工业园区,颗粒物(PM10),68,86,128,21,37,155,,152,141,9,16,7,10,0.5,0.7
2024-05-10T1600,1753A,123.022,41.0821,鞍山市,明达新区,颗粒物(PM10),52,53,104,22,34,152,,154,138,9,15,9,13,0.6,0.8
2024-05-10T1600,2195A,107.4212,40.761,巴彦淖尔市,附二中,颗粒物(PM10),129,207,207,43,51,105,,106,102,2,10,1,3,0.3,0.4
2024-05-10T1600,2196A,107.37,40.7372,巴彦淖尔市,市环保大楼,颗粒物(PM10),136,221,226,34,45,106,,106,102,4,8,3,4,0.3,0.4
2024-05-10T1600,1956A,86.1472,41.7538,巴音郭楞蒙古自治州,孔雀公园,颗粒物(PM10),65,80,113,19,33,128,,106,106,2,22,6,6,0.2,0.3
2024-05-10T1600,1957A,86.1972,41.7166,巴音郭楞蒙古自治州,棉纺厂,颗粒物(PM10),65,79,116,21,33,123,,94,94,1,14,3,3,0.2,0.3
2024-05-10T1600,1958A,86.2357,41.7173,巴音郭楞蒙古自治州,经济开发区,颗粒物(PM10),64,77,102,23,37,124,,102,102,3,9,7,7,0.1,0.2
2024-05-10T1600,2914A,106.7677,31.8794,巴中市,苏山坪,,35,33,31,24,22,73,,79,79,6,6,4,5,0.5,0.4
2024-05-10T1600,3182A,106.7656,31.8545,巴中市,丽阳花园,,35,30,37,24,26,80,,70,70,7,16,4,5,0.5,0.5
2024-05-10T1600,3183A,106.7418,31.8654,巴中市,圣泉水务公司,,33,33,31,23,23,77,,64,64,6,15,4,4,0.6,0.6
2024-05-10T1600,3616A,106.7616,31.8344,巴中市,市中心医院,,29,29,36,20,27,85,,75,75,3,12,5,5,0.5,0.5
2024-05-10T1600,2235A,122.7911,45.6077,白城市,洮北区环保局,颗粒物(PM10),76,101,57,44,18,114,,109,109,16,9,6,5,0.5,0.4
2024-05-10T1600,2236A,122.8738,45.5725,白城市,市环保局,颗粒物(PM10),71,92,65,34,20,118,,116,116,22,15,5,4,0.5,0.4
2024-05-10T1600,2231A,126.4219,41.9171,白山市,喜丰,颗粒物(PM10),54,58,81,10,20,134,,144,144,4,24,8,12,1.0,1.1
2024-05-10T1600,2232A,126.4077,41.9419,白山市,环保局,颗粒物(PM10),51,51,68,9,18,126,,135,135,6,19,10,10,0.8,0.8
2024-05-10T1600,2647A,104.1724,36.5446,白银市,第三小学,,36,11,154,4,39,115,,118,114,7,13,2,17,0.5,0.5
2024-05-10T1600,2648A,104.1465,36.5482,白银市,动力公司,,36,10,130,7,38,115,,119,114,6,13,9,16,0.4,0.3
2024-05-10T1600,2512A,106.6103,23.9011,百色市,市监测站,,31,21,26,12,16,97,,79,79,6,11,7,10,0.7,0.8
2024-05-10T1600,2513A,106.6538,23.8859,百色市,市中心血站,,27,18,28,12,17,84,,68,68,8,13,6,8,0.6,0.7
2024-05-10T1600,3406A,106.6085,23.8798,百色市,祈福高中,,30,22,29,13,18,94,,74,74,5,11,15,15,1.0,1
2024-05-10T1600,2270A,117.396,32.939,蚌埠市,工人疗养院,臭氧1小时,90,44,49,15,22,192,,164,164,9,13,8,9,0.3,0.4
2024-05-10T1600,2271A,117.3605,32.9427,蚌埠市,百货大楼,臭氧1小时,90,53,55,15,24,192,,164,164,15,18,5,7,0.4,0.6
2024-05-10T1600,2273A,117.4185,32.8911,蚌埠市,蚌埠学院,臭氧1小时,79,56,47,23,26,183,,157,157,26,16,8,8,0.6,0.5
2024-05-10T1600,2274A,117.3533,32.9673,蚌埠市,淮上区政府,臭氧1小时,84,48,53,23,31,187,,161,161,5,12,7,10,0.4,0.4
2024-05-10T1600,2275A,117.3145,32.8977,蚌埠市,高新区,臭氧1小时,93,56,53,21,30,194,,168,168,4,12,6,9,0.3,0.4
2024-05-10T1600,3715A,117.3092,32.9314,蚌埠市,蚌埠田家炳中学,臭氧1小时,95,54,58,27,29,196,,168,168,5,12,8,10,0.4,0.5
2024-05-10T1600,1585A,109.8756,40.6532,包头市,市环境监测站,颗粒物(PM10),153,256,68,26,19,107,,96,96,5,20,7,17,0.2,0.5
2024-05-10T1600,1587A,109.9991,40.5842,包头市,包头八中,颗粒物(PM10),196,342,86,66,31,121,,105,105,4,17,7,23,0.2,0.6
2024-05-10T1600,1588A,109.8538,40.6821,包头市,青山宾馆,颗粒物(PM10),132,214,61,49,25,107,,97,97,4,20,9,18,0.2,0.6
2024-05-10T1600,1589A,109.8642,40.6288,包头市,惠龙物流,颗粒物(PM10),150,249,68,31,22,106,,98,98,7,17,8,19,0.2,0.5
2024-05-10T1600,1590A,110.0377,40.5546,包头市,东河鸿龙湾,颗粒物(PM10),117,184,50,25,16,104,,92,92,5,15,6,19,0.3,0.5
2024-05-10T1600,3283A,109.9154,40.5685,包头市,滨河大厦,颗粒物(PM10),140,230,56,35,16,107,,98,98,3,14,8,13,0.3,0.5
2024-05-10T1600,3419A,109.9447,40.6261,包头市,包头市委党校,颗粒物(PM10),176,301,90,43,26,72,,81,81,9,19,9,21,0.4,0.7
2024-05-10T1600,3683A,109.8331,40.6576,包头市,昆区政府,颗粒物(PM10),151,252,75,55,25,106,,95,95,7,18,7,18,0.3,0.6
2024-05-10T1600,1930A,107.185,34.3063,宝鸡市,庙沟村,颗粒物(PM10),77,104,24,34,8,125,,98,98,7,5,10,8,0.6,0.5
2024-05-10T1600,1931A,107.0708,34.3017,宝鸡市,竹园沟,颗粒物(PM10),68,85,27,30,12,141,,109,109,9,14,7,5,0.5,0.5
2024-05-10T1600,1932A,107.1906,34.3672,宝鸡市,三陆医院,颗粒物(PM10),71,91,33,38,23,139,,96,96,14,27,6,5,0.5,0.6
2024-05-10T1600,1933A,107.1431,34.3547,宝鸡市,监测站,颗粒物(PM10),68,86,36,30,11,135,,96,96,12,24,9,8,0.4,0.4
2024-05-10T1600,1934A,107.1186,34.3739,宝鸡市,技工学校,颗粒物(PM10),79,107,32,29,12,140,,107,107,17,19,7,6,0.4,0.4
2024-05-10T1600,1935A,107.3906,34.3528,宝鸡市,陈仓区环保局家属楼,颗粒物(PM10),63,76,38,22,11,142,,105,105,5,19,5,4,0.3,0.4
2024-05-10T1600,1936A,107.2058,34.3497,宝鸡市,文理学院,颗粒物(PM10),69,87,30,21,11,146,,106,106,9,20,6,6,0.4,0.4
2024-05-10T1600,1937A,107.2386,34.3622,宝鸡市,三迪小学,颗粒物(PM10),76,102,32,38,11,140,,100,100,12,26,8,7,0.4,0.5
2024-05-10T1600,1051A,115.493,38.8632,保定市,游泳馆,臭氧1小时,95,113,116,40,30,196,,159,159,3,6,11,9,0.4,0.2
2024-05-10T1600,1052A,115.5213,38.8959,保定市,华电二区,臭氧1小时,97,79,72,20,26,197,,156,156,10,15,7,7,0.7,0.5
2024-05-10T1600,1053A,115.4713,38.9108,保定市,接待中心,,,62,65,44,21,195,,149,149,6,7,7,6,,0.4
2024-05-10T1600,1054A,115.4612,38.8416,保定市,地表水厂,,,100,85,,34,,,144,144,13,13,8,6,0.5,0.4
2024-05-10T1600,3581A,115.31981,38.95208,保定市,满城区生态环境分局,臭氧1小时,85,88,97,36,30,188,,145,145,4,10,7,6,0.5,0.4
2024-05-10T1600,3582A,115.47694,38.76408,保定市,清苑区第二中学,颗粒物(PM10),81,111,107,36,26,179,,160,160,16,17,9,8,0.4,0.4
2024-05-10T1600,3583A,115.62909,39.02311,保定市,徐水物探局,臭氧1小时,98,102,107,29,25,198,,163,163,7,11,11,9,0.4,0.3
2024-05-10T1600,4004A,115.4202,38.8656,保定市,双鹰农机,细颗粒物(PM2.5),132,,85,100,30,207,,157,157,10,12,11,9,0.5,0.3
2024-05-10T1600,4034A,115.5150,38.8590,保定市,植保所站,臭氧1小时,107,102,106,43,35,214,,173,173,10,18,9,7,0.6,0.4
2024-05-10T1600,2595A,99.1711,25.1328,保山市,市环保局,,42,42,38,23,19,108,,87,87,3,6,6,6,0.5,0.5
2024-05-10T1600,1867A,109.1436,21.4086,北海市,海滩公园,,46,46,39,15,15,111,,124,113,4,5,6,6,0.5,0.5
2024-05-10T1600,1868A,109.0981,21.4661,北海市,新市环保局,,38,38,37,12,17,108,,121,105,6,7,5,5,0.6,0.7
2024-05-10T1600,1869A,109.1778,21.5233,北海市,北海工业园,,38,38,40,17,20,106,,109,100,8,9,6,8,0.5,0.6
2024-05-10T1600,3400A,109.1911,21.4415,北海市,龙潭自来水厂,,37,37,36,16,21,108,,119,107,4,4,5,5,0.9,1.1
2024-05-10T1600,1001A,116.3621,39.8784,北京市,万寿西宫,颗粒物(PM10),86,122,93,63,35,97,,136,136,29,21,3,3,0.7,0.5
2024-05-10T1600,1003A,116.4174,39.9289,北京市,东四,颗粒物(PM10),91,131,105,59,34,105,,135,135,37,22,2,4,0.7,0.6
2024-05-10T1600,1004A,116.4072,39.8863,北京市,天坛,细颗粒物(PM2.5),80,107,74,59,33,97,,135,135,29,19,2,4,0.6,0.5
2024-05-10T1600,1005A,116.462,39.9365,北京市,农展馆,细颗粒物(PM2.5),88,117,89,65,34,91,,120,120,28,21,3,3,0.7,0.5
2024-05-10T1600,1006A,116.3392,39.9295,北京市,官园,细颗粒物(PM2.5),90,125,93,67,34,103,,137,137,34,18,2,5,0.5,0.4
2024-05-10T1600,1007A,116.2878,39.9611,北京市,海淀万柳,颗粒物(PM10),89,128,90,59,32,77,,124,124,27,29,5,7,0.6,0.5
2024-05-10T1600,1008A,116.6636,40.135,北京市,顺义新城,颗粒物(PM10),78,106,84,48,40,124,,137,137,24,25,1,4,0.5,0.5
2024-05-10T1600,1009A,116.6275,40.3275,北京市,怀柔镇,颗粒物(PM10),73,96,91,49,42,131,,135,135,15,20,3,7,0.5,0.5
2024-05-10T1600,1010A,116.2296,40.217,北京市,昌平镇,颗粒物(PM10),81,112,97,55,36,59,,82,82,31,27,3,3,0.5,0.4
2024-05-10T1600,1011A,116.3966,39.9821,北京市,奥体中心,颗粒物(PM10),91,132,89,67,39,83,,115,115,38,20,3,3,0.8,0.5
2024-05-10T1600,1012A,116.184,39.9136,北京市,古城,颗粒物(PM10),90,130,105,56,33,112,,123,123,34,32,1,3,0.3,0.2
2024-05-10T1600,3281A,115.9718,40.4529,北京市,延庆夏都,颗粒物(PM10),76,101,97,49,39,102,,116,116,24,16,3,2,0.5,0.5
2024-05-10T1600,3417A,117.0709,40.1465,北京市,平谷新城,颗粒物(PM10),83,115,91,53,38,156,,153,153,14,16,1,3,0.5,0.5
2024-05-10T1600,3418A,116.8336,40.4095,北京市,密云新城,颗粒物(PM10),76,102,82,50,34,132,,142,142,19,16,3,4,0.5,0.5
2024-05-10T1600,3672A,116.1541,39.8204,北京市,丰台云岗,颗粒物(PM10),82,114,95,57,34,67,,112,112,20,19,1,3,0.6,0.5
2024-05-10T1600,3673A,116.6804,39.9081,北京市,通州东关,颗粒物(PM10),88,126,90,56,33,132,,142,142,18,18,3,3,0.5,0.5
2024-05-10T1600,3674A,115.9577,39.7603,北京市,房山燕山,颗粒物(PM10),86,122,108,59,35,104,,120,120,20,22,3,2,0.6,0.5
2024-05-10T1600,3675A,116.4672,39.7733,北京市,大兴旧宫,颗粒物(PM10),80,109,80,58,31,134,,146,146,17,15,3,2,0.6,0.4
2024-05-10T1600,3694A,115.986,40.4563,北京市,延庆石河营,颗粒物(PM10),75,100,88,52,38,81,,114,112,29,16,3,2,0.6,0.5
2024-05-10T1600,3695A,116.6151,40.3053,北京市,怀柔新城,颗粒物(PM10),72,93,89,47,42,122,,127,127,14,21,3,3,0.6,0.6
2024-05-10T1600,3696A,116.2545,39.8768,北京市,丰台小屯,颗粒物(PM10),87,124,88,59,32,72,,116,116,22,20,3,2,0.6,0.4
2024-05-10T1600,3697A,116.84,40.3844,北京市,密云镇,颗粒物(PM10),80,109,84,45,33,120,,133,133,22,16,3,3,0.5,0.5
2024-05-10T1600,1761A,123.8275,41.3064,本溪市,大峪,臭氧1小时,55,33,95,14,29,164,,171,153,5,11,10,12,0.5,0.8
2024-05-10T1600,1762A,123.7567,41.3325,本溪市,溪湖,颗粒物(PM10),60,69,120,11,33,154,,142,142,10,17,6,10,0.4,0.9
2024-05-10T1600,1763A,123.7169,41.3094,本溪市,彩屯,颗粒物(PM10),55,60,112,22,43,141,,128,128,25,34,19,19,1.1,2.3
2024-05-10T1600,1764A,123.7669,41.2864,本溪市,东明,颗粒物(PM10),73,95,117,14,29,153,,148,141,10,16,11,12,0.5,0.8
2024-05-10T1600,1765A,123.7992,41.2664,本溪市,新立屯,颗粒物(PM10),55,60,83,34,31,156,,154,144,8,17,12,12,0.5,0.7
2024-05-10T1600,1766A,123.8142,41.3472,本溪市,威宁,颗粒物(PM10),64,78,104,16,31,146,,133,133,12,22,8,8,0.4,0.8
2024-05-10T1600,2587A,105.2864,27.3125,毕节市,八中,,39,23,23,15,16,122,,102,102,8,14,6,6,0.5,0.6
2024-05-10T1600,2588A,105.31,27.2944,毕节市,师专,,37,21,20,15,14,118,,101,101,7,14,8,7,0.4,0.5
2024-05-10T1600,3537A,105.3631,27.3533,毕节市,长征村,,41,25,25,20,18,130,,111,111,7,8,9,8,0.4,0.4
2024-05-10T1600,1629A,118.0018,37.3617,滨州市,第二水厂,细颗粒物(PM2.5),104,,53,78,35,195,,175,175,12,21,7,11,0.6,0.7
2024-05-10T1600,1630A,117.9776,37.393,滨州市,北中新校,臭氧1小时,98,102,87,31,30,198,,181,181,10,23,11,15,0.7,0.8
2024-05-10T1600,3514A,117.9378,37.3956,滨州市,中海酒店,"细颗粒物(PM2.5),臭氧1小时",107,,50,80,40,214,,190,190,9,18,12,15,0.6,0.7
2024-05-10T1600,3515A,117.9378,37.3553,滨州市,开发区一中,臭氧1小时,88,114,71,27,28,190,,170,170,7,23,12,16,0.8,0.8
2024-05-10T1600,3516A,118.0917,37.694,滨州市,金海六路,臭氧1小时,98,88,88,24,34,198,,180,180,11,25,10,13,0.4,0.6
2024-05-10T1600,4028A,117.9956,37.3753,滨州市,滨州市西街道办事处,臭氧1小时,82,83,73,58,39,185,,165,165,11,19,10,13,0.6,0.7
2024-05-10T1600,2311A,115.8072,33.8399,亳州市,污水处理厂,臭氧1小时,58,63,59,19,29,166,,152,152,6,11,9,11,0.2,0.3
2024-05-10T1600,2312A,115.7789,33.8518,亳州市,三国揽胜宫,颗粒物(PM10),56,61,62,20,26,164,,150,150,2,9,9,11,0.4,0.4
2024-05-10T1600,3332A,115.7633,33.8034,亳州市,亳州学院,臭氧1小时,58,55,61,16,29,166,,150,150,4,10,9,11,0.4,0.5
2024-05-10T1600,2693A,82.0485,44.8556,博尔塔拉蒙古自治州,市党校,,46,25,30,20,13,145,,108,108,4,7,11,10,0.3,0.4
2024-05-10T1600,2694A,82.0806,44.8969,博尔塔拉蒙古自治州,市环保局,,45,30,46,16,15,141,,103,103,4,18,12,10,0.4,0.4
2024-05-10T1600,1071A,116.8842,38.2991,沧州市,沧县城建局,臭氧1小时,73,78,68,26,20,178,,165,165,10,12,3,6,0.5,0.5
2024-05-10T1600,1072A,116.8584,38.3254,沧州市,电视转播站,臭氧1小时,68,76,72,31,33,174,,156,156,6,9,3,6,0.4,0.4
2024-05-10T1600,1073A,116.8709,38.3228,沧州市,市环保局,颗粒物(PM10),73,95,69,39,35,175,,162,162,14,15,6,8,0.5,0.5
2024-05-10T1600,3324A,116.8136,38.3004,沧州市,河北水利电力学院,臭氧1小时,79,83,77,34,28,183,,163,163,8,12,8,9,0.4,0.8
2024-05-10T1600,2622A,97.1806,31.1273,昌都市,昌都监测站,,35,14,11,11,8,111,,97,97,3,11,10,9,0.3,0.4
2024-05-10T1600,3719A,97.1714,31.1406,昌都市,昌都会议中心,,36,18,10,13,8,113,,93,93,7,11,10,10,0.3,0.3
2024-05-10T1600,2690A,88.1236,43.8886,昌吉回族自治州,天山天池,,35,0,1,0,4,111,,96,96,5,5,5,5,0.4,0.4
2024-05-10T1600,2692A,87.2717,44.0297,昌吉回族自治州,新区政务中心,,47,40,38,31,21,150,,121,121,13,26,11,10,0.4,0.7
2024-05-10T1600,3613A,87.3095,44.0142,昌吉回族自治州,亚心广场,颗粒物(PM10),51,51,44,7,13,151,,129,129,14,28,8,8,0.4,0.5
2024-05-10T1600,1119A,125.3325,43.9166,长春市,食品厂,颗粒物(PM10),73,96,59,21,28,144,,137,137,17,25,8,8,0.5,0.4
2024-05-10T1600,1120A,125.2863,43.9027,长春市,客车厂,颗粒物(PM10),60,70,58,27,25,139,,133,133,16,26,6,6,0.5,0.5
2024-05-10T1600,1121A,125.2841,43.8463,长春市,邮电学院,颗粒物(PM10),94,138,62,28,25,143,,135,135,13,21,9,8,0.5,0.4
2024-05-10T1600,1122A,125.3716,43.8772,长春市,劳动公园,颗粒物(PM10),54,58,55,23,26,146,,137,137,14,25,6,6,0.5,0.5
2024-05-10T1600,1123A,125.3297,43.8805,长春市,园林处,颗粒物(PM10),57,63,48,19,29,147,,139,139,12,22,7,6,0.5,0.4
2024-05-10T1600,1124A,125.4605,43.79,长春市,净月潭,,42,41,41,23,24,132,,128,128,8,8,8,8,0.4,0.3
2024-05-10T1600,1126A,125.3863,43.8447,长春市,经开区环卫处,颗粒物(PM10),52,53,51,24,30,137,,126,126,13,23,6,6,0.5,0.5
2024-05-10T1600,1127A,125.245,43.7783,长春市,高新区管委会,,45,45,57,23,30,142,,135,135,10,20,7,7,0.6,0.5
2024-05-10T1600,1128A,125.1761,43.8325,长春市,岱山公园,颗粒物(PM10),54,57,61,34,34,144,,135,135,15,29,7,7,0.5,0.5
2024-05-10T1600,1335A,113.0833,28.2325,长沙市,经开区环保局,细颗粒物(PM2.5),70,63,61,51,45,87,,90,90,25,20,10,10,0.6,0.5
2024-05-10T1600,1336A,112.8872,28.2189,长沙市,高开区环保局,颗粒物(PM10),61,71,66,43,41,104,,104,104,21,19,8,10,0.7,0.8
2024-05-10T1600,1337A,113.0792,28.2053,长沙市,马坡岭,细颗粒物(PM2.5),73,65,64,53,46,79,,87,87,20,20,9,9,0.7,0.6
2024-05-10T1600,1338A,112.9394,28.19,长沙市,湖南师范大学,颗粒物(PM10),71,91,74,49,50,85,,95,95,22,18,5,8,0.6,0.6
2024-05-10T1600,1339A,113.0178,28.1322,长沙市,雨花区环保局,颗粒物(PM10),57,64,58,36,40,94,,94,94,18,20,8,9,0.7,0.6
2024-05-10T1600,1340A,112.9792,28.2597,长沙市,伍家岭,细颗粒物(PM2.5),64,71,66,46,43,92,,87,87,23,28,7,9,0.6,0.6
2024-05-10T1600,1341A,113.0014,28.1944,长沙市,火车新站,细颗粒物(PM2.5),62,70,63,44,45,88,,92,92,32,26,5,7,0.8,0.8
2024-05-10T1600,1342A,112.9844,28.1178,长沙市,天心区环保局,细颗粒物(PM2.5),60,62,63,43,45,90,,92,92,31,29,5,6,0.2,0.2
2024-05-10T1600,1343A,112.8908,28.1308,长沙市,湖南中医药大学,细颗粒物(PM2.5),67,71,70,48,48,87,,93,93,23,25,10,12,0.7,0.7
2024-05-10T1600,1344A,112.9581,28.3611,长沙市,沙坪,细颗粒物(PM2.5),65,64,79,47,38,81,,82,82,17,20,196,18,0.6,1.1
2024-05-10T1600,1727A,113.1147,36.1547,长治市,清华站,,41,24,49,12,24,129,,144,143,9,11,8,10,0.3,0.5
2024-05-10T1600,1728A,113.1031,36.1989,长治市,监测站,,41,24,51,12,25,130,,147,142,12,14,13,15,0.6,0.7
2024-05-10T1600,1730A,113.0886,36.2125,长治市,审计局,,42,28,49,12,26,133,,144,144,7,12,12,14,0.4,0.4
2024-05-10T1600,1731A,113.0844,36.1856,长治市,长治八中,,42,25,58,4,31,132,,145,144,10,15,7,10,0.4,0.5
2024-05-10T1600,2845A,113.1569,36.1911,长治市,德盛苑,,42,23,42,12,25,132,,147,146,8,10,4,7,0.4,0.5
2024-05-10T1600,3568A,113.06,36.0464,长治市,向阳小学,颗粒物(PM10),54,57,60,23,40,135,,150,148,8,12,12,14,0.5,0.7
2024-05-10T1600,3569A,112.8792,36.3144,长治市,屯留一中,,45,38,51,3,26,144,,137,137,7,11,8,10,0.5,0.6
2024-05-10T1600,3570A,113.235,36.3489,长治市,潞城四中,,45,37,64,13,29,142,,153,153,7,11,7,6,0.4,0.5
2024-05-10T1600,1854A,111.6975,28.9703,常德市,市二中,,33,25,40,23,31,84,,81,81,10,14,8,9,0.5,0.5
2024-05-10T1600,3138A,111.7153,29.0289,常德市,武陵区永安,,34,34,48,20,33,86,,81,81,7,18,10,10,0.5,0.5
2024-05-10T1600,3139A,111.6892,28.9881,常德市,鼎城区玉霞,,32,30,47,22,34,84,,78,78,9,17,6,10,0.5,0.5
2024-05-10T1600,3140A,111.6625,29.0531,常德市,武陵区长庚,,35,30,46,24,32,88,,91,88,8,12,8,11,0.6,0.6
2024-05-10T1600,1196A,119.9633,31.762,常州市,市监测站,臭氧1小时,124,102,56,50,27,248,,185,185,18,25,9,5,0.6,0.4
2024-05-10T1600,1200A,119.9468,31.7069,常州市,武进监测站,臭氧1小时,127,62,40,38,19,253,,180,180,14,20,7,6,0.5,0.4
2024-05-10T1600,1201A,119.9255,31.9087,常州市,安家,臭氧1小时,114,64,44,37,23,228,,170,170,11,24,9,9,0.7,0.7
2024-05-10T1600,3002A,119.9805,31.8174,常州市,行政中心,臭氧1小时,117,86,48,40,23,234,,176,176,11,20,9,9,0.4,0.7
2024-05-10T1600,3003A,120.0522,31.7748,常州市,经开区,臭氧1小时,119,79,54,40,23,238,,174,174,22,30,10,9,0.9,0.7
2024-05-10T1600,3010A,119.9025,31.7964,常州市,钟楼,臭氧1小时,122,81,46,41,21,244,,174,174,16,20,9,9,0.6,0.5
2024-05-10T1600,3429A,119.8598,31.7066,常州市,武进经发区,臭氧1小时,126,76,49,46,25,252,,179,179,14,21,10,10,0.7,0.5
2024-05-10T1600,3430A,119.5826,31.7245,常州市,金坛城区,臭氧1小时,136,73,44,45,24,272,,183,183,20,19,10,9,0.7,0.7
2024-05-10T1600,2220A,120.4318,41.5881,朝阳市,西梁,,,,52,,24,178,,139,139,17,14,15,12,0.5,0.5
2024-05-10T1600,2221A,120.4521,41.5646,朝阳市,河畔小区,臭氧1小时,99,90,102,36,30,199,,158,158,15,13,11,11,0.8,0.6
2024-05-10T1600,2222A,120.4176,41.5648,朝阳市,八里堡,颗粒物(PM10),76,101,121,38,27,177,,140,140,18,17,13,12,1.0,0.7
2024-05-10T1600,2223A,120.3806,41.5969,朝阳市,农业园区,细颗粒物(PM2.5),77,62,64,56,53,176,,146,146,20,20,11,11,0.9,0.6
2024-05-10T1600,1705A,116.6367,23.6719,潮州市,西园路,,48,39,48,22,28,153,,133,133,13,16,8,8,0.2,0.2
2024-05-10T1600,3026A,116.6183,23.6608,潮州市,市政府,,49,42,53,16,25,156,,135,135,11,16,8,8,0.5,0.6
2024-05-10T1600,4036A,116.6461,23.6761,潮州市,金山,,48,44,49,18,25,151,,129,129,12,15,10,9,0.5,0.5
2024-05-10T1600,2472A,113.0073,25.9061,郴州市,马头岭,颗粒物(PM10),56,61,71,15,32,95,,94,94,12,22,4,11,0.8,1
2024-05-10T1600,2473A,113.0116,25.8226,郴州市,市职中,,37,29,63,23,53,117,,113,113,5,16,7,15,0.6,0.9
2024-05-10T1600,2474A,113.0161,25.8001,郴州市,兴隆步行街,,37,37,67,23,46,112,,112,112,7,19,6,15,0.5,0.7
2024-05-10T1600,2475A,113.0383,25.8071,郴州市,市审计局,,36,29,59,22,44,114,,110,110,8,19,5,15,0.5,0.8
2024-05-10T1600,2476A,113.0348,25.7759,郴州市,市环保局,,37,37,69,22,50,114,,111,111,6,23,5,14,0.6,0.9
2024-05-10T1600,1431A,103.9728,30.7236,成都市,金泉两河,细颗粒物(PM2.5),68,80,74,49,45,48,,46,31,12,18,2,2,0.5,0.4
2024-05-10T1600,1432A,104.176,30.6872,成都市,十里店,细颗粒物(PM2.5),80,67,55,59,37,88,,62,62,22,24,4,4,0.8,0.8
2024-05-10T1600,1433A,104.079,30.5706,成都市,三瓦窑,细颗粒物(PM2.5),87,79,49,64,39,77,,61,61,23,20,2,2,0.6,0.5
2024-05-10T1600,1434A,104.1114,30.63,成都市,沙河铺,细颗粒物(PM2.5),75,69,49,55,31,68,,52,44,24,21,3,3,0.5,0.5
2024-05-10T1600,1437A,104.0786,30.6531,成都市,君平街,细颗粒物(PM2.5),69,64,49,50,32,82,,67,63,13,16,3,4,0.7,0.6
2024-05-10T1600,2880A,104.0239,30.65639,成都市,大石西路,细颗粒物(PM2.5),65,68,49,47,32,77,,61,56,17,20,3,3,0.5,0.5
2024-05-10T1600,3136A,104.2725,30.5589,成都市,龙泉驿区区政府,细颗粒物(PM2.5),58,56,35,41,26,79,,85,85,23,8,3,3,0.6,0.5
2024-05-10T1600,3357A,104.0106,30.6931,成都市,金博路,细颗粒物(PM2.5),94,77,60,70,41,54,,49,34,13,20,1,2,0.7,0.6
2024-05-10T1600,3359A,104.0578,30.5225,成都市,华阳,细颗粒物(PM2.5),67,61,39,48,34,82,,74,74,23,12,2,2,0.6,0.4
2024-05-10T1600,3487A,104.2394,30.5319,成都市,车城东七路,细颗粒物(PM2.5),69,68,46,50,35,84,,85,85,25,10,3,3,0.6,0.6
2024-05-10T1600,3488A,104.3853,30.7453,成都市,青白江技师分院,细颗粒物(PM2.5),59,54,44,42,35,113,,83,83,8,11,2,2,0.6,0.6
2024-05-10T1600,3489A,104.0789,30.4072,成都市,科学城,细颗粒物(PM2.5),65,60,44,47,35,100,,85,85,21,11,2,2,0.7,0.6
2024-05-10T1600,4011A,103.8506,30.6947,成都市,光华大道三段,细颗粒物(PM2.5),93,90,76,69,54,79,,70,54,18,22,1,2,0.6,0.6
2024-05-10T1600,1062A,117.9531,40.9081,承德市,铁路,颗粒物(PM10),73,96,89,50,34,143,,141,141,15,22,9,12,0.5,0.6
2024-05-10T1600,1063A,117.9392,40.9763,承德市,中国银行,颗粒物(PM10),65,79,90,45,32,134,,143,143,14,19,9,11,0.5,0.6
2024-05-10T1600,1064A,117.9503,40.928,承德市,开发区,颗粒物(PM10),94,137,86,33,31,142,,144,144,18,23,9,11,0.6,0.7
2024-05-10T1600,1065A,117.8051,40.9655,承德市,文化中心,颗粒物(PM10),66,81,94,39,32,141,,147,147,18,23,12,11,0.4,0.6
2024-05-10T1600,1066A,117.9268,41.0026,承德市,离宫,细颗粒物(PM2.5),100,98,75,75,36,110,,139,139,11,15,3,5,0.4,0.6
2024-05-10T1600,2314A,117.47,30.6618,池州市,池州学院,,45,37,51,24,33,143,,136,136,9,23,6,6,0.5,0.9
2024-05-10T1600,3237A,117.4918,30.6617,池州市,展览馆,,44,,39,24,28,138,,142,142,8,24,4,4,0.4,0.8
2024-05-10T1600,3333A,117.5627,30.695,池州市,第八中学,,45,38,56,24,34,143,,134,134,8,20,4,6,0.4,0.7
2024-05-10T1600,3334A,117.5038,30.6243,池州市,第十二中学,,43,42,52,22,33,137,,134,134,9,33,5,6,0.4,1
2024-05-10T1600,1744A,118.9233,42.2816,赤峰市,松山一中,颗粒物(PM10),65,80,96,8,29,103,,156,131,17,19,13,12,0.4,0.8
2024-05-10T1600,1745A,118.9576,42.2728,赤峰市,哈达街,颗粒物(PM10),70,89,92,19,31,90,,147,119,23,24,21,12,0.4,0.6
2024-05-10T1600,1746A,118.8788,42.2554,赤峰市,天义路,颗粒物(PM10),53,55,79,8,29,108,,150,134,19,20,10,9,0.3,0.5
2024-05-10T1600,3058A,119.2658,42.0353,赤峰市,银河街,颗粒物(PM10),70,90,112,22,32,112,,135,135,14,18,15,16,0.4,0.6
2024-05-10T1600,3286A,118.9359,42.3147,赤峰市,桥北物流园区,,,65,76,,39,92,,158,128,8,13,15,11,0.6,0.7
2024-05-10T1600,2521A,107.3476,22.4136,崇左市,市环保局江州分局,,28,28,22,13,13,67,,66,66,1,5,8,8,0.5,0.7
2024-05-10T1600,2522A,107.3702,22.3707,崇左市,城南新区,,23,23,21,13,12,63,,62,62,3,6,5,6,0.6,0.7
2024-05-10T1600,2298A,118.3093,32.3153,滁州市,老年大学,臭氧1小时,101,61,48,29,26,201,,158,158,9,23,9,8,0.6,0.7
2024-05-10T1600,2299A,118.3244,32.2786,滁州市,人大宾馆,臭氧1小时,103,50,50,32,27,206,,168,168,14,25,9,9,0.7,0.7
2024-05-10T1600,3207A,118.3118,32.3038,滁州市,市政府原办公楼,臭氧1小时,101,46,49,25,29,202,,166,166,10,24,8,9,0.6,0.7
2024-05-10T1600,3331A,118.3267,32.2634,滁州市,图书馆,臭氧1小时,100,55,54,25,25,200,,164,164,8,23,10,11,0.7,0.8
2024-05-10T1600,2605A,101.5482,25.0441,楚雄彝族自治州,州环境监测站,,39,31,20,8,16,123,,98,98,4,7,6,5,0.5,0.6
2024-05-10T1600,2606A,101.538,25.0492,楚雄彝族自治州,市经济开发区,,38,23,22,12,17,120,,95,95,6,9,5,4,0.4,0.5
2024-05-10T1600,2548A,107.5277,31.2827,达州市,达州职业技术学院,,25,25,32,10,13,51,,39,39,15,23,9,6,0.4,0.4
2024-05-10T1600,2549A,107.5086,31.2186,达州市,市环境监测站,,25,25,40,14,20,45,,34,34,25,31,9,7,0.6,0.6
2024-05-10T1600,2550A,107.4988,31.2132,达州市,凤凰小区,,27,27,40,17,24,54,,45,45,20,27,10,8,0.6,0.7
2024-05-10T1600,2551A,107.5082,31.1986,达州市,达县机关宾馆,,32,24,39,22,26,40,,28,28,29,32,8,6,0.3,0.3
2024-05-10T1600,2552A,107.4644,31.2124,达州市,市政中心,,28,28,42,17,22,56,,39,39,17,27,8,7,0.4,0.5
2024-05-10T1600,2614A,100.1542,25.7054,大理白族自治州,大理市环境监测站,,40,40,29,20,18,112,,91,91,20,14,6,6,0.5,0.5
2024-05-10T1600,2615A,100.2171,25.5811,大理白族自治州,大理古城,,37,34,21,14,15,116,,98,98,10,13,8,7,0.6,0.6
2024-05-10T1600,1109A,121.612,38.9741,大连市,甘井子,,49,49,74,15,32,138,,141,141,20,24,9,11,0.5,0.6
2024-05-10T1600,1110A,121.565,38.9511,大连市,周水子,,49,49,67,15,32,141,,136,136,18,23,3,9,0.5,0.9
2024-05-10T1600,1111A,121.5637,38.8845,大连市,星海三站,,,42,72,15,32,144,,133,133,14,18,7,8,,0.7
2024-05-10T1600,1112A,121.6302,38.9117,大连市,青泥洼桥,,41,35,63,13,27,130,,132,132,13,17,8,9,0.5,0.6
2024-05-10T1600,1113A,121.6251,38.8638,大连市,傅家庄,,45,40,64,16,30,143,,138,138,11,12,7,8,0.4,0.5
2024-05-10T1600,1114A,121.5213,38.8661,大连市,七贤岭,,45,45,72,14,28,132,,128,128,15,18,9,10,0.3,0.4
2024-05-10T1600,1115A,121.2529,38.8061,大连市,旅顺,,50,36,68,14,31,159,,147,147,13,18,7,9,0.5,0.6
2024-05-10T1600,1116A,121.7485,39.1311,大连市,金州,,47,42,63,14,27,150,,151,151,11,17,8,10,0.5,0.6
2024-05-10T1600,1117A,121.7811,39.0496,大连市,开发区,,45,45,77,14,28,144,,139,139,15,20,4,7,0.5,0.6
2024-05-10T1600,1118A,121.9762,39.0631,大连市,双D港,,48,47,63,15,33,151,,135,135,16,25,7,9,0.6,0.8
2024-05-10T1600,1789A,124.81117,46.03138,大庆市,大同区,细颗粒物(PM2.5),55,47,41,39,28,73,,94,82,16,11,7,7,0.5,0.4
2024-05-10T1600,1790A,125.129,46.533,大庆市,龙凤区,,,,27,,18,,,87,86,,13,,7,,0.3
2024-05-10T1600,1791A,124.902,46.408,大庆市,红岗区,,35,35,32,17,17,83,,92,86,10,9,7,6,0.5,0.4
2024-05-10T1600,1792A,125.153,46.586,大庆市,萨尔图区,,26,24,32,12,13,82,,90,86,9,11,7,9,0.0,0.1
2024-05-10T1600,1793A,124.9042,46.6215,大庆市,让胡路区,,,,34,26,23,,,89,86,13,14,4,6,0.3,0.2
2024-05-10T1600,3481A,125.141,46.634,大庆市,萨区政府监测点,,26,26,33,1,10,74,,85,81,11,12,7,9,0.2,0.1
2024-05-10T1600,1723A,113.2994,40.0758,大同市,云冈宾馆,,48,33,53,33,20,90,,111,108,15,18,6,7,0.6,0.7
2024-05-10T1600,1724A,113.3444,40.0917,大同市,大同大学,,41,41,52,13,25,77,,112,104,17,13,13,13,0.6,0.5
2024-05-10T1600,1725A,113.2661,40.1269,大同市,安家小村,,34,34,65,4,18,91,,101,100,9,16,8,11,0.4,0.5
2024-05-10T1600,1726A,113.2711,40.0844,大同市,教育学院,,49,49,64,15,20,88,,108,103,15,16,7,9,0.5,0.5
2024-05-10T1600,3282A,113.3397,40.0597,大同市,大同市卫生学校,,36,36,48,15,22,84,,108,107,17,18,8,8,0.6,0.5
2024-05-10T1600,3565A,113.1367,40.1122,大同市,云冈站,颗粒物(PM10),52,53,64,20,26,105,,108,108,8,12,7,11,0.3,0.5
2024-05-10T1600,3566A,113.1186,40.2556,大同市,图书馆,,42,42,53,13,22,102,,103,103,11,16,11,16,0.3,0.5
2024-05-10T1600,3567A,113.5931,40.0461,大同市,区一中,颗粒物(PM10),54,58,63,16,23,104,,129,127,15,17,5,9,0.5,0.6
2024-05-10T1600,3676A,113.2802,40.0995,大同市,第二人民医院,,46,46,63,14,19,90,,107,103,11,15,10,11,0.4,0.6
2024-05-10T1600,2269A,124.1069,50.4097,大兴安岭地区,科技局,,28,19,28,11,19,89,,86,86,5,8,5,6,0.3,0.3
2024-05-10T1600,3663A,124.1164,50.4278,大兴安岭地区,红旗社区,,,9,16,9,11,102,,97,97,6,7,5,4,,0.3
2024-05-10T1600,1600A,124.3303,40.0625,丹东市,江湾东路,,39,30,50,11,28,124,,136,124,5,11,8,11,0.3,0.5
2024-05-10T1600,1601A,124.4256,40.1503,丹东市,临江后街,,44,44,79,5,21,129,,130,130,4,9,9,10,0.5,0.8
2024-05-10T1600,1602A,124.3933,40.1461,丹东市,元宝山,,39,26,43,7,22,122,,122,122,8,12,9,10,0.5,0.8
2024-05-10T1600,1603A,124.3633,40.1092,丹东市,民主桥,,37,35,50,6,22,118,,118,118,6,11,10,12,0.3,0.5
2024-05-10T1600,3541A,109.5726,19.5167,儋州市,第一中学子站,,23,20,19,10,11,72,,76,76,2,3,3,3,0.4,0.5
2024-05-10T1600,3542A,109.5567,19.5187,儋州市,东坡学校子站,,24,19,18,12,11,74,,81,80,3,3,4,3,0.5,0.5
2024-05-10T1600,2616A,98.5842,24.428,德宏傣族景颇族自治州,德宏州监测站,,40,32,47,25,40,125,,84,84,9,17,7,5,0.5,0.7
2024-05-10T1600,3677A,98.5881,24.4368,德宏傣族景颇族自治州,芒市人民政府综合楼,,,,50,19,30,118,,84,84,9,13,5,5,0.5,0.6
2024-05-10T1600,1901A,104.4239,31.1208,德阳市,东山公园,,,59,61,34,37,,,62,62,24,11,2,3,0.6,0.6
2024-05-10T1600,1902A,104.3826,31.1317,德阳市,西小区,颗粒物(PM10),56,61,62,27,42,71,,63,63,17,16,3,3,0.6,0.7
2024-05-10T1600,1904A,104.3553,31.1091,德阳市,耐火材料厂,细颗粒物(PM2.5),58,56,62,41,46,34,,52,52,31,17,2,4,0.7,0.7
2024-05-10T1600,3639A,104.4019,31.1244,德阳市,市教育局,细颗粒物(PM2.5),57,62,63,40,41,69,,57,57,14,13,3,3,0.6,0.6
2024-05-10T1600,1622A,116.3032,37.4674,德州市,儿童乐园,颗粒物(PM10),96,141,92,31,29,181,,163,163,17,20,8,11,0.7,0.7
2024-05-10T1600,1624A,116.2991,37.4451,德州市,监理站,臭氧1小时,90,127,84,31,30,192,,176,176,9,15,13,14,0.5,0.6
2024-05-10T1600,3066A,116.2721,37.4379,德州市,九衢泉纯净水厂,,,,92,34,31,180,,164,164,14,20,8,8,0.5,0.4
2024-05-10T1600,3371A,116.3728,37.4403,德州市,开发区人民医院,,,,88,,31,196,,175,175,,14,9,15,,0.6
2024-05-10T1600,3372A,116.3572,37.4094,德州市,太阳城中学,颗粒物(PM10),108,166,85,36,32,188,,167,167,9,12,8,12,0.6,0.6
2024-05-10T1600,3511A,116.5652,37.3319,德州市,陵城艺术中心,臭氧1小时,89,124,85,31,24,191,,168,168,11,16,8,8,0.6,0.7
2024-05-10T1600,2621A,99.7056,27.8317,迪庆藏族自治州,迪庆州站,,43,24,20,16,14,136,,136,136,8,11,6,8,0.3,0.4
2024-05-10T1600,3180A,99.7136,27.8094,迪庆藏族自治州,质量技术监督局,,43,27,19,7,6,135,,138,138,9,9,7,7,0.5,0.5
2024-05-10T1600,2663A,104.6241,35.5734,定西市,东关小学,,35,34,65,17,23,112,,106,106,7,9,3,3,0.1,0.2
2024-05-10T1600,2664A,104.6194,35.5934,定西市,供电公司,颗粒物(PM10),74,97,60,34,30,103,,98,98,6,8,4,5,0.1,0.2
2024-05-10T1600,1389A,113.7547,23.0494,东莞市,莞城梨川,,48,31,49,14,24,151,,158,158,11,21,8,9,0.7,0.7
2024-05-10T1600,1390A,113.7944,23.0128,东莞市,东城石井,臭氧1小时,65,36,44,19,23,172,,162,162,13,21,7,8,0.7,0.7
2024-05-10T1600,1391A,113.7383,22.9658,东莞市,南城西平,,47,44,47,20,21,149,,147,147,17,23,5,6,0.7,0.8
2024-05-10T1600,3319A,113.7338,23.0381,东莞市,万江金泰,,47,36,46,16,24,149,,150,150,13,21,7,7,0.6,0.7
2024-05-10T1600,3626A,113.7533,23.0202,东莞市,南城元岭,,48,44,50,18,24,153,,156,156,11,25,8,9,0.6,0.7
2024-05-10T1600,3627A,113.7875,23.0457,东莞市,东城主山,臭氧1小时,70,39,46,18,23,176,,166,166,12,22,7,8,0.6,0.6
2024-05-10T1600,1666A,118.6614,37.4309,东营市,市环保局,臭氧1小时,110,75,63,39,26,220,,192,192,11,22,,10,0.2,0.3
2024-05-10T1600,3036A,118.6904,37.4338,东营市,开发区管委会,臭氧1小时,103,89,72,24,26,205,,178,178,15,22,7,8,0.4,0.5
2024-05-10T1600,3365A,118.5719,37.565,东营市,垦利区民丰路,臭氧1小时,108,83,74,24,23,215,,193,193,12,25,12,13,0.5,0.5
2024-05-10T1600,3498A,118.5055,37.8612,东营市,河口城区,臭氧1小时,109,90,86,24,35,217,,198,198,8,18,8,11,0.4,0.4
2024-05-10T1600,3646A,118.4978,37.4623,东营市,胜利站,臭氧1小时,106,102,69,31,23,211,,194,194,15,24,11,13,0.4,0.7
2024-05-10T1600,3734A,118.35,37.26,东营市,理想之城,臭氧1小时,101,70,68,36,31,202,,181,181,12,19,12,12,0.7,0.7
2024-05-10T1600,1591A,110.0023,39.8129,鄂尔多斯市,综合楼,颗粒物(PM10),377,481,133,70,33,98,,85,85,13,20,2,5,0.4,0.6
2024-05-10T1600,1592A,109.9486,39.8261,鄂尔多斯市,巴音孟克林场办事处,颗粒物(PM10),337,449,113,53,31,100,,88,86,8,15,5,8,0.5,0.7
2024-05-10T1600,1593A,109.7736,39.5986,鄂尔多斯市,康泽苑,颗粒物(PM10),168,285,103,63,31,111,,100,100,6,13,5,8,0.3,0.3
2024-05-10T1600,1594A,109.8119,39.5989,鄂尔多斯市,华泰汽车城,颗粒物(PM10),153,256,91,46,34,103,,88,88,7,14,4,7,0.3,0.4
2024-05-10T1600,1595A,109.9734,39.7884,鄂尔多斯市,奥林花园,颗粒物(PM10),322,437,100,58,28,98,,80,80,11,18,5,8,0.4,0.6
2024-05-10T1600,2436A,114.8938,30.3994,鄂州市,市政府,,33,31,85,17,62,104,,140,140,8,21,10,16,0.8,1.1
2024-05-10T1600,2437A,114.8989,30.3714,鄂州市,赵家坝,,48,48,88,16,63,108,,138,138,2,18,8,16,0.4,0.9
2024-05-10T1600,3654A,114.8094,30.4089,鄂州市,精准医疗中心,颗粒物(PM10),54,57,118,17,69,110,,130,130,4,35,6,18,0.3,1.1
2024-05-10T1600,2454A,109.4978,30.2981,恩施土家族苗族自治州,湖北民院,,49,49,51,28,33,70,,41,41,23,26,8,8,0.8,0.7
2024-05-10T1600,2455A,109.4707,30.2798,恩施土家族苗族自治州,州电力总公司,,49,49,44,26,34,68,,35,35,29,27,8,8,0.6,0.7
2024-05-10T1600,3549A,109.5061,30.3772,恩施土家族苗族自治州,龙凤新区,,40,40,40,25,29,78,,50,50,16,16,6,7,0.7,0.6
2024-05-10T1600,2499A,108.3411,21.6158,防城港市,沙万,颗粒物(PM10),51,51,35,18,16,71,,90,80,32,18,18,8,1.3,1
2024-05-10T1600,2500A,108.3514,21.7731,防城港市,防城档案局,,32,32,22,16,12,94,,85,85,7,13,4,4,0.5,0.7
2024-05-10T1600,2501A,108.3506,21.6414,防城港市,大海花园,,39,39,27,17,13,93,,100,87,16,13,9,6,0.8,0.7
2024-05-10T1600,1371A,113.1294,23.0067,佛山市,湾梁,颗粒物(PM10),52,53,57,22,22,159,,146,146,14,28,8,9,0.3,0.4
2024-05-10T1600,1372A,113.1083,23.0478,佛山市,华材职中,,50,48,55,24,27,159,,148,148,16,33,2,3,0.5,0.6
2024-05-10T1600,1373A,113.144,23.0453,佛山市,南海气象局,,47,44,51,25,28,150,,143,143,15,31,8,8,0.6,0.7
2024-05-10T1600,1374A,113.2881,22.8094,佛山市,顺德苏岗,,48,33,48,19,25,151,,135,135,12,27,5,6,0.7,0.7
2024-05-10T1600,1376A,112.8383,22.8678,佛山市,高明孔堂,臭氧1小时,65,71,56,25,23,172,,143,143,20,28,6,6,0.6,0.6
2024-05-10T1600,1377A,112.8836,23.1588,佛山市,三水监测站,颗粒物(PM10),63,75,60,35,28,168,,125,125,40,47,6,6,0.6,0.7
2024-05-10T1600,1378A,112.867,23.185,佛山市,三水云东海,臭氧1小时,68,61,53,37,34,174,,129,129,33,36,4,4,0.6,0.7
2024-05-10T1600,3625A,113.2544,22.7642,佛山市,容桂街道办,,41,31,46,14,21,131,,130,130,15,26,4,5,0.4,0.4
2024-05-10T1600,1282A,119.2681,26.0504,福州市,师大,,38,35,26,6,6,120,,118,118,6,10,4,4,0.4,0.4
2024-05-10T1600,1283A,119.2984,26.1028,福州市,五四北路,,42,29,27,8,6,133,,124,124,10,13,4,4,0.5,0.5
2024-05-10T1600,1284A,119.2648,26.0768,福州市,杨桥西路,,41,33,27,9,6,129,,123,123,9,11,4,4,0.4,0.4
2024-05-10T1600,1285A,119.317,26.0746,福州市,紫阳,,37,30,25,6,5,116,,114,114,7,9,4,4,0.3,0.3
2024-05-10T1600,3048A,119.5799,26.0936,福州市,九龙,,35,32,22,6,4,112,,104,104,5,10,5,6,0.3,0.4
2024-05-10T1600,3526A,119.5189,25.9664,福州市,吴航,,,23,18,7,7,,,82,,1,10,4,5,0.4,0.5
2024-05-10T1600,1755A,123.7977,41.8491,抚顺市,望花区,颗粒物(PM10),75,99,126,17,39,165,,157,152,8,19,5,7,0.3,0.6
2024-05-10T1600,1756A,123.9161,41.8822,抚顺市,顺城区,颗粒物(PM10),73,96,112,15,33,154,,158,152,14,20,7,8,0.4,0.5
2024-05-10T1600,1757A,124.0436,41.8611,抚顺市,东洲区,颗粒物(PM10),55,59,101,22,42,155,,162,154,8,12,5,6,0.3,0.5
2024-05-10T1600,1758A,123.9247,41.8642,抚顺市,新抚区,,,,112,16,29,,,156,146,18,15,,6,0.4,0.5
2024-05-10T1600,1759A,124.0972,41.8961,抚顺市,大伙房水库,颗粒物(PM10),57,64,104,15,31,161,,168,161,5,7,7,7,0.2,0.3
2024-05-10T1600,1760A,123.7086,41.8391,抚顺市,沈抚新城,细颗粒物(PM2.5),90,123,141,67,39,148,,144,144,12,20,7,8,0.5,0.7
2024-05-10T1600,2376A,116.2127,28.0814,抚州市,桐源党溪,,45,45,53,24,32,78,,83,83,5,7,5,7,0.7,0.6
2024-05-10T1600,2377A,116.3544,27.9831,抚州市,市站,,48,48,47,28,31,102,,89,89,14,12,6,6,0.9,0.8
2024-05-10T1600,2378A,116.3565,27.963,抚州市,血防站,颗粒物(PM10),52,54,50,32,30,95,,82,82,18,13,4,6,0.9,0.7
2024-05-10T1600,2379A,116.3564,28.0007,抚州市,采茶剧团,,50,50,48,26,30,97,,86,86,12,10,5,6,0.9,0.8
2024-05-10T1600,2380A,116.385,27.9647,抚州市,医学分院,颗粒物(PM10),51,51,51,30,27,95,,84,84,15,14,4,7,1.0,0.9
2024-05-10T1600,2207A,121.6094,41.998,阜新市,工业园区,颗粒物(PM10),103,156,138,29,31,197,,152,152,13,15,9,11,0.8,0.6
2024-05-10T1600,2208A,121.6697,42.0279,阜新市,长青街,臭氧1小时,78,103,104,37,43,182,,147,147,17,18,9,14,0.7,0.6
2024-05-10T1600,2209A,121.6673,42.0705,阜新市,农业园区,臭氧1小时,80,102,114,31,30,184,,148,148,11,11,10,12,0.6,0.5
2024-05-10T1600,2210A,121.6717,42.0224,阜新市,东苑,颗粒物(PM10),83,115,115,29,34,183,,147,147,17,18,9,13,0.7,0.6
2024-05-10T1600,2211A,121.6506,42.0498,阜新市,玉龙新城,颗粒物(PM10),89,128,105,26,33,182,,146,146,13,14,11,12,0.7,0.6
2024-05-10T1600,2301A,115.8277,32.8929,阜阳市,市监测站,臭氧1小时,58,43,57,28,37,166,,151,151,12,22,7,8,0.4,0.4
2024-05-10T1600,2303A,115.8554,32.8605,阜阳市,开发区,臭氧1小时,64,45,58,17,28,171,,152,152,8,17,4,6,0.3,0.4
2024-05-10T1600,2875A,115.784,32.8892,阜阳市,阜阳职业技术学院,臭氧1小时,67,54,57,28,27,173,,157,157,10,14,6,7,0.3,0.4
2024-05-10T1600,3468A,115.7901,32.8613,阜阳市,市规划展馆,颗粒物(PM10),70,89,73,17,31,174,,156,156,6,14,5,6,0.4,0.4
2024-05-10T1600,3469A,115.836,32.9183,阜阳市,枣园社区,臭氧1小时,65,51,55,17,29,172,,155,155,14,19,6,8,0.3,0.4
2024-05-10T1600,2669A,102.9099,34.9841,甘南藏族自治州,州政府,,32,,51,18,26,100,,98,98,5,17,6,8,0.6,0.6
2024-05-10T1600,3380A,102.8914,34.9617,甘南藏族自治州,甘肃民族师范学院,,33,32,70,5,24,104,,104,104,2,22,8,9,0.7,0.7
2024-05-10T1600,2570A,101.9603,30.0475,甘孜藏族自治州,水桥子,,28,6,10,6,6,89,,61,61,8,20,2,3,0.3,0.3
2024-05-10T1600,3065A,101.9533,29.9972,甘孜藏族自治州,州环保局,,29,24,16,14,6,92,,65,65,10,25,2,2,0.3,0.3
2024-05-10T1600,3414A,115.8347,28.932,赣江新区,桑海产业园,,40,29,80,28,40,104,,116,116,25,42,10,11,0.7,0.7
2024-05-10T1600,2363A,114.9367,25.8664,赣州市,地委,,42,42,49,29,31,120,,101,101,11,21,13,13,0.4,0.5
2024-05-10T1600,2364A,114.9461,25.8481,赣州市,气象台,,48,48,55,24,32,122,,101,101,2,22,10,10,0.5,0.5
2024-05-10T1600,2365A,114.9322,25.8333,赣州市,市图书馆,,47,47,55,29,34,110,,97,97,11,25,5,7,1.0,0.9
2024-05-10T1600,2366A,114.8905,25.8471,赣州市,华坚鞋城,,46,46,64,26,37,119,,107,107,11,25,13,17,0.6,0.6
2024-05-10T1600,3109A,115.0093,25.8613,赣州市,赣县区卫计委,颗粒物(PM10),52,53,55,30,33,108,,98,98,11,24,10,10,0.5,0.6
2024-05-10T1600,2683A,106.2319,36.1417,固原市,马园,颗粒物(PM10),91,132,161,28,38,108,,109,109,10,14,4,5,0.3,0.4
2024-05-10T1600,2684A,106.2792,36.0022,固原市,监测站,颗粒物(PM10),77,103,113,22,26,112,,112,112,6,16,3,3,0.2,0.3
2024-05-10T1600,2685A,106.2375,36.0211,固原市,新区,颗粒物(PM10),90,129,127,22,26,113,,114,114,4,17,2,2,0.2,0.3
2024-05-10T1600,3522A,106.2177,35.9959,固原市,原州区十五小,颗粒物(PM10),76,102,90,31,34,116,,117,117,5,8,5,5,0.1,0.1
2024-05-10T1600,2544A,106.6303,30.4576,广安市,市委,,36,36,45,25,30,60,,56,50,13,15,7,7,0.7,0.7
2024-05-10T1600,2545A,106.6271,30.4663,广安市,友谊中学,,33,27,35,23,25,62,,60,55,11,16,6,6,0.7,0.7
2024-05-10T1600,2547A,106.6388,30.4551,广安市,广电花园,,29,28,40,20,27,62,,51,48,11,14,7,8,0.7,0.7
2024-05-10T1600,2902A,106.6351,30.4865,广安市,北辰小学,,35,33,43,24,27,61,,56,52,10,12,8,8,0.7,0.7
2024-05-10T1600,2523A,105.8945,32.4535,广元市,黑石坡,,29,12,23,8,13,91,,51,51,9,13,9,6,0.5,0.5
2024-05-10T1600,2524A,105.821,32.4444,广元市,老城,,29,14,35,8,15,90,,59,59,6,27,5,7,0.8,0.9
2024-05-10T1600,2526A,105.8628,32.4287,广元市,监测站,,32,13,28,8,20,101,,67,67,5,14,4,5,0.4,0.5
2024-05-10T1600,3617A,105.8047,32.4166,广元市,经开区,,29,28,36,14,22,91,,60,60,7,22,6,7,0.6,0.7
2024-05-10T1600,1345A,113.2347,23.1423,广州市,广雅中学,,45,39,52,20,27,144,,134,134,19,39,5,7,0.8,0.8
2024-05-10T1600,1346A,113.2612,23.105,广州市,市五中,,47,35,54,17,30,149,,146,146,15,33,3,5,0.6,0.6
2024-05-10T1600,1348A,113.3478,23.0916,广州市,广东商学院,,49,34,50,20,33,154,,136,136,15,39,5,6,0.5,0.6
2024-05-10T1600,1349A,113.4332,23.1047,广州市,市八十六中,臭氧1小时,79,49,59,23,28,183,,157,157,44,54,5,7,0.8,0.8
2024-05-10T1600,1350A,113.3505,22.9483,广州市,番禺中学,,48,33,47,17,23,151,,150,150,12,28,4,5,0.5,0.5
2024-05-10T1600,1351A,113.2146,23.3916,广州市,花都师范,臭氧1小时,90,54,51,28,29,192,,146,146,22,38,6,7,0.5,0.6
2024-05-10T1600,1352A,113.2597,23.1331,广州市,市监测站,,43,36,49,16,28,137,,135,135,14,31,5,6,0.5,0.6
2024-05-10T1600,1353A,113.5618,23.312,广州市,九龙镇镇龙,臭氧1小时,102,64,56,33,31,204,,173,173,23,26,6,6,0.6,0.6
2024-05-10T1600,1354A,113.2765,23.1544,广州市,麓湖,,49,40,53,19,27,154,,142,142,14,29,5,6,0.5,0.6
2024-05-10T1600,1355A,113.443,23.3035,广州市,帽峰山森林公园,臭氧1小时,109,56,43,28,23,218,,177,177,21,20,6,6,0.5,0.6
2024-05-10T1600,2846A,113.3221,23.1322,广州市,体育西,,50,40,55,22,28,159,,145,145,8,28,5,7,0.6,0.7
2024-05-10T1600,3298A,113.5717,23.5491,广州市,从化街口,臭氧1小时,105,49,45,29,28,210,,138,138,19,31,6,7,0.6,0.8
2024-05-10T1600,3299A,113.3472,23.3692,广州市,白云竹料,臭氧1小时,109,74,54,38,32,218,,155,155,30,32,5,5,0.6,0.7
2024-05-10T1600,3300A,113.2981,23.237,广州市,白云嘉禾,臭氧1小时,64,48,57,23,28,171,,150,150,28,51,5,6,0.7,0.8
2024-05-10T1600,3301A,113.4256,23.1716,广州市,黄埔科学城,臭氧1小时,94,60,54,35,30,195,,163,163,20,32,9,7,0.7,0.8
2024-05-10T1600,3302A,113.3942,23.0483,广州市,番禺大学城,,49,49,50,14,29,149,,137,137,21,34,10,10,0.4,0.5
2024-05-10T1600,3303A,113.4922,22.8168,广州市,南沙黄阁,,46,38,52,21,26,145,,140,140,16,30,6,6,0.6,0.7
2024-05-10T1600,3304A,113.5342,22.7896,广州市,南沙街,,45,44,49,16,23,142,,140,140,16,25,6,7,0.6,0.7
2024-05-10T1600,3443A,113.2902,23.5544,广州市,花都梯面,臭氧1小时,107,63,44,37,26,213,,155,155,21,23,4,5,0.7,0.7
2024-05-10T1600,3445A,113.7858,23.7478,广州市,从化良口,,37,33,36,21,23,118,,99,99,9,12,5,5,0.6,0.7
2024-05-10T1600,3446A,113.8051,23.2614,广州市,增城荔城,臭氧1小时,106,58,50,30,25,212,,173,173,17,22,5,5,0.7,0.7
2024-05-10T1600,2506A,109.6047,23.0666,贵港市,江南子站,,31,31,36,20,25,97,,82,82,10,15,7,9,0.6,0.6
2024-05-10T1600,2507A,109.6014,23.0948,贵港市,贵城子站,,47,47,52,24,29,91,,72,72,15,17,10,9,0.6,0.7
2024-05-10T1600,2508A,109.5669,23.1065,贵港市,荷城子站,,31,31,39,19,23,94,,74,74,6,14,10,11,0.5,0.6
2024-05-10T1600,3405A,109.5886,23.1172,贵港市,新世纪学校,颗粒物(PM10),51,51,41,27,26,96,,76,76,12,13,13,11,0.9,0.9
2024-05-10T1600,1439A,106.6899,26.5998,贵阳市,马鞍山,,35,24,15,17,3,111,,82,82,8,10,7,7,0.1,0.2
2024-05-10T1600,1440A,106.6971,26.5694,贵阳市,市环保站,,39,39,14,16,11,97,,74,74,14,13,3,4,0.3,0.3
2024-05-10T1600,1441A,106.6243,26.6266,贵阳市,鉴湖路,,34,19,14,12,6,106,,85,85,4,6,3,3,0.4,0.4
2024-05-10T1600,1442A,106.7487,26.6343,贵阳市,燕子冲,,30,24,16,9,9,94,,79,79,8,9,7,6,0.4,0.5
2024-05-10T1600,1443A,106.6555,26.4365,贵阳市,碧云窝,,30,19,12,5,3,94,,77,77,5,6,4,4,0.4,0.6
2024-05-10T1600,1444A,106.694,26.5161,贵阳市,中院村,,29,29,17,7,6,78,,66,66,9,11,7,7,0.4,0.4
2024-05-10T1600,1445A,106.7109,26.6027,贵阳市,红边门,,32,24,21,17,14,102,,78,78,11,15,3,3,0.4,0.6
2024-05-10T1600,1446A,106.7164,26.5699,贵阳市,新华路,,30,19,14,14,10,93,,81,81,8,11,4,4,0.4,0.5
2024-05-10T1600,1447A,106.674,26.5424,贵阳市,太慈桥,,33,24,15,5,6,103,,77,77,6,10,4,5,0.3,0.4
2024-05-10T1600,1862A,110.4144,25.3167,桂林市,电子科大尧山校区,,45,44,36,31,26,68,,68,68,11,6,5,5,0.8,0.7
2024-05-10T1600,1863A,110.2819,25.2697,桂林市,监测站,颗粒物(PM10),58,65,46,34,30,57,,58,54,18,16,8,5,0.9,0.8
2024-05-10T1600,1864A,110.3089,25.2708,桂林市,龙隐路小学,细颗粒物(PM2.5),53,51,39,37,31,59,,57,57,18,12,8,5,0.9,0.8
2024-05-10T1600,1865A,110.2869,25.2178,桂林市,八中,,48,48,41,32,30,63,,60,60,19,14,6,5,0.8,0.8
2024-05-10T1600,3403A,110.1764,25.2381,桂林市,创业大厦,,,41,37,29,29,51,,66,52,15,12,,12,0.7,0.7
2024-05-10T1600,3531A,110.296,25.1253,桂林市,旅游学院,,39,31,30,27,27,83,,65,65,6,8,9,6,0.7,0.7
2024-05-10T1600,2674A,100.2561,34.4714,果洛藏族自治州,玛沁县大武镇,,40,8,16,7,14,125,,122,122,3,6,12,12,0.4,0.4
2024-05-10T1600,1129A,126.5422,45.755,哈尔滨市,岭北,,,39,39,27,19,59,,90,66,32,31,,10,0.8,0.6
2024-05-10T1600,1130A,126.561,45.8167,哈尔滨市,松北商大,,29,29,41,15,12,58,,84,67,21,30,4,5,0.6,0.5
2024-05-10T1600,1131A,126.979,45.5419,哈尔滨市,阿城会宁,颗粒物(PM10),55,60,53,30,24,51,,74,55,15,22,5,5,0.7,0.5
2024-05-10T1600,1132A,126.599,45.7222,哈尔滨市,南岗学府路,,38,38,44,20,17,54,,84,63,30,33,4,5,0.5,0.5
2024-05-10T1600,1133A,126.689,45.7733,哈尔滨市,太平宏伟公园,,30,23,47,21,26,49,,81,57,31,29,9,9,0.4,0.5
2024-05-10T1600,1134A,126.635,45.7667,哈尔滨市,道外承德广场,,32,32,38,15,21,46,,83,57,36,34,7,7,0.2,0.3
2024-05-10T1600,1135A,126.685,45.7319,哈尔滨市,香坊红旗大街,,29,22,29,20,24,53,,82,56,23,29,6,7,0.6,0.5
2024-05-10T1600,1136A,126.6411,45.7258,哈尔滨市,动力和平路,,39,36,39,27,18,56,,85,57,26,34,6,6,0.6,0.5
2024-05-10T1600,1137A,126.593,45.7478,哈尔滨市,道里建国路,,30,30,40,21,21,63,,84,61,27,37,7,8,1.0,1.7
2024-05-10T1600,1138A,126.615,45.61,哈尔滨市,平房东轻厂,,44,44,42,20,16,46,,78,66,26,26,7,7,0.6,0.4
2024-05-10T1600,1139A,126.595,45.9855,哈尔滨市,呼兰师专,,22,,65,15,25,67,,85,76,18,28,7,7,0.5,0.4
2024-05-10T1600,1140A,126.6206,45.6842,哈尔滨市,省农科院,,29,29,49,19,22,57,,79,60,23,36,5,6,0.6,0.5
2024-05-10T1600,2688A,93.5128,42.8172,哈密市,地区监测站,,40,21,27,7,12,125,,109,109,6,17,4,5,0.2,0.3
2024-05-10T1600,2689A,93.4961,42.8328,哈密市,哈密师范学校,,40,28,27,6,11,126,,107,107,2,16,8,5,0.2,0.4
2024-05-10T1600,2671A,100.9048,36.9639,海北藏族自治州,海晏县西海镇,,39,17,47,9,19,122,,138,127,8,9,13,17,0.3,0.4
2024-05-10T1600,3867A,102.0738,36.5056,海东市,平安区公安北苑,,32,18,96,8,37,100,,108,85,6,13,6,11,0.4,0.4
2024-05-10T1600,1410A,110.3232,20.0574,海口市,海南大学,,27,17,39,8,19,86,,115,103,6,6,4,4,0.5,0.5
2024-05-10T1600,1411A,110.283,20.0053,海口市,秀英海南医院,,25,18,44,8,20,77,,110,89,10,7,5,5,0.4,0.5
2024-05-10T1600,1412A,110.338,19.9969,海口市,海南师范大学,,26,18,36,7,18,83,,110,92,4,3,6,6,0.4,0.5
2024-05-10T1600,1413A,110.33,20.0356,海口市,龙华路环保局宿舍,,26,20,37,8,18,81,,111,97,6,5,6,6,0.4,0.4
2024-05-10T1600,3539A,110.5111,19.9736,海口市,桂林洋子站,,25,20,36,6,16,77,,108,91,8,4,5,5,0.3,0.4
2024-05-10T1600,2673A,100.6188,36.2866,海南藏族自治州,共和县恰卜恰镇,,42,,38,20,20,133,,126,126,6,8,11,12,0.5,0.5
2024-05-10T1600,2676A,97.3731,37.3753,海西蒙古族藏族自治州,德令哈市,,48,48,105,17,31,148,,129,,7,7,2,5,0.7,0.7
2024-05-10T1600,1048A,114.5302,36.6116,邯郸市,东污水处理厂,臭氧1小时,77,101,64,41,33,181,,142,142,6,10,8,9,0.5,0.4
2024-05-10T1600,1049A,114.4918,36.5713,邯郸市,矿院,臭氧1小时,77,67,53,39,28,181,,138,138,10,13,8,9,0.7,0.6
2024-05-10T1600,1050A,114.484,36.6133,邯郸市,丛台公园,颗粒物(PM10),101,151,70,37,27,186,,144,144,5,7,7,7,0.5,0.4
2024-05-10T1600,3458A,114.7895,36.5593,邯郸市,香泉濮院小区,,,127,80,33,28,178,,166,166,4,8,7,8,,0.3
2024-05-10T1600,3579A,114.50634,36.77178,邯郸市,永年区实验高中,臭氧1小时,95,98,77,36,30,196,,157,157,9,13,9,9,0.4,0.5
2024-05-10T1600,3580A,114.20016,36.44293,邯郸市,峰峰矿区临水派出所,臭氧1小时,98,100,88,40,29,198,,162,162,12,14,9,9,0.8,0.7
2024-05-10T1600,2634A,106.9893,33.1842,汉中市,汉川机床厂子校,,42,28,28,22,17,134,,91,91,5,11,7,5,0.6,0.5
2024-05-10T1600,2635A,107.0154,33.0706,汉中市,市监测站,,39,22,41,21,21,124,,81,81,4,18,8,12,0.5,0.6
2024-05-10T1600,2636A,107.0089,33.1138,汉中市,鑫源开发区,,40,26,27,21,22,128,,82,82,4,18,10,10,0.6,0.6
2024-05-10T1600,2637A,107.007,33.0323,汉中市,南郑大河坎水厂,,34,20,35,13,21,108,,71,71,2,12,7,8,0.4,0.6
2024-05-10T1600,1223A,120.2072,30.2111,杭州市,滨江,臭氧1小时,102,54,58,27,24,203,,159,159,9,39,5,6,0.6,0.6
2024-05-10T1600,1224A,120.0633,30.2747,杭州市,西溪,臭氧1小时,70,51,44,32,27,176,,137,137,11,29,6,6,0.6,0.5
2024-05-10T1600,1226A,120.3461,30.3153,杭州市,下沙,臭氧1小时,80,58,56,32,27,184,,148,148,10,44,7,8,0.6,0.6
2024-05-10T1600,1227A,120.1269,30.2456,杭州市,卧龙桥,臭氧1小时,92,46,41,32,28,193,,154,154,12,27,5,5,0.6,0.6
2024-05-10T1600,1228A,120.1903,30.2692,杭州市,浙江农大,臭氧1小时,65,48,50,26,25,172,,140,140,16,38,7,7,0.5,0.5
2024-05-10T1600,1230A,120.1197,30.3119,杭州市,和睦小学,臭氧1小时,88,51,52,36,27,190,,150,150,12,34,5,5,0.6,0.6
2024-05-10T1600,1231A,120.3019,30.4183,杭州市,临平镇,臭氧1小时,89,52,51,27,30,191,,155,155,11,31,6,6,0.6,0.5
2024-05-10T1600,1232A,120.2697,30.1819,杭州市,城厢镇,,,72,55,48,34,188,,155,155,16,42,6,7,,0.7
2024-05-10T1600,1233A,120.0883,30.1808,杭州市,云栖,臭氧1小时,84,46,48,29,28,187,,154,154,18,34,7,7,0.7,0.6
2024-05-10T1600,3557A,119.9464,30.0494,杭州市,镇二中,,45,43,46,26,29,144,,144,144,17,32,8,8,0.6,0.6
2024-05-10T1600,3558A,119.7183,30.2367,杭州市,市府大楼,,50,43,45,29,31,157,,143,143,12,27,6,7,0.6,0.5
2024-05-10T1600,3656A,120.1556,30.2864,杭州市,消防大队,臭氧1小时,58,53,55,28,29,166,,137,137,15,39,7,7,0.7,0.7
2024-05-10T1600,1270A,117.1959,31.7848,合肥市,明珠广场,"颗粒物(PM10),臭氧1小时",60,70,67,34,39,168,,164,164,16,26,8,8,0.6,0.7
2024-05-10T1600,1271A,117.3072,31.8764,合肥市,三里街,颗粒物(PM10),78,105,72,29,33,168,,152,152,15,37,7,22,0.5,0.5
2024-05-10T1600,1272A,117.2588,31.8707,合肥市,琥珀山庄,臭氧1小时,74,75,65,29,27,179,,169,169,10,22,5,5,0.7,0.8
2024-05-10T1600,1273A,117.1604,31.9052,合肥市,董铺水库,臭氧1小时,68,66,62,34,29,174,,168,168,8,17,2,3,0.4,0.5
2024-05-10T1600,1274A,117.25,31.8571,合肥市,长江中路,颗粒物(PM10),67,83,68,35,39,166,,156,156,10,23,6,7,0.6,0.6
2024-05-10T1600,1275A,117.266,31.9436,合肥市,庐阳区,臭氧1小时,90,75,66,39,37,192,,170,170,12,24,5,5,0.4,0.5
2024-05-10T1600,1276A,117.336,31.8586,合肥市,瑶海区,颗粒物(PM10),69,88,73,33,34,164,,154,154,10,30,9,9,0.7,0.7
2024-05-10T1600,1277A,117.3027,31.7964,合肥市,包河区,颗粒物(PM10),63,75,66,27,34,161,,160,160,9,22,8,8,0.4,0.4
2024-05-10T1600,1278A,117.2776,31.7385,合肥市,滨湖新区,颗粒物(PM10),58,66,61,34,34,153,,154,154,9,15,7,7,0.5,0.6
2024-05-10T1600,1279A,117.1318,31.8403,合肥市,高新区,颗粒物(PM10),60,70,64,34,38,163,,158,158,13,23,8,8,0.6,0.7
2024-05-10T1600,3464A,117.3803,31.9147,合肥市,高教基地,臭氧1小时,70,75,60,27,29,176,,164,164,8,22,7,7,0.5,0.5
2024-05-10T1600,3614A,79.924,37.0877,和田地区,地区环保局,颗粒物(PM10),500,614,245,248,74,105,,78,78,3,13,8,7,0.4,0.5
2024-05-10T1600,3615A,79.9131,37.113,和田地区,市环保局,颗粒物(PM10),500,645,221,184,56,99,,71,71,,31,6,7,0.4,0.7
2024-05-10T1600,2516A,108.2011,24.715,河池市,东仁乐园,,31,31,37,15,16,14,,8,8,4,7,2,2,0.8,0.9
2024-05-10T1600,2517A,108.0497,24.6947,河池市,市环保站,,22,19,31,12,20,69,,52,52,7,12,7,7,0.5,0.6
2024-05-10T1600,2518A,108.0983,24.6989,河池市,市疾控中心,,23,16,27,10,19,71,,47,47,8,17,8,8,0.6,0.6
2024-05-10T1600,1697A,114.6944,23.7586,河源市,东埔,,49,42,54,25,34,155,,137,137,12,18,7,8,0.7,0.7
2024-05-10T1600,1698A,114.6892,23.7233,河源市,老城,,48,47,47,24,24,151,,138,138,8,12,6,7,0.6,0.6
2024-05-10T1600,1718A,115.4208,35.2464,菏泽市,气象局,颗粒物(PM10),112,174,85,44,40,175,,161,161,11,20,6,5,0.5,0.5
2024-05-10T1600,1719A,115.4747,35.2375,菏泽市,市政协,细颗粒物(PM2.5),149,,59,114,38,171,,159,159,9,12,5,5,0.3,0.2
2024-05-10T1600,3647A,115.4702,35.2706,菏泽市,菏泽医专,颗粒物(PM10),86,121,81,30,26,172,,161,161,8,16,5,5,0.3,0.3
2024-05-10T1600,2514A,111.5264,24.4172,贺州市,环保小区,,41,41,50,26,28,91,,77,77,24,20,6,7,0.7,0.7
2024-05-10T1600,2515A,111.5608,24.4078,贺州市,政协大楼,,,39,52,27,33,,,82,82,12,18,7,9,,0.6
2024-05-10T1600,3534A,111.4744,24.4553,贺州市,西湾,,50,50,43,29,27,91,,82,82,26,17,8,8,0.6,0.6
2024-05-10T1600,2385A,114.17,35.9019,鹤壁市,市监测站,臭氧1小时,78,99,83,38,40,182,,160,160,6,20,10,9,0.4,0.3
2024-05-10T1600,2386A,114.2956,35.7511,鹤壁市,市交警支队,臭氧1小时,103,87,70,34,34,205,,161,161,14,16,9,10,0.4,0.4
2024-05-10T1600,2387A,114.2878,35.7306,鹤壁市,迎宾馆,臭氧1小时,105,92,68,33,34,209,,162,162,14,18,15,14,0.5,0.4
2024-05-10T1600,3474A,114.2617,35.6822,鹤壁市,大新区,"颗粒物(PM10),臭氧1小时",98,145,84,40,35,198,,156,156,16,20,11,12,0.4,0.4
2024-05-10T1600,3596A,114.1572,35.9603,鹤壁市,南山宾馆,臭氧1小时,75,59,79,30,37,180,,150,150,9,17,13,12,0.6,0.6
2024-05-10T1600,2244A,130.2537,47.3416,鹤岗市,哈啤分公司,,31,31,26,14,11,75,,67,67,11,11,13,12,0.4,0.4
2024-05-10T1600,2245A,130.2684,47.3086,鹤岗市,斯达机电,,33,33,27,20,18,76,,70,70,15,12,11,10,0.6,0.6
2024-05-10T1600,2246A,130.3114,47.3388,鹤岗市,东山纸板厂,颗粒物(PM10),63,75,82,18,25,74,,68,68,15,21,13,13,0.3,0.7
2024-05-10T1600,2247A,130.1097,47.3382,鹤岗市,五号水库,,31,31,25,13,8,94,,80,80,8,9,11,11,0.1,0.1
2024-05-10T1600,2263A,127.4833,50.2524,黑河市,交通局,,30,20,37,12,18,94,,87,87,6,16,3,4,0.2,0.2
2024-05-10T1600,2264A,127.5144,50.2341,黑河市,环保局,,30,,21,11,18,95,,89,89,5,13,4,6,0.3,0.4
2024-05-10T1600,2265A,127.5291,50.2472,黑河市,大黑河岛,,32,32,46,9,23,86,,75,75,8,19,7,8,0.4,0.4
2024-05-10T1600,1074A,115.6838,37.7541,衡水市,电机北厂,颗粒物(PM10),80,110,81,32,27,180,,166,166,7,9,4,6,0.4,0.4
2024-05-10T1600,1075A,115.6303,37.7316,衡水市,市监测站,臭氧1小时,77,85,74,28,25,181,,168,168,10,13,2,4,0.5,0.4
2024-05-10T1600,3188A,115.6683,37.7217,衡水市,市城管局,"颗粒物(PM10),臭氧1小时",73,95,69,36,30,178,,165,165,9,12,4,6,0.4,0.3
2024-05-10T1600,3459A,115.5989,37.5491,衡水市,地表水厂,,,,82,,25,173,,165,165,10,14,9,10,0.5,0.4
2024-05-10T1600,2456A,112.5003,26.9167,衡阳市,原169医院,细颗粒物(PM2.5),80,88,78,59,56,100,,85,85,17,19,16,13,1.0,1
2024-05-10T1600,2457A,112.6194,26.9258,衡阳市,衡阳化工总厂,细颗粒物(PM2.5),99,102,92,74,73,120,,97,97,25,16,17,15,1.0,0.8
2024-05-10T1600,2458A,112.6211,26.8956,衡阳市,珠晖区环保局,细颗粒物(PM2.5),93,97,86,69,68,126,,98,98,25,18,16,16,1.3,1
2024-05-10T1600,2459A,112.6197,26.8733,衡阳市,市委党校,细颗粒物(PM2.5),98,113,88,73,63,118,,96,96,28,18,18,18,1.3,0.9
2024-05-10T1600,2460A,112.6006,26.8919,衡阳市,市监测站,细颗粒物(PM2.5),93,100,86,69,70,125,,100,100,24,18,16,17,1.3,1
2024-05-10T1600,2461A,112.5664,26.9056,衡阳市,真空机电公司,细颗粒物(PM2.5),90,97,81,67,61,125,,96,96,17,17,16,17,1.3,1
2024-05-10T1600,3399A,112.6703,26.882,衡阳市,师范学院,细颗粒物(PM2.5),95,104,90,71,75,105,,94,94,31,12,14,12,1.1,0.9
2024-05-10T1600,2608A,103.3772,23.3993,红河哈尼族彝族自治州,污水处理厂,,35,13,14,10,12,112,,100,100,5,7,9,13,0.4,0.4
2024-05-10T1600,2609A,103.3861,23.35,红河哈尼族彝族自治州,监测站,,35,17,14,9,9,110,,106,106,8,8,8,22,0.3,0.3
2024-05-10T1600,3038A,103.3758,23.368,红河哈尼族彝族自治州,州图书馆,,35,11,12,11,11,109,,102,102,6,7,6,17,0.3,0.4
2024-05-10T1600,1090A,111.6507,40.7517,呼和浩特市,呼市一监,颗粒物(PM10),187,324,55,31,18,114,,96,96,7,13,6,6,0.3,0.5
2024-05-10T1600,1091A,111.6572,40.8033,呼和浩特市,小召,颗粒物(PM10),272,400,65,32,17,111,,91,91,8,14,5,7,0.3,0.5
2024-05-10T1600,1094A,111.7516,40.8369,呼和浩特市,如意水处理厂,颗粒物(PM10),116,181,53,19,12,102,,87,86,6,13,5,6,0.3,0.5
2024-05-10T1600,1095A,111.7276,40.8062,呼和浩特市,二十九中,颗粒物(PM10),142,234,57,28,17,112,,94,94,7,13,1,2,0.3,0.5
2024-05-10T1600,1096A,111.5512,40.7866,呼和浩特市,工大金川校区,颗粒物(PM10),143,236,60,33,19,103,,85,85,6,18,4,7,0.2,0.4
2024-05-10T1600,1097A,111.717,40.7612,呼和浩特市,化肥厂生活区,颗粒物(PM10),120,190,68,40,20,107,,91,91,7,15,6,7,0.2,0.4
2024-05-10T1600,3698A,111.5968,40.8178,呼和浩特市,红旗小学,颗粒物(PM10),289,412,71,43,23,111,,92,92,7,20,3,5,0.2,0.4
2024-05-10T1600,3699A,111.6518,40.8389,呼和浩特市,海东办,颗粒物(PM10),279,405,75,39,24,110,,95,94,6,13,8,10,0.3,0.3
2024-05-10T1600,2192A,119.7594,49.2261,呼伦贝尔市,区环保局,颗粒物(PM10),85,120,37,19,15,112,,113,113,8,8,4,4,0.4,0.4
2024-05-10T1600,3061A,119.7512,49.1577,呼伦贝尔市,国华电力东,颗粒物(PM10),52,54,25,23,10,111,,113,113,6,6,3,3,0.3,0.2
2024-05-10T1600,1250A,120.0751,30.8669,湖州市,城西水厂,臭氧1小时,103,57,55,25,25,205,,161,161,16,36,4,5,0.6,0.6
2024-05-10T1600,2873A,120.0875,30.8955,湖州市,仁皇山新区,臭氧1小时,103,46,45,25,26,206,,164,164,21,38,6,7,0.8,0.7
2024-05-10T1600,2907A,120.1844,30.8596,湖州市,吴兴区站,臭氧1小时,103,51,48,26,25,205,,163,163,12,26,5,6,0.5,0.5
2024-05-10T1600,3562A,120.4148,30.8538,湖州市,南浔区站,臭氧1小时,95,51,41,19,20,196,,156,156,17,22,6,8,0.4,0.3
2024-05-10T1600,1607A,120.9092,40.7136,葫芦岛市,龙港区,臭氧1小时,77,80,118,35,38,181,,152,152,7,7,8,7,0.7,0.7
2024-05-10T1600,1608A,120.8392,40.7514,葫芦岛市,化工街,颗粒物(PM10),78,105,127,39,29,172,,141,141,18,23,10,10,0.7,0.6
2024-05-10T1600,1609A,120.8341,40.7073,葫芦岛市,新区,臭氧1小时,101,116,117,32,32,201,,161,161,11,14,8,7,0.7,0.7
2024-05-10T1600,1610A,120.8695,40.7677,葫芦岛市,东城区,臭氧1小时,78,80,103,35,38,182,,146,146,14,17,6,6,0.8,0.8
2024-05-10T1600,2482A,109.5981,27.5721,怀化市,林科所,,26,17,32,11,20,81,,72,72,5,5,8,8,0.6,0.6
2024-05-10T1600,2483A,109.9453,27.5444,怀化市,河西地税局,,25,20,42,14,28,79,,68,68,6,21,4,4,0.6,0.7
2024-05-10T1600,2484A,109.9781,27.5342,怀化市,市四医院,,26,17,40,14,30,82,,70,70,2,16,3,4,0.4,0.6
2024-05-10T1600,2485A,109.9972,27.5578,怀化市,监测楼,,24,15,44,11,31,75,,57,57,3,14,4,8,0.7,0.7
2024-05-10T1600,2486A,110.0394,27.583,怀化市,市委党校,,25,17,39,9,29,80,,63,63,4,12,4,6,0.6,0.6
2024-05-10T1600,1210A,119.036,33.5981,淮安市,钵池山,臭氧1小时,90,53,49,30,30,192,,149,149,12,28,8,10,0.6,0.7
2024-05-10T1600,1211A,119.007,33.575,淮安市,北京南路,臭氧1小时,101,51,49,29,28,202,,154,154,15,29,9,10,0.6,0.6
2024-05-10T1600,1212A,118.989,33.6067,淮安市,市监测站,臭氧1小时,99,97,52,34,28,199,,156,156,16,29,7,9,0.7,0.7
2024-05-10T1600,1213A,119.135,33.5039,淮安市,楚州区监测站,臭氧1小时,103,63,55,28,30,205,,158,158,15,39,8,10,0.6,0.7
2024-05-10T1600,1214A,119.0186,33.6297,淮安市,淮阴区监测站,臭氧1小时,93,63,57,28,29,194,,150,150,20,32,7,8,0.6,0.6
2024-05-10T1600,3426A,118.8755,33.2894,淮安市,新华书店,臭氧1小时,83,45,49,27,28,186,,160,160,15,32,6,7,0.6,0.6
2024-05-10T1600,2282A,116.8004,33.975,淮北市,监测站,臭氧1小时,73,62,58,20,30,178,,155,155,9,17,6,9,0.4,0.6
2024-05-10T1600,2283A,116.8091,33.9007,淮北市,烈山区政府,臭氧1小时,75,66,75,14,31,180,,152,152,5,16,5,9,0.4,0.5
2024-05-10T1600,3330A,116.8873,33.9836,淮北市,杜集区检察院,臭氧1小时,87,65,62,37,41,189,,160,160,10,18,5,8,0.5,0.6
2024-05-10T1600,4017A,116.7923,33.9535,淮北市,市博物馆,臭氧1小时,75,61,56,19,29,180,,154,154,6,14,7,10,0.5,0.7
2024-05-10T1600,2277A,116.8305,32.7727,淮南市,潘集区政府,臭氧1小时,85,52,61,23,36,188,,157,157,13,22,5,7,0.2,0.3
2024-05-10T1600,2278A,117.0067,32.6524,淮南市,师范学院,臭氧1小时,90,48,56,26,34,192,,161,161,11,15,8,9,0.3,0.3
2024-05-10T1600,2279A,116.8569,32.5951,淮南市,谢家集区政府,臭氧1小时,97,49,70,23,37,197,,163,163,11,34,5,8,0.3,0.3
2024-05-10T1600,2280A,116.8281,32.633,淮南市,八公山区政府,臭氧1小时,84,52,67,22,37,187,,151,151,11,19,4,6,0.2,0.3
2024-05-10T1600,2281A,116.6325,32.6201,淮南市,焦岗湖风景区管理处,,41,34,58,9,21,131,,117,117,10,24,3,3,0.0,0.1
2024-05-10T1600,2894A,117.0566,32.6531,淮南市,经济技术开发区消防队,臭氧1小时,92,48,56,24,30,193,,158,158,13,22,5,6,0.3,0.3
2024-05-10T1600,3329A,117.0108,32.5893,淮南市,山南新区,臭氧1小时,95,52,63,16,34,196,,165,165,12,18,5,6,0.2,0.3
2024-05-10T1600,2446A,114.9028,30.4742,黄冈市,职工中心,颗粒物(PM10),54,58,93,23,61,115,,147,147,3,15,6,11,0.6,0.7
2024-05-10T1600,2929A,114.8858,30.4519,黄冈市,红卫路,,35,31,86,24,62,107,,137,137,18,22,5,11,0.6,0.8
2024-05-10T1600,3398A,114.9136,30.4445,黄冈市,市林业局,,38,31,82,24,60,120,,156,156,2,12,7,9,0.8,0.6
2024-05-10T1600,2672A,102.0199,35.5102,黄南藏族自治州,同仁县隆务镇,,32,31,53,22,26,100,,90,89,3,3,12,12,0.5,0.4
2024-05-10T1600,2295A,118.2903,29.6963,黄山市,延安路89号,颗粒物(PM10),52,53,68,22,31,141,,134,134,4,11,7,7,0.5,0.6
2024-05-10T1600,2296A,118.327,29.7178,黄山市,黄山东路89号,颗粒物(PM10),56,62,63,16,37,136,,133,133,8,13,6,6,0.4,0.5
2024-05-10T1600,2297A,118.1371,30.2756,黄山市,黄山区政府5号楼,,50,50,45,24,29,129,,124,124,7,9,5,5,0.7,0.7
2024-05-10T1600,2424A,115.0817,30.2006,黄石市,陈家湾,,48,47,87,33,62,137,,160,160,8,23,6,12,0.5,0.8
2024-05-10T1600,2426A,114.8988,30.2019,黄石市,铁山,,43,42,84,27,61,135,,154,154,9,19,9,14,0.7,0.9
2024-05-10T1600,2427A,115.0307,30.2092,黄石市,团城山,,47,47,93,22,55,133,,149,149,5,24,9,18,0.6,0.9
2024-05-10T1600,3149A,115.0235,30.1578,黄石市,笔架山北路,,40,40,91,25,64,126,,151,151,4,20,9,16,0.6,1
2024-05-10T1600,1392A,114.4183,23.0528,惠州市,河南岸金山湖子站,,38,24,42,13,24,120,,124,124,5,10,5,6,0.5,0.5
2024-05-10T1600,1393A,114.4053,23.0822,惠州市,下埔横江三路子站,,41,29,47,12,24,130,,136,133,10,16,6,7,0.5,0.6
2024-05-10T1600,1394A,114.4103,23.1142,惠州市,江北云山西路子站,,43,26,46,12,25,135,,139,138,3,10,6,6,0.8,0.9
2024-05-10T1600,1395A,114.4645,22.7833,惠州市,惠阳区承修路船湖子站,,41,21,41,10,20,130,,130,130,9,14,4,5,0.4,0.4
2024-05-10T1600,1396A,114.5317,22.7422,惠州市,大亚湾管委会子站,,45,32,44,14,21,144,,137,137,15,17,5,6,0.8,0.8
2024-05-10T1600,3314A,114.4338,22.8134,惠州市,惠阳秋长,,46,34,46,4,9,147,,153,153,5,12,5,6,0.7,0.8
2024-05-10T1600,3452A,114.6517,22.775,惠州市,大亚湾霞涌,,44,31,42,11,21,138,,136,136,5,9,6,7,0.5,0.5
2024-05-10T1600,2240A,130.9762,45.3001,鸡西市,环保局,,40,40,49,10,16,58,,64,64,28,16,7,6,0.5,0.4
2024-05-10T1600,2243A,130.9429,45.3039,鸡西市,第一中学,,25,20,43,9,15,78,,74,74,14,13,9,9,0.3,0.3
2024-05-10T1600,3707A,131.0207,45.3073,鸡西市,欧美日汽修厂,,24,22,53,11,22,74,,70,70,11,21,3,4,0.3,0.3
2024-05-10T1600,3709A,130.9967,45.3106,鸡西市,市政设施管理处,,,42,55,14,20,63,,66,66,,23,7,6,0.4,0.4
2024-05-10T1600,2367A,114.9754,27.0803,吉安市,红声器材厂,,45,45,62,23,37,125,,97,97,15,23,8,13,0.7,0.6
2024-05-10T1600,2368A,114.9658,27.0999,吉安市,市森林工业局,,48,48,63,28,45,120,,100,100,13,22,12,15,0.5,0.6
2024-05-10T1600,2369A,114.99,27.1312,吉安市,市环境监测站,,50,50,62,28,42,134,,110,110,12,19,16,18,0.8,0.7
2024-05-10T1600,2370A,115.0093,27.0968,吉安市,青原区法院,,44,44,63,27,44,126,,100,100,12,25,10,19,0.6,0.6
2024-05-10T1600,1772A,126.54,43.8622,吉林市,哈达湾,颗粒物(PM10),60,69,58,33,27,143,,124,124,14,19,6,7,0.7,0.6
2024-05-10T1600,1773A,126.5844,43.8358,吉林市,东局子,颗粒物(PM10),55,59,49,30,25,140,,120,120,14,18,6,6,0.7,0.6
2024-05-10T1600,1774A,126.5052,43.8245,吉林市,电力学院,颗粒物(PM10),62,74,80,29,34,144,,128,128,13,32,10,11,0.6,0.8
2024-05-10T1600,1775A,126.6133,43.8972,吉林市,江北,颗粒物(PM10),60,69,65,30,31,131,,120,120,15,26,8,8,0.7,0.7
2024-05-10T1600,1776A,126.555,43.8306,吉林市,江南公园,颗粒物(PM10),57,64,51,37,26,137,,114,114,16,20,6,6,0.6,0.6
2024-05-10T1600,2868A,126.4739,43.953,吉林市,九站,颗粒物(PM10),59,68,74,36,34,139,,122,122,18,32,6,10,0.6,0.6
2024-05-10T1600,1299A,116.9862,36.6114,济南市,科干所,臭氧1小时,89,92,57,27,19,191,,179,179,9,11,8,8,0.7,0.7
2024-05-10T1600,1300A,116.9376,36.665,济南市,农科所,颗粒物(PM10),116,181,83,27,18,191,,174,174,14,16,7,6,0.6,0.5
2024-05-10T1600,1301A,117.1265,36.6734,济南市,开发区,臭氧1小时,95,90,57,61,25,196,,184,184,12,10,8,8,0.6,0.6
2024-05-10T1600,1303A,117.0624,36.6868,济南市,省种子仓库,臭氧1小时,85,112,113,29,20,188,,177,177,13,11,5,4,0.4,0.4
2024-05-10T1600,1304A,116.9489,36.6447,济南市,机床二厂,颗粒物(PM10),108,166,116,29,23,198,,182,182,37,14,9,7,0.5,0.6
2024-05-10T1600,1305A,117.0495,36.663,济南市,市监测站,臭氧1小时,98,88,60,27,20,198,,186,186,18,16,10,9,0.3,0.3
2024-05-10T1600,1306A,116.7675,36.5484,济南市,长清党校,臭氧1小时,90,103,64,24,21,192,,178,178,10,14,9,9,0.5,0.6
2024-05-10T1600,1616A,117.6795,36.229,济南市,技术学院,臭氧1小时,93,107,60,22,26,194,,184,184,10,21,9,13,0.4,0.5
2024-05-10T1600,1961A,117.532,36.6868,济南市,东山小学,臭氧1小时,99,73,65,27,22,199,,186,186,11,15,6,8,0.3,0.4
2024-05-10T1600,3059A,117.7161,36.2049,济南市,泰兴公司,臭氧1小时,87,66,58,24,23,189,,173,173,8,17,11,14,0.7,0.7
2024-05-10T1600,3064A,117.6867,36.2171,济南市,莱芜战役纪念馆,臭氧1小时,74,95,63,22,26,179,,164,164,13,19,8,10,0.9,0.8
2024-05-10T1600,3494A,117.1673,36.9782,济南市,济阳区政府,臭氧1小时,97,117,94,32,26,197,,178,178,14,27,7,6,0.6,0.6
2024-05-10T1600,3495A,117.1171,36.63,济南市,锦屏中学,臭氧1小时,98,66,48,29,22,198,,185,185,8,8,8,7,0.4,0.4
2024-05-10T1600,3682A,116.9814,36.6819,济南市,济南四建,臭氧1小时,87,112,68,29,19,189,,175,175,14,12,9,8,0.4,0.3
2024-05-10T1600,1653A,116.6251,35.4302,济宁市,火炬城,颗粒物(PM10),81,111,66,12,16,168,,156,156,3,11,8,9,0.4,0.6
2024-05-10T1600,1655A,116.5491,35.4042,济宁市,电化厂,颗粒物(PM10),82,113,79,56,25,166,,155,155,3,8,5,8,0.4,0.6
2024-05-10T1600,3500A,116.5814,35.3707,济宁市,北湖一中,颗粒物(PM10),101,151,63,14,21,160,,149,149,3,11,3,5,0.3,0.4
2024-05-10T1600,3501A,116.8249,35.5593,济宁市,服务中心,颗粒物(PM10),67,83,71,15,20,158,,150,150,6,13,3,5,0.4,0.6
2024-05-10T1600,3678A,116.5907,35.4054,济宁市,市第七中学,颗粒物(PM10),94,138,71,27,19,174,,163,163,5,12,5,7,0.4,0.5
2024-05-10T1600,2255A,130.2751,46.8028,佳木斯市,佳纺,,34,34,47,17,22,103,,72,72,5,25,3,4,0.3,0.4
2024-05-10T1600,2256A,130.3995,46.8307,佳木斯市,发电厂,,42,42,31,17,17,96,,71,71,10,16,4,4,0.4,0.4
2024-05-10T1600,2257A,130.3258,46.7975,佳木斯市,环保局,,32,31,36,10,21,100,,72,72,7,26,4,5,0.3,0.4
2024-05-10T1600,2258A,130.3648,46.8032,佳木斯市,十一中,,30,30,36,10,22,95,,76,76,12,27,4,5,0.4,0.5
2024-05-10T1600,2259A,130.3794,46.7588,佳木斯市,四丰,,33,18,26,0,0,105,,94,94,4,9,1,1,0.4,0.4
2024-05-10T1600,1252A,120.7436,30.778,嘉兴市,清河小学,臭氧1小时,73,54,35,18,14,178,,152,152,19,25,6,6,0.5,0.6
2024-05-10T1600,1253A,120.726,30.7478,嘉兴市,嘉兴学院,臭氧1小时,72,38,31,15,15,177,,145,145,11,14,9,7,0.4,0.4
2024-05-10T1600,2872A,120.7846,30.7525,嘉兴市,南湖区残联,臭氧1小时,88,38,29,19,17,190,,156,156,15,19,7,8,0.4,0.4
2024-05-10T1600,3407A,120.6916,30.7739,嘉兴市,秀洲住建,臭氧1小时,98,39,32,20,18,198,,156,156,9,14,8,7,0.6,0.5
2024-05-10T1600,1945A,98.2908,39.7711,嘉峪关市,气象局,颗粒物(PM10),54,58,72,31,20,118,,121,118,15,14,34,8,0.8,0.8
2024-05-10T1600,2884A,98.2672,39.7978,嘉峪关市,酒钢宾馆,,38,34,77,17,24,120,,131,124,13,8,38,14,0.7,0.3
2024-05-10T1600,3248A,98.2643,39.7724,嘉峪关市,雄关区,,36,31,55,7,20,115,,120,118,13,12,15,6,0.8,0.4
2024-05-10T1600,1383A,113.1064,22.6058,江门市,北街,,43,43,50,16,24,130,,128,128,10,25,4,4,0.5,0.6
2024-05-10T1600,1384A,113.0731,22.5835,江门市,西区,,45,45,57,21,24,137,,139,139,12,23,7,8,0.4,0.5
2024-05-10T1600,1385A,113.0219,22.5311,江门市,圭峰西,,44,44,49,19,20,136,,134,134,13,21,4,4,0.6,0.7
2024-05-10T1600,1386A,113.0828,22.5947,江门市,东湖,,42,36,47,22,20,132,,127,127,12,24,5,7,0.5,0.6
2024-05-10T1600,3311A,113.1075,22.5647,江门市,江海富民,,47,47,61,32,27,135,,131,131,12,25,4,5,0.4,0.5
2024-05-10T1600,3449A,113.05,22.4667,江门市,新会银湖,,40,39,50,17,19,127,,125,125,7,23,2,3,0.5,0.6
2024-05-10T1600,1828A,113.227,35.2125,焦作市,市环保局,臭氧1小时,75,52,67,30,39,180,,158,158,9,15,2,5,0.4,0.5
2024-05-10T1600,3169A,113.2725,35.2067,焦作市,太极体育中心,臭氧1小时,74,52,80,26,35,179,,157,157,12,20,3,8,0.2,0.3
2024-05-10T1600,3335A,113.3137,35.2641,焦作市,马村街道办,臭氧1小时,72,54,75,26,36,177,,153,153,8,17,4,6,0.4,0.5
2024-05-10T1600,3336A,113.2465,35.2373,焦作市,焦作技师学院,颗粒物(PM10),57,63,73,27,36,161,,148,148,18,20,1,5,0.3,0.4
2024-05-10T1600,3477A,113.1656,35.2539,焦作市,中站许衡医院,臭氧1小时,70,43,62,26,35,176,,153,153,8,13,9,8,0.5,0.5
2024-05-10T1600,3981A,113.2449,35.1803,焦作市,原李万街道办,颗粒物(PM10),53,55,68,19,28,160,,142,142,6,13,7,9,0.3,0.5
2024-05-10T1600,1708A,116.3701,23.5345,揭阳市,新兴,,49,39,49,15,26,155,,150,150,16,16,9,8,0.5,0.5
2024-05-10T1600,1709A,116.3264,23.5443,揭阳市,西马,臭氧1小时,53,46,52,10,25,162,,150,150,11,12,9,9,0.5,0.6
2024-05-10T1600,1710A,116.3611,23.5626,揭阳市,东兴,,50,46,51,11,23,158,,146,146,8,11,8,9,0.5,0.6
2024-05-10T1600,1711A,116.4151,23.5294,揭阳市,渔湖,,47,34,49,11,18,148,,135,135,9,13,8,9,0.4,0.6
2024-05-10T1600,3320A,116.403,23.5699,揭阳市,曲溪,臭氧1小时,55,45,52,20,27,164,,150,150,9,14,5,9,0.5,0.5
2024-05-10T1600,1944A,102.1692,38.5167,金昌市,天庆家园,,35,22,58,5,17,111,,120,120,6,6,6,7,0.4,0.6
2024-05-10T1600,3170A,102.1864,38.5253,金昌市,市委党校,,36,26,81,9,30,113,,126,125,3,3,7,8,0.5,0.4
2024-05-10T1600,4022A,102.1647,38.5371,金昌市,金川区人防中心,,37,23,67,9,20,116,,129,128,5,5,8,9,0.4,0.6
2024-05-10T1600,1262A,119.647,29.077,金华市,十五中,颗粒物(PM10),51,52,50,28,28,158,,122,122,17,23,6,4,0.5,0.5
2024-05-10T1600,1263A,119.686,29.1029,金华市,监测站,颗粒物(PM10),53,56,61,30,32,158,,126,126,14,28,4,3,0.5,0.5
2024-05-10T1600,3659A,119.656,29.1131,金华市,气象局,颗粒物(PM10),51,51,55,30,31,160,,129,129,17,33,6,6,0.3,0.6
2024-05-10T1600,1767A,121.1115,41.0879,锦州市,南山,臭氧1小时,105,131,105,49,45,209,,163,163,14,20,11,12,0.7,0.7
2024-05-10T1600,1768A,121.0533,40.8434,锦州市,开发区,颗粒物(PM10),116,181,161,44,55,195,,161,161,19,26,8,12,0.7,0.7
2024-05-10T1600,1769A,121.1836,41.1119,锦州市,百股街道,臭氧1小时,105,75,104,34,31,209,,161,161,18,20,10,10,0.7,0.7
2024-05-10T1600,1770A,121.1178,41.1222,锦州市,天安街道,颗粒物(PM10),103,155,122,46,40,193,,150,150,16,20,12,13,0.9,0.8
2024-05-10T1600,1771A,121.1303,41.1386,锦州市,北湖公园,颗粒物(PM10),97,144,105,44,40,196,,149,149,19,23,10,11,0.9,0.8
2024-05-10T1600,2160A,112.85,35.5051,晋城市,自来水公司,臭氧1小时,69,68,60,36,27,175,,151,151,14,18,8,13,0.9,0.7
2024-05-10T1600,2161A,112.8318,35.4936,晋城市,白云商贸,臭氧1小时,60,61,61,24,26,168,,152,152,12,19,11,10,0.7,0.6
2024-05-10T1600,2162A,112.8508,35.4887,晋城市,市环保局,臭氧1小时,74,85,82,29,29,179,,153,153,14,20,9,9,0.7,0.6
2024-05-10T1600,2163A,112.8676,35.4897,晋城市,技术学院,臭氧1小时,78,43,51,31,30,182,,150,150,16,20,8,8,0.9,0.8
2024-05-10T1600,3620A,112.8271,35.4828,晋城市,泽州一中,臭氧1小时,59,57,60,24,25,167,,152,152,18,22,10,10,0.7,0.8
2024-05-10T1600,2171A,112.7532,37.6945,晋中市,锦纶小区,颗粒物(PM10),65,80,59,22,27,126,,148,148,14,18,10,12,0.4,0.5
2024-05-10T1600,2173A,112.7249,37.7067,晋中市,南都小区,颗粒物(PM10),72,94,57,23,29,125,,153,153,12,17,7,10,0.3,0.5
2024-05-10T1600,2174A,112.6991,37.6982,晋中市,榆次区政府,颗粒物(PM10),58,66,55,24,30,117,,149,149,15,19,10,11,0.3,0.6
2024-05-10T1600,2865A,112.7195,37.6828,晋中市,榆次三中,颗粒物(PM10),64,78,60,14,26,133,,154,154,10,18,8,11,0.4,0.6
2024-05-10T1600,2439A,112.2014,31.0481,荆门市,竹园小学,细颗粒物(PM2.5),63,66,71,45,45,112,,120,120,15,17,10,11,0.6,0.6
2024-05-10T1600,2440A,112.1969,30.9891,荆门市,掇刀,细颗粒物(PM2.5),67,74,70,48,48,103,,118,118,26,22,9,11,0.6,0.6
2024-05-10T1600,2441A,112.2213,31.0386,荆门市,石化一小,细颗粒物(PM2.5),62,71,71,44,44,115,,126,126,17,18,11,12,0.8,0.7
2024-05-10T1600,3012A,112.1849,31.0362,荆门市,西山林语,颗粒物(PM10),55,59,65,34,44,114,,120,120,10,15,10,11,0.6,0.5
2024-05-10T1600,3547A,112.1632,31.0138,荆门市,龙泉中学南校,细颗粒物(PM2.5),59,60,72,42,47,106,,114,114,17,21,9,10,0.5,0.5
2024-05-10T1600,1844A,112.2494,30.3197,荆州市,市图书馆,颗粒物(PM10),57,63,56,15,43,107,,107,107,21,19,10,9,0.7,0.6
2024-05-10T1600,1845A,112.2008,30.3544,荆州市,市委党校,细颗粒物(PM2.5),68,54,52,49,43,111,,107,107,17,18,9,9,0.8,0.7
2024-05-10T1600,3194A,112.2747,30.3122,荆州市,管委会,颗粒物(PM10),56,62,53,28,42,112,,109,109,14,18,7,8,0.6,0.6
2024-05-10T1600,3548A,112.1655,30.3364,荆州市,学苑路,,,,45,47,50,120,,114,114,12,17,,7,,0.6
2024-05-10T1600,2343A,117.2117,29.2933,景德镇市,老干部活动中心,,49,43,50,34,35,117,,120,120,8,20,8,8,0.4,0.4
2024-05-10T1600,2344A,117.1894,29.2789,景德镇市,兽医站,"颗粒物(PM10),细颗粒物(PM2.5)",53,55,52,37,31,133,,132,132,13,15,10,9,0.7,0.6
2024-05-10T1600,2345A,117.1547,29.2617,景德镇市,台达陶瓷,颗粒物(PM10),62,74,72,41,37,116,,113,113,21,32,22,29,0.3,0.5
2024-05-10T1600,2346A,117.2461,29.2956,景德镇市,陶研所,,45,45,46,27,25,121,,120,120,9,16,3,6,0.3,0.3
2024-05-10T1600,1803A,115.9872,29.6815,九江市,十里,颗粒物(PM10),53,56,58,31,40,146,,135,135,17,29,12,21,0.7,0.8
2024-05-10T1600,1804A,115.9584,29.7046,九江市,茅山头,,47,47,57,25,41,143,,128,128,23,40,13,13,0.7,0.7
2024-05-10T1600,1805A,115.9877,29.7295,九江市,西园,,47,47,69,28,49,144,,114,114,22,47,21,21,0.7,0.8
2024-05-10T1600,1806A,116.0172,29.6547,九江市,五七二七厂,,43,38,52,30,31,127,,122,122,12,13,13,13,0.7,0.7
2024-05-10T1600,1808A,115.9114,29.6038,九江市,综合工业园,,,93,67,37,44,165,,131,131,,35,12,13,,0.8
2024-05-10T1600,1809A,116.0721,29.7535,九江市,石化总厂,颗粒物(PM10),54,57,79,36,56,148,,138,138,24,28,18,17,0.8,0.9
2024-05-10T1600,1810A,115.9773,29.5698,九江市,庐山气象台,,37,30,32,24,22,117,,147,121,6,4,7,10,0.5,0.7
2024-05-10T1600,3190A,116.0254,29.6994,九江市,外国语学校,颗粒物(PM10),52,53,73,34,53,147,,141,141,24,40,12,18,0.6,1
2024-05-10T1600,2658A,98.5061,39.7443,酒泉市,仓门街子站,,39,22,77,14,25,122,,123,117,3,9,8,9,0.2,0.3
2024-05-10T1600,2698A,76.0072,39.4467,喀什地区,巡警大队,"颗粒物(PM10),细颗粒物(PM2.5)",500,3119,588,1022,213,69,,84,78,,28,,3,0.3,0.3
2024-05-10T1600,2699A,75.9755,39.4694,喀什地区,吾办,"颗粒物(PM10),细颗粒物(PM2.5)",500,2928,566,1347,238,69,,74,69,16,33,4,5,0.4,0.5
2024-05-10T1600,4027A,75.9483,39.4689,喀什地区,老干局,"颗粒物(PM10),细颗粒物(PM2.5)",500,2920,569,938,191,71,,74,70,10,30,5,6,0.3,0.4
2024-05-10T1600,1824A,114.3389,34.7781,开封市,肿瘤医院,颗粒物(PM10),83,116,78,24,23,165,,151,151,8,12,3,4,0.4,0.4
2024-05-10T1600,1826A,114.2885,34.7965,开封市,世纪星幼儿园,颗粒物(PM10),103,155,87,48,37,164,,146,146,6,13,4,6,0.4,0.4
2024-05-10T1600,3147A,114.3438,34.8106,开封市,龙亭公园,颗粒物(PM10),72,93,64,31,27,172,,156,156,5,9,4,6,0.5,0.5
2024-05-10T1600,3210A,114.3644,34.7964,开封市,汴京公园,颗粒物(PM10),108,165,101,38,33,173,,158,158,6,12,4,5,0.5,0.5
2024-05-10T1600,3473A,114.2485,34.8306,开封市,技师学院,颗粒物(PM10),165,280,151,34,36,170,,157,157,7,12,5,6,0.5,0.4
2024-05-10T1600,3592A,114.4644,34.7556,开封市,祥符区生态环境局,颗粒物(PM10),117,183,128,36,32,163,,152,152,10,17,6,7,0.4,0.4
2024-05-10T1600,1951A,84.895,45.6094,克拉玛依市,长征新村,,40,13,30,7,10,125,,97,97,5,21,10,9,0.2,0.3
2024-05-10T1600,1952A,84.8988,45.5893,克拉玛依市,南林小区,,40,14,33,7,16,126,,95,95,5,32,8,7,0.3,0.5
2024-05-10T1600,1954A,84.905,44.3396,克拉玛依市,独山子区,臭氧1小时,55,33,22,15,11,164,,127,127,6,7,9,9,0.3,0.3
2024-05-10T1600,1955A,85.6979,46.098,克拉玛依市,乌尔禾区商贸楼,,40,,13,8,7,128,,102,102,1,11,10,9,0.1,0.2
2024-05-10T1600,3612A,85.1045,45.6899,克拉玛依市,白碱滩区新站,,41,11,24,11,13,130,,94,94,4,13,9,8,0.2,0.2
2024-05-10T1600,2697A,76.1454,39.7142,克孜勒苏柯尔克孜自治州,市人民政府,"颗粒物(PM10),细颗粒物(PM2.5)",500,2596,404,882,142,94,,91,86,2,15,6,9,0.4,0.4
2024-05-10T1600,3665A,76.1658,39.7157,克孜勒苏柯尔克孜自治州,克州文化中心,"颗粒物(PM10),细颗粒物(PM2.5)",500,2956,584,842,147,94,,97,88,3,14,7,9,0.3,0.3
2024-05-10T1600,1450A,102.8204,24.8886,昆明市,呈贡新区,,42,19,25,2,15,132,,108,108,6,12,4,4,0.6,0.7
2024-05-10T1600,1452A,102.7252,25.0902,昆明市,龙泉镇,,43,,24,11,13,136,,114,114,6,16,6,6,0.8,0.8
2024-05-10T1600,1453A,102.7266,25.0375,昆明市,东风东路,,40,21,24,16,16,126,,107,107,10,14,6,7,0.5,0.6
2024-05-10T1600,1454A,102.6742,25.0669,昆明市,金鼎山,,40,15,27,15,15,128,,112,112,12,17,1,2,0.5,0.6
2024-05-10T1600,1455A,102.6644,25.0401,昆明市,碧鸡广场,,40,15,23,11,15,126,,107,107,10,17,3,4,0.5,0.7
2024-05-10T1600,3179A,102.7494,25.0119,昆明市,官渡区博物馆,,44,20,27,14,14,139,,120,120,8,13,9,9,0.4,0.6
2024-05-10T1600,3375A,102.8017,24.8336,昆明市,青年创业园,,43,10,20,8,16,136,,113,113,5,12,8,8,0.5,0.6
2024-05-10T1600,3550A,102.7997,24.9786,昆明市,昆明学院,,45,16,23,9,16,141,,119,119,8,13,8,8,0.5,0.6
2024-05-10T1600,3551A,102.5967,24.6736,昆明市,晋宁区生态环境分局,,41,11,24,7,18,130,,110,110,4,8,1,2,0.5,0.7
2024-05-10T1600,3552A,102.6678,24.9856,昆明市,云天化总部,,44,14,20,10,16,140,,121,121,5,7,7,7,0.6,0.6
2024-05-10T1600,1456A,91.1319,29.6514,拉萨市,八廓街,,42,13,15,7,10,134,,129,123,4,5,7,7,0.3,0.3
2024-05-10T1600,1457A,91.1221,29.6747,拉萨市,市环保局,,40,36,16,12,9,128,,123,122,14,13,6,6,0.3,0.3
2024-05-10T1600,1458A,91.0874,29.6475,拉萨市,区监测站,,41,17,13,12,9,130,,124,118,11,10,5,5,0.1,0.2
2024-05-10T1600,1459A,91.1774,29.6541,拉萨市,西藏大学,,41,23,14,14,9,130,,118,118,5,6,3,3,0.3,0.3
2024-05-10T1600,1460A,90.9798,29.6588,拉萨市,区辐射站,,39,18,14,8,9,123,,122,113,13,13,6,6,0.4,0.4
2024-05-10T1600,1461A,91.0834,29.6292,拉萨市,拉萨火车站,,42,11,14,7,9,134,,124,115,6,10,6,6,0.2,0.3
2024-05-10T1600,2520A,109.2203,23.7256,来宾市,来宾技工学校,,41,41,27,24,17,63,,55,55,12,13,6,6,0.9,0.9
2024-05-10T1600,3535A,109.1781,23.7297,来宾市,兴宾区政府,,45,33,24,31,15,66,,55,55,8,14,6,6,0.8,0.8
2024-05-10T1600,4002A,109.2416,23.7461,来宾市,中南小学,,49,49,26,27,18,67,,58,58,9,14,7,6,0.8,0.9
2024-05-10T1600,1476A,103.631,36.1031,兰州市,兰炼宾馆,,32,32,100,18,49,89,,120,111,28,27,4,6,0.2,0.3
2024-05-10T1600,1478A,103.8412,36.0726,兰州市,生物制品所,,46,,98,32,51,105,,118,111,10,15,10,11,0.2,0.3
2024-05-10T1600,1479A,103.831,36.0464,兰州市,铁路设计院,,31,31,90,17,35,99,,109,104,24,27,9,11,0.3,0.3
2024-05-10T1600,3186A,103.7158,36.1058,兰州市,教育港,,30,28,114,17,44,93,,123,112,16,16,7,8,0.3,0.3
2024-05-10T1600,3241A,103.7439,36.0842,兰州市,百合公园,,27,24,90,16,39,85,,116,106,16,21,3,4,0.2,0.2
2024-05-10T1600,3242A,103.9611,35.998,兰州市,和平,,35,20,107,7,38,111,,115,115,10,15,7,9,0.2,0.4
2024-05-10T1600,3245A,103.6633,36.533,兰州新区,新区管委会,,36,21,115,14,43,115,,117,116,6,6,7,7,0.3,0.3
2024-05-10T1600,3246A,103.6975,36.4789,兰州新区,舟曲中学,,35,15,153,3,43,110,,116,114,11,9,8,14,0.3,0.3
2024-05-10T1600,1067A,116.6708,39.5111,廊坊市,药材公司,臭氧1小时,94,104,85,44,36,195,,166,166,17,14,6,5,0.7,0.5
2024-05-10T1600,1068A,116.7214,39.5589,廊坊市,开发区,臭氧1小时,89,115,84,46,32,191,,163,163,16,15,7,6,0.6,0.5
2024-05-10T1600,1070A,116.7244,39.5269,廊坊市,北华航天学院,臭氧1小时,88,115,98,37,31,190,,160,160,15,14,5,4,0.6,0.4
2024-05-10T1600,2919A,116.7022,39.5453,廊坊市,河北工业大学,臭氧1小时,97,123,94,40,33,197,,165,165,13,14,4,3,0.6,0.4
2024-05-10T1600,2535A,103.7723,29.5462,乐山市,花湖湾,,37,23,30,21,24,117,,80,80,5,10,3,3,0.6,0.6
2024-05-10T1600,2536A,103.7627,29.5844,乐山市,牛耳桥,,37,31,32,23,24,117,,87,87,10,18,4,5,0.5,0.5
2024-05-10T1600,2537A,103.7508,29.6006,乐山市,市第三水厂,,36,30,31,23,23,114,,85,85,6,15,3,3,0.4,0.5
2024-05-10T1600,2538A,103.7571,29.5664,乐山市,市监测站,,38,29,30,22,20,121,,90,90,5,13,5,5,0.5,0.5
2024-05-10T1600,3361A,103.7311,29.5628,乐山市,理工大学,,42,33,31,29,24,125,,97,97,4,11,5,8,0.5,0.5
2024-05-10T1600,2599A,100.2497,26.8802,丽江市,丽江古城,,42,37,25,14,15,132,,118,118,9,9,6,6,0.4,0.5
2024-05-10T1600,2600A,100.2203,26.8906,丽江市,市中心,,43,22,17,10,10,135,,117,117,6,9,8,8,0.5,0.5
2024-05-10T1600,1267A,119.914,28.4514,丽水市,监测站大楼,,40,,36,28,15,114,,101,101,11,11,3,3,0.2,0.3
2024-05-10T1600,1268A,119.93,28.4586,丽水市,莲都小学,,36,30,31,14,13,115,,97,97,9,13,4,4,0.3,0.3
2024-05-10T1600,1269A,119.879,28.4231,丽水市,余庄前,,36,23,32,13,17,114,,90,90,8,13,4,4,0.3,0.3
2024-05-10T1600,1173A,119.176,34.5885,连云港市,市环境监测站,臭氧1小时,67,63,58,22,32,173,,142,142,10,18,7,8,0.3,0.4
2024-05-10T1600,3000A,119.3581,34.6972,连云港市,德源药业,臭氧1小时,93,58,49,19,23,194,,153,153,11,17,6,8,0.5,0.5
2024-05-10T1600,3007A,119.178,34.844,连云港市,新城一中,臭氧1小时,94,74,72,21,26,195,,170,170,14,20,8,9,0.6,0.7
2024-05-10T1600,3008A,119.3608,34.7519,连云港市,胡沟管理处,臭氧1小时,90,46,49,19,21,192,,157,157,7,14,8,9,0.5,0.5
2024-05-10T1600,3009A,119.1478,34.5911,连云港市,矿山设计院,臭氧1小时,67,75,69,22,28,173,,140,140,9,18,8,10,0.6,0.7
2024-05-10T1600,3434A,119.2413,34.6539,连云港市,工贸学校,臭氧1小时,90,48,54,21,26,192,,159,159,8,14,9,11,0.6,0.6
2024-05-10T1600,3664A,119.4172,34.7341,连云港市,连云街道,臭氧1小时,99,40,52,21,28,199,,163,163,10,18,5,6,0.7,0.7
2024-05-10T1600,2571A,102.3431,27.8099,凉山彝族自治州,青龙寺,,,20,17,,4,130,,116,116,4,8,7,7,0.5,0.5
2024-05-10T1600,2572A,102.2721,27.8415,凉山彝族自治州,邛海宾馆,,42,20,17,10,13,132,,113,113,4,8,10,11,0.5,0.6
2024-05-10T1600,2573A,102.2625,27.898,凉山彝族自治州,西昌市政府,,40,25,22,16,15,128,,112,112,7,10,16,12,0.5,0.6
2024-05-10T1600,2574A,102.2685,27.8851,凉山彝族自治州,凉山州政府,,39,20,20,11,15,124,,109,109,6,9,13,11,0.4,0.6
2024-05-10T1600,2575A,102.237,27.8914,凉山彝族自治州,长安,,40,34,27,14,16,127,,115,115,10,11,14,15,0.6,0.9
2024-05-10T1600,2212A,123.2,41.1953,辽阳市,宏伟区,,49,49,79,13,27,146,,141,132,8,14,10,11,0.6,0.7
2024-05-10T1600,2213A,123.1683,41.2495,辽阳市,新华园,颗粒物(PM10),59,67,91,18,30,148,,141,134,9,23,11,13,0.6,0.7
2024-05-10T1600,2214A,123.2354,41.2639,辽阳市,滨河路,颗粒物(PM10),72,93,101,30,36,139,,134,125,9,18,8,10,0.4,0.5
2024-05-10T1600,2215A,123.149,41.2991,辽阳市,铁西工业园,颗粒物(PM10),104,157,107,24,43,128,,138,129,73,23,11,14,0.5,0.7
2024-05-10T1600,2227A,125.1358,42.8845,辽源市,环保局,,44,43,42,13,21,140,,150,150,10,26,6,8,0.5,0.7
2024-05-10T1600,3239A,125.0764,42.9078,辽源市,银鹰制药,颗粒物(PM10),62,74,61,17,23,129,,139,139,11,30,6,11,0.5,0.6
2024-05-10T1600,1625A,115.9848,36.4372,聊城市,区政府,颗粒物(PM10),81,112,81,13,26,167,,157,157,7,15,3,8,0.6,0.7
2024-05-10T1600,2878A,116.0072,36.4343,聊城市,聊大东校,,,,58,,31,177,,166,166,16,16,7,10,0.7,0.7
2024-05-10T1600,3200A,115.9819,36.4978,聊城市,监控中心,颗粒物(PM10),111,171,102,24,22,179,,167,167,7,11,8,10,0.6,0.5
2024-05-10T1600,3513A,116.0445,36.4361,聊城市,九州社区,颗粒物(PM10),81,111,82,36,23,180,,170,170,7,11,3,9,0.4,0.4
2024-05-10T1600,4018A,116.0567,36.4608,聊城市,星美广场,颗粒物(PM10),85,120,91,16,30,180,,174,174,8,10,4,7,0.5,0.6
2024-05-10T1600,2632A,94.3681,29.6376,林芝市,林芝监测站,,35,12,5,6,4,110,,102,102,2,2,6,6,0.4,0.4
2024-05-10T1600,2633A,94.3616,29.6616,林芝市,林芝人民医院,,35,24,16,6,5,111,,104,104,6,6,7,7,0.4,0.4
2024-05-10T1600,2603A,100.0781,23.8982,临沧市,市环保局,,38,16,33,12,26,119,,98,98,6,13,6,8,0.2,0.4
2024-05-10T1600,2604A,100.0894,23.8822,临沧市,市气象局,,37,22,32,17,28,116,,96,96,8,14,6,9,0.4,0.6
2024-05-10T1600,1733A,111.5531,36.0783,临汾市,临钢医院,,48,42,66,16,27,152,,139,139,4,16,10,9,0.6,0.6
2024-05-10T1600,1734A,111.5028,36.0714,临汾市,技工学校,,50,38,62,25,33,160,,145,145,9,19,7,8,0.5,0.6
2024-05-10T1600,1736A,111.5018,36.0855,临汾市,市委,臭氧1小时,59,36,63,11,25,167,,152,152,1,10,11,11,0.9,1
2024-05-10T1600,3018A,111.505,36.1014,临汾市,唐尧大酒店,,,,76,,27,149,,137,137,,15,7,10,,0.8
2024-05-10T1600,3668A,111.5036,36.0414,临汾市,城南,颗粒物(PM10),52,54,62,19,34,158,,142,142,10,22,10,8,0.5,0.7
2024-05-10T1600,2667A,103.2069,35.5993,临夏回族自治州,环保局,,38,31,83,26,32,97,,94,94,1,12,3,5,0.2,0.3
2024-05-10T1600,2668A,103.2417,35.6057,临夏回族自治州,建设大厦,,34,34,78,19,32,103,,92,92,1,12,8,10,0.3,0.3
2024-05-10T1600,1618A,118.3429,35.0532,临沂市,沂河小区,臭氧1小时,82,68,68,30,41,185,,170,170,15,25,9,15,0.4,0.5
2024-05-10T1600,1619A,118.295,35.0583,临沂市,鲁南制药厂,臭氧1小时,101,78,69,27,31,201,,173,173,10,22,8,15,0.4,0.5
2024-05-10T1600,1620A,118.2794,34.9976,临沂市,新光毛纺厂,臭氧1小时,90,68,65,22,38,192,,177,177,8,23,6,14,0.5,0.6
2024-05-10T1600,1621A,118.3956,35.0888,临沂市,河东保险公司,臭氧1小时,85,58,65,24,38,188,,165,165,9,29,8,11,0.2,0.4
2024-05-10T1600,3370A,118.3564,35.0215,临沂市,十里堡居委,臭氧1小时,92,92,66,31,36,193,,170,170,10,23,7,13,0.4,0.6
2024-05-10T1600,3496A,118.3604,35.1084,临沂市,南坊新区,臭氧1小时,83,63,62,34,36,186,,161,161,16,25,9,14,0.5,0.6
2024-05-10T1600,3860A,118.3920,35.0300,临沂市,皇山花园小区,臭氧1小时,82,61,67,26,40,185,,170,170,12,26,10,15,0.5,0.6
2024-05-10T1600,1870A,109.4856,24.3895,柳州市,柳东小学,,33,29,24,23,17,62,,44,41,10,16,8,8,0.6,0.6
2024-05-10T1600,1871A,109.4157,24.3277,柳州市,环保监测站,,42,42,28,27,19,74,,42,42,13,16,7,8,0.8,0.8
2024-05-10T1600,1872A,109.389,24.341,柳州市,河西水厂,,41,41,25,19,17,73,,47,47,13,14,7,7,0.9,0.9
2024-05-10T1600,1873A,109.4311,24.2921,柳州市,市四中,,45,45,28,23,20,74,,48,48,14,17,6,6,0.9,0.9
2024-05-10T1600,1874A,109.4006,24.3631,柳州市,市九中,,45,45,29,28,17,66,,43,41,20,17,6,7,0.8,0.7
2024-05-10T1600,1875A,109.4958,24.3134,柳州市,古亭山,,,,25,,16,78,,48,48,12,21,,7,,0.6
2024-05-10T1600,3402A,109.5422,24.3996,柳州市,市二中,,39,39,27,22,17,69,,44,44,14,18,8,9,0.6,0.5
2024-05-10T1600,2307A,116.5079,31.737,六安市,监测大楼,臭氧1小时,64,38,37,36,26,171,,149,149,7,14,6,5,0.6,0.5
2024-05-10T1600,2308A,116.4738,31.7643,六安市,皖西学院,臭氧1小时,69,60,45,37,22,175,,157,157,10,15,6,4,0.6,0.5
2024-05-10T1600,2309A,116.4996,31.7905,六安市,朝阳厂,臭氧1小时,58,51,42,32,26,166,,142,142,5,12,7,6,0.4,0.4
2024-05-10T1600,2310A,116.5567,31.7886,六安市,开发区,臭氧1小时,59,54,70,30,45,167,,147,147,12,19,19,11,0.6,0.8
2024-05-10T1600,2577A,104.83,26.5917,六盘水市,黄土坡,,37,29,16,6,11,118,,102,102,12,10,7,6,0.3,0.5
2024-05-10T1600,2578A,104.89,26.5939,六盘水市,水钢,,39,25,17,16,12,122,,104,104,5,5,9,8,0.3,0.3
2024-05-10T1600,2579A,104.8475,26.5894,六盘水市,民中,,37,27,15,17,10,116,,98,98,10,9,6,6,0.4,0.4
2024-05-10T1600,2580A,104.9544,26.5506,六盘水市,双水,,39,24,9,2,6,124,,100,100,6,5,7,6,0.3,0.4
2024-05-10T1600,2336A,117.0217,25.1033,龙岩市,龙岩市监测站,细颗粒物(PM2.5),63,59,53,45,42,125,,103,103,21,30,10,10,0.7,0.6
2024-05-10T1600,2337A,117.0258,25.0661,龙岩市,闽西职业技术学院,细颗粒物(PM2.5),65,71,58,47,44,118,,92,92,24,26,11,14,0.7,0.6
2024-05-10T1600,2338A,117.0196,25.0306,龙岩市,龙岩学院,细颗粒物(PM2.5),69,76,52,50,42,136,,88,88,19,18,12,7,0.9,0.7
2024-05-10T1600,2885A,104.9339,33.3826,陇南市,滨江中学,颗粒物(PM10),66,82,55,28,19,126,,89,89,1,4,5,5,0.6,0.6
2024-05-10T1600,3247A,104.955,33.371,陇南市,市总工会,颗粒物(PM10),58,65,35,18,10,119,,83,83,4,7,5,6,0.7,0.8
2024-05-10T1600,2487A,111.9589,27.8901,娄底市,电视发射台,细颗粒物(PM2.5),53,54,47,37,30,89,,81,81,17,10,16,9,1.5,1
2024-05-10T1600,2488A,111.9975,27.725,娄底市,市监测站,细颗粒物(PM2.5),59,61,52,42,36,89,,87,83,9,8,8,9,0.8,0.7
2024-05-10T1600,2489A,112.0194,27.7314,娄底市,市委党校,细颗粒物(PM2.5),70,56,55,51,39,78,,82,82,12,10,9,12,0.5,0.4
2024-05-10T1600,2490A,111.9561,27.7569,娄底市,涟钢,细颗粒物(PM2.5),72,68,65,52,41,68,,59,59,40,29,24,17,2.8,0.9
2024-05-10T1600,2491A,111.9892,27.7044,娄底市,市政府,细颗粒物(PM2.5),65,64,48,47,37,93,,88,88,14,9,11,10,0.5,0.7
2024-05-10T1600,1893A,105.4324,28.9634,泸州市,九狮山,,35,13,45,13,31,111,,72,72,6,16,5,5,0.1,0.5
2024-05-10T1600,1894A,105.4427,28.9063,泸州市,小市上码头,,37,24,59,24,42,117,,76,76,5,21,6,6,0.3,0.4
2024-05-10T1600,1895A,105.4241,28.8573,泸州市,兰田宪桥,,39,31,66,24,46,122,,79,79,7,17,6,6,0.3,0.5
2024-05-10T1600,1896A,105.4379,28.8833,泸州市,市环监站,,34,21,60,18,47,108,,71,71,7,23,4,7,0.4,0.6
2024-05-10T1600,3490A,105.3617,28.7703,泸州市,纳溪区环保局,细颗粒物(PM2.5),58,,47,41,44,133,,80,80,10,24,2,3,0.4,0.4
2024-05-10T1600,2183A,111.1406,37.5211,吕梁市,环保局,颗粒物(PM10),55,59,65,22,26,96,,108,108,30,42,6,5,0.5,0.6
2024-05-10T1600,2185A,111.1297,37.5136,吕梁市,自来水公司,颗粒物(PM10),55,60,56,20,28,101,,104,104,22,33,6,6,0.5,0.6
2024-05-10T1600,2867A,111.1283,37.51,吕梁市,马茂庄小学,颗粒物(PM10),60,70,66,25,28,107,,110,110,22,45,4,4,0.5,0.6
2024-05-10T1600,1812A,112.3931,34.6516,洛阳市,市委党校,,43,29,60,23,38,135,,150,150,4,11,1,8,0.4,0.6
2024-05-10T1600,1814A,112.4657,34.6871,洛阳市,豫西宾馆,,45,30,73,20,34,142,,158,158,5,13,3,9,0.4,0.5
2024-05-10T1600,1815A,112.494,34.6886,洛阳市,河南林校,,44,28,60,19,37,138,,149,149,9,17,4,9,0.3,0.5
2024-05-10T1600,1816A,112.3844,34.623,洛阳市,开发区管委会,,46,36,60,22,35,145,,150,150,6,12,3,8,0.3,0.5
2024-05-10T1600,1817A,112.4267,34.6258,洛阳市,市委新办公区,,48,35,58,27,39,151,,152,152,5,12,5,10,0.7,0.8
2024-05-10T1600,3340A,112.6005,34.6326,洛阳市,伊滨,臭氧1小时,58,43,72,24,34,166,,150,150,7,15,7,7,0.4,0.5
2024-05-10T1600,3341A,112.4951,34.6332,洛阳市,中移产业园,臭氧1小时,60,41,62,30,35,168,,153,153,6,14,5,8,0.6,0.6
2024-05-10T1600,3593A,112.5736,34.8993,洛阳市,吉利监测站,颗粒物(PM10),51,51,76,16,30,145,,158,158,8,29,3,3,0.2,0.3
2024-05-10T1600,3635A,112.3677,34.662,洛阳市,河科大西苑校区,,41,27,65,17,31,130,,147,147,2,8,1,8,0.4,0.5
2024-05-10T1600,3636A,112.4388,34.6781,洛阳市,英才小学,,42,25,68,16,34,133,,152,152,5,12,3,10,0.5,0.7
2024-05-10T1600,2399A,114.051,33.5699,漯河市,三五一五工厂,颗粒物(PM10),52,54,70,23,31,155,,145,145,5,14,5,6,0.5,0.6
2024-05-10T1600,2400A,114.0055,33.5698,漯河市,漯河大学,颗粒物(PM10),52,53,67,31,35,156,,152,152,13,16,7,8,0.4,0.4
2024-05-10T1600,2401A,114.0138,33.5828,漯河市,市水利局,颗粒物(PM10),57,63,66,34,34,157,,147,147,6,13,6,8,0.4,0.5
2024-05-10T1600,2402A,114.0261,33.5698,漯河市,市广电局,,,,63,24,32,158,,148,148,4,13,4,5,0.4,0.6
2024-05-10T1600,3478A,113.9749,33.5664,漯河市,市图书馆,颗粒物(PM10),55,59,60,26,34,159,,150,150,4,11,4,6,0.5,0.5
2024-05-10T1600,3479A,114.0967,33.5906,漯河市,召陵区卫健委,颗粒物(PM10),80,110,74,26,32,157,,148,148,8,15,5,6,0.4,0.4
2024-05-10T1600,1798A,118.5092,31.6837,马鞍山市,湖东路四小,臭氧1小时,106,71,53,23,25,212,,172,172,13,21,8,8,0.7,0.7
2024-05-10T1600,1799A,118.5024,31.6449,马鞍山市,开发区,臭氧1小时,101,60,57,27,29,201,,186,186,15,34,9,9,,0.7
2024-05-10T1600,1800A,118.5228,31.7231,马鞍山市,慈湖,臭氧1小时,101,51,46,35,29,202,,162,162,17,29,6,6,0.7,0.6
2024-05-10T1600,1802A,118.6245,31.7241,马鞍山市,濮塘,臭氧1小时,88,54,45,30,26,190,,163,163,9,16,4,6,0.8,0.7
2024-05-10T1600,3633A,118.4918,31.6809,马鞍山市,雨山,臭氧1小时,108,54,50,29,27,215,,173,173,10,21,11,11,0.7,0.6
2024-05-10T1600,1686A,111.0286,21.4688,茂名市,电白南海,,33,27,53,17,26,104,,110,109,10,9,9,9,0.5,0.6
2024-05-10T1600,1687A,110.9294,21.6533,茂名市,茂石化七小,,36,36,51,17,29,100,,104,103,8,10,10,11,0.7,0.8
2024-05-10T1600,1688A,110.9107,21.6687,茂名市,健康路,,34,34,48,14,21,98,,105,101,6,9,8,9,0.6,0.7
2024-05-10T1600,1689A,110.8592,21.6828,茂名市,高岭,,44,44,54,17,29,98,,108,103,7,14,8,12,0.7,0.8
2024-05-10T1600,3450A,111.01,21.5165,茂名市,电白水东,,33,22,45,12,24,104,,120,113,13,13,4,7,0.5,0.6
2024-05-10T1600,2539A,104.0308,30.0478,眉山市,黑龙滩水库,,35,30,38,24,29,108,,84,84,6,7,4,4,0.4,0.4
2024-05-10T1600,2540A,103.8416,30.0874,眉山市,气象局,,49,38,40,34,18,115,,86,86,12,16,8,9,0.4,0.5
2024-05-10T1600,3137A,103.8578,30.0744,眉山市,市委党校,,46,46,40,29,27,106,,82,82,12,16,7,7,0.4,0.4
2024-05-10T1600,3148A,103.8291,30.0564,眉山市,区人社局,,39,30,39,27,28,112,,78,78,17,20,8,8,0.4,0.4
2024-05-10T1600,1690A,116.1231,24.3284,梅州市,梅江月梅,,45,38,48,23,33,143,,123,123,6,13,6,5,0.6,0.7
2024-05-10T1600,1691A,116.0797,24.2719,梅州市,梅县新城,,44,38,49,18,30,138,,117,117,6,20,4,4,0.5,0.6
2024-05-10T1600,1692A,116.1248,24.2654,梅州市,环境监控中心,,41,39,50,19,31,130,,118,118,8,24,3,4,0.6,0.7
2024-05-10T1600,3315A,116.1233,24.2991,梅州市,梅龙,,46,46,51,21,36,136,,124,124,8,11,8,13,0.7,0.8
2024-05-10T1600,1878A,104.7778,31.4741,绵阳市,富乐山,,,43,51,33,42,,,77,77,7,8,,8,0.4,0.5
2024-05-10T1600,1879A,104.7563,31.4535,绵阳市,市人大,颗粒物(PM10),52,53,56,26,36,93,,70,70,16,13,4,7,0.5,0.6
2024-05-10T1600,1880A,104.6697,31.4668,绵阳市,高新区自来水公司,颗粒物(PM10),60,70,69,39,43,86,,59,59,19,16,10,9,0.4,0.5
2024-05-10T1600,1881A,104.7287,31.5075,绵阳市,三水厂,细颗粒物(PM2.5),67,54,53,48,52,88,,58,58,18,12,7,7,0.6,0.7
2024-05-10T1600,3491A,104.69,31.5322,绵阳市,西科大附属小学,,45,43,56,31,40,90,,53,53,10,19,8,6,0.5,0.6
2024-05-10T1600,3492A,104.5648,31.5343,绵阳市,安州区旅游局,细颗粒物(PM2.5),54,50,59,38,50,89,,61,61,10,15,6,6,0.6,0.7
2024-05-10T1600,1784A,129.61,44.561,牡丹江市,环保大楼,,45,31,31,31,25,46,,47,44,21,18,8,6,0.4,0.3
2024-05-10T1600,1785A,129.6115,44.5782,牡丹江市,文化广场,,46,,44,32,33,43,,36,34,22,26,8,10,0.5,0.4
2024-05-10T1600,1786A,129.5904,44.5963,牡丹江市,第一医院,,42,,35,29,20,43,,36,36,19,21,5,6,0.4,0.4
2024-05-10T1600,1787A,129.6364,44.6075,牡丹江市,机车工厂,,30,30,51,15,20,49,,42,42,9,19,5,8,0.3,0.4
2024-05-10T1600,1788A,129.6386,44.5462,牡丹江市,第一中学,,29,29,31,19,18,46,,43,43,20,19,6,6,0.3,0.3
2024-05-10T1600,2531A,105.0703,29.61,内江市,市监测站,细颗粒物(PM2.5),64,,38,46,38,52,,56,56,30,23,7,7,0.5,0.5
2024-05-10T1600,2532A,105.0717,29.5947,内江市,东兴区政府,,50,50,39,32,28,64,,64,64,20,18,10,9,0.6,0.6
2024-05-10T1600,2533A,105.0653,29.5817,内江市,内江二中,细颗粒物(PM2.5),57,50,40,40,35,59,,61,61,19,16,8,8,0.6,0.5
2024-05-10T1600,2534A,105.0406,29.5822,内江市,内江日报社,细颗粒物(PM2.5),67,51,43,48,40,59,,62,62,31,27,7,7,0.7,0.6
2024-05-10T1600,2628A,92.0657,31.4846,那曲市,那曲监测站,,45,36,33,14,22,144,,112,112,7,10,3,6,0.4,0.6
2024-05-10T1600,3128A,92.0506,31.4797,那曲市,那曲会议中心,,50,50,35,17,18,148,,117,117,2,8,2,2,0.4,0.5
2024-05-10T1600,1290A,115.8931,28.6843,南昌市,省外办,,49,49,74,31,46,100,,118,115,11,25,6,12,0.5,0.6
2024-05-10T1600,1291A,115.8886,28.7003,南昌市,省林业公司,,41,41,70,27,46,107,,124,124,21,25,6,12,0.5,0.5
2024-05-10T1600,1292A,115.8126,28.7442,南昌市,林科所,,42,36,57,29,35,85,,128,127,27,34,6,10,0.3,0.6
2024-05-10T1600,1294A,115.8518,28.687,南昌市,建工学校,颗粒物(PM10),56,61,75,29,44,103,,125,125,21,25,6,14,0.6,0.6
2024-05-10T1600,1295A,115.8921,28.6424,南昌市,象湖,颗粒物(PM10),53,56,65,32,43,120,,130,130,22,23,9,12,0.6,0.6
2024-05-10T1600,1296A,115.7423,28.7996,南昌市,武术学校,细颗粒物(PM2.5),62,,28,44,35,79,,108,108,6,8,6,9,0.4,0.4
2024-05-10T1600,1298A,115.9314,28.6842,南昌市,省站,"颗粒物(PM10),细颗粒物(PM2.5)",60,70,77,43,48,102,,126,126,29,19,10,14,0.7,0.7
2024-05-10T1600,3046A,115.9084,28.6062,南昌市,机电学校,颗粒物(PM10),61,72,76,41,43,126,,133,133,19,20,14,14,0.7,0.7
2024-05-10T1600,3690A,115.9721,28.7031,南昌市,外国语学校,细颗粒物(PM2.5),53,49,67,37,41,112,,126,126,22,19,5,8,0.6,0.7
2024-05-10T1600,1905A,106.056,30.8064,南充市,西山风景区,,40,32,44,28,39,59,,47,47,11,10,2,3,0.6,0.6
2024-05-10T1600,1906A,106.0789,30.8023,南充市,南充市委,,45,37,57,31,45,72,,56,56,10,18,5,5,0.3,0.4
2024-05-10T1600,1907A,106.1031,30.8217,南充市,南充炼油厂,颗粒物(PM10),51,51,67,30,43,75,,65,65,10,16,6,6,0.4,0.6
2024-05-10T1600,1908A,106.1064,30.7856,南充市,高坪区监测站,,33,33,60,19,39,74,,54,54,9,16,5,6,0,0.1
2024-05-10T1600,1909A,106.0642,30.7636,南充市,嘉陵区环保局,,35,33,60,24,42,73,,53,53,14,24,5,6,0.4,0.5
2024-05-10T1600,1910A,106.1087,30.8388,南充市,市环境监测站,,41,41,58,25,40,64,,55,55,14,16,5,6,0.6,0.7
2024-05-10T1600,1151A,118.8086,32.1065,南京市,迈皋桥,臭氧1小时,105,46,33,24,19,210,,166,166,19,20,5,4,0.6,0.6
2024-05-10T1600,1152A,118.7538,32.0551,南京市,草场门,臭氧1小时,105,56,39,39,27,210,,166,166,11,22,4,3,0.4,0.3
2024-05-10T1600,1153A,118.7794,32.0745,南京市,山西路,臭氧1小时,101,51,45,29,18,202,,156,156,9,16,5,4,0.4,0.3
2024-05-10T1600,1154A,118.7752,32.0023,南京市,中华门,臭氧1小时,78,56,38,29,21,182,,148,148,10,21,6,8,0.8,0.7
2024-05-10T1600,1155A,118.8109,32.0309,南京市,瑞金路,臭氧1小时,94,57,47,29,23,195,,151,151,5,18,8,8,0.3,0.3
2024-05-10T1600,1156A,118.7997,32.0754,南京市,玄武湖,臭氧1小时,90,60,40,30,22,192,,149,149,6,16,8,8,0.6,0.4
2024-05-10T1600,1157A,118.6414,32.0931,南京市,浦口,臭氧1小时,74,47,43,27,22,179,,146,146,10,24,7,6,0.5,0.5
2024-05-10T1600,1158A,118.7356,31.9996,南京市,奥体中心,臭氧1小时,97,60,45,34,25,197,,155,155,9,21,8,8,0.5,0.4
2024-05-10T1600,1159A,118.9125,32.1028,南京市,仙林大学城,臭氧1小时,102,51,42,27,17,203,,162,162,14,22,10,10,0.5,0.4
2024-05-10T1600,3422A,118.8436,31.9198,南京市,江宁彩虹桥,臭氧1小时,90,56,42,27,24,192,,159,159,6,18,4,4,0.6,0.6
2024-05-10T1600,3423A,119.0138,31.6494,南京市,溧水永阳,臭氧1小时,77,34,37,27,23,181,,160,160,11,24,4,4,0.3,0.3
2024-05-10T1600,3424A,118.879,31.3302,南京市,高淳老职中,,50,33,36,27,25,160,,151,151,12,21,5,6,0.3,0.3
2024-05-10T1600,3427A,118.8554,32.3578,南京市,六合雄州,臭氧1小时,108,40,40,29,22,215,,164,164,15,24,9,5,0.9,0.5
2024-05-10T1600,1401A,108.3103,22.7881,南宁市,二十一中,,32,16,24,12,18,100,,81,81,7,14,4,4,0.7,0.9
2024-05-10T1600,1402A,108.3141,22.8528,南宁市,北湖,,30,14,26,13,20,94,,71,71,8,14,4,4,0.7,0.8
2024-05-10T1600,1403A,108.3206,22.8225,南宁市,市监测站,,30,17,25,10,21,94,,74,74,11,16,5,4,0.6,0.8
2024-05-10T1600,1404A,108.3829,22.8037,南宁市,大自然花园,,30,18,24,12,21,95,,75,75,6,13,4,4,0.5,0.7
2024-05-10T1600,1405A,108.4394,22.7904,南宁市,仙葫,,27,14,27,12,19,85,,68,68,7,13,4,4,0.7,0.9
2024-05-10T1600,1406A,108.2397,22.8467,南宁市,区农职院,,30,30,26,10,19,96,,75,75,12,19,5,5,0.7,0.9
2024-05-10T1600,1407A,108.3275,22.735,南宁市,英华嘉园,,,26,28,9,20,,,65,65,15,18,6,6,0.7,0.9
2024-05-10T1600,1408A,108.2257,22.7757,南宁市,沙井镇街道办,,,14,27,10,21,86,,68,68,,24,,4,0.5,0.7
2024-05-10T1600,3401A,108.4834,22.7618,南宁市,红星社区,,31,18,28,8,23,98,,79,79,8,15,7,7,0.5,0.7
2024-05-10T1600,2332A,118.1681,26.6369,南平市,南平市监测站,,38,18,29,10,17,119,,111,111,10,13,4,5,0.4,0.5
2024-05-10T1600,2333A,118.1825,26.6489,南平市,南平铝业有限公司,,35,32,32,6,15,112,,104,104,8,12,4,5,0.4,0.6
2024-05-10T1600,2334A,118.1756,26.6272,南平市,南平七中,,36,25,28,12,17,114,,108,108,8,10,4,5,0.5,0.6
2024-05-10T1600,1168A,120.9098,31.9663,南通市,狼山街道,臭氧1小时,70,50,31,11,10,176,,132,132,24,33,11,11,0.5,0.4
2024-05-10T1600,1169A,120.86,32.0005,南通市,虹桥,臭氧1小时,79,53,36,18,11,183,,144,144,24,30,7,7,0.5,0.4
2024-05-10T1600,1170A,120.87,32.02,南通市,城中,颗粒物(PM10),59,68,42,23,17,140,,112,112,23,33,7,7,0.6,0.5
2024-05-10T1600,1171A,120.94,31.93,南通市,星湖花园,臭氧1小时,64,54,30,8,9,171,,129,129,29,33,9,9,0.5,0.5
2024-05-10T1600,1172A,120.81,32.0417,南通市,紫琅学院,臭氧1小时,85,42,30,18,9,188,,138,138,37,40,10,11,0.5,0.4
2024-05-10T1600,3291A,121.067,32.062,南通市,通州监测站,臭氧1小时,93,56,33,14,7,194,,147,147,14,17,10,10,0.5,0.5
2024-05-10T1600,3432A,120.9348,31.9883,南通市,环境教育馆,臭氧1小时,74,58,37,12,11,179,,132,132,27,31,9,9,0.5,0.5
2024-05-10T1600,2404A,112.5224,33.0122,南阳市,瓦房庄,细颗粒物(PM2.5),54,53,56,38,36,143,,133,133,22,18,6,7,0.5,0.5
2024-05-10T1600,2405A,112.5003,32.9735,南阳市,汉画馆,"颗粒物(PM10),细颗粒物(PM2.5)",63,75,64,45,42,152,,139,139,14,19,4,6,0.5,0.5
2024-05-10T1600,2406A,112.5573,33.027,南阳市,气象站,颗粒物(PM10),55,59,56,31,32,151,,141,141,14,16,4,5,0.8,0.8
2024-05-10T1600,2407A,112.5481,32.9689,南阳市,理工学院,颗粒物(PM10),52,54,58,29,32,156,,142,142,7,17,4,6,0.6,0.6
2024-05-10T1600,4008A,112.5234,32.9922,南阳市,卧龙区政府,细颗粒物(PM2.5),57,55,56,40,37,154,,140,140,11,17,6,7,0.7,0.7
2024-05-10T1600,1234A,121.8358,29.911,宁波市,区环保大楼,,35,29,20,10,7,112,,110,110,7,7,4,4,0.5,0.5
2024-05-10T1600,1235A,121.56,29.82,宁波市,万里学院,,43,26,20,18,9,136,,125,125,9,15,4,4,0.4,0.4
2024-05-10T1600,1236A,121.713,29.9572,宁波市,龙赛医院,,38,32,17,10,8,121,,117,117,8,10,4,4,0.4,0.4
2024-05-10T1600,1239A,121.633,29.7733,宁波市,钱湖水厂,,40,19,14,15,9,125,,116,116,4,5,3,3,0.5,0.5
2024-05-10T1600,1240A,121.5856,29.8635,宁波市,太古小学,,37,23,20,16,8,118,,113,113,13,15,5,5,0.4,0.5
2024-05-10T1600,1241A,121.524,29.8674,宁波市,市环境监测中心,,43,29,20,15,7,137,,126,126,11,16,9,9,0.4,0.4
2024-05-10T1600,2871A,121.6147,29.9017,宁波市,万里国际学校,,42,25,26,10,11,132,,124,124,10,14,3,3,0.4,0.4
2024-05-10T1600,3710A,121.5594,29.8975,宁波市,白沙活动中心,,39,30,22,6,5,122,,118,118,13,17,9,9,0.5,0.4
2024-05-10T1600,2341A,119.5388,26.6612,宁德市,宁德市监测站,,39,39,20,14,12,121,,96,96,12,12,10,8,0.6,0.4
2024-05-10T1600,3209A,119.5231,26.6562,宁德市,宁德一中,,44,44,23,13,12,125,,96,96,15,13,9,7,0.6,0.4
2024-05-10T1600,2618A,98.8601,25.8567,怒江傈僳族自治州,州监测站,,35,27,23,24,19,91,,64,64,8,7,7,7,0.4,0.4
2024-05-10T1600,2619A,98.8546,25.8417,怒江傈僳族自治州,泸水一中,,39,37,28,27,20,80,,52,52,11,14,7,6,0.4,0.3
2024-05-10T1600,1888A,101.6891,26.571,攀枝花市,弄弄坪,,42,31,73,12,43,134,,94,94,15,40,14,34,0.7,1.1
2024-05-10T1600,1889A,101.5769,26.5928,攀枝花市,河门口,,42,19,53,12,34,134,,96,96,11,36,9,31,0.4,1.5
2024-05-10T1600,1890A,101.7169,26.585,攀枝花市,炳草岗,,45,31,65,9,52,142,,96,96,13,42,18,54,0.4,0.9
2024-05-10T1600,1891A,101.7369,26.5008,攀枝花市,仁和,,41,20,39,14,27,131,,98,98,11,23,11,11,0.4,0.5
2024-05-10T1600,2835A,101.7227,26.567,攀枝花市,四十中小,,44,20,61,16,39,140,,97,97,9,35,5,51,0.5,1.2
2024-05-10T1600,1604A,122.0303,41.1489,盘锦市,开发区,臭氧1小时,78,73,104,38,52,182,,170,170,15,17,6,6,0.5,0.6
2024-05-10T1600,1605A,122.0485,41.0883,盘锦市,兴隆台,臭氧1小时,70,61,91,28,30,176,,164,164,16,20,8,8,0.5,0.5
2024-05-10T1600,1606A,121.8297,41.1028,盘锦市,新生街道,臭氧1小时,85,55,82,14,27,188,,178,178,15,14,7,7,0.5,0.5
2024-05-10T1600,1832A,113.3257,33.742,平顶山市,新华旅馆,颗粒物(PM10),64,77,83,28,44,165,,153,153,8,17,7,10,0.5,0.5
2024-05-10T1600,1833A,113.2919,33.737,平顶山市,规划设计院,颗粒物(PM10),54,58,62,32,35,152,,144,144,9,17,7,7,0.7,0.7
2024-05-10T1600,1834A,113.182,33.774,平顶山市,平顶山工学院,,,,57,27,29,146,,140,140,5,8,5,5,0.6,0.6
2024-05-10T1600,3204A,113.3025,33.73,平顶山市,规划局,颗粒物(PM10),65,80,75,31,37,151,,143,143,8,15,5,6,0.6,0.6
2024-05-10T1600,3594A,112.8867,33.9116,平顶山市,石龙区,臭氧1小时,64,75,67,41,35,171,,150,150,5,8,5,5,0.5,0.5
2024-05-10T1600,2656A,106.6692,35.5461,平凉市,聚贤嘉苑,颗粒物(PM10),114,178,104,40,26,129,,122,122,6,23,6,8,0.2,0.3
2024-05-10T1600,2657A,106.7021,35.5307,平凉市,博物馆,颗粒物(PM10),118,186,103,44,26,131,,122,122,5,20,14,14,0.3,0.4
2024-05-10T1600,2347A,114.0997,27.5002,萍乡市,武功山,,30,20,21,5,7,93,,86,86,4,6,8,8,0.3,0.3
2024-05-10T1600,2348A,113.8385,27.6434,萍乡市,中医院,细颗粒物(PM2.5),59,65,72,42,47,130,,112,112,19,23,12,11,1.0,1.3
2024-05-10T1600,2349A,113.8493,27.6253,萍乡市,市政府车库,细颗粒物(PM2.5),64,57,62,46,50,127,,103,103,20,21,16,17,1.5,1.2
2024-05-10T1600,2350A,113.8676,27.6435,萍乡市,市环保局,细颗粒物(PM2.5),65,58,75,47,55,126,,102,102,15,22,12,15,0.6,1
2024-05-10T1600,2351A,113.866,27.6198,萍乡市,安源区政府,颗粒物(PM10),61,71,74,32,44,130,,104,104,20,21,13,17,0.7,1.1
2024-05-10T1600,2319A,119.0141,25.4325,莆田市,荔城区仓后路,,39,37,32,13,11,124,,120,120,9,9,6,5,0.6,0.6
2024-05-10T1600,2320A,119.0015,25.4553,莆田市,莆田市监测站,,42,42,27,10,11,128,,120,120,11,10,8,7,0.6,0.6
2024-05-10T1600,2321A,119.1119,25.4561,莆田市,涵江区六中,颗粒物(PM10),68,86,28,10,7,114,,114,114,10,14,8,8,0.7,0.5
2024-05-10T1600,2322A,119.1013,25.3215,莆田市,秀屿区政府,,34,34,30,6,8,103,,111,111,6,14,7,9,0.5,0.5
2024-05-10T1600,2392A,115.0312,35.7636,濮阳市,环保局,颗粒物(PM10),96,142,74,31,27,149,,139,139,6,10,9,11,0.5,0.5
2024-05-10T1600,2394A,115.0574,35.7609,濮阳市,油田运输公司,颗粒物(PM10),65,80,69,28,28,158,,149,149,9,11,10,11,0.5,0.4
2024-05-10T1600,2395A,115.0866,35.7754,濮阳市,油田物探公司,颗粒物(PM10),65,79,71,30,27,160,,156,156,5,11,7,9,0.4,0.4
2024-05-10T1600,3021A,115,35.7668,濮阳市,濮水河管理处,颗粒物(PM10),72,93,74,29,28,155,,143,143,6,11,9,10,0.4,0.4
2024-05-10T1600,2601A,100.98,22.7633,普洱市,市环保局,,36,20,32,14,24,114,,98,98,9,9,7,8,0.4,0.4
2024-05-10T1600,2602A,100.9817,22.8322,普洱市,普洱第二中学,,34,22,33,6,15,108,,88,88,7,12,8,9,0.4,0.4
2024-05-10T1600,2262A,131.0518,45.8751,七台河市,新一中,,30,19,22,10,11,95,,98,98,10,10,9,9,0.6,0.6
2024-05-10T1600,3345A,131.0577,45.7879,七台河市,中波台,,25,17,26,5,9,79,,77,77,18,24,6,7,0.3,0.3
2024-05-10T1600,3637A,131.0176,45.7761,七台河市,人民广场,,25,,34,17,18,67,,72,72,28,25,9,10,0.4,0.4
2024-05-10T1600,3684A,130.8781,45.8222,七台河市,新建矿广场,,36,,53,25,26,59,,66,66,31,32,17,18,0.5,0.6
2024-05-10T1600,1780A,123.9488,47.3386,齐齐哈尔市,中心广场,,41,41,39,14,12,86,,87,87,12,12,7,7,0.3,0.3
2024-05-10T1600,1781A,123.9483,47.3227,齐齐哈尔市,农牧车辆厂,,44,44,44,4,7,91,,95,95,9,9,7,7,0.3,0.3
2024-05-10T1600,1783A,123.945,47.2988,齐齐哈尔市,市环境监测站,,34,34,39,9,14,87,,90,90,10,10,4,4,0.2,0.2
2024-05-10T1600,3662A,123.6333,47.2075,齐齐哈尔市,富区青少年活动中心,,33,33,39,6,9,90,,100,99,8,9,6,6,0.7,0.7
2024-05-10T1600,2591A,107.9783,26.5747,黔东南苗族侗族自治州,市环境监测站,,24,14,21,8,14,76,,63,63,4,14,2,2,0.4,0.6
2024-05-10T1600,2881A,107.8908,26.5311,黔东南苗族侗族自治州,凯里学院,,25,,14,8,12,80,,72,72,1,6,2,2,0.3,0.4
2024-05-10T1600,2593A,107.5228,26.2403,黔南布依族苗族自治州,小围寨,,26,9,8,9,5,82,,64,64,4,3,4,4,0.5,0.5
2024-05-10T1600,3538A,107.5175,26.2978,黔南布依族苗族自治州,沙坝,,24,5,9,2,4,74,,63,63,3,4,3,3,0.5,0.5
2024-05-10T1600,2589A,104.9022,25.0925,黔西南布依族苗族自治州,场坝街,,,14,14,10,8,103,,85,85,4,3,,2,0.5,0.5
2024-05-10T1600,2590A,104.8811,25.0992,黔西南布依族苗族自治州,坪东大道,,37,11,11,7,6,117,,100,100,3,6,3,2,0.1,0.1
2024-05-10T1600,2502A,108.6236,21.9667,钦州市,市环保站,,35,19,19,2,12,112,,80,80,10,11,7,6,0.7,0.8
2024-05-10T1600,2503A,108.6549,21.9481,钦州市,沙埠小学,,30,23,24,14,17,94,,83,80,6,10,4,5,0.9,0.9
2024-05-10T1600,2504A,108.5989,21.7431,钦州市,港区一小,,38,38,34,16,19,101,,88,84,16,20,8,7,0.7,0.8
2024-05-10T1600,3404A,108.5959,21.9633,钦州市,北职校,,34,,22,10,18,106,,84,84,6,10,7,6,0.7,0.8
2024-05-10T1600,1042A,119.5134,39.8207,秦皇岛市,北戴河环保局,臭氧1小时,109,85,92,41,30,218,,167,167,18,20,8,8,0.6,0.5
2024-05-10T1600,1043A,119.7493,40.0116,秦皇岛市,第一关,,,95,116,56,43,,,160,160,12,28,6,8,,0.5
2024-05-10T1600,1044A,119.5897,39.9499,秦皇岛市,监测站,臭氧1小时,110,107,106,55,43,219,,166,166,21,28,5,8,0.5,0.6
2024-05-10T1600,1046A,119.5251,39.9041,秦皇岛市,建设大厦,,,90,110,41,33,,,150,150,13,20,6,7,,0.6
2024-05-10T1600,3132A,119.610547,39.943889,秦皇岛市,文明里,臭氧1小时,103,81,111,26,34,205,,156,156,26,24,4,5,0.6,0.6
2024-05-10T1600,1307A,120.6659,36.2403,青岛市,仰口,,44,44,34,17,23,136,,116,116,7,9,5,5,0.5,0.5
2024-05-10T1600,1310A,120.4134,36.0658,青岛市,市南区东部子站,,36,31,33,14,14,114,,100,100,4,8,8,7,0.5,0.5
2024-05-10T1600,1311A,120.3664,36.1032,青岛市,四方区子站,颗粒物(PM10),51,51,37,17,21,130,,114,114,14,17,5,5,0.6,0.5
2024-05-10T1600,1312A,120.2994,36.054,青岛市,市南区西部子站,,40,29,34,12,16,127,,108,108,14,19,7,7,0.5,0.5
2024-05-10T1600,1313A,120.4581,36.0858,青岛市,崂山区子站,,38,34,32,9,13,119,,106,106,12,16,8,8,0.4,0.4
2024-05-10T1600,1314A,120.1983,35.9608,青岛市,黄岛区子站,,41,41,36,17,19,129,,103,103,13,16,7,7,0.6,0.6
2024-05-10T1600,1315A,120.3999,36.3083,青岛市,城阳区子站,,48,48,49,20,19,137,,122,122,21,23,8,8,0.6,0.6
2024-05-10T1600,1966A,120.0405,35.8735,青岛市,黄岛区4号,,46,36,35,14,16,146,,107,107,10,16,8,9,0.6,0.7
2024-05-10T1600,3362A,120.5014,36.4034,青岛市,即墨2号,臭氧1小时,62,53,50,24,22,169,,154,154,13,16,7,7,0.6,0.6
2024-05-10T1600,3642A,120.3503,36.0736,青岛市,市北区南部,,41,32,33,9,11,129,,112,112,10,15,6,6,0.5,0.5
2024-05-10T1600,3643A,120.3948,36.1805,青岛市,李沧区北部,颗粒物(PM10),51,51,44,22,20,135,,122,122,17,19,10,9,0.5,0.5
2024-05-10T1600,1702A,113.0426,23.691,清远市,环保大楼,臭氧1小时,57,54,46,29,29,165,,110,110,22,24,5,9,0.9,0.9
2024-05-10T1600,1703A,113.0208,23.7106,清远市,凤城街办,臭氧1小时,90,72,51,41,31,192,,130,130,28,29,6,7,0.4,0.5
2024-05-10T1600,3025A,113.0477,23.6344,清远市,技师学院,颗粒物(PM10),60,70,56,35,29,154,,130,130,30,28,5,8,0.6,0.7
2024-05-10T1600,3318A,112.9903,23.7403,清远市,清新太和,臭氧1小时,68,65,47,33,28,174,,116,116,32,22,7,7,0.5,0.6
2024-05-10T1600,3455A,113.076,23.7198,清远市,清城东城,,,,53,,34,181,,130,130,,23,6,10,0.5,0.7
2024-05-10T1600,2661A,107.6325,35.7357,庆阳市,庆阳五中,颗粒物(PM10),187,324,59,76,19,111,,104,104,10,9,5,6,0.3,0.4
2024-05-10T1600,2662A,107.6364,35.7067,庆阳市,市环保局,颗粒物(PM10),182,313,53,55,14,117,,102,102,7,8,5,5,0.4,0.4
2024-05-10T1600,1916A,103.7897,25.5035,曲靖市,环境监测站,,44,29,22,12,12,138,,121,121,6,10,2,2,0.3,0.7
2024-05-10T1600,1917A,103.8,25.5364,曲靖市,烟厂办公区,,46,26,22,12,13,147,,123,123,6,9,4,4,0.4,0.5
2024-05-10T1600,3376A,103.7947,25.462,曲靖市,南苑二区,,45,20,18,15,12,141,,121,121,9,11,4,4,0.5,0.6
2024-05-10T1600,3377A,103.7444,25.5261,曲靖市,曲靖师范学院,,45,27,21,14,14,142,,119,119,9,13,6,6,0.4,0.4
2024-05-10T1600,1264A,118.8692,28.9398,衢州市,环保大楼,臭氧1小时,63,44,63,29,42,170,,149,149,15,26,5,5,0.8,0.8
2024-05-10T1600,1265A,118.8709,28.9666,衢州市,实验学校,臭氧1小时,77,53,64,32,42,181,,151,151,22,26,5,7,0.7,0.7
2024-05-10T1600,1266A,118.8621,28.9808,衢州市,衢州学院,臭氧1小时,73,52,59,38,42,178,,151,151,23,28,8,8,0.6,0.5
2024-05-10T1600,1611A,118.5819,24.9117,泉州市,涂山街,,42,42,32,10,12,131,,134,134,12,14,4,5,0.7,0.6
2024-05-10T1600,1612A,118.5972,24.8978,泉州市,津头埔,,38,37,29,10,11,121,,130,130,14,20,2,3,0.5,0.5
2024-05-10T1600,1613A,118.6663,24.9424,泉州市,万安,臭氧1小时,65,45,32,12,9,172,,148,148,13,15,2,2,0.5,0.5
2024-05-10T1600,3529A,118.6333,24.9264,泉州市,城华南路,,48,32,28,12,10,151,,138,138,20,19,5,5,0.3,0.3
2024-05-10T1600,2626A,88.8876,29.2718,日喀则市,日喀则监测站,臭氧1小时,52,17,15,15,8,161,,128,128,4,8,5,5,0.3,0.4
2024-05-10T1600,3726A,88.8781,29.2426,日喀则市,林业技术推广中心,,50,23,17,5,6,160,,129,129,6,8,6,6,0.4,0.5
2024-05-10T1600,1659A,119.471,35.4209,日照市,监测站,臭氧1小时,57,61,57,33,29,165,,140,140,38,30,12,13,0.7,0.8
2024-05-10T1600,1660A,119.523,35.4216,日照市,市政府广场,臭氧1小时,62,63,63,24,27,169,,136,136,31,36,10,11,0.6,0.6
2024-05-10T1600,1661A,119.5587,35.4044,日照市,港务局,臭氧1小时,59,51,61,27,23,167,,129,129,11,28,9,10,0.6,0.6
2024-05-10T1600,3507A,119.5328,35.4625,日照市,职业技术学院,颗粒物(PM10),54,58,62,29,27,156,,122,122,20,31,10,11,0.6,0.6
2024-05-10T1600,3604A,119.3266,35.1044,日照市,岚山环保分局,臭氧1小时,97,68,55,37,32,197,,152,152,16,17,9,9,0.5,0.5
2024-05-10T1600,1835A,111.1922,34.7752,三门峡市,市政府,,42,22,39,17,23,132,,128,128,7,16,6,8,0.5,0.6
2024-05-10T1600,1836A,111.1587,34.7942,三门峡市,开发区,,46,21,46,13,23,145,,144,144,8,18,7,9,0.6,0.5
2024-05-10T1600,3039A,111.1911,34.7829,三门峡市,三门峡市第一小学,,43,25,42,15,23,136,,132,132,8,16,8,9,0.5,0.5
2024-05-10T1600,3598A,111.1,34.7167,三门峡市,富达温泉假日酒店,,44,26,46,10,21,140,,121,121,14,22,11,10,0.5,0.5
2024-05-10T1600,2324A,117.6211,26.2625,三明市,三钢,,49,49,52,31,43,152,,129,129,18,22,14,10,1.4,0.7
2024-05-10T1600,2325A,117.635,26.2714,三明市,三明二中,颗粒物(PM10),53,56,50,32,35,153,,129,129,17,17,18,10,1.9,0.9
2024-05-10T1600,2326A,117.6028,26.2378,三明市,三元区政府,颗粒物(PM10),52,53,60,33,40,139,,122,122,24,25,12,10,1.1,0.9
2024-05-10T1600,1876A,109.5078,18.2489,三亚市,河东子站,,24,24,27,11,14,64,,80,78,6,4,4,4,0.4,0.4
2024-05-10T1600,1877A,109.4964,18.2681,三亚市,河西子站,,24,24,26,11,14,68,,82,79,4,4,2,2,0.3,0.3
2024-05-10T1600,3540A,109.7348,18.3443,三亚市,君悦子站,,40,40,27,11,13,65,,74,74,5,6,2,2,0.3,0.4
2024-05-10T1600,2624A,91.7608,29.2313,山南市,山南监测站,,39,21,8,10,6,122,,134,119,4,4,8,7,0.3,0.3
2024-05-10T1600,2625A,91.7706,29.2436,山南市,山南人民医院,,41,19,8,8,7,131,,140,127,7,6,7,7,0.3,0.3
2024-05-10T1600,1674A,116.6794,23.3667,汕头市,金平子站,,48,38,32,12,15,152,,141,141,4,4,4,4,0.6,0.6
2024-05-10T1600,1675A,116.7244,23.3633,汕头市,龙湖子站,,48,38,34,14,16,152,,139,139,8,9,6,6,0.7,0.7
2024-05-10T1600,1676A,116.7258,23.2775,汕头市,濠江子站,,41,31,31,14,17,129,,120,120,6,8,5,5,0.6,0.6
2024-05-10T1600,1677A,116.7519,23.4714,汕头市,澄海子站,,47,39,36,17,19,148,,135,135,12,11,8,6,0.6,0.6
2024-05-10T1600,1678A,116.6092,23.2539,汕头市,潮阳子站,,44,34,40,12,13,138,,131,131,6,5,5,4,0.8,0.7
2024-05-10T1600,3444A,116.454,23.2684,汕头市,潮南峡山,,46,27,36,10,14,147,,139,139,2,4,4,4,0.3,0.3
2024-05-10T1600,3624A,116.4069,23.2533,汕头市,潮南子站,,42,36,44,11,20,134,,131,131,13,10,7,7,0.6,0.7
2024-05-10T1600,1693A,115.3653,22.775,汕尾市,市环保局,,43,30,38,8,20,137,,133,128,8,10,9,10,0.4,0.5
