timepoint,stationcode,longitude,latitude,area,positionname,primarypollutant,aqi,pm10,pm10_24h,pm2_5,pm2_5_24h,o3,o3_24h,o3_8h,o3_8h_24h,no2,no2_24h,so2,so2_24h,co,co_24h
2025-10-25T2300,2566A,102.1879,31.914,阿坝藏族羌族自治州,州农科所,,,,,,,,,,,,,,,,
2025-10-25T2300,2568A,102.2502,31.8896,阿坝藏族羌族自治州,马师校,,29,,15,20,14,5,,62,27,15,10,5,5,0.6,0.6
2025-10-25T2300,3994A,102.2165,31.9024,阿坝藏族羌族自治州,马尔康中学西区,,26,,14,18,13,9,,74,35,18,10,5,5,0.6,0.6
2025-10-25T2300,2695A,80.292,41.1694,阿克苏地区,电视台,颗粒物(PM10),150,250,170,81,52,5,,80,61,86,32,7,6,1.5,0.8
2025-10-25T2300,2696A,80.2613,41.1551,阿克苏地区,艺术中心,颗粒物(PM10),125,200,160,73,56,4,,79,61,89,40,4,4,0.8,0.5
2025-10-25T2300,2204A,105.6467,38.8363,阿拉善盟,西城区西花园,,,,,,,,,,,,,,,,
2025-10-25T2300,2205A,105.6985,38.8411,阿拉善盟,蒙二幼,,34,34,48,12,30,71,,101,92,14,13,8,10,0.6,0.7
2025-10-25T2300,2206A,105.724,38.8516,阿拉善盟,环保局新楼,,28,15,37,9,35,88,,99,97,8,11,8,10,0.5,0.7
2025-10-25T2300,2708A,88.1264,47.8517,阿勒泰地区,市站,,29,29,69,3,8,74,,78,64,7,16,2,3,0.2,0.2
2025-10-25T2300,2630A,80.1161,32.5,阿里地区,阿里监测站,,21,,3,3,3,66,,89,86,22,16,16,10,0.4,0.3
2025-10-25T2300,3192A,80.0903,32.5028,阿里地区,阿里藏医院,,28,6,10,3,4,88,,91,91,1,6,7,9,0.2,0.3
2025-10-25T2300,2642A,109.0318,32.6537,安康市,香溪洞,,,,,,,,,,,,,,,,
2025-10-25T2300,2644A,109.0072,32.6975,安康市,汉滨区检察院,,13,13,39,8,24,13,,72,48,20,16,5,5,0.5,0.5
2025-10-25T2300,4054A,109.0325,32.6913,安康市,市邮政管理局,,20,20,38,9,25,9,,72,42,28,19,6,6,0.8,0.7
2025-10-25T2300,2291A,117.0809,30.5177,安庆市,环科院,细颗粒物(PM2.5),52,45,48,36,32,70,,126,106,14,12,8,9,0.6,0.6
2025-10-25T2300,2292A,117.0331,30.5119,安庆市,马山宾馆,细颗粒物(PM2.5),78,,48,57,37,74,,128,109,18,14,5,8,0.4,0.5
2025-10-25T2300,2294A,116.9896,30.6145,安庆市,安庆大学,细颗粒物(PM2.5),53,50,50,37,34,59,,121,97,16,12,6,7,0.4,0.4
2025-10-25T2300,3173A,117.0598,30.5351,安庆市,市人大,细颗粒物(PM2.5),55,50,49,39,35,73,,129,106,16,15,8,9,0.5,0.5
2025-10-25T2300,3122A,105.9606,26.2611,安顺市,伍家关,,28,21,54,19,32,50,,47,47,8,12,8,11,0.4,0.5
2025-10-25T2300,3123A,105.9408,26.2431,安顺市,凤凰山,,26,22,38,18,29,44,,40,40,8,12,11,12,0.5,0.5
2025-10-25T2300,3124A,105.9439,26.2564,安顺市,金钟山,,27,27,42,17,30,47,,42,42,7,12,8,11,0.7,0.8
2025-10-25T2300,3125A,105.8983,26.2481,安顺市,娄家坡,,28,27,37,19,31,38,,34,34,10,14,9,11,0.5,0.6
2025-10-25T2300,1818A,114.4839,36.0621,安阳市,棉研所,,,,,,,,,,,,,,,,
2025-10-25T2300,1819A,114.3551,36.1017,安阳市,红庙街,细颗粒物(PM2.5),87,65,41,64,39,27,,80,57,36,20,3,2,0.6,0.4
2025-10-25T2300,1820A,114.361,36.0681,安阳市,银杏小区,细颗粒物(PM2.5),97,123,43,72,45,30,,83,56,30,19,3,3,0.6,0.5
2025-10-25T2300,3141A,114.3922,36.0878,安阳市,信访局,细颗粒物(PM2.5),88,,42,65,39,32,,89,59,25,14,2,2,0.3,0.3
2025-10-25T2300,3669A,114.4705,36.0637,安阳市,左辅环卫站,细颗粒物(PM2.5),80,97,75,59,47,33,,82,56,26,19,1,1,0.5,0.5
2025-10-25T2300,3703A,114.2917,36.0949,安阳市,安钢职工学校,细颗粒物(PM2.5),82,70,42,60,35,25,,79,60,30,16,1,1,0.6,0.5
2025-10-25T2300,1748A,123.044,41.1196,鞍山市,深沟寺,细颗粒物(PM2.5),159,167,104,121,73,47,,91,67,30,28,13,12,2.0,1.4
2025-10-25T2300,1749A,123.011,41.0931,鞍山市,太阳城,细颗粒物(PM2.5),159,153,96,121,69,32,,85,54,31,26,12,14,2.0,1.2
2025-10-25T2300,1750A,123.0485,41.1442,鞍山市,太平,细颗粒物(PM2.5),149,191,124,114,70,20,,82,54,47,33,11,14,2.4,1.4
2025-10-25T2300,1751A,122.9642,41.0971,鞍山市,铁西三道街,细颗粒物(PM2.5),173,215,140,131,79,18,,82,50,57,44,15,14,2.4,1.5
2025-10-25T2300,1753A,123.022,41.0821,鞍山市,明达新区,细颗粒物(PM2.5),158,164,107,120,75,51,,84,60,20,22,17,15,1.6,1.6
2025-10-25T2300,1754A,123.1289,41.0228,鞍山市,千山,,,,56,,51,,,67,,,16,,5,,0.6
2025-10-25T2300,4201A,122.9446,41.0826,鞍山市,兴盛南路290号,细颗粒物(PM2.5),156,182,133,119,80,27,,85,50,52,50,19,16,2.2,1.4
2025-10-25T2300,2195A,107.4212,40.761,巴彦淖尔市,附二中,颗粒物(PM10),54,58,65,29,33,49,,81,65,18,24,5,10,0.5,0.5
2025-10-25T2300,2196A,107.37,40.7372,巴彦淖尔市,市环保大楼,,38,38,48,25,22,57,,84,74,18,20,7,11,0.4,0.4
2025-10-25T2300,1956A,86.1472,41.7538,巴音郭楞蒙古自治州,孔雀公园,颗粒物(PM10),135,220,167,57,40,1,,80,55,78,52,8,8,1.2,0.8
2025-10-25T2300,1957A,86.1972,41.7166,巴音郭楞蒙古自治州,棉纺厂,颗粒物(PM10),121,191,185,36,41,34,,83,64,38,26,6,6,0.5,0.5
2025-10-25T2300,1958A,86.2357,41.7173,巴音郭楞蒙古自治州,经济开发区,颗粒物(PM10),93,135,153,24,29,56,,80,66,19,18,7,7,0.7,0.7
2025-10-25T2300,2914A,106.7677,31.8794,巴中市,苏山坪,,,,,,,,,,,,,,,,
2025-10-25T2300,3181A,106.7768,31.8526,巴中市,市五中,,21,21,17,14,13,7,,39,24,12,9,7,7,0.7,0.6
2025-10-25T2300,3183A,106.7418,31.8654,巴中市,圣泉水务公司,,18,17,16,12,13,0,,38,18,20,13,7,8,0.8,0.7
2025-10-25T2300,3616A,106.7616,31.8344,巴中市,市中心医院,,22,22,17,13,12,2,,39,21,23,14,10,10,0.8,0.7
2025-10-25T2300,2235A,122.7911,45.6077,白城市,洮北区环保局,,17,17,25,6,12,39,,65,50,10,13,3,5,0.3,0.3
2025-10-25T2300,2236A,122.8738,45.5725,白城市,市环保局,,16,,25,11,14,42,,69,55,11,19,3,5,0.3,0.3
2025-10-25T2300,2231A,126.4219,41.9171,白山市,喜丰,颗粒物(PM10),106,162,123,36,32,8,,85,33,56,41,12,11,1.0,0.9
2025-10-25T2300,2232A,126.4077,41.9419,白山市,环保局,,48,48,50,24,34,30,,86,46,26,24,10,10,1.0,1
2025-10-25T2300,2647A,104.1724,36.5446,白银市,第三小学,,24,15,38,13,34,76,,74,74,10,14,6,12,0.4,0.6
2025-10-25T2300,2648A,104.1465,36.5482,白银市,动力公司,,26,14,35,13,31,82,,96,84,8,13,7,9,0.3,0.5
2025-10-25T2300,2512A,106.6103,23.9011,百色市,市监测站,,25,25,32,13,20,25,,60,47,11,11,6,8,0.6,0.5
2025-10-25T2300,2513A,106.6538,23.8859,百色市,市中心血站,,33,33,39,23,27,3,,56,39,42,23,5,8,0.6,0.6
2025-10-25T2300,3406A,106.6085,23.8798,百色市,祈福高中,,36,36,36,24,23,12,,54,42,24,16,12,8,0.5,0.5
2025-10-25T2300,2270A,117.396,32.939,蚌埠市,工人疗养院,细颗粒物(PM2.5),125,106,83,95,53,36,,67,56,25,26,5,5,0.7,0.6
2025-10-25T2300,2271A,117.3605,32.9427,蚌埠市,百货大楼,细颗粒物(PM2.5),117,98,71,88,49,38,,62,53,27,27,7,7,0.6,0.5
2025-10-25T2300,2273A,117.4185,32.8911,蚌埠市,蚌埠学院,细颗粒物(PM2.5),137,105,70,104,51,30,,54,49,28,39,4,6,0.7,0.5
2025-10-25T2300,2274A,117.3533,32.9673,蚌埠市,淮上区政府,细颗粒物(PM2.5),122,,76,92,56,39,,68,52,30,32,6,7,0.6,0.5
2025-10-25T2300,2275A,117.3145,32.8977,蚌埠市,高新区,细颗粒物(PM2.5),100,83,62,75,45,40,,60,52,28,28,7,8,0.7,0.5
2025-10-25T2300,3715A,117.3092,32.9314,蚌埠市,蚌埠田家炳中学,细颗粒物(PM2.5),107,97,77,80,50,37,,62,46,26,29,4,4,0.6,0.4
2025-10-25T2300,1585A,109.8756,40.6532,包头市,市环境监测站,,20,20,35,7,8,58,,73,63,13,20,7,8,0.4,0.4
2025-10-25T2300,1587A,109.9991,40.5842,包头市,包头八中,,33,33,47,3,11,58,,75,62,12,34,4,8,0.3,0.6
2025-10-25T2300,1588A,109.8538,40.6821,包头市,青山宾馆,,20,11,20,3,6,64,,77,66,9,18,7,9,0.5,0.6
2025-10-25T2300,1589A,109.8642,40.6288,包头市,惠龙物流,,20,12,21,6,8,64,,79,70,11,16,7,8,0.5,0.5
2025-10-25T2300,1590A,110.0377,40.5546,包头市,东河鸿龙湾,,20,12,45,3,19,62,,80,66,14,39,7,11,0.4,1
2025-10-25T2300,3283A,109.9154,40.5685,包头市,滨河大厦,,21,,24,9,10,65,,80,69,8,24,7,9,0.3,0.4
2025-10-25T2300,3419A,109.9447,40.6261,包头市,包头市委党校,,20,11,28,3,8,64,,84,72,11,31,8,8,0.4,0.4
2025-10-25T2300,3683A,109.8331,40.6576,包头市,昆区政府,,20,16,20,3,5,63,,74,66,9,15,7,9,0.4,0.4
2025-10-25T2300,1930A,107.185,34.3063,宝鸡市,庙沟村,,,,,,,,,,,,,,,,
2025-10-25T2300,1931A,107.0708,34.3017,宝鸡市,竹园沟,,16,11,35,11,29,18,,64,43,13,14,7,7,0.4,0.6
2025-10-25T2300,1932A,107.1906,34.3672,宝鸡市,三陆医院,细颗粒物(PM2.5),54,42,50,38,54,5,,69,44,45,32,6,6,0.8,0.7
2025-10-25T2300,1933A,107.1431,34.3547,宝鸡市,监测站,,25,24,52,17,40,5,,69,42,26,20,6,6,0.6,0.6
2025-10-25T2300,1934A,107.1186,34.3739,宝鸡市,技工学校,,46,,44,32,54,20,,70,48,21,24,5,5,0.7,0.7
2025-10-25T2300,1936A,107.2058,34.3497,宝鸡市,文理学院,,29,29,45,15,40,15,,73,48,28,23,5,5,0.6,0.7
2025-10-25T2300,1937A,107.2386,34.3622,宝鸡市,三迪小学,,49,38,51,34,54,4,,70,43,49,32,4,4,0.8,0.7
2025-10-25T2300,4308A,107.3898,34.3601,宝鸡市,陈仓区北开路21号,细颗粒物(PM2.5),69,70,66,50,59,15,,72,49,41,24,6,6,0.8,0.7
2025-10-25T2300,1051A,115.493,38.8632,保定市,游泳馆,细颗粒物(PM2.5),204,179,140,154,125,21,,60,40,50,52,7,7,1.0,0.7
2025-10-25T2300,1052A,115.5213,38.8959,保定市,华电二区,细颗粒物(PM2.5),207,157,122,157,126,11,,62,44,49,45,2,3,1.0,0.7
2025-10-25T2300,1053A,115.4713,38.9108,保定市,接待中心,细颗粒物(PM2.5),196,171,144,147,126,12,,59,45,50,45,4,5,0.8,0.6
2025-10-25T2300,1054A,115.4612,38.8416,保定市,地表水厂,细颗粒物(PM2.5),186,193,149,140,116,5,,56,32,66,56,8,9,0.9,0.7
2025-10-25T2300,3581A,115.31981,38.95208,保定市,满城区生态环境分局,细颗粒物(PM2.5),168,153,155,127,122,18,,63,46,43,35,3,2,0.7,0.6
2025-10-25T2300,3582A,115.47694,38.76408,保定市,清苑区第二中学,细颗粒物(PM2.5),169,193,150,128,109,8,,60,37,72,56,3,4,0.9,0.8
2025-10-25T2300,3583A,115.62909,39.02311,保定市,徐水物探局,细颗粒物(PM2.5),201,154,122,151,124,2,,56,22,65,53,11,11,1.0,0.8
2025-10-25T2300,4004A,115.4202,38.8656,保定市,双鹰农机,细颗粒物(PM2.5),189,191,169,142,122,21,,64,45,48,52,3,2,0.9,0.8
2025-10-25T2300,4034A,115.5150,38.8590,保定市,植保所站,细颗粒物(PM2.5),202,183,155,152,120,18,,62,42,52,54,5,5,1.1,0.8
2025-10-25T2300,2594A,99.1678,25.1081,保山市,市环境监测站,,25,18,18,17,12,34,,62,50,6,6,8,6,0.4,0.4
2025-10-25T2300,2595A,99.1711,25.1328,保山市,市环保局,,20,20,20,14,16,42,,64,55,3,5,6,6,0.6,0.6
2025-10-25T2300,1866A,109.2262,21.588,北海市,牛尾岭水库,,36,33,34,25,25,74,,87,82,10,13,3,3,0.6,0.6
2025-10-25T2300,1867A,109.1436,21.4086,北海市,海滩公园,,50,50,47,29,26,85,,104,96,13,12,9,9,0.7,0.6
2025-10-25T2300,1868A,109.0981,21.4661,北海市,新市环保局,细颗粒物(PM2.5),52,49,44,36,31,96,,111,106,10,9,12,11,0.5,0.5
2025-10-25T2300,1869A,109.1778,21.5233,北海市,北海工业园,细颗粒物(PM2.5),53,51,45,37,31,89,,102,96,14,14,6,7,0.9,0.8
2025-10-25T2300,3400A,109.1911,21.4415,北海市,龙潭自来水厂,,46,45,44,32,31,84,,100,91,8,8,9,9,0.5,0.5
2025-10-25T2300,1001A,116.3621,39.8784,北京市,万寿西宫,细颗粒物(PM2.5),170,163,138,129,108,15,,57,44,53,44,2,2,1.1,0.8
2025-10-25T2300,1002A,116.2202,40.2915,北京市,定陵,,,,,,,,,,,,,,,,
2025-10-25T2300,1003A,116.4174,39.9289,北京市,东四,细颗粒物(PM2.5),166,169,140,126,104,16,,64,51,50,38,3,3,1.2,0.9
2025-10-25T2300,1004A,116.4072,39.8863,北京市,天坛,细颗粒物(PM2.5),163,154,124,124,100,6,,58,42,34,34,1,1,1.1,0.8
2025-10-25T2300,1005A,116.462,39.9365,北京市,农展馆,细颗粒物(PM2.5),178,168,129,134,103,18,,66,53,44,41,4,4,1.0,0.7
2025-10-25T2300,1006A,116.3392,39.9295,北京市,官园,细颗粒物(PM2.5),155,154,137,118,104,18,,62,47,49,40,5,6,1.0,0.8
2025-10-25T2300,1007A,116.2878,39.9611,北京市,海淀万柳,细颗粒物(PM2.5),144,146,127,110,102,3,,51,36,64,45,3,4,0.9,0.8
2025-10-25T2300,1008A,116.6636,40.135,北京市,顺义新城,细颗粒物(PM2.5),127,149,122,96,90,2,,62,33,56,35,2,3,1.0,0.8
2025-10-25T2300,1009A,116.6275,40.3275,北京市,怀柔镇,细颗粒物(PM2.5),103,90,82,77,70,30,,59,42,30,32,3,4,1.0,0.9
2025-10-25T2300,1010A,116.2296,40.217,北京市,昌平镇,细颗粒物(PM2.5),89,81,98,66,81,40,,52,44,18,31,4,4,0.6,0.7
2025-10-25T2300,1011A,116.3966,39.9821,北京市,奥体中心,细颗粒物(PM2.5),138,140,125,105,97,1,,59,44,77,45,4,4,0.9,0.8
2025-10-25T2300,3281A,115.9718,40.4529,北京市,延庆夏都,细颗粒物(PM2.5),78,84,76,57,57,11,,68,51,45,30,2,2,0.4,0.5
2025-10-25T2300,3418A,116.8336,40.4095,北京市,密云新城,细颗粒物(PM2.5),87,104,86,64,63,8,,65,32,33,37,1,2,0.7,0.6
2025-10-25T2300,3671A,116.088,39.9726,北京市,门头沟三家店,细颗粒物(PM2.5),108,120,108,81,82,6,,58,37,44,34,3,2,0.7,0.7
2025-10-25T2300,3672A,116.1541,39.8204,北京市,丰台云岗,细颗粒物(PM2.5),137,148,134,104,104,15,,61,38,51,37,3,3,0.7,0.7
2025-10-25T2300,3673A,116.6804,39.9081,北京市,通州东关,细颗粒物(PM2.5),182,190,146,137,105,13,,68,53,68,46,4,5,1.0,0.7
2025-10-25T2300,3674A,115.9577,39.7603,北京市,房山燕山,,18,15,99,11,85,55,,60,42,13,28,3,3,0.3,0.6
2025-10-25T2300,3675A,116.4672,39.7733,北京市,大兴旧宫,细颗粒物(PM2.5),148,179,140,113,95,14,,64,49,31,35,2,3,1.0,0.9
2025-10-25T2300,3694A,115.986,40.4563,北京市,延庆石河营,细颗粒物(PM2.5),78,85,75,57,49,6,,62,46,42,28,2,2,0.6,0.6
2025-10-25T2300,3695A,116.6151,40.3053,北京市,怀柔新城,细颗粒物(PM2.5),104,95,86,78,70,38,,61,48,23,24,3,3,0.6,0.6
2025-10-25T2300,3696A,116.2545,39.8768,北京市,丰台小屯,细颗粒物(PM2.5),133,160,134,101,97,0,,52,29,52,38,3,3,1.0,0.8
2025-10-25T2300,3697A,116.84,40.3844,北京市,密云镇,细颗粒物(PM2.5),129,135,109,98,88,2,,65,27,47,37,5,6,0.8,0.7
2025-10-25T2300,4182A,116.1942,39.9158,北京市,八角北路9号,细颗粒物(PM2.5),143,157,130,109,98,4,,53,30,61,38,3,4,1.1,0.8
2025-10-25T2300,4194A,117.0790,40.1518,北京市,洳河巡河路,细颗粒物(PM2.5),120,140,125,91,92,6,,62,36,21,23,3,3,0.9,0.7
2025-10-25T2300,1761A,123.8275,41.3064,本溪市,大峪,细颗粒物(PM2.5),125,126,98,95,62,26,,74,53,45,48,8,13,1.3,1.5
2025-10-25T2300,1762A,123.7567,41.3325,本溪市,溪湖,细颗粒物(PM2.5),148,160,132,113,76,44,,83,69,25,41,8,12,1.2,1.6
2025-10-25T2300,1763A,123.7169,41.3094,本溪市,彩屯,细颗粒物(PM2.5),200,190,125,150,92,23,,48,,36,45,9,18,1.8,2.3
2025-10-25T2300,1764A,123.7669,41.2864,本溪市,东明,细颗粒物(PM2.5),152,138,117,116,82,3,,78,45,71,54,9,13,1.9,2.1
2025-10-25T2300,1765A,123.7992,41.2664,本溪市,新立屯,细颗粒物(PM2.5),132,,70,100,58,13,,67,21,58,58,8,12,1.1,1.4
2025-10-25T2300,1766A,123.8142,41.3472,本溪市,威宁,细颗粒物(PM2.5),83,108,105,61,62,5,,78,39,59,40,6,9,1.2,1.4
2025-10-25T2300,2587A,105.2864,27.3125,毕节市,八中,,23,20,10,16,8,29,,37,35,6,5,8,8,0.6,0.6
2025-10-25T2300,2588A,105.31,27.2944,毕节市,师专,,25,23,10,17,7,35,,38,38,7,7,7,7,0.7,0.7
2025-10-25T2300,4263A,105.3688,27.3598,毕节市,工业大道,,22,19,8,15,7,40,,44,44,7,9,9,9,0.6,0.6
2025-10-25T2300,1629A,118.0018,37.3617,滨州市,第二水厂,细颗粒物(PM2.5),62,70,90,44,49,22,,69,40,35,44,5,8,0.5,0.6
2025-10-25T2300,1630A,117.9776,37.393,滨州市,北中新校,细颗粒物(PM2.5),64,63,82,46,49,47,,74,54,22,40,5,8,0.3,0.5
2025-10-25T2300,3514A,117.9378,37.3956,滨州市,中海酒店,"颗粒物(PM10),细颗粒物(PM2.5)",62,73,87,44,54,36,,71,47,25,38,4,8,0.6,0.8
2025-10-25T2300,3515A,117.9378,37.3553,滨州市,开发区一中,细颗粒物(PM2.5),70,78,99,51,57,12,,83,38,58,49,6,9,0.6,0.8
2025-10-25T2300,3516A,118.0917,37.694,滨州市,金海六路,颗粒物(PM10),53,56,87,36,51,19,,81,42,40,42,3,6,0.7,0.8
2025-10-25T2300,4028A,117.9956,37.3753,滨州市,滨州市西街道办事处,细颗粒物(PM2.5),70,63,92,51,59,38,,77,51,25,39,5,9,0.5,0.7
2025-10-25T2300,2311A,115.8072,33.8399,亳州市,污水处理厂,细颗粒物(PM2.5),100,87,85,75,66,50,,77,61,22,24,8,9,0.7,0.6
2025-10-25T2300,2312A,115.7789,33.8518,亳州市,三国揽胜宫,细颗粒物(PM2.5),124,,78,94,76,53,,72,61,22,25,6,6,0.8,0.6
2025-10-25T2300,3332A,115.7633,33.8034,亳州市,亳州学院,细颗粒物(PM2.5),99,115,97,74,66,59,,78,66,21,22,7,7,0.6,0.5
2025-10-25T2300,2693A,82.0485,44.8556,博尔塔拉蒙古自治州,市党校,颗粒物(PM10),107,164,103,55,51,43,,92,76,40,23,7,9,0.3,0.2
2025-10-25T2300,2694A,82.0806,44.8969,博尔塔拉蒙古自治州,市环保局,颗粒物(PM10),106,162,109,45,34,39,,89,73,58,30,8,9,1.0,0.7
2025-10-25T2300,1071A,116.8842,38.2991,沧州市,沧县城建局,细颗粒物(PM2.5),74,84,95,54,69,11,,68,40,54,54,3,6,0.6,0.7
2025-10-25T2300,1072A,116.8584,38.3254,沧州市,电视转播站,细颗粒物(PM2.5),70,68,87,51,71,18,,65,47,53,52,3,3,0.5,0.7
2025-10-25T2300,1073A,116.8709,38.3228,沧州市,市环保局,细颗粒物(PM2.5),82,65,102,60,76,15,,70,43,51,54,4,6,0.6,0.8
2025-10-25T2300,3324A,116.8136,38.3004,沧州市,河北水利电力学院,细颗粒物(PM2.5),68,70,97,49,57,8,,60,36,66,58,5,8,0.3,0.5
2025-10-25T2300,2622A,97.1806,31.1273,昌都市,昌都监测站,,19,8,7,7,7,59,,82,72,7,4,3,2,0.2,0.2
2025-10-25T2300,3719A,97.1714,31.1406,昌都市,昌都会议中心,,15,7,10,6,6,46,,78,67,3,2,3,3,0.3,0.2
2025-10-25T2300,2690A,88.1236,43.8886,昌吉回族自治州,天山天池,,,,,,,,,,,,,,,,
2025-10-25T2300,2692A,87.2717,44.0297,昌吉回族自治州,新区政务中心,颗粒物(PM10),114,178,140,68,68,3,,98,67,102,51,10,13,1.4,1.1
2025-10-25T2300,3613A,87.3095,44.0142,昌吉回族自治州,亚心广场,细颗粒物(PM2.5),153,254,197,117,100,4,,99,68,104,48,14,14,1.6,1.2
2025-10-25T2300,1120A,125.2863,43.9027,长春市,客车厂,细颗粒物(PM2.5),145,114,80,111,69,26,,80,52,70,50,21,15,1.2,0.7
2025-10-25T2300,1121A,125.2841,43.8463,长春市,邮电学院,细颗粒物(PM2.5),134,128,87,102,64,12,,85,57,84,43,9,10,1.2,0.8
2025-10-25T2300,1122A,125.3716,43.8772,长春市,劳动公园,细颗粒物(PM2.5),120,133,99,91,62,18,,82,57,70,44,12,10,1.1,0.8
2025-10-25T2300,1123A,125.3297,43.8805,长春市,园林处,细颗粒物(PM2.5),132,,79,100,65,21,,80,57,69,44,9,8,1.1,0.7
2025-10-25T2300,1124A,125.4605,43.79,长春市,净月潭,细颗粒物(PM2.5),122,108,69,92,52,43,,92,66,36,20,6,7,1.0,0.5
2025-10-25T2300,1125A,125.7194,43.515,长春市,甩湾子,细颗粒物(PM2.5),204,,98,154,88,28,,98,61,39,36,5,7,1.3,0.9
2025-10-25T2300,1126A,125.3863,43.8447,长春市,经开区环卫处,细颗粒物(PM2.5),124,124,86,94,63,18,,80,56,68,44,10,8,1.2,0.8
2025-10-25T2300,1127A,125.245,43.7783,长春市,高新区管委会,细颗粒物(PM2.5),135,110,86,103,74,22,,88,58,59,39,9,8,1.1,0.7
2025-10-25T2300,1128A,125.1761,43.8325,长春市,岱山公园,细颗粒物(PM2.5),147,132,84,112,65,12,,86,45,85,54,12,10,1.1,0.6
2025-10-25T2300,4281A,125.3346,43.9164,长春市,北亚泰大街1068号,细颗粒物(PM2.5),130,118,87,99,66,12,,73,46,83,56,13,11,1.2,0.7
2025-10-25T2300,1335A,113.0833,28.2325,长沙市,经开区环保局,细颗粒物(PM2.5),92,,70,68,60,63,,95,78,18,19,6,7,0.5,0.5
2025-10-25T2300,1336A,112.8872,28.2189,长沙市,高开区环保局,细颗粒物(PM2.5),113,,82,85,73,52,,91,77,26,19,6,7,0.5,0.4
2025-10-25T2300,1337A,113.0792,28.2053,长沙市,马坡岭,细颗粒物(PM2.5),74,67,73,54,50,68,,106,87,16,16,6,7,0.5,0.4
2025-10-25T2300,1338A,112.9394,28.19,长沙市,湖南师范大学,细颗粒物(PM2.5),68,76,82,49,50,70,,99,82,15,19,4,6,0.7,0.7
2025-10-25T2300,1339A,113.0178,28.1322,长沙市,雨花区环保局,细颗粒物(PM2.5),89,,74,66,60,69,,99,82,15,19,6,8,0.5,0.4
2025-10-25T2300,1340A,112.9792,28.2597,长沙市,伍家岭,细颗粒物(PM2.5),93,69,80,69,55,58,,95,74,17,19,4,6,0.5,0.5
2025-10-25T2300,1341A,113.0014,28.1944,长沙市,火车新站,细颗粒物(PM2.5),85,73,82,63,58,71,,101,83,16,21,8,10,0.5,0.5
2025-10-25T2300,1342A,112.9844,28.1178,长沙市,天心区环保局,细颗粒物(PM2.5),80,59,70,59,53,75,,107,90,17,17,5,7,0.5,0.5
2025-10-25T2300,1343A,112.8908,28.1308,长沙市,湖南中医药大学,细颗粒物(PM2.5),84,67,86,62,61,65,,95,79,15,16,5,6,0.7,0.7
2025-10-25T2300,1344A,112.9581,28.3611,长沙市,沙坪,,,,,,,,,,,,,,,,
2025-10-25T2300,1727A,113.1147,36.1547,长治市,清华站,,45,45,29,27,23,3,,67,42,40,23,9,10,0.5,0.5
2025-10-25T2300,1730A,113.0886,36.2125,长治市,审计局,,32,23,22,22,23,32,,66,51,25,17,7,7,0.4,0.3
2025-10-25T2300,1731A,113.0844,36.1856,长治市,长治八中,细颗粒物(PM2.5),53,50,30,37,28,26,,65,47,25,16,8,7,0.6,0.5
2025-10-25T2300,2845A,113.1569,36.1911,长治市,德盛苑,,35,27,27,24,23,45,,68,55,12,14,6,4,0.6,0.6
2025-10-25T2300,3568A,113.06,36.0464,长治市,向阳小学,颗粒物(PM10),53,56,41,32,28,34,,77,47,25,21,10,6,0.7,0.5
2025-10-25T2300,3569A,112.8792,36.3144,长治市,屯留一中,细颗粒物(PM2.5),68,56,38,49,26,50,,71,55,19,13,8,9,1.1,0.6
2025-10-25T2300,4189A,113.1131,36.19948,长治市,英华南巷50号,,41,41,31,22,25,24,,64,43,23,17,6,5,0.8,0.7
2025-10-25T2300,4190A,113.2367,36.3344,长治市,学府街1号,颗粒物(PM10),56,62,47,26,33,26,,63,43,34,28,8,9,0.5,0.7
2025-10-25T2300,1854A,111.6975,28.9703,常德市,市二中,细颗粒物(PM2.5),60,68,88,43,62,54,,84,69,17,13,5,6,0.5,0.4
2025-10-25T2300,1857A,111.7158,29.1456,常德市,白鹤山,,,,,,,,,,,,,,,,
2025-10-25T2300,3138A,111.7153,29.0289,常德市,武陵区永安,细颗粒物(PM2.5),57,60,90,40,45,60,,95,68,17,14,5,6,0.7,0.7
2025-10-25T2300,3139A,111.6892,28.9881,常德市,鼎城区玉霞,细颗粒物(PM2.5),75,83,91,55,66,54,,85,71,20,14,5,6,0.8,0.7
2025-10-25T2300,3140A,111.6625,29.0531,常德市,武陵区长庚,细颗粒物(PM2.5),60,60,87,43,51,34,,87,64,30,15,3,4,0.4,0.4
2025-10-25T2300,1196A,119.9633,31.762,常州市,市监测站,,50,50,51,28,26,87,,101,85,15,18,8,8,0.5,0.6
2025-10-25T2300,1200A,119.9468,31.7069,常州市,武进监测站,,38,38,45,14,18,85,,101,86,21,22,9,9,0.5,0.5
2025-10-25T2300,1201A,119.9255,31.9087,常州市,安家,,45,45,46,22,23,73,,98,81,21,26,11,11,0.4,0.5
2025-10-25T2300,3002A,119.9805,31.8174,常州市,行政中心,颗粒物(PM10),54,57,47,35,28,78,,101,88,19,22,8,6,0.7,0.7
2025-10-25T2300,3003A,120.0522,31.7748,常州市,经开区,颗粒物(PM10),52,54,66,22,26,82,,100,81,20,30,8,10,0.7,0.7
2025-10-25T2300,3010A,119.9025,31.7964,常州市,钟楼,,45,45,48,24,25,86,,103,92,19,24,10,9,0.8,0.8
2025-10-25T2300,3429A,119.8598,31.7066,常州市,武进经发区,,39,39,47,21,26,81,,98,78,16,38,12,12,0.9,0.9
2025-10-25T2300,3430A,119.5826,31.7245,常州市,金坛城区,颗粒物(PM10),51,51,50,30,29,54,,105,78,24,22,11,11,0.6,0.6
2025-10-25T2300,2220A,120.4318,41.5881,朝阳市,西梁,颗粒物(PM10),60,70,92,34,56,7,,70,28,54,43,9,9,1.0,1.2
2025-10-25T2300,2221A,120.4521,41.5646,朝阳市,河畔小区,细颗粒物(PM2.5),69,80,66,50,52,2,,70,34,67,39,7,7,1.2,0.9
2025-10-25T2300,2222A,120.4176,41.5648,朝阳市,八里堡,颗粒物(PM10),64,78,72,44,54,10,,71,31,56,44,9,9,1.0,1.1
2025-10-25T2300,2223A,120.3806,41.5969,朝阳市,农业园区,,46,46,46,13,45,32,,83,54,42,36,6,6,0.4,0.7
2025-10-25T2300,1705A,116.6367,23.6719,潮州市,西园路,,,,,,,,,,,,,,,,
2025-10-25T2300,3026A,116.6183,23.6608,潮州市,市政府,颗粒物(PM10),54,57,32,33,19,75,,88,87,18,6,6,4,0.5,0.2
2025-10-25T2300,4036A,116.6461,23.6761,潮州市,金山,颗粒物(PM10),54,57,29,34,20,39,,84,77,14,6,3,4,0.7,0.5
2025-10-25T2300,2472A,113.0073,25.9061,郴州市,马头岭,,,,,,,,,,,,,,,,
2025-10-25T2300,2473A,113.0116,25.8226,郴州市,市职中,,,57,45,47,34,,,111,94,16,17,4,4,0.6,0.6
2025-10-25T2300,2475A,113.0383,25.8071,郴州市,市审计局,细颗粒物(PM2.5),63,56,47,45,33,84,,118,108,14,14,10,11,0.3,0.2
2025-10-25T2300,2476A,113.0348,25.7759,郴州市,市环保局,细颗粒物(PM2.5),64,64,56,46,35,86,,113,103,16,16,3,3,0.5,0.4
2025-10-25T2300,4252A,113.0138,25.8011,郴州市,好美居路49号,细颗粒物(PM2.5),57,54,41,40,32,90,,119,105,18,20,9,10,0.7,0.7
2025-10-25T2300,1431A,103.9728,30.7236,成都市,金泉两河,,37,37,20,14,8,1,,53,34,43,21,3,2,0.6,0.4
2025-10-25T2300,1432A,104.176,30.6872,成都市,十里店,,42,42,20,22,11,18,,58,38,42,21,4,3,0.5,0.4
2025-10-25T2300,1433A,104.079,30.5706,成都市,三瓦窑,细颗粒物(PM2.5),53,50,26,37,20,7,,52,30,54,26,6,4,0.7,0.5
2025-10-25T2300,1434A,104.1114,30.63,成都市,沙河铺,颗粒物(PM10),56,61,30,34,20,1,,45,24,47,25,4,4,0.7,0.5
2025-10-25T2300,1437A,104.0786,30.6531,成都市,君平街,,40,40,25,17,16,17,,44,30,38,20,4,4,0.6,0.5
2025-10-25T2300,1438A,103.613,31.0283,成都市,灵岩寺,,,,,,,,,,,,,,,,
2025-10-25T2300,2880A,104.0239,30.65639,成都市,大石西路,,36,36,22,22,16,6,,52,31,49,26,3,3,0.7,0.5
2025-10-25T2300,3136A,104.2725,30.5589,成都市,龙泉驿区区政府,,17,17,9,7,7,26,,56,39,20,16,6,5,0.6,0.5
2025-10-25T2300,3357A,104.0106,30.6931,成都市,金博路,,38,38,15,12,9,8,,50,34,51,26,6,6,0.7,0.5
2025-10-25T2300,3359A,104.0578,30.5225,成都市,华阳,,39,,16,27,14,40,,56,47,22,19,4,4,0.5,0.4
2025-10-25T2300,3488A,104.3880,30.7467,成都市,青石路225号,,25,25,22,16,12,12,,60,31,32,18,4,3,0.6,0.6
2025-10-25T2300,3489A,104.0789,30.4072,成都市,科学城,,29,24,17,20,12,18,,56,41,22,15,4,4,0.5,0.5
2025-10-25T2300,4011A,103.8506,30.6947,成都市,光华大道三段,,42,42,26,20,13,31,,62,55,28,20,1,1,0.7,0.6
2025-10-25T2300,4224A,104.2433,30.5353,成都市,鲸龙路1057号,,19,17,15,13,12,38,,60,47,15,19,5,5,0.5,0.5
2025-10-25T2300,1062A,117.9531,40.9081,承德市,铁路,颗粒物(PM10),58,65,81,29,49,14,,53,30,41,38,3,4,0.6,0.8
2025-10-25T2300,1063A,117.9392,40.9763,承德市,中国银行,颗粒物(PM10),54,57,67,21,34,4,,60,28,45,30,3,5,0.6,0.7
2025-10-25T2300,1064A,117.9503,40.928,承德市,开发区,细颗粒物(PM2.5),62,67,83,44,49,2,,62,30,52,35,5,5,0.6,0.7
2025-10-25T2300,1066A,117.9268,41.0026,承德市,离宫,,,,,,,,,,,,,,,,
2025-10-25T2300,4274A,117.7994,40.9605,承德市,滨河大街98号,颗粒物(PM10),57,63,54,26,43,15,,68,48,48,29,3,8,0.4,0.6
2025-10-25T2300,2314A,117.47,30.6618,池州市,池州学院,细颗粒物(PM2.5),58,60,56,41,35,62,,116,95,27,26,8,7,0.6,0.7
2025-10-25T2300,3237A,117.4918,30.6617,池州市,展览馆,颗粒物(PM10),53,55,55,34,33,63,,117,95,24,22,10,8,0.7,0.8
2025-10-25T2300,3333A,117.5627,30.695,池州市,第八中学,颗粒物(PM10),57,63,57,37,34,60,,116,92,24,23,12,9,0.7,0.8
2025-10-25T2300,3334A,117.5038,30.6243,池州市,第十二中学,细颗粒物(PM2.5),55,58,50,39,32,62,,116,95,27,24,9,7,0.7,0.8
2025-10-25T2300,1744A,118.9233,42.2816,赤峰市,松山一中,,27,27,45,10,22,55,,74,52,17,39,5,7,0.3,0.6
2025-10-25T2300,1745A,118.9576,42.2728,赤峰市,哈达街,,29,29,46,12,25,53,,75,58,22,35,10,12,0.4,0.6
2025-10-25T2300,1746A,118.8788,42.2554,赤峰市,天义路,,18,18,32,10,26,49,,72,51,18,26,6,8,0.2,0.4
2025-10-25T2300,3058A,119.2658,42.0353,赤峰市,银河街,,22,22,65,11,42,44,,71,60,15,14,22,12,0.2,0.6
2025-10-25T2300,3286A,118.9359,42.3147,赤峰市,桥北物流园区,,34,34,40,10,24,40,,69,45,23,33,7,8,0.3,0.4
2025-10-25T2300,2521A,107.3476,22.4136,崇左市,市环保局江州分局,,37,37,31,22,18,63,,76,71,10,7,3,2,0.6,0.6
2025-10-25T2300,4256A,107.3750,22.3736,崇左市,石景林东路7号,颗粒物(PM10),63,76,32,21,17,74,,32,,11,10,8,6,1.3,0.7
2025-10-25T2300,2298A,118.3093,32.3153,滁州市,老年大学,,48,36,38,33,26,44,,84,57,11,14,10,10,0.3,0.2
2025-10-25T2300,2299A,118.3244,32.2786,滁州市,人大宾馆,,45,39,40,31,23,52,,85,61,10,14,4,5,0.2,0.2
2025-10-25T2300,3207A,118.3118,32.3038,滁州市,市政府原办公楼,,48,35,41,33,27,54,,85,60,14,19,5,6,0.4,0.4
2025-10-25T2300,3331A,118.3267,32.2634,滁州市,图书馆,,35,30,36,24,18,54,,88,64,16,18,7,7,0.3,0.3
2025-10-25T2300,2605A,101.5482,25.0441,楚雄彝族自治州,州环境监测站,,19,15,16,13,13,44,,49,47,2,3,7,7,0.6,0.6
2025-10-25T2300,2606A,101.538,25.0492,楚雄彝族自治州,市经济开发区,,36,35,21,25,18,39,,48,44,7,6,6,6,0.7,0.6
2025-10-25T2300,2548A,107.5277,31.2827,达州市,达州职业技术学院,,,,,,,,,,,,,,,,
2025-10-25T2300,2549A,107.5086,31.2186,达州市,市环境监测站,,32,32,20,17,8,5,,36,24,28,20,5,7,0.5,0.4
2025-10-25T2300,2550A,107.4988,31.2132,达州市,凤凰小区,,31,31,19,14,9,4,,37,27,34,17,4,6,0.4,0.3
2025-10-25T2300,2551A,107.5082,31.1986,达州市,达县机关宾馆,,34,34,20,3,5,1,,31,15,30,24,5,6,0.5,0.4
2025-10-25T2300,2552A,107.4644,31.2124,达州市,市政中心,,43,43,30,17,8,2,,35,22,37,18,5,7,0.5,0.4
2025-10-25T2300,2614A,100.1542,25.7054,大理白族自治州,大理市环境监测站,,15,12,12,7,9,48,,58,51,7,8,5,5,0.5,0.5
2025-10-25T2300,2615A,100.2171,25.5811,大理白族自治州,大理古城,,29,20,15,20,11,32,,63,49,16,9,7,6,0.4,0.4
2025-10-25T2300,1109A,121.612,38.9741,大连市,甘井子,细颗粒物(PM2.5),80,98,99,59,59,68,,86,72,36,31,9,9,0.4,0.6
2025-10-25T2300,1110A,121.565,38.9511,大连市,周水子,细颗粒物(PM2.5),74,85,88,54,58,86,,89,79,28,28,4,4,0.5,0.7
2025-10-25T2300,1111A,121.5637,38.8845,大连市,星海三站,细颗粒物(PM2.5),78,84,77,57,55,94,,86,86,11,12,7,7,0.5,0.6
2025-10-25T2300,1112A,121.6302,38.9117,大连市,青泥洼桥,细颗粒物(PM2.5),72,86,92,52,58,83,,76,75,18,23,10,11,0.8,0.9
2025-10-25T2300,1113A,121.6251,38.8638,大连市,傅家庄,细颗粒物(PM2.5),72,83,78,52,53,94,,91,91,16,15,10,9,0.8,0.9
2025-10-25T2300,1114A,121.5213,38.8661,大连市,七贤岭,细颗粒物(PM2.5),85,105,77,63,52,76,,87,82,27,24,7,7,0.9,0.9
2025-10-25T2300,1115A,121.2529,38.8061,大连市,旅顺,细颗粒物(PM2.5),114,132,80,86,55,92,,80,80,11,15,10,10,0.7,0.7
2025-10-25T2300,1116A,121.7485,39.1311,大连市,金州,细颗粒物(PM2.5),80,86,102,59,67,82,,99,72,38,38,10,10,0.5,0.6
2025-10-25T2300,1117A,121.7811,39.0496,大连市,开发区,细颗粒物(PM2.5),82,96,103,60,69,79,,87,80,29,34,5,5,0.9,0.9
2025-10-25T2300,1118A,121.9762,39.0631,大连市,双D港,细颗粒物(PM2.5),78,79,78,57,64,90,,99,86,25,24,10,9,0.8,0.9
2025-10-25T2300,1789A,124.81117,46.03138,大庆市,大同区,,36,36,42,12,16,39,,54,41,7,16,8,9,0.6,0.6
2025-10-25T2300,1790A,125.129,46.533,大庆市,龙凤区,颗粒物(PM10),101,151,56,24,21,51,,54,37,6,21,6,8,0.4,0.6
2025-10-25T2300,1791A,124.902,46.408,大庆市,红岗区,,,51,37,,20,58,,61,46,6,17,6,6,0.5,0.5
2025-10-25T2300,1792A,125.153,46.586,大庆市,萨尔图区,颗粒物(PM10),55,59,44,18,21,59,,57,45,8,25,10,13,0.3,0.4
2025-10-25T2300,1793A,124.9042,46.6215,大庆市,让胡路区,,36,30,39,25,22,50,,59,45,5,19,6,6,0.4,0.4
2025-10-25T2300,3481A,125.141,46.634,大庆市,萨区政府监测点,颗粒物(PM10),54,57,40,7,11,55,,58,48,2,15,8,11,0.3,0.4
2025-10-25T2300,1721A,113.3819,40.1097,大同市,果树场,,17,14,29,8,21,53,,75,66,16,22,10,10,0.4,0.8
2025-10-25T2300,1723A,113.2994,40.0758,大同市,云冈宾馆,,16,16,30,3,22,42,,80,64,21,20,7,7,0.9,1
2025-10-25T2300,1724A,113.3444,40.0917,大同市,大同大学,,23,23,35,7,22,45,,81,64,22,26,10,10,0.5,0.7
2025-10-25T2300,1725A,113.2661,40.1269,大同市,安家小村,,36,36,39,17,21,28,,83,68,35,22,6,7,0.6,0.7
2025-10-25T2300,1726A,113.2711,40.0844,大同市,教育学院,,19,19,38,10,23,50,,79,65,19,25,5,7,0.4,0.7
2025-10-25T2300,3282A,113.3397,40.0597,大同市,大同市卫生学校,,16,15,35,7,23,50,,80,68,20,24,8,7,0.5,0.8
2025-10-25T2300,3565A,113.1367,40.1122,大同市,云冈站,,38,38,33,13,19,39,,87,62,28,15,13,7,0.5,0.6
2025-10-25T2300,3566A,113.1186,40.2556,大同市,图书馆,,28,28,36,14,21,21,,80,57,41,22,9,6,0.4,0.5
2025-10-25T2300,3567A,113.5931,40.0461,大同市,区一中,,24,8,42,3,28,76,,93,,9,17,3,5,0.4,0.7
2025-10-25T2300,4199A,113.2798,40.0997,大同市,魏都大道141号,,21,21,39,11,23,47,,81,66,24,25,6,6,0.5,0.7
2025-10-25T2300,2269A,124.1069,50.4097,大兴安岭地区,科技局,,30,30,36,17,23,32,,53,43,7,10,4,5,0.3,0.3
2025-10-25T2300,3663A,124.1164,50.4278,大兴安岭地区,红旗社区,,31,31,34,20,22,8,,53,38,20,18,3,4,0.5,0.4
2025-10-25T2300,1600A,124.3303,40.0625,丹东市,江湾东路,细颗粒物(PM2.5),100,122,84,75,54,14,,72,33,54,41,9,12,1.8,1.3
2025-10-25T2300,1601A,124.4256,40.1503,丹东市,临江后街,颗粒物(PM10),89,128,75,64,40,5,,75,42,69,35,8,13,1.6,1
2025-10-25T2300,1602A,124.3933,40.1461,丹东市,元宝山,细颗粒物(PM2.5),77,90,63,56,45,50,,71,52,25,36,8,11,0.9,1
2025-10-25T2300,1603A,124.3633,40.1092,丹东市,民主桥,细颗粒物(PM2.5),118,135,77,89,51,7,,74,33,64,45,6,9,1.4,0.9
2025-10-25T2300,3541A,109.5726,19.5167,儋州市,第一中学子站,,43,43,38,26,26,71,,67,67,8,11,3,4,0.5,0.5
2025-10-25T2300,3542A,109.5567,19.5187,儋州市,东坡学校子站,,39,39,39,27,26,85,,78,78,10,11,4,4,0.3,0.3
2025-10-25T2300,2616A,98.5842,24.428,德宏傣族景颇族自治州,德宏州监测站,,37,37,26,23,17,26,,79,58,19,14,7,9,0.7,0.5
2025-10-25T2300,3677A,98.5881,24.4368,德宏傣族景颇族自治州,芒市人民政府综合楼,,33,33,32,16,15,31,,74,57,11,11,6,8,0.6,0.6
2025-10-25T2300,1901A,104.4239,31.1208,德阳市,东山公园,,15,15,10,7,9,21,,58,45,12,10,1,1,0.7,0.6
2025-10-25T2300,1902A,104.3826,31.1317,德阳市,西小区,,34,34,25,15,11,10,,58,40,42,16,2,1,0.8,0.7
2025-10-25T2300,1904A,104.3553,31.1091,德阳市,耐火材料厂,,29,27,21,20,13,22,,54,38,31,22,3,2,0.9,0.8
2025-10-25T2300,3639A,104.4019,31.1244,德阳市,市教育局,,26,24,16,18,11,4,,56,33,35,15,2,2,0.7,0.6
2025-10-25T2300,1622A,116.3032,37.4674,德州市,儿童乐园,细颗粒物(PM2.5),73,73,108,53,68,32,,72,53,35,48,8,10,0.6,0.8
2025-10-25T2300,1624A,116.2991,37.4451,德州市,监理站,细颗粒物(PM2.5),58,58,97,41,65,43,,77,59,36,56,10,12,0.5,0.8
2025-10-25T2300,3066A,116.2721,37.4379,德州市,九衢泉纯净水厂,颗粒物(PM10),58,66,101,31,54,10,,62,36,51,58,10,11,0.5,0.7
2025-10-25T2300,3371A,116.3728,37.4403,德州市,开发区人民医院,颗粒物(PM10),58,66,99,39,53,30,,65,49,39,51,10,12,0.7,0.9
2025-10-25T2300,3511A,116.5652,37.3319,德州市,陵城艺术中心,细颗粒物(PM2.5),79,75,93,58,69,20,,63,45,39,52,10,17,0.9,1
2025-10-25T2300,4292A,116.3525,37.4209,德州市,新河东路,细颗粒物(PM2.5),62,70,100,44,58,11,,65,43,62,62,7,9,0.8,0.9
2025-10-25T2300,2621A,99.7056,27.8317,迪庆藏族自治州,迪庆州站,,39,39,24,23,15,51,,74,66,14,10,6,6,0.7,0.5
2025-10-25T2300,3180A,99.7136,27.8094,迪庆藏族自治州,质量技术监督局,,21,14,21,8,11,65,,73,67,7,13,9,8,0.5,0.5
2025-10-25T2300,4257A,104.6092,35.5962,定西市,将台街,颗粒物(PM10),60,69,47,36,25,31,,87,70,41,23,9,8,0.5,0.5
2025-10-25T2300,4309A,104.6159,35.5701,定西市,正龙路62号,细颗粒物(PM2.5),62,69,53,44,32,32,,73,,26,14,5,5,0.8,0.4
2025-10-25T2300,1389A,113.7547,23.0494,东莞市,莞城梨川,,34,34,30,20,18,64,,114,87,22,20,6,6,0.5,0.5
2025-10-25T2300,1390A,113.7944,23.0128,东莞市,东城石井,,33,33,37,19,23,66,,125,90,19,21,8,8,0.6,0.6
2025-10-25T2300,1391A,113.7383,22.9658,东莞市,南城西平,,35,35,36,19,24,50,,126,88,37,32,7,8,0.7,0.6
2025-10-25T2300,3319A,113.7338,23.0381,东莞市,万江金泰,,31,31,37,16,24,65,,109,85,15,15,5,5,0.7,0.7
2025-10-25T2300,3626A,113.7533,23.0202,东莞市,南城元岭,,31,31,36,20,23,70,,125,94,17,17,6,7,0.4,0.4
2025-10-25T2300,3627A,113.7875,23.0457,东莞市,东城主山,,18,7,32,3,19,57,,118,77,30,27,4,5,0.4,0.4
2025-10-25T2300,1666A,118.6614,37.4309,东营市,市环保局,颗粒物(PM10),67,83,88,44,46,16,,87,53,56,44,14,15,0.7,0.8
2025-10-25T2300,3036A,118.6904,37.4338,东营市,开发区管委会,细颗粒物(PM2.5),67,79,87,48,55,25,,84,54,55,47,12,18,0.7,0.7
2025-10-25T2300,3365A,118.5719,37.565,东营市,垦利区民丰路,颗粒物(PM10),59,68,89,41,49,27,,96,67,40,38,6,7,0.6,0.7
2025-10-25T2300,3498A,118.5055,37.8612,东营市,河口城区,颗粒物(PM10),51,51,96,24,51,39,,99,64,33,39,7,9,0.5,0.5
2025-10-25T2300,3646A,118.4978,37.4623,东营市,胜利站,颗粒物(PM10),60,69,102,36,52,37,,85,54,39,49,8,12,0.7,0.8
2025-10-25T2300,3734A,118.35,37.26,东营市,理想之城,颗粒物(PM10),73,95,97,48,52,14,,78,44,62,57,8,7,0.6,0.6
2025-10-25T2300,1591A,110.0023,39.8129,鄂尔多斯市,综合楼,,34,34,50,3,29,57,,81,74,29,39,6,9,0.3,0.5
2025-10-25T2300,1592A,109.9486,39.8261,鄂尔多斯市,巴音孟克林场办事处,,44,44,53,12,28,36,,82,66,42,39,6,10,0.3,0.5
2025-10-25T2300,1593A,109.7736,39.5986,鄂尔多斯市,康泽苑,,29,29,38,14,22,63,,88,82,14,16,4,6,0.3,0.4
2025-10-25T2300,1594A,109.8119,39.5989,鄂尔多斯市,华泰汽车城,,34,34,38,14,24,57,,86,77,17,22,4,7,0.3,0.5
2025-10-25T2300,1595A,109.9734,39.7884,鄂尔多斯市,奥林花园,,41,41,59,9,26,50,,82,75,34,37,7,9,0.4,0.6
2025-10-25T2300,2436A,114.8938,30.3994,鄂州市,市政府,细颗粒物(PM2.5),82,65,48,60,36,22,,72,36,21,25,8,8,0.7,0.4
2025-10-25T2300,2437A,114.8989,30.3714,鄂州市,赵家坝,"颗粒物(PM10),细颗粒物(PM2.5)",57,64,49,40,26,30,,80,49,15,17,10,8,1.1,0.7
2025-10-25T2300,3654A,114.8094,30.4089,鄂州市,精准医疗中心,细颗粒物(PM2.5),78,,43,57,32,31,,78,45,18,21,4,7,0.5,0.5
2025-10-25T2300,2454A,109.4978,30.2981,恩施土家族苗族自治州,湖北民院,,37,37,34,20,26,41,,59,46,11,11,6,6,0.5,0.5
2025-10-25T2300,2455A,109.4707,30.2798,恩施土家族苗族自治州,州电力总公司,,42,33,33,29,26,21,,48,35,16,14,6,5,0.7,0.6
2025-10-25T2300,3549A,109.5061,30.3772,恩施土家族苗族自治州,龙凤新区,,43,34,30,30,26,10,,54,33,11,6,6,8,0.5,0.4
2025-10-25T2300,2499A,108.3411,21.6158,防城港市,沙万,,46,46,46,30,48,95,,105,104,12,9,6,6,0.8,0.8
2025-10-25T2300,2500A,108.3514,21.7731,防城港市,防城档案局,颗粒物(PM10),55,59,53,30,28,88,,97,93,12,12,7,6,0.6,0.6
2025-10-25T2300,2501A,108.3506,21.6414,防城港市,大海花园,,46,43,39,32,25,104,,114,113,12,9,6,6,0.4,0.4
2025-10-25T2300,1371A,113.1294,23.0067,佛山市,湾梁,,46,46,43,22,20,58,,115,88,31,26,11,10,0.7,0.6
2025-10-25T2300,1372A,113.1083,23.0478,佛山市,华材职中,,46,46,42,32,27,61,,119,90,33,22,10,8,0.8,0.7
2025-10-25T2300,1373A,113.144,23.0453,佛山市,南海气象局,,38,38,39,25,24,67,,122,96,31,26,12,10,0.6,0.5
2025-10-25T2300,1374A,113.2881,22.8094,佛山市,顺德苏岗,,45,40,42,31,22,52,,115,88,35,30,10,9,0.5,0.4
2025-10-25T2300,1376A,112.8383,22.8678,佛山市,高明孔堂,颗粒物(PM10),58,65,47,35,30,47,,119,82,34,25,12,8,0.6,0.5
2025-10-25T2300,1377A,112.8836,23.1588,佛山市,三水监测站,细颗粒物(PM2.5),57,56,45,40,30,37,,93,67,43,26,10,9,0.7,0.6
2025-10-25T2300,1378A,112.867,23.185,佛山市,三水云东海,,43,42,44,30,28,35,,98,61,28,18,6,8,0.7,0.7
2025-10-25T2300,3625A,113.2544,22.7642,佛山市,容桂街道办,颗粒物(PM10),52,53,41,34,24,49,,120,92,41,30,8,7,0.9,0.8
2025-10-25T2300,1280A,119.3903,26.0543,福州市,鼓山,,32,31,23,10,10,100,,105,105,9,8,2,2,0.9,0.8
2025-10-25T2300,1282A,119.2681,26.0504,福州市,师大,,35,35,31,15,14,86,,93,89,13,11,6,6,0.4,0.4
2025-10-25T2300,1283A,119.2984,26.1028,福州市,五四北路,,30,30,27,18,13,82,,90,87,15,12,5,5,0.3,0.4
2025-10-25T2300,1284A,119.2648,26.0768,福州市,杨桥西路,,35,35,28,15,14,80,,96,91,15,11,4,4,0.3,0.4
2025-10-25T2300,1285A,119.317,26.0746,福州市,紫阳,,34,34,31,15,12,86,,92,88,13,13,8,7,0.4,0.4
2025-10-25T2300,3048A,119.5799,26.0936,福州市,九龙,,35,34,25,14,12,111,,111,111,10,8,4,5,0.4,0.4
2025-10-25T2300,3526A,119.5189,25.9664,福州市,吴航,,34,31,25,15,14,108,,107,107,8,7,5,6,0.3,0.4
2025-10-25T2300,1755A,123.7977,41.8491,抚顺市,望花区,细颗粒物(PM2.5),139,106,140,106,26,26,,81,56,55,48,20,15,1.4,1.3
2025-10-25T2300,1756A,123.9161,41.8822,抚顺市,顺城区,细颗粒物(PM2.5),175,195,123,132,79,3,,82,35,70,53,12,12,1.9,1.3
2025-10-25T2300,1757A,124.0436,41.8611,抚顺市,东洲区,细颗粒物(PM2.5),155,163,119,118,90,20,,86,56,53,41,11,11,1.9,1.3
2025-10-25T2300,1758A,123.9247,41.8642,抚顺市,新抚区,细颗粒物(PM2.5),138,154,117,105,82,2,,87,49,70,42,9,10,2.3,1.5
2025-10-25T2300,1759A,124.0972,41.8961,抚顺市,大伙房水库,细颗粒物(PM2.5),156,191,106,119,80,41,,99,68,49,42,17,14,1.8,1.1
2025-10-25T2300,1760A,123.7086,41.8391,抚顺市,沈抚新城,细颗粒物(PM2.5),160,147,132,122,89,6,,88,51,75,50,17,14,1.5,1.5
2025-10-25T2300,2376A,116.2127,28.0814,抚州市,桐源党溪,,,,,,,,,,,,,,,,
2025-10-25T2300,2377A,116.3544,27.9831,抚州市,市站,颗粒物(PM10),57,64,58,36,35,108,,122,112,10,10,3,5,1.0,0.9
2025-10-25T2300,2378A,116.3565,27.963,抚州市,血防站,,48,47,54,33,37,116,,128,120,12,12,3,3,0.8,0.6
2025-10-25T2300,2379A,116.3564,28.0007,抚州市,采茶剧团,颗粒物(PM10),59,68,62,39,35,105,,123,112,10,8,4,4,0.8,0.7
2025-10-25T2300,2380A,116.385,27.9647,抚州市,医学分院,颗粒物(PM10),56,62,63,35,35,96,,122,110,11,8,14,10,0.8,0.7
2025-10-25T2300,2207A,121.6094,41.998,阜新市,工业园区,细颗粒物(PM2.5),109,124,91,82,61,3,,82,29,68,46,12,17,1.1,0.9
2025-10-25T2300,2208A,121.6697,42.0279,阜新市,长青街,细颗粒物(PM2.5),105,113,86,79,59,3,,85,38,69,44,11,16,1.3,0.9
2025-10-25T2300,2209A,121.6673,42.0705,阜新市,农业园区,,18,18,60,7,38,57,,86,66,13,23,4,12,0.5,0.7
2025-10-25T2300,2210A,121.6717,42.0224,阜新市,东苑,颗粒物(PM10),81,111,97,58,62,4,,80,34,65,47,14,19,1.0,0.9
2025-10-25T2300,2211A,121.6506,42.0498,阜新市,玉龙新城,颗粒物(PM10),72,93,92,42,48,5,,79,30,71,47,10,13,0.7,0.9
2025-10-25T2300,2301A,115.8277,32.8929,阜阳市,市监测站,细颗粒物(PM2.5),73,74,66,53,43,29,,55,43,43,41,4,5,0.5,0.4
2025-10-25T2300,2303A,115.8554,32.8605,阜阳市,开发区,细颗粒物(PM2.5),65,67,77,47,45,40,,59,50,25,26,8,9,0.3,0.3
2025-10-25T2300,2875A,115.784,32.8892,阜阳市,阜阳职业技术学院,细颗粒物(PM2.5),59,60,60,42,40,40,,59,50,25,25,5,7,0.4,0.4
2025-10-25T2300,3468A,115.7901,32.8613,阜阳市,市规划展馆,细颗粒物(PM2.5),70,66,61,51,38,36,,70,60,33,26,5,7,0.4,0.4
2025-10-25T2300,3469A,115.836,32.9183,阜阳市,枣园社区,细颗粒物(PM2.5),75,61,68,55,46,27,,58,40,40,34,7,9,0.5,0.4
2025-10-25T2300,2669A,102.9099,34.9841,甘南藏族自治州,州政府,,40,36,26,28,24,57,,86,68,8,8,4,5,0.4,0.3
2025-10-25T2300,3380A,102.8914,34.9617,甘南藏族自治州,甘肃民族师范学院,,35,,21,24,15,54,,73,57,5,9,4,5,0.5,0.4
2025-10-25T2300,2570A,101.9603,30.0475,甘孜藏族自治州,水桥子,,12,,7,3,4,38,,42,38,6,12,7,7,0.3,0.3
2025-10-25T2300,3065A,101.9533,29.9972,甘孜藏族自治州,州环保局,,11,8,6,3,4,34,,45,40,12,11,5,5,0.4,0.6
2025-10-25T2300,3414A,115.8347,28.932,赣江新区,桑海产业园,细颗粒物(PM2.5),74,90,66,54,37,77,,116,99,20,20,12,10,0.2,0.2
2025-10-25T2300,2362A,114.9017,25.9149,赣州市,通天岩,颗粒物(PM10),52,53,43,30,24,67,,135,117,8,7,18,19,0.6,0.5
2025-10-25T2300,2363A,114.9367,25.8664,赣州市,地委,颗粒物(PM10),54,58,48,33,28,95,,123,117,16,13,7,7,0.9,0.8
2025-10-25T2300,2364A,114.9461,25.8481,赣州市,气象台,颗粒物(PM10),55,60,51,32,24,96,,122,116,13,11,7,7,0.8,0.7
2025-10-25T2300,2365A,114.9322,25.8333,赣州市,市图书馆,细颗粒物(PM2.5),54,51,44,38,28,97,,125,119,16,12,5,5,0.6,0.6
2025-10-25T2300,2366A,114.8905,25.8471,赣州市,华坚鞋城,颗粒物(PM10),54,58,47,33,32,94,,112,108,13,14,8,7,0.6,0.5
2025-10-25T2300,3109A,115.0093,25.8613,赣州市,赣县区卫计委,细颗粒物(PM2.5),72,56,47,52,40,108,,133,127,6,6,7,7,0.7,0.6
2025-10-25T2300,2683A,106.2319,36.1417,固原市,马园,,,,,,,,,,,,,,,,
2025-10-25T2300,2684A,106.2792,36.0022,固原市,监测站,颗粒物(PM10),59,68,31,40,19,14,,80,59,48,19,8,6,1.2,0.7
2025-10-25T2300,2685A,106.2375,36.0211,固原市,新区,,46,46,27,31,19,6,,83,60,57,18,4,4,0.7,0.5
2025-10-25T2300,3522A,106.2177,35.9959,固原市,原州区十五小,颗粒物(PM10),51,51,34,31,22,34,,81,64,37,18,7,6,0.9,0.7
2025-10-25T2300,2543A,106.6308,30.5278,广安市,小平旧居,,,,,,,,,,,,,,,,
2025-10-25T2300,2544A,106.6303,30.4576,广安市,市委,,35,35,26,23,19,19,,46,33,20,12,3,3,0.7,0.5
2025-10-25T2300,2545A,106.6271,30.4663,广安市,友谊中学,,36,36,25,24,18,24,,50,37,16,11,5,5,0.7,0.6
2025-10-25T2300,2547A,106.6388,30.4551,广安市,广电花园,,36,35,22,25,18,15,,44,29,22,13,8,8,0.6,0.5
2025-10-25T2300,2902A,106.6351,30.4865,广安市,北辰小学,,32,31,24,22,16,17,,48,36,15,10,7,7,0.6,0.6
2025-10-25T2300,2523A,105.8945,32.4535,广元市,黑石坡,,,,,,,,,,,,,,,,
2025-10-25T2300,2524A,105.821,32.4444,广元市,老城,,29,29,15,14,13,5,,60,29,32,19,6,4,0.7,0.7
2025-10-25T2300,2526A,105.8628,32.4287,广元市,监测站,,13,13,13,6,16,14,,57,37,20,14,4,3,0.8,0.8
2025-10-25T2300,3617A,105.8047,32.4166,广元市,经开区,,27,27,16,15,10,2,,53,23,34,20,3,2,0.7,0.6
2025-10-25T2300,1345A,113.2347,23.1423,广州市,广雅中学,颗粒物(PM10),54,57,49,32,27,50,,113,80,48,33,10,9,0.6,0.5
2025-10-25T2300,1346A,113.2612,23.105,广州市,市五中,颗粒物(PM10),54,58,47,34,27,50,,132,93,64,37,11,9,1.0,0.9
2025-10-25T2300,1348A,113.3478,23.0916,广州市,广东商学院,,49,48,42,34,27,71,,122,90,30,27,8,6,0.4,0.3
2025-10-25T2300,1349A,113.4332,23.1047,广州市,市八十六中,,37,37,36,24,22,67,,114,91,29,26,8,7,0.4,0.3
2025-10-25T2300,1350A,113.3505,22.9483,广州市,番禺中学,,49,49,44,32,29,68,,123,98,29,25,8,7,0.5,0.5
2025-10-25T2300,1351A,113.2146,23.3916,广州市,花都师范,,45,45,42,27,25,86,,107,95,19,18,9,9,0.4,0.4
2025-10-25T2300,1352A,113.2597,23.1331,广州市,市监测站,颗粒物(PM10),56,61,49,33,26,37,,123,84,67,33,11,9,0.6,0.5
2025-10-25T2300,1353A,113.5618,23.312,广州市,九龙镇镇龙,,46,46,45,24,27,68,,98,76,17,22,6,6,0.5,0.5
2025-10-25T2300,1354A,113.2765,23.1544,广州市,麓湖,,46,46,42,32,27,37,,112,74,45,29,10,9,0.4,0.3
2025-10-25T2300,1355A,113.443,23.3035,广州市,帽峰山森林公园,,,,,,,,,,,,,,,,
2025-10-25T2300,2846A,113.3221,23.1322,广州市,体育西,颗粒物(PM10),51,51,46,31,27,62,,118,88,30,23,11,9,0.8,0.7
2025-10-25T2300,3298A,113.5717,23.5491,广州市,从化街口,,41,41,36,28,24,55,,99,85,31,11,11,9,0.7,0.5
2025-10-25T2300,3299A,113.3472,23.3692,广州市,白云竹料,,37,37,41,25,26,75,,113,92,18,15,12,9,0.6,0.5
2025-10-25T2300,3300A,113.2981,23.237,广州市,白云嘉禾,颗粒物(PM10),52,54,50,32,28,45,,120,84,52,28,11,10,0.6,0.4
2025-10-25T2300,3301A,113.4256,23.1716,广州市,黄埔科学城,,40,40,37,26,24,85,,124,105,11,13,8,7,0.5,0.5
2025-10-25T2300,3302A,113.3942,23.0483,广州市,番禺大学城,,45,45,43,29,24,60,,120,94,33,24,8,6,0.5,0.4
2025-10-25T2300,3303A,113.4922,22.8168,广州市,南沙黄阁,颗粒物(PM10),53,56,52,29,27,41,,128,92,54,35,10,9,0.4,0.3
2025-10-25T2300,3304A,113.5342,22.7896,广州市,南沙街,颗粒物(PM10),51,51,47,29,26,49,,129,92,37,27,8,10,0.5,0.5
2025-10-25T2300,3443A,113.2902,23.5544,广州市,花都梯面,,34,34,31,23,21,80,,112,103,17,11,7,8,0.5,0.4
2025-10-25T2300,3445A,113.7858,23.7478,广州市,从化良口,,31,31,31,21,22,82,,101,91,12,11,7,7,0.5,0.5
2025-10-25T2300,3446A,113.8051,23.2614,广州市,增城荔城,,26,26,30,17,19,77,,98,87,10,10,7,7,0.6,0.6
2025-10-25T2300,2505A,109.568,23.1478,贵港市,德智高中,,,,,,,,,,,,,,,,
2025-10-25T2300,2506A,109.6047,23.0666,贵港市,江南子站,颗粒物(PM10),56,61,52,32,31,97,,106,101,14,13,6,6,0.7,0.6
2025-10-25T2300,2508A,109.5669,23.1065,贵港市,荷城子站,颗粒物(PM10),53,56,43,31,23,84,,95,94,16,13,4,4,0.7,0.6
2025-10-25T2300,3405A,109.5886,23.1172,贵港市,新世纪学校,颗粒物(PM10),53,56,50,35,27,88,,104,102,11,9,5,4,0.5,0.5
2025-10-25T2300,4260A,109.5933,23.0951,贵港市,中山路155-3号,,49,49,41,29,27,94,,106,105,12,10,5,5,0.7,0.6
2025-10-25T2300,1439A,106.6899,26.5998,贵阳市,马鞍山,,42,31,24,29,25,25,,47,26,11,11,3,4,0.4,0.4
2025-10-25T2300,1441A,106.6243,26.6266,贵阳市,鉴湖路,,34,34,32,22,15,41,,46,40,10,11,4,4,0.5,0.5
2025-10-25T2300,1442A,106.7487,26.6343,贵阳市,燕子冲,,42,,24,29,25,42,,57,43,9,10,5,4,0.3,0.3
2025-10-25T2300,1443A,106.6555,26.4365,贵阳市,碧云窝,,44,44,41,22,21,37,,45,38,14,15,6,4,0.3,0.3
2025-10-25T2300,1445A,106.7109,26.6027,贵阳市,红边门,,39,31,28,27,23,36,,57,38,15,14,3,3,0.6,0.6
2025-10-25T2300,1446A,106.7164,26.5699,贵阳市,新华路,,35,34,32,24,21,37,,48,38,12,11,9,9,0.5,0.5
2025-10-25T2300,1447A,106.674,26.5424,贵阳市,太慈桥,,39,31,26,27,17,31,,46,33,18,17,3,3,0.8,0.7
2025-10-25T2300,1552A,106.805,26.3003,贵阳市,桐木岭,,36,36,36,19,24,58,,58,58,2,4,5,4,0.7,0.7
2025-10-25T2300,4230A,106.6882,26.5695,贵阳市,花果园大街66号,,50,,23,35,23,35,,49,36,14,13,3,2,0.6,0.6
2025-10-25T2300,4231A,106.6873,26.5169,贵阳市,漓江路57号,,42,29,23,29,22,33,,46,35,13,12,9,8,0.5,0.5
2025-10-25T2300,1862A,110.4144,25.3167,桂林市,电子科大尧山校区,,,,,,,,,,,,,,,,
2025-10-25T2300,1864A,110.3089,25.2708,桂林市,龙隐路小学,细颗粒物(PM2.5),63,50,41,45,30,106,,111,103,10,10,7,8,0.4,0.4
2025-10-25T2300,1865A,110.2869,25.2178,桂林市,八中,细颗粒物(PM2.5),65,48,43,47,33,108,,116,105,13,13,9,9,0.4,0.4
2025-10-25T2300,3531A,110.296,25.1253,桂林市,旅游学院,,49,48,40,34,27,107,,124,114,13,11,6,8,0.6,0.6
2025-10-25T2300,4222A,110.1835,25.2444,桂林市,环湖路276号,细颗粒物(PM2.5),58,53,43,41,31,102,,108,103,13,11,8,8,0.3,0.3
2025-10-25T2300,4301A,110.2803,25.2773,桂林市,信义路13号,细颗粒物(PM2.5),55,56,44,39,27,103,,109,102,13,11,8,9,0.5,0.4
2025-10-25T2300,2674A,100.2561,34.4714,果洛藏族自治州,玛沁县大武镇,,46,46,34,14,13,67,,89,80,2,3,20,9,0.3,0.3
2025-10-25T2300,1129A,126.5422,45.755,哈尔滨市,岭北,,,,,,,,,,,,,,,,
2025-10-25T2300,1130A,126.561,45.8167,哈尔滨市,松北商大,颗粒物(PM10),63,76,82,41,75,44,,65,41,23,32,7,8,0.5,0.7
2025-10-25T2300,1131A,126.979,45.5419,哈尔滨市,阿城会宁,细颗粒物(PM2.5),113,94,135,85,103,34,,84,52,35,31,13,11,0.5,0.7
2025-10-25T2300,1132A,126.599,45.7222,哈尔滨市,南岗学府路,颗粒物(PM10),64,78,114,28,76,43,,69,51,27,41,12,13,0.4,0.6
2025-10-25T2300,1133A,126.689,45.7733,哈尔滨市,太平宏伟公园,颗粒物(PM10),60,69,111,29,76,48,,69,49,24,34,13,14,0.4,0.7
2025-10-25T2300,1134A,126.635,45.7667,哈尔滨市,道外承德广场,颗粒物(PM10),65,80,117,30,69,42,,64,40,29,42,12,12,0.5,0.8
2025-10-25T2300,1135A,126.685,45.7319,哈尔滨市,香坊红旗大街,颗粒物(PM10),62,73,130,42,88,44,,65,42,31,41,11,14,0.5,0.8
2025-10-25T2300,1136A,126.6411,45.7258,哈尔滨市,动力和平路,颗粒物(PM10),61,72,113,30,83,43,,69,46,27,41,10,14,0.5,0.8
2025-10-25T2300,1137A,126.593,45.7478,哈尔滨市,道里建国路,细颗粒物(PM2.5),62,68,90,44,67,34,,58,26,29,38,12,8,0.4,0.7
2025-10-25T2300,1138A,126.615,45.61,哈尔滨市,平房东轻厂,颗粒物(PM10),63,76,114,39,84,30,,72,52,44,31,14,13,0.5,0.6
2025-10-25T2300,1139A,126.595,45.9855,哈尔滨市,呼兰师专,细颗粒物(PM2.5),72,92,77,52,59,36,,66,40,33,34,9,12,0.5,0.6
2025-10-25T2300,1140A,126.6206,45.6842,哈尔滨市,省农科院,颗粒物(PM10),66,81,131,39,79,23,,54,31,39,47,11,12,0.8,0.9
2025-10-25T2300,2688A,93.5128,42.8172,哈密市,地区监测站,颗粒物(PM10),143,236,125,79,46,7,,77,52,95,56,12,12,0.8,0.4
2025-10-25T2300,2689A,93.4961,42.8328,哈密市,哈密师范学校,颗粒物(PM10),104,158,127,62,46,,,32,,91,53,12,15,1.3,1.1
2025-10-25T2300,2671A,100.9048,36.9639,海北藏族自治州,海晏县西海镇,,30,27,23,21,19,52,,94,76,11,6,4,6,0.4,0.4
2025-10-25T2300,3867A,102.0738,36.5056,海东市,平安区公安北苑,,43,40,43,30,30,76,,91,82,8,12,15,14,0.7,0.9
2025-10-25T2300,1409A,110.576,19.9507,海口市,东寨港,,,,,,,,,,,,,,,,
2025-10-25T2300,1410A,110.3232,20.0574,海口市,海南大学,,39,39,37,25,24,109,,128,124,7,8,7,7,0.4,0.4
2025-10-25T2300,1411A,110.283,20.0053,海口市,秀英海南医院,,40,40,39,24,23,100,,116,112,9,12,8,8,0.3,0.3
2025-10-25T2300,1412A,110.338,19.9969,海口市,海南师范大学,,36,36,36,25,22,108,,125,121,8,9,7,7,0.5,0.4
2025-10-25T2300,1413A,110.33,20.0356,海口市,龙华路环保局宿舍,,41,41,42,25,23,106,,125,120,9,10,8,8,0.1,0.1
2025-10-25T2300,3539A,110.5111,19.9736,海口市,桂林洋子站,,42,42,39,27,24,111,,120,119,9,9,7,7,0.4,0.4
2025-10-25T2300,2673A,100.6188,36.2866,海南藏族自治州,共和县恰卜恰镇,,44,44,34,11,15,79,,100,92,14,11,11,12,0.2,0.4
2025-10-25T2300,2676A,97.3731,37.3753,海西蒙古族藏族自治州,德令哈市,,40,40,38,21,16,66,,99,90,22,8,19,16,0.5,0.4
2025-10-25T2300,1048A,114.5302,36.6116,邯郸市,东污水处理厂,细颗粒物(PM2.5),89,,60,66,61,30,,82,60,27,29,3,6,0.5,0.6
2025-10-25T2300,1049A,114.4918,36.5713,邯郸市,矿院,细颗粒物(PM2.5),85,,55,63,61,31,,81,59,31,35,5,6,0.4,0.5
2025-10-25T2300,1050A,114.484,36.6133,邯郸市,丛台公园,细颗粒物(PM2.5),77,59,58,56,53,38,,83,65,28,30,4,6,0.5,0.6
2025-10-25T2300,3458A,114.7895,36.5593,邯郸市,香泉濮院小区,细颗粒物(PM2.5),75,57,65,55,53,42,,84,59,23,24,4,6,0.4,0.5
2025-10-25T2300,3579A,114.50634,36.77178,邯郸市,永年区实验高中,颗粒物(PM10),54,58,78,32,45,39,,84,67,32,37,2,2,0.5,0.7
2025-10-25T2300,3580A,114.20016,36.44293,邯郸市,峰峰矿区临水派出所,细颗粒物(PM2.5),58,48,43,41,37,40,,87,70,27,19,5,7,0.6,0.6
2025-10-25T2300,2634A,106.9893,33.1842,汉中市,汉川机床厂子校,,,,,,,,,,,,,,,,
2025-10-25T2300,2635A,107.0154,33.0706,汉中市,市监测站,颗粒物(PM10),55,60,35,30,26,13,,84,58,34,13,5,4,1.0,0.6
2025-10-25T2300,2636A,107.0089,33.1138,汉中市,鑫源开发区,颗粒物(PM10),51,52,33,22,26,1,,80,50,39,17,4,4,0.4,0.3
2025-10-25T2300,2637A,107.007,33.0323,汉中市,南郑大河坎水厂,颗粒物(PM10),55,60,42,32,29,1,,86,46,46,18,7,9,0.8,0.6
2025-10-25T2300,1223A,120.2072,30.2111,杭州市,滨江,颗粒物(PM10),58,66,47,31,21,70,,113,97,38,31,11,10,0.6,0.6
2025-10-25T2300,1224A,120.0633,30.2747,杭州市,西溪,颗粒物(PM10),52,54,42,30,26,53,,110,89,32,25,8,8,0.6,0.5
2025-10-25T2300,1226A,120.3417,30.3150,杭州市,下沙,,49,49,38,28,22,64,,122,97,40,27,11,11,0.5,0.3
2025-10-25T2300,1227A,120.1269,30.2456,杭州市,卧龙桥,,46,46,41,26,22,30,,99,63,35,24,9,9,0.6,0.6
2025-10-25T2300,1228A,120.1903,30.2692,杭州市,浙江农大,颗粒物(PM10),55,60,43,33,24,71,,114,97,41,33,7,7,0.7,0.6
2025-10-25T2300,1230A,120.1197,30.3119,杭州市,和睦小学,,50,50,42,28,23,77,,116,96,31,25,8,8,0.7,0.6
2025-10-25T2300,1231A,120.3019,30.4183,杭州市,临平镇,,48,48,46,29,25,68,,118,98,31,22,7,7,0.4,0.4
2025-10-25T2300,1232A,120.2753,30.1839,杭州市,城厢镇,细颗粒物(PM2.5),52,52,44,36,26,70,,108,90,42,33,8,7,0.6,0.5
2025-10-25T2300,1233A,120.0883,30.1808,杭州市,云栖,,40,40,38,23,20,57,,114,83,32,25,6,6,0.6,0.6
2025-10-25T2300,3557A,119.9464,30.0494,杭州市,镇二中,颗粒物(PM10),55,60,48,35,28,64,,105,88,28,24,5,6,0.6,0.6
2025-10-25T2300,3558A,119.7183,30.2367,杭州市,市府大楼,颗粒物(PM10),57,63,49,36,28,81,,121,111,21,22,9,9,0.5,0.4
2025-10-25T2300,3656A,120.1556,30.2864,杭州市,消防大队,细颗粒物(PM2.5),53,53,47,37,25,78,,109,99,34,30,9,9,0.3,0.3
2025-10-25T2300,1270A,117.1959,31.7848,合肥市,明珠广场,,28,22,46,19,25,65,,78,66,18,23,6,8,0.5,0.6
2025-10-25T2300,1271A,117.3072,31.8764,合肥市,三里街,,24,24,39,14,19,60,,80,63,18,23,5,6,0.4,0.5
2025-10-25T2300,1272A,117.2588,31.8707,合肥市,琥珀山庄,,32,24,40,22,23,56,,86,68,22,18,4,5,0.4,0.5
2025-10-25T2300,1273A,117.1604,31.9052,合肥市,董铺水库,,,,,,,,,,,,,,,,
2025-10-25T2300,1274A,117.25,31.8571,合肥市,长江中路,,34,34,46,22,26,63,,87,71,20,19,6,6,0.4,0.5
2025-10-25T2300,1275A,117.266,31.9436,合肥市,庐阳区,,25,24,45,17,21,64,,84,67,18,26,4,5,0.5,0.6
2025-10-25T2300,1276A,117.3453,31.8616,合肥市,瑶海区,,23,12,41,12,20,71,,87,70,16,24,8,9,0.4,0.4
2025-10-25T2300,1277A,117.3027,31.7964,合肥市,包河区,,27,27,47,17,23,44,,67,48,46,47,6,7,0.4,0.5
2025-10-25T2300,1278A,117.2776,31.7385,合肥市,滨湖新区,,32,27,47,22,30,73,,92,76,15,22,3,4,0.5,0.6
2025-10-25T2300,1279A,117.1318,31.8403,合肥市,高新区,,25,19,45,17,24,72,,82,68,17,26,4,5,0.6,0.6
2025-10-25T2300,3464A,117.3803,31.9147,合肥市,高教基地,,26,22,38,18,21,58,,80,59,12,16,6,7,0.4,0.4
2025-10-25T2300,3614A,79.924,37.0877,和田地区,地区环保局,细颗粒物(PM2.5),114,153,151,86,56,50,,102,87,48,22,8,16,1.3,0.6
2025-10-25T2300,3615A,79.9131,37.113,和田地区,市环保局,颗粒物(PM10),96,142,159,46,54,19,,101,80,76,38,5,12,0.6,0.3
2025-10-25T2300,2516A,108.2011,24.715,河池市,东仁乐园,,,,,,,,,,,,,,,,
2025-10-25T2300,2517A,108.0497,24.6947,河池市,市环保站,,26,,34,18,26,51,,56,48,10,13,6,6,0.7,0.7
2025-10-25T2300,2518A,108.0983,24.6989,河池市,市疾控中心,,23,,31,16,24,62,,63,53,7,12,8,9,0.6,0.6
2025-10-25T2300,1696A,114.6778,23.7569,河源市,源西,,,,,,,,,,,,,,,,
2025-10-25T2300,1697A,114.6944,23.7586,河源市,东埔,,38,35,33,26,25,95,,98,88,16,12,6,6,0.8,0.7
2025-10-25T2300,1698A,114.6892,23.7233,河源市,老城,,,38,38,,21,,,102,90,,10,,7,,0.5
2025-10-25T2300,1718A,115.4208,35.2464,菏泽市,气象局,细颗粒物(PM2.5),78,69,79,57,61,63,,91,78,17,17,3,3,0.6,0.6
2025-10-25T2300,3374A,115.5564,35.0891,菏泽市,定陶老年大学,细颗粒物(PM2.5),73,61,68,53,51,59,,82,67,14,17,7,7,0.5,0.5
2025-10-25T2300,4184A,115.4797,35.24401,菏泽市,永昌路1号,细颗粒物(PM2.5),70,53,73,51,54,67,,90,80,16,16,2,3,0.4,0.4
2025-10-25T2300,4193A,115.4715,35.2800,菏泽市,长城路999号,细颗粒物(PM2.5),73,62,72,53,55,72,,87,81,17,21,9,9,0.7,0.7
2025-10-25T2300,2514A,111.5264,24.4172,贺州市,环保小区,,49,49,43,31,28,100,,122,113,15,12,6,5,0.6,0.6
2025-10-25T2300,2515A,111.5608,24.4078,贺州市,政协大楼,颗粒物(PM10),51,52,42,30,28,88,,111,100,13,12,6,6,0.5,0.6
2025-10-25T2300,3534A,111.4744,24.4553,贺州市,西湾,,48,42,42,33,28,98,,114,107,10,11,6,7,0.5,0.5
2025-10-25T2300,2385A,114.17,35.9019,鹤壁市,市监测站,细颗粒物(PM2.5),70,58,37,51,32,21,,80,61,24,15,2,4,0.7,0.6
2025-10-25T2300,2386A,114.2956,35.7511,鹤壁市,市交警支队,细颗粒物(PM2.5),122,114,62,92,49,32,,76,49,36,25,5,5,0.6,0.6
2025-10-25T2300,2387A,114.2878,35.7306,鹤壁市,迎宾馆,细颗粒物(PM2.5),119,115,68,90,51,34,,76,50,27,20,5,6,0.6,0.6
2025-10-25T2300,3474A,114.2617,35.6822,鹤壁市,大新区,细颗粒物(PM2.5),124,,62,94,65,28,,66,40,31,28,4,4,0.6,0.7
2025-10-25T2300,3596A,114.1572,35.9603,鹤壁市,南山宾馆,细颗粒物(PM2.5),73,67,35,53,30,21,,80,60,33,14,2,2,0.5,0.4
2025-10-25T2300,2244A,130.2537,47.3416,鹤岗市,哈啤分公司,细颗粒物(PM2.5),500,,160,622,167,31,,103,54,108,43,24,18,2.6,1
2025-10-25T2300,2245A,130.2684,47.3086,鹤岗市,斯达机电,细颗粒物(PM2.5),500,576,220,529,179,43,,108,76,94,42,36,19,2.5,1.2
2025-10-25T2300,2246A,130.3114,47.3388,鹤岗市,东山纸板厂,细颗粒物(PM2.5),490,559,302,484,202,24,,104,59,76,53,18,18,3.5,1.9
2025-10-25T2300,2247A,130.1097,47.3382,鹤岗市,五号水库,,,,,,,,,,,,,,,,
2025-10-25T2300,2263A,127.4833,50.2524,黑河市,交通局,细颗粒物(PM2.5),127,122,116,96,81,47,,61,48,25,27,6,5,0.7,0.7
2025-10-25T2300,2264A,127.5144,50.2341,黑河市,环保局,细颗粒物(PM2.5),130,131,120,99,86,46,,59,47,25,25,7,13,0.8,0.7
2025-10-25T2300,2265A,127.5291,50.2472,黑河市,大黑河岛,,,,,,,,,,,,,,,,
2025-10-25T2300,1074A,115.6838,37.7541,衡水市,电机北厂,细颗粒物(PM2.5),72,57,91,52,63,34,,72,62,29,42,3,8,0.4,0.5
2025-10-25T2300,1075A,115.6303,37.7316,衡水市,市监测站,细颗粒物(PM2.5),58,46,76,41,57,23,,71,58,34,41,6,8,0.3,0.5
2025-10-25T2300,3188A,115.6683,37.7217,衡水市,市城管局,颗粒物(PM10),62,73,80,40,57,31,,78,65,36,45,7,10,0.3,0.6
2025-10-25T2300,3459A,115.5989,37.5491,衡水市,地表水厂,细颗粒物(PM2.5),62,64,84,44,53,13,,75,47,49,44,5,7,0.3,0.4
2025-10-25T2300,2456A,112.5003,26.9167,衡阳市,原169医院,,,,,,,,,,,,,,,,
2025-10-25T2300,2457A,112.6194,26.9258,衡阳市,衡阳化工总厂,细颗粒物(PM2.5),92,68,53,68,40,80,,106,96,12,15,6,8,0.9,0.9
2025-10-25T2300,2458A,112.6211,26.8956,衡阳市,珠晖区环保局,细颗粒物(PM2.5),85,,51,63,38,77,,101,92,22,26,9,10,1.0,1
2025-10-25T2300,2459A,112.6197,26.8733,衡阳市,市委党校,细颗粒物(PM2.5),78,64,50,57,34,80,,106,98,11,11,3,5,0.7,0.6
2025-10-25T2300,2460A,112.6006,26.8919,衡阳市,市监测站,颗粒物(PM10),66,81,60,45,36,78,,107,97,13,14,5,7,0.8,0.8
2025-10-25T2300,2461A,112.5664,26.9056,衡阳市,真空机电公司,细颗粒物(PM2.5),100,,52,75,40,80,,106,97,14,11,6,8,0.9,0.8
2025-10-25T2300,3399A,112.6703,26.882,衡阳市,师范学院,细颗粒物(PM2.5),79,77,56,58,35,84,,110,102,15,15,8,9,0.8,0.8
2025-10-25T2300,2608A,103.3772,23.3993,红河哈尼族彝族自治州,污水处理厂,,26,26,19,14,12,28,,37,30,9,8,9,9,0.2,0.2
2025-10-25T2300,2609A,103.3861,23.35,红河哈尼族彝族自治州,监测站,,25,18,16,17,11,28,,34,27,6,5,12,5,0.2,0.2
2025-10-25T2300,3038A,103.3758,23.368,红河哈尼族彝族自治州,州图书馆,,25,,7,17,14,30,,34,28,5,6,3,3,0.3,0.3
2025-10-25T2300,1090A,111.6507,40.7517,呼和浩特市,呼市一监,,21,7,25,3,8,65,,80,74,8,27,2,3,0.0,0.7
2025-10-25T2300,1091A,111.6572,40.8033,呼和浩特市,小召,,21,9,23,3,6,67,,80,72,13,29,5,6,0.4,0.5
2025-10-25T2300,1094A,111.7516,40.8369,呼和浩特市,如意水处理厂,,21,8,17,3,7,66,,81,71,7,34,8,8,0.1,0.2
2025-10-25T2300,1095A,111.7276,40.8062,呼和浩特市,二十九中,,23,15,24,3,6,73,,86,79,6,25,7,7,0.2,0.3
2025-10-25T2300,1096A,111.5512,40.7866,呼和浩特市,工大金川校区,,24,24,31,3,6,68,,77,74,8,26,5,7,0,0.1
2025-10-25T2300,1097A,111.717,40.7612,呼和浩特市,化肥厂生活区,,23,7,13,3,8,73,,80,76,8,26,4,5,0.1,0.3
2025-10-25T2300,3698A,111.5968,40.8178,呼和浩特市,红旗小学,,20,19,18,3,4,61,,79,67,12,19,3,4,0.1,0.1
2025-10-25T2300,3699A,111.6518,40.8389,呼和浩特市,海东办,,25,14,17,3,4,78,,90,77,8,25,4,4,0.4,0.3
2025-10-25T2300,3061A,119.7512,49.1577,呼伦贝尔市,国华电力东,,31,31,26,11,9,38,,50,40,6,7,5,6,0.6,0.6
2025-10-25T2300,4279A,119.7569,49.2222,呼伦贝尔市,伊敏大街东7号,,30,30,27,15,16,38,,52,39,1,2,5,5,0.4,0.3
2025-10-25T2300,1250A,120.0751,30.8669,湖州市,城西水厂,,37,37,40,19,21,95,,135,123,26,24,8,8,0.5,0.6
2025-10-25T2300,2873A,120.0830,30.8929,湖州市,仁皇山新区,,32,32,39,16,22,81,,131,118,26,20,7,7,0.3,0.5
2025-10-25T2300,2907A,120.1844,30.8596,湖州市,吴兴区站,,40,40,46,19,22,68,,114,102,27,25,7,8,0.4,0.6
2025-10-25T2300,3562A,120.4148,30.8538,湖州市,南浔区站,,29,29,44,16,22,84,,128,112,21,23,8,9,0.4,0.5
2025-10-25T2300,1607A,120.9049,40.7211,葫芦岛市,龙港区,细颗粒物(PM2.5),139,126,122,106,92,2,,76,48,58,46,9,58,1.4,1.6
2025-10-25T2300,1608A,120.8392,40.7514,葫芦岛市,化工街,"颗粒物(PM10),细颗粒物(PM2.5)",122,193,144,92,77,2,,63,33,68,50,24,27,1.3,1.2
2025-10-25T2300,1609A,120.8341,40.7073,葫芦岛市,新区,细颗粒物(PM2.5),138,166,100,105,75,2,,69,38,81,51,6,13,1.3,1.1
2025-10-25T2300,1610A,120.8695,40.7677,葫芦岛市,东城区,细颗粒物(PM2.5),129,159,113,98,81,7,,64,33,61,52,50,28,1.2,1.3
2025-10-25T2300,2482A,109.5981,27.5721,怀化市,林科所,,,,,,,,,,,,,,,,
2025-10-25T2300,2483A,109.9453,27.5444,怀化市,河西地税局,,48,45,45,33,32,65,,88,74,11,12,1,2,0.4,0.4
2025-10-25T2300,2484A,109.9781,27.5342,怀化市,市四医院,颗粒物(PM10),64,78,65,40,38,69,,98,83,11,9,9,8,0.3,0.3
2025-10-25T2300,2485A,109.9972,27.5578,怀化市,监测楼,,44,44,50,30,32,72,,96,83,7,7,2,2,0.2,0.2
2025-10-25T2300,2486A,110.0394,27.583,怀化市,市委党校,,49,47,50,34,35,62,,92,73,14,14,10,9,0.2,0.2
2025-10-25T2300,1210A,119.036,33.5981,淮安市,钵池山,细颗粒物(PM2.5),80,61,61,59,38,39,,57,42,30,39,7,8,1.0,0.7
2025-10-25T2300,1211A,119.007,33.575,淮安市,北京南路,细颗粒物(PM2.5),82,,53,60,34,46,,62,46,25,30,8,9,1.0,0.7
2025-10-25T2300,1212A,118.989,33.6067,淮安市,市监测站,细颗粒物(PM2.5),77,,54,56,42,46,,61,44,26,37,6,7,0.9,0.7
2025-10-25T2300,1213A,119.135,33.5039,淮安市,楚州区监测站,细颗粒物(PM2.5),108,,53,81,36,35,,71,47,37,34,8,9,1.3,0.6
2025-10-25T2300,3426A,118.8755,33.2894,淮安市,新华书店,细颗粒物(PM2.5),75,85,54,55,35,32,,57,49,40,39,8,12,0.9,0.7
2025-10-25T2300,4206A,119.0288,33.6319,淮安市,承德北路606号,细颗粒物(PM2.5),79,63,62,58,36,36,,58,42,29,37,6,8,0.9,0.6
2025-10-25T2300,2282A,116.8004,33.975,淮北市,监测站,细颗粒物(PM2.5),75,61,87,55,60,56,,73,58,22,32,8,10,0.7,0.7
2025-10-25T2300,2283A,116.8091,33.9007,淮北市,烈山区政府,细颗粒物(PM2.5),74,63,71,54,60,55,,84,64,23,32,7,10,0.8,0.8
2025-10-25T2300,3330A,116.8873,33.9836,淮北市,杜集区检察院,细颗粒物(PM2.5),75,57,76,55,64,74,,76,63,14,31,4,6,0.5,0.6
2025-10-25T2300,4017A,116.7923,33.9535,淮北市,市博物馆,,,,80,,59,,,62,,,32,,11,,0.7
2025-10-25T2300,2277A,116.8305,32.7727,淮南市,潘集区政府,细颗粒物(PM2.5),109,103,93,82,64,42,,60,51,21,24,4,6,0.6,0.5
2025-10-25T2300,2279A,116.8569,32.5951,淮南市,谢家集区政府,,42,39,66,29,39,51,,41,,14,26,7,10,0.4,0.4
2025-10-25T2300,2280A,116.8281,32.633,淮南市,八公山区政府,细颗粒物(PM2.5),55,52,73,39,47,50,,54,53,18,23,3,8,0.5,0.5
2025-10-25T2300,2281A,116.6325,32.6201,淮南市,焦岗湖风景区管理处,,,,,,,,,,,,,,,,
2025-10-25T2300,2894A,117.0566,32.6531,淮南市,经济技术开发区消防队,,40,40,65,24,37,38,,38,34,29,41,8,10,0.2,0.3
2025-10-25T2300,3329A,117.0108,32.5893,淮南市,山南新区,,42,41,59,29,33,51,,54,46,27,36,4,5,0.2,0.3
2025-10-25T2300,4209A,117.0031,32.6445,淮南市,国庆中路369号,,46,38,62,32,39,50,,46,46,21,35,7,8,0.3,0.4
2025-10-25T2300,2446A,114.9028,30.4742,黄冈市,职工中心,细颗粒物(PM2.5),64,60,45,46,30,32,,78,42,17,16,4,4,0.7,0.6
2025-10-25T2300,2929A,114.8858,30.4519,黄冈市,红卫路,细颗粒物(PM2.5),63,52,40,45,30,30,,86,46,18,16,5,5,0.8,0.5
2025-10-25T2300,3398A,114.9136,30.4445,黄冈市,市林业局,细颗粒物(PM2.5),64,56,43,46,30,34,,86,49,18,16,3,3,0.6,0.4
2025-10-25T2300,2672A,102.0199,35.5102,黄南藏族自治州,同仁县隆务镇,,50,50,38,22,16,55,,79,66,1,3,10,10,0.3,0.3
2025-10-25T2300,2295A,118.2903,29.6963,黄山市,延安路89号,,34,34,35,3,18,87,,105,91,8,8,4,4,0.4,0.4
2025-10-25T2300,2297A,118.1371,30.2756,黄山市,黄山区政府5号楼,细颗粒物(PM2.5),67,72,40,48,26,89,,102,99,10,6,7,6,0.7,0.5
2025-10-25T2300,4210A,118.3354,29.7203,黄山市,滨江东路7-2号,,,40,38,,14,82,,99,84,10,9,4,4,0.4,0.3
2025-10-25T2300,2423A,115.0601,30.2313,黄石市,沈家营,颗粒物(PM10),58,66,54,39,29,35,,94,55,13,15,7,8,0.6,0.6
2025-10-25T2300,2426A,114.8988,30.2019,黄石市,铁山,细颗粒物(PM2.5),69,,59,50,37,19,,76,45,27,29,4,7,0.6,0.4
2025-10-25T2300,2427A,115.0307,30.2092,黄石市,团城山,细颗粒物(PM2.5),59,62,51,42,31,35,,85,52,13,19,8,8,0.6,0.6
2025-10-25T2300,3149A,115.0235,30.1578,黄石市,笔架山北路,颗粒物(PM10),66,82,73,45,31,25,,88,48,23,22,10,10,0.5,0.6
2025-10-25T2300,4185A,115.0780,30.21118,黄石市,磁湖东路29号,细颗粒物(PM2.5),73,66,54,53,35,40,,88,59,13,18,8,10,0.7,0.5
2025-10-25T2300,1392A,114.4183,23.0528,惠州市,河南岸金山湖子站,,39,39,38,23,22,69,,87,73,23,22,14,12,0.6,0.5
2025-10-25T2300,1393A,114.4053,23.0822,惠州市,下埔横江三路子站,,42,42,33,26,21,79,,100,90,14,12,7,6,0.7,0.6
2025-10-25T2300,1394A,114.4103,23.1142,惠州市,江北云山西路子站,,42,42,34,27,21,85,,104,93,16,13,8,7,0.4,0.5
2025-10-25T2300,1395A,114.4645,22.7833,惠州市,惠阳区承修路船湖子站,,42,42,37,26,22,56,,106,86,23,15,9,10,0.7,0.6
2025-10-25T2300,1396A,114.5317,22.7422,惠州市,大亚湾管委会子站,,28,27,30,19,21,79,,99,90,16,14,11,11,0.6,0.7
2025-10-25T2300,3314A,114.4338,22.8134,惠州市,惠阳秋长,,34,34,36,21,23,78,,111,95,15,12,10,10,0.7,0.7
2025-10-25T2300,3452A,114.6517,22.775,惠州市,大亚湾霞涌,,34,34,32,20,21,69,,89,78,9,10,8,8,0.4,0.4
2025-10-25T2300,2240A,130.9762,45.3001,鸡西市,环保局,细颗粒物(PM2.5),203,238,103,153,62,2,,86,27,59,38,12,10,1.7,0.9
2025-10-25T2300,2243A,130.9429,45.3039,鸡西市,第一中学,细颗粒物(PM2.5),228,252,143,178,75,7,,87,37,67,32,12,9,1.3,1
2025-10-25T2300,3707A,131.0207,45.3073,鸡西市,欧美日汽修厂,细颗粒物(PM2.5),229,236,112,179,67,23,,83,43,57,38,18,13,1.5,0.9
2025-10-25T2300,3709A,130.9967,45.3106,鸡西市,市政设施管理处,细颗粒物(PM2.5),195,229,113,146,64,6,,87,28,67,46,15,14,1.3,0.7
2025-10-25T2300,2367A,114.9754,27.0803,吉安市,红声器材厂,颗粒物(PM10),58,66,56,38,30,87,,126,110,23,20,17,15,0.8,0.7
2025-10-25T2300,2368A,114.9658,27.0999,吉安市,市森林工业局,颗粒物(PM10),57,64,55,38,31,91,,127,113,19,19,11,12,0.6,0.5
2025-10-25T2300,2369A,114.99,27.1312,吉安市,市环境监测站,细颗粒物(PM2.5),79,69,58,58,32,79,,123,107,22,17,13,13,0.6,0.5
2025-10-25T2300,2370A,115.0093,27.0968,吉安市,青原区法院,细颗粒物(PM2.5),60,57,53,43,32,105,,125,117,14,18,10,14,0.5,0.5
2025-10-25T2300,1772A,126.54,43.8622,吉林市,哈达湾,细颗粒物(PM2.5),92,97,74,68,51,61,,100,71,35,33,12,11,0.9,0.6
2025-10-25T2300,1773A,126.5844,43.8358,吉林市,东局子,细颗粒物(PM2.5),85,83,62,63,45,54,,94,61,38,30,13,10,1.0,0.8
2025-10-25T2300,1774A,126.5052,43.8245,吉林市,电力学院,细颗粒物(PM2.5),120,111,83,91,64,26,,88,37,46,42,11,11,1.1,0.9
2025-10-25T2300,1775A,126.6133,43.8972,吉林市,江北,细颗粒物(PM2.5),84,81,75,62,53,50,,89,56,24,28,6,6,1.1,1
2025-10-25T2300,1776A,126.555,43.8306,吉林市,江南公园,细颗粒物(PM2.5),109,110,73,82,58,29,,94,53,60,38,11,9,0.9,0.6
2025-10-25T2300,1778A,126.7061,43.7133,吉林市,丰满,细颗粒物(PM2.5),67,52,39,48,40,105,,120,106,14,14,9,9,0.6,0.5
2025-10-25T2300,2868A,126.4739,43.953,吉林市,九站,细颗粒物(PM2.5),98,116,85,73,56,51,,93,71,48,44,8,11,1.0,0.8
2025-10-25T2300,1299A,116.9862,36.6114,济南市,科干所,颗粒物(PM10),56,61,75,37,45,88,,80,78,19,30,7,8,0.5,0.6
2025-10-25T2300,1300A,116.9376,36.665,济南市,农科所,颗粒物(PM10),72,93,88,49,45,62,,55,55,29,40,7,8,0.7,0.8
2025-10-25T2300,1301A,117.1265,36.6734,济南市,开发区,细颗粒物(PM2.5),77,63,67,56,47,80,,81,72,15,28,2,3,0.6,0.7
2025-10-25T2300,1303A,117.0624,36.6868,济南市,省种子仓库,细颗粒物(PM2.5),85,83,84,63,56,80,,78,72,23,41,6,7,0.8,1
2025-10-25T2300,1304A,116.9489,36.6447,济南市,机床二厂,细颗粒物(PM2.5),95,83,101,71,73,71,,61,61,20,42,7,8,0.2,0.4
2025-10-25T2300,1305A,117.0495,36.663,济南市,市监测站,细颗粒物(PM2.5),70,63,74,51,56,80,,74,71,16,35,2,3,0.8,0.9
2025-10-25T2300,1306A,116.7675,36.5484,济南市,长清党校,颗粒物(PM10),59,68,82,34,48,74,,65,63,23,42,7,9,0.7,0.8
2025-10-25T2300,1616A,117.6795,36.229,济南市,技术学院,细颗粒物(PM2.5),138,114,96,105,75,37,,56,43,34,47,12,13,1.0,1.2
2025-10-25T2300,1961A,117.532,36.6868,济南市,东山小学,细颗粒物(PM2.5),104,100,71,78,47,54,,72,67,29,36,6,7,0.5,0.5
2025-10-25T2300,3059A,117.7161,36.2049,济南市,泰兴公司,细颗粒物(PM2.5),140,124,99,107,78,52,,48,40,28,44,10,13,0.7,0.9
2025-10-25T2300,3064A,117.6867,36.2171,济南市,莱芜战役纪念馆,细颗粒物(PM2.5),142,122,99,108,78,45,,49,44,29,44,13,15,0.4,0.7
2025-10-25T2300,3494A,117.1673,36.9782,济南市,济阳区政府,细颗粒物(PM2.5),102,105,95,76,51,56,,66,55,28,46,6,8,0.6,0.6
2025-10-25T2300,3495A,117.1171,36.63,济南市,锦屏中学,细颗粒物(PM2.5),70,66,53,51,38,78,,80,74,16,19,3,4,0.7,0.7
2025-10-25T2300,3682A,116.9814,36.6819,济南市,济南四建,细颗粒物(PM2.5),80,70,69,59,54,73,,66,65,15,23,5,6,0.8,0.9
2025-10-25T2300,1653A,116.6251,35.4302,济宁市,火炬城,细颗粒物(PM2.5),100,,103,75,94,67,,80,76,11,31,5,6,0.4,0.4
2025-10-25T2300,1655A,116.5491,35.4042,济宁市,电化厂,细颗粒物(PM2.5),110,95,126,83,94,73,,79,74,19,39,3,4,0.4,0.4
2025-10-25T2300,3500A,116.5814,35.3707,济宁市,北湖一中,细颗粒物(PM2.5),117,,91,88,95,69,,79,74,12,33,5,6,0.5,0.5
2025-10-25T2300,3501A,116.8249,35.5593,济宁市,服务中心,细颗粒物(PM2.5),90,,80,67,69,49,,58,57,16,37,6,8,0.6,0.6
2025-10-25T2300,3678A,116.5907,35.4054,济宁市,市第七中学,细颗粒物(PM2.5),98,,97,73,97,70,,86,80,14,30,7,8,0.5,0.5
2025-10-25T2300,2255A,130.2751,46.8028,佳木斯市,佳纺,细颗粒物(PM2.5),500,,162,977,198,227,,165,165,142,58,23,11,4.4,1.6
2025-10-25T2300,2256A,130.3995,46.8307,佳木斯市,发电厂,,,,177,,169,,,57,,,42,,10,,1.1
2025-10-25T2300,2257A,130.3258,46.7975,佳木斯市,环保局,"颗粒物(PM10),细颗粒物(PM2.5)",500,,198,717,189,76,,96,84,138,46,19,11,3.6,1.2
2025-10-25T2300,2258A,130.3648,46.8032,佳木斯市,十一中,颗粒物(PM10),500,631,218,286,152,184,,125,125,126,55,24,13,3.2,1.3
2025-10-25T2300,2259A,130.3794,46.7588,佳木斯市,四丰,,,,,,,,,,,,,,,,
2025-10-25T2300,1252A,120.7436,30.778,嘉兴市,清河小学,,36,36,39,18,19,59,,96,78,28,26,10,9,0.7,0.6
2025-10-25T2300,1253A,120.726,30.7478,嘉兴市,嘉兴学院,,32,32,39,16,21,70,,103,85,23,25,6,6,0.6,0.6
2025-10-25T2300,2872A,120.7846,30.7525,嘉兴市,南湖区残联,,37,37,42,19,23,67,,112,90,29,24,9,10,0.6,0.6
2025-10-25T2300,3407A,120.6916,30.7739,嘉兴市,秀洲住建,,36,36,42,17,22,71,,114,92,28,26,9,8,0.6,0.6
2025-10-25T2300,1945A,98.2908,39.7711,嘉峪关市,气象局,颗粒物(PM10),74,97,97,34,38,35,,102,78,58,30,6,15,0.9,1
2025-10-25T2300,2884A,98.2672,39.7978,嘉峪关市,酒钢宾馆,颗粒物(PM10),82,114,111,41,42,51,,98,81,37,26,14,42,0.4,1
2025-10-25T2300,3248A,98.2643,39.7724,嘉峪关市,雄关区,颗粒物(PM10),72,94,84,38,40,37,,98,84,64,39,11,11,0.5,0.6
2025-10-25T2300,1383A,113.1064,22.6058,江门市,北街,颗粒物(PM10),56,62,49,33,31,54,,142,107,39,34,8,8,0.7,0.7
2025-10-25T2300,1384A,113.0731,22.5835,江门市,西区,"颗粒物(PM10),细颗粒物(PM2.5)",53,56,50,37,31,51,,134,103,38,32,8,7,0.5,0.4
2025-10-25T2300,1385A,113.0219,22.5311,江门市,圭峰西,,42,39,44,29,30,71,,142,,26,26,8,8,0.7,0.6
2025-10-25T2300,1386A,113.0828,22.5947,江门市,东湖,细颗粒物(PM2.5),52,52,51,36,29,50,,129,99,34,29,8,8,0.4,0.3
2025-10-25T2300,3311A,113.1075,22.5647,江门市,江海富民,,49,49,53,24,18,56,,143,112,37,33,11,10,0.5,0.4
2025-10-25T2300,3449A,113.05,22.4667,江门市,新会银湖,颗粒物(PM10),51,52,48,30,30,60,,131,110,27,29,8,7,0.6,0.6
2025-10-25T2300,1830A,113.1992,35.2590,焦作市,影视城,,,,46,,35,,,50,,,20,,12,,0.7
2025-10-25T2300,3335A,113.3137,35.2641,焦作市,马村街道办,细颗粒物(PM2.5),70,72,77,51,63,22,,70,48,30,21,6,6,0.6,0.7
2025-10-25T2300,3336A,113.2465,35.2373,焦作市,焦作技师学院,细颗粒物(PM2.5),92,73,73,68,71,9,,66,40,42,26,8,6,0.9,0.9
2025-10-25T2300,3477A,113.1656,35.2539,焦作市,中站许衡医院,细颗粒物(PM2.5),69,61,67,50,55,22,,60,40,24,27,5,8,0.5,0.7
2025-10-25T2300,3981A,113.2449,35.1803,焦作市,原李万街道办,"颗粒物(PM10),细颗粒物(PM2.5)",64,77,67,46,48,14,,70,41,34,21,8,8,0.7,0.8
2025-10-25T2300,4264A,113.2340,35.2190,焦作市,新安路1731号,细颗粒物(PM2.5),90,83,78,67,67,9,,63,39,40,23,10,7,0.7,0.8
2025-10-25T2300,4295A,113.2722,35.2121,焦作市,人民路3066号,细颗粒物(PM2.5),65,54,66,47,51,22,,76,52,37,25,7,7,0.5,0.6
2025-10-25T2300,1708A,116.3701,23.5345,揭阳市,新兴,,39,39,31,25,18,87,,86,86,25,15,9,7,0.6,0.5
2025-10-25T2300,1709A,116.3264,23.5443,揭阳市,西马,,49,49,38,20,19,94,,83,83,17,16,5,4,0.8,0.7
2025-10-25T2300,1710A,116.3611,23.5626,揭阳市,东兴,,50,50,37,23,19,80,,76,76,20,18,7,6,0.7,0.5
2025-10-25T2300,1711A,116.4151,23.5294,揭阳市,渔湖,,46,46,31,18,15,87,,89,89,17,10,5,9,0.6,0.5
2025-10-25T2300,3320A,116.403,23.5699,揭阳市,曲溪,颗粒物(PM10),52,54,31,30,17,82,,88,85,24,11,4,2,0.7,0.5
2025-10-25T2300,1944A,102.1692,38.5167,金昌市,天庆家园,颗粒物(PM10),82,114,68,46,31,37,,98,75,40,21,4,4,1.0,0.7
2025-10-25T2300,4022A,102.1647,38.5371,金昌市,金川区人防中心,颗粒物(PM10),76,102,68,52,33,36,,93,70,27,17,5,5,0.8,0.8
2025-10-25T2300,4239A,102.1930,38.5319,金昌市,长春路96号,颗粒物(PM10),61,72,53,25,25,65,,90,80,22,15,32,8,0.5,0.5
2025-10-25T2300,1262A,119.647,29.077,金华市,十五中,细颗粒物(PM2.5),67,78,55,48,32,60,,107,88,35,27,1,2,0.5,0.5
2025-10-25T2300,1263A,119.686,29.1029,金华市,监测站,颗粒物(PM10),63,75,54,41,30,46,,111,78,59,41,2,3,0.5,0.5
2025-10-25T2300,3659A,119.656,29.1131,金华市,气象局,细颗粒物(PM2.5),70,84,61,51,39,13,,94,65,84,43,4,4,0.4,0.4
2025-10-25T2300,1767A,121.1115,41.0879,锦州市,南山,细颗粒物(PM2.5),155,,80,118,81,4,,74,37,57,42,7,10,1.8,1.1
2025-10-25T2300,1768A,121.0604,40.8428,锦州市,开发区,细颗粒物(PM2.5),148,156,125,113,89,2,,57,32,73,60,16,36,1.4,1.3
2025-10-25T2300,1769A,121.1836,41.1119,锦州市,百股街道,细颗粒物(PM2.5),128,,82,97,70,10,,78,42,54,41,11,16,1.4,1.1
2025-10-25T2300,1770A,121.1178,41.1222,锦州市,天安街道,细颗粒物(PM2.5),180,159,94,136,82,2,,72,32,71,49,11,14,2.7,1.6
2025-10-25T2300,1771A,121.1303,41.1386,锦州市,北湖公园,细颗粒物(PM2.5),142,116,84,108,76,7,,66,32,56,42,9,12,1.5,1
2025-10-25T2300,2160A,112.85,35.5051,晋城市,自来水公司,,43,43,41,22,21,16,,55,36,36,23,5,5,0.6,0.4
2025-10-25T2300,2161A,112.8318,35.4936,晋城市,白云商贸,,,92,49,12,10,18,,58,33,31,22,2,2,,0.3
2025-10-25T2300,2162A,112.8508,35.4887,晋城市,市环保局,,45,45,40,19,18,19,,59,38,25,14,3,4,0.9,0.7
2025-10-25T2300,2163A,112.8676,35.4897,晋城市,技术学院,,50,50,37,22,19,10,,51,29,43,25,4,4,1.0,0.8
2025-10-25T2300,2165A,112.8453,35.546,晋城市,白马寺,,45,36,27,31,19,40,,70,55,25,13,6,6,0.7,0.6
2025-10-25T2300,3620A,112.8271,35.4828,晋城市,泽州一中,颗粒物(PM10),57,63,38,27,19,43,,63,41,16,20,2,2,0.6,0.4
2025-10-25T2300,2173A,112.7249,37.7067,晋中市,南都小区,细颗粒物(PM2.5),95,116,108,71,67,12,,75,52,65,36,10,14,1.4,1.2
2025-10-25T2300,2174A,112.6991,37.6982,晋中市,榆次区政府,细颗粒物(PM2.5),115,117,110,87,84,11,,73,48,62,39,8,12,1.5,1.4
2025-10-25T2300,2865A,112.7195,37.6828,晋中市,榆次三中,细颗粒物(PM2.5),94,134,114,70,68,8,,77,52,63,36,12,16,1.5,1.1
2025-10-25T2300,4200A,112.7478,37.6954,晋中市,迎宾街26号,细颗粒物(PM2.5),100,129,109,75,70,4,,78,53,59,36,8,13,0.8,0.8
2025-10-25T2300,2439A,112.2014,31.0481,荆门市,竹园小学,细颗粒物(PM2.5),103,88,96,77,79,54,,89,60,19,18,2,1,0.7,0.6
2025-10-25T2300,2440A,112.1969,30.9891,荆门市,掇刀,细颗粒物(PM2.5),107,87,98,80,82,75,,99,75,14,12,1,1,0.5,0.5
2025-10-25T2300,2441A,112.2213,31.0386,荆门市,石化一小,细颗粒物(PM2.5),97,113,102,72,73,56,,83,59,16,15,3,4,0.6,0.6
2025-10-25T2300,3012A,112.1849,31.0362,荆门市,西山林语,细颗粒物(PM2.5),95,84,97,71,78,70,,96,69,16,15,4,4,0.6,0.6
2025-10-25T2300,3547A,112.1632,31.0138,荆门市,龙泉中学南校,,,,108,49,74,57,,100,76,14,16,5,6,0.5,0.5
2025-10-25T2300,1844A,112.2494,30.3197,荆州市,市图书馆,细颗粒物(PM2.5),65,52,67,47,64,41,,76,56,27,23,6,7,0.6,0.6
2025-10-25T2300,1845A,112.2008,30.3544,荆州市,市委党校,细颗粒物(PM2.5),69,77,80,50,59,31,,70,52,29,23,7,8,0.7,0.7
2025-10-25T2300,3194A,112.2747,30.3122,荆州市,管委会,细颗粒物(PM2.5),70,70,72,51,53,35,,74,54,26,17,8,9,0.6,0.6
2025-10-25T2300,4268A,112.1722,30.3366,荆州市,学苑路85号,细颗粒物(PM2.5),93,78,86,69,74,43,,81,63,12,13,5,6,0.6,0.6
2025-10-25T2300,2342A,117.3102,29.3867,景德镇市,王港中学,,,,,,,,,,,,,,,,
2025-10-25T2300,2343A,117.2117,29.2933,景德镇市,老干部活动中心,,,,32,,22,48,,102,90,31,11,10,4,0.7,0.8
2025-10-25T2300,2344A,117.1894,29.2789,景德镇市,兽医站,颗粒物(PM10),75,99,43,38,16,62,,110,100,30,13,12,7,0.7,0.7
2025-10-25T2300,2346A,117.2461,29.2956,景德镇市,陶研所,细颗粒物(PM2.5),59,45,30,42,26,83,,105,88,14,6,7,6,1.0,0.7
2025-10-25T2300,4289A,117.1542,29.2566,景德镇市,青少年活动中心,细颗粒物(PM2.5),65,69,38,47,24,74,,107,97,23,11,9,5,0.6,0.4
2025-10-25T2300,1803A,115.9872,29.6815,九江市,十里,细颗粒物(PM2.5),104,100,62,78,40,58,,128,97,23,21,6,8,0.8,0.8
2025-10-25T2300,1804A,115.9584,29.7046,九江市,茅山头,细颗粒物(PM2.5),80,67,62,59,44,46,,104,76,19,18,6,6,0.7,0.7
2025-10-25T2300,1805A,115.9877,29.7295,九江市,西园,细颗粒物(PM2.5),114,108,57,86,38,54,,122,88,32,30,11,7,0.6,0.6
2025-10-25T2300,1808A,115.9114,29.6038,九江市,综合工业园,细颗粒物(PM2.5),57,58,59,40,42,60,,110,83,28,31,3,5,0.5,0.6
2025-10-25T2300,1809A,116.0721,29.7535,九江市,石化总厂,细颗粒物(PM2.5),122,158,75,92,49,50,,113,79,31,29,5,4,0.7,0.6
2025-10-25T2300,1810A,115.9773,29.5698,九江市,庐山气象台,,,,,,,,,,,,,,,,
2025-10-25T2300,3190A,116.0254,29.6994,九江市,外国语学校,细颗粒物(PM2.5),125,108,59,95,42,47,,114,82,30,26,4,5,0.7,0.7
2025-10-25T2300,4253A,116.0102,29.6594,九江市,莲花大道8号,颗粒物(PM10),81,111,61,50,68,46,,103,79,23,17,7,8,0.5,0.5
2025-10-25T2300,4240A,98.4958,39.7339,酒泉市,玉门东路5号,颗粒物(PM10),114,178,97,77,36,7,,97,75,73,27,11,13,1.1,0.7
2025-10-25T2300,4241A,98.5099,39.7506,酒泉市,北大街108号,颗粒物(PM10),63,75,86,36,34,61,,93,81,22,23,8,10,0.6,0.6
2025-10-25T2300,2698A,76.0072,39.4467,喀什地区,巡警大队,颗粒物(PM10),263,394,250,149,96,4,,81,62,89,48,15,7,3.0,1
2025-10-25T2300,2699A,75.9755,39.4694,喀什地区,吾办,细颗粒物(PM2.5),199,315,219,149,85,4,,74,57,80,46,10,10,2.2,1.1
2025-10-25T2300,4027A,75.9483,39.4689,喀什地区,老干局,颗粒物(PM10),220,364,226,113,67,4,,82,65,88,44,4,3,2.0,1.1
2025-10-25T2300,1824A,114.3389,34.7781,开封市,肿瘤医院,细颗粒物(PM2.5),87,,46,64,50,46,,72,61,22,22,7,8,0.8,0.8
2025-10-25T2300,1826A,114.2885,34.7965,开封市,世纪星幼儿园,细颗粒物(PM2.5),84,,48,62,51,45,,73,59,24,23,6,7,0.6,0.6
2025-10-25T2300,3147A,114.3438,34.8106,开封市,龙亭公园,细颗粒物(PM2.5),88,,45,65,51,47,,74,61,23,19,9,8,0.7,0.8
2025-10-25T2300,3210A,114.3644,34.7964,开封市,汴京公园,细颗粒物(PM2.5),83,,53,61,52,52,,75,65,24,23,8,8,0.6,0.6
2025-10-25T2300,3473A,114.2485,34.8306,开封市,技师学院,细颗粒物(PM2.5),105,,44,79,59,47,,76,64,21,21,8,9,0.9,0.8
2025-10-25T2300,3592A,114.4644,34.7556,开封市,祥符区生态环境局,细颗粒物(PM2.5),57,50,59,40,47,50,,72,64,22,22,5,5,0.7,0.7
2025-10-25T2300,1951A,84.895,45.6094,克拉玛依市,长征新村,颗粒物(PM10),67,84,57,20,18,33,,75,55,46,25,3,3,0.4,0.4
2025-10-25T2300,1952A,84.8988,45.5893,克拉玛依市,南林小区,颗粒物(PM10),70,90,60,30,18,8,,70,46,57,24,5,5,0.9,0.6
2025-10-25T2300,1954A,84.905,44.3396,克拉玛依市,独山子区,颗粒物(PM10),89,127,159,41,64,50,,97,66,48,46,6,11,0.5,0.6
2025-10-25T2300,1955A,85.6979,46.098,克拉玛依市,乌尔禾区商贸楼,颗粒物(PM10),60,70,45,13,9,11,,82,58,62,25,6,5,0.4,0.2
2025-10-25T2300,3612A,85.1045,45.6899,克拉玛依市,白碱滩区新站,颗粒物(PM10),80,109,70,21,17,72,,83,78,7,13,5,6,0.3,0.4
2025-10-25T2300,2697A,76.1454,39.7142,克孜勒苏柯尔克孜自治州,市人民政府,颗粒物(PM10),117,184,169,66,66,46,,93,72,31,16,8,8,0.4,0.2
2025-10-25T2300,3665A,76.1658,39.7157,克孜勒苏柯尔克孜自治州,克州文化中心,颗粒物(PM10),124,198,177,62,64,9,,92,67,76,18,9,9,0.6,0.4
2025-10-25T2300,1450A,102.8204,24.8886,昆明市,呈贡新区,细颗粒物(PM2.5),70,,30,51,34,1,,71,44,49,23,4,4,0.9,0.7
2025-10-25T2300,1451A,102.6251,24.9608,昆明市,西山森林公园,,,,,,,,,,,,,,,,
2025-10-25T2300,1452A,102.7252,25.0902,昆明市,龙泉镇,,50,50,32,31,19,6,,59,32,37,19,2,3,0.9,0.7
2025-10-25T2300,1453A,102.7266,25.0375,昆明市,东风东路,,29,29,33,17,23,40,,64,47,15,16,1,2,0.4,0.5
2025-10-25T2300,1454A,102.6742,25.0669,昆明市,金鼎山,,41,41,37,19,19,35,,63,46,15,16,2,2,0.4,0.4
2025-10-25T2300,1455A,102.6644,25.0401,昆明市,碧鸡广场,,40,40,35,20,21,28,,57,40,20,22,8,9,0.5,0.5
2025-10-25T2300,3179A,102.7494,25.0119,昆明市,官渡区博物馆,,37,37,28,17,17,29,,64,42,26,18,2,3,0.5,0.4
2025-10-25T2300,3375A,102.8017,24.8336,昆明市,青年创业园,,26,24,26,18,20,37,,73,58,11,9,1,2,0.6,0.6
2025-10-25T2300,3550A,102.7997,24.9786,昆明市,昆明学院,,48,48,34,32,22,21,,65,50,28,19,8,8,0.8,0.6
2025-10-25T2300,3551A,102.5967,24.6736,昆明市,晋宁区生态环境分局,,49,49,35,27,22,25,,68,50,18,14,3,2,0.4,0.4
2025-10-25T2300,3552A,102.6678,24.9856,昆明市,云天化总部,,29,29,27,19,19,38,,68,56,12,12,5,5,0.5,0.5
2025-10-25T2300,1456A,91.1319,29.6514,拉萨市,八廓街,,33,33,14,20,8,12,,102,77,62,12,6,5,0.6,0.2
2025-10-25T2300,1457A,91.1221,29.6747,拉萨市,市环保局,,34,34,16,23,8,17,,100,70,35,13,8,7,0.8,0.3
2025-10-25T2300,1458A,91.0874,29.6475,拉萨市,区监测站,,37,28,11,15,7,23,,96,70,73,22,5,4,0.6,0.4
2025-10-25T2300,1459A,91.1774,29.6541,拉萨市,西藏大学,,37,37,14,14,7,43,,100,80,47,15,6,6,0.6,0.4
2025-10-25T2300,1460A,90.9798,29.6588,拉萨市,区辐射站,颗粒物(PM10),80,110,30,43,12,9,,83,55,81,32,7,6,0.9,0.4
2025-10-25T2300,1461A,91.0834,29.6292,拉萨市,拉萨火车站,,29,29,17,13,7,46,,98,90,44,12,5,5,0.4,0.3
2025-10-25T2300,2520A,109.2203,23.7256,来宾市,来宾技工学校,,50,38,45,35,33,74,,116,100,7,10,9,12,0.6,0.7
2025-10-25T2300,3535A,109.1781,23.7297,来宾市,兴宾区政府,,48,48,45,33,29,79,,119,104,6,10,9,11,0.5,0.6
2025-10-25T2300,4002A,109.2416,23.7461,来宾市,中南小学,,42,39,45,29,31,68,,110,94,9,12,8,10,0.6,0.8
2025-10-25T2300,1477A,104.1373,35.9454,兰州市,榆中兰大校区,,,,,,,,,,,,,,,,
2025-10-25T2300,1479A,103.831,36.0464,兰州市,铁路设计院,,,,,,,,,,,,,,,,
2025-10-25T2300,3241A,103.7439,36.0842,兰州市,百合公园,,38,33,41,26,31,61,,77,52,16,19,3,4,0.3,0.7
2025-10-25T2300,3242A,103.9611,35.998,兰州市,和平,,39,39,39,23,24,49,,79,56,22,16,4,3,0.5,0.5
2025-10-25T2300,4236A,103.6293,36.0938,兰州市,庄浪东路808号,,50,40,50,35,36,69,,89,52,28,38,7,7,0.4,0.5
2025-10-25T2300,4237A,103.7251,36.1043,兰州市,安宁西路88号,细颗粒物(PM2.5),63,54,53,45,44,73,,90,68,16,20,1,2,0.4,0.4
2025-10-25T2300,4238A,103.8470,36.0676,兰州市,北滨河东路1号,细颗粒物(PM2.5),58,,47,41,34,61,,72,46,28,36,6,7,0.6,0.7
2025-10-25T2300,3245A,103.6633,36.533,兰州新区,新区管委会,,36,27,47,25,35,88,,99,94,8,11,3,7,0.3,0.4
2025-10-25T2300,3246A,103.6975,36.4789,兰州新区,舟曲中学,,27,17,45,11,29,84,,96,86,14,13,6,5,0.3,0.4
2025-10-25T2300,1067A,116.6708,39.5111,廊坊市,药材公司,细颗粒物(PM2.5),204,177,148,154,123,25,,79,61,56,46,3,4,1.0,0.9
2025-10-25T2300,1068A,116.7214,39.5589,廊坊市,开发区,细颗粒物(PM2.5),189,176,139,142,113,19,,84,65,56,39,2,3,0.7,0.7
2025-10-25T2300,1070A,116.7244,39.5269,廊坊市,北华航天学院,细颗粒物(PM2.5),188,200,160,141,115,23,,86,70,54,41,4,5,0.8,0.8
2025-10-25T2300,2919A,116.7022,39.5453,廊坊市,河北工业大学,细颗粒物(PM2.5),188,185,150,141,118,22,,85,67,51,34,4,5,0.8,0.7
2025-10-25T2300,2535A,103.7723,29.5462,乐山市,花湖湾,,,,,,,,,,,,,,,,
2025-10-25T2300,2536A,103.7627,29.5844,乐山市,牛耳桥,,29,23,19,20,16,3,,35,22,40,22,7,6,0.7,0.5
2025-10-25T2300,2537A,103.7508,29.6006,乐山市,市第三水厂,,26,26,19,18,13,5,,35,25,38,20,6,5,0.7,0.5
2025-10-25T2300,2538A,103.7571,29.5664,乐山市,市监测站,,22,22,19,15,13,5,,35,24,33,16,5,4,0.7,0.6
2025-10-25T2300,3361A,103.7311,29.5628,乐山市,理工大学,,22,19,17,15,13,0,,34,20,32,19,7,7,0.6,0.6
2025-10-25T2300,2598A,100.2143,26.8576,丽江市,西南郊,,15,8,13,3,8,47,,66,61,4,6,6,7,0.7,0.7
2025-10-25T2300,2599A,100.2497,26.8802,丽江市,丽江古城,,16,16,18,3,10,38,,63,52,14,12,9,9,0.6,0.6
2025-10-25T2300,2600A,100.2203,26.8906,丽江市,市中心,,15,13,11,10,11,39,,68,56,14,11,10,11,0.5,0.5
2025-10-25T2300,1267A,119.914,28.4514,丽水市,监测站大楼,,49,49,39,25,23,60,,90,80,25,25,9,7,0.5,0.4
2025-10-25T2300,1268A,119.93,28.4586,丽水市,莲都小学,颗粒物(PM10),58,66,45,30,21,63,,91,83,30,27,4,5,0.5,0.4
2025-10-25T2300,1269A,119.879,28.4231,丽水市,余庄前,,39,39,36,27,24,24,,75,48,17,18,3,4,0.4,0.3
2025-10-25T2300,1173A,119.176,34.5885,连云港市,市环境监测站,细颗粒物(PM2.5),64,46,76,46,49,70,,58,50,19,54,7,15,0.6,1.2
2025-10-25T2300,3000A,119.3581,34.6972,连云港市,德源药业,细颗粒物(PM2.5),89,66,70,66,39,34,,44,34,41,69,5,10,0.5,1
2025-10-25T2300,3007A,119.178,34.844,连云港市,新城一中,细颗粒物(PM2.5),104,94,74,78,57,42,,60,55,41,50,6,13,0.8,0.9
2025-10-25T2300,3008A,119.3608,34.7519,连云港市,胡沟管理处,细颗粒物(PM2.5),85,,46,63,35,22,,75,54,55,45,9,26,0.7,1.9
2025-10-25T2300,3009A,119.1478,34.5911,连云港市,矿山设计院,细颗粒物(PM2.5),58,51,82,41,51,67,,53,41,13,40,3,7,0.7,1
2025-10-25T2300,3434A,119.2413,34.6539,连云港市,工贸学校,细颗粒物(PM2.5),73,73,62,53,34,67,,71,57,26,30,8,16,0.8,1.5
2025-10-25T2300,3664A,119.4172,34.7341,连云港市,连云街道,细颗粒物(PM2.5),69,75,60,50,32,79,,55,52,19,37,2,8,0.5,1
2025-10-25T2300,2571A,102.3431,27.8099,凉山彝族自治州,青龙寺,,,,,,,,,,,,,,,,
2025-10-25T2300,2572A,102.2721,27.8415,凉山彝族自治州,邛海宾馆,,20,20,22,12,12,41,,61,53,12,11,9,13,0.6,0.7
2025-10-25T2300,2573A,102.2625,27.898,凉山彝族自治州,西昌市政府,,21,21,24,14,17,48,,53,48,6,16,5,9,0.5,0.7
2025-10-25T2300,2574A,102.2685,27.8851,凉山彝族自治州,凉山州政府,,22,21,22,15,15,50,,60,53,4,12,7,10,0.7,0.7
2025-10-25T2300,4229A,102.2342,27.8859,凉山彝族自治州,凯乐南路30号,,24,24,23,15,12,55,,68,60,5,16,6,8,0.5,0.6
2025-10-25T2300,2212A,123.2,41.1953,辽阳市,宏伟区,细颗粒物(PM2.5),132,111,90,100,65,41,,83,61,27,28,8,9,1.4,1.1
2025-10-25T2300,2213A,123.1683,41.2495,辽阳市,新华园,细颗粒物(PM2.5),143,121,104,109,73,32,,75,48,43,43,8,8,1.4,1.1
2025-10-25T2300,2214A,123.2354,41.2639,辽阳市,滨河路,细颗粒物(PM2.5),129,134,113,98,72,12,,80,48,49,34,8,9,1.5,1.1
2025-10-25T2300,2215A,123.149,41.2991,辽阳市,铁西工业园,细颗粒物(PM2.5),135,147,111,103,80,11,,76,44,44,44,6,11,1.8,1.6
2025-10-25T2300,2227A,125.1358,42.8845,辽源市,环保局,细颗粒物(PM2.5),233,242,160,183,93,10,,96,40,66,45,6,6,1.9,1.1
2025-10-25T2300,3239A,125.0764,42.9078,辽源市,银鹰制药,细颗粒物(PM2.5),198,182,125,148,102,13,,101,50,66,41,9,7,1.8,1
2025-10-25T2300,1625A,115.9848,36.4372,聊城市,区政府,细颗粒物(PM2.5),70,72,89,51,58,56,,68,63,20,36,8,9,0.6,0.6
2025-10-25T2300,2878A,116.0072,36.4343,聊城市,聊大东校,细颗粒物(PM2.5),78,73,92,57,64,58,,67,63,21,37,6,8,0.6,0.6
2025-10-25T2300,3200A,115.9819,36.4978,聊城市,监控中心,细颗粒物(PM2.5),73,63,82,53,61,59,,68,65,20,35,8,9,0.7,0.8
2025-10-25T2300,3513A,116.0445,36.4361,聊城市,九州社区,细颗粒物(PM2.5),70,72,89,51,54,55,,69,63,18,34,1,3,0.5,0.5
2025-10-25T2300,4018A,116.0567,36.4608,聊城市,星美广场,细颗粒物(PM2.5),65,76,90,47,50,61,,70,66,15,27,4,6,0.6,0.6
2025-10-25T2300,2632A,94.3681,29.6376,林芝市,林芝监测站,,24,10,8,3,4,75,,70,70,1,3,3,3,0.3,0.3
2025-10-25T2300,2633A,94.3616,29.6616,林芝市,林芝人民医院,,23,14,9,3,5,73,,69,69,2,3,5,4,0.2,0.2
2025-10-25T2300,2603A,100.0781,23.8982,临沧市,市环保局,细颗粒物(PM2.5),63,,18,45,22,20,,58,36,7,6,4,5,0.7,0.6
2025-10-25T2300,2604A,100.0894,23.8822,临沧市,市气象局,,33,29,18,23,16,17,,53,32,11,8,6,6,0.6,0.5
2025-10-25T2300,1733A,111.5531,36.0783,临汾市,临钢医院,细颗粒物(PM2.5),75,98,54,55,44,39,,70,46,20,18,8,7,1.2,1
2025-10-25T2300,1734A,111.5028,36.0714,临汾市,技工学校,细颗粒物(PM2.5),84,88,61,62,50,30,,70,42,28,21,9,7,1.1,0.9
2025-10-25T2300,1736A,111.5018,36.0855,临汾市,市委,细颗粒物(PM2.5),84,94,68,62,50,34,,74,46,26,19,9,6,1.0,0.8
2025-10-25T2300,3018A,111.505,36.1014,临汾市,唐尧大酒店,细颗粒物(PM2.5),80,87,69,59,48,35,,71,46,21,17,6,5,1.1,1
2025-10-25T2300,4244A,111.4879,36.0530,临汾市,启星学校,细颗粒物(PM2.5),80,89,54,59,45,33,,75,47,29,24,7,6,1.0,0.9
2025-10-25T2300,4271A,103.2464,35.6123,临夏回族自治州,滨河东路1号,细颗粒物(PM2.5),95,107,62,71,38,3,,52,31,37,20,7,6,1.3,0.7
2025-10-25T2300,4310A,103.2093,35.5995,临夏回族自治州,新华街21号,细颗粒物(PM2.5),63,71,54,45,36,41,,72,59,18,16,7,7,0.7,0.6
2025-10-25T2300,1618A,118.3429,35.0532,临沂市,沂河小区,细颗粒物(PM2.5),100,,96,75,74,66,,56,56,28,54,12,10,0.7,0.7
2025-10-25T2300,1619A,118.295,35.0583,临沂市,鲁南制药厂,细颗粒物(PM2.5),84,66,101,62,70,66,,50,50,29,64,24,12,0.9,0.9
2025-10-25T2300,1620A,118.2794,34.9976,临沂市,新光毛纺厂,细颗粒物(PM2.5),99,,109,74,70,47,,52,50,42,69,8,11,0.6,0.8
2025-10-25T2300,1621A,118.3956,35.0888,临沂市,河东保险公司,细颗粒物(PM2.5),68,56,92,49,58,68,,68,67,25,49,8,8,0.9,0.8
2025-10-25T2300,3370A,118.3564,35.0215,临沂市,十里堡居委,细颗粒物(PM2.5),62,58,92,44,55,60,,58,55,38,58,9,11,0.7,0.8
2025-10-25T2300,3496A,118.3604,35.1084,临沂市,南坊新区,细颗粒物(PM2.5),70,53,85,51,56,69,,62,61,29,54,14,11,0.8,0.8
2025-10-25T2300,3860A,118.3920,35.0300,临沂市,皇山花园小区,细颗粒物(PM2.5),59,51,100,42,59,71,,65,63,24,51,10,11,0.7,0.8
2025-10-25T2300,1870A,109.4856,24.3895,柳州市,柳东小学,,43,42,39,30,28,82,,106,90,7,9,5,7,0.5,0.5
2025-10-25T2300,1871A,109.4157,24.3277,柳州市,环保监测站,,48,48,44,24,23,74,,97,82,10,10,8,9,0.5,0.5
2025-10-25T2300,1872A,109.389,24.341,柳州市,河西水厂,,48,46,50,33,30,67,,101,80,18,14,10,9,1.1,0.4
2025-10-25T2300,1873A,109.4311,24.2921,柳州市,市四中,,40,37,41,28,25,74,,96,80,10,12,8,10,0.5,0.5
2025-10-25T2300,1874A,109.4006,24.3631,柳州市,市九中,,46,44,49,32,31,76,,100,82,14,15,3,6,0.4,0.5
2025-10-25T2300,1875A,109.4958,24.3134,柳州市,古亭山,,39,39,43,27,27,75,,104,86,5,7,6,8,0.5,0.5
2025-10-25T2300,3402A,109.5422,24.3996,柳州市,市二中,,42,37,40,29,27,69,,109,84,12,12,7,9,0.4,0.4
2025-10-25T2300,2307A,116.5079,31.737,六安市,监测大楼,细颗粒物(PM2.5),63,,46,45,33,35,,66,53,23,23,3,4,0.4,0.4
2025-10-25T2300,2308A,116.4738,31.7643,六安市,皖西学院,细颗粒物(PM2.5),72,56,55,52,35,40,,68,55,20,20,2,3,0.4,0.4
2025-10-25T2300,2309A,116.4996,31.7905,六安市,朝阳厂,细颗粒物(PM2.5),70,,48,51,33,34,,62,47,27,27,4,5,0.4,0.4
2025-10-25T2300,2310A,116.5567,31.7886,六安市,开发区,细颗粒物(PM2.5),64,62,62,46,33,27,,61,42,25,24,1,2,0.5,0.4
2025-10-25T2300,2576A,104.8,26.5892,六盘水市,窑上,,17,17,27,8,15,35,,42,41,5,6,1,2,0.5,0.5
2025-10-25T2300,2577A,104.83,26.5917,六盘水市,黄土坡,,14,14,17,9,13,35,,42,38,8,10,2,4,0.6,0.7
2025-10-25T2300,2578A,104.89,26.5939,六盘水市,水钢,,16,12,22,11,12,41,,46,43,5,7,5,5,0.6,0.6
2025-10-25T2300,2579A,104.8475,26.5894,六盘水市,民中,,11,10,19,7,11,34,,42,32,8,10,2,2,0.6,0.5
2025-10-25T2300,2580A,104.9544,26.5506,六盘水市,双水,,12,12,17,3,12,36,,49,39,7,7,2,2,0.4,0.4
2025-10-25T2300,2335A,117.0189,25.1181,龙岩市,龙岩师专,,,,,,,,,,,,,,,,
2025-10-25T2300,2336A,117.0217,25.1033,龙岩市,龙岩市监测站,,28,23,29,19,18,84,,99,87,10,12,14,12,0.4,0.5
2025-10-25T2300,2337A,117.0258,25.0661,龙岩市,闽西职业技术学院,,28,20,25,17,15,88,,101,88,6,9,10,11,0.5,0.6
2025-10-25T2300,2338A,117.0196,25.0306,龙岩市,龙岩学院,,30,25,25,21,17,76,,99,71,10,12,14,14,0.5,0.5
2025-10-25T2300,2665A,105.0822,33.3261,陇南市,汉王镇固水子,,,,,,,,,,,,,,,,
2025-10-25T2300,2885A,104.9339,33.3826,陇南市,滨江中学,,44,44,33,23,15,45,,54,46,6,8,6,6,0.6,0.6
2025-10-25T2300,3247A,104.955,33.371,陇南市,市总工会,,36,36,31,15,13,50,,54,51,5,10,6,7,0.4,0.5
2025-10-25T2300,2487A,111.9589,27.8901,娄底市,电视发射台,,,,,,,,,,,,,,,,
2025-10-25T2300,2488A,111.9975,27.725,娄底市,市监测站,颗粒物(PM10),61,71,60,41,34,81,,111,99,15,14,6,10,0.5,0.4
2025-10-25T2300,2489A,112.0194,27.7314,娄底市,市委党校,细颗粒物(PM2.5),67,70,57,48,37,77,,108,94,16,13,3,2,0.6,0.5
2025-10-25T2300,2490A,111.9561,27.7569,娄底市,涟钢,细颗粒物(PM2.5),67,64,64,48,41,61,,97,75,28,20,9,9,1.2,1.1
2025-10-25T2300,2491A,111.9892,27.7044,娄底市,市政府,细颗粒物(PM2.5),97,80,56,72,43,82,,114,100,14,12,6,9,0.7,0.6
2025-10-25T2300,1893A,105.4324,28.9634,泸州市,九狮山,,,,,,,,,,,,,,,,
2025-10-25T2300,1894A,105.4427,28.9063,泸州市,小市上码头,,38,34,34,26,27,22,,43,37,16,17,12,8,0.8,0.8
2025-10-25T2300,1895A,105.4241,28.8573,泸州市,兰田宪桥,,32,31,33,22,26,17,,35,28,15,14,5,5,0.5,0.5
2025-10-25T2300,1896A,105.4379,28.8833,泸州市,市环监站,,36,35,33,25,25,22,,33,30,23,23,8,8,0.5,0.5
2025-10-25T2300,4272A,105.3689,28.7783,泸州市,纳溪中医医院,,42,35,34,29,27,8,,42,25,26,18,6,6,0.7,0.6
2025-10-25T2300,2183A,111.1406,37.5211,吕梁市,环保局,颗粒物(PM10),63,75,79,22,34,8,,65,52,56,41,2,2,0.4,0.6
2025-10-25T2300,2185A,111.1297,37.5136,吕梁市,自来水公司,颗粒物(PM10),57,64,70,28,32,14,,62,52,40,36,4,3,0.5,0.7
2025-10-25T2300,2867A,111.1283,37.51,吕梁市,马茂庄小学,颗粒物(PM10),64,78,90,30,34,9,,70,60,50,42,5,4,0.7,0.7
2025-10-25T2300,1812A,112.3931,34.6516,洛阳市,市委党校,细颗粒物(PM2.5),57,46,38,40,36,35,,61,47,30,22,6,6,0.6,0.5
2025-10-25T2300,1815A,112.494,34.6886,洛阳市,河南林校,,,53,42,,39,27,,59,41,,20,7,6,0.6,0.5
2025-10-25T2300,1816A,112.3844,34.623,洛阳市,开发区管委会,细颗粒物(PM2.5),52,43,42,36,37,21,,62,36,26,19,5,5,0.6,0.6
2025-10-25T2300,1817A,112.4267,34.6258,洛阳市,市委新办公区,,50,47,48,35,34,34,,65,46,20,18,6,6,0.7,0.6
2025-10-25T2300,3340A,112.6005,34.6326,洛阳市,伊滨,细颗粒物(PM2.5),78,58,50,57,69,28,,60,48,35,28,4,4,0.5,0.4
2025-10-25T2300,3341A,112.4951,34.6332,洛阳市,中移产业园,细颗粒物(PM2.5),57,,46,40,42,27,,63,43,32,24,23,6,0.8,0.5
2025-10-25T2300,3593A,112.5736,34.8993,洛阳市,吉利监测站,,43,38,37,30,39,12,,60,35,31,21,5,7,0.6,0.5
2025-10-25T2300,3635A,112.3677,34.662,洛阳市,河科大西苑校区,细颗粒物(PM2.5),59,50,37,42,34,40,,65,52,27,21,7,6,0.8,0.7
2025-10-25T2300,3636A,112.4388,34.6781,洛阳市,英才小学,颗粒物(PM10),61,72,56,38,30,35,,58,41,24,22,6,5,0.7,0.6
2025-10-25T2300,4214A,112.4600,34.6949,洛阳市,春都路1号院,,49,49,33,33,29,26,,53,38,29,22,8,6,0.8,0.6
2025-10-25T2300,2399A,114.051,33.5699,漯河市,三五一五工厂,细颗粒物(PM2.5),77,56,107,56,79,31,,67,56,28,20,6,7,0.7,0.7
2025-10-25T2300,2400A,114.0055,33.5698,漯河市,漯河大学,细颗粒物(PM2.5),64,74,97,46,84,32,,62,52,29,22,5,6,0.6,0.6
2025-10-25T2300,2401A,114.0138,33.5828,漯河市,市水利局,细颗粒物(PM2.5),98,78,101,73,86,33,,60,51,28,23,6,7,0.7,0.7
2025-10-25T2300,2402A,114.0261,33.5698,漯河市,市广电局,细颗粒物(PM2.5),132,,104,100,108,29,,64,52,28,18,5,6,0.4,0.6
2025-10-25T2300,3478A,113.9749,33.5664,漯河市,市图书馆,细颗粒物(PM2.5),83,79,114,61,85,32,,54,47,23,21,4,4,0.6,0.7
2025-10-25T2300,4250A,114.0892,33.5882,漯河市,韶山路11号,细颗粒物(PM2.5),87,78,103,64,83,40,,63,46,21,26,6,7,0.5,0.6
2025-10-25T2300,1798A,118.5092,31.6837,马鞍山市,湖东路四小,,36,36,38,25,20,30,,103,64,40,24,7,6,0.8,0.5
2025-10-25T2300,1799A,118.5024,31.6449,马鞍山市,开发区,,42,36,37,29,21,49,,107,75,28,19,6,6,0.7,0.6
2025-10-25T2300,1802A,118.6245,31.7241,马鞍山市,濮塘,,,,,,,,,,,,,,,,
2025-10-25T2300,3633A,118.4918,31.6809,马鞍山市,雨山,,45,43,39,31,22,29,,107,62,44,24,9,8,1.0,0.7
2025-10-25T2300,4191A,118.5274,31.72227,马鞍山市,慈湖高新区,颗粒物(PM10),55,59,43,27,22,18,,103,55,44,23,5,4,0.8,0.5
2025-10-25T2300,1686A,111.0286,21.4688,茂名市,电白南海,,41,41,42,24,24,60,,86,73,11,11,16,10,0.2,0.2
2025-10-25T2300,1687A,110.9294,21.6533,茂名市,茂石化七小,颗粒物(PM10),51,51,50,34,31,48,,73,50,18,18,24,21,0.4,0.4
2025-10-25T2300,1688A,110.9107,21.6687,茂名市,健康路,颗粒物(PM10),57,63,46,27,30,46,,82,59,22,17,39,23,1.6,1
2025-10-25T2300,1689A,110.8592,21.6828,茂名市,高岭,颗粒物(PM10),53,56,61,29,27,41,,75,52,20,18,32,18,0.8,0.9
2025-10-25T2300,3450A,111.01,21.5165,茂名市,电白水东,,32,27,32,22,19,64,,82,67,12,13,10,11,0.6,0.6
2025-10-25T2300,2539A,104.0308,30.0478,眉山市,黑龙滩水库,,,,,,,,,,,,,,,,
2025-10-25T2300,2540A,103.8416,30.0874,眉山市,气象局,,43,43,23,17,8,18,,61,45,38,19,8,7,0.5,0.4
2025-10-25T2300,3137A,103.8578,30.0744,眉山市,市委党校,,29,29,11,14,5,12,,56,39,30,15,5,5,0.7,0.5
2025-10-25T2300,3148A,103.8291,30.0564,眉山市,区人社局,,42,42,25,17,5,6,,59,41,39,16,7,5,0.7,0.6
2025-10-25T2300,1690A,116.1231,24.3284,梅州市,梅江月梅,颗粒物(PM10),77,104,33,46,22,73,,97,88,12,17,6,7,0.4,0.4
2025-10-25T2300,1691A,116.0797,24.2719,梅州市,梅县新城,,28,26,30,19,22,85,,98,88,11,14,8,8,0.4,0.5
2025-10-25T2300,1692A,116.1248,24.2654,梅州市,环境监控中心,,36,,31,25,22,83,,94,77,11,17,6,6,0.5,0.5
2025-10-25T2300,3315A,116.1233,24.2991,梅州市,梅龙,,29,27,29,20,20,71,,83,74,10,14,7,7,0.6,0.6
2025-10-25T2300,1878A,104.7778,31.4741,绵阳市,富乐山,,18,15,12,12,8,19,,46,33,15,9,7,7,0.5,0.5
2025-10-25T2300,1880A,104.6697,31.4668,绵阳市,高新区自来水公司,,36,36,16,19,12,7,,51,36,34,18,8,7,0.7,0.6
2025-10-25T2300,1881A,104.7287,31.5075,绵阳市,三水厂,,30,30,16,17,12,6,,49,32,35,18,6,6,0.5,0.4
2025-10-25T2300,3491A,104.69,31.5322,绵阳市,西科大附属小学,,31,31,18,16,9,6,,53,37,47,21,10,10,0.6,0.3
2025-10-25T2300,3492A,104.5648,31.5343,绵阳市,安州区旅游局,,38,38,15,19,12,4,,55,39,37,15,6,7,0.7,0.5
2025-10-25T2300,4226A,104.7651,31.4531,绵阳市,绵阳市气象局,,26,26,13,16,9,11,,49,38,32,12,7,7,0.5,0.4
2025-10-25T2300,1784A,129.61,44.561,牡丹江市,环保大楼,细颗粒物(PM2.5),108,108,79,81,47,9,,80,39,66,42,7,7,0.9,0.6
2025-10-25T2300,1785A,129.6115,44.5782,牡丹江市,文化广场,细颗粒物(PM2.5),93,99,89,69,56,7,,74,25,73,50,10,9,1.2,0.8
2025-10-25T2300,1786A,129.5904,44.5963,牡丹江市,第一医院,细颗粒物(PM2.5),105,101,86,79,61,41,,77,47,35,37,8,6,0.6,0.9
2025-10-25T2300,1787A,129.6364,44.6075,牡丹江市,机车工厂,颗粒物(PM10),79,108,91,47,50,12,,80,38,47,38,5,6,0.8,0.6
2025-10-25T2300,1788A,129.6386,44.5462,牡丹江市,第一中学,颗粒物(PM10),64,77,64,42,43,16,,78,37,45,38,2,4,0.5,0.4
2025-10-25T2300,2531A,105.0703,29.61,内江市,市监测站,,40,40,30,20,19,10,,59,35,33,15,4,4,0.7,0.6
2025-10-25T2300,2532A,105.0717,29.5947,内江市,东兴区政府,,25,20,20,17,14,11,,51,34,32,14,9,9,0.2,0.2
2025-10-25T2300,2533A,105.0653,29.5817,内江市,内江二中,,33,33,22,20,18,7,,52,37,34,14,1,1,0.6,0.5
2025-10-25T2300,2534A,105.0406,29.5822,内江市,内江日报社,,38,38,27,16,15,6,,58,45,44,18,4,4,0.5,0.4
2025-10-25T2300,2628A,92.0657,31.4846,那曲市,那曲监测站,细颗粒物(PM2.5),107,139,31,80,16,55,,96,67,23,20,12,9,1.0,0.7
2025-10-25T2300,4243A,92.0515,31.4787,那曲市,那曲市委宣传部,,21,15,17,6,8,67,,95,76,6,11,6,6,0.4,0.5
2025-10-25T2300,1290A,115.8931,28.6843,南昌市,省外办,细颗粒物(PM2.5),92,84,62,68,45,72,,114,99,22,18,7,6,0.8,0.6
2025-10-25T2300,1291A,115.8886,28.7003,南昌市,省林业公司,细颗粒物(PM2.5),83,80,57,61,41,78,,122,107,24,21,6,5,0.9,0.8
2025-10-25T2300,1292A,115.8126,28.7442,南昌市,林科所,细颗粒物(PM2.5),70,75,48,51,31,81,,114,102,24,17,9,7,0.7,0.6
2025-10-25T2300,1294A,115.8518,28.687,南昌市,建工学校,细颗粒物(PM2.5),85,93,65,63,38,79,,119,105,25,19,14,12,0.5,0.4
2025-10-25T2300,1295A,115.8921,28.6424,南昌市,象湖,细颗粒物(PM2.5),85,89,63,63,40,82,,127,112,22,17,10,10,0.7,0.6
2025-10-25T2300,1296A,115.7423,28.7996,南昌市,武术学校,,,,,,,,,,,,,,,,
2025-10-25T2300,3046A,115.9084,28.6062,南昌市,机电学校,细颗粒物(PM2.5),92,97,72,68,46,94,,134,120,19,17,10,9,0.6,0.5
2025-10-25T2300,3690A,115.9721,28.7031,南昌市,外国语学校,细颗粒物(PM2.5),145,121,80,111,56,72,,130,109,35,27,11,10,0.6,0.5
2025-10-25T2300,4192A,115.9316,28.68677,南昌市,南京东路235号,细颗粒物(PM2.5),92,98,74,68,49,80,,128,110,30,26,10,8,0.7,0.7
2025-10-25T2300,1905A,106.056,30.8064,南充市,西山风景区,,,,,,,,,,,,,,,,
2025-10-25T2300,1906A,106.0789,30.8023,南充市,南充市委,,25,21,17,17,13,24,,57,44,24,11,4,4,0.4,0.3
2025-10-25T2300,1907A,106.1031,30.8217,南充市,南充炼油厂,,29,24,30,20,15,18,,54,42,17,7,6,6,0.4,0.4
2025-10-25T2300,4227A,106.1083,30.7884,南充市,梨树横街98号,,24,24,18,14,12,28,,58,46,17,7,4,4,0.3,0.3
2025-10-25T2300,4304A,106.1172,30.843,南充市,清泉寺北路188号,,29,24,16,20,11,16,,58,47,17,6,7,6,0.4,0.2
2025-10-25T2300,4305A,106.067,30.7616,南充市,同庆路1号,,20,15,15,14,11,12,,55,41,26,11,6,6,0.4,0.3
2025-10-25T2300,1151A,118.8086,32.1065,南京市,迈皋桥,,42,40,31,29,17,37,,78,54,19,22,4,4,0.8,0.7
2025-10-25T2300,1152A,118.7538,32.0551,南京市,草场门,,42,36,38,29,19,39,,80,58,34,31,3,3,0.5,0.4
2025-10-25T2300,1153A,118.7794,32.0745,南京市,山西路,颗粒物(PM10),52,53,42,34,17,45,,90,65,25,24,5,4,0.7,0.6
2025-10-25T2300,1154A,118.7752,32.0023,南京市,中华门,,49,48,36,34,18,37,,91,61,28,27,3,4,0.5,0.4
2025-10-25T2300,1155A,118.8109,32.0309,南京市,瑞金路,,46,46,34,27,18,38,,86,61,26,17,6,6,0.7,0.6
2025-10-25T2300,1156A,118.7997,32.0754,南京市,玄武湖,细颗粒物(PM2.5),57,42,35,40,16,35,,79,56,19,18,4,4,0.7,0.6
2025-10-25T2300,1157A,118.6414,32.0931,南京市,浦口,细颗粒物(PM2.5),63,,41,45,21,38,,81,54,29,26,6,8,0.5,0.5
2025-10-25T2300,1158A,118.7356,31.9996,南京市,奥体中心,,49,49,39,31,19,54,,99,75,27,25,4,5,0.5,0.4
2025-10-25T2300,1159A,118.9125,32.1028,南京市,仙林大学城,细颗粒物(PM2.5),58,48,44,41,19,31,,86,55,31,29,7,8,0.5,0.5
2025-10-25T2300,3422A,118.8436,31.9198,南京市,江宁彩虹桥,,39,36,36,27,17,42,,96,69,20,10,5,6,0.5,0.5
2025-10-25T2300,3427A,118.8554,32.3578,南京市,六合雄州,颗粒物(PM10),55,60,45,26,21,48,,83,56,12,15,4,5,0.5,0.5
2025-10-25T2300,4249A,118.8708,31.3402,南京市,汶溪路181号,,26,18,37,18,25,69,,117,94,19,25,8,7,0.6,0.6
2025-10-25T2300,4312A,119.019,31.6512,南京市,中山西路1号,,31,31,38,15,22,53,,100,74,18,17,4,4,0.6,0.6
2025-10-25T2300,1401A,108.3103,22.7881,南宁市,二十一中,,40,40,43,28,30,67,,98,84,23,22,12,12,0.7,0.6
2025-10-25T2300,1402A,108.3141,22.8528,南宁市,北湖,颗粒物(PM10),52,53,43,32,24,61,,103,84,31,19,13,10,0.7,0.6
2025-10-25T2300,1403A,108.3206,22.8225,南宁市,市监测站,,43,43,43,25,26,62,,93,77,28,23,19,13,0.6,0.5
2025-10-25T2300,1404A,108.3829,22.8037,南宁市,大自然花园,,46,46,45,26,28,87,,101,94,14,17,8,8,0.5,0.5
2025-10-25T2300,1405A,108.4394,22.7904,南宁市,仙葫,,,,,,,,,,,,,,,,
2025-10-25T2300,1406A,108.2397,22.8467,南宁市,区农职院,颗粒物(PM10),52,53,39,30,27,37,,102,79,31,17,9,10,0.5,0.5
2025-10-25T2300,1407A,108.3275,22.735,南宁市,英华嘉园,,42,42,48,28,28,81,,100,91,13,20,6,7,0.6,0.6
2025-10-25T2300,3401A,108.4834,22.7618,南宁市,红星社区,,45,45,42,30,28,85,,111,102,18,19,9,9,0.5,0.4
2025-10-25T2300,4221A,108.2177,22.7774,南宁市,乐贤路16号,,48,47,41,33,26,44,,107,88,34,19,4,6,0.5,0.5
2025-10-25T2300,2331A,118.0966,26.6761,南平市,茫荡山,,,19,18,,,117,,108,108,,,2,2,,
2025-10-25T2300,2332A,118.1681,26.6369,南平市,南平市监测站,,32,25,23,22,16,40,,88,70,22,10,3,3,0.5,0.4
2025-10-25T2300,2333A,118.1825,26.6489,南平市,南平铝业有限公司,,42,32,26,29,18,42,,89,64,26,14,4,3,0.7,0.5
2025-10-25T2300,2334A,118.1756,26.6272,南平市,南平七中,,31,31,27,14,32,24,,93,65,26,12,4,5,0.5,0.7
2025-10-25T2300,1168A,120.9098,31.9663,南通市,狼山街道,,39,39,31,26,18,84,,105,98,18,14,4,3,0.6,0.5
2025-10-25T2300,1169A,120.86,32.0005,南通市,虹桥,,36,29,29,25,16,86,,98,93,14,14,4,4,0.7,0.6
2025-10-25T2300,1170A,120.87,32.02,南通市,城中,,,47,39,26,17,,,96,91,20,19,3,5,0.6,0.6
2025-10-25T2300,1171A,120.94,31.93,南通市,星湖花园,,40,40,34,18,17,82,,100,91,19,16,4,4,0.6,0.6
2025-10-25T2300,1172A,120.81,32.0417,南通市,紫琅学院,,41,41,41,23,19,70,,94,84,18,20,6,12,0.5,0.5
2025-10-25T2300,3291A,121.067,32.062,南通市,通州监测站,,45,34,25,31,19,87,,108,100,13,15,2,2,0.5,0.5
2025-10-25T2300,3432A,120.9348,31.9883,南通市,环境教育馆,,44,44,35,22,17,83,,106,97,20,16,5,4,0.4,0.4
2025-10-25T2300,2404A,112.5224,33.0122,南阳市,瓦房庄,细颗粒物(PM2.5),99,88,95,74,86,54,,74,65,18,17,8,8,0.7,0.7
2025-10-25T2300,2405A,112.5003,32.9735,南阳市,汉画馆,细颗粒物(PM2.5),89,75,77,66,75,23,,72,53,36,22,8,8,0.7,0.7
2025-10-25T2300,2406A,112.5573,33.027,南阳市,气象站,细颗粒物(PM2.5),92,85,100,68,81,60,,75,66,22,21,9,8,0.6,0.6
2025-10-25T2300,2407A,112.5481,32.9689,南阳市,理工学院,细颗粒物(PM2.5),83,87,104,61,72,48,,77,58,18,19,10,11,0.8,0.8
2025-10-25T2300,4008A,112.5234,32.9922,南阳市,卧龙区政府,颗粒物(PM10),75,99,105,48,49,33,,73,61,34,20,10,8,1.0,0.9
2025-10-25T2300,1234A,121.8358,29.911,宁波市,区环保大楼,,34,34,38,12,12,84,,108,93,21,21,6,6,0.4,0.4
2025-10-25T2300,1235A,121.56,29.82,宁波市,万里学院,,38,38,35,26,20,66,,113,99,36,18,8,8,0.5,0.5
2025-10-25T2300,1236A,121.713,29.9572,宁波市,龙赛医院,,30,28,33,7,10,96,,107,99,11,14,6,6,0.4,0.5
2025-10-25T2300,1239A,121.633,29.7733,宁波市,钱湖水厂,颗粒物(PM10),56,61,36,29,16,38,,110,88,45,19,6,6,0.6,0.5
2025-10-25T2300,1240A,121.5856,29.8635,宁波市,太古小学,,36,36,35,13,16,79,,110,96,24,17,4,4,0.5,0.5
2025-10-25T2300,1241A,121.524,29.8674,宁波市,市环境监测中心,,33,33,34,16,14,56,,104,89,40,23,6,6,0.6,0.5
2025-10-25T2300,2871A,121.6147,29.9017,宁波市,万里国际学校,,30,27,33,14,16,93,,118,102,20,18,6,5,0.7,0.6
2025-10-25T2300,3710A,121.5594,29.8975,宁波市,白沙活动中心,,29,29,29,13,13,88,,110,96,16,13,5,5,0.4,0.5
2025-10-25T2300,2339A,119.5001,26.6946,宁德市,金涵水库,,19,19,22,11,15,41,,68,56,4,7,3,2,0.4,0.4
2025-10-25T2300,2341A,119.5388,26.6612,宁德市,宁德市监测站,,26,,23,18,16,78,,106,99,11,14,5,5,0.5,0.5
2025-10-25T2300,3209A,119.5231,26.6562,宁德市,宁德一中,,26,26,28,16,16,78,,104,96,7,10,5,5,0.3,0.4
2025-10-25T2300,2618A,98.8601,25.8567,怒江傈僳族自治州,州监测站,,22,21,23,15,16,32,,42,37,6,7,8,8,0.4,0.4
2025-10-25T2300,2619A,98.8546,25.8417,怒江傈僳族自治州,泸水一中,,9,8,19,6,14,18,,31,22,9,11,6,5,0.5,0.6
2025-10-25T2300,1888A,101.6891,26.571,攀枝花市,弄弄坪,,41,41,50,23,33,10,,79,52,24,22,5,11,0.8,1.2
2025-10-25T2300,1889A,101.5769,26.5928,攀枝花市,河门口,,39,38,41,27,29,24,,83,57,20,15,20,16,1.2,1.2
2025-10-25T2300,1890A,101.7169,26.585,攀枝花市,炳草岗,颗粒物(PM10),65,80,55,36,36,1,,84,51,49,27,16,15,1.0,1.2
2025-10-25T2300,1891A,101.7369,26.5008,攀枝花市,仁和,,26,25,46,18,33,11,,76,43,14,15,6,12,0.7,1.3
2025-10-25T2300,2835A,101.7227,26.567,攀枝花市,四十中小,,47,47,47,30,32,27,,79,54,24,22,92,20,0.9,1.2
2025-10-25T2300,1604A,122.0303,41.1489,盘锦市,开发区,细颗粒物(PM2.5),129,,69,98,84,53,,70,54,27,46,3,9,1.1,1.3
2025-10-25T2300,1605A,122.0485,41.0883,盘锦市,兴隆台,细颗粒物(PM2.5),98,,76,73,75,46,,69,49,34,54,6,14,1.1,1.8
2025-10-25T2300,1606A,121.8297,41.1028,盘锦市,新生街道,细颗粒物(PM2.5),85,,57,63,54,30,,72,49,43,52,8,12,0.9,0.7
2025-10-25T2300,1832A,113.3257,33.742,平顶山市,新华旅馆,细颗粒物(PM2.5),65,76,109,47,53,35,,58,52,26,24,6,8,0.8,0.7
2025-10-25T2300,1833A,113.2919,33.737,平顶山市,规划设计院,细颗粒物(PM2.5),93,87,105,69,84,25,,71,57,33,27,3,5,0.6,0.6
2025-10-25T2300,1834A,113.182,33.774,平顶山市,平顶山工学院,细颗粒物(PM2.5),85,70,108,63,89,47,,74,65,18,24,5,7,0.6,0.7
2025-10-25T2300,3204A,113.3025,33.73,平顶山市,规划局,细颗粒物(PM2.5),80,80,96,59,78,33,,68,56,25,23,6,8,0.6,0.7
2025-10-25T2300,3594A,112.8867,33.9116,平顶山市,石龙区,细颗粒物(PM2.5),92,84,100,68,89,62,,69,64,18,25,4,6,0.8,0.8
2025-10-25T2300,2656A,106.6692,35.5461,平凉市,聚贤嘉苑,,43,40,30,30,18,11,,64,34,32,20,3,9,0.6,0.6
2025-10-25T2300,2657A,106.7021,35.5307,平凉市,博物馆,,50,50,40,27,22,6,,61,28,32,22,10,10,0.8,0.7
2025-10-25T2300,2347A,114.0997,27.5002,萍乡市,武功山,,,,,,,,,,,,,,,,
2025-10-25T2300,2348A,113.8385,27.6434,萍乡市,中医院,细颗粒物(PM2.5),107,111,57,80,30,68,,109,97,33,22,14,8,1.1,0.7
2025-10-25T2300,2349A,113.8493,27.6253,萍乡市,市政府车库,细颗粒物(PM2.5),94,92,54,70,37,71,,109,96,27,22,18,16,0.7,0.6
2025-10-25T2300,2350A,113.8676,27.6435,萍乡市,市环保局,,,82,50,,30,74,,116,105,23,16,13,9,0.7,0.5
2025-10-25T2300,2351A,113.866,27.6198,萍乡市,安源区政府,细颗粒物(PM2.5),105,94,50,79,43,72,,108,97,21,19,14,13,0.7,0.7
2025-10-25T2300,2319A,119.0141,25.4325,莆田市,荔城区仓后路,,26,18,27,9,10,82,,84,84,9,9,5,5,0.6,0.6
2025-10-25T2300,2320A,119.0015,25.4553,莆田市,莆田市监测站,,29,14,19,8,10,92,,92,90,7,7,5,5,0.6,0.6
2025-10-25T2300,2321A,119.1119,25.4561,莆田市,涵江区六中,,31,27,28,8,13,98,,90,90,7,9,6,6,0.5,0.5
2025-10-25T2300,2322A,119.1013,25.3215,莆田市,秀屿区政府,,30,23,30,12,16,94,,95,92,9,11,5,5,0.4,0.5
2025-10-25T2300,2323A,118.981,25.4792,莆田市,东圳水库,,,18,17,7,12,105,,100,100,,,6,6,0.3,0.2
2025-10-25T2300,2392A,115.0312,35.7636,濮阳市,环保局,细颗粒物(PM2.5),90,,51,67,56,68,,64,64,17,26,8,8,0.6,0.6
2025-10-25T2300,2394A,115.0574,35.7609,濮阳市,油田运输公司,细颗粒物(PM2.5),97,89,98,72,69,70,,66,66,22,32,8,9,1.0,1.1
2025-10-25T2300,3021A,115,35.7668,濮阳市,濮水河管理处,颗粒物(PM10),65,80,75,42,42,46,,56,50,19,26,8,8,0.5,0.6
2025-10-25T2300,4216A,115.0924,35.7686,濮阳市,任丘路479号,细颗粒物(PM2.5),90,76,75,67,58,54,,67,64,22,24,8,8,0.8,0.8
2025-10-25T2300,2601A,100.98,22.7633,普洱市,市环保局,,48,,23,33,21,24,,35,29,6,5,5,5,0.4,0.4
2025-10-25T2300,2602A,100.9817,22.8322,普洱市,普洱第二中学,,33,33,22,15,12,6,,36,23,12,7,4,4,0.4,0.3
2025-10-25T2300,2262A,131.0518,45.8751,七台河市,新一中,,,,,,,,,,,,,,,,
2025-10-25T2300,3345A,131.0577,45.7879,七台河市,中波台,细颗粒物(PM2.5),163,147,92,124,57,50,,64,62,25,26,10,10,1.0,0.8
2025-10-25T2300,3637A,131.0176,45.7761,七台河市,人民广场,细颗粒物(PM2.5),138,123,105,105,65,58,,87,80,31,28,9,9,0.9,0.7
2025-10-25T2300,3684A,130.8781,45.8222,七台河市,新建矿广场,细颗粒物(PM2.5),128,127,109,97,53,27,,69,45,50,35,10,7,0.5,0.6
2025-10-25T2300,1779A,123.9305,47.3636,齐齐哈尔市,安居小区,,22,22,57,3,25,38,,58,50,6,20,5,9,0.3,0.5
2025-10-25T2300,1780A,123.9488,47.3386,齐齐哈尔市,中心广场,,13,10,47,3,24,41,,58,50,5,21,6,10,0.3,0.5
2025-10-25T2300,1781A,123.9483,47.3227,齐齐哈尔市,农牧车辆厂,,19,19,53,3,21,41,,63,54,4,20,2,6,0.4,0.6
2025-10-25T2300,1783A,123.945,47.2988,齐齐哈尔市,市环境监测站,,19,19,55,3,27,39,,62,52,6,18,6,8,0.4,0.5
2025-10-25T2300,3662A,123.6333,47.2075,齐齐哈尔市,富区青少年活动中心,,15,15,71,3,38,32,,53,43,6,20,5,14,0.5,1
2025-10-25T2300,2591A,107.9783,26.5747,黔东南苗族侗族自治州,市环境监测站,,33,27,31,23,24,65,,72,62,7,11,3,4,0.4,0.5
2025-10-25T2300,2881A,107.8908,26.5311,黔东南苗族侗族自治州,凯里学院,,35,,30,24,25,49,,68,55,14,13,2,2,0.6,0.6
2025-10-25T2300,2593A,107.5228,26.2403,黔南布依族苗族自治州,小围寨,,14,12,19,9,16,44,,57,47,4,6,4,4,0.4,0.4
2025-10-25T2300,3538A,107.5175,26.2978,黔南布依族苗族自治州,沙坝,,28,22,25,19,20,39,,59,46,6,8,3,3,0.5,0.5
2025-10-25T2300,2589A,104.9022,25.0925,黔西南布依族苗族自治州,场坝街,,37,37,22,16,12,30,,44,34,11,6,2,3,0.5,0.4
2025-10-25T2300,2590A,104.8811,25.0992,黔西南布依族苗族自治州,坪东大道,,25,22,24,17,18,32,,43,35,9,6,3,3,0.6,0.5
2025-10-25T2300,2502A,108.6236,21.9667,钦州市,市环保站,颗粒物(PM10),57,63,49,24,25,89,,110,106,16,13,4,5,0.5,0.6
2025-10-25T2300,2503A,108.6549,21.9481,钦州市,沙埠小学,颗粒物(PM10),54,57,52,28,32,101,,121,117,11,13,4,6,0.6,1.1
2025-10-25T2300,2504A,108.5989,21.7431,钦州市,港区一小,颗粒物(PM10),55,60,56,34,31,78,,106,99,36,27,9,8,0.6,0.6
2025-10-25T2300,3404A,108.5959,21.9633,钦州市,北职校,颗粒物(PM10),51,51,43,33,28,89,,115,110,15,10,7,7,1.3,0.9
2025-10-25T2300,1043A,119.7493,40.0116,秦皇岛市,第一关,细颗粒物(PM2.5),160,,104,122,91,6,,61,30,73,57,9,8,0.9,0.9
2025-10-25T2300,1044A,119.5897,39.9499,秦皇岛市,监测站,细颗粒物(PM2.5),144,143,114,110,67,6,,62,38,84,58,10,9,1.1,1
2025-10-25T2300,1046A,119.5251,39.9041,秦皇岛市,建设大厦,细颗粒物(PM2.5),156,152,107,119,74,26,,70,44,54,40,20,8,1.0,0.9
2025-10-25T2300,3132A,119.610547,39.943889,秦皇岛市,文明里,细颗粒物(PM2.5),133,139,104,101,69,24,,63,43,60,51,13,10,0.8,0.8
2025-10-25T2300,4198A,119.5090,39.8253,秦皇岛市,北戴河轮滑馆,细颗粒物(PM2.5),152,142,112,116,85,13,,67,52,70,41,4,8,1.2,1
2025-10-25T2300,1307A,120.6659,36.2403,青岛市,仰口,,,,,,,,,,,,,,,,
2025-10-25T2300,1310A,120.4134,36.0658,青岛市,市南区东部子站,"颗粒物(PM10),细颗粒物(PM2.5)",64,78,63,46,28,49,,75,56,31,37,8,10,0.6,0.5
2025-10-25T2300,1311A,120.3664,36.1032,青岛市,四方区子站,细颗粒物(PM2.5),73,56,55,53,38,62,,75,63,23,39,4,6,0.5,0.4
2025-10-25T2300,1312A,120.2994,36.054,青岛市,市南区西部子站,细颗粒物(PM2.5),64,66,62,46,32,45,,80,64,44,45,7,8,0.7,0.6
2025-10-25T2300,1313A,120.4581,36.0858,青岛市,崂山区子站,颗粒物(PM10),56,61,53,39,22,66,,75,59,24,40,9,9,0.6,0.5
2025-10-25T2300,1315A,120.3999,36.3083,青岛市,城阳区子站,细颗粒物(PM2.5),80,100,84,59,38,40,,72,37,43,46,6,5,0.9,0.7
2025-10-25T2300,3362A,120.5014,36.4034,青岛市,即墨2号,细颗粒物(PM2.5),163,,82,124,86,21,,68,29,68,51,6,6,0.7,0.6
2025-10-25T2300,3642A,120.3503,36.0736,青岛市,市北区南部,颗粒物(PM10),70,90,66,39,30,52,,74,62,30,47,4,7,0.6,0.5
2025-10-25T2300,3643A,120.3948,36.1805,青岛市,李沧区北部,细颗粒物(PM2.5),64,61,62,46,36,75,,69,59,20,42,6,7,0.6,0.6
2025-10-25T2300,4290A,120.1969,35.9546,青岛市,珠江路669号,细颗粒物(PM2.5),68,56,78,49,40,69,,70,68,22,59,8,12,0.6,0.5
2025-10-25T2300,4291A,120.0424,35.8656,青岛市,黄岛区人民政府广场,,,,75,,37,68,,78,60,18,50,6,7,0.9,0.8
2025-10-25T2300,1702A,113.0426,23.691,清远市,环保大楼,,,,,,,,,,,,,,,,
2025-10-25T2300,1703A,113.0208,23.7106,清远市,凤城街办,,39,38,34,27,23,82,,94,91,13,12,8,8,0.6,0.6
2025-10-25T2300,3025A,113.0477,23.6344,清远市,技师学院,,36,36,39,23,22,80,,91,85,18,18,8,7,0.7,0.6
2025-10-25T2300,3318A,112.9903,23.7403,清远市,清新太和,,34,34,32,20,19,96,,101,100,13,12,8,7,0.5,0.4
2025-10-25T2300,3455A,113.076,23.7198,清远市,清城东城,,35,35,34,20,20,93,,94,92,10,12,7,8,0.6,0.6
2025-10-25T2300,2661A,107.6325,35.7357,庆阳市,庆阳五中,,42,42,44,26,33,42,,52,40,20,16,3,2,0.6,0.5
2025-10-25T2300,2662A,107.6364,35.7067,庆阳市,市环保局,,35,30,32,24,28,46,,60,51,18,15,3,3,0.5,0.5
2025-10-25T2300,1916A,103.7897,25.5035,曲靖市,环境监测站,,18,17,25,12,13,34,,56,42,8,12,4,4,0.4,0.4
2025-10-25T2300,1917A,103.8,25.5364,曲靖市,烟厂办公区,,18,16,21,12,13,32,,55,43,7,10,4,4,0.4,0.4
2025-10-25T2300,3376A,103.7947,25.462,曲靖市,南苑二区,,21,21,21,12,14,36,,59,44,10,10,3,4,0.4,0.4
2025-10-25T2300,3377A,103.7444,25.5261,曲靖市,曲靖师范学院,,22,17,23,15,17,35,,65,47,9,9,1,2,0.4,0.4
2025-10-25T2300,1264A,118.8692,28.9398,衢州市,环保大楼,颗粒物(PM10),52,54,54,29,28,44,,106,84,39,26,4,5,0.6,0.5
2025-10-25T2300,1265A,118.8709,28.9666,衢州市,实验学校,,36,36,49,22,29,54,,110,88,33,31,5,4,0.4,0.4
2025-10-25T2300,1266A,118.8621,28.9808,衢州市,衢州学院,,30,30,49,19,28,46,,108,81,42,34,6,6,0.4,0.4
2025-10-25T2300,1611A,118.5819,24.9117,泉州市,涂山街,,30,30,25,16,14,72,,92,77,14,8,4,3,0.4,0.4
2025-10-25T2300,1612A,118.5972,24.8978,泉州市,津头埔,,32,32,28,18,16,66,,90,73,18,13,4,3,0.4,0.4
2025-10-25T2300,1613A,118.6663,24.9424,泉州市,万安,,31,31,30,15,16,72,,92,77,12,8,4,3,0.4,0.4
2025-10-25T2300,1614A,118.6117,24.9604,泉州市,清源山,,24,24,21,11,12,74,,91,76,12,7,2,2,0.5,0.4
2025-10-25T2300,3529A,118.6333,24.9264,泉州市,城华南路,,26,26,27,14,14,71,,92,76,19,13,4,4,0.2,0.2
2025-10-25T2300,2626A,88.8876,29.2718,日喀则市,日喀则监测站,,31,22,28,3,9,99,,101,97,2,21,14,15,0.2,0.4
2025-10-25T2300,3726A,88.8781,29.2426,日喀则市,林业技术推广中心,,32,18,17,3,4,102,,104,104,2,8,6,6,0.5,0.6
2025-10-25T2300,1659A,119.471,35.4209,日照市,监测站,细颗粒物(PM2.5),60,56,63,43,37,55,,61,40,29,53,7,8,0.7,0.7
2025-10-25T2300,1660A,119.523,35.4216,日照市,市政府广场,细颗粒物(PM2.5),60,51,56,43,34,61,,64,47,19,38,6,8,0.8,0.8
2025-10-25T2300,1661A,119.5587,35.4044,日照市,港务局,颗粒物(PM10),57,63,64,30,34,61,,74,54,24,41,8,9,0.7,0.7
