timepoint,stationcode,longitude,latitude,area,positionname,primarypollutant,aqi,pm10,pm10_24h,pm2_5,pm2_5_24h,o3,o3_24h,o3_8h,o3_8h_24h,no2,no2_24h,so2,so2_24h,co,co_24h
2026-03-08T2200,2568A,102.2503,31.8896,阿坝藏族羌族自治州,马师校,,34,34,29,10,10,84,84,86,86,4,9,5,5,0.5,0.4
2026-03-08T2200,3994A,102.2174,31.9016,阿坝藏族羌族自治州,马尔康中学西区,,33,33,27,10,10,79,79,84,83,6,7,6,6,0.4,0.4
2026-03-08T2200,2695A,80.2899,41.1684,阿克苏地区,电视台,颗粒物(PM10),129,194,202,69,67,43,43,91,NA,32,24,7,5,1.0,1.4
2026-03-08T2200,2696A,80.2592,41.1541,阿克苏地区,艺术中心,颗粒物(PM10),129,194,190,65,71,60,60,98,96,39,25,8,6,0.5,0.5
2026-03-08T2200,2205A,105.699,38.8409,阿拉善盟,蒙二幼,,26,26,37,8,11,80,80,102,93,9,5,8,8,0.5,0.4
2026-03-08T2200,2206A,105.7198,38.8508,阿拉善盟,环保局新楼,,30,16,31,3,8,94,94,102,94,5,5,7,8,0.4,0.4
2026-03-08T2200,2708A,88.1266,47.8515,阿勒泰地区,市站,,28,9,8,3,2,88,88,110,102,19,9,3,2,0.3,0.2
2026-03-08T2200,4166A,88.1198,47.7931,阿勒泰地区,阿勒泰路33号,,29,17,10,3,3,92,92,105,96,13,11,7,6,0.3,0.3
2026-03-08T2200,2630A,80.1171,32.4999,阿里地区,阿里监测站,,30,12,16,8,7,94,94,98,97,3,5,8,8,0.3,0.3
2026-03-08T2200,3192A,80.0906,32.5029,阿里地区,阿里藏医院,,32,6,11,3,4,100,100,106,102,1,2,8,9,0.2,0.3
2026-03-08T2200,2644A,109.0088,32.6974,安康市,汉滨区检察院,,23,23,13,10,11,33,33,60,54,18,11,4,4,0.7,0.8
2026-03-08T2200,4054A,109.0324,32.6913,安康市,市邮政管理局,,15,15,17,10,12,39,39,59,55,17,13,5,5,0.9,0.9
2026-03-08T2200,2291A,117.0806,30.5181,安庆市,环科院,颗粒物(PM10),69,76,74,44,47,91,91,107,101,20,17,8,9,0.5,0.6
2026-03-08T2200,2292A,117.0331,30.5118,安庆市,马山宾馆,细颗粒物(PM2.5),90,85,77,55,54,78,78,106,99,31,21,6,6,0.9,0.6
2026-03-08T2200,2294A,116.9897,30.6146,安庆市,安庆大学,细颗粒物(PM2.5),64,68,66,42,42,109,109,106,106,10,14,5,5,0.5,0.6
2026-03-08T2200,3173A,117.0598,30.5351,安庆市,市人大,颗粒物(PM10),79,90,76,49,48,70,70,108,96,35,21,6,7,0.6,0.6
2026-03-08T2200,3123A,105.9408,26.2431,安顺市,凤凰山,,23,20,18,16,13,23,23,30,30,20,12,19,16,0.9,0.8
2026-03-08T2200,3124A,105.9443,26.2567,安顺市,金钟山,,18,14,10,12,11,27,27,30,30,14,10,10,13,0.9,0.8
2026-03-08T2200,3125A,105.8983,26.248,安顺市,娄家坡,,20,16,14,14,12,26,26,30,29,15,11,13,17,0.8,0.8
2026-03-08T2200,1819A,114.3552,36.1017,安阳市,红庙街,细颗粒物(PM2.5),131,94,79,94,80,19,19,59,48,46,20,1,2,0.7,0.5
2026-03-08T2200,1820A,114.361,36.0681,安阳市,银杏小区,细颗粒物(PM2.5),137,121,85,100,88,21,21,60,46,39,22,2,2,1.0,0.7
2026-03-08T2200,3141A,114.3921,36.0879,安阳市,信访局,细颗粒物(PM2.5),135,NA,85,98,86,19,19,62,50,40,19,2,2,0.9,0.8
2026-03-08T2200,3669A,114.4706,36.0634,安阳市,左辅环卫站,细颗粒物(PM2.5),140,129,113,103,86,26,26,60,49,35,20,2,2,0.7,0.6
2026-03-08T2200,4117A,114.2918,36.0769,安阳市,钢三路198号,细颗粒物(PM2.5),185,166,111,139,83,10,10,59,44,42,21,3,2,0.9,0.6
2026-03-08T2200,1748A,123.0441,41.1201,鞍山市,深沟寺,细颗粒物(PM2.5),82,79,78,51,54,56,56,90,71,30,24,15,11,1.2,1
2026-03-08T2200,1749A,123.011,41.0931,鞍山市,太阳城,细颗粒物(PM2.5),110,100,78,71,58,42,42,90,66,44,25,25,15,1.9,0.9
2026-03-08T2200,1750A,123.0483,41.1445,鞍山市,太平,细颗粒物(PM2.5),90,86,85,55,55,54,54,85,64,27,28,19,16,1.2,1.1
2026-03-08T2200,1751A,122.964,41.0968,鞍山市,铁西三道街,细颗粒物(PM2.5),100,87,85,60,59,51,51,89,64,34,37,13,18,1.2,0.9
2026-03-08T2200,1753A,123.0219,41.0822,鞍山市,明达新区,细颗粒物(PM2.5),118,109,79,79,58,43,43,87,66,34,21,19,16,1.3,0.9
2026-03-08T2200,4201A,122.944647,41.082639,鞍山市,兴盛南路290号,细颗粒物(PM2.5),141,155,99,105,60,25,25,86,58,55,37,10,12,1.5,1.1
2026-03-08T2200,2195A,107.4206,40.7609,巴彦淖尔市,附二中,颗粒物(PM10),65,70,69,36,32,55,55,87,78,22,14,15,12,0.6,0.5
2026-03-08T2200,2196A,107.37,40.7372,巴彦淖尔市,市环保大楼,颗粒物(PM10),65,70,66,29,28,51,51,89,80,31,17,16,8,0.6,0.5
2026-03-08T2200,1956A,86.1476,41.7529,巴音郭楞蒙古自治州,孔雀公园,颗粒物(PM10),169,288,133,70,35,53,53,91,86,33,39,10,9,0.6,0.5
2026-03-08T2200,1957A,86.1971,41.7166,巴音郭楞蒙古自治州,棉纺厂,颗粒物(PM10),191,331,155,90,42,60,60,92,87,28,20,/,/,/,/
2026-03-08T2200,1958A,86.236,41.7172,巴音郭楞蒙古自治州,经济开发区,颗粒物(PM10),155,259,120,81,34,52,52,81,78,27,14,7,6,0.5,0.3
2026-03-08T2200,3181A,106.776805,31.852614,巴中市,市五中,,39,30,27,27,18,18,18,55,50,21,13,7,7,0.9,0.8
2026-03-08T2200,3183A,106.7419,31.8654,巴中市,圣泉水务公司,,33,29,23,23,16,19,19,56,47,21,13,9,9,1.2,1.1
2026-03-08T2200,3616A,106.7617,31.8343,巴中市,市中心医院,,40,38,25,28,19,21,21,56,49,15,11,9,9,0.9,0.8
2026-03-08T2200,2235A,122.7909,45.608,白城市,洮北区环保局,颗粒物(PM10),59,62,34,38,19,76,76,88,82,17,12,5,5,0.3,0.2
2026-03-08T2200,2236A,122.8741,45.5725,白城市,市环保局,"颗粒物(PM10),细颗粒物(PM2.5)",62,66,40,41,20,78,78,90,85,13,16,9,6,0.5,0.4
2026-03-08T2200,2231A,126.4219,41.9172,白山市,喜丰,,48,48,47,28,24,84,84,92,87,11,22,10,10,0.8,0.8
2026-03-08T2200,2232A,126.4082,41.9416,白山市,环保局,细颗粒物(PM2.5),52,47,38,36,25,84,84,90,89,13,12,9,10,0.8,0.7
2026-03-08T2200,2647A,104.1727,36.5448,白银市,第三小学,颗粒物(PM10),56,58,50,36,25,61,61,106,96,26,13,7,15,0.9,0.6
2026-03-08T2200,2648A,104.1467,36.5482,白银市,动力公司,细颗粒物(PM2.5),62,56,44,41,26,69,69,101,93,17,11,10,11,0.7,0.6
2026-03-08T2200,2512A,106.6102,23.901,百色市,市监测站,,33,33,42,17,36,44,44,71,51,16,16,9,10,0.7,0.8
2026-03-08T2200,2513A,106.6524,23.8842,百色市,市中心血站,,42,42,49,28,42,66,66,71,57,14,19,8,11,0.7,0.8
2026-03-08T2200,4133A,106.6273,23.8798,百色市,龙景西路,,47,47,67,29,55,60,60,60,55,11,16,10,12,0.6,0.7
2026-03-08T2200,2270A,117.396,32.9389,蚌埠市,工人疗养院,细颗粒物(PM2.5),101,89,63,61,38,61,61,85,80,37,28,4,5,0.6,0.6
2026-03-08T2200,2271A,117.3606,32.9428,蚌埠市,百货大楼,细颗粒物(PM2.5),88,84,59,54,33,63,63,95,92,36,24,6,7,0.6,0.5
2026-03-08T2200,2273A,117.4183,32.8909,蚌埠市,蚌埠学院,细颗粒物(PM2.5),86,78,48,53,33,33,33,88,72,67,32,6,6,0.6,0.5
2026-03-08T2200,2274A,117.3534,32.9672,蚌埠市,淮上区政府,细颗粒物(PM2.5),101,73,53,61,39,66,66,98,94,37,23,4,5,0.6,0.5
2026-03-08T2200,2275A,117.3143,32.8977,蚌埠市,高新区,细颗粒物(PM2.5),100,80,47,60,36,73,73,90,88,29,22,6,6,0.6,0.5
2026-03-08T2200,3715A,117.3091,32.9314,蚌埠市,蚌埠田家炳中学,细颗粒物(PM2.5),94,85,60,57,35,77,77,98,96,28,24,4,5,0.6,0.5
2026-03-08T2200,1585A,109.8761,40.6533,包头市,市环境监测站,,20,16,55,6,23,63,63,89,84,22,26,5,7,0.4,0.6
2026-03-08T2200,1587A,109.9992,40.5843,包头市,包头八中,,28,28,52,13,27,57,57,87,77,22,31,7,8,0.4,0.6
2026-03-08T2200,1589A,109.8641,40.6288,包头市,惠龙物流,,22,NA,45,15,26,65,65,88,83,19,28,5,7,0.6,0.9
2026-03-08T2200,1590A,110.0376,40.5546,包头市,东河鸿龙湾,,29,27,64,20,41,55,55,83,75,33,48,8,10,0.8,0.8
2026-03-08T2200,3283A,109.9154,40.5684,包头市,滨河大厦,,22,11,44,3,23,69,69,86,83,16,36,6,9,0.4,0.6
2026-03-08T2200,3419A,109.9449,40.6259,包头市,包头市委党校,,22,16,39,15,21,65,65,89,83,19,26,7,8,0.3,0.2
2026-03-08T2200,3683A,109.8332,40.6577,包头市,昆区政府,,22,17,50,10,23,70,70,90,86,18,24,8,10,0.5,0.7
2026-03-08T2200,1931A,107.0802,34.3129,宝鸡市,竹园沟,,16,6,24,6,27,50,50,30,30,14,18,6,6,0.6,0.8
2026-03-08T2200,1933A,107.1429,34.3549,宝鸡市,监测站,,22,15,36,15,30,19,19,22,22,20,20,5,4,0.7,0.8
2026-03-08T2200,1934A,107.1172,34.3759,宝鸡市,技工学校,NA,NA,NA,42,13,36,36,36,25,25,12,20,3,3,0.8,1
2026-03-08T2200,1936A,107.2025,34.3518,宝鸡市,文理学院,,23,18,34,16,31,31,31,28,28,19,20,4,4,0.7,0.8
2026-03-08T2200,1937A,107.2396,34.3626,宝鸡市,三迪小学,,23,16,32,16,32,32,32,27,27,28,24,4,3,0.7,0.8
2026-03-08T2200,4155A,107.1721,34.3558,宝鸡市,滨河北路,,23,NA,34,16,30,28,28,25,25,17,20,4,4,0.7,0.8
2026-03-08T2200,4308A,107.3898,34.3601,宝鸡市,陈仓区北开路21号,NA,NA,NA,45,NA,36,NA,NA,26,NA,NA,16,NA,6,NA,0.9
2026-03-08T2200,1051A,115.4803,38.8568,保定市,游泳馆,细颗粒物(PM2.5),176,146,103,133,95,47,47,90,84,60,26,1,3,0.8,0.6
2026-03-08T2200,1052A,115.509,38.8895,保定市,华电二区,细颗粒物(PM2.5),163,146,89,124,83,32,32,90,80,62,31,3,3,0.8,0.5
2026-03-08T2200,1053A,115.4588,38.9037,保定市,接待中心,细颗粒物(PM2.5),166,155,105,126,90,43,43,84,75,44,21,3,2,0.9,0.6
2026-03-08T2200,1054A,115.4484,38.8344,保定市,地表水厂,细颗粒物(PM2.5),153,182,117,117,85,17,17,87,75,95,27,5,5,0.8,0.5
2026-03-08T2200,3581A,115.3136,38.9511,保定市,满城区生态环境分局,细颗粒物(PM2.5),147,153,116,111,85,29,29,91,70,60,32,5,5,0.7,0.3
2026-03-08T2200,3582A,115.4709,38.7628,保定市,清苑区第二中学,细颗粒物(PM2.5),160,171,119,122,89,35,35,83,75,69,31,3,4,0.8,0.6
2026-03-08T2200,3583A,115.6231,39.0223,保定市,徐水物探局,细颗粒物(PM2.5),186,174,126,140,96,41,41,83,72,52,30,2,2,0.8,0.6
2026-03-08T2200,4004A,115.4199,38.8665,保定市,双鹰农机,细颗粒物(PM2.5),203,174,119,153,90,56,56,98,93,54,30,7,6,1.0,0.7
2026-03-08T2200,4034A,115.515,38.8589,保定市,植保所站,细颗粒物(PM2.5),162,139,113,123,90,60,60,88,85,42,30,2,3,0.8,0.6
2026-03-08T2200,2594A,99.1589,25.1137,保山市,市环境监测站,细颗粒物(PM2.5),100,78,75,60,57,102,102,133,124,10,10,1,3,0.4,0.4
2026-03-08T2200,2595A,99.1616,25.1381,保山市,市环保局,细颗粒物(PM2.5),96,73,82,58,62,104,104,130,122,6,8,4,4,0.7,0.7
2026-03-08T2200,1867A,109.1435,21.4085,北海市,海滩公园,颗粒物(PM10),51,51,46,19,18,109,109,125,120,11,9,6,4,0.4,0.4
2026-03-08T2200,1868A,109.0983,21.466,北海市,新市环保局,,47,47,46,17,18,105,105,121,115,12,11,9,8,0.5,0.5
2026-03-08T2200,1869A,109.1775,21.5232,北海市,北海工业园,颗粒物(PM10),61,65,53,32,26,82,82,114,103,14,10,7,7,0.6,0.7
2026-03-08T2200,3400A,109.1844,21.4396,北海市,龙潭自来水厂,颗粒物(PM10),51,51,47,19,20,98,98,115,110,8,8,11,10,0.8,0.8
2026-03-08T2200,1001A,116.3611,39.8786,北京市,万寿西宫,,27,6,71,3,54,84,84,94,94,13,31,1,2,0.2,0.5
2026-03-08T2200,1003A,116.4174,39.9289,北京市,东四,,20,6,73,3,54,63,63,81,79,14,27,4,5,0.3,0.6
2026-03-08T2200,1004A,116.4073,39.8858,北京市,天坛,,22,6,67,3,51,69,69,86,84,15,27,2,3,0.6,0.9
2026-03-08T2200,1005A,116.4622,39.9364,北京市,农展馆,,26,6,70,3,50,81,81,92,90,5,26,4,5,0.3,0.7
2026-03-08T2200,1006A,116.3399,39.9293,北京市,官园,,21,6,70,3,51,65,65,80,79,15,29,4,5,0.4,0.6
2026-03-08T2200,1007A,116.2879,39.9613,北京市,海淀万柳,,21,6,70,3,54,65,65,75,74,14,35,2,3,0.3,0.6
2026-03-08T2200,1008A,116.6635,40.1349,北京市,顺义新城,,27,6,65,3,47,85,85,96,95,5,20,3,4,0.2,0.5
2026-03-08T2200,1009A,116.6275,40.327,北京市,怀柔镇,,25,6,60,3,46,80,80,86,85,6,19,4,5,0.4,0.7
2026-03-08T2200,1010A,116.2295,40.217,北京市,昌平镇,,25,6,73,3,55,77,77,68,68,9,31,2,3,0.4,0.7
2026-03-08T2200,1011A,116.3968,39.982,北京市,奥体中心,,23,6,68,3,48,71,71,79,78,6,24,3,4,0.3,0.7
2026-03-08T2200,3418A,116.8336,40.4095,北京市,密云新城,,26,6,66,3,49,81,81,89,87,6,20,3,3,0.3,0.5
2026-03-08T2200,3671A,116.0879,39.9725,北京市,门头沟三家店,,24,6,86,3,65,76,76,83,83,12,25,3,3,0.3,0.6
2026-03-08T2200,3672A,116.1507,39.8246,北京市,丰台云岗,,25,6,83,3,64,77,77,90,88,12,27,2,3,0.3,0.7
2026-03-08T2200,3674A,115.9578,39.7602,北京市,房山燕山,,24,6,88,3,71,75,75,79,79,11,21,3,3,0.2,0.6
2026-03-08T2200,3675A,116.4669,39.7734,北京市,大兴旧宫,,24,6,77,3,55,76,76,87,86,11,24,3,4,0.3,0.6
2026-03-08T2200,3694A,115.9859,40.4562,北京市,延庆石河营,,25,6,68,3,57,77,77,82,82,7,24,2,2,0.3,0.6
2026-03-08T2200,3695A,116.6151,40.3052,北京市,怀柔新城,,26,6,62,3,49,82,82,89,88,10,18,3,3,0.2,0.5
2026-03-08T2200,3696A,116.2542,39.8764,北京市,丰台小屯,,22,6,76,3,55,70,70,80,80,14,33,3,4,0.2,0.5
2026-03-08T2200,3697A,116.8399,40.3843,北京市,密云镇,,26,6,64,3,49,82,82,88,86,3,19,4,4,0.3,0.6
2026-03-08T2200,4057A,115.9423,40.4431,北京市,延庆百泉,,26,6,68,3,54,83,83,84,84,8,24,3,3,0.3,0.6
2026-03-08T2200,4058A,116.6598,39.9164,北京市,通州新华,,24,6,71,3,48,76,76,93,91,15,31,3,4,0.3,0.6
2026-03-08T2200,4182A,116.1942,39.9158,北京市,石景山八角,,23,6,72,3,49,72,72,80,79,6,30,3,3,0.1,0.5
2026-03-08T2200,4194A,117.078628,40.151726,北京市,平谷新城,,26,6,55,3,41,82,82,90,89,9,22,1,2,0.2,0.5
2026-03-08T2200,1761A,123.8274146,41.31234549,本溪市,大峪,细颗粒物(PM2.5),125,130,92,87,51,45,45,84,68,32,37,10,11,1.2,1.1
2026-03-08T2200,1763A,123.7169,41.3094,本溪市,彩屯,细颗粒物(PM2.5),130,139,106,93,75,78,78,89,79,20,34,11,15,0.9,1.4
2026-03-08T2200,1764A,123.7672166,41.28649327,本溪市,东明,细颗粒物(PM2.5),139,102,81,102,62,59,59,82,73,40,42,12,12,1.1,1.2
2026-03-08T2200,1765A,123.799345,41.266614,本溪市,新立屯,细颗粒物(PM2.5),127,NA,60,89,49,5,5,90,53,74,37,7,8,1.4,1
2026-03-08T2200,1766A,123.829144,41.336777,本溪市,威宁,细颗粒物(PM2.5),145,185,99,109,55,2,2,87,59,73,33,6,8,1.2,1
2026-03-08T2200,2587A,105.287,27.3133,毕节市,八中,,13,8,21,3,14,40,40,36,32,6,12,9,10,0.7,0.7
2026-03-08T2200,2588A,105.3079,27.2987,毕节市,师专,,13,NA,8,8,11,40,40,42,38,9,12,8,9,0.6,0.5
2026-03-08T2200,4263A,105.3688,27.3598,毕节市,工业大道,,15,NA,17,10,10,44,44,36,31,6,9,10,9,/,/
2026-03-08T2200,1629A,117.9961,37.3604,滨州市,第二水厂,细颗粒物(PM2.5),163,144,85,124,65,39,39,91,81,38,43,11,15,0.6,0.4
2026-03-08T2200,1630A,117.9789,37.3931,滨州市,北中新校,细颗粒物(PM2.5),152,141,87,116,63,46,46,88,79,32,43,10,16,0.5,0.4
2026-03-08T2200,3514A,117.9379,37.3959,滨州市,中海酒店,细颗粒物(PM2.5),168,139,92,127,69,55,55,92,82,30,44,9,15,0.8,0.7
2026-03-08T2200,3515A,117.9381509,37.35547456,滨州市,开发区一中,细颗粒物(PM2.5),160,144,92,122,66,57,57,89,81,19,37,11,20,0.9,0.8
2026-03-08T2200,3516A,118.0914,37.6938,滨州市,金海六路,细颗粒物(PM2.5),175,146,88,132,74,46,46,91,78,35,37,4,11,1.1,0.9
2026-03-08T2200,4028A,117.9955,37.3752,滨州市,滨州市西街道办事处,细颗粒物(PM2.5),165,144,87,125,65,42,42,92,82,28,31,13,18,0.8,0.6
2026-03-08T2200,2311A,115.8071,33.8399,亳州市,污水处理厂,细颗粒物(PM2.5),114,106,74,75,56,72,72,102,97,32,28,6,6,0.2,0.2
2026-03-08T2200,2312A,115.7789,33.8519,亳州市,三国揽胜宫,细颗粒物(PM2.5),122,132,89,84,57,47,47,94,88,43,25,6,6,0.4,0.2
2026-03-08T2200,3332A,115.7631,33.803,亳州市,亳州学院,细颗粒物(PM2.5),118,106,77,79,50,72,72,100,97,30,19,7,5,0.4,0.2
2026-03-08T2200,2693A,82.0482,44.8553,博尔塔拉蒙古自治州,市党校,颗粒物(PM10),62,66,59,33,28,73,73,90,89,24,16,2,3,0.4,0.4
2026-03-08T2200,2694A,82.0805,44.8966,博尔塔拉蒙古自治州,市环保局,细颗粒物(PM2.5),74,62,51,47,40,74,74,85,85,35,24,1,2,0.8,0.7
2026-03-08T2200,1071A,116.8733,38.2922,沧州市,沧县城建局,细颗粒物(PM2.5),169,162,113,128,94,44,44,78,72,47,32,5,6,1.0,0.7
2026-03-08T2200,1072A,116.8462,38.3189,沧州市,电视转播站,细颗粒物(PM2.5),198,173,112,148,102,7,7,80,66,87,37,1,3,1.0,0.7
2026-03-08T2200,1073A,116.8588,38.3161,沧州市,市环保局,细颗粒物(PM2.5),188,187,122,141,91,9,9,75,64,95,36,4,8,1.0,0.7
2026-03-08T2200,3324A,116.8011,38.294,沧州市,河北水利电力学院,细颗粒物(PM2.5),172,149,118,130,100,57,57,74,73,35,29,4,6,0.8,0.7
2026-03-08T2200,2622A,97.1813,31.1289,昌都市,昌都监测站,颗粒物(PM10),65,70,52,25,15,72,72,92,89,18,10,4,3,0.8,0.7
2026-03-08T2200,3719A,97.1707,31.1428,昌都市,昌都会议中心,,47,47,43,18,19,86,86,94,93,5,4,6,6,0.5,0.5
2026-03-08T2200,2692A,87.2722,44.0298,昌吉回族自治州,新区政务中心,细颗粒物(PM2.5),145,NA,112,109,112,115,115,153,149,24,32,5,6,0.7,0.9
2026-03-08T2200,3613A,87.3069,44.0093,昌吉回族自治州,亚心广场,细颗粒物(PM2.5),153,122,138,117,111,132,132,157,156,20,27,7,9,0.8,1
2026-03-08T2200,4164A,87.2057,43.9289,昌吉回族自治州,财政所,细颗粒物(PM2.5),172,167,132,130,96,114,114,148,144,27,16,7,7,1.0,1
2026-03-08T2200,1120A,125.2874,43.9024,长春市,客车厂,细颗粒物(PM2.5),124,NA,67,86,55,28,28,91,71,75,35,11,12,0.9,0.6
2026-03-08T2200,1121A,125.2943,43.8508,长春市,邮电学院,细颗粒物(PM2.5),92,63,61,56,49,73,73,92,87,26,28,10,11,0.6,0.6
2026-03-08T2200,1122A,125.3648,43.8745,长春市,劳动公园,细颗粒物(PM2.5),110,100,81,70,52,68,68,92,84,34,32,11,10,0.9,0.7
2026-03-08T2200,1123A,125.3233,43.8781,长春市,园林处,细颗粒物(PM2.5),100,69,64,60,51,70,70,92,86,30,26,11,10,0.5,0.5
2026-03-08T2200,1124A,125.4604,43.7904,长春市,净月潭,细颗粒物(PM2.5),72,56,56,46,41,80,80,100,91,14,13,7,8,0.5,0.4
2026-03-08T2200,1126A,125.38,43.8422,长春市,经开区环卫处,细颗粒物(PM2.5),124,117,70,86,50,5,5,97,76,98,36,8,8,1.1,0.7
2026-03-08T2200,1127A,125.234,43.7761,长春市,高新区管委会,细颗粒物(PM2.5),130,127,78,93,58,16,16,98,76,75,32,9,8,1.1,0.8
2026-03-08T2200,1128A,125.1695,43.83,长春市,岱山公园,细颗粒物(PM2.5),139,NA,68,102,52,34,34,93,75,69,41,14,9,1.1,0.7
2026-03-08T2200,4281A,125.334645,43.916281,长春市,北亚泰大街1068号,细颗粒物(PM2.5),113,90,69,74,52,32,32,88,72,69,40,12,11,0.8,0.7
2026-03-08T2200,1335A,113.082,28.2421,长沙市,经开区环保局,,40,40,45,28,32,24,24,49,28,27,21,3,2,0.6,0.6
2026-03-08T2200,1336A,112.8873,28.2202,长沙市,高开区环保局,,45,36,44,31,42,43,43,53,42,13,14,4,4,0.7,0.7
2026-03-08T2200,1337A,113.0785,28.2012,长沙市,马坡岭,细颗粒物(PM2.5),56,44,45,38,42,29,29,49,33,21,18,4,4,0.8,0.8
2026-03-08T2200,1338A,112.9448,28.1894,长沙市,湖南师范大学,,42,42,49,24,36,47,47,60,48,18,17,4,4,0.7,0.7
2026-03-08T2200,1339A,113.0177,28.1322,长沙市,雨花区环保局,,36,36,43,24,32,39,39,52,40,19,18,3,3,1.0,0.9
2026-03-08T2200,1340A,112.9795,28.2593,长沙市,伍家岭,,49,40,47,34,43,44,44,59,42,15,13,3,4,0.7,0.7
2026-03-08T2200,1341A,113.002,28.1944,长沙市,火车新站,,35,34,40,24,37,43,43,57,43,15,15,2,2,0.7,0.7
2026-03-08T2200,1342A,112.9846,28.1177,长沙市,天心区环保局,,48,38,41,33,39,41,41,58,43,17,16,5,5,0.6,0.6
2026-03-08T2200,1343A,112.8906,28.1307,长沙市,湖南中医药大学,,45,38,46,31,39,46,46,59,45,14,14,5,5,0.8,0.8
2026-03-08T2200,1727A,113.1146,36.1547,长治市,清华站,颗粒物(PM10),63,68,54,41,48,33,33,61,49,28,19,9,7,1.0,0.9
2026-03-08T2200,1730A,113.0887,36.2126,长治市,审计局,细颗粒物(PM2.5),88,70,51,54,53,36,36,62,50,25,19,8,7,0.8,0.7
2026-03-08T2200,1731A,113.0845,36.1856,长治市,长治八中,细颗粒物(PM2.5),78,76,60,49,54,24,24,59,48,30,15,10,9,0.9,0.8
2026-03-08T2200,2845A,113.1561,36.1912,长治市,德盛苑,细颗粒物(PM2.5),60,45,53,40,54,50,50,68,62,18,16,8,7,0.8,0.9
2026-03-08T2200,3568A,113.0603,36.0464,长治市,向阳小学,颗粒物(PM10),89,104,87,52,54,35,35,68,63,40,19,11,9,1.1,1
2026-03-08T2200,3569A,112.8788,36.315,长治市,屯留一中,细颗粒物(PM2.5),86,56,51,53,43,35,35,62,47,33,24,5,4,1.1,0.7
2026-03-08T2200,4189A,113.113092,36.199482,长治市,英华南巷50号,细颗粒物(PM2.5),62,63,56,41,51,36,36,64,53,27,18,8,7,0.8,0.7
2026-03-08T2200,4190A,113.23666,36.33435,长治市,学府街1号,颗粒物(PM10),72,80,57,41,49,2,2,69,49,61,18,5,4,1.1,0.9
2026-03-08T2200,1854A,111.696,28.9725,常德市,市二中,细颗粒物(PM2.5),106,82,72,66,56,44,44,45,44,13,12,6,6,1.0,1
2026-03-08T2200,3138A,111.7152,29.0288,常德市,武陵区永安,细颗粒物(PM2.5),106,86,72,66,57,43,43,45,44,18,15,4,4,0.8,0.8
2026-03-08T2200,3139A,111.6891,28.9881,常德市,鼎城区玉霞,细颗粒物(PM2.5),105,79,68,65,52,46,46,47,46,19,17,6,6,0.8,0.8
2026-03-08T2200,3140A,111.6651,29.0526,常德市,武陵区长庚,细颗粒物(PM2.5),108,75,66,68,58,39,39,45,44,17,13,5,5,0.9,0.9
2026-03-08T2200,1196A,119.9524,31.7586,常州市,市监测站,颗粒物(PM10),56,58,41,22,13,45,45,80,56,44,31,8,7,0.7,0.6
2026-03-08T2200,1200A,119.9351,31.703,常州市,武进监测站,颗粒物(PM10),55,56,36,29,15,43,43,93,66,46,24,10,7,0.5,0.4
2026-03-08T2200,3002A,119.9701,31.813,常州市,行政中心,颗粒物(PM10),63,67,53,31,17,45,45,71,53,40,31,7,6,0.5,0.4
2026-03-08T2200,3003A,120.0434,31.7726,常州市,经开区,颗粒物(PM10),62,66,45,27,16,54,54,82,52,36,31,14,14,0.6,0.6
2026-03-08T2200,3010A,119.8919,31.7892,常州市,钟楼,颗粒物(PM10),53,54,40,25,16,57,57,89,68,37,29,10,8,0.7,0.4
2026-03-08T2200,3429A,119.8595,31.706,常州市,武进经发区,颗粒物(PM10),55,57,38,31,20,44,44,97,71,44,26,11,8,0.7,0.5
2026-03-08T2200,3430A,119.5812,31.7256,常州市,金坛城区,颗粒物(PM10),60,64,43,36,24,39,39,100,74,43,21,16,9,1.1,0.7
2026-03-08T2200,4089A,119.9551,31.863,常州市,崇义南街5-H号,颗粒物(PM10),58,61,42,32,16,46,46,73,56,29,24,6,6,0.5,0.4
2026-03-08T2200,2220A,120.4318,41.588,朝阳市,西梁,,44,44,50,16,30,60,60,83,77,24,24,9,11,0.6,0.7
2026-03-08T2200,2221A,120.452,41.565,朝阳市,河畔小区,,32,32,39,11,27,68,68,83,80,19,18,8,11,0.5,0.7
2026-03-08T2200,2222A,120.4176,41.5648,朝阳市,八里堡,,28,28,48,3,32,73,73,84,82,16,23,9,12,0.3,0.5
2026-03-08T2200,3026A,116.6179,23.6608,潮州市,市政府,,31,31,46,18,24,87,87,118,112,10,8,9,9,0.4,0.4
2026-03-08T2200,4036A,116.646,23.676,潮州市,金山,,29,29,41,16,22,90,90,115,112,9,9,3,3,0.4,0.5
2026-03-08T2200,2473A,113.0116,25.8228,郴州市,市职中,,9,6,54,3,48,11,11,41,16,18,15,3,3,0.8,0.8
2026-03-08T2200,2475A,113.0381,25.8074,郴州市,市审计局,,10,10,57,3,52,11,11,43,20,15,13,3,3,/,/
2026-03-08T2200,2476A,113.0348,25.7757,郴州市,市环保局,,11,10,60,3,53,18,18,50,25,22,20,4,4,0.7,0.6
2026-03-08T2200,4252A,113.0138,25.8011,郴州市,好美居路49号,,9,6,50,3,48,19,19,50,25,18,18,6,5,/,/
2026-03-08T2200,1431A,103.9727,30.7242,成都市,金泉两河,,42,39,37,29,28,11,11,47,32,26,17,2,2,0.5,0.4
2026-03-08T2200,1432A,104.1423,30.6765,成都市,十里店,,45,45,39,31,28,9,9,34,22,28,19,3,4,0.6,0.4
2026-03-08T2200,1433A,104.0594,30.5765,成都市,三瓦窑,颗粒物(PM10),53,54,33,31,26,20,20,48,36,21,14,2,2,0.7,0.6
2026-03-08T2200,1434A,104.1122,30.6306,成都市,沙河铺,,44,44,40,28,27,12,12,40,26,29,22,5,4,0.5,0.4
2026-03-08T2200,2880A,104.0219,30.6561,成都市,大石西路,,43,36,43,30,29,13,13,46,31,28,18,4,4,0.7,0.5
2026-03-08T2200,3136A,104.2724,30.559,成都市,龙泉驿区区政府,,39,27,27,27,24,26,26,51,38,19,11,6,6,0.6,0.5
2026-03-08T2200,3357A,104.0028,30.6891,成都市,金博路,,40,NA,30,28,28,9,9,44,29,32,23,6,6,0.8,0.7
2026-03-08T2200,3359A,104.056,30.5228,成都市,华阳,,33,24,34,23,24,24,24,49,38,27,20,3,3,0.8,0.7
2026-03-08T2200,3488A,104.387954,30.746684,成都市,青石路225号,,43,41,38,30,26,7,7,50,33,25,16,3,4,0.8,0.7
2026-03-08T2200,3489A,104.0788,30.4054,成都市,科学城,,33,31,30,23,22,31,31,55,43,13,10,6,7,0.8,0.7
2026-03-08T2200,4011A,103.8505,30.6946,成都市,光华大道三段,,33,NA,37,23,22,17,17,50,36,30,21,3,3,0.7,0.5
2026-03-08T2200,4144A,104.3257,30.6406,成都市,八角井街185号,颗粒物(PM10),52,52,44,28,26,7,7,47,32,24,16,4,4,0.7,0.6
2026-03-08T2200,4224A,104.2433276,30.53529463,成都市,鲸龙路1057号,,40,40,35,28,24,18,18,50,37,26,15,5,5,0.6,0.5
2026-03-08T2200,1062A,117.9531,40.908,承德市,铁路,,25,17,71,3,49,77,77,86,83,11,30,1,3,0.2,0.7
2026-03-08T2200,1063A,117.9397,40.9763,承德市,中国银行,,22,13,65,3,43,70,70,85,80,8,23,1,2,0.3,0.6
2026-03-08T2200,4073A,117.9462,40.95,承德市,杏林街1号,,24,14,73,7,55,76,76,89,86,7,21,3,4,0.2,0.6
2026-03-08T2200,4274A,117.7994,40.9605,承德市,滨河大街98号,,27,24,50,13,44,84,84,94,90,9,21,2,5,0.2,0.5
2026-03-08T2200,2314A,117.4698,30.6617,池州市,池州学院,细颗粒物(PM2.5),103,81,68,63,53,81,81,104,99,30,23,5,6,0.8,0.8
2026-03-08T2200,3237A,117.4918,30.6617,池州市,展览馆,细颗粒物(PM2.5),102,84,70,62,49,58,58,100,92,44,25,6,6,0.7,0.7
2026-03-08T2200,3333A,117.5626,30.695,池州市,第八中学,细颗粒物(PM2.5),96,85,71,58,49,65,65,94,86,44,30,6,6,0.7,0.6
2026-03-08T2200,3334A,117.5037,30.6242,池州市,第十二中学,细颗粒物(PM2.5),98,85,72,59,50,54,54,99,91,48,30,7,6,0.9,0.8
2026-03-08T2200,1744A,118.9229,42.2816,赤峰市,松山一中,,17,13,40,7,36,52,52,66,61,17,17,4,4,0.6,0.7
2026-03-08T2200,1745A,118.9588,42.2733,赤峰市,哈达街,,18,13,40,10,31,57,57,74,68,15,16,9,10,0.6,0.7
2026-03-08T2200,1746A,118.8792,42.2551,赤峰市,天义路,,20,8,32,8,32,61,61,86,76,22,14,5,6,0.6,0.5
2026-03-08T2200,3058A,119.2656,42.0356,赤峰市,银河街,,27,25,58,3,41,84,84,92,88,6,11,9,12,0.5,0.8
2026-03-08T2200,3286A,118.9359,42.3146,赤峰市,桥北物流园区,,19,17,38,11,32,42,42,86,74,37,18,4,4,0.7,0.7
2026-03-08T2200,2521A,107.3473,22.4137,崇左市,市环保局江州分局,细颗粒物(PM2.5),72,61,51,46,33,78,78,93,88,12,12,5,5,0.9,0.9
2026-03-08T2200,4256A,107.375,22.3736,崇左市,石景林东路7号,细颗粒物(PM2.5),86,71,42,53,30,75,75,94,89,15,12,6,5,1.1,1
2026-03-08T2200,3207A,118.31131,32.3033,滁州市,市政府原办公楼,细颗粒物(PM2.5),80,58,46,50,38,64,64,92,86,31,22,5,6,0.8,0.7
2026-03-08T2200,3331A,118.3268,32.2633,滁州市,图书馆,颗粒物(PM10),60,64,45,36,27,67,67,90,85,29,21,8,9,0.5,0.4
2026-03-08T2200,4101A,118.3196,32.3335,滁州市,银山路666号,细颗粒物(PM2.5),54,54,42,37,29,72,72,100,94,24,19,5,7,0.6,0.6
2026-03-08T2200,4102A,118.3426,32.2979,滁州市,黄山路555号,颗粒物(PM10),67,73,56,40,31,62,62,97,90,40,25,5,7,0.6,0.6
2026-03-08T2200,2606A,101.5379,25.0492,楚雄彝族自治州,市经济开发区,细颗粒物(PM2.5),86,73,78,53,58,119,119,123,122,10,13,4,5,0.7,0.7
2026-03-08T2200,4153A,101.5536,25.0343,楚雄彝族自治州,团结路562号,细颗粒物(PM2.5),74,56,65,47,52,134,134,136,136,5,9,6,7,0.5,0.6
2026-03-08T2200,2549A,107.5087,31.2186,达州市,市环境监测站,,35,35,36,14,15,2,2,39,32,48,25,5,5,0.6,0.3
2026-03-08T2200,2550A,107.4988,31.2132,达州市,凤凰小区,,36,36,32,13,15,18,18,41,38,44,25,5,4,0.6,0.4
2026-03-08T2200,2551A,107.5081,31.1987,达州市,达县机关宾馆,,31,31,32,11,16,3,3,41,31,50,30,4,3,0.7,0.5
2026-03-08T2200,2552A,107.4644,31.2124,达州市,市政中心,,35,35,39,13,13,22,22,42,40,37,26,4,4,0.6,0.5
2026-03-08T2200,2614A,100.2168,25.5818,大理白族自治州,大理市环境监测站,细颗粒物(PM2.5),90,61,61,55,55,119,119,118,118,7,8,7,7,0.5,0.5
2026-03-08T2200,2615A,100.1542,25.7055,大理白族自治州,大理古城,细颗粒物(PM2.5),52,51,67,36,47,122,122,117,117,5,9,8,8,0.6,0.7
2026-03-08T2200,1109A,121.6119,38.974,大连市,甘井子,细颗粒物(PM2.5),119,107,76,80,51,49,49,72,66,35,27,10,12,0.8,0.6
2026-03-08T2200,1110A,121.565,38.9509,大连市,周水子,细颗粒物(PM2.5),130,106,61,92,52,42,42,74,67,40,27,9,11,1.1,0.7
2026-03-08T2200,1111A,121.5637,38.8849,大连市,星海三站,细颗粒物(PM2.5),128,100,54,90,51,44,44,63,62,26,17,9,8,0.9,0.6
2026-03-08T2200,1112A,121.6301,38.9117,大连市,青泥洼桥,NA,NA,118,64,NA,49,44,44,83,69,42,20,9,7,1.1,0.6
2026-03-08T2200,1113A,121.6248,38.8643,大连市,傅家庄,细颗粒物(PM2.5),124,120,62,86,41,53,53,75,62,28,19,6,5,1.0,0.7
2026-03-08T2200,1114A,121.5117,38.8636,大连市,七贤岭,细颗粒物(PM2.5),132,108,51,95,46,66,66,82,79,25,18,8,8,1.1,0.8
2026-03-08T2200,1116A,121.7507,39.1339,大连市,金州,细颗粒物(PM2.5),122,114,63,84,47,46,46,84,53,38,24,6,7,0.9,0.6
2026-03-08T2200,1117A,121.7811,39.0495,大连市,开发区,细颗粒物(PM2.5),114,81,51,75,46,46,46,72,50,32,29,3,5,0.9,0.6
2026-03-08T2200,1118A,121.9762,39.0631,大连市,双D港,细颗粒物(PM2.5),130,94,52,92,44,58,58,77,60,37,32,7,7,0.4,0.5
2026-03-08T2200,4082A,121.2548,38.8188,大连市,旅顺,细颗粒物(PM2.5),127,113,51,89,42,37,37,71,52,32,20,6,6,1.1,0.8
2026-03-08T2200,1789A,124.8085,46.0381,大庆市,大同区,,43,35,55,30,32,71,71,89,81,14,15,10,11,0.6,0.6
2026-03-08T2200,1790A,125.1166,46.5255,大庆市,龙凤区,细颗粒物(PM2.5),80,59,65,50,45,95,95,85,85,20,25,5,9,0.4,0.4
2026-03-08T2200,1791A,124.8894,46.4007,大庆市,红岗区,NA,NA,60,51,47,37,NA,NA,76,NA,22,26,9,8,0.8,0.6
2026-03-08T2200,1792A,125.1391,46.578,大庆市,萨尔图区,细颗粒物(PM2.5),86,73,65,53,37,109,109,94,94,16,23,6,8,0.7,0.7
2026-03-08T2200,1793A,124.9026,46.6217,大庆市,让胡路区,细颗粒物(PM2.5),101,62,53,61,44,82,82,73,73,31,36,8,11,0.7,0.7
2026-03-08T2200,3481A,125.127,46.6277,大庆市,萨区政府监测点,细颗粒物(PM2.5),101,84,62,61,39,113,113,96,96,13,20,9,11,0.8,0.8
2026-03-08T2200,1723A,113.2926,40.0759,大同市,云冈宾馆,,20,17,49,3,25,63,63,85,79,13,19,5,8,0.7,0.7
2026-03-08T2200,1724A,113.3437,40.0921,大同市,大同大学,,23,15,58,6,30,71,71,94,86,13,21,2,8,0.3,0.7
2026-03-08T2200,1725A,113.2637,40.129,大同市,安家小村,,21,16,63,7,29,67,67,81,76,12,25,6,9,0.3,0.8
2026-03-08T2200,3282A,113.3399,40.0586,大同市,大同市卫生学校,,26,NA,66,18,34,77,77,97,90,7,19,3,7,0.4,0.7
2026-03-08T2200,3565A,113.1371,40.1122,大同市,云冈站,,26,26,53,13,26,70,70,85,81,10,22,5,8,0.3,0.5
2026-03-08T2200,3566A,113.1186,40.2556,大同市,图书馆,,25,18,55,17,29,62,62,82,77,11,16,12,7,0.4,0.6
2026-03-08T2200,3567A,113.5931,40.0459,大同市,区一中,,30,30,74,20,42,75,75,95,89,7,18,6,11,0.6,0.8
2026-03-08T2200,4199A,113.2798248,40.09972476,大同市,魏都大道141号,,23,23,66,16,31,67,67,90,84,15,21,8,10,0.7,0.8
2026-03-08T2200,2269A,124.1068,50.4091,大兴安岭地区,科技局,,38,38,30,20,17,64,64,83,72,10,9,8,8,0.4,0.3
2026-03-08T2200,3663A,124.117,50.4279,大兴安岭地区,红旗社区,细颗粒物(PM2.5),144,119,31,108,28,31,31,84,62,42,22,15,14,0.9,0.5
2026-03-08T2200,1600A,124.33,40.0625,丹东市,江湾东路,细颗粒物(PM2.5),117,99,58,78,43,45,45,86,71,38,22,12,14,1.6,1.1
2026-03-08T2200,1601A,124.4242,40.1513,丹东市,临江后街,细颗粒物(PM2.5),121,98,54,83,43,40,40,84,74,40,23,13,14,1.5,0.9
2026-03-08T2200,1602A,124.3935,40.1461,丹东市,元宝山,细颗粒物(PM2.5),64,53,47,42,36,93,93,84,84,15,21,8,9,0.7,0.8
2026-03-08T2200,1603A,124.3634,40.1093,丹东市,民主桥,细颗粒物(PM2.5),134,115,64,97,45,30,30,82,66,47,31,8,8,1.2,0.8
2026-03-08T2200,3541A,109.5726195,19.51688767,儋州市,第一中学子站,,33,33,34,15,14,68,68,83,77,2,2,6,6,0.4,0.4
2026-03-08T2200,3542A,109.5567,19.5187,儋州市,东坡学校子站,,32,32,35,19,15,72,72,86,80,3,3,4,4,0.5,0.6
2026-03-08T2200,2616A,98.5611,24.4273,德宏傣族景颇族自治州,德宏州监测站,细颗粒物(PM2.5),138,118,102,101,89,28,28,100,93,50,30,7,7,1.5,1
2026-03-08T2200,3677A,98.5887,24.4366,德宏傣族景颇族自治州,芒市人民政府综合楼,细颗粒物(PM2.5),122,111,119,84,81,73,73,107,105,14,19,4,5,0.8,0.9
2026-03-08T2200,1901A,104.424,31.1209,德阳市,东山公园,,39,30,33,27,26,19,19,39,24,20,16,1,2,0.6,0.5
2026-03-08T2200,1902A,104.3827,31.1318,德阳市,西小区,NA,NA,48,48,30,26,4,4,44,22,40,20,NA,4,0.8,0.6
2026-03-08T2200,1904A,104.3553,31.1091,德阳市,耐火材料厂,,48,42,43,33,30,3,3,42,25,36,22,1,2,0.7,0.6
2026-03-08T2200,4145A,104.4144,31.1495,德阳市,市林业局,,43,32,37,30,26,4,4,40,20,38,20,5,5,0.8,0.6
2026-03-08T2200,1622A,116.3034,37.4675,德州市,儿童乐园,细颗粒物(PM2.5),152,202,116,116,100,11,11,95,77,80,23,15,12,1.4,0.7
2026-03-08T2200,1624A,116.2992,37.4449,德州市,监理站,细颗粒物(PM2.5),141,156,113,105,84,51,51,96,87,48,25,5,6,1.1,0.9
2026-03-08T2200,3066A,116.2722,37.438,德州市,九衢泉纯净水厂,细颗粒物(PM2.5),150,158,106,115,87,51,51,100,91,51,28,5,5,1.4,1
2026-03-08T2200,3371A,116.3693,37.44,德州市,开发区人民医院,细颗粒物(PM2.5),140,139,113,103,86,55,55,96,82,51,25,11,11,0.9,0.8
2026-03-08T2200,3511A,116.5687,37.3331,德州市,陵城艺术中心,细颗粒物(PM2.5),207,193,115,157,95,46,46,93,81,39,27,10,8,1.3,0.9
2026-03-08T2200,4292A,116.352738,37.420875,德州市,新河东路,细颗粒物(PM2.5),134,139,108,97,80,36,36,94,80,57,24,10,11,1.0,0.6
2026-03-08T2200,2621A,99.7054,27.8319,迪庆藏族自治州,迪庆州站,,38,35,50,26,29,104,104,101,101,7,9,6,10,0.6,0.6
2026-03-08T2200,3180A,99.7122,27.8129,迪庆藏族自治州,质量技术监督局,,31,31,40,21,30,98,98,98,98,7,8,6,5,0.2,0.5
2026-03-08T2200,4257A,104.6092,35.5962,定西市,将台街,,45,45,42,25,22,77,77,95,93,10,5,8,8,0.5,0.4
2026-03-08T2200,4309A,104.6159,35.5701,定西市,正龙路62号,,50,50,40,31,22,77,77,93,92,7,5,4,3,0.4,0.5
2026-03-08T2200,4071A,114.9883,38.5232,定州市,交通局,细颗粒物(PM2.5),150,154,109,115,86,71,71,95,93,35,29,8,9,0.8,0.7
2026-03-08T2200,4072A,115.0045,38.5136,定州市,第五中学,细颗粒物(PM2.5),145,163,120,109,83,74,74,89,88,29,28,7,8,0.7,0.7
2026-03-08T2200,1390A,113.7943,23.0132,东莞市,东城石井,颗粒物(PM10),71,79,55,44,28,123,123,152,145,35,22,6,6,0.7,0.6
2026-03-08T2200,1391A,113.7384,22.9659,东莞市,南城西平,颗粒物(PM10),60,64,54,33,28,125,125,157,151,24,24,8,8,0.7,0.6
2026-03-08T2200,3319A,113.7283,23.041,东莞市,万江金泰,细颗粒物(PM2.5),82,92,59,51,33,117,117,150,144,41,20,6,6,0.8,0.7
2026-03-08T2200,4129A,113.8666,23.1062,东莞市,裕兴路,细颗粒物(PM2.5),96,61,40,58,31,116,116,127,114,41,18,8,8,0.8,0.7
2026-03-08T2200,4130A,114.0076,22.9739,东莞市,教育路1号,,49,49,57,23,26,107,107,134,128,22,18,6,5,0.5,0.5
2026-03-08T2200,4131A,113.7981,22.8124,东莞市,长怡路1号,颗粒物(PM10),73,82,64,40,30,86,86,158,146,46,24,8,6,0.8,0.7
2026-03-08T2200,1666A,118.6612,37.4313,东营市,市环保局,细颗粒物(PM2.5),145,112,70,109,53,74,74,88,86,21,28,9,13,0.7,0.7
2026-03-08T2200,3036A,118.6903,37.4337,东营市,开发区管委会,细颗粒物(PM2.5),140,106,71,104,50,77,77,88,86,28,40,8,10,0.9,0.8
2026-03-08T2200,3365A,118.5721,37.5654,东营市,垦利区民丰路,细颗粒物(PM2.5),150,117,71,114,60,66,66,99,90,30,35,10,12,1.0,0.9
2026-03-08T2200,3498A,118.5063,37.8606,东营市,河口城区,NA,NA,NA,76,NA,56,NA,NA,100,NA,NA,24,NA,8,NA,1.0
2026-03-08T2200,3646A,118.4979,37.4623,东营市,胜利站,细颗粒物(PM2.5),142,129,79,106,56,61,61,84,79,25,38,7,11,1.3,1.1
2026-03-08T2200,3734A,118.5753,37.4405,东营市,理想之城,细颗粒物(PM2.5),128,117,78,90,53,66,66,101,93,33,35,4,8,1.0,0.9
2026-03-08T2200,1591A,110.0024,39.8127,鄂尔多斯市,综合楼,,46,46,60,20,28,60,60,92,88,29,23,9,9,0.4,0.5
2026-03-08T2200,1592A,109.9485,39.8259,鄂尔多斯市,巴音孟克林场办事处,,34,34,58,13,27,64,64,91,87,21,21,7,8,0.5,0.6
2026-03-08T2200,1593A,109.7734,39.5987,鄂尔多斯市,康泽苑,,34,34,46,12,26,75,75,109,106,16,14,10,7,0.4,0.5
2026-03-08T2200,1594A,109.8121,39.5987,鄂尔多斯市,华泰汽车城,,31,31,51,9,26,74,74,106,101,22,26,11,10,0.4,0.5
2026-03-08T2200,1595A,109.9734,39.7884,鄂尔多斯市,奥林花园,,41,41,65,14,26,68,68,94,90,22,28,8,8,0.4,0.5
2026-03-08T2200,2436A,114.894,30.3989,鄂州市,市政府,细颗粒物(PM2.5),98,94,68,59,49,39,39,61,43,30,25,11,10,1.2,0.8
2026-03-08T2200,2437A,114.8986,30.3714,鄂州市,赵家坝,细颗粒物(PM2.5),109,99,69,69,52,37,37,67,48,29,19,10,10,1.3,0.8
2026-03-08T2200,3654A,114.8093,30.4091,鄂州市,精准医疗中心,细颗粒物(PM2.5),86,69,58,53,44,51,51,70,60,25,20,8,13,1.0,0.9
2026-03-08T2200,2454A,109.4978,30.2979,恩施土家族苗族自治州,湖北民院,,24,24,17,16,10,29,29,42,36,20,13,6,6,0.7,0.7
2026-03-08T2200,3549A,109.5061,30.3771,恩施土家族苗族自治州,龙凤新区,,20,20,13,8,8,12,12,56,32,9,7,7,7,0.6,0.6
2026-03-08T2200,2499A,108.3411,21.6159,防城港市,沙万,颗粒物(PM10),66,72,67,28,25,81,81,99,95,26,16,8,7,0.6,0.5
2026-03-08T2200,2500A,108.3515,21.7733,防城港市,防城档案局,颗粒物(PM10),59,62,57,26,27,89,89,100,94,16,13,6,7,0.7,0.6
2026-03-08T2200,2501A,108.3506,21.6414,防城港市,大海花园,,48,48,49,28,28,100,100,114,110,14,13,7,7,0.5,0.5
2026-03-08T2200,1371A,113.1293,23.0065,佛山市,湾梁,细颗粒物(PM2.5),86,78,62,53,36,84,84,175,162,45,23,/,/,/,/
2026-03-08T2200,1372A,113.1082,23.0477,佛山市,华材职中,"颗粒物(PM10),细颗粒物(PM2.5)",74,83,66,47,37,105,105,165,159,34,23,6,6,0.7,0.6
2026-03-08T2200,1373A,113.1439,23.045,佛山市,南海气象局,细颗粒物(PM2.5),74,63,58,47,37,136,136,161,160,32,26,/,/,/,/
2026-03-08T2200,1374A,113.2879,22.8094,佛山市,顺德苏岗,颗粒物(PM10),65,71,58,37,31,98,98,184,173,32,19,/,/,0.7,0.7
2026-03-08T2200,1376A,112.8384,22.8678,佛山市,高明孔堂,,50,50,51,30,32,122,122,165,157,16,14,/,/,/,/
2026-03-08T2200,1377A,112.8835,23.1584,佛山市,三水监测站,细颗粒物(PM2.5),94,100,74,57,42,124,124,158,153,35,38,4,4,0.7,0.6
2026-03-08T2200,1378A,112.8668,23.185,佛山市,三水云东海,颗粒物(PM10),61,65,60,38,37,113,113,167,159,25,29,/,/,/,/
2026-03-08T2200,3625A,113.2568,22.7629,佛山市,容桂街道办,颗粒物(PM10),70,78,57,38,31,88,88,150,143,37,26,/,/,/,/
2026-03-08T2200,1282A,119.2681,26.0506,福州市,师大,,44,44,47,15,18,70,70,99,81,20,13,4,3,0.4,0.4
2026-03-08T2200,1283A,119.2983,26.1028,福州市,五四北路,,36,36,40,13,17,79,79,99,84,14,13,5,5,0.4,0.4
2026-03-08T2200,1284A,119.2648,26.0769,福州市,杨桥西路,,38,38,44,14,16,75,75,102,83,14,13,5,4,/,/
2026-03-08T2200,3048A,119.5799,26.0937,福州市,九龙,,31,31,39,3,8,80,80,98,93,18,11,6,5,0.4,0.4
2026-03-08T2200,3526A,119.5188,25.9666,福州市,吴航,,30,30,36,12,16,89,89,101,92,12,11,7,6,0.4,0.5
2026-03-08T2200,4104A,119.3106,26.0648,福州市,路通桥巷6号,,41,41,42,19,21,82,82,102,83,11,11,/,/,/,/
2026-03-08T2200,1755A,123.7974,41.8494,抚顺市,望花区,细颗粒物(PM2.5),137,139,106,100,67,34,34,97,77,58,38,13,10,1.2,1
2026-03-08T2200,1756A,123.9161,41.8827,抚顺市,顺城区,细颗粒物(PM2.5),145,117,78,109,63,34,34,96,81,57,39,11,11,1.2,0.9
2026-03-08T2200,1757A,124.0437,41.8615,抚顺市,东洲区,细颗粒物(PM2.5),136,134,78,99,55,54,54,92,81,35,22,13,12,1.1,0.8
2026-03-08T2200,1758A,123.9246,41.8638,抚顺市,新抚区,细颗粒物(PM2.5),131,134,94,94,60,65,65,104,92,36,36,13,10,1.0,0.8
2026-03-08T2200,1759A,124.0972,41.8961,抚顺市,大伙房水库,细颗粒物(PM2.5),133,115,69,96,51,55,55,99,82,39,24,12,12,1.2,0.8
2026-03-08T2200,1760A,123.708,41.8386,抚顺市,沈抚新城,细颗粒物(PM2.5),122,118,117,84,73,51,51,95,76,48,45,10,15,0.8,1.3
2026-03-08T2200,2377A,116.3544,27.9833,抚州市,市站,细颗粒物(PM2.5),72,55,57,46,46,60,60,77,71,12,8,6,8,0.9,0.9
2026-03-08T2200,2378A,116.3562,27.9631,抚州市,血防站,颗粒物(PM10),60,63,62,38,46,54,54,76,69,14,6,4,6,0.8,0.9
2026-03-08T2200,2379A,116.3561,28.0007,抚州市,采茶剧团,细颗粒物(PM2.5),72,55,56,46,45,55,55,71,64,11,7,6,7,1.1,1.2
2026-03-08T2200,2380A,116.3854,27.9648,抚州市,医学分院,细颗粒物(PM2.5),58,58,65,39,42,63,63,75,70,11,9,4,11,1.2,1.2
2026-03-08T2200,2207A,121.6095,41.9978,阜新市,工业园区,颗粒物(PM10),61,65,65,6,27,72,72,85,80,13,17,9,12,0.3,0.5
2026-03-08T2200,2208A,121.6567,42.0188,阜新市,长青街,,35,35,50,3,25,77,77,84,80,7,15,8,12,0.3,0.5
2026-03-08T2200,2209A,121.6672,42.07,阜新市,农业园区,,41,41,53,3,26,74,74,77,74,9,14,3,7,0.5,0.6
2026-03-08T2200,2211A,121.6343,42.0455,阜新市,玉龙新城,,48,48,54,3,24,74,74,84,80,12,22,10,8,0.3,0.5
2026-03-08T2200,2301A,115.8276,32.8929,阜阳市,市监测站,细颗粒物(PM2.5),112,103,70,73,47,66,66,103,96,30,21,4,5,0.5,0.4
2026-03-08T2200,2303A,115.8551,32.8606,阜阳市,开发区,细颗粒物(PM2.5),109,114,76,69,43,62,62,101,93,27,19,5,5,0.6,0.5
2026-03-08T2200,2875A,115.783962,32.889217,阜阳市,阜阳职业技术学院,细颗粒物(PM2.5),100,78,58,60,38,76,76,109,102,23,17,6,7,0.5,0.4
2026-03-08T2200,3468A,115.79,32.8614,阜阳市,市规划展馆,细颗粒物(PM2.5),108,79,62,68,45,86,86,114,108,17,14,7,7,0.6,0.5
2026-03-08T2200,3469A,115.835101,32.918568,阜阳市,枣园社区,细颗粒物(PM2.5),110,101,68,70,49,63,63,103,94,30,19,8,8,0.6,0.5
2026-03-08T2200,2669A,102.9097,34.9841,甘南藏族自治州,州政府,,25,23,52,12,36,77,77,67,67,9,21,3,3,0.3,0.6
2026-03-08T2200,3380A,102.8915,34.9618,甘南藏族自治州,甘肃民族师范学院,,30,NA,54,13,32,94,94,88,88,11,28,3,2,0.3,0.6
2026-03-08T2200,2570A,101.96,30.048,甘孜藏族自治州,水桥子,,18,7,11,3,2,55,55,62,60,4,8,3,3,0.5,0.5
2026-03-08T2200,3065A,101.9534,29.9976,甘孜藏族自治州,州环保局,,18,9,8,3,4,55,55,65,60,7,11,5,6,0.5,0.6
2026-03-08T2200,2363A,114.9368,25.8663,赣州市,地委,细颗粒物(PM2.5),68,51,50,44,40,59,59,79,77,13,15,2,3,0.9,0.9
2026-03-08T2200,2364A,114.946,25.8483,赣州市,气象台,NA,NA,62,56,42,43,NA,NA,83,NA,16,17,6,7,0.6,0.4
2026-03-08T2200,2365A,114.932,25.8332,赣州市,市图书馆,细颗粒物(PM2.5),62,50,49,41,41,61,61,74,72,13,13,4,4,0.6,0.6
2026-03-08T2200,2366A,114.8905,25.8472,赣州市,华坚鞋城,细颗粒物(PM2.5),60,58,52,40,41,63,63,77,74,14,13,5,6,0.5,0.4
2026-03-08T2200,3109A,115.0094,25.8614,赣州市,赣县区卫计委,细颗粒物(PM2.5),58,47,46,39,38,57,57,126,60,8,13,4,4,0.8,0.7
2026-03-08T2200,2684A,106.2753,36.0057,固原市,监测站,"颗粒物(PM10),细颗粒物(PM2.5)",58,60,39,39,31,37,37,74,67,36,27,10,9,1.1,1
2026-03-08T2200,2685A,106.2384,36.0189,固原市,新区,颗粒物(PM10),61,65,37,36,28,7,7,73,54,62,26,8,8,0.8,0.7
2026-03-08T2200,2544A,106.6307,30.4577,广安市,市委,,38,28,30,26,24,33,33,46,44,15,10,5,5,0.7,0.7
2026-03-08T2200,2545A,106.6266,30.4662,广安市,友谊中学,,37,37,29,22,19,36,36,47,46,12,10,8,10,0.9,0.8
2026-03-08T2200,2547A,106.6386,30.4551,广安市,广电花园,,35,31,33,24,23,32,32,44,42,15,12,8,8,0.8,0.7
2026-03-08T2200,2902A,106.6347,30.4868,广安市,北辰小学,,40,30,27,28,23,32,32,44,43,12,8,3,3,0.8,0.7
2026-03-08T2200,2524A,105.8211,32.4444,广元市,老城,,15,15,24,3,7,45,45,34,34,17,18,1,8,0.9,1
2026-03-08T2200,2526A,105.8629,32.429,广元市,监测站,,19,19,25,3,7,41,41,27,27,19,20,1,2,0.6,0.8
2026-03-08T2200,3617A,105.8047,32.4167,广元市,经开区,,12,8,16,6,12,38,38,32,32,16,18,2,3,0.8,0.9
2026-03-08T2200,1345A,113.2346,23.1423,广州市,广雅中学,细颗粒物(PM2.5),80,76,62,50,33,93,93,154,148,60,26,3,3,0.7,0.5
2026-03-08T2200,1346A,113.2611,23.105,广州市,市五中,颗粒物(PM10),65,71,42,41,24,84,84,177,162,53,28,7,7,/,/
2026-03-08T2200,1348A,113.3477,23.0916,广州市,广东商学院,细颗粒物(PM2.5),88,89,57,54,36,56,56,156,135,65,28,5,6,1.0,0.7
2026-03-08T2200,1349A,113.4332,23.105,广州市,市八十六中,颗粒物(PM10),84,97,59,43,28,72,72,163,141,89,41,6,7,/,/
2026-03-08T2200,1350A,113.3506,22.9488,广州市,番禺中学,颗粒物(PM10),100,119,80,53,40,88,88,173,163,51,23,3,3,0.5,0.4
2026-03-08T2200,1351A,113.2147,23.3918,广州市,花都师范,颗粒物(PM10),55,57,61,35,37,98,98,156,145,20,26,8,6,0.8,0.7
2026-03-08T2200,1352A,113.2599,23.1329,广州市,市监测站,颗粒物(PM10),71,79,63,45,34,60,60,151,139,88,28,1,2,/,/
2026-03-08T2200,1353A,113.5618,23.3119,广州市,九龙镇镇龙,细颗粒物(PM2.5),80,84,59,50,35,43,43,121,99,47,24,6,6,0.6,0.5
2026-03-08T2200,1354A,113.2764,23.1544,广州市,麓湖,颗粒物(PM10),55,57,58,34,32,54,54,154,135,60,21,3,3,0.7,0.7
2026-03-08T2200,2846A,113.3209,23.1323,广州市,体育西,细颗粒物(PM2.5),72,79,66,46,31,64,64,156,142,74,30,6,6,1.1,0.8
2026-03-08T2200,3298A,113.5718,23.5493,广州市,从化街口,细颗粒物(PM2.5),70,72,53,45,35,70,70,113,102,32,20,16,10,0.8,0.7
2026-03-08T2200,3299A,113.3463,23.369,广州市,白云竹料,细颗粒物(PM2.5),92,88,60,56,34,86,86,135,126,27,23,4,4,0.8,0.7
2026-03-08T2200,3300A,113.2981,23.2365,广州市,白云嘉禾,颗粒物(PM10),64,69,59,38,33,96,96,153,140,50,35,10,10,/,/
2026-03-08T2200,3301A,113.4256,23.1716,广州市,黄埔科学城,细颗粒物(PM2.5),72,70,57,46,36,56,56,150,132,43,24,8,8,0.7,0.6
2026-03-08T2200,3302A,113.3942,23.0485,广州市,番禺大学城,颗粒物(PM10),79,90,65,46,30,109,109,168,160,36,27,6,5,0.6,0.5
2026-03-08T2200,3303A,113.4923,22.8169,广州市,南沙黄阁,颗粒物(PM10),52,52,60,23,32,127,127,190,177,21,24,6,7,/,/
2026-03-08T2200,3304A,113.534,22.7893,广州市,南沙街,,47,47,59,24,30,110,110,175,161,11,11,9,7,0.6,0.6
2026-03-08T2200,3443A,113.2905,23.5541,广州市,花都梯面,NA,NA,47,50,NA,22,85,85,118,103,16,21,6,6,/,/
2026-03-08T2200,3445A,113.786,23.7479,广州市,从化良口,,32,29,29,22,24,52,52,93,81,11,12,4,4,/,/
2026-03-08T2200,3446A,113.805,23.2614,广州市,增城荔城,颗粒物(PM10),57,59,54,34,30,63,63,133,115,30,20,7,9,0.8,0.7
2026-03-08T2200,2506A,109.604387,23.066791,贵港市,江南子站,细颗粒物(PM2.5),137,151,93,100,54,56,56,92,83,24,23,7,10,1.1,0.8
2026-03-08T2200,2508A,109.5669,23.1065,贵港市,荷城子站,细颗粒物(PM2.5),145,132,81,109,61,43,43,79,69,28,22,8,10,1.2,0.8
2026-03-08T2200,3405A,109.5886,23.1172,贵港市,新世纪学校,细颗粒物(PM2.5),152,149,92,116,63,46,46,90,76,30,26,/,/,1.2,1
2026-03-08T2200,4260A,109.5933,23.095,贵港市,中山路155-3号,细颗粒物(PM2.5),152,159,89,116,58,NA,NA,97,94,24,19,/,/,1.2,1
2026-03-08T2200,1439A,106.6863,26.6035,贵阳市,马鞍山,,10,9,6,7,5,16,16,26,24,13,11,2,3,/,/
2026-03-08T2200,1441A,106.6241,26.6266,贵阳市,鉴湖路,,19,19,18,3,7,12,12,26,21,17,14,3,3,0.8,0.5
2026-03-08T2200,1442A,106.7468,26.6344,贵阳市,燕子冲,,15,NA,9,10,6,21,21,36,34,13,10,6,6,1.0,0.9
2026-03-08T2200,1443A,106.6556,26.4362,贵阳市,碧云窝,,15,12,12,10,6,23,23,30,25,16,15,7,9,/,/
2026-03-08T2200,1445A,106.6963,26.6063,贵阳市,红边门,,9,9,12,3,5,20,20,32,30,16,13,6,7,/,/
2026-03-08T2200,1446A,106.7162383,26.56964667,贵阳市,新华路,,12,12,18,7,4,26,26,35,32,14,13,3,3,0.6,0.6
2026-03-08T2200,1447A,106.6742,26.542,贵阳市,太慈桥,,10,9,8,7,5,17,17,28,25,18,15,3,3,/,/
2026-03-08T2200,4230A,106.688212,26.56952,贵阳市,花果园大街66号,,10,9,6,7,6,20,20,29,27,16,12,2,2,/,/
2026-03-08T2200,4231A,106.687268,26.516892,贵阳市,漓江路57号,,10,NA,5,7,6,20,20,31,26,19,16,8,7,0.9,0.9
2026-03-08T2200,1864A,110.3091,25.2705,桂林市,龙隐路小学,,14,8,28,7,24,43,43,63,49,13,14,3,3,1.0,1
2026-03-08T2200,1865A,110.2849361,25.22909545,桂林市,八中,,16,16,26,3,11,35,35,54,40,18,17,2,3,0.9,0.8
2026-03-08T2200,3531A,110.296,25.1254,桂林市,旅游学院,,26,26,37,8,22,30,30,61,45,25,15,4,4,0.8,0.8
2026-03-08T2200,4222A,110.1835,25.2444,桂林市,环湖路276号,,14,12,25,3,20,42,42,60,46,11,11,2,3,0.8,0.8
2026-03-08T2200,4301A,110.2803,25.2773,桂林市,信义路13号,,15,12,25,3,18,45,45,64,46,13,15,3,4,1.0,0.9
2026-03-08T2200,2674A,100.2262,34.4854,果洛藏族自治州,玛沁县大武镇,,32,30,40,10,13,101,101,100,100,2,3,18,19,0.1,0.4
2026-03-08T2200,1130A,126.5557,45.8109,哈尔滨市,松北商大,细颗粒物(PM2.5),84,74,51,52,39,51,51,101,88,32,20,10,10,0.7,0.6
2026-03-08T2200,1132A,126.6162,45.719,哈尔滨市,南岗学府路,细颗粒物(PM2.5),52,50,60,36,37,78,78,100,97,15,30,12,11,0.4,0.5
2026-03-08T2200,1133A,126.6894,45.7733,哈尔滨市,太平宏伟公园,细颗粒物(PM2.5),72,55,55,46,36,65,65,95,88,25,25,8,12,0.6,0.6
2026-03-08T2200,1134A,126.6361,45.7672,哈尔滨市,道外承德广场,颗粒物(PM10),68,74,64,35,35,71,71,100,93,21,31,10,12,0.9,0.9
2026-03-08T2200,1136A,126.644,45.7261,哈尔滨市,动力和平路,颗粒物(PM10),55,57,55,30,37,76,76,98,93,17,33,9,19,0.7,0.8
2026-03-08T2200,1137A,126.5933,45.7479,哈尔滨市,道里建国路,细颗粒物(PM2.5),64,NA,46,42,35,77,77,95,91,20,34,9,17,0.1,0.3
2026-03-08T2200,1138A,126.6127,45.6119,哈尔滨市,平房东轻厂,细颗粒物(PM2.5),74,57,46,47,35,51,51,81,60,81,64,15,11,0.9,0.7
2026-03-08T2200,1139A,126.5875,45.9827,哈尔滨市,呼兰师专,细颗粒物(PM2.5),64,50,58,42,37,69,69,93,82,19,32,11,13,0.3,0.4
2026-03-08T2200,1140A,126.6299,45.6799,哈尔滨市,省农科院,颗粒物(PM10),56,58,72,36,42,67,67,95,87,24,36,18,13,0.6,0.7
2026-03-08T2200,4282A,126.6769,45.7379,哈尔滨市,华山路1号,颗粒物(PM10),53,53,59,29,34,79,79,96,93,20,29,15,15,0.5,0.6
2026-03-08T2200,4283A,126.9717,45.5356,哈尔滨市,解放大街52号,颗粒物(PM10),58,61,44,37,27,70,70,101,88,24,15,3,5,0.7,0.7
2026-03-08T2200,2688A,93.5124,42.8176,哈密市,地区监测站,颗粒物(PM10),62,66,37,34,20,30,30,98,88,58,18,6,7,0.8,0.3
2026-03-08T2200,2689A,93.5014,42.8312,哈密市,哈密师范学校,颗粒物(PM10),78,89,43,43,20,33,33,102,89,66,21,9,9,1.0,0.6
2026-03-08T2200,2671A,100.9016,36.9464,海北藏族自治州,海晏县西海镇,,43,43,53,30,34,94,94,100,99,4,6,6,11,0.4,0.6
2026-03-08T2200,3867A,102.074,36.5056,海东市,平安区公安局北苑,细颗粒物(PM2.5),54,49,60,37,37,80,80,83,83,9,12,9,18,0,0.7
2026-03-08T2200,4163A,102.0984,36.5119,海东市,滨河路,细颗粒物(PM2.5),68,NA,55,44,37,47,47,62,60,35,32,9,23,1.0,0.9
2026-03-08T2200,1410A,110.3189,20.0596,海口市,海南大学,,50,50,46,19,19,107,107,109,109,5,4,6,6,0.3,0.4
2026-03-08T2200,1411A,110.2827,20.0051,海口市,秀英海南医院,,40,40,28,18,19,94,94,104,95,7,6,8,7,0.4,0.5
2026-03-08T2200,1412A,110.3391,19.9979,海口市,海南师范大学,,49,49,47,19,20,103,103,104,104,5,5,5,6,0.4,0.4
2026-03-08T2200,1413A,110.3303,20.0359,海口市,龙华路环保局宿舍,,47,47,44,18,19,106,106,109,109,7,6,/,/,0.3,0.3
2026-03-08T2200,3539A,110.5111,19.9737,海口市,桂林洋子站,,45,45,43,19,19,104,104,100,100,4,6,/,/,/,/
2026-03-08T2200,4134A,110.1952,20.0451,海口市,长滨二路9号,,39,39,40,20,20,99,99,103,103,4,3,/,/,/,/
2026-03-08T2200,2673A,100.6158,36.2985,海南藏族自治州,共和县恰卜恰镇,,43,39,52,30,25,88,88,98,96,7,9,10,13,0.5,0.3
2026-03-08T2200,2676A,97.373,37.376,海西蒙古族藏族自治州,德令哈市,,36,24,43,8,19,113,113,110,110,1,5,13,15,0.4,0.4
2026-03-08T2200,1049A,114.492,36.5712,邯郸市,矿院,细颗粒物(PM2.5),112,102,79,73,58,27,27,78,65,41,23,2,2,0.8,0.6
2026-03-08T2200,1050A,114.4839,36.6136,邯郸市,丛台公园,细颗粒物(PM2.5),139,105,88,102,84,30,30,75,66,34,17,1,3,0.8,0.7
2026-03-08T2200,3458A,114.7893,36.5592,邯郸市,香泉濮院小区,细颗粒物(PM2.5),119,119,93,80,59,32,32,78,69,42,17,2,2,0.9,0.7
2026-03-08T2200,3580A,114.1998,36.4439,邯郸市,峰峰矿区临水派出所,细颗粒物(PM2.5),88,73,64,54,48,56,56,82,71,7,7,2,6,0.7,1
2026-03-08T2200,4068A,114.5209,36.7697,邯郸市,建安街268号,细颗粒物(PM2.5),144,149,90,108,74,3,3,75,47,74,32,3,4,0.8,0.7
2026-03-08T2200,4069A,114.5488,36.6177,邯郸市,丛台东路558号,细颗粒物(PM2.5),129,NA,78,91,71,9,9,77,61,76,22,2,3,1.0,0.7
2026-03-08T2200,2635A,107.0155,33.0707,汉中市,市监测站,,33,26,16,23,13,26,26,58,51,21,13,5,5,1.0,0.8
2026-03-08T2200,2636A,107.0083,33.114,汉中市,鑫源开发区,,29,22,15,20,12,21,21,64,53,26,13,5,4,1.1,0.9
2026-03-08T2200,2637A,107.0072,33.0323,汉中市,南郑大河坎水厂,,43,39,19,30,13,19,19,54,45,24,16,5,5,1.0,0.8
2026-03-08T2200,1223A,120.2073,30.2111,杭州市,滨江,,50,50,49,27,26,72,72,99,98,35,25,8,8,0.6,0.5
2026-03-08T2200,1224A,120.0625,30.2737,杭州市,西溪,颗粒物(PM10),58,60,51,31,26,85,85,105,103,23,18,10,10,0.4,0.4
2026-03-08T2200,1226A,120.3417,30.315,杭州市,下沙,,39,39,39,20,22,78,78,106,104,23,17,7,8,0.5,0.5
2026-03-08T2200,1227A,120.1252,30.2465,杭州市,卧龙桥,,47,47,45,27,26,84,84,103,101,22,19,8,8,0.3,0.3
2026-03-08T2200,1228A,120.1902,30.2691,杭州市,浙江农大,,40,40,41,21,27,85,85,108,106,24,22,6,7,0.5,0.5
2026-03-08T2200,1230A,120.1195,30.3121,杭州市,和睦小学,颗粒物(PM10),53,53,47,30,25,80,80,112,108,25,18,6,6,0.6,0.5
2026-03-08T2200,1231A,120.3076,30.4146,杭州市,临平镇,颗粒物(PM10),52,52,41,27,22,84,84,120,114,24,18,7,7,0.5,0.5
2026-03-08T2200,1232A,120.2753,30.1839,杭州市,城厢镇,颗粒物(PM10),56,58,51,24,27,66,66,92,88,26,19,10,10,0.6,0.6
2026-03-08T2200,1233A,120.0883,30.1808,杭州市,云栖,颗粒物(PM10),57,59,49,33,25,46,46,89,79,43,29,5,5,0.6,0.5
2026-03-08T2200,3557A,119.9463,30.0496,杭州市,镇二中,细颗粒物(PM2.5),76,66,40,48,31,65,65,83,77,41,24,7,5,0.7,0.6
2026-03-08T2200,3558A,119.7184,30.2367,杭州市,市府大楼,细颗粒物(PM2.5),74,75,44,47,29,47,47,85,76,31,17,7,7,0.3,0.2
2026-03-08T2200,3656A,120.1554,30.2863,杭州市,消防大队,颗粒物(PM10),51,51,46,26,27,75,75,97,96,23,19,7,8,0.5,0.4
2026-03-08T2200,1270A,117.1957,31.7845,合肥市,明珠广场,细颗粒物(PM2.5),98,80,65,59,48,91,91,105,105,22,23,7,7,0.9,0.9
2026-03-08T2200,1271A,117.307,31.8765,合肥市,三里街,细颗粒物(PM2.5),82,75,57,51,39,82,82,100,98,28,26,7,7,0.7,0.7
2026-03-08T2200,1272A,117.2587,31.8703,合肥市,琥珀山庄,细颗粒物(PM2.5),84,70,61,52,42,92,92,108,107,32,28,6,7,0.7,0.7
2026-03-08T2200,1275A,117.2593,31.9376,合肥市,庐阳区,细颗粒物(PM2.5),84,83,62,52,36,80,80,109,105,31,23,7,7,0.8,0.8
2026-03-08T2200,1276A,117.345251,31.861615,合肥市,瑶海区,颗粒物(PM10),70,78,61,44,35,86,86,108,106,33,29,6,5,0.7,0.7
2026-03-08T2200,1277A,117.3033,31.7967,合肥市,包河区,细颗粒物(PM2.5),76,83,64,48,38,57,57,88,82,68,47,9,8,0.9,0.9
2026-03-08T2200,1278A,117.278,31.7392,合肥市,滨湖新区,细颗粒物(PM2.5),80,83,66,50,42,89,89,104,104,22,19,3,3,0.8,0.8
2026-03-08T2200,1279A,117.1324,31.8395,合肥市,高新区,细颗粒物(PM2.5),90,83,64,55,43,90,90,105,104,26,22,4,4,0.7,0.7
2026-03-08T2200,3464A,117.3802,31.9148,合肥市,高教基地,细颗粒物(PM2.5),74,80,55,47,34,76,76,116,110,34,22,9,9,0.6,0.6
2026-03-08T2200,4098A,117.2518,31.8404,合肥市,中国科学技术大学,细颗粒物(PM2.5),76,80,61,48,40,96,96,113,112,20,19,9,9,0.7,0.7
2026-03-08T2200,3614A,79.9241,37.0878,和田地区,地区环保局,颗粒物(PM10),364,471,420,113,77,73,73,83,82,6,9,2,2,0.6,0.7
2026-03-08T2200,3615A,79.9132,37.1137,和田地区,市环保局,颗粒物(PM10),425,525,352,130,81,69,69,83,82,14,16,3,2,2.0,1
2026-03-08T2200,2517A,108.0496,24.6957,河池市,市环保站,,8,7,47,3,42,20,20,35,24,9,12,3,4,0.8,0.9
2026-03-08T2200,4302A,108.0901,24.6945,河池市,上任中路54号,NA,NA,NA,52,4,38,NA,NA,35,30,14,19,5,5,0.7,0.8
2026-03-08T2200,1697A,114.6962,23.7538,河源市,东埔,细颗粒物(PM2.5),54,52,45,37,30,38,38,98,83,40,15,5,6,0.9,0.7
2026-03-08T2200,1698A,114.6895,23.7232,河源市,老城,,43,32,48,30,29,46,46,102,84,23,13,6,6,0.7,0.7
2026-03-08T2200,3374A,115.5562,35.089,菏泽市,定陶老年大学,细颗粒物(PM2.5),121,124,93,83,70,45,45,96,85,29,18,5,5,0.7,0.4
2026-03-08T2200,4114A,115.4239,35.2593,菏泽市,黄河路600号,细颗粒物(PM2.5),118,133,99,79,67,39,39,90,78,42,21,3,3,0.6,0.5
2026-03-08T2200,4115A,115.5025,35.2727,菏泽市,菏泽市人社局,细颗粒物(PM2.5),122,127,89,84,66,19,19,89,73,63,22,5,4,0.8,0.6
2026-03-08T2200,4184A,115.479691,35.244011,菏泽市,永昌路1号,细颗粒物(PM2.5),120,128,91,82,67,48,48,96,84,40,25,2,2,0.6,0.5
2026-03-08T2200,4193A,115.471542,35.280012,菏泽市,长城路999号,细颗粒物(PM2.5),120,155,105,82,63,16,16,95,81,70,23,13,6,0.7,0.5
2026-03-08T2200,2514A,111.5264,24.4178,贺州市,环保小区,,50,36,65,35,51,30,30,50,38,12,18,4,4,1.1,1
2026-03-08T2200,2515A,111.561,24.4074,贺州市,政协大楼,细颗粒物(PM2.5),52,NA,55,36,47,25,25,47,33,15,26,5,5,0.8,0.7
2026-03-08T2200,3534A,111.4744,24.455,贺州市,西湾,颗粒物(PM10),55,57,75,31,50,28,28,46,31,14,17,7,7,0.9,0.9
2026-03-08T2200,2385A,114.17,35.9019,鹤壁市,市监测站,细颗粒物(PM2.5),134,115,92,97,70,23,23,60,49,31,14,2,5,1.0,0.8
2026-03-08T2200,2386A,114.2953,35.7512,鹤壁市,市交警支队,细颗粒物(PM2.5),128,121,101,90,80,0,0,50,36,71,26,7,6,1.0,0.8
2026-03-08T2200,2387A,114.2877,35.7302,鹤壁市,迎宾馆,细颗粒物(PM2.5),125,116,103,87,79,0,0,50,40,76,26,8,8,1.2,0.9
2026-03-08T2200,3474A,114.2616,35.6824,鹤壁市,大新区,细颗粒物(PM2.5),130,114,91,93,88,11,11,52,40,46,28,5,5,1.1,0.8
2026-03-08T2200,3596A,114.1573,35.9607,鹤壁市,南山宾馆,细颗粒物(PM2.5),132,111,94,95,75,42,42,64,56,20,15,6,6,0.8,0.8
2026-03-08T2200,2244A,130.2537,47.3416,鹤岗市,哈啤分公司,,30,23,24,11,13,94,94,96,86,3,6,8,9,0.7,0.7
2026-03-08T2200,2245A,130.2683,47.3087,鹤岗市,斯达机电,,31,22,28,17,12,97,97,98,90,6,7,8,8,0.3,0.3
2026-03-08T2200,2246A,130.3114,47.3388,鹤岗市,东山纸板厂,,31,31,67,6,16,93,93,91,82,8,21,10,8,0.3,0.6
2026-03-08T2200,2263A,127.4832,50.2524,黑河市,交通局,,46,45,50,32,30,63,63,83,72,27,29,10,12,0.7,0.7
2026-03-08T2200,2264A,127.5146,50.2339,黑河市,环保局,细颗粒物(PM2.5),103,83,57,63,46,26,26,83,61,63,38,14,19,1.0,0.7
2026-03-08T2200,1074A,115.6839,37.754,衡水市,电机北厂,细颗粒物(PM2.5),150,146,106,115,89,62,62,83,81,37,22,9,7,0.9,0.8
2026-03-08T2200,1075A,115.6303,37.7318,衡水市,市监测站,细颗粒物(PM2.5),144,137,100,108,83,48,48,80,74,42,23,8,7,1.0,0.7
2026-03-08T2200,3188A,115.6684,37.7216,衡水市,市城管局,细颗粒物(PM2.5),145,143,104,109,80,66,66,83,80,34,24,9,6,1.1,0.8
2026-03-08T2200,3459A,115.599,37.5491,衡水市,地表水厂,细颗粒物(PM2.5),140,123,94,103,86,52,52,91,82,34,24,6,6,0.9,0.6
2026-03-08T2200,2457A,112.6209,26.9268,衡阳市,衡阳化工总厂,,18,18,32,6,27,24,24,54,33,10,9,10,10,1.0,1.1
2026-03-08T2200,2458A,112.621,26.8957,衡阳市,珠晖区环保局,,12,12,28,3,21,20,20,51,31,22,16,4,4,0.9,0.9
2026-03-08T2200,2459A,112.628,26.8654,衡阳市,市委党校,,11,11,30,3,22,29,29,54,37,15,12,7,6,1.1,1.1
2026-03-08T2200,2460A,112.6007,26.8977,衡阳市,市监测站,,20,18,36,14,26,25,25,50,34,15,13,6,6,0.9,1
2026-03-08T2200,2461A,112.5658,26.9013,衡阳市,真空机电公司,,18,18,30,9,25,18,18,53,24,23,15,6,6,1.2,1.2
2026-03-08T2200,3399A,112.6703,26.8817,衡阳市,师范学院,,14,14,33,8,28,32,32,56,37,11,9,3,3,1.0,1
2026-03-08T2200,3038A,103.3757,23.3679,红河哈尼族彝族自治州,州图书馆,,28,20,18,19,16,64,64,78,75,6,6,4,4,0.5,0.6
2026-03-08T2200,4154A,103.401,23.3561,红河哈尼族彝族自治州,蒙自市朝阳路,,22,NA,16,15,15,64,64,76,74,5,6,7,7,0.4,0.5
2026-03-08T2200,1090A,111.6506,40.7517,呼和浩特市,呼市一监,,24,NA,42,11,23,76,76,89,87,12,22,5,7,0.4,0.5
2026-03-08T2200,1094A,111.7516,40.8369,呼和浩特市,如意水处理厂,,20,19,43,14,27,46,46,86,79,33,23,10,10,0.5,0.5
2026-03-08T2200,1095A,111.727798,40.806187,呼和浩特市,二十九中,,20,17,50,10,25,61,61,83,79,16,20,9,11,0.3,0.4
2026-03-08T2200,1097A,111.717,40.7617,呼和浩特市,化肥厂生活区,,22,14,47,13,27,69,69,84,81,10,22,5,6,0.4,0.5
2026-03-08T2200,3699A,111.6519,40.8389,呼和浩特市,海东办,,20,19,44,7,25,62,62,88,84,20,19,2,4,0.3,0.4
2026-03-08T2200,4275A,111.591512,40.827312,呼和浩特市,成吉思汗西街8号,,18,7,42,3,21,55,55,76,69,20,23,3,4,0.3,0.4
2026-03-08T2200,4276A,111.6597,40.8077,呼和浩特市,公园东路75号,,22,14,46,6,26,70,70,81,79,15,21,7,8,0.3,0.5
2026-03-08T2200,4277A,111.5427,40.7846,呼和浩特市,金海路35号,,19,15,46,3,24,60,60,80,76,18,18,5,6,0.3,0.4
2026-03-08T2200,3061A,119.7511,49.1576,呼伦贝尔市,国华电力东,,37,37,35,21,20,78,78,90,85,17,13,5,6,0.2,0.1
2026-03-08T2200,4279A,119.7569,49.2222,呼伦贝尔市,伊敏大街东7号,,48,39,32,33,19,63,63,99,92,29,8,7,8,0.4,0.2
2026-03-08T2200,1250A,120.075,30.867,湖州市,城西水厂,,42,42,39,25,23,93,93,108,106,21,17,6,7,0.3,0.4
2026-03-08T2200,2873A,120.083,30.8929,湖州市,仁皇山新区,,43,43,38,23,22,92,92,101,99,23,22,6,6,0.4,0.4
2026-03-08T2200,2907A,120.1846,30.8592,湖州市,吴兴区站,,46,46,39,24,22,70,70,80,77,20,16,6,6,0.2,0.2
2026-03-08T2200,3562A,120.4146,30.8538,湖州市,南浔区站,,46,46,33,26,19,64,64,104,99,31,16,9,8,0.5,0.4
2026-03-08T2200,1607A,120.904878,40.721091,葫芦岛市,龙港区,,23,18,53,11,37,71,71,82,80,19,22,7,15,0.4,0.7
2026-03-08T2200,1608A,120.8382,40.7521,葫芦岛市,化工街,,48,48,63,17,44,57,57,78,72,29,36,23,12,0.4,0.6
2026-03-08T2200,1609A,120.8339,40.7078,葫芦岛市,新区,,24,24,43,6,38,67,67,66,66,18,28,11,11,0.2,0.5
2026-03-08T2200,1610A,120.8697,40.7679,葫芦岛市,东城区,,22,15,51,10,48,69,69,76,73,18,35,8,14,0.5,0.8
2026-03-08T2200,2483A,109.9297,27.5383,怀化市,河西地税局,,16,12,10,7,6,49,49,55,48,10,11,3,3,/,/
2026-03-08T2200,2484A,109.9783,27.5342,怀化市,市四医院,,15,10,9,8,5,46,46,52,44,8,8,5,5,0.6,0.7
2026-03-08T2200,2485A,109.9971,27.5579,怀化市,监测楼,,18,13,8,12,7,45,45,54,46,8,5,2,2,0.6,0.6
2026-03-08T2200,1210A,119.0566,33.5991,淮安市,钵池山,细颗粒物(PM2.5),86,85,35,53,19,55,55,85,78,40,21,11,10,0.5,0.3
2026-03-08T2200,1211A,119.0083,33.578,淮安市,北京南路,细颗粒物(PM2.5),84,75,35,52,20,54,54,79,75,32,17,8,8,0.6,0.3
2026-03-08T2200,1212A,118.9938,33.6083,淮安市,市监测站,细颗粒物(PM2.5),84,63,27,52,21,59,59,85,78,34,18,11,11,0.7,0.5
2026-03-08T2200,1213A,119.135,33.5038,淮安市,楚州区监测站,细颗粒物(PM2.5),60,54,33,40,21,28,28,88,72,64,22,6,6,0.3,0.2
2026-03-08T2200,3426A,118.8757,33.2897,淮安市,新华书店,细颗粒物(PM2.5),92,72,39,56,25,50,50,91,82,44,19,8,7,0.6,0.4
2026-03-08T2200,4092A,119.119691,33.550006,淮安市,枚皋中路89号,NA,NA,56,36,46,20,NA,NA,89,80,55,21,9,9,0.4,0.3
2026-03-08T2200,4206A,119.028838,33.631911,淮安市,承德北路606号,细颗粒物(PM2.5),88,90,39,54,19,31,31,86,77,63,19,8,8,0.6,0.4
2026-03-08T2200,2282A,116.8005,33.9749,淮北市,监测站,细颗粒物(PM2.5),110,108,69,70,46,68,68,107,94,37,22,6,6,1.0,0.6
2026-03-08T2200,2283A,116.8094,33.9008,淮北市,烈山区政府,细颗粒物(PM2.5),108,115,63,68,40,64,64,103,94,38,21,4,5,0.5,0.4
2026-03-08T2200,4017A,116.7926,33.9534,淮北市,市博物馆,细颗粒物(PM2.5),120,115,69,82,48,50,50,102,92,49,21,4,3,0.9,0.5
2026-03-08T2200,4100A,116.8322,33.9884,淮北市,杜集区第一实验学校,细颗粒物(PM2.5),130,144,73,92,45,37,37,108,94,53,22,8,7,0.8,0.4
2026-03-08T2200,2277A,116.8304,32.7726,淮南市,潘集区政府,细颗粒物(PM2.5),107,101,66,67,39,37,37,92,84,50,26,6,6,0.5,0.4
2026-03-08T2200,2279A,116.8569,32.5949,淮南市,谢家集区政府,细颗粒物(PM2.5),102,90,56,62,37,52,52,98,92,42,24,8,8,0.6,0.5
2026-03-08T2200,2280A,116.8279,32.6333,淮南市,八公山区政府,细颗粒物(PM2.5),113,96,61,74,43,64,64,99,95,31,21,8,8,0.6,0.5
2026-03-08T2200,2894A,117.0561,32.6536,淮南市,经济技术开发区消防队,细颗粒物(PM2.5),102,105,72,62,38,41,41,87,79,55,24,7,7,0.5,0.4
2026-03-08T2200,3329A,117.011,32.5891,淮南市,山南新区,细颗粒物(PM2.5),88,78,50,54,37,78,78,98,96,29,20,7,7,0.5,0.4
2026-03-08T2200,4209A,117.003137,32.644456,淮南市,国庆中路369号,细颗粒物(PM2.5),105,93,57,65,39,47,47,83,78,40,18,7,10,0.6,0.5
2026-03-08T2200,2446A,114.9021,30.474,黄冈市,职工中心,细颗粒物(PM2.5),106,76,67,66,59,44,44,65,50,24,18,6,8,1.1,1
2026-03-08T2200,2929A,114.8858,30.4519,黄冈市,红卫路,细颗粒物(PM2.5),96,72,62,58,53,42,42,65,49,26,18,4,6,0.6,0.4
2026-03-08T2200,3398A,114.9134,30.4446,黄冈市,市林业局,细颗粒物(PM2.5),102,81,75,62,60,51,51,66,54,23,18,4,4,1.0,0.9
2026-03-08T2200,2672A,102.02,35.5101,黄南藏族自治州,同仁县隆务镇,,27,27,49,15,33,86,86,85,85,4,5,8,9,0.3,0.3
2026-03-08T2200,2295A,118.2905,29.6965,黄山市,延安路89号,,48,46,50,33,35,36,36,92,75,15,15,4,5,0.6,0.6
2026-03-08T2200,2297A,118.1369,30.2755,黄山市,黄山区政府5号楼,颗粒物(PM10),63,67,55,36,29,49,49,102,90,19,13,3,3,0.9,0.8
2026-03-08T2200,4210A,118.335445,29.720283,黄山市,滨江东路7-2号,颗粒物(PM10),60,64,67,34,32,33,33,91,68,20,15,/,/,/,/
2026-03-08T2200,2423A,115.0547,30.2332,黄石市,沈家营,细颗粒物(PM2.5),103,99,75,63,51,33,33,57,46,27,22,7,7,1.4,1.1
2026-03-08T2200,2426A,114.899,30.211,黄石市,铁山,细颗粒物(PM2.5),98,72,58,59,53,44,44,65,50,26,22,7,8,2.1,1.8
2026-03-08T2200,2427A,115.0259,30.2108,黄石市,团城山,细颗粒物(PM2.5),107,97,72,67,56,25,25,55,40,35,22,8,7,1.4,1.1
2026-03-08T2200,3149A,115.0174,30.1591,黄石市,笔架山北路,细颗粒物(PM2.5),111,135,86,72,53,21,21,53,37,40,27,11,8,1.4,1
2026-03-08T2200,4185A,115.078022,30.21118,黄石市,磁湖东路29号,细颗粒物(PM2.5),113,100,71,74,55,32,32,61,49,36,21,10,9,1.2,1
2026-03-08T2200,1392A,114.4181,23.0528,惠州市,河南岸金山湖子站,NA,NA,39,52,20,27,NA,NA,105,104,NA,9,NA,7,NA,0.7
2026-03-08T2200,1393A,114.4055,23.0824,惠州市,下埔横江三路子站,,46,46,54,23,27,98,98,119,115,19,11,9,9,0.6,0.7
2026-03-08T2200,1395A,114.4645,22.7832,惠州市,惠阳区承修路船湖子站,,41,41,56,16,26,117,117,136,132,7,12,6,7,0.5,0.6
2026-03-08T2200,1396A,114.5316,22.7423,惠州市,大亚湾管委会子站,,37,37,51,16,25,111,111,127,122,6,10,3,4,0.4,0.5
2026-03-08T2200,3314A,114.4334,22.8134,惠州市,惠阳秋长,,41,41,55,15,25,119,119,142,139,9,12,/,/,/,/
2026-03-08T2200,3452A,114.6521,22.7755,惠州市,大亚湾霞涌,,48,48,49,14,25,119,119,129,128,8,11,/,/,/,/
2026-03-08T2200,4300A,114.4089,23.1147,惠州市,文华一路1号,,42,42,52,19,26,102,102,115,113,16,11,/,/,/,/
2026-03-08T2200,2240A,130.9618,45.2926,鸡西市,环保局,,50,41,25,35,16,36,36,94,84,41,9,12,6,0.5,0.1
2026-03-08T2200,2243A,130.9294,45.2959,鸡西市,第一中学,,39,39,24,27,15,77,77,94,88,14,8,13,5,0.3,0.3
2026-03-08T2200,3707A,131.0069,45.2988,鸡西市,欧美日汽修厂,细颗粒物(PM2.5),60,62,32,40,17,49,49,90,81,31,16,23,8,0.6,0.2
2026-03-08T2200,2367A,114.9753,27.0803,吉安市,红声器材厂,细颗粒物(PM2.5),78,66,68,49,47,40,40,57,52,22,17,5,4,0.7,0.7
2026-03-08T2200,2369A,114.9903,27.1313,吉安市,市环境监测站,细颗粒物(PM2.5),80,57,60,50,47,40,40,57,50,20,16,7,6,/,/
2026-03-08T2200,2370A,115.009527,27.096792,吉安市,青原区法院,细颗粒物(PM2.5),66,60,64,43,48,43,43,62,56,26,20,6,6,0.7,0.7
2026-03-08T2200,1772A,126.54,43.8622,吉林市,哈达湾,细颗粒物(PM2.5),72,58,46,46,35,79,79,95,89,30,22,9,9,0.8,0.8
2026-03-08T2200,1773A,126.5843,43.8358,吉林市,东局子,细颗粒物(PM2.5),62,50,44,41,35,92,92,97,92,14,16,5,5,0.7,0.7
2026-03-08T2200,1774A,126.5051,43.8243,吉林市,电力学院,细颗粒物(PM2.5),88,78,53,54,40,72,72,102,94,34,24,13,9,1.0,1
2026-03-08T2200,1775A,126.6133,43.8971,吉林市,江北,细颗粒物(PM2.5),84,70,55,52,40,76,76,96,87,18,16,9,8,0.9,0.8
2026-03-08T2200,1776A,126.5549,43.8304,吉林市,江南公园,细颗粒物(PM2.5),64,52,39,42,32,83,83,95,90,24,15,9,9,0.7,0.7
2026-03-08T2200,2868A,126.4737,43.953,吉林市,九站,细颗粒物(PM2.5),123,107,54,85,41,32,32,98,82,53,32,23,23,1.0,0.6
2026-03-08T2200,1299A,116.9866,36.6118,济南市,科干所,细颗粒物(PM2.5),110,107,75,71,48,54,54,93,82,35,19,8,6,0.8,0.7
2026-03-08T2200,1300A,116.9379,36.6652,济南市,农科所,细颗粒物(PM2.5),131,137,83,94,61,13,13,90,71,72,24,5,7,0.8,0.6
2026-03-08T2200,1301A,117.1265,36.6736,济南市,开发区,细颗粒物(PM2.5),120,107,72,82,57,47,47,99,87,45,20,3,4,0.8,0.6
2026-03-08T2200,1303A,117.0616,36.6865,济南市,省种子仓库,细颗粒物(PM2.5),124,134,84,86,53,46,46,94,82,54,22,5,5,0.7,0.6
2026-03-08T2200,1304A,116.9495185,36.644937,济南市,机床二厂,细颗粒物(PM2.5),150,171,87,114,59,15,15,91,78,88,25,42,9,1.4,0.7
2026-03-08T2200,1305A,117.0496,36.6629,济南市,市监测站,细颗粒物(PM2.5),121,112,80,83,56,47,47,92,82,43,21,4,5,0.7,0.5
2026-03-08T2200,1306A,116.7674,36.5458,济南市,长清党校,细颗粒物(PM2.5),131,122,92,94,61,45,45,93,83,45,19,3,5,0.8,0.7
2026-03-08T2200,1961A,117.5323,36.6865,济南市,东山小学,细颗粒物(PM2.5),117,117,79,78,46,47,47,92,82,37,25,3,5,0.7,0.6
2026-03-08T2200,3059A,117.7181,36.205,济南市,泰兴公司,细颗粒物(PM2.5),123,134,73,85,44,9,9,91,71,82,39,10,9,1.0,0.7
2026-03-08T2200,3064A,117.6861,36.2172,济南市,莱芜战役纪念馆,细颗粒物(PM2.5),123,146,75,85,43,37,37,99,85,56,35,7,7,0.7,0.7
2026-03-08T2200,3494A,117.1673,36.9782,济南市,济阳区政府,细颗粒物(PM2.5),140,129,100,104,74,55,55,87,78,46,35,7,7,0.6,0.5
2026-03-08T2200,3495A,117.1168,36.6299,济南市,锦屏中学,细颗粒物(PM2.5),120,90,70,81,52,49,49,90,74,20,14,7,8,0.3,0.3
2026-03-08T2200,4108A,117.7107,36.2385,济南市,山财大街5号,NA,NA,119,71,NA,40,22,22,82,67,84,42,10,12,0.8,0.7
2026-03-08T2200,4109A,116.9744,36.6889,济南市,无影山路12号,细颗粒物(PM2.5),135,144,79,98,60,21,21,84,70,77,24,13,7,1.1,0.7
2026-03-08T2200,1653A,116.6229,35.4288,济宁市,火炬城,细颗粒物(PM2.5),88,71,53,54,37,65,65,84,81,26,21,3,3,0.6,0.5
2026-03-08T2200,3500A,116.5808,35.3703,济宁市,北湖一中,细颗粒物(PM2.5),100,72,50,60,38,63,63,84,80,29,22,5,5,0.3,0.3
2026-03-08T2200,3501A,116.8251,35.5592,济宁市,服务中心,细颗粒物(PM2.5),96,85,69,58,37,38,38,70,64,41,23,7,4,0.5,0.4
2026-03-08T2200,3678A,116.5907,35.4054,济宁市,市第七中学,细颗粒物(PM2.5),94,74,52,57,39,64,64,91,86,35,24,8,8,0.6,0.5
2026-03-08T2200,4111A,116.6075,35.4566,济宁市,任和路,颗粒物(PM10),90,105,69,53,36,45,45,86,79,47,24,6,6,0.5,0.4
2026-03-08T2200,4112A,116.5648,35.3921,济宁市,文体南路1号,细颗粒物(PM2.5),104,93,68,64,37,68,68,87,83,26,22,3,4,0.5,0.5
2026-03-08T2200,4122A,112.6071,35.1015,济源市,市委党校,颗粒物(PM10),85,98,98,50,55,29,29,66,58,38,21,5,6,0.9,0.9
2026-03-08T2200,4123A,112.596,35.0702,济源市,沁园中路1号,"颗粒物(PM10),细颗粒物(PM2.5)",80,91,75,50,48,24,24,71,57,46,19,4,4,1.0,0.8
2026-03-08T2200,2255A,130.2749,46.8028,佳木斯市,佳纺,颗粒物(PM10),101,121,50,35,21,38,38,86,50,32,24,NA,7,0.7,0.5
2026-03-08T2200,2257A,130.3258,46.7975,佳木斯市,环保局,颗粒物(PM10),58,60,25,32,17,51,51,94,68,26,13,4,6,0.4,0.5
2026-03-08T2200,4285A,130.363,46.806,佳木斯市,顺和街,颗粒物(PM10),63,67,26,37,20,59,59,84,61,20,20,6,5,0.3,0.3
2026-03-08T2200,4286A,130.3952,46.8268,佳木斯市,长安路196号,颗粒物(PM10),58,60,24,26,17,53,53,90,68,17,13,7,6,0.5,0.3
2026-03-08T2200,1252A,120.7439,30.778,嘉兴市,清河小学,,39,39,31,12,12,75,75,101,94,26,19,7,7,0.3,0.3
2026-03-08T2200,1253A,120.7261,30.7477,嘉兴市,嘉兴学院,,36,36,27,21,14,79,79,111,102,25,17,7,6,0.4,0.4
2026-03-08T2200,2872A,120.7845,30.7524,嘉兴市,南湖区残联,,33,33,28,20,15,75,75,106,97,25,17,5,5,0.5,0.5
2026-03-08T2200,3407A,120.6915,30.7741,嘉兴市,秀洲住建,,39,39,30,14,10,84,84,115,106,25,18,10,8,0.7,0.7
2026-03-08T2200,1945A,98.291,39.7705,嘉峪关市,气象局,细颗粒物(PM2.5),123,92,52,85,23,78,78,101,98,26,15,10,8,0.5,0.5
2026-03-08T2200,2884A,98.2672,39.7978,嘉峪关市,酒钢宾馆,颗粒物(PM10),67,73,56,34,24,83,83,98,95,21,17,13,25,0.8,0.9
2026-03-08T2200,3248A,98.2644,39.7723,嘉峪关市,雄关区,颗粒物(PM10),63,68,54,32,21,90,90,100,99,20,21,12,15,0.5,0.5
2026-03-08T2200,1383A,113.1063,22.6058,江门市,北街,颗粒物(PM10),52,52,53,28,27,111,111,161,150,25,23,/,/,/,/
2026-03-08T2200,1384A,113.073,22.5835,江门市,西区,颗粒物(PM10),57,59,58,29,29,118,118,164,155,19,17,/,/,/,/
2026-03-08T2200,1385A,113.0218,22.531,江门市,圭峰西,,49,44,55,34,28,113,113,153,145,16,13,/,/,/,/
2026-03-08T2200,1386A,113.0826,22.5947,江门市,东湖,颗粒物(PM10),52,52,52,30,29,117,117,157,148,17,17,6,6,0.5,0.5
2026-03-08T2200,3311A,113.1077,22.5647,江门市,江海富民,颗粒物(PM10),71,79,65,28,27,116,116,162,154,22,19,/,/,0.4,0.4
2026-03-08T2200,3449A,113.0496,22.4669,江门市,新会银湖,,47,47,51,30,27,101,101,155,144,23,24,9,9,0.4,0.4
2026-03-08T2200,3335A,113.3137,35.2643,焦作市,马村街道办,细颗粒物(PM2.5),143,166,124,107,92,20,20,50,43,33,24,6,7,0.9,0.9
2026-03-08T2200,3336A,113.2464,35.2374,焦作市,焦作技师学院,细颗粒物(PM2.5),145,144,101,109,76,22,22,55,47,31,22,9,7,1.1,0.8
2026-03-08T2200,3477A,113.1656,35.2536,焦作市,中站许衡医院,细颗粒物(PM2.5),140,105,110,104,83,16,16,65,51,41,29,9,13,1.2,1
2026-03-08T2200,3981A,113.2456,35.18,焦作市,原李万街道办,细颗粒物(PM2.5),142,120,86,106,69,33,33,64,56,23,19,2,7,0.8,0.6
2026-03-08T2200,4264A,113.234,35.219,焦作市,新安路1731号,细颗粒物(PM2.5),145,169,102,109,73,30,30,68,59,32,23,9,8,0.9,0.7
2026-03-08T2200,4295A,113.2722,35.2121,焦作市,人民路3066号,细颗粒物(PM2.5),132,133,91,95,66,35,35,65,57,24,21,8,7,1.0,0.9
2026-03-08T2200,1708A,116.3701,23.5345,揭阳市,新兴,,31,31,44,17,24,85,85,112,107,13,15,7,9,0.5,0.5
2026-03-08T2200,1709A,116.3261,23.5442,揭阳市,西马,,37,37,50,18,24,83,83,114,108,11,12,6,7,0.4,0.4
2026-03-08T2200,1710A,116.361,23.5627,揭阳市,东兴,,32,25,48,22,28,81,81,113,106,11,12,5,7,/,/
2026-03-08T2200,1711A,116.4151,23.5295,揭阳市,渔湖,,30,18,46,18,24,93,93,130,122,13,16,6,7,/,/
2026-03-08T2200,3320A,116.4028,23.5699,揭阳市,曲溪,颗粒物(PM10),73,82,56,27,28,89,89,129,119,15,15,9,10,0.6,0.6
2026-03-08T2200,1944A,102.1691,38.5166,金昌市,天庆家园,颗粒物(PM10),83,95,66,37,29,96,96,101,98,9,12,7,11,0.6,0.6
2026-03-08T2200,4022A,102.1648,38.5369,金昌市,金川区人防中心,颗粒物(PM10),83,96,65,42,30,94,94,100,97,13,12,9,11,0.5,0.6
2026-03-08T2200,4239A,102.193042,38.531887,金昌市,长春路96号,颗粒物(PM10),76,86,61,32,25,85,85,94,92,20,17,8,9,0.5,0.5
2026-03-08T2200,1262A,119.6478,29.0773,金华市,十五中,颗粒物(PM10),58,60,59,38,39,79,79,108,103,28,25,4,4,0.5,0.5
2026-03-08T2200,1263A,119.6859,29.1032,金华市,监测站,颗粒物(PM10),60,63,62,34,36,57,57,91,85,31,24,2,2,0.6,0.6
2026-03-08T2200,3659A,119.656,29.1132,金华市,气象局,颗粒物(PM10),58,61,58,37,37,62,62,98,89,35,29,3,3,0.5,0.5
2026-03-08T2200,1767A,121.1114,41.0879,锦州市,南山,,44,44,45,11,36,75,75,91,84,13,25,14,12,0.5,0.7
2026-03-08T2200,1768A,121.060361,40.842794,锦州市,开发区,颗粒物(PM10),59,62,61,18,43,38,38,60,52,44,40,10,12,0.5,0.6
2026-03-08T2200,1769A,121.1836,41.1118,锦州市,百股街道,颗粒物(PM10),55,56,54,12,38,76,76,90,86,8,23,8,10,0.6,0.7
2026-03-08T2200,1770A,121.1176,41.1224,锦州市,天安街道,,45,45,48,10,34,78,78,89,86,10,25,6,10,0.4,0.6
2026-03-08T2200,1771A,121.1303,41.1385,锦州市,北湖公园,,42,42,46,12,35,78,78,93,88,10,20,6,10,0.5,0.7
2026-03-08T2200,2160A,112.8496,35.5051,晋城市,自来水公司,颗粒物(PM10),75,84,74,32,38,52,52,45,36,18,22,4,4,0.7,0.8
2026-03-08T2200,2162A,112.8509,35.4886,晋城市,市环保局,细颗粒物(PM2.5),66,57,54,43,44,57,57,66,63,23,18,4,4,0.8,0.8
2026-03-08T2200,3620A,112.8258,35.4804,晋城市,泽州一中,颗粒物(PM10),57,59,57,37,39,58,58,70,67,21,13,3,3,0.4,0.4
2026-03-08T2200,4078A,112.8246,35.5152,晋城市,前书院路,颗粒物(PM10),60,64,61,32,35,48,48,64,60,20,15,5,4,0.5,0.5
2026-03-08T2200,4079A,112.8864,35.4773,晋城市,祥云街666号,细颗粒物(PM2.5),78,68,61,49,48,55,55,66,64,20,14,3,5,0.7,0.6
2026-03-08T2200,2174A,112.6992,37.6984,晋中市,榆次区政府,细颗粒物(PM2.5),168,207,97,127,71,3,3,79,62,85,31,11,14,1.3,1
2026-03-08T2200,2865A,112.7195,37.683,晋中市,榆次三中,细颗粒物(PM2.5),137,151,95,100,64,10,10,84,69,71,26,12,16,0.8,0.8
2026-03-08T2200,4080A,112.7375,37.7215,晋中市,广安街188号,细颗粒物(PM2.5),136,176,97,99,66,3,3,81,64,84,28,10,13,0.8,0.8
2026-03-08T2200,4200A,112.7478,37.6954,晋中市,迎宾街26号,细颗粒物(PM2.5),132,129,90,95,66,25,25,85,72,52,26,12,15,0.8,0.8
2026-03-08T2200,2439A,112.2012,31.048,荆门市,竹园小学,细颗粒物(PM2.5),72,70,80,46,61,54,54,65,63,15,18,1,1,0.4,0.3
2026-03-08T2200,2440A,112.1968,30.9892,荆门市,掇刀,细颗粒物(PM2.5),82,68,75,51,62,66,66,74,73,12,13,5,5,0.8,0.8
2026-03-08T2200,3012A,112.1849,31.0361,荆门市,西山林语,细颗粒物(PM2.5),64,59,73,42,54,60,60,65,64,10,14,3,3,0.9,0.8
2026-03-08T2200,3547A,112.1631,31.0134,荆门市,龙泉中学南校,NA,NA,NA,NA,NA,NA,NA,NA,NA,NA,NA,NA,NA,NA,NA,NA
2026-03-08T2200,4124A,112.2213,31.0654,荆门市,新台西路6号,细颗粒物(PM2.5),84,56,84,52,66,49,49,66,61,13,15,4,4,0.7,0.6
2026-03-08T2200,1844A,112.2493,30.3198,荆州市,市图书馆,细颗粒物(PM2.5),114,NA,62,75,66,44,44,62,61,26,17,6,6,0.8,0.8
2026-03-08T2200,1845A,112.2009,30.3543,荆州市,市委党校,细颗粒物(PM2.5),116,96,77,77,70,40,40,54,53,24,21,7,6,0.7,0.7
2026-03-08T2200,3194A,112.2749,30.3124,荆州市,管委会,细颗粒物(PM2.5),112,73,66,73,64,46,46,60,60,20,15,8,8,0.9,0.8
2026-03-08T2200,4268A,112.1722,30.3366,荆州市,学苑路85号,细颗粒物(PM2.5),115,86,62,76,70,56,56,64,64,11,13,2,2,1.2,1.1
2026-03-08T2200,2343A,117.2114,29.2931,景德镇市,老干部活动中心,,30,30,38,17,29,51,51,78,69,9,7,5,5,0.6,0.6
2026-03-08T2200,2344A,117.1893,29.2789,景德镇市,兽医站,,33,33,45,14,24,46,46,80,74,16,9,5,5,0.6,0.6
2026-03-08T2200,2346A,117.246,29.2958,景德镇市,陶研所,,40,37,34,28,28,45,45,75,67,16,12,3,4,0.6,0.6
2026-03-08T2200,4289A,117.154766,29.256967,景德镇市,青少年活动中心,,48,48,43,29,29,38,38,66,60,18,11,7,4,/,/
2026-03-08T2200,1803A,115.9873,29.6816,九江市,十里,细颗粒物(PM2.5),110,81,58,71,46,39,39,85,70,44,30,7,6,0.8,0.7
2026-03-08T2200,1804A,115.9583,29.7047,九江市,茅山头,细颗粒物(PM2.5),118,89,59,79,55,22,22,85,62,50,25,4,4,0.8,0.7
2026-03-08T2200,1805A,115.9877,29.7295,九江市,西园,细颗粒物(PM2.5),108,89,59,68,52,23,23,82,60,63,37,5,4,0.8,0.7
2026-03-08T2200,1808A,115.9112,29.6038,九江市,综合工业园,细颗粒物(PM2.5),102,78,54,62,49,17,17,73,54,59,35,6,6,0.8,0.7
2026-03-08T2200,3190A,116.0254,29.6995,九江市,外国语学校,细颗粒物(PM2.5),108,72,53,68,49,26,26,73,56,46,27,6,6,0.9,0.7
2026-03-08T2200,4253A,116.010205,29.659402,九江市,莲花大道8号,细颗粒物(PM2.5),88,86,62,54,45,31,31,77,61,45,28,5,5,0.7,0.6
2026-03-08T2200,4240A,98.495752,39.733935,酒泉市,玉门东路5号,颗粒物(PM10),95,112,66,48,28,54,54,95,89,35,12,8,7,0.6,0.4
2026-03-08T2200,4241A,98.5099,39.7506,酒泉市,北大街108号,细颗粒物(PM2.5),80,90,60,50,30,70,70,93,90,24,12,9,8,0.7,0.4
2026-03-08T2200,2698A,76.0071,39.466,喀什地区,巡警大队,颗粒物(PM10),191,332,302,109,98,66,66,92,90,26,34,4,4,0.7,1.3
2026-03-08T2200,2699A,75.9756,39.4693,喀什地区,吾办,颗粒物(PM10),189,328,282,96,99,58,58,90,87,28,26,5,3,0.5,0.9
2026-03-08T2200,4027A,75.9485,39.4688,喀什地区,老干局,颗粒物(PM10),193,336,285,96,84,49,49,89,86,36,23,4,4,0.8,1
2026-03-08T2200,1824A,114.3389,34.778,开封市,肿瘤医院,细颗粒物(PM2.5),133,110,92,96,82,46,46,89,76,57,37,8,7,1.0,0.8
2026-03-08T2200,1826A,114.2884,34.7966,开封市,世纪星幼儿园,细颗粒物(PM2.5),119,89,85,80,75,63,63,81,75,35,31,7,8,0.9,0.8
2026-03-08T2200,3147A,114.3434,34.8101,开封市,龙亭公园,细颗粒物(PM2.5),127,108,92,89,78,55,55,89,79,47,35,8,8,1.0,0.9
2026-03-08T2200,3210A,114.3645,34.7955,开封市,汴京公园,细颗粒物(PM2.5),116,116,93,77,74,43,43,87,74,48,36,5,5,0.9,0.7
2026-03-08T2200,3473A,114.2485,34.8306,开封市,技师学院,细颗粒物(PM2.5),119,97,79,80,72,77,77,83,80,25,27,9,9,1.0,0.9
2026-03-08T2200,3592A,114.4518,34.7503,开封市,祥符区生态环境局,细颗粒物(PM2.5),137,135,118,100,88,33,33,94,77,75,40,6,6,1.0,0.9
2026-03-08T2200,1951A,84.886,45.6029,克拉玛依市,长征新村,,50,50,40,30,23,84,84,93,93,20,22,6,6,1.1,1.1
2026-03-08T2200,1952A,84.8894,45.5827,克拉玛依市,南林小区,,38,38,44,24,25,91,91,100,100,10,21,3,3,0.2,0.4
2026-03-08T2200,1954A,84.896,44.3328,克拉玛依市,独山子区,细颗粒物(PM2.5),132,130,115,95,85,137,137,153,153,29,28,4,6,1.0,1.1
2026-03-08T2200,1955A,85.6888,46.0909,克拉玛依市,乌尔禾区商贸楼,,37,37,29,22,14,65,65,85,82,20,15,10,8,0.6,0.5
2026-03-08T2200,3612A,85.1045,45.6895,克拉玛依市,白碱滩区新站,细颗粒物(PM2.5),64,47,35,42,25,95,95,93,93,26,21,10,10,0.6,0.4
2026-03-08T2200,2697A,76.1457,39.7143,克孜勒苏柯尔克孜自治州,市人民政府,颗粒物(PM10),191,332,269,81,68,45,45,87,83,40,15,4,4,0.1,0.3
2026-03-08T2200,3665A,76.1654,39.7157,克孜勒苏柯尔克孜自治州,克州文化中心,颗粒物(PM10),197,344,291,122,87,57,57,78,77,28,15,5,4,0.5,0.4
2026-03-08T2200,1450A,102.8203,24.889,昆明市,呈贡新区,细颗粒物(PM2.5),84,NA,64,52,55,112,112,132,121,18,19,4,4,0.8,0.9
2026-03-08T2200,1452A,102.7253,25.0904,昆明市,龙泉镇,细颗粒物(PM2.5),84,93,68,52,56,11,11,124,99,77,21,7,5,0.8,0.6
2026-03-08T2200,1453A,102.7267,25.0378,昆明市,东风东路,细颗粒物(PM2.5),80,64,71,50,54,110,110,124,115,19,19,6,6,0.7,0.8
2026-03-08T2200,1454A,102.6744,25.0671,昆明市,金鼎山,细颗粒物(PM2.5),86,82,77,53,57,92,92,126,116,30,19,40,11,0.8,0.8
2026-03-08T2200,1455A,102.6643,25.0401,昆明市,碧鸡广场,细颗粒物(PM2.5),105,87,73,65,59,47,47,119,100,61,25,5,5,1.0,0.8
2026-03-08T2200,3179A,102.7491,25.012,昆明市,官渡区博物馆,细颗粒物(PM2.5),82,65,67,51,53,102,102,123,111,20,20,4,4,0.6,0.8
2026-03-08T2200,3375A,102.8016,24.8336,昆明市,青年创业园,细颗粒物(PM2.5),76,64,69,48,52,90,90,124,116,24,15,5,5,0.6,0.7
2026-03-08T2200,3550A,102.8,24.9787,昆明市,昆明学院,细颗粒物(PM2.5),64,66,71,42,46,112,112,129,121,15,16,5,4,0.6,0.7
2026-03-08T2200,3551A,102.5969,24.6738,昆明市,晋宁区生态环境分局,细颗粒物(PM2.5),106,82,69,66,57,91,91,129,122,21,10,4,2,0.6,0.6
2026-03-08T2200,3552A,102.6673,24.9861,昆明市,云天化总部,细颗粒物(PM2.5),62,57,69,41,47,119,119,125,121,9,13,8,8,0.8,0.9
2026-03-08T2200,1456A,91.132,29.6515,拉萨市,八廓街,,30,19,18,8,8,96,96,111,110,16,14,5,4,0.3,0.3
2026-03-08T2200,1457A,91.1221,29.6748,拉萨市,市环保局,,29,15,21,3,8,90,90,101,101,12,19,3,4,0.3,0.5
2026-03-08T2200,1458A,91.0874,29.6476,拉萨市,区监测站,,33,11,14,6,7,104,104,108,108,9,18,5,5,0.5,0.6
2026-03-08T2200,1459A,91.1774,29.6541,拉萨市,西藏大学,,33,13,15,6,6,105,105,112,112,9,12,3,4,0.5,0.8
2026-03-08T2200,1460A,90.9798,29.6586,拉萨市,区辐射站,,35,11,26,6,11,111,111,108,108,2,20,3,4,0.3,0.5
2026-03-08T2200,1461A,91.0831,29.6292,拉萨市,拉萨火车站,,33,NA,19,13,8,105,105,108,108,6,25,4,4,0.4,0.6
2026-03-08T2200,2520A,109.2203,23.7252,来宾市,来宾技工学校,细颗粒物(PM2.5),58,54,87,39,76,22,22,42,28,14,18,8,10,1.5,1.3
2026-03-08T2200,3535A,109.1781,23.7293,来宾市,兴宾区政府,,45,45,102,30,73,28,28,47,32,11,16,5,8,1.2,1.2
2026-03-08T2200,4002A,109.2312,23.7428,来宾市,中南小学,细颗粒物(PM2.5),58,50,90,39,82,20,20,40,30,14,20,5,8,1.4,1.2
2026-03-08T2200,1479A,103.8309,36.0467,兰州市,铁路设计院,NA,NA,NA,NA,NA,NA,NA,NA,NA,NA,NA,NA,NA,NA,NA,NA
2026-03-08T2200,3241A,103.7439,36.0841,兰州市,百合公园,细颗粒物(PM2.5),66,59,51,43,33,53,53,88,77,26,21,6,9,0.9,0.9
2026-03-08T2200,3242A,103.9613,35.9985,兰州市,和平,颗粒物(PM10),65,71,46,34,34,28,28,94,75,42,22,12,11,0.8,0.7
2026-03-08T2200,4236A,103.629272,36.093822,兰州市,庄浪东路808号,颗粒物(PM10),56,58,55,34,30,39,39,94,80,36,21,2,6,0.4,0.5
2026-03-08T2200,4237A,103.7251,36.104344,兰州市,安宁西路88号,颗粒物(PM10),68,74,61,40,29,75,75,98,90,16,15,10,11,0.4,0.5
2026-03-08T2200,4238A,103.846982,36.067567,兰州市,北滨河东路1号,细颗粒物(PM2.5),60,57,47,40,30,11,11,92,68,78,29,7,10,0.8,0.7
2026-03-08T2200,1067A,116.6712,39.5109,廊坊市,药材公司,,26,12,88,3,68,81,81,91,91,7,29,3,2,0.3,0.6
2026-03-08T2200,1068A,116.7215,39.5592,廊坊市,开发区,,29,29,85,3,63,84,84,96,96,3,27,3,3,0.2,0.5
2026-03-08T2200,1070A,116.7246,39.5273,廊坊市,北华航天学院,,27,14,88,3,64,84,84,95,94,4,30,2,3,0.2,0.5
2026-03-08T2200,2919A,116.7022,39.5454,廊坊市,河北工业大学,,25,15,92,6,66,80,80,93,92,1,21,3,2,0.2,0.5
2026-03-08T2200,2536A,103.7629,29.5844,乐山市,牛耳桥,,43,38,28,30,20,25,25,36,34,24,16,5,5,0.7,0.6
2026-03-08T2200,2537A,103.7501,29.6002,乐山市,市第三水厂,,40,35,27,28,19,24,24,40,36,24,16,3,3,0.8,0.7
2026-03-08T2200,2538A,103.7571,29.5664,乐山市,市监测站,,38,35,26,26,17,26,26,38,35,19,12,6,6,0.8,0.7
2026-03-08T2200,3361A,103.7313,29.563,乐山市,理工大学,,38,32,26,26,17,26,26,38,33,20,12,6,5,0.7,0.6
2026-03-08T2200,2599A,100.2497,26.8802,丽江市,丽江古城,,45,37,44,31,30,104,104,112,108,6,6,8,8,0.5,0.4
2026-03-08T2200,2600A,100.2203,26.8906,丽江市,市中心,,39,NA,36,27,30,112,112,112,110,8,9,7,8,0.5,0.4
2026-03-08T2200,1267A,119.9141,28.4513,丽水市,监测站大楼,,32,32,42,18,23,78,78,100,94,16,12,4,4,0.3,0.2
2026-03-08T2200,1268A,119.93,28.4589,丽水市,莲都小学,,32,32,39,15,22,76,76,99,92,21,18,/,/,/,/
2026-03-08T2200,1269A,119.8794,28.4232,丽水市,余庄前,,28,28,41,14,25,64,64,95,80,14,16,3,4,0.4,0.4
2026-03-08T2200,1173A,119.1759,34.5885,连云港市,市环境监测站,,31,31,25,12,12,72,72,85,76,20,17,8,7,0.5,0.4
2026-03-08T2200,3000A,119.3577,34.6971,连云港市,德源药业,,34,34,34,12,11,69,69,87,81,22,17,6,6,0.5,0.5
2026-03-08T2200,3007A,119.178,34.8442,连云港市,新城一中,,36,36,33,25,18,36,36,86,67,58,40,8,9,0.5,0.6
2026-03-08T2200,3008A,119.3607,34.7519,连云港市,胡沟管理处,颗粒物(PM10),70,78,32,22,14,0,0,84,43,99,32,13,7,0.9,1.1
2026-03-08T2200,3009A,119.1478,34.5913,连云港市,矿山设计院,,36,36,24,17,12,72,72,85,75,24,20,10,8,0.7,0.5
2026-03-08T2200,3434A,119.2414,34.6539,连云港市,工贸学校,,44,44,26,18,11,83,83,91,76,13,12,11,10,0.4,0.3
2026-03-08T2200,3664A,119.4171,34.734,连云港市,连云街道,,18,18,31,11,15,45,45,81,68,24,22,6,9,0.3,0.4
2026-03-08T2200,2573A,102.2629,27.8981,凉山彝族自治州,西昌市政府,,27,27,27,14,18,56,56,97,90,4,6,8,11,0.8,0.9
2026-03-08T2200,2574A,102.2686,27.885,凉山彝族自治州,凉山州政府,,23,22,24,16,20,54,54,91,85,5,8,7,10,0.7,0.8
2026-03-08T2200,4229A,102.2342,27.8859,凉山彝族自治州,凯乐南路30号,,28,28,29,17,18,61,61,95,89,6,11,6,9,0.6,0.8
2026-03-08T2200,2212A,123.1978,41.2036,辽阳市,宏伟区,细颗粒物(PM2.5),131,166,80,94,61,67,67,89,69,21,20,10,10,0.9,0.8
2026-03-08T2200,2213A,123.1684,41.2497,辽阳市,新华园,细颗粒物(PM2.5),140,175,102,104,72,52,52,87,68,28,33,12,12,1.0,1.1
2026-03-08T2200,2214A,123.2355,41.2663,辽阳市,滨河路,细颗粒物(PM2.5),143,140,85,107,70,56,56,86,67,28,30,8,11,1.0,0.9
2026-03-08T2200,4083A,123.153,41.2874,辽阳市,铁西路150号,细颗粒物(PM2.5),200,188,101,150,74,43,43,84,66,39,35,10,13,1.4,1
2026-03-08T2200,2227A,125.1359,42.8845,辽源市,环保局,细颗粒物(PM2.5),130,100,75,93,58,90,90,98,96,17,24,8,10,1.3,1.1
2026-03-08T2200,4085A,125.0998,42.9134,辽源市,安宁大街333号,细颗粒物(PM2.5),140,125,86,103,64,84,84,93,90,14,19,10,12,1.1,1
2026-03-08T2200,1625A,115.9789,36.4372,聊城市,区政府,细颗粒物(PM2.5),126,119,94,88,74,60,60,99,90,32,21,11,12,0.9,0.9
2026-03-08T2200,3200A,115.9772,36.4986,聊城市,监控中心,细颗粒物(PM2.5),126,153,103,88,75,35,35,108,89,60,24,11,11,0.8,0.7
2026-03-08T2200,3513A,116.0443,36.436,聊城市,九州社区,细颗粒物(PM2.5),130,128,95,93,70,61,61,106,94,42,27,7,3,0.9,0.8
2026-03-08T2200,4018A,116.0564,36.4609,聊城市,星美广场,细颗粒物(PM2.5),153,181,110,117,78,60,60,104,93,54,17,5,5,0.9,0.8
2026-03-08T2200,4113A,116.0091,36.4495,聊城市,利民路,细颗粒物(PM2.5),132,144,97,95,72,64,64,108,98,40,20,8,9,0.8,0.8
2026-03-08T2200,2632A,94.3683,29.6373,林芝市,林芝监测站,,35,24,22,16,14,112,112,114,111,2,2,4,4,0.5,0.5
2026-03-08T2200,2633A,94.3616,29.6634,林芝市,林芝人民医院,,34,26,25,22,17,108,108,109,109,2,3,2,2,0.5,0.5
2026-03-08T2200,2603A,100.0779,23.8981,临沧市,市环保局,细颗粒物(PM2.5),106,73,81,66,72,71,71,130,118,22,11,7,7,0.8,0.7
2026-03-08T2200,2604A,100.0894,23.882,临沧市,市气象局,细颗粒物(PM2.5),113,89,80,74,72,NA,NA,133,133,15,11,10,9,0.9,0.8
2026-03-08T2200,1733A,111.5552,36.0791,临汾市,临钢医院,细颗粒物(PM2.5),109,103,83,69,62,30,30,64,53,29,20,10,11,1.2,1.4
2026-03-08T2200,1734A,111.4984,36.0734,临汾市,技工学校,细颗粒物(PM2.5),146,116,81,110,75,22,22,60,48,30,22,12,14,1.4,1.4
2026-03-08T2200,1736A,111.5017,36.0857,临汾市,市委,细颗粒物(PM2.5),138,155,91,101,64,22,22,60,48,33,20,8,10,1.5,1.3
2026-03-08T2200,3018A,111.5048,36.1015,临汾市,唐尧大酒店,细颗粒物(PM2.5),133,149,91,96,64,25,25,60,49,36,23,11,13,1.6,1.4
2026-03-08T2200,4244A,111.4879,36.053,临汾市,启星学校,细颗粒物(PM2.5),123,111,79,85,68,24,24,59,46,38,28,10,11,0.9,1
2026-03-08T2200,4271A,103.2464,35.6123,临夏回族自治州,滨河东路1号,细颗粒物(PM2.5),62,48,90,41,54,31,31,73,62,27,32,4,7,0.6,0.8
2026-03-08T2200,4310A,103.207136,35.599807,临夏回族自治州,新华街21号,细颗粒物(PM2.5),78,50,87,49,66,44,44,70,66,21,21,4,7,0.4,0.7
2026-03-08T2200,1618A,118.3429,35.0532,临沂市,沂河小区,细颗粒物(PM2.5),86,90,51,53,26,36,36,80,71,42,19,12,13,0.6,0.4
2026-03-08T2200,1619A,118.2962,35.0568,临沂市,鲁南制药厂,细颗粒物(PM2.5),104,97,49,64,28,47,47,88,78,53,25,20,14,0.7,0.3
2026-03-08T2200,1620A,118.2793,34.9976,临沂市,新光毛纺厂,细颗粒物(PM2.5),126,132,47,88,32,13,13,82,68,74,25,28,13,1.1,0.6
2026-03-08T2200,1621A,118.3955,35.0889,临沂市,河东保险公司,细颗粒物(PM2.5),100,107,57,60,32,23,23,89,70,75,36,14,13,0.6,0.4
2026-03-08T2200,3370A,118.3563,35.0215,临沂市,十里堡居委,细颗粒物(PM2.5),107,110,50,67,29,24,24,87,68,66,26,19,14,1.0,0.6
2026-03-08T2200,3496A,118.359,35.1067,临沂市,南坊新区,细颗粒物(PM2.5),86,92,50,53,26,44,44,87,71,47,23,12,14,0.8,0.5
2026-03-08T2200,3860A,118.3915,35.0297,临沂市,皇山花园小区,"颗粒物(PM10),细颗粒物(PM2.5)",74,83,47,47,27,57,57,91,80,39,26,15,18,0.5,0.4
2026-03-08T2200,1870A,109.4854,24.3898,柳州市,柳东小学,,16,16,48,7,37,14,14,52,29,9,10,4,5,0.9,0.9
2026-03-08T2200,1871A,109.4109,24.3304,柳州市,环保监测站,,20,20,50,3,37,17,17,42,16,17,19,5,6,1.1,1.1
2026-03-08T2200,1872A,109.3886,24.3408,柳州市,河西水厂,,28,28,58,10,43,14,14,39,13,18,20,21,11,1.6,1.3
2026-03-08T2200,1873A,109.4263,24.2951,柳州市,市四中,,12,8,43,8,41,19,19,46,23,12,15,6,8,0.9,0.8
2026-03-08T2200,1874A,109.396,24.3658,柳州市,市九中,,13,13,56,3,45,17,17,31,15,13,18,9,10,1.0,1
2026-03-08T2200,1875A,109.4912,24.3164,柳州市,古亭山,,15,15,42,8,41,20,20,61,39,8,10,6,7,0.9,0.9
2026-03-08T2200,3402A,109.5422,24.3994,柳州市,市二中,,19,19,39,8,35,38,38,61,44,11,13,5,6,0.8,0.7
2026-03-08T2200,2307A,116.5078,31.7369,六安市,监测大楼,细颗粒物(PM2.5),100,74,60,60,49,92,92,102,102,21,18,5,5,0.6,0.5
2026-03-08T2200,2308A,116.4738,31.7642,六安市,皖西学院,细颗粒物(PM2.5),100,87,64,60,48,94,94,110,109,20,17,4,4,0.4,0.4
2026-03-08T2200,2309A,116.4997,31.7904,六安市,朝阳厂,细颗粒物(PM2.5),102,78,56,62,47,88,88,108,106,30,24,5,5,0.5,0.5
2026-03-08T2200,2310A,116.5566,31.7885,六安市,开发区,细颗粒物(PM2.5),92,85,60,56,45,86,86,110,107,32,23,5,5,0.5,0.4
2026-03-08T2200,2577A,104.8293,26.592,六盘水市,黄土坡,,28,NA,14,19,10,36,36,46,42,16,12,7,6,0.8,0.8
2026-03-08T2200,2579A,104.8481,26.5898,六盘水市,民中,,29,23,15,20,9,32,32,48,44,17,12,4,4,0.8,0.8
2026-03-08T2200,2580A,104.9541,26.5506,六盘水市,双水,,17,17,16,11,7,36,36,48,45,12,10,4,4,0.3,0.4
2026-03-08T2200,4151A,104.8899,26.5685,六盘水市,钟山大道中段564号,,19,16,14,13,7,30,30,48,44,15,10,7,7,0.8,0.8
2026-03-08T2200,2336A,117.022,25.1031,龙岩市,龙岩市监测站,,46,38,38,32,24,34,34,102,86,43,12,42,9,1.1,0.8
2026-03-08T2200,2337A,117.0257,25.0662,龙岩市,闽西职业技术学院,,28,28,41,18,23,68,68,103,90,10,9,5,6,0.5,0.5
2026-03-08T2200,2338A,117.0195,25.0306,龙岩市,龙岩学院,,33,33,38,20,23,52,52,104,85,11,8,4,4,/,/
2026-03-08T2200,2885A,104.9344,33.3827,陇南市,滨江中学,,40,40,40,15,11,73,73,45,45,10,15,6,9,0.5,0.7
2026-03-08T2200,3247A,104.9551,33.3709,陇南市,市总工会,,29,29,34,15,12,73,73,46,46,9,11,5,5,0.6,0.7
2026-03-08T2200,2488A,111.9984,27.7346,娄底市,市监测站,,15,15,14,10,11,31,31,46,36,21,19,6,7,0.7,0.8
2026-03-08T2200,2491A,111.9888,27.7035,娄底市,市政府,,19,19,14,11,11,35,35,48,35,15,11,2,2,0.5,0.4
2026-03-08T2200,4127A,111.9812,27.7591,娄底市,涟钢职大,,23,NA,16,16,10,34,34,44,34,11,12,1,2,0.3,1.2
2026-03-08T2200,4128A,112.0303,27.7457,娄底市,娄底体校,,20,20,18,12,10,20,20,48,28,22,9,2,2,0.8,0.6
2026-03-08T2200,1894A,105.4427,28.9063,泸州市,小市上码头,细颗粒物(PM2.5),74,54,46,47,40,18,18,42,36,21,21,8,9,0.6,0.6
2026-03-08T2200,1895A,105.4241,28.8573,泸州市,兰田宪桥,细颗粒物(PM2.5),60,62,52,40,34,18,18,40,34,20,20,7,8,0.7,0.7
2026-03-08T2200,1896A,105.4378,28.8833,泸州市,市环监站,颗粒物(PM10),62,66,55,38,33,16,16,37,32,24,22,5,9,0.7,0.5
2026-03-08T2200,4272A,105.3689,28.7783,泸州市,纳溪中医医院,细颗粒物(PM2.5),74,48,47,47,45,20,20,42,36,14,18,6,7,0.7,0.7
2026-03-08T2200,2183A,111.1447,37.5212,吕梁市,环保局,细颗粒物(PM2.5),109,123,65,69,41,7,7,48,37,61,36,8,6,0.7,0.5
2026-03-08T2200,2185A,111.1285,37.5338,吕梁市,自来水公司,细颗粒物(PM2.5),102,97,66,62,40,18,18,48,43,44,28,6,6,0.7,0.6
2026-03-08T2200,2867A,111.1225,37.5093,吕梁市,马茂庄小学,细颗粒物(PM2.5),102,118,74,62,40,7,7,49,37,54,35,16,8,0.8,0.7
2026-03-08T2200,1812A,112.3934,34.6517,洛阳市,市委党校,细颗粒物(PM2.5),78,55,64,49,59,46,46,64,60,22,21,6,7,1.0,0.8
2026-03-08T2200,1815A,112.494,34.6883,洛阳市,河南林校,细颗粒物(PM2.5),88,70,74,54,56,37,37,64,57,33,26,10,9,0.9,0.8
2026-03-08T2200,1816A,112.3843,34.623,洛阳市,开发区管委会,细颗粒物(PM2.5),80,69,76,50,52,46,46,70,64,21,17,9,9,0.9,0.7
2026-03-08T2200,1817A,112.4263,34.6249,洛阳市,市委新办公区,细颗粒物(PM2.5),102,69,74,62,60,48,48,68,64,21,20,7,7,0.8,0.6
2026-03-08T2200,3340A,112.6005,34.6323,洛阳市,伊滨,细颗粒物(PM2.5),90,69,81,55,58,47,47,72,67,21,20,8,7,0.8,0.7
2026-03-08T2200,3341A,112.495,34.6338,洛阳市,中移产业园,细颗粒物(PM2.5),90,59,68,55,57,46,46,69,65,20,19,8,7,0.8,0.7
2026-03-08T2200,3593A,112.5736,34.8993,洛阳市,吉利监测站,细颗粒物(PM2.5),90,64,59,55,52,53,53,75,70,22,17,7,7,0.9,0.6
2026-03-08T2200,3635A,112.3678,34.6623,洛阳市,河科大西苑校区,细颗粒物(PM2.5),90,55,62,55,51,52,52,68,64,16,16,7,7,0.9,0.8
2026-03-08T2200,3636A,112.4387,34.678,洛阳市,英才小学,细颗粒物(PM2.5),80,65,73,50,55,45,45,68,63,28,24,10,8,0.9,0.7
2026-03-08T2200,4214A,112.460027,34.694929,洛阳市,春都路1号院,细颗粒物(PM2.5),88,69,79,54,54,35,35,58,53,26,21,12,8,1.0,0.8
2026-03-08T2200,2399A,114.051,33.5721,漯河市,三五一五工厂,细颗粒物(PM2.5),136,141,103,99,77,31,31,92,78,50,28,5,5,1.2,1
2026-03-08T2200,2400A,114.0055,33.5698,漯河市,漯河大学,细颗粒物(PM2.5),146,124,91,110,82,30,30,94,79,55,24,6,7,0.9,0.6
2026-03-08T2200,2401A,114.0134,33.5826,漯河市,市水利局,细颗粒物(PM2.5),123,114,90,85,75,42,42,92,80,49,26,5,7,1.0,0.6
2026-03-08T2200,2402A,114.0261,33.5697,漯河市,市广电局,细颗粒物(PM2.5),129,125,89,91,76,27,27,86,74,52,23,5,7,0.8,0.6
2026-03-08T2200,3478A,113.9691,33.568,漯河市,市图书馆,细颗粒物(PM2.5),119,124,108,80,78,49,49,85,79,40,26,6,6,0.9,0.9
2026-03-08T2200,4250A,114.089259,33.588274,漯河市,韶山路11号,细颗粒物(PM2.5),130,132,99,93,74,43,43,88,74,45,32,6,6,0.9,0.7
2026-03-08T2200,1798A,118.5084,31.6838,马鞍山市,湖东路四小,颗粒物(PM10),58,61,50,38,31,62,62,95,90,31,20,8,6,0.5,0.4
2026-03-08T2200,1799A,118.5019,31.6449,马鞍山市,开发区,颗粒物(PM10),60,64,53,35,30,62,62,99,94,34,23,6,5,0.5,0.4
2026-03-08T2200,3633A,118.4914,31.681,马鞍山市,雨山,颗粒物(PM10),65,70,60,39,33,64,64,95,91,30,19,6,4,0.6,0.5
2026-03-08T2200,4191A,118.527362,31.722269,马鞍山市,慈湖高新区,细颗粒物(PM2.5),56,57,48,38,32,55,55,96,90,37,21,6,5,0.3,0.4
2026-03-08T2200,1686A,111.0285,21.469,茂名市,电白南海,颗粒物(PM10),53,53,57,20,22,113,113,115,115,13,12,5,6,0.7,0.7
2026-03-08T2200,1687A,110.9294,21.6533,茂名市,茂石化七小,颗粒物(PM10),53,53,53,23,25,100,100,112,111,18,16,6,7,0.5,0.5
2026-03-08T2200,1688A,110.9108,21.6688,茂名市,健康路,,44,44,47,20,23,113,113,121,121,16,14,4,4,0.7,0.7
2026-03-08T2200,1689A,110.8592,21.6826,茂名市,高岭,颗粒物(PM10),56,58,59,20,24,117,117,120,119,15,16,4,5,/,/
2026-03-08T2200,3450A,111.0101,21.5165,茂名市,电白水东,,46,46,49,19,21,108,108,113,113,12,12,4,4,/,/
2026-03-08T2200,2540A,103.8414,30.0871,眉山市,气象局,,44,44,42,23,19,23,23,50,37,18,18,6,6,0.6,0.6
2026-03-08T2200,3148A,103.829,30.0563,眉山市,区人社局,,48,48,47,28,23,19,19,41,31,23,21,7,8,0.7,0.7
2026-03-08T2200,4148A,103.8836,30.0695,眉山市,眉职院,,43,43,34,28,18,19,19,49,39,22,16,5,5,0.8,0.6
2026-03-08T2200,1690A,116.1248,24.3307,梅州市,梅江月梅,,46,46,43,28,25,50,50,97,83,23,12,/,/,/,/
2026-03-08T2200,1691A,116.0798,24.2719,梅州市,梅县新城,细颗粒物(PM2.5),90,84,55,55,34,10,10,103,70,52,23,8,9,0.9,0.7
2026-03-08T2200,3315A,116.1234,24.2994,梅州市,梅龙,,44,44,48,25,25,82,82,110,94,18,11,12,7,0.8,0.7
2026-03-08T2200,1878A,104.7775,31.4741,绵阳市,富乐山,,35,35,32,23,21,1,1,47,28,26,12,6,9,0.8,0.6
2026-03-08T2200,1880A,104.6698,31.4668,绵阳市,高新区自来水公司,,38,38,37,23,22,1,1,39,19,38,28,7,7,0.9,0.7
2026-03-08T2200,3491A,104.6899,31.5324,绵阳市,西科大附属小学,,35,35,35,23,23,6,6,38,22,28,27,7,7,0.7,0.6
2026-03-08T2200,3492A,104.5647,31.5343,绵阳市,安州区旅游局,,45,45,38,22,21,4,4,37,24,28,17,4,5,0.7,0.6
2026-03-08T2200,4146A,104.7092,31.4972,绵阳市,科技城新区公安局,,34,34,36,20,22,13,13,39,27,35,24,8,8,0.7,0.6
2026-03-08T2200,4226A,104.765114,31.453094,绵阳市,绵阳市气象局,,38,38,34,25,23,0,0,34,21,38,17,10,10,0.9,0.7
2026-03-08T2200,1784A,129.61,44.561,牡丹江市,环保大楼,细颗粒物(PM2.5),64,58,40,42,28,55,55,96,88,40,20,5,4,0.8,0.4
2026-03-08T2200,1787A,129.6364,44.6075,牡丹江市,机车工厂,颗粒物(PM10),75,85,49,36,31,40,40,94,80,37,21,10,8,0.5,0.6
2026-03-08T2200,1788A,129.6386,44.5462,牡丹江市,第一中学,颗粒物(PM10),51,51,31,35,22,50,50,94,80,29,18,7,4,0.7,0.6
2026-03-08T2200,4287A,129.5992,44.5964,牡丹江市,东晓云街98号,细颗粒物(PM2.5),94,67,38,57,28,61,61,96,84,23,17,7,4,0.8,0.5
2026-03-08T2200,2531A,105.0703,29.61,内江市,市监测站,,29,20,32,20,27,24,24,29,23,16,15,5,6,0.5,0.5
2026-03-08T2200,2533A,105.0657,29.5807,内江市,内江二中,,49,49,39,20,22,25,25,33,25,18,16,7,7,0.6,0.5
2026-03-08T2200,2534A,105.0407,29.5828,内江市,内江日报社,,25,22,29,17,21,27,27,33,26,15,16,7,8,0.6,0.5
2026-03-08T2200,4147A,105.0433,29.6105,内江市,玉峰路西段888号,,36,29,22,25,26,29,29,35,28,11,11,5,6,0.4,0.3
2026-03-08T2200,2628A,92.0653,31.4846,那曲市,那曲监测站,,49,37,63,34,34,61,61,98,92,34,20,9,8,1.2,1
2026-03-08T2200,4243A,92.0515,31.4787,那曲市,那曲市委宣传部,,26,17,41,14,21,82,82,105,102,1,9,6,8,0.3,0.6
2026-03-08T2200,1291A,115.8887,28.7006,南昌市,省林业公司,细颗粒物(PM2.5),56,46,47,38,41,70,70,87,86,20,16,4,4,0.6,0.6
2026-03-08T2200,1292A,115.813,28.7443,南昌市,林科所,细颗粒物(PM2.5),60,58,51,40,38,51,51,89,83,33,13,8,8,0.7,0.7
2026-03-08T2200,1294A,115.8518,28.687,南昌市,建工学校,"颗粒物(PM10),细颗粒物(PM2.5)",56,58,64,38,43,69,69,85,83,26,19,7,7,0.5,0.5
2026-03-08T2200,1295A,115.8926,28.6425,南昌市,象湖,细颗粒物(PM2.5),66,44,51,43,43,71,71,89,87,24,20,8,8,0.5,0.6
2026-03-08T2200,3046A,115.9084,28.6062,南昌市,机电学校,细颗粒物(PM2.5),60,56,65,40,45,72,72,89,88,21,17,5,5,0.6,0.6
2026-03-08T2200,3690A,115.9718,28.7032,南昌市,外国语学校,细颗粒物(PM2.5),60,50,56,40,44,55,55,90,86,43,20,7,7,0.8,0.8
2026-03-08T2200,4106A,115.7923,28.6873,南昌市,工业二路,细颗粒物(PM2.5),62,59,64,41,43,80,80,91,90,19,19,4,5,0.6,0.7
2026-03-08T2200,4192A,115.931587,28.686774,南昌市,南京东路235号,细颗粒物(PM2.5),62,60,60,41,44,76,76,91,90,20,16,6,6,0.6,0.6
2026-03-08T2200,1906A,106.0791,30.8022,南充市,南充市委,,35,33,34,24,23,21,21,31,27,19,15,6,6,0.6,0.5
2026-03-08T2200,1907A,106.1038,30.8215,南充市,南充炼油厂,,34,34,38,20,17,20,20,31,27,21,15,5,6,0.7,0.6
2026-03-08T2200,4227A,106.108336,30.788436,南充市,梨树横街98号,,36,34,33,25,23,19,19,35,32,28,16,6,7,0.5,0.4
2026-03-08T2200,4304A,106.1172,30.843,南充市,清泉寺北路188号,,35,26,29,24,22,22,22,39,33,17,10,6,6,0.6,0.5
2026-03-08T2200,4305A,106.067,30.7616,南充市,同庆路1号,,46,46,34,22,25,24,24,30,28,21,16,6,6,0.7,0.6
2026-03-08T2200,1151A,118.8033,32.1085,南京市,迈皋桥,颗粒物(PM10),58,60,44,36,25,68,68,96,78,27,21,8,7,0.6,0.5
2026-03-08T2200,1152A,118.7487,32.057,南京市,草场门,颗粒物(PM10),60,63,45,36,25,56,56,88,72,52,30,11,10,0.5,0.4
2026-03-08T2200,1154A,118.770105,32.004342,南京市,中华门,颗粒物(PM10),58,61,46,32,19,52,52,88,71,21,11,7,6,0.6,0.5
2026-03-08T2200,1155A,118.8059,32.0329,南京市,瑞金路,细颗粒物(PM2.5),68,63,44,44,20,56,56,86,70,32,21,4,4,0.6,0.7
2026-03-08T2200,1156A,118.7946,32.0774,南京市,玄武湖,颗粒物(PM10),61,65,44,34,24,41,41,81,59,49,21,10,9,0.8,0.6
2026-03-08T2200,1157A,118.6415,32.0964,南京市,浦口,颗粒物(PM10),69,76,54,42,25,36,36,81,70,55,26,7,6,0.5,0.4
2026-03-08T2200,1158A,118.730129,32.000956,南京市,奥体中心,颗粒物(PM10),60,63,49,31,19,64,64,90,76,38,26,10,8,0.5,0.4
2026-03-08T2200,1159A,118.9072,32.1047,南京市,仙林大学城,颗粒物(PM10),58,61,50,36,19,60,60,85,69,33,23,7,7,0.8,0.7
2026-03-08T2200,3422A,118.8443,31.919,南京市,江宁彩虹桥,颗粒物(PM10),55,57,52,29,19,48,48,106,90,53,19,6,4,0.7,0.6
2026-03-08T2200,3427A,118.8497,32.3599,南京市,六合雄州,,50,50,34,32,18,49,49,76,69,32,24,4,4,0.8,0.7
2026-03-08T2200,4086A,118.7641,32.0841,南京市,新模范马路66号,颗粒物(PM10),63,68,50,36,19,73,73,102,81,43,24,4,4,0.6,0.6
2026-03-08T2200,4249A,118.8707617,31.34017673,南京市,汶溪路181号,颗粒物(PM10),61,65,52,35,30,60,60,108,100,34,20,9,8,0.5,0.3
2026-03-08T2200,4312A,119.019,31.6512,南京市,中山西路1号,颗粒物(PM10),58,61,41,26,19,43,43,98,83,28,14,4,4,0.9,0.7
2026-03-08T2200,1401A,108.3098,22.788,南宁市,二十一中,细颗粒物(PM2.5),113,NA,45,74,33,76,76,90,84,17,10,5,5,0.8,0.7
2026-03-08T2200,1402A,108.3135,22.8529,南宁市,北湖,细颗粒物(PM2.5),139,NA,50,102,37,69,69,92,85,21,13,5,3,0.9,0.6
2026-03-08T2200,1403A,108.3205,22.8222,南宁市,市监测站,细颗粒物(PM2.5),115,NA,48,76,31,78,78,97,89,21,12,6,6,0.8,0.7
2026-03-08T2200,1404A,108.3828,22.8038,南宁市,大自然花园,细颗粒物(PM2.5),120,105,50,82,33,82,82,100,92,16,7,6,6,0.6,0.4
2026-03-08T2200,1406A,108.2397,22.8462,南宁市,区农职院,细颗粒物(PM2.5),98,67,48,59,30,73,73,85,80,15,13,6,6,0.7,0.5
2026-03-08T2200,1407A,108.3285,22.7356,南宁市,英华嘉园,细颗粒物(PM2.5),113,76,58,74,35,78,78,92,86,19,14,4,4,0.8,0.7
2026-03-08T2200,3401A,108.4829,22.762,南宁市,红星社区,细颗粒物(PM2.5),136,105,51,99,35,77,77,98,91,20,11,5,5,0.8,0.5
2026-03-08T2200,4132A,108.2927,23.1477,南宁市,起凤路9号,细颗粒物(PM2.5),148,135,58,112,41,57,57,91,80,21,14,3,4,1.1,0.7
2026-03-08T2200,4221A,108.2177,22.7774,南宁市,乐贤路16号,细颗粒物(PM2.5),102,77,52,62,32,63,63,88,78,32,20,3,3,0.5,0.4
2026-03-08T2200,2332A,118.1682,26.6371,南平市,南平市监测站,,26,26,34,16,20,44,44,93,71,19,9,6,4,0.2,0.2
2026-03-08T2200,2334A,118.1757,26.6276,南平市,南平七中,,26,26,35,14,19,48,48,97,77,17,8,2,2,0.4,0.4
2026-03-08T2200,1168A,120.9056,31.9669,南通市,狼山街道,,33,33,28,13,9,77,77,87,84,15,12,4,4,0.4,0.4
2026-03-08T2200,1170A,120.8635,32.0231,南通市,城中,,36,36,33,17,9,77,77,94,88,17,13,4,2,0.7,0.5
2026-03-08T2200,1171A,120.9376,31.9301,南通市,星湖花园,,28,28,28,13,10,80,80,94,88,14,11,3,4,0.4,0.4
2026-03-08T2200,1172A,120.8053,32.046,南通市,紫琅学院,,27,27,29,14,9,80,80,86,85,15,16,6,5,0.9,0.7
2026-03-08T2200,3291A,121.0631,32.0644,南通市,通州监测站,,30,22,23,9,7,93,93,100,96,12,10,4,4,0.6,0.6
2026-03-08T2200,3432A,120.9348,31.9874,南通市,环境教育馆,,34,34,31,17,10,71,71,97,90,20,14,4,4,0.4,0.3
2026-03-08T2200,4091A,120.8692,31.9885,南通市,洪江路,,30,30,27,14,10,73,73,84,78,17,13,4,4,0.5,0.5
2026-03-08T2200,2404A,112.5338,33.0086,南阳市,瓦房庄,细颗粒物(PM2.5),88,72,76,54,57,45,45,71,65,19,15,4,4,0.8,0.8
2026-03-08T2200,2405A,112.5002,32.9734,南阳市,汉画馆,细颗粒物(PM2.5),113,84,80,74,71,36,36,67,58,27,20,4,4,0.8,0.8
2026-03-08T2200,2406A,112.5778,33.0144,南阳市,气象站,细颗粒物(PM2.5),90,82,91,55,59,46,46,73,66,22,19,5,5,0.9,0.8
2026-03-08T2200,2407A,112.548,32.9687,南阳市,理工学院,细颗粒物(PM2.5),98,72,79,59,57,44,44,65,60,18,16,5,5,0.9,0.8
2026-03-08T2200,4008A,112.5233,32.9921,南阳市,卧龙区政府,细颗粒物(PM2.5),76,80,84,48,54,37,37,65,58,22,17,5,5,0.8,0.8
2026-03-08T2200,1234A,121.8352,29.9111,宁波市,区环保大楼,,34,34,31,10,11,56,56,75,66,40,26,6,7,0.3,0.4
2026-03-08T2200,1235A,121.5595,29.8208,宁波市,万里学院,,28,28,38,6,18,78,78,81,80,15,21,4,4,0.3,0.4
2026-03-08T2200,1236A,121.713,29.9564,宁波市,龙赛医院,,32,32,36,9,13,59,59,74,70,29,24,5,5,0.6,0.5
2026-03-08T2200,1240A,121.5855,29.8635,宁波市,太古小学,,33,33,35,10,15,74,74,84,79,26,24,3,4,0.4,0.4
2026-03-08T2200,1241A,121.5239,29.8673,宁波市,市环境监测中心,,35,35,37,8,15,69,69,83,79,23,21,4,5,0.4,0.5
2026-03-08T2200,2871A,121.6156,29.9015,宁波市,万里国际学校,,33,33,33,9,14,73,73,84,75,22,22,4,5,0.5,0.6
2026-03-08T2200,3710A,121.5593,29.8976,宁波市,白沙活动中心,,32,32,31,11,15,64,64,87,80,23,19,4,5,0.3,0.4
2026-03-08T2200,4095A,121.8962,29.7529,宁波市,中科路88号,,32,32,25,11,9,28,28,89,82,40,20,5,5,0.5,0.5
2026-03-08T2200,2341A,119.5387,26.6611,宁德市,宁德市监测站,,28,27,41,9,21,89,89,88,88,14,18,4,6,0.3,0.5
2026-03-08T2200,3209A,119.5231,26.6562,宁德市,宁德一中,,28,26,40,10,21,88,88,90,89,10,15,4,6,0.3,0.4
2026-03-08T2200,2618A,98.859,25.8541,怒江傈僳族自治州,州监测站,细颗粒物(PM2.5),112,81,71,73,61,93,93,104,102,11,10,8,8,0.6,0.6
2026-03-08T2200,2619A,98.8607,25.8168,怒江傈僳族自治州,泸水一中,细颗粒物(PM2.5),115,NA,64,76,59,72,72,90,80,14,11,6,6,0.9,0.7
2026-03-08T2200,1888A,101.6891,26.571,攀枝花市,弄弄坪,细颗粒物(PM2.5),72,79,87,46,56,88,88,127,114,22,24,13,17,0.8,1.2
2026-03-08T2200,1889A,101.577,26.5914,攀枝花市,河门口,细颗粒物(PM2.5),106,88,96,66,62,88,88,118,108,10,20,10,31,0.7,1
2026-03-08T2200,1891A,101.7365,26.4986,攀枝花市,仁和,细颗粒物(PM2.5),82,70,67,51,56,82,82,118,108,13,13,7,9,0.6,0.6
2026-03-08T2200,2835A,101.7222,26.567,攀枝花市,四十中小,细颗粒物(PM2.5),78,60,62,49,52,90,90,120,110,24,25,12,17,1.1,1.1
2026-03-08T2200,1604A,122.0303,41.1489,盘锦市,开发区,颗粒物(PM10),60,64,46,14,34,65,65,94,83,15,20,5,7,0.4,0.6
2026-03-08T2200,1605A,122.0486,41.0883,盘锦市,兴隆台,颗粒物(PM10),55,56,40,12,39,72,72,90,76,14,30,6,9,0.4,0.6
2026-03-08T2200,1606A,121.8297,41.1026,盘锦市,新生街道,NA,NA,NA,37,6,28,43,43,92,60,42,27,8,8,0.3,0.4
2026-03-08T2200,1832A,113.3257,33.7423,平顶山市,新华旅馆,细颗粒物(PM2.5),98,80,99,59,73,53,53,73,66,26,25,5,5,0.6,0.5
2026-03-08T2200,1833A,113.2917,33.737,平顶山市,规划设计院,细颗粒物(PM2.5),80,86,104,50,70,47,47,71,63,26,26,6,6,0.8,0.6
2026-03-08T2200,1834A,113.182,33.7738,平顶山市,平顶山工学院,细颗粒物(PM2.5),98,76,89,59,69,54,54,70,66,18,20,3,3,0.6,0.5
2026-03-08T2200,3594A,112.8736,33.9068,平顶山市,石龙区,细颗粒物(PM2.5),80,72,72,50,54,52,52,66,65,24,22,6,5,0.7,0.7
2026-03-08T2200,4116A,113.284,33.7139,平顶山市,姚电大道23号,细颗粒物(PM2.5),100,92,109,60,73,40,40,72,59,35,27,4,5,0.7,0.7
2026-03-08T2200,2656A,106.6633,35.5338,平凉市,聚贤嘉苑,细颗粒物(PM2.5),58,51,45,39,30,31,31,57,50,41,26,6,5,0.7,0.9
2026-03-08T2200,2657A,106.7021,35.5307,平凉市,博物馆,细颗粒物(PM2.5),80,65,51,50,32,2,2,49,38,58,26,10,9,1.2,1
2026-03-08T2200,2348A,113.8384,27.6436,萍乡市,中医院,,43,43,61,29,42,67,67,82,75,17,19,3,4,0.4,0.5
2026-03-08T2200,2350A,113.8677,27.6438,萍乡市,市环保局,,49,37,49,34,43,55,55,71,64,13,12,2,4,0.5,0.6
2026-03-08T2200,2351A,113.8663,27.6202,萍乡市,安源区政府,细颗粒物(PM2.5),52,50,63,36,46,42,42,63,53,18,15,4,5,0.8,0.8
2026-03-08T2200,4107A,113.8686,27.6668,萍乡市,联洪村委会,,42,42,54,26,37,51,51,66,62,10,8,1,2,0.4,0.4
2026-03-08T2200,2319A,119.0142,25.4324,莆田市,荔城区仓后路,,41,41,35,24,15,68,68,99,79,17,10,/,/,/,/
2026-03-08T2200,2320A,119.0016,25.4553,莆田市,莆田市监测站,,39,37,31,27,14,67,67,106,84,9,6,4,2,0.4,0.4
2026-03-08T2200,2321A,119.112,25.4561,莆田市,涵江区六中,,29,29,33,14,12,82,82,100,85,8,7,/,/,0.4,0.4
2026-03-08T2200,2322A,119.1014,25.3215,莆田市,秀屿区政府,,28,28,37,12,14,89,89,98,90,6,7,3,3,0.4,0.4
2026-03-08T2200,2392A,115.0312,35.7636,濮阳市,环保局,细颗粒物(PM2.5),135,NA,70,98,74,51,51,82,75,46,23,6,6,0.9,0.7
2026-03-08T2200,3021A,115,35.7667,濮阳市,濮水河管理处,细颗粒物(PM2.5),129,109,95,91,75,44,44,85,72,25,17,7,7,0.9,0.7
2026-03-08T2200,4118A,115.0552,35.7816,濮阳市,中原东路68号,细颗粒物(PM2.5),192,184,103,144,77,27,27,87,73,53,20,6,5,0.8,0.6
2026-03-08T2200,4216A,115.0923632,35.76857718,濮阳市,任丘路479号,细颗粒物(PM2.5),143,143,98,107,76,45,45,93,81,48,23,6,6,0.9,0.7
2026-03-08T2200,2601A,100.9801,22.7634,普洱市,市环保局,颗粒物(PM10),80,92,96,39,51,83,83,129,116,10,9,6,6,0.8,0.8
2026-03-08T2200,2602A,100.9763,22.8237,普洱市,普洱第二中学,颗粒物(PM10),85,99,93,49,58,82,82,129,115,19,15,3,4,0.7,0.7
2026-03-08T2200,3345A,131.0413,45.7795,七台河市,中波台,颗粒物(PM10),58,60,41,34,17,60,60,94,86,29,16,8,12,0.5,0.4
2026-03-08T2200,3637A,131.0136,45.7688,七台河市,人民广场,,48,48,36,20,14,58,58,92,82,32,20,7,10,0.5,0.4
2026-03-08T2200,3684A,130.8639,45.8144,七台河市,新建矿广场,颗粒物(PM10),55,56,45,34,19,49,49,90,73,26,16,8,6,0.4,0.2
2026-03-08T2200,1779A,123.9307,47.3641,齐齐哈尔市,安居小区,细颗粒物(PM2.5),102,75,55,62,32,79,79,94,93,29,18,6,7,0.6,0.5
2026-03-08T2200,1780A,123.9497,47.3389,齐齐哈尔市,中心广场,NA,NA,NA,29,NA,16,NA,NA,72,NA,NA,16,NA,8,NA,0.4
2026-03-08T2200,1781A,123.9483,47.3229,齐齐哈尔市,农牧车辆厂,细颗粒物(PM2.5),103,75,52,63,33,91,91,93,93,12,12,9,9,0.4,0.4
2026-03-08T2200,1783A,123.9442,47.2994,齐齐哈尔市,市环境监测站,细颗粒物(PM2.5),96,83,54,58,28,88,88,92,92,26,18,6,5,0.6,0.5
2026-03-08T2200,3662A,123.6341,47.2079,齐齐哈尔市,富区青少年活动中心,细颗粒物(PM2.5),100,70,64,60,31,85,85,89,88,13,11,5,4,0.6,0.5
2026-03-08T2200,2591A,107.9765,26.5724,黔东南苗族侗族自治州,市环境监测站,,15,7,6,7,7,47,47,42,40,7,9,3,3,0.7,0.7
2026-03-08T2200,2881A,107.8909,26.531,黔东南苗族侗族自治州,凯里学院,,16,NA,5,8,4,49,49,45,43,12,13,3,3,0.8,0.8
2026-03-08T2200,2593A,107.5223,26.2371,黔南布依族苗族自治州,小围寨,,12,NA,1,6,4,36,36,37,34,6,6,5,5,0.9,0.8
2026-03-08T2200,3538A,107.5175,26.2977,黔南布依族苗族自治州,沙坝,,9,7,5,3,3,28,28,39,33,9,7,4,4,0.9,0.9
2026-03-08T2200,2589A,104.9022,25.0943,黔西南布依族苗族自治州,场坝街,,26,26,23,7,14,33,33,52,43,8,5,5,3,0.8,0.7
2026-03-08T2200,2590A,104.8812,25.0994,黔西南布依族苗族自治州,坪东大道,,20,20,21,12,13,31,31,50,40,11,9,6,5,0.9,0.8
2026-03-08T2200,2502A,108.6238,21.9667,钦州市,市环保站,细颗粒物(PM2.5),103,105,67,63,32,64,64,97,82,24,17,13,6,0.7,0.5
2026-03-08T2200,2503A,108.655,21.9481,钦州市,沙埠小学,细颗粒物(PM2.5),112,96,63,73,32,63,63,103,88,26,15,6,6,0.7,0.6
2026-03-08T2200,2504A,108.5989,21.7435,钦州市,港区一小,颗粒物(PM10),68,75,61,42,27,67,67,110,101,28,15,3,4,0.5,0.5
2026-03-08T2200,3404A,108.5959,21.9634,钦州市,北职校,细颗粒物(PM2.5),107,100,58,67,32,55,55,104,87,30,16,5,5,0.9,0.7
2026-03-08T2200,1046A,119.5247,39.9346,秦皇岛市,建设大厦,,32,32,72,10,47,68,68,77,68,15,22,4,11,0.3,0.8
2026-03-08T2200,3132A,119.5979,39.938,秦皇岛市,文明里,,26,21,78,3,47,82,82,65,53,14,33,7,13,0.2,0.8
2026-03-08T2200,4066A,119.7458,39.9952,秦皇岛市,南园路157号,,38,38,81,3,55,59,59,58,41,28,45,7,12,0.3,0.9
2026-03-08T2200,4067A,119.5131,39.8858,秦皇岛市,翠岛大街1号,,42,42,73,7,54,76,76,69,62,10,31,7,11,0.3,0.8
2026-03-08T2200,4198A,119.509013,39.825305,秦皇岛市,北戴河轮滑馆,,40,40,73,3,47,82,82,60,53,12,30,6,9,0.2,0.8
2026-03-08T2200,1310A,120.404,36.0625,青岛市,市南区东部子站,,30,12,19,3,13,94,94,103,100,6,10,8,8,0.4,0.5
2026-03-08T2200,1311A,120.362344,36.10282,青岛市,四方区子站,,29,14,22,6,14,91,91,106,103,15,13,4,5,0.5,0.5
2026-03-08T2200,1312A,120.294373,36.054183,青岛市,市南区西部子站,,27,9,19,3,12,86,86,99,96,13,17,2,3,0.4,0.4
2026-03-08T2200,1313A,120.4581,36.0858,青岛市,崂山区子站,,28,14,19,3,12,88,88,108,104,7,6,6,6,0.3,0.3
2026-03-08T2200,1315A,120.3945,36.3083,青岛市,城阳区子站,,34,34,35,14,20,83,83,98,92,25,24,6,6,0.6,0.6
2026-03-08T2200,3642A,120.3454,36.0735,青岛市,市北区南部,,29,17,22,3,12,91,91,103,101,3,8,1,3,0.4,0.5
2026-03-08T2200,3643A,120.3897,36.18,青岛市,李沧区北部,,31,31,31,13,19,78,78,98,92,20,20,7,8,0.6,0.6
2026-03-08T2200,4110A,120.5222,36.4089,青岛市,盟旺路653号,,37,37,34,20,20,86,86,106,98,18,13,3,3,0.6,0.6
2026-03-08T2200,4290A,120.196923,35.954556,青岛市,珠江路669号,,32,7,14,3,12,101,101,106,104,11,14,7,8,0.3,0.3
2026-03-08T2200,4291A,120.0424,35.8656,青岛市,黄岛区人民政府广场,,27,14,26,3,16,84,84,103,98,12,16,7,7,0.4,0.5
2026-03-08T2200,1703A,113.0218,23.7086,清远市,凤城街办,颗粒物(PM10),53,54,54,34,37,96,96,134,120,16,22,/,/,/,/
2026-03-08T2200,3025A,113.0479,23.6343,清远市,技师学院,颗粒物(PM10),53,54,61,32,35,94,94,146,133,18,28,5,6,0.8,0.7
2026-03-08T2200,3318A,112.9898,23.7403,清远市,清新太和,颗粒物(PM10),53,53,51,34,33,113,113,146,137,17,20,7,6,0.5,0.5
2026-03-08T2200,3455A,113.076,23.72,清远市,清城东城,颗粒物(PM10),57,59,54,35,32,79,79,131,120,32,25,/,/,/,/
2026-03-08T2200,2661A,107.6325,35.7357,庆阳市,庆阳五中,,36,36,48,25,39,58,58,53,53,14,17,4,4,0.6,0.8
2026-03-08T2200,2662A,107.6361,35.7067,庆阳市,市环保局,细颗粒物(PM2.5),60,47,49,40,38,54,54,53,52,15,16,4,4,0.7,0.8
2026-03-08T2200,1916A,103.7897,25.5036,曲靖市,环境监测站,,40,40,38,17,24,51,51,62,62,10,12,6,7,0.8,0.8
2026-03-08T2200,1917A,103.8013,25.5357,曲靖市,烟厂办公区,,25,25,35,16,20,52,52,59,59,8,11,4,4,0.8,1
2026-03-08T2200,3376A,103.7926,25.4651,曲靖市,南苑二区,,26,NA,32,18,23,43,43,52,52,12,16,4,4,0.9,1
2026-03-08T2200,3377A,103.7442,25.5259,曲靖市,曲靖师范学院,,40,40,32,21,21,48,48,58,58,11,18,1,2,0.6,0.7
2026-03-08T2200,1264A,118.8694,28.94,衢州市,环保大楼,细颗粒物(PM2.5),68,61,61,44,44,51,51,99,90,33,22,/,/,/,/
2026-03-08T2200,1266A,118.8622,28.9809,衢州市,衢州学院,细颗粒物(PM2.5),72,65,61,46,44,29,29,98,80,52,26,6,6,0.7,0.6
2026-03-08T2200,4097A,118.9646,28.9832,衢州市,衢州三中,细颗粒物(PM2.5),64,62,62,42,43,29,29,98,83,50,22,6,6,0.8,0.7
2026-03-08T2200,1611A,118.5818,24.9116,泉州市,涂山街,,38,38,33,21,17,60,60,82,71,14,9,4,3,0.4,0.4
2026-03-08T2200,1612A,118.597,24.8976,泉州市,津头埔,,36,36,33,19,16,63,63,91,78,16,10,4,3,0.5,0.4
2026-03-08T2200,1613A,118.6669,24.9422,泉州市,万安,,41,41,35,19,16,60,60,79,71,14,10,4,3,0.4,0.4
2026-03-08T2200,4105A,118.6355,24.9148,泉州市,霞新路6号,,36,36,30,16,15,56,56,79,68,17,10,/,/,0.4,0.4
2026-03-08T2200,2626A,88.8873,29.2723,日喀则市,日喀则监测站,,33,27,25,19,13,103,103,114,113,10,18,8,8,0.5,0.6
2026-03-08T2200,3726A,88.8775,29.2425,日喀则市,林业技术推广中心,,35,30,21,3,7,110,110,112,112,4,9,10,11,0.3,0.4
2026-03-08T2200,1659A,119.4711,35.421,日照市,监测站,,31,31,41,12,21,69,69,88,84,25,39,7,11,0.5,0.9
2026-03-08T2200,1660A,119.523,35.4216,日照市,市政府广场,,27,24,35,7,16,85,85,97,96,20,30,5,8,0.4,0.7
2026-03-08T2200,1661A,119.5511,35.4113,日照市,港务局,,30,27,42,3,15,96,96,101,101,15,35,4,7,0.4,0.7
2026-03-08T2200,3507A,119.5326,35.4627,日照市,职业技术学院,,25,22,32,10,16,80,80,102,100,21,30,7,9,0.6,0.8
2026-03-08T2200,3604A,119.3267,35.1043,日照市,岚山环保分局,,46,46,37,7,13,80,80,95,93,22,20,9,12,0.5,0.7
2026-03-08T2200,1835A,111.1922,34.7752,三门峡市,市政府,细颗粒物(PM2.5),94,64,42,57,39,17,17,53,47,34,19,8,8,0.8,0.6
2026-03-08T2200,1836A,111.1588,34.794,三门峡市,开发区,细颗粒物(PM2.5),112,NA,54,73,49,18,18,53,48,34,16,8,6,0.8,0.7
2026-03-08T2200,3039A,111.1911,34.7829,三门峡市,三门峡市第一小学,细颗粒物(PM2.5),94,77,46,57,42,19,19,56,50,40,21,9,8,0.7,0.5
2026-03-08T2200,3598A,111.1031,34.719,三门峡市,富达温泉假日酒店,细颗粒物(PM2.5),100,78,57,60,48,15,15,50,43,40,25,9,10,0.9,0.6
2026-03-08T2200,2324A,117.621,26.2626,三明市,三钢,,39,36,38,27,24,54,54,100,89,26,9,9,6,0.5,0.5
2026-03-08T2200,2325A,117.6352,26.2714,三明市,三明二中,,34,34,33,20,20,68,68,96,88,13,8,12,6,0.3,0.3
2026-03-08T2200,2326A,117.6028,26.2377,三明市,三元区政府,,36,34,35,25,22,70,70,102,94,15,10,9,6,0.6,0.6
2026-03-08T2200,1877A,109.4962,18.2682,三亚市,河西子站,,27,26,36,15,16,84,84,103,95,5,4,4,4,0.4,0.4
2026-03-08T2200,3540A,109.7348,18.3443,三亚市,君悦子站,,46,46,40,17,18,79,79,97,90,6,6,4,4,0.4,0.4
2026-03-08T2200,4135A,109.1714,18.3739,三亚市,城东小学站,,38,34,34,26,21,84,84,113,103,10,8,/,/,/,/
2026-03-08T2200,2624A,91.7592,29.234,山南市,山南监测站,,26,16,22,3,7,81,81,104,102,17,7,3,4,0.4,0.4
2026-03-08T2200,2625A,91.7701,29.2436,山南市,山南人民医院,,29,19,26,3,4,90,90,105,104,9,5,4,5,0.5,0.5
2026-03-08T2200,1674A,116.6795,23.3666,汕头市,金平子站,,32,32,33,12,15,94,94,119,114,7,8,4,5,0.5,0.5
2026-03-08T2200,1675A,116.7248,23.3632,汕头市,龙湖子站,,32,32,32,14,16,89,89,113,108,11,11,5,5,/,/
2026-03-08T2200,1676A,116.7257,23.2774,汕头市,濠江子站,,35,27,45,24,28,90,90,111,106,9,10,7,7,/,/
2026-03-08T2200,1677A,116.7518,23.4712,汕头市,澄海子站,,27,27,37,14,17,82,82,111,105,9,7,8,8,0.6,0.5
2026-03-08T2200,1678A,116.6088,23.2539,汕头市,潮阳子站,,32,32,27,15,15,95,95,114,111,4,5,5,6,0.4,0.4
2026-03-08T2200,3444A,116.4539,23.2684,汕头市,潮南峡山,,38,38,33,15,16,99,99,126,118,6,7,6,6,0.5,0.4
2026-03-08T2200,3624A,116.4069,23.2533,汕头市,潮南子站,,48,48,41,21,18,87,87,111,104,9,8,6,7,/,/
2026-03-08T2200,1693A,115.3653,22.7751,汕尾市,市环保局,,42,42,41,20,21,102,102,120,119,9,9,6,6,0.6,0.6
2026-03-08T2200,1695A,115.362,22.7926,汕尾市,新城中学,,32,31,42,22,24,101,101,120,119,9,7,6,6,0.6,0.6
2026-03-08T2200,2645A,109.9155,33.8714,商洛市,监测站,,42,29,28,29,26,38,38,53,42,25,17,4,6,0.7,0.7
2026-03-08T2200,3045A,109.9647,33.8486,商洛市,商州区中学,,38,NA,29,26,27,44,44,55,46,17,14,4,5,0.8,0.8
2026-03-08T2200,2408A,115.6701,34.4283,商丘市,环境监测站,细颗粒物(PM2.5),120,124,74,82,59,47,47,105,90,51,22,1,2,0.4,0.4
2026-03-08T2200,2409A,115.6458,34.4047,商丘市,粮食局,细颗粒物(PM2.5),111,102,66,72,58,55,55,103,92,39,21,1,2,0.6,0.4
2026-03-08T2200,3171A,115.6069,34.4465,商丘市,梁园区档案局,细颗粒物(PM2.5),114,98,62,75,54,43,43,106,97,55,22,2,2,0.6,0.4
2026-03-08T2200,4119A,115.6701,34.3767,商丘市,北海东路185号,细颗粒物(PM2.5),112,98,78,73,56,25,25,100,82,50,34,2,3,0.5,0.4
2026-03-08T2200,4120A,115.6172,34.3704,商丘市,中山大街3号,细颗粒物(PM2.5),128,113,85,90,61,37,37,103,90,52,30,5,6,0.5,0.4
2026-03-08T2200,1141A,121.401,31.2382,上海市,普陀,,29,28,25,20,13,79,79,82,81,25,21,6,6,0.4,0.4
