timepoint,stationcode,longitude,latitude,area,positionname,primarypollutant,aqi,pm10,pm10_24h,pm2_5,pm2_5_24h,o3,o3_24h,o3_8h,o3_8h_24h,no2,no2_24h,so2,so2_24h,co,co_24h
2026-03-08T1300,2568A,102.2503,31.8896,阿坝藏族羌族自治州,马师校,,28,19,26,9,10,87,87,51,51,5,9,5,5,0.4,0.4
2026-03-08T1300,3994A,102.2174,31.9016,阿坝藏族羌族自治州,马尔康中学西区,NA,NA,NA,33,11,10,84,84,55,54,NA,7,6,6,0.4,0.4
2026-03-08T1300,2695A,80.2899,41.1684,阿克苏地区,电视台,颗粒物(PM10),128,191,220,63,69,68,68,37,37,17,24,6,6,1.4,1.6
2026-03-08T1300,2696A,80.2592,41.1541,阿克苏地区,艺术中心,颗粒物(PM10),134,206,206,69,74,53,53,30,30,25,26,7,6,0.4,0.6
2026-03-08T1300,2205A,105.699,38.8409,阿拉善盟,蒙二幼,,31,31,47,14,14,94,94,102,98,4,6,8,9,0.4,0.4
2026-03-08T1300,2206A,105.7198,38.8508,阿拉善盟,环保局新楼,,35,35,41,3,11,92,92,102,99,5,6,8,8,0.4,0.4
2026-03-08T1300,2708A,88.1266,47.8515,阿勒泰地区,市站,,34,8,10,3,4,108,108,110,106,6,12,2,3,0.2,0.3
2026-03-08T1300,4166A,88.1198,47.7931,阿勒泰地区,阿勒泰路33号,,28,11,13,3,4,89,89,105,100,20,12,10,6,0.3,0.3
2026-03-08T1300,2630A,80.1171,32.4999,阿里地区,阿里监测站,,32,11,17,3,5,100,100,94,80,2,5,8,8,0.2,0.3
2026-03-08T1300,3192A,80.0906,32.5029,阿里地区,阿里藏医院,,34,7,12,3,4,106,106,106,94,1,2,9,9,0.3,0.3
2026-03-08T1300,2644A,109.0088,32.6974,安康市,汉滨区检察院,,17,11,12,11,12,53,53,34,34,6,10,4,3,0.8,0.8
2026-03-08T1300,4054A,109.0324,32.6913,安康市,市邮政管理局,,18,17,18,12,13,52,52,32,30,9,13,4,5,0.8,0.9
2026-03-08T1300,2291A,117.0806,30.5181,安庆市,环科院,细颗粒物(PM2.5),96,75,71,58,47,109,109,70,70,9,12,9,9,0.6,0.6
2026-03-08T1300,2292A,117.0331,30.5118,安庆市,马山宾馆,细颗粒物(PM2.5),106,80,73,66,50,105,105,71,71,18,18,7,6,0.6,0.6
2026-03-08T1300,2294A,116.9897,30.6146,安庆市,安庆大学,细颗粒物(PM2.5),74,73,65,47,40,105,105,73,73,12,13,6,5,0.6,0.6
2026-03-08T1300,3173A,117.0598,30.5351,安庆市,市人大,细颗粒物(PM2.5),92,83,72,56,46,110,110,71,71,15,18,8,7,0.6,0.6
2026-03-08T1300,3123A,105.9408,26.2431,安顺市,凤凰山,,41,41,14,23,10,20,20,27,21,14,11,38,14,0.9,0.7
2026-03-08T1300,3124A,105.9443,26.2567,安顺市,金钟山,,32,NA,10,22,9,22,22,28,24,10,8,35,11,0.9,0.7
2026-03-08T1300,3125A,105.8983,26.248,安顺市,娄家坡,,22,20,11,15,9,24,24,25,24,11,10,17,16,0.8,0.7
2026-03-08T1300,1819A,114.3552,36.1017,安阳市,红庙街,细颗粒物(PM2.5),117,98,76,78,72,56,56,34,34,16,16,3,2,0.6,0.5
2026-03-08T1300,1820A,114.361,36.0681,安阳市,银杏小区,细颗粒物(PM2.5),130,101,80,93,81,56,56,32,32,16,19,2,2,0.7,0.5
2026-03-08T1300,3141A,114.3921,36.0879,安阳市,信访局,细颗粒物(PM2.5),126,88,80,88,77,60,60,35,35,16,17,3,3,0.8,0.7
2026-03-08T1300,3669A,114.4706,36.0634,安阳市,左辅环卫站,NA,NA,108,104,NA,76,58,58,30,30,9,16,2,2,0.6,0.5
2026-03-08T1300,4117A,114.2918,36.0769,安阳市,钢三路198号,细颗粒物(PM2.5),111,112,96,72,69,63,63,39,39,14,16,3,2,0.6,0.5
2026-03-08T1300,1748A,123.0441,41.1201,鞍山市,深沟寺,细颗粒物(PM2.5),68,67,68,44,49,93,93,83,83,17,24,11,12,0.7,1
2026-03-08T1300,1749A,123.011,41.0931,鞍山市,太阳城,细颗粒物(PM2.5),72,60,66,46,52,92,92,86,86,16,24,14,18,0.6,1.1
2026-03-08T1300,1750A,123.0483,41.1445,鞍山市,太平,细颗粒物(PM2.5),86,85,78,53,52,88,88,75,75,18,28,13,15,0.9,1
2026-03-08T1300,1751A,122.964,41.0968,鞍山市,铁西三道街,细颗粒物(PM2.5),74,68,80,47,56,93,93,70,70,17,40,14,18,0.6,1
2026-03-08T1300,1753A,123.0219,41.0822,鞍山市,明达新区,细颗粒物(PM2.5),70,66,68,45,50,90,90,85,85,15,22,14,19,0.6,1.2
2026-03-08T1300,4201A,122.944647,41.082639,鞍山市,兴盛南路290号,细颗粒物(PM2.5),72,77,87,46,54,88,88,73,73,18,41,11,12,0.7,1.1
2026-03-08T1300,2195A,107.4206,40.7609,巴彦淖尔市,附二中,,43,43,95,11,45,77,77,59,59,6,19,11,13,0.4,0.6
2026-03-08T1300,2196A,107.37,40.7372,巴彦淖尔市,市环保大楼,,42,42,91,12,40,78,78,66,66,6,20,8,9,0.4,0.6
2026-03-08T1300,1956A,86.1476,41.7529,巴音郭楞蒙古自治州,孔雀公园,颗粒物(PM10),92,108,95,37,30,76,76,41,41,14,40,10,9,0.4,0.5
2026-03-08T1300,1957A,86.1971,41.7166,巴音郭楞蒙古自治州,棉纺厂,颗粒物(PM10),109,141,104,61,32,78,78,54,54,16,22,/,/,/,/
2026-03-08T1300,1958A,86.236,41.7172,巴音郭楞蒙古自治州,经济开发区,颗粒物(PM10),90,106,78,32,25,70,70,57,51,10,15,8,7,0.3,0.4
2026-03-08T1300,3181A,106.776805,31.852614,巴中市,市五中,,19,19,35,9,24,42,42,18,18,13,15,7,7,0.8,0.8
2026-03-08T1300,3183A,106.7419,31.8654,巴中市,圣泉水务公司,,15,14,29,10,23,47,47,24,24,9,15,10,9,1.1,1.1
2026-03-08T1300,3616A,106.7617,31.8343,巴中市,市中心医院,,15,12,33,9,26,46,46,19,19,7,13,9,9,0.8,0.8
2026-03-08T1300,2235A,122.7909,45.608,白城市,洮北区环保局,,28,23,29,3,16,88,88,66,66,8,12,5,6,0.2,0.2
2026-03-08T1300,2236A,122.8741,45.5725,白城市,市环保局,,28,24,39,10,18,89,89,50,50,3,22,4,5,0.4,0.4
2026-03-08T1300,2231A,126.4219,41.9172,白山市,喜丰,,33,33,42,13,19,93,93,58,58,7,24,9,10,0.7,0.7
2026-03-08T1300,2232A,126.4082,41.9416,白山市,环保局,,29,25,30,16,17,91,91,66,66,9,11,9,9,0.7,0.7
2026-03-08T1300,2647A,104.1727,36.5448,白银市,第三小学,,44,44,55,21,28,107,107,78,78,7,17,3,31,0.3,0.7
2026-03-08T1300,2648A,104.1467,36.5482,白银市,动力公司,,37,37,49,12,29,100,100,75,75,7,13,5,20,0.5,0.6
2026-03-08T1300,2512A,106.6102,23.901,百色市,市监测站,,48,40,57,33,46,62,62,71,57,16,18,10,14,0.8,0.9
2026-03-08T1300,2513A,106.6524,23.8842,百色市,市中心血站,,37,37,63,23,55,61,61,71,60,17,20,8,14,0.8,0.9
2026-03-08T1300,4133A,106.6273,23.8798,百色市,龙景西路,颗粒物(PM10),65,70,82,36,63,53,53,60,48,16,17,12,15,0.7,0.8
2026-03-08T1300,2270A,117.396,32.9389,蚌埠市,工人疗养院,细颗粒物(PM2.5),72,64,48,46,25,75,75,59,57,18,24,6,5,0.7,0.6
2026-03-08T1300,2271A,117.3606,32.9428,蚌埠市,百货大楼,颗粒物(PM10),61,65,45,39,23,74,74,59,59,19,22,8,7,0.7,0.5
2026-03-08T1300,2273A,117.4183,32.8909,蚌埠市,蚌埠学院,细颗粒物(PM2.5),60,41,36,40,22,74,74,64,61,14,31,8,6,0.6,0.4
2026-03-08T1300,2274A,117.3534,32.9672,蚌埠市,淮上区政府,细颗粒物(PM2.5),74,53,42,47,26,76,76,68,62,19,20,7,5,0.6,0.5
2026-03-08T1300,2275A,117.3143,32.8977,蚌埠市,高新区,细颗粒物(PM2.5),74,53,35,47,24,76,76,63,61,16,21,8,6,0.6,0.4
2026-03-08T1300,3715A,117.3091,32.9314,蚌埠市,蚌埠田家炳中学,细颗粒物(PM2.5),64,59,48,42,24,76,76,62,62,16,22,7,5,0.5,0.4
2026-03-08T1300,1585A,109.8761,40.6533,包头市,市环境监测站,,29,29,73,3,36,86,86,73,73,6,38,6,9,0.3,0.7
2026-03-08T1300,1587A,109.9992,40.5843,包头市,包头八中,NA,NA,NA,74,NA,45,NA,NA,53,NA,NA,44,NA,11,NA,0.7
2026-03-08T1300,1589A,109.8641,40.6288,包头市,惠龙物流,,28,28,62,3,42,84,84,70,70,5,37,5,9,0.5,1.2
2026-03-08T1300,1590A,110.0376,40.5546,包头市,东河鸿龙湾,颗粒物(PM10),53,53,86,12,60,78,78,48,48,14,61,9,13,0.5,0.9
2026-03-08T1300,3283A,109.9154,40.5684,包头市,滨河大厦,,26,21,65,7,36,83,83,61,61,7,46,7,11,0.4,0.8
2026-03-08T1300,3419A,109.9449,40.6259,包头市,包头市委党校,,28,25,57,3,27,87,87,72,72,6,38,7,9,0.1,0.4
2026-03-08T1300,3683A,109.8332,40.6577,包头市,昆区政府,,31,31,69,7,39,86,86,71,71,8,39,7,13,0.4,0.9
2026-03-08T1300,1931A,107.0802,34.3129,宝鸡市,竹园沟,NA,NA,21,28,NA,32,20,20,17,17,12,20,6,6,0.9,0.8
2026-03-08T1300,1933A,107.1429,34.3549,宝鸡市,监测站,细颗粒物(PM2.5),54,47,35,37,31,16,16,15,15,18,21,5,4,0.8,0.8
2026-03-08T1300,1934A,107.1172,34.3759,宝鸡市,技工学校,细颗粒物(PM2.5),64,45,38,42,38,19,19,16,16,19,23,3,3,1.0,1
2026-03-08T1300,1936A,107.2025,34.3518,宝鸡市,文理学院,细颗粒物(PM2.5),58,NA,35,39,33,20,20,19,19,18,20,4,3,0.9,0.8
2026-03-08T1300,1937A,107.2396,34.3626,宝鸡市,三迪小学,细颗粒物(PM2.5),64,52,35,42,35,20,20,21,21,23,23,3,3,0.9,0.9
2026-03-08T1300,4155A,107.1721,34.3558,宝鸡市,滨河北路,细颗粒物(PM2.5),56,41,37,38,32,20,20,19,19,19,20,4,4,0.8,0.8
2026-03-08T1300,4308A,107.3898,34.3601,宝鸡市,陈仓区北开路21号,细颗粒物(PM2.5),72,62,40,46,33,23,23,24,24,20,16,6,6,0.8,1
2026-03-08T1300,1051A,115.4803,38.8568,保定市,游泳馆,细颗粒物(PM2.5),135,NA,82,98,75,75,75,43,43,21,21,2,3,0.6,0.5
2026-03-08T1300,1052A,115.509,38.8895,保定市,华电二区,细颗粒物(PM2.5),124,86,71,86,66,74,74,45,45,26,24,2,3,0.5,0.4
2026-03-08T1300,1053A,115.4588,38.9037,保定市,接待中心,细颗粒物(PM2.5),127,103,83,89,71,71,71,43,43,16,16,3,2,0.6,0.5
2026-03-08T1300,1054A,115.4484,38.8344,保定市,地表水厂,细颗粒物(PM2.5),122,109,91,84,68,76,76,40,40,20,22,5,5,0.6,0.4
2026-03-08T1300,3581A,115.3136,38.9511,保定市,满城区生态环境分局,细颗粒物(PM2.5),114,112,96,75,67,87,87,42,42,19,26,5,4,0.2,0.2
2026-03-08T1300,3582A,115.4709,38.7628,保定市,清苑区第二中学,细颗粒物(PM2.5),127,116,96,89,70,77,77,36,36,21,25,4,3,0.7,0.5
2026-03-08T1300,3583A,115.6231,39.0223,保定市,徐水物探局,细颗粒物(PM2.5),142,133,104,106,75,77,77,37,37,19,25,2,2,0.6,0.6
2026-03-08T1300,4004A,115.4199,38.8665,保定市,双鹰农机,细颗粒物(PM2.5),130,115,99,93,73,83,83,48,48,27,25,7,6,0.8,0.7
2026-03-08T1300,4034A,115.515,38.8589,保定市,植保所站,细颗粒物(PM2.5),137,120,96,100,70,68,68,36,36,24,27,3,3,0.6,0.5
2026-03-08T1300,2594A,99.1589,25.1137,保山市,市环境监测站,细颗粒物(PM2.5),96,81,82,58,57,138,138,101,101,7,10,3,5,0.4,0.4
2026-03-08T1300,2595A,99.1616,25.1381,保山市,市环保局,细颗粒物(PM2.5),94,85,84,57,63,137,137,103,103,6,7,5,4,0.7,0.7
2026-03-08T1300,1867A,109.1435,21.4085,北海市,海滩公园,颗粒物(PM10),51,51,44,14,19,125,125,110,104,9,9,4,4,0.4,0.4
2026-03-08T1300,1868A,109.0983,21.466,北海市,新市环保局,,39,39,43,16,20,122,122,104,100,10,12,7,8,0.5,0.5
2026-03-08T1300,1869A,109.1775,21.5232,北海市,北海工业园,颗粒物(PM10),53,54,50,12,24,116,116,82,82,5,10,6,7,0.6,0.7
2026-03-08T1300,3400A,109.1844,21.4396,北海市,龙潭自来水厂,,46,46,44,22,20,117,117,94,88,6,8,10,10,0.8,0.8
2026-03-08T1300,1001A,116.3611,39.8786,北京市,万寿西宫,细颗粒物(PM2.5),128,113,81,90,63,78,78,40,38,26,33,4,2,0.6,0.6
2026-03-08T1300,1003A,116.4174,39.9289,北京市,东四,细颗粒物(PM2.5),129,120,81,91,61,66,66,30,29,23,28,6,5,0.7,0.7
2026-03-08T1300,1004A,116.4073,39.8858,北京市,天坛,细颗粒物(PM2.5),121,112,75,83,56,70,70,32,32,28,27,4,2,1.0,0.9
2026-03-08T1300,1005A,116.4622,39.9364,北京市,农展馆,细颗粒物(PM2.5),129,122,80,91,58,76,76,30,30,19,27,6,5,0.8,0.8
2026-03-08T1300,1006A,116.3399,39.9293,北京市,官园,细颗粒物(PM2.5),123,114,83,85,61,69,69,34,34,23,31,6,5,0.7,0.7
2026-03-08T1300,1007A,116.2879,39.9613,北京市,海淀万柳,细颗粒物(PM2.5),121,110,85,83,63,62,62,26,26,27,38,4,3,0.7,0.7
2026-03-08T1300,1008A,116.6635,40.1349,北京市,顺义新城,细颗粒物(PM2.5),128,115,81,90,58,88,88,50,50,13,24,5,4,0.6,0.6
2026-03-08T1300,1009A,116.6275,40.327,北京市,怀柔镇,细颗粒物(PM2.5),112,102,83,73,65,78,78,46,46,17,29,6,5,0.7,0.8
2026-03-08T1300,1010A,116.2295,40.217,北京市,昌平镇,细颗粒物(PM2.5),120,108,97,82,72,66,66,38,38,23,33,4,3,0.9,0.9
2026-03-08T1300,1011A,116.3968,39.982,北京市,奥体中心,细颗粒物(PM2.5),127,117,80,89,56,66,66,31,31,16,26,4,4,0.8,0.7
2026-03-08T1300,3418A,116.8336,40.4095,北京市,密云新城,细颗粒物(PM2.5),115,99,96,76,72,86,86,47,47,12,29,4,3,0.5,0.7
2026-03-08T1300,3671A,116.0879,39.9725,北京市,门头沟三家店,细颗粒物(PM2.5),121,108,101,83,76,75,75,40,40,17,28,4,3,0.7,0.7
2026-03-08T1300,3672A,116.1507,39.8246,北京市,丰台云岗,细颗粒物(PM2.5),131,111,94,94,71,78,78,37,37,22,27,4,2,0.8,0.7
2026-03-08T1300,3674A,115.9578,39.7602,北京市,房山燕山,细颗粒物(PM2.5),124,107,95,86,75,73,73,42,42,21,21,4,3,0.6,0.6
2026-03-08T1300,3675A,116.4669,39.7734,北京市,大兴旧宫,细颗粒物(PM2.5),119,111,84,80,61,71,71,46,39,25,23,5,4,0.7,0.7
2026-03-08T1300,3694A,115.9859,40.4562,北京市,延庆石河营,细颗粒物(PM2.5),129,107,96,91,81,71,71,29,29,22,31,3,1,0.7,0.8
2026-03-08T1300,3695A,116.6151,40.3052,北京市,怀柔新城,细颗粒物(PM2.5),109,93,84,69,68,80,80,48,48,16,25,3,3,0.6,0.7
2026-03-08T1300,3696A,116.2542,39.8764,北京市,丰台小屯,细颗粒物(PM2.5),129,118,88,91,64,68,68,33,33,24,36,5,4,0.6,0.6
2026-03-08T1300,3697A,116.8399,40.3843,北京市,密云镇,细颗粒物(PM2.5),125,101,91,87,71,82,82,37,37,7,29,5,4,0.6,0.7
2026-03-08T1300,4057A,115.9423,40.4431,北京市,延庆百泉,细颗粒物(PM2.5),120,102,94,81,75,70,70,30,30,20,31,1,3,0.8,0.8
2026-03-08T1300,4058A,116.6598,39.9164,北京市,通州新华,细颗粒物(PM2.5),128,127,80,90,55,74,74,36,36,27,34,5,4,0.6,0.6
2026-03-08T1300,4182A,116.1942,39.9158,北京市,石景山八角,细颗粒物(PM2.5),115,105,86,76,59,66,66,30,30,23,31,4,3,0.6,0.6
2026-03-08T1300,4194A,117.078628,40.151726,北京市,平谷新城,细颗粒物(PM2.5),121,106,79,83,60,84,84,53,53,20,28,2,2,0.6,0.6
2026-03-08T1300,1761A,123.8274146,41.31234549,本溪市,大峪,颗粒物(PM10),60,63,72,33,38,91,91,45,45,18,32,14,10,0.8,0.9
2026-03-08T1300,1763A,123.7169,41.3094,本溪市,彩屯,颗粒物(PM10),83,95,79,41,63,96,96,46,46,13,35,12,13,0.7,1.4
2026-03-08T1300,1764A,123.7672166,41.28649327,本溪市,东明,颗粒物(PM10),61,65,72,39,49,88,88,42,42,22,40,14,10,0.9,1.1
2026-03-08T1300,1765A,123.799345,41.266614,本溪市,新立屯,,50,48,53,35,36,95,95,51,51,11,36,9,7,0.6,1
2026-03-08T1300,1766A,123.829144,41.336777,本溪市,威宁,颗粒物(PM10),70,78,78,35,39,96,96,48,48,16,30,13,7,0.8,0.9
2026-03-08T1300,2587A,105.287,27.3133,毕节市,八中,NA,NA,24,18,20,14,43,43,27,27,NA,12,10,9,0.7,0.7
2026-03-08T1300,2588A,105.3079,27.2987,毕节市,师专,,22,NA,12,15,9,46,46,26,26,12,12,9,8,0.5,0.5
2026-03-08T1300,4263A,105.3688,27.3598,毕节市,工业大道,,16,16,13,3,7,49,49,26,26,8,10,9,9,/,/
2026-03-08T1300,1629A,117.9961,37.3604,滨州市,第二水厂,细颗粒物(PM2.5),108,80,61,68,40,85,85,37,37,20,43,15,15,0.3,0.3
2026-03-08T1300,1630A,117.9789,37.3931,滨州市,北中新校,细颗粒物(PM2.5),106,83,64,66,38,78,78,33,33,24,42,16,16,0.4,0.3
2026-03-08T1300,3514A,117.9379,37.3959,滨州市,中海酒店,细颗粒物(PM2.5),106,83,62,66,41,89,89,37,37,23,43,14,14,0.8,0.6
2026-03-08T1300,3515A,117.9381509,37.35547456,滨州市,开发区一中,细颗粒物(PM2.5),103,85,68,63,40,86,86,33,33,12,38,17,19,0.7,0.7
2026-03-08T1300,3516A,118.0914,37.6938,滨州市,金海六路,细颗粒物(PM2.5),115,85,62,76,45,85,85,32,32,20,35,14,11,0.8,0.8
2026-03-08T1300,4028A,117.9955,37.3752,滨州市,滨州市西街道办事处,细颗粒物(PM2.5),106,85,63,66,39,86,86,39,39,15,31,22,18,0.5,0.5
2026-03-08T1300,2311A,115.8071,33.8399,亳州市,污水处理厂,细颗粒物(PM2.5),72,59,74,46,57,87,87,52,52,16,28,5,6,0.2,0.2
2026-03-08T1300,2312A,115.7789,33.8519,亳州市,三国揽胜宫,细颗粒物(PM2.5),80,68,85,50,56,81,81,47,47,12,24,6,6,0.2,0.2
2026-03-08T1300,3332A,115.7631,33.803,亳州市,亳州学院,细颗粒物(PM2.5),82,69,76,51,49,82,82,52,52,11,22,5,5,0.2,0.2
2026-03-08T1300,2693A,82.0482,44.8553,博尔塔拉蒙古自治州,市党校,,43,43,56,22,27,67,67,69,61,16,16,2,3,0.5,0.4
2026-03-08T1300,2694A,82.0805,44.8966,博尔塔拉蒙古自治州,市环保局,,50,NA,50,35,39,54,54,45,40,22,22,3,2,0.7,0.7
2026-03-08T1300,1071A,116.8733,38.2922,沧州市,沧县城建局,细颗粒物(PM2.5),124,100,79,86,66,66,66,38,38,12,29,6,6,0.7,0.5
2026-03-08T1300,1072A,116.8462,38.3189,沧州市,电视转播站,细颗粒物(PM2.5),133,NA,77,96,70,67,67,39,39,17,31,3,3,0.6,0.5
2026-03-08T1300,1073A,116.8588,38.3161,沧州市,市环保局,细颗粒物(PM2.5),137,105,86,100,63,63,63,35,35,14,29,7,9,0.6,0.5
2026-03-08T1300,3324A,116.8011,38.294,沧州市,河北水利电力学院,细颗粒物(PM2.5),132,107,84,95,69,60,60,37,37,12,27,5,6,0.7,0.5
2026-03-08T1300,2622A,97.1813,31.1289,昌都市,昌都监测站,,43,43,55,6,15,85,85,59,59,8,11,3,3,0.7,0.7
2026-03-08T1300,3719A,97.1707,31.1428,昌都市,昌都会议中心,NA,NA,NA,52,NA,19,88,88,70,66,5,4,6,6,0.6,0.4
2026-03-08T1300,2692A,87.2722,44.0298,昌吉回族自治州,新区政务中心,细颗粒物(PM2.5),136,113,113,99,110,136,136,69,69,23,32,6,6,0.8,1
2026-03-08T1300,3613A,87.3069,44.0093,昌吉回族自治州,亚心广场,细颗粒物(PM2.5),135,151,133,98,106,131,131,87,87,27,26,12,10,1.1,1
2026-03-08T1300,4164A,87.2057,43.9289,昌吉回族自治州,财政所,细颗粒物(PM2.5),138,128,121,101,90,129,129,87,87,9,15,7,7,0.9,0.9
2026-03-08T1300,1120A,125.2874,43.9024,长春市,客车厂,细颗粒物(PM2.5),72,57,61,46,45,96,96,69,69,18,32,11,12,0.5,0.5
2026-03-08T1300,1121A,125.2943,43.8508,长春市,邮电学院,细颗粒物(PM2.5),72,56,55,46,42,92,92,71,71,18,30,14,12,0.5,0.5
2026-03-08T1300,1122A,125.3648,43.8745,长春市,劳动公园,"颗粒物(PM10),细颗粒物(PM2.5)",68,74,70,44,43,92,92,68,68,20,30,13,10,0.6,0.7
2026-03-08T1300,1123A,125.3233,43.8781,长春市,园林处,细颗粒物(PM2.5),74,57,57,47,42,93,93,71,71,18,25,11,9,0.4,0.4
2026-03-08T1300,1124A,125.4604,43.7904,长春市,净月潭,细颗粒物(PM2.5),62,58,48,41,34,100,100,80,80,13,12,11,7,0.4,0.4
2026-03-08T1300,1126A,125.38,43.8422,长春市,经开区环卫处,细颗粒物(PM2.5),64,65,62,42,43,98,98,72,72,17,33,9,7,0.5,0.6
2026-03-08T1300,1127A,125.234,43.7761,长春市,高新区管委会,细颗粒物(PM2.5),60,57,69,40,47,99,99,69,69,14,32,10,8,0.5,0.7
2026-03-08T1300,1128A,125.1695,43.83,长春市,岱山公园,细颗粒物(PM2.5),78,55,60,49,42,95,95,62,62,15,38,10,7,0.6,0.6
2026-03-08T1300,4281A,125.334645,43.916281,长春市,北亚泰大街1068号,细颗粒物(PM2.5),78,68,61,49,41,91,91,62,62,20,40,11,10,0.5,0.6
2026-03-08T1300,1335A,113.082,28.2421,长沙市,经开区环保局,细颗粒物(PM2.5),64,59,54,42,39,37,37,49,45,22,18,2,3,0.5,0.6
2026-03-08T1300,1336A,112.8873,28.2202,长沙市,高开区环保局,细颗粒物(PM2.5),102,68,56,62,54,43,43,53,53,18,12,4,4,0.7,0.8
2026-03-08T1300,1337A,113.0785,28.2012,长沙市,马坡岭,细颗粒物(PM2.5),92,64,59,56,50,41,41,49,46,21,15,4,4,0.7,0.8
2026-03-08T1300,1338A,112.9448,28.1894,长沙市,湖南师范大学,细颗粒物(PM2.5),84,68,62,52,47,51,51,60,60,20,15,4,4,0.6,0.8
2026-03-08T1300,1339A,113.0177,28.1322,长沙市,雨花区环保局,细颗粒物(PM2.5),70,66,55,45,43,46,46,52,51,21,19,2,3,1.0,0.9
2026-03-08T1300,1340A,112.9795,28.2593,长沙市,伍家岭,细颗粒物(PM2.5),84,65,61,52,53,50,50,59,59,13,12,4,4,0.6,0.8
2026-03-08T1300,1341A,113.002,28.1944,长沙市,火车新站,细颗粒物(PM2.5),80,57,57,50,47,49,49,57,56,17,14,2,2,0.7,0.7
2026-03-08T1300,1342A,112.9846,28.1177,长沙市,天心区环保局,细颗粒物(PM2.5),80,60,56,50,49,52,52,58,58,17,15,5,5,0.6,0.7
2026-03-08T1300,1343A,112.8906,28.1307,长沙市,湖南中医药大学,细颗粒物(PM2.5),84,70,61,52,49,52,52,59,59,17,13,5,5,0.7,0.8
2026-03-08T1300,1727A,113.1146,36.1547,长治市,清华站,细颗粒物(PM2.5),64,51,46,42,44,64,64,52,48,16,15,7,5,0.8,0.9
2026-03-08T1300,1730A,113.0887,36.2126,长治市,审计局,细颗粒物(PM2.5),64,NA,44,42,51,71,71,42,42,9,15,8,6,0.6,0.7
2026-03-08T1300,1731A,113.0845,36.1856,长治市,长治八中,细颗粒物(PM2.5),76,49,52,48,52,65,65,45,45,9,11,9,8,0.7,0.8
2026-03-08T1300,2845A,113.1561,36.1912,长治市,德盛苑,细颗粒物(PM2.5),80,NA,48,50,51,70,70,54,51,15,14,7,6,0.8,0.9
2026-03-08T1300,3568A,113.0603,36.0464,长治市,向阳小学,细颗粒物(PM2.5),101,96,78,61,53,59,59,52,52,19,16,9,7,0.8,1
2026-03-08T1300,3569A,112.8788,36.315,长治市,屯留一中,,49,41,45,34,41,62,62,44,44,14,20,4,3,0.6,0.6
2026-03-08T1300,4189A,113.113092,36.199482,长治市,英华南巷50号,细颗粒物(PM2.5),54,41,47,37,50,69,69,47,47,13,14,6,5,0.6,0.8
2026-03-08T1300,4190A,113.23666,36.33435,长治市,学府街1号,细颗粒物(PM2.5),64,55,47,42,45,71,71,50,50,16,12,8,3,1.3,0.8
2026-03-08T1300,1854A,111.696,28.9725,常德市,市二中,细颗粒物(PM2.5),98,84,77,59,58,41,41,44,39,16,11,6,6,1.1,1.1
2026-03-08T1300,3138A,111.7152,29.0288,常德市,武陵区永安,细颗粒物(PM2.5),98,85,75,59,60,45,45,42,41,16,14,4,4,0.8,0.9
2026-03-08T1300,3139A,111.6891,28.9881,常德市,鼎城区玉霞,细颗粒物(PM2.5),92,83,72,56,53,43,43,46,41,21,16,6,6,0.8,0.9
2026-03-08T1300,3140A,111.6651,29.0526,常德市,武陵区长庚,细颗粒物(PM2.5),98,71,71,59,61,41,41,45,38,13,12,5,5,0.9,1
2026-03-08T1300,1196A,119.9524,31.7586,常州市,市监测站,,44,44,39,14,15,86,86,71,71,23,23,7,6,0.6,0.6
2026-03-08T1300,1200A,119.9351,31.703,常州市,武进监测站,,35,35,38,16,19,94,94,77,77,15,19,6,7,0.2,0.4
2026-03-08T1300,3002A,119.9701,31.813,常州市,行政中心,颗粒物(PM10),52,52,49,21,18,73,73,68,66,30,24,6,6,0.3,0.3
2026-03-08T1300,3003A,120.0434,31.7726,常州市,经开区,,47,47,41,18,16,80,80,74,73,28,23,13,13,0.5,0.6
2026-03-08T1300,3010A,119.8919,31.7892,常州市,钟楼,NA,NA,42,40,19,17,95,95,80,79,23,23,NA,8,0.6,0.2
2026-03-08T1300,3429A,119.8595,31.706,常州市,武进经发区,,39,39,41,21,24,96,96,77,77,15,23,7,8,0.2,0.5
2026-03-08T1300,3430A,119.5812,31.7256,常州市,金坛城区,,44,44,46,23,28,101,101,78,78,10,19,8,8,0.5,0.7
2026-03-08T1300,4089A,119.9551,31.863,常州市,崇义南街5-H号,,44,44,38,20,16,74,74,68,68,22,20,5,5,0.3,0.4
2026-03-08T1300,2220A,120.4318,41.588,朝阳市,西梁,颗粒物(PM10),70,77,48,32,33,84,84,42,42,19,23,11,11,0.7,0.8
2026-03-08T1300,2221A,120.452,41.565,朝阳市,河畔小区,颗粒物(PM10),67,73,34,43,30,80,80,55,55,22,17,12,12,0.9,0.7
2026-03-08T1300,2222A,120.4176,41.5648,朝阳市,八里堡,颗粒物(PM10),53,54,44,35,36,85,85,40,40,18,25,12,13,0.6,0.4
2026-03-08T1300,3026A,116.6179,23.6608,潮州市,市政府,,38,38,51,17,27,110,110,71,71,4,7,10,9,0.3,0.4
2026-03-08T1300,4036A,116.646,23.676,潮州市,金山,,38,38,47,16,25,103,103,62,62,7,10,3,3,0.5,0.6
2026-03-08T1300,2473A,113.0116,25.8228,郴州市,市职中,细颗粒物(PM2.5),72,61,64,46,54,35,35,41,35,16,13,4,5,0.9,0.8
2026-03-08T1300,2475A,113.0381,25.8074,郴州市,市审计局,细颗粒物(PM2.5),101,77,64,61,57,36,36,43,37,13,11,5,5,/,/
2026-03-08T1300,2476A,113.0348,25.7757,郴州市,市环保局,细颗粒物(PM2.5),117,NA,66,78,58,39,39,50,42,22,18,5,6,0.7,0.6
2026-03-08T1300,4252A,113.0138,25.8011,郴州市,好美居路49号,细颗粒物(PM2.5),86,57,56,53,56,40,40,50,44,19,14,7,6,/,/
2026-03-08T1300,1431A,103.9727,30.7242,成都市,金泉两河,,46,42,39,32,28,47,47,38,38,18,17,3,2,0.4,0.4
2026-03-08T1300,1432A,104.1423,30.6765,成都市,十里店,,42,NA,41,29,27,37,37,26,26,18,17,4,4,0.4,0.4
2026-03-08T1300,1433A,104.0594,30.5765,成都市,三瓦窑,,39,34,32,27,25,52,52,36,34,13,12,2,2,0.6,0.6
2026-03-08T1300,1434A,104.1122,30.6306,成都市,沙河铺,,39,35,41,27,29,46,46,32,32,22,20,5,4,0.4,0.4
2026-03-08T1300,2880A,104.0219,30.6561,成都市,大石西路,细颗粒物(PM2.5),58,41,44,39,29,38,38,38,38,26,16,5,4,0.5,0.5
2026-03-08T1300,3136A,104.2724,30.559,成都市,龙泉驿区区政府,,33,24,27,23,23,56,56,43,43,12,10,6,6,0.5,0.5
2026-03-08T1300,3357A,104.0028,30.6891,成都市,金博路,细颗粒物(PM2.5),52,40,30,36,27,38,38,32,32,28,22,6,6,0.7,0.7
2026-03-08T1300,3359A,104.056,30.5228,成都市,华阳,,42,41,35,29,24,50,50,40,39,23,19,4,3,0.7,0.7
2026-03-08T1300,3488A,104.387954,30.746684,成都市,青石路225号,,36,NA,39,25,26,56,56,31,31,9,14,4,4,0.7,0.7
2026-03-08T1300,3489A,104.0788,30.4054,成都市,科学城,,33,32,31,23,24,58,58,42,42,10,9,7,6,0.6,0.7
2026-03-08T1300,4011A,103.8505,30.6946,成都市,光华大道三段,,38,38,39,26,24,51,51,41,41,22,20,4,3,0.5,0.5
2026-03-08T1300,4144A,104.3257,30.6406,成都市,八角井街185号,,46,46,44,21,26,49,49,32,32,17,16,4,4,0.6,0.6
2026-03-08T1300,4224A,104.2433276,30.53529463,成都市,鲸龙路1057号,,35,35,33,23,24,56,56,39,39,14,14,5,5,0.5,0.5
2026-03-08T1300,1062A,117.9531,40.908,承德市,铁路,细颗粒物(PM2.5),88,81,86,54,62,76,76,32,32,24,35,9,4,0.7,0.8
2026-03-08T1300,1063A,117.9397,40.9763,承德市,中国银行,颗粒物(PM10),78,88,78,47,54,80,80,39,39,17,26,3,2,0.5,0.7
2026-03-08T1300,4073A,117.9462,40.95,承德市,杏林街1号,NA,NA,89,88,56,68,80,80,35,35,NA,24,5,5,0.5,0.8
2026-03-08T1300,4274A,117.7994,40.9605,承德市,滨河大街98号,细颗粒物(PM2.5),58,NA,59,39,56,92,92,50,50,15,23,5,6,0.4,0.7
2026-03-08T1300,2314A,117.4698,30.6617,池州市,池州学院,细颗粒物(PM2.5),92,70,65,56,49,97,97,69,69,19,22,8,6,0.8,0.8
2026-03-08T1300,3237A,117.4918,30.6617,池州市,展览馆,细颗粒物(PM2.5),88,74,66,54,44,91,91,66,66,23,23,9,6,0.8,0.7
2026-03-08T1300,3333A,117.5626,30.695,池州市,第八中学,细颗粒物(PM2.5),90,79,67,55,46,88,88,64,64,30,27,8,5,0.8,0.6
2026-03-08T1300,3334A,117.5037,30.6242,池州市,第十二中学,细颗粒物(PM2.5),90,77,69,55,47,89,89,65,65,28,28,8,6,0.9,0.7
2026-03-08T1300,1744A,118.9229,42.2816,赤峰市,松山一中,,23,23,50,3,44,66,66,50,50,9,23,4,7,0.5,0.9
2026-03-08T1300,1745A,118.9588,42.2733,赤峰市,哈达街,,30,30,51,3,41,75,75,58,58,10,20,9,12,0.5,0.8
2026-03-08T1300,1746A,118.8792,42.2551,赤峰市,天义路,,27,14,37,3,38,86,86,68,68,5,17,5,6,0.4,0.6
2026-03-08T1300,3058A,119.2656,42.0356,赤峰市,银河街,,38,38,65,6,52,93,93,64,64,4,15,8,14,0.5,1
2026-03-08T1300,3286A,118.9359,42.3146,赤峰市,桥北物流园区,,28,19,49,3,42,87,87,63,63,7,25,4,8,0.5,0.9
2026-03-08T1300,2521A,107.3473,22.4137,崇左市,市环保局江州分局,颗粒物(PM10),55,56,51,30,33,97,97,78,69,10,13,6,5,0.9,0.9
2026-03-08T1300,4256A,107.375,22.3736,崇左市,石景林东路7号,颗粒物(PM10),55,57,41,32,29,94,94,88,76,11,12,6,5,1.0,1
2026-03-08T1300,3207A,118.31131,32.3033,滁州市,市政府原办公楼,细颗粒物(PM2.5),78,53,38,49,31,79,79,61,61,23,18,8,5,1.0,0.7
2026-03-08T1300,3331A,118.3268,32.2633,滁州市,图书馆,颗粒物(PM10),51,51,37,34,21,81,81,63,63,21,16,10,8,0.6,0.3
2026-03-08T1300,4101A,118.3196,32.3335,滁州市,银山路666号,"颗粒物(PM10),细颗粒物(PM2.5)",58,60,35,39,24,89,89,70,70,22,16,9,6,0.8,0.5
2026-03-08T1300,4102A,118.3426,32.2979,滁州市,黄山路555号,颗粒物(PM10),63,67,48,38,25,81,81,63,63,26,20,10,7,0.9,0.5
2026-03-08T1300,2606A,101.5379,25.0492,楚雄彝族自治州,市经济开发区,细颗粒物(PM2.5),82,65,79,51,59,123,123,82,75,7,13,3,5,0.6,0.7
2026-03-08T1300,4153A,101.5536,25.0343,楚雄彝族自治州,团结路562号,细颗粒物(PM2.5),76,63,67,48,53,134,134,104,87,4,9,6,7,0.5,0.6
2026-03-08T1300,2549A,107.5087,31.2186,达州市,市环境监测站,,46,46,41,12,22,28,28,9,9,22,24,5,5,0.3,0.2
2026-03-08T1300,2550A,107.4988,31.2132,达州市,凤凰小区,,29,29,36,12,23,34,34,14,14,18,24,4,4,0.4,0.3
2026-03-08T1300,2551A,107.5081,31.1987,达州市,达县机关宾馆,,36,36,38,12,27,23,23,8,8,26,30,4,3,0.5,0.5
2026-03-08T1300,2552A,107.4644,31.2124,达州市,市政中心,,42,42,43,13,19,22,22,12,12,28,26,4,3,0.5,0.4
2026-03-08T1300,2614A,100.2168,25.5818,大理白族自治州,大理市环境监测站,细颗粒物(PM2.5),96,63,61,58,54,116,116,110,110,10,8,7,7,0.5,0.5
2026-03-08T1300,2615A,100.1542,25.7055,大理白族自治州,大理古城,细颗粒物(PM2.5),74,55,63,47,47,119,119,96,96,5,9,8,8,0.7,0.7
2026-03-08T1300,1109A,121.6119,38.974,大连市,甘井子,细颗粒物(PM2.5),82,74,43,51,28,72,72,70,68,26,22,13,12,0.6,0.5
2026-03-08T1300,1110A,121.565,38.9509,大连市,周水子,细颗粒物(PM2.5),78,61,35,49,28,69,69,68,67,26,22,11,10,0.6,0.5
2026-03-08T1300,1111A,121.5637,38.8849,大连市,星海三站,细颗粒物(PM2.5),72,47,31,46,28,57,57,63,59,19,13,8,9,0.7,0.5
2026-03-08T1300,1112A,121.6301,38.9117,大连市,青泥洼桥,细颗粒物(PM2.5),66,53,35,43,26,68,68,83,73,25,14,7,6,0.6,0.4
2026-03-08T1300,1113A,121.6248,38.8643,大连市,傅家庄,,48,48,35,33,24,66,66,75,68,21,15,5,5,0.7,0.6
2026-03-08T1300,1114A,121.5117,38.8636,大连市,七贤岭,细颗粒物(PM2.5),62,44,27,41,22,72,72,82,74,23,13,9,8,0.8,0.6
2026-03-08T1300,1116A,121.7507,39.1339,大连市,金州,细颗粒物(PM2.5),90,70,40,55,31,64,64,84,74,31,15,8,6,0.7,0.5
2026-03-08T1300,1117A,121.7811,39.0495,大连市,开发区,细颗粒物(PM2.5),62,47,35,41,29,64,64,72,72,31,23,7,5,0.6,0.4
2026-03-08T1300,1118A,121.9762,39.0631,大连市,双D港,细颗粒物(PM2.5),62,43,32,41,24,75,75,76,76,36,25,8,7,0.6,0.5
2026-03-08T1300,4082A,121.2548,38.8188,大连市,旅顺,细颗粒物(PM2.5),66,54,29,43,25,62,62,71,65,20,13,7,5,0.8,0.6
2026-03-08T1300,1789A,124.8085,46.0381,大庆市,大同区,颗粒物(PM10),60,63,58,36,32,90,90,66,66,10,19,11,12,0.6,0.7
2026-03-08T1300,1790A,125.1166,46.5255,大庆市,龙凤区,颗粒物(PM10),60,63,57,39,42,79,79,45,45,16,30,6,8,0.4,0.4
2026-03-08T1300,1791A,124.8894,46.4007,大庆市,红岗区,细颗粒物(PM2.5),56,49,42,38,30,77,77,49,49,15,23,8,8,0.5,0.5
2026-03-08T1300,1792A,125.1391,46.578,大庆市,萨尔图区,颗粒物(PM10),63,68,58,30,34,80,80,51,51,18,27,11,8,0.6,0.6
2026-03-08T1300,1793A,124.9026,46.6217,大庆市,让胡路区,NA,NA,48,46,32,37,68,68,36,36,18,38,8,12,NA,0.7
2026-03-08T1300,3481A,125.127,46.6277,大庆市,萨区政府监测点,细颗粒物(PM2.5),72,65,54,46,34,80,80,52,52,18,22,13,11,0.8,0.8
2026-03-08T1300,1723A,113.2926,40.0759,大同市,云冈宾馆,,29,29,70,20,36,87,87,47,47,11,25,6,10,0.4,0.8
2026-03-08T1300,1724A,113.3437,40.0921,大同市,大同大学,颗粒物(PM10),60,64,72,34,43,102,102,58,58,12,26,5,10,0.4,0.8
2026-03-08T1300,1725A,113.2637,40.129,大同市,安家小村,,45,45,81,19,42,83,83,44,44,11,30,7,12,0.4,0.9
2026-03-08T1300,3282A,113.3399,40.0586,大同市,大同市卫生学校,颗粒物(PM10),60,63,86,22,47,105,105,57,57,10,27,5,10,0.5,0.8
2026-03-08T1300,3565A,113.1371,40.1122,大同市,云冈站,,40,40,76,12,40,85,85,52,52,10,31,9,10,0.5,0.5
2026-03-08T1300,3566A,113.1186,40.2556,大同市,图书馆,颗粒物(PM10),60,64,75,16,40,80,80,48,48,10,20,6,9,0.6,0.6
2026-03-08T1300,3567A,113.5931,40.0459,大同市,区一中,,42,42,92,7,53,96,96,63,63,6,22,7,14,0.5,0.9
2026-03-08T1300,4199A,113.2798248,40.09972476,大同市,魏都大道141号,颗粒物(PM10),57,59,82,13,43,92,92,46,46,8,26,8,12,0.4,0.8
2026-03-08T1300,2269A,124.1068,50.4091,大兴安岭地区,科技局,NA,NA,NA,25,NA,14,85,85,76,76,8,6,8,8,0.3,0.3
2026-03-08T1300,3663A,124.117,50.4279,大兴安岭地区,红旗社区,,33,NA,20,23,16,86,86,67,67,12,17,11,12,0.5,0.4
2026-03-08T1300,1600A,124.33,40.0625,丹东市,江湾东路,,34,34,51,19,34,87,87,56,56,11,20,9,12,0.4,1
2026-03-08T1300,1601A,124.4242,40.1513,丹东市,临江后街,,36,36,44,24,35,84,84,49,49,11,22,12,11,0.5,0.8
2026-03-08T1300,1602A,124.3935,40.1461,丹东市,元宝山,,32,32,39,21,29,82,82,45,45,12,20,8,7,0.6,0.8
2026-03-08T1300,1603A,124.3634,40.1093,丹东市,民主桥,,38,38,54,22,34,82,82,50,50,12,32,6,7,0.4,0.8
2026-03-08T1300,3541A,109.5726195,19.51688767,儋州市,第一中学子站,,26,26,34,11,15,83,83,76,76,1,2,6,6,0.4,0.4
2026-03-08T1300,3542A,109.5567,19.5187,儋州市,东坡学校子站,,29,29,34,11,15,87,87,80,80,2,3,3,4,0.6,0.6
2026-03-08T1300,2616A,98.5611,24.4273,德宏傣族景颇族自治州,德宏州监测站,细颗粒物(PM2.5),128,95,104,90,89,61,61,29,23,31,28,8,7,1.0,0.9
2026-03-08T1300,3677A,98.5887,24.4366,德宏傣族景颇族自治州,芒市人民政府综合楼,细颗粒物(PM2.5),125,141,123,87,81,59,59,44,30,33,19,5,5,1.0,0.9
2026-03-08T1300,1901A,104.424,31.1209,德阳市,东山公园,,39,30,32,27,24,53,53,36,36,6,12,2,2,0.5,0.5
2026-03-08T1300,1902A,104.3827,31.1318,德阳市,西小区,,46,46,50,32,24,50,50,41,41,11,16,2,4,0.6,0.6
2026-03-08T1300,1904A,104.3553,31.1091,德阳市,耐火材料厂,,42,30,42,29,28,48,48,27,27,11,20,1,2,0.6,0.6
2026-03-08T1300,4145A,104.4144,31.1495,德阳市,市林业局,,43,NA,37,30,23,52,52,32,32,4,14,5,5,0.6,0.5
2026-03-08T1300,1622A,116.3034,37.4675,德州市,儿童乐园,细颗粒物(PM2.5),121,110,97,83,95,90,90,63,63,15,19,12,11,0.6,0.6
2026-03-08T1300,1624A,116.2992,37.4449,德州市,监理站,细颗粒物(PM2.5),124,112,98,86,73,90,90,64,64,20,24,7,5,0.8,0.9
2026-03-08T1300,3066A,116.2722,37.438,德州市,九衢泉纯净水厂,细颗粒物(PM2.5),123,105,90,85,73,92,92,65,65,21,30,6,5,0.9,0.9
2026-03-08T1300,3371A,116.3693,37.44,德州市,开发区人民医院,细颗粒物(PM2.5),123,114,96,85,74,92,92,65,65,16,20,13,11,0.7,0.7
2026-03-08T1300,3511A,116.5687,37.3331,德州市,陵城艺术中心,细颗粒物(PM2.5),120,83,97,81,77,88,88,55,55,18,26,7,7,0.8,0.8
2026-03-08T1300,4292A,116.352738,37.420875,德州市,新河东路,细颗粒物(PM2.5),120,100,94,81,68,87,87,60,60,16,21,12,10,0.6,0.6
2026-03-08T1300,2621A,99.7054,27.8319,迪庆藏族自治州,迪庆州站,,33,33,49,20,32,104,104,85,85,6,10,11,11,0.5,0.7
2026-03-08T1300,3180A,99.7122,27.8129,迪庆藏族自治州,质量技术监督局,,31,31,41,18,32,94,94,94,90,7,8,6,5,0.2,0.7
2026-03-08T1300,4257A,104.6092,35.5962,定西市,将台街,,50,44,42,35,22,86,86,72,72,5,4,7,9,0.4,0.5
2026-03-08T1300,4309A,104.6159,35.5701,定西市,正龙路62号,,40,40,37,26,20,76,76,68,68,7,3,3,4,0.6,0.5
2026-03-08T1300,4071A,114.9883,38.5232,定州市,交通局,细颗粒物(PM2.5),124,112,87,86,70,65,65,36,36,34,27,12,9,0.8,0.6
2026-03-08T1300,4072A,115.0045,38.5136,定州市,第五中学,细颗粒物(PM2.5),120,117,98,81,68,68,68,31,31,27,25,8,7,0.8,0.6
2026-03-08T1300,1390A,113.7943,23.0132,东莞市,东城石井,颗粒物(PM10),51,51,53,26,29,145,145,97,97,15,24,6,6,0.6,0.6
2026-03-08T1300,1391A,113.7384,22.9659,东莞市,南城西平,颗粒物(PM10),60,64,51,37,29,161,161,95,95,21,25,9,8,0.7,0.7
2026-03-08T1300,3319A,113.7283,23.041,东莞市,万江金泰,颗粒物(PM10),57,59,56,37,32,146,146,102,102,16,20,6,6,0.7,0.7
2026-03-08T1300,4129A,113.8666,23.1062,东莞市,裕兴路,,50,44,39,35,29,130,130,91,91,14,18,9,7,0.7,0.7
2026-03-08T1300,4130A,114.0076,22.9739,东莞市,教育路1号,颗粒物(PM10),55,56,54,26,26,126,126,88,88,12,18,5,5,0.6,0.6
2026-03-08T1300,4131A,113.7981,22.8124,东莞市,长怡路1号,颗粒物(PM10),63,68,59,33,29,142,142,96,96,17,24,7,6,0.7,0.7
2026-03-08T1300,1666A,118.6612,37.4313,东营市,市环保局,细颗粒物(PM2.5),84,66,50,52,33,76,76,37,37,21,24,12,11,0.7,0.6
2026-03-08T1300,3036A,118.6903,37.4337,东营市,开发区管委会,细颗粒物(PM2.5),84,72,51,52,31,75,75,43,43,30,34,10,9,0.8,0.7
2026-03-08T1300,3365A,118.5721,37.5654,东营市,垦利区民丰路,细颗粒物(PM2.5),101,68,49,61,36,95,95,42,42,22,33,13,12,0.9,0.8
2026-03-08T1300,3498A,118.5063,37.8606,东营市,河口城区,细颗粒物(PM2.5),110,80,52,70,33,91,91,46,42,21,21,12,8,1.0,0.9
2026-03-08T1300,3646A,118.4979,37.4623,东营市,胜利站,细颗粒物(PM2.5),90,81,54,55,31,74,74,32,32,30,35,12,10,1.1,1
2026-03-08T1300,3734A,118.5753,37.4405,东营市,理想之城,细颗粒物(PM2.5),84,70,54,52,32,90,90,48,48,25,30,11,7,1.0,0.8
2026-03-08T1300,1591A,110.0024,39.8127,鄂尔多斯市,综合楼,颗粒物(PM10),58,61,68,18,34,82,82,60,60,14,25,9,9,0.4,0.5
2026-03-08T1300,1592A,109.9485,39.8259,鄂尔多斯市,巴音孟克林场办事处,颗粒物(PM10),51,51,64,18,32,81,81,58,58,13,21,8,8,0.5,0.6
2026-03-08T1300,1593A,109.7734,39.5987,鄂尔多斯市,康泽苑,,41,41,56,15,31,94,94,57,57,9,18,10,7,0.5,0.5
2026-03-08T1300,1594A,109.8121,39.5987,鄂尔多斯市,华泰汽车城,,44,44,58,18,32,92,92,44,44,13,26,13,10,0.4,0.5
2026-03-08T1300,1595A,109.9734,39.7884,鄂尔多斯市,奥林花园,颗粒物(PM10),62,66,71,15,30,85,85,53,53,15,28,9,8,0.4,0.6
2026-03-08T1300,2436A,114.894,30.3989,鄂州市,市政府,细颗粒物(PM2.5),102,69,58,62,44,41,41,61,49,30,22,10,9,0.8,0.6
2026-03-08T1300,2437A,114.8986,30.3714,鄂州市,赵家坝,细颗粒物(PM2.5),104,73,62,64,46,53,53,67,55,25,15,10,10,0.9,0.6
2026-03-08T1300,3654A,114.8093,30.4091,鄂州市,精准医疗中心,细颗粒物(PM2.5),102,73,56,62,43,48,48,70,54,29,16,17,13,1.2,0.8
2026-03-08T1300,2454A,109.4978,30.2979,恩施土家族苗族自治州,湖北民院,,17,17,24,3,16,34,34,28,28,16,11,6,6,0.7,0.6
2026-03-08T1300,3549A,109.5061,30.3771,恩施土家族苗族自治州,龙凤新区,,20,NA,22,14,16,63,63,39,39,7,5,8,7,0.5,0.5
2026-03-08T1300,2499A,108.3411,21.6159,防城港市,沙万,颗粒物(PM10),69,76,62,32,25,100,100,94,87,16,17,7,8,0.6,0.6
2026-03-08T1300,2500A,108.3515,21.7733,防城港市,防城档案局,颗粒物(PM10),55,56,50,30,25,97,97,90,84,14,12,7,7,0.6,0.7
2026-03-08T1300,2501A,108.3506,21.6414,防城港市,大海花园,,50,50,46,33,27,112,112,103,93,15,13,8,7,0.5,0.5
2026-03-08T1300,1371A,113.1293,23.0065,佛山市,湾梁,细颗粒物(PM2.5),64,63,54,42,34,142,142,95,95,19,23,/,/,/,/
2026-03-08T1300,1372A,113.1082,23.0477,佛山市,华材职中,颗粒物(PM10),68,75,60,38,34,137,137,97,97,20,23,7,6,0.6,0.6
2026-03-08T1300,1373A,113.1439,23.045,佛山市,南海气象局,颗粒物(PM10),64,69,53,34,36,133,133,92,92,18,27,/,/,/,/
2026-03-08T1300,1374A,113.2879,22.8094,佛山市,顺德苏岗,细颗粒物(PM2.5),64,61,53,42,30,141,141,96,96,18,20,/,/,0.7,0.7
2026-03-08T1300,1376A,112.8384,22.8678,佛山市,高明孔堂,细颗粒物(PM2.5),74,65,46,47,31,153,153,91,91,16,14,/,/,/,/
2026-03-08T1300,1377A,112.8835,23.1584,佛山市,三水监测站,细颗粒物(PM2.5),66,70,57,43,35,127,127,71,71,20,37,4,4,0.5,0.6
2026-03-08T1300,1378A,112.8668,23.185,佛山市,三水云东海,细颗粒物(PM2.5),68,70,50,44,31,139,139,76,76,22,26,/,/,/,/
2026-03-08T1300,3625A,113.2568,22.7629,佛山市,容桂街道办,细颗粒物(PM2.5),60,56,53,40,31,120,120,84,84,24,28,/,/,/,/
2026-03-08T1300,1282A,119.2681,26.0506,福州市,师大,,46,46,49,16,21,87,87,99,86,12,11,4,3,0.4,0.4
2026-03-08T1300,1283A,119.2983,26.1028,福州市,五四北路,,41,41,43,14,20,89,89,99,87,11,12,5,4,0.4,0.4
2026-03-08T1300,1284A,119.2648,26.0769,福州市,杨桥西路,,43,43,46,14,18,90,90,102,88,12,10,4,4,/,/
2026-03-08T1300,3048A,119.5799,26.0937,福州市,九龙,,42,42,42,8,10,88,88,98,88,13,10,6,5,0.5,0.4
2026-03-08T1300,3526A,119.5188,25.9666,福州市,吴航,,36,36,38,15,18,89,89,101,89,12,10,6,5,0.5,0.5
2026-03-08T1300,4104A,119.3106,26.0648,福州市,路通桥巷6号,,45,45,36,18,22,89,89,102,88,11,9,/,/,/,/
2026-03-08T1300,1755A,123.7974,41.8494,抚顺市,望花区,细颗粒物(PM2.5),108,99,77,68,44,103,103,52,52,23,37,12,8,0.9,0.9
2026-03-08T1300,1756A,123.9161,41.8827,抚顺市,顺城区,细颗粒物(PM2.5),96,70,56,58,41,103,103,52,52,21,41,13,11,0.8,0.8
2026-03-08T1300,1757A,124.0437,41.8615,抚顺市,东洲区,细颗粒物(PM2.5),80,75,54,50,35,98,98,62,62,18,22,14,12,0.8,0.7
2026-03-08T1300,1758A,123.9246,41.8638,抚顺市,新抚区,细颗粒物(PM2.5),92,87,68,56,39,110,110,60,60,20,38,12,9,0.8,0.7
2026-03-08T1300,1759A,124.0972,41.8961,抚顺市,大伙房水库,细颗粒物(PM2.5),70,64,44,45,29,105,105,66,66,16,18,14,11,0.9,0.6
2026-03-08T1300,1760A,123.708,41.8386,抚顺市,沈抚新城,细颗粒物(PM2.5),106,90,87,66,50,103,103,47,47,20,45,11,14,0.7,1.1
2026-03-08T1300,2377A,116.3544,27.9833,抚州市,市站,细颗粒物(PM2.5),64,53,58,42,45,74,74,77,68,8,7,12,8,0.9,0.9
2026-03-08T1300,2378A,116.3562,27.9631,抚州市,血防站,细颗粒物(PM2.5),72,49,59,46,46,72,72,76,65,6,5,9,6,0.7,0.9
2026-03-08T1300,2379A,116.3561,28.0007,抚州市,采茶剧团,细颗粒物(PM2.5),58,47,57,39,45,68,68,71,62,7,7,10,6,1.0,1.2
2026-03-08T1300,2380A,116.3854,27.9648,抚州市,医学分院,颗粒物(PM10),58,61,66,38,44,77,77,75,68,12,9,14,12,1.1,1.1
2026-03-08T1300,2207A,121.6095,41.9978,阜新市,工业园区,颗粒物(PM10),60,63,50,16,34,90,90,54,54,10,18,11,14,0.4,0.5
2026-03-08T1300,2208A,121.6567,42.0188,阜新市,长青街,颗粒物(PM10),52,52,44,20,31,88,88,60,60,11,19,10,15,0.5,0.5
2026-03-08T1300,2209A,121.6672,42.07,阜新市,农业园区,颗粒物(PM10),57,59,48,18,33,81,81,60,60,10,16,6,9,0.6,0.6
2026-03-08T1300,2211A,121.6343,42.0455,阜新市,玉龙新城,,50,50,46,18,29,88,88,52,52,12,24,8,9,0.5,0.5
2026-03-08T1300,2301A,115.8276,32.8929,阜阳市,市监测站,细颗粒物(PM2.5),103,78,58,63,37,91,91,53,53,18,19,6,4,0.5,0.4
2026-03-08T1300,2303A,115.8551,32.8606,阜阳市,开发区,细颗粒物(PM2.5),98,94,64,59,36,91,91,53,53,17,17,6,5,0.5,0.5
2026-03-08T1300,2875A,115.783962,32.889217,阜阳市,阜阳职业技术学院,细颗粒物(PM2.5),84,62,48,52,31,99,99,57,57,15,16,8,6,0.5,0.4
2026-03-08T1300,3468A,115.79,32.8614,阜阳市,市规划展馆,细颗粒物(PM2.5),98,71,53,59,37,109,109,62,62,10,13,8,7,0.5,0.4
2026-03-08T1300,3469A,115.835101,32.918568,阜阳市,枣园社区,细颗粒物(PM2.5),104,73,56,64,39,96,96,53,53,15,17,9,7,0.6,0.5
2026-03-08T1300,2669A,102.9097,34.9841,甘南藏族自治州,州政府,,49,38,56,34,42,51,51,35,35,10,20,2,3,0.5,0.6
2026-03-08T1300,3380A,102.8915,34.9618,甘南藏族自治州,甘肃民族师范学院,细颗粒物(PM2.5),76,50,66,48,35,72,72,46,46,12,30,1,2,0.6,0.6
2026-03-08T1300,2570A,101.96,30.048,甘孜藏族自治州,水桥子,,19,19,10,3,2,57,57,37,35,5,9,3,5,0.4,0.5
2026-03-08T1300,3065A,101.9534,29.9976,甘孜藏族自治州,州环保局,NA,NA,28,8,3,4,69,69,47,40,NA,11,8,6,0.6,0.6
2026-03-08T1300,2363A,114.9368,25.8663,赣州市,地委,细颗粒物(PM2.5),74,51,43,47,33,71,71,78,71,14,16,3,3,0.9,0.8
2026-03-08T1300,2364A,114.946,25.8483,赣州市,气象台,细颗粒物(PM2.5),72,55,49,46,37,76,76,83,76,16,18,6,7,0.4,0.4
2026-03-08T1300,2365A,114.932,25.8332,赣州市,市图书馆,细颗粒物(PM2.5),62,51,42,41,35,69,69,74,70,13,14,3,4,0.6,0.6
2026-03-08T1300,2366A,114.8905,25.8472,赣州市,华坚鞋城,细颗粒物(PM2.5),84,53,46,52,34,71,71,76,71,14,15,6,6,0.4,0.4
2026-03-08T1300,3109A,115.0094,25.8614,赣州市,赣县区卫计委,细颗粒物(PM2.5),60,48,42,40,31,65,65,126,114,7,14,3,4,0.7,0.7
2026-03-08T1300,2684A,106.2753,36.0057,固原市,监测站,,49,38,38,34,35,50,50,24,24,19,24,8,8,0.6,1
2026-03-08T1300,2685A,106.2384,36.0189,固原市,新区,,38,34,37,26,33,55,55,28,28,16,20,8,7,0.5,0.8
2026-03-08T1300,2544A,106.6307,30.4577,广安市,市委,,35,32,29,24,24,38,38,32,31,8,9,6,5,0.7,0.6
2026-03-08T1300,2545A,106.6266,30.4662,广安市,友谊中学,,32,32,29,20,19,38,38,36,34,10,9,10,10,0.8,0.7
2026-03-08T1300,2547A,106.6386,30.4551,广安市,广电花园,,33,32,34,23,24,34,34,30,29,11,12,8,8,0.7,0.6
2026-03-08T1300,2902A,106.6347,30.4868,广安市,北辰小学,,35,28,27,24,23,35,35,32,32,6,6,3,3,0.7,0.7
2026-03-08T1300,2524A,105.8211,32.4444,广元市,老城,,24,24,32,3,13,24,24,24,18,15,19,10,11,1.0,1
2026-03-08T1300,2526A,105.8629,32.429,广元市,监测站,,26,26,27,3,12,23,23,23,17,15,20,2,2,0.7,0.8
2026-03-08T1300,3617A,105.8047,32.4167,广元市,经开区,,13,13,25,9,19,24,24,26,19,15,20,3,4,0.9,0.9
2026-03-08T1300,1345A,113.2346,23.1423,广州市,广雅中学,颗粒物(PM10),64,69,56,31,31,124,124,82,82,19,31,4,3,0.6,0.5
2026-03-08T1300,1346A,113.2611,23.105,广州市,市五中,颗粒物(PM10),54,55,38,17,26,148,148,98,98,26,28,8,7,/,/
2026-03-08T1300,1348A,113.3477,23.0916,广州市,广东商学院,细颗粒物(PM2.5),86,82,52,53,37,136,136,87,87,26,30,6,6,0.7,0.7
2026-03-08T1300,1349A,113.4332,23.105,广州市,市八十六中,颗粒物(PM10),61,65,47,39,28,152,152,93,93,29,39,7,6,/,/
2026-03-08T1300,1350A,113.3506,22.9488,广州市,番禺中学,细颗粒物(PM2.5),115,105,69,76,32,148,148,94,94,NA,21,5,4,0.3,0.5
2026-03-08T1300,1351A,113.2147,23.3918,广州市,花都师范,细颗粒物(PM2.5),64,68,56,42,34,140,140,83,83,23,26,7,7,0.7,0.7
2026-03-08T1300,1352A,113.2599,23.1329,广州市,市监测站,颗粒物(PM10),67,73,56,38,32,124,124,83,83,21,29,2,2,/,/
2026-03-08T1300,1353A,113.5618,23.3119,广州市,九龙镇镇龙,颗粒物(PM10),58,61,51,37,31,122,122,79,79,11,23,6,5,0.5,0.5
2026-03-08T1300,1354A,113.2764,23.1544,广州市,麓湖,颗粒物(PM10),65,70,49,39,29,135,135,86,86,14,23,3,3,0.7,0.7
2026-03-08T1300,2846A,113.3209,23.1323,广州市,体育西,颗粒物(PM10),70,77,61,39,30,136,136,86,86,26,33,6,6,0.8,0.8
2026-03-08T1300,3298A,113.5718,23.5493,广州市,从化街口,NA,NA,52,45,34,32,NA,NA,72,72,9,19,9,9,0.6,0.7
2026-03-08T1300,3299A,113.3463,23.369,广州市,白云竹料,颗粒物(PM10),51,51,53,27,31,126,126,82,82,12,22,4,4,0.6,0.7
2026-03-08T1300,3300A,113.2981,23.2365,广州市,白云嘉禾,颗粒物(PM10),56,58,52,32,31,131,131,80,80,20,34,10,10,/,/
2026-03-08T1300,3301A,113.4256,23.1716,广州市,黄埔科学城,颗粒物(PM10),51,51,53,34,34,140,140,82,82,12,24,8,7,0.6,0.6
2026-03-08T1300,3302A,113.3942,23.0485,广州市,番禺大学城,颗粒物(PM10),68,74,61,40,31,151,151,98,98,28,27,7,5,0.5,0.5
2026-03-08T1300,3303A,113.4923,22.8169,广州市,南沙黄阁,细颗粒物(PM2.5),88,72,55,54,32,168,168,100,100,28,24,8,7,/,/
2026-03-08T1300,3304A,113.534,22.7893,广州市,南沙街,细颗粒物(PM2.5),76,69,55,48,29,159,159,97,97,18,12,9,6,0.7,0.6
2026-03-08T1300,3443A,113.2905,23.5541,广州市,花都梯面,颗粒物(PM10),54,55,43,3,28,110,110,64,64,11,22,5,6,/,/
2026-03-08T1300,3445A,113.786,23.7479,广州市,从化良口,,43,35,25,30,20,90,90,40,40,6,11,4,4,/,/
2026-03-08T1300,3446A,113.805,23.2614,广州市,增城荔城,颗粒物(PM10),53,54,49,32,30,122,122,84,84,12,20,7,9,0.7,0.7
2026-03-08T1300,2506A,109.604387,23.066791,贵港市,江南子站,颗粒物(PM10),70,78,85,38,49,91,91,78,78,18,24,9,11,0.6,0.8
2026-03-08T1300,2508A,109.5669,23.1065,贵港市,荷城子站,颗粒物(PM10),63,68,65,39,47,79,79,68,68,20,22,11,10,0.6,0.8
2026-03-08T1300,3405A,109.5886,23.1172,贵港市,新世纪学校,颗粒物(PM10),67,73,75,40,51,93,93,78,78,20,25,/,/,0.8,1
2026-03-08T1300,4260A,109.5933,23.095,贵港市,中山路155-3号,NA,NA,80,75,38,49,96,96,82,82,NA,19,/,/,0.8,1
2026-03-08T1300,1439A,106.6863,26.6035,贵阳市,马鞍山,,12,12,12,6,10,23,23,25,24,15,13,3,3,/,/
2026-03-08T1300,1441A,106.6241,26.6266,贵阳市,鉴湖路,,17,17,21,3,11,20,20,26,23,20,13,3,3,0.6,0.5
2026-03-08T1300,1442A,106.7468,26.6344,贵阳市,燕子冲,,12,12,16,3,11,31,31,32,32,11,14,8,7,1.0,0.8
2026-03-08T1300,1443A,106.6556,26.4362,贵阳市,碧云窝,,14,14,17,3,11,36,36,26,26,16,15,12,8,/,/
2026-03-08T1300,1445A,106.6963,26.6063,贵阳市,红边门,,19,19,18,6,10,29,29,29,29,14,17,10,8,/,/
2026-03-08T1300,1446A,106.7162383,26.56964667,贵阳市,新华路,,22,22,25,3,11,34,34,31,31,14,17,4,4,0.6,0.7
2026-03-08T1300,1447A,106.6742,26.542,贵阳市,太慈桥,,9,9,12,3,11,25,25,24,24,18,16,3,3,/,/
2026-03-08T1300,4230A,106.688212,26.56952,贵阳市,花果园大街66号,,9,7,12,3,10,26,26,27,27,15,14,2,1,/,/
2026-03-08T1300,4231A,106.687268,26.516892,贵阳市,漓江路57号,,11,6,11,3,10,33,33,27,27,17,18,9,7,0.9,0.9
2026-03-08T1300,1864A,110.3091,25.2705,桂林市,龙隐路小学,,23,23,49,12,39,57,57,63,59,14,13,3,4,1.0,1
2026-03-08T1300,1865A,110.2849361,25.22909545,桂林市,八中,,15,8,46,3,21,47,47,54,49,19,18,3,4,0.9,0.8
2026-03-08T1300,3531A,110.296,25.1254,桂林市,旅游学院,,18,12,53,6,38,57,57,61,58,16,12,4,5,0.8,0.7
2026-03-08T1300,4222A,110.1835,25.2444,桂林市,环湖路276号,,16,12,47,10,36,50,50,60,54,14,13,4,7,0.8,0.8
2026-03-08T1300,4301A,110.2803,25.2773,桂林市,信义路13号,,17,7,42,3,34,53,53,64,55,18,15,4,4,0.9,0.9
2026-03-08T1300,2674A,100.2262,34.4854,果洛藏族自治州,玛沁县大武镇,,31,27,35,8,11,98,98,66,66,2,3,19,19,0.3,0.4
2026-03-08T1300,1130A,126.5557,45.8109,哈尔滨市,松北商大,,50,44,42,35,31,99,99,62,62,8,21,9,9,0.4,0.6
2026-03-08T1300,1132A,126.6162,45.719,哈尔滨市,南岗学府路,颗粒物(PM10),56,58,57,33,34,99,99,54,54,10,38,9,11,0.4,0.5
2026-03-08T1300,1133A,126.6894,45.7733,哈尔滨市,太平宏伟公园,颗粒物(PM10),57,59,57,37,36,93,93,54,54,16,33,11,12,0.4,0.6
2026-03-08T1300,1134A,126.6361,45.7672,哈尔滨市,道外承德广场,颗粒物(PM10),64,69,61,40,31,96,96,50,50,15,39,9,12,0.5,1
2026-03-08T1300,1136A,126.644,45.7261,哈尔滨市,动力和平路,颗粒物(PM10),57,59,52,34,34,94,94,48,48,15,36,12,18,0.7,0.8
2026-03-08T1300,1137A,126.5933,45.7479,哈尔滨市,道里建国路,颗粒物(PM10),55,57,41,34,29,95,95,49,49,18,40,16,16,0.0,0.3
2026-03-08T1300,1138A,126.6127,45.6119,哈尔滨市,平房东轻厂,,50,43,41,35,30,93,93,57,57,56,58,10,9,0.6,0.7
2026-03-08T1300,1139A,126.5875,45.9827,哈尔滨市,呼兰师专,颗粒物(PM10),57,59,54,33,34,93,93,56,56,15,35,10,13,0.1,0.3
2026-03-08T1300,1140A,126.6299,45.6799,哈尔滨市,省农科院,,49,48,72,34,41,94,94,42,42,9,48,10,12,0.5,0.7
2026-03-08T1300,4282A,126.6769,45.7379,哈尔滨市,华山路1号,颗粒物(PM10),55,56,54,32,30,93,93,60,60,21,32,15,13,0.5,0.6
2026-03-08T1300,4283A,126.9717,45.5356,哈尔滨市,解放大街52号,,50,50,38,33,23,108,108,81,81,11,15,6,5,0.6,0.7
2026-03-08T1300,2688A,93.5124,42.8176,哈密市,地区监测站,,31,31,39,14,20,86,86,67,67,11,15,7,7,0.2,0.3
2026-03-08T1300,2689A,93.5014,42.8312,哈密市,哈密师范学校,,44,44,40,17,18,92,92,71,71,13,17,8,9,0.5,0.6
2026-03-08T1300,2671A,100.9016,36.9464,海北藏族自治州,海晏县西海镇,细颗粒物(PM2.5),56,43,49,38,28,92,92,85,85,4,5,14,10,0.6,0.5
2026-03-08T1300,3867A,102.074,36.5056,海东市,平安区公安局北苑,细颗粒物(PM2.5),54,49,63,37,35,80,80,72,60,10,12,11,23,0.7,0.7
2026-03-08T1300,4163A,102.0984,36.5119,海东市,滨河路,细颗粒物(PM2.5),74,47,66,47,36,56,56,46,42,31,30,10,31,0.8,0.8
2026-03-08T1300,1410A,110.3189,20.0596,海口市,海南大学,,41,41,41,18,17,103,103,109,103,3,4,6,5,0.4,0.3
2026-03-08T1300,1411A,110.2827,20.0051,海口市,秀英海南医院,NA,NA,NA,30,14,18,163,163,97,NA,NA,5,11,7,0.9,0.4
2026-03-08T1300,1412A,110.3391,19.9979,海口市,海南师范大学,,47,47,44,18,19,99,99,102,97,4,5,6,6,0.4,0.4
2026-03-08T1300,1413A,110.3303,20.0359,海口市,龙华路环保局宿舍,,46,46,41,17,18,103,103,108,103,5,6,/,/,0.3,0.3
2026-03-08T1300,3539A,110.5111,19.9737,海口市,桂林洋子站,,36,36,39,16,18,95,95,98,94,4,6,/,/,/,/
2026-03-08T1300,4134A,110.1952,20.0451,海口市,长滨二路9号,,37,37,37,18,19,97,97,103,98,3,3,/,/,/,/
2026-03-08T1300,2673A,100.6158,36.2985,海南藏族自治州,共和县恰卜恰镇,颗粒物(PM10),57,59,50,31,21,101,101,83,83,3,12,16,14,0.3,0.3
2026-03-08T1300,2676A,97.373,37.376,海西蒙古族藏族自治州,德令哈市,颗粒物(PM10),95,112,37,39,17,103,103,83,83,4,6,15,16,0.6,0.4
2026-03-08T1300,1049A,114.492,36.5712,邯郸市,矿院,细颗粒物(PM2.5),96,75,71,58,50,74,74,37,37,19,18,6,2,0.7,0.5
2026-03-08T1300,1050A,114.4839,36.6136,邯郸市,丛台公园,细颗粒物(PM2.5),113,93,77,74,73,69,69,39,39,12,14,4,2,0.7,0.6
2026-03-08T1300,3458A,114.7893,36.5592,邯郸市,香泉濮院小区,细颗粒物(PM2.5),82,87,82,51,50,75,75,41,41,12,12,1,2,0.8,0.6
2026-03-08T1300,3580A,114.1998,36.4439,邯郸市,峰峰矿区临水派出所,细颗粒物(PM2.5),68,58,55,44,40,85,85,55,55,3,6,6,5,0.8,0.9
2026-03-08T1300,4068A,114.5209,36.7697,邯郸市,建安街268号,细颗粒物(PM2.5),106,80,73,66,61,72,72,42,42,22,21,8,2,1.0,0.6
2026-03-08T1300,4069A,114.5488,36.6177,邯郸市,丛台东路558号,细颗粒物(PM2.5),111,90,69,72,61,74,74,33,33,10,17,4,3,0.8,0.6
2026-03-08T1300,2635A,107.0155,33.0707,汉中市,市监测站,,19,19,13,12,10,52,52,34,34,10,11,4,5,0.8,0.8
2026-03-08T1300,2636A,107.0083,33.114,汉中市,鑫源开发区,,28,28,12,7,8,55,55,38,38,8,11,4,4,0.8,0.8
2026-03-08T1300,2637A,107.0072,33.0323,汉中市,南郑大河坎水厂,,20,20,15,12,10,49,49,32,32,12,14,4,5,0.8,0.8
2026-03-08T1300,1223A,120.2073,30.2111,杭州市,滨江,颗粒物(PM10),58,61,46,30,26,80,80,74,72,28,22,8,8,0.6,0.5
2026-03-08T1300,1224A,120.0625,30.2737,杭州市,西溪,,47,47,52,25,26,90,90,78,78,15,15,9,9,0.4,0.4
2026-03-08T1300,1226A,120.3417,30.315,杭州市,下沙,颗粒物(PM10),57,59,40,37,24,82,82,69,66,24,15,9,8,0.5,0.5
2026-03-08T1300,1227A,120.1252,30.2465,杭州市,卧龙桥,,45,45,44,29,27,90,90,78,78,16,16,8,8,0.3,0.3
2026-03-08T1300,1228A,120.1902,30.2691,杭州市,浙江农大,细颗粒物(PM2.5),58,54,44,39,27,86,86,79,79,26,19,7,7,0.6,0.5
2026-03-08T1300,1230A,120.1195,30.3121,杭州市,和睦小学,颗粒物(PM10),54,55,44,32,25,98,98,78,78,16,15,6,6,0.6,0.5
2026-03-08T1300,1231A,120.3076,30.4146,杭州市,临平镇,颗粒物(PM10),64,69,41,41,23,104,104,70,69,18,16,9,7,0.6,0.5
2026-03-08T1300,1232A,120.2753,30.1839,杭州市,城厢镇,颗粒物(PM10),51,51,52,34,25,81,81,71,69,17,15,9,9,0.6,0.6
2026-03-08T1300,1233A,120.0883,30.1808,杭州市,云栖,,46,46,49,26,24,81,81,74,74,27,24,5,5,0.5,0.5
2026-03-08T1300,3557A,119.9463,30.0496,杭州市,镇二中,,42,38,39,29,31,81,81,69,69,20,21,6,5,0.6,0.6
2026-03-08T1300,3558A,119.7184,30.2367,杭州市,市府大楼,,45,39,44,31,31,80,80,68,68,14,16,7,7,0.2,0.3
2026-03-08T1300,3656A,120.1554,30.2863,杭州市,消防大队,NA,NA,52,45,37,26,79,79,71,71,NA,17,NA,8,0.5,0.4
2026-03-08T1300,1270A,117.1957,31.7845,合肥市,明珠广场,细颗粒物(PM2.5),92,70,56,56,38,82,82,51,50,25,22,8,7,0.9,0.8
2026-03-08T1300,1271A,117.307,31.8765,合肥市,三里街,细颗粒物(PM2.5),76,73,44,48,31,84,84,49,49,26,25,7,6,0.8,0.6
2026-03-08T1300,1272A,117.2587,31.8703,合肥市,琥珀山庄,细颗粒物(PM2.5),84,73,50,52,33,91,91,56,56,27,26,8,7,0.8,0.7
2026-03-08T1300,1275A,117.2593,31.9376,合肥市,庐阳区,细颗粒物(PM2.5),72,70,48,46,28,91,91,56,56,22,22,8,6,0.9,0.8
2026-03-08T1300,1276A,117.345251,31.861615,合肥市,瑶海区,细颗粒物(PM2.5),66,70,49,43,29,90,90,52,52,28,28,6,5,0.8,0.7
2026-03-08T1300,1277A,117.3033,31.7967,合肥市,包河区,细颗粒物(PM2.5),70,70,53,45,32,80,80,42,42,33,44,8,8,0.9,0.8
2026-03-08T1300,1278A,117.278,31.7392,合肥市,滨湖新区,细颗粒物(PM2.5),80,68,54,50,34,85,85,56,56,19,17,4,3,0.8,0.7
2026-03-08T1300,1279A,117.1324,31.8395,合肥市,高新区,细颗粒物(PM2.5),80,73,53,50,34,84,84,56,56,22,20,5,4,0.8,0.6
2026-03-08T1300,3464A,117.3802,31.9148,合肥市,高教基地,细颗粒物(PM2.5),60,58,44,40,29,102,102,59,59,18,20,10,9,0.7,0.6
2026-03-08T1300,4098A,117.2518,31.8404,合肥市,中国科学技术大学,细颗粒物(PM2.5),80,73,49,50,33,95,95,57,57,17,18,10,9,0.8,0.7
2026-03-08T1300,3614A,79.9241,37.0878,和田地区,地区环保局,颗粒物(PM10),157,263,342,56,74,73,73,53,52,10,9,2,2,0.7,0.7
2026-03-08T1300,3615A,79.9132,37.1137,和田地区,市环保局,颗粒物(PM10),149,246,311,53,85,72,72,52,52,18,16,2,2,1.1,1
2026-03-08T1300,2517A,108.0496,24.6957,河池市,市环保站,,19,14,72,13,63,32,32,35,31,10,16,3,4,0.9,0.9
2026-03-08T1300,4302A,108.0901,24.6945,河池市,上任中路54号,,18,17,67,12,54,31,31,35,31,13,25,5,7,0.7,0.8
2026-03-08T1300,1697A,114.6962,23.7538,河源市,东埔,,50,46,40,35,28,96,96,87,83,10,13,6,6,0.7,0.7
2026-03-08T1300,1698A,114.6895,23.7232,河源市,老城,,48,48,44,31,29,104,104,89,86,9,12,6,6,0.7,0.7
2026-03-08T1300,3374A,115.5562,35.089,菏泽市,定陶老年大学,细颗粒物(PM2.5),90,68,92,55,71,88,88,56,56,11,17,6,5,0,0.4
2026-03-08T1300,4114A,115.4239,35.2593,菏泽市,黄河路600号,细颗粒物(PM2.5),94,85,94,57,67,87,87,59,59,14,19,3,2,0.4,0.5
2026-03-08T1300,4115A,115.5025,35.2727,菏泽市,菏泽市人社局,细颗粒物(PM2.5),102,74,87,62,62,84,84,62,62,13,18,4,4,0.5,0.6
2026-03-08T1300,4184A,115.479691,35.244011,菏泽市,永昌路1号,细颗粒物(PM2.5),94,77,87,57,67,95,95,66,66,14,23,2,2,0.2,0.5
2026-03-08T1300,4193A,115.471542,35.280012,菏泽市,长城路999号,细颗粒物(PM2.5),90,79,81,55,62,85,85,68,68,17,18,6,3,0.4,0.5
2026-03-08T1300,2514A,111.5264,24.4178,贺州市,环保小区,细颗粒物(PM2.5),107,79,59,67,42,51,51,46,46,NA,20,5,4,0.9,0.9
2026-03-08T1300,2515A,111.561,24.4074,贺州市,政协大楼,细颗粒物(PM2.5),105,71,47,65,38,46,46,43,43,25,26,5,5,0.8,0.7
2026-03-08T1300,3534A,111.4744,24.455,贺州市,西湾,细颗粒物(PM2.5),104,81,59,64,43,43,43,46,46,15,18,7,7,0.9,0.9
2026-03-08T1300,2385A,114.17,35.9019,鹤壁市,市监测站,细颗粒物(PM2.5),117,94,81,78,59,57,57,41,41,11,11,4,5,0.8,0.7
2026-03-08T1300,2386A,114.2953,35.7512,鹤壁市,市交警支队,细颗粒物(PM2.5),120,102,94,81,74,44,44,33,33,15,20,1,6,0.8,0.6
2026-03-08T1300,2387A,114.2877,35.7302,鹤壁市,迎宾馆,细颗粒物(PM2.5),110,92,99,71,73,42,42,31,31,16,21,4,9,0.9,0.8
2026-03-08T1300,3474A,114.2616,35.6824,鹤壁市,大新区,细颗粒物(PM2.5),121,92,85,83,81,46,46,33,33,19,26,4,5,0.9,0.7
2026-03-08T1300,3596A,114.1573,35.9607,鹤壁市,南山宾馆,细颗粒物(PM2.5),117,92,85,78,65,64,64,50,50,10,13,6,6,0.8,0.7
2026-03-08T1300,2244A,130.2537,47.3416,鹤岗市,哈啤分公司,,31,13,21,3,11,98,98,95,95,4,5,9,8,0.7,0.7
2026-03-08T1300,2245A,130.2683,47.3087,鹤岗市,斯达机电,,32,17,28,7,12,102,102,97,97,4,7,8,8,0.3,0.4
2026-03-08T1300,2246A,130.3114,47.3388,鹤岗市,东山纸板厂,,29,7,71,3,17,90,90,81,81,10,23,6,9,0.3,0.6
2026-03-08T1300,2263A,127.4832,50.2524,黑河市,交通局,,48,44,42,33,27,83,83,61,61,25,24,10,10,0.6,0.6
2026-03-08T1300,2264A,127.5146,50.2339,黑河市,环保局,,41,41,44,27,37,85,85,59,59,17,29,19,17,0.5,0.7
2026-03-08T1300,1074A,115.6839,37.754,衡水市,电机北厂,细颗粒物(PM2.5),137,106,84,100,69,67,67,46,46,20,17,9,6,0.9,0.7
2026-03-08T1300,1075A,115.6303,37.7318,衡水市,市监测站,细颗粒物(PM2.5),124,109,80,86,65,64,64,41,41,21,20,8,4,0.8,0.5
2026-03-08T1300,3188A,115.6684,37.7216,衡水市,市城管局,细颗粒物(PM2.5),114,105,83,75,63,69,69,45,45,21,20,8,4,0.9,0.6
2026-03-08T1300,3459A,115.599,37.5491,衡水市,地表水厂,细颗粒物(PM2.5),136,NA,79,99,71,75,75,44,44,17,23,8,6,0.7,0.5
2026-03-08T1300,2457A,112.6209,26.9268,衡阳市,衡阳化工总厂,,23,18,45,16,42,34,34,54,39,9,9,10,10,1.1,1.1
2026-03-08T1300,2458A,112.621,26.8957,衡阳市,珠晖区环保局,,19,19,44,12,34,31,31,51,38,18,15,4,4,1.0,0.9
2026-03-08T1300,2459A,112.628,26.8654,衡阳市,市委党校,,18,NA,47,12,38,36,36,54,42,11,11,6,8,1.2,1.1
2026-03-08T1300,2460A,112.6007,26.8977,衡阳市,市监测站,,33,33,57,20,37,34,34,50,40,15,14,6,7,1.1,0.9
2026-03-08T1300,2461A,112.5658,26.9013,衡阳市,真空机电公司,,35,34,48,24,40,28,28,53,36,18,14,5,6,1.3,1.2
2026-03-08T1300,3399A,112.6703,26.8817,衡阳市,师范学院,,22,17,50,15,40,34,34,56,43,10,8,3,4,1.0,1
2026-03-08T1300,3038A,103.3757,23.3679,红河哈尼族彝族自治州,州图书馆,,24,18,18,7,16,74,74,65,65,6,7,4,4,0.6,0.6
2026-03-08T1300,4154A,103.401,23.3561,红河哈尼族彝族自治州,蒙自市朝阳路,,29,NA,15,20,16,68,68,60,60,5,7,8,7,0.5,0.5
2026-03-08T1300,1090A,111.6506,40.7517,呼和浩特市,呼市一监,,27,14,66,3,33,85,85,61,61,8,28,6,9,0.3,0.7
2026-03-08T1300,1094A,111.7516,40.8369,呼和浩特市,如意水处理厂,,26,15,69,3,39,82,82,64,64,4,29,10,12,0.3,0.6
2026-03-08T1300,1095A,111.727798,40.806187,呼和浩特市,二十九中,,25,25,72,9,35,78,78,52,52,5,25,10,13,0.2,0.6
2026-03-08T1300,1097A,111.717,40.7617,呼和浩特市,化肥厂生活区,,25,17,72,3,39,78,78,42,42,8,30,5,8,0.3,0.6
2026-03-08T1300,3699A,111.6519,40.8389,呼和浩特市,海东办,,27,17,70,3,37,86,86,60,60,4,26,3,5,0.2,0.5
2026-03-08T1300,4275A,111.591512,40.827312,呼和浩特市,成吉思汗西街8号,,24,12,68,3,34,76,76,61,61,6,31,3,5,0.3,0.6
2026-03-08T1300,4276A,111.6597,40.8077,呼和浩特市,公园东路75号,,25,19,73,6,41,78,78,58,58,8,27,7,11,0.3,0.7
2026-03-08T1300,4277A,111.5427,40.7846,呼和浩特市,金海路35号,,25,19,70,3,38,78,78,60,60,6,26,5,8,0.3,0.5
2026-03-08T1300,3061A,119.7511,49.1576,呼伦贝尔市,国华电力东,,36,36,35,22,18,92,92,80,79,10,14,7,6,0.1,0.1
2026-03-08T1300,4279A,119.7569,49.2222,呼伦贝尔市,伊敏大街东7号,,35,NA,33,24,20,98,98,90,85,3,13,8,8,0.2,0.2
2026-03-08T1300,1250A,120.075,30.867,湖州市,城西水厂,颗粒物(PM10),52,52,38,29,24,103,103,86,86,17,16,7,6,0.3,0.4
2026-03-08T1300,2873A,120.083,30.8929,湖州市,仁皇山新区,,50,50,38,30,24,95,95,80,80,23,20,7,6,0.4,0.4
2026-03-08T1300,2907A,120.1846,30.8592,湖州市,吴兴区站,,44,44,40,30,24,87,87,71,71,16,16,6,5,0.2,0.2
2026-03-08T1300,3562A,120.4146,30.8538,湖州市,南浔区站,,40,40,34,24,22,90,90,77,76,15,15,8,8,0.4,0.5
2026-03-08T1300,1607A,120.904878,40.721091,葫芦岛市,龙港区,细颗粒物(PM2.5),108,93,32,68,22,66,66,74,62,38,14,70,13,1.3,0.6
2026-03-08T1300,1608A,120.8382,40.7521,葫芦岛市,化工街,细颗粒物(PM2.5),103,83,40,63,31,80,80,42,42,28,30,13,10,0.7,0.5
2026-03-08T1300,1609A,120.8339,40.7078,葫芦岛市,新区,细颗粒物(PM2.5),80,70,29,50,24,60,60,56,48,32,20,13,11,0.8,0.4
2026-03-08T1300,1610A,120.8697,40.7679,葫芦岛市,东城区,细颗粒物(PM2.5),110,73,35,71,34,71,71,40,36,33,30,14,13,1.0,0.7
2026-03-08T1300,2483A,109.9297,27.5383,怀化市,河西地税局,,15,15,22,7,14,46,46,55,52,14,12,3,2,/,/
2026-03-08T1300,2484A,109.9783,27.5342,怀化市,市四医院,,15,13,26,7,15,46,46,52,50,8,9,5,5,0.7,0.7
2026-03-08T1300,2485A,109.9971,27.5579,怀化市,监测楼,,15,NA,14,9,11,46,46,54,53,7,6,2,2,0.6,0.6
2026-03-08T1300,1210A,119.0566,33.5991,淮安市,钵池山,,29,29,26,15,12,85,85,65,65,12,17,10,10,0.3,0.2
2026-03-08T1300,1211A,119.0083,33.578,淮安市,北京南路,,29,29,29,16,13,79,79,64,64,12,13,8,7,0.3,0.2
2026-03-08T1300,1212A,118.9938,33.6083,淮安市,市监测站,,26,24,19,18,13,82,82,72,72,14,13,12,10,0.5,0.4
2026-03-08T1300,1213A,119.135,33.5038,淮安市,楚州区监测站,,28,22,26,16,14,88,88,63,63,10,17,7,6,0.2,0.1
2026-03-08T1300,3426A,118.8757,33.2897,淮安市,新华书店,,39,38,29,27,17,88,88,63,63,12,18,8,6,0.5,0.3
2026-03-08T1300,4092A,119.119691,33.550006,淮安市,枚皋中路89号,,29,29,31,17,15,89,89,69,69,12,16,10,9,0.3,0.3
2026-03-08T1300,4206A,119.028838,33.631911,淮安市,承德北路606号,,31,31,30,14,13,85,85,70,70,10,14,8,7,0.3,0.3
2026-03-08T1300,2282A,116.8005,33.9749,淮北市,监测站,细颗粒物(PM2.5),92,61,60,56,37,96,96,74,74,18,19,8,6,0.6,0.5
2026-03-08T1300,2283A,116.8094,33.9008,淮北市,烈山区政府,细颗粒物(PM2.5),86,56,51,53,30,96,96,71,71,17,16,7,4,0.4,0.4
2026-03-08T1300,4017A,116.7926,33.9534,淮北市,市博物馆,细颗粒物(PM2.5),94,64,56,57,36,92,92,68,68,16,17,5,3,0.5,0.4
2026-03-08T1300,4100A,116.8322,33.9884,淮北市,杜集区第一实验学校,细颗粒物(PM2.5),88,69,58,54,33,99,99,76,76,16,18,7,7,0.4,0.3
2026-03-08T1300,2277A,116.8304,32.7726,淮南市,潘集区政府,细颗粒物(PM2.5),74,69,49,47,26,62,62,50,50,40,23,8,6,0.6,0.4
2026-03-08T1300,2279A,116.8569,32.5949,淮南市,谢家集区政府,细颗粒物(PM2.5),76,62,43,48,27,75,75,56,56,21,21,9,7,0.6,0.5
2026-03-08T1300,2280A,116.8279,32.6333,淮南市,八公山区政府,细颗粒物(PM2.5),82,66,46,51,30,75,75,57,57,18,19,8,7,0.5,0.4
2026-03-08T1300,2894A,117.0561,32.6536,淮南市,经济技术开发区消防队,细颗粒物(PM2.5),74,70,52,47,25,73,73,55,54,16,19,8,6,0.5,0.3
2026-03-08T1300,3329A,117.011,32.5891,淮南市,山南新区,细颗粒物(PM2.5),76,54,32,48,26,79,79,61,59,15,16,8,6,0.5,0.4
2026-03-08T1300,4209A,117.003137,32.644456,淮南市,国庆中路369号,细颗粒物(PM2.5),80,50,41,50,27,64,64,54,49,15,14,8,11,0.6,0.5
2026-03-08T1300,2446A,114.9021,30.474,黄冈市,职工中心,细颗粒物(PM2.5),123,89,59,85,52,44,44,65,49,21,14,9,7,1.1,0.9
2026-03-08T1300,2929A,114.8858,30.4519,黄冈市,红卫路,细颗粒物(PM2.5),113,82,55,74,47,46,46,65,49,21,14,7,6,0.5,0.3
2026-03-08T1300,3398A,114.9134,30.4446,黄冈市,市林业局,细颗粒物(PM2.5),117,102,67,78,54,51,51,66,52,21,12,4,4,1.0,0.7
2026-03-08T1300,2672A,102.02,35.5101,黄南藏族自治州,同仁县隆务镇,,48,48,53,24,31,75,75,67,64,7,4,10,10,0.4,0.3
2026-03-08T1300,2295A,118.2905,29.6965,黄山市,延安路89号,细颗粒物(PM2.5),66,57,50,43,35,86,86,58,58,12,14,5,4,0.6,0.6
2026-03-08T1300,2297A,118.1369,30.2755,黄山市,黄山区政府5号楼,,45,45,59,20,30,97,97,62,62,11,14,3,3,0.7,0.8
2026-03-08T1300,4210A,118.335445,29.720283,黄山市,滨江东路7-2号,颗粒物(PM10),67,73,71,38,34,88,88,70,69,12,12,/,/,/,/
2026-03-08T1300,2423A,115.0547,30.2332,黄石市,沈家营,细颗粒物(PM2.5),70,65,76,45,52,55,55,52,52,32,17,12,10,1.3,1.1
2026-03-08T1300,2426A,114.899,30.211,黄石市,铁山,细颗粒物(PM2.5),68,NA,60,44,55,79,79,54,54,10,20,8,7,1.7,1.7
2026-03-08T1300,2427A,115.0259,30.2108,黄石市,团城山,细颗粒物(PM2.5),88,60,71,54,55,55,55,52,52,24,17,6,7,1.1,1
2026-03-08T1300,3149A,115.0174,30.1591,黄石市,笔架山北路,细颗粒物(PM2.5),76,69,85,48,52,59,59,52,52,26,19,7,7,0.9,0.9
2026-03-08T1300,4185A,115.078022,30.21118,黄石市,磁湖东路29号,细颗粒物(PM2.5),72,67,70,46,56,58,58,61,59,29,14,10,9,1.2,0.9
2026-03-08T1300,1392A,114.4181,23.0528,惠州市,河南岸金山湖子站,颗粒物(PM10),54,55,52,36,26,96,96,86,81,10,9,7,7,0.7,0.7
2026-03-08T1300,1393A,114.4055,23.0824,惠州市,下埔横江三路子站,颗粒物(PM10),53,53,54,29,27,116,116,100,96,8,10,8,8,0.7,0.7
2026-03-08T1300,1395A,114.4645,22.7832,惠州市,惠阳区承修路船湖子站,颗粒物(PM10),52,52,57,28,27,120,120,86,83,9,12,7,7,0.6,0.6
2026-03-08T1300,1396A,114.5316,22.7423,惠州市,大亚湾管委会子站,颗粒物(PM10),56,58,54,32,26,126,126,93,93,14,10,5,4,0.6,0.6
2026-03-08T1300,3314A,114.4334,22.8134,惠州市,惠阳秋长,,48,48,57,27,25,129,129,92,92,10,12,/,/,/,/
2026-03-08T1300,3452A,114.6521,22.7755,惠州市,大亚湾霞涌,,49,49,52,33,27,119,119,91,87,15,11,/,/,/,/
2026-03-08T1300,4300A,114.4089,23.1147,惠州市,文华一路1号,,46,46,50,26,26,110,110,97,92,7,11,/,/,/,/
2026-03-08T1300,2240A,130.9618,45.2926,鸡西市,环保局,,30,27,24,12,14,94,94,84,84,5,7,6,6,0.1,0.1
2026-03-08T1300,2243A,130.9294,45.2959,鸡西市,第一中学,,30,17,22,15,14,93,93,79,79,5,8,4,4,0.2,0.3
2026-03-08T1300,3707A,131.0069,45.2988,鸡西市,欧美日汽修厂,,29,12,32,3,12,92,92,64,64,5,16,6,7,0.1,0.2
2026-03-08T1300,2367A,114.9753,27.0803,吉安市,红声器材厂,细颗粒物(PM2.5),70,65,66,45,45,55,55,56,54,17,16,4,4,0.7,0.6
2026-03-08T1300,2369A,114.9903,27.1313,吉安市,市环境监测站,细颗粒物(PM2.5),70,56,59,45,46,54,54,56,53,16,15,7,7,/,/
2026-03-08T1300,2370A,115.009527,27.096792,吉安市,青原区法院,细颗粒物(PM2.5),76,61,63,48,45,55,55,59,58,24,17,7,7,0.7,0.7
2026-03-08T1300,1772A,126.54,43.8622,吉林市,哈达湾,,38,38,42,26,32,92,92,68,68,14,20,11,8,0.7,0.8
2026-03-08T1300,1773A,126.5843,43.8358,吉林市,东局子,,45,NA,31,31,28,96,96,78,78,12,15,6,4,0.7,0.7
2026-03-08T1300,1774A,126.5051,43.8243,吉林市,电力学院,,31,NA,52,19,44,98,98,62,62,15,27,10,9,0.7,1.2
2026-03-08T1300,1775A,126.6133,43.8971,吉林市,江北,,42,42,45,26,32,96,96,74,74,15,14,8,7,0.5,0.8
2026-03-08T1300,1776A,126.5549,43.8304,吉林市,江南公园,,42,38,31,29,26,93,93,75,75,13,13,10,8,0.7,0.7
2026-03-08T1300,2868A,126.4737,43.953,吉林市,九站,,49,49,45,33,36,94,94,63,63,14,35,10,24,0.5,0.6
2026-03-08T1300,1299A,116.9866,36.6118,济南市,科干所,颗粒物(PM10),58,61,72,32,49,95,95,82,82,14,17,6,6,0.6,0.6
2026-03-08T1300,1300A,116.9379,36.6652,济南市,农科所,细颗粒物(PM2.5),72,68,79,46,61,88,88,72,72,15,20,8,7,0.5,0.6
2026-03-08T1300,1301A,117.1265,36.6736,济南市,开发区,细颗粒物(PM2.5),70,54,69,45,53,103,103,88,88,13,18,5,4,0.6,0.6
2026-03-08T1300,1303A,117.0616,36.6865,济南市,省种子仓库,NA,NA,68,79,36,52,94,94,81,81,NA,18,NA,5,0.5,0.5
2026-03-08T1300,1304A,116.9495185,36.644937,济南市,机床二厂,颗粒物(PM10),67,73,83,42,57,90,90,75,75,18,22,7,8,0.5,0.7
2026-03-08T1300,1305A,117.0496,36.6629,济南市,市监测站,"颗粒物(PM10),细颗粒物(PM2.5)",62,66,77,41,54,92,92,80,80,15,18,5,5,0.4,0.5
2026-03-08T1300,1306A,116.7674,36.5458,济南市,长清党校,细颗粒物(PM2.5),70,68,90,45,60,93,93,70,70,10,17,5,5,0.6,0.7
2026-03-08T1300,1961A,117.5323,36.6865,济南市,东山小学,细颗粒物(PM2.5),64,66,68,42,36,92,92,74,74,17,24,6,5,0.6,0.7
2026-03-08T1300,3059A,117.7181,36.205,济南市,泰兴公司,细颗粒物(PM2.5),76,73,52,48,27,88,88,48,48,17,35,9,9,0.5,0.7
2026-03-08T1300,3064A,117.6861,36.2172,济南市,莱芜战役纪念馆,细颗粒物(PM2.5),82,75,55,51,26,92,92,53,53,19,32,6,7,0.4,0.7
2026-03-08T1300,3494A,117.1673,36.9782,济南市,济阳区政府,细颗粒物(PM2.5),76,71,89,48,65,87,87,56,56,16,34,7,6,0.4,0.5
2026-03-08T1300,3495A,117.1168,36.6299,济南市,锦屏中学,细颗粒物(PM2.5),60,56,68,40,51,94,94,79,79,10,14,8,8,0.2,0.3
2026-03-08T1300,4108A,117.7107,36.2385,济南市,山财大街5号,细颗粒物(PM2.5),72,68,49,46,25,82,82,46,46,20,36,11,12,0.5,0.6
2026-03-08T1300,4109A,116.9744,36.6889,济南市,无影山路12号,细颗粒物(PM2.5),66,63,74,43,58,85,85,71,71,15,20,6,6,0.5,0.7
2026-03-08T1300,1653A,116.6229,35.4288,济宁市,火炬城,,48,44,60,33,44,73,73,54,54,16,19,4,3,0.5,0.6
2026-03-08T1300,3500A,116.5808,35.3703,济宁市,北湖一中,,49,37,58,34,43,77,77,56,56,15,21,7,5,0.3,0.3
2026-03-08T1300,3501A,116.8251,35.5592,济宁市,服务中心,NA,NA,68,79,42,45,NA,NA,43,NA,17,22,5,4,0.5,0.4
2026-03-08T1300,3678A,116.5907,35.4054,济宁市,市第七中学,,50,39,59,35,44,85,85,59,59,16,22,10,7,0.5,0.6
2026-03-08T1300,4111A,116.6075,35.4566,济宁市,任和路,颗粒物(PM10),55,56,74,32,43,78,78,56,56,17,21,7,6,0.4,0.5
2026-03-08T1300,4112A,116.5648,35.3921,济宁市,文体南路1号,颗粒物(PM10),54,55,74,32,45,82,82,57,57,14,21,5,3,0.4,0.5
2026-03-08T1300,4122A,112.6071,35.1015,济源市,市委党校,细颗粒物(PM2.5),66,60,101,43,55,62,62,36,36,13,18,10,4,1.1,0.7
2026-03-08T1300,4123A,112.596,35.0702,济源市,沁园中路1号,,40,40,78,26,47,68,68,44,44,11,16,6,3,1.0,0.6
2026-03-08T1300,2255A,130.2749,46.8028,佳木斯市,佳纺,,28,17,40,3,19,88,88,70,70,4,22,6,7,0.3,0.5
2026-03-08T1300,2257A,130.3258,46.7975,佳木斯市,环保局,,30,26,23,12,14,96,96,81,81,3,12,5,6,0.2,0.5
2026-03-08T1300,4285A,130.363,46.806,佳木斯市,顺和街,,28,21,21,19,15,86,86,74,74,9,15,4,5,0.2,0.3
2026-03-08T1300,4286A,130.3952,46.8268,佳木斯市,长安路196号,,29,11,20,7,14,92,92,77,77,4,10,4,5,0.2,0.3
2026-03-08T1300,1252A,120.7439,30.778,嘉兴市,清河小学,,35,35,33,17,14,107,107,78,78,14,18,6,6,0.2,0.3
2026-03-08T1300,1253A,120.7261,30.7477,嘉兴市,嘉兴学院,,35,27,28,14,17,111,111,81,81,12,17,6,6,0.4,0.4
2026-03-08T1300,2872A,120.7845,30.7524,嘉兴市,南湖区残联,,35,23,30,15,18,109,109,77,77,11,16,4,5,0.5,0.5
2026-03-08T1300,3407A,120.6915,30.7741,嘉兴市,秀洲住建,,36,35,32,13,15,114,114,86,86,12,18,8,8,0.7,0.7
2026-03-08T1300,1945A,98.291,39.7705,嘉峪关市,气象局,颗粒物(PM10),55,56,69,20,26,85,85,81,81,18,13,22,4,1.6,0.4
2026-03-08T1300,2884A,98.2672,39.7978,嘉峪关市,酒钢宾馆,颗粒物(PM10),72,80,72,31,28,70,70,71,71,30,18,122,22,2.8,1
2026-03-08T1300,3248A,98.2644,39.7723,嘉峪关市,雄关区,颗粒物(PM10),53,54,66,15,26,85,85,70,70,23,21,35,12,1.7,0.5
2026-03-08T1300,1383A,113.1063,22.6058,江门市,北街,颗粒物(PM10),65,71,51,31,28,150,150,102,102,21,24,/,/,/,/
2026-03-08T1300,1384A,113.073,22.5835,江门市,西区,颗粒物(PM10),63,68,57,38,29,153,153,104,104,17,18,/,/,/,/
2026-03-08T1300,1385A,113.0218,22.531,江门市,圭峰西,颗粒物(PM10),73,81,51,38,29,143,143,98,98,13,14,/,/,/,/
2026-03-08T1300,1386A,113.0826,22.5947,江门市,东湖,颗粒物(PM10),62,66,49,35,29,146,146,97,97,17,17,6,5,0.5,0.5
2026-03-08T1300,3311A,113.1077,22.5647,江门市,江海富民,颗粒物(PM10),65,71,59,30,28,146,146,102,102,17,21,/,/,0.4,0.4
2026-03-08T1300,3449A,113.0496,22.4669,江门市,新会银湖,颗粒物(PM10),63,68,46,33,27,148,148,78,78,18,25,10,9,0.5,0.5
2026-03-08T1300,3335A,113.3137,35.2643,焦作市,马村街道办,细颗粒物(PM2.5),124,118,99,86,74,46,46,37,37,19,23,7,6,0.9,0.7
2026-03-08T1300,3336A,113.2464,35.2374,焦作市,焦作技师学院,细颗粒物(PM2.5),96,71,91,58,62,53,53,38,38,15,21,8,6,0.8,0.7
2026-03-08T1300,3477A,113.1656,35.2536,焦作市,中站许衡医院,细颗粒物(PM2.5),94,NA,110,57,75,62,62,38,38,14,29,9,12,0.8,0.9
2026-03-08T1300,3981A,113.2456,35.18,焦作市,原李万街道办,细颗粒物(PM2.5),82,63,83,51,60,57,57,39,39,13,20,10,7,0.6,0.6
2026-03-08T1300,4264A,113.234,35.219,焦作市,新安路1731号,细颗粒物(PM2.5),100,80,96,60,67,59,59,43,43,18,23,10,8,0.7,0.6
2026-03-08T1300,4295A,113.2722,35.2121,焦作市,人民路3066号,细颗粒物(PM2.5),78,54,87,49,56,58,58,41,41,15,21,8,6,0.9,0.8
2026-03-08T1300,1708A,116.3701,23.5345,揭阳市,新兴,颗粒物(PM10),57,59,48,24,27,108,108,77,77,13,16,9,9,0.6,0.6
2026-03-08T1300,1709A,116.3261,23.5442,揭阳市,西马,,50,50,53,26,26,107,107,75,75,11,13,9,7,0.5,0.5
2026-03-08T1300,1710A,116.361,23.5627,揭阳市,东兴,颗粒物(PM10),59,62,53,30,31,107,107,76,76,11,13,9,7,/,/
2026-03-08T1300,1711A,116.4151,23.5295,揭阳市,渔湖,颗粒物(PM10),53,53,48,21,26,122,122,82,82,13,16,6,7,/,/
2026-03-08T1300,3320A,116.4028,23.5699,揭阳市,曲溪,,50,50,58,22,32,126,126,80,80,13,15,14,10,0.6,0.7
2026-03-08T1300,1944A,102.1691,38.5166,金昌市,天庆家园,,39,39,77,14,35,97,97,73,73,6,13,5,10,0.5,0.7
2026-03-08T1300,4022A,102.1648,38.5369,金昌市,金川区人防中心,,36,36,84,19,37,96,96,71,65,7,13,6,9,0.4,0.6
2026-03-08T1300,4239A,102.193042,38.531887,金昌市,长春路96号,,48,48,80,18,30,91,91,72,72,14,18,5,8,0.4,0.5
2026-03-08T1300,1262A,119.6478,29.0773,金华市,十五中,细颗粒物(PM2.5),74,66,61,47,38,99,99,73,70,20,24,4,4,0.5,0.4
2026-03-08T1300,1263A,119.6859,29.1032,金华市,监测站,细颗粒物(PM2.5),64,63,66,42,37,81,81,56,55,19,23,3,2,0.6,0.6
2026-03-08T1300,3659A,119.656,29.1132,金华市,气象局,细颗粒物(PM2.5),62,62,60,41,38,91,91,62,60,23,27,3,3,0.5,0.5
2026-03-08T1300,1767A,121.1114,41.0879,锦州市,南山,细颗粒物(PM2.5),108,NA,41,68,35,94,94,50,50,17,29,12,13,0.8,0.7
2026-03-08T1300,1768A,121.060361,40.842794,锦州市,开发区,细颗粒物(PM2.5),114,97,42,75,29,57,57,54,36,36,31,15,11,0.9,0.5
2026-03-08T1300,1769A,121.1836,41.1118,锦州市,百股街道,细颗粒物(PM2.5),111,93,45,72,36,87,87,48,44,23,26,13,11,0.9,0.7
2026-03-08T1300,1770A,121.1176,41.1224,锦州市,天安街道,细颗粒物(PM2.5),110,85,45,71,35,87,87,47,44,24,29,13,13,0.9,0.6
2026-03-08T1300,1771A,121.1303,41.1385,锦州市,北湖公园,细颗粒物(PM2.5),107,70,41,67,36,92,92,55,52,18,24,11,12,0.8,0.7
2026-03-08T1300,2160A,112.8496,35.5051,晋城市,自来水公司,,49,49,68,25,41,58,58,45,37,12,13,6,3,1.4,0.8
2026-03-08T1300,2162A,112.8509,35.4886,晋城市,市环保局,颗粒物(PM10),51,51,54,29,45,62,62,47,45,16,17,6,3,1.4,0.7
2026-03-08T1300,3620A,112.8258,35.4804,晋城市,泽州一中,,45,37,53,31,41,67,67,47,47,12,12,4,3,0.5,0.4
2026-03-08T1300,4078A,112.8246,35.5152,晋城市,前书院路,,39,39,59,15,37,63,63,39,39,10,14,4,3,0.6,0.5
2026-03-08T1300,4079A,112.8864,35.4773,晋城市,祥云街666号,细颗粒物(PM2.5),58,59,60,39,49,62,62,47,47,9,13,6,5,1.1,0.6
2026-03-08T1300,2174A,112.6992,37.6984,晋中市,榆次区政府,细颗粒物(PM2.5),117,97,78,78,62,71,71,35,35,22,23,20,14,1.1,0.8
2026-03-08T1300,2865A,112.7195,37.683,晋中市,榆次三中,细颗粒物(PM2.5),98,92,80,59,57,74,74,38,38,19,21,21,15,1.2,0.7
2026-03-08T1300,4080A,112.7375,37.7215,晋中市,广安街188号,细颗粒物(PM2.5),108,98,81,68,61,70,70,40,40,22,20,22,11,1.0,0.8
2026-03-08T1300,4200A,112.7478,37.6954,晋中市,迎宾街26号,细颗粒物(PM2.5),108,95,78,68,61,75,75,40,40,17,21,22,15,0.9,0.7
2026-03-08T1300,2439A,112.2012,31.048,荆门市,竹园小学,细颗粒物(PM2.5),110,93,87,71,64,56,56,37,37,16,18,1,1,0.2,0.3
2026-03-08T1300,2440A,112.1968,30.9892,荆门市,掇刀,细颗粒物(PM2.5),109,90,82,69,64,58,58,44,44,12,13,5,4,0.7,0.7
2026-03-08T1300,3012A,112.1849,31.0361,荆门市,西山林语,细颗粒物(PM2.5),92,79,78,56,58,59,59,42,42,13,14,4,3,0.7,0.8
2026-03-08T1300,3547A,112.1631,31.0134,荆门市,龙泉中学南校,NA,NA,NA,NA,NA,NA,NA,NA,NA,NA,NA,NA,NA,NA,NA,NA
2026-03-08T1300,4124A,112.2213,31.0654,荆门市,新台西路6号,细颗粒物(PM2.5),117,93,90,78,73,57,57,35,35,12,14,4,4,0.6,0.5
2026-03-08T1300,1844A,112.2493,30.3198,荆州市,市图书馆,细颗粒物(PM2.5),116,NA,66,77,68,44,44,33,33,14,18,6,6,0.8,0.8
2026-03-08T1300,1845A,112.2009,30.3543,荆州市,市委党校,细颗粒物(PM2.5),128,NA,79,90,75,41,41,30,30,18,22,6,6,0.7,0.7
2026-03-08T1300,3194A,112.2749,30.3124,荆州市,管委会,细颗粒物(PM2.5),119,81,72,80,68,42,42,30,30,14,15,8,8,0.8,0.8
2026-03-08T1300,4268A,112.1722,30.3366,荆州市,学苑路85号,细颗粒物(PM2.5),120,NA,69,82,70,46,46,35,35,16,14,1,2,1.2,1.2
2026-03-08T1300,2343A,117.2114,29.2931,景德镇市,老干部活动中心,细颗粒物(PM2.5),58,NA,42,39,31,68,68,66,54,6,8,5,5,0.7,0.7
2026-03-08T1300,2344A,117.1893,29.2789,景德镇市,兽医站,细颗粒物(PM2.5),58,47,50,39,27,73,73,73,61,9,10,4,4,0.6,0.5
2026-03-08T1300,2346A,117.246,29.2958,景德镇市,陶研所,,50,NA,37,35,29,68,68,65,55,13,12,4,4,0.6,0.6
2026-03-08T1300,4289A,117.154766,29.256967,景德镇市,青少年活动中心,,39,39,46,21,31,59,59,62,51,11,10,4,3,/,/
2026-03-08T1300,1803A,115.9873,29.6816,九江市,十里,细颗粒物(PM2.5),68,65,62,44,47,85,85,76,67,34,26,9,7,0.8,0.7
2026-03-08T1300,1804A,115.9583,29.7047,九江市,茅山头,细颗粒物(PM2.5),104,NA,59,64,54,84,84,71,66,24,19,4,4,0.7,0.7
2026-03-08T1300,1805A,115.9877,29.7295,九江市,西园,细颗粒物(PM2.5),104,NA,63,64,51,76,76,71,67,42,30,6,4,0.8,0.7
2026-03-08T1300,1808A,115.9112,29.6038,九江市,综合工业园,细颗粒物(PM2.5),100,NA,57,60,50,77,77,66,56,31,29,8,6,0.8,0.7
2026-03-08T1300,3190A,116.0254,29.6995,九江市,外国语学校,细颗粒物(PM2.5),100,NA,54,60,49,74,74,65,60,29,20,7,6,0.8,0.7
2026-03-08T1300,4253A,116.010205,29.659402,九江市,莲花大道8号,细颗粒物(PM2.5),96,60,65,58,46,73,73,74,66,35,20,6,5,0.6,0.5
2026-03-08T1300,4240A,98.495752,39.733935,酒泉市,玉门东路5号,颗粒物(PM10),67,73,78,23,32,85,85,55,52,6,11,8,7,0.3,0.4
2026-03-08T1300,4241A,98.5099,39.7506,酒泉市,北大街108号,颗粒物(PM10),75,85,72,26,34,81,81,58,54,7,12,9,7,0.4,0.4
2026-03-08T1300,2698A,76.0071,39.466,喀什地区,巡警大队,颗粒物(PM10),152,253,315,96,98,45,45,10,10,37,34,5,4,1.1,1.3
2026-03-08T1300,2699A,75.9756,39.4693,喀什地区,吾办,颗粒物(PM10),149,247,292,84,105,65,65,21,21,13,25,3,5,0.5,0.9
2026-03-08T1300,4027A,75.9485,39.4688,喀什地区,老干局,颗粒物(PM10),140,223,294,66,85,52,52,15,15,15,21,NA,5,0.6,1
2026-03-08T1300,1824A,114.3389,34.778,开封市,肿瘤医院,细颗粒物(PM2.5),106,82,91,66,81,87,87,44,44,19,33,8,6,0.8,0.8
2026-03-08T1300,1826A,114.2884,34.7966,开封市,世纪星幼儿园,细颗粒物(PM2.5),96,71,85,58,73,79,79,42,42,17,33,10,8,0.8,0.8
2026-03-08T1300,3147A,114.3434,34.8101,开封市,龙亭公园,细颗粒物(PM2.5),109,87,90,69,75,85,85,51,51,22,36,10,8,0.8,0.8
2026-03-08T1300,3210A,114.3645,34.7955,开封市,汴京公园,细颗粒物(PM2.5),98,80,92,59,70,84,84,45,45,21,35,5,4,0.7,0.7
2026-03-08T1300,3473A,114.2485,34.8306,开封市,技师学院,细颗粒物(PM2.5),96,83,80,58,74,80,80,51,51,18,30,11,9,1.0,0.9
2026-03-08T1300,3592A,114.4518,34.7503,开封市,祥符区生态环境局,细颗粒物(PM2.5),104,101,116,64,86,95,95,50,50,22,39,7,6,0.9,0.9
2026-03-08T1300,1951A,84.886,45.6029,克拉玛依市,长征新村,,34,34,45,9,28,71,71,57,51,18,22,6,7,0.9,1.1
2026-03-08T1300,1952A,84.8894,45.5827,克拉玛依市,南林小区,,25,22,48,6,30,79,79,46,46,6,21,4,3,0.2,0.5
2026-03-08T1300,1954A,84.896,44.3328,克拉玛依市,独山子区,细颗粒物(PM2.5),202,NA,84,152,64,134,134,99,99,36,25,7,4,1.7,0.9
2026-03-08T1300,1955A,85.6888,46.0909,克拉玛依市,乌尔禾区商贸楼,,37,37,37,10,17,75,75,53,53,9,16,8,9,0.4,0.5
2026-03-08T1300,3612A,85.1045,45.6895,克拉玛依市,白碱滩区新站,,33,33,39,14,27,72,72,60,60,21,18,11,11,0.4,0.4
2026-03-08T1300,2697A,76.1457,39.7143,克孜勒苏柯尔克孜自治州,市人民政府,颗粒物(PM10),145,237,268,58,74,68,68,46,46,10,16,4,4,0.3,0.3
2026-03-08T1300,3665A,76.1654,39.7157,克孜勒苏柯尔克孜自治州,克州文化中心,颗粒物(PM10),168,285,287,93,82,NA,NA,46,44,9,16,5,5,0.3,0.5
2026-03-08T1300,1450A,102.8203,24.889,昆明市,呈贡新区,细颗粒物(PM2.5),82,67,65,51,57,143,143,95,94,10,18,3,5,0.8,0.9
2026-03-08T1300,1452A,102.7253,25.0904,昆明市,龙泉镇,细颗粒物(PM2.5),90,NA,68,55,57,141,141,70,60,10,17,4,3,0.6,0.6
2026-03-08T1300,1453A,102.7267,25.0378,昆明市,东风东路,细颗粒物(PM2.5),88,80,71,54,55,141,141,90,83,14,18,7,6,0.7,0.8
2026-03-08T1300,1454A,102.6744,25.0671,昆明市,金鼎山,细颗粒物(PM2.5),102,71,77,62,58,140,140,91,84,15,18,5,4,0.7,0.8
2026-03-08T1300,1455A,102.6643,25.0401,昆明市,碧鸡广场,细颗粒物(PM2.5),102,69,72,62,59,132,132,80,78,14,21,6,5,0.8,0.8
2026-03-08T1300,3179A,102.7491,25.012,昆明市,官渡区博物馆,细颗粒物(PM2.5),88,66,69,54,55,140,140,78,70,12,18,5,4,0.7,0.8
2026-03-08T1300,3375A,102.8016,24.8336,昆明市,青年创业园,细颗粒物(PM2.5),76,62,71,48,54,130,130,88,88,5,14,4,5,0.7,0.7
2026-03-08T1300,3550A,102.8,24.9787,昆明市,昆明学院,细颗粒物(PM2.5),72,75,72,46,47,144,144,87,77,11,16,5,4,0.7,0.7
2026-03-08T1300,3551A,102.5969,24.6738,昆明市,晋宁区生态环境分局,细颗粒物(PM2.5),84,NA,75,52,63,128,128,97,95,6,10,1,2,0.5,0.6
2026-03-08T1300,3552A,102.6673,24.9861,昆明市,云天化总部,细颗粒物(PM2.5),68,68,71,44,47,135,135,86,86,10,12,9,8,1.0,0.9
2026-03-08T1300,1456A,91.132,29.6515,拉萨市,八廓街,,27,18,19,3,8,86,86,67,67,11,16,5,4,0.3,0.3
2026-03-08T1300,1457A,91.1221,29.6748,拉萨市,市环保局,,24,21,23,6,9,76,76,47,47,12,20,4,4,0.4,0.5
2026-03-08T1300,1458A,91.0874,29.6476,拉萨市,区监测站,,24,14,15,6,7,76,76,57,57,17,20,5,5,0.6,0.6
2026-03-08T1300,1459A,91.1774,29.6541,拉萨市,西藏大学,,28,19,16,3,6,88,88,66,65,14,13,4,4,0.6,0.9
2026-03-08T1300,1460A,90.9798,29.6586,拉萨市,区辐射站,,28,28,31,10,14,77,77,49,43,15,28,4,4,0.5,0.6
2026-03-08T1300,1461A,91.0831,29.6292,拉萨市,拉萨火车站,,23,23,19,6,7,73,73,44,44,17,25,4,4,0.5,0.6
2026-03-08T1300,2520A,109.2203,23.7252,来宾市,来宾技工学校,细颗粒物(PM2.5),107,NA,95,67,81,34,34,42,33,12,19,8,12,1.1,1.3
2026-03-08T1300,3535A,109.1781,23.7293,来宾市,兴宾区政府,细颗粒物(PM2.5),107,104,109,67,84,37,37,47,36,13,18,6,11,1.0,1.2
2026-03-08T1300,4002A,109.2312,23.7428,来宾市,中南小学,细颗粒物(PM2.5),112,NA,98,73,88,33,33,40,30,13,21,6,9,1.1,1.2
2026-03-08T1300,1479A,103.8309,36.0467,兰州市,铁路设计院,NA,NA,NA,NA,NA,NA,NA,NA,NA,NA,NA,NA,NA,NA,NA,NA
2026-03-08T1300,3241A,103.7439,36.0841,兰州市,百合公园,,48,48,58,28,34,89,89,41,41,9,28,9,9,0.7,1
2026-03-08T1300,3242A,103.9613,35.9985,兰州市,和平,颗粒物(PM10),52,52,53,27,36,93,93,46,46,10,18,10,11,0.6,0.7
2026-03-08T1300,4236A,103.629272,36.093822,兰州市,庄浪东路808号,,45,45,60,25,32,94,94,50,50,10,25,5,9,0.4,0.6
2026-03-08T1300,4237A,103.7251,36.104344,兰州市,安宁西路88号,颗粒物(PM10),53,53,66,31,28,103,103,61,61,5,17,7,13,0.3,0.5
2026-03-08T1300,4238A,103.846982,36.067567,兰州市,北滨河东路1号,,43,38,54,30,31,96,96,48,48,15,26,8,12,0.5,0.8
2026-03-08T1300,1067A,116.6712,39.5109,廊坊市,药材公司,细颗粒物(PM2.5),120,92,88,81,68,80,80,37,37,20,29,1,2,0.6,0.6
2026-03-08T1300,1068A,116.7215,39.5592,廊坊市,开发区,细颗粒物(PM2.5),125,116,85,87,64,79,79,36,36,21,28,3,3,0.5,0.5
2026-03-08T1300,1070A,116.7246,39.5273,廊坊市,北华航天学院,细颗粒物(PM2.5),130,107,84,93,67,81,81,37,37,20,33,3,4,0.6,0.5
2026-03-08T1300,2919A,116.7022,39.5454,廊坊市,河北工业大学,细颗粒物(PM2.5),123,118,90,85,66,74,74,36,36,18,21,1,2,0.6,0.5
2026-03-08T1300,2536A,103.7629,29.5844,乐山市,牛耳桥,,33,31,28,23,24,33,33,33,30,19,18,6,5,0.6,0.7
2026-03-08T1300,2537A,103.7501,29.6002,乐山市,市第三水厂,,32,30,28,22,23,40,40,35,34,16,17,3,3,0.7,0.7
2026-03-08T1300,2538A,103.7571,29.5664,乐山市,市监测站,,32,32,28,21,21,37,37,31,31,13,13,6,6,0.7,0.7
2026-03-08T1300,3361A,103.7313,29.563,乐山市,理工大学,,30,30,25,20,20,39,39,32,32,11,12,6,5,0.6,0.7
2026-03-08T1300,2599A,100.2497,26.8802,丽江市,丽江古城,,44,44,45,26,32,115,115,106,104,4,6,8,8,0.4,0.4
2026-03-08T1300,2600A,100.2203,26.8906,丽江市,市中心,,42,35,37,29,32,114,114,109,105,10,9,8,8,0.5,0.4
2026-03-08T1300,1267A,119.9141,28.4513,丽水市,监测站大楼,,46,46,47,20,29,96,96,82,82,8,13,4,4,0.2,0.3
2026-03-08T1300,1268A,119.93,28.4589,丽水市,莲都小学,,38,38,45,23,28,95,95,80,80,12,18,/,/,/,/
2026-03-08T1300,1269A,119.8794,28.4232,丽水市,余庄前,,32,32,43,18,26,94,94,63,63,10,17,4,3,0.3,0.4
2026-03-08T1300,1173A,119.1759,34.5885,连云港市,市环境监测站,,28,22,21,19,10,79,79,85,84,18,14,7,7,0.4,0.4
2026-03-08T1300,3000A,119.3577,34.6971,连云港市,德源药业,,28,19,34,7,10,87,87,81,81,12,15,6,6,0.4,0.5
2026-03-08T1300,3007A,119.178,34.8442,连云港市,新城一中,,34,34,32,16,14,79,79,63,63,36,34,9,8,0.6,0.6
2026-03-08T1300,3008A,119.3607,34.7519,连云港市,胡沟管理处,,29,29,22,14,12,89,89,76,76,16,20,6,6,1.1,1
2026-03-08T1300,3009A,119.1478,34.5913,连云港市,矿山设计院,,25,24,20,9,9,80,80,85,84,21,16,7,8,0.5,0.6
2026-03-08T1300,3434A,119.2414,34.6539,连云港市,工贸学校,NA,NA,NA,18,NA,10,79,79,91,NA,10,7,9,10,NA,0.3
2026-03-08T1300,3664A,119.4171,34.734,连云港市,连云街道,,28,28,21,12,12,83,83,79,78,29,17,9,8,0.5,0.3
2026-03-08T1300,2573A,102.2629,27.8981,凉山彝族自治州,西昌市政府,,32,24,34,22,24,83,83,53,53,6,6,12,11,0.9,0.8
2026-03-08T1300,2574A,102.2686,27.885,凉山彝族自治州,凉山州政府,,35,25,30,24,27,76,76,51,51,7,8,11,10,0.8,0.7
2026-03-08T1300,4229A,102.2342,27.8859,凉山彝族自治州,凯乐南路30号,,33,33,34,21,24,81,81,54,50,10,12,9,10,0.8,0.8
2026-03-08T1300,2212A,123.1978,41.2036,辽阳市,宏伟区,细颗粒物(PM2.5),76,66,66,48,46,92,92,83,83,15,17,11,9,0.6,0.6
2026-03-08T1300,2213A,123.1684,41.2497,辽阳市,新华园,颗粒物(PM10),67,73,82,43,53,86,86,67,67,22,31,16,11,1.0,1
2026-03-08T1300,2214A,123.2355,41.2663,辽阳市,滨河路,细颗粒物(PM2.5),82,73,72,51,57,86,86,73,73,24,27,14,10,1.1,0.8
2026-03-08T1300,4083A,123.153,41.2874,辽阳市,铁西路150号,细颗粒物(PM2.5),74,82,81,47,53,86,86,67,67,18,34,11,12,0.8,0.9
2026-03-08T1300,2227A,125.1359,42.8845,辽源市,环保局,细颗粒物(PM2.5),76,67,68,48,43,93,93,56,56,14,29,8,8,1.0,1
2026-03-08T1300,4085A,125.0998,42.9134,辽源市,安宁大街333号,细颗粒物(PM2.5),88,68,68,54,45,90,90,56,56,10,19,12,10,0.8,0.9
2026-03-08T1300,1625A,115.9789,36.4372,聊城市,区政府,细颗粒物(PM2.5),106,85,94,66,75,92,92,64,64,16,20,12,12,0.8,0.9
2026-03-08T1300,3200A,115.9772,36.4986,聊城市,监控中心,细颗粒物(PM2.5),106,91,99,66,74,101,101,72,72,16,21,12,10,0.7,0.7
2026-03-08T1300,3513A,116.0443,36.436,聊城市,九州社区,细颗粒物(PM2.5),108,93,92,68,68,101,101,69,69,21,25,3,2,0.7,0.8
2026-03-08T1300,4018A,116.0564,36.4609,聊城市,星美广场,细颗粒物(PM2.5),116,112,102,77,75,96,96,71,71,11,13,5,4,0.7,0.8
2026-03-08T1300,4113A,116.0091,36.4495,聊城市,利民路,细颗粒物(PM2.5),107,94,95,67,71,100,100,68,68,17,19,9,8,0.8,0.8
2026-03-08T1300,2632A,94.3683,29.6373,林芝市,林芝监测站,,35,21,23,10,16,112,112,114,100,2,2,3,4,0.5,0.5
2026-03-08T1300,2633A,94.3616,29.6634,林芝市,林芝人民医院,,35,21,26,11,19,110,110,108,96,3,3,3,2,0.5,0.5
2026-03-08T1300,2603A,100.0779,23.8981,临沧市,市环保局,细颗粒物(PM2.5),106,95,88,66,82,123,123,66,66,10,12,7,7,0.7,0.8
2026-03-08T1300,2604A,100.0894,23.882,临沧市,市气象局,细颗粒物(PM2.5),111,92,83,72,78,117,117,69,69,14,11,9,8,0.9,0.8
2026-03-08T1300,1733A,111.5552,36.0791,临汾市,临钢医院,细颗粒物(PM2.5),70,63,59,45,48,69,69,43,43,14,18,10,10,1.1,1.1
2026-03-08T1300,1734A,111.4984,36.0734,临汾市,技工学校,细颗粒物(PM2.5),90,56,58,55,55,63,63,40,40,15,20,11,12,1.1,1.1
2026-03-08T1300,1736A,111.5017,36.0857,临汾市,市委,细颗粒物(PM2.5),80,75,66,50,46,63,63,41,41,9,18,7,8,1.1,1
2026-03-08T1300,3018A,111.5048,36.1015,临汾市,唐尧大酒店,细颗粒物(PM2.5),96,75,67,58,45,62,62,42,42,13,21,10,11,1.2,1.1
2026-03-08T1300,4244A,111.4879,36.053,临汾市,启星学校,细颗粒物(PM2.5),84,55,56,52,50,63,63,37,37,13,26,11,10,0.8,0.7
2026-03-08T1300,4271A,103.2464,35.6123,临夏回族自治州,滨河东路1号,颗粒物(PM10),68,75,100,32,55,68,68,26,26,13,35,7,10,0.4,0.9
2026-03-08T1300,4310A,103.207136,35.599807,临夏回族自治州,新华街21号,细颗粒物(PM2.5),56,56,95,38,69,62,62,29,29,10,20,5,9,0.7,0.7
2026-03-08T1300,1618A,118.3429,35.0532,临沂市,沂河小区,,46,46,38,25,16,77,77,75,75,15,14,13,12,0.3,0.3
2026-03-08T1300,1619A,118.2962,35.0568,临沂市,鲁南制药厂,,39,39,33,23,16,87,87,81,81,21,20,15,12,0.2,0.2
2026-03-08T1300,1620A,118.2793,34.9976,临沂市,新光毛纺厂,,40,31,34,28,21,81,81,69,69,15,20,13,11,0.5,0.6
2026-03-08T1300,1621A,118.3955,35.0889,临沂市,河东保险公司,,39,34,43,27,22,88,88,69,69,15,29,12,11,0.3,0.4
2026-03-08T1300,3370A,118.3563,35.0215,临沂市,十里堡居委,,34,34,34,23,17,89,89,80,80,15,19,10,12,0.5,0.6
2026-03-08T1300,3496A,118.359,35.1067,临沂市,南坊新区,,36,36,34,22,16,84,84,78,78,14,15,12,12,0.5,0.5
2026-03-08T1300,3860A,118.3915,35.0297,临沂市,皇山花园小区,,33,31,36,23,18,90,90,78,78,15,23,14,17,0.3,0.3
2026-03-08T1300,1870A,109.4854,24.3898,柳州市,柳东小学,细颗粒物(PM2.5),60,50,58,40,48,37,37,52,37,11,11,4,6,0.9,0.7
2026-03-08T1300,1871A,109.4109,24.3304,柳州市,环保监测站,,38,38,64,15,50,21,21,42,30,21,21,3,6,1.1,1.1
2026-03-08T1300,1872A,109.3886,24.3408,柳州市,河西水厂,,33,33,79,20,58,15,15,39,25,22,23,7,9,1.2,1.1
2026-03-08T1300,1873A,109.4263,24.2951,柳州市,市四中,细颗粒物(PM2.5),64,45,60,42,53,38,38,46,37,16,18,6,8,0.9,0.8
2026-03-08T1300,1874A,109.396,24.3658,柳州市,市九中,,19,15,77,13,59,16,16,31,24,18,19,7,11,1.0,0.9
2026-03-08T1300,1875A,109.4912,24.3164,柳州市,古亭山,NA,NA,NA,56,29,52,48,48,61,47,NA,12,NA,8,1.0,0.8
2026-03-08T1300,3402A,109.5422,24.3994,柳州市,市二中,,35,35,53,18,47,47,47,61,51,12,13,6,7,0.8,0.7
2026-03-08T1300,2307A,116.5078,31.7369,六安市,监测大楼,细颗粒物(PM2.5),92,65,49,56,39,86,86,57,57,16,17,6,5,0.6,0.5
2026-03-08T1300,2308A,116.4738,31.7642,六安市,皖西学院,细颗粒物(PM2.5),92,69,54,56,37,96,96,63,63,14,17,5,4,0.5,0.4
2026-03-08T1300,2309A,116.4997,31.7904,六安市,朝阳厂,细颗粒物(PM2.5),98,61,47,59,37,95,95,60,60,21,23,4,5,0.5,0.4
2026-03-08T1300,2310A,116.5566,31.7885,六安市,开发区,细颗粒物(PM2.5),80,60,49,50,34,101,101,63,63,24,19,6,5,0.6,0.4
2026-03-08T1300,2577A,104.8293,26.592,六盘水市,黄土坡,,19,19,10,9,9,46,46,44,42,14,13,6,6,0.9,0.8
2026-03-08T1300,2579A,104.8481,26.5898,六盘水市,民中,,18,18,12,9,8,49,49,40,38,11,13,4,4,0.8,0.8
2026-03-08T1300,2580A,104.9541,26.5506,六盘水市,双水,,17,17,12,3,6,49,49,39,39,8,10,4,4,0.4,0.3
2026-03-08T1300,4151A,104.8899,26.5685,六盘水市,钟山大道中段564号,,15,14,10,3,5,46,46,36,36,10,10,7,7,0.8,0.8
2026-03-08T1300,2336A,117.022,25.1031,龙岩市,龙岩市监测站,,43,43,36,18,22,100,100,85,85,6,10,6,7,0.7,0.7
2026-03-08T1300,2337A,117.0257,25.0662,龙岩市,闽西职业技术学院,,39,39,40,17,22,104,104,79,79,6,8,6,6,0.5,0.5
2026-03-08T1300,2338A,117.0195,25.0306,龙岩市,龙岩学院,,36,36,34,19,21,106,106,74,74,7,7,5,4,/,/
2026-03-08T1300,2885A,104.9344,33.3827,陇南市,滨江中学,,38,38,38,8,13,41,41,38,35,12,13,8,9,0.7,0.6
2026-03-08T1300,3247A,104.9551,33.3709,陇南市,市总工会,,37,37,36,3,13,40,40,40,37,12,9,5,5,0.7,0.7
2026-03-08T1300,2488A,111.9984,27.7346,娄底市,市监测站,,23,22,38,16,30,32,32,46,34,18,19,11,8,0.8,0.8
2026-03-08T1300,2491A,111.9888,27.7035,娄底市,市政府,,20,20,31,14,27,33,33,48,36,13,10,3,3,0.4,0.4
2026-03-08T1300,4127A,111.9812,27.7591,娄底市,涟钢职大,,22,NA,40,15,29,29,29,44,35,13,11,1,2,0.4,1.2
2026-03-08T1300,4128A,112.0303,27.7457,娄底市,娄底体校,,20,20,41,13,27,34,34,48,32,7,7,2,2,0.6,0.6
2026-03-08T1300,1894A,105.4427,28.9063,泸州市,小市上码头,细颗粒物(PM2.5),58,45,43,39,37,44,44,19,19,14,23,9,9,0.6,0.6
2026-03-08T1300,1895A,105.4241,28.8573,泸州市,兰田宪桥,"颗粒物(PM10),细颗粒物(PM2.5)",54,55,50,37,33,40,40,17,17,14,21,9,10,0.7,0.6
2026-03-08T1300,1896A,105.4378,28.8833,泸州市,市环监站,颗粒物(PM10),57,59,53,38,32,38,38,15,15,18,23,9,12,0.6,0.3
2026-03-08T1300,4272A,105.3689,28.7783,泸州市,纳溪中医医院,细颗粒物(PM2.5),76,NA,50,48,44,37,37,14,14,14,20,6,7,0.8,0.7
2026-03-08T1300,2183A,111.1447,37.5212,吕梁市,环保局,颗粒物(PM10),58,61,49,38,30,46,46,22,22,23,29,5,5,0.5,0.5
2026-03-08T1300,2185A,111.1285,37.5338,吕梁市,自来水公司,颗粒物(PM10),57,59,51,38,29,46,46,24,24,21,23,5,5,0.6,0.6
2026-03-08T1300,2867A,111.1225,37.5093,吕梁市,马茂庄小学,颗粒物(PM10),61,65,57,37,29,48,48,19,19,17,28,7,7,0.6,0.6
2026-03-08T1300,1812A,112.3934,34.6517,洛阳市,市委党校,,36,36,68,22,59,59,59,35,35,12,22,6,6,0.9,0.7
2026-03-08T1300,1815A,112.494,34.6883,洛阳市,河南林校,,50,44,77,35,57,56,56,34,34,18,26,10,8,0.8,0.6
2026-03-08T1300,1816A,112.3843,34.623,洛阳市,开发区管委会,,45,41,79,31,53,64,64,38,38,9,19,8,8,0.7,0.7
2026-03-08T1300,1817A,112.4263,34.6249,洛阳市,市委新办公区,细颗粒物(PM2.5),56,NA,79,38,60,60,60,38,38,12,20,8,7,0.6,0.6
2026-03-08T1300,3340A,112.6005,34.6323,洛阳市,伊滨,,45,45,88,18,62,62,62,34,34,11,22,7,7,0.7,0.6
2026-03-08T1300,3341A,112.495,34.6338,洛阳市,中移产业园,,36,36,73,24,58,58,58,33,33,12,20,7,7,0.7,0.6
2026-03-08T1300,3593A,112.5736,34.8993,洛阳市,吉利监测站,,40,40,66,27,53,69,69,44,42,10,18,8,6,0.7,0.5
2026-03-08T1300,3635A,112.3678,34.6623,洛阳市,河科大西苑校区,,40,35,66,28,52,63,63,40,40,8,17,7,6,0.8,0.7
2026-03-08T1300,3636A,112.4387,34.678,洛阳市,英才小学,细颗粒物(PM2.5),54,47,77,37,54,58,58,38,38,17,27,8,7,0.8,0.6
2026-03-08T1300,4214A,112.460027,34.694929,洛阳市,春都路1号院,细颗粒物(PM2.5),64,53,82,42,53,47,47,29,29,14,22,8,7,0.8,0.7
2026-03-08T1300,2399A,114.051,33.5721,漯河市,三五一五工厂,细颗粒物(PM2.5),105,95,99,65,72,93,93,46,46,18,28,6,5,0.9,0.9
2026-03-08T1300,2400A,114.0055,33.5698,漯河市,漯河大学,细颗粒物(PM2.5),115,80,86,76,78,95,95,50,50,14,23,6,7,0.5,0.6
2026-03-08T1300,2401A,114.0134,33.5826,漯河市,市水利局,细颗粒物(PM2.5),114,NA,89,75,72,94,94,49,49,18,25,6,7,0.5,0.6
2026-03-08T1300,2402A,114.0261,33.5697,漯河市,市广电局,细颗粒物(PM2.5),102,76,86,62,72,87,87,45,45,14,22,6,6,0.5,0.6
2026-03-08T1300,3478A,113.9691,33.568,漯河市,市图书馆,细颗粒物(PM2.5),108,98,104,68,74,85,85,40,40,16,26,7,6,0.8,0.9
2026-03-08T1300,4250A,114.089259,33.588274,漯河市,韶山路11号,细颗粒物(PM2.5),94,90,91,57,68,93,93,42,42,16,32,8,7,0.6,0.7
2026-03-08T1300,1798A,118.5084,31.6838,马鞍山市,湖东路四小,颗粒物(PM10),51,51,46,34,30,86,86,60,60,15,18,6,6,0.4,0.4
2026-03-08T1300,1799A,118.5019,31.6449,马鞍山市,开发区,,49,47,49,34,31,90,90,60,60,19,22,5,5,0.4,0.4
2026-03-08T1300,3633A,118.4914,31.681,马鞍山市,雨山,细颗粒物(PM2.5),56,56,54,38,32,89,89,62,62,14,16,4,4,0.5,0.5
2026-03-08T1300,4191A,118.527362,31.722269,马鞍山市,慈湖高新区,颗粒物(PM10),52,52,46,35,32,88,88,62,62,15,18,5,4,0.3,0.4
2026-03-08T1300,1686A,111.0285,21.469,茂名市,电白南海,颗粒物(PM10),63,68,56,23,20,109,109,92,90,12,11,6,6,0.6,0.6
2026-03-08T1300,1687A,110.9294,21.6533,茂名市,茂石化七小,颗粒物(PM10),53,53,51,24,24,103,103,83,83,13,16,6,7,0.5,0.6
2026-03-08T1300,1688A,110.9108,21.6688,茂名市,健康路,,46,46,45,24,21,111,111,92,92,12,14,4,4,0.7,0.7
2026-03-08T1300,1689A,110.8592,21.6826,茂名市,高岭,颗粒物(PM10),53,53,58,24,23,115,115,95,94,12,17,3,5,/,/
2026-03-08T1300,3450A,111.0101,21.5165,茂名市,电白水东,NA,NA,53,49,20,20,103,103,89,87,12,12,NA,4,/,/
2026-03-08T1300,2540A,103.8414,30.0871,眉山市,气象局,,38,38,45,17,22,54,54,30,30,10,16,6,6,0.5,0.6
2026-03-08T1300,3148A,103.829,30.0563,眉山市,区人社局,NA,NA,40,50,18,27,48,48,21,21,14,21,NA,8,0.5,0.7
2026-03-08T1300,4148A,103.8836,30.0695,眉山市,眉职院,,34,34,34,17,21,54,54,29,29,9,15,5,5,0.6,0.6
2026-03-08T1300,1690A,116.1248,24.3307,梅州市,梅江月梅,,41,41,42,19,25,100,100,86,84,11,12,/,/,/,/
2026-03-08T1300,1691A,116.0798,24.2719,梅州市,梅县新城,,50,50,47,19,29,105,105,83,83,13,19,10,9,0.6,0.7
2026-03-08T1300,3315A,116.1234,24.2994,梅州市,梅龙,,39,39,48,17,25,111,111,92,92,8,11,7,7,0.6,0.7
2026-03-08T1300,1878A,104.7775,31.4741,绵阳市,富乐山,,30,30,34,19,19,51,51,32,32,6,11,9,9,0.6,0.6
2026-03-08T1300,1880A,104.6698,31.4668,绵阳市,高新区自来水公司,,35,35,35,22,21,47,47,26,26,11,24,8,8,0.7,0.7
2026-03-08T1300,3491A,104.6899,31.5324,绵阳市,西科大附属小学,,38,36,33,26,22,45,45,23,23,8,23,7,7,0.5,0.6
2026-03-08T1300,3492A,104.5647,31.5343,绵阳市,安州区旅游局,,35,35,38,24,19,39,39,16,14,11,14,5,5,0.5,0.5
2026-03-08T1300,4146A,104.7092,31.4972,绵阳市,科技城新区公安局,,37,37,40,24,20,45,45,25,25,10,22,8,8,0.6,0.6
2026-03-08T1300,4226A,104.765114,31.453094,绵阳市,绵阳市气象局,,35,31,34,24,22,39,39,22,22,8,14,10,9,0.7,0.7
2026-03-08T1300,1784A,129.61,44.561,牡丹江市,环保大楼,,30,27,39,16,25,95,95,60,60,8,18,2,3,0.3,0.4
2026-03-08T1300,1787A,129.6364,44.6075,牡丹江市,机车工厂,,29,28,46,17,30,92,92,54,54,9,19,7,8,0.4,0.6
2026-03-08T1300,1788A,129.6386,44.5462,牡丹江市,第一中学,,29,21,31,8,20,92,92,60,60,7,19,3,4,0.5,0.6
2026-03-08T1300,4287A,129.5992,44.5964,牡丹江市,东晓云街98号,,30,22,35,15,24,93,93,58,58,8,15,3,3,0.4,0.5
2026-03-08T1300,2531A,105.0703,29.61,内江市,市监测站,,32,28,33,22,29,28,28,29,28,14,15,6,6,0.4,0.5
2026-03-08T1300,2533A,105.0657,29.5807,内江市,内江二中,,35,35,41,19,23,26,26,33,29,19,16,7,7,0.5,0.5
2026-03-08T1300,2534A,105.0407,29.5828,内江市,内江日报社,,20,NA,30,14,23,24,24,33,29,18,16,9,9,0.5,0.5
2026-03-08T1300,4147A,105.0433,29.6105,内江市,玉峰路西段888号,,23,NA,21,16,27,32,32,35,32,9,12,6,6,0.3,0.3
2026-03-08T1300,2628A,92.0653,31.4846,那曲市,那曲监测站,,44,44,73,20,38,90,90,47,47,6,19,2,7,0.4,0.9
2026-03-08T1300,4243A,92.0515,31.4787,那曲市,那曲市委宣传部,,31,19,53,3,24,99,99,51,49,1,9,5,8,0.3,0.6
2026-03-08T1300,1291A,115.8887,28.7006,南昌市,省林业公司,细颗粒物(PM2.5),76,48,61,48,48,64,64,74,62,21,15,4,4,0.7,0.7
2026-03-08T1300,1292A,115.813,28.7443,南昌市,林科所,,48,39,62,33,43,82,82,76,70,17,13,8,8,0.7,0.7
2026-03-08T1300,1294A,115.8518,28.687,南昌市,建工学校,细颗粒物(PM2.5),76,58,75,48,49,66,66,71,63,21,19,8,8,0.6,0.6
2026-03-08T1300,1295A,115.8926,28.6425,南昌市,象湖,细颗粒物(PM2.5),54,49,64,37,50,72,72,73,63,20,20,8,8,0.6,0.6
2026-03-08T1300,3046A,115.9084,28.6062,南昌市,机电学校,细颗粒物(PM2.5),80,71,76,50,51,73,73,76,65,17,16,5,5,0.6,0.6
2026-03-08T1300,3690A,115.9718,28.7032,南昌市,外国语学校,细颗粒物(PM2.5),72,52,70,46,53,70,70,73,61,17,19,7,7,0.8,0.9
2026-03-08T1300,4106A,115.7923,28.6873,南昌市,工业二路,细颗粒物(PM2.5),64,60,75,42,49,84,84,81,71,19,18,5,5,0.6,0.7
2026-03-08T1300,4192A,115.931587,28.686774,南昌市,南京东路235号,细颗粒物(PM2.5),72,60,72,46,51,74,74,78,68,16,15,6,6,0.6,0.6
2026-03-08T1300,1906A,106.0791,30.8022,南充市,南充市委,,38,38,32,26,22,32,32,24,22,14,14,7,6,0.6,0.5
2026-03-08T1300,1907A,106.1038,30.8215,南充市,南充炼油厂,,31,31,38,18,16,29,29,27,21,13,13,6,6,0.6,0.5
2026-03-08T1300,4227A,106.108336,30.788436,南充市,梨树横街98号,,36,36,32,25,22,32,32,32,25,14,14,6,6,0.4,0.3
2026-03-08T1300,4304A,106.1172,30.843,南充市,清泉寺北路188号,,32,32,31,21,21,38,38,29,29,7,9,8,6,0.5,0.5
2026-03-08T1300,4305A,106.067,30.7616,南充市,同庆路1号,,38,38,35,25,27,28,28,28,24,16,14,7,6,0.7,0.6
2026-03-08T1300,1151A,118.8033,32.1085,南京市,迈皋桥,,46,46,41,24,24,102,102,87,87,19,19,6,6,0.4,0.4
2026-03-08T1300,1152A,118.7487,32.057,南京市,草场门,,48,48,41,24,25,94,94,76,76,21,23,9,9,0.4,0.4
2026-03-08T1300,1154A,118.770105,32.004342,南京市,中华门,,44,44,41,24,20,90,90,70,70,13,8,6,6,0.4,0.4
2026-03-08T1300,1155A,118.8059,32.0329,南京市,瑞金路,,46,46,40,24,20,87,87,68,68,9,15,4,4,0.7,0.7
2026-03-08T1300,1156A,118.7946,32.0774,南京市,玄武湖,,43,43,42,21,23,87,87,71,71,10,14,8,8,0.6,0.6
2026-03-08T1300,1157A,118.6415,32.0964,南京市,浦口,颗粒物(PM10),52,52,49,28,24,83,83,67,67,22,22,6,6,0.3,0.4
2026-03-08T1300,1158A,118.730129,32.000956,南京市,奥体中心,颗粒物(PM10),51,51,46,23,19,91,91,74,74,20,20,9,8,0.4,0.4
2026-03-08T1300,1159A,118.9072,32.1047,南京市,仙林大学城,颗粒物(PM10),55,56,46,22,20,88,88,75,75,16,17,7,6,0.6,0.6
2026-03-08T1300,3422A,118.8443,31.919,南京市,江宁彩虹桥,颗粒物(PM10),52,52,48,24,20,100,100,79,79,12,14,4,3,0.5,0.5
2026-03-08T1300,3427A,118.8497,32.3599,南京市,六合雄州,,42,42,29,24,15,74,74,63,63,27,19,4,4,0.8,0.6
2026-03-08T1300,4086A,118.7641,32.0841,南京市,新模范马路66号,颗粒物(PM10),56,58,45,25,18,112,112,93,93,12,17,4,4,0.4,0.6
2026-03-08T1300,4249A,118.8707617,31.34017673,南京市,汶溪路181号,,38,31,53,26,33,100,100,68,68,15,22,10,7,0.5,0.2
2026-03-08T1300,4312A,119.019,31.6512,南京市,中山西路1号,,44,44,42,23,23,96,96,68,68,9,13,3,4,0.6,0.8
2026-03-08T1300,1401A,108.3098,22.788,南宁市,二十一中,,49,49,43,33,32,92,92,88,88,8,11,5,6,0.7,0.7
2026-03-08T1300,1402A,108.3135,22.8529,南宁市,北湖,细颗粒物(PM2.5),56,43,44,38,32,90,90,89,89,15,13,3,3,0.6,0.6
2026-03-08T1300,1403A,108.3205,22.8222,南宁市,市监测站,颗粒物(PM10),55,57,45,36,27,96,96,94,94,12,12,6,6,0.6,0.7
2026-03-08T1300,1404A,108.3828,22.8038,南宁市,大自然花园,颗粒物(PM10),58,60,43,38,30,101,101,99,99,6,6,6,6,0.4,0.4
2026-03-08T1300,1406A,108.2397,22.8462,南宁市,区农职院,,45,34,47,31,31,85,85,84,84,13,13,6,6,0.5,0.6
2026-03-08T1300,1407A,108.3285,22.7356,南宁市,英华嘉园,颗粒物(PM10),55,56,55,29,33,97,97,87,87,8,16,4,4,0.6,0.7
2026-03-08T1300,3401A,108.4829,22.762,南宁市,红星社区,细颗粒物(PM2.5),56,52,46,38,30,101,101,92,92,9,11,6,6,0.5,0.5
2026-03-08T1300,4132A,108.2927,23.1477,南宁市,起凤路9号,,42,42,53,26,38,92,92,88,79,10,15,3,4,0.7,0.8
2026-03-08T1300,4221A,108.2177,22.7774,南宁市,乐贤路16号,颗粒物(PM10),54,55,49,28,30,91,91,82,82,13,19,3,4,0.3,0.4
2026-03-08T1300,2332A,118.1682,26.6371,南平市,南平市监测站,,29,21,37,11,21,92,92,93,90,5,6,4,4,0.1,0.2
2026-03-08T1300,2334A,118.1757,26.6276,南平市,南平七中,,30,28,43,11,21,95,95,97,94,5,7,2,2,0.4,0.5
2026-03-08T1300,1168A,120.9056,31.9669,南通市,狼山街道,,28,26,26,9,9,87,87,78,78,8,10,5,4,0.6,0.4
2026-03-08T1300,1170A,120.8635,32.0231,南通市,城中,,30,30,31,6,8,93,93,81,81,10,10,2,2,0.4,0.4
2026-03-08T1300,1171A,120.9376,31.9301,南通市,星湖花园,,29,29,26,9,8,90,90,75,75,8,10,4,4,0.5,0.4
2026-03-08T1300,1172A,120.8053,32.046,南通市,紫琅学院,,27,27,26,12,7,79,79,76,76,23,13,6,4,0.6,0.6
2026-03-08T1300,3291A,121.0631,32.0644,南通市,通州监测站,,31,27,21,8,6,99,99,87,87,8,8,4,3,0.5,0.5
2026-03-08T1300,3432A,120.9348,31.9874,南通市,环境教育馆,,31,31,29,11,9,95,95,74,74,8,13,5,4,0.4,0.3
2026-03-08T1300,4091A,120.8692,31.9885,南通市,洪江路,,35,35,24,12,9,79,79,78,78,16,8,4,3,0.6,0.4
2026-03-08T1300,2404A,112.5338,33.0086,南阳市,瓦房庄,颗粒物(PM10),63,67,75,38,56,69,69,44,44,10,14,4,4,0.9,0.8
2026-03-08T1300,2405A,112.5002,32.9734,南阳市,汉画馆,细颗粒物(PM2.5),111,78,80,72,73,60,60,35,35,17,18,4,4,0.9,0.7
2026-03-08T1300,2406A,112.5778,33.0144,南阳市,气象站,细颗粒物(PM2.5),74,77,91,47,59,69,69,44,44,14,17,5,4,0.9,0.8
2026-03-08T1300,2407A,112.548,32.9687,南阳市,理工学院,细颗粒物(PM2.5),74,73,80,47,57,63,63,43,43,14,14,5,5,0.9,0.8
2026-03-08T1300,4008A,112.5233,32.9921,南阳市,卧龙区政府,颗粒物(PM10),70,78,86,44,54,64,64,38,38,11,16,5,5,0.9,0.8
2026-03-08T1300,1234A,121.8352,29.9111,宁波市,区环保大楼,,27,27,34,8,14,78,78,59,55,14,18,7,6,0.3,0.4
2026-03-08T1300,1235A,121.5595,29.8208,宁波市,万里学院,,36,36,42,16,23,76,76,44,42,15,20,4,4,0.4,0.4
2026-03-08T1300,1236A,121.713,29.9564,宁波市,龙赛医院,,31,31,36,11,16,74,74,60,51,13,18,5,4,0.5,0.5
2026-03-08T1300,1240A,121.5855,29.8635,宁波市,太古小学,,28,21,38,8,18,87,87,61,58,14,20,3,3,0.4,0.5
2026-03-08T1300,1241A,121.5239,29.8673,宁波市,市环境监测中心,,37,37,38,16,19,77,77,59,51,16,17,6,5,0.4,0.5
2026-03-08T1300,2871A,121.6156,29.9015,宁波市,万里国际学校,,29,29,34,10,17,86,86,68,61,10,17,4,4,0.5,0.6
2026-03-08T1300,3710A,121.5593,29.8976,宁波市,白沙活动中心,,29,29,32,12,17,85,85,68,60,10,15,4,5,0.3,0.5
2026-03-08T1300,4095A,121.8962,29.7529,宁波市,中科路88号,,27,27,29,8,14,76,76,67,67,22,20,6,5,0.5,0.6
2026-03-08T1300,2341A,119.5387,26.6611,宁德市,宁德市监测站,,44,44,46,22,23,81,81,78,69,16,17,5,5,0.5,0.5
2026-03-08T1300,3209A,119.5231,26.6562,宁德市,宁德一中,,35,35,46,16,25,92,92,79,72,10,14,4,5,0.3,0.4
2026-03-08T1300,2618A,98.859,25.8541,怒江傈僳族自治州,州监测站,细颗粒物(PM2.5),105,75,65,65,54,101,101,74,69,11,10,8,7,0.6,0.5
2026-03-08T1300,2619A,98.8607,25.8168,怒江傈僳族自治州,泸水一中,细颗粒物(PM2.5),103,90,58,63,53,98,98,73,64,6,5,6,5,0.7,0.6
2026-03-08T1300,1888A,101.6891,26.571,攀枝花市,弄弄坪,NA,NA,66,83,47,54,128,128,61,NA,11,25,NA,21,0.8,1.5
2026-03-08T1300,1889A,101.577,26.5914,攀枝花市,河门口,细颗粒物(PM2.5),107,95,91,67,57,123,123,54,54,14,20,26,33,1.6,0.9
2026-03-08T1300,1891A,101.7365,26.4986,攀枝花市,仁和,细颗粒物(PM2.5),80,59,65,50,55,120,120,72,72,8,14,12,9,0.6,0.6
2026-03-08T1300,2835A,101.7222,26.567,攀枝花市,四十中小,细颗粒物(PM2.5),74,65,57,47,52,126,126,65,65,13,27,26,16,1.0,1
2026-03-08T1300,1604A,122.0303,41.1489,盘锦市,开发区,细颗粒物(PM2.5),86,NA,29,53,25,87,87,63,63,16,20,10,6,0.7,0.5
2026-03-08T1300,1605A,122.0486,41.0883,盘锦市,兴隆台,细颗粒物(PM2.5),66,NA,27,43,26,83,83,58,58,16,30,12,8,0.5,0.5
2026-03-08T1300,1606A,121.8297,41.1026,盘锦市,新生街道,细颗粒物(PM2.5),103,NA,24,63,21,90,90,65,65,20,21,13,7,0.6,0.4
2026-03-08T1300,1832A,113.3257,33.7423,平顶山市,新华旅馆,细颗粒物(PM2.5),115,95,109,76,81,75,75,40,40,15,27,6,5,0.6,0.5
2026-03-08T1300,1833A,113.2917,33.737,平顶山市,规划设计院,细颗粒物(PM2.5),105,100,113,65,78,70,70,35,35,16,28,7,6,0.7,0.6
2026-03-08T1300,1834A,113.182,33.7738,平顶山市,平顶山工学院,细颗粒物(PM2.5),82,83,105,51,75,71,71,45,45,10,21,3,3,0.5,0.5
2026-03-08T1300,3594A,112.8736,33.9068,平顶山市,石龙区,细颗粒物(PM2.5),80,NA,85,50,64,55,55,36,36,12,22,6,5,0.7,0.7
2026-03-08T1300,4116A,113.284,33.7139,平顶山市,姚电大道23号,细颗粒物(PM2.5),105,97,119,65,79,73,73,39,39,13,30,6,5,0.7,0.7
2026-03-08T1300,2656A,106.6633,35.5338,平凉市,聚贤嘉苑,,50,50,49,35,31,44,44,11,11,19,24,5,6,0.7,1
2026-03-08T1300,2657A,106.7021,35.5307,平凉市,博物馆,,48,47,49,33,31,43,43,12,12,16,20,9,9,0.8,1
2026-03-08T1300,2348A,113.8384,27.6436,萍乡市,中医院,颗粒物(PM10),53,54,65,33,43,81,81,73,73,14,19,3,4,0.4,0.5
2026-03-08T1300,2350A,113.8677,27.6438,萍乡市,市环保局,细颗粒物(PM2.5),70,NA,54,45,44,71,71,68,68,9,11,3,5,0.5,0.6
2026-03-08T1300,2351A,113.8663,27.6202,萍乡市,安源区政府,颗粒物(PM10),64,69,66,39,48,63,63,59,59,12,14,5,6,0.6,0.8
2026-03-08T1300,4107A,113.8686,27.6668,萍乡市,联洪村委会,,45,40,59,31,41,63,63,62,62,6,7,1,2,0.4,0.4
2026-03-08T1300,2319A,119.0142,25.4324,莆田市,荔城区仓后路,,34,34,39,13,16,90,90,99,90,8,9,/,/,/,/
2026-03-08T1300,2320A,119.0016,25.4553,莆田市,莆田市监测站,,35,35,33,13,16,94,94,106,98,5,5,2,2,0.4,0.4
2026-03-08T1300,2321A,119.112,25.4561,莆田市,涵江区六中,,30,25,39,9,13,93,93,100,92,5,6,/,/,0.4,0.4
2026-03-08T1300,2322A,119.1014,25.3215,莆田市,秀屿区政府,,44,44,39,15,15,93,93,98,90,8,7,3,3,0.4,0.4
2026-03-08T1300,2392A,115.0312,35.7636,濮阳市,环保局,细颗粒物(PM2.5),101,NA,63,61,64,77,77,55,55,17,19,6,6,0.7,0.6
2026-03-08T1300,3021A,115,35.7667,濮阳市,濮水河管理处,细颗粒物(PM2.5),100,87,85,60,65,82,82,56,56,13,15,8,7,0.6,0.6
2026-03-08T1300,4118A,115.0552,35.7816,濮阳市,中原东路68号,细颗粒物(PM2.5),102,89,88,62,66,83,83,58,58,14,16,6,4,0.5,0.5
2026-03-08T1300,4216A,115.0923632,35.76857718,濮阳市,任丘路479号,细颗粒物(PM2.5),94,86,87,57,67,87,87,54,54,17,18,6,6,0.6,0.6
2026-03-08T1300,2601A,100.9801,22.7634,普洱市,市环保局,颗粒物(PM10),99,118,94,59,52,128,128,66,66,8,9,6,6,0.8,0.9
2026-03-08T1300,2602A,100.9763,22.8237,普洱市,普洱第二中学,细颗粒物(PM2.5),100,115,92,60,61,135,135,60,60,3,15,4,4,0.6,0.8
2026-03-08T1300,3345A,131.0413,45.7795,七台河市,中波台,,42,42,40,11,17,96,96,77,77,6,16,6,12,0.3,0.4
2026-03-08T1300,3637A,131.0136,45.7688,七台河市,人民广场,,37,37,37,9,13,94,94,77,77,9,21,7,10,0.3,0.4
2026-03-08T1300,3684A,130.8639,45.8144,七台河市,新建矿广场,,30,29,39,10,15,94,94,71,71,6,13,4,5,0,0.1
2026-03-08T1300,1779A,123.9307,47.3641,齐齐哈尔市,安居小区,颗粒物(PM10),68,74,50,34,26,72,72,48,46,13,18,7,7,0.5,0.5
2026-03-08T1300,1780A,123.9497,47.3389,齐齐哈尔市,中心广场,NA,NA,NA,40,NA,23,NA,NA,81,NA,NA,16,NA,8,NA,0.5
2026-03-08T1300,1781A,123.9483,47.3229,齐齐哈尔市,农牧车辆厂,细颗粒物(PM2.5),64,63,46,42,25,70,70,45,45,10,10,8,9,0.4,0.4
2026-03-08T1300,1783A,123.9442,47.2994,齐齐哈尔市,市环境监测站,颗粒物(PM10),67,73,45,35,22,71,71,53,48,14,15,4,4,0.6,0.5
2026-03-08T1300,3662A,123.6341,47.2079,齐齐哈尔市,富区青少年活动中心,颗粒物(PM10),63,68,60,35,25,83,83,50,50,9,11,4,4,0.5,0.5
2026-03-08T1300,2591A,107.9765,26.5724,黔东南苗族侗族自治州,市环境监测站,,11,9,16,6,16,34,34,42,38,14,9,4,3,0.8,0.7
2026-03-08T1300,2881A,107.8909,26.531,黔东南苗族侗族自治州,凯里学院,,13,9,15,3,11,41,41,45,41,13,12,3,3,0.8,0.8
2026-03-08T1300,2593A,107.5223,26.2371,黔南布依族苗族自治州,小围寨,,11,NA,12,3,14,35,35,37,36,7,7,5,5,0.9,0.8
2026-03-08T1300,3538A,107.5175,26.2977,黔南布依族苗族自治州,沙坝,,11,7,14,3,11,34,34,39,37,9,9,4,4,0.9,0.8
2026-03-08T1300,2589A,104.9022,25.0943,黔西南布依族苗族自治州,场坝街,,18,12,38,3,27,56,56,50,44,7,2,3,3,0.7,0.7
2026-03-08T1300,2590A,104.8812,25.0994,黔西南布依族苗族自治州,坪东大道,,17,11,40,3,29,54,54,50,42,9,9,4,4,0.7,0.8
2026-03-08T1300,2502A,108.6238,21.9667,钦州市,市环保站,颗粒物(PM10),58,61,57,27,28,96,96,91,91,13,14,4,5,0.5,0.5
2026-03-08T1300,2503A,108.655,21.9481,钦州市,沙埠小学,颗粒物(PM10),58,60,53,29,27,103,103,93,93,11,12,5,6,0.5,0.6
2026-03-08T1300,2504A,108.5989,21.7435,钦州市,港区一小,颗粒物(PM10),65,71,57,30,27,110,110,83,83,10,15,3,4,0.4,0.5
2026-03-08T1300,3404A,108.5959,21.9634,钦州市,北职校,颗粒物(PM10),52,52,48,25,28,99,99,95,95,13,14,4,5,0.6,0.7
2026-03-08T1300,1046A,119.5247,39.9346,秦皇岛市,建设大厦,细颗粒物(PM2.5),112,95,54,73,34,81,81,63,63,21,16,17,10,1.4,0.7
2026-03-08T1300,3132A,119.5979,39.938,秦皇岛市,文明里,细颗粒物(PM2.5),108,110,51,68,31,76,76,63,61,35,21,20,12,1.4,0.7
2026-03-08T1300,4066A,119.7458,39.9952,秦皇岛市,南园路157号,细颗粒物(PM2.5),109,104,49,69,34,67,67,52,52,34,30,17,10,1.3,0.6
2026-03-08T1300,4067A,119.5131,39.8858,秦皇岛市,翠岛大街1号,细颗粒物(PM2.5),112,92,55,73,36,75,75,46,46,21,26,16,10,1.2,0.7
2026-03-08T1300,4198A,119.509013,39.825305,秦皇岛市,北戴河轮滑馆,细颗粒物(PM2.5),109,96,51,69,30,57,57,60,55,32,22,15,8,1.5,0.7
2026-03-08T1300,1310A,120.404,36.0625,青岛市,市南区东部子站,,32,17,23,12,15,102,102,87,87,8,12,8,9,0.5,0.5
2026-03-08T1300,1311A,120.362344,36.10282,青岛市,四方区子站,,33,22,27,14,17,105,105,89,89,9,15,5,5,0.5,0.5
2026-03-08T1300,1312A,120.294373,36.054183,青岛市,市南区西部子站,,31,19,24,12,14,98,98,78,78,12,19,3,3,0.4,0.5
2026-03-08T1300,1313A,120.4581,36.0858,青岛市,崂山区子站,,33,17,23,12,15,105,105,88,88,4,9,7,7,0.3,0.4
2026-03-08T1300,1315A,120.3945,36.3083,青岛市,城阳区子站,,36,36,37,15,21,99,99,80,80,18,25,7,6,0.5,0.6
2026-03-08T1300,3642A,120.3454,36.0735,青岛市,市北区南部,,32,20,26,11,14,100,100,86,86,6,9,4,4,0.4,0.5
2026-03-08T1300,3643A,120.3897,36.18,青岛市,李沧区北部,,31,24,35,12,23,98,98,72,72,10,23,9,9,0.4,0.6
2026-03-08T1300,4110A,120.5222,36.4089,青岛市,盟旺路653号,,35,32,35,14,21,109,109,90,90,9,14,3,3,0.5,0.6
2026-03-08T1300,4290A,120.196923,35.954556,青岛市,珠江路669号,,35,NA,15,11,14,111,111,94,94,8,15,8,8,0.3,0.4
2026-03-08T1300,4291A,120.0424,35.8656,青岛市,黄岛区人民政府广场,,33,22,30,9,18,104,104,72,72,6,17,7,8,0.4,0.5
2026-03-08T1300,1703A,113.0218,23.7086,清远市,凤城街办,细颗粒物(PM2.5),86,71,45,53,32,132,132,82,82,19,22,/,/,/,/
2026-03-08T1300,3025A,113.0479,23.6343,清远市,技师学院,颗粒物(PM10),70,77,52,44,32,133,133,89,89,18,29,5,6,0.6,0.7
2026-03-08T1300,3318A,112.9898,23.7403,清远市,清新太和,细颗粒物(PM2.5),70,69,42,45,28,144,144,87,87,19,20,5,6,0.5,0.5
2026-03-08T1300,3455A,113.076,23.72,清远市,清城东城,颗粒物(PM10),65,71,46,37,29,126,126,60,60,17,27,/,/,/,/
2026-03-08T1300,2661A,107.6325,35.7357,庆阳市,庆阳五中,细颗粒物(PM2.5),62,45,52,41,42,28,28,24,24,15,20,4,5,0.8,0.8
2026-03-08T1300,2662A,107.6361,35.7067,庆阳市,市环保局,细颗粒物(PM2.5),60,53,50,40,40,29,29,24,24,15,16,4,4,0.9,0.8
2026-03-08T1300,1916A,103.7897,25.5036,曲靖市,环境监测站,,40,37,51,28,34,31,31,36,24,16,12,7,7,1.0,0.7
2026-03-08T1300,1917A,103.8013,25.5357,曲靖市,烟厂办公区,,43,43,48,29,28,26,26,32,22,15,11,4,4,1.2,0.9
2026-03-08T1300,3376A,103.7926,25.4651,曲靖市,南苑二区,,41,41,42,24,33,30,30,34,22,21,15,4,4,1.1,0.9
2026-03-08T1300,3377A,103.7442,25.5259,曲靖市,曲靖师范学院,,33,30,44,23,31,27,27,22,18,14,17,2,2,0.9,0.6
2026-03-08T1300,1264A,118.8694,28.94,衢州市,环保大楼,细颗粒物(PM2.5),86,68,66,53,45,88,88,75,65,22,20,/,/,/,/
2026-03-08T1300,1266A,118.8622,28.9809,衢州市,衢州学院,细颗粒物(PM2.5),76,64,64,48,44,91,91,66,64,16,22,6,6,0.6,0.6
2026-03-08T1300,4097A,118.9646,28.9832,衢州市,衢州三中,细颗粒物(PM2.5),82,69,65,51,43,87,87,64,61,18,20,6,6,0.7,0.7
2026-03-08T1300,1611A,118.5818,24.9116,泉州市,涂山街,,26,24,40,16,19,81,81,82,76,8,9,3,3,0.4,0.4
2026-03-08T1300,1612A,118.597,24.8976,泉州市,津头埔,,29,26,40,15,19,91,91,91,84,8,9,2,2,0.4,0.4
2026-03-08T1300,1613A,118.6669,24.9422,泉州市,万安,,28,28,43,16,17,82,82,79,74,8,9,3,3,0.4,0.4
2026-03-08T1300,4105A,118.6355,24.9148,泉州市,霞新路6号,,27,27,36,15,18,82,82,79,75,7,9,/,/,0.4,0.4
2026-03-08T1300,2626A,88.8873,29.2723,日喀则市,日喀则监测站,,31,16,25,3,16,98,98,56,56,7,21,7,9,0.4,0.6
2026-03-08T1300,3726A,88.8775,29.2425,日喀则市,林业技术推广中心,,33,13,21,3,6,103,103,54,54,4,10,10,10,0.3,0.4
2026-03-08T1300,1659A,119.4711,35.421,日照市,监测站,,31,31,38,16,20,89,89,42,42,21,36,14,10,1.1,0.9
2026-03-08T1300,1660A,119.523,35.4216,日照市,市政府广场,,41,41,35,12,17,88,88,56,56,23,29,10,7,0.6,0.6
2026-03-08T1300,1661A,119.5511,35.4113,日照市,港务局,,36,36,44,7,17,94,94,50,50,16,35,7,6,0.5,0.7
2026-03-08T1300,3507A,119.5326,35.4627,日照市,职业技术学院,,41,41,33,14,17,87,87,60,60,26,29,13,9,0.9,0.8
2026-03-08T1300,3604A,119.3267,35.1043,日照市,岚山环保分局,,29,27,35,11,14,90,90,63,63,16,18,12,12,0.6,0.7
2026-03-08T1300,1835A,111.1922,34.7752,三门峡市,市政府,,45,45,37,24,34,48,48,30,27,13,18,9,7,0.7,0.5
2026-03-08T1300,1836A,111.1588,34.794,三门峡市,开发区,细颗粒物(PM2.5),68,53,49,44,45,42,42,33,31,15,16,10,6,0.7,0.6
2026-03-08T1300,3039A,111.1911,34.7829,三门峡市,三门峡市第一小学,,47,47,41,30,39,50,50,32,29,14,20,11,8,0.6,0.5
2026-03-08T1300,3598A,111.1031,34.719,三门峡市,富达温泉假日酒店,细颗粒物(PM2.5),74,56,43,47,39,44,44,28,26,21,24,14,9,0.6,0.5
2026-03-08T1300,2324A,117.621,26.2626,三明市,三钢,,32,26,40,22,23,101,101,95,93,7,8,5,5,0.4,0.5
2026-03-08T1300,2325A,117.6352,26.2714,三明市,三明二中,,43,43,34,20,20,95,95,91,89,7,7,5,5,0.3,0.3
2026-03-08T1300,2326A,117.6028,26.2377,三明市,三元区政府,,32,29,36,21,21,101,101,94,94,7,11,4,6,0.5,0.6
2026-03-08T1300,1877A,109.4962,18.2682,三亚市,河西子站,,34,33,35,13,17,106,106,97,97,4,4,4,4,0.4,0.4
2026-03-08T1300,3540A,109.7348,18.3443,三亚市,君悦子站,,43,43,38,18,18,99,99,80,80,4,6,4,4,0.5,0.4
2026-03-08T1300,4135A,109.1714,18.3739,三亚市,城东小学站,,44,44,37,16,20,124,124,92,92,8,8,/,/,/,/
2026-03-08T1300,2624A,91.7592,29.234,山南市,山南监测站,,27,22,22,3,7,86,86,75,75,5,10,6,4,0.4,0.4
2026-03-08T1300,2625A,91.7701,29.2436,山南市,山南人民医院,,27,18,26,3,4,85,85,77,77,5,8,6,5,0.4,0.5
2026-03-08T1300,1674A,116.6795,23.3666,汕头市,金平子站,,35,30,38,15,18,112,112,92,92,6,8,5,5,0.5,0.6
2026-03-08T1300,1675A,116.7248,23.3632,汕头市,龙湖子站,,33,31,37,15,19,105,105,90,90,9,11,5,5,/,/
2026-03-08T1300,1676A,116.7257,23.2774,汕头市,濠江子站,,42,42,55,23,33,104,104,94,93,10,10,8,8,/,/
2026-03-08T1300,1677A,116.7518,23.4712,汕头市,澄海子站,,40,40,42,16,19,105,105,86,86,5,8,7,7,0.5,0.6
2026-03-08T1300,1678A,116.6088,23.2539,汕头市,潮阳子站,,33,17,33,16,17,105,105,94,91,5,6,6,6,0.4,0.4
2026-03-08T1300,3444A,116.4539,23.2684,汕头市,潮南峡山,,40,32,38,17,19,127,127,98,98,7,7,7,6,0.4,0.5
2026-03-08T1300,3624A,116.4069,23.2533,汕头市,潮南子站,,36,36,47,18,20,113,113,85,85,12,9,8,7,/,/
2026-03-08T1300,1693A,115.3653,22.7751,汕尾市,市环保局,,34,32,47,18,23,107,107,90,87,8,9,6,6,0.5,0.7
2026-03-08T1300,1695A,115.362,22.7926,汕尾市,新城中学,,43,43,47,24,26,106,106,88,88,7,8,7,6,0.6,0.6
2026-03-08T1300,2645A,109.9155,33.8714,商洛市,监测站,,29,22,30,20,24,52,52,43,42,7,18,5,6,0.7,0.8
2026-03-08T1300,3045A,109.9647,33.8486,商洛市,商州区中学,,38,38,26,24,28,56,56,40,40,7,16,5,5,0.8,0.8
2026-03-08T1300,2408A,115.6701,34.4283,商丘市,环境监测站,细颗粒物(PM2.5),60,57,71,40,58,100,100,65,65,12,19,2,2,0.3,0.4
2026-03-08T1300,2409A,115.6458,34.4047,商丘市,粮食局,细颗粒物(PM2.5),60,48,66,40,59,98,98,64,64,11,20,2,2,0.3,0.4
2026-03-08T1300,3171A,115.6069,34.4465,商丘市,梁园区档案局,颗粒物(PM10),61,65,62,37,53,97,97,69,69,14,21,3,2,0.3,0.4
2026-03-08T1300,4119A,115.6701,34.3767,商丘市,北海东路185号,颗粒物(PM10),63,68,77,35,59,95,95,56,56,14,33,4,3,0.3,0.4
2026-03-08T1300,4120A,115.6172,34.3704,商丘市,中山大街3号,颗粒物(PM10),70,77,82,40,61,96,96,62,62,14,30,6,5,0.3,0.4
2026-03-08T1300,1141A,121.401,31.2382,上海市,普陀,,26,23,23,10,13,83,83,78,77,18,18,6,6,0.4,0.4
2026-03-08T1300,1142A,121.4774,31.2043,上海市,十五厂,,29,28,25,13,14,90,90,85,82,18,20,8,8,0.4,0.4
2026-03-08T1300,1143A,121.4673,31.3011,上海市,虹口,,27,26,23,13,13,84,84,81,77,10,12,5,5,0.3,0.2
2026-03-08T1300,1147A,121.4253,31.226,上海市,静安监测站,,28,25,23,11,14,87,87,80,80,20,21,7,7,0.2,0.2
2026-03-08T1300,1148A,121.7029,31.1905,上海市,浦东川沙,,29,21,22,9,11,91,91,83,83,9,10,4,4,0.4,0.4
2026-03-08T1300,1149A,121.5339,31.229,上海市,浦东新区监测站,,27,23,22,12,13,86,86,77,77,12,13,6,5,0.4,0.4
