timepoint,stationcode,longitude,latitude,area,positionname,primarypollutant,aqi,pm10,pm10_24h,pm2_5,pm2_5_24h,o3,o3_24h,o3_8h,o3_8h_24h,no2,no2_24h,so2,so2_24h,co,co_24h
2025-07-17T2100,2566A,102.1879,31.914,阿坝藏族羌族自治州,州农科所,颗粒物(PM10),76,102,43,26,18,43,,74,63,13,8,14,14,0.9,1.1
2025-07-17T2100,2568A,102.2502,31.8896,阿坝藏族羌族自治州,马师校,,35,28,22,24,18,28,,82,69,22,11,6,7,0.8,0.7
2025-07-17T2100,3994A,102.2165,31.9024,阿坝藏族羌族自治州,马尔康中学西区,,,,18,27,18,,,86,78,7,5,7,7,1.1,0.6
2025-07-17T2100,2695A,80.292,41.1694,阿克苏地区,电视台,颗粒物(PM10),106,162,109,58,35,92,,88,88,10,12,4,8,0.4,0.4
2025-07-17T2100,2696A,80.2613,41.1551,阿克苏地区,艺术中心,颗粒物(PM10),113,176,107,74,46,,,95,95,2,9,3,3,0.4,0.4
2025-07-17T2100,2204A,105.6467,38.8363,阿拉善盟,西城区西花园,,42,29,20,3,10,134,,135,134,10,11,8,8,0.6,0.6
2025-07-17T2100,2205A,105.6985,38.8411,阿拉善盟,蒙二幼,,45,33,22,11,6,141,,144,143,8,9,9,10,0.4,0.4
2025-07-17T2100,2206A,105.724,38.8516,阿拉善盟,环保局新楼,,42,27,18,10,6,133,,142,139,5,5,11,11,0.7,0.7
2025-07-17T2100,2708A,88.1264,47.8517,阿勒泰地区,市站,,33,25,28,3,5,103,,111,110,11,9,2,2,0.2,0.3
2025-07-17T2100,2630A,80.1161,32.5,阿里地区,阿里监测站,,33,,4,8,2,104,,102,102,8,5,14,13,0.2,0.2
2025-07-17T2100,3192A,80.0903,32.5028,阿里地区,阿里藏医院,,35,7,7,3,3,109,,106,106,3,2,6,6,0.4,0.4
2025-07-17T2100,2642A,109.0318,32.6537,安康市,香溪洞,,27,18,36,10,18,84,,103,93,5,8,6,10,0.4,0.5
2025-07-17T2100,2644A,109.0072,32.6975,安康市,汉滨区检察院,,18,18,25,11,16,56,,95,80,6,6,4,10,0.6,0.6
2025-07-17T2100,4054A,109.0325,32.6913,安康市,市邮政管理局,,26,26,37,16,22,55,,93,80,12,10,5,7,0.5,0.6
2025-07-17T2100,2291A,117.0809,30.5177,安庆市,环科院,,42,24,20,23,16,134,,146,144,4,10,3,4,0.6,0.6
2025-07-17T2100,2292A,117.0331,30.5119,安庆市,马山宾馆,,41,28,22,26,14,130,,140,138,6,14,2,3,0.5,0.4
2025-07-17T2100,2294A,116.9896,30.6145,安庆市,安庆大学,,33,,20,21,14,105,,131,120,9,9,2,2,0.5,0.5
2025-07-17T2100,3173A,117.0598,30.5351,安庆市,市人大,,42,25,20,23,15,134,,151,145,8,10,3,3,0.6,0.6
2025-07-17T2100,3122A,105.9606,26.2611,安顺市,伍家关,,19,9,12,6,11,60,,88,84,6,5,2,3,0.4,0.4
2025-07-17T2100,3123A,105.9408,26.2431,安顺市,凤凰山,,21,17,19,12,12,65,,86,83,9,7,3,3,0.5,0.5
2025-07-17T2100,3124A,105.9439,26.2564,安顺市,金钟山,,20,15,19,10,14,62,,92,86,7,5,4,5,0.4,0.4
2025-07-17T2100,3125A,105.8983,26.2481,安顺市,娄家坡,,19,12,14,8,13,60,,88,81,3,3,4,5,0.3,0.5
2025-07-17T2100,1818A,114.4839,36.0621,安阳市,棉研所,,,,,,,,,,,,,,,,
2025-07-17T2100,1819A,114.3551,36.1017,安阳市,红庙街,颗粒物(PM10),53,55,34,23,17,158,,163,163,6,9,4,4,0.6,0.5
2025-07-17T2100,1820A,114.361,36.0681,安阳市,银杏小区,,45,37,41,28,21,143,,156,156,6,8,5,6,0.6,0.5
2025-07-17T2100,3141A,114.3922,36.0878,安阳市,信访局,臭氧1小时,52,40,34,24,16,161,,173,173,7,11,6,5,0.9,0.7
2025-07-17T2100,3669A,114.4705,36.0637,安阳市,左辅环卫站,颗粒物(PM10),51,52,38,29,21,119,,152,148,16,7,5,5,0.9,0.7
2025-07-17T2100,3703A,114.2917,36.0949,安阳市,安钢职工学校,,47,41,49,26,20,150,,156,155,2,11,2,4,0.7,0.7
2025-07-17T2100,1748A,123.044,41.1196,鞍山市,深沟寺,颗粒物(PM10),61,72,36,31,15,62,,126,110,22,13,7,7,1.8,1
2025-07-17T2100,1749A,123.011,41.0931,鞍山市,太阳城,,24,24,29,14,18,62,,122,107,22,20,9,12,1.2,1.4
2025-07-17T2100,1750A,123.0485,41.1442,鞍山市,太平,,47,47,36,25,17,63,,136,113,26,16,14,9,1.8,1.1
2025-07-17T2100,1751A,122.9642,41.0971,鞍山市,铁西三道街,,33,33,40,20,22,60,,117,106,23,24,8,11,1.0,1.3
2025-07-17T2100,1753A,123.022,41.0821,鞍山市,明达新区,,28,28,27,16,16,60,,124,106,22,16,7,9,1.3,1.3
2025-07-17T2100,1754A,123.1289,41.0228,鞍山市,千山,,,,,,,,,,,,,,,,
2025-07-17T2100,4201A,122.9446,41.0826,鞍山市,兴盛南路290号,,34,34,44,15,17,40,,124,105,34,27,10,11,1.3,1.4
2025-07-17T2100,2195A,107.4212,40.761,巴彦淖尔市,附二中,,43,35,24,21,13,137,,165,162,13,12,6,8,0.6,0.5
2025-07-17T2100,2196A,107.37,40.7372,巴彦淖尔市,市环保大楼,,46,46,33,12,10,136,,155,153,16,10,6,7,0.5,0.4
2025-07-17T2100,1956A,86.1472,41.7538,巴音郭楞蒙古自治州,孔雀公园,颗粒物(PM10),57,63,76,15,23,76,,101,67,31,17,9,3,0.4,0.3
2025-07-17T2100,1957A,86.1972,41.7166,巴音郭楞蒙古自治州,棉纺厂,颗粒物(PM10),63,76,81,22,15,81,,92,86,27,24,4,6,0.4,0.3
2025-07-17T2100,1958A,86.2357,41.7173,巴音郭楞蒙古自治州,经济开发区,颗粒物(PM10),53,55,50,19,13,100,,96,95,7,9,2,4,0.3,0.3
2025-07-17T2100,2914A,106.7677,31.8794,巴中市,苏山坪,,35,20,32,14,24,111,,120,116,4,7,5,4,0.4,0.5
2025-07-17T2100,3181A,106.7768,31.8526,巴中市,市五中,,34,29,35,17,26,108,,120,114,3,13,8,8,0.4,0.6
2025-07-17T2100,3183A,106.7418,31.8654,巴中市,圣泉水务公司,,35,21,32,16,25,112,,128,118,1,8,6,6,0.6,0.7
2025-07-17T2100,3616A,106.7616,31.8344,巴中市,市中心医院,,35,30,36,24,25,105,,116,111,5,16,7,7,0.3,0.5
2025-07-17T2100,2235A,122.7911,45.6077,白城市,洮北区环保局,,24,16,13,16,11,76,,86,85,2,2,4,4,0.3,0.2
2025-07-17T2100,2236A,122.8738,45.5725,白城市,市环保局,,21,17,8,3,6,65,,84,83,9,5,5,5,0.4,0.4
2025-07-17T2100,2231A,126.4219,41.9171,白山市,喜丰,,14,11,23,3,8,42,,82,75,17,14,8,5,0.7,0.6
2025-07-17T2100,2232A,126.4077,41.9419,白山市,环保局,,20,20,18,11,9,63,,88,82,9,10,5,4,0.6,0.6
2025-07-17T2100,2647A,104.1724,36.5446,白银市,第三小学,,36,36,54,21,28,88,,108,103,18,16,16,17,0.7,0.5
2025-07-17T2100,2648A,104.1465,36.5482,白银市,动力公司,颗粒物(PM10),53,55,48,19,22,85,,103,99,12,14,12,19,1.0,0.5
2025-07-17T2100,2512A,106.6103,23.9011,百色市,市监测站,,35,35,29,18,14,54,,115,109,38,10,6,6,0.6,0.5
2025-07-17T2100,2513A,106.6538,23.8859,百色市,市中心血站,,40,,37,28,20,86,,109,105,24,20,7,4,0.7,0.7
2025-07-17T2100,3406A,106.6085,23.8798,百色市,祈福高中,细颗粒物(PM2.5),64,58,36,46,17,59,,108,103,31,16,6,6,0.8,0.6
2025-07-17T2100,2270A,117.396,32.939,蚌埠市,工人疗养院,,41,30,26,11,9,130,,166,163,13,7,4,4,0.4,0.4
2025-07-17T2100,2271A,117.3605,32.9427,蚌埠市,百货大楼,,42,27,23,9,10,134,,168,165,11,7,5,5,0.5,0.4
2025-07-17T2100,2273A,117.4185,32.8911,蚌埠市,蚌埠学院,,38,22,20,15,13,121,,164,161,25,9,7,6,0.4,0.4
2025-07-17T2100,2274A,117.3533,32.9673,蚌埠市,淮上区政府,,40,36,24,20,12,125,,166,162,19,10,6,5,0.6,0.5
2025-07-17T2100,2275A,117.3145,32.8977,蚌埠市,高新区,,41,22,24,15,12,129,,166,163,23,10,9,6,0.5,0.5
2025-07-17T2100,3715A,117.3092,32.9314,蚌埠市,蚌埠田家炳中学,,44,25,26,9,15,138,,163,161,8,8,6,6,0.3,0.3
2025-07-17T2100,1585A,109.8756,40.6532,包头市,市环境监测站,,31,31,21,10,10,83,,148,140,51,26,10,6,0.8,0.6
2025-07-17T2100,1587A,109.9991,40.5842,包头市,包头八中,,42,42,37,16,12,108,,133,133,27,29,33,8,0.8,0.7
2025-07-17T2100,1588A,109.8538,40.6821,包头市,青山宾馆,,27,27,21,12,10,83,,146,140,44,27,10,7,0.7,0.5
2025-07-17T2100,1589A,109.8642,40.6288,包头市,惠龙物流,,31,31,25,17,11,98,,141,138,27,19,12,7,0.5,0.5
2025-07-17T2100,1590A,110.0377,40.5546,包头市,东河鸿龙湾,,33,33,25,13,6,91,,142,136,28,20,3,5,0.6,0.7
2025-07-17T2100,3283A,109.9154,40.5685,包头市,滨河大厦,,35,26,20,7,10,110,,144,141,22,22,3,5,0.5,0.5
2025-07-17T2100,3419A,109.9447,40.6261,包头市,包头市委党校,,32,32,16,14,10,90,,146,140,37,21,16,8,0.7,0.7
2025-07-17T2100,3683A,109.8331,40.6576,包头市,昆区政府,,35,27,25,17,12,112,,148,146,27,23,8,5,0.8,0.7
2025-07-17T2100,1930A,107.185,34.3063,宝鸡市,庙沟村,,42,36,35,20,17,134,,184,179,12,9,4,4,0.5,0.5
2025-07-17T2100,1931A,107.0708,34.3017,宝鸡市,竹园沟,,26,21,36,14,19,83,,173,138,9,11,7,8,0.9,0.8
2025-07-17T2100,1932A,107.1906,34.3672,宝鸡市,三陆医院,,50,50,46,19,22,141,,184,181,13,24,8,8,0.7,0.7
2025-07-17T2100,1933A,107.1431,34.3547,宝鸡市,监测站,颗粒物(PM10),58,65,43,29,23,135,,188,183,17,13,9,10,0.5,0.5
2025-07-17T2100,1934A,107.1186,34.3739,宝鸡市,技工学校,颗粒物(PM10),52,54,54,35,24,126,,186,180,17,12,6,8,0.7,0.7
2025-07-17T2100,1936A,107.2058,34.3497,宝鸡市,文理学院,颗粒物(PM10),56,62,43,21,22,150,,194,191,12,13,8,8,0.6,0.6
2025-07-17T2100,1937A,107.2386,34.3622,宝鸡市,三迪小学,,48,48,45,23,26,139,,188,184,13,16,8,9,0.5,0.5
2025-07-17T2100,4308A,107.3898,34.3601,宝鸡市,陈仓区北开路21号,,,,41,,20,,,193,193,7,13,8,13,0.4,0.6
2025-07-17T2100,1051A,115.493,38.8632,保定市,游泳馆,,42,42,33,10,15,117,,155,152,24,12,2,2,0,0.2
2025-07-17T2100,1052A,115.5213,38.8959,保定市,华电二区,,,,30,,16,,,147,147,17,12,3,3,0.2,0.8
2025-07-17T2100,1053A,115.4713,38.9108,保定市,接待中心,,43,38,34,13,13,137,,142,142,12,10,3,3,0.2,0.4
2025-07-17T2100,1054A,115.4612,38.8416,保定市,地表水厂,颗粒物(PM10),62,73,45,8,14,120,,155,153,19,10,2,2,0.0,0.3
2025-07-17T2100,3581A,115.31981,38.95208,保定市,满城区生态环境分局,,35,24,26,7,14,111,,149,145,14,9,3,2,0.3,0.3
2025-07-17T2100,3582A,115.47694,38.76408,保定市,清苑区第二中学,,50,50,45,14,19,117,,154,152,18,11,2,2,0.5,0.6
2025-07-17T2100,3583A,115.62909,39.02311,保定市,徐水物探局,,38,38,28,3,12,104,,140,136,15,8,3,2,0.3,0.4
2025-07-17T2100,4004A,115.4202,38.8656,保定市,双鹰农机,,41,31,26,16,17,131,,164,163,25,16,6,5,0.2,0.2
2025-07-17T2100,4034A,115.5150,38.8590,保定市,植保所站,,41,41,34,22,13,124,,160,158,20,12,3,3,0.2,0.3
2025-07-17T2100,2594A,99.1678,25.1081,保山市,市环境监测站,,33,,18,23,16,80,,92,92,5,7,4,7,0.4,0.4
2025-07-17T2100,2595A,99.1711,25.1328,保山市,市环保局,,32,23,22,22,11,87,,100,98,3,5,7,7,0.3,0.3
2025-07-17T2100,1866A,109.2262,21.588,北海市,牛尾岭水库,,19,12,13,10,5,60,,74,70,13,14,2,2,0.4,0.4
2025-07-17T2100,1867A,109.1436,21.4086,北海市,海滩公园,,,44,33,3,4,,,56,53,3,3,2,1,0.5,0.6
2025-07-17T2100,1868A,109.0981,21.4661,北海市,新市环保局,,21,12,15,7,8,65,,67,66,4,4,2,2,0.3,0.3
2025-07-17T2100,1869A,109.1778,21.5233,北海市,北海工业园,,19,,20,10,9,58,,74,70,8,6,3,3,0.3,0.3
2025-07-17T2100,3400A,109.1911,21.4415,北海市,龙潭自来水厂,,21,20,15,8,8,67,,73,72,5,4,4,5,0.4,0.5
2025-07-17T2100,1001A,116.3621,39.8784,北京市,万寿西宫,,39,18,12,11,7,122,,138,138,8,17,2,2,0.4,0.5
2025-07-17T2100,1002A,116.2202,40.2915,北京市,定陵,,11,11,5,3,3,34,,106,87,2,2,4,4,0.3,0.3
2025-07-17T2100,1003A,116.4174,39.9289,北京市,东四,,42,16,12,6,5,134,,138,138,16,17,4,4,0.3,0.3
2025-07-17T2100,1004A,116.4072,39.8863,北京市,天坛,,35,13,11,8,6,110,,132,131,13,14,3,4,0.4,0.5
2025-07-17T2100,1005A,116.462,39.9365,北京市,农展馆,,39,18,11,8,7,123,,118,118,17,18,3,3,0.5,0.5
2025-07-17T2100,1006A,116.3392,39.9295,北京市,官园,,38,23,14,11,7,119,,135,135,18,19,4,4,0.4,0.5
2025-07-17T2100,1007A,116.2878,39.9611,北京市,海淀万柳,,32,25,13,7,6,100,,130,128,25,23,3,3,0.4,0.4
2025-07-17T2100,1008A,116.6636,40.135,北京市,顺义新城,,20,15,14,11,9,64,,116,105,10,8,2,2,0.3,0.4
2025-07-17T2100,1009A,116.6275,40.3275,北京市,怀柔镇,,20,10,10,6,5,61,,110,100,8,8,3,2,0.4,0.4
2025-07-17T2100,1010A,116.2296,40.217,北京市,昌平镇,,22,13,7,6,3,69,,110,102,7,10,2,5,0.4,0.3
2025-07-17T2100,1011A,116.3966,39.9821,北京市,奥体中心,,35,19,11,10,5,111,,108,108,16,15,4,4,0.2,0.2
2025-07-17T2100,3281A,115.9718,40.4529,北京市,延庆夏都,,34,15,7,11,6,107,,128,123,7,10,4,5,0.3,0.3
2025-07-17T2100,3418A,116.8336,40.4095,北京市,密云新城,,25,25,9,9,5,36,,100,88,9,8,3,2,0.7,0.6
2025-07-17T2100,3671A,116.088,39.9726,北京市,门头沟三家店,,28,26,10,19,5,51,,124,108,30,11,3,3,0.4,0.3
2025-07-17T2100,3672A,116.1541,39.8204,北京市,丰台云岗,,27,27,13,3,5,81,,127,123,24,12,1,2,0.4,0.4
2025-07-17T2100,3673A,116.6804,39.9081,北京市,通州东关,,41,27,21,10,9,129,,127,127,22,28,2,3,0.4,0.5
2025-07-17T2100,3674A,115.9577,39.7603,北京市,房山燕山,,31,9,9,3,5,99,,108,108,4,6,1,1,0.3,0.3
2025-07-17T2100,3675A,116.4672,39.7733,北京市,大兴旧宫,,31,18,18,3,8,98,,130,128,12,19,1,1,0.5,0.6
2025-07-17T2100,3694A,115.986,40.4563,北京市,延庆石河营,,26,17,7,7,4,82,,111,106,10,11,2,3,0.3,0.3
2025-07-17T2100,3695A,116.6151,40.3053,北京市,怀柔新城,,20,10,10,6,5,63,,104,96,7,5,1,1,0.5,0.5
2025-07-17T2100,3696A,116.2545,39.8768,北京市,丰台小屯,,31,18,12,6,6,97,,125,123,16,12,2,1,0.4,0.5
2025-07-17T2100,3697A,116.84,40.3844,北京市,密云镇,,28,28,9,10,6,64,,102,97,20,17,3,3,0.5,0.5
2025-07-17T2100,4182A,116.1942,39.9158,北京市,八角北路9号,,33,24,11,9,4,105,,134,130,16,13,2,2,0.5,0.1
2025-07-17T2100,4194A,117.0790,40.1518,北京市,洳河巡河路,,27,22,9,17,6,86,,104,102,16,6,2,2,0.4,0.3
2025-07-17T2100,1761A,123.8275,41.3064,本溪市,大峪,,44,44,23,17,9,37,,126,96,18,14,4,5,0.8,0.5
2025-07-17T2100,1762A,123.7567,41.3325,本溪市,溪湖,,30,30,26,15,12,50,,134,115,26,13,6,7,0.9,1.2
2025-07-17T2100,1763A,123.7169,41.3094,本溪市,彩屯,,36,36,30,23,18,55,,130,114,18,21,7,9,0.6,1
2025-07-17T2100,1764A,123.7669,41.2864,本溪市,东明,,46,46,29,15,11,69,,142,123,25,17,4,5,1.0,0.9
2025-07-17T2100,1765A,123.7992,41.2664,本溪市,新立屯,,29,29,20,11,7,43,,128,106,30,14,4,5,0.9,0.8
2025-07-17T2100,1766A,123.8142,41.3472,本溪市,威宁,,36,36,26,21,12,14,,122,87,25,13,5,5,0.7,0.7
2025-07-17T2100,2587A,105.2864,27.3125,毕节市,八中,,43,38,36,30,28,70,,112,102,17,16,4,5,0.5,0.4
2025-07-17T2100,2588A,105.31,27.2944,毕节市,师专,颗粒物(PM10),53,55,48,24,23,74,,112,104,17,18,5,4,0.6,0.5
2025-07-17T2100,4263A,105.3688,27.3598,毕节市,工业大道,颗粒物(PM10),52,53,34,32,20,37,,111,94,33,23,8,6,0.9,0.7
2025-07-17T2100,1629A,118.0018,37.3617,滨州市,第二水厂,,46,34,26,17,18,145,,149,149,14,7,7,6,0.5,0.7
2025-07-17T2100,1630A,117.9776,37.393,滨州市,北中新校,,47,34,25,12,16,148,,148,148,18,10,12,11,0.3,0.4
2025-07-17T2100,3514A,117.9378,37.3956,滨州市,中海酒店,,46,24,24,22,20,145,,142,141,9,6,9,9,0.7,0.7
2025-07-17T2100,3515A,117.9378,37.3553,滨州市,开发区一中,,49,31,28,14,17,156,,155,155,13,12,14,14,0.7,0.5
2025-07-17T2100,3516A,118.0917,37.694,滨州市,金海六路,,42,37,29,9,18,132,,164,163,20,17,10,10,0.3,0.4
2025-07-17T2100,4028A,117.9956,37.3753,滨州市,滨州市西街道办事处,,48,39,22,22,18,153,,157,157,16,8,5,5,0.4,0.5
2025-07-17T2100,2311A,115.8072,33.8399,亳州市,污水处理厂,,37,37,31,22,23,117,,166,155,14,8,4,4,0.5,0.6
2025-07-17T2100,2312A,115.7789,33.8518,亳州市,三国揽胜宫,,43,32,38,21,23,135,,157,155,9,9,6,6,0.5,0.6
2025-07-17T2100,3332A,115.7633,33.8034,亳州市,亳州学院,,,31,30,16,20,,,162,162,,6,,5,,0.6
2025-07-17T2100,2693A,82.0485,44.8556,博尔塔拉蒙古自治州,市党校,颗粒物(PM10),56,61,31,15,20,103,,112,111,17,9,3,4,0.3,0.1
2025-07-17T2100,2694A,82.0806,44.8969,博尔塔拉蒙古自治州,市环保局,,,42,29,12,10,,,114,113,12,6,4,3,0.0,0.2
2025-07-17T2100,1071A,116.8842,38.2991,沧州市,沧县城建局,,40,30,45,11,24,128,,165,163,23,12,1,2,0.3,0.4
2025-07-17T2100,1072A,116.8584,38.3254,沧州市,电视转播站,,47,33,44,7,23,149,,154,154,12,14,1,3,0.2,0.4
2025-07-17T2100,1073A,116.8709,38.3228,沧州市,市环保局,,44,34,44,15,25,138,,150,150,12,12,3,3,0.3,0.4
2025-07-17T2100,3324A,116.8136,38.3004,沧州市,河北水利电力学院,,43,41,34,30,24,130,,168,166,27,16,5,5,0.3,0.3
2025-07-17T2100,2622A,97.1806,31.1273,昌都市,昌都监测站,,24,16,13,14,9,76,,112,108,32,8,4,3,0.3,0
2025-07-17T2100,3719A,97.1714,31.1406,昌都市,昌都会议中心,,,28,13,15,11,,,121,121,22,6,4,6,0.2,0.1
2025-07-17T2100,2690A,88.1236,43.8886,昌吉回族自治州,天山天池,,20,16,20,7,8,61,,104,97,6,6,4,4,0.6,0.5
2025-07-17T2100,2692A,87.2717,44.0297,昌吉回族自治州,新区政务中心,,31,27,20,12,13,98,,110,109,24,8,5,5,0.5,0.4
2025-07-17T2100,3613A,87.3095,44.0142,昌吉回族自治州,亚心广场,,,,25,,7,,,109,109,29,12,7,6,0.2,0.1
2025-07-17T2100,1120A,125.2863,43.9027,长春市,客车厂,,29,26,23,20,15,91,,113,113,33,17,3,3,0.4,0.5
2025-07-17T2100,1121A,125.2841,43.8463,长春市,邮电学院,,28,23,20,7,12,87,,102,102,16,12,4,4,0.4,0.5
2025-07-17T2100,1122A,125.3716,43.8772,长春市,劳动公园,,30,30,30,14,17,92,,108,108,20,18,7,5,0.5,0.5
2025-07-17T2100,1123A,125.3297,43.8805,长春市,园林处,,30,27,24,12,14,95,,104,104,15,12,4,4,0.6,0.6
2025-07-17T2100,1124A,125.4605,43.79,长春市,净月潭,,,18,21,6,9,,,74,64,5,5,5,5,0.5,0.4
2025-07-17T2100,1125A,125.7194,43.515,长春市,甩湾子,,18,,11,8,7,56,,82,78,13,9,1,2,0.6,0.7
2025-07-17T2100,1126A,125.3863,43.8447,长春市,经开区环卫处,,27,24,24,7,10,86,,97,95,19,13,5,5,0.4,0.5
2025-07-17T2100,1127A,125.245,43.7783,长春市,高新区管委会,,30,28,22,8,14,96,,107,106,15,11,3,3,0.5,0.6
2025-07-17T2100,1128A,125.1761,43.8325,长春市,岱山公园,,25,19,22,10,15,79,,104,101,32,19,3,3,0.4,0.4
2025-07-17T2100,4281A,125.3346,43.9164,长春市,北亚泰大街1068号,,31,27,27,20,16,97,,108,108,20,16,6,4,0.5,0.5
2025-07-17T2100,1335A,113.0833,28.2325,长沙市,经开区环保局,,,48,34,29,21,,,148,144,9,13,4,6,0.5,0.5
2025-07-17T2100,1336A,112.8872,28.2189,长沙市,高开区环保局,颗粒物(PM10),54,58,36,24,17,124,,134,134,10,9,4,5,0.5,0.4
2025-07-17T2100,1337A,113.0792,28.2053,长沙市,马坡岭,,48,48,37,27,21,106,,151,141,9,13,5,6,0.6,0.6
2025-07-17T2100,1338A,112.9394,28.19,长沙市,湖南师范大学,,,57,29,25,17,,,121,121,13,10,2,3,0.6,0.8
2025-07-17T2100,1339A,113.0178,28.1322,长沙市,雨花区环保局,,34,34,32,18,14,97,,146,141,13,9,4,7,0.7,0.8
2025-07-17T2100,1340A,112.9792,28.2597,长沙市,伍家岭,颗粒物(PM10),51,51,35,35,19,95,,140,137,16,10,2,4,0.3,0.3
2025-07-17T2100,1341A,113.0014,28.1944,长沙市,火车新站,,50,50,36,24,16,98,,132,129,9,9,6,8,0.6,0.6
2025-07-17T2100,1342A,112.9844,28.1178,长沙市,天心区环保局,,39,34,30,20,16,123,,144,144,10,10,1,2,0.4,0.5
2025-07-17T2100,1343A,112.8908,28.1308,长沙市,湖南中医药大学,,36,36,34,23,19,109,,117,112,12,8,3,4,1.0,0.8
2025-07-17T2100,1344A,112.9581,28.3611,长沙市,沙坪,,48,40,23,33,21,109,,147,144,8,12,3,3,0.7,0.5
2025-07-17T2100,1727A,113.1147,36.1547,长治市,清华站,,48,36,38,12,20,151,,185,182,10,13,9,9,0.7,1
2025-07-17T2100,1730A,113.0886,36.2125,长治市,审计局,,50,34,38,19,24,159,,181,181,10,13,5,6,1.0,1.1
2025-07-17T2100,1731A,113.0844,36.1856,长治市,长治八中,,50,41,44,27,32,160,,185,184,7,11,8,9,0.6,0.8
2025-07-17T2100,2845A,113.1569,36.1911,长治市,德盛苑,,46,39,41,19,24,147,,176,174,8,10,6,7,0.9,1.3
2025-07-17T2100,3568A,113.06,36.0464,长治市,向阳小学,颗粒物(PM10),62,74,75,14,28,144,,171,170,13,9,8,8,0.6,0.9
2025-07-17T2100,3569A,112.8792,36.3144,长治市,屯留一中,细颗粒物(PM2.5),60,62,56,43,35,162,,172,169,17,19,9,14,0.7,0.6
2025-07-17T2100,4189A,113.1131,36.19948,长治市,英华南巷50号,,45,42,44,19,23,144,,170,170,9,13,6,8,0.9,1.1
2025-07-17T2100,4190A,113.2367,36.3344,长治市,学府街1号,臭氧1小时,68,57,54,29,26,174,,178,177,19,24,6,7,0.9,0.8
2025-07-17T2100,1854A,111.6975,28.9703,常德市,市二中,细颗粒物(PM2.5),53,48,29,37,26,90,,105,105,8,7,3,3,0.6,0.5
2025-07-17T2100,1857A,111.7158,29.1456,常德市,白鹤山,,,,,,,,,,,,,,,,
2025-07-17T2100,3138A,111.7153,29.0289,常德市,武陵区永安,,44,44,34,30,23,95,,112,112,7,7,3,3,0.3,0.2
2025-07-17T2100,3139A,111.6892,28.9881,常德市,鼎城区玉霞,,50,46,34,35,24,95,,111,111,4,6,4,5,0.5,0.6
2025-07-17T2100,3140A,111.6625,29.0531,常德市,武陵区长庚,,43,36,28,30,26,89,,104,104,7,7,2,2,0.6,0.5
2025-07-17T2100,1196A,119.9633,31.762,常州市,市监测站,,33,21,31,16,18,103,,168,151,11,11,10,9,0.6,0.6
2025-07-17T2100,1200A,119.9468,31.7069,常州市,武进监测站,,37,30,29,19,17,116,,167,155,7,9,9,9,0.8,0.9
2025-07-17T2100,1201A,119.9255,31.9087,常州市,安家,,33,30,36,14,16,104,,165,145,15,19,8,7,0.6,0.7
2025-07-17T2100,3002A,119.9805,31.8174,常州市,行政中心,,,27,30,,17,,,161,154,11,13,10,8,,0.5
2025-07-17T2100,3003A,120.0522,31.7748,常州市,经开区,,35,35,41,14,16,99,,164,142,11,14,6,5,0.2,0.3
2025-07-17T2100,3010A,119.9025,31.7964,常州市,钟楼,,34,30,31,15,17,107,,153,141,12,16,5,5,0.6,0.6
2025-07-17T2100,3429A,119.8598,31.7066,常州市,武进经发区,,46,46,33,26,20,101,,159,143,16,10,6,8,0.8,0.8
2025-07-17T2100,3430A,119.5826,31.7245,常州市,金坛城区,,40,32,22,28,19,125,,174,163,9,9,6,7,0.5,0.6
2025-07-17T2100,2220A,120.4318,41.5881,朝阳市,西梁,,20,20,14,8,9,51,,67,64,25,15,10,7,0.5,0.5
2025-07-17T2100,2221A,120.4521,41.5646,朝阳市,河畔小区,,19,15,15,13,13,60,,70,68,12,9,5,5,0.5,0.5
2025-07-17T2100,2222A,120.4176,41.5648,朝阳市,八里堡,,22,16,22,13,11,68,,72,71,12,14,4,4,0.5,0.5
2025-07-17T2100,2223A,120.3806,41.5969,朝阳市,农业园区,,15,,8,7,7,48,,67,66,12,8,4,5,0.4,0.4
2025-07-17T2100,1705A,116.6367,23.6719,潮州市,西园路,颗粒物(PM10),51,51,49,34,31,82,,110,98,12,12,7,4,0.6,0.5
2025-07-17T2100,3026A,116.6183,23.6608,潮州市,市政府,,47,47,57,29,30,76,,115,99,12,18,4,6,0.7,0.6
2025-07-17T2100,4036A,116.6461,23.6761,潮州市,金山,颗粒物(PM10),51,51,48,30,27,93,,116,106,10,11,4,5,0.9,0.8
2025-07-17T2100,2472A,113.0073,25.9061,郴州市,马头岭,,26,26,24,7,8,28,,89,80,27,11,6,6,0.4,0.4
2025-07-17T2100,2473A,113.0116,25.8226,郴州市,市职中,,,26,24,15,16,,,90,83,19,16,5,6,0.8,0.7
2025-07-17T2100,2475A,113.0383,25.8071,郴州市,市审计局,,35,29,23,24,15,54,,94,85,13,10,4,4,0.4,0.4
2025-07-17T2100,2476A,113.0348,25.7759,郴州市,市环保局,,37,37,24,3,16,42,,94,87,37,8,4,4,0.3,0.3
2025-07-17T2100,4252A,113.0138,25.8011,郴州市,好美居路49号,,39,39,26,22,15,70,,101,92,26,12,3,3,0.5,0.4
2025-07-17T2100,1431A,103.9728,30.7236,成都市,金泉两河,细颗粒物(PM2.5),55,47,45,39,31,110,,148,133,30,19,10,3,0.5,0.6
2025-07-17T2100,1432A,104.176,30.6872,成都市,十里店,,,62,49,46,29,,,194,190,20,22,4,4,0.5,0.6
2025-07-17T2100,1433A,104.079,30.5706,成都市,三瓦窑,细颗粒物(PM2.5),62,66,46,44,31,155,,184,169,24,28,3,3,0.6,0.6
2025-07-17T2100,1434A,104.1114,30.63,成都市,沙河铺,,,57,44,28,27,132,,136,133,20,21,,6,0.6,0.5
2025-07-17T2100,1437A,104.0786,30.6531,成都市,君平街,细颗粒物(PM2.5),65,69,50,47,33,135,,169,154,25,22,5,5,1.0,0.9
2025-07-17T2100,1438A,103.613,31.0283,成都市,灵岩寺,,,,,,,,,,,,,,,,
2025-07-17T2100,2880A,104.0239,30.65639,成都市,大石西路,细颗粒物(PM2.5),73,,39,53,35,107,,138,,24,21,2,2,0.9,0.8
2025-07-17T2100,3136A,104.2725,30.5589,成都市,龙泉驿区区政府,细颗粒物(PM2.5),55,56,30,39,21,133,,155,147,25,13,4,4,0.6,0.5
2025-07-17T2100,3357A,104.0106,30.6931,成都市,金博路,细颗粒物(PM2.5),59,46,37,42,27,100,,120,101,29,22,4,5,0.8,0.7
2025-07-17T2100,3359A,104.0578,30.5225,成都市,华阳,细颗粒物(PM2.5),52,46,37,36,31,151,,164,149,25,17,4,5,0.7,0.6
2025-07-17T2100,3488A,104.3853,30.7453,成都市,青白江技师分院,颗粒物(PM10),56,61,45,37,29,132,,176,172,31,33,5,6,0.7,0.6
2025-07-17T2100,3489A,104.0789,30.4072,成都市,科学城,,40,33,36,28,29,109,,142,133,10,11,3,3,0.6,0.6
2025-07-17T2100,4011A,103.8506,30.6947,成都市,光华大道三段,细颗粒物(PM2.5),62,53,48,44,35,123,,175,165,19,15,4,6,0.8,0.8
2025-07-17T2100,4224A,104.2433,30.5353,成都市,鲸龙路1057号,细颗粒物(PM2.5),62,67,40,44,27,128,,151,146,27,22,6,10,0.9,0.7
2025-07-17T2100,1062A,117.9531,40.9081,承德市,铁路,,39,36,19,27,8,37,,99,80,23,12,2,2,0.3,0.2
2025-07-17T2100,1063A,117.9392,40.9763,承德市,中国银行,,41,41,18,18,8,34,,95,78,15,8,3,2,0.3,0.2
2025-07-17T2100,1064A,117.9503,40.928,承德市,开发区,,44,44,32,11,11,44,,101,85,18,13,2,4,0.2,0.2
2025-07-17T2100,1065A,117.8051,40.9655,承德市,文化中心,,,,,,,,,,,,,,,,
2025-07-17T2100,1066A,117.9268,41.0026,承德市,离宫,,23,,18,16,14,31,,83,59,13,6,2,2,0.2,0.2
2025-07-17T2100,2314A,117.47,30.6618,池州市,池州学院,,40,38,22,27,14,125,,149,146,11,7,5,6,0.5,0.5
2025-07-17T2100,3237A,117.4918,30.6617,池州市,展览馆,,40,40,21,23,13,115,,149,145,12,8,4,4,0.6,0.6
2025-07-17T2100,3333A,117.5627,30.695,池州市,第八中学,,35,35,21,20,12,107,,146,141,16,9,4,5,0.6,0.6
2025-07-17T2100,3334A,117.5038,30.6243,池州市,第十二中学,,38,34,23,22,12,120,,154,150,11,10,2,3,0.8,0.8
2025-07-17T2100,1744A,118.9233,42.2816,赤峰市,松山一中,,24,24,17,12,6,72,,100,91,25,17,8,9,0.5,0.4
2025-07-17T2100,1745A,118.9576,42.2728,赤峰市,哈达街,,,26,13,3,7,,,100,96,18,15,9,10,0.5,0.5
2025-07-17T2100,1746A,118.8788,42.2554,赤峰市,天义路,,27,,10,15,8,86,,102,100,15,13,8,8,0.2,0.2
2025-07-17T2100,3058A,119.2658,42.0353,赤峰市,银河街,,22,17,12,11,8,70,,92,89,10,11,9,10,0.5,0.5
2025-07-17T2100,3286A,118.9359,42.3147,赤峰市,桥北物流园区,,41,41,18,20,12,65,,93,86,19,7,10,10,0.5,0.4
2025-07-17T2100,2521A,107.3476,22.4136,崇左市,市环保局江州分局,,33,33,23,15,12,72,,94,93,16,8,6,6,0.6,0.5
2025-07-17T2100,4256A,107.3750,22.3736,崇左市,石景林东路7号,,42,,21,29,13,69,,97,94,17,10,2,2,0.5,0.4
2025-07-17T2100,2298A,118.3093,32.3153,滁州市,老年大学,,39,22,16,15,14,122,,150,141,9,5,6,11,0.4,0.3
2025-07-17T2100,2299A,118.3244,32.2786,滁州市,人大宾馆,,37,19,12,14,13,117,,159,148,15,6,5,4,0.3,0.3
2025-07-17T2100,3207A,118.3118,32.3038,滁州市,市政府原办公楼,,39,,19,27,24,113,,149,139,11,5,4,4,0.5,0.4
2025-07-17T2100,3331A,118.3267,32.2634,滁州市,图书馆,,32,23,19,19,12,101,,138,128,13,7,9,9,0.4,0.4
2025-07-17T2100,2605A,101.5482,25.0441,楚雄彝族自治州,州环境监测站,,20,20,25,10,19,55,,90,82,5,16,6,7,0.6,0.6
2025-07-17T2100,2606A,101.538,25.0492,楚雄彝族自治州,市经济开发区,,47,47,29,14,18,54,,90,81,8,14,7,8,0.6,0.6
2025-07-17T2100,2548A,107.5277,31.2827,达州市,达州职业技术学院,,40,40,48,3,10,38,,103,103,21,20,7,7,0.5,0.6
2025-07-17T2100,2549A,107.5086,31.2186,达州市,市环境监测站,,34,34,48,3,16,65,,135,119,25,25,5,7,0.3,0.5
2025-07-17T2100,2550A,107.4988,31.2132,达州市,凤凰小区,,26,19,44,3,19,82,,141,126,17,23,7,9,0.2,0.4
2025-07-17T2100,2551A,107.5082,31.1986,达州市,达县机关宾馆,,29,29,45,3,10,65,,139,124,24,29,3,5,0.3,0.4
2025-07-17T2100,2552A,107.4644,31.2124,达州市,市政中心,,31,31,49,7,18,91,,131,121,12,20,3,4,0.2,0.4
2025-07-17T2100,2614A,100.1542,25.7054,大理白族自治州,大理市环境监测站,,35,29,22,24,19,61,,116,108,25,12,5,5,0.5,0.4
2025-07-17T2100,2615A,100.2171,25.5811,大理白族自治州,大理古城,,30,30,22,16,14,76,,109,105,18,11,5,5,0.9,0.8
2025-07-17T2100,1109A,121.612,38.9741,大连市,甘井子,,30,14,16,9,11,96,,122,108,12,16,4,6,0.3,0.4
2025-07-17T2100,1110A,121.565,38.9511,大连市,周水子,,30,14,17,9,10,93,,111,106,12,14,3,2,0.4,0.3
2025-07-17T2100,1111A,121.5637,38.8845,大连市,星海三站,,30,14,18,7,13,93,,104,102,4,7,6,5,0.3,0.4
2025-07-17T2100,1112A,121.6302,38.9117,大连市,青泥洼桥,,30,24,22,10,11,93,,114,106,15,13,6,6,0.4,0.4
2025-07-17T2100,1113A,121.6251,38.8638,大连市,傅家庄,,27,17,15,10,12,84,,110,105,14,12,8,8,0.2,0.2
2025-07-17T2100,1114A,121.5213,38.8661,大连市,七贤岭,,31,14,17,9,10,98,,122,114,6,8,9,8,0.2,0.3
2025-07-17T2100,1115A,121.2529,38.8061,大连市,旅顺,,29,11,14,8,12,90,,100,100,12,15,4,3,0.2,0.3
2025-07-17T2100,1116A,121.7485,39.1311,大连市,金州,,32,28,16,12,11,100,,120,117,11,11,8,8,0.5,0.5
2025-07-17T2100,1117A,121.7811,39.0496,大连市,开发区,,30,18,17,10,12,93,,116,106,14,18,14,13,0.6,0.6
2025-07-17T2100,1118A,121.9762,39.0631,大连市,双D港,,31,23,15,14,11,97,,123,110,9,8,8,8,0.7,0.7
2025-07-17T2100,1789A,124.81117,46.03138,大庆市,大同区,,21,21,16,7,7,62,,73,71,8,9,6,7,0.6,0.5
2025-07-17T2100,1790A,125.129,46.533,大庆市,龙凤区,,16,13,12,11,8,47,,70,64,12,9,5,4,0.6,0.5
2025-07-17T2100,1791A,124.902,46.408,大庆市,红岗区,,17,17,15,3,11,41,,70,64,14,10,7,6,0.7,0.7
2025-07-17T2100,1792A,125.153,46.586,大庆市,萨尔图区,,20,20,17,3,4,37,,52,49,8,9,8,8,0.4,0.4
2025-07-17T2100,1793A,124.9042,46.6215,大庆市,让胡路区,,,23,20,14,13,,,,,10,10,,6,0.3,0.3
2025-07-17T2100,3481A,125.141,46.634,大庆市,萨区政府监测点,,34,34,20,3,3,47,,73,68,9,7,6,6,0.3,0.2
2025-07-17T2100,1721A,113.3819,40.1097,大同市,果树场,颗粒物(PM10),64,77,26,22,8,49,,104,,55,19,7,8,0.5,0.4
2025-07-17T2100,1723A,113.2994,40.0758,大同市,云冈宾馆,,39,38,22,12,9,124,,138,138,18,16,11,7,0.7,0.8
2025-07-17T2100,1724A,113.3444,40.0917,大同市,大同大学,,42,27,16,11,7,134,,146,146,13,16,10,10,0.4,0.4
2025-07-17T2100,1725A,113.2661,40.1269,大同市,安家小村,颗粒物(PM10),60,69,21,22,5,94,,114,110,34,16,10,8,0.5,0.7
2025-07-17T2100,1726A,113.2711,40.0844,大同市,教育学院,,42,39,20,17,7,132,,125,125,17,15,12,8,0.4,0.5
2025-07-17T2100,3282A,113.3397,40.0597,大同市,大同市卫生学校,,38,38,20,9,7,115,,143,141,22,16,11,9,0.4,0.5
2025-07-17T2100,3565A,113.1367,40.1122,大同市,云冈站,,35,35,24,20,10,81,,109,105,17,18,4,5,0.2,0.4
2025-07-17T2100,3566A,113.1186,40.2556,大同市,图书馆,,20,19,20,8,9,62,,122,113,10,8,6,8,0.6,0.8
2025-07-17T2100,3567A,113.5931,40.0461,大同市,区一中,,30,,15,16,5,95,,130,127,17,10,10,11,0.4,0.4
2025-07-17T2100,4199A,113.2798,40.0997,大同市,魏都大道141号,,44,27,22,15,7,138,,131,131,11,11,12,26,0.6,0.7
2025-07-17T2100,2269A,124.1069,50.4097,大兴安岭地区,科技局,,44,44,26,14,11,47,,71,67,8,4,5,5,0.3,0.3
2025-07-17T2100,3663A,124.1164,50.4278,大兴安岭地区,红旗社区,,18,17,10,12,8,34,,76,68,17,7,4,4,0.2,0.2
2025-07-17T2100,1600A,124.3303,40.0625,丹东市,江湾东路,,28,,11,19,8,24,,70,56,30,14,5,4,0.9,0.7
2025-07-17T2100,1601A,124.4256,40.1503,丹东市,临江后街,,14,12,9,7,6,44,,66,56,12,9,7,6,0.8,0.7
2025-07-17T2100,1602A,124.3933,40.1461,丹东市,元宝山,,18,18,9,8,5,32,,48,43,11,10,2,2,0.6,0.5
2025-07-17T2100,1603A,124.3633,40.1092,丹东市,民主桥,,15,15,9,10,8,37,,65,58,22,15,4,4,1.1,1
2025-07-17T2100,3541A,109.5726,19.5167,儋州市,第一中学子站,,,20,19,9,11,,,58,58,6,5,6,8,0.4,0.3
2025-07-17T2100,3542A,109.5567,19.5187,儋州市,东坡学校子站,,15,12,16,9,10,48,,58,57,5,4,5,5,0.6,0.7
2025-07-17T2100,2616A,98.5842,24.428,德宏傣族景颇族自治州,德宏州监测站,,,19,18,9,9,,,64,64,10,9,11,11,0.5,0.7
2025-07-17T2100,3677A,98.5881,24.4368,德宏傣族景颇族自治州,芒市人民政府综合楼,,28,28,23,9,10,38,,60,58,10,8,15,10,0.5,0.5
2025-07-17T2100,1901A,104.4239,31.1208,德阳市,东山公园,臭氧1小时,57,40,36,31,27,165,,163,163,17,12,6,7,0.9,0.9
2025-07-17T2100,1902A,104.3826,31.1317,德阳市,西小区,,48,35,43,33,32,144,,159,152,19,24,5,8,0.9,0.9
2025-07-17T2100,1904A,104.3553,31.1091,德阳市,耐火材料厂,,48,38,48,33,33,146,,176,169,15,21,2,3,0.6,0.6
2025-07-17T2100,3639A,104.4019,31.1244,德阳市,市教育局,臭氧1小时,55,43,46,32,26,164,,163,162,13,19,6,5,0.8,0.8
2025-07-17T2100,1622A,116.3032,37.4674,德州市,儿童乐园,,48,36,32,9,18,151,,159,159,14,9,8,10,0.5,0.5
2025-07-17T2100,1624A,116.2991,37.4451,德州市,监理站,,48,31,28,12,18,152,,158,158,14,10,7,11,0.5,0.5
2025-07-17T2100,3066A,116.2721,37.4379,德州市,九衢泉纯净水厂,,41,39,35,17,23,131,,146,146,21,17,4,5,0.6,0.6
2025-07-17T2100,3371A,116.3728,37.4403,德州市,开发区人民医院,,39,39,32,19,20,122,,150,148,27,14,6,9,0.7,0.7
2025-07-17T2100,3511A,116.5652,37.3319,德州市,陵城艺术中心,,42,39,36,14,18,134,,156,151,14,11,4,8,0.3,0.3
2025-07-17T2100,4292A,116.3525,37.4209,德州市,新河东路,,39,36,32,14,19,122,,152,149,29,17,7,10,0.6,0.6
2025-07-17T2100,2621A,99.7056,27.8317,迪庆藏族自治州,迪庆州站,,29,22,25,19,17,92,,109,105,8,7,7,8,0.3,0.3
2025-07-17T2100,3180A,99.7136,27.8094,迪庆藏族自治州,质量技术监督局,,30,24,27,19,11,94,,108,104,11,11,7,6,0.4,0.4
2025-07-17T2100,4257A,104.6092,35.5962,定西市,将台街,,47,47,36,27,19,111,,120,119,8,3,7,8,0.1,0
2025-07-17T2100,4309A,104.6159,35.5701,定西市,正龙路62号,,44,44,36,30,17,105,,111,111,5,5,5,7,0.4,0.3
2025-07-17T2100,1389A,113.7547,23.0494,东莞市,莞城梨川,颗粒物(PM10),58,65,35,39,22,134,,150,145,18,16,7,6,0.6,0.5
2025-07-17T2100,1390A,113.7944,23.0128,东莞市,东城石井,,46,46,32,29,17,68,,117,97,15,17,2,2,0.7,0.6
2025-07-17T2100,1391A,113.7383,22.9658,东莞市,南城西平,,,51,30,36,18,,,140,140,27,16,4,3,0.8,0.6
2025-07-17T2100,3319A,113.7338,23.0381,东莞市,万江金泰,颗粒物(PM10),53,55,35,30,20,117,,141,136,20,17,4,4,0.9,0.8
2025-07-17T2100,3626A,113.7533,23.0202,东莞市,南城元岭,颗粒物(PM10),52,54,34,30,16,128,,140,138,21,18,6,5,0.7,0.6
2025-07-17T2100,3627A,113.7875,23.0457,东莞市,东城主山,颗粒物(PM10),55,59,48,31,18,119,,132,125,19,15,4,4,0.6,0.5
2025-07-17T2100,1666A,118.6614,37.4309,东营市,市环保局,,,19,18,12,11,,,154,154,20,17,8,8,,0.4
2025-07-17T2100,3036A,118.6904,37.4338,东营市,开发区管委会,,49,32,25,22,10,156,,161,161,12,13,6,7,0.6,0.5
2025-07-17T2100,3365A,118.5719,37.565,东营市,垦利区民丰路,,45,29,23,14,12,143,,172,168,19,15,9,10,0.7,0.6
2025-07-17T2100,3498A,118.5055,37.8612,东营市,河口城区,,39,17,22,3,11,123,,155,147,15,14,8,9,0.4,0.6
2025-07-17T2100,3646A,118.4978,37.4623,东营市,胜利站,,45,20,28,12,10,141,,155,154,20,18,4,5,0.6,0.6
2025-07-17T2100,3734A,118.35,37.26,东营市,理想之城,,,22,21,19,12,140,,150,147,,17,8,9,,0.4
2025-07-17T2100,1591A,110.0023,39.8129,鄂尔多斯市,综合楼,,35,31,21,9,3,110,,146,142,24,16,5,6,0.5,0.5
2025-07-17T2100,1592A,109.9486,39.8261,鄂尔多斯市,巴音孟克林场办事处,,39,34,31,9,9,124,,152,150,16,14,3,3,0.5,0.5
2025-07-17T2100,1593A,109.7736,39.5986,鄂尔多斯市,康泽苑,,44,44,37,7,6,128,,164,159,17,16,5,4,0.3,0.3
2025-07-17T2100,1594A,109.8119,39.5989,鄂尔多斯市,华泰汽车城,颗粒物(PM10),51,51,34,9,8,89,,151,145,28,22,5,5,0.5,0.5
2025-07-17T2100,1595A,109.9734,39.7884,鄂尔多斯市,奥林花园,,39,39,26,14,13,98,,146,140,27,16,6,6,0.6,0.5
2025-07-17T2100,2436A,114.8938,30.3994,鄂州市,市政府,颗粒物(PM10),54,58,40,20,18,122,,155,155,11,15,3,5,0.8,0.8
2025-07-17T2100,2437A,114.8989,30.3714,鄂州市,赵家坝,,47,47,39,16,12,125,,161,161,15,11,7,7,0.8,0.8
2025-07-17T2100,3654A,114.8094,30.4089,鄂州市,精准医疗中心,,45,44,34,21,11,141,,167,167,23,16,4,4,1.0,0.9
2025-07-17T2100,2454A,109.4978,30.2981,恩施土家族苗族自治州,湖北民院,,26,26,28,12,17,73,,100,92,6,6,5,5,0.5,0.5
2025-07-17T2100,2455A,109.4707,30.2798,恩施土家族苗族自治州,州电力总公司,,19,,22,7,15,60,,94,85,6,10,8,8,0.4,0.5
2025-07-17T2100,3549A,109.5061,30.3772,恩施土家族苗族自治州,龙凤新区,,25,25,22,3,14,52,,101,85,13,6,5,5,0.5,0.5
2025-07-17T2100,2499A,108.3411,21.6158,防城港市,沙万,,23,21,23,16,12,49,,61,58,8,10,2,3,0.4,0.5
2025-07-17T2100,2500A,108.3514,21.7731,防城港市,防城档案局,,19,15,22,13,12,46,,61,59,6,7,3,3,0.5,0.6
2025-07-17T2100,2501A,108.3506,21.6414,防城港市,大海花园,,17,,26,10,10,54,,67,64,7,7,2,4,0.5,0.5
2025-07-17T2100,1371A,113.1294,23.0067,佛山市,湾梁,细颗粒物(PM2.5),69,,36,50,33,105,,130,128,14,14,5,5,0.7,0.7
2025-07-17T2100,1372A,113.1083,23.0478,佛山市,华材职中,,49,46,31,34,20,96,,138,132,19,10,8,7,0.7,0.6
2025-07-17T2100,1373A,113.144,23.0453,佛山市,南海气象局,,41,41,32,24,18,92,,113,110,13,12,3,2,0.6,0.6
2025-07-17T2100,1374A,113.2881,22.8094,佛山市,顺德苏岗,颗粒物(PM10),54,57,32,27,17,106,,152,148,29,15,7,8,0.6,0.5
2025-07-17T2100,1376A,112.8383,22.8678,佛山市,高明孔堂,,37,37,31,23,15,68,,115,107,11,7,6,6,0.6,0.6
2025-07-17T2100,1377A,112.8836,23.1588,佛山市,三水监测站,,,44,33,32,21,,,113,108,50,19,4,5,0.7,0.6
2025-07-17T2100,1378A,112.867,23.185,佛山市,三水云东海,,42,38,43,29,23,45,,108,91,25,19,2,2,0.9,0.8
2025-07-17T2100,3625A,113.2544,22.7642,佛山市,容桂街道办,颗粒物(PM10),53,56,25,29,15,109,,153,152,30,15,6,6,0.6,0.5
2025-07-17T2100,1280A,119.3903,26.0543,福州市,鼓山,,,,,,,,,,,,,,,,
2025-07-17T2100,1282A,119.2681,26.0504,福州市,师大,,27,27,42,3,20,37,,107,83,28,13,4,4,0.4,0.4
2025-07-17T2100,1283A,119.2984,26.1028,福州市,五四北路,,34,34,42,15,27,33,,103,81,28,17,4,4,0.5,0.4
2025-07-17T2100,1284A,119.2648,26.0768,福州市,杨桥西路,,29,29,41,15,29,35,,109,84,28,16,3,4,0.5,0.4
2025-07-17T2100,1285A,119.317,26.0746,福州市,紫阳,,32,32,50,18,29,23,,91,65,38,18,4,4,0.4,0.3
2025-07-17T2100,3048A,119.5799,26.0936,福州市,九龙,,30,30,37,11,20,24,,90,66,11,10,4,4,0.4,0.3
2025-07-17T2100,3526A,119.5189,25.9664,福州市,吴航,,,25,43,14,26,,,90,70,25,11,4,4,0.5,0.5
2025-07-17T2100,1755A,123.7977,41.8491,抚顺市,望花区,,28,28,23,12,17,78,,124,112,14,19,11,10,0.6,0.8
2025-07-17T2100,1756A,123.9161,41.8822,抚顺市,顺城区,,26,26,19,16,12,32,,115,97,38,18,6,5,0.8,0.7
2025-07-17T2100,1757A,124.0436,41.8611,抚顺市,东洲区,,24,16,16,14,10,75,,121,107,21,12,5,6,0.6,0.6
2025-07-17T2100,1758A,123.9247,41.8642,抚顺市,新抚区,,22,22,22,13,11,37,,116,101,28,14,4,4,0.7,0.7
2025-07-17T2100,1759A,124.0972,41.8961,抚顺市,大伙房水库,,22,22,15,10,10,60,,112,98,20,12,5,5,0.6,0.5
2025-07-17T2100,1760A,123.7086,41.8391,抚顺市,沈抚新城,,28,28,25,12,18,63,,130,117,23,23,4,6,0.7,1.1
2025-07-17T2100,2376A,116.2127,28.0814,抚州市,桐源党溪,,41,41,39,16,21,22,,94,81,3,3,6,4,0.6,0.5
2025-07-17T2100,2377A,116.3544,27.9831,抚州市,市站,,49,49,36,30,20,99,,117,117,3,3,16,12,0.7,0.7
2025-07-17T2100,2378A,116.3565,27.963,抚州市,血防站,,,42,37,27,21,,,104,104,,6,6,6,0.4,0.5
2025-07-17T2100,2379A,116.3564,28.0007,抚州市,采茶剧团,,,75,39,39,20,88,,113,112,,3,6,6,0.7,0.6
2025-07-17T2100,2380A,116.385,27.9647,抚州市,医学分院,颗粒物(PM10),52,54,38,34,21,91,,115,114,2,3,5,7,0.6,0.5
2025-07-17T2100,2207A,121.6094,41.998,阜新市,工业园区,,16,16,11,7,4,36,,68,63,24,15,2,2,0.7,0.4
2025-07-17T2100,2208A,121.6697,42.0279,阜新市,长青街,,12,9,8,8,7,24,,56,45,12,10,4,4,0.5,0.4
2025-07-17T2100,2209A,121.6673,42.0705,阜新市,农业园区,,11,9,10,3,0,30,,61,54,9,9,2,2,1.1,0.8
2025-07-17T2100,2210A,121.6717,42.0224,阜新市,东苑,,14,13,12,7,7,42,,63,58,21,12,9,3,0.5,0.4
2025-07-17T2100,2211A,121.6506,42.0498,阜新市,玉龙新城,,25,23,12,17,4,15,,54,48,24,12,4,4,1.0,0.6
2025-07-17T2100,2301A,115.8277,32.8929,阜阳市,市监测站,,47,47,40,21,24,136,,168,164,16,14,4,4,0.4,0.5
2025-07-17T2100,2303A,115.8554,32.8605,阜阳市,开发区,,,,35,27,19,145,,166,165,,12,6,6,0.3,0.4
2025-07-17T2100,2875A,115.784,32.8892,阜阳市,阜阳职业技术学院,臭氧1小时,58,23,34,20,20,166,,184,181,8,8,4,4,0.5,0.5
2025-07-17T2100,3468A,115.7901,32.8613,阜阳市,市规划展馆,,,46,37,19,26,,,175,172,14,10,2,2,0.3,0.7
2025-07-17T2100,3469A,115.836,32.9183,阜阳市,枣园社区,,46,46,39,22,25,134,,168,164,13,12,1,2,0.5,0.5
2025-07-17T2100,2669A,102.9099,34.9841,甘南藏族自治州,州政府,,49,49,44,22,23,80,,100,99,6,17,2,2,0.3,0.3
2025-07-17T2100,3380A,102.8914,34.9617,甘南藏族自治州,甘肃民族师范学院,,,,78,59,31,,,111,111,3,23,9,9,0.4,0.5
2025-07-17T2100,2570A,101.9603,30.0475,甘孜藏族自治州,水桥子,,37,24,24,17,16,118,,121,121,9,11,5,6,0.4,0.4
2025-07-17T2100,3065A,101.9533,29.9972,甘孜藏族自治州,州环保局,,36,22,22,13,10,114,,125,123,13,10,2,2,0.6,0.5
2025-07-17T2100,3414A,115.8347,28.932,赣江新区,桑海产业园,,22,19,26,13,14,70,,127,117,18,19,8,8,0.4,0.4
2025-07-17T2100,2362A,114.9017,25.9149,赣州市,通天岩,,34,34,34,23,25,41,,78,57,5,4,7,9,0.5,0.7
2025-07-17T2100,2363A,114.9367,25.8664,赣州市,地委,,40,40,33,23,21,57,,110,95,11,9,5,8,0.9,0.9
2025-07-17T2100,2364A,114.9461,25.8481,赣州市,气象台,,44,44,33,21,19,59,,111,98,10,6,8,9,0.4,0.5
2025-07-17T2100,2365A,114.9322,25.8333,赣州市,市图书馆,,40,40,32,27,22,53,,102,90,13,7,4,4,0.4,0.4
2025-07-17T2100,2366A,114.8905,25.8471,赣州市,华坚鞋城,,46,46,39,28,23,54,,110,95,18,8,4,5,0.5,0.4
2025-07-17T2100,3109A,115.0093,25.8613,赣州市,赣县区卫计委,颗粒物(PM10),52,53,31,22,21,54,,96,86,7,9,4,4,0.8,0.8
2025-07-17T2100,2683A,106.2319,36.1417,固原市,马园,,47,47,45,15,12,102,,131,127,35,23,6,6,0.7,0.6
2025-07-17T2100,2684A,106.2792,36.0022,固原市,监测站,颗粒物(PM10),51,52,39,16,11,137,,145,144,7,9,4,5,0.3,0.3
2025-07-17T2100,2685A,106.2375,36.0211,固原市,新区,,45,45,39,18,18,132,,137,137,9,9,7,6,0.6,0.5
2025-07-17T2100,3522A,106.2177,35.9959,固原市,原州区十五小,,44,39,40,18,17,138,,139,139,9,9,9,10,0.5,0.4
2025-07-17T2100,2543A,106.6308,30.5278,广安市,小平旧居,,,,,,,,,,,,,,,,
2025-07-17T2100,2544A,106.6303,30.4576,广安市,市委,,46,32,35,22,21,146,,175,171,10,14,5,5,0.5,0.5
2025-07-17T2100,2545A,106.6271,30.4663,广安市,友谊中学,,43,34,32,28,23,137,,176,169,15,14,4,4,0.9,0.9
2025-07-17T2100,2547A,106.6388,30.4551,广安市,广电花园,,43,31,47,21,22,136,,164,160,9,15,3,23,0.7,0.7
2025-07-17T2100,2902A,106.6351,30.4865,广安市,北辰小学,颗粒物(PM10),60,69,37,25,22,138,,172,166,8,11,3,5,0.5,0.5
2025-07-17T2100,2523A,105.8945,32.4535,广元市,黑石坡,,40,40,40,22,25,90,,125,103,14,8,7,7,0.4,0.5
2025-07-17T2100,2524A,105.821,32.4444,广元市,老城,,38,38,38,15,18,84,,157,132,31,28,8,11,0.7,0.7
2025-07-17T2100,2526A,105.8628,32.4287,广元市,监测站,颗粒物(PM10),64,77,41,25,22,40,,129,99,11,14,10,10,0.8,0.9
2025-07-17T2100,3617A,105.8047,32.4166,广元市,经开区,颗粒物(PM10),56,62,51,36,33,62,,143,115,32,23,5,7,0.7,0.8
2025-07-17T2100,1345A,113.2347,23.1423,广州市,广雅中学,,46,46,40,28,23,80,,130,122,21,19,3,3,0.6,0.5
2025-07-17T2100,1346A,113.2612,23.105,广州市,市五中,,48,48,39,30,22,87,,139,132,20,16,4,5,0.6,0.5
2025-07-17T2100,1348A,113.3478,23.0916,广州市,广东商学院,颗粒物(PM10),60,69,32,34,19,80,,126,117,68,29,3,3,0.8,0.6
2025-07-17T2100,1349A,113.4332,23.1047,广州市,市八十六中,颗粒物(PM10),61,71,42,42,22,35,,96,84,106,36,3,2,0.6,0.5
2025-07-17T2100,1350A,113.3505,22.9483,广州市,番禺中学,,,,34,,20,135,,155,153,18,14,6,7,,0.5
2025-07-17T2100,1351A,113.2146,23.3916,广州市,花都师范,,42,41,37,29,25,84,,103,102,21,19,3,5,0.7,0.7
2025-07-17T2100,1352A,113.2597,23.1331,广州市,市监测站,,,52,38,30,20,,,130,127,34,18,5,5,0.6,0.5
2025-07-17T2100,1353A,113.5618,23.312,广州市,九龙镇镇龙,细颗粒物(PM2.5),59,53,43,42,24,52,,116,108,30,26,6,6,0.8,0.6
2025-07-17T2100,1354A,113.2765,23.1544,广州市,麓湖,,42,42,35,25,21,37,,84,70,35,17,2,2,0.8,0.8
2025-07-17T2100,1355A,113.443,23.3035,广州市,帽峰山森林公园,,30,30,28,16,13,52,,132,112,22,10,5,4,0.7,0.7
2025-07-17T2100,2846A,113.3221,23.1322,广州市,体育西,"颗粒物(PM10),细颗粒物(PM2.5)",55,60,41,39,22,76,,125,118,31,19,6,5,0.9,0.6
2025-07-17T2100,3298A,113.5717,23.5491,广州市,从化街口,细颗粒物(PM2.5),60,64,42,43,25,22,,98,82,26,22,5,7,0.8,0.7
2025-07-17T2100,3299A,113.3472,23.3692,广州市,白云竹料,,,98,45,53,23,,,96,96,29,20,3,3,0.9,0.5
2025-07-17T2100,3300A,113.2981,23.237,广州市,白云嘉禾,颗粒物(PM10),53,55,40,30,23,56,,120,108,32,21,4,5,0.7,0.6
2025-07-17T2100,3301A,113.4256,23.1716,广州市,黄埔科学城,颗粒物(PM10),52,53,37,31,20,18,,95,74,33,20,2,2,0.8,0.7
2025-07-17T2100,3302A,113.3942,23.0483,广州市,番禺大学城,细颗粒物(PM2.5),55,57,34,39,21,124,,128,125,26,17,6,6,0.7,0.6
2025-07-17T2100,3303A,113.4922,22.8168,广州市,南沙黄阁,颗粒物(PM10),53,55,39,23,24,92,,150,145,36,25,5,6,0.4,0.5
2025-07-17T2100,3304A,113.5342,22.7896,广州市,南沙街,,41,41,36,22,20,96,,155,145,16,19,4,5,0.5,0.5
2025-07-17T2100,3443A,113.2902,23.5544,广州市,花都梯面,颗粒物(PM10),53,56,40,35,23,12,,77,64,39,24,4,4,0.8,0.7
2025-07-17T2100,3445A,113.7858,23.7478,广州市,从化良口,,,33,36,25,26,36,,97,72,,12,7,7,0.9,0.8
2025-07-17T2100,3446A,113.8051,23.2614,广州市,增城荔城,颗粒物(PM10),51,52,36,31,20,48,,126,112,16,16,6,7,0.5,0.4
2025-07-17T2100,2505A,109.568,23.1478,贵港市,德智高中,,,,,,,,,,,,,,,,
2025-07-17T2100,2506A,109.6047,23.0666,贵港市,江南子站,,32,29,51,22,26,86,,95,95,10,15,5,7,0.6,0.8
2025-07-17T2100,2508A,109.5669,23.1065,贵港市,荷城子站,颗粒物(PM10),54,58,27,36,12,54,,85,81,20,13,7,7,0.5,0.4
2025-07-17T2100,3405A,109.5886,23.1172,贵港市,新世纪学校,,,,35,,19,,,93,93,17,17,6,3,0.5,0.6
2025-07-17T2100,4260A,109.5933,23.0951,贵港市,中山路155-3号,,27,23,40,18,19,84,,96,95,9,13,3,4,0.5,0.5
2025-07-17T2100,1439A,106.6899,26.5998,贵阳市,马鞍山,,14,14,15,3,3,42,,88,81,12,8,4,4,0.3,0.3
2025-07-17T2100,1441A,106.6243,26.6266,贵阳市,鉴湖路,,39,39,23,3,6,50,,84,79,18,8,8,11,0.2,0.3
2025-07-17T2100,1442A,106.7487,26.6343,贵阳市,燕子冲,,18,17,16,12,19,55,,102,92,18,17,8,10,0.0,0.1
2025-07-17T2100,1443A,106.6555,26.4365,贵阳市,碧云窝,,24,24,27,7,10,62,,82,78,7,8,6,7,0.4,0.5
2025-07-17T2100,1445A,106.7109,26.6027,贵阳市,红边门,,24,24,22,9,10,53,,91,83,22,17,3,3,0.1,0.1
2025-07-17T2100,1446A,106.7164,26.5699,贵阳市,新华路,,36,36,31,12,14,53,,90,81,23,14,15,23,0.3,0.4
2025-07-17T2100,1447A,106.674,26.5424,贵阳市,太慈桥,,14,14,16,7,7,42,,87,77,26,15,5,5,0.3,0.2
2025-07-17T2100,1552A,106.805,26.3003,贵阳市,桐木岭,,18,17,27,12,16,53,,71,66,9,8,12,12,1.0,1.1
2025-07-17T2100,4230A,106.6882,26.5695,贵阳市,花果园大街66号,,18,,10,12,14,57,,88,82,12,12,4,5,0.3,0.3
2025-07-17T2100,4231A,106.6873,26.5169,贵阳市,漓江路57号,,19,19,21,7,8,49,,82,75,12,10,5,7,0.3,0.3
2025-07-17T2100,1862A,110.4144,25.3167,桂林市,电子科大尧山校区,,,,,,,,,,,,,,,,
2025-07-17T2100,1864A,110.3089,25.2708,桂林市,龙隐路小学,,23,23,23,16,12,61,,85,80,8,6,8,8,0.4,0.4
2025-07-17T2100,1865A,110.2869,25.2178,桂林市,八中,,35,35,23,15,12,63,,85,82,11,8,6,6,0.5,0.5
2025-07-17T2100,3531A,110.296,25.1253,桂林市,旅游学院,,28,24,20,19,10,62,,87,83,14,10,2,3,0.2,0.3
2025-07-17T2100,4222A,110.1835,25.2444,桂林市,环湖路276号,,,27,23,14,15,,,86,,,16,,12,0.2,0.2
2025-07-17T2100,4301A,110.2803,25.2773,桂林市,信义路13号,,24,20,23,7,9,76,,89,87,10,8,4,4,0.5,0.5
2025-07-17T2100,2674A,100.2561,34.4714,果洛藏族自治州,玛沁县大武镇,,33,30,25,18,13,105,,116,114,3,5,17,16,0.3,0.3
2025-07-17T2100,1129A,126.5422,45.755,哈尔滨市,岭北,,23,23,25,14,19,64,,115,102,26,25,7,8,0.5,0.4
2025-07-17T2100,1130A,126.561,45.8167,哈尔滨市,松北商大,,,34,28,3,7,,,98,82,19,23,7,7,0.6,0.6
2025-07-17T2100,1131A,126.979,45.5419,哈尔滨市,阿城会宁,,34,34,27,15,12,65,,114,103,20,12,5,6,0.5,0.5
2025-07-17T2100,1132A,126.599,45.7222,哈尔滨市,南岗学府路,,34,34,29,22,9,49,,104,92,40,23,6,6,1.1,0.7
2025-07-17T2100,1133A,126.689,45.7733,哈尔滨市,太平宏伟公园,,46,46,27,19,10,44,,93,80,57,26,7,6,0.7,0.4
2025-07-17T2100,1134A,126.635,45.7667,哈尔滨市,道外承德广场,,46,46,41,13,11,54,,96,84,31,24,6,6,1.3,0.9
2025-07-17T2100,1135A,126.685,45.7319,哈尔滨市,香坊红旗大街,,42,41,22,29,17,36,,106,91,58,29,3,3,1.2,0.7
2025-07-17T2100,1136A,126.6411,45.7258,哈尔滨市,动力和平路,,,52,34,,,47,,113,101,41,23,3,3,1.0,0.6
2025-07-17T2100,1137A,126.593,45.7478,哈尔滨市,道里建国路,,32,32,32,16,9,57,,103,93,47,28,6,5,1.3,1.3
2025-07-17T2100,1138A,126.615,45.61,哈尔滨市,平房东轻厂,,23,23,33,8,9,48,,108,95,37,25,8,8,0.7,0.5
2025-07-17T2100,1139A,126.595,45.9855,哈尔滨市,呼兰师专,,20,20,26,11,13,62,,109,95,28,24,12,11,0.8,0.7
2025-07-17T2100,1140A,126.6206,45.6842,哈尔滨市,省农科院,细颗粒物(PM2.5),73,,32,53,23,30,,108,93,70,35,8,8,0.9,0.7
2025-07-17T2100,2688A,93.5128,42.8172,哈密市,地区监测站,颗粒物(PM10),93,136,58,10,24,109,,127,125,12,14,6,6,0.1,0.2
2025-07-17T2100,2689A,93.4961,42.8328,哈密市,哈密师范学校,颗粒物(PM10),51,51,51,15,14,114,,120,117,9,15,4,4,0.2,0.3
2025-07-17T2100,2671A,100.9048,36.9639,海北藏族自治州,海晏县西海镇,,39,,15,14,14,123,,138,125,2,4,10,8,0.3,0.4
2025-07-17T2100,3867A,102.0738,36.5056,海东市,平安区公安北苑,,38,29,25,12,9,120,,159,153,4,7,8,11,0.5,0.6
2025-07-17T2100,1409A,110.576,19.9507,海口市,东寨港,,14,13,18,6,12,44,,62,56,5,5,5,4,0.4,0.5
2025-07-17T2100,1410A,110.3232,20.0574,海口市,海南大学,,21,21,20,10,11,66,,12,,11,7,2,2,0.4,0.4
2025-07-17T2100,1411A,110.283,20.0053,海口市,秀英海南医院,,21,21,24,10,12,51,,71,66,18,10,5,5,0.4,0.3
2025-07-17T2100,1412A,110.338,19.9969,海口市,海南师范大学,,33,,22,23,18,60,,77,70,12,7,4,4,0.3,0.4
2025-07-17T2100,1413A,110.33,20.0356,海口市,龙华路环保局宿舍,,21,20,22,10,11,66,,78,75,11,8,6,5,0.3,0.3
2025-07-17T2100,3539A,110.5111,19.9736,海口市,桂林洋子站,,20,20,21,12,11,49,,68,62,11,7,5,4,0.2,0.3
2025-07-17T2100,2673A,100.6188,36.2866,海南藏族自治州,共和县恰卜恰镇,,36,33,28,10,11,115,,136,128,12,6,16,13,0.7,0.6
2025-07-17T2100,2676A,97.3731,37.3753,海西蒙古族藏族自治州,德令哈市,,41,36,24,11,8,129,,148,146,9,3,12,14,0.6,0.7
2025-07-17T2100,1048A,114.5302,36.6116,邯郸市,东污水处理厂,,43,41,38,7,8,135,,166,162,15,12,3,4,0.5,0.4
2025-07-17T2100,1049A,114.4918,36.5713,邯郸市,矿院,,48,29,31,17,13,152,,170,168,7,13,18,6,0.5,0.4
2025-07-17T2100,1050A,114.484,36.6133,邯郸市,丛台公园,,50,38,33,20,14,160,,182,179,10,11,6,7,0.5,0.5
2025-07-17T2100,3458A,114.7895,36.5593,邯郸市,香泉濮院小区,颗粒物(PM10),61,72,46,8,4,132,,152,151,13,11,2,4,0.4,0.4
2025-07-17T2100,3579A,114.50634,36.77178,邯郸市,永年区实验高中,,47,47,48,22,26,131,,171,166,17,17,3,3,0.3,0.3
2025-07-17T2100,3580A,114.20016,36.44293,邯郸市,峰峰矿区临水派出所,,,60,48,14,9,163,,182,181,6,9,,6,0.3,0.3
2025-07-17T2100,2634A,106.9893,33.1842,汉中市,汉川机床厂子校,,23,13,30,9,14,73,,109,100,9,7,3,3,0.3,0.4
2025-07-17T2100,2635A,107.0154,33.0706,汉中市,市监测站,,,,31,,17,82,,113,104,,14,5,6,0.5,0.6
2025-07-17T2100,2636A,107.0089,33.1138,汉中市,鑫源开发区,,23,12,24,8,14,73,,104,94,7,10,5,6,0.4,0.4
2025-07-17T2100,2637A,107.007,33.0323,汉中市,南郑大河坎水厂,,28,,33,9,18,88,,170,114,6,14,7,6,0.4,0.5
2025-07-17T2100,1223A,120.2072,30.2111,杭州市,滨江,,28,21,31,11,16,88,,143,131,22,21,6,6,0.5,0.5
2025-07-17T2100,1224A,120.0633,30.2747,杭州市,西溪,,20,18,25,12,20,64,,112,103,18,13,4,4,0.4,0.4
2025-07-17T2100,1226A,120.3417,30.3150,杭州市,下沙,,30,23,28,14,17,95,,162,146,22,16,4,5,0.5,0.4
2025-07-17T2100,1227A,120.1269,30.2456,杭州市,卧龙桥,,19,19,26,13,18,55,,122,110,8,8,7,7,0.5,0.5
2025-07-17T2100,1228A,120.1903,30.2692,杭州市,浙江农大,,23,21,28,16,21,69,,138,118,26,19,4,4,0.5,0.5
2025-07-17T2100,1230A,120.1197,30.3119,杭州市,和睦小学,,26,23,25,17,18,82,,136,128,17,12,4,5,0.6,0.6
2025-07-17T2100,1231A,120.3019,30.4183,杭州市,临平镇,,,27,36,14,20,,,184,,28,14,5,5,0.5,0.5
2025-07-17T2100,1232A,120.2753,30.1839,杭州市,城厢镇,,30,20,34,13,23,94,,167,149,14,15,6,6,0.5,0.5
2025-07-17T2100,1233A,120.0883,30.1808,杭州市,云栖,,20,20,30,9,15,51,,109,99,16,13,8,8,0.8,0.8
2025-07-17T2100,3557A,119.9464,30.0494,杭州市,镇二中,,31,9,32,7,28,99,,124,117,12,15,4,4,0.5,0.6
2025-07-17T2100,3558A,119.7183,30.2367,杭州市,市府大楼,,30,17,26,12,19,95,,104,101,9,10,6,7,0.5,0.5
2025-07-17T2100,3656A,120.1556,30.2864,杭州市,消防大队,,29,29,26,20,18,80,,131,121,19,11,6,6,0.6,0.8
2025-07-17T2100,1270A,117.1959,31.7848,合肥市,明珠广场,,40,29,18,14,11,126,,146,144,14,12,5,5,0.5,0.5
2025-07-17T2100,1271A,117.3072,31.8764,合肥市,三里街,,41,24,20,19,13,130,,128,128,12,8,6,6,0.5,0.5
2025-07-17T2100,1272A,117.2588,31.8707,合肥市,琥珀山庄,,42,24,19,24,16,133,,137,136,10,9,7,7,0.8,0.7
2025-07-17T2100,1273A,117.1604,31.9052,合肥市,董铺水库,,39,22,19,14,9,123,,126,124,5,4,5,4,0.4,0.4
2025-07-17T2100,1274A,117.25,31.8571,合肥市,长江中路,,44,31,20,27,14,140,,145,143,9,7,5,5,0.6,0.5
2025-07-17T2100,1275A,117.266,31.9436,合肥市,庐阳区,,42,24,19,19,10,133,,140,139,11,5,8,9,0.6,0.5
2025-07-17T2100,1276A,117.3453,31.8616,合肥市,瑶海区,,43,22,16,12,9,137,,133,133,8,7,5,5,0.7,0.7
2025-07-17T2100,1277A,117.3027,31.7964,合肥市,包河区,,,29,19,19,10,,,126,125,30,18,5,5,0.6,0.5
2025-07-17T2100,1278A,117.2776,31.7385,合肥市,滨湖新区,,,29,19,24,16,126,,135,134,9,8,,6,0.5,0.5
2025-07-17T2100,1279A,117.1318,31.8403,合肥市,高新区,,38,29,19,21,12,121,,139,136,17,10,5,4,0.6,0.5
2025-07-17T2100,3464A,117.3803,31.9147,合肥市,高教基地,,43,,18,24,16,137,,131,131,8,6,5,5,0.7,0.7
2025-07-17T2100,3614A,79.924,37.0877,和田地区,地区环保局,颗粒物(PM10),120,190,250,75,63,104,,114,112,15,4,4,4,0.6,0.5
2025-07-17T2100,3615A,79.9131,37.113,和田地区,市环保局,颗粒物(PM10),98,145,225,53,67,96,,112,111,22,9,1,2,0.2,0.2
2025-07-17T2100,2516A,108.2011,24.715,河池市,东仁乐园,,,,,,,,,,,,,,,,
2025-07-17T2100,2517A,108.0497,24.6947,河池市,市环保站,,25,17,24,15,13,77,,87,86,5,8,7,5,0.6,0.6
2025-07-17T2100,2518A,108.0983,24.6989,河池市,市疾控中心,,35,31,26,24,15,55,,93,88,21,14,5,5,0.7,0.7
2025-07-17T2100,1696A,114.6778,23.7569,河源市,源西,,50,50,36,31,22,62,,114,101,19,17,3,3,0.8,0.7
2025-07-17T2100,1697A,114.6944,23.7586,河源市,东埔,颗粒物(PM10),56,61,37,32,23,68,,125,107,19,15,4,5,0.7,0.5
2025-07-17T2100,1698A,114.6892,23.7233,河源市,老城,颗粒物(PM10),54,57,39,36,24,31,,124,104,34,15,4,5,0.7,0.5
2025-07-17T2100,1718A,115.4208,35.2464,菏泽市,气象局,,48,40,35,24,21,153,,166,165,10,9,4,4,0.4,0.4
2025-07-17T2100,3374A,115.5564,35.0891,菏泽市,定陶老年大学,,37,27,34,9,15,118,,163,155,16,15,1,3,0.3,0.4
2025-07-17T2100,4184A,115.4797,35.24401,菏泽市,永昌路1号,,43,33,34,12,20,137,,165,161,15,13,5,7,0.2,0.2
2025-07-17T2100,4193A,115.4715,35.2800,菏泽市,长城路999号,,41,35,33,8,16,130,,167,161,18,11,6,7,0.4,0.4
2025-07-17T2100,2514A,111.5264,24.4172,贺州市,环保小区,,,,33,,28,,,78,77,14,9,12,13,0.9,0.9
2025-07-17T2100,2515A,111.5608,24.4078,贺州市,政协大楼,细颗粒物(PM2.5),59,61,33,42,24,47,,82,76,14,11,14,15,0.8,0.6
2025-07-17T2100,3534A,111.4744,24.4553,贺州市,西湾,,,,36,,20,,,52,,,10,,7,,0.5
2025-07-17T2100,2385A,114.17,35.9019,鹤壁市,市监测站,细颗粒物(PM2.5),59,49,48,42,23,149,,160,159,13,19,7,6,0.7,0.7
2025-07-17T2100,2386A,114.2956,35.7511,鹤壁市,市交警支队,,47,43,33,26,22,150,,156,156,22,14,3,4,1.0,0.8
2025-07-17T2100,2387A,114.2878,35.7306,鹤壁市,迎宾馆,颗粒物(PM10),51,51,34,32,21,152,,148,148,17,13,4,5,0.7,0.7
2025-07-17T2100,3474A,114.2617,35.6822,鹤壁市,大新区,,44,31,31,22,15,140,,147,147,12,6,7,7,0.6,0.6
2025-07-17T2100,3596A,114.1572,35.9603,鹤壁市,南山宾馆,细颗粒物(PM2.5),65,54,37,47,24,154,,170,168,7,5,3,4,1.0,0.9
2025-07-17T2100,2244A,130.2537,47.3416,鹤岗市,哈啤分公司,,19,19,13,9,6,50,,106,97,13,6,10,10,0.8,0.7
2025-07-17T2100,2245A,130.2684,47.3086,鹤岗市,斯达机电,,27,21,21,12,8,85,,97,96,7,6,11,11,0.5,0.5
2025-07-17T2100,2246A,130.3114,47.3388,鹤岗市,东山纸板厂,,37,37,16,23,16,26,,86,74,23,11,10,10,0.9,0.6
2025-07-17T2100,2247A,130.1097,47.3382,鹤岗市,五号水库,,6,6,6,3,5,16,,89,62,12,8,8,8,0.1,0.1
2025-07-17T2100,2263A,127.4833,50.2524,黑河市,交通局,,37,37,25,14,7,31,,57,53,16,12,6,9,0.4,0.3
2025-07-17T2100,2264A,127.5144,50.2341,黑河市,环保局,,38,38,24,15,10,49,,63,61,13,10,6,6,0.3,0.4
2025-07-17T2100,2265A,127.5291,50.2472,黑河市,大黑河岛,,,,,,,,,,,,,,,,
2025-07-17T2100,1074A,115.6838,37.7541,衡水市,电机北厂,颗粒物(PM10),53,56,45,20,23,144,,156,156,13,11,3,4,0.4,0.5
2025-07-17T2100,1075A,115.6303,37.7316,衡水市,市监测站,颗粒物(PM10),55,59,51,14,17,148,,156,156,7,7,8,9,0.3,0.4
2025-07-17T2100,3188A,115.6683,37.7217,衡水市,市城管局,颗粒物(PM10),57,64,41,27,22,158,,159,159,9,14,19,11,0.4,0.4
2025-07-17T2100,3459A,115.5989,37.5491,衡水市,地表水厂,,44,44,37,10,10,101,,154,148,26,9,7,7,0.2,0.2
2025-07-17T2100,2456A,112.5003,26.9167,衡阳市,原169医院,,28,25,22,19,11,74,,99,96,12,6,4,4,0.5,0.4
2025-07-17T2100,2457A,112.6194,26.9258,衡阳市,衡阳化工总厂,,20,15,30,6,15,61,,91,85,15,9,2,5,0.9,0.7
2025-07-17T2100,2458A,112.6211,26.8956,衡阳市,珠晖区环保局,,39,39,22,14,12,79,,96,90,4,6,4,6,0.4,0.5
2025-07-17T2100,2459A,112.6197,26.8733,衡阳市,市委党校,,,109,36,22,13,,,91,90,8,9,8,9,0.6,0.5
2025-07-17T2100,2460A,112.6006,26.8919,衡阳市,市监测站,,23,,28,14,15,71,,91,88,8,11,2,5,0.5,0.5
2025-07-17T2100,2461A,112.5664,26.9056,衡阳市,真空机电公司,,23,,21,15,12,71,,88,84,8,7,4,5,0.6,0.6
2025-07-17T2100,3399A,112.6703,26.882,衡阳市,师范学院,,40,28,36,28,16,72,,91,86,7,11,6,7,0.7,0.6
2025-07-17T2100,2608A,103.3772,23.3993,红河哈尼族彝族自治州,污水处理厂,,22,17,12,15,9,54,,64,61,5,6,7,8,0.3,0.2
2025-07-17T2100,2609A,103.3861,23.35,红河哈尼族彝族自治州,监测站,,27,27,23,11,8,48,,58,55,7,4,15,9,0.3,0.2
2025-07-17T2100,3038A,103.3758,23.368,红河哈尼族彝族自治州,州图书馆,,35,,9,24,17,53,,62,59,4,4,1,1,0.2,0.2
2025-07-17T2100,1090A,111.6507,40.7517,呼和浩特市,呼市一监,,30,22,16,9,8,94,,125,120,15,12,7,7,0.4,0.4
2025-07-17T2100,1091A,111.6572,40.8033,呼和浩特市,小召,,,29,17,10,8,,,124,123,24,21,7,7,0.5,0.5
2025-07-17T2100,1094A,111.7516,40.8369,呼和浩特市,如意水处理厂,,37,30,25,12,7,116,,134,131,13,16,4,2,0.3,0.3
2025-07-17T2100,1095A,111.7276,40.8062,呼和浩特市,二十九中,,37,25,18,9,7,116,,134,131,16,15,6,5,0.6,0.6
2025-07-17T2100,1096A,111.5512,40.7866,呼和浩特市,工大金川校区,,35,35,21,13,7,87,,130,126,36,22,8,6,0.4,0.3
2025-07-17T2100,1097A,111.717,40.7612,呼和浩特市,化肥厂生活区,,47,47,17,17,7,97,,131,128,30,16,6,6,0.4,0.3
2025-07-17T2100,3698A,111.5968,40.8178,呼和浩特市,红旗小学,,48,48,20,15,8,69,,135,127,55,19,5,5,0.3,0.3
2025-07-17T2100,3699A,111.6518,40.8389,呼和浩特市,海东办,,37,27,17,9,7,118,,141,138,18,17,5,5,0.4,0.4
2025-07-17T2100,2192A,119.7594,49.2261,呼伦贝尔市,区环保局,,33,33,28,21,19,84,,85,85,17,23,7,6,0.4,0.4
2025-07-17T2100,3061A,119.7512,49.1577,呼伦贝尔市,国华电力东,,29,20,15,14,10,92,,107,106,9,9,3,3,0.5,0.5
2025-07-17T2100,1250A,120.0751,30.8669,湖州市,城西水厂,,40,28,31,20,21,125,,166,163,20,22,6,6,0.7,0.4
2025-07-17T2100,2873A,120.0830,30.8929,湖州市,仁皇山新区,,45,32,31,20,20,144,,171,169,9,16,4,4,0.8,0.7
2025-07-17T2100,2907A,120.1844,30.8596,湖州市,吴兴区站,,38,28,27,18,20,119,,168,164,11,11,6,7,0.6,0.6
2025-07-17T2100,3562A,120.4148,30.8538,湖州市,南浔区站,,45,18,28,13,21,141,,163,162,6,9,5,5,0.7,0.7
2025-07-17T2100,1607A,120.9049,40.7211,葫芦岛市,龙港区,,38,38,29,16,15,16,,66,60,42,25,13,6,0.8,0.6
2025-07-17T2100,1608A,120.8392,40.7514,葫芦岛市,化工街,,19,19,16,7,9,49,,73,65,27,26,6,10,0.5,0.5
2025-07-17T2100,1609A,120.8341,40.7073,葫芦岛市,新区,,21,21,20,12,16,54,,77,70,17,22,5,6,1.0,0.8
2025-07-17T2100,1610A,120.8695,40.7677,葫芦岛市,东城区,,18,12,20,12,16,52,,71,67,22,24,5,7,0.8,0.6
2025-07-17T2100,2482A,109.5981,27.5721,怀化市,林科所,,33,33,25,9,5,47,,77,66,11,8,5,4,0.4,0.4
2025-07-17T2100,2483A,109.9453,27.5444,怀化市,河西地税局,,32,32,24,22,16,21,,72,59,28,6,1,2,0.4,0.4
2025-07-17T2100,2484A,109.9781,27.5342,怀化市,市四医院,,,30,31,10,19,,,84,80,10,9,5,6,0.6,0.2
2025-07-17T2100,2485A,109.9972,27.5578,怀化市,监测楼,,24,24,29,12,18,51,,83,74,7,5,3,4,0.1,0.2
2025-07-17T2100,2486A,110.0394,27.583,怀化市,市委党校,,29,29,24,13,15,55,,88,82,1,5,4,5,0.3,0.3
2025-07-17T2100,1210A,119.036,33.5981,淮安市,钵池山,,40,27,22,23,22,125,,151,148,14,10,7,7,0.7,0.7
2025-07-17T2100,1211A,119.007,33.575,淮安市,北京南路,,40,31,24,20,21,127,,150,148,13,10,7,7,0.7,0.7
2025-07-17T2100,1212A,118.989,33.6067,淮安市,市监测站,,41,27,25,19,20,129,,152,151,12,8,8,8,0.7,0.8
2025-07-17T2100,1213A,119.135,33.5039,淮安市,楚州区监测站,,49,46,35,34,22,140,,152,151,9,7,7,7,0.6,0.5
2025-07-17T2100,3426A,118.8755,33.2894,淮安市,新华书店,,43,30,25,22,19,135,,157,154,13,12,8,9,0.6,0.8
2025-07-17T2100,4206A,119.0288,33.6319,淮安市,承德北路606号,,36,34,30,23,21,114,,144,142,18,10,5,5,0.5,0.5
2025-07-17T2100,2282A,116.8004,33.975,淮北市,监测站,,48,24,36,21,24,153,,165,160,9,8,7,8,0.7,0.7
2025-07-17T2100,2283A,116.8091,33.9007,淮北市,烈山区政府,,50,50,54,21,21,158,,174,168,8,3,7,7,0.6,0.8
2025-07-17T2100,3330A,116.8873,33.9836,淮北市,杜集区检察院,臭氧1小时,58,41,43,26,35,166,,168,166,12,9,7,8,0.8,0.9
2025-07-17T2100,4017A,116.7923,33.9535,淮北市,市博物馆,臭氧1小时,59,31,37,20,24,167,,173,170,8,7,9,9,0.7,0.8
2025-07-17T2100,2277A,116.8305,32.7727,淮南市,潘集区政府,,43,43,30,15,13,136,,150,147,13,9,1,4,0.3,0.4
2025-07-17T2100,2279A,116.8569,32.5951,淮南市,谢家集区政府,,47,37,23,18,12,148,,161,160,11,6,8,6,0.3,0.3
2025-07-17T2100,2280A,116.8281,32.633,淮南市,八公山区政府,,50,34,26,17,13,160,,164,164,8,7,7,7,0.4,0.4
2025-07-17T2100,2281A,116.6325,32.6201,淮南市,焦岗湖风景区管理处,,,,,,,,,,,,,,,,
2025-07-17T2100,2894A,117.0566,32.6531,淮南市,经济技术开发区消防队,,,40,26,3,8,148,,166,166,,12,,9,0.3,0.4
2025-07-17T2100,3329A,117.0108,32.5893,淮南市,山南新区,,49,24,21,13,9,156,,175,174,8,5,9,9,0.4,0.4
2025-07-17T2100,4209A,117.0031,32.6445,淮南市,国庆中路369号,臭氧1小时,55,34,28,20,21,164,,180,180,8,9,11,12,0.3,0.3
2025-07-17T2100,2446A,114.9028,30.4742,黄冈市,职工中心,,30,28,31,20,21,94,,165,159,2,4,8,10,0.5,0.6
2025-07-17T2100,2929A,114.8858,30.4519,黄冈市,红卫路,,32,32,28,20,17,101,,170,163,2,4,8,9,0.6,0.5
2025-07-17T2100,3398A,114.9136,30.4445,黄冈市,市林业局,,33,29,34,23,18,86,,171,164,10,14,7,9,0.5,0.5
2025-07-17T2100,2672A,102.0199,35.5102,黄南藏族自治州,同仁县隆务镇,,25,25,32,14,11,52,,76,72,31,13,9,8,0.4,0.2
2025-07-17T2100,2295A,118.2903,29.6963,黄山市,延安路89号,,25,20,26,17,15,66,,86,80,12,6,3,3,0.6,0.6
2025-07-17T2100,2297A,118.1371,30.2756,黄山市,黄山区政府5号楼,,28,19,23,19,15,60,,92,87,6,4,4,4,0.5,0.5
2025-07-17T2100,4210A,118.3354,29.7203,黄山市,滨江东路7-2号,,32,25,29,13,10,100,,86,86,3,5,2,2,0.5,0.5
2025-07-17T2100,2423A,115.0601,30.2313,黄石市,沈家营,颗粒物(PM10),65,80,95,14,16,99,,156,151,13,16,7,7,0.7,0.6
2025-07-17T2100,2426A,114.8988,30.2019,黄石市,铁山,,38,38,32,13,12,112,,139,136,28,15,16,14,0.2,0.4
2025-07-17T2100,2427A,115.0307,30.2092,黄石市,团城山,,42,40,36,11,10,133,,169,169,8,8,13,8,0.6,0.6
2025-07-17T2100,3149A,115.0235,30.1578,黄石市,笔架山北路,颗粒物(PM10),52,54,35,15,9,102,,134,133,13,8,7,7,0.6,0.6
2025-07-17T2100,4185A,115.0780,30.21118,黄石市,磁湖东路29号,,46,46,47,15,16,110,,157,155,8,19,7,8,0.9,1
2025-07-17T2100,1392A,114.4183,23.0528,惠州市,河南岸金山湖子站,,47,47,38,28,23,112,,158,154,19,19,7,7,0.5,0.5
2025-07-17T2100,1393A,114.4053,23.0822,惠州市,下埔横江三路子站,,50,50,38,34,21,130,,168,166,13,16,5,5,0.4,0.4
2025-07-17T2100,1394A,114.4103,23.1142,惠州市,江北云山西路子站,颗粒物(PM10),54,58,37,31,20,127,,171,168,12,14,7,7,0.6,0.5
2025-07-17T2100,1395A,114.4645,22.7833,惠州市,惠阳区承修路船湖子站,颗粒物(PM10),56,61,36,35,20,124,,147,145,21,18,7,6,0.7,0.6
2025-07-17T2100,1396A,114.5317,22.7422,惠州市,大亚湾管委会子站,,34,34,28,19,16,91,,134,125,26,18,8,7,0.7,0.6
2025-07-17T2100,3314A,114.4338,22.8134,惠州市,惠阳秋长,颗粒物(PM10),53,56,36,33,20,122,,141,141,31,23,4,3,0.5,0.4
2025-07-17T2100,3452A,114.6517,22.775,惠州市,大亚湾霞涌,,26,,22,18,18,78,,109,106,14,12,6,6,0.7,0.7
2025-07-17T2100,2240A,130.9762,45.3001,鸡西市,环保局,,22,17,18,7,7,70,,89,84,9,10,4,5,0.3,0.2
2025-07-17T2100,2243A,130.9429,45.3039,鸡西市,第一中学,,23,18,17,10,9,72,,88,84,10,12,8,8,0.3,0.3
2025-07-17T2100,3707A,131.0207,45.3073,鸡西市,欧美日汽修厂,,42,42,27,3,10,68,,84,82,10,12,7,12,0.2,0.2
2025-07-17T2100,3709A,130.9967,45.3106,鸡西市,市政设施管理处,,20,18,19,14,9,61,,85,77,15,15,3,5,0.4,0.4
2025-07-17T2100,2367A,114.9754,27.0803,吉安市,红声器材厂,,,,38,19,21,,,94,86,6,7,9,10,0.7,0.7
2025-07-17T2100,2368A,114.9658,27.0999,吉安市,市森林工业局,,37,37,35,23,20,82,,96,89,5,6,9,8,0.4,0.5
2025-07-17T2100,2369A,114.99,27.1312,吉安市,市环境监测站,,33,33,33,16,17,80,,108,99,12,6,19,14,0.6,0.5
2025-07-17T2100,2370A,115.0093,27.0968,吉安市,青原区法院,,42,42,35,24,19,68,,96,82,13,11,9,9,0.7,0.7
2025-07-17T2100,1772A,126.54,43.8622,吉林市,哈达湾,,22,16,16,12,11,70,,96,94,14,14,7,10,0.4,0.5
2025-07-17T2100,1773A,126.5844,43.8358,吉林市,东局子,,21,21,20,10,13,39,,88,83,18,14,6,6,0.6,0.5
2025-07-17T2100,1774A,126.5052,43.8245,吉林市,电力学院,,,27,20,16,8,,,103,103,20,14,13,8,0.6,0.6
2025-07-17T2100,1775A,126.6133,43.8972,吉林市,江北,,,15,14,,7,62,,83,83,8,7,2,8,0.6,0.7
2025-07-17T2100,1776A,126.555,43.8306,吉林市,江南公园,,21,21,18,13,14,46,,93,87,27,16,3,5,0.6,1.2
2025-07-17T2100,1778A,126.7061,43.7133,吉林市,丰满,,18,9,7,8,6,57,,83,79,5,4,5,5,0.8,0.8
2025-07-17T2100,2868A,126.4739,43.953,吉林市,九站,,29,29,22,13,11,37,,89,80,34,15,6,6,0.5,0.5
2025-07-17T2100,1299A,116.9862,36.6114,济南市,科干所,,39,22,25,10,20,123,,152,143,18,15,6,6,0.4,0.5
2025-07-17T2100,1300A,116.9376,36.665,济南市,农科所,,37,27,29,7,18,118,,150,142,14,15,7,8,0.4,0.5
2025-07-17T2100,1301A,117.1265,36.6734,济南市,开发区,,40,29,29,22,19,126,,162,150,21,19,7,8,0.6,0.7
2025-07-17T2100,1303A,117.0624,36.6868,济南市,省种子仓库,,45,31,37,14,17,141,,171,162,12,16,6,8,0.5,0.6
2025-07-17T2100,1304A,116.9489,36.6447,济南市,机床二厂,,43,22,30,10,14,136,,153,149,16,15,5,7,0.5,0.6
2025-07-17T2100,1305A,117.0495,36.663,济南市,市监测站,,40,32,30,12,17,125,,158,147,20,18,9,10,0.6,0.6
2025-07-17T2100,1306A,116.7675,36.5484,济南市,长清党校,,39,39,32,27,23,121,,155,148,21,18,5,5,0.5,0.5
2025-07-17T2100,1616A,117.6795,36.229,济南市,技术学院,,44,19,20,17,17,138,,155,151,13,13,7,10,0.6,0.7
2025-07-17T2100,1961A,117.532,36.6868,济南市,东山小学,,37,37,28,15,14,95,,152,140,24,15,6,7,0.3,0.4
2025-07-17T2100,3059A,117.7161,36.2049,济南市,泰兴公司,,36,24,27,14,18,115,,151,144,22,14,7,9,0.5,0.5
2025-07-17T2100,3064A,117.6867,36.2171,济南市,莱芜战役纪念馆,,42,31,30,16,20,134,,152,149,14,14,6,8,0.8,0.8
2025-07-17T2100,3494A,117.1673,36.9782,济南市,济阳区政府,,42,32,34,15,17,133,,146,143,11,12,8,9,0.3,0.5
2025-07-17T2100,3495A,117.1171,36.63,济南市,锦屏中学,,37,24,27,15,14,117,,164,153,15,12,8,8,0.6,0.7
2025-07-17T2100,3682A,116.9814,36.6819,济南市,济南四建,,42,22,29,12,18,132,,156,150,15,15,5,6,0.5,0.6
2025-07-17T2100,1653A,116.6251,35.4302,济宁市,火炬城,,38,23,30,9,15,120,,143,139,9,13,4,5,0.5,0.5
2025-07-17T2100,1655A,116.5491,35.4042,济宁市,电化厂,,43,43,37,12,17,128,,161,157,15,11,6,6,0.7,0.6
2025-07-17T2100,3500A,116.5814,35.3707,济宁市,北湖一中,,39,23,30,13,16,123,,143,141,13,12,6,6,0.5,0.5
2025-07-17T2100,3501A,116.8249,35.5593,济宁市,服务中心,,43,26,28,6,10,136,,152,148,16,15,2,2,0.4,0.4
2025-07-17T2100,3678A,116.5907,35.4054,济宁市,市第七中学,,38,20,32,3,10,121,,135,134,8,11,5,7,0.4,0.4
2025-07-17T2100,2255A,130.2751,46.8028,佳木斯市,佳纺,,20,20,20,12,10,63,,97,95,14,14,7,7,0.4,0.4
2025-07-17T2100,2256A,130.3995,46.8307,佳木斯市,发电厂,,37,37,19,13,12,88,,101,101,9,13,6,5,0.5,0.5
2025-07-17T2100,2257A,130.3258,46.7975,佳木斯市,环保局,,25,20,25,14,13,80,,98,98,19,21,8,8,0.6,0.5
2025-07-17T2100,2258A,130.3648,46.8032,佳木斯市,十一中,,24,24,17,9,13,74,,106,104,22,12,6,5,0.5,0.5
2025-07-17T2100,2259A,130.3794,46.7588,佳木斯市,四丰,,,,,,,,,,,21,13,1,10,0.5,0.5
2025-07-17T2100,1252A,120.7436,30.778,嘉兴市,清河小学,,49,22,39,16,23,156,,160,160,11,17,8,8,0.5,0.6
2025-07-17T2100,1253A,120.726,30.7478,嘉兴市,嘉兴学院,臭氧1小时,58,28,37,12,22,166,,172,172,6,16,4,5,0.7,0.7
2025-07-17T2100,2872A,120.7846,30.7525,嘉兴市,南湖区残联,,39,28,36,22,26,123,,166,162,16,13,5,6,0.6,0.6
2025-07-17T2100,3407A,120.6916,30.7739,嘉兴市,秀洲住建,臭氧1小时,54,24,35,14,21,163,,172,172,9,16,6,6,0.6,0.6
2025-07-17T2100,1945A,98.2908,39.7711,嘉峪关市,气象局,颗粒物(PM10),146,241,53,46,18,113,,126,126,17,21,22,14,1.0,0.9
2025-07-17T2100,2884A,98.2672,39.7978,嘉峪关市,酒钢宾馆,颗粒物(PM10),152,254,57,51,20,129,,138,138,10,15,23,16,1.5,1.8
2025-07-17T2100,3248A,98.2643,39.7724,嘉峪关市,雄关区,颗粒物(PM10),100,149,45,23,14,103,,115,115,20,24,13,10,0.8,0.7
2025-07-17T2100,1383A,113.1064,22.6058,江门市,北街,细颗粒物(PM2.5),57,40,29,40,20,95,,136,132,25,7,3,2,0.6,0.5
2025-07-17T2100,1384A,113.0731,22.5835,江门市,西区,,43,43,29,28,22,74,,112,105,23,9,5,5,0.8,0.6
2025-07-17T2100,1385A,113.0219,22.5311,江门市,圭峰西,,36,,30,25,20,88,,106,104,9,6,4,4,0.6,0.5
2025-07-17T2100,1386A,113.0828,22.5947,江门市,东湖,,37,37,28,19,17,89,,111,108,13,9,5,5,0.5,0.5
2025-07-17T2100,3311A,113.1075,22.5647,江门市,江海富民,颗粒物(PM10),51,52,35,29,15,100,,123,122,23,10,7,7,0.6,0.2
2025-07-17T2100,3449A,113.05,22.4667,江门市,新会银湖,,38,32,31,26,18,46,,112,102,14,9,2,3,0.3,0.3
2025-07-17T2100,1830A,113.1992,35.2590,焦作市,影视城,,,,19,,11,,,103,,,7,,16,,0.6
2025-07-17T2100,3335A,113.3137,35.2641,焦作市,马村街道办,,,64,45,20,20,,,167,165,18,14,4,9,0.5,0.7
2025-07-17T2100,3336A,113.2465,35.2373,焦作市,焦作技师学院,,44,39,37,9,13,140,,163,162,11,12,6,5,0.7,0.9
2025-07-17T2100,3477A,113.1656,35.2539,焦作市,中站许衡医院,,44,42,31,21,19,139,,167,166,15,11,7,7,0.5,0.5
2025-07-17T2100,3981A,113.2449,35.1803,焦作市,原李万街道办,,43,43,38,7,11,132,,171,166,15,14,6,8,0.7,0.7
2025-07-17T2100,4264A,113.2340,35.2190,焦作市,新安路1731号,,46,39,36,18,15,145,,175,174,12,8,6,5,0.3,0.3
2025-07-17T2100,4295A,113.2722,35.2121,焦作市,人民路3066号,,43,43,44,21,21,129,,163,161,19,13,8,6,0.3,0.3
2025-07-17T2100,1708A,116.3701,23.5345,揭阳市,新兴,颗粒物(PM10),62,74,42,40,27,70,,109,96,19,10,5,5,0.9,0.7
2025-07-17T2100,1709A,116.3264,23.5443,揭阳市,西马,细颗粒物(PM2.5),69,68,45,50,25,72,,98,87,9,6,1,2,0.9,0.7
2025-07-17T2100,1710A,116.3611,23.5626,揭阳市,东兴,细颗粒物(PM2.5),55,56,41,39,20,57,,95,84,15,8,2,1,1.1,0.9
2025-07-17T2100,1711A,116.4151,23.5294,揭阳市,渔湖,,,76,42,30,20,,,99,90,,9,5,2,0.7,0.5
2025-07-17T2100,3320A,116.403,23.5699,揭阳市,曲溪,颗粒物(PM10),52,54,42,35,23,61,,114,99,22,10,7,5,0.8,0.7
2025-07-17T2100,1944A,102.1692,38.5167,金昌市,天庆家园,颗粒物(PM10),500,605,98,101,28,115,,137,128,7,13,75,67,1.6,1
2025-07-17T2100,4022A,102.1647,38.5371,金昌市,金川区人防中心,,,,80,,31,,,144,138,6,10,8,16,0.7,0.7
2025-07-17T2100,4239A,102.1930,38.5319,金昌市,长春路96号,颗粒物(PM10),500,701,100,117,30,118,,138,133,4,5,22,26,0.3,0.7
2025-07-17T2100,1262A,119.647,29.077,金华市,十五中,,37,37,43,21,24,86,,150,137,25,20,3,2,0.4,0.4
2025-07-17T2100,1263A,119.686,29.1029,金华市,监测站,,30,29,44,16,24,93,,152,141,19,17,5,4,0.4,0.4
2025-07-17T2100,3659A,119.656,29.1131,金华市,气象局,,30,30,45,12,21,88,,147,132,22,16,7,4,0.6,0.6
2025-07-17T2100,1767A,121.1115,41.0879,锦州市,南山,,19,13,16,13,14,50,,66,63,12,9,5,6,0.8,0.8
2025-07-17T2100,1768A,121.0604,40.8428,锦州市,开发区,,22,15,22,6,13,70,,75,72,15,27,2,5,0.6,0.7
2025-07-17T2100,1769A,121.1836,41.1119,锦州市,百股街道,,,6,14,3,4,,,81,81,6,7,4,5,0.7,0.6
2025-07-17T2100,1770A,121.1178,41.1222,锦州市,天安街道,,21,9,13,3,8,67,,71,70,12,11,5,6,0.6,0.6
2025-07-17T2100,1771A,121.1303,41.1386,锦州市,北湖公园,,,,15,7,8,58,,65,64,5,6,4,4,0.6,0.5
2025-07-17T2100,2160A,112.85,35.5051,晋城市,自来水公司,臭氧1小时,70,55,48,17,17,176,,174,174,12,12,4,4,0.4,0.5
2025-07-17T2100,2161A,112.8318,35.4936,晋城市,白云商贸,臭氧1小时,53,53,43,7,9,162,,161,161,12,11,5,5,0.5,0.5
2025-07-17T2100,2162A,112.8508,35.4887,晋城市,市环保局,颗粒物(PM10),53,55,46,12,15,158,,158,158,8,8,4,4,0.3,0.4
2025-07-17T2100,2163A,112.8676,35.4897,晋城市,技术学院,,49,45,40,14,13,154,,151,151,9,9,4,4,0.5,0.5
2025-07-17T2100,2165A,112.8453,35.546,晋城市,白马寺,臭氧1小时,65,27,23,23,20,172,,169,169,7,5,6,7,0.5,0.5
2025-07-17T2100,3620A,112.8271,35.4828,晋城市,泽州一中,臭氧1小时,60,,35,17,13,168,,170,170,6,6,4,4,0.3,0.4
2025-07-17T2100,2173A,112.7249,37.7067,晋中市,南都小区,,40,33,43,18,22,126,,145,143,9,11,3,4,0.2,0.2
2025-07-17T2100,2174A,112.6991,37.6982,晋中市,榆次区政府,,43,36,47,17,17,135,,149,148,7,15,7,8,0.4,0.6
2025-07-17T2100,2865A,112.7195,37.6828,晋中市,榆次三中,,41,39,36,12,15,129,,146,144,10,11,7,7,0.5,0.6
2025-07-17T2100,4200A,112.7478,37.6954,晋中市,迎宾街26号,,39,36,44,12,15,122,,149,146,17,14,8,8,0.7,0.5
2025-07-17T2100,2439A,112.2014,31.0481,荆门市,竹园小学,,30,30,28,12,17,77,,88,88,11,14,2,3,0.8,0.6
2025-07-17T2100,2440A,112.1969,30.9891,荆门市,掇刀,,31,20,25,13,19,97,,100,100,13,19,6,7,0.7,0.6
2025-07-17T2100,2441A,112.2213,31.0386,荆门市,石化一小,,30,30,25,14,11,86,,104,104,9,11,9,8,1.0,0.6
2025-07-17T2100,3012A,112.1849,31.0362,荆门市,西山林语,,27,27,26,13,16,76,,89,89,2,5,6,6,0.6,0.5
2025-07-17T2100,3547A,112.1632,31.0138,荆门市,龙泉中学南校,,26,,21,18,17,83,,94,94,6,8,4,4,0.7,0.3
2025-07-17T2100,1844A,112.2494,30.3197,荆州市,市图书馆,,,28,28,17,14,91,,90,90,7,8,8,2,,0.6
2025-07-17T2100,1845A,112.2008,30.3544,荆州市,市委党校,,28,28,28,16,20,89,,90,90,14,15,1,3,0.7,0.7
2025-07-17T2100,3194A,112.2747,30.3122,荆州市,管委会,,33,25,29,23,23,84,,82,82,9,11,5,5,0.6,0.6
2025-07-17T2100,4268A,112.1722,30.3366,荆州市,学苑路85号,,30,27,35,19,24,94,,83,83,10,14,3,6,0.5,0.5
2025-07-17T2100,2342A,117.3102,29.3867,景德镇市,王港中学,,,,,,,,,,,,,,,,
2025-07-17T2100,2343A,117.2117,29.2933,景德镇市,老干部活动中心,,25,25,34,14,21,79,,114,105,5,11,6,6,0.4,0.7
2025-07-17T2100,2344A,117.1894,29.2789,景德镇市,兽医站,,28,27,41,19,24,86,,115,107,5,12,4,6,0.7,0.9
2025-07-17T2100,2345A,117.1547,29.2617,景德镇市,台达陶瓷,,,,46,,31,,,63,,,22,,34,,1.0
2025-07-17T2100,2346A,117.2461,29.2956,景德镇市,陶研所,,30,30,38,17,25,73,,116,105,10,12,4,12,0.8,0.9
2025-07-17T2100,1803A,115.9872,29.6815,九江市,十里,,48,,18,33,19,111,,131,131,15,13,4,4,0.8,0.7
2025-07-17T2100,1804A,115.9584,29.7046,九江市,茅山头,,39,33,22,25,13,124,,128,128,12,9,4,4,0.7,0.5
2025-07-17T2100,1805A,115.9877,29.7295,九江市,西园,,39,21,14,11,10,124,,131,131,20,23,6,6,0.9,0.6
2025-07-17T2100,1808A,115.9114,29.6038,九江市,综合工业园,,37,28,21,16,10,117,,117,117,26,18,7,6,2.0,1
2025-07-17T2100,1809A,116.0721,29.7535,九江市,石化总厂,,36,33,24,25,23,81,,112,112,34,16,8,9,0.7,0.6
2025-07-17T2100,1810A,115.9773,29.5698,九江市,庐山气象台,,37,17,15,14,6,117,,94,94,5,4,7,6,1.4,0.8
2025-07-17T2100,3190A,116.0254,29.6994,九江市,外国语学校,,33,24,16,22,13,105,,137,137,16,10,6,7,0.9,0.8
2025-07-17T2100,4253A,116.0102,29.6594,九江市,莲花大道8号,,38,16,15,8,11,119,,114,114,4,3,4,4,1.3,0.6
2025-07-17T2100,4240A,98.4958,39.7339,酒泉市,玉门东路5号,颗粒物(PM10),79,107,62,57,33,109,,116,116,12,15,47,18,0.5,0.4
2025-07-17T2100,4241A,98.5099,39.7506,酒泉市,北大街108号,颗粒物(PM10),90,129,65,30,20,124,,128,128,8,15,136,18,0.5,0.5
2025-07-17T2100,2698A,76.0072,39.4467,喀什地区,巡警大队,臭氧1小时,59,48,63,22,20,167,,155,155,12,19,4,4,0.3,0.4
2025-07-17T2100,2699A,75.9755,39.4694,喀什地区,吾办,颗粒物(PM10),83,115,69,26,27,148,,150,150,27,23,6,6,0.5,0.5
2025-07-17T2100,4027A,75.9483,39.4689,喀什地区,老干局,,49,44,68,13,18,156,,155,155,11,15,5,5,0.5,0.4
2025-07-17T2100,1824A,114.3389,34.7781,开封市,肿瘤医院,,45,40,32,11,15,142,,162,162,16,12,4,6,0.8,0.7
2025-07-17T2100,1826A,114.2885,34.7965,开封市,世纪星幼儿园,,49,31,31,17,19,154,,155,155,12,11,4,5,0.8,0.9
2025-07-17T2100,3147A,114.3438,34.8106,开封市,龙亭公园,,45,30,33,19,18,144,,154,154,10,11,2,3,0.5,0.5
2025-07-17T2100,3210A,114.3644,34.7964,开封市,汴京公园,,44,42,36,19,19,138,,155,155,13,12,4,7,0.5,0.5
2025-07-17T2100,3473A,114.2485,34.8306,开封市,技师学院,,48,,33,27,18,152,,150,150,8,11,4,5,0.7,0.7
2025-07-17T2100,3592A,114.4644,34.7556,开封市,祥符区生态环境局,,38,35,38,18,18,119,,151,145,26,21,4,5,0.6,0.5
2025-07-17T2100,1951A,84.895,45.6094,克拉玛依市,长征新村,,,21,28,8,10,113,,129,128,,10,3,4,0.2,0.3
2025-07-17T2100,1952A,84.8988,45.5893,克拉玛依市,南林小区,,38,22,30,10,11,119,,133,132,6,13,4,4,0.2,0.2
2025-07-17T2100,1954A,84.905,44.3396,克拉玛依市,独山子区,,33,21,20,10,9,104,,133,128,12,8,7,8,0.5,0.4
2025-07-17T2100,1955A,85.6979,46.098,克拉玛依市,乌尔禾区商贸楼,颗粒物(PM10),52,54,40,9,12,135,,125,125,1,7,6,5,0.5,0.5
2025-07-17T2100,3612A,85.1045,45.6899,克拉玛依市,白碱滩区新站,颗粒物(PM10),72,93,63,43,27,133,,145,145,6,10,9,9,0.5,0.5
2025-07-17T2100,2697A,76.1454,39.7142,克孜勒苏柯尔克孜自治州,市人民政府,,48,42,69,16,28,152,,144,144,6,18,4,10,0.1,0.2
2025-07-17T2100,3665A,76.1658,39.7157,克孜勒苏柯尔克孜自治州,克州文化中心,,46,44,70,19,30,145,,142,142,9,13,5,8,0.3,0.3
2025-07-17T2100,1450A,102.8204,24.8886,昆明市,呈贡新区,,21,12,20,10,21,66,,90,86,14,18,2,2,0.4,0.6
2025-07-17T2100,1451A,102.6251,24.9608,昆明市,西山森林公园,,,,,,,,,,,,,,,,
2025-07-17T2100,1452A,102.7252,25.0902,昆明市,龙泉镇,,28,28,22,12,13,70,,93,90,12,13,1,1,0.4,0.4
2025-07-17T2100,1453A,102.7266,25.0375,昆明市,东风东路,,22,19,30,9,16,68,,97,92,15,20,3,4,0.3,0.4
2025-07-17T2100,1454A,102.6742,25.0669,昆明市,金鼎山,,22,21,28,3,11,69,,101,94,10,14,1,1,0.3,0.4
2025-07-17T2100,1455A,102.6644,25.0401,昆明市,碧鸡广场,,20,14,30,7,16,64,,97,90,12,19,4,5,0.4,0.5
2025-07-17T2100,3179A,102.7494,25.0119,昆明市,官渡区博物馆,,23,20,27,6,15,72,,94,90,10,25,3,2,0.3,0.4
2025-07-17T2100,3375A,102.8017,24.8336,昆明市,青年创业园,,21,,28,10,20,67,,89,85,10,20,2,2,0.5,0.6
2025-07-17T2100,3550A,102.7997,24.9786,昆明市,昆明学院,,19,18,40,12,25,58,,95,90,24,30,5,7,0.4,0.4
2025-07-17T2100,3551A,102.5967,24.6736,昆明市,晋宁区生态环境分局,,21,19,24,7,17,65,,95,87,12,15,5,4,0.4,0.4
2025-07-17T2100,3552A,102.6678,24.9856,昆明市,云天化总部,,23,9,27,3,19,73,,107,101,9,23,3,4,0,0.2
2025-07-17T2100,1456A,91.1319,29.6514,拉萨市,八廓街,,35,13,10,7,6,111,,111,111,16,11,5,5,0.3,0.2
2025-07-17T2100,1457A,91.1221,29.6747,拉萨市,市环保局,,31,11,10,3,7,98,,114,114,14,10,4,5,0.3,0.2
2025-07-17T2100,1458A,91.0874,29.6475,拉萨市,区监测站,,31,9,9,3,6,98,,102,102,24,13,3,3,0.2,0.2
2025-07-17T2100,1459A,91.1774,29.6541,拉萨市,西藏大学,,35,7,8,6,6,110,,109,109,13,11,5,6,0.1,0.2
2025-07-17T2100,1460A,90.9798,29.6588,拉萨市,区辐射站,,29,26,14,9,8,92,,96,96,28,16,4,5,0.3,0.3
2025-07-17T2100,1461A,91.0834,29.6292,拉萨市,拉萨火车站,,35,,8,8,6,112,,106,106,13,10,4,4,0.2,0.2
2025-07-17T2100,2520A,109.2203,23.7256,来宾市,来宾技工学校,,35,35,31,21,17,80,,89,88,13,9,13,6,0.6,0.6
2025-07-17T2100,3535A,109.1781,23.7297,来宾市,兴宾区政府,,32,25,27,22,18,84,,94,93,13,10,6,7,0.6,0.6
2025-07-17T2100,4002A,109.2416,23.7461,来宾市,中南小学,,30,26,28,15,14,95,,94,94,8,8,4,4,0.5,0.6
2025-07-17T2100,1477A,104.1373,35.9454,兰州市,榆中兰大校区,,,,,,,,,,,,,,,,
2025-07-17T2100,1479A,103.831,36.0464,兰州市,铁路设计院,颗粒物(PM10),61,72,59,27,24,67,,120,108,46,25,8,8,0.4,0.4
2025-07-17T2100,3241A,103.7439,36.0842,兰州市,百合公园,,48,48,47,30,23,88,,122,112,14,15,1,4,0.7,0.5
2025-07-17T2100,3242A,103.9611,35.998,兰州市,和平,,37,37,27,21,18,91,,114,107,16,9,10,10,0.6,0.9
2025-07-17T2100,4236A,103.6293,36.0938,兰州市,庄浪东路808号,,46,46,54,22,31,44,,140,116,28,26,9,11,0.3,0.4
2025-07-17T2100,4237A,103.7251,36.1043,兰州市,安宁西路88号,细颗粒物(PM2.5),68,69,51,49,28,102,,148,136,11,11,8,6,0.4,0.4
2025-07-17T2100,4238A,103.8470,36.0676,兰州市,北滨河东路1号,,,,45,,26,,,127,121,34,18,7,8,0.5,0.6
2025-07-17T2100,3245A,103.6633,36.533,兰州新区,新区管委会,,46,46,43,18,24,124,,155,152,8,8,6,10,0.3,0.4
2025-07-17T2100,3246A,103.6975,36.4789,兰州新区,舟曲中学,,38,38,53,15,21,113,,142,138,10,9,4,7,0.4,0.5
2025-07-17T2100,1067A,116.6708,39.5111,廊坊市,药材公司,,31,24,30,10,11,97,,140,134,18,16,4,4,0.3,0.3
2025-07-17T2100,1068A,116.7214,39.5589,廊坊市,开发区,,35,24,30,14,13,111,,135,130,19,22,1,2,0.3,0.3
2025-07-17T2100,1070A,116.7244,39.5269,廊坊市,北华航天学院,,45,45,42,11,10,115,,138,132,13,12,2,3,0.3,0.3
2025-07-17T2100,2919A,116.7022,39.5453,廊坊市,河北工业大学,,47,47,42,9,10,116,,140,136,17,18,4,4,0.3,0.3
2025-07-17T2100,2535A,103.7723,29.5462,乐山市,花湖湾,,36,32,42,25,31,105,,144,126,10,15,2,3,0.5,0.8
2025-07-17T2100,2536A,103.7627,29.5844,乐山市,牛耳桥,,38,30,40,21,31,119,,165,143,7,18,5,5,0.7,0.8
2025-07-17T2100,2537A,103.7508,29.6006,乐山市,市第三水厂,,34,24,39,8,26,108,,160,140,13,24,3,3,0.8,0.8
2025-07-17T2100,2538A,103.7571,29.5664,乐山市,市监测站,,34,27,44,22,29,106,,157,131,10,16,5,6,0.7,1.1
2025-07-17T2100,3361A,103.7311,29.5628,乐山市,理工大学,,32,28,44,21,31,102,,154,135,13,16,4,5,0.8,1.2
2025-07-17T2100,2598A,100.2143,26.8576,丽江市,西南郊,,33,20,16,15,13,103,,113,111,8,8,6,6,0.7,0.8
2025-07-17T2100,2599A,100.2497,26.8802,丽江市,丽江古城,,40,34,22,28,14,82,,108,104,17,12,10,10,0.6,0.5
2025-07-17T2100,2600A,100.2203,26.8906,丽江市,市中心,,29,26,16,18,17,91,,111,108,19,12,9,8,0.7,0.5
2025-07-17T2100,1267A,119.914,28.4514,丽水市,监测站大楼,,31,31,24,16,11,85,,95,90,13,12,4,3,0.4,0.4
2025-07-17T2100,1268A,119.93,28.4586,丽水市,莲都小学,,22,21,24,9,10,68,,92,85,11,13,3,3,0.3,0.3
2025-07-17T2100,1269A,119.879,28.4231,丽水市,余庄前,,23,23,24,16,18,62,,103,84,13,8,4,4,0.4,0.4
2025-07-17T2100,1173A,119.176,34.5885,连云港市,市环境监测站,,41,22,22,14,15,129,,171,165,14,12,5,5,0.3,0.4
2025-07-17T2100,3000A,119.3581,34.6972,连云港市,德源药业,,32,24,20,9,9,101,,141,132,22,15,4,4,0.7,0.7
2025-07-17T2100,3007A,119.178,34.844,连云港市,新城一中,,35,23,26,11,15,109,,148,142,31,16,4,7,0.6,0.9
2025-07-17T2100,3008A,119.3608,34.7519,连云港市,胡沟管理处,,30,22,15,9,6,93,,140,126,37,12,7,6,0.5,0.5
2025-07-17T2100,3009A,119.1478,34.5911,连云港市,矿山设计院,,41,22,23,14,14,130,,170,164,15,9,4,4,0.5,0.5
2025-07-17T2100,3434A,119.2413,34.6539,连云港市,工贸学校,,41,19,23,9,12,129,,167,163,3,4,6,7,0.7,0.8
2025-07-17T2100,3664A,119.4172,34.7341,连云港市,连云街道,,40,20,19,13,13,126,,150,145,11,13,2,3,0.5,0.6
2025-07-17T2100,2571A,102.3431,27.8099,凉山彝族自治州,青龙寺,,27,27,30,13,12,72,,126,118,10,9,7,7,0.6,0.6
2025-07-17T2100,2572A,102.2721,27.8415,凉山彝族自治州,邛海宾馆,,,41,33,27,23,,,148,148,,17,8,10,0.4,0.5
2025-07-17T2100,2573A,102.2625,27.898,凉山彝族自治州,西昌市政府,细颗粒物(PM2.5),52,40,29,36,23,98,,145,139,11,8,7,8,0.5,0.5
2025-07-17T2100,2574A,102.2685,27.8851,凉山彝族自治州,凉山州政府,,39,32,31,27,22,106,,151,144,14,16,9,11,0.6,0.7
2025-07-17T2100,4229A,102.2342,27.8859,凉山彝族自治州,凯乐南路30号,,32,32,33,18,21,102,,140,136,7,16,8,10,0.5,0.7
2025-07-17T2100,2212A,123.2,41.1953,辽阳市,宏伟区,,46,,24,32,10,57,,144,117,28,11,2,7,0.7,0.7
2025-07-17T2100,2213A,123.1683,41.2495,辽阳市,新华园,,30,27,24,21,11,92,,147,128,15,12,4,7,0.5,0.6
2025-07-17T2100,2214A,123.2354,41.2639,辽阳市,滨河路,,30,30,25,19,12,88,,141,127,16,15,3,4,0.5,0.4
2025-07-17T2100,2215A,123.149,41.2991,辽阳市,铁西工业园,,44,44,28,19,11,47,,117,99,28,11,3,4,0.7,0.8
2025-07-17T2100,2227A,125.1358,42.8845,辽源市,环保局,,40,40,31,8,7,72,,106,104,17,11,7,6,0.6,0.5
2025-07-17T2100,3239A,125.0764,42.9078,辽源市,银鹰制药,,31,31,17,14,10,38,,106,94,39,17,5,10,0.5,0.4
2025-07-17T2100,1625A,115.9848,36.4372,聊城市,区政府,,42,24,27,16,16,134,,152,150,11,12,5,7,0.6,0.7
2025-07-17T2100,2878A,116.0072,36.4343,聊城市,聊大东校,,41,31,29,19,20,130,,155,153,13,12,5,6,0.7,0.8
2025-07-17T2100,3200A,115.9819,36.4978,聊城市,监控中心,,38,24,22,9,15,120,,158,152,17,14,6,8,0.6,0.6
2025-07-17T2100,3513A,116.0445,36.4361,聊城市,九州社区,,38,38,37,17,17,113,,148,142,22,14,3,5,0.5,0.5
2025-07-17T2100,4018A,116.0567,36.4608,聊城市,星美广场,,42,42,38,13,16,120,,152,147,14,13,4,5,0.6,0.6
2025-07-17T2100,2632A,94.3681,29.6376,林芝市,林芝监测站,,25,14,8,11,12,80,,104,103,7,3,6,5,0.5,0.4
2025-07-17T2100,2633A,94.3616,29.6616,林芝市,林芝人民医院,,27,16,8,8,5,85,,103,103,6,2,4,4,0.3,0.3
2025-07-17T2100,2603A,100.0781,23.8982,临沧市,市环保局,,43,,20,30,17,31,,70,56,10,8,8,8,0.4,0.3
2025-07-17T2100,2604A,100.0894,23.8822,临沧市,市气象局,,25,25,17,17,10,32,,66,55,9,8,10,9,0.6,0.5
2025-07-17T2100,1733A,111.5531,36.0783,临汾市,临钢医院,颗粒物(PM10),58,66,54,18,19,125,,193,187,11,14,6,8,0.7,0.7
2025-07-17T2100,1734A,111.5028,36.0714,临汾市,技工学校,颗粒物(PM10),52,54,55,26,29,132,,194,187,11,13,4,6,0.4,0.6
2025-07-17T2100,1736A,111.5018,36.0855,临汾市,市委,,50,50,63,17,17,142,,210,202,14,15,7,9,0.4,0.6
2025-07-17T2100,3018A,111.505,36.1014,临汾市,唐尧大酒店,颗粒物(PM10),60,70,62,19,17,135,,203,196,13,14,4,5,0.5,0.7
2025-07-17T2100,4244A,111.4879,36.0530,临汾市,启星学校,颗粒物(PM10),52,54,52,35,33,127,,194,183,12,15,5,8,0.4,0.6
2025-07-17T2100,4271A,103.2464,35.6123,临夏回族自治州,滨河东路1号,,,76,58,24,24,,,105,105,10,15,5,5,0.3,0.4
2025-07-17T2100,4310A,103.2093,35.5995,临夏回族自治州,新华街21号,颗粒物(PM10),59,68,61,38,28,95,,110,110,6,14,6,6,0.4,0.4
2025-07-17T2100,1618A,118.3429,35.0532,临沂市,沂河小区,,43,31,26,20,18,136,,163,161,19,12,9,8,0.6,0.4
2025-07-17T2100,1619A,118.295,35.0583,临沂市,鲁南制药厂,,47,24,22,19,14,150,,173,171,13,8,8,8,0.7,0.5
2025-07-17T2100,1620A,118.2794,34.9976,临沂市,新光毛纺厂,,46,22,16,17,15,145,,171,169,17,11,8,7,0.6,0.5
2025-07-17T2100,1621A,118.3956,35.0888,临沂市,河东保险公司,,39,31,22,13,10,124,,170,166,23,13,5,6,0.6,0.5
2025-07-17T2100,3370A,118.3564,35.0215,临沂市,十里堡居委,,50,22,19,22,16,160,,183,182,15,12,10,9,0.8,0.6
2025-07-17T2100,3496A,118.3604,35.1084,临沂市,南坊新区,,39,39,27,12,11,124,,173,168,23,14,9,9,0.5,0.4
2025-07-17T2100,3860A,118.3920,35.0300,临沂市,皇山花园小区,,,,22,,18,,,122,,,12,,10,,0.3
2025-07-17T2100,1870A,109.4856,24.3895,柳州市,柳东小学,,32,28,26,22,17,88,,98,96,4,5,4,6,0.5,0.5
2025-07-17T2100,1871A,109.4157,24.3277,柳州市,环保监测站,,32,29,27,10,14,102,,102,102,6,6,7,7,0.4,0.5
2025-07-17T2100,1872A,109.389,24.341,柳州市,河西水厂,,,,28,,17,,,106,106,10,9,4,5,,0.4
2025-07-17T2100,1873A,109.4311,24.2921,柳州市,市四中,,32,30,30,21,17,100,,104,104,12,11,7,6,0.6,0.5
2025-07-17T2100,1874A,109.4006,24.3631,柳州市,市九中,颗粒物(PM10),53,56,36,15,15,97,,100,100,8,7,3,3,0.4,0.4
2025-07-17T2100,1875A,109.4958,24.3134,柳州市,古亭山,,34,34,29,18,15,43,,89,81,18,9,4,4,0.6,0.6
2025-07-17T2100,3402A,109.5422,24.3996,柳州市,市二中,,26,19,29,13,17,81,,98,95,10,10,15,10,0.6,0.6
2025-07-17T2100,2307A,116.5079,31.737,六安市,监测大楼,,41,21,20,21,15,130,,138,138,5,3,5,5,0.5,0.5
2025-07-17T2100,2308A,116.4738,31.7643,六安市,皖西学院,,,,18,24,14,,,138,138,8,3,2,2,0.4,0.2
2025-07-17T2100,2309A,116.4996,31.7905,六安市,朝阳厂,,39,21,18,20,14,122,,137,137,12,7,4,4,0.4,0.4
2025-07-17T2100,2310A,116.5567,31.7886,六安市,开发区,,35,,17,23,15,110,,126,126,9,5,2,3,0.4,0.4
2025-07-17T2100,2576A,104.8,26.5892,六盘水市,窑上,,33,33,31,12,8,49,,98,89,4,4,4,5,0.3,0.3
2025-07-17T2100,2577A,104.83,26.5917,六盘水市,黄土坡,,24,22,22,7,12,74,,106,99,12,10,9,9,0.3,0.4
2025-07-17T2100,2578A,104.89,26.5939,六盘水市,水钢,,26,23,30,15,21,82,,110,105,9,9,6,6,0.5,0.5
2025-07-17T2100,2579A,104.8475,26.5894,六盘水市,民中,,28,18,24,9,12,87,,109,103,7,14,8,9,0.4,0.5
2025-07-17T2100,2580A,104.9544,26.5506,六盘水市,双水,,22,19,18,9,11,70,,99,94,12,7,10,10,0.2,0.2
2025-07-17T2100,2335A,117.0189,25.1181,龙岩市,龙岩师专,,,,,,,,,,,,,,,,
2025-07-17T2100,2336A,117.0217,25.1033,龙岩市,龙岩市监测站,,18,,32,3,17,55,,98,78,13,12,3,6,0.5,0.6
2025-07-17T2100,2337A,117.0258,25.0661,龙岩市,闽西职业技术学院,,15,8,37,3,19,45,,93,76,13,12,3,10,0.4,0.5
2025-07-17T2100,2338A,117.0196,25.0306,龙岩市,龙岩学院,,18,13,27,3,18,56,,90,76,4,7,3,2,0.3,0.4
2025-07-17T2100,2665A,105.0822,33.3261,陇南市,汉王镇固水子,,,,,,,,,,,,,,,,
2025-07-17T2100,2885A,104.9339,33.3826,陇南市,滨江中学,颗粒物(PM10),51,52,37,19,18,119,,120,119,2,4,6,7,0.4,0.5
2025-07-17T2100,3247A,104.955,33.371,陇南市,市总工会,,50,50,48,21,20,137,,132,132,4,5,4,5,0.3,0.3
2025-07-17T2100,2487A,111.9589,27.8901,娄底市,电视发射台,颗粒物(PM10),54,58,40,19,16,25,,55,39,5,6,7,7,0.4,0.4
2025-07-17T2100,2488A,111.9975,27.725,娄底市,市监测站,,38,,26,26,20,73,,93,90,14,9,4,7,0.5,0.5
2025-07-17T2100,2489A,112.0194,27.7314,娄底市,市委党校,,42,31,25,29,19,99,,112,112,8,8,8,9,0.6,0.4
2025-07-17T2100,2490A,111.9561,27.7569,娄底市,涟钢,,32,32,32,17,21,65,,91,83,22,17,15,18,1.0,1
2025-07-17T2100,2491A,111.9892,27.7044,娄底市,市政府,,49,,24,34,21,81,,94,93,4,4,7,9,0.8,0.8
2025-07-17T2100,1893A,105.4324,28.9634,泸州市,九狮山,,48,,40,33,28,64,,150,126,20,17,3,3,0.5,0.3
2025-07-17T2100,1894A,105.4427,28.9063,泸州市,小市上码头,,32,32,35,14,19,93,,,,8,14,2,4,0.3,0.3
2025-07-17T2100,1895A,105.4241,28.8573,泸州市,兰田宪桥,,31,31,38,15,20,94,,133,122,12,18,8,8,0.4,0.3
2025-07-17T2100,1896A,105.4379,28.8833,泸州市,市环监站,,31,24,32,18,24,99,,141,129,10,14,8,7,0.3,0.3
2025-07-17T2100,4272A,105.3689,28.7783,泸州市,纳溪中医医院,,37,37,36,21,23,95,,138,127,22,21,4,4,0.6,0.6
2025-07-17T2100,2183A,111.1406,37.5211,吕梁市,环保局,,30,27,43,21,12,81,,145,135,40,26,3,4,0.5,0.4
2025-07-17T2100,2185A,111.1297,37.5136,吕梁市,自来水公司,,34,34,56,18,12,90,,147,138,26,24,2,3,0.3,0.4
2025-07-17T2100,2867A,111.1283,37.51,吕梁市,马茂庄小学,,33,33,45,15,12,89,,144,135,36,26,6,6,0.5,0.4
2025-07-17T2100,1812A,112.3931,34.6516,洛阳市,市委党校,臭氧1小时,78,33,32,14,17,182,,180,179,11,11,7,10,0.4,0.5
2025-07-17T2100,1815A,112.494,34.6886,洛阳市,河南林校,臭氧1小时,73,42,45,21,22,178,,199,197,13,15,6,9,0.7,0.8
2025-07-17T2100,1816A,112.3844,34.623,洛阳市,开发区管委会,臭氧1小时,69,32,30,22,18,175,,170,170,8,8,2,5,0.5,0.5
2025-07-17T2100,1817A,112.4267,34.6258,洛阳市,市委新办公区,,50,38,32,20,23,160,,169,166,15,14,9,11,0.6,0.5
2025-07-17T2100,3340A,112.6005,34.6326,洛阳市,伊滨,,49,44,48,16,21,154,,183,180,13,13,5,6,0.8,0.8
2025-07-17T2100,3341A,112.4951,34.6332,洛阳市,中移产业园,,50,40,40,15,20,159,,182,180,15,13,7,8,0.7,0.8
2025-07-17T2100,3593A,112.5736,34.8993,洛阳市,吉利监测站,,48,44,46,18,24,152,,197,193,23,12,5,10,0.6,0.6
2025-07-17T2100,3635A,112.3677,34.662,洛阳市,河科大西苑校区,臭氧1小时,68,33,34,10,14,174,,170,170,7,7,7,9,0.3,0.4
2025-07-17T2100,3636A,112.4388,34.6781,洛阳市,英才小学,臭氧1小时,52,42,53,19,23,161,,175,174,8,10,6,10,0.5,0.6
2025-07-17T2100,4214A,112.4600,34.6949,洛阳市,春都路1号院,,50,35,40,14,17,160,,181,177,14,11,6,7,0.5,0.6
2025-07-17T2100,2399A,114.051,33.5699,漯河市,三五一五工厂,颗粒物(PM10),54,57,36,20,26,123,,165,154,13,10,4,4,0.6,0.7
2025-07-17T2100,2400A,114.0055,33.5698,漯河市,漯河大学,,45,32,67,14,22,144,,179,169,11,10,4,4,0.5,0.5
2025-07-17T2100,2401A,114.0138,33.5828,漯河市,市水利局,,,,41,,25,,,155,152,,11,,5,,0.5
2025-07-17T2100,2402A,114.0261,33.5698,漯河市,市广电局,,45,32,36,14,23,144,,174,166,9,10,2,2,0.5,0.5
2025-07-17T2100,3478A,113.9749,33.5664,漯河市,市图书馆,,44,,34,20,24,139,,170,163,8,8,5,7,0.5,0.6
2025-07-17T2100,4250A,114.0892,33.5882,漯河市,韶山路11号,,43,43,38,22,26,97,,147,135,24,14,2,2,0.3,0.5
2025-07-17T2100,1798A,118.5092,31.6837,马鞍山市,湖东路四小,细颗粒物(PM2.5),75,,31,55,18,133,,141,141,14,13,6,8,0.7,0.7
2025-07-17T2100,1799A,118.5024,31.6449,马鞍山市,开发区,,49,49,26,29,12,143,,151,151,11,13,6,8,0.7,0.7
2025-07-17T2100,1802A,118.6245,31.7241,马鞍山市,濮塘,细颗粒物(PM2.5),69,,22,50,14,105,,146,142,9,9,6,7,0.7,0.8
2025-07-17T2100,3633A,118.4918,31.6809,马鞍山市,雨山,,46,46,23,29,13,129,,132,132,15,15,5,7,0.7,0.8
2025-07-17T2100,4191A,118.5274,31.72227,马鞍山市,慈湖高新区,颗粒物(PM10),57,64,31,36,15,136,,141,141,14,19,7,10,0.7,0.8
2025-07-17T2100,1686A,111.0286,21.4688,茂名市,电白南海,,36,31,31,19,21,114,,95,95,10,8,4,6,0.5,0.4
2025-07-17T2100,1687A,110.9294,21.6533,茂名市,茂石化七小,,29,29,36,17,20,57,,81,77,9,9,5,6,0.4,0.4
2025-07-17T2100,1688A,110.9107,21.6687,茂名市,健康路,,39,27,31,27,17,61,,87,82,10,10,10,8,0.5,0.5
2025-07-17T2100,1689A,110.8592,21.6828,茂名市,高岭,,,44,43,19,16,,,143,,17,15,23,6,0.3,0.4
2025-07-17T2100,3450A,111.01,21.5165,茂名市,电白水东,,36,36,28,19,14,98,,92,92,10,9,7,10,0.7,0.5
2025-07-17T2100,2539A,104.0308,30.0478,眉山市,黑龙滩水库,,43,31,27,30,13,72,,54,54,17,24,1,2,0.6,0.7
2025-07-17T2100,2540A,103.8416,30.0874,眉山市,气象局,颗粒物(PM10),56,62,51,19,27,110,,142,138,15,27,3,2,0.6,0.6
2025-07-17T2100,3137A,103.8578,30.0744,眉山市,市委党校,,,39,42,19,25,,,155,153,21,30,6,7,0.5,0.7
2025-07-17T2100,3148A,103.8291,30.0564,眉山市,区人社局,,45,39,50,19,20,141,,161,155,15,23,8,9,0.8,0.8
2025-07-17T2100,1690A,116.1231,24.3284,梅州市,梅江月梅,,36,36,34,24,22,46,,91,76,9,7,6,10,0.8,0.8
2025-07-17T2100,1691A,116.0797,24.2719,梅州市,梅县新城,,,,38,,23,,,100,91,,12,,6,,0.5
2025-07-17T2100,1692A,116.1248,24.2654,梅州市,环境监控中心,,35,35,38,16,21,56,,102,84,19,14,4,5,0.4,0.4
2025-07-17T2100,3315A,116.1233,24.2991,梅州市,梅龙,颗粒物(PM10),56,61,34,18,11,38,,99,83,18,8,12,10,0.8,0.7
2025-07-17T2100,1878A,104.7778,31.4741,绵阳市,富乐山,,26,26,40,15,29,46,,144,112,22,13,8,9,0.8,0.7
2025-07-17T2100,1880A,104.6697,31.4668,绵阳市,高新区自来水公司,,47,47,51,29,26,114,,141,128,18,21,10,9,0.6,0.6
2025-07-17T2100,1881A,104.7287,31.5075,绵阳市,三水厂,,37,37,48,19,32,64,,149,129,46,25,6,6,0.5,0.5
2025-07-17T2100,3491A,104.69,31.5322,绵阳市,西科大附属小学,,48,48,52,29,28,62,,138,122,46,28,8,7,0.8,0.8
2025-07-17T2100,3492A,104.5648,31.5343,绵阳市,安州区旅游局,,41,41,46,19,24,114,,150,139,16,12,3,4,0.4,0.3
2025-07-17T2100,4226A,104.7651,31.4531,绵阳市,绵阳市气象局,,34,34,42,23,28,48,,142,123,36,18,3,5,0.7,0.6
2025-07-17T2100,1784A,129.61,44.561,牡丹江市,环保大楼,,30,25,15,21,11,50,,86,77,15,11,1,1,0.3,0.3
2025-07-17T2100,1785A,129.6115,44.5782,牡丹江市,文化广场,,16,15,14,9,11,49,,80,72,18,13,6,6,0.5,0.4
2025-07-17T2100,1786A,129.5904,44.5963,牡丹江市,第一医院,,33,33,15,22,15,34,,87,76,28,14,6,5,0.4,0.3
2025-07-17T2100,1787A,129.6364,44.6075,牡丹江市,机车工厂,,31,31,23,20,11,39,,82,71,16,12,5,5,0.5,0.4
2025-07-17T2100,1788A,129.6386,44.5462,牡丹江市,第一中学,,30,,17,21,10,35,,82,66,17,15,5,5,0.5,0.5
2025-07-17T2100,2531A,105.0703,29.61,内江市,市监测站,,40,22,28,22,28,128,,181,167,12,16,5,8,0.7,0.7
2025-07-17T2100,2532A,105.0717,29.5947,内江市,东兴区政府,,35,24,29,17,20,109,,172,156,21,16,6,5,0.5,0.6
2025-07-17T2100,2533A,105.0653,29.5817,内江市,内江二中,,35,25,34,23,31,111,,155,155,16,18,5,5,0.5,0.6
2025-07-17T2100,2534A,105.0406,29.5822,内江市,内江日报社,,33,26,30,19,23,103,,147,139,19,24,2,3,0.5,0.6
2025-07-17T2100,2628A,92.0657,31.4846,那曲市,那曲监测站,,31,27,25,11,14,98,,113,112,12,13,8,15,0.4,0.4
2025-07-17T2100,4243A,92.0515,31.4787,那曲市,那曲市委宣传部,,36,24,13,11,7,115,,128,126,8,6,5,4,0.3,0.2
2025-07-17T2100,1290A,115.8931,28.6843,南昌市,省外办,,39,30,37,27,26,102,,139,137,10,17,6,10,0.6,0.6
2025-07-17T2100,1291A,115.8886,28.7003,南昌市,省林业公司,,41,41,38,19,20,37,,137,130,10,19,10,12,0.6,0.6
2025-07-17T2100,1292A,115.8126,28.7442,南昌市,林科所,,22,22,29,14,17,60,,121,114,14,22,5,8,0.4,0.4
2025-07-17T2100,1294A,115.8518,28.687,南昌市,建工学校,,42,42,49,14,16,101,,148,146,12,24,8,14,0.6,0.6
2025-07-17T2100,1295A,115.8921,28.6424,南昌市,象湖,,43,43,42,22,22,118,,162,161,9,17,7,11,0.6,0.7
2025-07-17T2100,1296A,115.7423,28.7996,南昌市,武术学校,细颗粒物(PM2.5),58,,22,41,12,32,,63,51,5,5,35,13,0.9,0.6
2025-07-17T2100,3046A,115.9084,28.6062,南昌市,机电学校,颗粒物(PM10),51,52,51,29,26,138,,162,162,14,20,6,8,0.8,0.8
2025-07-17T2100,3690A,115.9721,28.7031,南昌市,外国语学校,,,41,37,22,16,,,131,,20,15,12,14,0.4,0.7
2025-07-17T2100,4192A,115.9316,28.68677,南昌市,南京东路235号,,43,38,40,17,20,137,,146,146,9,17,3,7,0.7,0.7
2025-07-17T2100,1905A,106.056,30.8064,南充市,西山风景区,,,,,,,,,,,,,,,,
2025-07-17T2100,1906A,106.0789,30.8023,南充市,南充市委,臭氧1小时,78,24,36,13,33,182,,169,169,16,16,4,5,0.6,0.5
2025-07-17T2100,1907A,106.1031,30.8217,南充市,南充炼油厂,,,,40,39,31,162,,164,164,14,17,5,7,0.2,0.4
2025-07-17T2100,4227A,106.1083,30.7884,南充市,梨树横街98号,,50,46,42,31,26,158,,161,161,15,13,4,3,0.5,0.4
2025-07-17T2100,4304A,106.1172,30.843,南充市,清泉寺北路188号,臭氧1小时,52,46,43,20,31,161,,146,146,15,12,4,3,0.3,0.3
2025-07-17T2100,4305A,106.067,30.7616,南充市,同庆路1号,,49,29,42,22,27,156,,157,157,20,16,3,2,0.4,0.4
2025-07-17T2100,1151A,118.8086,32.1065,南京市,迈皋桥,,48,31,20,19,12,153,,165,154,8,19,4,4,0.3,0.5
2025-07-17T2100,1152A,118.7538,32.0551,南京市,草场门,,44,36,18,24,10,138,,147,146,14,12,7,8,0.7,0.6
2025-07-17T2100,1153A,118.7794,32.0745,南京市,山西路,,47,39,24,22,6,149,,154,151,9,13,5,4,0.6,0.6
2025-07-17T2100,1154A,118.7752,32.0023,南京市,中华门,,43,22,18,19,7,136,,144,141,9,8,12,11,0.7,0.6
2025-07-17T2100,1155A,118.8109,32.0309,南京市,瑞金路,,45,31,17,27,11,144,,150,147,2,11,7,7,0.2,0.2
2025-07-17T2100,1156A,118.7997,32.0754,南京市,玄武湖,,39,34,27,18,9,122,,134,130,13,11,9,9,0.6,0.6
2025-07-17T2100,1157A,118.6414,32.0931,南京市,浦口,,39,28,19,17,7,124,,136,135,10,7,4,4,0.6,0.4
2025-07-17T2100,1158A,118.7356,31.9996,南京市,奥体中心,,,33,18,29,10,,,149,149,9,11,4,4,0.4,0.1
2025-07-17T2100,1159A,118.9125,32.1028,南京市,仙林大学城,,45,41,28,19,9,143,,163,149,8,10,5,7,0.7,0.7
2025-07-17T2100,3422A,118.8436,31.9198,南京市,江宁彩虹桥,,41,30,26,24,13,129,,154,148,13,10,4,4,0.7,0.8
2025-07-17T2100,3427A,118.8554,32.3578,南京市,六合雄州,,,76,24,30,9,,,137,137,15,12,3,6,,0.8
2025-07-17T2100,4249A,118.8708,31.3402,南京市,汶溪路181号,,44,35,17,22,13,139,,172,166,12,11,5,7,0.7,0.7
2025-07-17T2100,4312A,119.019,31.6512,南京市,中山西路1号,,38,27,17,25,16,120,,163,156,11,8,3,4,0.8,0.8
2025-07-17T2100,1401A,108.3103,22.7881,南宁市,二十一中,,26,,29,18,14,54,,95,88,15,7,5,4,0.5,0.5
2025-07-17T2100,1402A,108.3141,22.8528,南宁市,北湖,,,22,27,15,15,,,121,121,12,8,3,4,0.5,0.5
2025-07-17T2100,1403A,108.3206,22.8225,南宁市,市监测站,,23,23,27,15,15,69,,105,101,11,8,7,7,0.4,0.5
2025-07-17T2100,1404A,108.3829,22.8037,南宁市,大自然花园,,27,26,28,15,14,85,,105,101,8,6,5,4,0.4,0.3
2025-07-17T2100,1405A,108.4394,22.7904,南宁市,仙葫,,26,23,26,15,16,81,,87,84,8,8,9,8,0.9,0.8
2025-07-17T2100,1406A,108.2397,22.8467,南宁市,区农职院,,35,35,27,12,16,66,,108,105,18,11,3,3,0.6,0.6
2025-07-17T2100,1407A,108.3275,22.735,南宁市,英华嘉园,,22,20,27,15,14,66,,100,91,20,10,2,1,0.6,0.5
2025-07-17T2100,3401A,108.4834,22.7618,南宁市,红星社区,细颗粒物(PM2.5),54,,26,38,17,85,,96,92,9,6,3,2,0.6,0.4
2025-07-17T2100,4221A,108.2177,22.7774,南宁市,乐贤路16号,,30,30,31,16,15,51,,99,94,22,15,6,5,0.6,0.6
2025-07-17T2100,2331A,118.0966,26.6761,南平市,茫荡山,,,,,,,,,,,,,,,,
2025-07-17T2100,2332A,118.1681,26.6369,南平市,南平市监测站,,23,20,28,16,20,51,,88,73,10,12,5,5,0.6,0.6
2025-07-17T2100,2333A,118.1825,26.6489,南平市,南平铝业有限公司,,29,29,30,12,18,65,,93,80,13,13,6,5,0.7,0.6
2025-07-17T2100,2334A,118.1756,26.6272,南平市,南平七中,,21,21,31,12,18,58,,81,70,6,10,4,4,0.5,0.6
2025-07-17T2100,1168A,120.9098,31.9663,南通市,狼山街道,,38,22,32,11,20,121,,166,146,6,20,2,4,0.7,1
2025-07-17T2100,1169A,120.86,32.0005,南通市,虹桥,,40,25,28,15,19,128,,166,148,8,24,1,3,0.8,1
2025-07-17T2100,1170A,120.87,32.02,南通市,城中,,34,28,38,12,20,106,,134,119,5,18,3,5,0.6,0.8
2025-07-17T2100,1171A,120.94,31.93,南通市,星湖花园,,37,19,31,11,22,117,,169,142,8,23,2,5,0.4,0.7
2025-07-17T2100,1172A,120.81,32.0417,南通市,紫琅学院,,34,21,30,8,16,107,,136,120,7,22,4,7,0.8,1
2025-07-17T2100,3291A,121.067,32.062,南通市,通州监测站,,35,17,29,9,20,112,,154,126,4,14,7,7,0.8,0.9
2025-07-17T2100,3432A,120.9348,31.9883,南通市,环境教育馆,,,36,36,13,18,119,,167,140,,17,4,4,0.4,0.5
2025-07-17T2100,2404A,112.5224,33.0122,南阳市,瓦房庄,臭氧1小时,72,38,38,15,20,177,,167,167,13,9,7,7,0.5,0.5
2025-07-17T2100,2405A,112.5003,32.9735,南阳市,汉画馆,臭氧1小时,70,33,37,8,14,176,,165,165,11,11,6,8,0.4,0.4
2025-07-17T2100,2406A,112.5573,33.027,南阳市,气象站,臭氧1小时,65,31,34,19,18,172,,175,175,10,7,7,6,0.5,0.5
2025-07-17T2100,2407A,112.5481,32.9689,南阳市,理工学院,臭氧1小时,69,37,35,8,13,175,,172,172,10,8,6,7,0.5,0.5
2025-07-17T2100,4008A,112.5234,32.9922,南阳市,卧龙区政府,臭氧1小时,68,32,38,17,19,174,,169,169,12,10,5,7,0.6,0.6
2025-07-17T2100,1234A,121.8358,29.911,宁波市,区环保大楼,,42,42,37,18,19,62,,86,77,15,8,3,3,0.4,0.5
2025-07-17T2100,1235A,121.56,29.82,宁波市,万里学院,,39,36,35,27,23,78,,100,92,13,12,3,4,0.5,0.6
2025-07-17T2100,1236A,121.713,29.9572,宁波市,龙赛医院,,28,28,32,14,17,69,,92,85,12,7,4,4,0.4,0.4
2025-07-17T2100,1239A,121.633,29.7733,宁波市,钱湖水厂,,32,32,25,21,18,66,,91,83,6,5,4,4,0.5,0.5
2025-07-17T2100,1240A,121.5856,29.8635,宁波市,太古小学,,32,32,32,17,17,65,,96,85,10,7,2,4,0.4,0.6
2025-07-17T2100,1241A,121.524,29.8674,宁波市,市环境监测中心,,38,36,31,26,18,68,,96,88,15,11,4,5,0.8,0.6
2025-07-17T2100,2871A,121.6147,29.9017,宁波市,万里国际学校,,25,23,24,14,15,77,,104,94,7,6,3,4,0.6,0.6
2025-07-17T2100,3710A,121.5594,29.8975,宁波市,白沙活动中心,,30,30,25,20,17,79,,105,96,11,8,6,5,0.5,0.5
2025-07-17T2100,2339A,119.5001,26.6946,宁德市,金涵水库,,,,,,,,,,,,,,,,
2025-07-17T2100,2341A,119.5388,26.6612,宁德市,宁德市监测站,,41,41,36,27,21,78,,119,116,18,15,8,8,0.6,0.6
2025-07-17T2100,3209A,119.5231,26.6562,宁德市,宁德一中,,50,50,36,32,25,84,,122,119,12,12,4,5,0.5,0.6
2025-07-17T2100,2618A,98.8601,25.8567,怒江傈僳族自治州,州监测站,,,,23,55,15,,,84,80,10,8,6,9,0.4,0.4
2025-07-17T2100,2619A,98.8546,25.8417,怒江傈僳族自治州,泸水一中,,29,29,16,7,10,25,,57,,17,11,6,6,0.4,0.2
2025-07-17T2100,1888A,101.6891,26.571,攀枝花市,弄弄坪,颗粒物(PM10),54,57,66,35,29,91,,139,134,25,20,14,43,1.7,0.9
2025-07-17T2100,1889A,101.5769,26.5928,攀枝花市,河门口,,38,38,37,22,19,111,,152,145,12,16,7,21,0.5,1.2
2025-07-17T2100,1890A,101.7169,26.585,攀枝花市,炳草岗,,48,48,55,27,28,118,,144,142,12,17,10,44,0.6,0.8
2025-07-17T2100,1891A,101.7369,26.5008,攀枝花市,仁和,,,44,39,29,26,,,129,126,14,13,7,13,0.6,0.6
2025-07-17T2100,2835A,101.7227,26.567,攀枝花市,四十中小,,47,47,46,30,29,96,,154,146,36,16,9,67,1.0,1
2025-07-17T2100,1604A,122.0303,41.1489,盘锦市,开发区,,22,9,24,6,20,68,,100,87,8,16,9,10,0.5,0.6
2025-07-17T2100,1605A,122.0485,41.0883,盘锦市,兴隆台,,20,13,27,13,15,64,,114,95,18,18,6,7,0.5,0.7
2025-07-17T2100,1606A,121.8297,41.1028,盘锦市,新生街道,,19,8,16,3,13,58,,100,81,22,21,3,5,0.6,0.6
2025-07-17T2100,1832A,113.3257,33.742,平顶山市,新华旅馆,,41,37,40,18,23,129,,170,156,14,13,6,5,0.4,0.5
2025-07-17T2100,1833A,113.2919,33.737,平顶山市,规划设计院,,41,41,37,24,24,130,,168,152,13,12,7,10,0.6,0.7
2025-07-17T2100,1834A,113.182,33.774,平顶山市,平顶山工学院,,41,28,34,9,19,131,,173,167,12,10,6,8,0.5,0.6
2025-07-17T2100,3204A,113.3025,33.73,平顶山市,规划局,,,31,37,8,16,,,174,164,9,10,4,6,0.5,0.6
2025-07-17T2100,3594A,112.8867,33.9116,平顶山市,石龙区,,42,34,36,16,19,134,,170,165,12,11,9,9,0.5,0.7
2025-07-17T2100,2656A,106.6692,35.5461,平凉市,聚贤嘉苑,颗粒物(PM10),59,67,53,23,14,154,,142,142,11,21,15,15,0.9,0.8
2025-07-17T2100,2657A,106.7021,35.5307,平凉市,博物馆,颗粒物(PM10),57,64,51,21,15,150,,143,141,8,18,10,10,0.9,0.9
2025-07-17T2100,2347A,114.0997,27.5002,萍乡市,武功山,,12,,4,3,5,37,,61,56,4,4,11,12,0.3,0.2
2025-07-17T2100,2348A,113.8385,27.6434,萍乡市,中医院,,28,24,26,19,12,61,,96,92,9,10,10,11,0.8,0.8
2025-07-17T2100,2349A,113.8493,27.6253,萍乡市,市政府车库,,26,18,17,18,18,46,,81,78,8,9,8,9,0.5,0.5
2025-07-17T2100,2350A,113.8676,27.6435,萍乡市,市环保局,,30,25,26,21,15,69,,90,89,7,11,8,8,0.7,0.8
2025-07-17T2100,2351A,113.866,27.6198,萍乡市,安源区政府,,,,21,,14,,,81,81,,6,,9,,0.5
2025-07-17T2100,2319A,119.0141,25.4325,莆田市,荔城区仓后路,,,,50,,22,,,94,89,12,13,4,4,0.6,0.6
2025-07-17T2100,2320A,119.0015,25.4553,莆田市,莆田市监测站,,24,24,45,6,26,56,,95,84,5,12,4,5,0.5,0.5
2025-07-17T2100,2321A,119.1119,25.4561,莆田市,涵江区六中,,26,21,40,18,23,55,,102,94,14,12,3,3,0.5,0.4
2025-07-17T2100,2322A,119.1013,25.3215,莆田市,秀屿区政府,细颗粒物(PM2.5),75,56,41,55,29,53,,103,90,18,10,4,3,0.7,0.5
2025-07-17T2100,2323A,118.981,25.4792,莆田市,东圳水库,,,,,,,,,,,,,,,,
2025-07-17T2100,2392A,115.0312,35.7636,濮阳市,环保局,臭氧1小时,70,,32,26,24,176,,190,190,13,12,3,5,0.6,0.6
2025-07-17T2100,2394A,115.0574,35.7609,濮阳市,油田运输公司,臭氧1小时,54,43,43,22,25,163,,179,179,8,10,2,3,0.6,0.7
2025-07-17T2100,3021A,115,35.7668,濮阳市,濮水河管理处,,45,43,37,29,26,144,,174,172,12,10,2,3,0.5,0.5
2025-07-17T2100,4216A,115.0924,35.7686,濮阳市,任丘路479号,,,48,47,25,27,,,173,173,12,10,5,7,,0.5
2025-07-17T2100,2601A,100.98,22.7633,普洱市,市环保局,,21,21,23,13,14,22,,50,32,4,6,5,4,0.5,0.5
2025-07-17T2100,2602A,100.9817,22.8322,普洱市,普洱第二中学,,,,20,,10,,,43,,,9,,7,,0.5
2025-07-17T2100,2262A,131.0518,45.8751,七台河市,新一中,,29,24,18,20,10,74,,98,92,16,12,10,10,1.0,1
2025-07-17T2100,3345A,131.0577,45.7879,七台河市,中波台,,19,9,12,3,8,59,,70,66,17,18,7,8,0.6,0.6
2025-07-17T2100,3637A,131.0176,45.7761,七台河市,人民广场,,25,17,17,12,12,78,,80,80,10,10,12,11,0.5,0.5
2025-07-17T2100,3684A,130.8781,45.8222,七台河市,新建矿广场,,21,,15,11,7,66,,80,78,17,18,10,10,0.4,0.5
2025-07-17T2100,1779A,123.9305,47.3636,齐齐哈尔市,安居小区,,19,19,17,10,7,55,,59,59,13,13,1,2,0.4,0.6
2025-07-17T2100,1780A,123.9488,47.3386,齐齐哈尔市,中心广场,,20,20,17,7,2,54,,56,56,15,13,3,4,0.5,0.4
2025-07-17T2100,1781A,123.9483,47.3227,齐齐哈尔市,农牧车辆厂,,20,14,20,9,8,61,,60,60,11,11,6,6,0.2,0.2
2025-07-17T2100,1783A,123.945,47.2988,齐齐哈尔市,市环境监测站,,19,,12,13,6,56,,54,54,11,12,5,5,0.4,0.4
2025-07-17T2100,3662A,123.6333,47.2075,齐齐哈尔市,富区青少年活动中心,,15,15,8,9,6,45,,58,58,16,15,5,4,0.3,0.2
2025-07-17T2100,2591A,107.9783,26.5747,黔东南苗族侗族自治州,市环境监测站,,19,16,16,13,12,47,,66,62,14,4,2,2,0.5,0.4
2025-07-17T2100,2881A,107.8908,26.5311,黔东南苗族侗族自治州,凯里学院,,27,27,18,14,13,58,,73,71,10,8,2,2,0.4,0.4
2025-07-17T2100,2593A,107.5228,26.2403,黔南布依族苗族自治州,小围寨,,18,14,13,12,8,52,,60,59,4,4,2,3,0.4,0.4
2025-07-17T2100,3538A,107.5175,26.2978,黔南布依族苗族自治州,沙坝,,19,19,14,3,2,55,,66,63,5,6,4,4,0.2,0.3
2025-07-17T2100,2589A,104.9022,25.0925,黔西南布依族苗族自治州,场坝街,,39,39,28,22,11,66,,68,65,8,14,7,18,0.4,0.4
2025-07-17T2100,2590A,104.8811,25.0992,黔西南布依族苗族自治州,坪东大道,,32,26,19,22,14,67,,70,65,9,15,4,5,0.4,0.3
2025-07-17T2100,2502A,108.6236,21.9667,钦州市,市环保站,,,9,23,7,9,,,84,,,11,,3,,0.4
2025-07-17T2100,2503A,108.6549,21.9481,钦州市,沙埠小学,,29,29,29,10,12,49,,100,82,14,13,2,2,0.6,0.7
2025-07-17T2100,2504A,108.5989,21.7431,钦州市,港区一小,,37,37,31,15,16,35,,68,59,24,14,2,3,0.4,0.4
2025-07-17T2100,3404A,108.5959,21.9633,钦州市,北职校,,18,16,27,7,10,55,,94,86,5,11,3,2,0.3,0.4
2025-07-17T2100,1043A,119.7493,40.0116,秦皇岛市,第一关,,30,15,22,11,8,95,,108,103,8,28,4,5,0.2,0.2
2025-07-17T2100,1044A,119.5897,39.9499,秦皇岛市,监测站,,31,23,32,3,6,98,,106,104,15,23,4,5,0.4,0.4
2025-07-17T2100,1046A,119.5251,39.9041,秦皇岛市,建设大厦,,28,20,29,11,7,89,,103,96,13,32,4,5,0.4,0.4
2025-07-17T2100,3132A,119.610547,39.943889,秦皇岛市,文明里,,31,25,26,11,6,97,,100,98,15,21,5,5,0.3,0.2
2025-07-17T2100,4198A,119.5090,39.8253,秦皇岛市,北戴河轮滑馆,,46,44,29,18,9,146,,106,106,10,14,3,2,0.7,0.4
2025-07-17T2100,1307A,120.6659,36.2403,青岛市,仰口,,40,24,25,15,15,126,,136,129,8,8,9,7,0.4,0.3
2025-07-17T2100,1310A,120.4134,36.0658,青岛市,市南区东部子站,,42,12,24,9,15,132,,163,146,2,7,6,6,0.2,0.2
2025-07-17T2100,1311A,120.3664,36.1032,青岛市,四方区子站,,44,22,26,14,18,140,,170,158,14,13,2,2,0.2,0.2
2025-07-17T2100,1312A,120.2994,36.054,青岛市,市南区西部子站,,35,17,26,10,15,111,,149,135,15,15,8,8,0.6,0.6
2025-07-17T2100,1313A,120.4581,36.0858,青岛市,崂山区子站,,39,14,21,7,14,123,,160,144,16,16,7,8,0.2,0.2
2025-07-17T2100,1315A,120.3999,36.3083,青岛市,城阳区子站,,41,41,25,15,13,100,,148,141,36,10,7,6,0.5,0.4
2025-07-17T2100,1966A,120.0405,35.8735,青岛市,黄岛区4号,,41,19,20,7,11,130,,170,157,10,11,9,10,0.5,0.5
2025-07-17T2100,3362A,120.5014,36.4034,青岛市,即墨2号,,35,28,25,13,14,112,,141,135,17,10,5,3,0.4,0.3
2025-07-17T2100,3642A,120.3503,36.0736,青岛市,市北区南部,,36,26,26,12,15,115,,155,143,19,20,10,11,0.5,0.5
2025-07-17T2100,3643A,120.3948,36.1805,青岛市,李沧区北部,,34,22,23,19,20,106,,148,136,16,11,4,5,0.3,0.3
2025-07-17T2100,4290A,120.1969,35.9546,青岛市,珠江路669号,,40,17,23,12,16,128,,155,149,6,19,5,7,0.6,0.5
2025-07-17T2100,1702A,113.0426,23.691,清远市,环保大楼,,50,42,40,35,29,84,,97,92,11,16,6,6,0.8,0.8
2025-07-17T2100,1703A,113.0208,23.7106,清远市,凤城街办,颗粒物(PM10),51,51,44,34,26,69,,84,78,18,22,28,8,0.7,0.6
2025-07-17T2100,3025A,113.0477,23.6344,清远市,技师学院,颗粒物(PM10),55,59,42,38,24,62,,90,84,24,18,9,12,0.6,0.5
2025-07-17T2100,3318A,112.9903,23.7403,清远市,清新太和,,50,50,41,29,24,56,,82,68,13,15,6,6,0.7,0.7
2025-07-17T2100,3455A,113.076,23.7198,清远市,清城东城,,,65,38,44,24,,,89,84,20,14,7,6,0.8,0.6
2025-07-17T2100,2661A,107.6325,35.7357,庆阳市,庆阳五中,,49,40,26,23,9,155,,152,152,7,6,6,7,0.7,0.4
2025-07-17T2100,2662A,107.6364,35.7067,庆阳市,市环保局,臭氧1小时,54,38,27,20,8,163,,160,160,4,5,10,11,0.9,0.7
2025-07-17T2100,1916A,103.7897,25.5035,曲靖市,环境监测站,,21,15,30,10,15,66,,97,92,14,14,8,8,0.4,0.5
2025-07-17T2100,1917A,103.8,25.5364,曲靖市,烟厂办公区,,,,33,29,19,74,,97,93,25,15,4,9,,0.6
2025-07-17T2100,3376A,103.7947,25.462,曲靖市,南苑二区,,22,17,21,9,12,69,,101,97,13,10,5,4,0.4,0.4
2025-07-17T2100,3377A,103.7444,25.5261,曲靖市,曲靖师范学院,,36,35,33,25,21,69,,87,85,10,14,6,10,0.2,0.4
2025-07-17T2100,1264A,118.8692,28.9398,衢州市,环保大楼,,24,24,38,11,22,50,,98,86,26,18,2,3,0.5,0.4
2025-07-17T2100,1265A,118.8709,28.9666,衢州市,实验学校,,22,22,38,9,20,46,,100,82,24,18,4,5,0.6,0.5
2025-07-17T2100,1266A,118.8621,28.9808,衢州市,衢州学院,,20,20,36,10,21,59,,110,86,18,26,3,4,0.4,0.4
2025-07-17T2100,1611A,118.5819,24.9117,泉州市,涂山街,,23,14,38,12,25,73,,134,121,14,16,2,2,0.5,0.5
2025-07-17T2100,1612A,118.5972,24.8978,泉州市,津头埔,,24,15,38,9,24,76,,164,135,12,13,2,2,0.5,0.5
2025-07-17T2100,1613A,118.6663,24.9424,泉州市,万安,,21,17,42,11,24,67,,134,119,12,14,2,2,0.4,0.4
2025-07-17T2100,1614A,118.6117,24.9604,泉州市,清源山,,,,,,,,,,,,,,,,
2025-07-17T2100,3529A,118.6333,24.9264,泉州市,城华南路,,21,20,41,14,25,67,,138,120,9,12,4,4,0.4,0.4
2025-07-17T2100,2626A,88.8876,29.2718,日喀则市,日喀则监测站,,18,18,6,3,1,44,,65,56,13,8,16,16,0.3,0.3
2025-07-17T2100,3726A,88.8781,29.2426,日喀则市,林业技术推广中心,,22,10,10,7,2,69,,85,82,2,3,9,8,0.2,0.3
2025-07-17T2100,1659A,119.471,35.4209,日照市,监测站,,44,,15,10,12,139,,163,163,9,12,6,6,0.5,0.5
2025-07-17T2100,1660A,119.523,35.4216,日照市,市政府广场,,37,19,16,6,9,118,,171,165,23,7,8,5,0.7,0.7
2025-07-17T2100,1661A,119.5587,35.4044,日照市,港务局,,40,29,17,18,15,126,,175,166,20,9,9,9,0.7,0.6
2025-07-17T2100,3507A,119.5328,35.4625,日照市,职业技术学院,,38,24,15,12,9,119,,173,169,15,8,4,5,0.6,0.6
2025-07-17T2100,3604A,119.3266,35.1044,日照市,岚山环保分局,,44,22,24,11,9,140,,158,156,9,16,8,17,0.6,1.3
2025-07-17T2100,1835A,111.1922,34.7752,三门峡市,市政府,,42,25,38,15,20,132,,153,149,11,8,4,4,0.7,0.8
2025-07-17T2100,1836A,111.1587,34.7942,三门峡市,开发区,,44,35,36,18,18,138,,168,161,20,13,7,8,0.4,0.5
2025-07-17T2100,1838A,111.143,34.7955,三门峡市,风景区,,,,22,,25,,,,,,7,,6,,0.5
2025-07-17T2100,3039A,111.1911,34.7829,三门峡市,三门峡市第一小学,,44,39,36,22,30,140,,162,158,16,13,11,11,0.5,0.5
2025-07-17T2100,3598A,111.1,34.7167,三门峡市,富达温泉假日酒店,,,,44,,23,138,,151,147,10,9,10,12,,0.8
2025-07-17T2100,2324A,117.6211,26.2625,三明市,三钢,,35,35,36,23,23,27,,92,68,22,15,6,9,1.1,1.2
2025-07-17T2100,2325A,117.635,26.2714,三明市,三明二中,,,,30,11,18,,,91,73,22,13,2,2,,0.9
2025-07-17T2100,2326A,117.6028,26.2378,三明市,三元区政府,,29,29,32,10,18,26,,94,65,32,15,8,6,1.1,0.6
2025-07-17T2100,2327A,117.7275,26.3108,三明市,洋溪,,,,,,,,,,,,,,,,
2025-07-17T2100,1876A,109.5078,18.2489,三亚市,河东子站,,21,21,16,11,9,52,,56,54,3,4,4,3,0.3,0.3
2025-07-17T2100,1877A,109.4964,18.2681,三亚市,河西子站,,21,21,16,14,8,50,,56,55,4,4,3,2,0.1,0.2
2025-07-17T2100,3540A,109.7348,18.3443,三亚市,君悦子站,,26,26,18,14,8,42,,69,63,10,7,1,1,0.4,0.2
2025-07-17T2100,2624A,91.7608,29.2313,山南市,山南监测站,,36,8,6,6,4,115,,115,115,5,12,4,6,0.3,0.3
2025-07-17T2100,2625A,91.7706,29.2436,山南市,山南人民医院,,37,32,15,11,5,118,,118,118,5,10,4,6,0.3,0.3
2025-07-17T2100,1674A,116.6794,23.3667,汕头市,金平子站,细颗粒物(PM2.5),65,,31,47,22,75,,120,110,14,10,2,3,0.8,0.7
2025-07-17T2100,1675A,116.7244,23.3633,汕头市,龙湖子站,细颗粒物(PM2.5),67,50,31,48,18,77,,107,96,14,11,7,7,0.9,0.7
2025-07-17T2100,1676A,116.7258,23.2775,汕头市,濠江子站,,41,41,38,22,21,40,,72,66,29,13,6,6,0.8,0.8
2025-07-17T2100,1677A,116.7519,23.4714,汕头市,澄海子站,颗粒物(PM10),53,55,39,23,21,56,,120,98,13,12,2,3,0.6,0.7
2025-07-17T2100,1678A,116.6092,23.2539,汕头市,潮阳子站,颗粒物(PM10),73,96,36,50,23,69,,112,104,11,6,6,5,0.7,0.5
2025-07-17T2100,3444A,116.454,23.2684,汕头市,潮南峡山,,,66,33,39,20,72,,114,94,,7,6,6,0.8,0.8
2025-07-17T2100,3624A,116.4069,23.2533,汕头市,潮南子站,,,,34,,18,,,114,99,12,6,4,4,0.7,0.6
2025-07-17T2100,1693A,115.3653,22.775,汕尾市,市环保局,,21,20,21,8,10,66,,91,89,9,7,2,2,0.5,0.5
2025-07-17T2100,1694A,115.3706,22.7898,汕尾市,市政府,,29,26,28,20,16,67,,95,89,8,6,3,3,0.5,0.5
2025-07-17T2100,1695A,115.3622,22.7925,汕尾市,新城中学,,31,31,26,11,12,68,,93,90,11,8,3,3,0.5,0.5
2025-07-17T2100,2645A,109.9154,33.8715,商洛市,监测站,,19,18,30,10,16,58,,97,93,11,10,4,5,0.6,0.6
2025-07-17T2100,3045A,109.9643,33.8471,商洛市,商州区中学,,21,21,36,13,15,48,,93,88,16,13,3,5,0.4,0.4
2025-07-17T2100,2408A,115.6702,34.4285,商丘市,环境监测站,,42,36,42,21,26,133,,172,168,16,12,4,5,0.4,0.5
2025-07-17T2100,2409A,115.6458,34.4045,商丘市,粮食局,,,28,36,12,16,,,167,167,8,10,4,5,0.6,0.6
2025-07-17T2100,2410A,115.6293,34.3948,商丘市,睢阳区环保局,,48,35,49,18,20,153,,174,173,7,9,4,4,0.3,0.3
2025-07-17T2100,3171A,115.6071,34.4465,商丘市,梁园区档案局,,44,26,41,24,22,139,,160,158,9,11,3,4,0.5,0.6
2025-07-17T2100,1141A,121.4,31.238,上海市,普陀,细颗粒物(PM2.5),60,61,44,43,30,128,,178,167,28,19,5,6,0.8,0.5
2025-07-17T2100,1142A,121.478,31.2036,上海市,十五厂,,46,46,41,27,25,103,,162,143,26,21,7,8,0.7,0.7
2025-07-17T2100,1143A,121.467,31.3008,上海市,虹口,细颗粒物(PM2.5),60,62,45,43,28,70,,174,157,66,19,9,9,1.0,0.9
2025-07-17T2100,1147A,121.425,31.2261,上海市,静安监测站,颗粒物(PM10),55,60,42,35,27,114,,163,149,30,20,3,4,1.0,0.7
2025-07-17T2100,1148A,121.703,31.1907,上海市,浦东川沙,,32,31,36,22,26,80,,138,121,23,16,9,9,0.7,0.8
2025-07-17T2100,1149A,121.533,31.2284,上海市,浦东新区监测站,颗粒物(PM10),52,53,38,27,22,119,,163,150,23,14,7,7,0.7,0.4
