timepoint,stationcode,longitude,latitude,area,positionname,primarypollutant,aqi,pm10,pm10_24h,pm2_5,pm2_5_24h,o3,o3_24h,o3_8h,o3_8h_24h,no2,no2_24h,so2,so2_24h,co,co_24h
2025-07-17T1200,2566A,102.1879,31.914,阿坝藏族羌族自治州,州农科所,,24,,38,11,14,75,,49,49,4,6,13,14,0.8,0.9
2025-07-17T1200,2568A,102.2502,31.8896,阿坝藏族羌族自治州,马师校,,26,23,19,12,18,83,,45,45,6,10,7,11,0.7,0.7
2025-07-17T1200,3994A,102.2165,31.9024,阿坝藏族羌族自治州,马尔康中学西区,,27,14,18,11,14,86,,50,50,5,5,7,7,0.6,0.6
2025-07-17T1200,2695A,80.292,41.1694,阿克苏地区,电视台,颗粒物(PM10),67,83,76,30,24,46,,73,50,18,13,7,8,0.4,0.4
2025-07-17T1200,2696A,80.2613,41.1551,阿克苏地区,艺术中心,颗粒物(PM10),66,82,82,33,35,51,,68,48,5,10,3,3,0.5,0.5
2025-07-17T1200,2204A,105.6467,38.8363,阿拉善盟,西城区西花园,,42,22,15,14,12,134,,125,125,11,11,8,10,0.7,0.6
2025-07-17T1200,2205A,105.6985,38.8411,阿拉善盟,蒙二幼,,45,22,17,3,5,144,,133,133,9,9,10,10,0.4,0.4
2025-07-17T1200,2206A,105.724,38.8516,阿拉善盟,环保局新楼,,45,18,16,6,5,142,,129,129,5,5,12,11,0.7,0.6
2025-07-17T1200,2708A,88.1264,47.8517,阿勒泰地区,市站,,33,33,24,10,5,97,,100,92,20,10,2,2,0.2,0.4
2025-07-17T1200,2630A,80.1161,32.5,阿里地区,阿里监测站,,32,,6,3,2,101,,87,87,5,4,14,13,0.2,0.2
2025-07-17T1200,3192A,80.0903,32.5028,阿里地区,阿里藏医院,,33,6,8,3,3,104,,88,88,2,2,6,6,0.4,0.4
2025-07-17T1200,2642A,109.0318,32.6537,安康市,香溪洞,,35,34,39,19,21,109,,61,61,5,9,8,12,0.5,0.5
2025-07-17T1200,2644A,109.0072,32.6975,安康市,汉滨区检察院,,33,24,32,17,20,103,,45,45,3,7,16,14,0.7,0.6
2025-07-17T1200,4054A,109.0325,32.6913,安康市,市邮政管理局,,38,38,41,24,24,102,,47,47,5,10,4,6,0.6,0.6
2025-07-17T1200,2291A,117.0809,30.5177,安庆市,环科院,,43,14,23,12,18,136,,96,96,5,10,4,4,0.5,0.6
2025-07-17T1200,2292A,117.0331,30.5119,安庆市,马山宾馆,,40,12,24,7,15,126,,95,95,9,17,2,3,0.3,0.4
2025-07-17T1200,2294A,116.9896,30.6145,安庆市,安庆大学,,46,19,26,9,16,146,,107,107,8,10,3,2,0.6,0.5
2025-07-17T1200,3173A,117.0598,30.5351,安庆市,市人大,,45,17,23,10,17,142,,100,100,10,11,5,3,0.6,0.6
2025-07-17T1200,3122A,105.9606,26.2611,安顺市,伍家关,,,,15,16,12,79,,65,65,4,5,3,3,0.4,0.4
2025-07-17T1200,3123A,105.9408,26.2431,安顺市,凤凰山,,25,16,21,11,14,78,,63,63,5,7,3,3,0.5,0.6
2025-07-17T1200,3124A,105.9439,26.2564,安顺市,金钟山,,28,17,19,14,17,89,,71,71,4,5,4,4,0.4,0.4
2025-07-17T1200,3125A,105.8983,26.2481,安顺市,娄家坡,,,17,16,14,15,86,,67,67,3,3,5,5,,0.5
2025-07-17T1200,1818A,114.4839,36.0621,安阳市,棉研所,,,,,,,,,,,,,,,,
2025-07-17T1200,1819A,114.3551,36.1017,安阳市,红庙街,,48,25,29,18,14,151,,102,102,7,9,4,4,0.4,0.5
2025-07-17T1200,1820A,114.361,36.0681,安阳市,银杏小区,颗粒物(PM10),53,55,35,19,15,146,,88,88,4,8,6,6,0.4,0.4
2025-07-17T1200,3141A,114.3922,36.0878,安阳市,信访局,,50,38,29,16,17,159,,110,110,8,11,6,5,0.6,0.6
2025-07-17T1200,3669A,114.4705,36.0637,安阳市,左辅环卫站,颗粒物(PM10),70,90,32,18,18,141,,103,103,8,5,6,5,0.7,0.7
2025-07-17T1200,3703A,114.2917,36.0949,安阳市,安钢职工学校,,48,41,43,15,17,152,,82,82,3,11,5,4,0.7,0.6
2025-07-17T1200,1748A,123.044,41.1196,鞍山市,深沟寺,,,,19,,8,,,65,,,14,,6,,0.8
2025-07-17T1200,1749A,123.011,41.0931,鞍山市,太阳城,细颗粒物(PM2.5),63,64,22,45,13,122,,76,76,28,14,17,8,2.2,0.9
2025-07-17T1200,1750A,123.0485,41.1442,鞍山市,太平,颗粒物(PM10),60,70,31,33,14,144,,80,80,18,22,11,7,1.4,1
2025-07-17T1200,1751A,122.9642,41.0971,鞍山市,铁西三道街,细颗粒物(PM2.5),100,125,33,75,17,82,,62,62,49,26,24,8,3.3,1.1
2025-07-17T1200,1753A,123.022,41.0821,鞍山市,明达新区,细颗粒物(PM2.5),68,68,20,49,11,119,,83,83,23,12,13,7,2.2,1
2025-07-17T1200,1754A,123.1289,41.0228,鞍山市,千山,,,,,,,,,,,,,,,,
2025-07-17T1200,4201A,122.9446,41.0826,鞍山市,兴盛南路290号,颗粒物(PM10),111,171,37,63,14,99,,72,72,54,30,23,9,3.4,1.2
2025-07-17T1200,2195A,107.4212,40.761,巴彦淖尔市,附二中,,48,14,19,10,10,151,,100,100,5,10,6,8,0.5,0.5
2025-07-17T1200,2196A,107.37,40.7372,巴彦淖尔市,市环保大楼,,45,31,29,7,10,142,,95,95,6,9,6,7,0.4,0.4
2025-07-17T1200,1956A,86.1472,41.7538,巴音郭楞蒙古自治州,孔雀公园,颗粒物(PM10),123,195,66,29,19,59,,101,91,21,14,2,3,0.6,0.3
2025-07-17T1200,1957A,86.1972,41.7166,巴音郭楞蒙古自治州,棉纺厂,颗粒物(PM10),95,139,70,32,12,70,,92,82,31,19,4,6,0.3,0.2
2025-07-17T1200,1958A,86.2357,41.7173,巴音郭楞蒙古自治州,经济开发区,颗粒物(PM10),70,89,47,18,11,67,,96,86,24,7,3,4,0.4,0.2
2025-07-17T1200,2914A,106.7677,31.8794,巴中市,苏山坪,,42,39,31,29,23,122,,87,86,6,7,4,4,0.5,0.5
2025-07-17T1200,3181A,106.7768,31.8526,巴中市,市五中,,43,35,34,30,26,130,,59,59,6,14,8,8,0.6,0.6
2025-07-17T1200,3183A,106.7418,31.8654,巴中市,圣泉水务公司,,45,38,31,30,24,143,,71,71,4,9,7,6,0.8,0.7
2025-07-17T1200,3616A,106.7616,31.8344,巴中市,市中心医院,,43,42,35,30,24,121,,52,52,9,17,7,7,0.5,0.5
2025-07-17T1200,2235A,122.7911,45.6077,白城市,洮北区环保局,,24,,12,8,10,75,,61,61,2,2,2,5,0.2,0.3
2025-07-17T1200,2236A,122.8738,45.5725,白城市,市环保局,,24,6,9,3,7,76,,57,57,2,5,5,5,0.4,0.4
2025-07-17T1200,2231A,126.4219,41.9171,白山市,喜丰,,29,29,23,3,8,54,,35,35,19,13,4,4,0.6,0.6
2025-07-17T1200,2232A,126.4077,41.9419,白山市,环保局,,,20,17,3,6,64,,34,34,,9,,5,0.6,0.6
2025-07-17T1200,2647A,104.1724,36.5446,白银市,第三小学,,50,50,64,32,29,100,,72,72,13,14,12,25,0.6,0.5
2025-07-17T1200,2648A,104.1465,36.5482,白银市,动力公司,,44,44,56,24,23,97,,68,65,12,14,11,24,0.6,0.5
2025-07-17T1200,2512A,106.6103,23.9011,百色市,市监测站,,36,36,28,18,14,102,,35,35,8,9,10,5,0.6,0.5
2025-07-17T1200,2513A,106.6538,23.8859,百色市,市中心血站,,,53,37,24,18,101,,32,32,,19,6,3,0.6,0.7
2025-07-17T1200,3406A,106.6085,23.8798,百色市,祈福高中,颗粒物(PM10),52,54,35,17,15,94,,31,31,11,15,8,5,0.7,0.6
2025-07-17T1200,2270A,117.396,32.939,蚌埠市,工人疗养院,,44,38,28,25,10,139,,102,102,5,7,3,4,0.4,0.4
2025-07-17T1200,2271A,117.3605,32.9427,蚌埠市,百货大楼,,44,32,24,20,10,138,,103,103,3,6,5,5,0.5,0.5
2025-07-17T1200,2273A,117.4185,32.8911,蚌埠市,蚌埠学院,,43,34,23,25,14,136,,101,101,3,7,4,5,0.5,0.5
2025-07-17T1200,2274A,117.3533,32.9673,蚌埠市,淮上区政府,,,31,25,26,13,142,,99,99,4,10,5,5,,0.5
2025-07-17T1200,2275A,117.3145,32.8977,蚌埠市,高新区,,44,34,25,23,12,138,,111,111,7,9,7,6,0.6,0.5
2025-07-17T1200,3715A,117.3092,32.9314,蚌埠市,蚌埠田家炳中学,,43,37,30,24,16,137,,100,100,5,9,6,7,0.4,0.3
2025-07-17T1200,1585A,109.8756,40.6532,包头市,市环境监测站,,40,27,19,3,8,127,,60,60,10,24,7,6,0.5,0.5
2025-07-17T1200,1587A,109.9991,40.5842,包头市,包头八中,,36,27,29,3,11,115,,58,58,8,28,5,5,0.4,0.6
2025-07-17T1200,1588A,109.8538,40.6821,包头市,青山宾馆,,37,22,19,6,10,116,,55,55,8,28,8,6,0.5,0.4
2025-07-17T1200,1589A,109.8642,40.6288,包头市,惠龙物流,,37,23,22,16,9,117,,63,63,7,18,7,6,0.4,0.5
2025-07-17T1200,1590A,110.0377,40.5546,包头市,东河鸿龙湾,,41,15,22,3,5,129,,63,63,6,19,5,4,0.5,0.8
2025-07-17T1200,3283A,109.9154,40.5685,包头市,滨河大厦,,39,14,19,8,9,124,,60,60,8,21,6,5,0.6,0.5
2025-07-17T1200,3419A,109.9447,40.6261,包头市,包头市委党校,,41,15,16,3,9,130,,58,58,7,19,10,7,0.5,0.6
2025-07-17T1200,3683A,109.8331,40.6576,包头市,昆区政府,,39,26,21,7,11,123,,65,65,10,23,7,4,0.7,0.7
2025-07-17T1200,1930A,107.185,34.3063,宝鸡市,庙沟村,臭氧1小时,57,39,38,17,17,165,,88,88,10,9,4,4,0.6,0.5
2025-07-17T1200,1931A,107.0708,34.3017,宝鸡市,竹园沟,臭氧1小时,54,41,38,21,17,163,,67,67,12,10,11,8,0.5,0.5
2025-07-17T1200,1932A,107.1906,34.3672,宝鸡市,三陆医院,"颗粒物(PM10),臭氧1小时",53,56,44,24,23,162,,68,68,13,24,13,8,0.7,0.7
2025-07-17T1200,1933A,107.1431,34.3547,宝鸡市,监测站,臭氧1小时,55,50,44,24,23,164,,77,77,10,12,14,9,0.5,0.4
2025-07-17T1200,1934A,107.1186,34.3739,宝鸡市,技工学校,,,,57,,24,,,,,,7,,6,,0.5
2025-07-17T1200,1935A,107.3906,34.3528,宝鸡市,陈仓区环保局家属楼,,,,,,,,,,,,,,,,
2025-07-17T1200,1936A,107.2058,34.3497,宝鸡市,文理学院,臭氧1小时,59,42,43,22,22,167,,81,81,10,12,13,7,0.6,0.5
2025-07-17T1200,1937A,107.2386,34.3622,宝鸡市,三迪小学,臭氧1小时,55,58,47,23,25,164,,78,78,12,16,14,8,0.6,0.5
2025-07-17T1200,1051A,115.493,38.8632,保定市,游泳馆,,41,20,32,6,18,130,,80,80,6,10,2,2,0.0,0.2
2025-07-17T1200,1052A,115.5213,38.8959,保定市,华电二区,,41,12,35,6,17,130,,84,84,4,13,3,3,0.1,1.1
2025-07-17T1200,1053A,115.4713,38.9108,保定市,接待中心,,40,23,35,3,17,126,,81,81,2,10,1,3,0.1,0.6
2025-07-17T1200,1054A,115.4612,38.8416,保定市,地表水厂,,40,23,46,9,16,128,,80,80,2,8,2,1,0,0.4
2025-07-17T1200,3581A,115.31981,38.95208,保定市,满城区生态环境分局,,41,7,34,3,20,129,,77,77,4,9,3,2,0.2,0.3
2025-07-17T1200,3582A,115.47694,38.76408,保定市,清苑区第二中学,,40,20,50,12,23,127,,85,85,2,11,2,2,0.5,0.5
2025-07-17T1200,3583A,115.62909,39.02311,保定市,徐水物探局,,40,6,31,3,14,127,,81,81,2,8,1,2,0.2,0.5
2025-07-17T1200,4004A,115.4202,38.8656,保定市,双鹰农机,,41,8,27,6,19,130,,81,81,8,15,5,5,0.1,0.3
2025-07-17T1200,4034A,115.5150,38.8590,保定市,植保所站,,42,29,35,8,16,134,,93,93,8,13,3,3,0.2,0.3
2025-07-17T1200,2594A,99.1678,25.1081,保山市,市环境监测站,,,27,18,20,14,67,,39,39,14,7,4,8,,0.4
2025-07-17T1200,2595A,99.1711,25.1328,保山市,市环保局,,30,30,20,9,11,94,,59,59,11,4,7,7,0.4,0.3
2025-07-17T1200,1866A,109.2262,21.588,北海市,牛尾岭水库,,24,10,15,3,6,75,,57,57,11,11,2,2,0.4,0.4
2025-07-17T1200,1867A,109.1436,21.4086,北海市,海滩公园,,23,23,43,3,6,54,,47,47,3,4,2,2,0.6,0.6
2025-07-17T1200,1868A,109.0981,21.4661,北海市,新市环保局,,22,13,18,7,9,68,,59,59,4,4,2,2,0.3,0.3
2025-07-17T1200,1869A,109.1778,21.5233,北海市,北海工业园,,23,16,25,3,12,71,,53,53,6,6,3,3,0.3,0.3
2025-07-17T1200,3400A,109.1911,21.4415,北海市,龙潭自来水厂,,22,13,18,7,10,68,,60,60,3,4,5,5,0.5,0.5
2025-07-17T1200,1001A,116.3621,39.8784,北京市,万寿西宫,,36,6,16,3,10,115,,71,71,2,21,3,2,0.2,0.7
2025-07-17T1200,1002A,116.2202,40.2915,北京市,定陵,,33,6,9,3,8,104,,72,72,2,3,3,4,0.3,0.5
2025-07-17T1200,1003A,116.4174,39.9289,北京市,东四,,38,8,13,3,7,121,,84,84,7,17,4,4,0.2,0.4
2025-07-17T1200,1004A,116.4072,39.8863,北京市,天坛,,37,9,14,3,8,118,,73,73,8,15,4,4,0.3,0.6
2025-07-17T1200,1005A,116.462,39.9365,北京市,农展馆,,34,8,12,6,8,108,,69,69,9,15,3,2,0.3,0.7
2025-07-17T1200,1006A,116.3392,39.9295,北京市,官园,,35,10,18,3,10,110,,64,64,7,20,4,4,0.3,0.7
2025-07-17T1200,1007A,116.2878,39.9611,北京市,海淀万柳,,35,7,19,3,12,112,,52,52,6,24,3,3,0.2,0.5
2025-07-17T1200,1008A,116.6636,40.135,北京市,顺义新城,,36,9,14,3,9,115,,67,67,3,9,3,2,0.3,0.5
2025-07-17T1200,1009A,116.6275,40.3275,北京市,怀柔镇,,32,9,10,3,6,102,,61,61,7,8,2,2,0.3,0.5
2025-07-17T1200,1010A,116.2296,40.217,北京市,昌平镇,,35,6,13,3,8,109,,77,77,6,11,3,6,0.3,0.4
2025-07-17T1200,1011A,116.3966,39.9821,北京市,奥体中心,,30,9,10,3,5,95,,69,69,4,16,4,3,0.1,0.4
2025-07-17T1200,3281A,115.9718,40.4529,北京市,延庆夏都,,39,8,5,6,4,122,,56,56,3,10,6,5,0.3,0.3
2025-07-17T1200,3418A,116.8336,40.4095,北京市,密云新城,,30,6,6,3,3,95,,59,59,2,7,3,2,0.5,0.7
2025-07-17T1200,3671A,116.088,39.9726,北京市,门头沟三家店,,37,6,12,3,7,118,,61,61,3,11,4,3,0.3,0.5
2025-07-17T1200,3672A,116.1541,39.8204,北京市,丰台云岗,,32,6,18,3,10,102,,58,58,4,12,2,2,0.2,0.5
2025-07-17T1200,3673A,116.6804,39.9081,北京市,通州东关,,36,14,19,3,9,115,,65,65,12,27,3,2,0.3,0.6
2025-07-17T1200,3674A,115.9577,39.7603,北京市,房山燕山,,29,6,15,3,11,90,,82,82,4,7,1,1,0.3,0.4
2025-07-17T1200,3675A,116.4672,39.7733,北京市,大兴旧宫,,37,14,18,3,10,117,,72,72,6,20,2,1,0.4,0.7
2025-07-17T1200,3694A,115.986,40.4563,北京市,延庆石河营,,34,6,4,3,2,108,,44,44,6,11,3,2,0.3,0.3
2025-07-17T1200,3695A,116.6151,40.3053,北京市,怀柔新城,,32,8,10,3,6,100,,58,58,3,4,3,1,0.4,0.6
2025-07-17T1200,3696A,116.2545,39.8768,北京市,丰台小屯,,35,6,20,3,13,112,,62,62,2,14,2,1,0.3,0.6
2025-07-17T1200,3697A,116.84,40.3844,北京市,密云镇,,30,6,7,3,3,94,,51,51,6,15,5,3,0.4,0.5
2025-07-17T1200,4182A,116.1942,39.9158,北京市,八角北路9号,,40,6,18,3,9,126,,74,74,8,15,3,2,0,0.3
2025-07-17T1200,4194A,117.0790,40.1518,北京市,洳河巡河路,,31,9,7,3,5,98,,63,63,5,4,2,2,0.2,0.3
2025-07-17T1200,1761A,123.8275,41.3064,本溪市,大峪,,,14,18,3,8,122,,51,51,6,13,6,5,,0.4
2025-07-17T1200,1762A,123.7567,41.3325,本溪市,溪湖,,40,26,24,11,12,128,,54,54,10,13,9,7,1.4,1.2
2025-07-17T1200,1763A,123.7169,41.3094,本溪市,彩屯,,40,27,27,16,16,127,,47,47,15,21,14,9,1.2,1
2025-07-17T1200,1764A,123.7669,41.2864,本溪市,东明,,41,31,20,10,7,131,,57,57,8,14,6,4,0.8,0.7
2025-07-17T1200,1765A,123.7992,41.2664,本溪市,新立屯,,38,9,11,3,4,119,,58,58,6,12,5,4,0.6,0.5
2025-07-17T1200,1766A,123.8142,41.3472,本溪市,威宁,,37,17,23,8,12,118,,47,47,8,14,6,5,0.7,0.6
2025-07-17T1200,2587A,105.2864,27.3125,毕节市,八中,,43,43,33,24,25,111,,40,40,9,15,5,4,0.4,0.4
2025-07-17T1200,2588A,105.31,27.2944,毕节市,师专,,40,40,43,20,21,108,,40,40,9,18,4,4,0.5,0.5
2025-07-17T1200,4263A,105.3688,27.3598,毕节市,工业大道,,37,29,36,17,19,118,,36,36,10,22,7,6,0.6,0.7
2025-07-17T1200,1629A,118.0018,37.3617,滨州市,第二水厂,,46,14,24,12,18,145,,111,111,1,7,5,5,0.6,0.7
2025-07-17T1200,1630A,117.9776,37.393,滨州市,北中新校,,,22,25,12,17,141,,106,106,,8,9,10,0.3,0.4
2025-07-17T1200,3514A,117.9378,37.3956,滨州市,中海酒店,,44,19,23,12,20,139,,100,100,2,6,9,9,0.7,0.8
2025-07-17T1200,3515A,117.9378,37.3553,滨州市,开发区一中,,49,17,27,14,18,154,,112,112,7,12,13,13,0.4,0.5
2025-07-17T1200,3516A,118.0917,37.694,滨州市,金海六路,,45,17,26,7,17,144,,91,91,5,16,9,10,0.3,0.4
2025-07-17T1200,4028A,117.9956,37.3753,滨州市,滨州市西街道办事处,,48,14,20,14,18,151,,119,119,3,8,4,4,0.4,0.5
2025-07-17T1200,2311A,115.8072,33.8399,亳州市,污水处理厂,臭氧1小时,55,32,36,26,28,164,,117,117,5,9,4,4,0.7,0.8
2025-07-17T1200,2312A,115.7789,33.8518,亳州市,三国揽胜宫,颗粒物(PM10),54,57,49,28,28,153,,119,119,8,9,6,5,0.6,0.6
2025-07-17T1200,3332A,115.7633,33.8034,亳州市,亳州学院,,50,35,36,25,25,157,,131,131,5,7,5,5,0.8,0.6
2025-07-17T1200,2693A,82.0485,44.8556,博尔塔拉蒙古自治州,市党校,,,,25,,19,91,,76,76,11,10,3,4,0.1,0.1
2025-07-17T1200,2694A,82.0806,44.8969,博尔塔拉蒙古自治州,市环保局,,30,30,30,12,11,94,,72,72,9,7,4,3,0.3,0.2
2025-07-17T1200,1071A,116.8842,38.2991,沧州市,沧县城建局,,,,48,,26,121,,94,94,3,12,3,2,,0.5
2025-07-17T1200,1072A,116.8584,38.3254,沧州市,电视转播站,,37,31,44,3,26,117,,83,82,7,14,2,2,0.2,0.4
2025-07-17T1200,1073A,116.8709,38.3228,沧州市,市环保局,,36,27,49,15,28,114,,79,79,6,12,3,3,0.2,0.5
2025-07-17T1200,3324A,116.8136,38.3004,沧州市,河北水利电力学院,,41,,34,11,24,130,,86,86,4,15,6,5,0.2,0.4
2025-07-17T1200,2622A,97.1806,31.1273,昌都市,昌都监测站,,33,28,14,7,9,105,,68,68,6,6,3,3,0.0,0
2025-07-17T1200,3719A,97.1714,31.1406,昌都市,昌都会议中心,,37,9,13,3,9,116,,73,73,5,6,6,6,0.1,0
2025-07-17T1200,2690A,88.1236,43.8886,昌吉回族自治州,天山天池,,29,13,19,8,7,92,,69,69,6,6,5,4,0.5,0.5
2025-07-17T1200,2692A,87.2717,44.0297,昌吉回族自治州,新区政务中心,,35,,23,24,15,98,,94,86,9,8,6,6,0.4,0.4
2025-07-17T1200,3613A,87.3095,44.0142,昌吉回族自治州,亚心广场,,30,29,30,3,11,96,,88,84,11,12,7,8,0.2,0.2
2025-07-17T1200,1120A,125.2863,43.9027,长春市,客车厂,,27,16,22,8,15,86,,84,84,22,15,3,2,0.4,0.6
2025-07-17T1200,1121A,125.2841,43.8463,长春市,邮电学院,,29,11,19,8,13,92,,78,78,7,11,4,4,0.4,0.5
2025-07-17T1200,1122A,125.3716,43.8772,长春市,劳动公园,,30,17,25,3,19,96,,80,80,12,16,5,4,0.5,0.5
2025-07-17T1200,1123A,125.3297,43.8805,长春市,园林处,,31,12,21,6,16,98,,80,80,6,11,4,4,0.5,0.6
2025-07-17T1200,1124A,125.4605,43.79,长春市,净月潭,,20,13,20,6,10,64,,52,52,4,6,5,6,0.3,0.4
2025-07-17T1200,1125A,125.7194,43.515,长春市,甩湾子,,,17,12,3,10,79,,48,48,3,10,,2,0.6,0.7
2025-07-17T1200,1126A,125.3863,43.8447,长春市,经开区环卫处,,30,16,23,3,13,94,,76,76,6,11,4,4,0.4,0.5
2025-07-17T1200,1127A,125.245,43.7783,长春市,高新区管委会,,31,12,20,3,16,99,,80,80,4,10,3,2,0.4,0.6
2025-07-17T1200,1128A,125.1761,43.8325,长春市,岱山公园,,30,7,24,6,18,95,,78,78,10,19,3,3,0.2,0.4
2025-07-17T1200,4281A,125.3346,43.9164,长春市,北亚泰大街1068号,,30,16,24,10,16,93,,82,82,15,15,6,2,0.4,0.5
2025-07-17T1200,1335A,113.0833,28.2325,长沙市,经开区环保局,,44,35,30,29,18,139,,63,63,10,12,8,5,0.7,0.5
2025-07-17T1200,1336A,112.8872,28.2189,长沙市,高开区环保局,,38,38,32,17,15,106,,61,61,11,7,5,5,0.4,0.4
2025-07-17T1200,1337A,113.0792,28.2053,长沙市,马坡岭,,46,37,33,18,22,146,,67,67,8,12,8,5,0.7,0.5
2025-07-17T1200,1338A,112.9394,28.19,长沙市,湖南师范大学,,31,30,26,15,17,98,,61,61,5,9,2,3,0.8,0.7
2025-07-17T1200,1339A,113.0178,28.1322,长沙市,雨花区环保局,,40,37,29,15,13,128,,62,62,5,8,10,7,0.9,0.7
2025-07-17T1200,1340A,112.9792,28.2597,长沙市,伍家岭,,40,40,30,18,18,121,,63,63,6,9,4,4,0.3,0.3
2025-07-17T1200,1341A,113.0014,28.1944,长沙市,火车新站,,42,42,31,12,13,109,,65,65,5,7,9,9,0.6,0.6
2025-07-17T1200,1342A,112.9844,28.1178,长沙市,天心区环保局,,36,36,27,15,16,111,,74,74,5,10,2,2,0.4,0.4
2025-07-17T1200,1343A,112.8908,28.1308,长沙市,湖南中医药大学,,36,36,32,14,18,114,,62,62,3,8,4,4,0.8,0.8
2025-07-17T1200,1344A,112.9581,28.3611,长沙市,沙坪,,38,25,22,15,17,120,,56,56,9,11,3,3,0.5,0.4
2025-07-17T1200,1727A,113.1147,36.1547,长治市,清华站,臭氧1小时,58,30,35,17,17,166,,109,109,8,13,9,9,0.8,0.9
2025-07-17T1200,1730A,113.0886,36.2125,长治市,审计局,,49,28,33,14,20,154,,92,92,7,13,6,6,0.8,1
2025-07-17T1200,1731A,113.0844,36.1856,长治市,长治八中,,50,36,38,26,27,160,,87,87,5,12,10,9,0.6,0.7
2025-07-17T1200,2845A,113.1569,36.1911,长治市,德盛苑,,50,32,36,17,19,159,,111,111,8,9,7,7,0.7,1.2
2025-07-17T1200,3568A,113.06,36.0464,长治市,向阳小学,颗粒物(PM10),56,62,77,13,26,145,,100,100,2,10,7,8,0.7,0.9
2025-07-17T1200,3569A,112.8792,36.3144,长治市,屯留一中,臭氧1小时,57,52,48,34,27,165,,88,88,13,18,23,13,0.5,0.5
2025-07-17T1200,4189A,113.1131,36.19948,长治市,英华南巷50号,,48,33,40,19,21,151,,91,91,6,13,8,8,0.7,1.1
2025-07-17T1200,4190A,113.2367,36.3344,长治市,学府街1号,臭氧1小时,68,50,58,27,23,174,,98,98,19,22,14,6,0.9,0.7
2025-07-17T1200,1854A,111.6975,28.9703,常德市,市二中,,35,,21,24,18,79,,52,52,3,6,3,3,0.5,0.5
2025-07-17T1200,1857A,111.7158,29.1456,常德市,白鹤山,,,,,,,,,,,,,,,,
2025-07-17T1200,3138A,111.7153,29.0289,常德市,武陵区永安,,28,28,23,17,16,82,,57,57,3,6,4,3,0.2,0.2
2025-07-17T1200,3139A,111.6892,28.9881,常德市,鼎城区玉霞,,41,41,24,17,17,77,,45,45,1,6,5,5,0.4,0.5
2025-07-17T1200,3140A,111.6625,29.0531,常德市,武陵区长庚,,30,25,22,21,21,76,,54,54,4,6,4,2,0.5,0.4
2025-07-17T1200,1196A,119.9633,31.762,常州市,市监测站,臭氧1小时,60,21,37,7,20,168,,112,112,6,12,9,9,0.5,0.6
2025-07-17T1200,1200A,119.9468,31.7069,常州市,武进监测站,,,22,32,,19,165,,104,104,4,9,9,10,,0.9
2025-07-17T1200,1201A,119.9255,31.9087,常州市,安家,臭氧1小时,57,22,40,7,19,165,,114,114,8,19,7,9,0.7,0.8
2025-07-17T1200,3002A,119.9805,31.8174,常州市,行政中心,,49,24,32,12,18,154,,106,106,9,12,8,9,0.4,0.5
2025-07-17T1200,3003A,120.0522,31.7748,常州市,经开区,臭氧1小时,54,19,44,3,17,163,,107,107,11,13,5,6,0.2,0.3
2025-07-17T1200,3010A,119.9025,31.7964,常州市,钟楼,,48,15,36,6,18,151,,102,102,13,15,5,5,0.6,0.6
2025-07-17T1200,3429A,119.8598,31.7066,常州市,武进经发区,臭氧1小时,52,12,37,8,21,161,,110,110,4,9,8,8,0.8,0.8
2025-07-17T1200,3430A,119.5826,31.7245,常州市,金坛城区,臭氧1小时,57,15,23,10,19,165,,124,124,6,9,8,6,0.6,0.5
2025-07-17T1200,2220A,120.4318,41.5881,朝阳市,西梁,,23,7,15,7,11,71,,54,51,7,15,4,6,0.4,0.5
2025-07-17T1200,2221A,120.4521,41.5646,朝阳市,河畔小区,,23,17,19,12,13,71,,63,52,5,10,4,5,0.4,0.5
2025-07-17T1200,2222A,120.4176,41.5648,朝阳市,八里堡,,27,27,24,3,14,73,,59,48,8,15,3,4,0.4,0.6
2025-07-17T1200,2223A,120.3806,41.5969,朝阳市,农业园区,,21,11,10,3,7,65,,47,47,6,8,4,4,0.4,0.4
2025-07-17T1200,1705A,116.6367,23.6719,潮州市,西园路,细颗粒物(PM2.5),57,60,44,40,27,136,,56,56,6,12,4,4,0.5,0.5
2025-07-17T1200,3026A,116.6183,23.6608,潮州市,市政府,颗粒物(PM10),75,99,55,32,30,127,,58,58,10,20,2,10,0.7,0.6
2025-07-17T1200,4036A,116.6461,23.6761,潮州市,金山,颗粒物(PM10),53,55,41,29,23,137,,53,53,3,9,4,5,0.8,0.8
2025-07-17T1200,2472A,113.0073,25.9061,郴州市,马头岭,,25,24,21,10,6,78,,35,35,4,11,6,6,0.4,0.4
2025-07-17T1200,2473A,113.0116,25.8226,郴州市,市职中,,28,23,22,16,14,89,,42,42,12,16,5,6,0.7,0.6
2025-07-17T1200,2475A,113.0383,25.8071,郴州市,市审计局,,28,20,23,17,13,88,,41,41,5,11,3,4,0.4,0.4
2025-07-17T1200,2476A,113.0348,25.7759,郴州市,市环保局,,46,,23,32,16,84,,58,58,1,7,4,4,0.2,0.2
2025-07-17T1200,4252A,113.0138,25.8011,郴州市,好美居路49号,,36,36,24,17,14,97,,45,45,5,10,3,3,0.4,0.4
2025-07-17T1200,1431A,103.9728,30.7236,成都市,金泉两河,臭氧1小时,83,54,43,35,30,186,,85,85,13,16,2,2,0.7,0.6
2025-07-17T1200,1432A,104.176,30.6872,成都市,十里店,臭氧1小时,100,64,50,40,29,200,,103,103,8,19,4,4,0.5,0.6
2025-07-17T1200,1433A,104.079,30.5706,成都市,三瓦窑,臭氧1小时,106,72,45,60,34,212,,103,103,22,27,3,3,0.6,0.6
2025-07-17T1200,1434A,104.1114,30.63,成都市,沙河铺,细颗粒物(PM2.5),65,61,45,47,27,145,,72,72,9,20,6,6,0.5,0.5
2025-07-17T1200,1437A,104.0786,30.6531,成都市,君平街,臭氧1小时,104,75,51,50,34,208,,120,120,14,18,6,6,0.9,0.8
2025-07-17T1200,1438A,103.613,31.0283,成都市,灵岩寺,,,,,,,,,,,,,,,,
2025-07-17T1200,2880A,104.0239,30.65639,成都市,大石西路,细颗粒物(PM2.5),59,46,39,42,33,166,,128,114,15,18,4,3,0.8,0.7
2025-07-17T1200,3136A,104.2725,30.5589,成都市,龙泉驿区区政府,,45,39,30,19,20,142,,101,101,12,12,4,4,0.5,0.5
2025-07-17T1200,3357A,104.0106,30.6931,成都市,金博路,臭氧1小时,59,51,38,34,27,167,,81,81,16,20,5,5,0.8,0.7
2025-07-17T1200,3359A,104.0578,30.5225,成都市,华阳,臭氧1小时,98,53,38,36,31,198,,99,99,11,17,4,5,0.6,0.7
2025-07-17T1200,3488A,104.3853,30.7453,成都市,青白江技师分院,臭氧1小时,55,47,48,38,30,164,,77,77,8,36,6,6,0.6,0.6
2025-07-17T1200,3489A,104.0789,30.4072,成都市,科学城,,50,43,34,33,30,158,,85,85,6,11,3,3,0.6,0.6
2025-07-17T1200,4011A,103.8506,30.6947,成都市,光华大道三段,臭氧1小时,78,64,47,38,34,182,,114,,14,14,7,6,0.9,0.8
2025-07-17T1200,4224A,104.2433,30.5353,成都市,鲸龙路1057号,,46,38,39,22,28,146,,81,81,7,22,6,10,0.7,0.7
2025-07-17T1200,1062A,117.9531,40.9081,承德市,铁路,,,6,19,3,7,102,,45,45,,12,2,2,0.2,0.3
2025-07-17T1200,1063A,117.9392,40.9763,承德市,中国银行,,32,,19,3,7,101,,43,43,1,8,1,2,0.2,0.2
2025-07-17T1200,1064A,117.9503,40.928,承德市,开发区,,32,29,32,10,12,101,,47,47,4,14,2,6,0.1,0.2
2025-07-17T1200,1065A,117.8051,40.9655,承德市,文化中心,,,,3,,2,,,66,,,7,,1,,0.2
2025-07-17T1200,1066A,117.9268,41.0026,承德市,离宫,,31,,20,18,14,99,,38,38,2,6,3,3,0.2,0.3
2025-07-17T1200,2314A,117.47,30.6618,池州市,池州学院,,,23,23,16,15,128,,97,96,,5,8,6,0.6,0.4
2025-07-17T1200,3237A,117.4918,30.6617,池州市,展览馆,,40,26,21,16,13,126,,91,91,9,7,6,4,0.7,0.6
2025-07-17T1200,3333A,117.5627,30.695,池州市,第八中学,,39,28,19,18,12,124,,90,90,12,7,9,5,0.6,0.5
2025-07-17T1200,3334A,117.5038,30.6243,池州市,第十二中学,,41,29,23,15,12,131,,92,92,8,10,4,3,0.8,0.8
2025-07-17T1200,1744A,118.9233,42.2816,赤峰市,松山一中,,33,15,25,6,5,104,,78,78,9,15,9,8,0.4,0.4
2025-07-17T1200,1745A,118.9576,42.2728,赤峰市,哈达街,,32,8,12,3,9,101,,79,79,12,16,10,10,0.5,0.5
2025-07-17T1200,1746A,118.8788,42.2554,赤峰市,天义路,,31,13,10,7,6,99,,69,69,8,13,9,8,0.2,0.2
2025-07-17T1200,3058A,119.2658,42.0353,赤峰市,银河街,,27,12,12,3,9,84,,68,68,7,12,6,11,0.5,0.5
2025-07-17T1200,3286A,118.9359,42.3147,赤峰市,桥北物流园区,,30,,14,18,11,94,,69,69,3,6,9,10,0.3,0.4
2025-07-17T1200,2521A,107.3476,22.4136,崇左市,市环保局江州分局,,25,20,24,10,13,80,,75,61,4,7,8,6,0.5,0.5
2025-07-17T1200,4256A,107.3750,22.3736,崇左市,石景林东路7号,,,34,22,17,13,86,,40,40,4,10,4,3,,0.4
2025-07-17T1200,2298A,118.3093,32.3153,滁州市,老年大学,,50,15,21,15,15,157,,108,108,5,4,7,12,0.3,0.3
2025-07-17T1200,2299A,118.3244,32.2786,滁州市,人大宾馆,臭氧1小时,55,,15,12,15,164,,106,106,3,8,4,4,0.3,0.3
2025-07-17T1200,3207A,118.3118,32.3038,滁州市,市政府原办公楼,,49,,21,21,25,155,,105,105,5,4,4,4,0.3,0.4
2025-07-17T1200,3331A,118.3267,32.2634,滁州市,图书馆,,45,,22,11,12,143,,98,98,7,7,9,10,0.4,0.4
2025-07-17T1200,2605A,101.5482,25.0441,楚雄彝族自治州,州环境监测站,,46,36,24,32,19,83,,30,30,11,19,7,7,0.7,0.6
2025-07-17T1200,2606A,101.538,25.0492,楚雄彝族自治州,市经济开发区,,43,,34,30,16,84,,30,30,10,16,7,8,0.8,0.6
2025-07-17T1200,2548A,107.5277,31.2827,达州市,达州职业技术学院,,,,42,,11,,,105,,,19,,8,,0.6
2025-07-17T1200,2549A,107.5086,31.2186,达州市,市环境监测站,颗粒物(PM10),54,58,43,19,18,130,,51,51,20,29,9,7,0.4,0.5
2025-07-17T1200,2550A,107.4988,31.2132,达州市,凤凰小区,,48,48,42,24,21,144,,58,58,14,24,12,9,0.4,0.4
2025-07-17T1200,2551A,107.5082,31.1986,达州市,达县机关宾馆,,42,39,44,13,12,132,,48,48,11,32,9,5,0.4,0.4
2025-07-17T1200,2552A,107.4644,31.2124,达州市,市政中心,颗粒物(PM10),53,55,45,22,19,124,,49,49,12,20,5,4,0.3,0.3
2025-07-17T1200,2614A,100.1542,25.7054,大理白族自治州,大理市环境监测站,,32,31,19,19,18,102,,39,39,9,12,6,5,0.4,0.4
2025-07-17T1200,2615A,100.2171,25.5811,大理白族自治州,大理古城,,30,27,23,13,16,93,,49,49,5,12,6,5,0.8,0.9
2025-07-17T1200,1109A,121.612,38.9741,大连市,甘井子,,44,20,16,12,13,140,,93,93,20,18,5,8,0.3,0.5
2025-07-17T1200,1110A,121.565,38.9511,大连市,周水子,,35,18,18,8,12,111,,87,87,9,16,2,2,0.4,0.3
2025-07-17T1200,1111A,121.5637,38.8845,大连市,星海三站,,31,18,18,16,14,97,,76,76,10,9,6,5,0.4,0.4
2025-07-17T1200,1112A,121.6302,38.9117,大连市,青泥洼桥,,40,26,21,15,11,125,,84,84,8,14,6,6,0.4,0.4
2025-07-17T1200,1113A,121.6251,38.8638,大连市,傅家庄,,32,14,15,13,11,100,,80,80,15,12,8,8,0.2,0.2
2025-07-17T1200,1114A,121.5213,38.8661,大连市,七贤岭,,41,21,18,16,12,130,,93,93,11,11,9,8,0.3,0.3
2025-07-17T1200,1115A,121.2529,38.8061,大连市,旅顺,,25,18,15,13,14,77,,68,68,30,14,3,3,0.4,0.3
2025-07-17T1200,1116A,121.7485,39.1311,大连市,金州,,37,15,14,10,10,117,,90,90,10,11,9,8,0.5,0.4
2025-07-17T1200,1117A,121.7811,39.0496,大连市,开发区,,39,18,16,13,12,122,,80,80,19,19,14,12,0.6,0.6
2025-07-17T1200,1118A,121.9762,39.0631,大连市,双D港,,40,18,11,17,8,126,,92,92,12,7,8,8,0.7,0.6
2025-07-17T1200,1789A,124.81117,46.03138,大庆市,大同区,,25,16,16,6,6,79,,36,36,6,9,6,7,0.5,0.5
2025-07-17T1200,1790A,125.129,46.533,大庆市,龙凤区,,21,12,12,3,8,67,,38,38,8,7,4,5,0.5,0.5
2025-07-17T1200,1791A,124.902,46.408,大庆市,红岗区,,22,12,15,10,10,69,,37,37,6,8,7,6,0.6,0.6
2025-07-17T1200,1792A,125.153,46.586,大庆市,萨尔图区,,15,13,16,3,4,48,,30,30,8,8,8,9,0.4,0.4
2025-07-17T1200,1793A,124.9042,46.6215,大庆市,让胡路区,,,22,15,13,12,,,,,8,11,6,6,0.3,0.4
2025-07-17T1200,3481A,125.141,46.634,大庆市,萨区政府监测点,,,18,19,3,3,62,,41,41,7,6,6,6,,0.2
2025-07-17T1200,1721A,113.3819,40.1097,大同市,果树场,,33,30,15,11,7,103,,58,58,11,13,7,8,0.3,0.3
2025-07-17T1200,1723A,113.2994,40.0758,大同市,云冈宾馆,,38,17,19,13,7,121,,78,78,9,14,7,7,0.9,0.8
2025-07-17T1200,1724A,113.3444,40.0917,大同市,大同大学,,37,12,13,3,6,117,,72,72,8,16,9,10,0.3,0.3
2025-07-17T1200,1725A,113.2661,40.1269,大同市,安家小村,,34,,23,3,4,108,,61,61,6,16,7,8,0.4,0.6
2025-07-17T1200,1726A,113.2711,40.0844,大同市,教育学院,,36,15,18,3,7,114,,68,68,8,15,8,8,0.4,0.5
2025-07-17T1200,3282A,113.3397,40.0597,大同市,大同市卫生学校,,37,11,14,3,5,117,,81,81,13,14,8,8,0.4,0.5
2025-07-17T1200,3565A,113.1367,40.1122,大同市,云冈站,,30,12,24,3,7,96,,51,51,10,18,4,5,0.2,0.3
2025-07-17T1200,3566A,113.1186,40.2556,大同市,图书馆,,36,29,16,12,7,113,,50,50,7,8,11,8,0.9,0.7
2025-07-17T1200,3567A,113.5931,40.0461,大同市,区一中,,,,10,,4,109,,75,75,13,8,9,11,0.4,0.3
2025-07-17T1200,4199A,113.2798,40.0997,大同市,魏都大道141号,,39,21,25,10,7,124,,74,74,4,11,8,27,0.6,0.7
2025-07-17T1200,2269A,124.1069,50.4097,大兴安岭地区,科技局,,,22,27,7,11,63,,28,28,,5,6,5,0.3,0.3
2025-07-17T1200,3663A,124.1164,50.4278,大兴安岭地区,红旗社区,,22,14,9,9,8,70,,31,31,5,5,4,4,0.2,0.2
2025-07-17T1200,1600A,124.3303,40.0625,丹东市,江湾东路,,,11,10,,6,74,,60,60,,12,4,4,0.7,0.6
2025-07-17T1200,1601A,124.4256,40.1503,丹东市,临江后街,,22,10,10,8,4,69,,55,55,9,9,6,6,0.7,0.6
2025-07-17T1200,1602A,124.3933,40.1461,丹东市,元宝山,,15,12,7,7,4,48,,46,44,10,9,3,2,0.6,0.5
2025-07-17T1200,1603A,124.3633,40.1092,丹东市,民主桥,,20,11,8,9,7,62,,56,56,18,15,4,4,1.0,0.9
2025-07-17T1200,3541A,109.5726,19.5167,儋州市,第一中学子站,,16,14,21,7,12,49,,34,34,2,5,8,8,0.2,0.3
2025-07-17T1200,3542A,109.5567,19.5187,儋州市,东坡学校子站,,15,,17,7,11,48,,32,32,1,4,5,5,0.6,0.6
2025-07-17T1200,2616A,98.5842,24.428,德宏傣族景颇族自治州,德宏州监测站,,15,12,17,10,10,40,,23,23,7,8,14,11,0.7,0.7
2025-07-17T1200,3677A,98.5881,24.4368,德宏傣族景颇族自治州,芒市人民政府综合楼,,28,28,24,14,10,35,,24,24,8,8,13,10,0.5,0.5
2025-07-17T1200,1901A,104.4239,31.1208,德阳市,东山公园,臭氧1小时,55,44,38,28,27,164,,104,104,6,10,7,7,0.8,0.8
2025-07-17T1200,1902A,104.3826,31.1317,德阳市,西小区,臭氧1小时,89,55,46,41,34,191,,94,94,18,23,10,9,0.9,0.9
2025-07-17T1200,1904A,104.3553,31.1091,德阳市,耐火材料厂,臭氧1小时,100,58,50,37,34,200,,92,92,15,20,2,2,0.7,0.6
2025-07-17T1200,3639A,104.4019,31.1244,德阳市,市教育局,,,,52,,28,189,,92,92,9,16,,5,,0.9
2025-07-17T1200,1622A,116.3032,37.4674,德州市,儿童乐园,,46,17,32,7,20,146,,139,139,4,8,8,10,0.5,0.5
2025-07-17T1200,1624A,116.2991,37.4451,德州市,监理站,,46,17,29,7,20,145,,131,131,5,10,9,11,0.4,0.5
2025-07-17T1200,3066A,116.2721,37.4379,德州市,九衢泉纯净水厂,,44,24,33,17,23,139,,111,111,13,15,8,4,0.6,0.6
2025-07-17T1200,3371A,116.3728,37.4403,德州市,开发区人民医院,,46,24,32,12,22,145,,125,125,7,12,9,10,0.7,0.8
2025-07-17T1200,3511A,116.5652,37.3319,德州市,陵城艺术中心,,49,29,35,14,20,154,,126,126,8,10,9,8,0.2,0.3
2025-07-17T1200,4292A,116.3525,37.4209,德州市,新河东路,,,19,32,9,21,141,,105,105,12,15,8,10,,0.7
2025-07-17T1200,2621A,99.7056,27.8317,迪庆藏族自治州,迪庆州站,,37,33,24,16,16,117,,66,66,8,8,8,8,0.3,0.3
2025-07-17T1200,3180A,99.7136,27.8094,迪庆藏族自治州,质量技术监督局,,35,22,34,11,11,111,,71,68,13,11,6,6,0.4,0.4
2025-07-17T1200,4257A,104.6092,35.5962,定西市,将台街,,,,,,,,,,,,,,,,
2025-07-17T1200,4309A,104.6159,35.5701,定西市,正龙路62号,,29,26,40,11,17,91,,61,61,2,5,6,7,0.3,0.3
2025-07-17T1200,1389A,113.7547,23.0494,东莞市,莞城梨川,,47,29,31,25,19,150,,54,54,12,15,6,6,0.5,0.5
2025-07-17T1200,1390A,113.7944,23.0128,东莞市,东城石井,,42,36,33,18,16,134,,40,40,16,21,2,2,0.5,0.6
2025-07-17T1200,1391A,113.7383,22.9658,东莞市,南城西平,,43,29,28,19,17,137,,53,53,12,15,3,3,0.6,0.6
2025-07-17T1200,3319A,113.7338,23.0381,东莞市,万江金泰,,45,37,31,21,16,142,,45,45,14,16,3,4,0.7,0.8
2025-07-17T1200,3626A,113.7533,23.0202,东莞市,南城元岭,,41,41,31,19,13,130,,49,49,12,17,5,5,0.5,0.6
2025-07-17T1200,3627A,113.7875,23.0457,东莞市,东城主山,颗粒物(PM10),52,53,50,18,19,133,,48,48,8,17,3,4,0.5,0.5
2025-07-17T1200,1666A,118.6614,37.4309,东营市,市环保局,,46,19,14,9,7,145,,114,114,14,16,9,7,0.4,0.4
2025-07-17T1200,3036A,118.6904,37.4338,东营市,开发区管委会,,49,27,19,14,7,156,,123,123,10,12,9,6,0.5,0.4
2025-07-17T1200,3365A,118.5719,37.565,东营市,垦利区民丰路,臭氧1小时,54,24,19,17,11,163,,128,128,11,14,10,9,0.6,0.6
2025-07-17T1200,3498A,118.5055,37.8612,东营市,河口城区,,49,22,20,15,11,155,,111,111,12,13,11,8,0.7,0.7
2025-07-17T1200,3646A,118.4978,37.4623,东营市,胜利站,,44,38,25,9,8,138,,114,114,14,17,6,4,0.5,0.5
2025-07-17T1200,3734A,118.35,37.26,东营市,理想之城,,45,27,17,12,10,143,,111,111,13,15,11,8,0.4,0.4
2025-07-17T1200,1591A,110.0023,39.8129,鄂尔多斯市,综合楼,,37,19,21,3,5,118,,85,85,14,16,6,8,0.4,0.5
2025-07-17T1200,1592A,109.9486,39.8261,鄂尔多斯市,巴音孟克林场办事处,,40,36,28,9,9,127,,89,89,10,14,4,4,0.5,0.5
2025-07-17T1200,1593A,109.7736,39.5986,鄂尔多斯市,康泽苑,,41,31,34,3,6,130,,68,68,9,15,4,4,0.3,0.3
2025-07-17T1200,1594A,109.8119,39.5989,鄂尔多斯市,华泰汽车城,,37,24,30,3,8,116,,55,55,10,21,6,5,0.4,0.5
2025-07-17T1200,1595A,109.9734,39.7884,鄂尔多斯市,奥林花园,,38,24,25,17,14,121,,77,77,9,15,7,7,0.5,0.5
2025-07-17T1200,2436A,114.8938,30.3994,鄂州市,市政府,,31,21,34,7,15,97,,64,62,7,14,4,6,0.6,0.8
2025-07-17T1200,2437A,114.8989,30.3714,鄂州市,赵家坝,,,,31,,9,97,,81,72,,7,5,8,,0.8
2025-07-17T1200,3654A,114.8094,30.4089,鄂州市,精准医疗中心,,32,22,31,3,8,102,,50,50,12,14,6,4,0.8,0.7
2025-07-17T1200,2454A,109.4978,30.2981,恩施土家族苗族自治州,湖北民院,,35,34,26,15,17,110,,50,50,4,7,5,5,0.5,0.5
2025-07-17T1200,2455A,109.4707,30.2798,恩施土家族苗族自治州,州电力总公司,,40,40,23,20,17,98,,38,38,5,11,9,9,0.6,0.5
2025-07-17T1200,3549A,109.5061,30.3772,恩施土家族苗族自治州,龙凤新区,,36,24,22,12,15,115,,57,57,5,5,5,5,0.5,0.5
2025-07-17T1200,2499A,108.3411,21.6158,防城港市,沙万,,23,23,25,8,12,61,,47,47,6,11,3,3,0.4,0.5
2025-07-17T1200,2500A,108.3514,21.7731,防城港市,防城档案局,,18,14,26,11,13,56,,30,30,4,7,2,2,0.5,0.6
2025-07-17T1200,2501A,108.3506,21.6414,防城港市,大海花园,,,,28,,11,68,,50,50,5,8,4,4,0.4,0.5
2025-07-17T1200,1371A,113.1294,23.0067,佛山市,湾梁,,,48,32,18,15,104,,,,14,14,6,5,,0.6
2025-07-17T1200,1372A,113.1083,23.0478,佛山市,华材职中,,44,44,28,21,19,120,,59,59,8,8,8,7,0.6,0.6
2025-07-17T1200,1373A,113.144,23.0453,佛山市,南海气象局,,43,43,30,16,18,102,,44,44,9,11,2,3,0.6,0.6
2025-07-17T1200,1374A,113.2881,22.8094,佛山市,顺德苏岗,,32,25,31,14,14,102,,48,48,8,13,8,8,0.5,0.5
2025-07-17T1200,1376A,112.8383,22.8678,佛山市,高明孔堂,颗粒物(PM10),51,51,29,17,15,103,,58,58,8,7,6,6,0.7,0.6
2025-07-17T1200,1377A,112.8836,23.1588,佛山市,三水监测站,,41,41,31,26,19,107,,44,44,14,20,5,5,0.6,0.6
2025-07-17T1200,1378A,112.867,23.185,佛山市,三水云东海,,50,50,40,30,23,100,,46,46,17,19,1,3,0.9,0.8
2025-07-17T1200,3625A,113.2544,22.7642,佛山市,容桂街道办,,35,27,20,22,12,110,,50,50,11,14,5,6,0.5,0.5
2025-07-17T1200,1280A,119.3903,26.0543,福州市,鼓山,,,,,,,,,,,,,,,,
2025-07-17T1200,1282A,119.2681,26.0504,福州市,师大,细颗粒物(PM2.5),67,53,45,48,20,122,,47,47,9,11,4,4,0.4,0.4
2025-07-17T1200,1283A,119.2984,26.1028,福州市,五四北路,颗粒物(PM10),55,59,48,37,30,109,,49,46,17,16,3,4,0.4,0.4
2025-07-17T1200,1284A,119.2648,26.0768,福州市,杨桥西路,细颗粒物(PM2.5),58,48,44,41,31,123,,46,46,13,13,4,4,0.5,0.4
2025-07-17T1200,1285A,119.317,26.0746,福州市,紫阳,颗粒物(PM10),56,62,57,36,32,112,,46,46,13,16,4,4,0.4,0.3
2025-07-17T1200,3048A,119.5799,26.0936,福州市,九龙,颗粒物(PM10),51,52,37,32,22,102,,46,46,8,10,4,4,0.4,0.3
2025-07-17T1200,3526A,119.5189,25.9664,福州市,吴航,颗粒物(PM10),52,53,46,34,28,111,,58,58,7,8,4,4,0.5,0.5
2025-07-17T1200,1755A,123.7977,41.8491,抚顺市,望花区,细颗粒物(PM2.5),60,,24,43,16,125,,55,55,14,22,12,11,1.3,0.7
2025-07-17T1200,1756A,123.9161,41.8822,抚顺市,顺城区,,37,36,21,18,12,118,,54,54,13,20,6,6,0.8,0.8
2025-07-17T1200,1757A,124.0436,41.8611,抚顺市,东洲区,,43,33,17,18,11,136,,62,62,14,14,6,6,0.7,0.6
2025-07-17T1200,1758A,123.9247,41.8642,抚顺市,新抚区,,36,36,20,20,12,115,,48,48,14,16,6,5,0.8,0.8
2025-07-17T1200,1759A,124.0972,41.8961,抚顺市,大伙房水库,,38,,18,11,12,120,,60,60,9,14,5,6,0.6,0.7
2025-07-17T1200,1760A,123.7086,41.8391,抚顺市,沈抚新城,细颗粒物(PM2.5),52,,24,36,18,126,,62,62,18,26,9,7,1.4,1.2
2025-07-17T1200,2376A,116.2127,28.0814,抚州市,桐源党溪,,50,50,34,27,17,70,,36,36,2,3,4,4,0.7,0.5
2025-07-17T1200,2377A,116.3544,27.9831,抚州市,市站,,39,39,30,22,16,81,,46,46,2,3,12,10,0.6,0.7
2025-07-17T1200,2378A,116.3565,27.963,抚州市,血防站,,41,41,32,24,18,68,,38,38,6,6,5,5,0.6,0.5
2025-07-17T1200,2379A,116.3564,28.0007,抚州市,采茶剧团,,37,37,32,19,18,81,,46,46,2,3,5,6,0.6,0.5
2025-07-17T1200,2380A,116.385,27.9647,抚州市,医学分院,,,38,34,,16,85,,46,46,2,3,5,6,0.5,0.5
2025-07-17T1200,2207A,121.6094,41.998,阜新市,工业园区,,21,9,10,3,6,65,,46,46,8,17,2,2,0.4,0.3
2025-07-17T1200,2208A,121.6697,42.0279,阜新市,长青街,,20,,8,7,6,64,,45,45,5,11,4,4,0.4,0.4
2025-07-17T1200,2209A,121.6673,42.0705,阜新市,农业园区,,19,11,10,3,1,59,,46,46,5,11,2,2,0.6,0.6
2025-07-17T1200,2210A,121.6717,42.0224,阜新市,东苑,,21,11,12,6,7,66,,48,48,7,13,1,2,0.4,0.4
2025-07-17T1200,2211A,121.6506,42.0498,阜新市,玉龙新城,,17,6,11,3,4,54,,36,36,6,13,3,3,0.4,0.4
2025-07-17T1200,2301A,115.8277,32.8929,阜阳市,市监测站,臭氧1小时,54,42,41,26,24,163,,120,120,12,13,4,4,0.6,0.5
2025-07-17T1200,2303A,115.8554,32.8605,阜阳市,开发区,,49,35,37,18,18,156,,112,112,7,12,5,5,0.4,0.4
2025-07-17T1200,2875A,115.784,32.8892,阜阳市,阜阳职业技术学院,臭氧1小时,80,42,38,13,21,184,,139,139,5,8,4,4,0.5,0.5
2025-07-17T1200,3468A,115.7901,32.8613,阜阳市,市规划展馆,臭氧1小时,60,44,40,28,30,168,,123,123,9,8,2,2,0.7,0.7
2025-07-17T1200,3469A,115.836,32.9183,阜阳市,枣园社区,,50,50,42,27,31,159,,109,109,9,12,2,2,0.5,0.5
2025-07-17T1200,2669A,102.9099,34.9841,甘南藏族自治州,州政府,,33,25,45,23,25,81,,29,29,7,17,2,3,0.4,0.3
2025-07-17T1200,3380A,102.8914,34.9617,甘南藏族自治州,甘肃民族师范学院,颗粒物(PM10),55,60,71,24,27,90,,25,25,8,21,9,9,0.4,0.5
2025-07-17T1200,2570A,101.9603,30.0475,甘孜藏族自治州,水桥子,,,,22,,14,110,,,,,11,6,5,0.5,0.4
2025-07-17T1200,3065A,101.9533,29.9972,甘孜藏族自治州,州环保局,,37,18,20,3,9,118,,73,73,9,10,2,2,0.5,0.5
2025-07-17T1200,3414A,115.8347,28.932,赣江新区,桑海产业园,,36,9,28,8,14,113,,73,73,7,21,5,8,0.4,0.5
2025-07-17T1200,2362A,114.9017,25.9149,赣州市,通天岩,,33,33,32,21,24,80,,58,58,5,5,10,9,0.6,0.7
2025-07-17T1200,2363A,114.9367,25.8664,赣州市,地委,,32,32,31,22,20,99,,65,65,8,8,15,9,0.8,0.9
2025-07-17T1200,2364A,114.9461,25.8481,赣州市,气象台,,33,33,31,21,18,102,,73,73,4,5,9,9,0.5,0.5
2025-07-17T1200,2365A,114.9322,25.8333,赣州市,市图书馆,,30,29,30,20,21,95,,62,62,5,6,4,4,0.4,0.4
2025-07-17T1200,2366A,114.8905,25.8471,赣州市,华坚鞋城,,,,35,,19,110,,60,60,9,6,7,5,0.3,0.4
2025-07-17T1200,3109A,115.0093,25.8613,赣州市,赣县区卫计委,,41,41,28,21,23,88,,48,48,4,9,4,4,0.8,0.8
2025-07-17T1200,2683A,106.2319,36.1417,固原市,马园,,39,34,43,8,12,124,,84,84,12,24,6,6,0.6,0.5
2025-07-17T1200,2684A,106.2792,36.0022,固原市,监测站,,43,27,38,9,13,135,,102,102,6,9,6,5,0.3,0.3
2025-07-17T1200,2685A,106.2375,36.0211,固原市,新区,,,,39,,13,129,,99,97,,9,3,7,0.5,0.4
2025-07-17T1200,3522A,106.2177,35.9959,固原市,原州区十五小,,41,39,40,17,15,130,,107,107,5,8,10,9,0.4,0.4
2025-07-17T1200,2543A,106.6308,30.5278,广安市,小平旧居,,,,,,,,,,,,,,,,
2025-07-17T1200,2544A,106.6303,30.4576,广安市,市委,臭氧1小时,54,37,36,23,21,163,,83,83,13,15,5,4,0.6,0.5
2025-07-17T1200,2545A,106.6271,30.4663,广安市,友谊中学,臭氧1小时,70,28,31,24,21,176,,90,90,12,15,6,4,0.9,0.9
2025-07-17T1200,2547A,106.6388,30.4551,广安市,广电花园,,49,49,52,21,21,152,,77,77,11,16,16,22,0.7,0.7
2025-07-17T1200,2902A,106.6351,30.4865,广安市,北辰小学,,,44,34,19,22,164,,89,89,8,11,4,6,,0.6
2025-07-17T1200,2523A,105.8945,32.4535,广元市,黑石坡,,48,48,44,20,26,153,,85,85,6,7,7,7,0.5,0.5
2025-07-17T1200,2524A,105.821,32.4444,广元市,老城,臭氧1小时,82,36,35,21,17,185,,70,70,11,28,12,9,0.7,0.9
2025-07-17T1200,2526A,105.8628,32.4287,广元市,监测站,臭氧1小时,52,28,33,8,20,161,,72,72,13,13,8,10,1.0,0.9
2025-07-17T1200,3617A,105.8047,32.4166,广元市,经开区,细颗粒物(PM2.5),82,87,50,60,33,175,,66,66,15,21,19,7,1.3,0.8
2025-07-17T1200,1345A,113.2347,23.1423,广州市,广雅中学,颗粒物(PM10),52,54,36,33,21,115,,46,46,13,18,3,3,0.6,0.5
2025-07-17T1200,1346A,113.2612,23.105,广州市,市五中,,48,48,35,28,19,113,,49,49,12,14,5,4,0.5,0.4
2025-07-17T1200,1348A,113.3478,23.0916,广州市,广东商学院,,38,38,22,6,15,119,,55,55,16,24,3,3,0.6,0.5
2025-07-17T1200,1349A,113.4332,23.1047,广州市,市八十六中,,45,45,31,21,16,104,,44,44,26,32,2,2,0.4,0.4
2025-07-17T1200,1350A,113.3505,22.9483,广州市,番禺中学,,41,39,31,22,17,131,,60,60,11,13,7,8,0.5,0.5
2025-07-17T1200,1351A,113.2146,23.3916,广州市,花都师范,颗粒物(PM10),52,54,37,27,23,98,,53,53,12,19,5,5,0.7,0.6
2025-07-17T1200,1352A,113.2597,23.1331,广州市,市监测站,,45,45,34,29,18,113,,49,49,11,16,6,5,0.5,0.5
2025-07-17T1200,1353A,113.5618,23.312,广州市,九龙镇镇龙,,33,33,45,16,23,90,,31,31,14,27,6,6,0.5,0.6
2025-07-17T1200,1354A,113.2765,23.1544,广州市,麓湖,,41,41,33,25,20,99,,38,38,12,16,2,2,0.7,0.7
2025-07-17T1200,1355A,113.443,23.3035,广州市,帽峰山森林公园,,,,,,,,,,,,,,,,
2025-07-17T1200,2846A,113.3221,23.1322,广州市,体育西,颗粒物(PM10),51,52,37,24,19,107,,52,52,17,18,5,5,0.6,0.6
2025-07-17T1200,3298A,113.5717,23.5491,广州市,从化街口,,37,36,44,24,26,117,,39,39,11,22,5,8,0.6,0.7
2025-07-17T1200,3299A,113.3472,23.3692,广州市,白云竹料,颗粒物(PM10),52,54,42,24,22,81,,36,36,20,21,3,3,0.6,0.5
2025-07-17T1200,3300A,113.2981,23.237,广州市,白云嘉禾,颗粒物(PM10),52,54,39,33,22,117,,42,42,16,23,5,5,0.6,0.6
2025-07-17T1200,3301A,113.4256,23.1716,广州市,黄埔科学城,,43,43,36,23,18,100,,45,45,10,24,2,3,0.6,0.7
2025-07-17T1200,3302A,113.3942,23.0483,广州市,番禺大学城,,41,32,32,18,17,131,,62,62,9,15,5,6,0.5,0.5
2025-07-17T1200,3303A,113.4922,22.8168,广州市,南沙黄阁,,39,39,35,24,18,118,,55,55,22,23,6,5,0.4,0.7
2025-07-17T1200,3304A,113.5342,22.7896,广州市,南沙街,,44,33,31,25,15,138,,50,50,10,16,5,5,0.5,0.5
2025-07-17T1200,3443A,113.2902,23.5544,广州市,花都梯面,,38,38,36,24,22,88,,40,40,7,18,4,4,0.6,0.6
2025-07-17T1200,3445A,113.7858,23.7478,广州市,从化良口,,36,31,34,24,24,113,,46,46,6,10,7,7,0.8,0.8
2025-07-17T1200,3446A,113.8051,23.2614,广州市,增城荔城,,49,49,35,29,20,109,,35,35,14,16,7,6,0.4,0.4
2025-07-17T1200,2505A,109.568,23.1478,贵港市,德智高中,,,,,,,,,,,,,,,,
2025-07-17T1200,2506A,109.6047,23.0666,贵港市,江南子站,,32,22,52,22,25,76,,36,36,3,16,5,7,0.6,0.8
2025-07-17T1200,2508A,109.5669,23.1065,贵港市,荷城子站,,24,22,26,7,12,74,,42,42,5,14,6,6,0.3,0.4
2025-07-17T1200,3405A,109.5886,23.1172,贵港市,新世纪学校,,25,22,33,9,18,80,,41,41,8,16,3,3,0.4,0.6
2025-07-17T1200,4260A,109.5933,23.0951,贵港市,中山路155-3号,,29,,40,20,17,78,,41,41,3,14,2,4,0.4,0.5
2025-07-17T1200,1439A,106.6899,26.5998,贵阳市,马鞍山,,26,14,16,3,4,82,,42,42,5,8,5,4,0.3,0.3
2025-07-17T1200,1441A,106.6243,26.6266,贵阳市,鉴湖路,,,,25,,6,76,,51,51,8,8,,11,0.4,0.4
2025-07-17T1200,1442A,106.7487,26.6343,贵阳市,燕子冲,,35,29,14,24,20,98,,57,57,16,17,11,10,0.1,0.1
2025-07-17T1200,1443A,106.6555,26.4365,贵阳市,碧云窝,,29,29,29,9,10,79,,43,43,6,8,8,7,0.5,0.4
2025-07-17T1200,1445A,106.7109,26.6027,贵阳市,红边门,,28,24,22,7,9,87,,51,51,15,16,3,3,0.1,0.1
2025-07-17T1200,1446A,106.7164,26.5699,贵阳市,新华路,,,39,30,19,14,91,,51,51,,13,24,22,0.6,0.4
2025-07-17T1200,1447A,106.674,26.5424,贵阳市,太慈桥,,27,14,16,7,8,84,,38,38,7,14,5,6,0.2,0.2
2025-07-17T1200,1552A,106.805,26.3003,贵阳市,桐木岭,,,34,29,12,17,70,,60,60,5,7,,12,1.1,1.1
2025-07-17T1200,4230A,106.6882,26.5695,贵阳市,花果园大街66号,,25,,11,13,14,80,,46,46,7,11,5,5,0.3,0.3
2025-07-17T1200,4231A,106.6873,26.5169,贵阳市,漓江路57号,,25,14,23,3,9,77,,43,43,4,9,6,7,0.2,0.3
2025-07-17T1200,1862A,110.4144,25.3167,桂林市,电子科大尧山校区,,,,,,,,,,,,,,,,
2025-07-17T1200,1864A,110.3089,25.2708,桂林市,龙隐路小学,,25,22,23,10,12,80,,60,60,3,6,8,8,0.4,0.4
2025-07-17T1200,1865A,110.2869,25.2178,桂林市,八中,,25,22,22,9,12,79,,61,61,5,8,6,6,0.5,0.5
2025-07-17T1200,3531A,110.296,25.1253,桂林市,旅游学院,,,,18,,10,78,,48,48,3,9,,4,0.3,0.4
2025-07-17T1200,4222A,110.1835,25.2444,桂林市,环湖路276号,,25,19,23,14,14,79,,55,55,2,14,12,12,0.2,0.2
2025-07-17T1200,4301A,110.2803,25.2773,桂林市,信义路13号,,26,23,23,9,14,82,,64,64,5,8,4,4,0.5,0.5
2025-07-17T1200,2674A,100.2561,34.4714,果洛藏族自治州,玛沁县大武镇,,34,24,25,6,13,108,,63,63,8,5,16,15,0.4,0.3
2025-07-17T1200,1129A,126.5422,45.755,哈尔滨市,岭北,,36,15,25,15,18,115,,63,63,11,23,7,8,0.5,0.3
2025-07-17T1200,1130A,126.561,45.8167,哈尔滨市,松北商大,,34,,23,7,6,106,,48,48,8,21,7,7,0.6,0.6
2025-07-17T1200,1131A,126.979,45.5419,哈尔滨市,阿城会宁,,35,21,25,8,10,111,,68,68,6,14,4,5,0.5,0.5
2025-07-17T1200,1132A,126.599,45.7222,哈尔滨市,南岗学府路,,34,34,27,10,7,92,,56,56,12,21,6,6,0.8,0.6
2025-07-17T1200,1133A,126.689,45.7733,哈尔滨市,太平宏伟公园,,29,23,27,13,8,92,,58,58,14,22,6,6,0.4,0.3
2025-07-17T1200,1134A,126.635,45.7667,哈尔滨市,道外承德广场,,40,40,37,12,9,91,,48,48,12,22,6,6,0.7,0.8
2025-07-17T1200,1135A,126.685,45.7319,哈尔滨市,香坊红旗大街,,33,24,21,12,15,104,,59,59,16,25,5,3,0.7,0.6
2025-07-17T1200,1136A,126.6411,45.7258,哈尔滨市,动力和平路,,,41,28,,,105,,60,60,12,22,2,2,0.6,0.5
2025-07-17T1200,1137A,126.593,45.7478,哈尔滨市,道里建国路,颗粒物(PM10),53,55,27,12,7,87,,54,54,16,24,5,5,0.8,1.2
2025-07-17T1200,1138A,126.615,45.61,哈尔滨市,平房东轻厂,,,34,27,6,8,98,,19,,6,28,8,8,,0.5
2025-07-17T1200,1139A,126.595,45.9855,哈尔滨市,呼兰师专,,34,32,25,17,12,107,,55,55,8,24,13,11,0.7,0.6
2025-07-17T1200,1140A,126.6206,45.6842,哈尔滨市,省农科院,,38,38,37,20,16,99,,56,56,15,34,8,8,0.7,0.6
2025-07-17T1200,2688A,93.5128,42.8172,哈密市,地区监测站,,46,42,52,32,29,118,,112,106,8,15,8,6,0.4,0.2
2025-07-17T1200,2689A,93.4961,42.8328,哈密市,哈密师范学校,,39,32,48,10,13,124,,117,108,10,16,5,5,0.6,0.3
2025-07-17T1200,2671A,100.9048,36.9639,海北藏族自治州,海晏县西海镇,,43,8,18,7,18,136,,130,127,3,4,9,10,0.5,0.5
2025-07-17T1200,3867A,102.0738,36.5056,海东市,平安区公安北苑,,45,19,28,8,12,144,,118,118,4,7,16,10,0.7,0.7
2025-07-17T1200,1409A,110.576,19.9507,海口市,东寨港,,21,17,22,14,12,66,,36,36,4,5,4,4,0.4,0.5
2025-07-17T1200,1410A,110.3232,20.0574,海口市,海南大学,,,11,22,7,12,,,12,,4,5,2,2,0.4,0.4
2025-07-17T1200,1411A,110.283,20.0053,海口市,秀英海南医院,,24,24,27,7,14,68,,42,42,6,9,5,5,0.3,0.3
2025-07-17T1200,1412A,110.338,19.9969,海口市,海南师范大学,,,28,25,21,15,77,,45,45,5,6,4,4,,0.4
2025-07-17T1200,1413A,110.33,20.0356,海口市,龙华路环保局宿舍,,24,18,25,8,13,75,,48,48,5,7,6,5,0.3,0.3
2025-07-17T1200,3539A,110.5111,19.9736,海口市,桂林洋子站,,24,17,25,8,14,74,,40,40,6,6,4,4,0.3,0.3
2025-07-17T1200,2673A,100.6188,36.2866,海南藏族自治州,共和县恰卜恰镇,,47,10,29,6,11,148,,132,124,3,6,11,12,0.6,0.5
2025-07-17T1200,2676A,97.3731,37.3753,海西蒙古族藏族自治州,德令哈市,,44,21,21,3,9,139,,132,130,2,3,15,13,0.7,0.7
2025-07-17T1200,1048A,114.5302,36.6116,邯郸市,东污水处理厂,,49,34,38,12,8,155,,94,94,6,12,6,4,0.6,0.4
2025-07-17T1200,1049A,114.4918,36.5713,邯郸市,矿院,臭氧1小时,53,30,29,19,12,162,,107,107,8,13,8,5,0.6,0.4
2025-07-17T1200,1050A,114.484,36.6133,邯郸市,丛台公园,臭氧1小时,68,48,31,16,13,174,,114,114,8,11,10,7,0.6,0.4
2025-07-17T1200,3458A,114.7895,36.5593,邯郸市,香泉濮院小区,,45,40,44,3,4,141,,92,92,6,11,3,3,0.3,0.4
2025-07-17T1200,3579A,114.50634,36.77178,邯郸市,永年区实验高中,,,33,46,16,26,160,,99,99,,17,4,3,0.3,0.4
2025-07-17T1200,3580A,114.20016,36.44293,邯郸市,峰峰矿区临水派出所,,,,46,,9,160,,116,116,6,10,6,6,,0.3
2025-07-17T1200,2634A,106.9893,33.1842,汉中市,汉川机床厂子校,颗粒物(PM10),51,52,31,15,18,107,,,,3,8,4,4,0.4,0.5
2025-07-17T1200,2635A,107.0154,33.0706,汉中市,市监测站,,35,26,30,14,19,110,,72,72,14,14,6,6,0.6,0.6
2025-07-17T1200,2636A,107.0089,33.1138,汉中市,鑫源开发区,,34,29,28,14,16,106,,62,62,6,11,5,6,0.4,0.4
2025-07-17T1200,2637A,107.007,33.0323,汉中市,南郑大河坎水厂,,37,29,36,16,21,117,,170,,5,16,6,6,0.4,0.4
2025-07-17T1200,1223A,120.2072,30.2111,杭州市,滨江,,,,33,,19,,,51,51,,18,,6,0.4,0.5
2025-07-17T1200,1224A,120.0633,30.2747,杭州市,西溪,,34,25,26,23,20,106,,55,55,8,13,4,4,0.4,0.4
2025-07-17T1200,1226A,120.3417,30.3150,杭州市,下沙,,47,29,28,18,17,149,,78,78,13,15,4,5,0.4,0.4
2025-07-17T1200,1227A,120.1269,30.2456,杭州市,卧龙桥,,34,28,27,18,19,108,,54,54,3,9,7,7,0.4,0.5
2025-07-17T1200,1228A,120.1903,30.2692,杭州市,浙江农大,,42,34,27,21,21,134,,68,68,13,14,4,4,0.5,0.5
2025-07-17T1200,1230A,120.1197,30.3119,杭州市,和睦小学,,38,28,28,18,20,120,,68,68,7,10,5,5,0.6,0.6
2025-07-17T1200,1231A,120.3019,30.4183,杭州市,临平镇,臭氧1小时,57,37,38,27,19,165,,91,91,10,13,5,5,0.5,0.4
2025-07-17T1200,1232A,120.2753,30.1839,杭州市,城厢镇,臭氧1小时,52,46,34,28,23,161,,72,72,9,14,6,6,0.5,0.5
2025-07-17T1200,1233A,120.0883,30.1808,杭州市,云栖,,31,31,30,16,15,93,,40,40,10,13,8,8,0.8,0.8
2025-07-17T1200,3557A,119.9464,30.0494,杭州市,镇二中,,41,41,32,28,28,124,,65,65,8,15,4,4,0.7,0.6
2025-07-17T1200,3558A,119.7183,30.2367,杭州市,市府大楼,,32,30,26,22,19,102,,53,53,8,10,7,7,0.5,0.5
2025-07-17T1200,3656A,120.1556,30.2864,杭州市,消防大队,,38,31,26,22,17,120,,69,69,7,9,5,6,0.8,0.8
2025-07-17T1200,1270A,117.1959,31.7848,合肥市,明珠广场,,35,29,19,17,12,110,,114,105,17,13,5,5,0.6,0.5
2025-07-17T1200,1271A,117.3072,31.8764,合肥市,三里街,,42,29,20,19,15,132,,110,104,8,9,6,6,0.5,0.5
2025-07-17T1200,1272A,117.2588,31.8707,合肥市,琥珀山庄,,43,41,20,28,18,137,,113,109,11,10,7,7,0.8,0.7
2025-07-17T1200,1273A,117.1604,31.9052,合肥市,董铺水库,,42,34,19,19,9,133,,109,103,6,4,5,4,0.4,0.3
2025-07-17T1200,1274A,117.25,31.8571,合肥市,长江中路,,45,39,22,26,15,142,,120,117,10,8,5,5,0.6,0.4
2025-07-17T1200,1275A,117.266,31.9436,合肥市,庐阳区,,44,29,20,17,11,139,,114,111,4,5,9,9,0.6,0.5
2025-07-17T1200,1276A,117.3453,31.8616,合肥市,瑶海区,,41,39,24,20,13,130,,108,104,10,11,6,6,0.8,0.7
2025-07-17T1200,1277A,117.3027,31.7964,合肥市,包河区,,36,36,22,19,12,107,,111,92,15,14,5,5,0.6,0.5
2025-07-17T1200,1278A,117.2776,31.7385,合肥市,滨湖新区,,39,31,22,27,18,107,,122,106,9,7,6,7,0.5,0.5
2025-07-17T1200,1279A,117.1318,31.8403,合肥市,高新区,,39,31,19,21,11,122,,120,112,14,10,5,5,0.6,0.5
2025-07-17T1200,3464A,117.3803,31.9147,合肥市,高教基地,,37,22,23,19,20,116,,89,89,6,7,5,5,0.7,0.7
2025-07-17T1200,3614A,79.924,37.0877,和田地区,地区环保局,颗粒物(PM10),86,122,456,46,92,110,,106,99,4,4,6,3,0.6,0.5
2025-07-17T1200,3615A,79.9131,37.113,和田地区,市环保局,细颗粒物(PM2.5),117,105,375,88,88,104,,100,93,10,10,6,2,0.3,0.2
2025-07-17T1200,2516A,108.2011,24.715,河池市,东仁乐园,,,,,,,,,,,,,,,,
2025-07-17T1200,2517A,108.0497,24.6947,河池市,市环保站,,30,30,22,12,13,83,,45,45,4,8,4,4,0.6,0.6
2025-07-17T1200,2518A,108.0983,24.6989,河池市,市疾控中心,,30,24,25,14,14,93,,40,40,6,14,4,5,0.7,0.7
2025-07-17T1200,1696A,114.6778,23.7569,河源市,源西,,,,35,27,21,110,,53,53,1,21,3,3,0.7,0.6
2025-07-17T1200,1697A,114.6944,23.7586,河源市,东埔,,39,32,34,24,20,123,,61,61,13,15,5,5,0.6,0.5
2025-07-17T1200,1698A,114.6892,23.7233,河源市,老城,,44,44,38,28,20,128,,58,58,11,14,5,5,0.5,0.5
2025-07-17T1200,1718A,115.4208,35.2464,菏泽市,气象局,臭氧1小时,52,43,38,27,23,161,,115,115,7,10,5,4,0.4,0.4
2025-07-17T1200,3374A,115.5564,35.0891,菏泽市,定陶老年大学,,,34,38,17,19,155,,103,103,,15,4,2,,0.4
2025-07-17T1200,4184A,115.4797,35.24401,菏泽市,永昌路1号,臭氧1小时,58,39,39,27,24,166,,111,111,9,13,6,7,0.2,0.2
2025-07-17T1200,4193A,115.4715,35.2800,菏泽市,长城路999号,臭氧1小时,60,41,38,22,19,168,,115,115,8,12,7,6,0.5,0.4
2025-07-17T1200,2514A,111.5264,24.4172,贺州市,环保小区,,43,,32,30,23,78,,47,47,3,9,12,12,0.8,0.9
2025-07-17T1200,2515A,111.5608,24.4078,贺州市,政协大楼,,25,,30,15,23,79,,61,61,6,11,13,15,0.5,0.6
2025-07-17T1200,3534A,111.4744,24.4553,贺州市,西湾,,36,36,33,10,22,76,,46,46,4,10,6,7,0.4,0.5
2025-07-17T1200,2385A,114.17,35.9019,鹤壁市,市监测站,,,,49,,25,158,,105,105,7,18,,6,,0.7
2025-07-17T1200,2386A,114.2956,35.7511,鹤壁市,市交警支队,,43,22,33,8,23,137,,100,100,10,14,3,5,0.5,0.8
2025-07-17T1200,2387A,114.2878,35.7306,鹤壁市,迎宾馆,,42,40,34,12,22,134,,91,91,8,12,6,5,0.6,0.7
2025-07-17T1200,3474A,114.2617,35.6822,鹤壁市,大新区,,41,29,29,17,14,131,,94,94,3,6,7,6,0.5,0.6
2025-07-17T1200,3596A,114.1572,35.9603,鹤壁市,南山宾馆,臭氧1小时,59,53,37,30,27,167,,121,121,4,6,7,4,1.1,0.9
2025-07-17T1200,2244A,130.2537,47.3416,鹤岗市,哈啤分公司,,31,11,12,9,5,97,,69,69,11,4,11,10,0.8,0.6
2025-07-17T1200,2245A,130.2684,47.3086,鹤岗市,斯达机电,,31,31,21,6,8,89,,61,61,7,7,12,11,0.5,0.4
2025-07-17T1200,2246A,130.3114,47.3388,鹤岗市,东山纸板厂,,26,14,11,11,13,83,,53,53,8,9,10,11,0.6,0.5
2025-07-17T1200,2247A,130.1097,47.3382,鹤岗市,五号水库,,29,6,6,3,4,92,,69,69,9,7,8,8,0.1,0.1
2025-07-17T1200,2263A,127.4833,50.2524,黑河市,交通局,,30,30,23,6,7,52,,38,38,10,9,7,7,0.4,0.4
2025-07-17T1200,2264A,127.5144,50.2341,黑河市,环保局,,,,25,,10,58,,44,,9,9,5,6,,0.4
2025-07-17T1200,2265A,127.5291,50.2472,黑河市,大黑河岛,,,,,,,,,,,,,,,,
2025-07-17T1200,1074A,115.6838,37.7541,衡水市,电机北厂,,43,25,45,9,23,135,,106,106,4,12,3,4,0.5,0.5
2025-07-17T1200,1075A,115.6303,37.7316,衡水市,市监测站,,45,38,53,15,18,144,,113,113,5,7,10,9,0.3,0.4
2025-07-17T1200,3188A,115.6683,37.7217,衡水市,市城管局,,,34,43,18,24,151,,108,108,,13,2,13,0.4,0.4
2025-07-17T1200,3459A,115.5989,37.5491,衡水市,地表水厂,,45,18,39,7,12,143,,118,118,3,9,7,7,0.2,0.2
2025-07-17T1200,2456A,112.5003,26.9167,衡阳市,原169医院,,30,30,20,9,9,93,,59,59,2,5,4,4,0.4,0.4
2025-07-17T1200,2457A,112.6194,26.9258,衡阳市,衡阳化工总厂,,28,27,27,14,15,88,,52,52,4,9,3,5,0.6,0.7
2025-07-17T1200,2458A,112.6211,26.8956,衡阳市,珠晖区环保局,,30,24,21,13,13,95,,57,57,4,7,5,6,0.5,0.4
2025-07-17T1200,2459A,112.6197,26.8733,衡阳市,市委党校,,42,42,30,14,12,88,,58,58,4,9,8,9,0.5,0.5
2025-07-17T1200,2460A,112.6006,26.8919,衡阳市,市监测站,,,,27,,14,86,,52,52,6,11,4,5,0.3,0.5
2025-07-17T1200,2461A,112.5664,26.9056,衡阳市,真空机电公司,,41,41,21,11,11,84,,54,54,3,7,4,5,0.6,0.6
2025-07-17T1200,3399A,112.6703,26.882,衡阳市,师范学院,,39,39,30,13,14,90,,52,52,4,11,6,7,0.6,0.5
2025-07-17T1200,2608A,103.3772,23.3993,红河哈尼族彝族自治州,污水处理厂,,21,11,15,3,9,65,,41,41,5,6,7,8,0.3,0.1
2025-07-17T1200,2609A,103.3861,23.35,红河哈尼族彝族自治州,监测站,,21,21,26,9,9,59,,39,38,2,6,5,9,0.2,0.3
2025-07-17T1200,3038A,103.3758,23.368,红河哈尼族彝族自治州,州图书馆,,20,,11,12,17,62,,43,42,3,4,1,1,0.2,0.2
2025-07-17T1200,1090A,111.6507,40.7517,呼和浩特市,呼市一监,,38,29,14,12,7,119,,72,72,10,11,11,7,0.5,0.3
2025-07-17T1200,1091A,111.6572,40.8033,呼和浩特市,小召,,37,31,13,9,7,116,,69,69,16,18,8,6,0.6,0.5
2025-07-17T1200,1094A,111.7516,40.8369,呼和浩特市,如意水处理厂,,40,39,18,8,6,126,,66,66,8,16,1,3,0.3,0.2
2025-07-17T1200,1095A,111.7276,40.8062,呼和浩特市,二十九中,,41,20,15,8,6,131,,70,70,9,14,5,5,0.6,0.6
2025-07-17T1200,1096A,111.5512,40.7866,呼和浩特市,工大金川校区,,35,35,18,9,6,111,,63,63,16,24,10,5,0.4,0.3
2025-07-17T1200,1097A,111.717,40.7612,呼和浩特市,化肥厂生活区,,39,15,14,6,7,122,,72,72,10,15,7,5,0.4,0.3
2025-07-17T1200,3698A,111.5968,40.8178,呼和浩特市,红旗小学,,38,27,13,10,7,120,,61,61,12,16,8,3,0.4,0.2
2025-07-17T1200,3699A,111.6518,40.8389,呼和浩特市,海东办,,,36,11,,7,126,,74,74,,15,6,4,0.4,0.4
2025-07-17T1200,2192A,119.7594,49.2261,呼伦贝尔市,区环保局,,27,18,35,12,20,84,,49,49,12,19,6,6,0.4,0.4
2025-07-17T1200,3061A,119.7512,49.1577,呼伦贝尔市,国华电力东,,30,8,15,3,10,94,,56,56,5,10,3,3,0.5,0.5
2025-07-17T1200,1250A,120.0751,30.8669,湖州市,城西水厂,,42,27,34,16,23,134,,68,68,13,24,6,6,0.3,0.3
2025-07-17T1200,2873A,120.0830,30.8929,湖州市,仁皇山新区,,45,28,35,18,23,144,,66,66,10,16,3,4,0.7,0.7
2025-07-17T1200,2907A,120.1844,30.8596,湖州市,吴兴区站,,,,31,24,22,148,,65,65,6,12,6,7,0.6,0.5
2025-07-17T1200,3562A,120.4148,30.8538,湖州市,南浔区站,,46,31,32,22,25,147,,79,79,7,10,5,5,0.8,0.6
2025-07-17T1200,1607A,120.9049,40.7211,葫芦岛市,龙港区,,17,16,29,3,19,42,,44,44,34,25,4,6,0.5,0.5
2025-07-17T1200,1608A,120.8392,40.7514,葫芦岛市,化工街,,22,7,19,3,13,70,,60,60,11,28,5,13,0.3,0.5
2025-07-17T1200,1609A,120.8341,40.7073,葫芦岛市,新区,,23,13,24,6,22,73,,62,62,7,23,6,7,0.7,0.8
2025-07-17T1200,1610A,120.8695,40.7677,葫芦岛市,东城区,,22,14,24,3,20,69,,61,61,8,25,6,10,0.6,0.6
2025-07-17T1200,2482A,109.5981,27.5721,怀化市,林科所,,25,25,24,3,5,80,,65,65,6,8,4,4,0.5,0.4
2025-07-17T1200,2483A,109.9453,27.5444,怀化市,河西地税局,,26,26,21,11,16,75,,60,60,3,5,2,2,0.5,0.4
2025-07-17T1200,2484A,109.9781,27.5342,怀化市,市四医院,,37,37,27,19,20,86,,60,60,5,8,7,6,0.2,0.2
2025-07-17T1200,2485A,109.9972,27.5578,怀化市,监测楼,,34,34,29,16,19,84,,61,61,3,5,4,4,0.2,0.2
2025-07-17T1200,2486A,110.0394,27.583,怀化市,市委党校,,26,17,23,17,14,82,,62,62,2,5,5,4,0.3,0.3
2025-07-17T1200,1210A,119.036,33.5981,淮安市,钵池山,,44,,24,19,24,139,,102,102,9,10,7,7,0.7,0.8
2025-07-17T1200,1211A,119.007,33.575,淮安市,北京南路,,44,22,27,16,23,139,,106,106,11,12,8,7,0.7,0.7
2025-07-17T1200,1212A,118.989,33.6067,淮安市,市监测站,,41,29,28,19,22,131,,102,102,7,10,8,8,0.8,0.8
2025-07-17T1200,1213A,119.135,33.5039,淮安市,楚州区监测站,,48,39,35,20,23,151,,111,111,8,7,8,7,0.6,0.6
2025-07-17T1200,3426A,118.8755,33.2894,淮安市,新华书店,,50,27,25,17,19,159,,120,120,10,12,11,9,0.8,0.8
2025-07-17T1200,4206A,119.0288,33.6319,淮安市,承德北路606号,,41,27,33,18,24,130,,97,97,8,11,6,6,0.6,0.6
2025-07-17T1200,2282A,116.8004,33.975,淮北市,监测站,臭氧1小时,59,41,47,23,34,167,,132,132,8,8,8,8,0.7,0.7
2025-07-17T1200,2283A,116.8091,33.9007,淮北市,烈山区政府,,,,63,,28,167,,137,137,,3,16,7,0.7,0.9
2025-07-17T1200,3330A,116.8873,33.9836,淮北市,杜集区检察院,臭氧1小时,58,41,54,24,50,166,,128,128,8,9,8,7,0.7,0.9
2025-07-17T1200,4017A,116.7923,33.9535,淮北市,市博物馆,臭氧1小时,69,33,45,27,34,175,,138,138,7,7,10,8,0.8,0.9
2025-07-17T1200,2277A,116.8305,32.7727,淮南市,潘集区政府,,,34,29,13,13,137,,93,93,6,8,,4,0.3,0.5
2025-07-17T1200,2279A,116.8569,32.5951,淮南市,谢家集区政府,,49,37,22,19,11,154,,109,109,4,6,6,6,0.3,0.2
2025-07-17T1200,2280A,116.8281,32.633,淮南市,八公山区政府,,47,33,23,19,12,148,,102,102,6,6,10,6,0.5,0.4
2025-07-17T1200,2281A,116.6325,32.6201,淮南市,焦岗湖风景区管理处,,,,,,,,,,,,,,,,
2025-07-17T1200,2894A,117.0566,32.6531,淮南市,经济技术开发区消防队,,47,38,23,11,6,149,,101,101,11,10,9,9,0.4,0.4
2025-07-17T1200,3329A,117.0108,32.5893,淮南市,山南新区,,47,28,21,7,6,149,,103,103,4,4,8,9,0.5,0.4
2025-07-17T1200,4209A,117.0031,32.6445,淮南市,国庆中路369号,细颗粒物(PM2.5),52,42,27,36,22,152,,103,103,11,8,10,12,0.3,0.3
2025-07-17T1200,2446A,114.9028,30.4742,黄冈市,职工中心,,38,25,28,13,18,119,,69,69,3,4,9,9,0.6,0.5
2025-07-17T1200,2929A,114.8858,30.4519,黄冈市,红卫路,,,23,23,14,14,117,,87,,2,4,,8,0.5,0.4
2025-07-17T1200,3398A,114.9136,30.4445,黄冈市,市林业局,,35,23,29,10,15,112,,59,59,10,13,9,8,0.4,0.4
2025-07-17T1200,2672A,102.0199,35.5102,黄南藏族自治州,同仁县隆务镇,,,15,34,10,13,50,,76,62,18,7,,9,,0.2
2025-07-17T1200,2295A,118.2903,29.6963,黄山市,延安路89号,,45,,27,31,15,87,,40,40,2,5,4,3,0.6,0.6
2025-07-17T1200,2297A,118.1371,30.2756,黄山市,黄山区政府5号楼,,27,27,26,14,14,84,,54,54,2,4,4,4,0.5,0.5
2025-07-17T1200,4210A,118.3354,29.7203,黄山市,滨江东路7-2号,,31,31,29,13,11,93,,53,53,3,5,2,2,0.5,0.5
2025-07-17T1200,2423A,115.0601,30.2313,黄石市,沈家营,颗粒物(PM10),77,104,72,6,13,104,,55,55,7,15,10,7,0.8,0.6
2025-07-17T1200,2426A,114.8988,30.2019,黄石市,铁山,,34,18,28,11,9,106,,67,67,11,13,14,13,0.3,0.5
2025-07-17T1200,2427A,115.0307,30.2092,黄石市,团城山,,36,22,32,3,8,114,,80,80,8,6,10,7,0.7,0.5
2025-07-17T1200,3149A,115.0235,30.1578,黄石市,笔架山北路,,30,17,32,3,7,95,,68,68,2,7,6,6,0.5,0.5
2025-07-17T1200,4185A,115.0780,30.21118,黄石市,磁湖东路29号,,32,32,44,8,14,102,,61,61,7,18,9,13,1.2,0.8
2025-07-17T1200,1392A,114.4183,23.0528,惠州市,河南岸金山湖子站,,43,42,34,30,19,112,,40,40,12,18,7,7,0.5,0.5
2025-07-17T1200,1393A,114.4053,23.0822,惠州市,下埔横江三路子站,,40,40,34,19,19,118,,46,46,8,16,4,5,0.4,0.4
2025-07-17T1200,1394A,114.4103,23.1142,惠州市,江北云山西路子站,,39,32,32,24,16,122,,50,50,5,14,6,7,0.5,0.5
2025-07-17T1200,1395A,114.4645,22.7833,惠州市,惠阳区承修路船湖子站,,39,39,31,23,15,120,,44,44,9,16,6,6,0.5,0.5
2025-07-17T1200,1396A,114.5317,22.7422,惠州市,大亚湾管委会子站,,39,34,24,21,13,122,,35,35,12,16,7,7,0.6,0.5
2025-07-17T1200,3314A,114.4338,22.8134,惠州市,惠阳秋长,,36,36,31,16,14,105,,38,38,11,22,2,3,0.4,0.3
2025-07-17T1200,3452A,114.6517,22.775,惠州市,大亚湾霞涌,,40,40,25,21,15,75,,29,29,8,13,6,5,0.6,0.7
2025-07-17T1200,2240A,130.9762,45.3001,鸡西市,环保局,,28,20,18,3,5,89,,50,50,4,11,4,5,0.2,0.2
2025-07-17T1200,2243A,130.9429,45.3039,鸡西市,第一中学,,,10,16,3,11,88,,47,47,4,12,8,9,,0.4
2025-07-17T1200,3707A,131.0207,45.3073,鸡西市,欧美日汽修厂,,,,23,14,8,82,,11,,,11,88,11,0.2,0.2
2025-07-17T1200,3709A,130.9967,45.3106,鸡西市,市政设施管理处,,29,16,17,3,6,90,,47,47,7,16,5,5,0.4,0.4
2025-07-17T1200,2367A,114.9754,27.0803,吉安市,红声器材厂,,37,37,36,20,20,107,,64,64,6,7,9,10,0.7,0.7
2025-07-17T1200,2368A,114.9658,27.0999,吉安市,市森林工业局,,36,36,33,17,18,112,,67,67,3,6,7,8,0.7,0.5
2025-07-17T1200,2369A,114.99,27.1312,吉安市,市环境监测站,,39,37,31,22,17,122,,76,76,4,6,10,14,0.5,0.5
2025-07-17T1200,2370A,115.0093,27.0968,吉安市,青原区法院,,44,44,33,23,18,112,,62,62,8,10,7,9,0.7,0.7
2025-07-17T1200,1772A,126.54,43.8622,吉林市,哈达湾,,24,13,13,10,8,76,,45,45,15,11,6,6,0.5,0.4
2025-07-17T1200,1773A,126.5844,43.8358,吉林市,东局子,,21,16,16,7,9,66,,35,35,12,11,5,5,0.5,0.6
2025-07-17T1200,1774A,126.5052,43.8245,吉林市,电力学院,,24,13,17,7,7,75,,41,41,10,11,5,5,0.6,0.5
2025-07-17T1200,1775A,126.6133,43.8972,吉林市,江北,,17,17,14,7,7,52,,33,33,7,9,9,9,0.6,0.7
2025-07-17T1200,1776A,126.555,43.8306,吉林市,江南公园,,23,14,14,9,11,73,,40,40,14,10,2,2,0.4,0.4
2025-07-17T1200,1778A,126.7061,43.7133,吉林市,丰满,,,,,,,,,,,,,,,,
2025-07-17T1200,2868A,126.4739,43.953,吉林市,九站,,24,17,20,10,9,76,,46,46,6,12,9,4,0.5,0.5
2025-07-17T1200,1299A,116.9862,36.6114,济南市,科干所,臭氧1小时,58,22,26,15,22,166,,116,116,13,16,6,6,0.5,0.5
2025-07-17T1200,1300A,116.9376,36.665,济南市,农科所,,50,24,30,12,19,159,,101,101,7,15,7,8,0.4,0.4
2025-07-17T1200,1301A,117.1265,36.6734,济南市,开发区,臭氧1小时,65,29,30,17,21,172,,111,111,14,18,8,8,0.7,0.6
2025-07-17T1200,1303A,117.0624,36.6868,济南市,省种子仓库,,,31,36,9,18,178,,118,118,,14,,8,0.5,0.6
2025-07-17T1200,1304A,116.9489,36.6447,济南市,机床二厂,臭氧1小时,53,22,31,12,16,162,,120,120,9,16,6,7,0.5,0.5
2025-07-17T1200,1305A,117.0495,36.663,济南市,市监测站,臭氧1小时,60,27,30,10,18,168,,118,118,16,18,9,9,0.6,0.6
2025-07-17T1200,1306A,116.7675,36.5484,济南市,长清党校,,49,32,32,22,23,156,,94,94,10,18,5,5,0.5,0.5
2025-07-17T1200,1616A,117.6795,36.229,济南市,技术学院,,48,17,23,14,21,152,,105,105,6,14,9,10,0.8,0.7
2025-07-17T1200,1961A,117.532,36.6868,济南市,东山小学,,50,24,30,12,17,157,,99,99,6,15,7,7,0.4,0.3
2025-07-17T1200,3059A,117.7161,36.2049,济南市,泰兴公司,,48,24,31,19,21,153,,92,92,4,14,10,9,0.6,0.5
2025-07-17T1200,3064A,117.6867,36.2171,济南市,莱芜战役纪念馆,,46,24,33,14,24,146,,98,98,8,15,10,9,0.8,0.8
2025-07-17T1200,3494A,117.1673,36.9782,济南市,济阳区政府,,47,22,36,10,19,148,,102,102,8,12,8,9,0.4,0.5
2025-07-17T1200,3495A,117.1171,36.63,济南市,锦屏中学,臭氧1小时,67,27,29,12,16,173,,111,111,10,11,8,8,0.7,0.7
2025-07-17T1200,3682A,116.9814,36.6819,济南市,济南四建,臭氧1小时,60,17,30,12,20,168,,116,116,10,16,5,6,0.5,0.6
2025-07-17T1200,1653A,116.6251,35.4302,济宁市,火炬城,,45,22,34,12,18,142,,88,88,5,13,5,4,0.5,0.6
2025-07-17T1200,1655A,116.5491,35.4042,济宁市,电化厂,,50,32,37,14,20,159,,107,107,5,11,6,6,0.6,0.7
2025-07-17T1200,3500A,116.5814,35.3707,济宁市,北湖一中,,45,21,36,10,19,144,,100,100,8,12,6,7,0.5,0.5
2025-07-17T1200,3501A,116.8249,35.5593,济宁市,服务中心,,49,23,31,3,14,154,,99,99,8,15,2,3,0.4,0.4
2025-07-17T1200,3678A,116.5907,35.4054,济宁市,市第七中学,,,42,38,9,13,132,,87,87,8,12,6,7,,0.4
2025-07-17T1200,2255A,130.2751,46.8028,佳木斯市,佳纺,,23,23,18,12,10,57,,29,29,13,16,8,7,0.4,0.4
2025-07-17T1200,2256A,130.3995,46.8307,佳木斯市,发电厂,,20,17,12,13,8,63,,37,37,15,12,5,6,0.5,0.4
2025-07-17T1200,2257A,130.3258,46.7975,佳木斯市,环保局,,27,27,22,11,11,51,,34,34,26,22,8,8,0.5,0.6
2025-07-17T1200,2258A,130.3648,46.8032,佳木斯市,十一中,,,,14,20,12,69,,42,42,,12,6,5,,0.5
2025-07-17T1200,2259A,130.3794,46.7588,佳木斯市,四丰,,,,,,,,,,,7,17,1,11,0.5,0.5
2025-07-17T1200,1252A,120.7436,30.778,嘉兴市,清河小学,,49,49,45,27,24,148,,82,82,10,18,8,8,0.8,0.7
2025-07-17T1200,1253A,120.726,30.7478,嘉兴市,嘉兴学院,,,40,40,25,25,155,,80,80,,17,5,5,,0.7
2025-07-17T1200,2872A,120.7846,30.7525,嘉兴市,南湖区残联,,49,45,40,32,30,154,,87,87,5,14,6,7,0.6,0.6
2025-07-17T1200,3407A,120.6916,30.7739,嘉兴市,秀洲住建,,48,43,37,24,23,151,,82,82,6,18,5,5,0.7,0.6
2025-07-17T1200,1945A,98.2908,39.7711,嘉峪关市,气象局,,39,39,39,14,16,72,,56,56,29,19,22,12,1.1,0.9
2025-07-17T1200,2884A,98.2672,39.7978,嘉峪关市,酒钢宾馆,,39,39,42,24,15,80,,72,58,24,14,32,14,2.8,1.4
2025-07-17T1200,3248A,98.2643,39.7724,嘉峪关市,雄关区,,36,36,37,20,13,69,,46,46,26,23,11,10,0.8,0.7
2025-07-17T1200,1383A,113.1064,22.6058,江门市,北街,,49,49,27,31,16,106,,55,55,7,6,2,2,0.5,0.4
2025-07-17T1200,1384A,113.0731,22.5835,江门市,西区,,31,20,26,20,18,98,,53,53,6,8,5,5,0.6,0.6
2025-07-17T1200,1385A,113.0219,22.5311,江门市,圭峰西,,40,40,28,23,17,92,,51,51,5,6,4,4,0.5,0.5
2025-07-17T1200,1386A,113.0828,22.5947,江门市,东湖,,33,33,25,20,15,99,,54,54,7,8,6,5,0.5,0.5
2025-07-17T1200,3311A,113.1075,22.5647,江门市,江海富民,,,33,35,14,14,94,,49,49,9,9,7,7,,0.2
2025-07-17T1200,3449A,113.05,22.4667,江门市,新会银湖,,29,29,27,15,13,84,,36,36,2,9,2,3,0.3,0.3
2025-07-17T1200,1830A,113.1992,35.2590,焦作市,影视城,,,,27,,14,,,,,,8,,15,,0.6
2025-07-17T1200,3169A,113.2725,35.2067,焦作市,太极体育中心,,,,,,,,,,,,,,,,
2025-07-17T1200,3335A,113.3137,35.2641,焦作市,马村街道办,,,32,48,28,24,174,,115,115,13,13,,10,,0.8
2025-07-17T1200,3336A,113.2465,35.2373,焦作市,焦作技师学院,臭氧1小时,52,38,49,17,19,161,,122,122,9,12,6,4,0.9,1
2025-07-17T1200,3477A,113.1656,35.2539,焦作市,中站许衡医院,,50,24,40,20,27,160,,124,124,7,12,8,7,0.5,0.6
2025-07-17T1200,3981A,113.2449,35.1803,焦作市,原李万街道办,,50,38,43,7,17,158,,116,116,8,14,8,8,0.6,0.7
2025-07-17T1200,4264A,113.2340,35.2190,焦作市,新安路1731号,,50,27,45,19,19,159,,125,125,5,8,5,5,0.2,0.3
2025-07-17T1200,1708A,116.3701,23.5345,揭阳市,新兴,颗粒物(PM10),51,52,33,23,24,117,,64,64,6,8,4,5,0.7,0.6
2025-07-17T1200,1709A,116.3264,23.5443,揭阳市,西马,,36,36,37,23,18,112,,55,55,2,5,1,2,0.6,0.6
2025-07-17T1200,1710A,116.3611,23.5626,揭阳市,东兴,,43,43,34,16,16,103,,52,52,5,7,1,1,0.9,0.9
2025-07-17T1200,1711A,116.4151,23.5294,揭阳市,渔湖,,49,49,34,22,15,107,,55,55,9,8,1,2,0.6,0.5
2025-07-17T1200,3320A,116.403,23.5699,揭阳市,曲溪,,47,47,33,31,19,127,,68,68,6,7,4,4,0.7,0.6
2025-07-17T1200,1944A,102.1692,38.5167,金昌市,天庆家园,,43,34,71,13,27,135,,101,99,7,13,23,60,1.4,0.9
2025-07-17T1200,4022A,102.1647,38.5371,金昌市,金川区人防中心,,46,32,65,22,32,146,,100,99,6,11,12,19,0.7,0.7
2025-07-17T1200,4239A,102.1930,38.5319,金昌市,长春路96号,,44,37,68,13,28,138,,112,109,3,5,19,27,0.6,0.6
2025-07-17T1200,1262A,119.647,29.077,金华市,十五中,,46,46,41,23,23,122,,63,63,16,20,2,3,0.4,0.4
2025-07-17T1200,1263A,119.686,29.1029,金华市,监测站,,45,45,43,24,23,123,,60,60,14,17,4,4,0.4,0.4
2025-07-17T1200,3659A,119.656,29.1131,金华市,气象局,,,,43,,21,126,,64,64,,16,4,4,,0.6
2025-07-17T1200,1767A,121.1115,41.0879,锦州市,南山,,21,,16,10,15,66,,59,57,4,9,4,5,0.6,0.8
2025-07-17T1200,1768A,121.0604,40.8428,锦州市,开发区,,23,12,26,6,18,72,,54,54,8,29,4,6,0.5,0.7
2025-07-17T1200,1769A,121.1836,41.1119,锦州市,百股街道,,30,30,16,7,5,72,,62,62,6,8,7,6,0.6,0.7
2025-07-17T1200,1770A,121.1178,41.1222,锦州市,天安街道,,21,12,14,10,10,66,,61,59,6,12,5,6,0.5,0.6
2025-07-17T1200,1771A,121.1303,41.1386,锦州市,北湖公园,,20,16,16,13,9,62,,56,56,4,7,4,4,0.5,0.5
2025-07-17T1200,2160A,112.85,35.5051,晋城市,自来水公司,,,34,70,14,33,148,,101,101,8,13,,4,0.4,0.7
2025-07-17T1200,2161A,112.8318,35.4936,晋城市,白云商贸,,44,39,61,7,26,140,,92,92,8,12,6,6,0.4,0.7
2025-07-17T1200,2162A,112.8508,35.4887,晋城市,市环保局,,44,32,70,9,28,138,,93,93,5,7,4,4,0.3,0.6
2025-07-17T1200,2163A,112.8676,35.4897,晋城市,技术学院,,42,32,60,7,27,132,,85,85,5,10,4,3,0.5,0.7
2025-07-17T1200,2165A,112.8453,35.546,晋城市,白马寺,,45,14,39,7,36,142,,115,115,3,6,6,6,0.4,0.7
2025-07-17T1200,3620A,112.8271,35.4828,晋城市,泽州一中,,48,48,47,7,24,146,,94,94,2,7,3,4,0.3,0.5
2025-07-17T1200,2173A,112.7249,37.7067,晋中市,南都小区,,40,25,56,11,19,125,,90,90,3,11,5,4,0.0,0.2
2025-07-17T1200,2174A,112.6991,37.6982,晋中市,榆次区政府,,40,22,44,13,15,127,,93,92,6,15,8,8,0.4,0.5
2025-07-17T1200,2865A,112.7195,37.6828,晋中市,榆次三中,,41,27,32,9,13,130,,81,79,4,11,8,7,0.5,0.6
2025-07-17T1200,4200A,112.7478,37.6954,晋中市,迎宾街26号,,43,31,54,9,15,136,,90,90,6,15,8,8,0.6,0.4
2025-07-17T1200,2439A,112.2014,31.0481,荆门市,竹园小学,,,23,34,19,20,60,,66,63,,13,2,3,,0.5
2025-07-17T1200,2440A,112.1969,30.9891,荆门市,掇刀,,29,29,32,18,23,58,,62,62,25,12,6,6,0.7,0.6
2025-07-17T1200,2441A,112.2213,31.0386,荆门市,石化一小,,42,42,37,16,26,76,,72,72,12,12,4,9,0.6,0.5
2025-07-17T1200,3012A,112.1849,31.0362,荆门市,西山林语,,32,32,30,16,19,52,,66,64,5,5,6,8,0.5,0.5
2025-07-17T1200,3547A,112.1632,31.0138,荆门市,龙泉中学南校,,28,,28,19,21,56,,68,66,10,8,3,4,0.2,0.1
2025-07-17T1200,1844A,112.2494,30.3197,荆州市,市图书馆,,34,34,26,16,15,55,,,,10,7,1,1,0.7,0.6
2025-07-17T1200,1845A,112.2008,30.3544,荆州市,市委党校,,35,35,26,21,19,53,,54,50,15,14,2,3,0.7,0.6
2025-07-17T1200,3194A,112.2747,30.3122,荆州市,管委会,,38,34,27,26,17,46,,43,40,12,10,5,6,0.7,0.6
2025-07-17T1200,4268A,112.1722,30.3366,荆州市,学苑路85号,,43,36,35,30,22,82,,72,72,7,17,6,6,0.6,0.5
2025-07-17T1200,2342A,117.3102,29.3867,景德镇市,王港中学,,,,,,,,,,,,,,,,
2025-07-17T1200,2343A,117.2117,29.2933,景德镇市,老干部活动中心,,43,38,28,30,18,107,,52,52,14,11,6,6,0.7,0.8
2025-07-17T1200,2344A,117.1894,29.2789,景德镇市,兽医站,,49,49,36,33,20,111,,43,43,13,14,16,7,0.9,0.8
2025-07-17T1200,2345A,117.1547,29.2617,景德镇市,台达陶瓷,细颗粒物(PM2.5),54,53,42,38,24,97,,40,40,15,20,4,33,0.9,0.9
2025-07-17T1200,2346A,117.2461,29.2956,景德镇市,陶研所,细颗粒物(PM2.5),57,46,32,40,23,108,,50,50,24,12,117,11,1.1,0.8
2025-07-17T1200,1803A,115.9872,29.6815,九江市,十里,,25,14,18,10,20,77,,72,72,17,12,4,4,0.7,0.6
2025-07-17T1200,1804A,115.9584,29.7046,九江市,茅山头,,25,17,26,9,16,80,,74,74,8,8,4,4,0.5,0.5
2025-07-17T1200,1805A,115.9877,29.7295,九江市,西园,,31,10,16,9,11,97,,86,86,12,18,5,6,0.7,0.6
2025-07-17T1200,1808A,115.9114,29.6038,九江市,综合工业园,,22,14,25,7,11,68,,64,64,19,15,6,6,0.9,1
2025-07-17T1200,1809A,116.0721,29.7535,九江市,石化总厂,,25,16,28,15,25,80,,75,75,14,11,8,9,0.6,0.6
2025-07-17T1200,1810A,115.9773,29.5698,九江市,庐山气象台,,29,10,14,3,6,91,,84,84,4,3,6,7,1.1,0.6
2025-07-17T1200,3190A,116.0254,29.6994,九江市,外国语学校,,,16,18,7,14,77,,76,76,,8,7,7,,0.8
2025-07-17T1200,4253A,116.0102,29.6594,九江市,莲花大道8号,,21,12,15,9,12,67,,66,66,7,3,4,4,0.6,0.6
2025-07-17T1200,4240A,98.4958,39.7339,酒泉市,玉门东路5号,颗粒物(PM10),62,73,45,29,26,61,,59,59,39,13,32,13,0.9,0.3
2025-07-17T1200,4241A,98.5099,39.7506,酒泉市,北大街108号,颗粒物(PM10),73,95,47,24,16,66,,59,59,31,13,12,13,1.1,0.4
2025-07-17T1200,2698A,76.0072,39.4467,喀什地区,巡警大队,颗粒物(PM10),63,76,66,19,21,128,,96,96,14,20,4,4,0.3,0.4
2025-07-17T1200,2699A,75.9755,39.4694,喀什地区,吾办,颗粒物(PM10),69,87,67,29,27,117,,90,90,29,27,7,6,0.4,0.5
2025-07-17T1200,4027A,75.9483,39.4689,喀什地区,老干局,颗粒物(PM10),61,71,63,20,18,125,,90,90,9,15,6,5,0.5,0.4
2025-07-17T1200,1824A,114.3389,34.7781,开封市,肿瘤医院,,48,29,34,21,17,151,,120,120,8,13,4,5,0.6,0.7
2025-07-17T1200,1826A,114.2885,34.7965,开封市,世纪星幼儿园,,44,28,36,8,24,139,,114,114,7,12,4,5,0.9,0.8
2025-07-17T1200,3147A,114.3438,34.8106,开封市,龙亭公园,,44,34,37,14,22,139,,110,110,4,11,2,3,0.4,0.5
2025-07-17T1200,3210A,114.3644,34.7964,开封市,汴京公园,,46,35,43,12,23,147,,110,110,7,12,6,6,0.4,0.5
2025-07-17T1200,3473A,114.2485,34.8306,开封市,技师学院,,44,33,35,7,22,140,,119,119,4,12,6,4,0.6,0.7
2025-07-17T1200,3592A,114.4644,34.7556,开封市,祥符区生态环境局,,47,32,42,15,21,148,,102,102,10,20,5,5,0.5,0.6
2025-07-17T1200,1951A,84.895,45.6094,克拉玛依市,长征新村,,50,50,29,10,10,64,,91,66,25,11,5,5,0.4,0.3
2025-07-17T1200,1952A,84.8988,45.5893,克拉玛依市,南林小区,颗粒物(PM10),52,54,34,11,10,41,,62,42,28,16,5,5,0.2,0.1
2025-07-17T1200,1954A,84.905,44.3396,克拉玛依市,独山子区,,41,22,28,8,11,129,,111,111,8,9,9,9,1.1,0.4
2025-07-17T1200,1955A,85.6979,46.098,克拉玛依市,乌尔禾区商贸楼,颗粒物(PM10),55,60,28,15,10,55,,81,46,11,10,5,5,0.6,0.5
2025-07-17T1200,3612A,85.1045,45.6899,克拉玛依市,白碱滩区新站,颗粒物(PM10),71,91,50,34,23,52,,82,63,28,10,11,9,0.7,0.5
2025-07-17T1200,2697A,76.1454,39.7142,克孜勒苏柯尔克孜自治州,市人民政府,颗粒物(PM10),68,86,74,39,31,103,,66,61,18,18,17,11,0.3,0.2
2025-07-17T1200,3665A,76.1658,39.7157,克孜勒苏柯尔克孜自治州,克州文化中心,颗粒物(PM10),68,86,79,43,34,110,,74,66,12,14,10,8,0.4,0.3
2025-07-17T1200,1450A,102.8204,24.8886,昆明市,呈贡新区,,,,25,,28,82,,34,34,,23,4,2,0.5,0.7
2025-07-17T1200,1451A,102.6251,24.9608,昆明市,西山森林公园,,,,,,,,,,,,,,,,
2025-07-17T1200,1452A,102.7252,25.0902,昆明市,龙泉镇,,27,,25,11,13,86,,39,39,5,14,1,2,0.3,0.4
2025-07-17T1200,1453A,102.7266,25.0375,昆明市,东风东路,,29,19,35,13,19,90,,46,46,15,24,4,4,0.3,0.4
2025-07-17T1200,1454A,102.6742,25.0669,昆明市,金鼎山,,29,25,32,8,13,92,,41,41,5,16,2,1,0.3,0.4
2025-07-17T1200,1455A,102.6644,25.0401,昆明市,碧鸡广场,,27,17,34,7,18,85,,40,40,16,22,5,5,0.5,0.5
2025-07-17T1200,3179A,102.7494,25.0119,昆明市,官渡区博物馆,,28,8,31,8,18,87,,34,34,10,30,1,2,0.3,0.4
2025-07-17T1200,3375A,102.8017,24.8336,昆明市,青年创业园,,43,43,33,29,26,80,,38,38,10,25,3,2,0.5,0.6
2025-07-17T1200,3550A,102.7997,24.9786,昆明市,昆明学院,,27,15,47,10,29,84,,30,30,9,35,5,7,0.3,0.5
2025-07-17T1200,3551A,102.5967,24.6736,昆明市,晋宁区生态环境分局,,32,,27,19,21,101,,46,46,8,16,6,4,0.4,0.5
2025-07-17T1200,3552A,102.6678,24.9856,昆明市,云天化总部,,,33,29,23,19,90,,42,42,22,25,5,4,,0.3
2025-07-17T1200,1456A,91.1319,29.6514,拉萨市,八廓街,,22,12,8,7,6,68,,59,55,12,11,5,6,0.3,0.2
2025-07-17T1200,1457A,91.1221,29.6747,拉萨市,市环保局,,20,12,12,6,7,63,,56,52,11,11,6,5,0.3,0.2
2025-07-17T1200,1458A,91.0874,29.6475,拉萨市,区监测站,,19,9,9,3,6,60,,61,54,16,12,4,4,0.2,0.3
2025-07-17T1200,1459A,91.1774,29.6541,拉萨市,西藏大学,,,6,8,3,6,60,,52,52,15,11,,6,0.3,0.3
2025-07-17T1200,1460A,90.9798,29.6588,拉萨市,区辐射站,,18,18,14,7,7,57,,50,48,20,16,6,5,0.4,0.3
2025-07-17T1200,1461A,91.0834,29.6292,拉萨市,拉萨火车站,,20,9,8,6,6,64,,58,53,10,10,5,4,0.3,0.2
2025-07-17T1200,2520A,109.2203,23.7256,来宾市,来宾技工学校,,41,41,29,18,16,83,,40,40,5,9,6,5,0.6,0.6
2025-07-17T1200,3535A,109.1781,23.7297,来宾市,兴宾区政府,,40,,25,28,16,84,,44,44,7,10,6,6,0.6,0.6
2025-07-17T1200,4002A,109.2416,23.7461,来宾市,中南小学,,33,33,27,16,15,91,,45,45,5,8,4,5,0.6,0.6
2025-07-17T1200,1477A,104.1373,35.9454,兰州市,榆中兰大校区,,,,,,,,,,,,,,,,
2025-07-17T1200,1479A,103.831,36.0464,兰州市,铁路设计院,,,67,61,20,23,124,,64,64,24,24,,10,,0.4
2025-07-17T1200,3241A,103.7439,36.0842,兰州市,百合公园,,40,38,48,11,23,128,,59,59,6,16,7,5,0.3,0.5
2025-07-17T1200,3242A,103.9611,35.998,兰州市,和平,,,,,,,118,,,,13,12,12,14,1.2,0.8
2025-07-17T1200,4236A,103.6293,36.0938,兰州市,庄浪东路808号,颗粒物(PM10),56,61,56,37,32,136,,57,57,20,26,13,12,0.5,0.4
2025-07-17T1200,4237A,103.7251,36.1043,兰州市,安宁西路88号,,46,40,51,13,26,146,,74,74,2,12,8,8,0.3,0.4
2025-07-17T1200,4238A,103.8470,36.0676,兰州市,北滨河东路1号,颗粒物(PM10),51,51,50,26,27,127,,71,71,15,18,9,10,0.5,0.6
2025-07-17T1200,3245A,103.6633,36.533,兰州新区,新区管委会,,42,38,44,27,24,132,,91,91,8,8,15,12,0.5,0.4
2025-07-17T1200,3246A,103.6975,36.4789,兰州新区,舟曲中学,,40,34,59,17,22,126,,89,89,8,9,15,9,0.5,0.5
2025-07-17T1200,1067A,116.6708,39.5111,廊坊市,药材公司,,42,25,32,8,13,132,,71,71,5,17,4,4,0.2,0.4
2025-07-17T1200,1068A,116.7214,39.5589,廊坊市,开发区,,42,38,32,3,15,132,,59,59,8,23,2,2,0.2,0.5
2025-07-17T1200,1070A,116.7244,39.5269,廊坊市,北华航天学院,,43,35,44,3,10,136,,70,70,3,12,3,2,0.2,0.5
2025-07-17T1200,2919A,116.7022,39.5453,廊坊市,河北工业大学,,,32,44,6,12,130,,69,69,6,17,5,4,,0.5
2025-07-17T1200,2535A,103.7723,29.5462,乐山市,花湖湾,,,50,44,36,33,147,,60,60,,14,,3,1.0,0.8
2025-07-17T1200,2536A,103.7627,29.5844,乐山市,牛耳桥,臭氧1小时,80,43,42,35,31,184,,73,73,15,18,6,5,1.0,0.8
2025-07-17T1200,2537A,103.7508,29.6006,乐山市,市第三水厂,臭氧1小时,68,42,41,32,29,174,,75,75,17,24,4,3,0.8,0.8
2025-07-17T1200,2538A,103.7571,29.5664,乐山市,市监测站,,,57,45,37,31,177,,75,75,,16,6,6,1.1,1.1
2025-07-17T1200,3361A,103.7311,29.5628,乐山市,理工大学,臭氧1小时,75,57,44,36,32,180,,74,74,12,17,6,4,1.2,1.2
2025-07-17T1200,2598A,100.2143,26.8576,丽江市,西南郊,,30,10,18,8,13,94,,75,75,9,8,6,6,0.8,0.8
2025-07-17T1200,2599A,100.2497,26.8802,丽江市,丽江古城,,30,21,23,12,14,96,,73,71,12,11,9,10,0.6,0.5
2025-07-17T1200,2600A,100.2203,26.8906,丽江市,市中心,,30,19,17,16,16,96,,70,69,13,12,8,8,0.5,0.5
2025-07-17T1200,1267A,119.914,28.4514,丽水市,监测站大楼,,42,42,24,12,11,102,,61,61,8,12,4,3,0.4,0.4
2025-07-17T1200,1268A,119.93,28.4586,丽水市,莲都小学,,30,28,25,10,11,94,,53,53,4,13,3,3,0.4,0.4
2025-07-17T1200,1269A,119.879,28.4231,丽水市,余庄前,,41,30,25,22,18,129,,45,45,6,9,4,4,0.5,0.5
2025-07-17T1200,1173A,119.176,34.5885,连云港市,市环境监测站,,,9,21,7,16,140,,119,119,6,10,4,3,,0.4
2025-07-17T1200,3000A,119.3581,34.6972,连云港市,德源药业,,44,17,21,9,10,138,,111,111,12,12,4,3,0.7,0.7
2025-07-17T1200,3007A,119.178,34.844,连云港市,新城一中,,48,26,28,7,18,151,,105,105,8,14,5,7,0.7,1
2025-07-17T1200,3008A,119.3608,34.7519,连云港市,胡沟管理处,,46,17,15,12,8,145,,118,118,5,6,6,5,0.6,0.6
2025-07-17T1200,3009A,119.1478,34.5911,连云港市,矿山设计院,,45,14,23,9,14,142,,102,102,9,4,4,3,0.4,0.3
2025-07-17T1200,3434A,119.2413,34.6539,连云港市,工贸学校,,45,15,18,7,14,142,,117,117,2,5,6,6,0.7,0.8
2025-07-17T1200,3664A,119.4172,34.7341,连云港市,连云街道,,47,30,21,24,13,150,,114,114,11,15,4,3,0.7,0.6
2025-07-17T1200,2571A,102.3431,27.8099,凉山彝族自治州,青龙寺,,36,31,30,12,12,113,,62,62,4,9,10,8,0.7,0.6
2025-07-17T1200,2572A,102.2721,27.8415,凉山彝族自治州,邛海宾馆,,38,37,35,26,23,106,,64,64,32,20,13,10,0.7,0.6
2025-07-17T1200,2573A,102.2625,27.898,凉山彝族自治州,西昌市政府,,44,44,30,27,23,117,,78,78,15,8,15,7,1.1,0.5
2025-07-17T1200,2574A,102.2685,27.8851,凉山彝族自治州,凉山州政府,,38,36,31,22,17,121,,76,76,22,16,16,11,1.0,0.7
2025-07-17T1200,4229A,102.2342,27.8859,凉山彝族自治州,凯乐南路30号,,38,38,33,22,20,117,,63,63,12,17,17,10,0.9,0.7
2025-07-17T1200,2212A,123.2,41.1953,辽阳市,宏伟区,颗粒物(PM10),52,54,24,22,7,147,,87,87,16,12,16,7,1.0,0.8
2025-07-17T1200,2213A,123.1683,41.2495,辽阳市,新华园,,49,41,23,21,9,155,,90,90,14,16,11,7,1.0,0.8
2025-07-17T1200,2214A,123.2354,41.2639,辽阳市,滨河路,,47,32,28,15,12,148,,83,83,14,22,5,4,0.7,0.4
2025-07-17T1200,2215A,123.149,41.2991,辽阳市,铁西工业园,,38,37,35,17,15,121,,71,71,7,16,5,4,1.0,1
2025-07-17T1200,2227A,125.1358,42.8845,辽源市,环保局,,30,14,25,6,9,96,,51,51,5,11,6,6,0.5,0.5
2025-07-17T1200,3239A,125.0764,42.9078,辽源市,银鹰制药,,33,13,18,6,13,103,,59,59,5,16,7,10,0.4,0.5
2025-07-17T1200,1625A,115.9848,36.4372,聊城市,区政府,,47,23,27,16,17,150,,119,119,8,12,7,7,0.7,0.7
2025-07-17T1200,2878A,116.0072,36.4343,聊城市,聊大东校,,47,17,30,13,20,150,,120,120,7,12,6,6,0.8,0.7
2025-07-17T1200,3200A,115.9819,36.4978,聊城市,监控中心,臭氧1小时,52,16,21,14,15,161,,118,118,7,15,9,8,0.7,0.6
2025-07-17T1200,3513A,116.0445,36.4361,聊城市,九州社区,,47,27,36,11,18,149,,111,111,10,14,5,5,0.5,0.5
2025-07-17T1200,4018A,116.0567,36.4608,聊城市,星美广场,,47,28,38,8,17,148,,117,117,8,14,6,6,0.7,0.6
2025-07-17T1200,2632A,94.3681,29.6376,林芝市,林芝监测站,,,,6,,12,72,,51,47,4,3,5,6,0.5,0.4
2025-07-17T1200,2633A,94.3616,29.6616,林芝市,林芝人民医院,,22,6,8,3,5,70,,43,40,3,2,4,4,0.3,0.4
2025-07-17T1200,2603A,100.0781,23.8982,临沧市,市环保局,,25,24,18,3,16,79,,55,49,7,7,8,9,0.3,0.3
2025-07-17T1200,2604A,100.0894,23.8822,临沧市,市气象局,,22,20,16,10,9,68,,51,47,11,8,9,8,0.5,0.5
2025-07-17T1200,1733A,111.5531,36.0783,临汾市,临钢医院,臭氧1小时,52,39,54,14,16,161,,108,108,8,14,8,8,0.7,0.7
2025-07-17T1200,1734A,111.5028,36.0714,临汾市,技工学校,臭氧1小时,63,57,49,25,26,170,,112,112,8,13,7,6,0.6,0.5
2025-07-17T1200,1736A,111.5018,36.0855,临汾市,市委,臭氧1小时,82,49,58,15,12,185,,124,124,8,16,9,9,0.7,0.5
2025-07-17T1200,3018A,111.505,36.1014,临汾市,唐尧大酒店,臭氧1小时,73,61,55,24,13,178,,114,114,8,14,6,5,0.8,0.6
2025-07-17T1200,4244A,111.4879,36.0530,临汾市,启星学校,臭氧1小时,73,51,53,31,28,178,,114,114,9,14,10,7,0.7,0.6
2025-07-17T1200,4271A,103.2464,35.6123,临夏回族自治州,滨河东路1号,颗粒物(PM10),60,70,52,19,21,78,,34,34,9,15,5,5,0.4,0.3
2025-07-17T1200,4310A,103.2093,35.5995,临夏回族自治州,新华街21号,颗粒物(PM10),51,52,55,22,26,88,,44,44,12,14,7,6,0.4,0.3
2025-07-17T1200,1618A,118.3429,35.0532,临沂市,沂河小区,,45,24,28,17,23,144,,106,106,10,12,9,8,0.3,0.4
2025-07-17T1200,1619A,118.295,35.0583,临沂市,鲁南制药厂,,48,22,24,9,19,151,,114,114,6,8,8,8,0.5,0.5
2025-07-17T1200,1620A,118.2794,34.9976,临沂市,新光毛纺厂,,45,12,21,12,20,142,,113,113,8,11,6,7,0.4,0.5
2025-07-17T1200,1621A,118.3956,35.0888,临沂市,河东保险公司,,45,6,23,3,13,141,,106,106,8,13,5,6,0.4,0.5
2025-07-17T1200,3370A,118.3564,35.0215,临沂市,十里堡居委,,,,22,,18,158,,121,121,11,13,9,9,0.5,0.6
2025-07-17T1200,3496A,118.3604,35.1084,临沂市,南坊新区,,47,19,28,9,13,148,,103,103,10,14,9,9,0.3,0.4
2025-07-17T1200,3860A,118.3920,35.0300,临沂市,皇山花园小区,,,,25,,21,144,,108,108,,12,10,10,0.3,0.4
2025-07-17T1200,1870A,109.4856,24.3895,柳州市,柳东小学,,30,30,24,21,17,87,,45,45,5,5,4,6,0.6,0.5
2025-07-17T1200,1871A,109.4157,24.3277,柳州市,环保监测站,,39,39,26,27,15,85,,49,49,5,6,7,7,0.5,0.5
2025-07-17T1200,1872A,109.389,24.341,柳州市,河西水厂,,30,30,26,13,14,87,,52,52,6,9,5,4,0.4,0.4
2025-07-17T1200,1873A,109.4311,24.2921,柳州市,市四中,,32,32,29,18,16,84,,46,46,8,11,7,6,0.6,0.5
2025-07-17T1200,1874A,109.4006,24.3631,柳州市,市九中,,,44,30,10,15,79,,46,46,6,7,3,3,,0.4
2025-07-17T1200,1875A,109.4958,24.3134,柳州市,古亭山,,44,44,29,18,15,82,,46,46,4,9,4,4,0.6,0.6
2025-07-17T1200,3402A,109.5422,24.3996,柳州市,市二中,,39,39,27,24,16,94,,46,46,6,9,6,12,0.6,0.6
2025-07-17T1200,2307A,116.5079,31.737,六安市,监测大楼,,32,31,19,12,14,102,,112,98,4,3,5,5,0.6,0.5
2025-07-17T1200,2308A,116.4738,31.7643,六安市,皖西学院,,36,36,17,17,14,111,,109,97,2,2,2,2,0.2,0.2
2025-07-17T1200,2309A,116.4996,31.7905,六安市,朝阳厂,,32,31,15,16,13,102,,108,94,7,6,4,4,0.4,0.4
2025-07-17T1200,2310A,116.5567,31.7886,六安市,开发区,,29,,18,16,15,92,,107,92,3,4,2,3,0.4,0.4
2025-07-17T1200,2576A,104.8,26.5892,六盘水市,窑上,,29,24,31,3,10,90,,40,40,4,5,7,6,0.4,0.4
2025-07-17T1200,2577A,104.83,26.5917,六盘水市,黄土坡,,35,31,24,15,13,109,,54,54,10,10,10,10,0.3,0.5
2025-07-17T1200,2578A,104.89,26.5939,六盘水市,水钢,,32,29,32,22,18,102,,60,60,8,9,7,6,0.4,0.5
2025-07-17T1200,2579A,104.8475,26.5894,六盘水市,民中,,35,21,24,9,13,109,,50,50,10,14,9,9,0.5,0.5
2025-07-17T1200,2580A,104.9544,26.5506,六盘水市,双水,,29,24,21,10,12,90,,60,60,7,7,10,10,0.2,0.2
2025-07-17T1200,2335A,117.0189,25.1181,龙岩市,龙岩师专,,,,,,,,,,,,,,,,
2025-07-17T1200,2336A,117.0217,25.1033,龙岩市,龙岩市监测站,颗粒物(PM10),57,64,31,27,19,115,,50,50,6,12,4,6,0.5,0.6
2025-07-17T1200,2337A,117.0258,25.0661,龙岩市,闽西职业技术学院,,31,30,41,20,22,99,,46,46,2,13,3,10,0.5,0.5
2025-07-17T1200,2338A,117.0196,25.0306,龙岩市,龙岩学院,,31,31,31,19,20,88,,48,48,2,8,2,2,0.4,0.4
2025-07-17T1200,2665A,105.0822,33.3261,陇南市,汉王镇固水子,,,,,,,,,,,,,,,,
2025-07-17T1200,2885A,104.9339,33.3826,陇南市,滨江中学,,,24,41,14,17,124,,78,78,4,4,8,7,,0.6
2025-07-17T1200,3247A,104.955,33.371,陇南市,市总工会,,45,45,50,21,20,134,,93,93,4,5,5,5,0.3,0.3
2025-07-17T1200,2487A,111.9589,27.8901,娄底市,电视发射台,,28,26,31,19,14,59,,32,32,6,6,7,7,0.4,0.4
2025-07-17T1200,2488A,111.9975,27.725,娄底市,市监测站,,48,48,28,20,21,99,,60,60,11,9,9,6,0.8,0.5
2025-07-17T1200,2489A,112.0194,27.7314,娄底市,市委党校,,35,34,25,20,17,109,,84,84,9,8,8,11,0.5,0.4
2025-07-17T1200,2490A,111.9561,27.7569,娄底市,涟钢,,,54,34,33,21,84,,42,42,,18,21,22,,1
2025-07-17T1200,2491A,111.9892,27.7044,娄底市,市政府,,42,42,26,24,19,91,,61,61,2,3,9,9,0.9,0.8
2025-07-17T1200,1893A,105.4324,28.9634,泸州市,九狮山,臭氧1小时,69,51,39,16,25,175,,71,71,12,17,4,3,0.3,0.4
2025-07-17T1200,1894A,105.4427,28.9063,泸州市,小市上码头,,,,31,,16,,,125,,,10,,3,,0.2
2025-07-17T1200,1895A,105.4241,28.8573,泸州市,兰田宪桥,,45,38,35,18,20,144,,52,52,13,19,8,8,0.4,0.5
2025-07-17T1200,1896A,105.4379,28.8833,泸州市,市环监站,,47,33,31,27,23,149,,60,60,12,14,5,7,0.4,0.3
2025-07-17T1200,4272A,105.3689,28.7783,泸州市,纳溪中医医院,,45,32,37,23,23,142,,62,62,8,20,4,4,0.6,0.6
2025-07-17T1200,2183A,111.1406,37.5211,吕梁市,环保局,,44,42,41,12,12,140,,66,66,9,25,3,3,0.4,0.4
2025-07-17T1200,2185A,111.1297,37.5136,吕梁市,自来水公司,,43,32,78,3,13,137,,53,53,9,28,3,4,0.5,0.5
2025-07-17T1200,2867A,111.1283,37.51,吕梁市,马茂庄小学,,44,39,43,3,10,140,,68,68,9,26,4,6,0.4,0.4
2025-07-17T1200,1812A,112.3931,34.6516,洛阳市,市委党校,臭氧1小时,67,30,39,14,21,173,,123,123,8,12,10,9,0.4,0.5
2025-07-17T1200,1815A,112.494,34.6886,洛阳市,河南林校,臭氧1小时,87,50,49,23,25,189,,123,123,13,16,10,8,0.8,0.8
2025-07-17T1200,1816A,112.3844,34.623,洛阳市,开发区管委会,臭氧1小时,68,27,36,16,23,174,,117,117,6,9,6,4,0.5,0.6
2025-07-17T1200,1817A,112.4267,34.6258,洛阳市,市委新办公区,臭氧1小时,60,30,39,24,28,168,,114,114,12,14,9,12,0.5,0.6
2025-07-17T1200,3340A,112.6005,34.6326,洛阳市,伊滨,臭氧1小时,52,48,52,20,23,161,,106,106,9,13,6,5,0.8,0.8
2025-07-17T1200,3341A,112.4951,34.6332,洛阳市,中移产业园,臭氧1小时,63,38,44,20,23,170,,108,108,8,13,9,7,0.7,0.9
2025-07-17T1200,3593A,112.5736,34.8993,洛阳市,吉利监测站,臭氧1小时,68,44,49,23,28,174,,113,113,6,11,9,10,0.5,0.6
2025-07-17T1200,3635A,112.3677,34.662,洛阳市,河科大西苑校区,,50,32,41,15,18,160,,115,115,5,8,10,8,0.3,0.4
2025-07-17T1200,3636A,112.4388,34.6781,洛阳市,英才小学,臭氧1小时,60,60,54,26,25,168,,106,106,9,11,10,9,0.5,0.6
2025-07-17T1200,4214A,112.4600,34.6949,洛阳市,春都路1号院,臭氧1小时,72,47,45,19,19,177,,120,120,12,9,9,5,0.6,0.6
2025-07-17T1200,2399A,114.051,33.5699,漯河市,三五一五工厂,臭氧1小时,62,44,43,30,30,169,,117,117,7,8,4,4,0.7,0.7
2025-07-17T1200,2400A,114.0055,33.5698,漯河市,漯河大学,臭氧1小时,78,53,77,24,26,182,,125,125,9,10,4,4,0.6,0.6
2025-07-17T1200,2401A,114.0138,33.5828,漯河市,市水利局,,49,44,49,31,29,156,,107,107,9,10,4,4,0.6,0.7
2025-07-17T1200,2402A,114.0261,33.5698,漯河市,市广电局,臭氧1小时,73,49,43,20,28,178,,128,128,12,9,2,2,0.6,0.6
2025-07-17T1200,3478A,113.9749,33.5664,漯河市,市图书馆,臭氧1小时,65,48,42,23,29,172,,122,122,8,8,6,6,0.7,0.7
2025-07-17T1200,4250A,114.0892,33.5882,漯河市,韶山路11号,,,,47,,30,149,,95,95,,12,,2,0.7,0.6
2025-07-17T1200,1798A,118.5092,31.6837,马鞍山市,湖东路四小,颗粒物(PM10),62,73,31,15,16,125,,97,97,13,12,12,8,0.9,0.7
2025-07-17T1200,1799A,118.5024,31.6449,马鞍山市,开发区,,45,23,31,9,14,141,,104,104,5,13,6,7,0.5,0.6
2025-07-17T1200,1802A,118.6245,31.7241,马鞍山市,濮塘,,39,27,29,17,13,124,,81,81,15,10,8,7,0.9,0.8
2025-07-17T1200,3633A,118.4918,31.6809,马鞍山市,雨山,,39,,26,11,14,123,,92,92,6,16,5,6,0.6,0.7
2025-07-17T1200,4191A,118.5274,31.72227,马鞍山市,慈湖高新区,,38,26,29,12,15,120,,83,83,13,19,11,10,0.6,0.8
2025-07-17T1200,1686A,111.0286,21.4688,茂名市,电白南海,,,41,30,29,20,85,,52,52,,8,8,4,,0.4
2025-07-17T1200,1687A,110.9294,21.6533,茂名市,茂石化七小,,31,31,42,17,22,79,,48,48,4,12,5,5,0.4,0.5
2025-07-17T1200,1688A,110.9107,21.6687,茂名市,健康路,,31,31,36,17,20,86,,51,51,5,12,8,8,0.5,0.5
2025-07-17T1200,1689A,110.8592,21.6828,茂名市,高岭,臭氧1小时,70,36,47,12,19,176,,75,75,6,18,4,4,0.4,0.5
2025-07-17T1200,3450A,111.01,21.5165,茂名市,电白水东,,27,27,25,14,13,82,,52,52,7,9,9,9,0.5,0.5
2025-07-17T1200,2539A,104.0308,30.0478,眉山市,黑龙滩水库,,35,,36,6,12,16,,,,70,8,2,3,0.7,0.6
2025-07-17T1200,2540A,103.8416,30.0874,眉山市,气象局,细颗粒物(PM2.5),58,47,53,41,29,153,,57,57,13,28,1,2,0.7,0.6
2025-07-17T1200,3137A,103.8578,30.0744,眉山市,市委党校,,47,44,43,29,26,150,,83,83,14,29,6,7,0.8,0.7
2025-07-17T1200,3148A,103.8291,30.0564,眉山市,区人社局,臭氧1小时,69,55,52,24,22,175,,94,94,16,24,10,9,0.9,0.8
2025-07-17T1200,1690A,116.1231,24.3284,梅州市,梅江月梅,,36,36,32,23,20,97,,49,49,5,7,7,10,0.7,0.7
2025-07-17T1200,1691A,116.0797,24.2719,梅州市,梅县新城,,40,40,36,27,22,105,,48,48,4,12,6,6,0.5,0.5
2025-07-17T1200,1692A,116.1248,24.2654,梅州市,环境监控中心,,46,46,36,27,20,111,,52,52,8,14,4,5,0.4,0.4
2025-07-17T1200,3315A,116.1233,24.2991,梅州市,梅龙,,36,36,30,11,12,104,,53,53,1,7,6,10,0.6,0.6
2025-07-17T1200,1878A,104.7778,31.4741,绵阳市,富乐山,,50,46,42,34,31,159,,85,85,7,13,9,9,0.7,0.7
2025-07-17T1200,1880A,104.6697,31.4668,绵阳市,高新区自来水公司,臭氧1小时,58,47,53,36,27,166,,77,77,9,21,10,9,0.6,0.6
2025-07-17T1200,1881A,104.7287,31.5075,绵阳市,三水厂,"细颗粒物(PM2.5),臭氧1小时",54,52,49,38,34,163,,65,65,8,26,6,6,0.5,0.5
2025-07-17T1200,3491A,104.69,31.5322,绵阳市,西科大附属小学,颗粒物(PM10),53,56,57,29,33,137,,61,61,12,35,7,8,0.8,0.8
2025-07-17T1200,3492A,104.5648,31.5343,绵阳市,安州区旅游局,颗粒物(PM10),51,51,48,22,24,148,,82,82,8,12,5,5,0.3,0.3
2025-07-17T1200,4226A,104.7651,31.4531,绵阳市,绵阳市气象局,,,29,44,,29,152,,73,73,,16,6,6,0.6,0.6
2025-07-17T1200,1784A,129.61,44.561,牡丹江市,环保大楼,,25,17,14,12,11,80,,63,63,7,10,1,1,0.3,0.3
2025-07-17T1200,1785A,129.6115,44.5782,牡丹江市,文化广场,,25,14,15,9,13,78,,61,61,8,13,7,6,0.4,0.5
2025-07-17T1200,1786A,129.5904,44.5963,牡丹江市,第一医院,,26,9,17,7,18,81,,59,59,8,13,5,5,0.2,0.3
2025-07-17T1200,1787A,129.6364,44.6075,牡丹江市,机车工厂,,,,21,,9,75,,47,47,7,11,4,5,0.4,0.4
2025-07-17T1200,1788A,129.6386,44.5462,牡丹江市,第一中学,,26,15,18,6,9,81,,50,50,5,15,5,5,0.4,0.5
2025-07-17T1200,2531A,105.0703,29.61,内江市,市监测站,,,36,30,27,28,189,,76,76,,15,6,11,,0.7
2025-07-17T1200,2532A,105.0717,29.5947,内江市,东兴区政府,臭氧1小时,83,28,27,23,21,186,,84,84,14,15,5,5,0.6,0.6
2025-07-17T1200,2533A,105.0653,29.5817,内江市,内江二中,细颗粒物(PM2.5),52,,32,36,32,62,,30,30,12,18,5,5,0.6,0.6
2025-07-17T1200,2534A,105.0406,29.5822,内江市,内江日报社,,44,,34,27,28,139,,61,61,12,27,3,15,0.6,0.6
2025-07-17T1200,2628A,92.0657,31.4846,那曲市,那曲监测站,,35,28,22,11,17,110,,75,75,9,13,9,16,0.4,0.4
2025-07-17T1200,4243A,92.0515,31.4787,那曲市,那曲市委宣传部,,40,16,14,6,7,125,,93,93,4,6,4,5,0.2,0.3
2025-07-17T1200,1290A,115.8931,28.6843,南昌市,省外办,,35,35,33,19,25,72,,38,38,20,15,6,10,0.6,0.5
2025-07-17T1200,1291A,115.8886,28.7003,南昌市,省林业公司,,23,19,35,9,19,73,,40,40,17,17,11,13,0.6,0.6
2025-07-17T1200,1292A,115.8126,28.7442,南昌市,林科所,,24,17,28,9,16,74,,24,24,11,21,7,8,0.4,0.4
2025-07-17T1200,1294A,115.8518,28.687,南昌市,建工学校,,34,34,46,3,15,71,,35,35,20,23,10,14,0.6,0.6
2025-07-17T1200,1295A,115.8921,28.6424,南昌市,象湖,颗粒物(PM10),51,51,33,7,17,78,,34,34,17,16,9,10,0.6,0.6
2025-07-17T1200,1296A,115.7423,28.7996,南昌市,武术学校,,22,22,23,7,7,65,,24,24,5,4,10,8,0.6,0.5
2025-07-17T1200,3046A,115.9084,28.6062,南昌市,机电学校,,,57,42,24,21,37,,33,26,,17,11,6,0.9,0.7
2025-07-17T1200,3690A,115.9721,28.7031,南昌市,外国语学校,,31,19,35,11,16,98,,59,59,9,13,11,14,0.6,0.7
2025-07-17T1200,4192A,115.9316,28.68677,南昌市,南京东路235号,,31,31,39,8,19,86,,54,54,14,17,5,6,0.7,0.7
2025-07-17T1200,1905A,106.056,30.8064,南充市,西山风景区,,,,,,,,,,,,,,,,
2025-07-17T1200,1906A,106.0789,30.8023,南充市,南充市委,,,,43,,42,153,,80,80,7,17,5,5,,0.5
2025-07-17T1200,1907A,106.1031,30.8217,南充市,南充炼油厂,,,39,41,23,29,,,54,54,,14,7,7,,0.3
2025-07-17T1200,4227A,106.1083,30.7884,南充市,梨树横街98号,,46,46,42,32,24,132,,81,81,5,12,2,3,0.4,0.4
2025-07-17T1200,4304A,106.1172,30.843,南充市,清泉寺北路188号,,44,40,42,25,38,138,,70,70,6,11,2,3,0.4,0.3
2025-07-17T1200,4305A,106.067,30.7616,南充市,同庆路1号,,49,30,41,24,26,154,,81,81,7,16,2,2,0.4,0.4
2025-07-17T1200,1151A,118.8086,32.1065,南京市,迈皋桥,臭氧1小时,90,21,21,19,13,192,,115,115,9,23,4,4,0.6,0.8
2025-07-17T1200,1152A,118.7538,32.0551,南京市,草场门,,44,17,23,9,11,140,,96,96,7,13,7,8,0.6,0.7
2025-07-17T1200,1153A,118.7794,32.0745,南京市,山西路,,48,24,26,3,8,152,,104,104,12,14,4,4,0.6,0.7
2025-07-17T1200,1154A,118.7752,32.0023,南京市,中华门,,45,17,21,3,8,142,,84,84,4,9,10,10,0.6,0.7
2025-07-17T1200,1155A,118.8109,32.0309,南京市,瑞金路,,46,19,19,12,11,146,,98,98,5,12,7,6,0.2,0.3
2025-07-17T1200,1156A,118.7997,32.0754,南京市,玄武湖,,42,24,30,6,10,134,,85,85,10,11,8,9,0.6,0.5
2025-07-17T1200,1157A,118.6414,32.0931,南京市,浦口,,40,14,23,3,9,128,,94,94,6,8,4,4,0.4,0.5
2025-07-17T1200,1158A,118.7356,31.9996,南京市,奥体中心,,45,17,25,9,12,141,,95,95,6,12,4,4,0.1,0.3
2025-07-17T1200,1159A,118.9125,32.1028,南京市,仙林大学城,臭氧1小时,100,39,32,22,10,200,,109,109,11,11,8,8,1.1,0.8
2025-07-17T1200,3422A,118.8436,31.9198,南京市,江宁彩虹桥,,49,22,26,17,14,154,,97,97,11,11,3,4,1.2,0.8
2025-07-17T1200,3427A,118.8554,32.3578,南京市,六合雄州,,39,19,26,8,12,123,,101,101,9,14,3,5,0.8,0.9
2025-07-17T1200,4249A,118.8708,31.3402,南京市,汶溪路181号,,50,,19,12,15,158,,119,119,10,10,8,6,0.7,0.7
2025-07-17T1200,4312A,119.019,31.6512,南京市,中山西路1号,,45,12,17,3,15,144,,101,101,6,7,3,4,0.8,0.8
2025-07-17T1200,1401A,108.3103,22.7881,南宁市,二十一中,,27,19,27,13,15,86,,42,42,5,6,5,4,0.5,0.5
2025-07-17T1200,1402A,108.3141,22.8528,南宁市,北湖,,30,17,27,14,14,94,,53,53,6,8,4,4,0.5,0.5
2025-07-17T1200,1403A,108.3206,22.8225,南宁市,市监测站,,36,36,27,17,14,87,,48,48,9,8,8,6,0.4,0.6
2025-07-17T1200,1404A,108.3829,22.8037,南宁市,大自然花园,,30,19,29,12,14,96,,55,55,4,6,5,4,0.3,0.4
2025-07-17T1200,1405A,108.4394,22.7904,南宁市,仙葫,,28,28,26,16,17,85,,52,52,7,8,8,7,0.7,0.8
2025-07-17T1200,1406A,108.2397,22.8467,南宁市,区农职院,,27,16,30,12,18,86,,49,49,6,11,3,3,0.6,0.6
2025-07-17T1200,1407A,108.3275,22.735,南宁市,英华嘉园,,32,20,26,16,14,100,,51,51,7,9,1,2,0.5,0.6
2025-07-17T1200,3401A,108.4834,22.7618,南宁市,红星社区,,,,30,16,18,97,,47,47,2,8,2,2,,0.5
2025-07-17T1200,4221A,108.2177,22.7774,南宁市,乐贤路16号,,26,20,31,12,14,82,,39,39,5,15,4,5,0.6,0.6
2025-07-17T1200,2331A,118.0966,26.6761,南平市,茫荡山,,,,,,,,,,,,,,,,
2025-07-17T1200,2332A,118.1681,26.6369,南平市,南平市监测站,,38,32,29,26,19,99,,37,37,5,12,5,5,0.6,0.7
2025-07-17T1200,2333A,118.1825,26.6489,南平市,南平铝业有限公司,,43,,30,30,20,109,,48,48,6,14,5,4,0.6,0.7
2025-07-17T1200,2334A,118.1756,26.6272,南平市,南平七中,,37,37,32,22,19,95,,37,37,4,11,4,4,0.6,0.6
2025-07-17T1200,1168A,120.9098,31.9663,南通市,狼山街道,臭氧1小时,107,54,34,32,22,213,,110,110,25,28,8,4,1.5,0.9
2025-07-17T1200,1169A,120.86,32.0005,南通市,虹桥,臭氧1小时,94,42,31,37,22,195,,115,115,28,31,5,3,1.2,1
2025-07-17T1200,1170A,120.87,32.02,南通市,城中,细颗粒物(PM2.5),52,51,38,36,21,156,,96,96,22,23,5,5,0.9,0.8
2025-07-17T1200,1171A,120.94,31.93,南通市,星湖花园,臭氧1小时,105,63,30,46,24,210,,110,110,25,26,9,5,1.5,0.6
2025-07-17T1200,1172A,120.81,32.0417,南通市,紫琅学院,,,34,38,31,18,133,,95,95,9,34,5,7,,1
2025-07-17T1200,3291A,121.067,32.062,南通市,通州监测站,臭氧1小时,97,31,32,24,22,197,,115,115,14,17,7,8,1.2,0.9
2025-07-17T1200,3432A,120.9348,31.9883,南通市,环境教育馆,臭氧1小时,113,58,39,36,19,225,,111,111,25,20,3,4,1.2,0.5
2025-07-17T1200,2404A,112.5224,33.0122,南阳市,瓦房庄,,48,40,46,15,27,151,,126,126,10,8,8,6,0.5,0.6
2025-07-17T1200,2405A,112.5003,32.9735,南阳市,汉画馆,,46,34,45,13,21,147,,127,127,8,10,8,8,0.3,0.4
2025-07-17T1200,2406A,112.5573,33.027,南阳市,气象站,,47,24,46,14,23,149,,126,126,6,7,6,6,0.5,0.5
2025-07-17T1200,2407A,112.5481,32.9689,南阳市,理工学院,,46,33,42,9,20,146,,123,123,5,8,8,7,0.4,0.5
2025-07-17T1200,4008A,112.5234,32.9922,南阳市,卧龙区政府,,45,32,46,15,26,144,,121,121,8,9,4,6,0.6,0.7
2025-07-17T1200,1234A,121.8358,29.911,宁波市,区环保大楼,,34,34,39,14,20,91,,72,72,5,7,3,3,0.4,0.5
2025-07-17T1200,1235A,121.56,29.82,宁波市,万里学院,,,33,36,20,24,98,,75,75,3,15,,3,0.5,0.6
2025-07-17T1200,1236A,121.713,29.9572,宁波市,龙赛医院,,30,29,34,18,18,95,,74,74,4,7,3,4,0.4,0.4
2025-07-17T1200,1239A,121.633,29.7733,宁波市,钱湖水厂,,30,24,28,19,19,93,,71,71,4,5,4,4,0.5,0.5
2025-07-17T1200,1240A,121.5856,29.8635,宁波市,太古小学,,39,39,33,17,19,99,,71,71,3,7,1,4,0.4,0.6
2025-07-17T1200,1241A,121.524,29.8674,宁波市,市环境监测中心,,31,30,32,15,18,98,,66,66,7,12,4,4,0.6,0.6
2025-07-17T1200,2871A,121.6147,29.9017,宁波市,万里国际学校,,34,23,26,16,18,107,,82,82,3,6,4,4,0.6,0.6
2025-07-17T1200,3710A,121.5594,29.8975,宁波市,白沙活动中心,,35,19,27,14,18,112,,78,78,5,9,4,5,0.4,0.5
2025-07-17T1200,2339A,119.5001,26.6946,宁德市,金涵水库,,,,,,,,,,,,,,,,
2025-07-17T1200,2341A,119.5388,26.6612,宁德市,宁德市监测站,,43,43,39,18,23,81,,48,45,13,16,7,8,0.6,0.7
2025-07-17T1200,3209A,119.5231,26.6562,宁德市,宁德一中,,32,,37,22,24,84,,49,49,14,12,6,5,0.5,0.6
2025-07-17T1200,2618A,98.8601,25.8567,怒江傈僳族自治州,州监测站,,28,19,22,6,14,87,,70,70,6,7,10,10,0.4,0.4
2025-07-17T1200,2619A,98.8546,25.8417,怒江傈僳族自治州,泸水一中,,28,,16,19,8,72,,50,50,7,11,6,6,0.2,0.2
2025-07-17T1200,1888A,101.6891,26.571,攀枝花市,弄弄坪,,,60,66,36,27,121,,47,47,11,22,42,43,,0.8
2025-07-17T1200,1889A,101.5769,26.5928,攀枝花市,河门口,,46,46,35,24,18,134,,64,64,15,16,31,21,1.7,1.3
2025-07-17T1200,1890A,101.7169,26.585,攀枝花市,炳草岗,颗粒物(PM10),55,59,57,34,26,116,,45,45,13,19,37,47,0.8,0.8
2025-07-17T1200,1891A,101.7369,26.5008,攀枝花市,仁和,细颗粒物(PM2.5),70,73,36,51,23,116,,52,52,11,13,41,14,0.7,0.6
2025-07-17T1200,2835A,101.7227,26.567,攀枝花市,四十中小,细颗粒物(PM2.5),53,52,41,37,26,130,,62,62,12,15,39,69,1.0,1
2025-07-17T1200,1604A,122.0303,41.1489,盘锦市,开发区,,33,,27,10,26,103,,59,59,7,19,10,10,0.4,0.6
2025-07-17T1200,1605A,122.0485,41.0883,盘锦市,兴隆台,,38,29,29,20,15,120,,67,67,13,21,9,8,0.6,0.7
2025-07-17T1200,1606A,121.8297,41.1028,盘锦市,新生街道,,39,,20,22,20,124,,52,52,16,22,5,6,0.6,0.6
2025-07-17T1200,1832A,113.3257,33.742,平顶山市,新华旅馆,臭氧1小时,74,38,48,33,27,179,,127,127,9,13,4,5,0.5,0.5
2025-07-17T1200,1833A,113.2919,33.737,平顶山市,规划设计院,臭氧1小时,63,32,45,21,29,170,,126,126,10,12,9,9,0.7,0.7
2025-07-17T1200,1834A,113.182,33.774,平顶山市,平顶山工学院,,,,42,,25,160,,122,122,9,9,7,7,,0.7
2025-07-17T1200,3204A,113.3025,33.73,平顶山市,规划局,臭氧1小时,75,39,49,11,22,180,,125,125,8,11,6,5,0.6,0.7
2025-07-17T1200,3594A,112.8867,33.9116,平顶山市,石龙区,,49,31,44,17,25,154,,124,124,9,11,10,8,0.7,0.7
2025-07-17T1200,2656A,106.6692,35.5461,平凉市,聚贤嘉苑,颗粒物(PM10),52,53,53,13,12,138,,74,74,7,21,11,12,0.7,0.7
2025-07-17T1200,2657A,106.7021,35.5307,平凉市,博物馆,,47,47,49,14,14,145,,76,76,9,19,11,10,0.8,0.8
2025-07-17T1200,2347A,114.0997,27.5002,萍乡市,武功山,,18,,4,9,6,56,,36,36,3,4,13,12,0.2,0.2
2025-07-17T1200,2348A,113.8385,27.6434,萍乡市,中医院,,25,12,25,3,11,77,,44,44,5,10,12,10,0.7,0.8
2025-07-17T1200,2349A,113.8493,27.6253,萍乡市,市政府车库,,21,,16,14,17,65,,39,39,5,8,9,9,0.4,0.5
2025-07-17T1200,2350A,113.8676,27.6435,萍乡市,市环保局,,23,22,26,6,15,72,,37,37,4,12,7,8,0.7,0.8
2025-07-17T1200,2351A,113.866,27.6198,萍乡市,安源区政府,,20,14,21,12,14,63,,35,35,2,5,9,8,0.4,0.5
2025-07-17T1200,2319A,119.0141,25.4325,莆田市,荔城区仓后路,,44,44,52,28,23,88,,42,42,12,14,4,4,0.6,0.6
2025-07-17T1200,2320A,119.0015,25.4553,莆田市,莆田市监测站,细颗粒物(PM2.5),53,,48,37,30,94,,40,40,11,13,4,5,0.5,0.5
2025-07-17T1200,2321A,119.1119,25.4561,莆田市,涵江区六中,,32,32,44,15,22,93,,44,44,6,13,3,3,0.3,0.4
2025-07-17T1200,2322A,119.1013,25.3215,莆田市,秀屿区政府,,49,46,37,34,20,97,,53,53,6,9,3,3,0.5,0.5
2025-07-17T1200,2323A,118.981,25.4792,莆田市,东圳水库,,,,,,,,,,,,,,,,
2025-07-17T1200,2392A,115.0312,35.7636,濮阳市,环保局,,,,28,13,20,161,,130,130,8,12,5,5,0.5,0.5
2025-07-17T1200,2394A,115.0574,35.7609,濮阳市,油田运输公司,,48,28,40,26,23,152,,122,122,6,10,3,3,0.6,0.6
2025-07-17T1200,3021A,115,35.7668,濮阳市,濮水河管理处,,48,29,35,20,22,151,,111,111,6,10,4,3,0.4,0.4
2025-07-17T1200,4216A,115.0924,35.7686,濮阳市,任丘路479号,,46,31,44,18,24,145,,114,114,5,11,6,6,0.4,0.4
2025-07-17T1200,2601A,100.98,22.7633,普洱市,市环保局,,15,15,26,6,11,40,,50,48,3,7,5,4,0.5,0.6
2025-07-17T1200,2602A,100.9817,22.8322,普洱市,普洱第二中学,,21,21,24,3,12,50,,44,44,6,9,7,7,0.5,0.5
2025-07-17T1200,2262A,131.0518,45.8751,七台河市,新一中,,33,,12,3,10,104,,,,9,11,10,10,1.0,1
2025-07-17T1200,3345A,131.0577,45.7879,七台河市,中波台,,,18,7,9,8,72,,43,43,12,17,8,8,,0.6
2025-07-17T1200,3637A,131.0176,45.7761,七台河市,人民广场,,24,,14,16,10,76,,49,49,8,11,11,11,0.5,0.5
2025-07-17T1200,3684A,130.8781,45.8222,七台河市,新建矿广场,,26,12,8,6,6,81,,36,36,10,17,10,10,0.5,0.5
2025-07-17T1200,1779A,123.9305,47.3636,齐齐哈尔市,安居小区,,29,29,18,10,8,50,,29,29,7,14,2,3,0.4,0.7
2025-07-17T1200,1780A,123.9488,47.3386,齐齐哈尔市,中心广场,,,,17,,3,48,,33,33,,14,,4,0.4,0.4
2025-07-17T1200,1781A,123.9483,47.3227,齐齐哈尔市,农牧车辆厂,,,22,19,3,8,52,,35,35,,12,,6,0.4,0.2
2025-07-17T1200,1783A,123.945,47.2988,齐齐哈尔市,市环境监测站,,21,21,12,6,6,47,,30,30,9,12,5,5,0.4,0.4
2025-07-17T1200,3662A,123.6333,47.2075,齐齐哈尔市,富区青少年活动中心,,15,11,8,3,5,47,,29,29,9,15,4,4,0.2,0.2
2025-07-17T1200,2591A,107.9783,26.5747,黔东南苗族侗族自治州,市环境监测站,,20,18,16,13,11,64,,53,53,2,4,2,2,0.4,0.4
2025-07-17T1200,2881A,107.8908,26.5311,黔东南苗族侗族自治州,凯里学院,,23,,17,15,13,71,,48,48,6,7,2,2,0.4,0.3
2025-07-17T1200,2593A,107.5228,26.2403,黔南布依族苗族自治州,小围寨,,18,7,10,7,7,57,,42,42,3,4,2,3,0.4,0.4
2025-07-17T1200,3538A,107.5175,26.2978,黔南布依族苗族自治州,沙坝,,,,14,,2,68,,37,37,4,6,3,3,,0.4
2025-07-17T1200,2589A,104.9022,25.0925,黔西南布依族苗族自治州,场坝街,,31,31,29,3,11,83,,36,36,12,17,9,21,0.3,0.4
2025-07-17T1200,2590A,104.8811,25.0992,黔西南布依族苗族自治州,坪东大道,,,,20,,15,88,,35,35,13,16,4,7,0.3,0.3
2025-07-17T1200,2502A,108.6236,21.9667,钦州市,市环保站,,29,19,24,9,10,90,,45,45,6,11,3,3,0.5,0.4
2025-07-17T1200,2503A,108.6549,21.9481,钦州市,沙埠小学,,34,29,29,12,12,106,,43,43,5,13,4,2,0.8,0.7
2025-07-17T1200,2504A,108.5989,21.7431,钦州市,港区一小,,,,33,20,12,69,,47,47,,12,3,2,0.4,0.4
2025-07-17T1200,3404A,108.5959,21.9633,钦州市,北职校,,25,12,30,7,12,79,,37,37,2,12,2,2,0.4,0.5
2025-07-17T1200,1043A,119.7493,40.0116,秦皇岛市,第一关,,35,11,23,3,10,109,,68,68,6,32,5,5,0.2,0.2
2025-07-17T1200,1044A,119.5897,39.9499,秦皇岛市,监测站,,35,26,33,3,8,109,,70,70,7,23,4,6,0.3,0.4
2025-07-17T1200,1046A,119.5251,39.9041,秦皇岛市,建设大厦,,35,10,30,3,8,109,,56,56,6,32,5,5,0.3,0.4
2025-07-17T1200,3132A,119.610547,39.943889,秦皇岛市,文明里,,33,12,28,3,7,105,,76,76,9,21,4,7,0.2,0.2
2025-07-17T1200,4198A,119.5090,39.8253,秦皇岛市,北戴河轮滑馆,,32,24,28,8,10,101,,64,64,5,14,2,2,0.3,0.4
2025-07-17T1200,1307A,120.6659,36.2403,青岛市,仰口,,,18,28,9,19,136,,129,129,7,7,7,7,,
2025-07-17T1200,1310A,120.4134,36.0658,青岛市,市南区东部子站,臭氧1小时,68,34,29,19,19,174,,122,122,9,6,8,7,0.2,0.2
2025-07-17T1200,1311A,120.3664,36.1032,青岛市,四方区子站,臭氧1小时,75,29,29,19,20,180,,124,124,10,11,4,2,0.2,0.3
2025-07-17T1200,1312A,120.2994,36.054,青岛市,市南区西部子站,,50,27,30,12,17,157,,116,116,9,15,8,8,0.6,0.6
2025-07-17T1200,1313A,120.4581,36.0858,青岛市,崂山区子站,臭氧1小时,68,36,25,19,17,174,,126,126,23,14,8,8,0.3,0.3
2025-07-17T1200,1315A,120.3999,36.3083,青岛市,城阳区子站,,44,22,27,7,12,139,,114,114,6,9,6,6,0.4,0.4
2025-07-17T1200,1966A,120.0405,35.8735,青岛市,黄岛区4号,臭氧1小时,84,27,26,14,14,187,,134,134,10,12,12,10,0.5,0.5
2025-07-17T1200,3362A,120.5014,36.4034,青岛市,即墨2号,,43,20,27,15,15,137,,103,103,6,10,3,3,0.3,0.3
2025-07-17T1200,3642A,120.3503,36.0736,青岛市,市北区南部,臭氧1小时,54,28,28,12,18,163,,114,114,16,21,11,10,0.5,0.6
2025-07-17T1200,3643A,120.3948,36.1805,青岛市,李沧区北部,,,24,25,17,23,156,,104,104,,9,7,5,0.4,0.3
2025-07-17T1200,4290A,120.1969,35.9546,青岛市,珠江路669号,,49,27,27,15,19,155,,96,96,14,23,7,7,0.5,0.6
2025-07-17T1200,1702A,113.0426,23.691,清远市,环保大楼,,49,41,39,34,28,102,,40,40,9,17,6,6,0.8,0.7
2025-07-17T1200,1703A,113.0208,23.7106,清远市,凤城街办,,49,40,44,34,24,86,,41,41,11,22,5,7,0.6,0.6
2025-07-17T1200,3025A,113.0477,23.6344,清远市,技师学院,,47,47,42,29,22,101,,47,47,8,18,17,13,0.6,0.5
2025-07-17T1200,3318A,112.9903,23.7403,清远市,清新太和,,36,36,39,23,22,97,,48,48,10,15,5,6,0.7,0.6
2025-07-17T1200,3455A,113.076,23.7198,清远市,清城东城,,45,45,35,30,21,100,,44,44,9,13,6,6,0.7,0.6
2025-07-17T1200,2661A,107.6325,35.7357,庆阳市,庆阳五中,,43,22,25,6,7,137,,119,119,6,6,7,6,0.4,0.4
2025-07-17T1200,2662A,107.6364,35.7067,庆阳市,市环保局,,45,26,27,7,7,142,,124,124,4,5,13,11,0.7,0.7
2025-07-17T1200,1916A,103.7897,25.5035,曲靖市,环境监测站,,38,38,37,22,19,98,,36,36,10,16,7,8,0.4,0.5
2025-07-17T1200,1917A,103.8,25.5364,曲靖市,烟厂办公区,,43,36,39,30,20,100,,43,43,6,15,5,9,0.5,0.7
2025-07-17T1200,3376A,103.7947,25.462,曲靖市,南苑二区,,30,24,27,19,16,96,,43,43,6,11,4,5,0.4,0.5
2025-07-17T1200,3377A,103.7444,25.5261,曲靖市,曲靖师范学院,,35,34,35,24,24,89,,37,37,12,15,9,11,0.5,0.4
2025-07-17T1200,1264A,118.8692,28.9398,衢州市,环保大楼,,32,32,45,20,27,83,,41,41,5,16,2,4,0.4,0.4
2025-07-17T1200,1265A,118.8709,28.9666,衢州市,实验学校,,33,30,47,23,24,95,,41,41,4,18,4,7,0.5,0.5
2025-07-17T1200,1266A,118.8621,28.9808,衢州市,衢州学院,,,38,40,22,26,104,,40,40,6,24,7,4,,0.4
2025-07-17T1200,1611A,118.5819,24.9117,泉州市,涂山街,颗粒物(PM10),51,52,38,34,22,117,,55,55,16,16,1,2,0.6,0.5
2025-07-17T1200,1612A,118.5972,24.8978,泉州市,津头埔,,,46,37,44,21,139,,56,56,,12,1,2,,0.6
2025-07-17T1200,1613A,118.6663,24.9424,泉州市,万安,细颗粒物(PM2.5),63,67,43,45,20,122,,48,48,11,14,1,2,0.5,0.4
2025-07-17T1200,1614A,118.6117,24.9604,泉州市,清源山,,,,,,,,,,,,,,,,
2025-07-17T1200,3529A,118.6333,24.9264,泉州市,城华南路,"颗粒物(PM10),细颗粒物(PM2.5)",57,63,39,40,23,136,,52,52,13,13,4,4,0.5,0.4
2025-07-17T1200,2626A,88.8876,29.2718,日喀则市,日喀则监测站,,22,7,6,3,2,70,,65,65,9,8,16,16,0.4,0.3
2025-07-17T1200,3726A,88.8781,29.2426,日喀则市,林业技术推广中心,,,6,9,3,2,81,,72,72,3,3,8,8,,0.4
2025-07-17T1200,1659A,119.471,35.4209,日照市,监测站,,44,12,20,7,16,138,,111,111,7,13,6,5,0.4,0.6
2025-07-17T1200,1660A,119.523,35.4216,日照市,市政府广场,,44,12,21,12,13,138,,115,115,4,7,4,5,0.6,0.7
2025-07-17T1200,1661A,119.5587,35.4044,日照市,港务局,,49,12,22,12,20,155,,125,125,8,10,9,9,0.7,0.7
2025-07-17T1200,3507A,119.5328,35.4625,日照市,职业技术学院,,43,9,20,7,14,135,,115,115,7,8,4,5,0.5,0.6
2025-07-17T1200,3604A,119.3266,35.1044,日照市,岚山环保分局,,45,24,28,6,14,144,,104,104,11,16,13,17,0.9,1.4
2025-07-17T1200,1835A,111.1922,34.7752,三门峡市,市政府,颗粒物(PM10),81,111,48,23,23,154,,120,120,9,10,4,6,0.8,0.7
2025-07-17T1200,1836A,111.1587,34.7942,三门峡市,开发区,臭氧1小时,65,41,46,20,23,172,,126,126,15,13,13,10,0.6,0.5
2025-07-17T1200,1838A,111.143,34.7955,三门峡市,风景区,,,,22,,25,,,,,,7,,6,,0.5
2025-07-17T1200,3039A,111.1911,34.7829,三门峡市,三门峡市第一小学,细颗粒物(PM2.5),63,56,48,45,25,164,,125,125,14,13,14,11,0.6,0.6
2025-07-17T1200,3598A,111.1,34.7167,三门峡市,富达温泉假日酒店,,49,39,52,24,26,154,,125,125,8,9,12,13,0.8,0.9
2025-07-17T1200,2324A,117.6211,26.2625,三明市,三钢,,42,35,36,29,24,109,,49,49,9,14,9,9,1.3,1.3
2025-07-17T1200,2325A,117.635,26.2714,三明市,三明二中,,40,34,35,28,19,111,,49,49,7,12,3,2,0.9,0.9
2025-07-17T1200,2326A,117.6028,26.2378,三明市,三元区政府,,39,36,34,27,20,119,,52,52,8,11,6,3,0.4,0.3
2025-07-17T1200,2327A,117.7275,26.3108,三明市,洋溪,,,,,,,,,,,,,,,,
2025-07-17T1200,1876A,109.5078,18.2489,三亚市,河东子站,,22,22,14,15,7,54,,50,50,2,5,3,3,0.4,0.3
2025-07-17T1200,1877A,109.4964,18.2681,三亚市,河西子站,,18,18,14,6,7,56,,45,45,2,4,2,2,0.2,0.2
2025-07-17T1200,3540A,109.7348,18.3443,三亚市,君悦子站,,22,20,14,8,7,68,,50,50,4,6,2,2,0.2,0.2
2025-07-17T1200,2624A,91.7608,29.2313,山南市,山南监测站,,25,10,7,3,3,80,,50,50,7,12,4,6,0.3,0.3
2025-07-17T1200,2625A,91.7706,29.2436,山南市,山南人民医院,,27,19,12,3,4,84,,52,52,8,11,4,6,0.3,0.3
2025-07-17T1200,1674A,116.6794,23.3667,汕头市,金平子站,,35,27,27,14,16,112,,64,64,6,9,2,3,0.7,0.7
2025-07-17T1200,1675A,116.7244,23.3633,汕头市,龙湖子站,,34,32,30,16,18,108,,64,64,10,9,6,6,0.7,0.7
2025-07-17T1200,1676A,116.7258,23.2775,汕头市,濠江子站,,49,49,36,20,19,71,,48,48,20,9,6,5,0.7,0.8
2025-07-17T1200,1677A,116.7519,23.4714,汕头市,澄海子站,,45,39,34,20,18,141,,70,70,10,10,4,3,0.7,0.7
2025-07-17T1200,1678A,116.6092,23.2539,汕头市,潮阳子站,,35,35,29,17,15,108,,64,64,5,5,5,4,0.5,0.5
2025-07-17T1200,3444A,116.454,23.2684,汕头市,潮南峡山,,40,33,29,24,17,127,,66,66,7,7,6,6,0.8,0.7
2025-07-17T1200,3624A,116.4069,23.2533,汕头市,潮南子站,颗粒物(PM10),53,55,32,28,16,131,,65,65,7,5,4,4,0.6,0.5
2025-07-17T1200,1693A,115.3653,22.775,汕尾市,市环保局,,38,38,23,11,10,76,,42,42,6,6,2,2,0.5,0.5
2025-07-17T1200,1694A,115.3706,22.7898,汕尾市,市政府,,,39,25,29,15,107,,52,52,7,5,5,3,,0.5
2025-07-17T1200,1695A,115.3622,22.7925,汕尾市,新城中学,,40,40,26,15,11,96,,47,47,7,8,3,3,0.5,0.5
2025-07-17T1200,2645A,109.9154,33.8715,商洛市,监测站,,40,40,32,18,17,64,,36,36,12,10,6,5,0.7,0.6
2025-07-17T1200,3045A,109.9643,33.8471,商洛市,商州区中学,,44,44,36,16,15,65,,35,35,14,13,8,5,0.6,0.4
2025-07-17T1200,2408A,115.6702,34.4285,商丘市,环境监测站,,50,46,44,10,29,157,,112,112,8,12,5,4,0.5,0.5
2025-07-17T1200,2409A,115.6458,34.4045,商丘市,粮食局,,48,27,40,16,19,152,,114,114,8,11,6,5,0.6,0.6
2025-07-17T1200,2410A,115.6293,34.3948,商丘市,睢阳区环保局,颗粒物(PM10),86,122,52,13,23,156,,119,119,7,9,5,4,0.3,0.3
2025-07-17T1200,3171A,115.6071,34.4465,商丘市,梁园区档案局,,,36,44,18,24,152,,91,91,,10,3,3,0.7,0.6
2025-07-17T1200,1141A,121.4,31.238,上海市,普陀,臭氧1小时,70,51,43,31,29,176,,101,101,14,18,5,6,0.5,0.5
2025-07-17T1200,1142A,121.478,31.2036,上海市,十五厂,臭氧1小时,68,52,44,37,27,174,,83,83,14,20,9,8,0.7,0.7
2025-07-17T1200,1143A,121.467,31.3008,上海市,虹口,,50,45,44,29,28,157,,91,91,9,16,9,9,0.9,0.9
2025-07-17T1200,1147A,121.425,31.2261,上海市,静安监测站,,50,41,41,32,27,157,,87,87,12,18,4,5,0.7,0.7
2025-07-17T1200,1148A,121.703,31.1907,上海市,浦东川沙,,45,45,39,30,28,135,,79,79,9,17,9,9,0.8,0.8
2025-07-17T1200,1149A,121.533,31.2284,上海市,浦东新区监测站,臭氧1小时,58,44,42,30,24,166,,88,88,10,14,7,7,0.4,0.4
2025-07-17T1200,1150A,121.577,31.2071,上海市,浦东张江,臭氧1小时,58,51,67,33,29,166,,95,95,10,15,6,6,0.9,0.9
2025-07-17T1200,3265A,121.4316,31.3322,上海市,宝山庙行,臭氧1小时,93,57,44,36,27,194,,99,99,15,17,5,6,0.5,0.5
2025-07-17T1200,3266A,121.8791,31.4662,上海市,崇明上实东滩,臭氧1小时,65,35,38,25,27,172,,82,82,11,20,3,4,0.8,0.7
2025-07-17T1200,3268A,121.3162,31.2838,上海市,嘉定南翔,,,53,51,34,28,,,76,76,8,19,8,7,0.5,0.5
2025-07-17T1200,3269A,121.3359,30.7456,上海市,金山新城,,50,45,45,28,23,158,,92,92,7,9,4,3,0.9,0.9
2025-07-17T1200,3270A,121.4996,31.0739,上海市,闵行浦江,,49,46,43,30,26,156,,85,85,9,13,3,4,1.2,1.2
2025-07-17T1200,3271A,121.2886,31.1663,上海市,青浦徐泾,臭氧1小时,59,49,42,30,25,167,,89,89,10,19,6,6,0.6,0.6
2025-07-17T1200,3272A,121.2186,31.0378,上海市,松江图书馆,臭氧1小时,73,45,37,37,26,178,,96,96,7,13,7,7,0.7,0.6
2025-07-17T1200,3273A,121.3902,31.2059,上海市,长宁仙霞,颗粒物(PM10),52,53,44,28,25,148,,78,78,17,20,7,7,0.5,0.6
2025-07-17T1200,3274A,121.7965,31.0507,上海市,浦东惠南,,50,34,44,22,28,159,,84,84,13,17,9,9,0.7,0.6
2025-07-17T1200,3544A,121.4891,30.925,上海市,奉贤南桥新城,臭氧1小时,52,46,43,32,31,161,,96,96,9,15,8,8,0.9,0.8
2025-07-17T1200,4183A,121.4174,31.16637,上海市,冠生园路458号,细颗粒物(PM2.5),54,50,39,38,27,143,,75,75,11,18,5,4,0.9,0.9
2025-07-17T1200,4205A,121.5419,31.2683,上海市,宁武路151号,颗粒物(PM10),54,57,50,30,27,155,,77,77,17,21,7,7,0.8,0.8
2025-07-17T1200,2381A,118.005,28.4572,上饶市,百草园,,,,,,,,,,,,,,,,
2025-07-17T1200,2382A,117.9756,28.4436,上饶市,市监测站,,37,37,33,25,18,85,,42,42,3,7,6,14,0.5,0.5
2025-07-17T1200,2383A,117.9519,28.4628,上饶市,凤凰光学,,,42,36,22,20,98,,44,44,,9,18,22,0.9,0.8
2025-07-17T1200,3685A,117.897,28.4315,上饶市,双创科技城,,50,50,39,25,22,88,,45,45,13,16,11,27,0.5,0.5
2025-07-17T1200,4211A,118.1904,28.4448,上饶市,裕丰大道,,20,19,17,13,14,62,,36,36,2,3,6,6,0.7,0.7
