timepoint,stationcode,longitude,latitude,area,positionname,primarypollutant,aqi,pm10,pm10_24h,pm2_5,pm2_5_24h,o3,o3_24h,o3_8h,o3_8h_24h,no2,no2_24h,so2,so2_24h,co,co_24h
2025-07-17T1100,2566A,102.1879,31.914,阿坝藏族羌族自治州,州农科所,,50,50,38,16,14,64,,45,45,4,6,13,14,0.8,0.9
2025-07-17T1100,2568A,102.2502,31.8896,阿坝藏族羌族自治州,马师校,,21,21,19,12,18,66,,38,38,7,10,7,11,0.7,0.7
2025-07-17T1100,3994A,102.2165,31.9024,阿坝藏族羌族自治州,马尔康中学西区,,23,11,18,8,15,71,,44,44,5,5,7,7,0.6,0.6
2025-07-17T1100,2695A,80.292,41.1694,阿克苏地区,电视台,颗粒物(PM10),79,107,76,38,24,22,,73,53,26,13,7,8,0.6,0.4
2025-07-17T1100,2696A,80.2613,41.1551,阿克苏地区,艺术中心,颗粒物(PM10),89,127,82,41,35,21,,68,49,36,11,3,3,0.5,0.5
2025-07-17T1100,2204A,105.6467,38.8363,阿拉善盟,西城区西花园,,43,22,15,14,12,135,,122,122,11,11,8,10,0.6,0.6
2025-07-17T1100,2205A,105.6985,38.8411,阿拉善盟,蒙二幼,,,,17,,6,143,,131,131,9,9,10,10,,0.4
2025-07-17T1100,2206A,105.724,38.8516,阿拉善盟,环保局新楼,,45,17,16,3,6,142,,126,126,5,5,12,11,0.7,0.6
2025-07-17T1100,2708A,88.1264,47.8517,阿勒泰地区,市站,,,,24,,5,86,,100,93,13,9,2,2,0.2,0.4
2025-07-17T1100,2630A,80.1161,32.5,阿里地区,阿里监测站,,29,6,6,3,2,92,,84,84,9,4,13,13,0.2,0.2
2025-07-17T1100,3192A,80.0903,32.5028,阿里地区,阿里藏医院,,30,8,8,3,3,95,,85,85,8,2,6,6,0.4,0.4
2025-07-17T1100,2642A,109.0318,32.6537,安康市,香溪洞,,33,32,39,19,21,103,,54,54,6,9,9,12,0.5,0.5
2025-07-17T1100,2644A,109.0072,32.6975,安康市,汉滨区检察院,,29,25,33,18,20,91,,35,35,6,7,80,13,0.7,0.6
2025-07-17T1100,4054A,109.0325,32.6913,安康市,市邮政管理局,,38,38,41,24,24,95,,38,38,7,10,6,7,0.6,0.6
2025-07-17T1100,2291A,117.0809,30.5177,安庆市,环科院,,36,,23,11,18,115,,93,93,5,10,4,4,0.5,0.6
2025-07-17T1100,2292A,117.0331,30.5119,安庆市,马山宾馆,,35,12,25,3,16,111,,93,93,12,18,2,3,0.3,0.4
2025-07-17T1100,2294A,116.9896,30.6145,安庆市,安庆大学,,38,13,26,8,17,120,,105,105,13,10,2,2,0.4,0.5
2025-07-17T1100,3173A,117.0598,30.5351,安庆市,市人大,,36,18,24,9,17,114,,99,98,13,10,4,3,0.5,0.6
2025-07-17T1100,3122A,105.9606,26.2611,安顺市,伍家关,,,,15,14,12,71,,62,62,5,5,3,3,0.4,0.4
2025-07-17T1100,3123A,105.9408,26.2431,安顺市,凤凰山,,20,17,22,12,14,63,,61,61,6,7,3,3,0.6,0.6
2025-07-17T1100,3124A,105.9439,26.2564,安顺市,金钟山,,25,17,19,15,17,77,,68,68,5,5,4,4,0.4,0.4
2025-07-17T1100,3125A,105.8983,26.2481,安顺市,娄家坡,,,,16,,16,74,,63,63,,3,,5,0.5,0.5
2025-07-17T1100,1818A,114.4839,36.0621,安阳市,棉研所,,,,,,,,,,,,,,,,
2025-07-17T1100,1819A,114.3551,36.1017,安阳市,红庙街,,42,30,30,19,14,134,,96,96,8,9,5,4,0.5,0.5
2025-07-17T1100,1820A,114.361,36.0681,安阳市,银杏小区,,44,44,35,21,16,131,,83,83,6,8,7,6,0.5,0.5
2025-07-17T1100,3141A,114.3922,36.0878,安阳市,信访局,,45,16,29,15,17,142,,104,104,8,11,6,5,0.6,0.6
2025-07-17T1100,3669A,114.4705,36.0637,安阳市,左辅环卫站,,,24,31,23,19,123,,97,97,,5,,5,0.7,0.7
2025-07-17T1100,3703A,114.2917,36.0949,安阳市,安钢职工学校,,47,47,44,21,18,132,,68,68,12,11,12,4,1.4,0.6
2025-07-17T1100,1748A,123.044,41.1196,鞍山市,深沟寺,,,,19,,8,,,66,,,14,,7,,0.8
2025-07-17T1100,1749A,123.011,41.0931,鞍山市,太阳城,细颗粒物(PM2.5),55,55,20,39,12,94,,64,64,29,14,18,8,2.4,0.9
2025-07-17T1100,1750A,123.0485,41.1442,鞍山市,太平,颗粒物(PM10),66,81,29,33,13,92,,69,69,35,22,15,7,1.7,1
2025-07-17T1100,1751A,122.9642,41.0971,鞍山市,铁西三道街,细颗粒物(PM2.5),72,92,29,52,14,61,,60,59,59,25,28,8,3.4,1
2025-07-17T1100,1753A,123.022,41.0821,鞍山市,明达新区,细颗粒物(PM2.5),72,68,19,52,9,98,,74,74,27,12,16,6,2.5,1
2025-07-17T1100,1754A,123.1289,41.0228,鞍山市,千山,,,,,,,,,,,,,,,,
2025-07-17T1100,4201A,122.9446,41.0826,鞍山市,兴盛南路290号,颗粒物(PM10),86,121,31,40,12,84,,66,66,53,28,23,9,2.9,1.1
2025-07-17T1100,2195A,107.4212,40.761,巴彦淖尔市,附二中,,42,17,20,8,10,132,,92,92,6,10,6,8,0.5,0.5
2025-07-17T1100,2196A,107.37,40.7372,巴彦淖尔市,市环保大楼,,38,36,29,11,10,120,,88,88,7,9,6,7,0.4,0.4
2025-07-17T1100,1956A,86.1472,41.7538,巴音郭楞蒙古自治州,孔雀公园,颗粒物(PM10),77,104,61,27,18,71,,101,96,23,14,3,3,0.6,0.2
2025-07-17T1100,1957A,86.1972,41.7166,巴音郭楞蒙古自治州,棉纺厂,颗粒物(PM10),75,99,68,21,11,56,,92,84,42,18,5,6,0.4,0.2
2025-07-17T1100,1958A,86.2357,41.7173,巴音郭楞蒙古自治州,经济开发区,颗粒物(PM10),55,60,44,15,11,78,,96,90,21,6,4,4,0.4,0.2
2025-07-17T1100,2914A,106.7677,31.8794,巴中市,苏山坪,,39,37,30,27,23,98,,87,82,6,7,4,4,0.5,0.5
2025-07-17T1100,3181A,106.7768,31.8526,巴中市,市五中,,43,36,34,30,26,109,,46,46,7,14,8,8,0.6,0.6
2025-07-17T1100,3183A,106.7418,31.8654,巴中市,圣泉水务公司,,42,37,31,29,24,120,,57,57,6,9,7,6,0.8,0.7
2025-07-17T1100,3616A,106.7616,31.8344,巴中市,市中心医院,,43,43,35,28,24,111,,39,39,11,17,7,7,0.5,0.5
2025-07-17T1100,2235A,122.7911,45.6077,白城市,洮北区环保局,,21,,12,10,10,66,,58,58,1,2,3,5,0.2,0.3
2025-07-17T1100,2236A,122.8738,45.5725,白城市,市环保局,,22,6,10,3,7,69,,54,54,3,5,5,5,0.4,0.4
2025-07-17T1100,2231A,126.4219,41.9171,白山市,喜丰,,25,25,24,3,8,64,,29,29,14,12,4,4,0.5,0.6
2025-07-17T1100,2232A,126.4077,41.9419,白山市,环保局,,,,17,,6,65,,25,25,11,9,4,5,0.6,0.6
2025-07-17T1100,2647A,104.1724,36.5446,白银市,第三小学,,,67,64,32,29,86,,68,68,17,14,,27,0.6,0.5
2025-07-17T1100,2648A,104.1465,36.5482,白银市,动力公司,颗粒物(PM10),53,56,57,24,24,88,,68,62,12,14,13,24,0.6,0.5
2025-07-17T1100,2512A,106.6103,23.9011,百色市,市监测站,,43,43,29,17,15,77,,23,23,9,9,12,5,0.7,0.5
2025-07-17T1100,2513A,106.6538,23.8859,百色市,市中心血站,,,48,37,26,19,68,,18,18,,19,8,3,0.7,0.7
2025-07-17T1100,3406A,106.6085,23.8798,百色市,祈福高中,,34,34,35,16,15,70,,20,20,13,15,11,6,0.7,0.6
2025-07-17T1100,2270A,117.396,32.939,蚌埠市,工人疗养院,,43,43,28,22,9,128,,94,94,5,7,3,4,0.4,0.4
2025-07-17T1100,2271A,117.3605,32.9427,蚌埠市,百货大楼,,39,38,25,23,10,123,,95,95,4,6,5,5,0.5,0.5
2025-07-17T1100,2273A,117.4185,32.8911,蚌埠市,蚌埠学院,,42,31,23,25,13,134,,92,92,5,7,5,5,0.5,0.5
2025-07-17T1100,2274A,117.3533,32.9673,蚌埠市,淮上区政府,,,36,25,20,13,120,,89,89,,10,5,5,0.6,0.5
2025-07-17T1100,2275A,117.3145,32.8977,蚌埠市,高新区,,41,36,25,23,12,131,,102,102,9,9,6,6,0.6,0.5
2025-07-17T1100,3715A,117.3092,32.9314,蚌埠市,蚌埠田家炳中学,,42,42,30,27,16,120,,91,91,6,9,6,7,0.4,0.3
2025-07-17T1100,1585A,109.8756,40.6532,包头市,市环境监测站,,35,32,18,7,9,109,,48,48,18,24,16,5,0.8,0.5
2025-07-17T1100,1587A,109.9991,40.5842,包头市,包头八中,,,,29,,11,107,,46,46,17,28,10,5,0.6,0.6
2025-07-17T1100,1588A,109.8538,40.6821,包头市,青山宾馆,,34,24,19,10,10,107,,42,42,20,27,14,6,0.7,0.4
2025-07-17T1100,1589A,109.8642,40.6288,包头市,惠龙物流,,40,40,22,22,9,103,,54,54,15,18,16,6,0.7,0.5
2025-07-17T1100,1590A,110.0377,40.5546,包头市,东河鸿龙湾,,36,16,23,3,5,113,,49,49,9,19,7,4,0.6,0.8
2025-07-17T1100,3283A,109.9154,40.5685,包头市,滨河大厦,,36,26,20,10,9,114,,50,50,15,20,10,5,0.6,0.5
2025-07-17T1100,3419A,109.9447,40.6261,包头市,包头市委党校,,33,29,15,13,9,104,,46,46,13,19,14,7,0.7,0.6
2025-07-17T1100,3683A,109.8331,40.6576,包头市,昆区政府,,35,33,20,11,11,110,,53,53,18,23,12,4,1.0,0.7
2025-07-17T1100,1930A,107.185,34.3063,宝鸡市,庙沟村,,43,36,38,16,17,136,,77,77,12,8,4,4,0.6,0.5
2025-07-17T1100,1931A,107.0708,34.3017,宝鸡市,竹园沟,,,52,38,20,17,128,,49,49,,9,11,8,,0.5
2025-07-17T1100,1932A,107.1906,34.3672,宝鸡市,三陆医院,颗粒物(PM10),54,58,43,24,23,151,,50,50,16,24,15,7,0.7,0.7
2025-07-17T1100,1933A,107.1431,34.3547,宝鸡市,监测站,颗粒物(PM10),52,54,44,27,23,152,,60,60,14,12,15,9,0.5,0.4
2025-07-17T1100,1934A,107.1186,34.3739,宝鸡市,技工学校,,,,58,,25,,,110,,,7,,6,,0.5
2025-07-17T1100,1935A,107.3906,34.3528,宝鸡市,陈仓区环保局家属楼,,,,,,,,,,,,,,,,
2025-07-17T1100,1936A,107.2058,34.3497,宝鸡市,文理学院,,50,49,44,25,22,157,,66,66,12,12,15,7,0.6,0.5
2025-07-17T1100,1937A,107.2386,34.3622,宝鸡市,三迪小学,颗粒物(PM10),58,65,48,27,25,155,,63,63,14,16,16,8,0.6,0.5
2025-07-17T1100,1051A,115.493,38.8632,保定市,游泳馆,,37,18,32,3,18,117,,72,72,8,10,1,2,0.0,0.2
2025-07-17T1100,1052A,115.5213,38.8959,保定市,华电二区,,37,15,36,8,18,118,,73,73,5,13,3,3,0.1,1.1
2025-07-17T1100,1053A,115.4713,38.9108,保定市,接待中心,,,23,36,3,18,116,,68,68,3,10,3,3,,0.6
2025-07-17T1100,1054A,115.4612,38.8416,保定市,地表水厂,,38,25,47,8,16,120,,69,69,1,8,2,1,0.1,0.4
2025-07-17T1100,3581A,115.31981,38.95208,保定市,满城区生态环境分局,,37,9,35,3,22,116,,68,68,4,9,4,2,0.2,0.3
2025-07-17T1100,3582A,115.47694,38.76408,保定市,清苑区第二中学,,37,31,51,15,24,118,,73,73,2,11,2,2,0.5,0.5
2025-07-17T1100,3583A,115.62909,39.02311,保定市,徐水物探局,,36,14,32,3,15,115,,71,71,1,8,1,2,0.3,0.5
2025-07-17T1100,4004A,115.4202,38.8656,保定市,双鹰农机,,39,11,28,7,19,124,,70,70,5,15,5,5,0.1,0.3
2025-07-17T1100,4034A,115.5150,38.8590,保定市,植保所站,,40,34,35,8,16,126,,86,86,9,13,3,3,0.2,0.3
2025-07-17T1100,2594A,99.1678,25.1081,保山市,市环境监测站,,,26,18,13,14,52,,36,34,13,6,7,8,,0.4
2025-07-17T1100,2595A,99.1711,25.1328,保山市,市环保局,,24,20,20,7,12,75,,58,55,8,4,7,7,0.3,0.3
2025-07-17T1100,1866A,109.2262,21.588,北海市,牛尾岭水库,,24,11,15,3,6,74,,53,53,11,11,2,2,0.4,0.4
2025-07-17T1100,1867A,109.1436,21.4086,北海市,海滩公园,,25,25,44,3,7,52,,46,46,3,4,2,2,0.7,0.6
2025-07-17T1100,1868A,109.0981,21.4661,北海市,新市环保局,,21,11,18,9,9,67,,58,58,4,4,2,2,0.3,0.3
2025-07-17T1100,1869A,109.1778,21.5233,北海市,北海工业园,,23,16,25,3,12,71,,50,50,5,6,3,3,0.2,0.3
2025-07-17T1100,3400A,109.1911,21.4415,北海市,龙潭自来水厂,,22,11,19,6,10,69,,58,58,4,4,5,5,0.5,0.5
2025-07-17T1100,1001A,116.3621,39.8784,北京市,万寿西宫,,35,6,16,3,11,112,,62,62,15,21,3,2,0.3,0.7
2025-07-17T1100,1002A,116.2202,40.2915,北京市,定陵,,32,6,11,3,9,101,,67,67,2,3,6,4,0.3,0.5
2025-07-17T1100,1003A,116.4174,39.9289,北京市,东四,,37,8,13,3,7,117,,73,73,8,17,4,4,0.2,0.5
2025-07-17T1100,1004A,116.4072,39.8863,北京市,天坛,,36,8,14,3,9,113,,62,62,11,15,5,4,0.4,0.6
2025-07-17T1100,1005A,116.462,39.9365,北京市,农展馆,,30,7,12,3,9,95,,61,61,8,15,4,2,0.4,0.7
2025-07-17T1100,1006A,116.3392,39.9295,北京市,官园,,34,10,19,3,11,107,,54,54,10,21,5,4,0.4,0.7
2025-07-17T1100,1007A,116.2878,39.9611,北京市,海淀万柳,,34,7,20,3,13,106,,40,40,8,24,3,3,0.2,0.6
2025-07-17T1100,1008A,116.6636,40.135,北京市,顺义新城,,32,9,14,3,9,102,,58,58,4,9,3,2,0.3,0.5
2025-07-17T1100,1009A,116.6275,40.3275,北京市,怀柔镇,,30,9,10,3,6,96,,53,53,7,8,2,2,0.4,0.5
2025-07-17T1100,1010A,116.2296,40.217,北京市,昌平镇,,32,6,14,3,9,100,,67,67,2,11,7,6,0.2,0.4
2025-07-17T1100,1011A,116.3966,39.9821,北京市,奥体中心,,30,10,10,3,5,94,,63,63,5,16,4,3,0.1,0.4
2025-07-17T1100,3281A,115.9718,40.4529,北京市,延庆夏都,,32,10,5,7,4,101,,42,42,7,10,7,5,0.3,0.3
2025-07-17T1100,3418A,116.8336,40.4095,北京市,密云新城,,28,6,6,3,3,88,,50,50,2,7,3,2,0.6,0.7
2025-07-17T1100,3671A,116.088,39.9726,北京市,门头沟三家店,,33,6,14,3,8,105,,50,50,3,11,4,3,0.3,0.5
2025-07-17T1100,3672A,116.1541,39.8204,北京市,丰台云岗,,29,7,20,3,12,90,,50,50,2,12,3,2,0.2,0.5
2025-07-17T1100,3673A,116.6804,39.9081,北京市,通州东关,,33,14,19,3,10,103,,53,53,19,27,3,2,0.4,0.6
2025-07-17T1100,3674A,115.9577,39.7603,北京市,房山燕山,,33,9,16,3,13,104,,79,79,8,7,1,2,0.4,0.5
2025-07-17T1100,3675A,116.4672,39.7733,北京市,大兴旧宫,,35,14,18,3,10,111,,62,62,7,21,2,1,0.4,0.8
2025-07-17T1100,3694A,115.986,40.4563,北京市,延庆石河营,,28,7,4,3,2,89,,30,30,9,11,4,2,0.4,0.3
2025-07-17T1100,3695A,116.6151,40.3053,北京市,怀柔新城,,29,10,11,3,6,90,,51,51,6,5,2,1,0.5,0.7
2025-07-17T1100,3696A,116.2545,39.8768,北京市,丰台小屯,,34,6,21,3,14,106,,53,53,2,14,2,1,0.3,0.7
2025-07-17T1100,3697A,116.84,40.3844,北京市,密云镇,,28,6,7,3,3,87,,40,40,5,15,5,3,0.4,0.5
2025-07-17T1100,4182A,116.1942,39.9158,北京市,八角北路9号,,37,6,20,3,10,118,,66,66,7,15,3,2,0,0.3
2025-07-17T1100,4194A,117.0790,40.1518,北京市,洳河巡河路,,30,8,8,3,5,94,,53,53,2,4,3,2,0.3,0.3
2025-07-17T1100,1761A,123.8275,41.3064,本溪市,大峪,,,,18,,9,102,,37,37,,13,6,5,0.8,0.4
2025-07-17T1100,1762A,123.7567,41.3325,本溪市,溪湖,,33,29,24,17,12,104,,40,40,16,13,16,7,2.4,1.2
2025-07-17T1100,1763A,123.7169,41.3094,本溪市,彩屯,,31,26,26,15,16,99,,34,34,18,21,18,9,1.6,1
2025-07-17T1100,1764A,123.7669,41.2864,本溪市,东明,,,34,20,8,7,108,,43,43,,14,,4,1.3,0.7
2025-07-17T1100,1765A,123.7992,41.2664,本溪市,新立屯,,32,22,12,3,4,100,,46,46,7,12,5,4,0.7,0.5
2025-07-17T1100,1766A,123.8142,41.3472,本溪市,威宁,,32,15,22,8,12,101,,33,33,11,14,6,5,1.0,0.6
2025-07-17T1100,2587A,105.2864,27.3125,毕节市,八中,,41,41,33,27,24,82,,28,28,14,15,5,4,0.5,0.4
2025-07-17T1100,2588A,105.31,27.2944,毕节市,师专,,48,48,43,23,21,80,,28,28,13,18,5,4,0.5,0.5
2025-07-17T1100,4263A,105.3688,27.3598,毕节市,工业大道,,34,34,36,21,19,88,,21,21,13,23,7,6,0.7,0.7
2025-07-17T1100,1629A,118.0018,37.3617,滨州市,第二水厂,,47,27,24,22,19,148,,102,102,2,7,8,5,0.8,0.7
2025-07-17T1100,1630A,117.9776,37.393,滨州市,北中新校,,,27,25,19,17,145,,95,95,,8,,10,0.5,0.4
2025-07-17T1100,3514A,117.9378,37.3956,滨州市,中海酒店,,45,24,23,19,21,143,,92,92,2,6,12,9,0.8,0.8
2025-07-17T1100,3515A,117.9378,37.3553,滨州市,开发区一中,,50,29,26,14,18,157,,100,100,7,12,15,13,0.6,0.5
2025-07-17T1100,3516A,118.0917,37.694,滨州市,金海六路,,47,22,26,14,17,148,,79,79,7,15,11,10,0.4,0.4
2025-07-17T1100,4028A,117.9956,37.3753,滨州市,滨州市西街道办事处,,50,22,20,17,18,158,,110,110,4,8,6,4,0.6,0.5
2025-07-17T1100,2311A,115.8072,33.8399,亳州市,污水处理厂,臭氧1小时,55,39,36,31,28,164,,109,109,7,9,4,4,0.8,0.8
2025-07-17T1100,2312A,115.7789,33.8518,亳州市,三国揽胜宫,颗粒物(PM10),55,59,49,30,28,152,,112,112,8,9,6,5,0.7,0.6
2025-07-17T1100,3332A,115.7633,33.8034,亳州市,亳州学院,,50,38,36,32,25,160,,124,124,6,7,4,5,0.9,0.6
2025-07-17T1100,2693A,82.0485,44.8556,博尔塔拉蒙古自治州,市党校,,38,,26,26,19,73,,73,73,12,10,4,4,0.1,0.1
2025-07-17T1100,2694A,82.0806,44.8969,博尔塔拉蒙古自治州,市环保局,,26,26,30,11,11,70,,72,69,9,7,5,3,0.3,0.2
2025-07-17T1100,1071A,116.8842,38.2991,沧州市,沧县城建局,,,,48,,26,129,,92,92,,12,4,2,0.4,0.5
2025-07-17T1100,1072A,116.8584,38.3254,沧州市,电视转播站,,40,40,44,14,27,118,,83,79,8,14,4,2,0.3,0.4
2025-07-17T1100,1073A,116.8709,38.3228,沧州市,市环保局,,39,39,50,25,28,114,,77,76,7,12,3,2,0.3,0.5
2025-07-17T1100,3324A,116.8136,38.3004,沧州市,河北水利电力学院,,42,19,36,14,25,134,,80,80,5,15,5,5,0.3,0.4
2025-07-17T1100,2622A,97.1806,31.1273,昌都市,昌都监测站,,27,10,17,9,9,84,,62,62,13,6,3,3,0.1,0
2025-07-17T1100,3719A,97.1714,31.1406,昌都市,昌都会议中心,,30,14,14,13,9,94,,67,67,10,6,6,6,0.1,0
2025-07-17T1100,2690A,88.1236,43.8886,昌吉回族自治州,天山天池,,24,17,19,8,7,75,,65,65,8,6,4,4,0.5,0.5
2025-07-17T1100,2692A,87.2717,44.0297,昌吉回族自治州,新区政务中心,,39,,23,27,15,86,,94,84,7,8,5,6,0.4,0.4
2025-07-17T1100,3613A,87.3095,44.0142,昌吉回族自治州,亚心广场,,31,31,30,7,12,82,,88,83,15,12,7,8,0.2,0.2
2025-07-17T1100,1120A,125.2863,43.9027,长春市,客车厂,,31,16,22,8,16,99,,80,80,11,16,2,2,0.4,0.6
2025-07-17T1100,1121A,125.2841,43.8463,长春市,邮电学院,,31,10,19,8,13,99,,74,74,7,11,4,4,0.3,0.5
2025-07-17T1100,1122A,125.3716,43.8772,长春市,劳动公园,,30,21,25,3,19,94,,74,74,14,16,5,4,0.4,0.5
2025-07-17T1100,1123A,125.3297,43.8805,长春市,园林处,,30,25,20,6,17,96,,74,74,6,11,4,4,0.5,0.6
2025-07-17T1100,1124A,125.4605,43.79,长春市,净月潭,,25,8,20,6,10,77,,48,48,4,6,6,6,0.3,0.4
2025-07-17T1100,1125A,125.7194,43.515,长春市,甩湾子,,,,12,,11,75,,42,42,,10,1,2,0.6,0.7
2025-07-17T1100,1126A,125.3863,43.8447,长春市,经开区环卫处,,29,15,23,3,13,91,,71,71,6,11,4,4,0.4,0.5
2025-07-17T1100,1127A,125.245,43.7783,长春市,高新区管委会,,30,15,21,3,16,96,,76,76,4,11,3,2,0.4,0.6
2025-07-17T1100,1128A,125.1761,43.8325,长春市,岱山公园,,30,18,24,6,18,93,,73,73,9,19,3,3,0.2,0.4
2025-07-17T1100,4281A,125.3346,43.9164,长春市,北亚泰大街1068号,,30,24,25,10,15,94,,75,75,11,15,5,2,0.4,0.5
2025-07-17T1100,1335A,113.0833,28.2325,长沙市,经开区环保局,,35,32,30,23,17,112,,50,50,11,12,8,5,0.6,0.4
2025-07-17T1100,1336A,112.8872,28.2189,长沙市,高开区环保局,,35,35,32,15,15,93,,54,54,9,7,5,5,0.4,0.4
2025-07-17T1100,1337A,113.0792,28.2053,长沙市,马坡岭,,37,33,33,16,23,116,,52,52,9,11,8,5,0.7,0.5
2025-07-17T1100,1338A,112.9394,28.19,长沙市,湖南师范大学,,31,28,26,16,17,98,,51,51,5,9,2,3,0.9,0.7
2025-07-17T1100,1339A,113.0178,28.1322,长沙市,雨花区环保局,,38,38,29,15,13,112,,51,51,7,8,10,7,0.9,0.7
2025-07-17T1100,1340A,112.9792,28.2597,长沙市,伍家岭,,41,41,29,16,17,99,,53,53,7,9,4,4,0.3,0.3
2025-07-17T1100,1341A,113.0014,28.1944,长沙市,火车新站,,39,39,30,14,12,99,,55,55,6,7,9,8,0.7,0.6
2025-07-17T1100,1342A,112.9844,28.1178,长沙市,天心区环保局,,41,41,27,16,16,109,,66,66,8,10,4,2,0.6,0.4
2025-07-17T1100,1343A,112.8908,28.1308,长沙市,湖南中医药大学,,38,38,32,6,18,97,,52,52,4,8,4,4,0.8,0.8
2025-07-17T1100,1344A,112.9581,28.3611,长沙市,沙坪,,43,,22,30,17,101,,44,44,9,11,3,4,0.5,0.4
2025-07-17T1100,1727A,113.1147,36.1547,长治市,清华站,,46,32,36,17,17,146,,101,101,10,13,11,9,0.8,0.9
2025-07-17T1100,1730A,113.0886,36.2125,长治市,审计局,,44,30,34,17,20,138,,84,84,9,13,6,6,0.8,1
2025-07-17T1100,1731A,113.0844,36.1856,长治市,长治八中,,45,35,39,27,27,143,,77,77,6,12,9,9,0.6,0.7
2025-07-17T1100,2845A,113.1569,36.1911,长治市,德盛苑,,46,28,38,14,19,145,,101,101,8,9,7,8,0.7,1.2
2025-07-17T1100,3568A,113.06,36.0464,长治市,向阳小学,颗粒物(PM10),63,75,78,16,27,140,,91,91,6,10,7,8,0.9,0.9
2025-07-17T1100,3569A,112.8792,36.3144,长治市,屯留一中,细颗粒物(PM2.5),59,58,47,42,26,144,,74,74,14,18,17,12,0.5,0.5
2025-07-17T1100,4189A,113.1131,36.19948,长治市,英华南巷50号,,43,42,41,22,20,136,,82,82,9,13,8,8,0.7,1.1
2025-07-17T1100,4190A,113.2367,36.3344,长治市,学府街1号,颗粒物(PM10),57,63,58,25,22,150,,85,85,15,22,13,6,0.8,0.6
2025-07-17T1100,1854A,111.6975,28.9703,常德市,市二中,,36,,21,25,17,75,,46,46,4,6,3,3,0.5,0.5
2025-07-17T1100,1857A,111.7158,29.1456,常德市,白鹤山,,,,,,,,,,,,,,,,
2025-07-17T1100,3138A,111.7153,29.0289,常德市,武陵区永安,,32,32,23,15,16,74,,54,54,4,6,3,3,0.2,0.2
2025-07-17T1100,3139A,111.6892,28.9881,常德市,鼎城区玉霞,,,,23,,17,71,,37,37,1,6,4,5,0.4,0.5
2025-07-17T1100,3140A,111.6625,29.0531,常德市,武陵区长庚,,28,24,22,19,21,72,,51,51,4,6,3,2,0.5,0.4
2025-07-17T1100,1196A,119.9633,31.762,常州市,市监测站,,50,18,38,3,20,157,,98,98,6,12,8,9,0.5,0.6
2025-07-17T1100,1200A,119.9468,31.7069,常州市,武进监测站,,,22,32,3,19,143,,92,92,,9,,10,0.8,0.9
2025-07-17T1100,1201A,119.9255,31.9087,常州市,安家,臭氧1小时,70,25,41,10,19,176,,104,104,10,19,7,10,0.8,0.8
2025-07-17T1100,3002A,119.9805,31.8174,常州市,行政中心,,48,25,32,8,19,153,,95,95,10,12,8,9,0.4,0.5
2025-07-17T1100,3003A,120.0522,31.7748,常州市,经开区,臭氧1小时,62,21,44,8,18,169,,94,94,10,13,5,6,0.3,0.3
2025-07-17T1100,3010A,119.9025,31.7964,常州市,钟楼,,45,17,38,8,19,144,,92,92,14,15,5,6,0.6,0.6
2025-07-17T1100,3429A,119.8598,31.7066,常州市,武进经发区,,47,9,38,7,22,149,,97,97,3,9,7,8,0.8,0.8
2025-07-17T1100,3430A,119.5826,31.7245,常州市,金坛城区,,48,12,23,8,20,153,,115,115,6,9,9,6,0.6,0.5
2025-07-17T1100,2220A,120.4318,41.5881,朝阳市,西梁,,21,15,15,7,12,65,,54,49,13,15,6,6,0.4,0.5
2025-07-17T1100,2221A,120.4521,41.5646,朝阳市,河畔小区,,19,16,19,12,13,59,,63,51,11,10,5,5,0.5,0.5
2025-07-17T1100,2222A,120.4176,41.5648,朝阳市,八里堡,,30,30,24,3,15,70,,59,46,13,15,4,4,0.4,0.6
2025-07-17T1100,2223A,120.3806,41.5969,朝阳市,农业园区,,22,6,10,3,7,70,,47,43,6,9,5,4,0.4,0.4
2025-07-17T1100,1705A,116.6367,23.6719,潮州市,西园路,"颗粒物(PM10),细颗粒物(PM2.5)",55,60,42,39,25,111,,43,43,8,12,4,4,0.6,0.5
2025-07-17T1100,3026A,116.6183,23.6608,潮州市,市政府,颗粒物(PM10),74,97,53,33,30,118,,48,48,13,20,2,10,0.7,0.5
2025-07-17T1100,4036A,116.6461,23.6761,潮州市,金山,颗粒物(PM10),53,56,40,30,23,120,,37,37,6,9,4,5,0.9,0.8
2025-07-17T1100,2472A,113.0073,25.9061,郴州市,马头岭,,25,25,21,9,6,72,,26,26,5,11,7,6,0.4,0.4
2025-07-17T1100,2473A,113.0116,25.8226,郴州市,市职中,,28,28,22,19,14,86,,32,32,14,16,6,6,0.7,0.6
2025-07-17T1100,2475A,113.0383,25.8071,郴州市,市审计局,,27,26,23,12,13,84,,32,32,6,11,3,4,0.4,0.4
2025-07-17T1100,2476A,113.0348,25.7759,郴州市,市环保局,,36,31,23,25,16,79,,54,54,2,7,4,4,0.2,0.2
2025-07-17T1100,4252A,113.0138,25.8011,郴州市,好美居路49号,,,37,24,18,14,103,,32,32,,10,3,3,0.4,0.4
2025-07-17T1100,1431A,103.9728,30.7236,成都市,金泉两河,臭氧1小时,59,54,43,36,30,167,,74,72,15,16,2,2,0.7,0.6
2025-07-17T1100,1432A,104.176,30.6872,成都市,十里店,臭氧1小时,101,68,52,40,29,201,,87,87,21,20,4,4,0.6,0.6
2025-07-17T1100,1433A,104.079,30.5706,成都市,三瓦窑,臭氧1小时,101,60,45,43,33,202,,88,88,33,27,4,3,0.7,0.6
2025-07-17T1100,1434A,104.1114,30.63,成都市,沙河铺,颗粒物(PM10),56,61,44,32,28,154,,62,62,20,20,6,6,0.6,0.5
2025-07-17T1100,1437A,104.0786,30.6531,成都市,君平街,臭氧1小时,79,70,51,42,34,183,,110,110,24,18,8,6,1.0,0.8
2025-07-17T1100,1438A,103.613,31.0283,成都市,灵岩寺,,,,,,,,,,,,,,,,
2025-07-17T1100,2880A,104.0239,30.65639,成都市,大石西路,,48,41,39,33,33,139,,128,111,22,18,5,3,0.9,0.7
2025-07-17T1100,3136A,104.2725,30.5589,成都市,龙泉驿区区政府,,48,31,30,27,20,151,,95,95,12,12,4,4,0.5,0.5
2025-07-17T1100,3357A,104.0106,30.6931,成都市,金博路,臭氧1小时,55,29,37,22,26,164,,73,71,15,20,6,5,0.8,0.7
2025-07-17T1100,3359A,104.0578,30.5225,成都市,华阳,臭氧1小时,72,58,38,44,32,177,,85,85,20,17,4,5,0.7,0.7
2025-07-17T1100,3488A,104.3853,30.7453,成都市,青白江技师分院,细颗粒物(PM2.5),54,45,48,38,30,159,,61,61,14,36,6,6,0.6,0.6
2025-07-17T1100,3489A,104.0789,30.4072,成都市,科学城,细颗粒物(PM2.5),54,47,34,38,30,153,,73,73,13,11,3,3,0.7,0.6
2025-07-17T1100,4011A,103.8506,30.6947,成都市,光华大道三段,细颗粒物(PM2.5),65,71,45,47,33,137,,114,,18,14,10,6,0.9,0.8
2025-07-17T1100,4224A,104.2433,30.5353,成都市,鲸龙路1057号,,48,38,39,23,28,152,,68,68,11,22,6,10,0.8,0.7
2025-07-17T1100,1062A,117.9531,40.9081,承德市,铁路,,30,12,19,3,7,95,,33,33,3,12,2,2,0.2,0.3
2025-07-17T1100,1063A,117.9392,40.9763,承德市,中国银行,,29,6,19,3,7,92,,31,31,4,8,3,2,0.2,0.3
2025-07-17T1100,1064A,117.9503,40.928,承德市,开发区,,,,32,14,12,95,,33,33,6,14,3,6,0.1,0.2
2025-07-17T1100,1065A,117.8051,40.9655,承德市,文化中心,,,,7,,2,,,64,,,8,,1,,0.2
2025-07-17T1100,1066A,117.9268,41.0026,承德市,离宫,,29,,20,18,14,90,,26,26,5,6,3,3,0.2,0.3
2025-07-17T1100,2314A,117.47,30.6618,池州市,池州学院,,,20,23,13,15,100,,97,93,,5,7,6,,0.4
2025-07-17T1100,3237A,117.4918,30.6617,池州市,展览馆,,32,20,21,12,13,102,,90,88,9,7,5,4,0.6,0.6
2025-07-17T1100,3333A,117.5627,30.695,池州市,第八中学,,32,23,19,13,12,100,,89,86,18,6,5,4,0.6,0.5
2025-07-17T1100,3334A,117.5038,30.6243,池州市,第十二中学,,35,21,23,10,12,111,,91,88,7,10,4,3,0.8,0.7
2025-07-17T1100,1744A,118.9233,42.2816,赤峰市,松山一中,,32,18,25,6,5,100,,73,73,9,15,10,8,0.4,0.4
2025-07-17T1100,1745A,118.9576,42.2728,赤峰市,哈达街,,31,10,12,6,9,99,,74,74,12,16,11,10,0.5,0.5
2025-07-17T1100,1746A,118.8788,42.2554,赤峰市,天义路,,30,17,10,6,6,95,,64,64,10,14,9,8,0.2,0.2
2025-07-17T1100,3058A,119.2658,42.0353,赤峰市,银河街,,27,12,13,3,9,86,,64,64,8,12,7,11,0.5,0.5
2025-07-17T1100,3286A,118.9359,42.3147,赤峰市,桥北物流园区,,28,18,14,14,10,89,,63,63,2,6,11,10,0.4,0.4
2025-07-17T1100,2521A,107.3476,22.4136,崇左市,市环保局江州分局,,24,20,25,10,13,74,,75,75,4,7,7,6,0.5,0.5
2025-07-17T1100,4256A,107.3750,22.3736,崇左市,石景林东路7号,,,42,22,13,13,82,,33,33,,10,,3,0.4,0.4
2025-07-17T1100,2298A,118.3093,32.3153,滁州市,老年大学,,45,16,22,15,16,143,,100,100,5,4,7,12,0.3,0.3
2025-07-17T1100,2299A,118.3244,32.2786,滁州市,人大宾馆,,46,,16,10,16,145,,97,97,2,8,4,4,0.3,0.3
2025-07-17T1100,3207A,118.3118,32.3038,滁州市,市政府原办公楼,,45,,22,21,26,144,,97,97,4,4,4,4,0.3,0.4
2025-07-17T1100,3331A,118.3267,32.2634,滁州市,图书馆,,40,10,23,9,12,127,,92,92,5,7,9,10,0.4,0.4
2025-07-17T1100,2605A,101.5482,25.0441,楚雄彝族自治州,州环境监测站,,48,33,23,33,18,52,,21,21,14,19,7,7,0.8,0.6
2025-07-17T1100,2606A,101.538,25.0492,楚雄彝族自治州,市经济开发区,,35,,34,24,16,54,,21,21,12,16,8,8,0.7,0.6
2025-07-17T1100,2548A,107.5277,31.2827,达州市,达州职业技术学院,,,,42,,11,,,101,,,18,,8,,0.6
2025-07-17T1100,2549A,107.5086,31.2186,达州市,市环境监测站,颗粒物(PM10),54,58,43,27,18,98,,35,35,27,29,10,7,0.5,0.5
2025-07-17T1100,2550A,107.4988,31.2132,达州市,凤凰小区,颗粒物(PM10),54,58,42,27,21,118,,43,43,20,24,13,9,0.4,0.4
2025-07-17T1100,2551A,107.5082,31.1986,达州市,达县机关宾馆,颗粒物(PM10),51,51,44,8,12,103,,33,33,21,33,9,5,0.4,0.4
2025-07-17T1100,2552A,107.4644,31.2124,达州市,市政中心,颗粒物(PM10),54,58,45,27,19,97,,36,36,16,20,6,4,0.3,0.3
2025-07-17T1100,2614A,100.1542,25.7054,大理白族自治州,大理市环境监测站,,30,30,18,15,18,68,,37,32,16,12,6,5,0.5,0.4
2025-07-17T1100,2615A,100.2171,25.5811,大理白族自治州,大理古城,,26,22,23,18,16,71,,44,43,8,12,6,5,0.9,0.9
2025-07-17T1100,1109A,121.612,38.9741,大连市,甘井子,,,18,16,10,13,138,,82,82,,18,,8,0.3,0.5
2025-07-17T1100,1110A,121.565,38.9511,大连市,周水子,,36,16,17,6,12,114,,80,80,9,16,2,2,0.3,0.3
2025-07-17T1100,1111A,121.5637,38.8845,大连市,星海三站,,33,,18,19,14,104,,70,70,7,9,6,5,0.4,0.4
2025-07-17T1100,1112A,121.6302,38.9117,大连市,青泥洼桥,,37,20,21,12,11,117,,74,74,8,14,6,6,0.4,0.4
2025-07-17T1100,1113A,121.6251,38.8638,大连市,傅家庄,,36,14,15,11,11,113,,74,74,8,12,8,8,0.2,0.2
2025-07-17T1100,1114A,121.5213,38.8661,大连市,七贤岭,,40,18,18,12,12,127,,81,81,9,11,8,8,0.2,0.3
2025-07-17T1100,1115A,121.2529,38.8061,大连市,旅顺,,29,19,15,16,14,91,,63,63,22,14,3,3,0.4,0.3
2025-07-17T1100,1116A,121.7485,39.1311,大连市,金州,,34,14,14,9,11,107,,87,87,13,11,9,8,0.5,0.4
2025-07-17T1100,1117A,121.7811,39.0496,大连市,开发区,,36,20,16,15,12,115,,76,76,19,18,14,12,0.6,0.6
2025-07-17T1100,1118A,121.9762,39.0631,大连市,双D港,,38,16,11,14,8,119,,84,84,12,7,8,8,0.8,0.6
2025-07-17T1100,1789A,124.81117,46.03138,大庆市,大同区,,21,20,16,7,6,67,,27,27,8,9,6,7,0.5,0.5
2025-07-17T1100,1790A,125.129,46.533,大庆市,龙凤区,,19,14,12,6,8,58,,32,32,9,7,4,5,0.5,0.5
2025-07-17T1100,1791A,124.902,46.408,大庆市,红岗区,,17,13,15,8,10,54,,30,30,10,8,7,6,0.6,0.6
2025-07-17T1100,1792A,125.153,46.586,大庆市,萨尔图区,,28,28,18,3,3,50,,25,25,10,7,8,9,0.4,0.4
2025-07-17T1100,1793A,124.9042,46.6215,大庆市,让胡路区,,,24,14,13,12,,,,,11,11,8,6,0.3,0.4
2025-07-17T1100,3481A,125.141,46.634,大庆市,萨区政府监测点,,,24,19,3,3,53,,36,36,,6,,6,0.2,0.2
2025-07-17T1100,1721A,113.3819,40.1097,大同市,果树场,,28,25,13,11,7,89,,50,50,12,13,8,7,0.3,0.3
2025-07-17T1100,1723A,113.2994,40.0758,大同市,云冈宾馆,,34,22,19,15,6,108,,70,70,13,14,9,7,1.2,0.8
2025-07-17T1100,1724A,113.3444,40.0917,大同市,大同大学,,34,18,13,8,6,106,,62,62,11,16,10,10,0.3,0.3
2025-07-17T1100,1725A,113.2661,40.1269,大同市,安家小村,,34,23,23,3,4,106,,51,51,7,16,7,8,0.4,0.7
2025-07-17T1100,1726A,113.2711,40.0844,大同市,教育学院,,34,20,18,3,7,106,,61,61,11,15,8,8,0.4,0.5
2025-07-17T1100,3282A,113.3397,40.0597,大同市,大同市卫生学校,,34,6,13,3,5,107,,74,74,11,14,8,8,0.4,0.5
2025-07-17T1100,3565A,113.1367,40.1122,大同市,云冈站,,30,15,24,3,8,95,,41,41,12,18,5,5,0.3,0.3
2025-07-17T1100,3566A,113.1186,40.2556,大同市,图书馆,,,,15,,7,105,,35,35,8,8,,7,1.6,0.7
2025-07-17T1100,3567A,113.5931,40.0461,大同市,区一中,,,34,10,6,4,97,,69,69,13,8,,11,,0.3
2025-07-17T1100,4199A,113.2798,40.0997,大同市,魏都大道141号,,35,20,25,8,6,112,,65,65,6,11,8,27,0.6,0.6
2025-07-17T1100,2269A,124.1069,50.4097,大兴安岭地区,科技局,,,26,27,10,11,55,,21,21,,5,5,5,,0.3
2025-07-17T1100,3663A,124.1164,50.4278,大兴安岭地区,红旗社区,,22,22,9,11,8,62,,23,23,8,5,4,4,0.2,0.2
2025-07-17T1100,1600A,124.3303,40.0625,丹东市,江湾东路,,,11,10,,6,73,,58,58,12,12,4,4,,0.6
2025-07-17T1100,1601A,124.4256,40.1503,丹东市,临江后街,,22,9,10,7,4,69,,53,53,8,9,7,6,0.7,0.6
2025-07-17T1100,1602A,124.3933,40.1461,丹东市,元宝山,,13,10,6,6,4,41,,46,44,8,10,2,2,0.5,0.5
2025-07-17T1100,1603A,124.3633,40.1092,丹东市,民主桥,,22,10,8,9,7,70,,56,56,14,15,4,4,1.0,0.9
2025-07-17T1100,3541A,109.5726,19.5167,儋州市,第一中学子站,,15,13,21,7,12,45,,31,31,3,5,7,8,0.2,0.3
2025-07-17T1100,3542A,109.5567,19.5187,儋州市,东坡学校子站,,15,9,18,7,11,45,,29,29,1,4,5,5,0.6,0.6
2025-07-17T1100,2616A,98.5842,24.428,德宏傣族景颇族自治州,德宏州监测站,,15,13,17,10,10,26,,23,22,8,9,22,11,0.7,0.7
2025-07-17T1100,3677A,98.5881,24.4368,德宏傣族景颇族自治州,芒市人民政府综合楼,,22,22,24,12,10,24,,24,22,11,8,19,10,0.5,0.5
2025-07-17T1100,1901A,104.4239,31.1208,德阳市,东山公园,颗粒物(PM10),51,51,38,31,27,143,,96,96,9,10,6,7,1.0,0.8
2025-07-17T1100,1902A,104.3826,31.1317,德阳市,西小区,颗粒物(PM10),53,56,46,32,34,159,,80,80,18,23,9,9,1.0,0.9
2025-07-17T1100,1904A,104.3553,31.1091,德阳市,耐火材料厂,臭氧1小时,58,53,51,33,34,166,,68,68,16,19,2,2,0.6,0.6
2025-07-17T1100,3639A,104.4019,31.1244,德阳市,市教育局,,,,54,,28,163,,74,74,12,16,,5,0.9,0.9
2025-07-17T1100,1622A,116.3032,37.4674,德州市,儿童乐园,,48,24,33,7,21,152,,136,136,4,8,9,10,0.5,0.5
2025-07-17T1100,1624A,116.2991,37.4451,德州市,监理站,,48,19,30,12,21,152,,128,128,5,10,9,11,0.4,0.5
2025-07-17T1100,3066A,116.2721,37.4379,德州市,九衢泉纯净水厂,,45,34,33,24,23,142,,103,103,13,15,8,4,0.6,0.6
2025-07-17T1100,3371A,116.3728,37.4403,德州市,开发区人民医院,,46,22,32,14,22,145,,118,118,7,12,9,9,0.8,0.8
2025-07-17T1100,3511A,116.5652,37.3319,德州市,陵城艺术中心,臭氧1小时,52,31,34,14,20,161,,119,119,9,10,10,8,0.3,0.3
2025-07-17T1100,4292A,116.3525,37.4209,德州市,新河东路,,,24,33,9,21,144,,96,96,12,15,,10,0.6,0.6
2025-07-17T1100,2621A,99.7056,27.8317,迪庆藏族自治州,迪庆州站,,33,28,24,18,16,103,,66,60,9,8,8,8,0.4,0.3
2025-07-17T1100,3180A,99.7136,27.8094,迪庆藏族自治州,质量技术监督局,,31,28,34,13,11,99,,71,63,18,11,7,6,0.4,0.4
2025-07-17T1100,4257A,104.6092,35.5962,定西市,将台街,,,,,,,,,,,,,,,,
2025-07-17T1100,4309A,104.6159,35.5701,定西市,正龙路62号,,28,21,41,8,17,88,,56,56,2,5,7,7,0.3,0.3
2025-07-17T1100,1389A,113.7547,23.0494,东莞市,莞城梨川,,35,25,31,24,19,105,,38,38,12,15,6,6,0.5,0.5
2025-07-17T1100,1390A,113.7944,23.0128,东莞市,东城石井,,37,37,33,16,16,88,,24,24,14,20,2,2,0.6,0.6
2025-07-17T1100,1391A,113.7383,22.9658,东莞市,南城西平,,32,31,28,19,16,100,,38,38,12,15,3,3,0.6,0.6
2025-07-17T1100,3319A,113.7338,23.0381,东莞市,万江金泰,,36,36,31,17,16,92,,26,26,12,16,3,4,0.7,0.8
2025-07-17T1100,3626A,113.7533,23.0202,东莞市,南城元岭,,44,44,31,16,13,100,,35,35,13,17,4,5,0.5,0.6
2025-07-17T1100,3627A,113.7875,23.0457,东莞市,东城主山,颗粒物(PM10),52,53,51,19,19,96,,34,34,16,17,3,4,0.5,0.5
2025-07-17T1100,1666A,118.6614,37.4309,东营市,市环保局,,47,22,13,12,7,150,,105,105,15,16,9,7,0.5,0.3
2025-07-17T1100,3036A,118.6904,37.4338,东营市,开发区管委会,,50,30,19,17,7,157,,115,115,11,12,9,6,0.5,0.4
2025-07-17T1100,3365A,118.5719,37.565,东营市,垦利区民丰路,臭氧1小时,65,39,18,19,10,172,,116,116,13,14,12,9,0.7,0.6
2025-07-17T1100,3498A,118.5055,37.8612,东营市,河口城区,,49,31,20,17,10,154,,101,101,13,13,12,7,0.8,0.7
2025-07-17T1100,3646A,118.4978,37.4623,东营市,胜利站,,47,43,25,14,8,149,,107,107,15,17,7,4,0.6,0.5
2025-07-17T1100,3734A,118.35,37.26,东营市,理想之城,,47,24,16,14,10,148,,101,101,15,14,12,8,0.5,0.4
2025-07-17T1100,1591A,110.0023,39.8129,鄂尔多斯市,综合楼,,,19,20,3,5,107,,80,80,12,16,6,8,,0.6
2025-07-17T1100,1592A,109.9486,39.8261,鄂尔多斯市,巴音孟克林场办事处,,36,31,28,7,9,113,,83,83,12,14,6,4,0.6,0.5
2025-07-17T1100,1593A,109.7736,39.5986,鄂尔多斯市,康泽苑,,36,31,34,3,6,115,,57,57,10,15,5,4,0.4,0.3
2025-07-17T1100,1594A,109.8119,39.5989,鄂尔多斯市,华泰汽车城,,34,22,30,7,8,106,,43,43,9,21,5,5,0.4,0.5
2025-07-17T1100,1595A,109.9734,39.7884,鄂尔多斯市,奥林花园,,34,22,25,14,13,107,,67,67,10,14,7,7,0.6,0.5
2025-07-17T1100,2436A,114.8938,30.3994,鄂州市,市政府,,28,28,38,9,15,88,,64,59,8,14,3,6,0.6,0.8
2025-07-17T1100,2437A,114.8989,30.3714,鄂州市,赵家坝,,,,32,,9,86,,81,68,,7,,8,0.6,0.8
2025-07-17T1100,3654A,114.8094,30.4089,鄂州市,精准医疗中心,,33,33,31,6,8,79,,46,42,23,14,7,4,1.5,0.7
2025-07-17T1100,2454A,109.4978,30.2981,恩施土家族苗族自治州,湖北民院,,31,31,26,15,17,81,,41,41,4,7,4,5,0.6,0.5
2025-07-17T1100,2455A,109.4707,30.2798,恩施土家族苗族自治州,州电力总公司,,36,36,23,24,17,77,,27,27,10,11,9,9,0.6,0.5
2025-07-17T1100,3549A,109.5061,30.3772,恩施土家族苗族自治州,龙凤新区,,30,22,22,16,16,96,,48,48,7,5,5,5,0.5,0.5
2025-07-17T1100,2499A,108.3411,21.6158,防城港市,沙万,,19,10,25,7,12,59,,45,45,7,11,3,3,0.4,0.5
2025-07-17T1100,2500A,108.3514,21.7731,防城港市,防城档案局,,16,,26,11,13,51,,25,25,4,7,3,2,0.5,0.6
2025-07-17T1100,2501A,108.3506,21.6414,防城港市,大海花园,,,41,28,6,11,63,,47,47,9,8,,4,0.5,0.5
2025-07-17T1100,1371A,113.1294,23.0067,佛山市,湾梁,,,,31,16,15,76,,,,,13,,5,0.6,0.6
2025-07-17T1100,1372A,113.1083,23.0478,佛山市,华材职中,,41,41,27,19,19,92,,46,46,8,8,8,7,0.6,0.6
2025-07-17T1100,1373A,113.144,23.0453,佛山市,南海气象局,,38,38,30,14,18,76,,35,35,9,11,3,3,0.6,0.6
2025-07-17T1100,1374A,113.2881,22.8094,佛山市,顺德苏岗,,27,27,30,17,14,84,,38,38,9,13,7,8,0.5,0.5
2025-07-17T1100,1376A,112.8383,22.8678,佛山市,高明孔堂,,34,34,28,13,14,86,,51,51,11,7,7,6,0.7,0.6
2025-07-17T1100,1377A,112.8836,23.1588,佛山市,三水监测站,,39,39,30,23,19,78,,33,33,18,20,6,5,0.6,0.5
2025-07-17T1100,1378A,112.867,23.185,佛山市,三水云东海,,46,46,39,30,23,86,,36,36,19,19,2,3,1.0,0.8
2025-07-17T1100,3625A,113.2544,22.7642,佛山市,容桂街道办,,25,24,19,14,11,80,,40,40,11,14,5,6,0.5,0.5
2025-07-17T1100,1280A,119.3903,26.0543,福州市,鼓山,,,,,,,,,,,,,,,,
2025-07-17T1100,1282A,119.2681,26.0504,福州市,师大,颗粒物(PM10),58,66,44,39,19,62,,40,38,19,10,4,4,0.5,0.4
2025-07-17T1100,1283A,119.2984,26.1028,福州市,五四北路,颗粒物(PM10),62,73,47,37,29,49,,49,39,24,16,4,4,0.5,0.4
2025-07-17T1100,1284A,119.2648,26.0768,福州市,杨桥西路,细颗粒物(PM2.5),59,52,43,42,30,64,,39,37,18,13,4,4,0.5,0.4
2025-07-17T1100,1285A,119.317,26.0746,福州市,紫阳,颗粒物(PM10),63,75,56,42,31,55,,45,38,23,16,4,4,0.4,0.3
2025-07-17T1100,3048A,119.5799,26.0936,福州市,九龙,颗粒物(PM10),51,51,37,31,22,74,,38,38,9,10,4,4,0.4,0.3
2025-07-17T1100,3526A,119.5189,25.9664,福州市,吴航,颗粒物(PM10),54,57,45,37,28,76,,50,50,12,8,4,4,0.5,0.5
2025-07-17T1100,1755A,123.7977,41.8491,抚顺市,望花区,,38,37,24,26,16,84,,45,45,21,23,12,11,0.9,0.7
2025-07-17T1100,1756A,123.9161,41.8822,抚顺市,顺城区,,,,21,17,12,89,,47,47,,22,,6,,0.8
2025-07-17T1100,1757A,124.0436,41.8611,抚顺市,东洲区,,35,32,16,17,11,112,,49,49,10,15,7,6,0.7,0.6
2025-07-17T1100,1758A,123.9247,41.8642,抚顺市,新抚区,,26,26,20,15,13,81,,40,40,16,17,5,5,0.8,0.8
2025-07-17T1100,1759A,124.0972,41.8961,抚顺市,大伙房水库,,34,,18,8,13,107,,49,49,7,14,5,6,0.5,0.7
2025-07-17T1100,1760A,123.7086,41.8391,抚顺市,沈抚新城,,36,35,25,25,18,92,,51,51,24,26,8,7,1.3,1.2
2025-07-17T1100,2376A,116.2127,28.0814,抚州市,桐源党溪,颗粒物(PM10),57,63,33,25,16,59,,30,30,3,3,4,4,0.7,0.5
2025-07-17T1100,2377A,116.3544,27.9831,抚州市,市站,,37,37,29,20,16,62,,41,41,1,3,11,10,0.6,0.7
2025-07-17T1100,2378A,116.3565,27.963,抚州市,血防站,,40,40,31,20,18,50,,33,33,7,6,5,5,0.6,0.5
2025-07-17T1100,2379A,116.3564,28.0007,抚州市,采茶剧团,,35,35,31,18,18,62,,40,40,2,3,5,6,0.6,0.5
2025-07-17T1100,2380A,116.385,27.9647,抚州市,医学分院,,41,41,34,18,16,64,,38,38,2,3,3,6,0.6,0.5
2025-07-17T1100,2207A,121.6094,41.998,阜新市,工业园区,,21,8,10,3,6,65,,42,42,8,17,2,2,0.4,0.3
2025-07-17T1100,2208A,121.6697,42.0279,阜新市,长青街,,20,9,8,8,6,63,,39,39,4,11,4,4,0.4,0.4
2025-07-17T1100,2209A,121.6673,42.0705,阜新市,农业园区,,,5,10,,1,59,,43,43,5,11,2,2,0.6,0.6
2025-07-17T1100,2210A,121.6717,42.0224,阜新市,东苑,,22,8,12,6,7,69,,43,43,4,13,2,3,0.4,0.4
2025-07-17T1100,2211A,121.6506,42.0498,阜新市,玉龙新城,,18,6,11,3,4,56,,32,32,6,13,3,4,0.4,0.4
2025-07-17T1100,2301A,115.8277,32.8929,阜阳市,市监测站,,48,40,40,22,24,151,,112,112,10,13,3,4,0.6,0.5
2025-07-17T1100,2303A,115.8554,32.8605,阜阳市,开发区,,45,45,38,19,17,143,,105,105,9,12,5,6,0.4,0.4
2025-07-17T1100,2875A,115.784,32.8892,阜阳市,阜阳职业技术学院,臭氧1小时,64,40,37,18,21,171,,130,130,6,8,4,4,0.5,0.5
2025-07-17T1100,3468A,115.7901,32.8613,阜阳市,市规划展馆,,48,47,40,30,30,153,,116,116,8,8,2,2,0.7,0.7
2025-07-17T1100,3469A,115.836,32.9183,阜阳市,枣园社区,,46,43,41,26,31,145,,101,101,10,12,1,2,0.5,0.5
2025-07-17T1100,2669A,102.9099,34.9841,甘南藏族自治州,州政府,颗粒物(PM10),52,54,45,23,25,62,,21,21,14,17,2,3,0.4,0.3
2025-07-17T1100,3380A,102.8914,34.9617,甘南藏族自治州,甘肃民族师范学院,颗粒物(PM10),62,73,71,30,27,62,,14,14,18,21,10,9,0.5,0.5
2025-07-17T1100,2570A,101.9603,30.0475,甘孜藏族自治州,水桥子,,,35,22,10,14,82,,,,20,11,,5,0.5,0.4
2025-07-17T1100,3065A,101.9533,29.9972,甘孜藏族自治州,州环保局,,32,25,20,6,9,100,,69,66,10,10,2,2,0.5,0.5
2025-07-17T1100,3414A,115.8347,28.932,赣江新区,桑海产业园,,30,9,29,3,14,95,,66,66,8,21,5,8,0.4,0.5
2025-07-17T1100,2362A,114.9017,25.9149,赣州市,通天岩,,38,38,33,26,25,77,,55,55,5,5,11,9,0.6,0.7
2025-07-17T1100,2363A,114.9367,25.8664,赣州市,地委,,33,33,31,21,20,104,,59,59,9,8,19,9,0.9,0.9
2025-07-17T1100,2364A,114.9461,25.8481,赣州市,气象台,,33,32,31,21,18,104,,68,68,5,5,10,9,0.5,0.5
2025-07-17T1100,2365A,114.9322,25.8333,赣州市,市图书馆,,38,30,30,26,21,94,,56,56,7,6,4,4,0.4,0.4
2025-07-17T1100,2366A,114.8905,25.8471,赣州市,华坚鞋城,,,43,35,6,19,101,,48,48,10,6,,5,,0.4
2025-07-17T1100,3109A,115.0093,25.8613,赣州市,赣县区卫计委,,46,46,28,17,23,94,,38,38,7,9,4,4,0.8,0.8
2025-07-17T1100,2683A,106.2319,36.1417,固原市,马园,,44,44,43,8,12,113,,79,79,14,25,6,6,0.6,0.5
2025-07-17T1100,2684A,106.2792,36.0022,固原市,监测站,,40,23,38,9,14,125,,99,99,6,9,6,5,0.3,0.3
2025-07-17T1100,2685A,106.2375,36.0211,固原市,新区,,,37,39,13,13,120,,99,94,7,9,,7,,0.4
2025-07-17T1100,3522A,106.2177,35.9959,固原市,原州区十五小,,44,44,40,17,15,131,,104,104,7,8,10,9,0.4,0.3
2025-07-17T1100,2543A,106.6308,30.5278,广安市,小平旧居,,,,,,,,,,,,,,,,
2025-07-17T1100,2544A,106.6303,30.4576,广安市,市委,颗粒物(PM10),51,51,36,21,20,137,,70,70,12,15,5,4,0.6,0.5
2025-07-17T1100,2545A,106.6271,30.4663,广安市,友谊中学,,46,29,31,25,21,146,,76,76,12,15,5,4,0.9,0.9
2025-07-17T1100,2547A,106.6388,30.4551,广安市,广电花园,颗粒物(PM10),60,69,52,21,21,129,,64,64,14,16,15,22,0.8,0.7
2025-07-17T1100,2902A,106.6351,30.4865,广安市,北辰小学,,,43,33,21,22,143,,72,72,,11,,6,0.6,0.6
2025-07-17T1100,2523A,105.8945,32.4535,广元市,黑石坡,颗粒物(PM10),51,52,44,22,26,124,,75,75,11,7,8,7,0.6,0.5
2025-07-17T1100,2524A,105.821,32.4444,广元市,老城,,45,37,36,23,17,141,,49,49,19,28,12,8,0.9,1
2025-07-17T1100,2526A,105.8628,32.4287,广元市,监测站,,40,33,33,9,20,125,,58,58,15,13,9,10,1.0,0.9
2025-07-17T1100,3617A,105.8047,32.4166,广元市,经开区,,,,49,,32,126,,46,46,,21,12,6,1.1,0.8
2025-07-17T1100,1345A,113.2347,23.1423,广州市,广雅中学,,44,44,35,25,20,78,,34,34,15,18,3,3,0.5,0.5
2025-07-17T1100,1346A,113.2612,23.105,广州市,市五中,,38,38,34,21,19,79,,39,39,14,14,4,4,0.5,0.4
2025-07-17T1100,1348A,113.3478,23.0916,广州市,广东商学院,,30,29,22,13,16,95,,43,43,13,24,3,3,0.5,0.5
2025-07-17T1100,1349A,113.4332,23.1047,广州市,市八十六中,,34,34,31,18,16,70,,30,30,25,31,2,2,0.4,0.4
2025-07-17T1100,1350A,113.3505,22.9483,广州市,番禺中学,,34,34,31,18,17,95,,48,48,9,13,7,8,0.5,0.5
2025-07-17T1100,1351A,113.2146,23.3916,广州市,花都师范,颗粒物(PM10),55,60,37,23,23,86,,45,45,18,19,7,5,0.7,0.6
2025-07-17T1100,1352A,113.2597,23.1331,广州市,市监测站,,37,37,34,23,18,72,,37,37,16,16,5,5,0.5,0.5
2025-07-17T1100,1353A,113.5618,23.312,广州市,九龙镇镇龙,,39,39,46,19,24,77,,20,20,17,27,6,6,0.5,0.6
2025-07-17T1100,1354A,113.2765,23.1544,广州市,麓湖,,35,35,33,20,20,68,,28,28,15,16,2,2,0.7,0.7
2025-07-17T1100,1355A,113.443,23.3035,广州市,帽峰山森林公园,,,,,,,,,,,,,,,,
2025-07-17T1100,2846A,113.3221,23.1322,广州市,体育西,,42,42,36,20,18,88,,44,44,13,17,5,5,0.6,0.6
2025-07-17T1100,3298A,113.5717,23.5491,广州市,从化街口,,,32,45,19,26,81,,23,23,,23,5,8,0.6,0.7
2025-07-17T1100,3299A,113.3472,23.3692,广州市,白云竹料,,43,43,42,19,22,69,,28,28,18,20,3,3,0.5,0.5
2025-07-17T1100,3300A,113.2981,23.237,广州市,白云嘉禾,,45,45,39,27,22,82,,30,30,17,23,5,5,0.6,0.6
2025-07-17T1100,3301A,113.4256,23.1716,广州市,黄埔科学城,,,40,35,20,18,77,,32,32,12,23,2,3,,0.7
2025-07-17T1100,3302A,113.3942,23.0483,广州市,番禺大学城,,31,31,33,17,17,96,,50,50,10,15,6,6,0.5,0.5
2025-07-17T1100,3303A,113.4922,22.8168,广州市,南沙黄阁,,35,28,35,24,18,97,,42,42,23,23,6,5,0.5,0.8
2025-07-17T1100,3304A,113.5342,22.7896,广州市,南沙街,,39,30,31,27,15,105,,34,34,11,16,5,5,0.5,0.5
2025-07-17T1100,3443A,113.2902,23.5544,广州市,花都梯面,,40,40,36,24,21,84,,31,31,12,18,4,4,0.6,0.6
2025-07-17T1100,3445A,113.7858,23.7478,广州市,从化良口,,33,31,34,23,24,94,,37,36,8,10,7,7,0.8,0.8
2025-07-17T1100,3446A,113.8051,23.2614,广州市,增城荔城,,41,41,35,22,19,80,,23,23,16,16,7,6,0.4,0.4
2025-07-17T1100,2505A,109.568,23.1478,贵港市,德智高中,,,,,,,,,,,,,,,,
2025-07-17T1100,2506A,109.6047,23.0666,贵港市,江南子站,,32,31,52,22,24,64,,27,27,4,16,5,7,0.6,0.8
2025-07-17T1100,2508A,109.5669,23.1065,贵港市,荷城子站,,,27,26,7,12,66,,34,34,6,14,,6,,0.4
2025-07-17T1100,3405A,109.5886,23.1172,贵港市,新世纪学校,,24,24,33,12,18,70,,35,35,8,16,2,3,0.4,0.6
2025-07-17T1100,4260A,109.5933,23.0951,贵港市,中山路155-3号,,29,29,40,20,17,65,,34,34,4,14,2,4,0.4,0.5
2025-07-17T1100,1439A,106.6899,26.5998,贵阳市,马鞍山,,23,14,16,3,4,73,,33,33,5,8,6,4,0.3,0.3
2025-07-17T1100,1441A,106.6243,26.6266,贵阳市,鉴湖路,,,22,26,12,6,66,,45,45,,8,8,11,0.3,0.4
2025-07-17T1100,1442A,106.7487,26.6343,贵阳市,燕子冲,,28,,14,19,20,79,,49,49,17,17,10,10,0.1,0.1
2025-07-17T1100,1443A,106.6555,26.4365,贵阳市,碧云窝,,36,36,29,14,10,69,,36,36,7,8,8,7,0.7,0.4
2025-07-17T1100,1445A,106.7109,26.6027,贵阳市,红边门,,24,24,22,12,10,71,,45,45,17,16,3,3,0.1,0.1
2025-07-17T1100,1446A,106.7164,26.5699,贵阳市,新华路,,,,30,,15,73,,43,43,,13,16,22,,0.4
2025-07-17T1100,1447A,106.674,26.5424,贵阳市,太慈桥,,25,19,16,7,8,77,,29,29,7,14,6,6,0.2,0.2
2025-07-17T1100,1552A,106.805,26.3003,贵阳市,桐木岭,,31,31,29,19,18,68,,59,59,5,7,14,12,1.0,1.1
2025-07-17T1100,4230A,106.6882,26.5695,贵阳市,花果园大街66号,,23,,11,12,15,72,,40,40,7,11,5,5,0.3,0.3
2025-07-17T1100,4231A,106.6873,26.5169,贵阳市,漓江路57号,,22,22,23,7,9,67,,36,36,5,10,7,7,0.3,0.3
2025-07-17T1100,1862A,110.4144,25.3167,桂林市,电子科大尧山校区,,,,,,,,,,,,,,,,
2025-07-17T1100,1864A,110.3089,25.2708,桂林市,龙隐路小学,,23,22,23,10,12,72,,55,55,4,6,8,8,0.4,0.4
2025-07-17T1100,1865A,110.2869,25.2178,桂林市,八中,,23,22,22,8,12,72,,54,54,4,8,6,6,0.5,0.5
2025-07-17T1100,3531A,110.296,25.1253,桂林市,旅游学院,,23,17,18,9,9,73,,42,42,3,9,3,4,0.4,0.4
2025-07-17T1100,4222A,110.1835,25.2444,桂林市,环湖路276号,,23,22,23,12,14,72,,50,50,4,14,12,12,0.2,0.2
2025-07-17T1100,4301A,110.2803,25.2773,桂林市,信义路13号,,29,29,23,14,14,77,,61,61,5,8,4,4,0.5,0.5
2025-07-17T1100,2674A,100.2561,34.4714,果洛藏族自治州,玛沁县大武镇,,28,27,25,6,13,87,,57,57,13,5,18,15,0.4,0.3
2025-07-17T1100,1129A,126.5422,45.755,哈尔滨市,岭北,,36,,25,25,17,86,,53,53,14,23,8,8,0.5,0.3
2025-07-17T1100,1130A,126.561,45.8167,哈尔滨市,松北商大,,27,23,24,8,6,84,,37,37,12,21,8,7,0.7,0.6
2025-07-17T1100,1131A,126.979,45.5419,哈尔滨市,阿城会宁,,31,25,25,10,10,99,,59,59,6,14,6,5,0.6,0.5
2025-07-17T1100,1132A,126.599,45.7222,哈尔滨市,南岗学府路,,28,25,27,9,7,88,,47,47,10,21,6,6,0.7,0.6
2025-07-17T1100,1133A,126.689,45.7733,哈尔滨市,太平宏伟公园,,34,34,26,11,8,87,,49,49,14,22,6,6,0.4,0.3
2025-07-17T1100,1134A,126.635,45.7667,哈尔滨市,道外承德广场,,42,42,36,10,9,75,,40,40,20,22,6,6,0.8,0.8
2025-07-17T1100,1135A,126.685,45.7319,哈尔滨市,香坊红旗大街,,30,17,20,10,15,96,,48,48,16,25,4,3,0.7,0.6
2025-07-17T1100,1136A,126.6411,45.7258,哈尔滨市,动力和平路,,,18,27,,,98,,49,49,13,22,2,2,0.6,0.5
2025-07-17T1100,1137A,126.593,45.7478,哈尔滨市,道里建国路,颗粒物(PM10),51,51,27,10,7,78,,46,46,14,24,6,5,0.8,1.2
2025-07-17T1100,1138A,126.615,45.61,哈尔滨市,平房东轻厂,,,,26,,8,80,,19,,,28,,8,0.4,0.5
2025-07-17T1100,1139A,126.595,45.9855,哈尔滨市,呼兰师专,,30,30,24,16,12,91,,42,42,9,24,13,11,0.8,0.6
2025-07-17T1100,1140A,126.6206,45.6842,哈尔滨市,省农科院,,46,43,38,32,15,87,,45,45,20,34,8,8,0.7,0.6
2025-07-17T1100,2688A,93.5128,42.8172,哈密市,地区监测站,细颗粒物(PM2.5),64,56,54,46,29,102,,112,105,9,15,7,6,0.2,0.2
2025-07-17T1100,2689A,93.4961,42.8328,哈密市,哈密师范学校,,39,39,49,16,13,101,,117,108,14,16,4,5,0.3,0.3
2025-07-17T1100,2671A,100.9048,36.9639,海北藏族自治州,海晏县西海镇,,42,14,19,8,18,133,,130,125,4,4,9,10,0.4,0.5
2025-07-17T1100,3867A,102.0738,36.5056,海东市,平安区公安北苑,,41,19,28,9,12,131,,113,113,6,7,15,10,0.7,0.7
2025-07-17T1100,1409A,110.576,19.9507,海口市,东寨港,,25,21,22,17,12,54,,30,30,4,5,4,4,0.5,0.5
2025-07-17T1100,1410A,110.3232,20.0574,海口市,海南大学,,,15,22,9,12,,,12,,5,5,2,2,0.4,0.4
2025-07-17T1100,1411A,110.283,20.0053,海口市,秀英海南医院,,26,26,27,8,14,64,,38,38,6,9,6,5,0.3,0.3
2025-07-17T1100,1412A,110.338,19.9969,海口市,海南师范大学,,,28,25,14,14,71,,40,40,,7,,4,0.3,0.4
2025-07-17T1100,1413A,110.33,20.0356,海口市,龙华路环保局宿舍,,21,20,25,9,13,65,,44,44,7,7,5,5,0.3,0.3
2025-07-17T1100,3539A,110.5111,19.9736,海口市,桂林洋子站,,19,16,25,8,14,60,,35,35,5,6,4,4,0.3,0.3
2025-07-17T1100,2673A,100.6188,36.2866,海南藏族自治州,共和县恰卜恰镇,,45,8,30,7,11,143,,132,124,3,6,14,12,0.6,0.5
2025-07-17T1100,2676A,97.3731,37.3753,海西蒙古族藏族自治州,德令哈市,,40,23,21,3,9,127,,132,129,2,3,16,13,0.7,0.7
2025-07-17T1100,1048A,114.5302,36.6116,邯郸市,东污水处理厂,,45,41,38,9,7,141,,84,84,6,12,6,4,0.6,0.4
2025-07-17T1100,1049A,114.4918,36.5713,邯郸市,矿院,,47,38,29,19,12,150,,97,97,12,13,9,5,0.7,0.4
2025-07-17T1100,1050A,114.484,36.6133,邯郸市,丛台公园,,48,40,31,21,13,152,,105,105,12,11,9,7,0.6,0.4
2025-07-17T1100,3458A,114.7895,36.5593,邯郸市,香泉濮院小区,颗粒物(PM10),51,51,45,3,5,132,,85,85,7,11,3,3,0.4,0.4
2025-07-17T1100,3579A,114.50634,36.77178,邯郸市,永年区实验高中,,46,43,48,28,27,146,,91,91,9,17,4,3,0.4,0.4
2025-07-17T1100,3580A,114.20016,36.44293,邯郸市,峰峰矿区临水派出所,,,39,47,14,9,136,,106,106,,10,5,6,0.3,0.3
2025-07-17T1100,2634A,106.9893,33.1842,汉中市,汉川机床厂子校,,,57,30,17,18,102,,,,,8,5,4,0.4,0.5
2025-07-17T1100,2635A,107.0154,33.0706,汉中市,市监测站,,34,24,31,14,20,106,,61,61,61,13,6,7,0.6,0.6
2025-07-17T1100,2636A,107.0089,33.1138,汉中市,鑫源开发区,,30,22,29,13,17,93,,55,55,6,11,6,6,0.4,0.4
2025-07-17T1100,2637A,107.007,33.0323,汉中市,南郑大河坎水厂,,34,34,36,14,21,106,,170,,7,16,5,6,0.4,0.5
2025-07-17T1100,1223A,120.2072,30.2111,杭州市,滨江,,40,40,33,20,19,83,,50,50,28,18,5,6,0.5,0.5
2025-07-17T1100,1224A,120.0633,30.2747,杭州市,西溪,,33,25,26,23,20,94,,45,45,9,13,4,4,0.4,0.4
2025-07-17T1100,1226A,120.3417,30.3150,杭州市,下沙,,32,29,28,17,17,102,,66,66,17,14,5,5,0.4,0.4
2025-07-17T1100,1227A,120.1269,30.2456,杭州市,卧龙桥,,30,29,27,18,19,94,,44,44,4,9,7,7,0.4,0.5
2025-07-17T1100,1228A,120.1903,30.2692,杭州市,浙江农大,,35,35,27,20,21,100,,56,56,17,14,4,4,0.5,0.5
2025-07-17T1100,1230A,120.1197,30.3119,杭州市,和睦小学,,32,26,28,18,20,101,,59,59,9,10,5,5,0.6,0.6
2025-07-17T1100,1231A,120.3019,30.4183,杭州市,临平镇,,,,38,,19,140,,75,75,11,13,6,5,0.5,0.4
2025-07-17T1100,1232A,120.2753,30.1839,杭州市,城厢镇,,42,42,33,26,23,121,,57,57,13,14,6,6,0.5,0.5
2025-07-17T1100,1233A,120.0883,30.1808,杭州市,云栖,,31,31,29,17,15,71,,29,29,8,13,8,8,0.8,0.8
2025-07-17T1100,3557A,119.9464,30.0494,杭州市,镇二中,,42,42,32,27,28,113,,54,54,14,15,4,4,0.7,0.6
2025-07-17T1100,3558A,119.7183,30.2367,杭州市,市府大楼,,33,30,26,23,19,92,,43,43,9,10,6,7,0.5,0.5
2025-07-17T1100,3656A,120.1556,30.2864,杭州市,消防大队,,32,28,25,21,17,102,,58,58,9,9,5,6,0.9,0.8
2025-07-17T1100,1270A,117.1959,31.7848,合肥市,明珠广场,,31,31,19,14,12,84,,114,107,28,12,5,5,0.6,0.5
2025-07-17T1100,1271A,117.3072,31.8764,合肥市,三里街,,37,34,20,19,15,117,,110,102,10,9,6,6,0.5,0.5
2025-07-17T1100,1272A,117.2588,31.8707,合肥市,琥珀山庄,,46,44,20,32,17,123,,113,107,11,10,7,7,0.8,0.7
2025-07-17T1100,1273A,117.1604,31.9052,合肥市,董铺水库,,34,27,19,12,9,108,,109,101,5,4,4,4,0.4,0.3
2025-07-17T1100,1274A,117.25,31.8571,合肥市,长江中路,,40,31,21,24,14,127,,120,115,9,8,5,5,0.6,0.4
2025-07-17T1100,1275A,117.266,31.9436,合肥市,庐阳区,,41,29,20,17,11,130,,114,109,6,5,9,9,0.6,0.5
2025-07-17T1100,1276A,117.3453,31.8616,合肥市,瑶海区,,35,34,24,20,13,110,,108,102,8,11,6,6,0.8,0.7
2025-07-17T1100,1277A,117.3027,31.7964,合肥市,包河区,,34,34,22,12,12,87,,111,95,19,13,5,5,0.5,0.5
2025-07-17T1100,1278A,117.2776,31.7385,合肥市,滨湖新区,,31,31,22,19,18,96,,122,110,12,7,6,7,0.5,0.5
2025-07-17T1100,1279A,117.1318,31.8403,合肥市,高新区,,36,27,19,23,11,114,,120,113,11,9,5,5,0.6,0.5
2025-07-17T1100,3464A,117.3803,31.9147,合肥市,高教基地,,34,24,24,19,20,106,,86,86,6,7,5,5,0.7,0.7
2025-07-17T1100,3614A,79.924,37.0877,和田地区,地区环保局,颗粒物(PM10),114,178,460,51,91,97,,106,99,10,4,7,3,0.6,0.6
2025-07-17T1100,3615A,79.9131,37.113,和田地区,市环保局,细颗粒物(PM2.5),119,146,377,90,86,86,,100,93,17,10,6,2,0.3,0.2
2025-07-17T1100,2516A,108.2011,24.715,河池市,东仁乐园,,,,,,,,,,,,,,,,
2025-07-17T1100,2517A,108.0497,24.6947,河池市,市环保站,,26,26,23,11,13,76,,36,36,4,8,4,4,0.6,0.6
2025-07-17T1100,2518A,108.0983,24.6989,河池市,市疾控中心,,29,29,25,14,14,85,,29,29,7,14,7,5,0.7,0.7
2025-07-17T1100,1696A,114.6778,23.7569,河源市,源西,,,,35,38,20,85,,44,44,4,22,3,3,0.7,0.6
2025-07-17T1100,1697A,114.6944,23.7586,河源市,东埔,,35,32,34,24,19,93,,51,51,14,15,5,5,0.6,0.5
2025-07-17T1100,1698A,114.6892,23.7233,河源市,老城,,39,39,37,25,19,99,,47,47,13,14,5,5,0.6,0.5
2025-07-17T1100,1718A,115.4208,35.2464,菏泽市,气象局,,47,40,39,19,24,148,,108,108,8,10,4,4,0.4,0.4
2025-07-17T1100,3374A,115.5564,35.0891,菏泽市,定陶老年大学,,,34,39,17,19,141,,92,92,,15,5,2,0.5,0.4
2025-07-17T1100,4184A,115.4797,35.24401,菏泽市,永昌路1号,,48,31,40,22,25,151,,100,100,10,13,6,7,0.2,0.2
2025-07-17T1100,4193A,115.4715,35.2800,菏泽市,长城路999号,,50,39,38,19,20,158,,106,106,9,12,7,6,0.5,0.4
2025-07-17T1100,2514A,111.5264,24.4172,贺州市,环保小区,,29,25,33,20,22,73,,42,42,4,9,11,12,0.8,0.9
2025-07-17T1100,2515A,111.5608,24.4078,贺州市,政协大楼,,29,,30,20,23,72,,58,58,6,11,12,15,0.5,0.6
2025-07-17T1100,3534A,111.4744,24.4553,贺州市,西湾,,39,39,32,12,22,76,,41,41,5,10,8,7,0.4,0.5
2025-07-17T1100,2385A,114.17,35.9019,鹤壁市,市监测站,,45,40,49,26,26,142,,87,87,8,18,8,6,0.8,0.7
2025-07-17T1100,2386A,114.2956,35.7511,鹤壁市,市交警支队,,41,34,35,15,24,129,,92,92,13,14,3,5,0.6,0.8
2025-07-17T1100,2387A,114.2878,35.7306,鹤壁市,迎宾馆,,39,14,35,10,23,124,,79,79,11,12,6,5,0.7,0.7
2025-07-17T1100,3474A,114.2617,35.6822,鹤壁市,大新区,,40,40,30,18,14,125,,86,86,4,6,7,6,0.6,0.6
2025-07-17T1100,3596A,114.1572,35.9603,鹤壁市,南山宾馆,,48,31,37,12,28,152,,114,114,3,6,4,4,1.0,0.9
2025-07-17T1100,2244A,130.2537,47.3416,鹤岗市,哈啤分公司,,27,,12,9,4,86,,62,62,9,4,10,10,0.8,0.6
2025-07-17T1100,2245A,130.2684,47.3086,鹤岗市,斯达机电,,31,31,21,3,8,72,,56,56,11,7,11,11,0.6,0.4
2025-07-17T1100,2246A,130.3114,47.3388,鹤岗市,东山纸板厂,,26,,11,18,13,63,,49,49,11,9,10,11,0.6,0.5
2025-07-17T1100,2247A,130.1097,47.3382,鹤岗市,五号水库,,26,6,6,3,4,81,,64,64,9,7,9,8,0.1,0.1
2025-07-17T1100,2263A,127.4833,50.2524,黑河市,交通局,,28,28,23,8,7,52,,35,35,14,9,9,7,0.3,0.4
2025-07-17T1100,2264A,127.5144,50.2341,黑河市,环保局,,,,25,,10,54,,44,,,9,6,7,0.5,0.4
2025-07-17T1100,2265A,127.5291,50.2472,黑河市,大黑河岛,,,,,,,,,,,,,,,,
2025-07-17T1100,1074A,115.6838,37.7541,衡水市,电机北厂,,42,24,45,21,24,132,,104,104,4,12,4,4,0.5,0.5
2025-07-17T1100,1075A,115.6303,37.7316,衡水市,市监测站,,46,44,54,23,18,147,,105,105,6,7,10,9,0.4,0.4
2025-07-17T1100,3188A,115.6683,37.7217,衡水市,市城管局,,,41,43,27,23,145,,99,99,7,13,,13,0.4,0.4
2025-07-17T1100,3459A,115.5989,37.5491,衡水市,地表水厂,,47,30,40,9,12,149,,111,111,4,9,8,7,0.2,0.2
2025-07-17T1100,2456A,112.5003,26.9167,衡阳市,原169医院,,29,28,20,9,9,90,,54,54,3,5,5,4,0.4,0.4
2025-07-17T1100,2457A,112.6194,26.9258,衡阳市,衡阳化工总厂,,36,36,27,14,15,90,,45,45,5,9,3,5,0.6,0.7
2025-07-17T1100,2458A,112.6211,26.8956,衡阳市,珠晖区环保局,,31,31,22,12,13,97,,52,52,5,7,6,6,0.5,0.4
2025-07-17T1100,2459A,112.6197,26.8733,衡阳市,市委党校,颗粒物(PM10),58,66,29,14,12,95,,51,51,6,9,8,9,0.5,0.5
2025-07-17T1100,2460A,112.6006,26.8919,衡阳市,市监测站,,,,26,,14,84,,43,43,,11,4,5,0.3,0.5
2025-07-17T1100,2461A,112.5664,26.9056,衡阳市,真空机电公司,,49,49,21,10,12,83,,50,50,4,7,4,5,0.6,0.6
2025-07-17T1100,3399A,112.6703,26.882,衡阳市,师范学院,,50,50,30,18,14,93,,44,44,5,11,7,7,0.6,0.5
2025-07-17T1100,2608A,103.3772,23.3993,红河哈尼族彝族自治州,污水处理厂,,,,15,,9,56,,41,38,5,6,8,8,0.3,0.1
2025-07-17T1100,2609A,103.3861,23.35,红河哈尼族彝族自治州,监测站,,18,18,26,3,9,53,,39,36,2,6,6,9,0.2,0.3
2025-07-17T1100,3038A,103.3758,23.368,红河哈尼族彝族自治州,州图书馆,,19,,12,13,17,55,,43,40,3,4,1,1,0.2,0.2
2025-07-17T1100,1090A,111.6507,40.7517,呼和浩特市,呼市一监,,35,17,13,6,6,110,,64,64,7,10,7,7,0.4,0.3
2025-07-17T1100,1091A,111.6572,40.8033,呼和浩特市,小召,,31,31,12,9,6,92,,59,59,21,18,7,6,0.6,0.5
2025-07-17T1100,1094A,111.7516,40.8369,呼和浩特市,如意水处理厂,,42,42,17,8,6,101,,54,54,9,16,1,3,0.3,0.2
2025-07-17T1100,1095A,111.7276,40.8062,呼和浩特市,二十九中,,31,13,15,8,6,98,,59,59,10,13,5,5,0.7,0.6
2025-07-17T1100,1096A,111.5512,40.7866,呼和浩特市,工大金川校区,,32,30,17,10,6,100,,55,55,18,24,8,5,0.4,0.3
2025-07-17T1100,1097A,111.717,40.7612,呼和浩特市,化肥厂生活区,,37,17,14,6,7,117,,63,63,14,15,7,5,0.4,0.3
2025-07-17T1100,3698A,111.5968,40.8178,呼和浩特市,红旗小学,,44,44,12,10,7,90,,53,53,20,15,10,3,0.5,0.2
2025-07-17T1100,3699A,111.6518,40.8389,呼和浩特市,海东办,,,19,10,,6,106,,64,64,14,15,,4,,0.4
2025-07-17T1100,2192A,119.7594,49.2261,呼伦贝尔市,区环保局,,26,17,35,9,20,81,,39,39,16,19,5,6,0.4,0.4
2025-07-17T1100,3061A,119.7512,49.1577,呼伦贝尔市,国华电力东,,30,8,15,3,10,94,,47,47,6,10,3,3,0.5,0.5
2025-07-17T1100,1250A,120.0751,30.8669,湖州市,城西水厂,,36,32,35,19,23,114,,55,55,16,24,6,6,0.4,0.3
2025-07-17T1100,2873A,120.0830,30.8929,湖州市,仁皇山新区,,37,35,35,22,23,116,,51,51,13,16,3,4,0.8,0.7
2025-07-17T1100,2907A,120.1844,30.8596,湖州市,吴兴区站,,,,31,,22,119,,46,46,,12,6,7,,0.5
2025-07-17T1100,3562A,120.4148,30.8538,湖州市,南浔区站,,46,35,32,32,25,118,,66,66,8,10,5,5,0.8,0.6
2025-07-17T1100,1607A,120.9049,40.7211,葫芦岛市,龙港区,,24,24,31,3,20,53,,39,39,24,25,4,6,0.5,0.5
2025-07-17T1100,1608A,120.8392,40.7514,葫芦岛市,化工街,,,7,20,3,13,70,,54,54,,29,7,13,0.4,0.5
2025-07-17T1100,1609A,120.8341,40.7073,葫芦岛市,新区,,23,18,25,6,23,72,,58,58,9,24,6,7,0.7,0.8
2025-07-17T1100,1610A,120.8695,40.7677,葫芦岛市,东城区,,23,16,25,3,20,71,,57,57,7,26,6,10,0.6,0.6
2025-07-17T1100,2482A,109.5981,27.5721,怀化市,林科所,,25,24,24,3,5,79,,63,63,6,7,4,4,0.4,0.4
2025-07-17T1100,2483A,109.9453,27.5444,怀化市,河西地税局,,25,25,21,16,16,73,,57,57,4,5,2,2,0.4,0.4
2025-07-17T1100,2484A,109.9781,27.5342,怀化市,市四医院,,43,43,27,22,20,81,,55,55,6,8,7,6,0.3,0.2
2025-07-17T1100,2485A,109.9972,27.5578,怀化市,监测楼,,35,35,29,19,19,80,,57,57,4,5,4,4,0.2,0.2
2025-07-17T1100,2486A,110.0394,27.583,怀化市,市委党校,,28,,23,19,14,79,,58,58,2,5,5,4,0.3,0.3
2025-07-17T1100,1210A,119.036,33.5981,淮安市,钵池山,,40,19,25,18,24,125,,97,97,8,11,6,7,0.7,0.8
2025-07-17T1100,1211A,119.007,33.575,淮安市,北京南路,,39,27,28,14,23,124,,104,102,11,12,9,6,0.7,0.7
2025-07-17T1100,1212A,118.989,33.6067,淮安市,市监测站,,38,27,29,17,23,120,,100,98,7,10,8,8,0.8,0.8
2025-07-17T1100,1213A,119.135,33.5039,淮安市,楚州区监测站,,43,34,36,20,23,136,,108,106,13,7,8,7,0.6,0.6
2025-07-17T1100,3426A,118.8755,33.2894,淮安市,新华书店,,,28,26,16,20,140,,114,114,,12,11,8,1.0,0.8
2025-07-17T1100,4206A,119.0288,33.6319,淮安市,承德北路606号,,37,24,34,17,25,116,,92,92,9,11,6,6,0.6,0.6
2025-07-17T1100,2282A,116.8004,33.975,淮北市,监测站,,48,40,48,20,34,153,,128,128,6,8,8,7,0.8,0.7
2025-07-17T1100,2283A,116.8091,33.9007,淮北市,烈山区政府,,,57,62,24,28,152,,134,134,3,3,,6,0.9,0.8
2025-07-17T1100,3330A,116.8873,33.9836,淮北市,杜集区检察院,,48,32,54,24,51,151,,125,124,7,9,8,7,0.8,0.9
2025-07-17T1100,4017A,116.7923,33.9535,淮北市,市博物馆,,,43,45,28,34,155,,134,133,,7,11,8,,0.8
2025-07-17T1100,2277A,116.8305,32.7727,淮南市,潘集区政府,,,,29,,13,120,,82,82,6,8,16,4,,0.5
2025-07-17T1100,2279A,116.8569,32.5951,淮南市,谢家集区政府,,47,30,22,18,11,150,,101,101,6,6,6,6,0.3,0.2
2025-07-17T1100,2280A,116.8281,32.633,淮南市,八公山区政府,,46,46,23,19,12,139,,96,96,8,6,9,6,0.5,0.4
2025-07-17T1100,2281A,116.6325,32.6201,淮南市,焦岗湖风景区管理处,,,,,,,,,,,,,,,,
2025-07-17T1100,2894A,117.0566,32.6531,淮南市,经济技术开发区消防队,,42,35,22,14,6,134,,92,92,11,10,9,9,0.5,0.4
2025-07-17T1100,3329A,117.0108,32.5893,淮南市,山南新区,,41,19,21,3,6,130,,94,94,5,4,8,9,0.4,0.4
2025-07-17T1100,4209A,117.0031,32.6445,淮南市,国庆中路369号,,46,45,26,32,22,135,,97,97,9,8,11,12,0.3,0.3
2025-07-17T1100,2446A,114.9028,30.4742,黄冈市,职工中心,,32,21,28,8,18,100,,69,65,2,4,8,9,0.5,0.5
2025-07-17T1100,2929A,114.8858,30.4519,黄冈市,红卫路,,,14,23,8,14,100,,87,,2,4,,8,0.5,0.4
2025-07-17T1100,3398A,114.9136,30.4445,黄冈市,市林业局,,30,19,29,11,15,94,,57,52,11,14,7,8,0.3,0.4
2025-07-17T1100,2672A,102.0199,35.5102,黄南藏族自治州,同仁县隆务镇,,,25,36,14,14,44,,76,65,,6,,9,0.1,0.2
2025-07-17T1100,2295A,118.2903,29.6963,黄山市,延安路89号,,26,23,27,9,14,83,,32,32,2,5,4,3,0.6,0.6
2025-07-17T1100,2297A,118.1371,30.2756,黄山市,黄山区政府5号楼,,24,24,25,9,14,73,,48,48,3,4,4,4,0.5,0.5
2025-07-17T1100,4210A,118.3354,29.7203,黄山市,滨江东路7-2号,,32,32,28,20,11,88,,43,43,5,5,2,2,0.5,0.5
2025-07-17T1100,2423A,115.0601,30.2313,黄石市,沈家营,,,82,67,7,13,85,,42,42,,14,,7,,0.6
2025-07-17T1100,2426A,114.8988,30.2019,黄石市,铁山,,27,22,28,9,9,86,,60,60,9,13,11,12,0.3,0.5
2025-07-17T1100,2427A,115.0307,30.2092,黄石市,团城山,,30,27,31,3,8,94,,75,75,6,6,8,7,0.5,0.5
2025-07-17T1100,3149A,115.0235,30.1578,黄石市,笔架山北路,,25,24,32,3,7,79,,62,62,6,7,7,6,0.6,0.5
2025-07-17T1100,4185A,115.0780,30.21118,黄石市,磁湖东路29号,,40,40,44,8,15,79,,55,55,10,17,8,13,1.1,0.8
2025-07-17T1100,1392A,114.4183,23.0528,惠州市,河南岸金山湖子站,,36,36,33,24,18,84,,28,28,12,18,7,7,0.5,0.5
2025-07-17T1100,1393A,114.4053,23.0822,惠州市,下埔横江三路子站,,35,35,33,18,18,92,,32,32,8,16,5,5,0.4,0.4
2025-07-17T1100,1394A,114.4103,23.1142,惠州市,江北云山西路子站,,30,30,32,19,16,94,,35,35,6,14,6,7,0.5,0.5
2025-07-17T1100,1395A,114.4645,22.7833,惠州市,惠阳区承修路船湖子站,,35,35,31,18,15,89,,31,31,11,16,6,6,0.6,0.5
2025-07-17T1100,1396A,114.5317,22.7422,惠州市,大亚湾管委会子站,,28,28,24,15,13,66,,21,21,14,16,7,7,0.6,0.5
2025-07-17T1100,3314A,114.4338,22.8134,惠州市,惠阳秋长,,27,27,31,12,14,79,,26,26,11,22,2,3,0.4,0.3
2025-07-17T1100,3452A,114.6517,22.775,惠州市,大亚湾霞涌,,48,48,25,21,15,53,,21,21,12,13,6,5,0.7,0.7
2025-07-17T1100,2240A,130.9762,45.3001,鸡西市,环保局,,29,27,18,6,5,91,,41,41,3,11,4,5,0.2,0.2
2025-07-17T1100,2243A,130.9429,45.3039,鸡西市,第一中学,,,10,16,3,11,88,,37,37,3,13,,9,,0.4
2025-07-17T1100,3707A,131.0207,45.3073,鸡西市,欧美日汽修厂,,,,22,21,8,,,11,,6,11,8,8,0.2,0.2
2025-07-17T1100,3709A,130.9967,45.3106,鸡西市,市政设施管理处,,28,18,17,6,7,89,,37,37,8,16,9,5,0.4,0.4
2025-07-17T1100,2367A,114.9754,27.0803,吉安市,红声器材厂,,40,40,36,24,19,107,,56,56,8,6,10,9,0.7,0.7
2025-07-17T1100,2368A,114.9658,27.0999,吉安市,市森林工业局,,35,35,32,19,18,111,,58,58,5,6,8,8,0.7,0.5
2025-07-17T1100,2369A,114.99,27.1312,吉安市,市环境监测站,,42,40,31,24,16,133,,68,68,6,6,12,14,0.6,0.5
2025-07-17T1100,2370A,115.0093,27.0968,吉安市,青原区法院,,43,43,33,22,18,96,,56,56,9,10,8,9,0.7,0.7
2025-07-17T1100,1772A,126.54,43.8622,吉林市,哈达湾,,22,11,13,9,8,70,,39,39,12,10,6,6,0.4,0.4
2025-07-17T1100,1773A,126.5844,43.8358,吉林市,东局子,,18,16,16,6,9,56,,29,29,9,11,5,5,0.5,0.6
2025-07-17T1100,1774A,126.5052,43.8245,吉林市,电力学院,,21,11,17,6,7,67,,33,33,10,11,6,5,0.6,0.5
2025-07-17T1100,1775A,126.6133,43.8972,吉林市,江北,,16,16,14,7,7,48,,28,28,4,9,9,9,0.6,0.7
2025-07-17T1100,1776A,126.555,43.8306,吉林市,江南公园,,19,12,14,6,11,59,,34,34,14,10,2,2,0.4,0.4
2025-07-17T1100,1778A,126.7061,43.7133,吉林市,丰满,,,,,,,,,,,,,,,,
2025-07-17T1100,2868A,126.4739,43.953,吉林市,九站,,25,23,20,16,8,78,,39,39,8,12,14,3,0.5,0.5
2025-07-17T1100,1299A,116.9862,36.6114,济南市,科干所,,50,27,26,15,22,160,,103,103,16,16,6,6,0.5,0.5
2025-07-17T1100,1300A,116.9376,36.665,济南市,农科所,,50,24,30,12,20,157,,90,90,8,16,8,8,0.4,0.4
2025-07-17T1100,1301A,117.1265,36.6734,济南市,开发区,臭氧1小时,55,34,30,20,22,164,,96,96,17,18,8,8,0.7,0.6
2025-07-17T1100,1303A,117.0624,36.6868,济南市,省种子仓库,,,27,36,12,18,172,,101,101,,13,7,8,0.6,0.6
2025-07-17T1100,1304A,116.9489,36.6447,济南市,机床二厂,,49,20,32,12,16,156,,111,111,9,16,6,7,0.5,0.5
2025-07-17T1100,1305A,117.0495,36.663,济南市,市监测站,,49,27,31,15,19,156,,109,109,17,18,10,9,0.6,0.6
2025-07-17T1100,1306A,116.7675,36.5484,济南市,长清党校,,45,24,32,20,23,143,,80,80,9,18,6,5,0.5,0.5
2025-07-17T1100,1616A,117.6795,36.229,济南市,技术学院,,49,19,23,14,21,155,,94,94,6,14,10,10,0.8,0.7
2025-07-17T1100,1961A,117.532,36.6868,济南市,东山小学,,49,32,32,15,18,155,,84,84,7,16,7,7,0.4,0.3
2025-07-17T1100,3059A,117.7161,36.2049,济南市,泰兴公司,,48,29,32,14,22,151,,78,78,4,14,10,9,0.6,0.5
2025-07-17T1100,3064A,117.6867,36.2171,济南市,莱芜战役纪念馆,,48,27,33,19,25,151,,88,88,8,14,11,9,0.9,0.8
2025-07-17T1100,3494A,117.1673,36.9782,济南市,济阳区政府,,47,27,36,12,20,149,,92,92,9,12,9,9,0.5,0.5
2025-07-17T1100,3495A,117.1171,36.63,济南市,锦屏中学,臭氧1小时,59,29,29,10,16,167,,94,94,12,11,8,8,0.7,0.7
2025-07-17T1100,3682A,116.9814,36.6819,济南市,济南四建,,50,22,30,12,21,158,,104,104,11,16,5,6,0.6,0.6
2025-07-17T1100,1653A,116.6251,35.4302,济宁市,火炬城,,43,,34,17,19,136,,77,77,5,13,5,4,0.5,0.6
2025-07-17T1100,1655A,116.5491,35.4042,济宁市,电化厂,,47,30,38,17,20,149,,96,96,6,11,6,6,0.6,0.7
2025-07-17T1100,3500A,116.5814,35.3707,济宁市,北湖一中,,42,24,37,15,19,134,,91,91,9,12,7,7,0.5,0.5
2025-07-17T1100,3501A,116.8249,35.5593,济宁市,服务中心,,46,31,31,9,15,147,,88,88,9,15,3,3,0.4,0.4
2025-07-17T1100,3678A,116.5907,35.4054,济宁市,市第七中学,,,,38,,14,122,,77,77,7,12,,7,0.4,0.4
2025-07-17T1100,2255A,130.2751,46.8028,佳木斯市,佳纺,,23,23,18,11,10,41,,25,25,16,16,7,7,0.4,0.4
2025-07-17T1100,2256A,130.3995,46.8307,佳木斯市,发电厂,,19,18,13,13,8,50,,32,32,12,12,5,6,0.5,0.4
2025-07-17T1100,2257A,130.3258,46.7975,佳木斯市,环保局,,29,29,22,12,11,59,,32,32,19,22,8,8,0.5,0.6
2025-07-17T1100,2258A,130.3648,46.8032,佳木斯市,十一中,,,20,14,15,11,54,,36,36,,12,6,5,0.5,0.5
2025-07-17T1100,2259A,130.3794,46.7588,佳木斯市,四丰,,,,,,,6,,,,7,17,1,11,0.5,0.5
2025-07-17T1100,1252A,120.7436,30.778,嘉兴市,清河小学,颗粒物(PM10),56,62,44,33,24,137,,68,68,13,18,8,8,0.9,0.7
2025-07-17T1100,1253A,120.726,30.7478,嘉兴市,嘉兴学院,,,,40,,25,147,,61,61,,16,,5,0.7,0.7
2025-07-17T1100,2872A,120.7846,30.7525,嘉兴市,南湖区残联,,49,49,40,32,29,144,,73,73,9,14,6,7,0.6,0.6
2025-07-17T1100,3407A,120.6916,30.7739,嘉兴市,秀洲住建,颗粒物(PM10),52,53,37,30,23,142,,66,66,9,18,5,6,0.8,0.6
2025-07-17T1100,1945A,98.2908,39.7711,嘉峪关市,气象局,颗粒物(PM10),63,75,38,27,16,61,,54,54,36,18,31,11,1.2,0.9
2025-07-17T1100,2884A,98.2672,39.7978,嘉峪关市,酒钢宾馆,颗粒物(PM10),73,95,42,27,15,60,,72,56,39,13,36,13,2.8,1.3
2025-07-17T1100,3248A,98.2643,39.7724,嘉峪关市,雄关区,,44,44,37,22,12,47,,43,43,44,23,17,9,0.9,0.7
2025-07-17T1100,1383A,113.1064,22.6058,江门市,北街,,41,41,26,19,16,83,,47,47,5,6,2,2,0.4,0.4
2025-07-17T1100,1384A,113.0731,22.5835,江门市,西区,,33,,26,23,18,80,,45,45,6,8,5,5,0.6,0.6
2025-07-17T1100,1385A,113.0219,22.5311,江门市,圭峰西,,36,36,27,18,17,78,,44,44,5,6,4,4,0.5,0.5
2025-07-17T1100,1386A,113.0828,22.5947,江门市,东湖,,27,27,25,18,15,78,,45,45,7,8,5,5,0.5,0.5
2025-07-17T1100,3311A,113.1075,22.5647,江门市,江海富民,,,30,34,14,14,76,,41,41,,9,8,7,,0.2
2025-07-17T1100,3449A,113.05,22.4667,江门市,新会银湖,,32,32,27,14,13,72,,28,28,2,9,2,3,0.3,0.3
2025-07-17T1100,1830A,113.1992,35.2590,焦作市,影视城,,,,27,,14,,,,,,8,,15,,0.6
2025-07-17T1100,3169A,113.2725,35.2067,焦作市,太极体育中心,,,,,,,,,,,,,,,,
2025-07-17T1100,3335A,113.3137,35.2641,焦作市,马村街道办,,,41,50,28,25,156,,103,103,,13,12,10,0.6,0.8
2025-07-17T1100,3336A,113.2465,35.2373,焦作市,焦作技师学院,,50,48,51,17,20,157,,111,111,12,13,6,4,1.0,1
2025-07-17T1100,3477A,113.1656,35.2539,焦作市,中站许衡医院,,50,36,43,23,29,157,,117,117,8,12,8,7,0.5,0.7
2025-07-17T1100,3981A,113.2449,35.1803,焦作市,原李万街道办,,50,48,43,19,19,158,,107,107,11,14,9,8,0.6,0.7
2025-07-17T1100,4264A,113.2340,35.2190,焦作市,新安路1731号,臭氧1小时,57,34,47,15,20,165,,117,117,7,9,6,5,0.3,0.3
2025-07-17T1100,1708A,116.3701,23.5345,揭阳市,新兴,颗粒物(PM10),51,51,32,21,24,99,,54,54,6,8,5,5,0.7,0.6
2025-07-17T1100,1709A,116.3264,23.5443,揭阳市,西马,,37,37,37,21,18,88,,45,45,3,5,2,2,0.6,0.6
2025-07-17T1100,1710A,116.3611,23.5626,揭阳市,东兴,颗粒物(PM10),52,53,33,17,16,85,,43,43,6,7,2,2,0.9,0.9
2025-07-17T1100,1711A,116.4151,23.5294,揭阳市,渔湖,,47,47,34,22,15,88,,46,46,12,8,3,2,0.6,0.5
2025-07-17T1100,3320A,116.403,23.5699,揭阳市,曲溪,,,,32,,18,108,,55,55,,7,7,4,0.7,0.6
2025-07-17T1100,1944A,102.1692,38.5167,金昌市,天庆家园,,44,44,72,14,27,125,,101,97,7,13,20,60,1.1,0.9
2025-07-17T1100,4022A,102.1647,38.5371,金昌市,金川区人防中心,,41,29,66,14,32,131,,100,95,7,11,14,19,0.7,0.7
2025-07-17T1100,4239A,102.1930,38.5319,金昌市,长春路96号,颗粒物(PM10),53,56,69,14,28,126,,112,105,4,5,15,27,1.1,0.6
2025-07-17T1100,1262A,119.647,29.077,金华市,十五中,,49,49,41,23,23,98,,52,52,22,20,2,3,0.5,0.4
2025-07-17T1100,1263A,119.686,29.1029,金华市,监测站,,46,46,42,24,23,92,,50,50,19,17,4,4,0.4,0.4
2025-07-17T1100,3659A,119.656,29.1131,金华市,气象局,,,50,44,18,21,111,,52,52,,15,,4,0.6,0.6
2025-07-17T1100,1767A,121.1115,41.0879,锦州市,南山,,19,14,16,9,15,58,,59,58,5,10,4,5,0.6,0.8
2025-07-17T1100,1768A,121.0604,40.8428,锦州市,开发区,,23,,26,3,19,71,,47,47,8,29,4,6,0.5,0.8
2025-07-17T1100,1769A,121.1836,41.1119,锦州市,百股街道,,,23,15,7,5,65,,62,62,7,9,6,6,,0.7
2025-07-17T1100,1770A,121.1178,41.1222,锦州市,天安街道,,20,14,15,8,10,61,,61,60,8,13,5,6,0.5,0.6
2025-07-17T1100,1771A,121.1303,41.1386,锦州市,北湖公园,,19,14,17,9,9,58,,56,56,4,7,4,4,0.5,0.5
2025-07-17T1100,2160A,112.85,35.5051,晋城市,自来水公司,,,32,72,,35,127,,100,97,,13,4,4,0.4,0.8
2025-07-17T1100,2161A,112.8318,35.4936,晋城市,白云商贸,,40,40,61,3,27,124,,87,87,8,12,6,6,0.4,0.7
2025-07-17T1100,2162A,112.8508,35.4887,晋城市,市环保局,,38,32,72,7,29,119,,88,88,2,7,3,4,0.3,0.6
2025-07-17T1100,2163A,112.8676,35.4897,晋城市,技术学院,,36,23,62,3,28,115,,82,82,4,10,3,4,0.5,0.7
2025-07-17T1100,2165A,112.8453,35.546,晋城市,白马寺,,39,16,39,10,38,123,,111,111,2,6,6,6,0.4,0.7
2025-07-17T1100,3620A,112.8271,35.4828,晋城市,泽州一中,,41,27,49,7,26,130,,89,89,2,7,3,4,0.3,0.6
2025-07-17T1100,2173A,112.7249,37.7067,晋中市,南都小区,,35,35,56,15,19,101,,90,88,6,11,5,3,0.1,0.2
2025-07-17T1100,2174A,112.6991,37.6982,晋中市,榆次区政府,,33,24,44,11,15,103,,93,90,11,15,9,8,0.4,0.5
2025-07-17T1100,2865A,112.7195,37.6828,晋中市,榆次三中,,33,19,32,7,13,104,,81,79,8,11,8,7,0.5,0.6
2025-07-17T1100,4200A,112.7478,37.6954,晋中市,迎宾街26号,,,44,55,14,14,120,,89,89,11,15,7,8,,0.3
2025-07-17T1100,2439A,112.2014,31.0481,荆门市,竹园小学,,,,35,,20,67,,66,63,19,13,,3,0.5,0.5
2025-07-17T1100,2440A,112.1969,30.9891,荆门市,掇刀,颗粒物(PM10),51,52,32,19,24,60,,62,61,25,12,5,6,0.7,0.6
2025-07-17T1100,2441A,112.2213,31.0386,荆门市,石化一小,,,33,38,14,27,84,,71,71,12,12,5,9,,0.5
2025-07-17T1100,3012A,112.1849,31.0362,荆门市,西山林语,,39,39,30,17,19,59,,66,65,6,5,6,8,0.5,0.5
2025-07-17T1100,3547A,112.1632,31.0138,荆门市,龙泉中学南校,,35,,30,24,22,55,,68,67,12,8,3,4,0.2,0.1
2025-07-17T1100,1844A,112.2494,30.3197,荆州市,市图书馆,,40,40,25,15,15,60,,,,13,7,2,1,0.6,0.6
2025-07-17T1100,1845A,112.2008,30.3544,荆州市,市委党校,,42,42,25,20,19,64,,54,51,16,14,8,3,0.7,0.6
2025-07-17T1100,3194A,112.2747,30.3122,荆州市,管委会,,32,26,26,22,16,50,,43,41,15,10,5,6,0.7,0.6
2025-07-17T1100,4268A,112.1722,30.3366,荆州市,学苑路85号,,39,34,34,27,21,55,,70,69,11,17,8,6,0.5,0.5
2025-07-17T1100,2342A,117.3102,29.3867,景德镇市,王港中学,,,,,,,,,,,,,,,,
2025-07-17T1100,2343A,117.2117,29.2933,景德镇市,老干部活动中心,,,46,28,24,17,59,,38,38,,11,6,6,0.7,0.8
2025-07-17T1100,2344A,117.1894,29.2789,景德镇市,兽医站,,50,50,36,28,20,73,,33,33,25,13,21,6,1.2,0.8
2025-07-17T1100,2345A,117.1547,29.2617,景德镇市,台达陶瓷,,46,41,41,32,23,69,,30,30,26,19,4,33,2.8,0.8
2025-07-17T1100,2346A,117.2461,29.2956,景德镇市,陶研所,,38,38,31,23,22,73,,40,40,16,11,4,6,1.0,0.8
2025-07-17T1100,1803A,115.9872,29.6815,九江市,十里,,23,12,18,9,20,73,,67,67,15,12,4,4,0.7,0.6
2025-07-17T1100,1804A,115.9584,29.7046,九江市,茅山头,,32,,26,22,16,71,,71,71,19,8,4,4,0.5,0.5
2025-07-17T1100,1805A,115.9877,29.7295,九江市,西园,,27,,16,15,11,86,,79,79,19,18,8,6,0.6,0.6
2025-07-17T1100,1808A,115.9114,29.6038,九江市,综合工业园,,22,19,25,3,12,68,,60,60,20,15,5,6,0.9,1
2025-07-17T1100,1809A,116.0721,29.7535,九江市,石化总厂,,,,29,18,25,69,,72,72,15,11,,9,0.6,0.6
2025-07-17T1100,1810A,115.9773,29.5698,九江市,庐山气象台,,26,11,14,8,6,83,,81,81,5,3,6,7,1.2,0.6
2025-07-17T1100,3190A,116.0254,29.6994,九江市,外国语学校,,,16,19,7,14,72,,72,72,18,8,,7,,0.8
2025-07-17T1100,4253A,116.0102,29.6594,九江市,莲花大道8号,,21,,16,9,12,65,,63,63,9,2,5,4,0.6,0.6
2025-07-17T1100,4240A,98.4958,39.7339,酒泉市,玉门东路5号,,,88,44,22,26,83,,58,58,22,12,,12,0.5,0.3
2025-07-17T1100,4241A,98.5099,39.7506,酒泉市,北大街108号,颗粒物(PM10),62,73,44,17,16,94,,58,58,11,12,12,13,0.5,0.3
2025-07-17T1100,2698A,76.0072,39.4467,喀什地区,巡警大队,颗粒物(PM10),66,82,66,18,21,116,,89,89,18,21,5,4,0.3,0.4
2025-07-17T1100,2699A,75.9755,39.4694,喀什地区,吾办,颗粒物(PM10),89,128,67,45,27,99,,85,85,37,27,7,6,0.5,0.5
2025-07-17T1100,4027A,75.9483,39.4689,喀什地区,老干局,颗粒物(PM10),72,93,63,22,18,91,,84,84,17,15,5,5,0.5,0.4
2025-07-17T1100,1824A,114.3389,34.7781,开封市,肿瘤医院,,49,29,35,22,17,154,,114,114,13,13,12,5,0.7,0.7
2025-07-17T1100,1826A,114.2885,34.7965,开封市,世纪星幼儿园,,45,26,37,12,26,143,,109,109,12,12,6,5,1.2,0.8
2025-07-17T1100,3147A,114.3438,34.8106,开封市,龙亭公园,,47,35,38,15,23,149,,104,104,7,11,4,3,0.5,0.6
2025-07-17T1100,3210A,114.3644,34.7964,开封市,汴京公园,,46,43,44,18,24,146,,102,102,10,12,9,6,0.5,0.5
2025-07-17T1100,3473A,114.2485,34.8306,开封市,技师学院,,45,31,37,9,23,141,,110,110,6,12,6,4,0.6,0.7
2025-07-17T1100,3592A,114.4644,34.7556,开封市,祥符区生态环境局,,46,46,44,24,22,144,,94,94,13,20,6,5,0.6,0.6
2025-07-17T1100,1951A,84.895,45.6094,克拉玛依市,长征新村,,44,44,29,25,10,34,,91,70,40,10,4,5,0.4,0.3
2025-07-17T1100,1952A,84.8988,45.5893,克拉玛依市,南林小区,颗粒物(PM10),52,54,33,6,9,17,,62,45,36,16,5,5,0.1,0.2
2025-07-17T1100,1954A,84.905,44.3396,克拉玛依市,独山子区,,40,19,28,7,11,127,,108,108,7,9,8,9,0.4,0.4
2025-07-17T1100,1955A,85.6979,46.098,克拉玛依市,乌尔禾区商贸楼,颗粒物(PM10),51,52,27,18,9,32,,81,52,24,10,5,5,0.7,0.5
2025-07-17T1100,3612A,85.1045,45.6899,克拉玛依市,白碱滩区新站,颗粒物(PM10),64,77,48,24,22,40,,82,64,28,9,10,9,0.7,0.5
2025-07-17T1100,2697A,76.1454,39.7142,克孜勒苏柯尔克孜自治州,市人民政府,颗粒物(PM10),69,88,73,30,30,61,,66,56,25,18,28,11,0.2,0.2
2025-07-17T1100,3665A,76.1658,39.7157,克孜勒苏柯尔克孜自治州,克州文化中心,颗粒物(PM10),84,117,77,42,33,65,,74,62,31,13,8,8,0.5,0.3
2025-07-17T1100,1450A,102.8204,24.8886,昆明市,呈贡新区,,,19,25,14,28,65,,26,26,11,22,,2,,0.7
2025-07-17T1100,1451A,102.6251,24.9608,昆明市,西山森林公园,,,,,,,,,,,,,,,,
2025-07-17T1100,1452A,102.7252,25.0902,昆明市,龙泉镇,,24,16,25,13,14,75,,29,29,8,14,1,2,0.4,0.4
2025-07-17T1100,1453A,102.7266,25.0375,昆明市,东风东路,,25,25,36,15,19,79,,38,38,14,24,4,4,0.4,0.4
2025-07-17T1100,1454A,102.6742,25.0669,昆明市,金鼎山,,24,17,32,10,13,75,,34,34,10,16,2,1,0.4,0.4
2025-07-17T1100,1455A,102.6644,25.0401,昆明市,碧鸡广场,,26,26,34,12,18,70,,33,33,16,21,5,5,0.5,0.5
2025-07-17T1100,3179A,102.7494,25.0119,昆明市,官渡区博物馆,,23,,32,9,18,73,,24,24,16,30,2,2,0.4,0.5
2025-07-17T1100,3375A,102.8017,24.8336,昆明市,青年创业园,,26,26,34,18,26,65,,25,25,8,25,2,2,0.4,0.6
2025-07-17T1100,3550A,102.7997,24.9786,昆明市,昆明学院,,29,29,48,20,29,68,,20,20,16,35,8,7,0.5,0.5
2025-07-17T1100,3551A,102.5967,24.6736,昆明市,晋宁区生态环境分局,,28,,27,19,21,81,,35,35,8,16,8,4,0.5,0.5
2025-07-17T1100,3552A,102.6678,24.9856,昆明市,云天化总部,,,46,29,33,19,66,,34,34,22,25,4,4,,0.3
2025-07-17T1100,1456A,91.1319,29.6514,拉萨市,八廓街,,18,13,8,8,6,56,,59,55,15,11,8,6,0.3,0.2
2025-07-17T1100,1457A,91.1221,29.6747,拉萨市,市环保局,,19,19,12,7,7,54,,56,52,12,11,7,5,0.3,0.2
2025-07-17T1100,1458A,91.0874,29.6475,拉萨市,区监测站,,17,10,9,7,6,54,,61,54,17,12,4,4,0.2,0.3
2025-07-17T1100,1459A,91.1774,29.6541,拉萨市,西藏大学,,,,8,,6,56,,52,52,,11,10,7,,0.3
2025-07-17T1100,1460A,90.9798,29.6588,拉萨市,区辐射站,,20,20,14,6,7,44,,50,48,28,15,8,5,0.4,0.3
2025-07-17T1100,1461A,91.0834,29.6292,拉萨市,拉萨火车站,,17,10,8,6,6,54,,58,53,14,10,5,4,0.3,0.2
2025-07-17T1100,2520A,109.2203,23.7256,来宾市,来宾技工学校,,,43,29,18,15,68,,33,33,6,9,9,5,,0.6
2025-07-17T1100,3535A,109.1781,23.7297,来宾市,兴宾区政府,,35,24,25,24,16,64,,35,35,10,10,8,6,0.6,0.6
2025-07-17T1100,4002A,109.2416,23.7461,来宾市,中南小学,,35,35,27,22,14,75,,38,38,5,8,4,5,0.6,0.6
2025-07-17T1100,1477A,104.1373,35.9454,兰州市,榆中兰大校区,,,,,,,,,,,,,,,,
2025-07-17T1100,1479A,103.831,36.0464,兰州市,铁路设计院,,,69,61,22,24,92,,62,57,,24,,11,0.4,0.4
2025-07-17T1100,3241A,103.7439,36.0842,兰州市,百合公园,颗粒物(PM10),55,59,49,16,24,104,,54,51,15,17,8,6,0.4,0.5
2025-07-17T1100,3242A,103.9611,35.998,兰州市,和平,,,,,,,82,,,,,12,,14,1.7,0.7
2025-07-17T1100,4236A,103.6293,36.0938,兰州市,庄浪东路808号,颗粒物(PM10),59,67,56,34,31,90,,47,46,31,26,12,12,0.5,0.4
2025-07-17T1100,4237A,103.7251,36.1043,兰州市,安宁西路88号,,45,45,52,19,26,123,,64,64,8,12,8,9,0.4,0.4
2025-07-17T1100,4238A,103.8470,36.0676,兰州市,北滨河东路1号,颗粒物(PM10),52,53,51,28,27,101,,71,65,19,18,11,10,0.6,0.6
2025-07-17T1100,3245A,103.6633,36.533,兰州新区,新区管委会,,43,38,45,30,24,118,,87,86,9,8,14,12,0.5,0.4
2025-07-17T1100,3246A,103.6975,36.4789,兰州新区,舟曲中学,,40,40,60,20,23,109,,84,84,11,9,14,9,0.5,0.5
2025-07-17T1100,1067A,116.6708,39.5111,廊坊市,药材公司,,38,22,32,10,13,121,,61,61,6,17,4,4,0.2,0.4
2025-07-17T1100,1068A,116.7214,39.5589,廊坊市,开发区,,37,21,31,8,16,116,,46,46,11,23,2,2,0.2,0.5
2025-07-17T1100,1070A,116.7244,39.5269,廊坊市,北华航天学院,,38,34,44,3,11,120,,59,58,6,12,2,2,0.2,0.5
2025-07-17T1100,2919A,116.7022,39.5453,廊坊市,河北工业大学,,,,44,8,12,114,,57,56,7,17,7,4,,0.5
2025-07-17T1100,2535A,103.7723,29.5462,乐山市,花湖湾,,,49,44,36,33,122,,45,45,15,14,3,3,,0.7
2025-07-17T1100,2536A,103.7627,29.5844,乐山市,牛耳桥,,48,41,42,33,31,152,,54,54,14,18,6,5,0.9,0.8
2025-07-17T1100,2537A,103.7508,29.6006,乐山市,市第三水厂,,46,46,41,31,30,139,,57,57,24,24,5,3,0.8,0.8
2025-07-17T1100,2538A,103.7571,29.5664,乐山市,市监测站,,,59,45,36,30,142,,58,58,22,16,,6,1.1,1.1
2025-07-17T1100,3361A,103.7311,29.5628,乐山市,理工大学,颗粒物(PM10),53,55,43,36,31,139,,57,57,17,16,6,4,1.3,1.2
2025-07-17T1100,2598A,100.2143,26.8576,丽江市,西南郊,,27,14,19,8,13,85,,74,74,9,8,6,6,0.8,0.8
2025-07-17T1100,2599A,100.2497,26.8802,丽江市,丽江古城,,26,17,23,10,14,81,,73,70,14,11,9,10,0.6,0.5
2025-07-17T1100,2600A,100.2203,26.8906,丽江市,市中心,,25,23,18,16,17,77,,70,67,14,12,8,8,0.5,0.5
2025-07-17T1100,1267A,119.914,28.4514,丽水市,监测站大楼,,31,31,23,11,11,95,,52,52,10,12,4,3,0.4,0.4
2025-07-17T1100,1268A,119.93,28.4586,丽水市,莲都小学,,,30,26,11,12,93,,46,46,,14,3,3,0.4,0.4
2025-07-17T1100,1269A,119.879,28.4231,丽水市,余庄前,,32,27,24,20,18,101,,30,30,6,9,4,4,0.5,0.5
2025-07-17T1100,1173A,119.176,34.5885,连云港市,市环境监测站,,44,14,21,9,16,140,,113,113,6,10,4,3,0,0.4
2025-07-17T1100,3000A,119.3581,34.6972,连云港市,德源药业,,41,17,21,7,9,130,,106,106,14,12,4,3,0.7,0.7
2025-07-17T1100,3007A,119.178,34.844,连云港市,新城一中,,46,26,29,11,18,146,,95,95,11,14,8,7,1.0,1
2025-07-17T1100,3008A,119.3608,34.7519,连云港市,胡沟管理处,,42,12,14,3,8,134,,114,114,4,6,5,5,0.5,0.6
2025-07-17T1100,3009A,119.1478,34.5911,连云港市,矿山设计院,,,7,23,3,14,140,,96,96,,4,,3,,0.3
2025-07-17T1100,3434A,119.2413,34.6539,连云港市,工贸学校,,42,14,18,7,14,133,,112,112,2,5,6,6,0.6,0.8
2025-07-17T1100,3664A,119.4172,34.7341,连云港市,连云街道,,44,23,21,16,12,139,,104,104,13,15,4,3,0.6,0.6
2025-07-17T1100,2571A,102.3431,27.8099,凉山彝族自治州,青龙寺,,36,36,30,11,12,94,,54,54,6,9,10,8,0.8,0.6
2025-07-17T1100,2572A,102.2721,27.8415,凉山彝族自治州,邛海宾馆,,35,32,35,24,23,85,,57,57,27,20,14,11,0.7,0.6
2025-07-17T1100,2573A,102.2625,27.898,凉山彝族自治州,西昌市政府,,,38,30,31,23,87,,70,70,,8,14,7,,0.5
2025-07-17T1100,2574A,102.2685,27.8851,凉山彝族自治州,凉山州政府,,38,38,32,22,17,90,,69,69,25,16,14,11,1.0,0.7
2025-07-17T1100,4229A,102.2342,27.8859,凉山彝族自治州,凯乐南路30号,,43,43,33,28,20,89,,56,56,19,17,20,10,1.1,0.7
2025-07-17T1100,2212A,123.2,41.1953,辽阳市,宏伟区,,40,27,26,17,6,128,,74,74,18,12,35,6,1.0,0.8
2025-07-17T1100,2213A,123.1683,41.2495,辽阳市,新华园,,47,47,22,17,9,131,,77,77,19,17,14,7,1.1,0.8
2025-07-17T1100,2214A,123.2354,41.2639,辽阳市,滨河路,颗粒物(PM10),51,51,28,14,12,125,,70,70,19,22,7,4,0.7,0.4
2025-07-17T1100,2215A,123.149,41.2991,辽阳市,铁西工业园,,49,49,35,16,15,111,,60,60,10,17,6,4,1.1,1
2025-07-17T1100,2227A,125.1358,42.8845,辽源市,环保局,,28,16,25,7,9,87,,45,45,6,11,5,6,0.5,0.5
2025-07-17T1100,3239A,125.0764,42.9078,辽源市,银鹰制药,,27,11,19,9,13,86,,52,52,9,16,7,10,0.4,0.5
2025-07-17T1100,1625A,115.9848,36.4372,聊城市,区政府,,46,24,27,11,17,146,,111,111,10,12,7,7,0.7,0.7
2025-07-17T1100,2878A,116.0072,36.4343,聊城市,聊大东校,,48,27,30,18,21,151,,111,111,10,12,6,6,0.8,0.7
2025-07-17T1100,3200A,115.9819,36.4978,聊城市,监控中心,,48,14,21,12,15,153,,105,105,7,15,8,8,0.7,0.5
2025-07-17T1100,3513A,116.0445,36.4361,聊城市,九州社区,,,,37,,19,146,,101,101,10,14,4,5,0.5,0.5
2025-07-17T1100,4018A,116.0567,36.4608,聊城市,星美广场,,45,28,39,16,17,144,,108,108,10,14,5,6,0.7,0.6
2025-07-17T1100,2632A,94.3681,29.6376,林芝市,林芝监测站,,,,6,13,12,56,,51,45,,3,4,6,,0.4
2025-07-17T1100,2633A,94.3616,29.6616,林芝市,林芝人民医院,,18,6,8,3,5,55,,43,37,3,2,4,4,0.3,0.4
2025-07-17T1100,2603A,100.0781,23.8982,临沧市,市环保局,,22,22,18,6,16,58,,55,46,10,7,7,9,0.4,0.3
2025-07-17T1100,2604A,100.0894,23.8822,临沧市,市气象局,,22,22,16,6,9,51,,51,44,10,7,8,8,0.5,0.5
2025-07-17T1100,1733A,111.5531,36.0783,临汾市,临钢医院,颗粒物(PM10),54,58,54,22,16,158,,100,100,10,14,12,9,0.9,0.6
2025-07-17T1100,1734A,111.5028,36.0714,临汾市,技工学校,颗粒物(PM10),65,80,48,27,26,163,,103,103,13,13,12,6,0.9,0.5
2025-07-17T1100,1736A,111.5018,36.0855,临汾市,市委,臭氧1小时,79,72,59,16,12,183,,115,115,12,16,15,9,0.9,0.5
2025-07-17T1100,3018A,111.505,36.1014,临汾市,唐尧大酒店,,,,55,,12,168,,102,102,11,14,10,5,0.9,0.6
2025-07-17T1100,4244A,111.4879,36.0530,临汾市,启星学校,臭氧1小时,58,61,52,35,28,166,,98,98,13,14,15,7,0.9,0.6
2025-07-17T1100,4271A,103.2464,35.6123,临夏回族自治州,滨河东路1号,颗粒物(PM10),63,76,52,23,21,56,,29,29,15,16,4,5,0.4,0.3
2025-07-17T1100,4310A,103.2093,35.5995,临夏回族自治州,新华街21号,颗粒物(PM10),61,71,55,31,25,65,,38,38,17,14,7,6,0.4,0.3
2025-07-17T1100,1618A,118.3429,35.0532,临沂市,沂河小区,,42,22,28,16,23,132,,99,99,10,12,9,8,0.3,0.4
2025-07-17T1100,1619A,118.295,35.0583,临沂市,鲁南制药厂,,44,19,24,9,20,139,,107,107,7,8,8,8,0.5,0.5
2025-07-17T1100,1620A,118.2794,34.9976,临沂市,新光毛纺厂,,43,,21,15,20,136,,108,108,9,11,6,7,0.4,0.5
2025-07-17T1100,1621A,118.3956,35.0888,临沂市,河东保险公司,,43,22,24,8,13,136,,98,98,11,13,6,6,0.5,0.5
2025-07-17T1100,3370A,118.3564,35.0215,临沂市,十里堡居委,,,22,22,12,18,150,,113,113,12,13,9,9,,0.6
2025-07-17T1100,3496A,118.3604,35.1084,临沂市,南坊新区,,44,19,29,7,13,138,,94,94,10,14,9,9,0.3,0.4
2025-07-17T1100,3860A,118.3920,35.0300,临沂市,皇山花园小区,,,22,25,19,21,132,,100,100,10,12,10,10,,0.4
2025-07-17T1100,1870A,109.4856,24.3895,柳州市,柳东小学,,33,33,24,22,17,70,,39,39,4,5,5,6,0.6,0.5
2025-07-17T1100,1871A,109.4157,24.3277,柳州市,环保监测站,,35,35,26,22,14,71,,44,44,4,6,7,7,0.5,0.5
2025-07-17T1100,1872A,109.389,24.341,柳州市,河西水厂,,35,35,26,16,14,75,,46,46,6,9,4,4,0.4,0.4
2025-07-17T1100,1873A,109.4311,24.2921,柳州市,市四中,,31,31,29,16,16,73,,40,40,8,11,6,6,0.6,0.5
2025-07-17T1100,1874A,109.4006,24.3631,柳州市,市九中,,,,29,,16,64,,41,41,,7,4,3,0.4,0.4
2025-07-17T1100,1875A,109.4958,24.3134,柳州市,古亭山,,47,47,29,15,15,71,,40,40,4,9,4,4,0.6,0.6
2025-07-17T1100,3402A,109.5422,24.3996,柳州市,市二中,颗粒物(PM10),52,53,27,23,16,78,,38,38,7,9,7,12,0.6,0.6
2025-07-17T1100,2307A,116.5079,31.737,六安市,监测大楼,,30,28,19,19,14,96,,112,99,3,3,5,5,0.6,0.5
2025-07-17T1100,2308A,116.4738,31.7643,六安市,皖西学院,,32,32,16,17,14,98,,109,97,2,2,2,2,0.3,0.2
2025-07-17T1100,2309A,116.4996,31.7905,六安市,朝阳厂,,29,18,16,15,13,92,,108,95,7,6,4,4,0.4,0.4
2025-07-17T1100,2310A,116.5567,31.7886,六安市,开发区,,28,,18,11,16,87,,107,95,5,4,3,3,0.4,0.4
2025-07-17T1100,2576A,104.8,26.5892,六盘水市,窑上,,35,35,32,10,11,77,,32,32,5,5,7,6,0.4,0.4
2025-07-17T1100,2577A,104.83,26.5917,六盘水市,黄土坡,,28,23,23,15,14,87,,43,43,8,10,10,10,0.3,0.5
2025-07-17T1100,2578A,104.89,26.5939,六盘水市,水钢,,39,31,32,27,18,86,,53,53,16,9,14,7,1.3,0.5
2025-07-17T1100,2579A,104.8475,26.5894,六盘水市,民中,,28,24,25,12,14,89,,40,40,10,15,8,9,0.5,0.5
2025-07-17T1100,2580A,104.9544,26.5506,六盘水市,双水,,27,27,22,15,12,78,,57,57,8,8,10,10,0.2,0.2
2025-07-17T1100,2335A,117.0189,25.1181,龙岩市,龙岩师专,,,,,,,,,,,,,,,,
2025-07-17T1100,2336A,117.0217,25.1033,龙岩市,龙岩市监测站,颗粒物(PM10),58,66,31,26,19,113,,38,38,8,12,5,6,0.6,0.6
2025-07-17T1100,2337A,117.0258,25.0661,龙岩市,闽西职业技术学院,,38,38,41,23,22,106,,35,35,5,13,3,10,0.5,0.5
2025-07-17T1100,2338A,117.0196,25.0306,龙岩市,龙岩学院,,32,27,32,22,20,93,,40,40,4,8,2,2,0.5,0.4
2025-07-17T1100,2665A,105.0822,33.3261,陇南市,汉王镇固水子,,,,,,,,,,,,,,,,
2025-07-17T1100,2885A,104.9339,33.3826,陇南市,滨江中学,,,27,41,8,16,110,,71,71,,4,,7,0.6,0.6
2025-07-17T1100,3247A,104.955,33.371,陇南市,市总工会,,44,44,49,20,21,120,,88,88,6,5,6,5,0.3,0.3
2025-07-17T1100,2487A,111.9589,27.8901,娄底市,电视发射台,,28,25,31,19,14,62,,26,26,7,6,8,7,0.5,0.4
2025-07-17T1100,2488A,111.9975,27.725,娄底市,市监测站,,32,32,28,18,21,83,,53,53,9,9,4,6,0.4,0.4
2025-07-17T1100,2489A,112.0194,27.7314,娄底市,市委党校,,35,28,25,20,17,109,,79,79,9,8,7,11,0.4,0.4
2025-07-17T1100,2490A,111.9561,27.7569,娄底市,涟钢,,,,33,,20,81,,34,34,15,18,,22,0.9,1
2025-07-17T1100,2491A,111.9892,27.7044,娄底市,市政府,,40,40,26,25,19,90,,55,55,3,3,9,9,0.8,0.8
2025-07-17T1100,1893A,105.4324,28.9634,泸州市,九狮山,,50,50,38,21,25,145,,51,51,15,17,4,3,0.4,0.4
2025-07-17T1100,1894A,105.4427,28.9063,泸州市,小市上码头,,,,32,,16,,,121,,,11,,3,,0.2
2025-07-17T1100,1895A,105.4241,28.8573,泸州市,兰田宪桥,,40,40,35,17,20,122,,36,36,17,18,8,8,0.4,0.5
2025-07-17T1100,1896A,105.4379,28.8833,泸州市,市环监站,,42,37,31,29,23,120,,45,45,20,14,5,7,0.5,0.3
2025-07-17T1100,4272A,105.3689,28.7783,泸州市,纳溪中医医院,,41,41,38,21,23,123,,46,46,11,20,4,4,0.5,0.6
2025-07-17T1100,2183A,111.1406,37.5211,吕梁市,环保局,,41,41,40,12,12,98,,55,55,18,25,6,3,0.5,0.4
2025-07-17T1100,2185A,111.1297,37.5136,吕梁市,自来水公司,颗粒物(PM10),51,51,77,6,13,96,,38,38,17,28,6,4,0.5,0.5
2025-07-17T1100,2867A,111.1283,37.51,吕梁市,马茂庄小学,,49,49,43,6,10,108,,54,54,14,26,6,6,0.4,0.3
2025-07-17T1100,1812A,112.3931,34.6516,洛阳市,市委党校,,47,30,40,17,22,149,,115,115,7,12,11,9,0.4,0.6
2025-07-17T1100,1815A,112.494,34.6886,洛阳市,河南林校,臭氧1小时,67,52,50,19,26,173,,112,112,15,16,10,8,0.8,0.8
2025-07-17T1100,1816A,112.3844,34.623,洛阳市,开发区管委会,,45,19,38,18,23,142,,108,108,4,9,7,4,0.5,0.7
2025-07-17T1100,1817A,112.4267,34.6258,洛阳市,市委新办公区,,,34,40,24,29,145,,102,102,,14,8,12,0.5,0.6
2025-07-17T1100,3340A,112.6005,34.6326,洛阳市,伊滨,,47,34,54,22,23,150,,96,96,11,13,7,5,0.8,0.8
2025-07-17T1100,3341A,112.4951,34.6332,洛阳市,中移产业园,,48,42,46,21,24,152,,98,98,11,13,10,8,0.8,1
2025-07-17T1100,3593A,112.5736,34.8993,洛阳市,吉利监测站,,48,43,51,21,29,153,,101,101,8,11,10,10,0.5,0.6
2025-07-17T1100,3635A,112.3677,34.662,洛阳市,河科大西苑校区,,45,34,43,17,18,142,,108,108,2,8,12,9,0.3,0.5
2025-07-17T1100,3636A,112.4388,34.6781,洛阳市,英才小学,颗粒物(PM10),54,58,55,25,26,145,,96,96,9,11,11,9,0.5,0.7
2025-07-17T1100,4214A,112.4600,34.6949,洛阳市,春都路1号院,,,46,45,20,19,159,,106,106,13,9,,5,0.5,0.6
2025-07-17T1100,2399A,114.051,33.5699,漯河市,三五一五工厂,,50,50,43,29,29,160,,108,108,8,8,4,4,0.7,0.7
2025-07-17T1100,2400A,114.0055,33.5698,漯河市,漯河大学,臭氧1小时,63,69,78,31,26,170,,114,114,11,10,5,4,0.7,0.6
2025-07-17T1100,2401A,114.0138,33.5828,漯河市,市水利局,颗粒物(PM10),52,53,49,34,28,147,,100,100,12,10,4,4,0.7,0.7
2025-07-17T1100,2402A,114.0261,33.5698,漯河市,市广电局,臭氧1小时,62,44,43,22,28,169,,119,119,10,9,2,2,0.6,0.6
2025-07-17T1100,3478A,113.9749,33.5664,漯河市,市图书馆,臭氧1小时,52,52,42,23,30,161,,115,115,10,8,6,6,0.7,0.7
2025-07-17T1100,4250A,114.0892,33.5882,漯河市,韶山路11号,,,87,48,39,29,120,,85,85,9,12,,2,0.7,0.6
2025-07-17T1100,1798A,118.5092,31.6837,马鞍山市,湖东路四小,颗粒物(PM10),51,51,31,17,16,121,,95,94,16,12,9,8,0.7,0.7
2025-07-17T1100,1799A,118.5024,31.6449,马鞍山市,开发区,,,,32,,15,136,,99,97,10,13,7,7,,0.6
2025-07-17T1100,1802A,118.6245,31.7241,马鞍山市,濮塘,,38,25,30,16,13,119,,75,75,17,10,11,7,1.3,0.8
2025-07-17T1100,3633A,118.4918,31.6809,马鞍山市,雨山,,38,12,28,11,15,119,,88,88,11,16,6,6,0.6,0.7
2025-07-17T1100,4191A,118.5274,31.72227,马鞍山市,慈湖高新区,,33,29,30,14,15,104,,79,79,25,20,13,10,1.0,0.8
2025-07-17T1100,1686A,111.0286,21.4688,茂名市,电白南海,,,41,30,,19,82,,47,47,9,8,,4,0.5,0.4
2025-07-17T1100,1687A,110.9294,21.6533,茂名市,茂石化七小,,46,46,42,19,22,81,,42,42,6,12,6,5,0.4,0.5
2025-07-17T1100,1688A,110.9107,21.6687,茂名市,健康路,,34,34,35,14,20,89,,45,45,7,12,10,8,0.5,0.5
2025-07-17T1100,1689A,110.8592,21.6828,茂名市,高岭,,41,41,47,17,19,80,,56,56,9,18,4,4,0.4,0.5
2025-07-17T1100,3450A,111.01,21.5165,茂名市,电白水东,,34,34,25,12,13,81,,48,48,9,9,14,9,0.6,0.5
2025-07-17T1100,2539A,104.0308,30.0478,眉山市,黑龙滩水库,,20,,38,7,12,61,,,,6,4,2,3,0.8,0.6
2025-07-17T1100,2540A,103.8416,30.0874,眉山市,气象局,细颗粒物(PM2.5),52,47,53,36,29,121,,41,41,17,28,2,2,0.8,0.6
2025-07-17T1100,3137A,103.8578,30.0744,眉山市,市委党校,颗粒物(PM10),53,56,43,34,26,136,,68,68,21,29,6,7,0.9,0.7
2025-07-17T1100,3148A,103.8291,30.0564,眉山市,区人社局,颗粒物(PM10),52,54,52,31,22,137,,78,78,20,24,10,9,0.9,0.8
2025-07-17T1100,1690A,116.1231,24.3284,梅州市,梅江月梅,,45,45,31,24,19,96,,38,38,7,7,6,10,0.8,0.7
2025-07-17T1100,1691A,116.0797,24.2719,梅州市,梅县新城,,38,38,35,26,21,98,,36,36,6,12,6,6,0.5,0.5
2025-07-17T1100,1692A,116.1248,24.2654,梅州市,环境监控中心,,48,48,35,25,19,104,,41,41,9,14,4,5,0.4,0.4
2025-07-17T1100,3315A,116.1233,24.2991,梅州市,梅龙,,39,39,30,12,12,98,,44,44,3,7,7,10,0.6,0.6
2025-07-17T1100,1878A,104.7778,31.4741,绵阳市,富乐山,,48,48,42,33,31,147,,73,73,7,13,9,9,0.7,0.7
2025-07-17T1100,1880A,104.6697,31.4668,绵阳市,高新区自来水公司,颗粒物(PM10),51,51,54,31,27,128,,60,60,11,21,10,9,0.6,0.6
2025-07-17T1100,1881A,104.7287,31.5075,绵阳市,三水厂,"颗粒物(PM10),细颗粒物(PM2.5)",55,59,49,39,34,126,,51,51,17,26,6,6,0.5,0.5
2025-07-17T1100,3491A,104.69,31.5322,绵阳市,西科大附属小学,颗粒物(PM10),52,54,57,25,33,107,,49,49,14,35,7,8,0.9,0.8
2025-07-17T1100,3492A,104.5648,31.5343,绵阳市,安州区旅游局,颗粒物(PM10),53,56,48,22,25,117,,67,67,8,12,6,5,0.3,0.3
2025-07-17T1100,4226A,104.7651,31.4531,绵阳市,绵阳市气象局,,,37,44,28,29,128,,60,60,,16,,6,,0.6
2025-07-17T1100,1784A,129.61,44.561,牡丹江市,环保大楼,,24,14,14,6,11,75,,59,59,6,10,1,1,0.2,0.3
2025-07-17T1100,1785A,129.6115,44.5782,牡丹江市,文化广场,,23,,15,13,13,73,,57,57,8,14,6,6,0.4,0.5
2025-07-17T1100,1786A,129.5904,44.5963,牡丹江市,第一医院,,24,12,18,6,18,76,,53,53,9,13,5,5,0.2,0.3
2025-07-17T1100,1787A,129.6364,44.6075,牡丹江市,机车工厂,,,6,21,6,9,73,,38,38,7,11,4,5,,0.4
2025-07-17T1100,1788A,129.6386,44.5462,牡丹江市,第一中学,,24,20,18,6,9,74,,43,43,5,15,5,5,0.4,0.5
2025-07-17T1100,2531A,105.0703,29.61,内江市,市监测站,,,,29,,28,170,,54,54,15,15,,11,0.6,0.7
2025-07-17T1100,2532A,105.0717,29.5947,内江市,东兴区政府,,47,,27,29,21,149,,66,66,18,16,6,5,0.6,0.6
2025-07-17T1100,2533A,105.0653,29.5817,内江市,内江二中,细颗粒物(PM2.5),59,47,33,42,32,46,,23,23,16,18,5,5,0.7,0.6
2025-07-17T1100,2534A,105.0406,29.5822,内江市,内江日报社,,43,,34,30,28,122,,46,46,14,28,3,16,0.6,0.6
2025-07-17T1100,2628A,92.0657,31.4846,那曲市,那曲监测站,,33,30,23,18,18,104,,70,70,10,13,32,17,0.4,0.4
2025-07-17T1100,4243A,92.0515,31.4787,那曲市,那曲市委宣传部,,39,13,13,9,7,123,,88,88,4,6,4,5,0.2,0.3
2025-07-17T1100,1290A,115.8931,28.6843,南昌市,省外办,,44,44,33,22,25,51,,34,34,24,15,6,10,0.6,0.5
2025-07-17T1100,1291A,115.8886,28.7003,南昌市,省林业公司,,29,29,35,9,19,54,,35,35,22,17,11,14,0.6,0.6
2025-07-17T1100,1292A,115.8126,28.7442,南昌市,林科所,,39,39,29,22,16,21,,18,18,34,21,8,8,0.5,0.4
2025-07-17T1100,1294A,115.8518,28.687,南昌市,建工学校,,46,46,46,3,15,52,,29,29,25,23,9,14,0.7,0.6
2025-07-17T1100,1295A,115.8921,28.6424,南昌市,象湖,颗粒物(PM10),52,53,32,22,17,42,,34,29,30,16,10,10,0.7,0.6
2025-07-17T1100,1296A,115.7423,28.7996,南昌市,武术学校,,30,30,22,6,7,33,,18,18,5,4,9,8,0.5,0.5
2025-07-17T1100,3046A,115.9084,28.6062,南昌市,机电学校,,,76,41,22,21,20,,33,25,32,17,,6,0.9,0.7
2025-07-17T1100,3690A,115.9721,28.7031,南昌市,外国语学校,,,29,35,11,16,64,,51,51,,13,11,14,0.6,0.7
2025-07-17T1100,4192A,115.9316,28.68677,南昌市,南京东路235号,,42,42,40,15,19,66,,49,49,22,17,4,7,0.7,0.7
2025-07-17T1100,1905A,106.056,30.8064,南充市,西山风景区,,,,,,,,,,,,,,,,
2025-07-17T1100,1906A,106.0789,30.8023,南充市,南充市委,,,49,43,35,41,159,,64,64,,17,6,5,0.5,0.5
2025-07-17T1100,1907A,106.1031,30.8217,南充市,南充炼油厂,,,49,41,25,29,,,54,54,,14,8,7,,0.3
2025-07-17T1100,4227A,106.1083,30.7884,南充市,梨树横街98号,颗粒物(PM10),52,53,42,23,23,132,,69,69,10,12,3,3,0.5,0.4
2025-07-17T1100,4304A,106.1172,30.843,南充市,清泉寺北路188号,细颗粒物(PM2.5),55,57,41,39,37,130,,56,56,8,11,2,3,0.4,0.3
2025-07-17T1100,4305A,106.067,30.7616,南充市,同庆路1号,臭氧1小时,52,45,41,29,26,161,,68,68,11,16,2,2,0.4,0.4
2025-07-17T1100,1151A,118.8086,32.1065,南京市,迈皋桥,臭氧1小时,68,26,22,19,14,174,,93,93,3,24,4,4,0.7,0.8
2025-07-17T1100,1152A,118.7538,32.0551,南京市,草场门,,37,22,24,7,12,116,,88,88,11,13,7,8,0.6,0.8
2025-07-17T1100,1153A,118.7794,32.0745,南京市,山西路,,41,22,27,7,8,130,,96,96,11,14,4,4,0.5,0.7
2025-07-17T1100,1154A,118.7752,32.0023,南京市,中华门,,36,17,22,3,9,114,,75,75,9,10,11,10,0.7,0.7
2025-07-17T1100,1155A,118.8109,32.0309,南京市,瑞金路,,36,17,20,7,12,113,,92,92,8,12,6,6,0.2,0.3
2025-07-17T1100,1156A,118.7997,32.0754,南京市,玄武湖,,34,20,31,3,11,108,,78,78,11,11,9,9,0.6,0.5
2025-07-17T1100,1157A,118.6414,32.0931,南京市,浦口,,35,13,25,3,10,110,,86,86,6,8,4,4,0.4,0.5
2025-07-17T1100,1158A,118.7356,31.9996,南京市,奥体中心,,38,10,26,3,13,120,,88,88,7,12,4,4,0.1,0.3
2025-07-17T1100,1159A,118.9125,32.1028,南京市,仙林大学城,,46,31,31,9,10,146,,93,93,12,11,9,8,1.2,0.8
2025-07-17T1100,3422A,118.8436,31.9198,南京市,江宁彩虹桥,,42,23,27,9,14,132,,88,88,9,10,3,4,0.9,0.8
2025-07-17T1100,3427A,118.8554,32.3578,南京市,六合雄州,,40,18,27,7,12,126,,97,97,6,15,4,5,0.8,0.9
2025-07-17T1100,4249A,118.8708,31.3402,南京市,汶溪路181号,,45,6,20,3,15,144,,111,111,10,10,9,6,0.7,0.7
2025-07-17T1100,4312A,119.019,31.6512,南京市,中山西路1号,,43,9,18,9,16,135,,94,94,6,7,4,4,0.8,0.8
2025-07-17T1100,1401A,108.3103,22.7881,南宁市,二十一中,,21,21,28,13,15,65,,35,35,5,7,5,4,0.5,0.5
2025-07-17T1100,1402A,108.3141,22.8528,南宁市,北湖,,24,22,27,16,14,75,,47,47,8,8,4,4,0.5,0.5
2025-07-17T1100,1403A,108.3206,22.8225,南宁市,市监测站,,,54,27,17,14,63,,42,42,12,8,7,6,,0.6
2025-07-17T1100,1404A,108.3829,22.8037,南宁市,大自然花园,,31,31,30,12,14,80,,49,49,4,6,4,4,0.3,0.4
2025-07-17T1100,1405A,108.4394,22.7904,南宁市,仙葫,,28,28,25,17,17,67,,47,47,8,8,7,7,0.8,0.8
2025-07-17T1100,1406A,108.2397,22.8467,南宁市,区农职院,,24,20,29,15,18,75,,43,43,8,11,3,3,0.5,0.6
2025-07-17T1100,1407A,108.3275,22.735,南宁市,英华嘉园,,26,24,26,14,14,81,,43,43,5,9,1,2,0.5,0.6
2025-07-17T1100,3401A,108.4834,22.7618,南宁市,红星社区,,,,30,,17,77,,38,38,,8,2,2,0.4,0.5
2025-07-17T1100,4221A,108.2177,22.7774,南宁市,乐贤路16号,,23,15,31,14,14,72,,31,31,6,15,4,5,0.6,0.6
2025-07-17T1100,2331A,118.0966,26.6761,南平市,茫荡山,,,,,,,,,,,,,,,,
2025-07-17T1100,2332A,118.1681,26.6369,南平市,南平市监测站,,,27,29,20,19,81,,25,25,,12,5,5,,0.7
2025-07-17T1100,2333A,118.1825,26.6489,南平市,南平铝业有限公司,,35,27,30,24,20,90,,37,37,6,14,5,4,0.6,0.7
2025-07-17T1100,2334A,118.1756,26.6272,南平市,南平七中,,41,41,32,21,20,82,,26,26,5,11,4,4,0.6,0.6
2025-07-17T1100,1168A,120.9098,31.9663,南通市,狼山街道,颗粒物(PM10),53,56,34,33,22,146,,94,94,37,28,15,3,2.3,0.9
2025-07-17T1100,1169A,120.86,32.0005,南通市,虹桥,臭氧1小时,59,38,31,25,21,167,,103,103,41,31,7,3,1.6,1
2025-07-17T1100,1170A,120.87,32.02,南通市,城中,,46,46,38,23,21,147,,87,87,32,23,13,5,1.4,0.8
2025-07-17T1100,1171A,120.94,31.93,南通市,星湖花园,,50,32,29,21,24,157,,94,94,29,26,14,5,1.7,0.6
2025-07-17T1100,1172A,120.81,32.0417,南通市,紫琅学院,,,35,38,22,18,150,,89,89,,34,9,8,1.1,1
2025-07-17T1100,3291A,121.067,32.062,南通市,通州监测站,臭氧1小时,54,27,32,24,22,163,,102,102,14,17,7,8,1.0,0.9
2025-07-17T1100,3432A,120.9348,31.9883,南通市,环境教育馆,,50,39,38,18,19,160,,96,96,22,19,3,4,1.3,0.4
2025-07-17T1100,2404A,112.5224,33.0122,南阳市,瓦房庄,,,,46,,28,143,,122,122,8,8,,6,,0.6
2025-07-17T1100,2405A,112.5003,32.9735,南阳市,汉画馆,,45,38,46,15,21,143,,124,124,10,10,8,8,0.4,0.4
2025-07-17T1100,2406A,112.5573,33.027,南阳市,气象站,,45,30,46,14,24,142,,122,122,6,7,6,6,0.5,0.5
2025-07-17T1100,2407A,112.5481,32.9689,南阳市,理工学院,,45,39,43,13,21,144,,120,120,7,8,8,6,0.5,0.5
2025-07-17T1100,4008A,112.5234,32.9922,南阳市,卧龙区政府,,44,35,47,16,26,138,,118,118,9,9,4,6,0.6,0.7
2025-07-17T1100,1234A,121.8358,29.911,宁波市,区环保大楼,,28,28,39,14,20,84,,71,70,4,7,3,3,0.4,0.5
2025-07-17T1100,1235A,121.56,29.82,宁波市,万里学院,,,34,37,22,24,107,,71,71,,15,3,4,0.6,0.6
2025-07-17T1100,1236A,121.713,29.9572,宁波市,龙赛医院,,30,30,34,17,18,91,,70,70,5,7,4,4,0.4,0.4
2025-07-17T1100,1239A,121.633,29.7733,宁波市,钱湖水厂,,28,25,28,18,19,88,,68,68,4,5,4,4,0.5,0.5
2025-07-17T1100,1240A,121.5856,29.8635,宁波市,太古小学,,,47,32,16,19,99,,68,68,,7,,5,,0.6
2025-07-17T1100,1241A,121.524,29.8674,宁波市,市环境监测中心,,31,31,32,15,18,94,,62,62,8,12,4,4,0.6,0.6
2025-07-17T1100,2871A,121.6147,29.9017,宁波市,万里国际学校,,33,24,26,17,18,105,,78,78,6,7,4,4,0.6,0.6
2025-07-17T1100,3710A,121.5594,29.8975,宁波市,白沙活动中心,,34,23,27,16,18,107,,73,73,7,9,5,5,0.5,0.5
2025-07-17T1100,2339A,119.5001,26.6946,宁德市,金涵水库,,,,,,,,,,,,,,,,
2025-07-17T1100,2341A,119.5388,26.6612,宁德市,宁德市监测站,,32,32,40,17,23,52,,48,41,19,16,8,8,0.6,0.7
2025-07-17T1100,3209A,119.5231,26.6562,宁德市,宁德一中,,23,22,38,16,25,54,,46,44,20,12,8,5,0.5,0.6
2025-07-17T1100,2618A,98.8601,25.8567,怒江傈僳族自治州,州监测站,,22,22,22,8,14,70,,68,68,8,7,9,10,0.4,0.4
2025-07-17T1100,2619A,98.8546,25.8417,怒江傈僳族自治州,泸水一中,,16,15,16,10,8,50,,48,48,11,11,6,6,0.2,0.2
2025-07-17T1100,1888A,101.6891,26.571,攀枝花市,弄弄坪,,,,65,,26,92,,35,35,,22,55,42,0.9,0.8
2025-07-17T1100,1889A,101.5769,26.5928,攀枝花市,河门口,,50,50,35,27,17,104,,53,53,22,16,40,21,2.3,1.3
2025-07-17T1100,1890A,101.7169,26.585,攀枝花市,炳草岗,颗粒物(PM10),75,100,56,52,25,90,,35,35,20,19,63,46,1.0,0.8
2025-07-17T1100,1891A,101.7369,26.5008,攀枝花市,仁和,细颗粒物(PM2.5),77,82,34,56,22,99,,42,42,16,13,46,13,0.7,0.5
2025-07-17T1100,2835A,101.7227,26.567,攀枝花市,四十中小,细颗粒物(PM2.5),54,55,40,38,26,108,,52,52,12,15,63,68,1.1,1
2025-07-17T1100,1604A,122.0303,41.1489,盘锦市,开发区,,29,23,28,17,26,90,,51,51,9,20,10,10,0.5,0.6
2025-07-17T1100,1605A,122.0485,41.0883,盘锦市,兴隆台,,46,46,29,25,15,111,,57,57,14,21,10,8,0.7,0.7
2025-07-17T1100,1606A,121.8297,41.1028,盘锦市,新生街道,,33,,20,23,20,77,,39,39,20,22,4,6,0.6,0.5
2025-07-17T1100,1832A,113.3257,33.742,平顶山市,新华旅馆,臭氧1小时,64,45,49,27,27,171,,116,116,10,13,5,5,0.5,0.6
2025-07-17T1100,1833A,113.2919,33.737,平顶山市,规划设计院,臭氧1小时,62,39,46,31,29,169,,117,117,10,12,10,9,0.7,0.7
2025-07-17T1100,1834A,113.182,33.774,平顶山市,平顶山工学院,,,29,42,27,25,150,,112,112,,9,8,7,0.7,0.7
2025-07-17T1100,3204A,113.3025,33.73,平顶山市,规划局,,,39,49,9,23,168,,112,112,,11,6,5,,0.7
2025-07-17T1100,3594A,112.8867,33.9116,平顶山市,石龙区,,46,27,44,14,26,147,,119,119,11,11,11,8,0.8,0.7
2025-07-17T1100,2656A,106.6692,35.5461,平凉市,聚贤嘉苑,颗粒物(PM10),57,64,54,14,12,130,,65,65,11,21,12,12,0.7,0.7
2025-07-17T1100,2657A,106.7021,35.5307,平凉市,博物馆,,,53,49,16,14,127,,63,63,,19,13,10,0.8,0.8
2025-07-17T1100,2347A,114.0997,27.5002,萍乡市,武功山,,16,6,4,3,6,49,,33,33,3,4,12,12,0.2,0.2
2025-07-17T1100,2348A,113.8385,27.6434,萍乡市,中医院,,31,31,25,3,11,76,,36,36,6,10,12,10,0.7,0.8
2025-07-17T1100,2349A,113.8493,27.6253,萍乡市,市政府车库,,32,,16,22,17,65,,34,34,5,8,9,9,0.4,0.5
2025-07-17T1100,2350A,113.8676,27.6435,萍乡市,市环保局,,36,36,26,10,15,74,,31,31,5,12,8,8,0.7,0.8
2025-07-17T1100,2351A,113.866,27.6198,萍乡市,安源区政府,,27,27,21,10,14,61,,30,30,3,5,8,8,0.4,0.5
2025-07-17T1100,2319A,119.0141,25.4325,莆田市,荔城区仓后路,颗粒物(PM10),57,63,53,34,23,68,,34,34,14,14,4,4,0.6,0.6
2025-07-17T1100,2320A,119.0015,25.4553,莆田市,莆田市监测站,细颗粒物(PM2.5),65,55,49,47,30,70,,31,31,14,13,5,5,0.6,0.5
2025-07-17T1100,2321A,119.1119,25.4561,莆田市,涵江区六中,,44,44,44,21,23,63,,35,35,11,13,3,3,0.4,0.4
2025-07-17T1100,2322A,119.1013,25.3215,莆田市,秀屿区政府,颗粒物(PM10),56,61,37,36,20,81,,45,45,8,9,3,3,0.5,0.5
2025-07-17T1100,2323A,118.981,25.4792,莆田市,东圳水库,,,,,,,,,,,,,,,,
2025-07-17T1100,2392A,115.0312,35.7636,濮阳市,环保局,臭氧1小时,65,47,29,22,21,172,,123,123,12,12,7,5,0.6,0.5
2025-07-17T1100,2394A,115.0574,35.7609,濮阳市,油田运输公司,细颗粒物(PM2.5),54,42,41,38,24,160,,114,114,9,10,5,3,0.7,0.6
2025-07-17T1100,3021A,115,35.7668,濮阳市,濮水河管理处,,48,37,36,23,22,152,,104,104,9,10,4,3,0.4,0.4
2025-07-17T1100,4216A,115.0924,35.7686,濮阳市,任丘路479号,,46,44,45,24,24,146,,106,106,9,11,7,6,0.4,0.4
2025-07-17T1100,2601A,100.98,22.7633,普洱市,市环保局,,24,24,27,9,11,44,,50,50,7,7,4,4,0.6,0.6
2025-07-17T1100,2602A,100.9817,22.8322,普洱市,普洱第二中学,,16,14,25,6,11,50,,43,43,6,9,7,7,0.5,0.5
2025-07-17T1100,2262A,131.0518,45.8751,七台河市,新一中,,24,,14,3,11,76,,,,10,11,10,10,1.0,1
2025-07-17T1100,3345A,131.0577,45.7879,七台河市,中波台,,,17,6,8,8,68,,37,37,,17,,8,0.6,0.6
2025-07-17T1100,3637A,131.0176,45.7761,七台河市,人民广场,,24,,14,15,10,74,,43,43,7,11,11,11,0.5,0.5
2025-07-17T1100,3684A,130.8781,45.8222,七台河市,新建矿广场,,18,17,8,6,6,57,,28,28,14,17,10,10,0.5,0.5
2025-07-17T1100,1779A,123.9305,47.3636,齐齐哈尔市,安居小区,,,23,17,11,7,49,,26,26,8,15,2,3,,0.8
2025-07-17T1100,1780A,123.9488,47.3386,齐齐哈尔市,中心广场,,20,20,17,3,3,49,,31,31,7,14,4,4,0.4,0.4
2025-07-17T1100,1781A,123.9483,47.3227,齐齐哈尔市,农牧车辆厂,,,24,20,3,8,51,,32,32,7,12,,6,0.4,0.2
2025-07-17T1100,1783A,123.945,47.2988,齐齐哈尔市,市环境监测站,,14,12,12,7,6,44,,27,27,9,13,5,5,0.4,0.4
2025-07-17T1100,3662A,123.6333,47.2075,齐齐哈尔市,富区青少年活动中心,,14,13,8,3,5,43,,26,26,11,15,4,4,0.2,0.2
2025-07-17T1100,2591A,107.9783,26.5747,黔东南苗族侗族自治州,市环境监测站,,20,18,16,13,11,61,,52,52,4,4,2,2,0.4,0.4
2025-07-17T1100,2881A,107.8908,26.5311,黔东南苗族侗族自治州,凯里学院,,,,16,14,13,67,,44,44,,7,,2,0.4,0.3
2025-07-17T1100,2593A,107.5228,26.2403,黔南布依族苗族自治州,小围寨,,17,9,10,7,7,54,,39,39,3,4,2,3,0.4,0.4
2025-07-17T1100,3538A,107.5175,26.2978,黔南布依族苗族自治州,沙坝,,,17,14,3,1,56,,30,30,,6,,3,0.5,0.4
2025-07-17T1100,2589A,104.9022,25.0925,黔西南布依族苗族自治州,场坝街,,38,38,29,6,11,64,,28,28,17,17,14,21,0.4,0.4
2025-07-17T1100,2590A,104.8811,25.0992,黔西南布依族苗族自治州,坪东大道,,,25,20,21,14,63,,23,23,,16,10,7,,0.3
2025-07-17T1100,2502A,108.6236,21.9667,钦州市,市环保站,,22,22,24,3,10,66,,37,37,4,12,3,3,0.3,0.4
2025-07-17T1100,2503A,108.6549,21.9481,钦州市,沙埠小学,,28,23,29,14,12,87,,32,32,6,13,3,2,0.9,0.7
2025-07-17T1100,2504A,108.5989,21.7431,钦州市,港区一小,,,,33,,12,65,,44,44,,11,,2,0.4,0.4
2025-07-17T1100,3404A,108.5959,21.9633,钦州市,北职校,,22,22,31,6,12,67,,30,30,1,13,3,2,0.4,0.5
2025-07-17T1100,1043A,119.7493,40.0116,秦皇岛市,第一关,,31,20,23,6,10,99,,59,59,6,33,5,5,0.2,0.2
2025-07-17T1100,1044A,119.5897,39.9499,秦皇岛市,监测站,,33,33,33,6,8,99,,62,62,13,23,5,6,0.3,0.4
2025-07-17T1100,1046A,119.5251,39.9041,秦皇岛市,建设大厦,,33,15,30,3,8,104,,44,44,10,32,5,5,0.3,0.4
2025-07-17T1100,3132A,119.610547,39.943889,秦皇岛市,文明里,,32,15,29,3,7,100,,69,69,13,21,5,8,0.2,0.2
2025-07-17T1100,4198A,119.5090,39.8253,秦皇岛市,北戴河轮滑馆,,31,28,28,9,11,97,,57,57,8,14,3,2,0.3,0.4
2025-07-17T1100,1307A,120.6659,36.2403,青岛市,仰口,,,11,28,8,19,133,,128,128,6,7,8,7,,
2025-07-17T1100,1310A,120.4134,36.0658,青岛市,市南区东部子站,,49,39,28,12,19,155,,112,112,18,6,8,7,0.3,0.2
2025-07-17T1100,1311A,120.3664,36.1032,青岛市,四方区子站,臭氧1小时,60,31,28,22,20,168,,113,113,14,11,3,2,0.3,0.3
2025-07-17T1100,1312A,120.2994,36.054,青岛市,市南区西部子站,,47,27,29,17,18,148,,106,106,11,15,9,8,0.6,0.6
2025-07-17T1100,1313A,120.4581,36.0858,青岛市,崂山区子站,,43,29,24,17,17,135,,114,114,35,13,9,8,0.2,0.3
2025-07-17T1100,1315A,120.3999,36.3083,青岛市,城阳区子站,,46,22,27,7,12,146,,106,106,6,8,7,6,0.4,0.4
2025-07-17T1100,1966A,120.0405,35.8735,青岛市,黄岛区4号,,,,25,14,14,162,,121,121,13,12,11,10,0.4,0.5
2025-07-17T1100,3362A,120.5014,36.4034,青岛市,即墨2号,,41,18,27,13,15,131,,95,95,5,10,3,3,0.3,0.3
2025-07-17T1100,3642A,120.3503,36.0736,青岛市,市北区南部,,47,28,28,19,18,148,,104,104,24,21,12,9,0.6,0.6
2025-07-17T1100,3643A,120.3948,36.1805,青岛市,李沧区北部,,,,25,,23,144,,93,93,9,9,,5,,0.3
2025-07-17T1100,4290A,120.1969,35.9546,青岛市,珠江路669号,,41,27,27,12,20,130,,85,85,23,23,7,7,0.5,0.6
2025-07-17T1100,1702A,113.0426,23.691,清远市,环保大楼,,,69,39,44,28,,,28,28,13,17,6,6,0.8,0.7
2025-07-17T1100,1703A,113.0208,23.7106,清远市,凤城街办,细颗粒物(PM2.5),74,68,44,54,24,96,,32,32,16,22,5,8,0.7,0.6
2025-07-17T1100,3025A,113.0477,23.6344,清远市,技师学院,颗粒物(PM10),52,53,42,30,22,89,,38,38,10,18,18,13,0.6,0.5
2025-07-17T1100,3318A,112.9903,23.7403,清远市,清新太和,细颗粒物(PM2.5),65,58,40,47,22,100,,37,37,15,15,5,6,0.7,0.6
2025-07-17T1100,3455A,113.076,23.7198,清远市,清城东城,细颗粒物(PM2.5),63,64,35,45,20,89,,35,35,15,13,6,6,0.7,0.6
2025-07-17T1100,2661A,107.6325,35.7357,庆阳市,庆阳五中,,42,25,26,7,7,132,,115,115,7,6,7,6,0.4,0.4
2025-07-17T1100,2662A,107.6364,35.7067,庆阳市,市环保局,,43,26,28,6,7,137,,121,121,4,5,13,11,0.7,0.6
2025-07-17T1100,1916A,103.7897,25.5035,曲靖市,环境监测站,颗粒物(PM10),51,51,36,33,19,81,,25,25,16,16,12,8,0.7,0.5
2025-07-17T1100,1917A,103.8,25.5364,曲靖市,烟厂办公区,颗粒物(PM10),54,58,39,22,19,85,,34,34,12,15,15,9,0.8,0.7
2025-07-17T1100,3376A,103.7947,25.462,曲靖市,南苑二区,,35,35,28,24,16,86,,34,34,8,11,5,5,0.5,0.5
2025-07-17T1100,3377A,103.7444,25.5261,曲靖市,曲靖师范学院,,50,50,35,34,25,77,,27,27,14,15,14,10,0.6,0.4
2025-07-17T1100,1264A,118.8692,28.9398,衢州市,环保大楼,,37,37,45,25,27,91,,31,31,9,16,3,4,0.4,0.4
2025-07-17T1100,1265A,118.8709,28.9666,衢州市,实验学校,,28,28,47,19,24,85,,31,31,8,18,4,7,0.5,0.5
2025-07-17T1100,1266A,118.8621,28.9808,衢州市,衢州学院,,,40,40,25,26,96,,25,25,,24,,4,0.4,0.4
2025-07-17T1100,1611A,118.5819,24.9117,泉州市,涂山街,,49,49,39,33,22,83,,45,45,15,16,1,2,0.6,0.5
2025-07-17T1100,1612A,118.5972,24.8978,泉州市,津头埔,,,47,37,40,21,92,,39,39,,12,2,2,0.6,0.6
2025-07-17T1100,1613A,118.6663,24.9424,泉州市,万安,颗粒物(PM10),55,59,42,37,20,100,,35,35,12,14,1,2,0.5,0.4
2025-07-17T1100,1614A,118.6117,24.9604,泉州市,清源山,,,,,,,,,,,,,,,,
2025-07-17T1100,3529A,118.6333,24.9264,泉州市,城华南路,细颗粒物(PM2.5),57,60,39,40,23,96,,38,38,10,13,4,4,0.5,0.4
2025-07-17T1100,2626A,88.8876,29.2718,日喀则市,日喀则监测站,,22,9,6,3,2,68,,64,64,9,8,15,16,0.5,0.3
2025-07-17T1100,3726A,88.8781,29.2426,日喀则市,林业技术推广中心,,,26,9,3,2,82,,71,71,,3,10,8,0.4,0.4
2025-07-17T1100,1659A,119.471,35.4209,日照市,监测站,,42,12,20,6,16,134,,105,105,7,13,6,5,0.4,0.6
2025-07-17T1100,1660A,119.523,35.4216,日照市,市政府广场,,41,,21,10,13,130,,109,109,3,7,5,5,0.6,0.8
2025-07-17T1100,1661A,119.5587,35.4044,日照市,港务局,,44,17,23,14,20,140,,118,118,8,10,9,9,0.7,0.7
2025-07-17T1100,3507A,119.5328,35.4625,日照市,职业技术学院,,,,21,14,15,128,,112,112,,9,5,5,,0.6
2025-07-17T1100,3604A,119.3266,35.1044,日照市,岚山环保分局,,44,22,29,9,14,140,,96,96,15,16,16,17,1.0,1.4
2025-07-17T1100,1835A,111.1922,34.7752,三门峡市,市政府,颗粒物(PM10),51,52,46,23,23,145,,114,114,11,10,6,6,0.9,0.7
2025-07-17T1100,1836A,111.1587,34.7942,三门峡市,开发区,,49,43,45,22,22,156,,120,119,15,13,15,10,0.6,0.5
2025-07-17T1100,1838A,111.143,34.7955,三门峡市,风景区,,,,22,,25,,,,,,7,,6,,0.5
2025-07-17T1100,3039A,111.1911,34.7829,三门峡市,三门峡市第一小学,细颗粒物(PM2.5),60,55,48,43,23,155,,118,118,16,13,18,11,0.6,0.6
2025-07-17T1100,3598A,111.1,34.7167,三门峡市,富达温泉假日酒店,,45,44,53,22,26,144,,117,117,7,9,13,14,0.8,0.9
2025-07-17T1100,2324A,117.6211,26.2625,三明市,三钢,,46,46,36,26,24,95,,37,37,11,14,8,9,1.0,1.3
2025-07-17T1100,2325A,117.635,26.2714,三明市,三明二中,,43,43,35,25,18,95,,38,38,8,12,3,2,0.8,0.9
2025-07-17T1100,2326A,117.6028,26.2378,三明市,三元区政府,,39,39,33,26,19,107,,39,39,10,11,7,3,0.4,0.3
2025-07-17T1100,2327A,117.7275,26.3108,三明市,洋溪,,,,,,,,,,,,,,,,
2025-07-17T1100,1876A,109.5078,18.2489,三亚市,河东子站,,42,42,14,14,7,55,,48,48,3,5,3,3,0.4,0.3
2025-07-17T1100,1877A,109.4964,18.2681,三亚市,河西子站,,19,19,14,3,7,52,,42,42,2,4,2,2,0.2,0.2
2025-07-17T1100,3540A,109.7348,18.3443,三亚市,君悦子站,,21,18,14,7,7,66,,47,47,6,7,2,2,0.3,0.2
2025-07-17T1100,2624A,91.7608,29.2313,山南市,山南监测站,,19,11,7,3,3,58,,45,44,12,12,8,6,0.3,0.3
2025-07-17T1100,2625A,91.7706,29.2436,山南市,山南人民医院,,19,19,11,6,4,60,,48,47,12,11,8,6,0.3,0.3
2025-07-17T1100,1674A,116.6794,23.3667,汕头市,金平子站,,30,20,27,13,16,96,,56,56,7,9,3,3,0.7,0.7
2025-07-17T1100,1675A,116.7244,23.3633,汕头市,龙湖子站,,33,33,30,14,17,99,,56,56,8,9,6,6,0.7,0.7
2025-07-17T1100,1676A,116.7258,23.2775,汕头市,濠江子站,,47,47,36,27,18,74,,42,42,8,8,6,5,0.8,0.8
2025-07-17T1100,1677A,116.7519,23.4714,汕头市,澄海子站,,39,39,33,20,18,118,,58,58,10,9,4,3,0.7,0.7
2025-07-17T1100,1678A,116.6092,23.2539,汕头市,潮阳子站,,30,30,29,16,15,94,,57,57,4,5,5,4,0.5,0.5
2025-07-17T1100,3444A,116.454,23.2684,汕头市,潮南峡山,,32,28,28,21,16,102,,55,55,7,7,7,6,0.8,0.7
2025-07-17T1100,3624A,116.4069,23.2533,汕头市,潮南子站,,41,41,31,22,15,101,,55,55,7,5,4,4,0.5,0.5
2025-07-17T1100,1693A,115.3653,22.775,汕尾市,市环保局,,34,34,23,10,10,56,,36,36,7,6,2,2,0.5,0.5
2025-07-17T1100,1694A,115.3706,22.7898,汕尾市,市政府,,,41,24,21,14,80,,41,41,8,5,,3,0.5,0.5
2025-07-17T1100,1695A,115.3622,22.7925,汕尾市,新城中学,,35,35,25,13,11,71,,39,39,8,7,3,3,0.5,0.4
2025-07-17T1100,2645A,109.9154,33.8715,商洛市,监测站,,28,28,32,15,17,43,,31,31,8,9,6,5,0.6,0.6
2025-07-17T1100,3045A,109.9643,33.8471,商洛市,商州区中学,,37,37,36,12,15,44,,30,30,11,13,4,4,0.4,0.4
2025-07-17T1100,2408A,115.6702,34.4285,商丘市,环境监测站,,48,37,45,21,29,152,,103,103,9,12,6,4,0.6,0.5
2025-07-17T1100,2409A,115.6458,34.4045,商丘市,粮食局,,48,30,41,15,20,153,,106,106,9,11,6,5,0.7,0.6
2025-07-17T1100,2410A,115.6293,34.3948,商丘市,睢阳区环保局,颗粒物(PM10),86,122,49,24,23,157,,111,111,9,9,4,4,0.4,0.3
2025-07-17T1100,3171A,115.6071,34.4465,商丘市,梁园区档案局,,,44,44,22,24,144,,77,77,,10,4,3,0.7,0.6
2025-07-17T1100,1141A,121.4,31.238,上海市,普陀,颗粒物(PM10),51,52,43,34,29,152,,83,83,12,18,6,6,0.5,0.5
2025-07-17T1100,1142A,121.478,31.2036,上海市,十五厂,颗粒物(PM10),51,51,44,32,27,151,,67,67,17,20,8,8,0.7,0.7
2025-07-17T1100,1143A,121.467,31.3008,上海市,虹口,,48,46,45,31,28,151,,78,78,12,16,9,9,0.9,0.9
2025-07-17T1100,1147A,121.425,31.2261,上海市,静安监测站,,46,42,42,32,28,145,,74,74,13,18,4,5,0.7,0.7
2025-07-17T1100,1148A,121.703,31.1907,上海市,浦东川沙,,41,41,38,28,28,122,,68,68,10,18,9,9,0.8,0.8
2025-07-17T1100,1149A,121.533,31.2284,上海市,浦东新区监测站,,47,44,42,24,24,149,,75,75,13,14,8,7,0.4,0.4
2025-07-17T1100,1150A,121.577,31.2071,上海市,浦东张江,颗粒物(PM10),51,51,67,27,28,150,,79,79,11,15,6,6,0.9,0.9
2025-07-17T1100,3265A,121.4316,31.3322,上海市,宝山庙行,臭氧1小时,54,51,44,32,27,163,,82,82,14,17,6,6,0.5,0.5
2025-07-17T1100,3266A,121.8791,31.4662,上海市,崇明上实东滩,,45,33,39,25,27,144,,68,68,13,20,3,4,0.8,0.7
2025-07-17T1100,3268A,121.3162,31.2838,上海市,嘉定南翔,颗粒物(PM10),51,52,51,33,29,140,,71,71,9,19,8,7,0.5,0.5
2025-07-17T1100,3269A,121.3359,30.7456,上海市,金山新城,,42,41,45,26,23,134,,80,80,7,9,3,4,0.9,0.9
2025-07-17T1100,3270A,121.4996,31.0739,上海市,闵行浦江,,43,43,42,28,26,126,,70,70,10,13,3,4,1.3,1.2
2025-07-17T1100,3271A,121.2886,31.1663,上海市,青浦徐泾,,47,43,42,30,25,150,,74,74,11,19,6,6,0.6,0.6
2025-07-17T1100,3272A,121.2186,31.0378,上海市,松江图书馆,,49,42,37,33,26,155,,80,80,8,13,7,7,0.7,0.6
2025-07-17T1100,3273A,121.3902,31.2059,上海市,长宁仙霞,,49,49,45,28,25,131,,66,66,17,20,7,7,0.5,0.6
2025-07-17T1100,3274A,121.7965,31.0507,上海市,浦东惠南,,41,33,44,24,28,130,,72,72,12,16,9,9,0.7,0.6
2025-07-17T1100,3544A,121.4891,30.925,上海市,奉贤南桥新城,,43,43,43,26,31,122,,80,80,9,15,8,8,0.8,0.8
2025-07-17T1100,4183A,121.4174,31.16637,上海市,冠生园路458号,细颗粒物(PM2.5),53,52,39,37,27,128,,62,62,13,18,4,4,0.9,0.9
2025-07-17T1100,4205A,121.5419,31.2683,上海市,宁武路151号,颗粒物(PM10),53,56,50,34,27,136,,63,63,20,22,7,7,0.8,0.8
2025-07-17T1100,2381A,118.005,28.4572,上饶市,百草园,,,,,,,,,,,,,,,,
2025-07-17T1100,2382A,117.9756,28.4436,上饶市,市监测站,,38,38,33,22,18,71,,35,35,4,7,12,14,0.5,0.5
2025-07-17T1100,2383A,117.9519,28.4628,上饶市,凤凰光学,,,41,36,22,20,69,,31,31,,9,,22,,0.8
2025-07-17T1100,3685A,117.897,28.4315,上饶市,双创科技城,颗粒物(PM10),51,52,39,30,22,69,,38,38,19,16,13,27,0.6,0.5
2025-07-17T1100,4211A,118.1904,28.4448,上饶市,裕丰大道,,22,22,17,3,14,53,,31,31,3,3,6,6,0.7,0.7
2025-07-17T1100,1669A,113.5824,24.7733,韶关市,市八中,颗粒物(PM10),56,62,50,30,28,136,,65,65,15,16,16,12,0.7,0.6
2025-07-17T1100,1671A,113.5917,24.7972,韶关市,园林处,,46,35,37,32,26,128,,57,57,10,13,9,10,0.6,0.5
2025-07-17T1100,1673A,113.5971,24.6863,韶关市,曲江监测站,,,52,42,38,26,110,,60,60,,17,13,10,,0.8
2025-07-17T1100,2809A,113.6668,24.7756,韶关市,大学路288号,颗粒物(PM10),59,67,40,36,27,138,,57,57,18,13,8,10,1.2,0.7
