timepoint,stationcode,longitude,latitude,area,positionname,primarypollutant,aqi,pm10,pm10_24h,pm2_5,pm2_5_24h,o3,o3_24h,o3_8h,o3_8h_24h,no2,no2_24h,so2,so2_24h,co,co_24h
2025-07-17T2200,2566A,102.1879,31.914,阿坝藏族羌族自治州,州农科所,,37,37,44,23,19,40,,74,57,15,8,14,14,0.8,1.1
2025-07-17T2200,2568A,102.2502,31.8896,阿坝藏族羌族自治州,马师校,,35,,22,24,18,26,,82,61,21,11,6,7,0.7,0.7
2025-07-17T2200,3994A,102.2165,31.9024,阿坝藏族羌族自治州,马尔康中学西区,,40,28,18,28,18,44,,86,71,9,6,6,7,1.3,0.6
2025-07-17T2200,2695A,80.292,41.1694,阿克苏地区,电视台,颗粒物(PM10),98,146,112,60,36,74,,90,90,11,12,5,8,0.4,0.4
2025-07-17T2200,2696A,80.2613,41.1551,阿克苏地区,艺术中心,颗粒物(PM10),116,181,112,73,48,,,101,101,2,8,3,3,0.4,0.4
2025-07-17T2200,2205A,105.6985,38.8411,阿拉善盟,蒙二幼,,48,27,22,11,6,151,,144,143,9,9,9,9,0.4,0.4
2025-07-17T2200,2206A,105.724,38.8516,阿拉善盟,环保局新楼,,48,22,18,7,6,152,,142,140,4,4,11,11,0.7,0.7
2025-07-17T2200,2708A,88.1264,47.8517,阿勒泰地区,市站,,33,29,28,10,5,104,,111,109,6,8,2,2,0.3,0.3
2025-07-17T2200,2630A,80.1161,32.5,阿里地区,阿里监测站,,,,3,,2,97,,102,102,10,5,13,13,,0.2
2025-07-17T2200,3192A,80.0903,32.5028,阿里地区,阿里藏医院,,35,6,7,3,3,111,,106,106,2,2,6,6,0.4,0.4
2025-07-17T2200,2642A,109.0318,32.6537,安康市,香溪洞,,23,23,35,11,17,63,,103,88,5,8,6,10,0.4,0.5
2025-07-17T2200,2644A,109.0072,32.6975,安康市,汉滨区检察院,,18,18,24,11,16,42,,95,73,6,6,4,10,0.6,0.6
2025-07-17T2200,4054A,109.0325,32.6913,安康市,市邮政管理局,,23,23,36,15,22,51,,93,74,9,10,4,7,0.5,0.6
2025-07-17T2200,2291A,117.0809,30.5177,安庆市,环科院,,43,28,20,25,16,136,,146,139,4,9,3,4,0.6,0.6
2025-07-17T2200,2292A,117.0331,30.5119,安庆市,马山宾馆,,44,33,22,28,14,140,,140,133,5,13,2,3,0.4,0.4
2025-07-17T2200,2294A,116.9896,30.6145,安庆市,安庆大学,,36,26,20,21,13,114,,131,117,7,9,2,2,0.5,0.5
2025-07-17T2200,3173A,117.0598,30.5351,安庆市,市人大,,45,26,20,24,15,143,,151,140,8,10,3,3,0.6,0.6
2025-07-17T2200,3123A,105.9408,26.2431,安顺市,凤凰山,,19,16,18,13,12,59,,86,80,10,7,3,3,0.5,0.5
2025-07-17T2200,3124A,105.9439,26.2564,安顺市,金钟山,,19,15,18,10,14,58,,92,82,6,5,4,5,0.4,0.4
2025-07-17T2200,3125A,105.8983,26.2481,安顺市,娄家坡,,18,11,14,9,12,56,,88,77,4,3,4,5,0.4,0.5
2025-07-17T2200,1819A,114.3551,36.1017,安阳市,红庙街,颗粒物(PM10),51,51,36,25,17,157,,163,163,8,9,4,4,0.6,0.5
2025-07-17T2200,1820A,114.361,36.0681,安阳市,银杏小区,,45,42,42,31,22,134,,156,153,7,8,5,6,0.6,0.5
2025-07-17T2200,3141A,114.3922,36.0878,安阳市,信访局,颗粒物(PM10),51,52,35,25,17,155,,173,171,7,11,6,5,0.9,0.7
2025-07-17T2200,3669A,114.4705,36.0637,安阳市,左辅环卫站,,48,48,39,32,22,115,,152,143,16,8,4,5,0.9,0.7
2025-07-17T2200,3703A,114.2917,36.0949,安阳市,安钢职工学校,,48,42,50,30,21,152,,156,155,2,11,2,4,0.7,0.7
2025-07-17T2200,1748A,123.044,41.1196,鞍山市,深沟寺,颗粒物(PM10),57,64,38,28,16,46,,126,94,25,14,7,7,1.9,1
2025-07-17T2200,1749A,123.011,41.0931,鞍山市,太阳城,,22,22,30,13,19,49,,122,96,22,20,8,12,1.4,1.5
2025-07-17T2200,1750A,123.0485,41.1442,鞍山市,太平,颗粒物(PM10),54,57,37,27,17,52,,136,98,25,17,11,9,1.8,1.2
2025-07-17T2200,1751A,122.9642,41.0971,鞍山市,铁西三道街,,38,38,41,22,23,41,,117,92,32,25,10,11,1.5,1.3
2025-07-17T2200,1753A,123.022,41.0821,鞍山市,明达新区,,29,29,28,17,17,55,,124,94,18,16,7,9,1.7,1.4
2025-07-17T2200,4201A,122.9446,41.0826,鞍山市,兴盛南路290号,,37,37,45,16,17,34,,124,88,35,28,10,11,1.0,1.4
2025-07-17T2200,2195A,107.4212,40.761,巴彦淖尔市,附二中,,39,39,25,20,13,124,,165,157,11,11,5,8,0.6,0.5
2025-07-17T2200,2196A,107.37,40.7372,巴彦淖尔市,市环保大楼,,45,45,33,8,10,131,,155,151,13,11,6,6,0.5,0.4
2025-07-17T2200,1956A,86.1472,41.7538,巴音郭楞蒙古自治州,孔雀公园,颗粒物(PM10),54,58,75,27,23,93,,101,69,18,17,14,4,0.3,0.3
2025-07-17T2200,1957A,86.1972,41.7166,巴音郭楞蒙古自治州,棉纺厂,颗粒物(PM10),65,79,82,12,15,75,,92,85,37,22,4,6,0.3,0.3
2025-07-17T2200,1958A,86.2357,41.7173,巴音郭楞蒙古自治州,经济开发区,颗粒物(PM10),52,54,51,8,13,100,,96,96,8,9,2,4,0.3,0.3
2025-07-17T2200,2914A,106.7677,31.8794,巴中市,苏山坪,,33,18,32,17,24,104,,120,112,4,7,4,4,0.4,0.5
2025-07-17T2200,3181A,106.7768,31.8526,巴中市,市五中,,32,22,34,14,26,102,,120,111,3,13,8,8,0.4,0.6
2025-07-17T2200,3183A,106.7418,31.8654,巴中市,圣泉水务公司,,34,17,31,14,24,106,,128,115,1,7,6,6,0.6,0.7
2025-07-17T2200,3616A,106.7616,31.8344,巴中市,市中心医院,,32,21,36,21,26,100,,116,108,5,15,7,7,0.3,0.5
2025-07-17T2200,2235A,122.7911,45.6077,白城市,洮北区环保局,,21,14,13,12,11,65,,86,83,3,2,4,4,0.3,0.2
2025-07-17T2200,2236A,122.8738,45.5725,白城市,市环保局,,18,9,8,3,5,55,,84,80,11,5,4,5,0.4,0.4
2025-07-17T2200,2231A,126.4219,41.9171,白山市,喜丰,,20,20,23,9,8,32,,82,67,22,14,8,5,0.7,0.6
2025-07-17T2200,2232A,126.4077,41.9419,白山市,环保局,,22,15,18,3,9,70,,88,79,7,10,3,4,0.6,0.6
2025-07-17T2200,2647A,104.1724,36.5446,白银市,第三小学,,40,40,54,22,28,87,,108,98,15,16,13,17,0.8,0.5
2025-07-17T2200,2648A,104.1465,36.5482,白银市,动力公司,颗粒物(PM10),55,59,48,23,22,81,,103,95,8,14,8,19,0.5,0.5
2025-07-17T2200,2512A,106.6103,23.9011,百色市,市监测站,,28,26,30,19,14,47,,115,100,32,11,6,6,0.6,0.5
2025-07-17T2200,2513A,106.6538,23.8859,百色市,市中心血站,,40,,37,28,20,79,,109,102,22,20,11,5,0.8,0.7
2025-07-17T2200,3406A,106.6085,23.8798,百色市,祈福高中,颗粒物(PM10),72,94,38,43,18,31,,108,94,41,16,6,6,0.8,0.6
2025-07-17T2200,2270A,117.396,32.939,蚌埠市,工人疗养院,,37,24,26,11,10,116,,166,157,16,8,4,4,0.4,0.4
2025-07-17T2200,2271A,117.3605,32.9427,蚌埠市,百货大楼,,39,19,23,7,10,122,,168,159,13,7,5,5,0.4,0.4
2025-07-17T2200,2273A,117.4185,32.8911,蚌埠市,蚌埠学院,,39,24,21,14,13,123,,164,156,17,9,5,6,0.4,0.4
2025-07-17T2200,2274A,117.3533,32.9673,蚌埠市,淮上区政府,,37,27,25,11,12,118,,166,155,15,11,6,5,0.6,0.5
2025-07-17T2200,2275A,117.3145,32.8977,蚌埠市,高新区,,36,14,23,11,12,114,,166,156,25,11,8,6,0.5,0.5
2025-07-17T2200,3715A,117.3092,32.9314,蚌埠市,蚌埠田家炳中学,,41,27,26,14,15,130,,163,157,10,8,7,6,0.3,0.3
2025-07-17T2200,1585A,109.8756,40.6532,包头市,市环境监测站,,41,41,22,16,10,67,,148,130,51,27,13,6,0.8,0.6
2025-07-17T2200,1587A,109.9991,40.5842,包头市,包头八中,,47,47,38,18,12,96,,133,129,34,29,15,8,0.8,0.7
2025-07-17T2200,1588A,109.8538,40.6821,包头市,青山宾馆,,45,45,21,23,11,36,,146,127,72,28,10,7,1.0,0.5
2025-07-17T2200,1589A,109.8642,40.6288,包头市,惠龙物流,,38,38,26,19,11,94,,141,133,27,19,8,7,0.5,0.5
2025-07-17T2200,1590A,110.0377,40.5546,包头市,东河鸿龙湾,,38,38,26,12,6,77,,142,129,38,20,15,5,1.1,0.7
2025-07-17T2200,3283A,109.9154,40.5685,包头市,滨河大厦,,30,30,21,9,10,90,,144,136,30,21,4,5,0.6,0.5
2025-07-17T2200,3419A,109.9447,40.6261,包头市,包头市委党校,,39,39,17,14,10,60,,146,130,56,23,13,9,0.6,0.7
2025-07-17T2200,3683A,109.8331,40.6576,包头市,昆区政府,,32,32,25,21,13,86,,148,139,36,24,14,6,0.8,0.7
2025-07-17T2200,1930A,107.185,34.3063,宝鸡市,庙沟村,,41,41,36,20,17,111,,184,170,16,10,4,4,0.5,0.5
2025-07-17T2200,1931A,107.0708,34.3017,宝鸡市,竹园沟,,22,16,36,11,19,70,,173,121,9,11,7,8,0.9,0.8
2025-07-17T2200,1932A,107.1906,34.3672,宝鸡市,三陆医院,,43,43,47,16,22,103,,184,172,21,23,7,8,0.6,0.7
2025-07-17T2200,1933A,107.1431,34.3547,宝鸡市,监测站,颗粒物(PM10),54,57,45,23,23,122,,188,176,14,14,9,10,0.4,0.5
2025-07-17T2200,1934A,107.1186,34.3739,宝鸡市,技工学校,颗粒物(PM10),51,51,54,31,25,114,,186,171,16,12,6,8,0.7,0.7
2025-07-17T2200,1936A,107.2058,34.3497,宝鸡市,文理学院,颗粒物(PM10),52,53,44,18,22,116,,194,183,14,13,7,8,0.5,0.6
2025-07-17T2200,1937A,107.2386,34.3622,宝鸡市,三迪小学,,48,48,47,19,26,114,,188,177,16,16,7,9,0.5,0.5
2025-07-17T2200,4308A,107.3898,34.3601,宝鸡市,陈仓区北开路21号,,,,41,20,20,102,,193,181,13,13,7,13,0.4,0.6
2025-07-17T2200,1051A,115.493,38.8632,保定市,游泳馆,,,40,33,14,15,,,155,153,38,13,2,2,0.1,0.2
2025-07-17T2200,1052A,115.5213,38.8959,保定市,华电二区,,33,22,29,12,16,104,,147,141,19,12,3,3,0.2,0.8
2025-07-17T2200,1053A,115.4713,38.9108,保定市,接待中心,,38,38,34,12,13,106,,142,138,18,10,3,3,0.3,0.4
2025-07-17T2200,1054A,115.4612,38.8416,保定市,地表水厂,颗粒物(PM10),54,57,46,15,14,103,,155,147,23,11,2,2,0.0,0.3
2025-07-17T2200,3581A,115.31981,38.95208,保定市,满城区生态环境分局,,36,36,26,7,13,92,,149,137,19,9,2,2,0.3,0.3
2025-07-17T2200,3582A,115.47694,38.76408,保定市,清苑区第二中学,颗粒物(PM10),59,67,46,17,18,89,,154,144,32,12,2,2,0.5,0.6
2025-07-17T2200,3583A,115.62909,39.02311,保定市,徐水物探局,颗粒物(PM10),54,57,29,27,12,64,,140,128,36,9,1,2,0.3,0.3
2025-07-17T2200,4004A,115.4202,38.8656,保定市,双鹰农机,,35,31,26,11,16,111,,164,158,28,17,6,6,0.2,0.2
2025-07-17T2200,4034A,115.5150,38.8590,保定市,植保所站,,44,44,34,16,13,104,,160,152,29,13,3,3,0.2,0.3
2025-07-17T2200,2594A,99.1678,25.1081,保山市,市环境监测站,,29,,18,20,16,75,,93,93,6,7,2,6,0.4,0.4
2025-07-17T2200,2595A,99.1711,25.1328,保山市,市环保局,,26,19,22,18,11,78,,100,95,3,5,7,7,0.3,0.3
2025-07-17T2200,1867A,109.1436,21.4086,北海市,海滩公园,,,38,32,3,4,,,56,52,4,3,2,1,0.5,0.6
2025-07-17T2200,1868A,109.0981,21.4661,北海市,新市环保局,,21,,15,12,8,66,,67,67,5,4,2,2,0.3,0.3
2025-07-17T2200,1869A,109.1778,21.5233,北海市,北海工业园,,20,15,19,7,9,63,,74,68,4,6,3,3,0.3,0.3
2025-07-17T2200,3400A,109.1911,21.4415,北海市,龙潭自来水厂,,21,16,14,7,8,65,,73,72,5,4,4,5,0.4,0.5
2025-07-17T2200,1001A,116.3621,39.8784,北京市,万寿西宫,,34,19,12,11,7,108,,138,135,10,16,2,2,0.4,0.5
2025-07-17T2200,1002A,116.2202,40.2915,北京市,定陵,,13,13,4,3,3,31,,106,78,2,2,3,4,0.3,0.3
2025-07-17T2200,1003A,116.4174,39.9289,北京市,东四,,37,17,11,6,5,118,,138,137,18,16,4,4,0.3,0.3
2025-07-17T2200,1004A,116.4072,39.8863,北京市,天坛,,26,14,11,8,6,83,,132,126,15,15,4,4,0.4,0.5
2025-07-17T2200,1005A,116.462,39.9365,北京市,农展馆,,34,20,11,9,7,107,,118,117,18,18,2,3,0.5,0.5
2025-07-17T2200,1006A,116.3392,39.9295,北京市,官园,,32,25,14,12,6,101,,135,132,22,19,4,4,0.4,0.5
2025-07-17T2200,1007A,116.2878,39.9611,北京市,海淀万柳,,29,29,13,9,6,76,,130,121,37,23,3,3,0.4,0.4
2025-07-17T2200,1008A,116.6636,40.135,北京市,顺义新城,,25,23,14,17,9,54,,116,96,29,9,2,2,0.4,0.4
2025-07-17T2200,1009A,116.6275,40.3275,北京市,怀柔镇,,20,9,10,3,5,64,,110,95,7,8,1,2,0.4,0.4
2025-07-17T2200,1010A,116.2296,40.217,北京市,昌平镇,,21,12,7,6,3,65,,110,96,6,9,2,4,0.4,0.3
2025-07-17T2200,1011A,116.3966,39.9821,北京市,奥体中心,,31,23,11,12,5,97,,108,108,19,15,4,4,0.3,0.2
2025-07-17T2200,3281A,115.9718,40.4529,北京市,延庆夏都,,25,18,8,10,6,80,,128,117,9,10,5,5,0.3,0.3
2025-07-17T2200,3418A,116.8336,40.4095,北京市,密云新城,,23,23,10,8,5,30,,100,79,14,8,3,2,0.7,0.6
2025-07-17T2200,3671A,116.088,39.9726,北京市,门头沟三家店,,20,20,10,13,5,57,,124,100,20,11,3,3,0.3,0.3
2025-07-17T2200,3672A,116.1541,39.8204,北京市,丰台云岗,,38,38,14,6,4,47,,127,113,37,13,2,2,0.4,0.3
2025-07-17T2200,3673A,116.6804,39.9081,北京市,通州东关,,40,29,21,10,9,128,,127,127,21,28,2,3,0.4,0.5
2025-07-17T2200,3674A,115.9577,39.7603,北京市,房山燕山,,29,8,8,3,4,92,,108,107,5,6,1,1,0.4,0.3
2025-07-17T2200,3675A,116.4672,39.7733,北京市,大兴旧宫,,25,18,18,3,8,77,,130,122,13,19,1,1,0.5,0.6
2025-07-17T2200,3694A,115.986,40.4563,北京市,延庆石河营,,21,21,8,9,4,67,,111,100,11,12,2,3,0.3,0.3
2025-07-17T2200,3695A,116.6151,40.3053,北京市,怀柔新城,,20,9,9,3,5,61,,104,91,6,5,1,1,0.5,0.5
2025-07-17T2200,3696A,116.2545,39.8768,北京市,丰台小屯,,26,26,12,9,6,68,,125,117,28,13,1,1,0.5,0.4
2025-07-17T2200,3697A,116.84,40.3844,北京市,密云镇,,32,32,10,11,6,46,,102,90,24,17,3,3,0.4,0.5
2025-07-17T2200,4182A,116.1942,39.9158,北京市,八角北路9号,,29,22,11,9,4,91,,134,125,12,12,1,2,0.5,0.2
2025-07-17T2200,4194A,117.0790,40.1518,北京市,洳河巡河路,,28,26,10,19,6,67,,104,98,18,7,2,2,0.4,0.3
2025-07-17T2200,1761A,123.8275,41.3064,本溪市,大峪,,50,50,24,18,10,33,,126,82,16,13,4,5,0.7,0.5
2025-07-17T2200,1762A,123.7567,41.3325,本溪市,溪湖,,41,41,27,23,13,49,,134,102,30,14,5,7,0.9,1.2
2025-07-17T2200,1763A,123.7169,41.3094,本溪市,彩屯,,34,34,30,21,18,45,,130,100,20,21,7,9,0.6,1
2025-07-17T2200,1764A,123.7669,41.2864,本溪市,东明,,44,44,31,18,11,48,,142,109,32,18,4,5,1.0,0.9
2025-07-17T2200,1765A,123.7992,41.2664,本溪市,新立屯,,29,29,20,13,8,52,,128,93,28,15,4,5,0.9,0.8
2025-07-17T2200,1766A,123.8142,41.3472,本溪市,威宁,,31,31,26,18,12,11,,122,70,22,13,4,5,0.8,0.7
2025-07-17T2200,2587A,105.2864,27.3125,毕节市,八中,细颗粒物(PM2.5),52,43,37,36,28,49,,112,93,18,16,4,5,0.5,0.4
2025-07-17T2200,2588A,105.31,27.2944,毕节市,师专,颗粒物(PM10),56,62,48,26,23,38,,112,94,33,18,4,4,0.6,0.5
2025-07-17T2200,4263A,105.3688,27.3598,毕节市,工业大道,,40,40,34,24,20,26,,111,81,36,23,7,7,0.8,0.7
2025-07-17T2200,1629A,118.0018,37.3617,滨州市,第二水厂,,39,31,26,12,18,122,,149,146,18,8,6,5,0.5,0.6
2025-07-17T2200,1630A,117.9776,37.393,滨州市,北中新校,,40,34,25,19,16,128,,148,146,24,11,13,11,0.4,0.4
2025-07-17T2200,3514A,117.9378,37.3956,滨州市,中海酒店,,44,36,24,17,19,138,,142,142,10,6,10,9,0.7,0.7
2025-07-17T2200,3515A,117.9378,37.3553,滨州市,开发区一中,,46,46,28,17,17,138,,155,153,19,13,16,14,1.0,0.5
2025-07-17T2200,3516A,118.0917,37.694,滨州市,金海六路,,41,41,29,9,17,88,,164,156,33,18,9,10,0.3,0.4
2025-07-17T2200,4028A,117.9956,37.3753,滨州市,滨州市西街道办事处,,42,29,22,22,18,134,,157,155,18,9,6,5,0.4,0.5
2025-07-17T2200,2311A,115.8072,33.8399,亳州市,污水处理厂,,37,37,31,21,22,111,,166,148,14,8,4,4,0.6,0.6
2025-07-17T2200,2312A,115.7789,33.8518,亳州市,三国揽胜宫,,40,40,38,24,23,125,,157,151,12,9,7,6,0.6,0.6
2025-07-17T2200,3332A,115.7633,33.8034,亳州市,亳州学院,,43,29,30,15,19,136,,162,158,15,7,3,5,0.6,0.6
2025-07-17T2200,2693A,82.0485,44.8556,博尔塔拉蒙古自治州,市党校,颗粒物(PM10),57,64,33,11,19,110,,112,111,9,9,3,4,0.0,0.1
2025-07-17T2200,2694A,82.0806,44.8969,博尔塔拉蒙古自治州,市环保局,,,,29,,10,111,,114,112,7,6,3,3,0.2,0.2
2025-07-17T2200,1071A,116.8842,38.2991,沧州市,沧县城建局,,39,35,43,11,23,124,,165,158,24,12,3,2,0.3,0.4
2025-07-17T2200,1072A,116.8584,38.3254,沧州市,电视转播站,,36,35,44,17,23,115,,154,150,21,14,2,3,0.3,0.4
2025-07-17T2200,1073A,116.8709,38.3228,沧州市,市环保局,,42,42,43,20,25,96,,150,144,29,12,2,3,0.4,0.4
2025-07-17T2200,3324A,116.8136,38.3004,沧州市,河北水利电力学院,,36,36,34,17,24,100,,168,158,34,17,4,5,0.3,0.3
2025-07-17T2200,2622A,97.1806,31.1273,昌都市,昌都监测站,,33,33,14,17,9,62,,112,102,40,9,4,3,0.2,0
2025-07-17T2200,3719A,97.1714,31.1406,昌都市,昌都会议中心,,49,49,15,16,11,85,,121,116,13,7,4,6,0.2,0.1
2025-07-17T2200,2690A,88.1236,43.8886,昌吉回族自治州,天山天池,,16,12,19,7,8,51,,104,92,6,6,4,4,0.6,0.5
2025-07-17T2200,2692A,87.2717,44.0297,昌吉回族自治州,新区政务中心,,29,27,20,13,13,92,,110,106,29,9,6,5,0.5,0.4
2025-07-17T2200,3613A,87.3095,44.0142,昌吉回族自治州,亚心广场,,,,25,,6,72,,109,104,37,13,6,6,0.3,0.1
2025-07-17T2200,1120A,125.2863,43.9027,长春市,客车厂,,31,31,23,20,15,78,,113,111,32,18,3,3,0.5,0.5
2025-07-17T2200,1121A,125.2841,43.8463,长春市,邮电学院,,23,23,21,7,12,47,,102,96,22,12,4,4,0.5,0.5
2025-07-17T2200,1122A,125.3716,43.8772,长春市,劳动公园,,31,31,30,14,16,79,,108,106,26,18,5,5,0.6,0.5
2025-07-17T2200,1123A,125.3297,43.8805,长春市,园林处,,31,31,24,13,13,89,,105,105,17,12,4,4,0.6,0.6
2025-07-17T2200,1124A,125.4605,43.79,长春市,净月潭,,,22,21,6,9,,,74,61,7,5,6,5,0.4,0.4
2025-07-17T2200,1126A,125.3863,43.8447,长春市,经开区环卫处,,25,19,24,8,10,79,,97,93,16,13,5,5,0.4,0.5
2025-07-17T2200,1127A,125.245,43.7783,长春市,高新区管委会,,30,28,22,21,13,56,,107,99,22,12,2,3,0.6,0.6
2025-07-17T2200,1128A,125.1761,43.8325,长春市,岱山公园,,21,20,21,11,15,66,,104,97,35,19,2,3,0.3,0.4
2025-07-17T2200,4281A,125.3346,43.9164,长春市,北亚泰大街1068号,,30,30,27,19,16,82,,108,106,23,17,6,4,0.5,0.5
2025-07-17T2200,1335A,113.0833,28.2325,长沙市,经开区环保局,,49,42,35,34,22,92,,148,134,11,13,4,6,0.5,0.5
2025-07-17T2200,1336A,112.8872,28.2189,长沙市,高开区环保局,颗粒物(PM10),53,56,37,24,17,116,,134,134,12,9,3,5,0.5,0.4
2025-07-17T2200,1337A,113.0792,28.2053,长沙市,马坡岭,,44,44,38,25,21,105,,151,135,8,12,4,6,0.6,0.6
2025-07-17T2200,1338A,112.9394,28.19,长沙市,湖南师范大学,,,50,30,26,18,,,122,122,12,10,2,2,0.6,0.8
2025-07-17T2200,1339A,113.0178,28.1322,长沙市,雨花区环保局,,49,49,33,18,15,83,,146,135,14,10,4,7,0.7,0.8
2025-07-17T2200,1340A,112.9792,28.2597,长沙市,伍家岭,颗粒物(PM10),54,57,36,36,20,88,,140,132,14,11,2,4,0.3,0.3
2025-07-17T2200,1341A,113.0014,28.1944,长沙市,火车新站,,49,49,36,22,16,101,,132,127,7,9,6,8,0.5,0.6
2025-07-17T2200,1342A,112.9844,28.1178,长沙市,天心区环保局,,34,23,30,22,17,107,,144,140,12,10,1,2,0.5,0.5
2025-07-17T2200,1343A,112.8908,28.1308,长沙市,湖南中医药大学,细颗粒物(PM2.5),52,43,34,36,19,104,,117,111,11,8,3,4,0.9,0.8
2025-07-17T2200,1344A,112.9581,28.3611,长沙市,沙坪,细颗粒物(PM2.5),53,,23,37,22,90,,147,137,7,12,3,3,0.6,0.5
2025-07-17T2200,1727A,113.1147,36.1547,长治市,清华站,,39,34,38,12,20,124,,185,176,8,12,7,9,0.6,0.9
2025-07-17T2200,1730A,113.0886,36.2125,长治市,审计局,,47,36,38,22,23,148,,181,180,12,13,4,6,1.0,1.1
2025-07-17T2200,1731A,113.0844,36.1856,长治市,长治八中,,42,41,44,24,31,132,,185,180,7,11,8,9,0.5,0.8
2025-07-17T2200,2845A,113.1569,36.1911,长治市,德盛苑,,43,34,41,27,24,135,,176,171,8,10,6,7,0.8,1.3
2025-07-17T2200,3568A,113.06,36.0464,长治市,向阳小学,颗粒物(PM10),57,64,74,17,26,126,,171,164,9,9,7,8,0.6,0.9
2025-07-17T2200,3569A,112.8792,36.3144,长治市,屯留一中,细颗粒物(PM2.5),63,70,56,45,35,166,,172,167,13,18,9,14,0.8,0.6
2025-07-17T2200,4189A,113.1131,36.19948,长治市,英华南巷50号,,45,45,44,22,23,122,,170,166,9,12,6,8,0.8,1.1
2025-07-17T2200,4190A,113.2367,36.3344,长治市,学府街1号,颗粒物(PM10),54,58,54,34,27,156,,178,173,23,24,6,7,1.3,0.8
2025-07-17T2200,1854A,111.6975,28.9703,常德市,市二中,,46,38,30,32,27,84,,105,103,12,7,3,3,0.6,0.5
2025-07-17T2200,3138A,111.7153,29.0289,常德市,武陵区永安,,46,34,34,32,24,97,,112,110,6,7,3,3,0.3,0.2
2025-07-17T2200,3139A,111.6892,28.9881,常德市,鼎城区玉霞,,46,45,35,32,24,98,,111,110,3,6,4,4,0.5,0.6
2025-07-17T2200,3140A,111.6625,29.0531,常德市,武陵区长庚,,40,34,28,28,26,89,,104,101,7,7,2,2,0.6,0.5
2025-07-17T2200,1196A,119.9633,31.762,常州市,市监测站,,32,18,30,15,18,101,,168,142,10,11,9,9,0.5,0.6
2025-07-17T2200,1200A,119.9468,31.7069,常州市,武进监测站,,34,26,29,8,17,106,,167,146,6,9,8,9,0.8,0.9
2025-07-17T2200,1201A,119.9255,31.9087,常州市,安家,,31,29,36,13,16,97,,165,137,17,18,8,7,0.7,0.7
2025-07-17T2200,3002A,119.9805,31.8174,常州市,行政中心,,,22,30,,17,,,161,151,11,13,9,8,0.5,0.5
2025-07-17T2200,3003A,120.0522,31.7748,常州市,经开区,,33,33,40,12,16,99,,164,134,12,14,6,5,0.2,0.3
2025-07-17T2200,3010A,119.9025,31.7964,常州市,钟楼,,32,26,30,15,16,101,,153,134,10,16,5,5,0.5,0.6
2025-07-17T2200,3429A,119.8598,31.7066,常州市,武进经发区,,32,32,32,16,19,92,,159,134,11,10,8,7,0.8,0.8
2025-07-17T2200,3430A,119.5826,31.7245,常州市,金坛城区,,40,36,23,28,19,106,,174,155,12,9,6,7,0.5,0.6
2025-07-17T2200,2220A,120.4318,41.5881,朝阳市,西梁,,24,24,15,9,9,40,,67,61,26,15,9,7,0.5,0.5
2025-07-17T2200,2221A,120.4521,41.5646,朝阳市,河畔小区,,19,,15,13,13,51,,70,65,13,9,5,5,0.5,0.5
2025-07-17T2200,2222A,120.4176,41.5648,朝阳市,八里堡,,24,24,22,16,11,49,,72,68,20,14,5,4,0.6,0.5
2025-07-17T2200,2223A,120.3806,41.5969,朝阳市,农业园区,,13,13,9,6,7,31,,67,61,23,9,5,5,0.4,0.4
2025-07-17T2200,1705A,116.6367,23.6719,潮州市,西园路,,43,43,49,25,31,79,,110,96,5,12,4,4,0.4,0.5
2025-07-17T2200,3026A,116.6183,23.6608,潮州市,市政府,,33,,56,23,30,73,,115,97,8,17,4,6,0.6,0.6
2025-07-17T2200,4036A,116.6461,23.6761,潮州市,金山,,40,37,47,28,28,83,,116,103,2,11,4,5,0.7,0.8
2025-07-17T2200,2472A,113.0073,25.9061,郴州市,马头岭,,24,24,24,10,8,40,,89,75,9,11,6,6,0.4,0.4
2025-07-17T2200,2473A,113.0116,25.8226,郴州市,市职中,,40,30,24,28,17,28,,90,74,15,16,5,6,0.8,0.7
2025-07-17T2200,2475A,113.0383,25.8071,郴州市,市审计局,,30,30,24,18,15,37,,94,78,20,11,3,4,0.4,0.4
2025-07-17T2200,2476A,113.0348,25.7759,郴州市,市环保局,,,46,25,,17,35,,94,80,26,9,4,4,0.4,0.3
2025-07-17T2200,4252A,113.0138,25.8011,郴州市,好美居路49号,颗粒物(PM10),60,70,29,30,16,43,,101,85,29,12,2,3,0.5,0.4
2025-07-17T2200,1431A,103.9728,30.7236,成都市,金泉两河,,43,42,45,30,31,86,,148,123,35,19,9,3,0.6,0.6
2025-07-17T2200,1432A,104.176,30.6872,成都市,十里店,颗粒物(PM10),54,57,49,33,30,150,,194,184,19,22,4,4,0.5,0.6
2025-07-17T2200,1433A,104.079,30.5706,成都市,三瓦窑,颗粒物(PM10),56,62,47,37,31,135,,184,162,24,28,3,3,0.7,0.6
2025-07-17T2200,1434A,104.1114,30.63,成都市,沙河铺,,,,44,,27,126,,136,129,,21,,6,0.5,0.5
2025-07-17T2200,1437A,104.0786,30.6531,成都市,君平街,颗粒物(PM10),56,62,51,35,33,113,,169,144,30,23,5,5,1.1,0.9
2025-07-17T2200,2880A,104.0239,30.65639,成都市,大石西路,,46,45,40,32,35,87,,138,82,30,22,2,2,0.9,0.8
2025-07-17T2200,3136A,104.2725,30.5589,成都市,龙泉驿区区政府,颗粒物(PM10),51,51,31,29,21,117,,155,143,22,14,4,4,0.6,0.5
2025-07-17T2200,3357A,104.0106,30.6931,成都市,金博路,细颗粒物(PM2.5),57,42,37,40,27,75,,120,91,38,23,4,5,0.9,0.7
2025-07-17T2200,3359A,104.0578,30.5225,成都市,华阳,细颗粒物(PM2.5),55,53,39,39,31,133,,164,146,25,18,4,5,0.8,0.6
2025-07-17T2200,3488A,104.3853,30.7453,成都市,青白江技师分院,细颗粒物(PM2.5),70,68,45,51,30,71,,176,159,58,33,6,6,0.8,0.6
2025-07-17T2200,3489A,104.0789,30.4072,成都市,科学城,细颗粒物(PM2.5),52,50,36,36,30,104,,142,128,20,11,3,3,0.7,0.6
2025-07-17T2200,4011A,103.8506,30.6947,成都市,光华大道三段,,48,43,48,33,35,114,,175,158,17,15,5,6,0.8,0.8
2025-07-17T2200,4224A,104.2433,30.5353,成都市,鲸龙路1057号,细颗粒物(PM2.5),73,75,41,53,28,123,,151,143,27,22,6,10,0.9,0.8
2025-07-17T2200,1062A,117.9531,40.9081,承德市,铁路,,24,24,18,12,8,43,,99,72,13,12,2,2,0.3,0.2
2025-07-17T2200,1063A,117.9392,40.9763,承德市,中国银行,,30,30,19,20,9,31,,95,70,12,8,3,2,0.3,0.2
2025-07-17T2200,1064A,117.9503,40.928,承德市,开发区,,44,44,32,7,10,34,,101,76,20,13,2,4,0.2,0.2
2025-07-17T2200,1066A,117.9268,41.0026,承德市,离宫,,25,25,18,17,14,33,,83,51,12,7,2,2,0.2,0.2
2025-07-17T2200,2314A,117.47,30.6618,池州市,池州学院,,38,31,22,23,14,120,,149,140,10,7,5,6,0.5,0.5
2025-07-17T2200,3237A,117.4918,30.6617,池州市,展览馆,,35,35,21,20,13,106,,149,138,17,9,4,4,0.6,0.6
2025-07-17T2200,3333A,117.5627,30.695,池州市,第八中学,,31,27,21,16,12,99,,146,133,23,9,4,5,0.5,0.6
2025-07-17T2200,3334A,117.5038,30.6243,池州市,第十二中学,,35,32,23,20,13,111,,154,144,11,10,3,3,0.8,0.8
2025-07-17T2200,1744A,118.9233,42.2816,赤峰市,松山一中,,23,23,17,9,6,62,,100,86,27,17,8,9,0.5,0.4
2025-07-17T2200,1745A,118.9576,42.2728,赤峰市,哈达街,,28,28,14,3,7,56,,100,89,32,16,14,10,0.6,0.5
2025-07-17T2200,1746A,118.8788,42.2554,赤峰市,天义路,,29,,10,20,8,49,,102,93,33,14,10,8,0.2,0.2
2025-07-17T2200,3058A,119.2658,42.0353,赤峰市,银河街,,21,19,12,10,7,66,,92,86,11,11,7,10,0.5,0.5
2025-07-17T2200,3286A,118.9359,42.3147,赤峰市,桥北物流园区,,33,33,19,9,12,27,,93,78,40,8,10,10,0.5,0.4
2025-07-17T2200,2521A,107.3476,22.4136,崇左市,市环保局江州分局,,43,43,24,13,12,49,,94,88,17,8,6,6,0.6,0.5
2025-07-17T2200,4256A,107.3750,22.3736,崇左市,石景林东路7号,细颗粒物(PM2.5),89,73,24,66,15,41,,97,88,26,11,3,2,0.7,0.5
2025-07-17T2200,2298A,118.3093,32.3153,滁州市,老年大学,,39,22,16,20,14,123,,150,138,12,5,6,11,0.5,0.3
2025-07-17T2200,2299A,118.3244,32.2786,滁州市,人大宾馆,,40,21,12,16,13,126,,159,143,12,7,4,4,0.3,0.3
2025-07-17T2200,3207A,118.3118,32.3038,滁州市,市政府原办公楼,,43,31,19,30,24,115,,149,135,13,6,5,4,0.6,0.4
2025-07-17T2200,3331A,118.3267,32.2634,滁州市,图书馆,,32,21,18,16,12,100,,138,122,16,7,9,9,0.5,0.4
2025-07-17T2200,2605A,101.5482,25.0441,楚雄彝族自治州,州环境监测站,,17,16,25,11,19,54,,90,77,5,15,6,7,0.6,0.6
2025-07-17T2200,2606A,101.538,25.0492,楚雄彝族自治州,市经济开发区,,49,49,29,17,18,52,,90,76,7,13,7,8,0.6,0.6
2025-07-17T2200,2548A,107.5277,31.2827,达州市,达州职业技术学院,,37,37,48,3,10,29,,103,93,24,19,7,7,0.5,0.6
2025-07-17T2200,2549A,107.5086,31.2186,达州市,市环境监测站,,33,33,47,3,15,63,,135,112,19,24,6,7,0.3,0.5
2025-07-17T2200,2550A,107.4988,31.2132,达州市,凤凰小区,,27,27,42,9,19,71,,141,118,19,21,7,9,0.2,0.4
2025-07-17T2200,2551A,107.5082,31.1986,达州市,达县机关宾馆,,24,24,43,3,9,68,,139,115,18,27,3,5,0.2,0.4
2025-07-17T2200,2552A,107.4644,31.2124,达州市,市政中心,,30,30,48,7,18,87,,131,115,9,19,4,4,0.2,0.3
2025-07-17T2200,2614A,100.1542,25.7054,大理白族自治州,大理市环境监测站,,42,37,23,29,19,23,,116,95,48,14,5,5,0.5,0.5
2025-07-17T2200,2615A,100.2171,25.5811,大理白族自治州,大理古城,,46,35,22,32,14,76,,109,100,15,10,5,5,0.9,0.8
2025-07-17T2200,1109A,121.612,38.9741,大连市,甘井子,,30,14,16,11,11,95,,122,106,12,16,5,6,0.3,0.4
2025-07-17T2200,1110A,121.565,38.9511,大连市,周水子,,29,14,17,10,10,90,,111,104,13,14,3,2,0.4,0.3
2025-07-17T2200,1111A,121.5637,38.8845,大连市,星海三站,,29,16,18,11,13,91,,104,100,4,7,6,6,0.3,0.4
2025-07-17T2200,1112A,121.6302,38.9117,大连市,青泥洼桥,,31,31,23,12,11,92,,114,103,11,13,6,6,0.4,0.4
2025-07-17T2200,1113A,121.6251,38.8638,大连市,傅家庄,,27,17,16,13,12,84,,110,101,14,12,9,8,0.2,0.2
2025-07-17T2200,1114A,121.5213,38.8661,大连市,七贤岭,,32,14,17,13,10,102,,122,112,4,8,9,8,0.3,0.3
2025-07-17T2200,1115A,121.2529,38.8061,大连市,旅顺,,26,12,14,12,12,82,,100,97,12,15,3,3,0.3,0.3
2025-07-17T2200,1116A,121.7485,39.1311,大连市,金州,,26,22,17,12,11,81,,120,111,10,11,8,9,0.5,0.5
2025-07-17T2200,1117A,121.7811,39.0496,大连市,开发区,,27,18,17,13,12,85,,116,101,14,18,14,13,0.6,0.6
2025-07-17T2200,1118A,121.9762,39.0631,大连市,双D港,,28,19,15,13,11,88,,123,107,11,8,8,8,0.7,0.7
2025-07-17T2200,1789A,124.81117,46.03138,大庆市,大同区,,16,11,16,6,7,49,,73,68,10,9,6,7,0.6,0.5
2025-07-17T2200,1790A,125.129,46.533,大庆市,龙凤区,,12,10,12,7,7,37,,70,60,17,9,5,4,0.6,0.5
2025-07-17T2200,1791A,124.902,46.408,大庆市,红岗区,,20,20,16,7,11,41,,70,61,13,10,7,6,0.7,0.7
2025-07-17T2200,1792A,125.153,46.586,大庆市,萨尔图区,,12,12,17,3,4,31,,52,47,10,10,8,8,0.4,0.4
2025-07-17T2200,1793A,124.9042,46.6215,大庆市,让胡路区,,,21,20,14,13,,,,,8,10,6,6,0.2,0.3
2025-07-17T2200,3481A,125.141,46.634,大庆市,萨区政府监测点,,21,21,20,3,3,44,,73,64,10,7,6,6,0.3,0.2
2025-07-17T2200,1723A,113.2994,40.0758,大同市,云冈宾馆,,45,45,23,18,9,116,,138,136,23,16,10,8,0.7,0.8
2025-07-17T2200,1724A,113.3444,40.0917,大同市,大同大学,,31,31,17,12,7,85,,146,139,33,17,10,10,0.4,0.4
2025-07-17T2200,1725A,113.2661,40.1269,大同市,安家小村,颗粒物(PM10),63,76,24,18,5,97,,114,108,26,17,12,8,0.6,0.7
2025-07-17T2200,1726A,113.2711,40.0844,大同市,教育学院,,41,41,20,17,8,130,,126,126,18,15,13,9,0.4,0.5
2025-07-17T2200,3282A,113.3397,40.0597,大同市,大同市卫生学校,,47,47,22,18,7,95,,143,135,31,17,12,9,0.5,0.5
2025-07-17T2200,3565A,113.1367,40.1122,大同市,云冈站,,39,32,25,27,11,67,,109,100,19,18,4,5,0.3,0.4
2025-07-17T2200,3566A,113.1186,40.2556,大同市,图书馆,,26,26,21,17,9,40,,122,101,11,8,6,8,0.6,0.8
2025-07-17T2200,3567A,113.5931,40.0461,大同市,区一中,,27,,15,17,6,84,,130,121,13,10,10,11,0.4,0.4
2025-07-17T2200,4199A,113.2798,40.0997,大同市,魏都大道141号,,44,29,20,16,7,138,,132,132,13,11,14,9,0.6,0.7
2025-07-17T2200,2269A,124.1069,50.4097,大兴安岭地区,科技局,,34,34,26,13,11,37,,71,62,10,5,7,5,0.3,0.3
2025-07-17T2200,3663A,124.1164,50.4278,大兴安岭地区,红旗社区,,20,19,10,14,9,19,,76,61,20,7,4,4,0.2,0.2
2025-07-17T2200,1600A,124.3303,40.0625,丹东市,江湾东路,,23,17,11,16,8,31,,70,52,25,15,5,4,1.0,0.7
2025-07-17T2200,1601A,124.4256,40.1503,丹东市,临江后街,,18,18,10,10,6,36,,66,52,19,10,6,6,0.9,0.7
2025-07-17T2200,1602A,124.3933,40.1461,丹东市,元宝山,,20,20,9,8,5,31,,48,41,14,11,2,2,0.7,0.5
2025-07-17T2200,1603A,124.3633,40.1092,丹东市,民主桥,,20,20,10,12,8,34,,65,55,28,16,7,4,1.3,1
2025-07-17T2200,3541A,109.5726,19.5167,儋州市,第一中学子站,,21,21,19,10,11,41,,58,55,6,5,6,8,0.4,0.3
2025-07-17T2200,3542A,109.5567,19.5187,儋州市,东坡学校子站,,15,11,16,10,10,42,,58,54,6,4,5,5,0.6,0.7
2025-07-17T2200,2616A,98.5842,24.428,德宏傣族景颇族自治州,德宏州监测站,,,17,18,11,9,,,64,62,11,9,12,12,0.5,0.7
2025-07-17T2200,3677A,98.5881,24.4368,德宏傣族景颇族自治州,芒市人民政府综合楼,,30,30,24,8,10,34,,60,54,10,8,17,11,0.5,0.5
2025-07-17T2200,1901A,104.4239,31.1208,德阳市,东山公园,,46,36,36,32,26,138,,163,163,12,12,5,6,0.9,0.9
2025-07-17T2200,1902A,104.3826,31.1317,德阳市,西小区,,46,37,43,32,32,112,,159,149,31,24,5,8,1.0,0.9
2025-07-17T2200,1904A,104.3553,31.1091,德阳市,耐火材料厂,,48,40,48,33,33,111,,176,165,22,21,2,3,0.6,0.6
2025-07-17T2200,3639A,104.4019,31.1244,德阳市,市教育局,,42,39,45,26,26,134,,163,162,21,18,6,5,0.8,0.8
2025-07-17T2200,1622A,116.3032,37.4674,德州市,儿童乐园,,43,36,32,9,18,136,,159,157,17,9,7,10,0.5,0.5
2025-07-17T2200,1624A,116.2991,37.4451,德州市,监理站,,47,31,29,7,17,150,,158,158,13,10,8,11,0.4,0.5
2025-07-17T2200,3066A,116.2721,37.4379,德州市,九衢泉纯净水厂,,43,29,35,17,22,135,,146,146,17,17,3,5,0.6,0.6
2025-07-17T2200,3371A,116.3728,37.4403,德州市,开发区人民医院,,39,34,32,14,19,122,,150,145,22,14,7,9,0.8,0.7
2025-07-17T2200,3511A,116.5652,37.3319,德州市,陵城艺术中心,,41,39,36,14,17,130,,156,149,13,11,5,8,0.2,0.3
2025-07-17T2200,4292A,116.3525,37.4209,德州市,新河东路,,37,31,31,17,19,117,,152,146,28,17,8,10,0.5,0.6
2025-07-17T2200,2621A,99.7056,27.8317,迪庆藏族自治州,迪庆州站,,30,,25,19,17,93,,109,102,8,7,7,8,0.3,0.3
2025-07-17T2200,3180A,99.7136,27.8094,迪庆藏族自治州,质量技术监督局,,30,21,26,15,11,93,,108,101,10,11,7,6,0.4,0.4
2025-07-17T2200,4257A,104.6092,35.5962,定西市,将台街,,48,48,37,27,20,112,,120,118,4,3,7,8,0.1,0
2025-07-17T2200,4309A,104.6159,35.5701,定西市,正龙路62号,,46,42,36,32,17,107,,111,111,4,5,6,7,0.4,0.3
2025-07-17T2200,1389A,113.7547,23.0494,东莞市,莞城梨川,颗粒物(PM10),55,59,36,36,23,124,,150,140,17,16,7,6,0.6,0.6
2025-07-17T2200,1390A,113.7944,23.0128,东莞市,东城石井,,46,46,33,27,17,52,,117,87,17,17,1,2,0.7,0.6
2025-07-17T2200,1391A,113.7383,22.9658,东莞市,南城西平,臭氧1小时,93,46,31,23,18,194,,150,150,27,16,4,3,0.8,0.6
2025-07-17T2200,3319A,113.7338,23.0381,东莞市,万江金泰,颗粒物(PM10),52,53,36,27,20,106,,141,129,19,17,4,4,1.0,0.8
2025-07-17T2200,3626A,113.7533,23.0202,东莞市,南城元岭,颗粒物(PM10),56,62,36,34,17,84,,140,130,38,18,5,5,0.8,0.6
2025-07-17T2200,3627A,113.7875,23.0457,东莞市,东城主山,颗粒物(PM10),57,64,49,33,19,104,,132,118,23,15,5,4,0.6,0.5
2025-07-17T2200,1666A,118.6614,37.4309,东营市,市环保局,,45,34,19,17,11,144,,154,153,16,17,11,8,0.8,0.4
2025-07-17T2200,3036A,118.6904,37.4338,东营市,开发区管委会,,48,35,26,12,10,151,,161,160,14,13,8,7,0.7,0.5
2025-07-17T2200,3365A,118.5719,37.565,东营市,垦利区民丰路,,43,39,24,22,12,136,,172,165,22,16,11,10,0.7,0.6
2025-07-17T2200,3498A,118.5055,37.8612,东营市,河口城区,,38,22,22,3,11,121,,155,145,16,14,7,9,0.5,0.6
2025-07-17T2200,3646A,118.4978,37.4623,东营市,胜利站,,45,30,28,12,10,142,,155,154,19,19,4,5,0.7,0.6
2025-07-17T2200,3734A,118.35,37.26,东营市,理想之城,,,,21,,12,,,150,147,18,17,8,9,,0.4
2025-07-17T2200,1591A,110.0023,39.8129,鄂尔多斯市,综合楼,,36,34,21,9,4,113,,146,138,27,16,6,6,0.5,0.5
2025-07-17T2200,1592A,109.9486,39.8261,鄂尔多斯市,巴音孟克林场办事处,,39,36,31,9,9,124,,152,147,18,14,3,3,0.5,0.5
2025-07-17T2200,1593A,109.7736,39.5986,鄂尔多斯市,康泽苑,,48,48,38,7,6,100,,164,148,28,17,5,4,0.3,0.3
2025-07-17T2200,1594A,109.8119,39.5989,鄂尔多斯市,华泰汽车城,颗粒物(PM10),54,58,35,14,9,67,,151,134,39,22,5,5,0.5,0.5
2025-07-17T2200,1595A,109.9734,39.7884,鄂尔多斯市,奥林花园,,46,46,25,12,12,87,,146,132,34,16,7,6,0.7,0.5
2025-07-17T2200,2436A,114.8938,30.3994,鄂州市,市政府,颗粒物(PM10),54,57,41,18,18,96,,155,147,10,14,2,5,0.8,0.8
2025-07-17T2200,2437A,114.8989,30.3714,鄂州市,赵家坝,,42,42,39,13,13,86,,161,152,17,12,7,7,0.8,0.8
2025-07-17T2200,3654A,114.8094,30.4089,鄂州市,精准医疗中心,,45,45,35,15,11,92,,167,159,19,17,4,4,1.0,0.9
2025-07-17T2200,2454A,109.4978,30.2981,恩施土家族苗族自治州,湖北民院,,24,24,28,8,17,67,,100,87,8,6,5,5,0.5,0.5
2025-07-17T2200,2455A,109.4707,30.2798,恩施土家族苗族自治州,州电力总公司,,16,14,22,11,15,50,,94,78,8,10,8,8,0.5,0.5
2025-07-17T2200,3549A,109.5061,30.3772,恩施土家族苗族自治州,龙凤新区,,23,23,22,12,14,43,,101,74,12,6,5,5,0.6,0.5
2025-07-17T2200,2499A,108.3411,21.6158,防城港市,沙万,,20,14,22,14,12,50,,61,57,6,9,2,3,0.4,0.5
2025-07-17T2200,2500A,108.3514,21.7731,防城港市,防城档案局,,15,15,22,8,12,41,,61,58,6,7,4,3,0.5,0.6
2025-07-17T2200,2501A,108.3506,21.6414,防城港市,大海花园,,17,14,25,11,9,53,,67,62,6,7,3,4,0.5,0.5
2025-07-17T2200,1371A,113.1294,23.0067,佛山市,湾梁,细颗粒物(PM2.5),64,,36,46,35,92,,130,123,15,14,5,5,0.7,0.7
2025-07-17T2200,1372A,113.1083,23.0478,佛山市,华材职中,,43,39,32,30,21,80,,138,124,22,10,8,8,0.7,0.6
2025-07-17T2200,1373A,113.144,23.0453,佛山市,南海气象局,,46,46,33,25,18,74,,113,105,19,12,2,2,0.7,0.6
2025-07-17T2200,1374A,113.2881,22.8094,佛山市,顺德苏岗,,45,45,32,31,18,86,,152,141,30,15,7,8,0.6,0.5
2025-07-17T2200,1376A,112.8383,22.8678,佛山市,高明孔堂,,36,36,31,22,15,64,,115,100,12,8,6,6,0.7,0.6
2025-07-17T2200,1377A,112.8836,23.1588,佛山市,三水监测站,颗粒物(PM10),58,66,34,33,21,12,,113,93,79,21,6,5,0.7,0.6
2025-07-17T2200,1378A,112.867,23.185,佛山市,三水云东海,,,38,42,23,24,43,,108,80,23,19,2,2,,0.8
2025-07-17T2200,3625A,113.2544,22.7642,佛山市,容桂街道办,,45,44,26,31,16,102,,153,148,32,16,6,6,0.6,0.5
2025-07-17T2200,1282A,119.2681,26.0504,福州市,师大,,26,26,41,3,19,37,,107,69,23,14,4,4,0.4,0.4
2025-07-17T2200,1283A,119.2984,26.1028,福州市,五四北路,,29,29,41,14,26,29,,103,64,24,17,3,4,0.4,0.4
2025-07-17T2200,1284A,119.2648,26.0768,福州市,杨桥西路,,33,33,41,15,28,26,,109,67,33,16,4,4,0.5,0.4
2025-07-17T2200,1285A,119.317,26.0746,福州市,紫阳,,24,24,49,15,29,32,,91,52,26,19,4,4,0.4,0.3
2025-07-17T2200,3048A,119.5799,26.0936,福州市,九龙,,32,32,37,13,20,20,,90,54,14,10,4,4,0.4,0.3
2025-07-17T2200,3526A,119.5189,25.9664,福州市,吴航,,24,24,43,13,26,26,,90,56,23,11,5,4,0.5,0.5
2025-07-17T2200,1755A,123.7977,41.8491,抚顺市,望花区,,31,31,24,13,16,65,,124,102,17,18,10,10,0.6,0.7
2025-07-17T2200,1756A,123.9161,41.8822,抚顺市,顺城区,,25,25,19,16,12,21,,115,85,40,18,6,5,0.8,0.7
2025-07-17T2200,1757A,124.0436,41.8611,抚顺市,东洲区,,19,16,17,13,10,57,,121,97,23,13,5,6,0.6,0.6
2025-07-17T2200,1758A,123.9247,41.8642,抚顺市,新抚区,,32,32,22,20,11,9,,116,86,33,15,4,4,0.9,0.7
2025-07-17T2200,1759A,124.0972,41.8961,抚顺市,大伙房水库,,16,16,16,10,10,43,,112,87,25,13,5,5,0.6,0.5
2025-07-17T2200,1760A,123.7086,41.8391,抚顺市,沈抚新城,,20,20,25,11,17,56,,130,108,21,22,4,6,0.7,1.1
2025-07-17T2200,2376A,116.2127,28.0814,抚州市,桐源党溪,,44,44,39,22,21,28,,94,70,3,3,3,4,0.5,0.5
2025-07-17T2200,2377A,116.3544,27.9831,抚州市,市站,细颗粒物(PM2.5),57,60,37,40,21,76,,117,112,8,3,17,12,0.7,0.7
2025-07-17T2200,2378A,116.3565,27.963,抚州市,血防站,,50,50,37,32,22,77,,104,100,10,7,7,6,0.5,0.5
2025-07-17T2200,2379A,116.3564,28.0007,抚州市,采茶剧团,,,68,40,45,21,80,,113,108,,3,5,6,0.7,0.6
2025-07-17T2200,2380A,116.385,27.9647,抚州市,医学分院,颗粒物(PM10),58,65,40,37,22,80,,115,109,2,2,4,7,0.7,0.5
2025-07-17T2200,2207A,121.6094,41.998,阜新市,工业园区,,25,25,11,8,4,10,,68,55,38,16,2,2,0.6,0.5
2025-07-17T2200,2208A,121.6697,42.0279,阜新市,长青街,,13,13,8,9,7,14,,56,39,15,10,4,4,0.6,0.5
2025-07-17T2200,2209A,121.6673,42.0705,阜新市,农业园区,,12,11,10,3,0,32,,61,50,6,9,2,2,1.2,0.8
2025-07-17T2200,2210A,121.6717,42.0224,阜新市,东苑,,15,15,12,8,7,24,,63,52,29,13,10,3,0.6,0.4
2025-07-17T2200,2211A,121.6506,42.0498,阜新市,玉龙新城,,39,39,13,18,5,6,,54,41,27,13,3,4,1.1,0.6
2025-07-17T2200,2301A,115.8277,32.8929,阜阳市,市监测站,,40,40,40,23,24,128,,168,158,17,14,4,4,0.4,0.5
2025-07-17T2200,2303A,115.8554,32.8605,阜阳市,开发区,,,,35,,19,,,166,165,15,12,6,6,0.4,0.4
2025-07-17T2200,2875A,115.784,32.8892,阜阳市,阜阳职业技术学院,臭氧1小时,55,33,34,21,20,164,,184,178,7,8,4,4,0.5,0.5
2025-07-17T2200,3468A,115.7901,32.8613,阜阳市,市规划展馆,,42,39,37,18,26,132,,175,166,13,10,3,2,0.3,0.6
2025-07-17T2200,3469A,115.836,32.9183,阜阳市,枣园社区,,42,40,40,21,25,133,,168,159,13,12,1,2,0.5,0.5
2025-07-17T2200,2669A,102.9099,34.9841,甘南藏族自治州,州政府,,38,38,43,23,23,72,,100,96,7,17,2,2,0.3,0.3
2025-07-17T2200,3380A,102.8914,34.9617,甘南藏族自治州,甘肃民族师范学院,,,51,77,24,31,,,114,114,4,23,9,9,0.4,0.4
2025-07-17T2200,2570A,101.9603,30.0475,甘孜藏族自治州,水桥子,,37,19,24,18,16,116,,121,120,9,11,5,6,0.4,0.4
2025-07-17T2200,3065A,101.9533,29.9972,甘孜藏族自治州,州环保局,,36,27,22,16,10,115,,125,121,15,10,2,2,0.6,0.5
2025-07-17T2200,3414A,115.8347,28.932,赣江新区,桑海产业园,,26,22,26,10,14,81,,127,110,16,19,8,8,0.3,0.4
2025-07-17T2200,2363A,114.9367,25.8664,赣州市,地委,,42,42,33,23,21,52,,110,87,11,9,6,8,0.9,0.9
2025-07-17T2200,2364A,114.9461,25.8481,赣州市,气象台,,40,40,33,23,19,52,,111,90,9,6,10,9,0.5,0.5
2025-07-17T2200,2365A,114.9322,25.8333,赣州市,市图书馆,,38,38,32,21,22,48,,102,84,11,7,5,4,0.4,0.4
2025-07-17T2200,2366A,114.8905,25.8471,赣州市,华坚鞋城,,43,43,39,26,23,47,,110,87,16,9,5,5,0.4,0.4
2025-07-17T2200,3109A,115.0093,25.8613,赣州市,赣县区卫计委,,35,35,32,18,21,51,,96,80,6,9,4,4,0.8,0.8
2025-07-17T2200,2683A,106.2319,36.1417,固原市,马园,,38,38,44,15,12,102,,131,123,34,22,5,6,0.7,0.6
2025-07-17T2200,2684A,106.2792,36.0022,固原市,监测站,,46,43,38,19,11,145,,145,143,8,8,5,5,0.3,0.3
2025-07-17T2200,2685A,106.2375,36.0211,固原市,新区,,45,38,39,20,18,142,,137,136,11,9,7,6,0.6,0.5
2025-07-17T2200,3522A,106.2177,35.9959,固原市,原州区十五小,,48,43,40,20,17,153,,140,140,8,9,10,10,0.5,0.4
2025-07-17T2200,2544A,106.6303,30.4576,广安市,市委,,37,37,34,20,20,111,,175,161,10,13,5,5,0.5,0.5
2025-07-17T2200,2545A,106.6271,30.4663,广安市,友谊中学,,36,26,32,23,23,115,,176,160,13,14,4,4,0.9,0.9
2025-07-17T2200,2547A,106.6388,30.4551,广安市,广电花园,,,,45,16,21,104,,164,150,11,13,,22,0.6,0.7
2025-07-17T2200,2902A,106.6351,30.4865,广安市,北辰小学,颗粒物(PM10),59,67,38,24,22,112,,172,157,7,11,4,5,0.5,0.5
2025-07-17T2200,2523A,105.8945,32.4535,广元市,黑石坡,,48,48,41,30,26,80,,125,95,12,8,8,7,0.5,0.5
2025-07-17T2200,2524A,105.821,32.4444,广元市,老城,,40,40,38,23,19,61,,157,117,24,26,7,10,0.7,0.7
2025-07-17T2200,2526A,105.8628,32.4287,广元市,监测站,颗粒物(PM10),53,55,42,30,21,52,,129,87,10,14,10,10,0.8,0.9
2025-07-17T2200,3617A,105.8047,32.4166,广元市,经开区,,42,42,51,23,33,68,,143,103,20,22,4,7,0.7,0.8
2025-07-17T2200,1345A,113.2347,23.1423,广州市,广雅中学,,50,50,41,30,23,63,,130,111,32,19,3,3,0.6,0.5
2025-07-17T2200,1346A,113.2612,23.105,广州市,市五中,,43,43,40,27,23,80,,139,123,20,15,4,5,0.6,0.5
2025-07-17T2200,1348A,113.3478,23.0916,广州市,广东商学院,颗粒物(PM10),60,69,35,33,20,72,,126,109,75,31,4,3,0.8,0.6
2025-07-17T2200,1349A,113.4332,23.1047,广州市,市八十六中,颗粒物(PM10),64,77,44,44,23,12,,96,72,121,39,3,2,0.6,0.5
2025-07-17T2200,1350A,113.3505,22.9483,广州市,番禺中学,,,84,36,24,20,,,155,152,44,14,5,7,0.7,0.5
2025-07-17T2200,1351A,113.2146,23.3916,广州市,花都师范,颗粒物(PM10),53,55,37,36,25,65,,103,99,32,19,3,4,0.8,0.7
2025-07-17T2200,1352A,113.2597,23.1331,广州市,市监测站,颗粒物(PM10),51,51,38,30,20,63,,130,114,31,18,6,5,0.5,0.5
2025-07-17T2200,1353A,113.5618,23.312,广州市,九龙镇镇龙,细颗粒物(PM2.5),69,62,44,50,25,48,,116,99,21,24,6,6,0.6,0.6
2025-07-17T2200,1354A,113.2765,23.1544,广州市,麓湖,,47,47,35,27,21,10,,84,59,54,18,2,2,0.9,0.8
2025-07-17T2200,1355A,113.443,23.3035,广州市,帽峰山森林公园,,34,34,28,17,14,58,,132,100,25,12,5,4,0.7,0.7
2025-07-17T2200,2846A,113.3221,23.1322,广州市,体育西,颗粒物(PM10),56,61,42,39,23,49,,125,108,63,20,5,5,0.9,0.7
2025-07-17T2200,3298A,113.5717,23.5491,广州市,从化街口,细颗粒物(PM2.5),57,59,43,40,26,4,,98,72,34,22,5,7,0.9,0.7
2025-07-17T2200,3299A,113.3472,23.3692,广州市,白云竹料,细颗粒物(PM2.5),73,87,46,53,24,32,,96,89,25,20,3,3,0.8,0.6
2025-07-17T2200,3300A,113.2981,23.237,广州市,白云嘉禾,颗粒物(PM10),51,51,41,29,24,30,,120,99,50,22,5,5,0.8,0.6
2025-07-17T2200,3301A,113.4256,23.1716,广州市,黄埔科学城,颗粒物(PM10),51,52,38,31,20,5,,95,62,40,20,2,2,0.8,0.7
2025-07-17T2200,3302A,113.3942,23.0483,广州市,番禺大学城,"颗粒物(PM10),细颗粒物(PM2.5)",54,58,35,38,22,107,,128,121,30,17,6,6,0.7,0.6
2025-07-17T2200,3303A,113.4922,22.8168,广州市,南沙黄阁,,48,48,40,19,24,79,,150,137,30,25,4,6,0.4,0.5
2025-07-17T2200,3304A,113.5342,22.7896,广州市,南沙街,,32,32,36,19,20,81,,155,136,14,19,4,5,0.5,0.5
2025-07-17T2200,3443A,113.2902,23.5544,广州市,花都梯面,,49,49,40,31,23,2,,77,58,42,25,4,4,0.9,0.7
2025-07-17T2200,3445A,113.7858,23.7478,广州市,从化良口,,,35,36,26,27,,,97,66,,12,7,7,0.9,0.8
2025-07-17T2200,3446A,113.8051,23.2614,广州市,增城荔城,,48,48,37,29,21,38,,126,98,16,16,6,7,0.5,0.4
2025-07-17T2200,2506A,109.6047,23.0666,贵港市,江南子站,,41,41,47,22,26,69,,95,92,23,14,5,7,0.6,0.7
2025-07-17T2200,2508A,109.5669,23.1065,贵港市,荷城子站,颗粒物(PM10),54,58,28,29,13,39,,85,75,27,14,7,7,0.5,0.4
2025-07-17T2200,3405A,109.5886,23.1172,贵港市,新世纪学校,,,48,35,32,19,,,93,92,22,17,5,3,0.5,0.5
2025-07-17T2200,4260A,109.5933,23.0951,贵港市,中山路155-3号,,30,30,39,19,20,81,,96,93,10,12,3,4,0.5,0.5
2025-07-17T2200,1439A,106.6899,26.5998,贵阳市,马鞍山,,14,14,15,9,3,28,,88,73,18,8,4,4,0.4,0.3
2025-07-17T2200,1441A,106.6243,26.6266,贵阳市,鉴湖路,,29,29,24,3,6,48,,84,74,14,8,7,11,0.1,0.3
2025-07-17T2200,1442A,106.7487,26.6343,贵阳市,燕子冲,,35,,16,24,19,47,,102,85,18,17,9,10,0.1,0.1
2025-07-17T2200,1443A,106.6555,26.4365,贵阳市,碧云窝,,29,29,27,12,10,54,,82,74,7,8,14,7,0.5,0.5
2025-07-17T2200,1445A,106.7109,26.6027,贵阳市,红边门,,27,27,22,7,10,47,,91,77,22,17,3,3,0.2,0.1
2025-07-17T2200,1446A,106.7164,26.5699,贵阳市,新华路,,36,36,31,9,14,48,,90,76,22,14,13,23,0.2,0.4
2025-07-17T2200,1447A,106.674,26.5424,贵阳市,太慈桥,,17,17,16,3,7,28,,87,69,28,16,5,5,0.4,0.2
2025-07-17T2200,4230A,106.6882,26.5695,贵阳市,花果园大街66号,,20,,10,14,14,48,,88,77,17,12,4,5,0.4,0.3
2025-07-17T2200,4231A,106.6873,26.5169,贵阳市,漓江路57号,,22,22,21,3,8,41,,82,69,13,10,4,7,0.3,0.3
2025-07-17T2200,1864A,110.3089,25.2708,桂林市,龙隐路小学,细颗粒物(PM2.5),97,,24,72,14,66,,85,77,15,6,8,8,0.8,0.4
2025-07-17T2200,1865A,110.2869,25.2178,桂林市,八中,,36,36,23,12,12,66,,85,80,10,8,6,6,0.5,0.5
2025-07-17T2200,3531A,110.296,25.1253,桂林市,旅游学院,,27,27,20,17,11,53,,87,79,16,10,2,3,0.2,0.3
2025-07-17T2200,4222A,110.1835,25.2444,桂林市,环湖路276号,,,22,23,7,14,78,,86,,10,16,12,12,,0.2
2025-07-17T2200,4301A,110.2803,25.2773,桂林市,信义路13号,,24,23,23,8,9,75,,89,85,10,8,4,4,0.5,0.5
2025-07-17T2200,2674A,100.2561,34.4714,果洛藏族自治州,玛沁县大武镇,,36,36,25,22,13,87,,116,110,9,6,17,16,0.3,0.3
2025-07-17T2200,1129A,126.5422,45.755,哈尔滨市,岭北,,22,19,25,15,19,46,,115,91,26,25,8,8,0.5,0.4
2025-07-17T2200,1130A,126.561,45.8167,哈尔滨市,松北商大,,16,16,28,3,7,38,,98,70,31,24,7,7,0.7,0.6
2025-07-17T2200,1131A,126.979,45.5419,哈尔滨市,阿城会宁,,29,29,27,11,12,47,,114,94,24,12,4,6,0.5,0.5
2025-07-17T2200,1132A,126.599,45.7222,哈尔滨市,南岗学府路,,44,44,29,29,10,25,,104,80,50,24,6,6,1.2,0.8
2025-07-17T2200,1133A,126.689,45.7733,哈尔滨市,太平宏伟公园,颗粒物(PM10),54,57,28,15,11,56,,93,75,42,27,7,6,0.5,0.4
2025-07-17T2200,1134A,126.635,45.7667,哈尔滨市,道外承德广场,颗粒物(PM10),52,53,41,18,12,36,,96,76,46,25,6,6,1.7,0.9
2025-07-17T2200,1135A,126.685,45.7319,哈尔滨市,香坊红旗大街,,48,48,24,27,18,30,,106,80,62,30,3,3,1.1,0.8
2025-07-17T2200,1136A,126.6411,45.7258,哈尔滨市,动力和平路,,,54,35,,,27,,113,89,55,25,4,3,1.0,0.6
2025-07-17T2200,1137A,126.593,45.7478,哈尔滨市,道里建国路,,44,44,33,18,9,48,,103,84,46,29,7,5,1.1,1.3
2025-07-17T2200,1138A,126.615,45.61,哈尔滨市,平房东轻厂,,28,28,33,7,9,43,,108,86,37,25,8,8,0.8,0.5
2025-07-17T2200,1139A,126.595,45.9855,哈尔滨市,呼兰师专,,24,24,26,12,13,29,,109,83,43,25,13,11,0.7,0.7
2025-07-17T2200,1140A,126.6206,45.6842,哈尔滨市,省农科院,细颗粒物(PM2.5),72,,32,52,25,32,,108,83,61,36,8,8,0.9,0.7
2025-07-17T2200,2688A,93.5128,42.8172,哈密市,地区监测站,颗粒物(PM10),84,118,61,18,24,113,,127,122,8,12,5,6,0.1,0.1
2025-07-17T2200,2689A,93.4961,42.8328,哈密市,哈密师范学校,颗粒物(PM10),59,67,50,14,14,116,,120,116,6,14,4,4,0.2,0.3
2025-07-17T2200,2671A,100.9048,36.9639,海北藏族自治州,海晏县西海镇,,39,20,15,13,14,124,,138,123,6,4,11,8,0.5,0.4
2025-07-17T2200,3867A,102.0738,36.5056,海东市,平安区公安北苑,,31,29,24,13,9,97,,159,145,17,7,9,11,0.6,0.6
2025-07-17T2200,1409A,110.576,19.9507,海口市,东寨港,,21,21,18,7,11,32,,62,52,7,5,4,4,0.7,0.5
2025-07-17T2200,1410A,110.3232,20.0574,海口市,海南大学,,22,22,20,10,10,63,,12,,9,7,2,2,0.4,0.4
2025-07-17T2200,1411A,110.283,20.0053,海口市,秀英海南医院,,25,23,24,17,11,33,,71,60,28,10,5,5,0.4,0.3
2025-07-17T2200,1412A,110.338,19.9969,海口市,海南师范大学,,38,,21,26,18,48,,77,65,18,8,4,4,0.3,0.4
2025-07-17T2200,1413A,110.33,20.0356,海口市,龙华路环保局宿舍,,22,22,22,10,11,59,,78,70,12,8,6,5,0.3,0.3
2025-07-17T2200,3539A,110.5111,19.9736,海口市,桂林洋子站,,25,25,20,13,10,35,,68,57,19,7,5,4,0.3,0.3
2025-07-17T2200,2673A,100.6188,36.2866,海南藏族自治州,共和县恰卜恰镇,,35,35,27,10,11,105,,136,125,14,6,16,13,0.8,0.6
2025-07-17T2200,2676A,97.3731,37.3753,海西蒙古族藏族自治州,德令哈市,,44,32,24,7,7,139,,148,145,1,3,11,14,0.6,0.7
2025-07-17T2200,1048A,114.5302,36.6116,邯郸市,东污水处理厂,颗粒物(PM10),52,54,39,9,9,101,,166,154,26,12,3,4,0.4,0.4
2025-07-17T2200,1049A,114.4918,36.5713,邯郸市,矿院,,42,42,31,22,14,95,,170,159,36,14,8,6,0.5,0.4
2025-07-17T2200,1050A,114.484,36.6133,邯郸市,丛台公园,,45,42,34,18,15,144,,182,174,13,12,7,7,0.6,0.5
2025-07-17T2200,3458A,114.7895,36.5593,邯郸市,香泉濮院小区,颗粒物(PM10),62,73,47,6,4,118,,152,147,14,11,2,4,0.4,0.4
2025-07-17T2200,3579A,114.50634,36.77178,邯郸市,永年区实验高中,,46,46,48,25,26,119,,171,159,21,17,3,3,0.3,0.3
2025-07-17T2200,3580A,114.20016,36.44293,邯郸市,峰峰矿区临水派出所,,49,45,48,15,10,156,,182,178,8,10,14,6,0.3,0.3
2025-07-17T2200,2634A,106.9893,33.1842,汉中市,汉川机床厂子校,,20,20,30,10,14,59,,109,94,10,7,3,3,0.3,0.4
2025-07-17T2200,2635A,107.0154,33.0706,汉中市,市监测站,,,,31,,16,83,,113,100,,14,5,6,0.5,0.6
2025-07-17T2200,2636A,107.0089,33.1138,汉中市,鑫源开发区,,23,,23,7,14,73,,104,91,6,10,5,6,0.4,0.4
2025-07-17T2200,2637A,107.007,33.0323,汉中市,南郑大河坎水厂,,25,,32,9,17,78,,170,107,10,13,8,6,0.4,0.5
2025-07-17T2200,1223A,120.2072,30.2111,杭州市,滨江,,30,17,30,10,16,93,,143,122,19,21,5,6,0.4,0.5
2025-07-17T2200,1224A,120.0633,30.2747,杭州市,西溪,,19,17,25,10,20,58,,112,97,15,13,4,4,0.4,0.4
2025-07-17T2200,1226A,120.3417,30.3150,杭州市,下沙,,29,23,27,13,17,92,,162,133,19,17,5,5,0.4,0.4
2025-07-17T2200,1227A,120.1269,30.2456,杭州市,卧龙桥,,20,18,26,11,18,62,,122,100,10,8,7,7,0.4,0.5
2025-07-17T2200,1228A,120.1903,30.2692,杭州市,浙江农大,,25,14,28,13,20,78,,138,107,20,19,4,4,0.4,0.5
2025-07-17T2200,1230A,120.1197,30.3119,杭州市,和睦小学,,24,19,25,16,18,75,,136,119,17,12,4,5,0.6,0.6
2025-07-17T2200,1231A,120.3019,30.4183,杭州市,临平镇,,39,33,35,14,20,122,,184,,36,15,5,5,0.6,0.5
2025-07-17T2200,1232A,120.2753,30.1839,杭州市,城厢镇,,30,18,34,12,23,95,,167,137,14,15,6,6,0.5,0.5
2025-07-17T2200,1233A,120.0883,30.1808,杭州市,云栖,,18,17,29,6,14,57,,109,90,16,13,8,8,0.7,0.8
2025-07-17T2200,3557A,119.9464,30.0494,杭州市,镇二中,,,10,31,8,26,94,,124,112,,15,3,4,0.4,0.6
2025-07-17T2200,3558A,119.7183,30.2367,杭州市,市府大楼,,27,15,25,10,19,86,,104,100,9,10,7,7,0.5,0.5
2025-07-17T2200,3656A,120.1556,30.2864,杭州市,消防大队,,27,27,26,15,18,70,,131,112,18,11,6,6,0.6,0.8
2025-07-17T2200,1270A,117.1959,31.7848,合肥市,明珠广场,,41,22,17,19,11,130,,146,140,18,12,5,5,0.5,0.5
2025-07-17T2200,1271A,117.3072,31.8764,合肥市,三里街,,40,22,19,14,12,128,,128,128,14,8,6,6,0.5,0.5
2025-07-17T2200,1272A,117.2588,31.8707,合肥市,琥珀山庄,,43,22,18,19,15,136,,137,136,15,9,8,7,0.7,0.7
2025-07-17T2200,1273A,117.1604,31.9052,合肥市,董铺水库,,38,22,18,14,9,120,,126,124,8,4,5,4,0.4,0.4
2025-07-17T2200,1274A,117.25,31.8571,合肥市,长江中路,,47,,19,22,14,149,,145,144,10,7,6,5,0.5,0.5
2025-07-17T2200,1275A,117.266,31.9436,合肥市,庐阳区,,43,29,19,17,10,135,,140,139,13,5,8,9,0.6,0.5
2025-07-17T2200,1276A,117.3453,31.8616,合肥市,瑶海区,,42,27,16,15,9,132,,133,133,10,7,5,5,0.7,0.7
2025-07-17T2200,1277A,117.3027,31.7964,合肥市,包河区,,34,27,19,17,10,106,,126,120,39,19,5,5,0.6,0.5
2025-07-17T2200,1278A,117.2776,31.7385,合肥市,滨湖新区,,,31,19,22,16,128,,135,134,11,8,,6,,0.5
2025-07-17T2200,1279A,117.1318,31.8403,合肥市,高新区,,40,29,18,13,12,125,,139,134,15,10,4,4,0.5,0.5
2025-07-17T2200,3464A,117.3803,31.9147,合肥市,高教基地,,42,22,18,21,16,132,,132,132,11,6,5,5,0.7,0.7
2025-07-17T2200,3614A,79.924,37.0877,和田地区,地区环保局,细颗粒物(PM2.5),143,207,225,109,62,,,114,111,21,5,3,4,0.7,0.5
2025-07-17T2200,3615A,79.9131,37.113,和田地区,市环保局,颗粒物(PM10),117,184,204,55,63,68,,112,105,31,10,1,2,0.3,0.2
2025-07-17T2200,2517A,108.0497,24.6947,河池市,市环保站,,26,22,24,18,13,69,,87,82,8,8,7,5,0.6,0.6
2025-07-17T2200,2518A,108.0983,24.6989,河池市,市疾控中心,,40,40,27,25,15,39,,93,81,25,14,4,5,0.7,0.7
2025-07-17T2200,1696A,114.6778,23.7569,河源市,源西,,45,45,37,17,21,48,,114,90,30,16,3,3,0.8,0.7
2025-07-17T2200,1697A,114.6944,23.7586,河源市,东埔,颗粒物(PM10),63,75,39,39,24,54,,125,91,23,15,9,5,0.8,0.5
2025-07-17T2200,1698A,114.6892,23.7233,河源市,老城,颗粒物(PM10),55,60,40,27,24,24,,124,88,35,15,4,5,0.7,0.5
2025-07-17T2200,1718A,115.4208,35.2464,菏泽市,气象局,,42,33,35,16,21,134,,166,161,12,9,3,4,0.4,0.4
2025-07-17T2200,3374A,115.5564,35.0891,菏泽市,定陶老年大学,,35,31,33,9,15,111,,163,148,19,15,2,3,0.3,0.4
2025-07-17T2200,4184A,115.4797,35.24401,菏泽市,永昌路1号,,39,39,34,17,20,122,,165,156,18,13,5,7,0.2,0.2
2025-07-17T2200,4193A,115.4715,35.2800,菏泽市,长城路999号,,38,38,34,14,16,118,,167,156,19,12,6,7,0.4,0.4
2025-07-17T2200,2514A,111.5264,24.4172,贺州市,环保小区,细颗粒物(PM2.5),74,69,34,54,29,35,,78,71,12,10,10,13,0.8,0.9
2025-07-17T2200,2515A,111.5608,24.4078,贺州市,政协大楼,细颗粒物(PM2.5),59,55,34,42,25,44,,82,71,11,11,12,15,0.7,0.6
2025-07-17T2200,3534A,111.4744,24.4553,贺州市,西湾,,,,37,,20,,,73,,,10,,7,,0.5
2025-07-17T2200,2385A,114.17,35.9019,鹤壁市,市监测站,细颗粒物(PM2.5),53,42,48,37,23,142,,160,158,11,19,5,6,0.8,0.7
2025-07-17T2200,2386A,114.2956,35.7511,鹤壁市,市交警支队,细颗粒物(PM2.5),62,50,34,44,23,130,,156,154,28,15,4,4,1.2,0.8
2025-07-17T2200,2387A,114.2878,35.7306,鹤壁市,迎宾馆,颗粒物(PM10),55,59,35,33,22,134,,148,147,19,13,5,5,0.8,0.7
2025-07-17T2200,3474A,114.2617,35.6822,鹤壁市,大新区,,40,35,31,19,15,125,,147,144,20,6,6,7,0.7,0.6
2025-07-17T2200,3596A,114.1572,35.9603,鹤壁市,南山宾馆,颗粒物(PM10),55,59,38,35,25,145,,170,164,9,6,4,4,1.0,0.9
2025-07-17T2200,2244A,130.2537,47.3416,鹤岗市,哈啤分公司,,20,20,13,9,6,54,,106,90,12,6,10,10,0.8,0.7
2025-07-17T2200,2245A,130.2684,47.3086,鹤岗市,斯达机电,,27,22,21,9,8,84,,97,94,10,7,11,11,0.5,0.5
2025-07-17T2200,2246A,130.3114,47.3388,鹤岗市,东山纸板厂,,39,39,17,22,16,28,,86,66,19,11,11,10,1.0,0.6
2025-07-17T2200,2247A,130.1097,47.3382,鹤岗市,五号水库,,8,,6,3,5,21,,89,53,9,8,8,8,0.1,0.1
2025-07-17T2200,2263A,127.4833,50.2524,黑河市,交通局,,33,33,26,9,7,28,,57,49,11,12,6,9,0.4,0.3
2025-07-17T2200,2264A,127.5144,50.2341,黑河市,环保局,,48,48,25,15,11,23,,63,56,26,11,7,6,0.4,0.4
2025-07-17T2200,1074A,115.6838,37.7541,衡水市,电机北厂,颗粒物(PM10),54,57,45,14,22,114,,156,151,25,12,3,4,0.4,0.5
2025-07-17T2200,1075A,115.6303,37.7316,衡水市,市监测站,颗粒物(PM10),53,55,51,8,16,127,,156,153,11,7,9,9,0.4,0.4
2025-07-17T2200,3188A,115.6683,37.7217,衡水市,市城管局,颗粒物(PM10),54,58,41,20,22,128,,159,155,21,14,21,12,0.5,0.4
2025-07-17T2200,3459A,115.5989,37.5491,衡水市,地表水厂,颗粒物(PM10),51,52,38,12,10,39,,154,134,62,11,7,7,0.2,0.2
2025-07-17T2200,2456A,112.5003,26.9167,衡阳市,原169医院,,29,28,22,20,11,65,,99,91,18,6,3,4,0.5,0.4
2025-07-17T2200,2457A,112.6194,26.9258,衡阳市,衡阳化工总厂,,22,22,30,8,15,41,,91,78,11,9,2,5,0.8,0.7
2025-07-17T2200,2458A,112.6211,26.8956,衡阳市,珠晖区环保局,,22,22,22,14,12,69,,96,86,9,6,4,6,0.6,0.5
2025-07-17T2200,2459A,112.6197,26.8733,衡阳市,市委党校,,,,36,,13,70,,91,86,12,9,7,9,0.6,0.5
2025-07-17T2200,2460A,112.6006,26.8919,衡阳市,市监测站,,21,20,27,14,15,66,,91,84,11,11,1,4,0.6,0.5
2025-07-17T2200,2461A,112.5664,26.9056,衡阳市,真空机电公司,,24,20,21,15,12,74,,88,82,6,7,4,5,0.6,0.6
2025-07-17T2200,3399A,112.6703,26.882,衡阳市,师范学院,,42,31,36,29,17,56,,91,81,12,11,6,7,0.7,0.6
2025-07-17T2200,2608A,103.3772,23.3993,红河哈尼族彝族自治州,污水处理厂,,23,17,12,16,9,58,,64,59,6,6,7,8,0.3,0.2
2025-07-17T2200,2609A,103.3861,23.35,红河哈尼族彝族自治州,监测站,,25,25,23,11,8,51,,58,54,6,4,14,9,0.3,0.2
2025-07-17T2200,3038A,103.3758,23.368,红河哈尼族彝族自治州,州图书馆,,23,,9,16,17,57,,62,57,5,4,1,1,0.2,0.2
2025-07-17T2200,1090A,111.6507,40.7517,呼和浩特市,呼市一监,,36,36,17,17,8,72,,125,114,19,12,7,7,0.4,0.4
2025-07-17T2200,1091A,111.6572,40.8033,呼和浩特市,小召,,39,39,18,14,8,83,,124,117,31,21,8,7,0.6,0.5
2025-07-17T2200,1094A,111.7516,40.8369,呼和浩特市,如意水处理厂,,42,42,27,16,7,90,,134,125,26,16,2,2,0.4,0.3
2025-07-17T2200,1095A,111.7276,40.8062,呼和浩特市,二十九中,,35,31,18,10,7,112,,134,129,16,15,7,5,0.7,0.6
2025-07-17T2200,1096A,111.5512,40.7866,呼和浩特市,工大金川校区,,45,45,22,17,7,68,,130,118,43,22,7,6,0.4,0.3
2025-07-17T2200,1097A,111.717,40.7612,呼和浩特市,化肥厂生活区,颗粒物(PM10),51,52,18,22,7,74,,131,121,36,16,6,6,0.5,0.3
2025-07-17T2200,3698A,111.5968,40.8178,呼和浩特市,红旗小学,,41,41,21,25,9,56,,135,118,48,20,4,5,0.4,0.3
2025-07-17T2200,3699A,111.6518,40.8389,呼和浩特市,海东办,,29,29,18,14,8,68,,141,128,41,18,5,5,0.5,0.4
2025-07-17T2200,2192A,119.7594,49.2261,呼伦贝尔市,区环保局,,42,30,28,29,19,71,,85,83,20,23,7,6,0.5,0.4
2025-07-17T2200,3061A,119.7512,49.1577,呼伦贝尔市,国华电力东,,25,15,15,9,10,77,,107,102,9,9,3,3,0.5,0.5
2025-07-17T2200,1250A,120.0751,30.8669,湖州市,城西水厂,,43,42,32,30,21,109,,166,155,27,22,6,6,0.7,0.4
2025-07-17T2200,2873A,120.0830,30.8929,湖州市,仁皇山新区,,50,50,32,31,21,122,,171,163,11,15,3,4,0.8,0.7
2025-07-17T2200,2907A,120.1844,30.8596,湖州市,吴兴区站,,29,28,26,20,20,83,,168,153,19,11,6,7,0.5,0.6
2025-07-17T2200,3562A,120.4148,30.8538,湖州市,南浔区站,,38,22,27,20,21,120,,163,156,12,9,5,5,0.8,0.7
2025-07-17T2200,1607A,120.9049,40.7211,葫芦岛市,龙港区,,21,15,29,14,14,18,,66,52,42,26,5,6,0.7,0.6
2025-07-17T2200,1608A,120.8392,40.7514,葫芦岛市,化工街,,27,27,15,3,8,48,,73,61,28,26,5,10,0.6,0.5
2025-07-17T2200,1609A,120.8341,40.7073,葫芦岛市,新区,,20,13,19,10,15,64,,77,68,14,22,5,6,0.9,0.8
2025-07-17T2200,1610A,120.8695,40.7677,葫芦岛市,东城区,,23,,19,8,15,71,,71,66,14,23,5,7,0.8,0.6
2025-07-17T2200,2482A,109.5981,27.5721,怀化市,林科所,,32,32,25,16,5,40,,77,61,11,8,4,4,0.3,0.4
2025-07-17T2200,2483A,109.9453,27.5444,怀化市,河西地税局,,,47,25,8,16,,,72,57,24,7,3,2,0.4,0.4
2025-07-17T2200,2484A,109.9781,27.5342,怀化市,市四医院,,30,30,31,18,19,33,,84,73,11,8,4,6,0.3,0.2
2025-07-17T2200,2485A,109.9972,27.5578,怀化市,监测楼,,24,24,29,13,18,48,,83,69,4,5,4,4,0.1,0.2
2025-07-17T2200,2486A,110.0394,27.583,怀化市,市委党校,,24,24,23,13,16,36,,88,75,14,4,8,5,0.3,0.3
2025-07-17T2200,1210A,119.036,33.5981,淮安市,钵池山,,40,27,23,27,22,127,,151,146,13,10,6,7,0.7,0.7
2025-07-17T2200,1211A,119.007,33.575,淮安市,北京南路,,41,34,25,25,21,131,,150,147,12,10,7,7,0.7,0.7
2025-07-17T2200,1212A,118.989,33.6067,淮安市,市监测站,,40,34,26,27,21,126,,152,148,11,8,8,8,0.8,0.8
2025-07-17T2200,1213A,119.135,33.5039,淮安市,楚州区监测站,,48,46,36,33,22,129,,152,150,8,8,7,7,0.6,0.5
2025-07-17T2200,3426A,118.8755,33.2894,淮安市,新华书店,,41,31,26,23,19,129,,157,151,13,11,8,9,0.6,0.8
2025-07-17T2200,4206A,119.0288,33.6319,淮安市,承德北路606号,颗粒物(PM10),51,51,32,24,21,105,,144,138,21,10,5,5,0.6,0.5
2025-07-17T2200,2282A,116.8004,33.975,淮北市,监测站,臭氧1小时,53,36,35,20,23,162,,165,158,8,8,7,8,0.7,0.7
2025-07-17T2200,2283A,116.8091,33.9007,淮北市,烈山区政府,臭氧1小时,55,54,54,24,21,164,,174,165,6,4,7,7,0.6,0.8
2025-07-17T2200,3330A,116.8873,33.9836,淮北市,杜集区检察院,臭氧1小时,52,37,42,21,34,161,,168,165,9,9,7,8,0.7,0.9
2025-07-17T2200,4017A,116.7923,33.9535,淮北市,市博物馆,臭氧1小时,58,45,37,22,24,166,,173,167,8,7,8,9,0.7,0.8
2025-07-17T2200,2277A,116.8305,32.7727,淮南市,潘集区政府,颗粒物(PM10),51,52,31,22,13,125,,150,144,14,9,1,4,0.3,0.4
2025-07-17T2200,2279A,116.8569,32.5951,淮南市,谢家集区政府,,43,37,24,19,12,137,,161,158,11,7,6,6,0.3,0.3
2025-07-17T2200,2280A,116.8281,32.633,淮南市,八公山区政府,,47,27,27,12,13,149,,164,163,8,7,7,7,0.4,0.4
2025-07-17T2200,2894A,117.0566,32.6531,淮南市,经济技术开发区消防队,,44,43,27,8,8,139,,166,164,12,12,7,9,0.3,0.4
2025-07-17T2200,3329A,117.0108,32.5893,淮南市,山南新区,,45,35,21,12,9,143,,175,171,9,5,9,9,0.4,0.4
2025-07-17T2200,4209A,117.0031,32.6445,淮南市,国庆中路369号,,48,35,28,21,21,153,,180,178,10,9,11,12,0.3,0.3
2025-07-17T2200,2446A,114.9028,30.4742,黄冈市,职工中心,,33,33,31,20,21,95,,165,148,1,4,9,10,0.5,0.6
2025-07-17T2200,2929A,114.8858,30.4519,黄冈市,红卫路,,31,28,28,16,17,97,,170,153,3,4,8,9,0.5,0.5
2025-07-17T2200,3398A,114.9136,30.4445,黄冈市,市林业局,,34,34,34,19,18,90,,171,150,16,15,7,9,0.4,0.5
2025-07-17T2200,2672A,102.0199,35.5102,黄南藏族自治州,同仁县隆务镇,,32,32,32,12,11,55,,76,69,17,13,9,8,0.3,0.2
2025-07-17T2200,2295A,118.2903,29.6963,黄山市,延安路89号,,19,19,25,9,14,37,,86,74,13,6,3,3,0.6,0.6
2025-07-17T2200,2297A,118.1371,30.2756,黄山市,黄山区政府5号楼,,29,29,23,16,14,52,,92,83,6,4,4,4,0.5,0.5
2025-07-17T2200,4210A,118.3354,29.7203,黄山市,滨江东路7-2号,,30,27,29,8,10,96,,88,88,5,5,2,2,0.5,0.5
2025-07-17T2200,2423A,115.0601,30.2313,黄石市,沈家营,颗粒物(PM10),62,74,93,11,16,108,,156,147,1,15,8,7,0.4,0.6
2025-07-17T2200,2426A,114.8988,30.2019,黄石市,铁山,,33,33,32,15,12,99,,139,131,16,15,14,14,0.4,0.4
2025-07-17T2200,3149A,115.0235,30.1578,黄石市,笔架山北路,颗粒物(PM10),51,51,36,10,9,100,,134,128,7,9,6,7,0.5,0.6
2025-07-17T2200,4185A,115.0780,30.21118,黄石市,磁湖东路29号,颗粒物(PM10),52,53,47,9,16,108,,157,150,10,18,10,8,0.9,1
2025-07-17T2200,1392A,114.4183,23.0528,惠州市,河南岸金山湖子站,,47,47,38,26,23,98,,158,146,20,19,7,7,0.5,0.5
2025-07-17T2200,1393A,114.4053,23.0822,惠州市,下埔横江三路子站,,50,50,39,34,22,124,,168,160,12,16,5,5,0.4,0.4
2025-07-17T2200,1394A,114.4103,23.1142,惠州市,江北云山西路子站,颗粒物(PM10),53,55,38,32,21,115,,171,162,13,14,8,7,0.6,0.5
2025-07-17T2200,1395A,114.4645,22.7833,惠州市,惠阳区承修路船湖子站,,50,50,36,28,20,82,,147,138,30,19,6,6,0.7,0.6
2025-07-17T2200,1396A,114.5317,22.7422,惠州市,大亚湾管委会子站,,35,35,29,17,17,59,,134,116,26,19,7,7,0.7,0.6
2025-07-17T2200,3314A,114.4338,22.8134,惠州市,惠阳秋长,颗粒物(PM10),68,85,38,45,22,85,,141,136,44,24,6,3,0.7,0.4
2025-07-17T2200,3452A,114.6517,22.775,惠州市,大亚湾霞涌,,30,,21,21,19,44,,109,98,14,12,5,5,0.8,0.7
2025-07-17T2200,2240A,130.9762,45.3001,鸡西市,环保局,,20,20,18,8,7,61,,89,80,13,10,4,5,0.3,0.2
2025-07-17T2200,2243A,130.9429,45.3039,鸡西市,第一中学,,21,18,17,8,8,66,,88,81,11,12,8,8,0.3,0.3
2025-07-17T2200,3707A,131.0207,45.3073,鸡西市,欧美日汽修厂,颗粒物(PM10),58,65,29,11,10,64,,84,79,9,12,6,12,0.2,0.2
2025-07-17T2200,3709A,130.9967,45.3106,鸡西市,市政设施管理处,,25,25,19,14,9,57,,85,73,14,15,4,5,0.5,0.4
2025-07-17T2200,2367A,114.9754,27.0803,吉安市,红声器材厂,,,,38,21,21,65,,94,83,7,7,9,10,0.7,0.7
2025-07-17T2200,2368A,114.9658,27.0999,吉安市,市森林工业局,,39,39,35,23,20,80,,96,88,3,5,10,8,0.5,0.5
2025-07-17T2200,2369A,114.99,27.1312,吉安市,市环境监测站,,36,36,33,20,17,86,,108,97,6,6,18,14,0.5,0.5
2025-07-17T2200,2370A,115.0093,27.0968,吉安市,青原区法院,,41,41,35,26,19,60,,96,77,17,11,9,9,0.7,0.7
2025-07-17T2200,1772A,126.54,43.8622,吉林市,哈达湾,,27,27,17,13,11,53,,96,88,24,15,10,10,0.5,0.5
2025-07-17T2200,1773A,126.5844,43.8358,吉林市,东局子,,22,22,20,9,12,30,,88,76,18,14,5,6,0.7,0.5
2025-07-17T2200,1774A,126.5052,43.8245,吉林市,电力学院,,29,29,19,17,9,40,,103,93,23,14,16,8,0.6,0.6
2025-07-17T2200,1775A,126.6133,43.8972,吉林市,江北,,,14,14,,7,,,83,83,8,8,3,8,0.6,0.7
2025-07-17T2200,1776A,126.555,43.8306,吉林市,江南公园,,26,26,18,15,14,27,,93,78,32,17,2,5,0.6,1.3
2025-07-17T2200,2868A,126.4739,43.953,吉林市,九站,,37,37,23,10,11,13,,89,70,47,16,6,6,0.6,0.5
2025-07-17T2200,1299A,116.9862,36.6114,济南市,科干所,,34,27,25,17,19,107,,152,138,20,15,5,6,0.5,0.5
2025-07-17T2200,1300A,116.9376,36.665,济南市,农科所,,32,17,28,12,15,101,,150,137,16,15,7,8,0.4,0.5
2025-07-17T2200,1301A,117.1265,36.6734,济南市,开发区,,35,34,29,22,19,110,,162,144,27,20,7,8,0.6,0.7
2025-07-17T2200,1303A,117.0624,36.6868,济南市,省种子仓库,,42,34,37,14,17,134,,171,158,15,16,6,8,0.5,0.6
2025-07-17T2200,1304A,116.9489,36.6447,济南市,机床二厂,,39,24,29,10,14,123,,153,146,20,15,5,7,0.5,0.6
2025-07-17T2200,1305A,117.0495,36.663,济南市,市监测站,,36,32,30,17,17,113,,158,142,24,18,8,10,0.6,0.6
2025-07-17T2200,1306A,116.7675,36.5484,济南市,长清党校,,35,34,31,17,23,112,,155,143,25,18,6,5,0.5,0.5
2025-07-17T2200,1616A,117.6795,36.229,济南市,技术学院,,37,24,20,9,17,117,,155,146,23,13,7,10,0.6,0.7
2025-07-17T2200,1961A,117.532,36.6868,济南市,东山小学,,26,20,28,15,14,83,,152,131,17,15,6,7,0.3,0.4
2025-07-17T2200,3059A,117.7161,36.2049,济南市,泰兴公司,,31,31,28,19,18,71,,151,135,54,15,7,9,0.5,0.5
2025-07-17T2200,3064A,117.6867,36.2171,济南市,莱芜战役纪念馆,,34,27,30,19,20,108,,152,144,24,14,6,8,0.9,0.8
2025-07-17T2200,3494A,117.1673,36.9782,济南市,济阳区政府,,41,29,34,12,17,130,,146,141,12,13,9,9,0.3,0.5
2025-07-17T2200,3495A,117.1171,36.63,济南市,锦屏中学,,30,27,27,12,14,94,,164,145,18,12,7,8,0.7,0.7
2025-07-17T2200,3682A,116.9814,36.6819,济南市,济南四建,,38,27,29,17,18,119,,156,146,22,16,5,6,0.5,0.6
2025-07-17T2200,1653A,116.6251,35.4302,济宁市,火炬城,,36,30,30,12,15,115,,143,135,11,13,4,5,0.5,0.5
2025-07-17T2200,1655A,116.5491,35.4042,济宁市,电化厂,,36,36,37,17,17,115,,161,151,19,11,6,6,0.7,0.6
2025-07-17T2200,3500A,116.5814,35.3707,济宁市,北湖一中,,38,30,30,11,16,121,,143,139,11,12,6,6,0.5,0.5
2025-07-17T2200,3501A,116.8249,35.5593,济宁市,服务中心,,38,30,28,10,10,120,,152,144,21,15,1,2,0.3,0.4
2025-07-17T2200,3678A,116.5907,35.4054,济宁市,市第七中学,,36,21,32,7,10,113,,135,131,10,11,6,7,0.4,0.4
2025-07-17T2200,2255A,130.2751,46.8028,佳木斯市,佳纺,,23,23,20,12,11,42,,97,89,23,15,7,7,0.4,0.4
2025-07-17T2200,2256A,130.3995,46.8307,佳木斯市,发电厂,,25,25,19,8,12,55,,101,96,23,14,6,5,0.6,0.5
2025-07-17T2200,2257A,130.3258,46.7975,佳木斯市,环保局,,24,24,25,14,13,67,,98,95,27,21,8,8,0.5,0.5
2025-07-17T2200,2258A,130.3648,46.8032,佳木斯市,十一中,,21,21,18,10,13,60,,106,98,22,12,6,6,0.6,0.5
2025-07-17T2200,2259A,130.3794,46.7588,佳木斯市,四丰,,,,,,,6,,,,22,14,1,3,0.5,0.5
2025-07-17T2200,1252A,120.7436,30.778,嘉兴市,清河小学,,45,35,39,20,23,142,,160,156,17,17,8,8,0.5,0.6
2025-07-17T2200,1253A,120.726,30.7478,嘉兴市,嘉兴学院,,30,30,36,16,22,95,,172,161,31,16,4,4,0.8,0.7
2025-07-17T2200,2872A,120.7846,30.7525,嘉兴市,南湖区残联,,34,28,36,21,26,108,,166,154,19,13,6,6,0.6,0.6
2025-07-17T2200,3407A,120.6916,30.7739,嘉兴市,秀洲住建,,46,27,34,15,21,145,,172,167,12,16,5,6,0.6,0.6
2025-07-17T2200,1945A,98.2908,39.7711,嘉峪关市,气象局,颗粒物(PM10),109,168,58,36,19,94,,126,126,21,21,17,14,1.1,1
2025-07-17T2200,2884A,98.2672,39.7978,嘉峪关市,酒钢宾馆,颗粒物(PM10),108,166,62,39,21,113,,138,136,17,15,17,16,1.5,1.8
2025-07-17T2200,3248A,98.2643,39.7724,嘉峪关市,雄关区,颗粒物(PM10),86,122,48,30,15,97,,117,117,23,25,10,10,0.9,0.7
2025-07-17T2200,1383A,113.1064,22.6058,江门市,北街,细颗粒物(PM2.5),57,58,30,40,21,71,,136,124,40,9,3,3,0.7,0.5
2025-07-17T2200,1384A,113.0731,22.5835,江门市,西区,,43,43,29,22,22,58,,112,98,19,9,5,5,0.8,0.6
2025-07-17T2200,1385A,113.0219,22.5311,江门市,圭峰西,颗粒物(PM10),51,51,31,26,20,52,,106,98,17,6,4,4,0.6,0.5
2025-07-17T2200,1386A,113.0828,22.5947,江门市,东湖,,49,49,29,21,18,82,,111,105,21,9,6,5,0.6,0.5
2025-07-17T2200,3311A,113.1075,22.5647,江门市,江海富民,颗粒物(PM10),56,61,36,27,16,48,,123,114,22,10,7,7,0.5,0.3
2025-07-17T2200,3449A,113.05,22.4667,江门市,新会银湖,,32,27,31,22,18,39,,112,93,15,9,2,3,0.3,0.3
2025-07-17T2200,3335A,113.3137,35.2641,焦作市,马村街道办,颗粒物(PM10),51,52,45,20,21,115,,167,160,16,14,5,9,0.5,0.7
2025-07-17T2200,3336A,113.2465,35.2373,焦作市,焦作技师学院,,41,41,37,9,13,122,,163,159,13,12,5,5,0.8,0.8
2025-07-17T2200,3477A,113.1656,35.2539,焦作市,中站许衡医院,,43,43,31,19,19,129,,167,163,14,11,7,7,0.5,0.5
2025-07-17T2200,3981A,113.2449,35.1803,焦作市,原李万街道办,,48,48,38,7,11,118,,171,159,16,14,8,8,0.7,0.7
2025-07-17T2200,4264A,113.2340,35.2190,焦作市,新安路1731号,,41,41,36,9,14,130,,175,169,11,8,5,5,0.2,0.3
2025-07-17T2200,4295A,113.2722,35.2121,焦作市,人民路3066号,,43,43,44,20,21,114,,163,156,19,13,9,6,0.3,0.3
2025-07-17T2200,1708A,116.3701,23.5345,揭阳市,新兴,颗粒物(PM10),57,63,43,31,27,56,,109,88,22,10,7,5,0.8,0.7
2025-07-17T2200,1709A,116.3264,23.5443,揭阳市,西马,颗粒物(PM10),67,83,46,29,25,60,,98,80,13,7,3,2,0.9,0.7
2025-07-17T2200,1710A,116.3611,23.5626,揭阳市,东兴,颗粒物(PM10),66,82,42,32,21,43,,95,77,21,9,2,1,1.0,0.9
2025-07-17T2200,1711A,116.4151,23.5294,揭阳市,渔湖,,,74,44,29,20,,,99,86,14,9,5,2,0.6,0.5
2025-07-17T2200,3320A,116.403,23.5699,揭阳市,曲溪,颗粒物(PM10),52,54,42,32,24,56,,114,89,16,11,8,5,0.7,0.7
2025-07-17T2200,1944A,102.1692,38.5167,金昌市,天庆家园,颗粒物(PM10),500,703,124,135,32,102,,137,122,9,13,49,67,1.0,1
2025-07-17T2200,4022A,102.1647,38.5371,金昌市,金川区人防中心,颗粒物(PM10),476,576,102,155,36,120,,144,133,,10,,16,0.6,0.7
2025-07-17T2200,4239A,102.1930,38.5319,金昌市,长春路96号,颗粒物(PM10),500,674,125,151,35,111,,138,129,6,5,26,26,0.5,0.7
2025-07-17T2200,1262A,119.647,29.077,金华市,十五中,,28,28,42,18,23,86,,150,125,25,20,3,2,0.3,0.4
2025-07-17T2200,1263A,119.686,29.1029,金华市,监测站,,30,30,43,16,24,90,,152,129,19,17,6,4,0.4,0.4
2025-07-17T2200,3659A,119.656,29.1131,金华市,气象局,,28,28,44,11,20,88,,147,122,18,16,6,4,0.5,0.6
2025-07-17T2200,1767A,121.1115,41.0879,锦州市,南山,,16,,16,11,13,46,,66,59,10,8,4,6,0.7,0.8
2025-07-17T2200,1768A,121.0604,40.8428,锦州市,开发区,,17,,22,9,13,52,,75,68,25,26,3,5,0.7,0.7
2025-07-17T2200,1769A,121.1836,41.1119,锦州市,百股街道,,19,9,14,3,4,60,,81,77,14,7,4,5,0.6,0.6
2025-07-17T2200,1770A,121.1178,41.1222,锦州市,天安街道,,20,8,13,7,8,61,,71,68,12,11,5,6,0.6,0.6
2025-07-17T2200,1771A,121.1303,41.1386,锦州市,北湖公园,,15,,15,8,8,48,,65,61,8,6,4,4,0.6,0.5
2025-07-17T2200,2160A,112.85,35.5051,晋城市,自来水公司,臭氧1小时,62,51,47,14,17,169,,175,175,12,12,4,4,0.5,0.5
2025-07-17T2200,2161A,112.8318,35.4936,晋城市,白云商贸,,48,44,43,7,9,153,,162,162,11,11,5,5,0.5,0.5
2025-07-17T2200,2162A,112.8508,35.4887,晋城市,市环保局,颗粒物(PM10),61,72,46,17,15,150,,159,159,8,8,4,4,0.3,0.4
2025-07-17T2200,2163A,112.8676,35.4897,晋城市,技术学院,,50,50,40,12,13,147,,152,152,8,9,4,4,0.5,0.5
2025-07-17T2200,3620A,112.8271,35.4828,晋城市,泽州一中,,50,,34,12,12,158,,170,170,6,6,4,4,0.3,0.4
2025-07-17T2200,2173A,112.7249,37.7067,晋中市,南都小区,,42,42,43,16,21,97,,145,137,22,11,3,4,0.1,0.2
2025-07-17T2200,2174A,112.6991,37.6982,晋中市,榆次区政府,颗粒物(PM10),51,51,46,13,17,94,,149,140,26,15,8,8,0.5,0.6
2025-07-17T2200,2865A,112.7195,37.6828,晋中市,榆次三中,,39,39,37,14,15,110,,146,138,16,12,7,7,0.6,0.6
2025-07-17T2200,4200A,112.7478,37.6954,晋中市,迎宾街26号,颗粒物(PM10),56,61,44,12,14,100,,149,139,28,14,8,8,0.7,0.5
2025-07-17T2200,2439A,112.2014,31.0481,荆门市,竹园小学,,32,32,28,12,17,64,,88,86,11,14,2,3,0.8,0.6
2025-07-17T2200,2440A,112.1969,30.9891,荆门市,掇刀,,26,26,25,12,19,77,,100,98,11,19,6,7,0.6,0.6
2025-07-17T2200,2441A,112.2213,31.0386,荆门市,石化一小,,42,42,27,13,12,83,,104,101,10,10,7,8,1.0,0.7
2025-07-17T2200,3012A,112.1849,31.0362,荆门市,西山林语,,31,31,25,13,15,77,,89,89,3,5,6,6,0.6,0.5
2025-07-17T2200,3547A,112.1632,31.0138,荆门市,龙泉中学南校,,25,,20,17,17,55,,94,90,11,9,3,4,0.7,0.3
2025-07-17T2200,1844A,112.2494,30.3197,荆州市,市图书馆,,,27,27,14,14,96,,94,94,,8,7,2,0.6,0.6
2025-07-17T2200,1845A,112.2008,30.3544,荆州市,市委党校,,25,25,28,14,20,79,,92,92,13,15,2,3,0.6,0.7
2025-07-17T2200,3194A,112.2747,30.3122,荆州市,管委会,,43,,29,30,23,88,,86,86,13,11,5,5,0.6,0.6
2025-07-17T2200,4268A,112.1722,30.3366,荆州市,学苑路85号,,28,28,35,17,25,72,,84,84,7,12,2,6,0.5,0.5
2025-07-17T2200,2343A,117.2117,29.2933,景德镇市,老干部活动中心,,24,10,33,10,21,76,,114,100,7,11,6,6,0.4,0.6
2025-07-17T2200,2344A,117.1894,29.2789,景德镇市,兽医站,,32,32,41,17,23,83,,115,102,6,12,3,6,0.7,0.9
2025-07-17T2200,2346A,117.2461,29.2956,景德镇市,陶研所,,27,27,37,13,25,72,,116,99,11,12,4,11,0.7,0.9
2025-07-17T2200,1803A,115.9872,29.6815,九江市,十里,,39,,18,27,19,96,,131,129,16,13,4,4,0.8,0.7
2025-07-17T2200,1804A,115.9584,29.7046,九江市,茅山头,,32,22,21,22,13,97,,128,126,13,9,4,4,0.6,0.5
2025-07-17T2200,1805A,115.9877,29.7295,九江市,西园,,31,19,14,12,10,99,,131,130,17,23,5,6,0.7,0.7
2025-07-17T2200,1808A,115.9114,29.6038,九江市,综合工业园,,40,32,21,13,10,126,,119,119,14,18,6,6,1.2,1
2025-07-17T2200,1809A,116.0721,29.7535,九江市,石化总厂,,40,33,23,28,23,70,,112,108,24,17,8,9,0.6,0.6
2025-07-17T2200,1810A,115.9773,29.5698,九江市,庐山气象台,,38,19,15,3,6,119,,98,98,4,4,6,6,1.1,0.8
2025-07-17T2200,3190A,116.0254,29.6994,九江市,外国语学校,,29,,15,20,13,81,,137,133,18,10,6,7,0.8,0.8
2025-07-17T2200,4253A,116.0102,29.6594,九江市,莲花大道8号,,32,27,15,8,11,100,,114,112,8,3,4,4,1.0,0.7
2025-07-17T2200,4240A,98.4958,39.7339,酒泉市,玉门东路5号,颗粒物(PM10),65,80,62,46,33,99,,118,118,19,15,15,18,0.5,0.4
2025-07-17T2200,4241A,98.5099,39.7506,酒泉市,北大街108号,颗粒物(PM10),57,63,66,31,20,115,,132,132,10,15,134,23,0.5,0.5
2025-07-17T2200,2698A,76.0072,39.4467,喀什地区,巡警大队,臭氧1小时,52,52,61,15,20,161,,158,158,12,19,4,4,0.3,0.4
2025-07-17T2200,2699A,75.9755,39.4694,喀什地区,吾办,颗粒物(PM10),75,99,70,22,27,149,,152,152,21,23,8,6,0.6,0.5
2025-07-17T2200,4027A,75.9483,39.4689,喀什地区,老干局,颗粒物(PM10),52,54,68,15,18,152,,158,158,16,15,5,5,0.5,0.4
2025-07-17T2200,1824A,114.3389,34.7781,开封市,肿瘤医院,,44,43,33,13,15,138,,162,160,14,12,2,6,0.7,0.7
2025-07-17T2200,1826A,114.2885,34.7965,开封市,世纪星幼儿园,,45,37,31,22,19,144,,156,156,11,11,4,5,0.8,0.9
2025-07-17T2200,3147A,114.3438,34.8106,开封市,龙亭公园,,42,34,33,20,18,134,,154,153,13,11,4,3,0.6,0.5
2025-07-17T2200,3210A,114.3644,34.7964,开封市,汴京公园,,50,50,37,34,20,133,,155,154,14,12,4,7,0.6,0.5
2025-07-17T2200,3473A,114.2485,34.8306,开封市,技师学院,,46,,34,32,18,144,,150,150,9,11,6,5,0.7,0.7
2025-07-17T2200,3592A,114.4644,34.7556,开封市,祥符区生态环境局,,34,34,37,20,19,104,,151,140,32,21,4,5,0.6,0.5
2025-07-17T2200,1951A,84.895,45.6094,克拉玛依市,长征新村,,35,24,27,3,10,109,,129,124,7,9,3,4,0.2,0.2
2025-07-17T2200,1952A,84.8988,45.5893,克拉玛依市,南林小区,,36,27,30,8,11,115,,133,129,5,13,4,4,0.1,0.2
2025-07-17T2200,1954A,84.905,44.3396,克拉玛依市,独山子区,,26,26,21,11,9,63,,133,119,29,8,7,8,0.6,0.4
2025-07-17T2200,1955A,85.6979,46.098,克拉玛依市,乌尔禾区商贸楼,,45,45,41,3,12,127,,129,129,3,7,5,5,0.5,0.5
2025-07-17T2200,3612A,85.1045,45.6899,克拉玛依市,白碱滩区新站,"颗粒物(PM10),细颗粒物(PM2.5)",52,53,62,36,27,127,,145,142,6,10,9,9,0.5,0.5
2025-07-17T2200,2697A,76.1454,39.7142,克孜勒苏柯尔克孜自治州,市人民政府,,44,44,68,21,27,139,,145,145,14,18,4,10,0.2,0.2
2025-07-17T2200,3665A,76.1658,39.7157,克孜勒苏柯尔克孜自治州,克州文化中心,,48,48,69,19,29,140,,144,144,8,13,4,8,0.3,0.3
2025-07-17T2200,1450A,102.8204,24.8886,昆明市,呈贡新区,,19,,19,13,20,57,,90,81,18,17,4,2,0.4,0.5
2025-07-17T2200,1452A,102.7252,25.0902,昆明市,龙泉镇,,31,31,22,10,12,62,,93,85,12,12,1,1,0.4,0.4
2025-07-17T2200,1453A,102.7266,25.0375,昆明市,东风东路,,21,20,29,8,16,67,,97,86,13,19,4,4,0.3,0.4
2025-07-17T2200,1454A,102.6742,25.0669,昆明市,金鼎山,,22,22,28,6,11,61,,101,87,12,14,2,1,0.3,0.4
2025-07-17T2200,1455A,102.6644,25.0401,昆明市,碧鸡广场,,18,18,29,10,15,55,,97,83,14,18,6,5,0.4,0.5
2025-07-17T2200,3179A,102.7494,25.0119,昆明市,官渡区博物馆,,21,19,26,3,15,65,,94,86,10,24,3,2,0.3,0.4
2025-07-17T2200,3375A,102.8017,24.8336,昆明市,青年创业园,,19,11,26,10,19,60,,89,79,11,18,2,2,0.5,0.6
2025-07-17T2200,3550A,102.7997,24.9786,昆明市,昆明学院,,22,22,39,15,24,52,,95,84,23,29,5,6,0.4,0.4
2025-07-17T2200,3551A,102.5967,24.6736,昆明市,晋宁区生态环境分局,,34,34,23,14,17,56,,95,81,13,15,4,4,0.4,0.4
2025-07-17T2200,3552A,102.6678,24.9856,昆明市,云天化总部,,20,13,26,8,18,64,,107,94,8,22,5,4,0.0,0.2
2025-07-17T2200,1456A,91.1319,29.6514,拉萨市,八廓街,,27,24,10,8,6,84,,111,109,25,12,5,5,0.3,0.3
2025-07-17T2200,1457A,91.1221,29.6747,拉萨市,市环保局,,40,40,12,20,7,55,,114,108,30,11,5,5,0.4,0.2
2025-07-17T2200,1458A,91.0874,29.6475,拉萨市,区监测站,,24,19,9,3,6,74,,102,100,38,14,3,3,0.3,0.2
2025-07-17T2200,1459A,91.1774,29.6541,拉萨市,西藏大学,,30,10,8,6,6,95,,109,109,19,12,6,6,0.2,0.2
2025-07-17T2200,1460A,90.9798,29.6588,拉萨市,区辐射站,,29,23,14,10,8,90,,98,98,13,16,5,5,0.3,0.3
2025-07-17T2200,1461A,91.0834,29.6292,拉萨市,拉萨火车站,,29,16,8,8,6,92,,106,106,17,11,5,4,0.3,0.2
2025-07-17T2200,2520A,109.2203,23.7256,来宾市,来宾技工学校,颗粒物(PM10),52,54,32,23,17,51,,89,83,25,10,17,6,0.6,0.6
2025-07-17T2200,3535A,109.1781,23.7297,来宾市,兴宾区政府,,31,31,27,20,18,60,,94,89,16,10,6,7,0.6,0.6
2025-07-17T2200,4002A,109.2416,23.7461,来宾市,中南小学,,36,36,29,21,14,45,,94,88,30,9,4,4,0.7,0.6
2025-07-17T2200,1479A,103.831,36.0464,兰州市,铁路设计院,颗粒物(PM10),56,61,60,30,24,70,,120,101,36,26,9,8,0.4,0.4
2025-07-17T2200,3241A,103.7439,36.0842,兰州市,百合公园,,45,45,47,27,22,81,,122,106,15,15,3,4,0.5,0.5
2025-07-17T2200,3242A,103.9611,35.998,兰州市,和平,,37,37,28,24,19,100,,114,105,14,10,9,10,0.6,0.8
2025-07-17T2200,4236A,103.6293,36.0938,兰州市,庄浪东路808号,,40,40,54,25,31,24,,140,99,42,26,9,11,0.4,0.4
2025-07-17T2200,4237A,103.7251,36.1043,兰州市,安宁西路88号,细颗粒物(PM2.5),62,47,51,44,28,103,,148,129,3,11,5,6,0.3,0.4
2025-07-17T2200,4238A,103.8470,36.0676,兰州市,北滨河东路1号,颗粒物(PM10),63,76,47,33,26,42,,127,108,62,20,7,8,0.6,0.6
2025-07-17T2200,3245A,103.6633,36.533,兰州新区,新区管委会,,39,32,43,21,24,124,,155,148,10,8,6,10,0.4,0.4
2025-07-17T2200,3246A,103.6975,36.4789,兰州新区,舟曲中学,颗粒物(PM10),77,103,55,20,21,109,,142,132,8,9,4,7,0.4,0.5
2025-07-17T2200,1067A,116.6708,39.5111,廊坊市,药材公司,,43,43,30,18,11,100,,140,130,14,16,4,4,0.3,0.3
2025-07-17T2200,1068A,116.7214,39.5589,廊坊市,开发区,,29,26,29,12,13,90,,135,125,29,23,2,2,0.4,0.3
2025-07-17T2200,1070A,116.7244,39.5269,廊坊市,北华航天学院,,47,47,42,12,10,126,,138,132,11,12,2,3,0.3,0.3
2025-07-17T2200,2919A,116.7022,39.5453,廊坊市,河北工业大学,颗粒物(PM10),54,57,42,13,10,102,,140,134,23,19,4,4,0.3,0.3
2025-07-17T2200,2535A,103.7723,29.5462,乐山市,花湖湾,,35,28,42,23,31,111,,144,121,8,15,2,3,0.5,0.8
2025-07-17T2200,2536A,103.7627,29.5844,乐山市,牛耳桥,,32,31,40,22,31,87,,165,132,21,18,5,5,0.7,0.8
2025-07-17T2200,2537A,103.7508,29.6006,乐山市,市第三水厂,,,27,38,,27,89,,160,130,28,24,2,3,0.9,0.8
2025-07-17T2200,2538A,103.7571,29.5664,乐山市,市监测站,,32,29,44,22,29,102,,157,123,13,16,5,6,0.8,1.1
2025-07-17T2200,3361A,103.7311,29.5628,乐山市,理工大学,,32,26,44,22,30,82,,154,124,29,17,4,5,0.8,1.2
2025-07-17T2200,2599A,100.2497,26.8802,丽江市,丽江古城,,45,38,22,31,15,70,,108,98,18,12,10,10,0.6,0.5
2025-07-17T2200,2600A,100.2203,26.8906,丽江市,市中心,,32,25,17,22,17,65,,111,102,22,12,8,8,0.7,0.5
2025-07-17T2200,1267A,119.914,28.4514,丽水市,监测站大楼,,27,21,24,17,12,84,,95,87,12,12,4,3,0.4,0.4
2025-07-17T2200,1268A,119.93,28.4586,丽水市,莲都小学,,23,23,24,9,10,60,,92,80,14,13,3,3,0.3,0.3
2025-07-17T2200,1269A,119.879,28.4231,丽水市,余庄前,,23,23,24,15,18,57,,103,76,18,9,4,4,0.4,0.4
2025-07-17T2200,1173A,119.176,34.5885,连云港市,市环境监测站,,37,27,22,14,14,117,,171,155,14,12,5,5,0.3,0.4
2025-07-17T2200,3000A,119.3581,34.6972,连云港市,德源药业,,32,19,19,9,8,102,,141,127,20,16,4,4,0.7,0.7
2025-07-17T2200,3007A,119.178,34.844,连云港市,新城一中,,24,23,26,13,14,74,,148,133,47,17,4,7,0.7,0.9
2025-07-17T2200,3008A,119.3608,34.7519,连云港市,胡沟管理处,,35,19,14,12,6,112,,140,122,21,12,5,6,0.5,0.5
2025-07-17T2200,3009A,119.1478,34.5911,连云港市,矿山设计院,,36,24,23,14,13,113,,170,154,16,9,4,4,0.4,0.5
2025-07-17T2200,3434A,119.2413,34.6539,连云港市,工贸学校,,39,26,22,14,11,124,,167,156,3,4,6,7,0.7,0.8
2025-07-17T2200,3664A,119.4172,34.7341,连云港市,连云街道,,39,22,18,14,12,123,,150,142,11,13,2,3,0.5,0.6
2025-07-17T2200,2571A,102.3431,27.8099,凉山彝族自治州,青龙寺,,31,31,30,12,12,75,,126,113,8,9,6,7,0.6,0.6
2025-07-17T2200,2572A,102.2721,27.8415,凉山彝族自治州,邛海宾馆,,40,40,33,26,23,94,,148,140,16,18,9,10,0.4,0.5
2025-07-17T2200,2573A,102.2625,27.898,凉山彝族自治州,西昌市政府,细颗粒物(PM2.5),57,40,30,40,24,82,,145,130,11,8,7,8,0.6,0.5
2025-07-17T2200,2574A,102.2685,27.8851,凉山彝族自治州,凉山州政府,,40,38,32,28,22,84,,151,134,18,16,10,11,0.7,0.7
2025-07-17T2200,4229A,102.2342,27.8859,凉山彝族自治州,凯乐南路30号,,37,37,33,24,22,90,,140,130,8,16,9,10,0.6,0.7
2025-07-17T2200,2212A,123.2,41.1953,辽阳市,宏伟区,,45,,25,31,11,48,,144,103,26,12,2,7,0.7,0.7
2025-07-17T2200,2213A,123.1683,41.2495,辽阳市,新华园,,32,28,25,22,12,65,,147,117,22,13,4,7,0.5,0.6
2025-07-17T2200,2214A,123.2354,41.2639,辽阳市,滨河路,,,47,26,20,12,,,141,125,46,16,3,4,0.6,0.4
2025-07-17T2200,2215A,123.149,41.2991,辽阳市,铁西工业园,,37,37,28,19,11,44,,117,90,22,11,2,4,0.7,0.8
2025-07-17T2200,2227A,125.1358,42.8845,辽源市,环保局,,38,38,31,11,7,50,,106,98,26,12,7,6,0.6,0.5
2025-07-17T2200,3239A,125.0764,42.9078,辽源市,银鹰制药,,39,39,18,16,10,28,,106,85,42,18,5,10,0.5,0.5
2025-07-17T2200,1625A,115.9848,36.4372,聊城市,区政府,,40,30,27,19,17,127,,152,149,14,12,5,7,0.7,0.7
2025-07-17T2200,2878A,116.0072,36.4343,聊城市,聊大东校,,36,29,29,14,20,114,,155,149,15,12,4,6,0.8,0.8
2025-07-17T2200,3200A,115.9819,36.4978,聊城市,监控中心,,35,31,22,12,15,109,,158,147,22,14,6,8,0.6,0.6
2025-07-17T2200,3513A,116.0445,36.4361,聊城市,九州社区,,37,37,37,20,17,110,,148,139,21,14,3,5,0.6,0.5
2025-07-17T2200,4018A,116.0567,36.4608,聊城市,星美广场,颗粒物(PM10),58,65,39,34,16,102,,152,142,28,13,4,5,0.7,0.6
2025-07-17T2200,2632A,94.3681,29.6376,林芝市,林芝监测站,,23,15,8,10,12,72,,104,99,7,3,6,5,0.5,0.4
2025-07-17T2200,2633A,94.3616,29.6616,林芝市,林芝人民医院,,22,22,8,15,5,70,,103,99,8,2,4,4,0.4,0.3
2025-07-17T2200,2603A,100.0781,23.8982,临沧市,市环保局,细颗粒物(PM2.5),55,,20,39,17,26,,70,48,11,8,7,8,0.5,0.3
2025-07-17T2200,2604A,100.0894,23.8822,临沧市,市气象局,,22,22,17,15,10,26,,66,48,9,8,9,9,0.6,0.5
2025-07-17T2200,1733A,111.5531,36.0783,临汾市,临钢医院,颗粒物(PM10),61,72,55,11,19,116,,193,177,12,14,6,8,0.9,0.7
2025-07-17T2200,1734A,111.5028,36.0714,临汾市,技工学校,颗粒物(PM10),57,63,57,28,30,114,,194,176,18,13,5,6,0.5,0.6
2025-07-17T2200,1736A,111.5018,36.0855,临汾市,市委,颗粒物(PM10),64,78,64,16,18,129,,210,191,18,15,8,9,0.5,0.6
2025-07-17T2200,3018A,111.505,36.1014,临汾市,唐尧大酒店,颗粒物(PM10),64,78,64,14,17,121,,203,186,15,14,4,5,0.6,0.7
2025-07-17T2200,4244A,111.4879,36.0530,临汾市,启星学校,细颗粒物(PM2.5),62,60,53,44,34,109,,194,172,20,15,6,8,0.6,0.6
2025-07-17T2200,4271A,103.2464,35.6123,临夏回族自治州,滨河东路1号,,,66,58,24,24,,,108,108,13,14,4,5,0.4,0.4
2025-07-17T2200,4310A,103.2093,35.5995,临夏回族自治州,新华街21号,细颗粒物(PM2.5),60,45,59,43,28,80,,110,109,6,14,6,6,0.3,0.4
2025-07-17T2200,1618A,118.3429,35.0532,临沂市,沂河小区,,44,29,26,23,18,140,,163,159,18,12,10,8,0.6,0.4
2025-07-17T2200,1619A,118.295,35.0583,临沂市,鲁南制药厂,,48,29,22,18,14,151,,173,168,14,8,10,8,0.7,0.5
2025-07-17T2200,1620A,118.2794,34.9976,临沂市,新光毛纺厂,,43,19,15,17,15,135,,171,165,17,11,8,7,0.7,0.5
2025-07-17T2200,1621A,118.3956,35.0888,临沂市,河东保险公司,,37,36,22,15,10,116,,170,160,30,14,6,6,0.6,0.5
2025-07-17T2200,3370A,118.3564,35.0215,临沂市,十里堡居委,,49,27,19,14,15,155,,183,179,24,13,12,9,0.8,0.6
2025-07-17T2200,3496A,118.3604,35.1084,临沂市,南坊新区,,42,31,27,14,11,132,,173,163,21,14,10,9,0.5,0.4
2025-07-17T2200,1870A,109.4856,24.3895,柳州市,柳东小学,,35,27,26,24,17,97,,98,96,4,5,4,6,0.5,0.5
2025-07-17T2200,1871A,109.4157,24.3277,柳州市,环保监测站,,28,24,27,11,14,88,,102,100,11,6,7,7,0.5,0.5
2025-07-17T2200,1872A,109.389,24.341,柳州市,河西水厂,,,48,28,24,17,,,106,106,11,9,4,5,0.6,0.4
2025-07-17T2200,1873A,109.4311,24.2921,柳州市,市四中,,42,42,31,24,17,72,,104,100,23,11,7,6,0.7,0.5
2025-07-17T2200,1874A,109.4006,24.3631,柳州市,市九中,,44,44,36,19,15,94,,100,99,8,7,3,3,0.4,0.4
2025-07-17T2200,1875A,109.4958,24.3134,柳州市,古亭山,,30,30,29,14,15,39,,89,74,24,9,4,4,0.6,0.6
2025-07-17T2200,3402A,109.5422,24.3996,柳州市,市二中,,27,22,29,15,17,69,,98,90,16,10,80,11,0.6,0.6
2025-07-17T2200,2307A,116.5079,31.737,六安市,监测大楼,,37,31,20,22,15,117,,138,136,4,3,5,5,0.5,0.5
2025-07-17T2200,2308A,116.4738,31.7643,六安市,皖西学院,,40,33,18,21,15,125,,138,137,8,3,2,2,0.4,0.2
2025-07-17T2200,2309A,116.4996,31.7905,六安市,朝阳厂,,38,22,17,22,14,121,,137,135,9,7,4,4,0.4,0.4
2025-07-17T2200,2310A,116.5567,31.7886,六安市,开发区,,34,,15,22,16,106,,126,124,7,5,3,3,0.4,0.4
2025-07-17T2200,2577A,104.83,26.5917,六盘水市,黄土坡,,22,22,23,3,11,52,,106,92,17,11,10,9,0.4,0.4
2025-07-17T2200,2578A,104.89,26.5939,六盘水市,水钢,颗粒物(PM10),52,54,32,28,22,65,,110,98,21,9,6,6,1.1,0.5
2025-07-17T2200,2579A,104.8475,26.5894,六盘水市,民中,,26,20,24,14,12,81,,109,99,12,14,9,9,0.5,0.5
2025-07-17T2200,2580A,104.9544,26.5506,六盘水市,双水,,31,31,19,6,11,67,,99,89,12,8,10,10,0.2,0.2
2025-07-17T2200,2336A,117.0217,25.1033,龙岩市,龙岩市监测站,,14,7,32,3,17,43,,98,69,13,12,5,6,0.5,0.6
2025-07-17T2200,2337A,117.0258,25.0661,龙岩市,闽西职业技术学院,,16,16,36,3,18,38,,93,67,13,11,8,10,0.4,0.5
2025-07-17T2200,2338A,117.0196,25.0306,龙岩市,龙岩学院,,15,11,26,3,17,46,,90,70,6,7,3,2,0.3,0.4
2025-07-17T2200,2885A,104.9339,33.3826,陇南市,滨江中学,颗粒物(PM10),51,52,37,21,18,118,,120,119,2,4,6,7,0.4,0.5
2025-07-17T2200,3247A,104.955,33.371,陇南市,市总工会,颗粒物(PM10),58,65,48,21,20,137,,132,132,4,5,5,5,0.3,0.3
2025-07-17T2200,2487A,111.9589,27.8901,娄底市,电视发射台,,28,24,39,19,16,22,,55,34,5,5,8,7,0.4,0.4
2025-07-17T2200,2488A,111.9975,27.725,娄底市,市监测站,,30,30,27,10,19,54,,93,85,29,10,19,7,1.0,0.5
2025-07-17T2200,2489A,112.0194,27.7314,娄底市,市委党校,,29,21,25,18,19,91,,112,109,17,9,16,9,0.9,0.4
2025-07-17T2200,2490A,111.9561,27.7569,娄底市,涟钢,,26,26,32,14,20,63,,91,80,13,16,14,16,0.9,1
2025-07-17T2200,2491A,111.9892,27.7044,娄底市,市政府,,28,,23,19,21,66,,94,90,7,4,7,9,0.9,0.8
2025-07-17T2200,1893A,105.4324,28.9634,泸州市,九狮山,,40,36,40,28,27,41,,150,111,29,17,3,3,0.3,0.3
2025-07-17T2200,1894A,105.4427,28.9063,泸州市,小市上码头,,37,37,35,22,19,80,,,,13,13,3,4,0.3,0.3
2025-07-17T2200,1895A,105.4241,28.8573,泸州市,兰田宪桥,,31,31,37,16,20,88,,133,114,11,17,8,8,0.4,0.3
2025-07-17T2200,1896A,105.4379,28.8833,泸州市,市环监站,,30,27,32,21,24,92,,141,121,12,14,8,7,0.3,0.3
2025-07-17T2200,4272A,105.3689,28.7783,泸州市,纳溪中医医院,,48,48,36,27,23,65,,138,117,27,21,4,4,0.6,0.6
2025-07-17T2200,2183A,111.1406,37.5211,吕梁市,环保局,颗粒物(PM10),81,112,44,29,12,69,,145,126,44,25,3,4,0.5,0.4
2025-07-17T2200,2185A,111.1297,37.5136,吕梁市,自来水公司,颗粒物(PM10),53,56,58,17,12,89,,147,130,29,24,2,3,0.4,0.4
2025-07-17T2200,2867A,111.1283,37.51,吕梁市,马茂庄小学,颗粒物(PM10),54,58,46,26,13,59,,144,124,45,26,6,6,0.6,0.4
2025-07-17T2200,1812A,112.3931,34.6516,洛阳市,市委党校,臭氧1小时,54,32,32,14,17,163,,180,176,13,11,8,10,0.5,0.5
2025-07-17T2200,1815A,112.494,34.6886,洛阳市,河南林校,,50,39,45,17,22,158,,199,192,15,15,8,9,0.8,0.8
2025-07-17T2200,1816A,112.3844,34.623,洛阳市,开发区管委会,,49,32,30,24,18,155,,170,168,10,8,2,5,0.5,0.5
2025-07-17T2200,1817A,112.4267,34.6258,洛阳市,市委新办公区,,45,34,32,20,23,143,,169,164,17,14,9,11,0.6,0.5
2025-07-17T2200,3340A,112.6005,34.6326,洛阳市,伊滨,颗粒物(PM10),52,53,48,16,21,134,,183,174,13,13,4,6,0.8,0.8
2025-07-17T2200,3341A,112.4951,34.6332,洛阳市,中移产业园,,45,37,40,12,19,142,,182,175,16,13,8,8,0.7,0.8
2025-07-17T2200,3593A,112.5736,34.8993,洛阳市,吉利监测站,,46,36,45,17,24,145,,197,188,18,12,5,10,0.5,0.6
2025-07-17T2200,3635A,112.3677,34.662,洛阳市,河科大西苑校区,,49,32,33,11,14,156,,170,168,8,7,7,9,0.3,0.4
2025-07-17T2200,3636A,112.4388,34.6781,洛阳市,英才小学,,43,35,53,18,23,135,,175,168,12,10,8,10,0.5,0.6
2025-07-17T2200,4214A,112.4600,34.6949,洛阳市,春都路1号院,,44,38,40,10,16,140,,181,169,16,11,6,7,0.5,0.6
2025-07-17T2200,2399A,114.051,33.5699,漯河市,三五一五工厂,,39,39,36,19,26,117,,165,148,15,10,4,4,0.7,0.7
2025-07-17T2200,2400A,114.0055,33.5698,漯河市,漯河大学,,44,39,66,17,22,139,,179,164,12,11,5,4,0.6,0.5
2025-07-17T2200,2401A,114.0138,33.5828,漯河市,市水利局,,,,41,,25,123,,155,147,12,11,4,5,,0.5
2025-07-17T2200,2402A,114.0261,33.5698,漯河市,市广电局,,44,34,36,14,22,138,,174,160,11,10,2,2,0.5,0.5
2025-07-17T2200,3478A,113.9749,33.5664,漯河市,市图书馆,,43,23,34,18,23,136,,170,158,9,8,5,7,0.6,0.6
2025-07-17T2200,4250A,114.0892,33.5882,漯河市,韶山路11号,,46,46,38,16,25,91,,147,127,25,15,3,2,0.4,0.5
2025-07-17T2200,1798A,118.5092,31.6837,马鞍山市,湖东路四小,细颗粒物(PM2.5),67,,31,48,19,122,,141,141,11,12,6,8,0.6,0.7
2025-07-17T2200,1799A,118.5024,31.6449,马鞍山市,开发区,,42,42,25,26,12,132,,151,150,10,12,6,8,0.6,0.7
2025-07-17T2200,1802A,118.6245,31.7241,马鞍山市,濮塘,细颗粒物(PM2.5),62,,22,44,14,95,,146,136,8,9,6,7,0.7,0.8
2025-07-17T2200,3633A,118.4918,31.6809,马鞍山市,雨山,,38,38,23,26,12,119,,132,132,12,15,5,7,0.6,0.8
2025-07-17T2200,4191A,118.5274,31.72227,马鞍山市,慈湖高新区,颗粒物(PM10),54,58,32,35,16,133,,142,142,12,18,7,10,0.6,0.8
2025-07-17T2200,1686A,111.0286,21.4688,茂名市,电白南海,,35,29,31,24,21,101,,96,96,8,8,3,6,0.5,0.4
2025-07-17T2200,1687A,110.9294,21.6533,茂名市,茂石化七小,,35,27,35,24,20,42,,81,72,15,9,7,6,0.4,0.4
2025-07-17T2200,1688A,110.9107,21.6687,茂名市,健康路,,32,29,30,22,17,46,,87,76,12,10,13,8,0.5,0.5
2025-07-17T2200,1689A,110.8592,21.6828,茂名市,高岭,,,51,42,29,16,,,143,,22,15,27,7,0.3,0.4
2025-07-17T2200,3450A,111.01,21.5165,茂名市,电白水东,,32,31,28,22,14,99,,92,92,9,9,6,10,0.6,0.5
2025-07-17T2200,2539A,104.0308,30.0478,眉山市,黑龙滩水库,,46,40,26,32,12,96,,65,65,18,25,1,2,0.6,0.7
2025-07-17T2200,2540A,103.8416,30.0874,眉山市,气象局,颗粒物(PM10),64,77,52,34,28,74,,142,129,29,28,1,2,0.7,0.6
2025-07-17T2200,3137A,103.8578,30.0744,眉山市,市委党校,,,,42,,25,92,,155,143,22,29,6,7,0.6,0.7
2025-07-17T2200,3148A,103.8291,30.0564,眉山市,区人社局,,48,48,50,22,21,110,,161,148,23,23,10,9,0.9,0.8
2025-07-17T2200,1690A,116.1231,24.3284,梅州市,梅江月梅,,23,,34,16,22,66,,91,73,2,7,6,10,0.7,0.8
2025-07-17T2200,1691A,116.0797,24.2719,梅州市,梅县新城,,,,38,,23,,,100,89,,11,,6,,0.5
2025-07-17T2200,1692A,116.1248,24.2654,梅州市,环境监控中心,,36,36,38,9,21,72,,102,80,8,13,3,5,0.2,0.4
2025-07-17T2200,3315A,116.1233,24.2991,梅州市,梅龙,,20,14,33,3,11,64,,99,78,3,7,7,10,0.5,0.6
2025-07-17T2200,1878A,104.7778,31.4741,绵阳市,富乐山,,32,28,40,22,29,45,,144,99,22,14,8,9,0.7,0.7
2025-07-17T2200,1880A,104.6697,31.4668,绵阳市,高新区自来水公司,,45,45,51,31,26,93,,141,122,22,20,9,9,0.6,0.6
2025-07-17T2200,1881A,104.7287,31.5075,绵阳市,三水厂,,42,42,49,22,32,53,,149,115,46,26,6,6,0.5,0.5
2025-07-17T2200,3491A,104.69,31.5322,绵阳市,西科大附属小学,,49,49,52,30,28,67,,138,113,42,28,8,7,0.8,0.8
2025-07-17T2200,3492A,104.5648,31.5343,绵阳市,安州区旅游局,,48,48,46,22,23,98,,150,131,12,12,3,4,0.4,0.3
2025-07-17T2200,4226A,104.7651,31.4531,绵阳市,绵阳市气象局,,44,44,42,25,28,49,,142,112,33,18,3,4,0.7,0.6
2025-07-17T2200,1784A,129.61,44.561,牡丹江市,环保大楼,,19,15,14,13,11,50,,86,71,14,10,1,1,0.3,0.3
2025-07-17T2200,1785A,129.6115,44.5782,牡丹江市,文化广场,,19,15,14,13,10,45,,80,66,19,13,6,6,0.5,0.4
2025-07-17T2200,1786A,129.5904,44.5963,牡丹江市,第一医院,,31,31,16,15,14,31,,87,68,22,14,6,5,0.4,0.3
2025-07-17T2200,1787A,129.6364,44.6075,牡丹江市,机车工厂,,33,33,23,18,11,29,,82,63,17,12,5,5,0.5,0.4
2025-07-17T2200,1788A,129.6386,44.5462,牡丹江市,第一中学,,22,,17,15,11,36,,82,59,14,15,5,5,0.4,0.5
2025-07-17T2200,2531A,105.0703,29.61,内江市,市监测站,,35,27,28,24,27,78,,181,154,35,16,6,8,0.8,0.7
2025-07-17T2200,2532A,105.0717,29.5947,内江市,东兴区政府,,31,22,28,16,20,98,,172,148,22,16,5,5,0.5,0.6
2025-07-17T2200,2533A,105.0653,29.5817,内江市,内江二中,,36,,34,25,31,86,,155,148,27,18,5,5,0.6,0.6
2025-07-17T2200,2534A,105.0406,29.5822,内江市,内江日报社,,36,33,29,25,22,74,,147,129,36,24,2,3,0.5,0.5
2025-07-17T2200,2628A,92.0657,31.4846,那曲市,那曲监测站,,29,29,25,14,14,84,,113,108,14,13,9,15,0.4,0.4
2025-07-17T2200,4243A,92.0515,31.4787,那曲市,那曲市委宣传部,,32,26,14,12,7,100,,128,123,13,6,6,4,0.4,0.3
2025-07-17T2200,1290A,115.8931,28.6843,南昌市,省外办,,32,28,37,22,26,84,,139,131,10,17,6,10,0.5,0.6
2025-07-17T2200,1291A,115.8886,28.7003,南昌市,省林业公司,,24,24,38,12,20,11,,137,115,10,18,10,12,0.5,0.6
2025-07-17T2200,1292A,115.8126,28.7442,南昌市,林科所,,19,19,28,12,17,55,,121,104,14,21,5,8,0.4,0.4
2025-07-17T2200,1294A,115.8518,28.687,南昌市,建工学校,,27,25,49,8,16,85,,148,137,14,24,7,14,0.6,0.6
2025-07-17T2200,1295A,115.8921,28.6424,南昌市,象湖,,34,27,42,22,22,108,,162,153,8,17,7,11,0.6,0.6
2025-07-17T2200,1296A,115.7423,28.7996,南昌市,武术学校,,13,10,21,9,12,20,,63,38,5,5,35,14,0.8,0.6
2025-07-17T2200,3046A,115.9084,28.6062,南昌市,机电学校,,50,50,52,24,26,110,,162,159,17,20,7,8,0.8,0.8
2025-07-17T2200,3690A,115.9721,28.7031,南昌市,外国语学校,,,,37,25,16,,,131,,11,15,11,14,0.4,0.7
2025-07-17T2200,4192A,115.9316,28.68677,南昌市,南京东路235号,,41,41,40,7,19,121,,146,142,7,17,3,7,0.7,0.7
2025-07-17T2200,1906A,106.0789,30.8023,南充市,南充市委,,50,24,35,12,32,158,,169,169,22,16,4,5,0.7,0.5
2025-07-17T2200,1907A,106.1031,30.8217,南充市,南充炼油厂,,,,40,,31,,,164,164,,18,,7,,0.4
2025-07-17T2200,4227A,106.1083,30.7884,南充市,梨树横街98号,,48,48,43,30,26,138,,161,160,20,13,4,3,0.5,0.4
2025-07-17T2200,4304A,106.1172,30.843,南充市,清泉寺北路188号,颗粒物(PM10),57,64,44,21,31,138,,149,149,12,12,4,3,0.3,0.3
2025-07-17T2200,4305A,106.067,30.7616,南充市,同庆路1号,,48,42,42,27,27,151,,158,158,18,16,3,2,0.4,0.4
2025-07-17T2200,1151A,118.8086,32.1065,南京市,迈皋桥,,39,37,20,24,13,122,,165,147,27,19,4,4,0.3,0.5
2025-07-17T2200,1152A,118.7538,32.0551,南京市,草场门,,42,36,19,27,10,134,,147,143,15,12,7,8,0.7,0.6
2025-07-17T2200,1153A,118.7794,32.0745,南京市,山西路,,44,44,23,22,7,132,,154,148,12,13,3,4,0.6,0.6
2025-07-17T2200,1154A,118.7752,32.0023,南京市,中华门,,39,29,18,22,7,123,,144,137,10,8,11,11,0.7,0.6
2025-07-17T2200,1155A,118.8109,32.0309,南京市,瑞金路,,40,27,17,27,12,128,,150,142,6,10,7,7,0.2,0.2
2025-07-17T2200,1156A,118.7997,32.0754,南京市,玄武湖,,38,38,27,18,9,108,,134,126,15,11,9,9,0.7,0.6
2025-07-17T2200,1157A,118.6414,32.0931,南京市,浦口,,36,33,19,23,7,114,,136,132,13,7,4,4,0.6,0.4
2025-07-17T2200,1158A,118.7356,31.9996,南京市,奥体中心,,48,36,19,29,11,151,,150,150,9,11,4,4,0.4,0.1
2025-07-17T2200,1159A,118.9125,32.1028,南京市,仙林大学城,,48,48,28,19,9,107,,163,142,19,10,6,7,0.7,0.7
2025-07-17T2200,3422A,118.8436,31.9198,南京市,江宁彩虹桥,,42,39,26,22,13,133,,154,143,7,9,5,4,0.7,0.8
2025-07-17T2200,3427A,118.8554,32.3578,南京市,六合雄州,,,69,26,30,10,,,139,139,19,12,3,6,0.4,0.8
2025-07-17T2200,4249A,118.8708,31.3402,南京市,汶溪路181号,,43,35,17,27,13,135,,172,161,12,11,5,6,0.7,0.7
2025-07-17T2200,4312A,119.019,31.6512,南京市,中山西路1号,,37,27,17,22,16,116,,163,149,11,8,4,4,0.8,0.8
2025-07-17T2200,1401A,108.3103,22.7881,南宁市,二十一中,,25,,28,17,14,61,,95,84,10,7,5,4,0.6,0.5
2025-07-17T2200,1402A,108.3141,22.8528,南宁市,北湖,,34,34,26,15,15,79,,121,115,10,8,4,4,0.6,0.5
2025-07-17T2200,1403A,108.3206,22.8225,南宁市,市监测站,,41,41,27,14,15,77,,105,97,10,8,8,7,0.5,0.5
2025-07-17T2200,1404A,108.3829,22.8037,南宁市,大自然花园,,32,32,27,17,14,89,,105,98,8,6,6,4,0.4,0.3
2025-07-17T2200,1405A,108.4394,22.7904,南宁市,仙葫,,26,23,25,15,15,81,,87,83,8,8,9,8,0.9,0.8
2025-07-17T2200,1406A,108.2397,22.8467,南宁市,区农职院,,32,32,27,12,16,78,,108,102,11,11,4,3,0.6,0.6
2025-07-17T2200,1407A,108.3275,22.735,南宁市,英华嘉园,,24,24,26,12,14,66,,100,87,16,10,2,1,0.6,0.5
2025-07-17T2200,3401A,108.4834,22.7618,南宁市,红星社区,,40,40,26,21,17,91,,96,91,5,6,3,2,0.5,0.4
2025-07-17T2200,4221A,108.2177,22.7774,南宁市,乐贤路16号,,20,16,30,14,15,58,,99,89,19,15,10,5,0.7,0.6
2025-07-17T2200,2332A,118.1681,26.6369,南平市,南平市监测站,,23,21,27,16,20,37,,88,64,15,12,5,5,0.7,0.6
2025-07-17T2200,2333A,118.1825,26.6489,南平市,南平铝业有限公司,,34,34,30,9,18,44,,93,71,18,13,6,5,0.7,0.6
2025-07-17T2200,2334A,118.1756,26.6272,南平市,南平七中,,37,37,31,12,18,41,,81,64,10,10,4,4,0.6,0.6
2025-07-17T2200,1168A,120.9098,31.9663,南通市,狼山街道,,39,30,32,13,19,124,,166,140,5,18,2,4,0.7,0.9
2025-07-17T2200,1169A,120.86,32.0005,南通市,虹桥,,39,27,28,14,19,123,,166,142,8,23,1,3,0.8,1
2025-07-17T2200,1170A,120.87,32.02,南通市,城中,,34,34,38,15,20,104,,134,115,6,17,3,5,0.5,0.8
2025-07-17T2200,1171A,120.94,31.93,南通市,星湖花园,,37,18,30,9,21,118,,169,136,8,22,2,5,0.4,0.7
2025-07-17T2200,1172A,120.81,32.0417,南通市,紫琅学院,,34,21,29,7,16,108,,136,114,6,20,4,6,0.7,1
2025-07-17T2200,3291A,121.067,32.062,南通市,通州监测站,,37,22,28,17,19,116,,154,122,4,13,7,7,0.8,0.9
2025-07-17T2200,3432A,120.9348,31.9883,南通市,环境教育馆,,,41,36,15,18,,,167,137,,17,,4,0.3,0.5
2025-07-17T2200,2404A,112.5224,33.0122,南阳市,瓦房庄,臭氧1小时,52,38,38,17,21,161,,168,168,11,10,6,7,0.5,0.5
2025-07-17T2200,2405A,112.5003,32.9735,南阳市,汉画馆,,50,36,37,11,14,160,,165,165,11,11,7,8,0.4,0.4
2025-07-17T2200,2406A,112.5573,33.027,南阳市,气象站,臭氧1小时,52,36,35,17,18,161,,175,175,9,7,7,6,0.5,0.5
2025-07-17T2200,2407A,112.5481,32.9689,南阳市,理工学院,,49,39,35,12,13,156,,172,171,10,8,6,7,0.5,0.5
2025-07-17T2200,4008A,112.5234,32.9922,南阳市,卧龙区政府,,49,36,39,22,19,156,,169,169,11,10,5,7,0.6,0.6
2025-07-17T2200,1234A,121.8358,29.911,宁波市,区环保大楼,,39,39,37,18,19,70,,86,75,8,8,3,3,0.4,0.4
2025-07-17T2200,1235A,121.56,29.82,宁波市,万里学院,,36,36,35,25,24,73,,100,89,10,12,4,4,0.5,0.6
2025-07-17T2200,1236A,121.713,29.9572,宁波市,龙赛医院,,31,31,32,14,17,69,,92,82,10,7,3,4,0.4,0.4
2025-07-17T2200,1239A,121.633,29.7733,宁波市,钱湖水厂,,26,26,26,16,18,64,,91,80,7,5,4,4,0.5,0.5
2025-07-17T2200,1240A,121.5856,29.8635,宁波市,太古小学,,27,27,32,16,17,62,,96,81,10,7,2,4,0.4,0.6
2025-07-17T2200,1241A,121.524,29.8674,宁波市,市环境监测中心,,37,37,32,21,18,63,,96,84,18,11,4,5,0.7,0.7
2025-07-17T2200,2871A,121.6147,29.9017,宁波市,万里国际学校,,23,23,24,14,15,73,,104,91,8,6,3,4,0.6,0.6
2025-07-17T2200,3710A,121.5594,29.8975,宁波市,白沙活动中心,,31,31,26,20,17,76,,105,93,10,8,6,5,0.5,0.5
2025-07-17T2200,2341A,119.5388,26.6612,宁德市,宁德市监测站,,41,41,36,23,21,72,,119,110,16,14,8,8,0.5,0.6
2025-07-17T2200,3209A,119.5231,26.6562,宁德市,宁德一中,,43,43,37,26,24,77,,122,114,10,11,4,5,0.4,0.6
2025-07-17T2200,2618A,98.8601,25.8567,怒江傈僳族自治州,州监测站,,27,27,23,6,15,42,,84,74,10,8,6,9,0.5,0.4
2025-07-17T2200,2619A,98.8546,25.8417,怒江傈僳族自治州,泸水一中,,24,24,16,13,10,18,,57,,16,11,6,6,0.5,0.2
2025-07-17T2200,1888A,101.6891,26.571,攀枝花市,弄弄坪,,49,49,65,29,29,75,,139,125,25,20,15,41,1.6,0.9
2025-07-17T2200,1889A,101.5769,26.5928,攀枝花市,河门口,,46,46,38,30,20,94,,152,135,20,16,11,20,0.7,1.1
2025-07-17T2200,1890A,101.7169,26.585,攀枝花市,炳草岗,颗粒物(PM10),51,52,55,34,28,72,,144,133,31,17,10,40,0.7,0.8
2025-07-17T2200,1891A,101.7369,26.5008,攀枝花市,仁和,,41,41,40,26,26,61,,129,117,14,13,9,13,0.6,0.6
2025-07-17T2200,2835A,101.7227,26.567,攀枝花市,四十中小,,49,49,46,31,30,80,,154,137,37,17,9,60,1.1,1
2025-07-17T2200,1604A,122.0303,41.1489,盘锦市,开发区,,19,12,23,8,19,58,,100,77,9,16,9,10,0.5,0.6
2025-07-17T2200,1605A,122.0485,41.0883,盘锦市,兴隆台,,20,17,26,10,15,62,,114,85,13,18,6,7,0.5,0.7
2025-07-17T2200,1606A,121.8297,41.1028,盘锦市,新生街道,,20,10,15,3,12,64,,100,74,17,21,3,5,0.5,0.5
2025-07-17T2200,1832A,113.3257,33.742,平顶山市,新华旅馆,,41,41,39,20,23,130,,170,151,15,13,3,5,0.4,0.5
2025-07-17T2200,1833A,113.2919,33.737,平顶山市,规划设计院,,43,36,36,15,23,135,,168,147,11,12,6,10,0.6,0.6
2025-07-17T2200,1834A,113.182,33.774,平顶山市,平顶山工学院,,43,28,33,14,18,135,,173,162,12,10,6,8,0.5,0.6
2025-07-17T2200,3204A,113.3025,33.73,平顶山市,规划局,,,34,37,,15,,,174,164,9,10,4,6,0.6,0.6
2025-07-17T2200,3594A,112.8867,33.9116,平顶山市,石龙区,,39,36,36,18,18,124,,170,159,15,11,10,9,0.5,0.7
2025-07-17T2200,2656A,106.6692,35.5461,平凉市,聚贤嘉苑,颗粒物(PM10),57,64,53,24,14,134,,142,141,13,19,11,14,0.8,0.8
2025-07-17T2200,2657A,106.7021,35.5307,平凉市,博物馆,颗粒物(PM10),53,55,51,22,16,124,,143,138,13,17,10,10,0.9,0.9
2025-07-17T2200,2348A,113.8385,27.6434,萍乡市,中医院,,30,26,26,21,12,58,,96,87,11,11,10,11,0.8,0.8
2025-07-17T2200,2349A,113.8493,27.6253,萍乡市,市政府车库,,30,22,17,21,19,43,,81,73,9,9,9,9,0.5,0.5
2025-07-17T2200,2350A,113.8676,27.6435,萍乡市,市环保局,,45,32,26,31,16,58,,90,85,8,11,8,8,0.7,0.8
2025-07-17T2200,2351A,113.866,27.6198,萍乡市,安源区政府,,,,21,,14,,,82,82,6,6,9,9,1.1,0.5
2025-07-17T2200,2319A,119.0141,25.4325,莆田市,荔城区仓后路,,19,19,48,8,21,54,,94,82,9,12,4,4,0.6,0.6
2025-07-17T2200,2320A,119.0015,25.4553,莆田市,莆田市监测站,,24,24,44,8,25,39,,95,75,6,11,4,5,0.5,0.5
2025-07-17T2200,2321A,119.1119,25.4561,莆田市,涵江区六中,,24,24,39,16,22,50,,102,88,12,12,3,3,0.5,0.4
2025-07-17T2200,2322A,119.1013,25.3215,莆田市,秀屿区政府,,28,28,41,19,28,51,,103,83,18,11,4,3,0.7,0.5
2025-07-17T2200,2392A,115.0312,35.7636,濮阳市,环保局,,47,,32,22,24,148,,190,186,11,12,3,5,0.5,0.6
2025-07-17T2200,2394A,115.0574,35.7609,濮阳市,油田运输公司,,44,36,42,17,25,138,,179,175,8,10,2,3,0.6,0.7
2025-07-17T2200,3021A,115,35.7668,濮阳市,濮水河管理处,,43,29,37,21,26,137,,174,169,8,10,2,3,0.4,0.5
2025-07-17T2200,4216A,115.0924,35.7686,濮阳市,任丘路479号,,50,50,48,25,27,113,,173,166,14,10,5,7,0.5,0.5
2025-07-17T2200,2601A,100.98,22.7633,普洱市,市环保局,,35,26,23,24,14,12,,50,29,7,6,4,4,0.6,0.5
2025-07-17T2200,2602A,100.9817,22.8322,普洱市,普洱第二中学,,,,20,,10,,,45,38,,9,,7,,0.5
2025-07-17T2200,2262A,131.0518,45.8751,七台河市,新一中,,22,16,18,15,10,65,,98,87,17,12,10,10,1.0,1
2025-07-17T2200,3345A,131.0577,45.7879,七台河市,中波台,,17,,12,7,8,53,,70,64,17,18,7,8,0.6,0.6
2025-07-17T2200,3637A,131.0176,45.7761,七台河市,人民广场,,22,16,17,8,12,69,,80,78,12,10,11,11,0.6,0.5
2025-07-17T2200,3684A,130.8781,45.8222,七台河市,新建矿广场,,20,,15,8,7,63,,80,75,14,17,10,10,0.4,0.5
2025-07-17T2200,1779A,123.9305,47.3636,齐齐哈尔市,安居小区,,14,13,17,9,7,44,,59,58,17,13,3,2,0.4,0.6
2025-07-17T2200,1780A,123.9488,47.3386,齐齐哈尔市,中心广场,,27,27,17,14,3,52,,57,57,14,12,3,4,0.5,0.4
2025-07-17T2200,1781A,123.9483,47.3227,齐齐哈尔市,农牧车辆厂,,22,22,20,12,9,56,,61,61,12,11,6,6,0.3,0.3
2025-07-17T2200,1783A,123.945,47.2988,齐齐哈尔市,市环境监测站,,21,21,12,12,7,51,,55,55,12,12,5,5,0.4,0.4
2025-07-17T2200,3662A,123.6333,47.2075,齐齐哈尔市,富区青少年活动中心,,20,20,9,12,6,47,,58,58,16,15,4,4,0.3,0.2
2025-07-17T2200,2591A,107.9783,26.5747,黔东南苗族侗族自治州,市环境监测站,,20,17,16,14,12,51,,66,60,8,4,2,2,0.5,0.4
2025-07-17T2200,2881A,107.8908,26.5311,黔东南苗族侗族自治州,凯里学院,,22,22,18,14,13,42,,73,67,12,8,2,2,0.4,0.4
2025-07-17T2200,2593A,107.5228,26.2403,黔南布依族苗族自治州,小围寨,,20,14,13,14,8,45,,60,57,4,4,2,3,0.5,0.4
2025-07-17T2200,3538A,107.5175,26.2978,黔南布依族苗族自治州,沙坝,,19,19,15,3,2,45,,66,60,8,6,4,4,0.3,0.3
2025-07-17T2200,2589A,104.9022,25.0925,黔西南布依族苗族自治州,场坝街,,36,36,28,13,11,65,,68,66,9,14,7,16,0.4,0.4
2025-07-17T2200,2590A,104.8811,25.0992,黔西南布依族苗族自治州,坪东大道,,40,,20,28,14,55,,70,64,11,14,3,5,0.4,0.3
2025-07-17T2200,2502A,108.6236,21.9667,钦州市,市环保站,,15,14,22,3,8,48,,84,,11,11,2,3,0.5,0.4
2025-07-17T2200,2503A,108.6549,21.9481,钦州市,沙埠小学,,17,9,28,8,12,52,,100,75,9,13,1,2,0.5,0.7
2025-07-17T2200,2504A,108.5989,21.7431,钦州市,港区一小,,45,45,31,14,16,35,,68,55,24,14,2,3,0.4,0.4
2025-07-17T2200,3404A,108.5959,21.9633,钦州市,北职校,,16,15,26,7,10,51,,94,78,6,10,2,2,0.4,0.4
2025-07-17T2200,1043A,119.7493,40.0116,秦皇岛市,第一关,,29,29,21,15,8,40,,108,94,48,29,4,5,0.3,0.2
2025-07-17T2200,1044A,119.5897,39.9499,秦皇岛市,监测站,,30,19,31,6,6,95,,106,102,14,23,5,5,0.4,0.4
2025-07-17T2200,1046A,119.5251,39.9041,秦皇岛市,建设大厦,,24,21,28,13,7,74,,103,93,18,32,4,5,0.4,0.4
2025-07-17T2200,3132A,119.610547,39.943889,秦皇岛市,文明里,,32,26,25,12,6,102,,100,98,19,21,6,5,0.3,0.2
2025-07-17T2200,4198A,119.5090,39.8253,秦皇岛市,北戴河轮滑馆,颗粒物(PM10),52,53,30,21,10,154,,113,113,10,14,3,2,0.7,0.4
2025-07-17T2200,1307A,120.6659,36.2403,青岛市,仰口,,38,23,24,11,15,120,,136,126,8,8,10,7,0.2,0.3
2025-07-17T2200,1310A,120.4134,36.0658,青岛市,市南区东部子站,,34,12,23,7,14,108,,163,138,11,7,6,6,0.2,0.2
2025-07-17T2200,1311A,120.3664,36.1032,青岛市,四方区子站,,40,22,26,14,17,127,,170,153,15,13,2,2,0.2,0.2
2025-07-17T2200,1312A,120.2994,36.054,青岛市,市南区西部子站,,27,22,26,15,15,84,,149,127,38,16,8,8,0.6,0.6
2025-07-17T2200,1313A,120.4581,36.0858,青岛市,崂山区子站,,38,17,21,12,14,119,,160,137,14,16,7,8,0.2,0.2
2025-07-17T2200,1315A,120.3999,36.3083,青岛市,城阳区子站,,36,36,26,15,14,99,,148,134,28,11,6,6,0.5,0.4
2025-07-17T2200,1966A,120.0405,35.8735,青岛市,黄岛区4号,,40,24,20,9,11,125,,170,151,14,11,9,10,0.5,0.5
2025-07-17T2200,3362A,120.5014,36.4034,青岛市,即墨2号,,32,30,25,14,14,100,,141,130,20,11,4,3,0.4,0.3
2025-07-17T2200,3642A,120.3503,36.0736,青岛市,市北区南部,,35,21,26,9,14,110,,155,138,21,19,10,11,0.5,0.5
2025-07-17T2200,3643A,120.3948,36.1805,青岛市,李沧区北部,,33,22,23,19,20,104,,148,131,14,11,5,5,0.3,0.3
2025-07-17T2200,4290A,120.1969,35.9546,青岛市,珠江路669号,,41,,22,15,16,129,,155,145,3,18,5,7,0.5,0.5
2025-07-17T2200,1702A,113.0426,23.691,清远市,环保大楼,细颗粒物(PM2.5),54,55,40,38,30,57,,97,88,25,16,6,6,0.9,0.8
2025-07-17T2200,1703A,113.0208,23.7106,清远市,凤城街办,"颗粒物(PM10),细颗粒物(PM2.5)",53,55,45,37,26,56,,84,75,19,22,21,9,0.7,0.6
2025-07-17T2200,3025A,113.0477,23.6344,清远市,技师学院,细颗粒物(PM2.5),60,66,42,43,24,43,,90,80,37,18,9,12,0.7,0.5
2025-07-17T2200,3318A,112.9903,23.7403,清远市,清新太和,,44,44,42,25,24,53,,82,66,13,16,7,6,0.8,0.7
2025-07-17T2200,3455A,113.076,23.7198,清远市,清城东城,颗粒物(PM10),55,60,40,33,25,56,,89,81,19,14,7,6,0.8,0.6
2025-07-17T2200,2661A,107.6325,35.7357,庆阳市,庆阳五中,,45,35,27,17,9,141,,152,152,7,6,6,7,0.6,0.4
2025-07-17T2200,2662A,107.6364,35.7067,庆阳市,市环保局,,46,35,27,15,9,147,,160,160,4,5,10,11,0.8,0.7
2025-07-17T2200,1916A,103.7897,25.5035,曲靖市,环境监测站,,24,24,30,9,14,53,,97,86,17,14,16,8,0.5,0.5
2025-07-17T2200,1917A,103.8,25.5364,曲靖市,烟厂办公区,,,18,33,9,19,,,97,93,11,15,4,9,0.4,0.6
2025-07-17T2200,3376A,103.7947,25.462,曲靖市,南苑二区,,22,22,22,12,12,56,,101,91,16,10,7,5,0.5,0.4
2025-07-17T2200,3377A,103.7444,25.5261,曲靖市,曲靖师范学院,,43,,33,30,21,59,,87,82,11,14,7,10,0.3,0.4
2025-07-17T2200,1264A,118.8692,28.9398,衢州市,环保大楼,,24,24,37,11,22,58,,98,80,17,18,2,3,0.4,0.4
2025-07-17T2200,1265A,118.8709,28.9666,衢州市,实验学校,,22,22,36,3,19,51,,100,74,15,18,3,5,0.5,0.5
2025-07-17T2200,1266A,118.8621,28.9808,衢州市,衢州学院,,21,21,34,10,21,63,,110,79,13,25,3,4,0.4,0.4
2025-07-17T2200,1611A,118.5819,24.9117,泉州市,涂山街,,20,20,37,13,25,62,,134,110,18,16,2,2,0.5,0.5
2025-07-17T2200,1612A,118.5972,24.8978,泉州市,津头埔,,22,18,38,11,24,68,,164,121,13,13,2,2,0.5,0.5
2025-07-17T2200,1613A,118.6663,24.9424,泉州市,万安,,20,11,41,8,24,62,,134,108,12,14,1,2,0.4,0.4
2025-07-17T2200,3529A,118.6333,24.9264,泉州市,城华南路,,19,18,41,12,25,59,,138,108,9,12,3,4,0.4,0.4
2025-07-17T2200,2626A,88.8876,29.2718,日喀则市,日喀则监测站,,14,9,6,3,1,43,,65,53,15,8,16,16,0.3,0.3
2025-07-17T2200,3726A,88.8781,29.2426,日喀则市,林业技术推广中心,,19,9,10,3,2,60,,85,79,3,3,9,8,0.2,0.3
2025-07-17T2200,1659A,119.471,35.4209,日照市,监测站,,42,,15,21,12,133,,163,159,10,12,6,6,0.4,0.5
2025-07-17T2200,1660A,119.523,35.4216,日照市,市政府广场,,32,22,16,15,10,101,,171,157,31,9,13,6,0.7,0.7
2025-07-17T2200,1661A,119.5587,35.4044,日照市,港务局,,39,39,18,18,15,105,,175,157,32,10,9,9,0.7,0.6
2025-07-17T2200,3507A,119.5328,35.4625,日照市,职业技术学院,,32,29,16,12,9,100,,173,160,17,8,4,5,0.7,0.6
2025-07-17T2200,3604A,119.3266,35.1044,日照市,岚山环保分局,,38,19,23,3,9,120,,158,151,10,16,8,17,0.6,1.3
2025-07-17T2200,1835A,111.1922,34.7752,三门峡市,市政府,,39,39,38,16,20,113,,153,143,20,9,6,4,0.7,0.8
2025-07-17T2200,1836A,111.1587,34.7942,三门峡市,开发区,,40,36,34,19,17,126,,168,155,24,13,7,8,0.5,0.5
2025-07-17T2200,3039A,111.1911,34.7829,三门峡市,三门峡市第一小学,,41,38,35,22,29,131,,162,153,21,13,12,11,0.5,0.5
2025-07-17T2200,3598A,111.1,34.7167,三门峡市,富达温泉假日酒店,,,,43,,22,,,151,146,9,8,10,12,0.3,0.7
2025-07-17T2200,2324A,117.6211,26.2625,三明市,三钢,,29,29,35,20,22,20,,92,58,20,15,5,9,1.1,1.2
2025-07-17T2200,2325A,117.635,26.2714,三明市,三明二中,,,,30,8,17,,,91,68,16,13,2,2,,0.9
2025-07-17T2200,2326A,117.6028,26.2378,三明市,三元区政府,,30,30,32,12,18,23,,94,54,27,15,5,6,1.0,0.6
2025-07-17T2200,1876A,109.5078,18.2489,三亚市,河东子站,,19,19,16,12,9,49,,56,53,5,4,4,3,0.3,0.3
2025-07-17T2200,1877A,109.4964,18.2681,三亚市,河西子站,,26,22,17,18,8,45,,56,53,6,4,2,2,0.2,0.2
2025-07-17T2200,3540A,109.7348,18.3443,三亚市,君悦子站,,21,21,18,12,8,39,,69,59,12,7,1,1,0.3,0.2
2025-07-17T2200,2624A,91.7608,29.2313,山南市,山南监测站,,34,11,7,3,4,107,,115,115,8,12,4,6,0.3,0.3
2025-07-17T2200,2625A,91.7706,29.2436,山南市,山南人民医院,,35,14,15,8,5,109,,118,118,8,10,4,6,0.3,0.3
2025-07-17T2200,1674A,116.6794,23.3667,汕头市,金平子站,颗粒物(PM10),52,54,33,35,22,72,,120,102,14,10,3,3,0.8,0.7
2025-07-17T2200,1675A,116.7244,23.3633,汕头市,龙湖子站,颗粒物(PM10),55,60,33,21,18,70,,107,90,13,11,6,7,0.7,0.7
2025-07-17T2200,1676A,116.7258,23.2775,汕头市,濠江子站,,29,29,38,18,21,48,,72,63,21,13,6,6,0.7,0.8
2025-07-17T2200,1677A,116.7519,23.4714,汕头市,澄海子站,,32,28,38,22,21,68,,120,90,9,12,2,3,0.6,0.7
2025-07-17T2200,1678A,116.6092,23.2539,汕头市,潮阳子站,颗粒物(PM10),51,52,37,33,23,62,,112,98,10,6,6,5,0.6,0.5
2025-07-17T2200,3444A,116.454,23.2684,汕头市,潮南峡山,,,,33,,20,,,114,88,14,8,5,6,,0.8
2025-07-17T2200,3624A,116.4069,23.2533,汕头市,潮南子站,,,69,36,48,19,67,,114,91,11,7,4,4,,0.6
2025-07-17T2200,1693A,115.3653,22.775,汕尾市,市环保局,,18,18,20,7,10,56,,91,85,11,7,2,2,0.5,0.5
2025-07-17T2200,1694A,115.3706,22.7898,汕尾市,市政府,,30,23,28,21,16,52,,95,84,11,6,3,3,0.5,0.5
2025-07-17T2200,1695A,115.3622,22.7925,汕尾市,新城中学,,24,24,26,10,12,56,,93,86,14,8,3,3,0.5,0.5
2025-07-17T2200,2645A,109.9154,33.8715,商洛市,监测站,,20,20,30,10,15,41,,97,84,17,10,4,5,0.6,0.6
2025-07-17T2200,3045A,109.9643,33.8471,商洛市,商州区中学,,26,26,35,13,15,34,,93,78,19,14,3,5,0.5,0.4
2025-07-17T2200,2408A,115.6702,34.4285,商丘市,环境监测站,,38,37,42,18,25,121,,172,162,22,12,4,5,0.5,0.5
2025-07-17T2200,2409A,115.6458,34.4045,商丘市,粮食局,,,33,37,,16,,,167,167,9,10,4,5,0.6,0.6
2025-07-17T2200,2410A,115.6293,34.3948,商丘市,睢阳区环保局,,49,35,49,18,20,155,,174,170,8,9,4,4,0.3,0.3
2025-07-17T2200,3171A,115.6071,34.4465,商丘市,梁园区档案局,,43,34,41,19,22,136,,160,155,11,12,3,4,0.5,0.6
2025-07-17T2200,1141A,121.4,31.238,上海市,普陀,细颗粒物(PM2.5),63,,44,45,30,123,,178,159,21,19,5,6,0.6,0.5
2025-07-17T2200,1142A,121.478,31.2036,上海市,十五厂,,41,41,41,26,25,85,,162,131,28,21,7,8,0.7,0.7
2025-07-17T2200,1143A,121.467,31.3008,上海市,虹口,细颗粒物(PM2.5),57,58,46,40,29,107,,174,147,35,20,9,9,0.9,0.9
2025-07-17T2200,1147A,121.425,31.2261,上海市,静安监测站,细颗粒物(PM2.5),52,,42,36,28,115,,163,142,17,20,3,4,0.7,0.7
2025-07-17T2200,1148A,121.703,31.1907,上海市,浦东川沙,,37,37,36,24,26,60,,138,107,26,17,9,9,0.8,0.8
2025-07-17T2200,1149A,121.533,31.2284,上海市,浦东新区监测站,颗粒物(PM10),56,62,39,39,22,88,,163,138,34,15,7,7,0.6,0.4
2025-07-17T2200,1150A,121.577,31.2071,上海市,浦东张江,,,,69,26,25,82,,167,132,28,16,5,6,1.0,0.9
2025-07-17T2200,3265A,121.4316,31.3322,上海市,宝山庙行,颗粒物(PM10),54,57,48,36,30,99,,199,164,40,22,6,6,0.5,0.5
2025-07-17T2200,3266A,121.8791,31.4662,上海市,崇明上实东滩,细颗粒物(PM2.5),52,45,36,36,24,100,,158,126,18,20,2,3,0.7,0.7
2025-07-17T2200,3268A,121.3162,31.2838,上海市,嘉定南翔,,,96,58,54,30,,,82,,29,20,7,7,0.7,0.5
2025-07-17T2200,3269A,121.3359,30.7456,上海市,金山新城,颗粒物(PM10),55,60,44,18,22,78,,158,129,14,9,3,3,0.9,0.8
2025-07-17T2200,3270A,121.4996,31.0739,上海市,闵行浦江,,38,38,40,23,24,74,,153,122,13,12,3,4,1.2,1.2
2025-07-17T2200,3271A,121.2886,31.1663,上海市,青浦徐泾,细颗粒物(PM2.5),65,48,44,47,26,126,,170,147,20,20,5,6,0.8,0.6
2025-07-17T2200,3272A,121.2186,31.0378,上海市,松江图书馆,臭氧1小时,64,20,38,20,27,171,,167,150,4,12,7,7,0.6,0.6
2025-07-17T2200,3273A,121.3902,31.2059,上海市,长宁仙霞,细颗粒物(PM2.5),64,57,45,46,27,76,,159,128,30,21,6,7,0.9,0.6
2025-07-17T2200,3274A,121.7965,31.0507,上海市,浦东惠南,,44,44,40,25,25,52,,151,108,30,17,10,9,0.6,0.6
2025-07-17T2200,3544A,121.4891,30.925,上海市,奉贤南桥新城,,47,47,41,22,29,71,,153,122,17,12,8,8,0.7,0.8
2025-07-17T2200,4183A,121.4174,31.16637,上海市,冠生园路458号,,,,35,,24,,,141,116,15,17,4,5,0.8,0.9
2025-07-17T2200,4205A,121.5419,31.2683,上海市,宁武路151号,"颗粒物(PM10),细颗粒物(PM2.5)",55,60,46,39,25,71,,147,124,53,24,7,7,0.9,0.8
2025-07-17T2200,2382A,117.9756,28.4436,上饶市,市监测站,,45,45,36,21,21,52,,103,85,7,7,2,11,0.5,0.5
2025-07-17T2200,2383A,117.9519,28.4628,上饶市,凤凰光学,,44,44,40,22,22,50,,103,84,15,10,6,19,0.8,0.8
2025-07-17T2200,3685A,117.897,28.4315,上饶市,双创科技城,,48,48,43,26,24,48,,98,86,33,16,4,26,0.5,0.5
2025-07-17T2200,4211A,118.1904,28.4448,上饶市,裕丰大道,,40,36,20,28,14,49,,94,84,10,4,6,6,0.7,0.7
2025-07-17T2200,1669A,113.5824,24.7733,韶关市,市八中,,40,40,53,26,30,65,,119,89,15,16,8,12,0.6,0.6
2025-07-17T2200,1671A,113.5917,24.7972,韶关市,园林处,,45,44,39,31,29,63,,115,87,13,13,9,10,0.5,0.5
2025-07-17T2200,1673A,113.5971,24.6863,韶关市,曲江监测站,颗粒物(PM10),54,58,44,35,28,60,,112,87,20,17,6,9,0.8,0.8
2025-07-17T2200,2809A,113.6668,24.7756,韶关市,大学路288号,细颗粒物(PM2.5),54,40,44,38,31,56,,128,98,9,12,9,10,0.5,0.7
2025-07-17T2200,3622A,113.5556,24.8082,韶关市,碧湖山庄,颗粒物(PM10),51,52,43,34,30,61,,118,95,17,12,7,7,0.7,0.7
2025-07-17T2200,2464A,111.5283,27.2442,邵阳市,市化工厂,,,31,24,19,16,,,86,81,13,9,7,7,,0.5
2025-07-17T2200,2466A,111.4328,27.2272,邵阳市,市环保局,,29,23,31,20,18,72,,79,77,11,11,6,11,0.5,0.5
2025-07-17T2200,4218A,111.4460,27.2472,邵阳市,北塔二期4-26地块,,29,28,36,20,19,53,,74,72,14,10,6,6,0.4,0.4
2025-07-17T2200,4219A,111.4739,27.2282,邵阳市,邵水西路287号,,37,37,25,19,18,69,,85,81,11,9,6,9,0.6,0.6
2025-07-17T2200,1247A,120.6053,29.9928,绍兴市,城东开发委,,34,25,36,10,27,107,,147,140,5,11,3,4,0.3,0.4
2025-07-17T2200,2921A,120.5483,30.0003,绍兴市,树下王站,,40,25,38,19,26,126,,165,157,6,11,4,5,0.5,0.5
