timepoint,stationcode,longitude,latitude,area,positionname,primarypollutant,aqi,pm10,pm10_24h,pm2_5,pm2_5_24h,o3,o3_24h,o3_8h,o3_8h_24h,no2,no2_24h,so2,so2_24h,co,co_24h
2024-12-26T0900,2566A,102.1879,31.914,阿坝藏族羌族自治州,州农科所,,,96,39,21,17,,,48,48,23,14,7,7,1.1,0.8
2024-12-26T0900,2568A,102.2502,31.8896,阿坝藏族羌族自治州,马师校,,33,26,17,23,16,8,,21,20,46,27,6,4,1.1,0.6
2024-12-26T0900,3994A,102.2165,31.9024,阿坝藏族羌族自治州,马尔康中学西区,,30,30,32,11,16,33,,35,35,20,21,6,6,0.7,0.6
2024-12-26T0900,2695A,80.292,41.1694,阿克苏地区,电视台,细颗粒物(PM2.5),65,74,74,47,55,19,,55,49,52,25,2,2,1.6,1
2024-12-26T0900,2696A,80.2613,41.1551,阿克苏地区,艺术中心,细颗粒物(PM2.5),73,73,77,53,56,48,,60,58,23,23,4,4,1.0,1
2024-12-26T0900,2204A,105.6467,38.8363,阿拉善盟,西城区西花园,颗粒物(PM10),52,53,49,25,24,21,,69,64,51,18,10,9,1.6,0.7
2024-12-26T0900,2205A,105.6985,38.8411,阿拉善盟,蒙二幼,,,44,27,21,11,,,71,71,57,17,7,6,1.5,0.6
2024-12-26T0900,2206A,105.724,38.8516,阿拉善盟,环保局新楼,,26,26,20,13,8,71,,76,76,12,8,10,8,0.6,0.5
2024-12-26T0900,2708A,88.1264,47.8517,阿勒泰地区,市站,,17,6,23,3,16,54,,53,53,12,25,7,8,0.5,0.5
2024-12-26T0900,2630A,80.1161,32.5,阿里地区,阿里监测站,,16,9,17,8,8,49,,60,59,9,12,5,6,0.7,0.6
2024-12-26T0900,3192A,80.0903,32.5028,阿里地区,阿里藏医院,,19,12,14,11,12,58,,51,51,9,11,10,12,0.7,0.8
2024-12-26T0900,2642A,109.0318,32.6537,安康市,香溪洞,细颗粒物(PM2.5),103,,78,77,73,7,,4,4,28,37,8,11,0.8,0.8
2024-12-26T0900,2644A,109.0072,32.6975,安康市,汉滨区检察院,细颗粒物(PM2.5),102,91,105,76,79,7,,6,6,28,40,6,8,0.9,1
2024-12-26T0900,4054A,109.0325,32.6913,安康市,市邮政管理局,细颗粒物(PM2.5),89,88,104,66,75,7,,5,5,27,40,6,8,0.8,1
2024-12-26T0900,2291A,117.0809,30.5177,安庆市,环科院,细颗粒物(PM2.5),102,103,139,76,101,21,,51,46,63,55,7,9,0.8,0.9
2024-12-26T0900,2292A,117.0331,30.5119,安庆市,马山宾馆,细颗粒物(PM2.5),99,99,138,74,101,47,,56,54,47,63,9,12,0.5,0.8
2024-12-26T0900,2294A,116.9896,30.6145,安庆市,安庆大学,细颗粒物(PM2.5),100,100,146,75,107,97,,94,94,27,45,14,15,0.6,0.8
2024-12-26T0900,3173A,117.0598,30.5351,安庆市,市人大,细颗粒物(PM2.5),107,106,139,80,105,36,,52,50,54,60,8,10,0.6,0.8
2024-12-26T0900,3122A,105.9606,26.2611,安顺市,伍家关,,,,10,,2,,,42,,,14,,6,,1.1
2024-12-26T0900,3123A,105.9408,26.2431,安顺市,凤凰山,,14,8,18,3,17,43,,34,34,17,20,11,15,0.8,0.9
2024-12-26T0900,3124A,105.9439,26.2564,安顺市,金钟山,,14,,14,6,20,44,,36,36,12,14,15,15,0.8,0.8
2024-12-26T0900,3125A,105.8983,26.2481,安顺市,娄家坡,,18,13,18,12,17,36,,33,33,18,17,23,17,0.9,0.8
2024-12-26T0900,1818A,114.4839,36.0621,安阳市,棉研所,细颗粒物(PM2.5),94,116,222,70,172,21,,7,7,45,70,10,15,1.0,1.7
2024-12-26T0900,1819A,114.3551,36.1017,安阳市,红庙街,细颗粒物(PM2.5),93,128,182,69,141,22,,9,9,45,73,6,17,1.0,1.8
2024-12-26T0900,1820A,114.361,36.0681,安阳市,银杏小区,细颗粒物(PM2.5),89,104,177,66,153,25,,10,10,44,68,4,15,1.0,1.9
2024-12-26T0900,3141A,114.3922,36.0878,安阳市,信访局,颗粒物(PM10),84,117,203,56,141,22,,9,9,48,77,4,12,0.8,1.8
2024-12-26T0900,3669A,114.4705,36.0637,安阳市,左辅环卫站,细颗粒物(PM2.5),97,128,211,72,162,26,,14,14,42,68,7,13,0.9,1.6
2024-12-26T0900,3703A,114.2917,36.0949,安阳市,安钢职工学校,细颗粒物(PM2.5),99,130,191,74,152,23,,9,9,49,74,7,13,1.0,2
2024-12-26T0900,1748A,123.044,41.1196,鞍山市,深沟寺,,50,50,82,17,35,29,,50,47,38,25,13,14,1.0,0.9
2024-12-26T0900,1749A,123.011,41.0931,鞍山市,太阳城,颗粒物(PM10),57,64,80,23,36,22,,37,36,40,33,7,13,1.1,1.2
2024-12-26T0900,1750A,123.0485,41.1442,鞍山市,太平,颗粒物(PM10),58,65,83,19,31,26,,47,44,45,31,22,17,1.3,0.8
2024-12-26T0900,1751A,122.9642,41.0971,鞍山市,铁西三道街,颗粒物(PM10),62,73,82,27,35,35,,52,48,35,29,11,8,2.8,0.9
2024-12-26T0900,1752A,122.9341,41.0833,鞍山市,铁西工业园区,细颗粒物(PM2.5),135,185,109,103,54,23,,47,42,60,34,,13,1.7,0.9
2024-12-26T0900,1753A,123.022,41.0821,鞍山市,明达新区,颗粒物(PM10),56,61,83,21,36,44,,50,50,21,23,10,15,1.1,1.1
2024-12-26T0900,1754A,123.1289,41.0228,鞍山市,千山,,,,98,,45,,,41,,,29,,9,,0.7
2024-12-26T0900,2195A,107.4212,40.761,巴彦淖尔市,附二中,,38,38,54,15,19,43,,50,49,15,13,6,8,0.4,0.3
2024-12-26T0900,2196A,107.37,40.7372,巴彦淖尔市,市环保大楼,,34,34,48,19,18,41,,51,48,20,13,5,6,0.5,0.4
2024-12-26T0900,1956A,86.1472,41.7538,巴音郭楞蒙古自治州,孔雀公园,细颗粒物(PM2.5),58,54,73,41,53,58,,61,61,19,25,4,4,0.6,0.7
2024-12-26T0900,1957A,86.1972,41.7166,巴音郭楞蒙古自治州,棉纺厂,颗粒物(PM10),57,63,82,31,48,37,,60,55,44,32,10,3,0.6,0.7
2024-12-26T0900,1958A,86.2357,41.7173,巴音郭楞蒙古自治州,经济开发区,细颗粒物(PM2.5),57,48,58,40,44,58,,73,70,22,18,3,3,0.6,0.6
2024-12-26T0900,2914A,106.7677,31.8794,巴中市,苏山坪,细颗粒物(PM2.5),97,78,77,72,70,16,,16,14,21,25,2,3,0.8,0.8
2024-12-26T0900,3182A,106.7656,31.8545,巴中市,丽阳花园,细颗粒物(PM2.5),92,83,90,68,72,3,,2,2,24,31,4,4,1.0,0.9
2024-12-26T0900,3183A,106.7418,31.8654,巴中市,圣泉水务公司,细颗粒物(PM2.5),70,70,87,51,65,3,,3,3,25,33,3,3,0.7,0.7
2024-12-26T0900,3616A,106.7616,31.8344,巴中市,市中心医院,细颗粒物(PM2.5),97,79,83,72,77,2,,3,2,17,25,3,3,0.7,0.7
2024-12-26T0900,2235A,122.7911,45.6077,白城市,洮北区环保局,,43,33,36,30,29,51,,63,61,24,16,6,5,0.5,0.4
2024-12-26T0900,2236A,122.8738,45.5725,白城市,市环保局,,39,39,36,26,22,50,,60,59,20,15,7,5,0.4,0.4
2024-12-26T0900,2231A,126.4219,41.9171,白山市,喜丰,颗粒物(PM10),61,72,79,20,30,42,,51,49,14,21,23,17,0.6,0.8
2024-12-26T0900,2232A,126.4077,41.9419,白山市,环保局,颗粒物(PM10),70,90,80,35,33,18,,35,30,32,24,13,11,1.3,1.1
2024-12-26T0900,2647A,104.1724,36.5446,白银市,第三小学,,41,41,61,17,46,17,,53,46,43,30,8,32,1.3,1
2024-12-26T0900,2648A,104.1465,36.5482,白银市,动力公司,,29,28,55,20,47,31,,62,55,26,26,3,31,1.3,1.1
2024-12-26T0900,2512A,106.6103,23.9011,百色市,市监测站,细颗粒物(PM2.5),90,72,87,67,76,7,,18,16,35,33,9,12,1.1,1.1
2024-12-26T0900,2513A,106.6538,23.8859,百色市,市中心血站,细颗粒物(PM2.5),114,91,120,86,88,6,,5,5,44,50,8,13,1.1,1.2
2024-12-26T0900,3406A,106.6085,23.8798,百色市,祈福高中,细颗粒物(PM2.5),90,109,108,67,71,6,,10,9,38,40,6,10,1.1,1
2024-12-26T0900,2270A,117.396,32.939,蚌埠市,工人疗养院,细颗粒物(PM2.5),198,184,137,148,108,57,,56,56,47,57,7,8,0.9,0.8
2024-12-26T0900,2271A,117.3605,32.9427,蚌埠市,百货大楼,细颗粒物(PM2.5),192,177,140,144,110,57,,36,36,46,53,9,9,0.9,0.8
2024-12-26T0900,2273A,117.4185,32.8911,蚌埠市,蚌埠学院,细颗粒物(PM2.5),200,200,150,150,117,30,,17,17,68,61,11,10,0.8,0.7
2024-12-26T0900,2274A,117.3533,32.9673,蚌埠市,淮上区政府,细颗粒物(PM2.5),397,,154,347,142,39,,39,39,61,56,11,11,0.9,0.7
2024-12-26T0900,2275A,117.3145,32.8977,蚌埠市,高新区,细颗粒物(PM2.5),201,193,154,151,120,24,,12,12,86,79,17,15,1.2,0.8
2024-12-26T0900,3715A,117.3092,32.9314,蚌埠市,蚌埠田家炳中学,细颗粒物(PM2.5),212,223,163,162,118,19,,10,10,76,73,11,11,1.1,0.8
2024-12-26T0900,1585A,109.8756,40.6532,包头市,市环境监测站,,19,19,34,3,8,34,,56,53,32,16,9,10,0.6,0.6
2024-12-26T0900,1587A,109.9991,40.5842,包头市,包头八中,,28,28,52,18,11,27,,54,51,39,13,6,5,0.8,0.6
2024-12-26T0900,1588A,109.8538,40.6821,包头市,青山宾馆,,19,19,28,9,9,44,,55,53,17,13,10,11,0.4,0.4
2024-12-26T0900,1589A,109.8642,40.6288,包头市,惠龙物流,,22,22,30,8,7,47,,58,56,21,12,10,8,0.5,0.4
2024-12-26T0900,1590A,110.0377,40.5546,包头市,东河鸿龙湾,,27,25,35,16,7,12,,46,42,53,19,10,10,0.9,0.5
2024-12-26T0900,3283A,109.9154,40.5685,包头市,滨河大厦,,42,42,40,15,10,14,,46,41,46,18,7,7,0.6,0.4
2024-12-26T0900,3419A,109.9447,40.6261,包头市,包头市委党校,,44,44,40,3,9,20,,58,52,44,16,10,6,1.1,0.8
2024-12-26T0900,3683A,109.8331,40.6576,包头市,昆区政府,,23,23,29,11,10,48,,56,54,18,13,14,10,0.6,0.5
2024-12-26T0900,1930A,107.185,34.3063,宝鸡市,庙沟村,细颗粒物(PM2.5),83,86,85,61,56,39,,45,44,35,26,8,7,0.6,0.7
2024-12-26T0900,1931A,107.0708,34.3017,宝鸡市,竹园沟,细颗粒物(PM2.5),79,75,82,58,53,23,,30,29,27,27,6,7,0.6,0.6
2024-12-26T0900,1932A,107.1906,34.3672,宝鸡市,三陆医院,细颗粒物(PM2.5),100,124,114,75,71,13,,26,23,52,46,6,7,0.9,0.8
2024-12-26T0900,1933A,107.1431,34.3547,宝鸡市,监测站,细颗粒物(PM2.5),89,124,101,66,61,12,,21,20,45,39,8,8,1.0,0.8
2024-12-26T0900,1934A,107.1186,34.3739,宝鸡市,技工学校,细颗粒物(PM2.5),107,124,114,80,67,18,,32,30,36,34,10,8,1.0,0.6
2024-12-26T0900,1935A,107.3906,34.3528,宝鸡市,陈仓区环保局家属楼,细颗粒物(PM2.5),122,138,132,92,85,18,,14,14,51,57,275,24,1.5,1.1
2024-12-26T0900,1936A,107.2058,34.3497,宝鸡市,文理学院,细颗粒物(PM2.5),85,98,103,63,62,13,,28,26,48,41,6,7,0.8,0.7
2024-12-26T0900,1937A,107.2386,34.3622,宝鸡市,三迪小学,细颗粒物(PM2.5),89,105,110,66,71,10,,22,21,50,47,7,8,1.0,0.9
2024-12-26T0900,1051A,115.493,38.8632,保定市,游泳馆,,50,50,107,24,62,24,,50,46,45,49,3,6,0.3,0.6
2024-12-26T0900,1052A,115.5213,38.8959,保定市,华电二区,,32,32,93,17,70,42,,50,49,16,45,2,3,0,0.4
2024-12-26T0900,1053A,115.4713,38.9108,保定市,接待中心,,42,42,101,20,62,28,,51,48,29,37,1,4,0.3,0.6
2024-12-26T0900,1054A,115.4612,38.8416,保定市,地表水厂,颗粒物(PM10),85,120,114,47,71,11,,41,36,52,52,2,5,0.3,0.5
2024-12-26T0900,3581A,115.31981,38.95208,保定市,满城区生态环境分局,颗粒物(PM10),60,70,94,31,48,36,,33,32,33,42,3,3,0.0,0.4
2024-12-26T0900,3582A,115.47694,38.76408,保定市,清苑区第二中学,颗粒物(PM10),82,113,124,43,61,8,,34,30,56,48,3,5,0.7,1
2024-12-26T0900,3583A,115.62909,39.02311,保定市,徐水物探局,,34,34,84,12,41,24,,39,36,30,39,3,6,0.3,0.7
2024-12-26T0900,4004A,115.4202,38.8656,保定市,双鹰农机,颗粒物(PM10),57,63,109,30,70,17,,51,47,45,44,3,5,0.2,0.6
2024-12-26T0900,4034A,115.5150,38.8590,保定市,植保所站,,43,43,109,20,72,27,,51,48,35,41,2,5,0.3,0.6
2024-12-26T0900,2594A,99.1678,25.1081,保山市,市环境监测站,,18,18,22,12,13,15,,30,27,14,10,4,4,0.5,0.3
2024-12-26T0900,2595A,99.1711,25.1328,保山市,市环保局,,23,21,23,16,18,37,,41,39,7,6,5,5,0.4,0.4
2024-12-26T0900,1866A,109.2262,21.588,北海市,牛尾岭水库,,,74,87,74,76,47,,53,53,,15,9,9,0.7,0.7
2024-12-26T0900,1867A,109.1436,21.4086,北海市,海滩公园,细颗粒物(PM2.5),89,94,103,66,72,65,,74,72,27,28,13,12,0.9,1
2024-12-26T0900,1868A,109.0981,21.4661,北海市,新市环保局,细颗粒物(PM2.5),104,91,102,78,78,64,,82,77,28,31,12,13,0.8,0.8
2024-12-26T0900,1869A,109.1778,21.5233,北海市,北海工业园,细颗粒物(PM2.5),104,109,113,78,82,56,,71,70,33,29,14,17,0.9,0.9
2024-12-26T0900,3400A,109.1911,21.4415,北海市,龙潭自来水厂,细颗粒物(PM2.5),114,108,104,86,86,58,,58,58,25,26,10,12,1.0,1
2024-12-26T0900,1001A,116.3621,39.8784,北京市,万寿西宫,,27,27,42,8,12,49,,51,50,15,14,5,4,0.4,0.2
2024-12-26T0900,1002A,116.2202,40.2915,北京市,定陵,,22,22,31,10,12,36,,38,37,5,4,4,4,0.2,0.2
2024-12-26T0900,1003A,116.4174,39.9289,北京市,东四,,26,26,47,13,14,48,,48,48,16,15,3,2,0.2,0.2
2024-12-26T0900,1004A,116.4072,39.8863,北京市,天坛,,25,25,43,9,13,52,,54,53,13,12,2,1,0.2,0.2
2024-12-26T0900,1005A,116.462,39.9365,北京市,农展馆,,23,23,41,9,12,53,,53,53,13,13,3,2,0.5,0.4
2024-12-26T0900,1006A,116.3392,39.9295,北京市,官园,,26,26,45,10,14,45,,43,43,16,15,6,5,0.2,0.2
2024-12-26T0900,1007A,116.2878,39.9611,北京市,海淀万柳,,28,28,39,10,12,42,,45,44,21,16,4,4,0.3,0.3
2024-12-26T0900,1008A,116.6636,40.135,北京市,顺义新城,,30,30,40,8,12,52,,56,55,8,14,1,2,0.2,0.2
2024-12-26T0900,1009A,116.6275,40.3275,北京市,怀柔镇,,24,24,29,11,14,28,,44,39,31,17,3,2,0.6,0.4
2024-12-26T0900,1010A,116.2296,40.217,北京市,昌平镇,,26,26,44,10,12,47,,52,51,10,9,4,2,0.4,0.4
2024-12-26T0900,1011A,116.3966,39.9821,北京市,奥体中心,,25,25,43,11,13,50,,47,47,14,14,6,4,0.3,0.3
2024-12-26T0900,1012A,116.184,39.9136,北京市,古城,,28,28,41,9,14,57,,49,49,4,8,7,6,0.2,0.2
2024-12-26T0900,3281A,115.9718,40.4529,北京市,延庆夏都,,34,34,37,12,9,27,,28,25,21,10,2,1,0.5,0.2
2024-12-26T0900,3417A,117.0709,40.1465,北京市,平谷新城,,16,15,38,3,17,51,,52,51,12,16,1,2,0.2,0.3
2024-12-26T0900,3418A,116.8336,40.4095,北京市,密云新城,,17,12,24,3,10,54,,55,54,5,11,1,2,0.2,0.2
2024-12-26T0900,3671A,116.088,39.9726,北京市,门头沟三家店,,21,21,41,7,10,52,,53,52,9,7,6,5,0.2,0.3
2024-12-26T0900,3672A,116.1541,39.8204,北京市,丰台云岗,,24,24,49,7,13,53,,51,50,7,10,3,3,0.3,0.3
2024-12-26T0900,3673A,116.6804,39.9081,北京市,通州东关,,49,49,74,9,14,44,,54,52,10,12,3,2,0.2,0.2
2024-12-26T0900,3674A,115.9577,39.7603,北京市,房山燕山,,21,14,39,7,19,65,,66,66,1,18,3,2,0.1,0.3
2024-12-26T0900,3675A,116.4672,39.7733,北京市,大兴旧宫,,21,21,41,6,14,50,,46,46,9,15,2,1,0.2,0.3
2024-12-26T0900,3694A,115.986,40.4563,北京市,延庆石河营,,30,30,30,12,10,11,,16,12,24,14,3,2,0.8,0.3
2024-12-26T0900,3695A,116.6151,40.3053,北京市,怀柔新城,,23,23,27,10,14,25,,50,45,35,14,1,2,0.3,0.2
2024-12-26T0900,3696A,116.2545,39.8768,北京市,丰台小屯,,25,25,47,9,14,43,,42,41,12,12,5,4,0.2,0.3
2024-12-26T0900,3697A,116.84,40.3844,北京市,密云镇,,19,19,33,6,13,37,,53,50,25,14,2,3,0.4,0.3
2024-12-26T0900,1761A,123.8275,41.3064,本溪市,大峪,颗粒物(PM10),63,75,79,17,29,46,,49,48,23,24,13,14,0.8,0.8
2024-12-26T0900,1762A,123.7567,41.3325,本溪市,溪湖,颗粒物(PM10),62,74,91,18,30,41,,50,48,20,23,9,15,0.7,0.9
2024-12-26T0900,1763A,123.7169,41.3094,本溪市,彩屯,颗粒物(PM10),52,53,70,25,35,38,,46,44,28,24,9,11,0.6,0.9
2024-12-26T0900,1764A,123.7669,41.2864,本溪市,东明,细颗粒物(PM2.5),74,71,89,54,28,42,,53,51,29,20,16,11,1.7,1
2024-12-26T0900,1765A,123.7992,41.2664,本溪市,新立屯,,48,48,90,21,21,23,,48,44,48,27,10,10,1.0,0.5
2024-12-26T0900,1766A,123.8142,41.3472,本溪市,威宁,颗粒物(PM10),84,117,127,50,25,20,,41,36,45,29,4,7,0.9,0.6
2024-12-26T0900,2587A,105.2864,27.3125,毕节市,八中,,14,14,12,6,9,42,,48,48,12,11,6,6,0.8,0.8
2024-12-26T0900,2588A,105.31,27.2944,毕节市,师专,,13,13,11,9,13,41,,49,49,15,12,5,5,0.7,0.7
2024-12-26T0900,3537A,105.3631,27.3533,毕节市,长征村,,15,6,7,3,6,45,,56,56,7,6,6,7,0.6,0.7
2024-12-26T0900,1629A,118.0018,37.3617,滨州市,第二水厂,,34,34,130,7,70,50,,49,49,19,46,9,15,0.9,1.1
2024-12-26T0900,1630A,117.9776,37.393,滨州市,北中新校,,39,39,131,3,73,43,,41,41,24,52,10,16,0.2,0.7
2024-12-26T0900,3514A,117.9378,37.3956,滨州市,中海酒店,,31,31,127,17,76,37,,38,38,24,47,6,15,0.4,0.7
2024-12-26T0900,3515A,117.9378,37.3553,滨州市,开发区一中,,41,41,130,14,72,39,,42,42,29,50,9,14,0.3,0.6
2024-12-26T0900,3516A,118.0917,37.694,滨州市,金海六路,,39,39,116,14,65,22,,50,46,38,49,7,13,0.6,0.9
2024-12-26T0900,4028A,117.9956,37.3753,滨州市,滨州市西街道办事处,,29,29,125,12,79,46,,44,44,21,46,6,13,0.6,0.9
2024-12-26T0900,2311A,115.8072,33.8399,亳州市,污水处理厂,细颗粒物(PM2.5),209,213,159,159,110,16,,14,14,59,55,11,10,1.2,1.1
2024-12-26T0900,2312A,115.7789,33.8518,亳州市,三国揽胜宫,细颗粒物(PM2.5),212,226,171,162,117,26,,19,19,57,52,10,9,1.1,1
2024-12-26T0900,3332A,115.7633,33.8034,亳州市,亳州学院,,,,149,,102,,,19,19,,42,,7,1.1,0.9
2024-12-26T0900,2693A,82.0485,44.8556,博尔塔拉蒙古自治州,市党校,细颗粒物(PM2.5),73,78,71,53,59,40,,44,43,20,22,9,12,1.2,0.9
2024-12-26T0900,2694A,82.0806,44.8969,博尔塔拉蒙古自治州,市环保局,颗粒物(PM10),64,77,80,36,44,44,,48,47,19,21,6,8,0.9,1
2024-12-26T0900,1071A,116.8842,38.2991,沧州市,沧县城建局,,35,35,108,11,67,42,,47,46,24,43,2,8,0.6,1.1
2024-12-26T0900,1072A,116.8584,38.3254,沧州市,电视转播站,,35,35,104,12,58,41,,44,43,27,45,9,11,0.2,0.7
2024-12-26T0900,1073A,116.8709,38.3228,沧州市,市环保局,,35,35,99,24,70,38,,43,42,24,41,4,8,0.3,0.7
2024-12-26T0900,3324A,116.8136,38.3004,沧州市,河北水利电力学院,,,24,117,15,66,49,,50,50,13,36,4,7,,0.8
2024-12-26T0900,2622A,97.1806,31.1273,昌都市,昌都监测站,,28,23,42,19,22,32,,25,25,38,45,6,7,0.7,1.1
2024-12-26T0900,3719A,97.1714,31.1406,昌都市,昌都会议中心,,,,12,12,11,63,,60,60,7,12,6,5,,0.4
2024-12-26T0900,2690A,88.1236,43.8886,昌吉回族自治州,天山天池,,25,,4,6,2,80,,77,77,2,3,5,7,0.4,0.4
2024-12-26T0900,2692A,87.2717,44.0297,昌吉回族自治州,新区政务中心,细颗粒物(PM2.5),122,138,156,92,108,16,,12,12,48,53,6,6,1.3,1.6
2024-12-26T0900,3613A,87.3095,44.0142,昌吉回族自治州,亚心广场,细颗粒物(PM2.5),149,134,166,114,136,22,,12,12,47,51,7,7,1.4,1.5
2024-12-26T0900,1119A,125.3325,43.9166,长春市,食品厂,,34,34,59,14,29,40,,36,36,22,24,12,9,0.3,0.4
2024-12-26T0900,1120A,125.2863,43.9027,长春市,客车厂,,38,38,60,17,31,33,,35,34,28,25,22,11,0.3,0.4
2024-12-26T0900,1121A,125.2841,43.8463,长春市,邮电学院,,30,28,60,21,31,37,,40,39,25,21,20,15,0.4,0.3
2024-12-26T0900,1122A,125.3716,43.8772,长春市,劳动公园,,33,33,54,13,25,45,,45,44,22,21,11,11,0.9,0.7
2024-12-26T0900,1123A,125.3297,43.8805,长春市,园林处,,33,33,49,17,27,39,,41,40,21,19,9,10,0.4,0.4
2024-12-26T0900,1124A,125.4605,43.79,长春市,净月潭,,31,31,52,15,23,41,,46,45,18,16,8,9,0.3,0.4
2024-12-26T0900,1125A,125.7194,43.515,长春市,甩湾子,,,,,,,,,,,,,,,,
2024-12-26T0900,1126A,125.3863,43.8447,长春市,经开区环卫处,,31,31,54,14,24,35,,39,37,27,24,16,17,0.7,0.5
2024-12-26T0900,1127A,125.245,43.7783,长春市,高新区管委会,,39,39,50,22,25,41,,45,44,24,22,10,8,0.4,0.4
2024-12-26T0900,1128A,125.1761,43.8325,长春市,岱山公园,,45,36,53,31,29,37,,40,39,19,20,7,7,0.5,0.6
2024-12-26T0900,1335A,113.0833,28.2325,长沙市,经开区环保局,细颗粒物(PM2.5),140,147,142,107,100,24,,32,31,34,40,6,6,0.7,0.7
2024-12-26T0900,1336A,112.8872,28.2189,长沙市,高开区环保局,细颗粒物(PM2.5),135,134,134,103,99,39,,42,42,24,27,9,8,0.6,0.6
2024-12-26T0900,1337A,113.0792,28.2053,长沙市,马坡岭,,,144,132,,,27,,34,33,33,36,6,6,0.8,0.9
2024-12-26T0900,1338A,112.9394,28.19,长沙市,湖南师范大学,细颗粒物(PM2.5),134,130,137,102,99,42,,42,42,27,32,11,8,0.8,0.9
2024-12-26T0900,1339A,113.0178,28.1322,长沙市,雨花区环保局,细颗粒物(PM2.5),139,134,128,106,103,32,,36,35,38,41,9,9,0.7,0.7
2024-12-26T0900,1340A,112.9792,28.2597,长沙市,伍家岭,细颗粒物(PM2.5),139,149,142,106,104,26,,35,33,33,34,6,6,0.7,0.7
2024-12-26T0900,1341A,113.0014,28.1944,长沙市,火车新站,细颗粒物(PM2.5),153,138,136,117,106,36,,39,38,32,38,6,6,0.7,0.7
2024-12-26T0900,1342A,112.9844,28.1178,长沙市,天心区环保局,细颗粒物(PM2.5),143,155,142,109,103,34,,38,37,32,34,8,6,0.9,0.9
2024-12-26T0900,1343A,112.8908,28.1308,长沙市,湖南中医药大学,细颗粒物(PM2.5),145,137,136,111,106,49,,48,48,22,30,,10,0.7,0.8
2024-12-26T0900,1344A,112.9581,28.3611,长沙市,沙坪,细颗粒物(PM2.5),159,123,115,121,107,25,,30,28,27,27,10,10,0.8,0.8
2024-12-26T0900,1727A,113.1147,36.1547,长治市,清华站,颗粒物(PM10),61,72,86,34,57,5,,3,3,47,50,16,19,1.0,1.1
2024-12-26T0900,1728A,113.1031,36.1989,长治市,监测站,细颗粒物(PM2.5),64,75,83,46,63,5,,1,1,46,54,23,19,1.7,1.6
2024-12-26T0900,1730A,113.0886,36.2125,长治市,审计局,"颗粒物(PM10),细颗粒物(PM2.5)",58,66,84,41,64,9,,4,4,49,56,15,20,1.2,1.1
2024-12-26T0900,1731A,113.0844,36.1856,长治市,长治八中,颗粒物(PM10),80,109,121,53,83,7,,4,4,47,54,16,22,1.3,1.3
2024-12-26T0900,2845A,113.1569,36.1911,长治市,德盛苑,,,,78,,54,,,15,14,32,43,16,16,,1.3
2024-12-26T0900,3568A,113.06,36.0464,长治市,向阳小学,颗粒物(PM10),67,84,96,47,61,20,,10,10,39,49,19,20,1.5,1.2
2024-12-26T0900,3569A,112.8792,36.3144,长治市,屯留一中,细颗粒物(PM2.5),59,53,67,42,56,23,,22,22,39,45,12,17,1.2,1.2
2024-12-26T0900,3570A,113.235,36.3489,长治市,潞城四中,颗粒物(PM10),76,101,102,48,69,10,,12,12,44,47,79,31,1.9,1.5
2024-12-26T0900,1854A,111.6975,28.9703,常德市,市二中,细颗粒物(PM2.5),200,182,131,150,116,10,,27,21,36,25,6,8,0.9,0.7
2024-12-26T0900,1857A,111.7158,29.1456,常德市,白鹤山,,,,,,,,,,,,,,,,
2024-12-26T0900,3138A,111.7153,29.0289,常德市,武陵区永安,细颗粒物(PM2.5),224,201,147,174,121,23,,36,32,34,21,31,8,1.1,0.7
2024-12-26T0900,3139A,111.6892,28.9881,常德市,鼎城区玉霞,细颗粒物(PM2.5),204,204,141,154,115,14,,30,25,34,22,7,9,1.2,0.9
2024-12-26T0900,3140A,111.6625,29.0531,常德市,武陵区长庚,细颗粒物(PM2.5),238,208,156,188,127,12,,32,28,40,23,43,7,1.1,0.8
2024-12-26T0900,1196A,119.9633,31.762,常州市,市监测站,细颗粒物(PM2.5),144,144,149,110,104,31,,8,8,75,84,14,12,1.0,1.1
2024-12-26T0900,1200A,119.9468,31.7069,常州市,武进监测站,细颗粒物(PM2.5),158,153,139,120,103,9,,5,5,84,73,10,11,1.2,1.1
2024-12-26T0900,1201A,119.9255,31.9087,常州市,安家,细颗粒物(PM2.5),156,157,153,119,111,11,,5,5,84,80,14,13,1.2,1.3
2024-12-26T0900,3002A,119.9805,31.8174,常州市,行政中心,细颗粒物(PM2.5),144,138,133,110,105,13,,4,4,78,75,13,14,0.9,1
2024-12-26T0900,3003A,120.0522,31.7748,常州市,经开区,细颗粒物(PM2.5),138,146,137,105,98,25,,8,8,78,78,18,15,1.1,1.2
2024-12-26T0900,3010A,119.9025,31.7964,常州市,钟楼,细颗粒物(PM2.5),159,152,148,121,111,11,,5,5,81,79,19,12,1.3,1.3
2024-12-26T0900,3429A,119.8598,31.7066,常州市,武进经发区,细颗粒物(PM2.5),159,160,148,121,105,19,,8,8,63,68,15,12,1.0,1.2
2024-12-26T0900,3430A,119.5826,31.7245,常州市,金坛城区,细颗粒物(PM2.5),153,142,142,117,109,45,,20,20,51,67,12,12,0.9,1.1
2024-12-26T0900,2220A,120.4318,41.5881,朝阳市,西梁,,,83,57,59,17,,,,,40,9,11,6,1.0,0.7
2024-12-26T0900,2221A,120.4521,41.5646,朝阳市,河畔小区,,36,36,50,22,18,42,,61,58,30,15,16,7,1.2,0.7
2024-12-26T0900,2222A,120.4176,41.5648,朝阳市,八里堡,颗粒物(PM10),55,60,63,18,27,38,,60,56,34,15,16,10,1.1,0.8
2024-12-26T0900,2223A,120.3806,41.5969,朝阳市,农业园区,,28,,47,19,21,62,,70,69,17,10,6,8,0.6,0.6
2024-12-26T0900,1705A,116.6367,23.6719,潮州市,西园路,,25,25,22,15,20,17,,24,22,20,12,4,4,0.7,0.5
2024-12-26T0900,3026A,116.6183,23.6608,潮州市,市政府,,24,24,25,13,17,25,,30,28,16,13,3,3,0.8,0.5
2024-12-26T0900,4036A,116.6461,23.6761,潮州市,金山,,28,28,22,19,20,8,,19,17,25,12,4,4,0.8,0.6
2024-12-26T0900,2472A,113.0073,25.9061,郴州市,马头岭,细颗粒物(PM2.5),107,123,129,80,73,61,,58,58,26,32,14,13,0.8,0.8
2024-12-26T0900,2473A,113.0116,25.8226,郴州市,市职中,细颗粒物(PM2.5),123,106,105,93,90,54,,47,47,28,28,10,8,0.8,0.9
2024-12-26T0900,2474A,113.0161,25.8001,郴州市,兴隆步行街,细颗粒物(PM2.5),135,125,127,103,100,52,,55,55,31,30,10,9,0.8,0.8
2024-12-26T0900,2475A,113.0383,25.8071,郴州市,市审计局,,,,112,,92,,,59,59,24,26,9,9,1.0,1
2024-12-26T0900,2476A,113.0348,25.7759,郴州市,市环保局,细颗粒物(PM2.5),137,120,121,104,105,62,,64,64,24,27,10,9,0.8,0.9
2024-12-26T0900,1431A,103.9728,30.7236,成都市,金泉两河,细颗粒物(PM2.5),79,90,89,58,65,1,,1,1,32,51,3,4,1.9,1
2024-12-26T0900,1432A,104.176,30.6872,成都市,十里店,细颗粒物(PM2.5),82,84,87,60,66,5,,4,4,51,63,2,2,1.1,0.9
2024-12-26T0900,1433A,104.079,30.5706,成都市,三瓦窑,细颗粒物(PM2.5),87,92,82,64,59,1,,0,0,39,55,3,2,1.2,0.9
2024-12-26T0900,1434A,104.1114,30.63,成都市,沙河铺,细颗粒物(PM2.5),84,73,84,62,62,4,,4,4,26,44,4,3,1.2,0.9
2024-12-26T0900,1437A,104.0786,30.6531,成都市,君平街,细颗粒物(PM2.5),92,84,88,68,69,2,,1,1,48,61,7,5,1.5,0.9
2024-12-26T0900,1438A,103.613,31.0283,成都市,灵岩寺,,,,,,,,,,,,,,,,
2024-12-26T0900,2880A,104.0239,30.65639,成都市,大石西路,细颗粒物(PM2.5),83,75,89,61,66,1,,0,0,36,57,5,4,1.5,1
2024-12-26T0900,3136A,104.2725,30.5589,成都市,龙泉驿区区政府,细颗粒物(PM2.5),62,61,69,44,54,12,,18,18,28,36,1,2,0.9,0.9
2024-12-26T0900,3357A,104.0106,30.6931,成都市,金博路,细颗粒物(PM2.5),74,79,84,54,61,2,,1,1,28,54,2,2,1.5,1
2024-12-26T0900,3359A,104.0578,30.5225,成都市,华阳,细颗粒物(PM2.5),89,85,83,66,61,4,,4,4,39,49,1,1,1.1,0.9
2024-12-26T0900,3487A,104.2394,30.5319,成都市,车城东七路,细颗粒物(PM2.5),70,63,67,51,53,4,,26,22,42,35,2,2,1.3,0.8
2024-12-26T0900,3488A,104.3853,30.7453,成都市,青白江技师分院,细颗粒物(PM2.5),89,74,68,66,56,3,,5,5,27,38,3,3,0.9,0.8
2024-12-26T0900,3489A,104.0789,30.4072,成都市,科学城,细颗粒物(PM2.5),77,68,77,56,63,4,,4,4,16,34,4,4,1.0,0.8
2024-12-26T0900,4011A,103.8506,30.6947,成都市,光华大道三段,颗粒物(PM10),63,76,87,41,61,1,,0,0,30,44,2,2,1.4,0.9
2024-12-26T0900,1062A,117.9531,40.9081,承德市,铁路,颗粒物(PM10),54,57,54,25,18,19,,34,29,37,16,6,5,0.8,0.4
2024-12-26T0900,1063A,117.9392,40.9763,承德市,中国银行,,44,44,58,3,17,13,,31,26,45,13,1,3,0.6,0.4
2024-12-26T0900,1064A,117.9503,40.928,承德市,开发区,颗粒物(PM10),67,83,57,31,26,15,,40,34,42,17,4,4,1.0,0.5
2024-12-26T0900,1065A,117.8051,40.9655,承德市,文化中心,颗粒物(PM10),56,62,74,28,22,14,,23,19,46,23,2,3,0.7,0.5
2024-12-26T0900,1066A,117.9268,41.0026,承德市,离宫,,40,,46,28,31,48,,49,49,9,10,4,5,0.3,0.4
2024-12-26T0900,2314A,117.47,30.6618,池州市,池州学院,细颗粒物(PM2.5),137,121,122,104,108,15,,18,18,68,52,10,8,0.7,0.9
2024-12-26T0900,3237A,117.4918,30.6617,池州市,展览馆,细颗粒物(PM2.5),125,125,132,95,99,13,,9,9,58,49,6,7,0.8,0.9
2024-12-26T0900,3333A,117.5627,30.695,池州市,第八中学,细颗粒物(PM2.5),134,124,132,102,105,10,,17,17,64,54,5,8,0.7,0.7
2024-12-26T0900,3334A,117.5038,30.6243,池州市,第十二中学,细颗粒物(PM2.5),130,129,139,99,111,9,,11,11,70,57,7,5,0.7,0.8
2024-12-26T0900,1744A,118.9233,42.2816,赤峰市,松山一中,,38,37,40,26,9,27,,56,52,52,15,18,10,1.1,0.6
2024-12-26T0900,1745A,118.9576,42.2728,赤峰市,哈达街,,38,28,43,26,22,23,,42,39,38,19,6,6,0.8,0.5
2024-12-26T0900,1746A,118.8788,42.2554,赤峰市,天义路,,37,37,51,11,11,17,,52,47,58,17,11,10,1.0,0.5
2024-12-26T0900,3058A,119.2658,42.0353,赤峰市,银河街,,22,15,45,15,15,50,,62,61,22,13,15,14,0.7,0.5
2024-12-26T0900,3286A,118.9359,42.3147,赤峰市,桥北物流园区,,23,21,34,15,15,27,,62,58,45,14,14,9,1.1,0.8
2024-12-26T0900,2521A,107.3476,22.4136,崇左市,市环保局江州分局,细颗粒物(PM2.5),109,144,129,82,78,54,,87,82,45,27,17,17,1.3,1.1
2024-12-26T0900,2522A,107.3702,22.3707,崇左市,城南新区,细颗粒物(PM2.5),118,110,105,89,90,67,,103,97,39,26,22,13,1.2,1.1
2024-12-26T0900,2298A,118.3093,32.3153,滁州市,老年大学,细颗粒物(PM2.5),142,134,104,108,83,40,,32,32,57,47,10,8,0.8,0.8
2024-12-26T0900,2299A,118.3244,32.2786,滁州市,人大宾馆,细颗粒物(PM2.5),156,142,117,119,99,46,,60,56,55,49,12,10,0.9,0.8
2024-12-26T0900,3207A,118.3118,32.3038,滁州市,市政府原办公楼,细颗粒物(PM2.5),143,136,105,109,89,56,,54,54,49,47,13,7,0.9,0.8
2024-12-26T0900,3331A,118.3267,32.2634,滁州市,图书馆,细颗粒物(PM2.5),127,142,118,96,84,46,,64,60,53,44,8,8,0.8,0.8
2024-12-26T0900,2605A,101.5482,25.0441,楚雄彝族自治州,州环境监测站,,28,20,22,19,17,6,,8,8,23,21,11,7,0.7,0.5
2024-12-26T0900,2606A,101.538,25.0492,楚雄彝族自治州,市经济开发区,,30,30,28,20,19,7,,10,10,22,22,9,7,0.6,0.6
2024-12-26T0900,2548A,107.5277,31.2827,达州市,达州职业技术学院,细颗粒物(PM2.5),128,110,112,97,99,7,,6,6,10,23,7,9,0.6,0.7
2024-12-26T0900,2549A,107.5086,31.2186,达州市,市环境监测站,细颗粒物(PM2.5),92,102,100,68,70,5,,4,4,35,44,7,10,1.2,1.1
2024-12-26T0900,2550A,107.4988,31.2132,达州市,凤凰小区,细颗粒物(PM2.5),98,97,99,73,77,5,,5,5,33,43,9,13,1.1,1
2024-12-26T0900,2551A,107.5082,31.1986,达州市,达县机关宾馆,细颗粒物(PM2.5),120,127,100,91,80,4,,4,4,37,42,8,10,1.4,1.1
2024-12-26T0900,2552A,107.4644,31.2124,达州市,市政中心,细颗粒物(PM2.5),100,98,101,75,73,4,,5,4,37,48,8,11,1.2,1.1
2024-12-26T0900,2614A,100.1542,25.7054,大理白族自治州,大理市环境监测站,,36,,19,25,18,52,,66,63,11,7,7,7,0.6,0.5
2024-12-26T0900,2615A,100.2171,25.5811,大理白族自治州,大理古城,,29,29,23,18,17,29,,58,54,38,11,6,5,0.9,0.7
2024-12-26T0900,1109A,121.612,38.9741,大连市,甘井子,,,47,69,10,38,60,,66,66,,31,,10,0.6,0.9
2024-12-26T0900,1110A,121.565,38.9511,大连市,周水子,,40,40,67,7,42,54,,60,60,23,30,7,9,0.6,0.8
2024-12-26T0900,1111A,121.5637,38.8845,大连市,星海三站,,38,38,63,7,40,57,,63,62,18,24,11,12,0.4,0.6
2024-12-26T0900,1112A,121.6302,38.9117,大连市,青泥洼桥,,24,24,60,6,39,57,,59,59,11,22,10,12,0.3,0.5
2024-12-26T0900,1113A,121.6251,38.8638,大连市,傅家庄,,29,29,64,3,37,64,,64,64,9,19,11,14,0.4,0.6
2024-12-26T0900,1114A,121.5213,38.8661,大连市,七贤岭,,29,29,62,3,39,64,,69,68,15,22,12,12,0.5,0.7
2024-12-26T0900,1115A,121.2529,38.8061,大连市,旅顺,,21,17,57,7,42,65,,62,62,15,25,10,11,0.5,0.6
2024-12-26T0900,1116A,121.7485,39.1311,大连市,金州,,34,34,71,10,44,60,,67,67,14,22,8,10,0.5,0.7
2024-12-26T0900,1117A,121.7811,39.0496,大连市,开发区,,38,38,71,8,41,60,,64,64,14,25,13,13,0.4,0.6
2024-12-26T0900,1118A,121.9762,39.0631,大连市,双D港,,36,36,85,9,42,69,,72,72,10,23,10,11,0.5,0.8
2024-12-26T0900,1789A,124.81117,46.03138,大庆市,大同区,颗粒物(PM10),57,63,40,37,26,28,,42,39,26,13,5,5,0.6,0.4
2024-12-26T0900,1790A,125.129,46.533,大庆市,龙凤区,,46,46,41,28,28,39,,45,43,31,19,15,11,0.6,0.5
2024-12-26T0900,1791A,124.902,46.408,大庆市,红岗区,,33,33,36,11,20,24,,39,36,34,15,5,7,0.5,0.4
2024-12-26T0900,1792A,125.153,46.586,大庆市,萨尔图区,颗粒物(PM10),52,53,38,21,27,24,,42,38,53,26,9,6,1.0,0.6
2024-12-26T0900,1793A,124.9042,46.6215,大庆市,让胡路区,,44,44,39,29,32,32,,49,47,36,13,8,8,0.7,0.5
2024-12-26T0900,3481A,125.141,46.634,大庆市,萨区政府监测点,,35,35,36,17,18,22,,43,38,48,18,6,5,0.6,0.4
2024-12-26T0900,1721A,113.3819,40.1097,大同市,果树场,颗粒物(PM10),55,59,44,36,19,22,,40,39,48,23,30,15,0.8,0.4
2024-12-26T0900,1723A,113.2994,40.0758,大同市,云冈宾馆,,50,50,37,22,14,15,,40,35,48,18,19,13,1.2,0.7
2024-12-26T0900,1724A,113.3444,40.0917,大同市,大同大学,,43,43,38,23,15,19,,33,28,39,19,23,13,1.4,0.6
2024-12-26T0900,1725A,113.2661,40.1269,大同市,安家小村,颗粒物(PM10),51,52,42,30,13,20,,43,38,38,16,22,16,0.9,0.6
2024-12-26T0900,1726A,113.2711,40.0844,大同市,教育学院,颗粒物(PM10),63,76,47,26,13,13,,31,27,50,24,19,12,1.1,0.6
2024-12-26T0900,3282A,113.3397,40.0597,大同市,大同市卫生学校,,33,33,36,19,13,29,,48,44,32,13,15,10,0.6,0.4
2024-12-26T0900,3565A,113.1367,40.1122,大同市,云冈站,颗粒物(PM10),59,68,55,24,18,8,,15,14,39,29,31,20,0.9,0.5
2024-12-26T0900,3566A,113.1186,40.2556,大同市,图书馆,细颗粒物(PM2.5),64,,33,46,20,15,,25,22,17,13,17,15,0.9,0.5
2024-12-26T0900,3567A,113.5931,40.0461,大同市,区一中,颗粒物(PM10),88,126,57,35,14,11,,24,21,52,21,46,22,1.2,0.7
2024-12-26T0900,3676A,113.2802,40.0995,大同市,第二人民医院,颗粒物(PM10),55,59,50,33,17,15,,31,25,53,24,21,15,1.3,0.7
2024-12-26T0900,2269A,124.1069,50.4097,大兴安岭地区,科技局,,28,23,18,19,16,47,,63,60,15,6,5,6,0.5,0.4
2024-12-26T0900,3663A,124.1164,50.4278,大兴安岭地区,红旗社区,颗粒物(PM10),51,51,21,21,11,26,,52,48,41,14,7,6,0.7,0.5
2024-12-26T0900,1600A,124.3303,40.0625,丹东市,江湾东路,颗粒物(PM10),55,59,88,13,45,46,,49,48,13,25,15,21,0.7,1.2
2024-12-26T0900,1601A,124.4256,40.1503,丹东市,临江后街,,44,44,73,21,53,48,,53,51,17,28,13,15,0.6,0.9
2024-12-26T0900,1602A,124.3933,40.1461,丹东市,元宝山,,50,50,73,16,41,49,,50,49,9,22,8,13,0.7,0.8
2024-12-26T0900,1603A,124.3633,40.1092,丹东市,民主桥,颗粒物(PM10),60,69,94,13,46,47,,52,51,16,28,11,16,0.8,1.1
2024-12-26T0900,3541A,109.5726,19.5167,儋州市,第一中学子站,,,36,64,,31,,,81,79,,13,5,5,0.6,0.6
2024-12-26T0900,3542A,109.5567,19.5187,儋州市,东坡学校子站,,44,44,48,24,32,58,,90,84,12,11,5,5,0.6,0.6
2024-12-26T0900,2616A,98.5842,24.428,德宏傣族景颇族自治州,德宏州监测站,细颗粒物(PM2.5),55,58,51,39,33,10,,12,10,21,25,6,8,1.2,1
2024-12-26T0900,3677A,98.5881,24.4368,德宏傣族景颇族自治州,芒市人民政府综合楼,,48,48,48,29,30,5,,17,14,19,16,6,8,1.2,0.9
2024-12-26T0900,1901A,104.4239,31.1208,德阳市,东山公园,细颗粒物(PM2.5),87,87,75,64,59,5,,3,2,55,45,2,2,0.9,0.8
2024-12-26T0900,1902A,104.3826,31.1317,德阳市,西小区,细颗粒物(PM2.5),118,120,94,89,73,3,,3,3,48,48,6,3,1.7,1
2024-12-26T0900,1904A,104.3553,31.1091,德阳市,耐火材料厂,细颗粒物(PM2.5),133,126,94,101,79,6,,4,4,44,41,10,6,1.4,0.9
2024-12-26T0900,3639A,104.4019,31.1244,德阳市,市教育局,细颗粒物(PM2.5),97,94,81,72,66,3,,2,2,48,45,6,4,1.7,1.1
2024-12-26T0900,1622A,116.3032,37.4674,德州市,儿童乐园,颗粒物(PM10),82,114,153,56,87,45,,44,44,30,58,7,12,0.6,1.1
2024-12-26T0900,1624A,116.2991,37.4451,德州市,监理站,细颗粒物(PM2.5),110,134,146,83,87,52,,50,50,28,54,14,16,0.6,1.1
2024-12-26T0900,3066A,116.2721,37.4379,德州市,九衢泉纯净水厂,细颗粒物(PM2.5),85,97,144,63,85,53,,52,52,21,51,12,16,0.3,0.8
2024-12-26T0900,3371A,116.3728,37.4403,德州市,开发区人民医院,,48,48,144,22,85,42,,45,45,31,50,8,14,0.4,0.9
2024-12-26T0900,3372A,116.3572,37.4094,德州市,太阳城中学,,39,39,136,22,83,51,,52,52,24,44,7,13,0.4,0.9
2024-12-26T0900,3511A,116.5652,37.3319,德州市,陵城艺术中心,颗粒物(PM10),52,53,150,22,92,45,,46,46,20,44,12,17,0.7,1.1
2024-12-26T0900,2621A,99.7056,27.8317,迪庆藏族自治州,迪庆州站,颗粒物(PM10),59,67,32,40,22,49,,72,68,36,14,8,7,1.1,0.6
2024-12-26T0900,3180A,99.7136,27.8094,迪庆藏族自治州,质量技术监督局,,39,39,29,25,20,41,,58,53,37,15,8,8,1.0,0.6
2024-12-26T0900,2663A,104.6241,35.5734,定西市,东关小学,颗粒物(PM10),78,105,84,54,59,3,,8,8,33,35,14,14,1.8,1.3
2024-12-26T0900,2664A,104.6194,35.5934,定西市,供电公司,细颗粒物(PM2.5),98,110,88,73,50,5,,2,2,42,46,15,14,2.2,1.8
2024-12-26T0900,1389A,113.7547,23.0494,东莞市,莞城梨川,,43,41,61,30,42,43,,27,27,24,30,6,6,0.7,0.7
2024-12-26T0900,1390A,113.7944,23.0128,东莞市,东城石井,颗粒物(PM10),51,51,62,34,39,39,,33,33,29,30,7,6,0.8,0.8
2024-12-26T0900,1391A,113.7383,22.9658,东莞市,南城西平,,48,48,60,33,38,36,,18,18,33,40,3,4,0.7,0.6
2024-12-26T0900,3319A,113.7338,23.0381,东莞市,万江金泰,,46,40,57,32,40,45,,35,35,19,25,7,8,0.8,0.8
2024-12-26T0900,3626A,113.7533,23.0202,东莞市,南城元岭,,49,47,62,34,41,36,,27,26,28,28,6,7,0.9,0.8
2024-12-26T0900,3627A,113.7875,23.0457,东莞市,东城主山,,50,49,59,35,39,23,,25,24,43,35,8,9,0.7,0.7
2024-12-26T0900,1666A,118.6614,37.4309,东营市,市环保局,,27,27,103,7,63,43,,53,51,24,42,8,13,0.6,0.8
2024-12-26T0900,3036A,118.6904,37.4338,东营市,开发区管委会,,24,24,114,9,68,44,,54,52,31,52,6,11,0.5,0.8
2024-12-26T0900,3365A,118.5719,37.565,东营市,垦利区民丰路,,31,31,105,7,59,41,,47,45,17,42,9,14,0.5,0.8
2024-12-26T0900,3498A,118.5055,37.8612,东营市,河口城区,,22,22,111,7,64,62,,66,65,10,26,8,9,0.7,0.9
2024-12-26T0900,3646A,118.4978,37.4623,东营市,胜利站,,25,24,117,17,69,39,,48,47,26,48,18,16,0.9,1.2
2024-12-26T0900,3734A,118.35,37.26,东营市,理想之城,,44,44,118,12,69,45,,52,51,27,49,10,14,0.8,1.1
2024-12-26T0900,1591A,110.0023,39.8129,鄂尔多斯市,综合楼,颗粒物(PM10),59,68,41,19,8,15,,48,43,60,23,28,7,0.6,0.3
2024-12-26T0900,1592A,109.9486,39.8261,鄂尔多斯市,巴音孟克林场办事处,颗粒物(PM10),54,58,43,22,12,20,,33,32,50,25,20,10,0.9,0.4
2024-12-26T0900,1593A,109.7736,39.5986,鄂尔多斯市,康泽苑,,31,31,27,9,11,32,,42,41,23,8,6,6,0.5,0.4
2024-12-26T0900,1594A,109.8119,39.5989,鄂尔多斯市,华泰汽车城,,36,36,29,12,12,18,,36,33,29,12,5,5,0.6,0.4
2024-12-26T0900,1595A,109.9734,39.7884,鄂尔多斯市,奥林花园,,,56,41,,8,16,,35,31,52,23,13,7,0.8,0.5
2024-12-26T0900,2436A,114.8938,30.3994,鄂州市,市政府,细颗粒物(PM2.5),144,140,128,110,102,4,,3,3,77,80,13,12,1.5,1.5
2024-12-26T0900,2437A,114.8989,30.3714,鄂州市,赵家坝,细颗粒物(PM2.5),137,151,139,104,104,5,,4,4,78,74,10,9,1.2,1.3
2024-12-26T0900,3654A,114.8094,30.4089,鄂州市,精准医疗中心,细颗粒物(PM2.5),139,136,129,106,105,10,,10,10,64,70,7,10,0.8,1
2024-12-26T0900,2454A,109.4978,30.2981,恩施土家族苗族自治州,湖北民院,细颗粒物(PM2.5),170,,104,129,119,14,,16,15,29,24,7,7,1.0,0.9
2024-12-26T0900,2455A,109.4707,30.2798,恩施土家族苗族自治州,州电力总公司,细颗粒物(PM2.5),142,126,131,108,109,8,,10,10,36,35,8,7,1.2,1
2024-12-26T0900,3549A,109.5061,30.3772,恩施土家族苗族自治州,龙凤新区,细颗粒物(PM2.5),134,131,136,102,110,7,,6,6,24,28,6,6,1.3,1.1
2024-12-26T0900,2499A,108.3411,21.6158,防城港市,沙万,细颗粒物(PM2.5),89,103,105,66,78,75,,94,92,30,30,10,12,1.6,1.1
2024-12-26T0900,2500A,108.3514,21.7731,防城港市,防城档案局,颗粒物(PM10),106,162,146,79,89,76,,76,76,31,39,10,10,0.9,1
2024-12-26T0900,2501A,108.3506,21.6414,防城港市,大海花园,细颗粒物(PM2.5),95,96,107,71,81,81,,96,93,23,25,8,11,1.0,1
2024-12-26T0900,1371A,113.1294,23.0067,佛山市,湾梁,颗粒物(PM10),54,58,65,35,42,54,,47,47,32,46,8,8,0.8,0.8
2024-12-26T0900,1372A,113.1083,23.0478,佛山市,华材职中,细颗粒物(PM2.5),60,61,73,43,47,55,,45,45,37,54,9,9,0.6,0.7
2024-12-26T0900,1373A,113.144,23.0453,佛山市,南海气象局,细颗粒物(PM2.5),52,38,57,36,41,51,,45,45,31,46,9,9,0.7,0.7
2024-12-26T0900,1374A,113.2881,22.8094,佛山市,顺德苏岗,颗粒物(PM10),59,68,63,36,37,21,,22,22,48,44,10,8,0.8,0.8
2024-12-26T0900,1376A,112.8383,22.8678,佛山市,高明孔堂,细颗粒物(PM2.5),58,51,73,41,50,66,,54,54,18,34,12,14,0.7,0.8
2024-12-26T0900,1377A,112.8836,23.1588,佛山市,三水监测站,细颗粒物(PM2.5),65,73,66,47,47,40,,46,45,48,41,13,12,1.0,1
2024-12-26T0900,1378A,112.867,23.185,佛山市,三水云东海,细颗粒物(PM2.5),59,52,58,42,41,51,,44,44,41,40,15,15,0.9,0.9
2024-12-26T0900,3625A,113.2544,22.7642,佛山市,容桂街道办,"颗粒物(PM10),细颗粒物(PM2.5)",58,66,64,41,38,25,,19,19,47,46,9,7,0.8,0.7
2024-12-26T0900,1280A,119.3903,26.0543,福州市,鼓山,,,,31,,19,,,61,,,31,,1,,0.4
2024-12-26T0900,1282A,119.2681,26.0504,福州市,师大,,38,33,37,26,21,47,,32,32,21,30,3,3,0.3,0.4
2024-12-26T0900,1283A,119.2984,26.1028,福州市,五四北路,,43,,39,30,23,36,,20,20,25,37,3,2,0.4,0.4
2024-12-26T0900,1284A,119.2648,26.0768,福州市,杨桥西路,,35,29,37,24,21,46,,33,33,23,31,1,1,0.4,0.5
2024-12-26T0900,1285A,119.317,26.0746,福州市,紫阳,,40,37,43,28,24,35,,22,22,27,43,3,3,0.3,0.4
2024-12-26T0900,3048A,119.5799,26.0936,福州市,九龙,,29,29,25,19,13,59,,55,55,10,12,1,2,0.3,0.3
2024-12-26T0900,3526A,119.5189,25.9664,福州市,吴航,,30,30,29,20,18,62,,51,51,13,21,2,2,0.3,0.3
2024-12-26T0900,1755A,123.7977,41.8491,抚顺市,望花区,颗粒物(PM10),64,78,112,36,28,26,,50,46,44,23,10,6,1.0,0.7
2024-12-26T0900,1756A,123.9161,41.8822,抚顺市,顺城区,颗粒物(PM10),77,103,112,47,27,20,,44,39,45,28,11,8,1.2,0.7
2024-12-26T0900,1757A,124.0436,41.8611,抚顺市,东洲区,颗粒物(PM10),77,103,108,47,27,33,,50,46,40,21,10,7,1.5,0.6
2024-12-26T0900,1758A,123.9247,41.8642,抚顺市,新抚区,颗粒物(PM10),73,95,112,44,30,35,,48,46,30,22,8,6,0.8,0.5
2024-12-26T0900,1759A,124.0972,41.8961,抚顺市,大伙房水库,颗粒物(PM10),58,66,101,31,25,28,,46,42,28,18,10,9,0.5,0.4
2024-12-26T0900,1760A,123.7086,41.8391,抚顺市,沈抚新城,细颗粒物(PM2.5),82,88,109,60,27,23,,48,44,44,23,8,7,0.8,0.6
2024-12-26T0900,2376A,116.2127,28.0814,抚州市,桐源党溪,细颗粒物(PM2.5),89,100,92,66,62,18,,43,37,23,5,4,5,0.8,0.6
2024-12-26T0900,2377A,116.3544,27.9831,抚州市,市站,细颗粒物(PM2.5),99,104,89,74,61,38,,57,52,39,26,17,7,1.5,1.2
2024-12-26T0900,2378A,116.3565,27.963,抚州市,血防站,细颗粒物(PM2.5),98,111,94,73,62,35,,52,48,33,20,24,22,1.1,0.9
2024-12-26T0900,2379A,116.3564,28.0007,抚州市,采茶剧团,细颗粒物(PM2.5),99,96,87,74,63,34,,45,42,30,22,7,4,1.4,1.3
2024-12-26T0900,2380A,116.385,27.9647,抚州市,医学分院,细颗粒物(PM2.5),93,102,102,69,58,35,,44,41,30,22,9,11,1.2,1.1
2024-12-26T0900,2207A,121.6094,41.998,阜新市,工业园区,,20,20,101,12,20,63,,69,68,14,14,6,11,0.4,0.5
2024-12-26T0900,2208A,121.6697,42.0279,阜新市,长青街,,29,29,81,8,19,61,,62,62,8,10,6,8,0.4,0.5
2024-12-26T0900,2209A,121.6673,42.0705,阜新市,农业园区,,20,,75,7,13,61,,60,60,4,7,9,10,0.6,0.7
2024-12-26T0900,2210A,121.6717,42.0224,阜新市,东苑,,24,24,92,6,11,62,,64,63,8,11,3,7,0.4,0.5
2024-12-26T0900,2211A,121.6506,42.0498,阜新市,玉龙新城,,35,35,97,10,23,69,,67,66,9,11,6,7,0.2,0.6
2024-12-26T0900,2301A,115.8277,32.8929,阜阳市,市监测站,细颗粒物(PM2.5),178,177,141,134,121,3,,2,2,78,63,10,8,1.3,1.1
2024-12-26T0900,2303A,115.8554,32.8605,阜阳市,开发区,细颗粒物(PM2.5),153,194,163,117,108,4,,2,2,73,63,10,10,1.5,1
2024-12-26T0900,2875A,115.784,32.8892,阜阳市,阜阳职业技术学院,细颗粒物(PM2.5),195,172,135,146,109,4,,2,2,72,58,9,9,1.6,1
2024-12-26T0900,3468A,115.7901,32.8613,阜阳市,市规划展馆,细颗粒物(PM2.5),163,142,135,124,107,12,,16,12,70,49,,8,1.3,0.8
2024-12-26T0900,3469A,115.836,32.9183,阜阳市,枣园社区,细颗粒物(PM2.5),202,192,138,152,113,7,,5,5,79,62,8,7,1.1,0.9
2024-12-26T0900,2669A,102.9099,34.9841,甘南藏族自治州,州政府,颗粒物(PM10),65,79,62,23,33,2,,4,4,42,35,8,10,1.4,0.9
2024-12-26T0900,3380A,102.8914,34.9617,甘南藏族自治州,甘肃民族师范学院,颗粒物(PM10),64,78,71,16,31,3,,6,6,42,42,5,10,0.6,0.7
2024-12-26T0900,2570A,101.9603,30.0475,甘孜藏族自治州,水桥子,,33,33,13,17,7,8,,42,37,49,18,3,2,0.8,0.7
2024-12-26T0900,3065A,101.9533,29.9972,甘孜藏族自治州,州环保局,,28,28,16,13,6,21,,53,48,35,15,4,4,0.6,0.6
2024-12-26T0900,3414A,115.8347,28.932,赣江新区,桑海产业园,,,,131,,87,,,26,,,42,,17,,1.0
2024-12-26T0900,2362A,114.9017,25.9149,赣州市,通天岩,细颗粒物(PM2.5),82,,66,60,59,70,,48,48,20,20,8,6,0.6,0.5
2024-12-26T0900,2363A,114.9367,25.8664,赣州市,地委,细颗粒物(PM2.5),83,99,81,61,52,65,,68,66,24,21,20,12,1.2,1.1
2024-12-26T0900,2364A,114.9461,25.8481,赣州市,气象台,细颗粒物(PM2.5),80,104,90,59,50,73,,84,82,47,38,33,21,1.0,0.9
2024-12-26T0900,2365A,114.9322,25.8333,赣州市,市图书馆,细颗粒物(PM2.5),79,92,80,58,51,61,,71,68,28,25,19,10,0.9,0.9
2024-12-26T0900,2366A,114.8905,25.8471,赣州市,华坚鞋城,细颗粒物(PM2.5),85,93,79,63,50,64,,76,73,27,22,13,10,0.8,0.7
2024-12-26T0900,3109A,115.0093,25.8613,赣州市,赣县区卫计委,细颗粒物(PM2.5),104,111,98,78,72,51,,33,30,30,34,9,7,0.8,0.7
2024-12-26T0900,2683A,106.2319,36.1417,固原市,马园,,,,87,56,53,6,,8,8,40,38,7,8,1.5,1
2024-12-26T0900,2684A,106.2792,36.0022,固原市,监测站,细颗粒物(PM2.5),185,,80,139,51,23,,24,24,44,39,11,10,2.0,1.3
2024-12-26T0900,2685A,106.2375,36.0211,固原市,新区,细颗粒物(PM2.5),85,114,76,63,37,6,,19,16,56,42,8,8,2.3,0.9
2024-12-26T0900,3522A,106.2177,35.9959,固原市,原州区十五小,颗粒物(PM10),68,85,77,48,39,15,,26,24,51,35,11,7,1.4,0.9
2024-12-26T0900,2543A,106.6308,30.5278,广安市,小平旧居,,,,,,,,,,,,,,,,
2024-12-26T0900,2544A,106.6303,30.4576,广安市,市委,细颗粒物(PM2.5),162,,147,123,135,9,,9,9,17,33,2,6,1.0,1
2024-12-26T0900,2545A,106.6271,30.4663,广安市,友谊中学,细颗粒物(PM2.5),142,145,146,108,126,4,,4,4,21,40,2,6,1.1,1.1
2024-12-26T0900,2547A,106.6388,30.4551,广安市,广电花园,细颗粒物(PM2.5),128,102,133,97,123,4,,3,3,18,33,,3,0.7,0.7
2024-12-26T0900,2902A,106.6351,30.4865,广安市,北辰小学,细颗粒物(PM2.5),142,121,137,108,120,5,,5,5,24,32,5,10,1.2,1.1
2024-12-26T0900,2523A,105.8945,32.4535,广元市,黑石坡,细颗粒物(PM2.5),55,57,53,39,36,9,,9,6,23,22,4,3,1.0,0.6
2024-12-26T0900,2524A,105.821,32.4444,广元市,老城,颗粒物(PM10),69,88,69,46,38,4,,2,2,43,43,6,5,1.1,0.8
2024-12-26T0900,2526A,105.8628,32.4287,广元市,监测站,细颗粒物(PM2.5),64,62,53,46,41,10,,20,17,39,30,2,2,1.0,0.8
2024-12-26T0900,3617A,105.8047,32.4166,广元市,经开区,细颗粒物(PM2.5),72,77,70,52,44,5,,4,4,38,41,6,7,1.0,0.8
2024-12-26T0900,1345A,113.2347,23.1423,广州市,广雅中学,细颗粒物(PM2.5),62,63,77,44,46,53,,31,31,31,50,10,10,0.7,0.7
2024-12-26T0900,1346A,113.2612,23.105,广州市,市五中,细颗粒物(PM2.5),57,56,70,40,51,59,,41,41,22,34,5,5,0.8,0.8
2024-12-26T0900,1348A,113.3478,23.0916,广州市,广东商学院,细颗粒物(PM2.5),59,53,63,42,45,54,,47,47,24,37,5,5,0.6,0.6
2024-12-26T0900,1349A,113.4332,23.1047,广州市,市八十六中,"颗粒物(PM10),细颗粒物(PM2.5)",54,57,66,38,40,40,,37,37,35,40,5,5,0.5,0.5
2024-12-26T0900,1350A,113.3505,22.9483,广州市,番禺中学,"颗粒物(PM10),细颗粒物(PM2.5)",53,55,59,37,42,40,,38,38,37,44,6,4,0.7,0.6
2024-12-26T0900,1351A,113.2146,23.3916,广州市,花都师范,细颗粒物(PM2.5),53,50,59,37,41,64,,65,65,22,22,10,10,0.6,0.6
2024-12-26T0900,1352A,113.2597,23.1331,广州市,市监测站,颗粒物(PM10),52,53,64,33,36,59,,34,34,21,44,7,7,0.5,0.5
2024-12-26T0900,1353A,113.5618,23.312,广州市,九龙镇镇龙,颗粒物(PM10),53,55,59,36,41,53,,46,46,25,32,6,6,0.7,0.7
2024-12-26T0900,1354A,113.2765,23.1544,广州市,麓湖,细颗粒物(PM2.5),52,50,57,36,39,64,,37,37,20,44,5,5,0.6,0.7
2024-12-26T0900,1355A,113.443,23.3035,广州市,帽峰山森林公园,,48,44,47,33,32,61,,62,62,21,21,8,8,0.5,0.5
2024-12-26T0900,2846A,113.3221,23.1322,广州市,体育西,细颗粒物(PM2.5),55,57,67,39,46,50,,41,41,21,32,6,6,0.6,0.7
2024-12-26T0900,3298A,113.5717,23.5491,广州市,从化街口,细颗粒物(PM2.5),62,62,66,44,48,61,,51,51,27,30,6,6,0.8,0.7
2024-12-26T0900,3299A,113.3472,23.3692,广州市,白云竹料,颗粒物(PM10),51,51,61,35,41,72,,60,60,17,21,10,9,0.8,0.8
2024-12-26T0900,3300A,113.2981,23.237,广州市,白云嘉禾,颗粒物(PM10),55,60,77,37,43,65,,44,44,27,46,8,8,0.8,0.8
2024-12-26T0900,3301A,113.4256,23.1716,广州市,黄埔科学城,细颗粒物(PM2.5),58,54,60,41,42,48,,49,48,26,29,8,8,0.8,0.8
2024-12-26T0900,3302A,113.3942,23.0483,广州市,番禺大学城,,,,73,,37,,,70,,,47,,13,,0.9
2024-12-26T0900,3303A,113.4922,22.8168,广州市,南沙黄阁,"颗粒物(PM10),细颗粒物(PM2.5)",58,65,65,41,42,24,,22,20,47,44,6,7,1.0,1
2024-12-26T0900,3304A,113.5342,22.7896,广州市,南沙街,,50,49,59,35,39,27,,32,32,44,41,11,7,0.8,0.8
2024-12-26T0900,3443A,113.2902,23.5544,广州市,花都梯面,,49,46,53,34,37,78,,68,68,10,15,11,15,0.8,0.8
2024-12-26T0900,3445A,113.7858,23.7478,广州市,从化良口,细颗粒物(PM2.5),65,58,48,47,39,64,,55,55,10,14,6,6,0.7,0.7
2024-12-26T0900,3446A,113.8051,23.2614,广州市,增城荔城,,49,45,48,34,35,64,,63,62,15,19,5,5,0.6,0.5
2024-12-26T0900,2505A,109.568,23.1478,贵港市,德智高中,,,,,,,,,,,,,,,,
2024-12-26T0900,2506A,109.6047,23.0666,贵港市,江南子站,细颗粒物(PM2.5),112,110,121,84,86,67,,72,70,27,29,13,14,0.7,0.8
2024-12-26T0900,2507A,109.6014,23.0948,贵港市,贵城子站,细颗粒物(PM2.5),120,113,113,91,89,59,,63,61,31,35,14,13,0.9,1
2024-12-26T0900,2508A,109.5669,23.1065,贵港市,荷城子站,,,,122,,82,,,66,65,27,33,,17,0.9,0.9
2024-12-26T0900,3405A,109.5886,23.1172,贵港市,新世纪学校,细颗粒物(PM2.5),103,117,132,77,84,61,,62,61,29,32,12,14,0.9,1
2024-12-26T0900,1439A,106.6899,26.5998,贵阳市,马鞍山,,34,34,47,19,34,13,,19,19,22,28,3,7,0.7,0.7
2024-12-26T0900,1440A,106.6971,26.5694,贵阳市,市环保站,细颗粒物(PM2.5),53,,50,37,43,17,,27,26,38,32,7,10,0.6,0.7
2024-12-26T0900,1441A,106.6243,26.6266,贵阳市,鉴湖路,,32,22,34,22,29,40,,43,43,17,24,5,5,0.9,0.8
2024-12-26T0900,1442A,106.7487,26.6343,贵阳市,燕子冲,,32,,43,22,41,33,,30,30,18,23,6,8,0.6,0.7
2024-12-26T0900,1443A,106.6555,26.4365,贵阳市,碧云窝,,39,39,56,24,38,11,,22,22,43,34,12,13,0.7,0.8
2024-12-26T0900,1444A,106.694,26.5161,贵阳市,中院村,,42,31,49,29,39,19,,27,27,34,31,14,16,0.8,1
2024-12-26T0900,1445A,106.7109,26.6027,贵阳市,红边门,,49,,51,34,42,18,,23,23,33,33,11,15,1.0,1.1
2024-12-26T0900,1446A,106.7164,26.5699,贵阳市,新华路,,42,31,47,29,36,23,,28,28,28,27,7,8,0.7,0.7
2024-12-26T0900,1447A,106.674,26.5424,贵阳市,太慈桥,,35,27,46,24,37,12,,20,20,33,32,6,8,0.7,0.8
2024-12-26T0900,1552A,106.805,26.3003,贵阳市,桐木岭,,,,51,,37,,,24,,,14,,9,,0.8
2024-12-26T0900,1862A,110.4144,25.3167,桂林市,电子科大尧山校区,细颗粒物(PM2.5),89,85,77,66,59,102,,106,106,18,16,10,10,0.7,0.7
2024-12-26T0900,1863A,110.2819,25.2697,桂林市,监测站,细颗粒物(PM2.5),113,,94,85,77,93,,96,96,28,30,13,14,1.3,1.3
2024-12-26T0900,1864A,110.3089,25.2708,桂林市,龙隐路小学,细颗粒物(PM2.5),110,,89,83,82,100,,99,99,25,27,15,19,0.8,0.8
2024-12-26T0900,1865A,110.2869,25.2178,桂林市,八中,细颗粒物(PM2.5),114,90,92,86,84,118,,107,107,26,27,17,16,0.9,0.8
2024-12-26T0900,3403A,110.1764,25.2381,桂林市,创业大厦,细颗粒物(PM2.5),104,105,103,78,78,96,,100,100,27,30,12,14,0.8,0.8
2024-12-26T0900,3531A,110.296,25.1253,桂林市,旅游学院,细颗粒物(PM2.5),107,97,97,80,80,105,,97,97,25,26,10,12,0.8,0.8
2024-12-26T0900,2674A,100.2561,34.4714,果洛藏族自治州,玛沁县大武镇,,25,25,39,8,14,26,,44,39,10,3,7,10,0.5,0.5
2024-12-26T0900,1129A,126.5422,45.755,哈尔滨市,岭北,,,33,39,25,28,46,,45,44,22,19,8,8,,0.2
2024-12-26T0900,1130A,126.561,45.8167,哈尔滨市,松北商大,,27,27,43,18,28,36,,42,40,22,19,5,5,0.6,0.5
2024-12-26T0900,1131A,126.979,45.5419,哈尔滨市,阿城会宁,细颗粒物(PM2.5),88,,53,65,39,36,,44,44,21,21,3,5,1.0,0.7
2024-12-26T0900,1132A,126.599,45.7222,哈尔滨市,南岗学府路,颗粒物(PM10),51,51,52,35,26,37,,39,38,28,26,8,11,0.6,0.5
2024-12-26T0900,1133A,126.689,45.7733,哈尔滨市,太平宏伟公园,,25,25,48,16,30,30,,40,38,29,22,6,12,0.6,0.5
2024-12-26T0900,1134A,126.635,45.7667,哈尔滨市,道外承德广场,,40,40,56,16,28,27,,40,38,36,22,8,15,0.7,0.6
2024-12-26T0900,1135A,126.685,45.7319,哈尔滨市,香坊红旗大街,,36,29,40,25,31,33,,38,37,30,22,9,14,0.6,0.5
2024-12-26T0900,1136A,126.6411,45.7258,哈尔滨市,动力和平路,,38,38,18,26,29,35,,34,33,24,20,8,10,0.6,0.5
2024-12-26T0900,1137A,126.593,45.7478,哈尔滨市,道里建国路,,40,36,47,28,30,30,,41,40,32,23,2,4,0.4,0.3
2024-12-26T0900,1138A,126.615,45.61,哈尔滨市,平房东轻厂,颗粒物(PM10),51,52,52,27,31,27,,28,26,33,28,12,10,0.6,0.6
2024-12-26T0900,1139A,126.595,45.9855,哈尔滨市,呼兰师专,细颗粒物(PM2.5),63,48,35,45,25,31,,38,36,26,21,9,6,0.7,0.6
2024-12-26T0900,1140A,126.6206,45.6842,哈尔滨市,省农科院,细颗粒物(PM2.5),84,66,54,62,36,26,,31,28,35,23,8,5,1.0,0.6
2024-12-26T0900,2688A,93.5128,42.8172,哈密市,地区监测站,颗粒物(PM10),66,82,47,45,36,20,,40,40,42,29,6,5,1.0,0.5
2024-12-26T0900,2689A,93.4961,42.8328,哈密市,哈密师范学校,,46,44,41,32,32,27,,34,34,35,32,4,6,0.9,0.6
2024-12-26T0900,2671A,100.9048,36.9639,海北藏族自治州,海晏县西海镇,,16,11,32,6,20,49,,59,58,12,9,6,10,0.4,0.5
2024-12-26T0900,3867A,102.0738,36.5056,海东市,平安区公安北苑,细颗粒物(PM2.5),109,106,98,82,78,22,,35,32,36,34,9,24,1.3,1.4
2024-12-26T0900,1409A,110.576,19.9507,海口市,东寨港,,48,35,40,33,34,52,,68,64,7,7,13,11,0.5,0.6
2024-12-26T0900,1410A,110.3232,20.0574,海口市,海南大学,"颗粒物(PM10),细颗粒物(PM2.5)",54,58,55,38,35,57,,78,72,21,18,7,7,0.6,0.6
2024-12-26T0900,1411A,110.283,20.0053,海口市,秀英海南医院,,50,50,50,33,33,58,,80,74,24,19,6,5,0.5,0.5
2024-12-26T0900,1412A,110.338,19.9969,海口市,海南师范大学,,50,50,48,33,32,60,,82,76,20,16,6,6,0.6,0.5
2024-12-26T0900,1413A,110.33,20.0356,海口市,龙华路环保局宿舍,,48,46,47,33,32,58,,80,75,20,15,7,7,0.5,0.5
2024-12-26T0900,3539A,110.5111,19.9736,海口市,桂林洋子站,,48,48,52,31,33,61,,80,75,14,13,5,6,0.4,0.4
2024-12-26T0900,2673A,100.6188,36.2866,海南藏族自治州,共和县恰卜恰镇,,34,34,38,9,19,22,,32,32,47,29,4,6,0.7,0.6
2024-12-26T0900,2676A,97.3731,37.3753,海西蒙古族藏族自治州,德令哈市,,25,25,29,9,13,33,,70,66,43,13,17,16,1.1,0.5
2024-12-26T0900,1048A,114.5302,36.6116,邯郸市,东污水处理厂,颗粒物(PM10),63,76,169,39,127,26,,14,14,46,78,4,12,0.7,2
2024-12-26T0900,1049A,114.4918,36.5713,邯郸市,矿院,颗粒物(PM10),66,82,174,39,116,24,,9,9,39,74,4,10,0.3,1.7
2024-12-26T0900,1050A,114.484,36.6133,邯郸市,丛台公园,颗粒物(PM10),62,73,163,32,116,27,,13,13,36,71,4,11,0.6,1.8
2024-12-26T0900,3458A,114.7895,36.5593,邯郸市,香泉濮院小区,颗粒物(PM10),75,100,181,40,128,19,,4,4,41,64,7,15,0.7,1.7
2024-12-26T0900,3579A,114.50634,36.77178,邯郸市,永年区实验高中,颗粒物(PM10),98,145,186,67,115,10,,8,8,48,67,11,23,1.1,2.2
2024-12-26T0900,3580A,114.20016,36.44293,邯郸市,峰峰矿区临水派出所,颗粒物(PM10),66,82,139,33,97,41,,18,18,29,59,11,22,0.6,1.7
2024-12-26T0900,2634A,106.9893,33.1842,汉中市,汉川机床厂子校,细颗粒物(PM2.5),73,,59,53,53,30,,33,32,10,10,5,6,0.8,0.8
2024-12-26T0900,2635A,107.0154,33.0706,汉中市,市监测站,细颗粒物(PM2.5),137,113,103,104,92,10,,10,10,39,42,6,9,1.8,1.7
2024-12-26T0900,2636A,107.0089,33.1138,汉中市,鑫源开发区,细颗粒物(PM2.5),123,,103,93,103,6,,7,6,29,36,4,8,1.2,1.3
2024-12-26T0900,2637A,107.007,33.0323,汉中市,南郑大河坎水厂,细颗粒物(PM2.5),127,112,130,96,96,12,,12,12,26,31,5,7,1.5,1.5
2024-12-26T0900,1223A,120.2072,30.2111,杭州市,滨江,细颗粒物(PM2.5),135,132,122,103,96,39,,19,19,47,52,14,10,1.1,0.9
2024-12-26T0900,1224A,120.0633,30.2747,杭州市,西溪,细颗粒物(PM2.5),145,143,126,111,91,24,,12,12,55,54,11,8,1.1,0.8
2024-12-26T0900,1226A,120.3461,30.3153,杭州市,下沙,细颗粒物(PM2.5),143,133,119,109,95,25,,9,9,68,71,12,9,1.2,0.9
2024-12-26T0900,1227A,120.1269,30.2456,杭州市,卧龙桥,细颗粒物(PM2.5),134,132,113,102,80,34,,13,13,50,54,12,7,1.1,0.8
2024-12-26T0900,1228A,120.1903,30.2692,杭州市,浙江农大,细颗粒物(PM2.5),149,139,126,114,101,24,,14,14,56,54,13,8,1.2,0.9
2024-12-26T0900,1230A,120.1197,30.3119,杭州市,和睦小学,细颗粒物(PM2.5),143,141,126,109,91,24,,10,10,54,59,13,8,1.3,0.9
2024-12-26T0900,1231A,120.3019,30.4183,杭州市,临平镇,细颗粒物(PM2.5),133,151,126,101,88,21,,13,12,57,49,10,8,1.3,1
2024-12-26T0900,1232A,120.2697,30.1819,杭州市,城厢镇,细颗粒物(PM2.5),145,149,138,111,88,37,,18,18,48,53,9,7,1.4,1.2
2024-12-26T0900,1233A,120.0883,30.1808,杭州市,云栖,细颗粒物(PM2.5),122,129,111,92,75,38,,11,11,44,53,10,7,1.1,0.7
2024-12-26T0900,3557A,119.9464,30.0494,杭州市,镇二中,细颗粒物(PM2.5),127,119,97,96,75,13,,14,12,49,44,8,8,1.2,1
2024-12-26T0900,3558A,119.7183,30.2367,杭州市,市府大楼,细颗粒物(PM2.5),150,146,133,115,104,33,,8,8,,63,10,8,1.3,1
2024-12-26T0900,3656A,120.1556,30.2864,杭州市,消防大队,细颗粒物(PM2.5),153,155,134,117,97,22,,13,13,60,55,13,10,1.2,0.9
2024-12-26T0900,1270A,117.1959,31.7848,合肥市,明珠广场,细颗粒物(PM2.5),138,136,105,105,78,42,,28,28,59,62,11,9,1.0,0.8
2024-12-26T0900,1271A,117.3072,31.8764,合肥市,三里街,细颗粒物(PM2.5),144,149,110,110,81,18,,18,18,77,64,11,7,1.0,0.8
2024-12-26T0900,1272A,117.2588,31.8707,合肥市,琥珀山庄,细颗粒物(PM2.5),139,153,112,106,80,28,,10,10,76,77,10,6,1.3,1.1
2024-12-26T0900,1273A,117.1604,31.9052,合肥市,董铺水库,细颗粒物(PM2.5),128,183,108,97,68,13,,8,7,76,56,6,5,0.7,0.5
2024-12-26T0900,1274A,117.25,31.8571,合肥市,长江中路,细颗粒物(PM2.5),149,144,114,114,88,32,,12,12,68,71,11,8,0.9,0.7
2024-12-26T0900,1275A,117.266,31.9436,合肥市,庐阳区,细颗粒物(PM2.5),132,166,116,100,76,16,,16,15,84,64,8,6,1.0,0.8
2024-12-26T0900,1276A,117.336,31.8586,合肥市,瑶海区,细颗粒物(PM2.5),147,144,117,112,82,32,,10,10,72,82,9,7,0.9,0.9
2024-12-26T0900,1277A,117.3027,31.7964,合肥市,包河区,细颗粒物(PM2.5),156,163,112,119,80,6,,5,5,102,85,9,7,0.9,0.7
2024-12-26T0900,1278A,117.2776,31.7385,合肥市,滨湖新区,细颗粒物(PM2.5),125,151,111,95,68,17,,6,6,80,73,10,9,0.9,0.7
2024-12-26T0900,1279A,117.1318,31.8403,合肥市,高新区,细颗粒物(PM2.5),137,144,108,104,82,29,,53,53,79,58,4,3,1.1,0.9
2024-12-26T0900,3464A,117.3803,31.9147,合肥市,高教基地,细颗粒物(PM2.5),148,150,113,113,84,38,,12,12,61,70,14,8,0.7,0.7
2024-12-26T0900,3614A,79.924,37.0877,和田地区,地区环保局,颗粒物(PM10),85,119,157,43,70,30,,24,24,20,35,20,24,0.5,1.2
2024-12-26T0900,3615A,79.9131,37.113,和田地区,市环保局,颗粒物(PM10),71,91,118,48,64,27,,17,17,34,52,22,19,2.0,1.6
2024-12-26T0900,2516A,108.2011,24.715,河池市,东仁乐园,细颗粒物(PM2.5),78,61,93,57,71,66,,54,54,15,24,13,16,0.6,0.7
2024-12-26T0900,2517A,108.0497,24.6947,河池市,市环保站,细颗粒物(PM2.5),69,57,86,50,66,62,,43,43,10,18,8,12,0.7,0.8
2024-12-26T0900,2518A,108.0983,24.6989,河池市,市疾控中心,细颗粒物(PM2.5),73,57,78,53,65,70,,56,56,7,20,9,14,0.7,0.8
2024-12-26T0900,1696A,114.6778,23.7569,河源市,源西,细颗粒物(PM2.5),75,55,48,55,48,48,,54,53,12,6,8,6,0.9,0.8
2024-12-26T0900,1697A,114.6944,23.7586,河源市,东埔,细颗粒物(PM2.5),82,,53,60,55,43,,57,55,28,22,6,5,1.0,0.8
2024-12-26T0900,1698A,114.6892,23.7233,河源市,老城,细颗粒物(PM2.5),82,,54,60,53,44,,54,53,23,20,6,5,0.8,0.6
2024-12-26T0900,1718A,115.4208,35.2464,菏泽市,气象局,细颗粒物(PM2.5),110,168,221,83,155,20,,18,18,48,59,7,10,0.8,1.2
2024-12-26T0900,1719A,115.4747,35.2375,菏泽市,市政协,颗粒物(PM10),92,133,222,63,156,30,,18,18,44,66,9,11,0.8,1.4
2024-12-26T0900,3374A,115.5564,35.0891,菏泽市,定陶老年大学,细颗粒物(PM2.5),107,139,199,80,148,19,,11,11,52,65,12,14,0.9,1.4
2024-12-26T0900,3647A,115.4702,35.2706,菏泽市,菏泽医专,颗粒物(PM10),106,162,209,74,144,,,10,10,47,69,9,16,1.0,1.5
2024-12-26T0900,2514A,111.5264,24.4172,贺州市,环保小区,细颗粒物(PM2.5),117,94,105,88,91,68,,65,65,21,25,11,12,0.9,0.9
2024-12-26T0900,2515A,111.5608,24.4078,贺州市,政协大楼,细颗粒物(PM2.5),100,100,108,75,74,72,,76,75,22,25,10,11,0.9,1
2024-12-26T0900,3534A,111.4744,24.4553,贺州市,西湾,细颗粒物(PM2.5),117,103,115,88,93,78,,78,78,15,18,10,10,0.8,0.9
2024-12-26T0900,2385A,114.17,35.9019,鹤壁市,市监测站,细颗粒物(PM2.5),113,125,170,85,120,18,,5,5,56,64,2,8,0.7,1.3
2024-12-26T0900,2386A,114.2956,35.7511,鹤壁市,市交警支队,细颗粒物(PM2.5),112,139,188,84,130,21,,5,5,45,68,3,11,0.9,1.6
2024-12-26T0900,2387A,114.2878,35.7306,鹤壁市,迎宾馆,颗粒物(PM10),101,152,187,74,118,18,,6,6,48,66,9,12,1.0,1.5
2024-12-26T0900,3474A,114.2617,35.6822,鹤壁市,大新区,细颗粒物(PM2.5),130,168,173,99,139,18,,7,7,56,72,10,14,1.2,1.5
2024-12-26T0900,3596A,114.1572,35.9603,鹤壁市,南山宾馆,细颗粒物(PM2.5),109,144,168,82,125,19,,6,6,41,51,5,11,1.0,1.5
2024-12-26T0900,2244A,130.2537,47.3416,鹤岗市,哈啤分公司,,28,,34,19,28,51,,54,54,6,12,17,17,0.6,0.7
2024-12-26T0900,2245A,130.2684,47.3086,鹤岗市,斯达机电,,26,24,41,18,34,54,,56,55,4,17,15,18,0.5,0.5
2024-12-26T0900,2246A,130.3114,47.3388,鹤岗市,东山纸板厂,,36,,22,25,30,50,,54,53,9,18,16,18,0.8,1
2024-12-26T0900,2247A,130.1097,47.3382,鹤岗市,五号水库,,22,16,37,8,22,69,,68,67,5,14,6,9,0.1,0.1
2024-12-26T0900,2263A,127.4833,50.2524,黑河市,交通局,,25,25,22,17,16,56,,64,63,14,6,6,6,0.5,0.4
2024-12-26T0900,2264A,127.5144,50.2341,黑河市,环保局,,22,15,20,15,16,58,,64,63,10,6,4,6,0.2,0.3
2024-12-26T0900,2265A,127.5291,50.2472,黑河市,大黑河岛,,,,,,,,,,,,,,,,
2024-12-26T0900,1074A,115.6838,37.7541,衡水市,电机北厂,颗粒物(PM10),52,53,155,12,92,40,,27,27,24,54,3,9,0.3,1.1
2024-12-26T0900,1075A,115.6303,37.7316,衡水市,市监测站,,27,27,126,3,79,44,,41,41,26,58,7,16,0.4,1.1
2024-12-26T0900,3188A,115.6683,37.7217,衡水市,市城管局,,41,41,148,3,85,40,,37,37,22,56,5,13,0.4,1.1
2024-12-26T0900,3459A,115.5989,37.5491,衡水市,地表水厂,,35,35,130,12,92,21,,26,26,39,61,5,15,0.4,1.3
2024-12-26T0900,2456A,112.5003,26.9167,衡阳市,原169医院,细颗粒物(PM2.5),115,96,99,87,91,40,,51,49,35,44,21,36,0.4,0.5
2024-12-26T0900,2457A,112.6194,26.9258,衡阳市,衡阳化工总厂,细颗粒物(PM2.5),139,,120,106,105,48,,67,64,22,31,20,13,0.8,0.9
2024-12-26T0900,2458A,112.6211,26.8956,衡阳市,珠晖区环保局,细颗粒物(PM2.5),125,95,109,95,100,44,,58,56,36,40,12,13,0.9,1.1
2024-12-26T0900,2459A,112.6197,26.8733,衡阳市,市委党校,细颗粒物(PM2.5),124,100,113,94,107,53,,71,68,26,30,12,11,0.8,1
2024-12-26T0900,2460A,112.6006,26.8919,衡阳市,市监测站,细颗粒物(PM2.5),143,120,135,109,114,51,,64,63,23,31,17,12,0.8,1
2024-12-26T0900,2461A,112.5664,26.9056,衡阳市,真空机电公司,细颗粒物(PM2.5),125,131,139,95,98,46,,57,57,28,41,11,8,0.8,1
2024-12-26T0900,3399A,112.6703,26.882,衡阳市,师范学院,细颗粒物(PM2.5),152,120,131,116,115,51,,68,65,24,27,14,13,0.9,1
2024-12-26T0900,2608A,103.3772,23.3993,红河哈尼族彝族自治州,污水处理厂,细颗粒物(PM2.5),84,73,67,62,60,60,,67,65,14,12,9,10,0.8,0.8
2024-12-26T0900,2609A,103.3861,23.35,红河哈尼族彝族自治州,监测站,细颗粒物(PM2.5),93,84,66,69,64,76,,83,81,13,11,5,7,0.8,0.7
2024-12-26T0900,3038A,103.3758,23.368,红河哈尼族彝族自治州,州图书馆,细颗粒物(PM2.5),80,61,62,59,54,67,,70,70,12,9,7,7,0.7,0.7
2024-12-26T0900,1090A,111.6507,40.7517,呼和浩特市,呼市一监,细颗粒物(PM2.5),59,58,37,42,14,19,,36,30,32,15,6,14,0.6,0.3
2024-12-26T0900,1091A,111.6572,40.8033,呼和浩特市,小召,颗粒物(PM10),63,75,35,33,12,19,,46,39,42,18,82,14,0.8,0.4
2024-12-26T0900,1094A,111.7516,40.8369,呼和浩特市,如意水处理厂,,29,29,20,12,6,26,,52,48,39,19,8,8,0.4,0.1
2024-12-26T0900,1095A,111.7276,40.8062,呼和浩特市,二十九中,,42,42,32,26,10,10,,43,37,45,14,10,9,0.8,0.3
2024-12-26T0900,1096A,111.5512,40.7866,呼和浩特市,工大金川校区,颗粒物(PM10),59,67,38,32,12,12,,29,24,42,21,18,10,1.0,0.4
2024-12-26T0900,1097A,111.717,40.7612,呼和浩特市,化肥厂生活区,,39,39,33,16,11,15,,33,28,38,14,10,10,1.0,0.4
2024-12-26T0900,3698A,111.5968,40.8178,呼和浩特市,红旗小学,颗粒物(PM10),76,102,34,33,13,6,,33,26,50,19,17,7,0.9,0.3
2024-12-26T0900,3699A,111.6518,40.8389,呼和浩特市,海东办,颗粒物(PM10),64,78,33,30,10,16,,40,34,41,19,68,16,1.0,0.6
2024-12-26T0900,2192A,119.7594,49.2261,呼伦贝尔市,区环保局,,30,,28,21,18,55,,67,65,17,11,7,6,0.5,0.3
2024-12-26T0900,3061A,119.7512,49.1577,呼伦贝尔市,国华电力东,,33,33,29,17,18,52,,67,64,16,7,6,4,0.4,0.3
2024-12-26T0900,1250A,120.0751,30.8669,湖州市,城西水厂,细颗粒物(PM2.5),138,134,122,105,91,37,,13,13,55,56,13,10,1.0,0.9
2024-12-26T0900,2873A,120.0875,30.8955,湖州市,仁皇山新区,细颗粒物(PM2.5),134,119,117,102,90,61,,24,24,42,54,11,10,0.8,0.8
2024-12-26T0900,2907A,120.1844,30.8596,湖州市,吴兴区站,细颗粒物(PM2.5),133,129,124,101,88,42,,15,15,59,68,12,11,1.0,1
2024-12-26T0900,3562A,120.4148,30.8538,湖州市,南浔区站,细颗粒物(PM2.5),200,220,209,150,146,19,,6,6,67,77,14,13,1.3,1.3
2024-12-26T0900,1607A,120.9092,40.7136,葫芦岛市,龙港区,,38,35,51,26,22,62,,62,61,22,21,14,15,0.6,0.6
2024-12-26T0900,1608A,120.8392,40.7514,葫芦岛市,化工街,,25,24,73,17,16,44,,58,56,31,22,35,35,0.8,0.8
2024-12-26T0900,1609A,120.8341,40.7073,葫芦岛市,新区,,26,,54,18,15,42,,56,53,35,21,16,17,0.6,0.7
2024-12-26T0900,1610A,120.8695,40.7677,葫芦岛市,东城区,,20,,53,8,18,62,,60,59,8,17,3,6,0.3,0.3
2024-12-26T0900,2482A,109.5981,27.5721,怀化市,林科所,细颗粒物(PM2.5),74,55,46,54,38,77,,80,80,15,12,37,11,1.0,0.8
2024-12-26T0900,2483A,109.9453,27.5444,怀化市,河西地税局,细颗粒物(PM2.5),85,97,69,63,48,62,,73,73,25,15,34,11,0.6,0.5
2024-12-26T0900,2484A,109.9781,27.5342,怀化市,市四医院,细颗粒物(PM2.5),105,99,83,79,59,63,,70,70,26,18,13,9,0.7,0.7
2024-12-26T0900,2485A,109.9972,27.5578,怀化市,监测楼,细颗粒物(PM2.5),80,76,77,59,54,70,,69,69,20,17,16,10,0.5,0.6
2024-12-26T0900,2486A,110.0394,27.583,怀化市,市委党校,细颗粒物(PM2.5),89,87,75,66,57,66,,70,70,18,16,14,10,0.5,0.5
2024-12-26T0900,1210A,119.036,33.5981,淮安市,钵池山,细颗粒物(PM2.5),143,156,130,109,105,18,,43,36,58,44,8,8,0.9,0.8
2024-12-26T0900,1211A,119.007,33.575,淮安市,北京南路,细颗粒物(PM2.5),97,141,132,72,99,27,,34,34,46,60,11,11,0.7,0.7
2024-12-26T0900,1212A,118.989,33.6067,淮安市,市监测站,细颗粒物(PM2.5),119,134,140,90,118,26,,34,33,51,59,9,10,0.8,0.8
2024-12-26T0900,1213A,119.135,33.5039,淮安市,楚州区监测站,颗粒物(PM10),97,144,150,64,113,30,,32,32,41,58,8,9,0.8,0.9
2024-12-26T0900,1214A,119.0186,33.6297,淮安市,淮阴区监测站,细颗粒物(PM2.5),119,156,155,90,110,28,,29,29,48,62,11,10,1.0,0.9
2024-12-26T0900,3426A,118.8755,33.2894,淮安市,新华书店,细颗粒物(PM2.5),122,167,138,92,108,27,,52,46,55,46,12,10,1.0,1
2024-12-26T0900,2282A,116.8004,33.975,淮北市,监测站,细颗粒物(PM2.5),150,224,164,115,122,24,,32,32,53,48,12,8,1.1,0.9
2024-12-26T0900,2283A,116.8091,33.9007,淮北市,烈山区政府,细颗粒物(PM2.5),143,178,176,109,130,37,,25,25,47,55,11,6,1.0,0.9
2024-12-26T0900,3330A,116.8873,33.9836,淮北市,杜集区检察院,细颗粒物(PM2.5),125,148,163,95,127,33,,30,27,43,38,10,6,0.3,0.5
2024-12-26T0900,4017A,116.7923,33.9535,淮北市,市博物馆,细颗粒物(PM2.5),137,183,182,104,135,32,,33,33,51,63,14,9,1.1,1.4
2024-12-26T0900,2277A,116.8305,32.7727,淮南市,潘集区政府,细颗粒物(PM2.5),226,206,154,176,124,22,,,,59,42,13,16,1.1,0.9
2024-12-26T0900,2278A,117.0067,32.6524,淮南市,师范学院,细颗粒物(PM2.5),209,216,164,159,118,12,,24,21,66,55,7,9,1.0,1
2024-12-26T0900,2279A,116.8569,32.5951,淮南市,谢家集区政府,细颗粒物(PM2.5),192,192,138,144,98,38,,56,51,34,32,15,10,1.0,0.9
2024-12-26T0900,2280A,116.8281,32.633,淮南市,八公山区政府,细颗粒物(PM2.5),198,192,132,148,101,37,,65,62,48,27,8,7,1.0,0.8
2024-12-26T0900,2281A,116.6325,32.6201,淮南市,焦岗湖风景区管理处,细颗粒物(PM2.5),158,161,129,120,94,7,,7,7,90,57,5,4,0.8,0.6
2024-12-26T0900,2894A,117.0566,32.6531,淮南市,经济技术开发区消防队,细颗粒物(PM2.5),219,226,158,169,120,15,,33,30,64,52,9,11,1.0,0.9
2024-12-26T0900,3329A,117.0108,32.5893,淮南市,山南新区,细颗粒物(PM2.5),208,198,148,158,120,59,,56,55,47,42,15,12,1.1,0.8
2024-12-26T0900,2446A,114.9028,30.4742,黄冈市,职工中心,细颗粒物(PM2.5),125,143,138,95,93,4,,3,3,95,99,11,12,0.8,0.8
2024-12-26T0900,2929A,114.8858,30.4519,黄冈市,红卫路,细颗粒物(PM2.5),129,136,126,98,92,5,,3,3,70,74,12,10,1.6,1.4
2024-12-26T0900,3398A,114.9136,30.4445,黄冈市,市林业局,细颗粒物(PM2.5),128,126,126,97,95,2,,0,0,79,84,14,13,1.2,1.2
2024-12-26T0900,2672A,102.0199,35.5102,黄南藏族自治州,同仁县隆务镇,,31,31,62,16,48,47,,55,54,7,13,7,8,0.5,0.8
2024-12-26T0900,2295A,118.2903,29.6963,黄山市,延安路89号,细颗粒物(PM2.5),69,59,63,50,45,17,,16,16,17,22,8,8,0.5,0.4
2024-12-26T0900,2296A,118.327,29.7178,黄山市,黄山东路89号,颗粒物(PM10),67,84,78,44,48,8,,23,20,27,22,6,6,0.6,0.5
2024-12-26T0900,2297A,118.1371,30.2756,黄山市,黄山区政府5号楼,细颗粒物(PM2.5),82,89,92,60,67,15,,21,20,22,20,7,8,1.0,0.8
2024-12-26T0900,2423A,115.0601,30.2313,黄石市,沈家营,细颗粒物(PM2.5),133,139,132,101,95,5,,4,4,75,70,39,13,1.4,1.2
2024-12-26T0900,2424A,115.0817,30.2006,黄石市,陈家湾,细颗粒物(PM2.5),134,124,120,102,99,12,,14,12,77,69,14,16,1.6,1.4
2024-12-26T0900,2426A,114.8988,30.2019,黄石市,铁山,细颗粒物(PM2.5),145,135,124,111,109,6,,5,5,60,68,17,27,2.0,2
2024-12-26T0900,2427A,115.0307,30.2092,黄石市,团城山,细颗粒物(PM2.5),139,144,122,106,92,6,,6,5,78,67,48,19,1.4,1.1
2024-12-26T0900,3149A,115.0235,30.1578,黄石市,笔架山北路,细颗粒物(PM2.5),139,122,122,106,102,4,,2,2,87,75,18,20,1.3,1.5
2024-12-26T0900,1392A,114.4183,23.0528,惠州市,河南岸金山湖子站,细颗粒物(PM2.5),59,48,50,42,37,61,,54,54,16,16,10,8,0.8,0.7
2024-12-26T0900,1393A,114.4053,23.0822,惠州市,下埔横江三路子站,细颗粒物(PM2.5),60,55,52,43,37,61,,60,60,20,18,9,7,0.6,0.6
2024-12-26T0900,1394A,114.4103,23.1142,惠州市,江北云山西路子站,细颗粒物(PM2.5),57,50,50,40,36,64,,64,64,20,19,10,8,0.7,0.6
2024-12-26T0900,1395A,114.4645,22.7833,惠州市,惠阳区承修路船湖子站,,42,42,57,27,36,42,,39,39,16,15,8,8,0.6,0.5
2024-12-26T0900,1396A,114.5317,22.7422,惠州市,大亚湾管委会子站,,42,35,48,29,36,38,,42,41,23,20,5,6,0.9,0.8
2024-12-26T0900,3314A,114.4338,22.8134,惠州市,惠阳秋长,,46,46,44,30,34,51,,47,47,14,16,7,7,0.7,0.7
2024-12-26T0900,3452A,114.6517,22.775,惠州市,大亚湾霞涌,,32,27,36,22,31,45,,47,46,11,13,6,6,0.0,0.1
2024-12-26T0900,2240A,130.9762,45.3001,鸡西市,环保局,,30,29,54,21,34,63,,61,61,2,14,8,8,0.3,0.5
2024-12-26T0900,2243A,130.9429,45.3039,鸡西市,第一中学,,19,18,44,3,26,59,,58,58,3,8,8,7,0.1,0.3
2024-12-26T0900,3707A,131.0207,45.3073,鸡西市,欧美日汽修厂,,39,39,62,3,45,57,,57,57,11,22,12,30,0,0.6
2024-12-26T0900,3709A,130.9967,45.3106,鸡西市,市政设施管理处,,45,45,54,3,33,53,,55,54,12,17,8,9,0.3,0.6
2024-12-26T0900,2367A,114.9754,27.0803,吉安市,红声器材厂,细颗粒物(PM2.5),80,81,98,59,69,38,,54,50,47,40,16,18,0.8,0.8
2024-12-26T0900,2368A,114.9658,27.0999,吉安市,市森林工业局,细颗粒物(PM2.5),79,82,95,58,68,47,,58,56,40,37,18,20,0.7,0.8
2024-12-26T0900,2369A,114.99,27.1312,吉安市,市环境监测站,细颗粒物(PM2.5),70,77,86,51,60,48,,58,55,42,42,15,19,0.5,0.7
2024-12-26T0900,2370A,115.0093,27.0968,吉安市,青原区法院,细颗粒物(PM2.5),83,84,98,61,68,46,,61,58,45,40,16,17,0.9,0.9
2024-12-26T0900,1772A,126.54,43.8622,吉林市,哈达湾,,43,43,51,23,26,43,,53,51,18,18,8,8,0.6,0.6
2024-12-26T0900,1773A,126.5844,43.8358,吉林市,东局子,,47,47,52,26,28,48,,55,54,20,17,6,7,0.7,0.7
2024-12-26T0900,1774A,126.5052,43.8245,吉林市,电力学院,,43,43,50,23,29,46,,52,50,16,16,8,8,0.6,0.6
2024-12-26T0900,1775A,126.6133,43.8972,吉林市,江北,,45,45,55,22,27,47,,54,52,23,21,11,11,0.7,0.6
2024-12-26T0900,1776A,126.555,43.8306,吉林市,江南公园,,41,41,50,23,27,46,,55,54,20,17,10,10,0.6,0.6
2024-12-26T0900,1778A,126.7061,43.7133,吉林市,丰满,,30,30,44,18,27,56,,55,54,9,12,10,10,0.5,0.6
2024-12-26T0900,2868A,126.4739,43.953,吉林市,九站,,37,37,50,20,29,45,,49,48,13,20,4,6,0.5,0.6
2024-12-26T0900,1299A,116.9862,36.6114,济南市,科干所,,48,48,128,12,79,51,,42,42,30,53,6,11,0.6,0.9
2024-12-26T0900,1300A,116.9376,36.665,济南市,农科所,颗粒物(PM10),66,81,162,12,74,41,,36,36,38,70,9,15,0.6,1.2
2024-12-26T0900,1301A,117.1265,36.6734,济南市,开发区,颗粒物(PM10),58,66,132,17,84,38,,31,31,42,61,8,12,0.7,1.1
2024-12-26T0900,1303A,117.0624,36.6868,济南市,省种子仓库,颗粒物(PM10),56,61,155,9,86,47,,31,31,28,63,8,15,0.6,1
2024-12-26T0900,1304A,116.9489,36.6447,济南市,机床二厂,颗粒物(PM10),56,61,167,37,97,54,,40,40,23,57,9,27,0.9,1.4
2024-12-26T0900,1305A,117.0495,36.663,济南市,市监测站,,49,49,140,10,80,53,,42,42,26,54,6,12,0.6,0.9
2024-12-26T0900,1306A,116.7675,36.5484,济南市,长清党校,颗粒物(PM10),57,63,150,12,96,48,,35,35,35,59,9,14,0.8,1.1
2024-12-26T0900,1616A,117.6795,36.229,济南市,技术学院,颗粒物(PM10),52,53,152,17,109,43,,34,34,33,64,10,19,0.6,1.3
2024-12-26T0900,1961A,117.532,36.6868,济南市,东山小学,颗粒物(PM10),66,81,135,24,79,38,,37,37,33,53,13,12,0.8,1
2024-12-26T0900,3059A,117.7161,36.2049,济南市,泰兴公司,颗粒物(PM10),51,51,172,14,116,49,,34,34,21,66,10,18,0.4,1.2
2024-12-26T0900,3064A,117.6867,36.2171,济南市,莱芜战役纪念馆,,48,48,171,12,111,50,,38,38,23,63,8,17,0.5,1.3
2024-12-26T0900,3494A,117.1673,36.9782,济南市,济阳区政府,颗粒物(PM10),62,73,143,17,85,21,,23,23,47,58,8,16,1.2,1.4
2024-12-26T0900,3495A,117.1171,36.63,济南市,锦屏中学,颗粒物(PM10),51,51,112,12,73,51,,38,38,30,47,8,10,0.4,0.8
2024-12-26T0900,3682A,116.9814,36.6819,济南市,济南四建,颗粒物(PM10),58,66,138,12,84,44,,31,31,27,63,8,15,0.7,1.1
2024-12-26T0900,1653A,116.6251,35.4302,济宁市,火炬城,细颗粒物(PM2.5),147,155,157,112,127,17,,11,11,58,65,11,12,1.4,1.2
2024-12-26T0900,1655A,116.5491,35.4042,济宁市,电化厂,,,,184,,124,,,45,,,70,,18,,1.3
2024-12-26T0900,3500A,116.5814,35.3707,济宁市,北湖一中,细颗粒物(PM2.5),147,164,151,112,122,18,,19,18,64,59,11,11,1.3,1.1
2024-12-26T0900,3501A,116.8249,35.5593,济宁市,服务中心,细颗粒物(PM2.5),113,164,203,85,132,20,,12,12,59,78,18,21,1.7,1.6
2024-12-26T0900,3678A,116.5907,35.4054,济宁市,市第七中学,细颗粒物(PM2.5),138,164,152,105,127,20,,18,17,57,57,11,9,1.6,1.3
2024-12-26T0900,2255A,130.2751,46.8028,佳木斯市,佳纺,,20,16,63,14,52,54,,57,57,7,24,14,12,0.5,0.7
2024-12-26T0900,2256A,130.3995,46.8307,佳木斯市,发电厂,,18,13,37,6,40,57,,57,57,3,13,9,8,0.4,0.6
2024-12-26T0900,2257A,130.3258,46.7975,佳木斯市,环保局,,18,18,60,8,45,49,,51,51,13,28,16,14,0.7,1
2024-12-26T0900,2258A,130.3648,46.8032,佳木斯市,十一中,,15,11,47,6,40,48,,52,52,16,24,14,10,0.6,0.8
2024-12-26T0900,2259A,130.3794,46.7588,佳木斯市,四丰,,22,22,52,3,34,55,,56,56,6,21,1,1,0.3,0.6
2024-12-26T0900,1252A,120.7436,30.778,嘉兴市,清河小学,细颗粒物(PM2.5),152,137,111,116,84,15,,4,4,67,61,10,8,1.4,0.9
2024-12-26T0900,1253A,120.726,30.7478,嘉兴市,嘉兴学院,细颗粒物(PM2.5),158,162,126,120,81,13,,4,4,65,58,11,9,1.4,0.9
2024-12-26T0900,2872A,120.7846,30.7525,嘉兴市,南湖区残联,细颗粒物(PM2.5),162,165,120,123,94,22,,10,10,62,59,13,10,1.4,0.9
2024-12-26T0900,3407A,120.6916,30.7739,嘉兴市,秀洲住建,细颗粒物(PM2.5),160,170,125,122,89,14,,5,5,63,57,11,8,1.2,0.7
2024-12-26T0900,1945A,98.2908,39.7711,嘉峪关市,气象局,,24,24,47,12,25,46,,57,56,24,17,7,11,0.7,0.5
2024-12-26T0900,2884A,98.2672,39.7978,嘉峪关市,酒钢宾馆,颗粒物(PM10),56,61,59,22,27,38,,,,37,22,39,22,0.9,0.7
2024-12-26T0900,3248A,98.2643,39.7724,嘉峪关市,雄关区,细颗粒物(PM2.5),54,52,48,38,26,32,,43,42,38,24,9,11,0.7,0.5
2024-12-26T0900,1383A,113.1064,22.6058,江门市,北街,细颗粒物(PM2.5),59,61,68,42,45,43,,24,24,41,54,9,6,0.8,0.7
2024-12-26T0900,1384A,113.0731,22.5835,江门市,西区,颗粒物(PM10),69,88,80,46,51,36,,22,22,43,49,13,10,0.9,0.7
2024-12-26T0900,1385A,113.0219,22.5311,江门市,圭峰西,细颗粒物(PM2.5),59,,62,42,45,47,,36,36,34,48,6,3,0.6,0.5
2024-12-26T0900,1386A,113.0828,22.5947,江门市,东湖,,,68,73,37,34,,,20,20,36,45,10,8,0.7,0.6
2024-12-26T0900,3311A,113.1075,22.5647,江门市,江海富民,颗粒物(PM10),69,88,79,44,43,40,,22,22,45,56,13,10,0.8,0.6
2024-12-26T0900,3449A,113.05,22.4667,江门市,新会银湖,细颗粒物(PM2.5),72,63,66,52,51,39,,20,20,38,51,11,7,0.9,0.8
2024-12-26T0900,1828A,113.227,35.2125,焦作市,市环保局,细颗粒物(PM2.5),178,182,121,134,77,12,,23,18,60,42,13,13,1.7,1.2
2024-12-26T0900,1830A,113.1992,35.2590,焦作市,影视城,细颗粒物(PM2.5),110,147,81,83,58,19,,40,34,56,33,20,15,2.0,1.4
2024-12-26T0900,3169A,113.2725,35.2067,焦作市,太极体育中心,细颗粒物(PM2.5),168,167,119,127,69,13,,14,10,61,46,16,16,1.7,1.2
2024-12-26T0900,3335A,113.3137,35.2641,焦作市,马村街道办,细颗粒物(PM2.5),144,171,150,110,113,8,,24,18,55,50,30,20,1.7,1.6
2024-12-26T0900,3336A,113.2465,35.2373,焦作市,焦作技师学院,细颗粒物(PM2.5),168,186,136,127,84,8,,20,15,66,56,21,16,2.1,1.5
2024-12-26T0900,3477A,113.1656,35.2539,焦作市,中站许衡医院,细颗粒物(PM2.5),142,158,93,108,61,12,,31,26,60,38,21,16,1.6,1
2024-12-26T0900,3981A,113.2449,35.1803,焦作市,原李万街道办,细颗粒物(PM2.5),156,170,118,119,72,8,,21,16,63,44,12,13,1.7,1.3
2024-12-26T0900,1708A,116.3701,23.5345,揭阳市,新兴,细颗粒物(PM2.5),52,44,49,36,43,11,,8,8,30,29,11,6,0.9,0.8
2024-12-26T0900,1709A,116.3264,23.5443,揭阳市,西马,细颗粒物(PM2.5),64,65,52,46,42,12,,10,10,31,29,11,7,0.8,0.7
2024-12-26T0900,1710A,116.3611,23.5626,揭阳市,东兴,细颗粒物(PM2.5),95,,59,71,44,12,,7,7,30,31,9,8,1.2,0.9
2024-12-26T0900,1711A,116.4151,23.5294,揭阳市,渔湖,,30,29,52,21,30,13,,5,5,28,34,13,11,0.7,0.7
2024-12-26T0900,3320A,116.403,23.5699,揭阳市,曲溪,,32,29,55,22,37,18,,8,8,31,39,14,4,0.8,0.8
2024-12-26T0900,1944A,102.1692,38.5167,金昌市,天庆家园,,,51,40,29,25,39,,43,42,26,15,,23,0.9,0.8
2024-12-26T0900,3170A,102.1864,38.5253,金昌市,市委党校,,,,41,,18,,,59,,,14,,19,,0.6
2024-12-26T0900,4022A,102.1647,38.5371,金昌市,金川区人防中心,颗粒物(PM10),52,53,52,25,27,46,,48,48,22,14,10,15,0.8,0.7
2024-12-26T0900,1262A,119.647,29.077,金华市,十五中,细颗粒物(PM2.5),142,147,131,108,89,9,,10,10,68,74,6,5,1.2,0.9
2024-12-26T0900,1263A,119.686,29.1029,金华市,监测站,细颗粒物(PM2.5),144,156,130,110,85,4,,2,2,62,69,6,6,1.0,0.8
2024-12-26T0900,3659A,119.656,29.1131,金华市,气象局,细颗粒物(PM2.5),144,158,139,110,99,2,,1,1,61,69,5,5,1.0,0.9
2024-12-26T0900,1767A,121.1115,41.0879,锦州市,南山,,,,57,30,27,43,,65,61,,19,16,15,,0.7
2024-12-26T0900,1768A,121.0533,40.8434,锦州市,开发区,,48,48,98,19,33,29,,33,30,39,36,12,18,0.6,0.8
2024-12-26T0900,1769A,121.1836,41.1119,锦州市,百股街道,细颗粒物(PM2.5),89,,58,66,27,20,,63,57,53,18,20,14,1.4,0.7
2024-12-26T0900,1770A,121.1178,41.1222,锦州市,天安街道,,29,29,60,19,22,48,,64,61,30,16,22,17,0.8,0.6
2024-12-26T0900,1771A,121.1303,41.1386,锦州市,北湖公园,,29,21,45,20,18,45,,60,58,27,13,15,14,0.7,0.5
2024-12-26T0900,2160A,112.85,35.5051,晋城市,自来水公司,颗粒物(PM10),81,111,76,51,52,8,,15,15,54,46,17,16,2.5,1.4
2024-12-26T0900,2161A,112.8318,35.4936,晋城市,白云商贸,细颗粒物(PM2.5),67,79,80,48,44,12,,30,25,51,38,14,13,1.7,1.1
2024-12-26T0900,2162A,112.8508,35.4887,晋城市,市环保局,颗粒物(PM10),79,108,86,56,59,9,,7,7,52,47,21,17,2.0,1.3
2024-12-26T0900,2163A,112.8676,35.4897,晋城市,技术学院,细颗粒物(PM2.5),83,77,86,61,54,7,,7,7,52,49,23,18,2.2,1.3
2024-12-26T0900,2165A,112.8453,35.546,晋城市,白马寺,细颗粒物(PM2.5),70,78,75,51,49,23,,35,33,39,25,48,21,3.9,1.4
2024-12-26T0900,3620A,112.8271,35.4828,晋城市,泽州一中,颗粒物(PM10),73,95,70,51,49,17,,31,27,49,34,21,12,2.0,1.4
2024-12-26T0900,2171A,112.7532,37.6945,晋中市,锦纶小区,颗粒物(PM10),56,61,95,14,35,14,,14,14,37,42,6,19,0.4,0.5
2024-12-26T0900,2173A,112.7249,37.7067,晋中市,南都小区,颗粒物(PM10),54,58,90,22,42,17,,12,10,37,44,5,18,0.8,0.9
2024-12-26T0900,2174A,112.6991,37.6982,晋中市,榆次区政府,颗粒物(PM10),69,88,98,20,37,9,,13,9,40,44,4,16,0.9,0.7
2024-12-26T0900,2865A,112.7195,37.6828,晋中市,榆次三中,颗粒物(PM10),65,80,100,17,35,8,,6,6,35,42,8,19,0.8,0.9
2024-12-26T0900,2439A,112.2014,31.0481,荆门市,竹园小学,细颗粒物(PM2.5),95,107,163,71,114,24,,17,17,29,64,21,15,0.6,1.1
2024-12-26T0900,2440A,112.1969,30.9891,荆门市,掇刀,细颗粒物(PM2.5),92,96,137,68,96,34,,40,39,32,57,19,11,0.8,0.9
2024-12-26T0900,2441A,112.2213,31.0386,荆门市,石化一小,细颗粒物(PM2.5),103,106,179,77,122,31,,16,16,24,63,23,12,0.7,1
2024-12-26T0900,3012A,112.1849,31.0362,荆门市,西山林语,细颗粒物(PM2.5),75,78,118,55,93,45,,31,31,18,52,17,9,0.4,0.7
2024-12-26T0900,3547A,112.1632,31.0138,荆门市,龙泉中学南校,细颗粒物(PM2.5),95,74,116,71,87,45,,36,36,23,44,19,12,0.5,0.8
2024-12-26T0900,1844A,112.2494,30.3197,荆州市,市图书馆,细颗粒物(PM2.5),166,127,124,126,126,9,,18,17,56,64,7,6,1.0,0.8
2024-12-26T0900,1845A,112.2008,30.3544,荆州市,市委党校,细颗粒物(PM2.5),205,166,147,155,137,6,,12,12,56,61,7,5,0.9,0.8
2024-12-26T0900,3194A,112.2747,30.3122,荆州市,管委会,细颗粒物(PM2.5),185,146,146,139,137,9,,12,12,54,66,6,6,1.0,0.9
2024-12-26T0900,3548A,112.1655,30.3364,荆州市,学苑路,细颗粒物(PM2.5),182,179,167,137,134,16,,23,23,50,54,12,10,1.2,1.1
2024-12-26T0900,2342A,117.3102,29.3867,景德镇市,王港中学,,,,,,,,,,,,,,,,
2024-12-26T0900,2343A,117.2117,29.2933,景德镇市,老干部活动中心,细颗粒物(PM2.5),68,67,68,49,58,30,,22,22,32,27,6,8,0.6,0.6
2024-12-26T0900,2344A,117.1894,29.2789,景德镇市,兽医站,"颗粒物(PM10),细颗粒物(PM2.5)",60,70,74,43,45,42,,31,31,17,25,4,10,0.7,0.7
2024-12-26T0900,2345A,117.1547,29.2617,景德镇市,台达陶瓷,颗粒物(PM10),55,59,81,37,51,37,,24,24,28,48,4,75,0.3,0.3
2024-12-26T0900,2346A,117.2461,29.2956,景德镇市,陶研所,细颗粒物(PM2.5),62,62,66,44,44,7,,6,6,31,35,3,4,0.6,0.6
2024-12-26T0900,1803A,115.9872,29.6815,九江市,十里,细颗粒物(PM2.5),124,128,116,94,86,13,,8,8,56,53,10,12,1.1,1.1
2024-12-26T0900,1804A,115.9584,29.7046,九江市,茅山头,细颗粒物(PM2.5),105,119,111,79,78,12,,12,12,73,61,9,12,1.4,1.2
2024-12-26T0900,1805A,115.9877,29.7295,九江市,西园,细颗粒物(PM2.5),128,124,118,97,92,10,,13,13,93,76,12,13,0.9,0.9
2024-12-26T0900,1806A,116.0172,29.6547,九江市,五七二七厂,细颗粒物(PM2.5),108,126,127,81,86,55,,27,27,39,51,8,11,0.8,1
2024-12-26T0900,1808A,115.9114,29.6038,九江市,综合工业园,细颗粒物(PM2.5),147,128,123,112,105,14,,12,11,74,63,15,15,1.0,1.1
2024-12-26T0900,1809A,116.0721,29.7535,九江市,石化总厂,细颗粒物(PM2.5),128,132,130,97,98,24,,26,26,67,56,9,10,1.0,1.1
2024-12-26T0900,1810A,115.9773,29.5698,九江市,庐山气象台,细颗粒物(PM2.5),90,68,28,67,27,102,,96,96,14,8,6,8,1.2,0.8
2024-12-26T0900,3190A,116.0254,29.6994,九江市,外国语学校,细颗粒物(PM2.5),128,136,131,97,92,11,,17,16,59,48,8,13,1.2,1
2024-12-26T0900,2658A,98.5061,39.7443,酒泉市,仓门街子站,,25,22,35,17,22,54,,64,62,11,6,4,10,0.5,0.4
2024-12-26T0900,2659A,98.4989,39.7256,酒泉市,油田生活基地,,31,31,43,17,21,52,,62,61,12,9,4,9,0.4,0.4
2024-12-26T0900,2698A,76.0072,39.4467,喀什地区,巡警大队,颗粒物(PM10),73,95,123,52,61,45,,41,41,22,43,3,2,0.7,1.3
2024-12-26T0900,2699A,75.9755,39.4694,喀什地区,吾办,细颗粒物(PM2.5),78,90,116,57,73,42,,41,41,27,50,1,2,0.9,1.5
2024-12-26T0900,4027A,75.9483,39.4689,喀什地区,老干局,颗粒物(PM10),72,94,162,47,77,45,,38,38,22,49,2,3,0.8,2.1
2024-12-26T0900,1824A,114.3389,34.7781,开封市,肿瘤医院,细颗粒物(PM2.5),153,174,168,117,128,20,,6,6,48,63,5,9,1.0,1.3
2024-12-26T0900,1826A,114.2885,34.7965,开封市,世纪星幼儿园,细颗粒物(PM2.5),188,179,148,141,140,18,,8,7,50,60,6,9,1.0,1.1
2024-12-26T0900,3147A,114.3438,34.8106,开封市,龙亭公园,细颗粒物(PM2.5),160,190,153,122,132,21,,11,10,54,65,5,8,0.8,1.1
2024-12-26T0900,3210A,114.3644,34.7964,开封市,汴京公园,细颗粒物(PM2.5),170,182,179,129,136,22,,8,8,50,67,6,9,1.1,1.3
2024-12-26T0900,3473A,114.2485,34.8306,开封市,技师学院,细颗粒物(PM2.5),158,183,149,120,106,15,,7,7,64,66,8,12,1.9,1.7
2024-12-26T0900,3592A,114.4644,34.7556,开封市,祥符区生态环境局,细颗粒物(PM2.5),200,189,193,150,144,17,,9,9,47,65,4,9,1.1,1.2
2024-12-26T0900,1951A,84.895,45.6094,克拉玛依市,长征新村,细颗粒物(PM2.5),54,50,50,38,35,18,,46,42,39,34,4,5,0.6,0.5
2024-12-26T0900,1952A,84.8988,45.5893,克拉玛依市,南林小区,细颗粒物(PM2.5),55,55,46,39,34,22,,42,40,34,31,3,3,1.2,0.8
2024-12-26T0900,1954A,84.905,44.3396,克拉玛依市,独山子区,细颗粒物(PM2.5),140,116,163,107,133,29,,43,43,44,41,4,5,1.1,1.1
2024-12-26T0900,1955A,85.6979,46.098,克拉玛依市,乌尔禾区商贸楼,,43,43,42,26,29,9,,20,16,59,44,3,4,1.0,1
2024-12-26T0900,3612A,85.1045,45.6899,克拉玛依市,白碱滩区新站,细颗粒物(PM2.5),54,43,50,38,30,37,,39,39,24,35,6,7,1.0,1.1
2024-12-26T0900,2697A,76.1454,39.7142,克孜勒苏柯尔克孜自治州,市人民政府,细颗粒物(PM2.5),73,88,98,53,59,64,,72,72,13,19,3,4,1.0,1.1
2024-12-26T0900,3665A,76.1658,39.7157,克孜勒苏柯尔克孜自治州,克州文化中心,细颗粒物(PM2.5),79,86,90,58,57,56,,62,62,16,26,6,7,0.9,1.1
2024-12-26T0900,1450A,102.8204,24.8886,昆明市,呈贡新区,,50,44,29,35,24,29,,21,21,29,24,12,9,0.8,0.6
2024-12-26T0900,1451A,102.6251,24.9608,昆明市,西山森林公园,,,,,,,,,,,,,,,,
2024-12-26T0900,1452A,102.7252,25.0902,昆明市,龙泉镇,颗粒物(PM10),55,59,36,26,22,4,,3,3,33,31,6,7,1.0,0.6
2024-12-26T0900,1453A,102.7266,25.0375,昆明市,东风东路,,48,48,33,29,22,4,,15,11,42,23,9,6,1.1,0.7
2024-12-26T0900,1454A,102.6742,25.0669,昆明市,金鼎山,,45,45,37,31,26,7,,21,18,47,27,10,11,1.2,0.7
2024-12-26T0900,1455A,102.6644,25.0401,昆明市,碧鸡广场,,43,43,34,23,21,8,,21,19,47,29,8,8,0.8,0.5
2024-12-26T0900,3179A,102.7494,25.0119,昆明市,官渡区博物馆,颗粒物(PM10),67,83,37,42,23,3,,13,11,43,22,10,7,1.4,0.6
2024-12-26T0900,3375A,102.8017,24.8336,昆明市,青年创业园,,48,48,31,26,18,4,,8,2,36,20,12,10,0.9,0.6
2024-12-26T0900,3550A,102.7997,24.9786,昆明市,昆明学院,颗粒物(PM10),51,51,35,31,22,12,,23,19,46,21,15,9,0.9,0.6
2024-12-26T0900,3551A,102.5967,24.6736,昆明市,晋宁区生态环境分局,颗粒物(PM10),51,52,37,27,24,26,,30,27,29,16,4,3,1.1,0.9
2024-12-26T0900,3552A,102.6678,24.9856,昆明市,云天化总部,,48,48,28,29,20,8,,21,17,43,19,7,6,0.8,0.4
2024-12-26T0900,1456A,91.1319,29.6514,拉萨市,八廓街,,22,16,34,8,22,69,,67,67,20,31,6,7,0.6,0.6
2024-12-26T0900,1457A,91.1221,29.6747,拉萨市,市环保局,颗粒物(PM10),54,57,42,36,26,39,,56,56,45,29,7,6,1.3,0.9
2024-12-26T0900,1458A,91.0874,29.6475,拉萨市,区监测站,,19,17,27,9,14,58,,79,75,35,21,6,6,0.3,0.4
2024-12-26T0900,1459A,91.1774,29.6541,拉萨市,西藏大学,,23,20,38,9,21,71,,79,77,14,20,6,6,0.6,0.8
2024-12-26T0900,1460A,90.9798,29.6588,拉萨市,区辐射站,,28,27,35,19,22,33,,74,70,51,31,9,8,0.7,0.8
2024-12-26T0900,1461A,91.0834,29.6292,拉萨市,拉萨火车站,,28,17,16,12,9,28,,82,71,56,17,5,5,1.0,0.4
2024-12-26T0900,2520A,109.2203,23.7256,来宾市,来宾技工学校,细颗粒物(PM2.5),95,78,111,71,89,57,,59,58,25,30,11,15,1.1,1.3
2024-12-26T0900,3535A,109.1781,23.7297,来宾市,兴宾区政府,细颗粒物(PM2.5),95,88,120,71,88,66,,67,67,22,28,11,15,0.9,1.1
2024-12-26T0900,4002A,109.2416,23.7461,来宾市,中南小学,细颗粒物(PM2.5),100,95,120,75,93,54,,54,54,21,29,17,22,1.2,1.3
2024-12-26T0900,1476A,103.631,36.1031,兰州市,兰炼宾馆,颗粒物(PM10),70,90,120,48,85,11,,13,13,58,73,33,39,1.3,1.5
2024-12-26T0900,1477A,104.1373,35.9454,兰州市,榆中兰大校区,,,,,,,,,,,,,,,,
2024-12-26T0900,1478A,103.8412,36.0726,兰州市,生物制品所,颗粒物(PM10),69,88,105,46,71,4,,5,4,64,74,11,21,1.1,1.5
2024-12-26T0900,1479A,103.831,36.0464,兰州市,铁路设计院,颗粒物(PM10),84,117,108,59,73,4,,29,24,71,70,20,19,2.4,1.7
2024-12-26T0900,3186A,103.7158,36.1058,兰州市,教育港,颗粒物(PM10),75,99,110,50,71,5,,32,27,63,63,15,33,1.1,1.3
2024-12-26T0900,3241A,103.7439,36.0842,兰州市,百合公园,颗粒物(PM10),68,85,105,48,75,9,,19,19,58,70,12,28,1.4,1.6
2024-12-26T0900,3242A,103.9611,35.998,兰州市,和平,细颗粒物(PM2.5),72,86,112,52,82,23,,44,41,53,50,17,24,1.0,1.4
2024-12-26T0900,3245A,103.6633,36.533,兰州新区,新区管委会,颗粒物(PM10),82,113,70,52,45,10,,50,42,39,27,16,15,1.1,0.6
2024-12-26T0900,3246A,103.6975,36.4789,兰州新区,舟曲中学,颗粒物(PM10),66,81,68,44,43,13,,52,44,48,32,12,18,0.8,0.7
2024-12-26T0900,1067A,116.6708,39.5111,廊坊市,药材公司,,17,17,71,3,25,46,,53,51,23,26,3,4,0.4,0.5
2024-12-26T0900,1068A,116.7214,39.5589,廊坊市,开发区,,21,21,67,3,21,53,,55,55,13,20,6,5,0.2,0.3
2024-12-26T0900,1070A,116.7244,39.5269,廊坊市,北华航天学院,,24,24,74,10,24,55,,59,58,10,17,7,7,0.3,0.4
2024-12-26T0900,2919A,116.7022,39.5453,廊坊市,河北工业大学,,26,26,76,10,24,50,,53,52,19,25,5,5,0.3,0.4
2024-12-26T0900,2535A,103.7723,29.5462,乐山市,花湖湾,细颗粒物(PM2.5),74,,68,54,59,3,,5,5,13,25,4,5,0.7,0.8
2024-12-26T0900,2536A,103.7627,29.5844,乐山市,牛耳桥,细颗粒物(PM2.5),72,62,63,52,52,2,,1,1,19,33,5,5,1.0,1
2024-12-26T0900,2537A,103.7508,29.6006,乐山市,市第三水厂,细颗粒物(PM2.5),69,58,63,50,51,4,,4,4,22,33,4,4,1.3,1.2
2024-12-26T0900,2538A,103.7571,29.5664,乐山市,市监测站,细颗粒物(PM2.5),72,60,58,52,48,3,,2,2,19,30,3,3,1.0,1
2024-12-26T0900,3361A,103.7311,29.5628,乐山市,理工大学,,,62,61,58,52,,,6,6,21,30,6,6,1.1,1.1
2024-12-26T0900,2598A,100.2143,26.8576,丽江市,西南郊,,39,34,28,27,18,91,,105,103,11,6,3,4,0.7,0.6
2024-12-26T0900,2599A,100.2497,26.8802,丽江市,丽江古城,,42,42,29,26,17,75,,85,83,18,11,9,9,0.7,0.6
2024-12-26T0900,2600A,100.2203,26.8906,丽江市,市中心,,25,21,15,17,12,66,,90,86,28,11,6,6,0.7,0.5
2024-12-26T0900,1267A,119.914,28.4514,丽水市,监测站大楼,细颗粒物(PM2.5),117,,60,88,53,45,,19,19,31,41,5,4,0.9,0.8
2024-12-26T0900,1268A,119.93,28.4586,丽水市,莲都小学,细颗粒物(PM2.5),112,113,84,84,53,47,,21,21,33,42,7,6,0.7,0.6
2024-12-26T0900,1269A,119.879,28.4231,丽水市,余庄前,细颗粒物(PM2.5),104,102,58,78,39,,,9,8,35,33,5,5,0.7,0.6
2024-12-26T0900,1173A,119.176,34.5885,连云港市,市环境监测站,颗粒物(PM10),65,80,132,19,93,48,,26,26,30,57,10,16,0.7,1
2024-12-26T0900,3000A,119.3581,34.6972,连云港市,德源药业,颗粒物(PM10),62,73,126,19,81,49,,40,40,26,61,15,12,1.0,0.6
2024-12-26T0900,3007A,119.178,34.844,连云港市,新城一中,颗粒物(PM10),65,79,122,34,97,33,,25,25,44,51,14,16,1.0,1.1
2024-12-26T0900,3008A,119.3608,34.7519,连云港市,胡沟管理处,颗粒物(PM10),52,53,115,12,73,56,,44,44,16,42,15,11,1.1,0.9
2024-12-26T0900,3009A,119.1478,34.5911,连云港市,矿山设计院,颗粒物(PM10),67,83,137,19,95,48,,35,35,26,50,8,14,0.5,0.8
2024-12-26T0900,3434A,119.2413,34.6539,连云港市,工贸学校,,38,38,118,16,89,56,,38,38,21,43,11,16,0.4,0.7
2024-12-26T0900,3664A,119.4172,34.7341,连云港市,连云街道,,49,49,114,19,72,41,,37,37,38,45,13,13,1.2,0.8
2024-12-26T0900,2571A,102.3431,27.8099,凉山彝族自治州,青龙寺,,35,35,30,11,10,38,,45,42,10,9,5,5,0.9,0.8
2024-12-26T0900,2572A,102.2721,27.8415,凉山彝族自治州,邛海宾馆,,22,22,43,14,24,42,,51,51,18,17,12,11,0.8,0.7
2024-12-26T0900,2573A,102.2625,27.898,凉山彝族自治州,西昌市政府,,,,38,,25,34,,41,39,20,17,,13,,0.9
2024-12-26T0900,2574A,102.2685,27.8851,凉山彝族自治州,凉山州政府,,40,40,41,24,24,22,,46,42,32,16,9,12,0.9,0.7
2024-12-26T0900,2575A,102.237,27.8914,凉山彝族自治州,长安,颗粒物(PM10),53,56,44,22,22,36,,49,48,26,19,12,13,0.9,1.1
2024-12-26T0900,2212A,123.2,41.1953,辽阳市,宏伟区,颗粒物(PM10),54,58,88,22,28,28,,47,44,27,16,19,11,0.8,0.5
2024-12-26T0900,2213A,123.1683,41.2495,辽阳市,新华园,颗粒物(PM10),76,101,92,48,37,20,,43,39,54,29,18,13,1.5,0.8
2024-12-26T0900,2214A,123.2354,41.2639,辽阳市,滨河路,颗粒物(PM10),70,90,77,48,34,22,,51,46,48,23,14,8,0.9,0.6
2024-12-26T0900,2215A,123.149,41.2991,辽阳市,铁西工业园,细颗粒物(PM2.5),122,120,108,92,46,23,,44,40,48,26,21,8,1.7,0.7
2024-12-26T0900,2227A,125.1358,42.8845,辽源市,环保局,,24,24,48,3,18,57,,48,48,12,15,6,11,0.4,0.5
2024-12-26T0900,3239A,125.0764,42.9078,辽源市,银鹰制药,,37,37,55,12,22,53,,44,44,13,16,6,8,0.4,0.5
2024-12-26T0900,1625A,115.9848,36.4372,聊城市,区政府,颗粒物(PM10),56,61,156,17,103,40,,44,44,32,54,11,15,0.6,1.1
2024-12-26T0900,2878A,116.0072,36.4343,聊城市,聊大东校,颗粒物(PM10),62,73,174,20,113,42,,47,47,30,54,10,13,0.6,1.1
2024-12-26T0900,3200A,115.9819,36.4978,聊城市,监控中心,颗粒物(PM10),59,68,146,17,92,31,,40,40,36,54,9,12,0.6,1
2024-12-26T0900,3513A,116.0445,36.4361,聊城市,九州社区,颗粒物(PM10),59,68,144,17,104,40,,46,46,26,42,10,14,0.3,0.9
2024-12-26T0900,4018A,116.0567,36.4608,聊城市,星美广场,颗粒物(PM10),72,93,172,19,108,28,,44,44,34,48,13,13,0.7,1.1
2024-12-26T0900,2632A,94.3681,29.6376,林芝市,林芝监测站,,17,15,14,9,7,54,,67,63,9,4,7,6,0.2,0.2
2024-12-26T0900,2633A,94.3616,29.6616,林芝市,林芝人民医院,,16,15,13,9,6,50,,62,59,8,3,5,6,0.3,0.3
2024-12-26T0900,2603A,100.0781,23.8982,临沧市,市环保局,,,25,30,,13,10,,18,17,18,15,5,6,0.7,0.6
2024-12-26T0900,2604A,100.0894,23.8822,临沧市,市气象局,,42,42,33,27,27,7,,20,18,24,14,8,7,0.6,0.5
2024-12-26T0900,1733A,111.5531,36.0783,临汾市,临钢医院,颗粒物(PM10),75,100,196,53,119,5,,2,2,35,59,4,12,1.0,2
2024-12-26T0900,1734A,111.5028,36.0714,临汾市,技工学校,细颗粒物(PM2.5),113,139,207,85,137,5,,3,3,40,61,4,13,1.8,2.4
2024-12-26T0900,1736A,111.5018,36.0855,临汾市,市委,细颗粒物(PM2.5),107,157,216,80,138,6,,5,5,45,66,5,14,1.5,2.1
2024-12-26T0900,3018A,111.505,36.1014,临汾市,唐尧大酒店,细颗粒物(PM2.5),132,142,187,100,137,5,,4,4,43,62,8,15,1.9,2.2
2024-12-26T0900,3668A,111.5036,36.0414,临汾市,城南,细颗粒物(PM2.5),135,157,161,103,117,2,,1,1,44,55,4,8,1.7,2.1
2024-12-26T0900,2667A,103.2069,35.5993,临夏回族自治州,环保局,细颗粒物(PM2.5),114,140,148,86,103,5,,15,13,42,36,9,10,2.2,1.9
2024-12-26T0900,2668A,103.2417,35.6057,临夏回族自治州,建设大厦,细颗粒物(PM2.5),97,137,136,72,97,14,,26,24,32,30,10,12,1.7,1.7
2024-12-26T0900,1618A,118.3429,35.0532,临沂市,沂河小区,颗粒物(PM10),64,78,150,32,108,45,,32,32,30,64,11,23,0.4,0.9
2024-12-26T0900,1619A,118.295,35.0583,临沂市,鲁南制药厂,颗粒物(PM10),65,80,160,22,106,43,,28,28,28,67,10,25,0.5,1
2024-12-26T0900,1620A,118.2794,34.9976,临沂市,新光毛纺厂,颗粒物(PM10),68,85,135,26,97,39,,26,26,37,59,10,18,0.5,0.9
2024-12-26T0900,1621A,118.3956,35.0888,临沂市,河东保险公司,颗粒物(PM10),67,83,144,27,100,36,,26,26,31,63,10,15,0.5,0.9
2024-12-26T0900,3370A,118.3564,35.0215,临沂市,十里堡居委,颗粒物(PM10),67,83,139,24,95,40,,32,32,31,54,10,21,0.7,1.1
2024-12-26T0900,3496A,118.3604,35.1084,临沂市,南坊新区,,,66,151,19,106,,,25,25,,79,7,14,0.5,1.1
2024-12-26T0900,3860A,118.3920,35.0300,临沂市,皇山花园小区,颗粒物(PM10),75,100,144,24,86,34,,23,23,45,69,8,16,0.6,1
2024-12-26T0900,1870A,109.4856,24.3895,柳州市,柳东小学,细颗粒物(PM2.5),94,95,107,70,85,53,,55,55,23,25,12,17,0.6,0.6
2024-12-26T0900,1871A,109.4157,24.3277,柳州市,环保监测站,细颗粒物(PM2.5),89,93,118,66,82,62,,57,57,24,30,12,19,0.9,1
2024-12-26T0900,1872A,109.389,24.341,柳州市,河西水厂,细颗粒物(PM2.5),88,108,130,65,80,54,,49,49,28,32,15,32,1.2,1
2024-12-26T0900,1873A,109.4311,24.2921,柳州市,市四中,细颗粒物(PM2.5),90,71,95,67,77,66,,60,60,23,29,10,16,0.9,1
2024-12-26T0900,1874A,109.4006,24.3631,柳州市,市九中,细颗粒物(PM2.5),95,92,110,71,86,60,,54,54,25,28,10,15,0.6,0.9
2024-12-26T0900,1875A,109.4958,24.3134,柳州市,古亭山,细颗粒物(PM2.5),98,85,98,73,76,66,,60,60,25,24,15,17,1.1,1.1
2024-12-26T0900,3402A,109.5422,24.3996,柳州市,市二中,细颗粒物(PM2.5),97,84,97,72,80,71,,52,52,22,29,13,14,0.7,0.8
2024-12-26T0900,2307A,116.5079,31.737,六安市,监测大楼,细颗粒物(PM2.5),144,130,100,110,83,34,,19,19,54,55,7,6,0.9,0.8
2024-12-26T0900,2308A,116.4738,31.7643,六安市,皖西学院,细颗粒物(PM2.5),135,140,107,103,81,11,,8,8,65,53,5,4,1.0,0.9
2024-12-26T0900,2309A,116.4996,31.7905,六安市,朝阳厂,细颗粒物(PM2.5),153,160,100,117,81,6,,14,14,72,57,4,3,1.1,1.1
2024-12-26T0900,2310A,116.5567,31.7886,六安市,开发区,细颗粒物(PM2.5),144,175,149,110,87,9,,9,9,74,61,4,4,1.1,0.8
2024-12-26T0900,2576A,104.8,26.5892,六盘水市,窑上,,,,24,,14,,,,,,12,,6,,0.9
2024-12-26T0900,2577A,104.83,26.5917,六盘水市,黄土坡,,17,,27,8,20,52,,40,40,13,18,9,11,1.0,1.3
2024-12-26T0900,2578A,104.89,26.5939,六盘水市,水钢,,20,20,23,7,15,40,,36,36,17,16,8,7,1.0,1.1
2024-12-26T0900,2579A,104.8475,26.5894,六盘水市,民中,,17,13,23,3,15,53,,41,41,11,17,8,10,0.8,1.1
2024-12-26T0900,2580A,104.9544,26.5506,六盘水市,双水,,19,19,20,6,14,48,,43,43,11,14,8,8,0.8,0.8
2024-12-26T0900,2335A,117.0189,25.1181,龙岩市,龙岩师专,,,,,,,,,,,,,,,,
2024-12-26T0900,2336A,117.0217,25.1033,龙岩市,龙岩市监测站,细颗粒物(PM2.5),63,,27,45,34,23,,26,26,25,22,10,6,1.3,0.7
2024-12-26T0900,2337A,117.0258,25.0661,龙岩市,闽西职业技术学院,细颗粒物(PM2.5),55,,30,39,30,21,,25,24,21,18,4,3,1.1,0.8
2024-12-26T0900,2338A,117.0196,25.0306,龙岩市,龙岩学院,细颗粒物(PM2.5),55,,28,39,32,23,,24,24,18,20,9,8,0.7,0.5
2024-12-26T0900,2665A,105.0822,33.3261,陇南市,汉王镇固水子,,,,,,,,,,,,,,,,
2024-12-26T0900,2885A,104.9339,33.3826,陇南市,滨江中学,颗粒物(PM10),69,87,68,33,32,20,,34,33,43,33,10,19,1.2,1
2024-12-26T0900,3247A,104.955,33.371,陇南市,市总工会,颗粒物(PM10),62,74,65,31,35,23,,42,41,40,29,6,15,0.7,0.4
2024-12-26T0900,2487A,111.9589,27.8901,娄底市,电视发射台,细颗粒物(PM2.5),108,,66,81,74,70,,72,71,19,21,8,8,0.6,0.6
2024-12-26T0900,2488A,111.9975,27.725,娄底市,市监测站,细颗粒物(PM2.5),118,111,110,89,89,60,,70,66,37,24,26,13,0.5,0.6
2024-12-26T0900,2489A,112.0194,27.7314,娄底市,市委党校,细颗粒物(PM2.5),102,90,110,76,87,74,,78,78,27,27,8,8,0.7,0.8
2024-12-26T0900,2490A,111.9561,27.7569,娄底市,涟钢,细颗粒物(PM2.5),125,129,114,95,86,50,,68,64,31,25,3,6,0.4,0.6
2024-12-26T0900,2491A,111.9892,27.7044,娄底市,市政府,细颗粒物(PM2.5),119,114,106,90,88,42,,72,67,51,30,8,9,1.3,1
2024-12-26T0900,1893A,105.4324,28.9634,泸州市,九狮山,,,,,,,,,,,,,,,,
2024-12-26T0900,1894A,105.4427,28.9063,泸州市,小市上码头,细颗粒物(PM2.5),94,83,100,70,81,11,,18,17,33,30,2,2,0.8,0.7
2024-12-26T0900,1895A,105.4241,28.8573,泸州市,兰田宪桥,细颗粒物(PM2.5),99,,90,74,81,20,,14,14,19,26,2,2,0.8,0.8
2024-12-26T0900,1896A,105.4379,28.8833,泸州市,市环监站,细颗粒物(PM2.5),92,85,98,68,77,14,,20,18,29,31,5,4,0.8,0.7
2024-12-26T0900,3490A,105.3617,28.7703,泸州市,纳溪区环保局,细颗粒物(PM2.5),90,73,77,67,66,9,,8,8,28,29,4,4,0.7,0.7
2024-12-26T0900,2183A,111.1406,37.5211,吕梁市,环保局,颗粒物(PM10),69,87,93,28,38,4,,2,2,38,43,3,6,0.6,0.7
2024-12-26T0900,2185A,111.1297,37.5136,吕梁市,自来水公司,颗粒物(PM10),88,126,115,29,41,6,,4,4,36,40,12,11,0.8,0.8
2024-12-26T0900,2867A,111.1283,37.51,吕梁市,马茂庄小学,,,,129,27,39,4,,2,2,42,46,3,6,0.7,0.6
2024-12-26T0900,1812A,112.3931,34.6516,洛阳市,市委党校,颗粒物(PM10),102,153,115,71,59,4,,16,12,62,43,16,9,1.5,0.9
2024-12-26T0900,1814A,112.4657,34.6871,洛阳市,豫西宾馆,细颗粒物(PM2.5),102,152,132,76,75,11,,16,15,54,47,18,11,1.6,1.1
2024-12-26T0900,1815A,112.494,34.6886,洛阳市,河南林校,细颗粒物(PM2.5),133,142,116,101,91,4,,10,8,58,43,15,6,1.3,1.1
2024-12-26T0900,1816A,112.3844,34.623,洛阳市,开发区管委会,细颗粒物(PM2.5),78,96,112,57,78,12,,24,22,42,31,7,8,1.0,0.9
2024-12-26T0900,1817A,112.4267,34.6258,洛阳市,市委新办公区,细颗粒物(PM2.5),118,122,119,89,77,9,,41,36,51,27,6,7,1.1,0.8
2024-12-26T0900,3340A,112.6005,34.6326,洛阳市,伊滨,细颗粒物(PM2.5),108,132,124,81,61,7,,30,25,40,29,6,7,1.2,0.9
2024-12-26T0900,3341A,112.4951,34.6332,洛阳市,中移产业园,细颗粒物(PM2.5),134,130,100,102,58,8,,30,25,55,32,8,7,1.4,0.9
2024-12-26T0900,3593A,112.5736,34.8993,洛阳市,吉利监测站,细颗粒物(PM2.5),118,123,100,89,80,9,,19,16,61,39,8,8,1.7,1.1
2024-12-26T0900,3635A,112.3677,34.662,洛阳市,河科大西苑校区,细颗粒物(PM2.5),95,123,121,71,73,8,,17,14,46,37,14,10,1.3,1
2024-12-26T0900,3636A,112.4388,34.6781,洛阳市,英才小学,细颗粒物(PM2.5),110,144,118,83,73,0,,8,5,60,46,16,10,1.3,1
2024-12-26T0900,2399A,114.051,33.5699,漯河市,三五一五工厂,细颗粒物(PM2.5),245,242,146,195,113,10,,22,21,62,43,10,11,1.3,0.7
2024-12-26T0900,2400A,114.0055,33.5698,漯河市,漯河大学,细颗粒物(PM2.5),243,221,138,193,105,12,,17,17,65,45,9,9,1.4,0.8
2024-12-26T0900,2401A,114.0138,33.5828,漯河市,市水利局,细颗粒物(PM2.5),238,246,146,188,103,11,,17,17,62,45,10,11,1.7,1
2024-12-26T0900,2402A,114.0261,33.5698,漯河市,市广电局,细颗粒物(PM2.5),240,237,136,190,106,11,,21,20,61,42,10,11,1.7,1
2024-12-26T0900,3478A,113.9749,33.5664,漯河市,市图书馆,细颗粒物(PM2.5),230,240,147,180,101,11,,27,25,68,42,10,10,1.5,0.8
2024-12-26T0900,3479A,114.0967,33.5906,漯河市,召陵区卫健委,细颗粒物(PM2.5),213,224,153,163,104,8,,21,19,57,39,10,12,1.5,0.9
2024-12-26T0900,1798A,118.5092,31.6837,马鞍山市,湖东路四小,细颗粒物(PM2.5),113,136,127,85,85,38,,25,25,69,70,8,10,0.9,1.2
2024-12-26T0900,1799A,118.5024,31.6449,马鞍山市,开发区,细颗粒物(PM2.5),156,145,134,119,107,37,,8,8,60,62,11,10,1.0,1
2024-12-26T0900,1800A,118.5228,31.7231,马鞍山市,慈湖,细颗粒物(PM2.5),148,154,137,113,103,10,,12,12,81,70,10,13,1.3,1.4
2024-12-26T0900,1802A,118.6245,31.7241,马鞍山市,濮塘,细颗粒物(PM2.5),144,124,106,110,95,43,,47,44,52,36,11,10,0.5,0.6
2024-12-26T0900,3633A,118.4918,31.6809,马鞍山市,雨山,细颗粒物(PM2.5),135,142,132,103,93,35,,21,21,67,64,9,11,1.1,1.3
2024-12-26T0900,1686A,111.0286,21.4688,茂名市,电白南海,,34,34,60,17,34,59,,60,60,17,21,10,9,0.8,0.8
2024-12-26T0900,1687A,110.9294,21.6533,茂名市,茂石化七小,细颗粒物(PM2.5),58,63,68,41,46,46,,54,51,23,21,23,19,0.8,0.7
2024-12-26T0900,1688A,110.9107,21.6687,茂名市,健康路,细颗粒物(PM2.5),85,105,63,63,40,54,,59,56,24,21,42,24,1.9,0.8
2024-12-26T0900,1689A,110.8592,21.6828,茂名市,高岭,颗粒物(PM10),65,80,73,44,48,46,,50,47,27,23,31,24,0.8,0.8
2024-12-26T0900,3450A,111.01,21.5165,茂名市,电白水东,,39,36,54,27,37,54,,62,61,16,16,11,12,0.6,0.6
2024-12-26T0900,2539A,104.0308,30.0478,眉山市,黑龙滩水库,,33,33,44,21,25,7,,8,7,23,21,2,2,0.8,0.8
2024-12-26T0900,2540A,103.8416,30.0874,眉山市,气象局,细颗粒物(PM2.5),89,72,78,66,71,5,,4,4,19,33,4,4,1.2,1.1
2024-12-26T0900,3137A,103.8578,30.0744,眉山市,市委党校,细颗粒物(PM2.5),85,75,77,63,62,4,,3,3,29,42,6,5,1.0,0.9
2024-12-26T0900,3148A,103.8291,30.0564,眉山市,区人社局,细颗粒物(PM2.5),98,,63,73,68,4,,4,4,29,42,8,6,1.9,1.1
2024-12-26T0900,1690A,116.1231,24.3284,梅州市,梅江月梅,细颗粒物(PM2.5),69,,51,50,64,17,,7,7,27,36,8,8,0.7,0.7
2024-12-26T0900,1691A,116.0797,24.2719,梅州市,梅县新城,细颗粒物(PM2.5),60,,52,43,61,24,,9,9,24,43,4,5,0.8,0.8
2024-12-26T0900,1692A,116.1248,24.2654,梅州市,环境监控中心,细颗粒物(PM2.5),59,44,41,42,51,23,,9,9,26,37,6,6,0.8,0.7
2024-12-26T0900,3315A,116.1233,24.2991,梅州市,梅龙,,48,39,50,33,46,22,,9,9,29,34,6,6,0.9,0.8
2024-12-26T0900,1878A,104.7778,31.4741,绵阳市,富乐山,细颗粒物(PM2.5),87,80,69,64,52,2,,1,1,31,35,2,2,0.9,0.9
2024-12-26T0900,1879A,104.7563,31.4535,绵阳市,市人大,细颗粒物(PM2.5),94,99,80,70,59,3,,2,2,33,36,5,4,1.2,0.9
2024-12-26T0900,1880A,104.6697,31.4668,绵阳市,高新区自来水公司,细颗粒物(PM2.5),104,110,88,78,62,3,,2,2,30,34,7,4,1.5,1
2024-12-26T0900,1881A,104.7287,31.5075,绵阳市,三水厂,细颗粒物(PM2.5),100,97,77,75,61,3,,3,3,26,40,8,6,1.1,0.9
2024-12-26T0900,3491A,104.69,31.5322,绵阳市,西科大附属小学,细颗粒物(PM2.5),73,81,82,53,60,8,,7,7,22,32,6,5,1.1,0.8
2024-12-26T0900,3492A,104.5648,31.5343,绵阳市,安州区旅游局,细颗粒物(PM2.5),94,79,85,70,71,6,,6,6,24,28,9,9,1.1,0.8
2024-12-26T0900,1784A,129.61,44.561,牡丹江市,环保大楼,,36,35,55,25,33,54,,58,56,12,18,8,9,0.4,0.6
2024-12-26T0900,1785A,129.6115,44.5782,牡丹江市,文化广场,,43,33,54,30,37,58,,62,60,13,20,9,10,0.5,0.7
2024-12-26T0900,1786A,129.5904,44.5963,牡丹江市,第一医院,,41,41,54,24,41,59,,63,61,8,16,8,8,0.5,0.7
2024-12-26T0900,1787A,129.6364,44.6075,牡丹江市,机车工厂,,,,55,,35,,,64,62,8,19,9,11,0.4,0.6
2024-12-26T0900,1788A,129.6386,44.5462,牡丹江市,第一中学,,36,25,48,25,31,54,,55,54,12,18,8,8,0.4,0.5
2024-12-26T0900,2531A,105.0703,29.61,内江市,市监测站,细颗粒物(PM2.5),129,,86,98,96,6,,6,6,28,30,9,8,1.3,0.9
2024-12-26T0900,2532A,105.0717,29.5947,内江市,东兴区政府,细颗粒物(PM2.5),108,,88,81,83,8,,7,7,25,33,5,4,1.2,1
2024-12-26T0900,2533A,105.0653,29.5817,内江市,内江二中,细颗粒物(PM2.5),115,87,94,87,93,6,,6,6,23,31,9,9,1.1,1
2024-12-26T0900,2534A,105.0406,29.5822,内江市,内江日报社,细颗粒物(PM2.5),103,79,91,77,86,6,,5,5,24,32,8,7,1.0,0.9
2024-12-26T0900,2628A,92.0657,31.4846,那曲市,那曲监测站,,28,28,46,18,26,35,,52,51,23,19,9,10,0.8,1
2024-12-26T0900,3128A,92.0506,31.4797,那曲市,那曲会议中心,细颗粒物(PM2.5),59,51,32,42,30,24,,46,41,27,11,5,3,0.8,0.6
2024-12-26T0900,1290A,115.8931,28.6843,南昌市,省外办,细颗粒物(PM2.5),125,128,117,95,92,53,,52,52,43,40,11,11,0.9,1
2024-12-26T0900,1291A,115.8886,28.7003,南昌市,省林业公司,细颗粒物(PM2.5),110,112,110,83,83,52,,50,50,36,39,12,12,0.7,0.6
2024-12-26T0900,1292A,115.8126,28.7442,南昌市,林科所,细颗粒物(PM2.5),104,102,101,78,73,85,,77,77,27,34,10,11,0.7,0.8
2024-12-26T0900,1294A,115.8518,28.687,南昌市,建工学校,细颗粒物(PM2.5),95,106,110,71,67,66,,66,66,29,30,13,13,0.9,1
2024-12-26T0900,1295A,115.8921,28.6424,南昌市,象湖,细颗粒物(PM2.5),123,93,92,93,83,60,,61,61,39,37,13,12,0.8,0.7
2024-12-26T0900,1296A,115.7423,28.7996,南昌市,武术学校,细颗粒物(PM2.5),82,81,70,60,52,57,,46,46,18,20,3,3,0.8,0.9
2024-12-26T0900,1298A,115.9314,28.6842,南昌市,省站,颗粒物(PM10),146,242,121,,85,51,,51,51,47,46,13,12,0.8,0.8
2024-12-26T0900,3046A,115.9084,28.6062,南昌市,机电学校,细颗粒物(PM2.5),113,132,118,85,82,56,,55,55,34,33,14,14,0.3,0.4
2024-12-26T0900,3690A,115.9721,28.7031,南昌市,外国语学校,细颗粒物(PM2.5),102,118,112,76,73,54,,47,47,34,36,11,11,0.7,0.7
2024-12-26T0900,1905A,106.056,30.8064,南充市,西山风景区,细颗粒物(PM2.5),84,65,69,62,64,6,,21,17,16,18,3,2,0.7,0.7
2024-12-26T0900,1906A,106.0789,30.8023,南充市,南充市委,细颗粒物(PM2.5),87,75,89,64,74,3,,3,3,20,30,3,3,0.8,0.7
2024-12-26T0900,1907A,106.1031,30.8217,南充市,南充炼油厂,细颗粒物(PM2.5),102,85,91,76,78,1,,0,0,22,32,3,3,0.5,0.4
2024-12-26T0900,1908A,106.1064,30.7856,南充市,高坪区监测站,,,,97,,75,,,2,2,22,35,2,3,0.8,0.6
2024-12-26T0900,1909A,106.0642,30.7636,南充市,嘉陵区环保局,细颗粒物(PM2.5),94,93,91,70,71,2,,2,2,25,37,4,4,1.0,0.8
2024-12-26T0900,1910A,106.1087,30.8388,南充市,市环境监测站,细颗粒物(PM2.5),90,93,93,67,71,4,,4,3,19,24,4,4,0.8,0.7
2024-12-26T0900,1151A,118.8086,32.1065,南京市,迈皋桥,细颗粒物(PM2.5),140,141,114,107,76,43,,21,21,74,81,17,11,1.5,1.7
2024-12-26T0900,1152A,118.7538,32.0551,南京市,草场门,细颗粒物(PM2.5),153,153,116,117,85,41,,30,28,66,71,13,8,0.6,0.7
2024-12-26T0900,1153A,118.7794,32.0745,南京市,山西路,细颗粒物(PM2.5),156,166,131,119,90,59,,37,37,45,69,5,4,0.9,1
2024-12-26T0900,1154A,118.7752,32.0023,南京市,中华门,细颗粒物(PM2.5),147,146,114,112,85,56,,24,24,52,78,9,6,0.9,1
2024-12-26T0900,1155A,118.8109,32.0309,南京市,瑞金路,细颗粒物(PM2.5),147,156,128,112,87,43,,15,15,62,72,14,9,1.2,1.4
2024-12-26T0900,1156A,118.7997,32.0754,南京市,玄武湖,细颗粒物(PM2.5),159,148,127,121,89,40,,18,18,57,69,14,11,0.7,0.8
2024-12-26T0900,1157A,118.6414,32.0931,南京市,浦口,细颗粒物(PM2.5),134,136,122,102,80,71,,57,57,22,27,11,10,0.8,0.9
2024-12-26T0900,1158A,118.7356,31.9996,南京市,奥体中心,细颗粒物(PM2.5),140,160,119,107,80,53,,39,39,69,79,16,11,0.9,1
2024-12-26T0900,1159A,118.9125,32.1028,南京市,仙林大学城,细颗粒物(PM2.5),153,153,128,117,91,32,,19,19,68,80,,10,0.7,0.8
2024-12-26T0900,3422A,118.8436,31.9198,南京市,江宁彩虹桥,细颗粒物(PM2.5),140,157,130,107,81,37,,11,11,72,77,12,11,0.7,0.9
2024-12-26T0900,3423A,119.0138,31.6494,南京市,溧水永阳,细颗粒物(PM2.5),129,127,113,98,96,12,,4,4,77,64,3,5,1.0,1.2
2024-12-26T0900,3424A,118.879,31.3302,南京市,高淳老职中,细颗粒物(PM2.5),134,113,120,102,104,30,,21,21,57,52,7,7,0.6,0.8
2024-12-26T0900,3427A,118.8554,32.3578,南京市,六合雄州,细颗粒物(PM2.5),155,178,145,118,87,30,,22,22,52,48,6,7,0.9,0.9
2024-12-26T0900,1401A,108.3103,22.7881,南宁市,二十一中,细颗粒物(PM2.5),89,70,92,66,75,72,,89,86,35,33,8,11,1.2,1.2
2024-12-26T0900,1402A,108.3141,22.8528,南宁市,北湖,细颗粒物(PM2.5),94,106,96,70,78,73,,76,74,32,38,11,15,1.2,1.2
2024-12-26T0900,1403A,108.3206,22.8225,南宁市,市监测站,细颗粒物(PM2.5),84,97,100,62,71,66,,83,80,36,38,11,16,1.3,1.3
2024-12-26T0900,1404A,108.3829,22.8037,南宁市,大自然花园,细颗粒物(PM2.5),98,,94,73,75,69,,89,85,31,29,10,13,1.0,0.9
2024-12-26T0900,1405A,108.4394,22.7904,南宁市,仙葫,细颗粒物(PM2.5),113,96,92,85,78,61,,80,77,26,27,10,13,1.0,0.9
2024-12-26T0900,1406A,108.2397,22.8467,南宁市,区农职院,细颗粒物(PM2.5),72,91,99,52,68,86,,57,57,17,38,8,17,0.9,1.1
2024-12-26T0900,1407A,108.3275,22.735,南宁市,英华嘉园,细颗粒物(PM2.5),98,96,92,73,75,66,,86,82,33,27,13,14,1.2,1.1
2024-12-26T0900,1408A,108.2257,22.7757,南宁市,沙井镇街道办,"颗粒物(PM10),细颗粒物(PM2.5)",79,107,105,58,70,71,,67,67,35,54,11,15,0.9,0.9
2024-12-26T0900,3401A,108.4834,22.7618,南宁市,红星社区,细颗粒物(PM2.5),97,104,98,72,76,66,,83,79,25,26,18,16,1.3,1.2
2024-12-26T0900,2331A,118.0966,26.6761,南平市,茫荡山,,,,,,,,,,,,,,,,
2024-12-26T0900,2332A,118.1681,26.6369,南平市,南平市监测站,,44,44,36,30,25,29,,8,8,28,34,4,5,0.7,0.8
2024-12-26T0900,2333A,118.1825,26.6489,南平市,南平铝业有限公司,,49,38,34,34,22,15,,6,6,33,35,5,6,1.0,0.8
2024-12-26T0900,2334A,118.1756,26.6272,南平市,南平七中,,41,41,33,27,22,6,,3,2,39,32,1,3,0.6,0.5
2024-12-26T0900,1168A,120.9098,31.9663,南通市,狼山街道,细颗粒物(PM2.5),153,149,108,117,89,56,,47,47,41,48,12,10,1.4,1.3
2024-12-26T0900,1169A,120.86,32.0005,南通市,虹桥,细颗粒物(PM2.5),173,155,118,131,93,29,,,,,56,11,9,,0.9
2024-12-26T0900,1170A,120.87,32.02,南通市,城中,细颗粒物(PM2.5),162,169,140,123,101,41,,32,32,52,60,13,11,1.2,1.1
2024-12-26T0900,1171A,120.94,31.93,南通市,星湖花园,细颗粒物(PM2.5),145,151,114,111,84,56,,41,41,44,56,10,8,1.0,0.9
2024-12-26T0900,1172A,120.81,32.0417,南通市,紫琅学院,细颗粒物(PM2.5),183,176,131,138,99,23,,15,15,65,71,10,8,1.2,1.2
2024-12-26T0900,3291A,121.067,32.062,南通市,通州监测站,细颗粒物(PM2.5),175,158,126,132,97,36,,16,16,55,57,6,4,1.1,1.1
2024-12-26T0900,3432A,120.9348,31.9883,南通市,环境教育馆,细颗粒物(PM2.5),148,149,109,113,88,70,,54,54,31,45,12,8,1.1,1
2024-12-26T0900,2404A,112.5224,33.0122,南阳市,瓦房庄,细颗粒物(PM2.5),124,163,116,94,86,9,,4,4,50,38,7,7,1.3,1
2024-12-26T0900,2405A,112.5003,32.9735,南阳市,汉画馆,细颗粒物(PM2.5),127,143,110,96,78,6,,4,4,40,39,5,7,1.0,0.7
2024-12-26T0900,2406A,112.5573,33.027,南阳市,气象站,细颗粒物(PM2.5),98,127,124,73,78,32,,9,9,29,33,6,7,0.8,0.8
2024-12-26T0900,2407A,112.5481,32.9689,南阳市,理工学院,细颗粒物(PM2.5),127,135,104,96,80,7,,3,3,48,40,6,7,1.0,0.7
2024-12-26T0900,4008A,112.5234,32.9922,南阳市,卧龙区政府,细颗粒物(PM2.5),127,146,111,96,77,6,,3,3,47,39,6,6,1.3,0.9
2024-12-26T0900,1234A,121.8358,29.911,宁波市,区环保大楼,细颗粒物(PM2.5),145,139,111,111,79,30,,8,8,65,81,23,14,1.2,0.9
2024-12-26T0900,1235A,121.56,29.82,宁波市,万里学院,细颗粒物(PM2.5),139,144,110,106,72,15,,14,14,68,60,10,7,1.4,1
2024-12-26T0900,1236A,121.713,29.9572,宁波市,龙赛医院,细颗粒物(PM2.5),125,132,108,95,72,28,,6,6,67,72,14,11,1.2,0.9
2024-12-26T0900,1239A,121.633,29.7733,宁波市,钱湖水厂,细颗粒物(PM2.5),127,131,88,96,58,15,,10,10,61,61,9,6,1.3,0.8
2024-12-26T0900,1240A,121.5856,29.8635,宁波市,太古小学,细颗粒物(PM2.5),118,139,107,89,61,15,,10,10,72,70,,9,1.7,1.1
2024-12-26T0900,1241A,121.524,29.8674,宁波市,市环境监测中心,细颗粒物(PM2.5),107,130,99,80,59,,,11,10,68,60,12,9,1.3,0.9
2024-12-26T0900,2871A,121.6147,29.9017,宁波市,万里国际学校,颗粒物(PM10),95,140,104,65,51,9,,3,3,66,71,10,8,1.6,1
2024-12-26T0900,3710A,121.5594,29.8975,宁波市,白沙活动中心,细颗粒物(PM2.5),99,129,103,74,56,15,,10,10,69,65,13,9,1.3,0.8
2024-12-26T0900,2339A,119.5001,26.6946,宁德市,金涵水库,,,,,,,,,,,,,,,,
2024-12-26T0900,2341A,119.5388,26.6612,宁德市,宁德市监测站,,43,31,36,30,24,41,,34,34,23,29,4,3,0.4,0.4
2024-12-26T0900,3209A,119.5231,26.6562,宁德市,宁德一中,,50,50,33,30,24,46,,39,39,20,18,4,2,0.4,0.3
2024-12-26T0900,2618A,98.8601,25.8567,怒江傈僳族自治州,州监测站,,30,30,35,18,19,42,,43,42,8,15,4,4,0.3,0.4
2024-12-26T0900,2619A,98.8546,25.8417,怒江傈僳族自治州,泸水一中,,25,25,33,14,22,8,,21,20,25,22,7,7,0.7,0.6
2024-12-26T0900,1888A,101.6891,26.571,攀枝花市,弄弄坪,细颗粒物(PM2.5),83,102,76,61,43,11,,5,5,49,48,54,36,4.1,2.5
2024-12-26T0900,1889A,101.5769,26.5928,攀枝花市,河门口,颗粒物(PM10),52,54,49,33,31,12,,18,16,33,34,8,16,1.3,1.5
2024-12-26T0900,1890A,101.7169,26.585,攀枝花市,炳草岗,细颗粒物(PM2.5),82,106,80,60,49,5,,5,5,46,51,16,24,2.4,1.6
2024-12-26T0900,1891A,101.7369,26.5008,攀枝花市,仁和,,48,48,51,31,35,12,,17,15,32,32,7,16,1.3,1.5
2024-12-26T0900,2835A,101.7227,26.567,攀枝花市,四十中小,细颗粒物(PM2.5),72,92,79,52,48,7,,6,6,47,58,19,27,3.8,2.8
2024-12-26T0900,1604A,122.0303,41.1489,盘锦市,开发区,,36,36,72,18,23,47,,53,52,22,18,15,11,0.4,0.4
2024-12-26T0900,1605A,122.0485,41.0883,盘锦市,兴隆台,细颗粒物(PM2.5),78,79,76,57,25,14,,45,39,58,24,18,14,1.2,0.7
2024-12-26T0900,1606A,121.8297,41.1028,盘锦市,新生街道,,,20,60,6,21,,,44,43,27,31,15,14,0.5,0.6
2024-12-26T0900,1832A,113.3257,33.742,平顶山市,新华旅馆,细颗粒物(PM2.5),160,187,132,122,72,29,,53,48,48,30,16,13,1.0,0.6
2024-12-26T0900,1833A,113.2919,33.737,平顶山市,规划设计院,细颗粒物(PM2.5),160,180,136,122,78,35,,55,52,31,25,15,11,1.2,0.7
2024-12-26T0900,1834A,113.182,33.774,平顶山市,平顶山工学院,细颗粒物(PM2.5),132,172,126,100,68,31,,58,54,30,17,,12,1.2,0.8
2024-12-26T0900,3204A,113.3025,33.73,平顶山市,规划局,细颗粒物(PM2.5),165,178,122,125,78,31,,52,49,45,27,16,12,1.1,0.6
2024-12-26T0900,3594A,112.8867,33.9116,平顶山市,石龙区,颗粒物(PM10),73,95,98,51,56,45,,66,63,16,16,12,8,0.8,0.8
2024-12-26T0900,2656A,106.6692,35.5461,平凉市,聚贤嘉苑,颗粒物(PM10),66,82,67,41,35,18,,25,25,57,48,18,14,0.8,0.7
2024-12-26T0900,2657A,106.7021,35.5307,平凉市,博物馆,,,,77,,32,,,42,,,38,,15,,0.7
2024-12-26T0900,2347A,114.0997,27.5002,萍乡市,武功山,细颗粒物(PM2.5),118,102,97,89,76,24,,33,31,23,24,10,12,1.4,1.4
2024-12-26T0900,2348A,113.8385,27.6434,萍乡市,中医院,细颗粒物(PM2.5),147,178,169,112,107,17,,20,16,50,52,31,22,1.8,1.7
2024-12-26T0900,2349A,113.8493,27.6253,萍乡市,市政府车库,细颗粒物(PM2.5),153,144,151,117,131,19,,23,23,46,49,24,22,1.1,1.6
2024-12-26T0900,2350A,113.8676,27.6435,萍乡市,市环保局,细颗粒物(PM2.5),178,154,154,134,117,16,,29,23,52,42,32,23,1.7,1.4
2024-12-26T0900,2351A,113.866,27.6198,萍乡市,安源区政府,细颗粒物(PM2.5),148,150,171,113,121,25,,25,25,38,48,22,18,1.0,1.4
2024-12-26T0900,2319A,119.0141,25.4325,莆田市,荔城区仓后路,,50,35,36,35,20,26,,19,19,25,24,1,2,0.7,0.6
2024-12-26T0900,2320A,119.0015,25.4553,莆田市,莆田市监测站,细颗粒物(PM2.5),59,,27,42,14,27,,40,37,29,18,3,3,0.5,0.4
2024-12-26T0900,2321A,119.1119,25.4561,莆田市,涵江区六中,,49,,31,34,19,38,,21,21,22,29,3,3,0.5,0.5
2024-12-26T0900,2322A,119.1013,25.3215,莆田市,秀屿区政府,,43,42,29,30,19,49,,50,50,21,17,4,3,0.5,0.4
2024-12-26T0900,2323A,118.981,25.4792,莆田市,东圳水库,,,,,,,,,,,,,,,,
2024-12-26T0900,2392A,115.0312,35.7636,濮阳市,环保局,颗粒物(PM10),58,66,156,16,126,36,,30,30,25,56,4,7,0.4,1.2
2024-12-26T0900,2394A,115.0574,35.7609,濮阳市,油田运输公司,颗粒物(PM10),57,63,179,19,132,33,,20,20,27,60,3,6,0.5,1.3
2024-12-26T0900,2395A,115.0866,35.7754,濮阳市,油田物探公司,颗粒物(PM10),62,73,173,25,138,25,,17,17,29,60,4,7,0.8,1.4
2024-12-26T0900,3021A,115,35.7668,濮阳市,濮水河管理处,颗粒物(PM10),70,89,182,26,126,25,,21,21,32,59,6,6,0.4,1
2024-12-26T0900,2601A,100.98,22.7633,普洱市,市环保局,,44,44,43,11,17,5,,17,15,19,11,4,4,0.9,0.5
2024-12-26T0900,2602A,100.9817,22.8322,普洱市,普洱第二中学,,40,40,35,9,19,4,,5,5,21,16,8,8,0.8,0.6
2024-12-26T0900,2262A,131.0518,45.8751,七台河市,新一中,,20,19,49,3,30,63,,63,63,7,15,13,12,1.5,1.7
2024-12-26T0900,3345A,131.0577,45.7879,七台河市,中波台,,,,70,,34,47,,49,48,,24,,15,0.7,0.7
2024-12-26T0900,3637A,131.0176,45.7761,七台河市,人民广场,,32,,71,22,40,52,,54,54,18,26,9,9,0.5,0.6
2024-12-26T0900,3684A,130.8781,45.8222,七台河市,新建矿广场,,38,,42,26,37,53,,53,53,13,21,12,9,0.4,0.6
2024-12-26T0900,1779A,123.9305,47.3636,齐齐哈尔市,安居小区,,39,39,29,23,17,54,,54,54,18,13,7,8,0.4,0.3
2024-12-26T0900,1780A,123.9488,47.3386,齐齐哈尔市,中心广场,,21,21,24,8,16,52,,56,56,18,13,3,4,0.8,0.6
2024-12-26T0900,1781A,123.9483,47.3227,齐齐哈尔市,农牧车辆厂,,24,24,27,6,15,57,,56,56,14,12,5,7,0.3,0.3
2024-12-26T0900,1783A,123.945,47.2988,齐齐哈尔市,市环境监测站,,30,23,34,21,18,58,,52,52,14,15,3,5,0.5,0.5
2024-12-26T0900,3662A,123.6333,47.2075,齐齐哈尔市,富区青少年活动中心,,49,49,32,16,14,49,,52,52,26,17,15,12,0.6,0.5
2024-12-26T0900,2591A,107.9783,26.5747,黔东南苗族侗族自治州,市环境监测站,细颗粒物(PM2.5),75,63,78,55,64,44,,59,56,22,18,2,6,0.5,0.5
2024-12-26T0900,2881A,107.8908,26.5311,黔东南苗族侗族自治州,凯里学院,细颗粒物(PM2.5),79,70,74,58,55,38,,50,48,23,22,3,6,0.6,0.6
2024-12-26T0900,2593A,107.5228,26.2403,黔南布依族苗族自治州,小围寨,,39,29,60,27,52,39,,43,43,12,18,4,8,0.8,0.8
2024-12-26T0900,3538A,107.5175,26.2978,黔南布依族苗族自治州,沙坝,细颗粒物(PM2.5),52,41,68,36,55,38,,42,42,18,22,5,7,0.6,0.6
2024-12-26T0900,2589A,104.9022,25.0925,黔西南布依族苗族自治州,场坝街,,27,27,76,11,64,21,,42,40,17,21,6,4,0.7,0.8
2024-12-26T0900,2590A,104.8811,25.0992,黔西南布依族苗族自治州,坪东大道,,27,27,76,11,68,22,,40,37,18,20,4,4,0.7,0.9
2024-12-26T0900,2502A,108.6236,21.9667,钦州市,市环保站,细颗粒物(PM2.5),113,139,149,85,89,63,,74,71,31,35,33,18,1.7,1.4
2024-12-26T0900,2503A,108.6549,21.9481,钦州市,沙埠小学,细颗粒物(PM2.5),109,110,130,82,90,62,,80,75,35,35,12,13,0.8,0.9
2024-12-26T0900,2504A,108.5989,21.7431,钦州市,港区一小,细颗粒物(PM2.5),102,138,139,76,81,52,,70,68,42,43,14,15,1.2,1.3
2024-12-26T0900,3404A,108.5959,21.9633,钦州市,北职校,细颗粒物(PM2.5),133,,122,101,97,62,,73,71,32,36,16,15,1.1,1.4
2024-12-26T0900,1042A,119.5134,39.8207,秦皇岛市,北戴河环保局,,27,27,66,3,35,51,,56,55,21,30,2,3,0.5,0.7
2024-12-26T0900,1043A,119.7493,40.0116,秦皇岛市,第一关,,19,18,76,7,42,58,,38,38,17,40,2,8,0.3,0.6
2024-12-26T0900,1044A,119.5897,39.9499,秦皇岛市,监测站,,30,30,68,3,36,44,,58,55,26,31,3,7,0.4,0.6
2024-12-26T0900,1046A,119.5251,39.9041,秦皇岛市,建设大厦,颗粒物(PM10),56,62,84,20,42,12,,42,35,65,44,3,7,0.7,0.7
2024-12-26T0900,3132A,119.610547,39.943889,秦皇岛市,文明里,,29,29,84,17,40,44,,60,57,33,39,4,9,0.4,0.5
2024-12-26T0900,1307A,120.6659,36.2403,青岛市,仰口,,,56,109,22,67,61,,64,64,14,31,,16,0.6,1
2024-12-26T0900,1310A,120.4134,36.0658,青岛市,市南区东部子站,颗粒物(PM10),65,80,136,24,74,40,,48,48,29,53,11,17,0.7,1
2024-12-26T0900,1311A,120.3664,36.1032,青岛市,四方区子站,颗粒物(PM10),60,70,120,24,80,42,,49,49,32,60,12,21,0.8,1.1
2024-12-26T0900,1312A,120.2994,36.054,青岛市,市南区西部子站,颗粒物(PM10),56,61,112,12,62,51,,50,50,21,52,12,15,0.8,1.1
2024-12-26T0900,1313A,120.4581,36.0858,青岛市,崂山区子站,颗粒物(PM10),62,73,122,24,74,35,,46,45,33,49,11,16,0.8,1.1
2024-12-26T0900,1314A,120.1983,35.9608,青岛市,黄岛区子站,颗粒物(PM10),57,63,116,20,71,42,,46,46,34,51,9,13,0.7,1
