timepoint,stationcode,longitude,latitude,area,positionname,primarypollutant,aqi,pm10,pm10_24h,pm2_5,pm2_5_24h,o3,o3_24h,o3_8h,o3_8h_24h,no2,no2_24h,so2,so2_24h,co,co_24h
2025-12-09T1100,2566A,102.1879,31.914,阿坝藏族羌族自治州,州农科所,,,,,,,,,,,,,,,,
2025-12-09T1100,2568A,102.2502,31.8896,阿坝藏族羌族自治州,马师校,,18,15,25,12,16,30,30,21,20,11,21,6,5,0.6,0.6
2025-12-09T1100,3994A,102.2165,31.9024,阿坝藏族羌族自治州,马尔康中学西区,,12,6,14,6,8,38,38,30,30,8,17,6,6,0.6,0.6
2025-12-09T1100,2695A,80.292,41.1694,阿克苏地区,电视台,细颗粒物(PM2.5),210,278,173,160,91,7,7,16,14,58,58,9,11,2.8,1.4
2025-12-09T1100,2696A,80.2613,41.1551,阿克苏地区,艺术中心,细颗粒物(PM2.5),127,170,156,96,89,11,11,20,17,52,54,4,10,1.3,1
2025-12-09T1100,2204A,105.6467,38.8363,阿拉善盟,西城区西花园,,,,,,,,,,,,,,,,
2025-12-09T1100,2205A,105.6985,38.8411,阿拉善盟,蒙二幼,颗粒物(PM10),59,68,29,30,13,72,72,87,81,26,12,12,11,0.7,0.5
2025-12-09T1100,2206A,105.724,38.8516,阿拉善盟,环保局新楼,,50,42,22,35,15,83,83,88,87,12,5,11,10,0.7,0.6
2025-12-09T1100,2708A,88.1264,47.8517,阿勒泰地区,市站,,22,19,15,15,9,26,26,59,49,37,34,3,4,0.5,0.4
2025-12-09T1100,2630A,80.1161,32.5,阿里地区,阿里监测站,,15,6,3,6,3,45,45,51,51,26,15,10,9,0.6,0.5
2025-12-09T1100,3192A,80.0903,32.5028,阿里地区,阿里藏医院,,37,37,18,24,10,42,42,57,50,21,10,13,10,0.9,0.6
2025-12-09T1100,2642A,109.0318,32.6537,安康市,香溪洞,,,,,,,,,,,,,,,,
2025-12-09T1100,2644A,109.0072,32.6975,安康市,汉滨区检察院,颗粒物(PM10),61,72,68,42,39,19,19,15,12,33,34,4,4,1.1,0.9
2025-12-09T1100,4054A,109.0325,32.6913,安康市,市邮政管理局,颗粒物(PM10),64,78,84,44,49,16,16,5,5,27,37,5,5,0.9,1
2025-12-09T1100,2291A,117.0809,30.5177,安庆市,环科院,细颗粒物(PM2.5),93,94,119,69,74,66,66,58,50,24,22,8,9,0.7,0.8
2025-12-09T1100,2292A,117.0331,30.5119,安庆市,马山宾馆,细颗粒物(PM2.5),89,106,124,66,74,72,72,60,51,27,28,8,8,0.8,0.9
2025-12-09T1100,2294A,116.9896,30.6145,安庆市,安庆大学,细颗粒物(PM2.5),90,107,119,67,74,50,50,47,37,39,21,11,9,0.8,0.8
2025-12-09T1100,3173A,117.0598,30.5351,安庆市,市人大,细颗粒物(PM2.5),88,103,124,65,77,72,72,57,48,27,29,9,8,0.6,0.6
2025-12-09T1100,3122A,105.9606,26.2611,安顺市,伍家关,,42,42,35,28,29,56,56,66,61,7,6,11,14,0.8,0.8
2025-12-09T1100,3123A,105.9408,26.2431,安顺市,凤凰山,细颗粒物(PM2.5),55,47,42,39,34,59,59,76,67,17,15,15,15,0.5,0.5
2025-12-09T1100,3124A,105.9439,26.2564,安顺市,金钟山,细颗粒物(PM2.5),52,45,41,36,32,59,59,76,69,14,11,20,17,0.8,0.7
2025-12-09T1100,3125A,105.8983,26.2481,安顺市,娄家坡,,49,38,36,34,32,70,70,74,69,12,12,10,13,0.7,0.6
2025-12-09T1100,1818A,114.4839,36.0621,安阳市,棉研所,,,,,,,,,,,,,,,,
2025-12-09T1100,1819A,114.3551,36.1017,安阳市,红庙街,细颗粒物(PM2.5),128,166,117,97,65,29,29,10,10,52,45,10,5,0.8,0.5
2025-12-09T1100,1820A,114.361,36.0681,安阳市,银杏小区,细颗粒物(PM2.5),147,163,119,112,73,29,29,8,8,46,38,6,4,0.6,0.4
2025-12-09T1100,3141A,114.3922,36.0878,安阳市,信访局,细颗粒物(PM2.5),140,174,124,107,69,23,23,10,10,51,42,6,5,0.8,0.5
2025-12-09T1100,3669A,114.4705,36.0637,安阳市,左辅环卫站,细颗粒物(PM2.5),148,176,146,113,83,29,29,16,16,40,38,6,4,0.7,0.6
2025-12-09T1100,3703A,114.2917,36.0949,安阳市,安钢职工学校,细颗粒物(PM2.5),129,175,124,98,70,23,23,7,7,50,49,9,5,1.2,0.7
2025-12-09T1100,1748A,123.044,41.1196,鞍山市,深沟寺,,,70,43,48,27,33,33,34,26,36,32,18,16,,1
2025-12-09T1100,1749A,123.011,41.0931,鞍山市,太阳城,"颗粒物(PM10),细颗粒物(PM2.5)",54,58,44,38,26,36,36,34,27,28,28,18,17,1.0,1.3
2025-12-09T1100,1750A,123.0485,41.1442,鞍山市,太平,细颗粒物(PM2.5),82,108,55,60,27,28,28,32,21,35,30,24,17,1.2,1.3
2025-12-09T1100,1751A,122.9642,41.0971,鞍山市,铁西三道街,颗粒物(PM10),63,75,57,40,28,38,38,34,28,36,38,24,22,1.3,1.4
2025-12-09T1100,1753A,123.022,41.0821,鞍山市,明达新区,颗粒物(PM10),53,56,43,34,24,37,37,38,29,22,21,22,18,1.0,1.2
2025-12-09T1100,1754A,123.1289,41.0228,鞍山市,千山,,,,55,,20,,,43,,,19,,4,,0.6
2025-12-09T1100,4201A,122.9446,41.0826,鞍山市,兴盛南路290号,细颗粒物(PM2.5),77,93,61,56,33,25,25,36,24,56,41,49,21,3.0,1.5
2025-12-09T1100,2195A,107.4212,40.761,巴彦淖尔市,附二中,细颗粒物(PM2.5),82,111,88,60,46,9,9,4,4,44,37,23,11,1.4,0.9
2025-12-09T1100,2196A,107.37,40.7372,巴彦淖尔市,市环保大楼,颗粒物(PM10),75,100,73,49,35,12,12,12,12,47,38,8,9,1.3,0.9
2025-12-09T1100,1956A,86.1472,41.7538,巴音郭楞蒙古自治州,孔雀公园,颗粒物(PM10),70,89,101,28,42,37,37,7,7,39,58,12,13,0.7,1
2025-12-09T1100,1957A,86.1972,41.7166,巴音郭楞蒙古自治州,棉纺厂,颗粒物(PM10),79,108,114,36,30,33,33,25,25,35,43,11,10,0.8,0.8
2025-12-09T1100,1958A,86.2357,41.7173,巴音郭楞蒙古自治州,经济开发区,颗粒物(PM10),81,111,87,40,26,29,29,30,27,39,34,10,9,0.6,0.6
2025-12-09T1100,2914A,106.7677,31.8794,巴中市,苏山坪,,,,,,,,,,,,,,,,
2025-12-09T1100,3181A,106.7768,31.8526,巴中市,市五中,细颗粒物(PM2.5),100,105,100,75,73,3,3,2,2,24,28,6,6,1.5,1.2
2025-12-09T1100,3183A,106.7418,31.8654,巴中市,圣泉水务公司,细颗粒物(PM2.5),77,74,80,56,60,2,2,1,1,21,28,6,5,1.2,1.1
2025-12-09T1100,3616A,106.7616,31.8344,巴中市,市中心医院,细颗粒物(PM2.5),103,85,94,77,83,3,3,1,1,22,25,6,6,1.3,1.2
2025-12-09T1100,2235A,122.7911,45.6077,白城市,洮北区环保局,,,38,28,37,17,,,36,30,12,17,5,6,0.4,0.3
2025-12-09T1100,2236A,122.8738,45.5725,白城市,市环保局,,39,39,23,27,18,41,41,32,28,8,9,5,4,0.5,0.3
2025-12-09T1100,2231A,126.4219,41.9171,白山市,喜丰,颗粒物(PM10),67,84,52,38,19,32,32,15,15,33,28,17,12,0.8,0.6
2025-12-09T1100,2232A,126.4077,41.9419,白山市,环保局,颗粒物(PM10),65,80,32,28,18,23,23,16,15,33,21,15,9,1.2,0.8
2025-12-09T1100,2647A,104.1724,36.5446,白银市,第三小学,细颗粒物(PM2.5),97,94,92,72,59,27,27,21,20,53,61,43,68,1.8,1.2
2025-12-09T1100,2648A,104.1465,36.5482,白银市,动力公司,细颗粒物(PM2.5),99,111,81,74,54,42,42,48,45,44,38,38,30,1.9,1.6
2025-12-09T1100,2512A,106.6103,23.9011,百色市,市监测站,颗粒物(PM10),69,88,52,47,33,28,28,9,9,35,28,21,12,0.9,0.8
2025-12-09T1100,2513A,106.6538,23.8859,百色市,市中心血站,细颗粒物(PM2.5),90,100,65,67,45,29,29,19,18,33,32,34,13,1.2,0.9
2025-12-09T1100,3406A,106.6085,23.8798,百色市,祈福高中,颗粒物(PM10),74,98,74,46,39,20,20,12,12,41,33,29,9,1.0,0.8
2025-12-09T1100,2270A,117.396,32.939,蚌埠市,工人疗养院,颗粒物(PM10),71,91,88,30,32,53,53,19,19,33,45,9,9,0.5,0.4
2025-12-09T1100,2271A,117.3605,32.9427,蚌埠市,百货大楼,颗粒物(PM10),66,82,73,28,31,52,52,30,30,31,42,9,7,0.6,0.4
2025-12-09T1100,2273A,117.4185,32.8911,蚌埠市,蚌埠学院,,,85,75,63,32,54,54,30,30,27,40,10,8,,0.4
2025-12-09T1100,2274A,117.3533,32.9673,蚌埠市,淮上区政府,颗粒物(PM10),73,95,83,36,35,50,50,19,19,38,43,12,9,0.6,0.4
2025-12-09T1100,2275A,117.3145,32.8977,蚌埠市,高新区,颗粒物(PM10),65,80,71,37,32,55,55,34,31,25,32,10,8,0.6,0.4
2025-12-09T1100,3715A,117.3092,32.9314,蚌埠市,蚌埠田家炳中学,颗粒物(PM10),69,87,81,35,34,57,57,36,35,28,32,6,6,0.6,0.4
2025-12-09T1100,1585A,109.8756,40.6532,包头市,市环境监测站,颗粒物(PM10),78,105,78,48,30,13,13,4,4,62,56,42,26,2.5,1.7
2025-12-09T1100,1587A,109.9991,40.5842,包头市,包头八中,细颗粒物(PM2.5),98,141,86,73,50,13,13,5,5,51,54,23,21,1.5,2.1
2025-12-09T1100,1588A,109.8538,40.6821,包头市,青山宾馆,细颗粒物(PM2.5),107,107,87,80,50,16,16,6,6,62,61,40,25,2.7,2.1
2025-12-09T1100,1589A,109.8642,40.6288,包头市,惠龙物流,"颗粒物(PM10),细颗粒物(PM2.5)",77,103,69,56,35,17,17,3,3,54,55,41,25,2.1,2
2025-12-09T1100,1590A,110.0377,40.5546,包头市,东河鸿龙湾,颗粒物(PM10),75,99,96,39,51,10,10,4,4,54,55,17,17,1.2,1.8
2025-12-09T1100,3283A,109.9154,40.5685,包头市,滨河大厦,细颗粒物(PM2.5),110,112,64,83,37,17,17,6,6,57,53,19,20,1.4,1.5
2025-12-09T1100,3419A,109.9447,40.6261,包头市,包头市委党校,细颗粒物(PM2.5),100,104,66,75,34,13,13,5,5,65,56,42,23,3.0,1.7
2025-12-09T1100,3683A,109.8331,40.6576,包头市,昆区政府,细颗粒物(PM2.5),85,112,80,63,45,16,16,6,6,65,63,46,26,2.3,1.9
2025-12-09T1100,1930A,107.185,34.3063,宝鸡市,庙沟村,,,,,,,,,,,,,,,,
2025-12-09T1100,1931A,107.0708,34.3017,宝鸡市,竹园沟,细颗粒物(PM2.5),80,78,72,59,53,19,19,12,11,33,30,7,8,0.4,0.3
2025-12-09T1100,1932A,107.1906,34.3672,宝鸡市,三陆医院,细颗粒物(PM2.5),94,108,102,70,72,22,22,17,16,49,48,16,11,0.8,0.7
2025-12-09T1100,1933A,107.1431,34.3547,宝鸡市,监测站,,,,98,,70,20,20,14,14,31,39,6,8,0.6,0.6
2025-12-09T1100,1934A,107.1186,34.3739,宝鸡市,技工学校,细颗粒物(PM2.5),90,112,105,67,65,19,19,19,16,35,38,10,11,0.8,0.7
2025-12-09T1100,1936A,107.2058,34.3497,宝鸡市,文理学院,细颗粒物(PM2.5),99,99,105,74,73,22,22,18,17,42,46,10,9,0.7,0.7
2025-12-09T1100,1937A,107.2386,34.3622,宝鸡市,三迪小学,细颗粒物(PM2.5),105,106,107,79,79,26,26,15,14,45,55,12,10,0.8,0.7
2025-12-09T1100,4308A,107.3898,34.3601,宝鸡市,陈仓区北开路21号,细颗粒物(PM2.5),102,108,109,76,68,37,37,23,23,30,43,32,23,0.9,0.8
2025-12-09T1100,1051A,115.493,38.8632,保定市,游泳馆,细颗粒物(PM2.5),57,61,58,40,34,25,25,9,9,34,36,4,5,0.5,0.4
2025-12-09T1100,1052A,115.5213,38.8959,保定市,华电二区,细颗粒物(PM2.5),55,56,48,39,35,20,20,7,7,39,34,5,4,0.2,0.2
2025-12-09T1100,1053A,115.4713,38.9108,保定市,接待中心,颗粒物(PM10),58,66,57,36,32,23,23,9,9,39,34,2,2,0.4,0.3
2025-12-09T1100,1054A,115.4612,38.8416,保定市,地表水厂,,,81,65,36,35,36,36,11,11,,40,,5,0.3,0.3
2025-12-09T1100,3581A,115.31981,38.95208,保定市,满城区生态环境分局,颗粒物(PM10),63,75,76,29,36,26,26,8,8,40,40,1,4,0.3,0.3
2025-12-09T1100,3582A,115.47694,38.76408,保定市,清苑区第二中学,颗粒物(PM10),76,102,71,40,32,21,21,7,7,43,38,4,6,0.6,0.4
2025-12-09T1100,3583A,115.62909,39.02311,保定市,徐水物探局,颗粒物(PM10),76,102,86,47,42,19,19,8,8,43,38,5,4,0.7,0.6
2025-12-09T1100,4004A,115.4202,38.8656,保定市,双鹰农机,颗粒物(PM10),65,80,67,26,32,35,35,15,15,35,40,5,5,0.6,0.5
2025-12-09T1100,4034A,115.5150,38.8590,保定市,植保所站,颗粒物(PM10),59,68,67,37,37,14,14,3,3,35,36,3,5,0.7,0.6
2025-12-09T1100,2594A,99.1678,25.1081,保山市,市环境监测站,,49,49,23,31,15,43,43,40,34,19,10,7,8,0.7,0.5
2025-12-09T1100,2595A,99.1711,25.1328,保山市,市环保局,颗粒物(PM10),53,55,26,26,18,40,40,49,39,22,8,5,4,0.6,0.4
2025-12-09T1100,1866A,109.2262,21.588,北海市,牛尾岭水库,细颗粒物(PM2.5),84,,57,62,56,62,62,44,39,9,10,9,11,0.6,0.8
2025-12-09T1100,1867A,109.1436,21.4086,北海市,海滩公园,细颗粒物(PM2.5),77,72,75,56,50,85,85,87,78,22,14,15,10,1.1,0.9
2025-12-09T1100,1868A,109.0981,21.4661,北海市,新市环保局,细颗粒物(PM2.5),77,72,72,56,57,77,77,76,69,24,18,14,11,1.0,0.9
2025-12-09T1100,1869A,109.1778,21.5233,北海市,北海工业园,颗粒物(PM10),66,82,76,46,55,77,77,72,62,20,16,14,9,0.9,0.9
2025-12-09T1100,3400A,109.1911,21.4415,北海市,龙潭自来水厂,,,,73,,60,79,79,50,48,,15,,7,1.2,1
2025-12-09T1100,1001A,116.3621,39.8784,北京市,万寿西宫,颗粒物(PM10),51,51,51,19,19,30,30,9,9,29,47,2,2,0.6,0.6
2025-12-09T1100,1002A,116.2202,40.2915,北京市,定陵,,,,,,,,,,,,,,,,
2025-12-09T1100,1003A,116.4174,39.9289,北京市,东四,颗粒物(PM10),53,55,51,25,19,25,25,10,10,29,35,4,4,0.5,0.5
2025-12-09T1100,1004A,116.4072,39.8863,北京市,天坛,,46,46,43,20,18,26,26,9,9,38,40,2,2,0.6,0.5
2025-12-09T1100,1005A,116.462,39.9365,北京市,农展馆,颗粒物(PM10),53,55,47,26,20,20,20,7,7,30,36,4,4,0.8,0.7
2025-12-09T1100,1006A,116.3392,39.9295,北京市,官园,,50,50,50,22,22,22,22,7,7,34,38,4,3,0.5,0.5
2025-12-09T1100,1007A,116.2878,39.9611,北京市,海淀万柳,颗粒物(PM10),52,54,52,21,17,18,18,4,4,34,37,4,3,0.7,0.6
2025-12-09T1100,1008A,116.6636,40.135,北京市,顺义新城,,44,44,45,16,20,27,27,7,7,22,40,5,5,0.4,0.4
2025-12-09T1100,1009A,116.6275,40.3275,北京市,怀柔镇,,45,45,33,20,15,22,22,21,18,28,25,6,6,0.7,0.6
2025-12-09T1100,1010A,116.2296,40.217,北京市,昌平镇,颗粒物(PM10),63,75,41,36,17,11,11,16,10,47,28,7,5,1.1,0.6
2025-12-09T1100,1011A,116.3966,39.9821,北京市,奥体中心,颗粒物(PM10),63,75,49,27,19,23,23,9,9,36,46,4,4,0.7,0.6
2025-12-09T1100,3281A,115.9718,40.4529,北京市,延庆夏都,颗粒物(PM10),72,93,44,46,18,13,13,10,10,42,26,4,2,0.9,0.6
2025-12-09T1100,3418A,116.8336,40.4095,北京市,密云新城,,32,32,37,15,16,33,33,19,19,16,28,3,2,0.4,0.4
2025-12-09T1100,3671A,116.088,39.9726,北京市,门头沟三家店,,44,44,52,13,18,29,29,10,10,17,30,3,2,0.4,0.4
2025-12-09T1100,3672A,116.1541,39.8204,北京市,丰台云岗,颗粒物(PM10),56,62,46,22,15,21,21,10,10,40,36,5,3,0.4,0.3
2025-12-09T1100,3673A,116.6804,39.9081,北京市,通州东关,颗粒物(PM10),63,76,70,36,25,14,14,4,4,47,46,5,4,0.4,0.3
2025-12-09T1100,3674A,115.9577,39.7603,北京市,房山燕山,,45,45,39,24,17,32,32,17,16,26,24,4,4,0.4,0.5
2025-12-09T1100,3675A,116.4672,39.7733,北京市,大兴旧宫,颗粒物(PM10),55,60,52,25,18,16,16,4,4,47,41,6,4,0.6,0.5
2025-12-09T1100,3694A,115.986,40.4563,北京市,延庆石河营,颗粒物(PM10),67,84,41,46,18,11,11,7,7,45,26,4,4,0.8,0.5
2025-12-09T1100,3695A,116.6151,40.3053,北京市,怀柔新城,,43,43,33,19,18,22,22,23,20,29,22,4,3,0.5,0.4
2025-12-09T1100,3696A,116.2545,39.8768,北京市,丰台小屯,颗粒物(PM10),58,65,53,23,18,22,22,5,5,37,47,4,3,0.5,0.6
2025-12-09T1100,3697A,116.84,40.3844,北京市,密云镇,,37,37,37,14,17,30,30,7,7,23,37,2,1,0.4,0.4
2025-12-09T1100,4182A,116.1942,39.9158,北京市,八角北路9号,颗粒物(PM10),54,58,54,22,18,22,22,8,8,35,41,1,4,0.2,0.2
2025-12-09T1100,4194A,117.0790,40.1518,北京市,洳河巡河路,,44,44,41,20,19,25,25,11,11,26,28,1,2,0.4,0.4
2025-12-09T1100,1761A,123.8275,41.3064,本溪市,大峪,颗粒物(PM10),69,88,45,44,21,18,18,11,11,44,29,27,11,3.2,0.9
2025-12-09T1100,1762A,123.7567,41.3325,本溪市,溪湖,细颗粒物(PM2.5),79,78,47,58,28,18,18,7,7,55,41,30,12,3.1,1.7
2025-12-09T1100,1763A,123.7169,41.3094,本溪市,彩屯,细颗粒物(PM2.5),75,77,62,55,44,26,26,13,13,48,37,31,12,2.8,1.9
2025-12-09T1100,1764A,123.7669,41.2864,本溪市,东明,"颗粒物(PM10),细颗粒物(PM2.5)",78,105,52,57,29,16,16,8,8,52,37,30,12,3.8,1.4
2025-12-09T1100,1765A,123.7992,41.2664,本溪市,新立屯,,,69,32,28,16,35,35,28,25,25,29,19,9,,0.8
2025-12-09T1100,1766A,123.8142,41.3472,本溪市,威宁,颗粒物(PM10),79,107,50,41,20,22,22,15,15,28,22,19,8,1.3,0.9
2025-12-09T1100,2587A,105.2864,27.3125,毕节市,八中,,,32,67,21,53,21,21,26,24,14,12,8,10,,0.6
2025-12-09T1100,2588A,105.31,27.2944,毕节市,师专,,16,16,62,11,49,21,21,31,27,15,14,7,12,0.8,0.8
2025-12-09T1100,4263A,105.3688,27.3598,毕节市,工业大道,,15,13,52,10,41,31,31,37,34,9,12,11,11,0.9,0.9
2025-12-09T1100,1629A,118.0018,37.3617,滨州市,第二水厂,细颗粒物(PM2.5),128,158,81,97,45,,,2,2,79,52,25,17,1.6,1
2025-12-09T1100,1630A,117.9776,37.393,滨州市,北中新校,细颗粒物(PM2.5),113,127,71,85,40,23,23,3,3,76,57,19,11,1.2,0.9
2025-12-09T1100,3514A,117.9378,37.3956,滨州市,中海酒店,,,,63,70,41,24,24,9,9,,45,,14,0.9,0.8
2025-12-09T1100,3515A,117.9378,37.3553,滨州市,开发区一中,细颗粒物(PM2.5),119,163,96,90,50,19,19,7,7,68,46,24,18,1.5,1
2025-12-09T1100,3516A,118.0917,37.694,滨州市,金海六路,颗粒物(PM10),96,142,70,70,29,33,33,12,12,61,48,28,18,1.1,0.7
2025-12-09T1100,4028A,117.9956,37.3753,滨州市,滨州市西街道办事处,细颗粒物(PM2.5),119,156,77,90,48,22,22,6,6,64,47,24,16,1.6,1.1
2025-12-09T1100,2311A,115.8072,33.8399,亳州市,污水处理厂,颗粒物(PM10),71,91,106,51,68,41,41,17,17,27,42,13,21,0.8,0.9
2025-12-09T1100,2312A,115.7789,33.8518,亳州市,三国揽胜宫,颗粒物(PM10),83,115,109,50,61,39,39,25,24,31,34,12,14,0.7,0.7
2025-12-09T1100,3332A,115.7633,33.8034,亳州市,亳州学院,,,92,93,54,57,,,31,29,32,32,8,6,0.7,0.7
2025-12-09T1100,2693A,82.0485,44.8556,博尔塔拉蒙古自治州,市党校,,25,25,39,12,19,30,30,25,25,17,19,3,3,0.6,0.4
2025-12-09T1100,2694A,82.0806,44.8969,博尔塔拉蒙古自治州,市环保局,,39,39,46,26,22,13,13,21,20,24,16,4,2,0.7,0.5
2025-12-09T1100,1071A,116.8842,38.2991,沧州市,沧县城建局,,,,67,,41,20,20,8,8,66,51,,14,1.2,0.9
2025-12-09T1100,1072A,116.8584,38.3254,沧州市,电视转播站,细颗粒物(PM2.5),107,122,60,80,37,12,12,3,3,66,49,30,12,1.1,0.8
2025-12-09T1100,1073A,116.8709,38.3228,沧州市,市环保局,细颗粒物(PM2.5),112,127,69,84,43,13,13,8,8,57,41,30,13,1.0,0.7
2025-12-09T1100,3324A,116.8136,38.3004,沧州市,河北水利电力学院,颗粒物(PM10),97,144,66,66,33,14,14,6,6,62,47,30,15,0.9,0.5
2025-12-09T1100,2622A,97.1806,31.1273,昌都市,昌都监测站,,,64,49,34,21,30,30,28,28,,28,6,5,0.9,0.9
2025-12-09T1100,3719A,97.1714,31.1406,昌都市,昌都会议中心,,32,30,17,22,13,35,35,47,40,15,6,3,2,0.4,0.2
2025-12-09T1100,2690A,88.1236,43.8886,昌吉回族自治州,天山天池,,,,,,,,,,,,,,,,
2025-12-09T1100,2692A,87.2717,44.0297,昌吉回族自治州,新区政务中心,,48,47,52,33,36,15,15,38,26,36,25,3,4,0.8,0.6
2025-12-09T1100,3613A,87.3095,44.0142,昌吉回族自治州,亚心广场,颗粒物(PM10),54,58,65,36,42,18,18,40,27,24,15,6,7,0.7,0.6
2025-12-09T1100,1120A,125.2863,43.9027,长春市,客车厂,,48,37,57,33,47,39,39,15,15,24,35,14,11,0.4,0.5
2025-12-09T1100,1121A,125.2841,43.8463,长春市,邮电学院,,,,60,,33,39,39,20,20,29,30,,10,,0.6
2025-12-09T1100,1122A,125.3716,43.8772,长春市,劳动公园,,,81,61,34,35,38,38,16,13,26,27,10,8,,0.8
2025-12-09T1100,1123A,125.3297,43.8805,长春市,园林处,"颗粒物(PM10),细颗粒物(PM2.5)",52,54,54,36,33,34,34,19,19,25,28,10,9,0.6,0.6
2025-12-09T1100,1124A,125.4605,43.79,长春市,净月潭,颗粒物(PM10),59,68,53,33,37,41,41,35,31,21,14,8,7,0.4,0.4
2025-12-09T1100,1125A,125.7194,43.515,长春市,甩湾子,细颗粒物(PM2.5),88,103,59,65,36,33,33,30,23,25,12,13,5,0.8,0.6
2025-12-09T1100,1126A,125.3863,43.8447,长春市,经开区环卫处,颗粒物(PM10),66,81,54,38,28,29,29,10,10,36,30,15,7,0.6,0.5
2025-12-09T1100,1127A,125.245,43.7783,长春市,高新区管委会,,,121,60,57,39,,,7,,,29,15,7,0.9,0.5
2025-12-09T1100,1128A,125.1761,43.8325,长春市,岱山公园,颗粒物(PM10),90,129,63,62,43,31,31,18,14,40,34,13,10,0.6,0.5
2025-12-09T1100,4281A,125.3346,43.9164,长春市,北亚泰大街1068号,颗粒物(PM10),60,69,62,42,46,36,36,16,16,27,33,13,9,0.5,0.6
2025-12-09T1100,1335A,113.0833,28.2325,长沙市,经开区环保局,细颗粒物(PM2.5),153,152,144,117,117,53,53,32,32,36,41,10,8,0.8,0.8
2025-12-09T1100,1336A,112.8872,28.2189,长沙市,高开区环保局,细颗粒物(PM2.5),138,129,134,105,107,53,53,51,48,30,32,12,9,1.0,1
2025-12-09T1100,1337A,113.0792,28.2053,长沙市,马坡岭,细颗粒物(PM2.5),140,161,147,107,103,53,53,28,28,48,54,9,8,0.8,0.9
2025-12-09T1100,1338A,112.9394,28.19,长沙市,湖南师范大学,细颗粒物(PM2.5),130,148,143,99,96,75,75,58,58,25,29,8,6,0.5,0.5
2025-12-09T1100,1339A,113.0178,28.1322,长沙市,雨花区环保局,颗粒物(PM10),107,164,148,32,95,,,39,33,52,34,,10,1.3,1.2
2025-12-09T1100,1340A,112.9792,28.2597,长沙市,伍家岭,细颗粒物(PM2.5),132,161,154,100,100,56,56,38,38,31,36,10,8,0.9,0.9
2025-12-09T1100,1341A,113.0014,28.1944,长沙市,火车新站,细颗粒物(PM2.5),149,159,154,114,106,62,62,46,45,38,36,11,9,1.0,0.9
2025-12-09T1100,1342A,112.9844,28.1178,长沙市,天心区环保局,细颗粒物(PM2.5),139,146,144,106,100,60,60,49,45,38,35,9,9,0.8,0.7
2025-12-09T1100,1343A,112.8908,28.1308,长沙市,湖南中医药大学,细颗粒物(PM2.5),143,159,144,109,105,74,74,48,46,23,28,13,9,0.9,1
2025-12-09T1100,1344A,112.9581,28.3611,长沙市,沙坪,,,,,,,,,,,,,,,,
2025-12-09T1100,1727A,113.1147,36.1547,长治市,清华站,细颗粒物(PM2.5),117,153,83,88,48,19,19,35,21,,30,22,16,,0.8
2025-12-09T1100,1730A,113.0886,36.2125,长治市,审计局,细颗粒物(PM2.5),107,116,88,80,51,21,21,30,13,57,38,23,15,1.5,0.9
2025-12-09T1100,1731A,113.0844,36.1856,长治市,长治八中,细颗粒物(PM2.5),119,152,112,90,58,18,18,27,9,49,30,24,15,1.5,0.9
2025-12-09T1100,2845A,113.1569,36.1911,长治市,德盛苑,细颗粒物(PM2.5),147,145,86,112,54,45,45,61,47,43,19,49,17,2.2,0.7
2025-12-09T1100,3568A,113.06,36.0464,长治市,向阳小学,颗粒物(PM10),120,190,128,89,59,25,25,58,42,61,31,24,17,1.4,0.9
2025-12-09T1100,3569A,112.8792,36.3144,长治市,屯留一中,,,106,86,61,40,35,35,18,18,,38,,19,0.8,0.6
2025-12-09T1100,4189A,113.1131,36.19948,长治市,英华南巷50号,细颗粒物(PM2.5),153,161,98,117,55,33,33,34,20,59,30,55,15,2.6,0.8
2025-12-09T1100,4190A,113.2367,36.3344,长治市,学府街1号,细颗粒物(PM2.5),149,,77,114,59,33,33,16,16,57,45,47,18,4.0,1.5
2025-12-09T1100,1854A,111.6975,28.9703,常德市,市二中,细颗粒物(PM2.5),105,118,113,79,85,,,27,24,23,23,,10,0.7,0.5
2025-12-09T1100,1857A,111.7158,29.1456,常德市,白鹤山,,,,,,,,,,,,,,,,
2025-12-09T1100,3138A,111.7153,29.0289,常德市,武陵区永安,细颗粒物(PM2.5),105,103,114,79,76,42,42,42,41,24,24,10,10,0.8,0.7
2025-12-09T1100,3139A,111.6892,28.9881,常德市,鼎城区玉霞,细颗粒物(PM2.5),103,104,116,77,88,36,36,18,18,26,29,9,10,0.6,0.6
2025-12-09T1100,3140A,111.6625,29.0531,常德市,武陵区长庚,细颗粒物(PM2.5),103,117,118,77,80,43,43,44,42,25,28,8,10,0.6,0.5
2025-12-09T1100,1196A,119.9633,31.762,常州市,市监测站,颗粒物(PM10),56,62,53,24,26,59,59,21,21,38,45,7,5,0.7,0.7
2025-12-09T1100,1200A,119.9468,31.7069,常州市,武进监测站,,50,50,51,20,25,69,69,28,28,21,40,10,9,0.4,0.6
2025-12-09T1100,1201A,119.9255,31.9087,常州市,安家,颗粒物(PM10),54,58,60,21,25,54,54,17,17,38,48,12,10,0.6,0.5
2025-12-09T1100,3002A,119.9805,31.8174,常州市,行政中心,颗粒物(PM10),75,99,76,20,23,54,54,34,34,40,41,10,7,0.7,0.6
2025-12-09T1100,3003A,120.0522,31.7748,常州市,经开区,颗粒物(PM10),57,63,62,17,27,56,56,17,17,30,46,12,9,0.4,0.4
2025-12-09T1100,3010A,119.9025,31.7964,常州市,钟楼,,,64,53,17,21,,,30,26,,36,8,7,0.7,0.7
2025-12-09T1100,3429A,119.8598,31.7066,常州市,武进经发区,颗粒物(PM10),61,71,65,18,24,71,71,25,25,20,43,8,8,0.6,0.7
2025-12-09T1100,3430A,119.5826,31.7245,常州市,金坛城区,,,,61,,23,71,71,35,35,20,36,,8,0.6,0.7
2025-12-09T1100,2220A,120.4318,41.5881,朝阳市,西梁,颗粒物(PM10),52,53,61,15,41,46,46,18,18,14,30,23,16,0.4,0.9
2025-12-09T1100,2221A,120.4521,41.5646,朝阳市,河畔小区,,41,41,32,12,18,51,51,26,26,12,22,16,9,0.4,0.6
2025-12-09T1100,2222A,120.4176,41.5648,朝阳市,八里堡,,45,45,55,15,32,52,52,21,21,14,37,18,12,0.6,1
2025-12-09T1100,2223A,120.3806,41.5969,朝阳市,农业园区,,,85,37,28,28,50,50,29,29,,30,29,14,0.6,0.9
2025-12-09T1100,1705A,116.6367,23.6719,潮州市,西园路,,,,,,,,,,,,,,,,
2025-12-09T1100,3026A,116.6183,23.6608,潮州市,市政府,颗粒物(PM10),62,73,56,28,34,96,96,48,48,14,15,7,9,0.6,0.5
2025-12-09T1100,4036A,116.6461,23.6761,潮州市,金山,颗粒物(PM10),62,73,42,23,28,91,91,40,40,12,11,4,3,0.5,0.6
2025-12-09T1100,2472A,113.0073,25.9061,郴州市,马头岭,,,,,,,,,,,,,,,,
2025-12-09T1100,2473A,113.0116,25.8226,郴州市,市职中,细颗粒物(PM2.5),122,100,83,92,73,32,32,10,10,33,27,9,5,1.1,0.9
2025-12-09T1100,2475A,113.0383,25.8071,郴州市,市审计局,细颗粒物(PM2.5),119,105,90,90,75,66,66,24,24,25,25,7,4,0.9,0.8
2025-12-09T1100,2476A,113.0348,25.7759,郴州市,市环保局,细颗粒物(PM2.5),120,116,101,91,70,71,71,15,15,30,34,9,4,0.9,0.8
2025-12-09T1100,4252A,113.0138,25.8011,郴州市,好美居路49号,细颗粒物(PM2.5),118,102,84,89,78,64,64,29,29,29,30,8,7,1.1,1
2025-12-09T1100,1431A,103.9728,30.7236,成都市,金泉两河,细颗粒物(PM2.5),169,161,127,128,110,8,8,1,1,52,49,7,5,1.1,1
2025-12-09T1100,1432A,104.176,30.6872,成都市,十里店,细颗粒物(PM2.5),134,160,147,102,106,5,5,4,4,69,68,4,4,1.2,0.9
2025-12-09T1100,1433A,104.079,30.5706,成都市,三瓦窑,细颗粒物(PM2.5),185,188,149,139,98,5,5,1,1,56,65,6,4,1.4,1.1
2025-12-09T1100,1434A,104.1114,30.63,成都市,沙河铺,细颗粒物(PM2.5),180,164,149,136,130,2,2,3,2,72,73,5,5,1.4,1.2
2025-12-09T1100,1437A,104.0786,30.6531,成都市,君平街,细颗粒物(PM2.5),163,156,142,124,119,8,8,8,7,55,58,5,5,1.4,1
2025-12-09T1100,1438A,103.613,31.0283,成都市,灵岩寺,,,,,,,,,,,,,,,,
2025-12-09T1100,2880A,104.0239,30.65639,成都市,大石西路,细颗粒物(PM2.5),149,137,113,114,105,6,6,5,4,55,56,7,6,1.0,0.9
2025-12-09T1100,3136A,104.2725,30.5589,成都市,龙泉驿区区政府,,,,123,,87,,,0,0,,47,,6,,1
2025-12-09T1100,3357A,104.0106,30.6931,成都市,金博路,细颗粒物(PM2.5),133,152,131,101,97,8,8,2,2,53,57,6,5,1.1,1.2
2025-12-09T1100,3359A,104.0578,30.5225,成都市,华阳,细颗粒物(PM2.5),156,185,135,119,92,4,4,2,2,58,61,5,4,1.3,1
2025-12-09T1100,3488A,104.3880,30.7467,成都市,青石路225号,细颗粒物(PM2.5),155,149,131,118,111,3,3,1,1,50,42,7,6,1.0,0.8
2025-12-09T1100,3489A,104.0789,30.4072,成都市,科学城,细颗粒物(PM2.5),155,159,133,118,98,4,4,2,2,42,52,7,6,1.1,0.9
2025-12-09T1100,4011A,103.8506,30.6947,成都市,光华大道三段,细颗粒物(PM2.5),158,164,142,120,109,15,15,3,3,46,47,3,3,1.1,1.1
2025-12-09T1100,4224A,104.2433,30.5353,成都市,鲸龙路1057号,细颗粒物(PM2.5),158,150,146,120,111,4,4,2,2,47,55,6,6,1.0,0.9
2025-12-09T1100,1062A,117.9531,40.9081,承德市,铁路,,34,34,42,12,23,20,20,7,7,21,28,4,5,0.6,0.7
2025-12-09T1100,1063A,117.9392,40.9763,承德市,中国银行,,35,35,45,14,23,22,22,7,7,20,30,3,4,0.6,0.8
2025-12-09T1100,1064A,117.9503,40.928,承德市,开发区,颗粒物(PM10),53,56,48,28,25,25,25,10,10,20,30,5,6,0.4,0.5
2025-12-09T1100,1066A,117.9268,41.0026,承德市,离宫,,,,,,,,,,,,,,,,
2025-12-09T1100,4274A,117.7994,40.9605,承德市,滨河大街98号,颗粒物(PM10),65,80,34,14,18,19,19,10,10,30,24,8,8,0.9,0.6
2025-12-09T1100,2314A,117.47,30.6618,池州市,池州学院,细颗粒物(PM2.5),92,97,120,68,89,60,60,46,43,24,31,7,10,0.8,0.9
2025-12-09T1100,3237A,117.4918,30.6617,池州市,展览馆,细颗粒物(PM2.5),93,102,126,69,82,62,62,42,40,26,32,8,9,0.7,0.8
2025-12-09T1100,3333A,117.5627,30.695,池州市,第八中学,细颗粒物(PM2.5),79,99,116,58,76,61,61,38,38,29,38,8,10,1.0,1.1
2025-12-09T1100,3334A,117.5038,30.6243,池州市,第十二中学,细颗粒物(PM2.5),109,127,120,82,82,45,45,28,25,46,40,6,9,1.3,1.2
2025-12-09T1100,1744A,118.9233,42.2816,赤峰市,松山一中,颗粒物(PM10),61,71,25,30,13,10,10,14,7,50,32,34,9,1.5,0.8
2025-12-09T1100,1745A,118.9576,42.2728,赤峰市,哈达街,颗粒物(PM10),67,84,24,34,10,16,16,22,12,50,22,136,15,1.8,1
2025-12-09T1100,1746A,118.8788,42.2554,赤峰市,天义路,细颗粒物(PM2.5),60,59,16,43,12,22,22,22,13,48,23,72,11,1.0,0.7
2025-12-09T1100,3058A,119.2658,42.0353,赤峰市,银河街,细颗粒物(PM2.5),85,103,58,63,35,32,32,22,22,35,27,23,18,1.5,1
2025-12-09T1100,3286A,118.9359,42.3147,赤峰市,桥北物流园区,细颗粒物(PM2.5),77,80,21,56,16,19,19,12,9,46,23,122,15,2.1,0.7
2025-12-09T1100,2521A,107.3476,22.4136,崇左市,市环保局江州分局,颗粒物(PM10),60,70,55,42,32,36,36,10,10,26,25,9,7,0.8,0.7
2025-12-09T1100,4256A,107.3750,22.3736,崇左市,石景林东路7号,细颗粒物(PM2.5),59,64,42,42,30,42,42,22,19,25,18,10,7,0.9,0.8
2025-12-09T1100,2298A,118.3093,32.3153,滁州市,老年大学,颗粒物(PM10),67,84,71,25,30,50,50,16,16,27,33,16,15,0.4,0.4
2025-12-09T1100,2299A,118.3244,32.2786,滁州市,人大宾馆,颗粒物(PM10),69,87,72,24,26,62,62,21,21,27,33,9,7,0.5,0.4
2025-12-09T1100,3207A,118.3118,32.3038,滁州市,市政府原办公楼,,,,70,,29,,,56,,,40,,6,,0.4
2025-12-09T1100,3331A,118.3267,32.2634,滁州市,图书馆,颗粒物(PM10),63,75,66,23,22,64,64,19,19,29,39,11,9,0.3,0.4
2025-12-09T1100,2605A,101.5482,25.0441,楚雄彝族自治州,州环境监测站,,33,23,25,23,20,36,36,9,9,11,18,6,7,0.7,0.7
2025-12-09T1100,2606A,101.538,25.0492,楚雄彝族自治州,市经济开发区,,32,27,32,22,24,32,32,8,8,11,17,5,6,0.7,0.8
2025-12-09T1100,2548A,107.5277,31.2827,达州市,达州职业技术学院,,,,,,,,,,,,,,,,
2025-12-09T1100,2549A,107.5086,31.2186,达州市,市环境监测站,细颗粒物(PM2.5),138,146,120,105,91,2,2,1,1,28,28,10,10,1.6,1.2
2025-12-09T1100,2550A,107.4988,31.2132,达州市,凤凰小区,细颗粒物(PM2.5),138,153,129,105,93,4,4,3,3,32,31,9,10,1.5,1.1
2025-12-09T1100,2551A,107.5082,31.1986,达州市,达县机关宾馆,细颗粒物(PM2.5),139,156,134,106,98,3,3,2,2,39,30,7,7,1.5,1.2
2025-12-09T1100,2552A,107.4644,31.2124,达州市,市政中心,细颗粒物(PM2.5),153,166,155,117,100,3,3,3,3,35,35,9,9,1.5,1.2
2025-12-09T1100,2614A,100.1542,25.7054,大理白族自治州,大理市环境监测站,,35,,18,24,20,58,58,59,56,9,9,6,6,0.7,0.6
2025-12-09T1100,2615A,100.2171,25.5811,大理白族自治州,大理古城,,25,25,23,10,14,65,65,57,55,8,12,8,7,0.4,0.4
2025-12-09T1100,1109A,121.612,38.9741,大连市,甘井子,,38,33,30,26,13,54,54,41,36,31,33,15,12,0.3,0.3
2025-12-09T1100,1110A,121.565,38.9511,大连市,周水子,,38,38,28,25,14,68,68,61,51,31,34,12,10,0.5,0.5
2025-12-09T1100,1111A,121.5637,38.8845,大连市,星海三站,,,31,24,26,12,,,44,35,27,23,11,8,0.6,0.3
2025-12-09T1100,1112A,121.6302,38.9117,大连市,青泥洼桥,,39,39,29,17,13,49,49,47,41,30,29,10,9,0.6,0.5
2025-12-09T1100,1113A,121.6251,38.8638,大连市,傅家庄,,31,31,23,19,9,52,52,44,43,20,17,12,15,0.5,0.4
2025-12-09T1100,1114A,121.5213,38.8661,大连市,七贤岭,,,34,28,21,12,,,28,20,20,20,12,8,0.8,0.7
2025-12-09T1100,1115A,121.2529,38.8061,大连市,旅顺,,38,38,28,24,14,48,48,43,38,19,17,7,11,0.4,0.3
2025-12-09T1100,1116A,121.7485,39.1311,大连市,金州,,44,44,35,29,19,39,39,41,34,35,26,14,10,0.4,0.4
2025-12-09T1100,1117A,121.7811,39.0496,大连市,开发区,,42,39,34,29,18,35,35,20,17,42,39,16,12,0.5,0.4
2025-12-09T1100,1118A,121.9762,39.0631,大连市,双D港,,48,48,28,18,10,61,61,53,53,28,21,16,12,0.5,0.4
2025-12-09T1100,1789A,124.81117,46.03138,大庆市,大同区,,39,39,39,24,18,34,34,25,25,11,17,6,5,0.7,0.7
2025-12-09T1100,1790A,125.129,46.533,大庆市,龙凤区,,,50,36,32,21,27,27,25,19,27,20,8,6,,0.4
2025-12-09T1100,1791A,124.902,46.408,大庆市,红岗区,,,78,35,13,18,,,24,21,22,25,,6,0.7,0.6
2025-12-09T1100,1792A,125.153,46.586,大庆市,萨尔图区,,50,50,35,20,13,25,25,31,24,32,24,9,6,0.9,0.8
2025-12-09T1100,1793A,124.9042,46.6215,大庆市,让胡路区,,40,40,34,26,24,33,33,36,30,20,13,8,7,0.7,0.4
2025-12-09T1100,3481A,125.141,46.634,大庆市,萨区政府监测点,,37,37,34,12,8,25,25,23,17,29,27,10,8,0.4,0.5
2025-12-09T1100,1721A,113.3819,40.1097,大同市,果树场,颗粒物(PM10),79,107,75,51,39,29,29,11,11,46,49,35,17,1.2,1.5
2025-12-09T1100,1723A,113.2994,40.0758,大同市,云冈宾馆,颗粒物(PM10),80,109,87,32,29,27,27,8,8,43,44,41,16,1.0,1
2025-12-09T1100,1724A,113.3444,40.0917,大同市,大同大学,,,,67,,9,16,16,21,21,44,47,30,12,0.8,0.8
2025-12-09T1100,1725A,113.2661,40.1269,大同市,安家小村,颗粒物(PM10),107,163,78,49,31,,,11,6,44,42,56,22,3.4,2.1
2025-12-09T1100,1726A,113.2711,40.0844,大同市,教育学院,颗粒物(PM10),81,112,82,45,36,29,29,8,8,40,45,42,19,1.3,1.2
2025-12-09T1100,3282A,113.3397,40.0597,大同市,大同市卫生学校,颗粒物(PM10),67,83,70,42,32,20,20,10,10,49,47,38,16,0.8,0.6
2025-12-09T1100,3565A,113.1367,40.1122,大同市,云冈站,"颗粒物(PM10),细颗粒物(PM2.5)",75,100,70,55,25,22,22,6,6,38,35,64,19,0.9,0.7
2025-12-09T1100,3566A,113.1186,40.2556,大同市,图书馆,细颗粒物(PM2.5),102,,51,76,26,36,36,15,15,26,24,34,9,1.1,0.8
2025-12-09T1100,3567A,113.5931,40.0461,大同市,区一中,颗粒物(PM10),94,137,83,24,30,54,54,31,31,27,34,64,27,0.9,0.9
2025-12-09T1100,4199A,113.2798,40.0997,大同市,魏都大道141号,颗粒物(PM10),88,126,90,48,36,23,23,9,9,53,51,41,16,1.5,1.6
2025-12-09T1100,2269A,124.1069,50.4097,大兴安岭地区,科技局,,13,13,19,6,17,30,30,30,28,6,10,5,6,0.3,0.3
2025-12-09T1100,3663A,124.1164,50.4278,大兴安岭地区,红旗社区,,31,31,24,9,17,23,23,18,17,26,26,10,9,0.5,0.5
2025-12-09T1100,1600A,124.3303,40.0625,丹东市,江湾东路,"颗粒物(PM10),细颗粒物(PM2.5)",54,57,68,38,48,33,33,12,12,29,35,19,20,1.3,1.8
2025-12-09T1100,1601A,124.4256,40.1503,丹东市,临江后街,颗粒物(PM10),53,56,72,34,41,22,22,8,8,26,25,16,11,0.9,1.1
2025-12-09T1100,1602A,124.3933,40.1461,丹东市,元宝山,颗粒物(PM10),60,70,51,39,35,28,28,16,14,24,21,11,9,0.9,1
2025-12-09T1100,1603A,124.3633,40.1092,丹东市,民主桥,,48,48,71,22,45,32,32,15,15,27,35,13,8,0.8,1.2
2025-12-09T1100,3541A,109.5726,19.5167,儋州市,第一中学子站,细颗粒物(PM2.5),58,58,61,41,43,98,98,94,86,9,10,4,5,0.6,0.6
2025-12-09T1100,3542A,109.5567,19.5187,儋州市,东坡学校子站,颗粒物(PM10),54,57,59,33,39,114,114,94,86,8,10,5,8,0.6,0.7
2025-12-09T1100,2616A,98.5842,24.428,德宏傣族景颇族自治州,德宏州监测站,细颗粒物(PM2.5),59,65,46,42,34,31,31,10,10,20,23,10,10,0.7,0.7
2025-12-09T1100,3677A,98.5881,24.4368,德宏傣族景颇族自治州,芒市人民政府综合楼,,,,40,44,27,,,20,14,25,17,8,9,0.8,0.7
2025-12-09T1100,1901A,104.4239,31.1208,德阳市,东山公园,细颗粒物(PM2.5),139,122,112,106,94,4,4,2,2,47,45,3,2,1.3,1.1
2025-12-09T1100,1902A,104.3826,31.1317,德阳市,西小区,细颗粒物(PM2.5),139,149,138,106,103,8,8,3,3,51,45,7,6,1.0,1
2025-12-09T1100,1904A,104.3553,31.1091,德阳市,耐火材料厂,细颗粒物(PM2.5),166,157,128,126,103,3,3,2,2,58,50,6,4,1.3,1.1
2025-12-09T1100,3639A,104.4019,31.1244,德阳市,市教育局,细颗粒物(PM2.5),147,124,109,112,95,,,2,1,56,49,3,2,1.2,1.1
2025-12-09T1100,1622A,116.3032,37.4674,德州市,儿童乐园,"颗粒物(PM10),细颗粒物(PM2.5)",104,158,92,78,42,30,30,13,13,51,47,22,16,1.2,0.9
2025-12-09T1100,1624A,116.2991,37.4451,德州市,监理站,细颗粒物(PM2.5),113,161,88,85,40,38,38,22,22,53,50,23,17,1.0,0.7
2025-12-09T1100,3066A,116.2721,37.4379,德州市,九衢泉纯净水厂,细颗粒物(PM2.5),110,151,92,83,45,29,29,10,10,52,58,24,19,1.4,1.2
2025-12-09T1100,3371A,116.3728,37.4403,德州市,开发区人民医院,细颗粒物(PM2.5),110,149,92,83,44,30,30,15,15,59,55,25,20,1.2,0.9
2025-12-09T1100,3511A,116.5652,37.3319,德州市,陵城艺术中心,颗粒物(PM10),98,146,102,68,43,26,26,8,8,48,53,18,24,0.9,0.8
2025-12-09T1100,4292A,116.3525,37.4209,德州市,新河东路,细颗粒物(PM2.5),134,156,94,102,50,19,19,8,8,67,64,26,20,1.0,0.7
2025-12-09T1100,2621A,99.7056,27.8317,迪庆藏族自治州,迪庆州站,"颗粒物(PM10),细颗粒物(PM2.5)",75,100,33,55,23,68,68,50,48,42,15,7,5,1.6,0.8
2025-12-09T1100,3180A,99.7136,27.8094,迪庆藏族自治州,质量技术监督局,,,83,32,56,24,65,65,49,46,37,17,,7,1.0,0.7
2025-12-09T1100,4257A,104.6092,35.5962,定西市,将台街,细颗粒物(PM2.5),95,117,75,71,45,18,18,7,7,39,35,21,13,1.7,0.8
2025-12-09T1100,4309A,104.6159,35.5701,定西市,正龙路62号,细颗粒物(PM2.5),73,94,84,53,48,28,28,17,14,20,20,20,18,1.1,1.1
2025-12-09T1100,1389A,113.7547,23.0494,东莞市,莞城梨川,细颗粒物(PM2.5),60,57,51,43,35,98,98,57,57,30,32,9,6,0.6,0.5
2025-12-09T1100,1390A,113.7944,23.0128,东莞市,东城石井,细颗粒物(PM2.5),53,51,45,37,34,110,110,66,66,20,26,11,9,0.7,0.6
2025-12-09T1100,1391A,113.7383,22.9658,东莞市,南城西平,颗粒物(PM10),51,52,53,34,32,101,101,32,32,28,60,10,9,0.8,0.7
2025-12-09T1100,3319A,113.7338,23.0381,东莞市,万江金泰,细颗粒物(PM2.5),57,60,53,40,35,100,100,57,57,28,26,10,6,0.7,0.7
2025-12-09T1100,3626A,113.7533,23.0202,东莞市,南城元岭,细颗粒物(PM2.5),54,54,50,38,32,114,114,80,80,24,27,11,9,0.7,0.6
2025-12-09T1100,3627A,113.7875,23.0457,东莞市,东城主山,细颗粒物(PM2.5),62,64,55,44,37,110,110,69,69,26,36,11,7,0.7,0.6
2025-12-09T1100,1666A,118.6614,37.4309,东营市,市环保局,细颗粒物(PM2.5),92,122,57,68,30,27,27,10,10,55,42,31,32,1.3,0.9
2025-12-09T1100,3036A,118.6904,37.4338,东营市,开发区管委会,颗粒物(PM10),103,156,63,73,30,31,31,15,15,55,37,46,26,0.9,0.6
2025-12-09T1100,3365A,118.5719,37.565,东营市,垦利区民丰路,"颗粒物(PM10),细颗粒物(PM2.5)",85,119,57,63,27,30,30,10,10,58,41,12,10,0.9,0.7
2025-12-09T1100,3498A,118.5055,37.8612,东营市,河口城区,细颗粒物(PM2.5),170,,55,129,29,40,40,19,16,57,38,11,9,0.9,0.8
2025-12-09T1100,3646A,118.4978,37.4623,东营市,胜利站,,,,45,,26,,,42,,,54,,21,,0.8
2025-12-09T1100,3734A,118.35,37.26,东营市,理想之城,细颗粒物(PM2.5),104,144,65,78,33,21,21,5,5,52,41,17,31,1.1,0.7
2025-12-09T1100,1591A,110.0023,39.8129,鄂尔多斯市,综合楼,颗粒物(PM10),53,56,39,27,17,50,50,39,39,32,35,14,15,0.6,0.6
2025-12-09T1100,1592A,109.9486,39.8261,鄂尔多斯市,巴音孟克林场办事处,颗粒物(PM10),53,56,40,34,18,47,47,58,54,36,22,16,13,0.4,0.4
2025-12-09T1100,1593A,109.7736,39.5986,鄂尔多斯市,康泽苑,颗粒物(PM10),56,61,42,22,20,34,34,29,16,30,28,11,9,0.7,0.5
2025-12-09T1100,1594A,109.8119,39.5989,鄂尔多斯市,华泰汽车城,,,,44,,19,,,5,5,33,37,7,6,0.6,0.8
2025-12-09T1100,1595A,109.9734,39.7884,鄂尔多斯市,奥林花园,颗粒物(PM10),57,63,60,19,21,44,44,17,17,32,53,14,10,0.5,0.5
2025-12-09T1100,2436A,114.8938,30.3994,鄂州市,市政府,细颗粒物(PM2.5),94,104,112,70,93,55,55,28,28,37,52,19,13,0.9,1
2025-12-09T1100,2437A,114.8989,30.3714,鄂州市,赵家坝,细颗粒物(PM2.5),94,134,121,70,89,48,48,22,22,38,45,18,13,1.0,1
2025-12-09T1100,3654A,114.8094,30.4089,鄂州市,精准医疗中心,细颗粒物(PM2.5),114,116,119,86,97,54,54,20,20,44,45,20,8,1.2,1.1
2025-12-09T1100,2454A,109.4978,30.2981,恩施土家族苗族自治州,湖北民院,细颗粒物(PM2.5),84,67,64,62,55,26,26,26,22,20,16,7,7,0.9,0.8
2025-12-09T1100,2455A,109.4707,30.2798,恩施土家族苗族自治州,州电力总公司,细颗粒物(PM2.5),88,91,75,65,58,8,8,13,12,34,31,6,6,0.7,0.6
2025-12-09T1100,3549A,109.5061,30.3772,恩施土家族苗族自治州,龙凤新区,细颗粒物(PM2.5),73,71,64,53,44,24,24,16,13,15,9,6,6,0.5,0.5
2025-12-09T1100,2499A,108.3411,21.6158,防城港市,沙万,细颗粒物(PM2.5),67,75,66,48,43,82,82,71,70,17,17,7,6,0.9,0.8
2025-12-09T1100,2500A,108.3514,21.7731,防城港市,防城档案局,"颗粒物(PM10),细颗粒物(PM2.5)",67,83,89,48,46,77,77,60,60,15,18,8,5,0.9,0.8
2025-12-09T1100,2501A,108.3506,21.6414,防城港市,大海花园,细颗粒物(PM2.5),70,77,62,51,45,84,84,80,78,17,14,9,7,0.9,0.7
2025-12-09T1100,1371A,113.1294,23.0067,佛山市,湾梁,颗粒物(PM10),56,61,58,34,34,87,87,57,57,32,33,8,8,0.7,0.7
2025-12-09T1100,1372A,113.1083,23.0478,佛山市,华材职中,颗粒物(PM10),62,73,65,43,43,85,85,44,44,38,47,8,7,0.7,0.7
2025-12-09T1100,1373A,113.144,23.0453,佛山市,南海气象局,颗粒物(PM10),56,61,56,35,37,83,83,51,51,36,39,9,8,0.9,0.9
2025-12-09T1100,1374A,113.2881,22.8094,佛山市,顺德苏岗,,50,50,53,34,35,78,78,40,40,40,42,9,7,0.7,0.7
2025-12-09T1100,1376A,112.8383,22.8678,佛山市,高明孔堂,细颗粒物(PM2.5),62,65,63,44,47,88,88,48,48,33,35,10,7,0.7,0.7
2025-12-09T1100,1377A,112.8836,23.1588,佛山市,三水监测站,颗粒物(PM10),56,61,66,39,43,83,83,51,51,25,33,8,8,0.7,0.7
2025-12-09T1100,1378A,112.867,23.185,佛山市,三水云东海,细颗粒物(PM2.5),58,60,61,41,43,87,87,36,36,27,37,8,6,0.8,0.9
2025-12-09T1100,3625A,113.2544,22.7642,佛山市,容桂街道办,细颗粒物(PM2.5),55,56,54,39,38,77,77,50,50,42,43,8,6,0.6,0.6
2025-12-09T1100,1280A,119.3903,26.0543,福州市,鼓山,,,,46,,24,,,120,,,12,,2,,0.7
2025-12-09T1100,1282A,119.2681,26.0504,福州市,师大,颗粒物(PM10),55,60,53,19,34,90,90,98,89,17,17,8,7,0.4,0.5
2025-12-09T1100,1283A,119.2984,26.1028,福州市,五四北路,颗粒物(PM10),56,62,48,18,34,93,93,109,97,17,18,6,6,0.5,0.5
2025-12-09T1100,1284A,119.2648,26.0768,福州市,杨桥西路,颗粒物(PM10),52,54,52,15,34,96,96,97,87,11,15,6,5,0.4,0.5
2025-12-09T1100,1285A,119.317,26.0746,福州市,紫阳,,,70,55,17,33,94,94,112,101,,16,10,8,0.5,0.5
2025-12-09T1100,3048A,119.5799,26.0936,福州市,九龙,,,,49,16,29,88,88,106,96,16,11,,4,0.5,0.5
2025-12-09T1100,3526A,119.5189,25.9664,福州市,吴航,,38,38,48,18,28,91,91,106,96,14,12,9,8,0.7,0.6
2025-12-09T1100,1755A,123.7977,41.8491,抚顺市,望花区,细颗粒物(PM2.5),74,84,62,54,39,31,31,11,11,32,38,15,10,1.2,1.1
2025-12-09T1100,1756A,123.9161,41.8822,抚顺市,顺城区,颗粒物(PM10),70,90,64,43,41,18,18,7,7,52,40,13,12,1.3,1.1
2025-12-09T1100,1757A,124.0436,41.8611,抚顺市,东洲区,颗粒物(PM10),71,92,48,47,31,27,27,10,10,40,34,16,11,1.2,0.9
2025-12-09T1100,1758A,123.9247,41.8642,抚顺市,新抚区,"颗粒物(PM10),细颗粒物(PM2.5)",72,93,61,52,37,22,22,6,6,36,32,13,9,1.4,1
2025-12-09T1100,1759A,124.0972,41.8961,抚顺市,大伙房水库,,,69,39,49,25,,,28,24,34,26,18,13,1.4,1
2025-12-09T1100,1760A,123.7086,41.8391,抚顺市,沈抚新城,细颗粒物(PM2.5),93,100,58,69,38,30,30,15,15,42,40,19,11,1.2,1.1
2025-12-09T1100,2376A,116.2127,28.0814,抚州市,桐源党溪,,,,,,,,,,,,,,,,
2025-12-09T1100,2377A,116.3544,27.9831,抚州市,市站,细颗粒物(PM2.5),87,98,96,64,65,91,91,72,65,23,20,15,10,1.4,1.1
2025-12-09T1100,2378A,116.3565,27.963,抚州市,血防站,细颗粒物(PM2.5),99,96,97,74,66,96,96,72,65,21,20,9,8,0.8,0.8
2025-12-09T1100,2379A,116.3564,28.0007,抚州市,采茶剧团,细颗粒物(PM2.5),98,100,98,73,69,79,79,66,57,15,11,13,8,1.2,1.3
2025-12-09T1100,2380A,116.385,27.9647,抚州市,医学分院,细颗粒物(PM2.5),87,105,100,64,65,89,89,75,67,15,17,9,9,1.3,1.4
2025-12-09T1100,2207A,121.6094,41.998,阜新市,工业园区,,41,28,63,23,35,48,48,35,35,20,25,13,17,4.1,0.7
2025-12-09T1100,2208A,121.6697,42.0279,阜新市,长青街,,25,25,37,12,31,52,52,21,21,13,27,11,17,1.3,0.7
2025-12-09T1100,2209A,121.6673,42.0705,阜新市,农业园区,,37,37,44,12,22,49,49,39,39,12,19,10,16,1.6,0.5
2025-12-09T1100,2210A,121.6717,42.0224,阜新市,东苑,,32,32,50,18,28,50,50,24,24,15,28,15,26,0.7,0.7
2025-12-09T1100,2211A,121.6506,42.0498,阜新市,玉龙新城,,25,25,48,8,24,50,50,30,30,13,26,10,14,1.5,0.6
2025-12-09T1100,2301A,115.8277,32.8929,阜阳市,市监测站,,,,102,,53,,,20,20,28,37,,6,,0.6
2025-12-09T1100,2303A,115.8554,32.8605,阜阳市,开发区,颗粒物(PM10),65,80,99,33,49,50,50,26,26,30,38,10,7,0.6,0.6
2025-12-09T1100,2875A,115.784,32.8892,阜阳市,阜阳职业技术学院,颗粒物(PM10),57,64,81,29,41,65,65,42,42,22,28,10,8,0.6,0.6
2025-12-09T1100,3468A,115.7901,32.8613,阜阳市,市规划展馆,颗粒物(PM10),79,108,96,55,50,56,56,33,33,27,31,10,9,0.7,0.6
2025-12-09T1100,3469A,115.836,32.9183,阜阳市,枣园社区,颗粒物(PM10),74,97,102,43,52,53,53,31,31,28,36,8,6,0.7,0.7
2025-12-09T1100,2669A,102.9099,34.9841,甘南藏族自治州,州政府,颗粒物(PM10),78,106,57,55,36,20,20,22,18,50,31,12,9,1.4,0.8
2025-12-09T1100,3380A,102.8914,34.9617,甘南藏族自治州,甘肃民族师范学院,颗粒物(PM10),81,112,75,56,36,18,18,20,15,49,36,34,8,1.2,0.8
2025-12-09T1100,2570A,101.9603,30.0475,甘孜藏族自治州,水桥子,,34,34,25,15,12,30,30,56,45,36,15,8,8,0.7,0.5
2025-12-09T1100,3065A,101.9533,29.9972,甘孜藏族自治州,州环保局,,24,24,25,3,5,52,52,54,50,15,15,6,6,0.4,0.4
2025-12-09T1100,3414A,115.8347,28.932,赣江新区,桑海产业园,细颗粒物(PM2.5),87,107,139,64,88,85,85,62,50,33,36,16,14,0.8,0.8
2025-12-09T1100,2362A,114.9017,25.9149,赣州市,通天岩,颗粒物(PM10),59,67,53,38,35,96,96,59,59,16,8,17,17,1.0,1
2025-12-09T1100,2363A,114.9367,25.8664,赣州市,地委,"颗粒物(PM10),细颗粒物(PM2.5)",69,88,67,50,44,78,78,42,42,29,25,10,10,0.9,0.9
2025-12-09T1100,2364A,114.9461,25.8481,赣州市,气象台,颗粒物(PM10),69,88,79,48,40,101,101,41,41,27,32,10,10,1.0,1.1
2025-12-09T1100,2365A,114.9322,25.8333,赣州市,市图书馆,细颗粒物(PM2.5),78,97,67,57,42,77,77,39,38,35,28,8,6,0.8,0.7
2025-12-09T1100,2366A,114.8905,25.8471,赣州市,华坚鞋城,颗粒物(PM10),68,85,67,45,37,82,82,57,47,30,28,7,6,0.6,0.5
2025-12-09T1100,3109A,115.0093,25.8613,赣州市,赣县区卫计委,细颗粒物(PM2.5),80,95,57,59,55,62,62,38,37,35,22,12,10,1.0,1
2025-12-09T1100,2683A,106.2319,36.1417,固原市,马园,,,,,,,,,,,,,,,,
2025-12-09T1100,2684A,106.2792,36.0022,固原市,监测站,,47,47,45,31,30,66,66,33,33,22,39,6,6,0.5,0.8
2025-12-09T1100,2685A,106.2375,36.0211,固原市,新区,,45,45,55,28,36,69,69,33,33,26,44,5,4,0.6,0.9
2025-12-09T1100,3522A,106.2177,35.9959,固原市,原州区十五小,颗粒物(PM10),51,51,41,28,23,63,63,65,64,24,19,8,6,0.8,0.5
2025-12-09T1100,2543A,106.6308,30.5278,广安市,小平旧居,,,,,,,,,,,,,,,,
2025-12-09T1100,2544A,106.6303,30.4576,广安市,市委,细颗粒物(PM2.5),120,135,109,91,92,,,5,5,31,29,4,3,1.1,1
2025-12-09T1100,2545A,106.6271,30.4663,广安市,友谊中学,细颗粒物(PM2.5),122,113,105,92,86,3,3,3,3,22,23,9,8,1.2,1
2025-12-09T1100,2547A,106.6388,30.4551,广安市,广电花园,细颗粒物(PM2.5),132,,84,100,88,4,4,4,4,26,24,3,3,1.0,0.9
2025-12-09T1100,2902A,106.6351,30.4865,广安市,北辰小学,细颗粒物(PM2.5),122,117,102,92,87,7,7,6,6,23,21,14,14,1.4,1.1
2025-12-09T1100,2523A,105.8945,32.4535,广元市,黑石坡,,,,,,,,,,,,,,,,
2025-12-09T1100,2524A,105.821,32.4444,广元市,老城,细颗粒物(PM2.5),69,73,81,50,59,9,9,7,7,34,43,10,11,1.5,1.4
2025-12-09T1100,2526A,105.8628,32.4287,广元市,监测站,细颗粒物(PM2.5),85,73,68,63,65,4,4,3,3,38,38,7,6,1.9,2
2025-12-09T1100,3617A,105.8047,32.4166,广元市,经开区,细颗粒物(PM2.5),90,100,105,67,73,1,1,1,1,36,38,6,10,1.5,1.4
2025-12-09T1100,1345A,113.2347,23.1423,广州市,广雅中学,"颗粒物(PM10),细颗粒物(PM2.5)",58,66,69,41,43,85,85,61,61,24,38,8,8,0.8,0.8
2025-12-09T1100,1346A,113.2612,23.105,广州市,市五中,细颗粒物(PM2.5),54,48,51,38,39,102,102,86,86,20,25,8,8,0.7,0.7
2025-12-09T1100,1348A,113.3478,23.0916,广州市,广东商学院,细颗粒物(PM2.5),52,50,53,36,36,63,63,48,48,24,29,7,7,0.7,0.7
2025-12-09T1100,1349A,113.4332,23.1047,广州市,市八十六中,,49,48,47,34,36,85,85,50,50,26,34,8,7,1.1,1
2025-12-09T1100,1350A,113.3505,22.9483,广州市,番禺中学,细颗粒物(PM2.5),60,65,57,43,37,81,81,56,56,41,35,8,6,0.4,0.4
2025-12-09T1100,1351A,113.2146,23.3916,广州市,花都师范,"颗粒物(PM10),细颗粒物(PM2.5)",54,58,54,38,35,104,104,98,95,26,22,9,8,0.6,0.6
2025-12-09T1100,1352A,113.2597,23.1331,广州市,市监测站,,,54,58,,38,97,97,82,82,26,35,9,8,0.7,0.7
2025-12-09T1100,1353A,113.5618,23.312,广州市,九龙镇镇龙,颗粒物(PM10),51,52,57,35,39,81,81,45,45,19,29,6,6,0.6,0.6
2025-12-09T1100,1354A,113.2765,23.1544,广州市,麓湖,,,55,50,36,36,86,86,39,39,21,40,,8,0.7,0.8
2025-12-09T1100,1355A,113.443,23.3035,广州市,帽峰山森林公园,,,,,,,,,,,,,,,,
2025-12-09T1100,2846A,113.3221,23.1322,广州市,体育西,细颗粒物(PM2.5),52,46,53,36,40,88,88,66,66,23,29,9,9,0.6,0.7
2025-12-09T1100,3298A,113.5717,23.5491,广州市,从化街口,细颗粒物(PM2.5),63,62,54,45,39,86,86,47,47,25,36,9,8,0.8,0.8
2025-12-09T1100,3299A,113.3472,23.3692,广州市,白云竹料,细颗粒物(PM2.5),55,58,56,39,39,99,99,68,68,22,26,6,5,0.7,0.7
2025-12-09T1100,3300A,113.2981,23.237,广州市,白云嘉禾,细颗粒物(PM2.5),60,65,67,43,42,94,94,65,65,34,46,9,8,0.7,0.7
2025-12-09T1100,3301A,113.4256,23.1716,广州市,黄埔科学城,,50,46,47,35,35,98,98,74,74,20,20,7,6,0.7,0.7
2025-12-09T1100,3302A,113.3942,23.0483,广州市,番禺大学城,细颗粒物(PM2.5),54,55,55,38,35,90,90,51,51,37,37,11,10,0.7,0.6
2025-12-09T1100,3303A,113.4922,22.8168,广州市,南沙黄阁,,,63,64,46,41,92,92,35,35,43,50,,10,0.8,0.8
2025-12-09T1100,3304A,113.5342,22.7896,广州市,南沙街,细颗粒物(PM2.5),60,67,64,43,40,85,85,35,35,42,48,9,8,0.7,0.7
2025-12-09T1100,3443A,113.2902,23.5544,广州市,花都梯面,,48,47,55,33,37,114,114,75,72,10,25,12,8,0.6,0.7
2025-12-09T1100,3445A,113.7858,23.7478,广州市,从化良口,,,40,37,31,31,,,58,53,12,12,8,6,0.7,0.6
2025-12-09T1100,3446A,113.8051,23.2614,广州市,增城荔城,细颗粒物(PM2.5),54,45,43,38,33,99,99,83,82,12,15,9,7,0.7,0.7
2025-12-09T1100,2505A,109.568,23.1478,贵港市,德智高中,,,,,,,,,,,,,,,,
2025-12-09T1100,2506A,109.6047,23.0666,贵港市,江南子站,细颗粒物(PM2.5),78,78,102,57,77,74,74,20,20,22,33,9,7,0.9,0.8
2025-12-09T1100,2508A,109.5669,23.1065,贵港市,荷城子站,细颗粒物(PM2.5),79,80,73,58,55,63,63,55,43,27,20,11,6,1.0,0.9
2025-12-09T1100,3405A,109.5886,23.1172,贵港市,新世纪学校,,,85,78,67,56,68,68,70,57,,15,,2,0.6,0.6
2025-12-09T1100,4260A,109.5933,23.0951,贵港市,中山路155-3号,细颗粒物(PM2.5),77,74,83,56,57,77,77,41,41,20,24,10,7,0.6,0.7
2025-12-09T1100,1439A,106.6899,26.5998,贵阳市,马鞍山,,44,44,46,29,31,32,32,32,29,28,18,8,6,0.7,0.6
2025-12-09T1100,1441A,106.6243,26.6266,贵阳市,鉴湖路,颗粒物(PM10),52,53,55,24,30,50,50,58,49,26,22,9,6,0.6,0.6
2025-12-09T1100,1442A,106.7487,26.6343,贵阳市,燕子冲,细颗粒物(PM2.5),62,48,48,44,43,40,40,63,60,31,16,12,9,0.6,0.4
2025-12-09T1100,1443A,106.6555,26.4365,贵阳市,碧云窝,颗粒物(PM10),51,51,58,27,34,59,59,55,55,13,17,11,12,0.5,0.6
2025-12-09T1100,1445A,106.7109,26.6027,贵阳市,红边门,细颗粒物(PM2.5),62,56,53,44,40,23,23,51,38,42,23,20,15,0.8,0.6
2025-12-09T1100,1446A,106.7164,26.5699,贵阳市,新华路,颗粒物(PM10),62,73,59,39,38,35,35,54,41,33,21,11,10,0.6,0.5
2025-12-09T1100,1447A,106.674,26.5424,贵阳市,太慈桥,颗粒物(PM10),56,61,47,31,34,48,48,54,45,26,22,8,7,0.4,0.3
2025-12-09T1100,1552A,106.805,26.3003,贵阳市,桐木岭,细颗粒物(PM2.5),58,61,56,41,39,73,73,79,78,4,5,1,1,0.6,0.7
2025-12-09T1100,4230A,106.6882,26.5695,贵阳市,花果园大街66号,细颗粒物(PM2.5),54,,40,38,39,45,45,57,47,28,23,7,5,0.5,0.5
2025-12-09T1100,4231A,106.6873,26.5169,贵阳市,漓江路57号,细颗粒物(PM2.5),55,48,41,39,35,42,42,50,43,28,27,15,9,0.7,0.7
2025-12-09T1100,1862A,110.4144,25.3167,桂林市,电子科大尧山校区,,,,,,,,,,,,,,,,
2025-12-09T1100,1864A,110.3089,25.2708,桂林市,龙隐路小学,细颗粒物(PM2.5),114,88,64,86,59,92,92,87,82,25,20,9,8,0.6,0.5
2025-12-09T1100,1865A,110.2869,25.2178,桂林市,八中,细颗粒物(PM2.5),107,92,66,80,58,80,80,75,64,24,21,10,9,0.7,0.7
2025-12-09T1100,3531A,110.296,25.1253,桂林市,旅游学院,细颗粒物(PM2.5),92,80,61,68,49,88,88,38,31,17,25,6,5,0.6,0.6
2025-12-09T1100,4222A,110.1835,25.2444,桂林市,环湖路276号,细颗粒物(PM2.5),107,105,70,80,55,70,70,63,58,27,18,8,8,0.4,0.4
2025-12-09T1100,4301A,110.2803,25.2773,桂林市,信义路13号,细颗粒物(PM2.5),102,84,69,76,52,93,93,89,86,18,15,7,6,0.9,0.8
2025-12-09T1100,2674A,100.2561,34.4714,果洛藏族自治州,玛沁县大武镇,,,48,44,3,7,,,30,26,12,6,18,13,0.6,0.4
2025-12-09T1100,1129A,126.5422,45.755,哈尔滨市,岭北,,,,,,,,,,,,,,,,
2025-12-09T1100,1130A,126.561,45.8167,哈尔滨市,松北商大,,36,36,47,22,28,45,45,22,22,11,29,10,8,0.5,0.6
2025-12-09T1100,1131A,126.979,45.5419,哈尔滨市,阿城会宁,细颗粒物(PM2.5),78,68,50,57,40,27,27,11,11,32,30,16,8,1.0,0.7
2025-12-09T1100,1132A,126.599,45.7222,哈尔滨市,南岗学府路,,28,28,49,15,26,30,30,22,22,23,25,35,13,0.4,0.6
2025-12-09T1100,1133A,126.689,45.7733,哈尔滨市,太平宏伟公园,,44,44,47,27,29,42,42,33,33,14,16,40,18,0.5,0.6
2025-12-09T1100,1134A,126.635,45.7667,哈尔滨市,道外承德广场,,,32,62,23,27,,,30,30,18,20,19,10,0.4,0.4
2025-12-09T1100,1135A,126.685,45.7319,哈尔滨市,香坊红旗大街,,31,31,53,18,25,45,45,38,38,12,16,16,15,0.6,0.7
2025-12-09T1100,1136A,126.6411,45.7258,哈尔滨市,动力和平路,,32,32,49,18,25,39,39,29,29,16,23,22,12,0.7,0.8
2025-12-09T1100,1137A,126.593,45.7478,哈尔滨市,道里建国路,,39,39,45,27,30,39,39,24,24,14,22,32,7,0.5,0.7
2025-12-09T1100,1138A,126.615,45.61,哈尔滨市,平房东轻厂,,38,,46,26,30,40,40,14,14,19,39,11,14,0.6,0.8
2025-12-09T1100,1139A,126.595,45.9855,哈尔滨市,呼兰师专,颗粒物(PM10),53,55,76,32,67,36,36,24,24,12,28,6,8,0.7,0.8
2025-12-09T1100,1140A,126.6206,45.6842,哈尔滨市,省农科院,,28,28,51,16,31,43,43,25,25,16,35,17,18,0.5,0.9
2025-12-09T1100,2688A,93.5128,42.8172,哈密市,地区监测站,细颗粒物(PM2.5),93,103,90,69,58,21,21,22,22,46,40,16,12,1.0,0.9
2025-12-09T1100,2689A,93.4961,42.8328,哈密市,哈密师范学校,颗粒物(PM10),63,76,72,34,34,19,19,15,15,42,43,24,17,1.3,1.4
2025-12-09T1100,2671A,100.9048,36.9639,海北藏族自治州,海晏县西海镇,,42,42,27,28,18,56,56,52,49,15,9,15,13,0.7,0.5
2025-12-09T1100,3867A,102.0738,36.5056,海东市,平安区公安北苑,细颗粒物(PM2.5),115,131,80,87,56,20,20,33,25,55,29,36,28,2.6,1.3
2025-12-09T1100,1409A,110.576,19.9507,海口市,东寨港,,,,,,,,,,,,,,,,
2025-12-09T1100,1410A,110.3232,20.0574,海口市,海南大学,颗粒物(PM10),53,55,47,36,32,112,112,121,118,12,12,9,8,0.6,0.5
2025-12-09T1100,1411A,110.283,20.0053,海口市,秀英海南医院,细颗粒物(PM2.5),53,53,54,37,31,108,108,114,111,12,13,10,9,0.4,0.4
2025-12-09T1100,1412A,110.338,19.9969,海口市,海南师范大学,颗粒物(PM10),53,56,53,35,33,115,115,121,120,13,14,8,8,0.7,0.6
2025-12-09T1100,1413A,110.33,20.0356,海口市,龙华路环保局宿舍,,,56,54,38,34,113,113,122,122,13,14,,9,0.7,0.8
2025-12-09T1100,3539A,110.5111,19.9736,海口市,桂林洋子站,细颗粒物(PM2.5),54,53,55,38,43,109,109,116,115,12,14,9,9,0.5,0.6
2025-12-09T1100,2673A,100.6188,36.2866,海南藏族自治州,共和县恰卜恰镇,颗粒物(PM10),58,65,35,28,17,29,29,52,42,39,20,17,14,1.2,0.5
2025-12-09T1100,2676A,97.3731,37.3753,海西蒙古族藏族自治州,德令哈市,,21,18,24,3,7,67,67,69,69,2,10,11,12,0.4,0.7
2025-12-09T1100,1048A,114.5302,36.6116,邯郸市,东污水处理厂,颗粒物(PM10),256,389,108,77,66,19,19,7,7,,45,15,9,,0.7
2025-12-09T1100,1049A,114.4918,36.5713,邯郸市,矿院,细颗粒物(PM2.5),119,109,95,90,73,17,17,8,8,59,48,12,8,1.1,0.7
2025-12-09T1100,1050A,114.484,36.6133,邯郸市,丛台公园,细颗粒物(PM2.5),94,99,87,70,56,28,28,12,12,45,40,20,9,1.1,0.6
2025-12-09T1100,3458A,114.7895,36.5593,邯郸市,香泉濮院小区,细颗粒物(PM2.5),176,234,140,133,85,29,29,15,15,49,44,9,8,1.0,0.8
2025-12-09T1100,3579A,114.50634,36.77178,邯郸市,永年区实验高中,,,132,97,42,32,23,23,8,8,43,43,,8,0.9,0.7
2025-12-09T1100,3580A,114.20016,36.44293,邯郸市,峰峰矿区临水派出所,细颗粒物(PM2.5),122,100,61,92,49,42,42,46,43,35,20,22,12,1.2,0.7
2025-12-09T1100,2634A,106.9893,33.1842,汉中市,汉川机床厂子校,,,,,,,,,,,,,,,,
2025-12-09T1100,2635A,107.0154,33.0706,汉中市,市监测站,细颗粒物(PM2.5),140,108,115,107,104,19,19,11,11,43,47,6,6,1.7,1.6
2025-12-09T1100,2636A,107.0089,33.1138,汉中市,鑫源开发区,细颗粒物(PM2.5),145,138,105,111,85,18,18,10,10,48,41,7,7,1.6,1.3
2025-12-09T1100,2637A,107.007,33.0323,汉中市,南郑大河坎水厂,细颗粒物(PM2.5),123,119,141,93,117,18,18,6,6,26,38,7,6,1.4,1.6
2025-12-09T1100,1223A,120.2072,30.2111,杭州市,滨江,颗粒物(PM10),56,62,80,14,29,63,63,24,24,30,45,10,10,0.3,0.5
2025-12-09T1100,1224A,120.0633,30.2747,杭州市,西溪,颗粒物(PM10),53,56,77,19,34,41,41,7,7,46,38,9,8,0.5,0.5
2025-12-09T1100,1226A,120.3417,30.3150,杭州市,下沙,颗粒物(PM10),57,64,71,24,38,62,62,20,20,36,48,10,8,0.6,0.7
2025-12-09T1100,1227A,120.1269,30.2456,杭州市,卧龙桥,,47,47,74,20,42,59,59,18,18,30,30,10,9,0.5,0.6
2025-12-09T1100,1228A,120.1903,30.2692,杭州市,浙江农大,,,50,67,21,37,,,8,8,31,54,,8,0.4,0.5
2025-12-09T1100,1230A,120.1197,30.3119,杭州市,和睦小学,颗粒物(PM10),57,63,79,32,43,52,52,12,12,37,43,10,9,0.5,0.6
2025-12-09T1100,1231A,120.3019,30.4183,杭州市,临平镇,颗粒物(PM10),62,73,66,24,31,62,62,26,26,28,41,10,8,0.5,0.6
2025-12-09T1100,1232A,120.2753,30.1839,杭州市,城厢镇,颗粒物(PM10),62,73,97,21,44,67,67,16,16,31,52,9,9,0.5,0.7
2025-12-09T1100,1233A,120.0883,30.1808,杭州市,云栖,,48,48,81,23,48,63,63,22,22,32,36,6,5,0.6,0.7
2025-12-09T1100,3557A,119.9464,30.0494,杭州市,镇二中,,41,41,74,22,56,52,52,19,19,36,44,6,6,0.6,0.8
2025-12-09T1100,3558A,119.7183,30.2367,杭州市,市府大楼,,47,47,132,26,78,57,57,18,18,21,34,10,10,0.8,1.1
2025-12-09T1100,3656A,120.1556,30.2864,杭州市,消防大队,颗粒物(PM10),57,64,84,23,47,60,60,14,14,28,46,7,6,0.3,0.5
2025-12-09T1100,1270A,117.1959,31.7848,合肥市,明珠广场,颗粒物(PM10),67,83,96,19,39,52,52,25,25,28,44,10,9,0.7,0.7
2025-12-09T1100,1271A,117.3072,31.8764,合肥市,三里街,颗粒物(PM10),64,78,90,22,38,48,48,15,15,38,56,10,7,0.7,0.8
2025-12-09T1100,1272A,117.2588,31.8707,合肥市,琥珀山庄,颗粒物(PM10),71,92,92,32,42,52,52,30,30,34,40,11,8,0.7,0.7
2025-12-09T1100,1273A,117.1604,31.9052,合肥市,董铺水库,,,,,,,,,,,,,,,,
2025-12-09T1100,1274A,117.25,31.8571,合肥市,长江中路,颗粒物(PM10),71,92,93,28,42,50,50,31,31,37,40,11,10,0.7,0.7
2025-12-09T1100,1275A,117.266,31.9436,合肥市,庐阳区,颗粒物(PM10),70,90,95,27,36,50,50,19,19,41,46,14,11,0.7,0.7
2025-12-09T1100,1276A,117.3453,31.8616,合肥市,瑶海区,颗粒物(PM10),64,78,95,27,38,60,60,20,20,34,56,8,7,0.6,0.7
2025-12-09T1100,1277A,117.3027,31.7964,合肥市,包河区,颗粒物(PM10),63,75,102,27,44,67,67,22,22,25,77,9,10,0.7,0.8
2025-12-09T1100,1278A,117.2776,31.7385,合肥市,滨湖新区,颗粒物(PM10),62,73,97,19,45,67,67,35,35,24,39,8,7,0.6,0.7
2025-12-09T1100,1279A,117.1318,31.8403,合肥市,高新区,颗粒物(PM10),65,80,89,20,39,60,60,33,33,33,49,7,7,0.7,0.8
2025-12-09T1100,3464A,117.3803,31.9147,合肥市,高教基地,颗粒物(PM10),67,83,87,25,36,57,57,24,24,32,32,9,7,0.7,0.6
2025-12-09T1100,3614A,79.924,37.0877,和田地区,地区环保局,颗粒物(PM10),124,197,152,57,47,58,58,61,60,20,16,6,5,1.2,1.1
2025-12-09T1100,3615A,79.9131,37.113,和田地区,市环保局,颗粒物(PM10),167,283,146,35,22,31,31,60,52,65,32,6,6,1.3,0.5
2025-12-09T1100,2516A,108.2011,24.715,河池市,东仁乐园,,,,,,,,,,,,,,,,
2025-12-09T1100,2517A,108.0497,24.6947,河池市,市环保站,,,49,46,38,32,,,5,5,19,28,5,2,0.7,0.7
2025-12-09T1100,2518A,108.0983,24.6989,河池市,市疾控中心,细颗粒物(PM2.5),68,79,56,49,40,25,25,5,5,28,31,11,6,0.9,0.9
2025-12-09T1100,1696A,114.6778,23.7569,河源市,源西,,,,,,,,,,,,,,,,
2025-12-09T1100,1697A,114.6944,23.7586,河源市,东埔,细颗粒物(PM2.5),57,57,51,40,37,87,87,75,72,21,18,8,8,0.8,0.7
2025-12-09T1100,1698A,114.6892,23.7233,河源市,老城,细颗粒物(PM2.5),53,40,50,37,31,93,93,60,59,16,18,8,7,0.8,0.8
2025-12-09T1100,1718A,115.4208,35.2464,菏泽市,气象局,细颗粒物(PM2.5),90,127,117,67,58,50,50,34,34,26,28,7,6,0.5,0.5
2025-12-09T1100,3374A,115.5564,35.0891,菏泽市,定陶老年大学,细颗粒物(PM2.5),92,119,105,68,53,44,44,28,28,40,41,7,7,0.7,0.6
2025-12-09T1100,4184A,115.4797,35.24401,菏泽市,永昌路1号,颗粒物(PM10),92,134,115,63,56,40,40,27,27,45,46,8,8,0.6,0.6
2025-12-09T1100,4193A,115.4715,35.2800,菏泽市,长城路999号,,,117,109,50,45,,,39,38,,40,,16,,0.7
2025-12-09T1100,2514A,111.5264,24.4172,贺州市,环保小区,细颗粒物(PM2.5),75,73,64,55,50,86,86,54,54,20,22,7,6,0.9,0.9
2025-12-09T1100,2515A,111.5608,24.4078,贺州市,政协大楼,细颗粒物(PM2.5),87,73,63,64,50,83,83,56,56,16,18,10,8,0.9,0.8
2025-12-09T1100,3534A,111.4744,24.4553,贺州市,西湾,细颗粒物(PM2.5),75,84,68,55,48,81,81,54,52,14,17,6,6,0.8,0.8
2025-12-09T1100,2385A,114.17,35.9019,鹤壁市,市监测站,细颗粒物(PM2.5),115,146,101,87,58,30,30,26,21,49,35,17,9,0.9,0.7
2025-12-09T1100,2386A,114.2956,35.7511,鹤壁市,市交警支队,细颗粒物(PM2.5),122,161,132,92,71,12,12,8,5,64,52,6,5,1.1,0.8
2025-12-09T1100,2387A,114.2878,35.7306,鹤壁市,迎宾馆,细颗粒物(PM2.5),129,181,140,98,74,15,15,6,6,56,49,11,10,1.0,0.8
2025-12-09T1100,3474A,114.2617,35.6822,鹤壁市,大新区,细颗粒物(PM2.5),119,175,132,90,78,20,20,10,10,59,53,16,10,1.0,0.8
2025-12-09T1100,3596A,114.1572,35.9603,鹤壁市,南山宾馆,细颗粒物(PM2.5),102,130,115,76,58,58,58,40,40,25,24,10,11,0.7,0.7
2025-12-09T1100,2244A,130.2537,47.3416,鹤岗市,哈啤分公司,,20,15,26,14,20,63,63,58,58,4,8,6,7,0.3,0.5
2025-12-09T1100,2245A,130.2684,47.3086,鹤岗市,斯达机电,,,24,29,20,18,62,62,63,61,9,9,,12,,0.8
2025-12-09T1100,2246A,130.3114,47.3388,鹤岗市,东山纸板厂,,29,24,43,20,25,67,67,46,46,6,22,12,16,0.5,1.2
2025-12-09T1100,2247A,130.1097,47.3382,鹤岗市,五号水库,,,,,,,,,,,,,,,,
2025-12-09T1100,2263A,127.4833,50.2524,黑河市,交通局,,36,36,18,24,14,28,28,40,33,28,13,10,4,0.9,0.5
2025-12-09T1100,2264A,127.5144,50.2341,黑河市,环保局,颗粒物(PM10),64,78,25,38,16,22,22,40,28,38,19,20,8,0.7,0.5
2025-12-09T1100,2265A,127.5291,50.2472,黑河市,大黑河岛,,,,,,,,,,,,,,,,
2025-12-09T1100,1074A,115.6838,37.7541,衡水市,电机北厂,细颗粒物(PM2.5),145,168,87,111,47,27,27,5,5,46,46,17,9,0.8,0.6
2025-12-09T1100,1075A,115.6303,37.7316,衡水市,市监测站,细颗粒物(PM2.5),128,152,76,97,44,16,16,5,5,57,44,16,9,1.0,0.6
2025-12-09T1100,3188A,115.6683,37.7217,衡水市,市城管局,细颗粒物(PM2.5),119,168,86,90,43,17,17,4,4,54,44,17,8,1.0,0.7
2025-12-09T1100,3459A,115.5989,37.5491,衡水市,地表水厂,细颗粒物(PM2.5),147,147,80,112,50,27,27,8,8,46,48,16,9,0.8,0.6
2025-12-09T1100,2456A,112.5003,26.9167,衡阳市,原169医院,,,,,,,,,,,,,,,,
2025-12-09T1100,2457A,112.6194,26.9258,衡阳市,衡阳化工总厂,细颗粒物(PM2.5),134,133,124,102,101,89,89,38,38,20,33,13,11,0.9,1
2025-12-09T1100,2458A,112.6211,26.8956,衡阳市,珠晖区环保局,细颗粒物(PM2.5),135,121,105,103,98,81,81,37,37,21,34,9,7,1.3,1.3
2025-12-09T1100,2459A,112.6197,26.8733,衡阳市,市委党校,细颗粒物(PM2.5),137,118,104,104,89,80,80,48,48,20,20,10,9,1.3,1.4
2025-12-09T1100,2460A,112.6006,26.8919,衡阳市,市监测站,细颗粒物(PM2.5),139,152,139,106,106,88,88,53,53,24,30,11,11,1.2,1.2
2025-12-09T1100,2461A,112.5664,26.9056,衡阳市,真空机电公司,细颗粒物(PM2.5),143,145,118,109,99,84,84,55,55,26,30,12,11,1.3,1.3
2025-12-09T1100,3399A,112.6703,26.882,衡阳市,师范学院,细颗粒物(PM2.5),132,148,126,100,86,86,86,61,58,24,23,16,15,1.0,0.9
2025-12-09T1100,2608A,103.3772,23.3993,红河哈尼族彝族自治州,污水处理厂,,40,36,36,28,30,69,69,53,53,8,10,5,6,0.4,0.4
2025-12-09T1100,2609A,103.3861,23.35,红河哈尼族彝族自治州,监测站,,50,50,41,31,28,72,72,63,60,7,6,6,7,0.3,0.3
2025-12-09T1100,3038A,103.3758,23.368,红河哈尼族彝族自治州,州图书馆,,,31,30,24,22,,,62,57,6,6,5,7,0.5,0.5
2025-12-09T1100,1090A,111.6507,40.7517,呼和浩特市,呼市一监,颗粒物(PM10),63,75,57,31,26,22,22,5,5,41,43,13,10,0.8,0.6
2025-12-09T1100,1091A,111.6572,40.8033,呼和浩特市,小召,颗粒物(PM10),71,92,58,37,25,19,19,5,5,55,52,14,12,1.0,0.7
2025-12-09T1100,1094A,111.7516,40.8369,呼和浩特市,如意水处理厂,颗粒物(PM10),76,102,54,44,27,16,16,4,4,55,48,17,15,1.0,0.8
2025-12-09T1100,1095A,111.7276,40.8062,呼和浩特市,二十九中,,,88,53,35,27,17,17,4,4,,47,,17,0.9,0.6
2025-12-09T1100,1096A,111.5512,40.7866,呼和浩特市,工大金川校区,颗粒物(PM10),66,82,55,39,22,21,21,7,7,50,49,14,11,0.5,0.4
2025-12-09T1100,1097A,111.717,40.7612,呼和浩特市,化肥厂生活区,颗粒物(PM10),60,70,61,30,26,21,21,7,7,44,48,17,11,0.8,0.7
2025-12-09T1100,3698A,111.5968,40.8178,呼和浩特市,红旗小学,,,70,50,33,22,20,20,7,7,47,47,14,11,,0.8
2025-12-09T1100,3699A,111.6518,40.8389,呼和浩特市,海东办,颗粒物(PM10),65,80,61,32,28,18,18,5,5,42,45,15,9,1.0,0.8
2025-12-09T1100,3061A,119.7512,49.1577,呼伦贝尔市,国华电力东,,,70,51,6,17,52,52,44,44,,21,5,6,,0.5
2025-12-09T1100,4279A,119.7569,49.2222,呼伦贝尔市,伊敏大街东7号,,26,26,30,18,19,48,48,44,44,7,15,5,5,0.7,0.6
2025-12-09T1100,1250A,120.0751,30.8669,湖州市,城西水厂,,,75,62,31,27,,,19,19,42,40,12,10,0.5,0.6
2025-12-09T1100,2873A,120.0830,30.8929,湖州市,仁皇山新区,颗粒物(PM10),61,71,53,28,25,57,57,23,23,37,33,11,9,0.5,0.5
2025-12-09T1100,2907A,120.1844,30.8596,湖州市,吴兴区站,颗粒物(PM10),62,74,63,32,25,58,58,21,21,38,40,9,8,0.9,0.8
2025-12-09T1100,3562A,120.4148,30.8538,湖州市,南浔区站,,44,44,51,21,24,64,64,20,20,25,33,8,6,0.5,0.7
2025-12-09T1100,1607A,120.9049,40.7211,葫芦岛市,龙港区,,,,35,32,19,,,24,22,29,25,48,16,1.2,0.7
2025-12-09T1100,1608A,120.8392,40.7514,葫芦岛市,化工街,颗粒物(PM10),58,66,35,31,17,38,38,21,21,27,36,23,18,0.7,0.6
2025-12-09T1100,1609A,120.8341,40.7073,葫芦岛市,新区,颗粒物(PM10),52,54,28,29,17,37,37,26,23,30,30,20,13,0.9,0.9
2025-12-09T1100,1610A,120.8695,40.7677,葫芦岛市,东城区,颗粒物(PM10),60,69,35,30,21,42,42,20,20,24,37,19,20,0.7,0.7
2025-12-09T1100,2482A,109.5981,27.5721,怀化市,林科所,,,,,,,,,,,,,,,,
2025-12-09T1100,2483A,109.9453,27.5444,怀化市,河西地税局,细颗粒物(PM2.5),82,90,65,60,45,74,74,47,39,30,19,15,9,0.7,0.6
2025-12-09T1100,2484A,109.9781,27.5342,怀化市,市四医院,细颗粒物(PM2.5),82,103,76,60,50,79,79,53,48,21,18,19,15,0.8,0.7
2025-12-09T1100,2485A,109.9972,27.5578,怀化市,监测楼,细颗粒物(PM2.5),84,105,72,62,48,84,84,41,39,26,22,19,8,0.4,0.4
2025-12-09T1100,2486A,110.0394,27.583,怀化市,市委党校,细颗粒物(PM2.5),104,115,74,78,51,69,69,28,23,23,23,32,21,0.5,0.5
2025-12-09T1100,1210A,119.036,33.5981,淮安市,钵池山,颗粒物(PM10),62,73,58,21,28,50,50,38,38,31,32,15,10,1.0,0.6
2025-12-09T1100,1211A,119.007,33.575,淮安市,北京南路,,,73,62,22,26,,,43,43,28,27,14,9,0.8,0.5
2025-12-09T1100,1212A,118.989,33.6067,淮安市,市监测站,颗粒物(PM10),58,66,51,24,20,54,54,51,51,31,27,16,10,0.9,0.4
2025-12-09T1100,1213A,119.135,33.5039,淮安市,楚州区监测站,颗粒物(PM10),63,76,67,26,26,46,46,24,24,33,33,17,10,0.9,0.5
2025-12-09T1100,3426A,118.8755,33.2894,淮安市,新华书店,颗粒物(PM10),62,74,63,29,24,51,51,25,25,28,41,14,11,0.8,0.5
2025-12-09T1100,4206A,119.0288,33.6319,淮安市,承德北路606号,颗粒物(PM10),70,90,81,28,39,56,56,32,32,23,37,15,8,1.0,0.6
2025-12-09T1100,2282A,116.8004,33.975,淮北市,监测站,颗粒物(PM10),77,104,87,35,38,57,57,40,39,32,33,13,11,0.5,0.5
2025-12-09T1100,2283A,116.8091,33.9007,淮北市,烈山区政府,颗粒物(PM10),71,91,94,37,43,56,56,43,43,36,38,15,14,0.5,0.4
2025-12-09T1100,3330A,116.8873,33.9836,淮北市,杜集区检察院,颗粒物(PM10),69,88,86,39,40,61,61,47,42,25,24,10,8,0.6,0.6
2025-12-09T1100,4017A,116.7923,33.9535,淮北市,市博物馆,颗粒物(PM10),74,97,89,33,40,56,56,43,41,31,32,13,12,0.5,0.4
2025-12-09T1100,2277A,116.8305,32.7727,淮南市,潘集区政府,颗粒物(PM10),76,102,101,40,52,56,56,28,28,29,32,11,9,0.6,0.6
2025-12-09T1100,2279A,116.8569,32.5951,淮南市,谢家集区政府,,,85,81,25,26,53,53,39,38,,31,11,9,0.7,0.7
2025-12-09T1100,2280A,116.8281,32.633,淮南市,八公山区政府,颗粒物(PM10),66,82,84,24,31,59,59,39,39,26,25,8,8,0.6,0.5
2025-12-09T1100,2281A,116.6325,32.6201,淮南市,焦岗湖风景区管理处,,,,,,,,,,,,,,,,
2025-12-09T1100,2894A,117.0566,32.6531,淮南市,经济技术开发区消防队,颗粒物(PM10),72,94,84,31,34,60,60,32,32,27,34,5,2,0.5,0.4
2025-12-09T1100,3329A,117.0108,32.5893,淮南市,山南新区,颗粒物(PM10),77,103,96,30,31,63,63,42,41,28,30,7,5,0.6,0.4
2025-12-09T1100,4209A,117.0031,32.6445,淮南市,国庆中路369号,颗粒物(PM10),54,58,70,26,29,50,50,32,32,26,28,9,7,0.5,0.4
2025-12-09T1100,2446A,114.9028,30.4742,黄冈市,职工中心,,,87,103,56,71,,,52,43,22,29,8,7,0.8,0.9
2025-12-09T1100,2929A,114.8858,30.4519,黄冈市,红卫路,细颗粒物(PM2.5),83,88,97,61,77,72,72,46,46,25,31,10,8,0.7,0.9
2025-12-09T1100,3398A,114.9136,30.4445,黄冈市,市林业局,细颗粒物(PM2.5),89,111,116,66,78,77,77,46,41,33,41,9,6,0.9,1
2025-12-09T1100,2672A,102.0199,35.5102,黄南藏族自治州,同仁县隆务镇,,49,36,46,34,28,57,57,62,56,6,6,12,12,0.4,0.4
2025-12-09T1100,2295A,118.2903,29.6963,黄山市,延安路89号,细颗粒物(PM2.5),79,81,67,58,47,76,76,44,44,17,16,5,5,0.7,0.7
2025-12-09T1100,2297A,118.1371,30.2756,黄山市,黄山区政府5号楼,,,76,92,58,69,,,20,19,15,16,,6,0.5,0.6
2025-12-09T1100,4210A,118.3354,29.7203,黄山市,滨江东路7-2号,细颗粒物(PM2.5),73,93,82,53,63,74,74,48,43,20,17,5,5,0.5,0.6
2025-12-09T1100,2423A,115.0601,30.2313,黄石市,沈家营,颗粒物(PM10),82,113,117,57,70,50,50,22,20,38,30,9,8,1.1,1.1
2025-12-09T1100,2426A,114.8988,30.2019,黄石市,铁山,细颗粒物(PM2.5),80,84,90,59,81,84,84,70,70,29,33,4,5,0.7,0.8
2025-12-09T1100,2427A,115.0307,30.2092,黄石市,团城山,细颗粒物(PM2.5),84,109,107,62,78,45,45,53,34,48,31,8,8,1.0,0.9
2025-12-09T1100,3149A,115.0235,30.1578,黄石市,笔架山北路,颗粒物(PM10),84,117,140,46,75,74,74,66,60,25,23,9,9,1.3,1.4
2025-12-09T1100,4185A,115.0780,30.21118,黄石市,磁湖东路29号,细颗粒物(PM2.5),94,102,116,70,87,44,44,20,18,37,36,15,12,1.2,1.1
2025-12-09T1100,1392A,114.4183,23.0528,惠州市,河南岸金山湖子站,细颗粒物(PM2.5),62,59,51,44,35,79,79,65,64,28,30,7,6,0.8,0.7
2025-12-09T1100,1393A,114.4053,23.0822,惠州市,下埔横江三路子站,,49,48,49,34,35,102,102,85,84,12,14,8,9,0.7,0.7
2025-12-09T1100,1394A,114.4103,23.1142,惠州市,江北云山西路子站,细颗粒物(PM2.5),54,52,49,38,35,106,106,90,89,18,18,9,9,0.7,0.6
2025-12-09T1100,1395A,114.4645,22.7833,惠州市,惠阳区承修路船湖子站,颗粒物(PM10),51,52,58,33,34,94,94,,,18,24,7,6,0.5,0.6
2025-12-09T1100,1396A,114.5317,22.7422,惠州市,大亚湾管委会子站,颗粒物(PM10),54,57,56,35,32,84,84,49,49,28,29,7,6,0.6,0.6
2025-12-09T1100,3314A,114.4338,22.8134,惠州市,惠阳秋长,"颗粒物(PM10),细颗粒物(PM2.5)",52,53,52,36,35,99,99,70,70,18,21,8,10,0.6,0.6
2025-12-09T1100,3452A,114.6517,22.775,惠州市,大亚湾霞涌,细颗粒物(PM2.5),52,45,43,36,29,93,93,70,70,15,18,5,5,0.6,0.6
2025-12-09T1100,2240A,130.9762,45.3001,鸡西市,环保局,,,52,36,41,25,49,49,20,20,10,23,,8,0.4,0.6
2025-12-09T1100,2243A,130.9429,45.3039,鸡西市,第一中学,,30,30,23,12,16,52,52,42,42,8,13,6,5,0.4,0.4
2025-12-09T1100,3707A,131.0207,45.3073,鸡西市,欧美日汽修厂,颗粒物(PM10),64,78,44,30,29,42,42,12,12,18,28,8,10,0.6,0.7
2025-12-09T1100,3709A,130.9967,45.3106,鸡西市,市政设施管理处,颗粒物(PM10),58,66,38,37,24,40,40,13,13,24,31,10,9,0.5,0.5
2025-12-09T1100,2367A,114.9754,27.0803,吉安市,红声器材厂,细颗粒物(PM2.5),85,108,77,63,47,87,87,67,63,31,24,16,10,0.6,0.4
2025-12-09T1100,2368A,114.9658,27.0999,吉安市,市森林工业局,细颗粒物(PM2.5),97,119,84,72,50,72,72,68,59,36,25,22,13,0.8,0.6
2025-12-09T1100,2369A,114.99,27.1312,吉安市,市环境监测站,细颗粒物(PM2.5),99,103,74,74,49,79,79,71,64,26,19,21,16,0.8,0.6
2025-12-09T1100,2370A,115.0093,27.0968,吉安市,青原区法院,细颗粒物(PM2.5),97,103,75,72,51,80,80,44,41,26,25,14,12,0.9,0.7
2025-12-09T1100,1772A,126.54,43.8622,吉林市,哈达湾,颗粒物(PM10),52,54,35,35,22,50,50,40,35,18,14,20,11,1.3,0.7
2025-12-09T1100,1773A,126.5844,43.8358,吉林市,东局子,细颗粒物(PM2.5),59,55,36,42,24,40,40,36,28,21,18,15,9,1.1,0.7
2025-12-09T1100,1774A,126.5052,43.8245,吉林市,电力学院,细颗粒物(PM2.5),58,55,48,41,31,48,48,33,30,23,18,22,11,1.2,0.7
2025-12-09T1100,1775A,126.6133,43.8972,吉林市,江北,细颗粒物(PM2.5),53,53,50,37,35,46,46,30,27,14,17,15,8,0.7,0.6
2025-12-09T1100,1776A,126.555,43.8306,吉林市,江南公园,细颗粒物(PM2.5),63,62,35,45,25,42,42,33,27,21,16,16,8,0.9,0.6
2025-12-09T1100,1778A,126.7061,43.7133,吉林市,丰满,细颗粒物(PM2.5),74,,24,54,22,36,36,40,37,20,9,13,8,0.7,0.5
2025-12-09T1100,2868A,126.4739,43.953,吉林市,九站,细颗粒物(PM2.5),70,75,47,51,31,28,28,12,12,35,26,15,7,0.8,0.7
2025-12-09T1100,1299A,116.9862,36.6114,济南市,科干所,颗粒物(PM10),73,95,78,32,26,71,71,62,62,22,23,7,7,0.6,0.6
2025-12-09T1100,1300A,116.9376,36.665,济南市,农科所,颗粒物(PM10),69,88,82,29,30,63,63,47,47,23,37,7,7,0.6,0.7
2025-12-09T1100,1301A,117.1265,36.6734,济南市,开发区,颗粒物(PM10),85,120,89,49,36,43,43,55,42,51,42,7,6,0.7,0.9
2025-12-09T1100,1303A,117.0624,36.6868,济南市,省种子仓库,颗粒物(PM10),97,144,113,53,40,35,35,25,25,57,53,11,9,1.0,1.1
2025-12-09T1100,1304A,116.9489,36.6447,济南市,机床二厂,颗粒物(PM10),79,107,92,32,35,65,65,53,53,28,41,10,15,0.5,0.6
2025-12-09T1100,1305A,117.0495,36.663,济南市,市监测站,颗粒物(PM10),72,93,82,39,31,70,70,58,55,17,32,5,5,0.4,0.6
2025-12-09T1100,1306A,116.7675,36.5484,济南市,长清党校,颗粒物(PM10),72,93,82,44,34,59,59,48,48,25,28,12,9,0.7,0.7
2025-12-09T1100,1616A,117.6795,36.229,济南市,技术学院,细颗粒物(PM2.5),104,119,98,78,54,33,33,13,13,54,58,19,13,0.8,0.8
2025-12-09T1100,1961A,117.532,36.6868,济南市,东山小学,颗粒物(PM10),75,100,88,44,35,75,75,57,57,21,32,11,9,0.7,0.7
2025-12-09T1100,3059A,117.7161,36.2049,济南市,泰兴公司,,,,103,,56,,,,,,51,,10,,0.6
2025-12-09T1100,3064A,117.6867,36.2171,济南市,莱芜战役纪念馆,,,,108,,60,,,11,11,64,54,,19,1.3,0.9
2025-12-09T1100,3494A,117.1673,36.9782,济南市,济阳区政府,,,,93,,42,,,16,16,60,51,,14,1.1,0.8
2025-12-09T1100,3495A,117.1171,36.63,济南市,锦屏中学,,,,66,34,26,79,79,68,68,,24,,5,0.8,0.8
2025-12-09T1100,3682A,116.9814,36.6819,济南市,济南四建,颗粒物(PM10),70,90,81,34,33,63,63,49,49,23,37,8,9,0.6,0.7
2025-12-09T1100,1653A,116.6251,35.4302,济宁市,火炬城,细颗粒物(PM2.5),89,102,94,66,56,38,38,27,27,38,34,8,8,0.3,0.2
2025-12-09T1100,1655A,116.5491,35.4042,济宁市,电化厂,颗粒物(PM10),90,129,118,46,48,41,41,30,28,41,36,13,12,0.4,0.3
2025-12-09T1100,3500A,116.5814,35.3707,济宁市,北湖一中,细颗粒物(PM2.5),73,91,86,53,51,38,38,15,15,39,39,10,9,0.6,0.6
2025-12-09T1100,3501A,116.8249,35.5593,济宁市,服务中心,颗粒物(PM10),94,137,116,43,54,31,31,8,8,38,40,16,15,0.6,0.5
2025-12-09T1100,3678A,116.5907,35.4054,济宁市,市第七中学,颗粒物(PM10),80,110,103,51,45,42,42,23,23,40,43,11,10,0.6,0.7
2025-12-09T1100,2255A,130.2751,46.8028,佳木斯市,佳纺,细颗粒物(PM2.5),90,81,58,67,37,48,48,18,18,15,33,7,5,0.4,0.5
2025-12-09T1100,2256A,130.3995,46.8307,佳木斯市,发电厂,细颗粒物(PM2.5),55,55,38,39,26,50,50,22,22,16,28,4,3,0.5,0.5
2025-12-09T1100,2257A,130.3258,46.7975,佳木斯市,环保局,细颗粒物(PM2.5),75,67,42,55,28,48,48,17,17,17,34,4,4,0.5,0.7
2025-12-09T1100,2258A,130.3648,46.8032,佳木斯市,十一中,细颗粒物(PM2.5),64,47,46,46,30,46,46,23,23,19,30,8,7,0.6,0.7
2025-12-09T1100,2259A,130.3794,46.7588,佳木斯市,四丰,,,,,,,,,,,,,,,,
2025-12-09T1100,1252A,120.7436,30.778,嘉兴市,清河小学,颗粒物(PM10),55,60,60,17,25,68,68,21,21,26,46,7,6,0,0.2
2025-12-09T1100,1253A,120.726,30.7478,嘉兴市,嘉兴学院,颗粒物(PM10),51,51,50,14,19,71,71,26,26,26,40,10,7,0.4,0.4
2025-12-09T1100,2872A,120.7846,30.7525,嘉兴市,南湖区残联,颗粒物(PM10),51,51,49,15,18,75,75,27,27,22,40,6,5,0.4,0.4
2025-12-09T1100,3407A,120.6916,30.7739,嘉兴市,秀洲住建,颗粒物(PM10),57,63,58,16,21,73,73,22,22,24,46,9,7,0.4,0.4
2025-12-09T1100,1945A,98.2908,39.7711,嘉峪关市,气象局,颗粒物(PM10),53,56,34,12,11,20,20,57,44,31,13,9,8,1.0,0.6
2025-12-09T1100,2884A,98.2672,39.7978,嘉峪关市,酒钢宾馆,颗粒物(PM10),53,56,48,12,13,46,46,56,51,20,15,9,12,0.4,0.4
2025-12-09T1100,3248A,98.2643,39.7724,嘉峪关市,雄关区,颗粒物(PM10),57,63,34,16,17,17,17,54,47,58,24,16,15,0.7,0.7
2025-12-09T1100,1383A,113.1064,22.6058,江门市,北街,细颗粒物(PM2.5),70,72,64,51,43,67,67,30,30,56,46,11,8,0.7,0.6
2025-12-09T1100,1384A,113.0731,22.5835,江门市,西区,颗粒物(PM10),66,81,66,44,34,70,70,34,34,54,47,10,8,1.2,1.2
2025-12-09T1100,1385A,113.0219,22.5311,江门市,圭峰西,,,77,58,56,42,74,74,59,55,48,29,,7,0.9,0.8
2025-12-09T1100,1386A,113.0828,22.5947,江门市,东湖,颗粒物(PM10),61,72,61,42,40,72,72,34,34,53,44,14,12,0.5,0.5
2025-12-09T1100,3311A,113.1075,22.5647,江门市,江海富民,颗粒物(PM10),67,84,63,39,31,66,66,31,31,60,52,11,8,0.7,0.7
2025-12-09T1100,3449A,113.05,22.4667,江门市,新会银湖,,,,63,,34,,,87,,,28,,8,,0.6
2025-12-09T1100,1830A,113.1992,35.2590,焦作市,影视城,,,,93,,42,,,58,,,26,,8,,0.6
2025-12-09T1100,3335A,113.3137,35.2641,焦作市,马村街道办,细颗粒物(PM2.5),109,149,108,82,54,26,26,18,13,38,35,10,10,0.9,0.6
2025-12-09T1100,3336A,113.2465,35.2373,焦作市,焦作技师学院,细颗粒物(PM2.5),125,160,103,95,50,14,14,14,8,51,32,15,11,1.3,0.8
2025-12-09T1100,3477A,113.1656,35.2539,焦作市,中站许衡医院,细颗粒物(PM2.5),107,150,106,80,53,24,24,46,36,54,30,12,8,0.9,0.5
2025-12-09T1100,3981A,113.2449,35.1803,焦作市,原李万街道办,细颗粒物(PM2.5),122,173,115,92,56,17,17,6,6,54,48,12,10,1.2,0.8
2025-12-09T1100,4264A,113.2340,35.2190,焦作市,新安路1731号,细颗粒物(PM2.5),117,159,113,88,59,9,9,7,2,58,45,12,10,1.2,0.8
2025-12-09T1100,4295A,113.2722,35.2121,焦作市,人民路3066号,颗粒物(PM10),103,156,116,73,44,15,15,5,5,51,47,11,10,1.0,0.7
2025-12-09T1100,1708A,116.3701,23.5345,揭阳市,新兴,颗粒物(PM10),62,74,58,35,39,97,97,32,32,21,32,12,12,0.5,0.6
2025-12-09T1100,1709A,116.3264,23.5443,揭阳市,西马,颗粒物(PM10),65,80,65,35,42,88,88,28,28,26,30,12,7,0.5,0.5
2025-12-09T1100,1710A,116.3611,23.5626,揭阳市,东兴,颗粒物(PM10),71,92,59,39,35,88,88,30,30,25,30,17,11,0.7,0.7
2025-12-09T1100,1711A,116.4151,23.5294,揭阳市,渔湖,,,74,61,,34,90,90,30,30,25,29,10,10,0.7,0.7
2025-12-09T1100,3320A,116.403,23.5699,揭阳市,曲溪,细颗粒物(PM2.5),70,68,58,51,33,95,95,32,29,20,29,15,13,0.5,0.5
2025-12-09T1100,1944A,102.1692,38.5167,金昌市,天庆家园,,36,36,64,18,38,57,57,43,38,13,20,10,22,0.7,0.7
2025-12-09T1100,4022A,102.1647,38.5371,金昌市,金川区人防中心,颗粒物(PM10),57,63,57,23,39,53,53,45,44,24,20,8,28,0.8,0.7
2025-12-09T1100,4239A,102.1930,38.5319,金昌市,长春路96号,,39,39,63,17,29,58,58,44,44,11,21,14,38,0.6,0.7
2025-12-09T1100,1262A,119.647,29.077,金华市,十五中,颗粒物(PM10),62,74,110,32,65,69,69,29,29,30,45,4,4,0.4,0.5
2025-12-09T1100,1263A,119.686,29.1029,金华市,监测站,颗粒物(PM10),64,78,108,29,59,61,61,18,18,36,60,7,8,0.4,0.5
2025-12-09T1100,3659A,119.656,29.1131,金华市,气象局,颗粒物(PM10),61,71,100,25,56,57,57,25,25,35,48,4,4,0.3,0.5
2025-12-09T1100,1767A,121.1115,41.0879,锦州市,南山,颗粒物(PM10),52,53,39,35,25,49,49,25,25,21,31,20,16,0.8,0.8
2025-12-09T1100,1768A,121.0604,40.8428,锦州市,开发区,颗粒物(PM10),52,54,45,23,17,48,48,19,19,16,41,14,23,0.5,0.5
2025-12-09T1100,1769A,121.1836,41.1119,锦州市,百股街道,细颗粒物(PM2.5),67,73,35,48,22,48,48,26,26,20,25,24,18,1.1,0.9
2025-12-09T1100,1770A,121.1178,41.1222,锦州市,天安街道,细颗粒物(PM2.5),57,60,44,40,32,49,49,24,24,19,30,20,20,1.1,1.2
2025-12-09T1100,1771A,121.1303,41.1386,锦州市,北湖公园,颗粒物(PM10),60,70,41,34,26,43,43,20,19,19,27,21,18,0.8,1
2025-12-09T1100,2160A,112.85,35.5051,晋城市,自来水公司,颗粒物(PM10),121,191,130,,48,26,26,9,9,54,42,33,12,3.8,1.3
2025-12-09T1100,2161A,112.8318,35.4936,晋城市,白云商贸,细颗粒物(PM2.5),110,162,122,83,41,30,30,21,18,49,28,,6,,0.7
2025-12-09T1100,2162A,112.8508,35.4887,晋城市,市环保局,细颗粒物(PM2.5),128,189,132,97,52,25,25,10,10,50,37,20,10,2.7,1
2025-12-09T1100,2163A,112.8676,35.4897,晋城市,技术学院,细颗粒物(PM2.5),140,182,134,107,58,27,27,15,15,58,49,17,12,2.6,1.3
2025-12-09T1100,2165A,112.8453,35.546,晋城市,白马寺,细颗粒物(PM2.5),109,133,105,82,55,40,40,57,43,37,21,21,14,2.6,1
2025-12-09T1100,3620A,112.8271,35.4828,晋城市,泽州一中,细颗粒物(PM2.5),110,162,115,83,50,31,31,23,19,56,38,14,8,2.0,0.9
2025-12-09T1100,2173A,112.7249,37.7067,晋中市,南都小区,颗粒物(PM10),92,133,112,66,45,25,25,10,10,47,54,34,20,1.3,1
2025-12-09T1100,2174A,112.6991,37.6982,晋中市,榆次区政府,颗粒物(PM10),92,134,114,65,54,23,23,10,10,45,48,37,20,1.0,0.7
2025-12-09T1100,2865A,112.7195,37.6828,晋中市,榆次三中,颗粒物(PM10),92,134,106,61,44,20,20,8,8,48,51,31,18,1.1,0.9
2025-12-09T1100,4200A,112.7478,37.6954,晋中市,迎宾街26号,细颗粒物(PM2.5),89,124,99,66,47,32,32,18,18,36,42,35,19,0.7,0.6
2025-12-09T1100,2439A,112.2014,31.0481,荆门市,竹园小学,细颗粒物(PM2.5),99,143,99,74,52,40,40,41,37,47,31,4,5,0.2,0
2025-12-09T1100,2440A,112.1969,30.9891,荆门市,掇刀,"颗粒物(PM10),细颗粒物(PM2.5)",95,139,103,71,54,56,56,67,52,50,33,6,6,0.9,0.6
2025-12-09T1100,2441A,112.2213,31.0386,荆门市,石化一小,颗粒物(PM10),104,158,120,71,55,46,46,50,43,41,32,8,10,0.9,0.7
2025-12-09T1100,3012A,112.1849,31.0362,荆门市,西山林语,细颗粒物(PM2.5),93,124,94,69,51,53,53,64,54,34,21,7,8,1.0,0.7
2025-12-09T1100,3547A,112.1632,31.0138,荆门市,龙泉中学南校,细颗粒物(PM2.5),103,133,104,77,54,50,50,62,56,40,21,10,11,1.1,0.8
2025-12-09T1100,1844A,112.2494,30.3197,荆州市,市图书馆,细颗粒物(PM2.5),110,105,84,83,61,53,53,37,36,40,38,,9,1.0,0.9
2025-12-09T1100,1845A,112.2008,30.3544,荆州市,市委党校,细颗粒物(PM2.5),92,110,88,68,57,32,32,26,26,44,43,7,6,0.9,0.8
2025-12-09T1100,3194A,112.2747,30.3122,荆州市,管委会,细颗粒物(PM2.5),114,110,86,86,62,44,44,17,16,40,48,10,8,1.0,0.9
2025-12-09T1100,4268A,112.1722,30.3366,荆州市,学苑路85号,细颗粒物(PM2.5),104,105,73,78,50,46,46,,,36,28,16,12,1.0,0.8
2025-12-09T1100,2342A,117.3102,29.3867,景德镇市,王港中学,,,,,,,,,,,,,,,,
2025-12-09T1100,2343A,117.2117,29.2933,景德镇市,老干部活动中心,,,,59,,47,,,70,,,19,,7,,0.8
2025-12-09T1100,2344A,117.1894,29.2789,景德镇市,兽医站,颗粒物(PM10),67,83,66,41,37,85,85,78,74,14,13,7,7,0.8,0.8
2025-12-09T1100,2346A,117.2461,29.2956,景德镇市,陶研所,细颗粒物(PM2.5),72,65,52,52,41,87,87,46,46,15,21,5,4,0.9,0.9
2025-12-09T1100,4289A,117.1542,29.2566,景德镇市,青少年活动中心,颗粒物(PM10),64,77,60,42,40,88,88,83,78,17,25,4,5,0.5,0.9
2025-12-09T1100,1803A,115.9872,29.6815,九江市,十里,颗粒物(PM10),75,100,104,53,60,64,64,61,50,38,33,12,10,1.3,1
2025-12-09T1100,1804A,115.9584,29.7046,九江市,茅山头,颗粒物(PM10),76,102,102,46,64,56,56,61,51,38,26,8,6,1.0,1
2025-12-09T1100,1805A,115.9877,29.7295,九江市,西园,颗粒物(PM10),68,85,95,45,64,73,73,63,56,41,41,7,6,0.9,0.9
2025-12-09T1100,1808A,115.9114,29.6038,九江市,综合工业园,,,86,107,,91,,,58,40,51,40,9,6,0.8,0.6
2025-12-09T1100,1809A,116.0721,29.7535,九江市,石化总厂,颗粒物(PM10),84,118,116,52,76,67,67,58,53,32,36,7,6,0.7,0.7
2025-12-09T1100,1810A,115.9773,29.5698,九江市,庐山气象台,,,,,,,,,,,,,,,,
2025-12-09T1100,3190A,116.0254,29.6994,九江市,外国语学校,颗粒物(PM10),75,100,102,47,66,64,64,58,49,33,32,10,9,1.2,1
2025-12-09T1100,4253A,116.0102,29.6594,九江市,莲花大道8号,,,112,116,71,84,,,66,53,40,27,16,9,1.2,0.8
2025-12-09T1100,4240A,98.4958,39.7339,酒泉市,玉门东路5号,颗粒物(PM10),67,83,49,25,17,34,34,64,53,44,17,19,11,0.7,0.4
2025-12-09T1100,4241A,98.5099,39.7506,酒泉市,北大街108号,颗粒物(PM10),97,144,49,34,16,24,24,53,40,53,19,20,12,1.5,0.6
2025-12-09T1100,2698A,76.0072,39.4467,喀什地区,巡警大队,颗粒物(PM10),150,249,200,100,101,8,8,22,18,78,62,9,9,2.7,1.8
2025-12-09T1100,2699A,75.9755,39.4694,喀什地区,吾办,细颗粒物(PM2.5),144,221,209,110,102,7,7,23,23,79,57,7,8,2.3,1.7
2025-12-09T1100,4027A,75.9483,39.4689,喀什地区,老干局,细颗粒物(PM2.5),169,237,234,128,100,6,6,27,26,71,55,4,5,2.8,1.9
2025-12-09T1100,1824A,114.3389,34.7781,开封市,肿瘤医院,细颗粒物(PM2.5),109,151,159,82,94,30,30,8,8,43,57,13,13,0.7,0.9
2025-12-09T1100,1826A,114.2885,34.7965,开封市,世纪星幼儿园,细颗粒物(PM2.5),113,138,149,85,107,33,33,11,11,46,58,12,12,0.8,1
2025-12-09T1100,3147A,114.3438,34.8106,开封市,龙亭公园,颗粒物(PM10),102,154,158,71,111,31,31,8,8,46,59,14,13,1.0,1.2
2025-12-09T1100,3210A,114.3644,34.7964,开封市,汴京公园,细颗粒物(PM2.5),138,170,178,105,104,27,27,7,7,53,68,14,11,0.8,1
2025-12-09T1100,3473A,114.2485,34.8306,开封市,技师学院,细颗粒物(PM2.5),114,146,132,86,77,20,20,5,5,60,66,12,12,1.2,1.1
2025-12-09T1100,3592A,114.4644,34.7556,开封市,祥符区生态环境局,细颗粒物(PM2.5),110,136,174,83,106,29,29,8,8,44,65,7,6,0.4,0.6
2025-12-09T1100,1951A,84.895,45.6094,克拉玛依市,长征新村,,42,42,32,26,23,29,29,42,31,22,20,4,4,0.7,0.6
2025-12-09T1100,1952A,84.8988,45.5893,克拉玛依市,南林小区,,40,40,33,21,16,20,20,44,29,26,18,3,2,0.5,0.5
2025-12-09T1100,1954A,84.905,44.3396,克拉玛依市,独山子区,,46,46,43,23,28,12,12,25,20,38,22,6,6,0.8,0.7
2025-12-09T1100,1955A,85.6979,46.098,克拉玛依市,乌尔禾区商贸楼,,46,46,39,32,23,23,23,38,31,5,3,8,8,0.2,0.2
2025-12-09T1100,3612A,85.1045,45.6899,克拉玛依市,白碱滩区新站,,50,50,35,19,21,39,39,44,38,10,17,7,7,0.3,0.3
2025-12-09T1100,2697A,76.1454,39.7142,克孜勒苏柯尔克孜自治州,市人民政府,细颗粒物(PM2.5),124,181,168,94,82,54,54,61,57,21,28,25,13,0.9,0.6
2025-12-09T1100,3665A,76.1658,39.7157,克孜勒苏柯尔克孜自治州,克州文化中心,颗粒物(PM10),113,175,163,82,77,44,44,50,49,34,34,21,15,1.8,1
2025-12-09T1100,1450A,102.8204,24.8886,昆明市,呈贡新区,,33,,28,23,23,63,63,34,34,9,23,6,8,0.8,0.9
2025-12-09T1100,1451A,102.6251,24.9608,昆明市,西山森林公园,,,,,,,,,,,,,,,,
2025-12-09T1100,1452A,102.7252,25.0902,昆明市,龙泉镇,细颗粒物(PM2.5),59,,39,42,22,46,46,10,10,15,28,2,3,0.8,0.7
2025-12-09T1100,1453A,102.7266,25.0375,昆明市,东风东路,,43,43,32,26,25,58,58,37,37,15,20,2,4,0.4,0.4
2025-12-09T1100,1454A,102.6742,25.0669,昆明市,金鼎山,,44,44,45,29,21,51,51,16,16,15,27,3,4,0.6,0.6
2025-12-09T1100,1455A,102.6644,25.0401,昆明市,碧鸡广场,,43,43,36,29,25,49,49,22,22,17,26,3,4,0.6,0.6
2025-12-09T1100,3179A,102.7494,25.0119,昆明市,官渡区博物馆,,25,22,29,17,23,58,58,36,36,14,20,2,3,0.2,0.3
2025-12-09T1100,3375A,102.8017,24.8336,昆明市,青年创业园,,,,28,14,18,64,64,19,19,4,18,3,6,0.7,0.8
2025-12-09T1100,3550A,102.7997,24.9786,昆明市,昆明学院,,22,20,29,15,18,61,61,44,44,9,15,3,2,0.5,0.5
2025-12-09T1100,3551A,102.5967,24.6736,昆明市,晋宁区生态环境分局,,18,,32,12,22,55,55,22,22,8,19,2,2,0.5,0.6
2025-12-09T1100,3552A,102.6678,24.9856,昆明市,云天化总部,,28,26,28,19,20,60,60,32,32,10,22,4,6,0.5,0.6
2025-12-09T1100,1456A,91.1319,29.6514,拉萨市,八廓街,,36,36,31,25,22,48,48,54,48,39,34,13,14,1.1,0.9
2025-12-09T1100,1457A,91.1221,29.6747,拉萨市,市环保局,细颗粒物(PM2.5),58,61,49,41,26,28,28,56,35,44,28,10,10,1.8,1.4
2025-12-09T1100,1458A,91.0874,29.6475,拉萨市,区监测站,,29,29,20,14,11,37,37,73,48,50,33,7,6,1.0,0.4
2025-12-09T1100,1459A,91.1774,29.6541,拉萨市,西藏大学,,17,17,23,9,16,48,48,63,48,21,30,8,9,0.5,0.8
2025-12-09T1100,1460A,90.9798,29.6588,拉萨市,区辐射站,颗粒物(PM10),51,51,37,29,20,41,41,49,32,37,39,7,7,0.7,0.8
2025-12-09T1100,1461A,91.0834,29.6292,拉萨市,拉萨火车站,,37,37,20,19,12,31,31,78,54,52,23,7,6,0.9,0.5
2025-12-09T1100,2520A,109.2203,23.7256,来宾市,来宾技工学校,细颗粒物(PM2.5),67,75,58,48,44,66,66,51,51,13,12,9,7,0.9,0.8
2025-12-09T1100,3535A,109.1781,23.7297,来宾市,兴宾区政府,细颗粒物(PM2.5),67,53,58,48,45,73,73,35,35,15,14,8,6,0.8,0.7
2025-12-09T1100,4002A,109.2416,23.7461,来宾市,中南小学,,,72,62,58,44,,,44,40,14,18,8,7,1.0,0.9
2025-12-09T1100,1477A,104.1373,35.9454,兰州市,榆中兰大校区,,,,,,,,,,,,,,,,
2025-12-09T1100,1479A,103.831,36.0464,兰州市,铁路设计院,,,,,,,,,,,,,,,,
2025-12-09T1100,3241A,103.7439,36.0842,兰州市,百合公园,细颗粒物(PM2.5),99,122,96,74,60,8,8,3,3,86,73,24,23,2.0,1.5
2025-12-09T1100,3242A,103.9611,35.998,兰州市,和平,细颗粒物(PM2.5),125,164,92,95,60,22,22,26,22,59,45,33,17,2.2,1.2
2025-12-09T1100,4236A,103.6293,36.0938,兰州市,庄浪东路808号,细颗粒物(PM2.5),103,143,105,77,61,,,12,7,81,79,37,23,1.8,1.1
2025-12-09T1100,4237A,103.7251,36.1043,兰州市,安宁西路88号,细颗粒物(PM2.5),104,149,110,78,64,17,17,5,5,90,80,24,24,1.8,1.3
2025-12-09T1100,4238A,103.8470,36.0676,兰州市,北滨河东路1号,颗粒物(PM10),81,112,98,55,53,9,9,3,3,64,73,26,19,2.9,1.7
2025-12-09T1100,3245A,103.6633,36.533,兰州新区,新区管委会,细颗粒物(PM2.5),84,93,93,62,64,43,43,25,25,29,30,45,22,0.9,0.8
2025-12-09T1100,3246A,103.6975,36.4789,兰州新区,舟曲中学,细颗粒物(PM2.5),104,120,108,78,62,,,21,21,57,47,21,16,1.3,0.9
2025-12-09T1100,1067A,116.6708,39.5111,廊坊市,药材公司,细颗粒物(PM2.5),103,96,69,77,44,11,11,4,4,69,46,13,8,0.9,0.6
2025-12-09T1100,1068A,116.7214,39.5589,廊坊市,开发区,细颗粒物(PM2.5),87,99,68,64,43,8,8,2,2,67,49,8,6,0.8,0.6
2025-12-09T1100,1070A,116.7244,39.5269,廊坊市,北华航天学院,细颗粒物(PM2.5),87,108,74,64,51,6,6,3,3,71,48,9,6,0.8,0.6
2025-12-09T1100,2919A,116.7022,39.5453,廊坊市,河北工业大学,细颗粒物(PM2.5),100,111,72,75,46,7,7,2,2,69,50,9,7,0.9,0.6
2025-12-09T1100,2535A,103.7723,29.5462,乐山市,花湖湾,,,,,,,,,,,,,,,,
2025-12-09T1100,2536A,103.7627,29.5844,乐山市,牛耳桥,细颗粒物(PM2.5),132,124,126,100,104,4,4,14,14,47,43,8,9,1.3,1.1
2025-12-09T1100,2537A,103.7508,29.6006,乐山市,市第三水厂,细颗粒物(PM2.5),128,126,126,97,98,7,7,11,11,50,47,6,8,1.6,1.3
2025-12-09T1100,2538A,103.7571,29.5664,乐山市,市监测站,细颗粒物(PM2.5),119,106,119,90,93,18,18,20,20,34,39,7,8,1.3,1.2
2025-12-09T1100,3361A,103.7311,29.5628,乐山市,理工大学,细颗粒物(PM2.5),107,98,114,80,90,21,21,12,12,30,40,10,10,1.1,1.1
2025-12-09T1100,2598A,100.2143,26.8576,丽江市,西南郊,,,,,,,,,,,,,,,,
2025-12-09T1100,2599A,100.2497,26.8802,丽江市,丽江古城,,,49,36,41,20,63,63,63,62,,18,,10,0.6,0.6
2025-12-09T1100,2600A,100.2203,26.8906,丽江市,市中心,,30,30,25,10,13,76,76,71,70,12,15,7,8,0.3,0.4
2025-12-09T1100,1267A,119.914,28.4514,丽水市,监测站大楼,细颗粒物(PM2.5),93,77,80,69,73,63,63,25,24,29,31,6,7,0.7,0.8
2025-12-09T1100,1268A,119.93,28.4586,丽水市,莲都小学,颗粒物(PM10),76,102,107,42,52,65,65,38,37,29,31,5,6,0.6,0.6
2025-12-09T1100,1269A,119.879,28.4231,丽水市,余庄前,,,78,86,63,67,49,49,15,15,,21,5,6,0.5,0.6
2025-12-09T1100,1173A,119.176,34.5885,连云港市,市环境监测站,颗粒物(PM10),59,68,46,14,12,60,60,52,52,20,23,16,11,0.3,0.3
2025-12-09T1100,3000A,119.3581,34.6972,连云港市,德源药业,颗粒物(PM10),53,56,61,12,11,66,66,49,49,14,28,6,5,0.3,0.3
2025-12-09T1100,3007A,119.178,34.844,连云港市,新城一中,,49,49,51,21,13,56,56,19,19,26,47,11,11,0.4,0.6
2025-12-09T1100,3008A,119.3608,34.7519,连云港市,胡沟管理处,颗粒物(PM10),57,63,48,14,8,30,30,52,40,47,31,9,8,0.8,0.7
2025-12-09T1100,3009A,119.1478,34.5911,连云港市,矿山设计院,颗粒物(PM10),59,68,51,19,12,57,57,45,45,25,29,18,13,0.6,0.6
2025-12-09T1100,3434A,119.2413,34.6539,连云港市,工贸学校,颗粒物(PM10),59,67,44,16,9,79,79,69,69,15,19,11,11,0.4,0.6
2025-12-09T1100,3664A,119.4172,34.7341,连云港市,连云街道,颗粒物(PM10),60,70,46,23,12,13,13,56,47,62,26,13,9,0.6,0.6
2025-12-09T1100,2571A,102.3431,27.8099,凉山彝族自治州,青龙寺,,,,,,,,,,,,,,,,
2025-12-09T1100,2572A,102.2721,27.8415,凉山彝族自治州,邛海宾馆,,36,27,39,25,26,46,46,36,32,12,18,8,9,0.6,0.6
2025-12-09T1100,2573A,102.2625,27.898,凉山彝族自治州,西昌市政府,细颗粒物(PM2.5),63,50,39,45,32,28,28,35,23,37,16,10,9,1.1,0.7
2025-12-09T1100,2574A,102.2685,27.8851,凉山彝族自治州,凉山州政府,,,79,44,39,31,,,30,20,38,19,,10,1.3,0.8
2025-12-09T1100,4229A,102.2342,27.8859,凉山彝族自治州,凯乐南路30号,颗粒物(PM10),57,63,57,39,37,21,21,5,5,45,36,9,10,1.0,0.9
2025-12-09T1100,2212A,123.2,41.1953,辽阳市,宏伟区,颗粒物(PM10),60,70,51,37,22,36,36,38,29,27,22,22,11,1.1,0.8
2025-12-09T1100,2213A,123.1683,41.2495,辽阳市,新华园,颗粒物(PM10),61,72,51,33,24,36,36,25,21,26,35,10,12,0.9,0.9
2025-12-09T1100,2214A,123.2354,41.2639,辽阳市,滨河路,细颗粒物(PM2.5),64,71,46,46,25,29,29,34,26,30,25,13,38,1.1,0.9
2025-12-09T1100,2215A,123.149,41.2991,辽阳市,铁西工业园,细颗粒物(PM2.5),84,77,57,62,35,26,26,21,15,32,32,14,13,0.9,0.9
2025-12-09T1100,2227A,125.1358,42.8845,辽源市,环保局,,,90,94,49,33,,,14,14,19,29,8,6,1.0,1
2025-12-09T1100,3239A,125.0764,42.9078,辽源市,银鹰制药,细颗粒物(PM2.5),65,76,44,47,26,42,42,17,17,17,27,8,8,0.9,0.7
2025-12-09T1100,1625A,115.9848,36.4372,聊城市,区政府,颗粒物(PM10),83,116,105,53,50,49,49,30,30,37,45,16,15,0.8,0.6
2025-12-09T1100,2878A,116.0072,36.4343,聊城市,聊大东校,,,119,108,73,55,47,47,25,25,,41,21,14,,0.8
2025-12-09T1100,3200A,115.9819,36.4978,聊城市,监控中心,细颗粒物(PM2.5),89,113,100,66,49,52,52,36,36,26,32,15,15,1.0,1
2025-12-09T1100,3513A,116.0445,36.4361,聊城市,九州社区,颗粒物(PM10),87,123,103,52,45,60,60,34,34,28,35,9,8,0.6,0.5
2025-12-09T1100,4018A,116.0567,36.4608,聊城市,星美广场,颗粒物(PM10),85,119,107,55,44,52,52,31,31,28,34,10,8,0.6,0.5
2025-12-09T1100,2632A,94.3681,29.6376,林芝市,林芝监测站,颗粒物(PM10),58,65,20,18,7,30,30,58,46,35,8,5,5,0.5,0.3
2025-12-09T1100,2633A,94.3616,29.6616,林芝市,林芝人民医院,,,,,,,,,,,,,,,,
2025-12-09T1100,2603A,100.0781,23.8982,临沧市,市环保局,,33,33,30,14,27,22,22,14,11,14,11,9,9,0.6,0.4
2025-12-09T1100,2604A,100.0894,23.8822,临沧市,市气象局,,44,44,31,24,18,25,25,16,12,13,10,7,6,0.5,0.5
2025-12-09T1100,1733A,111.5531,36.0783,临汾市,临钢医院,细颗粒物(PM2.5),97,132,108,72,51,26,26,15,15,36,38,18,12,1.2,1
2025-12-09T1100,1734A,111.5028,36.0714,临汾市,技工学校,颗粒物(PM10),84,118,104,57,48,24,24,6,6,34,42,14,13,1.3,1.1
2025-12-09T1100,1736A,111.5018,36.0855,临汾市,市委,颗粒物(PM10),91,131,119,60,44,22,22,6,6,41,47,18,16,1.3,1.1
2025-12-09T1100,3018A,111.505,36.1014,临汾市,唐尧大酒店,颗粒物(PM10),93,136,111,62,45,14,14,4,4,42,47,14,10,1.4,0.9
2025-12-09T1100,4244A,111.4879,36.0530,临汾市,启星学校,,,,103,68,42,27,27,6,6,37,52,16,10,,1.1
2025-12-09T1100,4271A,103.2464,35.6123,临夏回族自治州,滨河东路1号,细颗粒物(PM2.5),113,174,144,85,80,22,22,13,13,40,34,10,10,1.4,1.4
2025-12-09T1100,4310A,103.2093,35.5995,临夏回族自治州,新华街21号,细颗粒物(PM2.5),165,196,147,125,99,32,32,10,10,31,31,13,12,1.7,1.6
2025-12-09T1100,1618A,118.3429,35.0532,临沂市,沂河小区,细颗粒物(PM2.5),84,114,93,62,49,50,50,14,14,41,55,25,21,0.7,0.7
2025-12-09T1100,1619A,118.295,35.0583,临沂市,鲁南制药厂,颗粒物(PM10),75,100,93,52,45,59,59,18,18,42,55,22,26,0.6,0.8
2025-12-09T1100,1620A,118.2794,34.9976,临沂市,新光毛纺厂,,,,99,,51,,,40,,,53,,22,,0.9
2025-12-09T1100,1621A,118.3956,35.0888,临沂市,河东保险公司,颗粒物(PM10),78,105,104,55,51,48,48,13,13,39,53,29,16,0.7,0.8
2025-12-09T1100,3370A,118.3564,35.0215,临沂市,十里堡居委,颗粒物(PM10),74,97,91,48,38,56,56,15,15,32,55,24,29,0.9,1
2025-12-09T1100,3496A,118.3604,35.1084,临沂市,南坊新区,颗粒物(PM10),78,105,90,53,43,47,47,11,11,45,53,24,24,1.0,0.9
2025-12-09T1100,3860A,118.3920,35.0300,临沂市,皇山花园小区,颗粒物(PM10),74,97,95,42,42,62,62,18,18,28,53,26,33,0.7,0.8
2025-12-09T1100,1870A,109.4856,24.3895,柳州市,柳东小学,,,67,54,57,46,,,74,74,13,11,10,10,,0.6
2025-12-09T1100,1871A,109.4157,24.3277,柳州市,环保监测站,颗粒物(PM10),74,98,68,52,49,76,76,38,38,17,22,12,13,0.8,0.8
2025-12-09T1100,1872A,109.389,24.341,柳州市,河西水厂,细颗粒物(PM2.5),79,100,82,58,48,54,54,20,20,29,28,18,13,1.0,0.9
2025-12-09T1100,1873A,109.4311,24.2921,柳州市,市四中,细颗粒物(PM2.5),77,76,61,56,46,75,75,51,51,20,20,14,15,0.6,0.6
2025-12-09T1100,1874A,109.4006,24.3631,柳州市,市九中,细颗粒物(PM2.5),79,86,68,58,48,72,72,37,37,22,22,19,16,0.8,0.7
2025-12-09T1100,1875A,109.4958,24.3134,柳州市,古亭山,细颗粒物(PM2.5),70,58,57,51,44,88,88,76,76,14,16,10,10,0.9,0.8
2025-12-09T1100,3402A,109.5422,24.3996,柳州市,市二中,细颗粒物(PM2.5),83,77,55,61,47,85,85,32,32,16,18,10,9,0.8,0.8
2025-12-09T1100,2307A,116.5079,31.737,六安市,监测大楼,颗粒物(PM10),61,71,106,38,65,45,45,40,33,33,34,7,6,0.6,0.7
2025-12-09T1100,2308A,116.4738,31.7643,六安市,皖西学院,颗粒物(PM10),67,84,120,39,68,57,57,37,37,29,42,5,5,0.4,0.6
2025-12-09T1100,2309A,116.4996,31.7905,六安市,朝阳厂,颗粒物(PM10),65,79,106,37,67,45,45,27,27,37,48,6,5,0.5,0.7
2025-12-09T1100,2310A,116.5567,31.7886,六安市,开发区,颗粒物(PM10),73,95,127,41,70,52,52,21,21,31,48,6,4,0.4,0.4
2025-12-09T1100,2576A,104.8,26.5892,六盘水市,窑上,细颗粒物(PM2.5),65,65,66,47,52,53,53,67,59,12,10,4,3,0.7,0.7
2025-12-09T1100,2577A,104.83,26.5917,六盘水市,黄土坡,细颗粒物(PM2.5),58,59,65,41,45,43,43,65,54,24,17,8,6,0.8,0.6
2025-12-09T1100,2578A,104.89,26.5939,六盘水市,水钢,细颗粒物(PM2.5),63,68,63,45,47,50,50,66,58,12,11,3,4,0.7,0.6
2025-12-09T1100,2579A,104.8475,26.5894,六盘水市,民中,,,,55,,46,,,65,57,,13,,4,,0.6
2025-12-09T1100,2580A,104.9544,26.5506,六盘水市,双水,,,61,55,37,39,,,70,63,16,14,3,5,0.3,0.3
2025-12-09T1100,2335A,117.0189,25.1181,龙岩市,龙岩师专,,,,,,,,,,,,,,,,
2025-12-09T1100,2336A,117.0217,25.1033,龙岩市,龙岩市监测站,颗粒物(PM10),52,53,37,26,27,116,116,90,90,14,24,16,17,0.4,0.5
2025-12-09T1100,2337A,117.0258,25.0661,龙岩市,闽西职业技术学院,,40,40,44,24,26,124,124,64,64,9,22,7,10,0.5,0.6
2025-12-09T1100,2338A,117.0196,25.0306,龙岩市,龙岩学院,颗粒物(PM10),51,52,36,26,26,121,121,56,56,9,14,8,7,0.5,0.5
2025-12-09T1100,2665A,105.0822,33.3261,陇南市,汉王镇固水子,,,,,,,,,,,,,,,,
2025-12-09T1100,2885A,104.9339,33.3826,陇南市,滨江中学,颗粒物(PM10),72,94,69,44,37,20,20,20,18,39,35,14,12,1.5,1.5
2025-12-09T1100,3247A,104.955,33.371,陇南市,市总工会,颗粒物(PM10),72,94,66,44,33,18,18,27,21,38,25,9,6,0.8,0.6
2025-12-09T1100,2487A,111.9589,27.8901,娄底市,电视发射台,,,,,,,,,,,,,,,,
2025-12-09T1100,2488A,111.9975,27.725,娄底市,市监测站,细颗粒物(PM2.5),159,158,115,121,85,43,43,40,30,56,37,65,22,2.6,1
2025-12-09T1100,2489A,112.0194,27.7314,娄底市,市委党校,细颗粒物(PM2.5),129,135,113,98,82,53,53,37,31,48,31,23,12,1.4,0.9
2025-12-09T1100,2490A,111.9561,27.7569,娄底市,涟钢,细颗粒物(PM2.5),125,124,116,95,82,57,57,45,41,43,29,31,10,1.5,0.5
2025-12-09T1100,2491A,111.9892,27.7044,娄底市,市政府,细颗粒物(PM2.5),142,150,107,108,81,45,45,26,24,43,26,26,12,1.2,0.7
2025-12-09T1100,1893A,105.4324,28.9634,泸州市,九狮山,,,,,,,,,,,,,,,,
2025-12-09T1100,1894A,105.4427,28.9063,泸州市,小市上码头,细颗粒物(PM2.5),103,82,104,77,88,6,6,8,8,29,31,10,10,1.1,1.1
2025-12-09T1100,1895A,105.4241,28.8573,泸州市,兰田宪桥,细颗粒物(PM2.5),74,55,90,54,79,5,5,8,7,27,28,8,8,0.8,0.9
2025-12-09T1100,1896A,105.4379,28.8833,泸州市,市环监站,细颗粒物(PM2.5),82,81,105,60,75,8,8,9,8,23,28,9,9,0.8,0.9
2025-12-09T1100,4272A,105.3689,28.7783,泸州市,纳溪中医医院,细颗粒物(PM2.5),57,54,75,40,64,4,4,6,6,26,25,8,8,1.0,1
2025-12-09T1100,2183A,111.1406,37.5211,吕梁市,环保局,颗粒物(PM10),75,99,93,38,33,29,29,8,8,32,46,21,7,0.5,0.5
2025-12-09T1100,2185A,111.1297,37.5136,吕梁市,自来水公司,,,122,122,42,42,24,24,7,7,,44,23,12,0.6,0.6
2025-12-09T1100,2867A,111.1283,37.51,吕梁市,马茂庄小学,颗粒物(PM10),86,122,115,34,36,24,24,6,6,34,47,21,13,0.3,0.3
2025-12-09T1100,1812A,112.3931,34.6516,洛阳市,市委党校,细颗粒物(PM2.5),128,172,119,97,60,20,20,9,9,45,50,16,12,1.0,0.7
2025-12-09T1100,1815A,112.494,34.6886,洛阳市,河南林校,细颗粒物(PM2.5),120,168,128,91,63,15,15,6,6,51,53,14,11,0.9,0.6
2025-12-09T1100,1816A,112.3844,34.623,洛阳市,开发区管委会,细颗粒物(PM2.5),123,155,121,93,62,23,23,13,13,38,43,13,12,0.9,0.7
2025-12-09T1100,1817A,112.4267,34.6258,洛阳市,市委新办公区,细颗粒物(PM2.5),128,153,128,97,70,20,20,9,9,39,46,13,11,0.9,0.8
2025-12-09T1100,3340A,112.6005,34.6326,洛阳市,伊滨,颗粒物(PM10),114,178,141,85,70,22,22,6,6,38,44,13,10,0.9,0.7
2025-12-09T1100,3341A,112.4951,34.6332,洛阳市,中移产业园,细颗粒物(PM2.5),129,158,125,98,65,13,13,3,3,44,52,13,12,0.9,0.7
2025-12-09T1100,3593A,112.5736,34.8993,洛阳市,吉利监测站,细颗粒物(PM2.5),114,144,143,86,58,31,31,10,10,36,50,14,10,0.8,0.7
2025-12-09T1100,3635A,112.3677,34.662,洛阳市,河科大西苑校区,细颗粒物(PM2.5),118,183,131,89,55,25,25,9,9,48,49,22,13,1.2,0.8
2025-12-09T1100,3636A,112.4388,34.6781,洛阳市,英才小学,细颗粒物(PM2.5),143,198,147,109,72,8,8,1,1,61,58,24,16,1.4,0.9
2025-12-09T1100,4214A,112.4600,34.6949,洛阳市,春都路1号院,颗粒物(PM10),125,199,144,84,54,10,10,2,2,48,42,21,13,1.3,0.9
2025-12-09T1100,2399A,114.051,33.5699,漯河市,三五一五工厂,细颗粒物(PM2.5),103,140,165,77,101,41,41,25,23,29,35,11,11,0.7,0.7
2025-12-09T1100,2400A,114.0055,33.5698,漯河市,漯河大学,细颗粒物(PM2.5),98,127,150,73,91,55,55,29,28,31,40,10,10,0.6,0.6
2025-12-09T1100,2401A,114.0138,33.5828,漯河市,市水利局,细颗粒物(PM2.5),94,122,146,70,90,53,53,31,29,28,33,10,11,0.7,0.7
2025-12-09T1100,2402A,114.0261,33.5698,漯河市,市广电局,细颗粒物(PM2.5),100,129,155,75,91,44,44,27,26,27,33,10,11,0.6,0.5
2025-12-09T1100,3478A,113.9749,33.5664,漯河市,市图书馆,细颗粒物(PM2.5),113,135,166,85,96,44,44,29,28,27,33,8,9,0.6,0.7
2025-12-09T1100,4250A,114.0892,33.5882,漯河市,韶山路11号,细颗粒物(PM2.5),105,139,164,79,101,36,36,16,16,33,43,11,12,0.5,0.5
2025-12-09T1100,1798A,118.5092,31.6837,马鞍山市,湖东路四小,,,,79,,26,77,77,33,33,16,35,,5,0.4,0.5
2025-12-09T1100,1799A,118.5024,31.6449,马鞍山市,开发区,颗粒物(PM10),79,108,87,21,30,82,82,35,35,13,37,7,7,0.4,0.5
2025-12-09T1100,1802A,118.6245,31.7241,马鞍山市,濮塘,,,,,,,,,,,,,,,,
2025-12-09T1100,3633A,118.4918,31.6809,马鞍山市,雨山,颗粒物(PM10),80,109,85,23,27,80,80,41,41,18,35,9,9,0.4,0.5
2025-12-09T1100,4191A,118.5274,31.72227,马鞍山市,慈湖高新区,颗粒物(PM10),72,93,70,21,27,70,70,38,38,26,30,11,6,0.5,0.6
2025-12-09T1100,1686A,111.0286,21.4688,茂名市,电白南海,颗粒物(PM10),62,73,66,36,42,104,104,78,78,20,22,12,15,1.1,1
2025-12-09T1100,1687A,110.9294,21.6533,茂名市,茂石化七小,颗粒物(PM10),58,66,64,34,38,99,99,73,71,15,23,8,21,0.7,0.7
2025-12-09T1100,1688A,110.9107,21.6687,茂名市,健康路,,,53,58,29,36,112,112,40,39,14,26,,21,0.9,0.9
2025-12-09T1100,1689A,110.8592,21.6828,茂名市,高岭,颗粒物(PM10),64,78,78,39,40,93,93,33,33,25,34,24,15,0.9,0.9
2025-12-09T1100,3450A,111.01,21.5165,茂名市,电白水东,颗粒物(PM10),58,66,58,36,35,89,89,71,71,15,18,10,14,0.9,0.8
2025-12-09T1100,2539A,104.0308,30.0478,眉山市,黑龙滩水库,,,,,,,,,,,,,,,,
2025-12-09T1100,2540A,103.8416,30.0874,眉山市,气象局,细颗粒物(PM2.5),178,155,145,134,120,,,5,5,45,55,14,12,1.3,1.2
2025-12-09T1100,3137A,103.8578,30.0744,眉山市,市委党校,细颗粒物(PM2.5),156,141,138,119,108,10,10,4,4,43,54,11,11,1.0,0.9
2025-12-09T1100,3148A,103.8291,30.0564,眉山市,区人社局,细颗粒物(PM2.5),170,155,140,129,114,7,7,4,4,45,50,,9,1.4,1.2
2025-12-09T1100,1690A,116.1231,24.3284,梅州市,梅江月梅,颗粒物(PM10),53,55,50,34,35,69,69,23,23,17,30,8,7,0.7,0.7
2025-12-09T1100,1691A,116.0797,24.2719,梅州市,梅县新城,颗粒物(PM10),60,70,58,38,35,63,63,25,25,25,38,13,8,0.7,0.7
2025-12-09T1100,1692A,116.1248,24.2654,梅州市,环境监控中心,细颗粒物(PM2.5),63,60,54,45,40,63,63,17,17,23,38,13,10,0.5,0.6
2025-12-09T1100,3315A,116.1233,24.2991,梅州市,梅龙,细颗粒物(PM2.5),54,51,52,38,34,55,55,20,20,21,28,15,10,0.8,0.8
2025-12-09T1100,1878A,104.7778,31.4741,绵阳市,富乐山,细颗粒物(PM2.5),99,112,104,74,78,2,2,1,1,37,35,11,10,1.3,1
2025-12-09T1100,1880A,104.6697,31.4668,绵阳市,高新区自来水公司,,,,121,,77,,,1,1,38,43,,11,1.3,1.1
2025-12-09T1100,1881A,104.7287,31.5075,绵阳市,三水厂,细颗粒物(PM2.5),118,121,117,89,82,,,2,2,34,40,14,14,1.3,1.1
2025-12-09T1100,3491A,104.69,31.5322,绵阳市,西科大附属小学,细颗粒物(PM2.5),109,131,129,82,81,2,2,2,1,33,42,8,8,1.4,1.2
2025-12-09T1100,3492A,104.5648,31.5343,绵阳市,安州区旅游局,细颗粒物(PM2.5),113,99,94,85,74,4,4,3,3,30,35,9,9,1.1,0.8
2025-12-09T1100,4226A,104.7651,31.4531,绵阳市,绵阳市气象局,细颗粒物(PM2.5),104,130,119,78,76,0,0,0,0,32,41,9,12,1.5,1.1
2025-12-09T1100,1784A,129.61,44.561,牡丹江市,环保大楼,,,,36,,23,49,49,22,20,13,21,,9,0.3,0.3
2025-12-09T1100,1785A,129.6115,44.5782,牡丹江市,文化广场,,45,45,41,24,25,47,47,25,24,13,21,7,8,0.3,0.4
2025-12-09T1100,1786A,129.5904,44.5963,牡丹江市,第一医院,细颗粒物(PM2.5),58,53,53,41,39,46,46,25,25,12,23,6,6,0.4,0.7
2025-12-09T1100,1787A,129.6364,44.6075,牡丹江市,机车工厂,,36,35,53,25,28,42,42,19,19,22,27,5,49,0.3,0.4
2025-12-09T1100,1788A,129.6386,44.5462,牡丹江市,第一中学,,35,32,32,24,25,52,52,24,24,7,20,6,7,0.3,0.4
2025-12-09T1100,2531A,105.0703,29.61,内江市,市监测站,细颗粒物(PM2.5),119,116,92,90,79,,,39,31,30,24,5,5,1.0,0.9
2025-12-09T1100,2532A,105.0717,29.5947,内江市,东兴区政府,细颗粒物(PM2.5),125,120,89,95,78,7,7,29,18,37,32,4,4,0.9,0.7
2025-12-09T1100,2533A,105.0653,29.5817,内江市,内江二中,细颗粒物(PM2.5),128,108,103,97,82,7,7,29,18,36,32,6,4,1.0,1
2025-12-09T1100,2534A,105.0406,29.5822,内江市,内江日报社,细颗粒物(PM2.5),115,90,88,87,77,22,22,31,21,36,36,4,4,0.8,0.8
2025-12-09T1100,2628A,92.0657,31.4846,那曲市,那曲监测站,细颗粒物(PM2.5),93,105,72,69,45,55,55,27,27,22,31,9,12,1.0,1.8
2025-12-09T1100,4243A,92.0515,31.4787,那曲市,那曲市委宣传部,,23,23,31,9,15,66,66,30,30,8,18,4,7,0.5,1.1
2025-12-09T1100,1290A,115.8931,28.6843,南昌市,省外办,细颗粒物(PM2.5),104,109,117,78,90,85,85,79,72,28,24,11,11,1.5,1.4
2025-12-09T1100,1291A,115.8886,28.7003,南昌市,省林业公司,细颗粒物(PM2.5),94,97,117,70,84,88,88,72,66,28,28,7,7,0.9,1
2025-12-09T1100,1292A,115.8126,28.7442,南昌市,林科所,细颗粒物(PM2.5),85,102,116,63,77,96,96,88,82,20,21,8,8,0.7,0.8
2025-12-09T1100,1294A,115.8518,28.687,南昌市,建工学校,细颗粒物(PM2.5),104,126,147,78,86,86,86,82,76,28,30,14,14,1.2,1.2
2025-12-09T1100,1295A,115.8921,28.6424,南昌市,象湖,细颗粒物(PM2.5),98,103,111,73,84,87,87,82,76,30,27,13,13,0.8,0.8
2025-12-09T1100,1296A,115.7423,28.7996,南昌市,武术学校,,,,,,,,,,,,,,,,
2025-12-09T1100,3046A,115.9084,28.6062,南昌市,机电学校,细颗粒物(PM2.5),104,127,133,78,87,92,92,81,76,35,31,19,13,1.4,1
2025-12-09T1100,3690A,115.9721,28.7031,南昌市,外国语学校,细颗粒物(PM2.5),103,120,143,77,88,84,84,72,65,,31,51,15,0.8,0.8
2025-12-09T1100,4192A,115.9316,28.68677,南昌市,南京东路235号,细颗粒物(PM2.5),103,110,122,77,88,98,98,84,77,33,32,10,10,0.7,0.8
2025-12-09T1100,1905A,106.056,30.8064,南充市,西山风景区,,,,,,,,,,,,,,,,
2025-12-09T1100,1906A,106.0789,30.8023,南充市,南充市委,细颗粒物(PM2.5),114,107,101,86,83,2,2,6,3,34,31,5,5,1.3,0.8
2025-12-09T1100,1907A,106.1031,30.8217,南充市,南充炼油厂,细颗粒物(PM2.5),109,107,103,82,90,1,1,11,8,29,24,6,6,1.1,0.8
2025-12-09T1100,4227A,106.1083,30.7884,南充市,梨树横街98号,细颗粒物(PM2.5),105,106,99,79,79,8,8,10,6,24,27,7,6,0.8,0.8
2025-12-09T1100,4304A,106.1172,30.843,南充市,清泉寺北路188号,细颗粒物(PM2.5),94,84,81,70,74,2,2,9,6,26,23,6,5,0.8,0.7
2025-12-09T1100,4305A,106.067,30.7616,南充市,同庆路1号,细颗粒物(PM2.5),117,110,101,88,81,2,2,5,2,27,27,8,8,1.3,1.1
2025-12-09T1100,1151A,118.8086,32.1065,南京市,迈皋桥,颗粒物(PM10),63,75,63,24,21,77,77,43,43,21,33,4,4,0.5,0.4
2025-12-09T1100,1152A,118.7538,32.0551,南京市,草场门,颗粒物(PM10),76,102,80,27,26,66,66,37,37,25,38,4,4,0.4,0.5
2025-12-09T1100,1153A,118.7794,32.0745,南京市,山西路,颗粒物(PM10),80,110,82,17,20,82,82,45,45,20,35,4,4,0.5,0.6
2025-12-09T1100,1154A,118.7752,32.0023,南京市,中华门,颗粒物(PM10),63,75,70,22,22,64,64,34,34,20,31,4,4,0.4,0.5
2025-12-09T1100,1155A,118.8109,32.0309,南京市,瑞金路,颗粒物(PM10),69,88,68,19,27,68,68,33,33,23,27,4,4,0.4,0.4
2025-12-09T1100,1156A,118.7997,32.0754,南京市,玄武湖,,,91,63,24,20,73,73,45,45,,30,4,4,,0.5
2025-12-09T1100,1157A,118.6414,32.0931,南京市,浦口,颗粒物(PM10),69,87,78,23,25,70,70,34,34,25,39,9,9,0.4,0.4
2025-12-09T1100,1158A,118.7356,31.9996,南京市,奥体中心,颗粒物(PM10),70,90,77,22,25,78,78,42,42,27,43,8,7,0.3,0.4
2025-12-09T1100,1159A,118.9125,32.1028,南京市,仙林大学城,颗粒物(PM10),68,85,79,22,22,67,67,42,42,23,35,9,8,0.6,0.6
2025-12-09T1100,3422A,118.8436,31.9198,南京市,江宁彩虹桥,颗粒物(PM10),68,85,71,19,26,72,72,30,30,24,39,4,4,0.5,0.6
2025-12-09T1100,3427A,118.8554,32.3578,南京市,六合雄州,颗粒物(PM10),60,69,61,27,22,73,73,27,27,24,32,5,4,0.4,0.4
2025-12-09T1100,4249A,118.8708,31.3402,南京市,汶溪路181号,,,,78,,39,,,53,52,,38,8,8,0.6,0.6
2025-12-09T1100,4312A,119.019,31.6512,南京市,中山西路1号,颗粒物(PM10),60,70,65,29,30,57,57,30,30,26,27,5,4,0.6,0.7
2025-12-09T1100,1401A,108.3103,22.7881,南宁市,二十一中,,,85,70,47,49,53,53,13,11,,39,,7,0.8,0.8
2025-12-09T1100,1402A,108.3141,22.8528,南宁市,北湖,颗粒物(PM10),63,76,84,44,52,63,63,11,11,24,48,12,17,0.9,0.8
2025-12-09T1100,1403A,108.3206,22.8225,南宁市,市监测站,颗粒物(PM10),64,78,70,44,47,71,71,27,18,25,38,10,12,0.9,1
2025-12-09T1100,1404A,108.3829,22.8037,南宁市,大自然花园,细颗粒物(PM2.5),60,63,62,43,42,80,80,42,42,17,27,8,7,0.8,0.9
2025-12-09T1100,1405A,108.4394,22.7904,南宁市,仙葫,,,,,,,,,,,,,,,,
2025-12-09T1100,1406A,108.2397,22.8467,南宁市,区农职院,细颗粒物(PM2.5),74,85,62,54,41,32,32,13,13,37,30,15,8,1.0,0.8
2025-12-09T1100,1407A,108.3275,22.735,南宁市,英华嘉园,细颗粒物(PM2.5),69,76,76,50,55,51,51,12,12,28,43,7,6,0.6,0.7
2025-12-09T1100,3401A,108.4834,22.7618,南宁市,红星社区,细颗粒物(PM2.5),64,61,58,46,44,78,78,36,36,20,30,7,7,0.7,0.7
2025-12-09T1100,4221A,108.2177,22.7774,南宁市,乐贤路16号,细颗粒物(PM2.5),74,73,76,54,48,35,35,8,8,28,38,22,8,0.8,0.8
2025-12-09T1100,2331A,118.0966,26.6761,南平市,茫荡山,,,,46,,31,,,92,,,,,1,,
2025-12-09T1100,2332A,118.1681,26.6369,南平市,南平市监测站,细颗粒物(PM2.5),55,54,47,39,37,114,114,94,82,15,20,5,4,0.7,0.8
2025-12-09T1100,2333A,118.1825,26.6489,南平市,南平铝业有限公司,细颗粒物(PM2.5),60,55,51,43,40,113,113,83,71,16,24,6,5,0.6,0.7
2025-12-09T1100,2334A,118.1756,26.6272,南平市,南平七中,细颗粒物(PM2.5),64,63,51,46,39,118,118,104,89,14,17,6,6,0.5,0.6
2025-12-09T1100,1168A,120.9098,31.9663,南通市,狼山街道,颗粒物(PM10),60,69,52,14,17,69,69,23,23,15,29,4,3,0.5,0.6
2025-12-09T1100,1169A,120.86,32.0005,南通市,虹桥,颗粒物(PM10),51,51,48,12,17,66,66,40,40,20,26,4,3,0.6,0.6
2025-12-09T1100,1170A,120.87,32.02,南通市,城中,颗粒物(PM10),64,77,65,11,18,69,69,30,30,20,36,6,6,0.5,0.5
2025-12-09T1100,1171A,120.94,31.93,南通市,星湖花园,,,74,54,18,17,,,17,17,18,29,4,4,0.4,0.4
2025-12-09T1100,1172A,120.81,32.0417,南通市,紫琅学院,颗粒物(PM10),63,75,70,10,17,65,65,25,25,23,43,4,4,0.7,0.7
2025-12-09T1100,3291A,121.067,32.062,南通市,通州监测站,颗粒物(PM10),52,53,42,9,15,79,79,41,41,18,23,5,3,0.4,0.5
2025-12-09T1100,3432A,120.9348,31.9883,南通市,环境教育馆,颗粒物(PM10),63,75,60,9,23,72,72,16,16,18,39,6,4,0.3,0.4
2025-12-09T1100,2404A,112.5224,33.0122,南阳市,瓦房庄,细颗粒物(PM2.5),120,146,159,91,100,63,63,31,31,28,34,9,9,0.8,0.8
2025-12-09T1100,2405A,112.5003,32.9735,南阳市,汉画馆,细颗粒物(PM2.5),127,157,163,96,102,60,60,20,20,33,40,7,6,0.8,0.8
2025-12-09T1100,2406A,112.5573,33.027,南阳市,气象站,细颗粒物(PM2.5),107,162,186,80,94,76,76,40,40,22,34,6,7,0.7,0.7
2025-12-09T1100,2407A,112.5481,32.9689,南阳市,理工学院,细颗粒物(PM2.5),99,146,163,74,95,68,68,34,34,28,37,8,8,0.8,0.8
2025-12-09T1100,4008A,112.5234,32.9922,南阳市,卧龙区政府,细颗粒物(PM2.5),124,,179,94,100,70,70,22,22,27,41,,8,,0.9
2025-12-09T1100,1234A,121.8358,29.911,宁波市,区环保大楼,颗粒物(PM10),56,62,52,17,22,51,51,16,16,41,42,8,6,0.4,0.4
2025-12-09T1100,1235A,121.56,29.82,宁波市,万里学院,颗粒物(PM10),51,51,55,19,22,59,59,16,16,28,43,9,7,0.8,0.6
2025-12-09T1100,1236A,121.713,29.9572,宁波市,龙赛医院,,,68,62,19,17,45,45,11,11,,35,7,4,,0.6
2025-12-09T1100,1239A,121.633,29.7733,宁波市,钱湖水厂,,,62,51,19,22,57,57,26,26,,28,8,6,0.5,0.5
2025-12-09T1100,1240A,121.5856,29.8635,宁波市,太古小学,颗粒物(PM10),55,60,47,17,17,60,60,27,27,23,27,5,4,0.7,0.6
2025-12-09T1100,1241A,121.524,29.8674,宁波市,市环境监测中心,颗粒物(PM10),51,52,47,11,12,53,53,20,18,25,30,9,8,0.5,0.5
2025-12-09T1100,2871A,121.6147,29.9017,宁波市,万里国际学校,颗粒物(PM10),51,51,51,16,13,56,56,23,23,33,37,6,5,0.6,0.5
2025-12-09T1100,3710A,121.5594,29.8975,宁波市,白沙活动中心,,47,47,54,14,14,58,58,30,30,30,33,6,5,0.4,0.4
2025-12-09T1100,2339A,119.5001,26.6946,宁德市,金涵水库,,,,64,,43,,,90,,,15,,3,,0.5
2025-12-09T1100,2341A,119.5388,26.6612,宁德市,宁德市监测站,颗粒物(PM10),51,52,55,17,45,103,103,86,79,15,23,8,9,0.4,0.6
2025-12-09T1100,3209A,119.5231,26.6562,宁德市,宁德一中,,50,50,57,32,43,104,104,95,89,15,20,10,10,0.4,0.5
2025-12-09T1100,2618A,98.8601,25.8567,怒江傈僳族自治州,州监测站,,28,28,29,17,18,41,41,35,31,8,11,7,7,0.4,0.4
2025-12-09T1100,2619A,98.8546,25.8417,怒江傈僳族自治州,泸水一中,,43,,26,30,17,20,20,15,13,19,20,5,5,0.6,0.6
2025-12-09T1100,1888A,101.6891,26.571,攀枝花市,弄弄坪,颗粒物(PM10),70,89,54,49,34,19,19,9,7,44,29,42,18,4.3,1.6
2025-12-09T1100,1889A,101.5769,26.5928,攀枝花市,河门口,颗粒物(PM10),52,54,54,31,32,29,29,14,14,18,24,14,19,0.9,1.3
2025-12-09T1100,1890A,101.7169,26.585,攀枝花市,炳草岗,颗粒物(PM10),66,81,56,45,33,12,12,3,3,43,38,14,14,2.4,1.1
2025-12-09T1100,1891A,101.7369,26.5008,攀枝花市,仁和,"颗粒物(PM10),细颗粒物(PM2.5)",54,58,49,38,31,14,14,6,4,32,22,30,15,3.4,1.2
2025-12-09T1100,2835A,101.7227,26.567,攀枝花市,四十中小,颗粒物(PM10),54,58,58,34,34,15,15,3,3,36,40,20,16,2.0,1.6
2025-12-09T1100,1604A,122.0303,41.1489,盘锦市,开发区,,35,35,27,17,15,53,53,27,27,9,21,5,5,0.5,0.6
2025-12-09T1100,1605A,122.0485,41.0883,盘锦市,兴隆台,,38,38,30,16,20,50,50,25,25,15,31,8,9,0.5,0.6
2025-12-09T1100,1606A,121.8297,41.1028,盘锦市,新生街道,,29,29,22,12,11,47,47,22,22,18,27,8,8,0.2,0.3
2025-12-09T1100,1832A,113.3257,33.742,平顶山市,新华旅馆,细颗粒物(PM2.5),205,252,203,155,121,23,23,11,9,61,56,14,12,1.4,1.1
2025-12-09T1100,1833A,113.2919,33.737,平顶山市,规划设计院,细颗粒物(PM2.5),214,279,227,164,125,23,23,8,8,65,61,15,9,1.1,0.9
2025-12-09T1100,1834A,113.182,33.774,平顶山市,平顶山工学院,细颗粒物(PM2.5),203,228,202,153,121,34,34,13,13,47,55,13,11,0.9,0.8
2025-12-09T1100,3204A,113.3025,33.73,平顶山市,规划局,细颗粒物(PM2.5),203,256,214,153,118,22,22,7,7,63,58,15,11,1.1,0.9
2025-12-09T1100,3594A,112.8867,33.9116,平顶山市,石龙区,细颗粒物(PM2.5),176,228,243,133,110,44,44,7,7,50,65,12,10,1.4,1.2
2025-12-09T1100,2656A,106.6692,35.5461,平凉市,聚贤嘉苑,颗粒物(PM10),66,81,67,39,35,42,42,16,16,30,46,9,10,0.7,0.6
2025-12-09T1100,2657A,106.7021,35.5307,平凉市,博物馆,细颗粒物(PM2.5),73,73,66,53,42,31,31,16,16,38,42,15,18,1.0,0.9
2025-12-09T1100,2347A,114.0997,27.5002,萍乡市,武功山,,,,,,,,,,,,,,,,
2025-12-09T1100,2348A,113.8385,27.6434,萍乡市,中医院,细颗粒物(PM2.5),115,132,118,87,82,78,78,27,27,41,48,23,8,1.3,2
2025-12-09T1100,2349A,113.8493,27.6253,萍乡市,市政府车库,颗粒物(PM10),184,318,115,105,91,,,18,18,43,38,19,10,2.9,1.9
2025-12-09T1100,2350A,113.8676,27.6435,萍乡市,市环保局,细颗粒物(PM2.5),99,117,105,74,73,79,79,28,28,33,36,20,15,1.0,2
2025-12-09T1100,2351A,113.866,27.6198,萍乡市,安源区政府,细颗粒物(PM2.5),127,136,114,96,96,71,71,17,17,39,33,17,11,1.6,1.9
2025-12-09T1100,2319A,119.0141,25.4325,莆田市,荔城区仓后路,颗粒物(PM10),54,57,48,22,27,86,86,112,99,15,12,4,4,0.5,0.5
2025-12-09T1100,2320A,119.0015,25.4553,莆田市,莆田市监测站,,,42,38,17,25,95,95,119,108,11,11,,5,,0.6
2025-12-09T1100,2321A,119.1119,25.4561,莆田市,涵江区六中,,43,43,44,14,23,93,93,109,99,10,10,4,4,0.4,0.5
2025-12-09T1100,2322A,119.1013,25.3215,莆田市,秀屿区政府,颗粒物(PM10),52,53,47,18,25,91,91,109,97,14,13,5,4,0.5,0.5
2025-12-09T1100,2323A,118.981,25.4792,莆田市,东圳水库,,,,36,,24,,,116,,,10,,5,,1.0
2025-12-09T1100,2392A,115.0312,35.7636,濮阳市,环保局,,,,113,,68,38,38,20,20,,45,9,9,0.7,0.8
2025-12-09T1100,2394A,115.0574,35.7609,濮阳市,油田运输公司,细颗粒物(PM2.5),104,118,115,78,64,35,35,15,15,37,45,10,11,0.9,0.8
2025-12-09T1100,3021A,115,35.7668,濮阳市,濮水河管理处,细颗粒物(PM2.5),117,134,134,88,92,35,35,15,15,28,39,11,10,1.0,1.1
2025-12-09T1100,4216A,115.0924,35.7686,濮阳市,任丘路479号,细颗粒物(PM2.5),109,149,133,82,70,27,27,9,9,43,47,10,10,0.9,0.8
2025-12-09T1100,2601A,100.98,22.7633,普洱市,市环保局,,50,50,36,9,15,45,45,17,17,15,10,4,4,0.5,0.4
2025-12-09T1100,2602A,100.9817,22.8322,普洱市,普洱第二中学,,46,46,37,12,20,50,50,14,14,11,15,4,5,0.4,0.3
2025-12-09T1100,2262A,131.0518,45.8751,七台河市,新一中,,,,,,,,,,,,,,,,
2025-12-09T1100,3345A,131.0577,45.7879,七台河市,中波台,,49,49,34,32,21,48,48,33,33,11,19,8,6,0.5,0.5
2025-12-09T1100,3637A,131.0176,45.7761,七台河市,人民广场,,38,38,35,25,24,48,48,36,35,13,24,8,8,0.5,0.5
2025-12-09T1100,3684A,130.8781,45.8222,七台河市,新建矿广场,,,34,38,15,23,46,46,19,17,,19,,9,0.6,0.5
2025-12-09T1100,1779A,123.9305,47.3636,齐齐哈尔市,安居小区,,,,36,,23,,,42,,,22,,5,,0.6
2025-12-09T1100,1780A,123.9488,47.3386,齐齐哈尔市,中心广场,,25,25,20,9,10,41,41,37,34,15,18,6,6,0.5,0.5
2025-12-09T1100,1781A,123.9483,47.3227,齐齐哈尔市,农牧车辆厂,,39,39,35,18,14,32,32,34,30,17,13,6,5,0.6,0.6
2025-12-09T1100,1783A,123.945,47.2988,齐齐哈尔市,市环境监测站,,28,28,35,18,16,42,42,34,28,12,17,8,7,0.5,0.5
2025-12-09T1100,3662A,123.6333,47.2075,齐齐哈尔市,富区青少年活动中心,颗粒物(PM10),79,108,50,51,21,30,30,32,28,32,22,13,8,1.1,0.6
2025-12-09T1100,2591A,107.9783,26.5747,黔东南苗族侗族自治州,市环境监测站,细颗粒物(PM2.5),59,51,51,42,41,58,58,35,35,21,26,8,6,0.8,0.8
2025-12-09T1100,2881A,107.8908,26.5311,黔东南苗族侗族自治州,凯里学院,"颗粒物(PM10),细颗粒物(PM2.5)",53,56,48,37,36,61,61,28,28,19,18,10,8,0.7,0.7
2025-12-09T1100,2593A,107.5228,26.2403,黔南布依族苗族自治州,小围寨,细颗粒物(PM2.5),55,44,45,39,39,36,36,24,24,18,12,9,6,0.8,0.7
2025-12-09T1100,3538A,107.5175,26.2978,黔南布依族苗族自治州,沙坝,细颗粒物(PM2.5),58,63,54,41,44,30,30,12,12,30,17,9,5,0.8,0.7
2025-12-09T1100,2589A,104.9022,25.0925,黔西南布依族苗族自治州,场坝街,,39,39,38,24,27,60,60,63,62,10,10,4,3,0.6,0.6
2025-12-09T1100,2590A,104.8811,25.0992,黔西南布依族苗族自治州,坪东大道,,40,40,36,22,28,59,59,64,62,8,10,6,6,0.7,0.8
2025-12-09T1100,2502A,108.6236,21.9667,钦州市,市环保站,,,,93,29,56,72,72,42,42,20,33,7,4,1.1,2.3
2025-12-09T1100,2503A,108.6549,21.9481,钦州市,沙埠小学,细颗粒物(PM2.5),74,90,77,54,52,75,75,66,66,19,23,8,6,0.7,0.8
2025-12-09T1100,2504A,108.5989,21.7431,钦州市,港区一小,细颗粒物(PM2.5),80,94,78,59,50,51,51,52,47,45,34,15,7,0.9,0.8
2025-12-09T1100,3404A,108.5959,21.9633,钦州市,北职校,细颗粒物(PM2.5),93,78,65,69,53,69,69,43,43,15,14,12,7,1.4,0.7
2025-12-09T1100,1043A,119.7493,40.0116,秦皇岛市,第一关,颗粒物(PM10),68,86,42,39,26,36,36,12,12,38,42,9,10,0.4,0.6
2025-12-09T1100,1044A,119.5897,39.9499,秦皇岛市,监测站,颗粒物(PM10),52,54,49,24,20,25,25,22,22,55,39,16,14,0.8,0.8
2025-12-09T1100,1046A,119.5251,39.9041,秦皇岛市,建设大厦,,,41,44,28,27,41,41,26,26,,35,19,13,0.6,0.7
2025-12-09T1100,3132A,119.610547,39.943889,秦皇岛市,文明里,颗粒物(PM10),54,57,47,24,19,31,31,19,19,46,42,19,16,0.5,0.6
2025-12-09T1100,4198A,119.5090,39.8253,秦皇岛市,北戴河轮滑馆,颗粒物(PM10),56,62,41,17,20,42,42,23,23,32,34,24,13,1.6,0.9
2025-12-09T1100,1307A,120.6659,36.2403,青岛市,仰口,,,,,,,,,,,,,,,,
