timepoint,stationcode,longitude,latitude,area,positionname,primarypollutant,aqi,pm10,pm10_24h,pm2_5,pm2_5_24h,o3,o3_24h,o3_8h,o3_8h_24h,no2,no2_24h,so2,so2_24h,co,co_24h
2026-04-18T2200,2568A,102.2503,31.8896,阿坝藏族羌族自治州,马师校,,28,28,22,13,10,42,42,108,94,25,7,6,6,0.3,0.3
2026-04-18T2200,3994A,102.2174,31.9016,阿坝藏族羌族自治州,马尔康中学西区,,43,43,19,13,12,60,60,99,88,12,7,3,3,0.2,0.2
2026-04-18T2200,2695A,80.2899,41.1684,阿克苏地区,电视台,颗粒物(PM10),178,305,159,113,48,88,88,104,102,15,7,3,3,0.8,0.7
2026-04-18T2200,2696A,80.2592,41.1541,阿克苏地区,艺术中心,细颗粒物(PM2.5),140,210,142,104,62,85,85,111,108,18,12,3,4,0.4,0.4
2026-04-18T2200,2205A,105.699,38.8409,阿拉善盟,蒙二幼,"颗粒物(PM10),细颗粒物(PM2.5)",500,1485,125,1126,70,103,103,132,128,2,6,8,10,0.3,0.3
2026-04-18T2200,2206A,105.7198,38.8508,阿拉善盟,环保局新楼,"颗粒物(PM10),细颗粒物(PM2.5)",500,1726,130,1113,72,102,102,126,122,3,5,8,9,0.5,0.5
2026-04-18T2200,2708A,88.1266,47.8515,阿勒泰地区,市站,,26,12,13,7,2,82,82,83,83,7,5,5,6,0.0,0.1
2026-04-18T2200,4166A,88.1198,47.7931,阿勒泰地区,阿勒泰路33号,,25,12,14,3,2,79,79,78,78,4,4,6,6,0.2,0.2
2026-04-18T2200,2630A,80.1171,32.4999,阿里地区,阿里监测站,,35,13,15,3,7,110,110,113,112,1,5,7,6,0.4,0.4
2026-04-18T2200,3192A,80.0906,32.5029,阿里地区,阿里藏医院,,35,12,14,3,4,109,109,112,112,1,4,8,8,0.3,0.4
2026-04-18T2200,2644A,109.0088,32.6974,安康市,汉滨区检察院,颗粒物(PM10),61,65,52,23,21,54,54,118,100,16,10,5,6,0.4,0.4
2026-04-18T2200,4054A,109.0324,32.6913,安康市,市邮政管理局,颗粒物(PM10),62,66,59,28,24,51,51,115,92,21,14,6,8,0.6,0.5
2026-04-18T2200,2291A,117.0806,30.5181,安庆市,环科院,,43,43,46,24,34,128,128,165,156,21,14,6,7,0.5,0.6
2026-04-18T2200,2292A,117.0331,30.5118,安庆市,马山宾馆,,44,44,49,22,35,109,109,155,146,27,12,5,6,0.5,0.6
2026-04-18T2200,2294A,116.9897,30.6146,安庆市,安庆大学,,41,41,42,19,28,110,110,147,140,15,10,3,3,0.5,0.5
2026-04-18T2200,3173A,117.0598,30.5351,安庆市,市人大,,46,46,50,24,32,83,83,159,141,42,14,4,5,0.5,0.6
2026-04-18T2200,3123A,105.9408,26.2431,安顺市,凤凰山,,35,35,25,15,17,84,84,105,98,9,10,6,7,0.6,0.5
2026-04-18T2200,3124A,105.9443,26.2567,安顺市,金钟山,,30,30,21,17,18,74,74,95,89,7,7,6,7,0.6,0.5
2026-04-18T2200,3125A,105.8983,26.248,安顺市,娄家坡,,29,23,24,20,17,78,78,95,91,5,6,2,4,0.6,0.5
2026-04-18T2200,1819A,114.3552,36.1017,安阳市,红庙街,颗粒物(PM10),60,63,90,26,35,95,95,138,126,16,14,6,5,0.4,0.3
2026-04-18T2200,1820A,114.361,36.0681,安阳市,银杏小区,颗粒物(PM10),63,68,98,28,40,96,96,142,130,10,11,8,6,0.3,0.3
2026-04-18T2200,3141A,114.3921,36.0879,安阳市,信访局,颗粒物(PM10),52,52,86,24,38,110,110,146,136,11,12,3,3,0.4,0.5
2026-04-18T2200,3669A,114.4706,36.0634,安阳市,左辅环卫站,颗粒物(PM10),65,71,88,31,38,85,85,134,120,17,16,1,2,0.4,0.4
2026-04-18T2200,4117A,114.2918,36.0769,安阳市,钢三路198号,颗粒物(PM10),72,80,83,26,37,103,103,136,125,10,10,2,4,0.3,0.4
2026-04-18T2200,1748A,123.0441,41.1201,鞍山市,深沟寺,细颗粒物(PM2.5),120,141,77,82,48,70,70,144,121,33,20,11,11,1.1,0.8
2026-04-18T2200,1749A,123.011,41.0931,鞍山市,太阳城,细颗粒物(PM2.5),150,197,88,115,56,62,62,134,111,32,14,10,9,1.4,0.9
2026-04-18T2200,1750A,123.0483,41.1445,鞍山市,太平,细颗粒物(PM2.5),122,163,90,84,51,76,76,136,116,32,21,13,10,1.1,0.7
2026-04-18T2200,1751A,122.964,41.0968,鞍山市,铁西三道街,细颗粒物(PM2.5),155,224,98,118,58,40,40,130,105,57,27,11,8,1.5,1
2026-04-18T2200,1753A,123.0219,41.0822,鞍山市,明达新区,细颗粒物(PM2.5),124,158,85,86,48,53,53,138,117,34,15,12,10,1.1,0.7
2026-04-18T2200,4201A,122.944647,41.082639,鞍山市,兴盛南路290号,细颗粒物(PM2.5),190,259,114,143,66,55,55,140,116,48,29,12,10,1.4,0.9
2026-04-18T2200,2195A,107.4206,40.7609,巴彦淖尔市,附二中,颗粒物(PM10),500,1163,246,399,83,100,100,127,118,6,10,11,12,0.4,0.4
2026-04-18T2200,2196A,107.37,40.7372,巴彦淖尔市,市环保大楼,颗粒物(PM10),500,1009,218,384,68,102,102,129,119,5,8,7,8,0.3,0.4
2026-04-18T2200,1956A,86.1476,41.7529,巴音郭楞蒙古自治州,孔雀公园,,41,41,81,14,16,69,69,91,87,25,6,10,10,0.3,0.2
2026-04-18T2200,1957A,86.1971,41.7166,巴音郭楞蒙古自治州,棉纺厂,细颗粒物(PM2.5),56,43,111,38,18,75,75,97,95,18,3,/,/,/,/
2026-04-18T2200,1958A,86.236,41.7172,巴音郭楞蒙古自治州,经济开发区,,43,43,87,30,14,81,81,92,91,7,3,8,8,0.3,0.3
2026-04-18T2200,3181A,106.776805,31.852614,巴中市,市五中,细颗粒物(PM2.5),92,86,49,56,27,41,41,116,95,24,16,9,9,0.7,0.6
2026-04-18T2200,3183A,106.7419,31.8654,巴中市,圣泉水务公司,颗粒物(PM10),95,112,49,49,24,31,31,119,90,47,20,10,9,0.8,0.6
2026-04-18T2200,3616A,106.7617,31.8343,巴中市,市中心医院,"颗粒物(PM10),细颗粒物(PM2.5)",76,86,49,48,28,43,43,116,94,30,18,9,9,0.8,0.6
2026-04-18T2200,2235A,122.7909,45.608,白城市,洮北区环保局,,37,37,63,25,48,98,98,119,111,9,11,7,5,0.0,0.1
2026-04-18T2200,2236A,122.8741,45.5725,白城市,市环保局,,39,39,70,25,53,83,83,107,96,21,23,3,4,0.2,0.3
2026-04-18T2200,2231A,126.4219,41.9172,白山市,喜丰,颗粒物(PM10),53,54,49,30,23,75,75,113,105,24,13,9,8,1.1,1
2026-04-18T2200,2232A,126.4082,41.9416,白山市,环保局,颗粒物(PM10),60,63,41,28,24,59,59,117,100,18,14,10,10,0.8,0.7
2026-04-18T2200,2647A,104.1727,36.5448,白银市,第三小学,细颗粒物(PM2.5),185,246,69,139,31,106,106,115,115,2,31,3,36,0.3,0.6
2026-04-18T2200,2648A,104.1467,36.5482,白银市,动力公司,颗粒物(PM10),134,206,53,69,22,108,108,114,109,3,24,4,23,0.1,0.4
2026-04-18T2200,2512A,106.6102,23.901,百色市,市监测站,,33,28,24,23,18,78,78,96,95,11,10,17,15,1.0,0.9
2026-04-18T2200,2513A,106.6524,23.8842,百色市,市中心血站,,38,32,28,26,20,79,79,100,99,14,12,14,14,0.8,0.7
2026-04-18T2200,4133A,106.6273,23.8798,百色市,龙景西路,,33,32,30,23,18,74,74,105,103,14,12,17,18,0.7,0.6
2026-04-18T2200,2270A,117.396,32.9389,蚌埠市,工人疗养院,颗粒物(PM10),60,63,81,16,34,80,80,146,122,35,28,5,6,0.4,0.4
2026-04-18T2200,2271A,117.3606,32.9428,蚌埠市,百货大楼,,49,49,67,15,33,90,90,144,123,21,18,7,6,0.4,0.4
2026-04-18T2200,2273A,117.4183,32.8909,蚌埠市,蚌埠学院,,48,48,65,14,33,71,71,141,103,46,22,5,5,0.4,0.5
2026-04-18T2200,2274A,117.3534,32.9672,蚌埠市,淮上区政府,颗粒物(PM10),72,80,72,32,35,72,72,154,123,49,30,5,6,0.4,0.3
2026-04-18T2200,2275A,117.3143,32.8977,蚌埠市,高新区,,48,48,65,10,34,47,47,143,114,69,16,16,8,0.4,0.5
2026-04-18T2200,3715A,117.3091,32.9314,蚌埠市,蚌埠田家炳中学,,47,47,72,14,35,93,93,152,134,23,15,5,6,0.3,0.4
2026-04-18T2200,1585A,109.8761,40.6533,包头市,市环境监测站,颗粒物(PM10),95,113,71,29,24,118,118,142,134,20,27,7,9,0.4,0.5
2026-04-18T2200,1587A,109.9992,40.5843,包头市,包头八中,颗粒物(PM10),83,96,76,27,30,113,113,128,121,13,25,7,11,0.4,0.5
2026-04-18T2200,1589A,109.8641,40.6288,包头市,惠龙物流,颗粒物(PM10),98,117,70,32,26,118,118,133,127,12,20,7,8,0.4,0.5
2026-04-18T2200,1590A,110.0376,40.5546,包头市,东河鸿龙湾,颗粒物(PM10),72,80,76,25,25,121,121,137,130,14,33,11,18,0.4,0.6
2026-04-18T2200,3283A,109.9154,40.5684,包头市,滨河大厦,颗粒物(PM10),80,92,64,26,20,120,120,135,129,10,23,9,12,0.5,0.5
2026-04-18T2200,3419A,109.9449,40.6259,包头市,包头市委党校,颗粒物(PM10),78,89,61,21,21,109,109,136,129,20,25,7,11,0.4,0.4
2026-04-18T2200,3683A,109.8332,40.6577,包头市,昆区政府,颗粒物(PM10),95,113,67,39,32,104,104,136,128,26,28,14,8,0.7,0.6
2026-04-18T2200,1931A,107.0802,34.3129,宝鸡市,竹园沟,颗粒物(PM10),51,51,51,23,16,101,101,141,133,16,14,7,8,0.4,0.4
2026-04-18T2200,1933A,107.1429,34.3549,宝鸡市,监测站,颗粒物(PM10),65,70,60,33,26,91,91,146,137,24,15,6,7,0.5,0.5
2026-04-18T2200,1934A,107.1172,34.3759,宝鸡市,技工学校,颗粒物(PM10),63,68,61,37,27,110,110,151,145,21,15,8,6,0.6,0.5
2026-04-18T2200,1936A,107.2025,34.3518,宝鸡市,文理学院,颗粒物(PM10),75,85,63,36,28,103,103,152,144,27,18,6,6,0.5,0.4
2026-04-18T2200,1937A,107.2396,34.3626,宝鸡市,三迪小学,颗粒物(PM10),83,95,68,44,32,99,99,154,146,37,24,6,6,0.6,0.5
2026-04-18T2200,4155A,107.1721,34.3558,宝鸡市,滨河北路,颗粒物(PM10),78,89,73,39,32,88,88,142,133,26,18,8,8,0.6,0.5
2026-04-18T2200,4308A,107.3898,34.3601,宝鸡市,陈仓区北开路21号,颗粒物(PM10),77,87,74,36,29,94,94,143,138,34,22,10,9,0.5,0.3
2026-04-18T2200,1051A,115.4803,38.8568,保定市,游泳馆,颗粒物(PM10),70,77,106,39,81,117,117,154,144,15,21,2,3,0.1,0.3
2026-04-18T2200,1052A,115.509,38.8895,保定市,华电二区,颗粒物(PM10),69,76,90,39,80,104,104,152,141,16,20,2,3,0.4,0.5
2026-04-18T2200,1053A,115.4588,38.9037,保定市,接待中心,颗粒物(PM10),71,79,108,41,85,115,115,153,143,11,18,3,3,0.1,0.3
2026-04-18T2200,1054A,115.4484,38.8344,保定市,地表水厂,"颗粒物(PM10),细颗粒物(PM2.5)",74,83,106,47,81,111,111,154,138,19,19,3,4,0.5,0.6
2026-04-18T2200,3581A,115.3136,38.9511,保定市,满城区生态环境分局,颗粒物(PM10),79,90,111,40,61,89,89,153,137,22,21,3,3,0.3,0.4
2026-04-18T2200,3582A,115.4709,38.7628,保定市,清苑区第二中学,颗粒物(PM10),95,112,133,36,83,92,92,145,129,30,31,4,6,0.3,0.5
2026-04-18T2200,3583A,115.6231,39.0223,保定市,徐水物探局,颗粒物(PM10),100,119,138,40,79,97,97,152,137,27,29,2,2,0.4,0.6
2026-04-18T2200,4004A,115.4199,38.8665,保定市,双鹰农机,颗粒物(PM10),80,92,96,41,85,111,111,158,142,18,19,3,3,0.2,0.5
2026-04-18T2200,4034A,115.515,38.8589,保定市,植保所站,颗粒物(PM10),91,107,142,44,83,92,92,152,138,31,25,3,3,0.3,0.4
2026-04-18T2200,2594A,99.1589,25.1137,保山市,市环境监测站,细颗粒物(PM2.5),66,62,54,43,33,124,124,131,130,8,9,6,6,0.4,0.3
2026-04-18T2200,2595A,99.1616,25.1381,保山市,市环保局,细颗粒物(PM2.5),72,56,59,46,35,122,122,133,129,5,7,7,7,0.4,0.4
2026-04-18T2200,1867A,109.1435,21.4085,北海市,海滩公园,,35,27,37,24,33,75,75,109,106,6,13,6,9,0.6,0.8
2026-04-18T2200,1868A,109.0983,21.466,北海市,新市环保局,,46,NA,28,32,23,66,66,96,94,10,12,3,4,1.1,1.2
2026-04-18T2200,1869A,109.1775,21.5232,北海市,北海工业园,,40,40,35,28,27,54,54,103,99,13,13,6,9,0.5,0.6
2026-04-18T2200,3400A,109.1844,21.4396,北海市,龙潭自来水厂,,28,28,37,13,25,45,45,100,94,9,11,8,10,0.9,1.1
2026-04-18T2200,1001A,116.3611,39.8786,北京市,万寿西宫,,44,44,130,18,91,117,117,176,166,16,37,4,4,0.4,0.8
2026-04-18T2200,1003A,116.4174,39.9289,北京市,东四,颗粒物(PM10),51,51,133,26,101,120,120,196,185,21,39,3,3,0.2,0.6
2026-04-18T2200,1004A,116.4073,39.8858,北京市,天坛,,42,42,100,20,72,86,86,158,140,20,23,4,5,0.5,0.9
2026-04-18T2200,1005A,116.4622,39.9364,北京市,农展馆,,49,49,117,21,84,107,107,178,166,18,36,3,4,0.5,0.9
2026-04-18T2200,1006A,116.3399,39.9293,北京市,官园,,47,47,129,22,94,114,114,167,162,19,35,2,2,0.4,0.8
2026-04-18T2200,1007A,116.2879,39.9613,北京市,海淀万柳,"颗粒物(PM10),细颗粒物(PM2.5)",70,78,119,45,87,102,102,155,149,24,36,5,5,0.5,0.8
2026-04-18T2200,1008A,116.6635,40.1349,北京市,顺义新城,,46,46,111,23,78,114,114,181,168,6,9,5,6,0.4,0.7
2026-04-18T2200,1009A,116.6275,40.327,北京市,怀柔镇,细颗粒物(PM2.5),121,129,100,83,68,0,0,167,130,26,11,4,5,1.1,0.9
2026-04-18T2200,1010A,116.2295,40.217,北京市,昌平镇,细颗粒物(PM2.5),111,122,110,72,76,151,151,178,178,28,31,3,3,0.7,0.7
2026-04-18T2200,1011A,116.3968,39.982,北京市,奥体中心,颗粒物(PM10),58,60,126,27,84,108,108,167,160,21,37,4,4,0.6,0.9
2026-04-18T2200,3418A,116.8336,40.4095,北京市,密云新城,颗粒物(PM10),55,57,95,24,58,115,115,168,161,17,22,5,5,0.4,0.6
2026-04-18T2200,3671A,116.0879,39.9725,北京市,门头沟三家店,颗粒物(PM10),68,75,100,40,68,115,115,172,165,26,23,3,3,0.5,0.6
2026-04-18T2200,3672A,116.1507,39.8246,北京市,丰台云岗,颗粒物(PM10),63,67,124,32,87,104,104,171,161,22,29,2,3,0.5,0.7
2026-04-18T2200,3674A,115.9578,39.7602,北京市,房山燕山,颗粒物(PM10),51,51,103,21,62,128,128,173,168,12,16,3,3,0.5,0.7
2026-04-18T2200,3675A,116.4669,39.7734,北京市,大兴旧宫,,48,48,104,21,63,104,104,171,158,17,31,1,2,0.5,0.9
2026-04-18T2200,3694A,115.9859,40.4562,北京市,延庆石河营,细颗粒物(PM2.5),84,76,89,52,70,144,144,170,170,9,10,1,1,0.7,0.6
2026-04-18T2200,3695A,116.6151,40.3052,北京市,怀柔新城,细颗粒物(PM2.5),113,113,102,74,67,117,117,168,161,15,14,3,4,0.9,0.8
2026-04-18T2200,3696A,116.2542,39.8764,北京市,丰台小屯,颗粒物(PM10),65,70,115,38,77,91,91,166,155,30,35,3,3,0.4,0.7
2026-04-18T2200,3697A,116.8399,40.3843,北京市,密云镇,颗粒物(PM10),55,56,104,26,74,123,123,178,172,12,26,8,8,0.4,0.7
2026-04-18T2200,4057A,115.9423,40.4431,北京市,延庆百泉,颗粒物(PM10),62,66,95,39,60,145,145,167,167,13,12,1,1,0.6,0.7
2026-04-18T2200,4058A,116.6598,39.9164,北京市,通州新华,颗粒物(PM10),57,59,126,24,92,105,105,169,156,19,34,3,4,0.5,0.8
2026-04-18T2200,4182A,116.1942,39.9158,北京市,石景山八角,颗粒物(PM10),90,105,128,53,87,96,96,168,158,27,36,3,3,0.6,0.8
2026-04-18T2200,4194A,117.078628,40.151726,北京市,平谷新城,颗粒物(PM10),63,67,103,26,64,115,115,185,172,22,14,2,3,0.5,0.7
2026-04-18T2200,1761A,123.8274146,41.31234549,本溪市,大峪,颗粒物(PM10),56,58,60,27,31,96,96,134,122,8,13,7,7,0.7,0.7
2026-04-18T2200,1763A,123.7169,41.3094,本溪市,彩屯,细颗粒物(PM2.5),86,86,63,53,42,105,105,138,122,28,21,14,15,2.9,1.6
2026-04-18T2200,1764A,123.7672166,41.28649327,本溪市,东明,颗粒物(PM10),70,77,56,43,32,116,116,131,128,17,16,5,6,0.5,0.5
2026-04-18T2200,1765A,123.799345,41.266614,本溪市,新立屯,颗粒物(PM10),53,54,51,34,30,130,130,137,114,7,17,8,8,0.7,0.7
2026-04-18T2200,1766A,123.829144,41.336777,本溪市,威宁,颗粒物(PM10),77,87,66,32,32,41,41,128,102,55,19,7,8,0.7,0.7
2026-04-18T2200,2587A,105.287,27.3133,毕节市,八中,颗粒物(PM10),51,51,38,32,19,80,80,117,109,19,13,10,11,0.7,0.6
2026-04-18T2200,2588A,105.3079,27.2987,毕节市,师专,颗粒物(PM10),53,54,33,30,18,73,73,106,99,16,12,10,13,0.5,0.5
2026-04-18T2200,4263A,105.3688,27.3598,毕节市,工业大道,颗粒物(PM10),51,51,34,28,17,95,95,123,117,12,11,11,12,/,/
2026-04-18T2200,1629A,117.9961,37.3604,滨州市,第二水厂,颗粒物(PM10),96,114,125,43,65,105,105,182,160,30,40,10,9,1.0,1
2026-04-18T2200,1630A,117.9789,37.3931,滨州市,北中新校,颗粒物(PM10),74,83,102,36,54,90,90,193,170,35,32,12,13,0.6,0.6
2026-04-18T2200,3514A,117.9379,37.3959,滨州市,中海酒店,颗粒物(PM10),86,100,96,37,50,90,90,197,176,43,32,13,14,0.9,0.4
2026-04-18T2200,3515A,117.9381509,37.35547456,滨州市,开发区一中,颗粒物(PM10),98,117,123,43,62,108,108,185,168,27,41,12,13,1.1,1.1
2026-04-18T2200,3516A,118.0914,37.6938,滨州市,金海六路,颗粒物(PM10),81,93,108,37,61,116,116,179,165,25,29,9,9,0.6,0.6
2026-04-18T2200,4028A,117.9955,37.3752,滨州市,滨州市西街道办事处,颗粒物(PM10),95,112,118,39,62,104,104,186,164,28,31,8,8,0.7,0.7
2026-04-18T2200,2311A,115.8071,33.8399,亳州市,污水处理厂,"颗粒物(PM10),细颗粒物(PM2.5)",68,74,71,44,39,105,105,149,133,19,16,6,8,0.2,0.2
2026-04-18T2200,2312A,115.7789,33.8519,亳州市,三国揽胜宫,颗粒物(PM10),68,75,60,36,32,118,118,142,134,10,10,8,7,0.3,0.3
2026-04-18T2200,3332A,115.7631,33.803,亳州市,亳州学院,颗粒物(PM10),73,82,67,41,35,116,116,141,132,11,8,7,7,0.4,0.4
2026-04-18T2200,2693A,82.0482,44.8553,博尔塔拉蒙古自治州,市党校,颗粒物(PM10),92,108,43,17,7,86,86,88,88,1,4,2,2,0.5,0.6
2026-04-18T2200,2694A,82.0805,44.8966,博尔塔拉蒙古自治州,市环保局,颗粒物(PM10),71,79,47,17,5,80,80,84,84,8,9,3,4,0.3,0.3
2026-04-18T2200,1071A,116.8733,38.2922,沧州市,沧县城建局,颗粒物(PM10),70,77,91,26,64,102,102,138,128,22,24,5,6,0.6,0.8
2026-04-18T2200,1072A,116.8462,38.3189,沧州市,电视转播站,颗粒物(PM10),71,79,99,42,64,110,110,148,138,17,20,9,7,0.2,0.4
2026-04-18T2200,1073A,116.8588,38.3161,沧州市,市环保局,颗粒物(PM10),77,87,112,20,55,102,102,147,136,21,17,7,7,0.4,0.7
2026-04-18T2200,3324A,116.8011,38.294,沧州市,河北水利电力学院,颗粒物(PM10),74,83,104,38,62,98,98,135,126,23,17,11,8,0.3,0.4
2026-04-18T2200,2622A,97.1813,31.1289,昌都市,昌都监测站,,31,20,19,15,5,99,99,100,100,6,12,8,8,0.2,0.5
2026-04-18T2200,3719A,97.1707,31.1428,昌都市,昌都会议中心,,34,16,17,9,7,108,108,109,109,3,6,5,6,0.3,0.3
2026-04-18T2200,2692A,87.2722,44.0298,昌吉回族自治州,新区政务中心,,29,24,12,20,10,73,73,82,82,14,11,5,5,0.2,0.3
2026-04-18T2200,3613A,87.3069,44.0093,昌吉回族自治州,亚心广场,,29,29,14,11,7,81,81,85,85,13,8,6,6,0.3,0.3
2026-04-18T2200,4164A,87.2057,43.9289,昌吉回族自治州,财政所,,20,20,14,9,3,63,63,80,80,24,9,7,6,0.1,0.1
2026-04-18T2200,1120A,125.2874,43.9024,长春市,客车厂,,49,38,37,34,29,79,79,104,95,25,20,10,7,0.5,0.4
2026-04-18T2200,1121A,125.2943,43.8508,长春市,邮电学院,,46,42,36,32,30,83,83,112,104,18,11,12,7,0.5,0.4
2026-04-18T2200,1122A,125.3648,43.8745,长春市,劳动公园,,46,44,40,32,30,79,79,107,96,22,19,12,7,0.6,0.5
2026-04-18T2200,1123A,125.3233,43.8781,长春市,园林处,细颗粒物(PM2.5),52,44,36,36,30,82,82,109,100,19,15,12,7,0.4,0.2
2026-04-18T2200,1124A,125.4604,43.7904,长春市,净月潭,,35,33,31,24,23,86,86,109,104,12,12,9,6,0.4,0.4
2026-04-18T2200,1126A,125.38,43.8422,长春市,经开区环卫处,颗粒物(PM10),59,62,44,18,24,75,75,106,94,24,18,11,5,0.6,0.5
2026-04-18T2200,1127A,125.234,43.7761,长春市,高新区管委会,颗粒物(PM10),68,75,39,29,27,74,74,104,94,21,16,13,7,0.4,0.4
2026-04-18T2200,1128A,125.1695,43.83,长春市,岱山公园,,46,42,36,32,28,88,88,109,102,22,21,9,4,0.5,0.4
2026-04-18T2200,4281A,125.334645,43.916281,长春市,北亚泰大街1068号,,43,36,40,30,30,78,78,106,95,22,19,9,5,0.3,0.3
2026-04-18T2200,1335A,113.082,28.2421,长沙市,经开区环保局,颗粒物(PM10),56,58,58,31,35,102,102,158,150,34,28,5,6,0.9,0.7
2026-04-18T2200,1336A,112.8873,28.2202,长沙市,高开区环保局,细颗粒物(PM2.5),78,68,60,49,37,68,68,145,135,38,33,7,6,1.2,0.8
2026-04-18T2200,1337A,113.0785,28.2012,长沙市,马坡岭,细颗粒物(PM2.5),135,165,57,98,38,20,20,158,130,70,27,8,6,1.2,0.9
2026-04-18T2200,1338A,112.9448,28.1894,长沙市,湖南师范大学,,39,39,48,20,26,101,101,139,126,10,16,8,6,1.6,0.8
2026-04-18T2200,1339A,113.0177,28.1322,长沙市,雨花区环保局,颗粒物(PM10),55,56,51,35,31,128,128,153,148,17,23,6,4,1.0,0.9
2026-04-18T2200,1340A,112.9795,28.2593,长沙市,伍家岭,颗粒物(PM10),80,91,58,46,33,15,15,147,119,70,31,4,4,1.1,0.7
2026-04-18T2200,1341A,113.002,28.1944,长沙市,火车新站,细颗粒物(PM2.5),72,69,60,46,41,70,70,139,127,42,31,6,4,1.1,0.8
2026-04-18T2200,1342A,112.9846,28.1177,长沙市,天心区环保局,细颗粒物(PM2.5),72,65,51,46,33,105,105,153,147,36,27,7,6,1.4,0.9
2026-04-18T2200,1343A,112.8906,28.1307,长沙市,湖南中医药大学,细颗粒物(PM2.5),78,82,49,49,26,23,23,146,117,61,26,6,6,1.1,0.7
2026-04-18T2200,1727A,113.1146,36.1547,长治市,清华站,颗粒物(PM10),53,53,59,26,21,129,129,140,138,15,20,9,9,0.5,0.4
2026-04-18T2200,1730A,113.0887,36.2126,长治市,审计局,颗粒物(PM10),54,55,72,35,27,132,132,141,140,12,17,9,9,0.5,0.3
2026-04-18T2200,1731A,113.0845,36.1856,长治市,长治八中,颗粒物(PM10),67,73,80,32,22,126,126,139,137,18,20,11,10,0.7,0.6
2026-04-18T2200,2845A,113.1561,36.1912,长治市,德盛苑,,50,50,54,31,20,128,128,142,139,16,12,9,9,0.5,0.4
2026-04-18T2200,3568A,113.0603,36.0464,长治市,向阳小学,颗粒物(PM10),70,78,100,30,21,135,135,142,141,16,20,9,9,0.6,0.5
2026-04-18T2200,3569A,112.8788,36.315,长治市,屯留一中,细颗粒物(PM2.5),62,62,70,41,22,128,128,144,139,10,27,8,9,0.4,0.3
2026-04-18T2200,4189A,113.113092,36.199482,长治市,英华南巷50号,颗粒物(PM10),55,57,70,35,27,133,133,141,139,11,16,4,5,0.6,0.5
2026-04-18T2200,4190A,113.23666,36.33435,长治市,学府街1号,颗粒物(PM10),57,59,75,24,18,120,120,137,133,13,25,4,5,0.6,0.6
2026-04-18T2200,1854A,111.696,28.9725,常德市,市二中,,44,44,42,28,21,97,97,125,120,17,10,8,8,0.8,0.8
2026-04-18T2200,3138A,111.7152,29.0288,常德市,武陵区永安,颗粒物(PM10),58,60,42,38,21,108,108,131,126,9,9,6,6,0.7,0.6
2026-04-18T2200,3139A,111.6891,28.9881,常德市,鼎城区玉霞,颗粒物(PM10),54,55,44,30,23,105,105,127,122,7,11,10,10,0.8,0.8
2026-04-18T2200,3140A,111.6651,29.0526,常德市,武陵区长庚,颗粒物(PM10),56,58,40,32,21,109,109,130,127,5,5,9,9,0.8,0.8
2026-04-18T2200,1196A,119.9524,31.7586,常州市,市监测站,,30,30,56,8,27,72,72,117,109,29,29,7,9,0.7,0.8
2026-04-18T2200,1200A,119.9351,31.703,常州市,武进监测站,,32,32,69,13,30,69,69,112,108,34,31,9,9,0.9,0.9
2026-04-18T2200,3002A,119.9701,31.813,常州市,行政中心,,40,40,61,7,27,72,72,109,99,32,37,10,8,1.0,0.8
2026-04-18T2200,3003A,120.0434,31.7726,常州市,经开区,,36,36,68,12,27,60,60,114,102,33,30,7,5,1.0,1.1
2026-04-18T2200,3010A,119.8919,31.7892,常州市,钟楼,,29,29,46,6,28,72,72,128,116,40,36,12,9,0.6,0.6
2026-04-18T2200,3429A,119.8595,31.706,常州市,武进经发区,,31,31,60,14,29,68,68,115,110,39,44,9,8,0.6,0.8
2026-04-18T2200,3430A,119.5812,31.7256,常州市,金坛城区,,30,30,52,14,31,68,68,118,106,20,29,10,10,0.6,0.9
2026-04-18T2200,4089A,119.9551,31.863,常州市,崇义南街5-H号,颗粒物(PM10),56,58,67,10,25,67,67,112,100,37,33,8,8,0.5,0.7
2026-04-18T2200,2220A,120.4318,41.588,朝阳市,西梁,细颗粒物(PM2.5),130,104,74,93,57,130,130,132,132,16,20,8,9,0.8,0.7
2026-04-18T2200,2221A,120.452,41.565,朝阳市,河畔小区,细颗粒物(PM2.5),128,NA,58,90,54,150,150,146,146,16,15,12,13,0.9,0.7
2026-04-18T2200,2222A,120.4176,41.5648,朝阳市,八里堡,细颗粒物(PM2.5),139,NA,65,102,60,126,126,134,134,19,21,9,11,1.0,0.9
2026-04-18T2200,3026A,116.6179,23.6608,潮州市,市政府,细颗粒物(PM2.5),82,NA,42,51,27,113,113,142,140,13,11,5,5,0.6,0.6
2026-04-18T2200,4036A,116.646,23.676,潮州市,金山,细颗粒物(PM2.5),68,NA,31,44,25,113,113,137,136,10,8,4,3,0.5,0.5
2026-04-18T2200,2473A,113.0116,25.8228,郴州市,市职中,,40,40,31,25,24,8,8,79,62,30,18,7,7,0.8,0.8
2026-04-18T2200,2475A,113.0381,25.8074,郴州市,市审计局,,30,30,31,20,23,39,39,85,77,23,13,2,2,/,/
2026-04-18T2200,2476A,113.0348,25.7757,郴州市,市环保局,,49,49,31,24,25,21,21,80,69,36,23,7,7,0.8,0.8
2026-04-18T2200,4252A,113.0138,25.8011,郴州市,好美居路49号,,48,48,32,33,23,3,3,84,69,39,16,6,6,/,/
2026-04-18T2200,1431A,103.9727,30.7242,成都市,金泉两河,颗粒物(PM10),72,80,54,43,31,101,101,182,168,31,30,3,4,0.5,0.5
2026-04-18T2200,1432A,104.1423,30.6765,成都市,十里店,颗粒物(PM10),65,71,53,39,31,134,134,160,155,26,29,5,5,0.6,0.6
2026-04-18T2200,1433A,104.0594,30.5765,成都市,三瓦窑,颗粒物(PM10),70,78,50,28,28,79,79,150,132,46,29,3,3,0.7,0.6
2026-04-18T2200,1434A,104.1122,30.6306,成都市,沙河铺,颗粒物(PM10),70,77,56,37,31,46,46,142,115,51,31,3,3,0.6,0.4
2026-04-18T2200,2880A,104.0219,30.6561,成都市,大石西路,颗粒物(PM10),77,87,53,43,34,108,108,148,136,33,34,4,5,0.7,0.7
2026-04-18T2200,3136A,104.2724,30.559,成都市,龙泉驿区区政府,颗粒物(PM10),51,51,39,27,23,96,96,144,131,10,10,7,7,0.5,0.5
2026-04-18T2200,3357A,104.0028,30.6891,成都市,金博路,颗粒物(PM10),65,71,44,38,32,114,114,166,156,40,38,7,7,0.6,0.6
2026-04-18T2200,3359A,104.056,30.5228,成都市,华阳,颗粒物(PM10),56,58,50,34,30,76,76,149,132,39,27,5,5,0.5,0.4
2026-04-18T2200,3488A,104.387954,30.746684,成都市,青石路225号,颗粒物(PM10),54,55,45,30,25,32,32,142,110,57,30,8,8,0.9,0.6
2026-04-18T2200,3489A,104.0788,30.4054,成都市,科学城,颗粒物(PM10),52,52,45,34,22,78,78,145,133,23,14,5,5,0.5,0.4
2026-04-18T2200,4011A,103.8505,30.6946,成都市,光华大道三段,颗粒物(PM10),63,68,55,38,31,93,93,186,171,37,31,4,5,0.7,0.7
2026-04-18T2200,4144A,104.3257,30.6406,成都市,八角井街185号,颗粒物(PM10),77,87,47,32,24,79,79,142,125,22,13,5,6,0.4,0.4
2026-04-18T2200,4224A,104.2433276,30.53529463,成都市,鲸龙路1057号,颗粒物(PM10),55,56,47,30,29,96,96,153,140,25,22,7,6,0.6,0.6
2026-04-18T2200,1062A,117.9531,40.908,承德市,铁路,颗粒物(PM10),99,118,84,49,40,146,146,170,170,29,19,4,3,0.4,0.5
2026-04-18T2200,1063A,117.9397,40.9763,承德市,中国银行,颗粒物(PM10),103,126,85,59,39,159,159,168,168,22,16,3,3,0.4,0.5
2026-04-18T2200,4073A,117.9462,40.95,承德市,杏林街1号,细颗粒物(PM2.5),100,112,82,60,45,166,166,178,178,15,15,3,2,0.5,0.5
2026-04-18T2200,4274A,117.7994,40.9605,承德市,滨河大街98号,细颗粒物(PM2.5),84,93,72,52,39,176,176,177,177,12,14,4,3,0.4,0.4
2026-04-18T2200,2314A,117.4698,30.6617,池州市,池州学院,细颗粒物(PM2.5),54,49,46,37,31,126,126,159,149,26,29,4,5,1.0,0.9
2026-04-18T2200,3237A,117.4918,30.6617,池州市,展览馆,,48,48,44,31,30,114,114,166,150,23,22,3,3,0.5,0.6
2026-04-18T2200,3333A,117.5626,30.695,池州市,第八中学,颗粒物(PM10),51,51,45,33,31,126,126,159,144,21,26,4,5,0.6,0.7
2026-04-18T2200,3334A,117.5037,30.6242,池州市,第十二中学,颗粒物(PM10),56,58,45,34,31,107,107,161,142,35,30,5,4,0.7,0.8
2026-04-18T2200,1744A,118.9229,42.2816,赤峰市,松山一中,颗粒物(PM10),68,75,40,38,18,158,158,147,147,14,24,9,11,0.8,0.6
2026-04-18T2200,1745A,118.9588,42.2733,赤峰市,哈达街,颗粒物(PM10),74,83,46,45,19,136,136,128,128,7,16,12,23,0.9,0.7
2026-04-18T2200,1746A,118.8792,42.2551,赤峰市,天义路,细颗粒物(PM2.5),70,60,32,45,18,148,148,141,141,13,22,12,13,0.3,0.2
2026-04-18T2200,3058A,119.2656,42.0356,赤峰市,银河街,细颗粒物(PM2.5),90,100,55,55,24,176,176,163,163,12,12,13,11,0.6,0.5
2026-04-18T2200,3286A,118.9359,42.3146,赤峰市,桥北物流园区,颗粒物(PM10),71,79,38,39,16,144,144,135,135,13,19,4,7,0.8,0.5
2026-04-18T2200,2521A,107.3473,22.4137,崇左市,市环保局江州分局,,44,44,33,27,24,68,68,100,97,16,9,5,6,0.8,0.8
2026-04-18T2200,4256A,107.375,22.3736,崇左市,石景林东路7号,NA,NA,36,33,NA,21,46,46,102,95,19,10,2,3,1.0,1
2026-04-18T2200,3207A,118.31131,32.3033,滁州市,市政府原办公楼,,40,40,47,22,44,87,87,127,115,20,19,5,6,0.4,0.5
2026-04-18T2200,3331A,118.3268,32.2633,滁州市,图书馆,,38,38,51,15,35,84,84,131,118,19,15,11,10,0.2,0.4
2026-04-18T2200,4101A,118.3196,32.3335,滁州市,银山路666号,,47,47,59,16,34,89,89,137,123,19,19,6,7,0.1,0.3
2026-04-18T2200,4102A,118.3426,32.2979,滁州市,黄山路555号,颗粒物(PM10),55,57,75,16,41,75,75,131,116,34,20,6,6,0.5,0.6
2026-04-18T2200,2606A,101.5379,25.0492,楚雄彝族自治州,市经济开发区,细颗粒物(PM2.5),64,65,48,42,30,116,116,125,121,11,18,2,3,0.6,0.5
2026-04-18T2200,4153A,101.5536,25.0343,楚雄彝族自治州,团结路562号,细颗粒物(PM2.5),58,52,44,39,30,116,116,131,127,10,16,5,5,0.5,0.4
2026-04-18T2200,2549A,107.5087,31.2186,达州市,市环境监测站,颗粒物(PM10),53,53,56,30,25,25,25,108,82,52,30,6,6,0.4,0.3
2026-04-18T2200,2550A,107.4988,31.2132,达州市,凤凰小区,颗粒物(PM10),60,63,62,35,27,25,25,116,85,54,27,5,6,0.5,0.3
2026-04-18T2200,2551A,107.5081,31.1987,达州市,达县机关宾馆,细颗粒物(PM2.5),78,83,65,49,23,1,1,115,79,74,37,5,5,0.6,0.4
2026-04-18T2200,2552A,107.4644,31.2124,达州市,市政中心,颗粒物(PM10),63,67,62,34,24,14,14,125,88,73,34,6,6,0.8,0.5
2026-04-18T2200,2614A,100.2168,25.5818,大理白族自治州,大理市环境监测站,颗粒物(PM10),54,55,44,35,29,111,111,111,111,9,11,4,4,0.5,0.3
2026-04-18T2200,2615A,100.1542,25.7055,大理白族自治州,大理古城,颗粒物(PM10),69,76,43,30,27,116,116,117,114,5,10,4,4,0.4,0.4
2026-04-18T2200,1109A,121.6119,38.974,大连市,甘井子,,24,21,62,9,32,75,75,86,82,11,26,8,9,0.6,0.6
2026-04-18T2200,1110A,121.565,38.9509,大连市,周水子,,38,38,66,15,36,50,50,62,60,20,32,8,6,0.6,0.6
2026-04-18T2200,1111A,121.5637,38.8849,大连市,星海三站,,36,36,63,24,41,84,84,85,85,14,23,4,5,0.3,0.4
2026-04-18T2200,1112A,121.6301,38.9117,大连市,青泥洼桥,,32,32,64,14,31,81,81,111,101,14,20,4,5,0.6,0.7
2026-04-18T2200,1113A,121.6248,38.8643,大连市,傅家庄,,29,23,52,10,24,92,92,96,96,9,18,8,9,0.4,0.4
2026-04-18T2200,1114A,121.5117,38.8636,大连市,七贤岭,,42,42,60,17,28,72,72,90,88,19,21,5,6,0.5,0.5
2026-04-18T2200,1116A,121.7507,39.1339,大连市,金州,,41,29,61,16,41,130,130,145,137,6,16,5,6,0.3,0.5
2026-04-18T2200,1117A,121.7811,39.0495,大连市,开发区,颗粒物(PM10),54,55,77,23,35,49,49,77,71,27,31,5,8,0.3,0.3
2026-04-18T2200,1118A,121.9762,39.0631,大连市,双D港,,16,15,33,11,19,47,47,56,54,12,19,4,5,0.5,0.5
2026-04-18T2200,4082A,121.2548,38.8188,大连市,旅顺,,31,31,54,16,27,83,83,91,90,14,21,8,7,0.3,0.4
2026-04-18T2200,1789A,124.8085,46.0381,大庆市,大同区,,38,29,44,26,34,80,80,100,92,15,13,2,2,0.4,0.5
2026-04-18T2200,1790A,125.1166,46.5255,大庆市,龙凤区,,43,36,46,30,26,60,60,87,70,15,13,3,4,0.2,0.3
2026-04-18T2200,1791A,124.8894,46.4007,大庆市,红岗区,,33,27,40,23,32,74,74,104,91,5,8,7,7,0.8,0.6
2026-04-18T2200,1792A,125.1391,46.578,大庆市,萨尔图区,颗粒物(PM10),55,57,47,14,19,73,73,94,85,13,11,5,6,0.2,0.2
2026-04-18T2200,1793A,124.9026,46.6217,大庆市,让胡路区,,45,45,47,22,24,57,57,86,73,24,11,3,4,0.3,0.4
2026-04-18T2200,3481A,125.127,46.6277,大庆市,萨区政府监测点,,30,30,32,17,17,69,69,84,80,8,5,9,8,0.3,0.3
2026-04-18T2200,1723A,113.2926,40.0759,大同市,云冈宾馆,颗粒物(PM10),96,114,114,44,33,120,120,133,128,26,36,8,9,0.4,0.5
2026-04-18T2200,1724A,113.3437,40.0921,大同市,大同大学,NA,NA,108,98,NA,28,104,104,142,136,47,41,5,6,0.7,0.6
2026-04-18T2200,1725A,113.2637,40.129,大同市,安家小村,颗粒物(PM10),89,104,98,45,29,122,122,135,130,25,31,7,9,0.6,0.8
2026-04-18T2200,3282A,113.3399,40.0586,大同市,大同市卫生学校,颗粒物(PM10),98,116,99,52,28,128,128,149,142,27,38,6,9,0.7,0.6
2026-04-18T2200,3565A,113.1371,40.1122,大同市,云冈站,颗粒物(PM10),83,95,94,36,24,95,95,142,134,34,30,10,8,0.5,0.4
2026-04-18T2200,3566A,113.1186,40.2556,大同市,图书馆,颗粒物(PM10),71,79,80,21,22,103,103,138,128,26,16,33,9,0.8,0.6
2026-04-18T2200,3567A,113.5931,40.0459,大同市,区一中,颗粒物(PM10),81,93,76,36,25,155,155,152,152,20,18,10,9,0.9,0.8
2026-04-18T2200,4199A,113.2798248,40.09972476,大同市,魏都大道141号,颗粒物(PM10),87,101,105,45,31,129,129,139,135,20,35,10,10,0.8,1
2026-04-18T2200,2269A,124.1068,50.4091,大兴安岭地区,科技局,,26,21,16,13,7,81,81,83,80,4,2,9,8,0.4,0.3
2026-04-18T2200,3663A,124.117,50.4279,大兴安岭地区,红旗社区,,24,24,7,15,7,64,64,91,86,13,4,10,8,0.3,0.2
2026-04-18T2200,1600A,124.33,40.0625,丹东市,江湾东路,,38,38,59,20,30,39,39,122,89,13,12,6,6,0.4,0.6
2026-04-18T2200,1601A,124.4242,40.1513,丹东市,临江后街,颗粒物(PM10),55,57,48,30,29,46,46,120,89,16,14,9,7,0.8,0.5
2026-04-18T2200,1602A,124.3935,40.1461,丹东市,元宝山,,43,39,49,30,31,37,37,116,92,22,14,10,7,1.2,0.7
2026-04-18T2200,1603A,124.3634,40.1093,丹东市,民主桥,颗粒物(PM10),61,65,71,26,33,39,39,119,88,17,19,9,7,0.8,0.4
2026-04-18T2200,3541A,109.5726195,19.51688767,儋州市,第一中学子站,,36,36,32,22,17,60,60,68,65,7,7,4,4,0.8,0.8
2026-04-18T2200,3542A,109.5567,19.5187,儋州市,东坡学校子站,,36,36,28,23,17,67,67,76,72,7,8,5,5,0.5,0.5
2026-04-18T2200,2616A,98.5611,24.4273,德宏傣族景颇族自治州,德宏州监测站,细颗粒物(PM2.5),214,183,78,164,69,54,54,130,113,31,20,7,7,1.0,0.6
2026-04-18T2200,3677A,98.5887,24.4366,德宏傣族景颇族自治州,芒市人民政府综合楼,细颗粒物(PM2.5),110,141,106,71,59,NA,NA,119,117,20,16,6,5,0.4,0.7
2026-04-18T2200,1901A,104.424,31.1209,德阳市,东山公园,颗粒物(PM10),52,52,40,32,24,126,126,138,136,8,9,4,5,0.5,0.4
2026-04-18T2200,1902A,104.3827,31.1318,德阳市,西小区,细颗粒物(PM2.5),111,78,66,72,37,65,65,132,119,38,40,5,5,0.7,0.6
2026-04-18T2200,1904A,104.3553,31.1091,德阳市,耐火材料厂,细颗粒物(PM2.5),123,97,68,85,40,92,92,156,144,30,33,3,4,0.5,0.5
2026-04-18T2200,4145A,104.4144,31.1495,德阳市,市林业局,细颗粒物(PM2.5),94,68,45,57,27,31,31,151,126,81,29,2,3,0.6,0.4
2026-04-18T2200,1622A,116.3034,37.4675,德州市,儿童乐园,颗粒物(PM10),79,90,103,20,50,130,130,152,148,16,14,8,8,0.6,0.7
2026-04-18T2200,1624A,116.2992,37.4449,德州市,监理站,颗粒物(PM10),78,88,104,18,46,127,127,152,147,23,20,12,11,0.5,0.6
2026-04-18T2200,3066A,116.2722,37.438,德州市,九衢泉纯净水厂,颗粒物(PM10),74,83,98,18,48,112,112,139,131,24,21,4,5,0.6,0.8
2026-04-18T2200,3371A,116.3693,37.44,德州市,开发区人民医院,颗粒物(PM10),72,80,106,16,53,107,107,149,138,29,19,11,11,0.4,0.6
2026-04-18T2200,3511A,116.5687,37.3331,德州市,陵城艺术中心,颗粒物(PM10),72,80,94,14,55,119,119,138,130,14,12,6,9,0.7,0.9
2026-04-18T2200,4292A,116.352738,37.420875,德州市,新河东路,颗粒物(PM10),67,73,96,17,44,110,110,146,138,19,16,8,8,0.5,0.8
2026-04-18T2200,2621A,99.7054,27.8319,迪庆藏族自治州,迪庆州站,,33,22,27,15,16,103,103,104,104,9,11,8,8,0.5,0.5
2026-04-18T2200,3180A,99.7122,27.8129,迪庆藏族自治州,质量技术监督局,,33,20,22,18,13,105,105,109,108,9,10,8,7,0.4,0.4
2026-04-18T2200,4257A,104.6092,35.5962,定西市,将台街,,45,45,48,21,16,100,100,124,120,14,11,6,6,0.2,0.1
2026-04-18T2200,4309A,104.6159,35.5701,定西市,正龙路62号,颗粒物(PM10),53,54,46,20,14,100,100,126,122,11,8,4,3,0.3,0.2
2026-04-18T2200,4071A,114.9883,38.5232,定州市,交通局,颗粒物(PM10),80,91,134,31,75,83,83,145,128,26,22,7,7,0.4,0.6
2026-04-18T2200,4072A,115.0045,38.5136,定州市,第五中学,颗粒物(PM10),101,122,139,37,71,56,56,141,118,56,30,3,3,0.3,0.5
2026-04-18T2200,1390A,113.7943,23.0132,东莞市,东城石井,细颗粒物(PM2.5),56,55,51,38,36,110,110,190,173,34,27,5,6,0.8,0.8
2026-04-18T2200,1391A,113.7384,22.9659,东莞市,南城西平,NA,NA,68,57,44,44,134,134,182,172,29,34,7,7,NA,0.9
2026-04-18T2200,3319A,113.7283,23.041,东莞市,万江金泰,细颗粒物(PM2.5),64,67,56,42,48,125,125,178,170,40,32,7,9,1.0,0.9
2026-04-18T2200,4129A,113.8666,23.1062,东莞市,裕兴路,颗粒物(PM10),59,62,52,35,33,135,135,154,153,36,22,7,6,1.1,1
2026-04-18T2200,4130A,114.0076,22.9739,东莞市,教育路1号,细颗粒物(PM2.5),108,105,59,68,41,132,132,213,194,52,28,8,7,1.0,0.8
2026-04-18T2200,4131A,113.7981,22.8124,东莞市,长怡路1号,细颗粒物(PM2.5),84,86,64,52,42,126,126,194,180,41,29,8,7,1.0,0.9
2026-04-18T2200,1666A,118.6612,37.4313,东营市,市环保局,颗粒物(PM10),75,85,106,31,58,129,129,188,167,17,21,13,17,0.8,0.8
2026-04-18T2200,3036A,118.6903,37.4337,东营市,开发区管委会,颗粒物(PM10),75,85,101,41,70,135,135,197,172,22,26,10,13,1.0,1.1
2026-04-18T2200,3365A,118.5721,37.5654,东营市,垦利区民丰路,颗粒物(PM10),72,80,96,35,58,140,140,189,177,19,27,10,11,0.8,0.8
2026-04-18T2200,3498A,118.5063,37.8606,东营市,河口城区,颗粒物(PM10),78,88,105,45,58,144,144,202,189,16,19,16,16,1.1,1.2
2026-04-18T2200,3646A,118.4979,37.4623,东营市,胜利站,颗粒物(PM10),68,75,105,38,61,114,114,168,160,22,25,12,12,0.9,0.9
2026-04-18T2200,3734A,118.5753,37.4405,东营市,理想之城,颗粒物(PM10),78,88,105,42,70,105,105,173,153,31,35,10,11,0.9,0.9
2026-04-18T2200,1591A,110.0024,39.8127,鄂尔多斯市,综合楼,颗粒物(PM10),68,75,81,23,22,108,108,136,130,18,19,6,8,0.5,0.4
2026-04-18T2200,1592A,109.9485,39.8259,鄂尔多斯市,巴音孟克林场办事处,颗粒物(PM10),70,78,70,26,17,114,114,145,140,18,16,6,7,0.4,0.4
2026-04-18T2200,1593A,109.7734,39.5987,鄂尔多斯市,康泽苑,颗粒物(PM10),53,53,62,14,15,113,113,140,135,16,13,9,10,0.2,0.2
2026-04-18T2200,1594A,109.8121,39.5987,鄂尔多斯市,华泰汽车城,颗粒物(PM10),56,58,62,20,15,101,101,133,127,19,13,8,9,0.3,0.3
2026-04-18T2200,1595A,109.9734,39.7884,鄂尔多斯市,奥林花园,颗粒物(PM10),68,75,76,23,16,97,97,136,129,28,23,7,8,0.4,0.4
2026-04-18T2200,2436A,114.894,30.3989,鄂州市,市政府,细颗粒物(PM2.5),104,117,77,64,43,48,48,171,141,49,31,9,13,0.9,0.7
2026-04-18T2200,2437A,114.8986,30.3714,鄂州市,赵家坝,颗粒物(PM10),94,111,74,53,40,79,79,163,138,36,21,10,9,0.9,0.8
2026-04-18T2200,3654A,114.8093,30.4091,鄂州市,精准医疗中心,细颗粒物(PM2.5),92,86,74,56,47,99,99,165,147,36,33,4,6,0.7,0.8
2026-04-18T2200,2454A,109.4978,30.2979,恩施土家族苗族自治州,湖北民院,细颗粒物(PM2.5),64,50,39,42,19,48,48,106,99,23,11,8,8,0.2,0.1
2026-04-18T2200,3549A,109.5061,30.3771,恩施土家族苗族自治州,龙凤新区,,43,43,35,20,17,33,33,90,78,13,12,7,7,0.4,0.4
2026-04-18T2200,2499A,108.3411,21.6159,防城港市,沙万,,38,37,35,26,21,97,97,98,98,20,15,7,7,1.1,0.9
2026-04-18T2200,2500A,108.3515,21.7733,防城港市,防城档案局,颗粒物(PM10),63,67,50,37,28,81,81,99,99,10,10,8,6,0.9,0.7
2026-04-18T2200,2501A,108.3506,21.6414,防城港市,大海花园,,40,NA,32,28,26,109,109,118,118,17,13,16,9,1.0,1
2026-04-18T2200,1371A,113.1293,23.0065,佛山市,湾梁,细颗粒物(PM2.5),68,63,44,44,34,73,73,140,129,33,23,/,/,/,/
2026-04-18T2200,1372A,113.1082,23.0477,佛山市,华材职中,细颗粒物(PM2.5),102,88,50,62,39,52,52,132,118,49,32,4,5,0.6,0.6
2026-04-18T2200,1373A,113.1439,23.045,佛山市,南海气象局,颗粒物(PM10),58,60,43,38,34,91,91,142,135,30,25,/,/,/,/
2026-04-18T2200,1374A,113.2879,22.8094,佛山市,顺德苏岗,细颗粒物(PM2.5),58,40,32,39,36,82,82,162,148,36,25,/,/,0.8,0.7
2026-04-18T2200,1376A,112.8384,22.8678,佛山市,高明孔堂,,31,31,36,17,28,62,62,117,106,12,17,/,/,/,/
2026-04-18T2200,1377A,112.8835,23.1584,佛山市,三水监测站,颗粒物(PM10),62,66,37,38,30,35,35,103,90,66,31,4,6,0.6,0.6
2026-04-18T2200,1378A,112.8668,23.185,佛山市,三水云东海,颗粒物(PM10),60,64,50,29,28,29,29,105,86,44,24,/,/,/,/
2026-04-18T2200,3625A,113.2568,22.7629,佛山市,容桂街道办,,49,48,42,34,41,95,95,156,143,34,30,/,/,/,/
2026-04-18T2200,1282A,119.2681,26.0506,福州市,师大,细颗粒物(PM2.5),56,NA,20,38,19,85,85,93,92,21,19,4,4,0.7,0.7
2026-04-18T2200,1283A,119.2983,26.1028,福州市,五四北路,细颗粒物(PM2.5),66,NA,20,43,22,74,74,82,80,27,25,4,4,0.5,0.6
2026-04-18T2200,1284A,119.2648,26.0769,福州市,杨桥西路,细颗粒物(PM2.5),56,NA,20,38,18,82,82,90,88,20,18,4,4,/,/
2026-04-18T2200,3048A,119.5799,26.0937,福州市,九龙,,39,31,20,27,18,72,72,107,92,12,13,5,5,0.5,0.6
2026-04-18T2200,3526A,119.5188,25.9666,福州市,吴航,,39,34,21,27,16,83,83,102,94,15,17,5,5,0.6,0.7
2026-04-18T2200,4104A,119.3106,26.0648,福州市,路通桥巷6号,细颗粒物(PM2.5),54,42,25,37,21,78,78,88,86,20,20,/,/,/,/
2026-04-18T2200,1755A,123.7974,41.8494,抚顺市,望花区,细颗粒物(PM2.5),136,158,100,99,65,86,86,146,130,39,28,45,19,1.5,1.1
2026-04-18T2200,1756A,123.9161,41.8827,抚顺市,顺城区,细颗粒物(PM2.5),175,183,88,132,70,3,3,128,97,98,33,16,17,1.5,1.2
2026-04-18T2200,1757A,124.0437,41.8615,抚顺市,东洲区,细颗粒物(PM2.5),133,168,108,96,68,82,82,136,119,29,25,16,14,1.0,1
2026-04-18T2200,1758A,123.9246,41.8638,抚顺市,新抚区,细颗粒物(PM2.5),133,126,77,96,69,62,62,141,120,41,26,10,12,1.4,1.1
2026-04-18T2200,1759A,124.0972,41.8961,抚顺市,大伙房水库,细颗粒物(PM2.5),90,68,67,55,55,91,91,150,136,16,18,10,12,0.8,0.9
2026-04-18T2200,1760A,123.708,41.8386,抚顺市,沈抚新城,细颗粒物(PM2.5),172,224,105,130,74,50,50,140,114,57,34,12,14,1.4,1.2
2026-04-18T2200,2377A,116.3544,27.9833,抚州市,市站,,45,45,39,31,30,58,58,131,121,26,12,14,9,1.2,1
2026-04-18T2200,2378A,116.3562,27.9631,抚州市,血防站,,37,37,39,21,29,97,97,122,118,19,13,19,10,0.8,0.9
2026-04-18T2200,2379A,116.3561,28.0007,抚州市,采茶剧团,,47,47,41,25,28,104,104,119,117,23,11,57,18,0.6,0.8
2026-04-18T2200,2380A,116.3854,27.9648,抚州市,医学分院,,43,43,47,26,24,106,106,120,119,10,8,91,22,0.7,0.9
2026-04-18T2200,2207A,121.6095,41.9978,阜新市,工业园区,细颗粒物(PM2.5),119,86,71,80,58,161,161,124,124,11,21,5,6,0.9,0.7
2026-04-18T2200,2208A,121.6567,42.0188,阜新市,长青街,细颗粒物(PM2.5),118,107,81,79,61,169,169,127,127,12,18,11,9,0.8,0.7
2026-04-18T2200,2209A,121.6672,42.07,阜新市,农业园区,细颗粒物(PM2.5),122,125,83,84,50,172,172,130,130,14,17,8,7,0.9,0.7
2026-04-18T2200,2211A,121.6343,42.0455,阜新市,玉龙新城,细颗粒物(PM2.5),112,107,72,73,49,162,162,127,127,14,24,10,8,0.9,0.7
2026-04-18T2200,2301A,115.8276,32.8929,阜阳市,市监测站,颗粒物(PM10),73,82,67,28,34,94,94,143,125,27,18,8,6,0.5,0.4
2026-04-18T2200,2303A,115.8551,32.8606,阜阳市,开发区,颗粒物(PM10),77,87,80,33,34,89,89,142,129,15,12,6,6,0.6,0.5
2026-04-18T2200,2875A,115.783962,32.889217,阜阳市,阜阳职业技术学院,颗粒物(PM10),63,68,56,30,30,93,93,144,133,22,11,7,8,0.5,0.4
2026-04-18T2200,3468A,115.79,32.8614,阜阳市,市规划展馆,颗粒物(PM10),54,55,59,31,38,102,102,138,128,24,15,9,9,0.5,0.5
2026-04-18T2200,3469A,115.835101,32.918568,阜阳市,枣园社区,颗粒物(PM10),70,77,80,30,39,106,106,144,132,21,14,9,7,0.5,0.5
2026-04-18T2200,2669A,102.9097,34.9841,甘南藏族自治州,州政府,颗粒物(PM10),81,93,49,44,21,15,15,109,88,60,30,5,3,0.8,0.5
2026-04-18T2200,3380A,102.8915,34.9618,甘南藏族自治州,甘肃民族师范学院,颗粒物(PM10),116,161,66,30,15,8,8,112,90,75,36,3,3,0.3,0.2
2026-04-18T2200,2570A,101.96,30.048,甘孜藏族自治州,水桥子,,26,26,24,3,7,65,65,85,80,17,22,6,6,0.2,0.2
2026-04-18T2200,3065A,101.9534,29.9976,甘孜藏族自治州,州环保局,,36,36,22,15,8,39,39,90,74,37,15,5,5,0.3,0.2
2026-04-18T2200,2363A,114.9368,25.8663,赣州市,地委,,44,44,25,29,17,48,48,101,88,23,7,4,2,1.1,1.1
2026-04-18T2200,2364A,114.946,25.8483,赣州市,气象台,细颗粒物(PM2.5),52,41,29,36,21,34,34,99,82,36,11,8,5,1.0,0.8
2026-04-18T2200,2365A,114.932,25.8332,赣州市,市图书馆,颗粒物(PM10),51,51,25,26,21,62,62,108,96,25,8,4,4,1.0,0.9
2026-04-18T2200,2366A,114.8905,25.8472,赣州市,华坚鞋城,,45,45,32,29,20,63,63,96,85,23,10,5,5,1.0,0.9
2026-04-18T2200,3109A,115.0094,25.8614,赣州市,赣县区卫计委,,30,30,24,21,14,14,14,95,73,40,16,3,3,1.0,0.9
2026-04-18T2200,2684A,106.2753,36.0057,固原市,监测站,颗粒物(PM10),61,65,46,23,19,100,100,128,125,18,14,8,6,0.5,0.4
2026-04-18T2200,2685A,106.2384,36.0189,固原市,新区,颗粒物(PM10),55,56,49,19,17,70,70,125,115,31,16,7,5,0.8,0.6
2026-04-18T2200,2544A,106.6307,30.4577,广安市,市委,细颗粒物(PM2.5),80,59,47,50,28,52,52,130,111,47,19,8,7,0.7,0.4
2026-04-18T2200,2545A,106.6266,30.4662,广安市,友谊中学,细颗粒物(PM2.5),54,44,38,37,23,71,71,126,114,19,12,7,7,0.6,0.4
2026-04-18T2200,2547A,106.6386,30.4551,广安市,广电花园,NA,NA,NA,66,36,31,54,54,122,105,34,17,6,6,0.6,0.4
2026-04-18T2200,2902A,106.6347,30.4868,广安市,北辰小学,细颗粒物(PM2.5),68,63,47,44,29,72,72,125,113,24,13,6,9,0.6,0.4
2026-04-18T2200,2524A,105.8211,32.4444,广元市,老城,颗粒物(PM10),55,56,44,25,19,17,17,127,106,76,33,2,4,0.6,0.5
2026-04-18T2200,2526A,105.8629,32.429,广元市,监测站,颗粒物(PM10),59,62,44,25,19,64,64,120,108,35,18,5,5,0.6,0.4
2026-04-18T2200,3617A,105.8047,32.4167,广元市,经开区,,50,50,51,27,27,78,78,122,116,30,27,3,8,0.4,0.5
2026-04-18T2200,1345A,113.2346,23.1423,广州市,广雅中学,颗粒物(PM10),53,53,40,34,26,69,69,124,114,51,32,4,4,1.0,0.9
2026-04-18T2200,1346A,113.2611,23.105,广州市,市五中,"颗粒物(PM10),细颗粒物(PM2.5)",56,58,40,38,28,98,98,154,143,41,28,4,4,/,/
2026-04-18T2200,1348A,113.3477,23.0916,广州市,广东商学院,颗粒物(PM10),61,65,39,40,27,69,69,143,130,73,33,6,6,1.1,1
2026-04-18T2200,1349A,113.4332,23.105,广州市,市八十六中,颗粒物(PM10),57,59,37,25,44,47,47,140,121,92,44,7,7,/,/
2026-04-18T2200,1350A,113.3506,22.9488,广州市,番禺中学,细颗粒物(PM2.5),60,61,46,40,28,91,91,158,146,40,32,6,6,0.9,0.8
2026-04-18T2200,1351A,113.2147,23.3918,广州市,花都师范,,46,46,31,30,24,68,68,121,113,43,20,7,6,1.1,0.9
2026-04-18T2200,1352A,113.2599,23.1329,广州市,市监测站,颗粒物(PM10),58,61,45,34,26,76,76,135,125,48,26,4,4,/,/
2026-04-18T2200,1353A,113.5618,23.3119,广州市,九龙镇镇龙,,34,34,37,23,23,46,46,130,114,44,23,6,6,0.7,0.6
2026-04-18T2200,1354A,113.2764,23.1544,广州市,麓湖,,40,40,30,19,29,38,38,132,108,63,30,5,5,0.8,0.8
2026-04-18T2200,2846A,113.3209,23.1323,广州市,体育西,细颗粒物(PM2.5),66,65,38,43,26,91,91,139,130,48,31,6,6,0.8,0.7
2026-04-18T2200,3298A,113.5718,23.5493,广州市,从化街口,,47,47,40,31,26,46,46,116,105,35,17,8,8,0.9,0.8
2026-04-18T2200,3299A,113.3463,23.369,广州市,白云竹料,颗粒物(PM10),66,72,47,42,28,28,28,127,113,66,30,4,4,1.2,0.8
2026-04-18T2200,3300A,113.2981,23.2365,广州市,白云嘉禾,颗粒物(PM10),58,60,49,36,31,55,55,134,110,62,37,6,6,/,/
2026-04-18T2200,3301A,113.4256,23.1716,广州市,黄埔科学城,,41,41,40,27,30,53,53,143,127,33,23,3,5,0.9,0.8
2026-04-18T2200,3302A,113.3942,23.0485,广州市,番禺大学城,细颗粒物(PM2.5),64,58,42,42,30,94,94,157,148,46,30,4,4,0.9,0.8
2026-04-18T2200,3303A,113.4923,22.8169,广州市,南沙黄阁,颗粒物(PM10),63,68,52,35,34,71,71,176,159,55,38,7,7,/,/
2026-04-18T2200,3304A,113.534,22.7893,广州市,南沙街,颗粒物(PM10),59,62,48,38,37,104,104,172,164,33,34,7,7,0.7,0.6
2026-04-18T2200,3443A,113.2905,23.5541,广州市,花都梯面,,23,22,21,16,16,14,14,81,64,35,18,7,8,/,/
2026-04-18T2200,3445A,113.786,23.7479,广州市,从化良口,,22,21,25,15,18,58,58,100,85,11,10,4,4,/,/
2026-04-18T2200,3446A,113.805,23.2614,广州市,增城荔城,,37,37,35,24,23,59,59,127,114,34,18,6,5,0.9,0.7
2026-04-18T2200,2506A,109.604387,23.066791,贵港市,江南子站,颗粒物(PM10),63,68,54,35,33,68,68,104,100,24,17,7,9,1.0,0.8
2026-04-18T2200,2508A,109.5669,23.1065,贵港市,荷城子站,,48,48,41,32,29,47,47,95,86,28,19,9,12,1.0,0.9
2026-04-18T2200,3405A,109.5886,23.1172,贵港市,新世纪学校,颗粒物(PM10),55,56,42,37,31,26,26,99,87,48,18,/,/,0.9,0.7
2026-04-18T2200,4260A,109.5933,23.095,贵港市,中山路155-3号,"颗粒物(PM10),细颗粒物(PM2.5)",52,52,51,36,33,85,85,107,106,17,15,/,/,1.1,1
2026-04-18T2200,1439A,106.6863,26.6035,贵阳市,马鞍山,,24,24,21,12,14,40,40,100,83,12,11,5,5,/,/
2026-04-18T2200,1441A,106.6241,26.6266,贵阳市,鉴湖路,,34,34,36,10,15,82,82,106,101,13,12,6,7,0.7,0.7
2026-04-18T2200,1442A,106.7468,26.6344,贵阳市,燕子冲,,29,29,33,9,13,55,55,100,89,17,11,4,5,1.0,0.9
2026-04-18T2200,1443A,106.6556,26.4362,贵阳市,碧云窝,,41,41,39,20,16,68,68,99,90,11,10,7,5,/,/
2026-04-18T2200,1445A,106.6963,26.6063,贵阳市,红边门,,23,17,25,16,19,67,67,99,89,18,14,6,8,/,/
2026-04-18T2200,1446A,106.7162383,26.56964667,贵阳市,新华路,,24,24,34,14,14,60,60,84,76,15,16,2,2,0.2,0.4
2026-04-18T2200,1447A,106.6742,26.542,贵阳市,太慈桥,,31,31,30,18,17,44,44,94,81,27,15,4,4,/,/
2026-04-18T2200,4230A,106.688212,26.56952,贵阳市,花果园大街66号,,22,NA,15,15,14,68,68,103,94,20,13,2,3,/,/
2026-04-18T2200,4231A,106.687268,26.516892,贵阳市,漓江路57号,,38,NA,21,26,18,57,57,92,81,16,17,6,6,0.6,0.6
2026-04-18T2200,1864A,110.3091,25.2705,桂林市,龙隐路小学,颗粒物(PM10),56,58,34,30,22,40,40,106,94,25,13,4,5,0.6,0.6
2026-04-18T2200,1865A,110.2849361,25.22909545,桂林市,八中,颗粒物(PM10),51,51,35,16,12,33,33,99,85,25,15,4,6,0.7,0.8
2026-04-18T2200,3531A,110.296,25.1254,桂林市,旅游学院,,46,46,36,32,23,48,48,103,90,26,13,6,7,0.7,0.7
2026-04-18T2200,4222A,110.1835,25.2444,桂林市,环湖路276号,,48,48,36,22,26,15,15,105,95,46,19,3,13,0.9,0.6
2026-04-18T2200,4301A,110.2803,25.2773,桂林市,信义路13号,,48,47,35,33,21,30,30,104,92,41,17,4,7,0.8,0.7
2026-04-18T2200,2674A,100.2262,34.4854,果洛藏族自治州,玛沁县大武镇,,35,35,34,15,14,77,77,106,100,4,6,18,20,0.6,0.5
2026-04-18T2200,1130A,126.5557,45.8109,哈尔滨市,松北商大,,38,30,21,26,22,72,72,99,89,14,7,7,8,0.5,0.6
2026-04-18T2200,1132A,126.6162,45.719,哈尔滨市,南岗学府路,,47,47,31,15,14,72,72,107,96,24,9,2,2,0.5,0.4
2026-04-18T2200,1133A,126.6894,45.7733,哈尔滨市,太平宏伟公园,颗粒物(PM10),52,52,28,30,17,54,54,98,80,36,14,5,6,0.4,0.3
2026-04-18T2200,1134A,126.6361,45.7672,哈尔滨市,道外承德广场,颗粒物(PM10),59,62,44,30,17,55,55,94,80,35,14,7,8,0.5,0.6
2026-04-18T2200,1136A,126.644,45.7261,哈尔滨市,动力和平路,NA,NA,NA,24,26,16,71,71,98,88,23,12,6,4,0.4,0.3
2026-04-18T2200,1137A,126.5933,45.7479,哈尔滨市,道里建国路,,33,25,26,23,17,77,77,98,89,31,20,7,3,0.2,0.1
2026-04-18T2200,1138A,126.6127,45.6119,哈尔滨市,平房东轻厂,细颗粒物(PM2.5),86,NA,24,53,22,47,47,97,82,47,19,11,12,0.6,0.5
2026-04-18T2200,1139A,126.5875,45.9827,哈尔滨市,呼兰师专,NA,NA,NA,NA,NA,NA,NA,NA,NA,NA,NA,NA,NA,NA,NA,NA
2026-04-18T2200,1140A,126.6299,45.6799,哈尔滨市,省农科院,颗粒物(PM10),51,51,48,30,21,64,64,91,80,18,9,5,6,0.4,0.2
2026-04-18T2200,4282A,126.6769,45.7379,哈尔滨市,华山路1号,,46,46,27,28,15,69,69,104,93,18,7,10,8,0.2,0.1
2026-04-18T2200,4283A,126.9717,45.5356,哈尔滨市,解放大街52号,,45,45,31,26,15,64,64,108,93,25,13,3,4,0.5,0.5
2026-04-18T2200,2688A,93.5124,42.8176,哈密市,地区监测站,颗粒物(PM10),51,51,57,7,31,99,99,94,92,4,7,8,9,0.2,0.1
2026-04-18T2200,2689A,93.5014,42.8312,哈密市,哈密师范学校,颗粒物(PM10),53,54,57,19,18,102,102,94,93,5,9,7,8,0.1,0.1
2026-04-18T2200,2671A,100.9016,36.9464,海北藏族自治州,海晏县西海镇,,39,39,20,22,11,54,54,112,98,12,4,6,7,0.2,0.3
2026-04-18T2200,3867A,102.074,36.5056,海东市,平安区公安局北苑,颗粒物(PM10),65,70,38,22,17,96,96,115,111,20,15,18,12,0.5,0.6
2026-04-18T2200,4163A,102.0984,36.5119,海东市,滨河路,颗粒物(PM10),69,76,33,23,15,46,46,100,86,62,31,25,10,0.7,0.7
2026-04-18T2200,1410A,110.3189,20.0596,海口市,海南大学,,33,33,23,22,14,47,47,73,63,9,8,5,5,0.4,0.4
2026-04-18T2200,1411A,110.2827,20.0051,海口市,秀英海南医院,,36,28,20,25,16,40,40,59,50,13,13,8,8,0.3,0.3
2026-04-18T2200,1412A,110.3391,19.9979,海口市,海南师范大学,,35,28,21,24,16,42,42,66,56,10,8,6,6,0.5,0.5
2026-04-18T2200,1413A,110.3303,20.0359,海口市,龙华路环保局宿舍,,36,33,22,25,16,50,50,73,62,10,10,/,/,0.7,0.8
2026-04-18T2200,3539A,110.5111,19.9737,海口市,桂林洋子站,,42,42,29,24,14,32,32,59,44,15,12,/,/,/,/
2026-04-18T2200,4134A,110.1952,20.0451,海口市,长滨二路9号,,31,31,20,3,11,35,35,69,57,13,10,/,/,/,/
2026-04-18T2200,2673A,100.6158,36.2985,海南藏族自治州,共和县恰卜恰镇,颗粒物(PM10),53,53,34,29,16,38,38,118,98,34,15,16,9,0.3,0.3
2026-04-18T2200,2676A,97.373,37.376,海西蒙古族藏族自治州,德令哈市,,35,20,27,17,15,112,112,134,129,2,4,17,16,0.3,0.3
2026-04-18T2200,1049A,114.492,36.5712,邯郸市,矿院,,49,49,74,19,31,101,101,143,132,6,11,5,6,0.3,0.4
2026-04-18T2200,1050A,114.4839,36.6136,邯郸市,丛台公园,,46,42,71,32,33,108,108,145,135,10,14,3,6,0.3,0.4
2026-04-18T2200,3458A,114.7893,36.5592,邯郸市,香泉濮院小区,颗粒物(PM10),65,71,82,27,39,97,97,136,128,14,11,3,2,0.3,0.4
2026-04-18T2200,3580A,114.1998,36.4439,邯郸市,峰峰矿区临水派出所,,50,50,66,32,28,114,114,153,141,12,14,3,6,0.3,0.5
2026-04-18T2200,4068A,114.5209,36.7697,邯郸市,建安街268号,颗粒物(PM10),68,75,85,14,33,116,116,145,136,8,14,1,5,0.3,0.5
2026-04-18T2200,4069A,114.5488,36.6177,邯郸市,丛台东路558号,颗粒物(PM10),65,70,80,30,40,95,95,140,129,12,12,2,4,0.4,0.4
2026-04-18T2200,2635A,107.0155,33.0707,汉中市,市监测站,细颗粒物(PM2.5),108,87,65,68,34,74,74,127,116,22,18,5,7,0.5,0.6
2026-04-18T2200,2636A,107.0083,33.114,汉中市,鑫源开发区,细颗粒物(PM2.5),88,67,58,54,31,65,65,127,113,24,17,5,6,0.5,0.5
2026-04-18T2200,2637A,107.0072,33.0323,汉中市,南郑大河坎水厂,细颗粒物(PM2.5),82,74,54,51,28,74,74,125,112,16,15,5,4,0.4,0.3
2026-04-18T2200,1223A,120.2073,30.2111,杭州市,滨江,颗粒物(PM10),59,62,66,35,40,82,82,131,120,32,22,8,8,0.8,0.8
2026-04-18T2200,1224A,120.0625,30.2737,杭州市,西溪,,38,33,45,26,35,44,44,132,110,21,18,4,4,0.9,1
2026-04-18T2200,1226A,120.3417,30.315,杭州市,下沙,颗粒物(PM10),78,88,84,36,35,51,51,112,102,60,25,7,7,0.7,0.7
2026-04-18T2200,1227A,120.1252,30.2465,杭州市,卧龙桥,,33,30,43,23,33,32,32,135,104,27,25,7,8,0.6,0.6
2026-04-18T2200,1228A,120.1902,30.2691,杭州市,浙江农大,,47,47,48,31,37,42,42,119,102,73,38,8,8,0.6,0.6
2026-04-18T2200,1230A,120.1195,30.3121,杭州市,和睦小学,细颗粒物(PM2.5),52,46,41,36,38,79,79,134,122,32,22,6,6,0.7,0.7
2026-04-18T2200,1231A,120.3076,30.4146,杭州市,临平镇,颗粒物(PM10),69,76,51,42,32,71,71,124,112,46,25,7,7,0.6,0.6
2026-04-18T2200,1232A,120.2753,30.1839,杭州市,城厢镇,细颗粒物(PM2.5),56,53,45,38,41,58,58,116,105,48,28,7,7,0.6,0.6
2026-04-18T2200,1233A,120.0883,30.1808,杭州市,云栖,,33,33,47,23,34,28,28,127,97,32,25,6,6,0.7,0.9
2026-04-18T2200,3557A,119.9463,30.0496,杭州市,镇二中,细颗粒物(PM2.5),56,47,52,38,46,94,94,142,131,26,20,5,5,0.5,0.6
2026-04-18T2200,3558A,119.7184,30.2367,杭州市,市府大楼,,36,21,38,17,46,113,113,136,131,17,18,6,6,0.6,0.8
2026-04-18T2200,3656A,120.1554,30.2863,杭州市,消防大队,颗粒物(PM10),55,56,77,26,37,77,77,122,113,35,27,5,5,1.1,1
2026-04-18T2200,1270A,117.1957,31.7845,合肥市,明珠广场,颗粒物(PM10),60,63,72,18,32,105,105,164,148,40,23,8,8,0.6,0.7
2026-04-18T2200,1271A,117.307,31.8765,合肥市,三里街,颗粒物(PM10),51,51,66,15,29,95,95,140,127,47,27,7,6,0.6,0.6
2026-04-18T2200,1272A,117.2587,31.8703,合肥市,琥珀山庄,颗粒物(PM10),53,53,65,14,27,99,99,143,128,34,24,7,7,0.8,0.7
2026-04-18T2200,1275A,117.2593,31.9376,合肥市,庐阳区,颗粒物(PM10),55,56,71,12,29,103,103,142,124,39,24,5,6,0.6,0.7
2026-04-18T2200,1276A,117.345251,31.861615,合肥市,瑶海区,颗粒物(PM10),65,70,72,17,27,94,94,152,131,53,25,7,7,0.7,0.6
2026-04-18T2200,1277A,117.3033,31.7967,合肥市,包河区,颗粒物(PM10),70,78,77,17,25,44,44,144,109,102,54,10,10,0.7,0.7
2026-04-18T2200,1278A,117.278,31.7392,合肥市,滨湖新区,颗粒物(PM10),60,63,73,19,27,116,116,145,137,20,12,6,7,0.6,0.7
2026-04-18T2200,1279A,117.1324,31.8395,合肥市,高新区,颗粒物(PM10),63,68,70,16,25,96,96,148,130,38,16,6,6,0.6,0.7
2026-04-18T2200,3464A,117.3802,31.9148,合肥市,高教基地,颗粒物(PM10),53,53,70,15,27,98,98,153,133,30,18,8,9,0.5,0.5
2026-04-18T2200,4098A,117.2518,31.8404,合肥市,中国科学技术大学,颗粒物(PM10),53,53,65,14,26,113,113,160,145,27,14,6,7,0.7,0.7
2026-04-18T2200,3614A,79.9241,37.0878,和田地区,地区环保局,颗粒物(PM10),307,425,360,96,83,70,70,106,103,27,9,3,3,0.6,0.5
2026-04-18T2200,3615A,79.9132,37.1137,和田地区,市环保局,颗粒物(PM10),186,321,338,89,89,61,61,93,89,25,13,2,5,0.8,0.6
2026-04-18T2200,2517A,108.0496,24.6957,河池市,市环保站,,38,29,22,26,14,58,58,89,86,3,5,6,6,0.7,0.7
2026-04-18T2200,4302A,108.0901,24.6945,河池市,上任中路54号,,43,42,27,30,14,58,58,89,86,14,14,9,8,0.8,0.8
2026-04-18T2200,1697A,114.6962,23.7538,河源市,东埔,,30,30,26,21,21,28,28,105,84,33,11,5,6,0.7,0.5
2026-04-18T2200,1698A,114.6895,23.7232,河源市,老城,NA,NA,NA,23,16,21,42,42,102,82,22,12,6,6,0.6,0.6
2026-04-18T2200,3374A,115.5562,35.089,菏泽市,定陶老年大学,颗粒物(PM10),74,83,91,27,43,113,113,149,133,12,14,6,5,0.5,0.5
2026-04-18T2200,4114A,115.4239,35.2593,菏泽市,黄河路600号,颗粒物(PM10),83,96,94,27,41,109,109,131,123,15,11,2,2,0.4,0.4
2026-04-18T2200,4115A,115.5025,35.2727,菏泽市,菏泽市人社局,颗粒物(PM10),74,83,82,22,35,123,123,137,128,7,8,6,6,0.3,0.4
2026-04-18T2200,4184A,115.479691,35.244011,菏泽市,永昌路1号,颗粒物(PM10),78,89,83,24,37,132,132,148,140,14,14,2,2,0.6,0.6
2026-04-18T2200,4193A,115.471542,35.280012,菏泽市,长城路999号,颗粒物(PM10),79,90,81,20,32,132,132,144,139,12,10,7,6,0.3,0.3
2026-04-18T2200,2514A,111.5264,24.4178,贺州市,环保小区,,43,43,26,27,16,54,54,118,105,14,10,6,5,0.7,0.6
2026-04-18T2200,2515A,111.561,24.4074,贺州市,政协大楼,,41,41,26,25,17,55,55,124,110,25,12,9,8,0.6,0.6
2026-04-18T2200,3534A,111.4744,24.455,贺州市,西湾,颗粒物(PM10),54,55,28,24,15,37,37,105,87,30,12,9,8,0.7,0.7
2026-04-18T2200,2385A,114.17,35.9019,鹤壁市,市监测站,,50,50,71,32,41,111,111,139,130,12,14,6,7,0.5,0.6
2026-04-18T2200,2386A,114.2953,35.7512,鹤壁市,市交警支队,颗粒物(PM10),68,75,85,21,37,95,95,124,114,18,19,7,8,0.3,0.6
2026-04-18T2200,2387A,114.2877,35.7302,鹤壁市,迎宾馆,颗粒物(PM10),85,98,106,34,44,95,95,127,116,14,15,6,6,0.6,0.6
2026-04-18T2200,3474A,114.2616,35.6824,鹤壁市,大新区,颗粒物(PM10),65,70,98,36,50,90,90,126,114,11,19,9,9,0.6,0.7
2026-04-18T2200,3596A,114.1573,35.9607,鹤壁市,南山宾馆,颗粒物(PM10),72,80,90,34,42,111,111,136,130,11,13,9,10,0.4,0.5
2026-04-18T2200,2244A,130.2537,47.3416,鹤岗市,哈啤分公司,,25,17,22,7,16,80,80,NA,NA,6,7,10,11,0.4,0.3
2026-04-18T2200,2245A,130.2683,47.3087,鹤岗市,斯达机电,,30,30,28,10,15,79,79,88,86,9,7,9,10,0.3,0.3
2026-04-18T2200,2246A,130.3114,47.3388,鹤岗市,东山纸板厂,NA,NA,NA,38,30,17,50,50,97,88,23,9,9,8,0.6,0.4
2026-04-18T2200,2263A,127.4832,50.2524,黑河市,交通局,,48,48,25,17,14,45,45,83,69,17,10,6,5,0.3,0.2
2026-04-18T2200,2264A,127.5146,50.2339,黑河市,环保局,,30,30,21,17,10,62,62,82,76,10,9,7,8,0.3,0.3
2026-04-18T2200,1074A,115.6839,37.754,衡水市,电机北厂,颗粒物(PM10),68,74,88,29,42,117,117,145,137,20,16,6,7,0.2,0.4
2026-04-18T2200,1075A,115.6303,37.7318,衡水市,市监测站,颗粒物(PM10),71,79,92,21,39,111,111,142,132,17,16,5,5,0.3,0.4
2026-04-18T2200,3188A,115.6684,37.7216,衡水市,市城管局,颗粒物(PM10),68,74,92,37,41,120,120,145,138,13,13,3,3,0.2,0.3
2026-04-18T2200,3459A,115.599,37.5491,衡水市,地表水厂,颗粒物(PM10),70,78,101,28,40,96,96,142,127,23,17,4,4,0.3,0.4
2026-04-18T2200,2457A,112.6209,26.9268,衡阳市,衡阳化工总厂,颗粒物(PM10),63,68,40,36,23,19,19,123,99,42,18,6,5,0.8,0.8
2026-04-18T2200,2458A,112.621,26.8957,衡阳市,珠晖区环保局,细颗粒物(PM2.5),76,80,39,48,22,11,11,122,97,61,20,7,7,1.7,1.2
2026-04-18T2200,2459A,112.628,26.8654,衡阳市,市委党校,细颗粒物(PM2.5),80,55,40,50,26,41,41,122,101,28,13,9,10,1.2,1.4
2026-04-18T2200,2460A,112.6007,26.8977,衡阳市,市监测站,细颗粒物(PM2.5),76,83,40,48,26,11,11,117,91,56,21,8,8,1.4,1.1
2026-04-18T2200,2461A,112.5658,26.9013,衡阳市,真空机电公司,细颗粒物(PM2.5),58,58,34,39,23,41,41,130,110,51,16,7,7,1.5,1.1
2026-04-18T2200,3399A,112.6703,26.8817,衡阳市,师范学院,颗粒物(PM10),63,67,44,41,23,56,56,127,106,18,11,6,6,0.9,0.9
2026-04-18T2200,3038A,103.3757,23.3679,红河哈尼族彝族自治州,州图书馆,细颗粒物(PM2.5),107,86,79,67,63,122,122,126,126,7,7,4,4,0.8,0.6
2026-04-18T2200,4154A,103.401,23.3561,红河哈尼族彝族自治州,蒙自市朝阳路,细颗粒物(PM2.5),100,NA,62,60,58,114,114,127,125,8,8,4,4,0.7,0.7
2026-04-18T2200,1090A,111.6506,40.7517,呼和浩特市,呼市一监,颗粒物(PM10),70,78,81,24,22,92,92,142,126,18,25,7,9,0.4,0.4
2026-04-18T2200,1094A,111.7516,40.8369,呼和浩特市,如意水处理厂,颗粒物(PM10),65,70,77,19,25,105,105,141,132,15,28,7,9,0.2,0.3
2026-04-18T2200,1095A,111.727798,40.806187,呼和浩特市,二十九中,颗粒物(PM10),69,76,81,22,24,97,97,132,124,12,22,9,11,0.3,0.4
2026-04-18T2200,1097A,111.717,40.7617,呼和浩特市,化肥厂生活区,颗粒物(PM10),71,79,84,43,39,80,80,138,122,29,26,7,9,0.4,0.5
2026-04-18T2200,3699A,111.6519,40.8389,呼和浩特市,海东办,颗粒物(PM10),83,95,89,26,28,87,87,133,124,22,33,8,7,0.4,0.4
2026-04-18T2200,4275A,111.591512,40.827312,呼和浩特市,成吉思汗西街8号,颗粒物(PM10),80,92,90,28,26,81,81,130,116,32,40,11,8,0.5,0.4
2026-04-18T2200,4276A,111.6597,40.8077,呼和浩特市,公园东路75号,颗粒物(PM10),70,78,90,23,29,96,96,128,121,18,24,6,8,0.3,0.4
2026-04-18T2200,4277A,111.5427,40.7846,呼和浩特市,金海路35号,颗粒物(PM10),85,99,88,25,26,85,85,126,114,24,31,12,8,0.4,0.4
2026-04-18T2200,3061A,119.7511,49.1576,呼伦贝尔市,国华电力东,,28,19,21,6,9,89,89,91,89,7,9,5,5,0.3,0.3
2026-04-18T2200,4279A,119.7569,49.2222,呼伦贝尔市,伊敏大街东7号,,30,30,27,12,10,87,87,86,84,8,12,6,5,0.4,0.4
2026-04-18T2200,1250A,120.075,30.867,湖州市,城西水厂,颗粒物(PM10),55,56,43,36,32,13,13,145,126,90,35,6,6,0.7,0.6
2026-04-18T2200,2873A,120.083,30.8929,湖州市,仁皇山新区,,35,35,43,23,34,101,101,141,136,19,24,5,6,0.6,0.6
2026-04-18T2200,2907A,120.1846,30.8592,湖州市,吴兴区站,颗粒物(PM10),55,56,50,33,33,129,129,145,145,23,25,6,7,0.4,0.4
2026-04-18T2200,3562A,120.4146,30.8538,湖州市,南浔区站,,45,45,48,28,34,75,75,124,120,30,19,6,6,0.7,0.7
2026-04-18T2200,1607A,120.904878,40.721091,葫芦岛市,龙港区,细颗粒物(PM2.5),90,72,107,55,76,149,149,147,147,16,22,12,13,0.7,0.8
2026-04-18T2200,1608A,120.8382,40.7521,葫芦岛市,化工街,细颗粒物(PM2.5),133,117,139,96,107,108,108,117,117,30,27,13,12,0.6,0.7
2026-04-18T2200,1609A,120.8339,40.7078,葫芦岛市,新区,细颗粒物(PM2.5),121,NA,100,83,104,121,121,117,117,22,21,10,9,0.7,0.8
2026-04-18T2200,1610A,120.8697,40.7679,葫芦岛市,东城区,细颗粒物(PM2.5),119,NA,100,80,114,118,118,121,121,28,27,12,12,0.9,0.9
2026-04-18T2200,2483A,109.9297,27.5383,怀化市,河西地税局,,48,48,31,20,15,23,23,106,84,17,13,5,6,/,/
2026-04-18T2200,2484A,109.9783,27.5342,怀化市,市四医院,颗粒物(PM10),53,54,44,32,19,57,57,111,99,17,14,5,4,0.5,0.4
2026-04-18T2200,2485A,109.9971,27.5579,怀化市,监测楼,颗粒物(PM10),53,53,37,26,23,49,49,109,94,16,12,4,4,0.7,0.5
2026-04-18T2200,1210A,119.0566,33.5991,淮安市,钵池山,,34,34,38,12,17,56,56,104,91,30,19,7,8,0.4,0.5
2026-04-18T2200,1211A,119.0083,33.578,淮安市,北京南路,,34,34,39,9,20,63,63,102,89,20,16,8,8,0.2,0.3
2026-04-18T2200,1212A,118.9938,33.6083,淮安市,市监测站,,25,24,33,11,20,78,78,114,102,16,14,6,6,0.5,0.6
2026-04-18T2200,1213A,119.135,33.5038,淮安市,楚州区监测站,,24,24,33,9,18,50,50,98,84,31,17,5,6,0.3,0.4
2026-04-18T2200,3426A,118.8757,33.2897,淮安市,新华书店,,39,39,47,11,16,68,68,104,93,24,21,6,7,0.3,0.4
2026-04-18T2200,4092A,119.119691,33.550006,淮安市,枚皋中路89号,,30,30,32,10,16,69,69,100,92,17,14,6,6,0.4,0.5
2026-04-18T2200,4206A,119.028838,33.631911,淮安市,承德北路606号,,36,36,39,11,17,66,66,103,91,17,18,8,8,0.3,0.4
2026-04-18T2200,2282A,116.8005,33.9749,淮北市,监测站,颗粒物(PM10),74,83,65,43,38,118,118,161,147,14,14,7,8,0.5,0.5
2026-04-18T2200,2283A,116.8094,33.9008,淮北市,烈山区政府,细颗粒物(PM2.5),98,93,86,59,53,100,100,157,140,21,15,7,8,0.5,0.6
2026-04-18T2200,4017A,116.7926,33.9534,淮北市,市博物馆,颗粒物(PM10),72,80,68,40,38,116,116,159,145,13,13,6,7,0.7,0.7
2026-04-18T2200,4100A,116.8322,33.9884,淮北市,杜集区第一实验学校,细颗粒物(PM2.5),98,108,97,59,48,118,118,158,146,13,15,7,9,0.6,0.7
2026-04-18T2200,2277A,116.8304,32.7726,淮南市,潘集区政府,,47,47,72,11,38,80,80,146,117,21,20,6,7,0.3,0.6
2026-04-18T2200,2279A,116.8569,32.5949,淮南市,谢家集区政府,颗粒物(PM10),60,63,58,7,30,86,86,149,122,26,17,20,11,0.5,0.3
2026-04-18T2200,2280A,116.8279,32.6333,淮南市,八公山区政府,颗粒物(PM10),63,68,70,17,37,69,69,150,117,23,12,8,8,0.4,0.4
2026-04-18T2200,2894A,117.0561,32.6536,淮南市,经济技术开发区消防队,颗粒物(PM10),54,55,65,8,39,75,75,135,107,25,18,8,7,0.3,0.2
2026-04-18T2200,3329A,117.011,32.5891,淮南市,山南新区,颗粒物(PM10),57,59,68,9,33,102,102,150,122,20,17,9,8,0.4,0.4
2026-04-18T2200,4209A,117.003137,32.644456,淮南市,国庆中路369号,NA,NA,NA,71,NA,42,NA,NA,134,NA,NA,12,NA,8,NA,0.3
2026-04-18T2200,2446A,114.9021,30.474,黄冈市,职工中心,细颗粒物(PM2.5),92,73,63,56,47,74,74,168,150,42,18,8,10,0.6,0.6
2026-04-18T2200,2929A,114.8858,30.4519,黄冈市,红卫路,细颗粒物(PM2.5),76,67,60,48,43,78,78,176,156,29,17,6,9,0.7,0.7
2026-04-18T2200,3398A,114.9134,30.4446,黄冈市,市林业局,细颗粒物(PM2.5),94,107,76,57,45,90,90,177,159,41,21,3,5,0.5,0.5
2026-04-18T2200,2672A,102.02,35.5101,黄南藏族自治州,同仁县隆务镇,,34,34,30,16,12,89,89,123,115,2,4,10,10,0.2,0.2
2026-04-18T2200,2295A,118.2905,29.6965,黄山市,延安路89号,,42,42,36,22,27,50,50,129,106,15,10,5,5,0.4,0.4
2026-04-18T2200,2297A,118.1369,30.2755,黄山市,黄山区政府5号楼,,38,38,40,24,21,61,61,124,109,12,8,3,3,0.5,0.4
2026-04-18T2200,4210A,118.335445,29.720283,黄山市,滨江东路7-2号,颗粒物(PM10),57,59,47,29,25,69,69,134,109,15,9,/,/,/,/
2026-04-18T2200,2423A,115.0547,30.2332,黄石市,沈家营,颗粒物(PM10),65,70,75,34,39,56,56,149,126,33,26,4,4,0.8,1.4
2026-04-18T2200,2426A,114.899,30.211,黄石市,铁山,颗粒物(PM10),72,80,54,40,35,88,88,156,140,15,9,8,9,0.1,0.3
2026-04-18T2200,2427A,115.0259,30.2108,黄石市,团城山,颗粒物(PM10),65,71,61,38,38,106,106,138,131,7,11,5,6,0.6,0.7
2026-04-18T2200,3149A,115.0174,30.1591,黄石市,笔架山北路,颗粒物(PM10),73,81,74,33,32,123,123,147,144,6,8,9,9,0.7,0.8
2026-04-18T2200,4185A,115.078022,30.21118,黄石市,磁湖东路29号,颗粒物(PM10),71,79,76,41,41,133,133,168,154,15,24,9,7,1.1,0.9
2026-04-18T2200,1392A,114.4181,23.0528,惠州市,河南岸金山湖子站,,49,49,49,28,35,106,106,165,153,25,22,6,7,0.8,0.7
2026-04-18T2200,1393A,114.4055,23.0824,惠州市,下埔横江三路子站,颗粒物(PM10),58,60,55,34,37,144,144,165,159,20,19,5,6,0.8,0.8
2026-04-18T2200,1395A,114.4645,22.7832,惠州市,惠阳区承修路船湖子站,"颗粒物(PM10),细颗粒物(PM2.5)",70,78,63,45,41,159,159,199,191,26,22,6,6,0.8,0.7
2026-04-18T2200,1396A,114.5316,22.7423,惠州市,大亚湾管委会子站,颗粒物(PM10),62,66,60,39,39,111,111,192,170,32,25,6,6,0.9,0.8
2026-04-18T2200,3314A,114.4334,22.8134,惠州市,惠阳秋长,颗粒物(PM10),98,117,61,57,41,135,135,208,197,49,27,/,/,/,/
2026-04-18T2200,3452A,114.6521,22.7755,惠州市,大亚湾霞涌,NA,NA,NA,40,33,30,116,116,204,189,17,18,/,/,/,/
2026-04-18T2200,4300A,114.4089,23.1147,惠州市,文华一路1号,,50,50,48,31,34,123,123,159,154,24,24,/,/,/,/
2026-04-18T2200,2240A,130.9618,45.2926,鸡西市,环保局,,29,29,28,13,18,73,73,95,89,16,8,8,7,0.4,0.3
2026-04-18T2200,2243A,130.9294,45.2959,鸡西市,第一中学,,26,23,23,16,21,82,82,92,86,8,6,5,5,0.1,0.1
2026-04-18T2200,3707A,131.0069,45.2988,鸡西市,欧美日汽修厂,颗粒物(PM10),51,51,28,23,20,52,52,90,77,20,7,3,2,0.6,0.4
2026-04-18T2200,2367A,114.9753,27.0803,吉安市,红声器材厂,细颗粒物(PM2.5),84,71,45,52,27,60,60,128,114,29,14,7,7,0.7,0.6
2026-04-18T2200,2369A,114.9903,27.1313,吉安市,市环境监测站,细颗粒物(PM2.5),56,50,41,38,28,51,51,129,112,37,17,11,13,/,/
2026-04-18T2200,2370A,115.009527,27.096792,吉安市,青原区法院,颗粒物(PM10),56,58,44,25,26,55,55,128,107,30,18,8,9,0.8,0.9
2026-04-18T2200,1772A,126.54,43.8622,吉林市,哈达湾,细颗粒物(PM2.5),58,49,46,39,31,68,68,127,110,31,13,7,8,0.5,0.4
2026-04-18T2200,1773A,126.5843,43.8358,吉林市,东局子,细颗粒物(PM2.5),74,63,44,47,34,79,79,129,105,19,14,4,4,1.0,0.9
2026-04-18T2200,1774A,126.5051,43.8243,吉林市,电力学院,细颗粒物(PM2.5),94,80,45,57,34,45,45,135,112,40,16,6,7,1.0,0.7
2026-04-18T2200,1775A,126.6133,43.8971,吉林市,江北,细颗粒物(PM2.5),52,45,57,36,39,69,69,129,105,16,15,10,12,0.7,0.6
2026-04-18T2200,1776A,126.5549,43.8304,吉林市,江南公园,细颗粒物(PM2.5),64,56,42,42,34,41,41,127,97,56,19,7,8,0.8,0.6
2026-04-18T2200,2868A,126.4737,43.953,吉林市,九站,,38,35,42,26,31,70,70,106,95,20,16,8,14,0.3,0.3
2026-04-18T2200,1299A,116.9866,36.6118,济南市,科干所,颗粒物(PM10),65,70,76,11,24,124,124,149,136,15,8,6,6,0.4,0.6
2026-04-18T2200,1300A,116.9379,36.6652,济南市,农科所,颗粒物(PM10),73,81,80,17,31,82,82,136,115,32,13,6,6,0.4,0.3
2026-04-18T2200,1301A,117.1265,36.6736,济南市,开发区,颗粒物(PM10),70,78,77,17,24,86,86,153,137,33,13,4,4,0.4,0.4
2026-04-18T2200,1303A,117.0616,36.6865,济南市,省种子仓库,颗粒物(PM10),86,100,98,20,29,70,70,145,125,46,14,4,4,0.5,0.5
2026-04-18T2200,1304A,116.9495185,36.644937,济南市,机床二厂,颗粒物(PM10),86,100,91,19,31,89,89,145,124,39,15,4,5,0.6,0.5
2026-04-18T2200,1305A,117.0496,36.6629,济南市,市监测站,颗粒物(PM10),67,73,83,18,27,100,100,141,124,24,12,3,4,0.6,0.6
2026-04-18T2200,1306A,116.7674,36.5458,济南市,长清党校,颗粒物(PM10),79,90,84,17,32,116,116,139,136,17,8,7,5,0.7,0.7
2026-04-18T2200,1961A,117.5323,36.6865,济南市,东山小学,颗粒物(PM10),69,76,96,17,28,112,112,146,138,21,15,4,4,0.4,0.4
2026-04-18T2200,3059A,117.7181,36.205,济南市,泰兴公司,颗粒物(PM10),91,107,109,32,49,85,85,157,139,60,42,14,12,0.7,0.7
2026-04-18T2200,3064A,117.6861,36.2172,济南市,莱芜战役纪念馆,颗粒物(PM10),86,100,114,19,54,105,105,156,146,32,38,11,9,0.8,0.8
2026-04-18T2200,3494A,117.1673,36.9782,济南市,济阳区政府,颗粒物(PM10),91,107,104,17,38,87,87,135,116,39,34,6,6,0.5,0.6
2026-04-18T2200,3495A,117.1168,36.6299,济南市,锦屏中学,颗粒物(PM10),60,63,72,12,28,95,95,142,130,15,12,4,4,0.3,0.3
2026-04-18T2200,4108A,117.7107,36.2385,济南市,山财大街5号,颗粒物(PM10),91,107,113,32,53,93,93,156,142,49,33,8,9,0.9,0.9
2026-04-18T2200,4109A,116.9744,36.6889,济南市,无影山路12号,颗粒物(PM10),65,70,77,19,33,101,101,138,123,22,10,4,5,0.4,0.4
2026-04-18T2200,1653A,116.6229,35.4288,济宁市,火炬城,颗粒物(PM10),78,89,76,35,48,114,114,146,134,13,12,4,4,0.6,0.7
2026-04-18T2200,3500A,116.5808,35.3703,济宁市,北湖一中,颗粒物(PM10),72,80,73,24,44,125,125,167,157,18,16,8,9,0.4,0.5
2026-04-18T2200,3501A,116.8251,35.5592,济宁市,服务中心,颗粒物(PM10),83,95,79,43,59,116,116,151,137,18,18,4,4,0.6,0.7
2026-04-18T2200,3678A,116.5907,35.4054,济宁市,市第七中学,颗粒物(PM10),73,81,85,32,48,135,135,170,161,15,17,6,7,0.4,0.5
2026-04-18T2200,4111A,116.6075,35.4566,济宁市,任和路,颗粒物(PM10),94,111,99,32,42,134,134,160,152,15,13,7,8,0.5,0.6
2026-04-18T2200,4112A,116.5648,35.3921,济宁市,文体南路1号,颗粒物(PM10),83,96,90,26,48,106,106,164,152,24,11,4,6,0.7,0.8
2026-04-18T2200,4122A,112.6071,35.1015,济源市,市委党校,颗粒物(PM10),78,88,91,28,36,102,102,150,136,19,21,11,18,0.6,0.6
2026-04-18T2200,4123A,112.596,35.0702,济源市,沁园中路1号,颗粒物(PM10),68,75,86,36,34,98,98,152,134,16,26,5,16,0.6,0.9
2026-04-18T2200,2255A,130.2749,46.8028,佳木斯市,佳纺,颗粒物(PM10),62,66,28,21,19,56,56,84,61,20,11,4,5,0.3,0.3
2026-04-18T2200,2257A,130.3258,46.7975,佳木斯市,环保局,,33,33,21,9,20,62,62,84,72,23,9,3,4,0.3,0.3
2026-04-18T2200,4285A,130.363,46.806,佳木斯市,顺和街,,26,26,23,15,18,66,66,86,78,15,9,2,3,0.3,0.3
2026-04-18T2200,4286A,130.3952,46.8268,佳木斯市,长安路196号,,27,27,21,13,16,67,67,90,81,11,6,2,2,0.3,0.4
2026-04-18T2200,1252A,120.7439,30.778,嘉兴市,清河小学,,23,17,36,3,22,73,73,127,119,30,25,7,7,0.4,0.5
2026-04-18T2200,1253A,120.7261,30.7477,嘉兴市,嘉兴学院,,26,24,33,14,28,83,83,130,125,31,24,7,6,0.7,0.7
2026-04-18T2200,2872A,120.7845,30.7524,嘉兴市,南湖区残联,,26,26,34,17,26,75,75,134,125,33,19,5,4,0.5,0.6
2026-04-18T2200,3407A,120.6915,30.7741,嘉兴市,秀洲住建,,29,29,41,8,27,80,80,134,125,36,24,7,6,0.6,0.6
2026-04-18T2200,1945A,98.291,39.7705,嘉峪关市,气象局,,29,19,105,12,26,91,91,108,102,16,20,18,23,1.4,1.1
2026-04-18T2200,2884A,98.2672,39.7978,嘉峪关市,酒钢宾馆,,32,31,111,16,27,102,102,110,105,4,14,42,38,0.5,0.6
2026-04-18T2200,3248A,98.2644,39.7723,嘉峪关市,雄关区,,39,39,87,14,25,101,101,110,105,8,22,23,21,0.6,0.6
2026-04-18T2200,1383A,113.1063,22.6058,江门市,北街,,49,49,41,33,31,37,37,131,110,45,24,/,/,/,/
2026-04-18T2200,1384A,113.073,22.5835,江门市,西区,颗粒物(PM10),60,63,35,29,31,54,54,126,101,41,27,/,/,/,/
2026-04-18T2200,1385A,113.0218,22.531,江门市,圭峰西,,38,NA,38,26,28,92,92,122,114,12,17,/,/,/,/
2026-04-18T2200,1386A,113.0826,22.5947,江门市,东湖,,50,37,38,35,30,43,43,124,104,43,21,7,7,0.9,0.6
2026-04-18T2200,3311A,113.1077,22.5647,江门市,江海富民,细颗粒物(PM2.5),76,66,46,48,33,78,78,138,128,48,24,/,/,0.8,0.6
2026-04-18T2200,3449A,113.0496,22.4669,江门市,新会银湖,,50,50,49,31,36,58,58,132,104,29,28,8,8,0.9,0.8
2026-04-18T2200,3335A,113.3137,35.2643,焦作市,马村街道办,颗粒物(PM10),75,84,77,35,29,88,88,148,131,19,12,10,10,0.6,0.4
2026-04-18T2200,3336A,113.2464,35.2374,焦作市,焦作技师学院,NA,NA,79,82,29,29,NA,NA,144,135,12,12,9,9,0.9,0.8
2026-04-18T2200,3477A,113.1656,35.2536,焦作市,中站许衡医院,颗粒物(PM10),73,81,67,35,24,104,104,154,146,14,14,8,10,0.5,0.5
2026-04-18T2200,3981A,113.2456,35.18,焦作市,原李万街道办,颗粒物(PM10),70,78,82,34,30,100,100,142,128,13,14,7,9,0.3,0.4
2026-04-18T2200,4264A,113.234,35.219,焦作市,新安路1731号,NA,NA,71,78,25,27,92,92,155,134,NA,25,9,10,0.8,0.7
2026-04-18T2200,4295A,113.2722,35.2121,焦作市,人民路3066号,颗粒物(PM10),66,72,79,29,28,95,95,139,126,14,14,5,6,0.4,0.5
2026-04-18T2200,1708A,116.3701,23.5345,揭阳市,新兴,细颗粒物(PM2.5),84,65,51,52,33,104,104,135,125,16,21,8,9,1.1,0.9
2026-04-18T2200,1709A,116.3261,23.5442,揭阳市,西马,细颗粒物(PM2.5),88,77,53,54,32,99,99,133,126,20,19,21,8,0.9,0.8
2026-04-18T2200,1710A,116.361,23.5627,揭阳市,东兴,细颗粒物(PM2.5),90,59,48,55,34,92,92,138,127,20,20,6,4,/,/
2026-04-18T2200,1711A,116.4151,23.5295,揭阳市,渔湖,细颗粒物(PM2.5),80,62,61,50,38,97,97,154,140,22,25,4,4,/,/
2026-04-18T2200,3320A,116.4028,23.5699,揭阳市,曲溪,细颗粒物(PM2.5),90,NA,46,55,32,86,86,152,135,23,19,14,12,0.9,0.8
2026-04-18T2200,1944A,102.1691,38.5166,金昌市,天庆家园,颗粒物(PM10),461,561,215,150,45,111,111,126,121,2,14,6,14,0.8,0.7
2026-04-18T2200,4022A,102.1648,38.5369,金昌市,金川区人防中心,颗粒物(PM10),447,547,162,160,44,109,109,124,120,4,14,5,9,0.4,0.5
2026-04-18T2200,4239A,102.193042,38.531887,金昌市,长春路96号,颗粒物(PM10),487,587,143,185,50,104,104,118,112,2,16,6,13,0.3,0.5
2026-04-18T2200,1262A,119.6478,29.0773,金华市,十五中,细颗粒物(PM2.5),84,72,68,52,51,66,66,149,126,32,21,3,3,0.8,0.7
2026-04-18T2200,1263A,119.6859,29.1032,金华市,监测站,"颗粒物(PM10),细颗粒物(PM2.5)",66,72,68,43,49,37,37,152,121,64,28,4,4,0.6,0.6
2026-04-18T2200,3659A,119.656,29.1132,金华市,气象局,细颗粒物(PM2.5),100,80,66,60,54,29,29,140,108,67,29,4,3,0.7,0.6
2026-04-18T2200,1767A,121.1114,41.0879,锦州市,南山,细颗粒物(PM2.5),122,NA,90,84,94,129,129,131,131,25,22,11,10,0.8,0.8
2026-04-18T2200,1768A,121.060361,40.842794,锦州市,开发区,细颗粒物(PM2.5),121,103,97,83,92,128,128,120,120,33,23,21,8,1.0,0.8
2026-04-18T2200,1769A,121.1836,41.1118,锦州市,百股街道,细颗粒物(PM2.5),124,NA,93,86,92,157,157,138,138,17,21,10,8,0.8,0.8
2026-04-18T2200,1770A,121.1176,41.1224,锦州市,天安街道,细颗粒物(PM2.5),130,NA,97,92,96,136,136,128,128,23,22,7,5,1.0,0.9
2026-04-18T2200,1771A,121.1303,41.1385,锦州市,北湖公园,细颗粒物(PM2.5),126,88,97,88,90,144,144,136,136,19,19,9,7,0.7,0.6
2026-04-18T2200,2160A,112.8496,35.5051,晋城市,自来水公司,颗粒物(PM10),63,68,76,29,17,130,130,153,151,11,27,5,5,0.3,0.3
2026-04-18T2200,2162A,112.8509,35.4886,晋城市,市环保局,颗粒物(PM10),58,60,96,24,17,116,116,148,142,8,26,7,6,0.4,0.4
2026-04-18T2200,3620A,112.8258,35.4804,晋城市,泽州一中,颗粒物(PM10),64,69,76,21,16,126,126,153,150,13,20,5,5,0.6,0.6
2026-04-18T2200,4078A,112.8246,35.5152,晋城市,前书院路,颗粒物(PM10),62,66,75,19,12,127,127,104,104,12,32,8,8,0.7,0.6
2026-04-18T2200,4079A,112.8864,35.4773,晋城市,祥云街666号,颗粒物(PM10),56,58,74,27,21,126,126,146,143,10,25,8,8,0.5,0.5
2026-04-18T2200,2174A,112.6992,37.6984,晋中市,榆次区政府,颗粒物(PM10),75,85,77,33,29,104,104,154,140,23,23,7,8,0.6,0.6
2026-04-18T2200,2865A,112.7195,37.683,晋中市,榆次三中,颗粒物(PM10),75,85,87,19,24,113,113,162,148,19,25,7,8,0.2,0.3
2026-04-18T2200,4080A,112.7375,37.7215,晋中市,广安街188号,颗粒物(PM10),68,74,74,29,26,110,110,154,143,21,20,6,7,0.4,0.4
2026-04-18T2200,4200A,112.7478,37.6954,晋中市,迎宾街26号,颗粒物(PM10),78,88,81,24,23,112,112,160,148,23,21,6,7,0.3,0.4
2026-04-18T2200,2439A,112.2012,31.048,荆门市,竹园小学,颗粒物(PM10),56,58,76,28,37,107,107,145,138,19,22,1,4,0.5,0.4
2026-04-18T2200,2440A,112.1968,30.9892,荆门市,掇刀,颗粒物(PM10),60,63,74,39,39,97,97,148,140,18,18,10,8,0.7,0.6
2026-04-18T2200,3012A,112.1849,31.0361,荆门市,西山林语,,47,47,65,18,31,83,83,148,135,12,9,6,6,0.5,0.4
2026-04-18T2200,3547A,112.1631,31.0134,荆门市,龙泉中学南校,NA,NA,32,67,32,27,NA,NA,155,154,NA,12,NA,6,NA,0.3
2026-04-18T2200,4124A,112.2213,31.0654,荆门市,新台西路6号,细颗粒物(PM2.5),74,74,76,47,43,80,80,148,130,21,24,12,9,0.6,0.6
2026-04-18T2200,1844A,112.2493,30.3198,荆州市,市图书馆,细颗粒物(PM2.5),52,48,52,36,41,98,98,88,NA,20,29,14,8,0.6,0.6
2026-04-18T2200,1845A,112.2009,30.3543,荆州市,市委党校,,50,50,60,30,37,90,90,119,113,19,22,11,9,0.5,0.6
2026-04-18T2200,3194A,112.2749,30.3124,荆州市,管委会,,50,44,57,35,41,85,85,122,113,19,19,10,9,0.5,0.6
2026-04-18T2200,4268A,112.1722,30.3366,荆州市,学苑路85号,细颗粒物(PM2.5),58,43,49,39,37,87,87,135,120,17,20,1,1,0.6,1
2026-04-18T2200,2343A,117.2114,29.2931,景德镇市,老干部活动中心,细颗粒物(PM2.5),84,NA,34,52,28,64,64,122,109,34,8,25,7,0.8,0.6
2026-04-18T2200,2344A,117.1893,29.2789,景德镇市,兽医站,颗粒物(PM10),66,72,42,39,23,61,61,136,113,58,13,4,4,0.7,0.6
2026-04-18T2200,2346A,117.246,29.2958,景德镇市,陶研所,细颗粒物(PM2.5),68,49,31,44,26,46,46,125,103,17,7,3,4,0.8,0.6
2026-04-18T2200,4289A,117.154766,29.256967,景德镇市,青少年活动中心,颗粒物(PM10),57,59,39,36,28,77,77,127,111,19,14,22,12,/,/
2026-04-18T2200,1803A,115.9873,29.6816,九江市,十里,颗粒物(PM10),72,80,59,42,32,71,71,154,128,49,33,11,9,0.9,0.8
2026-04-18T2200,1804A,115.9583,29.7047,九江市,茅山头,细颗粒物(PM2.5),78,69,52,49,33,88,88,154,135,37,26,4,4,0.8,0.7
2026-04-18T2200,1805A,115.9877,29.7295,九江市,西园,细颗粒物(PM2.5),74,65,55,47,34,103,103,156,138,42,42,6,5,0.8,0.7
2026-04-18T2200,1808A,115.9112,29.6038,九江市,综合工业园,,41,41,48,15,25,72,72,147,115,42,34,7,8,0.5,0.6
2026-04-18T2200,3190A,116.0254,29.6995,九江市,外国语学校,颗粒物(PM10),68,74,52,42,35,48,48,149,116,62,34,12,10,0.9,0.9
2026-04-18T2200,4253A,116.010205,29.659402,九江市,莲花大道8号,颗粒物(PM10),57,59,49,30,27,136,136,144,140,5,7,10,6,0.7,0.7
2026-04-18T2200,4240A,98.495752,39.733935,酒泉市,玉门东路5号,,29,29,130,12,28,83,83,97,92,4,8,5,8,0.2,0.3
2026-04-18T2200,4241A,98.5099,39.7506,酒泉市,北大街108号,,25,22,130,12,35,78,78,92,87,5,10,6,8,0.2,0.2
2026-04-18T2200,2698A,76.0071,39.466,喀什地区,巡警大队,,40,40,59,18,13,95,95,113,112,14,13,4,4,0.2,0.2
2026-04-18T2200,2699A,75.9756,39.4693,喀什地区,吾办,NA,NA,NA,NA,38,38,86,86,NA,NA,16,16,11,11,0.5,0.5
2026-04-18T2200,4027A,75.9485,39.4688,喀什地区,老干局,,44,44,52,15,21,90,90,111,109,14,10,3,3,0.3,0.3
2026-04-18T2200,1824A,114.3389,34.778,开封市,肿瘤医院,颗粒物(PM10),65,70,79,31,47,93,93,142,124,19,18,8,7,0.6,0.7
2026-04-18T2200,1826A,114.2884,34.7966,开封市,世纪星幼儿园,颗粒物(PM10),75,85,82,33,41,97,97,139,124,27,20,8,7,0.5,0.6
2026-04-18T2200,3147A,114.3434,34.8101,开封市,龙亭公园,颗粒物(PM10),72,80,76,37,44,90,90,146,128,28,20,9,8,0.7,0.7
2026-04-18T2200,3210A,114.3645,34.7955,开封市,汴京公园,颗粒物(PM10),73,81,84,27,46,94,94,152,131,26,19,6,5,0.3,0.5
2026-04-18T2200,3473A,114.2485,34.8306,开封市,技师学院,颗粒物(PM10),72,80,94,20,38,111,111,143,133,16,11,6,5,0.5,0.6
2026-04-18T2200,3592A,114.4518,34.7503,开封市,祥符区生态环境局,,48,NA,57,33,54,89,89,145,120,31,31,8,8,0.5,0.7
2026-04-18T2200,1951A,84.886,45.6029,克拉玛依市,长征新村,,26,10,14,3,6,82,82,95,92,13,3,5,5,0.4,0.3
2026-04-18T2200,1952A,84.8894,45.5827,克拉玛依市,南林小区,,27,20,9,3,1,85,85,100,96,6,2,5,4,0.2,0.2
2026-04-18T2200,1954A,84.896,44.3328,克拉玛依市,独山子区,,19,15,15,3,3,60,60,71,70,8,6,5,5,0.4,0.4
2026-04-18T2200,1955A,85.6888,46.0909,克拉玛依市,乌尔禾区商贸楼,,44,44,28,19,8,83,83,94,93,12,6,2,2,0.2,0.1
2026-04-18T2200,3612A,85.1045,45.6895,克拉玛依市,白碱滩区新站,,29,27,21,20,7,73,73,117,110,22,3,5,6,0.2,0.2
2026-04-18T2200,2697A,76.1457,39.7143,克孜勒苏柯尔克孜自治州,市人民政府,,43,43,33,24,14,102,102,115,114,9,5,4,7,0.2,0.1
2026-04-18T2200,3665A,76.1654,39.7157,克孜勒苏柯尔克孜自治州,克州文化中心,颗粒物(PM10),58,61,36,20,13,92,92,111,108,16,3,4,10,0.3,0.2
2026-04-18T2200,1450A,102.8203,24.889,昆明市,呈贡新区,细颗粒物(PM2.5),56,54,48,38,36,105,105,157,141,22,14,5,7,0.6,0.7
2026-04-18T2200,1452A,102.7253,25.0904,昆明市,龙泉镇,颗粒物(PM10),58,60,52,34,36,101,101,147,132,15,18,6,5,0.6,0.6
2026-04-18T2200,1453A,102.7267,25.0378,昆明市,东风东路,颗粒物(PM10),51,51,56,34,35,116,116,152,138,15,17,4,3,0.5,0.6
2026-04-18T2200,1454A,102.6744,25.0671,昆明市,金鼎山,颗粒物(PM10),58,60,63,34,35,107,107,149,133,15,15,4,4,0.6,0.7
2026-04-18T2200,1455A,102.6643,25.0401,昆明市,碧鸡广场,颗粒物(PM10),63,68,55,37,35,88,88,141,123,29,21,5,6,0.6,0.6
2026-04-18T2200,3179A,102.7491,25.012,昆明市,官渡区博物馆,,49,48,64,34,35,106,106,149,133,17,23,4,5,0.4,0.6
2026-04-18T2200,3375A,102.8016,24.8336,昆明市,青年创业园,颗粒物(PM10),57,59,59,36,36,108,108,153,140,16,19,6,7,0.4,0.6
2026-04-18T2200,3550A,102.8,24.9787,昆明市,昆明学院,颗粒物(PM10),53,54,64,31,35,108,108,152,136,15,22,4,6,0.4,0.5
2026-04-18T2200,3551A,102.5969,24.6738,昆明市,晋宁区生态环境分局,细颗粒物(PM2.5),64,61,53,42,39,123,123,140,130,9,11,3,4,0.4,0.5
2026-04-18T2200,3552A,102.6673,24.9861,昆明市,云天化总部,颗粒物(PM10),52,52,52,29,31,125,125,149,138,9,21,6,5,0.5,0.6
2026-04-18T2200,1456A,91.132,29.6515,拉萨市,八廓街,,29,23,21,11,9,90,90,113,108,17,12,4,4,0.3,0.2
2026-04-18T2200,1457A,91.1221,29.6748,拉萨市,市环保局,,42,42,25,13,10,58,58,105,95,32,19,5,5,0.5,0.4
2026-04-18T2200,1458A,91.0874,29.6476,拉萨市,区监测站,,27,14,15,10,8,84,84,112,106,27,17,5,5,0.3,0.3
2026-04-18T2200,1459A,91.1774,29.6541,拉萨市,西藏大学,,30,18,19,7,8,96,96,108,105,12,15,5,4,0.2,0.3
2026-04-18T2200,1460A,90.9798,29.6586,拉萨市,区辐射站,,24,24,23,13,11,55,55,98,90,48,23,16,6,0.7,0.4
2026-04-18T2200,1461A,91.0831,29.6292,拉萨市,拉萨火车站,,33,10,16,8,8,105,105,112,111,11,13,4,4,0.2,0.3
2026-04-18T2200,2520A,109.2203,23.7252,来宾市,来宾技工学校,,40,39,33,28,20,78,78,115,112,19,13,7,8,0.6,0.7
2026-04-18T2200,3535A,109.1781,23.7293,来宾市,兴宾区政府,颗粒物(PM10),55,56,37,30,20,88,88,119,116,16,8,12,8,0.7,0.7
2026-04-18T2200,4002A,109.2312,23.7428,来宾市,中南小学,颗粒物(PM10),58,61,35,29,20,57,57,119,108,38,19,6,7,0.7,0.6
2026-04-18T2200,1479A,103.8309,36.0467,兰州市,铁路设计院,颗粒物(PM10),98,116,75,44,34,83,83,130,94,33,60,5,11,0.6,1
2026-04-18T2200,3241A,103.7439,36.0841,兰州市,百合公园,颗粒物(PM10),112,150,70,46,31,109,109,180,120,11,47,8,11,0,0.7
2026-04-18T2200,3242A,103.9613,35.9985,兰州市,和平,颗粒物(PM10),65,70,40,23,16,107,107,127,115,10,18,7,7,0.3,0.3
2026-04-18T2200,4236A,103.629272,36.093822,兰州市,庄浪东路808号,颗粒物(PM10),107,136,70,37,28,85,85,259,141,38,43,10,19,0.5,0.6
2026-04-18T2200,4237A,103.7251,36.104344,兰州市,安宁西路88号,颗粒物(PM10),178,306,83,82,33,122,122,207,149,10,46,9,17,0.2,0.5
2026-04-18T2200,4238A,103.846982,36.067567,兰州市,北滨河东路1号,颗粒物(PM10),113,153,63,43,32,105,105,133,106,16,53,9,13,0.4,0.8
2026-04-18T2200,1067A,116.6712,39.5109,廊坊市,药材公司,颗粒物(PM10),72,80,131,39,97,106,106,153,139,18,38,9,3,0.4,0.7
2026-04-18T2200,1068A,116.7215,39.5592,廊坊市,开发区,颗粒物(PM10),78,88,136,36,85,123,123,162,151,6,30,4,3,0.3,0.6
2026-04-18T2200,1070A,116.7246,39.5273,廊坊市,北华航天学院,颗粒物(PM10),80,92,103,25,73,116,116,160,146,14,37,3,3,0.4,0.7
2026-04-18T2200,2919A,116.7022,39.5454,廊坊市,河北工业大学,颗粒物(PM10),78,88,95,29,86,122,122,162,151,13,35,9,3,0.4,0.7
2026-04-18T2200,2536A,103.7629,29.5844,乐山市,牛耳桥,颗粒物(PM10),58,60,43,32,22,68,68,135,116,40,25,5,5,0.6,0.5
2026-04-18T2200,2537A,103.7501,29.6002,乐山市,市第三水厂,颗粒物(PM10),63,67,45,36,22,27,27,131,109,68,28,5,5,0.9,0.6
2026-04-18T2200,2538A,103.7571,29.5664,乐山市,市监测站,颗粒物(PM10),66,72,57,31,22,93,93,129,125,18,19,4,5,0.8,0.8
2026-04-18T2200,3361A,103.7313,29.563,乐山市,理工大学,细颗粒物(PM2.5),58,57,48,39,24,90,90,137,127,22,22,4,5,0.6,0.6
2026-04-18T2200,2599A,100.2497,26.8802,丽江市,丽江古城,颗粒物(PM10),56,58,34,34,17,58,58,107,92,19,9,9,8,0.9,0.7
2026-04-18T2200,2600A,100.2203,26.8906,丽江市,市中心,颗粒物(PM10),57,59,29,27,18,93,93,109,89,20,17,6,6,0.7,0.6
2026-04-18T2200,1267A,119.9141,28.4513,丽水市,监测站大楼,,34,34,27,18,20,75,75,125,107,14,13,4,4,0.4,0.6
2026-04-18T2200,1268A,119.93,28.4589,丽水市,莲都小学,,33,33,31,17,21,71,71,126,109,16,14,/,/,/,/
2026-04-18T2200,1269A,119.8794,28.4232,丽水市,余庄前,,38,38,37,14,18,14,14,109,70,11,12,4,4,0.5,0.5
2026-04-18T2200,1173A,119.1759,34.5885,连云港市,市环境监测站,,31,31,40,12,25,60,60,125,103,19,16,9,10,0.4,0.5
2026-04-18T2200,3000A,119.3577,34.6971,连云港市,德源药业,,44,44,47,12,21,49,49,113,86,26,24,6,7,0.3,0.4
2026-04-18T2200,3007A,119.178,34.8442,连云港市,新城一中,,31,31,53,7,18,47,47,94,85,44,34,5,5,0.4,0.5
2026-04-18T2200,3008A,119.3607,34.7519,连云港市,胡沟管理处,,42,27,34,12,26,10,10,82,44,84,48,23,16,0.1,0.3
2026-04-18T2200,3009A,119.1478,34.5913,连云港市,矿山设计院,,36,36,45,14,24,64,64,128,108,19,16,20,22,0.6,0.6
2026-04-18T2200,3434A,119.2414,34.6539,连云港市,工贸学校,,24,24,41,13,25,73,73,143,129,12,12,6,6,0.3,0.4
2026-04-18T2200,3664A,119.4171,34.734,连云港市,连云街道,,32,32,52,10,28,84,84,81,74,13,29,20,5,0.4,0.5
2026-04-18T2200,2573A,102.2629,27.8981,凉山彝族自治州,西昌市政府,,33,29,20,23,16,91,91,139,127,7,8,6,7,0.5,0.5
2026-04-18T2200,2574A,102.2686,27.885,凉山彝族自治州,凉山州政府,,40,40,26,26,16,66,66,117,104,14,10,3,5,0.7,0.6
2026-04-18T2200,4229A,102.2342,27.8859,凉山彝族自治州,凯乐南路30号,,45,45,31,24,14,64,64,121,107,24,19,4,5,0.7,0.7
2026-04-18T2200,2212A,123.1978,41.2036,辽阳市,宏伟区,细颗粒物(PM2.5),54,44,56,37,38,116,116,146,134,6,8,7,6,0.5,0.5
2026-04-18T2200,2213A,123.1684,41.2497,辽阳市,新华园,细颗粒物(PM2.5),68,73,69,44,45,109,109,151,137,13,15,7,8,0.5,0.5
2026-04-18T2200,2214A,123.2355,41.2663,辽阳市,滨河路,细颗粒物(PM2.5),56,49,61,38,44,90,90,140,115,19,20,8,7,0.7,0.7
2026-04-18T2200,4083A,123.153,41.2874,辽阳市,铁西路150号,"颗粒物(PM10),细颗粒物(PM2.5)",82,94,78,51,53,90,90,129,116,17,21,11,10,0.7,0.8
2026-04-18T2200,2227A,125.1359,42.8845,辽源市,环保局,细颗粒物(PM2.5),107,83,42,67,23,53,53,123,109,40,14,8,7,0.8,0.4
2026-04-18T2200,4085A,125.0998,42.9134,辽源市,安宁大街333号,细颗粒物(PM2.5),90,69,38,55,21,82,82,121,112,22,11,6,6,0.6,0.4
2026-04-18T2200,1625A,115.9789,36.4372,聊城市,区政府,颗粒物(PM10),78,88,91,11,37,123,123,147,140,15,13,7,7,0.7,0.8
2026-04-18T2200,3200A,115.9772,36.4986,聊城市,监控中心,颗粒物(PM10),64,69,83,13,38,135,135,152,145,14,15,8,8,0.3,0.5
2026-04-18T2200,3513A,116.0443,36.436,聊城市,九州社区,颗粒物(PM10),75,84,100,13,45,112,112,157,144,21,16,10,9,0.5,0.5
2026-04-18T2200,4018A,116.0564,36.4609,聊城市,星美广场,颗粒物(PM10),76,86,95,13,43,105,105,142,130,18,13,12,11,0.6,0.7
2026-04-18T2200,4113A,116.0091,36.4495,聊城市,利民路,颗粒物(PM10),59,62,75,14,44,127,127,158,147,18,15,10,10,0.4,0.5
2026-04-18T2200,2632A,94.3683,29.6373,林芝市,林芝监测站,,21,NA,8,8,6,67,67,78,78,7,6,3,4,0.5,0.5
2026-04-18T2200,2633A,94.3616,29.6634,林芝市,林芝人民医院,,20,14,10,14,7,57,57,80,78,8,5,4,4,0.6,0.5
2026-04-18T2200,2603A,100.0779,23.8981,临沧市,市环保局,颗粒物(PM10),74,83,74,45,51,105,105,138,130,15,11,8,7,0.9,0.7
2026-04-18T2200,2604A,100.0894,23.882,临沧市,市气象局,细颗粒物(PM2.5),122,92,72,84,57,62,62,88,71,32,24,7,8,0.8,0.6
2026-04-18T2200,1733A,111.5552,36.0791,临汾市,临钢医院,颗粒物(PM10),70,77,75,25,21,106,106,143,133,18,20,8,9,0.6,0.6
2026-04-18T2200,1734A,111.4984,36.0734,临汾市,技工学校,颗粒物(PM10),80,91,74,31,21,116,116,143,134,20,20,9,8,0.6,0.7
2026-04-18T2200,1736A,111.5017,36.0857,临汾市,市委,颗粒物(PM10),73,82,72,27,22,130,130,149,141,17,20,10,10,0.7,0.7
2026-04-18T2200,3018A,111.5048,36.1015,临汾市,唐尧大酒店,颗粒物(PM10),74,83,84,28,26,123,123,146,139,22,23,9,9,0.6,0.7
2026-04-18T2200,4244A,111.4879,36.053,临汾市,启星学校,颗粒物(PM10),73,82,71,27,22,106,106,138,129,27,28,9,7,0.6,0.6
2026-04-18T2200,4271A,103.2464,35.6123,临夏回族自治州,滨河东路1号,颗粒物(PM10),125,183,77,62,28,6,6,104,73,65,30,12,11,0.6,0.3
2026-04-18T2200,4310A,103.207136,35.599807,临夏回族自治州,新华街21号,颗粒物(PM10),122,177,76,55,31,8,8,88,64,70,29,9,8,0.8,0.5
2026-04-18T2200,1618A,118.3429,35.0532,临沂市,沂河小区,颗粒物(PM10),91,107,101,50,60,102,102,154,144,19,20,16,17,0.6,0.6
2026-04-18T2200,1619A,118.2962,35.0568,临沂市,鲁南制药厂,细颗粒物(PM2.5),90,97,97,55,56,102,102,161,149,32,24,18,24,0.3,0.3
2026-04-18T2200,1620A,118.2793,34.9976,临沂市,新光毛纺厂,细颗粒物(PM2.5),90,90,88,55,56,93,93,154,141,25,21,10,20,0.4,0.4
2026-04-18T2200,1621A,118.3955,35.0889,临沂市,河东保险公司,细颗粒物(PM2.5),94,97,89,57,57,91,91,160,139,33,26,9,15,0.4,0.5
2026-04-18T2200,3370A,118.3563,35.0215,临沂市,十里堡居委,细颗粒物(PM2.5),88,95,87,54,59,98,98,156,144,29,30,10,17,1.0,0.7
2026-04-18T2200,3496A,118.359,35.1067,临沂市,南坊新区,细颗粒物(PM2.5),98,88,91,59,62,95,95,159,145,29,23,12,16,0.4,0.4
2026-04-18T2200,3860A,118.3915,35.0297,临沂市,皇山花园小区,细颗粒物(PM2.5),86,97,85,53,54,102,102,160,147,35,27,17,18,1.1,0.8
2026-04-18T2200,1870A,109.4854,24.3898,柳州市,柳东小学,,37,37,25,20,15,118,118,114,114,10,6,6,6,0.8,0.7
2026-04-18T2200,1871A,109.4109,24.3304,柳州市,环保监测站,,42,NA,35,29,21,52,52,101,97,60,16,6,8,1.1,1
2026-04-18T2200,1872A,109.3886,24.3408,柳州市,河西水厂,颗粒物(PM10),83,96,44,51,27,47,47,109,104,60,19,12,13,1.3,0.8
2026-04-18T2200,1873A,109.4263,24.2951,柳州市,市四中,颗粒物(PM10),53,54,35,31,21,74,74,108,106,30,13,7,10,0.9,0.9
2026-04-18T2200,1874A,109.396,24.3658,柳州市,市九中,NA,NA,109,48,48,28,46,46,101,95,NA,15,9,9,1.4,0.9
2026-04-18T2200,1875A,109.4912,24.3164,柳州市,古亭山,,30,21,29,21,16,41,41,103,93,37,13,5,6,0.7,0.7
2026-04-18T2200,3402A,109.5422,24.3994,柳州市,市二中,,35,35,24,23,16,51,51,104,98,18,10,7,8,0.7,0.6
2026-04-18T2200,2307A,116.5078,31.7369,六安市,监测大楼,,40,31,46,19,36,126,126,168,162,17,12,4,4,0.4,0.4
2026-04-18T2200,2308A,116.4738,31.7642,六安市,皖西学院,,43,41,57,17,31,137,137,168,163,14,11,6,6,0.5,0.5
2026-04-18T2200,2309A,116.4997,31.7904,六安市,朝阳厂,,40,34,48,19,35,128,128,160,153,15,17,6,6,0.3,0.4
2026-04-18T2200,2310A,116.5566,31.7885,六安市,开发区,颗粒物(PM10),55,56,58,26,36,118,118,169,156,20,18,6,6,0.5,0.5
2026-04-18T2200,2577A,104.8293,26.592,六盘水市,黄土坡,细颗粒物(PM2.5),52,NA,23,36,15,106,106,115,114,10,10,5,6,0.2,0.2
2026-04-18T2200,2579A,104.8481,26.5898,六盘水市,民中,,45,37,21,31,15,101,101,111,110,8,10,3,4,0.6,0.5
2026-04-18T2200,2580A,104.9541,26.5506,六盘水市,双水,,43,34,18,30,15,83,83,108,105,9,8,3,3,0.3,0.3
2026-04-18T2200,4151A,104.8899,26.5685,六盘水市,钟山大道中段564号,,47,47,23,26,13,101,101,110,109,6,8,2,2,0.8,0.7
2026-04-18T2200,2336A,117.022,25.1031,龙岩市,龙岩市监测站,,21,18,21,14,16,65,65,102,89,15,8,8,7,0.6,0.5
2026-04-18T2200,2337A,117.0257,25.0662,龙岩市,闽西职业技术学院,,23,23,24,12,15,39,39,94,78,16,7,5,6,0.8,0.7
2026-04-18T2200,2338A,117.0195,25.0306,龙岩市,龙岩学院,,20,16,21,14,14,53,53,101,83,6,5,3,4,/,/
2026-04-18T2200,2885A,104.9344,33.3827,陇南市,滨江中学,颗粒物(PM10),65,71,55,24,25,99,99,111,108,8,10,8,9,0.6,0.6
2026-04-18T2200,3247A,104.9551,33.3709,陇南市,市总工会,颗粒物(PM10),51,51,47,25,18,109,109,114,114,5,8,8,8,0.5,0.5
2026-04-18T2200,2488A,111.9984,27.7346,娄底市,市监测站,细颗粒物(PM2.5),64,54,45,42,27,25,25,106,91,55,20,5,6,1.0,0.7
2026-04-18T2200,2491A,111.9888,27.7035,娄底市,市政府,颗粒物(PM10),58,61,34,32,19,45,45,121,98,20,10,3,3,0.6,0.6
2026-04-18T2200,4127A,111.9812,27.7591,娄底市,涟钢职大,"颗粒物(PM10),细颗粒物(PM2.5)",80,91,44,50,24,18,18,142,113,57,15,4,5,0.8,1.9
2026-04-18T2200,4128A,112.0303,27.7457,娄底市,娄底体校,颗粒物(PM10),54,55,39,30,24,38,38,115,96,16,10,3,4,0.2,0.3
2026-04-18T2200,1894A,105.4427,28.9063,泸州市,小市上码头,细颗粒物(PM2.5),109,81,35,69,21,59,59,111,100,35,18,10,7,0.9,0.6
2026-04-18T2200,1895A,105.4241,28.8573,泸州市,兰田宪桥,颗粒物(PM10),52,52,31,31,16,34,34,112,91,47,21,7,7,0.8,0.6
2026-04-18T2200,1896A,105.4378,28.8833,泸州市,市环监站,细颗粒物(PM2.5),80,74,36,50,19,65,65,111,101,22,16,11,10,0.9,0.7
2026-04-18T2200,4272A,105.3689,28.7783,泸州市,纳溪中医医院,细颗粒物(PM2.5),98,76,49,59,25,21,21,117,99,38,17,5,5,1.1,0.8
2026-04-18T2200,2183A,111.1447,37.5212,吕梁市,环保局,NA,NA,NA,64,24,17,121,121,133,131,16,23,4,6,0.4,0.3
2026-04-18T2200,2185A,111.1285,37.5338,吕梁市,自来水公司,颗粒物(PM10),55,57,92,28,22,93,93,132,126,29,29,3,7,0.7,0.5
2026-04-18T2200,2867A,111.1225,37.5093,吕梁市,马茂庄小学,颗粒物(PM10),60,63,84,27,19,66,66,132,121,60,33,7,11,0.6,0.4
2026-04-18T2200,1812A,112.3934,34.6517,洛阳市,市委党校,颗粒物(PM10),63,67,79,25,33,120,120,145,134,14,38,8,11,0.6,0.7
2026-04-18T2200,1815A,112.494,34.6883,洛阳市,河南林校,颗粒物(PM10),73,82,85,40,34,108,108,148,137,21,37,12,14,0.6,0.7
2026-04-18T2200,1816A,112.3843,34.623,洛阳市,开发区管委会,颗粒物(PM10),68,74,81,34,30,122,122,149,138,10,18,12,15,0.7,0.7
2026-04-18T2200,1817A,112.4263,34.6249,洛阳市,市委新办公区,颗粒物(PM10),67,73,74,26,27,124,124,146,136,12,19,10,13,0.5,0.5
2026-04-18T2200,3340A,112.6005,34.6323,洛阳市,伊滨,颗粒物(PM10),73,82,80,28,30,122,122,134,130,10,23,9,10,0.6,0.7
2026-04-18T2200,3341A,112.495,34.6338,洛阳市,中移产业园,颗粒物(PM10),68,74,76,34,32,129,129,144,137,13,26,10,12,0.5,0.5
2026-04-18T2200,3593A,112.5736,34.8993,洛阳市,吉利监测站,颗粒物(PM10),74,83,77,35,25,95,95,164,141,21,22,10,12,0.5,0.5
2026-04-18T2200,3635A,112.3678,34.6623,洛阳市,河科大西苑校区,颗粒物(PM10),73,81,89,29,41,127,127,154,144,9,26,10,16,0.5,0.6
2026-04-18T2200,3636A,112.4387,34.678,洛阳市,英才小学,颗粒物(PM10),73,81,96,33,38,119,119,145,134,15,35,10,14,0.5,0.6
2026-04-18T2200,4214A,112.460027,34.694929,洛阳市,春都路1号院,颗粒物(PM10),79,90,92,38,36,114,114,153,142,20,29,9,11,0.5,0.5
2026-04-18T2200,2399A,114.051,33.5721,漯河市,三五一五工厂,颗粒物(PM10),65,70,75,25,39,100,100,141,125,24,20,6,6,0.3,0.3
2026-04-18T2200,2400A,114.0055,33.5698,漯河市,漯河大学,颗粒物(PM10),60,64,68,30,43,99,99,138,122,24,18,5,5,0.5,0.5
2026-04-18T2200,2401A,114.0134,33.5826,漯河市,市水利局,颗粒物(PM10),63,68,75,20,40,105,105,140,125,20,14,5,4,0.5,0.7
2026-04-18T2200,2402A,114.0261,33.5697,漯河市,市广电局,颗粒物(PM10),67,73,75,28,41,102,102,146,128,24,21,5,5,0.4,0.5
2026-04-18T2200,3478A,113.9691,33.568,漯河市,市图书馆,颗粒物(PM10),58,61,76,30,36,106,106,138,125,19,18,6,8,0.4,0.5
2026-04-18T2200,4250A,114.089259,33.588274,漯河市,韶山路11号,颗粒物(PM10),62,66,82,30,39,86,86,132,112,24,22,8,6,0.4,0.5
2026-04-18T2200,1798A,118.5084,31.6838,马鞍山市,湖东路四小,颗粒物(PM10),51,51,53,23,39,82,82,140,126,33,17,6,6,0.4,0.5
2026-04-18T2200,1799A,118.5019,31.6449,马鞍山市,开发区,颗粒物(PM10),63,68,59,38,38,88,88,144,124,36,25,8,7,0.6,0.6
2026-04-18T2200,3633A,118.4914,31.681,马鞍山市,雨山,,48,48,46,24,29,94,94,143,131,28,18,7,7,0.6,0.6
2026-04-18T2200,4191A,118.527362,31.722269,马鞍山市,慈湖高新区,,48,48,64,22,38,96,96,139,125,25,19,5,6,0.4,0.5
2026-04-18T2200,1686A,111.0285,21.469,茂名市,电白南海,,29,29,35,11,24,68,68,104,95,9,12,5,9,0.8,0.9
2026-04-18T2200,1687A,110.9294,21.6533,茂名市,茂石化七小,,34,34,42,18,33,60,60,107,98,15,16,9,13,0.6,0.8
2026-04-18T2200,1688A,110.9108,21.6688,茂名市,健康路,,27,27,38,18,32,54,54,102,94,14,16,7,14,0.7,0.9
2026-04-18T2200,1689A,110.8592,21.6826,茂名市,高岭,,41,41,51,23,36,59,59,98,94,17,12,6,21,/,/
2026-04-18T2200,3450A,111.0101,21.5165,茂名市,电白水东,,25,24,27,17,26,66,66,102,95,12,14,3,5,/,/
2026-04-18T2200,2540A,103.8414,30.0871,眉山市,气象局,颗粒物(PM10),73,82,59,42,19,77,77,149,130,40,28,8,7,0.8,0.7
2026-04-18T2200,3148A,103.829,30.0563,眉山市,区人社局,颗粒物(PM10),78,88,61,43,25,70,70,138,119,47,37,9,9,0.9,0.6
2026-04-18T2200,4148A,103.8836,30.0695,眉山市,眉职院,,46,46,47,17,17,46,46,145,117,31,23,8,8,0.8,0.7
2026-04-18T2200,1690A,116.1248,24.3307,梅州市,梅江月梅,,30,27,32,21,20,35,35,96,75,19,15,/,/,/,/
2026-04-18T2200,1691A,116.0798,24.2719,梅州市,梅县新城,,41,41,28,18,18,17,17,95,73,38,14,8,8,0.7,0.6
2026-04-18T2200,3315A,116.1234,24.2994,梅州市,梅龙,,34,34,30,22,20,32,32,104,81,20,14,6,7,0.9,0.8
2026-04-18T2200,1878A,104.7775,31.4741,绵阳市,富乐山,细颗粒物(PM2.5),60,48,50,40,30,114,114,131,121,14,19,7,7,0.6,0.6
2026-04-18T2200,1880A,104.6698,31.4668,绵阳市,高新区自来水公司,颗粒物(PM10),61,65,64,37,29,89,89,136,125,30,33,7,6,0.7,0.7
2026-04-18T2200,3491A,104.6899,31.5324,绵阳市,西科大附属小学,颗粒物(PM10),74,83,63,42,30,56,56,142,125,54,28,6,6,0.7,0.6
2026-04-18T2200,3492A,104.5647,31.5343,绵阳市,安州区旅游局,细颗粒物(PM2.5),70,69,50,45,24,81,81,143,131,18,13,7,7,0.5,0.4
2026-04-18T2200,4146A,104.7092,31.4972,绵阳市,科技城新区公安局,颗粒物(PM10),56,58,61,34,26,86,86,130,120,29,24,8,8,0.6,0.6
2026-04-18T2200,4226A,104.765114,31.453094,绵阳市,绵阳市气象局,颗粒物(PM10),58,61,61,34,29,87,87,113,104,33,32,7,8,0.4,0.4
2026-04-18T2200,1784A,129.61,44.561,牡丹江市,环保大楼,,48,48,30,24,19,62,62,102,91,22,11,2,2,0.5,0.3
2026-04-18T2200,1787A,129.6364,44.6075,牡丹江市,机车工厂,颗粒物(PM10),56,58,39,30,24,37,37,97,82,33,10,10,6,0.5,0.3
2026-04-18T2200,1788A,129.6386,44.5462,牡丹江市,第一中学,,41,41,33,27,18,58,58,104,89,15,8,6,6,0.4,0.4
2026-04-18T2200,4287A,129.5992,44.5964,牡丹江市,东晓云街98号,,48,45,38,33,21,55,55,101,87,17,8,4,3,0.4,0.3
2026-04-18T2200,2531A,105.0703,29.61,内江市,市监测站,细颗粒物(PM2.5),56,44,44,38,22,66,66,141,117,39,20,10,9,0.7,0.5
2026-04-18T2200,2533A,105.0657,29.5807,内江市,内江二中,颗粒物(PM10),58,61,43,37,28,40,40,137,116,61,26,8,8,0.8,0.4
2026-04-18T2200,2534A,105.0407,29.5828,内江市,内江日报社,NA,NA,39,38,34,29,NA,NA,146,133,54,28,12,9,0.6,0.4
2026-04-18T2200,4147A,105.0433,29.6105,内江市,玉峰路西段888号,,49,49,52,29,34,80,80,72,NA,33,23,7,7,1.0,0.5
2026-04-18T2200,2628A,92.0653,31.4846,那曲市,那曲监测站,颗粒物(PM10),58,60,41,32,26,67,67,98,90,28,18,14,9,1.0,0.8
2026-04-18T2200,4243A,92.0515,31.4787,那曲市,那曲市委宣传部,,36,36,21,20,11,83,83,106,102,12,9,9,8,0.7,0.6
2026-04-18T2200,1291A,115.8887,28.7006,南昌市,省林业公司,颗粒物(PM10),72,80,41,33,26,44,44,137,114,52,17,4,4,0.5,0.4
2026-04-18T2200,1292A,115.813,28.7443,南昌市,林科所,,41,41,34,18,24,75,75,147,126,38,10,7,8,0.5,0.6
2026-04-18T2200,1294A,115.8518,28.687,南昌市,建工学校,颗粒物(PM10),87,101,52,43,27,36,36,139,113,60,21,10,10,1.0,0.7
2026-04-18T2200,1295A,115.8926,28.6425,南昌市,象湖,颗粒物(PM10),72,80,36,35,34,23,23,140,114,85,19,8,8,1.2,0.9
2026-04-18T2200,3046A,115.9084,28.6062,南昌市,机电学校,颗粒物(PM10),63,67,51,29,28,52,52,148,121,60,20,5,5,0.6,0.6
2026-04-18T2200,3690A,115.9718,28.7032,南昌市,外国语学校,颗粒物(PM10),60,63,43,20,25,36,36,132,109,50,24,8,9,0.7,0.6
2026-04-18T2200,4106A,115.7923,28.6873,南昌市,工业二路,颗粒物(PM10),70,78,53,40,30,26,26,143,108,65,18,5,6,0.7,0.7
2026-04-18T2200,4192A,115.931587,28.686774,南昌市,南京东路235号,颗粒物(PM10),77,87,52,37,28,46,46,146,121,35,14,5,6,1.1,0.5
2026-04-18T2200,1906A,106.0791,30.8022,南充市,南充市委,颗粒物(PM10),51,51,42,35,23,46,46,116,99,42,22,7,7,0.4,0.4
2026-04-18T2200,1907A,106.1038,30.8215,南充市,南充炼油厂,颗粒物(PM10),55,56,53,32,26,36,36,115,95,56,24,5,6,0.5,0.3
2026-04-18T2200,4227A,106.108336,30.788436,南充市,梨树横街98号,颗粒物(PM10),61,65,51,36,28,40,40,120,105,53,27,7,8,0.6,0.4
2026-04-18T2200,4304A,106.1172,30.843,南充市,清泉寺北路188号,细颗粒物(PM2.5),60,53,46,40,28,91,91,123,118,13,13,7,7,0.4,0.4
2026-04-18T2200,4305A,106.067,30.7616,南充市,同庆路1号,,46,44,46,32,23,36,36,120,100,56,24,7,7,0.6,0.4
2026-04-18T2200,1151A,118.8033,32.1085,南京市,迈皋桥,颗粒物(PM10),52,52,48,11,25,73,73,131,118,41,32,8,7,0.9,0.7
2026-04-18T2200,1152A,118.7487,32.057,南京市,草场门,,48,48,47,10,24,82,82,132,122,40,28,8,6,0.6,0.5
2026-04-18T2200,1154A,118.770105,32.004342,南京市,中华门,颗粒物(PM10),51,51,57,12,26,67,67,136,124,34,24,8,9,0.7,0.7
2026-04-18T2200,1155A,118.8059,32.0329,南京市,瑞金路,,48,48,59,14,27,84,84,128,117,31,25,7,5,0.8,0.7
2026-04-18T2200,1156A,118.7946,32.0774,南京市,玄武湖,颗粒物(PM10),54,55,47,12,22,67,67,117,105,38,21,8,5,0.6,0.4
2026-04-18T2200,1157A,118.6415,32.0964,南京市,浦口,颗粒物(PM10),53,54,47,11,25,52,52,124,108,47,32,6,5,0.5,0.5
2026-04-18T2200,1158A,118.730129,32.000956,南京市,奥体中心,颗粒物(PM10),57,59,59,12,23,66,66,118,110,42,28,8,8,0.4,0.4
2026-04-18T2200,1159A,118.9072,32.1047,南京市,仙林大学城,颗粒物(PM10),58,61,58,17,23,66,66,123,111,41,29,14,11,0.9,0.7
2026-04-18T2200,3422A,118.8443,31.919,南京市,江宁彩虹桥,,49,49,50,17,24,87,87,142,130,47,27,3,4,0.4,0.5
2026-04-18T2200,3427A,118.8497,32.3599,南京市,六合雄州,,28,28,45,8,27,58,58,112,96,42,37,3,4,0.6,0.8
2026-04-18T2200,4086A,118.7641,32.0841,南京市,新模范马路66号,颗粒物(PM10),55,56,55,10,23,70,70,134,121,39,26,4,4,0.7,0.5
2026-04-18T2200,4249A,118.8707617,31.34017673,南京市,汶溪路181号,颗粒物(PM10),63,68,57,29,42,106,106,153,147,24,24,7,8,0.6,0.6
2026-04-18T2200,4312A,119.019,31.6512,南京市,中山西路1号,颗粒物(PM10),56,58,54,37,38,86,86,122,112,27,23,3,4,0.9,0.8
2026-04-18T2200,1401A,108.3098,22.788,南宁市,二十一中,细颗粒物(PM2.5),54,NA,33,37,27,95,95,102,102,12,12,2,2,0.7,0.7
2026-04-18T2200,1402A,108.3135,22.8529,南宁市,北湖,,40,38,37,28,36,91,91,105,104,11,15,2,2,0.8,0.8
2026-04-18T2200,1403A,108.3205,22.8222,南宁市,市监测站,,39,37,35,27,28,79,79,106,104,16,12,2,2,0.6,0.6
2026-04-18T2200,1404A,108.3828,22.8038,南宁市,大自然花园,,45,42,33,31,28,79,79,104,102,18,13,5,5,0.9,0.9
2026-04-18T2200,1406A,108.2397,22.8462,南宁市,区农职院,,48,48,40,25,31,75,75,86,85,10,10,2,4,0.7,0.8
2026-04-18T2200,1407A,108.3285,22.7356,南宁市,英华嘉园,,50,40,34,35,26,99,99,107,107,12,11,4,4,0.5,0.5
2026-04-18T2200,3401A,108.4829,22.762,南宁市,红星社区,细颗粒物(PM2.5),60,51,36,40,27,94,94,106,105,15,11,5,5,0.8,0.7
2026-04-18T2200,4132A,108.2927,23.1477,南宁市,起凤路9号,,41,41,47,28,38,69,69,104,101,19,13,5,6,0.7,0.7
2026-04-18T2200,4221A,108.2177,22.7774,南宁市,乐贤路16号,细颗粒物(PM2.5),52,40,37,36,29,78,78,97,95,29,19,5,6,0.5,0.6
2026-04-18T2200,2332A,118.1682,26.6371,南平市,南平市监测站,,26,26,22,18,13,30,30,79,59,16,11,4,4,0.7,0.6
2026-04-18T2200,2334A,118.1757,26.6276,南平市,南平七中,,29,29,24,20,13,21,21,76,58,14,11,2,2,0.8,0.7
2026-04-18T2200,1168A,120.9056,31.9669,南通市,狼山街道,,36,36,28,16,9,90,90,105,104,18,10,4,3,0.4,0.3
2026-04-18T2200,1170A,120.8635,32.0231,南通市,城中,,42,42,36,24,12,106,106,106,106,15,10,4,4,0.3,0.2
2026-04-18T2200,1171A,120.9376,31.9301,南通市,星湖花园,,31,30,27,14,10,98,98,109,108,19,9,4,3,0.5,0.4
2026-04-18T2200,1172A,120.8053,32.046,南通市,紫琅学院,颗粒物(PM10),55,57,26,25,10,80,80,115,108,36,15,5,5,0.7,0.6
2026-04-18T2200,3291A,121.0631,32.0644,南通市,通州监测站,颗粒物(PM10),51,51,31,19,9,99,99,115,115,22,7,4,3,0.4,0.4
2026-04-18T2200,3432A,120.9348,31.9874,南通市,环境教育馆,,41,41,31,17,10,85,85,104,100,23,13,4,4,0.5,0.4
2026-04-18T2200,4091A,120.8692,31.9885,南通市,洪江路,颗粒物(PM10),58,61,33,15,10,103,103,101,101,20,13,5,5,0.7,0.6
2026-04-18T2200,2404A,112.5338,33.0086,南阳市,瓦房庄,颗粒物(PM10),64,69,74,24,24,97,97,129,119,18,22,5,5,0.5,0.5
2026-04-18T2200,2405A,112.5002,32.9734,南阳市,汉画馆,颗粒物(PM10),70,77,73,37,25,81,81,130,113,23,23,6,6,0.6,0.6
2026-04-18T2200,2406A,112.5778,33.0144,南阳市,气象站,颗粒物(PM10),73,81,80,26,24,100,100,138,125,18,20,5,6,0.4,0.4
2026-04-18T2200,2407A,112.548,32.9687,南阳市,理工学院,颗粒物(PM10),69,76,75,28,27,91,91,134,120,26,24,6,6,0.5,0.5
2026-04-18T2200,4008A,112.5233,32.9921,南阳市,卧龙区政府,颗粒物(PM10),75,85,89,38,26,94,94,132,118,17,21,6,7,0.6,0.6
2026-04-18T2200,1234A,121.8352,29.9111,宁波市,区环保大楼,颗粒物(PM10),56,58,32,23,13,48,48,106,87,65,36,8,6,0.4,0.4
2026-04-18T2200,1235A,121.5595,29.8208,宁波市,万里学院,,34,34,30,20,18,56,56,112,99,47,19,9,9,0.6,0.6
2026-04-18T2200,1236A,121.713,29.9564,宁波市,龙赛医院,颗粒物(PM10),51,51,26,20,10,71,71,95,92,36,21,6,6,0.4,0.3
2026-04-18T2200,1240A,121.5855,29.8635,宁波市,太古小学,,41,41,31,18,16,77,77,110,102,34,19,4,4,0.3,0.4
2026-04-18T2200,1241A,121.5239,29.8673,宁波市,市环境监测中心,,32,32,30,22,19,67,67,108,102,38,18,4,5,0.5,0.4
2026-04-18T2200,2871A,121.6156,29.9015,宁波市,万里国际学校,,41,41,29,21,15,77,77,111,102,35,22,5,5,0.4,0.4
2026-04-18T2200,3710A,121.5593,29.8976,宁波市,白沙活动中心,,34,34,28,19,13,61,61,115,107,39,18,6,6,0.5,0.4
2026-04-18T2200,4095A,121.8962,29.7529,宁波市,中科路88号,颗粒物(PM10),59,62,34,30,18,49,49,105,95,57,26,9,8,0.5,0.5
2026-04-18T2200,2341A,119.5387,26.6611,宁德市,宁德市监测站,,33,NA,18,23,18,88,88,109,102,20,21,7,7,0.7,0.7
2026-04-18T2200,3209A,119.5231,26.6562,宁德市,宁德一中,,28,18,20,16,18,88,88,112,103,11,12,6,6,0.5,0.5
2026-04-18T2200,2618A,98.859,25.8541,怒江傈僳族自治州,州监测站,细颗粒物(PM2.5),72,53,44,46,31,93,93,112,104,12,13,7,6,0.3,0.3
2026-04-18T2200,2619A,98.8607,25.8168,怒江傈僳族自治州,泸水一中,细颗粒物(PM2.5),62,48,44,41,34,69,69,105,92,21,19,6,6,0.6,0.5
2026-04-18T2200,1888A,101.6891,26.571,攀枝花市,弄弄坪,,46,46,54,27,26,102,102,143,131,14,19,8,17,0.5,0.8
2026-04-18T2200,1889A,101.577,26.5914,攀枝花市,河门口,颗粒物(PM10),60,64,76,39,39,90,90,151,134,16,19,14,25,0.7,0.9
2026-04-18T2200,1891A,101.7365,26.4986,攀枝花市,仁和,NA,NA,NA,NA,NA,NA,NA,NA,NA,NA,NA,NA,NA,NA,NA,NA
2026-04-18T2200,2835A,101.7222,26.567,攀枝花市,四十中小,,49,49,42,31,24,105,105,136,123,16,17,7,16,0.8,0.8
2026-04-18T2200,1604A,122.0303,41.1489,盘锦市,开发区,颗粒物(PM10),59,62,64,12,80,124,124,139,138,15,16,7,7,0.5,0.5
2026-04-18T2200,1605A,122.0486,41.0883,盘锦市,兴隆台,细颗粒物(PM2.5),125,NA,51,87,73,98,98,128,126,22,18,9,10,0.7,0.6
2026-04-18T2200,1606A,121.8297,41.1026,盘锦市,新生街道,细颗粒物(PM2.5),168,NA,50,127,123,110,110,132,128,19,24,5,6,0.7,0.6
2026-04-18T2200,1832A,113.3257,33.7423,平顶山市,新华旅馆,颗粒物(PM10),63,68,105,23,43,101,101,131,122,12,28,8,7,0.5,0.6
2026-04-18T2200,1833A,113.2917,33.737,平顶山市,规划设计院,颗粒物(PM10),53,53,98,24,43,93,93,130,118,14,29,8,8,0.5,0.6
2026-04-18T2200,1834A,113.182,33.7738,平顶山市,平顶山工学院,颗粒物(PM10),55,56,76,21,33,94,94,136,123,16,19,10,9,0.5,0.6
2026-04-18T2200,3594A,112.8736,33.9068,平顶山市,石龙区,颗粒物(PM10),73,81,110,32,36,81,81,124,113,18,32,9,10,0.6,0.6
2026-04-18T2200,4116A,113.284,33.7139,平顶山市,姚电大道23号,颗粒物(PM10),67,73,112,28,37,88,88,134,120,22,29,6,7,0.4,0.5
2026-04-18T2200,2656A,106.6633,35.5338,平凉市,聚贤嘉苑,颗粒物(PM10),54,55,62,26,20,122,122,123,123,11,17,3,9,0.4,0.4
2026-04-18T2200,2657A,106.7021,35.5307,平凉市,博物馆,颗粒物(PM10),64,69,67,19,21,102,102,127,122,20,20,8,10,0.4,0.5
2026-04-18T2200,2348A,113.8384,27.6436,萍乡市,中医院,,48,45,41,33,29,44,44,138,111,34,18,5,7,0.9,0.9
2026-04-18T2200,2350A,113.8677,27.6438,萍乡市,市环保局,细颗粒物(PM2.5),64,65,39,42,35,45,45,141,116,34,19,11,8,1.1,0.8
2026-04-18T2200,2351A,113.8663,27.6202,萍乡市,安源区政府,细颗粒物(PM2.5),54,54,40,37,32,52,52,127,109,14,9,7,8,0.7,0.7
2026-04-18T2200,4107A,113.8686,27.6668,萍乡市,联洪村委会,NA,NA,NA,46,34,30,NA,NA,129,125,49,16,3,4,0.7,0.6
2026-04-18T2200,2319A,119.0142,25.4324,莆田市,荔城区仓后路,,28,26,28,19,18,77,77,95,88,20,17,/,/,/,/
2026-04-18T2200,2320A,119.0016,25.4553,莆田市,莆田市监测站,NA,NA,28,38,15,14,NA,NA,97,96,19,15,2,3,0.5,0.7
2026-04-18T2200,2321A,119.112,25.4561,莆田市,涵江区六中,,27,20,23,12,12,84,84,105,99,10,12,/,/,0.6,0.7
2026-04-18T2200,2322A,119.1014,25.3215,莆田市,秀屿区政府,,32,25,24,22,15,95,95,109,104,9,9,4,4,0.6,0.8
2026-04-18T2200,2392A,115.0312,35.7636,濮阳市,环保局,颗粒物(PM10),68,75,73,20,37,112,112,138,128,27,18,5,5,0.4,0.5
2026-04-18T2200,3021A,115,35.7667,濮阳市,濮水河管理处,颗粒物(PM10),60,63,76,25,36,117,117,135,129,16,17,5,4,0.5,0.7
2026-04-18T2200,4118A,115.0552,35.7816,濮阳市,中原东路68号,颗粒物(PM10),70,77,89,26,35,109,109,140,129,16,11,5,4,0.5,0.6
2026-04-18T2200,4216A,115.0923632,35.76857718,濮阳市,任丘路479号,颗粒物(PM10),64,69,87,27,44,106,106,138,124,19,20,6,4,0.3,0.5
2026-04-18T2200,2601A,100.9801,22.7634,普洱市,市环保局,细颗粒物(PM2.5),84,92,110,52,52,95,95,144,131,14,11,5,5,1.0,0.9
2026-04-18T2200,2602A,100.9763,22.8237,普洱市,普洱第二中学,细颗粒物(PM2.5),100,93,107,60,57,78,78,142,122,24,26,7,7,1.0,0.8
2026-04-18T2200,3345A,131.0413,45.7795,七台河市,中波台,,34,34,17,20,15,63,63,87,77,24,9,4,4,0.5,0.4
2026-04-18T2200,3637A,131.0136,45.7688,七台河市,人民广场,,38,38,28,16,13,69,69,91,79,28,13,10,11,0.6,0.6
2026-04-18T2200,3684A,130.8639,45.8144,七台河市,新建矿广场,颗粒物(PM10),60,63,24,18,13,44,44,76,68,25,11,11,8,0.2,0.6
2026-04-18T2200,1779A,123.9307,47.3641,齐齐哈尔市,安居小区,,40,40,32,10,15,67,67,90,76,14,9,4,3,0.4,0.4
2026-04-18T2200,1780A,123.9497,47.3389,齐齐哈尔市,中心广场,,24,24,30,9,14,67,67,82,74,6,6,5,5,0.3,0.3
2026-04-18T2200,1781A,123.9483,47.3229,齐齐哈尔市,农牧车辆厂,,36,36,31,15,16,69,69,94,82,8,8,5,4,0.3,0.3
2026-04-18T2200,1783A,123.9442,47.2994,齐齐哈尔市,市环境监测站,,33,33,30,18,17,58,58,87,72,14,10,3,3,0.6,0.5
2026-04-18T2200,3662A,123.6341,47.2079,齐齐哈尔市,富区青少年活动中心,,21,21,33,10,20,60,60,89,79,8,8,3,3,0.5,0.6
2026-04-18T2200,2591A,107.9765,26.5724,黔东南苗族侗族自治州,市环境监测站,,33,26,23,23,17,42,42,84,74,25,12,2,2,0.7,0.6
2026-04-18T2200,2881A,107.8909,26.531,黔东南苗族侗族自治州,凯里学院,,29,NA,16,20,17,56,56,94,87,16,8,2,2,0.5,0.4
2026-04-18T2200,2593A,107.5223,26.2371,黔南布依族苗族自治州,小围寨,,18,14,14,12,11,56,56,93,87,7,7,6,5,0.4,0.4
2026-04-18T2200,3538A,107.5175,26.2977,黔南布依族苗族自治州,沙坝,,34,34,17,16,11,34,34,90,81,25,7,4,4,0.9,0.7
2026-04-18T2200,2589A,104.9022,25.0943,黔西南布依族苗族自治州,场坝街,,32,26,21,22,17,80,80,84,84,4,6,5,6,0.5,0.4
2026-04-18T2200,2590A,104.8812,25.0994,黔西南布依族苗族自治州,坪东大道,,35,31,31,24,22,81,81,83,83,5,7,3,4,0.5,0.4
2026-04-18T2200,2502A,108.6238,21.9667,钦州市,市环保站,,31,31,34,19,19,96,96,118,118,12,12,1,2,0.7,0.7
2026-04-18T2200,2503A,108.655,21.9481,钦州市,沙埠小学,细颗粒物(PM2.5),52,37,37,36,25,77,77,106,104,20,16,1,2,0.9,0.9
2026-04-18T2200,2504A,108.5989,21.7435,钦州市,港区一小,颗粒物(PM10),57,59,49,32,27,92,92,103,103,16,17,4,5,0.8,0.7
2026-04-18T2200,3404A,108.5959,21.9634,钦州市,北职校,,48,41,35,33,26,74,74,108,106,18,14,15,3,0.7,0.7
2026-04-18T2200,1046A,119.5247,39.9346,秦皇岛市,建设大厦,细颗粒物(PM2.5),122,106,121,84,104,31,31,96,71,62,33,6,9,0.5,0.7
2026-04-18T2200,3132A,119.5979,39.938,秦皇岛市,文明里,细颗粒物(PM2.5),108,113,132,68,99,61,61,85,64,43,38,9,10,0.5,0.6
2026-04-18T2200,4066A,119.7458,39.9952,秦皇岛市,南园路157号,细颗粒物(PM2.5),116,89,122,77,109,59,59,94,74,57,39,8,9,0.5,0.6
2026-04-18T2200,4067A,119.5131,39.8858,秦皇岛市,翠岛大街1号,细颗粒物(PM2.5),120,102,102,81,93,77,77,82,64,34,31,8,10,0.5,0.6
2026-04-18T2200,4198A,119.509013,39.825305,秦皇岛市,北戴河轮滑馆,细颗粒物(PM2.5),88,84,93,54,76,34,34,79,52,42,29,7,8,0.3,0.5
2026-04-18T2200,1310A,120.404,36.0625,青岛市,市南区东部子站,,25,6,12,3,8,80,80,86,70,5,9,4,4,0.3,0.3
2026-04-18T2200,1311A,120.362344,36.10282,青岛市,四方区子站,,24,24,23,13,13,58,58,89,66,32,19,5,5,0.6,0.6
2026-04-18T2200,1312A,120.294373,36.054183,青岛市,市南区西部子站,,24,6,10,3,5,76,76,83,66,17,21,2,3,0.4,0.5
2026-04-18T2200,1313A,120.4581,36.0858,青岛市,崂山区子站,,25,NA,11,3,8,80,80,96,69,10,12,7,7,0.3,0.3
2026-04-18T2200,1315A,120.3945,36.3083,青岛市,城阳区子站,,41,41,48,10,20,96,96,121,106,24,21,6,6,0.6,0.6
2026-04-18T2200,3642A,120.3454,36.0735,青岛市,市北区南部,,29,6,12,3,6,90,90,92,76,3,8,2,2,0.5,0.5
2026-04-18T2200,3643A,120.3897,36.18,青岛市,李沧区北部,,34,34,32,13,15,66,66,82,78,27,20,8,8,0.5,0.5
2026-04-18T2200,4110A,120.5222,36.4089,青岛市,盟旺路653号,,38,38,28,20,16,66,66,139,121,16,10,4,4,0.7,0.7
2026-04-18T2200,4290A,120.196923,35.954556,青岛市,珠江路669号,,29,6,10,3,6,91,91,91,91,8,10,4,4,0.5,0.5
2026-04-18T2200,4291A,120.0424,35.8656,青岛市,黄岛区人民政府广场,,26,7,10,3,6,83,83,88,88,10,11,7,7,0.5,0.5
2026-04-18T2200,1703A,113.0218,23.7086,清远市,凤城街办,,36,36,30,17,19,37,37,106,89,39,22,/,/,/,/
2026-04-18T2200,3025A,113.0479,23.6343,清远市,技师学院,,24,24,29,14,18,55,55,113,103,18,19,11,6,0.7,0.6
2026-04-18T2200,3318A,112.9898,23.7403,清远市,清新太和,,25,20,27,12,17,78,78,113,NA,10,12,8,7,0.6,0.6
2026-04-18T2200,3455A,113.076,23.72,清远市,清城东城,,31,31,27,16,15,50,50,106,95,19,11,/,/,/,/
2026-04-18T2200,2661A,107.6325,35.7357,庆阳市,庆阳五中,颗粒物(PM10),53,54,53,21,18,99,99,127,121,17,13,2,3,0.3,0.3
2026-04-18T2200,2662A,107.6361,35.7067,庆阳市,市环保局,,49,49,50,24,19,100,100,126,121,15,12,5,6,0.5,0.4
2026-04-18T2200,1916A,103.7897,25.5036,曲靖市,环境监测站,细颗粒物(PM2.5),107,109,59,67,31,86,86,136,123,18,14,10,8,0.7,0.9
2026-04-18T2200,1917A,103.8013,25.5357,曲靖市,烟厂办公区,细颗粒物(PM2.5),90,79,42,55,26,86,86,128,118,12,9,8,8,0.7,0.6
2026-04-18T2200,3376A,103.7926,25.4651,曲靖市,南苑二区,细颗粒物(PM2.5),100,106,45,60,29,87,87,127,119,12,12,4,4,0.8,0.6
2026-04-18T2200,3377A,103.7442,25.5259,曲靖市,曲靖师范学院,细颗粒物(PM2.5),84,88,40,52,29,90,90,138,127,13,22,5,5,0.7,0.5
2026-04-18T2200,1264A,118.8694,28.94,衢州市,环保大楼,细颗粒物(PM2.5),62,56,55,41,38,66,66,147,126,32,19,/,/,/,/
2026-04-18T2200,1266A,118.8622,28.9809,衢州市,衢州学院,颗粒物(PM10),53,53,64,33,40,35,35,142,106,43,28,6,6,0.6,0.6
2026-04-18T2200,4097A,118.9646,28.9832,衢州市,衢州三中,细颗粒物(PM2.5),58,56,57,39,40,51,51,148,120,35,21,7,7,0.5,0.5
2026-04-18T2200,1611A,118.5818,24.9116,泉州市,涂山街,NA,NA,NA,31,NA,25,NA,NA,102,100,21,17,5,3,1.0,0.9
2026-04-18T2200,1612A,118.597,24.8976,泉州市,津头埔,,28,28,31,16,25,74,74,107,99,18,15,4,3,0.9,0.8
2026-04-18T2200,1613A,118.6669,24.9422,泉州市,万安,,29,29,29,20,23,69,69,97,90,18,14,5,4,0.8,0.7
2026-04-18T2200,4105A,118.6355,24.9148,泉州市,霞新路6号,,23,23,27,15,25,68,68,100,92,22,16,/,/,0.8,0.8
2026-04-18T2200,2626A,88.8873,29.2723,日喀则市,日喀则监测站,,34,34,28,18,9,76,76,110,106,37,7,12,10,0.8,0.5
2026-04-18T2200,3726A,88.8775,29.2425,日喀则市,林业技术推广中心,,31,27,29,3,6,97,97,116,115,10,5,9,9,0.4,0.4
2026-04-18T2200,1659A,119.4711,35.421,日照市,监测站,,31,31,42,16,19,36,36,96,80,46,41,8,8,0.5,0.5
2026-04-18T2200,1660A,119.523,35.4216,日照市,市政府广场,,19,14,27,6,14,60,60,86,79,24,25,5,6,0.6,0.6
2026-04-18T2200,1661A,119.5511,35.4113,日照市,港务局,,16,14,15,3,7,49,49,81,75,27,21,4,4,0.5,0.5
2026-04-18T2200,3507A,119.5326,35.4627,日照市,职业技术学院,,24,24,21,13,13,53,53,97,87,26,22,6,7,0.6,0.5
2026-04-18T2200,3604A,119.3267,35.1043,日照市,岚山环保分局,,29,29,53,3,20,78,78,114,102,23,27,9,13,0.5,1.1
2026-04-18T2200,1835A,111.1922,34.7752,三门峡市,市政府,颗粒物(PM10),60,64,63,31,21,108,108,130,126,10,19,10,11,0.4,0.4
2026-04-18T2200,1836A,111.1588,34.794,三门峡市,开发区,颗粒物(PM10),80,91,72,29,22,116,116,137,134,14,16,12,13,0.4,0.4
2026-04-18T2200,3039A,111.1911,34.7829,三门峡市,三门峡市第一小学,NA,NA,NA,70,NA,19,NA,NA,137,137,NA,19,NA,15,NA,0.4
2026-04-18T2200,3598A,111.1031,34.719,三门峡市,富达温泉假日酒店,颗粒物(PM10),65,71,73,24,22,112,112,133,130,12,16,13,14,0.4,0.4
2026-04-18T2200,2324A,117.621,26.2626,三明市,三钢,,26,26,25,14,14,36,36,84,69,18,14,3,7,0.6,1.1
2026-04-18T2200,2325A,117.6352,26.2714,三明市,三明二中,,28,23,25,19,15,28,28,78,62,19,12,2,3,0.6,0.8
2026-04-18T2200,2326A,117.6028,26.2377,三明市,三元区政府,,39,39,27,27,17,14,14,83,62,34,14,7,8,1.1,1
2026-04-18T2200,1877A,109.4962,18.2682,三亚市,河西子站,,26,26,21,18,16,70,70,77,76,5,5,5,4,0.4,0.4
2026-04-18T2200,3540A,109.7348,18.3443,三亚市,君悦子站,,33,33,22,16,14,74,74,77,77,4,5,4,4,0.4,0.5
2026-04-18T2200,4135A,109.1714,18.3739,三亚市,城东小学站,,36,36,22,18,16,64,64,76,73,9,7,/,/,/,/
2026-04-18T2200,2624A,91.7592,29.234,山南市,山南监测站,,34,15,13,3,3,107,107,116,113,12,5,13,12,0.3,0.2
2026-04-18T2200,2625A,91.7701,29.2436,山南市,山南人民医院,,34,16,17,3,6,106,106,112,111,6,3,10,10,0.2,0.2
2026-04-18T2200,1674A,116.6795,23.3666,汕头市,金平子站,,44,32,42,30,32,140,140,153,149,12,20,5,8,0.8,0.9
