timepoint,stationcode,longitude,latitude,area,positionname,primarypollutant,aqi,pm10,pm10_24h,pm2_5,pm2_5_24h,o3,o3_24h,o3_8h,o3_8h_24h,no2,no2_24h,so2,so2_24h,co,co_24h
2025-07-08T1000,2566A,102.1879,31.914,阿坝藏族羌族自治州,州农科所,,41,41,25,10,10,34,,25,25,3,5,13,13,0.6,0.7
2025-07-08T1000,2568A,102.2502,31.8896,阿坝藏族羌族自治州,马师校,,22,,20,15,16,29,,11,11,4,8,6,6,0.5,0.5
2025-07-08T1000,3994A,102.2165,31.9024,阿坝藏族羌族自治州,马尔康中学西区,,19,19,16,9,16,28,,13,13,5,6,6,6,0.5,0.5
2025-07-08T1000,2695A,80.292,41.1694,阿克苏地区,电视台,颗粒物(PM10),61,72,52,18,20,53,,48,42,22,14,7,6,0.9,0.8
2025-07-08T1000,2696A,80.2613,41.1551,阿克苏地区,艺术中心,颗粒物(PM10),60,70,60,22,25,59,,46,41,16,13,4,3,0.5,0.5
2025-07-08T1000,2204A,105.6467,38.8363,阿拉善盟,西城区西花园,,45,25,42,16,21,141,,138,133,11,10,5,6,0.9,0.9
2025-07-08T1000,2205A,105.6985,38.8411,阿拉善盟,蒙二幼,,38,31,48,15,15,119,,126,119,10,9,8,8,0.6,0.5
2025-07-08T1000,2206A,105.724,38.8516,阿拉善盟,环保局新楼,,,,37,,15,117,,126,120,,6,9,9,,0.5
2025-07-08T1000,2708A,88.1264,47.8517,阿勒泰地区,市站,,21,16,14,3,5,65,,63,61,11,7,1,1,0.5,0.5
2025-07-08T1000,2630A,80.1161,32.5,阿里地区,阿里监测站,,25,25,15,9,6,77,,94,88,16,7,8,8,0.3,0.2
2025-07-08T1000,3192A,80.0903,32.5028,阿里地区,阿里藏医院,,28,27,21,8,7,89,,106,100,10,3,5,4,0.4,0.3
2025-07-08T1000,2642A,109.0318,32.6537,安康市,香溪洞,,13,13,16,3,5,30,,34,31,7,8,7,6,0.1,0.1
2025-07-08T1000,2644A,109.0072,32.6975,安康市,汉滨区检察院,,15,15,20,3,6,22,,19,18,13,9,5,6,0.5,0.4
2025-07-08T1000,4054A,109.0325,32.6913,安康市,市邮政管理局,,26,26,22,9,9,0,,12,6,16,9,10,6,0.7,0.6
2025-07-08T1000,2291A,117.0809,30.5177,安庆市,环科院,,34,25,34,16,18,108,,68,68,9,10,5,4,0.6,0.7
2025-07-08T1000,2292A,117.0331,30.5119,安庆市,马山宾馆,,36,32,35,8,10,114,,74,74,9,11,5,5,0.7,0.7
2025-07-08T1000,2294A,116.9896,30.6145,安庆市,安庆大学,,34,23,31,12,19,107,,67,67,8,11,4,3,0.4,0.5
2025-07-08T1000,3173A,117.0598,30.5351,安庆市,市人大,,36,33,34,13,17,115,,73,73,10,12,4,3,0.6,0.6
2025-07-08T1000,3122A,105.9606,26.2611,安顺市,伍家关,,26,19,16,18,15,75,,75,75,4,4,3,3,0.4,0.4
2025-07-08T1000,3123A,105.9408,26.2431,安顺市,凤凰山,,25,23,20,17,16,77,,78,78,5,5,3,3,0.6,0.5
2025-07-08T1000,3124A,105.9439,26.2564,安顺市,金钟山,,28,24,17,19,15,80,,80,80,4,4,4,5,0.2,0.2
2025-07-08T1000,3125A,105.8983,26.2481,安顺市,娄家坡,,26,21,19,18,14,73,,74,74,4,3,4,4,0.5,0.5
2025-07-08T1000,1818A,114.4839,36.0621,安阳市,棉研所,,,,,,,,,,,,,,,,
2025-07-08T1000,1819A,114.3551,36.1017,安阳市,红庙街,,,28,36,10,16,99,,87,84,2,2,,3,,0.5
2025-07-08T1000,1820A,114.361,36.0681,安阳市,银杏小区,,42,,35,29,25,114,,95,94,2,3,1,3,0.3,0.5
2025-07-08T1000,3141A,114.3922,36.0878,安阳市,信访局,,38,22,38,12,15,120,,96,96,2,3,3,3,0.7,0.9
2025-07-08T1000,3669A,114.4705,36.0637,安阳市,左辅环卫站,,36,22,36,17,15,114,,88,88,2,4,5,5,0.5,0.6
2025-07-08T1000,3703A,114.2917,36.0949,安阳市,安钢职工学校,,38,27,41,26,27,100,,91,89,7,4,7,5,0.8,0.6
2025-07-08T1000,1748A,123.044,41.1196,鞍山市,深沟寺,,,27,37,20,20,,,52,51,5,12,,7,0.6,0.8
2025-07-08T1000,1749A,123.011,41.0931,鞍山市,太阳城,,27,21,33,14,19,85,,62,62,7,14,5,9,0.7,1.2
2025-07-08T1000,1750A,123.0485,41.1442,鞍山市,太平,,34,34,46,16,21,86,,60,60,6,16,2,4,0.8,0.9
2025-07-08T1000,1751A,122.9642,41.0971,鞍山市,铁西三道街,,34,34,53,22,28,82,,59,59,11,23,5,12,0.8,1.3
2025-07-08T1000,1753A,123.022,41.0821,鞍山市,明达新区,,26,26,35,17,20,78,,56,56,4,13,4,7,0.7,1.1
2025-07-08T1000,1754A,123.1289,41.0228,鞍山市,千山,,,,,,,,,,,,,,,,
2025-07-08T1000,4201A,122.9446,41.0826,鞍山市,兴盛南路290号,,30,30,50,20,22,78,,51,51,10,29,3,8,0.7,1.3
2025-07-08T1000,2195A,107.4212,40.761,巴彦淖尔市,附二中,,33,33,35,23,15,72,,74,69,10,12,9,11,0.7,0.5
2025-07-08T1000,2196A,107.37,40.7372,巴彦淖尔市,市环保大楼,颗粒物(PM10),57,63,46,23,16,68,,79,70,11,13,5,8,0.6,0.5
2025-07-08T1000,1956A,86.1472,41.7538,巴音郭楞蒙古自治州,孔雀公园,,38,38,54,17,18,101,,102,102,10,21,3,2,0.2,0.3
2025-07-08T1000,1957A,86.1972,41.7166,巴音郭楞蒙古自治州,棉纺厂,颗粒物(PM10),53,55,62,3,11,105,,100,100,11,17,5,4,0.2,0.2
2025-07-08T1000,1958A,86.2357,41.7173,巴音郭楞蒙古自治州,经济开发区,,39,39,38,13,9,109,,105,105,4,6,2,3,0.1,0.1
2025-07-08T1000,2914A,106.7677,31.8794,巴中市,苏山坪,,14,8,4,6,3,43,,49,48,7,6,4,5,0.4,0.3
2025-07-08T1000,3181A,106.7768,31.8526,巴中市,市五中,,13,13,12,6,4,28,,33,32,20,9,8,8,0.8,0.6
2025-07-08T1000,3183A,106.7418,31.8654,巴中市,圣泉水务公司,,9,9,7,3,4,27,,44,37,15,17,6,6,0.6,0.5
2025-07-08T1000,3616A,106.7616,31.8344,巴中市,市中心医院,,13,13,14,3,5,32,,38,35,18,9,8,8,0.6,0.4
2025-07-08T1000,2235A,122.7911,45.6077,白城市,洮北区环保局,,,32,20,16,16,131,,76,76,,12,3,7,,0.4
2025-07-08T1000,2236A,122.8738,45.5725,白城市,市环保局,,40,27,21,15,12,126,,74,74,4,9,3,3,0.5,0.5
2025-07-08T1000,2231A,126.4219,41.9171,白山市,喜丰,颗粒物(PM10),58,66,44,14,14,66,,19,19,28,24,12,10,0.9,0.7
2025-07-08T1000,2232A,126.4077,41.9419,白山市,环保局,,33,33,18,10,5,79,,34,34,18,12,3,5,0.5,0.5
2025-07-08T1000,2647A,104.1724,36.5446,白银市,第三小学,颗粒物(PM10),55,59,35,28,12,103,,113,112,7,8,11,18,0.6,0.6
2025-07-08T1000,2648A,104.1465,36.5482,白银市,动力公司,颗粒物(PM10),54,58,29,24,13,95,,105,103,5,8,6,14,0.4,0.4
2025-07-08T1000,2512A,106.6103,23.9011,百色市,市监测站,颗粒物(PM10),51,51,44,18,25,82,,40,40,14,15,20,14,0.6,0.5
2025-07-08T1000,2513A,106.6538,23.8859,百色市,市中心血站,,43,43,43,21,27,79,,39,37,14,16,12,13,0.7,0.7
2025-07-08T1000,3406A,106.6085,23.8798,百色市,祈福高中,,,,51,,27,68,,23,23,17,18,22,12,,0.7
2025-07-08T1000,2270A,117.396,32.939,蚌埠市,工人疗养院,,23,22,41,3,18,72,,45,44,11,14,6,4,0.4,0.4
2025-07-08T1000,2271A,117.3605,32.9427,蚌埠市,百货大楼,,22,22,41,3,19,58,,41,39,6,11,5,5,0.5,0.5
2025-07-08T1000,2273A,117.4185,32.8911,蚌埠市,蚌埠学院,,24,12,36,3,22,75,,40,40,6,19,8,7,0.5,0.4
2025-07-08T1000,2274A,117.3533,32.9673,蚌埠市,淮上区政府,,27,27,40,7,21,67,,46,43,12,17,7,5,0.5,0.5
2025-07-08T1000,2275A,117.3145,32.8977,蚌埠市,高新区,,21,12,41,3,22,67,,51,47,7,17,6,6,0.4,0.5
2025-07-08T1000,3715A,117.3092,32.9314,蚌埠市,蚌埠田家炳中学,,,6,44,3,23,59,,44,39,7,14,,7,0.2,0.3
2025-07-08T1000,1585A,109.8756,40.6532,包头市,市环境监测站,,33,33,22,10,14,86,,52,52,20,20,18,10,1.1,0.8
2025-07-08T1000,1587A,109.9991,40.5842,包头市,包头八中,,34,34,26,13,17,88,,64,64,16,20,13,13,0.7,0.8
2025-07-08T1000,1588A,109.8538,40.6821,包头市,青山宾馆,,42,42,19,19,19,89,,40,40,21,21,13,7,0.8,0.7
2025-07-08T1000,1589A,109.8642,40.6288,包头市,惠龙物流,,,25,19,17,12,85,,63,63,,14,10,8,,0.5
2025-07-08T1000,1590A,110.0377,40.5546,包头市,东河鸿龙湾,,34,34,18,9,10,99,,71,71,12,13,8,6,0.7,0.6
2025-07-08T1000,3283A,109.9154,40.5685,包头市,滨河大厦,,,28,16,19,13,98,,72,72,,11,,6,0.7,0.6
2025-07-08T1000,3419A,109.9447,40.6261,包头市,包头市委党校,,44,44,41,22,14,89,,60,60,17,16,28,14,0.9,0.6
2025-07-08T1000,3683A,109.8331,40.6576,包头市,昆区政府,,42,42,28,18,20,83,,60,60,20,19,12,8,0.9,0.8
2025-07-08T1000,1930A,107.185,34.3063,宝鸡市,庙沟村,,22,22,19,3,5,34,,58,50,14,10,4,4,0.3,0.3
2025-07-08T1000,1931A,107.0708,34.3017,宝鸡市,竹园沟,,14,14,19,8,8,26,,31,29,13,9,6,6,0.4,0.4
2025-07-08T1000,1932A,107.1906,34.3672,宝鸡市,三陆医院,,25,25,27,10,15,25,,11,11,25,25,8,7,0.6,0.5
2025-07-08T1000,1933A,107.1431,34.3547,宝鸡市,监测站,,26,26,28,7,13,30,,24,23,15,15,8,7,0.3,0.3
2025-07-08T1000,1934A,107.1186,34.3739,宝鸡市,技工学校,,,26,23,11,10,,,29,25,12,8,10,8,0.5,0.5
2025-07-08T1000,1935A,107.3906,34.3528,宝鸡市,陈仓区环保局家属楼,,16,14,15,9,10,49,,23,23,15,22,12,9,0.4,0.4
2025-07-08T1000,1936A,107.2058,34.3497,宝鸡市,文理学院,,28,28,27,9,13,30,,26,25,16,15,7,6,0.6,0.5
2025-07-08T1000,1937A,107.2386,34.3622,宝鸡市,三迪小学,,33,33,27,15,14,27,,21,21,22,19,8,7,0.6,0.5
2025-07-08T1000,1051A,115.493,38.8632,保定市,游泳馆,,27,27,27,17,13,86,,85,80,7,7,4,5,0.0,0.1
2025-07-08T1000,1052A,115.5213,38.8959,保定市,华电二区,,27,26,24,17,13,86,,85,83,11,11,2,2,0.5,0.5
2025-07-08T1000,1053A,115.4713,38.9108,保定市,接待中心,,33,33,29,14,9,76,,85,81,8,7,3,3,0.3,0.2
2025-07-08T1000,1054A,115.4612,38.8416,保定市,地表水厂,,33,33,37,7,8,92,,94,88,9,10,3,3,0.6,0.5
2025-07-08T1000,3581A,115.31981,38.95208,保定市,满城区生态环境分局,,31,31,29,17,10,74,,84,80,12,11,1,2,0.1,0.1
2025-07-08T1000,3582A,115.47694,38.76408,保定市,清苑区第二中学,,43,43,40,17,15,75,,80,74,11,7,3,3,0.3,0.3
2025-07-08T1000,3583A,115.62909,39.02311,保定市,徐水物探局,,24,21,28,7,4,74,,80,75,9,8,3,2,0.3,0.4
2025-07-08T1000,4004A,115.4202,38.8656,保定市,双鹰农机,,27,22,19,14,13,85,,92,86,13,11,2,2,0.3,0.2
2025-07-08T1000,4034A,115.5150,38.8590,保定市,植保所站,,29,28,31,13,16,92,,99,94,10,10,1,2,0.2,0.2
2025-07-08T1000,2594A,99.1678,25.1081,保山市,市环境监测站,,32,,12,22,13,31,,15,15,7,7,4,5,0.5,0.5
2025-07-08T1000,2595A,99.1711,25.1328,保山市,市环保局,,10,,13,7,8,31,,20,20,7,5,7,7,0.4,0.3
2025-07-08T1000,1866A,109.2262,21.588,北海市,牛尾岭水库,,21,6,10,3,5,65,,56,56,6,4,2,4,0.4,0.4
2025-07-08T1000,1867A,109.1436,21.4086,北海市,海滩公园,,19,16,29,3,3,58,,54,54,6,4,2,2,0.4,0.4
2025-07-08T1000,1868A,109.0981,21.4661,北海市,新市环保局,,25,12,15,3,5,78,,61,61,9,4,2,2,0.5,0.5
2025-07-08T1000,1869A,109.1778,21.5233,北海市,北海工业园,,,,17,2,7,92,,62,62,8,4,3,3,0.4,0.4
2025-07-08T1000,3400A,109.1911,21.4415,北海市,龙潭自来水厂,,,,13,,8,82,,64,64,6,3,,4,0.4,0.4
2025-07-08T1000,1001A,116.3621,39.8784,北京市,万寿西宫,,33,33,35,16,18,102,,88,88,17,20,2,4,0.2,0.3
2025-07-08T1000,1002A,116.2202,40.2915,北京市,定陵,,33,33,32,22,19,44,,40,40,4,3,3,3,0.5,0.5
2025-07-08T1000,1003A,116.4174,39.9289,北京市,东四,,34,28,34,16,16,107,,91,91,15,16,3,6,0.4,0.5
2025-07-08T1000,1004A,116.4072,39.8863,北京市,天坛,,27,25,30,12,14,85,,73,70,12,16,4,6,0.5,0.6
2025-07-08T1000,1005A,116.462,39.9365,北京市,农展馆,,29,29,33,18,17,79,,82,76,13,14,2,4,0.7,0.6
2025-07-08T1000,1006A,116.3392,39.9295,北京市,官园,,36,24,33,15,18,113,,90,89,13,16,5,7,0.4,0.5
2025-07-08T1000,1007A,116.2878,39.9611,北京市,海淀万柳,,34,34,37,17,18,78,,65,58,19,22,5,7,0.4,0.5
2025-07-08T1000,1008A,116.6636,40.135,北京市,顺义新城,,48,48,37,15,16,82,,82,74,18,14,5,6,0.5,0.4
2025-07-08T1000,1009A,116.6275,40.3275,北京市,怀柔镇,"颗粒物(PM10),细颗粒物(PM2.5)",60,69,32,43,17,73,,83,75,18,16,1,2,0.5,0.3
2025-07-08T1000,1010A,116.2296,40.217,北京市,昌平镇,,34,34,33,21,18,73,,48,48,17,13,5,6,0.6,0.6
2025-07-08T1000,1011A,116.3966,39.9821,北京市,奥体中心,,37,37,31,18,16,64,,86,79,25,12,3,4,0.4,0.4
2025-07-08T1000,3281A,115.9718,40.4529,北京市,延庆夏都,,42,37,35,29,21,86,,63,63,7,8,4,5,0.4,0.5
2025-07-08T1000,3418A,116.8336,40.4095,北京市,密云新城,,34,34,33,18,17,76,,76,67,7,13,2,3,0.6,0.6
2025-07-08T1000,3671A,116.088,39.9726,北京市,门头沟三家店,,23,22,26,13,13,72,,60,54,6,7,2,2,0.7,0.7
2025-07-08T1000,3672A,116.1541,39.8204,北京市,丰台云岗,,46,46,46,15,17,92,,48,48,15,18,2,3,0.4,0.5
2025-07-08T1000,3673A,116.6804,39.9081,北京市,通州东关,,39,39,31,21,15,90,,,,21,15,2,4,0.6,0.6
2025-07-08T1000,3674A,115.9577,39.7603,北京市,房山燕山,,30,30,31,17,18,84,,60,60,13,10,1,2,0.5,0.5
2025-07-08T1000,3675A,116.4672,39.7733,北京市,大兴旧宫,,28,28,28,13,13,89,,82,79,12,10,2,3,0.5,0.6
2025-07-08T1000,3694A,115.986,40.4563,北京市,延庆石河营,,35,31,34,24,20,78,,50,50,8,8,2,3,0.3,0.4
2025-07-08T1000,3695A,116.6151,40.3053,北京市,怀柔新城,颗粒物(PM10),54,58,35,34,19,69,,76,68,10,9,2,2,0.8,0.6
2025-07-08T1000,3696A,116.2545,39.8768,北京市,丰台小屯,,38,38,36,19,17,71,,61,60,17,12,1,3,0.4,0.4
2025-07-08T1000,3697A,116.84,40.3844,北京市,密云镇,,46,46,34,24,19,84,,83,74,11,11,4,5,0.5,0.5
2025-07-08T1000,4182A,116.1942,39.9158,北京市,八角北路9号,,36,36,38,13,18,113,,81,79,15,17,2,4,0,0.2
2025-07-08T1000,4194A,117.0790,40.1518,北京市,洳河巡河路,,36,36,40,24,22,115,,87,87,4,7,4,4,0.6,0.5
2025-07-08T1000,1761A,123.8275,41.3064,本溪市,大峪,,,29,34,15,12,78,,22,22,,18,,5,0.6,0.6
2025-07-08T1000,1762A,123.7567,41.3325,本溪市,溪湖,,,37,37,16,15,,,24,24,6,13,7,4,1.1,1
2025-07-08T1000,1763A,123.7169,41.3094,本溪市,彩屯,,32,32,39,17,20,73,,24,24,15,25,7,8,1.1,1.1
2025-07-08T1000,1764A,123.7669,41.2864,本溪市,东明,,44,44,37,14,14,75,,27,27,7,19,4,5,0.6,0.8
2025-07-08T1000,1765A,123.7992,41.2664,本溪市,新立屯,,31,31,27,14,11,88,,30,30,5,19,3,4,0.6,0.7
2025-07-08T1000,1766A,123.8142,41.3472,本溪市,威宁,,46,46,41,19,18,83,,23,23,12,18,8,6,0.9,0.6
2025-07-08T1000,2587A,105.2864,27.3125,毕节市,八中,,,30,22,18,16,,,35,35,6,11,6,5,,0.3
2025-07-08T1000,2588A,105.31,27.2944,毕节市,师专,,26,26,26,16,15,60,,37,37,8,16,4,4,0.6,0.6
2025-07-08T1000,4263A,105.3688,27.3598,毕节市,工业大道,,26,25,22,18,16,64,,28,28,10,19,6,6,0.6,0.6
2025-07-08T1000,1629A,118.0018,37.3617,滨州市,第二水厂,,42,39,30,29,21,90,,75,75,8,9,4,4,0.4,0.4
2025-07-08T1000,1630A,117.9776,37.393,滨州市,北中新校,,36,36,34,22,20,88,,72,72,9,8,5,5,0.3,0.4
2025-07-08T1000,3514A,117.9378,37.3956,滨州市,中海酒店,,29,29,25,19,21,87,,74,74,5,6,8,6,0.7,0.7
2025-07-08T1000,3515A,117.9378,37.3553,滨州市,开发区一中,,,31,30,27,21,100,,84,84,,11,12,10,0.5,0.5
2025-07-08T1000,3516A,118.0917,37.694,滨州市,金海六路,,35,34,23,24,13,79,,86,86,5,6,8,8,0.3,0.2
2025-07-08T1000,4028A,117.9956,37.3753,滨州市,滨州市西街道办事处,,32,31,26,22,19,97,,80,80,7,7,2,2,0.3,0.3
2025-07-08T1000,2311A,115.8072,33.8399,亳州市,污水处理厂,,30,23,22,13,15,95,,74,73,9,8,3,4,0.5,0.3
2025-07-08T1000,2312A,115.7789,33.8518,亳州市,三国揽胜宫,颗粒物(PM10),51,51,35,22,21,89,,77,76,11,10,4,5,0.6,0.5
2025-07-08T1000,3332A,115.7633,33.8034,亳州市,亳州学院,,30,28,22,17,14,94,,79,76,11,8,6,5,0.4,0.4
2025-07-08T1000,2693A,82.0485,44.8556,博尔塔拉蒙古自治州,市党校,,34,34,26,10,20,49,,53,49,11,11,4,3,0.2,0.1
2025-07-08T1000,2694A,82.0806,44.8969,博尔塔拉蒙古自治州,市环保局,,32,32,30,12,11,54,,65,56,10,7,2,1,0.3,0.2
2025-07-08T1000,1071A,116.8842,38.2991,沧州市,沧县城建局,,,37,30,12,18,82,,67,67,14,12,,2,,0.5
2025-07-08T1000,1072A,116.8584,38.3254,沧州市,电视转播站,,30,30,34,19,16,82,,62,62,12,12,3,3,0.1,0.1
2025-07-08T1000,1073A,116.8709,38.3228,沧州市,市环保局,,38,38,41,13,15,76,,57,57,11,11,3,2,0.3,0.4
2025-07-08T1000,3324A,116.8136,38.3004,沧州市,河北水利电力学院,,33,27,22,21,15,103,,81,81,11,10,3,2,0.2,0.3
2025-07-08T1000,2622A,97.1806,31.1273,昌都市,昌都监测站,,23,,17,10,10,71,,85,76,6,5,6,6,0.3,0.3
2025-07-08T1000,3719A,97.1714,31.1406,昌都市,昌都会议中心,,26,18,16,11,12,81,,93,84,8,4,6,6,0.1,0.2
2025-07-08T1000,2690A,88.1236,43.8886,昌吉回族自治州,天山天池,,27,10,13,3,3,85,,72,72,6,6,5,5,0.6,0.6
2025-07-08T1000,2692A,87.2717,44.0297,昌吉回族自治州,新区政务中心,,35,10,22,3,5,110,,112,112,6,10,3,3,0.3,0.3
2025-07-08T1000,3613A,87.3095,44.0142,昌吉回族自治州,亚心广场,,29,29,28,3,13,90,,100,100,17,12,6,6,0.3,0.2
2025-07-08T1000,1120A,125.2863,43.9027,长春市,客车厂,,42,29,36,14,18,132,,85,85,13,42,4,7,0.3,0.4
2025-07-08T1000,1121A,125.2841,43.8463,长春市,邮电学院,,,27,24,10,10,,,83,83,13,17,3,4,,0.4
2025-07-08T1000,1122A,125.3716,43.8772,长春市,劳动公园,,42,42,42,13,18,132,,83,83,12,29,7,10,0.4,0.6
2025-07-08T1000,1123A,125.3297,43.8805,长春市,园林处,,,44,33,19,11,,,68,68,10,25,5,8,0.3,0.4
2025-07-08T1000,1124A,125.4605,43.79,长春市,净月潭,,32,16,23,12,12,101,,66,66,11,10,6,7,0.3,0.4
2025-07-08T1000,1125A,125.7194,43.515,长春市,甩湾子,,35,22,17,6,8,110,,31,31,10,24,2,1,0.8,0.7
2025-07-08T1000,1126A,125.3863,43.8447,长春市,经开区环卫处,,37,32,30,9,10,117,,66,66,10,21,6,7,0.3,0.4
2025-07-08T1000,1127A,125.245,43.7783,长春市,高新区管委会,,35,33,38,9,14,112,,63,63,16,25,4,4,0.3,0.4
2025-07-08T1000,1128A,125.1761,43.8325,长春市,岱山公园,,38,23,31,13,14,119,,76,76,14,37,4,7,0.3,0.4
2025-07-08T1000,4281A,125.3346,43.9164,长春市,北亚泰大街1068号,,39,31,42,12,20,124,,71,71,18,33,3,7,0.5,0.5
2025-07-08T1000,1335A,113.0833,28.2325,长沙市,经开区环保局,细颗粒物(PM2.5),55,55,45,39,32,95,,35,35,13,18,3,3,0.6,0.5
2025-07-08T1000,1336A,112.8872,28.2189,长沙市,高开区环保局,细颗粒物(PM2.5),62,67,58,44,30,118,,43,43,11,19,4,5,1.0,0.7
2025-07-08T1000,1337A,113.0792,28.2053,长沙市,马坡岭,,50,49,51,35,31,99,,36,36,6,18,4,4,0.7,0.6
2025-07-08T1000,1338A,112.9394,28.19,长沙市,湖南师范大学,颗粒物(PM10),59,68,52,40,34,126,,46,46,11,16,8,3,0.4,0.4
2025-07-08T1000,1339A,113.0178,28.1322,长沙市,雨花区环保局,,,59,50,36,29,116,,47,47,,17,,5,0.8,0.7
2025-07-08T1000,1340A,112.9792,28.2597,长沙市,伍家岭,细颗粒物(PM2.5),59,64,46,42,23,119,,43,43,14,14,2,2,0.7,0.5
2025-07-08T1000,1341A,113.0014,28.1944,长沙市,火车新站,颗粒物(PM10),56,62,54,39,32,101,,53,53,12,19,6,6,0.7,0.6
2025-07-08T1000,1342A,112.9844,28.1178,长沙市,天心区环保局,"颗粒物(PM10),细颗粒物(PM2.5)",53,55,55,37,35,122,,62,62,10,19,1,1,0.8,0.6
2025-07-08T1000,1343A,112.8908,28.1308,长沙市,湖南中医药大学,细颗粒物(PM2.5),67,56,55,48,36,122,,36,36,9,22,2,2,0.9,0.7
2025-07-08T1000,1344A,112.9581,28.3611,长沙市,沙坪,,,44,46,28,28,,,44,44,14,10,,4,0.6,0.5
2025-07-08T1000,1727A,113.1147,36.1547,长治市,清华站,,32,32,28,22,17,85,,86,81,7,9,6,6,0.8,0.9
2025-07-08T1000,1730A,113.0886,36.2125,长治市,审计局,,36,36,28,24,17,96,,97,93,10,9,8,8,0.8,0.8
2025-07-08T1000,1731A,113.0844,36.1856,长治市,长治八中,,49,,30,34,25,100,,85,82,7,8,5,5,0.8,0.7
2025-07-08T1000,2845A,113.1569,36.1911,长治市,德盛苑,,,41,28,,15,91,,71,71,9,8,3,3,0.8,0.8
2025-07-08T1000,3568A,113.06,36.0464,长治市,向阳小学,颗粒物(PM10),69,87,52,25,17,66,,63,59,18,7,6,4,1.4,0.8
2025-07-08T1000,3569A,112.8792,36.3144,长治市,屯留一中,,,,,,,,,,,,,,,,
2025-07-08T1000,4189A,113.1131,36.19948,长治市,英华南巷50号,,37,37,30,24,20,97,,82,81,10,10,4,4,0.8,0.8
2025-07-08T1000,4190A,113.2367,36.3344,长治市,学府街1号,细颗粒物(PM2.5),63,,34,45,31,87,,76,72,13,16,4,4,0.9,0.7
2025-07-08T1000,1854A,111.6975,28.9703,常德市,市二中,细颗粒物(PM2.5),54,43,36,38,26,79,,26,26,12,11,3,3,1.0,0.8
2025-07-08T1000,1857A,111.7158,29.1456,常德市,白鹤山,,,,,,,,,,,,,,,,
2025-07-08T1000,3138A,111.7153,29.0289,常德市,武陵区永安,,,54,43,34,32,86,,27,27,13,10,,2,0.5,0.4
2025-07-08T1000,3139A,111.6892,28.9881,常德市,鼎城区玉霞,,43,43,37,29,26,86,,29,29,7,8,8,4,0.7,0.6
2025-07-08T1000,3140A,111.6625,29.0531,常德市,武陵区长庚,,42,39,43,29,30,86,,30,30,8,12,10,7,0.6,0.6
2025-07-08T1000,1196A,119.9633,31.762,常州市,市监测站,,21,21,15,7,8,52,,23,23,8,16,6,7,0.3,0.4
2025-07-08T1000,1200A,119.9468,31.7069,常州市,武进监测站,,16,15,21,3,5,50,,22,22,7,12,5,5,0.6,0.6
2025-07-08T1000,1201A,119.9255,31.9087,常州市,安家,,22,22,26,6,8,37,,23,23,16,20,8,8,0.5,0.6
2025-07-08T1000,3002A,119.9805,31.8174,常州市,行政中心,,15,14,26,10,8,44,,21,21,8,15,5,7,0.4,0.3
2025-07-08T1000,3003A,120.0522,31.7748,常州市,经开区,,25,25,25,3,6,52,,24,24,6,16,4,4,0.2,0.3
2025-07-08T1000,3010A,119.9025,31.7964,常州市,钟楼,,26,26,20,3,5,45,,21,21,9,13,6,6,0.2,0.2
2025-07-08T1000,3429A,119.8598,31.7066,常州市,武进经发区,,22,22,19,8,7,46,,19,19,6,11,5,6,0.8,0.8
2025-07-08T1000,3430A,119.5826,31.7245,常州市,金坛城区,,,14,14,11,7,,,18,18,13,14,6,6,0.3,0.2
2025-07-08T1000,2220A,120.4318,41.5881,朝阳市,西梁,,45,45,34,20,18,117,,59,59,24,22,17,11,1.3,0.7
2025-07-08T1000,2221A,120.4521,41.5646,朝阳市,河畔小区,,42,42,26,16,12,127,,73,73,12,15,10,11,0.6,0.4
2025-07-08T1000,2222A,120.4176,41.5648,朝阳市,八里堡,颗粒物(PM10),57,63,37,18,17,121,,64,64,25,21,17,11,1.1,0.6
2025-07-08T1000,2223A,120.3806,41.5969,朝阳市,农业园区,,,44,28,21,16,123,,55,55,,21,9,6,0.8,0.4
2025-07-08T1000,1705A,116.6367,23.6719,潮州市,西园路,颗粒物(PM10),58,65,46,35,32,97,,48,48,12,15,6,6,0.6,0.5
2025-07-08T1000,3026A,116.6183,23.6608,潮州市,市政府,颗粒物(PM10),66,82,57,31,28,108,,76,76,11,16,3,7,0.8,0.7
2025-07-08T1000,4036A,116.6461,23.6761,潮州市,金山,颗粒物(PM10),65,79,48,30,28,102,,39,39,7,14,4,7,0.8,0.8
2025-07-08T1000,2472A,113.0073,25.9061,郴州市,马头岭,,32,32,30,16,12,60,,22,22,11,12,8,8,0.6,0.5
2025-07-08T1000,2473A,113.0116,25.8226,郴州市,市职中,,30,30,30,18,22,79,,25,25,10,10,5,6,0.6,0.6
2025-07-08T1000,2475A,113.0383,25.8071,郴州市,市审计局,,26,24,29,16,19,83,,38,38,8,10,4,21,0.5,0.5
2025-07-08T1000,2476A,113.0348,25.7759,郴州市,市环保局,,,32,31,23,23,,,28,27,12,13,6,17,0.3,0.3
2025-07-08T1000,4252A,113.0138,25.8011,郴州市,好美居路49号,,46,46,30,28,21,89,,34,34,8,10,6,9,0.6,0.6
2025-07-08T1000,1431A,103.9728,30.7236,成都市,金泉两河,,,19,21,6,10,48,,32,32,,19,3,2,0.4,0.5
2025-07-08T1000,1432A,104.176,30.6872,成都市,十里店,,25,25,28,3,13,52,,31,31,10,16,4,4,0.4,0.5
2025-07-08T1000,1433A,104.079,30.5706,成都市,三瓦窑,,29,29,23,15,16,51,,29,29,16,22,4,3,0.4,0.3
2025-07-08T1000,1434A,104.1114,30.63,成都市,沙河铺,,30,30,25,13,11,44,,29,29,13,15,5,5,0.2,0.2
2025-07-08T1000,1437A,104.0786,30.6531,成都市,君平街,,26,26,26,15,14,60,,48,48,14,14,4,4,0.7,0.7
2025-07-08T1000,1438A,103.613,31.0283,成都市,灵岩寺,,,,,,,,,,,,,,,,
2025-07-08T1000,2880A,104.0239,30.65639,成都市,大石西路,,32,32,27,16,15,42,,36,34,21,15,4,3,0.8,0.8
2025-07-08T1000,3136A,104.2725,30.5589,成都市,龙泉驿区区政府,,22,7,11,3,8,70,,43,43,8,7,4,3,0.9,0.9
2025-07-08T1000,3357A,104.0106,30.6931,成都市,金博路,,15,15,16,3,10,40,,22,22,22,18,4,3,0.7,0.7
2025-07-08T1000,3359A,104.0578,30.5225,成都市,华阳,,29,29,19,19,16,46,,30,30,16,17,4,4,0.6,0.6
2025-07-08T1000,3488A,104.3853,30.7453,成都市,青白江技师分院,,20,13,22,9,12,63,,21,21,10,20,4,4,0.4,0.4
2025-07-08T1000,3489A,104.0789,30.4072,成都市,科学城,,26,25,26,18,20,49,,34,33,10,12,3,3,0.4,0.4
2025-07-08T1000,4011A,103.8506,30.6947,成都市,光华大道三段,,25,25,28,14,17,54,,41,41,15,18,4,4,0.8,0.8
2025-07-08T1000,4224A,104.2433,30.5353,成都市,鲸龙路1057号,,24,9,25,6,18,75,,34,34,7,16,7,6,0.5,0.6
2025-07-08T1000,1062A,117.9531,40.9081,承德市,铁路,,35,27,26,14,12,111,,71,71,14,16,6,4,0.6,0.6
2025-07-08T1000,1063A,117.9392,40.9763,承德市,中国银行,,38,30,29,9,16,120,,73,73,7,7,4,2,0.6,0.5
2025-07-08T1000,1064A,117.9503,40.928,承德市,开发区,,43,43,35,18,16,113,,81,80,17,12,10,8,0.6,0.5
2025-07-08T1000,1065A,117.8051,40.9655,承德市,文化中心,,38,28,31,14,12,120,,74,74,6,11,4,4,0.5,0.5
2025-07-08T1000,1066A,117.9268,41.0026,承德市,离宫,,37,14,22,14,19,118,,70,70,8,8,5,3,0.6,0.5
2025-07-08T1000,2314A,117.47,30.6618,池州市,池州学院,,32,28,30,11,16,102,,68,68,9,10,6,7,0.5,0.5
2025-07-08T1000,3237A,117.4918,30.6617,池州市,展览馆,,32,22,28,9,16,101,,69,69,7,9,4,4,0.6,0.7
2025-07-08T1000,3333A,117.5627,30.695,池州市,第八中学,,33,25,26,13,15,104,,66,66,7,9,5,5,0.4,0.5
2025-07-08T1000,3334A,117.5038,30.6243,池州市,第十二中学,,,22,28,8,15,,,62,55,6,9,,4,0.7,0.8
2025-07-08T1000,1744A,118.9233,42.2816,赤峰市,松山一中,,35,35,25,24,12,110,,77,77,17,19,15,12,0.7,0.7
2025-07-08T1000,1745A,118.9576,42.2728,赤峰市,哈达街,,36,36,27,10,11,105,,88,87,18,18,11,12,0.7,0.6
2025-07-08T1000,1746A,118.8788,42.2554,赤峰市,天义路,,35,29,22,24,17,108,,81,81,13,13,12,12,0.7,0.5
2025-07-08T1000,3058A,119.2658,42.0353,赤峰市,银河街,颗粒物(PM10),52,54,36,16,18,115,,96,95,18,14,19,18,0.7,0.6
2025-07-08T1000,3286A,118.9359,42.3147,赤峰市,桥北物流园区,,42,42,31,29,21,122,,79,79,9,11,22,23,0.9,0.8
2025-07-08T1000,2521A,107.3476,22.4136,崇左市,市环保局江州分局,,38,38,24,16,15,49,,19,19,16,11,10,6,0.5,0.4
2025-07-08T1000,4256A,107.3750,22.3736,崇左市,石景林东路7号,,45,45,19,10,12,74,,29,29,10,12,7,4,0.5,0.4
2025-07-08T1000,2298A,118.3093,32.3153,滁州市,老年大学,,38,38,35,13,20,73,,46,41,23,12,2,6,0.6,0.2
2025-07-08T1000,2299A,118.3244,32.2786,滁州市,人大宾馆,,24,20,23,12,11,74,,48,44,24,15,12,6,0.5,0.2
2025-07-08T1000,3207A,118.3118,32.3038,滁州市,市政府原办公楼,,34,34,33,19,21,73,,46,41,21,11,12,7,0.8,0.4
2025-07-08T1000,3331A,118.3267,32.2634,滁州市,图书馆,,25,25,22,10,16,70,,45,41,20,10,8,8,0.6,0.4
2025-07-08T1000,2605A,101.5482,25.0441,楚雄彝族自治州,州环境监测站,,,,9,,7,,,12,12,6,8,7,7,0.4,0.4
2025-07-08T1000,2606A,101.538,25.0492,楚雄彝族自治州,市经济开发区,,9,,15,6,8,20,,7,7,6,8,6,6,0.7,0.6
2025-07-08T1000,2548A,107.5277,31.2827,达州市,达州职业技术学院,,12,8,17,3,2,36,,37,37,21,12,6,7,0.5,0.5
2025-07-08T1000,2549A,107.5086,31.2186,达州市,市环境监测站,,,16,15,,1,41,,47,47,26,16,5,6,0.4,0.3
2025-07-08T1000,2550A,107.4988,31.2132,达州市,凤凰小区,,15,6,12,3,2,48,,49,49,17,13,4,6,0.3,0.2
2025-07-08T1000,2551A,107.5082,31.1986,达州市,达县机关宾馆,,14,,10,3,5,43,,42,42,22,19,6,7,0.3,0.2
2025-07-08T1000,2552A,107.4644,31.2124,达州市,市政中心,,13,6,18,3,1,40,,46,46,24,12,3,4,0.5,0.4
2025-07-08T1000,2614A,100.1542,25.7054,大理白族自治州,大理市环境监测站,,22,,5,15,12,31,,29,29,5,6,4,5,0.5,0.5
2025-07-08T1000,2615A,100.2171,25.5811,大理白族自治州,大理古城,,11,11,11,3,8,27,,22,22,6,7,4,4,0.7,0.7
2025-07-08T1000,1109A,121.612,38.9741,大连市,甘井子,,27,16,20,16,14,84,,92,88,14,12,10,9,0.5,0.5
2025-07-08T1000,1110A,121.565,38.9511,大连市,周水子,,30,,21,21,17,75,,86,81,11,9,8,9,0.3,0.3
2025-07-08T1000,1111A,121.5637,38.8845,大连市,星海三站,,,19,21,18,15,,,86,85,5,2,4,4,0.3,0.4
2025-07-08T1000,1112A,121.6302,38.9117,大连市,青泥洼桥,,24,19,22,16,17,75,,92,89,15,11,5,5,0.4,0.4
2025-07-08T1000,1113A,121.6251,38.8638,大连市,傅家庄,,23,13,16,12,15,71,,84,82,7,5,10,10,0.1,0.2
2025-07-08T1000,1114A,121.5213,38.8661,大连市,七贤岭,,25,20,19,16,16,80,,95,92,7,3,9,9,0.4,0.4
2025-07-08T1000,1115A,121.2529,38.8061,大连市,旅顺,,29,,21,20,16,68,,78,73,9,6,4,4,0.3,0.4
2025-07-08T1000,1116A,121.7485,39.1311,大连市,金州,,28,16,14,16,11,88,,94,92,7,7,6,6,0.3,0.3
2025-07-08T1000,1117A,121.7811,39.0496,大连市,开发区,,30,,20,21,15,70,,87,84,16,11,7,7,0.4,0.3
2025-07-08T1000,1118A,121.9762,39.0631,大连市,双D港,,29,29,15,17,16,74,,79,77,5,3,10,10,0.6,0.7
2025-07-08T1000,1789A,124.81117,46.03138,大庆市,大同区,,44,44,26,9,8,109,,74,74,10,11,6,6,0.3,0.3
2025-07-08T1000,1790A,125.129,46.533,大庆市,龙凤区,,36,,22,25,12,80,,64,64,8,10,5,5,0.2,0.2
2025-07-08T1000,1791A,124.902,46.408,大庆市,红岗区,,30,23,20,11,17,95,,76,76,5,7,10,10,0.5,0.4
2025-07-08T1000,1792A,125.153,46.586,大庆市,萨尔图区,,23,17,21,3,6,73,,62,62,10,9,10,10,0.3,0.3
2025-07-08T1000,1793A,124.9042,46.6215,大庆市,让胡路区,,37,37,26,13,15,86,,74,74,11,12,7,6,0.3,0.3
2025-07-08T1000,3481A,125.141,46.634,大庆市,萨区政府监测点,,29,22,20,3,2,91,,80,80,7,6,6,6,0.1,0.2
2025-07-08T1000,1721A,113.3819,40.1097,大同市,果树场,,,,,,,,,,,,,,,,
2025-07-08T1000,1723A,113.2994,40.0758,大同市,云冈宾馆,,39,18,17,3,9,124,,95,95,12,12,7,6,0.4,0.3
2025-07-08T1000,1724A,113.3444,40.0917,大同市,大同大学,,,14,14,13,9,130,,96,96,7,12,,,0.3,0.3
2025-07-08T1000,1725A,113.2661,40.1269,大同市,安家小村,,42,24,15,7,4,134,,101,101,9,12,6,6,0.6,0.7
2025-07-08T1000,1726A,113.2711,40.0844,大同市,教育学院,,,26,18,14,10,,,80,80,10,16,8,7,0.4,0.4
2025-07-08T1000,3282A,113.3397,40.0597,大同市,大同市卫生学校,,38,12,16,10,10,119,,88,88,11,12,8,7,0.7,0.7
2025-07-08T1000,3565A,113.1367,40.1122,大同市,云冈站,,37,30,20,6,9,116,,49,49,13,14,4,3,0.7,0.6
2025-07-08T1000,3566A,113.1186,40.2556,大同市,图书馆,,38,20,16,7,7,120,,61,61,9,9,8,7,0.7,0.8
2025-07-08T1000,3567A,113.5931,40.0461,大同市,区一中,,39,23,14,12,11,124,,98,98,7,6,11,10,0.4,0.4
2025-07-08T1000,4199A,113.2798,40.0997,大同市,魏都大道141号,,,,11,13,10,129,,91,91,9,14,7,6,0.6,0.6
2025-07-08T1000,2269A,124.1069,50.4097,大兴安岭地区,科技局,,20,20,17,8,11,33,,23,23,4,4,3,4,0.2,0.2
2025-07-08T1000,3663A,124.1164,50.4278,大兴安岭地区,红旗社区,,14,14,10,7,5,36,,17,17,11,8,6,6,0.2,0.2
2025-07-08T1000,1600A,124.3303,40.0625,丹东市,江湾东路,,42,35,24,29,20,63,,58,55,12,9,6,7,0.9,0.7
2025-07-08T1000,1601A,124.4256,40.1503,丹东市,临江后街,,50,50,34,26,18,53,,42,38,14,9,8,6,0.7,0.8
2025-07-08T1000,1602A,124.3933,40.1461,丹东市,元宝山,,,41,26,24,18,32,,35,29,,9,,3,0.7,0.6
2025-07-08T1000,1603A,124.3633,40.1092,丹东市,民主桥,,40,40,27,23,16,52,,47,41,17,10,3,3,0.6,0.5
2025-07-08T1000,3541A,109.5726,19.5167,儋州市,第一中学子站,,16,16,14,11,7,38,,27,27,2,3,6,8,0.5,0.5
2025-07-08T1000,3542A,109.5567,19.5187,儋州市,东坡学校子站,,12,7,9,6,5,37,,26,26,2,2,7,7,0.5,0.6
2025-07-08T1000,2616A,98.5842,24.428,德宏傣族景颇族自治州,德宏州监测站,,17,17,14,7,7,21,,24,24,10,7,8,7,0.6,0.6
2025-07-08T1000,3677A,98.5881,24.4368,德宏傣族景颇族自治州,芒市人民政府综合楼,,28,28,22,13,6,24,,23,23,8,6,9,6,0.6,0.4
2025-07-08T1000,1901A,104.4239,31.1208,德阳市,东山公园,,21,8,7,7,9,65,,43,43,4,4,5,5,0.7,0.7
2025-07-08T1000,1902A,104.3826,31.1317,德阳市,西小区,,20,18,16,9,11,64,,46,46,10,11,6,6,0.7,0.7
2025-07-08T1000,1904A,104.3553,31.1091,德阳市,耐火材料厂,,,23,17,11,12,,,35,34,8,11,1,1,0.4,0.4
2025-07-08T1000,3639A,104.4019,31.1244,德阳市,市教育局,,20,18,12,11,9,62,,45,45,5,5,7,6,0.7,0.6
2025-07-08T1000,1622A,116.3032,37.4674,德州市,儿童乐园,,36,34,29,19,15,114,,80,80,7,9,9,8,0.6,0.6
2025-07-08T1000,1624A,116.2991,37.4451,德州市,监理站,,40,24,20,14,11,125,,96,96,7,9,12,11,0.4,0.4
2025-07-08T1000,3066A,116.2721,37.4379,德州市,九衢泉纯净水厂,,,,30,,17,,,79,78,,13,,6,,0.8
2025-07-08T1000,3371A,116.3728,37.4403,德州市,开发区人民医院,,33,24,24,12,13,103,,72,72,11,14,9,7,0.6,0.6
2025-07-08T1000,3511A,116.5652,37.3319,德州市,陵城艺术中心,,33,31,28,12,12,105,,73,73,10,13,9,7,0.3,0.4
2025-07-08T1000,4292A,116.3525,37.4209,德州市,新河东路,,38,34,25,12,13,121,,86,86,11,13,10,8,0.6,0.6
2025-07-08T1000,2621A,99.7056,27.8317,迪庆藏族自治州,迪庆州站,,20,20,16,11,12,34,,23,23,7,7,8,8,0.4,0.4
2025-07-08T1000,3180A,99.7136,27.8094,迪庆藏族自治州,质量技术监督局,,,14,14,6,8,36,,25,25,,9,6,6,,0.4
2025-07-08T1000,4257A,104.6092,35.5962,定西市,将台街,,34,34,29,10,10,89,,77,77,2,4,8,8,0.0,0
2025-07-08T1000,4309A,104.6159,35.5701,定西市,正龙路62号,,27,23,17,9,11,86,,72,72,2,2,4,4,0.2,0.2
2025-07-08T1000,1389A,113.7547,23.0494,东莞市,莞城梨川,,25,,30,12,23,79,,62,62,13,15,6,6,0.5,0.6
2025-07-08T1000,1390A,113.7944,23.0128,东莞市,东城石井,,24,19,35,9,21,74,,44,44,13,21,3,4,0.6,0.6
2025-07-08T1000,1391A,113.7383,22.9658,东莞市,南城西平,,26,19,30,9,18,81,,57,57,12,15,1,1,0.5,0.6
2025-07-08T1000,3319A,113.7338,23.0381,东莞市,万江金泰,,,17,35,8,23,72,,51,51,,16,4,4,0.4,0.5
2025-07-08T1000,3626A,113.7533,23.0202,东莞市,南城元岭,,,22,33,10,19,73,,53,53,,18,,5,0.5,0.6
2025-07-08T1000,3627A,113.7875,23.0457,东莞市,东城主山,,39,39,49,10,22,65,,57,57,20,20,4,5,0.5,0.6
2025-07-08T1000,1666A,118.6614,37.4309,东营市,市环保局,,,22,26,17,14,,,103,99,,14,,7,0.3,0.3
2025-07-08T1000,3036A,118.6904,37.4338,东营市,开发区管委会,,,30,29,7,11,,,87,79,8,11,,4,0.2,0.3
2025-07-08T1000,3365A,118.5719,37.565,东营市,垦利区民丰路,,39,39,26,19,12,109,,92,91,8,8,6,4,0.4,0.5
2025-07-08T1000,3498A,118.5055,37.8612,东营市,河口城区,,27,27,23,15,10,83,,100,94,12,13,8,7,0.3,0.7
2025-07-08T1000,3646A,118.4978,37.4623,东营市,胜利站,,30,29,31,14,12,94,,93,90,17,17,4,3,0.6,0.7
2025-07-08T1000,3734A,118.35,37.26,东营市,理想之城,,30,24,24,19,16,94,,82,82,14,18,9,7,0.2,0.3
2025-07-08T1000,1591A,110.0023,39.8129,鄂尔多斯市,综合楼,颗粒物(PM10),54,58,30,24,14,91,,62,62,17,18,15,8,0.8,0.7
2025-07-08T1000,1592A,109.9486,39.8261,鄂尔多斯市,巴音孟克林场办事处,,,53,33,24,16,95,,71,71,16,17,8,5,,0.6
2025-07-08T1000,1593A,109.7736,39.5986,鄂尔多斯市,康泽苑,,44,44,39,14,11,90,,34,34,13,16,8,7,0.5,0.4
2025-07-08T1000,1594A,109.8119,39.5989,鄂尔多斯市,华泰汽车城,,41,41,36,19,15,74,,24,24,14,17,8,6,0.7,0.6
2025-07-08T1000,1595A,109.9734,39.7884,鄂尔多斯市,奥林花园,,48,48,36,24,21,84,,46,46,19,20,9,6,0.9,0.8
2025-07-08T1000,2436A,114.8938,30.3994,鄂州市,市政府,颗粒物(PM10),52,54,40,21,22,94,,38,38,22,27,11,7,0.7,0.7
2025-07-08T1000,2437A,114.8989,30.3714,鄂州市,赵家坝,,46,46,39,18,18,127,,54,54,11,12,14,14,0.7,0.8
2025-07-08T1000,3654A,114.8094,30.4089,鄂州市,精准医疗中心,,47,47,35,19,17,124,,56,56,19,19,5,6,1.4,0.9
2025-07-08T1000,2454A,109.4978,30.2981,恩施土家族苗族自治州,湖北民院,,25,24,29,17,13,24,,21,18,12,5,4,4,0.5,0.3
2025-07-08T1000,2455A,109.4707,30.2798,恩施土家族苗族自治州,州电力总公司,,36,35,24,25,14,14,,8,8,20,12,7,8,0.1,0.1
2025-07-08T1000,3549A,109.5061,30.3772,恩施土家族苗族自治州,龙凤新区,,21,21,23,3,12,17,,4,4,10,9,2,1,0.4,0.4
2025-07-08T1000,2499A,108.3411,21.6158,防城港市,沙万,,12,7,13,3,7,37,,46,45,15,11,1,1,0.4,0.4
2025-07-08T1000,2500A,108.3514,21.7731,防城港市,防城档案局,,28,28,15,13,8,18,,32,29,18,8,4,4,0.7,0.6
2025-07-08T1000,2501A,108.3506,21.6414,防城港市,大海花园,,19,,15,13,7,47,,50,50,7,6,3,4,0.5,0.4
2025-07-08T1000,1371A,113.1294,23.0067,佛山市,湾梁,,22,22,31,13,19,69,,57,56,13,13,8,8,0.6,0.6
2025-07-08T1000,1372A,113.1083,23.0478,佛山市,华材职中,,29,29,35,12,19,71,,61,59,11,11,9,8,0.5,0.5
2025-07-08T1000,1373A,113.144,23.0453,佛山市,南海气象局,,19,12,30,12,20,60,,55,53,9,10,2,3,0.5,0.5
2025-07-08T1000,1374A,113.2881,22.8094,佛山市,顺德苏岗,,26,26,32,7,15,63,,57,55,7,10,6,6,0.5,0.5
2025-07-08T1000,1376A,112.8383,22.8678,佛山市,高明孔堂,,27,27,28,11,18,68,,58,55,7,9,7,7,1.2,0.9
2025-07-08T1000,1377A,112.8836,23.1588,佛山市,三水监测站,,25,24,33,17,24,73,,44,44,8,12,6,4,0.5,0.5
2025-07-08T1000,1378A,112.867,23.185,佛山市,三水云东海,,28,26,38,19,25,84,,52,52,20,21,8,4,0.6,0.6
2025-07-08T1000,3625A,113.2544,22.7642,佛山市,容桂街道办,,21,12,21,7,15,67,,58,56,9,12,6,6,0.4,0.5
2025-07-08T1000,1280A,119.3903,26.0543,福州市,鼓山,,,,,,,,,,,,,,,,
2025-07-08T1000,1282A,119.2681,26.0504,福州市,师大,,32,31,25,11,8,102,,47,47,8,9,4,4,0.3,0.3
2025-07-08T1000,1283A,119.2984,26.1028,福州市,五四北路,,32,21,26,12,9,100,,52,52,10,13,5,4,0.3,0.3
2025-07-08T1000,1284A,119.2648,26.0768,福州市,杨桥西路,,34,29,27,18,11,107,,49,49,8,13,6,4,0.3,0.3
2025-07-08T1000,1285A,119.317,26.0746,福州市,紫阳,,,40,29,15,12,98,,45,45,15,17,6,5,,0.4
2025-07-08T1000,3048A,119.5799,26.0936,福州市,九龙,,,,22,12,12,102,,39,39,,11,,4,0.3,0.3
2025-07-08T1000,3526A,119.5189,25.9664,福州市,吴航,,34,27,28,15,13,106,,46,46,10,11,6,5,0.6,0.5
2025-07-08T1000,1755A,123.7977,41.8491,抚顺市,望花区,颗粒物(PM10),57,64,38,24,14,115,,43,43,26,25,17,10,1.1,0.7
2025-07-08T1000,1756A,123.9161,41.8822,抚顺市,顺城区,,37,37,28,13,12,104,,44,44,20,27,5,5,0.9,0.6
2025-07-08T1000,1757A,124.0436,41.8611,抚顺市,东洲区,,,,18,14,10,,,33,31,13,13,5,4,0.6,0.5
2025-07-08T1000,1758A,123.9247,41.8642,抚顺市,新抚区,,45,45,33,13,13,96,,33,33,19,24,5,4,0.8,0.6
2025-07-08T1000,1759A,124.0972,41.8961,抚顺市,大伙房水库,,28,14,18,11,12,89,,38,38,10,18,5,6,0.6,0.5
2025-07-08T1000,1760A,123.7086,41.8391,抚顺市,沈抚新城,,49,49,37,19,19,106,,35,35,17,31,10,12,0.7,0.9
2025-07-08T1000,2376A,116.2127,28.0814,抚州市,桐源党溪,,48,48,38,28,23,96,,29,29,3,3,7,4,0.9,0.7
2025-07-08T1000,2377A,116.3544,27.9831,抚州市,市站,,36,36,33,21,20,86,,42,42,6,6,6,4,0.4,0.5
2025-07-08T1000,2378A,116.3565,27.963,抚州市,血防站,,34,34,35,20,22,82,,39,39,2,7,4,4,0.5,0.5
2025-07-08T1000,2379A,116.3564,28.0007,抚州市,采茶剧团,,35,35,35,23,20,82,,44,44,3,4,4,5,0.7,0.6
2025-07-08T1000,2380A,116.385,27.9647,抚州市,医学分院,,34,34,37,15,18,91,,40,40,2,4,4,5,0.8,0.7
2025-07-08T1000,2207A,121.6094,41.998,阜新市,工业园区,,,67,42,48,19,159,,32,32,,35,,7,0.8,0.7
2025-07-08T1000,2208A,121.6697,42.0279,阜新市,长青街,,46,46,39,29,20,142,,52,52,16,23,11,13,0.8,3.3
2025-07-08T1000,2209A,121.6673,42.0705,阜新市,农业园区,,,53,40,14,14,,,84,83,13,12,6,11,1.0,1.4
2025-07-08T1000,2210A,121.6717,42.0224,阜新市,东苑,,,,49,,19,,,103,,,31,,16,,2.5
2025-07-08T1000,2211A,121.6506,42.0498,阜新市,玉龙新城,,44,44,40,20,14,124,,40,40,13,32,8,7,0.9,1.4
2025-07-08T1000,2301A,115.8277,32.8929,阜阳市,市监测站,,47,47,43,25,25,92,,59,59,19,21,6,4,0.4,0.5
2025-07-08T1000,2303A,115.8554,32.8605,阜阳市,开发区,,,54,45,,32,101,,57,57,18,21,8,6,0.3,0.2
2025-07-08T1000,2875A,115.784,32.8892,阜阳市,阜阳职业技术学院,,38,38,39,19,19,101,,65,65,12,14,5,4,0.5,0.5
2025-07-08T1000,3468A,115.7901,32.8613,阜阳市,市规划展馆,颗粒物(PM10),61,72,45,19,31,98,,59,59,14,16,2,2,0.6,0.6
2025-07-08T1000,3469A,115.836,32.9183,阜阳市,枣园社区,,39,39,40,21,30,83,,58,58,18,19,2,2,0.5,0.5
2025-07-08T1000,2669A,102.9099,34.9841,甘南藏族自治州,州政府,,40,40,25,17,17,69,,67,58,19,12,7,7,0.5,0.3
2025-07-08T1000,3380A,102.8914,34.9617,甘南藏族自治州,甘肃民族师范学院,,32,32,39,18,13,84,,50,47,22,26,9,9,0.4,0.3
2025-07-08T1000,2570A,101.9603,30.0475,甘孜藏族自治州,水桥子,,22,22,11,10,6,15,,9,9,18,16,7,6,0.4,0.3
2025-07-08T1000,3065A,101.9533,29.9972,甘孜藏族自治州,州环保局,,27,27,19,10,6,41,,28,28,10,14,2,2,0.4,0.3
2025-07-08T1000,3414A,115.8347,28.932,赣江新区,桑海产业园,,42,39,33,26,20,132,,52,52,12,16,9,8,0.4,0.3
2025-07-08T1000,2362A,114.9017,25.9149,赣州市,通天岩,,32,32,29,8,7,80,,35,35,5,5,4,2,0.6,0.4
2025-07-08T1000,2363A,114.9367,25.8664,赣州市,地委,,35,35,41,22,26,84,,34,34,15,14,6,3,0.9,0.9
2025-07-08T1000,2364A,114.9461,25.8481,赣州市,气象台,,28,28,36,15,18,81,,29,29,21,15,10,9,0.5,0.4
2025-07-08T1000,2365A,114.9322,25.8333,赣州市,市图书馆,,31,31,32,18,21,80,,34,34,20,14,4,4,0.7,0.6
2025-07-08T1000,2366A,114.8905,25.8471,赣州市,华坚鞋城,,39,39,39,25,27,87,,29,29,14,13,7,5,0.4,0.4
2025-07-08T1000,3109A,115.0093,25.8613,赣州市,赣县区卫计委,,48,48,34,21,20,81,,31,31,16,15,3,2,0.4,0.4
2025-07-08T1000,2683A,106.2319,36.1417,固原市,马园,颗粒物(PM10),58,65,23,13,6,98,,57,57,7,14,7,8,0.5,0.5
2025-07-08T1000,2684A,106.2792,36.0022,固原市,监测站,,47,47,18,21,5,97,,71,71,8,7,4,4,0.2,0.2
2025-07-08T1000,2685A,106.2375,36.0211,固原市,新区,,43,43,17,9,6,93,,68,68,6,8,6,6,0.3,0.4
2025-07-08T1000,3522A,106.2177,35.9959,固原市,原州区十五小,,,48,14,22,8,83,,62,62,7,8,,7,0.2,0.3
2025-07-08T1000,2543A,106.6308,30.5278,广安市,小平旧居,,,,,,,,,,,,,,,,
2025-07-08T1000,2544A,106.6303,30.4576,广安市,市委,,,8,14,3,8,,,,,10,8,6,6,0.4,0.4
2025-07-08T1000,2545A,106.6271,30.4663,广安市,友谊中学,,18,,18,6,9,57,,56,55,8,8,1,2,0.7,0.6
2025-07-08T1000,2547A,106.6388,30.4551,广安市,广电花园,,17,7,18,3,9,54,,56,55,6,5,4,3,0.5,0.5
2025-07-08T1000,2902A,106.6351,30.4865,广安市,北辰小学,,20,7,10,3,8,62,,65,62,6,5,3,4,0.5,0.5
2025-07-08T1000,2523A,105.8945,32.4535,广元市,黑石坡,,32,32,18,3,8,30,,11,11,7,8,12,12,0.3,0.3
2025-07-08T1000,2524A,105.821,32.4444,广元市,老城,,14,10,19,7,9,42,,21,21,16,26,1,2,1.1,1.1
2025-07-08T1000,2526A,105.8628,32.4287,广元市,监测站,,13,13,18,3,6,41,,16,16,10,17,10,11,0.8,0.8
2025-07-08T1000,3617A,105.8047,32.4166,广元市,经开区,,31,31,24,14,17,30,,15,15,19,22,5,4,0.7,0.6
2025-07-08T1000,1345A,113.2347,23.1423,广州市,广雅中学,,29,29,36,14,20,70,,57,56,14,16,4,4,0.5,0.4
2025-07-08T1000,1346A,113.2612,23.105,广州市,市五中,,20,20,32,11,20,64,,48,48,10,14,3,3,0.6,0.7
2025-07-08T1000,1348A,113.3478,23.0916,广州市,广东商学院,,24,22,35,10,22,75,,54,54,12,17,9,5,0.5,0.5
2025-07-08T1000,1349A,113.4332,23.1047,广州市,市八十六中,,22,17,30,9,19,70,,43,42,13,24,4,3,0.3,0.4
2025-07-08T1000,1350A,113.3505,22.9483,广州市,番禺中学,,25,20,30,10,19,77,,62,60,10,12,8,9,0.4,0.5
2025-07-08T1000,1351A,113.2146,23.3916,广州市,花都师范,,43,43,40,26,22,99,,63,63,16,17,9,7,0.6,0.6
2025-07-08T1000,1352A,113.2597,23.1331,广州市,市监测站,,22,22,35,10,19,69,,53,52,12,14,6,6,0.4,0.5
2025-07-08T1000,1353A,113.5618,23.312,广州市,九龙镇镇龙,,24,24,41,12,24,66,,46,45,21,20,7,7,0.4,0.5
2025-07-08T1000,1354A,113.2765,23.1544,广州市,麓湖,,21,19,34,11,20,66,,47,47,11,13,4,4,0.6,0.6
2025-07-08T1000,1355A,113.443,23.3035,广州市,帽峰山森林公园,,27,14,31,8,21,85,,64,62,8,13,5,5,0.5,0.6
2025-07-08T1000,2846A,113.3221,23.1322,广州市,体育西,,23,21,37,12,21,73,,58,58,13,17,5,5,0.5,0.5
2025-07-08T1000,3298A,113.5717,23.5491,广州市,从化街口,,27,23,47,13,30,85,,48,48,18,22,8,8,0.6,0.7
2025-07-08T1000,3299A,113.3472,23.3692,广州市,白云竹料,,26,26,44,13,24,83,,61,61,13,18,4,4,0.4,0.4
2025-07-08T1000,3300A,113.2981,23.237,广州市,白云嘉禾,,26,22,43,14,25,82,,55,55,14,21,6,6,0.7,0.7
2025-07-08T1000,3301A,113.4256,23.1716,广州市,黄埔科学城,,22,22,36,12,22,64,,44,44,11,15,3,2,0.6,0.6
2025-07-08T1000,3302A,113.3942,23.0483,广州市,番禺大学城,,30,30,37,9,18,83,,65,64,11,14,7,7,0.5,0.5
2025-07-08T1000,3303A,113.4922,22.8168,广州市,南沙黄阁,,24,21,34,8,22,76,,54,54,5,10,6,6,0.3,0.4
2025-07-08T1000,3304A,113.5342,22.7896,广州市,南沙街,,27,18,32,9,17,85,,55,55,8,13,5,5,0.4,0.5
2025-07-08T1000,3443A,113.2902,23.5544,广州市,花都梯面,,31,28,37,17,24,98,,48,48,13,17,7,5,0.7,0.7
2025-07-08T1000,3445A,113.7858,23.7478,广州市,从化良口,,29,24,39,18,31,92,,64,62,7,8,8,7,0.7,0.7
2025-07-08T1000,3446A,113.8051,23.2614,广州市,增城荔城,,,16,41,10,27,74,,49,49,,16,7,7,0.5,0.5
2025-07-08T1000,2505A,109.568,23.1478,贵港市,德智高中,,,,,,,,,,,,,,,,
2025-07-08T1000,2506A,109.6047,23.0666,贵港市,江南子站,细颗粒物(PM2.5),62,,33,44,21,28,,24,21,17,11,12,9,0.7,0.5
2025-07-08T1000,2508A,109.5669,23.1065,贵港市,荷城子站,,36,36,20,14,11,28,,30,27,18,11,10,7,0.4,0.3
2025-07-08T1000,3405A,109.5886,23.1172,贵港市,新世纪学校,,,29,24,23,15,,,32,28,,11,5,4,0.5,0.4
2025-07-08T1000,4260A,109.5933,23.0951,贵港市,中山路155-3号,,46,46,31,18,16,28,,26,22,15,11,6,5,0.6,0.6
2025-07-08T1000,1439A,106.6899,26.5998,贵阳市,马鞍山,,,24,21,9,5,,,51,51,,7,,4,,0.2
2025-07-08T1000,1441A,106.6243,26.6266,贵阳市,鉴湖路,,31,31,27,14,10,55,,46,46,10,9,5,6,0.5,0.4
2025-07-08T1000,1442A,106.7487,26.6343,贵阳市,燕子冲,,42,29,25,29,21,77,,70,70,10,11,6,4,0.2,0.2
2025-07-08T1000,1443A,106.6555,26.4365,贵阳市,碧云窝,,36,36,31,14,14,75,,59,59,7,7,9,7,0.3,0.3
2025-07-08T1000,1445A,106.7109,26.6027,贵阳市,红边门,,36,36,25,17,12,64,,60,60,11,9,10,6,0.2,0.2
2025-07-08T1000,1446A,106.7164,26.5699,贵阳市,新华路,,34,34,25,19,16,69,,61,61,12,16,5,16,0.5,0.4
2025-07-08T1000,1447A,106.674,26.5424,贵阳市,太慈桥,,,29,23,14,11,,,52,52,15,15,7,6,,0.5
2025-07-08T1000,1552A,106.805,26.3003,贵阳市,桐木岭,,35,31,32,24,20,72,,79,79,6,7,3,2,1.0,1
2025-07-08T1000,4230A,106.6882,26.5695,贵阳市,花果园大街66号,,29,,14,20,20,64,,58,58,10,8,4,5,0.3,0.3
2025-07-08T1000,4231A,106.6873,26.5169,贵阳市,漓江路57号,,29,29,22,17,11,59,,48,48,9,10,6,6,0.3,0.3
2025-07-08T1000,1862A,110.4144,25.3167,桂林市,电子科大尧山校区,,,,,,,,,,,,,,,,
2025-07-08T1000,1864A,110.3089,25.2708,桂林市,龙隐路小学,,37,37,30,18,18,72,,53,52,8,7,10,10,0.6,0.6
2025-07-08T1000,1865A,110.2869,25.2178,桂林市,八中,,35,35,33,16,19,69,,51,49,9,9,7,8,0.5,0.5
2025-07-08T1000,3531A,110.296,25.1253,桂林市,旅游学院,,29,29,25,17,19,80,,48,48,7,8,13,6,0.4,0.4
2025-07-08T1000,4222A,110.1835,25.2444,桂林市,环湖路276号,,24,24,33,9,20,71,,48,47,6,10,5,5,0.3,0.4
2025-07-08T1000,4301A,110.2803,25.2773,桂林市,信义路13号,,35,35,37,11,15,74,,59,57,8,8,4,5,0.7,0.7
2025-07-08T1000,2674A,100.2561,34.4714,果洛藏族自治州,玛沁县大武镇,,,18,28,6,14,126,,54,54,1,4,,19,0.3,0.3
2025-07-08T1000,1129A,126.5422,45.755,哈尔滨市,岭北,颗粒物(PM10),55,60,16,15,7,96,,91,91,26,17,9,8,0.9,0.7
2025-07-08T1000,1130A,126.561,45.8167,哈尔滨市,松北商大,,28,28,20,3,3,64,,55,55,19,16,8,7,0.5,0.4
2025-07-08T1000,1131A,126.979,45.5419,哈尔滨市,阿城会宁,,22,17,23,3,10,70,,38,38,13,25,6,5,0.4,0.4
2025-07-08T1000,1132A,126.599,45.7222,哈尔滨市,南岗学府路,,28,28,28,6,6,84,,62,62,18,18,7,6,0.7,0.6
2025-07-08T1000,1133A,126.689,45.7733,哈尔滨市,太平宏伟公园,,34,34,29,12,9,72,,51,51,18,25,6,6,0.3,0.3
2025-07-08T1000,1134A,126.635,45.7667,哈尔滨市,道外承德广场,,26,26,32,7,11,71,,61,61,23,20,7,6,0.9,0.8
2025-07-08T1000,1135A,126.685,45.7319,哈尔滨市,香坊红旗大街,,41,41,29,3,8,81,,57,57,17,25,10,8,0.7,0.6
2025-07-08T1000,1136A,126.6411,45.7258,哈尔滨市,动力和平路,,,30,29,3,7,87,,70,70,16,17,,9,0.6,0.5
2025-07-08T1000,1137A,126.593,45.7478,哈尔滨市,道里建国路,,38,38,22,3,8,91,,75,75,23,20,7,7,1.1,0.8
2025-07-08T1000,1138A,126.615,45.61,哈尔滨市,平房东轻厂,,28,28,30,9,10,65,,60,60,32,28,10,8,0.5,0.5
2025-07-08T1000,1139A,126.595,45.9855,哈尔滨市,呼兰师专,,36,36,29,3,10,63,,43,43,17,33,10,8,0.5,0.5
2025-07-08T1000,1140A,126.6206,45.6842,哈尔滨市,省农科院,,,36,28,3,5,77,,62,62,17,19,10,7,,0.5
2025-07-08T1000,2688A,93.5128,42.8172,哈密市,地区监测站,颗粒物(PM10),78,106,48,54,20,92,,98,98,9,8,5,5,0.2,0.1
2025-07-08T1000,2689A,93.4961,42.8328,哈密市,哈密师范学校,颗粒物(PM10),69,88,42,31,14,81,,76,76,12,10,5,4,0.2,0.2
2025-07-08T1000,2671A,100.9048,36.9639,海北藏族自治州,海晏县西海镇,,44,41,37,27,20,139,,122,122,3,2,9,8,0.4,0.4
2025-07-08T1000,3867A,102.0738,36.5056,海东市,平安区公安北苑,,44,44,40,27,18,86,,88,88,8,8,12,14,0.5,0.7
2025-07-08T1000,1409A,110.576,19.9507,海口市,东寨港,,25,18,18,17,11,37,,16,16,4,5,7,7,0.4,0.4
2025-07-08T1000,1410A,110.3232,20.0574,海口市,海南大学,,18,,14,12,10,46,,30,30,6,9,3,3,0.3,0.4
2025-07-08T1000,1411A,110.283,20.0053,海口市,秀英海南医院,,32,32,21,18,10,46,,27,27,8,14,5,5,0.4,0.3
2025-07-08T1000,1412A,110.338,19.9969,海口市,海南师范大学,,26,26,19,10,9,44,,27,26,7,9,4,4,0.4,0.4
2025-07-08T1000,1413A,110.33,20.0356,海口市,龙华路环保局宿舍,,21,21,17,10,9,41,,29,29,10,10,5,5,0.4,0.3
2025-07-08T1000,3539A,110.5111,19.9736,海口市,桂林洋子站,,20,20,23,9,10,42,,17,17,6,10,4,4,0.2,0.3
2025-07-08T1000,2673A,100.6188,36.2866,海南藏族自治州,共和县恰卜恰镇,,50,50,47,20,19,118,,108,108,4,6,16,14,0.4,0.4
2025-07-08T1000,2676A,97.3731,37.3753,海西蒙古族藏族自治州,德令哈市,颗粒物(PM10),88,126,158,32,39,144,,149,145,9,3,12,13,0.8,0.7
2025-07-08T1000,1048A,114.5302,36.6116,邯郸市,东污水处理厂,,47,47,35,22,5,108,,78,78,9,12,6,4,0.4,0.4
2025-07-08T1000,1049A,114.4918,36.5713,邯郸市,矿院,,38,17,24,17,10,119,,92,92,8,9,5,5,0.4,0.5
2025-07-08T1000,1050A,114.484,36.6133,邯郸市,丛台公园,,36,30,31,17,11,115,,88,88,10,10,5,6,0.4,0.4
2025-07-08T1000,3458A,114.7895,36.5593,邯郸市,香泉濮院小区,,47,47,45,3,3,114,,78,78,5,8,2,3,0.3,0.4
2025-07-08T1000,3579A,114.50634,36.77178,邯郸市,永年区实验高中,,,69,42,23,20,,,82,78,13,14,,3,0.2,0.4
2025-07-08T1000,3580A,114.20016,36.44293,邯郸市,峰峰矿区临水派出所,,45,45,45,8,9,122,,86,86,6,10,3,3,0.4,0.6
2025-07-08T1000,2634A,106.9893,33.1842,汉中市,汉川机床厂子校,,14,8,16,6,7,42,,34,34,5,6,3,3,0.5,0.5
2025-07-08T1000,2635A,107.0154,33.0706,汉中市,市监测站,,15,7,13,3,7,47,,39,38,6,7,5,6,0.6,0.6
2025-07-08T1000,2636A,107.0089,33.1138,汉中市,鑫源开发区,,14,9,12,3,5,44,,44,42,6,7,5,5,0.4,0.4
2025-07-08T1000,2637A,107.007,33.0323,汉中市,南郑大河坎水厂,,15,11,14,3,7,48,,26,26,4,9,4,6,0.4,0.5
2025-07-08T1000,1223A,120.2072,30.2111,杭州市,滨江,,16,16,17,3,6,30,,22,22,18,16,5,6,0.4,0.4
2025-07-08T1000,1224A,120.0633,30.2747,杭州市,西溪,,18,18,17,7,8,26,,26,23,13,10,4,4,0.4,0.3
2025-07-08T1000,1226A,120.3417,30.3150,杭州市,下沙,,14,14,17,3,7,34,,19,19,12,13,5,5,0.2,0.2
2025-07-08T1000,1227A,120.1269,30.2456,杭州市,卧龙桥,,14,14,18,3,7,20,,23,20,11,9,7,8,0.5,0.4
2025-07-08T1000,1228A,120.1903,30.2692,杭州市,浙江农大,,24,24,30,6,9,25,,24,22,18,17,4,4,0.4,0.2
2025-07-08T1000,1230A,120.1197,30.3119,杭州市,和睦小学,,14,14,20,6,8,44,,35,35,8,5,9,9,0.4,0.4
2025-07-08T1000,1231A,120.3019,30.4183,杭州市,临平镇,,15,7,21,3,8,46,,33,33,9,9,5,6,0.3,0.3
2025-07-08T1000,1232A,120.2753,30.1839,杭州市,城厢镇,,16,16,20,9,8,31,,19,19,12,10,6,7,0.4,0.4
2025-07-08T1000,1233A,120.0883,30.1808,杭州市,云栖,,14,14,17,6,6,28,,25,24,14,13,8,8,0.5,0.5
2025-07-08T1000,3557A,119.9464,30.0494,杭州市,镇二中,,13,9,13,9,8,27,,21,19,10,11,3,3,0.4,0.4
2025-07-08T1000,3558A,119.7183,30.2367,杭州市,市府大楼,,18,13,18,12,8,27,,30,27,12,11,7,7,0.2,0.2
2025-07-08T1000,3656A,120.1556,30.2864,杭州市,消防大队,,14,14,20,8,8,34,,26,26,12,10,6,6,0.6,0.6
2025-07-08T1000,1270A,117.1959,31.7848,合肥市,明珠广场,,21,17,33,3,17,66,,72,60,10,14,7,7,0.4,0.5
2025-07-08T1000,1271A,117.3072,31.8764,合肥市,三里街,,16,12,29,3,16,49,,58,49,10,14,7,7,0.4,0.4
2025-07-08T1000,1272A,117.2588,31.8707,合肥市,琥珀山庄,,,,34,8,16,,,65,60,10,13,8,8,0.4,0.5
2025-07-08T1000,1273A,117.1604,31.9052,合肥市,董铺水库,,19,12,34,3,16,60,,73,62,6,10,5,5,0.3,0.4
2025-07-08T1000,1274A,117.25,31.8571,合肥市,长江中路,,19,19,35,3,18,58,,66,57,10,13,8,8,0.4,0.4
2025-07-08T1000,1275A,117.266,31.9436,合肥市,庐阳区,,21,14,33,7,16,66,,66,58,6,12,8,8,0.5,0.5
2025-07-08T1000,1276A,117.3453,31.8616,合肥市,瑶海区,,,22,33,3,15,,,57,48,9,14,8,8,0.5,0.5
2025-07-08T1000,1277A,117.3027,31.7964,合肥市,包河区,,20,17,36,7,17,62,,57,51,16,20,6,6,0.7,0.7
2025-07-08T1000,1278A,117.2776,31.7385,合肥市,滨湖新区,,20,12,34,9,20,64,,64,56,5,9,5,6,0.5,0.5
2025-07-08T1000,1279A,117.1318,31.8403,合肥市,高新区,,22,22,35,3,17,67,,76,64,12,15,9,8,0.4,0.5
2025-07-08T1000,3464A,117.3803,31.9147,合肥市,高教基地,,19,9,30,9,17,58,,52,49,6,14,5,5,0.5,0.6
2025-07-08T1000,3614A,79.924,37.0877,和田地区,地区环保局,颗粒物(PM10),276,403,666,160,201,52,,71,64,12,12,4,4,0.8,0.8
2025-07-08T1000,3615A,79.9131,37.113,和田地区,市环保局,颗粒物(PM10),288,411,554,134,211,40,,53,53,27,20,2,2,0.4,0.4
2025-07-08T1000,2516A,108.2011,24.715,河池市,东仁乐园,,,,,,,,,,,,,,,,
2025-07-08T1000,2517A,108.0497,24.6947,河池市,市环保站,,,56,32,16,18,81,,33,33,7,8,10,8,,0.9
2025-07-08T1000,2518A,108.0983,24.6989,河池市,市疾控中心,,50,50,38,22,24,77,,28,28,12,16,11,6,0.7,0.7
2025-07-08T1000,1696A,114.6778,23.7569,河源市,源西,,29,29,42,13,15,88,,62,60,10,12,3,3,0.7,0.8
2025-07-08T1000,1697A,114.6944,23.7586,河源市,东埔,,29,26,47,20,28,87,,68,63,17,16,6,5,0.5,0.5
2025-07-08T1000,1698A,114.6892,23.7233,河源市,老城,,29,29,48,19,35,86,,64,60,14,14,6,6,0.5,0.6
2025-07-08T1000,1718A,115.4208,35.2464,菏泽市,气象局,,40,40,28,23,15,69,,77,72,10,9,3,3,0.5,0.4
2025-07-08T1000,3374A,115.5564,35.0891,菏泽市,定陶老年大学,,41,41,22,22,9,80,,64,62,19,15,2,2,0.3,0.2
2025-07-08T1000,4184A,115.4797,35.24401,菏泽市,永昌路1号,,48,48,29,28,15,79,,72,70,16,14,6,5,0.3,0.2
2025-07-08T1000,4193A,115.4715,35.2800,菏泽市,长城路999号,,36,29,28,25,11,66,,68,64,12,12,6,7,0.3,0.2
2025-07-08T1000,2514A,111.5264,24.4172,贺州市,环保小区,,50,43,40,35,25,63,,34,34,16,12,13,12,1.1,1
2025-07-08T1000,2515A,111.5608,24.4078,贺州市,政协大楼,,42,42,32,27,25,63,,34,34,14,13,14,14,1.1,1
2025-07-08T1000,3534A,111.4744,24.4553,贺州市,西湾,,40,39,35,28,23,62,,21,21,11,12,4,6,0.7,0.9
2025-07-08T1000,2385A,114.17,35.9019,鹤壁市,市监测站,,35,32,35,21,25,110,,89,88,7,9,4,5,0.7,0.8
2025-07-08T1000,2386A,114.2956,35.7511,鹤壁市,市交警支队,,28,28,31,18,20,88,,74,74,10,14,1,6,0.7,0.9
2025-07-08T1000,2387A,114.2878,35.7306,鹤壁市,迎宾馆,,47,47,36,22,23,91,,82,82,8,11,2,6,0.6,0.7
2025-07-08T1000,3474A,114.2617,35.6822,鹤壁市,大新区,,36,36,31,21,21,84,,83,80,6,7,6,6,0.6,0.7
2025-07-08T1000,3596A,114.1572,35.9603,鹤壁市,南山宾馆,,42,42,44,23,28,113,,92,90,5,8,3,4,0.8,0.9
2025-07-08T1000,2244A,130.2537,47.3416,鹤岗市,哈啤分公司,,21,15,17,3,6,66,,56,56,3,6,10,10,0.5,0.4
2025-07-08T1000,2245A,130.2684,47.3086,鹤岗市,斯达机电,,,,25,,17,68,,55,55,6,8,,11,0.2,0.2
2025-07-08T1000,2246A,130.3114,47.3388,鹤岗市,东山纸板厂,,30,30,40,8,13,78,,54,54,6,10,9,10,0.6,0.7
2025-07-08T1000,2247A,130.1097,47.3382,鹤岗市,五号水库,,23,8,8,6,6,72,,48,48,7,9,6,7,0.1,0.1
2025-07-08T1000,2263A,127.4833,50.2524,黑河市,交通局,,16,16,20,8,10,33,,18,18,6,7,6,7,0.0,0.1
2025-07-08T1000,2264A,127.5144,50.2341,黑河市,环保局,,,12,20,,9,38,,24,24,5,7,4,5,0.1,0.1
2025-07-08T1000,2265A,127.5291,50.2472,黑河市,大黑河岛,,,,8,8,5,35,,23,23,2,4,24,22,,
2025-07-08T1000,1074A,115.6838,37.7541,衡水市,电机北厂,,,24,34,6,17,,,61,54,8,8,5,4,0.3,0.3
2025-07-08T1000,1075A,115.6303,37.7316,衡水市,市监测站,,35,35,38,7,13,102,,75,75,10,6,9,8,0.4,0.3
2025-07-08T1000,3188A,115.6683,37.7217,衡水市,市城管局,,28,28,34,7,17,86,,61,58,10,7,13,10,0.4,0.4
2025-07-08T1000,3459A,115.5989,37.5491,衡水市,地表水厂,,35,35,33,9,7,102,,74,70,9,7,10,6,0.3,0.3
2025-07-08T1000,2456A,112.5003,26.9167,衡阳市,原169医院,,45,45,44,20,26,110,,49,49,7,15,1,2,0.6,0.6
2025-07-08T1000,2457A,112.6194,26.9258,衡阳市,衡阳化工总厂,颗粒物(PM10),52,54,48,32,31,102,,49,49,12,17,12,5,0.7,0.7
2025-07-08T1000,2458A,112.6211,26.8956,衡阳市,珠晖区环保局,,49,49,46,27,28,99,,44,44,12,17,5,4,1.0,0.8
2025-07-08T1000,2459A,112.6197,26.8733,衡阳市,市委党校,颗粒物(PM10),55,59,50,24,27,97,,49,49,11,13,10,8,0.7,0.7
2025-07-08T1000,2460A,112.6006,26.8919,衡阳市,市监测站,颗粒物(PM10),57,63,43,31,28,100,,47,47,14,16,15,6,0.8,0.6
2025-07-08T1000,2461A,112.5664,26.9056,衡阳市,真空机电公司,,,76,48,36,32,98,,38,38,,17,,6,1.1,0.9
2025-07-08T1000,3399A,112.6703,26.882,衡阳市,师范学院,颗粒物(PM10),57,64,50,31,30,93,,49,49,7,11,13,6,0.7,0.7
2025-07-08T1000,2608A,103.3772,23.3993,红河哈尼族彝族自治州,污水处理厂,,13,13,15,9,13,40,,34,31,7,6,8,8,0.4,0.3
2025-07-08T1000,2609A,103.3861,23.35,红河哈尼族彝族自治州,监测站,,21,21,22,10,13,40,,36,33,6,4,6,6,0.2,0.2
2025-07-08T1000,3038A,103.3758,23.368,红河哈尼族彝族自治州,州图书馆,,,,12,12,12,39,,40,36,,4,2,2,,0.2
2025-07-08T1000,1090A,111.6507,40.7517,呼和浩特市,呼市一监,,27,27,27,14,28,84,,58,58,11,20,6,6,0.7,0.8
2025-07-08T1000,1091A,111.6572,40.8033,呼和浩特市,小召,,25,22,20,3,20,80,,54,54,19,22,7,6,0.8,0.7
2025-07-08T1000,1094A,111.7516,40.8369,呼和浩特市,如意水处理厂,,27,22,29,14,21,84,,42,42,14,28,3,2,0.5,0.4
2025-07-08T1000,1095A,111.7276,40.8062,呼和浩特市,二十九中,,,22,29,13,24,,,49,49,6,19,5,5,0.8,0.9
2025-07-08T1000,1096A,111.5512,40.7866,呼和浩特市,工大金川校区,,29,29,29,16,22,83,,47,47,13,25,5,5,0.6,0.6
2025-07-08T1000,1097A,111.717,40.7612,呼和浩特市,化肥厂生活区,,29,18,32,18,29,92,,65,65,8,18,8,7,0.6,0.6
2025-07-08T1000,3698A,111.5968,40.8178,呼和浩特市,红旗小学,,28,27,21,15,21,89,,62,61,14,21,3,3,0.4,0.4
2025-07-08T1000,3699A,111.6518,40.8389,呼和浩特市,海东办,,,34,25,15,21,85,,35,35,14,29,,5,0.6,0.6
2025-07-08T1000,2192A,119.7594,49.2261,呼伦贝尔市,区环保局,,29,28,27,20,20,28,,34,31,44,18,3,7,0.4,0.3
2025-07-08T1000,3061A,119.7512,49.1577,呼伦贝尔市,国华电力东,,23,23,25,12,17,50,,37,37,10,10,12,9,0.4,0.4
2025-07-08T1000,1250A,120.0751,30.8669,湖州市,城西水厂,,,15,18,3,7,32,,32,31,,8,6,6,0.3,0.3
2025-07-08T1000,2873A,120.0830,30.8929,湖州市,仁皇山新区,,17,17,15,3,5,26,,20,20,9,9,4,4,0.5,0.4
2025-07-08T1000,2907A,120.1844,30.8596,湖州市,吴兴区站,,16,16,20,3,5,27,,23,23,9,7,6,6,0.3,0.3
2025-07-08T1000,3562A,120.4148,30.8538,湖州市,南浔区站,,13,13,17,3,5,35,,22,22,7,8,5,5,0.4,0.4
2025-07-08T1000,1607A,120.9049,40.7211,葫芦岛市,龙港区,,,56,50,32,31,,,77,74,6,21,3,14,,0.5
2025-07-08T1000,1608A,120.8392,40.7514,葫芦岛市,化工街,,39,39,41,24,19,108,,57,57,16,38,7,15,0.6,0.5
2025-07-08T1000,1609A,120.8341,40.7073,葫芦岛市,新区,细颗粒物(PM2.5),53,48,46,37,33,96,,71,71,10,26,2,17,0.7,0.7
2025-07-08T1000,1610A,120.8695,40.7677,葫芦岛市,东城区,,48,48,47,26,25,102,,52,52,12,39,6,13,0.8,0.7
2025-07-08T1000,2482A,109.5981,27.5721,怀化市,林科所,,34,28,30,22,11,107,,61,61,6,7,3,4,0.4,0.3
2025-07-08T1000,2483A,109.9453,27.5444,怀化市,河西地税局,,30,21,23,16,17,96,,28,28,4,7,1,2,0.3,0.3
2025-07-08T1000,2484A,109.9781,27.5342,怀化市,市四医院,,49,49,52,29,25,94,,36,36,10,14,10,6,0.3,0.2
2025-07-08T1000,2485A,109.9972,27.5578,怀化市,监测楼,,50,50,34,27,23,89,,34,34,6,7,5,4,0.2,0.2
2025-07-08T1000,2486A,110.0394,27.583,怀化市,市委党校,,,50,38,21,24,108,,28,28,,8,,7,0.3,0.4
2025-07-08T1000,1210A,119.036,33.5981,淮安市,钵池山,,18,9,23,9,20,57,,46,43,6,10,8,8,0.4,0.5
2025-07-08T1000,1211A,119.007,33.575,淮安市,北京南路,,,12,28,7,15,,,43,38,1,6,7,6,0.8,0.7
2025-07-08T1000,1212A,118.989,33.6067,淮安市,市监测站,,18,12,30,3,16,56,,48,44,4,8,8,8,0.6,0.7
2025-07-08T1000,1213A,119.135,33.5039,淮安市,楚州区监测站,,17,15,36,10,21,52,,39,38,2,5,8,8,0.4,0.5
2025-07-08T1000,3426A,118.8755,33.2894,淮安市,新华书店,,19,14,34,7,17,59,,51,42,5,11,8,9,0.1,0.2
2025-07-08T1000,4206A,119.0288,33.6319,淮安市,承德北路606号,,18,14,31,10,20,55,,43,41,6,10,6,6,0.4,0.3
2025-07-08T1000,2282A,116.8004,33.975,淮北市,监测站,,37,37,37,11,22,101,,75,74,3,5,7,7,0.6,0.7
2025-07-08T1000,2283A,116.8091,33.9007,淮北市,烈山区政府,,46,46,45,9,14,101,,76,76,7,6,10,8,0.7,0.6
2025-07-08T1000,3330A,116.8873,33.9836,淮北市,杜集区检察院,,32,29,36,12,24,100,,70,70,7,9,6,6,0.7,0.7
2025-07-08T1000,4017A,116.7923,33.9535,淮北市,市博物馆,,33,31,33,6,16,104,,,,2,3,9,8,0.6,0.7
2025-07-08T1000,2277A,116.8305,32.7727,淮南市,潘集区政府,,27,27,51,8,23,62,,54,50,7,15,4,2,0.4,0.6
2025-07-08T1000,2279A,116.8569,32.5951,淮南市,谢家集区政府,,25,25,41,3,19,60,,65,58,8,11,7,7,0.1,0.3
2025-07-08T1000,2280A,116.8281,32.633,淮南市,八公山区政府,,20,19,45,3,22,62,,62,58,7,11,2,4,0.4,0.5
2025-07-08T1000,2281A,116.6325,32.6201,淮南市,焦岗湖风景区管理处,,,,,,,,,,,,,,,,
2025-07-08T1000,2894A,117.0566,32.6531,淮南市,经济技术开发区消防队,,24,22,46,3,18,75,,61,61,10,19,9,10,0.4,0.5
2025-07-08T1000,3329A,117.0108,32.5893,淮南市,山南新区,,22,9,40,3,17,68,,67,62,3,9,9,10,0.5,0.6
2025-07-08T1000,4209A,117.0031,32.6445,淮南市,国庆中路369号,,19,6,38,3,26,60,,59,56,3,11,10,10,0.3,0.4
2025-07-08T1000,2446A,114.9028,30.4742,黄冈市,职工中心,,38,33,32,20,22,120,,79,79,2,3,6,7,0.4,0.4
2025-07-08T1000,2929A,114.8858,30.4519,黄冈市,红卫路,,39,34,29,20,19,122,,78,78,3,3,8,7,0.3,0.3
2025-07-08T1000,3398A,114.9136,30.4445,黄冈市,市林业局,,,40,33,18,21,,,73,71,5,4,7,7,0.5,0.5
2025-07-08T1000,2672A,102.0199,35.5102,黄南藏族自治州,同仁县隆务镇,,19,19,28,8,8,44,,61,56,8,9,9,9,0.2,0.2
2025-07-08T1000,2295A,118.2903,29.6963,黄山市,延安路89号,,28,16,18,13,7,89,,28,28,6,8,4,3,0.4,0.4
2025-07-08T1000,2297A,118.1371,30.2756,黄山市,黄山区政府5号楼,,,20,17,16,8,,,22,22,4,3,4,4,0.2,0.2
2025-07-08T1000,4210A,118.3354,29.7203,黄山市,滨江东路7-2号,,29,29,26,6,7,74,,31,31,6,7,3,3,0.4,0.4
2025-07-08T1000,2423A,115.0601,30.2313,黄石市,沈家营,,47,47,47,23,19,116,,66,66,12,10,11,10,0.6,0.5
2025-07-08T1000,2426A,114.8988,30.2019,黄石市,铁山,,,,42,,22,,,58,58,7,15,,14,,0.4
2025-07-08T1000,2427A,115.0307,30.2092,黄石市,团城山,,43,43,40,23,15,125,,,,19,10,15,10,0.8,0.5
2025-07-08T1000,3149A,115.0235,30.1578,黄石市,笔架山北路,,,,43,,19,,,43,43,13,17,,7,0.4,0.6
2025-07-08T1000,4185A,115.0780,30.21118,黄石市,磁湖东路29号,颗粒物(PM10),54,57,44,33,23,122,,64,64,12,20,17,18,1.0,0.8
2025-07-08T1000,1392A,114.4183,23.0528,惠州市,河南岸金山湖子站,,21,14,44,8,29,67,,46,46,13,16,7,8,0.4,0.5
2025-07-08T1000,1393A,114.4053,23.0822,惠州市,下埔横江三路子站,,23,17,38,11,24,73,,52,52,10,13,5,5,0.2,0.3
2025-07-08T1000,1394A,114.4103,23.1142,惠州市,江北云山西路子站,,25,23,40,10,24,78,,53,52,10,10,7,8,0.5,0.5
2025-07-08T1000,1395A,114.4645,22.7833,惠州市,惠阳区承修路船湖子站,,22,14,33,6,23,69,,46,46,12,15,7,7,0.5,0.6
2025-07-08T1000,1396A,114.5317,22.7422,惠州市,大亚湾管委会子站,,20,15,29,7,20,64,,51,51,12,18,8,8,0.5,0.6
2025-07-08T1000,3314A,114.4338,22.8134,惠州市,惠阳秋长,,25,22,37,3,16,79,,48,48,11,17,12,14,0.4,0.5
2025-07-08T1000,3452A,114.6517,22.775,惠州市,大亚湾霞涌,,,33,26,6,17,38,,43,38,16,17,,6,0.5,0.5
2025-07-08T1000,2240A,130.9762,45.3001,鸡西市,环保局,,,,24,,9,105,,56,56,19,12,,5,0.3,0.3
2025-07-08T1000,2243A,130.9429,45.3039,鸡西市,第一中学,,25,12,23,3,11,79,,50,50,9,14,8,10,0.4,0.4
2025-07-08T1000,3707A,131.0207,45.3073,鸡西市,欧美日汽修厂,,24,24,33,10,13,71,,38,38,18,19,8,7,0.5,0.5
2025-07-08T1000,3709A,130.9967,45.3106,鸡西市,市政设施管理处,,35,35,28,9,11,73,,36,36,18,19,6,4,0.4,0.4
2025-07-08T1000,2367A,114.9754,27.0803,吉安市,红声器材厂,,39,39,46,18,40,96,,50,50,10,8,11,12,0.5,0.6
2025-07-08T1000,2368A,114.9658,27.0999,吉安市,市森林工业局,,,51,52,,33,87,,47,47,,8,9,10,,0.4
2025-07-08T1000,2369A,114.99,27.1312,吉安市,市环境监测站,细颗粒物(PM2.5),52,41,49,36,37,104,,55,55,9,6,14,15,0.5,0.5
2025-07-08T1000,2370A,115.0093,27.0968,吉安市,青原区法院,,44,44,51,22,31,90,,48,48,16,11,9,11,0.6,0.6
2025-07-08T1000,1772A,126.54,43.8622,吉林市,哈达湾,,32,22,30,16,14,101,,54,54,7,20,6,10,0.3,0.4
2025-07-08T1000,1773A,126.5844,43.8358,吉林市,东局子,,30,24,29,11,17,96,,54,54,12,19,5,8,0.6,0.7
2025-07-08T1000,1774A,126.5052,43.8245,吉林市,电力学院,,32,17,34,9,18,102,,38,38,8,26,5,8,0.3,0.3
2025-07-08T1000,1775A,126.6133,43.8972,吉林市,江北,,28,26,29,7,14,88,,56,56,12,13,10,12,0.6,0.6
2025-07-08T1000,1776A,126.555,43.8306,吉林市,江南公园,,31,18,26,16,17,98,,55,55,9,17,3,6,0.3,0.5
2025-07-08T1000,1778A,126.7061,43.7133,吉林市,丰满,,,,,,,,,,,,,,,,
2025-07-08T1000,2868A,126.4739,43.953,吉林市,九站,,,27,29,16,17,,,66,66,17,26,23,12,0.5,0.5
2025-07-08T1000,1299A,116.9862,36.6114,济南市,科干所,细颗粒物(PM2.5),55,44,22,39,18,92,,45,45,27,22,5,5,0.8,0.7
2025-07-08T1000,1300A,116.9376,36.665,济南市,农科所,颗粒物(PM10),52,54,24,27,11,98,,44,44,27,20,9,7,0.7,0.4
2025-07-08T1000,1301A,117.1265,36.6734,济南市,开发区,颗粒物(PM10),51,51,27,24,14,82,,46,46,27,21,7,7,0.8,0.6
2025-07-08T1000,1303A,117.0624,36.6868,济南市,省种子仓库,颗粒物(PM10),58,66,38,27,14,107,,59,59,29,22,9,7,0.9,0.6
2025-07-08T1000,1304A,116.9489,36.6447,济南市,机床二厂,颗粒物(PM10),52,54,30,29,14,102,,51,51,30,25,9,6,0.7,0.5
2025-07-08T1000,1305A,117.0495,36.663,济南市,市监测站,颗粒物(PM10),57,63,30,37,17,92,,51,51,32,24,9,8,0.8,0.6
2025-07-08T1000,1306A,116.7675,36.5484,济南市,长清党校,,42,32,26,29,17,70,,32,32,20,21,4,4,0.4,0.2
2025-07-08T1000,1616A,117.6795,36.229,济南市,技术学院,,,,21,19,15,107,,71,71,,13,,7,0.8,0.7
2025-07-08T1000,1961A,117.532,36.6868,济南市,东山小学,,,46,39,29,18,105,,52,52,24,20,,7,,0.4
2025-07-08T1000,3059A,117.7161,36.2049,济南市,泰兴公司,,35,29,29,24,18,95,,64,64,8,13,9,9,0.6,0.5
2025-07-08T1000,3064A,117.6867,36.2171,济南市,莱芜战役纪念馆,,34,34,32,23,18,95,,65,65,8,9,10,8,1.1,0.9
2025-07-08T1000,3494A,117.1673,36.9782,济南市,济阳区政府,,,49,34,22,14,112,,67,67,,11,8,4,0.7,0.5
2025-07-08T1000,3495A,117.1171,36.63,济南市,锦屏中学,,39,39,25,12,11,89,,49,49,19,14,6,6,0.7,0.6
2025-07-08T1000,3682A,116.9814,36.6819,济南市,济南四建,细颗粒物(PM2.5),55,53,33,39,19,96,,50,50,28,22,7,5,0.8,0.6
2025-07-08T1000,1653A,116.6251,35.4302,济宁市,火炬城,颗粒物(PM10),51,51,40,22,15,92,,53,52,11,10,8,6,0.6,0.6
2025-07-08T1000,1655A,116.5491,35.4042,济宁市,电化厂,,46,46,35,24,18,111,,70,70,15,12,6,5,0.8,0.7
2025-07-08T1000,3500A,116.5814,35.3707,济宁市,北湖一中,,44,44,37,19,16,106,,69,69,12,9,16,14,0.4,0.4
2025-07-08T1000,3501A,116.8249,35.5593,济宁市,服务中心,,42,42,35,12,13,103,,54,54,12,15,2,2,0.3,0.3
2025-07-08T1000,3678A,116.5907,35.4054,济宁市,市第七中学,颗粒物(PM10),51,52,43,19,11,106,,69,69,8,6,7,7,0.6,0.5
2025-07-08T1000,2255A,130.2751,46.8028,佳木斯市,佳纺,,23,23,22,12,7,66,,26,26,18,24,6,5,0.2,0.2
2025-07-08T1000,2256A,130.3995,46.8307,佳木斯市,发电厂,,32,32,18,10,6,77,,32,32,16,25,5,5,0.1,0.2
2025-07-08T1000,2257A,130.3258,46.7975,佳木斯市,环保局,,26,24,17,18,8,66,,36,36,24,25,7,6,0.4,0.3
2025-07-08T1000,2258A,130.3648,46.8032,佳木斯市,十一中,,22,21,17,15,7,68,,42,42,21,18,10,9,0.4,0.3
2025-07-08T1000,2259A,130.3794,46.7588,佳木斯市,四丰,,,,,,,7,,6,6,15,19,1,13,0.4,0.4
2025-07-08T1000,1252A,120.7436,30.778,嘉兴市,清河小学,,15,10,14,3,4,46,,28,28,8,10,6,8,0.8,0.5
2025-07-08T1000,1253A,120.726,30.7478,嘉兴市,嘉兴学院,,16,15,17,3,5,50,,32,32,6,7,4,5,0.4,0.4
2025-07-08T1000,2872A,120.7846,30.7525,嘉兴市,南湖区残联,,17,14,12,6,6,52,,31,31,9,9,7,8,0.4,0.3
2025-07-08T1000,3407A,120.6916,30.7739,嘉兴市,秀洲住建,,14,10,14,3,5,44,,24,24,9,9,5,6,0.7,0.6
2025-07-08T1000,1945A,98.2908,39.7711,嘉峪关市,气象局,,35,31,51,14,14,110,,98,94,15,12,4,17,0.7,0.8
2025-07-08T1000,2884A,98.2672,39.7978,嘉峪关市,酒钢宾馆,,41,41,62,17,19,103,,87,87,17,9,16,22,0.2,0.6
2025-07-08T1000,3248A,98.2643,39.7724,嘉峪关市,雄关区,,33,33,50,13,16,101,,84,83,22,18,9,12,0.4,0.4
2025-07-08T1000,1383A,113.1064,22.6058,江门市,北街,,23,23,30,9,23,59,,59,57,3,4,3,3,0.3,0.4
2025-07-08T1000,1384A,113.0731,22.5835,江门市,西区,,20,13,27,10,16,63,,62,61,7,8,5,5,0.6,0.7
2025-07-08T1000,1385A,113.0219,22.5311,江门市,圭峰西,,21,21,31,7,21,60,,55,54,5,6,4,4,0.4,0.5
2025-07-08T1000,1386A,113.0828,22.5947,江门市,东湖,,20,12,25,9,19,61,,62,60,8,8,8,8,0.4,0.4
2025-07-08T1000,3311A,113.1075,22.5647,江门市,江海富民,,28,28,39,10,22,64,,62,60,7,8,7,7,0.4,0.4
2025-07-08T1000,3449A,113.05,22.4667,江门市,新会银湖,,23,23,28,8,19,62,,54,54,4,8,3,3,0.5,0.5
2025-07-08T1000,1830A,113.1992,35.2590,焦作市,影视城,,,,28,,8,,,,,,11,,14,,0.4
2025-07-08T1000,3169A,113.2725,35.2067,焦作市,太极体育中心,细颗粒物(PM2.5),70,53,50,51,32,78,,85,77,14,10,4,6,0.6,0.5
2025-07-08T1000,3335A,113.3137,35.2641,焦作市,马村街道办,细颗粒物(PM2.5),52,41,42,36,31,72,,84,73,14,12,8,10,0.9,0.8
2025-07-08T1000,3336A,113.2465,35.2373,焦作市,焦作技师学院,,50,50,41,14,16,75,,86,76,14,11,1,2,1.2,1
2025-07-08T1000,3477A,113.1656,35.2539,焦作市,中站许衡医院,,31,26,37,21,23,98,,92,89,9,10,6,7,0.6,0.6
2025-07-08T1000,3981A,113.2449,35.1803,焦作市,原李万街道办,,46,46,42,22,15,78,,97,85,14,11,10,13,0.6,0.7
2025-07-08T1000,4264A,113.2340,35.2190,焦作市,新安路1731号,,38,38,42,22,20,92,,99,92,12,10,4,5,0.8,0.7
2025-07-08T1000,1708A,116.3701,23.5345,揭阳市,新兴,颗粒物(PM10),51,52,37,20,24,95,,79,77,7,8,5,5,0.6,0.6
2025-07-08T1000,1709A,116.3264,23.5443,揭阳市,西马,,40,40,40,25,26,88,,66,66,7,8,1,2,0.7,0.7
2025-07-08T1000,1710A,116.3611,23.5626,揭阳市,东兴,颗粒物(PM10),56,61,50,22,25,90,,70,70,8,9,3,3,0.5,0.5
2025-07-08T1000,1711A,116.4151,23.5294,揭阳市,渔湖,,32,32,41,15,21,86,,75,75,14,12,8,9,0.5,0.5
2025-07-08T1000,3320A,116.403,23.5699,揭阳市,曲溪,,,62,34,24,24,,,85,80,8,6,6,4,0.7,0.6
2025-07-08T1000,1944A,102.1692,38.5167,金昌市,天庆家园,细颗粒物(PM2.5),54,46,40,38,14,75,,87,82,17,10,8,13,0.7,0.8
2025-07-08T1000,4022A,102.1647,38.5371,金昌市,金川区人防中心,,36,,48,25,17,56,,66,59,20,10,14,18,0.6,0.6
2025-07-08T1000,4239A,102.1930,38.5319,金昌市,长春路96号,,28,23,41,19,16,60,,79,71,18,8,5,13,0.8,0.5
2025-07-08T1000,1262A,119.647,29.077,金华市,十五中,,,23,20,11,9,,,23,23,13,13,4,4,0.5,0.5
2025-07-08T1000,1263A,119.686,29.1029,金华市,监测站,,12,11,18,8,9,31,,18,18,18,16,2,2,0.6,0.5
2025-07-08T1000,3659A,119.656,29.1131,金华市,气象局,,15,15,22,3,8,38,,20,20,12,15,3,4,0.2,0.4
2025-07-08T1000,1767A,121.1115,41.0879,锦州市,南山,,37,37,38,25,27,96,,59,59,17,22,10,14,0.9,0.7
2025-07-08T1000,1768A,121.0604,40.8428,锦州市,开发区,,50,50,53,23,23,101,,70,70,12,36,7,15,0.7,0.7
2025-07-08T1000,1769A,121.1836,41.1119,锦州市,百股街道,颗粒物(PM10),53,55,40,29,14,104,,51,51,11,23,4,7,0.8,0.7
2025-07-08T1000,1770A,121.1178,41.1222,锦州市,天安街道,,45,45,39,31,26,110,,64,64,19,29,11,15,1.0,0.7
2025-07-08T1000,1771A,121.1303,41.1386,锦州市,北湖公园,,,94,35,34,24,104,,54,52,14,22,,8,,0.6
2025-07-08T1000,2160A,112.85,35.5051,晋城市,自来水公司,颗粒物(PM10),57,64,62,27,20,107,,71,71,13,14,1,2,0.5,0.5
2025-07-08T1000,2161A,112.8318,35.4936,晋城市,白云商贸,,41,41,39,7,9,103,,82,79,11,12,4,4,0.5,0.6
2025-07-08T1000,2162A,112.8508,35.4887,晋城市,市环保局,,,29,48,14,18,106,,80,78,6,8,,6,0.2,0.3
2025-07-08T1000,2163A,112.8676,35.4897,晋城市,技术学院,,31,19,27,14,16,99,,73,72,7,9,6,6,0.6,0.7
2025-07-08T1000,2165A,112.8453,35.546,晋城市,白马寺,,,,19,,23,99,,100,97,4,4,,5,,0.6
2025-07-08T1000,3620A,112.8271,35.4828,晋城市,泽州一中,,34,30,35,14,16,107,,95,92,4,5,4,4,0.6,0.7
2025-07-08T1000,2173A,112.7249,37.7067,晋中市,南都小区,颗粒物(PM10),52,53,38,25,22,81,,90,84,11,6,6,4,0.6,0.6
2025-07-08T1000,2174A,112.6991,37.6982,晋中市,榆次区政府,,41,41,33,19,16,76,,91,82,17,6,8,7,0.7,0.7
2025-07-08T1000,2865A,112.7195,37.6828,晋中市,榆次三中,,34,34,26,17,14,87,,98,92,12,6,8,7,0.4,0.4
2025-07-08T1000,4200A,112.7478,37.6954,晋中市,迎宾街26号,,36,36,26,14,14,86,,97,90,12,7,7,6,0.7,0.6
2025-07-08T1000,2439A,112.2014,31.0481,荆门市,竹园小学,颗粒物(PM10),56,61,42,32,22,108,,60,60,20,15,4,2,0.8,0.6
2025-07-08T1000,2440A,112.1969,30.9891,荆门市,掇刀,,43,40,43,30,22,111,,62,62,15,10,11,10,0.7,0.6
2025-07-08T1000,2441A,112.2213,31.0386,荆门市,石化一小,细颗粒物(PM2.5),64,75,48,46,22,109,,49,49,16,18,9,12,0.9,0.7
2025-07-08T1000,3012A,112.1849,31.0362,荆门市,西山林语,,50,50,39,29,20,122,,62,62,10,6,13,11,0.4,0.5
2025-07-08T1000,3547A,112.1632,31.0138,荆门市,龙泉中学南校,颗粒物(PM10),62,73,36,33,25,125,,73,73,10,8,5,5,0.4,0.3
2025-07-08T1000,1844A,112.2494,30.3197,荆州市,市图书馆,,44,44,32,30,19,132,,87,87,8,10,1,2,0.7,0.7
2025-07-08T1000,1845A,112.2008,30.3544,荆州市,市委党校,颗粒物(PM10),54,58,36,36,23,128,,79,79,17,18,6,6,0.5,0.4
2025-07-08T1000,3194A,112.2747,30.3122,荆州市,管委会,,48,42,33,33,27,119,,74,74,7,14,5,6,0.7,0.7
2025-07-08T1000,4268A,112.1722,30.3366,荆州市,学苑路85号,细颗粒物(PM2.5),62,54,32,44,30,127,,58,58,9,18,9,6,0.6,0.5
2025-07-08T1000,2342A,117.3102,29.3867,景德镇市,王港中学,,,,,,,,,,,,,,,,
2025-07-08T1000,2343A,117.2117,29.2933,景德镇市,老干部活动中心,,27,17,20,10,11,85,,34,34,7,8,6,6,0.5,0.5
2025-07-08T1000,2344A,117.1894,29.2789,景德镇市,兽医站,,27,22,27,14,13,86,,36,36,6,7,4,4,0.8,0.8
2025-07-08T1000,2345A,117.1547,29.2617,景德镇市,台达陶瓷,,,31,27,10,16,,,28,27,9,15,7,26,,0.5
2025-07-08T1000,2346A,117.2461,29.2956,景德镇市,陶研所,,28,21,22,14,13,88,,27,27,3,6,4,4,0.5,0.5
2025-07-08T1000,1803A,115.9872,29.6815,九江市,十里,,,33,34,26,33,136,,61,61,,22,7,6,,0.7
2025-07-08T1000,1804A,115.9584,29.7046,九江市,茅山头,,43,43,40,20,25,122,,72,72,11,14,8,8,0.5,0.6
2025-07-08T1000,1805A,115.9877,29.7295,九江市,西园,,42,32,33,18,20,134,,59,59,11,35,5,5,0.9,0.9
2025-07-08T1000,1808A,115.9114,29.6038,九江市,综合工业园,,44,40,46,16,27,139,,59,59,18,34,1,4,0.9,1
2025-07-08T1000,1809A,116.0721,29.7535,九江市,石化总厂,,38,38,47,21,38,106,,36,36,11,32,10,11,0.5,0.7
2025-07-08T1000,1810A,115.9773,29.5698,九江市,庐山气象台,,40,28,34,14,17,126,,133,129,8,7,6,8,1.0,0.9
2025-07-08T1000,3190A,116.0254,29.6994,九江市,外国语学校,,41,31,34,18,26,131,,65,65,12,20,9,6,0.8,0.9
2025-07-08T1000,4253A,116.0102,29.6594,九江市,莲花大道8号,,35,30,27,18,23,112,,63,63,3,4,4,4,0.6,0.7
2025-07-08T1000,4240A,98.4958,39.7339,酒泉市,玉门东路5号,颗粒物(PM10),71,92,51,30,28,67,,77,74,25,8,13,11,0.4,0.2
2025-07-08T1000,4241A,98.5099,39.7506,酒泉市,北大街108号,颗粒物(PM10),65,80,48,28,22,46,,81,75,25,7,13,13,0.3,0.3
2025-07-08T1000,2698A,76.0072,39.4467,喀什地区,巡警大队,颗粒物(PM10),275,402,787,97,210,68,,74,74,33,23,5,4,0.5,0.4
2025-07-08T1000,2699A,75.9755,39.4694,喀什地区,吾办,颗粒物(PM10),265,395,800,122,276,72,,73,73,28,25,9,8,0.7,0.5
2025-07-08T1000,4027A,75.9483,39.4689,喀什地区,老干局,颗粒物(PM10),273,401,758,99,216,55,,70,70,21,22,7,7,0.5,0.4
2025-07-08T1000,1824A,114.3389,34.7781,开封市,肿瘤医院,,40,40,39,16,15,105,,87,87,12,11,4,2,0.6,0.5
2025-07-08T1000,1826A,114.2885,34.7965,开封市,世纪星幼儿园,,,,39,,20,,,86,83,13,10,,4,0.4,0.4
2025-07-08T1000,3147A,114.3438,34.8106,开封市,龙亭公园,,33,33,37,11,18,96,,82,81,4,5,2,2,0.6,0.5
2025-07-08T1000,3210A,114.3644,34.7964,开封市,汴京公园,,38,38,39,22,18,97,,80,80,10,9,5,3,0.5,0.5
2025-07-08T1000,3473A,114.2485,34.8306,开封市,技师学院,,35,33,36,13,20,109,,92,92,7,8,6,5,0.6,0.5
2025-07-08T1000,3592A,114.4644,34.7556,开封市,祥符区生态环境局,,36,36,41,23,22,97,,76,76,13,15,6,5,0.5,0.4
2025-07-08T1000,1951A,84.895,45.6094,克拉玛依市,长征新村,,31,31,19,3,5,68,,80,76,19,8,5,4,0.3,0.2
2025-07-08T1000,1952A,84.8988,45.5893,克拉玛依市,南林小区,,32,32,20,9,7,39,,64,61,28,10,3,3,0.2,0.2
2025-07-08T1000,1954A,84.905,44.3396,克拉玛依市,独山子区,,28,20,19,3,8,88,,101,96,12,9,7,9,0.3,0.3
2025-07-08T1000,1955A,85.6979,46.098,克拉玛依市,乌尔禾区商贸楼,,35,35,18,3,5,60,,77,65,12,5,5,5,0.4,0.4
2025-07-08T1000,3612A,85.1045,45.6899,克拉玛依市,白碱滩区新站,,26,21,29,9,15,81,,94,90,5,3,8,8,0.3,0.2
2025-07-08T1000,2697A,76.1454,39.7142,克孜勒苏柯尔克孜自治州,市人民政府,颗粒物(PM10),323,438,654,147,235,70,,80,80,26,14,113,9,0.4,0.1
2025-07-08T1000,3665A,76.1658,39.7157,克孜勒苏柯尔克孜自治州,克州文化中心,颗粒物(PM10),308,426,672,147,264,59,,80,80,37,17,32,7,0.5,0.4
2025-07-08T1000,1450A,102.8204,24.8886,昆明市,呈贡新区,,12,6,9,3,12,36,,24,24,6,11,9,6,0.4,0.4
2025-07-08T1000,1451A,102.6251,24.9608,昆明市,西山森林公园,,,,,,,,,,,,,,,,
2025-07-08T1000,1452A,102.7252,25.0902,昆明市,龙泉镇,,16,16,16,3,8,22,,16,16,11,13,1,1,0.3,0.3
2025-07-08T1000,1453A,102.7266,25.0375,昆明市,东风东路,,24,24,19,14,10,25,,23,23,13,15,5,4,0.4,0.3
2025-07-08T1000,1454A,102.6742,25.0669,昆明市,金鼎山,,31,31,18,10,8,18,,19,19,12,11,2,2,0.4,0.3
2025-07-08T1000,1455A,102.6644,25.0401,昆明市,碧鸡广场,,27,27,18,9,8,18,,17,17,12,15,6,6,0.5,0.4
2025-07-08T1000,3179A,102.7494,25.0119,昆明市,官渡区博物馆,,,12,14,9,7,,,25,25,9,8,,7,0.2,0.2
2025-07-08T1000,3375A,102.8017,24.8336,昆明市,青年创业园,,12,6,12,6,10,36,,21,21,3,9,4,3,0.4,0.4
2025-07-08T1000,3550A,102.7997,24.9786,昆明市,昆明学院,,13,13,14,8,8,28,,28,27,8,10,6,6,0.4,0.4
2025-07-08T1000,3551A,102.5967,24.6736,昆明市,晋宁区生态环境分局,,10,10,14,3,6,31,,19,19,6,10,2,3,0.2,0.3
2025-07-08T1000,3552A,102.6678,24.9856,昆明市,云天化总部,,16,15,11,11,6,29,,25,25,7,11,5,4,0.1,0.1
2025-07-08T1000,1456A,91.1319,29.6514,拉萨市,八廓街,,27,22,20,11,10,84,,83,83,12,13,23,9,0.2,0.2
2025-07-08T1000,1457A,91.1221,29.6747,拉萨市,市环保局,,45,45,28,13,11,71,,78,72,17,16,22,10,0.4,0.4
2025-07-08T1000,1458A,91.0874,29.6475,拉萨市,区监测站,,24,23,25,9,13,75,,76,76,23,34,21,10,0.4,0.4
2025-07-08T1000,1459A,91.1774,29.6541,拉萨市,西藏大学,,25,17,26,7,10,78,,81,78,13,15,22,8,0.2,0.1
2025-07-08T1000,1460A,90.9798,29.6588,拉萨市,区辐射站,,,40,24,16,12,70,,64,64,,22,11,8,,0.2
2025-07-08T1000,1461A,91.0834,29.6292,拉萨市,拉萨火车站,,26,26,21,12,11,72,,61,59,21,22,16,7,0.2,0.3
2025-07-08T1000,2520A,109.2203,23.7256,来宾市,来宾技工学校,,19,19,30,10,15,52,,36,36,7,9,8,14,0.7,0.7
2025-07-08T1000,3535A,109.1781,23.7297,来宾市,兴宾区政府,,28,24,22,19,17,53,,39,39,9,8,12,7,0.7,0.7
2025-07-08T1000,4002A,109.2416,23.7461,来宾市,中南小学,,22,19,28,15,14,57,,40,39,6,8,11,11,0.5,0.6
2025-07-08T1000,1477A,104.1373,35.9454,兰州市,榆中兰大校区,,,,,,,,,,,,,,,,
2025-07-08T1000,1479A,103.831,36.0464,兰州市,铁路设计院,,33,26,35,23,21,60,,59,58,27,19,7,8,0.4,0.4
2025-07-08T1000,3241A,103.7439,36.0842,兰州市,百合公园,,28,28,26,13,17,50,,69,63,15,9,3,5,0.4,0.3
2025-07-08T1000,3242A,103.9611,35.998,兰州市,和平,,22,20,24,8,11,68,,61,61,9,8,9,10,0.4,0.4
2025-07-08T1000,4236A,103.6293,36.0938,兰州市,庄浪东路808号,,,27,40,17,26,,,63,62,34,26,12,15,0.4,0.3
2025-07-08T1000,4237A,103.7251,36.1043,兰州市,安宁西路88号,,27,27,34,17,19,66,,90,87,8,5,7,9,0.4,0.4
2025-07-08T1000,4238A,103.8470,36.0676,兰州市,北滨河东路1号,,25,25,27,16,20,57,,60,57,23,16,8,9,0.4,0.4
2025-07-08T1000,3245A,103.6633,36.533,兰州新区,新区管委会,,37,30,29,22,18,117,,123,123,6,7,7,12,0.3,0.3
2025-07-08T1000,3246A,103.6975,36.4789,兰州新区,舟曲中学,,,89,30,31,12,107,,111,111,,7,22,9,0.6,0.4
2025-07-08T1000,1067A,116.6708,39.5111,廊坊市,药材公司,,,37,29,18,10,83,,82,77,15,11,,5,0.4,0.3
2025-07-08T1000,1068A,116.7214,39.5589,廊坊市,开发区,,42,42,36,18,11,60,,63,57,21,12,1,4,0.4,0.4
2025-07-08T1000,1070A,116.7244,39.5269,廊坊市,北华航天学院,颗粒物(PM10),51,52,43,22,13,63,,78,70,16,8,1,4,0.5,0.4
2025-07-08T1000,2919A,116.7022,39.5453,廊坊市,河北工业大学,颗粒物(PM10),51,52,38,19,11,72,,85,76,16,10,4,6,0.4,0.4
2025-07-08T1000,2535A,103.7723,29.5462,乐山市,花湖湾,,21,19,19,14,14,67,,70,64,5,7,3,3,0.7,0.7
2025-07-08T1000,2536A,103.7627,29.5844,乐山市,牛耳桥,,27,27,21,18,14,43,,49,41,12,12,5,5,0.9,0.8
2025-07-08T1000,2537A,103.7508,29.6006,乐山市,市第三水厂,,,25,21,13,15,,,54,47,14,12,3,3,0.7,0.7
2025-07-08T1000,2538A,103.7571,29.5664,乐山市,市监测站,,24,24,22,16,15,42,,52,44,8,7,5,6,0.7,0.7
2025-07-08T1000,3361A,103.7311,29.5628,乐山市,理工大学,,22,20,19,15,16,43,,48,42,10,9,5,6,0.6,0.6
2025-07-08T1000,2598A,100.2143,26.8576,丽江市,西南郊,,8,6,10,3,6,23,,17,17,10,11,6,15,0.8,1.1
2025-07-08T1000,2599A,100.2497,26.8802,丽江市,丽江古城,,13,13,13,8,6,20,,17,17,13,12,10,9,0.6,0.6
2025-07-08T1000,2600A,100.2203,26.8906,丽江市,市中心,,14,14,8,3,7,17,,15,15,11,12,8,8,1.2,1.1
2025-07-08T1000,1267A,119.914,28.4514,丽水市,监测站大楼,,24,24,11,3,4,27,,19,19,14,10,3,3,0.4,0.3
2025-07-08T1000,1268A,119.93,28.4586,丽水市,莲都小学,,,,10,,3,,,25,25,12,8,3,3,0.5,0.4
2025-07-08T1000,1269A,119.879,28.4231,丽水市,余庄前,,23,23,10,14,6,16,,4,4,11,8,4,4,0.4,0.4
2025-07-08T1000,1173A,119.176,34.5885,连云港市,市环境监测站,,19,17,23,7,11,58,,52,48,7,10,2,3,0,0.1
2025-07-08T1000,3000A,119.3581,34.6972,连云港市,德源药业,,19,19,21,3,5,49,,35,35,9,8,3,3,0.7,0.6
2025-07-08T1000,3007A,119.178,34.844,连云港市,新城一中,,20,17,22,3,5,61,,54,49,4,4,4,4,0.9,0.9
2025-07-08T1000,3008A,119.3608,34.7519,连云港市,胡沟管理处,,16,14,14,3,6,29,,39,32,32,15,8,4,0.7,0.8
2025-07-08T1000,3009A,119.1478,34.5911,连云港市,矿山设计院,,18,14,23,3,10,56,,51,48,2,2,2,3,0.1,0.2
2025-07-08T1000,3434A,119.2413,34.6539,连云港市,工贸学校,,20,8,16,3,8,61,,52,50,2,6,5,6,0.4,0.5
2025-07-08T1000,3664A,119.4172,34.7341,连云港市,连云街道,,23,23,19,10,9,50,,,,17,6,4,4,0.4,0.5
2025-07-08T1000,2571A,102.3431,27.8099,凉山彝族自治州,青龙寺,,29,29,24,8,7,30,,10,10,7,8,7,6,0.7,0.6
2025-07-08T1000,2572A,102.2721,27.8415,凉山彝族自治州,邛海宾馆,,,16,18,11,12,34,,11,11,12,16,,10,0.8,0.6
2025-07-08T1000,2573A,102.2625,27.898,凉山彝族自治州,西昌市政府,,26,26,21,18,16,33,,15,15,14,13,23,15,1.2,0.8
2025-07-08T1000,2574A,102.2685,27.8851,凉山彝族自治州,凉山州政府,,28,25,19,19,17,34,,15,15,14,16,16,12,1.4,1.2
2025-07-08T1000,4229A,102.2342,27.8859,凉山彝族自治州,凯乐南路30号,,30,30,22,15,10,30,,14,14,21,24,22,14,1.4,0.9
2025-07-08T1000,2212A,123.2,41.1953,辽阳市,宏伟区,,24,20,33,8,14,75,,64,64,4,10,2,5,0.7,0.9
2025-07-08T1000,2213A,123.1683,41.2495,辽阳市,新华园,,,27,36,12,16,,,61,60,,13,6,9,0.4,0.5
2025-07-08T1000,2214A,123.2354,41.2639,辽阳市,滨河路,,33,,32,23,18,75,,57,57,4,14,3,3,0.5,0.6
2025-07-08T1000,2215A,123.149,41.2991,辽阳市,铁西工业园,,24,21,41,10,14,76,,57,57,6,18,2,3,0.6,0.7
2025-07-08T1000,2227A,125.1358,42.8845,辽源市,环保局,,,36,31,20,10,97,,30,30,17,25,,7,0.4,0.3
2025-07-08T1000,3239A,125.0764,42.9078,辽源市,银鹰制药,,36,28,24,15,14,113,,38,38,15,28,6,5,0.3,0.2
2025-07-08T1000,1625A,115.9848,36.4372,聊城市,区政府,,33,22,32,18,18,104,,76,75,15,13,8,7,0.8,0.8
2025-07-08T1000,2878A,116.0072,36.4343,聊城市,聊大东校,,,,36,,23,,,68,63,15,12,,4,0.6,0.6
2025-07-08T1000,3200A,115.9819,36.4978,聊城市,监控中心,,,,26,,13,,,142,,,11,,5,,0.7
2025-07-08T1000,3513A,116.0445,36.4361,聊城市,九州社区,,34,34,38,12,17,99,,69,69,16,14,5,4,0.4,0.4
2025-07-08T1000,4018A,116.0567,36.4608,聊城市,星美广场,,44,44,41,13,19,96,,72,71,20,14,6,6,1.1,1
2025-07-08T1000,2632A,94.3681,29.6376,林芝市,林芝监测站,,15,12,12,8,8,46,,59,52,7,3,1,2,0.4,0.3
2025-07-08T1000,2633A,94.3616,29.6616,林芝市,林芝人民医院,,15,15,13,7,7,48,,58,49,4,2,4,4,0.3,0.3
2025-07-08T1000,2603A,100.0781,23.8982,临沧市,市环保局,,23,,11,16,12,22,,13,13,7,6,5,6,0.4,0.3
2025-07-08T1000,2604A,100.0894,23.8822,临沧市,市气象局,,19,19,13,12,11,15,,13,12,11,7,8,8,0.4,0.4
2025-07-08T1000,1733A,111.5531,36.0783,临汾市,临钢医院,颗粒物(PM10),54,58,27,9,7,87,,86,86,12,9,5,5,0.7,0.6
2025-07-08T1000,1734A,111.5028,36.0714,临汾市,技工学校,,31,26,30,21,18,97,,94,94,10,9,5,6,0.4,0.4
2025-07-08T1000,1736A,111.5018,36.0855,临汾市,市委,颗粒物(PM10),52,54,41,10,8,101,,99,99,9,8,5,5,0.7,0.6
2025-07-08T1000,3018A,111.505,36.1014,临汾市,唐尧大酒店,颗粒物(PM10),52,54,51,8,10,91,,90,90,9,8,2,2,0.7,0.6
2025-07-08T1000,4244A,111.4879,36.0530,临汾市,启星学校,,,,30,,23,90,,95,95,,6,,5,0.5,0.5
2025-07-08T1000,4271A,103.2464,35.6123,临夏回族自治州,滨河东路1号,,38,38,36,14,15,23,,41,39,23,12,3,5,0.4,0.3
2025-07-08T1000,4310A,103.2093,35.5995,临夏回族自治州,新华街21号,,26,23,29,18,14,65,,60,60,12,8,5,6,0.4,0.2
2025-07-08T1000,1618A,118.3429,35.0532,临沂市,沂河小区,,39,39,39,13,22,72,,60,60,12,15,9,10,0.4,0.6
2025-07-08T1000,1619A,118.295,35.0583,临沂市,鲁南制药厂,,34,34,36,15,20,75,,64,64,15,15,9,10,0.5,0.6
2025-07-08T1000,1620A,118.2794,34.9976,临沂市,新光毛纺厂,,,24,29,16,20,86,,67,67,,14,7,8,0.4,0.5
2025-07-08T1000,1621A,118.3956,35.0888,临沂市,河东保险公司,,24,24,33,7,14,67,,61,61,10,15,4,6,0.5,0.7
2025-07-08T1000,3370A,118.3564,35.0215,临沂市,十里堡居委,,25,22,32,9,18,78,,67,66,16,17,8,9,0.5,0.7
2025-07-08T1000,3496A,118.3604,35.1084,临沂市,南坊新区,,36,36,39,14,16,68,,58,58,12,17,8,10,0.5,0.6
2025-07-08T1000,3860A,118.3920,35.0300,临沂市,皇山花园小区,,,29,35,14,22,,,62,60,,13,,10,,0.6
2025-07-08T1000,1870A,109.4856,24.3895,柳州市,柳东小学,,,,30,,19,54,,43,43,6,10,,4,0.4,0.5
2025-07-08T1000,1871A,109.4157,24.3277,柳州市,环保监测站,,20,20,38,9,21,50,,43,40,8,18,7,10,0.3,0.4
2025-07-08T1000,1872A,109.389,24.341,柳州市,河西水厂,,23,23,41,14,20,51,,43,40,9,21,5,11,0.5,0.7
2025-07-08T1000,1873A,109.4311,24.2921,柳州市,市四中,,28,28,35,7,18,51,,38,38,12,20,7,9,0.5,0.7
2025-07-08T1000,1874A,109.4006,24.3631,柳州市,市九中,,19,16,45,13,20,55,,46,44,8,22,3,5,0.4,0.5
2025-07-08T1000,1875A,109.4958,24.3134,柳州市,古亭山,,25,25,33,10,18,58,,38,37,5,12,4,4,0.5,0.6
2025-07-08T1000,3402A,109.5422,24.3996,柳州市,市二中,,32,32,31,10,18,59,,38,38,7,15,6,6,0.5,0.6
2025-07-08T1000,2307A,116.5079,31.737,六安市,监测大楼,,26,26,33,7,20,83,,80,70,6,8,6,6,0.4,0.5
2025-07-08T1000,2308A,116.4738,31.7643,六安市,皖西学院,,26,13,34,9,18,82,,78,73,6,8,3,3,0.1,0.3
2025-07-08T1000,2309A,116.4996,31.7905,六安市,朝阳厂,,33,33,37,8,20,86,,72,72,11,14,10,9,0.3,0.4
2025-07-08T1000,2310A,116.5567,31.7886,六安市,开发区,,25,,37,10,22,80,,67,67,4,10,5,4,0.3,0.4
2025-07-08T1000,2576A,104.8,26.5892,六盘水市,窑上,,17,17,25,11,8,42,,26,26,4,4,4,3,0.4,0.4
2025-07-08T1000,2577A,104.83,26.5917,六盘水市,黄土坡,,22,21,16,15,12,42,,55,48,10,9,10,9,0.4,0.4
2025-07-08T1000,2578A,104.89,26.5939,六盘水市,水钢,,28,22,25,19,16,48,,56,51,6,5,11,11,0.4,0.3
2025-07-08T1000,2579A,104.8475,26.5894,六盘水市,民中,,22,22,16,12,8,43,,56,50,9,7,8,8,0.4,0.4
2025-07-08T1000,2580A,104.9544,26.5506,六盘水市,双水,,,,12,,10,52,,56,54,,7,9,10,0.5,0.4
2025-07-08T1000,2335A,117.0189,25.1181,龙岩市,龙岩师专,,,,,,,,,,,,,,,,
2025-07-08T1000,2336A,117.0217,25.1033,龙岩市,龙岩市监测站,,41,41,27,23,17,87,,31,31,8,18,3,7,0.6,0.5
2025-07-08T1000,2337A,117.0258,25.0661,龙岩市,闽西职业技术学院,,26,25,30,18,16,79,,27,27,8,15,6,18,0.6,0.6
2025-07-08T1000,2338A,117.0196,25.0306,龙岩市,龙岩学院,,42,42,22,22,17,86,,48,48,4,6,10,7,0.4,0.5
2025-07-08T1000,2665A,105.0822,33.3261,陇南市,汉王镇固水子,,,,,,,,,,,,,,,,
2025-07-08T1000,2885A,104.9339,33.3826,陇南市,滨江中学,,33,33,26,6,11,37,,36,33,11,4,6,5,0.5,0.4
2025-07-08T1000,3247A,104.955,33.371,陇南市,市总工会,,46,46,32,11,7,43,,38,36,10,4,10,8,0.5,0.4
2025-07-08T1000,2487A,111.9589,27.8901,娄底市,电视发射台,,,45,50,34,24,99,,29,29,11,7,,6,1.1,0.9
2025-07-08T1000,2488A,111.9975,27.725,娄底市,市监测站,颗粒物(PM10),59,68,53,31,34,80,,28,28,13,22,2,13,0.7,0.8
2025-07-08T1000,2489A,112.0194,27.7314,娄底市,市委党校,细颗粒物(PM2.5),57,47,43,40,33,114,,73,73,9,13,3,4,0.6,0.7
2025-07-08T1000,2490A,111.9561,27.7569,娄底市,涟钢,细颗粒物(PM2.5),79,71,51,58,34,77,,28,28,31,19,4,5,2.2,0.7
2025-07-08T1000,2491A,111.9892,27.7044,娄底市,市政府,颗粒物(PM10),57,64,46,39,39,102,,36,36,8,9,8,7,0.8,0.9
2025-07-08T1000,1893A,105.4324,28.9634,泸州市,九狮山,,39,35,33,27,30,51,,58,58,14,12,5,5,0.5,0.4
2025-07-08T1000,1894A,105.4427,28.9063,泸州市,小市上码头,,34,34,29,15,18,43,,54,52,18,13,1,2,0.6,0.6
2025-07-08T1000,1895A,105.4241,28.8573,泸州市,兰田宪桥,,,41,36,18,18,,,53,51,,9,7,7,0.7,0.6
2025-07-08T1000,1896A,105.4379,28.8833,泸州市,市环监站,,34,34,30,23,22,34,,54,50,18,11,4,4,0.9,0.8
2025-07-08T1000,4272A,105.3689,28.7783,泸州市,纳溪中医医院,,34,34,36,20,24,41,,52,47,33,20,4,4,0.5,0.5
2025-07-08T1000,2183A,111.1406,37.5211,吕梁市,环保局,,50,44,48,35,19,46,,41,41,28,26,2,2,0.8,0.7
2025-07-08T1000,2185A,111.1297,37.5136,吕梁市,自来水公司,细颗粒物(PM2.5),54,47,33,38,17,39,,46,38,27,17,2,2,1.3,0.7
2025-07-08T1000,2867A,111.1283,37.51,吕梁市,马茂庄小学,颗粒物(PM10),51,51,46,33,24,36,,38,37,33,29,2,2,1.0,0.6
2025-07-08T1000,1812A,112.3931,34.6516,洛阳市,市委党校,,,34,31,18,15,80,,92,84,16,9,28,8,,0.5
2025-07-08T1000,1815A,112.494,34.6886,洛阳市,河南林校,,36,35,38,19,19,113,,101,97,14,13,8,7,0.7,0.8
2025-07-08T1000,1816A,112.3844,34.623,洛阳市,开发区管委会,,34,34,31,18,18,91,,99,93,11,6,9,7,0.5,0.5
2025-07-08T1000,1817A,112.4267,34.6258,洛阳市,市委新办公区,,38,33,30,26,23,81,,90,84,17,11,13,11,0.4,0.4
2025-07-08T1000,3340A,112.6005,34.6326,洛阳市,伊滨,,,53,40,21,17,102,,86,85,12,10,,4,,0.6
2025-07-08T1000,3341A,112.4951,34.6332,洛阳市,中移产业园,,39,39,32,25,19,88,,84,80,15,10,10,7,0.7,0.7
2025-07-08T1000,3593A,112.5736,34.8993,洛阳市,吉利监测站,,45,42,43,31,26,112,,97,94,8,10,8,7,0.6,0.6
2025-07-08T1000,3635A,112.3677,34.662,洛阳市,河科大西苑校区,,32,32,34,11,15,97,,99,96,13,10,11,11,0.7,0.7
2025-07-08T1000,3636A,112.4388,34.6781,洛阳市,英才小学,,42,42,33,17,19,88,,89,84,14,9,10,9,0.6,0.6
2025-07-08T1000,4214A,112.4600,34.6949,洛阳市,春都路1号院,,31,27,34,12,15,99,,90,86,9,8,6,6,0.6,0.7
2025-07-08T1000,2399A,114.051,33.5699,漯河市,三五一五工厂,,,45,31,24,18,89,,57,57,12,14,,6,,0.6
2025-07-08T1000,2400A,114.0055,33.5698,漯河市,漯河大学,,47,47,37,22,14,96,,63,63,12,14,5,5,0.5,0.4
2025-07-08T1000,2401A,114.0138,33.5828,漯河市,市水利局,,44,44,29,22,16,88,,56,56,10,13,4,4,0.7,0.6
2025-07-08T1000,2402A,114.0261,33.5698,漯河市,市广电局,,34,34,29,21,24,98,,64,64,10,13,3,3,0.5,0.5
2025-07-08T1000,3478A,113.9749,33.5664,漯河市,市图书馆,,46,,34,32,21,89,,64,64,10,13,6,5,0.4,0.3
2025-07-08T1000,4250A,114.0892,33.5882,漯河市,韶山路11号,,28,27,32,17,19,89,,53,53,12,19,4,5,0.6,0.4
2025-07-08T1000,1798A,118.5092,31.6837,马鞍山市,湖东路四小,,,21,24,15,11,53,,29,29,,10,,8,0.4,0.4
2025-07-08T1000,1799A,118.5024,31.6449,马鞍山市,开发区,,30,30,36,10,10,60,,34,34,10,10,6,6,0.6,0.5
2025-07-08T1000,1802A,118.6245,31.7241,马鞍山市,濮塘,,23,23,23,3,13,62,,36,36,14,8,8,8,0.8,0.6
2025-07-08T1000,3633A,118.4918,31.6809,马鞍山市,雨山,,20,20,25,12,9,52,,32,32,15,13,5,9,0.3,0.3
2025-07-08T1000,4191A,118.5274,31.72227,马鞍山市,慈湖高新区,,28,28,22,14,9,62,,34,34,15,13,7,6,0.4,0.3
2025-07-08T1000,1686A,111.0286,21.4688,茂名市,电白南海,细颗粒物(PM2.5),64,70,32,46,23,43,,32,32,21,10,17,16,0.7,0.6
2025-07-08T1000,1687A,110.9294,21.6533,茂名市,茂石化七小,,44,44,41,22,26,66,,30,30,11,9,7,7,0.5,0.5
2025-07-08T1000,1688A,110.9107,21.6687,茂名市,健康路,,36,36,41,17,25,63,,32,32,10,10,7,15,0.8,0.7
2025-07-08T1000,1689A,110.8592,21.6828,茂名市,高岭,,34,34,50,17,25,53,,19,19,12,15,11,14,0.5,0.5
2025-07-08T1000,3450A,111.01,21.5165,茂名市,电白水东,,20,19,25,14,16,54,,32,32,13,14,13,10,0.5,0.5
2025-07-08T1000,2539A,104.0308,30.0478,眉山市,黑龙滩水库,,29,29,25,3,7,47,,44,44,2,2,2,2,0.6,0.6
2025-07-08T1000,2540A,103.8416,30.0874,眉山市,气象局,,32,32,25,9,12,35,,30,26,17,14,3,3,0.4,0.4
2025-07-08T1000,3137A,103.8578,30.0744,眉山市,市委党校,,19,19,14,7,9,45,,46,40,14,12,5,5,0.4,0.4
2025-07-08T1000,3148A,103.8291,30.0564,眉山市,区人社局,,44,44,31,7,6,34,,49,40,21,14,13,13,0.8,0.7
2025-07-08T1000,1690A,116.1231,24.3284,梅州市,梅江月梅,,49,44,32,34,18,63,,14,14,18,14,9,8,0.8,0.6
2025-07-08T1000,1691A,116.0797,24.2719,梅州市,梅县新城,,47,47,30,20,17,78,,27,27,13,14,7,6,0.8,0.7
2025-07-08T1000,1692A,116.1248,24.2654,梅州市,环境监控中心,颗粒物(PM10),52,54,31,22,18,81,,19,19,15,19,5,6,0.7,0.6
2025-07-08T1000,3315A,116.1233,24.2991,梅州市,梅龙,,,44,27,33,16,85,,26,26,,12,,8,0.7,0.6
2025-07-08T1000,1878A,104.7778,31.4741,绵阳市,富乐山,,19,12,17,9,11,60,,23,23,7,7,8,8,0.5,0.5
2025-07-08T1000,1880A,104.6697,31.4668,绵阳市,高新区自来水公司,,15,14,19,3,7,48,,34,34,11,11,7,7,0.4,0.4
2025-07-08T1000,1881A,104.7287,31.5075,绵阳市,三水厂,,,,18,,11,,,30,25,13,11,6,5,0.5,0.5
2025-07-08T1000,3491A,104.69,31.5322,绵阳市,西科大附属小学,,18,18,23,9,12,51,,22,22,8,16,8,7,0.5,0.5
2025-07-08T1000,3492A,104.5648,31.5343,绵阳市,安州区旅游局,,22,22,21,7,6,52,,34,34,8,13,6,6,0.4,0.4
2025-07-08T1000,4226A,104.7651,31.4531,绵阳市,绵阳市气象局,,18,16,15,6,9,55,,43,40,11,6,10,7,0.4,0.3
2025-07-08T1000,1784A,129.61,44.561,牡丹江市,环保大楼,,,26,21,6,12,92,,41,41,12,18,,3,0.3,0.3
2025-07-08T1000,1785A,129.6115,44.5782,牡丹江市,文化广场,,,15,20,13,15,87,,40,40,,21,7,6,0.3,0.4
2025-07-08T1000,1786A,129.5904,44.5963,牡丹江市,第一医院,,32,,24,22,21,98,,44,44,10,16,7,7,0.2,0.3
2025-07-08T1000,1787A,129.6364,44.6075,牡丹江市,机车工厂,,28,18,27,3,7,89,,38,38,16,25,5,6,0.3,0.3
2025-07-08T1000,1788A,129.6386,44.5462,牡丹江市,第一中学,,29,11,18,8,11,90,,46,46,10,18,5,6,0.4,0.4
2025-07-08T1000,2531A,105.0703,29.61,内江市,市监测站,,25,25,17,10,12,41,,71,59,8,7,3,3,0.8,0.8
2025-07-08T1000,2532A,105.0717,29.5947,内江市,东兴区政府,,25,25,14,3,6,42,,79,66,9,7,4,4,0.6,0.5
2025-07-08T1000,2533A,105.0653,29.5817,内江市,内江二中,,,,17,,13,,,72,63,10,8,5,5,0.5,0.5
2025-07-08T1000,2534A,105.0406,29.5822,内江市,内江日报社,,29,,15,20,15,39,,66,55,9,11,1,2,0.4,0.4
2025-07-08T1000,2628A,92.0657,31.4846,那曲市,那曲监测站,颗粒物(PM10),59,67,42,38,22,112,,78,78,23,16,6,7,0.4,0.4
2025-07-08T1000,4243A,92.0515,31.4787,那曲市,那曲市委宣传部,,40,38,22,21,14,125,,100,100,16,8,5,5,0.3,0.2
2025-07-08T1000,1290A,115.8931,28.6843,南昌市,省外办,,45,45,40,31,27,118,,60,60,11,19,4,2,0.6,0.6
2025-07-08T1000,1291A,115.8886,28.7003,南昌市,省林业公司,,,36,42,22,21,125,,59,59,16,22,,9,0.6,0.6
2025-07-08T1000,1292A,115.8126,28.7442,南昌市,林科所,,35,27,26,19,18,112,,55,55,7,18,6,5,0.4,0.4
2025-07-08T1000,1294A,115.8518,28.687,南昌市,建工学校,,42,42,44,16,20,125,,68,68,19,18,8,8,0.7,0.7
2025-07-08T1000,1295A,115.8921,28.6424,南昌市,象湖,,43,43,37,22,21,127,,49,49,6,19,7,7,0.6,0.6
2025-07-08T1000,1296A,115.7423,28.7996,南昌市,武术学校,,29,,24,20,17,81,,23,23,2,3,9,8,0.5,0.6
2025-07-08T1000,3046A,115.9084,28.6062,南昌市,机电学校,,40,40,47,24,23,128,,43,43,10,26,5,5,0.7,0.7
2025-07-08T1000,3690A,115.9721,28.7031,南昌市,外国语学校,,40,38,44,28,22,114,,49,49,9,24,12,11,0.6,0.5
2025-07-08T1000,4192A,115.9316,28.68677,南昌市,南京东路235号,,47,47,46,25,22,121,,63,63,12,19,5,4,0.6,0.6
2025-07-08T1000,1905A,106.056,30.8064,南充市,西山风景区,,,,,,,,,,,,,,,,
2025-07-08T1000,1906A,106.0789,30.8023,南充市,南充市委,,26,24,18,18,12,37,,40,36,9,8,4,4,0.4,0.3
2025-07-08T1000,1907A,106.1031,30.8217,南充市,南充炼油厂,,16,16,16,10,9,33,,39,34,5,4,5,5,0.2,0.2
2025-07-08T1000,4227A,106.1083,30.7884,南充市,梨树横街98号,,25,25,17,15,10,27,,45,38,33,14,3,3,0.3,0.3
2025-07-08T1000,4304A,106.1172,30.843,南充市,清泉寺北路188号,,,40,16,13,9,33,,40,36,,4,,2,0.4,0.4
2025-07-08T1000,4305A,106.067,30.7616,南充市,同庆路1号,,35,35,18,17,8,29,,40,34,14,9,2,2,0.2,0.3
2025-07-08T1000,1151A,118.8086,32.1065,南京市,迈皋桥,,20,20,17,12,9,55,,34,34,17,8,4,4,1.0,0.5
2025-07-08T1000,1152A,118.7538,32.0551,南京市,草场门,,22,22,21,7,10,51,,30,30,15,11,8,7,0.8,0.6
2025-07-08T1000,1153A,118.7794,32.0745,南京市,山西路,,,17,22,3,5,57,,32,32,,10,5,4,0.4,0.2
2025-07-08T1000,1154A,118.7752,32.0023,南京市,中华门,,17,17,17,7,9,49,,27,27,8,7,8,7,1.0,0.8
2025-07-08T1000,1155A,118.8109,32.0309,南京市,瑞金路,,22,22,17,7,8,53,,30,30,15,16,6,6,0.2,0.3
2025-07-08T1000,1156A,118.7997,32.0754,南京市,玄武湖,,39,39,21,3,5,48,,27,27,12,11,7,7,0.6,0.4
2025-07-08T1000,1157A,118.6414,32.0931,南京市,浦口,,31,31,25,3,9,61,,37,37,12,14,4,4,0.4,0.2
2025-07-08T1000,1158A,118.7356,31.9996,南京市,奥体中心,,20,20,21,9,10,55,,34,34,12,9,4,4,0.4,0.2
2025-07-08T1000,1159A,118.9125,32.1028,南京市,仙林大学城,,27,27,25,3,4,55,,31,31,11,7,10,8,0.8,0.5
2025-07-08T1000,3422A,118.8436,31.9198,南京市,江宁彩虹桥,,17,15,19,7,8,53,,27,27,11,8,3,4,0.6,0.5
2025-07-08T1000,3427A,118.8554,32.3578,南京市,六合雄州,,23,23,22,3,9,53,,28,28,15,13,7,4,0.9,0.7
2025-07-08T1000,4249A,118.8708,31.3402,南京市,汶溪路181号,,15,12,19,6,13,45,,40,40,15,11,7,6,0.6,0.5
2025-07-08T1000,4312A,119.019,31.6512,南京市,中山西路1号,,17,17,14,10,9,44,,28,28,11,10,3,4,0.6,0.4
2025-07-08T1000,1401A,108.3103,22.7881,南宁市,二十一中,,28,28,20,11,12,27,,26,24,13,7,5,4,0.6,0.5
2025-07-08T1000,1402A,108.3141,22.8528,南宁市,北湖,,26,26,23,14,14,26,,34,29,17,9,5,5,0.5,0.5
2025-07-08T1000,1403A,108.3206,22.8225,南宁市,市监测站,,,20,22,13,15,30,,29,26,15,9,,7,0.6,0.5
2025-07-08T1000,1404A,108.3829,22.8037,南宁市,大自然花园,,21,21,23,10,15,39,,38,36,10,7,5,5,0.4,0.4
2025-07-08T1000,1405A,108.4394,22.7904,南宁市,仙葫,,28,28,22,12,13,40,,33,32,9,9,4,4,0.6,0.6
2025-07-08T1000,1406A,108.2397,22.8467,南宁市,区农职院,,18,18,24,11,11,46,,29,27,14,12,5,4,0.6,0.6
2025-07-08T1000,1407A,108.3275,22.735,南宁市,英华嘉园,,36,36,22,13,13,34,,31,29,18,11,2,2,0.5,0.5
2025-07-08T1000,3401A,108.4834,22.7618,南宁市,红星社区,,19,19,26,13,16,44,,24,24,5,6,2,2,0.5,0.4
2025-07-08T1000,4221A,108.2177,22.7774,南宁市,乐贤路16号,,20,19,26,14,15,52,,23,23,11,14,8,7,0.5,0.5
2025-07-08T1000,2331A,118.0966,26.6761,南平市,茫荡山,,,,,,,,,,,,,,,,
2025-07-08T1000,2332A,118.1681,26.6369,南平市,南平市监测站,,35,35,19,23,11,95,,38,38,11,10,12,7,0.9,0.5
2025-07-08T1000,2333A,118.1825,26.6489,南平市,南平铝业有限公司,,49,,20,34,13,99,,38,38,11,10,11,6,1.0,0.6
2025-07-08T1000,2334A,118.1756,26.6272,南平市,南平七中,,40,40,20,19,9,98,,36,36,10,8,11,8,1.0,0.5
2025-07-08T1000,1168A,120.9098,31.9663,南通市,狼山街道,,,6,12,3,3,,,35,35,1,7,3,4,0.6,0.6
2025-07-08T1000,1169A,120.86,32.0005,南通市,虹桥,,14,6,6,3,5,44,,36,36,8,12,2,3,0.6,0.6
2025-07-08T1000,1170A,120.87,32.02,南通市,城中,,25,25,18,7,5,38,,30,30,4,9,2,3,0.4,0.4
2025-07-08T1000,1171A,120.94,31.93,南通市,星湖花园,,15,9,10,3,7,46,,35,35,7,13,2,3,0.3,0.3
2025-07-08T1000,1172A,120.81,32.0417,南通市,紫琅学院,,32,32,18,3,2,41,,33,33,8,13,5,5,0.5,0.4
2025-07-08T1000,3291A,121.067,32.062,南通市,通州监测站,,14,6,8,3,2,43,,36,36,1,3,6,7,0.6,0.6
2025-07-08T1000,3432A,120.9348,31.9883,南通市,环境教育馆,,22,22,18,3,2,41,,31,31,4,8,3,4,0.1,0.1
2025-07-08T1000,2404A,112.5224,33.0122,南阳市,瓦房庄,,41,41,36,20,14,103,,65,65,12,16,8,7,0.6,0.5
2025-07-08T1000,2405A,112.5003,32.9735,南阳市,汉画馆,,32,29,30,16,11,101,,62,62,17,20,8,6,0.6,0.5
2025-07-08T1000,2406A,112.5573,33.027,南阳市,气象站,,40,40,33,19,16,100,,61,61,13,18,8,6,0.4,0.4
2025-07-08T1000,2407A,112.5481,32.9689,南阳市,理工学院,,39,39,34,14,14,92,,55,55,13,18,6,6,0.5,0.5
2025-07-08T1000,4008A,112.5234,32.9922,南阳市,卧龙区政府,,50,50,40,19,16,105,,66,66,16,19,7,5,0.6,0.5
2025-07-08T1000,1234A,121.8358,29.911,宁波市,区环保大楼,,21,21,23,3,7,60,,32,32,11,20,8,4,0.7,0.7
2025-07-08T1000,1235A,121.56,29.82,宁波市,万里学院,,19,,12,13,4,57,,37,37,10,12,3,3,0.5,0.4
2025-07-08T1000,1236A,121.713,29.9572,宁波市,龙赛医院,,18,17,20,6,7,56,,40,40,8,14,3,6,0.4,0.4
2025-07-08T1000,1239A,121.633,29.7733,宁波市,钱湖水厂,,,13,13,3,3,,,33,33,4,7,3,4,0.3,0.3
2025-07-08T1000,1240A,121.5856,29.8635,宁波市,太古小学,,32,32,13,3,5,54,,35,35,9,9,4,4,0.6,0.5
2025-07-08T1000,1241A,121.524,29.8674,宁波市,市环境监测中心,,17,12,16,3,3,54,,33,33,10,12,4,4,0.4,0.4
2025-07-08T1000,2871A,121.6147,29.9017,宁波市,万里国际学校,,,14,12,3,4,,,35,35,11,12,,4,0.3,0.3
2025-07-08T1000,3710A,121.5594,29.8975,宁波市,白沙活动中心,,19,11,12,3,4,60,,38,38,7,9,3,3,0.3,0.3
2025-07-08T1000,2339A,119.5001,26.6946,宁德市,金涵水库,,,,,,,,,,,,,,,,
2025-07-08T1000,2341A,119.5388,26.6612,宁德市,宁德市监测站,,35,35,13,9,4,78,,24,24,13,11,5,4,0.5,0.4
2025-07-08T1000,3209A,119.5231,26.6562,宁德市,宁德一中,,25,24,15,16,11,78,,29,29,10,4,4,4,0.4,0.3
2025-07-08T1000,2618A,98.8601,25.8567,怒江傈僳族自治州,州监测站,,16,16,18,9,11,17,,14,14,7,6,7,7,0.5,0.4
2025-07-08T1000,2619A,98.8546,25.8417,怒江傈僳族自治州,泸水一中,,5,6,13,3,7,3,,1,1,8,9,5,5,0.3,0.3
2025-07-08T1000,1888A,101.6891,26.571,攀枝花市,弄弄坪,,50,50,47,20,21,32,,11,11,14,20,23,16,1.3,1.1
2025-07-08T1000,1889A,101.5769,26.5928,攀枝花市,河门口,颗粒物(PM10),54,58,35,32,20,24,,14,14,15,13,32,14,1.5,0.9
2025-07-08T1000,1890A,101.7169,26.585,攀枝花市,炳草岗,颗粒物(PM10),51,51,42,29,20,33,,6,6,18,23,23,15,1.6,1.1
2025-07-08T1000,1891A,101.7369,26.5008,攀枝花市,仁和,,24,24,24,13,14,30,,9,9,11,12,11,12,0.8,0.7
2025-07-08T1000,2835A,101.7227,26.567,攀枝花市,四十中小,,39,39,31,24,19,30,,5,5,24,25,20,14,1.9,1.4
2025-07-08T1000,1604A,122.0303,41.1489,盘锦市,开发区,,45,45,33,24,25,113,,93,93,14,21,8,8,0.5,0.4
2025-07-08T1000,1605A,122.0485,41.0883,盘锦市,兴隆台,,40,40,33,27,17,105,,92,92,16,26,7,7,0.8,0.5
2025-07-08T1000,1606A,121.8297,41.1028,盘锦市,新生街道,,35,22,24,11,18,110,,78,78,6,17,4,5,0.7,0.6
2025-07-08T1000,1832A,113.3257,33.742,平顶山市,新华旅馆,,,36,37,29,20,,,72,70,14,14,,6,0.3,0.3
2025-07-08T1000,1833A,113.2919,33.737,平顶山市,规划设计院,,34,34,32,22,18,106,,78,78,13,13,8,8,0.6,0.6
2025-07-08T1000,1834A,113.182,33.774,平顶山市,平顶山工学院,,35,27,29,19,14,110,,80,80,10,12,7,8,0.5,0.4
2025-07-08T1000,3204A,113.3025,33.73,平顶山市,规划局,,39,39,34,18,12,117,,85,85,14,14,9,9,0.4,0.3
2025-07-08T1000,3594A,112.8867,33.9116,平顶山市,石龙区,,,31,32,19,17,109,,89,89,10,12,,11,0.6,0.5
2025-07-08T1000,2656A,106.6692,35.5461,平凉市,聚贤嘉苑,,41,41,36,15,9,33,,26,24,20,16,14,12,1.0,0.9
2025-07-08T1000,2657A,106.7021,35.5307,平凉市,博物馆,,39,36,31,7,8,8,,7,7,77,55,10,10,0.9,0.7
2025-07-08T1000,2347A,114.0997,27.5002,萍乡市,武功山,,24,15,18,15,20,75,,43,43,3,4,15,15,0.4,0.4
2025-07-08T1000,2348A,113.8385,27.6434,萍乡市,中医院,,41,41,41,24,25,107,,60,60,7,7,11,10,1.4,1
2025-07-08T1000,2349A,113.8493,27.6253,萍乡市,市政府车库,,49,,35,34,34,88,,48,48,8,10,9,9,0.7,0.6
2025-07-08T1000,2350A,113.8676,27.6435,萍乡市,市环保局,颗粒物(PM10),60,69,40,27,29,105,,54,54,11,12,8,8,1.6,1.1
2025-07-08T1000,2351A,113.866,27.6198,萍乡市,安源区政府,颗粒物(PM10),51,52,39,26,31,96,,50,50,6,6,8,7,1.1,0.7
2025-07-08T1000,2319A,119.0141,25.4325,莆田市,荔城区仓后路,颗粒物(PM10),57,64,39,30,21,104,,64,64,9,9,6,5,0.7,0.6
2025-07-08T1000,2320A,119.0015,25.4553,莆田市,莆田市监测站,,,,31,,19,,,46,40,,10,,5,,0.4
2025-07-08T1000,2321A,119.1119,25.4561,莆田市,涵江区六中,颗粒物(PM10),52,53,33,27,20,119,,66,66,11,11,3,4,0.5,0.4
2025-07-08T1000,2322A,119.1013,25.3215,莆田市,秀屿区政府,颗粒物(PM10),57,64,38,21,25,114,,78,78,10,8,4,4,0.6,0.5
2025-07-08T1000,2323A,118.981,25.4792,莆田市,东圳水库,,,,,,,,,,,,,,,,
2025-07-08T1000,2392A,115.0312,35.7636,濮阳市,环保局,,36,27,26,25,19,107,,89,89,9,9,4,4,0.6,0.5
2025-07-08T1000,2394A,115.0574,35.7609,濮阳市,油田运输公司,,44,44,37,28,20,106,,83,83,8,9,4,3,0.6,0.4
2025-07-08T1000,3021A,115,35.7668,濮阳市,濮水河管理处,,,,33,,22,,,80,80,10,12,4,4,0.5,0.4
2025-07-08T1000,4216A,115.0924,35.7686,濮阳市,任丘路479号,颗粒物(PM10),51,52,41,35,23,95,,77,77,10,10,6,6,0.5,0.4
2025-07-08T1000,2601A,100.98,22.7633,普洱市,市环保局,,26,,22,18,12,32,,26,26,4,4,4,4,0.5,0.4
2025-07-08T1000,2602A,100.9817,22.8322,普洱市,普洱第二中学,,24,24,20,8,11,33,,23,23,7,6,6,7,0.5,0.4
2025-07-08T1000,2262A,131.0518,45.8751,七台河市,新一中,,31,6,17,3,8,99,,46,46,10,17,10,9,0.7,0.7
2025-07-08T1000,3345A,131.0577,45.7879,七台河市,中波台,,23,20,11,7,8,72,,54,54,18,21,9,8,0.6,0.6
2025-07-08T1000,3637A,131.0176,45.7761,七台河市,人民广场,颗粒物(PM10),59,67,29,16,14,66,,50,50,15,18,15,13,0.4,0.4
2025-07-08T1000,3684A,130.8781,45.8222,七台河市,新建矿广场,,,,23,6,13,,,22,20,19,24,,10,0.5,0.4
2025-07-08T1000,1779A,123.9305,47.3636,齐齐哈尔市,安居小区,,30,15,20,6,7,93,,69,69,15,14,3,3,0.5,0.5
2025-07-08T1000,1780A,123.9488,47.3386,齐齐哈尔市,中心广场,,32,6,9,3,3,101,,72,72,10,11,7,7,0.4,0.3
2025-07-08T1000,1781A,123.9483,47.3227,齐齐哈尔市,农牧车辆厂,,30,27,23,7,7,95,,61,61,10,12,6,6,0.2,0.3
2025-07-08T1000,1783A,123.945,47.2988,齐齐哈尔市,市环境监测站,,,31,15,3,6,,,65,65,8,11,,5,0.2,0.2
2025-07-08T1000,3662A,123.6333,47.2075,齐齐哈尔市,富区青少年活动中心,,34,27,16,12,8,106,,70,70,9,10,4,6,0.3,0.3
2025-07-08T1000,2591A,107.9783,26.5747,黔东南苗族侗族自治州,市环境监测站,,25,21,20,17,16,80,,74,74,3,5,2,2,0.4,0.4
2025-07-08T1000,2881A,107.8908,26.5311,黔东南苗族侗族自治州,凯里学院,,27,22,22,16,15,86,,76,76,8,12,3,3,0.3,0.3
2025-07-08T1000,2593A,107.5228,26.2403,黔南布依族苗族自治州,小围寨,,22,14,13,9,10,68,,58,58,4,5,3,3,0.4,0.4
2025-07-08T1000,3538A,107.5175,26.2978,黔南布依族苗族自治州,沙坝,,24,24,18,14,10,63,,54,54,6,7,6,6,0.4,0.4
2025-07-08T1000,2589A,104.9022,25.0925,黔西南布依族苗族自治州,场坝街,,19,10,19,3,9,59,,53,53,6,6,6,6,0.3,0.3
2025-07-08T1000,2590A,104.8811,25.0992,黔西南布依族苗族自治州,坪东大道,,23,,18,16,12,54,,33,33,9,11,2,2,0.1,0.1
2025-07-08T1000,2502A,108.6236,21.9667,钦州市,市环保站,,41,41,17,22,5,29,,40,39,17,9,2,2,0.7,0.6
2025-07-08T1000,2503A,108.6549,21.9481,钦州市,沙埠小学,,,52,24,16,10,,,22,21,27,15,4,3,0.6,0.5
2025-07-08T1000,2504A,108.5989,21.7431,钦州市,港区一小,,29,29,24,11,7,26,,46,45,30,9,3,2,1.1,0.5
2025-07-08T1000,3404A,108.5959,21.9633,钦州市,北职校,,48,48,19,27,9,21,,41,36,22,8,6,4,0.6,0.5
2025-07-08T1000,1043A,119.7493,40.0116,秦皇岛市,第一关,,40,22,37,20,23,126,,88,88,5,35,4,6,0.3,0.3
2025-07-08T1000,1044A,119.5897,39.9499,秦皇岛市,监测站,,40,29,50,15,13,128,,97,93,11,20,4,6,0.3,0.5
2025-07-08T1000,1046A,119.5251,39.9041,秦皇岛市,建设大厦,,,,43,,19,119,,88,82,7,20,4,6,,0.5
2025-07-08T1000,3132A,119.610547,39.943889,秦皇岛市,文明里,,40,29,53,17,18,128,,105,101,4,14,4,5,0.2,0.3
2025-07-08T1000,4198A,119.5090,39.8253,秦皇岛市,北戴河轮滑馆,颗粒物(PM10),52,53,46,23,20,129,,113,113,12,10,2,3,0.5,0.6
2025-07-08T1000,1307A,120.6659,36.2403,青岛市,仰口,,20,12,17,3,8,64,,55,55,3,4,7,7,0.4,0.4
2025-07-08T1000,1310A,120.4134,36.0658,青岛市,市南区东部子站,,,,12,,6,,,48,47,2,2,8,8,0.2,0.2
2025-07-08T1000,1311A,120.3664,36.1032,青岛市,四方区子站,,19,7,15,3,10,59,,57,56,11,10,4,6,0.2,0.2
2025-07-08T1000,1312A,120.2994,36.054,青岛市,市南区西部子站,,15,14,18,7,8,46,,45,44,9,9,8,8,0.5,0.6
2025-07-08T1000,1313A,120.4581,36.0858,青岛市,崂山区子站,,18,6,11,3,5,55,,50,50,2,2,8,7,0.3,0.3
2025-07-08T1000,1315A,120.3999,36.3083,青岛市,城阳区子站,,19,9,25,3,11,59,,50,48,4,10,6,5,0.2,0.3
2025-07-08T1000,1966A,120.0405,35.8735,青岛市,黄岛区4号,,22,12,14,3,5,68,,59,58,3,6,9,9,0.3,0.3
2025-07-08T1000,3362A,120.5014,36.4034,青岛市,即墨2号,,19,8,17,3,8,58,,52,49,2,3,2,2,0.2,0.2
2025-07-08T1000,3642A,120.3503,36.0736,青岛市,市北区南部,,20,7,24,3,7,63,,56,56,5,9,6,6,0.4,0.4
2025-07-08T1000,3643A,120.3948,36.1805,青岛市,李沧区北部,,17,,13,3,12,52,,50,48,1,3,5,5,0.4,0.5
2025-07-08T1000,4290A,120.1969,35.9546,青岛市,珠江路669号,,,9,14,3,5,,,36,36,7,8,6,5,0.7,0.5
2025-07-08T1000,1702A,113.0426,23.691,清远市,环保大楼,颗粒物(PM10),56,62,71,27,30,102,,57,57,9,19,13,9,0.7,0.8
2025-07-08T1000,1703A,113.0208,23.7106,清远市,凤城街办,,36,32,45,25,29,91,,48,48,14,21,16,10,0.5,0.6
2025-07-08T1000,3025A,113.0477,23.6344,清远市,技师学院,,31,28,44,18,26,98,,55,55,8,15,8,11,0.5,0.5
2025-07-08T1000,3318A,112.9903,23.7403,清远市,清新太和,,50,44,45,35,30,92,,53,53,13,13,9,7,0.7,0.6
2025-07-08T1000,3455A,113.076,23.7198,清远市,清城东城,,36,36,44,21,28,89,,51,51,12,15,5,7,0.7,0.7
2025-07-08T1000,2661A,107.6325,35.7357,庆阳市,庆阳五中,,26,21,17,10,8,81,,80,78,7,7,7,6,0.4,0.4
2025-07-08T1000,2662A,107.6364,35.7067,庆阳市,市环保局,,27,22,18,10,6,84,,83,81,4,4,10,9,0.5,0.5
2025-07-08T1000,1916A,103.7897,25.5035,曲靖市,环境监测站,,20,20,20,11,11,31,,32,31,6,7,5,4,0.3,0.3
2025-07-08T1000,1917A,103.8,25.5364,曲靖市,烟厂办公区,,16,16,20,3,9,34,,39,36,4,5,3,4,0.4,0.3
2025-07-08T1000,3376A,103.7947,25.462,曲靖市,南苑二区,,11,11,18,7,9,34,,36,34,5,7,4,4,0.5,0.4
2025-07-08T1000,3377A,103.7444,25.5261,曲靖市,曲靖师范学院,,16,16,18,11,12,30,,33,30,7,7,8,6,0.4,0.3
2025-07-08T1000,1264A,118.8692,28.9398,衢州市,环保大楼,,,24,23,10,9,,,30,30,7,11,5,5,0.4,0.4
2025-07-08T1000,1265A,118.8709,28.9666,衢州市,实验学校,,22,22,20,13,10,69,,40,40,9,12,7,6,0.1,0.1
2025-07-08T1000,1266A,118.8621,28.9808,衢州市,衢州学院,,21,20,19,11,8,66,,39,39,8,12,4,4,0.3,0.3
2025-07-08T1000,1611A,118.5819,24.9117,泉州市,涂山街,颗粒物(PM10),58,66,48,36,27,122,,54,54,19,18,4,4,0.7,0.6
2025-07-08T1000,1612A,118.5972,24.8978,泉州市,津头埔,细颗粒物(PM2.5),53,49,49,37,28,125,,60,60,15,16,4,4,0.7,0.5
2025-07-08T1000,1613A,118.6663,24.9424,泉州市,万安,,46,46,43,29,22,97,,42,42,12,17,4,3,0.6,0.5
2025-07-08T1000,1614A,118.6117,24.9604,泉州市,清源山,,,,,,,,,,,,,,,,
2025-07-08T1000,3529A,118.6333,24.9264,泉州市,城华南路,,49,49,41,29,25,105,,51,51,8,12,4,5,0.6,0.6
2025-07-08T1000,2626A,88.8876,29.2718,日喀则市,日喀则监测站,,39,39,20,18,9,72,,66,60,21,12,14,14,0.4,0.3
2025-07-08T1000,3726A,88.8781,29.2426,日喀则市,林业技术推广中心,,25,25,18,10,7,78,,70,70,6,4,8,9,0.2,0.1
2025-07-08T1000,1659A,119.471,35.4209,日照市,监测站,,17,,15,10,10,52,,61,53,2,4,6,6,0.3,0.4
2025-07-08T1000,1660A,119.523,35.4216,日照市,市政府广场,,17,14,14,3,6,52,,61,52,5,3,4,5,0.5,0.6
2025-07-08T1000,1661A,119.5587,35.4044,日照市,港务局,,,,14,,15,,,64,55,6,3,,5,0.5,0.5
2025-07-08T1000,3507A,119.5328,35.4625,日照市,职业技术学院,,19,17,17,7,7,59,,59,53,10,9,8,4,0.4,0.5
2025-07-08T1000,3604A,119.3266,35.1044,日照市,岚山环保分局,,18,14,23,3,8,55,,54,47,8,13,7,7,0.6,0.6
2025-07-08T1000,1835A,111.1922,34.7752,三门峡市,市政府,,32,32,23,18,11,97,,100,98,12,7,5,4,0.6,0.4
2025-07-08T1000,1836A,111.1587,34.7942,三门峡市,开发区,,31,30,27,18,14,99,,105,101,13,12,7,8,0.4,0.2
2025-07-08T1000,1838A,111.143,34.7955,三门峡市,风景区,,,31,23,,14,94,,104,97,7,6,5,4,0.6,0.5
2025-07-08T1000,3039A,111.1911,34.7829,三门峡市,三门峡市第一小学,,40,40,25,13,14,97,,104,102,13,9,3,4,0.6,0.4
2025-07-08T1000,3598A,111.1,34.7167,三门峡市,富达温泉假日酒店,颗粒物(PM10),52,53,30,31,18,94,,100,93,7,8,8,8,0.7,0.6
2025-07-08T1000,2324A,117.6211,26.2625,三明市,三钢,,48,,27,33,20,83,,28,28,13,14,15,11,0.9,1
2025-07-08T1000,2325A,117.635,26.2714,三明市,三明二中,,39,32,21,27,15,84,,26,26,12,13,10,4,0.7,0.7
2025-07-08T1000,2326A,117.6028,26.2378,三明市,三元区政府,,45,35,25,31,16,85,,28,28,15,13,16,4,0.5,0.5
2025-07-08T1000,2327A,117.7275,26.3108,三明市,洋溪,,,,,,,,,,,,,,,,
2025-07-08T1000,1876A,109.5078,18.2489,三亚市,河东子站,,36,36,18,3,7,38,,21,21,12,10,2,2,0.6,0.5
2025-07-08T1000,1877A,109.4964,18.2681,三亚市,河西子站,,32,32,18,10,7,24,,12,12,20,9,2,2,0.5,0.4
2025-07-08T1000,3540A,109.7348,18.3443,三亚市,君悦子站,,29,29,18,8,7,48,,25,25,7,10,2,2,0.3,0.2
2025-07-08T1000,2624A,91.7608,29.2313,山南市,山南监测站,,27,27,18,13,11,66,,84,76,11,8,3,3,0.2,0.1
2025-07-08T1000,2625A,91.7706,29.2436,山南市,山南人民医院,,33,33,21,16,13,68,,94,84,11,6,4,4,0.2,0.1
2025-07-08T1000,1674A,116.6794,23.3667,汕头市,金平子站,,43,,33,30,23,105,,79,75,9,10,3,3,0.8,0.7
2025-07-08T1000,1675A,116.7244,23.3633,汕头市,龙湖子站,,31,31,35,20,23,97,,79,74,8,9,6,6,0.7,0.7
2025-07-08T1000,1676A,116.7258,23.2775,汕头市,濠江子站,,46,39,40,32,31,91,,73,69,5,7,4,5,0.8,0.8
2025-07-08T1000,1677A,116.7519,23.4714,汕头市,澄海子站,,50,50,41,34,25,119,,86,86,10,10,2,3,0.8,0.7
2025-07-08T1000,1678A,116.6092,23.2539,汕头市,潮阳子站,,29,24,32,17,22,91,,82,74,5,4,4,4,0.6,0.6
2025-07-08T1000,3444A,116.454,23.2684,汕头市,潮南峡山,,45,36,32,31,25,106,,68,67,7,6,6,7,0.7,0.6
2025-07-08T1000,3624A,116.4069,23.2533,汕头市,潮南子站,,42,42,36,26,22,104,,72,70,6,5,4,4,0.5,0.5
2025-07-08T1000,1693A,115.3653,22.775,汕尾市,市环保局,,22,22,22,9,12,64,,51,51,9,8,2,2,0.5,0.5
2025-07-08T1000,1694A,115.3706,22.7898,汕尾市,市政府,,22,20,26,10,17,68,,55,55,6,5,2,3,0.6,0.6
2025-07-08T1000,1695A,115.3622,22.7925,汕尾市,新城中学,,24,24,23,10,11,68,,54,54,5,6,3,3,0.5,0.5
2025-07-08T1000,2645A,109.9154,33.8715,商洛市,监测站,,28,28,18,9,10,28,,28,28,13,10,4,6,0.5,0.4
2025-07-08T1000,3045A,109.9643,33.8471,商洛市,商州区中学,,,41,26,7,10,,,16,15,,16,6,5,0.5,0.3
2025-07-08T1000,2408A,115.6702,34.4285,商丘市,环境监测站,颗粒物(PM10),60,69,35,18,21,93,,72,69,13,8,4,3,0.6,0.4
2025-07-08T1000,2409A,115.6458,34.4045,商丘市,粮食局,颗粒物(PM10),59,68,32,32,17,101,,79,75,11,6,2,2,0.7,0.5
2025-07-08T1000,2410A,115.6293,34.3948,商丘市,睢阳区环保局,,,62,38,25,17,,,78,71,9,5,4,2,,0.3
2025-07-08T1000,3171A,115.6071,34.4465,商丘市,梁园区档案局,颗粒物(PM10),55,59,30,23,17,95,,76,71,13,9,4,3,0.7,0.5
2025-07-08T1000,1141A,121.4,31.238,上海市,普陀,,23,23,15,3,3,46,,48,48,9,9,5,5,0.3,0.3
2025-07-08T1000,1142A,121.478,31.2036,上海市,十五厂,,24,24,17,3,5,48,,32,32,11,10,8,7,0.5,0.5
2025-07-08T1000,1143A,121.467,31.3008,上海市,虹口,,27,27,15,3,4,43,,30,30,7,9,9,9,0.7,0.7
2025-07-08T1000,1147A,121.425,31.2261,上海市,静安监测站,,21,21,14,6,5,48,,34,34,9,10,4,4,0.5,0.5
2025-07-08T1000,1148A,121.703,31.1907,上海市,浦东川沙,,24,24,15,3,4,46,,29,29,6,12,8,8,0.8,0.7
2025-07-08T1000,1149A,121.533,31.2284,上海市,浦东新区监测站,,19,19,13,3,2,48,,32,32,3,4,7,7,0.4,0.4
2025-07-08T1000,1150A,121.577,31.2071,上海市,浦东张江,,25,25,18,3,4,53,,37,37,6,9,6,6,0.7,0.6
2025-07-08T1000,3265A,121.4316,31.3322,上海市,宝山庙行,,15,14,11,3,4,46,,30,30,7,10,5,5,0.3,0.3
2025-07-08T1000,3266A,121.8791,31.4662,上海市,崇明上实东滩,,15,12,11,3,5,47,,36,36,3,6,2,2,0.6,0.6
2025-07-08T1000,3268A,121.3162,31.2838,上海市,嘉定南翔,,29,29,19,3,4,42,,30,30,7,8,7,7,0.4,0.4
2025-07-08T1000,3269A,121.3359,30.7456,上海市,金山新城,,40,40,23,6,6,55,,36,36,4,6,3,3,0.7,0.5
2025-07-08T1000,3270A,121.4996,31.0739,上海市,闵行浦江,,28,28,15,8,5,45,,27,27,5,7,4,4,0.7,0.6
2025-07-08T1000,3271A,121.2886,31.1663,上海市,青浦徐泾,,22,22,15,3,4,48,,32,32,6,7,6,6,0.4,0.4
2025-07-08T1000,3272A,121.2186,31.0378,上海市,松江图书馆,,19,19,12,7,4,46,,28,28,4,6,6,7,0.4,0.4
2025-07-08T1000,3273A,121.3902,31.2059,上海市,长宁仙霞,,20,20,14,3,3,45,,31,31,8,9,5,5,0.5,0.4
2025-07-08T1000,3274A,121.7965,31.0507,上海市,浦东惠南,,23,23,15,6,4,42,,29,29,8,9,9,9,0.7,0.6
2025-07-08T1000,3544A,121.4891,30.925,上海市,奉贤南桥新城,,19,19,15,7,5,55,,31,31,2,6,6,6,0.3,0.3
2025-07-08T1000,4183A,121.4174,31.16637,上海市,冠生园路458号,,23,23,10,9,6,39,,28,28,8,8,4,4,0.6,0.6
2025-07-08T1000,4205A,121.5419,31.2683,上海市,宁武路151号,,29,29,22,6,6,41,,28,28,15,16,7,7,0.4,0.5
2025-07-08T1000,2381A,118.005,28.4572,上饶市,百草园,,,,,,,,,,,,,,,,
2025-07-08T1000,2382A,117.9756,28.4436,上饶市,市监测站,,35,26,23,12,11,112,,55,55,14,14,2,3,0.5,0.4
2025-07-08T1000,2383A,117.9519,28.4628,上饶市,凤凰光学,,33,,16,19,12,103,,44,44,9,10,10,9,1.1,1
2025-07-08T1000,3685A,117.897,28.4315,上饶市,双创科技城,,36,21,29,18,13,113,,50,50,14,21,6,6,0.9,0.8
2025-07-08T1000,4211A,118.1904,28.4448,上饶市,裕丰大道,,,52,22,16,12,,,30,26,,9,,8,,0.5
2025-07-08T1000,1669A,113.5824,24.7733,韶关市,市八中,颗粒物(PM10),55,60,35,33,20,76,,28,28,26,15,34,11,0.7,0.6
2025-07-08T1000,1671A,113.5917,24.7972,韶关市,园林处,,42,37,29,29,21,74,,28,28,19,12,20,11,0.6,0.5
2025-07-08T1000,1673A,113.5971,24.6863,韶关市,曲江监测站,颗粒物(PM10),52,54,37,30,23,76,,25,25,28,22,14,10,0.9,0.7
2025-07-08T1000,2809A,113.6668,24.7756,韶关市,大学路288号,颗粒物(PM10),52,53,42,29,25,66,,24,24,20,15,20,13,0.9,0.7
2025-07-08T1000,3622A,113.5556,24.8082,韶关市,碧湖山庄,"颗粒物(PM10),细颗粒物(PM2.5)",52,53,37,36,29,88,,27,27,17,12,23,11,0.7,0.6
2025-07-08T1000,2462A,111.5239,27.3033,邵阳市,市水土所,,,,,,,,,,,,,,,,
2025-07-08T1000,2464A,111.5283,27.2442,邵阳市,市化工厂,细颗粒物(PM2.5),55,48,42,39,30,93,,40,40,14,13,8,7,0.5,0.6
2025-07-08T1000,2466A,111.4328,27.2272,邵阳市,市环保局,颗粒物(PM10),52,54,49,27,35,77,,32,32,12,13,12,11,0.7,0.8
2025-07-08T1000,4218A,111.4460,27.2472,邵阳市,北塔二期4-26地块,,,48,49,32,32,66,,24,24,,12,10,9,0.4,0.5
2025-07-08T1000,4219A,111.4739,27.2282,邵阳市,邵水西路287号,,46,44,45,32,28,41,,59,59,13,12,5,6,0.6,0.6
2025-07-08T1000,1247A,120.6053,29.9928,绍兴市,城东开发委,,,21,14,11,5,49,,30,30,,6,,4,0.3,0.3
