timepoint,stationcode,longitude,latitude,area,positionname,primarypollutant,aqi,pm10,pm10_24h,pm2_5,pm2_5_24h,o3,o3_24h,o3_8h,o3_8h_24h,no2,no2_24h,so2,so2_24h,co,co_24h
2022-07-26T21:00:00,1001A,116.3621,39.8784,北京市,万寿西宫,细颗粒物(PM2.5),73,74,39,53,24,162,133,156,153,19,14,3,2,0.7,0.5
2022-07-26T21:00:00,1002A,116.2202,40.2915,北京市,定陵(对照点),,49,49,37,23,20,207,108,169,160,8,7,3,3,0.6,0.5
2022-07-26T21:00:00,1003A,116.4174,39.9289,北京市,东四,细颗粒物(PM2.5),72,80,38,52,24,196,158,179,172,18,15,1,1,0.5,0.4
2022-07-26T21:00:00,1004A,116.4072,39.8863,北京市,天坛,细颗粒物(PM2.5),69,68,36,50,22,158,113,143,136,19,15,3,3,0.6,0.4
2022-07-26T21:00:00,1005A,116.462,39.9365,北京市,农展馆,细颗粒物(PM2.5),79,87,41,58,23,191,139,164,155,21,7,3,3,0.9,0.5
2022-07-26T21:00:00,1006A,116.3392,39.9295,北京市,官园,细颗粒物(PM2.5),60,58,42,43,26,203,158,193,184,21,18,3,2,0.7,0.3
2022-07-26T21:00:00,1007A,116.2878,39.9611,北京市,海淀万柳,颗粒物(PM10),53,55,44,35,25,175,135,168,162,25,23,1,1,0.5,0.4
2022-07-26T21:00:00,1008A,116.6636,40.135,北京市,顺义新城,颗粒物(PM10),56,62,71,34,41,159,90,132,118,15,14,3,2,0.6,0.6
2022-07-26T21:00:00,1009A,116.6275,40.3275,北京市,怀柔镇,,49,49,55,31,38,176,119,147,137,14,13,3,3,0.5,0.5
2022-07-26T21:00:00,1010A,116.2296,40.217,北京市,昌平镇,"颗粒物(PM10),细颗粒物(PM2.5)",54,58,43,38,27,230,109,188,169,13,14,1,1,0.6,0.5
2022-07-26T21:00:00,1011A,116.3966,39.9821,北京市,奥体中心,颗粒物(PM10),56,61,40,39,22,165,136,153,150,18,16,3,3,0.6,0.5
2022-07-26T21:00:00,1012A,116.184,39.9136,北京市,古城,颗粒物(PM10),57,63,50,36,25,165,143,160,158,18,18,3,3,0.5,0.4
2022-07-26T21:00:00,1015A,117.1444,39.1661,天津市,勤俭道,颗粒物(PM10),51,52,60,34,33,190,130,156,156,9,21,8,8,0.7,0.7
2022-07-26T21:00:00,1017A,117.237,39.1082,天津市,大直沽八号路,,49,49,59,23,32,182,115,146,146,9,17,8,8,0.7,0.7
2022-07-26T21:00:00,1018A,117.202,39.0927,天津市,前进道,,49,49,52,28,22,184,115,152,150,14,19,5,6,0.8,0.9
2022-07-26T21:00:00,1019A,117.1837,39.2133,天津市,淮河道,,,55,70,35,40,188,,151,151,16,22,7,8,0.9,0.8
2022-07-26T21:00:00,1021A,117.307,39.0877,天津市,跃进路,,49,49,70,22,34,187,127,148,146,16,26,6,7,0.5,0.7
2022-07-26T21:00:00,1023A,117.707,39.0343,天津市,第四大街,,29,29,65,18,42,127,73,107,103,35,35,5,5,0.6,0.8
2022-07-26T21:00:00,1024A,117.457,38.8394,天津市,永明路,颗粒物(PM10),51,51,65,34,42,191,139,161,161,5,16,5,9,0.6,0.8
2022-07-26T21:00:00,1026A,117.764,39.1587,天津市,汉北路,,33,19,44,12,33,164,105,124,122,6,9,6,6,0.6,0.7
2022-07-26T21:00:00,1027A,117.157,38.9194,天津市,团泊洼(对照点),,50,50,52,24,26,209,100,168,164,28,20,5,7,0.8,0.9
2022-07-26T21:00:00,1029A,114.4422,38.0444,石家庄市,职工医院,,46,46,24,30,21,174,120,160,156,15,13,5,5,0.3,0.3
2022-07-26T21:00:00,1030A,114.6063,38.0266,石家庄市,高新区,,50,50,32,35,23,169,126,157,153,15,17,1,2,0.6,0.5
2022-07-26T21:00:00,1031A,114.4898,38.1328,石家庄市,西北水源,,50,40,29,35,23,165,122,152,150,17,12,4,3,0.6,0.5
2022-07-26T21:00:00,1032A,114.4586,38.0058,石家庄市,西南高教,,44,44,30,25,18,166,104,152,144,20,16,3,3,0.6,0.6
2022-07-26T21:00:00,1033A,114.5331,38.0178,石家庄市,世纪公园,细颗粒物(PM2.5),57,54,42,40,28,160,116,145,142,12,11,4,3,0.5,0.4
2022-07-26T21:00:00,1034A,114.509,38.0457,石家庄市,人民会堂,细颗粒物(PM2.5),52,43,28,36,24,169,129,159,156,12,10,4,4,0.6,0.5
2022-07-26T21:00:00,1035A,114.3524,37.8911,石家庄市,封龙山(对照点),颗粒物(PM10),51,52,23,34,17,153,136,132,132,12,9,5,5,0.6,0.5
2022-07-26T21:00:00,1037A,118.131,39.6363,唐山市,雷达站,,,40,59,14,27,167,97,130,120,7,10,,3,0.2,0.7
2022-07-26T21:00:00,1038A,118.1725,39.6334,唐山市,物资局,,31,28,44,18,30,161,97,123,115,5,7,3,4,0.4,0.6
2022-07-26T21:00:00,1040A,118.1705,39.6506,唐山市,十二中,,30,27,40,21,23,155,91,118,110,14,15,1,2,0.4,0.5
2022-07-26T21:00:00,1041A,118.1869,39.622,唐山市,小山,,42,34,36,29,33,144,86,117,109,11,9,2,3,0.3,0.4
2022-07-26T21:00:00,1042A,119.5134,39.8207,秦皇岛市,北戴河环保局,,33,27,39,5,12,156,104,156,100,7,5,1,1,0.3,0.3
2022-07-26T21:00:00,1043A,119.7493,40.0116,秦皇岛市,第一关,,32,17,42,9,19,143,100,113,112,4,26,3,3,0.6,0.7
2022-07-26T21:00:00,1044A,119.5897,39.9499,秦皇岛市,监测站,,32,30,36,19,30,172,102,165,105,6,8,4,5,0.1,0.2
2022-07-26T21:00:00,1046A,119.5251,39.9041,秦皇岛市,建设大厦,,35,22,36,10,18,163,109,121,107,8,21,1,2,0.3,0.4
2022-07-26T21:00:00,1047A,114.5129,36.61763,邯郸市,环保局,,,,,,,,,,,,,,,,
2022-07-26T21:00:00,1048A,114.5302,36.6116,邯郸市,东污水处理厂,颗粒物(PM10),51,52,29,27,20,151,103,138,135,21,9,4,4,0.7,0.6
2022-07-26T21:00:00,1049A,114.4918,36.5713,邯郸市,矿院,,38,38,29,20,14,158,106,143,139,18,11,1,2,0.8,0.8
2022-07-26T21:00:00,1050A,114.484,36.6133,邯郸市,丛台公园,,47,47,38,23,18,160,117,143,141,12,10,3,4,0.5,0.6
2022-07-26T21:00:00,1051A,115.493,38.8632,保定市,游泳馆,,37,31,18,20,8,168,118,157,152,24,18,3,3,0.4,0.3
2022-07-26T21:00:00,1052A,115.5213,38.8959,保定市,华电二区,颗粒物(PM10),51,52,23,18,10,170,136,160,158,18,11,5,4,0.5,0.3
2022-07-26T21:00:00,1053A,115.4713,38.9108,保定市,接待中心,,40,40,22,9,8,176,123,166,161,19,15,5,5,0.7,0.6
2022-07-26T21:00:00,1054A,115.4612,38.8416,保定市,地表水厂,颗粒物(PM10),55,60,33,25,15,168,104,161,152,26,15,5,5,0.5,0.4
2022-07-26T21:00:00,1055A,115.4323,38.8697,保定市,胶片厂,,45,33,23,31,16,176,120,163,158,18,16,4,5,0.4,0.5
2022-07-26T21:00:00,1056A,115.5086,38.8639,保定市,监测站,,45,45,23,25,11,180,131,166,163,21,14,8,7,0.4,0.3
2022-07-26T21:00:00,1057A,114.8883,40.8336,张家口市,人民公园,,31,28,30,12,13,152,97,144,132,13,11,5,6,0.5,0.5
2022-07-26T21:00:00,1059A,114.8687,40.8042,张家口市,五金库,,25,17,31,15,18,144,77,138,118,31,15,7,8,0.4,0.4
2022-07-26T21:00:00,1060A,114.8902,40.762,张家口市,世纪豪园,,29,22,32,8,16,148,92,142,130,22,15,6,6,0.4,0.4
2022-07-26T21:00:00,1061A,114.8916,40.8661,张家口市,北泵房(对照点),,33,33,33,13,22,155,81,146,131,8,7,5,6,0.6,0.6
2022-07-26T21:00:00,1062A,117.9531,40.9081,承德市,铁路,颗粒物(PM10),51,51,64,30,43,144,111,140,133,21,20,4,4,0.6,0.7
2022-07-26T21:00:00,1063A,117.9392,40.9763,承德市,中国银行,,37,36,45,20,37,150,117,147,140,13,14,6,5,0.5,0.6
2022-07-26T21:00:00,1064A,117.9503,40.928,承德市,开发区,颗粒物(PM10),58,66,67,30,41,156,119,151,143,20,19,4,4,0.7,0.7
2022-07-26T21:00:00,1065A,117.8051,40.9655,承德市,文化中心,,45,41,49,31,40,194,134,156,149,6,8,6,7,0.5,0.6
2022-07-26T21:00:00,1066A,117.9268,41.0026,承德市,离宫(对照点),,48,34,49,33,36,147,97,143,133,10,9,1,2,0.6,0.6
2022-07-26T21:00:00,1067A,116.6708,39.5111,廊坊市,药材公司,细颗粒物(PM2.5),55,50,32,39,19,176,126,161,159,25,20,7,6,0.5,0.4
2022-07-26T21:00:00,1068A,116.7214,39.5589,廊坊市,开发区,细颗粒物(PM2.5),55,55,36,39,20,161,124,154,149,24,20,8,8,0.7,0.5
2022-07-26T21:00:00,1070A,116.7244,39.5269,廊坊市,北华航天学院,细颗粒物(PM2.5),68,78,46,49,25,167,117,155,149,24,19,6,6,0.6,0.4
2022-07-26T21:00:00,1071A,116.8842,38.2991,沧州市,沧县城建局,细颗粒物(PM2.5),55,56,51,39,19,184,135,166,165,12,21,6,6,0.4,0.5
2022-07-26T21:00:00,1072A,116.8584,38.3254,沧州市,电视转播站,细颗粒物(PM2.5),55,45,41,39,20,198,133,172,170,14,19,11,11,0.4,0.4
2022-07-26T21:00:00,1073A,116.8709,38.3228,沧州市,市环保局,颗粒物(PM10),54,57,52,33,20,193,134,175,173,19,21,6,8,0.4,0.3
2022-07-26T21:00:00,1074A,115.6838,37.7541,衡水市,电机北厂,颗粒物(PM10),56,61,24,23,15,154,104,138,136,21,9,7,6,0.6,0.3
2022-07-26T21:00:00,1075A,115.6303,37.7316,衡水市,市监测站,颗粒物(PM10),55,60,35,28,14,154,87,142,135,26,8,5,5,0.8,0.5
2022-07-26T21:00:00,1077A,114.4704,37.0886,邢台市,达活泉,,42,33,28,21,13,147,132,141,139,8,5,8,7,0.4,0.4
2022-07-26T21:00:00,1078A,114.5062,37.0349,邢台市,邢师高专,,41,41,25,20,15,140,106,135,130,10,9,6,6,0.4,0.3
2022-07-26T21:00:00,1079A,114.5237,37.0851,邢台市,路桥公司,,49,49,29,22,13,138,122,132,130,8,4,4,3,0.5,0.4
2022-07-26T21:00:00,1080A,114.4725,37.0719,邢台市,市环保局,,50,50,34,24,16,131,116,125,125,13,8,5,5,0.5,0.4
2022-07-26T21:00:00,1081A,112.5139,37.8873,太原市,尖草坪,"颗粒物(PM10),细颗粒物(PM2.5)",63,76,69,45,36,200,113,168,158,24,28,6,7,0.8,0.8
2022-07-26T21:00:00,1083A,112.434,38.0108,太原市,上兰(对照点),,,,,,,,,,,,,,,,
2022-07-26T21:00:00,1084A,112.469,37.7124,太原市,晋源,,33,28,41,12,23,164,104,150,140,13,23,10,11,0.4,0.6
2022-07-26T21:00:00,1085A,112.5583,37.7394,太原市,小店,,34,28,44,11,23,172,106,154,143,21,30,6,8,0.5,0.5
2022-07-26T21:00:00,1086A,112.5369,37.8692,太原市,桃园,颗粒物(PM10),56,61,62,38,32,196,103,165,155,28,28,6,8,0.9,0.8
2022-07-26T21:00:00,1087A,112.57,37.8195,太原市,坞城,,33,29,54,19,34,176,104,158,146,16,24,6,9,0.5,0.7
2022-07-26T21:00:00,1088A,112.549,37.9854,太原市,南寨,颗粒物(PM10),59,68,64,40,33,175,44,136,104,33,27,3,4,0.6,0.6
2022-07-26T21:00:00,1089A,112.4701,37.782,太原市,金胜,,,,,,,,,,,,,,,,
2022-07-26T21:00:00,1090A,111.6507,40.7517,呼和浩特市,呼市一监,,31,31,22,9,16,144,88,122,122,31,15,6,5,0.4,0.4
2022-07-26T21:00:00,1091A,111.6572,40.8033,呼和浩特市,小召,,34,24,23,8,17,145,108,122,120,22,18,6,6,0.4,0.4
2022-07-26T21:00:00,1094A,111.7516,40.8369,呼和浩特市,如意水处理厂,,34,20,29,11,14,141,106,126,126,24,16,6,7,0.4,0.4
2022-07-26T21:00:00,1095A,111.7276,40.8062,呼和浩特市,二十九中,,29,20,23,8,17,132,90,115,115,33,16,8,7,0.5,0.5
2022-07-26T21:00:00,1096A,111.5512,40.7866,呼和浩特市,工大金川校区,,27,22,33,10,17,138,84,116,116,32,17,5,6,0.5,0.5
2022-07-26T21:00:00,1097A,111.717,40.7612,呼和浩特市,化肥厂生活区,,,,32,,18,138,93,116,116,26,15,5,5,,0.5
2022-07-26T21:00:00,1098A,123.6836,41.9339,沈阳市,森林路(对照点),,,,,,,,,,,,,,,,
2022-07-26T21:00:00,1099A,123.505,41.7406,沈阳市,浑南东路,,39,39,45,25,30,202,79,180,165,39,18,7,11,0.9,1
2022-07-26T21:00:00,1100A,123.4231,41.6989,沈阳市,新秀街,颗粒物(PM10),51,52,49,25,29,178,27,162,133,90,28,6,9,0.7,1
2022-07-26T21:00:00,1102A,123.5903,41.8411,沈阳市,东陵路,颗粒物(PM10),54,58,49,29,25,187,89,167,151,25,13,10,12,0.9,0.7
2022-07-26T21:00:00,1103A,123.4264,41.8467,沈阳市,陵东街,,38,38,40,20,26,167,39,156,135,38,18,5,7,0.9,0.9
2022-07-26T21:00:00,1104A,123.4114,41.7653,沈阳市,文化路,,32,26,45,15,29,179,100,165,150,30,18,7,13,0.6,0.9
2022-07-26T21:00:00,1105A,123.4678,41.7867,沈阳市,小河沿,,38,38,47,21,26,178,108,158,146,17,21,6,12,0.8,1.1
2022-07-26T21:00:00,1106A,123.4017,41.7972,沈阳市,太原街,,40,40,46,22,29,177,91,162,150,52,23,5,11,0.6,0.7
2022-07-26T21:00:00,1108A,123.3783,41.9228,沈阳市,京沈街,,41,41,50,17,28,185,99,167,147,27,17,8,10,0.5,0.8
2022-07-26T21:00:00,1109A,121.612,38.9741,大连市,甘井子,,33,26,23,18,13,112,103,106,105,15,18,4,4,0.6,0.6
2022-07-26T21:00:00,1110A,121.565,38.9511,大连市,周水子,,25,25,23,9,13,91,42,83,71,12,11,5,6,0.5,0.5
2022-07-26T21:00:00,1111A,121.5637,38.8845,大连市,星海三站,,,,21,,15,106,,102,,,16,,6,,0.3
2022-07-26T21:00:00,1112A,121.6302,38.9117,大连市,青泥洼桥,,38,20,19,19,16,122,121,116,116,6,16,6,6,0.6,0.6
2022-07-26T21:00:00,1113A,121.6251,38.8638,大连市,傅家庄,,40,16,18,13,11,125,125,111,111,3,5,10,10,0.5,0.5
2022-07-26T21:00:00,1114A,121.5213,38.8661,大连市,七贤岭,,46,23,23,13,12,182,145,138,138,5,8,7,7,0.8,0.8
2022-07-26T21:00:00,1115A,121.2529,38.8061,大连市,旅顺,,31,17,22,12,13,128,99,106,106,3,10,6,6,0.6,0.6
2022-07-26T21:00:00,1116A,121.7485,39.1311,大连市,金州,,36,24,21,14,11,129,115,121,119,6,11,7,7,0.5,0.5
2022-07-26T21:00:00,1117A,121.7811,39.0496,大连市,开发区,,38,24,28,20,17,135,121,124,122,11,21,6,8,0.9,0.9
2022-07-26T21:00:00,1118A,121.9762,39.0631,大连市,双D港,,35,9,13,6,9,126,110,120,119,10,15,7,8,0.5,0.5
2022-07-26T21:00:00,1119A,125.3325,43.9166,长春市,食品厂,细颗粒物(PM2.5),53,39,55,37,34,150,94,140,128,28,23,3,3,0.4,0.7
2022-07-26T21:00:00,1120A,125.2863,43.9027,长春市,客车厂,,44,44,51,26,24,156,84,149,130,41,25,3,3,0.8,0.8
2022-07-26T21:00:00,1121A,125.2841,43.8463,长春市,邮电学院,,40,40,45,24,27,154,83,142,126,16,14,4,4,0.6,0.6
2022-07-26T21:00:00,1122A,125.3716,43.8772,长春市,劳动公园,,47,47,47,23,25,150,98,135,127,22,15,2,2,0.5,0.6
2022-07-26T21:00:00,1123A,125.3297,43.8805,长春市,园林处,细颗粒物(PM2.5),65,44,52,47,25,158,95,147,141,19,17,3,3,0.6,0.7
2022-07-26T21:00:00,1124A,125.4605,43.79,长春市,净月潭,,32,32,38,22,22,112,57,108,91,6,5,4,6,0.3,0.5
2022-07-26T21:00:00,1125A,125.7194,43.515,长春市,甩湾子(对照点),,,,,,,,,,,,,,,,
2022-07-26T21:00:00,1126A,125.3863,43.8447,长春市,经开区环卫处,,37,37,43,22,25,129,87,113,111,18,14,3,4,0.6,0.7
2022-07-26T21:00:00,1127A,125.245,43.7783,长春市,高新区管委会,,45,45,43,23,28,147,71,131,113,25,14,4,3,0.5,0.6
2022-07-26T21:00:00,1128A,125.1761,43.8325,长春市,岱山公园,颗粒物(PM10),53,56,57,24,27,153,45,146,116,67,28,5,5,0.5,0.6
2022-07-26T21:00:00,1129A,126.5422,45.755,哈尔滨市,岭北(对照点),细颗粒物(PM2.5),69,47,30,50,26,139,113,134,127,14,23,3,9,1.0,0.7
2022-07-26T21:00:00,1130A,126.561,45.8167,哈尔滨市,松北商大,颗粒物(PM10),57,64,43,38,20,138,89,125,114,17,26,5,5,1.0,0.9
2022-07-26T21:00:00,1131A,126.979,45.5419,哈尔滨市,阿城会宁,颗粒物(PM10),71,92,46,42,22,120,73,109,103,16,13,10,10,0.8,0.6
2022-07-26T21:00:00,1132A,126.599,45.7222,哈尔滨市,南岗学府路,细颗粒物(PM2.5),58,59,37,41,23,139,89,131,121,21,20,5,13,0.8,0.6
2022-07-26T21:00:00,1133A,126.689,45.7733,哈尔滨市,太平宏伟公园,颗粒物(PM10),92,133,70,34,20,137,90,126,117,20,32,9,12,0.7,0.6
2022-07-26T21:00:00,1134A,126.635,45.7667,哈尔滨市,道外承德广场,颗粒物(PM10),74,97,54,36,14,134,76,125,115,34,29,9,10,0.8,0.6
2022-07-26T21:00:00,1135A,126.685,45.7319,哈尔滨市,香坊红旗大街,颗粒物(PM10),77,103,56,28,14,131,77,125,110,36,34,9,11,0.9,0.6
2022-07-26T21:00:00,1136A,126.6411,45.7258,哈尔滨市,动力和平路,,,104,52,,,126,76,116,107,28,27,4,8,1.0,0.8
2022-07-26T21:00:00,1137A,126.593,45.7478,哈尔滨市,道里建国路,颗粒物(PM10),71,91,50,33,17,138,106,131,122,22,31,10,16,1.6,2.2
2022-07-26T21:00:00,1138A,126.615,45.61,哈尔滨市,平房东轻厂,颗粒物(PM10),72,94,42,34,16,115,81,107,99,11,11,2,3,0.8,0.7
2022-07-26T21:00:00,1139A,126.595,45.9855,哈尔滨市,呼兰师专,颗粒物(PM10),86,121,55,36,17,136,102,127,122,16,28,6,10,0.9,0.7
2022-07-26T21:00:00,1140A,126.6206,45.6842,哈尔滨市,省农科院,颗粒物(PM10),52,53,43,35,21,132,94,123,117,15,24,6,11,0.7,0.6
2022-07-26T21:00:00,1141A,121.4,31.238,上海市,普陀,,48,48,37,20,19,246,57,197,136,30,15,2,4,0.6,0.5
2022-07-26T21:00:00,1142A,121.478,31.2036,上海市,十五厂,颗粒物(PM10),59,68,38,25,24,182,20,156,106,65,22,1,2,0.7,0.5
2022-07-26T21:00:00,1143A,121.467,31.3008,上海市,虹口,颗粒物(PM10),53,56,42,18,18,213,34,176,117,49,18,6,3,0.8,0.3
2022-07-26T21:00:00,1144A,121.412,31.1654,上海市,徐汇上师大,,34,34,38,20,22,211,49,172,118,45,28,2,6,0.6,0.5
2022-07-26T21:00:00,1145A,121.536,31.2659,上海市,杨浦四漂,,44,44,34,23,23,193,18,171,112,83,18,9,4,1.0,0.6
2022-07-26T21:00:00,1146A,120.978,31.0935,上海市,青浦淀山湖(对照点),,,,,,,,,,,,,,,,
2022-07-26T21:00:00,1147A,121.425,31.2261,上海市,静安监测站,,44,44,39,22,22,207,46,169,118,48,23,3,3,0.5,0.5
2022-07-26T21:00:00,1148A,121.703,31.1907,上海市,浦东川沙,颗粒物(PM10),57,63,44,20,25,157,27,147,97,52,19,3,3,0.5,0.2
2022-07-26T21:00:00,1149A,121.533,31.2284,上海市,浦东新区监测站,颗粒物(PM10),54,58,41,16,21,190,11,166,109,76,20,7,5,1.1,0.6
2022-07-26T21:00:00,1150A,121.577,31.2071,上海市,浦东张江,,48,48,33,25,22,166,8,145,92,80,23,6,4,1.2,0.8
2022-07-26T21:00:00,1151A,118.8086,32.1065,南京市,迈皋桥,,24,24,31,5,9,126,37,84,64,22,23,2,2,0.5,0.4
2022-07-26T21:00:00,1152A,118.7538,32.0551,南京市,草场门,,17,12,22,5,8,119,54,84,72,19,21,4,2,0.7,0.5
2022-07-26T21:00:00,1153A,118.7794,32.0745,南京市,山西路,,24,24,29,9,16,146,51,99,80,21,16,7,4,0.7,0.3
2022-07-26T21:00:00,1154A,118.7752,32.0023,南京市,中华门,,19,19,25,5,6,126,50,92,73,18,20,3,3,1.2,1.1
2022-07-26T21:00:00,1155A,118.8109,32.0309,南京市,瑞金路,,18,18,28,7,11,134,53,98,80,17,15,10,4,1.2,0.5
2022-07-26T21:00:00,1156A,118.7997,32.0754,南京市,玄武湖,,22,22,24,10,14,133,42,88,69,26,21,3,4,1.5,0.8
2022-07-26T21:00:00,1157A,118.6414,32.0931,南京市,浦口,,14,14,25,5,8,98,40,82,68,12,18,3,3,0.4,0.5
2022-07-26T21:00:00,1158A,118.7356,31.9996,南京市,奥体中心,,19,14,27,5,10,126,58,91,74,16,20,2,4,0.3,0.4
2022-07-26T21:00:00,1159A,118.9125,32.1028,南京市,仙林大学城,,,9,29,7,12,139,,100,76,32,18,5,5,0.6,0.6
2022-07-26T21:00:00,1160A,120.561,31.2472,苏州市,上方山(对照点),,30,30,44,16,23,218,22,162,78,30,20,6,7,0.6,0.5
2022-07-26T21:00:00,1161A,120.628,31.2864,苏州市,南门,,,,,,,,,,,,,,,,
2022-07-26T21:00:00,1162A,120.591,31.3019,苏州市,彩香,,24,24,29,7,15,212,59,168,92,19,18,5,6,0.5,0.4
2022-07-26T21:00:00,1163A,120.596,31.3264,苏州市,轧钢厂,,18,17,29,8,15,197,55,148,78,22,21,6,6,0.4,0.4
2022-07-26T21:00:00,1164A,120.613,31.2703,苏州市,吴中区,,26,26,32,8,14,233,38,166,91,40,27,5,5,0.5,0.4
2022-07-26T21:00:00,1165A,120.543,31.2994,苏州市,苏州新区,,20,13,28,7,19,204,62,159,103,27,14,6,7,0.6,0.6
2022-07-26T21:00:00,1166A,120.669,31.3097,苏州市,苏州工业园区,,27,27,34,11,16,192,29,144,80,44,22,7,7,0.8,0.7
2022-07-26T21:00:00,1167A,120.641,31.3708,苏州市,相城区,,21,20,30,14,20,218,36,162,85,41,24,5,7,0.4,0.5
2022-07-26T21:00:00,1168A,120.9098,31.9663,南通市,狼山街道,,,,33,17,13,289,24,206,138,39,16,,8,0.5,0.6
2022-07-26T21:00:00,1169A,120.86,32.0005,南通市,虹桥,,20,20,35,5,22,296,54,210,144,28,19,10,11,0.5,0.6
2022-07-26T21:00:00,1170A,120.87,32.02,南通市,城中,,21,21,36,12,22,255,54,185,130,24,18,7,8,0.6,0.6
2022-07-26T21:00:00,1171A,120.94,31.93,南通市,星湖花园,,20,20,33,7,16,292,54,208,141,23,16,6,7,0.6,0.7
2022-07-26T21:00:00,1172A,120.81,32.0417,南通市,紫琅学院,,14,14,39,7,16,284,40,198,131,28,13,2,3,0.6,0.7
2022-07-26T21:00:00,1173A,119.176,34.5885,连云港市,市环境监测站,,27,22,27,12,14,112,85,106,99,7,7,1,1,0.5,0.5
2022-07-26T21:00:00,1177A,117.179,34.2761,徐州市,黄河新村,,41,41,32,27,18,167,115,149,148,22,14,6,6,0.7,0.6
2022-07-26T21:00:00,1178A,117.1918,34.2384,徐州市,淮塔,,41,41,28,22,21,153,81,133,127,24,15,4,5,0.4,0.4
2022-07-26T21:00:00,1180A,117.256,34.2153,徐州市,新城区,,,,36,,16,151,,138,138,,11,,6,,0.6
2022-07-26T21:00:00,1181A,117.244,34.2911,徐州市,桃园路,,41,41,38,14,13,176,108,153,150,16,13,9,10,0.8,0.8
2022-07-26T21:00:00,1182A,117.2933,34.2778,徐州市,农科院,,27,27,28,14,12,138,72,125,120,37,17,3,3,0.4,0.5
2022-07-26T21:00:00,1186A,119.389,32.3761,扬州市,邗江监测站,,23,14,42,9,20,217,71,127,62,8,15,5,6,0.7,0.8
2022-07-26T21:00:00,1188A,120.269,31.4867,无锡市,雪浪,,25,9,27,0,12,207,79,150,101,2,5,11,11,0.5,0.5
2022-07-26T21:00:00,1189A,120.275,31.6219,无锡市,黄巷,,25,16,37,7,16,197,78,152,91,20,21,9,8,0.6,0.6
2022-07-26T21:00:00,1190A,120.294,31.56,无锡市,曹张,,25,17,28,12,14,179,78,146,93,14,15,6,6,0.7,0.7
2022-07-26T21:00:00,1191A,120.242,31.5031,无锡市,漆塘,,27,12,24,0,15,205,86,155,101,6,9,5,5,0.6,0.6
2022-07-26T21:00:00,1192A,120.3489,31.5863,无锡市,东亭,,23,14,32,5,17,194,73,148,91,16,19,8,9,0.5,0.6
2022-07-26T21:00:00,1193A,120.354,31.5475,无锡市,旺庄,,26,21,32,7,16,215,83,165,106,16,20,11,11,0.7,0.7
2022-07-26T21:00:00,1194A,120.245,31.5631,无锡市,荣巷,,21,19,26,9,18,180,65,142,89,8,6,13,13,0.7,0.6
2022-07-26T21:00:00,1195A,120.299,31.6817,无锡市,堰桥,,29,29,37,7,18,213,45,152,84,30,18,7,7,0.8,0.4
2022-07-26T21:00:00,1196A,119.9633,31.762,常州市,市监测站,,23,15,28,0,11,189,73,142,90,16,18,7,7,0.5,0.6
2022-07-26T21:00:00,1200A,119.9468,31.7069,常州市,武进监测站,,25,22,27,11,18,213,78,152,96,14,13,10,8,0.9,0.7
2022-07-26T21:00:00,1201A,119.9255,31.9087,常州市,安家,,25,23,28,17,23,234,63,160,87,16,18,8,8,0.7,0.8
2022-07-26T21:00:00,1203A,119.6707,32.1875,镇江市,新区办事处,,25,25,36,15,18,285,48,171,84,30,24,4,4,0.8,0.9
2022-07-26T21:00:00,1204A,119.4974,32.1968,镇江市,职教中心,,20,15,30,5,16,208,64,140,76,17,19,4,6,0.5,0.7
2022-07-26T21:00:00,1205A,119.4303,32.1328,镇江市,丹徒区监测站,,21,14,30,9,19,194,66,134,79,15,18,3,4,0.6,0.7
2022-07-26T21:00:00,1206A,119.905,32.4878,泰州市,公园路,,20,12,31,9,23,198,62,125,87,8,10,6,7,0.6,0.8
2022-07-26T21:00:00,1207A,119.9189,32.4625,泰州市,莲花,,18,10,31,12,27,200,52,123,85,10,10,8,9,0.7,0.8
2022-07-26T21:00:00,1209A,119.888,32.4639,泰州市,留学生创业园,,21,17,34,10,23,217,67,140,96,11,12,6,8,0.6,0.8
2022-07-26T21:00:00,1210A,119.036,33.5981,淮安市,钵池山,,22,22,23,12,18,122,56,115,79,17,10,8,8,0.8,0.8
2022-07-26T21:00:00,1211A,119.007,33.575,淮安市,北京南路,,23,22,25,16,20,121,35,115,73,32,14,6,6,0.5,0.6
2022-07-26T21:00:00,1212A,118.989,33.6067,淮安市,市监测站,,19,19,29,11,17,125,46,117,74,34,15,6,6,0.8,0.8
2022-07-26T21:00:00,1213A,119.135,33.5039,淮安市,楚州区监测站,,20,17,23,14,12,113,49,105,66,18,10,6,7,0.6,0.6
2022-07-26T21:00:00,1214A,119.0186,33.6297,淮安市,淮阴区监测站,,26,23,28,18,19,130,49,114,78,28,12,7,7,0.7,0.7
2022-07-26T21:00:00,1215A,120.118,33.4022,盐城市,盐城电厂,,31,7,26,12,14,143,99,124,84,11,11,4,4,0.4,0.4
2022-07-26T21:00:00,1216A,120.156,33.3942,盐城市,市监测站,,32,11,16,5,8,137,102,118,83,7,9,2,7,0.5,0.3
2022-07-26T21:00:00,1218A,120.2144,33.38,盐城市,开发区管委会,,30,5,20,1,13,133,95,122,80,12,11,6,7,0.3,0.4
2022-07-26T21:00:00,1220A,118.293,33.9528,宿迁市,宿迁学院,,30,26,25,21,18,135,64,111,101,20,9,3,3,0.6,0.6
2022-07-26T21:00:00,1221A,118.2442,33.9592,宿迁市,宿迁中学,,27,27,25,18,16,126,72,104,97,16,10,2,2,0.7,0.7
2022-07-26T21:00:00,1223A,120.2072,30.2111,杭州市,滨江,,31,31,27,14,13,169,38,117,84,37,20,5,5,0.5,0.6
2022-07-26T21:00:00,1224A,120.0633,30.2747,杭州市,西溪,,35,35,24,16,12,130,21,87,48,27,14,8,8,0.6,0.5
2022-07-26T21:00:00,1225A,119.026,29.635,杭州市,千岛湖(对照点),,,,,,,,,,,,,,,,
2022-07-26T21:00:00,1226A,120.3461,30.3153,杭州市,下沙,,37,37,30,16,16,178,27,131,75,48,23,6,5,0.5,0.6
2022-07-26T21:00:00,1227A,120.1269,30.2456,杭州市,卧龙桥,,28,28,24,19,13,154,10,95,48,24,14,4,4,0.7,0.7
2022-07-26T21:00:00,1228A,120.1903,30.2692,杭州市,浙江农大,,33,33,24,15,13,181,26,116,71,44,17,4,4,0.6,0.7
2022-07-26T21:00:00,1229A,120.157,30.2897,杭州市,朝晖五区,,,,,,,,,,,,,,,,
2022-07-26T21:00:00,1230A,120.1197,30.3119,杭州市,和睦小学,,36,36,28,11,14,152,34,108,65,44,22,6,6,0.7,0.7
2022-07-26T21:00:00,1231A,120.3019,30.4183,杭州市,临平镇,,37,37,30,16,12,196,50,132,83,26,22,4,3,0.6,0.6
2022-07-26T21:00:00,1232A,120.2697,30.1819,杭州市,城厢镇,,38,38,32,20,17,176,33,126,86,38,19,4,6,0.6,0.7
2022-07-26T21:00:00,1233A,120.0883,30.1808,杭州市,云栖,,29,29,24,11,11,166,21,107,61,23,12,6,6,0.5,0.5
2022-07-26T21:00:00,1234A,121.8358,29.911,宁波市,区环保大楼,,31,28,23,16,16,125,19,116,91,61,19,7,8,0.9,0.8
2022-07-26T21:00:00,1235A,121.56,29.82,宁波市,万里学院,,37,37,27,16,13,149,66,138,116,21,11,12,9,0.8,0.7
2022-07-26T21:00:00,1236A,121.713,29.9572,宁波市,龙赛医院,,20,20,23,14,14,154,47,135,112,33,10,5,4,0.6,0.5
2022-07-26T21:00:00,1239A,121.633,29.7733,宁波市,钱湖水厂,,30,30,18,18,15,132,52,114,99,21,8,7,6,0.7,0.7
2022-07-26T21:00:00,1240A,121.5856,29.8635,宁波市,太古小学,,29,24,20,20,15,143,59,127,107,25,11,13,8,0.8,0.8
2022-07-26T21:00:00,1241A,121.524,29.8674,宁波市,市环境监测中心,,32,32,24,17,10,145,54,127,104,23,14,10,3,0.6,0.6
2022-07-26T21:00:00,1242A,120.634,28.0089,温州市,瓯海,颗粒物(PM10),60,69,41,39,22,190,113,138,106,15,25,6,6,0.8,0.5
2022-07-26T21:00:00,1243A,120.6748,27.9939,温州市,南浦,细颗粒物(PM2.5),67,82,51,48,24,187,122,138,105,8,20,5,5,0.7,0.5
2022-07-26T21:00:00,1244A,120.76,27.9747,温州市,龙湾,,,79,48,36,22,159,,108,94,11,16,6,6,0.6,0.6
2022-07-26T21:00:00,1245A,120.6709,28.0167,温州市,市站,细颗粒物(PM2.5),74,67,46,54,25,188,125,131,107,14,24,5,6,0.7,0.5
2022-07-26T21:00:00,1246A,120.598,30.0911,绍兴市,袍江站,,,,,,,,,,,,,,,,
2022-07-26T21:00:00,1247A,120.6053,29.9928,绍兴市,城东开发委,,35,35,28,22,18,142,46,117,91,27,11,8,5,0.5,0.5
2022-07-26T21:00:00,1250A,120.0751,30.8669,湖州市,城西水厂,,19,19,26,6,10,192,45,124,51,27,31,5,5,0.5,0.5
2022-07-26T21:00:00,1252A,120.7436,30.778,嘉兴市,清河小学,,25,25,29,13,16,213,47,150,97,28,18,4,5,0.7,0.7
2022-07-26T21:00:00,1253A,120.726,30.7478,嘉兴市,嘉兴学院,,,30,32,13,22,214,,146,100,22,17,4,3,0.4,0.4
2022-07-26T21:00:00,1255A,121.273,28.6459,台州市,黄岩环保大楼,,22,16,33,14,17,145,69,121,106,11,8,9,7,0.2,0.3
2022-07-26T21:00:00,1256A,121.419,28.6542,台州市,台州环保大楼,,32,32,35,14,19,117,49,105,79,13,9,4,4,0.4,0.4
2022-07-26T21:00:00,1257A,121.377,28.5773,台州市,路桥田洋王,,36,36,34,15,20,117,62,109,92,16,11,7,4,0.5,0.4
2022-07-26T21:00:00,1258A,122.122,30.0203,舟山市,定海檀枫,,34,34,24,14,15,108,52,94,76,61,15,20,3,0.6,0.7
2022-07-26T21:00:00,1259A,122.3094,29.9558,舟山市,普陀东港,,21,21,23,10,15,92,62,78,68,12,18,3,3,0.4,0.4
2022-07-26T21:00:00,1260A,122.19,29.9944,舟山市,临城新区,,28,28,23,11,13,100,56,93,80,18,18,3,3,0.4,0.4
2022-07-26T21:00:00,1261A,119.649,29.1131,金华市,四中(停运161031),,,,,,,,,,,,,,,,
2022-07-26T21:00:00,1262A,119.647,29.077,金华市,十五中,,33,21,41,23,25,177,78,139,100,15,20,4,5,0.4,0.4
2022-07-26T21:00:00,1263A,119.686,29.1029,金华市,监测站,,37,37,44,17,21,174,64,141,104,21,18,4,12,0.5,0.5
2022-07-26T21:00:00,1264A,118.8692,28.9398,衢州市,环保大楼,,30,26,42,21,22,163,55,117,78,15,15,2,7,0.4,0.5
2022-07-26T21:00:00,1265A,118.8709,28.9666,衢州市,实验学校,,38,38,36,10,18,161,38,112,70,26,18,5,7,0.3,0.4
2022-07-26T21:00:00,1266A,118.8621,28.9808,衢州市,衢州学院,,39,39,38,22,22,176,22,120,70,40,19,2,2,0.4,0.5
2022-07-26T21:00:00,1267A,119.914,28.4514,丽水市,监测站大楼,,37,37,32,17,19,160,39,132,99,27,9,10,5,0.5,0.3
2022-07-26T21:00:00,1268A,119.93,28.4586,丽水市,莲都小学,,38,38,38,21,20,154,63,132,108,14,9,6,6,0.4,0.4
2022-07-26T21:00:00,1269A,119.879,28.4231,丽水市,余庄前,,33,33,34,18,18,184,46,152,107,17,14,5,5,0.4,0.4
2022-07-26T21:00:00,1270A,117.1959,31.7848,合肥市,明珠广场,,27,19,24,7,9,118,86,99,99,28,24,5,5,0.6,0.6
2022-07-26T21:00:00,1271A,117.3072,31.8764,合肥市,三里街,,,,28,2,6,105,74,87,87,21,24,9,9,0.6,0.6
2022-07-26T21:00:00,1272A,117.2588,31.8707,合肥市,琥珀山庄,,34,34,24,14,11,118,77,98,98,22,16,6,7,0.7,0.6
2022-07-26T21:00:00,1273A,117.1604,31.9052,合肥市,董铺水库(对照点),,24,24,24,2,5,98,67,86,86,15,12,5,9,0.6,0.5
2022-07-26T21:00:00,1274A,117.25,31.8571,合肥市,长江中路,,39,39,28,22,14,118,78,98,98,22,15,5,5,0.7,0.6
2022-07-26T21:00:00,1275A,117.266,31.9436,合肥市,庐阳区,,24,24,28,9,12,117,67,93,93,21,16,5,6,0.7,0.7
2022-07-26T21:00:00,1276A,117.336,31.8586,合肥市,瑶海区,,29,29,34,6,12,107,82,91,91,17,24,8,9,0.4,0.3
2022-07-26T21:00:00,1277A,117.3027,31.7964,合肥市,包河区,,24,24,23,2,10,114,60,97,97,40,22,12,13,0.5,0.5
2022-07-26T21:00:00,1278A,117.2776,31.7385,合肥市,滨湖新区,,30,12,25,2,8,122,94,103,103,22,17,8,8,0.6,0.6
2022-07-26T21:00:00,1279A,117.1318,31.8403,合肥市,高新区,,24,22,22,9,9,114,76,100,100,30,14,2,2,0.8,0.6
2022-07-26T21:00:00,1280A,119.3903,26.0543,福州市,鼓山(对照点),,,,,,,,,,,,,,,,
2022-07-26T21:00:00,1282A,119.2681,26.0504,福州市,师大,颗粒物(PM10),52,53,55,14,28,201,88,179,160,20,13,4,3,0.3,0.4
2022-07-26T21:00:00,1283A,119.2984,26.1028,福州市,五四北路,,43,43,50,28,28,191,99,176,158,19,17,4,3,0.4,0.5
2022-07-26T21:00:00,1284A,119.2648,26.0768,福州市,杨桥西路,颗粒物(PM10),52,54,60,23,29,193,100,174,159,17,13,5,3,0.3,0.3
2022-07-26T21:00:00,1285A,119.317,26.0746,福州市,紫阳,,38,38,57,19,30,182,82,165,146,18,13,4,4,0.5,0.5
2022-07-26T21:00:00,1286A,118.1608,24.8169,厦门市,溪东(对照点),,,,,,,,,,,,,,,,
2022-07-26T21:00:00,1287A,118.1514,24.4767,厦门市,洪文,,18,15,23,11,15,92,56,80,58,11,15,1,3,0.2,0.3
2022-07-26T21:00:00,1288A,118.0661,24.4444,厦门市,鼓浪屿,,15,14,22,8,14,80,46,73,65,16,15,3,4,0.5,0.6
2022-07-26T21:00:00,1290A,115.8931,28.6843,南昌市,省外办,颗粒物(PM10),53,55,61,19,22,162,119,146,143,15,30,9,12,0.8,0.6
2022-07-26T21:00:00,1291A,115.8886,28.7003,南昌市,省林业公司,,48,48,61,14,19,157,117,143,140,16,37,5,13,0.7,0.8
2022-07-26T21:00:00,1292A,115.8126,28.7442,南昌市,林科所,,41,41,39,27,21,163,89,144,135,16,15,4,7,0.7,0.6
2022-07-26T21:00:00,1294A,115.8518,28.687,南昌市,建工学校,颗粒物(PM10),55,60,54,34,22,156,100,140,134,20,28,4,4,0.8,0.6
2022-07-26T21:00:00,1295A,115.8921,28.6424,南昌市,象湖,颗粒物(PM10),59,68,68,15,21,162,116,143,138,9,32,3,8,0.7,0.7
2022-07-26T21:00:00,1296A,115.7423,28.7996,南昌市,武术学校(对照点),,35,31,37,24,19,100,18,70,60,6,5,9,4,0.7,0.7
2022-07-26T21:00:00,1298A,115.9314,28.6842,南昌市,省站,颗粒物(PM10),62,73,56,29,28,157,111,142,137,9,22,6,12,0.8,0.8
2022-07-26T21:00:00,1299A,116.9862,36.6114,济南市,科干所,,29,19,35,12,24,146,91,136,121,13,16,2,2,0.6,0.7
2022-07-26T21:00:00,1300A,116.9376,36.665,济南市,农科所,,34,34,43,12,21,128,55,120,98,35,23,4,4,0.6,0.5
2022-07-26T21:00:00,1301A,117.1265,36.6734,济南市,开发区,,24,22,39,12,24,168,74,139,116,22,20,2,2,0.6,0.7
2022-07-26T21:00:00,1303A,117.0624,36.6868,济南市,省种子仓库,,29,29,46,14,24,159,79,139,122,18,20,1,8,0.5,0.6
2022-07-26T21:00:00,1304A,116.9489,36.6447,济南市,机床二厂,,39,39,54,17,21,162,70,142,127,30,19,3,3,0.8,0.6
2022-07-26T21:00:00,1305A,117.0495,36.663,济南市,市监测站,,24,24,40,11,24,164,76,138,120,21,18,4,5,0.6,0.7
2022-07-26T21:00:00,1306A,116.7675,36.5484,济南市,长清党校,,32,27,35,12,25,156,101,139,132,17,15,5,5,0.7,0.7
2022-07-26T21:00:00,1307A,120.6659,36.2403,青岛市,仰口(对照点),,,,,,,,,,,,,,,,
2022-07-26T21:00:00,1308A,120.3905,36.1851,青岛市,李沧区子站,,,,,,,,,,,,,,,,
2022-07-26T21:00:00,1309A,120.3471,36.0699,青岛市,市北区子站,,,,,,,,,,,,,,,,
2022-07-26T21:00:00,1310A,120.4134,36.0658,青岛市,市南区东部子站,,23,12,13,7,7,92,71,84,76,7,10,6,6,0.4,0.4
2022-07-26T21:00:00,1311A,120.3664,36.1032,青岛市,四方区子站,,21,14,12,5,7,87,65,87,68,9,11,4,5,0.5,0.5
2022-07-26T21:00:00,1312A,120.2994,36.054,青岛市,市南区西部子站,,25,14,15,5,5,101,78,95,82,9,13,5,6,0.4,0.5
2022-07-26T21:00:00,1313A,120.4581,36.0858,青岛市,崂山区子站,,27,24,14,5,4,104,86,98,89,9,13,5,5,0.2,0.2
2022-07-26T21:00:00,1314A,120.1983,35.9608,青岛市,黄岛区子站,,27,7,13,7,9,114,84,108,90,10,11,4,4,0.5,0.5
2022-07-26T21:00:00,1315A,120.3999,36.3083,青岛市,城阳区子站,,26,15,16,2,9,105,81,88,70,7,9,4,4,0.5,0.5
2022-07-26T21:00:00,1316A,113.69031,34.76122,郑州市,烟厂,细颗粒物(PM2.5),65,38,25,47,19,147,133,141,139,11,14,3,4,0.6,0.6
2022-07-26T21:00:00,1317A,113.65724,34.77134,郑州市,郑纺机,,,46,27,,,145,123,140,137,17,13,5,5,0.4,0.3
2022-07-26T21:00:00,1318A,113.67526,34.80246,郑州市,银行学校,,50,50,22,35,13,145,126,140,138,15,12,3,3,0.6,0.5
2022-07-26T21:00:00,1319A,113.56746,34.81334,郑州市,供水公司,,,47,27,32,12,160,135,153,149,8,9,5,5,,0.2
2022-07-26T21:00:00,1320A,113.7329,34.7178,郑州市,经开区管委,,49,49,22,30,15,147,125,141,138,15,11,2,1,0.6,0.5
2022-07-26T21:00:00,1321A,113.73961,34.77172,郑州市,四十七中,细颗粒物(PM2.5),87,47,33,64,36,140,122,136,134,20,18,4,5,0.2,0.3
2022-07-26T21:00:00,1322A,113.60532,34.74838,郑州市,市监测站,,,60,26,34,14,162,,153,150,14,14,3,4,0.6,0.5
2022-07-26T21:00:00,1323A,113.64164,34.7525,郑州市,河医大,颗粒物(PM10),51,51,26,24,11,143,116,138,133,24,19,2,3,0.7,0.6
2022-07-26T21:00:00,1324A,113.51488,34.91089,郑州市,岗李水库(对照点),,,,,,,,,,,,,,,,
2022-07-26T21:00:00,1325A,114.3677,30.5584,武汉市,东湖梨园,,30,26,34,12,15,184,95,155,150,13,16,10,7,0.7,0.8
2022-07-26T21:00:00,1326A,114.2529,30.558,武汉市,汉阳月湖,,39,39,33,9,12,182,96,162,156,29,27,5,6,0.6,0.6
2022-07-26T21:00:00,1327A,114.282,30.6189,武汉市,汉口花桥,,42,42,38,24,19,187,76,166,155,43,26,12,8,1.3,0.7
2022-07-26T21:00:00,1328A,114.3025,30.5332,武汉市,武昌紫阳,,35,35,33,13,14,170,95,145,140,22,19,3,3,0.7,0.7
2022-07-26T21:00:00,1329A,114.3646,30.6217,武汉市,青山钢花,,50,50,47,24,24,184,59,159,146,54,29,15,7,2.2,1.1
2022-07-26T21:00:00,1330A,114.1566,30.4825,武汉市,沌口新区,,44,44,38,14,14,151,109,143,140,35,28,6,7,0.8,0.7
2022-07-26T21:00:00,1331A,114.3014,30.5944,武汉市,汉口江滩,,34,34,40,15,19,203,79,167,156,40,41,7,6,1.1,0.8
2022-07-26T21:00:00,1333A,114.135,30.6319,武汉市,吴家山,,45,45,42,20,18,228,98,172,167,34,27,6,4,1.2,0.9
2022-07-26T21:00:00,1334A,113.8454,30.2917,武汉市,沉湖七壕(对照点),,,28,27,,26,125,85,114,109,21,18,10,8,1.0,0.8
2022-07-26T21:00:00,1335A,113.0833,28.2325,长沙市,经开区环保局,,38,38,31,18,23,147,89,126,118,13,11,5,6,0.6,0.6
2022-07-26T21:00:00,1336A,112.8872,28.2189,长沙市,高开区环保局,,28,14,18,15,13,111,87,108,102,10,10,8,9,0.2,0.2
2022-07-26T21:00:00,1337A,113.0792,28.2053,长沙市,马坡岭,,34,34,40,21,25,155,82,132,124,19,15,10,10,0.8,0.7
2022-07-26T21:00:00,1338A,112.9394,28.19,长沙市,湖南师范大学,,36,36,30,12,14,106,65,101,91,12,8,2,4,0.4,0.4
2022-07-26T21:00:00,1339A,113.0178,28.1322,长沙市,雨花区环保局,,35,18,25,13,18,130,111,120,119,8,13,6,7,0.3,0.3
2022-07-26T21:00:00,1340A,112.9792,28.2597,长沙市,伍家岭,,30,21,31,12,16,122,94,116,106,16,15,3,4,0.7,0.6
2022-07-26T21:00:00,1341A,113.0014,28.1944,长沙市,火车新站,,35,30,30,24,21,112,93,107,100,15,13,8,9,0.2,0.2
2022-07-26T21:00:00,1342A,112.9844,28.1178,长沙市,天心区环保局,,,35,27,12,16,112,,108,104,17,15,4,5,0.4,0.5
2022-07-26T21:00:00,1343A,112.8908,28.1308,长沙市,湖南中医药大学,,31,31,39,17,18,113,47,107,91,37,22,3,4,0.2,0.2
2022-07-26T21:00:00,1344A,112.9581,28.3611,长沙市,沙坪(对照点),,26,17,30,18,23,123,57,113,99,14,13,4,5,0.5,0.5
2022-07-26T21:00:00,1345A,113.2347,23.1423,广州市,广雅中学,,39,39,50,18,27,244,118,226,209,22,20,5,5,0.7,0.8
2022-07-26T21:00:00,1346A,113.2612,23.105,广州市,市五中,,38,38,47,21,30,253,118,228,210,18,18,5,5,0.7,0.8
2022-07-26T21:00:00,1348A,113.3478,23.0916,广州市,广东商学院,,38,38,42,21,26,214,98,196,181,24,24,4,4,0.6,0.7
2022-07-26T21:00:00,1349A,113.4332,23.1047,广州市,市八十六中,,42,42,45,19,24,234,72,219,185,43,26,5,5,0.5,0.6
2022-07-26T21:00:00,1350A,113.3505,22.9483,广州市,番禺中学,,32,32,43,17,23,216,57,200,166,27,16,9,9,0.7,0.8
2022-07-26T21:00:00,1351A,113.2146,23.3916,广州市,花都师范,,49,47,52,27,30,272,155,243,236,29,24,6,6,0.7,0.8
2022-07-26T21:00:00,1352A,113.2597,23.1331,广州市,市监测站,,44,44,59,26,34,247,123,227,210,16,16,4,5,0.7,0.7
2022-07-26T21:00:00,1353A,113.5618,23.312,广州市,九龙镇镇龙,颗粒物(PM10),69,88,67,38,30,244,89,220,201,74,32,7,7,0.8,0.8
2022-07-26T21:00:00,1354A,113.2765,23.1544,广州市,麓湖,,43,43,46,21,30,234,120,217,202,23,15,4,4,0.7,0.8
2022-07-26T21:00:00,1355A,113.443,23.3035,广州市,帽峰山森林公园(对照点),,41,40,42,20,25,247,131,226,213,34,24,11,6,0.8,0.8
2022-07-26T21:00:00,1356A,114.1063,22.5545,深圳市,通心岭子站,,17,17,24,10,16,113,49,107,92,24,14,3,3,0.6,0.6
2022-07-26T21:00:00,1357A,114.117,22.5625,深圳市,洪湖,,19,19,28,13,17,131,46,118,102,24,15,10,8,0.5,0.5
2022-07-26T21:00:00,1358A,113.987,22.5417,深圳市,华侨城,,23,23,28,5,15,94,52,79,71,11,17,4,5,0.6,0.6
2022-07-26T21:00:00,1359A,113.9181,22.5171,深圳市,南海子站,,31,31,27,13,17,73,31,69,57,31,20,4,4,0.6,0.5
2022-07-26T21:00:00,1360A,114.2458,22.5689,深圳市,盐田,,20,13,19,8,13,103,34,91,72,39,26,4,4,0.6,0.6
2022-07-26T21:00:00,1361A,114.2283,22.7244,深圳市,龙岗,,23,19,33,9,19,150,71,132,115,17,15,5,5,0.3,0.4
2022-07-26T21:00:00,1362A,113.8953,22.5861,深圳市,西乡,,,,,,,,,,,,,,,,
2022-07-26T21:00:00,1363A,114.494,22.5422,深圳市,南澳,,19,12,17,4,7,87,60,82,79,8,7,9,9,0.7,0.7
2022-07-26T21:00:00,1364A,114.41,22.6342,深圳市,葵涌,,17,11,17,6,10,84,52,78,72,8,6,8,8,0.4,0.5
2022-07-26T21:00:00,1365A,114.297,22.5978,深圳市,梅沙,,17,13,18,8,11,102,52,92,82,8,6,6,6,0.3,0.4
2022-07-26T21:00:00,1366A,114.0678,22.738,深圳市,观澜,,47,47,48,17,22,174,48,157,132,29,21,7,7,0.7,0.7
2022-07-26T21:00:00,1367A,113.5814,22.2618,珠海市,吉大,,18,14,19,3,10,90,56,87,60,8,4,7,7,0.3,0.4
2022-07-26T21:00:00,1368A,113.4881,22.2335,珠海市,前山,,24,24,21,15,15,100,73,93,87,8,8,8,8,0.3,0.3
2022-07-26T21:00:00,1369A,113.628,22.4251,珠海市,唐家,,23,14,22,7,12,101,72,90,72,2,4,6,6,0.3,0.3
2022-07-26T21:00:00,1370A,113.299,22.2281,珠海市,斗门,,22,18,22,14,15,112,68,105,93,4,6,5,5,0.4,0.4
2022-07-26T21:00:00,1371A,113.1294,23.0067,佛山市,湾梁,,48,48,44,20,24,207,86,196,177,24,11,5,4,0.4,0.4
2022-07-26T21:00:00,1372A,113.1083,23.0478,佛山市,华材职中,,48,48,46,24,28,198,88,188,172,21,13,5,5,0.3,0.4
2022-07-26T21:00:00,1373A,113.144,23.0453,佛山市,南海气象局,,50,50,44,27,26,200,79,191,173,31,15,5,5,0.6,0.7
2022-07-26T21:00:00,1374A,113.2881,22.8094,佛山市,顺德苏岗,,23,22,32,14,21,199,72,168,138,21,14,4,5,0.6,0.6
2022-07-26T21:00:00,1375A,113.2544,22.7642,佛山市,容桂街道办,,,,,,,,,,,,,,,,
2022-07-26T21:00:00,1376A,112.8383,22.8678,佛山市,高明孔堂,,39,39,40,24,20,126,99,120,116,11,10,5,5,0.6,0.7
2022-07-26T21:00:00,1377A,112.8836,23.1588,佛山市,三水监测站,细颗粒物(PM2.5),57,53,53,40,33,172,83,154,140,34,30,6,7,0.6,0.6
2022-07-26T21:00:00,1378A,112.867,23.185,佛山市,三水云东海,颗粒物(PM10),51,51,50,29,32,175,93,161,143,27,19,6,8,0.5,0.5
2022-07-26T21:00:00,1379A,113.3769,22.5211,中山市,华柏园,,28,23,30,18,18,138,87,121,116,7,5,3,2,0.6,0.5
2022-07-26T21:00:00,1380A,113.3881,22.5497,中山市,张溪,,29,22,35,13,16,126,91,109,100,8,7,3,3,0.7,0.6
2022-07-26T21:00:00,1381A,113.4075,22.5111,中山市,紫马岭,,30,30,30,19,18,127,85,114,109,10,7,6,6,0.7,0.7
2022-07-26T21:00:00,1382A,113.4411,22.4853,中山市,长江旅游区(对照点),,29,27,25,20,23,125,78,104,99,7,5,3,3,0.5,0.4
2022-07-26T21:00:00,1383A,113.1064,22.6058,江门市,北街,,31,31,35,16,18,157,72,149,132,11,9,4,4,0.6,0.6
2022-07-26T21:00:00,1384A,113.0731,22.5835,江门市,西区,颗粒物(PM10),54,58,38,23,20,164,69,154,133,15,12,6,6,0.5,0.5
2022-07-26T21:00:00,1385A,113.0219,22.5311,江门市,圭峰西,,29,29,34,20,21,163,61,149,129,19,10,4,4,0.5,0.5
2022-07-26T21:00:00,1386A,113.0828,22.5947,江门市,东湖,,40,40,39,20,20,169,71,159,142,15,11,6,6,0.5,0.5
2022-07-26T21:00:00,1387A,113.7875,23.0457,东莞市,东城主山,,,,,,,,,,,,,,,,
2022-07-26T21:00:00,1388A,113.7533,23.0202,东莞市,南城元岭,,,,,,,,,,,,,,,,
2022-07-26T21:00:00,1389A,113.7547,23.0494,东莞市,莞城梨川,,39,39,34,18,21,204,84,180,156,23,17,8,8,0.8,0.8
2022-07-26T21:00:00,1390A,113.7944,23.0128,东莞市,东城石井,,,,34,,20,212,,196,192,26,18,7,7,0.5,0.4
2022-07-26T21:00:00,1391A,113.7383,22.9658,东莞市,南城西平,,24,23,29,12,19,185,74,165,143,22,18,3,3,0.5,0.5
2022-07-26T21:00:00,1392A,114.4183,23.0528,惠州市,河南岸金山湖子站,颗粒物(PM10),52,53,40,8,15,168,48,147,127,34,14,5,3,0.5,0.5
2022-07-26T21:00:00,1393A,114.4053,23.0822,惠州市,下埔横江三路子站,,,,34,,16,175,,158,158,31,15,3,2,0.4,0.6
2022-07-26T21:00:00,1394A,114.4103,23.1142,惠州市,江北云山西路子站,,33,33,34,16,20,193,71,178,154,25,11,6,5,0.3,0.3
2022-07-26T21:00:00,1395A,114.4645,22.7833,惠州市,惠阳区承修路船湖子站,,19,18,24,12,13,115,58,102,86,18,9,5,4,0.4,0.4
2022-07-26T21:00:00,1396A,114.5317,22.7422,惠州市,大亚湾管委会子站,,,16,25,12,16,141,141,85,85,11,8,5,5,,0.3
2022-07-26T21:00:00,1397A,112.4267,23.0706,肇庆市,睦岗子站,,47,47,54,27,34,152,118,149,143,16,20,12,15,0.5,0.6
2022-07-26T21:00:00,1398A,112.4645,23.0475,肇庆市,城中子站,,40,40,56,24,33,154,112,149,143,22,20,12,14,0.6,0.6
2022-07-26T21:00:00,1399A,112.5544,23.1522,肇庆市,坑口子站,细颗粒物(PM2.5),60,55,48,43,34,162,107,156,144,8,9,9,10,0.4,0.5
2022-07-26T21:00:00,1400A,112.4753,23.1,肇庆市,七星岩子站(对照点),,,,,,,,,,,,,,,,
2022-07-26T21:00:00,1401A,108.3103,22.7881,南宁市,二十一中,,,50,25,,3,113,91,105,103,14,9,7,7,1.1,0.9
2022-07-26T21:00:00,1402A,108.3141,22.8528,南宁市,北湖,,36,33,38,25,18,126,99,115,113,11,14,6,7,0.7,0.6
2022-07-26T21:00:00,1403A,108.3206,22.8225,南宁市,市监测站,,32,32,34,20,17,120,93,104,103,16,21,10,10,0.9,0.8
2022-07-26T21:00:00,1404A,108.3829,22.8037,南宁市,大自然花园,,34,34,28,16,15,128,97,116,113,13,14,8,8,0.8,0.6
2022-07-26T21:00:00,1405A,108.4394,22.7904,南宁市,仙葫(对照点),,37,37,31,14,16,121,91,105,100,10,10,7,7,0.7,0.6
2022-07-26T21:00:00,1406A,108.2397,22.8467,南宁市,区农职院,颗粒物(PM10),54,57,32,17,14,125,102,112,112,17,18,9,10,0.7,0.5
2022-07-26T21:00:00,1407A,108.3275,22.735,南宁市,英华嘉园,颗粒物(PM10),56,62,45,35,19,106,71,92,85,30,24,8,8,0.7,0.5
2022-07-26T21:00:00,1408A,108.2257,22.7757,南宁市,沙井镇街道办,颗粒物(PM10),51,52,37,20,19,111,90,102,102,17,17,9,9,0.8,0.6
2022-07-26T21:00:00,1409A,110.576,19.9507,海口市,东寨港(对照点),,,,21,5,10,100,62,89,85,,,6,5,0.3,0.2
2022-07-26T21:00:00,1410A,110.3232,20.0574,海口市,海南大学,,31,31,20,18,10,93,83,82,76,1,7,6,6,0.4,0.5
2022-07-26T21:00:00,1411A,110.283,20.0053,海口市,秀英海南医院,,,,,,,,,,,,,,,,
2022-07-26T21:00:00,1412A,110.338,19.9969,海口市,海南师范大学,,26,26,26,17,11,106,70,93,84,8,11,2,3,0.5,0.5
2022-07-26T21:00:00,1413A,110.33,20.0356,海口市,龙华路环保局宿舍,,26,20,19,13,9,105,83,90,83,7,9,4,3,0.5,0.4
2022-07-26T21:00:00,1414A,106.3787,29.8279,重庆市,缙云山(对照点),臭氧1小时,98,20,22,16,11,217,198,195,195,14,12,4,5,0.3,0.3
2022-07-26T21:00:00,1416A,106.4213,29.8253,重庆市,天生,,42,42,40,16,18,208,106,181,176,45,22,5,5,0.9,0.7
2022-07-26T21:00:00,1417A,106.6263,29.7228,重庆市,两路,,49,36,36,12,15,209,155,182,182,45,36,9,9,1.0,0.9
2022-07-26T21:00:00,1418A,106.2953,29.5983,重庆市,虎溪,,37,37,36,15,14,199,79,168,147,50,23,6,8,0.6,0.5
2022-07-26T21:00:00,1419A,106.5777,29.5102,重庆市,南坪,臭氧1小时,111,46,39,29,18,274,221,235,235,19,23,6,9,0.7,0.7
2022-07-26T21:00:00,1420A,106.6556,29.6277,重庆市,唐家沱,,42,40,20,17,7,257,133,228,220,62,27,9,7,0.9,0.8
2022-07-26T21:00:00,1421A,106.6349,29.4906,重庆市,茶园,颗粒物(PM10),64,77,41,21,13,272,92,235,221,88,33,6,7,0.8,0.6
2022-07-26T21:00:00,1422A,106.3754,29.4572,重庆市,白市驿,臭氧1小时,69,70,39,20,11,175,175,151,151,14,14,6,7,0.9,0.8
2022-07-26T21:00:00,1425A,106.6205,29.7166,重庆市,空港,,50,49,29,27,14,215,158,189,188,31,25,7,8,0.7,0.7
2022-07-26T21:00:00,1426A,106.4782,29.4875,重庆市,新山村,颗粒物(PM10),61,72,39,26,15,186,131,171,165,56,38,5,6,0.8,0.6
2022-07-26T21:00:00,1427A,106.5616,29.6453,重庆市,礼嘉,颗粒物(PM10),62,74,24,16,9,216,125,194,190,93,41,8,7,0.6,0.5
2022-07-26T21:00:00,1428A,106.4522,29.7091,重庆市,蔡家,,46,46,32,32,16,206,134,184,180,32,24,5,4,0.9,0.7
2022-07-26T21:00:00,1429A,106.5093,29.3917,重庆市,鱼新街,,46,46,34,26,14,164,56,146,136,77,24,5,6,1.2,0.8
2022-07-26T21:00:00,1431A,103.9728,30.7236,成都市,金泉两河,臭氧1小时,97,76,68,44,47,293,197,272,265,22,25,3,4,0.7,0.8
2022-07-26T21:00:00,1432A,104.1419,30.6764,成都市,十里店,臭氧1小时,82,61,74,38,48,269,185,238,232,30,34,1,4,0.6,0.7
2022-07-26T21:00:00,1433A,104.0594,30.5767,成都市,三瓦窑,细颗粒物(PM2.5),62,60,71,44,40,270,168,244,237,35,54,1,2,0.6,0.6
2022-07-26T21:00:00,1434A,104.1122,30.6306,成都市,沙河铺,臭氧1小时,67,55,67,38,40,263,173,235,222,29,33,2,2,0.8,0.8
2022-07-26T21:00:00,1437A,104.0431,30.6556,成都市,君平街,臭氧1小时,114,66,80,51,54,293,228,273,270,19,27,5,6,0.6,0.7
2022-07-26T21:00:00,1438A,103.6202,31.0201,成都市,灵岩寺(对照点),臭氧1小时,58,40,35,38,25,173,166,150,150,2,2,5,11,0.6,0.6
2022-07-26T21:00:00,1439A,106.6899,26.5998,贵阳市,马鞍山,,22,22,19,5,8,88,52,77,69,10,8,5,5,0.5,0.5
2022-07-26T21:00:00,1440A,106.6971,26.5694,贵阳市,市环保站,,44,44,26,13,12,77,30,65,55,25,14,3,4,0.4,0.4
2022-07-26T21:00:00,1441A,106.6243,26.6266,贵阳市,鉴湖路,,17,17,25,7,11,80,42,72,63,14,7,3,3,0.3,0.4
2022-07-26T21:00:00,1442A,106.7487,26.6343,贵阳市,燕子冲,,24,24,25,12,17,80,41,68,59,8,8,8,6,0.6,0.6
2022-07-26T21:00:00,1443A,106.6555,26.4365,贵阳市,碧云窝,,22,22,26,7,8,72,46,70,65,15,7,4,5,0.5,0.4
2022-07-26T21:00:00,1444A,106.694,26.5161,贵阳市,中院村,,31,31,28,5,8,70,35,62,54,16,10,1,1,0.5,0.5
2022-07-26T21:00:00,1445A,106.7109,26.6027,贵阳市,红边门,,41,41,26,7,17,81,29,66,54,32,21,4,5,0.4,0.4
2022-07-26T21:00:00,1446A,106.7164,26.5699,贵阳市,新华路,,13,12,21,9,14,79,41,70,61,15,8,4,4,0.3,0.4
2022-07-26T21:00:00,1447A,106.674,26.5424,贵阳市,太慈桥,,24,24,25,9,8,78,45,72,63,15,8,5,5,0.5,0.4
2022-07-26T21:00:00,1450A,102.8204,24.8886,昆明市,呈贡新区,,18,18,18,10,9,73,48,70,66,14,11,7,9,0.4,0.5
2022-07-26T21:00:00,1451A,102.6251,24.9608,昆明市,西山森林公园(对照点),,,10,12,,8,74,52,65,61,8,11,7,10,0.3,0.5
2022-07-26T21:00:00,1452A,102.7252,25.0902,昆明市,龙泉镇,,19,19,24,2,8,71,40,64,61,21,21,7,9,0.2,0.3
2022-07-26T21:00:00,1453A,102.7266,25.0375,昆明市,东风东路,,30,30,22,8,9,77,44,67,63,14,23,5,7,0.3,0.4
2022-07-26T21:00:00,1454A,102.6742,25.0669,昆明市,金鼎山,,23,23,20,10,10,66,42,60,58,12,11,6,8,0.3,0.3
2022-07-26T21:00:00,1455A,102.6644,25.0401,昆明市,碧鸡广场,,,,34,,11,64,,61,60,24,23,7,10,0.4,0.5
2022-07-26T21:00:00,1456A,91.1319,29.6514,拉萨市,八廓街,,41,17,14,8,6,140,129,133,132,12,10,8,7,0.1,0.1
2022-07-26T21:00:00,1457A,91.1221,29.6747,拉萨市,市环保局,,39,23,13,6,5,139,123,132,131,13,9,7,6,0.2,0.1
2022-07-26T21:00:00,1458A,91.0874,29.6475,拉萨市,区监测站,,44,12,12,0,1,153,140,150,143,9,9,8,8,0.1,0.1
2022-07-26T21:00:00,1459A,91.1774,29.6541,拉萨市,西藏大学,,47,47,15,7,4,149,130,141,140,10,10,8,8,0.2,0.2
2022-07-26T21:00:00,1460A,90.9798,29.6588,拉萨市,区辐射站,,,15,10,11,5,133,,123,123,16,12,8,8,0.2,0.1
2022-07-26T21:00:00,1461A,91.0834,29.6292,拉萨市,拉萨火车站,,,15,14,4,5,142,130,139,132,8,7,9,9,,0.3
2022-07-26T21:00:00,1462A,108.882,34.2749,西安市,高压开关厂,颗粒物(PM10),54,58,49,25,22,213,133,190,183,20,19,5,6,0.5,0.5
2022-07-26T21:00:00,1463A,108.993,34.2629,西安市,兴庆小区,颗粒物(PM10),52,54,45,30,28,211,123,178,176,18,18,4,5,0.6,0.7
2022-07-26T21:00:00,1464A,109.06,34.2572,西安市,纺织城,颗粒物(PM10),60,69,53,35,27,200,110,169,166,35,24,5,6,0.6,0.5
2022-07-26T21:00:00,1465A,108.9356,34.2173,西安市,小寨,颗粒物(PM10),52,54,50,26,21,185,134,168,168,25,21,2,3,0.6,0.6
2022-07-26T21:00:00,1466A,108.954,34.2713,西安市,市人民体育场,,46,46,46,25,24,209,124,182,178,18,17,3,4,0.3,0.3
2022-07-26T21:00:00,1467A,108.8922,34.2322,西安市,高新西区,颗粒物(PM10),51,52,44,28,26,191,137,171,170,21,18,6,6,0.8,0.7
2022-07-26T21:00:00,1468A,108.935,34.3474,西安市,经开区,,43,43,45,27,23,220,117,176,174,11,11,1,2,0.4,0.4
2022-07-26T21:00:00,1469A,108.906,34.1546,西安市,长安区,颗粒物(PM10),52,53,58,32,27,172,149,160,160,13,21,5,6,0.6,0.6
2022-07-26T21:00:00,1470A,109.2,34.6575,西安市,阎良区,,,,,,,,,,,,,,,,
2022-07-26T21:00:00,1471A,109.2186,34.3731,西安市,临潼区,颗粒物(PM10),51,52,42,28,23,166,119,141,140,11,14,2,3,0.4,0.4
2022-07-26T21:00:00,1472A,108.869,34.378,西安市,草滩(对照点),,40,34,40,28,23,178,93,150,146,17,14,9,8,0.8,0.8
2022-07-26T21:00:00,1473A,108.985,34.1978,西安市,曲江文化产业集团,颗粒物(PM10),58,66,58,30,25,187,145,172,171,18,21,4,5,0.7,0.7
2022-07-26T21:00:00,1474A,109.051,34.3213,西安市,广运潭,颗粒物(PM10),61,71,47,27,22,199,96,160,156,19,13,6,7,0.7,0.6
2022-07-26T21:00:00,1476A,103.631,36.1031,兰州市,兰炼宾馆,颗粒物(PM10),63,76,95,26,36,125,113,122,121,9,13,5,6,0.2,0.2
2022-07-26T21:00:00,1477A,104.1373,35.9454,兰州市,榆中兰大校区(对照点),,,,,,,,,,,,,,,,
2022-07-26T21:00:00,1478A,103.8412,36.0726,兰州市,生物制品所,颗粒物(PM10),69,87,95,28,33,130,120,125,124,9,14,6,7,0.6,0.7
2022-07-26T21:00:00,1479A,103.831,36.0464,兰州市,铁路设计院,颗粒物(PM10),59,67,95,20,27,130,122,125,125,10,14,6,7,0.3,0.4
2022-07-26T21:00:00,1480A,101.748,36.6428,西宁市,市环境监测站,,,,,,,,,,,,,,,,
2022-07-26T21:00:00,1482A,101.834,36.5819,西宁市,四陆医院,,,,,,,,,,,,,,,,
2022-07-26T21:00:00,1483A,101.524,36.6867,西宁市,第五水厂(对照点),,,,,,,,,,,,,,,,
2022-07-26T21:00:00,1484A,105.9512,38.6016,银川市,贺兰山马莲口(对照点),,47,20,29,12,16,148,148,138,138,5,9,7,9,0.2,0.3
2022-07-26T21:00:00,1488A,106.2328,38.4975,银川市,贺兰山东路,,35,35,44,20,17,139,106,126,123,22,21,8,11,0.4,0.5
2022-07-26T21:00:00,1489A,106.1358,38.5036,银川市,学院路,,40,40,58,14,24,145,98,122,120,22,20,7,11,0.5,0.6
2022-07-26T21:00:00,1490A,87.5801,43.8303,乌鲁木齐市,监测站,,40,40,46,20,17,146,114,126,126,31,38,7,5,0.3,0.3
2022-07-26T21:00:00,1491A,87.6046,43.768,乌鲁木齐市,收费所,颗粒物(PM10),51,52,56,16,17,147,113,124,124,27,37,10,8,0.6,0.4
2022-07-26T21:00:00,1492A,87.4754,43.9469,乌鲁木齐市,新疆农科院农场(对照点),,38,38,70,12,21,132,106,121,121,8,31,7,8,0.5,0.5
2022-07-26T21:00:00,1493A,87.5525,43.8711,乌鲁木齐市,铁路局,颗粒物(PM10),52,54,54,22,17,154,117,135,135,28,38,8,5,0.6,0.6
2022-07-26T21:00:00,1494A,87.6432,43.831,乌鲁木齐市,三十一中学,颗粒物(PM10),53,55,52,8,13,156,119,132,132,18,21,8,6,0.5,0.3
2022-07-26T21:00:00,1496A,87.7216,44.1747,乌鲁木齐市,米东区环保局,,31,31,46,12,22,119,99,112,111,8,17,6,5,0.2,0.3
2022-07-26T21:00:00,1508A,112.9433,27.8614,湘潭市,板塘,,30,28,37,21,20,115,95,107,105,18,13,6,7,0.7,0.7
2022-07-26T21:00:00,1511A,112.9118,27.8403,湘潭市,市监测站,,35,29,32,24,22,115,84,104,96,29,19,10,24,0.7,1
2022-07-26T21:00:00,1512A,112.8937,27.8728,湘潭市,江麓,,,40,35,7,12,122,103,119,113,15,12,3,19,,0.5
2022-07-26T21:00:00,1513A,112.9227,27.8159,湘潭市,岳塘,,39,38,38,27,19,114,90,109,105,17,10,24,23,1.0,0.8
2022-07-26T21:00:00,1514A,112.9074,27.9119,湘潭市,科大,,33,33,35,10,12,117,102,112,108,14,13,5,9,0.6,0.6
2022-07-26T21:00:00,1515A,113.135,27.8244,株洲市,天台山庄,,,23,23,,19,130,92,127,119,17,10,7,6,0.4,0.4
2022-07-26T21:00:00,1518A,113.095,27.8867,株洲市,株冶医院,,35,24,27,12,14,137,112,132,129,12,12,8,8,0.5,0.5
2022-07-26T21:00:00,1519A,113.167,27.8667,株洲市,市四中,,39,39,31,24,21,134,92,129,122,14,12,5,5,0.5,0.5
2022-07-26T21:00:00,1520A,113.143,27.8381,株洲市,火车站,,36,36,31,15,17,141,94,135,127,16,14,2,5,0.4,0.3
2022-07-26T21:00:00,1524A,113.13,27.8528,株洲市,市监测站,,35,34,42,24,26,135,89,132,124,23,12,3,5,0.6,0.5
2022-07-26T21:00:00,1552A,106.805,26.3003,贵阳市,桐木岭(对照点),,,,,,,,,,,,,,,,
2022-07-26T21:00:00,1559A,113.251,27.8336,株洲市,大京风景区(对照点),,32,32,18,20,20,123,44,113,97,6,6,4,6,0.5,0.5
2022-07-26T21:00:00,1562A,113.0048,27.9153,湘潭市,昭山,,29,27,27,20,18,117,64,108,100,34,18,7,9,0.4,0.4
2022-07-26T21:00:00,1564A,112.4876,27.9164,湘潭市,韶山(对照点),,48,48,31,21,12,111,56,104,90,16,13,5,7,0.6,0.6
2022-07-26T21:00:00,1585A,109.8756,40.6532,包头市,市环境监测站,,28,14,25,8,16,137,87,124,119,22,19,24,8,0.8,0.8
2022-07-26T21:00:00,1587A,109.9991,40.5842,包头市,包头八中,,33,23,33,13,18,134,105,125,123,18,18,17,9,0.7,0.7
2022-07-26T21:00:00,1588A,109.8538,40.6821,包头市,青山宾馆,,26,21,29,14,16,131,83,120,114,30,23,19,8,0.9,0.9
2022-07-26T21:00:00,1589A,109.8642,40.6288,包头市,惠龙物流,,33,16,29,13,15,142,104,130,127,17,18,16,10,0.4,0.6
2022-07-26T21:00:00,1590A,110.0377,40.5546,包头市,东河鸿龙湾,,32,14,27,8,11,127,101,120,118,13,13,5,5,0.4,0.6
2022-07-26T21:00:00,1591A,110.0023,39.8129,鄂尔多斯市,综合楼,,28,21,16,7,6,132,88,132,112,24,15,7,8,0.6,0.5
2022-07-26T21:00:00,1592A,109.9486,39.8261,鄂尔多斯市,巴音孟克林场办事处,,,19,19,12,9,128,,128,109,21,13,5,6,0.6,0.8
2022-07-26T21:00:00,1593A,109.7736,39.5986,鄂尔多斯市,康泽苑,,,17,18,,9,148,98,135,121,13,8,3,4,0.6,0.5
2022-07-26T21:00:00,1594A,109.8119,39.5989,鄂尔多斯市,华泰汽车城,,29,19,22,14,12,147,90,128,118,22,9,6,6,0.8,0.6
2022-07-26T21:00:00,1595A,109.9734,39.7884,鄂尔多斯市,奥林花园,,29,29,21,7,9,130,70,118,104,26,15,5,6,1.0,0.9
2022-07-26T21:00:00,1596A,122.2414,40.6592,营口市,学府南路,,,,,,,,,,,,,,,,
2022-07-26T21:00:00,1597A,122.2703,40.7094,营口市,大庆路,,40,28,41,12,23,173,128,148,142,9,13,4,9,0.6,0.8
2022-07-26T21:00:00,1598A,122.215,40.6511,营口市,镜湖西路,,41,27,40,10,23,180,129,144,140,17,17,3,4,0.5,0.6
2022-07-26T21:00:00,1599A,122.167,40.6655,营口市,西炮台,,45,23,36,12,16,175,142,142,142,6,11,8,8,1.1,1.2
2022-07-26T21:00:00,1600A,124.3303,40.0625,丹东市,江湾东路,,49,49,34,31,24,162,52,141,105,29,10,10,14,0.7,0.6
2022-07-26T21:00:00,1601A,124.4256,40.1503,丹东市,临江后街,,41,41,29,28,21,173,65,144,114,18,7,12,12,1.0,0.7
2022-07-26T21:00:00,1602A,124.3933,40.1461,丹东市,元宝山,,45,42,32,31,25,159,69,128,97,17,9,4,4,0.6,0.6
2022-07-26T21:00:00,1603A,124.3633,40.1092,丹东市,民主桥,,42,42,33,25,21,176,39,140,102,31,11,11,10,0.8,0.7
2022-07-26T21:00:00,1604A,122.0303,41.1489,盘锦市,开发区,,35,35,33,20,22,151,102,142,120,21,8,5,5,0.7,0.8
2022-07-26T21:00:00,1605A,122.0485,41.0883,盘锦市,兴隆台,,46,46,35,16,23,142,83,140,114,39,17,4,4,0.7,0.7
2022-07-26T21:00:00,1606A,121.8297,41.1028,盘锦市,新生街道,,23,23,30,14,21,161,65,135,116,22,11,5,5,0.5,0.6
2022-07-26T21:00:00,1607A,120.9092,40.7136,葫芦岛市,龙港区,,36,8,29,10,36,159,114,158,125,6,5,4,4,0.4,0.5
2022-07-26T21:00:00,1608A,120.8392,40.7514,葫芦岛市,化工街,,32,23,41,22,34,160,79,149,118,28,8,6,5,0.4,0.5
2022-07-26T21:00:00,1609A,120.8341,40.7073,葫芦岛市,新区,,33,22,29,9,32,165,104,158,127,12,5,4,4,0.5,0.7
2022-07-26T21:00:00,1610A,120.8695,40.7677,葫芦岛市,东城区,,40,40,37,15,23,148,78,143,115,32,9,7,6,0.4,0.5
2022-07-26T21:00:00,1611A,118.5819,24.9117,泉州市,涂山街,,35,35,45,8,21,184,24,147,103,25,17,9,10,0.4,0.4
2022-07-26T21:00:00,1612A,118.5972,24.8978,泉州市,津头埔,,34,34,42,12,21,176,24,139,94,31,23,7,7,0.3,0.3
2022-07-26T21:00:00,1613A,118.6663,24.9424,泉州市,万安,,,15,41,10,26,156,,134,102,14,17,7,7,0.4,0.5
2022-07-26T21:00:00,1614A,118.6117,24.9604,泉州市,清源山(对照点),,,,,,,,,,,,,,,,
2022-07-26T21:00:00,1616A,117.6795,36.229,济南市,技术学院,,29,17,33,14,24,142,90,123,113,21,14,3,4,0.6,0.8
2022-07-26T21:00:00,1618A,118.3429,35.0532,临沂市,沂河小区,,32,22,23,17,14,110,100,105,104,12,11,5,5,0.6,0.4
2022-07-26T21:00:00,1619A,118.295,35.0583,临沂市,鲁南制药厂,,32,14,13,18,14,110,100,105,104,12,12,4,4,0.8,0.5
2022-07-26T21:00:00,1620A,118.2794,34.9976,临沂市,新光毛纺厂,,29,19,18,16,15,120,92,105,102,16,14,3,3,0.7,0.5
2022-07-26T21:00:00,1621A,118.3956,35.0888,临沂市,河东保险公司,,34,17,17,15,10,113,107,108,108,10,11,3,4,0.7,0.5
2022-07-26T21:00:00,1622A,116.3032,37.4674,德州市,儿童乐园,,42,42,31,24,17,171,82,147,140,34,16,6,6,0.5,0.4
2022-07-26T21:00:00,1624A,116.2991,37.4451,德州市,监理站,,40,40,24,22,18,176,93,159,149,35,17,8,9,0.5,0.3
2022-07-26T21:00:00,1625A,115.9848,36.4372,聊城市,区政府,,49,46,44,34,30,161,114,152,144,17,18,9,9,1.0,1
2022-07-26T21:00:00,1628A,118.0062,37.3803,滨州市,市环保局,,39,35,46,27,29,161,85,139,128,17,15,8,14,0.4,0.6
2022-07-26T21:00:00,1629A,118.0018,37.3617,滨州市,第二水厂,,,36,41,20,26,148,,125,120,26,17,9,12,0.7,0.8
2022-07-26T21:00:00,1630A,117.9776,37.393,滨州市,北中新校,,36,36,42,22,26,161,91,139,129,17,15,10,16,0.3,0.5
2022-07-26T21:00:00,1631A,118.0414,36.8103,淄博市,人民公园,,48,48,47,21,30,122,82,114,105,24,22,9,10,0.8,0.7
2022-07-26T21:00:00,1632A,118.0253,36.8406,淄博市,东风化工厂,,,,,,,,,,,,,,,,
2022-07-26T21:00:00,1633A,117.8525,36.4847,淄博市,双山,,23,17,27,9,17,121,73,114,103,18,12,11,8,0.4,0.4
2022-07-26T21:00:00,1634A,117.9592,36.6331,淄博市,气象站,,30,30,34,9,20,134,71,125,110,24,15,11,10,0.1,0.3
2022-07-26T21:00:00,1635A,118.3092,36.8194,淄博市,莆田园,,31,31,33,19,24,131,70,104,99,36,18,6,7,0.3,0.4
2022-07-26T21:00:00,1636A,117.8661,36.805,淄博市,三金集团,,,,,,,,,,,,,,,,
2022-07-26T21:00:00,1637A,117.558,34.8438,枣庄市,市中区政府,,33,24,32,5,14,162,105,144,137,19,17,8,12,0.4,0.5
2022-07-26T21:00:00,1638A,117.2852,34.7837,枣庄市,薛城环保局,,31,29,35,14,18,159,99,143,132,14,13,10,18,0.3,0.4
2022-07-26T21:00:00,1639A,117.5852,34.7745,枣庄市,峄城区政府,,33,27,29,16,19,162,104,141,134,16,11,8,9,0.5,0.5
2022-07-26T21:00:00,1640A,117.7276,34.5578,枣庄市,台儿庄区环保局,,26,17,23,5,15,121,83,114,107,10,9,10,11,0.5,0.5
2022-07-26T21:00:00,1641A,117.4518,35.0992,枣庄市,山亭区环保局,,,22,22,5,18,163,,146,144,15,11,8,10,0.6,0.5
2022-07-26T21:00:00,1642A,121.2514,37.5639,烟台市,开发区,,20,17,18,7,8,108,62,83,70,7,4,6,5,0.5,0.4
2022-07-26T21:00:00,1643A,121.3719,37.5433,烟台市,轴承厂,,25,7,14,13,9,110,77,102,78,3,2,5,5,0.1,0.1
2022-07-26T21:00:00,1644A,121.3181,37.5436,烟台市,西郊化工站,,23,7,14,0,7,107,73,99,73,4,5,9,6,0.3,0.3
2022-07-26T21:00:00,1645A,121.4478,37.4822,烟台市,莱山环保局,,24,12,12,9,5,104,76,84,74,1,2,6,7,0.4,0.4
2022-07-26T21:00:00,1646A,121.2611,37.4967,烟台市,福山环保局,,19,14,20,7,9,95,58,72,61,11,12,8,5,0.5,0.4
2022-07-26T21:00:00,1648A,119.12,36.7019,潍坊市,仲裁委,,,,,,,,,,,,,,,,
2022-07-26T21:00:00,1650A,119.1437,36.7023,潍坊市,环保局,,25,24,29,17,18,109,77,97,92,9,8,5,5,0.4,0.5
2022-07-26T21:00:00,1652A,119.1936,36.7729,潍坊市,寒亭监测站,,,,,,,,,,,,,,,,
2022-07-26T21:00:00,1653A,116.6251,35.4302,济宁市,火炬城,,42,32,39,12,22,174,134,165,160,7,9,7,8,0.5,0.6
2022-07-26T21:00:00,1655A,116.5491,35.4042,济宁市,电化厂,,42,30,32,14,20,182,134,168,161,8,6,6,9,0.7,0.8
2022-07-26T21:00:00,1656A,117.1437,36.1937,泰安市,监测站,,27,22,36,10,26,139,84,130,116,11,10,6,6,0.3,0.5
2022-07-26T21:00:00,1657A,117.0885,36.2017,泰安市,人口学校,,28,22,34,9,21,149,89,139,126,10,10,6,7,0.3,0.5
2022-07-26T21:00:00,1658A,117.1089,36.1758,泰安市,电力学校,,27,17,36,17,29,137,85,126,114,6,7,7,7,0.3,0.4
2022-07-26T21:00:00,1659A,119.471,35.4209,日照市,监测站,,19,17,15,6,11,124,60,106,100,19,5,5,4,0.5,0.4
2022-07-26T21:00:00,1660A,119.523,35.4216,日照市,市政府广场,,30,17,15,5,7,131,93,114,112,13,8,5,5,0.5,0.4
2022-07-26T21:00:00,1661A,119.5587,35.4044,日照市,港务局,,33,7,17,1,6,143,105,126,124,10,7,3,3,0.6,0.6
2022-07-26T21:00:00,1662A,122.1214,37.4236,威海市,华夏技校,,22,14,15,12,14,97,70,89,80,8,7,4,4,0.3,0.3
2022-07-26T21:00:00,1663A,122.0508,37.5236,威海市,山大分校,,,,20,,12,101,,105,,,8,,4,,0.3
2022-07-26T21:00:00,1664A,122.1067,37.5072,威海市,市监测站,,25,24,17,17,17,103,54,92,76,28,13,5,4,0.4,0.3
2022-07-26T21:00:00,1665A,118.5019,37.4658,东营市,西城阳光环保公司,,,,,,,,,,,,,,,,
2022-07-26T21:00:00,1666A,118.6614,37.4309,东营市,市环保局,,32,29,27,14,17,129,101,119,118,9,9,7,18,0.4,0.5
2022-07-26T21:00:00,1669A,113.5824,24.7733,韶关市,市八中,颗粒物(PM10),55,60,67,36,38,205,150,180,176,22,22,12,11,0.8,0.7
2022-07-26T21:00:00,1670A,113.5556,24.8082,韶关市,碧湖山庄,,,,,,,,,,,,,,,,
2022-07-26T21:00:00,1671A,113.5917,24.7972,韶关市,园林处,细颗粒物(PM2.5),64,67,64,46,47,164,122,150,148,21,16,8,10,0.4,0.7
2022-07-26T21:00:00,1672A,113.6735,24.7791,韶关市,韶关学院,颗粒物(PM10),53,56,68,34,44,181,147,171,168,16,13,10,11,0.7,0.7
2022-07-26T21:00:00,1673A,113.5971,24.6863,韶关市,曲江监测站,细颗粒物(PM2.5),69,60,66,50,41,185,140,173,166,16,19,10,12,0.6,0.6
2022-07-26T21:00:00,1674A,116.6794,23.3667,汕头市,金平子站,,20,19,20,10,14,120,61,106,79,9,9,6,8,0.5,0.6
2022-07-26T21:00:00,1675A,116.7244,23.3633,汕头市,龙湖子站,,19,18,25,3,10,117,58,102,77,14,10,9,8,0.5,0.6
2022-07-26T21:00:00,1676A,116.7258,23.2775,汕头市,濠江子站,,19,17,17,2,9,109,60,88,76,8,8,9,10,0.5,0.5
2022-07-26T21:00:00,1677A,116.7519,23.4714,汕头市,澄海子站,,22,22,24,10,17,102,45,96,78,27,12,13,6,1.1,0.6
2022-07-26T21:00:00,1678A,116.6092,23.2539,汕头市,潮阳子站,,23,23,28,4,15,116,62,104,76,5,7,10,9,0.4,0.5
2022-07-26T21:00:00,1679A,116.4069,23.2533,汕头市,潮南子站,,,,,,,,,,,,,,,,
2022-07-26T21:00:00,1680A,110.3539,21.2706,湛江市,湛江影剧院,,25,25,24,9,10,130,52,99,84,7,9,7,11,0.5,0.5
2022-07-26T21:00:00,1681A,110.3928,21.2228,湛江市,市环境监测站,,35,30,30,24,18,118,51,99,88,14,12,13,20,0.5,0.5
2022-07-26T21:00:00,1682A,110.4019,21.1997,湛江市,环保局宿舍,,29,29,27,15,15,103,59,92,86,11,9,8,22,0.5,0.5
2022-07-26T21:00:00,1683A,110.4111,21.2028,湛江市,霞山游泳场,,32,32,25,19,14,107,68,96,90,12,11,8,17,0.4,0.5
2022-07-26T21:00:00,1684A,110.3316,21.2679,湛江市,麻章区环保局,,30,30,26,16,15,91,46,80,68,11,11,16,16,0.5,0.5
2022-07-26T21:00:00,1685A,110.4558,21.2567,湛江市,坡头区环保局,,25,25,24,15,16,124,80,108,103,10,11,6,12,0.6,0.5
2022-07-26T21:00:00,1686A,111.0286,21.4688,茂名市,电白南海,,36,36,35,22,21,108,91,105,101,9,11,5,8,0.6,0.5
2022-07-26T21:00:00,1687A,110.9294,21.6533,茂名市,茂石化七小,,49,46,37,34,23,107,91,98,96,8,10,10,8,0.6,0.5
2022-07-26T21:00:00,1688A,110.9107,21.6687,茂名市,健康路,,41,41,30,25,16,115,97,108,107,4,6,11,20,0.7,0.6
2022-07-26T21:00:00,1689A,110.8592,21.6828,茂名市,高岭,颗粒物(PM10),56,61,39,39,28,112,87,102,101,14,12,10,35,0.7,0.6
2022-07-26T21:00:00,1690A,116.1231,24.3284,梅州市,梅江月梅,颗粒物(PM10),53,55,44,20,26,138,104,138,105,13,10,6,4,0.6,0.6
2022-07-26T21:00:00,1691A,116.0797,24.2719,梅州市,梅县新城,,35,35,47,14,32,112,83,105,97,11,17,4,7,0.6,0.7
2022-07-26T21:00:00,1692A,116.1248,24.2654,梅州市,环境监控中心,,36,36,45,20,32,114,77,104,89,14,14,5,5,0.6,0.6
2022-07-26T21:00:00,1693A,115.3653,22.775,汕尾市,市环保局,,22,10,17,7,10,96,68,84,77,3,4,6,5,0.5,0.5
2022-07-26T21:00:00,1694A,115.3706,22.7898,汕尾市,市政府,,23,6,13,5,10,112,73,94,80,4,4,6,6,0.5,0.5
2022-07-26T21:00:00,1695A,115.3622,22.7925,汕尾市,新城中学,,24,10,18,8,12,113,74,95,83,2,2,5,5,0.4,0.5
2022-07-26T21:00:00,1696A,114.6778,23.7569,河源市,源西(对照点),颗粒物(PM10),57,64,47,33,24,154,113,148,143,23,10,3,3,0.7,0.6
2022-07-26T21:00:00,1697A,114.6944,23.7586,河源市,东埔,颗粒物(PM10),56,62,47,37,26,155,132,150,148,17,13,4,4,0.7,0.6
2022-07-26T21:00:00,1698A,114.6892,23.7233,河源市,老城,颗粒物(PM10),62,74,50,36,24,157,111,152,146,18,13,2,2,0.7,0.6
2022-07-26T21:00:00,1699A,111.9797,21.8593,阳江市,鸳鸯湖(对照点),,,,,,,,,,,,,,,,
2022-07-26T21:00:00,1700A,111.9508,21.8536,阳江市,南恩路,,,,,,,,,,,,,,,,
2022-07-26T21:00:00,1701A,111.9491,21.8658,阳江市,马南垌,,28,12,29,15,20,125,87,117,91,3,5,5,5,0.5,0.6
2022-07-26T21:00:00,1702A,113.0426,23.691,清远市,环保大楼(对照点),臭氧1小时,90,58,55,38,39,240,192,226,224,16,14,4,5,0.7,0.6
2022-07-26T21:00:00,1703A,113.0208,23.7106,清远市,凤城街办,臭氧1小时,53,53,55,34,36,181,162,172,172,16,16,4,4,0.9,0.9
2022-07-26T21:00:00,1705A,116.6367,23.6719,潮州市,西园路(对照点),,37,37,38,13,23,143,58,126,103,15,10,8,5,0.8,0.8
2022-07-26T21:00:00,1706A,116.6447,23.6706,潮州市,档案局,,37,37,40,13,22,154,53,133,109,16,11,12,9,0.7,0.7
2022-07-26T21:00:00,1708A,116.3701,23.5345,揭阳市,新兴,,33,10,44,23,27,148,66,129,104,8,6,5,5,0.7,0.7
2022-07-26T21:00:00,1709A,116.3264,23.5443,揭阳市,西马,,29,29,46,18,26,148,72,129,110,5,5,6,6,0.5,0.5
2022-07-26T21:00:00,1710A,116.3611,23.5626,揭阳市,东兴,颗粒物(PM10),54,58,52,21,24,158,64,132,106,13,8,6,4,1.0,0.8
2022-07-26T21:00:00,1711A,116.4151,23.5294,揭阳市,渔湖,,36,36,46,6,25,129,59,115,96,13,8,6,4,0.9,0.7
2022-07-26T21:00:00,1712A,112.0392,22.9169,云浮市,新市府(对照点),,,,,,,,,,,,,,,,
2022-07-26T21:00:00,1713A,112.0369,22.9394,云浮市,市监测站,,,,,,,,,,,,,,,,
2022-07-26T21:00:00,1714A,112.0539,22.9539,云浮市,牧羊,颗粒物(PM10),51,52,49,16,26,127,71,115,97,13,15,9,11,0.5,0.6
2022-07-26T21:00:00,1715A,102.575,24.3711,玉溪市,东风水库,,29,29,16,7,6,70,49,58,58,14,14,4,4,0.5,0.7
2022-07-26T21:00:00,1718A,115.4208,35.2464,菏泽市,气象局,颗粒物(PM10),52,53,27,31,16,173,135,167,162,12,10,4,5,0.4,0.3
2022-07-26T21:00:00,1719A,115.4747,35.2375,菏泽市,市政协,,50,38,28,13,11,182,157,176,173,12,10,6,7,0.2,0.1
2022-07-26T21:00:00,1720A,115.455,35.27,菏泽市,菏泽学院,,,,,,,,,,,,,,,,
2022-07-26T21:00:00,1721A,113.3819,40.1097,大同市,果树场(对照点),,,,,,,,,,,,,,,,
2022-07-26T21:00:00,1723A,113.2994,40.0758,大同市,云冈宾馆,,46,46,44,9,19,142,82,122,112,32,20,11,20,0.6,0.6
2022-07-26T21:00:00,1724A,113.3444,40.0917,大同市,大同大学,,30,28,36,12,17,153,94,125,118,20,14,7,11,0.4,0.4
2022-07-26T21:00:00,1725A,113.2661,40.1269,大同市,安家小村,,26,26,38,14,20,149,71,129,117,28,17,14,19,0.6,0.6
2022-07-26T21:00:00,1726A,113.2711,40.0844,大同市,教育学院,,38,38,47,18,21,134,68,117,105,40,20,11,20,0.7,0.6
2022-07-26T21:00:00,1727A,113.1147,36.1547,长治市,清华站,,37,37,42,19,32,220,98,180,172,12,25,9,9,1.2,1.3
2022-07-26T21:00:00,1728A,113.1031,36.1989,长治市,监测站,,36,36,49,24,31,210,104,173,164,10,26,9,9,1.1,1.3
2022-07-26T21:00:00,1730A,113.0886,36.2125,长治市,审计局,,42,41,44,29,41,260,132,212,202,10,28,10,9,1.1,1.2
2022-07-26T21:00:00,1731A,113.0844,36.1856,长治市,长治八中,,42,31,48,29,34,240,112,198,190,12,28,11,11,1.5,1.4
2022-07-26T21:00:00,1733A,111.5531,36.0783,临汾市,临钢医院,,48,48,21,22,14,205,92,183,164,45,17,2,2,0.5,0.5
2022-07-26T21:00:00,1734A,111.5028,36.0714,临汾市,技工学校,颗粒物(PM10),52,54,24,23,17,207,99,180,167,34,13,2,4,0.7,0.6
2022-07-26T21:00:00,1735A,111.5169,36.0822,临汾市,工商学校,,,,,,,,,,,,,,,,
2022-07-26T21:00:00,1736A,111.5018,36.0855,临汾市,市委,颗粒物(PM10),55,59,31,23,18,206,98,180,164,31,15,4,5,0.7,0.5
2022-07-26T21:00:00,1738A,113.5758,37.8572,阳泉市,市中心,,43,33,56,18,17,152,135,142,141,19,31,8,17,0.8,0.9
2022-07-26T21:00:00,1739A,113.4894,37.8731,阳泉市,赛鱼,,28,26,38,14,14,150,88,136,130,12,28,7,10,0.7,0.7
2022-07-26T21:00:00,1740A,113.5819,37.8486,阳泉市,南庄,,45,45,60,30,23,148,131,140,136,16,27,9,23,0.8,1.1
2022-07-26T21:00:00,1741A,113.6292,37.8531,阳泉市,白羊墅,,,,,,,,,,,,,,,,
2022-07-26T21:00:00,1742A,113.5614,37.8703,阳泉市,平坦,,45,41,51,14,18,158,141,145,144,17,34,9,17,0.9,1.1
2022-07-26T21:00:00,1743A,113.5158,37.8392,阳泉市,大阳泉,,40,27,30,17,16,153,125,140,138,18,20,18,9,0.7,0.7
2022-07-26T21:00:00,1744A,118.9233,42.2816,赤峰市,松山一中,,33,22,38,8,20,142,105,136,121,17,20,8,10,0.6,0.8
2022-07-26T21:00:00,1745A,118.9576,42.2728,赤峰市,哈达街,,36,21,35,17,22,148,114,143,131,15,17,10,10,0.4,0.5
2022-07-26T21:00:00,1746A,118.8788,42.2554,赤峰市,天义路,,34,26,27,15,16,139,107,135,122,20,19,12,11,0.4,0.5
2022-07-26T21:00:00,1748A,123.044,41.1196,鞍山市,深沟寺,,30,30,41,18,27,159,67,133,113,11,8,6,7,0.6,0.7
2022-07-26T21:00:00,1749A,123.011,41.0931,鞍山市,太阳城,,29,29,38,19,27,156,67,134,114,13,11,6,7,0.8,0.9
2022-07-26T21:00:00,1750A,123.0485,41.1442,鞍山市,太平,,33,33,42,18,27,173,65,153,134,25,13,5,6,0.8,0.9
2022-07-26T21:00:00,1751A,122.9642,41.0971,鞍山市,铁西三道街,,50,50,51,25,29,164,88,155,142,17,18,5,7,0.8,1
2022-07-26T21:00:00,1752A,122.9341,41.0833,鞍山市,铁西工业园区,,49,49,45,24,27,163,67,153,138,26,12,6,7,0.9,1.1
2022-07-26T21:00:00,1753A,123.022,41.0821,鞍山市,明达新区,,32,32,41,19,28,164,91,148,138,8,9,4,5,0.5,0.6
2022-07-26T21:00:00,1754A,123.1289,41.0228,鞍山市,千山(对照点),,,,,,,,,,,,,,,,
2022-07-26T21:00:00,1755A,123.7977,41.8491,抚顺市,望花区,颗粒物(PM10),53,56,47,32,29,188,102,176,165,36,16,6,9,0.6,0.6
2022-07-26T21:00:00,1756A,123.9161,41.8822,抚顺市,顺城区,细颗粒物(PM2.5),63,72,48,45,33,184,48,175,152,64,20,7,8,0.9,0.7
2022-07-26T21:00:00,1757A,124.0436,41.8611,抚顺市,东洲区,,,,41,,22,82,,82,,,8,,37,,0.4
2022-07-26T21:00:00,1758A,123.9247,41.8642,抚顺市,新抚区,颗粒物(PM10),56,62,45,18,28,179,56,162,141,55,17,3,4,0.9,0.7
2022-07-26T21:00:00,1759A,124.0972,41.8961,抚顺市,大伙房水库,,34,34,37,23,22,175,81,154,145,8,3,6,6,0.6,0.5
2022-07-26T21:00:00,1760A,123.7086,41.8391,抚顺市,沈抚新城,,50,42,43,35,29,190,77,176,162,41,14,4,5,0.7,0.7
2022-07-26T21:00:00,1761A,123.8275,41.3064,本溪市,大峪,,36,36,35,20,22,149,50,126,106,8,14,5,5,0.8,0.8
2022-07-26T21:00:00,1762A,123.7567,41.3325,本溪市,溪湖,颗粒物(PM10),53,55,43,26,27,174,62,136,126,25,18,6,9,1.1,1.1
2022-07-26T21:00:00,1763A,123.7169,41.3094,本溪市,彩屯,颗粒物(PM10),54,58,65,35,36,149,42,116,104,24,30,4,5,0.8,1.6
2022-07-26T21:00:00,1764A,123.7669,41.2864,本溪市,东明,,50,50,43,28,23,131,34,115,91,26,16,5,5,0.7,0.6
2022-07-26T21:00:00,1765A,123.7992,41.2664,本溪市,新立屯,,36,36,40,23,23,120,26,106,69,34,7,4,5,1.0,1
2022-07-26T21:00:00,1766A,123.8142,41.3472,本溪市,威宁,,47,47,57,19,23,160,20,128,101,19,17,9,10,0.7,0.7
2022-07-26T21:00:00,1767A,121.1115,41.0879,锦州市,南山,,28,28,37,19,32,140,86,129,123,24,12,7,7,0.6,0.7
2022-07-26T21:00:00,1768A,121.0533,40.8434,锦州市,开发区,,48,35,46,33,27,164,125,159,144,17,13,87,21,1.1,0.9
2022-07-26T21:00:00,1769A,121.1836,41.1119,锦州市,百股街道,,33,22,31,20,36,164,105,152,142,15,8,5,9,0.5,0.7
2022-07-26T21:00:00,1770A,121.1178,41.1222,锦州市,天安街道,,33,33,42,16,33,141,97,132,129,21,13,6,9,0.6,0.7
2022-07-26T21:00:00,1771A,121.1303,41.1386,锦州市,北湖公园,,33,18,38,10,26,142,104,136,130,16,11,6,7,0.5,0.6
2022-07-26T21:00:00,1772A,126.54,43.8622,吉林市,哈达湾,,47,47,32,26,23,138,78,133,125,20,10,5,5,0.9,0.8
2022-07-26T21:00:00,1773A,126.5844,43.8358,吉林市,东局子,,35,35,32,22,21,139,77,129,117,13,13,7,8,0.7,0.8
2022-07-26T21:00:00,1774A,126.5052,43.8245,吉林市,电力学院,细颗粒物(PM2.5),88,78,42,65,29,144,22,134,111,28,16,7,7,0.8,0.7
2022-07-26T21:00:00,1775A,126.6133,43.8972,吉林市,江北,,35,35,34,24,21,134,48,124,106,21,10,7,6,1.2,0.9
2022-07-26T21:00:00,1776A,126.555,43.8306,吉林市,江南公园,,33,33,28,18,24,138,66,130,120,15,10,4,4,0.8,0.8
2022-07-26T21:00:00,1778A,126.7061,43.7133,吉林市,丰满(对照点),,,,,,,,,,,,,,,,
2022-07-26T21:00:00,1779A,123.9305,47.3636,齐齐哈尔市,安居小区,颗粒物(PM10),61,71,52,34,14,126,117,118,117,16,20,5,5,0.8,0.5
2022-07-26T21:00:00,1780A,123.9488,47.3386,齐齐哈尔市,中心广场,颗粒物(PM10),59,68,28,38,12,138,113,128,124,9,10,3,3,0.6,0.4
2022-07-26T21:00:00,1781A,123.9483,47.3227,齐齐哈尔市,农牧车辆厂,颗粒物(PM10),64,78,40,33,12,140,125,131,131,4,5,3,3,0.7,0.4
2022-07-26T21:00:00,1783A,123.945,47.2988,齐齐哈尔市,市环境监测站,颗粒物(PM10),55,59,25,33,11,144,125,136,135,9,9,6,6,0.6,0.4
2022-07-26T21:00:00,1784A,129.61,44.561,牡丹江市,环保大楼,,30,30,16,12,11,122,45,112,98,14,12,4,4,0.7,0.6
2022-07-26T21:00:00,1785A,129.6115,44.5782,牡丹江市,文化广场,,44,44,26,11,8,108,33,100,88,27,17,3,2,0.7,0.5
2022-07-26T21:00:00,1786A,129.5904,44.5963,牡丹江市,第一医院,,22,22,10,8,6,94,25,86,72,19,12,3,3,0.9,0.7
2022-07-26T21:00:00,1787A,129.6364,44.6075,牡丹江市,机车工厂,,47,47,24,17,7,118,23,107,90,28,13,8,5,0.5,0.4
2022-07-26T21:00:00,1788A,129.6386,44.5462,牡丹江市,第一中学,颗粒物(PM10),52,53,30,13,9,107,19,94,71,18,14,3,3,0.5,0.4
2022-07-26T21:00:00,1789A,124.81117,46.03138,大庆市,大同区,颗粒物(PM10),64,77,38,43,19,130,96,123,110,9,11,4,4,0.7,0.5
2022-07-26T21:00:00,1790A,125.129,46.533,大庆市,龙凤区,颗粒物(PM10),53,55,22,34,10,124,93,116,109,14,12,5,5,0.6,0.3
2022-07-26T21:00:00,1791A,124.902,46.408,大庆市,红岗区,,48,48,20,31,12,122,85,116,107,6,7,2,3,0.6,0.5
2022-07-26T21:00:00,1792A,125.153,46.586,大庆市,萨尔图区,颗粒物(PM10),56,62,34,39,20,134,105,126,120,10,13,5,6,0.7,0.4
2022-07-26T21:00:00,1793A,124.9042,46.6215,大庆市,让胡路区,,44,44,21,22,10,132,99,126,116,8,14,4,4,0.5,0.3
2022-07-26T21:00:00,1794A,118.3606,31.3519,芜湖市,监测站,,30,20,27,8,11,118,96,102,102,30,22,10,14,0.4,0.5
2022-07-26T21:00:00,1795A,118.3714,31.4134,芜湖市,科创中心,,29,20,25,8,11,123,90,106,104,26,19,7,9,0.4,0.5
2022-07-26T21:00:00,1796A,118.3673,31.3131,芜湖市,四水厂,,28,14,22,10,12,127,89,108,107,30,16,7,10,0.5,0.5
2022-07-26T21:00:00,1797A,118.4022,31.3839,芜湖市,济民医院(对照点),,,,,,,,,,,,,,,,
2022-07-26T21:00:00,1798A,118.5092,31.6837,马鞍山市,湖东路四小,,28,23,23,10,10,141,89,108,99,16,16,4,4,0.9,0.9
2022-07-26T21:00:00,1799A,118.5024,31.6449,马鞍山市,开发区,,27,18,18,18,12,126,84,99,93,20,18,8,9,0.7,0.7
2022-07-26T21:00:00,1800A,118.5228,31.7231,马鞍山市,慈湖,,27,27,30,17,16,121,50,94,82,31,16,4,6,0.7,0.7
2022-07-26T21:00:00,1801A,118.48,31.6928,马鞍山市,马钢动力厂,,,,,,,,,,,,,,,,
2022-07-26T21:00:00,1802A,118.6245,31.7241,马鞍山市,濮塘(对照点),,24,24,19,9,10,118,38,91,74,9,10,2,4,0.5,0.5
2022-07-26T21:00:00,1803A,115.9872,29.6815,九江市,十里,,33,21,31,23,20,182,86,139,137,21,23,12,11,0.9,0.8
2022-07-26T21:00:00,1804A,115.9584,29.7046,九江市,茅山头,,27,27,31,14,16,163,76,130,122,18,26,8,8,0.7,0.7
2022-07-26T21:00:00,1805A,115.9877,29.7295,九江市,西园,,26,25,30,10,12,150,81,119,115,11,24,9,10,0.7,0.8
2022-07-26T21:00:00,1806A,116.0172,29.6547,九江市,五七二七厂,,27,26,27,5,11,128,84,105,105,15,10,5,5,1.1,0.7
2022-07-26T21:00:00,1808A,115.9114,29.6038,九江市,综合工业园,,35,32,35,7,14,183,35,140,128,69,28,5,7,0.5,0.6
2022-07-26T21:00:00,1809A,116.0721,29.7535,九江市,石化总厂,,21,18,31,7,17,153,65,122,114,31,19,4,10,0.5,0.7
2022-07-26T21:00:00,1810A,115.9773,29.5698,九江市,庐山气象台(对照点),,43,27,25,28,23,140,135,131,102,5,5,7,8,0.7,0.6
2022-07-26T21:00:00,1811A,112.3628,34.6692,洛阳市,中信二小,,,,,,,,,,,,,,,,
2022-07-26T21:00:00,1812A,112.3931,34.6516,洛阳市,市委党校,,,,15,,9,109,,107,,,6,,4,,0.4
2022-07-26T21:00:00,1814A,112.4657,34.6871,洛阳市,豫西宾馆,,34,32,23,23,15,141,108,133,130,13,8,1,2,0.6,0.4
2022-07-26T21:00:00,1815A,112.494,34.6886,洛阳市,河南林校,,31,31,18,17,10,140,99,131,128,12,4,2,2,0.3,0.2
2022-07-26T21:00:00,1816A,112.3844,34.623,洛阳市,开发区管委会,,39,36,20,21,14,149,124,143,141,8,3,4,4,0.5,0.3
2022-07-26T21:00:00,1817A,112.4267,34.6258,洛阳市,市委新办公区,,42,42,21,24,14,141,112,132,130,9,4,5,4,0.6,0.4
2022-07-26T21:00:00,1818A,114.4839,36.0621,安阳市,棉研所(对照点),,,,,,,,,,,,,,,,
2022-07-26T21:00:00,1819A,114.3551,36.1017,安阳市,红庙街,,42,42,33,20,16,152,118,144,140,18,20,4,6,0.4,0.7
2022-07-26T21:00:00,1820A,114.361,36.0681,安阳市,银杏小区,,,45,35,,18,158,127,152,148,9,10,3,5,0.4,0.7
2022-07-26T21:00:00,1824A,114.3389,34.7781,开封市,肿瘤医院,,47,47,26,26,11,148,126,144,142,10,8,2,4,0.6,0.7
2022-07-26T21:00:00,1826A,114.2885,34.7965,开封市,世纪星幼儿园,,44,44,30,28,14,142,123,136,135,16,13,4,4,0.7,0.7
2022-07-26T21:00:00,1828A,113.227,35.2125,焦作市,市环保局,,49,49,32,17,16,174,126,160,156,9,11,3,4,0.6,0.6
2022-07-26T21:00:00,1829A,113.2464,35.1764,焦作市,高新区政府（停运20220628）,,,,,,,,,,,,,,,,
2022-07-26T21:00:00,1830A,113.1992,35.2590,焦作市,影视城(对照点),,,,,,,,,,,,,,,,
2022-07-26T21:00:00,1832A,113.3257,33.742,平顶山市,新华旅馆,,30,30,24,5,8,156,90,139,126,16,13,28,8,0.3,0.2
2022-07-26T21:00:00,1833A,113.2919,33.737,平顶山市,规划设计院,,30,30,24,9,6,147,88,129,119,13,10,11,4,0.5,0.5
2022-07-26T21:00:00,1834A,113.182,33.774,平顶山市,平顶山工学院,,32,31,25,17,14,169,100,147,140,14,12,4,4,0.4,0.4
2022-07-26T21:00:00,1835A,111.1922,34.7752,三门峡市,市政府,,46,46,28,25,17,136,125,129,129,14,9,5,6,0.5,0.5
2022-07-26T21:00:00,1836A,111.1587,34.7942,三门峡市,开发区,颗粒物(PM10),67,84,49,40,19,137,126,130,130,13,10,3,3,0.6,0.5
2022-07-26T21:00:00,1838A,111.143,34.7955,三门峡市,风景区(对照点),,,,,,,,,,,,,,,,
2022-07-26T21:00:00,1839A,111.3009,30.7157,宜昌市,四零三,,,,,,,,,,,,,,,,
2022-07-26T21:00:00,1840A,111.2992,30.6981,宜昌市,白龙岗,颗粒物(PM10),51,51,41,31,24,128,90,112,109,25,19,9,9,0.6,0.6
2022-07-26T21:00:00,1841A,111.3549,30.6465,宜昌市,伍家岗,颗粒物(PM10),53,55,44,31,27,140,107,129,128,17,20,1,1,0.5,0.5
2022-07-26T21:00:00,1842A,111.2628,30.6961,宜昌市,点军区,细颗粒物(PM2.5),58,56,45,41,31,136,86,118,113,28,19,4,4,0.6,0.6
2022-07-26T21:00:00,1843A,111.3275,30.7819,宜昌市,夷陵区,颗粒物(PM10),52,53,41,29,21,137,104,126,124,18,14,5,3,0.6,0.5
2022-07-26T21:00:00,1844A,112.2494,30.3197,荆州市,市图书馆,颗粒物(PM10),52,53,39,21,22,138,109,124,124,12,12,7,8,0.6,0.6
2022-07-26T21:00:00,1845A,112.2008,30.3544,荆州市,市委党校,,48,48,40,27,22,137,109,128,126,15,12,6,9,0.6,0.5
2022-07-26T21:00:00,1847A,113.1094,29.3578,岳阳市,南湖风景区,,45,30,30,31,24,152,120,135,133,19,9,13,5,0.6,0.5
2022-07-26T21:00:00,1848A,113.1493,29.4251,岳阳市,城陵矶,,37,37,30,25,20,147,103,134,129,21,10,10,14,0.7,0.7
2022-07-26T21:00:00,1849A,113.1497,29.3575,岳阳市,开发区,,46,27,33,32,27,138,109,130,127,19,14,6,12,0.7,0.7
2022-07-26T21:00:00,1850A,113.2621,29.4758,岳阳市,云溪区,,38,35,31,26,21,146,116,135,132,11,6,11,11,0.7,0.6
2022-07-26T21:00:00,1851A,112.9943,29.4402,岳阳市,君山区,,38,30,31,21,23,149,121,137,130,11,8,6,7,0.5,0.5
2022-07-26T21:00:00,1852A,113.2117,29.355,岳阳市,金凤水库(对照点),,30,30,31,18,20,141,93,127,120,16,11,4,4,0.8,0.7
2022-07-26T21:00:00,1854A,111.6975,28.9703,常德市,市二中,,43,43,29,23,21,112,105,102,102,8,10,6,4,0.4,0.5
2022-07-26T21:00:00,1857A,111.7158,29.1456,常德市,白鹤山(对照点),,47,47,35,32,26,116,75,101,96,5,6,4,6,0.6,0.5
2022-07-26T21:00:00,1858A,110.5319,29.1217,张家界市,永定新区,,,31,30,23,26,84,61,79,68,12,11,5,4,,0.2
2022-07-26T21:00:00,1859A,110.4697,29.1242,张家界市,电业局,,30,30,28,12,13,105,63,85,76,18,9,3,3,0.3,0.2
2022-07-26T21:00:00,1860A,110.5594,29.3547,张家界市,未央路,,34,34,25,13,13,80,9,73,58,24,9,2,2,0.2,0.2
2022-07-26T21:00:00,1861A,110.4417,29.315,张家界市,袁家界(对照点),,31,31,20,2,11,87,77,87,80,5,5,5,7,0.7,0.5
2022-07-26T21:00:00,1862A,110.4144,25.3167,桂林市,电子科大尧山校区(对照点),,45,45,32,20,33,112,51,100,81,7,7,7,14,0.6,0.6
2022-07-26T21:00:00,1863A,110.2819,25.2697,桂林市,监测站,,21,21,32,14,15,98,59,85,72,15,11,5,6,0.5,0.5
2022-07-26T21:00:00,1864A,110.3089,25.2708,桂林市,龙隐路小学,,,18,27,14,17,94,51,80,67,12,9,,10,0.3,0.4
2022-07-26T21:00:00,1865A,110.2869,25.2178,桂林市,八中,,,21,28,17,15,92,,77,66,18,12,6,9,,0.4
2022-07-26T21:00:00,1866A,109.2262,21.588,北海市,牛尾岭水库(对照点),,13,11,12,7,8,51,39,49,48,5,6,4,4,0.4,0.4
2022-07-26T21:00:00,1867A,109.1436,21.4086,北海市,海滩公园,,22,22,13,2,3,59,59,53,53,2,2,4,4,0.5,0.5
2022-07-26T21:00:00,1868A,109.0981,21.4661,北海市,新市环保局,,,,8,7,5,56,53,53,52,2,2,3,3,0.3,0.4
2022-07-26T21:00:00,1869A,109.1778,21.5233,北海市,北海工业园,,16,8,11,10,5,56,49,53,53,2,2,5,4,0.4,0.3
2022-07-26T21:00:00,1870A,109.4856,24.3895,柳州市,柳东小学,,,39,41,25,30,128,120,121,120,6,11,6,7,,0.8
2022-07-26T21:00:00,1871A,109.4157,24.3277,柳州市,环保监测站,,49,49,35,27,20,119,104,112,112,13,12,6,7,0.7,0.7
2022-07-26T21:00:00,1872A,109.389,24.341,柳州市,河西水厂,,48,48,41,24,25,124,100,115,114,16,14,6,9,0.5,0.5
2022-07-26T21:00:00,1873A,109.4311,24.2921,柳州市,市四中,颗粒物(PM10),56,62,51,34,26,122,94,114,112,17,12,8,8,1.0,0.9
2022-07-26T21:00:00,1874A,109.4006,24.3631,柳州市,市九中,颗粒物(PM10),58,66,45,21,26,123,103,114,114,12,11,7,8,0.7,0.6
2022-07-26T21:00:00,1875A,109.4958,24.3134,柳州市,古亭山,,43,43,36,22,19,114,97,108,106,16,14,6,6,0.6,0.6
2022-07-26T21:00:00,1876A,109.5078,18.2489,三亚市,河东子站,,9,9,13,2,4,46,24,36,30,4,8,2,2,0.3,0.4
2022-07-26T21:00:00,1877A,109.4964,18.2681,三亚市,河西子站,,9,5,11,6,7,42,22,35,30,6,6,4,2,0.2,0.3
2022-07-26T21:00:00,1878A,104.7778,31.4741,绵阳市,富乐山,,48,45,42,28,27,178,151,165,164,15,15,10,9,0.6,0.5
2022-07-26T21:00:00,1879A,104.7563,31.4535,绵阳市,市人大,,50,50,57,28,32,175,138,159,156,34,27,1,2,0.6,0.6
2022-07-26T21:00:00,1880A,104.6697,31.4668,绵阳市,高新区自来水公司,颗粒物(PM10),55,59,60,28,38,206,150,199,193,30,27,6,7,0.6,0.7
2022-07-26T21:00:00,1881A,104.7287,31.5075,绵阳市,三水厂,细颗粒物(PM2.5),52,52,63,36,38,188,92,183,167,76,36,5,5,0.6,0.6
2022-07-26T21:00:00,1882A,104.563,28.793,宜宾市,石马中学(对照点),颗粒物(PM10),53,56,53,35,36,231,116,185,173,10,18,4,5,0.6,0.6
2022-07-26T21:00:00,1883A,104.6201,28.7728,宜宾市,市委,颗粒物(PM10),54,57,54,36,36,194,103,178,162,28,25,7,7,0.7,0.7
2022-07-26T21:00:00,1884A,104.6055,28.793,宜宾市,宜宾四中,颗粒物(PM10),59,68,64,38,41,216,87,190,170,45,26,9,9,0.7,0.7
2022-07-26T21:00:00,1885A,104.639,28.7562,宜宾市,市政府,颗粒物(PM10),51,52,66,29,37,206,133,186,172,16,32,8,11,0.6,0.7
2022-07-26T21:00:00,1886A,104.5742,28.7199,宜宾市,黄金嘴,细颗粒物(PM2.5),60,60,54,43,35,198,120,180,172,19,24,7,8,0.5,0.5
2022-07-26T21:00:00,1888A,101.6891,26.571,攀枝花市,弄弄坪,,26,26,23,8,13,137,35,90,82,26,21,4,10,1.2,1.1
2022-07-26T21:00:00,1889A,101.5769,26.5928,攀枝花市,河门口,,19,19,20,7,10,119,51,85,82,12,18,8,13,0.5,1.1
2022-07-26T21:00:00,1890A,101.7169,26.585,攀枝花市,炳草岗,,22,22,35,5,14,136,34,95,88,23,22,8,40,0.6,1.1
2022-07-26T21:00:00,1891A,101.7369,26.5008,攀枝花市,仁和,,,19,19,12,10,95,32,74,67,14,11,8,16,,1.5
2022-07-26T21:00:00,1893A,105.4324,28.9634,泸州市,九狮山(对照点),,39,39,26,15,12,168,47,136,121,32,30,5,7,0.8,0.6
2022-07-26T21:00:00,1894A,105.4427,28.9063,泸州市,小市上码头,颗粒物(PM10),58,66,36,40,23,202,123,184,175,20,13,9,11,0.7,0.6
2022-07-26T21:00:00,1895A,105.4241,28.8573,泸州市,兰田宪桥,颗粒物(PM10),57,63,40,22,20,195,102,179,164,28,17,6,8,0.5,0.5
2022-07-26T21:00:00,1896A,105.4379,28.8833,泸州市,市环监站,细颗粒物(PM2.5),59,64,34,42,22,210,127,185,174,24,19,5,6,0.6,0.5
2022-07-26T21:00:00,1897A,104.7547,29.3628,自贡市,大塘山(对照点),,,,,,,,,,,,,,,,
2022-07-26T21:00:00,1900A,104.7692,29.3411,自贡市,春华路,,,,,,,,,,,,,,,,
2022-07-26T21:00:00,1901A,104.4239,31.1208,德阳市,东山公园,臭氧1小时,55,47,53,19,29,221,164,197,194,21,14,9,12,0.7,0.7
2022-07-26T21:00:00,1902A,104.3826,31.1317,德阳市,西小区,臭氧1小时,55,54,66,17,31,219,164,203,195,16,24,2,10,0.7,0.8
2022-07-26T21:00:00,1903A,104.4053,31.1167,德阳市,市检察院,,,,,,,,,,,,,,,,
2022-07-26T21:00:00,1904A,104.3553,31.1091,德阳市,耐火材料厂,,50,50,74,19,34,194,149,173,167,16,29,5,11,0.6,0.7
2022-07-26T21:00:00,1905A,106.056,30.8064,南充市,西山风景区(对照点),,43,43,42,29,30,155,112,138,135,18,17,6,3,0.9,1
2022-07-26T21:00:00,1906A,106.0789,30.8023,南充市,南充市委,,42,42,47,20,25,154,102,137,131,20,13,2,3,0.6,0.7
2022-07-26T21:00:00,1907A,106.1031,30.8217,南充市,南充炼油厂,,50,50,53,16,28,157,122,151,144,10,17,6,6,0.5,0.6
2022-07-26T21:00:00,1908A,106.1064,30.7856,南充市,高坪区监测站,,42,30,43,29,33,154,99,140,132,10,15,1,3,0.6,0.6
2022-07-26T21:00:00,1909A,106.0642,30.7636,南充市,嘉陵区环保局,,42,37,46,29,33,144,108,137,132,15,15,3,4,0.5,0.5
2022-07-26T21:00:00,1910A,106.1087,30.8388,南充市,市环境监测站,,42,42,53,24,30,141,112,132,127,14,27,8,4,0.4,0.5
2022-07-26T21:00:00,1911A,106.9222,27.6869,遵义市,丁字口,,30,28,22,21,18,128,51,115,101,24,10,13,8,0.6,0.6
2022-07-26T21:00:00,1912A,106.9242,27.7019,遵义市,凤凰山,细颗粒物(PM2.5),88,121,28,65,17,128,74,115,109,15,8,14,7,0.8,0.6
2022-07-26T21:00:00,1913A,106.8906,27.6486,遵义市,忠庄,,26,26,18,12,8,124,66,109,101,15,11,15,6,0.4,0.4
2022-07-26T21:00:00,1914A,106.9231,27.6506,遵义市,舟水桥,,34,34,26,17,11,120,60,106,97,13,12,7,4,0.4,0.4
2022-07-26T21:00:00,1915A,106.9178,27.72,遵义市,干田坝,,26,26,20,14,11,126,67,115,106,14,9,13,8,0.6,0.6
2022-07-26T21:00:00,1916A,103.7897,25.5035,曲靖市,环境监测站,,21,21,19,9,9,100,67,92,90,18,15,3,4,0.5,0.4
2022-07-26T21:00:00,1917A,103.8,25.5364,曲靖市,烟厂办公区,,24,17,18,5,8,101,74,94,92,9,10,4,6,0.5,0.5
2022-07-26T21:00:00,1918A,108.7197,34.3956,咸阳市,气象站(对照点),颗粒物(PM10),70,90,52,35,28,228,124,191,190,12,10,5,6,0.8,1.1
2022-07-26T21:00:00,1919A,108.673,34.3155,咸阳市,实验中学,,49,49,44,28,23,235,140,193,193,15,17,3,4,0.4,0.5
2022-07-26T21:00:00,1920A,108.7233,34.3617,咸阳市,师范学院,颗粒物(PM10),56,62,45,29,23,238,121,195,192,21,13,5,6,0.6,0.6
2022-07-26T21:00:00,1922A,109.0656,35.0994,铜川市,党校(对照点),,,,32,64,24,85,79,85,76,8,12,4,8,0.8,0.7
2022-07-26T21:00:00,1923A,109.0697,35.0697,铜川市,王益区政府,细颗粒物(PM2.5),55,44,39,39,24,147,121,136,135,7,10,3,4,0.7,0.6
2022-07-26T21:00:00,1924A,108.9344,34.9058,铜川市,新区管委会,,50,50,50,26,26,153,123,145,141,16,19,4,6,0.6,0.6
2022-07-26T21:00:00,1925A,108.9589,34.8731,铜川市,新区兰芝公司,,,,,,,,,,,,,,,,
2022-07-26T21:00:00,1926A,109.4131,36.6275,延安市,枣园(对照点),,30,3,42,10,22,140,94,126,119,9,17,3,3,0.5,0.7
2022-07-26T21:00:00,1927A,109.4761,36.6028,延安市,延大医附院,,,,50,12,27,132,91,119,112,13,20,3,3,0.6,0.6
2022-07-26T21:00:00,1928A,109.4824,36.5767,延安市,市监测站,,,,,,,,,,,,,,,,
2022-07-26T21:00:00,1929A,109.5056,36.6106,延安市,百米大道,,28,11,47,12,24,119,89,109,106,13,23,5,5,0.6,0.7
2022-07-26T21:00:00,1930A,107.185,34.3063,宝鸡市,庙沟村(对照点),,43,43,47,27,25,124,82,112,111,14,12,4,4,0.5,0.6
2022-07-26T21:00:00,1931A,107.0708,34.3017,宝鸡市,竹园沟,,47,47,47,28,30,172,95,146,145,12,14,4,4,0.7,0.6
2022-07-26T21:00:00,1932A,107.1906,34.3672,宝鸡市,三陆医院,,45,45,57,21,25,159,120,146,144,15,15,5,5,0.5,0.6
2022-07-26T21:00:00,1933A,107.1431,34.3547,宝鸡市,监测站,,45,36,54,31,35,169,126,150,150,19,20,6,6,0.6,0.6
2022-07-26T21:00:00,1934A,107.1186,34.3739,宝鸡市,技工学校,,39,26,57,25,37,169,124,152,152,20,19,4,5,0.5,0.6
2022-07-26T21:00:00,1935A,107.3906,34.3528,宝鸡市,陈仓区环保局家属楼,颗粒物(PM10),61,71,56,26,28,139,105,126,126,23,17,5,6,0.6,0.6
2022-07-26T21:00:00,1936A,107.2058,34.3497,宝鸡市,文理学院,,49,49,53,27,28,162,131,151,151,16,18,8,8,0.5,0.5
2022-07-26T21:00:00,1937A,107.2386,34.3622,宝鸡市,三迪小学,颗粒物(PM10),52,54,53,28,33,145,108,134,132,28,23,5,6,0.6,0.6
2022-07-26T21:00:00,1938A,109.5293,34.5101,渭南市,农科所(对照点),,,,,,,,,,,,,,,,
2022-07-26T21:00:00,1939A,109.4974,34.4877,渭南市,日报社,细颗粒物(PM2.5),53,44,30,37,21,164,123,148,148,12,11,5,6,0.5,0.4
2022-07-26T21:00:00,1940A,109.4636,34.493,渭南市,体育馆,,44,44,28,30,21,168,126,150,150,10,9,4,5,0.6,0.5
2022-07-26T21:00:00,1941A,109.4259,34.5023,渭南市,高新一小,,,55,34,34,19,141,108,130,128,12,9,4,5,,0.8
2022-07-26T21:00:00,1943A,102.1725,38.5339,金昌市,新川苑,,36,13,85,2,21,129,113,120,113,10,12,7,11,0.5,0.5
2022-07-26T21:00:00,1944A,102.1692,38.5167,金昌市,天庆家园,,36,15,85,2,15,134,115,123,115,7,10,9,10,0.3,0.4
2022-07-26T21:00:00,1945A,98.2908,39.7711,嘉峪关市,气象局,,40,31,33,9,11,147,127,135,135,9,12,4,6,0.4,0.5
2022-07-26T21:00:00,1947A,106.3394,38.817,石嘴山市,沙湖旅游区(对照点),,39,37,56,6,15,142,122,124,124,14,18,26,31,0.3,0.4
2022-07-26T21:00:00,1948A,106.3668,39.0145,石嘴山市,大武口朝阳西街,,37,29,53,13,18,139,118,120,120,17,18,7,8,0.4,0.5
2022-07-26T21:00:00,1949A,106.7704,39.2282,石嘴山市,惠农南大街,,35,35,66,15,20,129,93,106,103,20,28,16,23,0.4,0.6
2022-07-26T21:00:00,1950A,106.7099,39.1325,石嘴山市,红果子镇惠新街,颗粒物(PM10),55,60,73,16,18,134,90,118,114,16,19,9,22,0.4,0.6
2022-07-26T21:00:00,1951A,84.895,45.6094,克拉玛依市,长征新村,,30,17,18,4,5,109,93,108,104,12,8,8,8,0.2,0.1
2022-07-26T21:00:00,1952A,84.8988,45.5893,克拉玛依市,南林小区,,28,28,30,9,13,113,71,112,96,37,17,9,9,0.5,0.5
2022-07-26T21:00:00,1953A,85.1186,45.6886,克拉玛依市,白碱滩区,,,,,,,,,,,,,,,,
2022-07-26T21:00:00,1954A,84.905,44.3396,克拉玛依市,独山子区,,37,28,41,9,17,129,118,120,120,12,11,11,9,0.5,0.5
2022-07-26T21:00:00,1955A,85.6979,46.098,克拉玛依市,乌尔禾区商贸楼,,25,4,26,9,8,107,77,88,88,11,10,12,11,0.2,0.1
2022-07-26T21:00:00,1956A,86.1472,41.7538,巴音郭楞州,孔雀公园,颗粒物(PM10),60,69,64,17,17,120,97,116,113,16,11,3,3,0.3,0.3
2022-07-26T21:00:00,1957A,86.1972,41.7166,巴音郭楞州,棉纺厂,,,,69,,19,125,111,121,120,,14,4,4,0.3,0.3
2022-07-26T21:00:00,1958A,86.2357,41.7173,巴音郭楞州,经济开发区,颗粒物(PM10),69,87,72,27,21,122,107,120,118,13,10,4,4,0.2,0.2
2022-07-26T21:00:00,1959A,118.746,36.881,寿光市,监测站,,,,,,,,,,,,,,,,
2022-07-26T21:00:00,1960A,118.780,36.864,寿光市,世纪学校,,,,,,,,,,,,,,,,
2022-07-26T21:00:00,1961A,117.532,36.6868,济南市,东山小学,,34,34,51,5,21,152,70,127,110,23,17,3,4,0.3,0.6
2022-07-26T21:00:00,1962A,117.541,36.710,章丘市,明水开发区,,,,,,,,,,,,,,,,
2022-07-26T21:00:00,1963A,120.610,36.440,即墨市,环保局子站,,,,,,,,,,,,,,,,
2022-07-26T21:00:00,1964A,120.470,36.390,即墨市,开发区子站,,,,,,,,,,,,,,,,
2022-07-26T21:00:00,1965A,120.005,35.878,胶南市,JN子站,,,,,,,,,,,,,,,,
2022-07-26T21:00:00,1966A,120.0405,35.8735,青岛市,黄岛区4号,,27,22,13,7,5,114,84,110,94,5,6,3,4,0.5,0.5
2022-07-26T21:00:00,1967A,120.008,36.283,胶州市,胶州环保局,,,,,,,,,,,,,,,,
2022-07-26T21:00:00,1968A,120.014,36.253,胶州市,胶州一中,,,,,,,,,,,,,,,,
2022-07-26T21:00:00,1969A,120.537,36.865,莱西市,环保局子站,,,,,,,,,,,,,,,,
2022-07-26T21:00:00,1970A,120.515,36.885,莱西市,人民广场子站,,,,,,,,,,,,,,,,
2022-07-26T21:00:00,1971A,119.952,36.792,平度市,1号,,,,,,,,,,,,,,,,
2022-07-26T21:00:00,1972A,119.976,36.799,平度市,2号,,,,,,,,,,,,,,,,
2022-07-26T21:00:00,1973A,120.747,37.825,蓬莱市,蓬莱环保局,,,,,,,,,,,,,,,,
2022-07-26T21:00:00,1974A,120.773,37.809,蓬莱市,蓬莱博物馆,,,,,,,,,,,,,,,,
2022-07-26T21:00:00,1975A,120.399,37.374,招远市,招远环保局,,,,,,,,,,,,,,,,
2022-07-26T21:00:00,1976A,120.394,37.364,招远市,招远教育局,,,,,,,,,,,,,,,,
2022-07-26T21:00:00,1977A,119.941,37.177,莱州市,莱州环保局,,,,,,,,,,,,,,,,
2022-07-26T21:00:00,1978A,119.959,37.180,莱州市,莱州外经委,,,,,,,,,,,,,,,,
2022-07-26T21:00:00,1979A,122.471,37.154,荣成市,荣成市环保局办公楼,,,,,,,,,,,,,,,,
2022-07-26T21:00:00,1980A,122.410,37.161,荣成市,山东成山轮胎公司,,,,,,,,,,,,,,,,
2022-07-26T21:00:00,1981A,122.038,37.197,文登市,文登市环保局,,,,,,,,,,,,,,,,
2022-07-26T21:00:00,1982A,122.0693,37.2174,威海市,文登开发区,,22,12,18,5,9,89,68,83,79,10,12,4,4,0.0,0.4
2022-07-26T21:00:00,1983A,121.531,36.913,乳山市,乳山市环保局,,,,,,,,,,,,,,,,
2022-07-26T21:00:00,1984A,121.544,36.907,乳山市,乳山市气象局,,,,,,,,,,,,,,,,
2022-07-26T21:00:00,1985A,120.636,31.155,吴江市,吴江市环保局,,,,,,,,,,,,,,,,
2022-07-26T21:00:00,1986A,120.635,31.170,吴江市,教师进修学校,,,,,,,,,,,,,,,,
2022-07-26T21:00:00,1987A,120.658,31.172,吴江市,吴江开发区,,,,,,,,,,,,,,,,
2022-07-26T21:00:00,1988A,120.953,31.388,昆山市,昆山实验小学,,,,,,,,,,,,,,,,
2022-07-26T21:00:00,1989A,120.999,31.381,昆山市,震川中学,,,,,,,,,,,,,,,,
2022-07-26T21:00:00,1990A,120.758,31.670,常熟市,海虞子站,,,,,,,,,,,,,,,,
2022-07-26T21:00:00,1991A,120.721,31.671,常熟市,兴福子站,,,,,,,,,,,,,,,,
2022-07-26T21:00:00,1992A,120.734,31.656,常熟市,菱塘子站,,,,,,,,,,,,,,,,
2022-07-26T21:00:00,1993A,120.526,31.874,张家港市,张家港市监测站,,,,,,,,,,,,,,,,
2022-07-26T21:00:00,1994A,120.550,31.882,张家港市,城北小学,,,,,,,,,,,,,,,,
2022-07-26T21:00:00,1995A,121.115,31.453,太仓市,太仓市监测站,,,,,,,,,,,,,,,,
2022-07-26T21:00:00,1996A,121.140,31.422,太仓市,科教新城实小,,,,,,,,,,,,,,,,
2022-07-26T21:00:00,1997A,119.146,31.955,句容市,消防指挥中心,,,,,,,,,,,,,,,,
2022-07-26T21:00:00,1998A,119.180,31.955,句容市,房家坝,,,,,,,,,,,,,,,,
2022-07-26T21:00:00,1999A,120.268,31.920,江阴市,虹桥邮政,,,,,,,,,,,,,,,,
2022-07-26T21:00:00,2000A,120.237,31.909,江阴市,五星公园,,,,,,,,,,,,,,,,
2022-07-26T21:00:00,2001A,120.302,31.920,江阴市,第二实验小学,,,,,,,,,,,,,,,,
2022-07-26T21:00:00,2002A,119.818,31.354,宜兴市,宜兴市环保局,,,,,,,,,,,,,,,,
2022-07-26T21:00:00,2003A,119.794,31.371,宜兴市,宜园,,,,,,,,,,,,,,,,
2022-07-26T21:00:00,2004A,119.579,31.751,金坛市,金坛市环境监测站,,,,,,,,,,,,,,,,
2022-07-26T21:00:00,2005A,119.579,31.737,金坛市,金坛市自来水公司,,,,,,,,,,,,,,,,
2022-07-26T21:00:00,2006A,119.460,31.400,溧阳市,溧阳市东门子站,,,,,,,,,,,,,,,,
2022-07-26T21:00:00,2007A,119.438,31.317,溧阳市,燕山子站,,,,,,,,,,,,,,,,
2022-07-26T21:00:00,2008A,121.173,31.896,海门市,海门市监测站,,,,,,,,,,,,,,,,
2022-07-26T21:00:00,2009A,121.1518,31.89708,海门市,社会福利院,,,,,,,,,,,,,,,,
2022-07-26T21:00:00,2010A,119.7183,30.2366,临安市,市政府,,,,,,,,,,,,,,,,
2022-07-26T21:00:00,2011A,119.6942,30.2311,临安市,四中,,,,,,,,,,,,,,,,
2022-07-26T21:00:00,2012A,119.954,30.054,富阳市,监测站,,,,,,,,,,,,,,,,
2022-07-26T21:00:00,2013A,119.946,30.049,富阳市,富春二小,,,,,,,,,,,,,,,,
2022-07-26T21:00:00,2014A,120.091,29.305,义乌市,江东,,,,,,,,,,,,,,,,
2022-07-26T21:00:00,2015A,120.040,29.334,义乌市,北苑,,,,,,,,,,,,,,,,
2022-07-26T21:00:00,2016A,120.251,29.719,诸暨市,图书馆,,,,,,,,,,,,,,,,
2022-07-26T21:00:00,2017A,120.209,29.732,诸暨市,富林印务,,,,,,,,,,,,,,,,
2022-07-26T21:00:00,2018A,121.989,39.625,瓦房店市,抱龙山庄,,,,,,,,,,,,,,,,
2022-07-26T21:00:00,2019A,122.011,39.617,瓦房店市,东山公园,,,,,,,,,,,,,,,,
2022-07-26T21:00:00,2031A,113.1817,27.9958,株洲市,云田中学,细颗粒物(PM2.5),54,36,36,38,26,144,90,138,126,13,10,3,8,0.5,0.5
2022-07-26T21:00:00,2054A,114.1099,32.1059,信阳市,平桥分局,,29,27,22,8,10,145,91,127,114,8,7,10,10,0.5,0.5
2022-07-26T21:00:00,2064A,113.9956,32.1271,信阳市,南湾水厂,,27,22,22,16,9,132,86,127,116,8,4,5,5,0.5,0.4
2022-07-26T21:00:00,2065A,114.0775,32.1195,信阳市,市酿酒公司,,26,17,17,5,6,147,82,132,116,14,10,8,8,0.5,0.4
2022-07-26T21:00:00,2066A,114.0609,32.1399,信阳市,审计局,,27,19,22,5,7,144,86,134,120,8,5,7,7,0.5,0.5
2022-07-26T21:00:00,2067A,114.6613,33.6128,周口市,市环境监测站,,,16,25,9,8,147,,138,132,29,13,6,5,,0.3
2022-07-26T21:00:00,2068A,114.6758,33.6347,周口市,周口师范,,31,19,18,8,5,148,97,138,131,12,7,5,2,0.4,0.4
2022-07-26T21:00:00,2069A,114.6546,33.5979,周口市,市运管处,,24,21,31,7,14,139,75,136,105,37,21,3,5,0.5,0.4
2022-07-26T21:00:00,2070A,114.6369,33.6406,周口市,川汇区环保局,,32,25,17,10,10,148,100,137,130,10,6,8,5,0.4,0.3
2022-07-26T21:00:00,2075A,117.6336,24.4674,漳州市,九湖(对照点),,,,,,,,,,,,,,,,
2022-07-26T21:00:00,2160A,112.85,35.5051,晋城市,自来水公司,颗粒物(PM10),54,58,30,29,16,155,149,148,148,13,17,4,4,0.6,0.5
2022-07-26T21:00:00,2161A,112.8318,35.4936,晋城市,白云商贸,,50,41,26,24,12,164,160,157,157,12,16,3,3,0.8,0.7
2022-07-26T21:00:00,2162A,112.8508,35.4887,晋城市,市环保局,,48,42,21,31,15,159,152,154,154,16,20,3,3,0.7,0.6
2022-07-26T21:00:00,2163A,112.8676,35.4897,晋城市,技术学院,,43,32,16,27,6,151,136,144,144,15,19,2,2,0.6,0.4
2022-07-26T21:00:00,2164A,112.8271,35.4828,晋城市,泽州一中,,,,,,,,,,,,,,,,
2022-07-26T21:00:00,2165A,112.8453,35.546,晋城市,白马寺 (对照点),,,,,,,,,,,,,,,,
2022-07-26T21:00:00,2166A,112.4397,39.3522,朔州市,平朔,,48,48,54,32,37,149,84,122,116,25,18,5,6,1.3,0.9
2022-07-26T21:00:00,2167A,112.4575,39.3617,朔州市,朔唯,细颗粒物(PM2.5),59,56,57,42,37,149,100,121,117,24,23,6,6,0.9,0.9
2022-07-26T21:00:00,2168A,112.4258,39.3197,朔州市,区政府,,,50,62,40,40,136,,124,124,28,17,8,9,,0.9
2022-07-26T21:00:00,2169A,112.4072,39.3278,朔州市,市环保局,颗粒物(PM10),55,59,59,29,30,148,91,124,120,35,20,6,7,0.8,0.7
2022-07-26T21:00:00,2170A,112.4272,39.3681,朔州市,市二中,,48,48,55,33,40,147,86,117,111,21,16,3,7,0.8,0.8
2022-07-26T21:00:00,2171A,112.7532,37.6945,晋中市,锦纶小区,,36,25,31,9,17,155,114,146,140,14,17,8,8,0.4,0.4
2022-07-26T21:00:00,2173A,112.7249,37.7067,晋中市,南都小区,,36,25,30,12,17,150,114,143,138,13,19,6,7,0.4,0.4
2022-07-26T21:00:00,2174A,112.6991,37.6982,晋中市,榆次区政府,,35,21,28,17,16,143,109,135,131,10,15,9,9,0.5,0.5
2022-07-26T21:00:00,2175A,110.9956,35.0147,运城市,运城中学,,45,38,26,31,18,105,100,102,101,6,7,4,5,0.7,0.7
2022-07-26T21:00:00,2176A,111.0233,35.0611,运城市,禹都开发区,,,,,,,,,,,,,,,,
2022-07-26T21:00:00,2178A,110.9686,35.0303,运城市,地区技校,,36,36,28,23,10,118,110,115,115,6,7,5,7,0.5,0.6
2022-07-26T21:00:00,2179A,111.0414,35.1147,运城市,空港新区,,,,36,20,16,117,104,116,114,9,11,8,11,0.4,0.6
2022-07-26T21:00:00,2181A,112.7383,38.4519,忻州市,开发区,细颗粒物(PM2.5),57,53,52,40,44,174,86,148,133,17,14,9,10,0.8,0.8
2022-07-26T21:00:00,2182A,112.7003,38.4928,忻州市,会展中心,,,35,57,25,35,165,,137,137,12,16,6,9,0.5,0.5
2022-07-26T21:00:00,2183A,111.1406,37.5211,吕梁市,环保局,,49,49,58,19,19,163,61,135,122,48,32,1,5,0.5,0.5
2022-07-26T21:00:00,2185A,111.1297,37.5136,吕梁市,自来水公司,,33,31,54,23,21,168,88,140,129,26,24,1,9,0.5,0.6
2022-07-26T21:00:00,2186A,106.8288,39.6778,乌海市,聚英学校,,,,,,,,,,,,,,,,
2022-07-26T21:00:00,2187A,106.8174,39.6973,乌海市,市林业局,颗粒物(PM10),68,86,62,26,22,142,110,123,120,6,13,5,8,0.5,0.6
2022-07-26T21:00:00,2188A,106.7907,39.6667,乌海市,中海勃湾学校,颗粒物(PM10),59,68,61,23,19,142,106,126,122,15,15,7,10,0.6,0.4
2022-07-26T21:00:00,2191A,122.2532,43.6801,通辽市,艺术职业学校,颗粒物(PM10),57,63,67,13,32,147,109,139,128,15,13,10,6,0.2,0.5
2022-07-26T21:00:00,2192A,119.7594,49.2261,呼伦贝尔市,区环保局,,34,34,27,22,20,106,92,91,91,7,10,5,5,0.4,0.3
2022-07-26T21:00:00,2194A,107.5936,40.916,巴彦淖尔市,秋林养殖基地(对照点),,,,,,,,,,,,,,,,
2022-07-26T21:00:00,2195A,107.4212,40.761,巴彦淖尔市,附二中,颗粒物(PM10),172,294,64,42,20,128,98,120,114,10,11,2,3,0.5,0.6
2022-07-26T21:00:00,2196A,107.37,40.7372,巴彦淖尔市,市环保大楼,颗粒物(PM10),155,259,69,39,20,122,100,112,110,11,10,3,3,0.4,0.6
2022-07-26T21:00:00,2197A,113.1306,40.9923,乌兰察布市,集宁新区,,35,35,38,19,27,145,102,140,129,20,12,9,10,0.5,0.5
2022-07-26T21:00:00,2200A,122.0392,46.0656,兴安盟,胜华新制药厂,细颗粒物(PM2.5),59,48,35,42,29,120,100,110,95,6,10,3,4,0.4,1.2
2022-07-26T21:00:00,2201A,121.9504,46.0741,兴安盟,科右前旗环保局,细颗粒物(PM2.5),52,39,32,36,28,128,110,116,95,6,11,4,4,0.3,0.4
2022-07-26T21:00:00,2202A,116.1042,43.9317,锡林郭勒盟,市环保监测站,,39,9,25,8,9,131,122,125,124,5,4,11,11,0.2,0.3
2022-07-26T21:00:00,2203A,116.0781,43.9311,锡林郭勒盟,市政府,,40,17,22,12,10,135,128,126,126,8,6,9,9,0.3,0.3
2022-07-26T21:00:00,2204A,105.6467,38.8363,阿拉善盟,西城区西花园(对照点),,43,32,38,12,16,139,137,127,126,9,8,3,4,0.4,0.4
2022-07-26T21:00:00,2205A,105.6985,38.8411,阿拉善盟,蒙二幼,,42,22,45,24,27,140,134,131,123,9,8,7,7,0.3,0.3
2022-07-26T21:00:00,2206A,105.724,38.8516,阿拉善盟,环保局新楼,,41,22,33,16,21,148,130,131,124,10,8,7,7,0.3,0.3
2022-07-26T21:00:00,2207A,121.6094,41.998,阜新市,工业园区,颗粒物(PM10),52,54,59,12,28,144,91,130,119,20,12,9,5,0.6,0.7
2022-07-26T21:00:00,2208A,121.6697,42.0279,阜新市,长青街,,36,26,47,17,33,152,115,135,124,15,9,9,7,0.5,0.6
2022-07-26T21:00:00,2209A,121.6673,42.0705,阜新市,农业园区,,40,28,47,10,29,168,125,146,137,8,7,8,9,0.6,0.8
2022-07-26T21:00:00,2210A,121.6717,42.0224,阜新市,东苑,,35,33,57,17,39,150,111,134,122,19,10,6,12,0.5,0.7
2022-07-26T21:00:00,2211A,121.6506,42.0498,阜新市,玉龙新城,,45,45,47,14,29,145,121,135,131,11,10,9,8,0.6,0.9
2022-07-26T21:00:00,2212A,123.2,41.1953,辽阳市,宏伟区,,26,24,39,18,23,146,79,130,119,8,6,5,6,0.5,0.5
2022-07-26T21:00:00,2213A,123.1683,41.2495,辽阳市,新华园,,35,35,44,19,28,164,87,146,135,13,10,6,6,0.4,0.5
2022-07-26T21:00:00,2214A,123.2354,41.2639,辽阳市,滨河路,颗粒物(PM10),53,56,53,26,34,160,55,141,121,21,10,8,8,0.6,0.6
2022-07-26T21:00:00,2215A,123.149,41.2991,辽阳市,铁西工业园,细颗粒物(PM2.5),64,54,50,46,36,170,69,148,133,24,14,5,5,0.7,0.8
2022-07-26T21:00:00,2216A,123.8139,42.3022,铁岭市,汇工街西,,40,39,52,16,27,212,127,177,165,13,13,6,7,0.6,0.7
2022-07-26T21:00:00,2217A,123.8649,42.2923,铁岭市,水上乐园,颗粒物(PM10),55,60,63,28,36,196,71,169,158,36,22,6,6,0.5,0.5
2022-07-26T21:00:00,2218A,123.8486,42.2867,铁岭市,银州路东段,,46,46,47,27,28,189,65,164,146,44,20,4,6,0.6,0.7
2022-07-26T21:00:00,2219A,123.7153,42.2217,铁岭市,金沙江路北,,33,33,47,16,26,201,62,168,145,42,24,5,9,0.7,0.8
2022-07-26T21:00:00,2220A,120.4318,41.5881,朝阳市,西梁,,31,22,74,13,25,124,98,121,108,8,8,7,7,0.6,0.9
2022-07-26T21:00:00,2221A,120.4521,41.5646,朝阳市,河畔小区,,35,15,65,9,25,138,109,135,114,4,6,6,7,0.4,0.6
2022-07-26T21:00:00,2222A,120.4176,41.5648,朝阳市,八里堡,,32,32,63,16,28,125,93,118,106,11,11,5,5,0.6,0.8
2022-07-26T21:00:00,2223A,120.3806,41.5969,朝阳市,农业园区,,30,12,60,9,25,124,95,117,110,9,12,6,8,0.5,0.8
2022-07-26T21:00:00,2225A,124.4002,43.1713,四平市,一商场,颗粒物(PM10),54,58,50,36,36,174,119,164,156,24,10,4,3,0.7,0.6
2022-07-26T21:00:00,2226A,124.388,43.193,四平市,境园,,41,41,46,27,32,176,126,158,154,19,11,9,8,0.7,0.7
2022-07-26T21:00:00,2227A,125.1358,42.8845,辽源市,环保局,,38,38,37,23,27,139,16,134,100,44,11,5,5,1.0,0.7
2022-07-26T21:00:00,2229A,125.9358,41.7173,通化市,光明,,40,40,36,17,19,120,29,106,77,25,18,9,11,0.7,0.7
2022-07-26T21:00:00,2230A,125.9446,41.7325,通化市,铁路,,44,44,32,28,19,136,28,115,82,26,21,10,12,0.9,1
2022-07-26T21:00:00,2231A,126.4219,41.9171,白山市,喜丰,,50,50,46,21,21,137,26,118,94,24,14,8,8,0.9,0.8
2022-07-26T21:00:00,2232A,126.4077,41.9419,白山市,环保局,,48,46,43,33,23,135,37,120,93,13,13,8,9,0.8,0.6
2022-07-26T21:00:00,2233A,124.8006,45.1214,松原市,江南,,43,38,30,30,22,119,98,107,106,14,11,5,4,0.7,0.5
2022-07-26T21:00:00,2234A,124.7965,45.1722,松原市,江北,,44,43,28,25,20,138,138,131,131,10,9,1,2,0.7,0.5
2022-07-26T21:00:00,2235A,122.7911,45.6077,白城市,洮北区环保局,,50,47,49,35,25,123,102,111,108,6,8,5,4,0.3,0.3
2022-07-26T21:00:00,2236A,122.8738,45.5725,白城市,市环保局,颗粒物(PM10),51,51,47,21,21,125,109,110,110,8,10,4,5,0.3,0.3
2022-07-26T21:00:00,2237A,129.47,42.8883,延边朝鲜族自治州,妇幼医院,,34,34,28,22,19,124,28,105,90,12,9,7,8,0.6,0.5
2022-07-26T21:00:00,2238A,129.5055,42.9108,延边朝鲜族自治州,延边医院,,,,,,,,,,,,,,,,
2022-07-26T21:00:00,2239A,129.3964,42.8881,延边朝鲜族自治州,朝阳川镇医院,,49,49,28,18,8,135,16,101,86,25,11,7,7,0.5,0.4
2022-07-26T21:00:00,2240A,130.9762,45.3001,鸡西市,环保局,,43,43,21,15,11,91,31,86,76,18,15,1,2,0.3,0.4
2022-07-26T21:00:00,2243A,130.9429,45.3039,鸡西市,第一中学,颗粒物(PM10),51,51,22,14,9,98,26,93,80,18,10,2,3,0.4,0.3
2022-07-26T21:00:00,2244A,130.2537,47.3416,鹤岗市,哈啤分公司,,13,13,6,4,5,95,25,84,66,17,9,5,6,0.3,0.2
2022-07-26T21:00:00,2245A,130.2684,47.3086,鹤岗市,斯达机电,,25,25,16,9,7,80,49,74,68,10,9,6,6,0.2,0.2
2022-07-26T21:00:00,2246A,130.3114,47.3388,鹤岗市,东山纸板厂,,,,40,20,12,82,12,72,53,28,13,8,8,0.3,0.4
2022-07-26T21:00:00,2247A,130.1097,47.3382,鹤岗市,五号水库(对照点),,8,8,6,3,5,119,20,94,74,14,9,4,7,0.2,0.2
2022-07-26T21:00:00,2248A,131.1511,46.6937,双鸭山市,双合村,,26,26,26,10,11,111,25,94,80,33,15,5,6,0.4,0.8
2022-07-26T21:00:00,2249A,131.1652,46.6191,双鸭山市,南小市,,39,39,24,23,9,108,24,97,81,60,14,3,4,0.2,0.1
2022-07-26T21:00:00,2250A,131.1524,46.6554,双鸭山市,环保局,,26,26,14,12,8,104,25,96,86,36,11,4,8,0.6,0.4
2022-07-26T21:00:00,2251A,131.12,46.5656,双鸭山市,苗圃(对照点),细颗粒物(PM2.5),95,54,18,71,15,106,32,96,78,6,5,3,4,0.7,0.5
2022-07-26T21:00:00,2252A,128.5159,47.4311,伊春市,环保局,,26,20,13,18,9,79,20,66,55,22,14,5,5,0.4,0.3
2022-07-26T21:00:00,2253A,128.9102,47.7412,伊春市,电力嘉园,,10,10,9,5,6,77,16,65,53,11,7,6,6,0.5,0.5
2022-07-26T21:00:00,2254A,129.5029,48.471,伊春市,汤旺河国家公园(对照点),,16,10,6,11,5,56,4,51,35,2,2,7,6,0.3,0.3
2022-07-26T21:00:00,2255A,130.2751,46.8028,佳木斯市,佳纺,颗粒物(PM10),52,53,22,14,13,95,21,81,72,48,16,4,6,0.4,0.4
2022-07-26T21:00:00,2256A,130.3995,46.8307,佳木斯市,发电厂,,39,39,20,15,14,93,43,86,81,16,15,4,3,0.4,0.4
2022-07-26T21:00:00,2257A,130.3258,46.7975,佳木斯市,环保局,,36,36,27,17,13,93,53,77,73,32,20,3,2,0.6,0.5
2022-07-26T21:00:00,2258A,130.3648,46.8032,佳木斯市,十一中,,35,35,35,20,17,95,38,85,78,35,23,6,5,0.6,0.4
2022-07-26T21:00:00,2259A,130.3794,46.7588,佳木斯市,四丰(对照点),,25,24,21,17,12,106,41,91,83,29,18,1,1,0.4,0.3
2022-07-26T21:00:00,2262A,131.0518,45.8751,七台河市,新一中(对照点),,23,23,9,8,7,138,42,129,107,21,12,7,7,0.9,0.6
2022-07-26T21:00:00,2263A,127.4833,50.2524,黑河市,交通局,,,39,26,13,9,72,29,59,53,21,10,,4,,0.3
2022-07-26T21:00:00,2264A,127.5144,50.2341,黑河市,环保局,,30,30,24,13,9,67,44,59,57,5,8,5,6,0.4,0.4
2022-07-26T21:00:00,2265A,127.5291,50.2472,黑河市,大黑河岛(对照点),,28,28,25,6,9,65,33,58,55,6,5,10,8,0.7,0.6
2022-07-26T21:00:00,2266A,126.9785,46.6365,绥化市,人和东街,,30,22,25,21,17,134,95,124,120,14,15,5,11,0.4,0.3
2022-07-26T21:00:00,2267A,126.964,46.6528,绥化市,党政办公中心,,33,33,25,20,14,137,101,127,124,14,13,6,12,0.4,0.3
2022-07-26T21:00:00,2269A,124.1069,50.4097,大兴安岭地区,科技局,,22,9,6,11,8,80,70,76,75,9,5,3,3,0.3,0.2
2022-07-26T21:00:00,2270A,117.396,32.939,蚌埠市,工人疗养院,,26,18,21,18,13,122,58,110,78,24,11,8,8,0.3,0.3
2022-07-26T21:00:00,2271A,117.3605,32.9427,蚌埠市,百货大楼,,24,24,20,8,10,120,55,110,77,28,17,7,8,0.4,0.4
2022-07-26T21:00:00,2273A,117.4185,32.8911,蚌埠市,蚌埠学院,,22,22,22,9,9,112,60,95,79,14,11,9,10,0.4,0.4
2022-07-26T21:00:00,2274A,117.3533,32.9673,蚌埠市,淮上区政府,,24,14,21,7,9,125,76,103,83,9,9,8,9,0.3,0.3
2022-07-26T21:00:00,2275A,117.3145,32.8977,蚌埠市,高新区,,25,19,17,17,12,121,78,110,88,8,10,9,9,0.5,0.5
2022-07-26T21:00:00,2277A,116.8305,32.7727,淮南市,潘集区政府,,25,25,20,9,11,114,76,106,92,15,11,6,6,0.2,0.2
2022-07-26T21:00:00,2278A,117.0067,32.6524,淮南市,师范学院,,34,34,26,10,14,114,86,102,89,7,5,6,6,0.2,0.2
2022-07-26T21:00:00,2279A,116.8569,32.5951,淮南市,谢家集区政府,,23,6,16,9,7,117,72,104,84,20,11,18,7,0.4,0.2
2022-07-26T21:00:00,2280A,116.8281,32.633,淮南市,八公山区政府,,24,16,18,8,9,116,75,106,86,17,9,7,5,0.4,0.2
2022-07-26T21:00:00,2281A,116.6325,32.6201,淮南市,焦岗湖风景区管理处(对照点),,20,8,16,6,5,112,64,107,89,16,10,6,7,0.1,0.1
2022-07-26T21:00:00,2282A,116.8004,33.975,淮北市,监测站,,36,36,22,13,11,140,90,132,118,18,7,6,5,0.7,0.5
2022-07-26T21:00:00,2283A,116.8091,33.9007,淮北市,烈山区政府,,33,22,15,18,14,147,105,127,126,13,6,6,6,0.7,0.6
2022-07-26T21:00:00,2284A,116.7856,33.9477,淮北市,职业技术学院,,39,39,25,14,11,142,98,125,116,11,4,6,6,0.6,0.5
2022-07-26T21:00:00,2285A,117.8177,30.9412,铜陵市,市第四中学,,23,13,21,7,11,106,73,94,92,20,23,5,7,0.4,0.4
2022-07-26T21:00:00,2286A,117.8059,30.9273,铜陵市,市公路局,,35,35,31,16,11,102,69,90,86,23,22,8,10,0.6,0.6
2022-07-26T21:00:00,2287A,117.7807,30.9413,铜陵市,市新民污水厂,,22,20,23,5,13,99,69,90,89,22,25,8,9,0.4,0.4
2022-07-26T21:00:00,2288A,117.7439,30.8792,铜陵市,市第九中学,,37,37,34,17,14,106,55,94,88,32,27,8,9,0.4,0.7
2022-07-26T21:00:00,2289A,117.846,30.9413,铜陵市,车站新区,,22,22,25,3,10,98,45,85,80,30,21,9,9,0.4,0.4
2022-07-26T21:00:00,2290A,117.8483,30.97,铜陵市,市职教基地,,23,22,25,1,7,101,72,88,87,14,14,5,7,0.7,0.7
2022-07-26T21:00:00,2291A,117.0809,30.5177,安庆市,环科院,,39,21,23,8,10,136,123,120,120,14,22,6,7,0.5,0.6
2022-07-26T21:00:00,2292A,117.0331,30.5119,安庆市,马山宾馆,,39,17,22,5,7,129,123,111,111,13,23,7,7,0.5,0.6
2022-07-26T21:00:00,2294A,116.9896,30.6145,安庆市,安庆大学,,22,22,24,8,11,122,52,104,99,22,20,5,6,0.4,0.6
2022-07-26T21:00:00,2295A,118.2903,29.6963,黄山市,延安路89号,,28,28,23,2,8,107,58,86,77,6,5,5,5,0.2,0.2
2022-07-26T21:00:00,2296A,118.327,29.7178,黄山市,黄山东路89号,,20,20,19,3,4,108,36,81,65,4,4,4,4,0.4,0.3
2022-07-26T21:00:00,2297A,118.1371,30.2756,黄山市,黄山区政府5号楼,,33,33,21,6,5,89,22,73,46,7,4,5,5,0.4,0.1
2022-07-26T21:00:00,2298A,118.3093,32.3153,滁州市,老年大学,,20,20,24,7,9,106,63,89,72,14,17,2,6,0.1,0.3
2022-07-26T21:00:00,2299A,118.3244,32.2786,滁州市,人大宾馆,,20,6,20,4,9,105,63,89,76,12,17,5,9,0.3,0.4
2022-07-26T21:00:00,2301A,115.8277,32.8929,阜阳市,市监测站,,,22,14,3,3,138,29,134,100,78,17,10,6,0.4,0.4
2022-07-26T21:00:00,2303A,115.8554,32.8605,阜阳市,开发区,,28,10,8,8,6,132,88,132,116,13,9,9,7,0.3,0.3
2022-07-26T21:00:00,2306A,116.989,33.6306,宿州市,火车站,,,,,,,,,,,,,,,,
2022-07-26T21:00:00,2307A,116.5079,31.737,六安市,监测大楼,,20,13,14,3,5,113,64,101,97,8,6,7,6,0.4,0.3
2022-07-26T21:00:00,2308A,116.4738,31.7643,六安市,皖西学院,,23,2,10,6,5,110,71,100,96,5,4,14,10,0.1,0.1
2022-07-26T21:00:00,2309A,116.4996,31.7905,六安市,朝阳厂,,20,2,9,5,5,94,62,88,85,5,4,9,9,0.3,0.3
2022-07-26T21:00:00,2310A,116.5567,31.7886,六安市,开发区,,,5,15,8,7,106,52,92,87,6,11,,8,0.3,0.4
2022-07-26T21:00:00,2311A,115.8072,33.8399,亳州市,污水处理厂,,27,7,6,6,4,126,86,113,108,13,10,6,6,0.4,0.4
2022-07-26T21:00:00,2312A,115.7789,33.8518,亳州市,三国揽胜宫,,30,18,16,0,7,133,95,113,110,9,6,6,6,0.4,0.4
2022-07-26T21:00:00,2314A,117.47,30.6618,池州市,池州学院,,32,15,19,7,9,121,100,108,108,10,13,6,8,0.4,0.6
2022-07-26T21:00:00,2315A,117.4974,30.6539,池州市,平天湖(对照点),,,,,,,,,,,,,,,,
2022-07-26T21:00:00,2316A,118.7581,30.9454,宣城市,鳌峰子站,,28,15,23,5,11,106,87,90,88,20,15,4,5,0.4,0.4
2022-07-26T21:00:00,2317A,118.7385,30.9743,宣城市,敬亭山子站,,20,16,21,5,10,128,64,95,80,15,15,6,8,0.3,0.3
2022-07-26T21:00:00,2318A,118.7173,30.9427,宣城市,开发区子站,,24,11,24,6,11,122,75,92,83,22,14,5,7,0.3,0.3
2022-07-26T21:00:00,2319A,119.0141,25.4325,莆田市,荔城区仓后路,,46,46,65,24,28,167,47,145,106,22,19,4,5,0.7,0.7
2022-07-26T21:00:00,2320A,119.0015,25.4553,莆田市,莆田市监测站,颗粒物(PM10),54,57,56,21,30,185,36,162,119,24,17,6,6,0.8,0.8
2022-07-26T21:00:00,2321A,119.1119,25.4561,莆田市,涵江区六中,,36,36,53,10,26,191,27,158,101,28,19,9,8,0.5,0.5
2022-07-26T21:00:00,2322A,119.1013,25.3215,莆田市,秀屿区政府,,,29,36,2,18,165,,128,88,12,11,9,6,0.6,0.6
2022-07-26T21:00:00,2323A,118.981,25.4792,莆田市,东圳水库(对照点),,,,,,,,,,,,,,,,
2022-07-26T21:00:00,2324A,117.6211,26.2625,三明市,三钢,颗粒物(PM10),55,60,47,29,28,167,72,153,132,27,19,12,15,0.7,0.9
2022-07-26T21:00:00,2325A,117.635,26.2714,三明市,三明二中,,50,42,38,35,29,159,68,148,126,33,19,6,15,0.8,0.9
2022-07-26T21:00:00,2326A,117.6028,26.2378,三明市,三元区政府,细颗粒物(PM2.5),60,26,39,43,29,168,91,156,139,12,16,6,13,0.6,0.6
2022-07-26T21:00:00,2327A,117.7275,26.3108,三明市,洋溪(对照点),,,,,,,,,,,,,,,,
2022-07-26T21:00:00,2331A,118.0966,26.6761,南平市,茫荡山(对照点),,,,,,,,,,,,,,,,
2022-07-26T21:00:00,2332A,118.1681,26.6369,南平市,南平市监测站,颗粒物(PM10),53,56,38,31,26,146,81,140,128,13,9,7,6,0.5,0.3
2022-07-26T21:00:00,2333A,118.1825,26.6489,南平市,南平铝业有限公司,颗粒物(PM10),60,70,41,26,23,151,72,140,124,16,9,7,5,0.7,0.5
2022-07-26T21:00:00,2334A,118.1756,26.6272,南平市,南平七中,细颗粒物(PM2.5),55,48,35,39,28,141,74,134,123,10,8,5,5,0.6,0.5
2022-07-26T21:00:00,2335A,117.0189,25.1181,龙岩市,龙岩师专(对照点),,,,,,,,,,,,,,,,
2022-07-26T21:00:00,2336A,117.0217,25.1033,龙岩市,龙岩市监测站,,33,25,46,23,32,131,57,114,92,21,17,9,12,0.6,0.6
2022-07-26T21:00:00,2337A,117.0258,25.0661,龙岩市,闽西职业技术学院,颗粒物(PM10),51,52,53,26,34,123,50,111,89,22,15,13,7,0.6,0.6
2022-07-26T21:00:00,2338A,117.0196,25.0306,龙岩市,龙岩学院,,39,32,43,27,32,118,65,110,92,14,11,6,5,0.5,0.5
2022-07-26T21:00:00,2339A,119.5001,26.6946,宁德市,金涵水库(对照点),,19,14,39,11,18,162,60,140,112,7,9,4,4,0.3,0.5
2022-07-26T21:00:00,2341A,119.5388,26.6612,宁德市,宁德市监测站,,30,11,47,21,29,160,66,140,114,10,13,7,7,0.7,0.8
2022-07-26T21:00:00,2342A,117.3102,29.3867,景德镇市,王港中学(对照点),,26,26,26,16,13,123,56,104,87,6,6,5,5,0.4,0.4
2022-07-26T21:00:00,2343A,117.2117,29.2933,景德镇市,老干部活动中心,,46,46,45,16,16,121,30,98,74,17,12,9,7,0.4,0.4
2022-07-26T21:00:00,2344A,117.1894,29.2789,景德镇市,兽医站,,41,41,36,19,15,122,36,100,76,13,12,4,6,0.4,0.4
2022-07-26T21:00:00,2345A,117.1547,29.2617,景德镇市,台达陶瓷,,,,,,,,,98,,,,,,,
2022-07-26T21:00:00,2346A,117.2461,29.2956,景德镇市,陶研所,,45,45,36,17,15,125,33,99,75,7,9,8,9,0.4,0.4
2022-07-26T21:00:00,2347A,114.0997,27.5002,萍乡市,武功山(对照点),,16,2,9,11,8,48,29,38,37,7,6,13,18,0.4,0.3
2022-07-26T21:00:00,2348A,113.8385,27.6434,萍乡市,中医院,,36,31,35,25,23,98,46,90,83,24,22,9,11,0.5,0.6
2022-07-26T21:00:00,2349A,113.8493,27.6253,萍乡市,市政府车库,,35,31,32,24,22,103,45,95,86,21,21,9,10,0.5,0.5
2022-07-26T21:00:00,2350A,113.8676,27.6435,萍乡市,市环保局,,30,16,30,21,24,96,62,89,86,13,18,9,14,0.3,0.5
2022-07-26T21:00:00,2351A,113.866,27.6198,萍乡市,安源区政府,,30,28,25,21,22,94,67,92,84,14,16,11,12,0.4,0.3
2022-07-26T21:00:00,2352A,115.0861,27.9317,新余市,北岗(对照点),,40,40,35,25,24,130,34,102,82,11,11,10,10,0.7,0.8
2022-07-26T21:00:00,2353A,114.9886,27.8431,新余市,飞宇,,38,38,53,21,28,114,39,94,76,13,16,17,11,0.6,1
2022-07-26T21:00:00,2354A,114.9231,27.8246,新余市,第二水厂,,38,38,46,14,22,112,27,100,79,35,16,24,10,1.2,1.2
2022-07-26T21:00:00,2355A,114.9308,27.8036,新余市,市气象局,,44,44,46,25,28,92,19,80,65,44,20,27,10,1.5,0.9
2022-07-26T21:00:00,2357A,116.9822,28.1136,鹰潭市,龙虎山(对照点),颗粒物(PM10),53,55,41,26,20,127,57,110,99,8,6,2,2,0.5,0.5
2022-07-26T21:00:00,2358A,117.0564,28.2642,鹰潭市,新监测站,颗粒物(PM10),57,64,54,27,24,174,100,125,120,1,3,79,25,0.5,0.4
2022-07-26T21:00:00,2359A,117.0311,28.2475,鹰潭市,财苑宾馆,颗粒物(PM10),66,82,51,27,18,121,113,115,114,6,6,30,9,0.7,0.4
2022-07-26T21:00:00,2360A,117.0222,28.2264,鹰潭市,体育馆,颗粒物(PM10),75,99,57,39,24,126,87,119,114,13,5,2,3,0.8,0.5
2022-07-26T21:00:00,2361A,117.0017,28.2131,鹰潭市,三川水表,颗粒物(PM10),75,100,57,36,22,120,86,112,108,10,3,1,2,0.8,0.7
