timepoint,stationcode,longitude,latitude,area,positionname,primarypollutant,aqi,pm10,pm10_24h,pm2_5,pm2_5_24h,o3,o3_24h,o3_8h,o3_8h_24h,no2,no2_24h,so2,so2_24h,co,co_24h
2024-07-02T1800,2566A,102.1879,31.914,阿坝藏族羌族自治州,州农科所,,40,40,26,10,10,72,,69,69,15,13,4,4,0,0
2024-07-02T1800,2568A,102.2502,31.8896,阿坝藏族羌族自治州,马师校,,28,23,19,19,17,84,,84,84,16,15,5,4,0.4,0.4
2024-07-02T1800,3994A,102.2165,31.9024,阿坝藏族羌族自治州,马尔康中学西区,,29,26,18,15,12,91,,89,89,8,8,5,5,0.3,0.2
2024-07-02T1800,2695A,80.292,41.1694,阿克苏地区,电视台,,38,38,70,19,14,107,,110,105,7,10,12,11,0.3,0.3
2024-07-02T1800,2696A,80.2613,41.1551,阿克苏地区,艺术中心,,37,25,65,25,18,117,,105,105,14,13,5,3,0.2,0.3
2024-07-02T1800,2204A,105.6467,38.8363,阿拉善盟,西城区西花园,,49,13,33,9,18,155,,154,154,8,10,9,9,0.5,0.6
2024-07-02T1800,2205A,105.6985,38.8411,阿拉善盟,蒙二幼,,,17,31,3,18,140,,140,140,6,7,10,10,,
2024-07-02T1800,2206A,105.724,38.8516,阿拉善盟,环保局新楼,,45,6,28,3,15,144,,143,143,5,6,13,11,0.4,0.5
2024-07-02T1800,2708A,88.1264,47.8517,阿勒泰地区,市站,,27,27,19,9,7,67,,79,78,18,12,6,6,0.7,0.6
2024-07-02T1800,2630A,80.1161,32.5,阿里地区,阿里监测站,,46,8,12,3,6,145,,135,135,3,8,8,7,0.4,0.4
2024-07-02T1800,3192A,80.0903,32.5028,阿里地区,阿里藏医院,,48,12,14,6,5,151,,140,140,3,4,8,8,0.4,0.4
2024-07-02T1800,2642A,109.0318,32.6537,安康市,香溪洞,,50,50,16,19,5,135,,111,111,4,4,8,6,0.6,0.6
2024-07-02T1800,2643A,109.0281,32.6939,安康市,安康市监测站,,43,27,23,14,11,135,,117,117,6,6,7,7,0.4,0.4
2024-07-02T1800,2644A,109.0072,32.6975,安康市,汉滨区检察院,,45,24,18,18,9,142,,114,114,5,5,7,7,0.5,0.5
2024-07-02T1800,2291A,117.0809,30.5177,安庆市,环科院,,38,,9,9,7,120,,103,103,11,12,5,4,0.6,0.5
2024-07-02T1800,2292A,117.0331,30.5119,安庆市,马山宾馆,,35,,10,12,7,109,,100,100,23,17,7,7,0.7,0.6
2024-07-02T1800,2294A,116.9896,30.6145,安庆市,安庆大学,,42,,10,17,7,133,,107,107,10,12,6,6,0.6,0.5
2024-07-02T1800,3173A,117.0598,30.5351,安庆市,市人大,,39,12,10,10,7,124,,104,104,7,10,6,6,0.5,0.4
2024-07-02T1800,3122A,105.9606,26.2611,安顺市,伍家关,,,,,,,,,,,,,,,,
2024-07-02T1800,3123A,105.9408,26.2431,安顺市,凤凰山,,34,16,19,11,15,107,,109,109,5,13,8,9,0.5,0.3
2024-07-02T1800,3124A,105.9439,26.2564,安顺市,金钟山,细颗粒物(PM2.5),53,,19,37,38,112,,114,114,4,8,5,7,0.4,0.5
2024-07-02T1800,3125A,105.8983,26.2481,安顺市,娄家坡,,34,25,24,14,11,107,,112,112,4,9,5,6,0.3,0.5
2024-07-02T1800,1818A,114.4839,36.0621,安阳市,棉研所,,,,,,,,,,,,,,,,
2024-07-02T1800,1819A,114.3551,36.1017,安阳市,红庙街,,49,37,24,34,23,134,,130,130,1,2,1,2,0.4,0.4
2024-07-02T1800,1820A,114.361,36.0681,安阳市,银杏小区,,42,30,22,26,16,132,,128,128,1,2,6,6,0.6,0.7
2024-07-02T1800,3141A,114.3922,36.0878,安阳市,信访局,,42,32,22,26,17,133,,130,130,2,2,3,3,0.9,0.9
2024-07-02T1800,3669A,114.4705,36.0637,安阳市,左辅环卫站,,50,42,26,35,25,131,,128,128,4,3,2,2,0.6,0.7
2024-07-02T1800,3703A,114.2917,36.0949,安阳市,安钢职工学校,细颗粒物(PM2.5),67,,30,48,42,131,,124,124,6,12,2,5,0.2,0.7
2024-07-02T1800,1748A,123.044,41.1196,鞍山市,深沟寺,,43,43,67,23,41,53,,64,50,30,33,4,5,0.8,0.7
2024-07-02T1800,1749A,123.011,41.0931,鞍山市,太阳城,,27,27,55,18,38,48,,82,51,29,27,6,8,1.1,1
2024-07-02T1800,1750A,123.0485,41.1442,鞍山市,太平,颗粒物(PM10),55,59,95,25,48,62,,61,61,26,44,5,10,1.0,1
2024-07-02T1800,1751A,122.9642,41.0971,鞍山市,铁西三道街,,46,46,80,32,51,62,,60,56,30,43,4,11,1.0,1.4
2024-07-02T1800,1752A,122.9341,41.0833,鞍山市,铁西工业园区,,35,35,95,23,64,56,,41,41,36,55,5,15,1.2,2.1
2024-07-02T1800,1753A,123.022,41.0821,鞍山市,明达新区,,26,20,63,18,57,59,,89,61,15,22,6,8,0.7,0.7
2024-07-02T1800,1754A,123.1289,41.0228,鞍山市,千山,,,,,,,,,,,,,,,,
2024-07-02T1800,2195A,107.4212,40.761,巴彦淖尔市,附二中,,50,35,41,21,17,157,,145,145,4,11,3,4,0.5,0.5
2024-07-02T1800,2196A,107.37,40.7372,巴彦淖尔市,市环保大楼,,50,33,43,7,14,158,,149,149,5,13,4,5,0.4,0.4
2024-07-02T1800,1956A,86.1472,41.7538,巴音郭楞蒙古自治州,孔雀公园,颗粒物(PM10),57,64,66,13,23,91,,91,91,8,14,3,4,0.2,0.2
2024-07-02T1800,1957A,86.1972,41.7166,巴音郭楞蒙古自治州,棉纺厂,颗粒物(PM10),51,52,55,12,22,94,,94,94,9,17,4,5,0.1,0.2
2024-07-02T1800,1958A,86.2357,41.7173,巴音郭楞蒙古自治州,经济开发区,颗粒物(PM10),52,54,47,13,23,108,,109,109,8,6,2,3,0.2,0.2
2024-07-02T1800,2914A,106.7677,31.8794,巴中市,苏山坪,,33,22,14,14,10,105,,110,110,8,6,3,4,0.5,0.4
2024-07-02T1800,3182A,106.7656,31.8545,巴中市,丽阳花园,,38,24,22,19,14,120,,114,114,8,15,6,6,0.4,0.4
2024-07-02T1800,3183A,106.7418,31.8654,巴中市,圣泉水务公司,,36,21,21,14,12,115,,113,113,8,17,4,5,0.5,0.4
2024-07-02T1800,3616A,106.7616,31.8344,巴中市,市中心医院,,37,21,20,14,13,118,,114,114,4,13,6,6,0.4,0.5
2024-07-02T1800,2235A,122.7911,45.6077,白城市,洮北区环保局,颗粒物(PM10),59,68,40,17,25,123,,120,120,11,18,3,2,0.1,0.1
2024-07-02T1800,2236A,122.8738,45.5725,白城市,市环保局,,38,,33,26,24,120,,123,123,11,20,2,4,0.3,0.3
2024-07-02T1800,2231A,126.4219,41.9171,白山市,喜丰,,25,25,61,9,23,63,,85,84,5,15,8,10,1.2,1.1
2024-07-02T1800,2232A,126.4077,41.9419,白山市,环保局,,31,31,47,6,24,53,,80,78,13,10,10,10,1.0,0.9
2024-07-02T1800,2647A,104.1724,36.5446,白银市,第三小学,,45,27,35,11,20,143,,136,136,9,24,9,15,0.6,0.8
2024-07-02T1800,2648A,104.1465,36.5482,白银市,动力公司,,45,16,22,3,15,143,,136,136,8,15,10,11,0.2,0.5
2024-07-02T1800,2512A,106.6103,23.9011,百色市,市监测站,,41,41,23,14,12,98,,88,88,9,9,22,7,1.1,0.8
2024-07-02T1800,2513A,106.6538,23.8859,百色市,市中心血站,,38,38,28,24,17,101,,88,88,10,15,16,10,1.0,0.8
2024-07-02T1800,3406A,106.6085,23.8798,百色市,祈福高中,,40,40,25,26,10,95,,85,85,7,10,17,9,1.0,0.8
2024-07-02T1800,2270A,117.396,32.939,蚌埠市,工人疗养院,,46,26,25,10,10,145,,135,135,2,2,7,7,0.4,0.5
2024-07-02T1800,2271A,117.3605,32.9427,蚌埠市,百货大楼,,48,30,26,18,17,151,,143,143,2,3,4,5,0.4,0.5
2024-07-02T1800,2273A,117.4185,32.8911,蚌埠市,蚌埠学院,,49,22,14,15,14,154,,143,143,2,2,5,6,0.4,0.5
2024-07-02T1800,2274A,117.3533,32.9673,蚌埠市,淮上区政府,,46,27,22,26,20,146,,140,140,1,2,5,5,0.4,0.4
2024-07-02T1800,2275A,117.3145,32.8977,蚌埠市,高新区,,49,27,20,20,14,156,,144,144,3,4,5,5,0.5,0.5
2024-07-02T1800,3715A,117.3092,32.9314,蚌埠市,蚌埠田家炳中学,,47,27,23,17,14,149,,141,141,2,2,6,6,0.4,0.3
2024-07-02T1800,1585A,109.8756,40.6532,包头市,市环境监测站,,,,28,,13,104,,120,117,32,20,10,9,,0.8
2024-07-02T1800,1587A,109.9991,40.5842,包头市,包头八中,,46,39,29,16,15,147,,147,147,16,19,12,14,0.7,0.6
2024-07-02T1800,1588A,109.8538,40.6821,包头市,青山宾馆,,40,35,24,19,13,127,,126,126,30,21,29,16,0.9,0.9
2024-07-02T1800,1589A,109.8642,40.6288,包头市,惠龙物流,,38,34,32,10,22,120,,132,132,24,20,13,18,0.7,0.7
2024-07-02T1800,1590A,110.0377,40.5546,包头市,东河鸿龙湾,,46,32,25,15,11,145,,150,150,10,15,10,10,0.7,0.7
2024-07-02T1800,3283A,109.9154,40.5685,包头市,滨河大厦,,41,33,23,16,13,130,,142,142,16,19,13,14,1.0,0.8
2024-07-02T1800,3419A,109.9447,40.6261,包头市,包头市委党校,,45,29,23,17,12,142,,142,142,17,18,14,15,0.7,0.6
2024-07-02T1800,3683A,109.8331,40.6576,包头市,昆区政府,,,33,27,31,18,132,,122,122,,21,12,13,0.9,0.6
2024-07-02T1800,1930A,107.185,34.3063,宝鸡市,庙沟村,,43,25,20,17,12,135,,119,119,7,7,10,9,0.3,0.3
2024-07-02T1800,1931A,107.0708,34.3017,宝鸡市,竹园沟,,48,36,24,16,13,152,,143,143,19,13,8,8,0.3,0.4
2024-07-02T1800,1932A,107.1906,34.3672,宝鸡市,三陆医院,,47,36,34,20,16,150,,141,141,17,21,7,9,0.4,0.5
2024-07-02T1800,1933A,107.1431,34.3547,宝鸡市,监测站,,47,39,24,17,16,150,,140,140,15,16,8,8,0.4,0.4
2024-07-02T1800,1934A,107.1186,34.3739,宝鸡市,技工学校,,48,33,29,13,16,151,,144,144,19,14,7,8,0.4,0.5
2024-07-02T1800,1935A,107.3906,34.3528,宝鸡市,陈仓区环保局家属楼,,48,28,26,18,15,152,,140,140,14,17,6,11,0.4,0.5
2024-07-02T1800,1936A,107.2058,34.3497,宝鸡市,文理学院,,50,29,26,21,12,157,,141,141,13,17,8,8,0.4,0.4
2024-07-02T1800,1937A,107.2386,34.3622,宝鸡市,三迪小学,,46,33,29,18,16,145,,138,138,22,18,8,8,0.4,0.5
2024-07-02T1800,1051A,115.493,38.8632,保定市,游泳馆,,40,32,41,28,30,95,,101,101,2,3,9,8,0.2,0.3
2024-07-02T1800,1052A,115.5213,38.8959,保定市,华电二区,,29,26,37,18,17,92,,108,105,8,6,6,3,0.4,0.5
2024-07-02T1800,1053A,115.4713,38.9108,保定市,接待中心,,42,42,46,24,33,88,,99,98,7,4,3,3,0.4,0.5
2024-07-02T1800,1054A,115.4612,38.8416,保定市,地表水厂,,49,49,53,30,36,99,,104,104,4,6,3,2,0.4,0.6
2024-07-02T1800,3581A,115.31981,38.95208,保定市,满城区生态环境分局,,35,27,34,24,25,93,,105,105,4,3,1,2,0.3,0.4
2024-07-02T1800,3582A,115.47694,38.76408,保定市,清苑区第二中学,,50,50,50,20,34,96,,104,104,12,9,5,4,0.3,0.5
2024-07-02T1800,3583A,115.62909,39.02311,保定市,徐水物探局,,29,24,32,19,26,91,,98,98,6,4,4,4,0.1,0.3
2024-07-02T1800,4004A,115.4202,38.8656,保定市,双鹰农机,,38,34,37,26,29,103,,108,108,8,8,3,3,0.1,0.2
2024-07-02T1800,4034A,115.5150,38.8590,保定市,植保所站,,43,,37,30,33,96,,112,110,12,6,2,3,0.1,0.4
2024-07-02T1800,2594A,99.1678,25.1081,保山市,市环境监测站,,14,14,17,8,10,40,,19,,8,12,5,5,0.5,0.5
2024-07-02T1800,2595A,99.1711,25.1328,保山市,市环保局,,17,17,17,3,9,46,,44,44,6,8,5,4,0.5,0.5
2024-07-02T1800,1866A,109.2262,21.588,北海市,牛尾岭水库,,,,,,,,,,,,,,,,
2024-07-02T1800,1867A,109.1436,21.4086,北海市,海滩公园,颗粒物(PM10),51,51,40,3,4,56,,62,61,4,3,3,3,0.7,0.6
2024-07-02T1800,1868A,109.0981,21.4661,北海市,新市环保局,,20,20,21,3,5,53,,62,61,4,3,4,4,0.5,0.5
2024-07-02T1800,1869A,109.1778,21.5233,北海市,北海工业园,,17,16,23,10,9,54,,61,60,6,4,4,4,0.4,0.4
2024-07-02T1800,3400A,109.1911,21.4415,北海市,龙潭自来水厂,,18,18,22,6,9,54,,61,60,4,3,6,5,0.4,0.5
2024-07-02T1800,1001A,116.3621,39.8784,北京市,万寿西宫,,35,32,39,24,28,81,,94,91,22,16,3,3,0.6,0.6
2024-07-02T1800,1002A,116.2202,40.2915,北京市,定陵,,39,34,33,27,23,74,,67,67,13,13,3,3,0.5,0.5
2024-07-02T1800,1003A,116.4174,39.9289,北京市,东四,,35,32,37,24,30,103,,96,96,18,18,4,3,0.6,0.7
2024-07-02T1800,1004A,116.4072,39.8863,北京市,天坛,,40,40,57,23,26,71,,84,82,21,18,3,3,0.5,0.5
2024-07-02T1800,1005A,116.462,39.9365,北京市,农展馆,,32,27,37,20,28,100,,98,98,15,18,3,3,0.4,0.5
2024-07-02T1800,1006A,116.3392,39.9295,北京市,官园,,37,37,39,21,31,86,,100,100,30,20,4,3,0.5,0.5
2024-07-02T1800,1007A,116.2878,39.9611,北京市,海淀万柳,,32,32,36,22,28,69,,82,82,17,16,5,5,0.3,0.4
2024-07-02T1800,1008A,116.6636,40.135,北京市,顺义新城,,32,19,40,15,24,101,,102,102,7,15,3,3,0.3,0.5
2024-07-02T1800,1009A,116.6275,40.3275,北京市,怀柔镇,,30,23,30,16,19,96,,102,102,7,4,2,2,0.2,0.2
2024-07-02T1800,1010A,116.2296,40.217,北京市,昌平镇,,44,44,39,30,27,87,,69,69,12,15,3,3,0.4,0.4
2024-07-02T1800,1011A,116.3966,39.9821,北京市,奥体中心,,33,33,38,21,30,79,,71,71,21,27,5,4,0.4,0.5
2024-07-02T1800,1012A,116.184,39.9136,北京市,古城,,30,22,38,18,25,93,,93,93,13,15,1,1,0.4,0.5
2024-07-02T1800,3281A,115.9718,40.4529,北京市,延庆夏都,,25,14,29,9,20,80,,81,81,7,8,3,3,0.2,0.4
2024-07-02T1800,3417A,117.0709,40.1465,北京市,平谷新城,,29,28,38,20,27,76,,83,83,12,16,3,3,0.4,0.4
2024-07-02T1800,3418A,116.8336,40.4095,北京市,密云新城,,33,19,29,12,18,103,,107,107,6,10,3,3,0.2,0.3
2024-07-02T1800,3671A,116.088,39.9726,北京市,门头沟三家店,,,,,,,,,,,,,,,,
2024-07-02T1800,3672A,116.1541,39.8204,北京市,丰台云岗,,30,30,37,21,24,62,,62,62,14,10,1,4,0.4,0.6
2024-07-02T1800,3673A,116.6804,39.9081,北京市,通州东关,,30,30,42,20,31,80,,92,92,13,16,3,2,0.4,0.6
2024-07-02T1800,3674A,115.9577,39.7603,北京市,房山燕山,,43,34,31,30,26,75,,98,89,19,5,1,2,0.5,0.5
2024-07-02T1800,3675A,116.4672,39.7733,北京市,大兴旧宫,,40,34,37,28,29,82,,85,85,14,18,3,3,0.6,0.6
2024-07-02T1800,3694A,115.986,40.4563,北京市,延庆石河营,,17,13,29,8,21,53,,70,69,5,6,3,3,0.3,0.4
2024-07-02T1800,3695A,116.6151,40.3053,北京市,怀柔新城,,30,23,29,16,20,95,,99,99,10,6,3,3,0.4,0.5
2024-07-02T1800,3696A,116.2545,39.8768,北京市,丰台小屯,,32,28,35,22,26,52,,71,71,9,9,3,3,0.4,0.5
2024-07-02T1800,3697A,116.84,40.3844,北京市,密云镇,,32,18,33,11,21,100,,103,103,8,16,3,3,0.3,0.4
2024-07-02T1800,1761A,123.8275,41.3064,本溪市,大峪,,45,45,42,18,18,54,,77,73,17,20,8,9,0.7,0.7
2024-07-02T1800,1762A,123.7567,41.3325,本溪市,溪湖,,43,43,45,17,20,46,,77,70,19,24,6,5,0.6,0.7
2024-07-02T1800,1763A,123.7169,41.3094,本溪市,彩屯,,27,27,42,18,25,50,,72,70,25,29,6,8,0.7,0.8
2024-07-02T1800,1764A,123.7669,41.2864,本溪市,东明,,48,48,56,22,21,47,,72,68,30,31,6,7,0.8,0.8
2024-07-02T1800,1765A,123.7992,41.2664,本溪市,新立屯,,22,22,33,9,14,30,,74,62,22,23,4,5,0.7,0.7
2024-07-02T1800,1766A,123.8142,41.3472,本溪市,威宁,,30,30,52,20,25,51,,62,62,14,24,8,8,0.7,0.7
2024-07-02T1800,2587A,105.2864,27.3125,毕节市,八中,,40,15,18,7,10,128,,116,116,10,11,8,6,0.3,0.4
2024-07-02T1800,2588A,105.31,27.2944,毕节市,师专,,39,14,19,8,13,122,,107,107,7,12,6,5,0.4,0.5
2024-07-02T1800,3537A,105.3631,27.3533,毕节市,长征村,,45,12,18,7,11,144,,128,128,8,10,6,6,0.3,0.3
2024-07-02T1800,1629A,118.0018,37.3617,滨州市,第二水厂,,35,,46,7,45,110,,116,116,8,9,1,1,0.5,0.5
2024-07-02T1800,1630A,117.9776,37.393,滨州市,北中新校,,34,17,53,12,40,108,,112,112,7,7,3,3,0.5,0.4
2024-07-02T1800,3514A,117.9378,37.3956,滨州市,中海酒店,,37,,54,17,44,116,,124,124,12,11,3,3,0.5,0.4
2024-07-02T1800,3515A,117.9378,37.3553,滨州市,开发区一中,,32,,54,22,45,96,,108,108,16,10,6,5,0.9,0.7
2024-07-02T1800,3516A,118.0917,37.694,滨州市,金海六路,,39,22,52,19,37,124,,122,122,9,9,4,6,0.7,0.5
2024-07-02T1800,4028A,117.9956,37.3753,滨州市,滨州市西街道办事处,,36,,44,14,45,113,,117,117,7,8,3,2,0.6,0.6
2024-07-02T1800,2311A,115.8072,33.8399,亳州市,污水处理厂,,40,28,20,27,20,125,,124,122,5,4,2,2,0.7,0.6
2024-07-02T1800,2312A,115.7789,33.8518,亳州市,三国揽胜宫,,40,38,24,28,22,122,,123,118,6,5,2,2,0.6,0.5
2024-07-02T1800,3332A,115.7633,33.8034,亳州市,亳州学院,,39,28,21,27,20,124,,130,124,6,4,3,3,0.8,0.7
2024-07-02T1800,2693A,82.0485,44.8556,博尔塔拉蒙古自治州,市党校,,37,11,21,3,9,118,,110,110,8,10,11,10,0.2,0.3
2024-07-02T1800,2694A,82.0806,44.8969,博尔塔拉蒙古自治州,市环保局,,37,15,26,12,11,116,,104,104,9,14,2,7,0.2,0.3
2024-07-02T1800,1071A,116.8842,38.2991,沧州市,沧县城建局,,49,40,57,34,41,110,,116,116,10,16,1,2,0.3,0.6
2024-07-02T1800,1072A,116.8584,38.3254,沧州市,电视转播站,,43,43,57,19,39,113,,114,114,19,24,3,3,0.4,0.6
2024-07-02T1800,1073A,116.8709,38.3228,沧州市,市环保局,,46,39,56,32,42,107,,113,112,12,17,3,2,0.4,0.5
2024-07-02T1800,3324A,116.8136,38.3004,沧州市,河北水利电力学院,,40,,48,28,48,117,,120,120,6,11,2,3,0.4,0.7
2024-07-02T1800,2622A,97.1806,31.1273,昌都市,昌都监测站,,32,13,20,3,8,102,,99,99,4,16,7,7,0.3,0.5
2024-07-02T1800,3719A,97.1714,31.1406,昌都市,昌都会议中心,,35,8,15,3,8,110,,114,114,3,7,5,5,0.3,0.3
2024-07-02T1800,2690A,88.1236,43.8886,昌吉回族自治州,天山天池,,24,6,22,3,8,76,,85,84,8,8,4,4,0.6,0.6
2024-07-02T1800,2692A,87.2717,44.0297,昌吉回族自治州,新区政务中心,,28,18,47,10,12,88,,94,94,6,9,7,8,0.4,0.5
2024-07-02T1800,3613A,87.3095,44.0142,昌吉回族自治州,亚心广场,,26,7,54,3,8,82,,87,87,5,5,7,7,0.2,0.2
2024-07-02T1800,1119A,125.3325,43.9166,长春市,食品厂,,43,43,68,18,45,124,,148,148,16,37,6,7,0.6,0.7
2024-07-02T1800,1120A,125.2863,43.9027,长春市,客车厂,,37,36,70,23,44,118,,142,142,24,44,3,4,0.4,0.5
2024-07-02T1800,1121A,125.2841,43.8463,长春市,邮电学院,,39,35,60,25,41,124,,133,133,14,30,7,8,0.3,0.4
2024-07-02T1800,1122A,125.3716,43.8772,长春市,劳动公园,,39,32,73,18,38,124,,142,142,20,42,4,7,0.5,0.6
2024-07-02T1800,1123A,125.3297,43.8805,长春市,园林处,,39,33,62,22,47,123,,142,140,18,40,6,7,0.3,0.5
2024-07-02T1800,1124A,125.4605,43.79,长春市,净月潭,,37,22,43,16,26,117,,124,124,9,11,4,5,0.4,0.4
2024-07-02T1800,1125A,125.7194,43.515,长春市,甩湾子,,,,,,,,,,,,,,,,
2024-07-02T1800,1126A,125.3863,43.8447,长春市,经开区环卫处,颗粒物(PM10),55,59,70,19,37,113,,139,138,34,49,4,6,0.4,0.5
2024-07-02T1800,1127A,125.245,43.7783,长春市,高新区管委会,,37,36,68,20,38,116,,127,127,19,37,5,6,0.3,0.4
2024-07-02T1800,1128A,125.1761,43.8325,长春市,岱山公园,,36,33,59,20,41,115,,128,128,20,44,4,5,0.4,0.6
2024-07-02T1800,1335A,113.0833,28.2325,长沙市,经开区环保局,,47,31,21,29,18,150,,137,137,10,8,4,4,0.5,0.4
2024-07-02T1800,1336A,112.8872,28.2189,长沙市,高开区环保局,,47,24,20,15,11,149,,129,129,7,6,4,4,0.6,0.6
2024-07-02T1800,1337A,113.0792,28.2053,长沙市,马坡岭,颗粒物(PM10),53,56,24,8,9,151,,140,140,7,7,7,7,0.6,0.6
2024-07-02T1800,1338A,112.9394,28.19,长沙市,湖南师范大学,,43,33,23,22,15,136,,132,132,8,5,6,5,0.6,0.6
2024-07-02T1800,1339A,113.0178,28.1322,长沙市,雨花区环保局,,41,29,21,16,12,131,,130,130,6,5,3,2,0.6,0.5
2024-07-02T1800,1340A,112.9792,28.2597,长沙市,伍家岭,,44,29,24,10,8,140,,130,130,2,6,1,2,0.5,0.5
2024-07-02T1800,1341A,113.0014,28.1944,长沙市,火车新站,,45,37,22,27,12,144,,137,137,12,5,2,2,0.5,0.5
2024-07-02T1800,1342A,112.9844,28.1178,长沙市,天心区环保局,,40,35,24,16,12,126,,120,120,8,6,2,2,0.4,0.4
2024-07-02T1800,1343A,112.8908,28.1308,长沙市,湖南中医药大学,,42,34,19,16,9,132,,130,130,8,5,6,6,0.4,0.4
2024-07-02T1800,1344A,112.9581,28.3611,长沙市,沙坪,,43,,15,16,12,137,,126,126,4,3,5,5,0.4,0.4
2024-07-02T1800,1727A,113.1147,36.1547,长治市,清华站,臭氧1小时,75,19,12,14,7,180,,160,160,11,9,9,9,0.4,0.5
2024-07-02T1800,1728A,113.1031,36.1989,长治市,监测站,臭氧1小时,73,26,19,12,8,178,,161,161,15,12,4,3,0.7,0.8
2024-07-02T1800,1730A,113.0886,36.2125,长治市,审计局,臭氧1小时,72,18,13,9,8,177,,159,159,18,16,3,3,0.3,0.5
2024-07-02T1800,1731A,113.0844,36.1856,长治市,长治八中,臭氧1小时,77,18,15,15,11,181,,159,159,11,9,3,3,0.6,0.8
2024-07-02T1800,2845A,113.1569,36.1911,长治市,德盛苑,臭氧1小时,77,18,12,17,8,181,,162,162,7,5,8,7,0.7,0.7
2024-07-02T1800,3568A,113.06,36.0464,长治市,向阳小学,臭氧1小时,69,47,37,29,28,175,,168,168,12,11,5,6,0.6,0.9
2024-07-02T1800,3569A,112.8792,36.3144,长治市,屯留一中,臭氧1小时,101,39,30,26,24,201,,181,181,9,13,10,13,0.4,0.6
2024-07-02T1800,3570A,113.235,36.3489,长治市,潞城四中,臭氧1小时,53,,12,8,12,162,,156,156,6,6,7,7,0.4,0.5
2024-07-02T1800,1854A,111.6975,28.9703,常德市,市二中,,41,17,21,10,13,130,,134,134,5,4,6,8,0.6,0.6
2024-07-02T1800,1857A,111.7158,29.1456,常德市,白鹤山,,,,,,,,,,,,,,,,
2024-07-02T1800,3138A,111.7153,29.0289,常德市,武陵区永安,,41,16,19,12,13,130,,132,132,3,3,7,6,0.4,0.4
2024-07-02T1800,3139A,111.6892,28.9881,常德市,鼎城区玉霞,,41,19,18,12,14,131,,135,135,1,3,4,3,0.5,0.5
2024-07-02T1800,3140A,111.6625,29.0531,常德市,武陵区长庚,,44,22,18,12,12,139,,134,134,3,2,8,7,0.6,0.6
2024-07-02T1800,1196A,119.9633,31.762,常州市,市监测站,,26,,23,6,17,82,,90,90,24,14,6,6,0.8,0.8
2024-07-02T1800,1200A,119.9468,31.7069,常州市,武进监测站,,27,15,22,9,17,85,,88,88,7,5,4,4,0.8,0.7
2024-07-02T1800,1201A,119.9255,31.9087,常州市,安家,,27,15,25,10,16,84,,85,85,14,9,6,6,0.6,0.5
2024-07-02T1800,3002A,119.9805,31.8174,常州市,行政中心,,25,15,24,3,15,78,,76,76,10,8,8,9,0.9,0.8
2024-07-02T1800,3003A,120.0522,31.7748,常州市,经开区,,26,11,26,6,18,82,,76,76,12,12,4,4,0.5,0.7
2024-07-02T1800,3010A,119.9025,31.7964,常州市,钟楼,,24,11,26,3,17,74,,74,74,16,9,3,3,0.7,0.2
2024-07-02T1800,3429A,119.8598,31.7066,常州市,武进经发区,,25,6,23,3,13,78,,84,84,9,10,6,7,0.5,0.4
2024-07-02T1800,3430A,119.5826,31.7245,常州市,金坛城区,,30,6,38,3,26,93,,92,92,8,8,6,7,0.6,0.6
2024-07-02T1800,2220A,120.4318,41.5881,朝阳市,西梁,颗粒物(PM10),56,61,59,37,35,81,,123,116,26,22,9,12,0.8,0.7
2024-07-02T1800,2221A,120.4521,41.5646,朝阳市,河畔小区,颗粒物(PM10),58,66,59,36,34,104,,131,130,21,15,9,13,0.7,0.7
2024-07-02T1800,2222A,120.4176,41.5648,朝阳市,八里堡,细颗粒物(PM2.5),64,59,59,46,37,99,,130,128,21,21,7,10,0.9,0.9
2024-07-02T1800,2223A,120.3806,41.5969,朝阳市,农业园区,细颗粒物(PM2.5),63,47,51,45,38,98,,118,114,19,20,7,9,0.6,0.5
2024-07-02T1800,1705A,116.6367,23.6719,潮州市,西园路,,17,11,22,10,10,53,,53,53,11,10,3,2,0.6,0.5
2024-07-02T1800,3026A,116.6183,23.6608,潮州市,市政府,,34,34,24,9,8,50,,59,59,9,6,4,5,0.6,0.6
2024-07-02T1800,4036A,116.6461,23.6761,潮州市,金山,,30,30,23,14,10,56,,53,53,7,7,6,6,0.6,0.5
2024-07-02T1800,2472A,113.0073,25.9061,郴州市,马头岭,,17,17,18,9,9,54,,61,61,8,5,8,7,0.4,0.4
2024-07-02T1800,2473A,113.0116,25.8226,郴州市,市职中,,16,12,16,10,11,51,,55,55,12,6,8,9,0.5,0.4
2024-07-02T1800,2474A,113.0161,25.8001,郴州市,兴隆步行街,,19,19,19,9,11,53,,51,51,6,5,8,8,0.6,0.5
2024-07-02T1800,2475A,113.0383,25.8071,郴州市,市审计局,,19,16,15,13,12,51,,53,51,6,6,4,5,0.4,0.3
2024-07-02T1800,2476A,113.0348,25.7759,郴州市,市环保局,,38,,18,26,12,48,,56,50,9,7,6,5,0.5,0.4
2024-07-02T1800,1431A,103.9728,30.7236,成都市,金泉两河,,48,35,27,20,13,151,,150,150,6,22,2,2,0.4,0.5
2024-07-02T1800,1432A,104.176,30.6872,成都市,十里店,,48,28,26,25,11,152,,154,154,9,22,4,4,0.4,0.4
2024-07-02T1800,1433A,104.079,30.5706,成都市,三瓦窑,,48,34,33,25,17,152,,140,140,2,30,2,4,0.3,0.4
2024-07-02T1800,1434A,104.1114,30.63,成都市,沙河铺,,45,34,28,3,10,142,,146,146,12,24,3,3,0.4,0.6
2024-07-02T1800,1437A,104.0786,30.6531,成都市,君平街,,50,43,38,17,14,159,,159,159,14,28,2,4,0.2,0.5
2024-07-02T1800,1438A,103.613,31.0283,成都市,灵岩寺,,,,,,,,,,,,,,,,
2024-07-02T1800,2880A,104.0239,30.65639,成都市,大石西路,,50,22,32,17,14,160,,157,157,8,30,4,5,0.3,0.4
2024-07-02T1800,3136A,104.2725,30.5589,成都市,龙泉驿区区政府,臭氧1小时,53,22,14,12,8,162,,149,149,7,11,4,4,0.4,0.4
2024-07-02T1800,3357A,104.0106,30.6931,成都市,金博路,,47,29,24,9,11,149,,147,147,3,25,2,2,0.4,0.6
2024-07-02T1800,3359A,104.0578,30.5225,成都市,华阳,,49,24,23,17,18,154,,142,142,2,14,3,4,0.5,0.5
2024-07-02T1800,3487A,104.2394,30.5319,成都市,车城东七路,臭氧1小时,53,28,25,24,15,162,,152,152,5,11,3,4,0.4,0.4
2024-07-02T1800,3488A,104.3853,30.7453,成都市,青白江技师分院,臭氧1小时,68,45,16,10,6,174,,161,161,10,24,5,6,0.4,0.5
2024-07-02T1800,3489A,104.0789,30.4072,成都市,科学城,,49,35,24,27,16,156,,151,151,5,17,4,4,0.4,0.4
2024-07-02T1800,4011A,103.8506,30.6947,成都市,光华大道三段,,49,27,28,8,11,155,,147,147,3,13,4,4,0.4,0.4
2024-07-02T1800,1062A,117.9531,40.9081,承德市,铁路,,33,33,36,16,20,44,,102,94,51,22,5,6,0.3,0.3
2024-07-02T1800,1063A,117.9392,40.9763,承德市,中国银行,,31,31,40,20,24,54,,101,95,18,18,5,6,0.3,0.3
2024-07-02T1800,1064A,117.9503,40.928,承德市,开发区,,29,29,40,18,25,87,,106,105,12,20,5,6,0.3,0.4
2024-07-02T1800,1065A,117.8051,40.9655,承德市,文化中心,,27,19,44,7,20,86,,116,114,11,21,8,9,0.2,0.3
2024-07-02T1800,1066A,117.9268,41.0026,承德市,离宫,,33,27,36,23,26,48,,94,91,4,13,3,3,0.3,0.3
2024-07-02T1800,2314A,117.47,30.6618,池州市,池州学院,,34,13,11,6,5,106,,97,97,4,9,4,5,0.4,0.4
2024-07-02T1800,3237A,117.4918,30.6617,池州市,展览馆,,31,11,10,6,5,98,,92,92,3,7,3,3,0.4,0.4
2024-07-02T1800,3333A,117.5627,30.695,池州市,第八中学,,34,10,11,3,5,106,,97,97,4,11,3,4,0.4,0.4
2024-07-02T1800,3334A,117.5038,30.6243,池州市,第十二中学,,32,6,9,3,5,100,,92,92,6,8,4,4,0.5,0.5
2024-07-02T1800,1744A,118.9233,42.2816,赤峰市,松山一中,颗粒物(PM10),65,79,51,19,19,101,,112,111,35,28,10,10,0.5,0.5
2024-07-02T1800,1745A,118.9576,42.2728,赤峰市,哈达街,,34,31,33,20,18,108,,113,113,18,18,9,10,0.5,0.5
2024-07-02T1800,1746A,118.8788,42.2554,赤峰市,天义路,,37,21,20,18,18,117,,126,125,28,25,6,6,0.5,0.4
2024-07-02T1800,3058A,119.2658,42.0353,赤峰市,银河街,,48,44,42,33,30,104,,122,122,20,17,11,13,0.5,0.4
2024-07-02T1800,3286A,118.9359,42.3147,赤峰市,桥北物流园区,,32,31,32,22,23,93,,111,109,33,24,7,6,0.7,0.6
2024-07-02T1800,2521A,107.3476,22.4136,崇左市,市环保局江州分局,,14,8,32,3,16,43,,39,39,6,12,5,6,0.6,0.7
2024-07-02T1800,2522A,107.3702,22.3707,崇左市,城南新区,,14,,23,3,16,44,,40,40,4,10,3,3,0.6,0.7
2024-07-02T1800,2298A,118.3093,32.3153,滁州市,老年大学,,42,26,9,25,9,133,,109,109,3,6,7,7,0.6,0.6
2024-07-02T1800,2299A,118.3244,32.2786,滁州市,人大宾馆,,40,,11,27,10,126,,112,112,8,7,6,5,0.6,0.5
2024-07-02T1800,3207A,118.3118,32.3038,滁州市,市政府原办公楼,,39,27,9,25,11,124,,114,114,7,6,8,8,0.7,0.6
2024-07-02T1800,3331A,118.3267,32.2634,滁州市,图书馆,,39,31,12,25,8,123,,113,113,7,5,8,8,0.9,0.9
2024-07-02T1800,2605A,101.5482,25.0441,楚雄彝族自治州,州环境监测站,,17,17,15,3,9,32,,32,32,5,9,3,5,0.5,0.6
2024-07-02T1800,2606A,101.538,25.0492,楚雄彝族自治州,市经济开发区,,25,25,19,3,9,29,,26,26,5,11,4,6,0.5,0.6
2024-07-02T1800,2548A,107.5277,31.2827,达州市,达州职业技术学院,,34,29,26,8,6,108,,98,98,11,22,9,10,0.2,0.3
2024-07-02T1800,2549A,107.5086,31.2186,达州市,市环境监测站,,36,23,23,3,5,114,,111,111,19,23,5,6,0.5,0.5
2024-07-02T1800,2550A,107.4988,31.2132,达州市,凤凰小区,,41,22,18,12,9,130,,123,123,14,21,6,8,0.4,0.4
2024-07-02T1800,2551A,107.5082,31.1986,达州市,达县机关宾馆,,40,22,24,13,11,128,,119,119,14,28,4,6,0.0,0.1
2024-07-02T1800,2552A,107.4644,31.2124,达州市,市政中心,,41,25,28,14,8,131,,130,130,15,23,8,8,0.5,0.5
2024-07-02T1800,2614A,100.1542,25.7054,大理白族自治州,大理市环境监测站,,14,,6,7,9,42,,40,36,6,5,4,4,0.5,0.5
2024-07-02T1800,2615A,100.2171,25.5811,大理白族自治州,大理古城,,26,26,12,12,8,56,,50,50,6,10,5,5,0.6,0.6
2024-07-02T1800,1109A,121.612,38.9741,大连市,甘井子,,25,13,30,3,19,78,,85,85,17,17,8,8,0.5,0.6
2024-07-02T1800,1110A,121.565,38.9511,大连市,周水子,,28,12,30,3,23,89,,93,93,14,17,6,8,0.4,0.6
2024-07-02T1800,1111A,121.5637,38.8845,大连市,星海三站,,29,11,29,3,17,92,,102,101,7,7,6,6,0.6,0.7
2024-07-02T1800,1112A,121.6302,38.9117,大连市,青泥洼桥,,26,6,35,3,22,83,,87,87,8,10,8,8,0.6,1
2024-07-02T1800,1113A,121.6251,38.8638,大连市,傅家庄,,31,7,23,3,22,97,,109,106,5,6,6,6,0.6,0.7
2024-07-02T1800,1114A,121.5213,38.8661,大连市,七贤岭,,25,7,28,3,20,80,,89,88,9,9,5,5,0.5,0.6
2024-07-02T1800,1115A,121.2529,38.8061,大连市,旅顺,,31,6,28,3,20,98,,112,112,8,8,7,8,0.5,0.5
2024-07-02T1800,1116A,121.7485,39.1311,大连市,金州,,29,8,22,3,19,92,,83,83,4,6,8,8,0.4,0.4
2024-07-02T1800,1117A,121.7811,39.0496,大连市,开发区,,28,14,33,3,22,88,,87,87,9,12,3,5,0.5,0.6
2024-07-02T1800,1118A,121.9762,39.0631,大连市,双D港,,32,25,25,3,18,101,,90,90,8,8,5,5,0.6,0.7
2024-07-02T1800,1789A,124.81117,46.03138,大庆市,大同区,,38,36,40,26,30,117,,124,124,12,13,5,5,0.2,0.3
2024-07-02T1800,1790A,125.129,46.533,大庆市,龙凤区,,47,47,44,22,25,131,,126,126,12,20,5,5,0.5,0.3
2024-07-02T1800,1791A,124.902,46.408,大庆市,红岗区,,45,34,35,26,26,144,,137,137,5,14,6,7,0.4,0.4
2024-07-02T1800,1792A,125.153,46.586,大庆市,萨尔图区,,40,40,42,9,25,121,,119,119,11,16,8,7,0.3,0.3
2024-07-02T1800,1793A,124.9042,46.6215,大庆市,让胡路区,,47,39,45,27,16,148,,140,140,11,15,7,6,0.2,0.2
2024-07-02T1800,3481A,125.141,46.634,大庆市,萨区政府监测点,,39,35,39,22,20,123,,133,133,11,16,6,7,0.2,0.3
2024-07-02T1800,1721A,113.3819,40.1097,大同市,果树场,,,,,,,,,,,,,,,,
2024-07-02T1800,1723A,113.2994,40.0758,大同市,云冈宾馆,,39,27,29,11,17,124,,132,132,14,12,6,6,0.4,0.5
2024-07-02T1800,1724A,113.3444,40.0917,大同市,大同大学,,39,22,22,12,16,122,,129,129,8,8,8,10,0.4,0.4
2024-07-02T1800,1725A,113.2661,40.1269,大同市,安家小村,,40,28,27,22,13,125,,133,133,9,9,11,12,0.4,0.4
2024-07-02T1800,1726A,113.2711,40.0844,大同市,教育学院,,38,29,26,19,17,121,,129,129,19,14,8,8,0.5,0.4
2024-07-02T1800,3282A,113.3397,40.0597,大同市,大同市卫生学校,,39,35,25,19,17,122,,131,131,11,10,9,9,0.5,0.7
2024-07-02T1800,3565A,113.1367,40.1122,大同市,云冈站,,41,22,26,22,15,130,,133,133,11,11,7,7,0.8,0.8
2024-07-02T1800,3566A,113.1186,40.2556,大同市,图书馆,,43,22,23,10,16,136,,141,141,13,12,8,8,0.5,0.4
2024-07-02T1800,3567A,113.5931,40.0461,大同市,区一中,,38,32,23,14,12,121,,130,130,10,10,8,8,0.5,0.6
2024-07-02T1800,3676A,113.2802,40.0995,大同市,第二人民医院,,40,29,24,18,15,128,,136,136,10,9,8,8,0.5,0.5
2024-07-02T1800,2269A,124.1069,50.4097,大兴安岭地区,科技局,细颗粒物(PM2.5),63,61,80,45,58,90,,90,90,11,10,8,8,0.5,0.5
2024-07-02T1800,3663A,124.1164,50.4278,大兴安岭地区,红旗社区,细颗粒物(PM2.5),72,,70,52,70,101,,102,102,10,10,10,9,0.6,0.7
2024-07-02T1800,1600A,124.3303,40.0625,丹东市,江湾东路,,29,17,27,7,17,91,,70,70,8,10,4,7,0.5,0.5
2024-07-02T1800,1601A,124.4256,40.1503,丹东市,临江后街,,29,9,23,3,15,92,,66,66,5,10,8,9,0.5,0.7
2024-07-02T1800,1602A,124.3933,40.1461,丹东市,元宝山,,27,10,28,6,15,84,,57,57,7,11,6,8,0.5,0.8
2024-07-02T1800,1603A,124.3633,40.1092,丹东市,民主桥,,24,18,24,10,15,74,,62,62,19,12,4,5,0.5,0.6
2024-07-02T1800,3541A,109.5726,19.5167,儋州市,第一中学子站,,23,23,12,8,5,53,,55,55,2,2,5,6,0.4,0.4
2024-07-02T1800,3542A,109.5567,19.5187,儋州市,东坡学校子站,,16,12,13,7,6,49,,54,53,3,3,6,5,0.5,0.5
2024-07-02T1800,2616A,98.5842,24.428,德宏傣族景颇族自治州,德宏州监测站,,14,14,14,3,6,32,,29,29,13,11,5,3,0.8,0.8
2024-07-02T1800,3677A,98.5881,24.4368,德宏傣族景颇族自治州,芒市人民政府综合楼,,11,6,15,3,6,34,,31,31,7,8,6,6,0.6,0.7
2024-07-02T1800,1901A,104.4239,31.1208,德阳市,东山公园,臭氧1小时,99,43,35,17,13,199,,176,176,14,17,4,5,0.5,0.5
2024-07-02T1800,1902A,104.3826,31.1317,德阳市,西小区,臭氧1小时,97,40,36,21,18,197,,188,188,21,33,4,6,0.5,0.6
2024-07-02T1800,1904A,104.3553,31.1091,德阳市,耐火材料厂,臭氧1小时,90,35,42,18,20,192,,197,197,18,31,4,7,0.5,0.6
2024-07-02T1800,3639A,104.4019,31.1244,德阳市,市教育局,臭氧1小时,105,39,36,16,16,209,,187,187,17,28,4,5,0.5,0.5
2024-07-02T1800,1622A,116.3032,37.4674,德州市,儿童乐园,,34,31,47,22,45,108,,109,109,7,8,7,7,0.6,0.8
2024-07-02T1800,1624A,116.2991,37.4451,德州市,监理站,,36,,41,24,44,114,,115,115,12,12,8,8,0.6,0.7
2024-07-02T1800,3066A,116.2721,37.4379,德州市,九衢泉纯净水厂,,39,27,47,27,43,108,,110,110,15,12,4,5,0.6,0.8
2024-07-02T1800,3371A,116.3728,37.4403,德州市,开发区人民医院,,35,24,52,19,41,112,,116,116,12,15,8,8,0.5,0.7
2024-07-02T1800,3372A,116.3572,37.4094,德州市,太阳城中学,,42,,44,29,43,112,,116,116,10,15,6,7,0.6,0.7
2024-07-02T1800,3511A,116.5652,37.3319,德州市,陵城艺术中心,,,,52,,45,,,104,,,8,,3,,0.6
2024-07-02T1800,2621A,99.7056,27.8317,迪庆藏族自治州,迪庆州站,,16,16,24,6,10,48,,51,51,10,11,10,10,0.4,0.3
2024-07-02T1800,3180A,99.7136,27.8094,迪庆藏族自治州,质量技术监督局,,15,14,18,7,9,47,,50,50,10,9,9,9,0.3,0.4
2024-07-02T1800,2663A,104.6241,35.5734,定西市,东关小学,,40,28,37,7,20,125,,126,126,4,14,5,5,0.2,0.2
2024-07-02T1800,2664A,104.6194,35.5934,定西市,供电公司,,41,21,31,13,18,129,,131,131,6,20,4,4,0.3,0.3
2024-07-02T1800,1389A,113.7547,23.0494,东莞市,莞城梨川,,,23,21,11,8,62,,63,63,,7,,10,0.8,0.8
2024-07-02T1800,1390A,113.7944,23.0128,东莞市,东城石井,,26,26,20,13,8,65,,66,66,7,6,2,2,0.5,0.5
2024-07-02T1800,1391A,113.7383,22.9658,东莞市,南城西平,,23,23,22,12,8,66,,66,66,8,6,2,2,0.5,0.5
2024-07-02T1800,3319A,113.7338,23.0381,东莞市,万江金泰,,25,25,22,10,8,62,,65,65,6,5,5,5,0.7,0.6
2024-07-02T1800,3626A,113.7533,23.0202,东莞市,南城元岭,,26,26,21,11,8,60,,58,58,5,4,6,6,0.6,0.7
2024-07-02T1800,3627A,113.7875,23.0457,东莞市,东城主山,,29,29,21,12,8,61,,60,60,3,3,9,9,0.6,0.6
2024-07-02T1800,1666A,118.6614,37.4309,东营市,市环保局,,37,12,41,3,35,116,,123,120,9,7,8,8,0.9,1
2024-07-02T1800,3036A,118.6904,37.4338,东营市,开发区管委会,,37,11,43,7,36,117,,126,123,12,8,6,6,0.6,0.7
2024-07-02T1800,3365A,118.5719,37.565,东营市,垦利区民丰路,,39,19,44,12,38,124,,126,126,10,7,9,9,0.6,0.6
2024-07-02T1800,3498A,118.5055,37.8612,东营市,河口城区,,41,22,46,20,36,129,,119,119,10,11,6,7,0.8,0.7
2024-07-02T1800,3646A,118.4978,37.4623,东营市,胜利站,,38,,38,14,33,120,,133,123,8,6,6,6,0.8,0.8
2024-07-02T1800,3734A,118.35,37.26,东营市,理想之城,,32,12,40,7,35,102,,102,102,9,7,3,3,0.4,0.4
2024-07-02T1800,1591A,110.0023,39.8129,鄂尔多斯市,综合楼,,43,36,45,9,11,137,,142,142,24,28,9,16,0.6,0.6
2024-07-02T1800,1592A,109.9486,39.8261,鄂尔多斯市,巴音孟克林场办事处,,,,36,,12,123,,126,126,13,25,6,8,0.6,0.7
2024-07-02T1800,1593A,109.7736,39.5986,鄂尔多斯市,康泽苑,,46,31,24,12,11,147,,145,145,5,7,9,9,0.4,0.4
2024-07-02T1800,1594A,109.8119,39.5989,鄂尔多斯市,华泰汽车城,,41,29,24,7,12,130,,132,132,10,12,8,8,0.5,0.5
2024-07-02T1800,1595A,109.9734,39.7884,鄂尔多斯市,奥林花园,,39,31,31,12,12,122,,129,129,18,24,5,6,0.5,0.5
2024-07-02T1800,2436A,114.8938,30.3994,鄂州市,市政府,,49,31,23,10,8,154,,144,144,5,7,3,5,0.4,0.6
2024-07-02T1800,2437A,114.8989,30.3714,鄂州市,赵家坝,臭氧1小时,53,25,18,16,8,162,,152,152,4,8,6,8,0.3,0.8
2024-07-02T1800,3654A,114.8094,30.4089,鄂州市,精准医疗中心,,48,27,17,11,7,151,,150,150,5,4,4,5,0.6,0.5
2024-07-02T1800,2454A,109.4978,30.2981,恩施土家族苗族自治州,湖北民院,,40,19,29,18,16,126,,116,116,4,8,6,6,0.7,0.8
2024-07-02T1800,2455A,109.4707,30.2798,恩施土家族苗族自治州,州电力总公司,,40,,26,16,16,125,,116,116,10,15,8,7,0.6,0.7
2024-07-02T1800,3549A,109.5061,30.3772,恩施土家族苗族自治州,龙凤新区,,39,16,26,12,14,124,,111,111,10,10,7,6,0.6,0.8
2024-07-02T1800,2499A,108.3411,21.6158,防城港市,沙万,,11,6,24,3,8,34,,46,38,6,4,8,9,0.5,0.5
2024-07-02T1800,2500A,108.3514,21.7731,防城港市,防城档案局,,10,6,18,3,7,31,,43,35,10,6,4,4,0.5,0.5
2024-07-02T1800,2501A,108.3506,21.6414,防城港市,大海花园,,13,13,26,3,6,27,,44,38,15,6,5,5,0.5,0.5
2024-07-02T1800,1371A,113.1294,23.0067,佛山市,湾梁,,22,22,23,10,11,54,,60,60,11,12,6,6,0.3,0.4
2024-07-02T1800,1372A,113.1083,23.0478,佛山市,华材职中,,,31,19,12,11,34,,68,62,,11,4,7,,0.4
2024-07-02T1800,1373A,113.144,23.0453,佛山市,南海气象局,,20,20,25,10,9,37,,64,61,10,9,6,7,0.5,0.4
2024-07-02T1800,1374A,113.2881,22.8094,佛山市,顺德苏岗,,19,17,17,12,7,58,,67,67,8,6,5,6,0.3,0.3
2024-07-02T1800,1376A,112.8383,22.8678,佛山市,高明孔堂,,35,35,27,12,12,38,,55,53,24,7,6,6,0.7,0.5
2024-07-02T1800,1377A,112.8836,23.1588,佛山市,三水监测站,,22,22,20,3,12,29,,52,48,36,17,5,5,0.8,0.7
2024-07-02T1800,1378A,112.867,23.185,佛山市,三水云东海,,17,17,19,8,11,20,,60,54,16,16,5,5,0.6,0.5
2024-07-02T1800,3625A,113.2544,22.7642,佛山市,容桂街道办,,22,22,16,12,10,51,,56,56,14,12,6,6,0.4,0.4
2024-07-02T1800,1280A,119.3903,26.0543,福州市,鼓山,,,,,,,,,,,,,,,,
2024-07-02T1800,1282A,119.2681,26.0504,福州市,师大,,31,31,25,6,8,77,,72,72,5,7,3,3,0.3,0.3
2024-07-02T1800,1283A,119.2984,26.1028,福州市,五四北路,颗粒物(PM10),56,62,25,8,8,84,,78,78,11,7,4,3,0.4,0.3
2024-07-02T1800,1284A,119.2648,26.0768,福州市,杨桥西路,,31,31,26,12,9,78,,73,73,4,7,3,3,0.4,0.4
2024-07-02T1800,1285A,119.317,26.0746,福州市,紫阳,,42,42,25,10,7,78,,69,69,10,9,2,2,0.4,0.4
2024-07-02T1800,3048A,119.5799,26.0936,福州市,九龙,,35,35,25,6,7,78,,81,81,3,2,4,4,0.2,0.2
2024-07-02T1800,3526A,119.5189,25.9664,福州市,吴航,,22,21,22,9,10,69,,78,78,2,2,4,4,0.5,0.5
2024-07-02T1800,1755A,123.7977,41.8491,抚顺市,望花区,,48,48,51,21,37,76,,111,106,24,23,3,6,0.6,0.4
2024-07-02T1800,1756A,123.9161,41.8822,抚顺市,顺城区,,39,39,52,19,35,77,,110,103,19,19,5,7,0.6,0.5
2024-07-02T1800,1757A,124.0436,41.8611,抚顺市,东洲区,,32,32,57,14,34,77,,102,99,10,15,6,5,0.5,0.6
2024-07-02T1800,1758A,123.9247,41.8642,抚顺市,新抚区,,30,30,47,14,35,52,,94,76,17,20,3,6,0.5,0.5
2024-07-02T1800,1759A,124.0972,41.8961,抚顺市,大伙房水库,,22,19,42,14,31,69,,93,88,5,11,7,8,0.6,0.6
2024-07-02T1800,1760A,123.7086,41.8391,抚顺市,沈抚新城,,39,33,48,27,38,66,,115,108,31,22,10,7,1.8,0.6
2024-07-02T1800,2376A,116.2127,28.0814,抚州市,桐源党溪,,21,21,24,8,11,62,,55,55,4,3,5,5,0.5,0.3
2024-07-02T1800,2377A,116.3544,27.9831,抚州市,市站,,20,20,22,7,9,57,,52,52,5,4,8,4,1.0,1
2024-07-02T1800,2378A,116.3565,27.963,抚州市,血防站,,17,17,23,3,9,48,,49,47,7,5,2,3,1.0,0.8
2024-07-02T1800,2379A,116.3564,28.0007,抚州市,采茶剧团,,16,15,19,6,9,49,,51,51,8,4,4,3,1.1,0.8
2024-07-02T1800,2380A,116.385,27.9647,抚州市,医学分院,,25,25,22,7,9,50,,49,49,8,5,4,5,1.1,1
2024-07-02T1800,2207A,121.6094,41.998,阜新市,工业园区,,50,50,51,33,32,119,,147,142,32,29,7,8,0.7,0.9
2024-07-02T1800,2208A,121.6697,42.0279,阜新市,长青街,,46,46,48,26,29,103,,134,131,26,23,7,10,0.7,0.7
2024-07-02T1800,2209A,121.6673,42.0705,阜新市,农业园区,颗粒物(PM10),51,52,54,29,33,115,,141,138,22,18,7,8,0.9,2.3
2024-07-02T1800,2210A,121.6717,42.0224,阜新市,东苑,颗粒物(PM10),52,53,51,34,30,114,,133,132,30,26,9,14,0.7,0.5
2024-07-02T1800,2211A,121.6506,42.0498,阜新市,玉龙新城,颗粒物(PM10),52,54,51,31,30,97,,146,138,28,29,5,6,1.1,1
2024-07-02T1800,2301A,115.8277,32.8929,阜阳市,市监测站,,47,18,30,14,16,148,,136,136,8,9,4,6,0.5,0.5
2024-07-02T1800,2303A,115.8554,32.8605,阜阳市,开发区,,46,16,32,13,16,145,,140,140,9,11,4,4,0.3,0.3
2024-07-02T1800,2875A,115.784,32.8892,阜阳市,阜阳职业技术学院,,49,,28,12,17,156,,142,142,6,9,6,6,0.3,0.4
2024-07-02T1800,3468A,115.7901,32.8613,阜阳市,市规划展馆,,45,18,32,7,30,143,,131,131,8,10,2,2,0.5,0.6
2024-07-02T1800,3469A,115.836,32.9183,阜阳市,枣园社区,,47,14,30,3,24,150,,136,136,8,10,2,1,0.5,0.5
2024-07-02T1800,2669A,102.9099,34.9841,甘南藏族自治州,州政府,,36,,24,13,16,113,,114,114,2,14,8,7,1.0,1
2024-07-02T1800,3380A,102.8914,34.9617,甘南藏族自治州,甘肃民族师范学院,,36,21,30,8,12,115,,115,115,4,23,3,3,0.6,0.6
2024-07-02T1800,2570A,101.9603,30.0475,甘孜藏族自治州,水桥子,,30,7,11,3,7,93,,98,98,4,9,4,4,0.2,0.2
2024-07-02T1800,3065A,101.9533,29.9972,甘孜藏族自治州,州环保局,,27,15,18,3,6,85,,94,94,16,18,2,2,0.2,0.2
2024-07-02T1800,3414A,115.8347,28.932,赣江新区,桑海产业园,,30,7,14,3,10,94,,109,101,24,20,8,11,0.5,0.5
2024-07-02T1800,2362A,114.9017,25.9149,赣州市,通天岩,,,,,,,,,,,,,,,,
2024-07-02T1800,2363A,114.9367,25.8664,赣州市,地委,,19,19,17,9,9,58,,59,59,6,3,8,7,1.1,1.2
2024-07-02T1800,2364A,114.9461,25.8481,赣州市,气象台,,18,16,17,10,9,57,,56,56,8,7,4,3,0.3,0.4
2024-07-02T1800,2365A,114.9322,25.8333,赣州市,市图书馆,,20,16,16,3,7,61,,57,57,5,5,22,18,0.8,0.8
2024-07-02T1800,2366A,114.8905,25.8471,赣州市,华坚鞋城,,19,13,20,3,9,60,,56,56,7,6,31,20,0.5,0.7
2024-07-02T1800,3109A,115.0093,25.8613,赣州市,赣县区卫计委,,23,23,16,10,8,64,,59,59,7,6,7,7,0.6,0.6
2024-07-02T1800,2683A,106.2319,36.1417,固原市,马园,,45,15,27,8,13,143,,137,137,5,24,4,5,0.6,0.7
2024-07-02T1800,2684A,106.2792,36.0022,固原市,监测站,,43,,24,8,15,135,,133,133,7,16,5,5,0.2,0.3
2024-07-02T1800,2685A,106.2375,36.0211,固原市,新区,,42,16,25,10,12,133,,129,129,6,21,5,6,0.3,0.5
2024-07-02T1800,3522A,106.2177,35.9959,固原市,原州区十五小,,42,13,20,9,13,132,,128,128,3,8,5,5,0.5,0.5
2024-07-02T1800,2543A,106.6308,30.5278,广安市,小平旧居,,,,,,,,,,,,,,,,
2024-07-02T1800,2544A,106.6303,30.4576,广安市,市委,臭氧1小时,60,24,32,20,19,168,,138,138,9,15,11,8,0.4,0.5
2024-07-02T1800,2545A,106.6271,30.4663,广安市,友谊中学,臭氧1小时,59,27,26,19,16,167,,153,153,12,17,8,8,0.4,0.5
2024-07-02T1800,2547A,106.6388,30.4551,广安市,广电花园,臭氧1小时,74,28,29,25,18,179,,158,158,10,15,7,7,0.4,0.4
2024-07-02T1800,2902A,106.6351,30.4865,广安市,北辰小学,臭氧1小时,54,30,33,17,17,163,,154,154,11,15,8,8,0.3,0.4
2024-07-02T1800,2523A,105.8945,32.4535,广元市,黑石坡,,32,13,14,8,9,101,,102,102,7,8,12,12,0.4,0.3
2024-07-02T1800,2524A,105.821,32.4444,广元市,老城,,45,14,20,7,9,144,,130,130,6,24,4,5,0.3,0.4
2024-07-02T1800,2526A,105.8628,32.4287,广元市,监测站,,41,21,22,3,10,130,,122,122,10,11,7,6,0.3,0.3
2024-07-02T1800,3617A,105.8047,32.4166,广元市,经开区,,43,23,31,12,18,137,,128,128,8,20,4,7,0.4,0.5
2024-07-02T1800,1345A,113.2347,23.1423,广州市,广雅中学,,19,17,48,3,24,40,,70,69,38,17,3,4,1.0,0.8
2024-07-02T1800,1346A,113.2612,23.105,广州市,市五中,,33,33,26,17,14,65,,81,81,18,9,5,5,0.6,0.6
2024-07-02T1800,1348A,113.3478,23.0916,广州市,广东商学院,,28,28,24,13,12,69,,80,80,13,16,3,3,0.5,0.5
2024-07-02T1800,1349A,113.4332,23.1047,广州市,市八十六中,,28,28,27,14,12,47,,59,59,28,27,3,2,0.6,0.5
2024-07-02T1800,1350A,113.3505,22.9483,广州市,番禺中学,,28,28,24,16,12,67,,78,78,12,11,6,6,0.6,0.7
2024-07-02T1800,1351A,113.2146,23.3916,广州市,花都师范,,24,24,26,13,12,35,,65,63,29,17,5,5,0.7,0.6
2024-07-02T1800,1352A,113.2597,23.1331,广州市,市监测站,,31,31,24,16,11,46,,75,74,32,12,4,4,0.6,0.5
2024-07-02T1800,1353A,113.5618,23.312,广州市,九龙镇镇龙,,25,25,27,13,14,37,,63,62,21,19,6,7,0.5,0.5
2024-07-02T1800,1354A,113.2765,23.1544,广州市,麓湖,,28,28,26,19,12,36,,74,72,29,14,2,3,0.5,0.4
2024-07-02T1800,1355A,113.443,23.3035,广州市,帽峰山森林公园,,16,16,20,8,9,12,,62,54,15,14,4,4,0.7,0.7
2024-07-02T1800,2846A,113.3221,23.1322,广州市,体育西,,27,27,27,12,13,71,,79,79,15,14,4,4,0.6,0.6
2024-07-02T1800,3298A,113.5717,23.5491,广州市,从化街口,,17,12,23,3,11,54,,68,68,10,11,3,4,0.5,0.5
2024-07-02T1800,3299A,113.3472,23.3692,广州市,白云竹料,,25,25,28,14,14,40,,70,69,20,20,4,4,0.7,0.6
2024-07-02T1800,3300A,113.2981,23.237,广州市,白云嘉禾,,32,32,28,17,12,27,,71,68,45,22,5,5,0.8,0.7
2024-07-02T1800,3301A,113.4256,23.1716,广州市,黄埔科学城,,,35,27,,16,45,,63,62,26,21,5,6,0.6,0.7
2024-07-02T1800,3302A,113.3942,23.0483,广州市,番禺大学城,,24,24,22,12,11,59,,69,69,13,14,4,4,0.5,0.5
2024-07-02T1800,3303A,113.4922,22.8168,广州市,南沙黄阁,,29,29,30,18,11,64,,70,70,11,12,5,5,0.7,0.6
2024-07-02T1800,3304A,113.5342,22.7896,广州市,南沙街,,21,21,25,12,11,60,,56,56,8,11,5,5,0.6,0.7
2024-07-02T1800,3443A,113.2902,23.5544,广州市,花都梯面,,15,15,28,6,11,42,,56,56,17,15,4,4,0.6,0.6
2024-07-02T1800,3445A,113.7858,23.7478,广州市,从化良口,,19,6,15,3,9,58,,62,62,7,7,4,5,0.5,0.5
2024-07-02T1800,3446A,113.8051,23.2614,广州市,增城荔城,,23,23,25,13,14,71,,72,72,8,9,5,5,0.7,0.6
2024-07-02T1800,2505A,109.568,23.1478,贵港市,德智高中,,,,,,,,,,,,,,,,
2024-07-02T1800,2506A,109.6047,23.0666,贵港市,江南子站,,19,14,12,9,8,58,,54,54,11,7,7,7,0.7,0.6
2024-07-02T1800,2507A,109.6014,23.0948,贵港市,贵城子站,,40,40,18,17,8,57,,52,52,13,8,7,7,0.6,0.5
2024-07-02T1800,2508A,109.5669,23.1065,贵港市,荷城子站,,18,14,14,9,3,56,,51,51,9,5,10,10,0.5,0.4
2024-07-02T1800,3405A,109.5886,23.1172,贵港市,新世纪学校,,29,,14,20,7,58,,52,52,9,6,13,13,0.5,0.4
2024-07-02T1800,1439A,106.6899,26.5998,贵阳市,马鞍山,,,12,18,3,7,103,,116,116,,9,3,4,0.4,0.5
2024-07-02T1800,1440A,106.6971,26.5694,贵阳市,市环保站,,27,27,29,13,20,86,,106,104,36,30,4,4,0.3,0.3
2024-07-02T1800,1441A,106.6243,26.6266,贵阳市,鉴湖路,,36,22,20,9,9,113,,115,115,6,8,3,2,0.4,0.4
2024-07-02T1800,1442A,106.7487,26.6343,贵阳市,燕子冲,,35,9,19,3,14,111,,124,124,8,10,7,6,0.4,0.5
2024-07-02T1800,1443A,106.6555,26.4365,贵阳市,碧云窝,,,27,28,7,6,110,,116,116,,11,5,4,0.6,0.5
2024-07-02T1800,1444A,106.694,26.5161,贵阳市,中院村,,34,19,27,7,13,107,,111,111,9,18,3,4,0.6,0.5
2024-07-02T1800,1445A,106.7109,26.6027,贵阳市,红边门,,33,12,25,7,22,104,,116,116,18,17,2,5,0.4,0.5
2024-07-02T1800,1446A,106.7164,26.5699,贵阳市,新华路,,36,,22,12,16,113,,123,123,10,14,5,5,0.5,0.5
2024-07-02T1800,1447A,106.674,26.5424,贵阳市,太慈桥,,36,14,20,9,10,113,,115,115,5,12,6,6,0.3,0.4
2024-07-02T1800,1552A,106.805,26.3003,贵阳市,桐木岭,,,,,,,,,,,,,,,,
2024-07-02T1800,1862A,110.4144,25.3167,桂林市,电子科大尧山校区,,16,,8,6,6,51,,50,50,3,4,4,4,0.3,0.3
2024-07-02T1800,1863A,110.2819,25.2697,桂林市,监测站,,,26,13,12,10,56,,55,55,5,5,24,7,,0.7
2024-07-02T1800,1864A,110.3089,25.2708,桂林市,龙隐路小学,,16,,11,10,10,51,,54,54,6,7,5,5,0.5,0.4
2024-07-02T1800,1865A,110.2869,25.2178,桂林市,八中,,17,17,11,3,5,50,,52,52,7,7,6,6,0.5,0.5
2024-07-02T1800,3403A,110.1764,25.2381,桂林市,创业大厦,,17,6,5,3,5,54,,52,52,3,5,6,6,0.3,0.3
2024-07-02T1800,3531A,110.296,25.1253,桂林市,旅游学院,,,,9,0,2,53,,56,56,2,4,5,7,0.3,0.3
2024-07-02T1800,2674A,100.2561,34.4714,果洛藏族自治州,玛沁县大武镇,,45,15,28,7,15,143,,117,117,8,10,13,14,0.4,0.4
2024-07-02T1800,1129A,126.5422,45.755,哈尔滨市,岭北,,47,36,46,20,29,150,,158,158,13,38,14,14,0.5,0.6
2024-07-02T1800,1130A,126.561,45.8167,哈尔滨市,松北商大,,43,27,43,22,22,135,,141,141,12,34,6,6,0.5,0.6
2024-07-02T1800,1131A,126.979,45.5419,哈尔滨市,阿城会宁,,42,42,65,19,39,128,,133,133,17,29,2,5,0.5,0.7
2024-07-02T1800,1132A,126.599,45.7222,哈尔滨市,南岗学府路,颗粒物(PM10),51,52,73,21,36,141,,135,135,15,43,9,10,0.5,0.7
2024-07-02T1800,1133A,126.689,45.7733,哈尔滨市,太平宏伟公园,颗粒物(PM10),52,53,83,22,34,133,,139,139,22,47,8,7,0.4,0.6
2024-07-02T1800,1134A,126.635,45.7667,哈尔滨市,道外承德广场,颗粒物(PM10),52,53,67,30,29,128,,134,134,23,59,6,7,0.4,0.6
2024-07-02T1800,1135A,126.685,45.7319,哈尔滨市,香坊红旗大街,,46,46,75,22,40,136,,136,136,18,56,8,11,0.4,0.7
2024-07-02T1800,1136A,126.6411,45.7258,哈尔滨市,动力和平路,,46,46,63,21,26,142,,134,134,16,57,7,11,0.4,0.6
2024-07-02T1800,1137A,126.593,45.7478,哈尔滨市,道里建国路,颗粒物(PM10),52,53,58,24,28,135,,140,140,21,53,11,12,0.5,0.6
2024-07-02T1800,1138A,126.615,45.61,哈尔滨市,平房东轻厂,颗粒物(PM10),53,55,54,21,27,126,,136,136,38,44,12,10,0.2,0.3
2024-07-02T1800,1139A,126.595,45.9855,哈尔滨市,呼兰师专,,46,40,43,32,26,122,,137,137,20,28,9,10,0.4,0.4
2024-07-02T1800,1140A,126.6206,45.6842,哈尔滨市,省农科院,,46,37,65,22,30,146,,141,141,16,58,7,9,0.5,0.5
2024-07-02T1800,2688A,93.5128,42.8172,哈密市,地区监测站,,47,23,32,11,15,150,,135,135,5,12,3,4,0.2,0.2
2024-07-02T1800,2689A,93.4961,42.8328,哈密市,哈密师范学校,,46,17,36,12,11,147,,134,134,7,12,4,4,0.2,0.4
2024-07-02T1800,2671A,100.9048,36.9639,海北藏族自治州,海晏县西海镇,,42,24,17,22,19,132,,135,134,10,10,10,14,0.5,0.4
2024-07-02T1800,3867A,102.0738,36.5056,海东市,平安区公安北苑,,39,29,23,10,12,123,,131,131,14,13,6,9,0.4,0.5
2024-07-02T1800,1409A,110.576,19.9507,海口市,东寨港,,,,,,,,,,,,,,,,
2024-07-02T1800,1410A,110.3232,20.0574,海口市,海南大学,,23,23,17,11,9,52,,64,64,8,8,5,6,0.4,0.4
2024-07-02T1800,1411A,110.283,20.0053,海口市,秀英海南医院,,26,20,18,18,10,39,,63,61,18,11,6,6,0.3,0.2
2024-07-02T1800,1412A,110.338,19.9969,海口市,海南师范大学,,,21,17,14,8,58,,62,62,6,8,,6,0.4,0.4
2024-07-02T1800,1413A,110.33,20.0356,海口市,龙华路环保局宿舍,,25,22,18,17,9,58,,62,62,7,8,7,7,0.3,0.3
2024-07-02T1800,3539A,110.5111,19.9736,海口市,桂林洋子站,,28,28,19,18,8,60,,63,63,3,5,6,6,0.3,0.3
2024-07-02T1800,2673A,100.6188,36.2866,海南藏族自治州,共和县恰卜恰镇,,44,9,18,7,11,140,,125,125,6,13,2,7,0.4,0.5
2024-07-02T1800,2676A,97.3731,37.3753,海西蒙古族藏族自治州,德令哈市,,49,15,23,15,11,155,,139,139,15,9,14,13,0.5,0.6
2024-07-02T1800,1048A,114.5302,36.6116,邯郸市,东污水处理厂,,45,43,29,31,22,133,,122,122,2,3,1,1,0.3,0.4
2024-07-02T1800,1049A,114.4918,36.5713,邯郸市,矿院,颗粒物(PM10),52,54,33,29,22,139,,128,128,7,7,4,4,0.6,0.6
2024-07-02T1800,1050A,114.484,36.6133,邯郸市,丛台公园,,,36,29,28,22,133,,123,123,5,4,5,4,,0.5
2024-07-02T1800,3458A,114.7895,36.5593,邯郸市,香泉濮院小区,,40,40,18,25,23,128,,116,116,3,4,1,1,0.3,0.4
2024-07-02T1800,3579A,114.50634,36.77178,邯郸市,永年区实验高中,,,46,36,22,22,130,,119,119,2,3,,2,0.8,0.8
2024-07-02T1800,3580A,114.20016,36.44293,邯郸市,峰峰矿区临水派出所,,42,37,29,27,16,133,,131,131,5,5,1,3,0.6,0.7
2024-07-02T1800,2634A,106.9893,33.1842,汉中市,汉川机床厂子校,,,27,21,,11,135,,121,121,6,7,4,4,0.6,0.5
2024-07-02T1800,2635A,107.0154,33.0706,汉中市,市监测站,,39,29,26,13,13,124,,119,119,4,7,8,7,0.7,0.6
2024-07-02T1800,2636A,107.0089,33.1138,汉中市,鑫源开发区,,44,27,25,18,14,140,,130,130,6,9,9,9,0.5,0.5
2024-07-02T1800,2637A,107.007,33.0323,汉中市,南郑大河坎水厂,,39,20,25,15,14,122,,119,119,5,8,8,8,0.5,0.5
2024-07-02T1800,1223A,120.2072,30.2111,杭州市,滨江,,20,20,23,11,15,54,,81,80,20,20,3,3,0.7,0.8
2024-07-02T1800,1224A,120.0633,30.2747,杭州市,西溪,,23,23,18,16,12,46,,71,68,13,10,5,6,0.5,0.6
2024-07-02T1800,1226A,120.3461,30.3153,杭州市,下沙,,27,27,46,10,25,69,,93,92,11,32,5,6,0.4,0.6
2024-07-02T1800,1227A,120.1269,30.2456,杭州市,卧龙桥,,20,20,18,12,14,38,,60,59,12,9,4,4,0.6,0.6
2024-07-02T1800,1228A,120.1903,30.2692,杭州市,浙江农大,,21,21,21,9,15,47,,74,72,28,25,7,6,0.4,0.5
2024-07-02T1800,1230A,120.1197,30.3119,杭州市,和睦小学,,,,20,,14,53,,70,70,,18,6,4,,0.5
2024-07-02T1800,1231A,120.3019,30.4183,杭州市,临平镇,,23,7,41,3,28,72,,86,86,11,32,5,4,0.5,0.7
2024-07-02T1800,1232A,120.2697,30.1819,杭州市,城厢镇,,25,25,29,12,18,63,,92,90,20,28,3,3,0.5,0.7
2024-07-02T1800,1233A,120.0883,30.1808,杭州市,云栖,,18,18,21,8,7,51,,67,67,7,9,7,7,0.5,0.6
2024-07-02T1800,3557A,119.9464,30.0494,杭州市,镇二中,,23,21,18,16,19,55,,75,74,14,17,6,6,0.6,0.7
2024-07-02T1800,3558A,119.7183,30.2367,杭州市,市府大楼,,24,24,16,8,10,52,,55,55,6,11,6,6,0.5,0.6
2024-07-02T1800,3656A,120.1556,30.2864,杭州市,消防大队,,21,21,22,9,16,50,,12,,20,18,6,6,0.7,0.9
2024-07-02T1800,1270A,117.1959,31.7848,合肥市,明珠广场,,40,29,14,22,11,128,,112,112,11,12,8,8,0.3,0.2
2024-07-02T1800,1271A,117.3072,31.8764,合肥市,三里街,,36,24,9,14,7,114,,105,105,10,12,6,6,0.4,0.4
2024-07-02T1800,1272A,117.2588,31.8707,合肥市,琥珀山庄,,40,27,14,14,6,126,,114,114,5,7,4,4,0.5,0.4
2024-07-02T1800,1273A,117.1604,31.9052,合肥市,董铺水库,,,,6,,9,,,65,,,4,,1,,1.5
2024-07-02T1800,1274A,117.25,31.8571,合肥市,长江中路,,40,36,14,18,10,127,,114,114,5,6,5,4,0.6,0.6
2024-07-02T1800,1275A,117.266,31.9436,合肥市,庐阳区,,40,31,14,19,10,128,,117,117,4,6,3,4,0.4,0.4
2024-07-02T1800,1276A,117.336,31.8586,合肥市,瑶海区,,34,19,8,17,6,108,,102,102,7,8,7,7,0.2,0.2
2024-07-02T1800,1277A,117.3027,31.7964,合肥市,包河区,,37,29,8,9,4,116,,105,105,8,12,6,6,0.3,0.3
2024-07-02T1800,1278A,117.2776,31.7385,合肥市,滨湖新区,,34,24,7,12,6,108,,102,102,9,12,8,8,0.5,0.4
2024-07-02T1800,1279A,117.1318,31.8403,合肥市,高新区,,38,22,9,19,7,119,,110,110,6,6,7,7,0.5,0.5
2024-07-02T1800,3464A,117.3803,31.9147,合肥市,高教基地,,35,18,12,13,7,109,,106,106,5,7,7,6,0.4,0.4
2024-07-02T1800,3614A,79.924,37.0877,和田地区,地区环保局,颗粒物(PM10),83,115,275,29,69,128,,132,132,2,5,6,7,0.4,0.4
2024-07-02T1800,3615A,79.9131,37.113,和田地区,市环保局,,,120,267,22,69,122,,124,124,2,9,6,6,,0.5
2024-07-02T1800,2516A,108.2011,24.715,河池市,东仁乐园,,39,,32,27,27,62,,,,3,2,5,4,0.5,1.2
2024-07-02T1800,2517A,108.0497,24.6947,河池市,市环保站,,20,6,14,3,6,61,,71,70,6,8,10,7,0.5,0.6
2024-07-02T1800,2518A,108.0983,24.6989,河池市,市疾控中心,,20,6,14,6,2,62,,70,70,7,10,8,7,0.5,0.5
2024-07-02T1800,1696A,114.6778,23.7569,河源市,源西,,,,28,,24,,,46,,,14,,4,,0.5
2024-07-02T1800,1697A,114.6944,23.7586,河源市,东埔,,19,16,20,12,10,58,,62,62,11,11,6,6,0.6,0.5
2024-07-02T1800,1698A,114.6892,23.7233,河源市,老城,,20,19,20,8,7,63,,66,66,4,6,5,5,0.5,0.5
2024-07-02T1800,1718A,115.4208,35.2464,菏泽市,气象局,,39,18,36,18,30,124,,118,118,8,7,2,2,0.4,0.4
2024-07-02T1800,1719A,115.4747,35.2375,菏泽市,市政协,,37,,27,24,31,118,,116,116,6,6,3,2,0.3,0.2
2024-07-02T1800,3374A,115.5564,35.0891,菏泽市,定陶老年大学,,,24,28,,20,119,,105,105,7,7,3,2,0.6,0.5
2024-07-02T1800,3647A,115.4702,35.2706,菏泽市,菏泽医专,,36,24,31,22,32,114,,113,113,7,7,3,2,0.4,0.4
2024-07-02T1800,2514A,111.5264,24.4172,贺州市,环保小区,,22,17,25,8,11,68,,57,57,10,16,8,7,0.6,0.6
2024-07-02T1800,2515A,111.5608,24.4078,贺州市,政协大楼,,26,19,26,18,13,67,,55,55,10,16,11,9,0.5,0.6
2024-07-02T1800,3534A,111.4744,24.4553,贺州市,西湾,,21,11,27,7,13,67,,55,55,13,20,8,8,0.7,0.7
2024-07-02T1800,2385A,114.17,35.9019,鹤壁市,市监测站,细颗粒物(PM2.5),67,,33,48,29,133,,129,129,10,7,8,6,1.0,0.9
2024-07-02T1800,2386A,114.2956,35.7511,鹤壁市,市交警支队,细颗粒物(PM2.5),65,,34,47,29,137,,134,134,6,4,5,6,0.6,0.7
2024-07-02T1800,2387A,114.2878,35.7306,鹤壁市,迎宾馆,,50,35,26,35,32,140,,137,137,15,11,5,6,0.5,0.7
2024-07-02T1800,3474A,114.2617,35.6822,鹤壁市,大新区,,44,40,24,28,18,139,,138,138,10,10,5,5,0.4,0.5
2024-07-02T1800,3596A,114.1572,35.9603,鹤壁市,南山宾馆,细颗粒物(PM2.5),53,,27,37,31,144,,136,136,8,7,8,7,0.5,0.7
2024-07-02T1800,2244A,130.2537,47.3416,鹤岗市,哈啤分公司,细颗粒物(PM2.5),52,42,38,36,31,87,,108,105,10,5,13,13,0.8,0.7
2024-07-02T1800,2245A,130.2684,47.3086,鹤岗市,斯达机电,,46,46,38,31,28,93,,105,104,18,11,12,13,0.4,0.3
2024-07-02T1800,2246A,130.3114,47.3388,鹤岗市,东山纸板厂,,42,,41,29,27,97,,106,105,11,10,16,16,0.4,0.3
2024-07-02T1800,2247A,130.1097,47.3382,鹤岗市,五号水库,,33,33,36,15,28,70,,110,101,5,6,9,10,0.3,0.2
2024-07-02T1800,2263A,127.4833,50.2524,黑河市,交通局,细颗粒物(PM2.5),58,59,68,41,47,117,,142,142,15,17,6,8,0.6,0.6
2024-07-02T1800,2264A,127.5144,50.2341,黑河市,环保局,颗粒物(PM10),59,67,63,40,44,128,,145,145,10,10,4,5,0.8,0.6
2024-07-02T1800,2265A,127.5291,50.2472,黑河市,大黑河岛,,,,66,52,63,,,,,12,13,1,3,,
2024-07-02T1800,1074A,115.6838,37.7541,衡水市,电机北厂,,45,45,53,26,39,101,,110,104,9,8,1,1,0.2,0.4
2024-07-02T1800,1075A,115.6303,37.7316,衡水市,市监测站,,,,36,18,36,104,,113,110,10,9,4,4,0.5,0.6
2024-07-02T1800,3188A,115.6683,37.7217,衡水市,市城管局,,45,,41,31,35,107,,116,113,8,8,2,3,0.4,0.5
2024-07-02T1800,3459A,115.5989,37.5491,衡水市,地表水厂,,36,33,40,22,28,115,,122,118,8,7,6,6,0.2,0.4
2024-07-02T1800,2456A,112.5003,26.9167,衡阳市,原169医院,,28,13,15,9,9,87,,94,93,8,7,5,5,0.7,0.7
2024-07-02T1800,2457A,112.6194,26.9258,衡阳市,衡阳化工总厂,,,31,15,,,101,,101,101,12,8,6,6,0.8,0.5
2024-07-02T1800,2458A,112.6211,26.8956,衡阳市,珠晖区环保局,,,25,15,,,114,,109,109,7,7,5,6,0.8,0.7
2024-07-02T1800,2459A,112.6197,26.8733,衡阳市,市委党校,,34,14,16,3,10,108,,100,100,9,9,8,8,0.6,0.7
2024-07-02T1800,2460A,112.6006,26.8919,衡阳市,市监测站,,33,20,17,15,10,104,,106,106,9,7,6,6,0.7,0.6
2024-07-02T1800,2461A,112.5664,26.9056,衡阳市,真空机电公司,,27,22,16,6,9,86,,101,99,13,8,7,9,1.0,0.8
2024-07-02T1800,3399A,112.6703,26.882,衡阳市,师范学院,,35,28,15,13,8,112,,103,103,7,7,8,8,0.7,0.6
2024-07-02T1800,2608A,103.3772,23.3993,红河哈尼族彝族自治州,污水处理厂,,23,23,21,12,9,28,,44,44,9,10,4,7,0.4,0.4
2024-07-02T1800,2609A,103.3861,23.35,红河哈尼族彝族自治州,监测站,,13,11,9,9,8,31,,41,41,9,6,16,7,0.4,0.4
2024-07-02T1800,3038A,103.3758,23.368,红河哈尼族彝族自治州,州图书馆,,21,21,13,3,6,32,,42,42,9,6,7,4,0.4,0.4
2024-07-02T1800,1090A,111.6507,40.7517,呼和浩特市,呼市一监,,41,39,23,23,14,131,,150,149,11,9,6,7,0.4,0.5
2024-07-02T1800,1091A,111.6572,40.8033,呼和浩特市,小召,,36,36,24,24,15,110,,144,141,28,11,6,6,0.7,0.6
2024-07-02T1800,1094A,111.7516,40.8369,呼和浩特市,如意水处理厂,,43,21,27,14,14,135,,139,139,13,12,5,5,0.4,0.5
2024-07-02T1800,1095A,111.7276,40.8062,呼和浩特市,二十九中,,40,26,27,16,15,128,,140,139,20,14,3,3,0.5,0.6
2024-07-02T1800,1096A,111.5512,40.7866,呼和浩特市,工大金川校区,,36,36,28,20,14,114,,139,136,24,13,5,5,0.5,0.5
2024-07-02T1800,1097A,111.717,40.7612,呼和浩特市,化肥厂生活区,,42,42,36,21,17,134,,141,141,16,10,7,7,0.3,0.4
2024-07-02T1800,3698A,111.5968,40.8178,呼和浩特市,红旗小学,,33,29,24,19,15,105,,136,135,20,14,3,3,0.4,0.4
2024-07-02T1800,3699A,111.6518,40.8389,呼和浩特市,海东办,,34,31,24,19,15,106,,142,138,24,11,3,3,0.4,0.3
2024-07-02T1800,2192A,119.7594,49.2261,呼伦贝尔市,区环保局,细颗粒物(PM2.5),52,42,57,36,49,124,,130,130,17,16,5,4,0.5,0.6
2024-07-02T1800,3061A,119.7512,49.1577,呼伦贝尔市,国华电力东,,45,,51,31,39,131,,129,129,4,7,5,4,0.4,0.4
2024-07-02T1800,1250A,120.0751,30.8669,湖州市,城西水厂,,26,6,21,3,14,81,,66,66,13,16,3,3,0.5,0.5
2024-07-02T1800,2873A,120.0875,30.8955,湖州市,仁皇山新区,,25,6,23,3,16,78,,69,69,21,19,4,6,0.7,0.7
2024-07-02T1800,2907A,120.1844,30.8596,湖州市,吴兴区站,,21,6,29,3,23,65,,66,66,9,17,5,6,0.5,0.6
2024-07-02T1800,3562A,120.4148,30.8538,湖州市,南浔区站,,18,6,28,3,33,55,,72,72,7,15,2,2,0.5,0.6
2024-07-02T1800,1607A,120.9092,40.7136,葫芦岛市,龙港区,细颗粒物(PM2.5),72,,76,52,54,107,,100,100,12,32,7,34,0.7,0.9
2024-07-02T1800,1608A,120.8392,40.7514,葫芦岛市,化工街,,45,34,53,31,35,111,,120,112,22,25,12,16,0.8,0.8
2024-07-02T1800,1609A,120.8341,40.7073,葫芦岛市,新区,细颗粒物(PM2.5),62,,55,44,41,111,,119,109,25,26,4,9,0.8,0.8
2024-07-02T1800,1610A,120.8695,40.7677,葫芦岛市,东城区,细颗粒物(PM2.5),57,,48,40,42,127,,126,119,12,19,7,13,0.8,0.8
2024-07-02T1800,2482A,109.5981,27.5721,怀化市,林科所,,42,12,9,3,5,132,,129,129,1,4,7,7,0.7,0.7
2024-07-02T1800,2483A,109.9453,27.5444,怀化市,河西地税局,,38,17,11,13,7,120,,110,110,5,7,4,4,0.8,0.8
2024-07-02T1800,2484A,109.9781,27.5342,怀化市,市四医院,,35,15,10,14,9,112,,106,106,2,6,2,1,0.6,0.7
2024-07-02T1800,2485A,109.9972,27.5578,怀化市,监测楼,,,,11,,6,108,,103,103,2,6,7,7,0.6,0.6
2024-07-02T1800,2486A,110.0394,27.583,怀化市,市委党校,,33,19,9,12,6,103,,97,97,3,5,6,4,0.5,0.6
2024-07-02T1800,1210A,119.036,33.5981,淮安市,钵池山,,40,22,10,13,11,128,,114,114,12,11,7,6,0.7,0.7
2024-07-02T1800,1211A,119.007,33.575,淮安市,北京南路,,36,29,10,15,8,115,,102,102,11,9,8,6,0.7,0.7
2024-07-02T1800,1212A,118.989,33.6067,淮安市,市监测站,颗粒物(PM10),51,51,11,19,11,122,,108,108,9,10,5,6,0.6,0.8
2024-07-02T1800,1213A,119.135,33.5039,淮安市,楚州区监测站,,41,32,12,13,9,129,,108,108,11,10,4,4,0.5,0.5
2024-07-02T1800,1214A,119.0186,33.6297,淮安市,淮阴区监测站,,39,27,11,16,10,124,,109,109,12,13,6,6,0.5,0.6
2024-07-02T1800,3426A,118.8755,33.2894,淮安市,新华书店,,48,23,10,16,9,153,,123,123,10,10,6,5,0.6,0.5
2024-07-02T1800,2282A,116.8004,33.975,淮北市,监测站,,38,,34,23,24,119,,131,131,5,4,5,5,0.6,0.6
2024-07-02T1800,2283A,116.8091,33.9007,淮北市,烈山区政府,,41,20,32,15,19,130,,133,133,6,5,4,4,0.7,0.7
2024-07-02T1800,3330A,116.8873,33.9836,淮北市,杜集区检察院,颗粒物(PM10),52,53,47,24,31,129,,138,138,8,6,6,6,0.6,0.7
2024-07-02T1800,4017A,116.7923,33.9535,淮北市,市博物馆,,41,32,37,21,25,129,,140,140,5,3,4,4,0.7,0.7
2024-07-02T1800,2277A,116.8305,32.7727,淮南市,潘集区政府,,48,29,19,22,16,152,,146,146,6,4,4,3,0.2,0.2
2024-07-02T1800,2278A,117.0067,32.6524,淮南市,师范学院,,46,40,27,30,25,147,,146,146,6,5,5,6,0.2,0.2
2024-07-02T1800,2279A,116.8569,32.5951,淮南市,谢家集区政府,,45,17,17,3,8,142,,143,143,4,4,5,5,0.2,0.2
2024-07-02T1800,2280A,116.8281,32.633,淮南市,八公山区政府,,45,30,33,22,19,143,,142,142,2,3,3,2,0.3,0.3
2024-07-02T1800,2281A,116.6325,32.6201,淮南市,焦岗湖风景区管理处,,31,23,15,8,8,99,,95,95,4,6,3,2,0.2,0.2
2024-07-02T1800,2894A,117.0566,32.6531,淮南市,经济技术开发区消防队,,46,19,19,12,12,145,,142,142,7,6,4,4,0.2,0.2
2024-07-02T1800,3329A,117.0108,32.5893,淮南市,山南新区,,46,33,20,19,10,147,,144,144,4,5,3,2,0.4,0.4
2024-07-02T1800,2446A,114.9028,30.4742,黄冈市,职工中心,臭氧1小时,54,29,17,18,13,163,,154,154,14,8,7,7,0.4,0.6
2024-07-02T1800,2929A,114.8858,30.4519,黄冈市,红卫路,臭氧1小时,68,26,18,23,14,174,,166,166,12,11,7,8,0.5,0.6
2024-07-02T1800,3398A,114.9136,30.4445,黄冈市,市林业局,臭氧1小时,74,23,18,18,13,179,,165,165,7,5,6,5,0.5,0.5
2024-07-02T1800,2672A,102.0199,35.5102,黄南藏族自治州,同仁县隆务镇,,37,30,23,12,9,118,,117,117,6,2,10,10,0.3,0.2
2024-07-02T1800,2295A,118.2903,29.6963,黄山市,延安路89号,,16,15,22,11,7,43,,47,47,7,7,5,5,0.4,0.4
2024-07-02T1800,2296A,118.327,29.7178,黄山市,黄山东路89号,,13,6,13,3,5,39,,44,44,8,7,4,4,0.4,0.4
2024-07-02T1800,2297A,118.1371,30.2756,黄山市,黄山区政府5号楼,,16,9,14,9,7,50,,60,56,7,6,6,6,0.4,0.3
2024-07-02T1800,2423A,115.0601,30.2313,黄石市,沈家营,,50,22,17,8,5,159,,148,148,8,10,4,5,0.5,0.5
2024-07-02T1800,2424A,115.0817,30.2006,黄石市,陈家湾,,50,23,19,12,6,160,,145,145,12,10,5,5,0.5,0.6
2024-07-02T1800,2426A,114.8988,30.2019,黄石市,铁山,,48,32,21,10,7,152,,146,146,7,7,13,10,0.7,0.8
2024-07-02T1800,2427A,115.0307,30.2092,黄石市,团城山,臭氧1小时,53,23,16,8,4,162,,147,147,3,5,3,6,0.6,0.6
2024-07-02T1800,3149A,115.0235,30.1578,黄石市,笔架山北路,,50,25,23,3,5,158,,146,146,4,7,6,7,0.5,0.6
2024-07-02T1800,1392A,114.4183,23.0528,惠州市,河南岸金山湖子站,,20,20,19,10,9,64,,68,68,6,5,4,4,0.4,0.4
2024-07-02T1800,1393A,114.4053,23.0822,惠州市,下埔横江三路子站,,24,24,22,12,10,67,,73,73,9,7,6,6,0.5,0.5
2024-07-02T1800,1394A,114.4103,23.1142,惠州市,江北云山西路子站,,23,22,19,3,7,73,,77,77,6,4,8,8,0.4,0.4
2024-07-02T1800,1395A,114.4645,22.7833,惠州市,惠阳区承修路船湖子站,,23,23,19,11,9,50,,54,54,10,8,1,1,0.5,0.5
2024-07-02T1800,1396A,114.5317,22.7422,惠州市,大亚湾管委会子站,,19,19,20,7,7,52,,63,62,8,6,5,5,0.5,0.5
2024-07-02T1800,3314A,114.4338,22.8134,惠州市,惠阳秋长,,20,19,17,10,8,63,,68,68,8,4,4,4,0.6,0.5
2024-07-02T1800,3452A,114.6517,22.775,惠州市,大亚湾霞涌,,17,17,19,6,5,51,,58,57,6,6,3,3,0.5,0.4
2024-07-02T1800,2240A,130.9762,45.3001,鸡西市,环保局,细颗粒物(PM2.5),58,54,62,41,48,94,,92,92,11,10,6,6,0.4,0.5
2024-07-02T1800,2243A,130.9429,45.3039,鸡西市,第一中学,颗粒物(PM10),61,72,67,37,46,118,,121,121,6,5,8,8,0.4,0.4
2024-07-02T1800,3707A,131.0207,45.3073,鸡西市,欧美日汽修厂,细颗粒物(PM2.5),60,63,72,43,54,99,,103,103,16,16,10,8,0.3,0.3
2024-07-02T1800,3709A,130.9967,45.3106,鸡西市,市政设施管理处,细颗粒物(PM2.5),55,56,73,39,49,117,,113,113,8,12,7,7,0.3,0.4
2024-07-02T1800,2367A,114.9754,27.0803,吉安市,红声器材厂,,18,18,24,3,10,55,,61,56,11,8,13,12,0.6,0.4
2024-07-02T1800,2368A,114.9658,27.0999,吉安市,市森林工业局,,17,17,22,3,10,51,,56,53,11,11,12,11,0.4,0.4
2024-07-02T1800,2369A,114.99,27.1312,吉安市,市环境监测站,,22,22,21,6,9,56,,59,58,8,6,11,12,0.8,0.7
2024-07-02T1800,2370A,115.0093,27.0968,吉安市,青原区法院,,21,21,23,11,11,51,,56,50,13,10,11,12,0.5,0.3
2024-07-02T1800,1772A,126.54,43.8622,吉林市,哈达湾,,42,29,53,23,38,134,,134,130,12,30,4,7,0.5,0.6
2024-07-02T1800,1773A,126.5844,43.8358,吉林市,东局子,,38,30,50,24,38,121,,128,126,18,28,4,5,0.6,0.6
2024-07-02T1800,1774A,126.5052,43.8245,吉林市,电力学院,,41,38,54,27,37,129,,123,123,13,30,6,11,0.6,0.7
2024-07-02T1800,1775A,126.6133,43.8972,吉林市,江北,,40,34,48,23,36,125,,124,124,12,14,8,8,0.7,0.8
2024-07-02T1800,1776A,126.555,43.8306,吉林市,江南公园,,39,38,52,26,40,123,,124,124,20,35,3,4,0.6,0.7
2024-07-02T1800,1778A,126.7061,43.7133,吉林市,丰满,,,,,,,,,,,,,,,,
2024-07-02T1800,2868A,126.4739,43.953,吉林市,九站,,41,38,56,22,40,131,,133,133,12,40,6,9,0.5,0.6
2024-07-02T1800,1299A,116.9862,36.6114,济南市,科干所,,32,,38,10,30,102,,100,100,22,18,6,7,0.8,0.7
2024-07-02T1800,1300A,116.9376,36.665,济南市,农科所,,32,17,40,10,30,100,,104,103,22,20,7,7,0.6,0.6
2024-07-02T1800,1301A,117.1265,36.6734,济南市,开发区,,31,,35,12,27,99,,103,101,24,18,7,7,0.9,0.7
2024-07-02T1800,1303A,117.0624,36.6868,济南市,省种子仓库,,33,12,44,12,38,104,,102,102,16,16,5,6,0.8,0.7
2024-07-02T1800,1304A,116.9489,36.6447,济南市,机床二厂,,35,20,41,7,30,112,,112,111,18,16,8,8,0.6,0.5
2024-07-02T1800,1305A,117.0495,36.663,济南市,市监测站,,34,7,38,3,33,108,,107,107,23,20,10,10,0.8,0.6
2024-07-02T1800,1306A,116.7675,36.5484,济南市,长清党校,,36,24,40,22,39,114,,107,107,14,13,7,8,0.9,0.8
2024-07-02T1800,1616A,117.6795,36.229,济南市,技术学院,,31,6,32,3,29,97,,115,114,11,7,8,7,0.9,0.8
2024-07-02T1800,1961A,117.532,36.6868,济南市,东山小学,,32,7,27,3,30,101,,104,104,23,18,5,5,0.9,0.7
2024-07-02T1800,3059A,117.7161,36.2049,济南市,泰兴公司,,30,6,31,3,26,93,,108,107,15,10,8,8,0.6,0.5
2024-07-02T1800,3064A,117.6867,36.2171,济南市,莱芜战役纪念馆,,29,6,34,3,24,90,,99,98,13,9,6,7,0.8,0.7
2024-07-02T1800,3494A,117.1673,36.9782,济南市,济阳区政府,,33,,45,20,37,103,,106,99,14,8,4,4,0.5,0.5
2024-07-02T1800,3495A,117.1171,36.63,济南市,锦屏中学,,34,12,38,7,29,108,,109,105,24,16,8,9,0.8,0.7
2024-07-02T1800,3682A,116.9814,36.6819,济南市,济南四建,,32,9,38,7,37,102,,101,99,18,17,6,7,0.9,0.8
2024-07-02T1800,1653A,116.6251,35.4302,济宁市,火炬城,,42,,34,29,26,90,,105,89,14,10,9,9,0.9,0.8
2024-07-02T1800,1655A,116.5491,35.4042,济宁市,电化厂,,39,38,35,27,28,100,,109,92,13,10,4,5,0.8,0.7
2024-07-02T1800,3500A,116.5814,35.3707,济宁市,北湖一中,,30,27,34,19,23,95,,110,90,15,10,5,5,0.9,0.7
2024-07-02T1800,3501A,116.8249,35.5593,济宁市,服务中心,细颗粒物(PM2.5),57,,28,40,30,89,,101,87,14,12,3,3,0.8,0.7
2024-07-02T1800,3678A,116.5907,35.4054,济宁市,市第七中学,,35,24,29,24,26,100,,112,94,16,12,4,4,0.8,0.7
2024-07-02T1800,2255A,130.2751,46.8028,佳木斯市,佳纺,,50,50,58,33,42,118,,124,124,11,13,8,6,0.4,0.5
2024-07-02T1800,2256A,130.3995,46.8307,佳木斯市,发电厂,颗粒物(PM10),65,80,50,40,42,122,,124,124,9,10,4,4,0.5,0.6
2024-07-02T1800,2257A,130.3258,46.7975,佳木斯市,环保局,,49,44,55,34,43,115,,123,123,11,12,6,6,0.6,0.6
2024-07-02T1800,2258A,130.3648,46.8032,佳木斯市,十一中,细颗粒物(PM2.5),54,49,54,38,46,115,,126,126,18,15,7,7,0.7,0.6
2024-07-02T1800,2259A,130.3794,46.7588,佳木斯市,四丰,,46,44,52,32,29,102,,110,110,5,6,1,1,0.7,0.7
2024-07-02T1800,1252A,120.7436,30.778,嘉兴市,清河小学,,24,8,26,3,14,74,,98,98,7,12,5,5,0.4,0.6
2024-07-02T1800,1253A,120.726,30.7478,嘉兴市,嘉兴学院,,20,9,25,3,16,63,,86,86,8,16,2,2,0.5,0.6
2024-07-02T1800,2872A,120.7846,30.7525,嘉兴市,南湖区残联,,25,9,24,3,18,77,,115,114,6,12,4,4,0.5,0.5
2024-07-02T1800,3407A,120.6916,30.7739,嘉兴市,秀洲住建,,25,,22,8,21,77,,94,94,7,16,3,3,0.5,0.6
2024-07-02T1800,1945A,98.2908,39.7711,嘉峪关市,气象局,,46,24,30,3,11,145,,136,136,3,18,3,7,0.3,0.4
2024-07-02T1800,2884A,98.2672,39.7978,嘉峪关市,酒钢宾馆,,45,27,32,9,11,144,,139,139,7,17,7,11,0.3,0.4
2024-07-02T1800,3248A,98.2643,39.7724,嘉峪关市,雄关区,,45,23,27,14,14,141,,134,134,4,23,10,8,0.3,0.4
2024-07-02T1800,1383A,113.1064,22.6058,江门市,北街,,32,32,21,14,10,52,,56,56,6,5,2,2,0.5,0.5
2024-07-02T1800,1384A,113.0731,22.5835,江门市,西区,,30,30,25,17,10,58,,62,62,8,7,4,6,0.4,0.4
2024-07-02T1800,1385A,113.0219,22.5311,江门市,圭峰西,,24,24,19,12,11,50,,56,56,8,8,4,3,0.5,0.5
2024-07-02T1800,1386A,113.0828,22.5947,江门市,东湖,,30,30,22,18,9,58,,62,62,10,8,3,4,0.4,0.4
2024-07-02T1800,3311A,113.1075,22.5647,江门市,江海富民,,26,26,35,8,14,59,,64,64,8,8,5,5,0.5,0.5
2024-07-02T1800,3449A,113.05,22.4667,江门市,新会银湖,,22,22,21,14,8,52,,57,56,9,8,4,3,0.6,0.6
2024-07-02T1800,1828A,113.227,35.2125,焦作市,市环保局,,49,27,24,18,18,154,,148,148,6,4,2,2,0.5,0.4
2024-07-02T1800,1830A,113.1992,35.2590,焦作市,影视城,,,,,,,,,,,,,,,,
2024-07-02T1800,3169A,113.2725,35.2067,焦作市,太极体育中心,,49,40,30,21,18,156,,147,147,3,4,2,2,0.4,0.4
2024-07-02T1800,3335A,113.3137,35.2641,焦作市,马村街道办,,48,30,23,21,19,152,,143,143,5,6,2,3,0.5,0.5
2024-07-02T1800,3336A,113.2465,35.2373,焦作市,焦作技师学院,,47,23,24,19,19,148,,145,145,6,5,2,2,0.6,0.6
2024-07-02T1800,3477A,113.1656,35.2539,焦作市,中站许衡医院,,44,28,24,16,27,138,,137,137,8,10,6,5,0.6,0.6
2024-07-02T1800,3981A,113.2449,35.1803,焦作市,原李万街道办,,46,24,27,22,16,146,,137,137,5,5,5,5,0.6,0.5
2024-07-02T1800,1708A,116.3701,23.5345,揭阳市,新兴,,36,36,30,9,9,44,,50,50,7,7,3,3,0.6,0.6
2024-07-02T1800,1709A,116.3264,23.5443,揭阳市,西马,,31,31,27,12,10,53,,56,56,4,5,2,2,0.6,0.6
2024-07-02T1800,1710A,116.3611,23.5626,揭阳市,东兴,,19,19,33,8,8,57,,60,60,2,4,1,1,0.7,0.7
2024-07-02T1800,1711A,116.4151,23.5294,揭阳市,渔湖,,37,37,32,13,7,49,,49,49,7,8,2,2,0.4,0.5
2024-07-02T1800,3320A,116.403,23.5699,揭阳市,曲溪,,20,,18,14,8,48,,53,52,6,6,4,3,0.4,0.5
2024-07-02T1800,1944A,102.1692,38.5167,金昌市,天庆家园,,40,11,27,11,18,128,,126,126,4,16,6,10,0.5,0.5
2024-07-02T1800,3170A,102.1864,38.5253,金昌市,市委党校,,42,27,41,6,17,133,,130,130,5,15,6,16,0.5,0.7
2024-07-02T1800,4022A,102.1647,38.5371,金昌市,金川区人防中心,,44,32,33,14,18,139,,140,140,7,14,12,18,0.3,0.6
2024-07-02T1800,1262A,119.647,29.077,金华市,十五中,,28,28,39,10,18,63,,73,72,10,20,2,3,0.4,0.6
2024-07-02T1800,1263A,119.686,29.1029,金华市,监测站,,19,19,31,7,17,51,,72,70,8,22,2,2,0.3,0.5
2024-07-02T1800,3659A,119.656,29.1131,金华市,气象局,,20,20,35,3,14,46,,69,69,10,30,5,5,0.3,0.7
2024-07-02T1800,1767A,121.1115,41.0879,锦州市,南山,细颗粒物(PM2.5),58,,54,41,43,102,,101,101,25,26,4,12,0.8,0.8
2024-07-02T1800,1768A,121.0533,40.8434,锦州市,开发区,,50,,56,35,47,108,,117,117,18,26,6,13,0.8,0.8
2024-07-02T1800,1769A,121.1836,41.1119,锦州市,百股街道,,45,38,57,31,38,91,,107,107,25,31,8,19,0.9,1
2024-07-02T1800,1770A,121.1178,41.1222,锦州市,天安街道,细颗粒物(PM2.5),69,,58,50,44,94,,91,90,24,29,3,8,0.9,0.8
2024-07-02T1800,1771A,121.1303,41.1386,锦州市,北湖公园,细颗粒物(PM2.5),58,45,55,41,48,96,,97,94,15,23,4,9,0.8,0.7
2024-07-02T1800,2160A,112.85,35.5051,晋城市,自来水公司,,48,36,27,22,16,152,,168,168,11,12,5,7,0.7,0.9
2024-07-02T1800,2161A,112.8318,35.4936,晋城市,白云商贸,,49,39,29,9,15,154,,170,170,12,13,6,7,0.7,1
2024-07-02T1800,2162A,112.8508,35.4887,晋城市,市环保局,,47,42,33,17,17,150,,167,167,12,12,6,7,0.7,0.9
2024-07-02T1800,2163A,112.8676,35.4897,晋城市,技术学院,,49,38,29,34,18,149,,165,165,14,14,5,6,0.9,1.1
2024-07-02T1800,2165A,112.8453,35.546,晋城市,白马寺,,,,,,,,,,,,,,,,
2024-07-02T1800,3620A,112.8271,35.4828,晋城市,泽州一中,,49,31,22,9,16,155,,166,166,12,12,6,9,0.9,1.2
2024-07-02T1800,2171A,112.7532,37.6945,晋中市,锦纶小区,,45,17,19,3,8,144,,132,132,8,10,6,6,0.3,0.4
2024-07-02T1800,2173A,112.7249,37.7067,晋中市,南都小区,,46,25,26,10,18,145,,132,132,9,9,6,5,0.4,0.5
2024-07-02T1800,2174A,112.6991,37.6982,晋中市,榆次区政府,,43,19,18,15,16,137,,124,124,10,11,5,7,0.3,0.3
2024-07-02T1800,2865A,112.7195,37.6828,晋中市,榆次三中,,46,17,18,3,5,146,,134,134,7,9,6,5,0.5,0.5
2024-07-02T1800,2439A,112.2014,31.0481,荆门市,竹园小学,,44,29,33,15,15,140,,139,139,10,9,8,8,0.5,0.6
2024-07-02T1800,2440A,112.1969,30.9891,荆门市,掇刀,,45,33,26,18,16,142,,140,140,14,11,6,7,0.6,0.6
2024-07-02T1800,2441A,112.2213,31.0386,荆门市,石化一小,,45,37,31,14,12,144,,148,148,10,9,15,12,0.5,0.5
2024-07-02T1800,3012A,112.1849,31.0362,荆门市,西山林语,,44,21,25,14,18,139,,138,138,7,5,9,8,0.4,0.5
2024-07-02T1800,3547A,112.1632,31.0138,荆门市,龙泉中学南校,,44,19,22,14,16,140,,137,137,6,8,9,8,0.6,0.6
2024-07-02T1800,1844A,112.2494,30.3197,荆州市,市图书馆,,44,18,20,17,15,139,,153,153,6,8,6,6,0.6,0.6
2024-07-02T1800,1845A,112.2008,30.3544,荆州市,市委党校,,45,,21,21,14,142,,150,150,7,9,6,6,0.6,0.6
2024-07-02T1800,3194A,112.2747,30.3122,荆州市,管委会,,46,,21,21,15,146,,159,159,7,8,5,5,0.5,0.5
2024-07-02T1800,3548A,112.1655,30.3364,荆州市,学苑路,,47,29,22,17,19,149,,154,154,7,10,6,7,0.5,0.6
2024-07-02T1800,2342A,117.3102,29.3867,景德镇市,王港中学,,,,,,,,,,,,,,,,
2024-07-02T1800,2343A,117.2117,29.2933,景德镇市,老干部活动中心,,30,,12,10,7,94,,79,79,8,8,7,7,0.4,0.3
2024-07-02T1800,2344A,117.1894,29.2789,景德镇市,兽医站,,28,20,20,3,7,88,,79,79,11,7,8,6,0.4,0.3
2024-07-02T1800,2345A,117.1547,29.2617,景德镇市,台达陶瓷,,26,26,18,17,10,73,,60,60,21,13,20,16,0.4,0.3
2024-07-02T1800,2346A,117.2461,29.2956,景德镇市,陶研所,,24,15,16,10,6,76,,67,67,16,7,3,4,0.5,0.3
2024-07-02T1800,1803A,115.9872,29.6815,九江市,十里,,29,6,20,3,12,90,,95,93,12,17,10,10,0.6,0.7
2024-07-02T1800,1804A,115.9584,29.7046,九江市,茅山头,,32,14,12,3,10,102,,105,105,9,18,10,10,0.5,0.6
2024-07-02T1800,1805A,115.9877,29.7295,九江市,西园,,,,12,,9,,,46,,,21,,10,,0.8
2024-07-02T1800,1806A,116.0172,29.6547,九江市,五七二七厂,,18,,8,3,5,55,,108,89,8,9,8,8,0.7,0.7
2024-07-02T1800,1808A,115.9114,29.6038,九江市,综合工业园,,31,,9,3,6,99,,116,105,20,16,8,10,0.8,0.9
2024-07-02T1800,1809A,116.0721,29.7535,九江市,石化总厂,,32,9,13,3,11,100,,105,102,11,9,12,10,0.7,0.7
2024-07-02T1800,1810A,115.9773,29.5698,九江市,庐山气象台,,29,,13,9,10,92,,124,110,1,2,24,14,1.1,0.9
2024-07-02T1800,3190A,116.0254,29.6994,九江市,外国语学校,,33,9,9,3,8,103,,110,109,14,17,8,5,0.7,0.7
2024-07-02T1800,2658A,98.5061,39.7443,酒泉市,仓门街子站,,42,22,36,12,18,134,,126,126,9,17,16,17,0.2,0.3
2024-07-02T1800,2659A,98.4989,39.7256,酒泉市,油田生活基地,,47,22,40,12,16,148,,136,136,5,18,7,21,0.2,0.2
2024-07-02T1800,2698A,76.0072,39.4467,喀什地区,巡警大队,,46,36,48,3,8,147,,128,128,8,13,4,3,0.1,0.2
2024-07-02T1800,2699A,75.9755,39.4694,喀什地区,吾办,,46,36,49,15,17,145,,125,125,9,11,3,3,0.3,0.3
2024-07-02T1800,4027A,75.9483,39.4689,喀什地区,老干局,,,35,47,3,6,148,,129,129,6,12,,4,0.2,0.3
2024-07-02T1800,1824A,114.3389,34.7781,开封市,肿瘤医院,,44,24,22,19,14,140,,132,132,2,3,3,2,0.8,0.8
2024-07-02T1800,1826A,114.2885,34.7965,开封市,世纪星幼儿园,,45,34,23,19,16,141,,135,135,5,4,3,3,0.5,0.4
2024-07-02T1800,3147A,114.3438,34.8106,开封市,龙亭公园,,41,37,28,28,23,130,,122,122,7,7,3,2,0.5,0.5
2024-07-02T1800,3210A,114.3644,34.7964,开封市,汴京公园,,43,34,23,21,22,136,,128,128,4,4,3,3,0.6,0.6
2024-07-02T1800,3473A,114.2485,34.8306,开封市,技师学院,,44,36,23,22,15,139,,133,133,5,6,2,2,0.7,0.6
2024-07-02T1800,3592A,114.4644,34.7556,开封市,祥符区生态环境局,,37,24,23,19,18,117,,124,124,23,7,7,2,0.8,0.6
2024-07-02T1800,1951A,84.895,45.6094,克拉玛依市,长征新村,,29,12,18,3,5,90,,112,93,9,8,10,9,0.2,0.2
2024-07-02T1800,1952A,84.8988,45.5893,克拉玛依市,南林小区,,28,,20,12,14,87,,115,93,11,18,4,3,0.1,0.3
2024-07-02T1800,1954A,84.905,44.3396,克拉玛依市,独山子区,,33,18,22,3,8,105,,100,100,10,9,5,9,0.3,0.3
2024-07-02T1800,1955A,85.6979,46.098,克拉玛依市,乌尔禾区商贸楼,,31,10,18,3,7,99,,109,94,6,9,3,4,0.2,0.2
2024-07-02T1800,3612A,85.1045,45.6899,克拉玛依市,白碱滩区新站,,30,19,15,11,13,94,,119,105,8,6,6,6,0.3,0.3
2024-07-02T1800,2697A,76.1454,39.7142,克孜勒苏柯尔克孜自治州,市人民政府,,46,23,38,11,14,145,,136,136,2,5,8,10,0.2,0.3
2024-07-02T1800,3665A,76.1658,39.7157,克孜勒苏柯尔克孜自治州,克州文化中心,,47,19,25,13,15,150,,141,141,3,3,11,13,0.2,0.2
2024-07-02T1800,1450A,102.8204,24.8886,昆明市,呈贡新区,,24,18,18,8,11,76,,59,59,7,16,6,6,0.4,0.5
2024-07-02T1800,1451A,102.6251,24.9608,昆明市,西山森林公园,,,,,,,,,,,,,,,,
2024-07-02T1800,1452A,102.7252,25.0902,昆明市,龙泉镇,,23,22,16,9,7,71,,52,52,10,16,6,6,0.6,0.6
2024-07-02T1800,1453A,102.7266,25.0375,昆明市,东风东路,,,14,21,12,10,64,,46,46,,17,2,3,0.4,0.5
2024-07-02T1800,1454A,102.6742,25.0669,昆明市,金鼎山,,26,26,22,3,8,68,,50,50,11,16,10,9,0.4,0.5
2024-07-02T1800,1455A,102.6644,25.0401,昆明市,碧鸡广场,,22,12,19,3,8,69,,51,51,11,15,4,3,0.3,0.3
2024-07-02T1800,3179A,102.7494,25.0119,昆明市,官渡区博物馆,,23,12,21,7,11,73,,56,56,8,16,9,8,0.3,0.6
2024-07-02T1800,3375A,102.8017,24.8336,昆明市,青年创业园,,23,11,17,7,11,72,,57,57,5,14,8,9,0.3,0.4
2024-07-02T1800,3550A,102.7997,24.9786,昆明市,昆明学院,,23,10,29,6,16,72,,56,56,12,18,5,5,0.3,0.5
2024-07-02T1800,3551A,102.5967,24.6736,昆明市,晋宁区生态环境分局,,,15,14,12,9,53,,48,48,6,11,,6,0.6,0.8
2024-07-02T1800,3552A,102.6678,24.9856,昆明市,云天化总部,,21,12,20,7,12,67,,51,51,9,16,3,2,0.7,0.6
2024-07-02T1800,1456A,91.1319,29.6514,拉萨市,八廓街,,42,11,9,7,6,134,,124,124,7,10,7,7,0.2,0.2
2024-07-02T1800,1457A,91.1221,29.6747,拉萨市,市环保局,,40,9,10,3,5,126,,121,121,9,12,7,9,0.4,0.5
2024-07-02T1800,1458A,91.0874,29.6475,拉萨市,区监测站,,39,7,8,3,6,122,,117,117,7,9,7,7,0.2,0.3
2024-07-02T1800,1459A,91.1774,29.6541,拉萨市,西藏大学,,42,6,8,6,6,134,,122,122,6,6,8,9,0.2,0.2
2024-07-02T1800,1460A,90.9798,29.6588,拉萨市,区辐射站,,39,6,10,6,6,124,,118,118,14,10,7,7,0.2,0.3
2024-07-02T1800,1461A,91.0834,29.6292,拉萨市,拉萨火车站,,41,9,9,7,7,129,,119,119,8,6,8,9,0.2,0.2
2024-07-02T1800,2520A,109.2203,23.7256,来宾市,来宾技工学校,,13,9,12,6,8,39,,48,48,3,5,6,6,0.7,0.7
2024-07-02T1800,3535A,109.1781,23.7297,来宾市,兴宾区政府,,13,10,13,8,6,39,,49,49,7,6,4,4,0.7,0.6
2024-07-02T1800,4002A,109.2416,23.7461,来宾市,中南小学,,13,,16,9,7,41,,49,49,8,8,4,6,0.7,0.7
2024-07-02T1800,1476A,103.631,36.1031,兰州市,兰炼宾馆,臭氧1小时,83,40,43,24,25,186,,174,174,10,30,10,15,0.3,0.4
2024-07-02T1800,1477A,104.1373,35.9454,兰州市,榆中兰大校区,,,,,,,,,,,,,,,,
2024-07-02T1800,1478A,103.8412,36.0726,兰州市,生物制品所,,50,23,40,18,25,157,,145,145,10,37,10,13,0.3,0.4
2024-07-02T1800,1479A,103.831,36.0464,兰州市,铁路设计院,臭氧1小时,57,29,40,19,24,165,,149,149,25,52,6,9,0.3,0.5
2024-07-02T1800,3186A,103.7158,36.1058,兰州市,教育港,臭氧1小时,67,34,44,17,22,173,,165,165,10,29,10,13,0.3,0.4
2024-07-02T1800,3241A,103.7439,36.0842,兰州市,百合公园,臭氧1小时,65,30,35,11,19,172,,162,162,8,30,14,11,0.4,0.4
2024-07-02T1800,3242A,103.9611,35.998,兰州市,和平,,,15,29,6,14,156,,164,164,6,18,,11,0.2,0.3
2024-07-02T1800,3245A,103.6633,36.533,兰州新区,新区管委会,臭氧1小时,53,23,40,18,20,162,,146,146,6,19,10,12,0.4,0.4
2024-07-02T1800,3246A,103.6975,36.4789,兰州新区,舟曲中学,臭氧1小时,53,15,34,7,20,162,,147,147,8,23,7,12,0.4,0.5
2024-07-02T1800,1067A,116.6708,39.5111,廊坊市,药材公司,,33,23,41,19,28,104,,98,98,12,18,3,2,0.4,0.5
2024-07-02T1800,1068A,116.7214,39.5589,廊坊市,开发区,,33,26,52,19,33,103,,93,93,9,20,3,2,0.3,0.5
2024-07-02T1800,1070A,116.7244,39.5269,廊坊市,北华航天学院,,41,41,50,24,27,96,,90,90,8,16,3,2,0.3,0.4
2024-07-02T1800,2919A,116.7022,39.5453,廊坊市,河北工业大学,,39,39,52,19,29,104,,95,95,4,15,3,3,0.3,0.5
2024-07-02T1800,2535A,103.7723,29.5462,乐山市,花湖湾,,39,,19,13,15,122,,109,109,4,16,4,6,0.3,0.5
2024-07-02T1800,2536A,103.7627,29.5844,乐山市,牛耳桥,,,,25,,15,115,,113,113,12,24,3,5,0.5,0.7
2024-07-02T1800,2537A,103.7508,29.6006,乐山市,市第三水厂,,41,19,20,9,14,131,,121,121,7,22,3,4,0.2,0.4
2024-07-02T1800,2538A,103.7571,29.5664,乐山市,市监测站,,41,21,25,15,15,130,,121,121,5,15,1,5,0.6,0.9
2024-07-02T1800,3361A,103.7311,29.5628,乐山市,理工大学,,42,21,27,13,15,133,,126,126,3,17,4,8,0.4,0.7
2024-07-02T1800,2598A,100.2143,26.8576,丽江市,西南郊,,,,,,,,,,,,,,,,
2024-07-02T1800,2599A,100.2497,26.8802,丽江市,丽江古城,,29,26,21,20,13,51,,58,58,12,10,7,7,0.7,0.6
2024-07-02T1800,2600A,100.2203,26.8906,丽江市,市中心,,39,39,16,17,10,52,,61,61,15,13,10,11,0.7,0.6
2024-07-02T1800,1267A,119.914,28.4514,丽水市,监测站大楼,,22,22,24,14,10,61,,62,62,7,9,3,3,0.4,0.4
2024-07-02T1800,1268A,119.93,28.4586,丽水市,莲都小学,,26,26,24,3,7,64,,64,64,4,9,4,3,0.4,0.4
2024-07-02T1800,1269A,119.879,28.4231,丽水市,余庄前,,15,15,20,8,11,46,,56,56,6,9,2,2,0.4,0.5
2024-07-02T1800,1173A,119.176,34.5885,连云港市,市环境监测站,,37,22,13,22,11,117,,108,108,15,10,10,6,0.6,0.4
2024-07-02T1800,3000A,119.3581,34.6972,连云港市,德源药业,,34,24,7,17,5,107,,98,98,11,5,4,4,0.6,0.4
2024-07-02T1800,3007A,119.178,34.844,连云港市,新城一中,,37,13,18,13,7,117,,107,107,9,5,4,4,0.7,0.6
2024-07-02T1800,3008A,119.3608,34.7519,连云港市,胡沟管理处,,34,24,10,14,7,107,,100,100,7,3,6,5,0.7,0.5
2024-07-02T1800,3009A,119.1478,34.5911,连云港市,矿山设计院,,36,22,13,19,8,114,,103,103,11,8,8,3,0.5,0.4
2024-07-02T1800,3434A,119.2413,34.6539,连云港市,工贸学校,,38,27,8,20,5,121,,110,110,9,4,7,6,0.8,0.7
2024-07-02T1800,3664A,119.4172,34.7341,连云港市,连云街道,,36,22,9,14,6,114,,107,107,14,9,2,2,0.8,0.7
2024-07-02T1800,2571A,102.3431,27.8099,凉山彝族自治州,青龙寺,,33,11,14,3,7,103,,83,83,4,5,3,2,0.5,0.4
2024-07-02T1800,2572A,102.2721,27.8415,凉山彝族自治州,邛海宾馆,,36,17,18,11,10,114,,86,86,9,11,10,9,0.7,0.7
2024-07-02T1800,2573A,102.2625,27.898,凉山彝族自治州,西昌市政府,,31,19,15,7,8,98,,80,80,7,7,12,8,0.8,0.6
2024-07-02T1800,2574A,102.2685,27.8851,凉山彝族自治州,凉山州政府,,31,16,18,7,8,97,,83,83,8,10,11,8,1.0,0.9
2024-07-02T1800,2575A,102.237,27.8914,凉山彝族自治州,长安,,33,19,20,8,11,103,,80,80,12,11,14,11,0.6,0.6
2024-07-02T1800,2212A,123.2,41.1953,辽阳市,宏伟区,,,,77,12,38,45,,54,54,16,29,8,21,0.8,1.1
2024-07-02T1800,2213A,123.1683,41.2495,辽阳市,新华园,,28,,72,19,42,57,,70,70,21,34,8,22,0.9,1.1
2024-07-02T1800,2214A,123.2354,41.2639,辽阳市,滨河路,,28,20,73,19,42,48,,62,61,24,39,8,16,0.9,1.1
2024-07-02T1800,2215A,123.149,41.2991,辽阳市,铁西工业园,,25,23,69,17,40,63,,60,60,13,31,10,20,1.1,1.2
2024-07-02T1800,2227A,125.1358,42.8845,辽源市,环保局,,32,23,48,14,35,100,,122,119,15,27,8,8,0.6,0.7
2024-07-02T1800,3239A,125.0764,42.9078,辽源市,银鹰制药,,42,42,50,20,37,88,,118,114,29,33,15,9,0.9,0.9
2024-07-02T1800,1625A,115.9848,36.4372,聊城市,区政府,,34,28,43,22,37,107,,103,103,12,14,7,7,0.5,0.5
2024-07-02T1800,2878A,116.0072,36.4343,聊城市,聊大东校,,45,,45,31,44,111,,107,107,9,11,4,5,0.5,0.8
2024-07-02T1800,3200A,115.9819,36.4978,聊城市,监控中心,,35,34,39,24,29,107,,100,100,12,13,7,7,0.6,0.6
2024-07-02T1800,3513A,116.0445,36.4361,聊城市,九州社区,,39,31,52,27,38,107,,106,106,14,16,3,4,0.6,0.7
2024-07-02T1800,4018A,116.0567,36.4608,聊城市,星美广场,,39,33,56,27,37,102,,101,101,9,15,5,7,0.4,0.5
2024-07-02T1800,2632A,94.3681,29.6376,林芝市,林芝监测站,,23,6,6,3,4,72,,72,72,1,2,7,7,0.3,0.3
2024-07-02T1800,2633A,94.3616,29.6616,林芝市,林芝人民医院,,24,6,8,3,4,74,,74,74,4,5,9,9,0.3,0.3
2024-07-02T1800,2603A,100.0781,23.8982,临沧市,市环保局,,29,,16,20,16,37,,39,39,10,9,4,4,0.4,0.3
2024-07-02T1800,2604A,100.0894,23.8822,临沧市,市气象局,,15,10,15,10,12,33,,38,38,16,10,4,4,0.4,0.5
2024-07-02T1800,1733A,111.5531,36.0783,临汾市,临钢医院,臭氧1小时,93,62,68,29,31,194,,171,171,11,18,8,6,1.0,0.9
2024-07-02T1800,1734A,111.5028,36.0714,临汾市,技工学校,,,59,62,,40,197,,177,177,13,21,8,8,0.8,0.9
2024-07-02T1800,1736A,111.5018,36.0855,临汾市,市委,臭氧1小时,102,66,69,31,35,203,,185,185,12,17,8,8,0.8,0.9
2024-07-02T1800,3018A,111.505,36.1014,临汾市,唐尧大酒店,臭氧1小时,84,59,56,25,27,187,,176,176,12,16,5,5,0.8,0.9
2024-07-02T1800,3668A,111.5036,36.0414,临汾市,城南,臭氧1小时,105,75,68,37,45,209,,183,183,11,23,6,5,0.8,1
2024-07-02T1800,2667A,103.2069,35.5993,临夏回族自治州,环保局,,39,30,43,17,24,122,,118,118,2,11,7,7,0.2,0.3
2024-07-02T1800,2668A,103.2417,35.6057,临夏回族自治州,建设大厦,,38,20,30,14,16,119,,118,118,5,10,11,10,0.3,0.3
2024-07-02T1800,1618A,118.3429,35.0532,临沂市,沂河小区,,34,24,26,13,17,106,,107,107,19,13,8,8,0.4,0.4
2024-07-02T1800,1619A,118.295,35.0583,临沂市,鲁南制药厂,,40,27,25,10,14,126,,110,110,7,6,8,8,0.5,0.5
2024-07-02T1800,1620A,118.2794,34.9976,临沂市,新光毛纺厂,,38,22,19,11,18,121,,105,105,14,10,6,4,0.7,0.7
2024-07-02T1800,1621A,118.3956,35.0888,临沂市,河东保险公司,,35,22,24,13,17,109,,94,94,9,6,4,4,0.5,0.5
2024-07-02T1800,3370A,118.3564,35.0215,临沂市,十里堡居委,,38,12,17,12,18,121,,108,108,7,7,8,8,0.6,0.6
2024-07-02T1800,3496A,118.3604,35.1084,临沂市,南坊新区,,38,34,33,12,14,119,,103,103,15,10,7,6,0.7,0.7
2024-07-02T1800,3860A,118.3920,35.0300,临沂市,皇山花园小区,,37,27,23,17,20,118,,104,104,12,12,7,8,0.6,0.6
2024-07-02T1800,1870A,109.4856,24.3895,柳州市,柳东小学,,15,6,8,3,5,46,,51,51,7,8,6,6,0.5,0.5
2024-07-02T1800,1871A,109.4157,24.3277,柳州市,环保监测站,,16,6,9,3,7,49,,50,50,7,7,6,6,0.5,0.5
2024-07-02T1800,1872A,109.389,24.341,柳州市,河西水厂,,17,7,11,3,5,52,,53,53,7,5,6,6,0.5,0.5
2024-07-02T1800,1873A,109.4311,24.2921,柳州市,市四中,,17,11,11,3,6,54,,56,56,6,6,5,5,0.4,0.4
2024-07-02T1800,1874A,109.4006,24.3631,柳州市,市九中,,18,18,14,3,5,53,,57,57,12,10,4,4,0.5,0.5
2024-07-02T1800,1875A,109.4958,24.3134,柳州市,古亭山,,16,7,11,6,5,49,,54,54,7,9,5,5,0.2,0.3
2024-07-02T1800,3402A,109.5422,24.3996,柳州市,市二中,,15,6,8,3,4,45,,48,48,6,6,5,5,0.3,0.3
2024-07-02T1800,2307A,116.5079,31.737,六安市,监测大楼,,41,19,7,15,9,129,,121,121,4,3,5,4,0.4,0.4
2024-07-02T1800,2308A,116.4738,31.7643,六安市,皖西学院,,40,18,9,12,8,128,,122,122,3,2,4,4,0.3,0.3
2024-07-02T1800,2309A,116.4996,31.7905,六安市,朝阳厂,,37,,7,14,10,118,,111,111,2,2,8,8,0.3,0.3
2024-07-02T1800,2310A,116.5567,31.7886,六安市,开发区,,,,8,15,9,124,,117,117,,3,,4,0.6,0.5
2024-07-02T1800,2576A,104.8,26.5892,六盘水市,窑上,,,,,,,,,,,,,,,,
2024-07-02T1800,2577A,104.83,26.5917,六盘水市,黄土坡,,37,17,16,3,5,117,,123,123,7,13,7,8,0.4,0.4
2024-07-02T1800,2578A,104.89,26.5939,六盘水市,水钢,,39,23,27,3,11,124,,133,133,4,21,11,16,0.3,1
2024-07-02T1800,2579A,104.8475,26.5894,六盘水市,民中,,38,15,14,7,5,119,,124,124,6,14,6,7,0.4,0.4
2024-07-02T1800,2580A,104.9544,26.5506,六盘水市,双水,,39,12,23,12,9,124,,129,128,5,15,6,11,0.2,0.5
2024-07-02T1800,2335A,117.0189,25.1181,龙岩市,龙岩师专,,,,,,,,,,,,,,,,
2024-07-02T1800,2336A,117.0217,25.1033,龙岩市,龙岩市监测站,,15,,18,3,9,48,,50,50,5,9,4,4,0.4,0.5
2024-07-02T1800,2337A,117.0258,25.0661,龙岩市,闽西职业技术学院,,23,23,17,7,8,48,,50,50,3,8,4,5,0.4,0.5
2024-07-02T1800,2338A,117.0196,25.0306,龙岩市,龙岩学院,,16,10,15,7,9,49,,49,49,2,4,4,5,0.5,0.5
2024-07-02T1800,2665A,105.0822,33.3261,陇南市,汉王镇固水子,,,,,,,,,,,,,,,,
2024-07-02T1800,2885A,104.9339,33.3826,陇南市,滨江中学,,37,37,33,9,12,105,,105,105,7,11,8,10,0.7,0.7
2024-07-02T1800,3247A,104.955,33.371,陇南市,市总工会,,35,26,29,13,9,110,,107,107,4,6,5,5,0.6,0.6
2024-07-02T1800,2487A,111.9589,27.8901,娄底市,电视发射台,,36,26,17,14,7,113,,108,108,5,4,6,5,0.9,0.8
2024-07-02T1800,2488A,111.9975,27.725,娄底市,市监测站,,,24,20,15,16,125,,129,129,4,9,6,7,,0.9
2024-07-02T1800,2489A,112.0194,27.7314,娄底市,市委党校,,34,20,15,15,9,108,,110,110,5,9,4,6,0.6,0.8
2024-07-02T1800,2490A,111.9561,27.7569,娄底市,涟钢,,,,20,17,12,93,,109,109,37,14,18,12,1.6,1
2024-07-02T1800,2491A,111.9892,27.7044,娄底市,市政府,,40,18,15,15,10,127,,132,132,6,8,7,7,0.6,0.6
2024-07-02T1800,1893A,105.4324,28.9634,泸州市,九狮山,,37,13,21,3,11,118,,109,109,11,14,5,5,0.0,0.3
2024-07-02T1800,1894A,105.4427,28.9063,泸州市,小市上码头,,35,17,23,3,8,112,,109,109,7,13,5,6,0.3,0.3
2024-07-02T1800,1895A,105.4241,28.8573,泸州市,兰田宪桥,,36,20,22,10,12,113,,120,120,9,11,5,5,0.2,0.2
2024-07-02T1800,1896A,105.4379,28.8833,泸州市,市环监站,,34,18,21,9,12,106,,110,110,5,13,7,7,0.4,0.5
2024-07-02T1800,3490A,105.3617,28.7703,泸州市,纳溪区环保局,,35,22,25,7,6,110,,115,115,13,15,9,5,0.2,0.3
2024-07-02T1800,2183A,111.1406,37.5211,吕梁市,环保局,,50,48,51,12,30,157,,150,150,9,19,3,3,0.5,0.7
2024-07-02T1800,2185A,111.1297,37.5136,吕梁市,自来水公司,,50,42,48,13,30,158,,152,152,12,19,2,6,0.4,0.6
2024-07-02T1800,2867A,111.1283,37.51,吕梁市,马茂庄小学,,49,49,51,11,30,146,,152,152,24,25,5,7,0.6,0.7
2024-07-02T1800,1812A,112.3931,34.6516,洛阳市,市委党校,臭氧1小时,69,32,22,24,17,175,,154,154,2,6,12,2,0.7,0.7
2024-07-02T1800,1814A,112.4657,34.6871,洛阳市,豫西宾馆,臭氧1小时,53,17,27,14,17,162,,157,157,7,13,3,3,0.4,0.5
2024-07-02T1800,1815A,112.494,34.6886,洛阳市,河南林校,,50,,16,11,15,160,,150,150,6,10,2,2,0.4,0.4
2024-07-02T1800,1816A,112.3844,34.623,洛阳市,开发区管委会,臭氧1小时,65,30,20,24,15,172,,149,149,6,7,18,6,0.5,0.4
2024-07-02T1800,1817A,112.4267,34.6258,洛阳市,市委新办公区,臭氧1小时,70,,19,27,18,176,,154,154,3,4,15,5,0.4,0.3
2024-07-02T1800,3340A,112.6005,34.6326,洛阳市,伊滨,,49,,19,18,16,154,,150,150,7,8,5,5,0.3,0.3
2024-07-02T1800,3341A,112.4951,34.6332,洛阳市,中移产业园,臭氧1小时,55,16,21,16,18,164,,150,150,3,7,5,4,0.6,0.7
2024-07-02T1800,3593A,112.5736,34.8993,洛阳市,吉利监测站,臭氧1小时,53,41,25,20,19,162,,155,155,10,10,3,2,0.3,0.1
2024-07-02T1800,3635A,112.3677,34.662,洛阳市,河科大西苑校区,臭氧1小时,63,30,20,15,12,170,,147,147,2,9,11,5,0.5,0.6
2024-07-02T1800,3636A,112.4388,34.6781,洛阳市,英才小学,,50,17,29,12,20,160,,151,151,2,7,2,4,0.4,0.5
2024-07-02T1800,2399A,114.051,33.5699,漯河市,三五一五工厂,,48,15,20,10,15,153,,150,150,5,7,6,6,0.4,0.3
2024-07-02T1800,2400A,114.0055,33.5698,漯河市,漯河大学,,50,14,19,9,18,158,,156,156,6,7,5,5,0.5,0.6
2024-07-02T1800,2401A,114.0138,33.5828,漯河市,市水利局,,48,12,20,7,18,152,,151,151,8,7,7,7,0.3,0.4
2024-07-02T1800,2402A,114.0261,33.5698,漯河市,市广电局,,49,17,24,3,14,154,,151,151,3,4,1,1,0.5,0.6
2024-07-02T1800,3478A,113.9749,33.5664,漯河市,市图书馆,,50,14,21,8,19,158,,157,157,2,4,6,7,0.4,0.5
2024-07-02T1800,3479A,114.0967,33.5906,漯河市,召陵区卫健委,,47,15,24,12,21,148,,146,146,5,7,4,4,0.3,0.4
2024-07-02T1800,1798A,118.5092,31.6837,马鞍山市,湖东路四小,,40,,13,28,9,96,,88,88,11,8,9,7,0.6,0.6
2024-07-02T1800,1799A,118.5024,31.6449,马鞍山市,开发区,,32,26,13,22,8,91,,81,81,12,9,10,8,0.6,0.6
2024-07-02T1800,1800A,118.5228,31.7231,马鞍山市,慈湖,,32,32,18,19,9,94,,84,84,18,18,11,10,0.6,0.9
2024-07-02T1800,1802A,118.6245,31.7241,马鞍山市,濮塘,,26,,9,17,8,83,,78,78,10,10,3,3,0.7,0.7
2024-07-02T1800,3633A,118.4918,31.6809,马鞍山市,雨山,,39,30,15,27,8,93,,86,86,8,8,8,6,0.6,0.6
2024-07-02T1800,1686A,111.0286,21.4688,茂名市,电白南海,,25,22,22,17,13,64,,66,65,5,4,4,4,0.3,0.3
2024-07-02T1800,1687A,110.9294,21.6533,茂名市,茂石化七小,,29,29,21,17,14,61,,65,65,7,4,8,9,0.7,0.6
2024-07-02T1800,1688A,110.9107,21.6687,茂名市,健康路,,27,27,22,9,8,70,,71,71,8,7,9,10,0.5,0.4
2024-07-02T1800,1689A,110.8592,21.6828,茂名市,高岭,颗粒物(PM10),51,51,32,24,16,67,,64,64,8,9,7,10,0.7,0.6
2024-07-02T1800,3450A,111.01,21.5165,茂名市,电白水东,,19,19,15,12,9,57,,65,65,11,5,3,3,0.5,0.5
2024-07-02T1800,2539A,104.0308,30.0478,眉山市,黑龙滩水库,,48,20,23,19,21,153,,145,145,3,8,6,6,0.3,0.3
2024-07-02T1800,2540A,103.8416,30.0874,眉山市,气象局,,45,15,22,12,14,142,,134,134,8,31,7,9,0.3,0.4
2024-07-02T1800,3137A,103.8578,30.0744,眉山市,市委党校,,42,19,22,3,8,134,,130,130,10,22,7,8,0.4,0.4
2024-07-02T1800,3148A,103.8291,30.0564,眉山市,区人社局,,44,20,31,3,11,138,,131,131,17,27,7,10,0.3,0.4
2024-07-02T1800,1690A,116.1231,24.3284,梅州市,梅江月梅,,,,24,,9,49,,53,53,,10,10,8,,0.5
2024-07-02T1800,1691A,116.0797,24.2719,梅州市,梅县新城,,20,20,19,13,9,46,,51,51,4,9,4,4,0.4,0.4
2024-07-02T1800,1692A,116.1248,24.2654,梅州市,环境监控中心,,17,17,25,8,9,42,,46,46,7,16,4,4,0.4,0.3
2024-07-02T1800,3315A,116.1233,24.2991,梅州市,梅龙,,15,12,17,6,9,48,,50,50,3,11,7,9,0.4,0.5
2024-07-02T1800,1878A,104.7778,31.4741,绵阳市,富乐山,,50,29,27,18,17,157,,160,160,5,15,8,9,0.3,0.4
2024-07-02T1800,1879A,104.7563,31.4535,绵阳市,市人大,,41,29,31,13,17,131,,148,148,24,28,8,10,0.4,0.5
2024-07-02T1800,1880A,104.6697,31.4668,绵阳市,高新区自来水公司,,48,27,33,9,14,151,,162,162,14,30,5,7,0.4,0.5
2024-07-02T1800,1881A,104.7287,31.5075,绵阳市,三水厂,,47,22,35,15,19,148,,156,156,17,29,8,8,0.4,0.5
2024-07-02T1800,3491A,104.69,31.5322,绵阳市,西科大附属小学,,47,27,32,15,15,150,,153,153,15,24,6,7,0.5,0.5
2024-07-02T1800,3492A,104.5648,31.5343,绵阳市,安州区旅游局,臭氧1小时,55,,21,17,18,164,,156,156,11,19,3,7,0.8,0.6
2024-07-02T1800,1784A,129.61,44.561,牡丹江市,环保大楼,细颗粒物(PM2.5),57,52,54,40,34,133,,126,126,13,13,7,6,0.5,0.5
2024-07-02T1800,1785A,129.6115,44.5782,牡丹江市,文化广场,细颗粒物(PM2.5),72,59,59,52,44,113,,119,119,23,18,8,6,0.7,0.5
2024-07-02T1800,1786A,129.5904,44.5963,牡丹江市,第一医院,细颗粒物(PM2.5),79,,59,58,50,116,,126,126,15,15,6,4,0.6,0.6
2024-07-02T1800,1787A,129.6364,44.6075,牡丹江市,机车工厂,细颗粒物(PM2.5),69,78,57,50,49,101,,120,120,9,14,10,10,0.5,0.5
2024-07-02T1800,1788A,129.6386,44.5462,牡丹江市,第一中学,颗粒物(PM10),69,88,59,40,31,116,,124,124,22,15,4,4,0.5,0.4
2024-07-02T1800,2531A,105.0703,29.61,内江市,市监测站,,39,,17,17,16,124,,122,122,17,14,6,7,0.4,0.4
2024-07-02T1800,2532A,105.0717,29.5947,内江市,东兴区政府,,40,27,17,11,7,127,,123,123,10,12,8,8,0.4,0.4
2024-07-02T1800,2533A,105.0653,29.5817,内江市,内江二中,,41,24,16,6,12,130,,123,123,9,14,10,9,0.5,0.5
2024-07-02T1800,2534A,105.0406,29.5822,内江市,内江日报社,,42,17,23,13,12,133,,122,122,12,16,9,15,0.4,0.5
2024-07-02T1800,2628A,92.0657,31.4846,那曲市,那曲监测站,,42,11,26,3,10,134,,125,125,4,6,6,7,0.4,0.5
2024-07-02T1800,3128A,92.0506,31.4797,那曲市,那曲会议中心,,43,10,17,3,8,136,,128,128,4,6,3,3,0.3,0.4
2024-07-02T1800,1290A,115.8931,28.6843,南昌市,省外办,,25,18,23,12,13,77,,100,96,24,18,5,5,0.5,0.4
2024-07-02T1800,1291A,115.8886,28.7003,南昌市,省林业公司,,28,12,14,3,8,89,,109,105,26,16,4,4,0.5,0.4
2024-07-02T1800,1292A,115.8126,28.7442,南昌市,林科所,,30,6,10,3,6,94,,102,100,22,22,5,10,0.8,0.4
2024-07-02T1800,1294A,115.8518,28.687,南昌市,建工学校,,30,6,18,3,10,93,,112,110,24,17,6,6,0.5,0.4
2024-07-02T1800,1295A,115.8921,28.6424,南昌市,象湖,,29,13,18,9,9,91,,112,108,27,18,6,4,0.9,0.6
2024-07-02T1800,1296A,115.7423,28.7996,南昌市,武术学校,,27,14,16,14,12,86,,99,95,6,4,17,18,0.5,0.5
2024-07-02T1800,1298A,115.9314,28.6842,南昌市,省站,,27,11,23,7,10,86,,106,101,12,7,6,5,0.8,0.6
2024-07-02T1800,3046A,115.9084,28.6062,南昌市,机电学校,,30,13,21,7,8,96,,98,96,12,12,9,7,1.0,0.8
2024-07-02T1800,3690A,115.9721,28.7031,南昌市,外国语学校,,30,10,19,3,10,96,,114,108,11,14,4,4,0.5,0.5
2024-07-02T1800,1905A,106.056,30.8064,南充市,西山风景区,,31,,20,16,17,98,,92,92,4,7,5,5,0.5,0.5
2024-07-02T1800,1906A,106.0789,30.8023,南充市,南充市委,,47,29,32,21,19,150,,138,138,9,10,6,6,0.3,0.3
2024-07-02T1800,1907A,106.1031,30.8217,南充市,南充炼油厂,,45,30,32,15,18,144,,148,148,10,12,8,8,0.2,0.3
2024-07-02T1800,1908A,106.1064,30.7856,南充市,高坪区监测站,,48,26,36,10,15,151,,137,137,12,17,6,7,0.2,0.2
2024-07-02T1800,1909A,106.0642,30.7636,南充市,嘉陵区环保局,,49,33,31,17,16,155,,140,140,9,10,4,5,0.2,0.3
2024-07-02T1800,1910A,106.1087,30.8388,南充市,市环境监测站,,41,31,32,18,20,129,,137,137,12,15,6,7,0.4,0.5
2024-07-02T1800,1151A,118.8086,32.1065,南京市,迈皋桥,,27,27,6,14,1,84,,75,75,20,10,6,5,0.4,0.4
2024-07-02T1800,1152A,118.7538,32.0551,南京市,草场门,,27,17,6,17,7,85,,82,82,23,13,4,3,0.7,0.7
2024-07-02T1800,1153A,118.7794,32.0745,南京市,山西路,,30,27,6,17,2,93,,87,87,11,9,4,4,0.4,0.4
2024-07-02T1800,1154A,118.7752,32.0023,南京市,中华门,,27,14,4,12,2,85,,68,68,16,13,5,6,0.7,0.4
2024-07-02T1800,1155A,118.8109,32.0309,南京市,瑞金路,,31,29,6,19,5,97,,80,80,9,7,10,9,0.4,0.3
2024-07-02T1800,1156A,118.7997,32.0754,南京市,玄武湖,,28,28,11,9,5,75,,67,67,4,3,2,2,0.5,0.4
2024-07-02T1800,1157A,118.6414,32.0931,南京市,浦口,,30,,10,20,3,94,,89,89,5,9,5,5,0.7,0.6
2024-07-02T1800,1158A,118.7356,31.9996,南京市,奥体中心,,32,,8,22,5,89,,76,76,15,13,6,6,0.4,0.3
2024-07-02T1800,1159A,118.9125,32.1028,南京市,仙林大学城,,30,27,7,12,3,96,,83,83,13,12,6,6,0.6,0.5
2024-07-02T1800,3422A,118.8436,31.9198,南京市,江宁彩虹桥,,30,12,10,12,4,93,,80,80,10,10,4,4,0.8,0.6
2024-07-02T1800,3423A,119.0138,31.6494,南京市,溧水永阳,,32,,7,11,7,102,,88,88,8,9,4,4,0.4,0.5
2024-07-02T1800,3424A,118.879,31.3302,南京市,高淳老职中,,,,11,7,9,84,,81,81,11,7,6,4,0.7,0.7
2024-07-02T1800,3427A,118.8554,32.3578,南京市,六合雄州,,37,37,19,20,7,104,,94,94,2,4,7,7,0.6,0.6
2024-07-02T1800,1401A,108.3103,22.7881,南宁市,二十一中,,11,8,16,3,8,33,,52,34,20,14,2,2,0.6,0.6
2024-07-02T1800,1402A,108.3141,22.8528,南宁市,北湖,,12,12,20,8,9,27,,50,34,22,12,2,3,0.7,0.6
2024-07-02T1800,1403A,108.3206,22.8225,南宁市,市监测站,,12,8,17,3,10,27,,51,31,24,14,2,3,0.8,0.7
2024-07-02T1800,1404A,108.3829,22.8037,南宁市,大自然花园,,19,19,15,3,8,35,,52,35,12,10,4,4,0.4,0.5
2024-07-02T1800,1405A,108.4394,22.7904,南宁市,仙葫,,22,6,18,3,10,70,,70,70,18,15,4,5,0.3,0.2
2024-07-02T1800,1406A,108.2397,22.8467,南宁市,区农职院,,12,9,18,3,7,26,,52,30,24,12,5,6,0.7,0.6
2024-07-02T1800,1407A,108.3275,22.735,南宁市,英华嘉园,,17,17,17,8,9,25,,44,32,26,17,5,5,0.6,0.5
2024-07-02T1800,1408A,108.2257,22.7757,南宁市,沙井镇街道办,,10,,24,6,9,31,,34,23,17,21,2,2,0.5,0.5
2024-07-02T1800,3401A,108.4834,22.7618,南宁市,红星社区,,,,16,2,6,37,,52,38,11,7,4,4,0.7,0.7
2024-07-02T1800,2331A,118.0966,26.6761,南平市,茫荡山,,,,,,,,,,,,,,,,
2024-07-02T1800,2332A,118.1681,26.6369,南平市,南平市监测站,,18,14,15,3,5,56,,57,57,6,10,4,4,0.3,0.4
2024-07-02T1800,2333A,118.1825,26.6489,南平市,南平铝业有限公司,,17,12,22,8,6,54,,55,55,5,8,4,5,0.6,0.7
2024-07-02T1800,2334A,118.1756,26.6272,南平市,南平七中,,21,11,16,3,7,65,,64,64,3,8,4,4,0.5,0.5
2024-07-02T1800,1168A,120.9098,31.9663,南通市,狼山街道,,21,15,23,3,9,64,,84,82,42,21,9,9,0.9,0.7
2024-07-02T1800,1169A,120.86,32.0005,南通市,虹桥,,27,14,26,3,10,67,,80,80,53,30,8,6,1.1,0.8
2024-07-02T1800,1170A,120.87,32.02,南通市,城中,,29,29,35,3,13,82,,85,85,38,25,8,7,0.8,0.6
2024-07-02T1800,1171A,120.94,31.93,南通市,星湖花园,,29,6,19,3,10,90,,95,95,27,23,5,5,0.5,0.4
2024-07-02T1800,1172A,120.81,32.0417,南通市,紫琅学院,,38,6,20,3,9,119,,109,109,19,30,7,7,0.6,0.7
2024-07-02T1800,3291A,121.067,32.062,南通市,通州监测站,,35,19,34,7,14,109,,106,106,14,15,14,13,0.9,0.8
2024-07-02T1800,3432A,120.9348,31.9883,南通市,环境教育馆,,25,19,34,8,15,79,,93,93,47,30,12,10,1.0,0.6
2024-07-02T1800,2404A,112.5224,33.0122,南阳市,瓦房庄,,50,21,22,12,15,157,,155,155,12,12,2,4,0.7,0.6
2024-07-02T1800,2405A,112.5003,32.9735,南阳市,汉画馆,,49,23,26,20,22,155,,137,137,12,15,3,3,0.6,0.6
2024-07-02T1800,2406A,112.5573,33.027,南阳市,气象站,,,16,17,,11,174,,170,170,9,11,,3,0.3,0.3
2024-07-02T1800,2407A,112.5481,32.9689,南阳市,理工学院,臭氧1小时,59,22,23,12,16,167,,156,156,9,12,3,3,0.3,0.3
2024-07-02T1800,4008A,112.5234,32.9922,南阳市,卧龙区政府,,50,28,20,14,16,157,,153,153,10,13,4,3,0.4,0.6
2024-07-02T1800,1234A,121.8358,29.911,宁波市,区环保大楼,,49,49,33,19,17,104,,93,93,7,16,6,5,0.8,0.7
2024-07-02T1800,1235A,121.56,29.82,宁波市,万里学院,,40,34,31,28,17,101,,96,96,10,12,6,6,0.4,0.6
2024-07-02T1800,1236A,121.713,29.9572,宁波市,龙赛医院,,32,29,31,11,12,101,,93,93,6,20,5,5,0.2,0.2
2024-07-02T1800,1239A,121.633,29.7733,宁波市,钱湖水厂,,32,32,25,19,14,100,,91,91,4,8,5,5,0.6,0.5
2024-07-02T1800,1240A,121.5856,29.8635,宁波市,太古小学,,49,,21,34,16,93,,93,93,10,6,5,4,0.6,0.6
2024-07-02T1800,1241A,121.524,29.8674,宁波市,市环境监测中心,,36,36,27,16,13,110,,100,100,11,13,5,4,0.7,0.7
2024-07-02T1800,2871A,121.6147,29.9017,宁波市,万里国际学校,,32,26,25,19,16,100,,95,95,8,12,4,4,0.3,0.3
2024-07-02T1800,3710A,121.5594,29.8975,宁波市,白沙活动中心,,33,27,27,16,13,103,,100,100,8,8,8,7,0.3,0.3
2024-07-02T1800,2339A,119.5001,26.6946,宁德市,金涵水库,,,,,,,,,,,,,,,,
2024-07-02T1800,2341A,119.5388,26.6612,宁德市,宁德市监测站,,31,31,23,17,12,76,,66,66,15,10,8,7,1.5,0.7
2024-07-02T1800,3209A,119.5231,26.6562,宁德市,宁德一中,,42,42,21,3,9,80,,67,67,13,7,9,6,1.5,0.7
2024-07-02T1800,2618A,98.8601,25.8567,怒江傈僳族自治州,州监测站,,16,12,14,9,12,49,,38,38,4,8,10,11,0.5,0.6
2024-07-02T1800,2619A,98.8546,25.8417,怒江傈僳族自治州,泸水一中,,14,7,9,3,5,44,,32,32,7,9,5,5,0.4,0.4
2024-07-02T1800,1888A,101.6891,26.571,攀枝花市,弄弄坪,,50,50,54,11,18,54,,64,64,29,24,17,20,1.0,0.8
2024-07-02T1800,1889A,101.5769,26.5928,攀枝花市,河门口,,19,16,24,7,12,58,,58,58,10,20,4,20,0.4,1.2
2024-07-02T1800,1890A,101.7169,26.585,攀枝花市,炳草岗,,23,19,45,8,18,71,,72,72,15,21,5,22,0.7,0.8
2024-07-02T1800,1891A,101.7369,26.5008,攀枝花市,仁和,,25,21,11,10,6,79,,64,64,18,11,13,7,0.8,0.4
2024-07-02T1800,2835A,101.7227,26.567,攀枝花市,四十中小,,29,29,40,17,16,60,,75,75,22,18,10,27,0.8,0.9
2024-07-02T1800,1604A,122.0303,41.1489,盘锦市,开发区,,,,54,,53,,,103,,,21,,5,,0.3
2024-07-02T1800,1605A,122.0485,41.0883,盘锦市,兴隆台,细颗粒物(PM2.5),70,56,59,51,45,98,,91,84,36,30,3,7,0.6,0.5
2024-07-02T1800,1606A,121.8297,41.1028,盘锦市,新生街道,细颗粒物(PM2.5),75,,47,55,49,101,,83,78,21,22,2,3,0.3,0.3
2024-07-02T1800,1832A,113.3257,33.742,平顶山市,新华旅馆,臭氧1小时,60,24,25,3,19,168,,157,157,8,8,8,4,0.6,0.6
2024-07-02T1800,1833A,113.2919,33.737,平顶山市,规划设计院,臭氧1小时,65,23,19,14,15,172,,161,161,13,9,10,4,0.7,0.6
2024-07-02T1800,1834A,113.182,33.774,平顶山市,平顶山工学院,臭氧1小时,85,16,22,9,12,188,,166,166,8,11,5,2,0.8,0.8
2024-07-02T1800,3204A,113.3025,33.73,平顶山市,规划局,臭氧1小时,59,19,18,15,17,167,,157,157,16,12,11,4,0.3,0.4
2024-07-02T1800,3594A,112.8867,33.9116,平顶山市,石龙区,臭氧1小时,58,26,23,13,18,166,,158,158,2,11,5,6,0.3,0.3
2024-07-02T1800,2656A,106.6692,35.5461,平凉市,聚贤嘉苑,,43,32,55,15,18,135,,137,137,12,23,7,7,0.3,0.3
2024-07-02T1800,2657A,106.7021,35.5307,平凉市,博物馆,,45,34,37,15,18,143,,141,141,11,22,29,20,0.7,0.7
2024-07-02T1800,2347A,114.0997,27.5002,萍乡市,武功山,,32,,4,6,3,100,,90,90,2,3,7,10,0.7,0.5
2024-07-02T1800,2348A,113.8385,27.6434,萍乡市,中医院,,31,25,21,19,13,98,,88,88,8,12,9,5,0.8,1.1
2024-07-02T1800,2349A,113.8493,27.6253,萍乡市,市政府车库,,38,,15,26,14,98,,90,90,4,12,8,10,0.6,0.8
2024-07-02T1800,2350A,113.8676,27.6435,萍乡市,市环保局,,31,18,20,9,15,98,,88,88,5,10,13,11,0.6,0.7
2024-07-02T1800,2351A,113.866,27.6198,萍乡市,安源区政府,,28,22,17,7,6,88,,85,85,4,10,5,8,0.4,0.5
2024-07-02T1800,2319A,119.0141,25.4325,莆田市,荔城区仓后路,,44,44,25,12,8,61,,73,73,10,8,7,7,0.5,0.5
2024-07-02T1800,2320A,119.0015,25.4553,莆田市,莆田市监测站,,37,37,26,10,8,67,,72,72,11,7,10,9,0.5,0.4
2024-07-02T1800,2321A,119.1119,25.4561,莆田市,涵江区六中,,34,34,25,8,6,58,,68,68,6,8,11,10,0.5,0.5
2024-07-02T1800,2322A,119.1013,25.3215,莆田市,秀屿区政府,,26,26,19,6,5,45,,58,56,5,5,11,10,0.5,0.5
2024-07-02T1800,2323A,118.981,25.4792,莆田市,东圳水库,,,,,,,,,,,,,,,,
2024-07-02T1800,2392A,115.0312,35.7636,濮阳市,环保局,,40,,20,28,26,113,,115,113,8,8,7,6,0.6,0.5
2024-07-02T1800,2394A,115.0574,35.7609,濮阳市,油田运输公司,,49,37,31,34,27,113,,115,115,7,6,4,4,0.7,0.6
2024-07-02T1800,2395A,115.0866,35.7754,濮阳市,油田物探公司,细颗粒物(PM2.5),55,,30,39,33,111,,112,112,6,7,6,6,0.8,0.8
2024-07-02T1800,3021A,115,35.7668,濮阳市,濮水河管理处,,50,,21,35,30,90,,90,88,9,8,6,6,0.7,0.6
2024-07-02T1800,2601A,100.98,22.7633,普洱市,市环保局,,21,21,17,13,13,39,,35,35,10,6,4,4,0.5,0.4
2024-07-02T1800,2602A,100.9817,22.8322,普洱市,普洱第二中学,,26,,17,18,11,32,,35,35,8,9,7,8,0.6,0.5
2024-07-02T1800,2262A,131.0518,45.8751,七台河市,新一中,细颗粒物(PM2.5),62,68,55,44,48,119,,134,134,14,9,11,10,0.4,0.5
2024-07-02T1800,3345A,131.0577,45.7879,七台河市,中波台,,37,37,67,23,42,112,,118,118,10,25,10,12,0.3,0.5
2024-07-02T1800,3637A,131.0176,45.7761,七台河市,人民广场,颗粒物(PM10),53,55,74,32,48,109,,111,111,10,21,13,14,0.3,0.4
2024-07-02T1800,3684A,130.8781,45.8222,七台河市,新建矿广场,颗粒物(PM10),96,141,98,39,48,110,,118,118,22,24,6,7,0.3,0.4
2024-07-02T1800,1779A,123.9305,47.3636,齐齐哈尔市,安居小区,,49,49,44,30,29,129,,135,135,30,16,6,6,0.4,0.4
2024-07-02T1800,1780A,123.9488,47.3386,齐齐哈尔市,中心广场,,45,45,45,25,28,133,,135,135,17,15,10,10,0.4,0.3
2024-07-02T1800,1781A,123.9483,47.3227,齐齐哈尔市,农牧车辆厂,,44,41,47,14,21,138,,136,136,7,14,7,8,0.2,0.2
2024-07-02T1800,1783A,123.945,47.2988,齐齐哈尔市,市环境监测站,,44,32,39,24,28,140,,140,140,7,12,5,7,0.3,0.3
2024-07-02T1800,3662A,123.6333,47.2075,齐齐哈尔市,富区青少年活动中心,,47,40,52,19,22,150,,134,134,9,13,4,5,0.4,0.5
2024-07-02T1800,2591A,107.9783,26.5747,黔东南苗族侗族自治州,市环境监测站,,29,20,18,14,12,92,,103,103,16,17,3,3,0.5,0.6
2024-07-02T1800,2881A,107.8908,26.5311,黔东南苗族侗族自治州,凯里学院,,30,16,19,14,9,95,,102,102,5,11,3,3,0.4,0.4
2024-07-02T1800,2593A,107.5228,26.2403,黔南布依族苗族自治州,小围寨,,31,9,10,3,3,98,,94,94,2,3,4,4,0.4,0.5
2024-07-02T1800,3538A,107.5175,26.2978,黔南布依族苗族自治州,沙坝,,31,12,13,3,4,97,,91,91,3,8,4,3,0.4,0.5
2024-07-02T1800,2589A,104.9022,25.0925,黔西南布依族苗族自治州,场坝街,,33,11,12,8,7,104,,102,102,6,8,4,7,0.3,0.3
2024-07-02T1800,2590A,104.8811,25.0992,黔西南布依族苗族自治州,坪东大道,,32,8,13,8,7,100,,102,102,3,8,4,6,0.2,0.3
2024-07-02T1800,2502A,108.6236,21.9667,钦州市,市环保站,,,2,21,,3,34,,43,39,11,11,5,6,0.6,0.5
2024-07-02T1800,2503A,108.6549,21.9481,钦州市,沙埠小学,,,,25,5,9,27,,51,38,16,8,3,4,1.0,0.7
2024-07-02T1800,2504A,108.5989,21.7431,钦州市,港区一小,,11,,25,3,5,31,,52,44,21,6,7,6,0.4,0.4
2024-07-02T1800,3404A,108.5959,21.9633,钦州市,北职校,,10,6,24,3,8,32,,42,37,9,8,7,8,0.5,0.5
2024-07-02T1800,1042A,119.5134,39.8207,秦皇岛市,北戴河环保局,,43,43,60,21,30,133,,134,131,9,12,2,4,0.4,0.4
2024-07-02T1800,1043A,119.7493,40.0116,秦皇岛市,第一关,,40,39,62,24,37,128,,123,121,8,17,3,2,0.4,0.4
2024-07-02T1800,1044A,119.5897,39.9499,秦皇岛市,监测站,,45,45,62,31,35,131,,128,128,7,14,4,5,0.5,0.5
2024-07-02T1800,1046A,119.5251,39.9041,秦皇岛市,建设大厦,,42,42,64,26,33,120,,121,121,6,15,3,3,0.3,0.3
2024-07-02T1800,3132A,119.610547,39.943889,秦皇岛市,文明里,,,,,,,,,,,,,,,,
2024-07-02T1800,1307A,120.6659,36.2403,青岛市,仰口,,33,17,9,7,10,105,,96,87,3,2,5,5,0.3,0.3
2024-07-02T1800,1310A,120.4134,36.0658,青岛市,市南区东部子站,,,7,11,3,2,107,,93,93,13,5,7,7,,0.4
2024-07-02T1800,1311A,120.3664,36.1032,青岛市,四方区子站,,33,9,8,3,5,104,,93,93,12,10,10,9,0.5,0.5
2024-07-02T1800,1312A,120.2994,36.054,青岛市,市南区西部子站,,34,12,9,3,3,107,,95,95,2,4,7,7,0.5,0.6
2024-07-02T1800,1313A,120.4581,36.0858,青岛市,崂山区子站,,35,6,18,3,6,109,,94,94,12,10,8,8,0.4,0.4
2024-07-02T1800,1314A,120.1983,35.9608,青岛市,黄岛区子站,,35,,8,7,6,112,,99,99,13,16,6,6,0.5,0.5
2024-07-02T1800,1315A,120.3999,36.3083,青岛市,城阳区子站,,33,12,7,3,8,103,,97,92,13,9,7,7,0.4,0.4
2024-07-02T1800,1966A,120.0405,35.8735,青岛市,黄岛区4号,,37,17,9,3,3,116,,110,110,12,11,9,9,0.5,0.5
2024-07-02T1800,3362A,120.5014,36.4034,青岛市,即墨2号,,34,7,10,3,5,107,,104,97,12,7,7,7,0.5,0.4
2024-07-02T1800,3642A,120.3503,36.0736,青岛市,市北区南部,,36,15,11,3,4,114,,103,103,10,8,5,5,0.5,0.5
2024-07-02T1800,3643A,120.3948,36.1805,青岛市,李沧区北部,,35,,7,17,11,112,,97,97,12,16,9,10,0.4,0.4
2024-07-02T1800,1702A,113.0426,23.691,清远市,环保大楼,,15,12,17,7,10,47,,52,52,13,12,5,5,0.7,0.6
2024-07-02T1800,1703A,113.0208,23.7106,清远市,凤城街办,,20,20,24,9,10,46,,49,49,13,11,4,4,0.5,0.4
2024-07-02T1800,3025A,113.0477,23.6344,清远市,技师学院,,25,25,28,12,11,36,,51,51,28,14,6,4,0.7,0.7
2024-07-02T1800,3318A,112.9903,23.7403,清远市,清新太和,,34,34,36,8,12,42,,42,42,10,10,6,6,0.6,0.5
2024-07-02T1800,3455A,113.076,23.7198,清远市,清城东城,,17,17,23,7,10,47,,51,51,7,6,6,5,0.4,0.4
2024-07-02T1800,2661A,107.6325,35.7357,庆阳市,庆阳五中,,47,32,36,23,18,150,,143,143,8,13,3,4,0.3,0.3
2024-07-02T1800,2662A,107.6364,35.7067,庆阳市,市环保局,,47,29,30,17,17,148,,143,143,5,11,5,10,0.3,0.4
2024-07-02T1800,1916A,103.7897,25.5035,曲靖市,环境监测站,,36,36,27,10,14,111,,118,118,9,11,2,2,0.3,0.6
2024-07-02T1800,1917A,103.8,25.5364,曲靖市,烟厂办公区,,36,22,22,15,15,114,,120,120,8,10,4,4,0.3,0.5
2024-07-02T1800,3376A,103.7947,25.462,曲靖市,南苑二区,,37,15,25,15,15,117,,126,126,8,11,4,5,0.5,0.7
2024-07-02T1800,3377A,103.7444,25.5261,曲靖市,曲靖师范学院,,,,19,,16,116,,118,118,7,17,4,8,,0.7
2024-07-02T1800,1264A,118.8692,28.9398,衢州市,环保大楼,,16,6,28,3,19,49,,57,56,12,15,7,5,0.3,0.4
2024-07-02T1800,1265A,118.8709,28.9666,衢州市,实验学校,,16,11,29,3,19,49,,56,56,10,15,6,6,0.2,0.3
2024-07-02T1800,1266A,118.8621,28.9808,衢州市,衢州学院,,17,9,30,3,16,54,,59,59,6,15,3,3,0.4,0.5
2024-07-02T1800,1611A,118.5819,24.9117,泉州市,涂山街,,25,25,27,8,9,50,,57,57,5,7,4,3,0.7,0.7
2024-07-02T1800,1612A,118.5972,24.8978,泉州市,津头埔,,28,28,26,11,9,42,,53,53,10,9,2,2,0.6,0.6
2024-07-02T1800,1613A,118.6663,24.9424,泉州市,万安,,25,25,23,10,8,45,,55,55,5,4,2,2,0.5,0.5
2024-07-02T1800,1614A,118.6117,24.9604,泉州市,清源山,,,,,,,,,,,,,,,,
2024-07-02T1800,3529A,118.6333,24.9264,泉州市,城华南路,,21,21,20,7,8,42,,52,52,9,9,2,2,0.4,0.4
2024-07-02T1800,2626A,88.8876,29.2718,日喀则市,日喀则监测站,,43,,7,6,5,137,,134,134,4,5,4,5,0.3,0.4
2024-07-02T1800,3726A,88.8781,29.2426,日喀则市,林业技术推广中心,,42,6,9,3,2,134,,134,134,6,9,6,6,0.4,0.5
2024-07-02T1800,1659A,119.471,35.4209,日照市,监测站,,,14,10,9,9,117,,105,105,,10,9,9,0.3,0.3
2024-07-02T1800,1660A,119.523,35.4216,日照市,市政府广场,,36,12,12,9,6,115,,101,101,8,5,8,8,0.4,0.4
2024-07-02T1800,1661A,119.5587,35.4044,日照市,港务局,,38,12,16,7,5,119,,104,103,8,6,9,9,0.5,0.4
2024-07-02T1800,3507A,119.5328,35.4625,日照市,职业技术学院,,37,12,10,7,8,116,,104,104,10,10,8,8,0.6,0.6
2024-07-02T1800,3604A,119.3266,35.1044,日照市,岚山环保分局,,37,19,15,10,11,118,,103,103,13,9,9,7,0.8,0.7
2024-07-02T1800,1835A,111.1922,34.7752,三门峡市,市政府,,50,25,32,22,18,158,,149,149,12,22,10,10,0.5,0.5
2024-07-02T1800,1836A,111.1587,34.7942,三门峡市,开发区,,50,25,32,16,18,159,,153,153,11,14,10,12,0.3,0.4
2024-07-02T1800,1838A,111.143,34.7955,三门峡市,风景区,,,,,,,,,,,,,,,,
2024-07-02T1800,3039A,111.1911,34.7829,三门峡市,三门峡市第一小学,臭氧1小时,53,34,31,18,17,162,,156,156,10,18,9,10,0.5,0.6
2024-07-02T1800,3598A,111.1,34.7167,三门峡市,富达温泉假日酒店,臭氧1小时,63,36,42,18,27,170,,156,156,13,20,15,15,0.6,0.6
2024-07-02T1800,2324A,117.6211,26.2625,三明市,三钢,颗粒物(PM10),56,61,27,11,13,40,,52,52,16,13,23,16,1.9,1.5
2024-07-02T1800,2325A,117.635,26.2714,三明市,三明二中,,42,42,19,9,8,48,,58,58,9,10,8,9,0.6,0.8
2024-07-02T1800,2326A,117.6028,26.2378,三明市,三元区政府,,36,36,22,3,10,44,,54,54,8,11,2,3,0.3,0.4
2024-07-02T1800,2327A,117.7275,26.3108,三明市,洋溪,,,,,,,,,,,,,,,,
2024-07-02T1800,1876A,109.5078,18.2489,三亚市,河东子站,,30,30,19,15,9,71,,75,74,4,2,2,3,0.4,0.4
2024-07-02T1800,1877A,109.4964,18.2681,三亚市,河西子站,,24,24,18,8,8,74,,72,72,4,4,3,3,0.4,0.2
2024-07-02T1800,3540A,109.7348,18.3443,三亚市,君悦子站,,30,30,22,10,9,64,,70,69,11,9,3,3,0.6,0.5
2024-07-02T1800,2624A,91.7608,29.2313,山南市,山南监测站,,34,6,6,3,3,106,,93,93,3,6,5,5,0.2,0.2
2024-07-02T1800,2625A,91.7706,29.2436,山南市,山南人民医院,,33,12,11,3,5,103,,93,93,8,9,6,7,0.2,0.2
2024-07-02T1800,1674A,116.6794,23.3667,汕头市,金平子站,,36,36,20,8,7,50,,53,53,4,8,6,6,0.6,0.7
2024-07-02T1800,1675A,116.7244,23.3633,汕头市,龙湖子站,,29,29,19,6,6,38,,43,43,10,10,5,5,0.9,0.7
2024-07-02T1800,1676A,116.7258,23.2775,汕头市,濠江子站,,23,23,18,3,7,42,,46,46,12,12,5,5,0.5,0.6
2024-07-02T1800,1677A,116.7519,23.4714,汕头市,澄海子站,,29,29,22,6,7,41,,43,43,9,8,5,4,0.8,0.7
2024-07-02T1800,1678A,116.6092,23.2539,汕头市,潮阳子站,,,27,20,3,6,42,,47,47,2,4,,4,0.6,0.5
2024-07-02T1800,3444A,116.454,23.2684,汕头市,潮南峡山,,28,27,20,19,7,44,,46,46,1,2,4,4,0.6,0.7
2024-07-02T1800,3624A,116.4069,23.2533,汕头市,潮南子站,,30,30,22,7,7,47,,50,50,1,2,6,6,0.7,0.7
2024-07-02T1800,1693A,115.3653,22.775,汕尾市,市环保局,,19,19,19,6,7,39,,50,49,5,6,4,5,0.5,0.5
2024-07-02T1800,1694A,115.3706,22.7898,汕尾市,市政府,,13,11,17,3,6,40,,51,50,2,2,6,6,0.7,0.7
2024-07-02T1800,1695A,115.3622,22.7925,汕尾市,新城中学,,18,18,20,7,7,36,,52,50,2,2,4,4,0.6,0.6
2024-07-02T1800,2645A,109.9154,33.8715,商洛市,监测站,,39,19,28,19,17,124,,122,122,3,10,5,6,0.5,0.6
2024-07-02T1800,3045A,109.9643,33.8471,商洛市,商州区中学,颗粒物(PM10),52,53,34,16,12,121,,121,121,6,12,5,6,0.5,0.6
2024-07-02T1800,2408A,115.6702,34.4285,商丘市,环境监测站,,44,,28,17,22,138,,127,117,5,5,8,8,0.6,0.6
2024-07-02T1800,2409A,115.6458,34.4045,商丘市,粮食局,,45,21,27,19,21,143,,130,121,7,7,5,5,0.5,0.5
2024-07-02T1800,2410A,115.6293,34.3948,商丘市,睢阳区环保局,,48,22,31,17,27,151,,139,128,4,4,5,4,0.6,0.5
2024-07-02T1800,3171A,115.6071,34.4465,商丘市,梁园区档案局,颗粒物(PM10),68,85,35,13,24,136,,121,115,8,7,8,7,0.6,0.6
2024-07-02T1800,1141A,121.4,31.238,上海市,普陀,,,,34,20,26,79,,104,104,15,18,5,6,0.4,0.4
2024-07-02T1800,1142A,121.478,31.2036,上海市,十五厂,,28,17,31,10,21,87,,105,105,16,20,6,7,0.5,0.4
2024-07-02T1800,1143A,121.467,31.3008,上海市,虹口,,24,16,31,12,26,76,,98,98,17,19,5,6,0.7,0.7
2024-07-02T1800,1144A,121.412,31.1654,上海市,徐汇上师大,,27,13,32,11,23,84,,104,104,21,23,6,6,0.7,0.7
2024-07-02T1800,1145A,121.536,31.2659,上海市,杨浦四漂,,28,18,30,13,22,88,,107,107,16,19,6,6,0.8,0.7
2024-07-02T1800,1147A,121.425,31.2261,上海市,静安监测站,,26,14,31,11,23,81,,104,104,15,18,6,6,0.6,0.6
2024-07-02T1800,1148A,121.703,31.1907,上海市,浦东川沙,,38,34,34,26,24,104,,113,113,25,26,6,6,0.7,0.7
2024-07-02T1800,1149A,121.533,31.2284,上海市,浦东新区监测站,,25,19,28,11,20,77,,98,98,23,19,4,4,0.7,0.6
2024-07-02T1800,1150A,121.577,31.2071,上海市,浦东张江,,25,19,29,11,23,80,,97,97,24,20,5,5,0.9,0.8
2024-07-02T1800,3265A,121.4316,31.3322,上海市,宝山庙行,,26,19,30,13,20,83,,107,107,21,16,8,8,0.7,0.6
2024-07-02T1800,3266A,121.8791,31.4662,上海市,崇明上实东滩,,30,14,22,7,12,94,,112,112,11,20,9,9,0.6,0.5
2024-07-02T1800,3268A,121.3162,31.2838,上海市,嘉定南翔,,25,10,30,10,23,77,,95,95,20,24,5,5,0.5,0.5
2024-07-02T1800,3269A,121.3359,30.7456,上海市,金山新城,,27,16,26,13,18,85,,96,96,14,15,7,7,0.4,0.4
2024-07-02T1800,3270A,121.4996,31.0739,上海市,闵行浦江,,28,24,29,17,22,87,,106,106,24,16,6,5,0.4,0.4
2024-07-02T1800,3271A,121.2886,31.1663,上海市,青浦徐泾,,27,12,28,9,24,84,,104,104,15,18,5,5,0.5,0.5
2024-07-02T1800,3272A,121.2186,31.0378,上海市,松江图书馆,,28,11,28,11,24,87,,108,108,12,18,6,5,0.6,0.6
2024-07-02T1800,3273A,121.3902,31.2059,上海市,长宁仙霞,,25,20,33,8,20,79,,100,100,24,22,6,6,0.5,0.5
2024-07-02T1800,3274A,121.7965,31.0507,上海市,浦东惠南,,44,44,35,26,21,115,,120,120,26,31,6,7,0.5,0.5
2024-07-02T1800,3544A,121.4891,30.925,上海市,奉贤南桥新城,,27,15,24,14,18,86,,98,98,20,19,6,5,0.6,0.5
2024-07-02T1800,2381A,118.005,28.4572,上饶市,百草园,,,10,32,7,16,55,,45,45,,11,7,8,0.5,0.9
2024-07-02T1800,2382A,117.9756,28.4436,上饶市,市监测站,,18,11,36,6,16,57,,63,63,4,13,3,10,0.5,0.7
2024-07-02T1800,2383A,117.9519,28.4628,上饶市,凤凰光学,,18,12,30,7,17,57,,66,66,2,14,4,12,0.8,0.8
2024-07-02T1800,3413A,118.1953,28.4401,上饶市,广丰区教体局,,28,28,22,3,10,61,,53,53,5,4,9,6,0.5,0.4
