timepoint,stationcode,longitude,latitude,area,positionname,primarypollutant,aqi,pm10,pm10_24h,pm2_5,pm2_5_24h,o3,o3_24h,o3_8h,o3_8h_24h,no2,no2_24h,so2,so2_24h,co,co_24h
2024-07-02T0900,2566A,102.1879,31.914,阿坝藏族羌族自治州,州农科所,颗粒物(PM10),64,78,28,17,11,37,,45,42,15,12,5,4,0,0
2024-07-02T0900,2568A,102.2502,31.8896,阿坝藏族羌族自治州,马师校,,29,,14,20,14,31,,39,36,20,14,5,4,0.4,0.3
2024-07-02T0900,3994A,102.2165,31.9024,阿坝藏族羌族自治州,马尔康中学西区,,18,18,17,9,12,38,,46,43,12,6,5,5,0.2,0.2
2024-07-02T0900,2695A,80.292,41.1694,阿克苏地区,电视台,,23,23,27,9,9,60,,110,102,26,10,9,10,0.5,0.3
2024-07-02T0900,2696A,80.2613,41.1551,阿克苏地区,艺术中心,,26,26,30,17,13,45,,105,96,12,13,4,4,0.7,0.3
2024-07-02T0900,2204A,105.6467,38.8363,阿拉善盟,西城区西花园,,49,49,39,21,22,116,,106,106,14,10,9,8,0.6,0.6
2024-07-02T0900,2205A,105.6985,38.8411,阿拉善盟,蒙二幼,,,36,41,20,28,116,,101,101,10,7,11,10,,0.4
2024-07-02T0900,2206A,105.724,38.8516,阿拉善盟,环保局新楼,,,34,43,18,22,,,108,108,9,7,12,10,0.5,0.5
2024-07-02T0900,2708A,88.1264,47.8517,阿勒泰地区,市站,,21,11,27,3,8,65,,64,64,15,13,6,6,0.6,0.6
2024-07-02T0900,2630A,80.1161,32.5,阿里地区,阿里监测站,,24,18,10,10,8,74,,120,114,35,8,6,8,0.5,0.4
2024-07-02T0900,3192A,80.0903,32.5028,阿里地区,阿里藏医院,,37,16,14,6,4,116,,130,127,6,4,8,8,0.5,0.4
2024-07-02T0900,2642A,109.0318,32.6537,安康市,香溪洞,,19,8,10,3,4,60,,33,33,2,4,6,6,0.5,0.6
2024-07-02T0900,2643A,109.0281,32.6939,安康市,安康市监测站,,20,20,23,8,10,45,,29,29,4,8,6,7,0.4,0.4
2024-07-02T0900,2644A,109.0072,32.6975,安康市,汉滨区检察院,,16,16,19,3,6,42,,27,27,4,7,7,6,0.5,0.5
2024-07-02T0900,2291A,117.0809,30.5177,安庆市,环科院,,29,,10,3,7,91,,55,55,7,11,4,4,0.6,0.5
2024-07-02T0900,2292A,117.0331,30.5119,安庆市,马山宾馆,,29,6,10,3,6,90,,47,47,9,16,8,7,0.7,0.5
2024-07-02T0900,2294A,116.9896,30.6145,安庆市,安庆大学,,25,6,11,3,7,78,,45,45,9,12,6,7,0.7,0.4
2024-07-02T0900,3173A,117.0598,30.5351,安庆市,市人大,,28,6,10,3,6,88,,50,50,6,9,6,6,0.5,0.3
2024-07-02T0900,3122A,105.9606,26.2611,安顺市,伍家关,,,,,,,,,,,,,,,,
2024-07-02T0900,3123A,105.9408,26.2431,安顺市,凤凰山,,29,29,18,18,14,31,,32,28,21,11,16,9,0.5,0.4
2024-07-02T0900,3124A,105.9439,26.2564,安顺市,金钟山,细颗粒物(PM2.5),103,,14,77,30,55,,48,48,12,7,16,6,0.6,0.5
2024-07-02T0900,3125A,105.8983,26.2481,安顺市,娄家坡,,33,33,21,14,9,45,,44,42,11,9,11,6,0.6,0.5
2024-07-02T0900,1818A,114.4839,36.0621,安阳市,棉研所,,,,,,,,,,,,,,,,
2024-07-02T0900,1819A,114.3551,36.1017,安阳市,红庙街,,39,,22,24,18,122,,116,116,2,4,1,2,0.2,0.4
2024-07-02T0900,1820A,114.361,36.0681,安阳市,银杏小区,,37,24,21,16,12,118,,117,116,1,2,6,6,0.5,0.7
2024-07-02T0900,3141A,114.3922,36.0878,安阳市,信访局,,39,,22,20,16,124,,121,120,2,3,2,3,0.8,0.9
2024-07-02T0900,3669A,114.4705,36.0637,安阳市,左辅环卫站,,40,33,25,22,24,126,,119,119,2,5,2,2,0.6,0.8
2024-07-02T0900,3703A,114.2917,36.0949,安阳市,安钢职工学校,细颗粒物(PM2.5),58,,30,41,35,111,,105,105,6,15,4,4,0.6,0.9
2024-07-02T0900,1748A,123.044,41.1196,鞍山市,深沟寺,颗粒物(PM10),62,73,58,37,40,37,,62,57,57,24,5,5,0.7,0.6
2024-07-02T0900,1749A,123.011,41.0931,鞍山市,太阳城,,30,30,57,19,38,70,,79,79,20,19,6,8,0.8,0.8
2024-07-02T0900,1750A,123.0485,41.1442,鞍山市,太平,颗粒物(PM10),90,129,84,58,48,27,,42,37,68,36,8,9,1.0,0.7
2024-07-02T0900,1751A,122.9642,41.0971,鞍山市,铁西三道街,,35,35,84,22,51,85,,58,57,19,39,5,16,0.6,1.6
2024-07-02T0900,1752A,122.9341,41.0833,鞍山市,铁西工业园区,细颗粒物(PM2.5),102,121,89,76,61,21,,29,22,84,41,27,14,3.3,1.6
2024-07-02T0900,1753A,123.022,41.0821,鞍山市,明达新区,,25,24,69,17,65,78,,83,83,15,18,6,8,0.5,0.6
2024-07-02T0900,1754A,123.1289,41.0228,鞍山市,千山,,,,,,,,,,,,,,,,
2024-07-02T0900,2195A,107.4212,40.761,巴彦淖尔市,附二中,,31,29,39,17,21,99,,76,76,8,11,4,4,0.4,0.5
2024-07-02T0900,2196A,107.37,40.7372,巴彦淖尔市,市环保大楼,,34,32,48,18,17,108,,62,62,9,13,5,4,0.4,0.5
2024-07-02T0900,1956A,86.1472,41.7538,巴音郭楞蒙古自治州,孔雀公园,颗粒物(PM10),66,81,71,25,25,72,,79,78,12,16,4,4,0.2,0.2
2024-07-02T0900,1957A,86.1972,41.7166,巴音郭楞蒙古自治州,棉纺厂,颗粒物(PM10),54,57,62,13,22,39,,83,78,40,17,5,5,0.3,0.3
2024-07-02T0900,1958A,86.2357,41.7173,巴音郭楞蒙古自治州,经济开发区,,47,47,50,26,25,83,,101,98,11,6,5,3,0.3,0.2
2024-07-02T0900,2914A,106.7677,31.8794,巴中市,苏山坪,,21,17,12,10,8,66,,75,72,6,6,5,4,0.4,0.4
2024-07-02T0900,3182A,106.7656,31.8545,巴中市,丽阳花园,,,25,20,14,11,,,28,27,20,16,,6,0.5,0.5
2024-07-02T0900,3183A,106.7418,31.8654,巴中市,圣泉水务公司,,22,22,19,13,11,46,,39,39,15,17,5,4,0.5,0.4
2024-07-02T0900,3616A,106.7616,31.8344,巴中市,市中心医院,,27,27,19,17,11,46,,24,24,18,14,7,6,0.6,0.5
2024-07-02T0900,2235A,122.7911,45.6077,白城市,洮北区环保局,,40,30,44,28,29,96,,58,58,8,18,3,2,0.1,0.2
2024-07-02T0900,2236A,122.8738,45.5725,白城市,市环保局,,31,31,34,16,26,91,,47,47,8,21,4,6,0.3,0.4
2024-07-02T0900,2231A,126.4219,41.9171,白山市,喜丰,颗粒物(PM10),66,81,59,25,22,53,,26,26,24,15,12,10,1.1,1.2
2024-07-02T0900,2232A,126.4077,41.9419,白山市,环保局,颗粒物(PM10),56,62,45,31,23,48,,36,36,18,9,13,11,0.9,0.9
2024-07-02T0900,2647A,104.1724,36.5446,白银市,第三小学,,46,46,34,31,19,60,,48,47,32,24,34,17,1.3,0.8
2024-07-02T0900,2648A,104.1465,36.5482,白银市,动力公司,,37,37,26,24,15,58,,46,46,30,14,27,11,1.3,0.5
2024-07-02T0900,2512A,106.6103,23.9011,百色市,市监测站,,16,10,38,8,17,49,,61,58,10,9,6,6,0.8,0.9
2024-07-02T0900,2513A,106.6538,23.8859,百色市,市中心血站,,19,19,40,11,21,47,,61,58,22,14,15,9,0.9,0.8
2024-07-02T0900,3406A,106.6085,23.8798,百色市,祈福高中,,,,46,,22,,,53,50,15,10,6,8,0.8,0.8
2024-07-02T0900,2270A,117.396,32.939,蚌埠市,工人疗养院,,34,34,20,16,7,100,,93,93,4,2,7,7,0.5,0.4
2024-07-02T0900,2271A,117.3605,32.9427,蚌埠市,百货大楼,,38,36,21,26,12,103,,96,96,5,3,5,5,0.5,0.5
2024-07-02T0900,2273A,117.4185,32.8911,蚌埠市,蚌埠学院,,33,22,9,20,9,105,,97,97,1,2,5,6,0.5,0.5
2024-07-02T0900,2274A,117.3533,32.9673,蚌埠市,淮上区政府,,42,29,17,29,16,100,,96,96,5,2,6,5,0.5,0.4
2024-07-02T0900,2275A,117.3145,32.8977,蚌埠市,高新区,,30,22,16,20,9,96,,97,96,9,3,5,5,0.5,0.5
2024-07-02T0900,3715A,117.3092,32.9314,蚌埠市,蚌埠田家炳中学,,,,18,,10,96,,94,93,,2,6,6,0.3,0.3
2024-07-02T0900,1585A,109.8756,40.6532,包头市,市环境监测站,,,39,17,8,6,,,81,79,20,14,15,8,0.9,0.5
2024-07-02T0900,1587A,109.9991,40.5842,包头市,包头八中,,38,38,17,23,8,104,,77,77,19,15,30,10,0.7,0.4
2024-07-02T0900,1588A,109.8538,40.6821,包头市,青山宾馆,,28,22,12,6,6,87,,65,65,13,13,9,8,0.7,0.6
2024-07-02T0900,1589A,109.8642,40.6288,包头市,惠龙物流,,39,39,31,13,23,86,,86,84,27,14,31,13,1.1,0.4
2024-07-02T0900,1590A,110.0377,40.5546,包头市,东河鸿龙湾,,40,40,15,12,6,113,,85,85,13,13,16,8,0.8,0.6
2024-07-02T0900,3283A,109.9154,40.5685,包头市,滨河大厦,,36,32,16,22,7,114,,75,75,15,15,18,11,0.9,0.7
2024-07-02T0900,3419A,109.9447,40.6261,包头市,包头市委党校,,30,30,14,14,7,91,,74,74,22,15,21,12,0.7,0.4
2024-07-02T0900,3683A,109.8331,40.6576,包头市,昆区政府,,,,12,,7,,,92,91,15,12,12,7,0.6,0.3
2024-07-02T0900,1930A,107.185,34.3063,宝鸡市,庙沟村,,22,22,22,12,11,47,,60,58,4,7,9,9,0.3,0.3
2024-07-02T0900,1931A,107.0708,34.3017,宝鸡市,竹园沟,,23,23,22,11,11,51,,39,39,13,11,8,8,0.4,0.3
2024-07-02T0900,1932A,107.1906,34.3672,宝鸡市,三陆医院,,32,32,32,13,15,44,,31,30,20,19,9,8,0.5,0.5
2024-07-02T0900,1933A,107.1431,34.3547,宝鸡市,监测站,,30,30,23,13,17,47,,36,36,15,14,8,8,0.4,0.4
2024-07-02T0900,1934A,107.1186,34.3739,宝鸡市,技工学校,,,,26,14,13,,,39,38,,12,8,7,0.6,0.5
2024-07-02T0900,1935A,107.3906,34.3528,宝鸡市,陈仓区环保局家属楼,,31,31,26,16,14,45,,44,42,20,16,16,11,0.9,0.5
2024-07-02T0900,1936A,107.2058,34.3497,宝鸡市,文理学院,,34,34,25,10,12,43,,36,35,21,16,9,8,0.5,0.4
2024-07-02T0900,1937A,107.2386,34.3622,宝鸡市,三迪小学,,38,38,26,13,18,43,,38,37,22,16,9,8,0.5,0.4
2024-07-02T0900,1051A,115.493,38.8632,保定市,游泳馆,细颗粒物(PM2.5),60,43,37,43,23,92,,85,85,3,2,8,8,0.5,0.3
2024-07-02T0900,1052A,115.5213,38.8959,保定市,华电二区,,46,46,31,32,14,109,,92,92,5,7,3,3,0.6,0.4
2024-07-02T0900,1053A,115.4713,38.9108,保定市,接待中心,细颗粒物(PM2.5),59,53,40,42,23,100,,93,93,4,4,3,3,0.6,0.4
2024-07-02T0900,1054A,115.4612,38.8416,保定市,地表水厂,细颗粒物(PM2.5),64,59,46,46,30,94,,92,92,12,5,1,3,0.8,0.6
2024-07-02T0900,3581A,115.31981,38.95208,保定市,满城区生态环境分局,,45,39,30,31,20,87,,98,98,9,3,2,2,0.5,0.4
2024-07-02T0900,3582A,115.47694,38.76408,保定市,清苑区第二中学,细颗粒物(PM2.5),62,55,46,44,28,95,,89,89,10,10,4,4,0.6,0.5
2024-07-02T0900,3583A,115.62909,39.02311,保定市,徐水物探局,,49,36,27,34,20,92,,91,91,4,5,4,4,0.5,0.3
2024-07-02T0900,4004A,115.4202,38.8656,保定市,双鹰农机,细颗粒物(PM2.5),53,43,33,37,23,104,,92,92,8,9,4,3,0.3,0.2
2024-07-02T0900,4034A,115.5150,38.8590,保定市,植保所站,细颗粒物(PM2.5),67,49,32,48,27,114,,99,99,6,6,1,3,0.6,0.4
2024-07-02T0900,2594A,99.1678,25.1081,保山市,市环境监测站,,,,18,,10,,,26,,,12,,4,,0.5
2024-07-02T0900,2595A,99.1711,25.1328,保山市,市环保局,,14,14,18,9,6,22,,21,21,11,9,5,4,0.6,0.5
2024-07-02T0900,1866A,109.2262,21.588,北海市,牛尾岭水库,,,,,,,,,,,,,,,,
2024-07-02T0900,1867A,109.1436,21.4086,北海市,海滩公园,,40,40,39,3,4,49,,54,52,3,3,3,3,0.6,0.6
2024-07-02T0900,1868A,109.0981,21.4661,北海市,新市环保局,,,23,23,9,6,,,56,55,4,3,4,4,0.6,0.6
2024-07-02T0900,1869A,109.1778,21.5233,北海市,北海工业园,,33,33,26,17,8,44,,55,53,7,3,4,4,0.5,0.4
2024-07-02T0900,3400A,109.1911,21.4415,北海市,龙潭自来水厂,,25,25,23,11,10,45,,54,52,4,3,6,5,0.5,0.4
2024-07-02T0900,1001A,116.3621,39.8784,北京市,万寿西宫,,36,33,37,25,25,91,,78,77,16,14,3,3,0.7,0.6
2024-07-02T0900,1002A,116.2202,40.2915,北京市,定陵,,40,39,27,28,18,45,,36,34,12,13,3,3,0.6,0.5
2024-07-02T0900,1003A,116.4174,39.9289,北京市,东四,,45,37,34,31,27,62,,70,67,30,16,3,3,0.8,0.7
2024-07-02T0900,1004A,116.4072,39.8863,北京市,天坛,颗粒物(PM10),76,102,45,33,23,61,,57,57,40,15,3,3,0.7,0.5
2024-07-02T0900,1005A,116.462,39.9365,北京市,农展馆,,38,33,35,26,25,58,,71,66,27,17,3,3,0.6,0.5
2024-07-02T0900,1006A,116.3392,39.9295,北京市,官园,,36,32,37,25,29,82,,75,70,25,17,3,3,0.6,0.5
2024-07-02T0900,1007A,116.2878,39.9611,北京市,海淀万柳,,43,30,34,30,25,60,,68,63,25,15,5,5,0.5,0.4
2024-07-02T0900,1008A,116.6636,40.135,北京市,顺义新城,,29,29,36,17,22,56,,45,42,15,15,3,3,0.5,0.5
2024-07-02T0900,1009A,116.6275,40.3275,北京市,怀柔镇,,36,36,24,23,15,61,,46,46,5,3,2,2,0.3,0.2
2024-07-02T0900,1010A,116.2296,40.217,北京市,昌平镇,,42,41,33,29,23,45,,40,38,19,15,3,3,0.5,0.4
2024-07-02T0900,1011A,116.3966,39.9821,北京市,奥体中心,细颗粒物(PM2.5),52,42,34,36,27,42,,52,45,39,21,5,4,0.6,0.5
2024-07-02T0900,1012A,116.184,39.9136,北京市,古城,,40,39,36,28,21,71,,78,75,22,14,1,1,0.6,0.5
2024-07-02T0900,3281A,115.9718,40.4529,北京市,延庆夏都,,33,30,25,23,18,72,,64,63,10,8,3,3,0.4,0.4
2024-07-02T0900,3417A,117.0709,40.1465,北京市,平谷新城,,48,46,34,33,24,48,,32,32,16,14,3,3,0.5,0.4
2024-07-02T0900,3418A,116.8336,40.4095,北京市,密云新城,,30,30,23,19,13,74,,56,56,9,8,1,3,0.4,0.4
2024-07-02T0900,3671A,116.088,39.9726,北京市,门头沟三家店,,,,,,,,,,,,,,,,
2024-07-02T0900,3672A,116.1541,39.8204,北京市,丰台云岗,,42,39,33,29,20,57,,50,50,8,10,2,5,0.6,0.6
2024-07-02T0900,3673A,116.6804,39.9081,北京市,通州东关,,29,27,42,20,30,37,,50,44,22,14,3,3,0.6,0.6
2024-07-02T0900,3674A,115.9577,39.7603,北京市,房山燕山,细颗粒物(PM2.5),54,,28,38,21,98,,73,73,2,5,1,2,0.5,0.5
2024-07-02T0900,3675A,116.4672,39.7733,北京市,大兴旧宫,,33,31,36,23,27,45,,44,42,25,16,3,3,0.7,0.6
2024-07-02T0900,3694A,115.986,40.4563,北京市,延庆石河营,,36,33,25,25,18,61,,55,54,11,6,3,3,0.5,0.4
2024-07-02T0900,3695A,116.6151,40.3053,北京市,怀柔新城,,36,35,23,25,16,62,,57,57,7,5,3,3,0.7,0.5
2024-07-02T0900,3696A,116.2545,39.8768,北京市,丰台小屯,,33,28,33,23,22,41,,55,52,14,7,3,3,0.6,0.5
2024-07-02T0900,3697A,116.84,40.3844,北京市,密云镇,,30,30,27,21,16,73,,40,40,7,15,3,2,0.4,0.4
2024-07-02T0900,1761A,123.8275,41.3064,本溪市,大峪,,50,50,33,19,17,65,,46,45,22,16,10,9,0.7,0.6
2024-07-02T0900,1762A,123.7567,41.3325,本溪市,溪湖,,,50,36,19,19,,,32,31,25,20,5,5,0.9,0.7
2024-07-02T0900,1763A,123.7169,41.3094,本溪市,彩屯,颗粒物(PM10),55,60,38,30,23,41,,45,43,53,25,10,8,1.2,0.7
2024-07-02T0900,1764A,123.7669,41.2864,本溪市,东明,颗粒物(PM10),59,68,48,22,18,58,,42,40,36,24,8,8,0.8,0.7
2024-07-02T0900,1765A,123.7992,41.2664,本溪市,新立屯,,40,40,29,14,14,69,,54,54,24,19,5,5,0.8,0.6
2024-07-02T0900,1766A,123.8142,41.3472,本溪市,威宁,颗粒物(PM10),55,59,45,24,23,59,,39,39,24,22,9,8,0.7,0.7
2024-07-02T0900,2587A,105.2864,27.3125,毕节市,八中,,24,24,14,14,8,47,,31,31,14,9,8,5,0.6,0.4
2024-07-02T0900,2588A,105.31,27.2944,毕节市,师专,,24,24,15,15,11,39,,24,24,13,11,7,4,0.6,0.5
2024-07-02T0900,3537A,105.3631,27.3533,毕节市,长征村,,32,32,15,21,9,48,,38,37,11,8,7,6,0.4,0.3
2024-07-02T0900,1629A,118.0018,37.3617,滨州市,第二水厂,细颗粒物(PM2.5),67,53,52,48,47,94,,101,98,13,9,1,1,0.6,0.5
2024-07-02T0900,1630A,117.9776,37.393,滨州市,北中新校,细颗粒物(PM2.5),64,63,57,46,43,88,,94,90,11,8,3,2,0.5,0.5
2024-07-02T0900,3514A,117.9378,37.3956,滨州市,中海酒店,细颗粒物(PM2.5),70,58,59,51,46,99,,101,98,14,12,3,4,0.5,0.4
2024-07-02T0900,3515A,117.9378,37.3553,滨州市,开发区一中,细颗粒物(PM2.5),77,66,57,56,47,87,,98,94,14,10,4,4,0.7,0.7
2024-07-02T0900,3516A,118.0917,37.694,滨州市,金海六路,细颗粒物(PM2.5),64,63,60,46,41,112,,103,102,7,8,5,6,0.6,0.5
2024-07-02T0900,4028A,117.9956,37.3753,滨州市,滨州市西街道办事处,细颗粒物(PM2.5),73,,50,53,48,94,,103,100,12,9,1,2,0.7,0.6
2024-07-02T0900,2311A,115.8072,33.8399,亳州市,污水处理厂,,35,,21,24,15,102,,124,120,5,4,2,2,0.6,0.6
2024-07-02T0900,2312A,115.7789,33.8518,亳州市,三国揽胜宫,,38,,26,26,16,100,,123,119,7,5,2,2,0.5,0.5
2024-07-02T0900,3332A,115.7633,33.8034,亳州市,亳州学院,,36,25,23,25,16,103,,130,125,6,4,3,3,0.8,0.6
2024-07-02T0900,2693A,82.0485,44.8556,博尔塔拉蒙古自治州,市党校,,33,22,22,12,10,105,,89,89,8,9,10,10,0.3,0.3
2024-07-02T0900,2694A,82.0806,44.8969,博尔塔拉蒙古自治州,市环保局,,32,25,27,13,10,100,,89,89,11,13,5,8,0.3,0.4
2024-07-02T0900,1071A,116.8842,38.2991,沧州市,沧县城建局,细颗粒物(PM2.5),64,54,51,46,35,115,,94,94,18,16,2,3,0.9,0.6
2024-07-02T0900,1072A,116.8584,38.3254,沧州市,电视转播站,颗粒物(PM10),55,60,52,36,34,109,,86,86,24,22,3,3,0.7,0.6
2024-07-02T0900,1073A,116.8709,38.3228,沧州市,市环保局,细颗粒物(PM2.5),62,49,54,44,37,108,,85,85,20,16,3,2,0.6,0.5
2024-07-02T0900,3324A,116.8136,38.3004,沧州市,河北水利电力学院,细颗粒物(PM2.5),65,,47,47,42,119,,96,96,12,11,3,3,0.8,0.6
2024-07-02T0900,2622A,97.1806,31.1273,昌都市,昌都监测站,,32,32,17,13,7,53,,63,60,16,15,7,7,0.5,0.5
2024-07-02T0900,3719A,97.1714,31.1406,昌都市,昌都会议中心,,21,19,14,12,8,66,,80,77,10,6,5,6,0.3,0.3
2024-07-02T0900,2690A,88.1236,43.8886,昌吉回族自治州,天山天池,,19,19,26,7,9,52,,50,50,8,8,5,7,0.6,0.6
2024-07-02T0900,2692A,87.2717,44.0297,昌吉回族自治州,新区政务中心,,35,35,51,13,10,78,,72,72,8,8,7,8,0.6,0.4
2024-07-02T0900,3613A,87.3095,44.0142,昌吉回族自治州,亚心广场,,27,27,64,3,8,77,,72,72,4,6,7,7,0.2,0.2
2024-07-02T0900,1119A,125.3325,43.9166,长春市,食品厂,细颗粒物(PM2.5),63,74,75,45,54,87,,41,41,30,36,7,7,0.7,0.7
2024-07-02T0900,1120A,125.2863,43.9027,长春市,客车厂,细颗粒物(PM2.5),64,76,77,46,51,88,,48,48,34,42,4,4,0.5,0.6
2024-07-02T0900,1121A,125.2841,43.8463,长春市,邮电学院,颗粒物(PM10),61,72,70,38,51,86,,47,47,33,30,9,8,0.6,0.5
2024-07-02T0900,1122A,125.3716,43.8772,长春市,劳动公园,颗粒物(PM10),70,89,83,40,47,84,,34,34,37,42,10,6,0.7,0.7
2024-07-02T0900,1123A,125.3297,43.8805,长春市,园林处,,,81,69,47,57,,,46,45,37,37,10,7,0.5,0.5
2024-07-02T0900,1124A,125.4605,43.79,长春市,净月潭,,,50,59,30,37,100,,58,58,13,12,,5,0.4,0.4
2024-07-02T0900,1125A,125.7194,43.515,长春市,甩湾子,,,,,,,,,,,,,,,,
2024-07-02T0900,1126A,125.3863,43.8447,长春市,经开区环卫处,颗粒物(PM10),64,78,81,40,46,86,,33,33,35,48,11,6,0.6,0.6
2024-07-02T0900,1127A,125.245,43.7783,长春市,高新区管委会,颗粒物(PM10),61,72,80,43,50,92,,38,38,31,38,9,6,0.6,0.5
2024-07-02T0900,1128A,125.1761,43.8325,长春市,岱山公园,颗粒物(PM10),60,69,70,42,50,93,,44,44,30,44,5,4,0.5,0.6
2024-07-02T0900,1335A,113.0833,28.2325,长沙市,经开区环保局,,,23,20,,15,92,,97,97,9,9,4,4,0.4,0.5
2024-07-02T0900,1336A,112.8872,28.2189,长沙市,高开区环保局,,28,27,22,9,12,89,,106,102,9,8,4,5,0.6,0.7
2024-07-02T0900,1337A,113.0792,28.2053,长沙市,马坡岭,,29,18,21,9,12,92,,98,98,9,7,7,7,0.6,0.6
2024-07-02T0900,1338A,112.9394,28.19,长沙市,湖南师范大学,,40,,24,28,15,95,,104,102,6,8,4,5,0.6,0.6
2024-07-02T0900,1339A,113.0178,28.1322,长沙市,雨花区环保局,,,18,18,12,11,,,100,100,5,6,2,2,0.6,0.5
2024-07-02T0900,1340A,112.9792,28.2597,长沙市,伍家岭,,29,25,27,6,10,90,,98,96,4,11,3,2,0.5,0.6
2024-07-02T0900,1341A,113.0014,28.1944,长沙市,火车新站,,30,20,25,17,11,96,,104,103,2,9,2,2,0.5,0.5
2024-07-02T0900,1342A,112.9844,28.1178,长沙市,天心区环保局,细颗粒物(PM2.5),53,,20,37,10,85,,91,91,6,7,2,2,0.4,0.4
2024-07-02T0900,1343A,112.8908,28.1308,长沙市,湖南中医药大学,,31,24,20,3,10,98,,105,104,3,8,6,7,0.4,0.5
2024-07-02T0900,1344A,112.9581,28.3611,长沙市,沙坪,,23,23,16,13,10,65,,102,96,7,6,5,5,0.5,0.5
2024-07-02T0900,1727A,113.1147,36.1547,长治市,清华站,,40,17,15,9,8,125,,121,121,12,11,10,9,0.6,0.5
2024-07-02T0900,1728A,113.1031,36.1989,长治市,监测站,,38,19,19,7,9,119,,110,110,13,14,3,3,0.9,0.8
2024-07-02T0900,1730A,113.0886,36.2125,长治市,审计局,,33,25,15,12,9,104,,106,104,21,18,6,3,0.9,0.5
2024-07-02T0900,1731A,113.0844,36.1856,长治市,长治八中,,37,19,17,18,12,116,,109,108,11,11,6,3,1.3,0.8
2024-07-02T0900,2845A,113.1569,36.1911,长治市,德盛苑,,38,17,14,17,9,121,,120,118,9,6,7,7,0.8,0.8
2024-07-02T0900,3568A,113.06,36.0464,长治市,向阳小学,,,,37,,31,106,,126,121,14,13,8,6,1.4,1
2024-07-02T0900,3569A,112.8792,36.3144,长治市,屯留一中,,33,30,30,23,22,87,,104,100,14,14,14,12,0.6,0.6
2024-07-02T0900,3570A,113.235,36.3489,长治市,潞城四中,,37,18,16,15,18,116,,119,117,6,6,8,7,0.5,0.5
2024-07-02T0900,1854A,111.6975,28.9703,常德市,市二中,,24,18,17,15,10,74,,89,84,5,6,5,5,0.6,0.5
2024-07-02T0900,1857A,111.7158,29.1456,常德市,白鹤山,,,,,,,,,,,,,,,,
2024-07-02T0900,3138A,111.7153,29.0289,常德市,武陵区永安,,35,35,15,14,10,80,,86,83,4,5,6,6,0.4,0.4
2024-07-02T0900,3139A,111.6892,28.9881,常德市,鼎城区玉霞,,25,24,15,17,12,78,,85,80,4,4,3,3,0.5,0.5
2024-07-02T0900,3140A,111.6625,29.0531,常德市,武陵区长庚,,26,26,14,14,10,75,,84,80,4,4,7,7,0.6,0.6
2024-07-02T0900,1196A,119.9633,31.762,常州市,市监测站,,20,,25,14,20,47,,60,58,14,14,6,6,0.7,0.7
2024-07-02T0900,1200A,119.9468,31.7069,常州市,武进监测站,,20,17,22,14,19,37,,68,63,8,5,5,4,0.7,0.7
2024-07-02T0900,1201A,119.9255,31.9087,常州市,安家,,18,15,25,12,17,45,,60,58,10,9,7,5,0.4,0.5
2024-07-02T0900,3002A,119.9805,31.8174,常州市,行政中心,,22,18,25,15,18,43,,59,57,9,8,10,10,0.7,0.7
2024-07-02T0900,3003A,120.0522,31.7748,常州市,经开区,,,,26,22,20,,,,,14,13,3,4,0.5,0.9
2024-07-02T0900,3010A,119.9025,31.7964,常州市,钟楼,,,17,27,13,19,,,63,63,11,8,3,3,0,0
2024-07-02T0900,3429A,119.8598,31.7066,常州市,武进经发区,,13,11,26,7,16,39,,60,56,13,10,7,8,0.3,0.3
2024-07-02T0900,3430A,119.5826,31.7245,常州市,金坛城区,,,29,38,24,26,,,,,12,6,7,7,0.6,0.6
2024-07-02T0900,2220A,120.4318,41.5881,朝阳市,西梁,颗粒物(PM10),60,70,54,35,35,89,,53,53,21,17,15,11,0.7,0.6
2024-07-02T0900,2221A,120.4521,41.5646,朝阳市,河畔小区,颗粒物(PM10),57,64,54,36,33,101,,85,85,15,11,19,12,0.7,0.6
2024-07-02T0900,2222A,120.4176,41.5648,朝阳市,八里堡,颗粒物(PM10),62,74,54,37,36,88,,68,68,28,18,14,10,0.9,0.8
2024-07-02T0900,2223A,120.3806,41.5969,朝阳市,农业园区,,48,40,49,33,35,93,,70,70,22,18,10,10,0.5,0.5
2024-07-02T0900,1705A,116.6367,23.6719,潮州市,西园路,,30,30,23,12,11,34,,25,25,7,11,2,2,0.6,0.5
2024-07-02T0900,3026A,116.6183,23.6608,潮州市,市政府,,12,8,26,8,9,35,,28,28,4,7,4,5,0.6,0.6
2024-07-02T0900,4036A,116.6461,23.6761,潮州市,金山,,20,20,24,10,13,34,,26,26,5,8,6,6,0.5,0.6
2024-07-02T0900,2472A,113.0073,25.9061,郴州市,马头岭,,23,21,21,16,8,48,,56,53,3,4,7,7,0.4,0.3
2024-07-02T0900,2473A,113.0116,25.8226,郴州市,市职中,,26,24,17,18,11,32,,51,46,9,5,11,9,0.4,0.3
2024-07-02T0900,2474A,113.0161,25.8001,郴州市,兴隆步行街,,26,26,19,15,11,37,,51,47,9,4,9,8,0.6,0.5
2024-07-02T0900,2475A,113.0383,25.8071,郴州市,市审计局,,19,18,15,13,11,37,,53,49,10,5,5,5,0.4,0.3
2024-07-02T0900,2476A,113.0348,25.7759,郴州市,市环保局,,,,17,,11,,,56,53,10,6,5,5,0.4,0.3
2024-07-02T0900,1431A,103.9728,30.7236,成都市,金泉两河,,26,26,22,12,11,41,,21,21,31,20,4,1,0.4,0.5
2024-07-02T0900,1432A,104.176,30.6872,成都市,十里店,,22,20,22,3,9,69,,58,56,33,22,6,4,0.5,0.4
2024-07-02T0900,1433A,104.079,30.5706,成都市,三瓦窑,,,37,29,14,14,,,38,33,36,29,7,3,0.4,0.3
2024-07-02T0900,1434A,104.1114,30.63,成都市,沙河铺,,37,37,26,22,11,42,,38,37,46,23,4,2,0.6,0.6
2024-07-02T0900,1437A,104.0786,30.6531,成都市,君平街,,45,45,29,3,12,47,,52,48,51,26,8,3,0.7,0.5
2024-07-02T0900,1438A,103.613,31.0283,成都市,灵岩寺,,,,,,,,,,,,,,,,
2024-07-02T0900,2880A,104.0239,30.65639,成都市,大石西路,,,35,29,12,12,,,31,29,55,28,10,4,0.5,0.3
2024-07-02T0900,3136A,104.2725,30.5589,成都市,龙泉驿区区政府,,30,19,12,14,6,96,,79,78,16,11,6,3,0.4,0.4
2024-07-02T0900,3357A,104.0106,30.6931,成都市,金博路,,35,35,21,16,10,37,,20,20,36,25,3,1,0.7,0.5
2024-07-02T0900,3359A,104.0578,30.5225,成都市,华阳,,27,27,20,14,17,61,,61,59,26,15,7,3,0.5,0.4
2024-07-02T0900,3487A,104.2394,30.5319,成都市,车城东七路,,31,31,22,18,12,93,,86,84,13,11,5,3,0.4,0.4
2024-07-02T0900,3488A,104.3853,30.7453,成都市,青白江技师分院,,26,20,13,8,5,82,,74,72,24,24,13,6,0.6,0.4
2024-07-02T0900,3489A,104.0789,30.4072,成都市,科学城,,29,29,21,20,12,72,,59,59,25,16,8,4,0.5,0.4
2024-07-02T0900,4011A,103.8506,30.6947,成都市,光华大道三段,,37,37,25,24,9,39,,45,42,23,11,5,3,0.6,0.4
2024-07-02T0900,1062A,117.9531,40.9081,承德市,铁路,,39,39,37,21,22,72,,53,52,29,17,8,5,0.3,0.4
2024-07-02T0900,1063A,117.9392,40.9763,承德市,中国银行,,,46,38,21,25,57,,37,37,23,16,,5,0.4,0.3
2024-07-02T0900,1064A,117.9503,40.928,承德市,开发区,,48,48,40,21,24,54,,46,44,40,19,8,5,0.5,0.4
2024-07-02T0900,1065A,117.8051,40.9655,承德市,文化中心,,42,42,42,19,22,77,,52,52,19,20,11,8,0.3,0.3
2024-07-02T0900,1066A,117.9268,41.0026,承德市,离宫,颗粒物(PM10),51,51,34,19,26,44,,29,29,22,14,5,3,0.4,0.3
2024-07-02T0900,2314A,117.47,30.6618,池州市,池州学院,,24,6,13,3,7,76,,33,33,5,10,5,6,0.4,0.4
2024-07-02T0900,3237A,117.4918,30.6617,池州市,展览馆,,23,6,11,3,7,73,,27,27,4,7,3,3,0.4,0.4
2024-07-02T0900,3333A,117.5627,30.695,池州市,第八中学,,,6,11,3,6,59,,30,30,4,10,,4,,0.3
2024-07-02T0900,3334A,117.5038,30.6243,池州市,第十二中学,,21,6,10,3,6,67,,32,32,6,9,4,4,0.5,0.5
2024-07-02T0900,1744A,118.9233,42.2816,赤峰市,松山一中,,40,40,50,25,21,82,,62,62,31,25,11,10,0.5,0.5
2024-07-02T0900,1745A,118.9576,42.2728,赤峰市,哈达街,,,40,31,18,20,,,55,49,22,17,12,11,0.6,0.5
2024-07-02T0900,1746A,118.8788,42.2554,赤峰市,天义路,,35,35,22,22,19,83,,54,54,30,23,7,6,0.5,0.4
2024-07-02T0900,3058A,119.2658,42.0353,赤峰市,银河街,颗粒物(PM10),57,64,42,32,41,98,,74,74,17,16,19,13,0.4,0.4
2024-07-02T0900,3286A,118.9359,42.3147,赤峰市,桥北物流园区,,43,43,30,29,24,86,,46,46,24,20,6,6,0.7,0.6
2024-07-02T0900,2521A,107.3476,22.4136,崇左市,市环保局江州分局,,42,42,38,17,18,28,,23,23,12,12,5,6,0.7,0.7
2024-07-02T0900,2522A,107.3702,22.3707,崇左市,城南新区,,42,42,28,20,18,23,,31,28,16,9,4,3,0.7,0.7
2024-07-02T0900,2298A,118.3093,32.3153,滁州市,老年大学,,26,,11,3,8,81,,53,53,4,7,7,7,0.6,0.6
2024-07-02T0900,2299A,118.3244,32.2786,滁州市,人大宾馆,,28,8,9,3,8,88,,59,59,5,8,5,6,0.5,0.6
2024-07-02T0900,3207A,118.3118,32.3038,滁州市,市政府原办公楼,,26,,9,3,11,83,,56,56,5,8,8,8,0.6,0.6
2024-07-02T0900,3331A,118.3267,32.2634,滁州市,图书馆,,27,7,12,3,6,84,,58,58,3,6,8,8,0.9,0.9
2024-07-02T0900,2605A,101.5482,25.0441,楚雄彝族自治州,州环境监测站,,19,13,11,13,9,7,,7,6,13,9,5,4,0.7,0.5
2024-07-02T0900,2606A,101.538,25.0492,楚雄彝族自治州,市经济开发区,,,29,14,14,9,,,4,4,14,11,7,6,0.7,0.6
2024-07-02T0900,2548A,107.5277,31.2827,达州市,达州职业技术学院,,28,28,23,6,5,16,,6,6,18,24,11,12,0.3,0.2
2024-07-02T0900,2549A,107.5086,31.2186,达州市,市环境监测站,,32,32,23,3,4,22,,15,15,30,24,8,8,0.6,0.5
2024-07-02T0900,2550A,107.4988,31.2132,达州市,凤凰小区,,19,19,17,3,5,25,,20,20,24,23,10,9,0.4,0.4
2024-07-02T0900,2551A,107.5082,31.1986,达州市,达县机关宾馆,,22,22,24,14,10,24,,14,14,23,31,7,7,0.2,0.2
2024-07-02T0900,2552A,107.4644,31.2124,达州市,市政中心,,,32,25,7,5,,,20,20,25,23,11,10,0.5,0.4
2024-07-02T0900,2614A,100.1542,25.7054,大理白族自治州,大理市环境监测站,,10,,7,7,8,31,,40,39,9,6,4,4,0.5,0.5
2024-07-02T0900,2615A,100.2171,25.5811,大理白族自治州,大理古城,,13,,11,9,7,23,,25,25,15,10,8,5,0.7,0.6
2024-07-02T0900,1109A,121.612,38.9741,大连市,甘井子,,21,21,43,10,27,67,,82,78,12,19,7,8,0.5,0.7
2024-07-02T0900,1110A,121.565,38.9511,大连市,周水子,,20,18,38,10,32,64,,85,80,17,18,7,8,0.5,0.7
2024-07-02T0900,1111A,121.5637,38.8845,大连市,星海三站,,28,14,44,3,27,88,,98,93,4,9,6,7,0.5,0.8
2024-07-02T0900,1112A,121.6302,38.9117,大连市,青泥洼桥,,22,10,57,8,32,69,,80,76,7,14,8,8,0.9,1.1
2024-07-02T0900,1113A,121.6251,38.8638,大连市,傅家庄,,28,12,32,6,33,89,,100,96,4,7,6,7,0.5,0.8
2024-07-02T0900,1114A,121.5213,38.8661,大连市,七贤岭,,24,12,41,3,31,75,,85,81,6,11,5,5,0.4,0.7
2024-07-02T0900,1115A,121.2529,38.8061,大连市,旅顺,,27,7,44,3,30,85,,105,99,8,10,7,8,0.4,0.5
2024-07-02T0900,1116A,121.7485,39.1311,大连市,金州,,24,14,32,11,28,74,,76,75,4,9,8,9,0.3,0.6
2024-07-02T0900,1117A,121.7811,39.0496,大连市,开发区,,25,22,43,12,30,79,,86,82,12,14,7,7,0.5,0.7
2024-07-02T0900,1118A,121.9762,39.0631,大连市,双D港,,25,19,34,14,28,78,,89,86,8,9,5,6,0.6,0.8
2024-07-02T0900,1789A,124.81117,46.03138,大庆市,大同区,,40,35,38,28,30,109,,76,76,9,13,6,5,0.2,0.3
2024-07-02T0900,1790A,125.129,46.533,大庆市,龙凤区,,,59,37,23,23,105,,64,64,19,20,5,6,,0.2
2024-07-02T0900,1791A,124.902,46.408,大庆市,红岗区,,,,31,,25,,,70,70,14,14,9,7,0.3,0.3
2024-07-02T0900,1792A,125.153,46.586,大庆市,萨尔图区,颗粒物(PM10),52,54,40,28,25,89,,74,74,20,15,7,7,0.3,0.3
2024-07-02T0900,1793A,124.9042,46.6215,大庆市,让胡路区,,45,45,43,6,15,104,,69,69,16,14,6,6,0.2,0.2
2024-07-02T0900,3481A,125.141,46.634,大庆市,萨区政府监测点,颗粒物(PM10),51,52,38,22,23,99,,90,89,24,17,6,6,0.3,0.5
2024-07-02T0900,1721A,113.3819,40.1097,大同市,果树场,,,,,,,,,,,,,,,,
2024-07-02T0900,1723A,113.2994,40.0758,大同市,云冈宾馆,,36,33,30,18,13,113,,124,122,14,12,6,7,0.5,0.4
2024-07-02T0900,1724A,113.3444,40.0917,大同市,大同大学,,38,,23,18,15,120,,123,122,8,8,9,11,0.5,0.4
2024-07-02T0900,1725A,113.2661,40.1269,大同市,安家小村,,39,27,29,17,12,123,,124,124,10,10,12,12,0.5,0.4
2024-07-02T0900,1726A,113.2711,40.0844,大同市,教育学院,,,,29,,15,,,125,123,20,14,8,9,0.5,0.4
2024-07-02T0900,3282A,113.3397,40.0597,大同市,大同市卫生学校,,42,42,31,21,16,111,,123,120,13,10,9,10,0.6,0.7
2024-07-02T0900,3565A,113.1367,40.1122,大同市,云冈站,,37,26,28,17,14,118,,115,115,11,11,7,8,0.8,0.8
2024-07-02T0900,3566A,113.1186,40.2556,大同市,图书馆,,40,31,25,12,14,125,,101,101,15,12,9,8,0.5,0.4
2024-07-02T0900,3567A,113.5931,40.0461,大同市,区一中,,36,28,23,11,10,114,,109,108,11,10,10,7,0.6,0.5
2024-07-02T0900,3676A,113.2802,40.0995,大同市,第二人民医院,,40,23,26,13,16,125,,129,128,9,9,8,9,0.5,0.5
2024-07-02T0900,2269A,124.1069,50.4097,大兴安岭地区,科技局,,,64,77,47,55,49,,34,34,,8,8,8,0.5,0.5
2024-07-02T0900,3663A,124.1164,50.4278,大兴安岭地区,红旗社区,细颗粒物(PM2.5),77,61,73,56,71,55,,30,30,11,10,9,9,0.7,0.7
2024-07-02T0900,1600A,124.3303,40.0625,丹东市,江湾东路,,28,28,27,17,18,52,,52,50,10,11,5,8,0.5,0.5
2024-07-02T0900,1601A,124.4256,40.1503,丹东市,临江后街,,25,25,25,16,18,39,,40,38,15,10,9,9,0.7,0.7
2024-07-02T0900,1602A,124.3933,40.1461,丹东市,元宝山,,,22,30,14,16,,,35,35,,10,8,8,0.7,0.8
2024-07-02T0900,1603A,124.3633,40.1092,丹东市,民主桥,,26,26,26,16,15,31,,41,40,23,10,5,5,0.6,0.6
2024-07-02T0900,3541A,109.5726,19.5167,儋州市,第一中学子站,,16,12,11,3,5,50,,50,49,2,2,6,6,0.4,0.4
2024-07-02T0900,3542A,109.5567,19.5187,儋州市,东坡学校子站,,16,15,12,6,5,49,,47,46,4,3,6,5,0.5,0.5
2024-07-02T0900,2616A,98.5842,24.428,德宏傣族景颇族自治州,德宏州监测站,,14,14,16,3,7,11,,8,8,10,12,2,5,0.8,0.7
2024-07-02T0900,3677A,98.5881,24.4368,德宏傣族景颇族自治州,芒市人民政府综合楼,,20,20,16,9,7,10,,8,8,10,10,2,13,0.8,0.7
2024-07-02T0900,1901A,104.4239,31.1208,德阳市,东山公园,,33,33,28,12,11,46,,70,66,21,15,4,4,0.5,0.4
2024-07-02T0900,1902A,104.3826,31.1317,德阳市,西小区,,,36,29,12,15,,,16,14,,31,,5,,0.5
2024-07-02T0900,1904A,104.3553,31.1091,德阳市,耐火材料厂,,44,44,31,17,14,32,,11,11,44,26,14,6,0.7,0.5
2024-07-02T0900,3639A,104.4019,31.1244,德阳市,市教育局,,37,37,28,12,13,43,,36,34,34,23,7,5,0.6,0.5
2024-07-02T0900,1622A,116.3032,37.4674,德州市,儿童乐园,细颗粒物(PM2.5),77,,44,56,39,90,,94,94,13,8,7,7,0.8,0.8
2024-07-02T0900,1624A,116.2991,37.4451,德州市,监理站,细颗粒物(PM2.5),83,,40,61,38,93,,103,103,17,12,8,8,0.8,0.7
2024-07-02T0900,3066A,116.2721,37.4379,德州市,九衢泉纯净水厂,细颗粒物(PM2.5),67,51,46,48,39,90,,98,98,16,11,4,5,0.8,0.7
2024-07-02T0900,3371A,116.3728,37.4403,德州市,开发区人民医院,细颗粒物(PM2.5),64,58,50,46,36,89,,92,91,21,13,9,8,0.8,0.7
2024-07-02T0900,3372A,116.3572,37.4094,德州市,太阳城中学,,,,41,,37,,,99,99,23,14,8,7,0.7,0.7
2024-07-02T0900,3511A,116.5652,37.3319,德州市,陵城艺术中心,细颗粒物(PM2.5),67,56,46,48,38,88,,92,92,14,7,4,3,0.8,0.5
2024-07-02T0900,2621A,99.7056,27.8317,迪庆藏族自治州,迪庆州站,,16,16,21,8,9,44,,38,37,9,10,10,10,0.2,0.3
2024-07-02T0900,3180A,99.7136,27.8094,迪庆藏族自治州,质量技术监督局,,15,15,16,10,10,42,,42,40,9,9,9,9,0.4,0.4
2024-07-02T0900,2663A,104.6241,35.5734,定西市,东关小学,,48,48,38,18,22,38,,28,27,24,14,6,5,0.3,0.2
2024-07-02T0900,2664A,104.6194,35.5934,定西市,供电公司,,35,35,32,20,21,40,,23,23,26,19,5,4,0.4,0.3
2024-07-02T0900,1389A,113.7547,23.0494,东莞市,莞城梨川,,18,18,24,8,9,49,,46,46,7,7,10,10,0.8,0.8
2024-07-02T0900,1390A,113.7944,23.0128,东莞市,东城石井,,19,19,21,7,9,48,,45,45,5,6,2,2,0.5,0.5
2024-07-02T0900,1391A,113.7383,22.9658,东莞市,南城西平,,23,23,23,8,8,56,,48,48,6,6,3,3,0.5,0.5
2024-07-02T0900,3319A,113.7338,23.0381,东莞市,万江金泰,,21,21,23,8,9,46,,43,43,5,5,5,5,0.7,0.7
2024-07-02T0900,3626A,113.7533,23.0202,东莞市,南城元岭,,,22,21,8,8,,,41,41,4,3,6,7,0.7,0.7
2024-07-02T0900,3627A,113.7875,23.0457,东莞市,东城主山,,20,20,22,8,9,42,,40,40,3,3,9,9,0.6,0.6
2024-07-02T0900,1666A,118.6614,37.4309,东营市,市环保局,,49,48,47,34,42,108,,123,120,8,8,8,9,1.0,1
2024-07-02T0900,3036A,118.6904,37.4338,东营市,开发区管委会,,42,39,51,29,41,113,,126,124,9,8,6,6,0.6,0.8
2024-07-02T0900,3365A,118.5719,37.565,东营市,垦利区民丰路,,49,,51,34,43,117,,124,122,6,8,9,9,0.6,0.7
2024-07-02T0900,3498A,118.5055,37.8612,东营市,河口城区,细颗粒物(PM2.5),53,39,54,37,41,122,,106,105,8,11,6,7,0.9,0.8
2024-07-02T0900,3646A,118.4978,37.4623,东营市,胜利站,,45,32,41,31,38,124,,133,131,6,7,6,6,0.8,0.8
2024-07-02T0900,3734A,118.35,37.26,东营市,理想之城,,45,34,45,31,40,89,,97,95,8,8,3,3,0.5,0.5
2024-07-02T0900,1591A,110.0023,39.8129,鄂尔多斯市,综合楼,颗粒物(PM10),71,92,43,22,9,41,,65,61,60,26,48,14,0.7,0.6
2024-07-02T0900,1592A,109.9486,39.8261,鄂尔多斯市,巴音孟克林场办事处,颗粒物(PM10),51,51,35,14,12,59,,54,54,37,24,11,8,0.7,0.7
2024-07-02T0900,1593A,109.7736,39.5986,鄂尔多斯市,康泽苑,,32,29,23,9,11,102,,82,81,11,7,11,8,0.5,0.4
2024-07-02T0900,1594A,109.8119,39.5989,鄂尔多斯市,华泰汽车城,,41,41,27,17,11,85,,64,64,18,11,12,8,0.6,0.4
2024-07-02T0900,1595A,109.9734,39.7884,鄂尔多斯市,奥林花园,,41,41,29,17,12,74,,54,54,33,22,8,6,0.5,0.5
2024-07-02T0900,2436A,114.8938,30.3994,鄂州市,市政府,,34,31,22,9,6,106,,98,98,6,7,4,5,0.6,0.6
2024-07-02T0900,2437A,114.8989,30.3714,鄂州市,赵家坝,,34,24,18,11,6,106,,102,102,17,9,14,7,1.6,0.7
2024-07-02T0900,3654A,114.8094,30.4089,鄂州市,精准医疗中心,,32,19,16,12,5,102,,106,106,5,6,4,6,0.6,0.5
2024-07-02T0900,2454A,109.4978,30.2981,恩施土家族苗族自治州,湖北民院,,32,32,33,14,17,32,,30,30,10,12,6,6,0.8,0.9
2024-07-02T0900,2455A,109.4707,30.2798,恩施土家族苗族自治州,州电力总公司,,32,32,30,11,17,27,,24,23,19,19,8,7,0.7,0.7
2024-07-02T0900,3549A,109.5061,30.3772,恩施土家族苗族自治州,龙凤新区,,25,25,28,10,14,26,,16,16,12,11,7,6,0.8,0.8
2024-07-02T0900,2499A,108.3411,21.6158,防城港市,沙万,,23,23,26,6,10,34,,46,43,6,4,9,8,0.5,0.5
2024-07-02T0900,2500A,108.3514,21.7731,防城港市,防城档案局,,22,22,21,9,8,32,,43,41,8,5,4,4,0.5,0.5
2024-07-02T0900,2501A,108.3506,21.6414,防城港市,大海花园,,,30,26,6,7,35,,44,42,6,5,,5,0.5,0.5
2024-07-02T0900,1371A,113.1294,23.0067,佛山市,湾梁,,27,27,22,10,11,40,,33,33,11,11,6,6,0.3,0.4
2024-07-02T0900,1372A,113.1083,23.0478,佛山市,华材职中,,,22,18,10,11,,,36,36,,8,,9,,0.4
2024-07-02T0900,1373A,113.144,23.0453,佛山市,南海气象局,,23,23,37,8,8,41,,34,34,8,8,7,7,0.4,0.4
2024-07-02T0900,1374A,113.2881,22.8094,佛山市,顺德苏岗,,22,22,18,3,6,44,,42,42,9,6,6,6,0.4,0.3
2024-07-02T0900,1376A,112.8383,22.8678,佛山市,高明孔堂,,15,13,24,10,13,46,,45,45,5,5,6,6,0.6,0.5
2024-07-02T0900,1377A,112.8836,23.1588,佛山市,三水监测站,,24,24,21,3,14,38,,29,29,14,13,4,5,0.7,0.6
2024-07-02T0900,1378A,112.867,23.185,佛山市,三水云东海,,27,27,21,13,12,42,,33,33,16,14,7,5,0.5,0.5
2024-07-02T0900,3625A,113.2544,22.7642,佛山市,容桂街道办,,,29,16,14,11,,,42,42,14,13,6,6,0.5,0.4
2024-07-02T0900,1280A,119.3903,26.0543,福州市,鼓山,,,,,,,,,,,,,,,,
2024-07-02T0900,1282A,119.2681,26.0504,福州市,师大,,17,17,24,7,8,43,,34,34,3,6,3,3,0.3,0.3
2024-07-02T0900,1283A,119.2984,26.1028,福州市,五四北路,,15,,23,3,9,48,,39,39,2,7,3,3,0.3,0.3
2024-07-02T0900,1284A,119.2648,26.0768,福州市,杨桥西路,,20,20,24,3,8,42,,37,37,6,7,3,3,0.3,0.3
2024-07-02T0900,1285A,119.317,26.0746,福州市,紫阳,,17,17,24,3,8,40,,32,32,7,10,2,2,0.4,0.4
2024-07-02T0900,3048A,119.5799,26.0936,福州市,九龙,,,16,22,3,7,,,40,40,3,2,4,4,0.3,0.2
2024-07-02T0900,3526A,119.5189,25.9664,福州市,吴航,,17,17,22,9,10,46,,39,39,2,2,4,4,0.5,0.5
2024-07-02T0900,1755A,123.7977,41.8491,抚顺市,望花区,颗粒物(PM10),58,65,47,40,36,92,,106,102,33,18,6,5,0.6,0.3
2024-07-02T0900,1756A,123.9161,41.8822,抚顺市,顺城区,颗粒物(PM10),53,56,49,34,33,99,,110,106,20,16,8,6,0.6,0.5
2024-07-02T0900,1757A,124.0436,41.8611,抚顺市,东洲区,颗粒物(PM10),63,75,54,40,35,89,,90,90,15,14,4,3,0.6,0.6
2024-07-02T0900,1758A,123.9247,41.8642,抚顺市,新抚区,"颗粒物(PM10),细颗粒物(PM2.5)",54,58,43,38,36,77,,94,90,26,13,6,5,0.5,0.4
2024-07-02T0900,1759A,124.0972,41.8961,抚顺市,大伙房水库,,49,44,42,34,31,84,,93,91,12,11,9,8,0.6,0.5
2024-07-02T0900,1760A,123.7086,41.8391,抚顺市,沈抚新城,颗粒物(PM10),64,77,43,41,35,94,,101,101,28,17,13,6,1.2,0.5
2024-07-02T0900,2376A,116.2127,28.0814,抚州市,桐源党溪,,28,28,24,13,11,46,,54,53,3,3,5,5,0.3,0.2
2024-07-02T0900,2377A,116.3544,27.9831,抚州市,市站,,24,24,22,8,10,45,,51,50,3,5,4,4,1.0,1
2024-07-02T0900,2378A,116.3565,27.963,抚州市,血防站,,20,20,22,10,9,42,,49,48,3,6,1,2,0.8,0.8
2024-07-02T0900,2379A,116.3564,28.0007,抚州市,采茶剧团,,24,24,20,10,9,42,,48,47,2,4,2,2,0.8,0.8
2024-07-02T0900,2380A,116.385,27.9647,抚州市,医学分院,,20,20,23,7,8,44,,46,46,5,5,5,5,0.9,1
2024-07-02T0900,2207A,121.6094,41.998,阜新市,工业园区,,,66,53,40,34,,,50,48,22,27,12,8,0.8,1
2024-07-02T0900,2208A,121.6697,42.0279,阜新市,长青街,颗粒物(PM10),55,59,49,34,32,114,,77,77,22,22,9,10,0.6,0.7
2024-07-02T0900,2209A,121.6673,42.0705,阜新市,农业园区,颗粒物(PM10),52,54,54,31,34,132,,113,113,14,17,6,8,0.8,2.3
2024-07-02T0900,2210A,121.6717,42.0224,阜新市,东苑,细颗粒物(PM2.5),55,39,57,39,31,115,,79,79,22,24,10,13,0.5,0.5
2024-07-02T0900,2211A,121.6506,42.0498,阜新市,玉龙新城,细颗粒物(PM2.5),54,50,53,38,31,135,,79,79,18,26,5,6,0.5,1
2024-07-02T0900,2301A,115.8277,32.8929,阜阳市,市监测站,,,36,30,17,14,,,102,100,12,9,7,7,0.6,0.5
2024-07-02T0900,2303A,115.8554,32.8605,阜阳市,开发区,,49,49,31,18,11,115,,104,104,12,10,4,4,0.4,0.3
2024-07-02T0900,2875A,115.784,32.8892,阜阳市,阜阳职业技术学院,,37,23,26,13,15,118,,104,103,10,9,6,5,0.5,0.4
2024-07-02T0900,3468A,115.7901,32.8613,阜阳市,市规划展馆,细颗粒物(PM2.5),53,,32,37,24,103,,100,98,12,10,2,2,0.6,0.5
2024-07-02T0900,3469A,115.836,32.9183,阜阳市,枣园社区,,39,38,32,27,21,109,,102,102,9,10,1,1,0.5,0.5
2024-07-02T0900,2669A,102.9099,34.9841,甘南藏族自治州,州政府,,34,34,21,21,14,38,,18,18,21,14,7,7,1.1,0.9
2024-07-02T0900,3380A,102.8914,34.9617,甘南藏族自治州,甘肃民族师范学院,,28,22,27,19,11,44,,8,8,18,22,3,3,0.6,0.6
2024-07-02T0900,2570A,101.9603,30.0475,甘孜藏族自治州,水桥子,,18,,10,8,7,56,,64,62,28,10,4,4,0.3,0.2
2024-07-02T0900,3065A,101.9533,29.9972,甘孜藏族自治州,州环保局,,20,16,18,6,6,62,,66,66,24,19,2,2,0.2,0.2
2024-07-02T0900,3414A,115.8347,28.932,赣江新区,桑海产业园,,37,6,18,3,14,117,,59,59,7,22,9,11,0.5,0.5
2024-07-02T0900,2362A,114.9017,25.9149,赣州市,通天岩,,,,,,,,,,,,,,,,
2024-07-02T0900,2363A,114.9367,25.8664,赣州市,地委,,19,19,19,8,9,39,,46,44,3,3,11,8,1.1,1.2
2024-07-02T0900,2364A,114.9461,25.8481,赣州市,气象台,,19,19,17,9,9,38,,44,42,5,6,2,3,0.4,0.4
2024-07-02T0900,2365A,114.9322,25.8333,赣州市,市图书馆,,16,16,17,3,7,37,,45,42,5,4,22,13,0.9,0.8
2024-07-02T0900,2366A,114.8905,25.8471,赣州市,华坚鞋城,,17,17,21,9,9,34,,42,40,7,6,25,18,0.7,0.7
2024-07-02T0900,3109A,115.0093,25.8613,赣州市,赣县区卫计委,,26,26,21,3,8,44,,53,50,8,7,7,7,0.6,0.6
2024-07-02T0900,2683A,106.2319,36.1417,固原市,马园,,28,28,27,12,13,78,,37,37,21,28,5,6,0.7,0.7
2024-07-02T0900,2684A,106.2792,36.0022,固原市,监测站,,32,32,28,20,17,64,,49,49,30,17,6,5,0.6,0.3
2024-07-02T0900,2685A,106.2375,36.0211,固原市,新区,,35,35,27,13,12,62,,23,23,26,21,6,6,0.9,0.5
2024-07-02T0900,3522A,106.2177,35.9959,固原市,原州区十五小,,32,18,25,10,15,100,,100,100,15,9,5,5,0.6,0.5
2024-07-02T0900,2543A,106.6308,30.5278,广安市,小平旧居,,,,,,,,,,,,,,,,
2024-07-02T0900,2544A,106.6303,30.4576,广安市,市委,,31,31,33,17,17,79,,52,52,24,15,9,7,0.6,0.5
2024-07-02T0900,2545A,106.6271,30.4663,广安市,友谊中学,,28,26,26,16,16,89,,63,63,21,17,9,7,0.6,0.5
2024-07-02T0900,2547A,106.6388,30.4551,广安市,广电花园,,33,33,30,13,16,62,,47,46,23,15,8,6,0.6,0.4
2024-07-02T0900,2902A,106.6351,30.4865,广安市,北辰小学,,43,43,32,18,16,52,,54,52,28,14,8,7,0.5,0.4
2024-07-02T0900,2523A,105.8945,32.4535,广元市,黑石坡,,21,21,13,9,9,42,,46,43,10,7,14,11,0.4,0.2
2024-07-02T0900,2524A,105.821,32.4444,广元市,老城,,23,23,20,7,8,48,,27,27,14,24,8,5,0.5,0.3
2024-07-02T0900,2526A,105.8628,32.4287,广元市,监测站,,15,12,38,10,9,42,,35,35,17,10,8,5,0.5,0.3
2024-07-02T0900,3617A,105.8047,32.4166,广元市,经开区,,30,30,28,17,17,40,,24,24,17,19,7,6,0.6,0.4
2024-07-02T0900,1345A,113.2347,23.1423,广州市,广雅中学,,43,,75,30,33,44,,38,38,15,16,4,4,0.9,0.8
2024-07-02T0900,1346A,113.2612,23.105,广州市,市五中,,27,27,26,14,13,44,,41,41,9,9,5,5,0.6,0.6
2024-07-02T0900,1348A,113.3478,23.0916,广州市,广东商学院,,25,25,26,11,14,36,,25,25,16,18,3,3,0.6,0.5
2024-07-02T0900,1349A,113.4332,23.1047,广州市,市八十六中,,,30,28,12,11,,,15,14,29,28,2,2,0.5,0.5
2024-07-02T0900,1350A,113.3505,22.9483,广州市,番禺中学,,26,26,25,13,13,46,,36,36,13,12,6,6,0.7,0.7
2024-07-02T0900,1351A,113.2146,23.3916,广州市,花都师范,,30,30,28,13,14,31,,36,35,23,15,6,5,0.6,0.6
2024-07-02T0900,1352A,113.2597,23.1331,广州市,市监测站,,21,21,23,9,11,41,,39,39,13,11,4,4,0.6,0.5
2024-07-02T0900,1353A,113.5618,23.312,广州市,九龙镇镇龙,,26,26,27,13,14,31,,28,28,17,19,7,7,0.5,0.5
2024-07-02T0900,1354A,113.2765,23.1544,广州市,麓湖,,30,30,27,11,13,42,,40,40,13,12,3,3,0.5,0.4
2024-07-02T0900,1355A,113.443,23.3035,广州市,帽峰山森林公园,,13,13,21,8,9,31,,25,25,11,14,4,4,0.6,0.7
2024-07-02T0900,2846A,113.3221,23.1322,广州市,体育西,,31,31,28,14,14,27,,27,26,20,14,4,4,0.7,0.6
2024-07-02T0900,3298A,113.5717,23.5491,广州市,从化街口,,22,22,25,11,13,42,,38,38,10,11,4,4,0.5,0.5
2024-07-02T0900,3299A,113.3472,23.3692,广州市,白云竹料,,26,26,29,12,13,35,,29,29,18,19,4,4,0.7,0.6
2024-07-02T0900,3300A,113.2981,23.237,广州市,白云嘉禾,,27,27,27,11,12,33,,30,29,23,20,5,5,0.7,0.6
2024-07-02T0900,3301A,113.4256,23.1716,广州市,黄埔科学城,,,,28,,14,,,15,15,18,20,6,6,0.7,0.7
2024-07-02T0900,3302A,113.3942,23.0483,广州市,番禺大学城,,20,20,22,11,12,29,,28,28,18,14,4,4,0.6,0.5
2024-07-02T0900,3303A,113.4922,22.8168,广州市,南沙黄阁,,31,31,29,11,11,29,,35,34,18,11,5,5,0.7,0.6
2024-07-02T0900,3304A,113.5342,22.7896,广州市,南沙街,,26,26,27,12,11,37,,32,32,11,11,4,4,0.7,0.7
2024-07-02T0900,3443A,113.2902,23.5544,广州市,花都梯面,,26,26,30,9,13,35,,30,30,13,14,4,4,0.6,0.6
2024-07-02T0900,3445A,113.7858,23.7478,广州市,从化良口,,17,17,16,10,11,44,,44,43,5,7,5,5,0.5,0.5
2024-07-02T0900,3446A,113.8051,23.2614,广州市,增城荔城,,23,23,25,14,13,40,,39,38,12,10,5,5,0.6,0.6
2024-07-02T0900,2505A,109.568,23.1478,贵港市,德智高中,,,,,,,,,,,,,,,,
2024-07-02T0900,2506A,109.6047,23.0666,贵港市,江南子站,,16,,18,3,10,50,,52,52,6,5,6,7,0.6,0.6
2024-07-02T0900,2507A,109.6014,23.0948,贵港市,贵城子站,,15,10,22,3,10,47,,51,51,8,7,6,7,0.5,0.5
2024-07-02T0900,2508A,109.5669,23.1065,贵港市,荷城子站,,14,6,22,3,4,44,,51,50,6,4,10,10,0.4,0.4
2024-07-02T0900,3405A,109.5886,23.1172,贵港市,新世纪学校,,15,6,21,3,8,46,,52,52,7,6,12,14,0.4,0.4
2024-07-02T0900,1439A,106.6899,26.5998,贵阳市,马鞍山,,22,22,17,14,6,18,,18,16,12,8,5,4,0.7,0.5
2024-07-02T0900,1440A,106.6971,26.5694,贵阳市,市环保站,,44,44,26,30,18,30,,25,22,30,24,5,4,0.5,0.3
2024-07-02T0900,1441A,106.6243,26.6266,贵阳市,鉴湖路,,19,17,19,7,8,58,,49,49,11,7,3,2,0.4,0.4
2024-07-02T0900,1442A,106.7487,26.6343,贵阳市,燕子冲,,39,29,18,27,13,21,,26,24,19,10,6,6,0.7,0.5
2024-07-02T0900,1443A,106.6555,26.4365,贵阳市,碧云窝,,29,29,25,7,5,46,,18,18,9,10,5,4,0.5,0.5
2024-07-02T0900,1444A,106.694,26.5161,贵阳市,中院村,,34,34,23,22,12,39,,26,23,18,17,4,4,0.6,0.5
2024-07-02T0900,1445A,106.7109,26.6027,贵阳市,红边门,细颗粒物(PM2.5),52,,24,36,21,24,,43,37,33,15,6,6,0.8,0.6
2024-07-02T0900,1446A,106.7164,26.5699,贵阳市,新华路,,42,36,21,29,15,28,,50,44,28,14,7,4,0.7,0.5
2024-07-02T0900,1447A,106.674,26.5424,贵阳市,太慈桥,,14,14,18,9,9,30,,15,15,13,11,5,5,0.4,0.4
2024-07-02T0900,1552A,106.805,26.3003,贵阳市,桐木岭,,,,,,,,,,,,,,,,
2024-07-02T0900,1862A,110.4144,25.3167,桂林市,电子科大尧山校区,,13,13,12,3,8,32,,44,42,9,4,4,4,0.3,0.3
2024-07-02T0900,1863A,110.2819,25.2697,桂林市,监测站,,12,8,17,8,12,38,,46,44,9,6,6,6,0.7,0.7
2024-07-02T0900,1864A,110.3089,25.2708,桂林市,龙隐路小学,,15,,17,10,11,36,,44,42,10,8,5,5,0.4,0.5
2024-07-02T0900,1865A,110.2869,25.2178,桂林市,八中,,13,8,15,3,7,40,,44,42,8,9,6,5,0.5,0.5
2024-07-02T0900,3403A,110.1764,25.2381,桂林市,创业大厦,,13,7,10,3,8,41,,47,46,6,5,7,6,0.3,0.4
2024-07-02T0900,3531A,110.296,25.1253,桂林市,旅游学院,,,,11,2,5,38,,45,43,9,5,10,7,0.3,0.3
2024-07-02T0900,2674A,100.2561,34.4714,果洛藏族自治州,玛沁县大武镇,,27,27,28,9,14,64,,74,68,16,8,13,14,0.5,0.4
2024-07-02T0900,1129A,126.5422,45.755,哈尔滨市,岭北,,39,39,42,26,29,94,,26,26,25,37,16,13,0.5,0.6
2024-07-02T0900,1130A,126.561,45.8167,哈尔滨市,松北商大,,48,48,38,22,20,74,,35,35,34,32,6,6,0.6,0.5
2024-07-02T0900,1131A,126.979,45.5419,哈尔滨市,阿城会宁,细颗粒物(PM2.5),65,76,67,47,46,70,,32,32,28,29,3,7,0.7,0.7
2024-07-02T0900,1132A,126.599,45.7222,哈尔滨市,南岗学府路,颗粒物(PM10),52,54,74,21,36,92,,21,21,35,40,10,10,0.6,0.8
2024-07-02T0900,1133A,126.689,45.7733,哈尔滨市,太平宏伟公园,颗粒物(PM10),55,60,78,28,33,102,,26,26,36,44,6,6,0.5,0.6
2024-07-02T0900,1134A,126.635,45.7667,哈尔滨市,道外承德广场,,,,63,,26,,,4,4,20,54,,7,0.5,0.7
2024-07-02T0900,1135A,126.685,45.7319,哈尔滨市,香坊红旗大街,颗粒物(PM10),63,75,74,43,42,68,,16,16,64,52,14,8,0.7,0.7
2024-07-02T0900,1136A,126.6411,45.7258,哈尔滨市,动力和平路,颗粒物(PM10),54,58,62,32,24,86,,18,18,48,49,12,10,0.7,0.5
2024-07-02T0900,1137A,126.593,45.7478,哈尔滨市,道里建国路,,41,41,55,27,27,96,,28,28,30,50,13,10,0.4,0.4
2024-07-02T0900,1138A,126.615,45.61,哈尔滨市,平房东轻厂,,49,49,56,29,30,93,,40,40,32,44,10,10,0.3,0.3
2024-07-02T0900,1139A,126.595,45.9855,哈尔滨市,呼兰师专,,42,34,39,29,22,95,,52,52,19,27,11,10,0.4,0.4
2024-07-02T0900,1140A,126.6206,45.6842,哈尔滨市,省农科院,,,58,66,33,31,,,15,15,39,54,9,9,0.6,0.6
2024-07-02T0900,2688A,93.5128,42.8172,哈密市,地区监测站,颗粒物(PM10),59,68,32,25,14,73,,108,105,31,12,3,4,0.4,0.2
2024-07-02T0900,2689A,93.4961,42.8328,哈密市,哈密师范学校,颗粒物(PM10),72,93,36,16,12,52,,113,107,36,12,4,4,3.0,0.4
2024-07-02T0900,2671A,100.9048,36.9639,海北藏族自治州,海晏县西海镇,,24,,15,16,14,75,,76,76,12,9,17,13,0.5,0.4
2024-07-02T0900,3867A,102.0738,36.5056,海东市,平安区公安北苑,,35,34,20,24,9,50,,60,53,24,12,13,6,0.4,0.4
2024-07-02T0900,1409A,110.576,19.9507,海口市,东寨港,,,,,,,,,,,,,,,,
2024-07-02T0900,1410A,110.3232,20.0574,海口市,海南大学,,20,20,17,8,9,50,,40,40,7,8,6,6,0.4,0.4
2024-07-02T0900,1411A,110.283,20.0053,海口市,秀英海南医院,,19,19,20,9,9,44,,34,34,10,11,7,7,0.2,0.2
2024-07-02T0900,1412A,110.338,19.9969,海口市,海南师范大学,,24,24,17,8,9,42,,29,29,8,8,6,6,0.4,0.4
2024-07-02T0900,1413A,110.33,20.0356,海口市,龙华路环保局宿舍,,15,15,17,6,8,46,,37,37,8,8,7,7,0.3,0.3
2024-07-02T0900,3539A,110.5111,19.9736,海口市,桂林洋子站,,21,21,18,7,8,44,,27,27,4,5,6,6,0.3,0.3
2024-07-02T0900,2673A,100.6188,36.2866,海南藏族自治州,共和县恰卜恰镇,,30,,17,21,10,80,,69,69,19,13,8,7,0.6,0.5
2024-07-02T0900,2676A,97.3731,37.3753,海西蒙古族藏族自治州,德令哈市,,37,10,22,9,11,118,,137,134,16,8,14,12,0.5,0.5
2024-07-02T0900,1048A,114.5302,36.6116,邯郸市,东污水处理厂,细颗粒物(PM2.5),52,49,29,36,17,114,,112,111,4,6,1,1,0.4,0.4
2024-07-02T0900,1049A,114.4918,36.5713,邯郸市,矿院,"颗粒物(PM10),细颗粒物(PM2.5)",52,53,29,36,18,122,,119,118,8,9,3,4,0.6,0.6
2024-07-02T0900,1050A,114.484,36.6133,邯郸市,丛台公园,细颗粒物(PM2.5),52,39,31,36,17,118,,110,110,6,7,4,5,0.4,0.6
2024-07-02T0900,3458A,114.7895,36.5593,邯郸市,香泉濮院小区,细颗粒物(PM2.5),59,,15,42,18,116,,107,107,4,5,1,1,0.4,0.5
2024-07-02T0900,3579A,114.50634,36.77178,邯郸市,永年区实验高中,细颗粒物(PM2.5),52,41,34,36,15,113,,104,104,3,6,1,2,0.8,0.9
2024-07-02T0900,3580A,114.20016,36.44293,邯郸市,峰峰矿区临水派出所,,40,40,25,28,12,127,,121,121,3,6,2,3,0.5,0.7
2024-07-02T0900,2634A,106.9893,33.1842,汉中市,汉川机床厂子校,,26,26,20,11,12,62,,59,57,5,7,4,5,0.5,0.5
2024-07-02T0900,2635A,107.0154,33.0706,汉中市,市监测站,,27,27,23,13,13,48,,61,56,10,7,7,7,0.7,0.6
2024-07-02T0900,2636A,107.0089,33.1138,汉中市,鑫源开发区,,27,27,26,12,14,53,,55,51,9,10,9,9,0.5,0.5
2024-07-02T0900,2637A,107.007,33.0323,汉中市,南郑大河坎水厂,,38,38,24,13,13,57,,41,40,7,8,8,8,0.5,0.5
2024-07-02T0900,1223A,120.2072,30.2111,杭州市,滨江,,21,21,20,13,15,28,,17,17,18,24,2,3,0.8,0.8
2024-07-02T0900,1224A,120.0633,30.2747,杭州市,西溪,,18,18,16,12,10,15,,5,5,11,12,6,6,0.7,0.7
2024-07-02T0900,1226A,120.3461,30.3153,杭州市,下沙,,29,29,44,10,25,51,,24,24,13,38,5,6,0.5,0.7
2024-07-02T0900,1227A,120.1269,30.2456,杭州市,卧龙桥,,18,18,16,10,11,20,,8,8,10,11,5,4,0.7,0.7
2024-07-02T0900,1228A,120.1903,30.2692,杭州市,浙江农大,,20,20,20,11,15,38,,13,13,21,28,7,6,0.5,0.5
2024-07-02T0900,1230A,120.1197,30.3119,杭州市,和睦小学,,22,19,19,15,13,32,,14,14,18,20,4,4,0.6,0.6
2024-07-02T0900,1231A,120.3019,30.4183,杭州市,临平镇,,13,13,41,8,28,40,,18,18,26,37,5,4,0.6,0.8
2024-07-02T0900,1232A,120.2697,30.1819,杭州市,城厢镇,,18,17,25,8,17,55,,28,28,11,29,2,3,0.6,0.8
2024-07-02T0900,1233A,120.0883,30.1808,杭州市,云栖,,19,19,19,7,6,18,,6,6,12,10,7,7,0.7,0.7
2024-07-02T0900,3557A,119.9464,30.0494,杭州市,镇二中,,26,,19,18,22,40,,14,14,15,22,7,6,0.8,0.8
2024-07-02T0900,3558A,119.7183,30.2367,杭州市,市府大楼,,19,17,14,13,10,25,,12,12,15,13,6,6,0.7,0.6
2024-07-02T0900,3656A,120.1556,30.2864,杭州市,消防大队,,,16,20,12,15,,,12,12,12,19,6,6,0.9,0.9
2024-07-02T0900,1270A,117.1959,31.7848,合肥市,明珠广场,,29,,12,17,8,90,,78,78,15,11,8,8,0.3,0.2
2024-07-02T0900,1271A,117.3072,31.8764,合肥市,三里街,,28,7,9,7,6,89,,75,75,14,13,6,6,0.4,0.4
2024-07-02T0900,1272A,117.2588,31.8707,合肥市,琥珀山庄,,29,17,14,7,4,92,,83,83,11,8,4,4,0.5,0.5
2024-07-02T0900,1273A,117.1604,31.9052,合肥市,董铺水库,,,,10,,8,,,66,,,5,,2,,2.2
2024-07-02T0900,1274A,117.25,31.8571,合肥市,长江中路,,,,14,12,10,,,81,81,8,7,5,4,0.7,0.6
2024-07-02T0900,1275A,117.266,31.9436,合肥市,庐阳区,,30,19,13,14,9,96,,88,88,7,8,4,4,0.5,0.4
2024-07-02T0900,1276A,117.336,31.8586,合肥市,瑶海区,,27,9,9,3,6,86,,75,75,12,8,7,7,0.3,0.2
2024-07-02T0900,1277A,117.3027,31.7964,合肥市,包河区,,25,9,8,3,3,78,,67,67,20,10,6,6,0.4,0.3
2024-07-02T0900,1278A,117.2776,31.7385,合肥市,滨湖新区,,26,,6,3,3,82,,69,69,20,10,8,8,0.5,0.4
2024-07-02T0900,1279A,117.1318,31.8403,合肥市,高新区,,30,9,9,9,6,94,,83,83,9,7,7,7,0.5,0.5
2024-07-02T0900,3464A,117.3803,31.9147,合肥市,高教基地,,26,8,10,6,7,82,,68,68,8,6,6,6,0.4,0.3
2024-07-02T0900,3614A,79.924,37.0877,和田地区,地区环保局,颗粒物(PM10),94,138,346,32,98,111,,109,109,2,7,6,7,0.3,0.4
2024-07-02T0900,3615A,79.9131,37.113,和田地区,市环保局,颗粒物(PM10),99,148,349,38,93,99,,96,96,6,10,6,6,0.5,0.4
2024-07-02T0900,2516A,108.2011,24.715,河池市,东仁乐园,,,,38,,22,,,50,,,2,,6,,0.7
2024-07-02T0900,2517A,108.0497,24.6947,河池市,市环保站,,12,11,18,3,10,37,,52,49,13,8,6,7,0.7,0.6
2024-07-02T0900,2518A,108.0983,24.6989,河池市,市疾控中心,,,11,18,,10,39,,46,45,12,10,6,7,0.6,0.5
2024-07-02T0900,1696A,114.6778,23.7569,河源市,源西,,32,,27,22,21,28,,26,26,12,12,4,4,0.6,0.5
2024-07-02T0900,1697A,114.6944,23.7586,河源市,东埔,,,38,20,10,10,,,29,29,9,12,6,6,0.5,0.6
2024-07-02T0900,1698A,114.6892,23.7233,河源市,老城,,19,19,21,7,9,39,,26,26,5,7,5,5,0.5,0.5
2024-07-02T0900,1718A,115.4208,35.2464,菏泽市,气象局,细颗粒物(PM2.5),57,54,33,40,25,86,,94,90,7,7,3,2,0.4,0.4
2024-07-02T0900,1719A,115.4747,35.2375,菏泽市,市政协,,,,25,45,28,82,,94,89,,6,2,1,0.2,0.2
2024-07-02T0900,3374A,115.5564,35.0891,菏泽市,定陶老年大学,,45,44,30,31,15,72,,86,82,7,8,2,3,0.5,0.5
2024-07-02T0900,3647A,115.4702,35.2706,菏泽市,菏泽医专,细颗粒物(PM2.5),65,,27,47,28,78,,79,77,6,7,1,2,0.4,0.4
2024-07-02T0900,2514A,111.5264,24.4172,贺州市,环保小区,,23,22,30,16,15,45,,29,29,8,17,7,7,0.5,0.6
2024-07-02T0900,2515A,111.5608,24.4078,贺州市,政协大楼,,27,27,31,11,17,44,,31,31,11,16,8,8,0.5,0.6
2024-07-02T0900,3534A,111.4744,24.4553,贺州市,西湾,,35,35,33,15,16,43,,18,18,9,19,8,8,0.6,0.7
2024-07-02T0900,2385A,114.17,35.9019,鹤壁市,市监测站,,45,,29,31,25,109,,108,107,6,9,5,6,0.7,1
2024-07-02T0900,2386A,114.2956,35.7511,鹤壁市,市交警支队,,36,35,35,22,25,113,,116,115,6,6,6,6,0.7,0.8
2024-07-02T0900,2387A,114.2878,35.7306,鹤壁市,迎宾馆,,38,,26,26,31,119,,121,120,12,13,6,7,0.7,0.8
2024-07-02T0900,3474A,114.2617,35.6822,鹤壁市,大新区,,37,19,24,9,18,117,,120,119,11,12,5,5,0.5,0.6
2024-07-02T0900,3596A,114.1572,35.9603,鹤壁市,南山宾馆,,43,35,27,30,29,118,,112,111,6,8,6,7,0.6,0.9
2024-07-02T0900,2244A,130.2537,47.3416,鹤岗市,哈啤分公司,,32,32,51,22,42,92,,86,86,5,5,14,13,0.5,0.7
2024-07-02T0900,2245A,130.2684,47.3086,鹤岗市,斯达机电,,31,31,49,6,39,91,,81,81,12,11,12,13,0.3,0.3
2024-07-02T0900,2246A,130.3114,47.3388,鹤岗市,东山纸板厂,,31,31,55,12,37,92,,85,85,7,10,15,16,0.2,0.3
2024-07-02T0900,2247A,130.1097,47.3382,鹤岗市,五号水库,,34,,45,21,39,106,,95,95,7,6,9,10,0.2,0.1
2024-07-02T0900,2263A,127.4833,50.2524,黑河市,交通局,颗粒物(PM10),64,78,62,36,43,78,,54,54,21,16,6,7,0.7,0.6
2024-07-02T0900,2264A,127.5144,50.2341,黑河市,环保局,细颗粒物(PM2.5),59,52,56,42,41,96,,87,87,16,8,5,4,0.7,0.5
2024-07-02T0900,2265A,127.5291,50.2472,黑河市,大黑河岛,,,57,60,50,57,,,,,15,12,3,2,,
2024-07-02T0900,1074A,115.6838,37.7541,衡水市,电机北厂,细颗粒物(PM2.5),64,56,52,46,36,114,,105,105,6,8,1,2,0.4,0.4
2024-07-02T0900,1075A,115.6303,37.7316,衡水市,市监测站,细颗粒物(PM2.5),60,,38,43,32,115,,109,109,8,9,4,4,0.6,0.6
2024-07-02T0900,3188A,115.6683,37.7217,衡水市,市城管局,,46,41,38,32,30,118,,110,110,5,8,3,3,0.5,0.4
2024-07-02T0900,3459A,115.5989,37.5491,衡水市,地表水厂,,42,42,39,21,23,128,,116,116,5,7,7,6,0.3,0.4
2024-07-02T0900,2456A,112.5003,26.9167,衡阳市,原169医院,,29,,19,8,11,91,,74,74,2,8,4,4,0.6,0.7
2024-07-02T0900,2457A,112.6194,26.9258,衡阳市,衡阳化工总厂,,,,21,,,95,,73,73,8,7,5,7,0.5,0.5
2024-07-02T0900,2458A,112.6211,26.8956,衡阳市,珠晖区环保局,,,2,19,,,98,,77,77,9,5,5,6,0.7,0.6
2024-07-02T0900,2459A,112.6197,26.8733,衡阳市,市委党校,,30,6,17,3,17,96,,76,76,9,7,6,8,0.6,0.7
2024-07-02T0900,2460A,112.6006,26.8919,衡阳市,市监测站,,33,6,20,3,12,103,,79,79,4,6,5,7,0.5,0.5
2024-07-02T0900,2461A,112.5664,26.9056,衡阳市,真空机电公司,,30,,23,7,11,94,,76,76,3,9,5,9,0.6,0.9
2024-07-02T0900,3399A,112.6703,26.882,衡阳市,师范学院,,30,10,18,3,9,94,,73,73,8,6,8,8,0.6,0.6
2024-07-02T0900,2608A,103.3772,23.3993,红河哈尼族彝族自治州,污水处理厂,,21,21,18,9,7,13,,13,13,14,9,7,5,0.4,0.4
2024-07-02T0900,2609A,103.3861,23.35,红河哈尼族彝族自治州,监测站,,15,15,8,6,8,11,,21,19,14,6,6,6,0.4,0.3
2024-07-02T0900,3038A,103.3758,23.368,红河哈尼族彝族自治州,州图书馆,,,15,10,3,5,,,22,22,10,5,2,2,0.4,0.3
2024-07-02T0900,1090A,111.6507,40.7517,呼和浩特市,呼市一监,,40,24,26,20,12,127,,125,125,10,8,8,7,0.5,0.4
2024-07-02T0900,1091A,111.6572,40.8033,呼和浩特市,小召,,40,31,26,23,15,125,,128,127,11,11,6,6,0.7,0.6
2024-07-02T0900,1094A,111.7516,40.8369,呼和浩特市,如意水处理厂,,40,35,29,19,12,125,,113,113,9,12,5,5,0.5,0.5
2024-07-02T0900,1095A,111.7276,40.8062,呼和浩特市,二十九中,,,26,29,22,14,,,114,113,11,14,3,3,0.6,0.5
2024-07-02T0900,1096A,111.5512,40.7866,呼和浩特市,工大金川校区,,36,29,27,22,12,114,,113,112,19,12,6,5,0.7,0.4
2024-07-02T0900,1097A,111.717,40.7612,呼和浩特市,化肥厂生活区,,39,38,41,22,15,122,,123,122,10,10,8,8,0.4,0.3
2024-07-02T0900,3698A,111.5968,40.8178,呼和浩特市,红旗小学,,,,22,,12,,,122,120,,13,3,3,0.6,0.4
2024-07-02T0900,3699A,111.6518,40.8389,呼和浩特市,海东办,,39,31,24,23,12,123,,123,122,13,10,3,3,0.5,0.3
2024-07-02T0900,2192A,119.7594,49.2261,呼伦贝尔市,区环保局,细颗粒物(PM2.5),60,54,55,43,46,87,,77,77,16,17,4,4,0.6,0.6
2024-07-02T0900,3061A,119.7512,49.1577,呼伦贝尔市,国华电力东,,,51,49,37,38,94,,72,72,5,7,,3,0.4,0.4
2024-07-02T0900,1250A,120.0751,30.8669,湖州市,城西水厂,,14,8,21,3,14,42,,35,34,13,17,3,3,0.5,0.5
2024-07-02T0900,2873A,120.0875,30.8955,湖州市,仁皇山新区,,14,8,23,3,17,44,,30,28,11,19,6,6,0.7,0.7
2024-07-02T0900,2907A,120.1844,30.8596,湖州市,吴兴区站,,11,11,30,6,23,32,,20,20,16,19,5,6,0.6,0.6
2024-07-02T0900,3562A,120.4148,30.8538,湖州市,南浔区站,细颗粒物(PM2.5),52,,29,36,35,33,,41,36,27,16,2,2,0.7,0.6
2024-07-02T0900,1607A,120.9092,40.7136,葫芦岛市,龙港区,细颗粒物(PM2.5),62,66,72,44,41,98,,85,85,25,30,20,30,0.8,0.7
2024-07-02T0900,1608A,120.8392,40.7514,葫芦岛市,化工街,颗粒物(PM10),53,56,60,36,37,119,,119,119,24,22,18,16,0.7,0.7
2024-07-02T0900,1609A,120.8341,40.7073,葫芦岛市,新区,细颗粒物(PM2.5),58,59,57,41,38,111,,119,118,31,21,12,10,0.8,0.7
2024-07-02T0900,1610A,120.8695,40.7677,葫芦岛市,东城区,细颗粒物(PM2.5),55,53,52,39,39,122,,126,126,19,16,17,13,0.7,0.7
2024-07-02T0900,2482A,109.5981,27.5721,怀化市,林科所,,35,11,8,3,5,111,,111,110,1,5,7,6,0.7,0.7
2024-07-02T0900,2483A,109.9453,27.5444,怀化市,河西地税局,,26,11,11,11,5,81,,79,78,7,10,17,3,0.8,0.8
2024-07-02T0900,2484A,109.9781,27.5342,怀化市,市四医院,,22,9,9,6,6,69,,73,72,4,9,1,1,0.8,0.7
2024-07-02T0900,2485A,109.9972,27.5578,怀化市,监测楼,,,13,9,,6,59,,74,71,6,8,7,7,,0.7
2024-07-02T0900,2486A,110.0394,27.583,怀化市,市委党校,,23,9,6,3,9,72,,71,70,3,7,5,4,0.6,0.6
2024-07-02T0900,1210A,119.036,33.5981,淮安市,钵池山,,20,,13,7,14,62,,50,50,12,11,6,6,0.8,0.7
2024-07-02T0900,1211A,119.007,33.575,淮安市,北京南路,,,,14,,11,,,38,38,14,8,,6,0.8,0.6
2024-07-02T0900,1212A,118.989,33.6067,淮安市,市监测站,,19,,15,9,13,59,,42,42,10,10,6,6,0.8,0.8
2024-07-02T0900,1213A,119.135,33.5039,淮安市,楚州区监测站,,16,,16,3,13,49,,42,42,8,10,4,4,0.4,0.5
2024-07-02T0900,1214A,119.0186,33.6297,淮安市,淮阴区监测站,,20,9,15,8,14,61,,44,44,13,13,6,6,0.8,0.6
2024-07-02T0900,3426A,118.8755,33.2894,淮安市,新华书店,,22,,13,10,10,70,,49,49,10,10,5,5,0.6,0.6
2024-07-02T0900,2282A,116.8004,33.975,淮北市,监测站,,39,28,35,27,24,98,,100,96,3,4,5,6,0.6,0.6
2024-07-02T0900,2283A,116.8091,33.9007,淮北市,烈山区政府,,43,36,34,30,18,100,,101,101,4,5,4,5,0.7,0.6
2024-07-02T0900,3330A,116.8873,33.9836,淮北市,杜集区检察院,颗粒物(PM10),61,72,48,37,29,96,,97,92,6,6,6,6,0.7,0.7
2024-07-02T0900,4017A,116.7923,33.9535,淮北市,市博物馆,,,,40,,24,,,106,101,1,4,4,4,0.8,0.7
2024-07-02T0900,2277A,116.8305,32.7727,淮南市,潘集区政府,,32,,16,22,12,101,,106,104,6,4,3,3,0.3,0.2
2024-07-02T0900,2278A,117.0067,32.6524,淮南市,师范学院,细颗粒物(PM2.5),54,,22,38,21,103,,103,103,7,4,6,6,0.3,0.1
2024-07-02T0900,2279A,116.8569,32.5951,淮南市,谢家集区政府,,30,26,14,11,6,96,,102,101,7,3,5,6,0.3,0.2
2024-07-02T0900,2280A,116.8281,32.633,淮南市,八公山区政府,,42,38,29,29,14,98,,103,102,4,3,2,2,0.3,0.2
2024-07-02T0900,2281A,116.6325,32.6201,淮南市,焦岗湖风景区管理处,,22,22,11,11,8,56,,59,59,8,6,3,2,0.2,0.2
2024-07-02T0900,2894A,117.0566,32.6531,淮南市,经济技术开发区消防队,,31,23,14,11,8,98,,96,96,4,4,4,4,0.3,0.2
2024-07-02T0900,3329A,117.0108,32.5893,淮南市,山南新区,,33,18,14,3,5,103,,103,103,6,5,3,2,0.4,0.4
2024-07-02T0900,2446A,114.9028,30.4742,黄冈市,职工中心,,,,15,,12,126,,110,110,10,10,7,9,0.5,0.5
2024-07-02T0900,2929A,114.8858,30.4519,黄冈市,红卫路,,38,18,16,12,12,121,,111,111,13,13,8,8,0.7,0.5
2024-07-02T0900,3398A,114.9136,30.4445,黄冈市,市林业局,,38,,16,21,12,120,,111,111,7,7,5,6,0.5,0.4
2024-07-02T0900,2672A,102.0199,35.5102,黄南藏族自治州,同仁县隆务镇,,25,,22,17,8,69,,74,73,1,2,9,10,0.2,0.2
2024-07-02T0900,2295A,118.2903,29.6963,黄山市,延安路89号,,40,,17,28,6,24,,8,8,7,8,5,5,0.5,0.5
2024-07-02T0900,2296A,118.327,29.7178,黄山市,黄山东路89号,,27,27,11,8,5,21,,7,7,7,7,4,4,0.5,0.4
2024-07-02T0900,2297A,118.1371,30.2756,黄山市,黄山区政府5号楼,,17,6,12,3,6,53,,59,59,4,5,6,6,0.2,0.3
2024-07-02T0900,2423A,115.0601,30.2313,黄石市,沈家营,,34,24,21,12,3,107,,108,108,6,13,4,11,0.6,0.6
2024-07-02T0900,2424A,115.0817,30.2006,黄石市,陈家湾,,32,29,22,15,5,102,,102,102,10,11,4,6,0.6,0.6
2024-07-02T0900,2426A,114.8988,30.2019,黄石市,铁山,,29,23,21,14,6,92,,104,104,9,9,8,10,0.9,0.7
2024-07-02T0900,2427A,115.0307,30.2092,黄石市,团城山,,34,19,18,8,3,108,,108,108,5,8,8,6,0.7,0.6
2024-07-02T0900,3149A,115.0235,30.1578,黄石市,笔架山北路,,30,30,26,6,3,95,,98,98,14,8,7,6,0.8,0.6
2024-07-02T0900,1392A,114.4183,23.0528,惠州市,河南岸金山湖子站,,19,19,20,7,11,40,,33,33,3,6,4,4,0.4,0.4
2024-07-02T0900,1393A,114.4053,23.0822,惠州市,下埔横江三路子站,,21,21,22,9,10,43,,38,38,6,8,6,6,0.5,0.5
2024-07-02T0900,1394A,114.4103,23.1142,惠州市,江北云山西路子站,,22,22,20,8,9,40,,36,36,4,4,7,8,0.4,0.4
2024-07-02T0900,1395A,114.4645,22.7833,惠州市,惠阳区承修路船湖子站,,19,19,20,8,9,42,,41,40,8,8,1,1,0.5,0.5
2024-07-02T0900,1396A,114.5317,22.7422,惠州市,大亚湾管委会子站,,19,19,20,7,8,53,,50,50,6,6,5,5,0.5,0.5
2024-07-02T0900,3314A,114.4338,22.8134,惠州市,惠阳秋长,,17,17,18,8,9,47,,46,46,4,4,3,4,0.6,0.5
2024-07-02T0900,3452A,114.6517,22.775,惠州市,大亚湾霞涌,,18,18,19,3,4,47,,41,41,6,6,3,3,0.5,0.4
2024-07-02T0900,2240A,130.9762,45.3001,鸡西市,环保局,细颗粒物(PM2.5),72,69,61,52,47,66,,62,62,14,9,7,7,0.5,0.5
2024-07-02T0900,2243A,130.9429,45.3039,鸡西市,第一中学,细颗粒物(PM2.5),63,67,65,45,45,80,,62,62,4,5,8,8,0.5,0.4
2024-07-02T0900,3707A,131.0207,45.3073,鸡西市,欧美日汽修厂,细颗粒物(PM2.5),83,77,67,61,56,69,,44,44,15,14,12,7,0.4,0.3
2024-07-02T0900,3709A,130.9967,45.3106,鸡西市,市政设施管理处,细颗粒物(PM2.5),67,76,70,48,47,71,,40,40,12,12,7,7,0.4,0.4
2024-07-02T0900,2367A,114.9754,27.0803,吉安市,红声器材厂,,31,31,24,11,10,48,,61,58,10,8,10,13,0.4,0.4
2024-07-02T0900,2368A,114.9658,27.0999,吉安市,市森林工业局,,25,25,24,12,11,44,,56,54,13,10,12,11,0.4,0.5
2024-07-02T0900,2369A,114.99,27.1312,吉安市,市环境监测站,,20,20,22,9,9,46,,56,54,7,5,13,12,0.6,0.6
2024-07-02T0900,2370A,115.0093,27.0968,吉安市,青原区法院,,27,27,23,12,10,44,,56,53,10,8,12,12,0.3,0.3
2024-07-02T0900,1772A,126.54,43.8622,吉林市,哈达湾,细颗粒物(PM2.5),63,67,63,45,46,152,,46,46,40,30,8,7,0.9,0.6
2024-07-02T0900,1773A,126.5844,43.8358,吉林市,东局子,细颗粒物(PM2.5),59,60,59,42,45,116,,35,35,19,27,6,5,0.8,0.7
2024-07-02T0900,1774A,126.5052,43.8245,吉林市,电力学院,颗粒物(PM10),54,57,63,37,44,86,,27,27,25,29,11,12,0.7,0.7
2024-07-02T0900,1775A,126.6133,43.8972,吉林市,江北,,42,41,58,29,44,95,,63,63,9,14,8,8,0.8,0.8
2024-07-02T0900,1776A,126.555,43.8306,吉林市,江南公园,细颗粒物(PM2.5),60,55,59,43,47,89,,32,32,25,37,4,4,0.7,0.9
2024-07-02T0900,1778A,126.7061,43.7133,吉林市,丰满,,,,,,,,,,,,,,,,
2024-07-02T0900,2868A,126.4739,43.953,吉林市,九站,,,,67,,52,,,23,23,18,42,9,12,0.6,0.7
2024-07-02T0900,1299A,116.9862,36.6114,济南市,科干所,细颗粒物(PM2.5),59,,44,42,31,97,,84,84,20,18,7,7,0.6,0.6
2024-07-02T0900,1300A,116.9376,36.665,济南市,农科所,,46,46,46,32,29,105,,95,95,19,21,7,8,0.5,0.5
2024-07-02T0900,1301A,117.1265,36.6734,济南市,开发区,,,,41,,25,103,,91,91,,18,,8,0.6,0.7
2024-07-02T0900,1303A,117.0624,36.6868,济南市,省种子仓库,细颗粒物(PM2.5),73,,53,53,36,98,,90,90,21,18,6,7,0.7,0.7
2024-07-02T0900,1304A,116.9489,36.6447,济南市,机床二厂,,46,39,50,32,29,116,,100,100,14,18,8,9,0.4,0.4
2024-07-02T0900,1305A,117.0495,36.663,济南市,市监测站,,49,49,46,34,32,108,,97,97,20,22,10,11,0.6,0.6
2024-07-02T0900,1306A,116.7675,36.5484,济南市,长清党校,细颗粒物(PM2.5),74,,49,54,37,106,,92,92,12,14,8,8,0.7,0.7
2024-07-02T0900,1616A,117.6795,36.229,济南市,技术学院,,,,40,27,33,106,,105,104,,13,8,8,0.7,0.9
2024-07-02T0900,1961A,117.532,36.6868,济南市,东山小学,细颗粒物(PM2.5),53,46,31,37,28,96,,91,90,19,19,5,5,0.7,0.6
2024-07-02T0900,3059A,117.7161,36.2049,济南市,泰兴公司,,35,27,38,24,30,96,,95,95,10,16,8,8,0.5,0.6
2024-07-02T0900,3064A,117.6867,36.2171,济南市,莱芜战役纪念馆,,36,36,41,19,28,92,,92,92,7,14,8,7,0.6,0.8
2024-07-02T0900,3494A,117.1673,36.9782,济南市,济阳区政府,细颗粒物(PM2.5),62,51,50,44,37,103,,101,101,8,7,4,13,0.5,0.4
2024-07-02T0900,3495A,117.1171,36.63,济南市,锦屏中学,,49,49,44,34,29,117,,101,101,14,16,9,9,0.6,0.6
2024-07-02T0900,3682A,116.9814,36.6819,济南市,济南四建,细颗粒物(PM2.5),59,,47,42,37,106,,93,93,14,18,7,8,0.7,0.8
2024-07-02T0900,1653A,116.6251,35.4302,济宁市,火炬城,,38,38,34,12,21,83,,105,100,12,10,8,9,0.8,0.7
2024-07-02T0900,1655A,116.5491,35.4042,济宁市,电化厂,,49,39,33,34,24,76,,109,102,17,10,6,5,0.8,0.6
2024-07-02T0900,3500A,116.5814,35.3707,济宁市,北湖一中,,35,26,37,24,18,86,,110,105,13,10,6,6,0.7,0.6
2024-07-02T0900,3501A,116.8249,35.5593,济宁市,服务中心,,38,,25,26,23,86,,101,99,14,12,3,3,0.7,0.6
2024-07-02T0900,3678A,116.5907,35.4054,济宁市,市第七中学,,39,,30,27,20,85,,112,107,15,12,4,5,0.7,0.6
2024-07-02T0900,2255A,130.2751,46.8028,佳木斯市,佳纺,,43,43,70,27,55,98,,64,64,12,14,7,7,0.4,0.6
2024-07-02T0900,2256A,130.3995,46.8307,佳木斯市,发电厂,,38,34,59,26,56,92,,82,82,13,10,4,5,0.5,0.6
2024-07-02T0900,2257A,130.3258,46.7975,佳木斯市,环保局,颗粒物(PM10),54,57,66,32,57,89,,68,68,10,12,6,7,0.6,0.7
2024-07-02T0900,2258A,130.3648,46.8032,佳木斯市,十一中,细颗粒物(PM2.5),52,46,63,36,60,94,,78,78,14,14,7,7,0.5,0.6
2024-07-02T0900,2259A,130.3794,46.7588,佳木斯市,四丰,,,,,,,,,,,,,,,,
2024-07-02T0900,1252A,120.7436,30.778,嘉兴市,清河小学,,18,15,33,7,20,56,,48,48,11,12,5,5,0.5,0.7
2024-07-02T0900,1253A,120.726,30.7478,嘉兴市,嘉兴学院,,18,18,30,9,24,40,,38,38,16,18,2,2,0.5,0.6
2024-07-02T0900,2872A,120.7846,30.7525,嘉兴市,南湖区残联,,21,16,29,10,24,66,,56,56,6,13,5,4,0.4,0.6
2024-07-02T0900,3407A,120.6916,30.7739,嘉兴市,秀洲住建,,,17,31,,26,54,,43,43,15,19,3,3,0.6,0.7
2024-07-02T0900,1945A,98.2908,39.7711,嘉峪关市,气象局,,46,46,30,17,14,62,,70,65,36,17,10,7,0.6,0.4
2024-07-02T0900,2884A,98.2672,39.7978,嘉峪关市,酒钢宾馆,,29,29,33,14,12,80,,78,74,25,17,13,11,0.4,0.4
2024-07-02T0900,3248A,98.2643,39.7724,嘉峪关市,雄关区,,31,31,27,14,14,55,,47,41,35,23,10,8,0.7,0.4
2024-07-02T0900,1383A,113.1064,22.6058,江门市,北街,,24,24,23,12,10,34,,41,40,9,6,2,3,0.6,0.5
2024-07-02T0900,1384A,113.0731,22.5835,江门市,西区,,19,19,25,7,10,42,,41,41,10,7,7,7,0.5,0.4
2024-07-02T0900,1385A,113.0219,22.5311,江门市,圭峰西,,,,24,10,12,,,35,35,,8,3,3,0.5,0.5
2024-07-02T0900,1386A,113.0828,22.5947,江门市,东湖,,24,24,22,10,8,45,,41,41,11,8,5,5,0.5,0.4
2024-07-02T0900,3311A,113.1075,22.5647,江门市,江海富民,,34,34,36,17,16,45,,44,44,12,7,5,5,0.6,0.5
2024-07-02T0900,3449A,113.05,22.4667,江门市,新会银湖,,20,20,21,6,8,40,,41,41,8,7,3,3,0.6,0.6
2024-07-02T0900,1828A,113.227,35.2125,焦作市,市环保局,,31,17,28,17,18,97,,111,111,6,6,3,3,0.3,0.4
2024-07-02T0900,1830A,113.1992,35.2590,焦作市,影视城,,,,,,,,,,,,,,,,
2024-07-02T0900,3169A,113.2725,35.2067,焦作市,太极体育中心,,31,17,34,17,19,99,,108,108,6,6,1,2,0.4,0.5
2024-07-02T0900,3335A,113.3137,35.2641,焦作市,马村街道办,,35,,28,24,22,104,,113,113,4,7,2,3,0.5,0.5
2024-07-02T0900,3336A,113.2465,35.2373,焦作市,焦作技师学院,,35,24,30,24,20,90,,107,107,7,7,3,2,0.6,0.6
2024-07-02T0900,3477A,113.1656,35.2539,焦作市,中站许衡医院,,50,,25,35,29,76,,87,87,12,11,4,5,0.6,0.5
2024-07-02T0900,3981A,113.2449,35.1803,焦作市,原李万街道办,,41,41,31,14,17,94,,104,104,6,7,5,6,0.5,0.5
2024-07-02T0900,1708A,116.3701,23.5345,揭阳市,新兴,,,,29,7,9,38,,30,30,6,7,3,3,0.6,0.5
2024-07-02T0900,1709A,116.3264,23.5443,揭阳市,西马,,13,,27,7,10,40,,32,32,3,4,2,2,0.7,0.6
2024-07-02T0900,1710A,116.3611,23.5626,揭阳市,东兴,,,,36,7,9,42,,34,34,3,4,1,1,0.8,0.7
2024-07-02T0900,1711A,116.4151,23.5294,揭阳市,渔湖,,,,31,7,7,35,,27,27,10,8,2,2,0.5,0.5
2024-07-02T0900,3320A,116.403,23.5699,揭阳市,曲溪,,,22,19,7,8,48,,40,40,4,6,,3,0.5,0.5
2024-07-02T0900,1944A,102.1692,38.5167,金昌市,天庆家园,颗粒物(PM10),61,72,22,35,18,76,,64,63,25,16,8,10,0.9,0.5
2024-07-02T0900,3170A,102.1864,38.5253,金昌市,市委党校,颗粒物(PM10),70,90,36,33,16,70,,69,67,35,14,18,11,1.1,0.7
2024-07-02T0900,4022A,102.1647,38.5371,金昌市,金川区人防中心,颗粒物(PM10),66,82,23,30,18,92,,75,74,22,12,17,15,0.4,0.6
2024-07-02T0900,1262A,119.647,29.077,金华市,十五中,,30,30,51,19,24,53,,31,31,21,22,2,3,0.8,0.7
2024-07-02T0900,1263A,119.686,29.1029,金华市,监测站,,26,26,40,15,23,50,,24,24,16,26,2,3,0.5,0.6
2024-07-02T0900,3659A,119.656,29.1131,金华市,气象局,,40,40,44,18,21,38,,14,14,30,33,5,6,0.8,0.8
2024-07-02T0900,1767A,121.1115,41.0879,锦州市,南山,,,72,55,44,44,,,85,85,33,21,10,11,0.8,0.7
2024-07-02T0900,1768A,121.0533,40.8434,锦州市,开发区,细颗粒物(PM2.5),72,76,60,52,48,78,,67,67,35,22,30,13,1.2,0.8
2024-07-02T0900,1769A,121.1836,41.1119,锦州市,百股街道,颗粒物(PM10),62,73,61,39,42,76,,70,70,37,27,21,17,0.9,0.9
2024-07-02T0900,1770A,121.1178,41.1222,锦州市,天安街道,细颗粒物(PM2.5),59,56,57,42,42,84,,86,86,36,20,8,7,0.9,0.8
2024-07-02T0900,1771A,121.1303,41.1386,锦州市,北湖公园,细颗粒物(PM2.5),60,57,53,43,41,96,,90,90,27,18,9,8,0.8,0.7
2024-07-02T0900,2160A,112.85,35.5051,晋城市,自来水公司,,40,28,28,24,15,125,,119,119,15,14,16,7,1.9,1
2024-07-02T0900,2161A,112.8318,35.4936,晋城市,白云商贸,,39,34,24,27,14,122,,118,118,18,15,19,7,1.9,0.9
2024-07-02T0900,2162A,112.8508,35.4887,晋城市,市环保局,,40,35,32,24,16,126,,118,117,16,14,16,7,1.9,1
2024-07-02T0900,2163A,112.8676,35.4897,晋城市,技术学院,,40,29,29,22,18,127,,119,119,17,17,10,6,1.8,1.2
2024-07-02T0900,2165A,112.8453,35.546,晋城市,白马寺,,,,,,,,,,,,,,,,
2024-07-02T0900,3620A,112.8271,35.4828,晋城市,泽州一中,,42,32,16,29,13,129,,118,117,16,13,18,9,2.0,1.1
2024-07-02T0900,2171A,112.7532,37.6945,晋中市,锦纶小区,,38,9,34,3,14,120,,123,123,7,12,6,8,0.3,0.4
2024-07-02T0900,2173A,112.7249,37.7067,晋中市,南都小区,,39,,37,23,22,124,,128,128,7,11,5,8,0.4,0.5
2024-07-02T0900,2174A,112.6991,37.6982,晋中市,榆次区政府,,,,32,15,21,,,124,124,,14,7,10,0.3,0.4
2024-07-02T0900,2865A,112.7195,37.6828,晋中市,榆次三中,,39,12,34,3,10,124,,128,128,6,10,5,7,0.5,0.6
2024-07-02T0900,2439A,112.2014,31.0481,荆门市,竹园小学,,39,39,39,18,19,113,,103,101,14,9,9,9,0.5,0.5
2024-07-02T0900,2440A,112.1969,30.9891,荆门市,掇刀,,,32,30,16,19,125,,118,117,13,9,,8,0.6,0.6
2024-07-02T0900,2441A,112.2213,31.0386,荆门市,石化一小,,36,36,37,10,14,115,,96,96,13,10,6,14,0.5,0.5
2024-07-02T0900,3012A,112.1849,31.0362,荆门市,西山林语,,37,,30,18,22,117,,101,100,8,6,9,9,0.6,0.5
2024-07-02T0900,3547A,112.1632,31.0138,荆门市,龙泉中学南校,,40,27,28,18,19,127,,111,110,6,8,9,8,0.7,0.6
2024-07-02T0900,1844A,112.2494,30.3197,荆州市,市图书馆,,34,21,18,17,13,106,,96,96,11,9,6,6,0.7,0.6
2024-07-02T0900,1845A,112.2008,30.3544,荆州市,市委党校,,32,32,21,19,13,98,,88,88,11,11,6,5,0.6,0.6
2024-07-02T0900,3194A,112.2747,30.3122,荆州市,管委会,,35,24,18,14,12,110,,98,98,12,9,6,4,0.6,0.5
2024-07-02T0900,3548A,112.1655,30.3364,荆州市,学苑路,,30,23,21,19,18,96,,96,96,12,11,7,7,0.6,0.6
2024-07-02T0900,2342A,117.3102,29.3867,景德镇市,王港中学,,,,,,,,,,,,,,,,
2024-07-02T0900,2343A,117.2117,29.2933,景德镇市,老干部活动中心,,,16,13,,7,68,,54,54,6,7,6,6,0.3,0.2
2024-07-02T0900,2344A,117.1894,29.2789,景德镇市,兽医站,,16,16,18,7,10,42,,57,55,2,7,8,6,0.2,0.3
2024-07-02T0900,2345A,117.1547,29.2617,景德镇市,台达陶瓷,,18,18,20,7,13,27,,37,36,12,13,24,15,0.3,0.3
2024-07-02T0900,2346A,117.2461,29.2956,景德镇市,陶研所,,40,40,12,8,5,42,,51,51,2,3,14,4,0.2,0.3
2024-07-02T0900,1803A,115.9872,29.6815,九江市,十里,,30,14,18,13,12,95,,70,70,18,16,10,9,0.8,0.7
2024-07-02T0900,1804A,115.9584,29.7046,九江市,茅山头,,33,8,14,6,9,105,,71,71,16,21,8,11,0.6,0.6
2024-07-02T0900,1805A,115.9877,29.7295,九江市,西园,,32,14,13,7,8,100,,61,61,11,22,9,10,0.8,0.8
2024-07-02T0900,1806A,116.0172,29.6547,九江市,五七二七厂,,34,10,8,3,6,107,,70,70,9,7,9,8,0.8,0.6
2024-07-02T0900,1808A,115.9114,29.6038,九江市,综合工业园,,35,6,10,3,8,112,,83,83,8,16,9,10,0.8,0.9
2024-07-02T0900,1809A,116.0721,29.7535,九江市,石化总厂,,34,,14,12,10,106,,68,68,12,9,9,10,0.8,0.6
2024-07-02T0900,1810A,115.9773,29.5698,九江市,庐山气象台,,38,6,12,6,14,121,,90,90,2,2,6,16,1.1,0.8
2024-07-02T0900,3190A,116.0254,29.6994,九江市,外国语学校,,36,,9,8,8,114,,74,74,17,17,6,5,0.8,0.7
2024-07-02T0900,2658A,98.5061,39.7443,酒泉市,仓门街子站,,36,36,36,20,17,74,,50,50,20,16,11,17,0.4,0.2
2024-07-02T0900,2659A,98.4989,39.7256,酒泉市,油田生活基地,颗粒物(PM10),54,58,42,12,15,77,,52,52,24,18,18,24,0.4,0.2
2024-07-02T0900,2698A,76.0072,39.4467,喀什地区,巡警大队,,29,28,55,3,8,92,,102,102,18,15,3,3,0.3,0.2
2024-07-02T0900,2699A,75.9755,39.4694,喀什地区,吾办,,30,19,55,10,20,93,,97,97,15,13,3,3,0.4,0.3
2024-07-02T0900,4027A,75.9483,39.4689,喀什地区,老干局,,31,31,52,3,8,83,,95,95,24,13,4,4,0.3,0.3
2024-07-02T0900,1824A,114.3389,34.7781,开封市,肿瘤医院,,40,14,26,7,13,125,,113,113,3,5,1,2,0.9,0.9
2024-07-02T0900,1826A,114.2885,34.7965,开封市,世纪星幼儿园,,40,,27,10,18,127,,119,119,4,5,3,3,0.4,0.5
2024-07-02T0900,3147A,114.3438,34.8106,开封市,龙亭公园,,35,,30,20,20,110,,101,101,7,8,2,2,0.5,0.5
2024-07-02T0900,3210A,114.3644,34.7964,开封市,汴京公园,,37,,26,14,24,117,,107,107,3,6,3,3,0.8,0.7
2024-07-02T0900,3473A,114.2485,34.8306,开封市,技师学院,,37,18,32,11,14,118,,115,115,8,8,2,2,0.8,0.6
2024-07-02T0900,3592A,114.4644,34.7556,开封市,祥符区生态环境局,,38,12,31,10,18,120,,106,106,5,9,2,3,0.7,0.7
2024-07-02T0900,1951A,84.895,45.6094,克拉玛依市,长征新村,,35,12,21,7,6,111,,110,110,3,8,10,9,0.1,0.2
2024-07-02T0900,1952A,84.8988,45.5893,克拉玛依市,南林小区,,37,,24,18,15,116,,111,111,2,18,3,3,0.1,0.3
2024-07-02T0900,1954A,84.905,44.3396,克拉玛依市,独山子区,,28,19,25,8,10,89,,90,89,7,9,10,10,0.3,0.3
2024-07-02T0900,1955A,85.6979,46.098,克拉玛依市,乌尔禾区商贸楼,,35,18,19,7,9,109,,98,98,2,10,4,5,0.2,0.3
2024-07-02T0900,3612A,85.1045,45.6899,克拉玛依市,白碱滩区新站,,37,17,11,11,15,116,,112,112,3,7,6,6,0.2,0.3
2024-07-02T0900,2697A,76.1454,39.7142,克孜勒苏柯尔克孜自治州,市人民政府,,33,33,37,20,14,100,,108,108,7,8,8,9,0.2,0.3
2024-07-02T0900,3665A,76.1658,39.7157,克孜勒苏柯尔克孜自治州,克州文化中心,,36,14,31,12,16,114,,113,113,2,5,13,12,0.2,0.2
2024-07-02T0900,1450A,102.8204,24.8886,昆明市,呈贡新区,,23,23,18,9,10,20,,15,15,18,15,5,6,0.6,0.5
2024-07-02T0900,1451A,102.6251,24.9608,昆明市,西山森林公园,,,,,,,,,,,,,,,,
2024-07-02T0900,1452A,102.7252,25.0902,昆明市,龙泉镇,,20,20,14,6,5,10,,6,6,15,14,6,6,0.7,0.6
2024-07-02T0900,1453A,102.7266,25.0375,昆明市,东风东路,,29,29,17,10,7,4,,11,11,22,15,3,2,0.6,0.5
2024-07-02T0900,1454A,102.6742,25.0669,昆明市,金鼎山,,24,24,17,7,5,13,,11,10,15,14,9,9,0.5,0.4
2024-07-02T0900,1455A,102.6644,25.0401,昆明市,碧鸡广场,,24,24,15,10,7,8,,13,12,23,13,3,2,0.5,0.3
2024-07-02T0900,3179A,102.7494,25.0119,昆明市,官渡区博物馆,,27,27,16,6,8,6,,7,6,23,14,9,8,0.7,0.5
2024-07-02T0900,3375A,102.8017,24.8336,昆明市,青年创业园,,16,16,15,11,9,14,,4,4,15,13,8,9,0.5,0.4
2024-07-02T0900,3550A,102.7997,24.9786,昆明市,昆明学院,,37,37,24,18,13,11,,8,8,24,16,6,5,0.6,0.5
2024-07-02T0900,3551A,102.5967,24.6736,昆明市,晋宁区生态环境分局,,18,15,13,12,9,15,,16,16,15,10,6,5,1.0,0.7
2024-07-02T0900,3552A,102.6678,24.9856,昆明市,云天化总部,,27,27,18,16,10,14,,5,5,18,14,2,2,0.6,0.6
2024-07-02T0900,1456A,91.1319,29.6514,拉萨市,八廓街,,34,,10,6,7,108,,106,106,14,11,6,9,0.2,0.2
2024-07-02T0900,1457A,91.1221,29.6747,拉萨市,市环保局,,30,6,11,3,6,96,,101,101,21,12,9,10,0.6,0.5
2024-07-02T0900,1458A,91.0874,29.6475,拉萨市,区监测站,,32,,8,6,6,102,,100,100,19,9,7,9,0.4,0.3
2024-07-02T0900,1459A,91.1774,29.6541,拉萨市,西藏大学,,35,,8,7,6,110,,110,110,8,6,9,11,0.2,0.2
2024-07-02T0900,1460A,90.9798,29.6588,拉萨市,区辐射站,,,9,12,6,7,,,97,97,25,11,7,8,0.3,0.3
2024-07-02T0900,1461A,91.0834,29.6292,拉萨市,拉萨火车站,,35,6,11,3,7,109,,100,100,7,6,8,10,0.1,0.2
2024-07-02T0900,2520A,109.2203,23.7256,来宾市,来宾技工学校,,13,6,18,3,10,40,,43,42,7,4,6,5,0.7,0.7
2024-07-02T0900,3535A,109.1781,23.7297,来宾市,兴宾区政府,,12,,16,3,8,38,,47,45,9,5,4,4,0.6,0.6
2024-07-02T0900,4002A,109.2416,23.7461,来宾市,中南小学,,13,,23,3,10,41,,46,45,15,7,5,6,0.8,0.8
2024-07-02T0900,1476A,103.631,36.1031,兰州市,兰炼宾馆,颗粒物(PM10),51,52,41,32,23,52,,44,43,35,29,40,12,0.7,0.3
2024-07-02T0900,1477A,104.1373,35.9454,兰州市,榆中兰大校区,,,,,,,,,,,,,,,,
2024-07-02T0900,1478A,103.8412,36.0726,兰州市,生物制品所,,49,49,38,32,24,30,,10,10,50,36,12,11,0.6,0.4
2024-07-02T0900,1479A,103.831,36.0464,兰州市,铁路设计院,颗粒物(PM10),54,57,39,28,21,33,,22,21,56,51,11,7,0.7,0.5
2024-07-02T0900,3186A,103.7158,36.1058,兰州市,教育港,颗粒物(PM10),56,61,41,26,22,46,,27,26,40,29,19,12,0.6,0.4
2024-07-02T0900,3241A,103.7439,36.0842,兰州市,百合公园,,37,37,30,17,19,32,,35,32,52,29,7,9,0.5,0.4
2024-07-02T0900,3242A,103.9611,35.998,兰州市,和平,,36,36,28,11,14,68,,85,80,38,19,12,10,0.4,0.4
2024-07-02T0900,3245A,103.6633,36.533,兰州新区,新区管委会,,41,41,37,24,18,93,,53,53,18,18,9,10,0.4,0.4
2024-07-02T0900,3246A,103.6975,36.4789,兰州新区,舟曲中学,颗粒物(PM10),52,53,31,31,18,70,,45,45,29,22,7,13,0.6,0.4
2024-07-02T0900,1067A,116.6708,39.5111,廊坊市,药材公司,颗粒物(PM10),53,55,38,32,24,37,,71,65,34,17,3,3,0.6,0.6
2024-07-02T0900,1068A,116.7214,39.5589,廊坊市,开发区,颗粒物(PM10),58,66,49,40,29,34,,44,39,33,19,1,2,0.5,0.5
2024-07-02T0900,1070A,116.7244,39.5269,廊坊市,北华航天学院,颗粒物(PM10),59,67,46,35,21,43,,64,56,33,15,3,2,0.5,0.5
2024-07-02T0900,2919A,116.7022,39.5453,廊坊市,河北工业大学,颗粒物(PM10),53,55,50,30,25,39,,58,52,28,14,3,3,0.5,0.5
2024-07-02T0900,2535A,103.7723,29.5462,乐山市,花湖湾,,23,18,16,16,11,24,,34,29,26,15,5,6,0.4,0.5
2024-07-02T0900,2536A,103.7627,29.5844,乐山市,牛耳桥,,,,19,,9,,,107,,,24,,5,,0.7
2024-07-02T0900,2537A,103.7508,29.6006,乐山市,市第三水厂,,30,21,17,21,11,45,,27,27,23,22,5,4,0.5,0.4
2024-07-02T0900,2538A,103.7571,29.5664,乐山市,市监测站,,24,24,20,12,12,57,,37,36,14,16,3,5,0.7,0.9
2024-07-02T0900,3361A,103.7311,29.5628,乐山市,理工大学,,31,31,19,18,10,44,,30,29,22,17,8,8,0.6,0.7
2024-07-02T0900,2598A,100.2143,26.8576,丽江市,西南郊,,,,,,,,,,,,,,,,
2024-07-02T0900,2599A,100.2497,26.8802,丽江市,丽江古城,,25,20,19,17,10,31,,27,27,13,10,7,6,0.6,0.6
2024-07-02T0900,2600A,100.2203,26.8906,丽江市,市中心,,13,13,13,7,8,34,,34,34,19,11,11,10,0.6,0.6
2024-07-02T0900,1267A,119.914,28.4514,丽水市,监测站大楼,,19,19,26,9,8,55,,46,46,4,10,2,3,0.4,0.4
2024-07-02T0900,1268A,119.93,28.4586,丽水市,莲都小学,,19,19,28,6,10,56,,52,51,4,9,4,3,0.4,0.4
2024-07-02T0900,1269A,119.879,28.4231,丽水市,余庄前,,16,16,22,9,12,43,,13,13,5,9,2,2,0.5,0.5
2024-07-02T0900,1173A,119.176,34.5885,连云港市,市环境监测站,,,,21,,18,,,53,51,10,9,,5,0.4,0.4
2024-07-02T0900,3000A,119.3581,34.6972,连云港市,德源药业,,18,6,16,3,13,56,,54,53,2,5,4,4,0.4,0.5
2024-07-02T0900,3007A,119.178,34.844,连云港市,新城一中,,20,12,29,3,14,63,,86,82,8,6,4,4,0.7,0.7
2024-07-02T0900,3008A,119.3608,34.7519,连云港市,胡沟管理处,,,0,20,,21,50,,51,50,3,7,5,7,0.5,0.5
2024-07-02T0900,3009A,119.1478,34.5911,连云港市,矿山设计院,,17,9,20,7,14,54,,52,50,8,8,3,3,0.4,0.4
2024-07-02T0900,3434A,119.2413,34.6539,连云港市,工贸学校,,19,6,19,3,11,58,,61,60,4,5,6,6,0.7,0.7
2024-07-02T0900,3664A,119.4172,34.7341,连云港市,连云街道,,20,6,22,3,14,61,,52,52,3,11,1,2,0.7,0.7
2024-07-02T0900,2571A,102.3431,27.8099,凉山彝族自治州,青龙寺,,13,13,14,6,9,40,,45,45,3,5,1,3,0.4,0.4
2024-07-02T0900,2572A,102.2721,27.8415,凉山彝族自治州,邛海宾馆,,,13,17,3,10,,,44,43,12,10,9,10,0.7,0.8
2024-07-02T0900,2573A,102.2625,27.898,凉山彝族自治州,西昌市政府,,12,12,15,3,9,37,,47,46,7,6,7,10,0.6,0.6
2024-07-02T0900,2574A,102.2685,27.8851,凉山彝族自治州,凉山州政府,,19,19,18,10,8,39,,50,50,15,9,6,9,0.9,0.9
2024-07-02T0900,2575A,102.237,27.8914,凉山彝族自治州,长安,,28,28,17,12,10,16,,40,36,31,10,11,12,0.6,0.6
2024-07-02T0900,2212A,123.2,41.1953,辽阳市,宏伟区,颗粒物(PM10),79,107,68,48,40,24,,35,29,51,24,16,22,1.6,0.8
2024-07-02T0900,2213A,123.1683,41.2495,辽阳市,新华园,颗粒物(PM10),76,101,74,44,49,41,,50,45,54,30,36,19,2.0,0.9
2024-07-02T0900,2214A,123.2354,41.2639,辽阳市,滨河路,颗粒物(PM10),72,93,75,43,45,39,,25,23,50,34,19,16,2.2,0.9
2024-07-02T0900,2215A,123.149,41.2991,辽阳市,铁西工业园,,,,64,38,42,43,,33,33,,27,39,18,2.1,1.1
2024-07-02T0900,2227A,125.1358,42.8845,辽源市,环保局,,,52,54,39,41,,,23,23,21,27,8,8,0.7,0.7
2024-07-02T0900,3239A,125.0764,42.9078,辽源市,银鹰制药,细颗粒物(PM2.5),55,52,53,39,42,94,,28,28,24,31,25,7,1.0,0.9
2024-07-02T0900,1625A,115.9848,36.4372,聊城市,区政府,细颗粒物(PM2.5),72,57,45,52,33,87,,92,92,18,15,8,8,0.5,0.6
2024-07-02T0900,2878A,116.0072,36.4343,聊城市,聊大东校,细颗粒物(PM2.5),78,63,46,57,40,96,,99,99,12,12,4,6,0.8,0.7
2024-07-02T0900,3200A,115.9819,36.4978,聊城市,监控中心,颗粒物(PM10),59,68,39,41,23,84,,86,86,14,13,7,7,0.5,0.5
2024-07-02T0900,3513A,116.0445,36.4361,聊城市,九州社区,细颗粒物(PM2.5),67,70,52,48,33,93,,94,94,14,16,4,5,0.6,0.6
2024-07-02T0900,4018A,116.0567,36.4608,聊城市,星美广场,细颗粒物(PM2.5),70,71,57,51,32,91,,94,94,10,19,7,7,0.4,0.6
2024-07-02T0900,2632A,94.3681,29.6376,林芝市,林芝监测站,,13,,7,3,5,40,,67,61,6,3,7,7,0.3,0.2
2024-07-02T0900,2633A,94.3616,29.6616,林芝市,林芝人民医院,,15,8,9,3,4,45,,67,62,6,5,9,9,0.3,0.3
2024-07-02T0900,2603A,100.0781,23.8982,临沧市,市环保局,,20,20,18,11,18,13,,12,12,10,10,4,4,0.4,0.3
2024-07-02T0900,2604A,100.0894,23.8822,临沧市,市气象局,,,15,16,14,12,,,16,16,15,10,4,4,0.6,0.5
2024-07-02T0900,1733A,111.5531,36.0783,临汾市,临钢医院,颗粒物(PM10),74,98,60,41,28,47,,33,32,25,19,7,7,0.9,1.1
2024-07-02T0900,1734A,111.5028,36.0714,临汾市,技工学校,颗粒物(PM10),66,82,56,45,39,57,,35,35,21,22,9,9,0.9,1
2024-07-02T0900,1736A,111.5018,36.0855,临汾市,市委,颗粒物(PM10),66,82,67,41,32,62,,44,44,18,20,9,8,0.9,1.1
2024-07-02T0900,3018A,111.505,36.1014,临汾市,唐尧大酒店,颗粒物(PM10),62,74,51,33,26,58,,45,45,18,17,5,6,0.9,1.1
2024-07-02T0900,3668A,111.5036,36.0414,临汾市,城南,细颗粒物(PM2.5),70,69,60,51,40,59,,21,21,16,23,4,5,1.0,1.1
2024-07-02T0900,2667A,103.2069,35.5993,临夏回族自治州,环保局,颗粒物(PM10),57,63,40,27,23,46,,35,34,15,10,8,7,0.6,0.3
2024-07-02T0900,2668A,103.2417,35.6057,临夏回族自治州,建设大厦,,32,32,26,18,16,45,,38,37,16,9,10,9,0.4,0.2
2024-07-02T0900,1618A,118.3429,35.0532,临沂市,沂河小区,,34,7,37,3,24,106,,86,85,9,11,8,9,0.2,0.4
2024-07-02T0900,1619A,118.295,35.0583,临沂市,鲁南制药厂,,29,6,36,3,21,92,,88,86,6,6,8,9,0.4,0.6
2024-07-02T0900,1620A,118.2794,34.9976,临沂市,新光毛纺厂,,26,,28,3,23,82,,86,82,13,9,3,5,0.6,0.7
2024-07-02T0900,1621A,118.3956,35.0888,临沂市,河东保险公司,,28,6,36,3,24,88,,71,71,3,7,4,5,0.3,0.5
2024-07-02T0900,3370A,118.3564,35.0215,临沂市,十里堡居委,,,,27,0,23,94,,81,80,5,8,7,8,0.5,0.7
2024-07-02T0900,3496A,118.3604,35.1084,临沂市,南坊新区,,29,14,44,3,21,91,,79,78,7,11,6,8,0.6,0.8
2024-07-02T0900,3860A,118.3920,35.0300,临沂市,皇山花园小区,,30,,36,3,26,96,,78,78,8,12,7,9,0.4,0.7
2024-07-02T0900,1870A,109.4856,24.3895,柳州市,柳东小学,,10,8,14,3,8,32,,44,42,14,7,6,6,0.5,0.5
2024-07-02T0900,1871A,109.4157,24.3277,柳州市,环保监测站,,11,,16,3,7,34,,47,45,10,6,6,6,0.5,0.6
2024-07-02T0900,1872A,109.389,24.341,柳州市,河西水厂,,13,9,19,3,10,39,,47,46,8,4,6,6,0.5,0.5
2024-07-02T0900,1873A,109.4311,24.2921,柳州市,市四中,,,,22,3,9,38,,48,46,10,6,5,5,0.4,0.4
2024-07-02T0900,1874A,109.4006,24.3631,柳州市,市九中,,12,8,23,3,6,36,,48,46,14,9,4,4,0.5,0.5
2024-07-02T0900,1875A,109.4958,24.3134,柳州市,古亭山,,11,9,16,3,7,33,,45,42,19,9,5,6,0.3,0.3
2024-07-02T0900,3402A,109.5422,24.3996,柳州市,市二中,,13,,18,3,8,40,,46,45,8,6,5,6,0.3,0.3
2024-07-02T0900,2307A,116.5079,31.737,六安市,监测大楼,,30,14,8,8,9,94,,88,88,4,4,4,5,0.4,0.4
2024-07-02T0900,2308A,116.4738,31.7643,六安市,皖西学院,,29,17,8,8,9,92,,87,87,4,3,4,4,0.3,0.3
2024-07-02T0900,2309A,116.4996,31.7905,六安市,朝阳厂,,27,,5,6,10,84,,80,80,2,2,8,8,0.3,0.3
2024-07-02T0900,2310A,116.5567,31.7886,六安市,开发区,,28,,5,12,11,89,,86,86,6,4,4,4,0.5,0.5
2024-07-02T0900,2576A,104.8,26.5892,六盘水市,窑上,,,,,,,,,,,,,,,,
2024-07-02T0900,2577A,104.83,26.5917,六盘水市,黄土坡,,23,13,14,3,7,71,,34,34,14,13,10,9,0.4,0.4
2024-07-02T0900,2578A,104.89,26.5939,六盘水市,水钢,,41,41,27,15,11,56,,46,46,29,23,34,26,2.9,1.3
2024-07-02T0900,2579A,104.8475,26.5894,六盘水市,民中,,19,17,16,7,5,59,,42,42,18,15,10,8,0.5,0.4
2024-07-02T0900,2580A,104.9544,26.5506,六盘水市,双水,,31,31,21,21,8,41,,27,27,18,15,17,12,0.9,0.5
2024-07-02T0900,2335A,117.0189,25.1181,龙岩市,龙岩师专,,,,,,,,,,,,,,,,
2024-07-02T0900,2336A,117.0217,25.1033,龙岩市,龙岩市监测站,,17,17,19,8,8,28,,29,28,8,9,6,4,0.5,0.5
2024-07-02T0900,2337A,117.0258,25.0661,龙岩市,闽西职业技术学院,,19,19,16,6,9,28,,28,26,9,8,6,4,0.5,0.5
2024-07-02T0900,2338A,117.0196,25.0306,龙岩市,龙岩学院,,14,14,16,7,8,29,,28,28,4,4,5,5,0.4,0.5
2024-07-02T0900,2665A,105.0822,33.3261,陇南市,汉王镇固水子,,,,,,,,,,,,,,,,
2024-07-02T0900,2885A,104.9339,33.3826,陇南市,滨江中学,,33,33,32,15,12,55,,56,55,14,11,11,10,0.8,0.7
2024-07-02T0900,3247A,104.955,33.371,陇南市,市总工会,,36,36,27,11,11,58,,71,68,12,6,6,5,0.7,0.5
2024-07-02T0900,2487A,111.9589,27.8901,娄底市,电视发射台,,26,15,17,3,8,81,,83,82,3,5,6,5,0.8,1
2024-07-02T0900,2488A,111.9975,27.725,娄底市,市监测站,,30,30,17,20,13,74,,95,93,18,8,10,6,1.7,0.8
2024-07-02T0900,2489A,112.0194,27.7314,娄底市,市委党校,,23,21,15,11,8,72,,82,81,16,8,8,5,1.4,0.7
2024-07-02T0900,2490A,111.9561,27.7569,娄底市,涟钢,,,17,21,,11,74,,86,86,9,13,10,11,0.6,1
2024-07-02T0900,2491A,111.9892,27.7044,娄底市,市政府,,28,12,13,3,8,88,,96,96,8,7,6,7,0.6,0.6
2024-07-02T0900,1893A,105.4324,28.9634,泸州市,九狮山,,20,20,21,6,12,30,,19,19,17,14,5,5,0.4,0.4
2024-07-02T0900,1894A,105.4427,28.9063,泸州市,小市上码头,,,25,22,11,9,,,33,29,14,13,6,6,0.3,0.3
2024-07-02T0900,1895A,105.4241,28.8573,泸州市,兰田宪桥,,21,21,20,12,12,39,,23,22,20,10,5,5,0.3,0.2
2024-07-02T0900,1896A,105.4379,28.8833,泸州市,市环监站,,28,28,21,15,12,18,,33,28,30,13,8,7,0.6,0.5
2024-07-02T0900,3490A,105.3617,28.7703,泸州市,纳溪区环保局,,35,35,22,9,5,36,,23,22,20,15,5,3,0.4,0.3
2024-07-02T0900,2183A,111.1406,37.5211,吕梁市,环保局,细颗粒物(PM2.5),64,53,53,46,32,74,,42,41,22,20,3,3,0.8,0.6
2024-07-02T0900,2185A,111.1297,37.5136,吕梁市,自来水公司,细颗粒物(PM2.5),57,46,49,40,30,81,,64,63,19,18,6,8,0.8,0.6
2024-07-02T0900,2867A,111.1283,37.51,吕梁市,马茂庄小学,细颗粒物(PM2.5),62,50,52,44,30,69,,48,47,33,25,6,7,0.8,0.7
2024-07-02T0900,1812A,112.3931,34.6516,洛阳市,市委党校,,24,24,21,13,17,47,,88,87,6,7,2,3,0.7,0.7
2024-07-02T0900,1814A,112.4657,34.6871,洛阳市,豫西宾馆,,29,29,27,9,17,78,,100,100,14,15,3,5,0.5,0.5
2024-07-02T0900,1815A,112.494,34.6886,洛阳市,河南林校,,25,9,16,6,14,78,,94,94,11,12,2,4,0.4,0.4
2024-07-02T0900,1816A,112.3844,34.623,洛阳市,开发区管委会,,18,18,18,6,14,53,,79,79,10,8,8,7,0.4,0.4
2024-07-02T0900,1817A,112.4267,34.6258,洛阳市,市委新办公区,,25,18,19,10,16,79,,99,99,8,5,4,5,0.3,0.3
2024-07-02T0900,3340A,112.6005,34.6326,洛阳市,伊滨,,36,27,23,6,16,115,,115,115,7,10,4,5,0.3,0.3
2024-07-02T0900,3341A,112.4951,34.6332,洛阳市,中移产业园,,27,16,21,16,18,86,,105,105,8,9,4,5,0.6,0.7
2024-07-02T0900,3593A,112.5736,34.8993,洛阳市,吉利监测站,,30,14,22,13,18,95,,78,78,7,9,2,2,0.1,0.1
2024-07-02T0900,3635A,112.3677,34.662,洛阳市,河科大西苑校区,,20,20,20,8,11,51,,81,81,8,11,5,6,0.6,0.6
2024-07-02T0900,3636A,112.4388,34.6781,洛阳市,英才小学,,30,30,30,16,21,58,,91,91,9,8,1,6,0.5,0.5
2024-07-02T0900,2399A,114.051,33.5699,漯河市,三五一五工厂,,36,12,41,9,21,113,,112,112,7,9,7,7,0.2,0.2
2024-07-02T0900,2400A,114.0055,33.5698,漯河市,漯河大学,,37,12,39,12,24,118,,119,119,7,8,5,6,0.6,0.6
2024-07-02T0900,2401A,114.0138,33.5828,漯河市,市水利局,,,0,43,,24,,,108,108,7,9,7,8,0.4,0.4
2024-07-02T0900,2402A,114.0261,33.5698,漯河市,市广电局,,36,12,47,10,20,113,,115,115,5,6,1,2,0.7,0.7
2024-07-02T0900,3478A,113.9749,33.5664,漯河市,市图书馆,,,,45,,25,117,,112,112,3,6,8,7,0.5,0.5
2024-07-02T0900,3479A,114.0967,33.5906,漯河市,召陵区卫健委,,36,,44,10,27,113,,103,103,5,8,4,5,0.4,0.5
2024-07-02T0900,1798A,118.5092,31.6837,马鞍山市,湖东路四小,,14,10,15,3,8,43,,29,29,10,7,7,7,0.5,0.6
2024-07-02T0900,1799A,118.5024,31.6449,马鞍山市,开发区,,13,7,15,3,7,39,,24,24,12,8,8,8,0.6,0.6
2024-07-02T0900,1800A,118.5228,31.7231,马鞍山市,慈湖,,14,14,18,6,9,43,,26,26,18,15,10,9,0.7,0.7
2024-07-02T0900,1802A,118.6245,31.7241,马鞍山市,濮塘,,12,9,10,7,8,38,,24,24,14,7,3,3,0.6,0.6
2024-07-02T0900,3633A,118.4918,31.6809,马鞍山市,雨山,,13,12,17,3,8,41,,25,25,11,9,5,5,0.5,0.7
2024-07-02T0900,1686A,111.0286,21.4688,茂名市,电白南海,,20,19,23,14,13,45,,49,48,5,3,5,4,0.3,0.4
2024-07-02T0900,1687A,110.9294,21.6533,茂名市,茂石化七小,,25,24,23,17,15,42,,41,41,8,4,8,10,0.7,0.5
2024-07-02T0900,1688A,110.9107,21.6687,茂名市,健康路,,29,29,22,12,7,46,,46,46,10,7,9,9,0.6,0.4
2024-07-02T0900,1689A,110.8592,21.6828,茂名市,高岭,,36,36,32,19,17,38,,34,34,11,9,19,10,0.7,0.6
2024-07-02T0900,3450A,111.01,21.5165,茂名市,电白水东,,15,9,16,7,9,45,,48,47,5,4,3,3,0.5,0.5
2024-07-02T0900,2539A,104.0308,30.0478,眉山市,黑龙滩水库,,33,29,27,23,19,35,,35,34,15,9,6,6,0.3,0.3
2024-07-02T0900,2540A,103.8416,30.0874,眉山市,气象局,,32,25,20,22,12,21,,6,6,54,31,20,8,0.7,0.4
2024-07-02T0900,3137A,103.8578,30.0744,眉山市,市委党校,,39,39,18,19,6,44,,52,51,37,23,15,8,0.7,0.4
2024-07-02T0900,3148A,103.8291,30.0564,眉山市,区人社局,颗粒物(PM10),60,69,27,31,9,40,,43,42,49,27,42,10,0.8,0.3
2024-07-02T0900,1690A,116.1231,24.3284,梅州市,梅江月梅,,35,35,30,12,9,22,,11,11,7,10,8,8,0.5,0.5
2024-07-02T0900,1691A,116.0797,24.2719,梅州市,梅县新城,,18,18,19,10,10,22,,17,15,12,9,6,4,0.6,0.4
2024-07-02T0900,1692A,116.1248,24.2654,梅州市,环境监控中心,,50,50,26,12,11,18,,7,7,16,16,4,4,0.4,0.3
2024-07-02T0900,3315A,116.1233,24.2991,梅州市,梅龙,,,,18,,10,,,12,12,10,11,,9,0.6,0.5
2024-07-02T0900,1878A,104.7778,31.4741,绵阳市,富乐山,,29,28,23,20,15,51,,33,33,16,15,8,9,0.4,0.4
2024-07-02T0900,1879A,104.7563,31.4535,绵阳市,市人大,,36,36,27,11,15,39,,29,28,32,27,13,11,0.5,0.5
2024-07-02T0900,1880A,104.6697,31.4668,绵阳市,高新区自来水公司,,29,29,28,17,12,48,,18,18,29,29,6,7,0.5,0.5
2024-07-02T0900,1881A,104.7287,31.5075,绵阳市,三水厂,,41,41,31,23,16,51,,14,14,21,28,7,8,0.5,0.5
2024-07-02T0900,3491A,104.69,31.5322,绵阳市,西科大附属小学,,44,44,26,19,11,33,,24,24,27,22,6,7,0.6,0.5
2024-07-02T0900,3492A,104.5648,31.5343,绵阳市,安州区旅游局,,25,24,16,17,15,40,,35,35,20,15,8,9,0.5,0.5
2024-07-02T0900,1784A,129.61,44.561,牡丹江市,环保大楼,颗粒物(PM10),52,53,52,24,32,54,,36,36,15,13,6,6,0.5,0.5
2024-07-02T0900,1785A,129.6115,44.5782,牡丹江市,文化广场,细颗粒物(PM2.5),57,,54,40,43,50,,36,36,18,17,6,6,0.5,0.5
2024-07-02T0900,1786A,129.5904,44.5963,牡丹江市,第一医院,细颗粒物(PM2.5),62,47,55,44,46,58,,34,34,16,14,4,4,0.6,0.5
2024-07-02T0900,1787A,129.6364,44.6075,牡丹江市,机车工厂,细颗粒物(PM2.5),57,57,48,40,44,55,,21,21,19,12,4,10,0.5,0.4
2024-07-02T0900,1788A,129.6386,44.5462,牡丹江市,第一中学,,,55,53,22,28,,,34,33,13,13,4,4,,0.4
2024-07-02T0900,2531A,105.0703,29.61,内江市,市监测站,,25,,14,17,15,44,,56,51,22,13,8,7,0.5,0.4
2024-07-02T0900,2532A,105.0717,29.5947,内江市,东兴区政府,,17,16,16,6,5,53,,56,53,15,12,9,8,0.5,0.4
2024-07-02T0900,2533A,105.0653,29.5817,内江市,内江二中,,17,14,16,8,12,52,,56,53,16,15,10,9,0.6,0.5
2024-07-02T0900,2534A,105.0406,29.5822,内江市,内江日报社,,17,14,20,11,10,53,,55,52,16,16,19,19,0.6,0.5
2024-07-02T0900,2628A,92.0657,31.4846,那曲市,那曲监测站,,50,50,37,28,13,70,,95,89,6,6,6,7,0.7,0.5
2024-07-02T0900,3128A,92.0506,31.4797,那曲市,那曲会议中心,,42,42,25,24,11,75,,107,100,21,7,4,3,0.5,0.4
2024-07-02T0900,1290A,115.8931,28.6843,南昌市,省外办,,30,22,29,3,17,96,,49,49,16,18,6,5,0.4,0.4
2024-07-02T0900,1291A,115.8886,28.7003,南昌市,省林业公司,,34,9,20,7,12,108,,50,50,7,18,4,4,0.4,0.4
2024-07-02T0900,1292A,115.8126,28.7442,南昌市,林科所,,,,12,,9,,,24,24,10,21,10,11,0.4,0.3
2024-07-02T0900,1294A,115.8518,28.687,南昌市,建工学校,,29,22,23,16,13,90,,46,46,6,19,6,6,0.4,0.5
2024-07-02T0900,1295A,115.8921,28.6424,南昌市,象湖,,27,19,23,6,12,84,,53,53,9,20,5,4,0.5,0.6
2024-07-02T0900,1296A,115.7423,28.7996,南昌市,武术学校,,30,15,17,8,12,96,,47,47,2,5,18,19,0.5,0.5
2024-07-02T0900,1298A,115.9314,28.6842,南昌市,省站,,32,29,25,8,16,100,,50,50,3,7,5,5,0.6,0.6
2024-07-02T0900,3046A,115.9084,28.6062,南昌市,机电学校,,30,30,25,7,11,65,,50,50,16,9,8,7,0.9,0.7
2024-07-02T0900,3690A,115.9721,28.7031,南昌市,外国语学校,,,14,24,,12,,,49,49,8,14,4,4,0.5,0.5
2024-07-02T0900,1905A,106.056,30.8064,南充市,西山风景区,,26,25,20,18,15,67,,61,59,11,6,6,5,0.5,0.4
2024-07-02T0900,1906A,106.0789,30.8023,南充市,南充市委,,34,34,30,20,16,81,,71,70,13,10,8,6,0.4,0.3
2024-07-02T0900,1907A,106.1031,30.8217,南充市,南充炼油厂,,39,39,30,25,16,85,,73,72,14,12,9,8,0.3,0.2
2024-07-02T0900,1908A,106.1064,30.7856,南充市,高坪区监测站,,34,34,33,16,13,74,,57,57,18,16,8,6,0.3,0.2
2024-07-02T0900,1909A,106.0642,30.7636,南充市,嘉陵区环保局,,,40,27,17,14,62,,66,63,,10,,4,0.4,0.2
2024-07-02T0900,1910A,106.1087,30.8388,南充市,市环境监测站,,40,30,30,28,18,76,,67,66,20,14,8,7,0.5,0.5
2024-07-02T0900,1151A,118.8086,32.1065,南京市,迈皋桥,,9,6,8,3,3,27,,22,22,15,7,5,4,0.7,0.3
2024-07-02T0900,1152A,118.7538,32.0551,南京市,草场门,,13,,6,3,7,35,,29,29,19,13,6,4,1.3,0.7
2024-07-02T0900,1153A,118.7794,32.0745,南京市,山西路,,11,6,6,3,1,34,,26,26,15,8,4,4,0.8,0.3
2024-07-02T0900,1154A,118.7752,32.0023,南京市,中华门,,9,6,4,3,1,26,,24,24,18,12,6,7,0.7,0.4
2024-07-02T0900,1155A,118.8109,32.0309,南京市,瑞金路,,8,,6,3,4,24,,18,18,16,5,10,9,0.5,0.2
2024-07-02T0900,1156A,118.7997,32.0754,南京市,玄武湖,,,1,13,,3,27,,21,21,2,2,2,2,0.6,0.4
2024-07-02T0900,1157A,118.6414,32.0931,南京市,浦口,,15,6,14,3,2,46,,32,32,7,12,5,5,0.5,0.7
2024-07-02T0900,1158A,118.7356,31.9996,南京市,奥体中心,,12,6,6,3,4,28,,28,28,23,11,6,6,0.8,0.2
2024-07-02T0900,1159A,118.9125,32.1028,南京市,仙林大学城,,12,6,7,3,2,36,,24,24,15,10,7,7,0.6,0.5
2024-07-02T0900,3422A,118.8436,31.9198,南京市,江宁彩虹桥,,11,6,16,3,4,23,,20,20,21,10,4,3,0.8,0.5
2024-07-02T0900,3423A,119.0138,31.6494,南京市,溧水永阳,,15,14,7,10,7,27,,36,35,13,8,3,4,0.5,0.5
2024-07-02T0900,3424A,118.879,31.3302,南京市,高淳老职中,,23,19,9,16,7,20,,26,25,12,6,3,3,0.9,0.7
2024-07-02T0900,3427A,118.8554,32.3578,南京市,六合雄州,,11,6,13,3,7,33,,31,31,12,6,10,7,0.7,0.7
2024-07-02T0900,1401A,108.3103,22.7881,南宁市,二十一中,,,,21,6,9,33,,52,48,20,10,4,2,0.6,0.6
2024-07-02T0900,1402A,108.3141,22.8528,南宁市,北湖,,12,9,23,6,10,38,,50,47,13,9,4,3,0.6,0.6
2024-07-02T0900,1403A,108.3206,22.8225,南宁市,市监测站,,18,,22,12,11,32,,51,48,20,12,6,3,0.7,0.7
2024-07-02T0900,1404A,108.3829,22.8037,南宁市,大自然花园,,13,13,22,6,10,38,,52,49,13,7,4,5,0.5,0.5
2024-07-02T0900,1405A,108.4394,22.7904,南宁市,仙葫,,16,8,21,3,11,51,,60,58,14,12,5,5,0.2,0.2
2024-07-02T0900,1406A,108.2397,22.8467,南宁市,区农职院,,13,12,23,3,9,40,,52,48,8,9,5,6,0.6,0.6
2024-07-02T0900,1407A,108.3275,22.735,南宁市,英华嘉园,,12,,21,8,10,33,,44,42,18,15,5,5,0.6,0.5
2024-07-02T0900,1408A,108.2257,22.7757,南宁市,沙井镇街道办,,12,7,30,6,13,36,,34,33,13,14,2,2,0.5,0.5
2024-07-02T0900,3401A,108.4834,22.7618,南宁市,红星社区,,15,6,20,3,7,46,,52,50,6,6,4,4,0.6,0.7
2024-07-02T0900,2331A,118.0966,26.6761,南平市,茫荡山,,,,,,,,,,,,,,,,
2024-07-02T0900,2332A,118.1681,26.6369,南平市,南平市监测站,,14,14,16,7,6,38,,22,22,10,11,5,4,0.4,0.4
2024-07-02T0900,2333A,118.1825,26.6489,南平市,南平铝业有限公司,,12,10,23,6,7,38,,23,23,8,8,5,5,0.7,0.7
2024-07-02T0900,2334A,118.1756,26.6272,南平市,南平七中,,16,12,18,11,8,38,,20,20,9,8,5,4,0.5,0.5
2024-07-02T0900,1168A,120.9098,31.9663,南通市,狼山街道,,22,22,23,3,11,45,,38,38,13,19,10,10,0.6,0.7
2024-07-02T0900,1169A,120.86,32.0005,南通市,虹桥,,23,23,27,3,12,45,,44,42,20,26,6,6,0.8,0.8
2024-07-02T0900,1170A,120.87,32.02,南通市,城中,,26,26,28,6,14,52,,49,48,17,22,7,6,0.6,0.6
2024-07-02T0900,1171A,120.94,31.93,南通市,星湖花园,,16,16,20,7,12,49,,44,44,20,23,5,5,0.4,0.5
2024-07-02T0900,1172A,120.81,32.0417,南通市,紫琅学院,,17,17,18,7,10,49,,41,41,26,32,7,6,0.5,0.7
2024-07-02T0900,3291A,121.067,32.062,南通市,通州监测站,,34,34,31,7,16,59,,50,50,11,15,13,12,0.7,0.7
2024-07-02T0900,3432A,120.9348,31.9883,南通市,环境教育馆,,31,31,31,11,18,52,,51,51,28,29,9,9,0.5,0.6
2024-07-02T0900,2404A,112.5224,33.0122,南阳市,瓦房庄,,34,34,26,18,17,62,,70,66,25,13,4,4,0.7,0.6
2024-07-02T0900,2405A,112.5003,32.9735,南阳市,汉画馆,,39,36,29,27,23,45,,41,39,19,15,4,3,0.7,0.6
2024-07-02T0900,2406A,112.5573,33.027,南阳市,气象站,,28,28,21,17,12,60,,67,63,23,12,3,3,0.4,0.3
2024-07-02T0900,2407A,112.5481,32.9689,南阳市,理工学院,,32,28,25,22,17,47,,64,57,22,12,4,3,0.4,0.3
2024-07-02T0900,4008A,112.5234,32.9922,南阳市,卧龙区政府,,35,29,23,24,18,53,,54,50,22,14,3,3,0.9,0.8
2024-07-02T0900,1234A,121.8358,29.911,宁波市,区环保大楼,,26,26,41,17,17,52,,45,45,5,38,5,5,0.7,0.8
2024-07-02T0900,1235A,121.56,29.82,宁波市,万里学院,,27,27,30,11,15,49,,42,42,8,14,5,6,0.6,0.7
2024-07-02T0900,1236A,121.713,29.9572,宁波市,龙赛医院,,26,26,37,10,15,56,,46,46,5,36,4,6,0.2,0.3
2024-07-02T0900,1239A,121.633,29.7733,宁波市,钱湖水厂,,17,17,29,9,17,51,,42,42,6,8,5,5,0.5,0.5
2024-07-02T0900,1240A,121.5856,29.8635,宁波市,太古小学,,29,29,26,8,15,48,,40,40,2,8,4,4,0.6,0.7
2024-07-02T0900,1241A,121.524,29.8674,宁波市,市环境监测中心,,22,22,29,11,16,56,,45,45,9,17,4,4,0.6,0.7
2024-07-02T0900,2871A,121.6147,29.9017,宁波市,万里国际学校,,18,18,28,12,17,53,,42,42,5,19,4,4,0.2,0.3
2024-07-02T0900,3710A,121.5594,29.8975,宁波市,白沙活动中心,,30,30,29,8,18,54,,46,46,5,13,8,7,0.3,0.3
2024-07-02T0900,2339A,119.5001,26.6946,宁德市,金涵水库,,,,,,,,,,,,,,,,
2024-07-02T0900,2341A,119.5388,26.6612,宁德市,宁德市监测站,,24,24,25,8,12,45,,33,33,6,10,6,7,0.5,0.8
2024-07-02T0900,3209A,119.5231,26.6562,宁德市,宁德一中,,15,,21,7,10,47,,34,34,4,7,5,6,0.5,0.7
2024-07-02T0900,2618A,98.8601,25.8567,怒江傈僳族自治州,州监测站,,19,15,12,13,12,14,,17,16,8,7,11,11,0.6,0.6
2024-07-02T0900,2619A,98.8546,25.8417,怒江傈僳族自治州,泸水一中,,10,7,8,7,6,8,,11,10,9,10,5,5,0.5,0.5
2024-07-02T0900,1888A,101.6891,26.571,攀枝花市,弄弄坪,颗粒物(PM10),77,104,56,43,22,13,,7,7,34,24,32,18,1.4,0.8
2024-07-02T0900,1889A,101.5769,26.5928,攀枝花市,河门口,颗粒物(PM10),58,66,27,32,14,20,,16,15,29,22,22,18,1.6,1.4
2024-07-02T0900,1890A,101.7169,26.585,攀枝花市,炳草岗,颗粒物(PM10),64,77,50,33,22,11,,11,10,30,22,39,24,1.3,0.9
2024-07-02T0900,1891A,101.7369,26.5008,攀枝花市,仁和,,18,18,13,10,7,20,,18,16,15,11,7,7,0.5,0.3
2024-07-02T0900,2835A,101.7227,26.567,攀枝花市,四十中小,颗粒物(PM10),57,64,41,27,18,26,,15,15,27,18,56,27,1.6,0.9
2024-07-02T0900,1604A,122.0303,41.1489,盘锦市,开发区,细颗粒物(PM2.5),87,,52,64,43,72,,94,90,29,15,7,5,0.3,0.2
2024-07-02T0900,1605A,122.0485,41.0883,盘锦市,兴隆台,细颗粒物(PM2.5),77,72,54,56,40,67,,91,86,40,22,8,6,0.7,0.4
2024-07-02T0900,1606A,121.8297,41.1028,盘锦市,新生街道,细颗粒物(PM2.5),77,,49,56,44,71,,83,81,22,18,4,3,0.3,0.2
2024-07-02T0900,1832A,113.3257,33.742,平顶山市,新华旅馆,,38,,33,17,24,119,,103,103,8,8,5,5,0.6,0.7
2024-07-02T0900,1833A,113.2919,33.737,平顶山市,规划设计院,,36,10,24,9,16,113,,90,90,12,10,4,5,0.6,0.6
2024-07-02T0900,1834A,113.182,33.774,平顶山市,平顶山工学院,,32,16,28,7,14,102,,75,75,10,12,3,4,0.8,0.6
2024-07-02T0900,3204A,113.3025,33.73,平顶山市,规划局,,,,24,11,20,116,,92,92,11,13,4,4,0.4,0.5
2024-07-02T0900,3594A,112.8867,33.9116,平顶山市,石龙区,,41,,27,10,18,130,,103,103,3,12,7,5,0.3,0.2
2024-07-02T0900,2656A,106.6692,35.5461,平凉市,聚贤嘉苑,,43,43,60,18,17,65,,65,65,20,22,8,7,0.3,0.3
2024-07-02T0900,2657A,106.7021,35.5307,平凉市,博物馆,,40,40,36,17,17,67,,64,64,24,20,13,18,0.8,0.6
2024-07-02T0900,2347A,114.0997,27.5002,萍乡市,武功山,,,,7,,3,,,49,,,2,,11,,0.3
2024-07-02T0900,2348A,113.8385,27.6434,萍乡市,中医院,,20,,22,11,12,62,,42,42,14,12,6,3,1.2,1
2024-07-02T0900,2349A,113.8493,27.6253,萍乡市,市政府车库,,,5,17,,16,66,,46,46,7,12,10,9,0.6,0.9
2024-07-02T0900,2350A,113.8676,27.6435,萍乡市,市环保局,,,,24,,17,,,43,43,,11,,9,,0.8
2024-07-02T0900,2351A,113.866,27.6198,萍乡市,安源区政府,,21,8,27,3,9,66,,44,44,6,12,8,7,0.4,0.7
2024-07-02T0900,2319A,119.0141,25.4325,莆田市,荔城区仓后路,,17,17,31,3,8,44,,40,40,7,8,7,7,0.5,0.5
2024-07-02T0900,2320A,119.0015,25.4553,莆田市,莆田市监测站,,21,21,22,3,8,43,,33,33,4,6,9,9,0.4,0.5
2024-07-02T0900,2321A,119.1119,25.4561,莆田市,涵江区六中,,13,13,24,3,7,39,,33,33,6,9,10,10,0.5,0.5
2024-07-02T0900,2322A,119.1013,25.3215,莆田市,秀屿区政府,,,38,20,3,5,47,,41,41,2,7,,10,,0.6
2024-07-02T0900,2323A,118.981,25.4792,莆田市,东圳水库,,,,,,,,,,,,,,,,
2024-07-02T0900,2392A,115.0312,35.7636,濮阳市,环保局,,,,20,,25,,,95,95,7,10,6,6,0.4,0.4
2024-07-02T0900,2394A,115.0574,35.7609,濮阳市,油田运输公司,,33,31,34,22,26,103,,92,92,6,8,4,5,0.6,0.6
2024-07-02T0900,2395A,115.0866,35.7754,濮阳市,油田物探公司,,48,,31,33,32,100,,87,87,7,8,6,6,0.7,0.8
2024-07-02T0900,3021A,115,35.7668,濮阳市,濮水河管理处,,46,,23,32,27,86,,70,70,8,10,5,6,0.6,0.6
2024-07-02T0900,2601A,100.98,22.7633,普洱市,市环保局,,20,17,15,14,14,20,,20,20,5,6,4,4,0.4,0.4
2024-07-02T0900,2602A,100.9817,22.8322,普洱市,普洱第二中学,,23,23,15,9,12,14,,8,8,8,8,8,8,0.6,0.5
2024-07-02T0900,2262A,131.0518,45.8751,七台河市,新一中,细颗粒物(PM2.5),52,47,62,36,54,104,,83,83,8,8,10,10,0.2,0.7
2024-07-02T0900,3345A,131.0577,45.7879,七台河市,中波台,颗粒物(PM10),62,73,68,37,49,84,,54,54,23,24,12,11,0.4,0.5
2024-07-02T0900,3637A,131.0176,45.7761,七台河市,人民广场,颗粒物(PM10),56,62,76,34,56,77,,52,52,18,21,13,13,0.3,0.5
2024-07-02T0900,3684A,130.8781,45.8222,七台河市,新建矿广场,颗粒物(PM10),56,61,92,30,58,85,,42,42,16,23,8,8,0.3,0.4
2024-07-02T0900,1779A,123.9305,47.3636,齐齐哈尔市,安居小区,,,61,37,33,24,,,86,84,24,14,,6,0.5,0.4
2024-07-02T0900,1780A,123.9488,47.3386,齐齐哈尔市,中心广场,颗粒物(PM10),58,66,38,37,26,78,,81,77,23,14,10,10,0.5,0.3
2024-07-02T0900,1781A,123.9483,47.3227,齐齐哈尔市,农牧车辆厂,颗粒物(PM10),58,66,43,20,18,82,,78,75,16,13,10,8,0.3,0.2
2024-07-02T0900,1783A,123.945,47.2988,齐齐哈尔市,市环境监测站,细颗粒物(PM2.5),52,45,35,36,25,82,,85,82,17,12,8,7,0.4,0.3
2024-07-02T0900,3662A,123.6333,47.2075,齐齐哈尔市,富区青少年活动中心,,,71,49,35,20,,,76,76,14,15,6,6,0.5,0.5
2024-07-02T0900,2591A,107.9783,26.5747,黔东南苗族侗族自治州,市环境监测站,,20,20,15,13,9,26,,20,20,11,16,2,2,0.7,0.5
2024-07-02T0900,2881A,107.8908,26.5311,黔东南苗族侗族自治州,凯里学院,,26,26,14,11,8,26,,13,13,10,11,3,3,0.4,0.4
2024-07-02T0900,2593A,107.5228,26.2403,黔南布依族苗族自治州,小围寨,,14,14,8,3,2,34,,26,26,3,3,5,4,0.5,0.4
2024-07-02T0900,3538A,107.5175,26.2978,黔南布依族苗族自治州,沙坝,,,17,12,,3,22,,17,17,12,8,3,3,0.5,0.5
2024-07-02T0900,2589A,104.9022,25.0925,黔西南布依族苗族自治州,场坝街,,12,12,12,8,6,35,,54,49,13,8,8,4,0.4,0.3
2024-07-02T0900,2590A,104.8811,25.0992,黔西南布依族苗族自治州,坪东大道,,13,11,13,9,6,31,,38,35,11,8,4,4,0.3,0.3
2024-07-02T0900,2502A,108.6236,21.9667,钦州市,市环保站,,29,29,26,3,5,32,,43,40,14,10,5,6,0.6,0.5
2024-07-02T0900,2503A,108.6549,21.9481,钦州市,沙埠小学,,33,33,28,10,11,37,,51,48,10,7,4,4,0.8,0.7
2024-07-02T0900,2504A,108.5989,21.7431,钦州市,港区一小,,35,35,30,8,5,44,,52,50,6,5,7,7,0.5,0.5
2024-07-02T0900,3404A,108.5959,21.9633,钦州市,北职校,,26,26,29,14,9,30,,42,39,11,7,8,9,0.5,0.6
2024-07-02T0900,1042A,119.5134,39.8207,秦皇岛市,北戴河环保局,颗粒物(PM10),56,61,64,31,28,128,,132,132,16,12,4,4,0.4,0.4
2024-07-02T0900,1043A,119.7493,40.0116,秦皇岛市,第一关,颗粒物(PM10),59,68,61,38,35,113,,123,122,22,14,2,2,0.4,0.4
2024-07-02T0900,1044A,119.5897,39.9499,秦皇岛市,监测站,颗粒物(PM10),54,58,60,33,32,125,,127,127,19,13,5,5,0.5,0.5
2024-07-02T0900,1046A,119.5251,39.9041,秦皇岛市,建设大厦,,48,44,54,33,32,112,,113,113,18,14,3,3,0.3,0.2
2024-07-02T0900,3132A,119.610547,39.943889,秦皇岛市,文明里,,,,34,,14,,,95,,,9,,2,,0.4
2024-07-02T0900,1307A,120.6659,36.2403,青岛市,仰口,,35,,16,9,15,112,,88,88,1,2,4,5,0.3,0.3
2024-07-02T0900,1310A,120.4134,36.0658,青岛市,市南区东部子站,,29,6,13,3,4,90,,85,85,3,4,7,7,0.4,0.5
2024-07-02T0900,1311A,120.3664,36.1032,青岛市,四方区子站,,28,6,15,3,9,89,,84,83,14,11,9,9,0.5,0.5
2024-07-02T0900,1312A,120.2994,36.054,青岛市,市南区西部子站,,27,6,13,3,7,84,,85,83,7,3,7,7,0.6,0.6
2024-07-02T0900,1313A,120.4581,36.0858,青岛市,崂山区子站,,,7,16,3,8,95,,90,89,,9,7,9,0.4,0.5
2024-07-02T0900,1314A,120.1983,35.9608,青岛市,黄岛区子站,,31,6,15,3,13,98,,94,93,11,11,6,6,0.4,0.5
2024-07-02T0900,1315A,120.3999,36.3083,青岛市,城阳区子站,,33,,20,7,13,104,,88,88,8,12,7,8,0.3,0.5
2024-07-02T0900,1966A,120.0405,35.8735,青岛市,黄岛区4号,,32,7,14,3,8,102,,101,100,9,9,9,9,0.4,0.5
2024-07-02T0900,3362A,120.5014,36.4034,青岛市,即墨2号,,38,10,17,3,11,119,,97,97,5,6,6,7,0.4,0.4
2024-07-02T0900,3642A,120.3503,36.0736,青岛市,市北区南部,,30,6,14,3,7,93,,93,91,13,7,4,5,0.5,0.5
2024-07-02T0900,3643A,120.3948,36.1805,青岛市,李沧区北部,,33,,15,9,13,105,,81,81,10,17,9,10,0.3,0.4
2024-07-02T0900,1702A,113.0426,23.691,清远市,环保大楼,,22,21,21,15,10,28,,31,30,15,10,5,5,0.7,0.6
2024-07-02T0900,1703A,113.0208,23.7106,清远市,凤城街办,,32,32,27,12,13,22,,26,25,16,9,4,3,0.5,0.4
2024-07-02T0900,3025A,113.0477,23.6344,清远市,技师学院,,37,37,32,14,13,33,,37,36,20,11,4,4,0.7,0.7
2024-07-02T0900,3318A,112.9903,23.7403,清远市,清新太和,颗粒物(PM10),73,95,33,15,15,24,,26,24,14,8,6,7,0.6,0.5
2024-07-02T0900,3455A,113.076,23.7198,清远市,清城东城,,27,27,28,10,14,30,,30,29,9,6,5,5,0.4,0.4
2024-07-02T0900,2661A,107.6325,35.7357,庆阳市,庆阳五中,颗粒物(PM10),53,55,31,18,15,82,,93,91,24,11,4,4,0.5,0.3
2024-07-02T0900,2662A,107.6364,35.7067,庆阳市,市环保局,,44,44,31,22,15,70,,91,86,22,10,7,10,0.4,0.3
2024-07-02T0900,1916A,103.7897,25.5035,曲靖市,环境监测站,,35,35,16,18,7,39,,45,42,13,10,3,2,0.8,0.5
2024-07-02T0900,1917A,103.8,25.5364,曲靖市,烟厂办公区,,38,,12,26,8,40,,43,40,14,9,3,4,0.6,0.4
2024-07-02T0900,3376A,103.7947,25.462,曲靖市,南苑二区,,37,37,17,15,8,37,,37,34,15,10,4,6,0.8,0.6
2024-07-02T0900,3377A,103.7444,25.5261,曲靖市,曲靖师范学院,,39,33,15,27,10,44,,28,27,15,16,4,10,0.7,0.6
2024-07-02T0900,1264A,118.8692,28.9398,衢州市,环保大楼,,11,9,33,6,23,34,,24,24,10,18,4,4,0.3,0.4
2024-07-02T0900,1265A,118.8709,28.9666,衢州市,实验学校,,12,10,36,6,22,38,,21,21,11,18,6,5,0.2,0.3
2024-07-02T0900,1266A,118.8621,28.9808,衢州市,衢州学院,,13,10,34,6,19,41,,18,18,10,19,3,3,0.4,0.5
2024-07-02T0900,1611A,118.5819,24.9117,泉州市,涂山街,,25,25,26,8,9,36,,37,36,7,7,3,3,0.7,0.7
2024-07-02T0900,1612A,118.5972,24.8978,泉州市,津头埔,,24,24,24,7,9,34,,39,38,11,10,2,2,0.6,0.6
2024-07-02T0900,1613A,118.6663,24.9424,泉州市,万安,,19,19,22,7,9,32,,38,36,8,5,1,2,0.5,0.5
2024-07-02T0900,1614A,118.6117,24.9604,泉州市,清源山,,,,,,,,,,,,,,,,
2024-07-02T0900,3529A,118.6333,24.9264,泉州市,城华南路,,17,17,18,7,8,30,,34,33,10,9,2,2,0.4,0.4
2024-07-02T0900,2626A,88.8876,29.2718,日喀则市,日喀则监测站,,36,6,8,3,4,113,,133,130,7,5,5,5,0.4,0.4
2024-07-02T0900,3726A,88.8781,29.2426,日喀则市,林业技术推广中心,,33,10,9,3,2,104,,126,122,11,9,6,6,0.5,0.4
2024-07-02T0900,1659A,119.471,35.4209,日照市,监测站,,28,,20,3,17,88,,100,100,14,11,9,9,0.2,0.4
2024-07-02T0900,1660A,119.523,35.4216,日照市,市政府广场,,25,6,18,3,13,79,,95,95,9,5,8,8,0.4,0.5
2024-07-02T0900,1661A,119.5587,35.4044,日照市,港务局,,27,,24,3,11,85,,104,103,8,5,8,9,0.4,0.5
2024-07-02T0900,3507A,119.5328,35.4625,日照市,职业技术学院,,27,,19,3,16,85,,96,95,12,11,8,8,0.5,0.6
2024-07-02T0900,3604A,119.3266,35.1044,日照市,岚山环保分局,,24,9,27,7,19,74,,94,91,8,10,8,7,0.7,0.7
2024-07-02T0900,1835A,111.1922,34.7752,三门峡市,市政府,,31,31,32,18,19,49,,24,24,16,25,20,8,0.6,0.5
2024-07-02T0900,1836A,111.1587,34.7942,三门峡市,开发区,,27,27,39,14,21,56,,29,29,12,12,13,11,0.4,0.4
2024-07-02T0900,1838A,111.143,34.7955,三门峡市,风景区,,,,,,,,,,,,,,,,
2024-07-02T0900,3039A,111.1911,34.7829,三门峡市,三门峡市第一小学,,25,25,31,11,20,51,,30,30,14,21,18,8,0.7,0.6
2024-07-02T0900,3598A,111.1,34.7167,三门峡市,富达温泉假日酒店,,38,38,38,25,29,48,,24,24,20,21,18,14,0.6,0.6
2024-07-02T0900,2324A,117.6211,26.2625,三明市,三钢,,28,21,25,19,13,20,,12,12,16,13,12,13,1.3,1.1
2024-07-02T0900,2325A,117.635,26.2714,三明市,三明二中,,25,25,16,8,9,20,,12,12,14,10,10,9,1.1,0.7
2024-07-02T0900,2326A,117.6028,26.2378,三明市,三元区政府,,33,33,22,19,12,17,,9,8,16,12,5,4,0.8,0.4
2024-07-02T0900,2327A,117.7275,26.3108,三明市,洋溪,,,,,,,,,,,,,,,,
2024-07-02T0900,1876A,109.5078,18.2489,三亚市,河东子站,,23,21,17,9,7,73,,72,72,3,2,3,3,0.5,0.4
2024-07-02T0900,1877A,109.4964,18.2681,三亚市,河西子站,,22,17,17,6,8,69,,67,67,4,3,3,3,0.2,0.2
2024-07-02T0900,3540A,109.7348,18.3443,三亚市,君悦子站,,26,26,19,9,7,44,,27,27,8,9,2,3,0.6,0.4
2024-07-02T0900,2624A,91.7608,29.2313,山南市,山南监测站,,22,9,9,3,5,69,,72,72,10,5,6,5,0.2,0.2
2024-07-02T0900,2625A,91.7706,29.2436,山南市,山南人民医院,,23,8,12,6,6,73,,76,75,12,8,7,7,0.2,0.2
2024-07-02T0900,1674A,116.6794,23.3667,汕头市,金平子站,,13,10,19,6,8,39,,29,29,5,8,6,6,0.7,0.7
2024-07-02T0900,1675A,116.7244,23.3633,汕头市,龙湖子站,,13,13,20,3,7,29,,29,29,8,11,5,5,0.7,0.7
2024-07-02T0900,1676A,116.7258,23.2775,汕头市,濠江子站,,10,,12,7,8,30,,33,33,11,11,4,5,0.6,0.6
2024-07-02T0900,1677A,116.7519,23.4714,汕头市,澄海子站,,17,17,24,8,8,30,,31,31,7,9,4,4,0.7,0.7
2024-07-02T0900,1678A,116.6092,23.2539,汕头市,潮阳子站,,20,20,21,3,8,35,,33,33,4,4,5,4,0.5,0.5
2024-07-02T0900,3444A,116.454,23.2684,汕头市,潮南峡山,,16,16,20,3,7,37,,34,34,2,2,4,4,0.7,0.7
2024-07-02T0900,3624A,116.4069,23.2533,汕头市,潮南子站,,19,19,24,7,7,39,,37,37,1,2,6,6,0.7,0.7
2024-07-02T0900,1693A,115.3653,22.775,汕尾市,市环保局,,30,30,22,7,7,50,,46,46,6,6,5,5,0.6,0.5
2024-07-02T0900,1694A,115.3706,22.7898,汕尾市,市政府,,29,29,20,8,9,50,,48,48,2,2,7,6,0.7,0.7
2024-07-02T0900,1695A,115.3622,22.7925,汕尾市,新城中学,,21,21,22,8,9,47,,43,43,3,3,4,4,0.6,0.6
2024-07-02T0900,2645A,109.9154,33.8715,商洛市,监测站,,28,28,26,14,15,33,,18,18,7,10,5,5,0.6,0.6
2024-07-02T0900,3045A,109.9643,33.8471,商洛市,商州区中学,,29,29,22,8,11,30,,17,17,12,13,4,4,0.6,0.6
2024-07-02T0900,2408A,115.6702,34.4285,商丘市,环境监测站,,30,25,34,20,18,93,,127,119,6,4,8,8,0.6,0.5
2024-07-02T0900,2409A,115.6458,34.4045,商丘市,粮食局,,32,25,27,22,16,98,,130,123,8,7,5,4,0.5,0.4
2024-07-02T0900,2410A,115.6293,34.3948,商丘市,睢阳区环保局,,38,32,39,26,22,100,,139,130,6,4,4,4,0.5,0.5
2024-07-02T0900,3171A,115.6071,34.4465,商丘市,梁园区档案局,,40,38,33,28,22,90,,121,114,8,7,7,8,0.6,0.5
2024-07-02T0900,1141A,121.4,31.238,上海市,普陀,,22,22,33,8,29,57,,44,44,12,21,5,6,0.3,0.4
2024-07-02T0900,1142A,121.478,31.2036,上海市,十五厂,,19,19,32,12,24,54,,45,45,13,25,7,7,0.4,0.5
2024-07-02T0900,1143A,121.467,31.3008,上海市,虹口,,26,23,33,18,29,50,,46,44,14,21,6,6,0.6,0.7
2024-07-02T0900,1144A,121.412,31.1654,上海市,徐汇上师大,,28,25,35,19,26,57,,41,41,16,26,6,6,0.6,0.7
2024-07-02T0900,1145A,121.536,31.2659,上海市,杨浦四漂,,22,22,30,13,24,58,,48,48,11,23,6,7,0.7,0.8
2024-07-02T0900,1147A,121.425,31.2261,上海市,静安监测站,,23,23,33,15,26,52,,43,42,14,21,6,7,0.5,0.6
2024-07-02T0900,1148A,121.703,31.1907,上海市,浦东川沙,,28,25,34,19,29,59,,46,46,11,28,6,6,0.6,0.7
2024-07-02T0900,1149A,121.533,31.2284,上海市,浦东新区监测站,,19,18,30,13,23,52,,44,44,13,22,4,4,0.5,0.6
2024-07-02T0900,1150A,121.577,31.2071,上海市,浦东张江,,32,,30,22,28,50,,43,43,13,23,5,5,0.8,0.9
2024-07-02T0900,3265A,121.4316,31.3322,上海市,宝山庙行,,22,22,29,15,21,60,,54,52,12,18,8,9,0.6,0.7
2024-07-02T0900,3266A,121.8791,31.4662,上海市,崇明上实东滩,,17,17,26,9,15,53,,40,40,10,23,8,8,0.5,0.5
2024-07-02T0900,3268A,121.3162,31.2838,上海市,嘉定南翔,,29,20,31,20,26,44,,37,36,20,27,5,5,0.5,0.6
2024-07-02T0900,3269A,121.3359,30.7456,上海市,金山新城,,19,19,32,12,23,57,,47,47,10,16,7,8,0.4,0.5
2024-07-02T0900,3270A,121.4996,31.0739,上海市,闵行浦江,,22,22,30,14,25,55,,45,45,10,18,5,5,0.3,0.5
2024-07-02T0900,3271A,121.2886,31.1663,上海市,青浦徐泾,,22,18,29,15,29,50,,42,40,14,22,5,5,0.4,0.5
2024-07-02T0900,3272A,121.2186,31.0378,上海市,松江图书馆,,23,17,29,16,28,54,,43,43,14,20,5,5,0.5,0.6
2024-07-02T0900,3273A,121.3902,31.2059,上海市,长宁仙霞,,22,21,32,15,22,52,,45,44,19,24,6,5,0.6,0.6
2024-07-02T0900,3274A,121.7965,31.0507,上海市,浦东惠南,,23,23,35,14,24,49,,40,40,10,35,7,7,0.5,0.6
2024-07-02T0900,3544A,121.4891,30.925,上海市,奉贤南桥新城,,20,16,27,14,23,54,,42,42,11,22,5,5,0.5,0.6
2024-07-02T0900,2381A,118.005,28.4572,上饶市,百草园,,32,32,30,18,15,2,,12,10,12,12,5,8,1.0,1
2024-07-02T0900,2382A,117.9756,28.4436,上饶市,市监测站,,44,44,35,16,16,16,,10,10,14,14,5,10,0.8,0.7
2024-07-02T0900,2383A,117.9519,28.4628,上饶市,凤凰光学,,33,33,26,20,15,5,,3,2,16,13,10,11,0.9,0.8
2024-07-02T0900,3413A,118.1953,28.4401,上饶市,广丰区教体局,,,,23,15,12,,,42,42,,7,,7,,0.4
2024-07-02T0900,3685A,117.897,28.4315,上饶市,双创科技城,,44,44,31,19,12,5,,3,2,21,12,4,9,0.8,0.5
2024-07-02T0900,1669A,113.5824,24.7733,韶关市,市八中,,11,6,27,3,14,35,,44,42,6,5,6,8,0.5,0.4
2024-07-02T0900,1671A,113.5917,24.7972,韶关市,园林处,,13,,22,8,11,41,,45,45,7,6,7,7,0.7,0.6
2024-07-02T0900,1672A,113.6735,24.7791,韶关市,韶关学院,,13,8,22,6,12,41,,47,45,11,8,8,9,0.4,0.4
2024-07-02T0900,1673A,113.5971,24.6863,韶关市,曲江监测站,,13,8,27,3,11,40,,38,37,6,7,6,7,0.5,0.5
2024-07-02T0900,3622A,113.5556,24.8082,韶关市,碧湖山庄,,14,14,26,7,12,34,,40,37,8,6,9,9,0.3,0.3
2024-07-02T0900,2462A,111.5239,27.3033,邵阳市,市水土所,,29,11,15,3,9,91,,87,87,1,2,6,6,0.6,0.5
2024-07-02T0900,2463A,111.4733,27.2317,邵阳市,市一中,,29,,17,11,9,92,,90,90,7,7,7,10,0.5,0.4
