timepoint,stationcode,longitude,latitude,area,positionname,primarypollutant,aqi,pm10,pm10_24h,pm2_5,pm2_5_24h,o3,o3_24h,o3_8h,o3_8h_24h,no2,no2_24h,so2,so2_24h,co,co_24h
2024-07-02T1400,2566A,102.1879,31.914,阿坝藏族羌族自治州,州农科所,,24,18,28,3,11,76,,54,54,19,13,5,4,0,0
2024-07-02T1400,2568A,102.2502,31.8896,阿坝藏族羌族自治州,马师校,,29,19,16,16,15,91,,57,57,17,15,4,4,0.4,0.3
2024-07-02T1400,3994A,102.2165,31.9024,阿坝藏族羌族自治州,马尔康中学西区,,29,13,17,6,12,90,,60,60,10,8,5,5,0.2,0.2
2024-07-02T1400,2695A,80.292,41.1694,阿克苏地区,电视台,颗粒物(PM10),145,240,52,27,11,104,,110,88,8,10,10,10,0.3,0.3
2024-07-02T1400,2696A,80.2613,41.1551,阿克苏地区,艺术中心,颗粒物(PM10),131,211,49,23,14,107,,105,80,12,13,3,3,0.3,0.3
2024-07-02T1400,2204A,105.6467,38.8363,阿拉善盟,西城区西花园,,50,16,36,9,20,158,,132,132,6,10,8,8,0.5,0.6
2024-07-02T1400,2205A,105.6985,38.8411,阿拉善盟,蒙二幼,,,14,34,3,21,143,,125,125,5,7,10,10,,
2024-07-02T1400,2206A,105.724,38.8516,阿拉善盟,环保局新楼,,46,7,35,3,18,145,,132,132,4,7,13,11,0.4,0.5
2024-07-02T1400,2708A,88.1264,47.8517,阿勒泰地区,市站,,30,20,21,8,7,94,,77,77,11,12,6,6,0.6,0.6
2024-07-02T1400,2630A,80.1161,32.5,阿里地区,阿里监测站,,42,9,12,3,7,132,,120,111,3,8,6,7,0.4,0.4
2024-07-02T1400,3192A,80.0903,32.5028,阿里地区,阿里藏医院,,43,14,14,3,4,135,,130,126,3,4,8,8,0.4,0.4
2024-07-02T1400,2642A,109.0318,32.6537,安康市,香溪洞,,36,27,12,7,4,114,,72,72,5,4,7,6,0.6,0.6
2024-07-02T1400,2643A,109.0281,32.6939,安康市,安康市监测站,,39,26,22,12,10,122,,73,73,4,7,7,7,0.3,0.4
2024-07-02T1400,2644A,109.0072,32.6975,安康市,汉滨区检察院,,37,22,18,15,7,118,,69,69,4,5,7,6,0.5,0.5
2024-07-02T1400,2291A,117.0809,30.5177,安庆市,环科院,,32,6,8,3,6,101,,85,85,10,12,4,4,0.6,0.5
2024-07-02T1400,2292A,117.0331,30.5119,安庆市,马山宾馆,,29,,9,8,6,92,,83,83,20,16,7,7,0.7,0.6
2024-07-02T1400,2294A,116.9896,30.6145,安庆市,安庆大学,,32,6,10,3,6,100,,77,77,12,13,6,7,0.7,0.5
2024-07-02T1400,3173A,117.0598,30.5351,安庆市,市人大,,31,,9,6,6,97,,84,84,10,10,6,6,0.5,0.4
2024-07-02T1400,3122A,105.9606,26.2611,安顺市,伍家关,,,,,,,,,,,,,,,,
2024-07-02T1400,3123A,105.9408,26.2431,安顺市,凤凰山,,40,11,19,3,14,127,,69,69,3,12,8,9,0.1,0.3
2024-07-02T1400,3124A,105.9439,26.2564,安顺市,金钟山,,41,,17,27,33,131,,78,78,3,8,5,7,0.4,0.5
2024-07-02T1400,3125A,105.8983,26.2481,安顺市,娄家坡,,39,18,21,11,9,123,,74,74,3,10,4,6,0.3,0.5
2024-07-02T1400,1818A,114.4839,36.0621,安阳市,棉研所,,,,,,,,,,,,,,,,
2024-07-02T1400,1819A,114.3551,36.1017,安阳市,红庙街,细颗粒物(PM2.5),52,37,22,36,20,131,,119,119,2,3,1,2,0.3,0.4
2024-07-02T1400,1820A,114.361,36.0681,安阳市,银杏小区,,,34,20,26,14,130,,118,118,,2,6,6,0.6,0.7
2024-07-02T1400,3141A,114.3922,36.0878,安阳市,信访局,,42,31,19,26,16,133,,121,121,2,2,3,3,0.9,0.9
2024-07-02T1400,3669A,114.4705,36.0637,安阳市,左辅环卫站,细颗粒物(PM2.5),57,,24,40,23,133,,121,121,4,4,2,2,0.8,0.7
2024-07-02T1400,3703A,114.2917,36.0949,安阳市,安钢职工学校,细颗粒物(PM2.5),77,,28,56,40,121,,109,109,13,14,8,5,0.9,0.8
2024-07-02T1400,1748A,123.044,41.1196,鞍山市,深沟寺,细颗粒物(PM2.5),64,75,67,46,43,52,,64,56,32,29,5,5,1.2,0.7
2024-07-02T1400,1749A,123.011,41.0931,鞍山市,太阳城,细颗粒物(PM2.5),65,60,59,47,39,50,,82,67,37,24,7,8,1.9,1
2024-07-02T1400,1750A,123.0485,41.1442,鞍山市,太平,,,114,93,47,50,54,,46,46,42,41,,10,1.4,0.9
2024-07-02T1400,1751A,122.9642,41.0971,鞍山市,铁西三道街,细颗粒物(PM2.5),97,103,83,72,52,42,,58,55,58,42,5,13,2.7,1.5
2024-07-02T1400,1752A,122.9341,41.0833,鞍山市,铁西工业园区,细颗粒物(PM2.5),69,79,98,50,65,34,,29,25,65,51,6,15,2.4,2
2024-07-02T1400,1753A,123.022,41.0821,鞍山市,明达新区,颗粒物(PM10),53,55,71,36,65,66,,89,74,26,21,6,8,1.3,0.7
2024-07-02T1400,1754A,123.1289,41.0228,鞍山市,千山,,,,,,,,,,,,,,,,
2024-07-02T1400,2195A,107.4212,40.761,巴彦淖尔市,附二中,,,,41,16,20,145,,111,111,1,11,3,4,0.5,0.5
2024-07-02T1400,2196A,107.37,40.7372,巴彦淖尔市,市环保大楼,,47,26,46,8,17,149,,108,108,3,13,5,5,0.4,0.5
2024-07-02T1400,1956A,86.1472,41.7538,巴音郭楞蒙古自治州,孔雀公园,,45,45,67,15,23,96,,82,82,9,15,3,4,0.2,0.2
2024-07-02T1400,1957A,86.1972,41.7166,巴音郭楞蒙古自治州,棉纺厂,,45,45,58,17,21,95,,83,79,10,16,4,5,0.1,0.2
2024-07-02T1400,1958A,86.2357,41.7173,巴音郭楞蒙古自治州,经济开发区,,34,33,50,22,24,107,,101,100,6,6,3,3,0.2,0.2
2024-07-02T1400,2914A,106.7677,31.8794,巴中市,苏山坪,,35,18,13,12,9,112,,86,86,5,6,4,4,0.4,0.4
2024-07-02T1400,3182A,106.7656,31.8545,巴中市,丽阳花园,,36,21,21,16,12,115,,80,80,6,15,6,6,0.4,0.4
2024-07-02T1400,3183A,106.7418,31.8654,巴中市,圣泉水务公司,,36,17,20,11,12,115,,78,78,6,17,5,5,0.4,0.4
2024-07-02T1400,3616A,106.7616,31.8344,巴中市,市中心医院,,37,20,19,11,12,116,,74,74,4,13,6,6,0.4,0.5
2024-07-02T1400,2235A,122.7911,45.6077,白城市,洮北区环保局,,38,35,42,15,28,121,,99,99,7,18,3,2,0.1,0.2
2024-07-02T1400,2236A,122.8738,45.5725,白城市,市环保局,,40,29,34,18,25,125,,103,103,6,22,4,5,0.3,0.3
2024-07-02T1400,2231A,126.4219,41.9171,白山市,喜丰,,29,23,63,6,24,90,,69,69,2,15,8,10,1.1,1.1
2024-07-02T1400,2232A,126.4077,41.9419,白山市,环保局,,26,16,47,15,26,83,,68,68,3,10,9,10,0.9,0.9
2024-07-02T1400,2647A,104.1724,36.5446,白银市,第三小学,,45,14,34,13,19,142,,93,93,6,25,9,15,0.6,0.8
2024-07-02T1400,2648A,104.1465,36.5482,白银市,动力公司,,44,18,27,9,15,139,,92,92,5,15,9,10,0.3,0.5
2024-07-02T1400,2512A,106.6103,23.9011,百色市,市监测站,,32,24,25,10,14,102,,61,60,9,9,6,4,0.8,0.8
2024-07-02T1400,2513A,106.6538,23.8859,百色市,市中心血站,,40,40,30,21,18,99,,61,61,18,15,40,8,1.0,0.8
2024-07-02T1400,3406A,106.6085,23.8798,百色市,祈福高中,,30,10,28,9,14,93,,60,60,7,10,7,6,0.8,0.8
2024-07-02T1400,2270A,117.396,32.939,蚌埠市,工人疗养院,,47,35,23,16,9,148,,111,111,2,2,7,7,0.4,0.4
2024-07-02T1400,2271A,117.3605,32.9427,蚌埠市,百货大楼,,50,37,25,26,15,157,,117,117,2,3,5,5,0.5,0.5
2024-07-02T1400,2273A,117.4185,32.8911,蚌埠市,蚌埠学院,,,,12,24,12,155,,117,117,2,2,6,6,0.5,0.5
2024-07-02T1400,2274A,117.3533,32.9673,蚌埠市,淮上区政府,,49,36,20,25,19,155,,115,115,2,3,6,5,0.4,0.4
2024-07-02T1400,2275A,117.3145,32.8977,蚌埠市,高新区,,50,29,19,23,12,157,,116,116,2,4,5,5,0.5,0.5
2024-07-02T1400,3715A,117.3092,32.9314,蚌埠市,蚌埠田家炳中学,,49,37,22,22,13,155,,115,115,2,2,6,6,0.4,0.3
2024-07-02T1400,1585A,109.8756,40.6532,包头市,市环境监测站,,,63,22,40,10,146,,81,,,17,,8,1.8,0.7
2024-07-02T1400,1587A,109.9991,40.5842,包头市,包头八中,,45,40,24,16,12,144,,121,121,14,17,13,12,0.5,0.5
2024-07-02T1400,1588A,109.8538,40.6821,包头市,青山宾馆,颗粒物(PM10),54,57,18,25,10,148,,98,98,28,18,29,13,1.7,0.8
2024-07-02T1400,1589A,109.8642,40.6288,包头市,惠龙物流,颗粒物(PM10),59,68,38,20,24,155,,109,109,26,17,34,18,1.6,0.6
2024-07-02T1400,1590A,110.0377,40.5546,包头市,东河鸿龙湾,,46,34,21,17,9,146,,129,129,10,13,11,10,0.7,0.7
2024-07-02T1400,3283A,109.9154,40.5685,包头市,滨河大厦,,49,39,20,27,10,156,,124,124,12,17,24,14,1.2,0.7
2024-07-02T1400,3419A,109.9447,40.6261,包头市,包头市委党校,,47,37,19,19,9,149,,110,110,15,16,20,14,0.7,0.5
2024-07-02T1400,3683A,109.8331,40.6576,包头市,昆区政府,,,69,21,44,13,142,,92,,32,18,,12,1.7,0.4
2024-07-02T1400,1930A,107.185,34.3063,宝鸡市,庙沟村,,42,29,24,15,12,132,,76,76,6,7,10,9,0.4,0.3
2024-07-02T1400,1931A,107.0708,34.3017,宝鸡市,竹园沟,,47,27,25,17,12,150,,86,86,10,12,9,8,0.4,0.3
2024-07-02T1400,1932A,107.1906,34.3672,宝鸡市,三陆医院,,50,48,35,21,16,159,,81,81,12,21,12,9,0.5,0.5
2024-07-02T1400,1933A,107.1431,34.3547,宝鸡市,监测站,,50,37,24,18,17,160,,84,84,14,15,12,8,0.5,0.4
2024-07-02T1400,1934A,107.1186,34.3739,宝鸡市,技工学校,臭氧1小时,58,43,31,24,16,166,,92,92,14,13,12,7,0.5,0.5
2024-07-02T1400,1935A,107.3906,34.3528,宝鸡市,陈仓区环保局家属楼,,49,26,27,14,15,154,,84,84,10,17,7,11,0.4,0.5
2024-07-02T1400,1936A,107.2058,34.3497,宝鸡市,文理学院,,49,43,28,10,12,154,,84,84,11,17,11,8,0.5,0.4
2024-07-02T1400,1937A,107.2386,34.3622,宝鸡市,三迪小学,,50,46,31,18,17,158,,81,81,14,17,12,8,0.5,0.5
2024-07-02T1400,1051A,115.493,38.8632,保定市,游泳馆,,40,37,40,28,28,107,,94,94,2,3,9,8,0.2,0.3
2024-07-02T1400,1052A,115.5213,38.8959,保定市,华电二区,,35,24,37,7,15,109,,107,106,2,6,5,3,0.4,0.5
2024-07-02T1400,1053A,115.4713,38.9108,保定市,接待中心,,43,39,44,30,30,108,,99,99,2,4,4,3,0.4,0.5
2024-07-02T1400,1054A,115.4612,38.8416,保定市,地表水厂,,48,46,51,33,35,114,,99,99,2,6,1,2,0.5,0.6
2024-07-02T1400,3581A,115.31981,38.95208,保定市,满城区生态环境分局,,36,27,34,22,24,113,,102,100,2,3,2,2,0.3,0.4
2024-07-02T1400,3582A,115.47694,38.76408,保定市,清苑区第二中学,,39,39,48,27,33,115,,98,98,5,10,5,4,0.4,0.5
2024-07-02T1400,3583A,115.62909,39.02311,保定市,徐水物探局,,35,35,32,22,24,105,,95,95,1,5,4,4,0.2,0.4
2024-07-02T1400,4004A,115.4202,38.8656,保定市,双鹰农机,,40,39,36,28,27,119,,105,105,3,8,4,3,0.1,0.3
2024-07-02T1400,4034A,115.5150,38.8590,保定市,植保所站,,,,36,,32,118,,110,110,3,6,2,3,0.2,0.4
2024-07-02T1400,2594A,99.1678,25.1081,保山市,市环境监测站,,,,17,,9,,,27,,,12,,4,,0.5
2024-07-02T1400,2595A,99.1711,25.1328,保山市,市环保局,,25,,17,17,9,48,,31,31,6,8,5,4,0.4,0.5
2024-07-02T1400,1866A,109.2262,21.588,北海市,牛尾岭水库,,,,,,,,,,,,,,,,
2024-07-02T1400,1867A,109.1436,21.4086,北海市,海滩公园,,48,48,39,7,4,61,,58,58,3,3,3,3,0.6,0.6
2024-07-02T1400,1868A,109.0981,21.4661,北海市,新市环保局,,22,22,23,3,6,62,,59,59,3,3,5,4,0.5,0.5
2024-07-02T1400,1869A,109.1778,21.5233,北海市,北海工业园,,20,20,25,7,8,62,,56,56,4,4,4,4,0.5,0.4
2024-07-02T1400,3400A,109.1911,21.4415,北海市,龙潭自来水厂,,28,28,23,3,9,62,,57,57,2,3,6,5,0.4,0.5
2024-07-02T1400,1001A,116.3621,39.8784,北京市,万寿西宫,,34,20,38,15,27,108,,90,90,7,14,3,3,0.4,0.6
2024-07-02T1400,1002A,116.2202,40.2915,北京市,定陵,,30,28,32,21,21,85,,54,54,9,13,3,3,0.4,0.5
2024-07-02T1400,1003A,116.4174,39.9289,北京市,东四,,32,20,36,15,29,102,,79,79,10,17,5,3,0.4,0.7
2024-07-02T1400,1004A,116.4072,39.8863,北京市,天坛,,30,28,54,14,25,95,,79,79,8,16,3,3,0.3,0.5
2024-07-02T1400,1005A,116.462,39.9365,北京市,农展馆,,33,17,37,11,27,105,,78,78,6,17,3,3,0.3,0.5
2024-07-02T1400,1006A,116.3392,39.9295,北京市,官园,,35,21,38,13,31,110,,90,90,11,18,4,3,0.2,0.5
2024-07-02T1400,1007A,116.2878,39.9611,北京市,海淀万柳,,30,23,35,18,28,96,,74,74,9,15,5,5,0.3,0.4
2024-07-02T1400,1008A,116.6636,40.135,北京市,顺义新城,,34,23,39,14,23,107,,80,80,4,15,1,3,0.3,0.5
2024-07-02T1400,1009A,116.6275,40.3275,北京市,怀柔镇,,35,30,28,20,17,111,,76,76,3,4,4,2,0.2,0.3
2024-07-02T1400,1010A,116.2296,40.217,北京市,昌平镇,,32,31,38,22,27,73,,56,56,6,15,1,3,0.3,0.4
2024-07-02T1400,1011A,116.3966,39.9821,北京市,奥体中心,,28,22,37,14,29,88,,65,65,12,22,5,4,0.3,0.5
2024-07-02T1400,1012A,116.184,39.9136,北京市,古城,,32,29,39,21,24,102,,82,82,10,14,1,1,0.4,0.5
2024-07-02T1400,3281A,115.9718,40.4529,北京市,延庆夏都,,30,30,28,19,20,79,,73,73,6,8,3,3,0.4,0.4
2024-07-02T1400,3417A,117.0709,40.1465,北京市,平谷新城,,31,24,37,18,26,99,,61,61,8,15,3,3,0.3,0.4
2024-07-02T1400,3418A,116.8336,40.4095,北京市,密云新城,,38,31,26,23,16,121,,94,94,7,9,2,3,0.3,0.4
2024-07-02T1400,3671A,116.088,39.9726,北京市,门头沟三家店,,,,,,,,,,,,,,,,
2024-07-02T1400,3672A,116.1541,39.8204,北京市,丰台云岗,,30,28,36,21,24,62,,56,56,6,9,1,4,0.5,0.6
2024-07-02T1400,3673A,116.6804,39.9081,北京市,通州东关,,33,21,42,14,31,105,,62,62,4,15,1,3,0.3,0.6
2024-07-02T1400,3674A,115.9577,39.7603,北京市,房山燕山,,29,18,30,16,24,92,,97,97,1,4,1,2,0.3,0.5
2024-07-02T1400,3675A,116.4672,39.7733,北京市,大兴旧宫,,31,18,37,13,29,99,,62,62,6,17,3,3,0.4,0.6
2024-07-02T1400,3694A,115.986,40.4563,北京市,延庆石河营,,28,25,29,19,20,67,,65,65,2,6,3,3,0.4,0.4
2024-07-02T1400,3695A,116.6151,40.3053,北京市,怀柔新城,,35,31,26,22,18,109,,81,81,6,5,1,3,0.4,0.5
2024-07-02T1400,3696A,116.2545,39.8768,北京市,丰台小屯,,29,23,35,17,25,91,,61,61,6,8,3,3,0.4,0.5
2024-07-02T1400,3697A,116.84,40.3844,北京市,密云镇,,37,32,31,24,19,117,,88,88,8,15,2,2,0.3,0.4
2024-07-02T1400,1761A,123.8275,41.3064,本溪市,大峪,,42,42,38,19,17,82,,73,73,16,18,9,9,0.8,0.7
2024-07-02T1400,1762A,123.7567,41.3325,本溪市,溪湖,,44,44,41,15,20,75,,71,71,15,22,6,5,0.7,0.7
2024-07-02T1400,1763A,123.7169,41.3094,本溪市,彩屯,,33,33,41,18,24,74,,63,63,25,28,8,8,0.7,0.8
2024-07-02T1400,1764A,123.7669,41.2864,本溪市,东明,颗粒物(PM10),51,51,54,20,20,79,,68,68,24,28,7,8,0.8,0.7
2024-07-02T1400,1765A,123.7992,41.2664,本溪市,新立屯,,50,50,33,13,14,77,,74,74,13,21,5,5,0.9,0.7
2024-07-02T1400,1766A,123.8142,41.3472,本溪市,威宁,,36,36,51,18,24,78,,40,,12,23,8,8,0.8,0.7
2024-07-02T1400,2587A,105.2864,27.3125,毕节市,八中,,41,11,16,3,10,130,,73,73,6,11,7,6,0.3,0.4
2024-07-02T1400,2588A,105.31,27.2944,毕节市,师专,,38,13,18,8,12,121,,63,63,5,12,8,5,0.4,0.5
2024-07-02T1400,3537A,105.3631,27.3533,毕节市,长征村,,43,6,18,3,11,137,,76,76,7,9,6,6,0.3,0.3
2024-07-02T1400,1629A,118.0018,37.3617,滨州市,第二水厂,,40,,51,24,47,125,,109,109,5,9,1,1,0.4,0.5
2024-07-02T1400,1630A,117.9776,37.393,滨州市,北中新校,,37,22,57,14,43,118,,103,103,4,8,3,3,0.3,0.5
2024-07-02T1400,3514A,117.9378,37.3956,滨州市,中海酒店,,42,24,59,17,46,132,,116,116,8,11,3,3,0.3,0.4
2024-07-02T1400,3515A,117.9378,37.3553,滨州市,开发区一中,,37,17,58,14,47,118,,102,102,6,10,5,4,0.5,0.7
2024-07-02T1400,3516A,118.0917,37.694,滨州市,金海六路,,35,15,56,9,39,110,,113,113,6,8,4,6,0.4,0.5
2024-07-02T1400,4028A,117.9956,37.3753,滨州市,滨州市西街道办事处,,40,,49,19,48,126,,110,110,5,8,3,2,0.4,0.6
2024-07-02T1400,2311A,115.8072,33.8399,亳州市,污水处理厂,,38,20,23,19,19,120,,124,114,4,4,2,2,0.6,0.6
2024-07-02T1400,2312A,115.7789,33.8518,亳州市,三国揽胜宫,,37,21,26,16,20,118,,123,112,5,5,2,2,0.5,0.5
2024-07-02T1400,3332A,115.7633,33.8034,亳州市,亳州学院,,40,,24,20,19,126,,130,116,3,5,3,3,0.7,0.7
2024-07-02T1400,2693A,82.0485,44.8556,博尔塔拉蒙古自治州,市党校,,33,10,21,10,9,104,,94,94,9,9,10,10,0.3,0.3
2024-07-02T1400,2694A,82.0806,44.8969,博尔塔拉蒙古自治州,市环保局,,31,19,27,10,10,98,,90,90,16,14,8,7,0.3,0.4
2024-07-02T1400,1071A,116.8842,38.2991,沧州市,沧县城建局,细颗粒物(PM2.5),55,43,56,39,40,124,,115,115,9,17,2,2,0.4,0.6
2024-07-02T1400,1072A,116.8584,38.3254,沧州市,电视转播站,,46,46,56,31,39,118,,111,111,18,23,3,3,0.5,0.6
2024-07-02T1400,1073A,116.8709,38.3228,沧州市,市环保局,,50,36,56,35,40,117,,111,111,11,16,3,2,0.5,0.5
2024-07-02T1400,3324A,116.8136,38.3004,沧州市,河北水利电力学院,,48,,48,33,47,121,,120,120,7,11,3,3,0.6,0.7
2024-07-02T1400,2622A,97.1806,31.1273,昌都市,昌都监测站,,38,16,19,3,8,119,,72,72,3,16,7,7,0.4,0.5
2024-07-02T1400,3719A,97.1714,31.1406,昌都市,昌都会议中心,,42,9,14,3,8,134,,88,88,5,7,5,6,0.3,0.3
2024-07-02T1400,2690A,88.1236,43.8886,昌吉回族自治州,天山天池,,38,38,26,17,9,85,,76,76,11,8,4,4,0.6,0.6
2024-07-02T1400,2692A,87.2717,44.0297,昌吉回族自治州,新区政务中心,,30,29,49,10,11,95,,90,90,7,8,8,8,0.5,0.5
2024-07-02T1400,3613A,87.3095,44.0142,昌吉回族自治州,亚心广场,,29,27,60,3,8,90,,87,87,4,5,8,7,0.3,0.2
2024-07-02T1400,1119A,125.3325,43.9166,长春市,食品厂,臭氧1小时,55,33,69,26,48,164,,108,108,9,36,9,7,0.6,0.7
2024-07-02T1400,1120A,125.2863,43.9027,长春市,客车厂,,50,43,72,22,47,157,,106,106,14,43,6,4,0.4,0.5
2024-07-02T1400,1121A,125.2841,43.8463,长春市,邮电学院,,49,38,63,30,45,154,,103,103,12,30,10,8,0.4,0.5
2024-07-02T1400,1122A,125.3716,43.8772,长春市,劳动公园,臭氧1小时,54,44,77,24,41,163,,103,103,15,42,8,7,0.6,0.6
2024-07-02T1400,1123A,125.3297,43.8805,长春市,园林处,,50,37,65,25,52,159,,105,105,14,39,9,7,0.4,0.5
2024-07-02T1400,1124A,125.4605,43.79,长春市,净月潭,,41,28,50,19,30,130,,111,111,7,11,5,6,0.4,0.4
2024-07-02T1400,1125A,125.7194,43.515,长春市,甩湾子,,,,,,,,,,,,,,,,
2024-07-02T1400,1126A,125.3863,43.8447,长春市,经开区环卫处,臭氧1小时,57,45,74,28,41,165,,109,109,15,47,8,6,0.4,0.5
2024-07-02T1400,1127A,125.245,43.7783,长春市,高新区管委会,,47,35,73,28,43,148,,106,106,11,37,7,6,0.3,0.5
2024-07-02T1400,1128A,125.1761,43.8325,长春市,岱山公园,,46,32,63,24,44,145,,104,104,12,44,5,5,0.4,0.6
2024-07-02T1400,1335A,113.0833,28.2325,长沙市,经开区环保局,,45,28,21,27,16,142,,106,106,6,8,4,4,0.4,0.4
2024-07-02T1400,1336A,112.8872,28.2189,长沙市,高开区环保局,,40,23,21,11,12,126,,106,106,7,7,4,4,0.6,0.7
2024-07-02T1400,1337A,113.0792,28.2053,长沙市,马坡岭,,45,29,22,12,10,143,,108,108,5,7,7,7,0.5,0.6
2024-07-02T1400,1338A,112.9394,28.19,长沙市,湖南师范大学,,43,26,24,18,15,136,,109,109,3,6,5,5,0.6,0.6
2024-07-02T1400,1339A,113.0178,28.1322,长沙市,雨花区环保局,,42,32,21,13,12,133,,109,109,3,5,2,2,0.5,0.5
2024-07-02T1400,1340A,112.9792,28.2597,长沙市,伍家岭,,44,25,27,6,8,140,,106,106,1,8,1,2,0.5,0.5
2024-07-02T1400,1341A,113.0014,28.1944,长沙市,火车新站,,45,24,24,19,12,141,,112,112,1,6,2,2,0.4,0.5
2024-07-02T1400,1342A,112.9844,28.1178,长沙市,天心区环保局,,45,45,23,14,12,127,,97,97,4,7,2,2,0.3,0.4
2024-07-02T1400,1343A,112.8908,28.1308,长沙市,湖南中医药大学,,42,22,20,11,10,133,,111,111,2,6,6,7,0.4,0.5
2024-07-02T1400,1344A,112.9581,28.3611,长沙市,沙坪,,39,,16,24,12,124,,102,99,2,5,5,5,0.5,0.5
2024-07-02T1400,1727A,113.1147,36.1547,长治市,清华站,,50,10,12,3,6,158,,132,132,6,9,8,8,0.4,0.5
2024-07-02T1400,1728A,113.1031,36.1989,长治市,监测站,,50,18,17,3,8,160,,127,127,9,12,3,3,0.6,0.7
2024-07-02T1400,1730A,113.0886,36.2125,长治市,审计局,,50,10,12,7,8,160,,124,124,15,15,3,3,0.4,0.4
2024-07-02T1400,1731A,113.0844,36.1856,长治市,长治八中,,50,12,14,7,11,159,,125,125,7,9,2,3,0.7,0.8
2024-07-02T1400,2845A,113.1569,36.1911,长治市,德盛苑,,50,20,11,3,7,159,,132,132,4,5,8,7,0.6,0.7
2024-07-02T1400,3568A,113.06,36.0464,长治市,向阳小学,臭氧1小时,60,34,35,23,28,168,,137,137,8,11,5,6,0.6,0.9
2024-07-02T1400,3569A,112.8792,36.3144,长治市,屯留一中,臭氧1小时,80,,29,35,22,184,,131,131,9,14,13,13,0.5,0.6
2024-07-02T1400,3570A,113.235,36.3489,长治市,潞城四中,,49,6,13,3,14,155,,130,130,6,6,7,7,0.4,0.5
2024-07-02T1400,1854A,111.6975,28.9703,常德市,市二中,,43,22,19,13,11,137,,103,103,4,5,5,8,0.6,0.5
2024-07-02T1400,1857A,111.7158,29.1456,常德市,白鹤山,,,,,,,,,,,,,,,,
2024-07-02T1400,3138A,111.7153,29.0289,常德市,武陵区永安,,43,21,16,15,11,136,,102,102,2,4,6,6,0.4,0.4
2024-07-02T1400,3139A,111.6892,28.9881,常德市,鼎城区玉霞,,44,17,17,11,13,138,,103,103,2,3,3,3,0.5,0.5
2024-07-02T1400,3140A,111.6625,29.0531,常德市,武陵区长庚,,44,21,16,12,11,138,,99,99,1,2,8,7,0.6,0.6
2024-07-02T1400,1196A,119.9633,31.762,常州市,市监测站,,36,6,23,3,18,113,,65,65,7,13,6,6,0.6,0.7
2024-07-02T1400,1200A,119.9468,31.7069,常州市,武进监测站,,36,13,22,3,18,115,,68,62,2,5,4,4,0.6,0.7
2024-07-02T1400,1201A,119.9255,31.9087,常州市,安家,,32,8,25,3,16,100,,60,60,4,9,6,5,0.5,0.5
2024-07-02T1400,3002A,119.9805,31.8174,常州市,行政中心,,29,12,24,3,16,91,,59,55,2,7,7,9,0.6,0.7
2024-07-02T1400,3003A,120.0522,31.7748,常州市,经开区,,30,8,26,3,19,95,,,,4,12,4,4,0.2,0.8
2024-07-02T1400,3010A,119.9025,31.7964,常州市,钟楼,,29,8,27,8,18,90,,63,54,7,8,3,3,0.6,0.1
2024-07-02T1400,3429A,119.8598,31.7066,常州市,武进经发区,,32,6,24,3,14,102,,60,59,2,9,6,7,0.3,0.3
2024-07-02T1400,3430A,119.5826,31.7245,常州市,金坛城区,,35,6,38,3,26,110,,72,72,4,6,5,7,0.6,0.6
2024-07-02T1400,2220A,120.4318,41.5881,朝阳市,西梁,颗粒物(PM10),53,56,54,35,34,144,,110,110,8,18,10,12,0.6,0.7
2024-07-02T1400,2221A,120.4521,41.5646,朝阳市,河畔小区,细颗粒物(PM2.5),52,45,54,36,32,146,,122,122,9,12,10,13,0.6,0.6
2024-07-02T1400,2222A,120.4176,41.5648,朝阳市,八里堡,颗粒物(PM10),53,56,56,34,35,142,,112,112,11,19,8,10,0.8,0.8
2024-07-02T1400,2223A,120.3806,41.5969,朝阳市,农业园区,细颗粒物(PM2.5),57,61,48,40,35,122,,111,111,19,19,10,10,0.6,0.5
2024-07-02T1400,1705A,116.6367,23.6719,潮州市,西园路,,15,,22,10,11,42,,42,42,5,10,2,2,0.3,0.5
2024-07-02T1400,3026A,116.6183,23.6608,潮州市,市政府,,17,12,24,7,8,54,,45,45,2,6,6,5,0.6,0.6
2024-07-02T1400,4036A,116.6461,23.6761,潮州市,金山,,14,6,24,3,12,42,,43,43,3,7,5,6,0.5,0.5
2024-07-02T1400,2472A,113.0073,25.9061,郴州市,马头岭,,20,8,19,6,9,64,,56,54,4,4,6,7,0.4,0.3
2024-07-02T1400,2473A,113.0116,25.8226,郴州市,市职中,,18,8,17,3,11,57,,51,44,8,5,8,9,0.5,0.3
2024-07-02T1400,2474A,113.0161,25.8001,郴州市,兴隆步行街,,16,11,19,3,11,50,,51,43,5,5,8,8,0.6,0.5
2024-07-02T1400,2475A,113.0383,25.8071,郴州市,市审计局,,17,,15,7,11,52,,53,44,6,6,5,5,0.4,0.3
2024-07-02T1400,2476A,113.0348,25.7759,郴州市,市环保局,,16,7,17,3,11,50,,56,49,8,7,5,5,0.5,0.3
2024-07-02T1400,1431A,103.9728,30.7236,成都市,金泉两河,臭氧1小时,60,33,25,20,12,168,,84,84,9,22,5,2,0.4,0.5
2024-07-02T1400,1432A,104.176,30.6872,成都市,十里店,臭氧1小时,70,23,25,3,10,176,,106,106,10,22,4,4,0.4,0.4
2024-07-02T1400,1433A,104.079,30.5706,成都市,三瓦窑,,,,33,,16,158,,87,87,3,30,2,4,0.3,0.4
2024-07-02T1400,1434A,104.1114,30.63,成都市,沙河铺,臭氧1小时,55,21,29,14,12,164,,92,92,9,24,3,3,0.4,0.6
2024-07-02T1400,1437A,104.0786,30.6531,成都市,君平街,臭氧1小时,88,25,34,3,13,190,,102,102,12,28,4,4,0.2,0.5
2024-07-02T1400,1438A,103.613,31.0283,成都市,灵岩寺,,,,,,,,,,,,,,,,
2024-07-02T1400,2880A,104.0239,30.65639,成都市,大石西路,,,23,30,7,12,178,,102,102,10,30,,5,,0.4
2024-07-02T1400,3136A,104.2725,30.5589,成都市,龙泉驿区区政府,,45,9,13,3,7,142,,113,113,4,11,3,4,0.3,0.4
2024-07-02T1400,3357A,104.0106,30.6931,成都市,金博路,臭氧1小时,58,12,24,3,11,166,,84,84,3,27,3,2,0.5,0.5
2024-07-02T1400,3359A,104.0578,30.5225,成都市,华阳,,49,17,22,9,17,154,,100,100,2,15,3,4,0.4,0.5
2024-07-02T1400,3487A,104.2394,30.5319,成都市,车城东七路,,46,19,23,13,13,146,,115,115,3,11,3,4,0.3,0.4
2024-07-02T1400,3488A,104.3853,30.7453,成都市,青白江技师分院,,47,16,14,7,6,150,,116,116,4,24,5,6,0.4,0.5
2024-07-02T1400,3489A,104.0789,30.4072,成都市,科学城,,50,18,22,12,14,158,,106,106,6,18,3,4,0.4,0.4
2024-07-02T1400,4011A,103.8506,30.6947,成都市,光华大道三段,,48,30,27,11,11,152,,88,88,9,13,8,4,0.5,0.4
2024-07-02T1400,1062A,117.9531,40.9081,承德市,铁路,,36,19,37,9,22,114,,90,90,8,18,5,6,0.2,0.3
2024-07-02T1400,1063A,117.9392,40.9763,承德市,中国银行,,38,38,42,13,25,104,,82,82,12,18,6,6,0.2,0.3
2024-07-02T1400,1064A,117.9503,40.928,承德市,开发区,,36,31,41,20,25,113,,86,86,10,20,5,6,0.2,0.4
2024-07-02T1400,1065A,117.8051,40.9655,承德市,文化中心,,38,28,46,7,22,121,,98,98,5,20,10,9,0.3,0.4
2024-07-02T1400,1066A,117.9268,41.0026,承德市,离宫,,34,21,36,16,25,106,,77,77,2,14,4,4,0.3,0.3
2024-07-02T1400,2314A,117.47,30.6618,池州市,池州学院,,32,6,11,3,6,100,,80,80,3,10,4,5,0.4,0.4
2024-07-02T1400,3237A,117.4918,30.6617,池州市,展览馆,,30,6,10,3,6,94,,76,76,7,8,3,3,0.4,0.4
2024-07-02T1400,3333A,117.5627,30.695,池州市,第八中学,,33,6,10,3,5,104,,74,74,5,11,2,4,0.3,0.4
2024-07-02T1400,3334A,117.5038,30.6243,池州市,第十二中学,,32,6,9,3,5,102,,74,74,7,9,5,4,0.5,0.5
2024-07-02T1400,1744A,118.9233,42.2816,赤峰市,松山一中,,45,45,50,16,19,113,,97,97,22,26,10,10,0.4,0.5
2024-07-02T1400,1745A,118.9576,42.2728,赤峰市,哈达街,,,39,31,17,18,118,,99,99,,18,9,11,0.4,0.5
2024-07-02T1400,1746A,118.8788,42.2554,赤峰市,天义路,,39,18,20,16,18,124,,105,105,21,24,6,6,0.4,0.4
2024-07-02T1400,3058A,119.2658,42.0353,赤峰市,银河街,,43,24,41,21,30,136,,109,109,12,16,10,13,0.3,0.4
2024-07-02T1400,3286A,118.9359,42.3147,赤峰市,桥北物流园区,,36,26,30,21,23,114,,94,94,11,21,6,6,0.6,0.6
2024-07-02T1400,2521A,107.3476,22.4136,崇左市,市环保局江州分局,,13,,36,6,17,39,,32,32,7,12,5,6,0.7,0.7
2024-07-02T1400,2522A,107.3702,22.3707,崇左市,城南新区,,19,,25,13,17,37,,31,31,8,10,2,3,0.6,0.7
2024-07-02T1400,2298A,118.3093,32.3153,滁州市,老年大学,,35,,8,17,6,112,,81,81,2,6,7,7,0.6,0.6
2024-07-02T1400,2299A,118.3244,32.2786,滁州市,人大宾馆,,36,,9,22,6,114,,85,85,5,7,5,5,0.5,0.5
2024-07-02T1400,3207A,118.3118,32.3038,滁州市,市政府原办公楼,,37,17,6,15,9,117,,85,85,3,7,8,8,0.6,0.6
2024-07-02T1400,3331A,118.3267,32.2634,滁州市,图书馆,,37,,9,20,5,116,,86,86,2,5,8,8,0.9,0.9
2024-07-02T1400,2605A,101.5482,25.0441,楚雄彝族自治州,州环境监测站,,14,14,14,3,10,38,,17,17,2,10,3,5,0.5,0.6
2024-07-02T1400,2606A,101.538,25.0492,楚雄彝族自治州,市经济开发区,,11,6,18,3,9,33,,15,15,4,12,4,6,0.5,0.6
2024-07-02T1400,2548A,107.5277,31.2827,达州市,达州职业技术学院,,33,23,24,8,5,105,,49,49,5,22,10,11,0.2,0.3
2024-07-02T1400,2549A,107.5086,31.2186,达州市,市环境监测站,,37,24,23,12,4,117,,61,61,12,23,5,7,0.5,0.5
2024-07-02T1400,2550A,107.4988,31.2132,达州市,凤凰小区,,41,22,17,14,7,130,,68,68,8,21,7,9,0.4,0.4
2024-07-02T1400,2551A,107.5082,31.1986,达州市,达县机关宾馆,,40,19,23,11,10,128,,65,65,11,28,4,6,0.0,0.1
2024-07-02T1400,2552A,107.4644,31.2124,达州市,市政中心,,43,32,26,12,7,137,,78,78,11,23,9,10,0.6,0.4
2024-07-02T1400,2614A,100.1542,25.7054,大理白族自治州,大理市环境监测站,,13,,7,9,9,36,,40,34,4,5,4,4,0.5,0.5
2024-07-02T1400,2615A,100.2171,25.5811,大理白族自治州,大理古城,,17,,12,9,7,54,,35,35,7,10,6,5,0.6,0.6
2024-07-02T1400,1109A,121.612,38.9741,大连市,甘井子,,27,19,35,13,22,84,,82,79,18,18,8,8,0.5,0.6
2024-07-02T1400,1110A,121.565,38.9511,大连市,周水子,,30,18,36,12,27,94,,85,80,17,17,6,8,0.5,0.6
2024-07-02T1400,1111A,121.5637,38.8845,大连市,星海三站,,31,18,35,7,21,99,,98,96,8,7,6,7,0.6,0.7
2024-07-02T1400,1112A,121.6302,38.9117,大连市,青泥洼桥,,25,16,44,10,26,80,,80,78,11,11,8,8,0.7,1.1
2024-07-02T1400,1113A,121.6251,38.8638,大连市,傅家庄,,32,13,28,10,28,102,,102,102,6,6,6,7,0.6,0.7
2024-07-02T1400,1114A,121.5213,38.8661,大连市,七贤岭,,27,14,34,7,24,86,,85,82,9,10,5,5,0.5,0.6
2024-07-02T1400,1115A,121.2529,38.8061,大连市,旅顺,,,,37,6,26,116,,105,99,,9,,8,0.6,0.5
2024-07-02T1400,1116A,121.7485,39.1311,大连市,金州,,22,11,26,8,23,69,,76,71,7,7,8,9,0.4,0.5
2024-07-02T1400,1117A,121.7811,39.0496,大连市,开发区,,24,20,38,10,26,76,,86,79,11,13,4,6,0.6,0.7
2024-07-02T1400,1118A,121.9762,39.0631,大连市,双D港,,26,26,30,10,23,78,,89,79,11,9,5,6,0.7,0.8
2024-07-02T1400,1789A,124.81117,46.03138,大庆市,大同区,,41,38,39,25,30,130,,110,110,9,13,4,5,0.2,0.3
2024-07-02T1400,1790A,125.129,46.533,大庆市,龙凤区,,39,36,40,22,24,123,,106,106,7,21,5,5,0.4,0.2
2024-07-02T1400,1791A,124.902,46.408,大庆市,红岗区,,42,31,32,13,25,134,,116,116,5,14,6,7,0.4,0.3
2024-07-02T1400,1792A,125.153,46.586,大庆市,萨尔图区,,38,36,42,18,25,120,,101,101,6,16,8,7,0.3,0.3
2024-07-02T1400,1793A,124.9042,46.6215,大庆市,让胡路区,,47,31,44,21,15,150,,117,117,8,15,6,6,0.1,0.2
2024-07-02T1400,3481A,125.141,46.634,大庆市,萨区政府监测点,,42,28,38,14,20,134,,111,111,8,16,6,6,0.2,0.3
2024-07-02T1400,1721A,113.3819,40.1097,大同市,果树场,,,,,,,,,,,,,,,,
2024-07-02T1400,1723A,113.2994,40.0758,大同市,云冈宾馆,,42,24,29,22,15,133,,124,123,8,12,6,6,0.5,0.4
2024-07-02T1400,1724A,113.3444,40.0917,大同市,大同大学,,41,,23,17,16,130,,124,124,6,8,8,10,0.5,0.4
2024-07-02T1400,1725A,113.2661,40.1269,大同市,安家小村,,41,24,28,14,12,130,,128,128,8,10,12,12,0.5,0.4
2024-07-02T1400,1726A,113.2711,40.0844,大同市,教育学院,,,28,27,28,16,127,,125,123,12,14,7,8,,0.4
2024-07-02T1400,3282A,113.3397,40.0597,大同市,大同市卫生学校,,43,,30,18,17,136,,123,123,7,10,9,9,0.6,0.7
2024-07-02T1400,3565A,113.1367,40.1122,大同市,云冈站,,45,28,28,12,15,141,,126,126,10,11,7,8,0.8,0.8
2024-07-02T1400,3566A,113.1186,40.2556,大同市,图书馆,,46,28,24,18,15,147,,128,128,12,12,8,8,0.4,0.4
2024-07-02T1400,3567A,113.5931,40.0461,大同市,区一中,,43,25,23,21,10,137,,121,121,8,10,8,8,0.6,0.6
2024-07-02T1400,3676A,113.2802,40.0995,大同市,第二人民医院,,43,24,24,14,15,136,,130,130,7,9,8,8,0.5,0.5
2024-07-02T1400,2269A,124.1069,50.4097,大兴安岭地区,科技局,细颗粒物(PM2.5),63,69,85,45,60,99,,66,66,11,9,8,8,0.5,0.6
2024-07-02T1400,3663A,124.1164,50.4278,大兴安岭地区,红旗社区,细颗粒物(PM2.5),78,58,75,57,74,109,,74,74,12,10,10,9,0.7,0.7
2024-07-02T1400,1600A,124.3303,40.0625,丹东市,江湾东路,,23,23,27,11,18,68,,52,52,6,11,5,8,0.5,0.5
2024-07-02T1400,1601A,124.4256,40.1503,丹东市,临江后街,,21,14,24,7,16,66,,47,47,4,10,8,9,0.6,0.7
2024-07-02T1400,1602A,124.3933,40.1461,丹东市,元宝山,,18,16,28,9,15,55,,40,40,7,11,6,8,0.5,0.8
2024-07-02T1400,1603A,124.3633,40.1092,丹东市,民主桥,,21,21,25,12,15,61,,42,42,7,11,5,5,0.5,0.6
2024-07-02T1400,3541A,109.5726,19.5167,儋州市,第一中学子站,,18,10,11,3,5,55,,53,53,2,2,5,6,0.4,0.4
2024-07-02T1400,3542A,109.5567,19.5187,儋州市,东坡学校子站,,17,9,13,3,5,54,,51,51,1,3,6,5,0.5,0.5
2024-07-02T1400,2616A,98.5842,24.428,德宏傣族景颇族自治州,德宏州监测站,,12,12,15,7,6,31,,19,19,11,11,3,4,0.8,0.8
2024-07-02T1400,3677A,98.5881,24.4368,德宏傣族景颇族自治州,芒市人民政府综合楼,,12,11,17,8,7,33,,19,19,8,8,7,8,0.7,0.7
2024-07-02T1400,1901A,104.4239,31.1208,德阳市,东山公园,臭氧1小时,92,45,32,12,12,193,,101,101,12,17,4,4,0.4,0.4
2024-07-02T1400,1902A,104.3826,31.1317,德阳市,西小区,臭氧1小时,112,52,31,26,16,224,,95,95,24,34,6,5,0.5,0.5
2024-07-02T1400,1904A,104.3553,31.1091,德阳市,耐火材料厂,臭氧1小时,119,53,37,24,17,237,,95,95,24,30,5,7,0.6,0.6
2024-07-02T1400,3639A,104.4019,31.1244,德阳市,市教育局,臭氧1小时,106,47,32,16,16,212,,94,94,15,26,4,5,0.5,0.5
2024-07-02T1400,1622A,116.3032,37.4674,德州市,儿童乐园,细颗粒物(PM2.5),64,48,47,46,45,111,,98,98,10,9,7,7,0.8,0.8
2024-07-02T1400,1624A,116.2991,37.4451,德州市,监理站,细颗粒物(PM2.5),67,,43,48,45,119,,104,104,14,12,9,8,0.9,0.7
2024-07-02T1400,3066A,116.2721,37.4379,德州市,九衢泉纯净水厂,细颗粒物(PM2.5),55,44,49,39,43,113,,100,100,16,12,5,5,0.9,0.8
2024-07-02T1400,3371A,116.3728,37.4403,德州市,开发区人民医院,,49,41,53,34,42,130,,104,104,12,15,8,8,0.6,0.7
2024-07-02T1400,3372A,116.3572,37.4094,德州市,太阳城中学,细颗粒物(PM2.5),55,39,45,39,42,128,,107,107,14,15,7,7,0.8,0.7
2024-07-02T1400,3511A,116.5652,37.3319,德州市,陵城艺术中心,,45,39,49,31,42,127,,103,103,10,8,4,3,0.8,0.6
2024-07-02T1400,2621A,99.7056,27.8317,迪庆藏族自治州,迪庆州站,,21,21,23,7,10,59,,46,46,8,10,10,10,0.2,0.3
2024-07-02T1400,3180A,99.7136,27.8094,迪庆藏族自治州,质量技术监督局,,23,23,18,9,10,54,,47,47,10,10,9,9,0.3,0.4
2024-07-02T1400,2663A,104.6241,35.5734,定西市,东关小学,,42,26,39,8,21,133,,81,81,2,15,5,5,0.2,0.2
2024-07-02T1400,2664A,104.6194,35.5934,定西市,供电公司,,44,18,32,13,20,138,,83,83,2,20,4,4,0.3,0.3
2024-07-02T1400,1389A,113.7547,23.0494,东莞市,莞城梨川,,23,23,22,10,8,64,,55,55,8,7,10,10,0.8,0.8
2024-07-02T1400,1390A,113.7944,23.0128,东莞市,东城石井,,22,20,20,9,8,69,,56,56,4,6,1,2,0.5,0.5
2024-07-02T1400,1391A,113.7383,22.9658,东莞市,南城西平,,23,22,22,8,7,73,,59,59,4,6,2,2,0.5,0.5
2024-07-02T1400,3319A,113.7338,23.0381,东莞市,万江金泰,,21,20,22,8,8,67,,55,55,4,5,5,5,0.7,0.6
2024-07-02T1400,3626A,113.7533,23.0202,东莞市,南城元岭,,19,19,20,9,8,56,,51,51,6,4,6,6,0.6,0.7
2024-07-02T1400,3627A,113.7875,23.0457,东莞市,东城主山,,19,18,21,8,8,59,,50,50,3,3,9,9,0.6,0.6
2024-07-02T1400,1666A,118.6614,37.4309,东营市,市环保局,,36,19,45,12,39,115,,123,120,4,7,8,8,0.8,1
2024-07-02T1400,3036A,118.6904,37.4338,东营市,开发区管委会,,38,17,47,9,38,119,,126,124,6,8,5,6,0.6,0.8
2024-07-02T1400,3365A,118.5719,37.565,东营市,垦利区民丰路,,37,,49,12,41,117,,124,123,4,7,9,9,0.4,0.6
2024-07-02T1400,3498A,118.5055,37.8612,东营市,河口城区,,40,,51,17,39,127,,112,112,7,11,6,7,0.6,0.8
2024-07-02T1400,3646A,118.4978,37.4623,东营市,胜利站,,37,,41,9,36,116,,133,125,5,7,6,6,0.6,0.8
2024-07-02T1400,3734A,118.35,37.26,东营市,理想之城,,29,14,43,14,38,91,,99,99,7,7,3,3,0.3,0.4
2024-07-02T1400,1591A,110.0023,39.8129,鄂尔多斯市,综合楼,,49,22,45,9,10,155,,94,94,6,27,9,16,0.5,0.6
2024-07-02T1400,1592A,109.9486,39.8261,鄂尔多斯市,巴音孟克林场办事处,,39,22,35,9,12,122,,90,90,6,25,6,8,0.6,0.7
2024-07-02T1400,1593A,109.7736,39.5986,鄂尔多斯市,康泽苑,,47,19,22,9,10,148,,118,118,4,7,10,9,0.5,0.4
2024-07-02T1400,1594A,109.8119,39.5989,鄂尔多斯市,华泰汽车城,,43,19,25,12,12,136,,106,106,6,12,9,8,0.6,0.5
2024-07-02T1400,1595A,109.9734,39.7884,鄂尔多斯市,奥林花园,,44,22,29,12,12,138,,97,97,8,23,6,6,0.4,0.5
2024-07-02T1400,2436A,114.8938,30.3994,鄂州市,市政府,,46,38,21,17,6,145,,115,115,6,8,4,5,0.7,0.6
2024-07-02T1400,2437A,114.8989,30.3714,鄂州市,赵家坝,,48,26,16,14,6,153,,119,119,6,9,7,8,0.6,0.8
2024-07-02T1400,3654A,114.8094,30.4089,鄂州市,精准医疗中心,,49,22,16,21,5,154,,120,120,7,5,6,5,0.8,0.5
2024-07-02T1400,2454A,109.4978,30.2981,恩施土家族苗族自治州,湖北民院,,37,19,31,13,16,118,,70,70,2,8,6,6,0.7,0.8
2024-07-02T1400,2455A,109.4707,30.2798,恩施土家族苗族自治州,州电力总公司,,38,14,27,9,15,119,,70,70,11,17,8,7,0.6,0.7
2024-07-02T1400,3549A,109.5061,30.3772,恩施土家族苗族自治州,龙凤新区,,36,27,28,12,15,114,,63,63,9,10,6,6,0.6,0.8
2024-07-02T1400,2499A,108.3411,21.6158,防城港市,沙万,,26,26,26,6,9,40,,46,35,4,4,10,9,0.5,0.5
2024-07-02T1400,2500A,108.3514,21.7731,防城港市,防城档案局,,24,24,21,3,8,36,,43,36,6,5,4,4,0.5,0.5
2024-07-02T1400,2501A,108.3506,21.6414,防城港市,大海花园,,30,30,26,7,6,42,,44,38,6,5,6,6,0.5,0.5
2024-07-02T1400,1371A,113.1294,23.0067,佛山市,湾梁,,21,17,22,11,11,67,,52,52,8,11,6,6,0.3,0.4
2024-07-02T1400,1372A,113.1083,23.0478,佛山市,华材职中,,21,14,18,9,11,65,,60,60,16,9,4,8,0.5,0.4
2024-07-02T1400,1373A,113.144,23.0453,佛山市,南海气象局,,26,26,32,8,8,74,,56,56,5,8,6,7,0.4,0.4
2024-07-02T1400,1374A,113.2881,22.8094,佛山市,顺德苏岗,,20,18,16,7,7,64,,58,58,4,6,5,6,0.3,0.3
2024-07-02T1400,1376A,112.8383,22.8678,佛山市,高明孔堂,,18,17,26,12,13,56,,53,53,4,5,6,6,0.6,0.5
2024-07-02T1400,1377A,112.8836,23.1588,佛山市,三水监测站,,25,,20,17,13,57,,45,45,16,14,4,5,0.6,0.6
2024-07-02T1400,1378A,112.867,23.185,佛山市,三水云东海,,20,,20,6,11,64,,52,52,13,15,5,5,0.5,0.5
2024-07-02T1400,3625A,113.2544,22.7642,佛山市,容桂街道办,,16,12,16,9,10,50,,52,52,14,12,6,6,0.4,0.4
2024-07-02T1400,1280A,119.3903,26.0543,福州市,鼓山,,,,,,,,,,,,,,,,
2024-07-02T1400,1282A,119.2681,26.0504,福州市,师大,,25,25,24,6,8,76,,54,54,2,6,4,3,0.3,0.3
2024-07-02T1400,1283A,119.2984,26.1028,福州市,五四北路,,26,26,22,3,8,78,,58,58,2,6,3,3,0.3,0.3
2024-07-02T1400,1284A,119.2648,26.0768,福州市,杨桥西路,,25,25,25,9,8,75,,54,54,3,7,3,3,0.3,0.3
2024-07-02T1400,1285A,119.317,26.0746,福州市,紫阳,,23,23,24,7,7,70,,50,50,6,9,2,2,0.3,0.4
2024-07-02T1400,3048A,119.5799,26.0936,福州市,九龙,,27,24,23,3,7,84,,64,64,1,2,4,4,0.2,0.2
2024-07-02T1400,3526A,119.5189,25.9664,福州市,吴航,,26,16,22,9,10,81,,60,60,2,2,4,4,0.4,0.5
2024-07-02T1400,1755A,123.7977,41.8491,抚顺市,望花区,颗粒物(PM10),51,51,50,22,37,117,,107,107,19,21,6,6,0.4,0.4
2024-07-02T1400,1756A,123.9161,41.8822,抚顺市,顺城区,,36,35,52,22,34,115,,110,104,12,18,8,7,0.5,0.5
2024-07-02T1400,1757A,124.0436,41.8611,抚顺市,东洲区,,34,34,56,21,35,106,,99,99,9,14,6,4,0.5,0.6
2024-07-02T1400,1758A,123.9247,41.8642,抚顺市,新抚区,,38,38,46,17,36,78,,94,82,34,18,4,6,0.4,0.4
2024-07-02T1400,1759A,124.0972,41.8961,抚顺市,大伙房水库,,32,27,42,22,32,93,,93,91,5,11,8,8,0.6,0.6
2024-07-02T1400,1760A,123.7086,41.8391,抚顺市,沈抚新城,,50,50,47,24,37,124,,110,110,17,20,8,7,0.5,0.5
2024-07-02T1400,2376A,116.2127,28.0814,抚州市,桐源党溪,,24,24,24,8,11,46,,54,53,2,3,4,5,0.3,0.3
2024-07-02T1400,2377A,116.3544,27.9831,抚州市,市站,,26,26,22,9,10,53,,52,52,3,4,3,4,0.9,1
2024-07-02T1400,2378A,116.3565,27.963,抚州市,血防站,,31,31,23,13,10,49,,49,47,4,5,8,2,0.8,0.8
2024-07-02T1400,2379A,116.3564,28.0007,抚州市,采茶剧团,,16,16,20,8,9,49,,51,51,2,3,1,2,0.8,0.8
2024-07-02T1400,2380A,116.385,27.9647,抚州市,医学分院,,20,20,22,11,9,52,,48,48,5,5,4,5,0.9,1
2024-07-02T1400,2207A,121.6094,41.998,阜新市,工业园区,,46,43,52,29,32,147,,131,131,15,28,8,8,0.5,1
2024-07-02T1400,2208A,121.6697,42.0279,阜新市,长青街,,,,47,23,30,142,,121,121,13,23,7,10,0.6,0.7
2024-07-02T1400,2209A,121.6673,42.0705,阜新市,农业园区,,45,43,52,29,33,143,,134,134,12,18,7,8,0.6,2.3
2024-07-02T1400,2210A,121.6717,42.0224,阜新市,东苑,,44,44,51,26,30,138,,121,121,12,24,8,14,0.5,0.5
2024-07-02T1400,2211A,121.6506,42.0498,阜新市,玉龙新城,,47,40,50,25,30,150,,136,136,13,27,5,6,0.5,1
2024-07-02T1400,2301A,115.8277,32.8929,阜阳市,市监测站,,42,30,32,17,15,132,,117,117,7,9,4,7,0.5,0.5
2024-07-02T1400,2303A,115.8554,32.8605,阜阳市,开发区,,45,21,32,20,14,144,,122,122,7,11,4,4,0.3,0.3
2024-07-02T1400,2875A,115.784,32.8892,阜阳市,阜阳职业技术学院,,43,18,28,18,16,135,,122,122,8,9,5,6,0.4,0.4
2024-07-02T1400,3468A,115.7901,32.8613,阜阳市,市规划展馆,,42,,32,26,29,133,,112,112,9,10,2,2,0.5,0.5
2024-07-02T1400,3469A,115.836,32.9183,阜阳市,枣园社区,,41,30,31,25,24,129,,118,118,8,10,1,1,0.5,0.5
2024-07-02T1400,2669A,102.9099,34.9841,甘南藏族自治州,州政府,,35,21,23,13,15,109,,72,72,1,14,7,7,1.0,0.9
2024-07-02T1400,3380A,102.8914,34.9617,甘南藏族自治州,甘肃民族师范学院,,35,6,28,3,12,112,,71,71,5,23,3,3,0.6,0.6
2024-07-02T1400,2570A,101.9603,30.0475,甘孜藏族自治州,水桥子,,33,10,11,6,8,104,,82,82,2,9,4,4,0.2,0.2
2024-07-02T1400,3065A,101.9533,29.9972,甘孜藏族自治州,州环保局,,32,15,18,3,7,101,,82,82,8,18,2,2,0.2,0.2
2024-07-02T1400,3414A,115.8347,28.932,赣江新区,桑海产业园,,31,,16,3,12,99,,105,105,17,21,8,11,0.5,0.5
2024-07-02T1400,2362A,114.9017,25.9149,赣州市,通天岩,,,,,,,,,,,,,,,,
2024-07-02T1400,2363A,114.9367,25.8664,赣州市,地委,,19,12,18,9,9,59,,46,45,4,3,3,7,1.1,1.2
2024-07-02T1400,2364A,114.9461,25.8481,赣州市,气象台,,17,13,18,8,9,53,,44,42,7,7,2,3,0.4,0.4
2024-07-02T1400,2365A,114.9322,25.8333,赣州市,市图书馆,,17,7,17,7,8,53,,45,42,4,5,16,16,0.8,0.8
2024-07-02T1400,2366A,114.8905,25.8471,赣州市,华坚鞋城,,21,21,21,8,10,56,,42,42,6,6,20,18,0.6,0.7
2024-07-02T1400,3109A,115.0093,25.8613,赣州市,赣县区卫计委,,18,,16,8,9,57,,53,48,7,7,7,7,0.7,0.6
2024-07-02T1400,2683A,106.2319,36.1417,固原市,马园,,44,24,26,8,13,139,,102,102,8,26,4,5,0.6,0.7
2024-07-02T1400,2684A,106.2792,36.0022,固原市,监测站,,41,11,25,10,17,131,,97,97,6,16,5,5,0.2,0.3
2024-07-02T1400,2685A,106.2375,36.0211,固原市,新区,,40,21,26,11,12,126,,92,92,4,21,5,6,0.3,0.5
2024-07-02T1400,3522A,106.2177,35.9959,固原市,原州区十五小,,39,16,24,11,15,124,,112,112,3,8,5,5,0.5,0.5
2024-07-02T1400,2543A,106.6308,30.5278,广安市,小平旧居,,,,,,,,,,,,,,,,
2024-07-02T1400,2544A,106.6303,30.4576,广安市,市委,,25,11,32,8,18,80,,92,92,9,15,9,7,0.4,0.5
2024-07-02T1400,2545A,106.6271,30.4663,广安市,友谊中学,,48,14,26,10,16,153,,108,108,10,17,8,8,0.4,0.5
2024-07-02T1400,2547A,106.6388,30.4551,广安市,广电花园,,50,15,29,12,17,158,,101,101,6,15,7,6,0.4,0.4
2024-07-02T1400,2902A,106.6351,30.4865,广安市,北辰小学,,50,25,32,11,17,160,,105,105,7,15,8,7,0.4,0.4
2024-07-02T1400,2523A,105.8945,32.4535,广元市,黑石坡,,35,13,13,8,9,112,,69,69,7,7,12,12,0.4,0.3
2024-07-02T1400,2524A,105.821,32.4444,广元市,老城,,46,10,20,9,9,147,,81,81,8,25,5,5,0.4,0.3
2024-07-02T1400,2526A,105.8628,32.4287,广元市,监测站,,42,15,37,3,10,132,,77,77,8,10,5,6,0.3,0.3
2024-07-02T1400,3617A,105.8047,32.4166,广元市,经开区,,46,31,31,16,19,145,,78,78,8,21,16,6,0.6,0.5
2024-07-02T1400,1345A,113.2347,23.1423,广州市,广雅中学,,25,14,57,6,28,77,,62,62,10,15,3,4,0.5,0.8
2024-07-02T1400,1346A,113.2612,23.105,广州市,市五中,,27,21,26,12,13,86,,67,67,7,9,5,5,0.6,0.6
2024-07-02T1400,1348A,113.3478,23.0916,广州市,广东商学院,,30,19,25,12,12,95,,61,61,6,17,3,3,0.5,0.6
2024-07-02T1400,1349A,113.4332,23.1047,广州市,市八十六中,,23,23,27,13,11,65,,47,47,14,28,2,2,0.6,0.5
2024-07-02T1400,1350A,113.3505,22.9483,广州市,番禺中学,,24,20,24,11,12,74,,62,62,8,12,6,7,0.6,0.6
2024-07-02T1400,1351A,113.2146,23.3916,广州市,花都师范,,25,22,28,12,14,77,,59,59,12,15,6,5,0.6,0.6
2024-07-02T1400,1352A,113.2597,23.1331,广州市,市监测站,,29,29,23,13,11,81,,63,63,8,11,4,4,0.4,0.5
2024-07-02T1400,1353A,113.5618,23.312,广州市,九龙镇镇龙,,25,22,26,13,14,78,,48,48,12,19,7,7,0.5,0.5
2024-07-02T1400,1354A,113.2765,23.1544,广州市,麓湖,,28,21,26,11,12,88,,65,65,11,13,3,3,0.4,0.4
2024-07-02T1400,1355A,113.443,23.3035,广州市,帽峰山森林公园,,28,25,21,12,9,88,,53,53,10,14,4,4,0.7,0.7
2024-07-02T1400,2846A,113.3221,23.1322,广州市,体育西,,26,25,28,13,13,83,,58,58,10,15,4,4,0.6,0.6
2024-07-02T1400,3298A,113.5717,23.5491,广州市,从化街口,,27,21,24,12,12,85,,58,58,8,11,4,4,0.5,0.5
2024-07-02T1400,3299A,113.3472,23.3692,广州市,白云竹料,,33,33,29,15,14,98,,61,61,16,20,4,4,0.6,0.6
2024-07-02T1400,3300A,113.2981,23.237,广州市,白云嘉禾,,30,30,27,14,12,91,,61,61,18,21,6,5,0.6,0.6
2024-07-02T1400,3301A,113.4256,23.1716,广州市,黄埔科学城,,,21,27,,15,66,,50,50,,21,5,6,,0.7
2024-07-02T1400,3302A,113.3942,23.0483,广州市,番禺大学城,,27,27,22,10,11,68,,52,52,7,14,4,4,0.5,0.5
2024-07-02T1400,3303A,113.4922,22.8168,广州市,南沙黄阁,,28,27,29,19,11,84,,54,54,8,12,5,5,0.7,0.6
2024-07-02T1400,3304A,113.5342,22.7896,广州市,南沙街,,23,16,25,15,11,72,,44,44,8,12,5,4,0.6,0.7
2024-07-02T1400,3443A,113.2902,23.5544,广州市,花都梯面,,30,21,30,12,12,93,,49,49,10,14,4,4,0.6,0.6
2024-07-02T1400,3445A,113.7858,23.7478,广州市,从化良口,,21,18,16,12,10,66,,50,50,5,7,5,5,0.5,0.5
2024-07-02T1400,3446A,113.8051,23.2614,广州市,增城荔城,,21,13,24,9,13,67,,55,55,6,10,5,5,0.7,0.6
2024-07-02T1400,2505A,109.568,23.1478,贵港市,德智高中,,,,,,,,,,,,,,,,
2024-07-02T1400,2506A,109.6047,23.0666,贵港市,江南子站,,17,6,14,3,8,54,,52,48,7,6,7,7,0.6,0.6
2024-07-02T1400,2507A,109.6014,23.0948,贵港市,贵城子站,,16,10,18,3,8,49,,51,46,6,7,7,7,0.5,0.5
2024-07-02T1400,2508A,109.5669,23.1065,贵港市,荷城子站,,16,6,16,3,2,50,,51,46,3,5,10,10,0.4,0.4
2024-07-02T1400,3405A,109.5886,23.1172,贵港市,新世纪学校,,16,6,16,3,7,50,,52,46,3,6,12,14,0.4,0.4
2024-07-02T1400,1439A,106.6899,26.5998,贵阳市,马鞍山,,41,9,17,3,6,130,,67,67,5,9,6,4,0.4,0.5
2024-07-02T1400,1440A,106.6971,26.5694,贵阳市,市环保站,,38,19,27,10,19,119,,69,69,16,26,4,4,0.3,0.3
2024-07-02T1400,1441A,106.6243,26.6266,贵阳市,鉴湖路,,40,14,19,7,8,126,,80,80,4,7,3,2,0.4,0.4
2024-07-02T1400,1442A,106.7487,26.6343,贵阳市,燕子冲,,43,14,18,14,14,136,,70,70,6,10,8,6,0.4,0.5
2024-07-02T1400,1443A,106.6555,26.4365,贵阳市,碧云窝,,,24,25,7,5,125,,74,74,,11,5,4,0.4,0.5
2024-07-02T1400,1444A,106.694,26.5161,贵阳市,中院村,,37,22,25,9,12,118,,69,69,10,18,4,4,0.5,0.5
2024-07-02T1400,1445A,106.7109,26.6027,贵阳市,红边门,,42,22,24,19,22,132,,72,72,13,16,3,5,0.4,0.5
2024-07-02T1400,1446A,106.7164,26.5699,贵阳市,新华路,,42,12,21,9,15,134,,75,75,7,14,6,5,0.4,0.5
2024-07-02T1400,1447A,106.674,26.5424,贵阳市,太慈桥,,40,9,19,7,9,127,,68,68,6,12,6,5,0.3,0.4
2024-07-02T1400,1552A,106.805,26.3003,贵阳市,桐木岭,,,,,,,,,,,,,,,,
2024-07-02T1400,1862A,110.4144,25.3167,桂林市,电子科大尧山校区,,17,,10,3,7,52,,44,41,3,4,4,4,0.3,0.3
2024-07-02T1400,1863A,110.2819,25.2697,桂林市,监测站,,,7,13,7,10,60,,46,46,3,5,,6,0.7,0.7
2024-07-02T1400,1864A,110.3089,25.2708,桂林市,龙隐路小学,,20,10,14,10,10,61,,44,44,4,7,6,5,0.4,0.5
2024-07-02T1400,1865A,110.2869,25.2178,桂林市,八中,,18,6,12,3,6,56,,44,44,5,8,6,5,0.5,0.5
2024-07-02T1400,3403A,110.1764,25.2381,桂林市,创业大厦,,18,6,7,3,6,57,,47,46,3,5,6,6,0.3,0.3
2024-07-02T1400,3531A,110.296,25.1253,桂林市,旅游学院,,,,10,2,4,61,,47,47,2,5,10,8,0.3,0.3
2024-07-02T1400,2674A,100.2561,34.4714,果洛藏族自治州,玛沁县大武镇,,41,29,29,11,15,129,,78,78,9,9,13,14,0.4,0.4
2024-07-02T1400,1129A,126.5422,45.755,哈尔滨市,岭北,臭氧1小时,57,41,44,24,29,165,,112,112,13,37,14,14,1.3,0.6
2024-07-02T1400,1130A,126.561,45.8167,哈尔滨市,松北商大,,47,45,41,26,21,148,,102,102,11,34,7,6,0.5,0.6
2024-07-02T1400,1131A,126.979,45.5419,哈尔滨市,阿城会宁,,44,31,67,20,42,138,,98,98,12,29,6,6,0.5,0.7
2024-07-02T1400,1132A,126.599,45.7222,哈尔滨市,南岗学府路,,43,43,71,22,36,127,,97,97,11,41,9,10,0.4,0.7
2024-07-02T1400,1133A,126.689,45.7733,哈尔滨市,太平宏伟公园,,44,44,81,22,34,139,,100,100,15,46,8,7,0.4,0.6
2024-07-02T1400,1134A,126.635,45.7667,哈尔滨市,道外承德广场,,42,42,66,20,28,127,,109,109,23,57,7,7,0.3,0.6
2024-07-02T1400,1135A,126.685,45.7319,哈尔滨市,香坊红旗大街,,42,29,74,22,41,132,,88,88,9,55,14,10,0.3,0.7
2024-07-02T1400,1136A,126.6411,45.7258,哈尔滨市,动力和平路,,,,62,24,25,126,,91,91,13,52,,11,0.3,0.6
2024-07-02T1400,1137A,126.593,45.7478,哈尔滨市,道里建国路,,42,40,57,23,27,134,,107,107,14,52,11,11,0.8,0.5
2024-07-02T1400,1138A,126.615,45.61,哈尔滨市,平房东轻厂,,44,33,53,27,28,140,,104,104,20,44,10,10,0.3,0.3
2024-07-02T1400,1139A,126.595,45.9855,哈尔滨市,呼兰师专,,39,27,41,24,24,124,,108,108,10,27,9,10,0.4,0.4
2024-07-02T1400,1140A,126.6206,45.6842,哈尔滨市,省农科院,,45,29,66,26,29,141,,103,103,10,57,6,9,0.4,0.5
2024-07-02T1400,2688A,93.5128,42.8172,哈密市,地区监测站,,44,25,32,12,15,139,,111,111,5,12,3,4,0.2,0.2
2024-07-02T1400,2689A,93.4961,42.8328,哈密市,哈密师范学校,,44,25,38,9,12,140,,113,105,8,13,4,4,0.2,0.4
2024-07-02T1400,2671A,100.9048,36.9639,海北藏族自治州,海晏县西海镇,,,,15,,15,149,,107,107,7,9,14,14,0.3,0.4
2024-07-02T1400,3867A,102.0738,36.5056,海东市,平安区公安北苑,,45,18,22,11,11,142,,91,91,8,12,9,8,0.5,0.5
2024-07-02T1400,1409A,110.576,19.9507,海口市,东寨港,,,,,,,,,,,,,,,,
2024-07-02T1400,1410A,110.3232,20.0574,海口市,海南大学,,20,12,17,9,8,64,,57,57,4,8,6,6,0.4,0.4
2024-07-02T1400,1411A,110.283,20.0053,海口市,秀英海南医院,,25,25,19,10,9,64,,53,53,5,11,7,6,0.2,0.2
2024-07-02T1400,1412A,110.338,19.9969,海口市,海南师范大学,,21,17,17,7,8,65,,51,51,4,8,6,6,0.4,0.4
2024-07-02T1400,1413A,110.33,20.0356,海口市,龙华路环保局宿舍,,20,18,17,9,8,63,,54,54,4,8,7,7,0.3,0.3
2024-07-02T1400,3539A,110.5111,19.9736,海口市,桂林洋子站,,20,20,18,11,8,64,,52,52,2,5,6,6,0.3,0.3
2024-07-02T1400,2673A,100.6188,36.2866,海南藏族自治州,共和县恰卜恰镇,,38,12,18,10,10,121,,96,96,5,13,7,8,0.6,0.5
2024-07-02T1400,2676A,97.3731,37.3753,海西蒙古族藏族自治州,德令哈市,,43,13,22,6,11,137,,137,127,6,9,14,13,0.4,0.6
2024-07-02T1400,1048A,114.5302,36.6116,邯郸市,东污水处理厂,,45,42,27,31,20,119,,115,115,3,4,1,1,0.4,0.4
2024-07-02T1400,1049A,114.4918,36.5713,邯郸市,矿院,,47,47,30,29,21,123,,123,123,8,8,4,4,0.6,0.6
2024-07-02T1400,1050A,114.484,36.6133,邯郸市,丛台公园,,49,40,28,34,20,119,,118,118,4,5,4,4,0.5,0.5
2024-07-02T1400,3458A,114.7895,36.5593,邯郸市,香泉濮院小区,,46,,16,32,21,112,,113,113,4,4,1,1,0.5,0.5
2024-07-02T1400,3579A,114.50634,36.77178,邯郸市,永年区实验高中,,47,47,36,32,19,114,,114,114,3,5,1,2,0.8,0.9
2024-07-02T1400,3580A,114.20016,36.44293,邯郸市,峰峰矿区临水派出所,,42,32,27,24,15,132,,127,127,3,5,1,3,0.5,0.7
2024-07-02T1400,2634A,106.9893,33.1842,汉中市,汉川机床厂子校,,,41,20,,12,121,,83,83,4,6,4,4,0.6,0.5
2024-07-02T1400,2635A,107.0154,33.0706,汉中市,市监测站,,40,35,24,12,13,128,,81,81,4,7,8,7,0.7,0.6
2024-07-02T1400,2636A,107.0089,33.1138,汉中市,鑫源开发区,,42,28,23,16,14,133,,84,84,4,9,9,9,0.5,0.5
2024-07-02T1400,2637A,107.007,33.0323,汉中市,南郑大河坎水厂,,41,32,24,14,13,129,,83,83,4,8,8,8,0.5,0.5
2024-07-02T1400,1223A,120.2072,30.2111,杭州市,滨江,,28,14,22,10,15,89,,59,59,4,21,3,3,0.6,0.8
2024-07-02T1400,1224A,120.0633,30.2747,杭州市,西溪,,25,16,17,12,11,79,,43,43,3,10,5,6,0.5,0.7
2024-07-02T1400,1226A,120.3461,30.3153,杭州市,下沙,,28,27,46,9,25,89,,76,76,2,35,5,6,0.4,0.6
2024-07-02T1400,1227A,120.1269,30.2456,杭州市,卧龙桥,,22,18,17,10,13,69,,40,40,1,10,5,4,0.5,0.6
2024-07-02T1400,1228A,120.1903,30.2692,杭州市,浙江农大,,23,16,21,6,15,73,,54,54,10,26,6,6,0.3,0.5
2024-07-02T1400,1230A,120.1197,30.3119,杭州市,和睦小学,,25,11,19,11,14,78,,50,50,2,19,4,4,0.3,0.5
2024-07-02T1400,1231A,120.3019,30.4183,杭州市,临平镇,,27,7,42,3,29,84,,65,65,4,35,5,4,0.4,0.7
2024-07-02T1400,1232A,120.2697,30.1819,杭州市,城厢镇,,29,20,28,9,19,92,,73,73,12,29,2,3,0.5,0.7
2024-07-02T1400,1233A,120.0883,30.1808,杭州市,云栖,,25,13,21,3,7,79,,43,43,5,10,7,7,0.5,0.7
2024-07-02T1400,3557A,119.9464,30.0494,杭州市,镇二中,,29,14,19,10,22,90,,56,56,5,20,7,6,0.5,0.8
2024-07-02T1400,3558A,119.7183,30.2367,杭州市,市府大楼,,19,16,15,7,10,58,,40,40,7,11,6,6,0.5,0.6
2024-07-02T1400,3656A,120.1556,30.2864,杭州市,消防大队,,26,12,21,9,16,82,,12,,5,18,6,6,0.6,0.9
2024-07-02T1400,1270A,117.1959,31.7848,合肥市,明珠广场,,39,31,11,27,9,120,,95,95,11,12,8,8,0.3,0.2
2024-07-02T1400,1271A,117.3072,31.8764,合肥市,三里街,,36,22,7,19,6,115,,90,90,9,13,6,6,0.4,0.3
2024-07-02T1400,1272A,117.2588,31.8707,合肥市,琥珀山庄,,38,19,13,19,5,121,,98,98,5,7,4,4,0.5,0.4
2024-07-02T1400,1273A,117.1604,31.9052,合肥市,董铺水库,,,,7,45,8,,,,,3,5,,1,0.5,1.9
2024-07-02T1400,1274A,117.25,31.8571,合肥市,长江中路,,39,29,13,19,9,122,,100,100,3,6,5,4,0.6,0.6
2024-07-02T1400,1275A,117.266,31.9436,合肥市,庐阳区,,40,29,12,17,9,125,,104,104,3,7,4,4,0.4,0.4
2024-07-02T1400,1276A,117.336,31.8586,合肥市,瑶海区,,34,22,7,17,5,108,,90,90,7,8,7,7,0.2,0.2
2024-07-02T1400,1277A,117.3027,31.7964,合肥市,包河区,,35,19,6,14,3,112,,87,87,9,12,6,6,0.3,0.3
2024-07-02T1400,1278A,117.2776,31.7385,合肥市,滨湖新区,,35,24,4,19,4,110,,87,87,8,12,8,8,0.5,0.4
2024-07-02T1400,1279A,117.1318,31.8403,合肥市,高新区,,37,17,8,14,6,117,,101,101,5,7,7,7,0.5,0.5
2024-07-02T1400,3464A,117.3803,31.9147,合肥市,高教基地,,36,27,10,12,7,114,,89,89,5,7,7,6,0.4,0.4
2024-07-02T1400,3614A,79.924,37.0877,和田地区,地区环保局,颗粒物(PM10),53,56,306,13,84,138,,124,124,1,5,6,7,0.4,0.4
2024-07-02T1400,3615A,79.9131,37.113,和田地区,市环保局,,50,50,304,16,79,130,,115,115,2,9,6,6,0.4,0.5
2024-07-02T1400,2516A,108.2011,24.715,河池市,东仁乐园,细颗粒物(PM2.5),59,,38,42,23,34,,,,2,2,4,4,0.3,0.6
2024-07-02T1400,2517A,108.0497,24.6947,河池市,市环保站,,24,24,16,3,8,76,,57,57,6,8,8,6,0.5,0.6
2024-07-02T1400,2518A,108.0983,24.6989,河池市,市疾控中心,,25,23,15,3,6,78,,56,56,7,10,11,6,0.6,0.5
2024-07-02T1400,1696A,114.6778,23.7569,河源市,源西,,,,27,,21,,,52,,,13,,4,,0.5
2024-07-02T1400,1697A,114.6944,23.7586,河源市,东埔,,21,20,21,11,10,65,,49,49,7,11,6,6,0.5,0.5
2024-07-02T1400,1698A,114.6892,23.7233,河源市,老城,,22,19,21,6,7,69,,50,50,2,6,5,5,0.5,0.5
2024-07-02T1400,1718A,115.4208,35.2464,菏泽市,气象局,,37,,35,24,30,118,,96,96,7,7,2,2,0.4,0.4
2024-07-02T1400,1719A,115.4747,35.2375,菏泽市,市政协,,39,29,27,27,30,117,,95,95,5,6,4,1,0.3,0.2
2024-07-02T1400,3374A,115.5564,35.0891,菏泽市,定陶老年大学,,34,24,27,17,18,108,,86,84,7,8,2,2,0.5,0.5
2024-07-02T1400,3647A,115.4702,35.2706,菏泽市,菏泽医专,,37,31,31,25,33,116,,90,90,6,7,4,2,0.4,0.4
2024-07-02T1400,2514A,111.5264,24.4172,贺州市,环保小区,,18,14,27,3,14,56,,43,43,10,17,6,7,0.5,0.6
2024-07-02T1400,2515A,111.5608,24.4078,贺州市,政协大楼,,15,12,29,3,15,48,,42,42,14,16,8,8,0.5,0.6
2024-07-02T1400,3534A,111.4744,24.4553,贺州市,西湾,,18,8,30,6,15,55,,36,36,11,20,7,8,0.5,0.7
2024-07-02T1400,2385A,114.17,35.9019,鹤壁市,市监测站,细颗粒物(PM2.5),58,47,32,41,28,129,,114,114,6,8,5,6,0.7,1
2024-07-02T1400,2386A,114.2956,35.7511,鹤壁市,市交警支队,细颗粒物(PM2.5),58,,34,41,28,136,,119,119,4,5,6,6,0.7,0.8
2024-07-02T1400,2387A,114.2878,35.7306,鹤壁市,迎宾馆,细颗粒物(PM2.5),63,,26,45,31,139,,123,123,12,12,5,6,0.6,0.7
2024-07-02T1400,3474A,114.2617,35.6822,鹤壁市,大新区,,44,40,23,24,18,138,,123,123,8,11,5,5,0.4,0.6
2024-07-02T1400,3596A,114.1572,35.9603,鹤壁市,南山宾馆,,45,,28,31,31,136,,120,120,7,8,7,7,0.6,0.8
2024-07-02T1400,2244A,130.2537,47.3416,鹤岗市,哈啤分公司,,41,41,41,26,33,111,,99,99,5,5,13,13,0.8,0.6
2024-07-02T1400,2245A,130.2684,47.3086,鹤岗市,斯达机电,,39,31,40,27,30,106,,93,93,8,11,12,13,0.3,0.3
2024-07-02T1400,2246A,130.3114,47.3388,鹤岗市,东山纸板厂,,38,26,43,26,28,109,,99,99,5,10,16,16,0.2,0.3
2024-07-02T1400,2247A,130.1097,47.3382,鹤岗市,五号水库,,36,33,36,23,29,114,,108,108,5,6,10,10,0.2,0.1
2024-07-02T1400,2263A,127.4833,50.2524,黑河市,交通局,细颗粒物(PM2.5),63,64,69,45,48,152,,105,105,7,17,7,8,0.5,0.6
2024-07-02T1400,2264A,127.5144,50.2341,黑河市,环保局,"颗粒物(PM10),细颗粒物(PM2.5)",57,64,62,40,44,162,,123,123,8,10,12,5,0.7,0.6
2024-07-02T1400,2265A,127.5291,50.2472,黑河市,大黑河岛,,,,64,73,64,,,,,14,13,7,3,,
2024-07-02T1400,1074A,115.6838,37.7541,衡水市,电机北厂,细颗粒物(PM2.5),55,,52,39,38,108,,110,103,8,8,1,2,0.4,0.4
2024-07-02T1400,1075A,115.6303,37.7316,衡水市,市监测站,,39,,38,27,35,114,,113,108,8,9,4,4,0.6,0.6
2024-07-02T1400,3188A,115.6683,37.7217,衡水市,市城管局,,50,36,40,35,34,115,,116,112,6,8,3,3,0.5,0.5
2024-07-02T1400,3459A,115.5989,37.5491,衡水市,地表水厂,,38,26,38,24,26,121,,122,119,5,7,6,6,0.3,0.4
2024-07-02T1400,2456A,112.5003,26.9167,衡阳市,原169医院,,35,9,15,8,10,109,,94,94,2,7,4,4,0.7,0.7
2024-07-02T1400,2457A,112.6194,26.9258,衡阳市,衡阳化工总厂,,,4,17,,,95,,98,97,7,7,5,6,0.6,0.5
2024-07-02T1400,2458A,112.6211,26.8956,衡阳市,珠晖区环保局,,,11,16,,,101,,104,103,6,6,4,6,0.7,0.6
2024-07-02T1400,2459A,112.6197,26.8733,衡阳市,市委党校,,27,19,16,3,13,86,,100,98,14,8,10,8,1.1,0.7
2024-07-02T1400,2460A,112.6006,26.8919,衡阳市,市监测站,,32,18,18,7,10,101,,105,104,6,6,5,6,0.6,0.5
2024-07-02T1400,2461A,112.5664,26.9056,衡阳市,真空机电公司,,33,12,18,3,10,105,,99,98,3,8,6,9,0.6,0.8
2024-07-02T1400,3399A,112.6703,26.882,衡阳市,师范学院,,30,13,15,3,8,93,,102,100,10,6,7,8,0.7,0.6
2024-07-02T1400,2608A,103.3772,23.3993,红河哈尼族彝族自治州,污水处理厂,,35,,19,24,9,48,,29,29,6,10,10,7,0.4,0.4
2024-07-02T1400,2609A,103.3861,23.35,红河哈尼族彝族自治州,监测站,,16,9,8,3,8,49,,29,29,5,6,9,7,0.4,0.3
2024-07-02T1400,3038A,103.3758,23.368,红河哈尼族彝族自治州,州图书馆,,18,18,11,6,6,46,,33,33,5,6,6,3,0.4,0.3
2024-07-02T1400,1090A,111.6507,40.7517,呼和浩特市,呼市一监,,45,24,25,13,13,142,,140,140,9,9,6,7,0.4,0.5
2024-07-02T1400,1091A,111.6572,40.8033,呼和浩特市,小召,,44,27,26,14,16,138,,138,138,12,11,6,6,0.6,0.6
2024-07-02T1400,1094A,111.7516,40.8369,呼和浩特市,如意水处理厂,,42,26,30,17,14,132,,129,129,8,11,4,5,0.4,0.5
2024-07-02T1400,1095A,111.7276,40.8062,呼和浩特市,二十九中,,43,26,30,15,15,136,,132,132,11,14,3,3,0.4,0.5
2024-07-02T1400,1096A,111.5512,40.7866,呼和浩特市,工大金川校区,,48,48,29,14,14,133,,130,130,12,12,5,5,0.5,0.4
2024-07-02T1400,1097A,111.717,40.7612,呼和浩特市,化肥厂生活区,,41,27,40,13,16,129,,132,132,15,11,8,8,0.3,0.4
2024-07-02T1400,3698A,111.5968,40.8178,呼和浩特市,红旗小学,,,48,26,15,14,134,,132,132,14,13,3,3,,0.4
2024-07-02T1400,3699A,111.6518,40.8389,呼和浩特市,海东办,,44,19,26,16,14,139,,135,135,11,10,3,3,0.4,0.3
2024-07-02T1400,2192A,119.7594,49.2261,呼伦贝尔市,区环保局,细颗粒物(PM2.5),65,,56,47,49,136,,104,104,10,17,6,4,0.5,0.6
2024-07-02T1400,3061A,119.7512,49.1577,呼伦贝尔市,国华电力东,,45,44,52,31,40,130,,106,106,4,7,5,4,0.4,0.4
2024-07-02T1400,1250A,120.0751,30.8669,湖州市,城西水厂,,20,6,21,3,14,63,,51,51,8,16,3,3,0.5,0.5
2024-07-02T1400,2873A,120.0875,30.8955,湖州市,仁皇山新区,,22,6,23,3,17,68,,55,55,12,18,7,6,0.6,0.7
2024-07-02T1400,2907A,120.1844,30.8596,湖州市,吴兴区站,,20,8,30,3,23,62,,50,50,6,18,6,6,0.4,0.6
2024-07-02T1400,3562A,120.4148,30.8538,湖州市,南浔区站,,24,12,30,3,35,74,,58,58,4,16,2,2,0.5,0.6
2024-07-02T1400,1607A,120.9092,40.7136,葫芦岛市,龙港区,细颗粒物(PM2.5),104,101,74,78,47,105,,100,100,28,32,47,38,1.1,0.8
2024-07-02T1400,1608A,120.8392,40.7514,葫芦岛市,化工街,细颗粒物(PM2.5),55,58,56,39,35,107,,120,118,26,24,13,16,1.0,0.8
2024-07-02T1400,1609A,120.8341,40.7073,葫芦岛市,新区,细颗粒物(PM2.5),83,70,56,61,38,106,,119,115,30,24,5,10,1.0,0.8
2024-07-02T1400,1610A,120.8695,40.7677,葫芦岛市,东城区,细颗粒物(PM2.5),90,,51,67,39,104,,126,123,24,18,10,14,1.1,0.7
2024-07-02T1400,2482A,109.5981,27.5721,怀化市,林科所,,44,12,8,8,5,140,,119,119,1,4,8,7,0.7,0.7
2024-07-02T1400,2483A,109.9453,27.5444,怀化市,河西地税局,,39,18,11,14,5,122,,90,90,4,8,4,4,0.8,0.7
2024-07-02T1400,2484A,109.9781,27.5342,怀化市,市四医院,,35,,8,17,6,110,,88,88,2,7,2,1,0.7,0.7
2024-07-02T1400,2485A,109.9972,27.5578,怀化市,监测楼,,,17,9,7,5,106,,87,87,2,7,,6,0.5,0.6
2024-07-02T1400,2486A,110.0394,27.583,怀化市,市委党校,,31,12,7,3,7,98,,80,80,2,6,5,4,0.5,0.6
2024-07-02T1400,1210A,119.036,33.5981,淮安市,钵池山,,35,17,11,10,12,112,,81,81,10,11,7,6,0.7,0.7
2024-07-02T1400,1211A,119.007,33.575,淮安市,北京南路,,32,14,9,12,9,102,,72,72,7,9,6,6,0.7,0.6
2024-07-02T1400,1212A,118.989,33.6067,淮安市,市监测站,,34,17,12,14,12,107,,75,75,6,10,5,6,0.6,0.8
2024-07-02T1400,1213A,119.135,33.5039,淮安市,楚州区监测站,,34,17,13,9,10,106,,74,74,8,10,4,4,0.5,0.5
2024-07-02T1400,1214A,119.0186,33.6297,淮安市,淮阴区监测站,,34,14,11,12,12,107,,76,76,11,14,6,6,0.5,0.6
2024-07-02T1400,3426A,118.8755,33.2894,淮安市,新华书店,,39,,9,27,7,118,,86,86,9,10,5,5,0.6,0.5
2024-07-02T1400,2282A,116.8004,33.975,淮北市,监测站,,45,,33,17,25,141,,112,112,1,4,6,5,0.5,0.6
2024-07-02T1400,2283A,116.8091,33.9007,淮北市,烈山区政府,,45,18,34,18,19,144,,115,115,3,4,4,4,0.6,0.6
2024-07-02T1400,3330A,116.8873,33.9836,淮北市,杜集区检察院,,46,40,47,15,31,147,,113,113,4,6,6,6,0.5,0.7
2024-07-02T1400,4017A,116.7923,33.9535,淮北市,市博物馆,,47,28,40,17,25,150,,121,121,2,3,4,4,0.6,0.7
2024-07-02T1400,2277A,116.8305,32.7727,淮南市,潘集区政府,,49,27,17,22,14,156,,118,118,3,4,3,3,0.2,0.2
2024-07-02T1400,2278A,117.0067,32.6524,淮南市,师范学院,,50,36,24,31,23,158,,118,118,7,5,9,6,0.2,0.2
2024-07-02T1400,2279A,116.8569,32.5951,淮南市,谢家集区政府,,49,23,16,6,7,155,,115,115,2,4,5,5,0.3,0.2
2024-07-02T1400,2280A,116.8281,32.633,淮南市,八公山区政府,,48,31,31,25,17,153,,115,115,1,3,3,2,0.3,0.2
2024-07-02T1400,2281A,116.6325,32.6201,淮南市,焦岗湖风景区管理处,,32,28,14,18,7,102,,72,72,6,6,3,2,0.3,0.2
2024-07-02T1400,2894A,117.0566,32.6531,淮南市,经济技术开发区消防队,,49,36,18,28,12,156,,114,114,6,5,6,4,0.2,0.2
2024-07-02T1400,3329A,117.0108,32.5893,淮南市,山南新区,,49,38,18,23,7,156,,116,116,5,5,3,2,0.4,0.4
2024-07-02T1400,2446A,114.9028,30.4742,黄冈市,职工中心,,,24,14,18,11,149,,118,118,8,9,,8,0.7,0.5
2024-07-02T1400,2929A,114.8858,30.4519,黄冈市,红卫路,臭氧1小时,57,28,14,23,12,165,,127,127,13,12,8,8,0.5,0.5
2024-07-02T1400,3398A,114.9136,30.4445,黄冈市,市林业局,臭氧1小时,53,30,15,18,12,162,,127,127,6,6,6,5,0.5,0.4
2024-07-02T1400,2672A,102.0199,35.5102,黄南藏族自治州,同仁县隆务镇,,39,16,23,3,9,123,,92,92,2,2,11,9,0.2,0.2
2024-07-02T1400,2295A,118.2903,29.6963,黄山市,延安路89号,,17,14,21,7,7,52,,32,32,2,7,5,5,0.4,0.4
2024-07-02T1400,2296A,118.327,29.7178,黄山市,黄山东路89号,,15,13,13,8,6,48,,29,29,4,7,4,4,0.3,0.4
2024-07-02T1400,2297A,118.1371,30.2756,黄山市,黄山区政府5号楼,,21,7,13,3,6,65,,60,57,7,5,6,6,0.3,0.3
2024-07-02T1400,2423A,115.0601,30.2313,黄石市,沈家营,,49,24,17,11,3,156,,124,124,7,10,6,6,0.6,0.5
2024-07-02T1400,2424A,115.0817,30.2006,黄石市,陈家湾,,48,27,17,12,4,151,,118,118,6,10,4,5,0.6,0.6
2024-07-02T1400,2426A,114.8988,30.2019,黄石市,铁山,,48,30,18,10,7,152,,116,116,4,8,13,10,0.9,0.8
2024-07-02T1400,2427A,115.0307,30.2092,黄石市,团城山,,47,21,15,7,3,150,,123,123,4,5,5,5,0.8,0.6
2024-07-02T1400,3149A,115.0235,30.1578,黄石市,笔架山北路,,48,34,24,9,3,152,,117,117,8,7,12,7,0.7,0.6
2024-07-02T1400,1392A,114.4183,23.0528,惠州市,河南岸金山湖子站,,22,16,20,9,10,70,,53,53,1,5,4,4,0.3,0.4
2024-07-02T1400,1393A,114.4053,23.0822,惠州市,下埔横江三路子站,,23,18,22,8,10,73,,57,57,4,7,6,6,0.4,0.5
2024-07-02T1400,1394A,114.4103,23.1142,惠州市,江北云山西路子站,,24,16,19,6,8,74,,58,58,2,4,8,8,0.4,0.4
2024-07-02T1400,1395A,114.4645,22.7833,惠州市,惠阳区承修路船湖子站,,17,17,19,8,9,53,,48,48,7,8,1,1,0.5,0.5
2024-07-02T1400,1396A,114.5317,22.7422,惠州市,大亚湾管委会子站,,19,16,20,6,7,59,,58,58,4,6,5,5,0.5,0.5
2024-07-02T1400,3314A,114.4338,22.8134,惠州市,惠阳秋长,,22,12,18,8,9,69,,57,57,3,4,4,4,0.6,0.5
2024-07-02T1400,3452A,114.6517,22.775,惠州市,大亚湾霞涌,,23,23,19,11,4,57,,52,52,3,6,3,3,0.4,0.4
2024-07-02T1400,2240A,130.9762,45.3001,鸡西市,环保局,,50,50,62,34,47,90,,76,76,6,9,6,6,0.4,0.5
2024-07-02T1400,2243A,130.9429,45.3039,鸡西市,第一中学,,45,45,66,30,45,123,,96,96,2,5,7,8,0.3,0.4
2024-07-02T1400,3707A,131.0207,45.3073,鸡西市,欧美日汽修厂,,49,40,69,34,54,106,,81,81,8,15,6,7,0.2,0.3
2024-07-02T1400,3709A,130.9967,45.3106,鸡西市,市政设施管理处,颗粒物(PM10),52,54,72,27,48,114,,88,88,8,12,7,7,0.2,0.4
2024-07-02T1400,2367A,114.9754,27.0803,吉安市,红声器材厂,,20,17,25,3,10,64,,61,53,6,8,9,12,0.5,0.4
2024-07-02T1400,2368A,114.9658,27.0999,吉安市,市森林工业局,,19,15,23,6,10,58,,56,50,7,10,9,11,0.4,0.5
2024-07-02T1400,2369A,114.99,27.1312,吉安市,市环境监测站,,20,20,22,8,9,63,,56,53,5,6,12,12,0.8,0.6
2024-07-02T1400,2370A,115.0093,27.0968,吉安市,青原区法院,,20,20,24,10,10,60,,56,49,7,9,10,12,0.3,0.3
2024-07-02T1400,1772A,126.54,43.8622,吉林市,哈达湾,,41,25,57,21,41,131,,113,113,5,30,4,7,0.4,0.6
2024-07-02T1400,1773A,126.5844,43.8358,吉林市,东局子,,40,24,53,22,41,128,,103,103,8,27,4,5,0.5,0.7
2024-07-02T1400,1774A,126.5052,43.8245,吉林市,电力学院,,39,34,58,22,40,122,,87,87,7,30,6,12,0.5,0.7
2024-07-02T1400,1775A,126.6133,43.8972,吉林市,江北,,38,27,52,17,39,120,,104,104,6,14,8,8,0.6,0.8
2024-07-02T1400,1776A,126.555,43.8306,吉林市,江南公园,,39,32,54,25,43,124,,95,95,12,36,3,4,0.5,0.8
2024-07-02T1400,1778A,126.7061,43.7133,吉林市,丰满,,,,,,,,,,,,,,,,
2024-07-02T1400,2868A,126.4739,43.953,吉林市,九站,,42,35,60,18,45,133,,106,106,4,42,6,9,0.5,0.6
2024-07-02T1400,1299A,116.9862,36.6114,济南市,科干所,,32,,40,22,31,92,,96,96,18,18,6,7,0.8,0.6
2024-07-02T1400,1300A,116.9376,36.665,济南市,农科所,,31,24,43,15,31,97,,103,103,18,21,7,8,0.7,0.5
2024-07-02T1400,1301A,117.1265,36.6734,济南市,开发区,,29,17,37,15,28,92,,103,103,19,18,7,7,0.8,0.7
2024-07-02T1400,1303A,117.0624,36.6868,济南市,省种子仓库,,32,27,47,22,38,96,,100,100,12,18,5,6,0.8,0.7
2024-07-02T1400,1304A,116.9489,36.6447,济南市,机床二厂,,33,24,43,17,32,105,,111,111,13,18,8,8,0.6,0.5
2024-07-02T1400,1305A,117.0495,36.663,济南市,市监测站,,32,,41,22,34,100,,106,106,18,21,10,10,0.8,0.6
2024-07-02T1400,1306A,116.7675,36.5484,济南市,长清党校,,35,24,43,24,38,99,,101,101,12,14,7,8,0.9,0.7
2024-07-02T1400,1616A,117.6795,36.229,济南市,技术学院,,37,,37,14,31,118,,111,111,4,9,8,7,0.6,0.8
2024-07-02T1400,1961A,117.532,36.6868,济南市,东山小学,,36,32,30,22,31,114,,102,102,14,19,5,5,0.6,0.7
2024-07-02T1400,3059A,117.7161,36.2049,济南市,泰兴公司,,36,,35,12,30,113,,103,103,7,12,7,8,0.3,0.6
2024-07-02T1400,3064A,117.6867,36.2171,济南市,莱芜战役纪念馆,,31,14,38,3,27,97,,97,97,7,10,7,7,0.6,0.7
2024-07-02T1400,3494A,117.1673,36.9782,济南市,济阳区政府,,29,24,49,20,38,92,,106,101,13,7,5,4,0.8,0.4
2024-07-02T1400,3495A,117.1171,36.63,济南市,锦屏中学,,,22,41,15,31,93,,109,108,19,16,8,9,,0.6
2024-07-02T1400,3682A,116.9814,36.6819,济南市,济南四建,,32,,41,22,39,91,,101,100,16,18,6,7,1.0,0.8
2024-07-02T1400,1653A,116.6251,35.4302,济宁市,火炬城,,49,45,34,34,25,95,,105,91,10,10,10,9,0.8,0.8
2024-07-02T1400,1655A,116.5491,35.4042,济宁市,电化厂,细颗粒物(PM2.5),55,51,34,39,28,94,,109,90,12,10,5,5,0.7,0.7
2024-07-02T1400,3500A,116.5814,35.3707,济宁市,北湖一中,,48,48,39,31,22,91,,110,92,12,10,5,6,0.7,0.7
2024-07-02T1400,3501A,116.8249,35.5593,济宁市,服务中心,,40,37,27,28,27,93,,101,92,11,12,2,3,0.6,0.6
2024-07-02T1400,3678A,116.5907,35.4054,济宁市,市第七中学,细颗粒物(PM2.5),55,46,28,39,24,100,,112,96,12,12,6,4,0.6,0.6
2024-07-02T1400,2255A,130.2751,46.8028,佳木斯市,佳纺,,41,41,63,26,47,124,,106,106,6,14,7,6,0.5,0.5
2024-07-02T1400,2256A,130.3995,46.8307,佳木斯市,发电厂,,42,37,52,29,48,129,,108,108,6,10,6,5,0.5,0.6
2024-07-02T1400,2257A,130.3258,46.7975,佳木斯市,环保局,,43,32,60,30,49,128,,103,103,6,12,6,6,0.6,0.6
2024-07-02T1400,2258A,130.3648,46.8032,佳木斯市,十一中,,45,42,56,31,52,132,,107,107,9,15,7,7,0.5,0.6
2024-07-02T1400,2259A,130.3794,46.7588,佳木斯市,四丰,,,,,,,,,,,,,,,,
2024-07-02T1400,1252A,120.7436,30.778,嘉兴市,清河小学,,40,16,30,8,17,125,,84,84,6,12,5,5,0.3,0.6
2024-07-02T1400,1253A,120.726,30.7478,嘉兴市,嘉兴学院,,35,20,28,8,20,109,,70,70,10,17,2,2,0.5,0.6
2024-07-02T1400,2872A,120.7846,30.7525,嘉兴市,南湖区残联,,48,19,27,10,21,153,,98,98,5,13,4,4,0.4,0.5
2024-07-02T1400,3407A,120.6916,30.7739,嘉兴市,秀洲住建,,35,,28,17,25,111,,77,77,8,18,3,3,0.5,0.6
2024-07-02T1400,1945A,98.2908,39.7711,嘉峪关市,气象局,,44,27,30,7,13,139,,91,91,3,18,4,7,0.2,0.4
2024-07-02T1400,2884A,98.2672,39.7978,嘉峪关市,酒钢宾馆,,45,36,32,9,11,142,,105,105,4,17,7,10,0.3,0.4
2024-07-02T1400,3248A,98.2643,39.7724,嘉峪关市,雄关区,,43,21,26,6,13,137,,90,90,4,23,7,8,0.4,0.4
2024-07-02T1400,1383A,113.1064,22.6058,江门市,北街,,,,20,10,10,52,,47,47,5,5,2,2,0.5,0.5
2024-07-02T1400,1384A,113.0731,22.5835,江门市,西区,,19,,26,10,10,58,,52,52,6,7,4,6,0.4,0.4
2024-07-02T1400,1385A,113.0219,22.5311,江门市,圭峰西,,18,14,21,9,11,57,,50,50,4,8,3,3,0.4,0.5
2024-07-02T1400,1386A,113.0828,22.5947,江门市,东湖,,19,18,22,8,8,58,,54,54,7,8,4,5,0.4,0.4
2024-07-02T1400,3311A,113.1075,22.5647,江门市,江海富民,,34,34,37,6,15,58,,56,56,7,7,5,5,0.5,0.5
2024-07-02T1400,3449A,113.05,22.4667,江门市,新会银湖,,18,16,20,10,8,55,,50,50,5,7,3,3,0.6,0.6
2024-07-02T1400,1828A,113.227,35.2125,焦作市,市环保局,,47,19,25,11,19,149,,125,125,1,5,1,2,0.5,0.4
2024-07-02T1400,1830A,113.1992,35.2590,焦作市,影视城,,,,,,,,,,,,,,,,
2024-07-02T1400,3169A,113.2725,35.2067,焦作市,太极体育中心,,46,29,30,12,19,147,,120,120,2,5,2,2,0.4,0.5
2024-07-02T1400,3335A,113.3137,35.2641,焦作市,马村街道办,,46,21,24,10,20,145,,121,121,3,6,3,2,0.5,0.5
2024-07-02T1400,3336A,113.2465,35.2373,焦作市,焦作技师学院,,46,17,26,14,19,146,,119,119,2,6,1,2,0.6,0.6
2024-07-02T1400,3477A,113.1656,35.2539,焦作市,中站许衡医院,,44,28,23,15,30,138,,107,107,4,10,6,5,0.6,0.6
2024-07-02T1400,3981A,113.2449,35.1803,焦作市,原李万街道办,,43,20,29,9,17,135,,113,113,2,5,5,6,0.5,0.5
2024-07-02T1400,1708A,116.3701,23.5345,揭阳市,新兴,,,31,29,12,9,,,43,43,6,7,3,3,0.6,0.6
2024-07-02T1400,1709A,116.3264,23.5443,揭阳市,西马,,20,17,27,10,10,61,,46,46,7,5,2,2,0.7,0.6
2024-07-02T1400,1710A,116.3611,23.5626,揭阳市,东兴,,21,21,35,8,9,59,,49,49,7,4,1,1,0.7,0.7
2024-07-02T1400,1711A,116.4151,23.5294,揭阳市,渔湖,,28,28,31,7,7,45,,42,42,13,8,2,2,0.5,0.5
2024-07-02T1400,3320A,116.403,23.5699,揭阳市,曲溪,,17,7,18,3,7,52,,48,48,7,6,3,3,0.5,0.5
2024-07-02T1400,1944A,102.1692,38.5167,金昌市,天庆家园,,41,15,26,10,18,129,,98,98,2,16,6,11,0.3,0.5
2024-07-02T1400,3170A,102.1864,38.5253,金昌市,市委党校,,41,20,41,3,18,129,,102,102,6,15,8,16,0.5,0.7
2024-07-02T1400,4022A,102.1647,38.5371,金昌市,金川区人防中心,,44,24,31,9,19,138,,111,111,5,14,13,18,0.6,0.7
2024-07-02T1400,1262A,119.647,29.077,金华市,十五中,,28,,42,11,19,87,,52,52,9,20,2,3,0.4,0.6
2024-07-02T1400,1263A,119.686,29.1029,金华市,监测站,,25,14,34,7,18,80,,55,55,4,23,3,3,0.2,0.5
2024-07-02T1400,3659A,119.656,29.1131,金华市,气象局,,28,16,37,3,16,87,,48,48,7,31,6,5,0.4,0.7
2024-07-02T1400,1767A,121.1115,41.0879,锦州市,南山,,,64,56,49,43,102,,91,91,22,24,7,13,,0.7
2024-07-02T1400,1768A,121.0533,40.8434,锦州市,开发区,细颗粒物(PM2.5),80,61,59,59,47,123,,100,100,16,24,9,14,0.9,0.8
2024-07-02T1400,1769A,121.1836,41.1119,锦州市,百股街道,颗粒物(PM10),51,52,59,34,39,121,,94,94,19,30,9,19,0.8,1
2024-07-02T1400,1770A,121.1178,41.1222,锦州市,天安街道,细颗粒物(PM2.5),73,79,59,53,43,90,,91,91,34,25,8,8,0.9,0.8
2024-07-02T1400,1771A,121.1303,41.1386,锦州市,北湖公园,细颗粒物(PM2.5),92,74,55,68,45,99,,97,97,23,22,8,9,0.7,0.7
2024-07-02T1400,2160A,112.85,35.5051,晋城市,自来水公司,臭氧1小时,85,23,26,17,15,188,,147,147,10,13,10,8,1.1,1
2024-07-02T1400,2161A,112.8318,35.4936,晋城市,白云商贸,臭氧1小时,78,35,26,12,15,182,,148,148,9,13,9,8,0.8,1
2024-07-02T1400,2162A,112.8508,35.4887,晋城市,市环保局,臭氧1小时,83,30,32,17,17,186,,148,148,11,12,10,8,1.0,1
2024-07-02T1400,2163A,112.8676,35.4897,晋城市,技术学院,臭氧1小时,77,38,30,17,17,181,,147,147,12,15,8,6,1.2,1.1
2024-07-02T1400,2165A,112.8453,35.546,晋城市,白马寺,,,,,,,,,,,,,,,,
2024-07-02T1400,3620A,112.8271,35.4828,晋城市,泽州一中,臭氧1小时,72,21,19,19,15,177,,147,147,10,12,10,10,1.1,1.2
2024-07-02T1400,2171A,112.7532,37.6945,晋中市,锦纶小区,,41,12,22,3,9,131,,123,119,8,11,6,6,0.3,0.4
2024-07-02T1400,2173A,112.7249,37.7067,晋中市,南都小区,,42,19,29,14,20,133,,128,121,8,9,6,5,0.4,0.5
2024-07-02T1400,2174A,112.6991,37.6982,晋中市,榆次区政府,,39,,21,14,17,124,,124,113,9,12,6,7,0.3,0.4
2024-07-02T1400,2865A,112.7195,37.6828,晋中市,榆次三中,,43,7,22,3,6,135,,128,122,6,9,5,5,0.5,0.5
2024-07-02T1400,2439A,112.2014,31.0481,荆门市,竹园小学,,46,34,36,15,15,147,,120,120,10,9,8,9,0.6,0.5
2024-07-02T1400,2440A,112.1969,30.9891,荆门市,掇刀,,45,26,27,18,17,143,,130,130,12,10,7,7,0.5,0.6
2024-07-02T1400,2441A,112.2213,31.0386,荆门市,石化一小,,50,34,32,22,12,160,,125,125,11,9,18,12,0.6,0.5
2024-07-02T1400,3012A,112.1849,31.0362,荆门市,西山林语,,45,29,26,13,18,143,,123,123,6,5,9,8,0.4,0.5
2024-07-02T1400,3547A,112.1632,31.0138,荆门市,龙泉中学南校,,44,17,24,15,16,140,,127,127,7,8,8,8,0.6,0.6
2024-07-02T1400,1844A,112.2494,30.3197,荆州市,市图书馆,臭氧1小时,58,16,18,15,14,166,,128,128,7,8,6,6,0.6,0.6
2024-07-02T1400,1845A,112.2008,30.3544,荆州市,市委党校,,50,20,20,7,12,160,,122,122,8,9,6,6,0.6,0.6
2024-07-02T1400,3194A,112.2747,30.3122,荆州市,管委会,臭氧1小时,69,22,19,14,13,175,,132,132,8,8,5,4,0.5,0.5
2024-07-02T1400,3548A,112.1655,30.3364,荆州市,学苑路,,50,28,21,19,18,157,,125,125,7,10,6,7,0.6,0.6
2024-07-02T1400,2342A,117.3102,29.3867,景德镇市,王港中学,,,,,,,,,,,,,,,,
2024-07-02T1400,2343A,117.2117,29.2933,景德镇市,老干部活动中心,,21,,13,8,7,67,,66,66,20,7,8,6,0.4,0.2
2024-07-02T1400,2344A,117.1894,29.2789,景德镇市,兽医站,,24,9,19,3,8,76,,58,58,16,6,6,6,0.4,0.3
2024-07-02T1400,2345A,117.1547,29.2617,景德镇市,台达陶瓷,,19,15,19,10,11,58,,43,43,17,13,20,14,0.5,0.3
2024-07-02T1400,2346A,117.2461,29.2956,景德镇市,陶研所,,17,15,14,8,6,52,,56,55,29,5,3,4,0.8,0.3
2024-07-02T1400,1803A,115.9872,29.6815,九江市,十里,,33,7,19,3,12,103,,95,95,9,16,10,9,0.8,0.7
2024-07-02T1400,1804A,115.9584,29.7046,九江市,茅山头,,36,6,14,3,9,114,,104,104,9,19,11,11,0.6,0.6
2024-07-02T1400,1805A,115.9877,29.7295,九江市,西园,,,,11,,8,,,40,,,20,,10,,0.8
2024-07-02T1400,1806A,116.0172,29.6547,九江市,五七二七厂,,32,6,8,3,5,101,,108,108,7,8,9,8,0.8,0.6
2024-07-02T1400,1808A,115.9114,29.6038,九江市,综合工业园,,37,6,10,3,7,116,,116,116,9,13,9,10,0.9,0.9
2024-07-02T1400,1809A,116.0721,29.7535,九江市,石化总厂,,35,12,13,10,11,111,,104,104,9,9,10,10,0.8,0.7
2024-07-02T1400,1810A,115.9773,29.5698,九江市,庐山气象台,,38,,13,10,12,119,,124,124,2,2,9,14,0.7,0.9
2024-07-02T1400,3190A,116.0254,29.6994,九江市,外国语学校,,,6,9,3,7,114,,110,110,16,17,,5,0.8,0.7
2024-07-02T1400,2658A,98.5061,39.7443,酒泉市,仓门街子站,,41,31,38,11,19,131,,92,92,3,17,6,16,0.2,0.2
2024-07-02T1400,2659A,98.4989,39.7256,酒泉市,油田生活基地,,44,34,41,15,16,140,,98,98,3,18,10,22,0.2,0.2
2024-07-02T1400,2698A,76.0072,39.4467,喀什地区,巡警大队,,42,35,51,14,9,132,,104,104,9,13,3,3,0.2,0.2
2024-07-02T1400,2699A,75.9755,39.4694,喀什地区,吾办,,40,35,51,6,18,128,,104,104,8,11,3,3,0.3,0.3
2024-07-02T1400,4027A,75.9483,39.4689,喀什地区,老干局,,43,30,49,3,6,136,,105,105,5,11,4,4,0.2,0.3
2024-07-02T1400,1824A,114.3389,34.7781,开封市,肿瘤医院,,41,38,24,18,14,130,,123,123,3,4,3,2,0.8,0.9
2024-07-02T1400,1826A,114.2885,34.7965,开封市,世纪星幼儿园,细颗粒物(PM2.5),53,39,23,37,17,136,,126,126,4,4,3,3,0.5,0.5
2024-07-02T1400,3147A,114.3438,34.8106,开封市,龙亭公园,细颗粒物(PM2.5),69,,27,50,22,120,,111,111,8,8,3,2,0.5,0.5
2024-07-02T1400,3210A,114.3644,34.7964,开封市,汴京公园,,50,42,24,35,25,124,,117,117,4,5,3,3,0.6,0.7
2024-07-02T1400,3473A,114.2485,34.8306,开封市,技师学院,,43,40,27,28,15,136,,122,122,5,7,2,2,0.8,0.6
2024-07-02T1400,3592A,114.4644,34.7556,开封市,祥符区生态环境局,,49,40,27,34,18,123,,117,117,6,7,3,2,0.6,0.7
2024-07-02T1400,1951A,84.895,45.6094,克拉玛依市,长征新村,,26,18,18,3,5,83,,112,105,15,8,8,9,0.3,0.2
2024-07-02T1400,1952A,84.8988,45.5893,克拉玛依市,南林小区,,26,15,22,9,14,83,,115,105,16,17,4,3,0.1,0.3
2024-07-02T1400,1954A,84.905,44.3396,克拉玛依市,独山子区,,28,11,23,3,9,89,,91,91,8,8,5,9,0.3,0.3
2024-07-02T1400,1955A,85.6979,46.098,克拉玛依市,乌尔禾区商贸楼,,25,,19,8,8,80,,109,104,5,9,3,5,0.2,0.2
2024-07-02T1400,3612A,85.1045,45.6899,克拉玛依市,白碱滩区新站,,30,,13,16,14,95,,119,115,8,5,5,6,0.3,0.3
2024-07-02T1400,2697A,76.1454,39.7142,克孜勒苏柯尔克孜自治州,市人民政府,,44,20,38,10,15,140,,116,116,2,5,8,10,0.2,0.3
2024-07-02T1400,3665A,76.1658,39.7157,克孜勒苏柯尔克孜自治州,克州文化中心,,44,16,27,13,15,138,,124,124,3,4,11,13,0.2,0.2
2024-07-02T1400,1450A,102.8204,24.8886,昆明市,呈贡新区,,26,19,18,18,11,63,,33,33,6,16,5,6,0.6,0.5
2024-07-02T1400,1451A,102.6251,24.9608,昆明市,西山森林公园,,,,,,,,,,,,,,,,
2024-07-02T1400,1452A,102.7252,25.0902,昆明市,龙泉镇,,19,14,15,13,6,50,,21,21,10,16,6,6,0.7,0.6
2024-07-02T1400,1453A,102.7266,25.0375,昆明市,东风东路,,29,29,21,13,9,44,,16,16,12,18,2,3,0.5,0.5
2024-07-02T1400,1454A,102.6742,25.0669,昆明市,金鼎山,,30,30,20,16,7,45,,21,21,13,16,9,9,0.5,0.4
2024-07-02T1400,1455A,102.6644,25.0401,昆明市,碧鸡广场,,36,36,20,12,9,49,,20,20,11,15,3,3,0.4,0.3
2024-07-02T1400,3179A,102.7494,25.0119,昆明市,官渡区博物馆,,26,26,20,14,10,53,,20,20,8,16,8,8,0.4,0.6
2024-07-02T1400,3375A,102.8017,24.8336,昆明市,青年创业园,,29,25,17,20,11,61,,27,27,4,14,8,8,0.4,0.4
2024-07-02T1400,3550A,102.7997,24.9786,昆明市,昆明学院,,31,31,28,21,15,57,,23,23,8,19,4,5,0.5,0.5
2024-07-02T1400,3551A,102.5967,24.6736,昆明市,晋宁区生态环境分局,,15,15,14,3,9,40,,26,26,7,11,7,6,0.6,0.8
2024-07-02T1400,3552A,102.6678,24.9856,昆明市,云天化总部,,28,26,20,19,11,52,,24,24,7,16,2,2,0.7,0.6
2024-07-02T1400,1456A,91.1319,29.6514,拉萨市,八廓街,,40,,9,8,6,128,,114,114,7,10,6,7,0.2,0.2
2024-07-02T1400,1457A,91.1221,29.6747,拉萨市,市环保局,,37,8,10,3,6,117,,106,106,13,12,9,9,0.5,0.5
2024-07-02T1400,1458A,91.0874,29.6475,拉萨市,区监测站,,38,9,8,7,6,119,,108,108,7,9,8,7,0.4,0.3
2024-07-02T1400,1459A,91.1774,29.6541,拉萨市,西藏大学,,38,,8,6,6,120,,114,114,4,6,9,9,0.2,0.2
2024-07-02T1400,1460A,90.9798,29.6588,拉萨市,区辐射站,,37,10,11,3,6,116,,105,105,10,10,7,7,0.3,0.3
2024-07-02T1400,1461A,91.0834,29.6292,拉萨市,拉萨火车站,,39,6,10,3,7,122,,110,110,7,6,9,9,0.2,0.2
2024-07-02T1400,2520A,109.2203,23.7256,来宾市,来宾技工学校,,18,11,14,6,9,56,,43,43,4,5,6,6,0.7,0.7
2024-07-02T1400,3535A,109.1781,23.7297,来宾市,兴宾区政府,,18,10,14,3,7,55,,47,42,6,5,4,4,0.6,0.6
2024-07-02T1400,4002A,109.2416,23.7461,来宾市,中南小学,,19,19,18,3,8,57,,46,43,9,8,4,6,0.7,0.7
2024-07-02T1400,1476A,103.631,36.1031,兰州市,兰炼宾馆,臭氧1小时,80,33,44,22,25,184,,101,101,11,31,14,15,0.4,0.4
2024-07-02T1400,1477A,104.1373,35.9454,兰州市,榆中兰大校区,,,,,,,,,,,,,,,,
2024-07-02T1400,1478A,103.8412,36.0726,兰州市,生物制品所,,48,31,41,18,26,153,,77,77,9,37,11,13,0.3,0.4
2024-07-02T1400,1479A,103.831,36.0464,兰州市,铁路设计院,臭氧1小时,52,29,41,24,23,161,,78,78,25,52,8,9,0.4,0.5
2024-07-02T1400,3186A,103.7158,36.1058,兰州市,教育港,臭氧1小时,79,39,45,16,23,183,,98,98,12,30,15,14,0.4,0.4
2024-07-02T1400,3241A,103.7439,36.0842,兰州市,百合公园,臭氧1小时,59,37,34,18,20,167,,92,92,14,31,13,11,0.4,0.4
2024-07-02T1400,3242A,103.9611,35.998,兰州市,和平,臭氧1小时,87,29,30,13,15,189,,116,116,11,19,14,12,0.3,0.3
2024-07-02T1400,3245A,103.6633,36.533,兰州新区,新区管委会,,47,26,40,12,19,150,,104,104,5,19,12,12,0.4,0.4
2024-07-02T1400,3246A,103.6975,36.4789,兰州新区,舟曲中学,,47,16,34,10,19,148,,99,99,6,23,12,14,0.4,0.5
2024-07-02T1400,1067A,116.6708,39.5111,廊坊市,药材公司,,42,31,42,29,27,114,,71,68,13,18,1,2,0.4,0.5
2024-07-02T1400,1068A,116.7214,39.5589,廊坊市,开发区,,46,46,52,31,32,106,,59,59,12,19,1,2,0.4,0.5
2024-07-02T1400,1070A,116.7244,39.5269,廊坊市,北华航天学院,,43,42,50,30,25,104,,68,68,10,16,3,2,0.4,0.5
2024-07-02T1400,2919A,116.7022,39.5453,廊坊市,河北工业大学,,43,43,52,23,28,111,,64,64,8,15,3,3,0.4,0.5
2024-07-02T1400,2535A,103.7723,29.5462,乐山市,花湖湾,,,,19,15,14,111,,59,59,4,16,4,7,,0.5
2024-07-02T1400,2536A,103.7627,29.5844,乐山市,牛耳桥,,38,19,23,14,13,121,,72,72,8,24,3,5,0.5,0.7
2024-07-02T1400,2537A,103.7508,29.6006,乐山市,市第三水厂,,40,18,19,8,13,126,,77,77,6,22,3,4,0.2,0.4
2024-07-02T1400,2538A,103.7571,29.5664,乐山市,市监测站,,40,20,24,13,14,126,,82,82,4,15,1,5,0.6,0.9
2024-07-02T1400,3361A,103.7311,29.5628,乐山市,理工大学,,42,23,25,13,13,133,,80,80,3,17,4,8,0.3,0.7
2024-07-02T1400,2598A,100.2143,26.8576,丽江市,西南郊,,,,,,,,,,,,,,,,
2024-07-02T1400,2599A,100.2497,26.8802,丽江市,丽江古城,,20,20,20,11,11,64,,46,46,8,10,7,6,0.6,0.6
2024-07-02T1400,2600A,100.2203,26.8906,丽江市,市中心,,21,,15,3,9,66,,51,51,9,12,10,10,0.6,0.6
2024-07-02T1400,1267A,119.914,28.4514,丽水市,监测站大楼,,18,14,24,12,8,57,,58,58,2,9,2,3,0.3,0.4
2024-07-02T1400,1268A,119.93,28.4586,丽水市,莲都小学,,18,14,24,3,8,57,,58,58,1,9,3,3,0.3,0.4
2024-07-02T1400,1269A,119.879,28.4231,丽水市,余庄前,,18,12,20,6,11,56,,44,44,4,8,2,2,0.4,0.5
2024-07-02T1400,1173A,119.176,34.5885,连云港市,市环境监测站,,35,12,17,7,13,109,,84,84,11,9,6,5,0.4,0.4
2024-07-02T1400,3000A,119.3581,34.6972,连云港市,德源药业,,32,9,10,3,7,102,,72,72,6,4,4,4,0.5,0.4
2024-07-02T1400,3007A,119.178,34.844,连云港市,新城一中,,36,11,23,3,10,114,,91,91,5,5,4,4,0.6,0.7
2024-07-02T1400,3008A,119.3608,34.7519,连云港市,胡沟管理处,,34,31,13,3,12,108,,71,71,1,5,6,6,0.6,0.5
2024-07-02T1400,3009A,119.1478,34.5911,连云港市,矿山设计院,,32,17,16,3,9,102,,78,78,11,8,3,3,0.3,0.4
2024-07-02T1400,3434A,119.2413,34.6539,连云港市,工贸学校,,36,6,11,3,7,115,,84,84,4,4,6,6,0.7,0.7
2024-07-02T1400,3664A,119.4172,34.7341,连云港市,连云街道,,35,6,13,3,8,110,,77,77,8,9,2,2,0.7,0.7
2024-07-02T1400,2571A,102.3431,27.8099,凉山彝族自治州,青龙寺,,21,16,13,3,7,66,,57,57,9,4,3,2,0.5,0.4
2024-07-02T1400,2572A,102.2721,27.8415,凉山彝族自治州,邛海宾馆,,25,25,17,14,9,70,,55,55,11,10,10,8,0.8,0.7
2024-07-02T1400,2573A,102.2625,27.898,凉山彝族自治州,西昌市政府,,24,20,15,13,9,74,,53,53,9,7,10,9,0.7,0.6
2024-07-02T1400,2574A,102.2685,27.8851,凉山彝族自治州,凉山州政府,,25,20,18,10,8,80,,55,55,9,10,10,8,0.9,0.9
2024-07-02T1400,2575A,102.237,27.8914,凉山彝族自治州,长安,,25,22,19,11,10,78,,42,42,11,11,12,11,0.6,0.6
2024-07-02T1400,2212A,123.2,41.1953,辽阳市,宏伟区,颗粒物(PM10),66,81,79,34,41,52,,44,44,23,28,10,22,1.0,1
2024-07-02T1400,2213A,123.1683,41.2495,辽阳市,新华园,颗粒物(PM10),55,59,76,33,47,74,,58,58,23,33,13,22,0.8,1
2024-07-02T1400,2214A,123.2354,41.2639,辽阳市,滨河路,颗粒物(PM10),51,51,79,30,45,62,,52,52,22,37,10,16,0.8,1
2024-07-02T1400,2215A,123.149,41.2991,辽阳市,铁西工业园,颗粒物(PM10),63,75,71,30,43,49,,50,50,26,30,13,20,1.1,1.2
2024-07-02T1400,2227A,125.1358,42.8845,辽源市,环保局,,40,25,52,13,40,125,,102,102,8,27,8,9,0.5,0.7
2024-07-02T1400,3239A,125.0764,42.9078,辽源市,银鹰制药,,38,28,53,18,41,119,,99,99,21,31,6,8,0.8,0.9
2024-07-02T1400,1625A,115.9848,36.4372,聊城市,区政府,,42,39,42,29,36,117,,94,94,12,15,7,7,0.6,0.5
2024-07-02T1400,2878A,116.0072,36.4343,聊城市,聊大东校,,49,35,45,34,42,122,,99,99,10,12,4,5,0.9,0.8
2024-07-02T1400,3200A,115.9819,36.4978,聊城市,监控中心,,49,38,37,34,26,115,,94,94,12,13,7,7,0.7,0.5
2024-07-02T1400,3513A,116.0445,36.4361,聊城市,九州社区,,49,41,51,34,37,118,,97,97,15,16,2,4,0.7,0.6
2024-07-02T1400,4018A,116.0567,36.4608,聊城市,星美广场,细颗粒物(PM2.5),52,44,55,36,35,114,,94,94,11,18,4,7,0.7,0.5
2024-07-02T1400,2632A,94.3681,29.6376,林芝市,林芝监测站,,25,8,7,3,5,79,,67,56,2,3,7,7,0.3,0.2
2024-07-02T1400,2633A,94.3616,29.6616,林芝市,林芝人民医院,,25,6,8,3,4,80,,67,57,4,5,9,9,0.3,0.3
2024-07-02T1400,2603A,100.0781,23.8982,临沧市,市环保局,,18,,17,12,18,46,,26,26,8,10,4,4,0.4,0.3
2024-07-02T1400,2604A,100.0894,23.8822,临沧市,市气象局,,16,14,16,11,13,47,,28,28,10,10,6,4,0.3,0.5
2024-07-02T1400,1733A,111.5531,36.0783,临汾市,临钢医院,臭氧1小时,60,56,63,22,29,168,,99,99,5,18,5,6,0.7,0.9
2024-07-02T1400,1734A,111.5028,36.0714,临汾市,技工学校,臭氧1小时,69,50,58,28,40,175,,101,101,9,21,6,8,0.7,0.9
2024-07-02T1400,1736A,111.5018,36.0855,临汾市,市委,臭氧1小时,82,45,68,28,34,185,,111,111,7,18,6,7,0.8,0.9
2024-07-02T1400,3018A,111.505,36.1014,临汾市,唐尧大酒店,臭氧1小时,68,35,54,27,27,174,,110,110,6,16,4,5,0.7,0.9
2024-07-02T1400,3668A,111.5036,36.0414,临汾市,城南,臭氧1小时,80,46,65,29,43,184,,103,103,6,23,5,5,0.7,1
2024-07-02T1400,2667A,103.2069,35.5993,临夏回族自治州,环保局,,40,26,42,20,24,126,,74,74,1,11,7,7,0.2,0.3
2024-07-02T1400,2668A,103.2417,35.6057,临夏回族自治州,建设大厦,,40,10,29,10,16,125,,76,76,3,10,10,10,0.2,0.3
2024-07-02T1400,1618A,118.3429,35.0532,临沂市,沂河小区,,35,19,31,9,19,110,,103,103,19,12,8,8,0.4,0.4
2024-07-02T1400,1619A,118.295,35.0583,临沂市,鲁南制药厂,,33,29,30,8,17,103,,92,92,8,7,9,8,0.6,0.5
2024-07-02T1400,1620A,118.2794,34.9976,临沂市,新光毛纺厂,,32,14,23,11,20,100,,89,89,12,11,4,4,0.7,0.7
2024-07-02T1400,1621A,118.3956,35.0888,临沂市,河东保险公司,,28,9,30,9,20,89,,82,82,5,7,4,4,0.4,0.5
2024-07-02T1400,3370A,118.3564,35.0215,临沂市,十里堡居委,,32,,22,14,19,102,,91,91,9,8,8,8,0.6,0.7
2024-07-02T1400,3496A,118.3604,35.1084,临沂市,南坊新区,,30,22,37,3,17,95,,88,88,11,10,6,7,0.7,0.7
2024-07-02T1400,3860A,118.3920,35.0300,临沂市,皇山花园小区,,31,,29,14,22,98,,91,91,13,12,8,8,0.6,0.6
2024-07-02T1400,1870A,109.4856,24.3895,柳州市,柳东小学,,17,,11,8,7,53,,44,39,6,8,6,6,0.5,0.5
2024-07-02T1400,1871A,109.4157,24.3277,柳州市,环保监测站,,17,,12,10,6,54,,47,40,6,6,6,6,0.5,0.6
2024-07-02T1400,1872A,109.389,24.341,柳州市,河西水厂,,18,10,13,6,7,55,,47,43,4,5,6,6,0.4,0.5
2024-07-02T1400,1873A,109.4311,24.2921,柳州市,市四中,,20,6,15,3,8,63,,48,44,5,6,5,5,0.4,0.4
2024-07-02T1400,1874A,109.4006,24.3631,柳州市,市九中,,,7,17,,5,59,,48,44,8,10,4,4,0.4,0.5
2024-07-02T1400,1875A,109.4958,24.3134,柳州市,古亭山,,20,16,13,3,5,62,,45,41,6,10,5,5,0.2,0.3
2024-07-02T1400,3402A,109.5422,24.3996,柳州市,市二中,,16,,12,3,5,49,,46,43,6,6,5,6,0.3,0.3
2024-07-02T1400,2307A,116.5079,31.737,六安市,监测大楼,,37,18,7,17,9,118,,105,105,2,3,4,4,0.4,0.4
2024-07-02T1400,2308A,116.4738,31.7643,六安市,皖西学院,,39,20,8,8,8,122,,106,106,2,3,4,4,0.3,0.3
2024-07-02T1400,2309A,116.4996,31.7905,六安市,朝阳厂,,35,,5,12,10,110,,97,97,2,2,8,8,0.3,0.3
2024-07-02T1400,2310A,116.5567,31.7886,六安市,开发区,,36,30,7,11,9,115,,102,102,2,3,4,4,0.6,0.5
2024-07-02T1400,2576A,104.8,26.5892,六盘水市,窑上,,,,,,,,,,,,,,,,
2024-07-02T1400,2577A,104.83,26.5917,六盘水市,黄土坡,,44,18,14,3,5,140,,92,92,7,13,8,8,0.4,0.4
2024-07-02T1400,2578A,104.89,26.5939,六盘水市,水钢,,48,13,27,8,11,153,,89,89,5,24,12,21,0.3,1.2
2024-07-02T1400,2579A,104.8475,26.5894,六盘水市,民中,,45,13,14,3,4,143,,90,90,5,15,7,7,0.3,0.4
2024-07-02T1400,2580A,104.9544,26.5506,六盘水市,双水,,45,17,22,7,9,141,,84,84,5,15,7,11,0.4,0.5
2024-07-02T1400,2335A,117.0189,25.1181,龙岩市,龙岩师专,,,,,,,,,,,,,,,,
2024-07-02T1400,2336A,117.0217,25.1033,龙岩市,龙岩市监测站,,34,34,19,11,8,53,,42,42,3,9,4,4,0.3,0.5
2024-07-02T1400,2337A,117.0258,25.0661,龙岩市,闽西职业技术学院,,17,8,17,3,8,52,,39,39,1,8,3,5,0.4,0.5
2024-07-02T1400,2338A,117.0196,25.0306,龙岩市,龙岩学院,,16,,16,9,9,51,,38,38,2,4,5,5,0.5,0.5
2024-07-02T1400,2665A,105.0822,33.3261,陇南市,汉王镇固水子,,,,,,,,,,,,,,,,
2024-07-02T1400,2885A,104.9339,33.3826,陇南市,滨江中学,,37,31,32,15,13,117,,80,80,7,11,8,10,0.6,0.7
2024-07-02T1400,3247A,104.955,33.371,陇南市,市总工会,,38,27,29,11,11,119,,84,84,6,6,5,5,0.6,0.5
2024-07-02T1400,2487A,111.9589,27.8901,娄底市,电视发射台,,33,23,16,10,7,105,,89,89,4,4,5,5,0.8,0.9
2024-07-02T1400,2488A,111.9975,27.725,娄底市,市监测站,,,36,18,25,14,137,,104,104,,9,,7,0.8,0.8
2024-07-02T1400,2489A,112.0194,27.7314,娄底市,市委党校,,36,14,14,14,8,115,,88,88,6,9,5,6,0.6,0.8
2024-07-02T1400,2490A,111.9561,27.7569,娄底市,涟钢,,39,38,19,26,11,123,,88,88,20,12,16,11,1.5,0.9
2024-07-02T1400,2491A,111.9892,27.7044,娄底市,市政府,,45,31,13,21,9,144,,107,107,8,8,8,7,0.8,0.6
2024-07-02T1400,1893A,105.4324,28.9634,泸州市,九狮山,,36,6,19,3,11,114,,67,67,13,14,5,5,0.3,0.4
2024-07-02T1400,1894A,105.4427,28.9063,泸州市,小市上码头,,37,16,23,3,9,116,,73,73,8,13,5,6,0.3,0.3
2024-07-02T1400,1895A,105.4241,28.8573,泸州市,兰田宪桥,,40,19,21,11,12,128,,75,75,8,11,5,5,0.1,0.2
2024-07-02T1400,1896A,105.4379,28.8833,泸州市,市环监站,,38,15,21,9,12,120,,65,65,5,14,7,7,0.4,0.5
2024-07-02T1400,3490A,105.3617,28.7703,泸州市,纳溪区环保局,,37,17,24,3,5,117,,73,73,6,15,7,5,0.2,0.3
2024-07-02T1400,2183A,111.1406,37.5211,吕梁市,环保局,臭氧1小时,55,29,51,14,32,164,,108,108,6,19,3,3,0.6,0.7
2024-07-02T1400,2185A,111.1297,37.5136,吕梁市,自来水公司,臭氧1小时,60,31,48,15,31,168,,111,111,8,18,2,7,0.5,0.7
2024-07-02T1400,2867A,111.1283,37.51,吕梁市,马茂庄小学,臭氧1小时,58,28,50,12,31,166,,115,115,7,24,5,7,0.5,0.7
2024-07-02T1400,1812A,112.3931,34.6516,洛阳市,市委党校,臭氧1小时,53,29,22,23,17,162,,106,106,1,6,2,3,0.7,0.7
2024-07-02T1400,1814A,112.4657,34.6871,洛阳市,豫西宾馆,臭氧1小时,59,35,28,23,17,167,,122,122,6,14,1,3,0.5,0.5
2024-07-02T1400,1815A,112.494,34.6886,洛阳市,河南林校,,50,21,17,18,15,157,,114,114,7,11,3,3,0.4,0.4
2024-07-02T1400,1816A,112.3844,34.623,洛阳市,开发区管委会,,50,23,19,22,14,157,,105,105,5,7,3,6,0.4,0.4
2024-07-02T1400,1817A,112.4267,34.6258,洛阳市,市委新办公区,臭氧1小时,57,,19,28,17,165,,116,116,2,5,4,5,0.3,0.3
2024-07-02T1400,3340A,112.6005,34.6326,洛阳市,伊滨,臭氧1小时,54,18,22,18,17,163,,122,122,5,9,5,5,0.3,0.3
2024-07-02T1400,3341A,112.4951,34.6332,洛阳市,中移产业园,,50,30,22,20,19,160,,115,115,3,8,4,5,0.7,0.7
2024-07-02T1400,3593A,112.5736,34.8993,洛阳市,吉利监测站,臭氧1小时,58,19,23,12,18,166,,110,110,5,9,2,2,0.2,0.1
2024-07-02T1400,3635A,112.3677,34.662,洛阳市,河科大西苑校区,,49,18,20,14,11,154,,102,102,2,10,4,6,0.5,0.6
2024-07-02T1400,3636A,112.4388,34.6781,洛阳市,英才小学,,50,27,30,22,21,160,,112,112,1,7,1,4,0.5,0.5
2024-07-02T1400,2399A,114.051,33.5699,漯河市,三五一五工厂,,48,,30,8,19,153,,132,132,4,8,6,6,0.4,0.2
2024-07-02T1400,2400A,114.0055,33.5698,漯河市,漯河大学,,50,10,28,9,21,157,,137,137,5,7,5,5,0.6,0.6
2024-07-02T1400,2401A,114.0138,33.5828,漯河市,市水利局,,48,9,31,7,20,153,,133,133,5,8,7,7,0.3,0.4
2024-07-02T1400,2402A,114.0261,33.5698,漯河市,市广电局,,48,12,35,3,17,153,,132,132,1,5,1,1,0.6,0.7
2024-07-02T1400,3478A,113.9749,33.5664,漯河市,市图书馆,,50,14,32,3,22,158,,136,136,1,5,6,7,0.4,0.5
2024-07-02T1400,3479A,114.0967,33.5906,漯河市,召陵区卫健委,,47,15,32,10,23,149,,125,125,4,7,4,4,0.3,0.4
2024-07-02T1400,1798A,118.5092,31.6837,马鞍山市,湖东路四小,,28,,14,19,7,85,,63,63,11,8,9,7,0.7,0.7
2024-07-02T1400,1799A,118.5024,31.6449,马鞍山市,开发区,,26,,14,12,7,82,,57,57,10,9,9,8,0.7,0.7
2024-07-02T1400,1800A,118.5228,31.7231,马鞍山市,慈湖,,27,17,18,10,9,84,,59,59,19,17,10,10,1.1,0.9
2024-07-02T1400,1802A,118.6245,31.7241,马鞍山市,濮塘,,25,,10,10,7,78,,56,56,14,8,4,3,0.8,0.6
2024-07-02T1400,3633A,118.4918,31.6809,马鞍山市,雨山,,27,19,16,12,7,84,,60,60,10,9,7,6,0.7,0.7
2024-07-02T1400,1686A,111.0286,21.4688,茂名市,电白南海,,,31,23,17,13,67,,55,55,4,4,4,4,,0.3
2024-07-02T1400,1687A,110.9294,21.6533,茂名市,茂石化七小,,21,14,21,12,14,65,,53,53,2,4,7,9,0.5,0.5
2024-07-02T1400,1688A,110.9107,21.6687,茂名市,健康路,,22,17,22,12,8,70,,58,58,4,7,8,10,0.4,0.4
2024-07-02T1400,1689A,110.8592,21.6828,茂名市,高岭,,36,36,33,14,17,65,,49,49,5,9,9,10,0.6,0.6
2024-07-02T1400,3450A,111.01,21.5165,茂名市,电白水东,,22,,15,14,8,70,,56,56,3,4,3,3,0.5,0.5
2024-07-02T1400,2539A,104.0308,30.0478,眉山市,黑龙滩水库,,47,20,22,14,19,149,,85,85,2,8,6,6,0.3,0.3
2024-07-02T1400,2540A,103.8416,30.0874,眉山市,气象局,,44,16,22,9,13,140,,75,75,6,31,7,9,0.3,0.4
2024-07-02T1400,3137A,103.8578,30.0744,眉山市,市委党校,,43,12,21,3,8,135,,86,86,6,23,7,8,0.4,0.4
2024-07-02T1400,3148A,103.8291,30.0564,眉山市,区人社局,,43,28,30,3,10,135,,85,85,8,26,5,10,0.2,0.4
2024-07-02T1400,1690A,116.1231,24.3284,梅州市,梅江月梅,,,,26,1,9,54,,37,37,1,10,8,8,0.5,0.5
2024-07-02T1400,1691A,116.0797,24.2719,梅州市,梅县新城,,,,20,9,10,52,,37,37,2,9,3,4,0.3,0.4
2024-07-02T1400,1692A,116.1248,24.2654,梅州市,环境监控中心,,15,,25,6,8,47,,31,31,4,16,4,4,0.3,0.3
2024-07-02T1400,3315A,116.1233,24.2991,梅州市,梅龙,,16,7,18,3,10,51,,38,38,2,11,7,9,0.4,0.5
2024-07-02T1400,1878A,104.7778,31.4741,绵阳市,富乐山,臭氧1小时,74,33,25,23,16,179,,98,98,7,14,9,9,0.4,0.4
2024-07-02T1400,1879A,104.7563,31.4535,绵阳市,市人大,臭氧1小时,60,37,29,19,16,168,,89,89,12,28,8,10,0.4,0.5
2024-07-02T1400,1880A,104.6697,31.4668,绵阳市,高新区自来水公司,臭氧1小时,74,31,31,17,14,179,,96,96,10,30,6,7,0.5,0.5
2024-07-02T1400,1881A,104.7287,31.5075,绵阳市,三水厂,臭氧1小时,78,35,34,18,18,182,,94,94,16,28,8,8,0.5,0.5
2024-07-02T1400,3491A,104.69,31.5322,绵阳市,西科大附属小学,臭氧1小时,77,38,30,20,14,181,,85,85,10,23,7,7,0.5,0.5
2024-07-02T1400,3492A,104.5648,31.5343,绵阳市,安州区旅游局,臭氧1小时,77,30,18,27,16,181,,87,87,12,18,7,8,0.6,0.5
2024-07-02T1400,1784A,129.61,44.561,牡丹江市,环保大楼,细颗粒物(PM2.5),60,53,53,43,33,135,,86,86,7,13,6,6,0.5,0.5
2024-07-02T1400,1785A,129.6115,44.5782,牡丹江市,文化广场,细颗粒物(PM2.5),70,62,57,51,43,129,,84,84,10,17,6,6,0.6,0.5
2024-07-02T1400,1786A,129.5904,44.5963,牡丹江市,第一医院,细颗粒物(PM2.5),82,77,58,60,47,136,,91,91,9,15,4,4,0.6,0.6
2024-07-02T1400,1787A,129.6364,44.6075,牡丹江市,机车工厂,细颗粒物(PM2.5),75,76,53,55,45,137,,85,85,12,14,3,10,0.5,0.5
2024-07-02T1400,1788A,129.6386,44.5462,牡丹江市,第一中学,细颗粒物(PM2.5),75,74,56,55,29,140,,91,91,10,14,4,4,0.5,0.4
2024-07-02T1400,2531A,105.0703,29.61,内江市,市监测站,,40,20,16,15,16,127,,80,80,10,13,7,7,0.4,0.4
2024-07-02T1400,2532A,105.0717,29.5947,内江市,东兴区政府,,41,14,16,3,6,129,,82,82,9,12,8,8,0.4,0.4
2024-07-02T1400,2533A,105.0653,29.5817,内江市,内江二中,,41,6,15,3,11,131,,82,82,8,14,10,9,0.4,0.5
2024-07-02T1400,2534A,105.0406,29.5822,内江市,内江日报社,,,28,21,,11,133,,81,81,8,16,4,17,0.4,0.6
2024-07-02T1400,2628A,92.0657,31.4846,那曲市,那曲监测站,,40,15,30,3,11,126,,95,95,5,6,7,7,0.4,0.5
2024-07-02T1400,3128A,92.0506,31.4797,那曲市,那曲会议中心,,41,6,21,3,9,129,,107,104,2,6,3,3,0.3,0.4
2024-07-02T1400,1290A,115.8931,28.6843,南昌市,省外办,,32,9,27,7,15,102,,85,85,16,19,5,5,0.4,0.4
2024-07-02T1400,1291A,115.8886,28.7003,南昌市,省林业公司,,33,6,17,3,10,105,,93,93,17,17,4,4,0.4,0.4
2024-07-02T1400,1292A,115.8126,28.7442,南昌市,林科所,,31,6,12,3,8,99,,86,86,11,22,6,11,0.7,0.4
2024-07-02T1400,1294A,115.8518,28.687,南昌市,建工学校,,34,10,21,3,11,107,,92,92,13,18,5,6,0.4,0.5
2024-07-02T1400,1295A,115.8921,28.6424,南昌市,象湖,,35,6,21,3,12,112,,91,91,9,19,4,4,0.5,0.6
2024-07-02T1400,1296A,115.7423,28.7996,南昌市,武术学校,,31,,17,12,12,99,,85,85,2,4,16,19,0.5,0.5
2024-07-02T1400,1298A,115.9314,28.6842,南昌市,省站,,33,20,24,3,13,105,,90,90,2,7,4,5,0.6,0.6
2024-07-02T1400,3046A,115.9084,28.6062,南昌市,机电学校,,31,14,24,7,10,99,,79,79,16,11,6,7,0.8,0.7
2024-07-02T1400,3690A,115.9721,28.7031,南昌市,外国语学校,,,10,23,6,11,111,,104,104,,14,6,4,,0.5
2024-07-02T1400,1905A,106.056,30.8064,南充市,西山风景区,,30,,20,12,16,93,,72,72,3,7,5,5,0.4,0.5
2024-07-02T1400,1906A,106.0789,30.8023,南充市,南充市委,,44,25,31,18,18,138,,101,101,6,10,6,6,0.3,0.3
2024-07-02T1400,1907A,106.1031,30.8217,南充市,南充炼油厂,,48,33,31,14,17,152,,110,110,7,12,8,8,0.2,0.3
2024-07-02T1400,1908A,106.1064,30.7856,南充市,高坪区监测站,,43,25,34,7,13,137,,99,99,11,16,6,7,0.2,0.2
2024-07-02T1400,1909A,106.0642,30.7636,南充市,嘉陵区环保局,,44,25,29,9,15,139,,102,102,7,10,4,5,0.2,0.3
2024-07-02T1400,1910A,106.1087,30.8388,南充市,市环境监测站,,46,32,32,18,19,145,,102,102,9,14,7,7,0.4,0.5
2024-07-02T1400,1151A,118.8086,32.1065,南京市,迈皋桥,,23,6,7,3,2,71,,52,52,14,7,5,4,0.4,0.4
2024-07-02T1400,1152A,118.7538,32.0551,南京市,草场门,,26,,5,14,6,81,,62,62,11,12,3,3,0.7,0.7
2024-07-02T1400,1153A,118.7794,32.0745,南京市,山西路,,27,,5,3,1,84,,61,61,6,8,5,4,0.4,0.4
2024-07-02T1400,1154A,118.7752,32.0023,南京市,中华门,,21,,4,9,1,66,,46,46,12,12,7,7,0.4,0.4
2024-07-02T1400,1155A,118.8109,32.0309,南京市,瑞金路,,25,9,5,3,4,78,,51,51,5,5,9,9,0.4,0.3
2024-07-02T1400,1156A,118.7997,32.0754,南京市,玄武湖,,20,,11,6,4,64,,48,48,3,2,2,2,0.5,0.4
2024-07-02T1400,1157A,118.6414,32.0931,南京市,浦口,,25,,12,3,2,80,,70,70,6,10,5,5,0.7,0.6
2024-07-02T1400,1158A,118.7356,31.9996,南京市,奥体中心,,24,,6,12,4,75,,54,54,11,12,5,6,0.3,0.3
2024-07-02T1400,1159A,118.9125,32.1028,南京市,仙林大学城,,26,6,5,3,2,81,,56,56,11,11,6,6,0.6,0.5
2024-07-02T1400,3422A,118.8436,31.9198,南京市,江宁彩虹桥,,25,,10,7,3,80,,52,52,8,9,4,3,1.0,0.6
2024-07-02T1400,3423A,119.0138,31.6494,南京市,溧水永阳,,27,6,6,3,7,85,,56,56,8,8,3,4,0.5,0.5
2024-07-02T1400,3424A,118.879,31.3302,南京市,高淳老职中,,,,10,24,8,80,,50,50,,6,7,4,0.7,0.7
2024-07-02T1400,3427A,118.8554,32.3578,南京市,六合雄州,,32,32,17,10,6,85,,65,65,2,5,6,8,0.6,0.6
2024-07-02T1400,1401A,108.3103,22.7881,南宁市,二十一中,,15,15,19,3,8,29,,52,36,25,12,2,2,0.7,0.6
2024-07-02T1400,1402A,108.3141,22.8528,南宁市,北湖,,19,19,22,6,9,30,,50,36,19,11,3,3,0.6,0.6
2024-07-02T1400,1403A,108.3206,22.8225,南宁市,市监测站,,16,16,20,6,11,28,,51,34,22,14,3,4,0.7,0.7
2024-07-02T1400,1404A,108.3829,22.8037,南宁市,大自然花园,,11,11,19,7,9,32,,52,38,15,9,4,4,0.5,0.5
2024-07-02T1400,1405A,108.4394,22.7904,南宁市,仙葫,,23,6,20,3,10,72,,60,58,20,13,4,5,0.3,0.2
2024-07-02T1400,1406A,108.2397,22.8467,南宁市,区农职院,,13,13,20,8,8,34,,52,36,16,10,5,6,0.6,0.6
2024-07-02T1400,1407A,108.3275,22.735,南宁市,英华嘉园,,19,19,18,7,10,26,,44,36,25,16,5,5,0.6,0.5
2024-07-02T1400,1408A,108.2257,22.7757,南宁市,沙井镇街道办,,19,19,28,7,11,22,,34,26,27,19,2,3,0.5,0.5
2024-07-02T1400,3401A,108.4834,22.7618,南宁市,红星社区,,13,13,18,8,7,38,,52,46,8,6,4,4,0.6,0.7
2024-07-02T1400,2331A,118.0966,26.6761,南平市,茫荡山,,,,,,,,,,,,,,,,
2024-07-02T1400,2332A,118.1681,26.6369,南平市,南平市监测站,,19,11,16,6,6,58,,45,45,4,11,4,4,0.2,0.4
2024-07-02T1400,2333A,118.1825,26.6489,南平市,南平铝业有限公司,,18,8,23,3,6,55,,44,44,4,8,5,5,0.6,0.7
2024-07-02T1400,2334A,118.1756,26.6272,南平市,南平七中,,20,7,17,3,8,63,,48,48,2,8,4,4,0.4,0.5
2024-07-02T1400,1168A,120.9098,31.9663,南通市,狼山街道,,25,15,23,3,10,80,,67,67,5,19,5,10,0.5,0.7
2024-07-02T1400,1169A,120.86,32.0005,南通市,虹桥,,26,16,27,3,11,82,,66,66,10,26,6,6,0.7,0.8
2024-07-02T1400,1170A,120.87,32.02,南通市,城中,,47,47,31,3,13,80,,69,69,13,22,6,6,0.5,0.6
2024-07-02T1400,1171A,120.94,31.93,南通市,星湖花园,,28,16,21,3,12,87,,71,71,11,22,5,5,0.5,0.4
2024-07-02T1400,1172A,120.81,32.0417,南通市,紫琅学院,,,19,20,3,10,90,,73,73,13,30,8,6,,0.7
2024-07-02T1400,3291A,121.067,32.062,南通市,通州监测站,颗粒物(PM10),54,58,34,9,15,105,,82,82,5,14,13,12,0.8,0.7
2024-07-02T1400,3432A,120.9348,31.9883,南通市,环境教育馆,,41,41,33,6,16,90,,74,74,15,28,8,9,0.5,0.6
2024-07-02T1400,2404A,112.5224,33.0122,南阳市,瓦房庄,,50,18,23,15,15,158,,110,110,9,12,3,4,0.6,0.6
2024-07-02T1400,2405A,112.5003,32.9735,南阳市,汉画馆,,43,26,27,21,22,136,,82,82,11,15,3,3,0.6,0.6
2024-07-02T1400,2406A,112.5573,33.027,南阳市,气象站,臭氧1小时,68,,19,12,11,174,,114,114,9,11,3,3,0.3,0.3
2024-07-02T1400,2407A,112.5481,32.9689,南阳市,理工学院,,50,20,24,15,16,157,,101,101,9,12,4,3,0.3,0.3
2024-07-02T1400,4008A,112.5234,32.9922,南阳市,卧龙区政府,,49,19,20,8,16,154,,103,103,8,13,4,3,0.4,0.7
2024-07-02T1400,1234A,121.8358,29.911,宁波市,区环保大楼,,41,41,36,17,17,92,,66,66,6,29,5,5,0.7,0.8
2024-07-02T1400,1235A,121.56,29.82,宁波市,万里学院,,30,30,30,20,15,95,,69,69,6,13,6,6,0.4,0.6
2024-07-02T1400,1236A,121.713,29.9572,宁波市,龙赛医院,,29,25,34,10,14,92,,67,67,4,27,4,6,0.2,0.3
2024-07-02T1400,1239A,121.633,29.7733,宁波市,钱湖水厂,,28,18,27,17,15,89,,65,65,5,8,5,5,0.5,0.5
2024-07-02T1400,1240A,121.5856,29.8635,宁波市,太古小学,,30,21,22,20,15,93,,66,66,2,7,5,4,0.5,0.6
2024-07-02T1400,1241A,121.524,29.8674,宁波市,市环境监测中心,,30,26,27,10,14,94,,72,72,7,15,4,4,0.6,0.7
2024-07-02T1400,2871A,121.6147,29.9017,宁波市,万里国际学校,,30,19,27,15,16,94,,69,69,4,17,4,4,0.3,0.3
2024-07-02T1400,3710A,121.5594,29.8975,宁波市,白沙活动中心,,31,24,29,9,14,99,,72,72,2,11,8,7,0.3,0.3
2024-07-02T1400,2339A,119.5001,26.6946,宁德市,金涵水库,,,,,,,,,,,,,,,,
2024-07-02T1400,2341A,119.5388,26.6612,宁德市,宁德市监测站,,23,23,24,9,11,66,,50,50,4,10,6,7,0.4,0.8
2024-07-02T1400,3209A,119.5231,26.6562,宁德市,宁德一中,,22,13,21,6,10,68,,51,51,2,7,5,6,0.4,0.7
2024-07-02T1400,2618A,98.8601,25.8567,怒江傈僳族自治州,州监测站,,19,,13,13,13,40,,21,21,3,8,10,10,0.5,0.6
2024-07-02T1400,2619A,98.8546,25.8417,怒江傈僳族自治州,泸水一中,,12,,9,8,6,32,,14,14,6,10,5,5,0.4,0.5
2024-07-02T1400,1888A,101.6891,26.571,攀枝花市,弄弄坪,,23,17,53,3,18,73,,36,36,12,22,10,19,0.4,0.8
2024-07-02T1400,1889A,101.5769,26.5928,攀枝花市,河门口,,18,10,24,3,12,57,,37,37,8,20,7,23,0.5,1.3
2024-07-02T1400,1890A,101.7169,26.585,攀枝花市,炳草岗,,27,21,46,3,19,85,,41,41,7,20,9,22,0.4,0.8
2024-07-02T1400,1891A,101.7369,26.5008,攀枝花市,仁和,,20,6,10,3,6,62,,38,38,5,10,6,7,0.4,0.4
2024-07-02T1400,2835A,101.7227,26.567,攀枝花市,四十中小,,32,32,40,16,17,91,,47,47,7,16,9,26,0.5,0.8
2024-07-02T1400,1604A,122.0303,41.1489,盘锦市,开发区,细颗粒物(PM2.5),109,,52,82,47,92,,94,78,21,19,5,5,0.3,0.2
2024-07-02T1400,1605A,122.0485,41.0883,盘锦市,兴隆台,细颗粒物(PM2.5),70,70,56,51,42,82,,91,70,38,27,7,7,0.6,0.5
2024-07-02T1400,1606A,121.8297,41.1028,盘锦市,新生街道,细颗粒物(PM2.5),80,,46,59,45,73,,83,70,17,20,3,3,0.3,0.3
2024-07-02T1400,1832A,113.3257,33.742,平顶山市,新华旅馆,,49,17,27,13,21,156,,138,138,3,8,4,4,0.5,0.6
2024-07-02T1400,1833A,113.2919,33.737,平顶山市,规划设计院,臭氧1小时,52,10,19,9,15,161,,135,135,5,10,4,4,0.6,0.6
2024-07-02T1400,1834A,113.182,33.774,平顶山市,平顶山工学院,臭氧1小时,55,,24,9,13,164,,130,130,5,11,2,3,0.8,0.7
2024-07-02T1400,3204A,113.3025,33.73,平顶山市,规划局,,50,17,19,15,18,158,,134,134,7,12,4,3,0.3,0.4
2024-07-02T1400,3594A,112.8867,33.9116,平顶山市,石龙区,,50,21,23,20,17,159,,135,135,2,12,6,6,0.3,0.3
2024-07-02T1400,2656A,106.6692,35.5461,平凉市,聚贤嘉苑,,50,37,60,20,19,160,,98,98,9,23,8,7,0.3,0.3
2024-07-02T1400,2657A,106.7021,35.5307,平凉市,博物馆,臭氧1小时,55,38,37,17,18,164,,99,99,10,22,32,19,0.7,0.7
2024-07-02T1400,2347A,114.0997,27.5002,萍乡市,武功山,,28,6,4,3,3,87,,,,3,3,8,11,0.7,0.4
2024-07-02T1400,2348A,113.8385,27.6434,萍乡市,中医院,,26,21,21,13,12,83,,73,73,8,12,7,4,1.0,1
2024-07-02T1400,2349A,113.8493,27.6253,萍乡市,市政府车库,,32,,14,22,16,86,,74,74,6,12,11,10,0.6,0.8
2024-07-02T1400,2350A,113.8676,27.6435,萍乡市,市环保局,,28,21,21,13,15,88,,76,76,5,11,14,10,0.6,0.7
2024-07-02T1400,2351A,113.866,27.6198,萍乡市,安源区政府,,27,19,19,7,6,86,,72,72,5,11,8,7,0.4,0.5
2024-07-02T1400,2319A,119.0141,25.4325,莆田市,荔城区仓后路,,26,15,31,8,8,82,,57,57,6,8,7,7,0.5,0.5
2024-07-02T1400,2320A,119.0015,25.4553,莆田市,莆田市监测站,,27,27,25,6,7,80,,55,55,6,6,9,9,0.4,0.5
2024-07-02T1400,2321A,119.1119,25.4561,莆田市,涵江区六中,,26,26,25,3,7,75,,53,53,4,8,10,10,0.5,0.5
2024-07-02T1400,2322A,119.1013,25.3215,莆田市,秀屿区政府,,20,19,20,3,5,64,,52,52,2,6,10,10,0.5,0.5
2024-07-02T1400,2323A,118.981,25.4792,莆田市,东圳水库,,,,,,,,,,,,,,,,
2024-07-02T1400,2392A,115.0312,35.7636,濮阳市,环保局,,42,,20,22,25,133,,112,112,6,8,7,6,0.6,0.5
2024-07-02T1400,2394A,115.0574,35.7609,濮阳市,油田运输公司,,43,25,31,24,25,137,,111,111,6,7,4,4,0.6,0.6
2024-07-02T1400,2395A,115.0866,35.7754,濮阳市,油田物探公司,,42,,28,27,32,134,,108,108,5,8,6,6,0.8,0.8
2024-07-02T1400,3021A,115,35.7668,濮阳市,濮水河管理处,,30,,20,21,28,95,,88,88,7,9,5,6,0.7,0.6
2024-07-02T1400,2601A,100.98,22.7633,普洱市,市环保局,,20,20,16,3,13,35,,25,25,4,6,4,4,0.4,0.4
2024-07-02T1400,2602A,100.9817,22.8322,普洱市,普洱第二中学,,19,19,16,7,12,37,,22,22,4,8,7,8,0.5,0.5
2024-07-02T1400,2262A,131.0518,45.8751,七台河市,新一中,,45,36,58,24,51,142,,114,114,8,8,10,10,0.2,0.6
2024-07-02T1400,3345A,131.0577,45.7879,七台河市,中波台,,47,47,69,22,45,121,,98,98,13,25,13,12,0.3,0.5
2024-07-02T1400,3637A,131.0176,45.7761,七台河市,人民广场,颗粒物(PM10),55,60,75,24,51,113,,90,90,12,22,15,14,0.3,0.5
2024-07-02T1400,3684A,130.8781,45.8222,七台河市,新建矿广场,颗粒物(PM10),63,75,91,22,52,123,,94,94,15,23,7,7,0.3,0.4
2024-07-02T1400,1779A,123.9305,47.3636,齐齐哈尔市,安居小区,,,37,42,,27,139,,105,105,13,15,6,6,0.4,0.4
2024-07-02T1400,1780A,123.9488,47.3386,齐齐哈尔市,中心广场,,46,45,43,32,27,142,,103,103,13,14,11,10,0.4,0.3
2024-07-02T1400,1781A,123.9483,47.3227,齐齐哈尔市,农牧车辆厂,,45,44,46,26,20,143,,103,103,10,14,8,8,0.2,0.2
2024-07-02T1400,1783A,123.945,47.2988,齐齐哈尔市,市环境监测站,,47,43,38,26,28,148,,109,109,9,12,6,7,0.3,0.3
2024-07-02T1400,3662A,123.6333,47.2075,齐齐哈尔市,富区青少年活动中心,,41,25,51,14,20,130,,108,108,6,14,4,5,0.4,0.5
2024-07-02T1400,2591A,107.9783,26.5747,黔东南苗族侗族自治州,市环境监测站,,38,22,16,14,11,119,,62,62,8,17,3,2,0.5,0.6
2024-07-02T1400,2881A,107.8908,26.5311,黔东南苗族侗族自治州,凯里学院,,36,20,17,14,8,114,,60,60,6,12,4,3,0.5,0.4
2024-07-02T1400,2593A,107.5228,26.2403,黔南布依族苗族自治州,小围寨,,31,7,9,3,2,98,,60,60,2,3,5,4,0.5,0.5
2024-07-02T1400,3538A,107.5175,26.2978,黔南布依族苗族自治州,沙坝,,33,9,13,7,3,104,,54,54,3,9,4,3,0.5,0.5
2024-07-02T1400,2589A,104.9022,25.0925,黔西南布依族苗族自治州,场坝街,,34,11,12,9,6,108,,69,69,6,9,7,7,0.3,0.3
2024-07-02T1400,2590A,104.8811,25.0992,黔西南布依族苗族自治州,坪东大道,,34,13,13,8,7,108,,65,65,3,9,6,6,0.2,0.3
2024-07-02T1400,2502A,108.6236,21.9667,钦州市,市环保站,,12,7,24,3,4,36,,43,38,7,11,5,6,0.6,0.5
2024-07-02T1400,2503A,108.6549,21.9481,钦州市,沙埠小学,,28,19,27,19,11,38,,51,42,10,7,4,4,0.7,0.7
2024-07-02T1400,2504A,108.5989,21.7431,钦州市,港区一小,,29,29,28,6,6,48,,52,47,6,5,7,7,0.4,0.4
2024-07-02T1400,3404A,108.5959,21.9633,钦州市,北职校,,14,14,27,3,9,33,,42,36,8,8,6,8,0.5,0.6
2024-07-02T1400,1042A,119.5134,39.8207,秦皇岛市,北戴河环保局,颗粒物(PM10),57,63,67,32,32,128,,134,132,12,12,3,4,0.4,0.4
2024-07-02T1400,1043A,119.7493,40.0116,秦皇岛市,第一关,颗粒物(PM10),55,59,64,37,39,119,,123,118,14,17,1,2,0.4,0.4
2024-07-02T1400,1044A,119.5897,39.9499,秦皇岛市,监测站,颗粒物(PM10),60,69,64,32,35,124,,128,125,12,14,4,5,0.5,0.5
2024-07-02T1400,1046A,119.5251,39.9041,秦皇岛市,建设大厦,颗粒物(PM10),61,72,63,29,34,113,,119,118,11,15,3,3,0.3,0.2
2024-07-02T1400,3132A,119.610547,39.943889,秦皇岛市,文明里,,,,,,,,,,,,,,,,
2024-07-02T1400,1307A,120.6659,36.2403,青岛市,仰口,,20,,10,9,12,64,,96,95,3,1,5,5,0.3,0.3
2024-07-02T1400,1310A,120.4134,36.0658,青岛市,市南区东部子站,,,14,12,3,2,94,,91,91,,4,8,7,0.4,0.4
2024-07-02T1400,1311A,120.3664,36.1032,青岛市,四方区子站,,30,9,11,3,7,96,,89,89,17,10,10,9,0.5,0.5
2024-07-02T1400,1312A,120.2994,36.054,青岛市,市南区西部子站,,30,7,11,3,5,94,,88,88,4,4,7,7,0.5,0.6
2024-07-02T1400,1313A,120.4581,36.0858,青岛市,崂山区子站,,44,44,19,14,7,86,,93,92,15,9,8,9,0.5,0.4
2024-07-02T1400,1314A,120.1983,35.9608,青岛市,黄岛区子站,,31,6,11,3,9,98,,94,90,17,16,6,6,0.5,0.5
2024-07-02T1400,1315A,120.3999,36.3083,青岛市,城阳区子站,,25,,12,7,10,78,,97,96,18,10,8,7,0.5,0.4
2024-07-02T1400,1966A,120.0405,35.8735,青岛市,黄岛区4号,,34,6,11,3,5,108,,103,102,11,10,9,9,0.5,0.5
2024-07-02T1400,3362A,120.5014,36.4034,青岛市,即墨2号,,27,18,12,3,7,84,,104,104,15,6,7,7,0.5,0.4
2024-07-02T1400,3642A,120.3503,36.0736,青岛市,市北区南部,,32,10,12,3,5,102,,98,98,15,8,7,5,0.5,0.5
2024-07-02T1400,3643A,120.3948,36.1805,青岛市,李沧区北部,,31,,11,12,11,97,,96,96,23,18,10,10,0.4,0.4
2024-07-02T1400,1702A,113.0426,23.691,清远市,环保大楼,,20,6,19,6,11,62,,41,41,5,10,5,5,0.6,0.6
2024-07-02T1400,1703A,113.0208,23.7106,清远市,凤城街办,,19,11,26,3,11,58,,38,38,6,10,4,3,0.4,0.4
2024-07-02T1400,3025A,113.0477,23.6344,清远市,技师学院,,19,17,30,7,12,60,,47,47,8,12,4,4,0.7,0.7
2024-07-02T1400,3318A,112.9903,23.7403,清远市,清新太和,,15,6,35,3,13,45,,34,34,4,9,6,6,0.5,0.5
2024-07-02T1400,3455A,113.076,23.7198,清远市,清城东城,,21,14,26,3,12,66,,41,41,3,6,6,5,0.4,0.4
2024-07-02T1400,2661A,107.6325,35.7357,庆阳市,庆阳五中,,47,33,36,21,17,150,,107,107,5,13,4,4,0.3,0.3
2024-07-02T1400,2662A,107.6364,35.7067,庆阳市,市环保局,,47,29,32,19,16,149,,104,104,4,11,7,10,0.3,0.4
2024-07-02T1400,1916A,103.7897,25.5035,曲靖市,环境监测站,,43,39,23,24,12,136,,76,76,7,11,1,2,0.5,0.6
2024-07-02T1400,1917A,103.8,25.5364,曲靖市,烟厂办公区,,42,28,19,24,13,133,,76,76,7,10,5,4,0.5,0.5
2024-07-02T1400,3376A,103.7947,25.462,曲靖市,南苑二区,,48,,25,33,13,143,,79,79,6,11,4,5,0.7,0.7
2024-07-02T1400,3377A,103.7444,25.5261,曲靖市,曲靖师范学院,,43,23,17,22,14,137,,76,76,7,17,5,9,0.9,0.7
2024-07-02T1400,1264A,118.8692,28.9398,衢州市,环保大楼,,19,6,30,3,21,58,,42,42,2,16,8,5,0.2,0.4
2024-07-02T1400,1265A,118.8709,28.9666,衢州市,实验学校,,19,6,32,3,19,60,,44,44,3,16,4,5,0.1,0.3
2024-07-02T1400,1266A,118.8621,28.9808,衢州市,衢州学院,,20,7,31,3,17,62,,44,44,3,17,3,3,0.4,0.5
2024-07-02T1400,1611A,118.5819,24.9117,泉州市,涂山街,,37,37,27,9,9,58,,46,46,4,7,3,3,0.6,0.7
2024-07-02T1400,1612A,118.5972,24.8978,泉州市,津头埔,,29,29,25,10,9,55,,44,44,6,9,2,2,0.6,0.6
2024-07-02T1400,1613A,118.6663,24.9424,泉州市,万安,,20,20,22,9,9,56,,44,44,1,4,2,2,0.5,0.5
2024-07-02T1400,1614A,118.6117,24.9604,泉州市,清源山,,,,,,,,,,,,,,,,
2024-07-02T1400,3529A,118.6333,24.9264,泉州市,城华南路,,24,24,19,7,8,55,,42,42,5,9,2,2,0.4,0.4
2024-07-02T1400,2626A,88.8876,29.2718,日喀则市,日喀则监测站,,44,10,8,7,5,138,,133,125,4,5,5,5,0.4,0.4
2024-07-02T1400,3726A,88.8781,29.2426,日喀则市,林业技术推广中心,,43,6,9,3,2,136,,126,122,7,9,6,6,0.5,0.5
2024-07-02T1400,1659A,119.471,35.4209,日照市,监测站,,34,9,13,3,12,107,,100,99,11,10,9,9,0.3,0.3
2024-07-02T1400,1660A,119.523,35.4216,日照市,市政府广场,,33,7,14,3,10,105,,95,93,4,5,8,8,0.4,0.4
2024-07-02T1400,1661A,119.5587,35.4044,日照市,港务局,,33,9,20,3,9,105,,104,99,5,5,9,9,0.4,0.5
2024-07-02T1400,3507A,119.5328,35.4625,日照市,职业技术学院,,33,6,13,3,11,104,,96,95,10,10,8,8,0.6,0.6
2024-07-02T1400,3604A,119.3266,35.1044,日照市,岚山环保分局,,35,6,19,3,14,112,,94,87,8,8,10,7,0.7,0.7
2024-07-02T1400,1835A,111.1922,34.7752,三门峡市,市政府,,48,29,30,16,18,151,,84,84,8,23,8,9,0.5,0.5
2024-07-02T1400,1836A,111.1587,34.7942,三门峡市,开发区,,48,23,34,16,19,153,,91,91,11,13,11,12,0.4,0.4
2024-07-02T1400,1838A,111.143,34.7955,三门峡市,风景区,,,,,,,,,,,,,,,,
2024-07-02T1400,3039A,111.1911,34.7829,三门峡市,三门峡市第一小学,,50,34,30,18,18,158,,91,91,8,19,8,9,0.5,0.6
2024-07-02T1400,3598A,111.1,34.7167,三门峡市,富达温泉假日酒店,臭氧1小时,59,44,40,19,28,167,,89,89,11,21,17,15,0.6,0.6
2024-07-02T1400,2324A,117.6211,26.2625,三明市,三钢,,34,22,25,6,13,51,,38,38,10,13,33,15,3.4,1.3
2024-07-02T1400,2325A,117.635,26.2714,三明市,三明二中,,24,24,18,11,8,58,,42,42,6,10,13,9,0.8,0.7
2024-07-02T1400,2326A,117.6028,26.2378,三明市,三元区政府,,17,12,21,3,11,53,,37,37,4,11,1,4,0.2,0.4
2024-07-02T1400,2327A,117.7275,26.3108,三明市,洋溪,,,,,,,,,,,,,,,,
2024-07-02T1400,1876A,109.5078,18.2489,三亚市,河东子站,,27,27,17,12,8,76,,74,74,1,2,3,3,0.4,0.4
2024-07-02T1400,1877A,109.4964,18.2681,三亚市,河西子站,,,19,17,11,8,70,,70,70,2,3,3,3,,0.2
2024-07-02T1400,3540A,109.7348,18.3443,三亚市,君悦子站,,22,21,20,11,9,68,,56,56,4,9,2,3,0.5,0.5
2024-07-02T1400,2624A,91.7608,29.2313,山南市,山南监测站,,29,6,7,3,3,90,,77,77,4,6,6,5,0.2,0.2
2024-07-02T1400,2625A,91.7706,29.2436,山南市,山南人民医院,,30,9,11,3,5,94,,79,79,6,9,7,7,0.2,0.2
2024-07-02T1400,1674A,116.6794,23.3667,汕头市,金平子站,,28,28,19,3,7,58,,46,46,4,8,5,6,0.6,0.7
2024-07-02T1400,1675A,116.7244,23.3633,汕头市,龙湖子站,,24,24,19,3,7,45,,36,36,8,10,5,5,0.7,0.7
2024-07-02T1400,1676A,116.7258,23.2775,汕头市,濠江子站,,16,14,15,7,8,50,,37,37,7,12,5,5,0.5,0.6
2024-07-02T1400,1677A,116.7519,23.4714,汕头市,澄海子站,,15,15,22,7,8,47,,36,36,6,8,4,4,0.6,0.7
2024-07-02T1400,1678A,116.6092,23.2539,汕头市,潮阳子站,,19,19,21,3,7,54,,42,42,1,4,4,4,0.6,0.5
2024-07-02T1400,3444A,116.454,23.2684,汕头市,潮南峡山,,15,13,19,7,7,46,,42,42,2,2,4,4,0.7,0.7
2024-07-02T1400,3624A,116.4069,23.2533,汕头市,潮南子站,,23,23,23,6,7,50,,45,45,2,2,6,6,0.6,0.7
2024-07-02T1400,1693A,115.3653,22.775,汕尾市,市环保局,,16,16,20,8,7,50,,49,49,5,6,5,5,0.5,0.5
2024-07-02T1400,1694A,115.3706,22.7898,汕尾市,市政府,,17,11,17,8,8,53,,50,50,2,2,6,6,0.7,0.7
2024-07-02T1400,1695A,115.3622,22.7925,汕尾市,新城中学,,27,27,20,6,7,56,,49,49,1,3,4,4,0.6,0.6
2024-07-02T1400,2645A,109.9154,33.8715,商洛市,监测站,,45,21,29,15,16,143,,68,68,6,10,12,6,0.6,0.6
2024-07-02T1400,3045A,109.9643,33.8471,商洛市,商州区中学,,46,46,29,15,11,143,,67,67,6,12,15,5,0.6,0.6
2024-07-02T1400,2408A,115.6702,34.4285,商丘市,环境监测站,,40,40,35,28,21,100,,127,103,6,5,8,8,0.6,0.6
2024-07-02T1400,2409A,115.6458,34.4045,商丘市,粮食局,,46,46,25,30,19,105,,130,108,8,7,4,5,0.5,0.4
2024-07-02T1400,2410A,115.6293,34.3948,商丘市,睢阳区环保局,,50,43,37,35,26,112,,139,113,5,4,4,4,0.5,0.5
2024-07-02T1400,3171A,115.6071,34.4465,商丘市,梁园区档案局,颗粒物(PM10),54,57,34,30,24,96,,121,99,8,7,7,7,0.6,0.5
2024-07-02T1400,1141A,121.4,31.238,上海市,普陀,,,28,33,,29,127,,81,81,,19,5,6,0.3,0.4
2024-07-02T1400,1142A,121.478,31.2036,上海市,十五厂,,37,26,32,18,22,116,,76,76,16,21,7,7,0.4,0.5
2024-07-02T1400,1143A,121.467,31.3008,上海市,虹口,,37,26,33,19,28,116,,75,75,12,20,5,6,0.6,0.7
2024-07-02T1400,1144A,121.412,31.1654,上海市,徐汇上师大,,38,23,34,17,25,120,,78,78,16,24,5,6,0.6,0.7
2024-07-02T1400,1145A,121.536,31.2659,上海市,杨浦四漂,,37,27,30,16,23,117,,81,81,14,19,6,6,0.7,0.7
2024-07-02T1400,1147A,121.425,31.2261,上海市,静安监测站,,38,26,33,20,25,120,,77,77,11,19,6,7,0.6,0.6
2024-07-02T1400,1148A,121.703,31.1907,上海市,浦东川沙,,37,22,33,19,26,116,,81,81,11,26,6,6,0.6,0.7
2024-07-02T1400,1149A,121.533,31.2284,上海市,浦东新区监测站,,34,19,29,16,21,108,,73,73,14,18,4,4,0.6,0.6
2024-07-02T1400,1150A,121.577,31.2071,上海市,浦东张江,,33,21,29,15,25,103,,70,70,13,20,5,5,0.8,0.8
2024-07-02T1400,3265A,121.4316,31.3322,上海市,宝山庙行,,40,25,30,18,21,128,,84,84,12,17,8,8,0.6,0.7
2024-07-02T1400,3266A,121.8791,31.4662,上海市,崇明上实东滩,,39,18,24,11,13,122,,80,80,8,20,8,8,0.5,0.5
2024-07-02T1400,3268A,121.3162,31.2838,上海市,嘉定南翔,,35,28,32,22,25,112,,71,71,16,26,5,5,0.5,0.6
2024-07-02T1400,3269A,121.3359,30.7456,上海市,金山新城,,34,19,29,14,21,108,,76,76,16,14,8,8,0.5,0.4
2024-07-02T1400,3270A,121.4996,31.0739,上海市,闵行浦江,,36,24,29,17,23,115,,77,77,11,15,6,5,0.4,0.4
2024-07-02T1400,3271A,121.2886,31.1663,上海市,青浦徐泾,,39,27,29,22,27,123,,77,77,15,20,5,5,0.5,0.5
2024-07-02T1400,3272A,121.2186,31.0378,上海市,松江图书馆,,40,24,30,21,26,128,,81,81,14,19,6,5,0.5,0.6
2024-07-02T1400,3273A,121.3902,31.2059,上海市,长宁仙霞,,36,32,33,19,21,115,,75,75,20,23,6,5,0.5,0.5
2024-07-02T1400,3274A,121.7965,31.0507,上海市,浦东惠南,,43,26,34,20,22,136,,81,81,11,32,7,7,0.5,0.5
2024-07-02T1400,3544A,121.4891,30.925,上海市,奉贤南桥新城,,34,16,26,14,21,106,,74,74,13,19,6,5,0.5,0.6
2024-07-02T1400,2381A,118.005,28.4572,上饶市,百草园,,21,21,31,8,15,48,,27,27,2,11,4,8,1.0,1
2024-07-02T1400,2382A,117.9756,28.4436,上饶市,市监测站,,28,28,36,14,16,63,,40,40,7,14,4,11,0.6,0.7
2024-07-02T1400,2383A,117.9519,28.4628,上饶市,凤凰光学,,31,31,28,15,16,80,,40,40,10,14,7,12,0.8,0.8
2024-07-02T1400,3413A,118.1953,28.4401,上饶市,广丰区教体局,,17,10,21,3,11,52,,45,45,1,5,4,7,0.5,0.4
2024-07-02T1400,3685A,117.897,28.4315,上饶市,双创科技城,,35,35,34,11,13,44,,27,27,6,13,2,9,0.5,0.5
2024-07-02T1400,1669A,113.5824,24.7733,韶关市,市八中,,23,16,22,8,11,71,,50,50,2,5,7,8,0.4,0.4
2024-07-02T1400,1671A,113.5917,24.7972,韶关市,园林处,,20,12,21,6,10,64,,50,50,2,5,7,7,0.7,0.6
2024-07-02T1400,1672A,113.6735,24.7791,韶关市,韶关学院,,22,13,18,9,11,70,,49,49,6,8,8,9,0.3,0.4
2024-07-02T1400,1673A,113.5971,24.6863,韶关市,曲江监测站,,22,14,24,8,10,69,,47,47,4,7,8,7,0.5,0.5
2024-07-02T1400,3622A,113.5556,24.8082,韶关市,碧湖山庄,,25,14,24,8,11,78,,48,48,3,6,10,10,0.3,0.3
2024-07-02T1400,2462A,111.5239,27.3033,邵阳市,市水土所,,41,18,14,10,9,131,,101,101,2,2,6,6,0.6,0.5
