timepoint,stationcode,longitude,latitude,area,positionname,primarypollutant,aqi,pm10,pm10_24h,pm2_5,pm2_5_24h,o3,o3_24h,o3_8h,o3_8h_24h,no2,no2_24h,so2,so2_24h,co,co_24h
2024-06-19T2000,2566A,102.1879,31.914,阿坝藏族羌族自治州,州农科所,,,26,20,8,8,15,,36,32,26,13,5,5,,1.1
2024-06-19T2000,2568A,102.2502,31.8896,阿坝藏族羌族自治州,马师校,,17,17,11,11,12,46,,82,78,8,11,5,5,0.3,0.3
2024-06-19T2000,3994A,102.2165,31.9024,阿坝藏族羌族自治州,马尔康中学西区,,21,21,15,11,10,48,,86,82,4,4,6,6,0.3,0.3
2024-06-19T2000,2695A,80.292,41.1694,阿克苏地区,电视台,颗粒物(PM10),56,61,73,20,22,142,,138,138,8,20,4,5,0.4,0.5
2024-06-19T2000,2696A,80.2613,41.1551,阿克苏地区,艺术中心,颗粒物(PM10),55,60,74,24,23,146,,139,139,5,32,4,4,0.4,0.6
2024-06-19T2000,2204A,105.6467,38.8363,阿拉善盟,西城区西花园,,43,42,60,12,21,137,,141,140,9,10,8,9,0.6,0.5
2024-06-19T2000,2205A,105.6985,38.8411,阿拉善盟,蒙二幼,,46,46,59,18,22,131,,138,136,8,7,11,12,0.5,0.5
2024-06-19T2000,2206A,105.724,38.8516,阿拉善盟,环保局新楼,,41,38,60,15,21,130,,143,138,7,6,9,10,0.4,0.4
2024-06-19T2000,2708A,88.1264,47.8517,阿勒泰地区,市站,颗粒物(PM10),136,222,62,29,16,80,,88,86,5,11,6,6,0.2,0.5
2024-06-19T2000,2630A,80.1161,32.5,阿里地区,阿里监测站,臭氧1小时,57,38,24,12,9,165,,160,160,9,8,5,5,0.4,0.4
2024-06-19T2000,3192A,80.0903,32.5028,阿里地区,阿里藏医院,颗粒物(PM10),72,93,24,15,8,168,,162,162,5,4,6,6,0.4,0.4
2024-06-19T2000,2642A,109.0318,32.6537,安康市,香溪洞,,20,16,23,14,14,56,,67,63,3,5,6,6,0.6,0.6
2024-06-19T2000,2643A,109.0281,32.6939,安康市,安康市监测站,,18,18,29,9,13,52,,78,70,4,8,6,8,0.6,0.6
2024-06-19T2000,2644A,109.0072,32.6975,安康市,汉滨区检察院,,19,17,25,10,16,59,,83,77,4,7,6,6,0.5,0.5
2024-06-19T2000,2291A,117.0809,30.5177,安庆市,环科院,,19,19,12,10,7,42,,48,45,12,13,3,4,0.5,0.5
2024-06-19T2000,2292A,117.0331,30.5119,安庆市,马山宾馆,,14,14,14,8,9,39,,49,44,20,23,6,6,0.7,0.6
2024-06-19T2000,2294A,116.9896,30.6145,安庆市,安庆大学,,15,13,19,10,11,46,,54,52,13,13,7,7,0.3,0.3
2024-06-19T2000,3173A,117.0598,30.5351,安庆市,市人大,,15,14,8,10,8,37,,50,46,18,14,5,5,0.3,0.4
2024-06-19T2000,3122A,105.9606,26.2611,安顺市,伍家关,,,,,,,,,,,,,,,,
2024-06-19T2000,3123A,105.9408,26.2431,安顺市,凤凰山,,22,20,17,15,11,55,,69,69,9,7,4,8,1.1,1
2024-06-19T2000,3124A,105.9439,26.2564,安顺市,金钟山,,21,18,16,14,12,65,,72,72,5,7,4,6,0.6,0.7
2024-06-19T2000,3125A,105.8983,26.2481,安顺市,娄家坡,,32,32,24,19,13,57,,67,67,9,6,4,7,0.9,0.9
2024-06-19T2000,1818A,114.4839,36.0621,安阳市,棉研所,,,,,,,,,,,,,,,,
2024-06-19T2000,1819A,114.3551,36.1017,安阳市,红庙街,臭氧1小时,107,77,52,17,23,214,,222,222,8,6,4,5,0.6,0.6
2024-06-19T2000,1820A,114.361,36.0681,安阳市,银杏小区,臭氧1小时,104,40,48,12,20,207,,215,215,16,17,8,9,0.7,0.8
2024-06-19T2000,3141A,114.3922,36.0878,安阳市,信访局,臭氧1小时,106,48,57,13,19,211,,218,218,6,7,6,7,0.6,0.6
2024-06-19T2000,3669A,114.4705,36.0637,安阳市,左辅环卫站,臭氧1小时,97,42,50,16,28,197,,222,221,12,13,3,3,0.3,0.4
2024-06-19T2000,3703A,114.2917,36.0949,安阳市,安钢职工学校,臭氧1小时,101,45,60,14,25,201,,209,209,10,12,5,6,0.4,0.6
2024-06-19T2000,1748A,123.044,41.1196,鞍山市,深沟寺,,41,33,31,13,14,130,,170,151,26,12,11,11,0.5,0.5
2024-06-19T2000,1749A,123.011,41.0931,鞍山市,太阳城,,42,35,35,13,16,134,,170,153,27,13,9,9,0.6,0.7
2024-06-19T2000,1750A,123.0485,41.1442,鞍山市,太平,,42,42,32,18,14,111,,165,146,47,11,24,7,1.6,0.6
2024-06-19T2000,1751A,122.9642,41.0971,鞍山市,铁西三道街,,47,47,47,17,21,133,,171,151,29,18,8,7,0.5,0.6
2024-06-19T2000,1752A,122.9341,41.0833,鞍山市,铁西工业园区,,44,33,37,11,17,138,,167,154,27,16,7,9,0.3,0.6
2024-06-19T2000,1753A,123.022,41.0821,鞍山市,明达新区,,43,32,35,14,16,135,,166,144,21,10,9,9,0.5,0.6
2024-06-19T2000,1754A,123.1289,41.0228,鞍山市,千山,,,,,,,,,,,,,,,,
2024-06-19T2000,2195A,107.4212,40.761,巴彦淖尔市,附二中,,44,44,63,22,29,131,,140,140,11,12,3,5,0.4,0.5
2024-06-19T2000,2196A,107.37,40.7372,巴彦淖尔市,市环保大楼,颗粒物(PM10),55,60,69,24,24,125,,138,138,11,10,3,4,0.4,0.5
2024-06-19T2000,1956A,86.1472,41.7538,巴音郭楞蒙古自治州,孔雀公园,,,115,567,29,121,,,105,105,5,9,2,2,0.2,0.2
2024-06-19T2000,1957A,86.1972,41.7166,巴音郭楞蒙古自治州,棉纺厂,颗粒物(PM10),83,115,381,27,94,111,,113,113,5,8,4,4,0.2,0.2
2024-06-19T2000,1958A,86.2357,41.7173,巴音郭楞蒙古自治州,经济开发区,颗粒物(PM10),85,120,379,40,80,116,,116,116,5,6,2,2,0.2,0.2
2024-06-19T2000,2914A,106.7677,31.8794,巴中市,苏山坪,,33,,18,23,12,71,,70,70,8,8,4,4,0.7,0.7
2024-06-19T2000,3182A,106.7656,31.8545,巴中市,丽阳花园,,25,14,19,11,14,80,,80,80,9,15,6,6,0.5,0.6
2024-06-19T2000,3183A,106.7418,31.8654,巴中市,圣泉水务公司,,26,14,19,11,14,81,,78,78,7,18,3,4,0.5,0.6
2024-06-19T2000,3616A,106.7616,31.8344,巴中市,市中心医院,,25,13,19,9,13,78,,79,79,8,12,6,5,0.5,0.5
2024-06-19T2000,2235A,122.7911,45.6077,白城市,洮北区环保局,细颗粒物(PM2.5),59,62,51,42,39,115,,147,140,14,16,4,4,0.3,0.3
2024-06-19T2000,2236A,122.8738,45.5725,白城市,市环保局,颗粒物(PM10),52,53,50,28,26,105,,132,128,16,16,5,5,0.4,0.4
2024-06-19T2000,2231A,126.4219,41.9171,白山市,喜丰,,43,27,43,7,19,135,,165,149,3,17,8,11,0.6,1
2024-06-19T2000,2232A,126.4077,41.9419,白山市,环保局,,36,36,42,16,21,102,,155,138,17,14,10,10,0.7,0.8
2024-06-19T2000,2647A,104.1724,36.5446,白银市,第三小学,颗粒物(PM10),68,86,107,28,36,146,,148,148,9,26,41,35,0.5,0.7
2024-06-19T2000,2648A,104.1465,36.5482,白银市,动力公司,颗粒物(PM10),77,103,89,18,29,135,,142,142,6,17,13,25,0.2,0.4
2024-06-19T2000,2512A,106.6103,23.9011,百色市,市监测站,,39,39,43,22,24,70,,89,87,10,13,8,17,0.8,0.9
2024-06-19T2000,2513A,106.6538,23.8859,百色市,市中心血站,,39,39,45,23,28,78,,93,92,10,11,9,13,0.7,0.8
2024-06-19T2000,3406A,106.6085,23.8798,百色市,祈福高中,,42,42,49,12,27,61,,89,87,17,15,8,18,0.9,0.9
2024-06-19T2000,2270A,117.396,32.939,蚌埠市,工人疗养院,颗粒物(PM10),57,64,49,28,21,135,,168,164,7,15,6,10,0.5,0.4
2024-06-19T2000,2271A,117.3605,32.9427,蚌埠市,百货大楼,颗粒物(PM10),57,63,50,38,25,133,,171,164,16,14,4,7,0.5,0.5
2024-06-19T2000,2273A,117.4185,32.8911,蚌埠市,蚌埠学院,颗粒物(PM10),51,51,42,33,23,119,,163,156,27,12,9,7,0.6,0.5
2024-06-19T2000,2274A,117.3533,32.9673,蚌埠市,淮上区政府,细颗粒物(PM2.5),57,56,47,40,28,136,,175,169,12,14,5,8,0.5,0.4
2024-06-19T2000,2275A,117.3145,32.8977,蚌埠市,高新区,颗粒物(PM10),56,61,44,39,23,124,,172,165,34,12,12,7,0.6,0.5
2024-06-19T2000,3715A,117.3092,32.9314,蚌埠市,蚌埠田家炳中学,颗粒物(PM10),57,64,46,34,22,143,,174,170,8,8,6,7,0.4,0.4
2024-06-19T2000,1585A,109.8756,40.6532,包头市,市环境监测站,,40,40,36,23,19,118,,134,134,49,31,31,16,0.9,0.7
2024-06-19T2000,1587A,109.9991,40.5842,包头市,包头八中,,46,46,39,16,26,147,,147,147,22,24,38,29,0.8,0.7
2024-06-19T2000,1588A,109.8538,40.6821,包头市,青山宾馆,,42,29,29,15,20,132,,137,137,38,28,29,14,0.9,0.7
2024-06-19T2000,1589A,109.8642,40.6288,包头市,惠龙物流,,45,38,30,23,17,141,,145,145,29,24,35,21,0.9,0.7
2024-06-19T2000,1590A,110.0377,40.5546,包头市,东河鸿龙湾,,42,40,30,16,15,132,,141,141,29,19,27,17,0.6,0.6
2024-06-19T2000,3283A,109.9154,40.5685,包头市,滨河大厦,,45,24,30,20,19,144,,143,143,20,22,13,11,0.6,0.6
2024-06-19T2000,3419A,109.9447,40.6261,包头市,包头市委党校,,46,36,30,19,17,145,,144,144,27,30,23,18,0.5,0.6
2024-06-19T2000,3683A,109.8331,40.6576,包头市,昆区政府,,42,37,32,18,24,134,,140,140,36,27,33,20,1.0,0.8
2024-06-19T2000,1930A,107.185,34.3063,宝鸡市,庙沟村,,,,32,12,13,101,,125,125,11,9,9,9,0.4,0.4
2024-06-19T2000,1931A,107.0708,34.3017,宝鸡市,竹园沟,,40,30,23,10,14,128,,158,158,13,16,8,8,0.6,0.5
2024-06-19T2000,1932A,107.1906,34.3672,宝鸡市,三陆医院,,44,29,46,11,24,140,,154,154,19,29,7,10,0.5,0.6
2024-06-19T2000,1933A,107.1431,34.3547,宝鸡市,监测站,,43,35,31,16,17,137,,151,151,17,21,8,9,0.4,0.5
2024-06-19T2000,1934A,107.1186,34.3739,宝鸡市,技工学校,,45,27,35,15,18,141,,156,156,17,18,7,8,0.6,0.6
2024-06-19T2000,1935A,107.3906,34.3528,宝鸡市,陈仓区环保局家属楼,,45,32,35,9,17,141,,155,155,16,23,6,6,0.3,0.5
2024-06-19T2000,1936A,107.2058,34.3497,宝鸡市,文理学院,,45,29,34,11,11,142,,152,152,16,22,8,8,0.5,0.5
2024-06-19T2000,1937A,107.2386,34.3622,宝鸡市,三迪小学,,42,29,42,19,24,133,,150,150,26,26,7,8,0.5,0.6
2024-06-19T2000,1051A,115.493,38.8632,保定市,游泳馆,臭氧1小时,102,67,71,25,25,203,,227,226,6,7,8,9,0.1,0.2
2024-06-19T2000,1052A,115.5213,38.8959,保定市,华电二区,臭氧1小时,106,51,53,36,30,211,,231,230,8,11,4,4,0.3,0.4
2024-06-19T2000,1053A,115.4713,38.9108,保定市,接待中心,臭氧1小时,105,55,45,31,31,209,,231,230,6,6,3,4,0.4,0.4
2024-06-19T2000,1054A,115.4612,38.8416,保定市,地表水厂,,,,54,,31,195,,231,228,21,12,,3,0.8,0.6
2024-06-19T2000,3581A,115.31981,38.95208,保定市,满城区生态环境分局,臭氧1小时,100,83,79,24,27,200,,235,233,11,9,3,4,0.2,0.3
2024-06-19T2000,3582A,115.47694,38.76408,保定市,清苑区第二中学,臭氧1小时,88,82,73,32,36,190,,232,229,26,13,5,6,0.4,0.4
2024-06-19T2000,3583A,115.62909,39.02311,保定市,徐水物探局,臭氧1小时,105,78,75,19,22,210,,239,237,14,11,1,3,0.3,0.3
2024-06-19T2000,4004A,115.4202,38.8656,保定市,双鹰农机,臭氧1小时,104,69,60,42,28,208,,242,240,10,7,2,2,0.2,0.2
2024-06-19T2000,4034A,115.5150,38.8590,保定市,植保所站,臭氧1小时,106,62,65,22,30,211,,237,236,11,13,5,6,0.5,0.6
2024-06-19T2000,2594A,99.1678,25.1081,保山市,市环境监测站,,35,35,40,14,15,89,,91,91,5,7,6,6,0.5,0.6
2024-06-19T2000,2595A,99.1711,25.1328,保山市,市环保局,,40,40,47,22,16,92,,96,96,3,5,6,6,0.5,0.5
2024-06-19T2000,1866A,109.2262,21.588,北海市,牛尾岭水库,,,,,,,,,,,,,,,,
2024-06-19T2000,1867A,109.1436,21.4086,北海市,海滩公园,颗粒物(PM10),56,62,41,3,7,77,,95,94,2,4,3,3,0.7,0.6
2024-06-19T2000,1868A,109.0981,21.4661,北海市,新市环保局,,26,22,24,12,8,82,,95,94,4,5,4,4,0.6,0.7
2024-06-19T2000,1869A,109.1778,21.5233,北海市,北海工业园,,26,24,27,17,12,82,,92,92,5,5,4,4,0.5,0.5
2024-06-19T2000,3400A,109.1911,21.4415,北海市,龙潭自来水厂,,26,26,22,16,13,78,,93,92,5,4,5,5,0.5,0.5
2024-06-19T2000,1001A,116.3621,39.8784,北京市,万寿西宫,臭氧1小时,133,119,82,61,36,265,,254,254,26,25,5,2,0.7,0.5
2024-06-19T2000,1002A,116.2202,40.2915,北京市,定陵,臭氧1小时,127,92,70,34,33,254,,230,230,21,18,1,3,0.6,0.5
2024-06-19T2000,1003A,116.4174,39.9289,北京市,东四,臭氧1小时,127,133,80,64,34,253,,251,251,27,22,9,5,0.7,0.5
2024-06-19T2000,1004A,116.4072,39.8863,北京市,天坛,臭氧1小时,124,137,69,61,33,248,,249,249,23,19,6,2,0.7,0.4
2024-06-19T2000,1005A,116.462,39.9365,北京市,农展馆,臭氧1小时,117,134,78,64,32,234,,254,254,28,23,135,12,0.8,0.6
2024-06-19T2000,1006A,116.3392,39.9295,北京市,官园,臭氧1小时,131,126,85,59,34,262,,245,245,23,19,9,5,0.7,0.5
2024-06-19T2000,1007A,116.2878,39.9611,北京市,海淀万柳,臭氧1小时,131,108,83,52,37,262,,221,221,22,23,8,5,0.6,0.4
2024-06-19T2000,1008A,116.6636,40.135,北京市,顺义新城,臭氧1小时,130,75,142,40,46,259,,254,254,18,29,6,3,0.5,0.7
2024-06-19T2000,1009A,116.6275,40.3275,北京市,怀柔镇,臭氧1小时,131,82,113,38,67,262,,262,262,15,17,8,6,0.7,0.7
2024-06-19T2000,1010A,116.2296,40.217,北京市,昌平镇,臭氧1小时,113,90,81,37,37,226,,212,212,23,21,4,3,0.6,0.5
2024-06-19T2000,1011A,116.3966,39.9821,北京市,奥体中心,臭氧1小时,118,122,76,61,32,235,,219,219,26,19,5,2,0.7,0.5
2024-06-19T2000,1012A,116.184,39.9136,北京市,古城,臭氧1小时,123,104,98,40,36,245,,216,216,28,28,5,3,0.4,0.3
2024-06-19T2000,3281A,115.9718,40.4529,北京市,延庆夏都,臭氧1小时,102,64,58,30,27,203,,211,211,9,12,1,2,0.5,0.4
2024-06-19T2000,3417A,117.0709,40.1465,北京市,平谷新城,细颗粒物(PM2.5),140,149,114,107,70,206,,218,218,18,18,4,3,0.8,0.6
2024-06-19T2000,3418A,116.8336,40.4095,北京市,密云新城,臭氧1小时,131,110,105,58,60,262,,260,260,16,16,5,3,0.7,0.6
2024-06-19T2000,3671A,116.088,39.9726,北京市,门头沟三家店,,,,,,,,,,,,,,,,
2024-06-19T2000,3672A,116.1541,39.8204,北京市,丰台云岗,臭氧1小时,110,91,85,39,36,219,,203,203,22,26,4,2,0.6,0.5
2024-06-19T2000,3673A,116.6804,39.9081,北京市,通州东关,臭氧1小时,111,118,103,52,45,222,,250,250,21,30,6,4,0.7,0.6
2024-06-19T2000,3674A,115.9577,39.7603,北京市,房山燕山,臭氧1小时,64,73,74,31,32,171,,200,198,14,13,3,2,0.4,0.5
2024-06-19T2000,3675A,116.4672,39.7733,北京市,大兴旧宫,臭氧1小时,105,110,77,50,33,210,,234,234,22,19,4,2,0.8,0.5
2024-06-19T2000,3694A,115.986,40.4563,北京市,延庆石河营,臭氧1小时,92,61,56,31,28,193,,207,207,8,12,1,2,0.4,0.4
2024-06-19T2000,3695A,116.6151,40.3053,北京市,怀柔新城,臭氧1小时,125,85,110,42,69,250,,249,249,18,20,5,3,0.7,0.8
2024-06-19T2000,3696A,116.2545,39.8768,北京市,丰台小屯,臭氧1小时,120,97,80,46,34,239,,202,202,22,27,4,1,0.7,0.5
2024-06-19T2000,3697A,116.84,40.3844,北京市,密云镇,臭氧1小时,132,126,109,63,62,263,,258,258,13,23,5,3,0.6,0.6
2024-06-19T2000,1761A,123.8275,41.3064,本溪市,大峪,,50,33,38,6,18,160,,155,155,7,10,10,10,0.4,0.5
2024-06-19T2000,1762A,123.7567,41.3325,本溪市,溪湖,,47,36,42,18,21,148,,152,152,22,19,21,15,1.7,1.1
2024-06-19T2000,1763A,123.7169,41.3094,本溪市,彩屯,颗粒物(PM10),51,51,47,21,25,143,,138,138,26,28,25,18,2.3,2.3
2024-06-19T2000,1764A,123.7669,41.2864,本溪市,东明,臭氧1小时,58,39,42,11,16,166,,172,159,12,12,8,8,0.5,0.5
2024-06-19T2000,1765A,123.7992,41.2664,本溪市,新立屯,,50,49,36,22,19,160,,170,158,12,10,6,9,0.4,0.6
2024-06-19T2000,1766A,123.8142,41.3472,本溪市,威宁,颗粒物(PM10),51,51,48,11,23,152,,154,154,14,17,8,8,0.4,0.5
2024-06-19T2000,2587A,105.2864,27.3125,毕节市,八中,,21,6,28,3,25,66,,54,54,6,9,5,5,0.5,0.5
2024-06-19T2000,2588A,105.31,27.2944,毕节市,师专,,20,6,26,3,23,64,,53,53,9,10,3,5,0.5,0.5
2024-06-19T2000,3537A,105.3631,27.3533,毕节市,长征村,,25,10,61,7,46,79,,56,56,6,9,6,6,0.7,0.6
2024-06-19T2000,1629A,118.0018,37.3617,滨州市,第二水厂,臭氧1小时,57,56,65,12,22,165,,236,216,16,25,4,9,0.3,0.5
2024-06-19T2000,1630A,117.9776,37.393,滨州市,北中新校,臭氧1小时,55,48,61,9,20,164,,234,215,15,24,7,8,0.4,0.7
2024-06-19T2000,3514A,117.9378,37.3956,滨州市,中海酒店,臭氧1小时,83,48,51,12,22,186,,249,232,13,19,6,9,0.3,0.4
2024-06-19T2000,3515A,117.9378,37.3553,滨州市,开发区一中,臭氧1小时,62,51,64,14,22,169,,231,217,15,25,7,10,0.5,0.7
2024-06-19T2000,3516A,118.0917,37.694,滨州市,金海六路,臭氧1小时,57,46,57,9,15,165,,212,205,14,18,12,17,0.5,0.7
2024-06-19T2000,4028A,117.9956,37.3753,滨州市,滨州市西街道办事处,臭氧1小时,55,48,60,17,26,164,,237,217,15,25,5,9,0.5,0.7
2024-06-19T2000,2311A,115.8072,33.8399,亳州市,污水处理厂,颗粒物(PM10),51,52,51,28,29,151,,215,208,24,18,5,6,0.5,0.5
2024-06-19T2000,2312A,115.7789,33.8518,亳州市,三国揽胜宫,"颗粒物(PM10),臭氧1小时",52,54,47,26,26,161,,214,209,15,14,4,6,0.5,0.5
2024-06-19T2000,3332A,115.7633,33.8034,亳州市,亳州学院,,43,40,52,29,25,137,,215,207,11,13,4,6,0.4,0.5
2024-06-19T2000,2693A,82.0485,44.8556,博尔塔拉蒙古自治州,市党校,,32,32,23,8,7,101,,107,106,8,10,8,9,0.5,0.4
2024-06-19T2000,2694A,82.0806,44.8969,博尔塔拉蒙古自治州,市环保局,,35,23,21,14,10,109,,112,112,9,14,9,9,0.3,0.4
2024-06-19T2000,1071A,116.8842,38.2991,沧州市,沧县城建局,臭氧1小时,106,58,53,30,22,212,,232,230,22,16,4,3,0.5,0.5
2024-06-19T2000,1072A,116.8584,38.3254,沧州市,电视转播站,臭氧1小时,107,66,55,22,23,213,,225,224,18,10,4,4,0.4,0.4
2024-06-19T2000,1073A,116.8709,38.3228,沧州市,市环保局,臭氧1小时,103,69,54,32,26,206,,234,231,24,16,8,8,0.4,0.4
2024-06-19T2000,3324A,116.8136,38.3004,沧州市,河北水利电力学院,臭氧1小时,110,63,55,24,27,220,,238,236,21,15,9,9,0.4,0.4
2024-06-19T2000,2622A,97.1806,31.1273,昌都市,昌都监测站,,28,15,8,13,6,88,,100,100,14,8,9,9,0.7,0.5
2024-06-19T2000,3719A,97.1714,31.1406,昌都市,昌都会议中心,,29,13,8,7,5,92,,104,104,10,8,5,5,0.5,0.4
2024-06-19T2000,2690A,88.1236,43.8886,昌吉回族自治州,天山天池,,31,9,11,3,3,97,,90,90,6,6,5,11,0.5,0.6
2024-06-19T2000,2692A,87.2717,44.0297,昌吉回族自治州,新区政务中心,,33,20,16,3,8,104,,116,116,10,7,10,9,0.4,0.3
2024-06-19T2000,3613A,87.3095,44.0142,昌吉回族自治州,亚心广场,,32,22,19,3,2,102,,117,116,17,13,8,7,0.2,0.2
2024-06-19T2000,1119A,125.3325,43.9166,长春市,食品厂,,45,45,69,14,20,126,,197,186,34,44,7,8,0.1,0.4
2024-06-19T2000,1120A,125.2863,43.9027,长春市,客车厂,,42,31,56,11,18,133,,202,192,26,33,4,5,0.3,0.4
2024-06-19T2000,1121A,125.2841,43.8463,长春市,邮电学院,,40,38,56,17,13,128,,198,188,31,37,8,8,0.3,0.4
2024-06-19T2000,1122A,125.3716,43.8772,长春市,劳动公园,,44,34,56,8,16,140,,213,202,25,43,6,6,0.4,0.5
2024-06-19T2000,1123A,125.3297,43.8805,长春市,园林处,,41,33,50,17,21,131,,203,192,28,38,9,8,0.4,0.5
2024-06-19T2000,1124A,125.4605,43.79,长春市,净月潭,,42,30,37,10,15,133,,207,192,17,30,5,6,0.3,0.4
2024-06-19T2000,1125A,125.7194,43.515,长春市,甩湾子,,,,,,,,,,,,,,,,
2024-06-19T2000,1126A,125.3863,43.8447,长春市,经开区环卫处,,45,45,57,16,16,124,,208,195,31,49,6,6,0.3,0.4
2024-06-19T2000,1127A,125.245,43.7783,长春市,高新区管委会,,36,31,46,13,14,115,,206,191,32,40,8,9,0.3,0.4
2024-06-19T2000,1128A,125.1761,43.8325,长春市,岱山公园,,39,30,52,8,19,124,,192,182,24,36,6,6,0.3,0.4
2024-06-19T2000,1335A,113.0833,28.2325,长沙市,经开区环保局,,28,28,19,10,12,27,,54,48,28,16,3,3,0.6,0.5
2024-06-19T2000,1336A,112.8872,28.2189,长沙市,高开区环保局,,26,26,17,12,11,60,,65,65,16,10,4,4,0.8,0.6
2024-06-19T2000,1337A,113.0792,28.2053,长沙市,马坡岭,,23,23,19,11,15,49,,55,55,17,16,7,7,0.6,0.6
2024-06-19T2000,1338A,112.9394,28.19,长沙市,湖南师范大学,,25,25,18,15,13,37,,58,53,14,8,3,4,0.9,0.8
2024-06-19T2000,1339A,113.0178,28.1322,长沙市,雨花区环保局,,22,22,17,10,10,55,,60,59,9,4,3,3,0.5,0.5
2024-06-19T2000,1340A,112.9792,28.2597,长沙市,伍家岭,,,,,,,,,,,,,,,,
2024-06-19T2000,1341A,113.0014,28.1944,长沙市,火车新站,,34,34,20,19,9,39,,63,57,24,9,2,2,0.8,0.6
2024-06-19T2000,1342A,112.9844,28.1178,长沙市,天心区环保局,,25,23,17,17,11,44,,50,49,16,7,2,2,1.0,0.9
2024-06-19T2000,1343A,112.8908,28.1308,长沙市,湖南中医药大学,,25,24,15,17,11,52,,60,57,14,6,7,7,1.0,0.8
2024-06-19T2000,1344A,112.9581,28.3611,长沙市,沙坪,,25,25,14,13,8,50,,82,71,13,8,7,7,0.5,0.7
2024-06-19T2000,1727A,113.1147,36.1547,长治市,清华站,臭氧1小时,103,37,36,19,20,206,,199,199,12,13,10,10,0.4,0.4
2024-06-19T2000,1728A,113.1031,36.1989,长治市,监测站,臭氧1小时,106,43,50,19,21,212,,206,206,14,17,4,5,0.5,0.7
2024-06-19T2000,1730A,113.0886,36.2125,长治市,审计局,臭氧1小时,105,39,37,17,19,209,,208,208,22,21,2,3,0.3,0.5
2024-06-19T2000,1731A,113.0844,36.1856,长治市,长治八中,臭氧1小时,104,49,43,22,20,207,,202,202,15,15,3,3,0.5,0.6
2024-06-19T2000,2845A,113.1569,36.1911,长治市,德盛苑,臭氧1小时,108,36,37,17,20,216,,208,208,10,10,7,8,0.6,0.7
2024-06-19T2000,3568A,113.06,36.0464,长治市,向阳小学,臭氧1小时,112,66,62,51,40,223,,201,201,13,15,4,4,0.6,0.7
2024-06-19T2000,3569A,112.8792,36.3144,长治市,屯留一中,臭氧1小时,108,44,42,37,33,215,,208,208,16,18,9,9,0.5,0.6
2024-06-19T2000,3570A,113.235,36.3489,长治市,潞城四中,臭氧1小时,106,51,45,23,28,211,,206,206,8,17,8,7,0.4,0.6
2024-06-19T2000,1854A,111.6975,28.9703,常德市,市二中,,20,,29,9,18,64,,115,111,11,6,6,6,0.7,0.6
2024-06-19T2000,1857A,111.7158,29.1456,常德市,白鹤山,,,,,,,,,,,,,,,,
2024-06-19T2000,3138A,111.7153,29.0289,常德市,武陵区永安,,29,29,30,12,21,71,,115,112,4,4,7,7,0.4,0.4
2024-06-19T2000,3139A,111.6892,28.9881,常德市,鼎城区玉霞,,24,24,30,8,20,67,,112,108,2,5,4,4,0.5,0.5
2024-06-19T2000,3140A,111.6625,29.0531,常德市,武陵区长庚,,25,25,27,11,19,76,,110,107,4,7,7,8,0.4,0.4
2024-06-19T2000,1196A,119.9633,31.762,常州市,市监测站,,49,49,30,25,15,40,,64,48,26,22,6,7,0.5,0.5
2024-06-19T2000,1200A,119.9468,31.7069,常州市,武进监测站,,29,26,24,20,12,48,,69,56,18,12,11,10,0.7,0.7
2024-06-19T2000,1201A,119.9255,31.9087,常州市,安家,,35,35,33,24,16,36,,68,40,24,19,6,7,0.6,0.5
2024-06-19T2000,3002A,119.9805,31.8174,常州市,行政中心,,25,25,24,17,11,42,,66,47,23,20,10,9,0.5,0.5
2024-06-19T2000,3003A,120.0522,31.7748,常州市,经开区,,24,24,23,15,12,42,,65,47,25,22,4,4,1.4,0.7
2024-06-19T2000,3010A,119.9025,31.7964,常州市,钟楼,,50,50,34,27,12,45,,67,51,19,18,6,5,0.8,0.8
2024-06-19T2000,3429A,119.8598,31.7066,常州市,武进经发区,,36,36,27,16,12,35,,66,45,24,16,7,8,0.6,0.5
2024-06-19T2000,3430A,119.5826,31.7245,常州市,金坛城区,,35,,19,24,9,39,,67,46,20,10,5,5,0.8,0.7
2024-06-19T2000,2220A,120.4318,41.5881,朝阳市,西梁,,,47,49,20,22,179,,199,196,11,15,11,12,,0.7
2024-06-19T2000,2221A,120.4521,41.5646,朝阳市,河畔小区,臭氧1小时,102,39,50,20,23,204,,206,206,7,11,11,11,0.6,0.7
2024-06-19T2000,2222A,120.4176,41.5648,朝阳市,八里堡,臭氧1小时,83,52,57,20,24,186,,200,198,10,18,10,11,0.7,0.9
2024-06-19T2000,2223A,120.3806,41.5969,朝阳市,农业园区,臭氧1小时,78,40,48,20,28,182,,199,196,11,17,11,12,0.6,0.8
2024-06-19T2000,1705A,116.6367,23.6719,潮州市,西园路,,18,18,21,9,9,13,,35,29,26,12,3,2,0.5,0.3
2024-06-19T2000,3026A,116.6183,23.6608,潮州市,市政府,,18,18,20,11,7,21,,45,37,20,10,4,6,1.0,0.7
2024-06-19T2000,4036A,116.6461,23.6761,潮州市,金山,,18,18,16,10,8,12,,43,32,21,12,5,7,0.7,0.6
2024-06-19T2000,2472A,113.0073,25.9061,郴州市,马头岭,,34,34,22,9,6,50,,56,55,6,5,6,7,0.5,0.5
2024-06-19T2000,2473A,113.0116,25.8226,郴州市,市职中,,27,27,15,17,11,42,,59,57,11,5,8,12,0.6,0.5
2024-06-19T2000,2474A,113.0161,25.8001,郴州市,兴隆步行街,,23,23,18,16,11,46,,61,59,10,5,10,13,0.6,0.6
2024-06-19T2000,2475A,113.0383,25.8071,郴州市,市审计局,,29,22,13,20,11,41,,58,56,14,9,15,20,0.4,0.4
2024-06-19T2000,2476A,113.0348,25.7759,郴州市,市环保局,,,,15,14,11,45,,61,59,18,11,12,21,0.4,0.4
2024-06-19T2000,1431A,103.9728,30.7236,成都市,金泉两河,,48,39,29,33,18,148,,154,154,9,11,1,1,0.5,0.4
2024-06-19T2000,1432A,104.176,30.6872,成都市,十里店,,39,39,40,20,23,105,,146,144,18,19,3,3,0.6,0.6
2024-06-19T2000,1433A,104.079,30.5706,成都市,三瓦窑,细颗粒物(PM2.5),64,49,44,46,35,134,,140,140,7,24,1,2,0.4,0.5
2024-06-19T2000,1434A,104.1114,30.63,成都市,沙河铺,,34,20,41,10,22,106,,133,133,7,17,2,3,0.5,0.5
2024-06-19T2000,1437A,104.0786,30.6531,成都市,君平街,,46,34,36,20,22,145,,152,152,15,20,1,1,0.4,0.5
2024-06-19T2000,1438A,103.613,31.0283,成都市,灵岩寺,,,,,,,,,,,,,,,,
2024-06-19T2000,2880A,104.0239,30.65639,成都市,大石西路,,46,39,36,12,18,147,,153,153,15,18,3,3,0.6,0.6
2024-06-19T2000,3136A,104.2725,30.5589,成都市,龙泉驿区区政府,,35,19,26,17,22,110,,127,126,8,11,2,2,0.5,0.5
2024-06-19T2000,3357A,104.0106,30.6931,成都市,金博路,,45,31,22,25,15,142,,144,144,8,12,3,2,0.5,0.5
2024-06-19T2000,3359A,104.0578,30.5225,成都市,华阳,,41,24,32,24,28,129,,133,133,8,14,2,2,0.5,0.5
2024-06-19T2000,3487A,104.2394,30.5319,成都市,车城东七路,,38,16,38,14,31,120,,133,132,4,10,2,2,0.4,0.5
2024-06-19T2000,3488A,104.3853,30.7453,成都市,青白江技师分院,,31,26,30,3,20,99,,136,133,3,22,4,4,0.5,0.5
2024-06-19T2000,3489A,104.0789,30.4072,成都市,科学城,,39,24,37,14,27,124,,128,128,5,14,2,2,0.6,0.5
2024-06-19T2000,4011A,103.8506,30.6947,成都市,光华大道三段,,40,24,31,9,14,127,,151,151,9,7,3,3,0.5,0.5
2024-06-19T2000,1062A,117.9531,40.9081,承德市,铁路,臭氧1小时,118,76,64,46,37,235,,208,208,16,21,8,9,0.5,0.5
2024-06-19T2000,1063A,117.9392,40.9763,承德市,中国银行,臭氧1小时,112,74,69,42,41,224,,205,205,12,18,7,7,0.4,0.5
2024-06-19T2000,1064A,117.9503,40.928,承德市,开发区,臭氧1小时,115,69,70,41,38,230,,209,209,22,22,8,9,0.6,0.6
2024-06-19T2000,1065A,117.8051,40.9655,承德市,文化中心,臭氧1小时,118,75,77,41,41,236,,216,216,9,20,10,11,0.4,0.5
2024-06-19T2000,1066A,117.9268,41.0026,承德市,离宫,臭氧1小时,106,72,58,32,40,211,,198,198,5,9,4,4,0.4,0.4
2024-06-19T2000,2314A,117.47,30.6618,池州市,池州学院,,13,12,14,7,8,40,,50,47,3,5,5,6,0.4,0.5
2024-06-19T2000,3237A,117.4918,30.6617,池州市,展览馆,,13,13,12,3,5,30,,46,40,6,7,3,3,0.4,0.5
2024-06-19T2000,3333A,117.5627,30.695,池州市,第八中学,,10,10,12,3,8,30,,48,42,7,8,2,3,0.4,0.4
2024-06-19T2000,3334A,117.5038,30.6243,池州市,第十二中学,,13,13,12,9,9,22,,47,39,20,12,5,5,0.8,0.7
2024-06-19T2000,1744A,118.9233,42.2816,赤峰市,松山一中,,46,37,44,14,26,146,,187,176,21,23,9,12,0.7,0.8
2024-06-19T2000,1745A,118.9576,42.2728,赤峰市,哈达街,,47,47,53,15,19,146,,183,172,16,21,9,13,0.5,0.7
2024-06-19T2000,1746A,118.8788,42.2554,赤峰市,天义路,,47,47,47,16,23,150,,196,182,19,19,5,8,0.4,0.6
2024-06-19T2000,3058A,119.2658,42.0353,赤峰市,银河街,臭氧1小时,72,56,73,28,37,177,,192,189,16,17,12,17,0.4,0.5
2024-06-19T2000,3286A,118.9359,42.3147,赤峰市,桥北物流园区,,44,44,53,23,33,135,,186,171,20,20,6,9,0.8,1
2024-06-19T2000,2521A,107.3476,22.4136,崇左市,市环保局江州分局,,29,29,29,12,15,46,,76,71,9,7,5,5,0.6,0.6
2024-06-19T2000,2522A,107.3702,22.3707,崇左市,城南新区,,25,25,24,11,14,52,,69,66,7,6,3,3,0.6,0.6
2024-06-19T2000,2298A,118.3093,32.3153,滁州市,老年大学,,36,34,32,25,18,91,,127,116,33,15,10,8,0.8,0.5
2024-06-19T2000,2299A,118.3244,32.2786,滁州市,人大宾馆,,46,,24,32,24,83,,121,111,32,20,8,6,1.2,0.6
2024-06-19T2000,3207A,118.3118,32.3038,滁州市,市政府原办公楼,,35,32,28,24,22,97,,126,117,28,15,9,7,0.9,0.6
2024-06-19T2000,3331A,118.3267,32.2634,滁州市,图书馆,,43,36,31,30,22,76,,116,105,29,15,10,8,1.5,0.5
2024-06-19T2000,2605A,101.5482,25.0441,楚雄彝族自治州,州环境监测站,,29,16,18,9,13,90,,96,94,4,4,2,4,0.5,0.5
2024-06-19T2000,2606A,101.538,25.0492,楚雄彝族自治州,市经济开发区,,27,27,19,13,13,84,,92,90,6,6,4,4,0.6,0.5
2024-06-19T2000,2548A,107.5277,31.2827,达州市,达州职业技术学院,,14,,24,3,8,28,,47,47,28,24,3,3,0.2,0.2
2024-06-19T2000,2549A,107.5086,31.2186,达州市,市环境监测站,,19,14,23,3,6,58,,62,62,18,26,5,6,0.5,0.6
2024-06-19T2000,2550A,107.4988,31.2132,达州市,凤凰小区,,20,14,20,3,11,64,,70,70,14,22,6,6,0.4,0.5
2024-06-19T2000,2551A,107.5082,31.1986,达州市,达县机关宾馆,,20,14,22,8,13,61,,64,64,19,32,4,5,0.2,0.4
2024-06-19T2000,2552A,107.4644,31.2124,达州市,市政中心,,20,19,28,3,9,63,,68,68,15,23,5,6,0.5,0.5
2024-06-19T2000,2614A,100.1542,25.7054,大理白族自治州,大理市环境监测站,,27,21,31,13,16,84,,87,86,12,8,4,4,0.6,0.6
2024-06-19T2000,2615A,100.2171,25.5811,大理白族自治州,大理古城,,38,,21,26,13,82,,99,94,10,8,8,6,0.9,0.8
2024-06-19T2000,1109A,121.612,38.9741,大连市,甘井子,,35,32,29,13,13,109,,118,112,24,22,7,8,0.6,0.6
2024-06-19T2000,1110A,121.565,38.9511,大连市,周水子,,35,35,35,14,14,94,,110,108,26,21,4,9,0.5,0.5
2024-06-19T2000,1111A,121.5637,38.8845,大连市,星海三站,,35,26,32,12,15,111,,125,122,14,14,6,8,0.5,0.5
2024-06-19T2000,1112A,121.6302,38.9117,大连市,青泥洼桥,,35,25,23,10,12,112,,118,115,14,13,9,10,0.4,0.4
2024-06-19T2000,1113A,121.6251,38.8638,大连市,傅家庄,,38,32,30,11,14,120,,126,122,12,12,9,10,0.4,0.5
2024-06-19T2000,1114A,121.5213,38.8661,大连市,七贤岭,,45,45,32,22,20,94,,115,109,24,17,5,7,0.4,0.5
2024-06-19T2000,1115A,121.2529,38.8061,大连市,旅顺,,43,17,21,8,12,137,,139,139,14,18,8,9,0.4,0.4
2024-06-19T2000,1116A,121.7485,39.1311,大连市,金州,,43,23,26,12,12,137,,145,145,13,12,8,10,0.5,0.5
2024-06-19T2000,1117A,121.7811,39.0496,大连市,开发区,,33,33,34,15,16,103,,128,119,33,22,7,7,0.5,0.4
2024-06-19T2000,1118A,121.9762,39.0631,大连市,双D港,,,18,23,11,13,97,,118,118,,19,7,8,0.4,0.5
2024-06-19T2000,1789A,124.81117,46.03138,大庆市,大同区,细颗粒物(PM2.5),72,70,57,52,31,114,,157,146,19,20,7,6,0.6,0.4
2024-06-19T2000,1790A,125.129,46.533,大庆市,龙凤区,细颗粒物(PM2.5),53,52,45,37,22,145,,167,167,20,21,10,9,0.6,0.5
2024-06-19T2000,1791A,124.902,46.408,大庆市,红岗区,细颗粒物(PM2.5),53,49,37,37,22,129,,181,172,17,17,6,6,0.5,0.5
2024-06-19T2000,1792A,125.153,46.586,大庆市,萨尔图区,细颗粒物(PM2.5),52,46,42,36,23,133,,153,153,22,20,9,9,0.5,0.4
2024-06-19T2000,1793A,124.9042,46.6215,大庆市,让胡路区,颗粒物(PM10),52,53,42,6,16,98,,152,143,21,19,6,9,0.2,0.2
2024-06-19T2000,3481A,125.141,46.634,大庆市,萨区政府监测点,颗粒物(PM10),66,81,49,23,14,132,,159,158,20,21,7,8,0.4,0.3
2024-06-19T2000,1721A,113.3819,40.1097,大同市,果树场,,,,,,,,,,,,,,,,
2024-06-19T2000,1723A,113.2994,40.0758,大同市,云冈宾馆,,48,37,45,10,20,153,,191,181,16,24,6,9,0.5,0.8
2024-06-19T2000,1724A,113.3444,40.0917,大同市,大同大学,,45,37,33,12,19,143,,182,171,14,23,8,13,0.4,0.6
2024-06-19T2000,1725A,113.2661,40.1269,大同市,安家小村,颗粒物(PM10),60,69,48,3,18,152,,181,173,13,20,10,14,0.4,0.6
2024-06-19T2000,1726A,113.2711,40.0844,大同市,教育学院,颗粒物(PM10),53,55,53,15,22,149,,192,180,23,28,7,12,0.5,0.7
2024-06-19T2000,3282A,113.3397,40.0597,大同市,大同市卫生学校,臭氧1小时,55,46,44,16,22,164,,198,188,13,21,8,12,0.6,0.7
2024-06-19T2000,3565A,113.1367,40.1122,大同市,云冈站,,,33,46,,25,140,,173,169,7,20,7,12,0.4,0.5
2024-06-19T2000,3566A,113.1186,40.2556,大同市,图书馆,臭氧1小时,57,40,37,16,19,165,,175,170,15,17,8,10,0.5,0.6
2024-06-19T2000,3567A,113.5931,40.0461,大同市,区一中,臭氧1小时,83,85,39,18,13,186,,216,212,14,15,3,6,0.6,0.5
2024-06-19T2000,3676A,113.2802,40.0995,大同市,第二人民医院,颗粒物(PM10),51,51,36,15,23,157,,191,181,14,24,7,11,0.5,0.8
2024-06-19T2000,2269A,124.1069,50.4097,大兴安岭地区,科技局,,22,22,16,15,9,58,,74,73,5,4,7,7,0.3,0.3
2024-06-19T2000,3663A,124.1164,50.4278,大兴安岭地区,红旗社区,,19,7,5,3,4,59,,76,76,3,5,5,6,0.3,0.4
2024-06-19T2000,1600A,124.3303,40.0625,丹东市,江湾东路,,24,24,33,8,18,71,,141,123,42,15,7,10,0.5,0.5
2024-06-19T2000,1601A,124.4256,40.1503,丹东市,临江后街,,33,21,24,10,14,104,,144,129,16,9,11,10,0.7,0.7
2024-06-19T2000,1602A,124.3933,40.1461,丹东市,元宝山,,32,29,29,9,15,101,,124,116,18,13,8,9,0.8,0.8
2024-06-19T2000,1603A,124.3633,40.1092,丹东市,民主桥,,30,24,32,9,15,96,,139,123,17,15,5,7,0.4,0.5
2024-06-19T2000,3541A,109.5726,19.5167,儋州市,第一中学子站,,21,20,20,9,10,66,,66,66,3,4,5,6,0.4,0.4
2024-06-19T2000,3542A,109.5567,19.5187,儋州市,东坡学校子站,,22,22,21,12,11,67,,66,66,4,4,5,6,0.5,0.5
2024-06-19T2000,2616A,98.5842,24.428,德宏傣族景颇族自治州,德宏州监测站,,28,28,40,14,19,84,,80,80,9,11,2,4,0.8,0.9
2024-06-19T2000,3677A,98.5881,24.4368,德宏傣族景颇族自治州,芒市人民政府综合楼,,29,29,40,17,21,72,,74,74,8,9,5,8,0.6,0.7
2024-06-19T2000,1901A,104.4239,31.1208,德阳市,东山公园,,32,23,35,13,25,100,,123,121,4,12,2,2,0.5,0.5
2024-06-19T2000,1902A,104.3826,31.1317,德阳市,西小区,,35,26,37,19,27,112,,137,136,11,19,2,3,0.5,0.6
2024-06-19T2000,1904A,104.3553,31.1091,德阳市,耐火材料厂,,38,23,34,19,26,120,,146,145,10,18,3,3,0.6,0.6
2024-06-19T2000,3639A,104.4019,31.1244,德阳市,市教育局,,33,27,37,15,25,104,,134,131,6,16,2,2,0.5,0.6
2024-06-19T2000,1622A,116.3032,37.4674,德州市,儿童乐园,臭氧1小时,115,51,57,19,23,229,,242,241,15,11,8,18,0.6,0.6
2024-06-19T2000,1624A,116.2991,37.4451,德州市,监理站,臭氧1小时,116,51,58,19,20,231,,247,246,20,16,11,21,0.6,0.7
2024-06-19T2000,3066A,116.2721,37.4379,德州市,九衢泉纯净水厂,臭氧1小时,111,68,59,31,25,221,,242,241,19,18,8,14,0.6,0.7
2024-06-19T2000,3371A,116.3728,37.4403,德州市,开发区人民医院,臭氧1小时,105,61,60,24,21,209,,246,242,29,10,9,13,0.5,0.5
2024-06-19T2000,3372A,116.3572,37.4094,德州市,太阳城中学,臭氧1小时,109,58,61,22,22,218,,249,246,26,16,8,12,0.6,0.7
2024-06-19T2000,3511A,116.5652,37.3319,德州市,陵城艺术中心,臭氧1小时,114,46,54,14,17,228,,242,242,23,17,7,8,0.5,0.5
2024-06-19T2000,2621A,99.7056,27.8317,迪庆藏族自治州,迪庆州站,,30,16,16,7,8,94,,99,96,10,9,8,8,0.4,0.4
2024-06-19T2000,3180A,99.7136,27.8094,迪庆藏族自治州,质量技术监督局,,27,17,15,6,7,86,,92,90,12,9,8,8,0.3,0.3
2024-06-19T2000,2663A,104.6241,35.5734,定西市,东关小学,,48,45,44,33,19,106,,123,122,9,12,6,6,0.3,0.2
2024-06-19T2000,2664A,104.6194,35.5934,定西市,供电公司,,46,46,41,29,24,104,,123,121,15,17,3,5,0.2,0.2
2024-06-19T2000,1389A,113.7547,23.0494,东莞市,莞城梨川,,29,29,21,14,9,41,,51,,17,10,7,8,0.6,0.6
2024-06-19T2000,1390A,113.7944,23.0128,东莞市,东城石井,,23,23,21,10,8,45,,74,68,16,11,3,3,0.5,0.5
2024-06-19T2000,1391A,113.7383,22.9658,东莞市,南城西平,,24,24,21,9,7,50,,71,66,6,3,4,4,0.5,0.5
2024-06-19T2000,3319A,113.7338,23.0381,东莞市,万江金泰,,26,26,21,11,8,45,,69,64,10,6,4,4,0.6,0.6
2024-06-19T2000,3626A,113.7533,23.0202,东莞市,南城元岭,,29,29,20,12,8,40,,67,61,13,5,6,6,0.6,0.6
2024-06-19T2000,3627A,113.7875,23.0457,东莞市,东城主山,,25,25,22,12,9,42,,71,65,21,7,8,8,0.6,0.6
2024-06-19T2000,1666A,118.6614,37.4309,东营市,市环保局,,33,22,41,7,11,104,,188,175,8,18,8,11,0.1,0.2
2024-06-19T2000,3036A,118.6904,37.4338,东营市,开发区管委会,颗粒物(PM10),68,85,46,3,12,102,,185,172,10,14,7,8,0.3,0.4
2024-06-19T2000,3365A,118.5719,37.565,东营市,垦利区民丰路,,39,39,46,9,11,121,,193,184,14,21,12,13,0.5,0.6
2024-06-19T2000,3498A,118.5055,37.8612,东营市,河口城区,,44,39,49,3,13,139,,200,190,7,13,6,9,0.4,0.6
2024-06-19T2000,3646A,118.4978,37.4623,东营市,胜利站,,37,13,43,7,10,117,,181,173,14,21,8,10,0.5,0.4
2024-06-19T2000,3734A,118.35,37.26,东营市,理想之城,,41,41,42,9,11,95,,180,169,12,18,6,9,0.4,0.4
2024-06-19T2000,1591A,110.0023,39.8129,鄂尔多斯市,综合楼,,46,31,68,14,21,146,,163,162,30,28,8,15,0.6,0.7
2024-06-19T2000,1592A,109.9486,39.8261,鄂尔多斯市,巴音孟克林场办事处,,46,44,61,14,20,146,,149,149,15,22,6,12,0.7,0.7
2024-06-19T2000,1593A,109.7736,39.5986,鄂尔多斯市,康泽苑,,47,41,57,19,28,150,,159,157,19,25,12,13,0.5,0.5
2024-06-19T2000,1594A,109.8119,39.5989,鄂尔多斯市,华泰汽车城,,41,34,62,19,25,131,,140,138,19,31,10,10,0.6,0.6
2024-06-19T2000,1595A,109.9734,39.7884,鄂尔多斯市,奥林花园,,45,24,59,14,23,141,,150,150,19,30,5,10,0.6,0.7
2024-06-19T2000,2436A,114.8938,30.3994,鄂州市,市政府,,20,20,28,3,7,54,,66,66,16,8,1,3,0.7,0.6
2024-06-19T2000,2437A,114.8989,30.3714,鄂州市,赵家坝,,,20,24,7,8,60,,66,66,,11,,6,1.2,0.7
2024-06-19T2000,3654A,114.8094,30.4089,鄂州市,精准医疗中心,,19,13,17,3,5,58,,75,75,8,12,3,8,0.4,0.6
2024-06-19T2000,2454A,109.4978,30.2981,恩施土家族苗族自治州,湖北民院,,29,29,30,20,15,61,,85,85,17,15,5,8,0.7,0.8
2024-06-19T2000,2455A,109.4707,30.2798,恩施土家族苗族自治州,州电力总公司,,25,25,27,16,16,65,,88,88,21,22,7,7,0.7,0.7
2024-06-19T2000,3549A,109.5061,30.3772,恩施土家族苗族自治州,龙凤新区,,29,26,26,20,14,51,,74,72,15,16,6,6,0.8,0.8
2024-06-19T2000,2499A,108.3411,21.6158,防城港市,沙万,,37,37,32,14,11,55,,69,68,25,14,8,7,0.7,0.7
2024-06-19T2000,2500A,108.3514,21.7731,防城港市,防城档案局,,24,24,25,13,11,65,,75,74,7,7,4,5,0.7,0.7
2024-06-19T2000,2501A,108.3506,21.6414,防城港市,大海花园,,27,27,30,10,8,67,,77,76,11,10,6,6,0.6,0.6
2024-06-19T2000,1371A,113.1294,23.0067,佛山市,湾梁,,38,29,27,26,16,59,,90,87,13,11,8,8,0.6,0.7
2024-06-19T2000,1372A,113.1083,23.0478,佛山市,华材职中,,29,29,20,16,12,60,,92,89,11,10,6,6,0.5,0.4
2024-06-19T2000,1373A,113.144,23.0453,佛山市,南海气象局,,37,37,28,17,13,56,,90,86,14,12,6,6,0.4,0.4
2024-06-19T2000,1374A,113.2881,22.8094,佛山市,顺德苏岗,,22,22,16,12,10,53,,79,76,7,6,5,5,0.6,0.5
2024-06-19T2000,1376A,112.8383,22.8678,佛山市,高明孔堂,,,,20,,10,55,,70,69,10,5,6,6,0.4,0.6
2024-06-19T2000,1377A,112.8836,23.1588,佛山市,三水监测站,,27,27,22,14,13,48,,89,86,18,16,3,3,0.7,0.7
2024-06-19T2000,1378A,112.867,23.185,佛山市,三水云东海,,20,,22,14,12,56,,99,96,19,18,3,4,0.5,0.5
2024-06-19T2000,3625A,113.2544,22.7642,佛山市,容桂街道办,,25,24,17,17,11,44,,73,70,22,15,6,6,0.4,0.4
2024-06-19T2000,1280A,119.3903,26.0543,福州市,鼓山,,,,,,,,,,,,,,,,
2024-06-19T2000,1282A,119.2681,26.0504,福州市,师大,,18,18,24,3,13,34,,82,74,21,13,4,3,0.4,0.5
2024-06-19T2000,1283A,119.2984,26.1028,福州市,五四北路,,18,18,22,6,18,46,,83,77,14,11,3,3,0.4,0.4
2024-06-19T2000,1284A,119.2648,26.0768,福州市,杨桥西路,,,20,24,3,14,41,,86,79,,11,,3,0.4,0.4
2024-06-19T2000,1285A,119.317,26.0746,福州市,紫阳,,15,15,20,3,14,36,,63,58,10,13,2,3,0.4,0.4
2024-06-19T2000,3048A,119.5799,26.0936,福州市,九龙,,16,16,14,3,4,32,,81,67,5,2,4,4,0.2,0.2
2024-06-19T2000,3526A,119.5189,25.9664,福州市,吴航,,15,8,18,3,13,45,,73,63,7,6,4,4,0.4,0.4
2024-06-19T2000,1755A,123.7977,41.8491,抚顺市,望花区,,46,36,49,15,22,145,,174,168,22,23,8,10,0.4,0.6
2024-06-19T2000,1756A,123.9161,41.8822,抚顺市,顺城区,,50,46,60,7,23,160,,179,175,12,33,6,12,0.2,0.6
2024-06-19T2000,1757A,124.0436,41.8611,抚顺市,东洲区,,50,50,61,14,23,148,,157,147,12,13,7,10,0.3,0.4
2024-06-19T2000,1758A,123.9247,41.8642,抚顺市,新抚区,,47,40,53,17,24,150,,165,162,10,20,4,7,0.2,0.6
2024-06-19T2000,1759A,124.0972,41.8961,抚顺市,大伙房水库,,45,31,46,10,23,143,,151,141,6,10,8,9,0.2,0.5
2024-06-19T2000,1760A,123.7086,41.8391,抚顺市,沈抚新城,,44,26,47,14,21,139,,180,173,24,25,7,10,0.5,0.6
2024-06-19T2000,2376A,116.2127,28.0814,抚州市,桐源党溪,,30,30,30,14,15,9,,36,30,4,7,5,7,0.1,0.3
2024-06-19T2000,2377A,116.3544,27.9831,抚州市,市站,,30,30,27,19,14,26,,41,39,13,11,3,6,0.5,0.6
2024-06-19T2000,2378A,116.3565,27.963,抚州市,血防站,,32,32,29,13,13,24,,37,35,16,14,2,3,0.7,0.7
2024-06-19T2000,2379A,116.3564,28.0007,抚州市,采茶剧团,,27,27,25,13,14,34,,39,38,4,12,3,4,0.6,0.7
2024-06-19T2000,2380A,116.385,27.9647,抚州市,医学分院,,37,37,30,19,12,27,,42,40,14,11,4,6,0.9,0.9
2024-06-19T2000,2207A,121.6094,41.998,阜新市,工业园区,臭氧1小时,69,61,64,11,21,175,,184,180,13,16,7,14,0.5,0.7
2024-06-19T2000,2208A,121.6697,42.0279,阜新市,长青街,,49,45,64,20,24,156,,176,167,12,17,7,13,0.6,0.7
2024-06-19T2000,2209A,121.6673,42.0705,阜新市,农业园区,,49,48,56,12,22,154,,171,163,13,21,7,12,0.4,0.6
2024-06-19T2000,2210A,121.6717,42.0224,阜新市,东苑,颗粒物(PM10),53,56,63,12,18,147,,170,161,17,20,9,14,0.5,0.7
2024-06-19T2000,2211A,121.6506,42.0498,阜新市,玉龙新城,,,79,58,19,28,165,,146,,,30,,16,0.5,0.7
2024-06-19T2000,2301A,115.8277,32.8929,阜阳市,市监测站,,38,22,38,22,21,121,,142,126,16,15,7,8,0.5,0.5
2024-06-19T2000,2303A,115.8554,32.8605,阜阳市,开发区,,35,35,35,18,19,102,,143,121,21,18,4,6,0.3,0.3
2024-06-19T2000,2875A,115.784,32.8892,阜阳市,阜阳职业技术学院,,33,33,38,12,15,102,,149,127,24,14,6,7,0.5,0.4
2024-06-19T2000,3468A,115.7901,32.8613,阜阳市,市规划展馆,细颗粒物(PM2.5),79,,44,58,24,104,,137,118,19,17,4,6,0.7,0.4
2024-06-19T2000,3469A,115.836,32.9183,阜阳市,枣园社区,,34,34,40,23,22,65,,143,103,42,18,2,6,0.6,0.5
2024-06-19T2000,2669A,102.9099,34.9841,甘南藏族自治州,州政府,,38,,24,26,17,118,,127,125,7,16,6,5,0.8,0.8
2024-06-19T2000,3380A,102.8914,34.9617,甘南藏族自治州,甘肃民族师范学院,,39,24,29,18,15,122,,130,129,8,23,3,6,0.6,0.6
2024-06-19T2000,2570A,101.9603,30.0475,甘孜藏族自治州,水桥子,,19,10,7,3,5,59,,82,81,18,11,4,4,0.3,0.3
2024-06-19T2000,3065A,101.9533,29.9972,甘孜藏族自治州,州环保局,,23,19,9,7,5,38,,82,76,45,20,2,2,0.3,0.3
2024-06-19T2000,3414A,115.8347,28.932,赣江新区,桑海产业园,,17,17,13,8,10,43,,57,48,21,22,9,10,0.3,0.5
2024-06-19T2000,2362A,114.9017,25.9149,赣州市,通天岩,,,,,,,,,,,,,,,,
2024-06-19T2000,2363A,114.9367,25.8664,赣州市,地委,,24,24,17,11,8,58,,72,71,12,7,17,9,0.8,0.9
2024-06-19T2000,2364A,114.9461,25.8481,赣州市,气象台,,29,29,17,16,10,56,,67,66,2,5,20,6,0.7,0.5
2024-06-19T2000,2365A,114.9322,25.8333,赣州市,市图书馆,,29,29,16,12,7,58,,71,70,9,5,18,7,0.9,0.8
2024-06-19T2000,2366A,114.8905,25.8471,赣州市,华坚鞋城,,32,32,26,15,8,58,,69,68,9,6,24,6,0.6,0.5
2024-06-19T2000,3109A,115.0093,25.8613,赣州市,赣县区卫计委,,19,19,19,8,9,53,,64,63,13,13,8,7,0.6,0.5
2024-06-19T2000,2683A,106.2319,36.1417,固原市,马园,,40,15,29,9,9,126,,133,132,15,22,6,6,0.6,0.6
2024-06-19T2000,2684A,106.2792,36.0022,固原市,监测站,,39,26,25,8,12,122,,130,130,12,14,5,5,0.2,0.3
2024-06-19T2000,2685A,106.2375,36.0211,固原市,新区,,39,18,26,11,10,123,,133,132,13,10,5,5,0.4,0.3
2024-06-19T2000,3522A,106.2177,35.9959,固原市,原州区十五小,,40,23,26,12,14,128,,136,134,9,10,6,5,0.5,0.5
2024-06-19T2000,2543A,106.6308,30.5278,广安市,小平旧居,,,,,,,,,,,,,,,,
2024-06-19T2000,2544A,106.6303,30.4576,广安市,市委,,20,20,29,12,18,63,,70,70,13,16,8,8,0.6,0.6
2024-06-19T2000,2545A,106.6271,30.4663,广安市,友谊中学,,23,,21,16,16,72,,79,79,15,16,7,7,0.6,0.7
2024-06-19T2000,2547A,106.6388,30.4551,广安市,广电花园,,25,,28,17,17,59,,69,69,12,14,10,10,0.6,0.6
2024-06-19T2000,2902A,106.6351,30.4865,广安市,北辰小学,,22,17,26,10,16,68,,74,74,11,13,10,11,0.5,0.6
2024-06-19T2000,2523A,105.8945,32.4535,广元市,黑石坡,,19,10,14,3,7,60,,73,73,6,7,15,15,0.4,0.4
2024-06-19T2000,2524A,105.821,32.4444,广元市,老城,,25,18,24,17,9,67,,85,84,19,21,5,6,0.4,0.5
2024-06-19T2000,2526A,105.8628,32.4287,广元市,监测站,,30,,20,21,12,82,,87,87,4,10,5,7,0.5,0.6
2024-06-19T2000,3617A,105.8047,32.4166,广元市,经开区,,27,15,26,9,14,85,,85,85,5,15,4,5,0.6,0.7
2024-06-19T2000,1345A,113.2347,23.1423,广州市,广雅中学,,33,33,28,15,12,56,,95,90,21,23,4,4,0.6,0.5
2024-06-19T2000,1346A,113.2612,23.105,广州市,市五中,,42,42,31,25,18,61,,105,99,17,18,4,4,0.6,0.6
2024-06-19T2000,1348A,113.3478,23.0916,广州市,广东商学院,,32,32,29,21,16,43,,89,78,24,28,3,3,0.4,0.5
2024-06-19T2000,1349A,113.4332,23.1047,广州市,市八十六中,,26,26,25,10,10,33,,68,63,31,36,3,3,0.6,0.6
2024-06-19T2000,1350A,113.3505,22.9483,广州市,番禺中学,,30,30,28,15,11,44,,97,86,19,20,6,6,0.6,0.6
2024-06-19T2000,1351A,113.2146,23.3916,广州市,花都师范,,30,30,32,12,16,54,,115,111,21,21,5,5,0.6,0.5
2024-06-19T2000,1352A,113.2597,23.1331,广州市,市监测站,,34,34,29,15,14,48,,95,89,20,21,4,4,0.5,0.5
2024-06-19T2000,1353A,113.5618,23.312,广州市,九龙镇镇龙,,37,37,32,16,16,38,,87,83,27,25,7,6,0.3,0.4
2024-06-19T2000,1354A,113.2765,23.1544,广州市,麓湖,,36,36,28,21,14,48,,98,89,22,20,2,2,0.5,0.4
2024-06-19T2000,1355A,113.443,23.3035,广州市,帽峰山森林公园,,23,23,22,12,10,50,,102,98,24,18,2,2,0.5,0.6
2024-06-19T2000,2846A,113.3221,23.1322,广州市,体育西,,29,29,28,20,15,40,,92,82,22,22,4,4,0.5,0.5
2024-06-19T2000,3298A,113.5717,23.5491,广州市,从化街口,,32,32,24,18,11,57,,105,103,16,14,7,7,0.5,0.6
2024-06-19T2000,3299A,113.3472,23.3692,广州市,白云竹料,,37,37,32,15,14,48,,104,101,34,23,4,4,0.7,0.6
2024-06-19T2000,3300A,113.2981,23.237,广州市,白云嘉禾,,32,32,30,13,11,39,,95,87,31,30,5,5,0.7,0.7
2024-06-19T2000,3301A,113.4256,23.1716,广州市,黄埔科学城,,31,31,30,11,11,33,,78,71,27,29,7,7,0.6,0.6
2024-06-19T2000,3302A,113.3942,23.0483,广州市,番禺大学城,,21,21,21,11,10,36,,77,68,23,21,4,4,0.9,0.8
2024-06-19T2000,3303A,113.4922,22.8168,广州市,南沙黄阁,,30,30,26,11,11,46,,71,67,10,10,5,5,0.6,0.6
2024-06-19T2000,3304A,113.5342,22.7896,广州市,南沙街,,30,30,25,12,9,41,,54,54,11,11,7,6,0.4,0.5
2024-06-19T2000,3443A,113.2902,23.5544,广州市,花都梯面,,29,29,30,14,13,68,,117,117,20,16,4,4,0.6,0.6
2024-06-19T2000,3445A,113.7858,23.7478,广州市,从化良口,,19,16,20,6,8,59,,86,85,11,10,5,4,0.5,0.6
2024-06-19T2000,3446A,113.8051,23.2614,广州市,增城荔城,,31,31,31,13,13,38,,82,74,21,19,5,5,0.5,0.5
2024-06-19T2000,2505A,109.568,23.1478,贵港市,德智高中,,,,,,,,,,,,,,,,
2024-06-19T2000,2506A,109.6047,23.0666,贵港市,江南子站,颗粒物(PM10),58,66,45,24,24,28,,60,53,32,17,8,9,0.8,0.7
2024-06-19T2000,2507A,109.6014,23.0948,贵港市,贵城子站,,46,46,40,23,26,29,,61,54,21,18,8,9,0.6,0.7
2024-06-19T2000,2508A,109.5669,23.1065,贵港市,荷城子站,,36,36,34,14,14,36,,58,52,20,16,10,12,0.6,0.6
2024-06-19T2000,3405A,109.5886,23.1172,贵港市,新世纪学校,,27,27,32,17,17,45,,63,58,15,13,12,13,0.7,0.8
2024-06-19T2000,1439A,106.6899,26.5998,贵阳市,马鞍山,,24,24,12,12,3,26,,50,48,14,14,4,4,0.5,0.5
2024-06-19T2000,1440A,106.6971,26.5694,贵阳市,市环保站,,38,29,15,26,13,20,,55,51,49,18,4,3,0.8,0.4
2024-06-19T2000,1441A,106.6243,26.6266,贵阳市,鉴湖路,,27,27,12,17,6,37,,52,51,17,8,4,3,0.6,0.5
2024-06-19T2000,1442A,106.7487,26.6343,贵阳市,燕子冲,,13,9,10,9,6,29,,48,47,7,9,6,5,0.6,0.7
2024-06-19T2000,1443A,106.6555,26.4365,贵阳市,碧云窝,,29,29,19,7,4,53,,61,61,7,11,4,4,0.4,0.5
2024-06-19T2000,1444A,106.694,26.5161,贵阳市,中院村,,24,24,14,9,5,47,,57,57,11,12,5,5,0.5,0.5
2024-06-19T2000,1445A,106.7109,26.6027,贵阳市,红边门,,42,29,16,29,17,21,,51,49,30,17,4,4,0.9,0.7
2024-06-19T2000,1446A,106.7164,26.5699,贵阳市,新华路,,34,34,12,17,12,32,,60,58,25,11,4,4,0.6,0.5
2024-06-19T2000,1447A,106.674,26.5424,贵阳市,太慈桥,,18,14,9,12,7,14,,50,45,11,10,5,4,0.6,0.5
2024-06-19T2000,1552A,106.805,26.3003,贵阳市,桐木岭,,,,,,,,,,,,,,,,
2024-06-19T2000,1862A,110.4144,25.3167,桂林市,电子科大尧山校区,,26,26,19,14,9,34,,42,40,6,4,4,6,0.4,0.4
2024-06-19T2000,1863A,110.2819,25.2697,桂林市,监测站,,,,17,,10,,,40,,,11,,4,,0.9
2024-06-19T2000,1864A,110.3089,25.2708,桂林市,龙隐路小学,,21,21,15,11,11,22,,38,36,6,10,5,4,0.8,0.7
2024-06-19T2000,1865A,110.2869,25.2178,桂林市,八中,,,26,16,3,5,21,,38,36,22,12,4,4,,0.6
2024-06-19T2000,3403A,110.1764,25.2381,桂林市,创业大厦,,18,17,10,12,8,41,,50,50,8,7,6,6,0.6,0.5
2024-06-19T2000,3531A,110.296,25.1253,桂林市,旅游学院,,,12,7,9,6,33,,42,40,16,7,6,6,,0.6
2024-06-19T2000,2674A,100.2561,34.4714,果洛藏族自治州,玛沁县大武镇,,37,24,20,19,12,116,,128,127,13,13,6,7,0.4,0.4
2024-06-19T2000,1129A,126.5422,45.755,哈尔滨市,岭北,颗粒物(PM10),73,96,48,47,20,142,,202,196,34,30,11,13,0.9,0.5
2024-06-19T2000,1130A,126.561,45.8167,哈尔滨市,松北商大,颗粒物(PM10),65,80,51,46,18,83,,162,151,86,39,6,7,1.0,0.6
2024-06-19T2000,1131A,126.979,45.5419,哈尔滨市,阿城会宁,颗粒物(PM10),65,80,51,34,19,125,,202,194,51,31,10,9,0.7,0.6
2024-06-19T2000,1132A,126.599,45.7222,哈尔滨市,南岗学府路,颗粒物(PM10),87,124,68,50,20,108,,211,200,64,41,10,12,1.1,0.5
2024-06-19T2000,1133A,126.689,45.7733,哈尔滨市,太平宏伟公园,颗粒物(PM10),86,121,68,52,22,144,,212,207,50,42,7,9,1.0,0.6
2024-06-19T2000,1134A,126.635,45.7667,哈尔滨市,道外承德广场,细颗粒物(PM2.5),109,112,60,82,24,130,,204,197,65,41,8,8,0.8,0.6
2024-06-19T2000,1135A,126.685,45.7319,哈尔滨市,香坊红旗大街,颗粒物(PM10),93,136,70,63,26,129,,205,199,59,44,8,11,1.0,0.6
2024-06-19T2000,1136A,126.6411,45.7258,哈尔滨市,动力和平路,颗粒物(PM10),85,119,63,59,24,124,,208,201,67,41,10,10,0.8,0.6
2024-06-19T2000,1137A,126.593,45.7478,哈尔滨市,道里建国路,细颗粒物(PM2.5),87,111,56,64,24,125,,196,190,70,44,14,14,1.6,1.8
2024-06-19T2000,1138A,126.615,45.61,哈尔滨市,平房东轻厂,颗粒物(PM10),65,79,43,29,15,153,,206,202,37,27,9,10,0.6,0.5
2024-06-19T2000,1139A,126.595,45.9855,哈尔滨市,呼兰师专,,,106,61,62,26,124,,171,166,,38,7,8,1.0,0.5
2024-06-19T2000,1140A,126.6206,45.6842,哈尔滨市,省农科院,颗粒物(PM10),88,125,84,52,32,117,,200,189,79,52,6,8,0.8,0.5
2024-06-19T2000,2688A,93.5128,42.8172,哈密市,地区监测站,,,,40,,12,124,,132,132,2,8,3,4,0.3,0.3
2024-06-19T2000,2689A,93.4961,42.8328,哈密市,哈密师范学校,颗粒物(PM10),66,82,33,15,10,136,,143,143,6,8,4,5,0.2,0.3
2024-06-19T2000,2671A,100.9048,36.9639,海北藏族自治州,海晏县西海镇,臭氧1小时,57,57,33,28,19,165,,145,145,10,10,26,14,0.6,0.4
2024-06-19T2000,3867A,102.0738,36.5056,海东市,平安区公安北苑,颗粒物(PM10),58,65,49,26,24,139,,148,148,8,11,9,11,0.3,0.5
2024-06-19T2000,1409A,110.576,19.9507,海口市,东寨港,,,,,,,,,,,,,,,,
2024-06-19T2000,1410A,110.3232,20.0574,海口市,海南大学,,25,24,24,17,13,66,,80,77,6,7,6,5,0.4,0.4
2024-06-19T2000,1411A,110.283,20.0053,海口市,秀英海南医院,,32,,29,22,13,58,,72,71,10,7,6,6,0.3,0.3
2024-06-19T2000,1412A,110.338,19.9969,海口市,海南师范大学,,26,,25,18,12,63,,75,73,6,6,6,6,0.4,0.4
2024-06-19T2000,1413A,110.33,20.0356,海口市,龙华路环保局宿舍,,37,37,28,24,14,55,,72,69,13,7,7,6,0.3,0.3
2024-06-19T2000,3539A,110.5111,19.9736,海口市,桂林洋子站,,25,22,23,17,12,64,,69,68,4,3,6,6,0.3,0.3
2024-06-19T2000,2673A,100.6188,36.2866,海南藏族自治州,共和县恰卜恰镇,,40,31,24,10,13,125,,132,132,10,13,13,14,0.5,0.5
2024-06-19T2000,2676A,97.3731,37.3753,海西蒙古族藏族自治州,德令哈市,,47,47,33,20,14,132,,133,133,8,7,12,12,0.5,0.5
2024-06-19T2000,1048A,114.5302,36.6116,邯郸市,东污水处理厂,臭氧1小时,105,55,55,24,28,209,,209,209,16,11,2,2,0.4,0.4
2024-06-19T2000,1049A,114.4918,36.5713,邯郸市,矿院,臭氧1小时,104,51,37,27,22,207,,215,215,15,12,6,5,0.5,0.5
2024-06-19T2000,1050A,114.484,36.6133,邯郸市,丛台公园,臭氧1小时,92,59,43,21,23,193,,191,191,8,5,3,4,0.4,0.3
2024-06-19T2000,3458A,114.7895,36.5593,邯郸市,香泉濮院小区,臭氧1小时,105,52,56,23,22,209,,225,225,12,11,3,3,0.3,0.3
2024-06-19T2000,3579A,114.50634,36.77178,邯郸市,永年区实验高中,臭氧1小时,108,62,59,26,30,216,,212,212,8,6,3,3,0.5,0.5
2024-06-19T2000,3580A,114.20016,36.44293,邯郸市,峰峰矿区临水派出所,臭氧1小时,103,42,56,12,20,205,,208,208,8,7,4,6,,0.4
2024-06-19T2000,2634A,106.9893,33.1842,汉中市,汉川机床厂子校,,32,23,25,22,30,97,,106,106,7,11,3,4,0.4,0.4
2024-06-19T2000,2635A,107.0154,33.0706,汉中市,市监测站,,,37,34,16,16,98,,108,108,6,12,6,7,,0.9
2024-06-19T2000,2636A,107.0089,33.1138,汉中市,鑫源开发区,,34,24,32,15,14,107,,110,110,7,14,8,8,0.5,0.5
2024-06-19T2000,2637A,107.007,33.0323,汉中市,南郑大河坎水厂,,31,26,32,16,18,99,,114,114,5,10,8,8,0.7,0.7
2024-06-19T2000,1223A,120.2072,30.2111,杭州市,滨江,,21,21,14,13,8,21,,45,26,23,17,4,4,0.7,0.6
2024-06-19T2000,1224A,120.0633,30.2747,杭州市,西溪,,14,14,14,9,7,13,,26,12,22,16,6,6,0.6,0.6
2024-06-19T2000,1226A,120.3461,30.3153,杭州市,下沙,,27,27,22,13,9,4,,42,18,48,28,5,5,0.6,0.5
2024-06-19T2000,1227A,120.1269,30.2456,杭州市,卧龙桥,,16,15,15,11,9,19,,31,17,19,15,4,4,0.6,0.6
2024-06-19T2000,1228A,120.1903,30.2692,杭州市,浙江农大,,19,16,11,13,8,18,,44,27,24,19,6,7,0.6,0.5
2024-06-19T2000,1230A,120.1197,30.3119,杭州市,和睦小学,,15,15,12,8,9,25,,44,27,21,17,4,4,0.6,0.6
2024-06-19T2000,1231A,120.3019,30.4183,杭州市,临平镇,,24,24,23,16,13,5,,42,19,45,27,4,5,0.6,0.6
2024-06-19T2000,1232A,120.2697,30.1819,杭州市,城厢镇,,20,20,16,13,10,14,,40,23,28,18,5,5,0.7,0.6
2024-06-19T2000,1233A,120.0883,30.1808,杭州市,云栖,,20,20,15,9,8,7,,22,9,27,21,6,6,0.6,0.6
2024-06-19T2000,3557A,119.9464,30.0494,杭州市,镇二中,,19,19,12,12,8,6,,34,15,34,22,6,6,0.9,0.7
2024-06-19T2000,3558A,119.7183,30.2367,杭州市,市府大楼,,16,14,11,11,11,10,,34,19,26,18,6,6,0.8,0.7
2024-06-19T2000,3656A,120.1556,30.2864,杭州市,消防大队,,26,25,14,18,10,22,,42,25,23,18,6,6,0.9,0.7
2024-06-19T2000,1270A,117.1959,31.7848,合肥市,明珠广场,,30,17,28,14,17,29,,107,49,60,26,6,7,0.6,0.3
2024-06-19T2000,1271A,117.3072,31.8764,合肥市,三里街,,19,14,29,7,16,58,,101,65,24,25,5,7,0.5,0.4
2024-06-19T2000,1272A,117.2588,31.8707,合肥市,琥珀山庄,,19,19,27,9,12,58,,112,74,23,18,4,5,0.9,0.7
2024-06-19T2000,1273A,117.1604,31.9052,合肥市,董铺水库,,20,9,26,9,13,63,,109,74,18,15,3,2,0.5,0.4
2024-06-19T2000,1274A,117.25,31.8571,合肥市,长江中路,,22,,32,15,18,66,,116,74,22,20,4,6,0.9,0.6
2024-06-19T2000,1275A,117.266,31.9436,合肥市,庐阳区,,21,17,32,12,19,66,,115,79,26,24,8,9,0.4,0.4
2024-06-19T2000,1276A,117.336,31.8586,合肥市,瑶海区,,,,28,,15,60,,102,73,,22,8,9,0.5,0.4
2024-06-19T2000,1277A,117.3027,31.7964,合肥市,包河区,,25,9,25,7,12,35,,116,47,50,29,5,6,0.7,0.5
2024-06-19T2000,1278A,117.2776,31.7385,合肥市,滨湖新区,,21,12,20,9,16,66,,113,73,18,13,7,7,0.6,0.5
2024-06-19T2000,1279A,117.1318,31.8403,合肥市,高新区,,18,12,24,11,14,57,,111,68,23,18,7,8,0.7,0.6
2024-06-19T2000,3464A,117.3803,31.9147,合肥市,高教基地,,16,11,25,9,16,50,,99,62,11,14,5,7,0.5,0.4
2024-06-19T2000,3614A,79.924,37.0877,和田地区,地区环保局,颗粒物(PM10),79,108,180,22,43,128,,126,126,2,3,6,6,0.5,0.5
2024-06-19T2000,3615A,79.9131,37.113,和田地区,市环保局,颗粒物(PM10),68,86,172,15,53,124,,126,126,9,7,5,6,0.4,0.4
2024-06-19T2000,2516A,108.2011,24.715,河池市,东仁乐园,,31,31,33,3,13,53,,61,60,3,7,3,4,0.7,0.7
2024-06-19T2000,2517A,108.0497,24.6947,河池市,市环保站,,19,17,22,13,12,60,,61,61,6,10,6,8,0.5,0.6
2024-06-19T2000,2518A,108.0983,24.6989,河池市,市疾控中心,,21,15,22,13,12,67,,67,67,10,13,7,8,0.5,0.5
2024-06-19T2000,1696A,114.6778,23.7569,河源市,源西,,23,,28,16,17,36,,63,60,15,13,4,4,0.5,0.5
2024-06-19T2000,1697A,114.6944,23.7586,河源市,东埔,,24,24,25,11,8,41,,64,62,13,12,6,6,0.6,0.6
2024-06-19T2000,1698A,114.6892,23.7233,河源市,老城,,17,17,20,3,6,40,,68,65,10,10,5,5,0.5,0.4
2024-06-19T2000,1718A,115.4208,35.2464,菏泽市,气象局,臭氧1小时,106,56,61,23,24,212,,227,227,17,20,6,6,0.3,0.3
2024-06-19T2000,1719A,115.4747,35.2375,菏泽市,市政协,臭氧1小时,106,53,58,29,26,212,,230,230,13,14,4,6,0.2,0.2
2024-06-19T2000,3374A,115.5564,35.0891,菏泽市,定陶老年大学,臭氧1小时,98,58,51,19,17,198,,217,216,20,19,5,6,0.1,0.1
2024-06-19T2000,3647A,115.4702,35.2706,菏泽市,菏泽医专,臭氧1小时,101,77,64,22,19,202,,230,228,22,20,2,4,0.0,0.1
2024-06-19T2000,2514A,111.5264,24.4172,贺州市,环保小区,,29,,20,20,12,65,,56,56,9,10,6,8,0.5,0.8
2024-06-19T2000,2515A,111.5608,24.4078,贺州市,政协大楼,,28,28,25,19,12,56,,54,54,15,12,5,7,0.6,0.6
2024-06-19T2000,3534A,111.4744,24.4553,贺州市,西湾,,25,25,18,7,11,49,,52,52,15,16,8,8,0.7,0.6
2024-06-19T2000,2385A,114.17,35.9019,鹤壁市,市监测站,臭氧1小时,87,38,51,22,26,189,,208,207,15,13,7,7,0.7,0.6
2024-06-19T2000,2386A,114.2956,35.7511,鹤壁市,市交警支队,臭氧1小时,103,52,54,26,30,205,,221,220,20,15,9,9,0.5,0.5
2024-06-19T2000,2387A,114.2878,35.7306,鹤壁市,迎宾馆,臭氧1小时,107,48,48,22,31,214,,223,223,25,23,8,9,0.4,0.4
2024-06-19T2000,3474A,114.2617,35.6822,鹤壁市,大新区,臭氧1小时,90,45,51,21,23,192,,212,210,24,25,6,7,0.6,0.6
2024-06-19T2000,3596A,114.1572,35.9603,鹤壁市,南山宾馆,臭氧1小时,105,37,50,28,35,210,,221,221,7,9,8,8,0.5,0.6
2024-06-19T2000,2244A,130.2537,47.3416,鹤岗市,哈啤分公司,,33,33,23,16,10,52,,51,51,16,14,14,14,0.5,0.4
2024-06-19T2000,2245A,130.2684,47.3086,鹤岗市,斯达机电,,18,15,19,10,7,56,,48,48,11,14,12,12,0.3,0.3
2024-06-19T2000,2246A,130.3114,47.3388,鹤岗市,东山纸板厂,,20,16,31,3,8,61,,46,46,8,18,16,16,0.4,0.5
2024-06-19T2000,2247A,130.1097,47.3382,鹤岗市,五号水库,,14,14,17,6,8,41,,54,54,13,8,10,9,0.5,0.4
2024-06-19T2000,2263A,127.4833,50.2524,黑河市,交通局,,32,32,25,11,17,47,,48,48,5,8,6,6,0.3,0.3
2024-06-19T2000,2264A,127.5144,50.2341,黑河市,环保局,,22,22,18,12,17,47,,53,53,8,7,4,5,0.1,0.2
2024-06-19T2000,2265A,127.5291,50.2472,黑河市,大黑河岛,,,,15,13,15,72,,82,82,14,11,4,7,,0.6
2024-06-19T2000,1074A,115.6838,37.7541,衡水市,电机北厂,臭氧1小时,117,65,66,32,23,234,,234,234,13,11,6,7,0.4,0.4
2024-06-19T2000,1075A,115.6303,37.7316,衡水市,市监测站,臭氧1小时,112,55,52,27,20,223,,234,234,19,12,4,5,0.6,0.6
2024-06-19T2000,3188A,115.6683,37.7217,衡水市,市城管局,臭氧1小时,115,64,57,17,22,230,,234,234,18,13,7,8,0.5,0.4
2024-06-19T2000,3459A,115.5989,37.5491,衡水市,地表水厂,臭氧1小时,117,78,63,23,20,234,,242,242,22,13,8,8,0.4,0.3
2024-06-19T2000,2456A,112.5003,26.9167,衡阳市,原169医院,,,11,15,10,10,37,,57,55,,11,6,5,0.7,0.7
2024-06-19T2000,2457A,112.6194,26.9258,衡阳市,衡阳化工总厂,,,18,19,,9,49,,66,66,7,7,6,7,0.5,0.5
2024-06-19T2000,2458A,112.6211,26.8956,衡阳市,珠晖区环保局,,18,18,15,10,8,57,,69,69,2,5,5,6,0.6,0.7
2024-06-19T2000,2459A,112.6197,26.8733,衡阳市,市委党校,,25,17,17,17,10,55,,68,68,6,8,7,8,0.5,0.5
2024-06-19T2000,2460A,112.6006,26.8919,衡阳市,市监测站,,18,13,16,3,8,55,,70,69,4,7,7,9,0.5,0.6
2024-06-19T2000,2461A,112.5664,26.9056,衡阳市,真空机电公司,,16,14,22,7,9,49,,62,62,4,8,7,9,0.7,0.9
2024-06-19T2000,3399A,112.6703,26.882,衡阳市,师范学院,,17,17,18,11,9,50,,64,63,9,7,9,8,0.6,0.7
2024-06-19T2000,2608A,103.3772,23.3993,红河哈尼族彝族自治州,污水处理厂,,44,44,25,21,14,72,,76,75,5,6,3,6,0.4,0.4
2024-06-19T2000,2609A,103.3861,23.35,红河哈尼族彝族自治州,监测站,,36,27,26,25,12,72,,77,77,7,8,6,11,0.5,0.5
2024-06-19T2000,3038A,103.3758,23.368,红河哈尼族彝族自治州,州图书馆,,38,38,24,13,11,72,,73,73,4,5,2,4,0.4,0.4
2024-06-19T2000,1090A,111.6507,40.7517,呼和浩特市,呼市一监,,46,41,28,14,17,145,,158,158,14,19,7,7,0.5,0.6
2024-06-19T2000,1091A,111.6572,40.8033,呼和浩特市,小召,,,,27,,16,133,,142,142,27,23,,7,,0.5
2024-06-19T2000,1094A,111.7516,40.8369,呼和浩特市,如意水处理厂,,45,38,30,18,14,144,,146,146,16,24,6,5,0.5,0.5
2024-06-19T2000,1095A,111.7276,40.8062,呼和浩特市,二十九中,,48,44,31,18,19,153,,154,154,19,26,4,3,0.4,0.5
2024-06-19T2000,1096A,111.5512,40.7866,呼和浩特市,工大金川校区,,46,46,34,25,19,144,,149,149,19,34,10,7,0.5,0.5
2024-06-19T2000,1097A,111.717,40.7612,呼和浩特市,化肥厂生活区,,45,43,40,16,17,143,,148,148,17,23,11,11,0.6,0.7
2024-06-19T2000,3698A,111.5968,40.8178,呼和浩特市,红旗小学,,46,46,27,26,20,142,,152,152,30,30,9,5,0.5,0.5
2024-06-19T2000,3699A,111.6518,40.8389,呼和浩特市,海东办,颗粒物(PM10),53,56,29,25,17,142,,152,152,21,28,9,7,0.4,0.3
2024-06-19T2000,2192A,119.7594,49.2261,呼伦贝尔市,区环保局,,29,29,33,15,16,62,,56,56,11,11,5,6,0.4,0.4
2024-06-19T2000,3061A,119.7512,49.1577,呼伦贝尔市,国华电力东,,22,14,21,11,11,69,,60,60,5,6,4,5,0.4,0.4
2024-06-19T2000,1250A,120.0751,30.8669,湖州市,城西水厂,,15,10,30,3,16,22,,42,36,29,24,3,4,0.5,0.5
2024-06-19T2000,2873A,120.0875,30.8955,湖州市,仁皇山新区,,15,10,27,8,19,20,,40,33,29,27,5,5,0.7,0.7
2024-06-19T2000,2907A,120.1844,30.8596,湖州市,吴兴区站,,30,25,23,21,19,22,,41,38,32,24,6,6,0.6,0.5
2024-06-19T2000,3562A,120.4148,30.8538,湖州市,南浔区站,,30,22,19,21,16,32,,49,47,24,19,2,3,0.5,0.5
2024-06-19T2000,1607A,120.9092,40.7136,葫芦岛市,龙港区,,48,40,37,13,13,153,,142,142,10,10,6,6,0.3,0.4
2024-06-19T2000,1608A,120.8392,40.7514,葫芦岛市,化工街,,48,27,40,9,13,152,,137,137,12,14,14,13,0.6,0.6
2024-06-19T2000,1609A,120.8341,40.7073,葫芦岛市,新区,臭氧1小时,57,27,33,10,15,165,,152,152,13,13,6,6,0.4,0.5
2024-06-19T2000,1610A,120.8695,40.7677,葫芦岛市,东城区,臭氧1小时,60,36,45,13,16,168,,159,159,12,12,7,8,0.6,0.6
2024-06-19T2000,2482A,109.5981,27.5721,怀化市,林科所,,16,12,14,7,7,50,,86,75,2,3,4,6,0.7,0.7
2024-06-19T2000,2483A,109.9453,27.5444,怀化市,河西地税局,,27,27,19,16,12,29,,75,64,12,9,17,13,0.8,0.7
2024-06-19T2000,2484A,109.9781,27.5342,怀化市,市四医院,,29,23,17,20,13,38,,68,62,6,8,9,6,0.9,0.9
2024-06-19T2000,2485A,109.9972,27.5578,怀化市,监测楼,,23,20,18,16,11,38,,68,60,5,5,3,6,0.7,0.7
2024-06-19T2000,2486A,110.0394,27.583,怀化市,市委党校,,22,16,14,15,11,34,,68,56,7,6,6,7,0.6,0.6
2024-06-19T2000,1210A,119.036,33.5981,淮安市,钵池山,,28,22,35,19,23,79,,113,105,16,18,6,7,0.5,0.5
2024-06-19T2000,1211A,119.007,33.575,淮安市,北京南路,,31,31,39,19,26,70,,112,104,13,13,6,7,0.5,0.5
2024-06-19T2000,1212A,118.989,33.6067,淮安市,市监测站,,31,31,40,14,20,72,,111,103,13,14,6,7,0.6,0.6
2024-06-19T2000,1213A,119.135,33.5039,淮安市,楚州区监测站,,46,46,42,30,28,73,,107,100,19,19,5,6,0.5,0.5
2024-06-19T2000,1214A,119.0186,33.6297,淮安市,淮阴区监测站,,30,29,40,21,25,73,,111,102,18,18,6,7,0.4,0.4
2024-06-19T2000,3426A,118.8755,33.2894,淮安市,新华书店,,25,14,40,11,24,78,,121,115,12,15,5,7,0.5,0.5
2024-06-19T2000,2282A,116.8004,33.975,淮北市,监测站,臭氧1小时,74,78,57,44,28,179,,205,203,14,11,6,7,0.5,0.5
2024-06-19T2000,2283A,116.8091,33.9007,淮北市,烈山区政府,臭氧1小时,84,69,64,33,24,187,,210,207,10,12,4,6,0.6,0.6
2024-06-19T2000,3330A,116.8873,33.9836,淮北市,杜集区检察院,臭氧1小时,99,66,56,46,28,199,,221,220,11,11,6,8,0.4,0.4
2024-06-19T2000,4017A,116.7923,33.9535,淮北市,市博物馆,臭氧1小时,93,69,52,40,28,194,,218,216,10,9,5,6,0.6,0.6
2024-06-19T2000,2277A,116.8305,32.7727,淮南市,潘集区政府,,31,27,41,19,24,98,,162,143,13,13,7,8,0.3,0.3
2024-06-19T2000,2278A,117.0067,32.6524,淮南市,师范学院,,35,35,43,20,28,100,,138,124,10,13,9,10,0.3,0.3
2024-06-19T2000,2279A,116.8569,32.5951,淮南市,谢家集区政府,,39,39,35,14,12,73,,145,122,31,14,6,13,0.3,0.3
2024-06-19T2000,2280A,116.8281,32.633,淮南市,八公山区政府,,34,34,43,18,23,95,,150,129,13,11,2,4,0.4,0.4
2024-06-19T2000,2281A,116.6325,32.6201,淮南市,焦岗湖风景区管理处,,17,16,30,3,11,54,,106,88,17,17,7,8,0.4,0.3
2024-06-19T2000,2894A,117.0566,32.6531,淮南市,经济技术开发区消防队,,32,25,38,3,15,100,,143,130,16,16,4,5,0.4,0.3
2024-06-19T2000,3329A,117.0108,32.5893,淮南市,山南新区,,36,29,39,11,18,114,,146,133,12,12,6,7,0.5,0.4
2024-06-19T2000,2446A,114.9028,30.4742,黄冈市,职工中心,,16,6,17,3,13,50,,69,69,8,10,6,8,0.3,0.5
2024-06-19T2000,2929A,114.8858,30.4519,黄冈市,红卫路,,21,9,19,3,13,66,,80,80,11,12,6,7,0.4,0.4
2024-06-19T2000,3398A,114.9136,30.4445,黄冈市,市林业局,,20,6,20,6,16,63,,70,70,8,11,5,11,0.4,0.4
2024-06-19T2000,2672A,102.0199,35.5102,黄南藏族自治州,同仁县隆务镇,颗粒物(PM10),61,72,40,13,10,126,,126,126,1,2,12,12,0.6,0.7
2024-06-19T2000,2295A,118.2903,29.6963,黄山市,延安路89号,,36,36,20,3,5,22,,35,28,10,7,5,5,0.7,0.6
2024-06-19T2000,2296A,118.327,29.7178,黄山市,黄山东路89号,,8,8,7,3,4,22,,34,27,9,6,5,5,0.5,0.4
2024-06-19T2000,2297A,118.1371,30.2756,黄山市,黄山区政府5号楼,,10,10,8,3,5,21,,30,29,8,6,6,6,0.4,0.4
2024-06-19T2000,2423A,115.0601,30.2313,黄石市,沈家营,,24,14,37,3,9,74,,70,70,9,19,5,9,0.3,0.6
2024-06-19T2000,2424A,115.0817,30.2006,黄石市,陈家湾,,29,29,38,3,10,76,,71,71,1,9,4,4,0.5,0.6
2024-06-19T2000,2426A,114.8988,30.2019,黄石市,铁山,,21,11,20,3,8,65,,65,65,12,9,7,9,0.2,0.3
2024-06-19T2000,2427A,115.0307,30.2092,黄石市,团城山,,24,15,30,3,5,75,,74,74,1,6,5,5,0.5,0.6
2024-06-19T2000,3149A,115.0235,30.1578,黄石市,笔架山北路,,31,31,38,3,4,66,,66,66,5,7,6,5,0.8,0.8
2024-06-19T2000,1392A,114.4183,23.0528,惠州市,河南岸金山湖子站,,21,21,21,10,10,39,,69,63,7,9,4,4,0.3,0.4
2024-06-19T2000,1393A,114.4053,23.0822,惠州市,下埔横江三路子站,,22,22,23,10,11,42,,74,68,9,11,6,6,0.5,0.5
2024-06-19T2000,1394A,114.4103,23.1142,惠州市,江北云山西路子站,,19,19,23,3,8,40,,76,69,7,9,7,8,0.5,0.5
2024-06-19T2000,1395A,114.4645,22.7833,惠州市,惠阳区承修路船湖子站,,18,18,16,12,7,38,,47,46,10,10,1,1,0.5,0.5
2024-06-19T2000,1396A,114.5317,22.7422,惠州市,大亚湾管委会子站,,18,18,17,8,7,42,,58,55,13,9,4,4,0.8,0.7
2024-06-19T2000,3314A,114.4338,22.8134,惠州市,惠阳秋长,,29,29,34,7,9,41,,60,56,8,15,4,5,0.5,0.8
2024-06-19T2000,3452A,114.6517,22.775,惠州市,大亚湾霞涌,,15,15,16,3,8,38,,46,46,6,6,3,3,0.5,0.5
2024-06-19T2000,2240A,130.9762,45.3001,鸡西市,环保局,,27,27,47,9,15,74,,71,70,4,21,9,8,0.4,0.5
2024-06-19T2000,2243A,130.9429,45.3039,鸡西市,第一中学,,26,14,42,8,15,81,,88,80,3,16,8,8,0.3,0.4
2024-06-19T2000,3707A,131.0207,45.3073,鸡西市,欧美日汽修厂,,26,15,46,10,15,82,,77,76,4,17,5,7,0.5,0.6
2024-06-19T2000,3709A,130.9967,45.3106,鸡西市,市政设施管理处,,32,32,45,3,12,76,,75,74,8,20,7,7,0.4,0.4
2024-06-19T2000,2367A,114.9754,27.0803,吉安市,红声器材厂,,27,27,30,15,15,53,,73,72,19,14,9,10,0.3,0.4
2024-06-19T2000,2368A,114.9658,27.0999,吉安市,市森林工业局,,29,29,31,18,17,45,,69,66,14,12,11,12,0.6,0.5
2024-06-19T2000,2369A,114.99,27.1312,吉安市,市环境监测站,,48,48,29,16,14,47,,76,73,11,8,10,12,0.7,0.6
2024-06-19T2000,2370A,115.0093,27.0968,吉安市,青原区法院,,32,32,29,18,15,49,,66,65,20,13,15,16,0.6,0.4
2024-06-19T2000,1772A,126.54,43.8622,吉林市,哈达湾,臭氧1小时,78,22,38,10,24,182,,242,233,14,28,5,6,0.5,0.6
2024-06-19T2000,1773A,126.5844,43.8358,吉林市,东局子,臭氧1小时,59,34,37,18,20,167,,241,230,29,21,5,6,0.5,0.6
2024-06-19T2000,1774A,126.5052,43.8245,吉林市,电力学院,臭氧1小时,59,42,53,16,22,167,,230,221,20,35,10,10,0.5,0.6
2024-06-19T2000,1775A,126.6133,43.8972,吉林市,江北,,48,38,52,16,23,151,,227,216,27,34,8,8,0.6,0.7
2024-06-19T2000,1776A,126.555,43.8306,吉林市,江南公园,臭氧1小时,55,36,38,18,22,164,,235,224,28,23,5,5,0.6,0.7
2024-06-19T2000,1778A,126.7061,43.7133,吉林市,丰满,,,,,,,,,,,,,,,,
2024-06-19T2000,2868A,126.4739,43.953,吉林市,九站,,40,34,48,12,22,125,,244,222,54,48,7,10,0.5,0.7
2024-06-19T2000,1299A,116.9862,36.6114,济南市,科干所,臭氧1小时,106,46,39,20,18,211,,220,220,15,16,9,10,0.4,0.3
2024-06-19T2000,1300A,116.9376,36.665,济南市,农科所,臭氧1小时,108,54,46,15,12,216,,238,238,20,20,9,10,0.5,0.5
2024-06-19T2000,1301A,117.1265,36.6734,济南市,开发区,臭氧1小时,110,37,40,17,13,219,,232,232,14,14,9,9,0.5,0.4
2024-06-19T2000,1303A,117.0624,36.6868,济南市,省种子仓库,臭氧1小时,103,53,53,46,22,206,,242,242,26,23,7,8,0.5,0.5
2024-06-19T2000,1304A,116.9489,36.6447,济南市,机床二厂,臭氧1小时,115,51,48,17,14,229,,244,244,17,19,10,11,0.3,0.4
2024-06-19T2000,1305A,117.0495,36.663,济南市,市监测站,臭氧1小时,111,49,43,22,24,222,,250,250,24,20,13,13,0.4,0.4
2024-06-19T2000,1306A,116.7675,36.5484,济南市,长清党校,臭氧1小时,120,49,46,24,20,239,,249,249,15,12,10,10,0.5,0.5
2024-06-19T2000,1616A,117.6795,36.229,济南市,技术学院,臭氧1小时,55,51,51,19,18,164,,206,204,18,24,10,12,0.8,0.7
2024-06-19T2000,1961A,117.532,36.6868,济南市,东山小学,臭氧1小时,109,46,47,22,15,218,,234,234,18,17,10,9,0.7,0.6
2024-06-19T2000,3059A,117.7161,36.2049,济南市,泰兴公司,颗粒物(PM10),51,51,52,12,19,129,,201,196,17,22,10,12,0.8,0.6
2024-06-19T2000,3064A,117.6867,36.2171,济南市,莱芜战役纪念馆,,48,46,52,12,15,153,,198,196,14,22,8,12,0.7,0.6
2024-06-19T2000,3494A,117.1673,36.9782,济南市,济阳区政府,臭氧1小时,115,71,63,17,18,229,,254,253,14,16,9,8,0.4,0.4
2024-06-19T2000,3495A,117.1171,36.63,济南市,锦屏中学,臭氧1小时,117,39,39,17,15,233,,244,244,16,15,11,11,0.6,0.6
2024-06-19T2000,3682A,116.9814,36.6819,济南市,济南四建,臭氧1小时,113,44,35,22,19,225,,251,251,12,13,9,10,0.5,0.5
2024-06-19T2000,1653A,116.6251,35.4302,济宁市,火炬城,臭氧1小时,87,51,55,29,27,189,,227,224,15,17,11,12,0.7,0.7
2024-06-19T2000,1655A,116.5491,35.4042,济宁市,电化厂,臭氧1小时,90,58,59,31,26,192,,242,238,22,15,8,10,0.5,0.5
2024-06-19T2000,3500A,116.5814,35.3707,济宁市,北湖一中,臭氧1小时,94,46,45,34,26,195,,234,232,19,19,10,10,0.6,0.6
2024-06-19T2000,3501A,116.8249,35.5593,济宁市,服务中心,臭氧1小时,84,64,54,24,24,187,,210,207,16,18,6,8,0.4,0.4
2024-06-19T2000,3678A,116.5907,35.4054,济宁市,市第七中学,臭氧1小时,99,52,52,17,23,199,,238,236,16,16,8,9,0.6,0.6
2024-06-19T2000,2255A,130.2751,46.8028,佳木斯市,佳纺,,26,22,39,18,15,42,,53,48,23,23,5,4,0.6,0.4
2024-06-19T2000,2256A,130.3995,46.8307,佳木斯市,发电厂,,26,19,26,18,15,55,,54,53,12,18,3,5,0.5,0.5
2024-06-19T2000,2257A,130.3258,46.7975,佳木斯市,环保局,,23,20,29,16,12,24,,54,48,40,20,6,5,0.9,0.5
2024-06-19T2000,2258A,130.3648,46.8032,佳木斯市,十一中,,33,,24,23,13,36,,52,49,34,24,7,6,0.7,0.5
2024-06-19T2000,2259A,130.3794,46.7588,佳木斯市,四丰,,20,20,14,11,9,30,,57,49,31,10,1,1,0.7,0.6
2024-06-19T2000,1252A,120.7436,30.778,嘉兴市,清河小学,,35,35,20,15,9,42,,62,59,26,20,4,4,0.9,0.8
2024-06-19T2000,1253A,120.726,30.7478,嘉兴市,嘉兴学院,,29,22,18,20,11,34,,51,50,25,18,3,4,0.5,0.5
2024-06-19T2000,2872A,120.7846,30.7525,嘉兴市,南湖区残联,,30,24,17,21,14,45,,73,72,22,15,5,5,0.5,0.5
2024-06-19T2000,3407A,120.6916,30.7739,嘉兴市,秀洲住建,,27,27,20,16,8,29,,55,52,28,15,5,5,0.8,0.6
2024-06-19T2000,1945A,98.2908,39.7711,嘉峪关市,气象局,,41,14,36,3,11,129,,132,132,6,17,7,14,0.1,0.1
2024-06-19T2000,2884A,98.2672,39.7978,嘉峪关市,酒钢宾馆,,43,22,41,9,14,135,,140,140,8,15,19,25,0.5,0.3
2024-06-19T2000,3248A,98.2643,39.7724,嘉峪关市,雄关区,,40,24,33,15,13,126,,131,131,9,16,8,9,0.4,0.4
2024-06-19T2000,1383A,113.1064,22.6058,江门市,北街,,18,18,21,12,9,53,,65,64,10,7,2,2,0.6,0.5
2024-06-19T2000,1384A,113.0731,22.5835,江门市,西区,,38,38,27,14,11,51,,71,67,11,7,7,6,0.5,0.4
2024-06-19T2000,1385A,113.0219,22.5311,江门市,圭峰西,,,,26,10,10,58,,68,65,3,5,2,2,0.5,0.4
2024-06-19T2000,1386A,113.0828,22.5947,江门市,东湖,,28,27,22,19,12,55,,71,69,10,7,7,6,0.5,0.4
2024-06-19T2000,3311A,113.1075,22.5647,江门市,江海富民,,31,31,38,16,13,58,,74,72,9,8,5,5,0.5,0.5
2024-06-19T2000,3449A,113.05,22.4667,江门市,新会银湖,,18,16,21,3,6,55,,67,65,5,3,4,4,0.5,0.5
2024-06-19T2000,1828A,113.227,35.2125,焦作市,市环保局,臭氧1小时,104,67,55,24,32,207,,233,232,11,12,2,3,0.2,0.3
2024-06-19T2000,1830A,113.1992,35.2590,焦作市,影视城,,,,,,,,,,,,,,,,
2024-06-19T2000,3169A,113.2725,35.2067,焦作市,太极体育中心,臭氧1小时,95,79,66,26,28,196,,227,225,14,12,4,5,0.3,0.4
2024-06-19T2000,3335A,113.3137,35.2641,焦作市,马村街道办,臭氧1小时,102,58,60,23,31,204,,218,217,10,14,2,3,0.3,0.5
2024-06-19T2000,3336A,113.2465,35.2373,焦作市,焦作技师学院,臭氧1小时,104,38,57,19,27,207,,229,228,9,11,1,2,0.5,0.6
2024-06-19T2000,3477A,113.1656,35.2539,焦作市,中站许衡医院,臭氧1小时,88,47,43,20,31,190,,213,212,16,18,6,6,0.4,0.4
2024-06-19T2000,3981A,113.2449,35.1803,焦作市,原李万街道办,臭氧1小时,98,77,53,22,30,198,,217,216,15,16,5,7,0.5,0.6
2024-06-19T2000,1708A,116.3701,23.5345,揭阳市,新兴,,22,22,24,11,8,6,,43,31,41,20,9,5,0.9,0.7
2024-06-19T2000,1709A,116.3264,23.5443,揭阳市,西马,,,22,21,14,9,18,,43,36,31,14,2,2,,0.8
2024-06-19T2000,1710A,116.3611,23.5626,揭阳市,东兴,,15,15,31,9,8,20,,44,33,26,17,4,4,0.9,0.8
2024-06-19T2000,1711A,116.4151,23.5294,揭阳市,渔湖,,15,15,25,8,6,14,,37,27,30,20,4,4,0.7,0.7
2024-06-19T2000,3320A,116.403,23.5699,揭阳市,曲溪,,15,,18,10,10,19,,42,34,30,19,4,7,0.8,0.6
2024-06-19T2000,1944A,102.1692,38.5167,金昌市,天庆家园,,50,50,61,16,23,119,,130,129,4,7,18,17,0.6,0.5
2024-06-19T2000,3170A,102.1864,38.5253,金昌市,市委党校,,48,48,79,14,26,121,,132,130,3,9,8,27,0.5,0.7
2024-06-19T2000,4022A,102.1647,38.5371,金昌市,金川区人防中心,颗粒物(PM10),75,100,92,29,38,130,,139,138,3,8,10,17,0.7,0.5
2024-06-19T2000,1262A,119.647,29.077,金华市,十五中,颗粒物(PM10),53,55,29,34,20,16,,45,40,62,32,2,3,0.8,0.6
2024-06-19T2000,1263A,119.686,29.1029,金华市,监测站,,45,45,29,28,18,1,,34,28,66,39,3,2,0.8,0.5
2024-06-19T2000,3659A,119.656,29.1131,金华市,气象局,,49,49,31,27,18,1,,26,19,64,44,5,6,0.7,0.6
2024-06-19T2000,1767A,121.1115,41.0879,锦州市,南山,臭氧1小时,67,24,44,16,19,173,,162,162,15,18,10,12,0.5,0.6
2024-06-19T2000,1768A,121.0533,40.8434,锦州市,开发区,,50,50,73,14,17,142,,146,146,26,19,8,16,0.6,0.7
2024-06-19T2000,1769A,121.1836,41.1119,锦州市,百股街道,臭氧1小时,78,30,41,7,14,182,,168,168,12,15,15,14,0.7,0.7
2024-06-19T2000,1770A,121.1178,41.1222,锦州市,天安街道,,47,36,50,17,20,150,,140,140,13,18,6,10,0.6,0.7
2024-06-19T2000,1771A,121.1303,41.1386,锦州市,北湖公园,臭氧1小时,63,34,46,16,18,170,,157,157,12,15,9,12,0.5,0.6
2024-06-19T2000,2160A,112.85,35.5051,晋城市,自来水公司,臭氧1小时,102,41,43,19,22,204,,214,214,14,18,6,6,0.6,0.6
2024-06-19T2000,2161A,112.8318,35.4936,晋城市,白云商贸,臭氧1小时,105,43,41,19,19,210,,218,218,14,18,6,6,0.6,0.6
2024-06-19T2000,2162A,112.8508,35.4887,晋城市,市环保局,臭氧1小时,102,45,50,19,24,204,,214,214,15,22,6,6,0.5,0.5
2024-06-19T2000,2163A,112.8676,35.4897,晋城市,技术学院,臭氧1小时,97,44,46,22,25,197,,210,210,17,23,6,6,0.6,0.7
2024-06-19T2000,2165A,112.8453,35.546,晋城市,白马寺,,,,,,,,,,,,,,,,
2024-06-19T2000,3620A,112.8271,35.4828,晋城市,泽州一中,臭氧1小时,89,47,47,24,21,191,,201,201,16,20,7,7,0.6,0.6
2024-06-19T2000,2171A,112.7532,37.6945,晋中市,锦纶小区,臭氧1小时,93,51,59,24,23,194,,216,213,14,22,11,12,0.7,0.6
2024-06-19T2000,2173A,112.7249,37.7067,晋中市,南都小区,臭氧1小时,99,52,53,34,30,199,,225,220,12,18,10,11,0.6,0.5
2024-06-19T2000,2174A,112.6991,37.6982,晋中市,榆次区政府,臭氧1小时,87,58,52,24,27,189,,209,206,14,20,9,10,0.5,0.5
2024-06-19T2000,2865A,112.7195,37.6828,晋中市,榆次三中,臭氧1小时,98,53,50,31,24,198,,229,219,16,21,10,11,0.7,0.6
2024-06-19T2000,2439A,112.2014,31.0481,荆门市,竹园小学,细颗粒物(PM2.5),67,67,50,48,35,125,,144,142,20,18,11,11,0.7,0.6
2024-06-19T2000,2440A,112.1969,30.9891,荆门市,掇刀,颗粒物(PM10),61,72,40,36,31,135,,142,140,17,15,8,8,0.9,0.7
2024-06-19T2000,2441A,112.2213,31.0386,荆门市,石化一小,,,86,48,37,27,133,,147,146,,16,11,18,,0.6
2024-06-19T2000,3012A,112.1849,31.0362,荆门市,西山林语,细颗粒物(PM2.5),79,66,45,58,32,139,,150,149,13,13,8,8,0.4,0.4
2024-06-19T2000,3547A,112.1632,31.0138,荆门市,龙泉中学南校,,,58,40,37,24,138,,149,149,,16,11,10,0.7,0.6
2024-06-19T2000,1844A,112.2494,30.3197,荆州市,市图书馆,颗粒物(PM10),55,60,36,27,24,117,,132,131,20,14,6,6,0.8,0.7
2024-06-19T2000,1845A,112.2008,30.3544,荆州市,市委党校,,48,48,37,32,26,117,,133,132,27,13,6,5,0.7,0.6
2024-06-19T2000,3194A,112.2747,30.3122,荆州市,管委会,,,46,41,24,28,112,,133,131,,13,4,4,,0.6
2024-06-19T2000,3548A,112.1655,30.3364,荆州市,学苑路,细颗粒物(PM2.5),59,45,42,42,41,133,,145,145,21,11,6,6,0.6,0.6
2024-06-19T2000,2342A,117.3102,29.3867,景德镇市,王港中学,,,,,,,,,,,,,,,,
2024-06-19T2000,2343A,117.2117,29.2933,景德镇市,老干部活动中心,,35,30,13,24,11,30,,42,41,16,12,14,8,0.4,0.5
2024-06-19T2000,2344A,117.1894,29.2789,景德镇市,兽医站,,22,22,16,12,10,30,,41,40,14,12,12,8,0.5,0.6
2024-06-19T2000,2345A,117.1547,29.2617,景德镇市,台达陶瓷,,33,29,18,23,12,24,,38,37,26,18,40,22,0.4,0.4
2024-06-19T2000,2346A,117.2461,29.2956,景德镇市,陶研所,,32,32,13,16,6,22,,47,44,12,5,5,4,0.4,0.3
2024-06-19T2000,1803A,115.9872,29.6815,九江市,十里,,,37,31,,6,47,,55,55,22,15,8,10,0.6,0.6
2024-06-19T2000,1804A,115.9584,29.7046,九江市,茅山头,,15,14,9,6,6,46,,57,57,14,12,10,10,0.5,0.6
2024-06-19T2000,1805A,115.9877,29.7295,九江市,西园,,18,12,9,7,5,43,,59,59,36,23,10,12,0.8,0.8
2024-06-19T2000,1806A,116.0172,29.6547,九江市,五七二七厂,,15,,6,10,8,28,,42,42,9,9,8,8,0.6,0.6
2024-06-19T2000,1808A,115.9114,29.6038,九江市,综合工业园,,18,,9,9,5,37,,60,54,35,26,10,11,0.8,0.8
2024-06-19T2000,1809A,116.0721,29.7535,九江市,石化总厂,,26,,10,18,10,41,,49,49,15,12,11,10,0.6,0.6
2024-06-19T2000,1810A,115.9773,29.5698,九江市,庐山气象台,,20,,5,3,4,62,,63,63,2,2,7,9,1.2,0.9
2024-06-19T2000,3190A,116.0254,29.6994,九江市,外国语学校,,23,19,6,16,6,36,,44,44,20,16,22,17,0.7,0.7
2024-06-19T2000,2658A,98.5061,39.7443,酒泉市,仓门街子站,,40,22,42,6,8,126,,130,130,16,22,6,8,0.2,0.2
2024-06-19T2000,2659A,98.4989,39.7256,酒泉市,油田生活基地,,42,22,41,3,8,133,,136,136,13,20,6,9,0.1,0.3
2024-06-19T2000,2698A,76.0072,39.4467,喀什地区,巡警大队,颗粒物(PM10),67,83,39,21,5,126,,136,136,20,12,3,3,0.2,0.2
2024-06-19T2000,2699A,75.9755,39.4694,喀什地区,吾办,颗粒物(PM10),70,90,38,22,10,128,,135,135,15,9,3,3,0.3,0.3
2024-06-19T2000,4027A,75.9483,39.4689,喀什地区,老干局,颗粒物(PM10),76,101,60,13,6,136,,138,138,9,11,3,3,0.2,0.2
2024-06-19T2000,1824A,114.3389,34.7781,开封市,肿瘤医院,,,63,59,18,20,157,,190,187,17,16,4,5,,0.5
2024-06-19T2000,1826A,114.2885,34.7965,开封市,世纪星幼儿园,臭氧1小时,73,58,55,22,21,178,,209,207,16,14,1,3,0.5,0.5
2024-06-19T2000,3147A,114.3438,34.8106,开封市,龙亭公园,,,,,,,,,,,,,,,,
2024-06-19T2000,3210A,114.3644,34.7964,开封市,汴京公园,臭氧1小时,80,96,61,23,29,184,,116,,14,19,2,6,1.5,0.6
2024-06-19T2000,3473A,114.2485,34.8306,开封市,技师学院,臭氧1小时,95,47,53,22,24,196,,214,214,13,14,4,6,0.6,0.5
2024-06-19T2000,3592A,114.4644,34.7556,开封市,祥符区生态环境局,颗粒物(PM10),51,52,58,20,25,140,,199,193,48,30,3,4,0.5,0.4
2024-06-19T2000,1951A,84.895,45.6094,克拉玛依市,长征新村,,35,23,13,3,5,111,,120,110,2,2,9,9,0.1,0.1
2024-06-19T2000,1952A,84.8988,45.5893,克拉玛依市,南林小区,,37,21,14,13,8,116,,120,114,2,3,12,11,0.3,0.2
2024-06-19T2000,1954A,84.905,44.3396,克拉玛依市,独山子区,,35,28,20,8,7,110,,118,117,7,6,8,9,0.2,0.2
2024-06-19T2000,1955A,85.6979,46.098,克拉玛依市,乌尔禾区商贸楼,,35,14,19,3,6,110,,111,105,1,4,7,8,0.2,0.2
2024-06-19T2000,3612A,85.1045,45.6899,克拉玛依市,白碱滩区新站,,42,42,20,20,17,109,,126,116,3,2,9,9,0.0,0
2024-06-19T2000,2697A,76.1454,39.7142,克孜勒苏柯尔克孜自治州,市人民政府,,44,44,36,16,14,133,,134,134,8,7,8,9,0.4,0.4
2024-06-19T2000,3665A,76.1658,39.7157,克孜勒苏柯尔克孜自治州,克州文化中心,,48,48,34,18,14,139,,135,135,8,4,9,10,0.3,0.3
2024-06-19T2000,1450A,102.8204,24.8886,昆明市,呈贡新区,,30,29,30,14,15,93,,102,102,9,9,8,5,0.5,0.6
2024-06-19T2000,1451A,102.6251,24.9608,昆明市,西山森林公园,,,,,,,,,,,,,,,,
2024-06-19T2000,1452A,102.7252,25.0902,昆明市,龙泉镇,,32,32,24,14,11,89,,100,100,12,12,7,7,0.5,0.6
2024-06-19T2000,1453A,102.7266,25.0375,昆明市,东风东路,,29,29,25,16,13,84,,92,92,13,11,2,2,0.6,0.6
2024-06-19T2000,1454A,102.6742,25.0669,昆明市,金鼎山,,42,42,28,12,11,90,,98,98,12,13,10,14,0.4,0.4
2024-06-19T2000,1455A,102.6644,25.0401,昆明市,碧鸡广场,,28,26,27,14,15,87,,97,97,13,12,2,3,0.5,0.5
2024-06-19T2000,3179A,102.7494,25.0119,昆明市,官渡区博物馆,,31,23,22,10,12,98,,104,104,9,8,8,9,0.4,0.5
2024-06-19T2000,3375A,102.8017,24.8336,昆明市,青年创业园,,31,22,26,16,15,98,,104,104,5,8,8,9,0.3,0.4
2024-06-19T2000,3550A,102.7997,24.9786,昆明市,昆明学院,,30,26,26,15,15,96,,103,103,10,9,8,9,0.5,0.6
2024-06-19T2000,3551A,102.5967,24.6736,昆明市,晋宁区生态环境分局,,32,,21,22,14,97,,97,97,5,7,2,2,0.5,0.6
2024-06-19T2000,3552A,102.6678,24.9856,昆明市,云天化总部,,,25,22,13,13,96,,100,100,5,5,,2,0.5,0.5
2024-06-19T2000,1456A,91.1319,29.6514,拉萨市,八廓街,,39,13,14,6,10,122,,144,144,18,15,9,9,0.4,0.3
2024-06-19T2000,1457A,91.1221,29.6747,拉萨市,市环保局,,38,23,17,10,9,121,,136,136,15,17,8,8,0.5,0.5
2024-06-19T2000,1458A,91.0874,29.6475,拉萨市,区监测站,,38,24,12,8,8,120,,136,136,15,17,6,7,0.6,0.4
2024-06-19T2000,1459A,91.1774,29.6541,拉萨市,西藏大学,,40,16,12,6,8,126,,145,145,19,10,7,7,0.5,0.3
2024-06-19T2000,1460A,90.9798,29.6588,拉萨市,区辐射站,,36,13,15,8,10,115,,127,127,18,14,7,8,0.4,0.4
2024-06-19T2000,1461A,91.0834,29.6292,拉萨市,拉萨火车站,,40,20,11,8,8,126,,135,135,10,15,8,8,0.2,0.2
2024-06-19T2000,2520A,109.2203,23.7256,来宾市,来宾技工学校,,22,22,28,14,16,35,,64,57,12,10,4,5,0.8,0.8
2024-06-19T2000,3535A,109.1781,23.7297,来宾市,兴宾区政府,,11,11,27,3,13,27,,64,55,15,8,4,5,0.9,0.9
2024-06-19T2000,4002A,109.2416,23.7461,来宾市,中南小学,,18,18,27,11,16,32,,60,55,20,17,3,3,1.0,1.1
2024-06-19T2000,1476A,103.631,36.1031,兰州市,兰炼宾馆,颗粒物(PM10),69,88,85,49,46,128,,168,163,18,25,12,28,0.2,0.5
2024-06-19T2000,1477A,104.1373,35.9454,兰州市,榆中兰大校区,,,,,,,,,,,,,,,,
2024-06-19T2000,1478A,103.8412,36.0726,兰州市,生物制品所,颗粒物(PM10),55,59,75,33,35,117,,147,146,24,36,8,17,0.3,0.4
2024-06-19T2000,1479A,103.831,36.0464,兰州市,铁路设计院,颗粒物(PM10),54,58,74,22,30,112,,146,145,36,45,8,17,0.3,0.5
2024-06-19T2000,3186A,103.7158,36.1058,兰州市,教育港,颗粒物(PM10),67,83,111,32,37,134,,165,165,14,28,10,22,0.3,0.5
2024-06-19T2000,3241A,103.7439,36.0842,兰州市,百合公园,颗粒物(PM10),54,57,77,19,30,124,,154,154,18,32,5,13,0.2,0.3
2024-06-19T2000,3242A,103.9611,35.998,兰州市,和平,颗粒物(PM10),55,60,69,24,28,137,,156,156,12,16,8,12,0.3,0.4
2024-06-19T2000,3245A,103.6633,36.533,兰州新区,新区管委会,,45,45,61,27,29,134,,148,147,6,15,19,14,0.4,0.4
2024-06-19T2000,3246A,103.6975,36.4789,兰州新区,舟曲中学,颗粒物(PM10),66,82,94,23,32,138,,150,150,8,20,9,15,0.4,0.5
2024-06-19T2000,1067A,116.6708,39.5111,廊坊市,药材公司,臭氧1小时,119,88,83,32,37,238,,257,257,17,16,5,4,0.6,0.6
2024-06-19T2000,1068A,116.7214,39.5589,廊坊市,开发区,臭氧1小时,114,98,85,45,36,228,,264,264,20,18,6,5,0.6,0.5
2024-06-19T2000,1070A,116.7244,39.5269,廊坊市,北华航天学院,臭氧1小时,108,104,90,46,32,216,,250,250,18,17,4,3,0.6,0.5
2024-06-19T2000,2919A,116.7022,39.5453,廊坊市,河北工业大学,臭氧1小时,113,96,87,50,35,225,,262,262,16,14,5,4,0.6,0.5
2024-06-19T2000,2535A,103.7723,29.5462,乐山市,花湖湾,,26,,23,17,19,82,,104,104,7,10,3,3,0.3,0.5
2024-06-19T2000,2536A,103.7627,29.5844,乐山市,牛耳桥,,32,24,22,22,21,93,,117,117,11,13,3,3,0.4,0.5
2024-06-19T2000,2537A,103.7508,29.6006,乐山市,市第三水厂,,30,22,23,17,14,96,,118,118,10,14,3,3,0.5,0.5
2024-06-19T2000,2538A,103.7571,29.5664,乐山市,市监测站,,28,20,26,17,19,88,,117,117,12,12,2,3,0.5,0.6
2024-06-19T2000,3361A,103.7311,29.5628,乐山市,理工大学,,31,21,26,14,18,97,,126,126,7,12,6,7,0.4,0.6
2024-06-19T2000,2598A,100.2143,26.8576,丽江市,西南郊,,,,,,,,,,,,,,,,
2024-06-19T2000,2599A,100.2497,26.8802,丽江市,丽江古城,,21,16,21,8,10,67,,82,80,14,12,6,6,0.6,0.6
2024-06-19T2000,2600A,100.2203,26.8906,丽江市,市中心,,,,17,,9,,,79,,,7,,8,,0.5
2024-06-19T2000,1267A,119.914,28.4514,丽水市,监测站大楼,,39,38,22,27,16,23,,63,59,28,20,3,3,0.8,0.4
2024-06-19T2000,1268A,119.93,28.4586,丽水市,莲都小学,,38,38,25,14,9,8,,65,59,29,22,4,3,0.7,0.5
2024-06-19T2000,1269A,119.879,28.4231,丽水市,余庄前,,17,17,20,6,13,8,,55,48,7,14,2,2,0.5,0.5
2024-06-19T2000,1173A,119.176,34.5885,连云港市,市环境监测站,,29,22,32,7,13,91,,102,88,11,12,6,6,0.3,0.4
2024-06-19T2000,3000A,119.3581,34.6972,连云港市,德源药业,,33,6,24,3,9,103,,99,96,12,13,4,5,0.3,0.4
2024-06-19T2000,3007A,119.178,34.844,连云港市,新城一中,,35,27,49,3,9,110,,113,103,10,16,4,6,0.6,0.7
2024-06-19T2000,3008A,119.3608,34.7519,连云港市,胡沟管理处,,,9,25,,10,98,,117,86,17,13,9,9,0.5,0.6
2024-06-19T2000,3009A,119.1478,34.5911,连云港市,矿山设计院,,29,14,30,7,12,91,,101,88,10,11,2,2,0.3,0.3
2024-06-19T2000,3434A,119.2413,34.6539,连云港市,工贸学校,,31,17,31,9,11,98,,114,96,7,6,7,7,0.7,0.6
2024-06-19T2000,3664A,119.4172,34.7341,连云港市,连云街道,,37,6,28,3,10,118,,115,105,2,7,2,4,0.5,0.6
2024-06-19T2000,2571A,102.3431,27.8099,凉山彝族自治州,青龙寺,,,,9,,6,,,47,,,5,,8,,0.6
2024-06-19T2000,2572A,102.2721,27.8415,凉山彝族自治州,邛海宾馆,,21,21,11,12,8,57,,73,73,15,11,8,7,0.7,0.8
2024-06-19T2000,2573A,102.2625,27.898,凉山彝族自治州,西昌市政府,,17,17,15,7,10,49,,69,69,16,14,13,8,0.7,0.7
2024-06-19T2000,2574A,102.2685,27.8851,凉山彝族自治州,凉山州政府,,25,25,14,13,9,56,,74,74,15,13,11,8,0.8,0.8
2024-06-19T2000,2575A,102.237,27.8914,凉山彝族自治州,长安,,19,19,15,10,10,51,,69,69,13,20,10,9,0.9,0.9
2024-06-19T2000,2212A,123.2,41.1953,辽阳市,宏伟区,,49,26,37,3,13,154,,158,150,9,10,11,11,0.4,0.5
2024-06-19T2000,2213A,123.1683,41.2495,辽阳市,新华园,,47,47,42,7,16,125,,149,143,29,18,17,10,0.7,0.5
2024-06-19T2000,2214A,123.2354,41.2639,辽阳市,滨河路,,45,30,44,21,18,141,,145,143,14,16,9,9,0.6,0.7
2024-06-19T2000,2215A,123.149,41.2991,辽阳市,铁西工业园,颗粒物(PM10),51,51,52,17,23,127,,152,144,25,19,21,14,1.1,0.8
2024-06-19T2000,2227A,125.1358,42.8845,辽源市,环保局,,44,20,45,13,19,138,,211,197,22,40,7,9,0.5,0.7
2024-06-19T2000,3239A,125.0764,42.9078,辽源市,银鹰制药,,36,33,39,11,19,113,,215,195,64,30,5,10,0.6,0.8
2024-06-19T2000,1625A,115.9848,36.4372,聊城市,区政府,臭氧1小时,109,59,56,28,20,218,,233,233,21,18,8,10,0.5,0.5
2024-06-19T2000,2878A,116.0072,36.4343,聊城市,聊大东校,臭氧1小时,118,46,50,19,23,236,,246,246,26,18,5,10,0.5,0.5
2024-06-19T2000,3200A,115.9819,36.4978,聊城市,监控中心,臭氧1小时,111,74,55,17,18,222,,235,235,22,24,8,11,0.4,0.6
2024-06-19T2000,3513A,116.0445,36.4361,聊城市,九州社区,臭氧1小时,113,68,58,20,17,226,,232,232,20,18,9,8,0.4,0.4
2024-06-19T2000,4018A,116.0567,36.4608,聊城市,星美广场,臭氧1小时,129,59,55,18,18,257,,258,258,24,24,9,11,0.5,0.4
2024-06-19T2000,2632A,94.3681,29.6376,林芝市,林芝监测站,,35,6,3,3,4,110,,105,105,2,4,7,7,0.3,0.3
2024-06-19T2000,2633A,94.3616,29.6616,林芝市,林芝人民医院,,36,6,6,3,4,113,,106,106,4,6,8,8,0.3,0.2
2024-06-19T2000,2603A,100.0781,23.8982,临沧市,市环保局,细颗粒物(PM2.5),64,51,42,46,24,58,,79,75,10,9,4,4,0.6,0.5
2024-06-19T2000,2604A,100.0894,23.8822,临沧市,市气象局,颗粒物(PM10),51,52,44,34,27,67,,80,78,10,11,3,4,0.6,0.6
2024-06-19T2000,1733A,111.5531,36.0783,临汾市,临钢医院,颗粒物(PM10),58,66,55,23,23,163,,198,195,12,12,6,7,0.7,0.7
2024-06-19T2000,1734A,111.5028,36.0714,临汾市,技工学校,臭氧1小时,58,57,50,37,29,166,,203,200,16,18,5,6,0.5,0.6
2024-06-19T2000,1736A,111.5018,36.0855,临汾市,市委,臭氧1小时,68,56,58,20,24,174,,213,210,13,16,4,6,0.6,0.7
2024-06-19T2000,3018A,111.505,36.1014,临汾市,唐尧大酒店,颗粒物(PM10),52,54,47,11,22,159,,199,194,11,17,7,9,0.7,0.7
2024-06-19T2000,3668A,111.5036,36.0414,临汾市,城南,颗粒物(PM10),88,126,59,37,34,169,,214,211,14,19,5,6,0.5,0.6
2024-06-19T2000,2667A,103.2069,35.5993,临夏回族自治州,环保局,,38,25,33,24,22,120,,130,130,6,11,7,7,0.4,0.4
2024-06-19T2000,2668A,103.2417,35.6057,临夏回族自治州,建设大厦,,40,35,33,21,20,128,,132,132,5,10,10,8,0.2,0.3
2024-06-19T2000,1618A,118.3429,35.0532,临沂市,沂河小区,,32,14,46,6,16,100,,147,128,11,18,6,9,0.2,0.2
2024-06-19T2000,1619A,118.295,35.0583,临沂市,鲁南制药厂,,28,,50,15,14,87,,165,138,4,11,6,9,0.4,0.4
2024-06-19T2000,1620A,118.2794,34.9976,临沂市,新光毛纺厂,,28,12,44,8,17,88,,162,139,7,17,3,8,0.5,0.6
2024-06-19T2000,1621A,118.3956,35.0888,临沂市,河东保险公司,,25,9,38,3,12,79,,140,117,4,16,3,5,0.2,0.3
2024-06-19T2000,3370A,118.3564,35.0215,临沂市,十里堡居委,,27,7,40,3,16,84,,159,129,6,15,6,9,0.4,0.5
2024-06-19T2000,3496A,118.3604,35.1084,临沂市,南坊新区,,27,19,54,3,11,86,,150,125,8,18,5,7,0.5,0.5
2024-06-19T2000,3860A,118.3920,35.0300,临沂市,皇山花园小区,,27,9,47,8,17,85,,152,126,11,22,7,10,0.7,0.7
2024-06-19T2000,1870A,109.4856,24.3895,柳州市,柳东小学,,,,13,,5,,,44,,,22,,11,,0.7
2024-06-19T2000,1871A,109.4157,24.3277,柳州市,环保监测站,,29,29,26,17,22,49,,64,62,14,15,6,6,0.6,0.7
2024-06-19T2000,1872A,109.389,24.341,柳州市,河西水厂,,18,11,26,11,18,56,,68,66,12,13,5,6,0.3,0.4
2024-06-19T2000,1873A,109.4311,24.2921,柳州市,市四中,,20,20,28,14,12,45,,71,68,20,16,5,5,0.6,0.6
2024-06-19T2000,1874A,109.4006,24.3631,柳州市,市九中,,,24,28,3,12,,,53,52,15,15,4,7,0.6,0.6
2024-06-19T2000,1875A,109.4958,24.3134,柳州市,古亭山,,23,23,24,10,14,21,,69,60,34,17,9,6,0.4,0.4
2024-06-19T2000,3402A,109.5422,24.3996,柳州市,市二中,,15,,22,6,11,48,,66,63,14,16,5,7,0.4,0.4
2024-06-19T2000,2307A,116.5079,31.737,六安市,监测大楼,,24,,15,6,14,75,,117,75,12,9,4,5,0.5,0.4
2024-06-19T2000,2308A,116.4738,31.7643,六安市,皖西学院,,23,11,16,8,12,71,,121,79,17,8,3,4,0.6,0.4
2024-06-19T2000,2309A,116.4996,31.7905,六安市,朝阳厂,,25,,15,9,13,79,,120,76,9,8,7,8,0.5,0.3
2024-06-19T2000,2310A,116.5567,31.7886,六安市,开发区,,21,,18,8,12,65,,106,77,10,12,3,5,0.7,0.6
2024-06-19T2000,2576A,104.8,26.5892,六盘水市,窑上,,,,,,,,,,,,,,,,
2024-06-19T2000,2577A,104.83,26.5917,六盘水市,黄土坡,,36,36,23,17,13,62,,74,74,17,13,9,9,0.6,0.6
2024-06-19T2000,2578A,104.89,26.5939,六盘水市,水钢,,30,30,24,21,16,79,,82,82,7,8,9,10,0.4,0.4
2024-06-19T2000,2579A,104.8475,26.5894,六盘水市,民中,,42,35,20,29,18,70,,78,78,15,13,7,6,0.8,0.7
2024-06-19T2000,2580A,104.9544,26.5506,六盘水市,双水,,35,29,22,24,15,85,,84,84,9,7,8,7,0.3,0.3
2024-06-19T2000,2335A,117.0189,25.1181,龙岩市,龙岩师专,,,,,,,,,,,,,,,,
2024-06-19T2000,2336A,117.0217,25.1033,龙岩市,龙岩市监测站,,11,,20,3,8,33,,50,46,9,12,4,4,0.5,0.5
2024-06-19T2000,2337A,117.0258,25.0661,龙岩市,闽西职业技术学院,,9,8,24,3,8,27,,56,50,10,11,3,3,0.4,0.4
2024-06-19T2000,2338A,117.0196,25.0306,龙岩市,龙岩学院,,,,19,,6,,,29,,,4,,3,,0.4
2024-06-19T2000,2665A,105.0822,33.3261,陇南市,汉王镇固水子,,,,,,,,,,,,,,,,
2024-06-19T2000,2885A,104.9339,33.3826,陇南市,滨江中学,,46,46,40,14,8,80,,92,91,5,8,6,7,0.4,0.4
2024-06-19T2000,3247A,104.955,33.371,陇南市,市总工会,,27,22,25,9,11,85,,94,93,3,5,4,4,0.3,0.3
2024-06-19T2000,2487A,111.9589,27.8901,娄底市,电视发射台,,20,20,19,7,5,24,,53,46,6,5,5,6,0.8,0.8
2024-06-19T2000,2488A,111.9975,27.725,娄底市,市监测站,,17,17,23,3,18,40,,53,50,9,9,4,6,0.6,0.9
2024-06-19T2000,2489A,112.0194,27.7314,娄底市,市委党校,,,,15,,10,34,,48,46,9,8,10,10,0.4,0.9
2024-06-19T2000,2490A,111.9561,27.7569,娄底市,涟钢,,22,22,21,14,12,27,,44,41,18,16,15,15,0.7,0.8
2024-06-19T2000,2491A,111.9892,27.7044,娄底市,市政府,,18,17,13,12,14,41,,58,54,8,6,5,6,0.9,1
2024-06-19T2000,1893A,105.4324,28.9634,泸州市,九狮山,,20,19,25,14,20,46,,57,,23,16,5,5,0.4,0.3
2024-06-19T2000,1894A,105.4427,28.9063,泸州市,小市上码头,,21,21,35,14,27,66,,71,70,18,13,6,5,0.4,0.5
2024-06-19T2000,1895A,105.4241,28.8573,泸州市,兰田宪桥,,,,29,25,29,63,,68,68,,12,4,4,0.2,0.3
2024-06-19T2000,1896A,105.4379,28.8833,泸州市,市环监站,,26,25,42,18,30,62,,63,63,19,15,5,6,0.6,0.6
2024-06-19T2000,3490A,105.3617,28.7703,泸州市,纳溪区环保局,,24,24,29,12,23,71,,72,72,13,20,2,3,0.5,0.6
2024-06-19T2000,2183A,111.1406,37.5211,吕梁市,环保局,臭氧1小时,70,61,62,26,22,176,,209,207,20,32,6,5,0.5,0.5
2024-06-19T2000,2185A,111.1297,37.5136,吕梁市,自来水公司,,,,75,24,26,190,,212,212,15,34,6,6,0.5,0.5
2024-06-19T2000,2867A,111.1283,37.51,吕梁市,马茂庄小学,臭氧1小时,88,57,64,22,22,190,,218,217,21,39,5,5,0.4,0.6
2024-06-19T2000,1812A,112.3931,34.6516,洛阳市,市委党校,臭氧1小时,83,46,49,28,31,186,,194,194,9,13,2,7,0.6,0.7
2024-06-19T2000,1814A,112.4657,34.6871,洛阳市,豫西宾馆,臭氧1小时,74,56,55,25,29,179,,203,202,15,16,3,5,0.6,0.6
2024-06-19T2000,1815A,112.494,34.6886,洛阳市,河南林校,臭氧1小时,53,49,44,30,28,162,,196,194,18,17,4,6,0.5,0.5
2024-06-19T2000,1816A,112.3844,34.623,洛阳市,开发区管委会,臭氧1小时,70,39,45,25,30,176,,184,184,12,15,5,9,0.4,0.5
2024-06-19T2000,1817A,112.4267,34.6258,洛阳市,市委新办公区,臭氧1小时,77,44,42,23,32,181,,188,188,9,13,5,8,0.5,0.5
2024-06-19T2000,3340A,112.6005,34.6326,洛阳市,伊滨,臭氧1小时,68,45,50,24,29,174,,193,193,13,16,6,7,0.4,0.4
2024-06-19T2000,3341A,112.4951,34.6332,洛阳市,中移产业园,臭氧1小时,65,47,47,26,33,172,,188,188,10,14,5,8,0.7,0.7
2024-06-19T2000,3593A,112.5736,34.8993,洛阳市,吉利监测站,颗粒物(PM10),57,64,53,30,29,148,,198,194,25,27,2,3,0.2,0.2
2024-06-19T2000,3635A,112.3677,34.662,洛阳市,河科大西苑校区,臭氧1小时,80,51,52,22,26,184,,193,193,6,13,4,9,0.5,0.5
2024-06-19T2000,3636A,112.4388,34.6781,洛阳市,英才小学,臭氧1小时,55,56,51,28,27,164,,183,182,9,11,2,5,0.6,0.5
2024-06-19T2000,2399A,114.051,33.5699,漯河市,三五一五工厂,颗粒物(PM10),63,76,67,27,30,137,,192,185,26,26,6,8,0.7,0.7
2024-06-19T2000,2400A,114.0055,33.5698,漯河市,漯河大学,颗粒物(PM10),63,75,66,39,37,136,,199,190,30,25,8,9,0.6,0.5
2024-06-19T2000,2401A,114.0138,33.5828,漯河市,市水利局,颗粒物(PM10),59,68,62,31,29,139,,196,189,25,19,8,10,0.7,0.7
2024-06-19T2000,2402A,114.0261,33.5698,漯河市,市广电局,颗粒物(PM10),61,71,64,31,30,145,,194,188,21,23,4,7,0.7,0.6
2024-06-19T2000,3478A,113.9749,33.5664,漯河市,市图书馆,颗粒物(PM10),57,63,60,32,32,139,,198,191,22,17,3,6,0.6,0.5
2024-06-19T2000,3479A,114.0967,33.5906,漯河市,召陵区卫健委,颗粒物(PM10),61,71,72,32,34,143,,192,188,20,27,6,8,0.5,0.6
2024-06-19T2000,1798A,118.5092,31.6837,马鞍山市,湖东路四小,,13,13,21,8,17,22,,77,49,21,13,6,7,0.8,0.7
2024-06-19T2000,1799A,118.5024,31.6449,马鞍山市,开发区,,10,6,27,3,16,29,,74,52,17,15,8,9,0.6,0.5
2024-06-19T2000,1800A,118.5228,31.7231,马鞍山市,慈湖,,18,18,26,10,17,38,,81,58,22,19,6,6,0.8,0.7
2024-06-19T2000,1802A,118.6245,31.7241,马鞍山市,濮塘,,15,10,18,10,13,32,,69,48,15,10,2,2,0.7,0.6
2024-06-19T2000,3633A,118.4918,31.6809,马鞍山市,雨山,,19,19,30,7,13,27,,80,52,21,14,4,5,0.8,0.7
2024-06-19T2000,1686A,111.0286,21.4688,茂名市,电白南海,,31,31,26,14,15,76,,80,79,5,4,4,4,0.5,0.5
2024-06-19T2000,1687A,110.9294,21.6533,茂名市,茂石化七小,,29,29,27,17,16,67,,78,75,9,8,7,7,0.5,0.5
2024-06-19T2000,1688A,110.9107,21.6687,茂名市,健康路,,27,27,26,17,12,75,,84,82,6,6,10,9,0.5,0.4
2024-06-19T2000,1689A,110.8592,21.6828,茂名市,高岭,颗粒物(PM10),52,53,35,22,17,62,,72,71,12,7,6,6,0.6,0.5
2024-06-19T2000,3450A,111.01,21.5165,茂名市,电白水东,,25,22,21,17,12,63,,73,71,13,6,3,3,0.5,0.5
2024-06-19T2000,2539A,104.0308,30.0478,眉山市,黑龙滩水库,,43,,29,30,28,105,,120,120,5,10,5,5,0.3,0.4
2024-06-19T2000,2540A,103.8416,30.0874,眉山市,气象局,,29,29,26,14,27,90,,115,115,15,25,8,8,0.4,0.4
2024-06-19T2000,3137A,103.8578,30.0744,眉山市,市委党校,,29,19,29,9,17,91,,114,112,17,20,6,7,0.4,0.5
2024-06-19T2000,3148A,103.8291,30.0564,眉山市,区人社局,,30,20,29,9,18,93,,118,116,18,22,6,8,0.4,0.4
2024-06-19T2000,1690A,116.1231,24.3284,梅州市,梅江月梅,,,,26,4,8,36,,55,48,1,6,4,5,0.3,0.4
2024-06-19T2000,1691A,116.0797,24.2719,梅州市,梅县新城,,20,20,16,9,8,27,,52,44,15,7,3,3,0.5,0.3
2024-06-19T2000,1692A,116.1248,24.2654,梅州市,环境监控中心,,25,25,26,8,8,13,,47,38,22,13,4,4,0.8,0.7
2024-06-19T2000,3315A,116.1233,24.2991,梅州市,梅龙,,12,12,16,6,7,29,,53,45,6,10,7,7,0.6,0.6
2024-06-19T2000,1878A,104.7778,31.4741,绵阳市,富乐山,,39,34,33,27,27,102,,129,126,5,10,7,8,0.6,0.6
2024-06-19T2000,1879A,104.7563,31.4535,绵阳市,市人大,,33,33,38,21,27,93,,122,120,11,17,4,9,0.4,0.5
2024-06-19T2000,1880A,104.6697,31.4668,绵阳市,高新区自来水公司,,32,24,36,12,20,102,,131,131,10,19,5,7,0.6,0.6
2024-06-19T2000,1881A,104.7287,31.5075,绵阳市,三水厂,,35,35,39,18,29,97,,129,129,14,23,6,7,0.5,0.5
2024-06-19T2000,3491A,104.69,31.5322,绵阳市,西科大附属小学,,31,21,40,15,27,97,,129,129,15,25,5,7,0.6,0.7
2024-06-19T2000,3492A,104.5648,31.5343,绵阳市,安州区旅游局,,39,,28,27,25,103,,123,123,13,17,2,8,0.8,0.6
2024-06-19T2000,1784A,129.61,44.561,牡丹江市,环保大楼,,45,37,22,20,10,142,,178,176,22,15,7,7,0.5,0.4
2024-06-19T2000,1785A,129.6115,44.5782,牡丹江市,文化广场,颗粒物(PM10),68,85,40,33,23,141,,170,170,25,19,8,8,0.7,0.5
2024-06-19T2000,1786A,129.5904,44.5963,牡丹江市,第一医院,颗粒物(PM10),52,53,26,25,19,96,,161,155,34,17,5,5,0.8,0.5
2024-06-19T2000,1787A,129.6364,44.6075,牡丹江市,机车工厂,,47,47,27,21,11,105,,163,159,30,16,8,15,0.6,0.4
2024-06-19T2000,1788A,129.6386,44.5462,牡丹江市,第一中学,颗粒物(PM10),54,58,29,25,10,129,,185,181,30,14,5,4,0.6,0.4
2024-06-19T2000,2531A,105.0703,29.61,内江市,市监测站,,29,,20,20,25,63,,83,80,22,20,5,6,0.6,0.5
2024-06-19T2000,2532A,105.0717,29.5947,内江市,东兴区政府,,26,26,25,12,14,60,,85,82,18,15,10,10,0.8,0.8
2024-06-19T2000,2533A,105.0653,29.5817,内江市,内江二中,,26,26,29,10,19,79,,86,86,11,16,8,8,0.5,0.6
2024-06-19T2000,2534A,105.0406,29.5822,内江市,内江日报社,,22,19,23,11,24,69,,88,87,18,21,9,8,0.6,0.6
2024-06-19T2000,2628A,92.0657,31.4846,那曲市,那曲监测站,,,,13,,8,128,,134,134,5,6,7,6,0.4,0.6
2024-06-19T2000,3128A,92.0506,31.4797,那曲市,那曲会议中心,,41,16,12,9,8,131,,137,137,7,7,3,3,0.5,0.5
2024-06-19T2000,1290A,115.8931,28.6843,南昌市,省外办,,20,17,19,14,18,43,,41,41,11,16,5,5,0.4,0.5
2024-06-19T2000,1291A,115.8886,28.7003,南昌市,省林业公司,,14,12,18,9,13,42,,45,45,16,19,5,5,0.5,0.4
2024-06-19T2000,1292A,115.8126,28.7442,南昌市,林科所,,15,7,13,3,10,46,,47,47,13,23,7,7,0.4,0.6
2024-06-19T2000,1294A,115.8518,28.687,南昌市,建工学校,,20,20,20,11,6,41,,44,44,15,18,6,7,0.5,0.6
2024-06-19T2000,1295A,115.8921,28.6424,南昌市,象湖,,23,,18,16,14,39,,44,44,17,18,5,5,0.6,0.6
2024-06-19T2000,1296A,115.7423,28.7996,南昌市,武术学校,,,20,14,10,17,,,80,,3,5,11,117,0.2,0.6
2024-06-19T2000,1298A,115.9314,28.6842,南昌市,省站,,26,21,15,18,15,50,,53,53,10,13,6,6,0.8,0.8
2024-06-19T2000,3046A,115.9084,28.6062,南昌市,机电学校,,30,30,28,19,15,44,,41,41,9,18,10,9,0.7,0.7
2024-06-19T2000,3690A,115.9721,28.7031,南昌市,外国语学校,,32,32,22,19,14,47,,44,44,15,16,5,6,0.5,0.5
2024-06-19T2000,1905A,106.056,30.8064,南充市,西山风景区,,24,9,21,8,18,75,,66,65,10,11,4,5,0.5,0.6
2024-06-19T2000,1906A,106.0789,30.8023,南充市,南充市委,,25,6,28,3,19,80,,79,79,7,17,5,5,0.4,0.5
2024-06-19T2000,1907A,106.1031,30.8217,南充市,南充炼油厂,,27,6,31,3,18,84,,86,86,6,14,6,7,0.3,0.3
2024-06-19T2000,1908A,106.1064,30.7856,南充市,高坪区监测站,,24,8,30,8,18,74,,82,82,13,15,6,8,0.3,0.4
2024-06-19T2000,1909A,106.0642,30.7636,南充市,嘉陵区环保局,,22,,25,14,22,69,,76,76,11,18,5,5,0.3,0.4
2024-06-19T2000,1910A,106.1087,30.8388,南充市,市环境监测站,,24,,26,12,18,76,,81,81,7,18,6,7,0.4,0.6
2024-06-19T2000,1151A,118.8086,32.1065,南京市,迈皋桥,,20,19,20,14,12,54,,85,80,27,12,4,5,0.6,0.4
2024-06-19T2000,1152A,118.7538,32.0551,南京市,草场门,,19,17,20,9,13,60,,84,78,27,18,3,3,0.8,0.6
2024-06-19T2000,1153A,118.7794,32.0745,南京市,山西路,,22,12,18,12,9,68,,94,91,25,11,4,4,0.5,0.3
2024-06-19T2000,1154A,118.7752,32.0023,南京市,中华门,,18,,14,12,9,51,,72,68,22,12,6,6,0.6,0.5
2024-06-19T2000,1155A,118.8109,32.0309,南京市,瑞金路,,20,19,24,14,13,60,,79,76,16,11,6,6,0.4,0.3
2024-06-19T2000,1156A,118.7997,32.0754,南京市,玄武湖,,22,22,23,11,11,50,,68,64,17,13,3,3,0.6,0.4
2024-06-19T2000,1157A,118.6414,32.0931,南京市,浦口,,19,19,30,11,12,47,,76,68,30,17,5,5,0.4,0.3
2024-06-19T2000,1158A,118.7356,31.9996,南京市,奥体中心,,20,,19,12,14,63,,85,82,22,12,4,6,0.5,0.4
2024-06-19T2000,1159A,118.9125,32.1028,南京市,仙林大学城,,25,17,20,17,12,61,,93,88,29,13,6,6,0.7,0.5
2024-06-19T2000,3422A,118.8436,31.9198,南京市,江宁彩虹桥,,18,15,24,12,14,49,,71,61,27,16,4,4,0.7,0.5
2024-06-19T2000,3423A,119.0138,31.6494,南京市,溧水永阳,,14,,13,3,10,43,,68,53,4,13,4,4,0.4,0.5
2024-06-19T2000,3424A,118.879,31.3302,南京市,高淳老职中,,14,,9,7,6,43,,70,51,6,12,4,6,0.4,0.5
2024-06-19T2000,3427A,118.8554,32.3578,南京市,六合雄州,,45,38,27,31,19,81,,111,108,38,23,5,2,0.8,0.6
2024-06-19T2000,1401A,108.3103,22.7881,南宁市,二十一中,,25,25,25,12,12,73,,77,76,9,8,2,2,0.9,0.8
2024-06-19T2000,1402A,108.3141,22.8528,南宁市,北湖,,38,38,28,15,12,66,,72,70,11,10,2,2,0.7,0.7
2024-06-19T2000,1403A,108.3206,22.8225,南宁市,市监测站,,26,26,21,12,13,67,,73,71,13,10,2,2,0.7,0.7
2024-06-19T2000,1404A,108.3829,22.8037,南宁市,大自然花园,,27,27,23,14,13,76,,76,76,7,7,4,4,0.6,0.6
2024-06-19T2000,1405A,108.4394,22.7904,南宁市,仙葫,,31,31,25,18,16,76,,75,75,11,10,8,5,0.6,0.2
2024-06-19T2000,1406A,108.2397,22.8467,南宁市,区农职院,,,30,26,14,12,70,,74,71,14,17,,5,0.6,0.6
2024-06-19T2000,1407A,108.3275,22.735,南宁市,英华嘉园,,38,38,26,16,13,58,,65,63,20,15,5,5,0.6,0.5
2024-06-19T2000,1408A,108.2257,22.7757,南宁市,沙井镇街道办,,33,32,30,23,18,58,,64,62,16,20,2,2,0.6,0.7
2024-06-19T2000,3401A,108.4834,22.7618,南宁市,红星社区,,26,23,25,18,13,74,,77,77,10,11,5,4,0.6,0.6
2024-06-19T2000,2331A,118.0966,26.6761,南平市,茫荡山,,,,,,,,,,,,,,,,
2024-06-19T2000,2332A,118.1681,26.6369,南平市,南平市监测站,,17,17,19,3,10,35,,57,53,11,11,4,4,0.7,0.7
2024-06-19T2000,2333A,118.1825,26.6489,南平市,南平铝业有限公司,,21,21,20,6,10,36,,55,50,9,10,5,5,0.5,0.6
2024-06-19T2000,2334A,118.1756,26.6272,南平市,南平七中,,20,20,20,6,10,40,,62,58,6,7,4,4,0.6,0.6
2024-06-19T2000,1168A,120.9098,31.9663,南通市,狼山街道,,26,8,9,3,2,10,,70,34,51,21,10,11,0.6,0.5
2024-06-19T2000,1169A,120.86,32.0005,南通市,虹桥,,21,21,20,3,2,33,,67,44,27,20,5,5,0.6,0.6
2024-06-19T2000,1170A,120.87,32.02,南通市,城中,,16,16,19,8,7,34,,70,52,32,20,6,6,0.5,0.5
2024-06-19T2000,1171A,120.94,31.93,南通市,星湖花园,,18,6,4,3,1,28,,65,37,35,26,4,5,0.6,0.6
2024-06-19T2000,1172A,120.81,32.0417,南通市,紫琅学院,,33,6,5,3,1,3,,71,29,66,30,6,6,0.7,0.7
2024-06-19T2000,3291A,121.067,32.062,南通市,通州监测站,,22,22,11,3,1,33,,82,53,27,10,10,10,0.6,0.4
2024-06-19T2000,3432A,120.9348,31.9883,南通市,环境教育馆,,18,7,16,3,4,39,,69,45,36,27,8,8,0.5,0.5
2024-06-19T2000,2404A,112.5224,33.0122,南阳市,瓦房庄,,48,35,44,33,27,107,,133,132,25,21,4,5,0.4,0.3
2024-06-19T2000,2405A,112.5003,32.9735,南阳市,汉画馆,,50,40,52,35,30,81,,132,126,42,25,2,4,0.6,0.7
2024-06-19T2000,2406A,112.5573,33.027,南阳市,气象站,,39,37,45,27,26,110,,131,131,22,21,3,4,0.8,0.7
2024-06-19T2000,2407A,112.5481,32.9689,南阳市,理工学院,细颗粒物(PM2.5),55,44,52,39,31,122,,138,138,15,19,5,6,0.6,0.5
2024-06-19T2000,4008A,112.5234,32.9922,南阳市,卧龙区政府,细颗粒物(PM2.5),53,,46,37,30,98,,128,128,30,24,2,2,0.8,0.8
2024-06-19T2000,1234A,121.8358,29.911,宁波市,区环保大楼,,42,42,15,17,7,10,,77,51,68,22,5,5,0.8,0.7
2024-06-19T2000,1235A,121.56,29.82,宁波市,万里学院,,26,24,14,18,8,26,,72,59,35,13,4,4,0.7,0.6
2024-06-19T2000,1236A,121.713,29.9572,宁波市,龙赛医院,颗粒物(PM10),56,61,28,26,12,19,,68,52,44,12,4,4,0.6,0.4
2024-06-19T2000,1239A,121.633,29.7733,宁波市,钱湖水厂,,22,21,9,15,5,52,,77,58,10,6,4,4,0.5,0.4
2024-06-19T2000,1240A,121.5856,29.8635,宁波市,太古小学,,19,16,13,13,6,28,,69,46,29,11,4,5,0.9,0.7
2024-06-19T2000,1241A,121.524,29.8674,宁波市,市环境监测中心,,25,25,15,9,6,42,,76,61,25,14,4,4,0.8,0.7
2024-06-19T2000,2871A,121.6147,29.9017,宁波市,万里国际学校,,18,14,9,12,7,47,,76,59,17,9,4,4,0.5,0.4
2024-06-19T2000,3710A,121.5594,29.8975,宁波市,白沙活动中心,,22,22,13,14,7,30,,74,53,25,11,8,7,0.6,0.4
2024-06-19T2000,2339A,119.5001,26.6946,宁德市,金涵水库,,,,,,,,,,,,,,,,
2024-06-19T2000,2341A,119.5388,26.6612,宁德市,宁德市监测站,,27,27,29,14,22,56,,100,98,26,15,4,5,0.9,0.8
2024-06-19T2000,3209A,119.5231,26.6562,宁德市,宁德一中,,35,35,30,22,18,46,,105,102,16,10,5,5,1.3,0.9
2024-06-19T2000,2618A,98.8601,25.8567,怒江傈僳族自治州,州监测站,,43,40,33,30,24,86,,82,82,12,13,9,9,0.5,0.5
2024-06-19T2000,2619A,98.8546,25.8417,怒江傈僳族自治州,泸水一中,,44,44,32,25,21,70,,74,74,15,13,5,5,0.4,0.4
2024-06-19T2000,1888A,101.6891,26.571,攀枝花市,弄弄坪,,50,50,57,22,20,80,,115,111,28,29,14,25,0.5,0.7
2024-06-19T2000,1889A,101.5769,26.5928,攀枝花市,河门口,,37,37,34,19,19,76,,116,112,24,22,11,12,1.0,1.2
2024-06-19T2000,1890A,101.7169,26.585,攀枝花市,炳草岗,颗粒物(PM10),51,51,42,26,20,85,,124,119,28,25,11,28,0.6,0.6
2024-06-19T2000,1891A,101.7369,26.5008,攀枝花市,仁和,,42,42,27,25,14,72,,110,103,20,11,8,8,0.4,0.4
2024-06-19T2000,2835A,101.7227,26.567,攀枝花市,四十中小,,37,37,36,20,20,99,,129,124,19,18,15,36,0.3,0.4
2024-06-19T2000,1604A,122.0303,41.1489,盘锦市,开发区,臭氧1小时,53,42,43,12,20,162,,155,155,14,14,5,5,0.3,0.2
2024-06-19T2000,1605A,122.0485,41.0883,盘锦市,兴隆台,,49,24,32,13,23,156,,154,154,19,15,5,5,0.2,0.3
2024-06-19T2000,1606A,121.8297,41.1028,盘锦市,新生街道,臭氧1小时,54,27,34,10,21,163,,162,147,14,12,5,5,0.2,0.2
2024-06-19T2000,1832A,113.3257,33.742,平顶山市,新华旅馆,"颗粒物(PM10),臭氧1小时",55,59,75,37,35,164,,216,210,17,32,7,9,0.6,0.5
2024-06-19T2000,1833A,113.2919,33.737,平顶山市,规划设计院,,50,50,56,35,35,136,,208,200,20,27,6,8,0.8,0.7
2024-06-19T2000,1834A,113.182,33.774,平顶山市,平顶山工学院,,,57,63,29,29,144,,203,196,,26,13,7,0.6,0.6
2024-06-19T2000,3204A,113.3025,33.73,平顶山市,规划局,颗粒物(PM10),56,61,70,33,36,149,,210,204,18,27,5,7,0.5,0.5
2024-06-19T2000,3594A,112.8867,33.9116,平顶山市,石龙区,颗粒物(PM10),55,60,84,28,38,132,,206,199,7,26,5,8,0.5,0.6
2024-06-19T2000,2656A,106.6692,35.5461,平凉市,聚贤嘉苑,,38,31,37,13,15,120,,135,132,19,29,9,9,0.4,0.5
2024-06-19T2000,2657A,106.7021,35.5307,平凉市,博物馆,,39,39,39,14,16,122,,140,137,31,37,26,19,0.3,0.4
2024-06-19T2000,2347A,114.0997,27.5002,萍乡市,武功山,,16,6,4,3,3,49,,50,50,2,2,9,9,0.4,0.4
2024-06-19T2000,2348A,113.8385,27.6434,萍乡市,中医院,颗粒物(PM10),58,66,24,19,16,22,,43,42,13,7,5,9,0.8,0.8
2024-06-19T2000,2349A,113.8493,27.6253,萍乡市,市政府车库,,38,,16,26,18,25,,44,43,15,8,6,12,0.9,0.9
2024-06-19T2000,2350A,113.8676,27.6435,萍乡市,市环保局,,20,20,21,14,14,31,,50,48,11,8,5,10,0.6,0.6
2024-06-19T2000,2351A,113.866,27.6198,萍乡市,安源区政府,,18,14,24,12,13,21,,45,42,8,9,17,14,0.5,0.7
2024-06-19T2000,2319A,119.0141,25.4325,莆田市,荔城区仓后路,,40,40,39,3,17,36,,57,55,16,13,7,7,0.6,0.6
2024-06-19T2000,2320A,119.0015,25.4553,莆田市,莆田市监测站,,20,20,40,3,9,28,,56,49,11,11,8,9,0.6,0.6
2024-06-19T2000,2321A,119.1119,25.4561,莆田市,涵江区六中,,26,26,29,3,11,31,,59,54,18,16,8,8,0.5,0.6
2024-06-19T2000,2322A,119.1013,25.3215,莆田市,秀屿区政府,,22,22,29,3,13,38,,52,49,10,8,9,9,0.4,0.5
2024-06-19T2000,2323A,118.981,25.4792,莆田市,东圳水库,,,,,,,,,,,,,,,,
2024-06-19T2000,2392A,115.0312,35.7636,濮阳市,环保局,臭氧1小时,93,40,44,18,23,194,,210,208,16,17,9,10,0.3,0.3
2024-06-19T2000,2394A,115.0574,35.7609,濮阳市,油田运输公司,臭氧1小时,103,48,49,16,22,205,,221,219,20,17,10,11,0.5,0.5
2024-06-19T2000,2395A,115.0866,35.7754,濮阳市,油田物探公司,臭氧1小时,95,51,49,21,24,196,,220,216,21,15,8,9,0.5,0.5
2024-06-19T2000,3021A,115,35.7668,濮阳市,濮水河管理处,臭氧1小时,65,45,47,18,25,172,,201,197,16,14,7,9,0.4,0.4
2024-06-19T2000,2601A,100.98,22.7633,普洱市,市环保局,,35,,24,24,19,62,,70,70,6,7,10,7,0.4,0.4
2024-06-19T2000,2602A,100.9817,22.8322,普洱市,普洱第二中学,,25,25,26,14,12,62,,71,70,6,9,10,9,0.2,0.4
2024-06-19T2000,2262A,131.0518,45.8751,七台河市,新一中,,35,15,20,8,13,111,,82,82,5,10,10,10,0.7,0.7
2024-06-19T2000,3345A,131.0577,45.7879,七台河市,中波台,,25,,22,6,8,80,,62,62,12,22,7,10,0.3,0.5
2024-06-19T2000,3637A,131.0176,45.7761,七台河市,人民广场,,30,11,27,7,13,94,,66,66,8,20,10,12,0.3,0.5
2024-06-19T2000,3684A,130.8781,45.8222,七台河市,新建矿广场,,26,,34,18,17,75,,66,66,21,29,20,13,0.3,0.3
2024-06-19T2000,1779A,123.9305,47.3636,齐齐哈尔市,安居小区,,24,18,28,16,15,74,,94,94,17,17,7,7,0.4,0.4
2024-06-19T2000,1780A,123.9488,47.3386,齐齐哈尔市,中心广场,颗粒物(PM10),52,54,27,15,9,75,,97,97,19,15,9,10,0.3,0.3
2024-06-19T2000,1781A,123.9483,47.3227,齐齐哈尔市,农牧车辆厂,,29,29,34,17,9,81,,103,102,15,14,8,8,0.2,0.2
2024-06-19T2000,1783A,123.945,47.2988,齐齐哈尔市,市环境监测站,,25,19,23,14,10,79,,99,98,14,14,5,6,0.4,0.3
2024-06-19T2000,3662A,123.6333,47.2075,齐齐哈尔市,富区青少年活动中心,,22,12,25,7,7,70,,104,101,11,13,5,5,0.3,0.3
2024-06-19T2000,2591A,107.9783,26.5747,黔东南苗族侗族自治州,市环境监测站,,30,30,19,19,12,28,,42,42,31,13,3,3,0.8,0.6
2024-06-19T2000,2881A,107.8908,26.5311,黔东南苗族侗族自治州,凯里学院,,20,18,13,14,10,48,,48,48,1,6,3,3,0.3,0.4
2024-06-19T2000,2593A,107.5228,26.2403,黔南布依族苗族自治州,小围寨,,20,14,6,14,7,34,,49,48,3,4,5,4,0.5,0.5
2024-06-19T2000,3538A,107.5175,26.2978,黔南布依族苗族自治州,沙坝,,19,19,6,9,3,36,,42,42,5,4,4,4,0.5,0.5
2024-06-19T2000,2589A,104.9022,25.0925,黔西南布依族苗族自治州,场坝街,,21,9,12,6,6,67,,62,62,7,10,4,3,0.4,0.4
2024-06-19T2000,2590A,104.8811,25.0992,黔西南布依族苗族自治州,坪东大道,,29,29,14,3,7,59,,63,63,8,8,3,3,0.2,0.2
2024-06-19T2000,2502A,108.6236,21.9667,钦州市,市环保站,,29,29,31,3,8,67,,81,80,17,13,6,6,0.5,0.6
2024-06-19T2000,2503A,108.6549,21.9481,钦州市,沙埠小学,,25,25,35,15,18,68,,86,84,14,13,4,4,0.8,0.6
2024-06-19T2000,2504A,108.5989,21.7431,钦州市,港区一小,,45,45,38,17,14,80,,82,82,13,6,6,6,0.6,0.5
2024-06-19T2000,3404A,108.5959,21.9633,钦州市,北职校,,32,32,29,13,13,70,,78,77,10,10,5,6,0.5,0.5
2024-06-19T2000,1042A,119.5134,39.8207,秦皇岛市,北戴河环保局,,49,49,51,12,11,148,,144,144,14,10,3,3,0.2,0.3
2024-06-19T2000,1043A,119.7493,40.0116,秦皇岛市,第一关,臭氧1小时,54,44,48,32,18,163,,150,150,8,12,3,2,0.2,0.2
2024-06-19T2000,1044A,119.5897,39.9499,秦皇岛市,监测站,颗粒物(PM10),51,52,52,17,15,147,,143,143,15,6,2,2,0.3,0.4
2024-06-19T2000,1046A,119.5251,39.9041,秦皇岛市,建设大厦,,48,48,49,15,12,153,,145,145,14,16,3,3,0.2,0.2
2024-06-19T2000,3132A,119.610547,39.943889,秦皇岛市,文明里,颗粒物(PM10),54,58,51,26,20,152,,144,144,8,7,2,3,0.4,0.4
2024-06-19T2000,1307A,120.6659,36.2403,青岛市,仰口,,31,14,20,12,10,99,,115,97,1,4,5,4,0.2,0.2
2024-06-19T2000,1310A,120.4134,36.0658,青岛市,市南区东部子站,,30,14,14,3,4,95,,106,105,8,6,8,8,0.4,0.4
2024-06-19T2000,1311A,120.3664,36.1032,青岛市,四方区子站,,34,19,18,7,10,106,,109,109,10,13,10,10,0.4,0.4
2024-06-19T2000,1312A,120.2994,36.054,青岛市,市南区西部子站,,34,17,16,7,7,107,,112,112,6,9,7,8,0.4,0.4
2024-06-19T2000,1313A,120.4581,36.0858,青岛市,崂山区子站,,,,12,24,7,103,,110,108,,9,,9,,0.4
2024-06-19T2000,1314A,120.1983,35.9608,青岛市,黄岛区子站,,36,12,16,10,8,115,,108,108,7,7,6,6,0.4,0.4
2024-06-19T2000,1315A,120.3999,36.3083,青岛市,城阳区子站,,34,17,16,12,9,107,,117,114,12,13,8,7,0.5,0.4
2024-06-19T2000,1966A,120.0405,35.8735,青岛市,黄岛区4号,,35,12,15,3,6,111,,110,110,6,7,8,8,0.4,0.4
2024-06-19T2000,3362A,120.5014,36.4034,青岛市,即墨2号,,35,11,15,8,8,111,,128,118,7,9,6,6,0.4,0.4
2024-06-19T2000,3642A,120.3503,36.0736,青岛市,市北区南部,,33,21,17,9,6,103,,111,110,12,9,7,7,0.6,0.6
2024-06-19T2000,3643A,120.3948,36.1805,青岛市,李沧区北部,,35,,16,17,10,111,,116,116,17,16,9,9,0.4,0.4
2024-06-19T2000,1702A,113.0426,23.691,清远市,环保大楼,,28,28,27,15,14,79,,116,115,17,18,5,8,0.6,0.6
2024-06-19T2000,1703A,113.0208,23.7106,清远市,凤城街办,,34,34,32,12,16,74,,110,110,15,15,5,4,0.5,0.5
2024-06-19T2000,3025A,113.0477,23.6344,清远市,技师学院,,36,36,37,15,20,102,,126,126,16,24,4,4,0.5,0.6
2024-06-19T2000,3318A,112.9903,23.7403,清远市,清新太和,,34,34,31,12,12,71,,103,103,19,18,6,4,0.5,0.5
2024-06-19T2000,3455A,113.076,23.7198,清远市,清城东城,,45,45,33,21,14,85,,115,115,15,13,5,5,0.6,0.6
2024-06-19T2000,2661A,107.6325,35.7357,庆阳市,庆阳五中,,49,36,32,14,15,156,,153,153,12,10,2,3,0.4,0.3
2024-06-19T2000,2662A,107.6364,35.7067,庆阳市,市环保局,,48,41,28,13,13,153,,153,153,10,6,5,6,0.4,0.4
2024-06-19T2000,1916A,103.7897,25.5035,曲靖市,环境监测站,,34,34,30,3,15,88,,94,94,10,9,2,3,0.7,0.7
2024-06-19T2000,1917A,103.8,25.5364,曲靖市,烟厂办公区,,29,27,26,14,15,92,,98,98,8,9,3,4,0.5,0.5
2024-06-19T2000,3376A,103.7947,25.462,曲靖市,南苑二区,,30,18,23,12,15,95,,101,101,7,9,4,4,0.5,0.6
2024-06-19T2000,3377A,103.7444,25.5261,曲靖市,曲靖师范学院,,37,37,25,14,16,105,,106,106,7,9,4,5,0.6,0.6
2024-06-19T2000,1264A,118.8692,28.9398,衢州市,环保大楼,,46,46,25,32,18,39,,56,56,32,26,4,4,0.5,0.5
2024-06-19T2000,1265A,118.8709,28.9666,衢州市,实验学校,细颗粒物(PM2.5),52,50,29,36,20,33,,55,54,33,22,4,7,0.5,0.4
2024-06-19T2000,1266A,118.8621,28.9808,衢州市,衢州学院,细颗粒物(PM2.5),64,,23,46,24,29,,53,52,33,24,3,3,0.6,0.5
2024-06-19T2000,1611A,118.5819,24.9117,泉州市,涂山街,,20,20,18,6,6,29,,46,41,17,14,3,3,0.5,0.5
2024-06-19T2000,1612A,118.5972,24.8978,泉州市,津头埔,,,31,19,12,8,28,,44,40,,17,2,2,,0.5
2024-06-19T2000,1613A,118.6663,24.9424,泉州市,万安,,22,22,16,9,8,30,,46,43,10,12,2,2,0.3,0.3
2024-06-19T2000,1614A,118.6117,24.9604,泉州市,清源山,,,,,,,,,,,,,,,,
2024-06-19T2000,3529A,118.6333,24.9264,泉州市,城华南路,,16,16,15,6,6,24,,43,38,18,17,2,2,0.4,0.4
2024-06-19T2000,2626A,88.8876,29.2718,日喀则市,日喀则监测站,,42,6,15,3,5,132,,132,132,6,6,6,5,0.5,0.6
2024-06-19T2000,3726A,88.8781,29.2426,日喀则市,林业技术推广中心,,42,14,18,3,4,132,,131,131,10,8,6,4,0.5,0.5
2024-06-19T2000,1659A,119.471,35.4209,日照市,监测站,,40,17,22,10,10,126,,112,112,10,16,9,9,0.2,0.2
2024-06-19T2000,1660A,119.523,35.4216,日照市,市政府广场,,40,19,20,3,6,126,,113,110,5,7,9,10,0.4,0.4
2024-06-19T2000,1661A,119.5587,35.4044,日照市,港务局,,43,19,19,3,5,136,,116,116,3,7,7,8,0.4,0.4
2024-06-19T2000,3507A,119.5328,35.4625,日照市,职业技术学院,,40,12,16,3,7,126,,112,111,7,8,7,8,0.4,0.5
2024-06-19T2000,3604A,119.3266,35.1044,日照市,岚山环保分局,,37,12,30,3,8,116,,108,104,11,14,6,7,0.4,0.4
2024-06-19T2000,1835A,111.1922,34.7752,三门峡市,市政府,臭氧1小时,53,49,36,3,15,162,,144,144,18,29,11,10,0.6,0.4
2024-06-19T2000,1836A,111.1587,34.7942,三门峡市,开发区,臭氧1小时,79,55,37,26,20,183,,162,162,24,20,12,11,0.8,0.7
2024-06-19T2000,1838A,111.143,34.7955,三门峡市,风景区,,,,,,,,,,,,,,,,
2024-06-19T2000,3039A,111.1911,34.7829,三门峡市,三门峡市第一小学,臭氧1小时,69,46,37,24,15,175,,155,155,13,19,8,9,0.7,0.6
2024-06-19T2000,3598A,111.1,34.7167,三门峡市,富达温泉假日酒店,臭氧1小时,63,54,37,27,20,170,,143,143,12,15,12,11,0.6,0.5
2024-06-19T2000,2324A,117.6211,26.2625,三明市,三钢,,32,32,30,16,13,20,,59,48,24,16,7,11,0.8,1.3
2024-06-19T2000,2325A,117.635,26.2714,三明市,三明二中,,19,19,28,8,14,19,,66,55,25,13,5,7,0.8,0.9
2024-06-19T2000,2326A,117.6028,26.2378,三明市,三元区政府,,27,27,29,14,10,16,,64,50,21,14,2,4,0.5,0.5
2024-06-19T2000,2327A,117.7275,26.3108,三明市,洋溪,,,,,,,,,,,,,,,,
2024-06-19T2000,1876A,109.5078,18.2489,三亚市,河东子站,,25,25,21,14,11,70,,84,78,3,4,4,3,0.3,0.4
2024-06-19T2000,1877A,109.4964,18.2681,三亚市,河西子站,,23,21,21,15,14,72,,81,77,3,6,1,1,0.2,0.2
2024-06-19T2000,3540A,109.7348,18.3443,三亚市,君悦子站,,25,25,23,10,10,72,,79,75,4,7,2,2,0.2,0.3
2024-06-19T2000,2624A,91.7608,29.2313,山南市,山南监测站,,36,,8,7,5,113,,119,119,6,6,4,4,0.4,0.3
2024-06-19T2000,2625A,91.7706,29.2436,山南市,山南人民医院,颗粒物(PM10),68,85,26,16,11,102,,114,114,18,10,6,6,0.5,0.4
2024-06-19T2000,1674A,116.6794,23.3667,汕头市,金平子站,,,,11,6,5,35,,42,42,10,9,2,2,0.7,0.7
2024-06-19T2000,1675A,116.7244,23.3633,汕头市,龙湖子站,,10,8,13,3,5,29,,34,34,6,10,5,5,0.6,0.6
2024-06-19T2000,1676A,116.7258,23.2775,汕头市,濠江子站,,18,18,17,7,6,35,,40,38,8,3,5,4,0.8,0.7
2024-06-19T2000,1677A,116.7519,23.4714,汕头市,澄海子站,,25,25,16,9,8,20,,32,30,23,13,6,6,0.8,0.7
2024-06-19T2000,1678A,116.6092,23.2539,汕头市,潮阳子站,,19,19,14,3,5,32,,43,41,8,8,4,4,0.5,0.4
2024-06-19T2000,3444A,116.454,23.2684,汕头市,潮南峡山,,22,22,17,8,8,21,,36,32,14,9,4,4,0.5,0.5
2024-06-19T2000,3624A,116.4069,23.2533,汕头市,潮南子站,,19,19,17,10,7,25,,39,34,11,6,8,6,0.8,0.7
2024-06-19T2000,1693A,115.3653,22.775,汕尾市,市环保局,,12,,22,6,6,38,,45,43,3,3,4,4,0.5,0.5
2024-06-19T2000,1694A,115.3706,22.7898,汕尾市,市政府,,19,19,13,3,5,43,,48,47,2,2,6,6,0.5,0.5
2024-06-19T2000,1695A,115.3622,22.7925,汕尾市,新城中学,,18,18,15,3,4,44,,50,49,4,3,4,4,0.5,0.4
2024-06-19T2000,2645A,109.9154,33.8715,商洛市,监测站,,33,31,40,22,22,103,,124,117,4,12,6,8,0.5,0.6
2024-06-19T2000,3045A,109.9643,33.8471,商洛市,商州区中学,,36,33,44,25,23,104,,123,117,5,16,9,12,0.7,0.8
2024-06-19T2000,2408A,115.6702,34.4285,商丘市,环境监测站,臭氧1小时,105,48,52,24,24,210,,237,235,17,16,10,11,0.4,0.4
2024-06-19T2000,2409A,115.6458,34.4045,商丘市,粮食局,臭氧1小时,103,55,52,22,24,205,,222,222,16,13,6,7,0.5,0.4
2024-06-19T2000,2410A,115.6293,34.3948,商丘市,睢阳区环保局,臭氧1小时,106,59,55,22,24,212,,235,232,17,14,7,8,0.4,0.4
2024-06-19T2000,3171A,115.6071,34.4465,商丘市,梁园区档案局,臭氧1小时,110,48,50,26,25,220,,238,237,14,14,9,10,0.6,0.5
2024-06-19T2000,1141A,121.4,31.238,上海市,普陀,,40,40,16,26,12,59,,82,56,28,18,7,5,0.5,0.4
2024-06-19T2000,1142A,121.478,31.2036,上海市,十五厂,,48,48,17,28,10,58,,82,57,32,22,7,6,0.8,0.6
2024-06-19T2000,1143A,121.467,31.3008,上海市,虹口,,46,46,17,24,10,59,,80,55,28,19,5,4,0.6,0.5
