timepoint,stationcode,longitude,latitude,area,positionname,primarypollutant,aqi,pm10,pm10_24h,pm2_5,pm2_5_24h,o3,o3_24h,o3_8h,o3_8h_24h,no2,no2_24h,so2,so2_24h,co,co_24h
2024-06-19T1200,2566A,102.1879,31.914,阿坝藏族羌族自治州,州农科所,,,28,20,3,9,37,,23,23,7,11,3,3,,
2024-06-19T1200,2568A,102.2502,31.8896,阿坝藏族羌族自治州,马师校,,23,13,12,10,12,71,,42,42,10,12,5,5,0.4,0.3
2024-06-19T1200,3994A,102.2165,31.9024,阿坝藏族羌族自治州,马尔康中学西区,,24,9,15,6,11,75,,45,45,4,4,6,6,0.4,0.3
2024-06-19T1200,2695A,80.292,41.1694,阿克苏地区,电视台,颗粒物(PM10),57,63,59,16,20,116,,68,68,10,19,5,5,0.4,0.5
2024-06-19T1200,2696A,80.2613,41.1551,阿克苏地区,艺术中心,颗粒物(PM10),57,63,62,10,21,97,,46,46,22,32,5,4,0.5,0.6
2024-06-19T1200,2204A,105.6467,38.8363,阿拉善盟,西城区西花园,,45,35,60,21,20,143,,136,131,9,10,8,9,0.5,0.5
2024-06-19T1200,2205A,105.6985,38.8411,阿拉善盟,蒙二幼,颗粒物(PM10),82,113,57,16,21,139,,132,129,6,7,11,12,0.5,0.5
2024-06-19T1200,2206A,105.724,38.8516,阿拉善盟,环保局新楼,,47,35,60,13,21,149,,140,139,5,6,10,10,0.4,0.4
2024-06-19T1200,2708A,88.1264,47.8517,阿勒泰地区,市站,,29,24,30,11,9,90,,56,56,12,13,6,6,0.3,0.6
2024-06-19T1200,2630A,80.1161,32.5,阿里地区,阿里监测站,,45,16,26,8,10,144,,134,128,5,8,6,5,0.4,0.4
2024-06-19T1200,3192A,80.0903,32.5028,阿里地区,阿里藏医院,,46,30,20,3,8,145,,141,134,5,4,6,6,0.4,0.4
2024-06-19T1200,2642A,109.0318,32.6537,安康市,香溪洞,,33,33,24,13,13,70,,43,42,3,5,6,6,0.6,0.6
2024-06-19T1200,2643A,109.0281,32.6939,安康市,安康市监测站,,33,33,31,15,14,86,,51,51,8,8,8,8,0.6,0.6
2024-06-19T1200,2644A,109.0072,32.6975,安康市,汉滨区检察院,,30,29,26,20,17,93,,49,49,8,7,7,7,0.6,0.5
2024-06-19T1200,2291A,117.0809,30.5177,安庆市,环科院,,16,6,19,3,11,50,,40,40,9,15,4,5,0.5,0.5
2024-06-19T1200,2292A,117.0331,30.5119,安庆市,马山宾馆,,,,21,4,14,54,,40,40,,26,6,8,,0.6
2024-06-19T1200,2294A,116.9896,30.6145,安庆市,安庆大学,,30,30,27,3,17,53,,37,37,14,14,8,8,0.3,0.3
2024-06-19T1200,3173A,117.0598,30.5351,安庆市,市人大,,18,,16,3,13,55,,40,40,8,16,5,6,0.3,0.4
2024-06-19T1200,3122A,105.9606,26.2611,安顺市,伍家关,,,,,,,,,,,,,,,,
2024-06-19T1200,3123A,105.9408,26.2431,安顺市,凤凰山,,19,11,18,7,12,59,,52,52,5,8,5,9,1.0,1
2024-06-19T1200,3124A,105.9439,26.2564,安顺市,金钟山,,20,14,17,6,15,62,,55,55,4,8,4,8,0.7,0.7
2024-06-19T1200,3125A,105.8983,26.2481,安顺市,娄家坡,,19,16,24,10,13,59,,54,54,3,8,4,8,0.9,0.9
2024-06-19T1200,1818A,114.4839,36.0621,安阳市,棉研所,,,,,,,,,,,,,,,,
2024-06-19T1200,1819A,114.3551,36.1017,安阳市,红庙街,臭氧1小时,106,63,54,17,24,212,,145,145,2,6,4,4,,0.6
2024-06-19T1200,1820A,114.361,36.0681,安阳市,银杏小区,臭氧1小时,103,48,51,20,21,206,,140,140,11,17,8,9,0.7,0.8
2024-06-19T1200,3141A,114.3922,36.0878,安阳市,信访局,臭氧1小时,105,55,59,19,20,209,,145,145,2,7,7,7,0.6,0.7
2024-06-19T1200,3669A,114.4705,36.0637,安阳市,左辅环卫站,臭氧1小时,106,43,50,20,27,212,,143,143,6,12,3,4,0.4,0.4
2024-06-19T1200,3703A,114.2917,36.0949,安阳市,安钢职工学校,臭氧1小时,97,57,64,16,27,197,,129,129,5,12,5,6,0.5,0.6
2024-06-19T1200,1748A,123.044,41.1196,鞍山市,深沟寺,,46,22,36,3,17,147,,170,146,11,14,9,12,0.2,0.6
2024-06-19T1200,1749A,123.011,41.0931,鞍山市,太阳城,,46,24,40,10,19,145,,170,145,12,13,7,10,0.4,0.8
2024-06-19T1200,1750A,123.0485,41.1442,鞍山市,太平,,45,21,35,6,17,142,,165,142,11,12,6,8,0.3,0.7
2024-06-19T1200,1751A,122.9642,41.0971,鞍山市,铁西三道街,,49,34,49,17,24,156,,171,149,20,18,7,8,0.3,0.7
2024-06-19T1200,1752A,122.9341,41.0833,鞍山市,铁西工业园区,臭氧1小时,54,24,42,7,21,163,,167,150,16,16,9,10,0.3,0.7
2024-06-19T1200,1753A,123.022,41.0821,鞍山市,明达新区,,42,29,42,10,19,133,,166,137,10,11,8,10,0.4,0.7
2024-06-19T1200,1754A,123.1289,41.0228,鞍山市,千山,,,,,,,,,,,,,,,,
2024-06-19T1200,2195A,107.4212,40.761,巴彦淖尔市,附二中,颗粒物(PM10),51,51,63,27,32,122,,96,85,8,13,3,6,0.5,0.6
2024-06-19T1200,2196A,107.37,40.7372,巴彦淖尔市,市环保大楼,颗粒物(PM10),52,54,71,9,24,122,,89,87,8,10,4,4,0.4,0.5
2024-06-19T1200,1956A,86.1472,41.7538,巴音郭楞蒙古自治州,孔雀公园,颗粒物(PM10),127,203,534,41,113,95,,76,68,6,10,2,2,0.2,0.2
2024-06-19T1200,1957A,86.1972,41.7166,巴音郭楞蒙古自治州,棉纺厂,颗粒物(PM10),96,142,346,56,87,110,,87,82,10,9,4,4,0.2,0.2
2024-06-19T1200,1958A,86.2357,41.7173,巴音郭楞蒙古自治州,经济开发区,颗粒物(PM10),111,171,350,48,72,114,,91,86,12,6,2,2,0.2,0.2
2024-06-19T1200,2914A,106.7677,31.8794,巴中市,苏山坪,,23,23,18,13,11,54,,66,59,9,8,4,4,0.7,0.7
2024-06-19T1200,3182A,106.7656,31.8545,巴中市,丽阳花园,,23,20,19,16,13,67,,44,44,12,15,6,6,0.6,0.6
2024-06-19T1200,3183A,106.7418,31.8654,巴中市,圣泉水务公司,,28,24,19,19,13,63,,46,46,14,18,4,5,0.6,0.6
2024-06-19T1200,3616A,106.7616,31.8344,巴中市,市中心医院,,20,19,18,13,12,64,,42,42,10,12,5,5,0.5,0.5
2024-06-19T1200,2235A,122.7911,45.6077,白城市,洮北区环保局,细颗粒物(PM2.5),92,,32,68,24,148,,114,114,14,13,5,3,0.5,0.2
2024-06-19T1200,2236A,122.8738,45.5725,白城市,市环保局,,,,32,,16,,,94,94,,14,,6,,0.3
2024-06-19T1200,2231A,126.4219,41.9171,白山市,喜丰,,,44,47,13,22,188,,77,77,,19,,11,0.8,1.1
2024-06-19T1200,2232A,126.4077,41.9419,白山市,环保局,臭氧1小时,70,44,46,20,26,176,,86,86,5,17,11,11,0.8,0.9
2024-06-19T1200,2647A,104.1724,36.5446,白银市,第三小学,颗粒物(PM10),77,103,120,32,41,131,,86,86,10,27,48,29,0.5,0.7
2024-06-19T1200,2648A,104.1465,36.5482,白银市,动力公司,颗粒物(PM10),69,88,101,27,32,134,,84,84,10,17,57,22,0.5,0.4
2024-06-19T1200,2512A,106.6103,23.9011,百色市,市监测站,,46,46,43,23,23,85,,40,40,9,14,10,19,0.9,0.9
2024-06-19T1200,2513A,106.6538,23.8859,百色市,市中心血站,,46,46,42,28,25,88,,50,50,10,12,10,14,0.8,0.9
2024-06-19T1200,3406A,106.6085,23.8798,百色市,祈福高中,颗粒物(PM10),55,59,48,33,26,79,,37,37,12,16,19,20,1.0,1
2024-06-19T1200,2270A,117.396,32.939,蚌埠市,工人疗养院,臭氧1小时,55,31,48,15,19,164,,124,124,7,17,9,11,0.4,0.4
2024-06-19T1200,2271A,117.3605,32.9427,蚌埠市,百货大楼,臭氧1小时,65,36,47,18,22,172,,132,132,7,15,6,7,0.5,0.5
2024-06-19T1200,2273A,117.4185,32.8911,蚌埠市,蚌埠学院,臭氧1小时,53,34,43,22,21,162,,125,125,5,12,6,7,0.5,0.5
2024-06-19T1200,2274A,117.3533,32.9673,蚌埠市,淮上区政府,臭氧1小时,70,36,47,26,26,176,,132,132,8,14,8,8,0.4,0.4
2024-06-19T1200,2275A,117.3145,32.8977,蚌埠市,高新区,臭氧1小时,64,39,44,22,21,171,,137,137,5,12,6,7,0.5,0.4
2024-06-19T1200,3715A,117.3092,32.9314,蚌埠市,蚌埠田家炳中学,臭氧1小时,65,36,46,17,21,172,,139,139,3,10,6,7,0.4,0.3
2024-06-19T1200,1585A,109.8756,40.6532,包头市,市环境监测站,,35,32,40,24,19,103,,86,86,26,31,12,16,0.7,0.7
2024-06-19T1200,1587A,109.9991,40.5842,包头市,包头八中,,35,35,38,19,28,107,,94,94,20,27,13,30,0.5,0.7
2024-06-19T1200,1588A,109.8538,40.6821,包头市,青山宾馆,,33,,32,18,20,103,,77,77,27,29,12,14,0.7,0.7
2024-06-19T1200,1589A,109.8642,40.6288,包头市,惠龙物流,,35,28,34,18,17,109,,99,99,25,25,17,21,0.7,0.7
2024-06-19T1200,1590A,110.0377,40.5546,包头市,东河鸿龙湾,,32,30,34,15,15,100,,90,90,16,20,13,15,0.6,0.6
2024-06-19T1200,3283A,109.9154,40.5685,包头市,滨河大厦,,,24,33,21,16,96,,68,,,24,12,12,,0.7
2024-06-19T1200,3419A,109.9447,40.6261,包头市,包头市委党校,颗粒物(PM10),57,64,40,11,18,106,,84,84,22,31,14,17,0.6,0.6
2024-06-19T1200,3683A,109.8331,40.6576,包头市,昆区政府,,35,,33,24,23,110,,98,98,26,28,12,18,0.8,0.8
2024-06-19T1200,1930A,107.185,34.3063,宝鸡市,庙沟村,颗粒物(PM10),62,73,20,25,12,99,,56,55,17,8,8,9,0.6,0.4
2024-06-19T1200,1931A,107.0708,34.3017,宝鸡市,竹园沟,,,30,17,22,12,121,,61,61,15,15,,7,,0.4
2024-06-19T1200,1932A,107.1906,34.3672,宝鸡市,三陆医院,细颗粒物(PM2.5),60,63,41,43,21,126,,45,45,28,28,10,10,0.7,0.6
2024-06-19T1200,1933A,107.1431,34.3547,宝鸡市,监测站,,48,48,25,33,15,121,,50,50,25,21,11,9,0.6,0.4
2024-06-19T1200,1934A,107.1186,34.3739,宝鸡市,技工学校,颗粒物(PM10),61,71,28,22,15,121,,59,59,28,17,10,8,0.7,0.5
2024-06-19T1200,1935A,107.3906,34.3528,宝鸡市,陈仓区环保局家属楼,,44,44,32,19,17,127,,57,57,18,22,7,6,0.4,0.5
2024-06-19T1200,1936A,107.2058,34.3497,宝鸡市,文理学院,,49,49,31,19,7,129,,53,53,24,21,9,8,0.6,0.5
2024-06-19T1200,1937A,107.2386,34.3622,宝鸡市,三迪小学,细颗粒物(PM2.5),70,66,35,51,21,126,,55,55,26,24,8,8,0.6,0.5
2024-06-19T1200,1051A,115.493,38.8632,保定市,游泳馆,臭氧1小时,105,77,75,30,26,210,,147,147,3,7,11,9,0.3,0.2
2024-06-19T1200,1052A,115.5213,38.8959,保定市,华电二区,臭氧1小时,107,42,62,14,31,214,,150,150,8,12,4,5,0.5,0.3
2024-06-19T1200,1053A,115.4713,38.9108,保定市,接待中心,臭氧1小时,109,37,46,33,33,217,,148,148,6,6,7,4,0.4,0.4
2024-06-19T1200,1054A,115.4612,38.8416,保定市,地表水厂,臭氧1小时,108,44,55,29,31,215,,146,146,7,12,4,3,0.7,0.6
2024-06-19T1200,3581A,115.31981,38.95208,保定市,满城区生态环境分局,臭氧1小时,109,75,80,29,27,218,,144,144,5,9,6,4,0.3,0.3
2024-06-19T1200,3582A,115.47694,38.76408,保定市,清苑区第二中学,臭氧1小时,108,85,66,45,34,215,,143,143,,10,7,6,0.4,0.4
2024-06-19T1200,3583A,115.62909,39.02311,保定市,徐水物探局,臭氧1小时,113,79,78,17,22,226,,156,156,7,11,4,3,0.3,0.3
2024-06-19T1200,4004A,115.4202,38.8656,保定市,双鹰农机,臭氧1小时,112,52,62,29,29,223,,153,153,4,7,3,2,0.2,0.2
2024-06-19T1200,4034A,115.5150,38.8590,保定市,植保所站,臭氧1小时,109,80,66,28,31,217,,153,153,6,13,8,5,0.6,0.6
2024-06-19T1200,2594A,99.1678,25.1081,保山市,市环境监测站,颗粒物(PM10),51,51,39,14,15,85,,62,62,8,7,6,5,0.6,0.6
2024-06-19T1200,2595A,99.1711,25.1328,保山市,市环保局,颗粒物(PM10),55,60,45,23,13,94,,71,71,5,5,6,6,0.5,0.5
2024-06-19T1200,1866A,109.2262,21.588,北海市,牛尾岭水库,,,,,,,,,,,,,,,,
2024-06-19T1200,1867A,109.1436,21.4086,北海市,海滩公园,,27,23,38,3,5,86,,67,63,5,4,3,3,0.7,0.6
2024-06-19T1200,1868A,109.0981,21.4661,北海市,新市环保局,,28,24,24,12,8,88,,68,66,5,6,4,4,0.7,0.7
2024-06-19T1200,1869A,109.1778,21.5233,北海市,北海工业园,,28,28,29,12,13,86,,60,60,4,7,4,4,0.5,0.5
2024-06-19T1200,3400A,109.1911,21.4415,北海市,龙潭自来水厂,,27,24,23,14,14,86,,61,59,4,4,5,5,0.5,0.5
2024-06-19T1200,1001A,116.3621,39.8784,北京市,万寿西宫,臭氧1小时,109,70,77,32,33,217,,146,146,20,25,3,2,0.5,0.5
2024-06-19T1200,1002A,116.2202,40.2915,北京市,定陵,臭氧1小时,115,73,75,47,34,230,,125,125,25,19,1,2,0.7,0.6
2024-06-19T1200,1003A,116.4174,39.9289,北京市,东四,臭氧1小时,107,74,74,34,31,213,,149,149,18,21,6,5,0.6,0.5
2024-06-19T1200,1004A,116.4072,39.8863,北京市,天坛,臭氧1小时,105,66,59,34,29,209,,136,136,15,18,3,2,0.5,0.4
2024-06-19T1200,1005A,116.462,39.9365,北京市,农展馆,臭氧1小时,106,75,71,32,29,211,,152,152,23,23,8,6,0.7,0.6
2024-06-19T1200,1006A,116.3392,39.9295,北京市,官园,臭氧1小时,110,80,82,26,33,219,,150,150,18,19,6,5,0.6,0.5
2024-06-19T1200,1007A,116.2878,39.9611,北京市,海淀万柳,臭氧1小时,93,63,83,36,34,194,,123,123,14,22,7,6,0.5,0.4
2024-06-19T1200,1008A,116.6636,40.135,北京市,顺义新城,臭氧1小时,101,46,134,26,40,202,,114,114,17,28,4,3,0.6,0.7
2024-06-19T1200,1009A,116.6275,40.3275,北京市,怀柔镇,臭氧1小时,117,84,110,42,65,233,,138,138,18,17,6,6,0.6,0.7
2024-06-19T1200,1010A,116.2296,40.217,北京市,昌平镇,臭氧1小时,105,100,84,49,39,210,,124,124,25,21,4,3,0.7,0.5
2024-06-19T1200,1011A,116.3966,39.9821,北京市,奥体中心,臭氧1小时,87,76,71,32,30,189,,132,132,18,19,3,2,0.6,0.5
2024-06-19T1200,1012A,116.184,39.9136,北京市,古城,臭氧1小时,104,79,100,33,37,207,,124,124,17,28,4,3,0.4,0.4
2024-06-19T1200,3281A,115.9718,40.4529,北京市,延庆夏都,臭氧1小时,93,55,58,29,27,194,,115,115,7,12,1,2,0.5,0.5
2024-06-19T1200,3417A,117.0709,40.1465,北京市,平谷新城,臭氧1小时,74,77,108,43,65,179,,134,134,18,18,1,2,0.6,0.6
2024-06-19T1200,3418A,116.8336,40.4095,北京市,密云新城,臭氧1小时,116,77,100,45,56,231,,134,134,15,16,4,2,0.6,0.6
2024-06-19T1200,3671A,116.088,39.9726,北京市,门头沟三家店,,,,,,,,,,,,,,,,
2024-06-19T1200,3672A,116.1541,39.8204,北京市,丰台云岗,臭氧1小时,102,77,83,42,35,203,,112,112,13,27,4,3,0.6,0.5
2024-06-19T1200,3673A,116.6804,39.9081,北京市,通州东关,臭氧1小时,90,59,94,28,40,192,,114,114,13,28,4,3,0.6,0.5
2024-06-19T1200,3674A,115.9577,39.7603,北京市,房山燕山,臭氧1小时,89,73,82,24,34,191,,122,122,11,14,2,2,0.5,0.5
2024-06-19T1200,3675A,116.4672,39.7733,北京市,大兴旧宫,臭氧1小时,79,67,70,27,30,183,,123,123,16,18,2,2,0.5,0.5
2024-06-19T1200,3694A,115.986,40.4563,北京市,延庆石河营,臭氧1小时,85,56,56,27,28,188,,108,108,8,12,1,2,0.4,0.4
2024-06-19T1200,3695A,116.6151,40.3053,北京市,怀柔新城,臭氧1小时,108,66,107,36,66,216,,129,129,20,20,3,3,,0.8
2024-06-19T1200,3696A,116.2545,39.8768,北京市,丰台小屯,臭氧1小时,85,73,80,32,33,188,,99,99,12,27,2,2,0.5,0.5
2024-06-19T1200,3697A,116.84,40.3844,北京市,密云镇,臭氧1小时,109,56,100,40,57,217,,116,116,13,23,4,3,0.6,0.6
2024-06-19T1200,1761A,123.8275,41.3064,本溪市,大峪,,45,20,49,13,27,142,,144,144,4,10,10,10,0.4,0.6
2024-06-19T1200,1762A,123.7567,41.3325,本溪市,溪湖,,45,24,54,8,29,142,,139,138,9,21,15,15,0.5,1.2
2024-06-19T1200,1763A,123.7169,41.3094,本溪市,彩屯,,40,36,54,12,34,127,,123,121,24,29,22,17,1.6,2.3
2024-06-19T1200,1764A,123.7669,41.2864,本溪市,东明,,,40,52,9,24,142,,172,162,,13,9,8,0.5,0.6
2024-06-19T1200,1765A,123.7992,41.2664,本溪市,新立屯,,,,45,,23,146,,170,161,6,11,7,11,,0.8
2024-06-19T1200,1766A,123.8142,41.3472,本溪市,威宁,,45,31,58,7,30,142,,120,120,8,19,8,9,0.4,0.7
2024-06-19T1200,2587A,105.2864,27.3125,毕节市,八中,,49,40,30,34,26,37,,47,39,16,9,7,5,0.6,0.5
2024-06-19T1200,2588A,105.31,27.2944,毕节市,师专,,48,40,28,33,24,38,,45,37,16,10,8,5,0.6,0.5
2024-06-19T1200,3537A,105.3631,27.3533,毕节市,长征村,细颗粒物(PM2.5),79,77,60,58,45,41,,43,38,12,10,6,6,0.7,0.6
2024-06-19T1200,1629A,118.0018,37.3617,滨州市,第二水厂,臭氧1小时,140,92,65,34,23,280,,132,132,18,26,11,9,0.6,0.5
2024-06-19T1200,1630A,117.9776,37.393,滨州市,北中新校,臭氧1小时,135,75,60,27,21,270,,138,138,17,24,10,8,0.7,0.6
2024-06-19T1200,3514A,117.9378,37.3956,滨州市,中海酒店,臭氧1小时,138,66,52,24,24,276,,152,152,17,19,11,9,0.5,0.4
2024-06-19T1200,3515A,117.9378,37.3553,滨州市,开发区一中,臭氧1小时,128,68,65,22,24,255,,128,128,12,25,10,10,0.6,0.8
2024-06-19T1200,3516A,118.0917,37.694,滨州市,金海六路,臭氧1小时,110,63,60,17,17,219,,114,114,10,19,15,17,0.7,0.7
2024-06-19T1200,4028A,117.9956,37.3753,滨州市,滨州市西街道办事处,臭氧1小时,140,90,60,29,27,279,,132,132,20,25,11,9,0.8,0.8
2024-06-19T1200,2311A,115.8072,33.8399,亳州市,污水处理厂,,,,47,,26,206,,142,142,9,17,6,6,0.6,0.5
2024-06-19T1200,2312A,115.7789,33.8518,亳州市,三国揽胜宫,臭氧1小时,98,53,46,25,24,198,,135,135,10,14,6,5,0.6,0.5
2024-06-19T1200,3332A,115.7633,33.8034,亳州市,亳州学院,臭氧1小时,101,51,50,25,23,201,,140,140,10,13,6,6,0.5,0.4
2024-06-19T1200,2693A,82.0485,44.8556,博尔塔拉蒙古自治州,市党校,,33,24,20,6,8,103,,76,75,9,10,8,9,0.5,0.4
2024-06-19T1200,2694A,82.0806,44.8969,博尔塔拉蒙古自治州,市环保局,,34,23,21,8,10,107,,81,80,11,15,4,9,0.4,0.4
2024-06-19T1200,1071A,116.8842,38.2991,沧州市,沧县城建局,臭氧1小时,113,45,58,14,23,225,,149,149,10,16,3,3,0.5,0.5
2024-06-19T1200,1072A,116.8584,38.3254,沧州市,电视转播站,臭氧1小时,110,46,60,24,23,220,,153,153,5,10,5,4,0.4,0.4
2024-06-19T1200,1073A,116.8709,38.3228,沧州市,市环保局,臭氧1小时,115,47,55,12,26,230,,154,154,12,16,9,9,0.4,0.4
2024-06-19T1200,3324A,116.8136,38.3004,沧州市,河北水利电力学院,臭氧1小时,119,51,58,18,27,237,,157,157,7,15,9,9,0.4,0.3
2024-06-19T1200,2622A,97.1806,31.1273,昌都市,昌都监测站,,25,12,8,10,6,77,,68,58,14,8,9,9,0.6,0.5
2024-06-19T1200,3719A,97.1714,31.1406,昌都市,昌都会议中心,,28,14,8,8,6,89,,75,63,12,7,6,5,0.5,0.3
2024-06-19T1200,2690A,88.1236,43.8886,昌吉回族自治州,天山天池,,21,6,10,3,3,67,,62,57,5,5,8,8,0.6,0.6
2024-06-19T1200,2692A,87.2717,44.0297,昌吉回族自治州,新区政务中心,,,21,13,12,8,111,,96,96,,7,9,8,0.3,0.2
2024-06-19T1200,3613A,87.3095,44.0142,昌吉回族自治州,亚心广场,,35,17,16,3,1,112,,99,98,11,12,7,7,0.2,0.2
2024-06-19T1200,1119A,125.3325,43.9166,长春市,食品厂,颗粒物(PM10),83,115,53,21,16,173,,127,127,25,43,9,8,0.4,0.4
2024-06-19T1200,1120A,125.2863,43.9027,长春市,客车厂,臭氧1小时,70,76,43,17,15,176,,139,139,20,36,6,5,0.4,0.3
2024-06-19T1200,1121A,125.2841,43.8463,长春市,邮电学院,臭氧1小时,70,84,39,17,8,176,,124,124,21,38,10,8,0.4,0.4
2024-06-19T1200,1122A,125.3716,43.8772,长春市,劳动公园,臭氧1小时,90,94,46,17,13,192,,122,122,17,46,7,5,0.5,0.4
2024-06-19T1200,1123A,125.3297,43.8805,长春市,园林处,臭氧1小时,74,65,38,24,17,179,,126,126,20,40,8,7,0.5,0.4
2024-06-19T1200,1124A,125.4605,43.79,长春市,净月潭,臭氧1小时,98,45,26,18,11,198,,119,119,10,31,7,5,0.5,0.4
2024-06-19T1200,1125A,125.7194,43.515,长春市,甩湾子,,,,,,,,,,,,,,,,
2024-06-19T1200,1126A,125.3863,43.8447,长春市,经开区环卫处,臭氧1小时,88,61,42,14,13,190,,115,115,17,53,7,6,0.4,0.4
2024-06-19T1200,1127A,125.245,43.7783,长春市,高新区管委会,臭氧1小时,88,56,35,18,10,190,,120,120,14,41,10,8,0.5,0.4
2024-06-19T1200,1128A,125.1761,43.8325,长春市,岱山公园,臭氧1小时,65,68,43,21,17,172,,130,130,15,38,7,6,0.4,0.4
2024-06-19T1200,1335A,113.0833,28.2325,长沙市,经开区环保局,,23,22,19,16,12,55,,46,46,13,15,3,3,0.6,0.5
2024-06-19T1200,1336A,112.8872,28.2189,长沙市,高开区环保局,,22,22,21,11,13,64,,58,58,12,13,6,4,0.7,0.7
2024-06-19T1200,1337A,113.0792,28.2053,长沙市,马坡岭,,33,26,19,23,15,47,,42,40,18,14,8,7,0.7,0.6
2024-06-19T1200,1338A,112.9394,28.19,长沙市,湖南师范大学,,27,27,23,17,15,64,,49,49,4,10,5,4,0.8,0.8
2024-06-19T1200,1339A,113.0178,28.1322,长沙市,雨花区环保局,,19,17,16,10,10,59,,52,50,2,5,3,3,0.5,0.5
2024-06-19T1200,1340A,112.9792,28.2597,长沙市,伍家岭,,,,34,,25,,,58,,,16,,4,,0.4
2024-06-19T1200,1341A,113.0014,28.1944,长沙市,火车新站,,27,27,22,12,10,69,,52,52,4,11,4,2,0.7,0.6
2024-06-19T1200,1342A,112.9844,28.1178,长沙市,天心区环保局,,27,27,18,13,11,49,,42,39,2,7,1,2,0.8,0.8
2024-06-19T1200,1343A,112.8908,28.1308,长沙市,湖南中医药大学,,21,20,17,11,12,66,,50,50,2,8,7,7,0.8,0.8
2024-06-19T1200,1344A,112.9581,28.3611,长沙市,沙坪,,27,,14,14,7,85,,77,77,5,7,7,7,0.6,0.6
2024-06-19T1200,1727A,113.1147,36.1547,长治市,清华站,臭氧1小时,78,26,34,14,20,182,,136,133,11,14,10,10,0.4,0.5
2024-06-19T1200,1728A,113.1031,36.1989,长治市,监测站,臭氧1小时,83,41,41,19,20,186,,131,131,15,18,6,5,0.6,0.8
2024-06-19T1200,1730A,113.0886,36.2125,长治市,审计局,臭氧1小时,90,32,39,14,19,192,,145,138,17,21,4,3,0.5,0.5
2024-06-19T1200,1731A,113.0844,36.1856,长治市,长治八中,臭氧1小时,79,34,42,14,20,183,,136,132,11,15,4,4,0.5,0.6
2024-06-19T1200,2845A,113.1569,36.1911,长治市,德盛苑,臭氧1小时,80,18,37,9,20,184,,158,156,7,11,8,9,0.6,0.7
2024-06-19T1200,3568A,113.06,36.0464,长治市,向阳小学,臭氧1小时,83,55,62,32,41,186,,146,146,13,15,5,4,0.7,0.7
2024-06-19T1200,3569A,112.8792,36.3144,长治市,屯留一中,臭氧1小时,73,27,43,23,33,178,,106,106,7,18,8,9,0.5,0.6
2024-06-19T1200,3570A,113.235,36.3489,长治市,潞城四中,臭氧1小时,104,29,46,17,28,207,,121,121,6,17,6,6,0.6,0.6
2024-06-19T1200,1854A,111.6975,28.9703,常德市,市二中,,36,36,27,12,21,97,,72,68,4,7,6,6,0.6,0.6
2024-06-19T1200,1857A,111.7158,29.1456,常德市,白鹤山,,,,,,,,,,,,,,,,
2024-06-19T1200,3138A,111.7153,29.0289,常德市,武陵区永安,,32,32,30,22,22,99,,80,75,4,5,7,6,0.4,0.4
2024-06-19T1200,3139A,111.6892,28.9881,常德市,鼎城区玉霞,,34,34,31,14,23,93,,70,67,4,7,4,4,0.5,0.5
2024-06-19T1200,3140A,111.6625,29.0531,常德市,武陵区长庚,,36,36,29,21,22,103,,70,66,6,8,8,8,0.4,0.5
2024-06-19T1200,1196A,119.9633,31.762,常州市,市监测站,,23,18,27,16,16,55,,64,48,21,20,6,7,0.5,0.5
2024-06-19T1200,1200A,119.9468,31.7069,常州市,武进监测站,,20,15,26,8,11,63,,69,52,8,9,9,9,0.7,0.6
2024-06-19T1200,1201A,119.9255,31.9087,常州市,安家,,27,27,33,14,15,39,,68,47,27,15,7,8,0.6,0.4
2024-06-19T1200,3002A,119.9805,31.8174,常州市,行政中心,,15,13,26,10,12,44,,66,47,26,18,9,8,0.6,0.4
2024-06-19T1200,3003A,120.0522,31.7748,常州市,经开区,,17,14,26,7,11,52,,65,48,23,20,4,4,0.6,0.5
2024-06-19T1200,3010A,119.9025,31.7964,常州市,钟楼,,,,28,2,13,62,,67,51,16,17,4,5,,0.8
2024-06-19T1200,3429A,119.8598,31.7066,常州市,武进经发区,,,21,26,11,11,54,,66,49,16,15,8,8,,0.5
2024-06-19T1200,3430A,119.5826,31.7245,常州市,金坛城区,,17,16,23,7,11,52,,67,49,9,8,5,6,0.8,0.7
2024-06-19T1200,2220A,120.4318,41.5881,朝阳市,西梁,臭氧1小时,103,47,48,20,24,206,,171,171,9,17,12,12,0.7,0.7
2024-06-19T1200,2221A,120.4521,41.5646,朝阳市,河畔小区,臭氧1小时,104,39,49,22,25,208,,184,178,6,12,10,11,0.6,0.8
2024-06-19T1200,2222A,120.4176,41.5648,朝阳市,八里堡,臭氧1小时,103,45,57,17,25,205,,168,168,11,19,10,11,0.9,0.9
2024-06-19T1200,2223A,120.3806,41.5969,朝阳市,农业园区,臭氧1小时,104,32,54,26,32,207,,150,146,6,18,10,12,0.7,0.8
2024-06-19T1200,1705A,116.6367,23.6719,潮州市,西园路,颗粒物(PM10),54,57,21,12,8,42,,24,24,9,9,3,1,0.2,0.4
2024-06-19T1200,3026A,116.6183,23.6608,潮州市,市政府,,,27,20,8,7,49,,29,29,,9,4,6,0.6,0.7
2024-06-19T1200,4036A,116.6461,23.6761,潮州市,金山,,38,38,21,12,9,58,,32,32,6,12,6,7,0.5,0.6
2024-06-19T1200,2472A,113.0073,25.9061,郴州市,马头岭,,21,21,21,3,6,54,,54,47,3,6,16,7,0.5,0.5
2024-06-19T1200,2473A,113.0116,25.8226,郴州市,市职中,,18,10,15,9,10,56,,56,49,3,6,36,12,0.4,0.5
2024-06-19T1200,2474A,113.0161,25.8001,郴州市,兴隆步行街,,,,18,7,9,54,,57,54,4,6,28,13,0.5,0.6
2024-06-19T1200,2475A,113.0383,25.8071,郴州市,市审计局,,18,,13,12,10,55,,48,48,4,10,7,24,0.3,0.4
2024-06-19T1200,2476A,113.0348,25.7759,郴州市,市环保局,,18,10,13,9,9,55,,51,51,7,11,10,25,0.4,0.4
2024-06-19T1200,1431A,103.9728,30.7236,成都市,金泉两河,,32,29,34,22,21,92,,42,42,17,13,2,1,0.4,0.4
2024-06-19T1200,1432A,104.176,30.6872,成都市,十里店,,40,26,46,9,27,125,,78,78,17,23,3,3,0.6,0.6
2024-06-19T1200,1433A,104.079,30.5706,成都市,三瓦窑,,40,36,53,28,40,99,,48,48,23,30,2,2,0.5,0.5
2024-06-19T1200,1434A,104.1114,30.63,成都市,沙河铺,,43,43,46,27,27,102,,53,53,17,21,5,3,0.4,0.5
2024-06-19T1200,1437A,104.0786,30.6531,成都市,君平街,,38,33,39,24,25,120,,66,66,16,24,1,1,0.4,0.5
2024-06-19T1200,1438A,103.613,31.0283,成都市,灵岩寺,,,,,,,,,,,,,,,,
2024-06-19T1200,2880A,104.0239,30.65639,成都市,大石西路,,34,23,41,10,21,107,,55,55,17,22,4,3,0.6,0.6
2024-06-19T1200,3136A,104.2725,30.5589,成都市,龙泉驿区区政府,,37,17,29,14,24,116,,74,70,6,13,2,2,0.4,0.5
2024-06-19T1200,3357A,104.0106,30.6931,成都市,金博路,,35,25,27,24,16,84,,43,43,16,14,1,2,0.5,0.5
2024-06-19T1200,3359A,104.0578,30.5225,成都市,华阳,,35,34,38,24,33,112,,60,60,11,20,2,2,0.5,0.6
2024-06-19T1200,3487A,104.2394,30.5319,成都市,车城东七路,,40,22,48,18,37,125,,77,75,5,12,2,2,0.4,0.6
2024-06-19T1200,3488A,104.3853,30.7453,成都市,青白江技师分院,,41,,32,23,21,129,,58,58,4,26,4,4,0.4,0.6
2024-06-19T1200,3489A,104.0789,30.4072,成都市,科学城,,34,24,47,17,35,107,,56,56,6,17,3,3,0.5,0.5
2024-06-19T1200,4011A,103.8506,30.6947,成都市,光华大道三段,细颗粒物(PM2.5),65,57,38,47,20,118,,46,46,7,11,3,3,0.6,0.6
2024-06-19T1200,1062A,117.9531,40.9081,承德市,铁路,臭氧1小时,102,49,68,34,39,203,,151,151,13,21,8,11,0.5,0.5
2024-06-19T1200,1063A,117.9392,40.9763,承德市,中国银行,臭氧1小时,92,39,73,28,42,193,,137,137,10,18,7,7,0.5,0.5
2024-06-19T1200,1064A,117.9503,40.928,承德市,开发区,,,,70,,36,212,,156,156,14,22,,10,0.6,0.6
2024-06-19T1200,1065A,117.8051,40.9655,承德市,文化中心,臭氧1小时,101,59,81,27,42,201,,160,160,10,20,11,14,0.5,0.6
2024-06-19T1200,1066A,117.9268,41.0026,承德市,离宫,臭氧1小时,90,42,61,27,43,192,,151,151,3,9,4,5,0.4,0.5
2024-06-19T1200,2314A,117.47,30.6618,池州市,池州学院,,18,6,22,3,13,57,,46,44,1,6,5,6,0.4,0.6
2024-06-19T1200,3237A,117.4918,30.6617,池州市,展览馆,,17,6,18,3,10,54,,42,40,4,7,3,4,0.5,0.5
2024-06-19T1200,3333A,117.5627,30.695,池州市,第八中学,,20,6,19,3,11,61,,40,38,4,8,3,3,0.3,0.4
2024-06-19T1200,3334A,117.5038,30.6243,池州市,第十二中学,,,9,19,3,13,53,,37,37,7,11,4,5,,0.7
2024-06-19T1200,1744A,118.9233,42.2816,赤峰市,松山一中,臭氧1小时,85,40,43,27,24,188,,174,170,19,28,12,16,0.8,0.9
2024-06-19T1200,1745A,118.9576,42.2728,赤峰市,哈达街,臭氧1小时,79,36,51,32,14,183,,180,175,21,25,12,19,0.7,0.8
2024-06-19T1200,1746A,118.8788,42.2554,赤峰市,天义路,臭氧1小时,90,50,44,25,22,192,,196,189,18,20,7,10,0.6,0.6
2024-06-19T1200,3058A,119.2658,42.0353,赤峰市,银河街,臭氧1小时,94,85,67,33,36,195,,169,169,14,18,13,17,0.5,0.5
2024-06-19T1200,3286A,118.9359,42.3147,赤峰市,桥北物流园区,臭氧1小时,84,58,55,50,31,187,,170,169,14,24,7,13,1.0,1
2024-06-19T1200,2521A,107.3476,22.4136,崇左市,市环保局江州分局,,44,44,26,23,14,88,,39,39,6,7,6,5,0.7,0.6
2024-06-19T1200,2522A,107.3702,22.3707,崇左市,城南新区,,28,28,26,14,15,78,,38,38,3,7,3,3,0.6,0.6
2024-06-19T1200,2298A,118.3093,32.3153,滁州市,老年大学,,45,31,35,18,17,142,,107,92,10,14,8,8,0.5,0.4
2024-06-19T1200,2299A,118.3244,32.2786,滁州市,人大宾馆,,44,,32,21,20,138,,100,85,17,19,5,6,0.5,0.5
2024-06-19T1200,3207A,118.3118,32.3038,滁州市,市政府原办公楼,,44,,36,22,22,140,,107,92,11,14,6,7,0.5,0.5
2024-06-19T1200,3331A,118.3267,32.2634,滁州市,图书馆,,,,35,20,18,128,,94,79,8,15,7,8,,0.3
2024-06-19T1200,2605A,101.5482,25.0441,楚雄彝族自治州,州环境监测站,,,27,15,13,12,100,,82,82,4,4,,3,0.4,0.5
2024-06-19T1200,2606A,101.538,25.0492,楚雄彝族自治州,市经济开发区,,30,14,18,13,12,96,,78,78,5,6,4,4,0.5,0.5
2024-06-19T1200,2548A,107.5277,31.2827,达州市,达州职业技术学院,,24,24,27,14,9,24,,5,5,22,25,4,4,0.3,0.2
2024-06-19T1200,2549A,107.5086,31.2186,达州市,市环境监测站,,28,28,26,14,8,24,,11,8,27,26,6,6,0.6,0.6
2024-06-19T1200,2550A,107.4988,31.2132,达州市,凤凰小区,,19,19,24,12,12,29,,14,12,22,24,7,7,0.5,0.5
2024-06-19T1200,2551A,107.5082,31.1986,达州市,达县机关宾馆,,29,24,26,20,14,27,,9,9,28,33,5,5,0.4,0.4
2024-06-19T1200,2552A,107.4644,31.2124,达州市,市政中心,,31,31,31,17,11,42,,23,21,23,25,7,7,0.5,0.6
2024-06-19T1200,2614A,100.1542,25.7054,大理白族自治州,大理市环境监测站,,49,49,33,16,16,89,,85,85,6,7,4,4,0.6,0.6
2024-06-19T1200,2615A,100.2171,25.5811,大理白族自治州,大理古城,,34,24,21,8,12,108,,82,82,6,8,6,6,0.8,0.8
2024-06-19T1200,1109A,121.612,38.9741,大连市,甘井子,,40,19,34,7,17,127,,101,101,15,20,7,8,0.5,0.6
2024-06-19T1200,1110A,121.565,38.9511,大连市,周水子,,34,32,39,6,20,108,,89,84,14,21,10,8,0.4,0.6
2024-06-19T1200,1111A,121.5637,38.8845,大连市,星海三站,,40,18,47,9,23,126,,95,95,8,16,8,10,0.5,0.6
2024-06-19T1200,1112A,121.6302,38.9117,大连市,青泥洼桥,,38,11,32,3,19,121,,97,97,6,13,9,11,0.3,0.5
2024-06-19T1200,1113A,121.6251,38.8638,大连市,傅家庄,,40,17,38,3,23,126,,94,94,6,13,10,11,0.4,0.7
2024-06-19T1200,1114A,121.5213,38.8661,大连市,七贤岭,,38,23,38,8,28,121,,92,92,9,16,7,8,0.4,0.5
2024-06-19T1200,1115A,121.2529,38.8061,大连市,旅顺,,42,13,35,8,22,132,,100,100,11,25,9,10,0.4,0.5
2024-06-19T1200,1116A,121.7485,39.1311,大连市,金州,,42,17,38,3,18,133,,111,111,9,14,9,11,0.4,0.5
2024-06-19T1200,1117A,121.7811,39.0496,大连市,开发区,,40,20,43,3,21,128,,99,99,10,20,5,8,0.3,0.5
2024-06-19T1200,1118A,121.9762,39.0631,大连市,双D港,,30,21,35,6,20,94,,102,92,25,21,8,9,0.4,0.6
2024-06-19T1200,1789A,124.81117,46.03138,大庆市,大同区,颗粒物(PM10),63,76,45,42,26,162,,96,96,15,18,7,5,0.6,0.3
2024-06-19T1200,1790A,125.129,46.533,大庆市,龙凤区,颗粒物(PM10),55,59,30,32,13,147,,95,95,23,19,9,8,0.7,0.4
2024-06-19T1200,1791A,124.902,46.408,大庆市,红岗区,臭氧1小时,72,49,24,38,14,177,,107,107,18,13,8,6,0.6,0.3
2024-06-19T1200,1792A,125.153,46.586,大庆市,萨尔图区,颗粒物(PM10),66,81,31,36,12,123,,84,84,32,15,10,8,0.5,0.3
2024-06-19T1200,1793A,124.9042,46.6215,大庆市,让胡路区,颗粒物(PM10),57,63,25,38,12,146,,99,99,21,16,8,10,0.3,0.1
2024-06-19T1200,3481A,125.141,46.634,大庆市,萨区政府监测点,颗粒物(PM10),66,82,28,31,8,138,,93,93,29,17,8,7,0.5,0.2
2024-06-19T1200,1721A,113.3819,40.1097,大同市,果树场,,,,,,,,,,,,,,,,
2024-06-19T1200,1723A,113.2994,40.0758,大同市,云冈宾馆,臭氧1小时,110,65,46,30,20,219,,112,112,18,24,14,9,0.7,0.7
2024-06-19T1200,1724A,113.3444,40.0917,大同市,大同大学,臭氧1小时,102,54,35,30,20,204,,105,105,16,24,16,13,0.6,0.6
2024-06-19T1200,1725A,113.2661,40.1269,大同市,安家小村,臭氧1小时,93,84,52,36,18,194,,111,111,18,19,20,14,0.5,0.6
2024-06-19T1200,1726A,113.2711,40.0844,大同市,教育学院,臭氧1小时,111,78,53,32,21,222,,105,105,23,29,18,13,0.7,0.7
2024-06-19T1200,3282A,113.3397,40.0597,大同市,大同市卫生学校,臭氧1小时,114,61,49,41,24,228,,120,120,14,22,17,12,0.7,0.7
2024-06-19T1200,3565A,113.1367,40.1122,大同市,云冈站,,,,47,,24,165,,87,87,10,20,12,12,0.5,0.5
2024-06-19T1200,3566A,113.1186,40.2556,大同市,图书馆,臭氧1小时,65,44,37,18,21,172,,97,97,14,17,11,9,0.6,0.6
2024-06-19T1200,3567A,113.5931,40.0461,大同市,区一中,臭氧1小时,110,60,37,22,10,219,,149,149,13,15,15,5,0.6,0.4
2024-06-19T1200,3676A,113.2802,40.0995,大同市,第二人民医院,臭氧1小时,107,45,34,36,23,214,,108,108,17,24,16,11,0.7,0.7
2024-06-19T1200,2269A,124.1069,50.4097,大兴安岭地区,科技局,,,14,16,,9,61,,41,41,3,5,8,7,0.3,0.3
2024-06-19T1200,3663A,124.1164,50.4278,大兴安岭地区,红旗社区,,20,6,5,3,5,61,,40,40,2,5,6,6,0.3,0.4
2024-06-19T1200,1600A,124.3303,40.0625,丹东市,江湾东路,,46,28,36,13,21,145,,105,105,8,14,12,13,0.4,0.5
2024-06-19T1200,1601A,124.4256,40.1503,丹东市,临江后街,,50,18,24,9,15,157,,108,108,5,10,12,10,0.6,0.7
2024-06-19T1200,1602A,124.3933,40.1461,丹东市,元宝山,,43,21,30,12,17,135,,96,96,10,14,10,9,0.8,0.8
2024-06-19T1200,1603A,124.3633,40.1092,丹东市,民主桥,,46,34,35,12,17,145,,104,104,5,15,8,8,0.4,0.5
2024-06-19T1200,3541A,109.5726,19.5167,儋州市,第一中学子站,,20,14,21,8,12,63,,58,58,1,3,5,6,0.4,0.5
2024-06-19T1200,3542A,109.5567,19.5187,儋州市,东坡学校子站,,21,20,22,9,11,66,,55,55,1,4,5,6,0.5,0.5
2024-06-19T1200,2616A,98.5842,24.428,德宏傣族景颇族自治州,德宏州监测站,,35,33,37,24,19,62,,22,22,11,11,6,3,0.8,0.9
2024-06-19T1200,3677A,98.5881,24.4368,德宏傣族景颇族自治州,芒市人民政府综合楼,,45,45,38,26,20,55,,19,19,9,10,9,8,0.6,0.7
2024-06-19T1200,1901A,104.4239,31.1208,德阳市,东山公园,,36,35,37,16,24,115,,59,59,9,12,3,2,0.5,0.5
2024-06-19T1200,1902A,104.3826,31.1317,德阳市,西小区,,,,38,,29,,,86,,,19,,2,,0.6
2024-06-19T1200,1904A,104.3553,31.1091,德阳市,耐火材料厂,,40,38,38,22,27,127,,60,60,16,19,3,3,0.6,0.6
2024-06-19T1200,3639A,104.4019,31.1244,德阳市,市教育局,,40,36,38,11,25,126,,71,71,12,17,2,2,0.5,0.6
2024-06-19T1200,1622A,116.3032,37.4674,德州市,儿童乐园,臭氧1小时,116,56,61,41,25,232,,180,180,8,11,12,17,0.6,0.6
2024-06-19T1200,1624A,116.2991,37.4451,德州市,监理站,臭氧1小时,118,58,66,14,22,235,,183,183,12,16,15,20,0.6,0.7
2024-06-19T1200,3066A,116.2721,37.4379,德州市,九衢泉纯净水厂,臭氧1小时,115,58,66,27,27,230,,176,176,11,18,9,14,0.6,0.7
2024-06-19T1200,3371A,116.3728,37.4403,德州市,开发区人民医院,臭氧1小时,123,75,67,27,22,246,,184,184,4,10,14,13,0.5,0.5
2024-06-19T1200,3372A,116.3572,37.4094,德州市,太阳城中学,臭氧1小时,122,73,69,22,23,244,,188,188,15,15,12,12,0.8,0.7
2024-06-19T1200,3511A,116.5652,37.3319,德州市,陵城艺术中心,臭氧1小时,113,58,61,17,19,226,,174,174,12,16,9,8,0.5,0.5
2024-06-19T1200,2621A,99.7056,27.8317,迪庆藏族自治州,迪庆州站,,33,14,16,8,8,103,,98,93,9,9,8,8,0.4,0.4
2024-06-19T1200,3180A,99.7136,27.8094,迪庆藏族自治州,质量技术监督局,,30,16,15,8,7,95,,92,86,11,8,8,8,0.3,0.2
2024-06-19T1200,2663A,104.6241,35.5734,定西市,东关小学,,37,34,40,13,18,116,,57,57,4,13,7,6,0.2,0.2
2024-06-19T1200,2664A,104.6194,35.5934,定西市,供电公司,颗粒物(PM10),54,58,34,31,23,122,,52,52,2,16,4,5,0.1,0.2
2024-06-19T1200,1389A,113.7547,23.0494,东莞市,莞城梨川,,20,20,22,9,8,58,,40,40,11,9,6,9,0.6,0.7
2024-06-19T1200,1390A,113.7944,23.0128,东莞市,东城石井,,25,17,22,8,9,78,,47,47,5,11,3,3,0.4,0.5
2024-06-19T1200,1391A,113.7383,22.9658,东莞市,南城西平,,25,17,22,9,7,79,,52,52,1,3,4,3,0.5,0.5
2024-06-19T1200,3319A,113.7338,23.0381,东莞市,万江金泰,,25,20,23,8,9,77,,48,48,4,7,4,4,0.6,0.6
2024-06-19T1200,3626A,113.7533,23.0202,东莞市,南城元岭,,23,22,21,10,9,73,,47,47,3,5,6,5,0.6,0.6
2024-06-19T1200,3627A,113.7875,23.0457,东莞市,东城主山,,23,18,22,8,9,72,,46,46,3,6,8,8,0.6,0.6
2024-06-19T1200,1666A,118.6614,37.4309,东营市,市环保局,臭氧1小时,88,53,43,17,13,190,,114,114,18,18,12,11,0.3,0.3
2024-06-19T1200,3036A,118.6904,37.4338,东营市,开发区管委会,臭氧1小时,80,56,47,14,14,184,,114,114,11,15,9,8,0.5,0.4
2024-06-19T1200,3365A,118.5719,37.565,东营市,垦利区民丰路,臭氧1小时,89,58,50,12,13,191,,111,111,15,22,13,13,0.6,0.6
2024-06-19T1200,3498A,118.5055,37.8612,东营市,河口城区,臭氧1小时,101,51,50,12,15,202,,118,118,9,14,10,9,0.6,0.6
2024-06-19T1200,3646A,118.4978,37.4623,东营市,胜利站,臭氧1小时,79,64,48,9,12,183,,102,102,18,23,11,10,0.4,0.4
2024-06-19T1200,3734A,118.35,37.26,东营市,理想之城,臭氧1小时,73,48,45,12,14,178,,100,100,8,18,10,9,0.4,0.4
2024-06-19T1200,1591A,110.0023,39.8129,鄂尔多斯市,综合楼,颗粒物(PM10),51,51,71,12,21,156,,104,104,20,30,10,15,0.6,0.7
2024-06-19T1200,1592A,109.9486,39.8261,鄂尔多斯市,巴音孟克林场办事处,颗粒物(PM10),56,61,63,22,21,142,,100,100,16,24,8,12,0.7,0.8
2024-06-19T1200,1593A,109.7736,39.5986,鄂尔多斯市,康泽苑,臭氧1小时,57,27,60,17,28,165,,87,87,8,24,11,13,0.4,0.5
2024-06-19T1200,1594A,109.8119,39.5989,鄂尔多斯市,华泰汽车城,,,,65,,26,145,,60,60,8,30,10,11,0.4,0.6
2024-06-19T1200,1595A,109.9734,39.7884,鄂尔多斯市,奥林花园,,45,39,63,19,23,144,,91,91,16,31,8,11,0.5,0.7
2024-06-19T1200,2436A,114.8938,30.3994,鄂州市,市政府,,43,43,27,15,9,41,,50,43,11,7,2,4,0.8,0.5
2024-06-19T1200,2437A,114.8989,30.3714,鄂州市,赵家坝,,39,39,24,17,9,41,,44,36,13,11,6,6,0.8,0.5
2024-06-19T1200,3654A,114.8094,30.4089,鄂州市,精准医疗中心,,24,24,22,11,8,44,,39,39,15,13,6,9,0.5,0.6
2024-06-19T1200,2454A,109.4978,30.2981,恩施土家族苗族自治州,湖北民院,,,32,30,16,14,61,,26,26,9,15,6,9,,0.8
2024-06-19T1200,2455A,109.4707,30.2798,恩施土家族苗族自治州,州电力总公司,,39,39,27,18,16,61,,23,23,24,22,7,7,0.8,0.7
2024-06-19T1200,3549A,109.5061,30.3772,恩施土家族苗族自治州,龙凤新区,,28,24,26,19,14,61,,24,24,15,18,6,6,0.8,0.8
2024-06-19T1200,2499A,108.3411,21.6158,防城港市,沙万,,42,42,33,14,9,65,,59,54,12,16,5,8,0.7,0.7
2024-06-19T1200,2500A,108.3514,21.7731,防城港市,防城档案局,,30,30,26,13,11,73,,52,52,7,9,4,6,0.7,0.7
2024-06-19T1200,2501A,108.3506,21.6414,防城港市,大海花园,,35,35,33,9,8,76,,64,64,6,12,4,7,0.6,0.7
2024-06-19T1200,1371A,113.1294,23.0067,佛山市,湾梁,,,24,25,,11,86,,48,48,9,15,7,7,0.5,0.8
2024-06-19T1200,1372A,113.1083,23.0478,佛山市,华材职中,,27,24,20,10,10,84,,47,47,8,13,6,6,0.4,0.4
2024-06-19T1200,1373A,113.144,23.0453,佛山市,南海气象局,,38,38,29,13,11,90,,43,43,8,16,6,6,0.3,0.4
2024-06-19T1200,1374A,113.2881,22.8094,佛山市,顺德苏岗,,25,,16,14,11,77,,45,45,6,10,5,5,0.5,0.6
2024-06-19T1200,1376A,112.8383,22.8678,佛山市,高明孔堂,,20,18,23,9,10,63,,50,50,3,5,6,6,0.6,0.6
2024-06-19T1200,1377A,112.8836,23.1588,佛山市,三水监测站,,23,22,23,14,14,72,,37,37,10,18,3,3,0.6,0.7
2024-06-19T1200,1378A,112.867,23.185,佛山市,三水云东海,,25,22,24,11,13,80,,40,40,15,20,7,4,0.5,0.6
2024-06-19T1200,3625A,113.2544,22.7642,佛山市,容桂街道办,,20,12,18,7,12,64,,40,40,8,18,6,6,0.3,0.4
2024-06-19T1200,1280A,119.3903,26.0543,福州市,鼓山,,,,,,,,,,,,,,,,
2024-06-19T1200,1282A,119.2681,26.0504,福州市,师大,,37,37,23,14,15,90,,63,60,17,14,3,4,0.6,0.4
2024-06-19T1200,1283A,119.2984,26.1028,福州市,五四北路,,29,26,24,14,22,91,,54,54,11,16,3,3,0.5,0.4
2024-06-19T1200,1284A,119.2648,26.0768,福州市,杨桥西路,,39,39,23,18,17,90,,64,62,14,13,3,3,0.5,0.4
2024-06-19T1200,1285A,119.317,26.0746,福州市,紫阳,,,25,20,14,17,65,,44,39,13,17,,3,0.5,0.4
2024-06-19T1200,3048A,119.5799,26.0936,福州市,九龙,,38,38,13,23,4,86,,70,70,4,2,5,4,0.4,0.2
2024-06-19T1200,3526A,119.5189,25.9664,福州市,吴航,,27,17,22,14,16,84,,64,64,4,6,4,4,0.5,0.4
2024-06-19T1200,1755A,123.7977,41.8491,抚顺市,望花区,臭氧1小时,59,51,54,12,24,167,,148,148,16,23,7,11,0.2,0.7
2024-06-19T1200,1756A,123.9161,41.8822,抚顺市,顺城区,臭氧1小时,62,58,66,7,28,169,,138,138,16,35,8,14,0.3,0.8
2024-06-19T1200,1757A,124.0436,41.8611,抚顺市,东洲区,颗粒物(PM10),62,73,71,13,28,165,,156,156,11,16,10,12,0.5,0.6
2024-06-19T1200,1758A,123.9247,41.8642,抚顺市,新抚区,颗粒物(PM10),52,53,57,18,28,157,,128,128,11,22,6,8,0.4,0.8
2024-06-19T1200,1759A,124.0972,41.8961,抚顺市,大伙房水库,,,46,56,12,26,159,,150,150,,12,11,11,0.5,0.7
2024-06-19T1200,1760A,123.7086,41.8391,抚顺市,沈抚新城,臭氧1小时,73,37,50,17,26,178,,140,140,15,26,10,12,0.3,0.8
2024-06-19T1200,2376A,116.2127,28.0814,抚州市,桐源党溪,,20,20,31,10,18,38,,20,20,4,9,5,8,0.2,0.3
2024-06-19T1200,2377A,116.3544,27.9831,抚州市,市站,,24,24,28,9,16,44,,24,24,5,13,6,6,0.4,0.8
2024-06-19T1200,2378A,116.3565,27.963,抚州市,血防站,,24,24,29,8,14,40,,20,20,6,15,2,4,0.6,0.8
2024-06-19T1200,2379A,116.3564,28.0007,抚州市,采茶剧团,,24,24,24,10,15,43,,22,22,6,14,3,4,0.6,0.8
2024-06-19T1200,2380A,116.385,27.9647,抚州市,医学分院,,24,24,30,8,13,41,,20,20,7,11,4,7,0.7,0.9
2024-06-19T1200,2207A,121.6094,41.998,阜新市,工业园区,臭氧1小时,97,75,61,15,27,197,,155,155,2,17,10,15,0.7,0.8
2024-06-19T1200,2208A,121.6697,42.0279,阜新市,长青街,颗粒物(PM10),92,134,60,21,27,190,,154,151,12,18,9,12,0.6,0.8
2024-06-19T1200,2209A,121.6673,42.0705,阜新市,农业园区,,,80,67,17,31,182,,148,148,,23,10,13,0.5,0.7
2024-06-19T1200,2210A,121.6717,42.0224,阜新市,东苑,臭氧1小时,83,93,62,17,26,186,,147,146,14,20,12,16,0.6,0.8
2024-06-19T1200,2211A,121.6506,42.0498,阜新市,玉龙新城,,,,61,,30,,,229,,,24,,13,,0.8
2024-06-19T1200,2301A,115.8277,32.8929,阜阳市,市监测站,,50,22,45,18,21,159,,132,132,7,16,7,8,0.3,0.4
2024-06-19T1200,2303A,115.8554,32.8605,阜阳市,开发区,,50,17,42,15,20,160,,135,135,9,18,5,7,0.2,0.4
2024-06-19T1200,2875A,115.784,32.8892,阜阳市,阜阳职业技术学院,臭氧1小时,58,18,42,14,17,166,,139,139,7,14,6,7,0.3,0.4
2024-06-19T1200,3468A,115.7901,32.8613,阜阳市,市规划展馆,,49,35,47,15,22,154,,132,132,9,18,4,6,0.3,0.4
2024-06-19T1200,3469A,115.836,32.9183,阜阳市,枣园社区,颗粒物(PM10),52,53,41,13,22,159,,133,133,8,16,3,7,0.5,0.5
2024-06-19T1200,2669A,102.9099,34.9841,甘南藏族自治州,州政府,,43,16,22,13,14,135,,54,54,1,16,5,5,0.7,0.8
2024-06-19T1200,3380A,102.8914,34.9617,甘南藏族自治州,甘肃民族师范学院,,41,8,26,3,13,129,,42,42,7,23,4,8,0.5,0.7
2024-06-19T1200,2570A,101.9603,30.0475,甘孜藏族自治州,水桥子,,23,19,7,3,4,72,,50,50,12,13,4,4,0.3,0.3
2024-06-19T1200,3065A,101.9533,29.9972,甘孜藏族自治州,州环保局,,26,18,9,3,5,82,,59,59,15,19,2,2,0.3,0.3
2024-06-19T1200,3414A,115.8347,28.932,赣江新区,桑海产业园,,17,,9,11,7,52,,57,53,17,24,11,10,0.5,0.5
2024-06-19T1200,2362A,114.9017,25.9149,赣州市,通天岩,,,,,,,,,,,,,,,,
2024-06-19T1200,2363A,114.9367,25.8664,赣州市,地委,,,19,17,6,9,67,,50,50,,7,9,8,0.9,1
2024-06-19T1200,2364A,114.9461,25.8481,赣州市,气象台,,24,24,16,12,9,65,,46,46,2,7,6,5,0.5,0.4
2024-06-19T1200,2365A,114.9322,25.8333,赣州市,市图书馆,,21,20,16,8,6,66,,45,45,6,5,9,6,0.8,0.8
2024-06-19T1200,2366A,114.8905,25.8471,赣州市,华坚鞋城,,24,24,25,3,8,65,,44,44,5,6,1,5,0.5,0.5
2024-06-19T1200,3109A,115.0093,25.8613,赣州市,赣县区卫计委,,30,30,18,14,8,60,,40,40,10,13,7,7,0.5,0.5
2024-06-19T1200,2683A,106.2319,36.1417,固原市,马园,,43,7,26,6,8,135,,70,70,8,23,5,6,0.6,0.6
2024-06-19T1200,2684A,106.2792,36.0022,固原市,监测站,,39,12,24,11,13,124,,78,78,7,14,5,5,0.2,0.3
2024-06-19T1200,2685A,106.2375,36.0211,固原市,新区,,42,25,22,7,9,132,,81,81,4,10,5,5,0.3,0.4
2024-06-19T1200,3522A,106.2177,35.9959,固原市,原州区十五小,,43,29,25,14,13,136,,98,98,8,10,6,5,0.4,0.5
2024-06-19T1200,2543A,106.6308,30.5278,广安市,小平旧居,,,,,,,,,,,,,,,,
2024-06-19T1200,2544A,106.6303,30.4576,广安市,市委,,28,28,31,19,18,60,,38,38,10,16,8,8,0.6,0.6
2024-06-19T1200,2545A,106.6271,30.4663,广安市,友谊中学,,23,16,22,16,17,72,,48,48,11,17,6,7,0.6,0.7
2024-06-19T1200,2547A,106.6388,30.4551,广安市,广电花园,,32,32,30,15,17,56,,38,38,10,15,10,10,0.6,0.6
2024-06-19T1200,2902A,106.6351,30.4865,广安市,北辰小学,,,34,27,12,17,61,,37,37,,13,10,11,0.7,0.6
2024-06-19T1200,2523A,105.8945,32.4535,广元市,黑石坡,,19,12,14,8,7,58,,32,32,7,8,14,15,0.4,0.4
2024-06-19T1200,2524A,105.821,32.4444,广元市,老城,,23,20,27,8,12,71,,35,35,11,22,5,9,0.5,0.5
2024-06-19T1200,2526A,105.8628,32.4287,广元市,监测站,,22,10,22,6,11,69,,41,41,8,11,11,6,0.6,0.6
2024-06-19T1200,3617A,105.8047,32.4166,广元市,经开区,,33,33,29,17,17,61,,30,30,10,17,4,8,0.7,0.7
2024-06-19T1200,1345A,113.2347,23.1423,广州市,广雅中学,,30,25,27,12,12,94,,42,42,16,26,4,4,0.5,0.6
2024-06-19T1200,1346A,113.2612,23.105,广州市,市五中,,32,25,28,14,16,100,,40,40,8,20,4,4,0.6,0.6
2024-06-19T1200,1348A,113.3478,23.0916,广州市,广东商学院,,43,43,27,24,14,102,,40,40,10,32,3,3,0.5,0.5
2024-06-19T1200,1349A,113.4332,23.1047,广州市,市八十六中,,24,24,26,11,11,61,,29,29,28,44,3,3,0.6,0.6
2024-06-19T1200,1350A,113.3505,22.9483,广州市,番禺中学,,33,27,26,12,12,105,,46,46,9,24,6,6,0.5,0.6
2024-06-19T1200,1351A,113.2146,23.3916,广州市,花都师范,,,35,29,22,13,83,,36,36,16,26,6,5,,0.6
2024-06-19T1200,1352A,113.2597,23.1331,广州市,市监测站,,29,22,28,11,14,91,,38,38,12,24,4,4,0.5,0.5
2024-06-19T1200,1353A,113.5618,23.312,广州市,九龙镇镇龙,,26,26,31,12,16,68,,24,24,16,28,6,6,0.3,0.4
2024-06-19T1200,1354A,113.2765,23.1544,广州市,麓湖,,29,22,26,12,13,90,,39,39,10,22,3,2,0.5,0.3
2024-06-19T1200,1355A,113.443,23.3035,广州市,帽峰山森林公园,,26,17,19,9,9,83,,40,40,11,20,1,2,0.5,0.6
2024-06-19T1200,2846A,113.3221,23.1322,广州市,体育西,,31,24,27,16,14,97,,36,36,11,25,4,4,0.5,0.6
2024-06-19T1200,3298A,113.5717,23.5491,广州市,从化街口,,24,20,22,8,10,76,,39,39,10,14,7,7,0.5,0.6
2024-06-19T1200,3299A,113.3472,23.3692,广州市,白云竹料,,29,29,29,12,13,77,,40,40,18,24,4,4,0.6,0.6
2024-06-19T1200,3300A,113.2981,23.237,广州市,白云嘉禾,,33,33,29,16,11,88,,35,35,18,34,5,5,0.6,0.7
2024-06-19T1200,3301A,113.4256,23.1716,广州市,黄埔科学城,,34,34,28,15,12,80,,32,32,16,35,6,7,0.6,0.7
2024-06-19T1200,3302A,113.3942,23.0483,广州市,番禺大学城,,26,19,19,11,10,82,,34,34,13,23,4,4,0.9,0.8
2024-06-19T1200,3303A,113.4922,22.8168,广州市,南沙黄阁,,34,34,27,13,11,69,,42,42,7,12,5,5,0.6,0.6
2024-06-19T1200,3304A,113.5342,22.7896,广州市,南沙街,,,,26,,8,45,,31,31,7,13,6,6,,0.5
2024-06-19T1200,3443A,113.2902,23.5544,广州市,花都梯面,,22,22,29,12,11,69,,40,40,14,16,4,4,0.6,0.6
2024-06-19T1200,3445A,113.7858,23.7478,广州市,从化良口,,22,15,18,9,7,70,,27,27,5,10,5,4,0.5,0.6
2024-06-19T1200,3446A,113.8051,23.2614,广州市,增城荔城,,42,42,33,20,13,90,,34,34,15,20,5,5,0.5,0.5
2024-06-19T1200,2505A,109.568,23.1478,贵港市,德智高中,,,,,,,,,,,,,,,,
2024-06-19T1200,2506A,109.6047,23.0666,贵港市,江南子站,,25,19,44,17,23,65,,30,30,4,17,8,9,0.5,0.7
2024-06-19T1200,2507A,109.6014,23.0948,贵港市,贵城子站,,28,28,40,16,25,67,,26,26,6,18,9,9,0.5,0.8
2024-06-19T1200,2508A,109.5669,23.1065,贵港市,荷城子站,,34,34,33,19,13,76,,33,33,6,14,11,12,0.5,0.6
2024-06-19T1200,3405A,109.5886,23.1172,贵港市,新世纪学校,,34,34,31,15,18,79,,37,37,8,13,13,13,0.7,0.8
2024-06-19T1200,1439A,106.6899,26.5998,贵阳市,马鞍山,,13,7,13,3,4,40,,29,29,15,15,4,4,0.5,0.6
2024-06-19T1200,1440A,106.6971,26.5694,贵阳市,市环保站,,15,14,14,7,14,47,,40,36,17,17,3,3,0.3,0.5
2024-06-19T1200,1441A,106.6243,26.6266,贵阳市,鉴湖路,,14,7,13,3,6,43,,37,37,8,8,3,3,0.5,0.5
2024-06-19T1200,1442A,106.7487,26.6343,贵阳市,燕子冲,,11,6,10,3,8,34,,32,29,15,8,6,5,0.7,0.7
2024-06-19T1200,1443A,106.6555,26.4365,贵阳市,碧云窝,,,,18,,5,50,,34,34,7,13,4,5,0.7,0.6
2024-06-19T1200,1444A,106.694,26.5161,贵阳市,中院村,,15,14,15,7,6,47,,39,36,13,14,5,5,0.6,0.6
2024-06-19T1200,1445A,106.7109,26.6027,贵阳市,红边门,,17,17,16,9,17,37,,36,30,27,16,4,4,0.7,0.7
2024-06-19T1200,1446A,106.7164,26.5699,贵阳市,新华路,,18,,13,12,12,50,,42,40,15,11,4,3,0.5,0.6
2024-06-19T1200,1447A,106.674,26.5424,贵阳市,太慈桥,,15,,10,3,9,46,,31,31,7,11,4,4,0.5,0.6
2024-06-19T1200,1552A,106.805,26.3003,贵阳市,桐木岭,,,,,,,,,,,,,,,,
2024-06-19T1200,1862A,110.4144,25.3167,桂林市,电子科大尧山校区,,42,42,14,19,6,45,,42,41,5,4,21,5,0.4,0.4
2024-06-19T1200,1863A,110.2819,25.2697,桂林市,监测站,,18,18,15,11,10,37,,41,34,14,9,5,4,1.0,0.9
2024-06-19T1200,1864A,110.3089,25.2708,桂林市,龙隐路小学,,23,23,13,11,10,32,,35,30,12,9,4,4,0.8,0.7
2024-06-19T1200,1865A,110.2869,25.2178,桂林市,八中,,26,26,14,6,5,34,,34,28,13,11,4,4,0.7,0.6
2024-06-19T1200,3403A,110.1764,25.2381,桂林市,创业大厦,,12,12,8,7,6,37,,48,47,14,7,6,6,0.6,0.5
2024-06-19T1200,3531A,110.296,25.1253,桂林市,旅游学院,,14,6,6,3,6,43,,38,38,6,6,6,7,0.6,0.5
2024-06-19T1200,2674A,100.2561,34.4714,果洛藏族自治州,玛沁县大武镇,,40,18,21,10,11,127,,70,70,12,13,8,8,0.4,0.4
2024-06-19T1200,1129A,126.5422,45.755,哈尔滨市,岭北,臭氧1小时,82,72,28,27,10,185,,117,117,32,26,16,12,1.1,0.3
2024-06-19T1200,1130A,126.561,45.8167,哈尔滨市,松北商大,,,66,33,24,8,163,,91,91,,32,10,6,0.7,0.5
2024-06-19T1200,1131A,126.979,45.5419,哈尔滨市,阿城会宁,臭氧1小时,78,62,32,31,12,182,,103,103,26,25,13,9,0.8,0.5
2024-06-19T1200,1132A,126.599,45.7222,哈尔滨市,南岗学府路,臭氧1小时,88,72,45,26,10,190,,105,105,27,36,14,10,0.5,0.4
2024-06-19T1200,1133A,126.689,45.7733,哈尔滨市,太平宏伟公园,臭氧1小时,84,79,55,29,14,187,,106,106,29,42,10,9,0.7,0.5
2024-06-19T1200,1134A,126.635,45.7667,哈尔滨市,道外承德广场,臭氧1小时,80,66,38,30,13,184,,104,104,32,35,10,7,0.6,0.5
2024-06-19T1200,1135A,126.685,45.7319,哈尔滨市,香坊红旗大街,,,,48,33,17,179,,93,93,,42,15,12,0.6,0.5
2024-06-19T1200,1136A,126.6411,45.7258,哈尔滨市,动力和平路,,,80,41,,16,179,,97,97,32,38,11,9,0.9,0.5
2024-06-19T1200,1137A,126.593,45.7478,哈尔滨市,道里建国路,,,,36,35,10,177,,97,97,32,37,,13,,1.5
2024-06-19T1200,1138A,126.615,45.61,哈尔滨市,平房东轻厂,臭氧1小时,82,68,26,22,9,185,,105,105,23,25,12,9,0.5,0.4
2024-06-19T1200,1139A,126.595,45.9855,哈尔滨市,呼兰师专,颗粒物(PM10),57,64,39,35,12,160,,86,86,29,34,10,8,0.6,0.4
2024-06-19T1200,1140A,126.6206,45.6842,哈尔滨市,省农科院,臭氧1小时,79,90,58,53,20,183,,93,93,27,46,8,8,0.7,0.4
2024-06-19T1200,2688A,93.5128,42.8172,哈密市,地区监测站,,40,15,29,12,11,125,,104,100,6,8,13,4,0.4,0.3
2024-06-19T1200,2689A,93.4961,42.8328,哈密市,哈密师范学校,,42,21,27,11,10,133,,114,112,7,8,9,5,0.3,0.3
2024-06-19T1200,2671A,100.9048,36.9639,海北藏族自治州,海晏县西海镇,,42,40,25,24,16,132,,86,86,10,9,14,13,0.5,0.4
2024-06-19T1200,3867A,102.0738,36.5056,海东市,平安区公安北苑,颗粒物(PM10),69,88,37,31,18,134,,74,74,10,11,15,10,0.5,0.5
2024-06-19T1200,1409A,110.576,19.9507,海口市,东寨港,,,,,,,,,,,,,,,,
2024-06-19T1200,1410A,110.3232,20.0574,海口市,海南大学,,,18,25,11,13,80,,59,59,,7,6,5,,0.4
2024-06-19T1200,1411A,110.283,20.0053,海口市,秀英海南医院,,37,37,29,17,12,67,,52,52,6,8,6,6,0.3,0.3
2024-06-19T1200,1412A,110.338,19.9969,海口市,海南师范大学,,24,20,24,11,12,75,,53,53,5,6,6,6,0.4,0.4
2024-06-19T1200,1413A,110.33,20.0356,海口市,龙华路环保局宿舍,,24,24,25,11,13,76,,56,56,5,6,6,6,0.4,0.3
2024-06-19T1200,3539A,110.5111,19.9736,海口市,桂林洋子站,,22,19,25,11,12,68,,55,55,2,3,6,6,0.3,0.3
2024-06-19T1200,2673A,100.6188,36.2866,海南藏族自治州,共和县恰卜恰镇,,39,,24,18,11,124,,86,86,4,13,16,14,0.5,0.5
2024-06-19T1200,2676A,97.3731,37.3753,海西蒙古族藏族自治州,德令哈市,,40,35,26,11,14,125,,115,110,6,7,10,12,0.4,0.5
2024-06-19T1200,1048A,114.5302,36.6116,邯郸市,东污水处理厂,臭氧1小时,93,52,60,24,29,194,,132,132,5,11,2,2,0.4,0.4
2024-06-19T1200,1049A,114.4918,36.5713,邯郸市,矿院,臭氧1小时,101,24,40,19,22,201,,133,133,6,12,5,5,0.5,0.5
2024-06-19T1200,1050A,114.484,36.6133,邯郸市,丛台公园,臭氧1小时,77,39,47,15,23,181,,124,124,2,5,4,4,0.3,0.4
2024-06-19T1200,3458A,114.7895,36.5593,邯郸市,香泉濮院小区,臭氧1小时,103,39,60,16,23,206,,135,135,6,10,3,3,0.3,0.3
2024-06-19T1200,3579A,114.50634,36.77178,邯郸市,永年区实验高中,臭氧1小时,88,54,61,26,31,190,,132,132,2,6,2,3,0.4,0.5
2024-06-19T1200,3580A,114.20016,36.44293,邯郸市,峰峰矿区临水派出所,,,50,68,17,22,161,,124,124,,6,4,6,0.1,0.5
2024-06-19T1200,2634A,106.9893,33.1842,汉中市,汉川机床厂子校,,49,,24,34,30,89,,48,48,6,11,5,4,0.4,0.4
2024-06-19T1200,2635A,107.0154,33.0706,汉中市,市监测站,,37,37,31,19,14,91,,36,36,8,12,8,7,0.9,0.9
2024-06-19T1200,2636A,107.0089,33.1138,汉中市,鑫源开发区,,37,37,31,14,14,100,,55,55,6,14,8,8,0.5,0.5
2024-06-19T1200,2637A,107.007,33.0323,汉中市,南郑大河坎水厂,,49,49,29,26,17,79,,33,33,14,10,8,8,0.8,0.7
2024-06-19T1200,1223A,120.2072,30.2111,杭州市,滨江,,,20,13,8,7,27,,45,31,,14,,4,0.6,0.5
2024-06-19T1200,1224A,120.0633,30.2747,杭州市,西溪,,15,15,15,7,9,11,,26,16,22,12,6,6,0.7,0.5
2024-06-19T1200,1226A,120.3461,30.3153,杭州市,下沙,,18,18,23,7,7,29,,42,35,28,17,5,6,0.5,0.4
2024-06-19T1200,1227A,120.1269,30.2456,杭州市,卧龙桥,,18,14,17,12,9,18,,31,20,19,11,4,5,0.7,0.6
2024-06-19T1200,1228A,120.1903,30.2692,杭州市,浙江农大,,18,14,13,12,8,27,,44,30,26,16,7,7,0.6,0.4
2024-06-19T1200,1230A,120.1197,30.3119,杭州市,和睦小学,,17,17,13,10,10,29,,44,31,22,14,4,4,0.6,0.5
2024-06-19T1200,1231A,120.3019,30.4183,杭州市,临平镇,,49,49,16,27,8,28,,42,30,33,17,4,5,0.7,0.5
2024-06-19T1200,1232A,120.2697,30.1819,杭州市,城厢镇,,23,23,15,14,9,28,,40,30,20,13,5,6,0.7,0.5
2024-06-19T1200,1233A,120.0883,30.1808,杭州市,云栖,,15,15,13,7,8,16,,22,9,25,14,6,6,0.6,0.5
2024-06-19T1200,3557A,119.9464,30.0494,杭州市,镇二中,,15,,16,10,9,17,,34,20,25,17,6,6,0.8,0.6
2024-06-19T1200,3558A,119.7183,30.2367,杭州市,市府大楼,,19,,17,13,13,16,,34,20,26,16,6,7,0.7,0.7
2024-06-19T1200,3656A,120.1556,30.2864,杭州市,消防大队,,24,24,12,14,10,27,,42,31,24,14,5,6,0.8,0.7
2024-06-19T1200,1270A,117.1959,31.7848,合肥市,明珠广场,,27,12,33,12,18,85,,107,91,15,19,6,8,0.3,0.2
2024-06-19T1200,1271A,117.3072,31.8764,合肥市,三里街,,25,24,35,9,18,79,,101,85,21,23,6,7,0.4,0.4
2024-06-19T1200,1272A,117.2588,31.8707,合肥市,琥珀山庄,,27,19,34,9,15,86,,112,96,14,16,4,7,0.7,0.6
2024-06-19T1200,1273A,117.1604,31.9052,合肥市,董铺水库,,26,14,38,9,15,81,,109,92,11,15,1,3,0.4,0.4
2024-06-19T1200,1274A,117.25,31.8571,合肥市,长江中路,,25,24,41,17,20,74,,116,96,26,20,5,7,0.7,0.6
2024-06-19T1200,1275A,117.266,31.9436,合肥市,庐阳区,,42,36,39,29,21,80,,115,98,27,22,8,9,0.4,0.3
2024-06-19T1200,1276A,117.336,31.8586,合肥市,瑶海区,,26,22,34,9,16,82,,102,88,18,20,8,10,0.5,0.3
2024-06-19T1200,1277A,117.3027,31.7964,合肥市,包河区,,28,12,33,9,13,88,,116,97,15,19,5,7,0.5,0.4
2024-06-19T1200,1278A,117.2776,31.7385,合肥市,滨湖新区,,28,9,26,9,17,89,,113,98,9,10,6,7,0.5,0.4
2024-06-19T1200,1279A,117.1318,31.8403,合肥市,高新区,,26,12,30,9,16,82,,111,94,11,16,7,9,0.6,0.6
2024-06-19T1200,3464A,117.3803,31.9147,合肥市,高教基地,,22,,30,12,18,68,,99,76,12,13,6,7,0.5,0.4
2024-06-19T1200,3614A,79.924,37.0877,和田地区,地区环保局,颗粒物(PM10),116,181,251,38,57,88,,100,89,5,3,9,6,0.5,0.4
2024-06-19T1200,3615A,79.9131,37.113,和田地区,市环保局,颗粒物(PM10),107,164,232,37,61,85,,103,89,13,7,7,6,0.5,0.4
2024-06-19T1200,2516A,108.2011,24.715,河池市,东仁乐园,,,,25,22,11,,,21,,,8,,4,,0.7
2024-06-19T1200,2517A,108.0497,24.6947,河池市,市环保站,,27,27,19,14,9,54,,27,27,9,11,10,8,0.6,0.6
2024-06-19T1200,2518A,108.0983,24.6989,河池市,市疾控中心,,17,15,17,11,10,53,,29,29,8,14,10,7,0.5,0.5
2024-06-19T1200,1696A,114.6778,23.7569,河源市,源西,,33,,31,23,19,57,,26,26,9,14,4,4,0.5,0.5
2024-06-19T1200,1697A,114.6944,23.7586,河源市,东埔,,41,41,31,10,7,56,,27,27,12,13,7,6,0.5,0.6
2024-06-19T1200,1698A,114.6892,23.7233,河源市,老城,,26,26,25,9,7,59,,27,27,5,10,6,5,0.4,0.4
2024-06-19T1200,1718A,115.4208,35.2464,菏泽市,气象局,臭氧1小时,107,,59,27,24,214,,157,157,16,19,7,5,0.3,0.3
2024-06-19T1200,1719A,115.4747,35.2375,菏泽市,市政协,臭氧1小时,110,45,59,22,26,220,,155,155,9,14,6,5,0.2,0.2
2024-06-19T1200,3374A,115.5564,35.0891,菏泽市,定陶老年大学,臭氧1小时,105,39,50,14,17,209,,148,148,14,18,6,5,0.1,0.1
2024-06-19T1200,3647A,115.4702,35.2706,菏泽市,菏泽医专,臭氧1小时,110,47,62,16,20,219,,157,157,12,19,3,4,0.0,0.2
2024-06-19T1200,2514A,111.5264,24.4172,贺州市,环保小区,,29,29,19,11,10,36,,42,34,10,11,9,9,0.9,0.8
2024-06-19T1200,2515A,111.5608,24.4078,贺州市,政协大楼,,34,34,23,11,12,28,,45,35,17,13,8,8,0.6,0.5
2024-06-19T1200,3534A,111.4744,24.4553,贺州市,西湾,,25,25,16,10,10,28,,30,28,17,17,8,8,0.5,0.5
2024-06-19T1200,2385A,114.17,35.9019,鹤壁市,市监测站,臭氧1小时,101,56,54,28,28,201,,125,125,10,13,10,8,0.7,0.7
2024-06-19T1200,2386A,114.2956,35.7511,鹤壁市,市交警支队,臭氧1小时,105,47,56,28,31,210,,136,136,6,14,9,8,0.5,0.5
2024-06-19T1200,2387A,114.2878,35.7306,鹤壁市,迎宾馆,臭氧1小时,105,54,49,23,34,209,,125,125,11,22,8,9,0.5,0.5
2024-06-19T1200,3474A,114.2617,35.6822,鹤壁市,大新区,臭氧1小时,102,48,54,18,24,204,,126,126,12,24,7,6,0.6,0.7
2024-06-19T1200,3596A,114.1572,35.9603,鹤壁市,南山宾馆,臭氧1小时,105,45,55,35,35,210,,130,130,4,9,8,8,0.6,0.6
2024-06-19T1200,2244A,130.2537,47.3416,鹤岗市,哈啤分公司,,25,25,19,7,10,41,,22,22,20,9,15,14,0.3,0.3
2024-06-19T1200,2245A,130.2684,47.3086,鹤岗市,斯达机电,,14,14,21,9,9,38,,24,24,17,11,13,12,0.3,0.3
2024-06-19T1200,2246A,130.3114,47.3388,鹤岗市,东山纸板厂,,11,11,39,3,9,32,,18,18,18,14,17,16,0.4,0.5
2024-06-19T1200,2247A,130.1097,47.3382,鹤岗市,五号水库,,18,18,18,3,10,44,,23,23,6,7,9,9,0.4,0.4
2024-06-19T1200,2263A,127.4833,50.2524,黑河市,交通局,,20,20,27,13,18,46,,34,34,3,11,6,6,0.3,0.4
2024-06-19T1200,2264A,127.5144,50.2341,黑河市,环保局,,,,21,,18,46,,32,30,2,9,4,6,,0.2
2024-06-19T1200,2265A,127.5291,50.2472,黑河市,大黑河岛,,,,23,16,19,75,,61,58,4,12,6,7,,0.6
2024-06-19T1200,1074A,115.6838,37.7541,衡水市,电机北厂,臭氧1小时,110,54,76,8,25,220,,165,165,7,11,7,7,0.4,0.4
2024-06-19T1200,1075A,115.6303,37.7316,衡水市,市监测站,臭氧1小时,112,48,55,18,23,224,,165,165,9,12,4,4,0.6,0.6
2024-06-19T1200,3188A,115.6683,37.7217,衡水市,市城管局,臭氧1小时,112,55,63,18,23,224,,165,165,10,12,8,7,0.5,0.4
2024-06-19T1200,3459A,115.5989,37.5491,衡水市,地表水厂,臭氧1小时,113,64,71,10,20,226,,164,164,9,13,10,8,0.4,0.4
2024-06-19T1200,2456A,112.5003,26.9167,衡阳市,原169医院,,,,16,8,10,43,,37,37,10,11,,5,0.7,0.7
2024-06-19T1200,2457A,112.6194,26.9258,衡阳市,衡阳化工总厂,,,15,21,,11,56,,39,39,6,7,6,7,,0.5
2024-06-19T1200,2458A,112.6211,26.8956,衡阳市,珠晖区环保局,,19,11,20,7,9,59,,44,44,5,6,8,6,0.8,0.7
2024-06-19T1200,2459A,112.6197,26.8733,衡阳市,市委党校,,,11,18,8,9,60,,42,42,,8,,8,0.5,0.6
2024-06-19T1200,2460A,112.6006,26.8919,衡阳市,市监测站,,19,16,19,11,11,59,,41,41,6,8,8,9,0.7,0.6
2024-06-19T1200,2461A,112.5664,26.9056,衡阳市,真空机电公司,,15,14,24,10,10,46,,38,38,11,9,9,8,1.2,0.9
2024-06-19T1200,3399A,112.6703,26.882,衡阳市,师范学院,,17,12,20,3,10,52,,37,37,6,8,7,9,0.7,0.7
2024-06-19T1200,2608A,103.3772,23.3993,红河哈尼族彝族自治州,污水处理厂,,24,21,21,9,14,74,,62,62,4,6,5,6,0.4,0.4
2024-06-19T1200,2609A,103.3861,23.35,红河哈尼族彝族自治州,监测站,,,20,23,9,11,72,,62,62,6,9,,11,0.5,0.5
2024-06-19T1200,3038A,103.3758,23.368,红河哈尼族彝族自治州,州图书馆,,22,21,20,3,9,70,,63,63,6,6,6,4,0.4,0.4
2024-06-19T1200,1090A,111.6507,40.7517,呼和浩特市,呼市一监,,45,17,54,7,21,141,,94,94,10,20,6,7,0.4,0.6
2024-06-19T1200,1091A,111.6572,40.8033,呼和浩特市,小召,,39,22,52,9,20,124,,95,95,14,24,7,7,0.4,0.5
2024-06-19T1200,1094A,111.7516,40.8369,呼和浩特市,如意水处理厂,,39,18,42,8,17,124,,84,84,11,26,5,6,0.4,0.6
2024-06-19T1200,1095A,111.7276,40.8062,呼和浩特市,二十九中,,41,16,54,9,23,129,,93,93,15,29,3,4,0.3,0.5
2024-06-19T1200,1096A,111.5512,40.7866,呼和浩特市,工大金川校区,颗粒物(PM10),53,56,52,21,19,98,,68,68,34,36,7,7,0.5,0.5
2024-06-19T1200,1097A,111.717,40.7612,呼和浩特市,化肥厂生活区,,42,21,53,7,21,132,,91,91,12,25,10,12,0.5,0.7
2024-06-19T1200,3698A,111.5968,40.8178,呼和浩特市,红旗小学,,40,17,61,17,21,125,,88,88,14,30,3,5,0.2,0.5
2024-06-19T1200,3699A,111.6518,40.8389,呼和浩特市,海东办,,41,19,52,10,19,129,,79,79,10,29,6,7,0.2,0.3
2024-06-19T1200,2192A,119.7594,49.2261,呼伦贝尔市,区环保局,,34,34,38,15,17,37,,38,38,12,11,5,5,0.4,0.4
2024-06-19T1200,3061A,119.7512,49.1577,呼伦贝尔市,国华电力东,,27,27,22,9,10,43,,45,44,5,6,6,6,0.4,0.4
2024-06-19T1200,1250A,120.0751,30.8669,湖州市,城西水厂,,28,28,28,16,13,28,,42,28,26,19,4,4,0.6,0.5
2024-06-19T1200,2873A,120.0875,30.8955,湖州市,仁皇山新区,,32,26,24,22,15,22,,40,26,31,24,5,6,0.8,0.7
2024-06-19T1200,2907A,120.1844,30.8596,湖州市,吴兴区站,,33,26,21,23,13,22,,41,27,31,18,6,7,0.7,0.5
2024-06-19T1200,3562A,120.4148,30.8538,湖州市,南浔区站,,22,16,22,15,12,28,,49,34,26,16,2,4,0.6,0.4
2024-06-19T1200,1607A,120.9092,40.7136,葫芦岛市,龙港区,,34,29,51,7,18,106,,137,97,14,10,6,7,0.3,0.5
2024-06-19T1200,1608A,120.8392,40.7514,葫芦岛市,化工街,,33,31,51,7,18,104,,120,88,10,16,12,14,0.6,0.7
2024-06-19T1200,1609A,120.8341,40.7073,葫芦岛市,新区,,38,32,45,10,20,119,,135,100,12,15,6,6,0.4,0.6
2024-06-19T1200,1610A,120.8695,40.7677,葫芦岛市,东城区,颗粒物(PM10),61,72,47,9,19,127,,142,106,8,14,7,9,0.5,0.7
2024-06-19T1200,2482A,109.5981,27.5721,怀化市,林科所,,29,15,10,6,7,90,,68,68,8,3,7,6,0.7,0.6
2024-06-19T1200,2483A,109.9453,27.5444,怀化市,河西地税局,,23,,14,6,9,72,,47,47,4,9,10,11,0.7,0.7
2024-06-19T1200,2484A,109.9781,27.5342,怀化市,市四医院,,28,21,11,19,10,64,,47,47,11,7,5,6,1.0,0.9
2024-06-19T1200,2485A,109.9972,27.5578,怀化市,监测楼,,24,24,14,15,9,67,,55,55,8,5,4,6,0.7,0.6
2024-06-19T1200,2486A,110.0394,27.583,怀化市,市委党校,,22,16,12,3,10,68,,58,58,7,5,6,8,0.6,0.7
2024-06-19T1200,1210A,119.036,33.5981,淮安市,钵池山,,40,36,39,28,21,120,,92,92,14,20,7,8,0.6,0.4
2024-06-19T1200,1211A,119.007,33.575,淮安市,北京南路,,48,39,42,33,25,115,,88,88,11,15,6,7,0.5,0.4
2024-06-19T1200,1212A,118.989,33.6067,淮安市,市监测站,,46,46,41,27,20,117,,88,88,12,15,7,8,0.7,0.6
2024-06-19T1200,1213A,119.135,33.5039,淮安市,楚州区监测站,,48,46,48,33,26,111,,84,84,15,21,5,6,0.5,0.4
2024-06-19T1200,1214A,119.0186,33.6297,淮安市,淮阴区监测站,,46,41,42,32,22,121,,92,92,15,19,6,8,0.5,0.4
2024-06-19T1200,3426A,118.8755,33.2894,淮安市,新华书店,,43,42,43,30,23,119,,90,90,11,16,6,8,0.6,0.5
2024-06-19T1200,2282A,116.8004,33.975,淮北市,监测站,臭氧1小时,95,59,50,28,21,196,,150,150,9,10,7,7,0.5,0.4
2024-06-19T1200,2283A,116.8091,33.9007,淮北市,烈山区政府,,,,62,,21,210,,151,151,12,13,8,6,0.5,0.5
2024-06-19T1200,3330A,116.8873,33.9836,淮北市,杜集区检察院,臭氧1小时,105,45,50,24,21,209,,159,159,9,11,7,8,0.4,0.4
2024-06-19T1200,4017A,116.7923,33.9535,淮北市,市博物馆,臭氧1小时,104,44,47,28,22,208,,158,158,7,8,6,6,0.6,0.5
2024-06-19T1200,2277A,116.8305,32.7727,淮南市,潘集区政府,臭氧1小时,57,33,50,27,26,165,,137,137,7,14,6,9,0.2,0.4
2024-06-19T1200,2278A,117.0067,32.6524,淮南市,师范学院,,46,35,47,27,28,147,,118,118,7,14,9,11,0.2,0.3
2024-06-19T1200,2279A,116.8569,32.5951,淮南市,谢家集区政府,,50,16,43,8,13,158,,129,129,7,16,6,13,0.3,0.3
2024-06-19T1200,2280A,116.8281,32.633,淮南市,八公山区政府,臭氧1小时,53,32,48,20,24,162,,132,132,5,12,2,5,0.3,0.4
2024-06-19T1200,2281A,116.6325,32.6201,淮南市,焦岗湖风景区管理处,,38,22,33,16,12,119,,92,92,10,19,9,9,0.2,0.3
2024-06-19T1200,2894A,117.0566,32.6531,淮南市,经济技术开发区消防队,,47,34,44,9,17,149,,121,121,8,16,4,5,0.3,0.3
2024-06-19T1200,3329A,117.0108,32.5893,淮南市,山南新区,,49,25,46,13,19,155,,131,131,7,13,6,7,0.4,0.4
2024-06-19T1200,2446A,114.9028,30.4742,黄冈市,职工中心,,36,36,23,25,16,48,,49,44,16,10,7,8,0.5,0.6
2024-06-19T1200,2929A,114.8858,30.4519,黄冈市,红卫路,,46,46,24,29,15,46,,57,51,19,12,8,8,0.6,0.4
2024-06-19T1200,3398A,114.9136,30.4445,黄冈市,市林业局,,49,37,24,34,16,38,,50,43,14,11,6,4,0.5,0.3
2024-06-19T1200,2672A,102.0199,35.5102,黄南藏族自治州,同仁县隆务镇,,30,18,39,12,9,95,,71,71,5,2,13,11,0.7,0.7
2024-06-19T1200,2295A,118.2903,29.6963,黄山市,延安路89号,,22,22,21,8,5,26,,35,27,8,5,5,5,0.6,0.6
2024-06-19T1200,2296A,118.327,29.7178,黄山市,黄山东路89号,,8,,9,3,4,24,,34,26,7,5,5,5,0.4,0.4
2024-06-19T1200,2297A,118.1371,30.2756,黄山市,黄山区政府5号楼,,9,,10,6,6,28,,24,24,7,6,6,6,0.4,0.4
2024-06-19T1200,2423A,115.0601,30.2313,黄石市,沈家营,颗粒物(PM10),54,58,37,20,11,59,,37,34,18,24,10,9,0.7,0.7
2024-06-19T1200,2424A,115.0817,30.2006,黄石市,陈家湾,,49,49,37,19,12,61,,47,46,8,10,4,4,0.6,0.6
2024-06-19T1200,2426A,114.8988,30.2019,黄石市,铁山,,33,33,24,10,9,60,,44,44,7,8,8,9,0.3,0.4
2024-06-19T1200,2427A,115.0307,30.2092,黄石市,团城山,,36,36,32,10,7,64,,50,49,7,7,5,6,0.7,0.6
2024-06-19T1200,3149A,115.0235,30.1578,黄石市,笔架山北路,,47,47,38,11,6,54,,40,40,6,7,6,6,0.8,0.7
2024-06-19T1200,1392A,114.4183,23.0528,惠州市,河南岸金山湖子站,,24,13,20,7,9,75,,28,28,4,10,4,4,0.3,0.4
2024-06-19T1200,1393A,114.4053,23.0822,惠州市,下埔横江三路子站,,25,15,23,8,11,78,,38,38,7,12,6,6,0.5,0.5
2024-06-19T1200,1394A,114.4103,23.1142,惠州市,江北云山西路子站,,26,14,23,3,8,81,,36,36,4,11,7,8,0.5,0.5
2024-06-19T1200,1395A,114.4645,22.7833,惠州市,惠阳区承修路船湖子站,,,11,17,7,6,46,,34,34,7,12,2,1,,0.6
2024-06-19T1200,1396A,114.5317,22.7422,惠州市,大亚湾管委会子站,,18,15,18,6,8,57,,48,48,9,12,4,4,0.7,0.7
2024-06-19T1200,3314A,114.4338,22.8134,惠州市,惠阳秋长,,22,22,31,3,10,66,,31,31,4,17,5,6,0.4,0.8
2024-06-19T1200,3452A,114.6517,22.775,惠州市,大亚湾霞涌,,14,13,17,3,8,42,,35,35,4,7,3,3,0.5,0.5
2024-06-19T1200,2240A,130.9762,45.3001,鸡西市,环保局,,41,41,40,12,14,81,,42,42,9,21,7,7,0.4,0.5
2024-06-19T1200,2243A,130.9429,45.3039,鸡西市,第一中学,,32,17,36,3,12,100,,50,50,3,15,7,8,0.3,0.3
2024-06-19T1200,3707A,131.0207,45.3073,鸡西市,欧美日汽修厂,,50,50,43,19,14,84,,42,42,13,17,7,7,0.5,0.5
2024-06-19T1200,3709A,130.9967,45.3106,鸡西市,市政设施管理处,颗粒物(PM10),52,54,38,6,10,82,,36,36,19,20,8,7,0.4,0.4
2024-06-19T1200,2367A,114.9754,27.0803,吉安市,红声器材厂,,37,37,29,12,15,62,,51,51,11,13,10,11,0.5,0.4
2024-06-19T1200,2368A,114.9658,27.0999,吉安市,市森林工业局,,30,30,31,13,19,57,,48,48,10,12,12,11,0.4,0.5
2024-06-19T1200,2369A,114.99,27.1312,吉安市,市环境监测站,,30,30,28,14,15,63,,51,51,8,8,11,12,0.5,0.6
2024-06-19T1200,2370A,115.0093,27.0968,吉安市,青原区法院,,28,28,28,13,15,59,,50,50,10,13,14,16,0.3,0.4
2024-06-19T1200,1772A,126.54,43.8622,吉林市,哈达湾,臭氧1小时,118,51,34,42,19,236,,144,144,10,29,6,7,0.7,0.5
2024-06-19T1200,1773A,126.5844,43.8358,吉林市,东局子,臭氧1小时,118,49,32,32,17,236,,150,150,14,23,6,7,0.7,0.5
2024-06-19T1200,1774A,126.5052,43.8245,吉林市,电力学院,臭氧1小时,113,63,45,27,19,226,,118,118,14,35,10,10,0.7,0.6
2024-06-19T1200,1775A,126.6133,43.8972,吉林市,江北,臭氧1小时,111,71,45,30,19,222,,134,134,16,35,8,12,0.7,0.6
2024-06-19T1200,1776A,126.555,43.8306,吉林市,江南公园,臭氧1小时,115,52,32,40,19,230,,144,144,14,25,5,5,0.7,0.8
2024-06-19T1200,1778A,126.7061,43.7133,吉林市,丰满,,,,,,,,,,,,,,,,
2024-06-19T1200,2868A,126.4739,43.953,吉林市,九站,臭氧1小时,121,63,44,27,18,241,,133,133,13,47,8,12,0.7,0.6
2024-06-19T1200,1299A,116.9862,36.6114,济南市,科干所,臭氧1小时,99,39,39,17,17,199,,174,174,14,14,10,9,0.3,0.3
2024-06-19T1200,1300A,116.9376,36.665,济南市,农科所,臭氧1小时,108,49,47,15,13,216,,171,171,16,20,10,9,0.5,0.5
2024-06-19T1200,1301A,117.1265,36.6734,济南市,开发区,臭氧1小时,107,34,40,10,14,213,,177,177,11,14,9,8,0.4,0.4
2024-06-19T1200,1303A,117.0624,36.6868,济南市,省种子仓库,臭氧1小时,105,39,54,22,20,209,,166,166,13,25,9,8,0.5,0.5
2024-06-19T1200,1304A,116.9489,36.6447,济南市,机床二厂,臭氧1小时,112,49,50,17,16,223,,182,182,17,19,11,11,0.4,0.4
2024-06-19T1200,1305A,117.0495,36.663,济南市,市监测站,臭氧1小时,107,44,41,37,22,214,,184,184,17,19,13,12,0.4,0.4
2024-06-19T1200,1306A,116.7675,36.5484,济南市,长清党校,,,,46,,19,232,,195,195,15,11,11,10,0.5,0.5
2024-06-19T1200,1616A,117.6795,36.229,济南市,技术学院,臭氧1小时,67,46,48,14,18,173,,102,102,16,24,11,12,0.6,0.6
2024-06-19T1200,1961A,117.532,36.6868,济南市,东山小学,臭氧1小时,107,54,51,20,18,213,,169,169,17,18,11,9,0.7,0.5
2024-06-19T1200,3059A,117.7161,36.2049,济南市,泰兴公司,臭氧1小时,67,36,50,17,19,173,,99,99,7,22,9,11,0.4,0.5
2024-06-19T1200,3064A,117.6867,36.2171,济南市,莱芜战役纪念馆,臭氧1小时,62,48,51,12,15,169,,94,94,13,21,11,11,0.5,0.6
2024-06-19T1200,3494A,117.1673,36.9782,济南市,济阳区政府,臭氧1小时,120,61,65,17,19,240,,153,153,11,18,8,7,0.3,0.4
2024-06-19T1200,3495A,117.1171,36.63,济南市,锦屏中学,臭氧1小时,111,39,39,12,16,221,,190,190,13,15,10,11,0.6,0.6
2024-06-19T1200,3682A,116.9814,36.6819,济南市,济南四建,臭氧1小时,110,39,35,20,19,220,,180,180,9,11,10,9,0.5,0.5
2024-06-19T1200,1653A,116.6251,35.4302,济宁市,火炬城,臭氧1小时,105,77,50,22,25,209,,136,136,13,16,12,11,0.6,0.6
2024-06-19T1200,1655A,116.5491,35.4042,济宁市,电化厂,臭氧1小时,110,55,58,27,24,220,,143,143,14,15,9,10,0.5,0.5
2024-06-19T1200,3500A,116.5814,35.3707,济宁市,北湖一中,臭氧1小时,105,46,42,22,22,209,,136,136,16,19,9,9,0.5,0.6
2024-06-19T1200,3501A,116.8249,35.5593,济宁市,服务中心,臭氧1小时,106,53,52,29,23,212,,134,134,15,18,7,7,0.5,0.4
2024-06-19T1200,3678A,116.5907,35.4054,济宁市,市第七中学,臭氧1小时,108,61,49,22,21,215,,135,135,14,16,7,8,0.6,0.5
2024-06-19T1200,2255A,130.2751,46.8028,佳木斯市,佳纺,,,48,40,,13,61,,35,35,13,16,5,4,0.5,0.4
2024-06-19T1200,2256A,130.3995,46.8307,佳木斯市,发电厂,,40,40,26,18,14,64,,38,38,14,14,2,4,0.5,0.5
2024-06-19T1200,2257A,130.3258,46.7975,佳木斯市,环保局,,37,37,27,19,11,61,,41,36,11,13,5,5,0.5,0.4
2024-06-19T1200,2258A,130.3648,46.8032,佳木斯市,十一中,,38,38,28,20,14,60,,39,39,18,18,6,6,0.5,0.4
2024-06-19T1200,2259A,130.3794,46.7588,佳木斯市,四丰,,21,17,12,13,8,66,,50,50,4,6,1,1,0.6,0.6
2024-06-19T1200,1252A,120.7436,30.778,嘉兴市,清河小学,,15,15,18,6,7,48,,62,44,21,18,4,5,0.9,0.7
2024-06-19T1200,1253A,120.726,30.7478,嘉兴市,嘉兴学院,,15,15,18,9,8,36,,51,35,21,16,4,4,0.5,0.4
2024-06-19T1200,2872A,120.7846,30.7525,嘉兴市,南湖区残联,,18,11,15,7,9,56,,69,55,15,13,5,6,0.5,0.4
2024-06-19T1200,3407A,120.6916,30.7739,嘉兴市,秀洲住建,,17,17,21,6,8,38,,55,36,19,12,5,5,0.7,0.6
2024-06-19T1200,1945A,98.2908,39.7711,嘉峪关市,气象局,,44,44,44,12,14,112,,103,103,21,20,47,14,0.5,0.2
2024-06-19T1200,2884A,98.2672,39.7978,嘉峪关市,酒钢宾馆,,44,44,48,14,16,120,,106,106,18,17,49,25,0.4,0.3
2024-06-19T1200,3248A,98.2643,39.7724,嘉峪关市,雄关区,,36,33,38,8,16,115,,101,101,15,17,14,9,0.5,0.4
2024-06-19T1200,1383A,113.1064,22.6058,江门市,北街,,20,16,21,6,10,61,,42,42,5,8,2,2,0.5,0.5
2024-06-19T1200,1384A,113.0731,22.5835,江门市,西区,,24,11,23,10,11,76,,49,49,6,8,6,6,0.3,0.4
2024-06-19T1200,1385A,113.0219,22.5311,江门市,圭峰西,,28,28,22,9,8,73,,46,46,2,6,2,2,0.4,0.4
2024-06-19T1200,1386A,113.0828,22.5947,江门市,东湖,,24,17,22,10,10,74,,50,50,6,8,6,6,0.3,0.4
2024-06-19T1200,3311A,113.1075,22.5647,江门市,江海富民,,30,30,39,12,14,73,,49,49,5,9,5,5,0.4,0.5
2024-06-19T1200,3449A,113.05,22.4667,江门市,新会银湖,,,,20,6,8,68,,50,50,2,3,4,5,0.4,0.5
2024-06-19T1200,1828A,113.227,35.2125,焦作市,市环保局,臭氧1小时,108,57,54,32,32,215,,138,138,9,12,4,3,0.3,0.4
2024-06-19T1200,1830A,113.1992,35.2590,焦作市,影视城,,,,,,,,,,,,,,,,
2024-06-19T1200,3169A,113.2725,35.2067,焦作市,太极体育中心,,,,,,,,,,,,,,,,
2024-06-19T1200,3335A,113.3137,35.2641,焦作市,马村街道办,臭氧1小时,105,52,57,30,32,210,,135,135,12,13,5,2,0.4,0.5
2024-06-19T1200,3336A,113.2465,35.2373,焦作市,焦作技师学院,臭氧1小时,107,65,56,31,28,213,,137,137,10,11,6,2,0.7,0.6
2024-06-19T1200,3477A,113.1656,35.2539,焦作市,中站许衡医院,臭氧1小时,94,33,43,25,32,195,,127,127,10,18,8,6,0.5,0.4
2024-06-19T1200,3981A,113.2449,35.1803,焦作市,原李万街道办,臭氧1小时,102,49,52,29,30,204,,126,126,11,15,,8,0.5,0.5
2024-06-19T1200,1708A,116.3701,23.5345,揭阳市,新兴,,,18,26,10,7,44,,25,25,,17,4,5,0.6,0.6
2024-06-19T1200,1709A,116.3264,23.5443,揭阳市,西马,,,,21,14,8,39,,24,24,,11,,2,0.6,0.8
2024-06-19T1200,1710A,116.3611,23.5626,揭阳市,东兴,,36,36,29,8,7,40,,28,28,10,15,1,4,0.7,0.7
2024-06-19T1200,1711A,116.4151,23.5294,揭阳市,渔湖,,47,47,28,3,5,34,,25,25,17,18,4,4,0.7,0.7
2024-06-19T1200,3320A,116.403,23.5699,揭阳市,曲溪,,14,14,20,7,10,41,,26,26,10,18,2,7,0.5,0.6
2024-06-19T1200,1944A,102.1692,38.5167,金昌市,天庆家园,,43,43,66,18,24,129,,99,99,2,7,24,14,0.3,0.5
2024-06-19T1200,3170A,102.1864,38.5253,金昌市,市委党校,颗粒物(PM10),51,52,86,15,27,130,,97,97,5,9,27,27,0.5,0.7
2024-06-19T1200,4022A,102.1647,38.5371,金昌市,金川区人防中心,细颗粒物(PM2.5),58,52,88,41,35,140,,105,105,5,8,20,17,0.4,0.5
2024-06-19T1200,1262A,119.647,29.077,金华市,十五中,,28,28,21,18,15,45,,24,24,20,26,3,2,0.7,0.5
2024-06-19T1200,1263A,119.686,29.1029,金华市,监测站,,,25,22,18,14,33,,18,14,,30,3,2,0.6,0.5
2024-06-19T1200,3659A,119.656,29.1131,金华市,气象局,,24,24,24,16,12,30,,16,14,28,38,5,6,0.5,0.5
2024-06-19T1200,1767A,121.1115,41.0879,锦州市,南山,颗粒物(PM10),60,70,46,18,21,123,,147,108,15,19,12,12,0.5,0.6
2024-06-19T1200,1768A,121.0533,40.8434,锦州市,开发区,,,,88,10,21,118,,135,96,14,21,8,17,0.6,0.9
2024-06-19T1200,1769A,121.1836,41.1119,锦州市,百股街道,,44,44,44,7,19,130,,157,114,14,16,11,15,0.6,0.8
2024-06-19T1200,1770A,121.1178,41.1222,锦州市,天安街道,颗粒物(PM10),60,70,50,15,23,106,,127,96,18,20,11,10,0.7,0.8
2024-06-19T1200,1771A,121.1303,41.1386,锦州市,北湖公园,,,119,50,15,20,119,,141,106,,16,14,12,0.6,0.7
2024-06-19T1200,2160A,112.85,35.5051,晋城市,自来水公司,臭氧1小时,58,32,39,14,21,166,,116,116,6,17,5,7,0.5,0.7
2024-06-19T1200,2161A,112.8318,35.4936,晋城市,白云商贸,臭氧1小时,60,35,34,9,18,168,,112,112,8,18,6,7,0.5,0.6
2024-06-19T1200,2162A,112.8508,35.4887,晋城市,市环保局,臭氧1小时,57,44,50,17,24,165,,108,108,7,22,5,7,0.4,0.5
2024-06-19T1200,2163A,112.8676,35.4897,晋城市,技术学院,,50,25,43,9,24,159,,113,113,10,22,5,6,0.6,0.7
2024-06-19T1200,2165A,112.8453,35.546,晋城市,白马寺,,,,,,,,,,,,,,,,
2024-06-19T1200,3620A,112.8271,35.4828,晋城市,泽州一中,臭氧1小时,52,33,45,14,20,161,,105,105,7,20,7,8,0.5,0.6
2024-06-19T1200,2171A,112.7532,37.6945,晋中市,锦纶小区,臭氧1小时,108,56,61,24,24,216,,135,135,14,23,16,13,0.8,0.6
2024-06-19T1200,2173A,112.7249,37.7067,晋中市,南都小区,臭氧1小时,117,61,57,34,29,233,,152,152,14,19,16,12,0.7,0.6
2024-06-19T1200,2174A,112.6991,37.6982,晋中市,榆次区政府,臭氧1小时,105,58,55,31,28,209,,142,142,15,22,14,12,0.6,0.5
2024-06-19T1200,2865A,112.7195,37.6828,晋中市,榆次三中,,,,58,,24,223,,114,,10,21,,13,,0.7
2024-06-19T1200,2439A,112.2014,31.0481,荆门市,竹园小学,颗粒物(PM10),51,52,45,34,30,140,,91,91,14,17,9,11,0.6,0.6
2024-06-19T1200,2440A,112.1969,30.9891,荆门市,掇刀,,45,44,36,31,31,144,,113,113,15,14,8,7,0.7,0.7
2024-06-19T1200,2441A,112.2213,31.0386,荆门市,石化一小,,50,43,44,35,25,144,,104,104,13,16,19,17,0.5,0.5
2024-06-19T1200,3012A,112.1849,31.0362,荆门市,西山林语,,48,47,39,33,26,145,,109,109,12,13,8,8,0.4,0.3
2024-06-19T1200,3547A,112.1632,31.0138,荆门市,龙泉中学南校,,49,49,35,21,20,134,,99,99,23,14,11,9,0.7,0.6
2024-06-19T1200,1844A,112.2494,30.3197,荆州市,市图书馆,,38,30,36,24,24,120,,84,84,13,13,6,6,0.6,0.6
2024-06-19T1200,1845A,112.2008,30.3544,荆州市,市委党校,,39,23,36,13,27,123,,87,87,10,12,5,5,0.6,0.6
2024-06-19T1200,3194A,112.2747,30.3122,荆州市,管委会,,42,32,38,29,27,125,,86,86,8,13,4,4,0.5,0.6
2024-06-19T1200,3548A,112.1655,30.3364,荆州市,学苑路,,,43,40,,39,129,,95,95,9,11,7,6,0.5,0.6
2024-06-19T1200,2342A,117.3102,29.3867,景德镇市,王港中学,,,,,,,,,,,,,,,,
2024-06-19T1200,2343A,117.2117,29.2933,景德镇市,老干部活动中心,,26,,7,18,8,37,,33,28,13,10,12,6,0.5,0.5
2024-06-19T1200,2344A,117.1894,29.2789,景德镇市,兽医站,,22,20,12,15,7,35,,37,30,8,10,10,6,0.5,0.6
2024-06-19T1200,2345A,117.1547,29.2617,景德镇市,台达陶瓷,,36,36,11,15,8,33,,27,27,22,14,40,12,0.5,0.4
2024-06-19T1200,2346A,117.2461,29.2956,景德镇市,陶研所,,16,16,8,6,5,42,,38,38,5,4,4,4,0.3,0.2
2024-06-19T1200,1803A,115.9872,29.6815,九江市,十里,,,,17,,7,40,,36,34,13,14,,10,0.6,0.6
2024-06-19T1200,1804A,115.9584,29.7046,九江市,茅山头,,20,20,9,14,6,48,,31,30,11,12,12,10,0.6,0.6
2024-06-19T1200,1805A,115.9877,29.7295,九江市,西园,,18,12,9,10,5,31,,48,39,36,22,11,13,0.9,0.7
2024-06-19T1200,1806A,116.0172,29.6547,九江市,五七二七厂,,15,,6,10,7,28,,26,26,10,9,9,8,0.7,0.6
2024-06-19T1200,1808A,115.9114,29.6038,九江市,综合工业园,,21,14,10,7,6,65,,28,28,7,32,10,11,0.6,0.8
2024-06-19T1200,1809A,116.0721,29.7535,九江市,石化总厂,,,,10,19,10,41,,37,34,10,11,,10,0.7,0.6
2024-06-19T1200,1810A,115.9773,29.5698,九江市,庐山气象台,,21,6,5,3,4,66,,61,60,1,2,7,8,1.0,0.9
2024-06-19T1200,3190A,116.0254,29.6994,九江市,外国语学校,,14,14,4,7,6,34,,39,30,15,15,10,17,0.8,0.7
2024-06-19T1200,2658A,98.5061,39.7443,酒泉市,仓门街子站,,38,29,49,9,10,121,,100,100,12,23,4,9,0.1,0.3
2024-06-19T1200,2659A,98.4989,39.7256,酒泉市,油田生活基地,,40,29,48,3,10,126,,106,106,13,20,5,8,0.2,0.3
2024-06-19T1200,2698A,76.0072,39.4467,喀什地区,巡警大队,,42,42,27,3,4,120,,109,104,12,12,4,3,0.2,0.2
2024-06-19T1200,2699A,75.9755,39.4694,喀什地区,吾办,,38,31,27,13,12,119,,114,108,8,9,3,3,0.3,0.3
2024-06-19T1200,4027A,75.9483,39.4689,喀什地区,老干局,,47,47,48,3,6,120,,101,97,6,11,3,3,0.2,0.2
2024-06-19T1200,1824A,114.3389,34.7781,开封市,肿瘤医院,臭氧1小时,72,56,59,19,20,177,,117,117,10,16,5,5,0.5,0.5
2024-06-19T1200,1826A,114.2885,34.7965,开封市,世纪星幼儿园,臭氧1小时,94,56,54,17,20,195,,136,136,9,13,3,3,0.5,0.5
2024-06-19T1200,3147A,114.3438,34.8106,开封市,龙亭公园,,,,,,,,,,,,,,,,
2024-06-19T1200,3210A,114.3644,34.7964,开封市,汴京公园,,,,58,,26,,,161,,,17,,5,,0.4
2024-06-19T1200,3473A,114.2485,34.8306,开封市,技师学院,臭氧1小时,97,62,53,22,25,197,,147,147,13,14,6,6,0.5,0.5
2024-06-19T1200,3592A,114.4644,34.7556,开封市,祥符区生态环境局,臭氧1小时,87,59,57,27,25,189,,115,115,15,28,5,4,0.5,0.4
2024-06-19T1200,1951A,84.895,45.6094,克拉玛依市,长征新村,,,,11,4,5,114,,120,119,,2,8,9,0.2,0.1
2024-06-19T1200,1952A,84.8988,45.5893,克拉玛依市,南林小区,,37,14,13,13,8,116,,120,118,6,4,10,10,0.1,0.1
2024-06-19T1200,1954A,84.905,44.3396,克拉玛依市,独山子区,,36,13,19,9,8,114,,118,112,6,6,9,9,0.2,0.2
2024-06-19T1200,1955A,85.6979,46.098,克拉玛依市,乌尔禾区商贸楼,,35,19,19,3,7,112,,111,101,7,5,8,8,0.3,0.2
2024-06-19T1200,3612A,85.1045,45.6899,克拉玛依市,白碱滩区新站,,40,18,16,9,14,126,,126,126,2,2,10,9,0.0,0
2024-06-19T1200,2697A,76.1454,39.7142,克孜勒苏柯尔克孜自治州,市人民政府,,40,19,24,9,9,127,,120,120,8,7,10,9,0.4,0.4
2024-06-19T1200,3665A,76.1658,39.7157,克孜勒苏柯尔克孜自治州,克州文化中心,,42,14,17,11,9,134,,125,125,2,4,9,10,0.3,0.3
2024-06-19T1200,1450A,102.8204,24.8886,昆明市,呈贡新区,,30,26,29,12,14,94,,66,66,6,9,5,4,0.6,0.7
2024-06-19T1200,1451A,102.6251,24.9608,昆明市,西山森林公园,,,,,,,,,,,,,,,,
2024-06-19T1200,1452A,102.7252,25.0902,昆明市,龙泉镇,,27,23,22,7,11,86,,56,56,11,12,8,7,0.6,0.6
2024-06-19T1200,1453A,102.7266,25.0375,昆明市,东风东路,,29,29,23,13,13,82,,62,62,13,12,2,2,0.7,0.6
2024-06-19T1200,1454A,102.6742,25.0669,昆明市,金鼎山,,,,29,,9,86,,60,60,13,13,10,17,0.5,0.4
2024-06-19T1200,1455A,102.6644,25.0401,昆明市,碧鸡广场,,,,25,15,12,87,,58,58,,13,4,3,0.6,0.4
2024-06-19T1200,3179A,102.7494,25.0119,昆明市,官渡区博物馆,,,24,21,22,12,93,,70,70,,8,8,9,0.4,0.5
2024-06-19T1200,3375A,102.8017,24.8336,昆明市,青年创业园,,32,23,24,11,14,101,,63,63,4,8,8,9,0.4,0.4
2024-06-19T1200,3550A,102.7997,24.9786,昆明市,昆明学院,,30,25,25,15,13,95,,70,70,8,9,8,9,0.6,0.6
2024-06-19T1200,3551A,102.5967,24.6736,昆明市,晋宁区生态环境分局,,30,12,22,12,13,94,,62,62,5,7,2,2,0.5,0.6
2024-06-19T1200,3552A,102.6678,24.9856,昆明市,云天化总部,,30,25,21,16,13,94,,74,74,7,6,1,2,0.5,0.6
2024-06-19T1200,1456A,91.1319,29.6514,拉萨市,八廓街,,39,14,13,12,10,123,,114,114,13,14,10,9,0.3,0.3
2024-06-19T1200,1457A,91.1221,29.6747,拉萨市,市环保局,,36,21,16,11,9,114,,104,104,18,17,10,8,0.5,0.5
2024-06-19T1200,1458A,91.0874,29.6475,拉萨市,区监测站,,34,10,12,8,7,106,,106,106,21,16,8,7,0.4,0.3
2024-06-19T1200,1459A,91.1774,29.6541,拉萨市,西藏大学,,39,10,13,8,7,122,,117,117,12,9,5,7,0.3,0.3
2024-06-19T1200,1460A,90.9798,29.6588,拉萨市,区辐射站,,30,28,15,21,9,93,,110,101,16,14,8,7,0.5,0.3
2024-06-19T1200,1461A,91.0834,29.6292,拉萨市,拉萨火车站,,33,19,11,9,7,103,,107,106,29,14,8,7,0.3,0.2
2024-06-19T1200,2520A,109.2203,23.7256,来宾市,来宾技工学校,,34,34,25,18,14,68,,42,42,3,10,5,5,0.7,0.8
2024-06-19T1200,3535A,109.1781,23.7297,来宾市,兴宾区政府,,36,36,25,17,13,70,,48,48,4,8,3,6,0.9,0.9
2024-06-19T1200,4002A,109.2416,23.7461,来宾市,中南小学,,36,36,27,14,15,64,,32,32,4,14,3,3,1.0,1.1
2024-06-19T1200,1476A,103.631,36.1031,兰州市,兰炼宾馆,细颗粒物(PM2.5),145,,86,111,46,,,52,52,,24,,26,0.5,0.5
2024-06-19T1200,1477A,104.1373,35.9454,兰州市,榆中兰大校区,,,,,,,,,,,,,,,,
2024-06-19T1200,1478A,103.8412,36.0726,兰州市,生物制品所,颗粒物(PM10),65,80,86,35,36,121,,44,44,23,35,31,16,0.5,0.4
2024-06-19T1200,1479A,103.831,36.0464,兰州市,铁路设计院,颗粒物(PM10),74,97,84,32,31,118,,55,55,39,45,31,16,0.6,0.5
2024-06-19T1200,3186A,103.7158,36.1058,兰州市,教育港,颗粒物(PM10),71,91,116,31,37,126,,53,53,22,28,42,21,0.6,0.5
2024-06-19T1200,3241A,103.7439,36.0842,兰州市,百合公园,颗粒物(PM10),69,88,83,27,30,116,,46,46,27,32,42,12,0.5,0.3
2024-06-19T1200,3242A,103.9611,35.998,兰州市,和平,颗粒物(PM10),66,81,70,46,27,142,,94,94,16,16,24,11,0.6,0.5
2024-06-19T1200,3245A,103.6633,36.533,兰州新区,新区管委会,颗粒物(PM10),57,64,70,25,32,136,,81,81,9,16,21,13,0.6,0.4
2024-06-19T1200,3246A,103.6975,36.4789,兰州新区,舟曲中学,颗粒物(PM10),68,85,102,29,34,141,,77,77,8,20,13,15,0.5,0.5
2024-06-19T1200,1067A,116.6708,39.5111,廊坊市,药材公司,臭氧1小时,102,71,80,32,35,203,,141,141,13,15,3,3,0.5,0.5
2024-06-19T1200,1068A,116.7214,39.5589,廊坊市,开发区,臭氧1小时,102,70,74,32,30,203,,155,155,16,16,4,4,0.4,0.4
2024-06-19T1200,1070A,116.7244,39.5269,廊坊市,北华航天学院,,,83,86,22,29,195,,142,142,,15,2,2,0.4,0.5
2024-06-19T1200,2919A,116.7022,39.5453,廊坊市,河北工业大学,臭氧1小时,102,75,81,28,30,204,,152,152,11,12,3,3,0.4,0.4
2024-06-19T1200,2535A,103.7723,29.5462,乐山市,花湖湾,,26,23,24,18,20,55,,51,42,16,13,5,3,0.9,0.6
2024-06-19T1200,2536A,103.7627,29.5844,乐山市,牛耳桥,,38,28,25,26,22,63,,68,62,21,16,3,3,0.7,0.5
2024-06-19T1200,2537A,103.7508,29.6006,乐山市,市第三水厂,,27,27,27,14,16,67,,72,65,22,17,4,3,0.8,0.5
2024-06-19T1200,2538A,103.7571,29.5664,乐山市,市监测站,,29,25,28,20,20,69,,73,67,18,14,4,3,0.9,0.6
2024-06-19T1200,3361A,103.7311,29.5628,乐山市,理工大学,,26,26,26,15,19,80,,59,58,12,14,8,7,0.8,0.6
2024-06-19T1200,2598A,100.2143,26.8576,丽江市,西南郊,,,,,,,,,,,,,,,,
2024-06-19T1200,2599A,100.2497,26.8802,丽江市,丽江古城,,27,26,19,8,11,86,,67,67,10,12,6,6,0.5,0.6
2024-06-19T1200,2600A,100.2203,26.8906,丽江市,市中心,,30,25,17,3,9,93,,79,79,6,7,9,8,0.6,0.6
2024-06-19T1200,1267A,119.914,28.4514,丽水市,监测站大楼,,29,26,14,20,12,50,,31,31,16,17,3,2,0.5,0.3
2024-06-19T1200,1268A,119.93,28.4586,丽水市,莲都小学,,26,26,18,9,7,46,,27,27,15,19,4,3,0.5,0.4
2024-06-19T1200,1269A,119.879,28.4231,丽水市,余庄前,,29,26,17,20,12,48,,24,24,20,12,3,2,0.5,0.4
2024-06-19T1200,1173A,119.176,34.5885,连云港市,市环境监测站,,36,36,43,17,14,101,,101,101,10,12,6,6,0.4,0.4
2024-06-19T1200,3000A,119.3581,34.6972,连云港市,德源药业,,29,17,35,7,11,92,,97,97,9,14,5,6,0.6,0.4
2024-06-19T1200,3007A,119.178,34.844,连云港市,新城一中,,43,43,60,10,13,113,,109,109,10,19,6,6,0.7,0.7
2024-06-19T1200,3008A,119.3608,34.7519,连云港市,胡沟管理处,,25,24,37,12,12,78,,117,104,19,13,10,9,0.6,0.6
2024-06-19T1200,3009A,119.1478,34.5911,连云港市,矿山设计院,,32,22,41,12,13,101,,100,100,10,12,2,3,0.3,0.3
2024-06-19T1200,3434A,119.2413,34.6539,连云港市,工贸学校,,34,34,37,16,12,106,,114,113,6,7,7,8,0.6,0.5
2024-06-19T1200,3664A,119.4172,34.7341,连云港市,连云街道,,31,17,38,8,13,99,,115,109,7,8,3,5,0.5,0.5
2024-06-19T1200,2571A,102.3431,27.8099,凉山彝族自治州,青龙寺,,,,12,,7,53,,44,44,5,7,,9,0.7,0.7
2024-06-19T1200,2572A,102.2721,27.8415,凉山彝族自治州,邛海宾馆,,18,9,12,7,10,57,,46,42,8,12,9,7,0.7,0.9
2024-06-19T1200,2573A,102.2625,27.898,凉山彝族自治州,西昌市政府,,19,16,16,13,9,41,,42,39,21,16,8,8,0.8,0.7
2024-06-19T1200,2574A,102.2685,27.8851,凉山彝族自治州,凉山州政府,,18,17,16,12,11,52,,50,49,14,15,6,9,0.9,0.9
2024-06-19T1200,2575A,102.237,27.8914,凉山彝族自治州,长安,,20,17,16,14,11,28,,42,31,32,21,10,9,0.9,1
2024-06-19T1200,2212A,123.2,41.1953,辽阳市,宏伟区,颗粒物(PM10),51,52,43,9,17,148,,158,144,14,12,12,12,0.4,0.6
2024-06-19T1200,2213A,123.1683,41.2495,辽阳市,新华园,,48,34,46,13,20,152,,149,138,10,15,11,11,0.4,0.6
2024-06-19T1200,2214A,123.2354,41.2639,辽阳市,滨河路,,,67,50,9,19,153,,144,139,14,18,11,11,,0.8
2024-06-19T1200,2215A,123.149,41.2991,辽阳市,铁西工业园,,49,49,50,23,23,151,,152,139,20,20,21,17,0.8,1.2
2024-06-19T1200,2227A,125.1358,42.8845,辽源市,环保局,臭氧1小时,112,39,43,20,20,223,,179,179,8,43,9,9,0.7,0.7
2024-06-19T1200,3239A,125.0764,42.9078,辽源市,银鹰制药,臭氧1小时,112,42,38,19,18,224,,188,188,14,32,5,14,0.8,0.8
2024-06-19T1200,1625A,115.9848,36.4372,聊城市,区政府,臭氧1小时,106,68,62,27,21,211,,156,156,15,17,11,10,0.5,0.5
2024-06-19T1200,2878A,116.0072,36.4343,聊城市,聊大东校,臭氧1小时,112,62,58,29,24,224,,163,163,13,17,10,10,0.5,0.5
2024-06-19T1200,3200A,115.9819,36.4978,聊城市,监控中心,臭氧1小时,107,62,62,22,20,213,,161,161,91,21,13,12,,0.7
2024-06-19T1200,3513A,116.0445,36.4361,聊城市,九州社区,臭氧1小时,106,63,64,18,19,211,,152,152,17,18,10,8,0.4,0.4
2024-06-19T1200,4018A,116.0567,36.4608,聊城市,星美广场,臭氧1小时,118,57,63,19,20,235,,172,172,22,23,11,11,0.5,0.5
2024-06-19T1200,2632A,94.3681,29.6376,林芝市,林芝监测站,,23,,4,3,4,72,,65,65,6,3,7,7,0.3,0.3
2024-06-19T1200,2633A,94.3616,29.6616,林芝市,林芝人民医院,,24,10,6,3,5,76,,66,66,8,6,8,8,0.3,0.2
2024-06-19T1200,2603A,100.0781,23.8982,临沧市,市环保局,颗粒物(PM10),52,53,36,25,19,77,,33,33,8,9,4,4,0.5,0.6
2024-06-19T1200,2604A,100.0894,23.8822,临沧市,市气象局,颗粒物(PM10),56,61,39,33,24,76,,36,36,11,11,4,4,0.6,0.6
2024-06-19T1200,1733A,111.5531,36.0783,临汾市,临钢医院,臭氧1小时,85,31,52,19,21,188,,124,124,6,12,6,7,0.7,0.7
2024-06-19T1200,1734A,111.5028,36.0714,临汾市,技工学校,臭氧1小时,90,33,51,22,27,192,,137,137,10,19,5,7,0.5,0.6
2024-06-19T1200,1736A,111.5018,36.0855,临汾市,市委,臭氧1小时,100,49,56,16,23,200,,143,143,7,17,6,6,0.6,0.7
2024-06-19T1200,3018A,111.505,36.1014,临汾市,唐尧大酒店,臭氧1小时,85,28,43,19,22,188,,133,133,7,17,8,9,0.6,0.7
2024-06-19T1200,3668A,111.5036,36.0414,临汾市,城南,臭氧1小时,99,30,52,26,31,199,,117,117,6,19,5,6,0.5,0.6
2024-06-19T1200,2667A,103.2069,35.5993,临夏回族自治州,环保局,颗粒物(PM10),52,53,31,30,21,113,,63,63,5,10,8,7,0.4,0.4
2024-06-19T1200,2668A,103.2417,35.6057,临夏回族自治州,建设大厦,,37,32,28,13,19,116,,68,68,8,9,9,8,0.3,0.3
2024-06-19T1200,1618A,118.3429,35.0532,临沂市,沂河小区,臭氧1小时,57,44,48,20,17,165,,98,98,14,20,10,10,0.3,0.2
2024-06-19T1200,1619A,118.295,35.0583,临沂市,鲁南制药厂,臭氧1小时,78,41,54,18,14,182,,112,112,6,13,9,10,0.4,0.4
2024-06-19T1200,1620A,118.2794,34.9976,临沂市,新光毛纺厂,臭氧1小时,72,31,46,24,17,177,,107,107,8,20,6,8,0.6,0.5
2024-06-19T1200,1621A,118.3956,35.0888,临沂市,河东保险公司,,50,31,42,13,13,160,,91,91,7,18,6,6,0.4,0.3
2024-06-19T1200,3370A,118.3564,35.0215,临沂市,十里堡居委,臭氧1小时,70,36,43,22,17,176,,100,100,10,16,9,9,0.5,0.5
2024-06-19T1200,3496A,118.3604,35.1084,临沂市,南坊新区,臭氧1小时,63,53,56,19,13,170,,100,100,11,19,8,8,0.6,0.5
2024-06-19T1200,3860A,118.3920,35.0300,临沂市,皇山花园小区,臭氧1小时,64,41,53,21,18,171,,99,99,14,22,10,10,0.7,0.6
2024-06-19T1200,1870A,109.4856,24.3895,柳州市,柳东小学,,,,8,,8,,,47,,,13,,7,,0.6
2024-06-19T1200,1871A,109.4157,24.3277,柳州市,环保监测站,,27,27,23,14,27,63,,42,42,9,15,6,6,0.6,0.7
2024-06-19T1200,1872A,109.389,24.341,柳州市,河西水厂,,35,35,25,21,16,65,,48,48,9,14,6,5,0.3,0.4
2024-06-19T1200,1873A,109.4311,24.2921,柳州市,市四中,,44,44,25,15,9,69,,44,44,7,16,5,5,0.5,0.6
2024-06-19T1200,1874A,109.4006,24.3631,柳州市,市九中,,36,36,26,12,9,63,,32,32,13,16,8,7,0.6,0.6
2024-06-19T1200,1875A,109.4958,24.3134,柳州市,古亭山,,38,38,26,17,14,69,,48,48,9,18,6,6,0.4,0.4
2024-06-19T1200,3402A,109.5422,24.3996,柳州市,市二中,,34,34,21,15,10,68,,39,39,8,19,5,8,0.4,0.5
2024-06-19T1200,2307A,116.5079,31.737,六安市,监测大楼,,,,23,,18,78,,117,81,6,9,4,6,0.4,0.4
2024-06-19T1200,2308A,116.4738,31.7643,六安市,皖西学院,,30,,26,8,15,93,,121,96,5,7,3,4,0.4,0.4
2024-06-19T1200,2309A,116.4996,31.7905,六安市,朝阳厂,,27,7,23,7,16,84,,120,85,5,8,7,9,0.3,0.3
2024-06-19T1200,2310A,116.5567,31.7886,六安市,开发区,,27,,26,13,17,85,,106,81,4,12,4,6,0.6,0.5
2024-06-19T1200,2576A,104.8,26.5892,六盘水市,窑上,,,,,,,,,,,,,,,,
2024-06-19T1200,2577A,104.83,26.5917,六盘水市,黄土坡,,23,23,23,16,14,52,,44,44,14,15,11,9,0.6,0.6
2024-06-19T1200,2578A,104.89,26.5939,六盘水市,水钢,,,,25,,16,61,,67,64,8,14,10,11,,0.5
2024-06-19T1200,2579A,104.8475,26.5894,六盘水市,民中,,25,17,21,17,17,59,,55,55,10,15,7,6,0.7,0.7
2024-06-19T1200,2580A,104.9544,26.5506,六盘水市,双水,,21,19,23,13,15,65,,75,70,7,11,7,7,0.3,0.3
2024-06-19T1200,2335A,117.0189,25.1181,龙岩市,龙岩师专,,,,,,,,,,,,,,,,
2024-06-19T1200,2336A,117.0217,25.1033,龙岩市,龙岩市监测站,,30,30,21,8,9,55,,21,21,4,13,4,4,0.3,0.5
2024-06-19T1200,2337A,117.0258,25.0661,龙岩市,闽西职业技术学院,,37,37,24,11,9,61,,26,26,2,13,4,2,0.4,0.4
2024-06-19T1200,2338A,117.0196,25.0306,龙岩市,龙岩学院,,22,22,17,7,7,57,,27,27,3,4,3,3,0.3,0.4
2024-06-19T1200,2665A,105.0822,33.3261,陇南市,汉王镇固水子,,,,,,,,,,,,,,,,
2024-06-19T1200,2885A,104.9339,33.3826,陇南市,滨江中学,,41,41,39,6,8,92,,56,56,6,8,7,7,0.4,0.4
2024-06-19T1200,3247A,104.955,33.371,陇南市,市总工会,,30,24,24,14,12,93,,64,64,4,4,4,4,0.3,0.3
2024-06-19T1200,2487A,111.9589,27.8901,娄底市,电视发射台,,21,21,15,8,3,46,,44,44,5,4,7,6,0.8,0.7
2024-06-19T1200,2488A,111.9975,27.725,娄底市,市监测站,,20,20,23,13,20,51,,30,30,5,10,7,6,0.6,1
2024-06-19T1200,2489A,112.0194,27.7314,娄底市,市委党校,,16,16,16,9,8,48,,30,30,6,8,11,9,0.9,1
2024-06-19T1200,2490A,111.9561,27.7569,娄底市,涟钢,,36,36,20,22,11,48,,32,32,19,15,20,12,0.6,0.8
2024-06-19T1200,2491A,111.9892,27.7044,娄底市,市政府,,,6,14,,14,56,,37,37,3,8,7,6,0.9,1
2024-06-19T1200,1893A,105.4324,28.9634,泸州市,九狮山,,26,20,32,18,27,47,,54,54,12,16,5,5,0.3,0.3
2024-06-19T1200,1894A,105.4427,28.9063,泸州市,小市上码头,,,23,44,23,33,,,39,,10,15,6,5,0.4,0.5
2024-06-19T1200,1895A,105.4241,28.8573,泸州市,兰田宪桥,,30,22,33,21,35,64,,53,53,8,15,4,4,0.2,0.3
2024-06-19T1200,1896A,105.4379,28.8833,泸州市,市环监站,,30,29,51,21,36,54,,55,55,14,16,5,6,0.6,0.6
2024-06-19T1200,3490A,105.3617,28.7703,泸州市,纳溪区环保局,,29,29,38,14,30,46,,49,49,25,23,3,3,0.6,0.6
2024-06-19T1200,2183A,111.1406,37.5211,吕梁市,环保局,臭氧1小时,93,38,60,19,21,194,,105,105,9,33,6,5,0.6,0.5
2024-06-19T1200,2185A,111.1297,37.5136,吕梁市,自来水公司,臭氧1小时,93,38,70,17,24,194,,86,86,10,34,5,6,0.5,0.6
2024-06-19T1200,2867A,111.1283,37.51,吕梁市,马茂庄小学,臭氧1小时,102,42,60,20,20,203,,92,92,11,43,5,5,0.6,0.7
2024-06-19T1200,1812A,112.3931,34.6516,洛阳市,市委党校,臭氧1小时,80,61,48,34,30,184,,103,103,11,13,7,7,0.8,0.7
2024-06-19T1200,1814A,112.4657,34.6871,洛阳市,豫西宾馆,臭氧1小时,89,70,51,34,29,191,,121,121,18,15,6,5,0.7,0.6
2024-06-19T1200,1815A,112.494,34.6886,洛阳市,河南林校,臭氧1小时,78,59,38,30,25,182,,100,100,19,16,7,6,0.6,0.4
2024-06-19T1200,1816A,112.3844,34.623,洛阳市,开发区管委会,臭氧1小时,70,60,44,36,29,176,,97,97,16,15,10,10,0.6,0.5
2024-06-19T1200,1817A,112.4267,34.6258,洛阳市,市委新办公区,,,41,40,38,32,176,,106,106,,13,9,9,0.7,0.5
2024-06-19T1200,3340A,112.6005,34.6326,洛阳市,伊滨,臭氧1小时,72,60,43,39,26,177,,92,92,18,15,9,6,0.5,0.4
2024-06-19T1200,3341A,112.4951,34.6332,洛阳市,中移产业园,臭氧1小时,64,65,43,42,30,171,,101,101,17,14,11,7,0.8,0.7
2024-06-19T1200,3593A,112.5736,34.8993,洛阳市,吉利监测站,臭氧1小时,82,69,46,41,26,185,,83,83,14,26,6,3,0.3,0.2
2024-06-19T1200,3635A,112.3677,34.662,洛阳市,河科大西苑校区,臭氧1小时,78,64,51,29,25,182,,95,95,9,13,8,9,0.6,0.5
2024-06-19T1200,3636A,112.4388,34.6781,洛阳市,英才小学,,,,48,,25,172,,104,104,11,10,6,5,,0.5
2024-06-19T1200,2399A,114.051,33.5699,漯河市,三五一五工厂,臭氧1小时,85,68,64,26,29,188,,109,109,13,25,11,8,0.7,0.7
2024-06-19T1200,2400A,114.0055,33.5698,漯河市,漯河大学,臭氧1小时,93,65,62,36,36,194,,122,122,16,23,11,8,0.6,0.5
2024-06-19T1200,2401A,114.0138,33.5828,漯河市,市水利局,臭氧1小时,84,63,57,34,28,187,,122,122,13,18,12,9,0.7,0.6
2024-06-19T1200,2402A,114.0261,33.5698,漯河市,市广电局,臭氧1小时,85,66,59,35,28,188,,120,120,12,22,8,6,0.6,0.6
2024-06-19T1200,3478A,113.9749,33.5664,漯河市,市图书馆,臭氧1小时,92,71,54,43,29,193,,123,123,10,15,6,5,0.5,0.5
2024-06-19T1200,3479A,114.0967,33.5906,漯河市,召陵区卫健委,臭氧1小时,73,65,67,34,33,178,,105,105,15,26,10,8,0.6,0.5
2024-06-19T1200,1798A,118.5092,31.6837,马鞍山市,湖东路四小,,27,17,29,10,16,84,,77,63,9,13,6,8,0.6,0.6
2024-06-19T1200,1799A,118.5024,31.6449,马鞍山市,开发区,,25,16,33,12,17,79,,74,61,12,15,8,9,0.5,0.5
2024-06-19T1200,1800A,118.5228,31.7231,马鞍山市,慈湖,,25,19,30,13,19,78,,81,61,19,17,6,7,0.7,0.7
2024-06-19T1200,1802A,118.6245,31.7241,马鞍山市,濮塘,,23,12,25,10,16,72,,69,51,4,9,2,3,0.6,0.6
2024-06-19T1200,3633A,118.4918,31.6809,马鞍山市,雨山,,27,,35,11,15,86,,80,65,12,12,4,6,0.7,0.7
2024-06-19T1200,1686A,111.0286,21.4688,茂名市,电白南海,,29,29,25,14,14,81,,71,71,3,4,4,4,0.5,0.5
2024-06-19T1200,1687A,110.9294,21.6533,茂名市,茂石化七小,,32,31,28,22,15,82,,67,67,9,9,7,7,0.5,0.5
2024-06-19T1200,1688A,110.9107,21.6687,茂名市,健康路,,29,29,27,14,10,86,,74,74,6,6,9,9,0.5,0.4
2024-06-19T1200,1689A,110.8592,21.6828,茂名市,高岭,颗粒物(PM10),52,53,35,19,17,69,,61,61,10,9,6,6,0.5,0.5
2024-06-19T1200,3450A,111.01,21.5165,茂名市,电白水东,,27,27,21,17,12,71,,66,66,8,8,3,3,0.5,0.5
2024-06-19T1200,2539A,104.0308,30.0478,眉山市,黑龙滩水库,,42,31,34,29,29,87,,48,48,6,13,5,5,0.4,0.4
2024-06-19T1200,2540A,103.8416,30.0874,眉山市,气象局,,49,,25,34,30,94,,58,58,22,26,9,8,0.5,0.4
2024-06-19T1200,3137A,103.8578,30.0744,眉山市,市委党校,,,29,34,14,20,107,,70,70,,22,8,7,0.4,0.5
2024-06-19T1200,3148A,103.8291,30.0564,眉山市,区人社局,,34,26,31,17,21,107,,63,63,17,23,12,9,0.5,0.4
2024-06-19T1200,1690A,116.1231,24.3284,梅州市,梅江月梅,,,,24,,8,58,,26,26,,6,5,5,,0.4
2024-06-19T1200,1691A,116.0797,24.2719,梅州市,梅县新城,,18,17,17,10,8,57,,28,28,2,6,3,3,0.3,0.3
2024-06-19T1200,1692A,116.1248,24.2654,梅州市,环境监控中心,,18,14,25,11,9,57,,24,24,6,12,3,4,0.6,0.7
2024-06-19T1200,3315A,116.1233,24.2991,梅州市,梅龙,,19,12,17,3,8,59,,28,28,2,10,7,7,0.5,0.6
2024-06-19T1200,1878A,104.7778,31.4741,绵阳市,富乐山,细颗粒物(PM2.5),52,37,30,36,24,122,,48,48,12,10,9,8,0.6,0.6
2024-06-19T1200,1879A,104.7563,31.4535,绵阳市,市人大,,38,38,36,23,25,109,,72,72,17,17,7,9,0.4,0.5
2024-06-19T1200,1880A,104.6697,31.4668,绵阳市,高新区自来水公司,,31,31,38,14,21,95,,53,53,12,20,9,6,0.6,0.6
2024-06-19T1200,1881A,104.7287,31.5075,绵阳市,三水厂,细颗粒物(PM2.5),62,52,35,44,27,90,,41,41,26,23,13,7,0.6,0.5
2024-06-19T1200,3491A,104.69,31.5322,绵阳市,西科大附属小学,,44,44,41,27,27,69,,37,37,28,25,13,6,0.8,0.7
2024-06-19T1200,3492A,104.5648,31.5343,绵阳市,安州区旅游局,,42,37,28,29,24,72,,34,34,22,18,14,8,0.6,0.6
2024-06-19T1200,1784A,129.61,44.561,牡丹江市,环保大楼,,48,13,16,7,9,151,,66,66,9,13,7,7,0.4,0.3
2024-06-19T1200,1785A,129.6115,44.5782,牡丹江市,文化广场,,45,29,31,14,21,141,,62,62,14,18,6,8,0.4,0.4
2024-06-19T1200,1786A,129.5904,44.5963,牡丹江市,第一医院,,46,23,21,15,17,145,,65,65,11,14,5,5,0.5,0.4
2024-06-19T1200,1787A,129.6364,44.6075,牡丹江市,机车工厂,,,15,22,3,9,135,,60,60,,13,5,16,0.4,0.3
2024-06-19T1200,1788A,129.6386,44.5462,牡丹江市,第一中学,臭氧1小时,52,21,18,3,7,161,,70,70,10,12,4,3,0.4,0.3
2024-06-19T1200,2531A,105.0703,29.61,内江市,市监测站,,,,23,34,29,73,,43,43,14,19,4,6,,0.5
2024-06-19T1200,2532A,105.0717,29.5947,内江市,东兴区政府,,30,28,31,21,17,75,,55,55,16,15,10,9,0.8,0.8
2024-06-19T1200,2533A,105.0653,29.5817,内江市,内江二中,,39,38,32,27,23,76,,53,53,19,17,8,8,0.6,0.6
2024-06-19T1200,2534A,105.0406,29.5822,内江市,内江日报社,细颗粒物(PM2.5),53,,26,37,27,78,,51,51,15,21,8,8,0.6,0.6
2024-06-19T1200,2628A,92.0657,31.4846,那曲市,那曲监测站,,42,17,12,13,7,132,,101,101,7,6,6,6,0.7,0.6
2024-06-19T1200,3128A,92.0506,31.4797,那曲市,那曲会议中心,,41,15,12,11,9,129,,103,103,8,7,3,3,0.4,0.5
2024-06-19T1200,1290A,115.8931,28.6843,南昌市,省外办,,45,38,16,31,15,23,,17,15,20,18,8,5,0.5,0.7
2024-06-19T1200,1291A,115.8886,28.7003,南昌市,省林业公司,,35,29,12,24,10,30,,18,18,23,22,9,4,0.4,0.4
2024-06-19T1200,1292A,115.8126,28.7442,南昌市,林科所,,22,22,8,14,7,42,,24,24,17,29,8,7,0.5,0.7
2024-06-19T1200,1294A,115.8518,28.687,南昌市,建工学校,,,30,15,,5,34,,21,21,18,21,10,6,0.6,0.8
2024-06-19T1200,1295A,115.8921,28.6424,南昌市,象湖,,32,29,15,22,12,36,,20,20,15,21,10,5,0.6,0.6
2024-06-19T1200,1296A,115.7423,28.7996,南昌市,武术学校,二氧化硫,67,14,13,7,14,37,,21,21,3,6,266,80,0.6,0.7
2024-06-19T1200,1298A,115.9314,28.6842,南昌市,省站,,39,,14,27,11,48,,32,32,18,15,8,5,0.7,0.8
2024-06-19T1200,3046A,115.9084,28.6062,南昌市,机电学校,,44,44,23,24,12,36,,18,18,16,22,12,8,0.7,0.7
2024-06-19T1200,3690A,115.9721,28.7031,南昌市,外国语学校,,35,35,17,22,12,36,,28,24,21,14,7,6,0.5,0.5
2024-06-19T1200,1905A,106.056,30.8064,南充市,西山风景区,,23,23,23,16,20,69,,66,49,13,12,4,6,0.6,0.6
2024-06-19T1200,1906A,106.0789,30.8023,南充市,南充市委,,25,20,32,17,21,69,,41,33,14,18,4,5,0.5,0.5
2024-06-19T1200,1907A,106.1031,30.8217,南充市,南充炼油厂,,27,25,34,13,20,84,,46,39,8,15,6,8,0.3,0.4
2024-06-19T1200,1908A,106.1064,30.7856,南充市,高坪区监测站,,25,19,35,16,19,80,,53,46,10,15,5,8,0.4,0.4
2024-06-19T1200,1909A,106.0642,30.7636,南充市,嘉陵区环保局,,,6,30,,23,66,,43,32,15,18,5,5,0.5,0.4
2024-06-19T1200,1910A,106.1087,30.8388,南充市,市环境监测站,,21,19,29,9,19,65,,36,35,14,20,6,7,0.6,0.6
2024-06-19T1200,1151A,118.8086,32.1065,南京市,迈皋桥,,29,17,23,9,12,90,,77,61,9,9,4,5,0.4,0.4
2024-06-19T1200,1152A,118.7538,32.0551,南京市,草场门,,,,24,,13,85,,78,63,,17,,4,0.6,0.5
2024-06-19T1200,1153A,118.7794,32.0745,南京市,山西路,,30,12,22,7,10,96,,87,70,8,7,3,4,0.3,0.3
2024-06-19T1200,1154A,118.7752,32.0023,南京市,中华门,,24,,19,9,10,76,,70,54,8,9,6,7,0.5,0.4
2024-06-19T1200,1155A,118.8109,32.0309,南京市,瑞金路,,26,23,28,9,13,82,,74,57,9,11,6,6,0.3,0.3
2024-06-19T1200,1156A,118.7997,32.0754,南京市,玄武湖,,24,21,25,7,11,74,,68,53,3,9,3,5,0.4,0.5
2024-06-19T1200,1157A,118.6414,32.0931,南京市,浦口,,27,26,31,10,13,84,,71,55,12,14,5,6,0.3,0.3
2024-06-19T1200,1158A,118.7356,31.9996,南京市,奥体中心,,27,,25,14,15,85,,81,65,10,11,5,6,0.3,0.3
2024-06-19T1200,1159A,118.9125,32.1028,南京市,仙林大学城,,29,12,24,12,12,90,,81,65,10,11,6,6,0.5,0.5
2024-06-19T1200,3422A,118.8436,31.9198,南京市,江宁彩虹桥,,,28,28,12,14,70,,71,53,,10,3,4,,0.4
2024-06-19T1200,3423A,119.0138,31.6494,南京市,溧水永阳,,20,12,21,11,13,62,,66,64,19,13,4,4,0.7,0.4
2024-06-19T1200,3424A,118.879,31.3302,南京市,高淳老职中,,18,,16,3,11,57,,70,53,11,14,6,6,0.6,0.4
2024-06-19T1200,3427A,118.8554,32.3578,南京市,六合雄州,,,,23,,17,103,,84,69,,20,4,2,0.5,0.5
2024-06-19T1200,1401A,108.3103,22.7881,南宁市,二十一中,,25,,26,15,10,78,,63,63,5,9,2,2,0.7,0.8
2024-06-19T1200,1402A,108.3141,22.8528,南宁市,北湖,,26,17,27,11,10,81,,58,58,7,14,2,2,0.6,0.7
2024-06-19T1200,1403A,108.3206,22.8225,南宁市,市监测站,,,22,25,14,13,77,,59,59,9,12,2,2,,0.8
2024-06-19T1200,1404A,108.3829,22.8037,南宁市,大自然花园,,25,21,22,13,13,78,,63,63,6,8,4,4,0.5,0.6
2024-06-19T1200,1405A,108.4394,22.7904,南宁市,仙葫,,,20,24,15,16,69,,60,60,10,10,,3,0.5,0.1
2024-06-19T1200,1406A,108.2397,22.8467,南宁市,区农职院,,26,17,29,9,13,83,,61,61,11,21,4,5,0.6,0.6
2024-06-19T1200,1407A,108.3275,22.735,南宁市,英华嘉园,,21,21,27,11,12,65,,50,50,11,14,5,5,0.5,0.6
2024-06-19T1200,1408A,108.2257,22.7757,南宁市,沙井镇街道办,,22,,31,13,19,70,,47,47,4,25,2,2,0.6,0.7
2024-06-19T1200,3401A,108.4834,22.7618,南宁市,红星社区,,24,24,29,8,13,76,,60,60,7,11,4,4,0.5,0.6
2024-06-19T1200,2331A,118.0966,26.6761,南平市,茫荡山,,,,,,,,,,,,,,,,
2024-06-19T1200,2332A,118.1681,26.6369,南平市,南平市监测站,,19,16,21,9,13,58,,31,31,7,12,4,4,0.5,0.8
2024-06-19T1200,2333A,118.1825,26.6489,南平市,南平铝业有限公司,,18,18,24,10,15,54,,30,30,5,11,4,5,0.5,0.6
2024-06-19T1200,2334A,118.1756,26.6272,南平市,南平七中,,21,21,22,9,11,62,,34,34,3,7,4,4,0.5,0.6
2024-06-19T1200,1168A,120.9098,31.9663,南通市,狼山街道,,16,6,13,3,3,51,,70,57,20,13,10,11,0.5,0.4
2024-06-19T1200,1169A,120.86,32.0005,南通市,虹桥,,15,15,20,3,4,47,,67,54,27,15,6,6,0.6,0.5
2024-06-19T1200,1170A,120.87,32.02,南通市,城中,,19,16,26,3,8,58,,70,60,23,16,6,6,0.5,0.4
2024-06-19T1200,1171A,120.94,31.93,南通市,星湖花园,,15,,12,3,3,47,,65,52,27,20,4,5,0.6,0.5
2024-06-19T1200,1172A,120.81,32.0417,南通市,紫琅学院,,,6,12,3,2,59,,71,59,,21,7,6,,0.6
2024-06-19T1200,3291A,121.067,32.062,南通市,通州监测站,,,5,16,,1,77,,82,72,7,5,9,10,0.4,0.4
2024-06-19T1200,3432A,120.9348,31.9883,南通市,环境教育馆,,17,7,22,3,5,52,,69,57,32,21,7,8,0.5,0.4
2024-06-19T1200,2404A,112.5224,33.0122,南阳市,瓦房庄,颗粒物(PM10),58,66,41,28,23,114,,93,93,34,19,6,5,0.4,0.4
2024-06-19T1200,2405A,112.5003,32.9735,南阳市,汉画馆,,,68,50,32,28,104,,78,78,30,22,3,6,,0.7
2024-06-19T1200,2406A,112.5573,33.027,南阳市,气象站,颗粒物(PM10),59,67,41,36,21,103,,78,78,38,19,4,3,0.9,0.6
2024-06-19T1200,2407A,112.5481,32.9689,南阳市,理工学院,颗粒物(PM10),57,64,49,35,28,102,,86,86,27,20,7,6,0.6,0.5
2024-06-19T1200,4008A,112.5234,32.9922,南阳市,卧龙区政府,颗粒物(PM10),58,65,42,34,27,100,,88,88,33,22,1,3,0.8,0.7
2024-06-19T1200,1234A,121.8358,29.911,宁波市,区环保大楼,,23,18,7,3,6,71,,77,60,13,12,6,5,0.7,0.6
2024-06-19T1200,1235A,121.56,29.82,宁波市,万里学院,,20,13,13,7,5,64,,72,58,9,10,4,4,0.6,0.5
2024-06-19T1200,1236A,121.713,29.9572,宁波市,龙赛医院,,49,49,14,18,7,51,,68,,23,6,6,4,0.7,0.3
2024-06-19T1200,1239A,121.633,29.7733,宁波市,钱湖水厂,,20,7,6,3,4,61,,77,66,6,5,4,4,0.4,0.4
2024-06-19T1200,1240A,121.5856,29.8635,宁波市,太古小学,,16,12,13,3,6,50,,69,52,10,8,4,5,0.7,0.6
2024-06-19T1200,1241A,121.524,29.8674,宁波市,市环境监测中心,,19,12,11,6,7,60,,76,59,12,10,4,4,0.7,0.6
2024-06-19T1200,2871A,121.6147,29.9017,宁波市,万里国际学校,,21,6,9,6,6,66,,76,64,7,6,4,4,0.4,0.3
2024-06-19T1200,3710A,121.5594,29.8975,宁波市,白沙活动中心,,14,13,12,6,6,42,,74,51,18,7,7,7,0.4,0.4
2024-06-19T1200,2339A,119.5001,26.6946,宁德市,金涵水库,,,,,,,,,,,,,,,,
2024-06-19T1200,2341A,119.5388,26.6612,宁德市,宁德市监测站,颗粒物(PM10),52,53,22,23,20,75,,51,51,16,13,5,4,1.2,0.6
2024-06-19T1200,3209A,119.5231,26.6562,宁德市,宁德一中,,42,42,21,21,11,73,,60,57,16,9,5,5,1.2,0.7
2024-06-19T1200,2618A,98.8601,25.8567,怒江傈僳族自治州,州监测站,,,30,32,24,22,60,,56,53,,11,8,9,0.5,0.6
2024-06-19T1200,2619A,98.8546,25.8417,怒江傈僳族自治州,泸水一中,,32,32,29,18,19,45,,42,38,13,13,5,5,0.3,0.3
2024-06-19T1200,1888A,101.6891,26.571,攀枝花市,弄弄坪,颗粒物(PM10),51,51,58,18,20,116,,50,50,15,28,43,27,0.7,0.7
2024-06-19T1200,1889A,101.5769,26.5928,攀枝花市,河门口,,38,38,34,20,20,109,,38,38,18,22,7,15,1.4,1.3
2024-06-19T1200,1890A,101.7169,26.585,攀枝花市,炳草岗,,,,45,,21,120,,52,52,14,26,36,34,0.6,0.7
2024-06-19T1200,1891A,101.7369,26.5008,攀枝花市,仁和,,36,25,28,16,15,114,,60,60,7,12,10,12,0.3,0.5
2024-06-19T1200,2835A,101.7227,26.567,攀枝花市,四十中小,,41,40,35,22,21,130,,62,62,11,18,51,40,0.5,0.5
2024-06-19T1200,1604A,122.0303,41.1489,盘锦市,开发区,颗粒物(PM10),63,76,50,3,29,147,,155,124,12,15,6,5,0.2,0.4
2024-06-19T1200,1605A,122.0485,41.0883,盘锦市,兴隆台,,46,30,41,9,35,147,,147,119,16,16,6,5,0.2,0.5
2024-06-19T1200,1606A,121.8297,41.1028,盘锦市,新生街道,,44,31,43,10,27,140,,162,119,12,12,6,6,0.1,0.3
2024-06-19T1200,1832A,113.3257,33.742,平顶山市,新华旅馆,臭氧1小时,103,57,73,34,33,206,,104,104,15,31,8,8,0.5,0.5
2024-06-19T1200,1833A,113.2919,33.737,平顶山市,规划设计院,臭氧1小时,94,53,52,33,33,195,,103,103,21,25,9,6,0.7,0.7
2024-06-19T1200,1834A,113.182,33.774,平顶山市,平顶山工学院,臭氧1小时,97,90,59,44,28,197,,78,78,20,26,12,6,0.7,0.6
2024-06-19T1200,3204A,113.3025,33.73,平顶山市,规划局,臭氧1小时,102,58,66,35,34,203,,106,106,17,25,8,6,0.5,0.5
2024-06-19T1200,3594A,112.8867,33.9116,平顶山市,石龙区,臭氧1小时,85,76,71,44,33,188,,78,78,15,25,11,7,0.7,0.5
2024-06-19T1200,2656A,106.6692,35.5461,平凉市,聚贤嘉苑,,45,30,40,19,17,142,,70,70,12,28,13,9,0.5,0.5
2024-06-19T1200,2657A,106.7021,35.5307,平凉市,博物馆,,45,38,39,18,17,144,,74,74,27,37,30,18,0.4,0.4
2024-06-19T1200,2347A,114.0997,27.5002,萍乡市,武功山,,15,6,4,3,3,45,,43,43,2,3,9,9,0.4,0.5
2024-06-19T1200,2348A,113.8385,27.6434,萍乡市,中医院,,16,,26,11,18,34,,,,2,7,2,12,0.6,0.9
2024-06-19T1200,2349A,113.8493,27.6253,萍乡市,市政府车库,,,,21,,20,37,,17,17,3,9,8,16,,1
2024-06-19T1200,2350A,113.8676,27.6435,萍乡市,市环保局,,16,,26,11,18,46,,17,17,5,9,6,15,0.4,0.6
2024-06-19T1200,2351A,113.866,27.6198,萍乡市,安源区政府,,15,12,26,3,16,47,,13,13,2,10,11,16,0.3,0.8
2024-06-19T1200,2319A,119.0141,25.4325,莆田市,荔城区仓后路,,34,34,38,3,21,46,,47,45,8,15,7,7,0.6,0.6
2024-06-19T1200,2320A,119.0015,25.4553,莆田市,莆田市监测站,颗粒物(PM10),56,62,42,3,15,46,,43,43,8,14,8,9,0.6,0.7
2024-06-19T1200,2321A,119.1119,25.4561,莆田市,涵江区六中,,36,36,31,3,14,56,,44,44,7,19,8,8,0.5,0.6
2024-06-19T1200,2322A,119.1013,25.3215,莆田市,秀屿区政府,,22,22,30,3,14,56,,52,47,8,8,9,9,0.8,0.5
2024-06-19T1200,2323A,118.981,25.4792,莆田市,东圳水库,,,,,,,,,,,,,,,,
2024-06-19T1200,2392A,115.0312,35.7636,濮阳市,环保局,臭氧1小时,104,43,45,22,25,208,,128,128,11,16,10,9,0.3,0.4
2024-06-19T1200,2394A,115.0574,35.7609,濮阳市,油田运输公司,臭氧1小时,109,42,50,22,22,217,,138,138,16,16,12,11,0.5,0.5
2024-06-19T1200,2395A,115.0866,35.7754,濮阳市,油田物探公司,臭氧1小时,107,42,50,22,25,213,,135,135,9,14,9,9,0.5,0.5
2024-06-19T1200,3021A,115,35.7668,濮阳市,濮水河管理处,,,,48,,22,,,98,,,13,,9,,0.4
2024-06-19T1200,2601A,100.98,22.7633,普洱市,市环保局,,,36,29,14,21,63,,39,39,5,6,,6,0.4,0.5
2024-06-19T1200,2602A,100.9817,22.8322,普洱市,普洱第二中学,,32,32,27,9,13,67,,44,44,5,9,9,9,0.3,0.5
2024-06-19T1200,2262A,131.0518,45.8751,七台河市,新一中,,33,23,19,23,11,60,,52,52,14,10,9,10,0.7,0.7
2024-06-19T1200,3345A,131.0577,45.7879,七台河市,中波台,,22,22,20,3,8,43,,40,40,19,20,8,9,0.3,0.5
2024-06-19T1200,3637A,131.0176,45.7761,七台河市,人民广场,,24,24,25,11,14,38,,37,37,24,18,10,12,0.5,0.4
2024-06-19T1200,3684A,130.8781,45.8222,七台河市,新建矿广场,,41,41,36,21,17,25,,26,26,43,25,10,10,0.3,0.2
2024-06-19T1200,1779A,123.9305,47.3636,齐齐哈尔市,安居小区,,30,30,27,19,11,76,,76,69,19,17,7,7,0.4,0.3
2024-06-19T1200,1780A,123.9488,47.3386,齐齐哈尔市,中心广场,,38,38,21,18,8,79,,72,69,19,14,10,9,0.3,0.2
2024-06-19T1200,1781A,123.9483,47.3227,齐齐哈尔市,农牧车辆厂,颗粒物(PM10),51,51,29,18,6,85,,72,70,16,12,9,8,0.2,0.2
2024-06-19T1200,1783A,123.945,47.2988,齐齐哈尔市,市环境监测站,,29,29,19,15,7,84,,70,68,15,12,6,5,0.4,0.3
2024-06-19T1200,3662A,123.6333,47.2075,齐齐哈尔市,富区青少年活动中心,,,,23,,4,94,,73,73,12,12,6,5,,0.3
2024-06-19T1200,2591A,107.9783,26.5747,黔东南苗族侗族自治州,市环境监测站,,,,11,,8,26,,34,26,13,10,6,3,,0.5
2024-06-19T1200,2881A,107.8908,26.5311,黔东南苗族侗族自治州,凯里学院,,19,19,10,10,6,27,,34,26,10,5,3,3,0.5,0.4
2024-06-19T1200,2593A,107.5228,26.2403,黔南布依族苗族自治州,小围寨,,12,6,1,3,0,37,,37,37,3,4,4,4,0.5,0.5
2024-06-19T1200,3538A,107.5175,26.2978,黔南布依族苗族自治州,沙坝,,12,6,1,3,0,36,,30,30,3,4,4,4,0.5,0.5
2024-06-19T1200,2589A,104.9022,25.0925,黔西南布依族苗族自治州,场坝街,,15,10,13,6,7,46,,36,36,6,14,2,3,0.4,0.5
2024-06-19T1200,2590A,104.8811,25.0992,黔西南布依族苗族自治州,坪东大道,,15,11,14,8,7,48,,33,33,4,10,3,4,0.1,0.3
2024-06-19T1200,2502A,108.6236,21.9667,钦州市,市环保站,,34,34,31,12,10,81,,67,67,10,13,6,6,0.6,0.6
2024-06-19T1200,2503A,108.6549,21.9481,钦州市,沙埠小学,,41,41,34,17,16,82,,61,61,6,13,4,4,0.6,0.5
2024-06-19T1200,2504A,108.5989,21.7431,钦州市,港区一小,,,123,38,14,14,79,,76,74,,6,6,7,,0.6
2024-06-19T1200,3404A,108.5959,21.9633,钦州市,北职校,,25,25,28,14,13,76,,63,63,6,12,6,6,0.5,0.6
2024-06-19T1200,1042A,119.5134,39.8207,秦皇岛市,北戴河环保局,,47,47,60,9,18,119,,95,87,7,10,3,4,0.2,0.4
2024-06-19T1200,1043A,119.7493,40.0116,秦皇岛市,第一关,,38,38,63,12,21,118,,95,88,6,15,1,2,0.2,0.3
2024-06-19T1200,1044A,119.5897,39.9499,秦皇岛市,监测站,,45,45,58,13,19,119,,97,85,3,7,2,3,0.4,0.5
2024-06-19T1200,1046A,119.5251,39.9041,秦皇岛市,建设大厦,,39,39,53,6,16,117,,75,64,9,17,3,2,0.2,0.4
2024-06-19T1200,3132A,119.610547,39.943889,秦皇岛市,文明里,,43,43,61,19,23,113,,93,82,5,8,3,3,0.4,0.5
2024-06-19T1200,1307A,120.6659,36.2403,青岛市,仰口,,,53,19,,10,95,,115,104,4,4,4,4,,0.2
2024-06-19T1200,1310A,120.4134,36.0658,青岛市,市南区东部子站,,34,22,17,7,6,107,,101,101,4,9,8,8,0.4,0.4
2024-06-19T1200,1311A,120.3664,36.1032,青岛市,四方区子站,,,22,19,,10,106,,105,105,14,16,10,10,,0.5
2024-06-19T1200,1312A,120.2994,36.054,青岛市,市南区西部子站,,35,22,18,7,9,110,,105,105,6,14,8,8,0.4,0.4
2024-06-19T1200,1313A,120.4581,36.0858,青岛市,崂山区子站,,35,17,12,7,7,110,,108,108,6,10,9,9,0.4,0.4
2024-06-19T1200,1314A,120.1983,35.9608,青岛市,黄岛区子站,,34,24,18,12,9,106,,102,102,5,9,7,7,0.4,0.4
2024-06-19T1200,1315A,120.3999,36.3083,青岛市,城阳区子站,,37,17,20,10,9,116,,110,110,11,17,7,8,0.4,0.4
2024-06-19T1200,1966A,120.0405,35.8735,青岛市,黄岛区4号,,35,14,18,7,8,111,,108,108,5,11,8,9,0.4,0.4
2024-06-19T1200,3362A,120.5014,36.4034,青岛市,即墨2号,,40,14,22,6,9,128,,123,123,8,11,7,6,0.4,0.4
2024-06-19T1200,3642A,120.3503,36.0736,青岛市,市北区南部,,35,20,16,3,7,110,,106,106,5,11,6,7,0.6,0.6
2024-06-19T1200,3643A,120.3948,36.1805,青岛市,李沧区北部,,,17,19,,11,113,,96,96,15,20,10,9,0.4,0.4
2024-06-19T1200,1702A,113.0426,23.691,清远市,环保大楼,,25,21,24,14,13,80,,42,42,9,17,5,8,0.5,0.6
2024-06-19T1200,1703A,113.0208,23.7106,清远市,凤城街办,,26,26,32,9,14,63,,34,34,12,15,4,4,0.4,0.5
2024-06-19T1200,3025A,113.0477,23.6344,清远市,技师学院,,27,25,37,12,21,85,,46,46,11,24,4,4,0.5,0.6
2024-06-19T1200,3318A,112.9903,23.7403,清远市,清新太和,,36,36,31,14,13,56,,30,30,15,18,4,2,0.4,0.6
2024-06-19T1200,3455A,113.076,23.7198,清远市,清城东城,,28,28,30,12,13,67,,28,28,7,12,5,5,0.5,0.6
2024-06-19T1200,2661A,107.6325,35.7357,庆阳市,庆阳五中,,40,33,31,13,13,127,,133,133,8,10,3,3,0.3,0.3
2024-06-19T1200,2662A,107.6364,35.7067,庆阳市,市环保局,,39,23,25,12,11,124,,138,134,4,7,5,5,0.4,0.4
2024-06-19T1200,1916A,103.7897,25.5035,曲靖市,环境监测站,,24,23,29,14,16,75,,45,45,4,10,2,3,0.6,0.7
2024-06-19T1200,1917A,103.8,25.5364,曲靖市,烟厂办公区,,32,27,25,22,16,80,,49,49,3,10,4,4,0.4,0.5
2024-06-19T1200,3376A,103.7947,25.462,曲靖市,南苑二区,,26,18,20,16,15,81,,50,50,5,10,4,5,0.5,0.6
2024-06-19T1200,3377A,103.7444,25.5261,曲靖市,曲靖师范学院,,27,27,23,14,17,80,,53,53,8,10,6,5,0.5,0.6
2024-06-19T1200,1264A,118.8692,28.9398,衢州市,环保大楼,,22,21,19,15,13,42,,24,24,25,25,4,4,0.5,0.4
2024-06-19T1200,1265A,118.8709,28.9666,衢州市,实验学校,,26,26,22,14,15,37,,28,28,21,21,2,7,0.4,0.3
2024-06-19T1200,1266A,118.8621,28.9808,衢州市,衢州学院,,29,,18,20,18,36,,21,21,19,23,3,3,0.6,0.5
2024-06-19T1200,1611A,118.5819,24.9117,泉州市,涂山街,,16,14,17,3,6,51,,31,31,6,13,3,3,0.5,0.4
2024-06-19T1200,1612A,118.5972,24.8978,泉州市,津头埔,,17,11,19,10,8,53,,28,28,10,17,1,2,0.5,0.5
2024-06-19T1200,1613A,118.6663,24.9424,泉州市,万安,,16,16,17,8,8,48,,27,27,6,12,1,2,0.3,0.3
2024-06-19T1200,1614A,118.6117,24.9604,泉州市,清源山,,,,,,,,,,,,,,,,
2024-06-19T1200,3529A,118.6333,24.9264,泉州市,城华南路,,16,11,17,3,7,50,,24,24,9,17,2,2,0.4,0.4
2024-06-19T1200,2626A,88.8876,29.2718,日喀则市,日喀则监测站,,39,10,15,3,6,122,,107,103,4,6,5,5,0.6,0.6
2024-06-19T1200,3726A,88.8781,29.2426,日喀则市,林业技术推广中心,,38,12,18,3,5,120,,100,98,6,7,5,4,0.5,0.6
2024-06-19T1200,1659A,119.471,35.4209,日照市,监测站,,,36,26,12,10,112,,112,112,9,21,9,10,,0.2
2024-06-19T1200,1660A,119.523,35.4216,日照市,市政府广场,,35,17,26,9,7,109,,113,112,4,10,10,10,0.4,0.4
2024-06-19T1200,1661A,119.5587,35.4044,日照市,港务局,,37,17,24,3,7,116,,116,116,4,10,9,9,0.4,0.4
2024-06-19T1200,3507A,119.5328,35.4625,日照市,职业技术学院,,35,22,21,7,8,111,,111,111,7,11,8,8,0.5,0.5
2024-06-19T1200,3604A,119.3266,35.1044,日照市,岚山环保分局,,33,31,37,3,10,104,,104,104,12,16,7,8,0.4,0.4
2024-06-19T1200,1835A,111.1922,34.7752,三门峡市,市政府,,,33,33,7,17,132,,87,87,,29,8,10,0.4,0.4
2024-06-19T1200,1836A,111.1587,34.7942,三门峡市,开发区,臭氧1小时,63,38,34,24,18,170,,108,108,16,19,13,11,0.7,0.7
2024-06-19T1200,1838A,111.143,34.7955,三门峡市,风景区,,,,,,,,,,,,,,,,
2024-06-19T1200,3039A,111.1911,34.7829,三门峡市,三门峡市第一小学,,46,43,37,18,14,147,,98,98,7,19,9,9,0.6,0.6
2024-06-19T1200,3598A,111.1,34.7167,三门峡市,富达温泉假日酒店,颗粒物(PM10),53,56,36,28,18,159,,97,97,15,15,15,11,0.6,0.4
2024-06-19T1200,2324A,117.6211,26.2625,三明市,三钢,,22,21,35,9,17,69,,28,28,10,17,16,9,2.1,1.3
2024-06-19T1200,2325A,117.635,26.2714,三明市,三明二中,,32,32,33,15,17,77,,30,30,6,15,8,8,0.6,1.1
2024-06-19T1200,2326A,117.6028,26.2378,三明市,三元区政府,,,21,37,7,16,71,,27,27,7,16,,6,,0.7
2024-06-19T1200,2327A,117.7275,26.3108,三明市,洋溪,,,,,,,,,,,,,,,,
2024-06-19T1200,1876A,109.5078,18.2489,三亚市,河东子站,,27,20,21,12,11,86,,72,72,3,5,3,3,0.4,0.4
2024-06-19T1200,1877A,109.4964,18.2681,三亚市,河西子站,,27,17,22,12,14,86,,53,53,2,6,1,1,0.3,0.3
2024-06-19T1200,3540A,109.7348,18.3443,三亚市,君悦子站,,,,23,9,10,82,,41,41,4,7,,2,,0.2
2024-06-19T1200,2624A,91.7608,29.2313,山南市,山南监测站,,34,14,7,8,4,108,,103,97,8,6,4,4,0.3,0.3
2024-06-19T1200,2625A,91.7706,29.2436,山南市,山南人民医院,,,53,21,19,9,101,,104,97,,9,6,6,0.4,0.3
2024-06-19T1200,1674A,116.6794,23.3667,汕头市,金平子站,,,,12,3,5,41,,35,35,8,9,2,2,0.7,0.6
2024-06-19T1200,1675A,116.7244,23.3633,汕头市,龙湖子站,,,25,14,9,4,27,,30,29,,12,5,6,,0.6
2024-06-19T1200,1676A,116.7258,23.2775,汕头市,濠江子站,,,,20,7,7,41,,34,34,2,2,4,4,0.8,0.6
2024-06-19T1200,1677A,116.7519,23.4714,汕头市,澄海子站,,,,15,8,8,30,,25,25,10,12,6,5,0.7,0.7
2024-06-19T1200,1678A,116.6092,23.2539,汕头市,潮阳子站,,15,7,14,3,5,46,,35,35,2,7,4,4,0.4,0.4
2024-06-19T1200,3444A,116.454,23.2684,汕头市,潮南峡山,,13,13,18,7,13,32,,30,30,8,9,6,4,0.5,0.5
2024-06-19T1200,3624A,116.4069,23.2533,汕头市,潮南子站,,13,6,21,3,7,40,,33,33,2,5,6,6,0.7,0.7
2024-06-19T1200,1693A,115.3653,22.775,汕尾市,市环保局,,,7,24,3,6,47,,37,37,2,2,4,4,,0.5
2024-06-19T1200,1694A,115.3706,22.7898,汕尾市,市政府,,16,16,14,9,5,49,,40,40,2,2,7,6,0.5,0.5
2024-06-19T1200,1695A,115.3622,22.7925,汕尾市,新城中学,,17,9,18,3,5,52,,41,41,2,4,4,4,0.4,0.4
2024-06-19T1200,2645A,109.9154,33.8715,商洛市,监测站,,45,39,39,23,21,142,,67,67,6,13,11,8,0.6,0.6
2024-06-19T1200,3045A,109.9643,33.8471,商洛市,商州区中学,,48,48,42,22,22,138,,62,62,6,17,13,12,0.8,0.8
2024-06-19T1200,2408A,115.6702,34.4285,商丘市,环境监测站,臭氧1小时,113,66,52,18,23,226,,156,156,10,15,11,11,0.4,0.4
2024-06-19T1200,2409A,115.6458,34.4045,商丘市,粮食局,臭氧1小时,106,58,49,19,24,212,,148,148,,11,7,7,0.4,0.3
2024-06-19T1200,2410A,115.6293,34.3948,商丘市,睢阳区环保局,臭氧1小时,115,52,54,22,24,230,,159,159,11,13,8,7,0.5,0.4
2024-06-19T1200,3171A,115.6071,34.4465,商丘市,梁园区档案局,臭氧1小时,112,50,48,22,24,224,,164,164,10,13,10,10,0.6,0.5
2024-06-19T1200,1141A,121.4,31.238,上海市,普陀,,20,,16,14,11,40,,82,58,30,15,4,4,0.5,0.3
2024-06-19T1200,1142A,121.478,31.2036,上海市,十五厂,,16,8,17,6,10,44,,82,56,32,20,6,7,0.6,0.5
2024-06-19T1200,1143A,121.467,31.3008,上海市,虹口,,17,14,16,8,9,38,,80,56,33,16,4,4,0.6,0.4
2024-06-19T1200,1144A,121.412,31.1654,上海市,徐汇上师大,,16,,15,11,11,44,,83,58,31,20,7,8,0.7,0.5
2024-06-19T1200,1145A,121.536,31.2659,上海市,杨浦四漂,,16,7,20,6,9,49,,76,54,28,24,6,7,0.7,0.6
2024-06-19T1200,1147A,121.425,31.2261,上海市,静安监测站,,17,8,16,7,11,39,,82,56,33,18,7,8,0.6,0.5
2024-06-19T1200,1148A,121.703,31.1907,上海市,浦东川沙,,19,,14,9,10,58,,86,68,23,15,5,6,0.6,0.5
2024-06-19T1200,1149A,121.533,31.2284,上海市,浦东新区监测站,,17,,14,10,8,54,,80,60,27,21,4,5,0.5,0.5
2024-06-19T1200,1150A,121.577,31.2071,上海市,浦东张江,,20,6,16,3,7,62,,90,68,23,20,5,5,0.7,0.6
2024-06-19T1200,3265A,121.4316,31.3322,上海市,宝山庙行,,17,13,14,10,9,42,,83,58,34,19,7,7,0.7,0.5
2024-06-19T1200,3266A,121.8791,31.4662,上海市,崇明上实东滩,,24,6,7,3,4,75,,94,92,17,11,8,8,0.5,0.5
2024-06-19T1200,3268A,121.3162,31.2838,上海市,嘉定南翔,,21,,21,12,9,30,,74,49,41,23,6,6,0.6,0.5
2024-06-19T1200,3269A,121.3359,30.7456,上海市,金山新城,,20,16,12,14,8,59,,80,68,27,14,6,7,0.5,0.4
2024-06-19T1200,3270A,121.4996,31.0739,上海市,闵行浦江,,18,,12,12,11,54,,82,60,20,13,5,5,0.5,0.5
