timepoint,stationcode,longitude,latitude,area,positionname,primarypollutant,aqi,pm10,pm10_24h,pm2_5,pm2_5_24h,o3,o3_24h,o3_8h,o3_8h_24h,no2,no2_24h,so2,so2_24h,co,co_24h
2024-06-19T1700,2566A,102.1879,31.914,阿坝藏族羌族自治州,州农科所,,,32,22,3,8,37,,35,35,19,12,,4,,1.1
2024-06-19T1700,2568A,102.2502,31.8896,阿坝藏族羌族自治州,马师校,,29,6,12,6,13,90,,80,80,9,12,5,5,0.3,0.3
2024-06-19T1700,3994A,102.2165,31.9024,阿坝藏族羌族自治州,马尔康中学西区,,29,,15,10,10,92,,81,81,2,4,5,6,0.3,0.3
2024-06-19T1700,2695A,80.292,41.1694,阿克苏地区,电视台,颗粒物(PM10),68,86,68,18,21,133,,120,120,9,20,4,5,0.4,0.5
2024-06-19T1700,2696A,80.2613,41.1551,阿克苏地区,艺术中心,颗粒物(PM10),62,73,70,12,22,135,,112,112,5,32,4,4,0.4,0.6
2024-06-19T1700,2204A,105.6467,38.8363,阿拉善盟,西城区西花园,,45,41,63,14,21,142,,141,141,8,10,8,9,0.5,0.5
2024-06-19T1700,2205A,105.6985,38.8411,阿拉善盟,蒙二幼,,48,48,59,16,22,138,,137,137,6,7,12,12,0.4,0.5
2024-06-19T1700,2206A,105.724,38.8516,阿拉善盟,环保局新楼,,44,38,62,15,21,138,,143,142,6,6,9,10,0.4,0.4
2024-06-19T1700,2708A,88.1264,47.8517,阿勒泰地区,市站,颗粒物(PM10),92,134,38,33,13,84,,88,88,4,12,6,6,0.2,0.5
2024-06-19T1700,2630A,80.1161,32.5,阿里地区,阿里监测站,臭氧1小时,54,14,24,8,9,163,,149,149,4,7,6,5,0.4,0.4
2024-06-19T1700,3192A,80.0903,32.5028,阿里地区,阿里藏医院,臭氧1小时,58,15,19,8,8,166,,150,150,3,4,6,6,0.4,0.4
2024-06-19T1700,2642A,109.0318,32.6537,安康市,香溪洞,,40,40,24,15,14,60,,65,65,3,5,6,6,0.6,0.6
2024-06-19T1700,2643A,109.0281,32.6939,安康市,安康市监测站,,21,21,30,12,14,64,,77,77,4,8,6,8,0.6,0.6
2024-06-19T1700,2644A,109.0072,32.6975,安康市,汉滨区检察院,,22,18,26,12,16,70,,81,81,4,7,6,7,0.5,0.6
2024-06-19T1700,2291A,117.0809,30.5177,安庆市,环科院,,14,8,14,7,8,43,,48,48,18,14,4,4,0.5,0.5
2024-06-19T1700,2292A,117.0331,30.5119,安庆市,马山宾馆,,17,,16,7,10,38,,49,49,34,25,6,7,0.6,0.6
2024-06-19T1700,2294A,116.9896,30.6145,安庆市,安庆大学,,19,19,22,8,13,58,,54,54,10,14,7,8,0.3,0.3
2024-06-19T1700,3173A,117.0598,30.5351,安庆市,市人大,,17,8,9,7,10,52,,50,50,12,14,5,6,0.3,0.4
2024-06-19T1700,3122A,105.9606,26.2611,安顺市,伍家关,,,,,,,,,,,,,,,,
2024-06-19T1700,3123A,105.9408,26.2431,安顺市,凤凰山,,22,17,18,13,12,70,,64,64,3,8,4,9,1.0,1
2024-06-19T1700,3124A,105.9439,26.2564,安顺市,金钟山,,23,21,17,13,14,71,,66,66,3,8,4,7,0.6,0.7
2024-06-19T1700,3125A,105.8983,26.2481,安顺市,娄家坡,,32,32,25,15,13,67,,64,64,4,7,4,8,0.9,0.9
2024-06-19T1700,1818A,114.4839,36.0621,安阳市,棉研所,,,,,,,,,,,,,,,,
2024-06-19T1700,1819A,114.3551,36.1017,安阳市,红庙街,臭氧1小时,114,45,52,18,23,227,,216,216,1,6,3,4,0.4,0.6
2024-06-19T1700,1820A,114.361,36.0681,安阳市,银杏小区,臭氧1小时,110,35,48,17,21,220,,209,209,10,17,8,9,0.6,0.8
2024-06-19T1700,3141A,114.3922,36.0878,安阳市,信访局,臭氧1小时,111,54,58,13,19,221,,213,213,2,7,6,7,0.5,0.6
2024-06-19T1700,3669A,114.4705,36.0637,安阳市,左辅环卫站,臭氧1小时,114,31,50,16,28,228,,215,215,6,13,3,3,0.3,0.4
2024-06-19T1700,3703A,114.2917,36.0949,安阳市,安钢职工学校,臭氧1小时,110,51,62,14,26,220,,202,202,,12,4,6,0.4,0.6
2024-06-19T1700,1748A,123.044,41.1196,鞍山市,深沟寺,,49,25,31,7,14,154,,170,149,9,12,8,11,0.3,0.5
2024-06-19T1700,1749A,123.011,41.0931,鞍山市,太阳城,,50,27,36,9,17,159,,170,149,10,12,7,9,0.5,0.7
2024-06-19T1700,1750A,123.0485,41.1442,鞍山市,太平,,48,27,31,9,14,153,,165,145,8,10,5,7,0.4,0.6
2024-06-19T1700,1751A,122.9642,41.0971,鞍山市,铁西三道街,,50,43,46,16,21,158,,171,152,18,17,4,7,0.3,0.6
2024-06-19T1700,1752A,122.9341,41.0833,鞍山市,铁西工业园区,臭氧1小时,55,28,36,9,18,164,,167,154,15,16,6,9,0.2,0.6
2024-06-19T1700,1753A,123.022,41.0821,鞍山市,明达新区,,46,28,37,10,17,146,,166,138,9,11,7,9,0.4,0.6
2024-06-19T1700,1754A,123.1289,41.0228,鞍山市,千山,,,,,,,,,,,,,,,,
2024-06-19T1700,2195A,107.4212,40.761,巴彦淖尔市,附二中,颗粒物(PM10),56,62,66,18,31,150,,126,126,5,13,3,5,0.4,0.6
2024-06-19T1700,2196A,107.37,40.7372,巴彦淖尔市,市环保大楼,颗粒物(PM10),55,59,71,23,23,148,,127,127,6,10,4,4,0.4,0.5
2024-06-19T1700,1956A,86.1472,41.7538,巴音郭楞蒙古自治州,孔雀公园,颗粒物(PM10),65,79,562,24,120,103,,100,100,3,9,3,2,0.1,0.2
2024-06-19T1700,1957A,86.1972,41.7166,巴音郭楞蒙古自治州,棉纺厂,颗粒物(PM10),73,96,376,31,93,114,,108,108,4,9,4,4,0.2,0.2
2024-06-19T1700,1958A,86.2357,41.7173,巴音郭楞蒙古自治州,经济开发区,颗粒物(PM10),57,63,373,27,78,115,,111,111,4,7,2,2,0.1,0.2
2024-06-19T1700,2914A,106.7677,31.8794,巴中市,苏山坪,,24,17,18,12,12,76,,66,62,8,8,4,4,0.7,0.7
2024-06-19T1700,3182A,106.7656,31.8545,巴中市,丽阳花园,,29,12,20,9,14,92,,70,70,6,15,6,6,0.5,0.6
2024-06-19T1700,3183A,106.7418,31.8654,巴中市,圣泉水务公司,,29,14,19,11,14,90,,66,66,6,19,4,4,0.5,0.6
2024-06-19T1700,3616A,106.7616,31.8344,巴中市,市中心医院,,29,12,18,8,13,92,,70,70,4,12,5,5,0.4,0.5
2024-06-19T1700,2235A,122.7911,45.6077,白城市,洮北区环保局,细颗粒物(PM2.5),67,67,44,48,33,134,,147,145,16,15,4,4,0.4,0.3
2024-06-19T1700,2236A,122.8738,45.5725,白城市,市环保局,颗粒物(PM10),64,78,45,31,23,124,,94,,15,16,5,5,0.5,0.4
2024-06-19T1700,2231A,126.4219,41.9171,白山市,喜丰,,45,39,44,9,21,144,,165,165,6,18,12,11,0.7,1
2024-06-19T1700,2232A,126.4077,41.9419,白山市,环保局,,44,19,43,7,23,138,,155,155,5,15,10,11,0.7,0.9
2024-06-19T1700,2647A,104.1724,36.5446,白银市,第三小学,颗粒物(PM10),69,87,112,27,39,154,,135,135,8,27,28,32,0.4,0.7
2024-06-19T1700,2648A,104.1465,36.5482,白银市,动力公司,颗粒物(PM10),55,60,93,15,31,143,,137,137,9,17,33,24,0.2,0.4
2024-06-19T1700,2512A,106.6103,23.9011,百色市,市监测站,,34,34,43,20,24,86,,81,81,6,13,4,17,0.7,0.9
2024-06-19T1700,2513A,106.6538,23.8859,百色市,市中心血站,,42,42,44,24,27,92,,86,86,7,12,3,13,0.7,0.9
2024-06-19T1700,3406A,106.6085,23.8798,百色市,祈福高中,,35,26,49,24,27,89,,79,79,4,15,7,19,0.8,1
2024-06-19T1700,2270A,117.396,32.939,蚌埠市,工人疗养院,臭氧1小时,67,53,49,21,20,173,,166,166,7,16,7,11,0.4,0.4
2024-06-19T1700,2271A,117.3605,32.9427,蚌埠市,百货大楼,臭氧1小时,69,83,49,27,23,175,,168,168,10,14,5,7,0.5,0.5
2024-06-19T1700,2273A,117.4185,32.8911,蚌埠市,蚌埠学院,臭氧1小时,62,39,42,19,21,169,,161,161,6,11,6,7,0.5,0.5
2024-06-19T1700,2274A,117.3533,32.9673,蚌埠市,淮上区政府,臭氧1小时,83,48,47,31,27,186,,172,172,7,14,6,8,0.4,0.4
2024-06-19T1700,2275A,117.3145,32.8977,蚌埠市,高新区,臭氧1小时,68,34,43,21,21,174,,169,169,6,11,6,7,0.5,0.4
2024-06-19T1700,3715A,117.3092,32.9314,蚌埠市,蚌埠田家炳中学,臭氧1小时,74,48,45,21,21,179,,171,171,7,9,6,7,0.4,0.4
2024-06-19T1700,1585A,109.8756,40.6532,包头市,市环境监测站,,50,31,35,18,19,157,,122,122,15,30,10,16,0.5,0.7
2024-06-19T1700,1587A,109.9991,40.5842,包头市,包头八中,臭氧1小时,57,30,35,15,26,165,,126,126,13,24,12,27,0.4,0.6
2024-06-19T1700,1588A,109.8538,40.6821,包头市,青山宾馆,,47,28,29,14,20,149,,120,120,20,29,14,14,0.6,0.7
2024-06-19T1700,1589A,109.8642,40.6288,包头市,惠龙物流,臭氧1小时,52,29,29,13,17,161,,130,130,14,24,13,21,0.6,0.7
2024-06-19T1700,1590A,110.0377,40.5546,包头市,东河鸿龙湾,,50,29,28,10,15,160,,123,123,11,19,11,16,0.5,0.6
2024-06-19T1700,3283A,109.9154,40.5685,包头市,滨河大厦,臭氧1小时,53,19,28,14,18,162,,122,122,9,22,10,11,0.6,0.6
2024-06-19T1700,3419A,109.9447,40.6261,包头市,包头市委党校,,50,,30,9,17,160,,131,131,14,30,13,17,0.4,0.6
2024-06-19T1700,3683A,109.8331,40.6576,包头市,昆区政府,,47,33,30,17,24,149,,126,126,21,28,19,20,0.7,0.8
2024-06-19T1700,1930A,107.185,34.3063,宝鸡市,庙沟村,,,,30,13,13,120,,108,108,4,9,9,9,0.4,0.4
2024-06-19T1700,1931A,107.0708,34.3017,宝鸡市,竹园沟,,47,30,21,14,13,148,,150,150,9,16,8,7,0.6,0.5
2024-06-19T1700,1932A,107.1906,34.3672,宝鸡市,三陆医院,,46,35,44,14,24,147,,131,131,12,29,7,10,0.5,0.6
2024-06-19T1700,1933A,107.1431,34.3547,宝鸡市,监测站,,44,42,30,14,16,139,,127,127,14,21,9,9,0.4,0.5
2024-06-19T1700,1934A,107.1186,34.3739,宝鸡市,技工学校,,46,36,33,17,18,147,,133,133,14,18,7,8,0.5,0.5
2024-06-19T1700,1935A,107.3906,34.3528,宝鸡市,陈仓区环保局家属楼,臭氧1小时,53,32,34,8,17,162,,144,144,10,23,6,6,0.3,0.5
2024-06-19T1700,1936A,107.2058,34.3497,宝鸡市,文理学院,,45,24,33,14,9,141,,130,130,10,22,8,8,0.4,0.5
2024-06-19T1700,1937A,107.2386,34.3622,宝鸡市,三迪小学,,48,44,39,20,23,151,,126,126,12,26,8,8,0.4,0.6
2024-06-19T1700,1051A,115.493,38.8632,保定市,游泳馆,臭氧1小时,116,59,72,25,26,232,,215,215,2,7,7,9,0.0,0.2
2024-06-19T1700,1052A,115.5213,38.8959,保定市,华电二区,臭氧1小时,118,,59,37,30,235,,218,218,4,12,4,4,0.4,0.3
2024-06-19T1700,1053A,115.4713,38.9108,保定市,接待中心,臭氧1小时,116,45,46,35,31,232,,226,226,2,6,5,4,0.3,0.4
2024-06-19T1700,1054A,115.4612,38.8416,保定市,地表水厂,臭氧1小时,116,68,54,27,31,232,,219,219,8,12,2,3,0.7,0.6
2024-06-19T1700,3581A,115.31981,38.95208,保定市,满城区生态环境分局,臭氧1小时,123,61,80,22,27,246,,222,222,5,9,4,4,0.1,0.3
2024-06-19T1700,3582A,115.47694,38.76408,保定市,清苑区第二中学,臭氧1小时,118,75,69,39,35,236,,227,227,10,12,6,6,0.3,0.4
2024-06-19T1700,3583A,115.62909,39.02311,保定市,徐水物探局,臭氧1小时,125,64,77,17,22,249,,227,227,5,11,2,3,0.3,0.3
2024-06-19T1700,4004A,115.4202,38.8656,保定市,双鹰农机,臭氧1小时,123,58,61,36,27,246,,228,228,1,7,1,2,0.1,0.2
2024-06-19T1700,4034A,115.5150,38.8590,保定市,植保所站,臭氧1小时,121,47,65,24,30,241,,224,224,2,13,6,6,0.7,0.6
2024-06-19T1700,2594A,99.1678,25.1081,保山市,市环境监测站,,31,27,39,3,15,97,,86,86,4,7,5,5,0.5,0.6
2024-06-19T1700,2595A,99.1711,25.1328,保山市,市环保局,,32,26,45,14,15,102,,92,92,3,5,6,6,0.5,0.5
2024-06-19T1700,1866A,109.2262,21.588,北海市,牛尾岭水库,,,,,,,,,,,,,,,,
2024-06-19T1700,1867A,109.1436,21.4086,北海市,海滩公园,颗粒物(PM10),55,60,40,7,7,102,,88,88,3,4,3,3,0.7,0.6
2024-06-19T1700,1868A,109.0981,21.4661,北海市,新市环保局,,32,28,24,7,8,101,,90,90,4,5,4,4,0.6,0.7
2024-06-19T1700,1869A,109.1778,21.5233,北海市,北海工业园,,30,29,27,17,12,96,,89,89,5,5,4,4,0.5,0.5
2024-06-19T1700,3400A,109.1911,21.4415,北海市,龙潭自来水厂,,31,20,23,15,13,98,,86,86,3,4,5,5,0.4,0.5
2024-06-19T1700,1001A,116.3621,39.8784,北京市,万寿西宫,臭氧1小时,132,63,78,30,33,264,,220,220,16,24,1,1,0.4,0.5
2024-06-19T1700,1002A,116.2202,40.2915,北京市,定陵,臭氧1小时,111,48,70,18,32,221,,216,216,13,18,3,3,0.4,0.5
2024-06-19T1700,1003A,116.4174,39.9289,北京市,东四,臭氧1小时,133,67,75,27,31,265,,221,221,15,21,5,5,0.5,0.5
2024-06-19T1700,1004A,116.4072,39.8863,北京市,天坛,臭氧1小时,131,68,61,34,30,262,,216,216,15,18,3,2,0.3,0.4
2024-06-19T1700,1005A,116.462,39.9365,北京市,农展馆,臭氧1小时,134,65,73,27,29,268,,224,224,16,22,7,6,0.5,0.6
2024-06-19T1700,1006A,116.3392,39.9295,北京市,官园,臭氧1小时,116,58,81,22,32,231,,216,216,13,18,4,5,0.4,0.5
2024-06-19T1700,1007A,116.2878,39.9611,北京市,海淀万柳,臭氧1小时,106,50,81,29,35,211,,196,196,13,22,5,5,0.3,0.4
2024-06-19T1700,1008A,116.6636,40.135,北京市,顺义新城,,,,139,,42,,,168,,,29,,3,,0.7
2024-06-19T1700,1009A,116.6275,40.3275,北京市,怀柔镇,臭氧1小时,134,59,108,27,65,267,,234,234,10,17,4,6,0.5,0.7
2024-06-19T1700,1010A,116.2296,40.217,北京市,昌平镇,臭氧1小时,103,49,80,20,37,205,,198,198,12,21,2,3,0.4,0.5
2024-06-19T1700,1011A,116.3966,39.9821,北京市,奥体中心,臭氧1小时,113,59,72,24,30,226,,193,193,14,19,1,2,0.4,0.5
2024-06-19T1700,1012A,116.184,39.9136,北京市,古城,臭氧1小时,107,54,96,23,35,214,,200,200,13,27,2,3,0.2,0.3
2024-06-19T1700,3281A,115.9718,40.4529,北京市,延庆夏都,臭氧1小时,105,53,59,25,27,209,,198,198,9,12,1,2,0.4,0.5
2024-06-19T1700,3417A,117.0709,40.1465,北京市,平谷新城,臭氧1小时,117,89,109,49,66,233,,196,196,15,18,1,3,0.6,0.6
2024-06-19T1700,3418A,116.8336,40.4095,北京市,密云新城,臭氧1小时,139,72,100,36,57,277,,234,234,12,16,3,2,0.5,0.6
2024-06-19T1700,3671A,116.088,39.9726,北京市,门头沟三家店,,,,,,,,,,,,,,,,
2024-06-19T1700,3672A,116.1541,39.8204,北京市,丰台云岗,臭氧1小时,101,55,83,30,35,202,,192,192,11,26,2,2,0.4,0.5
2024-06-19T1700,3673A,116.6804,39.9081,北京市,通州东关,臭氧1小时,138,77,96,35,41,275,,219,219,11,29,5,3,0.5,0.6
2024-06-19T1700,3674A,115.9577,39.7603,北京市,房山燕山,臭氧1小时,104,71,76,28,32,207,,191,191,10,13,1,2,0.4,0.5
2024-06-19T1700,3675A,116.4672,39.7733,北京市,大兴旧宫,臭氧1小时,123,65,72,29,30,245,,204,204,10,18,3,2,0.5,0.5
2024-06-19T1700,3694A,115.986,40.4563,北京市,延庆石河营,臭氧1小时,103,58,57,27,28,206,,194,194,10,12,1,2,0.6,0.4
2024-06-19T1700,3695A,116.6151,40.3053,北京市,怀柔新城,臭氧1小时,127,57,106,27,66,253,,222,222,15,19,2,2,0.6,0.8
2024-06-19T1700,3696A,116.2545,39.8768,北京市,丰台小屯,臭氧1小时,92,48,78,22,33,193,,182,182,8,27,1,1,0.3,0.4
2024-06-19T1700,3697A,116.84,40.3844,北京市,密云镇,臭氧1小时,139,71,102,44,58,277,,226,226,11,23,2,3,0.6,0.6
2024-06-19T1700,1761A,123.8275,41.3064,本溪市,大峪,臭氧1小时,53,27,43,8,21,162,,147,147,5,10,10,10,0.4,0.5
2024-06-19T1700,1762A,123.7567,41.3325,本溪市,溪湖,,50,27,46,10,24,160,,145,145,12,20,14,15,0.7,1.1
2024-06-19T1700,1763A,123.7169,41.3094,本溪市,彩屯,,46,37,50,14,30,146,,130,130,24,28,16,16,1.3,2.2
2024-06-19T1700,1764A,123.7669,41.2864,本溪市,东明,臭氧1小时,60,25,46,9,20,168,,172,150,10,13,8,8,0.5,0.5
2024-06-19T1700,1765A,123.7992,41.2664,本溪市,新立屯,臭氧1小时,59,43,40,15,21,167,,170,151,7,11,6,10,0.4,0.7
2024-06-19T1700,1766A,123.8142,41.3472,本溪市,威宁,"颗粒物(PM10),臭氧1小时",52,54,52,8,26,161,,146,146,9,18,8,8,0.3,0.6
2024-06-19T1700,2587A,105.2864,27.3125,毕节市,八中,,17,6,31,6,27,53,,47,44,6,10,5,5,0.5,0.5
2024-06-19T1700,2588A,105.31,27.2944,毕节市,师专,,16,7,29,6,24,50,,45,43,7,10,4,5,0.6,0.5
2024-06-19T1700,3537A,105.3631,27.3533,毕节市,长征村,,19,10,65,6,48,59,,43,42,8,9,6,6,0.7,0.6
2024-06-19T1700,1629A,118.0018,37.3617,滨州市,第二水厂,臭氧1小时,109,44,66,12,23,218,,232,232,6,26,5,9,0.3,0.5
2024-06-19T1700,1630A,117.9776,37.393,滨州市,北中新校,臭氧1小时,108,46,62,12,21,215,,230,230,8,24,4,8,0.4,0.7
2024-06-19T1700,3514A,117.9378,37.3956,滨州市,中海酒店,臭氧1小时,117,39,52,14,23,234,,249,249,8,19,6,9,0.3,0.4
2024-06-19T1700,3515A,117.9378,37.3553,滨州市,开发区一中,臭氧1小时,110,44,65,12,23,220,,226,226,7,25,7,10,0.4,0.7
2024-06-19T1700,3516A,118.0917,37.694,滨州市,金海六路,臭氧1小时,103,44,59,3,16,206,,205,205,7,19,5,17,0.4,0.7
2024-06-19T1700,4028A,117.9956,37.3753,滨州市,滨州市西街道办事处,臭氧1小时,110,41,62,14,27,220,,232,232,8,25,4,9,0.5,0.8
2024-06-19T1700,2311A,115.8072,33.8399,亳州市,污水处理厂,臭氧1小时,116,53,49,29,27,232,,208,208,12,17,6,6,0.5,0.5
2024-06-19T1700,2312A,115.7789,33.8518,亳州市,三国揽胜宫,臭氧1小时,114,47,46,25,25,228,,201,201,10,14,6,5,0.5,0.5
2024-06-19T1700,3332A,115.7633,33.8034,亳州市,亳州学院,臭氧1小时,114,39,51,22,24,228,,204,204,8,13,4,6,0.4,0.4
2024-06-19T1700,2693A,82.0485,44.8556,博尔塔拉蒙古自治州,市党校,,34,22,21,9,7,107,,101,101,8,10,8,9,0.5,0.4
2024-06-19T1700,2694A,82.0806,44.8969,博尔塔拉蒙古自治州,市环保局,,31,22,21,10,9,99,,106,106,12,15,8,9,0.3,0.4
2024-06-19T1700,1071A,116.8842,38.2991,沧州市,沧县城建局,臭氧1小时,121,52,54,15,22,242,,222,222,10,16,3,3,0.5,0.5
2024-06-19T1700,1072A,116.8584,38.3254,沧州市,电视转播站,臭氧1小时,115,37,56,19,23,230,,214,214,3,10,3,4,0.3,0.4
2024-06-19T1700,1073A,116.8709,38.3228,沧州市,市环保局,臭氧1小时,121,46,55,22,26,241,,223,223,12,16,8,8,0.3,0.4
2024-06-19T1700,3324A,116.8136,38.3004,沧州市,河北水利电力学院,臭氧1小时,120,46,56,27,26,240,,230,230,7,15,8,9,0.3,0.3
2024-06-19T1700,2622A,97.1806,31.1273,昌都市,昌都监测站,,34,,8,3,6,107,,89,89,3,8,9,9,0.5,0.5
2024-06-19T1700,3719A,97.1714,31.1406,昌都市,昌都会议中心,,34,6,8,3,5,108,,94,94,6,7,5,5,0.5,0.4
2024-06-19T1700,2690A,88.1236,43.8886,昌吉回族自治州,天山天池,,30,14,9,3,3,94,,75,75,5,5,5,11,0.5,0.6
2024-06-19T1700,2692A,87.2717,44.0297,昌吉回族自治州,新区政务中心,,39,11,15,3,8,123,,112,112,4,7,9,8,0.3,0.2
2024-06-19T1700,3613A,87.3095,44.0142,昌吉回族自治州,亚心广场,,39,22,18,3,2,122,,113,113,11,13,8,7,0.2,0.2
2024-06-19T1700,1119A,125.3325,43.9166,长春市,食品厂,臭氧1小时,103,72,66,26,19,206,,197,197,25,43,8,8,0.2,0.4
2024-06-19T1700,1120A,125.2863,43.9027,长春市,客车厂,臭氧1小时,106,62,54,19,18,211,,202,202,16,34,5,5,0.4,0.4
2024-06-19T1700,1121A,125.2841,43.8463,长春市,邮电学院,臭氧1小时,105,76,52,24,12,210,,198,198,16,37,8,8,0.4,0.4
2024-06-19T1700,1122A,125.3716,43.8772,长春市,劳动公园,臭氧1小时,112,64,55,16,16,223,,212,212,17,44,6,6,0.5,0.5
2024-06-19T1700,1123A,125.3297,43.8805,长春市,园林处,臭氧1小时,108,59,48,22,20,215,,203,203,14,39,7,7,0.4,0.5
2024-06-19T1700,1124A,125.4605,43.79,长春市,净月潭,臭氧1小时,104,47,35,18,14,208,,207,207,11,30,6,6,0.4,0.4
2024-06-19T1700,1125A,125.7194,43.515,长春市,甩湾子,,,,,,,,,,,,,,,,
2024-06-19T1700,1126A,125.3863,43.8447,长春市,经开区环卫处,臭氧1小时,110,74,53,18,15,219,,208,208,15,51,7,6,0.4,0.4
2024-06-19T1700,1127A,125.245,43.7783,长春市,高新区管委会,臭氧1小时,106,53,45,20,13,211,,206,206,14,41,10,9,0.4,0.4
2024-06-19T1700,1128A,125.1761,43.8325,长春市,岱山公园,臭氧1小时,97,44,51,17,20,197,,192,192,13,37,6,6,0.3,0.4
2024-06-19T1700,1335A,113.0833,28.2325,长沙市,经开区环保局,,23,23,19,14,12,48,,53,53,15,15,3,3,0.6,0.5
2024-06-19T1700,1336A,112.8872,28.2189,长沙市,高开区环保局,,21,19,19,12,12,66,,63,63,7,11,4,4,0.6,0.6
2024-06-19T1700,1337A,113.0792,28.2053,长沙市,马坡岭,,22,20,19,15,16,56,,52,52,12,15,7,7,0.6,0.6
2024-06-19T1700,1338A,112.9394,28.19,长沙市,湖南师范大学,,26,18,20,18,14,58,,56,56,7,9,3,3,0.7,0.8
2024-06-19T1700,1339A,113.0178,28.1322,长沙市,雨花区环保局,,19,14,15,10,10,60,,56,56,5,4,2,3,0.6,0.5
2024-06-19T1700,1340A,112.9792,28.2597,长沙市,伍家岭,,,,38,,28,,,,,,23,,4,,0.5
2024-06-19T1700,1341A,113.0014,28.1944,长沙市,火车新站,,20,16,20,14,9,62,,62,62,10,9,2,2,0.7,0.6
2024-06-19T1700,1342A,112.9844,28.1178,长沙市,天心区环保局,,20,20,17,9,11,51,,46,46,10,6,2,2,1.1,0.9
2024-06-19T1700,1343A,112.8908,28.1308,长沙市,湖南中医药大学,,24,24,16,13,11,57,,59,59,6,7,7,7,0.8,0.8
2024-06-19T1700,1344A,112.9581,28.3611,长沙市,沙坪,,20,18,14,7,7,61,,82,79,9,7,7,7,0.5,0.7
2024-06-19T1700,1727A,113.1147,36.1547,长治市,清华站,臭氧1小时,77,34,36,14,20,181,,188,187,11,14,10,10,0.3,0.4
2024-06-19T1700,1728A,113.1031,36.1989,长治市,监测站,,,,47,14,21,188,,193,193,13,17,4,5,0.5,0.7
2024-06-19T1700,1730A,113.0886,36.2125,长治市,审计局,臭氧1小时,87,30,36,17,19,189,,196,196,20,21,2,3,0.3,0.5
2024-06-19T1700,1731A,113.0844,36.1856,长治市,长治八中,臭氧1小时,82,36,42,14,20,185,,189,189,12,15,2,4,0.4,0.6
2024-06-19T1700,2845A,113.1569,36.1911,长治市,德盛苑,臭氧1小时,88,26,36,14,20,190,,195,195,9,10,7,8,0.5,0.7
2024-06-19T1700,3568A,113.06,36.0464,长治市,向阳小学,臭氧1小时,98,73,61,39,40,198,,189,189,13,15,4,4,0.6,0.7
2024-06-19T1700,3569A,112.8792,36.3144,长治市,屯留一中,臭氧1小时,104,26,41,18,32,207,,191,191,10,18,8,9,0.5,0.6
2024-06-19T1700,3570A,113.235,36.3489,长治市,潞城四中,臭氧1小时,100,37,44,17,28,200,,201,201,9,17,8,6,0.4,0.6
2024-06-19T1700,1854A,111.6975,28.9703,常德市,市二中,,39,37,30,13,19,122,,106,106,3,6,6,6,0.6,0.6
2024-06-19T1700,1857A,111.7158,29.1456,常德市,白鹤山,,,,,,,,,,,,,,,,
2024-06-19T1700,3138A,111.7153,29.0289,常德市,武陵区永安,,37,28,30,17,21,118,,108,108,5,5,6,6,0.4,0.4
2024-06-19T1700,3139A,111.6892,28.9881,常德市,鼎城区玉霞,,36,19,31,11,22,115,,104,104,3,6,3,4,0.4,0.5
2024-06-19T1700,3140A,111.6625,29.0531,常德市,武陵区长庚,,36,,28,14,20,115,,100,100,4,7,8,8,0.4,0.4
2024-06-19T1700,1196A,119.9633,31.762,常州市,市监测站,,37,37,26,15,15,49,,64,48,24,21,7,7,0.5,0.5
2024-06-19T1700,1200A,119.9468,31.7069,常州市,武进监测站,,18,18,24,12,11,55,,69,56,16,11,10,9,0.7,0.6
2024-06-19T1700,1201A,119.9255,31.9087,常州市,安家,,14,,32,8,15,43,,68,41,20,18,7,7,0.5,0.5
2024-06-19T1700,3002A,119.9805,31.8174,常州市,行政中心,,16,14,24,11,10,47,,66,45,22,19,10,8,0.5,0.5
2024-06-19T1700,3003A,120.0522,31.7748,常州市,经开区,,18,15,23,12,10,46,,65,47,27,22,4,4,0.7,0.6
2024-06-19T1700,3010A,119.9025,31.7964,常州市,钟楼,,37,37,30,8,10,49,,67,53,19,18,4,5,0.8,0.8
2024-06-19T1700,3429A,119.8598,31.7066,常州市,武进经发区,,30,30,25,16,11,43,,66,47,20,16,8,8,0.6,0.5
2024-06-19T1700,3430A,119.5826,31.7245,常州市,金坛城区,,15,9,21,3,9,45,,67,50,15,9,5,6,0.7,0.7
2024-06-19T1700,2220A,120.4318,41.5881,朝阳市,西梁,臭氧1小时,100,53,51,21,23,200,,195,195,9,16,13,12,0.6,0.7
2024-06-19T1700,2221A,120.4521,41.5646,朝阳市,河畔小区,臭氧1小时,103,47,52,21,23,206,,199,199,7,12,11,11,0.6,0.7
2024-06-19T1700,2222A,120.4176,41.5648,朝阳市,八里堡,臭氧1小时,95,59,60,20,24,196,,196,196,11,19,11,11,0.8,0.9
2024-06-19T1700,2223A,120.3806,41.5969,朝阳市,农业园区,臭氧1小时,95,50,49,20,29,196,,194,194,9,18,11,12,0.7,0.8
2024-06-19T1700,1705A,116.6367,23.6719,潮州市,西园路,,22,22,21,8,9,35,,34,34,15,10,3,2,0.3,0.4
2024-06-19T1700,3026A,116.6183,23.6608,潮州市,市政府,,48,48,20,8,7,41,,45,45,16,10,5,6,0.6,0.7
2024-06-19T1700,4036A,116.6461,23.6761,潮州市,金山,,27,27,17,6,8,40,,43,43,13,12,5,7,0.6,0.6
2024-06-19T1700,2472A,113.0073,25.9061,郴州市,马头岭,,30,30,21,7,6,57,,54,53,2,5,6,7,0.5,0.5
2024-06-19T1700,2473A,113.0116,25.8226,郴州市,市职中,,20,12,15,11,11,61,,57,57,3,6,7,12,0.5,0.5
2024-06-19T1700,2474A,113.0161,25.8001,郴州市,兴隆步行街,,20,18,19,10,11,63,,61,61,3,6,8,13,0.5,0.6
2024-06-19T1700,2475A,113.0383,25.8071,郴州市,市审计局,,20,13,13,11,10,61,,57,57,4,9,14,24,0.3,0.4
2024-06-19T1700,2476A,113.0348,25.7759,郴州市,市环保局,,,12,14,,10,63,,61,61,6,11,18,26,0.4,0.4
2024-06-19T1700,1431A,103.9728,30.7236,成都市,金泉两河,,47,37,30,22,19,148,,120,120,3,12,1,1,0.4,0.4
2024-06-19T1700,1432A,104.176,30.6872,成都市,十里店,,48,28,42,3,25,151,,131,131,12,21,3,3,0.6,0.6
2024-06-19T1700,1433A,104.079,30.5706,成都市,三瓦窑,,42,28,49,18,38,133,,114,114,7,27,2,2,0.4,0.5
2024-06-19T1700,1434A,104.1114,30.63,成都市,沙河铺,,43,35,45,22,25,135,,112,112,12,19,2,3,0.4,0.5
2024-06-19T1700,1437A,104.0786,30.6531,成都市,君平街,颗粒物(PM10),62,73,37,30,23,124,,126,126,26,22,1,1,0.5,0.5
2024-06-19T1700,1438A,103.613,31.0283,成都市,灵岩寺,,,,,,,,,,,,,,,,
2024-06-19T1700,2880A,104.0239,30.65639,成都市,大石西路,,43,40,38,20,20,135,,124,124,11,20,3,3,0.6,0.6
2024-06-19T1700,3136A,104.2725,30.5589,成都市,龙泉驿区区政府,,45,17,28,17,23,142,,122,122,5,12,3,2,0.4,0.5
2024-06-19T1700,3357A,104.0106,30.6931,成都市,金博路,,43,20,24,16,15,135,,113,113,4,13,1,2,0.4,0.5
2024-06-19T1700,3359A,104.0578,30.5225,成都市,华阳,,40,27,35,24,30,126,,112,112,7,17,2,2,0.5,0.5
2024-06-19T1700,3487A,104.2394,30.5319,成都市,车城东七路,,45,22,42,20,34,142,,126,126,4,11,2,2,0.5,0.5
2024-06-19T1700,3488A,104.3853,30.7453,成都市,青白江技师分院,,47,22,30,11,21,149,,128,128,4,25,4,4,0.5,0.5
2024-06-19T1700,3489A,104.0789,30.4072,成都市,科学城,,41,18,40,9,29,131,,108,108,2,15,1,3,0.5,0.5
2024-06-19T1700,4011A,103.8506,30.6947,成都市,光华大道三段,臭氧1小时,52,29,32,10,15,161,,130,130,7,7,3,3,0.5,0.6
2024-06-19T1700,1062A,117.9531,40.9081,承德市,铁路,臭氧1小时,102,47,67,20,39,204,,200,200,12,21,6,9,0.4,0.5
2024-06-19T1700,1063A,117.9392,40.9763,承德市,中国银行,臭氧1小时,102,53,74,19,43,203,,198,198,8,18,6,7,0.3,0.5
2024-06-19T1700,1064A,117.9503,40.928,承德市,开发区,臭氧1小时,102,55,74,28,38,204,,205,205,18,22,6,9,0.5,0.6
2024-06-19T1700,1065A,117.8051,40.9655,承德市,文化中心,臭氧1小时,109,53,81,25,44,217,,209,209,6,20,9,12,0.4,0.5
2024-06-19T1700,1066A,117.9268,41.0026,承德市,离宫,臭氧1小时,97,45,60,19,43,197,,194,194,1,9,3,4,0.3,0.5
2024-06-19T1700,2314A,117.47,30.6618,池州市,池州学院,,17,11,17,6,10,53,,50,50,1,5,5,6,0.5,0.6
2024-06-19T1700,3237A,117.4918,30.6617,池州市,展览馆,,15,10,14,3,7,46,,46,46,5,7,3,3,0.5,0.5
2024-06-19T1700,3333A,117.5627,30.695,池州市,第八中学,,15,7,15,3,9,48,,48,48,7,9,2,3,0.3,0.4
2024-06-19T1700,3334A,117.5038,30.6243,池州市,第十二中学,,16,12,14,8,10,50,,47,47,7,11,4,5,0.5,0.7
2024-06-19T1700,1744A,118.9233,42.2816,赤峰市,松山一中,臭氧1小时,73,34,42,21,26,178,,187,186,15,24,10,12,0.7,0.8
2024-06-19T1700,1745A,118.9576,42.2728,赤峰市,哈达街,,,53,50,14,17,152,,183,179,15,22,11,14,,0.7
2024-06-19T1700,1746A,118.8788,42.2554,赤峰市,天义路,臭氧1小时,84,27,45,13,23,187,,196,192,16,19,7,9,0.5,0.6
2024-06-19T1700,3058A,119.2658,42.0353,赤峰市,银河街,臭氧1小时,94,67,68,25,37,195,,191,191,14,17,11,17,0.5,0.5
2024-06-19T1700,3286A,118.9359,42.3147,赤峰市,桥北物流园区,臭氧1小时,68,37,54,34,33,174,,186,184,15,21,7,10,0.8,1
2024-06-19T1700,2521A,107.3476,22.4136,崇左市,市环保局江州分局,,37,37,28,14,14,66,,74,74,5,7,4,5,0.6,0.6
2024-06-19T1700,2522A,107.3702,22.3707,崇左市,城南新区,,30,30,24,12,14,60,,67,67,5,6,3,3,0.6,0.6
2024-06-19T1700,2298A,118.3093,32.3153,滁州市,老年大学,,36,29,33,20,17,113,,125,125,17,14,8,7,0.6,0.5
2024-06-19T1700,2299A,118.3244,32.2786,滁州市,人大宾馆,,36,,27,25,22,110,,118,118,23,19,6,6,0.6,0.5
2024-06-19T1700,3207A,118.3118,32.3038,滁州市,市政府原办公楼,,37,26,32,20,21,116,,124,124,16,14,7,6,0.7,0.5
2024-06-19T1700,3331A,118.3267,32.2634,滁州市,图书馆,,35,27,31,24,20,108,,116,116,14,15,8,7,0.7,0.4
2024-06-19T1700,2605A,101.5482,25.0441,楚雄彝族自治州,州环境监测站,,,27,17,13,13,93,,96,96,5,4,,4,0.5,0.5
2024-06-19T1700,2606A,101.538,25.0492,楚雄彝族自治州,市经济开发区,,29,18,19,17,13,91,,91,91,5,6,4,4,0.5,0.5
2024-06-19T1700,2548A,107.5277,31.2827,达州市,达州职业技术学院,,19,19,25,3,8,60,,34,34,10,24,3,4,0.3,0.2
2024-06-19T1700,2549A,107.5086,31.2186,达州市,市环境监测站,,20,19,24,3,7,63,,43,43,20,26,5,6,0.5,0.6
2024-06-19T1700,2550A,107.4988,31.2132,达州市,凤凰小区,,23,17,21,7,12,71,,50,50,12,23,6,7,0.4,0.5
2024-06-19T1700,2551A,107.5082,31.1986,达州市,达县机关宾馆,,20,12,24,8,14,64,,45,45,18,32,4,5,0.3,0.4
2024-06-19T1700,2552A,107.4644,31.2124,达州市,市政中心,,23,23,29,7,10,72,,53,53,12,24,5,6,0.5,0.5
2024-06-19T1700,2614A,100.1542,25.7054,大理白族自治州,大理市环境监测站,,33,33,32,18,17,79,,86,86,11,8,5,4,0.6,0.6
2024-06-19T1700,2615A,100.2171,25.5811,大理白族自治州,大理古城,,30,30,22,11,14,87,,99,99,12,8,6,6,0.8,0.8
2024-06-19T1700,1109A,121.612,38.9741,大连市,甘井子,,34,29,30,12,15,107,,118,118,34,22,8,8,0.6,0.6
2024-06-19T1700,1110A,121.565,38.9511,大连市,周水子,,35,35,37,9,17,112,,108,108,22,22,10,9,0.5,0.5
2024-06-19T1700,1111A,121.5637,38.8845,大连市,星海三站,,38,21,38,7,19,121,,124,124,20,14,8,9,0.5,0.5
2024-06-19T1700,1112A,121.6302,38.9117,大连市,青泥洼桥,,37,19,26,9,15,117,,118,118,18,13,10,10,0.4,0.4
2024-06-19T1700,1113A,121.6251,38.8638,大连市,傅家庄,,,32,33,9,18,116,,126,125,,12,10,10,0.4,0.6
2024-06-19T1700,1114A,121.5213,38.8661,大连市,七贤岭,,35,33,36,14,24,111,,115,115,25,16,5,8,0.5,0.5
2024-06-19T1700,1115A,121.2529,38.8061,大连市,旅顺,,43,24,26,9,17,137,,132,132,19,20,9,10,0.4,0.5
2024-06-19T1700,1116A,121.7485,39.1311,大连市,金州,,49,20,30,9,14,154,,139,139,13,14,9,10,0.5,0.5
2024-06-19T1700,1117A,121.7811,39.0496,大连市,开发区,,36,27,37,12,18,115,,128,128,40,21,9,7,0.4,0.4
2024-06-19T1700,1118A,121.9762,39.0631,大连市,双D港,,37,20,28,8,17,118,,114,114,15,20,7,8,0.4,0.5
2024-06-19T1700,1789A,124.81117,46.03138,大庆市,大同区,颗粒物(PM10),60,69,57,40,28,147,,155,155,11,20,8,6,0.6,0.4
2024-06-19T1700,1790A,125.129,46.533,大庆市,龙凤区,颗粒物(PM10),73,95,41,45,18,168,,159,159,36,21,11,9,0.8,0.5
2024-06-19T1700,1791A,124.902,46.408,大庆市,红岗区,臭氧1小时,74,72,33,38,19,179,,176,176,23,15,7,6,0.7,0.4
2024-06-19T1700,1792A,125.153,46.586,大庆市,萨尔图区,"颗粒物(PM10),细颗粒物(PM2.5)",57,64,39,40,19,162,,148,148,23,18,8,8,0.5,0.4
2024-06-19T1700,1793A,124.9042,46.6215,大庆市,让胡路区,颗粒物(PM10),64,77,37,21,16,153,,152,152,22,18,6,10,0.4,0.1
2024-06-19T1700,3481A,125.141,46.634,大庆市,萨区政府监测点,颗粒物(PM10),69,88,42,21,11,150,,150,150,23,20,8,8,0.5,0.2
2024-06-19T1700,1721A,113.3819,40.1097,大同市,果树场,,,,,,,,,,,,,,,,
2024-06-19T1700,1723A,113.2994,40.0758,大同市,云冈宾馆,臭氧1小时,97,39,43,23,20,197,,187,187,18,23,8,9,0.5,0.8
2024-06-19T1700,1724A,113.3444,40.0917,大同市,大同大学,臭氧1小时,87,,33,20,18,189,,176,176,14,23,10,13,0.4,0.6
2024-06-19T1700,1725A,113.2661,40.1269,大同市,安家小村,臭氧1小时,93,46,45,23,16,194,,177,177,16,19,14,14,0.4,0.6
2024-06-19T1700,1726A,113.2711,40.0844,大同市,教育学院,臭氧1小时,101,52,50,24,21,202,,188,188,19,28,10,12,0.5,0.7
2024-06-19T1700,3282A,113.3397,40.0597,大同市,大同市卫生学校,臭氧1小时,100,41,44,21,22,200,,192,192,11,21,10,12,0.5,0.7
2024-06-19T1700,3565A,113.1367,40.1122,大同市,云冈站,,,32,46,,22,183,,171,171,14,20,12,12,0.5,0.5
2024-06-19T1700,3566A,113.1186,40.2556,大同市,图书馆,臭氧1小时,84,45,34,20,18,187,,175,175,16,17,9,10,0.5,0.6
2024-06-19T1700,3567A,113.5931,40.0461,大同市,区一中,臭氧1小时,107,44,38,18,12,214,,211,211,14,15,7,7,0.5,0.5
2024-06-19T1700,3676A,113.2802,40.0995,大同市,第二人民医院,臭氧1小时,101,40,33,29,23,202,,187,187,12,23,9,11,0.5,0.7
2024-06-19T1700,2269A,124.1069,50.4097,大兴安岭地区,科技局,,24,12,16,12,8,76,,66,66,4,5,7,7,0.3,0.3
2024-06-19T1700,3663A,124.1164,50.4278,大兴安岭地区,红旗社区,,26,,4,3,5,83,,67,67,2,5,5,6,0.3,0.4
2024-06-19T1700,1600A,124.3303,40.0625,丹东市,江湾东路,,39,18,34,9,20,123,,141,139,12,14,8,13,0.3,0.5
2024-06-19T1700,1601A,124.4256,40.1503,丹东市,临江后街,,40,13,24,3,14,126,,144,144,6,10,10,10,0.5,0.7
2024-06-19T1700,1602A,124.3933,40.1461,丹东市,元宝山,,36,17,29,7,16,114,,124,124,12,14,8,9,0.7,0.8
2024-06-19T1700,1603A,124.3633,40.1092,丹东市,民主桥,,38,24,34,8,16,119,,139,137,7,15,5,8,0.4,0.5
2024-06-19T1700,3541A,109.5726,19.5167,儋州市,第一中学子站,,21,15,20,9,11,65,,64,64,3,3,5,6,0.4,0.4
2024-06-19T1700,3542A,109.5567,19.5187,儋州市,东坡学校子站,,20,12,21,12,11,62,,64,64,3,4,5,6,0.5,0.5
2024-06-19T1700,2616A,98.5842,24.428,德宏傣族景颇族自治州,德宏州监测站,,33,33,40,16,20,92,,61,61,7,11,3,4,0.8,0.9
2024-06-19T1700,3677A,98.5881,24.4368,德宏傣族景颇族自治州,芒市人民政府综合楼,,31,31,40,16,21,89,,58,58,7,9,6,9,0.5,0.7
2024-06-19T1700,1901A,104.4239,31.1208,德阳市,东山公园,,35,29,37,22,26,111,,113,113,4,13,2,2,0.5,0.5
2024-06-19T1700,1902A,104.3826,31.1317,德阳市,西小区,,38,29,40,21,29,121,,125,125,8,20,1,3,0.5,0.6
2024-06-19T1700,1904A,104.3553,31.1091,德阳市,耐火材料厂,,41,31,37,27,27,130,,131,131,10,18,3,3,0.6,0.6
2024-06-19T1700,3639A,104.4019,31.1244,德阳市,市教育局,,37,30,38,23,26,117,,125,125,6,17,2,2,0.5,0.6
2024-06-19T1700,1622A,116.3032,37.4674,德州市,儿童乐园,臭氧1小时,123,46,59,22,24,246,,234,234,8,12,9,18,0.5,0.6
2024-06-19T1700,1624A,116.2991,37.4451,德州市,监理站,臭氧1小时,124,46,61,19,21,248,,240,240,13,16,11,21,0.6,0.7
2024-06-19T1700,3066A,116.2721,37.4379,德州市,九衢泉纯净水厂,臭氧1小时,122,44,62,22,25,243,,235,235,13,18,9,14,0.6,0.7
2024-06-19T1700,3371A,116.3728,37.4403,德州市,开发区人民医院,臭氧1小时,124,48,63,19,22,247,,241,241,,10,10,13,0.4,0.5
2024-06-19T1700,3372A,116.3572,37.4094,德州市,太阳城中学,臭氧1小时,125,63,66,22,23,250,,245,245,16,16,9,12,0.7,0.7
2024-06-19T1700,3511A,116.5652,37.3319,德州市,陵城艺术中心,臭氧1小时,124,31,57,14,18,247,,232,232,14,17,10,8,0.5,0.5
2024-06-19T1700,2621A,99.7056,27.8317,迪庆藏族自治州,迪庆州站,,30,14,17,3,8,96,,99,99,9,9,8,8,0.4,0.4
2024-06-19T1700,3180A,99.7136,27.8094,迪庆藏族自治州,质量技术监督局,,29,17,16,7,7,90,,92,91,10,9,8,8,0.3,0.3
2024-06-19T1700,2663A,104.6241,35.5734,定西市,东关小学,,43,43,43,22,18,128,,116,116,4,13,6,6,0.2,0.2
2024-06-19T1700,2664A,104.6194,35.5934,定西市,供电公司,,39,39,39,22,24,124,,122,122,7,16,4,5,0.2,0.2
2024-06-19T1700,1389A,113.7547,23.0494,东莞市,莞城梨川,,,24,21,14,8,,,51,,14,10,7,9,0.5,0.6
2024-06-19T1700,1390A,113.7944,23.0128,东莞市,东城石井,,21,21,21,10,8,65,,74,74,9,11,3,3,0.4,0.5
2024-06-19T1700,1391A,113.7383,22.9658,东莞市,南城西平,,21,21,21,10,7,60,,70,70,4,3,4,4,0.5,0.5
2024-06-19T1700,3319A,113.7338,23.0381,东莞市,万江金泰,,19,19,21,10,8,59,,69,69,5,6,4,4,0.6,0.6
2024-06-19T1700,3626A,113.7533,23.0202,东莞市,南城元岭,,27,27,20,10,8,57,,67,67,6,5,6,6,0.6,0.6
2024-06-19T1700,3627A,113.7875,23.0457,东莞市,东城主山,,25,25,22,10,9,65,,71,71,7,6,8,8,0.6,0.6
2024-06-19T1700,1666A,118.6614,37.4309,东营市,市环保局,臭氧1小时,93,44,44,9,12,194,,182,182,13,18,10,11,0.1,0.3
2024-06-19T1700,3036A,118.6904,37.4338,东营市,开发区管委会,臭氧1小时,87,33,46,9,14,189,,180,180,10,15,8,8,0.4,0.4
2024-06-19T1700,3365A,118.5719,37.565,东营市,垦利区民丰路,臭氧1小时,99,44,48,12,12,199,,186,186,15,22,12,13,0.5,0.6
2024-06-19T1700,3498A,118.5055,37.8612,东营市,河口城区,臭氧1小时,92,39,50,15,14,193,,195,195,6,14,8,9,0.4,0.6
2024-06-19T1700,3646A,118.4978,37.4623,东营市,胜利站,臭氧1小时,88,22,46,12,11,190,,174,174,19,22,9,10,0.3,0.4
2024-06-19T1700,3734A,118.35,37.26,东营市,理想之城,臭氧1小时,89,44,44,12,12,191,,172,172,12,18,10,9,0.4,0.4
2024-06-19T1700,1591A,110.0023,39.8129,鄂尔多斯市,综合楼,,48,48,68,22,21,153,,153,153,18,29,9,15,0.4,0.7
2024-06-19T1700,1592A,109.9486,39.8261,鄂尔多斯市,巴音孟克林场办事处,,45,39,61,9,20,142,,140,140,6,24,6,12,0.5,0.7
2024-06-19T1700,1593A,109.7736,39.5986,鄂尔多斯市,康泽苑,臭氧1小时,54,41,58,31,28,163,,154,154,14,25,12,13,0.4,0.5
2024-06-19T1700,1594A,109.8119,39.5989,鄂尔多斯市,华泰汽车城,,45,34,63,24,25,144,,139,139,13,31,9,11,0.4,0.6
2024-06-19T1700,1595A,109.9734,39.7884,鄂尔多斯市,奥林花园,,46,46,60,17,23,140,,142,142,14,31,6,10,0.5,0.7
2024-06-19T1700,2436A,114.8938,30.3994,鄂州市,市政府,,37,37,29,13,8,70,,57,57,5,8,1,3,0.6,0.6
2024-06-19T1700,2437A,114.8989,30.3714,鄂州市,赵家坝,,23,23,26,3,9,72,,56,56,4,11,6,6,0.6,0.6
2024-06-19T1700,3654A,114.8094,30.4089,鄂州市,精准医疗中心,,,11,18,,7,84,,64,64,2,12,6,8,0.3,0.6
2024-06-19T1700,2454A,109.4978,30.2981,恩施土家族苗族自治州,湖北民院,,27,27,30,15,14,80,,75,75,14,15,6,8,0.8,0.8
2024-06-19T1700,2455A,109.4707,30.2798,恩施土家族苗族自治州,州电力总公司,,29,17,28,13,16,90,,76,76,16,22,7,7,0.7,0.7
2024-06-19T1700,3549A,109.5061,30.3772,恩施土家族苗族自治州,龙凤新区,,29,29,26,14,14,75,,67,67,13,17,6,6,0.8,0.8
2024-06-19T1700,2499A,108.3411,21.6158,防城港市,沙万,,32,32,32,15,11,74,,66,66,9,14,6,7,0.6,0.7
2024-06-19T1700,2500A,108.3514,21.7731,防城港市,防城档案局,,25,22,25,12,11,78,,72,72,6,7,4,5,0.7,0.7
2024-06-19T1700,2501A,108.3506,21.6414,防城港市,大海花园,,25,25,30,9,8,79,,75,75,5,10,5,6,0.6,0.6
2024-06-19T1700,1371A,113.1294,23.0067,佛山市,湾梁,,43,,27,30,14,94,,86,86,9,13,8,8,0.5,0.7
2024-06-19T1700,1372A,113.1083,23.0478,佛山市,华材职中,,30,22,21,13,11,94,,87,87,8,12,7,6,0.4,0.4
2024-06-19T1700,1373A,113.144,23.0453,佛山市,南海气象局,,35,35,29,15,12,94,,85,85,10,14,7,6,0.3,0.4
2024-06-19T1700,1374A,113.2881,22.8094,佛山市,顺德苏岗,,26,19,16,9,10,81,,78,78,6,7,5,5,0.5,0.6
2024-06-19T1700,1376A,112.8383,22.8678,佛山市,高明孔堂,,,19,22,12,10,77,,66,66,,5,,6,0.6,0.6
2024-06-19T1700,1377A,112.8836,23.1588,佛山市,三水监测站,,31,24,24,19,13,99,,84,84,17,17,3,3,0.7,0.7
2024-06-19T1700,1378A,112.867,23.185,佛山市,三水云东海,,36,14,22,13,13,114,,93,93,17,19,3,4,0.5,0.6
2024-06-19T1700,3625A,113.2544,22.7642,佛山市,容桂街道办,,25,22,17,12,11,78,,72,72,13,15,6,6,0.4,0.4
2024-06-19T1700,1280A,119.3903,26.0543,福州市,鼓山,,,,,,,,,,,,,,,,
2024-06-19T1700,1282A,119.2681,26.0504,福州市,师大,,28,28,24,9,14,76,,81,81,14,13,3,3,0.5,0.5
2024-06-19T1700,1283A,119.2984,26.1028,福州市,五四北路,,19,6,23,3,20,59,,81,81,8,13,3,3,0.3,0.4
2024-06-19T1700,1284A,119.2648,26.0768,福州市,杨桥西路,,25,20,24,10,16,80,,85,85,13,12,3,3,0.4,0.4
2024-06-19T1700,1285A,119.317,26.0746,福州市,紫阳,,15,15,20,3,16,43,,56,,8,15,2,3,0.3,0.4
2024-06-19T1700,3048A,119.5799,26.0936,福州市,九龙,,19,14,14,3,4,58,,81,79,4,2,4,4,0.2,0.2
2024-06-19T1700,3526A,119.5189,25.9664,福州市,吴航,,20,6,20,3,15,63,,73,73,3,6,4,4,0.4,0.5
2024-06-19T1700,1755A,123.7977,41.8491,抚顺市,望花区,,49,49,52,16,22,154,,174,174,21,24,6,10,0.3,0.6
2024-06-19T1700,1756A,123.9161,41.8822,抚顺市,顺城区,"颗粒物(PM10),臭氧1小时",53,56,64,12,24,162,,179,179,16,35,7,13,0.3,0.6
2024-06-19T1700,1757A,124.0436,41.8611,抚顺市,东洲区,颗粒物(PM10),51,51,66,13,24,151,,157,155,11,15,7,11,0.4,0.5
2024-06-19T1700,1758A,123.9247,41.8642,抚顺市,新抚区,颗粒物(PM10),56,62,54,21,26,152,,165,165,11,21,5,8,0.3,0.7
2024-06-19T1700,1759A,124.0972,41.8961,抚顺市,大伙房水库,,45,44,52,11,25,144,,151,148,7,12,8,10,0.3,0.5
2024-06-19T1700,1760A,123.7086,41.8391,抚顺市,沈抚新城,臭氧1小时,58,46,47,12,23,166,,180,180,15,25,7,11,0.3,0.7
2024-06-19T1700,2376A,116.2127,28.0814,抚州市,桐源党溪,,29,29,29,13,16,38,,36,36,2,7,5,7,0.2,0.3
2024-06-19T1700,2377A,116.3544,27.9831,抚州市,市站,,21,21,27,7,14,40,,40,40,6,11,3,6,0.3,0.7
2024-06-19T1700,2378A,116.3565,27.963,抚州市,血防站,,25,25,29,9,14,37,,36,36,7,14,1,4,0.6,0.8
2024-06-19T1700,2379A,116.3564,28.0007,抚州市,采茶剧团,,24,24,24,12,15,38,,38,38,6,13,3,4,0.6,0.8
2024-06-19T1700,2380A,116.385,27.9647,抚州市,医学分院,,28,28,30,9,13,45,,39,39,7,11,4,7,0.7,0.9
2024-06-19T1700,2207A,121.6094,41.998,阜新市,工业园区,颗粒物(PM10),71,92,66,10,23,167,,183,183,11,17,5,15,0.4,0.7
2024-06-19T1700,2208A,121.6697,42.0279,阜新市,长青街,颗粒物(PM10),102,153,65,17,26,157,,176,176,11,17,8,13,0.5,0.7
2024-06-19T1700,2209A,121.6673,42.0705,阜新市,农业园区,,48,46,61,3,25,153,,171,171,12,22,7,13,0.4,0.7
2024-06-19T1700,2210A,121.6717,42.0224,阜新市,东苑,颗粒物(PM10),71,92,65,9,22,153,,170,170,15,20,8,16,0.4,0.7
2024-06-19T1700,2211A,121.6506,42.0498,阜新市,玉龙新城,,,,60,,30,,,143,,,27,,15,,0.8
2024-06-19T1700,2301A,115.8277,32.8929,阜阳市,市监测站,,38,33,41,15,20,119,,142,141,13,16,11,8,0.7,0.4
2024-06-19T1700,2303A,115.8554,32.8605,阜阳市,开发区,,36,15,37,7,19,113,,143,140,13,18,4,7,0.3,0.3
2024-06-19T1700,2875A,115.784,32.8892,阜阳市,阜阳职业技术学院,,38,37,39,10,16,119,,149,145,13,14,5,7,0.3,0.4
2024-06-19T1700,3468A,115.7901,32.8613,阜阳市,市规划展馆,,35,28,43,20,22,110,,137,135,13,18,3,6,0.4,0.4
2024-06-19T1700,3469A,115.836,32.9183,阜阳市,枣园社区,,29,24,38,19,21,90,,143,134,17,16,2,6,0.6,0.5
2024-06-19T1700,2669A,102.9099,34.9841,甘南藏族自治州,州政府,,39,15,23,15,15,122,,122,122,1,16,6,5,0.7,0.8
2024-06-19T1700,3380A,102.8914,34.9617,甘南藏族自治州,甘肃民族师范学院,,41,24,29,9,14,129,,129,129,4,24,3,7,0.6,0.6
2024-06-19T1700,2570A,101.9603,30.0475,甘孜藏族自治州,水桥子,,25,,8,6,5,80,,80,80,8,12,3,4,0.2,0.3
2024-06-19T1700,3065A,101.9533,29.9972,甘孜藏族自治州,州环保局,,24,6,9,3,5,76,,81,81,19,18,1,2,0.3,0.3
2024-06-19T1700,3414A,115.8347,28.932,赣江新区,桑海产业园,,17,,12,10,10,54,,57,43,14,25,10,10,0.3,0.5
2024-06-19T1700,2362A,114.9017,25.9149,赣州市,通天岩,,,,,,,,,,,,,,,,
2024-06-19T1700,2363A,114.9367,25.8664,赣州市,地委,,25,19,16,8,8,79,,72,72,2,6,8,7,0.8,1
2024-06-19T1700,2364A,114.9461,25.8481,赣州市,气象台,,23,22,15,7,10,73,,64,64,4,6,6,4,0.6,0.5
2024-06-19T1700,2365A,114.9322,25.8333,赣州市,市图书馆,,24,21,14,7,6,75,,67,67,7,5,8,7,0.9,0.8
2024-06-19T1700,2366A,114.8905,25.8471,赣州市,华坚鞋城,,24,20,26,6,9,75,,66,66,6,5,1,5,0.5,0.5
2024-06-19T1700,3109A,115.0093,25.8613,赣州市,赣县区卫计委,,24,24,18,8,9,67,,61,61,10,13,7,7,0.5,0.5
2024-06-19T1700,2683A,106.2319,36.1417,固原市,马园,颗粒物(PM10),56,61,30,8,9,141,,129,129,7,24,5,6,0.6,0.6
2024-06-19T1700,2684A,106.2792,36.0022,固原市,监测站,,39,27,26,9,13,124,,125,125,9,14,5,5,0.2,0.3
2024-06-19T1700,2685A,106.2375,36.0211,固原市,新区,,41,36,26,11,10,131,,130,130,5,10,5,5,0.3,0.4
2024-06-19T1700,3522A,106.2177,35.9959,固原市,原州区十五小,,41,23,27,14,14,130,,133,133,5,10,6,5,0.5,0.5
2024-06-19T1700,2543A,106.6308,30.5278,广安市,小平旧居,,,,,,,,,,,,,,,,
2024-06-19T1700,2544A,106.6303,30.4576,广安市,市委,,24,16,30,10,18,76,,65,65,7,16,8,8,0.5,0.6
2024-06-19T1700,2545A,106.6271,30.4663,广安市,友谊中学,,27,14,22,11,16,84,,75,75,8,16,6,7,0.6,0.7
2024-06-19T1700,2547A,106.6388,30.4551,广安市,广电花园,,23,18,30,14,17,72,,62,62,7,14,10,10,0.5,0.6
2024-06-19T1700,2902A,106.6351,30.4865,广安市,北辰小学,,24,16,27,11,17,76,,71,71,6,13,10,11,0.4,0.6
2024-06-19T1700,2523A,105.8945,32.4535,广元市,黑石坡,,24,13,14,6,7,76,,66,66,5,7,14,15,0.3,0.4
2024-06-19T1700,2524A,105.821,32.4444,广元市,老城,,28,14,25,6,10,88,,74,74,4,21,4,8,0.3,0.5
2024-06-19T1700,2526A,105.8628,32.4287,广元市,监测站,,,,21,,11,92,,76,76,4,10,8,7,0.5,0.6
2024-06-19T1700,3617A,105.8047,32.4166,广元市,经开区,,28,17,27,11,15,88,,69,69,2,16,4,6,0.6,0.7
2024-06-19T1700,1345A,113.2347,23.1423,广州市,广雅中学,,29,29,28,10,12,91,,93,93,25,25,4,4,0.6,0.6
2024-06-19T1700,1346A,113.2612,23.105,广州市,市五中,,38,36,30,26,17,103,,101,101,13,19,4,4,0.5,0.6
2024-06-19T1700,1348A,113.3478,23.0916,广州市,广东商学院,,28,26,29,19,15,80,,86,86,16,30,4,3,0.4,0.5
2024-06-19T1700,1349A,113.4332,23.1047,广州市,市八十六中,,25,25,26,11,11,64,,67,67,26,40,3,3,0.6,0.6
2024-06-19T1700,1350A,113.3505,22.9483,广州市,番禺中学,,31,31,28,14,11,83,,96,96,13,23,6,6,0.5,0.6
2024-06-19T1700,1351A,113.2146,23.3916,广州市,花都师范,,38,29,32,16,16,119,,115,115,13,25,5,5,0.5,0.5
2024-06-19T1700,1352A,113.2597,23.1331,广州市,市监测站,,30,29,30,13,14,93,,92,92,14,23,4,4,0.5,0.5
2024-06-19T1700,1353A,113.5618,23.312,广州市,九龙镇镇龙,,33,33,32,16,16,90,,81,81,18,27,8,6,0.3,0.4
2024-06-19T1700,1354A,113.2765,23.1544,广州市,麓湖,,28,28,28,15,13,89,,98,98,14,21,3,3,0.6,0.4
2024-06-19T1700,1355A,113.443,23.3035,广州市,帽峰山森林公园,,34,31,22,12,10,107,,96,96,15,19,3,2,0.5,0.6
2024-06-19T1700,2846A,113.3221,23.1322,广州市,体育西,,27,25,28,17,15,84,,88,88,12,24,4,4,0.5,0.5
2024-06-19T1700,3298A,113.5717,23.5491,广州市,从化街口,,,27,24,14,11,114,,96,96,9,13,,7,0.5,0.6
2024-06-19T1700,3299A,113.3472,23.3692,广州市,白云竹料,,41,41,31,15,14,111,,96,96,21,23,4,4,0.6,0.6
2024-06-19T1700,3300A,113.2981,23.237,广州市,白云嘉禾,,29,29,30,12,12,86,,91,91,22,32,5,5,0.6,0.7
2024-06-19T1700,3301A,113.4256,23.1716,广州市,黄埔科学城,,32,32,30,13,12,70,,75,75,21,32,9,7,0.7,0.7
2024-06-19T1700,3302A,113.3942,23.0483,广州市,番禺大学城,,22,20,20,9,10,70,,75,75,14,22,5,4,0.8,0.8
2024-06-19T1700,3303A,113.4922,22.8168,广州市,南沙黄阁,,28,28,28,15,11,64,,69,69,7,11,5,5,0.6,0.6
2024-06-19T1700,3304A,113.5342,22.7896,广州市,南沙街,,29,29,26,12,9,51,,53,53,9,12,6,6,0.4,0.5
2024-06-19T1700,3443A,113.2902,23.5544,广州市,花都梯面,,41,23,30,13,12,131,,102,102,13,16,4,4,0.6,0.6
2024-06-19T1700,3445A,113.7858,23.7478,广州市,从化良口,,30,18,20,10,8,93,,78,78,6,10,5,4,0.5,0.6
2024-06-19T1700,3446A,113.8051,23.2614,广州市,增城荔城,,26,20,31,10,12,81,,79,79,8,19,5,5,0.4,0.5
2024-06-19T1700,2505A,109.568,23.1478,贵港市,德智高中,,,,,,,,,,,,,,,,
2024-06-19T1700,2506A,109.6047,23.0666,贵港市,江南子站,,27,27,41,17,24,51,,60,60,14,15,7,9,0.5,0.7
2024-06-19T1700,2507A,109.6014,23.0948,贵港市,贵城子站,,23,,39,16,25,58,,60,60,14,17,7,9,0.5,0.7
2024-06-19T1700,2508A,109.5669,23.1065,贵港市,荷城子站,,36,36,32,7,13,24,,58,58,44,14,11,12,0.6,0.6
2024-06-19T1700,3405A,109.5886,23.1172,贵港市,新世纪学校,,34,34,30,16,17,38,,62,62,28,12,12,13,0.8,0.8
2024-06-19T1700,1439A,106.6899,26.5998,贵阳市,马鞍山,,22,22,11,7,3,59,,48,48,16,15,4,4,0.5,0.5
2024-06-19T1700,1440A,106.6971,26.5694,贵阳市,市环保站,,34,34,15,17,13,66,,52,52,16,16,4,3,0.3,0.4
2024-06-19T1700,1441A,106.6243,26.6266,贵阳市,鉴湖路,,25,22,12,17,5,61,,49,49,7,8,3,3,0.5,0.5
2024-06-19T1700,1442A,106.7487,26.6343,贵阳市,燕子冲,,20,9,10,7,7,64,,45,45,5,9,6,5,0.6,0.7
2024-06-19T1700,1443A,106.6555,26.4365,贵阳市,碧云窝,,29,29,18,7,4,69,,59,59,5,12,4,4,0.5,0.6
2024-06-19T1700,1444A,106.694,26.5161,贵阳市,中院村,,22,22,14,14,6,67,,54,54,6,13,5,5,0.6,0.5
2024-06-19T1700,1445A,106.7109,26.6027,贵阳市,红边门,,22,22,15,14,16,63,,46,46,17,16,4,4,0.5,0.7
2024-06-19T1700,1446A,106.7164,26.5699,贵阳市,新华路,,28,,11,19,12,71,,55,55,8,10,5,3,0.4,0.6
2024-06-19T1700,1447A,106.674,26.5424,贵阳市,太慈桥,,22,22,9,12,8,65,,48,48,5,10,5,4,0.5,0.6
2024-06-19T1700,1552A,106.805,26.3003,贵阳市,桐木岭,,,,,,,,,,,,,,,,
2024-06-19T1700,1862A,110.4144,25.3167,桂林市,电子科大尧山校区,,16,15,17,11,8,40,,42,42,3,4,4,6,0.4,0.4
2024-06-19T1700,1863A,110.2819,25.2697,桂林市,监测站,,16,16,17,10,10,49,,41,40,12,11,4,4,0.9,0.9
2024-06-19T1700,1864A,110.3089,25.2708,桂林市,龙隐路小学,,21,21,15,10,10,45,,35,35,8,10,4,4,0.7,0.7
2024-06-19T1700,1865A,110.2869,25.2178,桂林市,八中,,14,14,15,3,5,42,,36,36,8,12,4,4,0.6,0.6
2024-06-19T1700,3403A,110.1764,25.2381,桂林市,创业大厦,,20,12,9,7,7,61,,50,50,6,7,6,6,0.5,0.5
2024-06-19T1700,3531A,110.296,25.1253,桂林市,旅游学院,,13,,6,9,6,41,,42,42,5,6,5,6,0.5,0.6
2024-06-19T1700,2674A,100.2561,34.4714,果洛藏族自治州,玛沁县大武镇,,40,18,21,16,12,128,,121,121,13,13,6,7,0.4,0.4
2024-06-19T1700,1129A,126.5422,45.755,哈尔滨市,岭北,,,74,40,,15,192,,190,190,17,28,14,13,1.1,0.4
2024-06-19T1700,1130A,126.561,45.8167,哈尔滨市,松北商大,颗粒物(PM10),63,75,42,44,13,168,,162,162,27,35,6,7,0.8,0.6
2024-06-19T1700,1131A,126.979,45.5419,哈尔滨市,阿城会宁,臭氧1小时,106,72,42,26,15,211,,198,198,27,27,10,9,0.7,0.5
2024-06-19T1700,1132A,126.599,45.7222,哈尔滨市,南岗学府路,臭氧1小时,109,90,58,32,16,218,,203,203,19,38,12,12,0.6,0.4
2024-06-19T1700,1133A,126.689,45.7733,哈尔滨市,太平宏伟公园,臭氧1小时,107,94,64,35,19,213,,201,201,23,42,6,9,0.8,0.6
2024-06-19T1700,1134A,126.635,45.7667,哈尔滨市,道外承德广场,臭氧1小时,105,86,52,43,19,209,,193,193,25,37,8,8,0.6,0.6
2024-06-19T1700,1135A,126.685,45.7319,哈尔滨市,香坊红旗大街,臭氧1小时,110,102,60,41,22,220,,205,205,20,42,5,12,0.6,0.6
2024-06-19T1700,1136A,126.6411,45.7258,哈尔滨市,动力和平路,臭氧1小时,108,100,54,,16,216,,196,196,25,38,8,9,0.6,0.6
2024-06-19T1700,1137A,126.593,45.7478,哈尔滨市,道里建国路,臭氧1小时,100,86,47,40,19,200,,196,196,22,40,13,14,0.8,1.6
2024-06-19T1700,1138A,126.615,45.61,哈尔滨市,平房东轻厂,臭氧1小时,101,81,36,30,12,202,,196,196,21,25,10,9,0.5,0.4
2024-06-19T1700,1139A,126.595,45.9855,哈尔滨市,呼兰师专,臭氧1小时,75,86,53,45,21,180,,168,168,20,36,8,8,0.7,0.5
2024-06-19T1700,1140A,126.6206,45.6842,哈尔滨市,省农科院,臭氧1小时,108,106,73,44,27,215,,195,195,20,47,6,8,0.7,0.5
2024-06-19T1700,2688A,93.5128,42.8172,哈密市,地区监测站,,43,35,34,14,12,136,,124,124,5,8,3,4,0.2,0.3
2024-06-19T1700,2689A,93.4961,42.8328,哈密市,哈密师范学校,,46,21,31,9,10,146,,135,135,3,8,4,5,0.2,0.3
2024-06-19T1700,2671A,100.9048,36.9639,海北藏族自治州,海晏县西海镇,,44,41,29,20,18,140,,134,134,8,10,15,13,0.4,0.4
2024-06-19T1700,3867A,102.0738,36.5056,海东市,平安区公安北苑,,48,48,44,25,22,148,,133,133,8,11,9,11,0.3,0.5
2024-06-19T1700,1409A,110.576,19.9507,海口市,东寨港,,,,,,,,,,,,,,,,
2024-06-19T1700,1410A,110.3232,20.0574,海口市,海南大学,,25,19,25,15,13,78,,80,80,7,7,5,6,0.4,0.4
2024-06-19T1700,1411A,110.283,20.0053,海口市,秀英海南医院,,,25,30,20,12,77,,69,69,,8,6,6,0.3,0.3
2024-06-19T1700,1412A,110.338,19.9969,海口市,海南师范大学,,27,27,25,12,12,77,,73,73,3,6,6,6,0.4,0.4
2024-06-19T1700,1413A,110.33,20.0356,海口市,龙华路环保局宿舍,,36,36,26,16,13,71,,70,70,9,6,6,6,0.3,0.3
2024-06-19T1700,3539A,110.5111,19.9736,海口市,桂林洋子站,,22,18,24,15,12,70,,68,68,4,3,6,6,0.3,0.3
2024-06-19T1700,2673A,100.6188,36.2866,海南藏族自治州,共和县恰卜恰镇,,44,,24,11,12,138,,127,127,3,13,12,14,0.5,0.5
2024-06-19T1700,2676A,97.3731,37.3753,海西蒙古族藏族自治州,德令哈市,颗粒物(PM10),55,60,31,16,14,132,,127,127,10,7,12,12,0.6,0.5
2024-06-19T1700,1048A,114.5302,36.6116,邯郸市,东污水处理厂,臭氧1小时,108,31,57,19,28,215,,196,196,8,10,2,2,0.4,0.4
2024-06-19T1700,1049A,114.4918,36.5713,邯郸市,矿院,臭氧1小时,113,32,37,17,21,226,,203,203,7,12,5,5,0.4,0.5
2024-06-19T1700,1050A,114.484,36.6133,邯郸市,丛台公园,臭氧1小时,98,30,44,20,23,198,,180,180,2,5,3,4,0.3,0.3
2024-06-19T1700,3458A,114.7895,36.5593,邯郸市,香泉濮院小区,臭氧1小时,119,25,56,17,22,237,,212,212,6,11,3,3,0.3,0.3
2024-06-19T1700,3579A,114.50634,36.77178,邯郸市,永年区实验高中,臭氧1小时,111,50,60,26,30,222,,196,196,4,6,3,3,0.4,0.5
2024-06-19T1700,3580A,114.20016,36.44293,邯郸市,峰峰矿区临水派出所,臭氧1小时,109,36,61,11,21,218,,183,183,5,6,5,6,0.1,0.4
2024-06-19T1700,2634A,106.9893,33.1842,汉中市,汉川机床厂子校,,35,24,26,22,31,112,,91,91,3,11,4,4,0.4,0.4
2024-06-19T1700,2635A,107.0154,33.0706,汉中市,市监测站,,37,26,33,15,15,118,,92,92,4,12,7,7,0.8,0.9
2024-06-19T1700,2636A,107.0089,33.1138,汉中市,鑫源开发区,,36,15,32,14,14,115,,101,101,4,14,8,8,0.5,0.5
2024-06-19T1700,2637A,107.007,33.0323,汉中市,南郑大河坎水厂,,40,30,32,13,17,125,,93,93,3,10,8,8,0.6,0.7
2024-06-19T1700,1223A,120.2072,30.2111,杭州市,滨江,,20,20,13,10,7,27,,45,28,19,15,4,4,0.6,0.5
2024-06-19T1700,1224A,120.0633,30.2747,杭州市,西溪,,16,16,14,11,7,10,,26,12,25,14,6,6,0.6,0.6
2024-06-19T1700,1226A,120.3461,30.3153,杭州市,下沙,,35,35,22,18,8,13,,42,26,53,24,5,5,0.6,0.5
2024-06-19T1700,1227A,120.1269,30.2456,杭州市,卧龙桥,,20,16,15,14,8,15,,31,17,24,14,4,4,0.6,0.6
2024-06-19T1700,1228A,120.1903,30.2692,杭州市,浙江农大,,16,14,11,11,8,29,,44,30,21,17,6,7,0.5,0.5
2024-06-19T1700,1230A,120.1197,30.3119,杭州市,和睦小学,,15,15,12,10,9,23,,44,29,25,16,4,4,0.6,0.5
2024-06-19T1700,1231A,120.3019,30.4183,杭州市,临平镇,,38,38,21,24,11,16,,42,26,47,23,4,5,0.6,0.6
2024-06-19T1700,1232A,120.2697,30.1819,杭州市,城厢镇,,28,28,15,17,9,25,,40,28,24,16,5,5,0.7,0.6
2024-06-19T1700,1233A,120.0883,30.1808,杭州市,云栖,,23,23,14,11,8,3,,22,10,38,18,6,6,0.7,0.5
2024-06-19T1700,3557A,119.9464,30.0494,杭州市,镇二中,,15,15,13,9,8,14,,34,17,28,20,6,6,0.9,0.7
2024-06-19T1700,3558A,119.7183,30.2367,杭州市,市府大楼,,19,,13,13,11,22,,34,20,17,17,6,6,0.8,0.7
2024-06-19T1700,3656A,120.1556,30.2864,杭州市,消防大队,,24,24,12,14,10,22,,42,27,25,16,5,6,0.8,0.7
2024-06-19T1700,1270A,117.1959,31.7848,合肥市,明珠广场,,,17,30,,18,20,,107,70,,22,,7,0.4,0.3
2024-06-19T1700,1271A,117.3072,31.8764,合肥市,三里街,,22,17,32,3,17,68,,101,74,19,24,6,7,0.4,0.4
2024-06-19T1700,1272A,117.2588,31.8707,合肥市,琥珀山庄,,23,12,30,3,13,73,,112,83,15,17,4,6,0.8,0.7
2024-06-19T1700,1273A,117.1604,31.9052,合肥市,董铺水库,,24,9,31,3,13,74,,109,82,14,15,3,2,0.4,0.4
2024-06-19T1700,1274A,117.25,31.8571,合肥市,长江中路,,24,19,36,8,19,76,,116,79,13,20,4,6,0.7,0.6
2024-06-19T1700,1275A,117.266,31.9436,合肥市,庐阳区,,25,12,35,9,20,79,,115,87,23,24,8,9,0.4,0.3
2024-06-19T1700,1276A,117.336,31.8586,合肥市,瑶海区,,24,9,30,7,16,74,,102,80,18,21,8,10,0.5,0.4
2024-06-19T1700,1277A,117.3027,31.7964,合肥市,包河区,,24,14,29,3,13,39,,116,68,48,25,5,7,0.6,0.5
2024-06-19T1700,1278A,117.2776,31.7385,合肥市,滨湖新区,,20,,22,12,17,64,,113,82,20,12,7,7,0.5,0.4
2024-06-19T1700,1279A,117.1318,31.8403,合肥市,高新区,,20,17,28,9,16,64,,111,79,21,17,7,8,0.6,0.6
2024-06-19T1700,3464A,117.3803,31.9147,合肥市,高教基地,,20,16,28,9,17,64,,99,69,9,14,6,7,0.5,0.4
2024-06-19T1700,3614A,79.924,37.0877,和田地区,地区环保局,颗粒物(PM10),76,102,228,22,50,127,,107,107,2,3,6,6,0.5,0.5
2024-06-19T1700,3615A,79.9131,37.113,和田地区,市环保局,颗粒物(PM10),65,79,211,35,57,126,,105,105,5,7,5,6,0.4,0.4
2024-06-19T1700,2516A,108.2011,24.715,河池市,东仁乐园,,42,42,31,6,13,67,,23,,3,8,12,4,0.6,0.7
2024-06-19T1700,2517A,108.0497,24.6947,河池市,市环保站,,31,31,22,15,12,61,,52,52,7,11,6,8,0.5,0.6
2024-06-19T1700,2518A,108.0983,24.6989,河池市,市疾控中心,,,,21,,11,73,,58,58,,14,6,8,0.6,0.5
2024-06-19T1700,1696A,114.6778,23.7569,河源市,源西,,,,32,,18,,,39,,,14,,4,,0.5
2024-06-19T1700,1697A,114.6944,23.7586,河源市,东埔,,26,26,26,10,8,73,,58,58,11,12,6,6,0.5,0.6
2024-06-19T1700,1698A,114.6892,23.7233,河源市,老城,,24,15,22,6,7,76,,63,63,6,10,5,5,0.4,0.4
2024-06-19T1700,1718A,115.4208,35.2464,菏泽市,气象局,臭氧1小时,121,60,61,25,24,241,,225,225,14,19,6,6,0.3,0.3
2024-06-19T1700,1719A,115.4747,35.2375,菏泽市,市政协,臭氧1小时,123,53,59,23,26,246,,225,225,9,14,5,6,0.1,0.2
2024-06-19T1700,3374A,115.5564,35.0891,菏泽市,定陶老年大学,臭氧1小时,107,39,51,12,18,213,,212,212,14,18,4,6,0.0,0.1
2024-06-19T1700,3647A,115.4702,35.2706,菏泽市,菏泽医专,臭氧1小时,121,53,63,22,20,241,,223,223,12,19,2,4,0,0.1
2024-06-19T1700,2514A,111.5264,24.4172,贺州市,环保小区,,,,21,,10,61,,46,46,7,11,7,9,0.6,0.8
2024-06-19T1700,2515A,111.5608,24.4078,贺州市,政协大楼,,24,24,24,3,12,60,,45,44,8,12,7,8,0.6,0.5
2024-06-19T1700,3534A,111.4744,24.4553,贺州市,西湾,,21,21,19,10,12,59,,42,42,11,16,8,8,0.5,0.5
2024-06-19T1700,2385A,114.17,35.9019,鹤壁市,市监测站,臭氧1小时,108,30,53,23,27,216,,202,202,7,12,6,8,0.4,0.6
2024-06-19T1700,2386A,114.2956,35.7511,鹤壁市,市交警支队,臭氧1小时,115,38,54,23,30,230,,214,214,9,15,4,8,0.5,0.5
2024-06-19T1700,2387A,114.2878,35.7306,鹤壁市,迎宾馆,臭氧1小时,116,33,48,32,32,231,,219,219,18,22,8,9,0.4,0.4
2024-06-19T1700,3474A,114.2617,35.6822,鹤壁市,大新区,臭氧1小时,109,44,52,17,23,217,,206,206,13,24,6,6,0.5,0.7
2024-06-19T1700,3596A,114.1572,35.9603,鹤壁市,南山宾馆,臭氧1小时,115,39,53,26,34,229,,212,212,4,9,8,8,0.5,0.6
2024-06-19T1700,2244A,130.2537,47.3416,鹤岗市,哈啤分公司,,18,18,22,6,10,46,,44,44,21,12,14,14,0.4,0.4
2024-06-19T1700,2245A,130.2684,47.3086,鹤岗市,斯达机电,,13,13,21,7,8,40,,41,41,19,14,12,12,0.4,0.3
2024-06-19T1700,2246A,130.3114,47.3388,鹤岗市,东山纸板厂,,12,7,36,3,9,35,,34,34,23,18,17,16,0.4,0.5
2024-06-19T1700,2247A,130.1097,47.3382,鹤岗市,五号水库,,19,12,18,3,9,60,,47,47,6,8,10,9,0.4,0.4
2024-06-19T1700,2263A,127.4833,50.2524,黑河市,交通局,,37,37,25,17,18,46,,47,47,18,9,10,6,0.3,0.3
2024-06-19T1700,2264A,127.5144,50.2341,黑河市,环保局,,28,,19,19,17,55,,51,51,4,8,4,6,0.1,0.2
2024-06-19T1700,2265A,127.5291,50.2472,黑河市,大黑河岛,,,19,21,12,17,84,,78,78,8,11,4,7,,0.6
2024-06-19T1700,1074A,115.6838,37.7541,衡水市,电机北厂,臭氧1小时,121,72,72,23,24,241,,221,221,7,11,6,7,0.4,0.4
2024-06-19T1700,1075A,115.6303,37.7316,衡水市,市监测站,臭氧1小时,121,40,52,16,20,242,,224,224,8,12,4,4,0.5,0.6
2024-06-19T1700,3188A,115.6683,37.7217,衡水市,市城管局,臭氧1小时,121,44,58,22,22,242,,222,222,10,13,8,8,0.5,0.4
2024-06-19T1700,3459A,115.5989,37.5491,衡水市,地表水厂,臭氧1小时,126,55,64,20,20,252,,229,229,8,13,9,8,0.3,0.3
2024-06-19T1700,2456A,112.5003,26.9167,衡阳市,原169医院,,18,15,17,12,10,55,,56,56,6,11,4,5,0.6,0.7
2024-06-19T1700,2457A,112.6194,26.9258,衡阳市,衡阳化工总厂,,,17,20,,11,68,,65,65,2,7,6,7,0.4,0.5
2024-06-19T1700,2458A,112.6211,26.8956,衡阳市,珠晖区环保局,,22,11,17,3,8,70,,66,66,2,6,5,6,0.5,0.7
2024-06-19T1700,2459A,112.6197,26.8733,衡阳市,市委党校,,23,19,17,11,9,71,,67,67,2,8,7,8,0.4,0.6
2024-06-19T1700,2460A,112.6006,26.8919,衡阳市,市监测站,,,11,17,3,10,69,,66,66,2,8,8,9,,0.6
2024-06-19T1700,2461A,112.5664,26.9056,衡阳市,真空机电公司,,34,34,24,6,10,64,,59,59,1,9,6,9,0.6,0.9
2024-06-19T1700,3399A,112.6703,26.882,衡阳市,师范学院,,22,21,18,14,9,69,,60,60,4,7,8,8,0.5,0.7
2024-06-19T1700,2608A,103.3772,23.3993,红河哈尼族彝族自治州,污水处理厂,,32,32,23,13,14,78,,73,73,4,6,4,6,0.4,0.4
2024-06-19T1700,2609A,103.3861,23.35,红河哈尼族彝族自治州,监测站,,35,35,26,11,12,82,,74,74,4,9,7,11,0.5,0.5
2024-06-19T1700,3038A,103.3758,23.368,红河哈尼族彝族自治州,州图书馆,,34,34,22,17,10,77,,71,71,4,5,2,4,0.4,0.4
2024-06-19T1700,1090A,111.6507,40.7517,呼和浩特市,呼市一监,,48,36,26,17,18,153,,148,148,20,20,11,7,0.5,0.6
2024-06-19T1700,1091A,111.6572,40.8033,呼和浩特市,小召,,45,41,27,15,16,141,,136,136,24,22,9,7,0.5,0.5
2024-06-19T1700,1094A,111.7516,40.8369,呼和浩特市,如意水处理厂,,47,35,31,20,15,148,,135,135,15,24,8,5,0.5,0.5
2024-06-19T1700,1095A,111.7276,40.8062,呼和浩特市,二十九中,,48,29,35,17,19,152,,142,142,23,26,6,3,0.4,0.5
2024-06-19T1700,1096A,111.5512,40.7866,呼和浩特市,工大金川校区,,49,45,36,22,18,156,,126,126,18,35,7,6,0.5,0.5
2024-06-19T1700,1097A,111.717,40.7612,呼和浩特市,化肥厂生活区,颗粒物(PM10),54,57,40,16,17,144,,136,136,28,23,12,11,0.7,0.7
2024-06-19T1700,3698A,111.5968,40.8178,呼和浩特市,红旗小学,颗粒物(PM10),52,53,26,30,19,156,,138,138,24,30,6,4,0.4,0.5
2024-06-19T1700,3699A,111.6518,40.8389,呼和浩特市,海东办,,50,39,27,18,16,159,,144,144,13,28,12,6,0.3,0.3
2024-06-19T1700,2192A,119.7594,49.2261,呼伦贝尔市,区环保局,,30,30,38,10,17,69,,46,46,9,11,8,6,0.4,0.4
2024-06-19T1700,3061A,119.7512,49.1577,呼伦贝尔市,国华电力东,,23,,23,9,11,71,,49,49,4,6,4,6,0.4,0.4
2024-06-19T1700,1250A,120.0751,30.8669,湖州市,城西水厂,,44,44,30,29,16,41,,42,34,28,22,3,4,0.5,0.5
2024-06-19T1700,2873A,120.0875,30.8955,湖州市,仁皇山新区,,48,43,27,33,18,38,,40,31,33,26,5,5,0.7,0.7
2024-06-19T1700,2907A,120.1844,30.8596,湖州市,吴兴区站,,40,30,22,28,17,44,,41,35,26,22,6,6,0.5,0.5
2024-06-19T1700,3562A,120.4148,30.8538,湖州市,南浔区站,,32,23,19,22,14,56,,49,42,18,18,2,3,0.5,0.4
2024-06-19T1700,1607A,120.9092,40.7136,葫芦岛市,龙港区,,47,23,42,10,15,150,,137,119,10,10,7,7,0.3,0.4
2024-06-19T1700,1608A,120.8392,40.7514,葫芦岛市,化工街,,43,41,43,9,15,136,,120,113,10,14,13,13,0.6,0.6
2024-06-19T1700,1609A,120.8341,40.7073,葫芦岛市,新区,,50,29,36,12,16,160,,135,129,12,14,6,6,0.4,0.5
2024-06-19T1700,1610A,120.8695,40.7677,葫芦岛市,东城区,臭氧1小时,57,29,47,14,17,165,,142,137,10,13,8,9,0.6,0.6
2024-06-19T1700,2482A,109.5981,27.5721,怀化市,林科所,,22,19,13,9,7,70,,86,85,1,3,5,6,0.7,0.7
2024-06-19T1700,2483A,109.9453,27.5444,怀化市,河西地税局,,32,32,16,19,10,69,,75,75,7,9,17,11,0.8,0.7
2024-06-19T1700,2484A,109.9781,27.5342,怀化市,市四医院,,21,21,15,13,12,67,,68,68,6,8,5,6,0.9,0.9
2024-06-19T1700,2485A,109.9972,27.5578,怀化市,监测楼,,25,,17,17,11,64,,68,68,5,5,4,6,0.7,0.7
2024-06-19T1700,2486A,110.0394,27.583,怀化市,市委党校,,18,12,13,12,10,54,,68,67,8,6,5,7,0.6,0.7
2024-06-19T1700,1210A,119.036,33.5981,淮安市,钵池山,,33,27,36,17,22,105,,113,112,14,19,6,7,0.6,0.5
2024-06-19T1700,1211A,119.007,33.575,淮安市,北京南路,,33,29,40,16,26,103,,111,111,9,14,6,7,0.5,0.4
2024-06-19T1700,1212A,118.989,33.6067,淮安市,市监测站,,34,34,40,17,20,99,,110,110,11,14,6,7,0.6,0.6
2024-06-19T1700,1213A,119.135,33.5039,淮安市,楚州区监测站,,38,37,44,26,27,111,,106,106,17,20,5,6,0.5,0.4
2024-06-19T1700,1214A,119.0186,33.6297,淮安市,淮阴区监测站,,33,31,41,23,24,99,,111,111,16,18,6,7,0.4,0.4
2024-06-19T1700,3426A,118.8755,33.2894,淮安市,新华书店,,36,36,42,23,25,112,,118,118,17,16,6,7,0.5,0.5
2024-06-19T1700,2282A,116.8004,33.975,淮北市,监测站,臭氧1小时,104,65,52,37,25,207,,198,198,13,10,7,7,0.6,0.5
2024-06-19T1700,2283A,116.8091,33.9007,淮北市,烈山区政府,臭氧1小时,105,66,62,24,22,210,,202,202,7,13,6,6,0.5,0.6
2024-06-19T1700,3330A,116.8873,33.9836,淮北市,杜集区检察院,臭氧1小时,115,74,54,41,24,229,,212,212,11,11,7,8,0.4,0.4
2024-06-19T1700,4017A,116.7923,33.9535,淮北市,市博物馆,臭氧1小时,112,57,48,37,25,223,,210,210,8,9,6,7,0.5,0.5
2024-06-19T1700,2277A,116.8305,32.7727,淮南市,潘集区政府,,47,30,45,14,25,148,,162,162,8,14,8,9,0.3,0.4
2024-06-19T1700,2278A,117.0067,32.6524,淮南市,师范学院,,50,,44,35,29,121,,138,138,12,14,9,10,0.3,0.3
2024-06-19T1700,2279A,116.8569,32.5951,淮南市,谢家集区政府,,36,27,39,3,12,114,,145,143,8,15,5,13,0.2,0.3
2024-06-19T1700,2280A,116.8281,32.633,淮南市,八公山区政府,,37,23,46,16,24,116,,150,148,9,12,2,4,0.4,0.4
2024-06-19T1700,2281A,116.6325,32.6201,淮南市,焦岗湖风景区管理处,,25,25,31,9,11,77,,106,105,13,18,7,8,0.3,0.3
2024-06-19T1700,2894A,117.0566,32.6531,淮南市,经济技术开发区消防队,,41,28,41,14,16,130,,143,143,11,16,3,5,0.4,0.3
2024-06-19T1700,3329A,117.0108,32.5893,淮南市,山南新区,,41,19,43,12,19,129,,146,146,9,12,6,7,0.5,0.4
2024-06-19T1700,2446A,114.9028,30.4742,黄冈市,职工中心,,25,9,20,6,15,80,,63,63,3,11,6,8,0.4,0.5
2024-06-19T1700,2929A,114.8858,30.4519,黄冈市,红卫路,,29,,22,6,15,91,,68,68,6,12,6,8,0.5,0.4
2024-06-19T1700,3398A,114.9136,30.4445,黄冈市,市林业局,,25,,23,16,17,79,,60,60,7,12,7,11,0.4,0.4
2024-06-19T1700,2672A,102.0199,35.5102,黄南藏族自治州,同仁县隆务镇,,42,24,45,3,10,132,,110,110,1,3,9,12,0.6,0.7
2024-06-19T1700,2295A,118.2903,29.6963,黄山市,延安路89号,,20,20,19,3,5,33,,35,26,9,7,5,5,0.7,0.6
2024-06-19T1700,2296A,118.327,29.7178,黄山市,黄山东路89号,,11,6,8,3,4,33,,34,25,8,6,5,5,0.4,0.4
2024-06-19T1700,2297A,118.1371,30.2756,黄山市,黄山区政府5号楼,,12,,9,8,5,30,,30,30,5,6,6,6,0.4,0.4
2024-06-19T1700,2423A,115.0601,30.2313,黄石市,沈家营,,30,30,39,3,10,64,,56,56,20,21,5,9,0.3,0.7
2024-06-19T1700,2424A,115.0817,30.2006,黄石市,陈家湾,,24,24,39,3,11,69,,62,62,2,10,5,4,0.5,0.6
2024-06-19T1700,2426A,114.8988,30.2019,黄石市,铁山,,23,14,22,3,9,72,,58,58,6,9,8,9,0.3,0.3
2024-06-19T1700,2427A,115.0307,30.2092,黄石市,团城山,,22,19,32,3,7,70,,64,64,4,7,6,5,0.5,0.6
2024-06-19T1700,3149A,115.0235,30.1578,黄石市,笔架山北路,,30,30,40,3,6,59,,57,57,9,8,5,5,0.8,0.8
2024-06-19T1700,1392A,114.4183,23.0528,惠州市,河南岸金山湖子站,,19,14,21,6,10,60,,67,67,3,10,4,4,0.3,0.4
2024-06-19T1700,1393A,114.4053,23.0822,惠州市,下埔横江三路子站,,20,15,23,7,11,64,,73,73,7,12,6,6,0.5,0.5
2024-06-19T1700,1394A,114.4103,23.1142,惠州市,江北云山西路子站,,20,19,23,3,8,62,,76,76,11,10,8,8,0.5,0.5
2024-06-19T1700,1395A,114.4645,22.7833,惠州市,惠阳区承修路船湖子站,,15,14,17,9,7,45,,47,47,8,11,1,1,0.5,0.5
2024-06-19T1700,1396A,114.5317,22.7422,惠州市,大亚湾管委会子站,,18,14,18,6,7,56,,57,57,7,10,4,4,0.7,0.7
2024-06-19T1700,3314A,114.4338,22.8134,惠州市,惠阳秋长,,,,34,,10,49,,58,58,3,17,,6,0.5,0.8
2024-06-19T1700,3452A,114.6517,22.775,惠州市,大亚湾霞涌,,20,20,16,3,8,45,,45,45,4,7,3,3,0.5,0.5
2024-06-19T1700,2240A,130.9762,45.3001,鸡西市,环保局,,36,36,45,10,15,47,,71,71,8,22,7,8,0.4,0.5
2024-06-19T1700,2243A,130.9429,45.3039,鸡西市,第一中学,细颗粒物(PM2.5),57,,41,40,15,43,,88,86,10,16,9,8,0.4,0.4
2024-06-19T1700,3707A,131.0207,45.3073,鸡西市,欧美日汽修厂,,25,25,47,3,15,53,,74,74,8,17,6,7,0.5,0.6
2024-06-19T1700,3709A,130.9967,45.3106,鸡西市,市政设施管理处,,36,36,43,10,12,47,,73,73,12,21,7,7,0.4,0.4
2024-06-19T1700,2367A,114.9754,27.0803,吉安市,红声器材厂,,33,33,31,17,15,80,,70,70,11,13,9,11,0.6,0.4
2024-06-19T1700,2368A,114.9658,27.0999,吉安市,市森林工业局,,30,30,31,17,18,80,,69,69,10,12,11,12,0.5,0.5
2024-06-19T1700,2369A,114.99,27.1312,吉安市,市环境监测站,,33,33,29,13,15,89,,74,74,8,8,10,12,0.6,0.6
2024-06-19T1700,2370A,115.0093,27.0968,吉安市,青原区法院,,30,30,29,16,15,70,,64,64,14,13,14,16,0.5,0.4
2024-06-19T1700,1772A,126.54,43.8622,吉林市,哈达湾,臭氧1小时,123,33,37,24,23,245,,238,238,12,28,6,6,0.7,0.6
2024-06-19T1700,1773A,126.5844,43.8358,吉林市,东局子,臭氧1小时,121,42,36,24,19,242,,239,239,18,22,6,6,0.6,0.6
2024-06-19T1700,1774A,126.5052,43.8245,吉林市,电力学院,臭氧1小时,116,53,51,24,22,231,,227,227,18,35,10,10,0.6,0.6
2024-06-19T1700,1775A,126.6133,43.8972,吉林市,江北,臭氧1小时,117,53,50,24,22,234,,223,223,17,34,9,9,0.7,0.7
2024-06-19T1700,1776A,126.555,43.8306,吉林市,江南公园,臭氧1小时,119,48,36,26,21,237,,233,233,17,24,5,5,0.7,0.7
2024-06-19T1700,1778A,126.7061,43.7133,吉林市,丰满,,,,,,,,,,,,,,,,
2024-06-19T1700,2868A,126.4739,43.953,吉林市,九站,臭氧1小时,118,45,47,19,21,236,,243,243,20,47,7,10,0.6,0.7
2024-06-19T1700,1299A,116.9862,36.6114,济南市,科干所,臭氧1小时,115,44,39,24,18,230,,208,208,17,15,9,10,0.4,0.3
2024-06-19T1700,1300A,116.9376,36.665,济南市,农科所,臭氧1小时,130,49,46,12,12,259,,228,228,17,20,9,9,0.4,0.5
2024-06-19T1700,1301A,117.1265,36.6734,济南市,开发区,臭氧1小时,121,46,41,15,14,242,,222,222,14,14,9,9,0.5,0.4
2024-06-19T1700,1303A,117.0624,36.6868,济南市,省种子仓库,臭氧1小时,132,51,52,22,19,264,,228,228,16,23,8,8,0.5,0.5
2024-06-19T1700,1304A,116.9489,36.6447,济南市,机床二厂,臭氧1小时,130,51,48,15,15,260,,234,234,20,19,11,11,0.4,0.4
2024-06-19T1700,1305A,117.0495,36.663,济南市,市监测站,臭氧1小时,135,54,42,27,23,269,,235,235,26,20,13,13,0.4,0.4
2024-06-19T1700,1306A,116.7675,36.5484,济南市,长清党校,臭氧1小时,127,46,46,24,19,253,,243,243,10,11,10,10,0.5,0.5
2024-06-19T1700,1616A,117.6795,36.229,济南市,技术学院,臭氧1小时,107,39,49,17,18,214,,186,186,17,25,13,12,0.8,0.7
2024-06-19T1700,1961A,117.532,36.6868,济南市,东山小学,臭氧1小时,120,39,47,12,15,240,,222,222,13,17,8,9,0.4,0.5
2024-06-19T1700,3059A,117.7161,36.2049,济南市,泰兴公司,臭氧1小时,105,48,51,19,19,210,,182,182,10,22,12,12,0.7,0.6
2024-06-19T1700,3064A,117.6867,36.2171,济南市,莱芜战役纪念馆,臭氧1小时,104,41,51,19,15,207,,178,178,16,22,12,12,0.7,0.6
2024-06-19T1700,3494A,117.1673,36.9782,济南市,济阳区政府,臭氧1小时,134,46,64,20,19,268,,240,240,6,18,8,8,0.3,0.4
2024-06-19T1700,3495A,117.1171,36.63,济南市,锦屏中学,臭氧1小时,127,51,39,20,16,254,,233,233,17,15,11,11,0.6,0.6
2024-06-19T1700,3682A,116.9814,36.6819,济南市,济南四建,臭氧1小时,137,44,35,22,19,273,,235,235,14,12,9,9,0.5,0.5
2024-06-19T1700,1653A,116.6251,35.4302,济宁市,火炬城,臭氧1小时,119,53,53,29,26,238,,215,215,13,17,12,12,0.7,0.6
2024-06-19T1700,1655A,116.5491,35.4042,济宁市,电化厂,臭氧1小时,129,62,58,34,25,257,,230,230,14,15,9,10,0.6,0.5
2024-06-19T1700,3500A,116.5814,35.3707,济宁市,北湖一中,臭氧1小时,126,55,44,29,24,251,,222,222,16,19,12,10,0.6,0.6
2024-06-19T1700,3501A,116.8249,35.5593,济宁市,服务中心,臭氧1小时,104,44,53,19,23,207,,206,206,10,18,6,7,0.4,0.4
2024-06-19T1700,3678A,116.5907,35.4054,济宁市,市第七中学,臭氧1小时,127,62,50,29,22,253,,225,225,12,16,9,8,0.6,0.6
2024-06-19T1700,2255A,130.2751,46.8028,佳木斯市,佳纺,,,24,39,,14,55,,50,50,23,20,5,4,0.6,0.4
2024-06-19T1700,2256A,130.3995,46.8307,佳木斯市,发电厂,,22,,27,15,15,45,,49,49,25,17,5,4,0.6,0.5
2024-06-19T1700,2257A,130.3258,46.7975,佳木斯市,环保局,,22,21,29,12,12,70,,50,50,20,16,6,5,0.6,0.4
2024-06-19T1700,2258A,130.3648,46.8032,佳木斯市,十一中,,18,17,25,12,12,50,,49,49,29,22,6,6,0.6,0.5
2024-06-19T1700,2259A,130.3794,46.7588,佳木斯市,四丰,,21,13,13,11,9,65,,56,56,6,8,1,1,0.6,0.6
2024-06-19T1700,1252A,120.7436,30.778,嘉兴市,清河小学,,42,42,18,16,7,55,,62,54,35,18,4,5,0.9,0.8
2024-06-19T1700,1253A,120.726,30.7478,嘉兴市,嘉兴学院,,35,,17,24,9,53,,51,45,23,17,3,4,0.5,0.5
2024-06-19T1700,2872A,120.7846,30.7525,嘉兴市,南湖区残联,,43,38,15,30,11,81,,69,69,23,13,5,5,0.6,0.4
2024-06-19T1700,3407A,120.6916,30.7739,嘉兴市,秀洲住建,,33,33,20,13,7,58,,55,48,18,13,4,5,0.7,0.6
2024-06-19T1700,1945A,98.2908,39.7711,嘉峪关市,气象局,,43,17,37,3,12,135,,128,128,4,18,4,14,0.1,0.2
2024-06-19T1700,2884A,98.2672,39.7978,嘉峪关市,酒钢宾馆,,45,22,42,14,14,142,,135,135,4,16,12,24,0.4,0.3
2024-06-19T1700,3248A,98.2643,39.7724,嘉峪关市,雄关区,,42,21,33,7,14,133,,128,128,6,16,7,9,0.4,0.4
2024-06-19T1700,1383A,113.1064,22.6058,江门市,北街,,22,22,22,10,9,63,,63,63,6,7,2,2,0.5,0.5
2024-06-19T1700,1384A,113.0731,22.5835,江门市,西区,,48,48,26,14,11,67,,71,70,7,7,6,6,0.4,0.4
2024-06-19T1700,1385A,113.0219,22.5311,江门市,圭峰西,,45,,28,31,10,65,,67,67,3,6,2,2,0.3,0.4
2024-06-19T1700,1386A,113.0828,22.5947,江门市,东湖,,27,27,22,18,11,68,,70,70,7,8,6,6,0.4,0.4
2024-06-19T1700,3311A,113.1075,22.5647,江门市,江海富民,,31,31,39,9,13,74,,72,72,6,8,4,5,0.5,0.5
2024-06-19T1700,3449A,113.05,22.4667,江门市,新会银湖,,21,16,22,8,7,67,,66,66,2,3,3,4,0.5,0.5
2024-06-19T1700,1828A,113.227,35.2125,焦作市,市环保局,臭氧1小时,116,44,56,24,33,231,,220,220,8,12,1,3,0.2,0.4
2024-06-19T1700,1830A,113.1992,35.2590,焦作市,影视城,,,,,,,,,,,,,,,,
2024-06-19T1700,3169A,113.2725,35.2067,焦作市,太极体育中心,,,,,,,,,,,,,,,,
2024-06-19T1700,3335A,113.3137,35.2641,焦作市,马村街道办,臭氧1小时,102,47,59,21,31,204,,206,206,8,14,1,3,0.3,0.5
2024-06-19T1700,3336A,113.2465,35.2373,焦作市,焦作技师学院,臭氧1小时,113,43,59,22,28,226,,215,215,7,11,1,2,0.4,0.6
2024-06-19T1700,3477A,113.1656,35.2539,焦作市,中站许衡医院,臭氧1小时,110,36,43,19,32,220,,201,201,9,18,5,6,0.4,0.4
2024-06-19T1700,3981A,113.2449,35.1803,焦作市,原李万街道办,臭氧1小时,108,43,53,22,31,215,,212,212,8,16,4,7,0.5,0.6
2024-06-19T1700,1708A,116.3701,23.5345,揭阳市,新兴,,13,,24,7,8,40,,43,42,13,18,4,5,0.7,0.7
2024-06-19T1700,1709A,116.3264,23.5443,揭阳市,西马,,12,,20,8,8,38,,43,42,12,13,2,2,0.7,0.8
2024-06-19T1700,1710A,116.3611,23.5626,揭阳市,东兴,,,,31,6,7,37,,44,43,11,16,1,4,0.7,0.7
2024-06-19T1700,1711A,116.4151,23.5294,揭阳市,渔湖,,15,15,27,3,5,32,,37,36,15,20,3,4,0.6,0.7
2024-06-19T1700,3320A,116.403,23.5699,揭阳市,曲溪,,11,7,19,7,10,34,,42,42,17,19,4,7,0.5,0.6
2024-06-19T1700,1944A,102.1692,38.5167,金昌市,天庆家园,,44,44,62,20,23,128,,129,129,2,7,19,17,0.6,0.5
2024-06-19T1700,3170A,102.1864,38.5253,金昌市,市委党校,颗粒物(PM10),55,60,81,22,25,130,,131,131,2,9,8,28,0.5,0.7
2024-06-19T1700,4022A,102.1647,38.5371,金昌市,金川区人防中心,细颗粒物(PM2.5),62,66,85,44,38,138,,139,139,3,8,10,17,0.5,0.5
2024-06-19T1700,1262A,119.647,29.077,金华市,十五中,,39,39,26,26,18,48,,43,43,40,29,3,2,0.6,0.5
2024-06-19T1700,1263A,119.686,29.1029,金华市,监测站,,44,44,27,25,16,35,,34,34,48,35,2,2,0.6,0.5
2024-06-19T1700,3659A,119.656,29.1131,金华市,气象局,,41,41,29,24,16,28,,26,26,49,42,6,6,0.6,0.5
2024-06-19T1700,1767A,121.1115,41.0879,锦州市,南山,"颗粒物(PM10),臭氧1小时",57,64,48,18,20,165,,147,141,15,18,13,12,0.5,0.6
2024-06-19T1700,1768A,121.0533,40.8434,锦州市,开发区,颗粒物(PM10),57,63,84,15,19,162,,135,126,16,19,8,16,0.6,0.8
2024-06-19T1700,1769A,121.1836,41.1119,锦州市,百股街道,臭氧1小时,68,41,44,9,15,174,,157,143,13,16,9,14,0.6,0.8
2024-06-19T1700,1770A,121.1178,41.1222,锦州市,天安街道,颗粒物(PM10),57,64,54,17,21,142,,127,124,16,19,11,10,0.7,0.8
2024-06-19T1700,1771A,121.1303,41.1386,锦州市,北湖公园,"颗粒物(PM10),臭氧1小时",55,59,48,19,19,164,,143,143,13,16,13,12,0.6,0.7
2024-06-19T1700,2160A,112.85,35.5051,晋城市,自来水公司,臭氧1小时,125,45,41,24,21,250,,192,192,14,18,7,7,0.6,0.6
2024-06-19T1700,2161A,112.8318,35.4936,晋城市,白云商贸,臭氧1小时,126,50,37,22,19,251,,197,197,13,18,6,6,0.6,0.6
2024-06-19T1700,2162A,112.8508,35.4887,晋城市,市环保局,臭氧1小时,125,49,48,24,24,249,,193,193,16,22,6,6,0.5,0.5
2024-06-19T1700,2163A,112.8676,35.4897,晋城市,技术学院,臭氧1小时,122,47,45,22,25,244,,188,188,18,22,6,6,0.7,0.7
2024-06-19T1700,2165A,112.8453,35.546,晋城市,白马寺,,,,,,,,,,,,,,,,
2024-06-19T1700,3620A,112.8271,35.4828,晋城市,泽州一中,臭氧1小时,116,50,47,22,21,232,,186,186,14,20,8,7,0.6,0.6
2024-06-19T1700,2171A,112.7532,37.6945,晋中市,锦纶小区,臭氧1小时,109,48,59,19,23,218,,212,212,12,23,10,12,0.5,0.5
2024-06-19T1700,2173A,112.7249,37.7067,晋中市,南都小区,臭氧1小时,116,40,53,24,30,232,,222,222,11,18,9,11,0.4,0.5
2024-06-19T1700,2174A,112.6991,37.6982,晋中市,榆次区政府,臭氧1小时,107,39,52,29,28,213,,206,206,12,20,7,10,0.4,0.4
2024-06-19T1700,2865A,112.7195,37.6828,晋中市,榆次三中,臭氧1小时,116,27,51,27,24,232,,229,229,12,21,9,11,0.5,0.6
2024-06-19T1700,2439A,112.2014,31.0481,荆门市,竹园小学,,46,46,49,23,33,144,,139,139,14,17,11,11,0.5,0.6
2024-06-19T1700,2440A,112.1969,30.9891,荆门市,掇刀,,44,31,38,26,30,140,,137,137,12,14,11,8,0.6,0.7
2024-06-19T1700,2441A,112.2213,31.0386,荆门市,石化一小,,46,37,45,23,26,146,,141,141,10,16,19,18,0.5,0.5
2024-06-19T1700,3012A,112.1849,31.0362,荆门市,西山林语,,46,37,42,24,29,147,,145,145,10,13,9,8,0.3,0.3
2024-06-19T1700,3547A,112.1632,31.0138,荆门市,龙泉中学南校,,48,33,38,23,22,152,,141,141,9,15,10,10,0.6,0.6
2024-06-19T1700,1844A,112.2494,30.3197,荆州市,市图书馆,,43,40,35,21,24,135,,124,124,12,14,6,5,0.6,0.6
2024-06-19T1700,1845A,112.2008,30.3544,荆州市,市委党校,,43,32,36,27,26,136,,126,126,16,13,6,5,0.5,0.6
2024-06-19T1700,3194A,112.2747,30.3122,荆州市,管委会,,46,36,39,20,28,146,,123,123,10,13,4,4,0.6,0.6
2024-06-19T1700,3548A,112.1655,30.3364,荆州市,学苑路,,48,42,41,28,39,152,,135,135,10,11,6,6,0.5,0.6
2024-06-19T1700,2342A,117.3102,29.3867,景德镇市,王港中学,,,,,,,,,,,,,,,,
2024-06-19T1700,2343A,117.2117,29.2933,景德镇市,老干部活动中心,,25,21,10,17,10,44,,38,38,17,12,12,7,0.6,0.5
2024-06-19T1700,2344A,117.1894,29.2789,景德镇市,兽医站,,25,25,15,17,9,48,,38,38,14,12,10,7,0.4,0.6
2024-06-19T1700,2345A,117.1547,29.2617,景德镇市,台达陶瓷,,32,32,15,19,10,39,,38,38,29,17,50,18,0.3,0.4
2024-06-19T1700,2346A,117.2461,29.2956,景德镇市,陶研所,,22,22,11,7,5,52,,46,46,3,5,4,4,0.3,0.3
2024-06-19T1700,1803A,115.9872,29.6815,九江市,十里,,,59,28,,7,58,,52,52,12,15,10,10,0.5,0.6
2024-06-19T1700,1804A,115.9584,29.7046,九江市,茅山头,,17,6,9,3,6,54,,52,52,8,12,9,10,0.5,0.6
2024-06-19T1700,1805A,115.9877,29.7295,九江市,西园,,19,11,10,6,6,60,,51,51,21,22,11,13,0.7,0.8
2024-06-19T1700,1806A,116.0172,29.6547,九江市,五七二七厂,,18,,6,12,8,47,,36,36,11,10,9,8,0.6,0.6
2024-06-19T1700,1808A,115.9114,29.6038,九江市,综合工业园,,18,7,9,3,5,56,,58,58,12,28,11,11,0.8,0.8
2024-06-19T1700,1809A,116.0721,29.7535,九江市,石化总厂,,16,16,9,10,9,45,,49,49,15,12,10,10,0.6,0.6
2024-06-19T1700,1810A,115.9773,29.5698,九江市,庐山气象台,,20,6,5,3,4,62,,63,63,2,2,14,9,0.9,0.9
2024-06-19T1700,3190A,116.0254,29.6994,九江市,外国语学校,,15,7,5,3,6,45,,39,39,19,16,24,17,0.7,0.7
2024-06-19T1700,2658A,98.5061,39.7443,酒泉市,仓门街子站,,42,22,44,3,9,132,,125,125,14,23,6,9,0.1,0.3
2024-06-19T1700,2659A,98.4989,39.7256,酒泉市,油田生活基地,,45,27,44,6,9,142,,130,130,12,21,6,9,0.2,0.3
2024-06-19T1700,2698A,76.0072,39.4467,喀什地区,巡警大队,颗粒物(PM10),54,57,31,9,5,142,,124,124,7,12,4,3,0.2,0.2
2024-06-19T1700,2699A,75.9755,39.4694,喀什地区,吾办,,45,28,30,12,9,144,,125,125,9,9,3,3,0.3,0.3
2024-06-19T1700,4027A,75.9483,39.4689,喀什地区,老干局,颗粒物(PM10),51,52,53,3,6,149,,124,124,6,11,3,3,0.2,0.2
2024-06-19T1700,1824A,114.3389,34.7781,开封市,肿瘤医院,臭氧1小时,95,52,58,11,20,196,,182,182,8,16,4,5,0.4,0.5
2024-06-19T1700,1826A,114.2885,34.7965,开封市,世纪星幼儿园,臭氧1小时,109,57,55,17,21,218,,201,201,9,13,2,3,0.5,0.5
2024-06-19T1700,3147A,114.3438,34.8106,开封市,龙亭公园,,,,,,,,,,,,,,,,
2024-06-19T1700,3210A,114.3644,34.7964,开封市,汴京公园,,,,57,,29,,,116,,,19,,5,,0.5
2024-06-19T1700,3473A,114.2485,34.8306,开封市,技师学院,臭氧1小时,114,47,53,22,25,228,,205,205,13,15,6,6,0.5,0.5
2024-06-19T1700,3592A,114.4644,34.7556,开封市,祥符区生态环境局,臭氧1小时,95,37,58,16,26,196,,194,194,17,29,4,4,0.4,0.4
2024-06-19T1700,1951A,84.895,45.6094,克拉玛依市,长征新村,,33,14,11,7,5,105,,120,111,2,2,9,9,0.1,0.1
2024-06-19T1700,1952A,84.8988,45.5893,克拉玛依市,南林小区,,34,17,14,10,7,107,,120,113,3,4,13,10,0.2,0.1
2024-06-19T1700,1954A,84.905,44.3396,克拉玛依市,独山子区,,37,27,19,6,7,118,,118,115,5,6,9,9,0.3,0.2
2024-06-19T1700,1955A,85.6979,46.098,克拉玛依市,乌尔禾区商贸楼,,30,26,20,3,7,94,,111,104,1,5,7,8,0.2,0.3
2024-06-19T1700,3612A,85.1045,45.6899,克拉玛依市,白碱滩区新站,,35,24,18,14,16,112,,126,122,2,2,9,9,0.0,0
2024-06-19T1700,2697A,76.1454,39.7142,克孜勒苏柯尔克孜自治州,市人民政府,颗粒物(PM10),56,61,33,30,12,133,,128,128,4,7,7,9,0.4,0.4
2024-06-19T1700,3665A,76.1658,39.7157,克孜勒苏柯尔克孜自治州,克州文化中心,颗粒物(PM10),57,64,31,31,13,133,,130,130,4,4,9,10,0.3,0.3
2024-06-19T1700,1450A,102.8204,24.8886,昆明市,呈贡新区,,33,29,29,13,15,104,,95,95,5,9,7,4,0.5,0.7
2024-06-19T1700,1451A,102.6251,24.9608,昆明市,西山森林公园,,,,,,,,,,,,,,,,
2024-06-19T1700,1452A,102.7252,25.0902,昆明市,龙泉镇,,32,27,24,12,10,102,,93,93,8,12,7,7,0.5,0.6
2024-06-19T1700,1453A,102.7266,25.0375,昆明市,东风东路,,30,26,24,14,13,93,,87,87,10,11,2,2,0.5,0.6
2024-06-19T1700,1454A,102.6742,25.0669,昆明市,金鼎山,,32,32,28,10,10,97,,94,94,12,13,9,15,0.4,0.4
2024-06-19T1700,1455A,102.6644,25.0401,昆明市,碧鸡广场,,31,18,26,11,14,98,,94,94,9,12,2,3,0.5,0.5
2024-06-19T1700,3179A,102.7494,25.0119,昆明市,官渡区博物馆,,33,20,21,9,12,105,,96,96,6,8,8,9,0.4,0.5
2024-06-19T1700,3375A,102.8017,24.8336,昆明市,青年创业园,,33,19,25,14,14,105,,98,98,4,8,8,8,0.3,0.4
2024-06-19T1700,3550A,102.7997,24.9786,昆明市,昆明学院,,33,21,25,13,14,104,,96,96,8,9,8,9,0.5,0.6
2024-06-19T1700,3551A,102.5967,24.6736,昆明市,晋宁区生态环境分局,,31,,22,14,13,97,,91,91,4,7,2,2,0.5,0.6
2024-06-19T1700,3552A,102.6678,24.9856,昆明市,云天化总部,,32,15,21,8,13,100,,95,95,5,5,3,2,0.5,0.5
2024-06-19T1700,1456A,91.1319,29.6514,拉萨市,八廓街,,47,17,14,11,10,149,,134,134,10,15,10,9,0.3,0.3
2024-06-19T1700,1457A,91.1221,29.6747,拉萨市,市环保局,,45,17,17,3,9,144,,124,124,10,17,8,8,0.4,0.5
2024-06-19T1700,1458A,91.0874,29.6475,拉萨市,区监测站,,47,12,12,7,8,149,,127,127,10,17,7,7,0.4,0.4
2024-06-19T1700,1459A,91.1774,29.6541,拉萨市,西藏大学,,48,9,13,7,8,153,,136,136,7,9,8,7,0.4,0.3
2024-06-19T1700,1460A,90.9798,29.6588,拉萨市,区辐射站,,44,9,16,7,10,139,,113,113,15,14,7,8,0.4,0.4
2024-06-19T1700,1461A,91.0834,29.6292,拉萨市,拉萨火车站,,47,10,11,8,8,150,,124,124,11,15,8,7,0.3,0.2
2024-06-19T1700,2520A,109.2203,23.7256,来宾市,来宾技工学校,,28,,28,19,16,52,,63,63,9,10,4,5,0.8,0.8
2024-06-19T1700,3535A,109.1781,23.7297,来宾市,兴宾区政府,,17,15,27,3,14,53,,64,64,8,8,4,5,0.8,0.9
2024-06-19T1700,4002A,109.2416,23.7461,来宾市,中南小学,,28,,29,19,17,45,,59,59,25,16,3,3,1.4,1.1
2024-06-19T1700,1476A,103.631,36.1031,兰州市,兰炼宾馆,臭氧1小时,84,66,84,36,46,187,,149,149,8,25,11,27,0.3,0.5
2024-06-19T1700,1477A,104.1373,35.9454,兰州市,榆中兰大校区,,,,,,,,,,,,,,,,
2024-06-19T1700,1478A,103.8412,36.0726,兰州市,生物制品所,颗粒物(PM10),58,65,80,26,36,146,,131,131,13,35,8,17,0.2,0.5
2024-06-19T1700,1479A,103.831,36.0464,兰州市,铁路设计院,,,,80,,32,144,,128,128,27,46,8,18,,0.5
2024-06-19T1700,3186A,103.7158,36.1058,兰州市,教育港,臭氧1小时,68,79,116,25,38,174,,146,146,6,28,10,22,0.3,0.5
2024-06-19T1700,3241A,103.7439,36.0842,兰州市,百合公园,,50,49,82,26,31,159,,134,134,6,32,3,13,0.1,0.3
2024-06-19T1700,3242A,103.9611,35.998,兰州市,和平,颗粒物(PM10),62,74,73,20,29,162,,142,142,5,16,8,12,0.2,0.5
2024-06-19T1700,3245A,103.6633,36.533,兰州新区,新区管委会,,42,30,65,27,31,133,,142,142,8,16,7,13,0.3,0.5
2024-06-19T1700,3246A,103.6975,36.4789,兰州新区,舟曲中学,颗粒物(PM10),66,81,101,21,34,136,,144,144,11,20,8,15,0.4,0.5
2024-06-19T1700,1067A,116.6708,39.5111,廊坊市,药材公司,臭氧1小时,136,92,83,39,36,272,,230,230,10,15,3,4,0.6,0.6
2024-06-19T1700,1068A,116.7214,39.5589,廊坊市,开发区,臭氧1小时,149,187,82,48,32,297,,237,237,20,17,5,5,0.6,0.4
2024-06-19T1700,1070A,116.7244,39.5269,廊坊市,北华航天学院,臭氧1小时,139,102,90,44,30,277,,224,224,16,16,3,3,0.5,0.5
2024-06-19T1700,2919A,116.7022,39.5453,廊坊市,河北工业大学,臭氧1小时,144,99,84,48,33,288,,235,235,13,13,3,3,0.5,0.4
2024-06-19T1700,2535A,103.7723,29.5462,乐山市,花湖湾,,37,,25,15,20,118,,80,80,4,11,3,3,0.3,0.5
2024-06-19T1700,2536A,103.7627,29.5844,乐山市,牛耳桥,,40,18,24,17,22,126,,96,96,9,14,2,3,0.4,0.5
2024-06-19T1700,2537A,103.7508,29.6006,乐山市,市第三水厂,,41,18,25,10,15,130,,102,102,7,15,3,3,0.4,0.5
2024-06-19T1700,2538A,103.7571,29.5664,乐山市,市监测站,,41,19,27,18,20,129,,97,97,8,13,1,3,0.4,0.6
2024-06-19T1700,3361A,103.7311,29.5628,乐山市,理工大学,,44,22,26,14,19,139,,105,105,3,13,6,7,0.4,0.6
2024-06-19T1700,2598A,100.2143,26.8576,丽江市,西南郊,,,,,,,,,,,,,,,,
2024-06-19T1700,2599A,100.2497,26.8802,丽江市,丽江古城,,23,22,21,8,11,72,,81,81,11,12,6,6,0.6,0.6
2024-06-19T1700,2600A,100.2203,26.8906,丽江市,市中心,,,,17,,9,,,79,,,7,,8,,0.5
2024-06-19T1700,1267A,119.914,28.4514,丽水市,监测站大楼,,29,25,19,20,14,66,,60,60,13,18,3,3,0.4,0.4
2024-06-19T1700,1268A,119.93,28.4586,丽水市,莲都小学,,36,36,22,12,9,73,,62,62,14,20,4,3,0.5,0.4
2024-06-19T1700,1269A,119.879,28.4231,丽水市,余庄前,,18,15,19,8,13,57,,53,53,12,14,2,2,0.5,0.4
2024-06-19T1700,1173A,119.176,34.5885,连云港市,市环境监测站,,26,22,39,12,14,82,,102,97,14,12,6,6,0.3,0.4
2024-06-19T1700,3000A,119.3581,34.6972,连云港市,德源药业,,,6,29,3,10,95,,99,97,8,14,4,5,,0.4
2024-06-19T1700,3007A,119.178,34.844,连云港市,新城一中,,33,29,56,3,10,103,,113,112,7,18,4,6,0.6,0.7
2024-06-19T1700,3008A,119.3608,34.7519,连云港市,胡沟管理处,,28,9,30,3,10,88,,117,89,15,12,8,9,0.5,0.6
2024-06-19T1700,3009A,119.1478,34.5911,连云港市,矿山设计院,,26,19,37,12,12,83,,101,98,13,12,2,2,0.4,0.3
2024-06-19T1700,3434A,119.2413,34.6539,连云港市,工贸学校,,29,18,34,10,11,92,,114,105,7,7,6,7,0.6,0.6
2024-06-19T1700,3664A,119.4172,34.7341,连云港市,连云街道,,32,7,33,3,11,102,,115,103,7,8,2,4,0.5,0.6
2024-06-19T1700,2571A,102.3431,27.8099,凉山彝族自治州,青龙寺,,,,9,,6,,,49,,,5,,9,,0.7
2024-06-19T1700,2572A,102.2721,27.8415,凉山彝族自治州,邛海宾馆,,28,9,11,3,8,88,,67,67,12,11,8,7,0.8,0.8
2024-06-19T1700,2573A,102.2625,27.898,凉山彝族自治州,西昌市政府,,27,15,16,10,10,84,,59,59,13,15,8,8,0.6,0.7
2024-06-19T1700,2574A,102.2685,27.8851,凉山彝族自治州,凉山州政府,,28,13,13,9,9,87,,66,66,13,13,6,8,0.8,0.9
2024-06-19T1700,2575A,102.237,27.8914,凉山彝族自治州,长安,,27,12,15,8,11,84,,56,56,16,20,10,9,0.8,1
2024-06-19T1700,2212A,123.2,41.1953,辽阳市,宏伟区,,49,24,39,3,14,154,,158,143,8,11,10,11,0.4,0.5
2024-06-19T1700,2213A,123.1683,41.2495,辽阳市,新华园,,49,38,43,8,17,154,,149,143,8,18,10,10,0.4,0.5
2024-06-19T1700,2214A,123.2354,41.2639,辽阳市,滨河路,,45,38,46,14,18,141,,144,143,14,17,9,10,0.6,0.7
2024-06-19T1700,2215A,123.149,41.2991,辽阳市,铁西工业园,颗粒物(PM10),59,68,52,18,23,152,,152,145,10,18,11,15,0.4,0.9
2024-06-19T1700,2227A,125.1358,42.8845,辽源市,环保局,臭氧1小时,99,24,45,9,19,199,,211,211,6,42,9,9,0.5,0.7
2024-06-19T1700,3239A,125.0764,42.9078,辽源市,银鹰制药,臭氧1小时,99,31,40,9,19,199,,215,213,13,31,5,13,0.5,0.8
2024-06-19T1700,1625A,115.9848,36.4372,聊城市,区政府,臭氧1小时,123,50,58,17,20,246,,214,214,14,18,8,11,0.5,0.5
2024-06-19T1700,2878A,116.0072,36.4343,聊城市,聊大东校,臭氧1小时,126,40,53,27,24,252,,227,227,18,17,8,10,0.5,0.5
2024-06-19T1700,3200A,115.9819,36.4978,聊城市,监控中心,,,,56,,19,243,,216,216,5,24,7,12,0.5,0.6
2024-06-19T1700,3513A,116.0445,36.4361,聊城市,九州社区,臭氧1小时,118,46,59,14,18,235,,214,214,14,18,8,8,0.4,0.4
2024-06-19T1700,4018A,116.0567,36.4608,聊城市,星美广场,臭氧1小时,129,44,58,18,19,258,,237,237,20,24,9,11,0.4,0.5
2024-06-19T1700,2632A,94.3681,29.6376,林芝市,林芝监测站,,37,6,3,3,4,116,,88,88,2,4,7,7,0.3,0.3
2024-06-19T1700,2633A,94.3616,29.6616,林芝市,林芝人民医院,,37,6,6,3,5,118,,90,90,4,6,8,8,0.3,0.2
2024-06-19T1700,2603A,100.0781,23.8982,临沧市,市环保局,颗粒物(PM10),52,54,40,32,21,74,,79,78,9,9,4,4,0.5,0.5
2024-06-19T1700,2604A,100.0894,23.8822,临沧市,市气象局,颗粒物(PM10),55,59,42,35,26,79,,76,76,10,10,4,4,0.5,0.6
2024-06-19T1700,1733A,111.5531,36.0783,临汾市,临钢医院,臭氧1小时,102,74,53,17,22,203,,194,194,6,11,8,7,0.7,0.7
2024-06-19T1700,1734A,111.5028,36.0714,临汾市,技工学校,臭氧1小时,104,48,49,28,28,208,,200,200,12,18,6,6,0.6,0.6
2024-06-19T1700,1736A,111.5018,36.0855,临汾市,市委,臭氧1小时,110,41,56,19,23,219,,209,209,11,17,6,6,0.7,0.7
2024-06-19T1700,3018A,111.505,36.1014,临汾市,唐尧大酒店,臭氧1小时,101,53,45,11,22,202,,196,196,13,17,9,8,0.7,0.7
2024-06-19T1700,3668A,111.5036,36.0414,临汾市,城南,臭氧1小时,107,85,54,38,33,214,,212,212,10,19,6,5,0.6,0.6
2024-06-19T1700,2667A,103.2069,35.5993,临夏回族自治州,环保局,,44,30,32,24,22,139,,119,119,2,11,7,7,0.3,0.4
2024-06-19T1700,2668A,103.2417,35.6057,临夏回族自治州,建设大厦,,44,25,32,16,19,140,,121,121,3,10,9,8,0.2,0.3
2024-06-19T1700,1618A,118.3429,35.0532,临沂市,沂河小区,,34,24,49,10,17,107,,147,147,11,19,7,9,0.2,0.3
2024-06-19T1700,1619A,118.295,35.0583,临沂市,鲁南制药厂,,39,27,54,17,14,122,,165,165,2,13,7,9,0.4,0.4
2024-06-19T1700,1620A,118.2794,34.9976,临沂市,新光毛纺厂,,39,29,48,10,18,122,,162,162,7,19,4,8,0.5,0.6
2024-06-19T1700,1621A,118.3956,35.0888,临沂市,河东保险公司,,30,24,41,3,13,95,,140,140,4,18,3,5,0.2,0.3
2024-06-19T1700,3370A,118.3564,35.0215,临沂市,十里堡居委,,35,14,44,9,17,111,,159,159,7,16,6,9,0.4,0.5
2024-06-19T1700,3496A,118.3604,35.1084,临沂市,南坊新区,,33,31,58,3,12,105,,150,150,8,19,6,8,0.5,0.5
2024-06-19T1700,3860A,118.3920,35.0300,临沂市,皇山花园小区,,33,22,53,12,18,105,,152,151,11,22,8,10,0.7,0.6
2024-06-19T1700,1870A,109.4856,24.3895,柳州市,柳东小学,,,,8,,7,,,46,,,15,,7,,0.6
2024-06-19T1700,1871A,109.4157,24.3277,柳州市,环保监测站,,20,16,27,6,25,63,,62,62,7,16,6,6,0.5,0.7
2024-06-19T1700,1872A,109.389,24.341,柳州市,河西水厂,,33,28,28,23,19,66,,67,67,6,14,5,6,0.2,0.4
2024-06-19T1700,1873A,109.4311,24.2921,柳州市,市四中,,22,20,29,14,11,68,,68,68,5,16,4,5,0.4,0.6
2024-06-19T1700,1874A,109.4006,24.3631,柳州市,市九中,,,,29,15,12,48,,51,51,10,16,,7,0.6,0.6
2024-06-19T1700,1875A,109.4958,24.3134,柳州市,古亭山,,23,17,26,16,14,67,,69,69,8,17,5,6,0.4,0.4
2024-06-19T1700,3402A,109.5422,24.3996,柳州市,市二中,,20,15,23,3,11,64,,65,65,6,17,5,7,0.4,0.4
2024-06-19T1700,2307A,116.5079,31.737,六安市,监测大楼,,24,6,18,3,16,75,,117,74,8,9,4,5,0.5,0.4
2024-06-19T1700,2308A,116.4738,31.7643,六安市,皖西学院,,24,8,20,6,13,74,,121,82,11,7,3,4,0.5,0.4
2024-06-19T1700,2309A,116.4996,31.7905,六安市,朝阳厂,,23,10,19,6,14,72,,120,76,12,8,7,8,0.4,0.3
2024-06-19T1700,2310A,116.5567,31.7886,六安市,开发区,,26,6,21,3,12,82,,106,80,8,12,3,6,0.7,0.6
2024-06-19T1700,2576A,104.8,26.5892,六盘水市,窑上,,,,,,,,,,,,,,,,
2024-06-19T1700,2577A,104.83,26.5917,六盘水市,黄土坡,,26,21,22,14,14,81,,67,67,8,14,9,9,0.5,0.6
2024-06-19T1700,2578A,104.89,26.5939,六盘水市,水钢,,28,27,23,19,16,86,,75,75,5,10,10,10,0.4,0.4
2024-06-19T1700,2579A,104.8475,26.5894,六盘水市,民中,,27,21,19,17,17,86,,72,72,6,13,6,6,0.6,0.7
2024-06-19T1700,2580A,104.9544,26.5506,六盘水市,双水,,29,27,21,16,15,90,,75,75,6,9,7,7,0.3,0.3
2024-06-19T1700,2335A,117.0189,25.1181,龙岩市,龙岩师专,,,,,,,,,,,,,,,,
2024-06-19T1700,2336A,117.0217,25.1033,龙岩市,龙岩市监测站,,,,22,2,8,51,,49,49,7,13,4,4,0.3,0.5
2024-06-19T1700,2337A,117.0258,25.0661,龙岩市,闽西职业技术学院,,,,25,1,8,54,,54,54,4,12,3,3,0.3,0.4
2024-06-19T1700,2338A,117.0196,25.0306,龙岩市,龙岩学院,,,,17,,6,,,32,,,4,,3,,0.4
2024-06-19T1700,2665A,105.0822,33.3261,陇南市,汉王镇固水子,,,,,,,,,,,,,,,,
2024-06-19T1700,2885A,104.9339,33.3826,陇南市,滨江中学,,49,49,40,3,8,90,,89,89,5,8,7,7,0.4,0.4
2024-06-19T1700,3247A,104.955,33.371,陇南市,市总工会,,29,26,25,8,11,91,,91,91,4,4,4,4,0.3,0.3
2024-06-19T1700,2487A,111.9589,27.8901,娄底市,电视发射台,,24,21,18,7,4,74,,53,53,6,5,7,6,0.9,0.8
2024-06-19T1700,2488A,111.9975,27.725,娄底市,市监测站,,25,,24,17,19,55,,51,51,2,9,4,6,0.4,0.9
2024-06-19T1700,2489A,112.0194,27.7314,娄底市,市委党校,,21,21,15,14,9,53,,47,47,4,8,13,10,0.7,1
2024-06-19T1700,2490A,111.9561,27.7569,娄底市,涟钢,,23,23,20,10,11,49,,43,43,18,15,15,14,0.5,0.8
2024-06-19T1700,2491A,111.9892,27.7044,娄底市,市政府,,20,6,13,3,15,64,,57,57,3,7,6,6,0.8,1
2024-06-19T1700,1893A,105.4324,28.9634,泸州市,九狮山,,,,28,11,23,,,57,,,16,5,5,0.7,0.3
2024-06-19T1700,1894A,105.4427,28.9063,泸州市,小市上码头,,22,21,39,15,30,68,,39,,9,15,5,5,0.4,0.5
2024-06-19T1700,1895A,105.4241,28.8573,泸州市,兰田宪桥,,23,17,30,16,32,63,,66,66,20,13,4,4,0.2,0.3
2024-06-19T1700,1896A,105.4379,28.8833,泸州市,市环监站,,26,24,47,18,33,62,,61,60,15,16,5,6,0.5,0.6
2024-06-19T1700,3490A,105.3617,28.7703,泸州市,纳溪区环保局,,25,24,31,17,26,74,,64,64,21,23,3,3,0.8,0.6
2024-06-19T1700,2183A,111.1406,37.5211,吕梁市,环保局,臭氧1小时,106,40,59,19,21,211,,194,194,9,32,6,5,0.5,0.5
2024-06-19T1700,2185A,111.1297,37.5136,吕梁市,自来水公司,臭氧1小时,107,52,69,22,25,213,,194,194,10,34,6,6,0.5,0.5
2024-06-19T1700,2867A,111.1283,37.51,吕梁市,马茂庄小学,臭氧1小时,111,40,61,20,21,221,,212,212,10,41,5,5,0.4,0.6
2024-06-19T1700,1812A,112.3931,34.6516,洛阳市,市委党校,臭氧1小时,63,40,49,26,31,170,,181,181,4,13,3,7,0.6,0.7
2024-06-19T1700,1814A,112.4657,34.6871,洛阳市,豫西宾馆,臭氧1小时,83,48,53,37,31,186,,194,193,9,16,3,5,0.5,0.6
2024-06-19T1700,1815A,112.494,34.6886,洛阳市,河南林校,臭氧1小时,78,41,41,24,27,182,,186,186,10,17,4,6,0.4,0.5
2024-06-19T1700,1816A,112.3844,34.623,洛阳市,开发区管委会,,50,27,46,23,30,160,,172,172,7,15,7,10,0.4,0.5
2024-06-19T1700,1817A,112.4267,34.6258,洛阳市,市委新办公区,,,,42,,32,165,,178,176,5,13,5,9,0.5,0.5
2024-06-19T1700,3340A,112.6005,34.6326,洛阳市,伊滨,臭氧1小时,94,57,47,34,28,195,,180,180,10,16,7,7,0.5,0.4
2024-06-19T1700,3341A,112.4951,34.6332,洛阳市,中移产业园,臭氧1小时,58,40,45,28,32,166,,175,175,6,14,4,7,0.6,0.7
2024-06-19T1700,3593A,112.5736,34.8993,洛阳市,吉利监测站,臭氧1小时,104,49,50,34,28,207,,182,182,13,26,3,3,0.2,0.2
2024-06-19T1700,3635A,112.3677,34.662,洛阳市,河科大西苑校区,臭氧1小时,65,42,52,25,26,172,,183,183,2,13,6,9,0.4,0.5
2024-06-19T1700,3636A,112.4388,34.6781,洛阳市,英才小学,,50,48,49,24,26,160,,182,182,4,11,1,5,0.4,0.5
2024-06-19T1700,2399A,114.051,33.5699,漯河市,三五一五工厂,臭氧1小时,90,54,67,24,30,192,,188,188,14,26,6,8,0.6,0.7
2024-06-19T1700,2400A,114.0055,33.5698,漯河市,漯河大学,臭氧1小时,103,63,65,36,37,206,,194,194,17,24,6,9,0.5,0.5
2024-06-19T1700,2401A,114.0138,33.5828,漯河市,市水利局,臭氧1小时,103,58,61,24,29,206,,190,190,12,18,8,10,0.6,0.6
2024-06-19T1700,2402A,114.0261,33.5698,漯河市,市广电局,臭氧1小时,95,59,64,26,29,196,,188,188,14,23,4,7,0.5,0.6
2024-06-19T1700,3478A,113.9749,33.5664,漯河市,市图书馆,臭氧1小时,104,46,58,29,32,208,,194,194,12,16,3,6,0.5,0.5
2024-06-19T1700,3479A,114.0967,33.5906,漯河市,召陵区卫健委,臭氧1小时,95,67,71,32,34,196,,185,185,13,27,5,8,0.5,0.6
2024-06-19T1700,1798A,118.5092,31.6837,马鞍山市,湖东路四小,,16,15,24,11,17,46,,77,67,13,13,6,7,0.8,0.6
2024-06-19T1700,1799A,118.5024,31.6449,马鞍山市,开发区,,26,,31,18,17,47,,74,67,17,16,8,9,0.6,0.5
2024-06-19T1700,1800A,118.5228,31.7231,马鞍山市,慈湖,,17,14,29,9,18,53,,81,71,20,18,6,7,0.7,0.7
2024-06-19T1700,1802A,118.6245,31.7241,马鞍山市,濮塘,,14,8,21,6,15,44,,69,62,11,10,2,3,0.7,0.6
2024-06-19T1700,3633A,118.4918,31.6809,马鞍山市,雨山,,18,18,33,8,14,48,,80,70,16,13,4,6,0.9,0.7
2024-06-19T1700,1686A,111.0286,21.4688,茂名市,电白南海,,29,29,25,19,15,74,,80,80,5,4,4,4,0.5,0.5
2024-06-19T1700,1687A,110.9294,21.6533,茂名市,茂石化七小,,29,29,28,19,16,75,,77,77,8,9,7,7,0.5,0.5
2024-06-19T1700,1688A,110.9107,21.6687,茂名市,健康路,,26,22,27,14,11,83,,84,84,6,6,9,9,0.5,0.4
2024-06-19T1700,1689A,110.8592,21.6828,茂名市,高岭,,,,37,19,17,74,,72,72,,8,7,6,0.5,0.5
2024-06-19T1700,3450A,111.01,21.5165,茂名市,电白水东,,22,22,21,14,12,68,,72,72,10,7,3,3,0.5,0.5
2024-06-19T1700,2539A,104.0308,30.0478,眉山市,黑龙滩水库,,42,23,31,20,28,132,,102,102,4,10,5,5,0.4,0.4
2024-06-19T1700,2540A,103.8416,30.0874,眉山市,气象局,,33,28,25,19,28,103,,106,106,11,25,7,8,0.4,0.4
2024-06-19T1700,3137A,103.8578,30.0744,眉山市,市委党校,,33,27,31,19,18,104,,105,105,13,20,6,7,0.4,0.5
2024-06-19T1700,3148A,103.8291,30.0564,眉山市,区人社局,,36,26,30,14,19,113,,110,110,13,22,6,8,0.4,0.4
2024-06-19T1700,1690A,116.1231,24.3284,梅州市,梅江月梅,,,,25,4,8,43,,55,55,2,6,4,5,0.3,0.4
2024-06-19T1700,1691A,116.0797,24.2719,梅州市,梅县新城,,13,,16,8,8,41,,52,52,5,6,3,3,0.3,0.3
2024-06-19T1700,1692A,116.1248,24.2654,梅州市,环境监控中心,,,,25,7,8,30,,47,47,14,12,3,4,0.7,0.7
2024-06-19T1700,3315A,116.1233,24.2991,梅州市,梅龙,,13,7,17,3,7,40,,53,53,6,10,7,7,0.5,0.6
2024-06-19T1700,1878A,104.7778,31.4741,绵阳市,富乐山,,42,35,33,29,26,129,,117,117,4,11,8,8,0.5,0.6
2024-06-19T1700,1879A,104.7563,31.4535,绵阳市,市人大,,40,37,38,22,27,125,,115,115,11,18,6,9,0.4,0.5
2024-06-19T1700,1880A,104.6697,31.4668,绵阳市,高新区自来水公司,,45,34,37,19,21,144,,117,117,8,20,5,6,0.5,0.6
2024-06-19T1700,1881A,104.7287,31.5075,绵阳市,三水厂,,44,32,38,22,29,140,,114,114,7,23,5,7,0.4,0.5
2024-06-19T1700,3491A,104.69,31.5322,绵阳市,西科大附属小学,,46,30,41,20,27,145,,106,106,10,25,5,7,0.6,0.7
2024-06-19T1700,3492A,104.5648,31.5343,绵阳市,安州区旅游局,,,,30,,24,136,,99,99,9,17,7,8,0.6,0.6
2024-06-19T1700,1784A,129.61,44.561,牡丹江市,环保大楼,臭氧1小时,85,23,20,10,10,188,,162,162,13,14,8,7,0.5,0.4
2024-06-19T1700,1785A,129.6115,44.5782,牡丹江市,文化广场,臭氧1小时,80,51,37,21,22,184,,154,154,15,19,7,8,0.5,0.5
2024-06-19T1700,1786A,129.5904,44.5963,牡丹江市,第一医院,臭氧1小时,60,32,22,16,18,168,,153,153,11,16,5,5,0.6,0.5
2024-06-19T1700,1787A,129.6364,44.6075,牡丹江市,机车工厂,臭氧1小时,69,28,23,11,10,175,,151,151,7,14,5,16,0.5,0.4
2024-06-19T1700,1788A,129.6386,44.5462,牡丹江市,第一中学,臭氧1小时,95,33,24,15,9,196,,180,180,12,13,4,4,0.6,0.4
2024-06-19T1700,2531A,105.0703,29.61,内江市,市监测站,,35,,20,24,26,90,,83,83,18,19,6,6,0.6,0.5
2024-06-19T1700,2532A,105.0717,29.5947,内江市,东兴区政府,,29,14,27,10,15,92,,82,82,14,15,10,9,0.8,0.8
2024-06-19T1700,2533A,105.0653,29.5817,内江市,内江二中,,30,26,30,11,20,96,,81,81,12,17,8,8,0.5,0.6
2024-06-19T1700,2534A,105.0406,29.5822,内江市,内江日报社,,32,14,24,13,25,100,,84,84,20,21,8,8,0.6,0.6
2024-06-19T1700,2628A,92.0657,31.4846,那曲市,那曲监测站,,42,15,12,3,7,132,,132,132,6,6,6,6,0.7,0.6
2024-06-19T1700,3128A,92.0506,31.4797,那曲市,那曲会议中心,,44,11,12,3,9,138,,134,134,6,7,3,3,0.4,0.5
2024-06-19T1700,1290A,115.8931,28.6843,南昌市,省外办,,25,22,18,17,17,51,,30,30,10,18,6,5,0.3,0.6
2024-06-19T1700,1291A,115.8886,28.7003,南昌市,省林业公司,,25,22,16,17,12,55,,39,39,12,22,6,5,0.3,0.4
2024-06-19T1700,1292A,115.8126,28.7442,南昌市,林科所,,19,,12,9,10,58,,40,40,11,26,7,7,0.4,0.6
2024-06-19T1700,1294A,115.8518,28.687,南昌市,建工学校,,18,,17,9,6,56,,37,37,7,20,6,7,0.4,0.7
2024-06-19T1700,1295A,115.8921,28.6424,南昌市,象湖,,23,17,18,16,13,58,,36,36,8,20,7,5,0.4,0.6
2024-06-19T1700,1296A,115.7423,28.7996,南昌市,武术学校,,,,13,,17,177,,57,57,2,5,61,112,0.5,0.6
2024-06-19T1700,1298A,115.9314,28.6842,南昌市,省站,,26,,14,18,13,61,,46,46,6,14,6,6,0.6,0.8
2024-06-19T1700,3046A,115.9084,28.6062,南昌市,机电学校,,30,30,27,14,14,52,,34,34,7,22,11,9,0.5,0.7
2024-06-19T1700,3690A,115.9721,28.7031,南昌市,外国语学校,,22,22,21,13,13,52,,38,38,13,16,5,6,0.3,0.5
2024-06-19T1700,1905A,106.056,30.8064,南充市,西山风景区,,21,,22,12,19,66,,66,60,10,12,4,6,0.5,0.6
2024-06-19T1700,1906A,106.0789,30.8023,南充市,南充市委,,28,6,30,3,20,87,,67,67,6,17,4,5,0.3,0.5
2024-06-19T1700,1907A,106.1031,30.8217,南充市,南充炼油厂,,28,16,33,3,20,89,,76,76,6,14,6,8,0.2,0.4
2024-06-19T1700,1908A,106.1064,30.7856,南充市,高坪区监测站,,28,7,32,3,18,87,,75,75,8,15,6,8,0.2,0.4
2024-06-19T1700,1909A,106.0642,30.7636,南充市,嘉陵区环保局,,26,12,28,7,24,82,,65,65,10,18,4,5,0.3,0.4
2024-06-19T1700,1910A,106.1087,30.8388,南充市,市环境监测站,,27,9,28,3,18,84,,70,70,7,19,6,7,0.4,0.6
2024-06-19T1700,1151A,118.8086,32.1065,南京市,迈皋桥,,25,18,21,12,11,78,,84,84,18,10,4,5,0.4,0.4
2024-06-19T1700,1152A,118.7538,32.0551,南京市,草场门,,25,14,22,12,13,79,,84,84,20,17,2,3,0.6,0.5
2024-06-19T1700,1153A,118.7794,32.0745,南京市,山西路,,28,12,19,9,9,88,,92,92,17,9,3,4,0.4,0.3
2024-06-19T1700,1154A,118.7752,32.0023,南京市,中华门,,21,9,16,7,9,65,,72,72,16,11,6,7,0.6,0.5
2024-06-19T1700,1155A,118.8109,32.0309,南京市,瑞金路,,24,15,25,9,13,75,,78,78,8,10,6,6,0.3,0.3
2024-06-19T1700,1156A,118.7997,32.0754,南京市,玄武湖,,20,18,23,8,10,63,,68,68,12,11,2,4,0.5,0.4
2024-06-19T1700,1157A,118.6414,32.0931,南京市,浦口,,21,21,29,10,12,62,,76,76,22,15,5,6,0.3,0.3
2024-06-19T1700,1158A,118.7356,31.9996,南京市,奥体中心,,25,15,21,12,14,78,,85,85,14,11,5,6,0.4,0.3
2024-06-19T1700,1159A,118.9125,32.1028,南京市,仙林大学城,,31,14,21,14,12,98,,90,90,15,11,6,6,0.6,0.5
2024-06-19T1700,3422A,118.8436,31.9198,南京市,江宁彩虹桥,,23,23,26,14,14,52,,71,65,29,14,3,4,0.6,0.5
2024-06-19T1700,3423A,119.0138,31.6494,南京市,溧水永阳,,18,,16,11,12,57,,68,62,4,14,4,4,0.5,0.5
2024-06-19T1700,3424A,118.879,31.3302,南京市,高淳老职中,,16,9,11,3,8,50,,70,54,9,13,5,6,0.5,0.5
2024-06-19T1700,3427A,118.8554,32.3578,南京市,六合雄州,颗粒物(PM10),51,52,26,22,18,109,,105,105,28,21,5,2,0.7,0.5
2024-06-19T1700,1401A,108.3103,22.7881,南宁市,二十一中,,29,29,26,13,11,77,,75,75,7,8,2,2,0.7,0.8
2024-06-19T1700,1402A,108.3141,22.8528,南宁市,北湖,,47,47,28,12,11,68,,71,71,10,12,2,2,0.6,0.7
2024-06-19T1700,1403A,108.3206,22.8225,南宁市,市监测站,,22,,22,12,14,70,,73,73,12,11,2,2,0.7,0.7
2024-06-19T1700,1404A,108.3829,22.8037,南宁市,大自然花园,,24,20,23,14,14,75,,74,74,6,7,4,4,0.5,0.6
2024-06-19T1700,1405A,108.4394,22.7904,南宁市,仙葫,,26,22,25,18,16,78,,72,72,10,10,7,4,0.6,0.2
2024-06-19T1700,1406A,108.2397,22.8467,南宁市,区农职院,,24,24,27,8,12,69,,73,73,13,19,4,5,0.6,0.6
2024-06-19T1700,1407A,108.3275,22.735,南宁市,英华嘉园,,20,18,27,14,13,63,,64,64,14,14,5,5,0.5,0.6
2024-06-19T1700,1408A,108.2257,22.7757,南宁市,沙井镇街道办,,38,38,31,19,18,61,,64,64,9,23,2,2,0.6,0.7
2024-06-19T1700,3401A,108.4834,22.7618,南宁市,红星社区,,30,,26,21,14,75,,76,76,10,11,5,4,0.7,0.6
2024-06-19T1700,2331A,118.0966,26.6761,南平市,茫荡山,,,,,,,,,,,,,,,,
2024-06-19T1700,2332A,118.1681,26.6369,南平市,南平市监测站,,16,15,20,11,12,51,,57,57,8,12,3,4,0.5,0.8
2024-06-19T1700,2333A,118.1825,26.6489,南平市,南平铝业有限公司,,16,14,22,8,12,51,,55,55,6,10,4,5,0.4,0.6
2024-06-19T1700,2334A,118.1756,26.6272,南平市,南平七中,,28,28,22,8,11,56,,62,62,5,7,4,4,0.5,0.6
2024-06-19T1700,1168A,120.9098,31.9663,南通市,狼山街道,,14,12,10,3,2,44,,70,44,28,18,11,11,0.5,0.5
2024-06-19T1700,1169A,120.86,32.0005,南通市,虹桥,,,14,17,3,2,43,,67,46,34,19,,6,0.6,0.6
2024-06-19T1700,1170A,120.87,32.02,南通市,城中,,19,12,21,3,7,58,,70,56,27,18,5,6,0.5,0.4
2024-06-19T1700,1171A,120.94,31.93,南通市,星湖花园,,18,,7,3,2,41,,65,43,35,24,4,5,0.6,0.6
2024-06-19T1700,1172A,120.81,32.0417,南通市,紫琅学院,,23,6,8,3,2,41,,71,41,46,26,6,6,0.7,0.6
2024-06-19T1700,3291A,121.067,32.062,南通市,通州监测站,,18,14,13,3,0,55,,82,65,21,7,10,10,0.6,0.4
2024-06-19T1700,3432A,120.9348,31.9883,南通市,环境教育馆,,17,14,19,7,5,45,,69,50,34,25,8,8,0.5,0.5
2024-06-19T1700,2404A,112.5224,33.0122,南阳市,瓦房庄,细颗粒物(PM2.5),57,52,44,40,25,130,,131,131,20,21,6,5,0.4,0.3
2024-06-19T1700,2405A,112.5003,32.9735,南阳市,汉画馆,,49,49,52,34,29,131,,132,132,20,23,2,5,0.6,0.7
2024-06-19T1700,2406A,112.5573,33.027,南阳市,气象站,细颗粒物(PM2.5),52,45,44,36,24,134,,126,126,16,20,3,3,0.8,0.7
2024-06-19T1700,2407A,112.5481,32.9689,南阳市,理工学院,细颗粒物(PM2.5),57,54,51,40,29,141,,130,130,15,19,5,6,0.7,0.5
2024-06-19T1700,4008A,112.5234,32.9922,南阳市,卧龙区政府,细颗粒物(PM2.5),53,54,46,37,29,125,,126,126,23,23,3,2,0.9,0.7
2024-06-19T1700,1234A,121.8358,29.911,宁波市,区环保大楼,,36,36,11,13,6,51,,77,61,40,17,5,5,0.8,0.7
2024-06-19T1700,1235A,121.56,29.82,宁波市,万里学院,,20,19,13,14,6,53,,72,63,20,12,4,4,0.7,0.6
2024-06-19T1700,1236A,121.713,29.9572,宁波市,龙赛医院,颗粒物(PM10),53,56,21,21,10,45,,68,59,20,8,4,4,0.7,0.4
2024-06-19T1700,1239A,121.633,29.7733,宁波市,钱湖水厂,,22,22,8,11,4,64,,77,63,11,5,4,4,0.5,0.4
2024-06-19T1700,1240A,121.5856,29.8635,宁波市,太古小学,,15,12,13,10,5,47,,69,51,16,9,5,5,0.8,0.7
2024-06-19T1700,1241A,121.524,29.8674,宁波市,市环境监测中心,,24,24,13,7,6,59,,76,63,21,12,3,4,0.8,0.7
2024-06-19T1700,2871A,121.6147,29.9017,宁波市,万里国际学校,,19,12,8,10,6,59,,76,63,12,7,4,4,0.4,0.3
2024-06-19T1700,3710A,121.5594,29.8975,宁波市,白沙活动中心,,18,18,12,11,6,54,,74,51,17,10,8,7,0.5,0.4
2024-06-19T1700,2339A,119.5001,26.6946,宁德市,金涵水库,,,,,,,,,,,,,,,,
2024-06-19T1700,2341A,119.5388,26.6612,宁德市,宁德市监测站,,34,29,28,14,22,108,,94,94,15,13,5,5,1.2,0.7
2024-06-19T1700,3209A,119.5231,26.6562,宁德市,宁德一中,,41,41,28,27,16,114,,98,98,15,10,6,5,1.4,0.8
2024-06-19T1700,2618A,98.8601,25.8567,怒江傈僳族自治州,州监测站,,32,31,33,22,23,90,,74,74,13,12,9,9,0.4,0.5
2024-06-19T1700,2619A,98.8546,25.8417,怒江傈僳族自治州,泸水一中,,38,38,31,20,21,85,,60,60,8,13,5,5,0.3,0.4
2024-06-19T1700,1888A,101.6891,26.571,攀枝花市,弄弄坪,,34,23,57,13,19,106,,110,109,10,28,12,25,0.3,0.7
2024-06-19T1700,1889A,101.5769,26.5928,攀枝花市,河门口,,32,26,33,16,18,100,,107,107,18,22,30,12,1.2,1.2
2024-06-19T1700,1890A,101.7169,26.585,攀枝花市,炳草岗,,36,23,40,14,19,114,,117,117,9,25,8,29,0.4,0.7
2024-06-19T1700,1891A,101.7369,26.5008,攀枝花市,仁和,,35,25,26,15,13,111,,106,106,7,10,7,8,0.3,0.4
2024-06-19T1700,2835A,101.7227,26.567,攀枝花市,四十中小,,38,32,35,19,20,121,,124,124,4,17,7,36,0.3,0.4
2024-06-19T1700,1604A,122.0303,41.1489,盘锦市,开发区,,47,34,45,3,22,148,,155,149,13,14,4,5,0.2,0.3
2024-06-19T1700,1605A,122.0485,41.0883,盘锦市,兴隆台,,47,18,34,7,27,148,,149,149,12,15,5,5,0.1,0.4
2024-06-19T1700,1606A,121.8297,41.1028,盘锦市,新生街道,,45,24,37,8,23,142,,162,137,12,12,5,6,0.1,0.2
2024-06-19T1700,1832A,113.3257,33.742,平顶山市,新华旅馆,臭氧1小时,114,51,75,31,35,228,,204,204,17,32,11,9,0.5,0.5
2024-06-19T1700,1833A,113.2919,33.737,平顶山市,规划设计院,臭氧1小时,115,44,54,25,34,230,,196,196,16,27,8,7,0.6,0.7
2024-06-19T1700,1834A,113.182,33.774,平顶山市,平顶山工学院,臭氧1小时,108,38,61,22,29,215,,185,185,12,26,7,7,0.5,0.6
2024-06-19T1700,3204A,113.3025,33.73,平顶山市,规划局,臭氧1小时,113,58,68,33,35,226,,200,200,17,26,6,7,0.4,0.5
2024-06-19T1700,3594A,112.8867,33.9116,平顶山市,石龙区,臭氧1小时,115,75,80,36,37,230,,198,198,7,26,7,8,0.6,0.6
2024-06-19T1700,2656A,106.6692,35.5461,平凉市,聚贤嘉苑,,41,32,38,9,15,131,,134,134,10,28,9,9,0.5,0.5
2024-06-19T1700,2657A,106.7021,35.5307,平凉市,博物馆,,44,37,38,12,16,138,,134,134,22,36,26,19,0.3,0.4
2024-06-19T1700,2347A,114.0997,27.5002,萍乡市,武功山,,18,,4,3,3,57,,50,50,2,2,9,9,0.4,0.4
2024-06-19T1700,2348A,113.8385,27.6434,萍乡市,中医院,,16,11,23,10,16,51,,39,39,5,7,10,10,1.0,0.9
2024-06-19T1700,2349A,113.8493,27.6253,萍乡市,市政府车库,,16,8,17,7,19,50,,37,37,1,8,10,14,0.5,0.9
2024-06-19T1700,2350A,113.8676,27.6435,萍乡市,市环保局,,20,,23,14,16,58,,41,41,4,8,5,12,0.4,0.6
2024-06-19T1700,2351A,113.866,27.6198,萍乡市,安源区政府,,50,50,25,3,14,43,,37,37,2,9,10,15,0.3,0.7
2024-06-19T1700,2319A,119.0141,25.4325,莆田市,荔城区仓后路,,,,38,0,19,48,,56,56,7,14,6,7,0.5,0.6
2024-06-19T1700,2320A,119.0015,25.4553,莆田市,莆田市监测站,,16,16,40,3,11,47,,56,56,5,13,8,9,0.6,0.7
2024-06-19T1700,2321A,119.1119,25.4561,莆田市,涵江区六中,,15,6,29,3,12,45,,57,57,9,18,8,8,0.5,0.6
2024-06-19T1700,2322A,119.1013,25.3215,莆田市,秀屿区政府,,16,6,28,3,13,50,,52,51,11,8,9,9,0.4,0.5
2024-06-19T1700,2323A,118.981,25.4792,莆田市,东圳水库,,,,,,,,,,,,,,,,
2024-06-19T1700,2392A,115.0312,35.7636,濮阳市,环保局,臭氧1小时,108,32,44,18,23,216,,203,203,10,16,9,10,0.2,0.3
2024-06-19T1700,2394A,115.0574,35.7609,濮阳市,油田运输公司,臭氧1小时,112,35,49,16,22,224,,215,215,17,17,10,11,0.4,0.5
2024-06-19T1700,2395A,115.0866,35.7754,濮阳市,油田物探公司,臭氧1小时,115,36,49,16,25,229,,213,213,10,14,8,9,0.4,0.5
2024-06-19T1700,3021A,115,35.7668,濮阳市,濮水河管理处,臭氧1小时,102,31,47,13,24,203,,194,194,7,13,8,9,0.3,0.4
2024-06-19T1700,2601A,100.98,22.7633,普洱市,市环保局,,26,25,26,18,19,68,,70,69,6,7,8,7,0.3,0.5
2024-06-19T1700,2602A,100.9817,22.8322,普洱市,普洱第二中学,,28,28,26,8,12,67,,68,68,5,9,10,9,0.1,0.4
2024-06-19T1700,2262A,131.0518,45.8751,七台河市,新一中,,32,32,21,17,13,66,,71,69,10,10,10,10,0.7,0.7
2024-06-19T1700,3345A,131.0577,45.7879,七台河市,中波台,,19,11,22,6,7,58,,54,53,10,22,8,9,0.2,0.5
2024-06-19T1700,3637A,131.0176,45.7761,七台河市,人民广场,,21,14,28,10,14,65,,53,53,11,20,11,12,0.4,0.5
2024-06-19T1700,3684A,130.8781,45.8222,七台河市,新建矿广场,,32,,37,22,17,71,,47,47,18,28,18,11,0.2,0.2
2024-06-19T1700,1779A,123.9305,47.3636,齐齐哈尔市,安居小区,,31,26,28,13,13,98,,90,90,15,18,7,7,0.4,0.4
2024-06-19T1700,1780A,123.9488,47.3386,齐齐哈尔市,中心广场,,32,31,25,6,9,100,,94,94,16,15,9,10,0.3,0.3
2024-06-19T1700,1781A,123.9483,47.3227,齐齐哈尔市,农牧车辆厂,,36,36,33,10,8,106,,98,98,13,13,8,8,0.2,0.2
2024-06-19T1700,1783A,123.945,47.2988,齐齐哈尔市,市环境监测站,,,,22,,9,,,93,93,12,13,6,6,0.4,0.3
2024-06-19T1700,3662A,123.6333,47.2075,齐齐哈尔市,富区青少年活动中心,,35,20,26,8,6,110,,104,104,9,13,5,5,0.3,0.3
2024-06-19T1700,2591A,107.9783,26.5747,黔东南苗族侗族自治州,市环境监测站,,27,27,16,16,10,46,,36,36,18,11,3,3,0.5,0.6
2024-06-19T1700,2881A,107.8908,26.5311,黔东南苗族侗族自治州,凯里学院,,18,17,12,12,8,51,,39,39,2,5,3,3,0.3,0.4
2024-06-19T1700,2593A,107.5228,26.2403,黔南布依族苗族自治州,小围寨,,32,,4,22,4,54,,47,47,2,4,5,4,0.5,0.5
2024-06-19T1700,3538A,107.5175,26.2978,黔南布依族苗族自治州,沙坝,,16,9,3,9,2,49,,41,41,3,4,4,4,0.5,0.5
2024-06-19T1700,2589A,104.9022,25.0925,黔西南布依族苗族自治州,场坝街,,21,11,12,9,7,65,,53,53,6,11,3,3,0.4,0.5
2024-06-19T1700,2590A,104.8811,25.0992,黔西南布依族苗族自治州,坪东大道,,21,12,13,8,7,66,,56,56,4,9,3,3,0.1,0.3
2024-06-19T1700,2502A,108.6236,21.9667,钦州市,市环保站,,31,31,32,7,9,79,,79,79,12,13,6,6,0.6,0.6
2024-06-19T1700,2503A,108.6549,21.9481,钦州市,沙埠小学,,35,35,35,23,18,86,,83,83,7,13,5,4,0.7,0.5
2024-06-19T1700,2504A,108.5989,21.7431,钦州市,港区一小,,45,45,38,15,14,83,,79,79,9,6,6,6,0.6,0.5
2024-06-19T1700,3404A,108.5959,21.9633,钦州市,北职校,,25,20,28,13,13,78,,75,75,6,11,5,6,0.5,0.5
2024-06-19T1700,1042A,119.5134,39.8207,秦皇岛市,北戴河环保局,,50,39,55,3,14,157,,126,126,6,9,3,3,0.2,0.3
2024-06-19T1700,1043A,119.7493,40.0116,秦皇岛市,第一关,,50,42,54,11,20,158,,129,129,5,13,3,2,0.1,0.2
2024-06-19T1700,1044A,119.5897,39.9499,秦皇岛市,监测站,,50,47,55,14,17,157,,130,130,2,6,2,2,0.3,0.4
2024-06-19T1700,1046A,119.5251,39.9041,秦皇岛市,建设大厦,,48,39,51,8,14,152,,124,124,6,16,3,3,0.1,0.3
2024-06-19T1700,3132A,119.610547,39.943889,秦皇岛市,文明里,,49,47,55,18,22,155,,123,123,2,7,3,3,0.3,0.4
2024-06-19T1700,1307A,120.6659,36.2403,青岛市,仰口,,30,19,19,12,10,94,,115,96,2,4,5,4,0.2,0.2
2024-06-19T1700,1310A,120.4134,36.0658,青岛市,市南区东部子站,,32,14,14,3,4,102,,106,106,5,7,8,8,0.4,0.4
2024-06-19T1700,1311A,120.3664,36.1032,青岛市,四方区子站,,34,27,19,9,10,107,,107,107,13,14,10,9,0.4,0.4
2024-06-19T1700,1312A,120.2994,36.054,青岛市,市南区西部子站,,35,19,16,7,8,111,,110,110,4,12,8,8,0.4,0.4
2024-06-19T1700,1313A,120.4581,36.0858,青岛市,崂山区子站,,33,12,12,9,6,104,,110,109,7,10,9,9,0.4,0.4
2024-06-19T1700,1314A,120.1983,35.9608,青岛市,黄岛区子站,,34,17,16,10,8,106,,106,106,6,7,6,6,0.4,0.4
2024-06-19T1700,1315A,120.3999,36.3083,青岛市,城阳区子站,,37,19,18,7,9,118,,117,117,11,15,7,7,0.4,0.4
2024-06-19T1700,1966A,120.0405,35.8735,青岛市,黄岛区4号,,35,7,15,7,6,110,,109,109,6,9,9,8,0.4,0.4
2024-06-19T1700,3362A,120.5014,36.4034,青岛市,即墨2号,,35,19,16,8,8,110,,128,124,7,10,6,6,0.4,0.4
2024-06-19T1700,3642A,120.3503,36.0736,青岛市,市北区南部,,34,16,16,3,6,108,,108,108,8,9,6,7,0.6,0.6
2024-06-19T1700,3643A,120.3948,36.1805,青岛市,李沧区北部,,38,17,18,12,11,119,,115,115,14,18,9,9,0.4,0.4
2024-06-19T1700,1702A,113.0426,23.691,清远市,环保大楼,,44,23,25,8,13,140,,99,99,13,18,5,8,0.6,0.6
2024-06-19T1700,1703A,113.0208,23.7106,清远市,凤城街办,,42,24,31,24,14,133,,91,91,8,15,4,4,0.4,0.5
2024-06-19T1700,3025A,113.0477,23.6344,清远市,技师学院,,48,28,37,13,21,153,,109,109,13,24,4,4,0.5,0.6
2024-06-19T1700,3318A,112.9903,23.7403,清远市,清新太和,,41,31,30,11,12,129,,81,81,12,18,7,3,0.4,0.6
2024-06-19T1700,3455A,113.076,23.7198,清远市,清城东城,,44,35,31,16,13,138,,93,93,8,12,5,5,0.6,0.6
2024-06-19T1700,2661A,107.6325,35.7357,庆阳市,庆阳五中,,50,34,32,15,15,160,,139,139,9,10,2,3,0.3,0.3
2024-06-19T1700,2662A,107.6364,35.7067,庆阳市,市环保局,臭氧1小时,52,30,27,11,12,161,,138,138,6,7,4,6,0.4,0.4
2024-06-19T1700,1916A,103.7897,25.5035,曲靖市,环境监测站,,32,27,28,11,16,100,,84,84,7,9,2,3,0.7,0.7
2024-06-19T1700,1917A,103.8,25.5364,曲靖市,烟厂办公区,,34,18,25,11,15,106,,86,86,5,9,4,4,0.4,0.5
2024-06-19T1700,3376A,103.7947,25.462,曲靖市,南苑二区,,34,17,22,13,15,108,,90,90,5,9,4,4,0.5,0.6
2024-06-19T1700,3377A,103.7444,25.5261,曲靖市,曲靖师范学院,,,,24,,16,112,,92,92,6,10,4,6,,0.6
2024-06-19T1700,1264A,118.8692,28.9398,衢州市,环保大楼,,35,32,22,24,15,69,,52,52,22,25,4,4,0.5,0.4
2024-06-19T1700,1265A,118.8709,28.9666,衢州市,实验学校,,39,36,25,27,17,68,,51,51,17,21,3,7,0.4,0.3
2024-06-19T1700,1266A,118.8621,28.9808,衢州市,衢州学院,,45,,20,31,21,67,,45,45,16,23,3,3,0.6,0.5
2024-06-19T1700,1611A,118.5819,24.9117,泉州市,涂山街,,25,25,17,6,6,46,,46,46,10,13,2,3,0.5,0.4
2024-06-19T1700,1612A,118.5972,24.8978,泉州市,津头埔,,27,27,18,6,8,43,,44,44,14,17,1,2,0.5,0.5
2024-06-19T1700,1613A,118.6663,24.9424,泉州市,万安,,16,16,16,9,7,48,,46,46,9,12,2,2,0.3,0.3
2024-06-19T1700,1614A,118.6117,24.9604,泉州市,清源山,,,,,,,,,,,,,,,,
2024-06-19T1700,3529A,118.6333,24.9264,泉州市,城华南路,,14,12,16,3,6,42,,43,43,12,17,2,2,0.4,0.4
2024-06-19T1700,2626A,88.8876,29.2718,日喀则市,日喀则监测站,,42,17,15,6,6,132,,121,121,5,6,6,5,0.5,0.6
2024-06-19T1700,3726A,88.8781,29.2426,日喀则市,林业技术推广中心,,41,40,18,3,5,131,,122,122,7,7,4,4,0.5,0.5
2024-06-19T1700,1659A,119.471,35.4209,日照市,监测站,,34,22,22,10,10,108,,112,109,10,18,9,9,0.3,0.2
2024-06-19T1700,1660A,119.523,35.4216,日照市,市政府广场,,34,22,20,11,6,106,,113,108,5,8,9,10,0.4,0.4
2024-06-19T1700,1661A,119.5587,35.4044,日照市,港务局,,35,19,19,3,5,112,,116,114,4,7,8,8,0.4,0.4
2024-06-19T1700,3507A,119.5328,35.4625,日照市,职业技术学院,,34,19,16,3,7,107,,112,110,6,9,8,8,0.5,0.5
2024-06-19T1700,3604A,119.3266,35.1044,日照市,岚山环保分局,,31,19,32,3,8,99,,108,103,14,15,6,7,0.4,0.4
2024-06-19T1700,1835A,111.1922,34.7752,三门峡市,市政府,,,,33,,17,146,,134,134,10,29,7,9,0.5,0.4
2024-06-19T1700,1836A,111.1587,34.7942,三门峡市,开发区,臭氧1小时,53,32,34,19,19,162,,152,152,16,19,9,11,0.7,0.7
2024-06-19T1700,1838A,111.143,34.7955,三门峡市,风景区,,,,,,,,,,,,,,,,
2024-06-19T1700,3039A,111.1911,34.7829,三门峡市,三门峡市第一小学,,49,31,36,19,14,156,,142,142,7,19,7,9,0.6,0.6
2024-06-19T1700,3598A,111.1,34.7167,三门峡市,富达温泉假日酒店,,42,24,36,16,19,133,,133,133,7,15,10,11,0.4,0.5
2024-06-19T1700,2324A,117.6211,26.2625,三明市,三钢,,37,37,31,13,13,50,,59,59,18,16,20,10,1.8,1.3
2024-06-19T1700,2325A,117.635,26.2714,三明市,三明二中,,20,14,30,11,15,61,,66,66,8,13,7,7,0.7,0.9
2024-06-19T1700,2326A,117.6028,26.2378,三明市,三元区政府,,23,23,32,3,11,54,,64,64,10,15,2,5,0.4,0.6
2024-06-19T1700,2327A,117.7275,26.3108,三明市,洋溪,,,,,,,,,,,,,,,,
2024-06-19T1700,1876A,109.5078,18.2489,三亚市,河东子站,,25,22,21,11,11,77,,84,84,2,5,3,3,0.3,0.4
2024-06-19T1700,1877A,109.4964,18.2681,三亚市,河西子站,,24,16,21,13,14,76,,81,81,2,6,1,1,0.2,0.2
2024-06-19T1700,3540A,109.7348,18.3443,三亚市,君悦子站,,45,45,23,9,10,74,,79,79,4,7,1,2,0.2,0.3
2024-06-19T1700,2624A,91.7608,29.2313,山南市,山南监测站,,39,,8,3,5,123,,112,112,5,6,5,4,0.3,0.3
2024-06-19T1700,2625A,91.7706,29.2436,山南市,山南人民医院,,38,27,23,12,11,120,,109,109,10,10,6,6,0.4,0.3
2024-06-19T1700,1674A,116.6794,23.3667,汕头市,金平子站,,15,13,11,3,4,45,,42,42,6,9,2,2,0.8,0.6
2024-06-19T1700,1675A,116.7244,23.3633,汕头市,龙湖子站,,15,15,14,3,5,37,,32,32,5,11,5,5,0.6,0.6
2024-06-19T1700,1676A,116.7258,23.2775,汕头市,濠江子站,,18,18,17,3,7,38,,40,40,3,3,4,4,0.8,0.7
2024-06-19T1700,1677A,116.7519,23.4714,汕头市,澄海子站,,29,29,16,8,8,32,,31,31,15,12,6,5,0.7,0.7
2024-06-19T1700,1678A,116.6092,23.2539,汕头市,潮阳子站,,19,19,14,3,5,46,,42,42,5,7,4,4,0.5,0.4
2024-06-19T1700,3444A,116.454,23.2684,汕头市,潮南峡山,,10,10,18,3,10,32,,36,36,7,8,4,4,0.4,0.5
2024-06-19T1700,3624A,116.4069,23.2533,汕头市,潮南子站,,15,15,19,7,7,29,,39,38,13,6,6,6,0.7,0.7
2024-06-19T1700,1693A,115.3653,22.775,汕尾市,市环保局,,,16,23,3,6,45,,44,44,,3,4,4,0.5,0.5
2024-06-19T1700,1694A,115.3706,22.7898,汕尾市,市政府,,16,16,13,3,5,48,,47,47,2,2,6,6,0.5,0.5
2024-06-19T1700,1695A,115.3622,22.7925,汕尾市,新城中学,,32,32,16,3,5,50,,50,50,2,3,4,4,0.4,0.4
2024-06-19T1700,2645A,109.9154,33.8715,商洛市,监测站,,34,30,39,21,22,107,,120,120,4,13,9,8,0.5,0.6
2024-06-19T1700,3045A,109.9643,33.8471,商洛市,商州区中学,颗粒物(PM10),61,72,44,25,23,110,,117,117,4,17,14,12,0.8,0.8
2024-06-19T1700,2408A,115.6702,34.4285,商丘市,环境监测站,臭氧1小时,119,44,52,21,24,237,,228,228,10,15,10,11,0.3,0.4
2024-06-19T1700,2409A,115.6458,34.4045,商丘市,粮食局,臭氧1小时,114,49,51,25,24,227,,220,220,10,13,5,7,0.5,0.4
2024-06-19T1700,2410A,115.6293,34.3948,商丘市,睢阳区环保局,臭氧1小时,119,54,54,24,24,237,,226,226,10,14,7,8,0.4,0.4
2024-06-19T1700,3171A,115.6071,34.4465,商丘市,梁园区档案局,臭氧1小时,120,48,49,20,24,240,,228,228,10,13,9,10,0.5,0.5
2024-06-19T1700,1141A,121.4,31.238,上海市,普陀,,18,15,15,8,10,57,,82,50,17,17,5,5,0.4,0.3
2024-06-19T1700,1142A,121.478,31.2036,上海市,十五厂,,16,15,15,11,9,51,,82,50,23,21,6,7,0.6,0.5
2024-06-19T1700,1143A,121.467,31.3008,上海市,虹口,,16,14,15,8,9,50,,80,49,20,18,4,4,0.5,0.4
2024-06-19T1700,1144A,121.412,31.1654,上海市,徐汇上师大,,18,18,15,12,10,50,,83,47,30,22,8,8,0.6,0.6
2024-06-19T1700,1145A,121.536,31.2659,上海市,杨浦四漂,,16,16,17,8,8,45,,76,53,26,25,6,7,0.7,0.6
2024-06-19T1700,1147A,121.425,31.2261,上海市,静安监测站,,17,14,14,11,10,54,,82,49,20,19,7,8,0.5,0.5
2024-06-19T1700,1148A,121.703,31.1907,上海市,浦东川沙,,19,,13,13,10,46,,86,56,24,18,6,5,0.6,0.5
