timepoint,stationcode,longitude,latitude,area,positionname,primarypollutant,aqi,pm10,pm10_24h,pm2_5,pm2_5_24h,o3,o3_24h,o3_8h,o3_8h_24h,no2,no2_24h,so2,so2_24h,co,co_24h
2024-06-19T0800,2566A,102.1879,31.914,阿坝藏族羌族自治州,州农科所,,,20,26,10,11,17,,23,23,17,12,3,3,,
2024-06-19T0800,2568A,102.2502,31.8896,阿坝藏族羌族自治州,马师校,,18,,12,12,12,33,,40,40,13,12,5,5,0.4,0.3
2024-06-19T0800,3994A,102.2165,31.9024,阿坝藏族羌族自治州,马尔康中学西区,,22,18,15,15,11,37,,42,42,8,4,6,6,0.3,0.3
2024-06-19T0800,2695A,80.292,41.1694,阿克苏地区,电视台,,34,34,60,16,20,56,,49,49,28,19,5,5,0.5,0.5
2024-06-19T0800,2696A,80.2613,41.1551,阿克苏地区,艺术中心,,48,48,64,22,22,44,,22,22,33,31,4,4,0.6,0.6
2024-06-19T0800,2204A,105.6467,38.8363,阿拉善盟,西城区西花园,颗粒物(PM10),52,53,48,14,18,120,,136,136,15,10,9,9,0.6,0.5
2024-06-19T0800,2205A,105.6985,38.8411,阿拉善盟,蒙二幼,颗粒物(PM10),55,59,52,24,20,119,,132,132,8,8,13,12,0.6,0.5
2024-06-19T0800,2206A,105.724,38.8516,阿拉善盟,环保局新楼,颗粒物(PM10),55,59,54,21,19,130,,140,140,8,7,11,10,0.4,0.4
2024-06-19T0800,2708A,88.1264,47.8517,阿勒泰地区,市站,,22,22,29,3,9,53,,30,30,10,13,6,6,0.6,0.6
2024-06-19T0800,2630A,80.1161,32.5,阿里地区,阿里监测站,,35,13,28,10,12,112,,134,134,18,8,5,6,0.4,0.4
2024-06-19T0800,3192A,80.0903,32.5028,阿里地区,阿里藏医院,,42,17,22,8,10,134,,141,141,5,5,6,6,0.4,0.4
2024-06-19T0800,2642A,109.0318,32.6537,安康市,香溪洞,,16,16,23,11,12,27,,43,43,4,5,6,6,0.6,0.6
2024-06-19T0800,2643A,109.0281,32.6939,安康市,安康市监测站,,33,33,31,13,14,43,,35,35,8,8,8,8,0.6,0.6
2024-06-19T0800,2644A,109.0072,32.6975,安康市,汉滨区检察院,,28,28,25,17,17,29,,30,30,10,7,7,7,0.6,0.5
2024-06-19T0800,2291A,117.0809,30.5177,安庆市,环科院,,10,9,25,7,15,32,,34,34,16,17,4,5,0.5,0.6
2024-06-19T0800,2292A,117.0331,30.5119,安庆市,马山宾馆,,15,10,24,10,16,25,,32,32,30,27,6,8,0.6,0.7
2024-06-19T0800,2294A,116.9896,30.6145,安庆市,安庆大学,,23,,29,16,18,29,,35,35,16,13,7,8,0.3,0.3
2024-06-19T0800,3173A,117.0598,30.5351,安庆市,市人大,,13,10,22,9,16,27,,35,35,21,17,5,7,0.4,0.4
2024-06-19T0800,3122A,105.9606,26.2611,安顺市,伍家关,,,,,,,,,,,,,,,,
2024-06-19T0800,3123A,105.9408,26.2431,安顺市,凤凰山,,17,12,19,7,14,52,,52,52,10,8,5,10,1.0,0.9
2024-06-19T0800,3124A,105.9439,26.2564,安顺市,金钟山,,18,9,18,6,17,57,,52,52,6,8,4,8,0.6,0.7
2024-06-19T0800,3125A,105.8983,26.2481,安顺市,娄家坡,,18,12,26,7,14,55,,54,54,4,8,4,9,0.9,0.9
2024-06-19T0800,1818A,114.4839,36.0621,安阳市,棉研所,,,,,,,,,,,,,,,,
2024-06-19T0800,1819A,114.3551,36.1017,安阳市,红庙街,,,60,56,28,26,115,,113,113,,6,5,5,0.6,0.6
2024-06-19T0800,1820A,114.361,36.0681,安阳市,银杏小区,颗粒物(PM10),51,52,54,23,22,111,,107,107,24,17,10,9,0.8,0.9
2024-06-19T0800,3141A,114.3922,36.0878,安阳市,信访局,颗粒物(PM10),57,63,61,30,22,117,,113,113,14,7,7,7,0.7,0.7
2024-06-19T0800,3669A,114.4705,36.0637,安阳市,左辅环卫站,"颗粒物(PM10),细颗粒物(PM2.5)",62,73,51,44,27,122,,103,103,18,12,4,4,0.4,0.4
2024-06-19T0800,3703A,114.2917,36.0949,安阳市,安钢职工学校,颗粒物(PM10),56,62,64,38,29,101,,99,99,22,12,7,6,0.7,0.7
2024-06-19T0800,1748A,123.044,41.1196,鞍山市,深沟寺,,44,22,42,8,21,138,,170,170,13,14,11,14,0.4,0.7
2024-06-19T0800,1749A,123.011,41.0931,鞍山市,太阳城,,44,29,45,14,22,140,,170,170,15,15,9,11,0.7,0.9
2024-06-19T0800,1750A,123.0485,41.1442,鞍山市,太平,,42,21,40,9,20,134,,165,165,12,13,8,10,0.5,0.8
2024-06-19T0800,1751A,122.9642,41.0971,鞍山市,铁西三道街,,43,34,54,17,26,137,,171,171,20,19,6,9,0.5,0.8
2024-06-19T0800,1752A,122.9341,41.0833,鞍山市,铁西工业园区,,45,32,47,15,25,141,,167,167,12,18,8,11,0.6,0.8
2024-06-19T0800,1753A,123.022,41.0821,鞍山市,明达新区,,42,33,47,14,22,132,,166,166,11,12,9,11,0.5,0.8
2024-06-19T0800,1754A,123.1289,41.0228,鞍山市,千山,,,,,,,,,,,,,,,,
2024-06-19T0800,2195A,107.4212,40.761,巴彦淖尔市,附二中,,,,71,39,32,,,96,96,34,16,6,8,0.8,0.6
2024-06-19T0800,2196A,107.37,40.7372,巴彦淖尔市,市环保大楼,颗粒物(PM10),66,82,74,34,25,64,,89,89,22,12,4,5,0.6,0.5
2024-06-19T0800,1956A,86.1472,41.7538,巴音郭楞蒙古自治州,孔雀公园,颗粒物(PM10),161,272,513,57,110,20,,76,76,50,11,2,2,0.3,0.2
2024-06-19T0800,1957A,86.1972,41.7166,巴音郭楞蒙古自治州,棉纺厂,颗粒物(PM10),165,279,320,67,81,36,,87,87,33,10,3,4,0.2,0.2
2024-06-19T0800,1958A,86.2357,41.7173,巴音郭楞蒙古自治州,经济开发区,颗粒物(PM10),182,314,328,62,68,51,,91,91,16,7,1,2,0.2,0.2
2024-06-19T0800,2914A,106.7677,31.8794,巴中市,苏山坪,,21,21,19,12,11,55,,66,66,6,11,5,4,0.7,0.7
2024-06-19T0800,3182A,106.7656,31.8545,巴中市,丽阳花园,,22,20,20,15,14,37,,38,38,16,16,6,6,0.6,0.6
2024-06-19T0800,3183A,106.7418,31.8654,巴中市,圣泉水务公司,,,18,19,14,13,,,40,40,17,19,,5,0.6,0.6
2024-06-19T0800,3616A,106.7616,31.8344,巴中市,市中心医院,,25,24,19,17,13,27,,31,31,18,13,5,5,0.7,0.5
2024-06-19T0800,2235A,122.7911,45.6077,白城市,洮北区环保局,细颗粒物(PM2.5),94,76,27,70,17,122,,95,95,18,12,4,3,0.5,0.1
2024-06-19T0800,2236A,122.8738,45.5725,白城市,市环保局,颗粒物(PM10),59,68,24,40,10,96,,87,87,19,12,5,6,0.6,0.3
2024-06-19T0800,2231A,126.4219,41.9171,白山市,喜丰,颗粒物(PM10),60,69,44,26,21,35,,21,21,39,19,16,11,1.3,1.1
2024-06-19T0800,2232A,126.4077,41.9419,白山市,环保局,颗粒物(PM10),54,57,44,31,25,52,,26,26,27,17,15,11,1.0,0.9
2024-06-19T0800,2647A,104.1724,36.5446,白银市,第三小学,颗粒物(PM10),62,74,110,29,39,54,,68,68,29,26,18,16,0.7,0.7
2024-06-19T0800,2648A,104.1465,36.5482,白银市,动力公司,颗粒物(PM10),53,56,93,23,30,48,,55,55,12,17,10,14,0.4,0.4
2024-06-19T0800,2512A,106.6103,23.9011,百色市,市监测站,颗粒物(PM10),56,62,38,37,21,17,,30,30,23,13,24,18,1.0,0.9
2024-06-19T0800,2513A,106.6538,23.8859,百色市,市中心血站,细颗粒物(PM2.5),59,62,36,42,22,30,,42,42,21,11,23,13,1.0,0.9
2024-06-19T0800,3406A,106.6085,23.8798,百色市,祈福高中,颗粒物(PM10),57,64,43,38,22,23,,27,27,23,16,30,18,1.0,1
2024-06-19T0800,2270A,117.396,32.939,蚌埠市,工人疗养院,,50,50,49,21,19,100,,110,110,24,17,13,11,0.5,0.4
2024-06-19T0800,2271A,117.3605,32.9427,蚌埠市,百货大楼,颗粒物(PM10),53,56,48,35,22,108,,120,120,22,15,9,7,0.6,0.5
2024-06-19T0800,2273A,117.4185,32.8911,蚌埠市,蚌埠学院,,36,36,44,23,21,108,,112,112,12,12,7,8,0.6,0.5
2024-06-19T0800,2274A,117.3533,32.9673,蚌埠市,淮上区政府,颗粒物(PM10),53,56,48,33,25,104,,118,118,23,15,10,8,0.5,0.4
2024-06-19T0800,2275A,117.3145,32.8977,蚌埠市,高新区,,48,48,44,23,20,121,,124,124,14,12,8,8,0.5,0.4
2024-06-19T0800,3715A,117.3092,32.9314,蚌埠市,蚌埠田家炳中学,颗粒物(PM10),53,55,46,25,20,123,,130,130,9,10,8,8,0.4,0.4
2024-06-19T0800,1585A,109.8756,40.6532,包头市,市环境监测站,,42,42,45,25,19,94,,66,66,31,31,15,17,0.8,0.7
2024-06-19T0800,1587A,109.9991,40.5842,包头市,包头八中,,40,40,46,23,30,89,,85,85,32,28,25,32,0.8,0.7
2024-06-19T0800,1588A,109.8538,40.6821,包头市,青山宾馆,,40,40,36,13,21,92,,48,48,37,30,11,14,0.6,0.7
2024-06-19T0800,1589A,109.8642,40.6288,包头市,惠龙物流,,35,30,39,24,18,101,,84,84,27,26,17,22,0.8,0.7
2024-06-19T0800,1590A,110.0377,40.5546,包头市,东河鸿龙湾,,40,40,41,23,16,80,,82,82,32,21,20,16,0.8,0.6
2024-06-19T0800,3283A,109.9154,40.5685,包头市,滨河大厦,,,37,38,17,19,,,68,68,28,26,12,13,0.8,0.7
2024-06-19T0800,3419A,109.9447,40.6261,包头市,包头市委党校,,34,34,42,21,19,101,,59,59,25,32,20,19,0.7,0.6
2024-06-19T0800,3683A,109.8331,40.6576,包头市,昆区政府,,32,26,38,16,24,100,,78,78,29,29,13,20,0.8,0.8
2024-06-19T0800,1930A,107.185,34.3063,宝鸡市,庙沟村,,18,16,16,12,10,30,,56,56,23,7,8,9,0.4,0.4
2024-06-19T0800,1931A,107.0708,34.3017,宝鸡市,竹园沟,,18,,15,12,11,37,,46,46,21,15,7,7,0.5,0.4
2024-06-19T0800,1932A,107.1906,34.3672,宝鸡市,三陆医院,颗粒物(PM10),59,67,38,31,17,24,,30,30,39,26,15,9,0.8,0.6
2024-06-19T0800,1933A,107.1431,34.3547,宝鸡市,监测站,,25,25,24,13,13,32,,38,38,27,19,9,8,0.5,0.4
2024-06-19T0800,1934A,107.1186,34.3739,宝鸡市,技工学校,,22,20,28,15,13,40,,46,46,14,15,9,7,0.6,0.5
2024-06-19T0800,1935A,107.3906,34.3528,宝鸡市,陈仓区环保局家属楼,,42,42,29,22,17,28,,40,40,43,22,7,6,0.7,0.5
2024-06-19T0800,1936A,107.2058,34.3497,宝鸡市,文理学院,颗粒物(PM10),51,51,27,10,7,25,,40,40,34,18,9,8,0.6,0.4
2024-06-19T0800,1937A,107.2386,34.3622,宝鸡市,三迪小学,,50,50,33,32,17,26,,36,36,39,22,9,7,0.7,0.5
2024-06-19T0800,1051A,115.493,38.8632,保定市,游泳馆,颗粒物(PM10),56,62,78,22,27,118,,124,124,13,8,10,9,0.3,0.3
2024-06-19T0800,1052A,115.5213,38.8959,保定市,华电二区,颗粒物(PM10),52,53,63,27,31,121,,127,127,13,13,5,6,0.3,0.4
2024-06-19T0800,1053A,115.4713,38.9108,保定市,接待中心,,39,39,47,23,35,123,,128,128,8,6,5,4,0.4,0.5
2024-06-19T0800,1054A,115.4612,38.8416,保定市,地表水厂,,40,40,58,25,32,120,,120,120,15,12,4,3,0.5,0.6
2024-06-19T0800,3581A,115.31981,38.95208,保定市,满城区生态环境分局,颗粒物(PM10),62,73,83,27,29,120,,113,113,11,10,4,4,0.3,0.3
2024-06-19T0800,3582A,115.47694,38.76408,保定市,清苑区第二中学,,39,39,62,20,34,117,,116,116,14,10,8,6,0.4,0.5
2024-06-19T0800,3583A,115.62909,39.02311,保定市,徐水物探局,颗粒物(PM10),61,72,78,17,24,120,,125,125,18,12,3,4,0.3,0.4
2024-06-19T0800,4004A,115.4202,38.8656,保定市,双鹰农机,颗粒物(PM10),51,52,63,23,30,127,,126,126,11,8,3,3,0.1,0.3
2024-06-19T0800,4034A,115.5150,38.8590,保定市,植保所站,颗粒物(PM10),61,71,65,34,32,125,,125,125,14,13,5,6,0.6,0.7
2024-06-19T0800,2594A,99.1678,25.1081,保山市,市环境监测站,颗粒物(PM10),51,51,34,22,13,46,,57,57,8,7,6,5,0.7,0.6
2024-06-19T0800,2595A,99.1711,25.1328,保山市,市环保局,颗粒物(PM10),55,59,40,16,11,54,,69,69,5,5,6,6,0.5,0.5
2024-06-19T0800,1866A,109.2262,21.588,北海市,牛尾岭水库,,,,,,,,,,,,,,,,
2024-06-19T0800,1867A,109.1436,21.4086,北海市,海滩公园,,31,31,36,12,4,51,,67,67,4,5,3,3,0.6,0.6
2024-06-19T0800,1868A,109.0981,21.4661,北海市,新市环保局,,26,26,22,7,8,49,,68,68,8,6,4,4,0.7,0.7
2024-06-19T0800,1869A,109.1778,21.5233,北海市,北海工业园,,42,42,27,12,12,42,,60,60,7,8,4,4,0.5,0.5
2024-06-19T0800,3400A,109.1911,21.4415,北海市,龙潭自来水厂,,29,29,22,15,13,43,,61,61,6,5,4,5,0.5,0.5
2024-06-19T0800,1001A,116.3621,39.8784,北京市,万寿西宫,颗粒物(PM10),69,88,77,36,32,135,,119,119,27,23,2,2,0.5,0.5
2024-06-19T0800,1002A,116.2202,40.2915,北京市,定陵,颗粒物(PM10),72,93,67,47,31,68,,96,96,29,18,3,2,0.6,0.5
2024-06-19T0800,1003A,116.4174,39.9289,北京市,东四,颗粒物(PM10),67,84,74,38,31,136,,126,126,27,21,5,5,0.6,0.5
2024-06-19T0800,1004A,116.4072,39.8863,北京市,天坛,颗粒物(PM10),61,71,61,33,29,125,,106,106,23,19,2,2,0.5,0.5
2024-06-19T0800,1005A,116.462,39.9365,北京市,农展馆,颗粒物(PM10),65,80,71,35,29,136,,132,132,32,23,7,7,0.7,0.7
2024-06-19T0800,1006A,116.3392,39.9295,北京市,官园,颗粒物(PM10),72,94,82,37,33,133,,129,129,25,20,6,5,0.5,0.5
2024-06-19T0800,1007A,116.2878,39.9611,北京市,海淀万柳,颗粒物(PM10),80,109,83,48,34,95,,105,105,38,24,6,6,0.5,0.4
2024-06-19T0800,1008A,116.6636,40.135,北京市,顺义新城,细颗粒物(PM2.5),142,150,135,108,38,87,,63,63,37,29,4,3,0.8,0.7
2024-06-19T0800,1009A,116.6275,40.3275,北京市,怀柔镇,细颗粒物(PM2.5),110,120,108,83,63,102,,98,98,24,17,6,6,0.7,0.7
2024-06-19T0800,1010A,116.2296,40.217,北京市,昌平镇,细颗粒物(PM2.5),99,139,75,74,34,82,,103,103,27,22,3,3,0.7,0.5
2024-06-19T0800,1011A,116.3966,39.9821,北京市,奥体中心,颗粒物(PM10),66,81,72,34,31,117,,113,113,26,22,2,2,0.5,0.5
2024-06-19T0800,1012A,116.184,39.9136,北京市,古城,颗粒物(PM10),87,124,99,45,37,94,,86,86,36,29,3,3,0.4,0.4
2024-06-19T0800,3281A,115.9718,40.4529,北京市,延庆夏都,颗粒物(PM10),56,61,53,27,24,74,,89,89,19,11,3,2,0.5,0.4
2024-06-19T0800,3417A,117.0709,40.1465,北京市,平谷新城,细颗粒物(PM2.5),87,102,107,64,63,113,,115,115,22,19,3,3,0.7,0.5
2024-06-19T0800,3418A,116.8336,40.4095,北京市,密云新城,细颗粒物(PM2.5),112,128,98,84,53,96,,92,92,20,16,2,2,0.7,0.6
2024-06-19T0800,3671A,116.088,39.9726,北京市,门头沟三家店,,,,,,,,,,,,,,,,
2024-06-19T0800,3672A,116.1541,39.8204,北京市,丰台云岗,颗粒物(PM10),73,95,82,37,35,76,,70,70,29,27,2,3,0.6,0.5
2024-06-19T0800,3673A,116.6804,39.9081,北京市,通州东关,细颗粒物(PM2.5),107,147,94,80,40,94,,66,66,33,29,4,3,0.7,0.5
2024-06-19T0800,3674A,115.9577,39.7603,北京市,房山燕山,颗粒物(PM10),73,96,81,39,33,96,,101,101,23,13,1,2,0.6,0.5
2024-06-19T0800,3675A,116.4672,39.7733,北京市,大兴旧宫,颗粒物(PM10),66,82,70,39,31,109,,82,82,24,18,2,2,0.6,0.5
2024-06-19T0800,3694A,115.986,40.4563,北京市,延庆石河营,颗粒物(PM10),55,59,50,30,25,72,,81,81,20,12,3,2,0.4,0.4
2024-06-19T0800,3695A,116.6151,40.3053,北京市,怀柔新城,细颗粒物(PM2.5),113,119,108,85,64,96,,87,87,23,20,2,3,0.8,0.8
2024-06-19T0800,3696A,116.2545,39.8768,北京市,丰台小屯,颗粒物(PM10),75,100,79,39,32,74,,64,64,32,27,1,2,0.5,0.5
2024-06-19T0800,3697A,116.84,40.3844,北京市,密云镇,细颗粒物(PM2.5),120,135,94,91,55,86,,78,78,31,23,2,3,0.7,0.6
2024-06-19T0800,1761A,123.8275,41.3064,本溪市,大峪,,49,38,52,22,29,154,,142,142,18,11,11,10,0.5,0.7
2024-06-19T0800,1762A,123.7567,41.3325,本溪市,溪湖,,48,39,60,21,31,152,,133,133,19,22,20,14,1.1,1.3
2024-06-19T0800,1763A,123.7169,41.3094,本溪市,彩屯,颗粒物(PM10),54,57,56,30,36,126,,122,122,42,28,20,16,3.5,2.1
2024-06-19T0800,1764A,123.7669,41.2864,本溪市,东明,臭氧1小时,54,40,56,17,26,163,,170,170,13,14,9,8,0.5,0.6
2024-06-19T0800,1765A,123.7992,41.2664,本溪市,新立屯,臭氧1小时,54,29,47,15,24,163,,168,168,14,11,13,12,0.8,0.9
2024-06-19T0800,1766A,123.8142,41.3472,本溪市,威宁,颗粒物(PM10),67,84,62,28,32,111,,95,95,35,21,9,9,0.7,0.8
2024-06-19T0800,2587A,105.2864,27.3125,毕节市,八中,细颗粒物(PM2.5),52,37,29,36,24,40,,47,47,12,9,6,5,0.6,0.4
2024-06-19T0800,2588A,105.31,27.2944,毕节市,师专,,42,33,27,29,22,37,,45,45,11,10,5,4,0.5,0.5
2024-06-19T0800,3537A,105.3631,27.3533,毕节市,长征村,细颗粒物(PM2.5),77,73,56,56,41,35,,43,43,10,9,5,7,0.6,0.6
2024-06-19T0800,1629A,118.0018,37.3617,滨州市,第二水厂,颗粒物(PM10),67,83,63,27,21,76,,76,76,45,23,19,8,0.8,0.5
2024-06-19T0800,1630A,117.9776,37.393,滨州市,北中新校,颗粒物(PM10),62,73,56,24,19,98,,88,88,40,21,14,7,0.9,0.6
2024-06-19T0800,3514A,117.9378,37.3956,滨州市,中海酒店,颗粒物(PM10),57,63,50,27,23,120,,116,116,34,17,13,8,0.6,0.4
2024-06-19T0800,3515A,117.9378,37.3553,滨州市,开发区一中,颗粒物(PM10),68,85,62,24,22,94,,82,82,45,21,13,10,0.8,0.8
2024-06-19T0800,3516A,118.0917,37.694,滨州市,金海六路,颗粒物(PM10),61,71,61,17,17,85,,82,82,32,18,18,15,0.7,0.6
2024-06-19T0800,4028A,117.9956,37.3753,滨州市,滨州市西街道办事处,颗粒物(PM10),62,73,56,34,26,83,,74,74,40,22,21,7,1.1,0.7
2024-06-19T0800,2311A,115.8072,33.8399,亳州市,污水处理厂,颗粒物(PM10),57,64,47,34,25,106,,116,116,24,17,8,6,0.6,0.5
2024-06-19T0800,2312A,115.7789,33.8518,亳州市,三国揽胜宫,颗粒物(PM10),51,51,46,32,23,104,,114,114,21,13,6,5,0.6,0.5
2024-06-19T0800,3332A,115.7633,33.8034,亳州市,亳州学院,颗粒物(PM10),56,61,47,29,21,113,,122,122,20,12,8,6,0.5,0.4
2024-06-19T0800,2693A,82.0485,44.8556,博尔塔拉蒙古自治州,市党校,,29,29,18,8,9,60,,76,76,10,9,8,9,0.4,0.4
2024-06-19T0800,2694A,82.0806,44.8969,博尔塔拉蒙古自治州,市环保局,,20,18,20,7,10,61,,81,81,22,15,9,9,0.5,0.4
2024-06-19T0800,1071A,116.8842,38.2991,沧州市,沧县城建局,,48,48,59,21,23,121,,122,122,24,16,5,4,0.5,0.5
2024-06-19T0800,1072A,116.8584,38.3254,沧州市,电视转播站,,,53,60,27,24,121,,130,130,18,10,5,4,,0.4
2024-06-19T0800,1073A,116.8709,38.3228,沧州市,市环保局,,44,44,56,30,28,127,,126,126,21,16,10,9,0.4,0.4
2024-06-19T0800,3324A,116.8136,38.3004,沧州市,河北水利电力学院,颗粒物(PM10),54,58,60,32,28,118,,127,127,23,14,9,9,0.4,0.3
2024-06-19T0800,2622A,97.1806,31.1273,昌都市,昌都监测站,,13,,7,7,6,40,,68,68,18,7,9,9,0.6,0.5
2024-06-19T0800,3719A,97.1714,31.1406,昌都市,昌都会议中心,,17,,8,3,5,54,,75,75,7,5,5,5,0.5,0.3
2024-06-19T0800,2690A,88.1236,43.8886,昌吉回族自治州,天山天池,,15,9,10,3,3,46,,62,62,5,6,8,8,0.6,0.6
2024-06-19T0800,2692A,87.2717,44.0297,昌吉回族自治州,新区政务中心,,25,16,13,10,7,79,,95,95,9,8,9,9,0.3,0.3
2024-06-19T0800,3613A,87.3095,44.0142,昌吉回族自治州,亚心广场,,29,14,17,3,2,92,,99,99,11,16,7,7,0.1,0.2
2024-06-19T0800,1119A,125.3325,43.9166,长春市,食品厂,颗粒物(PM10),57,64,41,22,14,129,,64,64,47,43,8,7,0.7,0.3
2024-06-19T0800,1120A,125.2863,43.9027,长春市,客车厂,颗粒物(PM10),58,66,34,20,13,160,,88,88,30,37,6,4,0.5,0.3
2024-06-19T0800,1121A,125.2841,43.8463,长春市,邮电学院,颗粒物(PM10),52,53,30,10,7,121,,58,58,48,38,9,7,0.6,0.3
2024-06-19T0800,1122A,125.3716,43.8772,长春市,劳动公园,,,53,38,26,11,,,38,38,75,46,5,5,0.6,0.4
2024-06-19T0800,1123A,125.3297,43.8805,长春市,园林处,,46,46,32,22,16,102,,71,71,60,41,7,7,0.6,0.4
2024-06-19T0800,1124A,125.4605,43.79,长春市,净月潭,,41,41,21,23,8,108,,36,36,42,34,6,5,0.6,0.3
2024-06-19T0800,1125A,125.7194,43.515,长春市,甩湾子,,,,,,,,,,,,,,,,
2024-06-19T0800,1126A,125.3863,43.8447,长春市,经开区环卫处,颗粒物(PM10),51,52,37,22,11,74,,43,43,74,54,5,5,0.6,0.3
2024-06-19T0800,1127A,125.245,43.7783,长春市,高新区管委会,颗粒物(PM10),51,52,29,16,8,152,,36,36,23,43,8,8,0.6,0.3
2024-06-19T0800,1128A,125.1761,43.8325,长春市,岱山公园,颗粒物(PM10),61,71,35,26,14,158,,76,76,25,39,8,5,0.5,0.3
2024-06-19T0800,1335A,113.0833,28.2325,长沙市,经开区环保局,,29,20,19,20,10,52,,46,46,14,15,3,3,0.5,0.5
2024-06-19T0800,1336A,112.8872,28.2189,长沙市,高开区环保局,,23,23,22,11,12,64,,57,57,10,12,4,4,0.6,0.6
2024-06-19T0800,1337A,113.0792,28.2053,长沙市,马坡岭,,23,,18,16,15,39,,42,42,16,14,7,7,0.6,0.6
2024-06-19T0800,1338A,112.9394,28.19,长沙市,湖南师范大学,,23,18,23,16,16,44,,49,49,9,11,4,3,0.8,0.8
2024-06-19T0800,1339A,113.0178,28.1322,长沙市,雨花区环保局,,15,12,17,10,10,43,,52,52,3,6,3,3,0.5,0.5
2024-06-19T0800,1340A,112.9792,28.2597,长沙市,伍家岭,,,,31,,21,,,57,,,13,,4,,0.4
2024-06-19T0800,1341A,113.0014,28.1944,长沙市,火车新站,,13,11,22,3,10,40,,48,48,9,13,2,2,0.7,0.6
2024-06-19T0800,1342A,112.9844,28.1178,长沙市,天心区环保局,,13,,19,9,12,27,,42,42,9,8,1,2,0.9,0.8
2024-06-19T0800,1343A,112.8908,28.1308,长沙市,湖南中医药大学,,16,9,18,7,13,49,,46,46,5,9,7,7,0.8,0.8
2024-06-19T0800,1344A,112.9581,28.3611,长沙市,沙坪,,25,12,14,9,6,78,,63,63,4,6,7,7,0.5,0.6
2024-06-19T0800,1727A,113.1147,36.1547,长治市,清华站,,35,35,35,22,22,111,,136,136,18,14,10,11,0.6,0.5
2024-06-19T0800,1728A,113.1031,36.1989,长治市,监测站,,48,48,43,17,21,103,,129,129,29,19,5,5,1.3,0.8
2024-06-19T0800,1730A,113.0886,36.2125,长治市,审计局,,40,40,42,22,20,109,,145,145,36,21,6,3,1.0,0.5
2024-06-19T0800,1731A,113.0844,36.1856,长治市,长治八中,颗粒物(PM10),55,59,44,17,22,106,,136,136,23,16,4,4,0.9,0.6
2024-06-19T0800,2845A,113.1569,36.1911,长治市,德盛苑,,45,35,38,14,22,142,,158,158,10,12,11,9,1.4,0.7
2024-06-19T0800,3568A,113.06,36.0464,长治市,向阳小学,细颗粒物(PM2.5),57,55,63,40,42,123,,146,146,18,15,4,5,0.7,0.8
2024-06-19T0800,3569A,112.8792,36.3144,长治市,屯留一中,细颗粒物(PM2.5),59,54,44,42,33,65,,83,83,49,19,12,9,0.7,0.6
2024-06-19T0800,3570A,113.235,36.3489,长治市,潞城四中,颗粒物(PM10),54,57,50,32,31,93,,99,99,37,19,6,6,1.8,0.6
2024-06-19T0800,1854A,111.6975,28.9703,常德市,市二中,,26,23,28,18,22,60,,72,72,7,7,6,6,0.6,0.5
2024-06-19T0800,1857A,111.7158,29.1456,常德市,白鹤山,,,,,,,,,,,,,,,,
2024-06-19T0800,3138A,111.7153,29.0289,常德市,武陵区永安,,32,28,29,22,22,63,,80,80,8,6,7,6,0.4,0.4
2024-06-19T0800,3139A,111.6892,28.9881,常德市,鼎城区玉霞,,26,26,30,16,24,56,,70,70,9,8,4,3,0.5,0.5
2024-06-19T0800,3140A,111.6625,29.0531,常德市,武陵区长庚,,29,29,29,20,22,59,,70,70,9,8,8,8,0.5,0.5
2024-06-19T0800,1196A,119.9633,31.762,常州市,市监测站,,33,33,27,16,16,42,,64,64,27,18,6,8,0.7,0.5
2024-06-19T0800,1200A,119.9468,31.7069,常州市,武进监测站,,33,33,26,14,12,42,,69,69,22,7,9,9,0.9,0.6
2024-06-19T0800,1201A,119.9255,31.9087,常州市,安家,颗粒物(PM10),53,55,33,13,16,42,,68,68,20,14,7,8,0.5,0.4
2024-06-19T0800,3002A,119.9805,31.8174,常州市,行政中心,,25,25,27,9,13,43,,66,66,22,16,8,8,0.4,0.4
2024-06-19T0800,3003A,120.0522,31.7748,常州市,经开区,,26,26,28,13,12,44,,65,65,27,18,4,4,0.5,0.5
2024-06-19T0800,3010A,119.9025,31.7964,常州市,钟楼,,41,41,28,17,14,41,,67,67,27,16,5,6,0.9,0.7
2024-06-19T0800,3429A,119.8598,31.7066,常州市,武进经发区,,37,37,26,16,12,42,,66,66,22,13,7,8,0.6,0.4
2024-06-19T0800,3430A,119.5826,31.7245,常州市,金坛城区,,23,23,24,11,12,44,,67,67,12,6,6,6,0.7,0.6
2024-06-19T0800,2220A,120.4318,41.5881,朝阳市,西梁,颗粒物(PM10),53,56,51,23,26,149,,168,168,20,19,14,14,0.9,0.8
2024-06-19T0800,2221A,120.4521,41.5646,朝阳市,河畔小区,臭氧1小时,58,47,53,23,28,166,,184,184,12,14,11,12,0.8,0.8
2024-06-19T0800,2222A,120.4176,41.5648,朝阳市,八里堡,,46,46,61,24,27,146,,154,154,22,22,11,13,1.0,1
2024-06-19T0800,2223A,120.3806,41.5969,朝阳市,农业园区,颗粒物(PM10),56,61,58,31,34,126,,150,150,28,18,17,11,1.1,0.8
2024-06-19T0800,1705A,116.6367,23.6719,潮州市,西园路,,19,19,18,7,8,19,,14,14,8,10,1,1,0.4,0.4
2024-06-19T0800,3026A,116.6183,23.6608,潮州市,市政府,,15,15,19,6,7,22,,18,18,7,9,5,6,0.7,0.7
2024-06-19T0800,4036A,116.6461,23.6761,潮州市,金山,,17,17,21,9,9,22,,16,16,10,12,7,7,0.6,0.6
2024-06-19T0800,2472A,113.0073,25.9061,郴州市,马头岭,,18,18,20,7,6,43,,54,54,7,6,6,7,0.5,0.5
2024-06-19T0800,2473A,113.0116,25.8226,郴州市,市职中,,16,,15,11,10,45,,56,56,7,8,11,10,0.5,0.5
2024-06-19T0800,2474A,113.0161,25.8001,郴州市,兴隆步行街,,16,13,17,6,8,49,,57,57,6,7,16,12,0.6,0.6
2024-06-19T0800,2475A,113.0383,25.8071,郴州市,市审计局,,15,12,13,7,9,46,,45,45,8,11,9,25,0.4,0.4
2024-06-19T0800,2476A,113.0348,25.7759,郴州市,市环保局,,,11,13,3,9,47,,48,48,,12,13,25,0.4,0.4
2024-06-19T0800,1431A,103.9728,30.7236,成都市,金泉两河,,30,30,37,11,22,16,,35,35,14,16,1,2,0.5,0.5
2024-06-19T0800,1432A,104.176,30.6872,成都市,十里店,,32,26,48,22,28,54,,68,68,21,26,3,3,0.6,0.6
2024-06-19T0800,1433A,104.079,30.5706,成都市,三瓦窑,,32,,56,22,41,48,,42,42,20,32,2,2,0.4,0.5
2024-06-19T0800,1434A,104.1114,30.63,成都市,沙河铺,,38,38,46,6,27,32,,47,47,13,22,2,3,0.4,0.5
2024-06-19T0800,1437A,104.0786,30.6531,成都市,君平街,,18,18,41,8,26,51,,62,62,23,25,1,1,0.5,0.5
2024-06-19T0800,1438A,103.613,31.0283,成都市,灵岩寺,,,,,,,,,,,,,,,,
2024-06-19T0800,2880A,104.0239,30.65639,成都市,大石西路,,38,38,43,18,22,39,,46,46,26,22,3,3,0.7,0.6
2024-06-19T0800,3136A,104.2725,30.5589,成都市,龙泉驿区区政府,,39,29,30,27,24,48,,74,74,18,11,3,3,0.6,0.5
2024-06-19T0800,3357A,104.0106,30.6931,成都市,金博路,,33,,29,23,18,24,,37,37,16,16,3,2,0.5,0.5
2024-06-19T0800,3359A,104.0578,30.5225,成都市,华阳,,32,22,39,22,34,58,,54,54,12,22,3,2,0.5,0.6
2024-06-19T0800,3487A,104.2394,30.5319,成都市,车城东七路,细颗粒物(PM2.5),63,53,51,45,37,42,,77,77,18,14,2,2,0.6,0.6
2024-06-19T0800,3488A,104.3853,30.7453,成都市,青白江技师分院,,28,28,33,19,22,30,,22,22,26,26,4,4,0.6,0.5
2024-06-19T0800,3489A,104.0789,30.4072,成都市,科学城,,29,28,49,20,37,46,,49,49,16,19,3,3,0.5,0.5
2024-06-19T0800,4011A,103.8506,30.6947,成都市,光华大道三段,,36,36,38,16,20,16,,37,37,14,13,4,3,0.7,0.6
2024-06-19T0800,1062A,117.9531,40.9081,承德市,铁路,,,63,64,35,36,130,,129,129,38,22,,11,0.7,0.5
2024-06-19T0800,1063A,117.9392,40.9763,承德市,中国银行,细颗粒物(PM2.5),69,83,71,50,40,108,,108,108,36,19,8,7,0.6,0.5
2024-06-19T0800,1064A,117.9503,40.928,承德市,开发区,颗粒物(PM10),64,78,68,36,33,112,,132,132,50,22,11,10,0.8,0.5
2024-06-19T0800,1065A,117.8051,40.9655,承德市,文化中心,颗粒物(PM10),66,81,79,36,39,154,,128,128,27,20,12,16,0.6,0.7
2024-06-19T0800,1066A,117.9268,41.0026,承德市,离宫,细颗粒物(PM2.5),73,63,56,53,39,134,,128,128,18,9,5,5,0.5,0.5
2024-06-19T0800,2314A,117.47,30.6618,池州市,池州学院,,14,8,26,3,15,42,,46,46,5,6,5,6,0.7,0.6
2024-06-19T0800,3237A,117.4918,30.6617,池州市,展览馆,,12,6,21,3,13,36,,42,42,9,7,3,4,0.6,0.5
2024-06-19T0800,3333A,117.5627,30.695,池州市,第八中学,,11,9,24,3,14,35,,40,40,8,9,2,3,0.4,0.4
2024-06-19T0800,3334A,117.5038,30.6243,池州市,第十二中学,,10,6,24,3,15,29,,34,34,15,11,5,5,1.0,0.7
2024-06-19T0800,1744A,118.9233,42.2816,赤峰市,松山一中,臭氧1小时,59,64,42,35,21,167,,174,174,35,31,15,17,0.9,0.9
2024-06-19T0800,1745A,118.9576,42.2728,赤峰市,哈达街,颗粒物(PM10),65,80,49,19,11,171,,180,180,30,26,17,19,0.8,0.8
2024-06-19T0800,1746A,118.8788,42.2554,赤峰市,天义路,臭氧1小时,83,74,44,32,21,186,,196,196,20,22,8,10,0.6,0.6
2024-06-19T0800,3058A,119.2658,42.0353,赤峰市,银河街,颗粒物(PM10),68,85,64,46,34,154,,164,164,21,19,16,19,0.7,0.5
2024-06-19T0800,3286A,118.9359,42.3147,赤峰市,桥北物流园区,臭氧1小时,73,61,49,39,27,178,,170,170,28,27,11,15,1.1,1
2024-06-19T0800,2521A,107.3476,22.4136,崇左市,市环保局江州分局,,28,28,23,17,12,27,,21,21,7,7,4,5,0.6,0.5
2024-06-19T0800,2522A,107.3702,22.3707,崇左市,城南新区,,35,35,24,17,15,27,,21,21,6,8,4,3,0.7,0.6
2024-06-19T0800,2298A,118.3093,32.3153,滁州市,老年大学,,28,25,39,19,19,67,,107,107,16,16,7,9,0.5,0.5
2024-06-19T0800,2299A,118.3244,32.2786,滁州市,人大宾馆,,43,,37,30,21,60,,100,100,24,21,6,7,0.6,0.5
2024-06-19T0800,3207A,118.3118,32.3038,滁州市,市政府原办公楼,,30,23,43,21,24,67,,107,107,16,16,6,8,0.6,0.6
2024-06-19T0800,3331A,118.3267,32.2634,滁州市,图书馆,,43,,39,30,18,58,,94,94,16,15,7,8,0.4,0.2
2024-06-19T0800,2605A,101.5482,25.0441,楚雄彝族自治州,州环境监测站,,23,,13,16,11,71,,77,77,7,4,3,4,0.6,0.5
2024-06-19T0800,2606A,101.538,25.0492,楚雄彝族自治州,市经济开发区,,22,20,17,11,11,68,,73,73,10,6,5,4,0.6,0.5
2024-06-19T0800,2548A,107.5277,31.2827,达州市,达州职业技术学院,,36,36,28,12,8,4,,1,1,21,25,4,5,0.3,0.2
2024-06-19T0800,2549A,107.5086,31.2186,达州市,市环境监测站,,35,35,28,7,8,5,,11,11,27,28,7,8,0.8,0.6
2024-06-19T0800,2550A,107.4988,31.2132,达州市,凤凰小区,,22,22,25,12,12,8,,14,14,26,25,8,9,0.7,0.5
2024-06-19T0800,2551A,107.5082,31.1986,达州市,达县机关宾馆,,29,27,26,20,13,13,,8,8,28,33,6,7,0.5,0.4
2024-06-19T0800,2552A,107.4644,31.2124,达州市,市政中心,,,29,32,12,11,,,23,23,29,27,7,8,0.6,0.6
2024-06-19T0800,2614A,100.1542,25.7054,大理白族自治州,大理市环境监测站,,30,30,32,12,16,83,,85,85,6,7,4,4,0.6,0.6
2024-06-19T0800,2615A,100.2171,25.5811,大理白族自治州,大理古城,,24,15,19,9,13,75,,76,76,8,7,6,6,0.8,0.8
2024-06-19T0800,1109A,121.612,38.9741,大连市,甘井子,,31,20,38,7,19,97,,97,97,22,19,8,8,0.5,0.7
2024-06-19T0800,1110A,121.565,38.9511,大连市,周水子,,25,25,42,7,22,80,,89,89,27,21,8,9,0.5,0.6
2024-06-19T0800,1111A,121.5637,38.8845,大连市,星海三站,,28,18,52,3,26,89,,94,94,17,17,8,11,0.4,0.7
2024-06-19T0800,1112A,121.6302,38.9117,大连市,青泥洼桥,,32,12,37,6,21,100,,94,94,10,15,9,11,0.3,0.6
2024-06-19T0800,1113A,121.6251,38.8638,大连市,傅家庄,,30,18,42,6,27,95,,94,94,12,13,9,11,0.5,0.8
2024-06-19T0800,1114A,121.5213,38.8661,大连市,七贤岭,,29,26,41,11,29,90,,89,89,14,16,7,9,0.5,0.6
2024-06-19T0800,1115A,121.2529,38.8061,大连市,旅顺,,29,6,42,6,26,90,,93,93,22,29,9,11,0.4,0.5
2024-06-19T0800,1116A,121.7485,39.1311,大连市,金州,,34,19,45,8,21,107,,106,106,13,16,9,12,0.4,0.6
2024-06-19T0800,1117A,121.7811,39.0496,大连市,开发区,,31,24,47,7,23,98,,96,96,17,23,6,9,0.4,0.5
2024-06-19T0800,1118A,121.9762,39.0631,大连市,双D港,,29,16,40,6,23,90,,102,102,23,24,8,9,0.4,0.7
2024-06-19T0800,1789A,124.81117,46.03138,大庆市,大同区,颗粒物(PM10),55,60,39,28,23,73,,51,51,30,16,8,5,0.4,0.3
2024-06-19T0800,1790A,125.129,46.533,大庆市,龙凤区,,39,39,24,15,11,78,,61,61,25,18,8,8,0.5,0.4
2024-06-19T0800,1791A,124.902,46.408,大庆市,红岗区,,34,34,18,11,12,89,,70,70,24,10,7,5,0.5,0.3
2024-06-19T0800,1792A,125.153,46.586,大庆市,萨尔图区,,43,43,23,24,9,78,,64,64,25,12,9,8,0.4,0.3
2024-06-19T0800,1793A,124.9042,46.6215,大庆市,让胡路区,,29,29,20,20,10,78,,70,70,27,13,11,9,0.1,0
2024-06-19T0800,3481A,125.141,46.634,大庆市,萨区政府监测点,,34,34,19,3,5,86,,67,67,27,14,8,7,0.3,0.2
2024-06-19T0800,1721A,113.3819,40.1097,大同市,果树场,,,,,,,,,,,,,,,,
2024-06-19T0800,1723A,113.2994,40.0758,大同市,云冈宾馆,颗粒物(PM10),58,66,46,28,19,76,,62,62,30,25,14,10,1.2,0.7
2024-06-19T0800,1724A,113.3444,40.0917,大同市,大同大学,颗粒物(PM10),56,62,38,25,20,65,,59,59,37,24,21,14,1.0,0.6
2024-06-19T0800,1725A,113.2661,40.1269,大同市,安家小村,颗粒物(PM10),53,55,56,21,18,86,,69,69,24,19,18,15,1.2,0.6
2024-06-19T0800,1726A,113.2711,40.0844,大同市,教育学院,颗粒物(PM10),61,72,56,36,24,47,,58,58,52,28,14,13,0.9,0.7
2024-06-19T0800,3282A,113.3397,40.0597,大同市,大同市卫生学校,,48,48,54,24,23,65,,76,76,45,22,12,13,0.8,0.7
2024-06-19T0800,3565A,113.1367,40.1122,大同市,云冈站,颗粒物(PM10),51,52,47,25,26,46,,34,34,24,21,19,12,0.6,0.5
2024-06-19T0800,3566A,113.1186,40.2556,大同市,图书馆,,42,42,37,27,24,72,,48,48,22,17,13,9,0.7,0.5
2024-06-19T0800,3567A,113.5931,40.0461,大同市,区一中,,41,33,38,12,9,130,,106,106,17,15,5,5,0.5,0.4
2024-06-19T0800,3676A,113.2802,40.0995,大同市,第二人民医院,,50,50,38,20,24,70,,56,56,34,23,16,12,1.1,0.7
2024-06-19T0800,2269A,124.1069,50.4097,大兴安岭地区,科技局,,13,10,17,3,8,39,,22,22,4,5,8,7,0.3,0.3
2024-06-19T0800,3663A,124.1164,50.4278,大兴安岭地区,红旗社区,,13,6,6,3,6,39,,19,19,2,6,6,6,0.4,0.4
2024-06-19T0800,1600A,124.3303,40.0625,丹东市,江湾东路,,50,50,36,35,21,111,,75,75,16,14,11,13,0.7,0.5
2024-06-19T0800,1601A,124.4256,40.1503,丹东市,临江后街,,29,27,25,19,17,92,,72,72,11,10,11,10,0.7,0.7
2024-06-19T0800,1602A,124.3933,40.1461,丹东市,元宝山,,38,38,32,23,19,78,,79,79,28,14,9,9,1.0,0.8
2024-06-19T0800,1603A,124.3633,40.1092,丹东市,民主桥,,41,41,36,24,18,116,,62,62,14,15,11,7,0.8,0.5
2024-06-19T0800,3541A,109.5726,19.5167,儋州市,第一中学子站,,25,25,21,11,12,48,,54,54,5,3,6,6,0.5,0.5
2024-06-19T0800,3542A,109.5567,19.5187,儋州市,东坡学校子站,,21,21,21,11,11,46,,49,49,5,4,6,5,0.5,0.5
2024-06-19T0800,2616A,98.5842,24.428,德宏傣族景颇族自治州,德宏州监测站,颗粒物(PM10),53,55,36,22,18,9,,15,15,14,11,2,3,1.0,0.9
2024-06-19T0800,3677A,98.5881,24.4368,德宏傣族景颇族自治州,芒市人民政府综合楼,,50,50,37,23,19,8,,14,14,11,9,6,7,0.8,0.7
2024-06-19T0800,1901A,104.4239,31.1208,德阳市,东山公园,,45,33,36,31,22,36,,53,53,12,11,3,2,0.5,0.5
2024-06-19T0800,1902A,104.3826,31.1317,德阳市,西小区,,33,32,37,23,27,54,,58,58,28,17,4,2,0.8,0.6
2024-06-19T0800,1904A,104.3553,31.1091,德阳市,耐火材料厂,,,31,37,21,26,,,49,49,34,17,5,3,0.8,0.6
2024-06-19T0800,3639A,104.4019,31.1244,德阳市,市教育局,,42,32,36,29,24,49,,64,64,24,15,2,2,0.7,0.6
2024-06-19T0800,1622A,116.3032,37.4674,德州市,儿童乐园,颗粒物(PM10),60,70,64,22,26,158,,153,153,19,11,12,17,0.7,0.6
2024-06-19T0800,1624A,116.2991,37.4451,德州市,监理站,颗粒物(PM10),64,78,69,24,23,160,,152,152,24,16,15,20,0.7,0.7
2024-06-19T0800,3066A,116.2721,37.4379,德州市,九衢泉纯净水厂,颗粒物(PM10),59,68,70,31,28,159,,144,144,22,18,10,14,0.7,0.7
2024-06-19T0800,3371A,116.3728,37.4403,德州市,开发区人民医院,,,,68,,22,,,188,,,10,,13,,0.5
2024-06-19T0800,3372A,116.3572,37.4094,德州市,太阳城中学,,,,71,,24,,,192,,,14,,12,,0.7
2024-06-19T0800,3511A,116.5652,37.3319,德州市,陵城艺术中心,,,,64,,20,,,190,,,16,,8,,0.6
2024-06-19T0800,2621A,99.7056,27.8317,迪庆藏族自治州,迪庆州站,,26,18,16,10,8,82,,98,98,15,9,8,8,0.5,0.4
2024-06-19T0800,3180A,99.7136,27.8094,迪庆藏族自治州,质量技术监督局,,22,21,15,3,6,70,,92,92,14,8,8,8,0.3,0.3
2024-06-19T0800,2663A,104.6241,35.5734,定西市,东关小学,颗粒物(PM10),54,57,39,17,18,24,,36,36,22,13,6,6,0.3,0.2
2024-06-19T0800,2664A,104.6194,35.5934,定西市,供电公司,,40,40,31,24,21,20,,30,30,24,15,4,3,0.3,0.2
2024-06-19T0800,1389A,113.7547,23.0494,东莞市,莞城梨川,,15,15,23,3,9,38,,37,37,7,9,10,10,0.7,0.7
2024-06-19T0800,1390A,113.7944,23.0128,东莞市,东城石井,,17,17,22,6,9,38,,32,32,10,11,3,3,0.5,0.5
2024-06-19T0800,1391A,113.7383,22.9658,东莞市,南城西平,,18,18,23,3,8,44,,47,47,2,3,4,3,0.5,0.5
2024-06-19T0800,3319A,113.7338,23.0381,东莞市,万江金泰,,18,18,23,3,9,37,,40,40,7,7,5,4,0.6,0.6
2024-06-19T0800,3626A,113.7533,23.0202,东莞市,南城元岭,,13,13,22,3,9,37,,40,40,4,5,5,5,0.6,0.6
2024-06-19T0800,3627A,113.7875,23.0457,东莞市,东城主山,,16,16,23,6,9,33,,35,35,7,6,8,8,0.6,0.6
2024-06-19T0800,1666A,118.6614,37.4309,东营市,市环保局,,44,44,44,12,14,90,,81,81,20,17,13,11,0.4,0.3
2024-06-19T0800,3036A,118.6904,37.4338,东营市,开发区管委会,,48,48,48,14,15,92,,82,82,21,15,10,7,0.6,0.4
2024-06-19T0800,3365A,118.5719,37.565,东营市,垦利区民丰路,颗粒物(PM10),53,56,50,12,14,84,,80,80,29,22,14,14,0.7,0.6
2024-06-19T0800,3498A,118.5055,37.8612,东营市,河口城区,颗粒物(PM10),53,56,50,15,15,94,,80,80,19,14,11,9,0.8,0.5
2024-06-19T0800,3646A,118.4978,37.4623,东营市,胜利站,,39,39,48,9,13,66,,71,71,30,23,11,11,0.6,0.4
2024-06-19T0800,3734A,118.35,37.26,东营市,理想之城,,48,48,46,9,15,72,,65,65,22,18,10,9,0.5,0.4
2024-06-19T0800,1591A,110.0023,39.8129,鄂尔多斯市,综合楼,颗粒物(PM10),59,68,73,17,23,90,,88,88,34,28,28,15,0.7,0.7
2024-06-19T0800,1592A,109.9486,39.8261,鄂尔多斯市,巴音孟克林场办事处,颗粒物(PM10),53,56,63,19,21,81,,87,87,33,24,16,12,0.8,0.7
2024-06-19T0800,1593A,109.7736,39.5986,鄂尔多斯市,康泽苑,颗粒物(PM10),63,75,61,39,27,61,,45,45,34,24,16,13,0.6,0.5
2024-06-19T0800,1594A,109.8119,39.5989,鄂尔多斯市,华泰汽车城,颗粒物(PM10),70,90,64,34,26,40,,29,29,44,29,15,11,0.8,0.7
2024-06-19T0800,1595A,109.9734,39.7884,鄂尔多斯市,奥林花园,颗粒物(PM10),59,68,67,24,23,70,,66,66,43,30,19,10,0.7,0.7
2024-06-19T0800,2436A,114.8938,30.3994,鄂州市,市政府,,34,34,25,11,8,42,,50,50,7,6,3,4,0.5,0.4
2024-06-19T0800,2437A,114.8989,30.3714,鄂州市,赵家坝,,16,16,25,8,9,29,,44,44,18,9,6,7,0.6,0.5
2024-06-19T0800,3654A,114.8094,30.4089,鄂州市,精准医疗中心,,18,18,23,6,8,37,,38,38,13,13,10,9,0.7,0.7
2024-06-19T0800,2454A,109.4978,30.2981,恩施土家族苗族自治州,湖北民院,,32,32,29,14,13,19,,12,12,13,15,9,9,0.7,0.8
2024-06-19T0800,2455A,109.4707,30.2798,恩施土家族苗族自治州,州电力总公司,,26,26,26,14,15,13,,12,12,19,21,7,7,0.7,0.7
2024-06-19T0800,3549A,109.5061,30.3772,恩施土家族苗族自治州,龙凤新区,,24,24,26,12,14,14,,9,9,13,18,6,6,0.8,0.8
2024-06-19T0800,2499A,108.3411,21.6158,防城港市,沙万,,29,29,28,10,8,48,,59,59,20,16,10,7,0.7,0.7
2024-06-19T0800,2500A,108.3514,21.7731,防城港市,防城档案局,,17,16,22,9,10,53,,46,46,6,9,4,6,0.7,0.7
2024-06-19T0800,2501A,108.3506,21.6414,防城港市,大海花园,,31,31,29,8,7,58,,60,60,12,12,7,7,0.6,0.7
2024-06-19T0800,1371A,113.1294,23.0067,佛山市,湾梁,,13,12,22,9,10,26,,36,36,18,14,8,7,0.8,0.8
2024-06-19T0800,1372A,113.1083,23.0478,佛山市,华材职中,,19,19,21,12,10,33,,37,37,12,14,6,6,0.4,0.4
2024-06-19T0800,1373A,113.144,23.0453,佛山市,南海气象局,,19,16,30,13,11,18,,31,31,24,16,6,6,0.4,0.4
2024-06-19T0800,1374A,113.2881,22.8094,佛山市,顺德苏岗,,20,,16,14,11,29,,35,35,9,11,5,5,0.6,0.6
2024-06-19T0800,1376A,112.8383,22.8678,佛山市,高明孔堂,,20,20,23,8,10,45,,50,50,6,5,6,6,0.6,0.6
2024-06-19T0800,1377A,112.8836,23.1588,佛山市,三水监测站,,24,24,23,3,14,24,,29,29,19,18,2,4,0.7,0.7
2024-06-19T0800,1378A,112.867,23.185,佛山市,三水云东海,,31,31,23,12,13,27,,29,29,21,20,5,4,0.6,0.6
2024-06-19T0800,3625A,113.2544,22.7642,佛山市,容桂街道办,,13,9,18,9,13,29,,30,30,17,18,6,6,0.5,0.4
2024-06-19T0800,1280A,119.3903,26.0543,福州市,鼓山,,,,,,,,,,,,,,,,
2024-06-19T0800,1282A,119.2681,26.0504,福州市,师大,,21,21,20,11,14,54,,63,63,16,13,4,4,0.5,0.4
2024-06-19T0800,1283A,119.2984,26.1028,福州市,五四北路,细颗粒物(PM2.5),54,38,24,38,20,43,,52,52,10,17,3,3,0.4,0.4
2024-06-19T0800,1284A,119.2648,26.0768,福州市,杨桥西路,,26,24,21,18,16,55,,64,64,12,14,3,3,0.4,0.4
2024-06-19T0800,1285A,119.317,26.0746,福州市,紫阳,,25,23,19,17,16,29,,44,44,18,17,2,3,0.6,0.4
2024-06-19T0800,3048A,119.5799,26.0936,福州市,九龙,,21,14,10,3,2,66,,69,69,2,2,4,4,0.2,0.2
2024-06-19T0800,3526A,119.5189,25.9664,福州市,吴航,,32,29,21,22,15,55,,64,64,12,6,4,4,0.4,0.4
2024-06-19T0800,1755A,123.7977,41.8491,抚顺市,望花区,颗粒物(PM10),55,60,59,21,27,142,,135,135,24,24,10,13,0.6,0.9
2024-06-19T0800,1756A,123.9161,41.8822,抚顺市,顺城区,颗粒物(PM10),51,52,70,24,33,149,,73,73,28,36,25,15,1.0,0.9
2024-06-19T0800,1757A,124.0436,41.8611,抚顺市,东洲区,,,72,76,22,31,150,,134,134,16,17,10,13,,0.7
2024-06-19T0800,1758A,123.9247,41.8642,抚顺市,新抚区,,45,42,59,24,29,143,,83,83,20,23,10,9,0.9,0.9
2024-06-19T0800,1759A,124.0972,41.8961,抚顺市,大伙房水库,颗粒物(PM10),52,53,57,23,28,141,,126,126,13,12,12,11,0.7,0.7
2024-06-19T0800,1760A,123.7086,41.8391,抚顺市,沈抚新城,颗粒物(PM10),56,61,54,22,29,131,,116,116,31,27,13,13,0.6,1
2024-06-19T0800,2376A,116.2127,28.0814,抚州市,桐源党溪,,29,29,31,18,18,18,,8,8,5,9,7,10,0.2,0.4
2024-06-19T0800,2377A,116.3544,27.9831,抚州市,市站,,30,30,27,16,15,22,,12,12,9,14,6,6,0.7,0.8
2024-06-19T0800,2378A,116.3565,27.963,抚州市,血防站,,28,28,27,14,13,18,,10,10,12,17,5,3,0.6,0.8
2024-06-19T0800,2379A,116.3564,28.0007,抚州市,采茶剧团,,24,24,23,14,15,24,,10,10,9,15,4,4,0.8,0.8
2024-06-19T0800,2380A,116.385,27.9647,抚州市,医学分院,,31,31,29,13,13,16,,10,10,11,11,4,8,0.9,1
2024-06-19T0800,2207A,121.6094,41.998,阜新市,工业园区,,49,49,61,16,29,138,,147,147,8,19,13,15,0.6,0.8
2024-06-19T0800,2208A,121.6697,42.0279,阜新市,长青街,颗粒物(PM10),51,52,56,21,27,127,,154,154,17,18,13,12,0.6,0.9
2024-06-19T0800,2209A,121.6673,42.0705,阜新市,农业园区,颗粒物(PM10),52,53,71,24,35,126,,148,148,21,24,12,23,0.5,0.8
2024-06-19T0800,2210A,121.6717,42.0224,阜新市,东苑,颗粒物(PM10),53,55,64,14,29,121,,147,147,23,21,16,19,0.6,0.9
2024-06-19T0800,2211A,121.6506,42.0498,阜新市,玉龙新城,,42,42,58,18,29,126,,143,143,22,23,13,15,0.6,0.8
2024-06-19T0800,2301A,115.8277,32.8929,阜阳市,市监测站,,49,49,47,24,22,117,,122,122,19,17,9,9,0.5,0.4
2024-06-19T0800,2303A,115.8554,32.8605,阜阳市,开发区,,44,44,43,25,21,123,,125,125,20,18,7,7,0.4,0.4
2024-06-19T0800,2875A,115.784,32.8892,阜阳市,阜阳职业技术学院,颗粒物(PM10),53,56,43,25,18,124,,132,132,17,14,8,7,0.4,0.3
2024-06-19T0800,3468A,115.7901,32.8613,阜阳市,市规划展馆,细颗粒物(PM2.5),59,60,45,42,21,116,,127,127,21,18,9,7,0.7,0.4
2024-06-19T0800,3469A,115.836,32.9183,阜阳市,枣园社区,颗粒物(PM10),54,57,41,33,21,112,,126,126,20,17,8,7,0.6,0.4
2024-06-19T0800,2669A,102.9099,34.9841,甘南藏族自治州,州政府,,36,36,21,20,14,21,,18,18,13,16,6,5,0.9,0.8
2024-06-19T0800,3380A,102.8914,34.9617,甘南藏族自治州,甘肃民族师范学院,,34,34,26,18,14,15,,5,5,16,22,8,8,0.8,0.7
2024-06-19T0800,2570A,101.9603,30.0475,甘孜藏族自治州,水桥子,,14,,8,6,4,44,,49,49,16,13,3,3,0.3,0.3
2024-06-19T0800,3065A,101.9533,29.9972,甘孜藏族自治州,州环保局,,15,11,9,3,5,47,,49,49,20,19,2,2,0.3,0.3
2024-06-19T0800,3414A,115.8347,28.932,赣江新区,桑海产业园,,18,14,8,6,6,56,,54,54,23,22,11,10,0.5,0.5
2024-06-19T0800,2362A,114.9017,25.9149,赣州市,通天岩,,,,,,,,,,,,,,,,
2024-06-19T0800,2363A,114.9367,25.8664,赣州市,地委,,16,16,16,9,10,40,,48,48,14,7,10,8,1.1,1
2024-06-19T0800,2364A,114.9461,25.8481,赣州市,气象台,,21,21,16,10,10,34,,44,44,10,8,5,5,0.4,0.4
2024-06-19T0800,2365A,114.9322,25.8333,赣州市,市图书馆,,13,12,15,9,7,35,,44,44,5,5,10,5,0.8,0.8
2024-06-19T0800,2366A,114.8905,25.8471,赣州市,华坚鞋城,,19,19,25,6,10,31,,41,41,6,6,7,5,0.5,0.5
2024-06-19T0800,3109A,115.0093,25.8613,赣州市,赣县区卫计委,,21,21,19,14,8,33,,30,30,14,13,7,7,0.6,0.5
2024-06-19T0800,2683A,106.2319,36.1417,固原市,马园,,23,23,25,12,8,45,,50,50,30,21,5,6,0.7,0.6
2024-06-19T0800,2684A,106.2792,36.0022,固原市,监测站,,23,23,27,16,13,70,,62,62,20,15,5,5,0.3,0.3
2024-06-19T0800,2685A,106.2375,36.0211,固原市,新区,,25,16,26,10,9,79,,62,62,15,10,5,5,0.4,0.4
2024-06-19T0800,3522A,106.2177,35.9959,固原市,原州区十五小,,30,30,23,15,12,78,,87,87,19,10,5,5,0.5,0.4
2024-06-19T0800,2543A,106.6308,30.5278,广安市,小平旧居,,,,,,,,,,,,,,,,
2024-06-19T0800,2544A,106.6303,30.4576,广安市,市委,,37,37,31,20,16,33,,31,31,15,17,8,8,0.6,0.6
2024-06-19T0800,2545A,106.6271,30.4663,广安市,友谊中学,,25,22,21,17,16,34,,43,43,21,17,7,7,0.7,0.7
2024-06-19T0800,2547A,106.6388,30.4551,广安市,广电花园,,35,35,28,20,16,32,,32,32,17,16,10,10,0.6,0.6
2024-06-19T0800,2902A,106.6351,30.4865,广安市,北辰小学,,33,33,26,21,16,31,,29,29,17,13,11,11,0.6,0.6
2024-06-19T0800,2523A,105.8945,32.4535,广元市,黑石坡,,13,13,13,8,7,16,,25,25,9,8,15,15,0.4,0.4
2024-06-19T0800,2524A,105.821,32.4444,广元市,老城,,40,40,26,13,13,26,,16,16,20,23,7,9,0.6,0.5
2024-06-19T0800,2526A,105.8628,32.4287,广元市,监测站,,19,18,21,13,11,27,,27,27,21,11,8,6,0.8,0.6
2024-06-19T0800,3617A,105.8047,32.4166,广元市,经开区,,29,29,29,14,17,22,,18,18,22,16,6,8,0.8,0.7
2024-06-19T0800,1345A,113.2347,23.1423,广州市,广雅中学,,23,23,27,10,13,22,,27,27,27,26,4,4,0.5,0.6
2024-06-19T0800,1346A,113.2612,23.105,广州市,市五中,,26,26,29,10,17,24,,25,25,19,20,4,4,0.6,0.6
2024-06-19T0800,1348A,113.3478,23.0916,广州市,广东商学院,,21,21,26,10,13,25,,16,16,28,32,3,3,0.5,0.5
2024-06-19T0800,1349A,113.4332,23.1047,广州市,市八十六中,,20,20,26,8,11,16,,10,10,33,44,3,3,0.6,0.6
2024-06-19T0800,1350A,113.3505,22.9483,广州市,番禺中学,,23,23,27,9,12,21,,20,20,23,24,6,6,0.6,0.6
2024-06-19T0800,1351A,113.2146,23.3916,广州市,花都师范,,27,27,29,12,12,22,,20,20,22,25,5,5,0.5,0.6
2024-06-19T0800,1352A,113.2597,23.1331,广州市,市监测站,,26,26,28,12,14,21,,21,21,22,24,4,4,0.6,0.5
2024-06-19T0800,1353A,113.5618,23.312,广州市,九龙镇镇龙,,41,41,32,19,17,10,,9,9,30,28,7,6,0.4,0.4
2024-06-19T0800,1354A,113.2765,23.1544,广州市,麓湖,,21,21,28,9,13,26,,22,22,15,22,2,2,0.3,0.3
2024-06-19T0800,1355A,113.443,23.3035,广州市,帽峰山森林公园,,21,21,21,7,9,26,,27,27,17,20,2,2,0.6,0.6
2024-06-19T0800,2846A,113.3221,23.1322,广州市,体育西,,23,23,28,9,14,20,,15,15,21,26,4,4,0.5,0.6
2024-06-19T0800,3298A,113.5717,23.5491,广州市,从化街口,,23,23,22,11,10,27,,29,29,17,13,7,7,0.6,0.6
2024-06-19T0800,3299A,113.3472,23.3692,广州市,白云竹料,,21,21,30,9,14,30,,28,28,17,25,4,4,0.6,0.7
2024-06-19T0800,3300A,113.2981,23.237,广州市,白云嘉禾,,23,23,30,8,12,19,,15,15,31,34,5,5,0.7,0.7
2024-06-19T0800,3301A,113.4256,23.1716,广州市,黄埔科学城,,,,28,,12,,,11,11,26,35,,7,0.6,0.7
2024-06-19T0800,3302A,113.3942,23.0483,广州市,番禺大学城,,18,18,20,10,10,13,,16,16,23,24,4,5,0.9,0.8
2024-06-19T0800,3303A,113.4922,22.8168,广州市,南沙黄阁,,17,17,27,7,11,34,,35,35,9,12,5,5,0.6,0.6
2024-06-19T0800,3304A,113.5342,22.7896,广州市,南沙街,,15,15,27,6,9,29,,27,27,10,13,6,6,0.5,0.5
2024-06-19T0800,3443A,113.2902,23.5544,广州市,花都梯面,,30,30,29,10,11,32,,32,32,12,15,4,4,0.6,0.6
2024-06-19T0800,3445A,113.7858,23.7478,广州市,从化良口,,24,24,18,10,7,12,,9,9,9,10,4,4,0.6,0.6
2024-06-19T0800,3446A,113.8051,23.2614,广州市,增城荔城,,38,38,31,16,12,18,,13,13,23,20,5,5,0.6,0.5
2024-06-19T0800,2505A,109.568,23.1478,贵港市,德智高中,,,,,,,,,,,,,,,,
2024-06-19T0800,2506A,109.6047,23.0666,贵港市,江南子站,颗粒物(PM10),87,124,38,38,20,18,,17,17,29,17,10,9,0.9,0.7
2024-06-19T0800,2507A,109.6014,23.0948,贵港市,贵城子站,细颗粒物(PM2.5),65,67,33,47,20,12,,16,16,34,17,12,9,1.1,0.7
2024-06-19T0800,2508A,109.5669,23.1065,贵港市,荷城子站,,46,46,27,24,10,17,,29,29,26,13,14,12,0.8,0.6
2024-06-19T0800,3405A,109.5886,23.1172,贵港市,新世纪学校,,36,36,26,24,16,26,,31,31,14,13,13,13,0.9,0.8
2024-06-19T0800,1439A,106.6899,26.5998,贵阳市,马鞍山,,,2,15,,6,24,,26,26,12,15,3,5,0.5,0.6
2024-06-19T0800,1440A,106.6971,26.5694,贵阳市,市环保站,,10,,14,6,15,31,,40,40,15,16,3,4,0.3,0.5
2024-06-19T0800,1441A,106.6243,26.6266,贵阳市,鉴湖路,,10,7,17,3,9,31,,37,37,10,8,3,3,0.5,0.5
2024-06-19T0800,1442A,106.7487,26.6343,贵阳市,燕子冲,,18,12,10,12,8,26,,32,32,12,7,5,5,0.7,0.7
2024-06-19T0800,1443A,106.6555,26.4365,贵阳市,碧云窝,,19,19,20,3,6,22,,30,30,13,13,3,5,0.6,0.6
2024-06-19T0800,1444A,106.694,26.5161,贵阳市,中院村,,10,7,16,3,7,30,,39,39,15,14,4,5,0.6,0.6
2024-06-19T0800,1445A,106.7109,26.6027,贵阳市,红边门,,13,,18,9,17,26,,36,36,19,14,3,4,0.8,0.7
2024-06-19T0800,1446A,106.7164,26.5699,贵阳市,新华路,,12,,13,7,12,36,,42,42,9,10,4,3,0.5,0.6
2024-06-19T0800,1447A,106.674,26.5424,贵阳市,太慈桥,,8,6,12,3,10,25,,29,29,11,11,4,4,0.5,0.6
2024-06-19T0800,1552A,106.805,26.3003,贵阳市,桐木岭,,,,,,,,,,,,,,,,
2024-06-19T0800,1862A,110.4144,25.3167,桂林市,电子科大尧山校区,,19,19,11,3,4,37,,42,42,5,4,5,4,0.4,0.4
2024-06-19T0800,1863A,110.2819,25.2697,桂林市,监测站,,16,13,14,11,10,23,,41,41,16,9,5,5,1.0,0.9
2024-06-19T0800,1864A,110.3089,25.2708,桂林市,龙隐路小学,,16,15,12,11,10,25,,35,35,13,9,4,4,0.7,0.7
2024-06-19T0800,1865A,110.2869,25.2178,桂林市,八中,,14,14,13,6,5,19,,34,34,17,10,4,4,0.7,0.6
2024-06-19T0800,3403A,110.1764,25.2381,桂林市,创业大厦,,19,19,6,3,6,48,,44,44,6,6,6,6,0.5,0.5
2024-06-19T0800,3531A,110.296,25.1253,桂林市,旅游学院,,12,9,5,7,5,36,,38,38,7,7,6,7,0.6,0.5
2024-06-19T0800,2674A,100.2561,34.4714,果洛藏族自治州,玛沁县大武镇,,18,18,20,3,11,39,,56,56,12,14,6,8,0.4,0.4
2024-06-19T0800,1129A,126.5422,45.755,哈尔滨市,岭北,,35,35,18,10,7,93,,76,76,20,22,13,11,0.0,0.2
2024-06-19T0800,1130A,126.561,45.8167,哈尔滨市,松北商大,,26,23,26,3,7,82,,47,47,22,29,6,6,0.4,0.4
2024-06-19T0800,1131A,126.979,45.5419,哈尔滨市,阿城会宁,,24,16,28,3,9,76,,44,44,13,26,9,10,0.4,0.6
2024-06-19T0800,1132A,126.599,45.7222,哈尔滨市,南岗学府路,,30,30,40,3,8,78,,47,47,24,34,11,10,0.2,0.4
2024-06-19T0800,1133A,126.689,45.7733,哈尔滨市,太平宏伟公园,,31,31,48,7,13,76,,42,42,24,41,8,9,0.4,0.5
2024-06-19T0800,1134A,126.635,45.7667,哈尔滨市,道外承德广场,,34,34,31,3,12,78,,54,54,25,33,8,7,0.6,0.5
2024-06-19T0800,1135A,126.685,45.7319,哈尔滨市,香坊红旗大街,,39,39,44,9,15,72,,41,41,24,41,11,11,0.4,0.5
2024-06-19T0800,1136A,126.6411,45.7258,哈尔滨市,动力和平路,,24,24,36,3,13,68,,46,46,26,38,12,8,0.5,0.4
2024-06-19T0800,1137A,126.593,45.7478,哈尔滨市,道里建国路,,25,22,33,8,8,79,,50,50,29,34,15,12,0.7,1.3
2024-06-19T0800,1138A,126.615,45.61,哈尔滨市,平房东轻厂,,27,18,21,6,9,84,,53,53,14,24,8,9,0.3,0.3
2024-06-19T0800,1139A,126.595,45.9855,哈尔滨市,呼兰师专,,37,37,32,8,10,64,,36,36,30,31,8,7,0.4,0.4
2024-06-19T0800,1140A,126.6206,45.6842,哈尔滨市,省农科院,,26,26,52,11,15,72,,27,27,27,46,8,7,0.3,0.4
2024-06-19T0800,2688A,93.5128,42.8172,哈密市,地区监测站,,41,41,28,11,12,85,,104,104,11,7,3,4,0.3,0.2
2024-06-19T0800,2689A,93.4961,42.8328,哈密市,哈密师范学校,,32,23,25,9,9,100,,114,114,7,8,4,4,0.2,0.3
2024-06-19T0800,2671A,100.9048,36.9639,海北藏族自治州,海晏县西海镇,,24,24,21,15,15,42,,65,65,16,8,12,12,0.5,0.4
2024-06-19T0800,3867A,102.0738,36.5056,海东市,平安区公安北苑,,42,41,31,29,16,47,,67,67,18,11,8,9,0.5,0.5
2024-06-19T0800,1409A,110.576,19.9507,海口市,东寨港,,,,,,,,,,,,,,,,
2024-06-19T0800,1410A,110.3232,20.0574,海口市,海南大学,,28,28,26,13,13,54,,58,58,7,6,5,5,0.5,0.4
2024-06-19T0800,1411A,110.283,20.0053,海口市,秀英海南医院,,24,24,27,3,12,44,,48,48,9,8,6,6,0.3,0.3
2024-06-19T0800,1412A,110.338,19.9969,海口市,海南师范大学,,24,24,24,15,12,41,,47,47,8,6,6,6,0.5,0.4
2024-06-19T0800,1413A,110.33,20.0356,海口市,龙华路环保局宿舍,,21,21,25,14,13,46,,53,53,8,6,6,6,0.4,0.3
2024-06-19T0800,3539A,110.5111,19.9736,海口市,桂林洋子站,,26,26,25,11,11,49,,50,50,4,4,6,6,0.3,0.3
2024-06-19T0800,2673A,100.6188,36.2866,海南藏族自治州,共和县恰卜恰镇,,40,40,22,17,9,54,,69,69,25,13,21,14,0.6,0.5
2024-06-19T0800,2676A,97.3731,37.3753,海西蒙古族藏族自治州,德令哈市,,31,26,23,12,13,99,,115,115,7,8,10,12,0.5,0.6
2024-06-19T0800,1048A,114.5302,36.6116,邯郸市,东污水处理厂,颗粒物(PM10),58,66,62,29,31,105,,114,114,18,11,3,2,0.4,0.5
2024-06-19T0800,1049A,114.4918,36.5713,邯郸市,矿院,,39,35,43,27,24,105,,109,109,17,13,5,6,0.6,0.6
2024-06-19T0800,1050A,114.484,36.6133,邯郸市,丛台公园,,46,44,50,32,25,99,,108,108,9,5,4,5,0.4,0.4
2024-06-19T0800,3458A,114.7895,36.5593,邯郸市,香泉濮院小区,颗粒物(PM10),66,82,61,33,24,104,,114,114,18,10,6,3,0.4,0.3
2024-06-19T0800,3579A,114.50634,36.77178,邯郸市,永年区实验高中,颗粒物(PM10),64,78,64,44,34,100,,122,122,15,7,4,3,0.6,0.5
2024-06-19T0800,3580A,114.20016,36.44293,邯郸市,峰峰矿区临水派出所,颗粒物(PM10),59,68,64,30,21,92,,108,108,14,6,6,5,0.6,0.5
2024-06-19T0800,2634A,106.9893,33.1842,汉中市,汉川机床厂子校,,43,,24,30,27,36,,38,38,14,10,4,4,0.4,0.4
2024-06-19T0800,2635A,107.0154,33.0706,汉中市,市监测站,,32,32,29,17,13,14,,29,29,26,11,7,8,1.0,0.9
2024-06-19T0800,2636A,107.0089,33.1138,汉中市,鑫源开发区,颗粒物(PM10),52,54,29,16,14,29,,36,36,27,14,10,9,0.6,0.5
2024-06-19T0800,2637A,107.007,33.0323,汉中市,南郑大河坎水厂,,29,29,28,20,15,18,,28,28,19,9,8,8,0.7,0.6
2024-06-19T0800,1223A,120.2072,30.2111,杭州市,滨江,,11,11,15,6,9,33,,45,45,14,13,4,4,0.6,0.5
2024-06-19T0800,1224A,120.0633,30.2747,杭州市,西溪,,12,12,18,3,11,21,,26,26,10,12,6,6,0.6,0.5
2024-06-19T0800,1226A,120.3461,30.3153,杭州市,下沙,,15,15,27,3,10,38,,42,42,13,16,5,6,0.5,0.4
2024-06-19T0800,1227A,120.1269,30.2456,杭州市,卧龙桥,,15,14,20,10,11,23,,31,31,13,11,4,5,0.6,0.5
2024-06-19T0800,1228A,120.1903,30.2692,杭州市,浙江农大,,10,9,16,7,10,30,,44,44,19,15,6,7,0.5,0.4
2024-06-19T0800,1230A,120.1197,30.3119,杭州市,和睦小学,,11,11,16,6,12,29,,44,44,19,14,4,5,0.6,0.5
2024-06-19T0800,1231A,120.3019,30.4183,杭州市,临平镇,,16,16,16,8,9,23,,42,42,25,14,5,5,0.6,0.5
2024-06-19T0800,1232A,120.2697,30.1819,杭州市,城厢镇,,13,13,17,8,10,27,,40,40,18,13,5,6,0.6,0.5
2024-06-19T0800,1233A,120.0883,30.1808,杭州市,云栖,,12,12,16,8,10,16,,22,22,14,13,6,6,0.6,0.5
2024-06-19T0800,3557A,119.9464,30.0494,杭州市,镇二中,,12,8,18,3,11,19,,34,34,24,16,6,6,0.7,0.6
2024-06-19T0800,3558A,119.7183,30.2367,杭州市,市府大楼,,15,,20,10,14,21,,34,34,21,14,6,7,0.8,0.6
2024-06-19T0800,3656A,120.1556,30.2864,杭州市,消防大队,,12,9,16,8,12,33,,42,42,15,14,6,6,0.7,0.7
2024-06-19T0800,1270A,117.1959,31.7848,合肥市,明珠广场,,29,17,38,12,21,92,,107,107,22,20,6,8,0.2,0.2
2024-06-19T0800,1271A,117.3072,31.8764,合肥市,三里街,,34,34,38,19,18,82,,101,101,32,23,8,7,0.4,0.4
2024-06-19T0800,1272A,117.2588,31.8707,合肥市,琥珀山庄,,30,29,40,12,18,93,,112,112,20,16,5,8,0.7,0.6
2024-06-19T0800,1273A,117.1604,31.9052,合肥市,董铺水库,,30,9,46,7,18,96,,109,109,13,16,1,3,0.3,0.4
2024-06-19T0800,1274A,117.25,31.8571,合肥市,长江中路,,32,29,45,22,22,101,,116,116,21,20,5,8,0.6,0.6
2024-06-19T0800,1275A,117.266,31.9436,合肥市,庐阳区,,31,29,41,9,20,98,,115,115,25,22,9,9,0.3,0.3
2024-06-19T0800,1276A,117.336,31.8586,合肥市,瑶海区,,29,29,37,17,17,82,,102,102,31,19,10,10,0.4,0.3
2024-06-19T0800,1277A,117.3027,31.7964,合肥市,包河区,,31,22,38,12,15,97,,116,116,13,20,5,8,0.4,0.4
2024-06-19T0800,1278A,117.2776,31.7385,合肥市,滨湖新区,,34,12,30,12,20,106,,113,113,7,10,6,8,0.4,0.4
2024-06-19T0800,1279A,117.1318,31.8403,合肥市,高新区,,,14,35,7,18,,,111,111,13,16,7,9,0.6,0.6
2024-06-19T0800,3464A,117.3803,31.9147,合肥市,高教基地,,29,,34,20,18,73,,99,99,13,13,6,7,0.4,0.4
2024-06-19T0800,3614A,79.924,37.0877,和田地区,地区环保局,颗粒物(PM10),109,167,277,43,70,94,,100,100,2,3,5,7,0.4,0.4
2024-06-19T0800,3615A,79.9131,37.113,和田地区,市环保局,颗粒物(PM10),99,148,264,54,71,98,,103,103,4,6,5,6,0.4,0.4
2024-06-19T0800,2516A,108.2011,24.715,河池市,东仁乐园,,46,46,22,22,9,29,,21,21,6,7,4,4,0.7,0.7
2024-06-19T0800,2517A,108.0497,24.6947,河池市,市环保站,,31,31,16,11,8,16,,21,21,13,11,7,8,0.7,0.6
2024-06-19T0800,2518A,108.0983,24.6989,河池市,市疾控中心,,29,29,15,13,8,16,,19,19,18,15,7,7,0.6,0.5
2024-06-19T0800,1696A,114.6778,23.7569,河源市,源西,,32,32,32,19,17,9,,15,15,19,13,4,4,0.6,0.5
2024-06-19T0800,1697A,114.6944,23.7586,河源市,东埔,,27,27,30,6,7,20,,15,15,12,12,6,6,0.6,0.6
2024-06-19T0800,1698A,114.6892,23.7233,河源市,老城,,16,16,25,8,7,16,,9,9,7,10,5,5,0.5,0.4
2024-06-19T0800,1718A,115.4208,35.2464,菏泽市,气象局,颗粒物(PM10),62,73,60,29,24,133,,131,131,29,18,9,5,0.4,0.3
2024-06-19T0800,1719A,115.4747,35.2375,菏泽市,市政协,颗粒物(PM10),63,75,60,36,25,128,,122,122,22,13,10,6,0.3,0.2
2024-06-19T0800,3374A,115.5564,35.0891,菏泽市,定陶老年大学,颗粒物(PM10),56,61,50,22,18,125,,116,116,24,17,8,5,0.3,0.1
2024-06-19T0800,3647A,115.4702,35.2706,菏泽市,菏泽医专,颗粒物(PM10),60,70,61,29,19,133,,122,122,23,18,7,4,0.2,0.3
2024-06-19T0800,2514A,111.5264,24.4172,贺州市,环保小区,,22,22,17,7,9,36,,42,42,9,11,8,9,0.9,0.8
2024-06-19T0800,2515A,111.5608,24.4078,贺州市,政协大楼,,32,29,21,22,10,37,,45,45,11,13,7,8,0.6,0.5
2024-06-19T0800,3534A,111.4744,24.4553,贺州市,西湾,,16,,15,11,10,26,,30,30,21,16,7,8,0.6,0.5
2024-06-19T0800,2385A,114.17,35.9019,鹤壁市,市监测站,颗粒物(PM10),59,68,53,35,29,90,,100,100,23,12,10,7,0.7,0.7
2024-06-19T0800,2386A,114.2956,35.7511,鹤壁市,市交警支队,细颗粒物(PM2.5),67,68,56,48,32,107,,95,95,24,15,11,8,0.5,0.5
2024-06-19T0800,2387A,114.2878,35.7306,鹤壁市,迎宾馆,颗粒物(PM10),63,75,52,41,36,98,,92,92,33,22,11,9,0.5,0.5
2024-06-19T0800,3474A,114.2617,35.6822,鹤壁市,大新区,颗粒物(PM10),62,74,55,34,26,82,,73,73,35,25,9,6,0.8,0.7
2024-06-19T0800,3596A,114.1572,35.9603,鹤壁市,南山宾馆,细颗粒物(PM2.5),68,77,54,49,35,87,,105,105,23,9,9,8,0.7,0.6
2024-06-19T0800,2244A,130.2537,47.3416,鹤岗市,哈啤分公司,,31,31,16,9,9,17,,19,19,13,6,14,14,0.4,0.3
2024-06-19T0800,2245A,130.2684,47.3086,鹤岗市,斯达机电,,25,25,19,7,8,13,,24,24,18,10,12,12,0.3,0.3
2024-06-19T0800,2246A,130.3114,47.3388,鹤岗市,东山纸板厂,,19,19,37,3,8,11,,8,8,14,12,16,16,0.4,0.5
2024-06-19T0800,2247A,130.1097,47.3382,鹤岗市,五号水库,,18,16,17,12,10,19,,16,16,10,6,9,9,0.4,0.3
2024-06-19T0800,2263A,127.4833,50.2524,黑河市,交通局,,25,18,28,17,18,30,,33,33,4,12,6,6,0.3,0.4
2024-06-19T0800,2264A,127.5144,50.2341,黑河市,环保局,,33,24,25,23,17,22,,32,32,14,13,14,10,0.2,0.2
2024-06-19T0800,2265A,127.5291,50.2472,黑河市,大黑河岛,,,,22,20,18,53,,61,61,10,14,4,8,,0.5
2024-06-19T0800,1074A,115.6838,37.7541,衡水市,电机北厂,颗粒物(PM10),57,63,75,9,27,137,,144,144,17,11,8,7,0.4,0.4
2024-06-19T0800,1075A,115.6303,37.7316,衡水市,市监测站,颗粒物(PM10),55,60,57,8,24,138,,143,143,15,12,6,4,0.6,0.6
2024-06-19T0800,3188A,115.6683,37.7217,衡水市,市城管局,颗粒物(PM10),53,56,66,24,24,142,,144,144,16,12,10,7,0.4,0.4
2024-06-19T0800,3459A,115.5989,37.5491,衡水市,地表水厂,颗粒物(PM10),66,82,75,20,21,136,,135,135,16,13,10,7,0.3,0.4
2024-06-19T0800,2456A,112.5003,26.9167,衡阳市,原169医院,,12,11,17,8,10,30,,28,28,9,13,3,5,0.7,0.8
2024-06-19T0800,2457A,112.6194,26.9258,衡阳市,衡阳化工总厂,,14,14,22,8,11,34,,25,25,11,8,7,7,0.7,0.6
2024-06-19T0800,2458A,112.6211,26.8956,衡阳市,珠晖区环保局,,13,12,21,8,9,40,,29,29,4,8,6,6,0.7,0.7
2024-06-19T0800,2459A,112.6197,26.8733,衡阳市,市委党校,,20,20,18,10,9,37,,33,33,9,9,8,8,0.6,0.6
2024-06-19T0800,2460A,112.6006,26.8919,衡阳市,市监测站,,13,13,19,9,11,30,,26,26,14,9,10,9,1.0,0.6
2024-06-19T0800,2461A,112.5664,26.9056,衡阳市,真空机电公司,,36,36,23,9,10,35,,29,29,6,11,6,8,0.7,0.9
2024-06-19T0800,3399A,112.6703,26.882,衡阳市,师范学院,,30,30,19,17,10,28,,26,26,11,8,12,8,0.9,0.7
2024-06-19T0800,2608A,103.3772,23.3993,红河哈尼族彝族自治州,污水处理厂,,20,16,20,13,12,62,,58,58,6,6,4,5,0.4,0.4
2024-06-19T0800,2609A,103.3861,23.35,红河哈尼族彝族自治州,监测站,,26,26,22,10,11,59,,59,59,9,10,6,11,0.5,0.5
2024-06-19T0800,3038A,103.3758,23.368,红河哈尼族彝族自治州,州图书馆,,20,13,19,9,9,61,,61,61,5,6,2,3,0.4,0.4
2024-06-19T0800,1090A,111.6507,40.7517,呼和浩特市,呼市一监,,38,36,63,26,23,75,,78,78,28,21,7,8,1.0,0.6
2024-06-19T0800,1091A,111.6572,40.8033,呼和浩特市,小召,,29,27,60,20,23,66,,82,82,31,26,8,8,0.7,0.6
2024-06-19T0800,1094A,111.7516,40.8369,呼和浩特市,如意水处理厂,,34,34,50,18,19,60,,67,67,38,27,5,7,0.6,0.6
2024-06-19T0800,1095A,111.7276,40.8062,呼和浩特市,二十九中,,32,31,61,22,26,76,,70,70,31,31,3,5,0.6,0.5
2024-06-19T0800,1096A,111.5512,40.7866,呼和浩特市,工大金川校区,,35,35,58,21,21,49,,56,56,60,36,6,8,0.7,0.6
2024-06-19T0800,1097A,111.717,40.7612,呼和浩特市,化肥厂生活区,,40,40,62,20,23,90,,79,79,26,27,12,13,1.1,0.7
2024-06-19T0800,3698A,111.5968,40.8178,呼和浩特市,红旗小学,,29,27,69,15,24,90,,68,68,36,33,4,7,0.6,0.5
2024-06-19T0800,3699A,111.6518,40.8389,呼和浩特市,海东办,,34,34,61,20,22,59,,48,48,48,32,6,7,0.3,0.3
2024-06-19T0800,2192A,119.7594,49.2261,呼伦贝尔市,区环保局,,32,32,38,14,15,35,,37,37,12,10,7,5,0.4,0.4
2024-06-19T0800,3061A,119.7512,49.1577,呼伦贝尔市,国华电力东,,22,22,20,7,10,46,,42,42,4,6,5,5,0.3,0.4
2024-06-19T0800,1250A,120.0751,30.8669,湖州市,城西水厂,,39,39,25,22,12,27,,42,42,28,16,4,4,0.6,0.4
2024-06-19T0800,2873A,120.0875,30.8955,湖州市,仁皇山新区,,33,32,23,23,13,26,,40,40,28,21,6,6,0.7,0.6
2024-06-19T0800,2907A,120.1844,30.8596,湖州市,吴兴区站,,29,27,20,20,11,25,,41,41,28,15,7,7,0.5,0.4
2024-06-19T0800,3562A,120.4148,30.8538,湖州市,南浔区站,,26,18,22,18,11,33,,49,49,21,13,3,4,0.5,0.4
2024-06-19T0800,1607A,120.9092,40.7136,葫芦岛市,龙港区,,29,20,58,6,22,91,,137,137,8,10,6,8,0.3,0.6
2024-06-19T0800,1608A,120.8392,40.7514,葫芦岛市,化工街,,31,31,57,7,21,81,,120,120,14,17,12,14,0.6,0.8
2024-06-19T0800,1609A,120.8341,40.7073,葫芦岛市,新区,,30,30,48,8,28,88,,135,135,16,16,6,6,0.4,0.7
2024-06-19T0800,1610A,120.8695,40.7677,葫芦岛市,东城区,,34,34,40,8,22,95,,142,142,13,16,7,11,0.6,0.8
2024-06-19T0800,2482A,109.5981,27.5721,怀化市,林科所,,20,15,8,6,7,64,,60,60,5,2,6,5,0.7,0.6
2024-06-19T0800,2483A,109.9453,27.5444,怀化市,河西地税局,,20,20,13,14,8,39,,35,35,6,9,9,11,0.8,0.7
2024-06-19T0800,2484A,109.9781,27.5342,怀化市,市四医院,,23,21,9,16,8,39,,46,46,6,6,13,5,0.9,0.9
2024-06-19T0800,2485A,109.9972,27.5578,怀化市,监测楼,,25,25,12,11,7,39,,54,54,8,4,7,6,0.7,0.6
2024-06-19T0800,2486A,110.0394,27.583,怀化市,市委党校,,,22,10,12,9,,,55,55,6,5,10,7,0.7,0.7
2024-06-19T0800,1210A,119.036,33.5981,淮安市,钵池山,,,36,40,27,20,82,,82,82,,21,8,8,0.5,0.4
2024-06-19T0800,1211A,119.007,33.575,淮安市,北京南路,,49,39,42,34,23,79,,83,83,15,16,9,8,0.5,0.4
2024-06-19T0800,1212A,118.989,33.6067,淮安市,市监测站,,46,46,41,24,20,78,,85,85,17,17,8,8,0.7,0.5
2024-06-19T0800,1213A,119.135,33.5039,淮安市,楚州区监测站,,50,46,51,35,24,75,,74,74,20,21,8,7,0.5,0.5
2024-06-19T0800,1214A,119.0186,33.6297,淮安市,淮阴区监测站,,46,46,43,31,21,83,,84,84,18,20,8,8,0.5,0.5
2024-06-19T0800,3426A,118.8755,33.2894,淮安市,新华书店,颗粒物(PM10),51,52,44,30,23,76,,85,85,22,16,8,8,0.6,0.6
2024-06-19T0800,2282A,116.8004,33.975,淮北市,监测站,颗粒物(PM10),54,57,50,30,20,126,,143,143,14,10,7,8,0.5,0.4
2024-06-19T0800,2283A,116.8091,33.9007,淮北市,烈山区政府,颗粒物(PM10),55,60,62,22,22,127,,138,138,19,13,7,7,0.6,0.5
2024-06-19T0800,3330A,116.8873,33.9836,淮北市,杜集区检察院,,49,49,49,29,19,137,,155,155,12,11,9,8,0.4,0.4
2024-06-19T0800,4017A,116.7923,33.9535,淮北市,市博物馆,,47,47,48,29,21,132,,149,149,11,8,7,7,0.6,0.5
2024-06-19T0800,2277A,116.8305,32.7727,淮南市,潘集区政府,颗粒物(PM10),51,51,52,33,25,120,,120,120,18,14,12,9,0.4,0.4
2024-06-19T0800,2278A,117.0067,32.6524,淮南市,师范学院,颗粒物(PM10),53,56,49,31,28,103,,116,116,18,13,11,11,0.3,0.3
2024-06-19T0800,2279A,116.8569,32.5951,淮南市,谢家集区政府,,48,48,46,17,12,118,,124,124,17,17,9,13,0.3,0.3
2024-06-19T0800,2280A,116.8281,32.633,淮南市,八公山区政府,颗粒物(PM10),57,64,50,32,24,114,,126,126,16,12,4,5,0.4,0.4
2024-06-19T0800,2281A,116.6325,32.6201,淮南市,焦岗湖风景区管理处,,37,37,35,10,12,80,,92,92,20,20,8,9,0.4,0.3
2024-06-19T0800,2894A,117.0566,32.6531,淮南市,经济技术开发区消防队,颗粒物(PM10),53,56,46,12,18,109,,110,110,18,16,6,5,0.4,0.3
2024-06-19T0800,3329A,117.0108,32.5893,淮南市,山南新区,,48,43,49,33,18,120,,126,126,15,13,8,7,0.5,0.4
2024-06-19T0800,2446A,114.9028,30.4742,黄冈市,职工中心,,23,,24,16,16,44,,49,49,10,9,8,9,0.6,0.5
2024-06-19T0800,2929A,114.8858,30.4519,黄冈市,红卫路,,25,20,22,17,14,51,,57,57,12,11,8,8,0.4,0.4
2024-06-19T0800,3398A,114.9136,30.4445,黄冈市,市林业局,,23,17,23,16,16,42,,50,50,11,11,4,4,0.3,0.3
2024-06-19T0800,2672A,102.0199,35.5102,黄南藏族自治州,同仁县隆务镇,,19,19,42,12,7,60,,70,70,3,2,12,11,0.7,0.7
2024-06-19T0800,2295A,118.2903,29.6963,黄山市,延安路89号,,14,14,23,3,5,26,,35,35,8,5,5,5,0.6,0.6
2024-06-19T0800,2296A,118.327,29.7178,黄山市,黄山东路89号,,13,13,10,3,4,29,,34,34,6,4,5,5,0.4,0.4
2024-06-19T0800,2297A,118.1371,30.2756,黄山市,黄山区政府5号楼,,12,,12,8,7,21,,23,23,6,6,6,6,0.4,0.4
2024-06-19T0800,2423A,115.0601,30.2313,黄石市,沈家营,,36,36,35,8,9,31,,37,37,21,23,14,10,0.6,0.6
2024-06-19T0800,2424A,115.0817,30.2006,黄石市,陈家湾,,44,44,33,10,11,38,,47,47,15,10,4,4,0.7,0.6
2024-06-19T0800,2426A,114.8988,30.2019,黄石市,铁山,,20,20,25,10,9,38,,44,44,8,7,7,9,0.3,0.4
2024-06-19T0800,2427A,115.0307,30.2092,黄石市,团城山,,30,30,31,6,6,45,,50,50,6,7,7,6,0.6,0.5
2024-06-19T0800,3149A,115.0235,30.1578,黄石市,笔架山北路,,41,41,37,3,6,32,,40,40,8,7,6,6,0.9,0.7
2024-06-19T0800,1392A,114.4183,23.0528,惠州市,河南岸金山湖子站,,26,26,21,13,9,17,,11,11,15,10,6,4,0.5,0.4
2024-06-19T0800,1393A,114.4053,23.0822,惠州市,下埔横江三路子站,,25,25,24,13,11,24,,24,24,14,12,7,6,0.6,0.5
2024-06-19T0800,1394A,114.4103,23.1142,惠州市,江北云山西路子站,,26,26,24,11,8,21,,17,17,13,11,9,8,0.6,0.5
2024-06-19T0800,1395A,114.4645,22.7833,惠州市,惠阳区承修路船湖子站,,12,12,18,3,7,31,,29,29,9,12,1,1,0.6,0.6
2024-06-19T0800,1396A,114.5317,22.7422,惠州市,大亚湾管委会子站,,14,14,19,6,8,36,,41,41,15,13,4,4,0.8,0.7
2024-06-19T0800,3314A,114.4338,22.8134,惠州市,惠阳秋长,,,34,32,9,10,,,7,7,16,18,6,6,1.0,0.8
2024-06-19T0800,3452A,114.6517,22.775,惠州市,大亚湾霞涌,,23,,17,16,9,33,,33,33,9,7,2,3,0.5,0.5
2024-06-19T0800,2240A,130.9762,45.3001,鸡西市,环保局,,43,43,37,14,12,34,,16,16,25,19,11,7,0.5,0.5
2024-06-19T0800,2243A,130.9429,45.3039,鸡西市,第一中学,,34,34,32,7,11,35,,12,12,12,15,8,8,0.4,0.3
2024-06-19T0800,3707A,131.0207,45.3073,鸡西市,欧美日汽修厂,,42,42,36,16,12,37,,16,16,18,15,8,7,0.6,0.5
2024-06-19T0800,3709A,130.9967,45.3106,鸡西市,市政设施管理处,,38,38,34,10,8,24,,8,8,26,18,8,7,0.5,0.4
2024-06-19T0800,2367A,114.9754,27.0803,吉安市,红声器材厂,,26,26,26,11,16,48,,42,42,11,13,10,11,0.2,0.4
2024-06-19T0800,2368A,114.9658,27.0999,吉安市,市森林工业局,,26,26,32,13,21,43,,40,40,11,12,12,11,0.4,0.5
2024-06-19T0800,2369A,114.99,27.1312,吉安市,市环境监测站,,23,23,29,8,17,48,,44,44,6,8,13,12,0.6,0.6
2024-06-19T0800,2370A,115.0093,27.0968,吉安市,青原区法院,,24,24,30,11,17,47,,48,48,11,14,16,16,0.4,0.4
2024-06-19T0800,1772A,126.54,43.8622,吉林市,哈达湾,,,,30,,15,,,50,50,28,30,5,9,0.6,0.5
2024-06-19T0800,1773A,126.5844,43.8358,吉林市,东局子,,40,40,29,20,14,125,,89,89,22,24,5,8,0.6,0.5
2024-06-19T0800,1774A,126.5052,43.8245,吉林市,电力学院,颗粒物(PM10),51,51,38,20,16,99,,21,21,35,36,10,11,0.8,0.6
2024-06-19T0800,1775A,126.6133,43.8972,吉林市,江北,颗粒物(PM10),58,66,38,26,16,139,,58,58,18,34,8,14,0.7,0.6
2024-06-19T0800,1776A,126.555,43.8306,吉林市,江南公园,,39,39,28,23,16,112,,78,78,27,28,4,6,0.7,0.8
2024-06-19T0800,1778A,126.7061,43.7133,吉林市,丰满,,,,,,,,,,,,,,,,
2024-06-19T0800,2868A,126.4739,43.953,吉林市,九站,颗粒物(PM10),54,58,38,28,16,99,,36,36,41,48,9,14,0.7,0.6
2024-06-19T0800,1299A,116.9862,36.6114,济南市,科干所,臭氧1小时,57,34,39,20,18,165,,159,159,15,14,10,9,0.4,0.3
2024-06-19T0800,1300A,116.9376,36.665,济南市,农科所,臭氧1小时,57,46,49,17,14,165,,147,147,19,20,10,9,0.5,0.5
2024-06-19T0800,1301A,117.1265,36.6734,济南市,开发区,臭氧1小时,52,37,42,12,15,161,,169,169,18,14,9,8,0.4,0.4
2024-06-19T0800,1303A,117.0624,36.6868,济南市,省种子仓库,颗粒物(PM10),52,53,57,22,20,145,,153,153,37,25,8,8,0.5,0.5
2024-06-19T0800,1304A,116.9489,36.6447,济南市,机床二厂,臭氧1小时,65,49,53,12,16,172,,161,161,20,20,11,11,0.4,0.4
2024-06-19T0800,1305A,117.0495,36.663,济南市,市监测站,臭氧1小时,70,34,42,17,20,176,,175,175,22,19,13,12,0.4,0.4
2024-06-19T0800,1306A,116.7675,36.5484,济南市,长清党校,臭氧1小时,84,37,46,20,19,187,,180,180,11,10,12,10,0.5,0.5
2024-06-19T0800,1616A,117.6795,36.229,济南市,技术学院,颗粒物(PM10),64,78,43,22,17,80,,82,82,36,22,16,11,0.8,0.6
2024-06-19T0800,1961A,117.532,36.6868,济南市,东山小学,,49,49,51,15,17,151,,151,151,19,17,11,9,0.6,0.5
2024-06-19T0800,3059A,117.7161,36.2049,济南市,泰兴公司,,,,46,,17,,,72,72,,22,,11,0.9,0.5
2024-06-19T0800,3064A,117.6867,36.2171,济南市,莱芜战役纪念馆,颗粒物(PM10),59,68,46,19,13,73,,77,77,36,18,16,10,0.7,0.5
2024-06-19T0800,3494A,117.1673,36.9782,济南市,济阳区政府,颗粒物(PM10),66,81,64,20,19,116,,117,117,26,17,10,7,0.6,0.4
2024-06-19T0800,3495A,117.1171,36.63,济南市,锦屏中学,臭氧1小时,70,39,41,20,16,176,,185,185,18,14,12,11,0.6,0.6
2024-06-19T0800,3682A,116.9814,36.6819,济南市,济南四建,臭氧1小时,63,34,37,20,19,170,,158,158,13,11,10,9,0.5,0.5
2024-06-19T0800,1653A,116.6251,35.4302,济宁市,火炬城,颗粒物(PM10),58,66,49,27,24,97,,118,118,25,16,15,11,0.8,0.6
2024-06-19T0800,1655A,116.5491,35.4042,济宁市,电化厂,颗粒物(PM10),59,68,57,31,24,97,,130,130,24,14,12,10,0.6,0.5
2024-06-19T0800,3500A,116.5814,35.3707,济宁市,北湖一中,颗粒物(PM10),55,59,42,29,20,90,,125,125,31,18,13,9,0.7,0.6
2024-06-19T0800,3501A,116.8249,35.5593,济宁市,服务中心,颗粒物(PM10),62,74,51,30,23,86,,113,113,29,18,12,7,0.5,0.4
2024-06-19T0800,3678A,116.5907,35.4054,济宁市,市第七中学,颗粒物(PM10),56,62,48,27,21,91,,118,118,26,15,13,8,0.7,0.5
2024-06-19T0800,2255A,130.2751,46.8028,佳木斯市,佳纺,颗粒物(PM10),52,54,34,16,12,29,,25,25,22,14,4,4,0.4,0.3
2024-06-19T0800,2256A,130.3995,46.8307,佳木斯市,发电厂,,27,27,22,14,11,41,,29,29,18,12,4,4,0.5,0.5
2024-06-19T0800,2257A,130.3258,46.7975,佳木斯市,环保局,,32,32,22,16,10,37,,41,41,18,11,5,6,0.5,0.3
2024-06-19T0800,2258A,130.3648,46.8032,佳木斯市,十一中,,22,22,25,14,14,41,,35,35,22,15,6,7,0.5,0.4
2024-06-19T0800,2259A,130.3794,46.7588,佳木斯市,四丰,,16,12,10,8,6,49,,50,50,12,5,1,1,0.6,0.5
2024-06-19T0800,1252A,120.7436,30.778,嘉兴市,清河小学,,18,18,18,6,8,40,,62,62,25,15,4,5,0.9,0.7
2024-06-19T0800,1253A,120.726,30.7478,嘉兴市,嘉兴学院,,16,16,19,9,9,35,,51,51,21,14,4,4,0.5,0.4
2024-06-19T0800,2872A,120.7846,30.7525,嘉兴市,南湖区残联,,17,10,15,10,9,54,,69,69,17,10,5,6,0.5,0.4
2024-06-19T0800,3407A,120.6916,30.7739,嘉兴市,秀洲住建,,18,18,23,6,9,38,,55,55,17,9,4,6,0.7,0.6
2024-06-19T0800,1945A,98.2908,39.7711,嘉峪关市,气象局,颗粒物(PM10),56,61,47,19,16,86,,90,90,24,20,18,14,0.2,0.2
2024-06-19T0800,2884A,98.2672,39.7978,嘉峪关市,酒钢宾馆,,48,48,56,9,19,88,,88,88,24,18,29,29,0.3,0.4
2024-06-19T0800,3248A,98.2643,39.7724,嘉峪关市,雄关区,,42,42,43,14,17,81,,89,89,23,18,12,11,0.4,0.5
2024-06-19T0800,1383A,113.1064,22.6058,江门市,北街,,15,15,22,9,11,30,,35,35,9,8,2,2,0.5,0.5
2024-06-19T0800,1384A,113.0731,22.5835,江门市,西区,,27,27,25,6,11,39,,39,39,8,8,6,6,0.5,0.5
2024-06-19T0800,1385A,113.0219,22.5311,江门市,圭峰西,,13,10,24,3,8,39,,36,36,6,7,3,3,0.5,0.4
2024-06-19T0800,1386A,113.0828,22.5947,江门市,东湖,,17,17,23,6,10,40,,42,42,9,8,6,6,0.4,0.4
2024-06-19T0800,3311A,113.1075,22.5647,江门市,江海富民,,43,43,39,9,15,38,,37,37,11,9,5,5,0.5,0.5
2024-06-19T0800,3449A,113.05,22.4667,江门市,新会银湖,,15,10,20,6,8,48,,43,43,2,3,5,5,0.4,0.5
2024-06-19T0800,1828A,113.227,35.2125,焦作市,市环保局,颗粒物(PM10),55,59,53,35,31,103,,110,110,16,12,3,3,0.4,0.4
2024-06-19T0800,1830A,113.1992,35.2590,焦作市,影视城,,,,,,,,,,,,,,,,
2024-06-19T0800,3169A,113.2725,35.2067,焦作市,太极体育中心,,,,,,,,,,,,,,,,
2024-06-19T0800,3335A,113.3137,35.2641,焦作市,马村街道办,细颗粒物(PM2.5),67,74,56,48,30,100,,106,106,21,13,2,3,0.5,0.5
2024-06-19T0800,3336A,113.2465,35.2373,焦作市,焦作技师学院,颗粒物(PM10),63,76,54,34,27,103,,114,114,19,10,3,2,0.7,0.6
2024-06-19T0800,3477A,113.1656,35.2539,焦作市,中站许衡医院,,43,39,42,30,30,121,,97,97,9,18,7,7,0.4,0.5
2024-06-19T0800,3981A,113.2449,35.1803,焦作市,原李万街道办,颗粒物(PM10),67,84,49,41,30,90,,99,99,23,15,13,8,0.8,0.6
2024-06-19T0800,1708A,116.3701,23.5345,揭阳市,新兴,,,,25,6,7,,,8,8,15,17,4,5,0.7,0.7
2024-06-19T0800,1709A,116.3264,23.5443,揭阳市,西马,,,,22,9,9,20,,15,15,,11,2,3,0.9,0.8
2024-06-19T0800,1710A,116.3611,23.5626,揭阳市,东兴,,,,30,8,7,22,,9,9,13,16,4,4,0.7,0.7
2024-06-19T0800,1711A,116.4151,23.5294,揭阳市,渔湖,,,,27,9,7,24,,9,9,13,18,4,4,0.6,0.7
2024-06-19T0800,3320A,116.403,23.5699,揭阳市,曲溪,,28,28,20,15,10,20,,6,6,16,19,10,8,0.6,0.7
2024-06-19T0800,1944A,102.1692,38.5167,金昌市,天庆家园,颗粒物(PM10),58,65,81,25,29,93,,90,90,16,8,20,13,0.7,0.5
2024-06-19T0800,3170A,102.1864,38.5253,金昌市,市委党校,颗粒物(PM10),59,68,102,35,30,88,,87,87,17,9,15,23,0.6,0.7
2024-06-19T0800,4022A,102.1647,38.5371,金昌市,金川区人防中心,颗粒物(PM10),63,75,97,26,39,92,,103,103,27,8,16,14,0.6,0.5
2024-06-19T0800,1262A,119.647,29.077,金华市,十五中,,24,24,23,16,16,16,,24,24,32,27,2,2,0.6,0.5
2024-06-19T0800,1263A,119.686,29.1029,金华市,监测站,,20,20,24,13,14,9,,18,18,38,29,2,2,0.5,0.5
2024-06-19T0800,3659A,119.656,29.1131,金华市,气象局,,27,27,26,17,11,9,,16,16,39,38,6,6,0.6,0.5
2024-06-19T0800,1767A,121.1115,41.0879,锦州市,南山,,32,32,48,10,26,93,,147,147,18,21,9,14,0.5,0.7
2024-06-19T0800,1768A,121.0533,40.8434,锦州市,开发区,颗粒物(PM10),53,55,89,6,24,90,,135,135,13,24,9,20,0.6,1
2024-06-19T0800,1769A,121.1836,41.1119,锦州市,百股街道,,34,34,46,12,25,104,,157,157,16,19,27,17,0.8,0.9
2024-06-19T0800,1770A,121.1178,41.1222,锦州市,天安街道,,33,33,54,13,27,84,,127,127,21,22,7,10,0.7,0.9
2024-06-19T0800,1771A,121.1303,41.1386,锦州市,北湖公园,,32,32,56,12,24,92,,141,141,17,18,10,13,0.6,0.8
2024-06-19T0800,2160A,112.85,35.5051,晋城市,自来水公司,颗粒物(PM10),63,76,39,29,22,76,,85,85,35,18,7,7,0.8,0.7
2024-06-19T0800,2161A,112.8318,35.4936,晋城市,白云商贸,,45,45,33,31,19,76,,75,75,35,18,7,7,0.8,0.6
2024-06-19T0800,2162A,112.8508,35.4887,晋城市,市环保局,颗粒物(PM10),62,74,49,31,24,82,,78,78,37,22,6,7,0.6,0.5
2024-06-19T0800,2163A,112.8676,35.4897,晋城市,技术学院,颗粒物(PM10),55,60,44,34,25,80,,89,89,39,23,5,6,0.8,0.7
2024-06-19T0800,2165A,112.8453,35.546,晋城市,白马寺,,,,,,,,,,,,,,,,
2024-06-19T0800,3620A,112.8271,35.4828,晋城市,泽州一中,颗粒物(PM10),57,64,45,29,20,62,,74,74,37,20,6,8,0.8,0.6
2024-06-19T0800,2171A,112.7532,37.6945,晋中市,锦纶小区,颗粒物(PM10),52,53,65,22,25,101,,110,110,24,25,12,15,0.6,0.6
2024-06-19T0800,2173A,112.7249,37.7067,晋中市,南都小区,颗粒物(PM10),53,55,61,28,29,122,,135,135,22,20,10,14,0.5,0.6
2024-06-19T0800,2174A,112.6991,37.6982,晋中市,榆次区政府,颗粒物(PM10),54,58,59,28,30,112,,126,126,25,23,9,14,0.5,0.5
2024-06-19T0800,2865A,112.7195,37.6828,晋中市,榆次三中,颗粒物(PM10),56,61,61,24,26,100,,114,114,31,23,10,14,0.7,0.8
2024-06-19T0800,2439A,112.2014,31.0481,荆门市,竹园小学,细颗粒物(PM2.5),69,80,45,50,28,41,,78,78,41,16,12,11,0.7,0.6
2024-06-19T0800,2440A,112.1969,30.9891,荆门市,掇刀,,45,,37,31,31,90,,98,98,20,13,6,7,0.8,0.7
2024-06-19T0800,2441A,112.2213,31.0386,荆门市,石化一小,颗粒物(PM10),57,63,45,32,24,57,,88,88,43,15,23,17,1.1,0.5
2024-06-19T0800,3012A,112.1849,31.0362,荆门市,西山林语,,46,46,38,31,25,76,,87,87,22,12,7,8,0.5,0.3
2024-06-19T0800,3547A,112.1632,31.0138,荆门市,龙泉中学南校,,36,36,35,20,20,97,,70,70,14,13,9,9,0.6,0.6
2024-06-19T0800,1844A,112.2494,30.3197,荆州市,市图书馆,,42,42,36,23,25,78,,82,82,16,14,5,6,0.7,0.6
2024-06-19T0800,1845A,112.2008,30.3544,荆州市,市委党校,颗粒物(PM10),51,51,38,21,28,70,,83,83,15,13,5,5,0.8,0.6
2024-06-19T0800,3194A,112.2747,30.3122,荆州市,管委会,,50,42,37,35,26,76,,82,82,15,13,4,4,0.7,0.6
2024-06-19T0800,3548A,112.1655,30.3364,荆州市,学苑路,细颗粒物(PM2.5),74,,40,54,38,94,,87,87,9,11,6,6,0.6,0.6
2024-06-19T0800,2342A,117.3102,29.3867,景德镇市,王港中学,,,,,,,,,,,,,,,,
2024-06-19T0800,2343A,117.2117,29.2933,景德镇市,老干部活动中心,,10,10,8,3,7,26,,33,33,11,9,6,5,0.5,0.5
2024-06-19T0800,2344A,117.1894,29.2789,景德镇市,兽医站,,,11,11,3,6,,,37,37,16,8,5,5,,0.6
2024-06-19T0800,2345A,117.1547,29.2617,景德镇市,台达陶瓷,,11,,9,7,8,16,,27,27,22,13,16,8,0.3,0.3
2024-06-19T0800,2346A,117.2461,29.2956,景德镇市,陶研所,,12,9,9,3,5,37,,36,36,4,4,4,4,0.2,0.2
2024-06-19T0800,1803A,115.9872,29.6815,九江市,十里,,11,6,17,3,8,33,,36,36,13,14,9,9,0.7,0.6
2024-06-19T0800,1804A,115.9584,29.7046,九江市,茅山头,,9,,9,3,5,20,,31,31,17,12,10,10,0.7,0.5
2024-06-19T0800,1805A,115.9877,29.7295,九江市,西园,,12,12,10,3,6,36,,48,48,24,21,16,13,0.8,0.7
2024-06-19T0800,1806A,116.0172,29.6547,九江市,五七二七厂,,8,6,8,3,7,23,,24,24,9,9,8,8,0.7,0.6
2024-06-19T0800,1808A,115.9114,29.6038,九江市,综合工业园,,18,,11,7,8,20,,21,21,36,31,10,11,0.9,0.8
2024-06-19T0800,1809A,116.0721,29.7535,九江市,石化总厂,,12,8,13,8,11,25,,37,37,13,11,10,10,0.7,0.6
2024-06-19T0800,1810A,115.9773,29.5698,九江市,庐山气象台,,18,,6,6,5,57,,61,61,1,2,6,7,1.1,0.9
2024-06-19T0800,3190A,116.0254,29.6994,九江市,外国语学校,,12,,5,8,7,24,,39,39,16,15,18,17,0.7,0.6
2024-06-19T0800,2658A,98.5061,39.7443,酒泉市,仓门街子站,,36,36,49,6,10,99,,85,85,20,22,4,8,0.2,0.3
2024-06-19T0800,2659A,98.4989,39.7256,酒泉市,油田生活基地,,41,41,50,7,10,105,,91,91,18,20,5,7,0.2,0.2
2024-06-19T0800,2698A,76.0072,39.4467,喀什地区,巡警大队,,31,16,25,6,5,97,,109,109,14,10,3,3,0.2,0.1
2024-06-19T0800,2699A,75.9755,39.4694,喀什地区,吾办,,31,20,25,3,14,97,,114,114,10,8,3,3,0.3,0.2
2024-06-19T0800,4027A,75.9483,39.4689,喀什地区,老干局,颗粒物(PM10),61,72,43,3,6,62,,101,101,41,10,2,3,0.2,0.1
2024-06-19T0800,1824A,114.3389,34.7781,开封市,肿瘤医院,颗粒物(PM10),62,74,57,29,20,100,,94,94,20,15,11,4,0.6,0.4
2024-06-19T0800,1826A,114.2885,34.7965,开封市,世纪星幼儿园,颗粒物(PM10),53,56,53,28,20,115,,108,108,19,12,4,2,0.6,0.5
2024-06-19T0800,3147A,114.3438,34.8106,开封市,龙亭公园,,,,,,,,,,,,,,,,
2024-06-19T0800,3210A,114.3644,34.7964,开封市,汴京公园,颗粒物(PM10),59,68,58,41,26,107,,100,100,23,16,4,5,0.5,0.5
2024-06-19T0800,3473A,114.2485,34.8306,开封市,技师学院,颗粒物(PM10),51,51,51,27,25,126,,128,128,20,13,9,6,0.6,0.5
2024-06-19T0800,3592A,114.4644,34.7556,开封市,祥符区生态环境局,颗粒物(PM10),66,81,54,37,26,79,,75,75,34,28,5,4,0.5,0.4
2024-06-19T0800,1951A,84.895,45.6094,克拉玛依市,长征新村,,36,,12,10,5,115,,119,119,1,3,9,9,0.1,0.1
2024-06-19T0800,1952A,84.8988,45.5893,克拉玛依市,南林小区,,37,12,13,3,11,118,,120,120,2,5,10,10,0.1,0.1
2024-06-19T0800,1954A,84.905,44.3396,克拉玛依市,独山子区,,36,11,16,6,7,115,,118,118,5,5,9,9,0.2,0.2
2024-06-19T0800,1955A,85.6979,46.098,克拉玛依市,乌尔禾区商贸楼,,24,12,12,3,7,74,,111,111,16,4,8,8,0.5,0.2
2024-06-19T0800,3612A,85.1045,45.6899,克拉玛依市,白碱滩区新站,,40,,16,14,14,126,,122,122,2,2,9,9,0.0,0
2024-06-19T0800,2697A,76.1454,39.7142,克孜勒苏柯尔克孜自治州,市人民政府,,37,25,25,11,10,117,,120,120,5,7,10,9,0.4,0.4
2024-06-19T0800,3665A,76.1658,39.7157,克孜勒苏柯尔克孜自治州,克州文化中心,,40,11,17,11,9,125,,125,125,1,4,12,10,0.3,0.3
2024-06-19T0800,1450A,102.8204,24.8886,昆明市,呈贡新区,,40,40,28,20,14,50,,61,61,16,9,6,4,0.9,0.7
2024-06-19T0800,1451A,102.6251,24.9608,昆明市,西山森林公园,,,,,,,,,,,,,,,,
2024-06-19T0800,1452A,102.7252,25.0902,昆明市,龙泉镇,,33,33,21,8,11,50,,56,56,18,12,7,7,0.7,0.6
2024-06-19T0800,1453A,102.7266,25.0375,昆明市,东风东路,,26,26,22,13,13,50,,60,60,16,12,2,2,0.7,0.6
2024-06-19T0800,1454A,102.6742,25.0669,昆明市,金鼎山,,33,33,28,14,10,44,,59,59,24,14,19,17,0.5,0.4
2024-06-19T0800,1455A,102.6644,25.0401,昆明市,碧鸡广场,,31,31,24,17,12,46,,56,56,18,12,4,3,0.5,0.4
2024-06-19T0800,3179A,102.7494,25.0119,昆明市,官渡区博物馆,,22,22,20,11,12,58,,67,67,11,8,8,9,0.5,0.5
2024-06-19T0800,3375A,102.8017,24.8336,昆明市,青年创业园,,36,36,23,21,14,41,,56,56,17,8,14,8,0.7,0.4
2024-06-19T0800,3550A,102.7997,24.9786,昆明市,昆明学院,,31,31,24,17,13,60,,67,67,13,9,11,9,0.6,0.6
2024-06-19T0800,3551A,102.5967,24.6736,昆明市,晋宁区生态环境分局,,37,37,25,22,14,45,,57,57,13,8,2,2,0.8,0.7
2024-06-19T0800,3552A,102.6678,24.9856,昆明市,云天化总部,,25,25,20,17,12,65,,73,73,7,6,1,2,0.6,0.6
2024-06-19T0800,1456A,91.1319,29.6514,拉萨市,八廓街,,34,,13,20,9,106,,110,110,15,16,7,9,0.3,0.3
2024-06-19T0800,1457A,91.1221,29.6747,拉萨市,市环保局,,34,16,17,6,9,107,,102,102,14,18,8,13,0.5,0.5
2024-06-19T0800,1458A,91.0874,29.6475,拉萨市,区监测站,,31,6,12,3,7,99,,105,105,21,16,6,6,0.4,0.3
2024-06-19T0800,1459A,91.1774,29.6541,拉萨市,西藏大学,,35,,14,14,7,112,,114,114,8,11,6,7,0.3,0.4
2024-06-19T0800,1460A,90.9798,29.6588,拉萨市,区辐射站,,30,16,14,8,7,95,,110,110,12,15,9,8,0.4,0.3
2024-06-19T0800,1461A,91.0834,29.6292,拉萨市,拉萨火车站,,32,6,12,3,8,100,,107,107,24,17,7,7,0.2,0.2
2024-06-19T0800,2520A,109.2203,23.7256,来宾市,来宾技工学校,,33,33,23,22,13,31,,29,29,11,10,5,5,0.9,0.8
2024-06-19T0800,3535A,109.1781,23.7297,来宾市,兴宾区政府,,28,28,20,17,11,42,,40,40,8,8,4,6,0.9,0.8
2024-06-19T0800,4002A,109.2416,23.7461,来宾市,中南小学,,50,50,25,25,14,23,,22,22,17,14,3,3,1.4,1.1
2024-06-19T0800,1476A,103.631,36.1031,兰州市,兰炼宾馆,颗粒物(PM10),66,81,77,46,38,45,,49,49,35,21,74,20,1.0,0.4
2024-06-19T0800,1477A,104.1373,35.9454,兰州市,榆中兰大校区,,,,,,,,,,,,,,,,
2024-06-19T0800,1478A,103.8412,36.0726,兰州市,生物制品所,颗粒物(PM10),73,96,78,33,34,19,,13,13,54,32,16,11,0.8,0.4
2024-06-19T0800,1479A,103.831,36.0464,兰州市,铁路设计院,颗粒物(PM10),66,82,75,31,29,38,,34,34,51,42,38,11,0.8,0.4
2024-06-19T0800,3186A,103.7158,36.1058,兰州市,教育港,颗粒物(PM10),84,118,111,39,35,33,,20,20,38,27,47,14,0.7,0.4
2024-06-19T0800,3241A,103.7439,36.0842,兰州市,百合公园,颗粒物(PM10),73,96,73,29,28,15,,24,24,43,29,10,5,0.4,0.3
2024-06-19T0800,3242A,103.9611,35.998,兰州市,和平,颗粒物(PM10),55,60,62,23,24,63,,90,90,31,14,9,9,0.6,0.4
2024-06-19T0800,3245A,103.6633,36.533,兰州新区,新区管委会,颗粒物(PM10),74,97,68,30,31,46,,46,46,25,16,9,13,0.4,0.4
2024-06-19T0800,3246A,103.6975,36.4789,兰州新区,舟曲中学,颗粒物(PM10),75,99,94,35,32,58,,44,44,25,19,19,14,0.6,0.5
2024-06-19T0800,1067A,116.6708,39.5111,廊坊市,药材公司,颗粒物(PM10),66,81,79,37,35,120,,122,122,20,15,3,3,0.6,0.6
2024-06-19T0800,1068A,116.7214,39.5589,廊坊市,开发区,颗粒物(PM10),61,72,74,35,30,136,,148,148,22,16,5,4,0.5,0.4
2024-06-19T0800,1070A,116.7244,39.5269,廊坊市,北华航天学院,颗粒物(PM10),67,83,86,32,29,123,,129,129,22,15,3,2,0.5,0.5
2024-06-19T0800,2919A,116.7022,39.5453,廊坊市,河北工业大学,颗粒物(PM10),65,79,81,32,31,132,,141,141,18,12,4,3,0.5,0.4
2024-06-19T0800,2535A,103.7723,29.5462,乐山市,花湖湾,,28,28,23,18,21,36,,51,51,11,15,3,3,0.5,0.5
2024-06-19T0800,2536A,103.7627,29.5844,乐山市,牛耳桥,,25,17,25,17,22,54,,68,68,18,17,2,3,0.4,0.5
2024-06-19T0800,2537A,103.7508,29.6006,乐山市,市第三水厂,,21,21,27,12,18,52,,72,72,22,16,2,3,0.6,0.5
2024-06-19T0800,2538A,103.7571,29.5664,乐山市,市监测站,,24,22,29,16,20,74,,73,73,8,15,2,3,0.5,0.5
2024-06-19T0800,3361A,103.7311,29.5628,乐山市,理工大学,,22,20,25,15,20,39,,59,59,16,15,7,6,0.6,0.5
2024-06-19T0800,2598A,100.2143,26.8576,丽江市,西南郊,,,,,,,,,,,,,,,,
2024-06-19T0800,2599A,100.2497,26.8802,丽江市,丽江古城,,18,16,19,10,12,56,,63,63,20,12,6,6,0.6,0.6
2024-06-19T0800,2600A,100.2203,26.8906,丽江市,市中心,,23,17,17,8,10,72,,77,77,13,8,8,8,0.5,0.6
2024-06-19T0800,1267A,119.914,28.4514,丽水市,监测站大楼,,29,21,12,20,9,26,,21,21,17,17,3,2,0.4,0.3
2024-06-19T0800,1268A,119.93,28.4586,丽水市,莲都小学,,31,31,15,12,6,22,,12,12,19,18,4,3,0.5,0.4
2024-06-19T0800,1269A,119.879,28.4231,丽水市,余庄前,,36,36,13,25,8,22,,12,12,16,10,2,2,0.5,0.4
2024-06-19T0800,1173A,119.176,34.5885,连云港市,市环境监测站,,31,31,44,12,14,93,,93,93,12,13,6,7,0.3,0.5
2024-06-19T0800,3000A,119.3581,34.6972,连云港市,德源药业,,32,22,36,12,11,100,,86,86,14,14,7,6,0.5,0.4
2024-06-19T0800,3007A,119.178,34.844,连云港市,新城一中,,48,48,58,11,14,99,,85,85,17,20,6,7,0.7,0.7
2024-06-19T0800,3008A,119.3608,34.7519,连云港市,胡沟管理处,,34,34,38,22,12,104,,117,117,14,13,11,9,0.7,0.6
2024-06-19T0800,3009A,119.1478,34.5911,连云港市,矿山设计院,,29,24,42,9,13,92,,92,92,12,13,3,3,0.3,0.3
2024-06-19T0800,3434A,119.2413,34.6539,连云港市,工贸学校,,35,35,38,13,13,106,,110,110,6,8,7,8,0.6,0.5
2024-06-19T0800,3664A,119.4172,34.7341,连云港市,连云街道,,40,40,39,18,13,108,,115,115,12,10,4,5,0.7,0.5
2024-06-19T0800,2571A,102.3431,27.8099,凉山彝族自治州,青龙寺,,13,6,14,3,8,39,,44,44,5,7,8,9,0.6,0.7
2024-06-19T0800,2572A,102.2721,27.8415,凉山彝族自治州,邛海宾馆,,11,10,12,6,10,34,,46,46,11,12,6,7,0.7,0.9
2024-06-19T0800,2573A,102.2625,27.898,凉山彝族自治州,西昌市政府,,18,14,17,12,8,33,,42,42,21,14,8,8,0.6,0.7
2024-06-19T0800,2574A,102.2685,27.8851,凉山彝族自治州,凉山州政府,,16,15,16,11,11,39,,50,50,21,15,10,10,0.8,0.9
2024-06-19T0800,2575A,102.237,27.8914,凉山彝族自治州,长安,,15,13,16,10,10,32,,42,42,28,20,10,8,0.9,1
2024-06-19T0800,2212A,123.2,41.1953,辽阳市,宏伟区,,45,32,45,16,20,143,,158,158,13,19,11,13,0.5,0.7
2024-06-19T0800,2213A,123.1683,41.2495,辽阳市,新华园,,38,30,48,15,22,121,,149,149,22,24,10,12,0.5,0.8
2024-06-19T0800,2214A,123.2354,41.2639,辽阳市,滨河路,,41,37,49,16,21,130,,144,144,28,19,10,11,0.7,0.9
2024-06-19T0800,2215A,123.149,41.2991,辽阳市,铁西工业园,,,66,53,24,24,,,152,152,54,29,,18,1.0,1.4
2024-06-19T0800,2227A,125.1358,42.8845,辽源市,环保局,臭氧1小时,80,35,41,19,19,184,,85,85,11,47,9,9,0.7,0.7
2024-06-19T0800,3239A,125.0764,42.9078,辽源市,银鹰制药,臭氧1小时,74,39,35,19,17,179,,146,146,17,34,9,16,0.9,0.8
2024-06-19T0800,1625A,115.9848,36.4372,聊城市,区政府,颗粒物(PM10),59,68,62,25,20,130,,139,139,28,17,12,10,0.6,0.5
2024-06-19T0800,2878A,116.0072,36.4343,聊城市,聊大东校,颗粒物(PM10),57,63,62,29,25,126,,143,143,27,17,9,10,0.5,0.5
2024-06-19T0800,3200A,115.9819,36.4978,聊城市,监控中心,颗粒物(PM10),60,70,63,24,20,137,,144,144,24,17,14,12,0.8,0.7
2024-06-19T0800,3513A,116.0445,36.4361,聊城市,九州社区,颗粒物(PM10),59,68,67,22,19,120,,131,131,24,18,11,8,0.4,0.4
2024-06-19T0800,4018A,116.0567,36.4608,聊城市,星美广场,颗粒物(PM10),60,70,64,22,20,141,,149,149,32,23,11,10,0.5,0.5
2024-06-19T0800,2632A,94.3681,29.6376,林芝市,林芝监测站,,22,,5,3,4,70,,59,59,3,4,7,7,0.3,0.4
2024-06-19T0800,2633A,94.3616,29.6616,林芝市,林芝人民医院,,23,6,6,3,5,72,,57,57,5,6,8,8,0.2,0.2
2024-06-19T0800,2603A,100.0781,23.8982,临沧市,市环保局,,37,37,35,15,19,9,,19,19,11,9,5,4,0.6,0.6
2024-06-19T0800,2604A,100.0894,23.8822,临沧市,市气象局,,43,43,37,30,23,17,,20,20,14,11,4,5,0.7,0.6
2024-06-19T0800,1733A,111.5531,36.0783,临汾市,临钢医院,颗粒物(PM10),61,71,55,36,21,84,,96,96,26,12,6,8,0.8,0.7
2024-06-19T0800,1734A,111.5028,36.0714,临汾市,技工学校,颗粒物(PM10),58,66,53,25,27,107,,110,110,26,20,6,7,0.7,0.7
2024-06-19T0800,1736A,111.5018,36.0855,临汾市,市委,颗粒物(PM10),63,75,56,32,23,113,,113,113,20,17,5,6,0.8,0.7
2024-06-19T0800,3018A,111.505,36.1014,临汾市,唐尧大酒店,,46,46,45,29,21,108,,101,101,18,18,7,9,0.8,0.7
2024-06-19T0800,3668A,111.5036,36.0414,临汾市,城南,颗粒物(PM10),53,56,54,36,31,88,,90,90,29,20,4,6,0.6,0.6
2024-06-19T0800,2667A,103.2069,35.5993,临夏回族自治州,环保局,,39,39,29,27,21,40,,45,45,17,10,7,7,0.5,0.4
2024-06-19T0800,2668A,103.2417,35.6057,临夏回族自治州,建设大厦,,33,33,25,18,21,43,,48,48,13,9,8,7,0.4,0.3
2024-06-19T0800,1618A,118.3429,35.0532,临沂市,沂河小区,,46,46,48,18,17,70,,60,60,23,20,11,10,0.3,0.3
2024-06-19T0800,1619A,118.295,35.0583,临沂市,鲁南制药厂,,48,48,54,13,15,85,,74,74,15,14,10,10,0.5,0.4
2024-06-19T0800,1620A,118.2794,34.9976,临沂市,新光毛纺厂,,41,41,47,20,17,82,,66,66,17,21,10,9,0.6,0.6
2024-06-19T0800,1621A,118.3956,35.0888,临沂市,河东保险公司,,46,46,42,17,14,69,,50,50,20,19,7,6,0.4,0.3
2024-06-19T0800,3370A,118.3564,35.0215,临沂市,十里堡居委,,46,46,44,24,17,81,,64,64,19,16,10,10,0.6,0.5
2024-06-19T0800,3496A,118.3604,35.1084,临沂市,南坊新区,颗粒物(PM10),53,56,56,9,14,78,,61,61,20,20,9,9,0.6,0.5
2024-06-19T0800,3860A,118.3920,35.0300,临沂市,皇山花园小区,,44,44,52,20,18,78,,55,55,26,22,11,11,0.7,0.6
2024-06-19T0800,1870A,109.4856,24.3895,柳州市,柳东小学,,,,7,,7,,,50,,,12,,6,,0.6
2024-06-19T0800,1871A,109.4157,24.3277,柳州市,环保监测站,,26,26,21,11,26,34,,26,26,13,15,7,7,0.7,0.7
2024-06-19T0800,1872A,109.389,24.341,柳州市,河西水厂,,25,25,21,12,12,41,,36,36,11,14,6,5,0.4,0.4
2024-06-19T0800,1873A,109.4311,24.2921,柳州市,市四中,,37,37,21,11,7,34,,27,27,15,16,5,5,0.6,0.6
2024-06-19T0800,1874A,109.4006,24.3631,柳州市,市九中,,36,36,23,12,8,17,,16,16,18,16,7,7,0.7,0.6
2024-06-19T0800,1875A,109.4958,24.3134,柳州市,古亭山,,33,33,23,18,12,41,,22,22,16,18,6,6,0.5,0.5
2024-06-19T0800,3402A,109.5422,24.3996,柳州市,市二中,,26,26,16,14,8,33,,15,15,15,19,5,8,0.5,0.4
2024-06-19T0800,2307A,116.5079,31.737,六安市,监测大楼,,,15,26,10,18,,,117,117,,10,,6,,0.4
2024-06-19T0800,2308A,116.4738,31.7643,六安市,皖西学院,,30,10,32,6,16,93,,121,121,8,7,3,5,0.4,0.4
2024-06-19T0800,2309A,116.4996,31.7905,六安市,朝阳厂,,26,,27,10,18,83,,120,120,9,8,7,9,0.3,0.3
2024-06-19T0800,2310A,116.5567,31.7886,六安市,开发区,,22,,33,14,19,69,,106,106,17,13,9,6,0.5,0.5
2024-06-19T0800,2576A,104.8,26.5892,六盘水市,窑上,,,,,,,,,,,,,,,,
2024-06-19T0800,2577A,104.83,26.5917,六盘水市,黄土坡,,16,,24,11,14,45,,36,36,15,14,11,9,0.6,0.6
2024-06-19T0800,2578A,104.89,26.5939,六盘水市,水钢,,21,18,26,8,15,65,,66,66,5,14,11,11,0.4,0.5
2024-06-19T0800,2579A,104.8475,26.5894,六盘水市,民中,,18,15,22,9,17,55,,51,51,11,15,6,6,0.7,0.7
2024-06-19T0800,2580A,104.9544,26.5506,六盘水市,双水,,22,22,24,3,14,70,,75,75,6,12,7,7,0.3,0.3
2024-06-19T0800,2335A,117.0189,25.1181,龙岩市,龙岩师专,,,,,,,,,,,,,,,,
2024-06-19T0800,2336A,117.0217,25.1033,龙岩市,龙岩市监测站,,31,31,21,12,9,6,,2,2,14,14,3,4,0.7,0.5
2024-06-19T0800,2337A,117.0258,25.0661,龙岩市,闽西职业技术学院,,,24,22,,8,,,3,3,10,13,3,2,0.5,0.4
2024-06-19T0800,2338A,117.0196,25.0306,龙岩市,龙岩学院,,19,19,16,9,6,16,,11,11,4,4,4,3,0.4,0.4
2024-06-19T0800,2665A,105.0822,33.3261,陇南市,汉王镇固水子,,,,,,,,,,,,,,,,
2024-06-19T0800,2885A,104.9339,33.3826,陇南市,滨江中学,,45,45,40,9,8,38,,51,51,12,8,8,7,0.4,0.4
2024-06-19T0800,3247A,104.955,33.371,陇南市,市总工会,,30,30,24,17,11,46,,59,59,13,5,4,4,0.3,0.3
2024-06-19T0800,2487A,111.9589,27.8901,娄底市,电视发射台,,13,11,14,3,3,39,,28,28,5,4,5,5,0.7,0.7
2024-06-19T0800,2488A,111.9975,27.725,娄底市,市监测站,,39,38,19,27,17,23,,25,25,9,10,8,5,0.9,1
2024-06-19T0800,2489A,112.0194,27.7314,娄底市,市委党校,,21,21,14,9,7,22,,28,28,10,8,10,9,1.2,1
2024-06-19T0800,2490A,111.9561,27.7569,娄底市,涟钢,,30,30,17,21,9,25,,28,28,13,14,13,9,0.7,0.7
2024-06-19T0800,2491A,111.9892,27.7044,娄底市,市政府,,38,28,13,26,12,23,,34,34,7,8,6,6,1.1,1
2024-06-19T0800,1893A,105.4324,28.9634,泸州市,九狮山,,22,14,36,14,27,68,,34,34,9,18,5,5,0.2,0.3
2024-06-19T0800,1894A,105.4427,28.9063,泸州市,小市上码头,,,19,50,18,37,,,39,39,11,16,6,6,0.4,0.5
2024-06-19T0800,1895A,105.4241,28.8573,泸州市,兰田宪桥,,33,24,33,23,38,61,,40,40,10,17,4,5,0.2,0.3
2024-06-19T0800,1896A,105.4379,28.8833,泸州市,市环监站,,26,26,55,18,40,63,,52,52,15,17,6,6,0.6,0.6
2024-06-19T0800,3490A,105.3617,28.7703,泸州市,纳溪区环保局,,23,21,43,14,35,71,,34,34,12,23,2,3,0.5,0.6
2024-06-19T0800,2183A,111.1406,37.5211,吕梁市,环保局,颗粒物(PM10),60,69,61,29,22,64,,67,67,43,38,5,4,0.6,0.5
2024-06-19T0800,2185A,111.1297,37.5136,吕梁市,自来水公司,颗粒物(PM10),85,120,70,28,25,57,,40,40,39,37,10,6,0.5,0.6
2024-06-19T0800,2867A,111.1283,37.51,吕梁市,马茂庄小学,颗粒物(PM10),74,98,61,28,22,71,,47,47,40,48,5,5,0.7,0.7
2024-06-19T0800,1812A,112.3931,34.6516,洛阳市,市委党校,"颗粒物(PM10),细颗粒物(PM2.5)",55,60,46,39,29,65,,86,86,27,12,6,6,0.7,0.7
2024-06-19T0800,1814A,112.4657,34.6871,洛阳市,豫西宾馆,颗粒物(PM10),59,68,48,34,28,70,,106,106,36,14,6,5,0.8,0.6
2024-06-19T0800,1815A,112.494,34.6886,洛阳市,河南林校,颗粒物(PM10),51,51,35,33,23,50,,89,89,39,14,9,5,0.6,0.4
2024-06-19T0800,1816A,112.3844,34.623,洛阳市,开发区管委会,,47,47,42,28,27,72,,78,78,19,15,8,10,0.4,0.4
2024-06-19T0800,1817A,112.4267,34.6258,洛阳市,市委新办公区,,50,46,38,35,30,77,,92,92,19,11,8,8,0.6,0.5
2024-06-19T0800,3340A,112.6005,34.6326,洛阳市,伊滨,颗粒物(PM10),60,69,42,37,26,70,,80,80,24,14,8,7,0.5,0.4
2024-06-19T0800,3341A,112.4951,34.6332,洛阳市,中移产业园,,,,40,,29,66,,94,94,27,13,,7,1.0,0.7
2024-06-19T0800,3593A,112.5736,34.8993,洛阳市,吉利监测站,颗粒物(PM10),51,52,43,35,25,45,,32,32,33,25,5,2,0.4,0.2
2024-06-19T0800,3635A,112.3677,34.662,洛阳市,河科大西苑校区,颗粒物(PM10),62,73,49,38,24,35,,77,77,38,12,8,9,0.6,0.5
2024-06-19T0800,3636A,112.4388,34.6781,洛阳市,英才小学,颗粒物(PM10),61,72,47,30,25,62,,99,99,29,9,6,5,0.7,0.5
2024-06-19T0800,2399A,114.051,33.5699,漯河市,三五一五工厂,颗粒物(PM10),69,88,62,40,29,82,,85,85,37,25,14,7,0.8,0.6
2024-06-19T0800,2400A,114.0055,33.5698,漯河市,漯河大学,颗粒物(PM10),70,89,60,48,34,84,,115,115,41,22,13,7,0.6,0.5
2024-06-19T0800,2401A,114.0138,33.5828,漯河市,市水利局,颗粒物(PM10),67,83,54,41,26,86,,116,116,30,17,12,8,0.8,0.6
2024-06-19T0800,2402A,114.0261,33.5698,漯河市,市广电局,颗粒物(PM10),66,81,57,37,27,88,,106,106,35,22,13,5,0.7,0.6
2024-06-19T0800,3478A,113.9749,33.5664,漯河市,市图书馆,颗粒物(PM10),62,73,52,37,26,85,,119,119,32,14,9,5,0.6,0.5
2024-06-19T0800,3479A,114.0967,33.5906,漯河市,召陵区卫健委,颗粒物(PM10),73,96,63,43,32,78,,85,85,39,25,19,6,0.7,0.5
2024-06-19T0800,1798A,118.5092,31.6837,马鞍山市,湖东路四小,,22,,35,15,18,46,,77,77,14,13,6,8,0.7,0.6
2024-06-19T0800,1799A,118.5024,31.6449,马鞍山市,开发区,,16,13,37,11,19,44,,74,74,17,15,8,10,0.6,0.5
2024-06-19T0800,1800A,118.5228,31.7231,马鞍山市,慈湖,,26,24,32,18,21,39,,81,81,24,17,6,8,0.7,0.7
2024-06-19T0800,1802A,118.6245,31.7241,马鞍山市,濮塘,,20,15,28,14,18,38,,69,69,9,9,3,3,0.7,0.6
2024-06-19T0800,3633A,118.4918,31.6809,马鞍山市,雨山,,36,36,38,10,17,50,,80,80,14,12,4,6,0.8,0.7
2024-06-19T0800,1686A,111.0286,21.4688,茂名市,电白南海,,22,22,25,12,15,68,,64,64,4,4,4,4,0.5,0.5
2024-06-19T0800,1687A,110.9294,21.6533,茂名市,茂石化七小,,31,31,28,17,15,60,,58,58,12,9,7,7,0.6,0.5
2024-06-19T0800,1688A,110.9107,21.6687,茂名市,健康路,,27,27,27,9,10,70,,65,65,6,7,9,10,0.5,0.5
2024-06-19T0800,1689A,110.8592,21.6828,茂名市,高岭,,34,34,34,19,16,59,,55,55,7,9,7,7,0.5,0.5
2024-06-19T0800,3450A,111.01,21.5165,茂名市,电白水东,,28,24,19,19,12,65,,64,64,6,9,3,3,0.5,0.5
2024-06-19T0800,2539A,104.0308,30.0478,眉山市,黑龙滩水库,,40,37,33,28,28,40,,36,36,13,14,5,5,0.4,0.4
2024-06-19T0800,2540A,103.8416,30.0874,眉山市,气象局,,42,,25,29,30,44,,38,38,31,28,8,8,0.4,0.4
2024-06-19T0800,3137A,103.8578,30.0744,眉山市,市委党校,,39,39,34,22,20,43,,53,53,25,23,10,7,0.6,0.6
2024-06-19T0800,3148A,103.8291,30.0564,眉山市,区人社局,,35,,31,24,20,36,,47,47,33,25,13,8,0.5,0.4
2024-06-19T0800,1690A,116.1231,24.3284,梅州市,梅江月梅,,26,26,21,7,8,15,,10,10,6,6,5,5,0.5,0.4
2024-06-19T0800,1691A,116.0797,24.2719,梅州市,梅县新城,,20,20,18,8,8,15,,10,10,9,7,4,3,0.5,0.3
2024-06-19T0800,1692A,116.1248,24.2654,梅州市,环境监控中心,,36,36,27,8,10,12,,5,5,13,13,4,4,0.7,0.7
2024-06-19T0800,3315A,116.1233,24.2991,梅州市,梅龙,,31,31,18,13,7,12,,6,6,12,9,8,7,0.7,0.6
2024-06-19T0800,1878A,104.7778,31.4741,绵阳市,富乐山,,50,40,28,35,22,22,,28,28,11,9,8,7,0.7,0.6
2024-06-19T0800,1879A,104.7563,31.4535,绵阳市,市人大,,50,45,35,35,23,52,,65,65,23,16,23,9,0.6,0.5
2024-06-19T0800,1880A,104.6697,31.4668,绵阳市,高新区自来水公司,,36,36,37,17,21,39,,38,38,22,20,9,6,0.7,0.6
2024-06-19T0800,1881A,104.7287,31.5075,绵阳市,三水厂,细颗粒物(PM2.5),52,49,31,36,24,12,,30,30,39,20,8,6,0.7,0.5
2024-06-19T0800,3491A,104.69,31.5322,绵阳市,西科大附属小学,,39,39,39,27,25,27,,30,30,28,22,6,6,0.8,0.7
2024-06-19T0800,3492A,104.5648,31.5343,绵阳市,安州区旅游局,,39,38,24,27,21,15,,32,32,29,17,8,7,0.7,0.6
2024-06-19T0800,1784A,129.61,44.561,牡丹江市,环保大楼,,14,14,17,3,8,42,,30,30,17,13,8,6,0.4,0.3
2024-06-19T0800,1785A,129.6115,44.5782,牡丹江市,文化广场,,32,32,31,17,22,42,,22,22,21,18,9,8,0.5,0.4
2024-06-19T0800,1786A,129.5904,44.5963,牡丹江市,第一医院,,32,27,20,22,16,42,,25,25,23,14,8,5,0.6,0.4
2024-06-19T0800,1787A,129.6364,44.6075,牡丹江市,机车工厂,,26,26,24,3,9,45,,20,20,18,12,9,16,0.5,0.3
2024-06-19T0800,1788A,129.6386,44.5462,牡丹江市,第一中学,,29,29,17,3,7,45,,31,31,18,12,4,3,0.3,0.3
2024-06-19T0800,2531A,105.0703,29.61,内江市,市监测站,,42,,28,29,31,41,,29,29,21,20,5,6,0.6,0.5
2024-06-19T0800,2532A,105.0717,29.5947,内江市,东兴区政府,,,,34,19,19,45,,54,54,25,16,10,10,0.9,0.8
2024-06-19T0800,2533A,105.0653,29.5817,内江市,内江二中,,38,34,33,26,25,50,,50,50,24,17,8,8,0.7,0.6
2024-06-19T0800,2534A,105.0406,29.5822,内江市,内江日报社,细颗粒物(PM2.5),53,38,28,37,28,47,,37,37,22,22,8,9,0.7,0.6
2024-06-19T0800,2628A,92.0657,31.4846,那曲市,那曲监测站,,26,9,11,6,7,81,,93,93,7,6,8,6,0.7,0.6
2024-06-19T0800,3128A,92.0506,31.4797,那曲市,那曲会议中心,,29,21,11,16,8,90,,97,97,9,6,3,3,0.5,0.4
2024-06-19T0800,1290A,115.8931,28.6843,南昌市,省外办,,25,19,12,17,12,8,,17,17,18,17,5,5,0.6,0.7
2024-06-19T0800,1291A,115.8886,28.7003,南昌市,省林业公司,,19,19,8,12,7,15,,16,16,25,21,5,4,0.4,0.4
2024-06-19T0800,1292A,115.8126,28.7442,南昌市,林科所,,25,,6,17,5,19,,11,11,18,28,7,7,0.6,0.7
2024-06-19T0800,1294A,115.8518,28.687,南昌市,建工学校,,,40,12,3,5,,,17,17,,19,,5,,0.8
2024-06-19T0800,1295A,115.8921,28.6424,南昌市,象湖,,26,,11,18,9,15,,16,16,18,21,5,4,0.7,0.6
2024-06-19T0800,1296A,115.7423,28.7996,南昌市,武术学校,二氧化硫,54,10,13,10,14,12,,14,14,2,6,174,43,0.7,0.7
2024-06-19T0800,1298A,115.9314,28.6842,南昌市,省站,,23,,11,16,9,24,,29,29,24,14,7,4,0.9,0.8
2024-06-19T0800,3046A,115.9084,28.6062,南昌市,机电学校,,28,28,17,14,9,11,,11,11,19,22,9,8,0.7,0.6
2024-06-19T0800,3690A,115.9721,28.7031,南昌市,外国语学校,,28,28,13,15,10,17,,28,28,19,12,8,5,0.6,0.4
2024-06-19T0800,1905A,106.056,30.8064,南充市,西山风景区,,35,30,21,24,20,29,,66,66,11,12,5,6,0.6,0.6
2024-06-19T0800,1906A,106.0789,30.8023,南充市,南充市委,,38,37,33,26,20,13,,41,41,27,17,4,6,0.6,0.5
2024-06-19T0800,1907A,106.1031,30.8217,南充市,南充炼油厂,,44,44,35,21,20,26,,46,46,20,18,7,8,0.4,0.4
2024-06-19T0800,1908A,106.1064,30.7856,南充市,高坪区监测站,,49,49,34,26,17,42,,53,53,22,16,7,8,0.5,0.4
2024-06-19T0800,1909A,106.0642,30.7636,南充市,嘉陵区环保局,,39,29,31,27,20,12,,43,43,36,17,5,5,0.6,0.4
2024-06-19T0800,1910A,106.1087,30.8388,南充市,市环境监测站,,33,26,30,23,19,17,,36,36,28,20,6,7,0.7,0.5
2024-06-19T0800,1151A,118.8086,32.1065,南京市,迈皋桥,,21,21,26,14,13,43,,77,77,16,9,4,6,0.4,0.4
2024-06-19T0800,1152A,118.7538,32.0551,南京市,草场门,,18,14,28,12,14,46,,78,78,20,17,3,4,0.6,0.5
2024-06-19T0800,1153A,118.7794,32.0745,南京市,山西路,,18,17,25,12,12,52,,87,87,16,7,5,4,0.3,0.3
2024-06-19T0800,1154A,118.7752,32.0023,南京市,中华门,,18,12,24,12,12,40,,70,70,13,9,6,7,0.5,0.4
2024-06-19T0800,1155A,118.8109,32.0309,南京市,瑞金路,,21,21,32,12,15,43,,74,74,14,12,6,7,0.3,0.3
2024-06-19T0800,1156A,118.7997,32.0754,南京市,玄武湖,,18,18,27,12,12,37,,68,68,19,10,3,6,0.4,0.5
2024-06-19T0800,1157A,118.6414,32.0931,南京市,浦口,,24,24,32,9,15,41,,71,71,18,14,5,6,0.3,0.3
2024-06-19T0800,1158A,118.7356,31.9996,南京市,奥体中心,,25,,30,17,18,48,,81,81,14,11,5,6,0.4,0.3
2024-06-19T0800,1159A,118.9125,32.1028,南京市,仙林大学城,,18,14,28,12,14,48,,81,81,15,11,6,7,0.5,0.4
2024-06-19T0800,3422A,118.8436,31.9198,南京市,江宁彩虹桥,,20,14,30,14,15,41,,71,71,15,10,3,4,0.5,0.4
2024-06-19T0800,3423A,119.0138,31.6494,南京市,溧水永阳,,16,6,23,3,15,49,,66,66,16,13,3,4,0.5,0.4
2024-06-19T0800,3424A,118.879,31.3302,南京市,高淳老职中,,16,,23,10,13,51,,70,70,16,13,5,6,0.6,0.4
2024-06-19T0800,3427A,118.8554,32.3578,南京市,六合雄州,,43,,26,30,17,51,,84,84,30,20,2,1,0.6,0.5
2024-06-19T0800,1401A,108.3103,22.7881,南宁市,二十一中,,,21,24,13,9,,,58,58,,9,,2,,0.8
2024-06-19T0800,1402A,108.3141,22.8528,南宁市,北湖,,22,22,24,10,9,47,,52,52,12,14,3,2,0.7,0.7
2024-06-19T0800,1403A,108.3206,22.8225,南宁市,市监测站,,20,20,22,14,12,50,,55,55,13,12,3,2,0.7,0.7
2024-06-19T0800,1404A,108.3829,22.8037,南宁市,大自然花园,,22,22,20,12,12,57,,59,59,8,8,4,4,0.6,0.6
2024-06-19T0800,1405A,108.4394,22.7904,南宁市,仙葫,,25,22,22,17,15,53,,56,56,10,10,3,3,0,0
2024-06-19T0800,1406A,108.2397,22.8467,南宁市,区农职院,,24,24,28,13,12,52,,54,54,17,22,5,5,0.6,0.6
2024-06-19T0800,1407A,108.3275,22.735,南宁市,英华嘉园,,25,25,25,14,11,42,,44,44,15,14,5,5,0.5,0.6
2024-06-19T0800,1408A,108.2257,22.7757,南宁市,沙井镇街道办,,32,32,31,16,20,39,,36,36,23,27,2,2,0.7,0.7
2024-06-19T0800,3401A,108.4834,22.7618,南宁市,红星社区,,21,21,29,8,13,52,,49,49,15,12,4,4,0.7,0.6
2024-06-19T0800,2331A,118.0966,26.6761,南平市,茫荡山,,,,,,,,,,,,,,,,
2024-06-19T0800,2332A,118.1681,26.6369,南平市,南平市监测站,,22,22,21,11,13,21,,12,12,12,13,4,4,0.7,0.8
2024-06-19T0800,2333A,118.1825,26.6489,南平市,南平铝业有限公司,,18,18,24,11,15,21,,11,11,10,11,5,6,0.6,0.6
2024-06-19T0800,2334A,118.1756,26.6272,南平市,南平七中,,18,18,21,10,10,29,,18,18,7,8,5,4,0.6,0.6
2024-06-19T0800,1168A,120.9098,31.9663,南通市,狼山街道,,16,6,16,3,4,51,,70,70,21,11,10,11,0.6,0.4
2024-06-19T0800,1169A,120.86,32.0005,南通市,虹桥,,16,16,22,3,5,48,,67,67,24,14,5,7,0.7,0.5
2024-06-19T0800,1170A,120.87,32.02,南通市,城中,,18,,28,7,9,56,,70,70,19,14,5,7,0.5,0.4
2024-06-19T0800,1171A,120.94,31.93,南通市,星湖花园,,16,6,14,3,4,49,,65,65,30,19,5,6,0.7,0.5
2024-06-19T0800,1172A,120.81,32.0417,南通市,紫琅学院,,17,6,16,3,4,54,,71,71,21,23,5,7,0.7,0.6
2024-06-19T0800,3291A,121.067,32.062,南通市,通州监测站,,21,6,20,3,2,65,,82,82,8,5,9,10,0.4,0.4
2024-06-19T0800,3432A,120.9348,31.9883,南通市,环境教育馆,,18,7,25,3,6,56,,69,69,25,19,7,8,0.6,0.4
2024-06-19T0800,2404A,112.5224,33.0122,南阳市,瓦房庄,,44,44,40,21,22,79,,82,82,21,18,5,6,0.3,0.4
2024-06-19T0800,2405A,112.5003,32.9735,南阳市,汉画馆,,49,49,49,28,28,69,,64,64,24,22,6,6,0.7,0.7
2024-06-19T0800,2406A,112.5573,33.027,南阳市,气象站,,37,37,39,22,20,60,,64,64,23,17,4,3,0.7,0.5
2024-06-19T0800,2407A,112.5481,32.9689,南阳市,理工学院,,49,49,47,23,27,71,,79,79,21,18,6,5,0.5,0.5
2024-06-19T0800,4008A,112.5234,32.9922,南阳市,卧龙区政府,,39,39,41,24,26,84,,80,80,22,21,2,3,0.7,0.7
2024-06-19T0800,1234A,121.8358,29.911,宁波市,区环保大楼,,21,6,6,3,6,33,,77,77,41,12,6,5,0.8,0.6
2024-06-19T0800,1235A,121.56,29.82,宁波市,万里学院,,18,11,14,3,5,56,,72,72,17,9,4,4,0.6,0.5
2024-06-19T0800,1236A,121.713,29.9572,宁波市,龙赛医院,,14,8,13,3,7,44,,68,68,18,5,5,4,0.4,0.3
2024-06-19T0800,1239A,121.633,29.7733,宁波市,钱湖水厂,,21,6,7,3,6,67,,77,77,6,5,4,4,0.5,0.4
2024-06-19T0800,1240A,121.5856,29.8635,宁波市,太古小学,,16,12,14,3,6,51,,69,69,14,6,5,5,0.7,0.6
2024-06-19T0800,1241A,121.524,29.8674,宁波市,市环境监测中心,,16,10,11,3,8,51,,76,76,21,8,4,4,0.7,0.6
2024-06-19T0800,2871A,121.6147,29.9017,宁波市,万里国际学校,,19,6,10,3,7,60,,76,76,11,6,4,4,0.4,0.3
2024-06-19T0800,3710A,121.5594,29.8975,宁波市,白沙活动中心,,16,8,12,3,6,51,,74,74,16,4,8,7,0.4,0.4
2024-06-19T0800,2339A,119.5001,26.6946,宁德市,金涵水库,,,,,,,,,,,,,,,,
2024-06-19T0800,2341A,119.5388,26.6612,宁德市,宁德市监测站,,23,,17,16,17,41,,49,49,13,13,5,4,0.5,0.5
2024-06-19T0800,3209A,119.5231,26.6562,宁德市,宁德一中,,26,,17,18,8,50,,60,60,9,9,6,5,0.7,0.6
2024-06-19T0800,2618A,98.8601,25.8567,怒江傈僳族自治州,州监测站,,30,30,31,17,21,47,,56,56,14,12,9,9,0.6,0.5
2024-06-19T0800,2619A,98.8546,25.8417,怒江傈僳族自治州,泸水一中,,27,27,28,18,18,33,,42,42,15,13,5,5,0.3,0.4
2024-06-19T0800,1888A,101.6891,26.571,攀枝花市,弄弄坪,,,78,59,30,24,16,,24,24,40,29,33,23,,0.8
2024-06-19T0800,1889A,101.5769,26.5928,攀枝花市,河门口,,42,42,35,24,21,14,,14,14,19,21,6,15,1.3,1.3
2024-06-19T0800,1890A,101.7169,26.585,攀枝花市,炳草岗,颗粒物(PM10),55,60,46,26,21,16,,26,26,34,27,38,32,0.9,0.8
2024-06-19T0800,1891A,101.7369,26.5008,攀枝花市,仁和,,35,35,31,17,16,32,,35,35,18,13,9,15,0.5,0.5
2024-06-19T0800,2835A,101.7227,26.567,攀枝花市,四十中小,,42,42,34,21,20,29,,44,44,36,18,69,35,0.7,0.5
2024-06-19T0800,1604A,122.0303,41.1489,盘锦市,开发区,,32,,50,6,32,102,,155,155,16,15,5,5,0.1,0.4
2024-06-19T0800,1605A,122.0485,41.0883,盘锦市,兴隆台,,31,,42,12,39,99,,147,147,18,16,5,5,0.2,0.5
2024-06-19T0800,1606A,121.8297,41.1028,盘锦市,新生街道,,30,26,47,10,29,95,,162,162,12,12,6,5,0.1,0.3
2024-06-19T0800,1832A,113.3257,33.742,平顶山市,新华旅馆,颗粒物(PM10),79,107,70,47,29,66,,60,60,62,29,12,9,0.6,0.5
2024-06-19T0800,1833A,113.2919,33.737,平顶山市,规划设计院,"颗粒物(PM10),细颗粒物(PM2.5)",68,85,50,49,31,47,,69,69,66,25,9,6,0.9,0.7
2024-06-19T0800,1834A,113.182,33.774,平顶山市,平顶山工学院,颗粒物(PM10),65,79,51,31,24,42,,51,51,46,23,7,6,0.7,0.6
2024-06-19T0800,3204A,113.3025,33.73,平顶山市,规划局,颗粒物(PM10),80,110,63,50,33,52,,74,74,69,25,6,5,0.6,0.4
2024-06-19T0800,3594A,112.8867,33.9116,平顶山市,石龙区,颗粒物(PM10),86,121,66,55,30,34,,36,36,46,23,8,6,0.6,0.5
2024-06-19T0800,2656A,106.6692,35.5461,平凉市,聚贤嘉苑,,43,43,42,20,18,44,,29,29,27,29,10,9,0.5,0.5
2024-06-19T0800,2657A,106.7021,35.5307,平凉市,博物馆,,41,41,41,17,19,43,,38,38,40,36,15,17,0.5,0.5
2024-06-19T0800,2347A,114.0997,27.5002,萍乡市,武功山,,12,6,4,3,3,37,,26,26,2,3,9,9,0.4,0.5
2024-06-19T0800,2348A,113.8385,27.6434,萍乡市,中医院,,,17,28,16,20,,,,,15,7,8,15,1.5,0.8
2024-06-19T0800,2349A,113.8493,27.6253,萍乡市,市政府车库,,16,9,21,9,20,9,,16,16,16,9,10,17,1.6,1.1
2024-06-19T0800,2350A,113.8676,27.6435,萍乡市,市环保局,,19,13,29,13,21,11,,16,16,15,8,10,17,1.1,0.5
2024-06-19T0800,2351A,113.866,27.6198,萍乡市,安源区政府,,13,,28,9,15,7,,10,10,17,10,13,16,0.8,0.8
2024-06-19T0800,2319A,119.0141,25.4325,莆田市,荔城区仓后路,颗粒物(PM10),53,56,33,36,20,38,,47,47,17,15,8,7,0.7,0.6
2024-06-19T0800,2320A,119.0015,25.4553,莆田市,莆田市监测站,颗粒物(PM10),56,62,37,6,18,38,,40,40,16,14,10,9,0.7,0.7
2024-06-19T0800,2321A,119.1119,25.4561,莆田市,涵江区六中,,36,36,28,18,14,34,,43,43,25,18,11,8,0.6,0.6
2024-06-19T0800,2322A,119.1013,25.3215,莆田市,秀屿区政府,细颗粒物(PM2.5),72,,28,52,14,43,,52,52,9,7,10,9,0.5,0.5
2024-06-19T0800,2323A,118.981,25.4792,莆田市,东圳水库,,,,,,,,,,,,,,,,
2024-06-19T0800,2392A,115.0312,35.7636,濮阳市,环保局,颗粒物(PM10),57,64,46,28,25,95,,100,100,29,15,10,9,0.5,0.4
2024-06-19T0800,2394A,115.0574,35.7609,濮阳市,油田运输公司,颗粒物(PM10),60,70,51,26,22,104,,107,107,22,16,12,10,0.6,0.5
2024-06-19T0800,2395A,115.0866,35.7754,濮阳市,油田物探公司,颗粒物(PM10),59,67,50,32,25,103,,104,104,23,13,9,9,0.6,0.5
2024-06-19T0800,3021A,115,35.7668,濮阳市,濮水河管理处,颗粒物(PM10),55,59,46,27,22,94,,98,98,24,12,10,9,0.5,0.3
2024-06-19T0800,2601A,100.98,22.7633,普洱市,市环保局,,32,32,30,19,22,23,,38,38,12,6,7,6,0.6,0.5
2024-06-19T0800,2602A,100.9817,22.8322,普洱市,普洱第二中学,,31,31,27,11,14,28,,38,38,13,9,9,9,0.5,0.5
2024-06-19T0800,2262A,131.0518,45.8751,七台河市,新一中,,19,14,15,10,10,60,,30,30,9,8,14,10,0.9,0.6
2024-06-19T0800,3345A,131.0577,45.7879,七台河市,中波台,,41,41,18,16,8,37,,28,28,22,19,18,9,0.7,0.5
2024-06-19T0800,3637A,131.0176,45.7761,七台河市,人民广场,颗粒物(PM10),55,60,26,18,14,47,,22,22,20,17,17,12,0.5,0.4
2024-06-19T0800,3684A,130.8781,45.8222,七台河市,新建矿广场,颗粒物(PM10),52,53,35,15,17,30,,18,18,33,21,12,10,0.2,0.1
2024-06-19T0800,1779A,123.9305,47.3636,齐齐哈尔市,安居小区,,,40,26,22,8,,,76,76,35,16,8,7,0.5,0.3
2024-06-19T0800,1780A,123.9488,47.3386,齐齐哈尔市,中心广场,,25,25,18,8,6,65,,72,72,22,11,11,9,0.3,0.2
2024-06-19T0800,1781A,123.9483,47.3227,齐齐哈尔市,农牧车辆厂,,41,41,25,8,5,66,,72,72,21,9,10,8,0.2,0.2
2024-06-19T0800,1783A,123.945,47.2988,齐齐哈尔市,市环境监测站,,31,31,16,15,6,66,,70,70,20,9,6,5,0.3,0.3
2024-06-19T0800,3662A,123.6333,47.2075,齐齐哈尔市,富区青少年活动中心,,34,34,20,3,3,68,,72,72,23,10,5,5,0.5,0.3
2024-06-19T0800,2591A,107.9783,26.5747,黔东南苗族侗族自治州,市环境监测站,,15,15,10,10,6,23,,34,34,11,9,3,3,0.6,0.5
2024-06-19T0800,2881A,107.8908,26.5311,黔东南苗族侗族自治州,凯里学院,,17,17,8,7,5,30,,34,34,4,4,4,3,0.4,0.4
2024-06-19T0800,2593A,107.5228,26.2403,黔南布依族苗族自治州,小围寨,,14,6,1,3,0,43,,34,34,5,4,3,4,0.4,0.5
2024-06-19T0800,3538A,107.5175,26.2978,黔南布依族苗族自治州,沙坝,,9,6,1,3,0,26,,29,29,5,4,4,3,0.5,0.5
2024-06-19T0800,2589A,104.9022,25.0925,黔西南布依族苗族自治州,场坝街,,13,12,16,9,7,34,,34,34,9,16,2,3,0.5,0.5
2024-06-19T0800,2590A,104.8811,25.0992,黔西南布依族苗族自治州,坪东大道,,12,11,14,7,6,37,,27,27,6,11,3,4,0.2,0.4
2024-06-19T0800,2502A,108.6236,21.9667,钦州市,市环保站,,34,34,27,17,9,60,,62,62,13,14,6,6,0.7,0.6
2024-06-19T0800,2503A,108.6549,21.9481,钦州市,沙埠小学,,31,31,30,18,15,51,,45,45,13,14,6,4,0.5,0.5
2024-06-19T0800,2504A,108.5989,21.7431,钦州市,港区一小,,26,26,31,14,14,70,,76,76,6,8,6,7,0.5,0.6
2024-06-19T0800,3404A,108.5959,21.9633,钦州市,北职校,,25,25,27,13,12,61,,59,59,9,13,6,7,0.5,0.6
2024-06-19T0800,1042A,119.5134,39.8207,秦皇岛市,北戴河环保局,,44,44,66,3,20,74,,95,95,16,13,3,5,0.2,0.5
2024-06-19T0800,1043A,119.7493,40.0116,秦皇岛市,第一关,颗粒物(PM10),51,52,68,7,22,74,,95,95,13,16,1,3,0.1,0.4
2024-06-19T0800,1044A,119.5897,39.9499,秦皇岛市,监测站,,41,41,59,7,20,68,,97,97,18,8,3,4,0.4,0.6
2024-06-19T0800,1046A,119.5251,39.9041,秦皇岛市,建设大厦,,45,45,57,11,17,57,,75,75,29,18,3,3,0.2,0.5
2024-06-19T0800,3132A,119.610547,39.943889,秦皇岛市,文明里,,46,46,66,12,24,63,,93,93,23,10,5,4,0.4,0.6
2024-06-19T0800,1307A,120.6659,36.2403,青岛市,仰口,,33,12,14,9,10,105,,115,115,5,5,4,4,0.2,0.2
2024-06-19T0800,1310A,120.4134,36.0658,青岛市,市南区东部子站,,33,17,19,3,7,105,,91,91,4,10,8,8,0.4,0.4
2024-06-19T0800,1311A,120.3664,36.1032,青岛市,四方区子站,,33,24,26,12,13,104,,100,100,15,19,10,11,0.4,0.5
2024-06-19T0800,1312A,120.2994,36.054,青岛市,市南区西部子站,,35,14,22,7,10,110,,90,90,5,15,7,8,0.4,0.5
2024-06-19T0800,1313A,120.4581,36.0858,青岛市,崂山区子站,,35,14,15,7,9,110,,96,96,8,12,9,10,0.4,0.4
2024-06-19T0800,1314A,120.1983,35.9608,青岛市,黄岛区子站,,32,17,23,7,11,102,,98,98,10,11,6,8,0.4,0.5
2024-06-19T0800,1315A,120.3999,36.3083,青岛市,城阳区子站,,35,17,27,12,11,111,,99,99,14,20,7,8,0.5,0.5
2024-06-19T0800,1966A,120.0405,35.8735,青岛市,黄岛区4号,,34,22,24,7,9,108,,103,103,9,15,8,9,0.4,0.4
2024-06-19T0800,3362A,120.5014,36.4034,青岛市,即墨2号,,39,11,30,7,11,122,,108,108,10,13,6,7,0.4,0.4
2024-06-19T0800,3642A,120.3503,36.0736,青岛市,市北区南部,,34,19,16,7,8,108,,99,99,8,14,7,8,0.6,0.6
2024-06-19T0800,3643A,120.3948,36.1805,青岛市,李沧区北部,,30,24,27,9,13,96,,90,90,14,24,10,10,0.3,0.4
2024-06-19T0800,1702A,113.0426,23.691,清远市,环保大楼,,32,32,24,15,12,38,,28,28,23,18,8,8,0.6,0.6
2024-06-19T0800,1703A,113.0208,23.7106,清远市,凤城街办,,36,36,32,15,14,21,,22,22,18,15,4,4,0.5,0.5
2024-06-19T0800,3025A,113.0477,23.6344,清远市,技师学院,,39,39,37,18,21,29,,30,30,26,24,4,4,0.6,0.6
2024-06-19T0800,3318A,112.9903,23.7403,清远市,清新太和,,,28,30,10,13,,,22,22,20,18,2,3,0.7,0.6
2024-06-19T0800,3455A,113.076,23.7198,清远市,清城东城,,35,35,29,15,13,18,,18,18,11,12,5,5,0.7,0.6
2024-06-19T0800,2661A,107.6325,35.7357,庆阳市,庆阳五中,,42,42,31,19,13,126,,132,132,15,11,4,3,0.4,0.3
2024-06-19T0800,2662A,107.6364,35.7067,庆阳市,市环保局,,41,38,25,22,11,131,,138,138,10,7,7,5,0.4,0.4
2024-06-19T0800,1916A,103.7897,25.5035,曲靖市,环境监测站,,36,36,26,21,14,27,,37,37,17,10,4,3,0.9,0.7
2024-06-19T0800,1917A,103.8,25.5364,曲靖市,烟厂办公区,,36,36,22,14,14,33,,44,44,18,10,4,4,0.7,0.5
2024-06-19T0800,3376A,103.7947,25.462,曲靖市,南苑二区,,30,30,18,15,14,38,,44,44,14,11,7,5,0.6,0.6
2024-06-19T0800,3377A,103.7444,25.5261,曲靖市,曲靖师范学院,,32,32,20,16,16,43,,43,43,13,11,5,5,0.6,0.6
2024-06-19T0800,1264A,118.8692,28.9398,衢州市,环保大楼,,23,22,19,16,13,20,,22,22,26,24,4,4,0.5,0.4
2024-06-19T0800,1265A,118.8709,28.9666,衢州市,实验学校,,27,27,23,15,16,22,,25,25,20,20,2,7,0.4,0.3
2024-06-19T0800,1266A,118.8621,28.9808,衢州市,衢州学院,,38,,19,26,17,20,,18,18,20,22,2,3,0.6,0.5
2024-06-19T0800,1611A,118.5819,24.9117,泉州市,涂山街,,10,8,18,3,6,29,,21,21,10,14,2,3,0.5,0.4
2024-06-19T0800,1612A,118.5972,24.8978,泉州市,津头埔,,9,6,21,3,10,23,,20,20,17,18,1,2,0.6,0.5
2024-06-19T0800,1613A,118.6663,24.9424,泉州市,万安,,8,8,19,3,9,22,,17,17,13,12,2,2,0.3,0.3
2024-06-19T0800,1614A,118.6117,24.9604,泉州市,清源山,,,,,,,,,,,,,,,,
2024-06-19T0800,3529A,118.6333,24.9264,泉州市,城华南路,,9,9,19,3,8,20,,14,14,15,18,2,2,0.4,0.4
2024-06-19T0800,2626A,88.8876,29.2718,日喀则市,日喀则监测站,,31,19,14,7,5,98,,107,107,6,5,4,5,0.6,0.6
2024-06-19T0800,3726A,88.8781,29.2426,日喀则市,林业技术推广中心,,26,14,18,3,5,83,,100,100,8,8,4,5,0.5,0.6
2024-06-19T0800,1659A,119.471,35.4209,日照市,监测站,,36,17,31,12,12,113,,105,105,18,24,9,11,0.3,0.3
2024-06-19T0800,1660A,119.523,35.4216,日照市,市政府广场,,36,19,32,11,9,114,,109,109,10,14,10,12,0.4,0.5
2024-06-19T0800,1661A,119.5587,35.4044,日照市,港务局,,34,22,35,6,9,108,,111,111,21,15,9,11,0.4,0.6
2024-06-19T0800,3507A,119.5328,35.4625,日照市,职业技术学院,,37,17,28,12,10,116,,104,104,10,15,8,9,0.5,0.5
2024-06-19T0800,3604A,119.3266,35.1044,日照市,岚山环保分局,,36,22,42,10,12,115,,94,94,11,18,7,8,0.4,0.5
2024-06-19T0800,1835A,111.1922,34.7752,三门峡市,市政府,,42,42,32,17,17,59,,53,53,46,27,11,9,0.5,0.4
2024-06-19T0800,1836A,111.1587,34.7942,三门峡市,开发区,,44,44,33,24,17,86,,75,75,21,19,15,11,0.8,0.7
2024-06-19T0800,1838A,111.143,34.7955,三门峡市,风景区,,,,,,,,,,,,,,,,
2024-06-19T0800,3039A,111.1911,34.7829,三门峡市,三门峡市第一小学,,33,33,36,12,14,75,,61,61,19,19,10,9,0.7,0.6
2024-06-19T0800,3598A,111.1,34.7167,三门峡市,富达温泉假日酒店,,44,44,35,21,17,74,,90,90,25,14,10,11,0.5,0.4
2024-06-19T0800,2324A,117.6211,26.2625,三明市,三钢,,43,43,36,14,20,9,,4,4,17,18,8,9,1.1,1.3
2024-06-19T0800,2325A,117.635,26.2714,三明市,三明二中,,28,28,33,13,17,9,,4,4,10,16,6,8,1.0,1.1
2024-06-19T0800,2326A,117.6028,26.2378,三明市,三元区政府,,36,36,39,14,18,10,,3,3,13,17,6,7,0.7,0.9
2024-06-19T0800,2327A,117.7275,26.3108,三明市,洋溪,,,,,,,,,,,,,,,,
2024-06-19T0800,1876A,109.5078,18.2489,三亚市,河东子站,,29,29,22,11,11,53,,52,52,10,5,3,3,0.5,0.4
2024-06-19T0800,1877A,109.4964,18.2681,三亚市,河西子站,,24,24,23,14,14,35,,29,29,12,6,1,1,0.3,0.3
2024-06-19T0800,3540A,109.7348,18.3443,三亚市,君悦子站,,16,16,25,10,10,22,,21,21,9,7,1,2,0.3,0.3
2024-06-19T0800,2624A,91.7608,29.2313,山南市,山南监测站,,30,6,7,3,4,96,,103,103,6,5,4,4,0.3,0.3
2024-06-19T0800,2625A,91.7706,29.2436,山南市,山南人民医院,,32,15,21,9,8,101,,104,104,11,9,6,6,0.3,0.3
2024-06-19T0800,1674A,116.6794,23.3667,汕头市,金平子站,,11,10,11,3,5,35,,31,31,7,9,2,2,0.6,0.6
2024-06-19T0800,1675A,116.7244,23.3633,汕头市,龙湖子站,,14,14,14,3,4,30,,29,29,10,12,5,6,0.6,0.7
2024-06-19T0800,1676A,116.7258,23.2775,汕头市,濠江子站,,11,8,22,3,7,34,,29,29,2,2,4,4,0.8,0.5
2024-06-19T0800,1677A,116.7519,23.4714,汕头市,澄海子站,,12,,16,8,8,23,,22,22,12,13,5,5,0.7,0.7
2024-06-19T0800,1678A,116.6092,23.2539,汕头市,潮阳子站,,14,14,14,6,5,35,,28,28,3,6,4,4,0.4,0.4
2024-06-19T0800,3444A,116.454,23.2684,汕头市,潮南峡山,,14,14,19,6,14,28,,23,23,7,9,4,4,0.5,0.5
2024-06-19T0800,3624A,116.4069,23.2533,汕头市,潮南子站,,14,14,23,6,8,29,,26,26,6,6,6,6,0.9,0.7
2024-06-19T0800,1693A,115.3653,22.775,汕尾市,市环保局,,,,23,12,6,36,,35,35,,2,4,4,0.5,0.5
2024-06-19T0800,1694A,115.3706,22.7898,汕尾市,市政府,,12,6,14,3,5,38,,37,37,1,2,6,6,0.5,0.5
2024-06-19T0800,1695A,115.3622,22.7925,汕尾市,新城中学,,12,6,19,6,5,38,,39,39,3,4,4,4,0.5,0.4
2024-06-19T0800,2645A,109.9154,33.8715,商洛市,监测站,,50,50,38,24,20,37,,53,53,18,12,6,8,0.6,0.6
2024-06-19T0800,3045A,109.9643,33.8471,商洛市,商州区中学,,40,40,41,22,21,30,,49,49,29,16,8,13,0.9,0.8
2024-06-19T0800,2408A,115.6702,34.4285,商丘市,环境监测站,颗粒物(PM10),54,58,50,30,22,125,,130,130,24,14,14,10,0.6,0.3
2024-06-19T0800,2409A,115.6458,34.4045,商丘市,粮食局,颗粒物(PM10),51,52,46,25,23,121,,126,126,18,10,9,6,0.5,0.3
2024-06-19T0800,2410A,115.6293,34.3948,商丘市,睢阳区环保局,颗粒物(PM10),59,68,53,24,23,127,,132,132,20,13,10,7,0.6,0.3
2024-06-19T0800,3171A,115.6071,34.4465,商丘市,梁园区档案局,,46,46,47,30,23,138,,141,141,18,12,13,10,0.7,0.5
2024-06-19T0800,1141A,121.4,31.238,上海市,普陀,,19,17,17,12,11,58,,82,82,20,13,4,4,0.4,0.3
2024-06-19T0800,1142A,121.478,31.2036,上海市,十五厂,,18,17,18,8,11,56,,82,82,26,18,6,7,0.5,0.5
2024-06-19T0800,1143A,121.467,31.3008,上海市,虹口,,19,19,16,10,10,56,,80,80,22,14,4,4,0.5,0.4
2024-06-19T0800,1144A,121.412,31.1654,上海市,徐汇上师大,,19,16,17,8,12,58,,83,83,24,18,8,8,0.6,0.5
2024-06-19T0800,1145A,121.536,31.2659,上海市,杨浦四漂,,21,21,22,9,10,48,,76,76,35,22,6,7,0.7,0.6
2024-06-19T0800,1147A,121.425,31.2261,上海市,静安监测站,,18,18,17,12,12,57,,82,82,23,16,7,8,0.5,0.5
2024-06-19T0800,1148A,121.703,31.1907,上海市,浦东川沙,,23,15,14,12,11,72,,86,86,18,14,5,6,0.5,0.5
2024-06-19T0800,1149A,121.533,31.2284,上海市,浦东新区监测站,,17,17,15,8,9,54,,80,80,31,19,4,5,0.5,0.5
